timepoint,stationcode,longitude,latitude,area,positionname,primarypollutant,aqi,pm10,pm10_24h,pm2_5,pm2_5_24h,o3,o3_24h,o3_8h,o3_8h_24h,no2,no2_24h,so2,so2_24h,co,co_24h
2022-04-29T19:00:00,1001A,116.3621,39.8784,北京市,万寿西宫,细颗粒物(PM2.5),75,81,59,55,40,108,90,96,96,23,20,3,3,0.5,0.4
2022-04-29T19:00:00,1002A,116.2202,40.2915,北京市,定陵(对照点),颗粒物(PM10),63,76,50,30,24,118,95,100,100,25,18,3,2,0.4,0.3
2022-04-29T19:00:00,1003A,116.4174,39.9289,北京市,东四,细颗粒物(PM2.5),79,77,55,58,39,111,96,100,100,19,18,3,3,0.7,0.4
2022-04-29T19:00:00,1004A,116.4072,39.8863,北京市,天坛,细颗粒物(PM2.5),74,74,53,54,41,112,95,100,100,17,17,3,3,0.5,0.4
2022-04-29T19:00:00,1005A,116.462,39.9365,北京市,农展馆,细颗粒物(PM2.5),80,73,51,59,40,115,100,104,104,21,19,2,2,0.4,0.3
2022-04-29T19:00:00,1006A,116.3392,39.9295,北京市,官园,细颗粒物(PM2.5),87,82,54,64,43,108,91,97,97,24,19,3,3,0.6,0.4
2022-04-29T19:00:00,1007A,116.2878,39.9611,北京市,海淀万柳,细颗粒物(PM2.5),87,81,55,64,42,102,83,92,92,24,18,1,1,0.5,0.3
2022-04-29T19:00:00,1008A,116.6636,40.135,北京市,顺义新城,细颗粒物(PM2.5),79,80,57,58,37,104,89,90,90,24,18,3,2,0.5,0.3
2022-04-29T19:00:00,1009A,116.6275,40.3275,北京市,怀柔镇,细颗粒物(PM2.5),75,68,54,55,37,137,118,111,111,22,20,3,3,0.5,0.4
2022-04-29T19:00:00,1010A,116.2296,40.217,北京市,昌平镇,细颗粒物(PM2.5),68,79,55,49,34,119,101,105,105,22,19,1,1,0.5,0.3
2022-04-29T19:00:00,1011A,116.3966,39.9821,北京市,奥体中心,细颗粒物(PM2.5),77,77,50,56,41,117,100,105,105,19,12,1,1,0.6,0.5
2022-04-29T19:00:00,1012A,116.184,39.9136,北京市,古城,细颗粒物(PM2.5),84,90,66,62,44,99,87,92,92,26,21,3,3,0.6,0.4
2022-04-29T19:00:00,1015A,117.1444,39.1661,天津市,勤俭道,颗粒物(PM10),55,60,56,38,35,126,105,118,118,19,32,6,5,0.6,0.6
2022-04-29T19:00:00,1017A,117.237,39.1082,天津市,大直沽八号路,细颗粒物(PM2.5),58,57,84,41,41,126,103,117,117,22,32,9,9,0.4,0.4
2022-04-29T19:00:00,1018A,117.202,39.0927,天津市,前进道,颗粒物(PM10),55,59,60,36,36,115,97,108,108,20,32,6,5,0.5,0.5
2022-04-29T19:00:00,1019A,117.1837,39.2133,天津市,淮河道,细颗粒物(PM2.5),65,77,62,47,40,129,102,118,118,28,37,9,8,0.7,0.6
2022-04-29T19:00:00,1021A,117.307,39.0877,天津市,跃进路,颗粒物(PM10),55,59,57,34,32,124,100,114,114,22,32,6,6,0.6,0.6
2022-04-29T19:00:00,1023A,117.707,39.0343,天津市,第四大街,细颗粒物(PM2.5),67,71,64,48,42,109,80,98,98,36,43,8,9,0.7,0.5
2022-04-29T19:00:00,1024A,117.457,38.8394,天津市,永明路,细颗粒物(PM2.5),58,56,60,41,43,115,95,103,103,19,24,10,15,0.6,0.7
2022-04-29T19:00:00,1026A,117.764,39.1587,天津市,汉北路,"颗粒物(PM10),细颗粒物(PM2.5)",54,58,49,38,33,125,95,106,106,26,25,8,8,0.5,0.5
2022-04-29T19:00:00,1027A,117.157,38.9194,天津市,团泊洼(对照点),颗粒物(PM10),67,83,61,36,38,115,97,108,108,18,22,9,8,1.0,1.1
2022-04-29T19:00:00,1029A,114.4422,38.0444,石家庄市,职工医院,细颗粒物(PM2.5),112,124,72,84,46,67,57,60,59,45,37,22,16,2.0,0.9
2022-04-29T19:00:00,1030A,114.6063,38.0266,石家庄市,高新区,细颗粒物(PM2.5),92,100,83,68,46,74,64,64,64,35,34,11,9,1.5,1
2022-04-29T19:00:00,1031A,114.4898,38.1328,石家庄市,西北水源,细颗粒物(PM2.5),109,117,72,82,50,68,55,58,58,37,34,14,10,2.0,0.9
2022-04-29T19:00:00,1032A,114.4586,38.0058,石家庄市,西南高教,细颗粒物(PM2.5),108,104,68,81,51,61,47,53,52,49,40,10,7,2.1,1.1
2022-04-29T19:00:00,1033A,114.5331,38.0178,石家庄市,世纪公园,细颗粒物(PM2.5),104,120,82,78,48,67,57,58,58,34,31,9,8,1.9,0.9
2022-04-29T19:00:00,1034A,114.509,38.0457,石家庄市,人民会堂,细颗粒物(PM2.5),132,105,71,100,54,74,62,63,63,47,37,15,15,2.0,1
2022-04-29T19:00:00,1035A,114.3524,37.8911,石家庄市,封龙山(对照点),细颗粒物(PM2.5),97,98,55,72,35,105,61,98,76,40,14,15,11,2.4,0.9
2022-04-29T19:00:00,1037A,118.131,39.6363,唐山市,雷达站,细颗粒物(PM2.5),73,86,63,53,40,152,138,125,125,26,22,1,2,0.5,0.6
2022-04-29T19:00:00,1038A,118.1725,39.6334,唐山市,物资局,细颗粒物(PM2.5),80,88,56,59,39,151,136,119,119,34,30,5,5,0.5,0.6
2022-04-29T19:00:00,1040A,118.1705,39.6506,唐山市,十二中,细颗粒物(PM2.5),75,86,47,55,35,151,141,120,120,21,21,3,4,0.4,0.5
2022-04-29T19:00:00,1041A,118.1869,39.622,唐山市,小山,细颗粒物(PM2.5),82,86,52,60,34,157,144,126,126,28,26,3,4,0.5,0.5
2022-04-29T19:00:00,1042A,119.5134,39.8207,秦皇岛市,北戴河环保局,颗粒物(PM10),52,53,36,35,25,102,100,96,96,33,24,11,9,1.3,1.1
2022-04-29T19:00:00,1043A,119.7493,40.0116,秦皇岛市,第一关,细颗粒物(PM2.5),73,86,49,53,28,128,85,108,108,35,35,13,10,0.9,0.6
2022-04-29T19:00:00,1044A,119.5897,39.9499,秦皇岛市,监测站,颗粒物(PM10),61,71,48,36,25,120,85,105,102,37,29,6,7,1.0,0.9
2022-04-29T19:00:00,1046A,119.5251,39.9041,秦皇岛市,建设大厦,颗粒物(PM10),61,72,43,37,24,130,91,116,112,28,25,6,5,0.9,0.8
2022-04-29T19:00:00,1048A,114.5302,36.6116,邯郸市,东污水处理厂,细颗粒物(PM2.5),67,52,56,48,49,112,106,82,82,16,26,10,8,0.7,1.3
2022-04-29T19:00:00,1049A,114.4918,36.5713,邯郸市,矿院,颗粒物(PM10),63,76,58,44,45,117,108,86,86,7,20,6,7,0.8,1
2022-04-29T19:00:00,1050A,114.484,36.6133,邯郸市,丛台公园,颗粒物(PM10),52,53,46,35,39,120,114,86,86,12,19,7,7,0.8,1.1
2022-04-29T19:00:00,1051A,115.493,38.8632,保定市,游泳馆,细颗粒物(PM2.5),52,49,49,36,34,110,96,103,103,17,22,8,6,0.7,0.6
2022-04-29T19:00:00,1053A,115.4713,38.9108,保定市,接待中心,颗粒物(PM10),57,63,60,39,36,106,100,103,103,18,23,9,7,0.8,0.6
2022-04-29T19:00:00,1054A,115.4612,38.8416,保定市,地表水厂,,,,31,33,34,114,101,107,107,13,17,10,8,0.7,0.6
2022-04-29T19:00:00,1055A,115.4323,38.8697,保定市,胶片厂,细颗粒物(PM2.5),54,54,44,38,35,106,95,102,102,18,23,9,7,0.8,0.6
2022-04-29T19:00:00,1056A,115.5086,38.8639,保定市,监测站,细颗粒物(PM2.5),59,52,48,42,44,113,99,104,104,13,18,6,5,0.7,0.6
2022-04-29T19:00:00,1057A,114.8883,40.8336,张家口市,人民公园,,50,50,35,2,16,99,95,92,92,6,13,3,4,0.2,0.3
2022-04-29T19:00:00,1059A,114.8687,40.8042,张家口市,五金库,颗粒物(PM10),51,51,39,10,20,97,90,90,90,13,20,4,5,0.2,0.2
2022-04-29T19:00:00,1060A,114.8902,40.762,张家口市,世纪豪园,,50,50,37,27,26,98,90,88,88,13,19,3,3,0.2,0.3
2022-04-29T19:00:00,1061A,114.8916,40.8661,张家口市,北泵房(对照点),,46,46,31,16,25,100,97,94,94,4,12,7,7,0.3,0.4
2022-04-29T19:00:00,1062A,117.9531,40.9081,承德市,铁路,,46,46,36,23,21,89,42,66,65,56,28,23,21,0.4,0.6
2022-04-29T19:00:00,1063A,117.9392,40.9763,承德市,中国银行,,27,27,23,15,18,85,66,75,75,20,19,25,20,0.7,0.5
2022-04-29T19:00:00,1064A,117.9503,40.928,承德市,开发区,,36,36,43,21,23,96,67,77,77,18,21,17,17,0.5,0.6
2022-04-29T19:00:00,1065A,117.8051,40.9655,承德市,文化中心,,26,14,26,18,17,93,79,82,82,11,20,10,22,0.3,0.5
2022-04-29T19:00:00,1066A,117.9268,41.0026,承德市,离宫(对照点),,26,24,25,18,22,86,72,77,76,9,15,17,10,0.4,0.5
2022-04-29T19:00:00,1067A,116.6708,39.5111,廊坊市,药材公司,细颗粒物(PM2.5),62,67,50,44,35,124,105,111,111,17,23,3,2,0.5,0.4
2022-04-29T19:00:00,1068A,116.7214,39.5589,廊坊市,开发区,细颗粒物(PM2.5),60,63,46,43,34,122,106,111,111,23,27,1,1,0.4,0.4
2022-04-29T19:00:00,1070A,116.7244,39.5269,廊坊市,北华航天学院,细颗粒物(PM2.5),79,70,58,58,39,122,106,110,110,20,26,6,6,0.4,0.4
2022-04-29T19:00:00,1071A,116.8842,38.2991,沧州市,沧县城建局,颗粒物(PM10),65,80,50,45,33,103,85,97,97,33,33,10,9,0.6,0.5
2022-04-29T19:00:00,1072A,116.8584,38.3254,沧州市,电视转播站,颗粒物(PM10),52,54,43,33,24,99,85,93,93,25,33,7,7,0.4,0.4
2022-04-29T19:00:00,1073A,116.8709,38.3228,沧州市,市环保局,颗粒物(PM10),55,59,43,34,31,108,91,100,100,22,28,6,8,0.6,0.6
2022-04-29T19:00:00,1074A,115.6838,37.7541,衡水市,电机北厂,,48,48,41,30,26,103,96,96,96,14,15,7,9,0.5,0.4
2022-04-29T19:00:00,1075A,115.6303,37.7316,衡水市,市监测站,颗粒物(PM10),60,70,45,38,28,102,85,94,94,16,15,12,16,0.5,0.4
2022-04-29T19:00:00,1077A,114.4704,37.0886,邢台市,达活泉,细颗粒物(PM2.5),80,76,67,59,46,77,74,52,52,35,35,10,10,1.4,1.5
2022-04-29T19:00:00,1078A,114.5062,37.0349,邢台市,邢师高专,细颗粒物(PM2.5),70,65,66,51,47,71,71,51,51,30,35,9,10,1.3,1.5
2022-04-29T19:00:00,1079A,114.5237,37.0851,邢台市,路桥公司,细颗粒物(PM2.5),77,76,68,56,46,80,79,55,55,30,34,11,12,1.3,1.5
2022-04-29T19:00:00,1081A,112.5139,37.8873,太原市,尖草坪,细颗粒物(PM2.5),139,140,107,106,75,116,104,89,89,48,44,24,12,1.2,0.8
2022-04-29T19:00:00,1083A,112.434,38.0108,太原市,上兰(对照点),细颗粒物(PM2.5),186,,,140,77,106,98,72,72,48,24,29,11,1.5,0.8
2022-04-29T19:00:00,1084A,112.469,37.7124,太原市,晋源,细颗粒物(PM2.5),185,187,106,139,80,117,89,89,89,50,48,26,16,1.2,0.9
2022-04-29T19:00:00,1085A,112.5583,37.7394,太原市,小店,细颗粒物(PM2.5),140,137,95,107,70,117,92,92,92,40,43,20,14,0.9,0.8
2022-04-29T19:00:00,1086A,112.5369,37.8692,太原市,桃园,细颗粒物(PM2.5),135,136,102,103,69,115,103,92,92,62,54,19,10,1.1,0.7
2022-04-29T19:00:00,1087A,112.57,37.8195,太原市,坞城,细颗粒物(PM2.5),133,127,87,101,67,115,91,92,92,57,50,20,15,0.9,0.6
2022-04-29T19:00:00,1088A,112.549,37.9854,太原市,南寨,细颗粒物(PM2.5),117,118,101,88,66,104,100,82,82,38,38,17,13,0.8,0.8
2022-04-29T19:00:00,1090A,111.6507,40.7517,呼和浩特市,呼市一监,,30,17,41,1,24,94,93,92,92,7,22,4,6,0.2,0.4
2022-04-29T19:00:00,1091A,111.6572,40.8033,呼和浩特市,小召,,27,19,37,3,23,86,86,86,86,12,28,5,6,0.3,0.4
2022-04-29T19:00:00,1094A,111.7516,40.8369,呼和浩特市,如意水处理厂,,,27,37,,21,91,90,89,89,6,26,8,8,0.2,0.3
2022-04-29T19:00:00,1095A,111.7276,40.8062,呼和浩特市,二十九中,,29,16,36,0,16,92,92,91,91,6,25,2,3,0.5,0.6
2022-04-29T19:00:00,1096A,111.5512,40.7866,呼和浩特市,工大金川校区,,33,33,46,7,24,83,81,81,81,8,25,5,5,0.4,0.5
2022-04-29T19:00:00,1097A,111.717,40.7612,呼和浩特市,化肥厂生活区,,26,21,41,2,21,87,82,84,84,7,21,8,9,0.4,0.4
2022-04-29T19:00:00,1098A,123.6836,41.9339,沈阳市,森林路(对照点),,43,43,53,27,32,150,113,139,137,21,24,11,15,0.3,0.6
2022-04-29T19:00:00,1099A,123.505,41.7406,沈阳市,浑南东路,颗粒物(PM10),56,62,83,28,46,146,115,129,129,26,43,16,24,0.7,0.9
2022-04-29T19:00:00,1100A,123.4231,41.6989,沈阳市,新秀街,颗粒物(PM10),57,63,77,30,40,145,95,122,122,47,47,10,19,0.5,0.7
2022-04-29T19:00:00,1102A,123.5903,41.8411,沈阳市,东陵路,颗粒物(PM10),53,55,70,31,40,137,105,122,122,25,36,14,17,0.6,0.8
2022-04-29T19:00:00,1103A,123.4264,41.8467,沈阳市,陵东街,,48,48,72,28,40,145,101,124,124,32,37,12,12,0.7,0.8
2022-04-29T19:00:00,1104A,123.4114,41.7653,沈阳市,文化路,颗粒物(PM10),56,61,75,39,52,149,107,133,128,30,33,9,16,0.7,1.1
2022-04-29T19:00:00,1105A,123.4678,41.7867,沈阳市,小河沿,颗粒物(PM10),55,59,73,32,40,150,115,131,131,32,37,10,14,0.8,0.9
2022-04-29T19:00:00,1106A,123.4017,41.7972,沈阳市,太原街,细颗粒物(PM2.5),64,69,75,46,50,152,105,128,128,41,36,12,17,0.7,0.8
2022-04-29T19:00:00,1108A,123.3783,41.9228,沈阳市,京沈街,颗粒物(PM10),56,62,71,31,51,153,104,128,128,28,45,10,15,1.0,1.2
2022-04-29T19:00:00,1109A,121.612,38.9741,大连市,甘井子,细颗粒物(PM2.5),64,70,37,46,23,110,104,106,106,23,19,5,5,0.8,0.6
2022-04-29T19:00:00,1110A,121.565,38.9511,大连市,周水子,细颗粒物(PM2.5),65,78,37,47,20,98,84,92,92,33,23,11,10,1.0,0.5
2022-04-29T19:00:00,1111A,121.5637,38.8845,大连市,星海三站,细颗粒物(PM2.5),59,46,32,42,27,127,120,115,115,25,20,8,7,1.2,0.8
2022-04-29T19:00:00,1112A,121.6302,38.9117,大连市,青泥洼桥,颗粒物(PM10),59,68,36,34,16,127,94,119,117,56,31,11,8,1.4,0.5
2022-04-29T19:00:00,1113A,121.6251,38.8638,大连市,傅家庄,细颗粒物(PM2.5),54,54,33,38,24,126,107,101,101,27,22,4,4,1.3,0.6
2022-04-29T19:00:00,1114A,121.5213,38.8661,大连市,七贤岭,细颗粒物(PM2.5),82,72,35,60,21,173,21,146,17,17,11,14,14,1.2,0.6
2022-04-29T19:00:00,1115A,121.2529,38.8061,大连市,旅顺,细颗粒物(PM2.5),73,50,33,53,31,126,92,111,109,32,16,8,7,1.1,0.6
2022-04-29T19:00:00,1116A,121.7485,39.1311,大连市,金州,细颗粒物(PM2.5),90,92,42,67,27,121,116,115,115,25,21,8,6,1.7,0.6
2022-04-29T19:00:00,1117A,121.7811,39.0496,大连市,开发区,细颗粒物(PM2.5),79,65,32,58,25,105,97,96,96,34,25,9,7,1.8,0.7
2022-04-29T19:00:00,1118A,121.9762,39.0631,大连市,双D港,,,56,53,48,43,113,113,104,104,29,35,,7,1.7,1.4
2022-04-29T19:00:00,1119A,125.3325,43.9166,长春市,食品厂,细颗粒物(PM2.5),97,91,79,72,79,148,106,134,131,24,23,9,8,0.7,0.7
2022-04-29T19:00:00,1120A,125.2863,43.9027,长春市,客车厂,,,101,80,61,62,158,113,143,139,,,10,8,1.2,1.2
2022-04-29T19:00:00,1121A,125.2841,43.8463,长春市,邮电学院,颗粒物(PM10),67,84,92,45,60,148,117,148,132,15,17,5,5,0.9,1
2022-04-29T19:00:00,1122A,125.3716,43.8772,长春市,劳动公园,细颗粒物(PM2.5),62,65,72,44,58,160,124,143,142,15,16,5,5,0.7,0.7
2022-04-29T19:00:00,1123A,125.3297,43.8805,长春市,园林处,细颗粒物(PM2.5),63,66,69,45,56,159,114,141,138,16,20,7,6,0.8,0.8
2022-04-29T19:00:00,1124A,125.4605,43.79,长春市,净月潭,,,59,64,43,54,,,,,,,,,,
2022-04-29T19:00:00,1125A,125.7194,43.515,长春市,甩湾子(对照点),,,,,70,43,129,113,124,122,23,15,,,0.7,0.6
2022-04-29T19:00:00,1126A,125.3863,43.8447,长春市,经开区环卫处,细颗粒物(PM2.5),68,59,75,49,69,149,115,134,133,10,10,11,11,1.1,1.2
2022-04-29T19:00:00,1127A,125.245,43.7783,长春市,高新区管委会,细颗粒物(PM2.5),94,94,87,70,82,168,118,150,147,20,29,9,20,1.0,1.1
2022-04-29T19:00:00,1128A,125.1761,43.8325,长春市,岱山公园,细颗粒物(PM2.5),90,107,84,67,68,146,100,133,127,18,21,10,9,0.8,1
2022-04-29T19:00:00,1129A,126.5422,45.755,哈尔滨市,岭北(对照点),细颗粒物(PM2.5),144,143,79,110,53,164,122,143,143,32,22,12,9,0.8,0.5
2022-04-29T19:00:00,1130A,126.561,45.8167,哈尔滨市,松北商大,细颗粒物(PM2.5),228,132,68,178,70,171,130,150,150,48,29,14,6,1.3,1.1
2022-04-29T19:00:00,1131A,126.979,45.5419,哈尔滨市,阿城会宁,细颗粒物(PM2.5),186,168,106,140,80,168,114,143,142,47,34,18,14,0.9,0.7
2022-04-29T19:00:00,1132A,126.599,45.7222,哈尔滨市,南岗学府路,细颗粒物(PM2.5),150,115,56,115,47,167,149,153,153,26,23,13,7,1.1,0.8
2022-04-29T19:00:00,1133A,126.689,45.7733,哈尔滨市,太平宏伟公园,细颗粒物(PM2.5),179,156,96,135,70,162,142,146,146,31,35,22,12,1.0,0.9
2022-04-29T19:00:00,1134A,126.635,45.7667,哈尔滨市,道外承德广场,细颗粒物(PM2.5),291,168,84,241,60,174,150,158,158,41,37,3,14,1.2,0.7
2022-04-29T19:00:00,1135A,126.685,45.7319,哈尔滨市,香坊红旗大街,细颗粒物(PM2.5),188,140,82,141,64,158,145,144,144,38,39,17,13,0.8,0.8
2022-04-29T19:00:00,1136A,126.6411,45.7258,哈尔滨市,动力和平路,细颗粒物(PM2.5),215,133,67,165,61,156,135,142,142,38,24,14,7,0.8,0.7
2022-04-29T19:00:00,1137A,126.593,45.7478,哈尔滨市,道里建国路,细颗粒物(PM2.5),192,150,69,144,56,170,132,151,151,39,27,16,10,1.0,0.9
2022-04-29T19:00:00,1138A,126.615,45.61,哈尔滨市,平房东轻厂,细颗粒物(PM2.5),188,127,90,141,75,167,118,147,146,50,38,19,21,,
2022-04-29T19:00:00,1139A,126.595,45.9855,哈尔滨市,呼兰师专,细颗粒物(PM2.5),311,241,84,261,76,160,,147,147,58,28,23,12,1.4,1
2022-04-29T19:00:00,1140A,126.6206,45.6842,哈尔滨市,省农科院,细颗粒物(PM2.5),199,150,76,149,55,158,139,144,144,28,20,19,16,0.9,0.6
2022-04-29T19:00:00,1141A,121.4,31.238,上海市,普陀,,36,24,22,10,8,123,113,120,113,15,13,2,2,1.7,1.7
2022-04-29T19:00:00,1142A,121.478,31.2036,上海市,十五厂,,35,22,12,14,11,120,110,114,109,12,10,4,4,0.8,0.8
2022-04-29T19:00:00,1144A,121.412,31.1654,上海市,徐汇上师大,,33,26,23,20,18,113,104,110,102,5,5,7,7,0.9,0.9
2022-04-29T19:00:00,1145A,121.536,31.2659,上海市,杨浦四漂,,,,,10,6,117,114,115,113,7,6,7,7,0.5,0.5
2022-04-29T19:00:00,1147A,121.425,31.2261,上海市,静安监测站,,34,27,21,14,11,114,107,112,106,14,12,4,4,0,0
2022-04-29T19:00:00,1148A,121.703,31.1907,上海市,浦东川沙,,37,28,15,12,11,122,118,118,117,13,13,4,4,0.9,0.9
2022-04-29T19:00:00,1149A,121.533,31.2284,上海市,浦东新区监测站,,36,25,22,13,11,119,113,116,110,14,11,5,5,0.7,0.6
2022-04-29T19:00:00,1150A,121.577,31.2071,上海市,浦东张江,,34,22,15,15,13,110,106,108,104,14,13,3,3,0.7,0.7
2022-04-29T19:00:00,1151A,118.8086,32.1065,南京市,迈皋桥,,28,28,27,12,9,107,80,102,98,32,16,2,6,0.3,0.5
2022-04-29T19:00:00,1152A,118.7538,32.0551,南京市,草场门,,29,29,21,17,10,114,82,111,103,26,11,2,3,1.1,0.9
2022-04-29T19:00:00,1153A,118.7794,32.0745,南京市,山西路,,,,15,19,14,114,93,110,107,22,9,3,3,0.2,0.2
2022-04-29T19:00:00,1154A,118.7752,32.0023,南京市,中华门,,36,36,26,22,7,117,95,112,110,13,6,4,4,0.2,0.2
2022-04-29T19:00:00,1155A,118.8109,32.0309,南京市,瑞金路,,33,33,28,19,13,111,100,107,104,17,12,3,3,0.4,0.4
2022-04-29T19:00:00,1156A,118.7997,32.0754,南京市,玄武湖,,29,29,24,17,11,108,82,106,98,11,5,5,4,0.4,0.3
2022-04-29T19:00:00,1157A,118.6414,32.0931,南京市,浦口,,,44,22,24,12,107,,105,100,10,8,4,4,0.5,0.7
2022-04-29T19:00:00,1158A,118.7356,31.9996,南京市,奥体中心,,36,36,20,24,12,121,85,116,110,36,14,5,5,0.5,0.4
2022-04-29T19:00:00,1159A,118.9125,32.1028,南京市,仙林大学城,,,29,19,14,10,125,,123,123,10,7,3,3,0.6,0.5
2022-04-29T19:00:00,1160A,120.561,31.2472,苏州市,上方山(对照点),,31,31,26,18,19,103,75,99,82,20,16,5,5,0.7,0.6
2022-04-29T19:00:00,1162A,120.591,31.3019,苏州市,彩香,,38,38,27,19,16,109,99,108,95,16,10,6,6,0.6,0.6
2022-04-29T19:00:00,1163A,120.596,31.3264,苏州市,轧钢厂,,42,42,37,22,16,112,87,110,94,22,11,6,6,0.6,0.6
2022-04-29T19:00:00,1164A,120.613,31.2703,苏州市,吴中区,,32,26,26,18,15,111,102,110,100,19,12,4,4,0.5,0.5
2022-04-29T19:00:00,1165A,120.543,31.2994,苏州市,苏州新区,,37,37,31,19,16,114,97,114,98,18,10,4,4,0.6,0.6
2022-04-29T19:00:00,1166A,120.669,31.3097,苏州市,苏州工业园区,,30,26,24,18,14,110,95,108,94,18,10,4,3,0.5,0.6
2022-04-29T19:00:00,1167A,120.641,31.3708,苏州市,相城区,,27,22,33,11,21,106,85,106,91,28,11,5,5,0.7,0.4
2022-04-29T19:00:00,1168A,120.9098,31.9663,南通市,狼山街道,,37,36,20,14,7,124,118,120,120,8,6,7,7,0.6,0.5
2022-04-29T19:00:00,1169A,120.86,32.0005,南通市,虹桥,,49,35,44,34,13,113,106,109,109,11,7,4,3,0.5,0.5
2022-04-29T19:00:00,1170A,120.87,32.02,南通市,城中,颗粒物(PM10),78,105,25,33,10,110,104,107,107,16,10,5,5,0.7,0.6
2022-04-29T19:00:00,1171A,120.94,31.93,南通市,星湖花园,,34,29,21,17,8,118,107,111,111,16,9,6,6,0.6,0.6
2022-04-29T19:00:00,1172A,120.81,32.0417,南通市,紫琅学院,,38,38,23,14,9,117,107,112,112,16,10,4,4,0.5,0.4
2022-04-29T19:00:00,1173A,119.176,34.5885,连云港市,市环境监测站,细颗粒物(PM2.5),62,68,44,44,28,118,112,112,112,21,17,7,6,0.7,0.6
2022-04-29T19:00:00,1177A,117.179,34.2761,徐州市,黄河新村,细颗粒物(PM2.5),73,75,61,53,47,115,97,106,106,12,17,4,6,0.7,0.7
2022-04-29T19:00:00,1178A,117.1918,34.2384,徐州市,淮塔,细颗粒物(PM2.5),73,70,46,53,37,124,101,112,112,14,19,7,7,0.8,0.8
2022-04-29T19:00:00,1180A,117.256,34.2153,徐州市,新城区,颗粒物(PM10),66,81,60,47,35,121,99,113,113,16,21,6,8,0.9,0.9
2022-04-29T19:00:00,1181A,117.244,34.2911,徐州市,桃园路,细颗粒物(PM2.5),120,90,69,91,39,116,91,109,109,28,26,6,9,0.6,0.9
2022-04-29T19:00:00,1182A,117.2933,34.2778,徐州市,农科院,细颗粒物(PM2.5),67,75,55,48,34,114,100,106,106,20,33,7,7,0.6,0.6
2022-04-29T19:00:00,1186A,119.389,32.3761,扬州市,邗江监测站,,39,39,23,23,15,123,115,120,120,6,3,2,2,0.5,0.4
2022-04-29T19:00:00,1188A,120.269,31.4867,无锡市,雪浪,,,44,27,,11,107,82,103,90,22,14,6,6,0.8,0.7
2022-04-29T19:00:00,1189A,120.275,31.6219,无锡市,黄巷,,43,43,25,24,13,112,90,110,95,26,16,6,6,0.8,0.8
2022-04-29T19:00:00,1190A,120.294,31.56,无锡市,曹张,,35,35,29,22,12,106,83,103,88,21,9,6,6,0.7,0.6
2022-04-29T19:00:00,1191A,120.242,31.5031,无锡市,漆塘,,41,41,23,22,17,110,67,108,88,22,15,5,4,0.7,0.6
2022-04-29T19:00:00,1192A,120.3489,31.5863,无锡市,东亭,,41,41,26,27,15,108,84,104,89,29,18,7,6,0.7,0.7
2022-04-29T19:00:00,1193A,120.354,31.5475,无锡市,旺庄,,39,39,24,24,17,105,82,103,90,25,13,9,7,0.8,0.6
2022-04-29T19:00:00,1194A,120.245,31.5631,无锡市,荣巷,,35,34,21,24,17,107,68,104,86,26,17,7,7,0.5,0.5
2022-04-29T19:00:00,1195A,120.299,31.6817,无锡市,堰桥,,41,41,17,22,13,114,91,111,97,19,9,6,5,1.0,0.7
2022-04-29T19:00:00,1196A,119.9633,31.762,常州市,市监测站,,39,39,32,14,11,107,92,105,100,14,8,8,7,0.4,0.4
2022-04-29T19:00:00,1200A,119.9468,31.7069,常州市,武进监测站,,33,33,30,21,13,111,105,109,106,13,11,5,5,0.4,0.4
2022-04-29T19:00:00,1201A,119.9255,31.9087,常州市,安家,,,,33,,21,115,98,110,106,14,9,5,4,0.3,0.3
2022-04-29T19:00:00,1203A,119.6707,32.1875,镇江市,新区办事处,,43,43,32,19,11,108,87,108,100,34,20,4,9,0.5,0.5
2022-04-29T19:00:00,1204A,119.4974,32.1968,镇江市,职教中心,,36,33,29,22,15,118,114,115,115,14,13,2,2,0.5,0.4
2022-04-29T19:00:00,1205A,119.4303,32.1328,镇江市,丹徒区监测站,,44,44,30,19,10,127,116,121,121,15,11,2,2,0.5,0.4
2022-04-29T19:00:00,1206A,119.905,32.4878,泰州市,公园路,,45,41,24,31,13,119,114,112,112,14,9,9,4,0.8,0.7
2022-04-29T19:00:00,1207A,119.9189,32.4625,泰州市,莲花,,39,34,20,27,18,118,112,114,114,13,9,9,6,0.7,0.6
2022-04-29T19:00:00,1209A,119.888,32.4639,泰州市,留学生创业园,,50,50,32,30,15,116,111,112,112,14,11,8,7,0.5,0.4
2022-04-29T19:00:00,1210A,119.036,33.5981,淮安市,钵池山,细颗粒物(PM2.5),52,49,36,36,29,112,103,108,108,16,13,8,8,0.6,0.6
2022-04-29T19:00:00,1211A,119.007,33.575,淮安市,北京南路,颗粒物(PM10),58,66,45,38,28,120,98,112,111,30,16,7,8,0.6,0.5
2022-04-29T19:00:00,1212A,118.989,33.6067,淮安市,市监测站,颗粒物(PM10),54,58,39,36,25,123,106,117,117,26,16,8,9,0.7,0.6
2022-04-29T19:00:00,1213A,119.135,33.5039,淮安市,楚州区监测站,,,54,42,37,32,121,106,114,114,19,17,,9,0.7,0.5
2022-04-29T19:00:00,1214A,119.0186,33.6297,淮安市,淮阴区监测站,细颗粒物(PM2.5),57,58,39,40,36,114,105,110,110,22,16,7,8,0.6,0.5
2022-04-29T19:00:00,1215A,120.118,33.4022,盐城市,盐城电厂,,39,39,29,18,16,122,102,115,113,19,11,9,8,0.5,0.4
2022-04-29T19:00:00,1216A,120.156,33.3942,盐城市,市监测站,,,34,24,34,19,117,102,110,107,13,10,,7,0.5,0.3
2022-04-29T19:00:00,1218A,120.2144,33.38,盐城市,开发区管委会,,36,32,24,25,16,125,111,115,115,6,10,8,8,0.4,0.4
2022-04-29T19:00:00,1220A,118.293,33.9528,宿迁市,宿迁学院,颗粒物(PM10),54,58,45,35,29,144,111,135,134,15,13,4,4,0.7,0.7
2022-04-29T19:00:00,1221A,118.2442,33.9592,宿迁市,宿迁中学,颗粒物(PM10),52,53,60,34,29,143,106,128,128,10,11,3,4,0.4,0.5
2022-04-29T19:00:00,1223A,120.2072,30.2111,杭州市,滨江,颗粒物(PM10),52,53,47,32,23,96,80,82,82,29,22,3,2,0.5,0.5
2022-04-29T19:00:00,1224A,120.0633,30.2747,杭州市,西溪,,45,45,38,25,15,89,86,85,85,25,22,6,6,0.7,0.7
2022-04-29T19:00:00,1226A,120.3461,30.3153,杭州市,下沙,颗粒物(PM10),53,56,51,25,18,107,71,98,86,43,27,6,6,0.6,0.6
2022-04-29T19:00:00,1227A,120.1269,30.2456,杭州市,卧龙桥,,45,45,39,28,22,85,71,82,80,26,21,4,4,0.5,0.5
2022-04-29T19:00:00,1228A,120.1903,30.2692,杭州市,浙江农大,颗粒物(PM10),55,59,45,30,20,105,81,89,86,31,24,4,4,0.6,0.6
2022-04-29T19:00:00,1230A,120.1197,30.3119,杭州市,和睦小学,颗粒物(PM10),53,55,49,28,21,90,82,86,85,31,26,2,2,0.7,0.7
2022-04-29T19:00:00,1231A,120.3019,30.4183,杭州市,临平镇,颗粒物(PM10),52,54,45,30,22,105,84,100,91,30,22,3,3,0.8,0.8
2022-04-29T19:00:00,1232A,120.2697,30.1819,杭州市,城厢镇,,48,48,53,29,25,97,79,86,80,34,26,5,5,0.5,0.6
2022-04-29T19:00:00,1233A,120.0883,30.1808,杭州市,云栖,,41,41,45,20,16,95,66,87,82,22,17,6,6,0.5,0.6
2022-04-29T19:00:00,1234A,121.8358,29.911,宁波市,区环保大楼,,31,26,36,12,15,105,99,99,96,20,23,7,7,0.5,0.5
2022-04-29T19:00:00,1235A,121.56,29.82,宁波市,万里学院,,,20,35,10,15,119,119,112,112,,9,8,8,0.7,0.7
2022-04-29T19:00:00,1236A,121.713,29.9572,宁波市,龙赛医院,,34,22,40,10,15,115,106,109,107,24,25,5,7,0.6,0.6
2022-04-29T19:00:00,1239A,121.633,29.7733,宁波市,钱湖水厂,,36,20,34,9,15,114,114,107,107,13,13,7,7,0.4,0.5
2022-04-29T19:00:00,1240A,121.5856,29.8635,宁波市,太古小学,,35,24,31,2,16,110,110,100,100,18,20,7,7,0.4,0.5
2022-04-29T19:00:00,1241A,121.524,29.8674,宁波市,市环境监测中心,,,21,34,7,13,115,115,106,106,14,18,6,6,,0.5
2022-04-29T19:00:00,1242A,120.634,28.0089,温州市,瓯海,,19,19,58,10,26,72,57,58,46,27,32,5,5,0.5,0.5
2022-04-29T19:00:00,1243A,120.6748,27.9939,温州市,南浦,,25,25,69,13,26,78,60,60,51,31,36,6,6,0.5,0.5
2022-04-29T19:00:00,1244A,120.76,27.9747,温州市,龙湾,,24,24,78,9,25,62,62,57,57,32,40,4,4,0.5,0.5
2022-04-29T19:00:00,1245A,120.6709,28.0167,温州市,市站,,25,25,72,12,28,79,48,65,49,40,34,4,5,0.6,0.5
2022-04-29T19:00:00,1247A,120.6053,29.9928,绍兴市,城东开发委,,36,35,46,25,22,103,81,95,86,28,21,5,5,0.5,0.5
2022-04-29T19:00:00,1250A,120.0751,30.8669,湖州市,城西水厂,,35,35,26,23,16,101,76,98,88,37,23,4,4,0.5,0.6
2022-04-29T19:00:00,1252A,120.7436,30.778,嘉兴市,清河小学,,,28,28,14,14,106,,101,92,16,12,5,5,0.2,0.6
2022-04-29T19:00:00,1253A,120.726,30.7478,嘉兴市,嘉兴学院,,31,31,33,18,14,104,89,99,92,23,17,4,4,0.4,0.5
2022-04-29T19:00:00,1255A,121.273,28.6459,台州市,黄岩环保大楼,颗粒物(PM10),54,57,75,21,21,84,84,81,81,15,19,5,5,0.4,0.4
2022-04-29T19:00:00,1256A,121.419,28.6542,台州市,台州环保大楼,颗粒物(PM10),51,52,66,26,21,106,95,99,99,14,14,4,4,0.5,0.4
2022-04-29T19:00:00,1257A,121.377,28.5773,台州市,路桥田洋王,,,166,43,,38,97,83,86,86,19,20,5,6,0.5,0.1
2022-04-29T19:00:00,1258A,122.122,30.0203,舟山市,定海檀枫,,33,23,40,9,14,107,105,101,101,4,10,2,2,0.3,0.3
2022-04-29T19:00:00,1259A,122.3094,29.9558,舟山市,普陀东港,,37,26,40,10,13,119,116,113,113,8,11,3,3,0.3,0.3
2022-04-29T19:00:00,1260A,122.19,29.9944,舟山市,临城新区,,36,24,34,10,14,114,114,110,110,9,14,2,2,0.3,0.3
2022-04-29T19:00:00,1262A,119.647,29.077,金华市,十五中,,48,39,30,33,22,94,67,82,81,31,22,4,5,0.6,0.6
2022-04-29T19:00:00,1263A,119.686,29.1029,金华市,监测站,细颗粒物(PM2.5),69,43,30,50,21,91,67,78,78,28,22,4,4,0.6,0.6
2022-04-29T19:00:00,1264A,118.8692,28.9398,衢州市,环保大楼,,38,38,25,19,12,83,76,77,77,19,18,3,2,0.5,0.5
2022-04-29T19:00:00,1265A,118.8709,28.9666,衢州市,实验学校,,28,28,21,18,12,85,80,79,79,19,21,6,5,0.5,0.5
2022-04-29T19:00:00,1266A,118.8621,28.9808,衢州市,衢州学院,,34,34,23,19,12,89,80,82,82,20,21,4,3,0.3,0.3
2022-04-29T19:00:00,1267A,119.914,28.4514,丽水市,监测站大楼,,26,26,27,9,16,81,78,79,79,12,12,4,4,0.4,0.5
2022-04-29T19:00:00,1268A,119.93,28.4586,丽水市,莲都小学,,25,19,28,4,13,88,79,83,83,15,13,5,5,0.3,0.4
2022-04-29T19:00:00,1269A,119.879,28.4231,丽水市,余庄前,,32,32,27,21,15,70,61,64,64,14,13,5,5,0.4,0.4
2022-04-29T19:00:00,1270A,117.1959,31.7848,合肥市,明珠广场,,39,39,31,19,17,102,63,102,86,48,19,4,4,0.5,0.5
2022-04-29T19:00:00,1271A,117.3072,31.8764,合肥市,三里街,,31,31,29,17,15,104,87,98,96,14,11,9,9,0.5,0.5
2022-04-29T19:00:00,1272A,117.2588,31.8707,合肥市,琥珀山庄,,34,34,25,17,15,96,78,92,90,21,13,5,5,0.5,0.5
2022-04-29T19:00:00,1273A,117.1604,31.9052,合肥市,董铺水库(对照点),,29,29,26,14,12,98,88,95,95,18,14,9,9,1.0,1
2022-04-29T19:00:00,1274A,117.25,31.8571,合肥市,长江中路,,34,34,28,2,9,118,100,110,109,22,14,7,7,0.7,0.5
2022-04-29T19:00:00,1275A,117.266,31.9436,合肥市,庐阳区,,34,34,28,12,9,117,100,111,110,24,18,6,7,0.3,0.3
2022-04-29T19:00:00,1276A,117.336,31.8586,合肥市,瑶海区,,36,29,29,25,24,109,95,107,103,12,10,5,5,0.6,0.5
2022-04-29T19:00:00,1277A,117.3027,31.7964,合肥市,包河区,,39,39,28,17,16,103,60,100,91,48,19,5,5,0.4,0.3
2022-04-29T19:00:00,1278A,117.2776,31.7385,合肥市,滨湖新区,,,31,25,,14,114,96,112,104,20,12,5,5,0.4,0.4
2022-04-29T19:00:00,1279A,117.1318,31.8403,合肥市,高新区,,29,29,28,19,18,107,92,100,100,24,16,6,7,0.4,0.3
2022-04-29T19:00:00,1280A,119.3903,26.0543,福州市,鼓山(对照点),,33,4,37,5,26,110,103,92,92,2,5,3,4,0.6,0.7
2022-04-29T19:00:00,1282A,119.2681,26.0504,福州市,师大,,26,16,56,6,30,104,83,89,89,17,26,2,3,0.4,0.5
2022-04-29T19:00:00,1283A,119.2984,26.1028,福州市,五四北路,,27,7,48,2,27,110,86,93,91,16,23,2,3,0.5,0.6
2022-04-29T19:00:00,1284A,119.2648,26.0768,福州市,杨桥西路,,22,14,56,15,34,95,70,79,79,20,27,2,4,0.6,0.7
2022-04-29T19:00:00,1285A,119.317,26.0746,福州市,紫阳,,25,13,58,6,29,102,80,85,85,18,29,4,6,0.6,0.7
2022-04-29T19:00:00,1286A,118.1608,24.8169,厦门市,溪东(对照点),颗粒物(PM10),52,53,43,32,32,179,76,120,114,6,4,2,2,0.3,0.4
2022-04-29T19:00:00,1287A,118.1514,24.4767,厦门市,洪文,,34,34,32,21,20,98,87,74,74,22,26,4,6,0.5,0.4
2022-04-29T19:00:00,1288A,118.0661,24.4444,厦门市,鼓浪屿,,28,28,31,19,23,84,84,77,65,13,30,2,8,0.2,0.3
2022-04-29T19:00:00,1290A,115.8931,28.6843,南昌市,省外办,,36,27,19,12,8,120,114,116,116,8,7,3,3,0.6,0.6
2022-04-29T19:00:00,1291A,115.8886,28.7003,南昌市,省林业公司,,39,22,16,10,7,132,123,126,126,8,7,8,8,0.7,0.6
2022-04-29T19:00:00,1292A,115.8126,28.7442,南昌市,林科所,,34,17,9,11,6,117,106,112,112,10,7,6,6,0.6,0.6
2022-04-29T19:00:00,1294A,115.8518,28.687,南昌市,建工学校,,35,23,16,15,9,114,111,110,110,16,10,8,6,0.5,0.5
2022-04-29T19:00:00,1295A,115.8921,28.6424,南昌市,象湖,,35,32,25,8,5,116,110,112,112,6,6,1,2,0.6,0.5
2022-04-29T19:00:00,1296A,115.7423,28.7996,南昌市,武术学校(对照点),,30,19,13,8,5,114,96,109,109,10,9,4,6,0.5,0.5
2022-04-29T19:00:00,1298A,115.9314,28.6842,南昌市,省站,,45,29,20,31,15,121,114,116,116,12,10,6,6,0.5,0.5
2022-04-29T19:00:00,1299A,116.9862,36.6114,济南市,科干所,"颗粒物(PM10),细颗粒物(PM2.5)",53,56,49,37,30,121,109,115,115,21,21,12,10,0.9,0.9
2022-04-29T19:00:00,1300A,116.9376,36.665,济南市,农科所,颗粒物(PM10),53,56,53,24,29,125,100,114,114,22,29,9,9,0.5,0.5
2022-04-29T19:00:00,1301A,117.1265,36.6734,济南市,开发区,颗粒物(PM10),57,63,50,38,38,129,104,116,116,22,20,9,10,0.6,0.6
2022-04-29T19:00:00,1303A,117.0624,36.6868,济南市,省种子仓库,颗粒物(PM10),60,70,65,42,44,129,108,117,117,16,21,6,8,0.9,1
2022-04-29T19:00:00,1304A,116.9489,36.6447,济南市,机床二厂,颗粒物(PM10),67,83,66,37,41,125,107,115,115,13,20,9,9,0.4,0.4
2022-04-29T19:00:00,1305A,117.0495,36.663,济南市,市监测站,颗粒物(PM10),61,71,61,40,41,126,106,115,115,16,18,12,13,0.5,0.5
2022-04-29T19:00:00,1306A,116.7675,36.5484,济南市,长清党校,颗粒物(PM10),55,59,55,34,34,114,104,110,110,16,29,14,10,0.7,0.9
2022-04-29T19:00:00,1307A,120.6659,36.2403,青岛市,仰口(对照点),,45,34,29,31,22,102,88,98,98,21,10,5,4,0.6,0.5
2022-04-29T19:00:00,1310A,120.4134,36.0658,青岛市,市南区东部子站,,42,41,39,29,22,126,126,111,111,18,18,4,5,0.5,0.4
2022-04-29T19:00:00,1311A,120.3664,36.1032,青岛市,四方区子站,颗粒物(PM10),56,61,40,39,28,118,118,106,106,27,20,6,6,0.7,0.6
2022-04-29T19:00:00,1312A,120.2994,36.054,青岛市,市南区西部子站,颗粒物(PM10),57,63,42,32,20,133,133,116,116,23,23,6,7,0.6,0.6
2022-04-29T19:00:00,1313A,120.4581,36.0858,青岛市,崂山区子站,,44,39,37,29,19,139,139,123,123,17,17,6,7,0.5,0.4
2022-04-29T19:00:00,1314A,120.1983,35.9608,青岛市,黄岛区子站,细颗粒物(PM2.5),59,53,44,42,28,118,114,104,104,25,35,5,5,0.4,0.4
2022-04-29T19:00:00,1315A,120.3999,36.3083,青岛市,城阳区子站,,44,44,39,20,19,120,97,110,110,23,16,4,4,0.7,0.6
2022-04-29T19:00:00,1316A,113.69031,34.76122,郑州市,烟厂,细颗粒物(PM2.5),64,60,55,46,44,133,127,116,116,20,22,7,7,0.7,0.8
2022-04-29T19:00:00,1317A,113.65724,34.77134,郑州市,郑纺机,细颗粒物(PM2.5),63,56,45,45,39,134,117,118,118,22,20,6,7,0.7,0.8
2022-04-29T19:00:00,1318A,113.67526,34.80246,郑州市,银行学校,细颗粒物(PM2.5),80,63,49,59,49,141,133,126,126,27,22,5,6,0.7,0.8
2022-04-29T19:00:00,1319A,113.56746,34.81334,郑州市,供水公司,细颗粒物(PM2.5),75,75,52,55,48,142,113,118,118,28,26,8,7,0.6,0.8
2022-04-29T19:00:00,1320A,113.7329,34.7178,郑州市,经开区管委,,,,52,,40,132,124,115,115,,26,7,6,0.5,0.7
2022-04-29T19:00:00,1321A,113.73961,34.77172,郑州市,四十七中,颗粒物(PM10),64,78,60,38,41,139,133,118,118,22,21,8,7,0.9,0.9
2022-04-29T19:00:00,1322A,113.60532,34.74838,郑州市,市监测站,颗粒物(PM10),62,73,55,42,40,138,113,115,115,27,26,9,8,0.7,0.8
2022-04-29T19:00:00,1323A,113.64164,34.7525,郑州市,河医大,细颗粒物(PM2.5),85,66,51,63,48,138,121,117,117,22,23,5,5,0.6,0.8
2022-04-29T19:00:00,1324A,113.51488,34.91089,郑州市,岗李水库(对照点),细颗粒物(PM2.5),54,49,40,38,24,138,123,120,120,19,17,7,7,0.8,0.8
2022-04-29T19:00:00,1325A,114.3677,30.5584,武汉市,东湖梨园,,35,31,31,24,19,112,98,103,103,22,14,7,6,0.7,0.6
2022-04-29T19:00:00,1326A,114.2529,30.558,武汉市,汉阳月湖,,36,36,29,16,7,98,89,95,94,32,19,5,5,0.7,0.6
2022-04-29T19:00:00,1327A,114.282,30.6189,武汉市,汉口花桥,,27,27,23,17,18,98,86,93,93,27,17,8,7,0.7,0.7
2022-04-29T19:00:00,1328A,114.3025,30.5332,武汉市,武昌紫阳,,39,39,24,16,12,100,84,94,93,29,12,7,6,1.0,0.8
2022-04-29T19:00:00,1329A,114.3646,30.6217,武汉市,青山钢花,,28,26,32,19,22,100,86,94,93,28,15,7,7,0.5,0.7
2022-04-29T19:00:00,1330A,114.1566,30.4825,武汉市,沌口新区,,39,39,25,23,16,93,84,84,84,34,19,6,6,0.7,0.6
2022-04-29T19:00:00,1331A,114.3014,30.5944,武汉市,汉口江滩,,39,39,31,12,11,100,96,97,97,20,16,6,6,0.6,0.7
2022-04-29T19:00:00,1333A,114.135,30.6319,武汉市,吴家山,,30,22,30,12,19,106,94,96,96,19,15,6,6,0.9,0.9
2022-04-29T19:00:00,1334A,113.8454,30.2917,武汉市,沉湖七壕(对照点),,33,33,29,16,15,109,101,91,91,16,12,4,4,0.7,0.7
2022-04-29T19:00:00,1335A,113.0833,28.2325,长沙市,经开区环保局,,45,30,13,31,13,70,68,67,67,22,14,3,3,0.6,0.4
2022-04-29T19:00:00,1336A,112.8872,28.2189,长沙市,高开区环保局,,35,35,20,15,10,83,75,75,75,17,11,6,5,0.7,0.3
2022-04-29T19:00:00,1337A,113.0792,28.2053,长沙市,马坡岭,,46,46,24,24,11,78,75,74,74,18,11,7,7,0.5,0.4
2022-04-29T19:00:00,1338A,112.9394,28.19,长沙市,湖南师范大学,颗粒物(PM10),51,51,32,26,9,83,81,77,77,11,9,1,2,0.6,0.5
2022-04-29T19:00:00,1339A,113.0178,28.1322,长沙市,雨花区环保局,,44,44,23,28,19,75,75,71,71,19,12,4,4,0.3,0.3
2022-04-29T19:00:00,1340A,112.9792,28.2597,长沙市,伍家岭,,49,44,26,34,14,79,74,74,74,13,9,6,6,0.6,0.6
2022-04-29T19:00:00,1341A,113.0014,28.1944,长沙市,火车新站,,,44,26,,21,77,73,71,71,17,10,5,5,0.5,0.4
2022-04-29T19:00:00,1342A,112.9844,28.1178,长沙市,天心区环保局,,48,36,15,33,17,71,71,66,66,16,11,4,4,0.5,0.4
2022-04-29T19:00:00,1343A,112.8908,28.1308,长沙市,湖南中医药大学,,42,42,24,26,9,79,78,75,74,12,6,3,3,0.6,0.6
2022-04-29T19:00:00,1344A,112.9581,28.3611,长沙市,沙坪(对照点),细颗粒物(PM2.5),55,43,29,39,24,77,74,72,72,7,6,2,3,0.6,0.5
2022-04-29T19:00:00,1345A,113.2347,23.1423,广州市,广雅中学,颗粒物(PM10),54,58,35,34,23,121,20,79,76,44,26,6,6,1.0,0.8
2022-04-29T19:00:00,1346A,113.2612,23.105,广州市,市五中,颗粒物(PM10),55,59,33,38,21,127,29,93,79,40,26,5,5,0.8,0.7
2022-04-29T19:00:00,1348A,113.3478,23.0916,广州市,广东商学院,,50,50,31,33,20,83,38,60,60,48,33,4,4,0.8,0.6
2022-04-29T19:00:00,1349A,113.4332,23.1047,广州市,市八十六中,颗粒物(PM10),58,66,42,28,19,60,32,49,49,62,40,7,7,0.7,0.6
2022-04-29T19:00:00,1350A,113.3505,22.9483,广州市,番禺中学,,36,36,28,19,15,137,67,94,94,26,19,6,7,0.8,0.7
2022-04-29T19:00:00,1351A,113.2146,23.3916,广州市,花都师范,,46,46,38,28,22,144,37,75,75,22,31,4,4,0.7,0.6
2022-04-29T19:00:00,1352A,113.2597,23.1331,广州市,市监测站,,47,47,30,29,19,118,24,78,76,43,26,6,6,0.9,0.7
2022-04-29T19:00:00,1353A,113.5618,23.312,广州市,九龙镇镇龙,颗粒物(PM10),60,70,57,36,22,67,28,46,46,29,36,6,7,0.7,0.6
2022-04-29T19:00:00,1354A,113.2765,23.1544,广州市,麓湖,,49,49,33,29,20,80,23,59,57,40,24,8,4,0.9,0.8
2022-04-29T19:00:00,1355A,113.443,23.3035,广州市,帽峰山森林公园(对照点),,41,41,30,23,15,82,38,56,56,15,19,4,5,0.8,0.6
2022-04-29T19:00:00,1356A,114.1063,22.5545,深圳市,通心岭子站,,32,32,23,21,14,89,63,68,68,21,8,3,2,0.6,0.5
2022-04-29T19:00:00,1357A,114.117,22.5625,深圳市,洪湖,,35,35,25,22,16,90,73,78,78,24,16,6,6,0.5,0.5
2022-04-29T19:00:00,1358A,113.987,22.5417,深圳市,华侨城,,29,29,25,18,16,61,55,51,51,30,22,6,6,0.5,0.6
2022-04-29T19:00:00,1359A,113.9181,22.5171,深圳市,南海子站,,41,41,26,20,17,78,43,57,57,32,18,4,4,0.6,0.6
2022-04-29T19:00:00,1360A,114.2458,22.5689,深圳市,盐田,,25,23,23,17,17,72,58,56,56,24,27,2,4,0.5,0.5
2022-04-29T19:00:00,1361A,114.2283,22.7244,深圳市,龙岗,,48,48,32,20,17,86,77,78,78,34,28,4,4,0.7,0.7
2022-04-29T19:00:00,1363A,114.494,22.5422,深圳市,南澳,,24,24,21,15,12,83,59,69,69,23,9,8,6,0.5,0.6
2022-04-29T19:00:00,1364A,114.41,22.6342,深圳市,葵涌,,27,27,22,14,13,64,51,56,56,25,9,5,4,0.3,0.4
2022-04-29T19:00:00,1365A,114.297,22.5978,深圳市,梅沙,,29,29,23,16,15,78,62,68,68,32,11,6,5,0.5,0.4
2022-04-29T19:00:00,1366A,114.0678,22.738,深圳市,观澜,颗粒物(PM10),51,52,41,20,20,101,70,79,79,39,26,7,7,0.7,0.6
2022-04-29T19:00:00,1367A,113.5814,22.2618,珠海市,吉大,,20,20,16,13,15,73,45,58,58,8,9,6,6,0.3,0.3
2022-04-29T19:00:00,1368A,113.4881,22.2335,珠海市,前山,,24,24,20,9,12,69,46,56,56,12,17,10,10,0.3,0.3
2022-04-29T19:00:00,1369A,113.628,22.4251,珠海市,唐家,,22,17,13,11,12,78,68,72,72,6,12,9,10,0.3,0.3
2022-04-29T19:00:00,1370A,113.299,22.2281,珠海市,斗门,,21,21,18,13,10,73,52,62,62,8,9,8,8,0.5,0.5
2022-04-29T19:00:00,1371A,113.1294,23.0067,佛山市,湾梁,颗粒物(PM10),52,53,32,27,15,126,53,96,96,37,18,9,10,0.6,0.5
2022-04-29T19:00:00,1372A,113.1083,23.0478,佛山市,华材职中,颗粒物(PM10),60,70,25,38,16,129,35,98,94,48,19,8,8,0.6,0.5
2022-04-29T19:00:00,1373A,113.144,23.0453,佛山市,南海气象局,,40,40,29,27,15,120,40,87,86,36,22,5,5,0.8,0.7
2022-04-29T19:00:00,1374A,113.2881,22.8094,佛山市,顺德苏岗,颗粒物(PM10),51,51,23,22,15,101,47,76,76,36,21,6,5,0.8,0.7
2022-04-29T19:00:00,1376A,112.8383,22.8678,佛山市,高明孔堂,细颗粒物(PM2.5),55,53,23,39,13,71,32,61,59,40,11,14,6,0.7,0.5
2022-04-29T19:00:00,1377A,112.8836,23.1588,佛山市,三水监测站,,43,39,34,30,21,90,27,58,57,18,22,8,10,0.8,0.6
2022-04-29T19:00:00,1378A,112.867,23.185,佛山市,三水云东海,,34,34,38,9,12,93,40,66,66,19,24,7,10,0.7,0.6
2022-04-29T19:00:00,1379A,113.3769,22.5211,中山市,华柏园,,39,39,22,17,13,88,67,79,79,10,10,4,3,0.5,0.4
2022-04-29T19:00:00,1380A,113.3881,22.5497,中山市,张溪,,40,40,31,13,12,82,66,70,70,9,11,3,2,0.6,0.5
2022-04-29T19:00:00,1381A,113.4075,22.5111,中山市,紫马岭,,41,41,20,14,11,82,63,75,75,8,8,3,2,0.4,0.4
2022-04-29T19:00:00,1383A,113.1064,22.6058,江门市,北街,,34,34,25,12,10,114,63,88,88,14,14,5,5,0.5,0.5
2022-04-29T19:00:00,1384A,113.0731,22.5835,江门市,西区,,39,39,27,16,14,104,47,85,84,17,15,6,6,0.4,0.4
2022-04-29T19:00:00,1385A,113.0219,22.5311,江门市,圭峰西,,26,26,26,12,14,98,48,78,78,13,16,7,8,0.5,0.4
2022-04-29T19:00:00,1386A,113.0828,22.5947,江门市,东湖,,22,22,22,13,13,112,53,88,88,16,13,7,7,0.6,0.5
2022-04-29T19:00:00,1389A,113.7547,23.0494,东莞市,莞城梨川,颗粒物(PM10),53,55,39,27,20,140,96,110,109,35,30,10,9,0.9,0.7
2022-04-29T19:00:00,1390A,113.7944,23.0128,东莞市,东城石井,,,35,34,20,20,144,93,124,124,,27,7,7,,0.6
2022-04-29T19:00:00,1391A,113.7383,22.9658,东莞市,南城西平,,39,39,41,17,17,129,68,103,103,33,31,4,3,0.6,0.6
2022-04-29T19:00:00,1392A,114.4183,23.0528,惠州市,河南岸金山湖子站,,46,46,37,15,17,148,118,116,116,18,16,2,3,0.6,0.6
2022-04-29T19:00:00,1393A,114.4053,23.0822,惠州市,下埔横江三路子站,颗粒物(PM10),53,56,34,18,15,174,138,129,129,24,16,4,4,0.5,0.5
2022-04-29T19:00:00,1394A,114.4103,23.1142,惠州市,江北云山西路子站,臭氧1小时,74,27,39,41,24,179,179,143,143,20,15,5,6,0.6,0.4
2022-04-29T19:00:00,1395A,114.4645,22.7833,惠州市,惠阳区承修路船湖子站,,46,46,31,15,16,82,58,75,75,25,12,3,3,0.6,0.5
2022-04-29T19:00:00,1396A,114.5317,22.7422,惠州市,大亚湾管委会子站,,32,32,30,15,17,80,64,73,73,20,12,9,8,0.3,0.3
2022-04-29T19:00:00,1397A,112.4267,23.0706,肇庆市,睦岗子站,细颗粒物(PM2.5),67,56,34,48,27,84,73,72,72,20,17,7,14,0.7,0.6
2022-04-29T19:00:00,1398A,112.4645,23.0475,肇庆市,城中子站,细颗粒物(PM2.5),53,53,31,37,21,84,68,73,73,23,18,10,15,0.7,0.5
2022-04-29T19:00:00,1399A,112.5544,23.1522,肇庆市,坑口子站,,,,34,,21,99,,82,82,,14,9,13,,0.4
2022-04-29T19:00:00,1400A,112.4753,23.1,肇庆市,七星岩子站(对照点),,44,44,35,30,20,81,77,71,71,13,12,10,16,0.6,0.5
2022-04-29T19:00:00,1401A,108.3103,22.7881,南宁市,二十一中,,50,50,47,32,28,100,100,85,85,16,20,8,8,0.7,0.7
2022-04-29T19:00:00,1402A,108.3141,22.8528,南宁市,北湖,颗粒物(PM10),52,54,49,34,28,96,96,88,88,14,16,8,9,0.9,0.8
2022-04-29T19:00:00,1403A,108.3206,22.8225,南宁市,市监测站,,46,46,44,29,29,94,94,88,88,21,22,9,11,0.8,0.8
2022-04-29T19:00:00,1404A,108.3829,22.8037,南宁市,大自然花园,,42,42,38,26,27,91,90,82,82,11,14,6,7,0.7,0.7
2022-04-29T19:00:00,1405A,108.4394,22.7904,南宁市,仙葫(对照点),,35,30,39,24,27,95,82,80,80,11,19,3,4,1.1,0.6
2022-04-29T19:00:00,1406A,108.2397,22.8467,南宁市,区农职院,,49,45,44,34,26,102,102,84,84,19,26,8,9,0.7,0.6
2022-04-29T19:00:00,1407A,108.3275,22.735,南宁市,英华嘉园,颗粒物(PM10),60,69,61,36,30,75,70,71,71,39,37,5,5,0.7,0.8
2022-04-29T19:00:00,1408A,108.2257,22.7757,南宁市,沙井镇街道办,,48,48,60,33,29,86,86,78,78,19,28,4,12,0.7,0.6
2022-04-29T19:00:00,1409A,110.576,19.9507,海口市,东寨港(对照点),,13,10,15,7,13,49,39,46,45,2,3,15,10,0.4,0.5
2022-04-29T19:00:00,1410A,110.3232,20.0574,海口市,海南大学,,22,22,20,15,12,69,56,61,61,2,2,4,5,0.4,0.4
2022-04-29T19:00:00,1411A,110.283,20.0053,海口市,秀英海南医院,,22,22,20,11,12,52,42,47,47,3,6,3,3,0.3,0.3
2022-04-29T19:00:00,1412A,110.338,19.9969,海口市,海南师范大学,,20,20,20,6,11,41,31,37,35,4,3,2,2,0.4,0.4
2022-04-29T19:00:00,1413A,110.33,20.0356,海口市,龙华路环保局宿舍,,21,21,19,11,9,53,43,48,48,7,4,5,5,0.4,0.4
2022-04-29T19:00:00,1414A,106.3787,29.8279,重庆市,缙云山(对照点),,24,14,18,10,11,102,76,98,88,19,15,8,7,0.4,0.3
2022-04-29T19:00:00,1416A,106.4213,29.8253,重庆市,天生,,35,35,52,19,18,87,58,69,69,25,30,5,7,1.0,0.9
2022-04-29T19:00:00,1417A,106.6263,29.7228,重庆市,两路,,36,36,40,9,16,100,66,81,81,38,46,11,9,0.8,0.8
2022-04-29T19:00:00,1418A,106.2953,29.5983,重庆市,虎溪,,36,36,44,20,28,71,68,63,63,29,34,7,8,0.8,0.7
2022-04-29T19:00:00,1419A,106.5777,29.5102,重庆市,南坪,,29,29,38,11,18,85,66,73,73,13,18,5,8,0.5,0.6
2022-04-29T19:00:00,1420A,106.6556,29.6277,重庆市,唐家沱,,29,29,36,18,23,114,71,88,88,17,28,5,8,0.6,0.6
2022-04-29T19:00:00,1421A,106.6349,29.4906,重庆市,茶园,,18,18,38,8,13,89,49,70,70,34,34,6,9,0.7,0.7
2022-04-29T19:00:00,1422A,106.3754,29.4572,重庆市,白市驿,,20,11,30,7,11,84,64,72,72,16,22,6,7,0.9,0.9
2022-04-29T19:00:00,1425A,106.6205,29.7166,重庆市,空港,,32,32,44,20,21,109,66,88,88,30,34,15,13,0.7,0.5
2022-04-29T19:00:00,1426A,106.4782,29.4875,重庆市,新山村,,45,45,36,21,18,85,41,65,65,47,48,9,10,0.8,0.7
2022-04-29T19:00:00,1427A,106.5616,29.6453,重庆市,礼嘉,,28,28,42,14,19,101,53,80,80,42,45,11,10,0.7,0.5
2022-04-29T19:00:00,1428A,106.4522,29.7091,重庆市,蔡家,,29,27,34,20,21,83,60,72,72,35,28,14,9,0.8,0.6
2022-04-29T19:00:00,1429A,106.5093,29.3917,重庆市,鱼新街,,19,17,28,7,16,76,34,57,55,37,31,5,7,0.9,0.9
2022-04-29T19:00:00,1431A,103.9728,30.7236,成都市,金泉两河,颗粒物(PM10),62,73,103,34,50,150,98,118,118,16,45,2,3,0.5,0.6
2022-04-29T19:00:00,1432A,104.1419,30.6764,成都市,十里店,颗粒物(PM10),58,66,107,24,40,125,73,104,104,25,45,6,6,0.4,0.5
2022-04-29T19:00:00,1433A,104.0594,30.5767,成都市,三瓦窑,颗粒物(PM10),56,62,83,33,44,138,72,112,110,28,44,2,3,0.5,0.5
2022-04-29T19:00:00,1434A,104.1122,30.6306,成都市,沙河铺,颗粒物(PM10),57,63,88,32,42,138,76,111,111,28,36,3,3,0.4,0.4
2022-04-29T19:00:00,1437A,104.0431,30.6556,成都市,君平街,颗粒物(PM10),58,66,101,29,47,146,93,115,114,19,45,3,5,0.6,0.7
2022-04-29T19:00:00,1438A,103.6202,31.0201,成都市,灵岩寺(对照点),颗粒物(PM10),72,94,75,50,35,136,128,119,119,8,11,6,12,0.5,0.4
2022-04-29T19:00:00,1439A,106.6899,26.5998,贵阳市,马鞍山,,32,12,17,22,13,84,51,66,61,12,12,4,4,0.6,0.5
2022-04-29T19:00:00,1440A,106.6971,26.5694,贵阳市,市环保站,,22,22,16,10,8,88,37,71,51,25,16,2,5,0.5,0.4
2022-04-29T19:00:00,1441A,106.6243,26.6266,贵阳市,鉴湖路,,31,31,24,9,9,93,40,67,52,20,12,3,4,0.6,0.6
2022-04-29T19:00:00,1443A,106.6555,26.4365,贵阳市,碧云窝,颗粒物(PM10),52,53,33,29,14,99,29,81,48,28,15,4,5,0.6,0.5
2022-04-29T19:00:00,1444A,106.694,26.5161,贵阳市,中院村,,41,41,25,22,10,97,33,81,48,28,15,3,5,0.6,0.5
2022-04-29T19:00:00,1445A,106.7109,26.6027,贵阳市,红边门,,20,20,21,12,10,102,44,80,59,20,14,3,3,0.5,0.4
2022-04-29T19:00:00,1446A,106.7164,26.5699,贵阳市,新华路,,22,22,15,14,11,90,39,75,53,14,8,4,5,0.4,0.4
2022-04-29T19:00:00,1447A,106.674,26.5424,贵阳市,太慈桥,,39,39,27,17,7,99,41,79,55,25,14,5,4,0.5,0.4
2022-04-29T19:00:00,1450A,102.8204,24.8886,昆明市,呈贡新区,颗粒物(PM10),56,61,82,32,43,167,157,163,162,9,31,7,10,0.4,0.5
2022-04-29T19:00:00,1451A,102.6251,24.9608,昆明市,西山森林公园(对照点),,49,44,66,33,45,171,156,160,160,5,11,8,12,0.4,0.4
2022-04-29T19:00:00,1452A,102.7252,25.0902,昆明市,龙泉镇,颗粒物(PM10),51,52,72,26,40,166,137,154,152,14,34,8,10,0.3,0.6
2022-04-29T19:00:00,1453A,102.7266,25.0375,昆明市,东风东路,颗粒物(PM10),53,56,71,33,41,167,134,152,151,19,24,8,10,0.5,0.6
2022-04-29T19:00:00,1454A,102.6742,25.0669,昆明市,金鼎山,颗粒物(PM10),52,54,70,21,39,159,131,146,145,19,19,7,8,0.4,0.5
2022-04-29T19:00:00,1455A,102.6644,25.0401,昆明市,碧鸡广场,颗粒物(PM10),52,54,81,24,43,161,137,149,149,17,33,9,11,0.5,0.6
2022-04-29T19:00:00,1456A,91.1319,29.6514,拉萨市,八廓街,,50,50,27,20,16,92,83,86,86,14,13,6,6,0.2,0.2
2022-04-29T19:00:00,1457A,91.1221,29.6747,拉萨市,市环保局,,46,46,29,18,14,99,94,96,89,5,9,4,4,0.2,0.3
2022-04-29T19:00:00,1458A,91.0874,29.6475,拉萨市,区监测站,颗粒物(PM10),51,51,27,20,16,108,78,98,79,10,11,6,6,0.3,0.3
2022-04-29T19:00:00,1459A,91.1774,29.6541,拉萨市,西藏大学,,,,23,,10,93,87,85,85,,8,,5,0.3,0.3
2022-04-29T19:00:00,1460A,90.9798,29.6588,拉萨市,区辐射站,颗粒物(PM10),52,53,28,21,18,102,102,96,96,4,17,6,6,0.2,0.3
2022-04-29T19:00:00,1461A,91.0834,29.6292,拉萨市,拉萨火车站,颗粒物(PM10),56,61,28,16,11,87,77,87,79,7,6,6,6,0.2,0.1
2022-04-29T19:00:00,1462A,108.882,34.2749,西安市,高压开关厂,颗粒物(PM10),74,97,74,48,41,114,93,99,99,30,26,5,5,0.6,0.5
2022-04-29T19:00:00,1463A,108.993,34.2629,西安市,兴庆小区,颗粒物(PM10),54,58,66,31,36,94,92,88,88,26,36,5,5,1.8,0.9
2022-04-29T19:00:00,1464A,109.06,34.2572,西安市,纺织城,颗粒物(PM10),68,86,70,44,38,90,74,80,80,41,40,6,6,0.8,0.7
2022-04-29T19:00:00,1465A,108.9356,34.2173,西安市,小寨,颗粒物(PM10),62,73,77,38,35,92,81,75,75,34,37,2,3,0.4,0.4
2022-04-29T19:00:00,1466A,108.954,34.2713,西安市,市人民体育场,颗粒物(PM10),57,64,64,33,34,104,98,94,94,21,29,5,6,0.7,0.7
2022-04-29T19:00:00,1467A,108.8922,34.2322,西安市,高新西区,颗粒物(PM10),65,80,73,44,37,94,86,79,79,23,24,6,6,0.7,0.6
2022-04-29T19:00:00,1468A,108.935,34.3474,西安市,经开区,颗粒物(PM10),53,56,58,31,38,100,98,92,92,17,23,2,2,0.4,0.5
2022-04-29T19:00:00,1469A,108.906,34.1546,西安市,长安区,颗粒物(PM10),69,88,73,42,36,104,91,75,75,24,29,5,5,0.7,0.6
2022-04-29T19:00:00,1471A,109.2186,34.3731,西安市,临潼区,颗粒物(PM10),61,71,74,34,36,104,89,91,91,25,19,3,4,0.8,0.7
2022-04-29T19:00:00,1472A,108.869,34.378,西安市,草滩(对照点),颗粒物(PM10),63,76,64,39,40,108,90,95,95,25,27,7,6,0.7,0.7
2022-04-29T19:00:00,1473A,108.985,34.1978,西安市,曲江文化产业集团,细颗粒物(PM2.5),79,83,71,58,42,88,74,68,68,37,41,3,4,0.7,0.7
2022-04-29T19:00:00,1474A,109.051,34.3213,西安市,广运潭,颗粒物(PM10),60,70,74,29,36,93,75,83,83,29,30,5,6,0.5,0.6
2022-04-29T19:00:00,1476A,103.631,36.1031,兰州市,兰炼宾馆,,42,30,98,29,52,103,78,102,80,16,19,5,5,0.3,0.3
2022-04-29T19:00:00,1477A,104.1373,35.9454,兰州市,榆中兰大校区(对照点),,42,42,94,19,37,126,90,115,97,10,11,2,2,0.3,0.6
2022-04-29T19:00:00,1478A,103.8412,36.0726,兰州市,生物制品所,,36,36,104,25,40,106,69,106,57,13,16,5,8,0.8,0.8
2022-04-29T19:00:00,1479A,103.831,36.0464,兰州市,铁路设计院,,48,41,107,33,53,108,79,108,74,22,26,5,7,0.4,0.5
2022-04-29T19:00:00,1483A,101.524,36.6867,西宁市,第五水厂(对照点),,32,17,57,10,18,112,100,109,83,18,16,8,10,0.8,0.8
2022-04-29T19:00:00,1484A,105.9512,38.6016,银川市,贺兰山马莲口(对照点),颗粒物(PM10),51,52,71,26,25,117,85,106,92,8,11,8,12,0.2,0.3
2022-04-29T19:00:00,1488A,106.2328,38.4975,银川市,贺兰山东路,颗粒物(PM10),78,105,85,31,32,93,84,84,84,12,32,5,13,0.3,0.6
2022-04-29T19:00:00,1489A,106.1358,38.5036,银川市,学院路,颗粒物(PM10),64,78,96,28,30,105,78,83,83,12,40,7,15,0.4,0.6
2022-04-29T19:00:00,1490A,87.5801,43.8303,乌鲁木齐市,监测站,,45,30,30,27,12,143,143,124,124,23,27,6,5,0.4,0.4
2022-04-29T19:00:00,1491A,87.6046,43.768,乌鲁木齐市,收费所,,39,34,29,22,15,124,124,111,111,16,18,5,6,0.3,0.2
2022-04-29T19:00:00,1492A,87.4754,43.9469,乌鲁木齐市,新疆农科院农场(对照点),,41,30,51,15,12,165,129,121,121,6,43,11,16,0.4,0.4
2022-04-29T19:00:00,1493A,87.5525,43.8711,乌鲁木齐市,铁路局,,45,40,31,10,11,142,142,124,124,15,26,5,5,0.4,0.5
2022-04-29T19:00:00,1494A,87.6432,43.831,乌鲁木齐市,三十一中学,,43,29,28,17,10,136,136,116,116,7,13,10,8,0.3,0.3
2022-04-29T19:00:00,1496A,87.7216,44.1747,乌鲁木齐市,米东区环保局,,37,16,45,11,17,117,116,106,106,2,22,7,9,0.2,0.3
2022-04-29T19:00:00,1508A,112.9433,27.8614,湘潭市,板塘,颗粒物(PM10),58,66,34,37,25,70,70,64,64,18,12,8,9,0.3,0.3
2022-04-29T19:00:00,1511A,112.9118,27.8403,湘潭市,市监测站,,48,42,22,33,14,67,61,65,60,16,7,6,6,0.7,0.6
2022-04-29T19:00:00,1512A,112.8937,27.8728,湘潭市,江麓,,,56,30,,9,64,64,60,60,16,14,14,13,0.8,0.8
2022-04-29T19:00:00,1513A,112.9227,27.8159,湘潭市,岳塘,颗粒物(PM10),56,61,33,34,13,72,67,70,62,20,12,7,7,1.2,0.6
2022-04-29T19:00:00,1514A,112.9074,27.9119,湘潭市,科大,颗粒物(PM10),54,58,29,22,9,71,70,66,66,18,14,4,3,0.1,0.2
2022-04-29T19:00:00,1515A,113.135,27.8244,株洲市,天台山庄,,46,36,14,32,11,65,58,60,60,26,16,4,5,0.2,0.1
2022-04-29T19:00:00,1518A,113.095,27.8867,株洲市,株冶医院,,49,34,15,34,15,65,56,64,60,30,14,5,4,0.5,0.3
2022-04-29T19:00:00,1519A,113.167,27.8667,株洲市,市四中,,46,38,22,32,13,74,67,68,68,17,11,6,5,0.4,0.4
2022-04-29T19:00:00,1520A,113.143,27.8381,株洲市,火车站,颗粒物(PM10),52,53,23,28,7,77,61,66,66,27,14,5,5,0.5,0.4
2022-04-29T19:00:00,1524A,113.13,27.8528,株洲市,市监测站,,,51,22,37,17,65,54,58,58,,15,5,3,0.5,0.4
2022-04-29T19:00:00,1552A,106.805,26.3003,贵阳市,桐木岭(对照点),,42,36,32,29,17,105,52,92,59,6,6,8,4,0.6,0.4
2022-04-29T19:00:00,1559A,113.251,27.8336,株洲市,大京风景区(对照点),,32,32,13,20,11,79,71,73,73,7,14,5,5,0.4,0.4
2022-04-29T19:00:00,1562A,113.0048,27.9153,湘潭市,昭山,,46,39,19,32,16,62,62,60,57,16,11,5,5,0.7,0.6
2022-04-29T19:00:00,1564A,112.4876,27.9164,湘潭市,韶山(对照点),,,35,28,16,16,77,,73,68,6,6,4,4,0.5,0.5
2022-04-29T19:00:00,1585A,109.8756,40.6532,包头市,市环境监测站,颗粒物(PM10),57,64,78,7,25,93,90,92,91,6,26,6,7,0.4,0.6
2022-04-29T19:00:00,1587A,109.9991,40.5842,包头市,包头八中,,47,47,76,8,27,98,96,97,97,5,22,12,10,0.3,0.4
2022-04-29T19:00:00,1588A,109.8538,40.6821,包头市,青山宾馆,,38,38,70,9,27,92,90,89,89,6,29,8,12,0.4,0.5
2022-04-29T19:00:00,1589A,109.8642,40.6288,包头市,惠龙物流,,30,26,63,6,22,96,94,94,94,6,23,5,8,0.3,0.4
2022-04-29T19:00:00,1590A,110.0377,40.5546,包头市,东河鸿龙湾,,30,30,59,5,25,93,89,90,90,3,19,8,10,0.3,0.5
2022-04-29T19:00:00,1591A,110.0023,39.8129,鄂尔多斯市,综合楼,颗粒物(PM10),57,63,78,19,37,96,79,88,88,13,22,6,8,0.5,0.6
2022-04-29T19:00:00,1592A,109.9486,39.8261,鄂尔多斯市,巴音孟克林场办事处,,,,69,,27,112,,106,106,10,18,7,9,0.4,0.7
2022-04-29T19:00:00,1593A,109.7736,39.5986,鄂尔多斯市,康泽苑,颗粒物(PM10),58,66,60,7,22,108,91,102,101,6,12,4,5,0.5,0.5
2022-04-29T19:00:00,1594A,109.8119,39.5989,鄂尔多斯市,华泰汽车城,颗粒物(PM10),58,66,61,14,28,103,83,96,95,11,15,7,8,0.4,0.5
2022-04-29T19:00:00,1595A,109.9734,39.7884,鄂尔多斯市,奥林花园,颗粒物(PM10),64,78,76,9,28,96,72,86,86,15,21,6,7,0.3,0.5
2022-04-29T19:00:00,1597A,122.2703,40.7094,营口市,大庆路,,40,34,55,18,26,151,127,137,137,14,19,7,9,0.6,0.9
2022-04-29T19:00:00,1598A,122.215,40.6511,营口市,镜湖西路,,41,41,42,14,23,150,124,135,135,13,22,5,7,1.1,0.8
2022-04-29T19:00:00,1599A,122.167,40.6655,营口市,西炮台,,40,30,37,18,21,137,126,118,118,14,26,5,5,0.6,0.7
2022-04-29T19:00:00,1600A,124.3303,40.0625,丹东市,江湾东路,,30,16,12,15,10,112,93,103,103,13,8,13,8,0.4,0.3
2022-04-29T19:00:00,1601A,124.4256,40.1503,丹东市,临江后街,,33,9,11,5,8,111,105,104,104,5,6,10,9,0.6,0.6
2022-04-29T19:00:00,1602A,124.3933,40.1461,丹东市,元宝山,,31,12,12,7,7,106,99,100,100,8,6,9,8,0.5,0.4
2022-04-29T19:00:00,1603A,124.3633,40.1092,丹东市,民主桥,,30,13,13,8,8,108,95,99,99,6,5,10,8,0.5,0.5
2022-04-29T19:00:00,1604A,122.0303,41.1489,盘锦市,开发区,颗粒物(PM10),56,61,41,25,28,135,127,126,126,28,33,13,7,0.9,0.7
2022-04-29T19:00:00,1605A,122.0485,41.0883,盘锦市,兴隆台,颗粒物(PM10),59,67,43,24,27,135,121,124,124,25,33,11,9,0.8,0.8
2022-04-29T19:00:00,1606A,121.8297,41.1028,盘锦市,新生街道,,43,43,28,21,19,146,130,133,133,20,22,12,13,0.8,0.8
2022-04-29T19:00:00,1607A,120.9092,40.7136,葫芦岛市,龙港区,细颗粒物(PM2.5),203,20,38,153,35,131,114,117,117,24,31,14,20,1.5,0.8
2022-04-29T19:00:00,1608A,120.8392,40.7514,葫芦岛市,化工街,颗粒物(PM10),54,57,47,31,28,128,116,121,121,26,39,9,9,1.3,0.5
2022-04-29T19:00:00,1609A,120.8341,40.7073,葫芦岛市,新区,细颗粒物(PM2.5),99,83,45,74,31,131,114,118,118,29,43,10,12,1.5,0.8
2022-04-29T19:00:00,1610A,120.8695,40.7677,葫芦岛市,东城区,细颗粒物(PM2.5),115,85,47,87,23,127,109,120,120,29,35,10,13,1.6,0.7
2022-04-29T19:00:00,1611A,118.5819,24.9117,泉州市,涂山街,颗粒物(PM10),52,53,54,11,24,171,97,124,124,13,26,5,11,0.6,0.6
2022-04-29T19:00:00,1612A,118.5972,24.8978,泉州市,津头埔,颗粒物(PM10),51,51,52,13,25,153,95,114,114,15,26,5,8,0.3,0.4
2022-04-29T19:00:00,1613A,118.6663,24.9424,泉州市,万安,,47,47,48,10,20,152,107,119,119,7,17,5,8,0.4,0.4
2022-04-29T19:00:00,1614A,118.6117,24.9604,泉州市,清源山(对照点),,46,46,46,12,16,165,90,119,119,18,20,6,12,0.4,0.3
2022-04-29T19:00:00,1616A,117.6795,36.229,济南市,技术学院,颗粒物(PM10),59,68,58,40,49,140,126,130,130,21,18,19,11,1.5,0.8
2022-04-29T19:00:00,1618A,118.3429,35.0532,临沂市,沂河小区,细颗粒物(PM2.5),130,107,63,99,55,144,109,128,128,36,22,14,9,0.7,0.5
2022-04-29T19:00:00,1619A,118.295,35.0583,临沂市,鲁南制药厂,细颗粒物(PM2.5),88,102,59,65,40,137,125,129,129,19,21,11,8,1.0,0.8
2022-04-29T19:00:00,1620A,118.2794,34.9976,临沂市,新光毛纺厂,细颗粒物(PM2.5),89,90,61,66,45,122,116,115,115,16,17,8,5,0.8,0.6
2022-04-29T19:00:00,1621A,118.3956,35.0888,临沂市,河东保险公司,细颗粒物(PM2.5),124,105,56,94,47,148,121,135,135,26,22,8,4,0.8,0.6
2022-04-29T19:00:00,1622A,116.3032,37.4674,德州市,儿童乐园,细颗粒物(PM2.5),58,53,38,41,26,106,94,98,98,17,26,5,5,0.4,0.4
2022-04-29T19:00:00,1624A,116.2991,37.4451,德州市,监理站,细颗粒物(PM2.5),58,64,45,41,29,103,90,96,96,11,16,4,2,0.2,0.2
2022-04-29T19:00:00,1625A,115.9848,36.4372,聊城市,区政府,颗粒物(PM10),64,77,59,38,32,114,108,98,98,17,23,11,8,0.5,0.5
2022-04-29T19:00:00,1628A,118.0062,37.3803,滨州市,市环保局,,,56,45,29,31,,,,,10,11,7,18,0.8,0.8
2022-04-29T19:00:00,1629A,118.0018,37.3617,滨州市,第二水厂,细颗粒物(PM2.5),62,55,48,44,28,100,94,96,96,18,18,8,13,0.6,0.7
2022-04-29T19:00:00,1630A,117.9776,37.393,滨州市,北中新校,,48,48,44,20,28,100,91,96,96,20,16,7,20,0.4,0.4
2022-04-29T19:00:00,1631A,118.0414,36.8103,淄博市,人民公园,细颗粒物(PM2.5),69,78,62,50,49,133,105,110,110,29,27,8,12,0.4,0.4
2022-04-29T19:00:00,1633A,117.8525,36.4847,淄博市,双山,细颗粒物(PM2.5),89,81,66,66,58,106,89,99,99,41,27,6,6,0.9,0.8
2022-04-29T19:00:00,1634A,117.9592,36.6331,淄博市,气象站,颗粒物(PM10),63,75,70,41,45,119,104,109,109,34,28,6,9,0.7,0.8
2022-04-29T19:00:00,1635A,118.3092,36.8194,淄博市,莆田园,细颗粒物(PM2.5),89,117,68,66,43,113,75,92,91,56,32,16,16,0.8,0.5
2022-04-29T19:00:00,1637A,117.558,34.8438,枣庄市,市中区政府,细颗粒物(PM2.5),89,100,73,66,48,116,116,97,97,18,19,5,14,0.7,0.6
2022-04-29T19:00:00,1638A,117.2852,34.7837,枣庄市,薛城环保局,细颗粒物(PM2.5),85,83,75,63,50,122,109,104,104,13,29,8,11,0.7,0.8
2022-04-29T19:00:00,1639A,117.5852,34.7745,枣庄市,峄城区政府,细颗粒物(PM2.5),92,100,67,68,37,129,129,104,104,25,24,7,9,1.1,0.6
2022-04-29T19:00:00,1640A,117.7276,34.5578,枣庄市,台儿庄区环保局,细颗粒物(PM2.5),73,88,58,53,36,127,124,117,117,24,21,8,8,1.2,0.9
2022-04-29T19:00:00,1641A,117.4518,35.0992,枣庄市,山亭区环保局,细颗粒物(PM2.5),102,112,62,76,42,134,120,117,117,36,30,15,7,0.8,0.9
2022-04-29T19:00:00,1642A,121.2514,37.5639,烟台市,开发区,,39,39,34,27,22,133,110,119,118,11,10,2,4,0.7,0.5
2022-04-29T19:00:00,1643A,121.3719,37.5433,烟台市,轴承厂,细颗粒物(PM2.5),65,48,33,47,20,126,113,121,121,17,12,4,4,1.0,0.5
2022-04-29T19:00:00,1644A,121.3181,37.5436,烟台市,西郊化工站,,45,44,32,31,19,127,109,114,114,11,9,5,8,0.9,0.5
2022-04-29T19:00:00,1645A,121.4478,37.4822,烟台市,莱山环保局,颗粒物(PM10),54,58,28,35,15,131,122,124,124,19,11,5,5,1.3,0.5
2022-04-29T19:00:00,1646A,121.2611,37.4967,烟台市,福山环保局,,36,36,35,24,18,131,113,124,124,15,13,4,6,0.9,0.7
2022-04-29T19:00:00,1650A,119.1437,36.7023,潍坊市,环保局,细颗粒物(PM2.5),82,83,46,60,35,125,116,110,110,29,18,8,14,0.8,0.7
2022-04-29T19:00:00,1653A,116.6251,35.4302,济宁市,火炬城,细颗粒物(PM2.5),73,63,59,53,52,113,112,104,104,14,23,8,9,0.6,0.9
2022-04-29T19:00:00,1655A,116.5491,35.4042,济宁市,电化厂,细颗粒物(PM2.5),77,67,71,56,51,118,112,106,106,21,29,4,4,0.8,0.9
2022-04-29T19:00:00,1656A,117.1437,36.1937,泰安市,监测站,细颗粒物(PM2.5),64,66,58,46,40,122,110,109,109,16,15,7,7,0.4,0.6
2022-04-29T19:00:00,1657A,117.0885,36.2017,泰安市,人口学校,颗粒物(PM10),57,63,53,38,34,119,110,109,109,21,22,8,7,0.7,0.6
2022-04-29T19:00:00,1658A,117.1089,36.1758,泰安市,电力学校,细颗粒物(PM2.5),63,61,51,45,40,122,113,112,112,18,22,7,7,0.6,0.8
2022-04-29T19:00:00,1659A,119.471,35.4209,日照市,监测站,细颗粒物(PM2.5),68,70,43,49,31,110,106,102,102,23,18,7,5,0.5,0.3
2022-04-29T19:00:00,1660A,119.523,35.4216,日照市,市政府广场,颗粒物(PM10),68,85,45,48,31,114,83,106,104,44,12,8,5,0.7,0.5
2022-04-29T19:00:00,1661A,119.5587,35.4044,日照市,港务局,细颗粒物(PM2.5),72,73,45,52,29,121,100,113,112,40,10,6,4,0.6,0.5
2022-04-29T19:00:00,1662A,122.1214,37.4236,威海市,华夏技校,,,53,30,29,21,129,,123,123,23,12,4,3,0.4,0.3
2022-04-29T19:00:00,1663A,122.0508,37.5236,威海市,山大分校,,35,24,25,22,14,131,109,115,115,19,11,6,5,0.4,0.1
2022-04-29T19:00:00,1664A,122.1067,37.5072,威海市,市监测站,,35,29,27,16,18,124,112,115,115,17,12,6,6,0.2,0.1
2022-04-29T19:00:00,1666A,118.6614,37.4309,东营市,市环保局,细颗粒物(PM2.5),52,44,34,36,25,110,104,102,102,19,16,8,10,0.5,0.4
2022-04-29T19:00:00,1669A,113.5824,24.7733,韶关市,市八中,,22,22,27,2,10,97,64,54,54,14,18,7,10,0.5,0.4
2022-04-29T19:00:00,1671A,113.5917,24.7972,韶关市,园林处,,21,16,22,14,18,111,66,56,56,11,14,5,7,0.7,0.7
2022-04-29T19:00:00,1672A,113.6735,24.7791,韶关市,韶关学院,,,,26,,18,101,58,50,50,12,13,,10,,0.5
2022-04-29T19:00:00,1673A,113.5971,24.6863,韶关市,曲江监测站,,22,22,28,2,12,86,52,50,50,10,14,6,8,0.5,0.5
2022-04-29T19:00:00,1674A,116.6794,23.3667,汕头市,金平子站,,,20,24,7,15,123,,90,90,7,7,8,8,0.5,0.5
2022-04-29T19:00:00,1675A,116.7244,23.3633,汕头市,龙湖子站,,18,18,25,11,12,119,56,90,90,18,17,7,7,0.7,0.7
2022-04-29T19:00:00,1676A,116.7258,23.2775,汕头市,濠江子站,,24,24,27,6,15,106,54,81,80,17,13,9,8,0.8,0.8
2022-04-29T19:00:00,1677A,116.7519,23.4714,汕头市,澄海子站,,44,44,35,17,20,147,61,120,117,17,9,7,7,0.7,0.6
2022-04-29T19:00:00,1678A,116.6092,23.2539,汕头市,潮阳子站,,30,30,28,10,11,109,57,85,84,14,9,10,10,0.7,0.6
2022-04-29T19:00:00,1680A,110.3539,21.2706,湛江市,湛江影剧院,,32,32,20,18,14,50,38,45,45,10,6,5,5,0.4,0.4
2022-04-29T19:00:00,1681A,110.3928,21.2228,湛江市,市环境监测站,,17,17,18,9,13,55,44,52,51,6,4,6,6,0.4,0.4
2022-04-29T19:00:00,1682A,110.4019,21.1997,湛江市,环保局宿舍,,19,16,19,13,14,53,43,50,50,6,4,2,3,0.4,0.4
2022-04-29T19:00:00,1683A,110.4111,21.2028,湛江市,霞山游泳场,,15,13,17,10,14,53,44,48,48,4,3,5,4,0.4,0.3
2022-04-29T19:00:00,1684A,110.3316,21.2679,湛江市,麻章区环保局,,27,27,23,14,14,56,39,49,49,8,6,4,4,0.4,0.5
2022-04-29T19:00:00,1685A,110.4558,21.2567,湛江市,坡头区环保局,,28,28,22,12,14,58,48,55,54,5,4,4,3,0.4,0.4
2022-04-29T19:00:00,1686A,111.0286,21.4688,茂名市,电白南海,,24,24,24,9,15,53,38,47,47,15,12,4,4,0.5,0.5
2022-04-29T19:00:00,1687A,110.9294,21.6533,茂名市,茂石化七小,,44,44,26,14,17,65,40,53,53,16,11,7,6,0.5,0.4
2022-04-29T19:00:00,1688A,110.9107,21.6687,茂名市,健康路,,14,12,12,8,9,65,43,54,54,12,6,7,6,0.5,0.5
2022-04-29T19:00:00,1689A,110.8592,21.6828,茂名市,高岭,,26,26,21,13,9,57,44,53,52,14,11,8,7,0.4,0.4
2022-04-29T19:00:00,1690A,116.1231,24.3284,梅州市,梅江月梅,,24,24,35,13,20,79,54,66,66,16,13,3,4,0.6,0.4
2022-04-29T19:00:00,1691A,116.0797,24.2719,梅州市,梅县新城,,21,9,32,9,22,80,65,66,66,10,17,5,7,0.7,0.5
2022-04-29T19:00:00,1692A,116.1248,24.2654,梅州市,环境监控中心,,21,21,33,13,22,76,60,67,67,11,19,5,7,0.8,0.5
2022-04-29T19:00:00,1693A,115.3653,22.775,汕尾市,市环保局,,24,24,22,12,14,68,53,61,56,6,6,7,7,0.5,0.4
2022-04-29T19:00:00,1694A,115.3706,22.7898,汕尾市,市政府,,18,18,23,2,14,68,52,60,55,7,6,5,5,0.5,0.5
2022-04-29T19:00:00,1695A,115.3622,22.7925,汕尾市,新城中学,,19,19,18,9,13,69,56,61,57,4,4,6,5,0.5,0.4
2022-04-29T19:00:00,1696A,114.6778,23.7569,河源市,源西(对照点),,36,15,34,25,19,104,62,81,81,13,14,2,3,0.6,0.5
2022-04-29T19:00:00,1697A,114.6944,23.7586,河源市,东埔,,29,29,31,19,18,107,60,83,83,15,13,4,4,0.7,0.5
2022-04-29T19:00:00,1698A,114.6892,23.7233,河源市,老城,,32,27,36,22,18,112,64,87,87,11,11,3,3,1.0,0.8
2022-04-29T19:00:00,1699A,111.9797,21.8593,阳江市,鸳鸯湖(对照点),,16,12,17,7,10,54,49,52,51,2,4,8,8,0.3,0.3
2022-04-29T19:00:00,1701A,111.9491,21.8658,阳江市,马南垌,,15,12,17,6,12,55,46,52,52,6,5,4,5,0.6,0.5
2022-04-29T19:00:00,1702A,113.0426,23.691,清远市,环保大楼(对照点),,31,31,34,20,19,86,43,53,53,10,20,8,9,0.5,0.5
2022-04-29T19:00:00,1703A,113.0208,23.7106,清远市,凤城街办,,36,36,35,24,20,68,42,53,53,12,23,6,8,0.6,0.5
2022-04-29T19:00:00,1705A,116.6367,23.6719,潮州市,西园路(对照点),颗粒物(PM10),61,71,49,27,28,160,111,145,145,18,14,10,12,0.8,0.7
2022-04-29T19:00:00,1706A,116.6447,23.6706,潮州市,档案局,颗粒物(PM10),60,70,49,27,26,163,112,146,146,22,16,9,10,0.7,0.6
2022-04-29T19:00:00,1708A,116.3701,23.5345,揭阳市,新兴,颗粒物(PM10),60,70,40,32,26,114,82,97,97,20,11,8,8,0.7,0.6
2022-04-29T19:00:00,1709A,116.3264,23.5443,揭阳市,西马,颗粒物(PM10),59,67,44,29,24,105,93,88,88,14,11,7,7,0.8,0.7
2022-04-29T19:00:00,1710A,116.3611,23.5626,揭阳市,东兴,颗粒物(PM10),56,62,43,22,26,105,91,95,95,16,12,5,6,0.8,0.6
2022-04-29T19:00:00,1711A,116.4151,23.5294,揭阳市,渔湖,颗粒物(PM10),55,60,32,26,22,118,81,100,100,13,9,6,6,0.6,0.6
2022-04-29T19:00:00,1712A,112.0392,22.9169,云浮市,新市府(对照点),,34,34,22,20,16,98,56,79,79,6,6,6,6,0.6,0.4
2022-04-29T19:00:00,1714A,112.0539,22.9539,云浮市,牧羊,细颗粒物(PM2.5),58,38,35,41,28,99,36,52,52,34,17,9,11,0.6,0.4
2022-04-29T19:00:00,1715A,102.575,24.3711,玉溪市,东风水库,颗粒物(PM10),55,60,74,32,42,159,153,155,155,9,15,7,9,0.5,0.8
2022-04-29T19:00:00,1718A,115.4208,35.2464,菏泽市,气象局,细颗粒物(PM2.5),78,85,69,57,49,115,100,104,104,13,18,7,6,0.6,0.7
2022-04-29T19:00:00,1719A,115.4747,35.2375,菏泽市,市政协,颗粒物(PM10),71,92,73,45,44,125,101,109,109,16,18,2,4,0.4,0.4
2022-04-29T19:00:00,1721A,113.3819,40.1097,大同市,果树场(对照点),,36,36,58,10,37,93,79,85,85,16,28,8,10,0.3,0.6
2022-04-29T19:00:00,1723A,113.2994,40.0758,大同市,云冈宾馆,,25,17,57,1,35,92,78,82,82,17,33,6,8,0.4,0.5
2022-04-29T19:00:00,1724A,113.3444,40.0917,大同市,大同大学,,,30,63,3,38,101,79,83,83,10,27,9,12,,0.2
2022-04-29T19:00:00,1725A,113.2661,40.1269,大同市,安家小村,,,36,70,8,27,97,82,88,88,15,29,,12,0.4,0.7
2022-04-29T19:00:00,1726A,113.2711,40.0844,大同市,教育学院,,27,27,77,6,38,92,76,79,79,16,34,8,10,0.4,0.6
2022-04-29T19:00:00,1727A,113.1147,36.1547,长治市,清华站,,34,34,58,22,41,98,87,73,73,21,31,10,9,1.1,1.7
2022-04-29T19:00:00,1728A,113.1031,36.1989,长治市,监测站,细颗粒物(PM2.5),98,56,63,73,50,104,99,79,79,36,29,18,9,0.7,1.2
2022-04-29T19:00:00,1730A,113.0886,36.2125,长治市,审计局,细颗粒物(PM2.5),79,55,57,58,48,103,92,75,75,38,34,9,9,1.0,1.3
2022-04-29T19:00:00,1731A,113.0844,36.1856,长治市,长治八中,颗粒物(PM10),51,52,61,24,35,95,81,72,72,34,28,9,10,0.5,1.2
2022-04-29T19:00:00,1733A,111.5531,36.0783,临汾市,临钢医院,,,72,84,,80,112,96,92,92,29,33,11,11,1.0,1.3
2022-04-29T19:00:00,1734A,111.5028,36.0714,临汾市,技工学校,,,76,77,61,63,114,,96,96,25,33,12,14,,1.2
2022-04-29T19:00:00,1736A,111.5018,36.0855,临汾市,市委,细颗粒物(PM2.5),93,76,74,69,61,113,98,96,96,30,33,10,10,1.1,1.2
2022-04-29T19:00:00,1738A,113.5758,37.8572,阳泉市,市中心,颗粒物(PM10),61,71,89,43,49,116,95,102,102,35,38,11,17,0.8,0.9
2022-04-29T19:00:00,1739A,113.4894,37.8731,阳泉市,赛鱼,颗粒物(PM10),75,99,65,48,44,111,86,100,100,40,37,14,13,0.7,0.7
2022-04-29T19:00:00,1740A,113.5819,37.8486,阳泉市,南庄,细颗粒物(PM2.5),64,62,86,46,51,119,102,100,100,29,36,10,15,0.7,0.8
2022-04-29T19:00:00,1742A,113.5614,37.8703,阳泉市,平坦,细颗粒物(PM2.5),64,75,82,46,57,117,96,103,103,37,36,11,14,0.8,0.8
2022-04-29T19:00:00,1743A,113.5158,37.8392,阳泉市,大阳泉,细颗粒物(PM2.5),62,51,54,44,48,118,98,104,104,33,31,10,13,0.6,0.8
2022-04-29T19:00:00,1744A,118.9233,42.2816,赤峰市,松山一中,,31,31,21,11,8,90,68,83,75,23,19,9,11,0.6,0.5
2022-04-29T19:00:00,1745A,118.9576,42.2728,赤峰市,哈达街,,30,30,29,11,9,93,63,87,73,25,18,6,14,0.5,0.5
2022-04-29T19:00:00,1746A,118.8788,42.2554,赤峰市,天义路,,30,30,17,11,6,98,64,82,77,27,16,9,10,0.6,0.5
2022-04-29T19:00:00,1748A,123.044,41.1196,鞍山市,深沟寺,,48,48,61,25,33,144,120,124,124,18,29,11,16,0.6,1
2022-04-29T19:00:00,1749A,123.011,41.0931,鞍山市,太阳城,颗粒物(PM10),54,58,63,24,36,137,110,117,117,25,31,13,14,0.7,1.2
2022-04-29T19:00:00,1750A,123.0485,41.1442,鞍山市,太平,颗粒物(PM10),55,59,68,30,37,130,107,107,107,27,37,14,23,0.6,1.1
2022-04-29T19:00:00,1751A,122.9642,41.0971,鞍山市,铁西三道街,颗粒物(PM10),54,58,87,28,48,134,111,116,116,23,42,8,21,0.6,1.6
2022-04-29T19:00:00,1752A,122.9341,41.0833,鞍山市,铁西工业园区,颗粒物(PM10),53,56,82,25,42,144,122,125,125,14,37,11,22,0.5,1.3
2022-04-29T19:00:00,1753A,123.022,41.0821,鞍山市,明达新区,,49,49,68,25,32,134,110,116,116,18,29,10,14,0.6,1.3
2022-04-29T19:00:00,1754A,123.1289,41.0228,鞍山市,千山(对照点),,40,40,37,26,26,127,110,114,114,14,17,13,12,0.7,0.8
2022-04-29T19:00:00,1755A,123.7977,41.8491,抚顺市,望花区,颗粒物(PM10),67,83,87,36,48,130,98,118,118,22,34,8,14,0.8,1
2022-04-29T19:00:00,1756A,123.9161,41.8822,抚顺市,顺城区,颗粒物(PM10),70,90,71,26,39,143,100,119,119,24,38,8,10,0.5,0.7
2022-04-29T19:00:00,1757A,124.0436,41.8611,抚顺市,东洲区,颗粒物(PM10),63,76,45,29,21,145,118,130,130,18,15,7,7,0.6,0.5
2022-04-29T19:00:00,1758A,123.9247,41.8642,抚顺市,新抚区,颗粒物(PM10),64,78,83,30,43,153,108,127,127,24,32,7,9,0.4,0.6
2022-04-29T19:00:00,1759A,124.0972,41.8961,抚顺市,大伙房水库,颗粒物(PM10),65,79,38,32,22,163,128,136,136,12,10,8,6,0.5,0.4
2022-04-29T19:00:00,1760A,123.7086,41.8391,抚顺市,沈抚新城,,,90,87,,,145,116,135,134,20,34,10,18,1.3,1.8
2022-04-29T19:00:00,1761A,123.8275,41.3064,本溪市,大峪,细颗粒物(PM2.5),77,92,50,56,24,128,120,116,116,27,30,24,17,1.0,1
2022-04-29T19:00:00,1762A,123.7567,41.3325,本溪市,溪湖,颗粒物(PM10),67,84,81,44,32,140,128,124,124,16,38,20,15,0.9,1.4
2022-04-29T19:00:00,1763A,123.7169,41.3094,本溪市,彩屯,"颗粒物(PM10),细颗粒物(PM2.5)",63,76,54,45,28,138,126,122,122,18,30,17,13,0.9,1.1
2022-04-29T19:00:00,1764A,123.7669,41.2864,本溪市,东明,颗粒物(PM10),68,86,56,46,25,127,106,111,111,41,34,31,16,1.2,1
2022-04-29T19:00:00,1765A,123.7992,41.2664,本溪市,新立屯,颗粒物(PM10),74,98,50,44,24,126,113,114,114,30,31,26,16,1.2,1
2022-04-29T19:00:00,1766A,123.8142,41.3472,本溪市,威宁,颗粒物(PM10),77,103,59,39,24,126,124,113,113,17,27,19,14,0.7,0.7
2022-04-29T19:00:00,1767A,121.1115,41.0879,锦州市,南山,颗粒物(PM10),60,70,53,34,31,112,105,107,107,15,25,16,14,1.0,0.7
2022-04-29T19:00:00,1768A,121.0533,40.8434,锦州市,开发区,细颗粒物(PM2.5),113,,100,85,48,116,,106,106,30,46,14,30,1.7,0.9
2022-04-29T19:00:00,1769A,121.1836,41.1119,锦州市,百股街道,,44,44,41,20,30,128,117,122,122,18,27,6,10,0.7,0.6
2022-04-29T19:00:00,1770A,121.1178,41.1222,锦州市,天安街道,颗粒物(PM10),60,70,61,41,34,123,118,118,118,16,34,17,14,1.0,0.7
2022-04-29T19:00:00,1771A,121.1303,41.1386,锦州市,北湖公园,,45,38,53,31,27,120,120,113,113,17,31,15,13,0.9,0.7
2022-04-29T19:00:00,1772A,126.54,43.8622,吉林市,哈达湾,细颗粒物(PM2.5),113,104,47,85,34,152,136,138,138,21,11,11,6,0.7,0.5
2022-04-29T19:00:00,1773A,126.5844,43.8358,吉林市,东局子,细颗粒物(PM2.5),94,71,44,70,30,148,135,132,132,21,12,8,4,0.7,0.6
2022-04-29T19:00:00,1774A,126.5052,43.8245,吉林市,电力学院,细颗粒物(PM2.5),132,134,57,100,38,172,144,154,154,30,18,19,13,0.9,0.7
2022-04-29T19:00:00,1775A,126.6133,43.8972,吉林市,江北,细颗粒物(PM2.5),130,127,49,99,35,148,119,131,131,27,13,13,7,0.8,0.6
2022-04-29T19:00:00,1776A,126.555,43.8306,吉林市,江南公园,细颗粒物(PM2.5),100,103,42,75,30,144,130,131,131,20,11,10,6,0.7,0.6
2022-04-29T19:00:00,1778A,126.7061,43.7133,吉林市,丰满(对照点),细颗粒物(PM2.5),108,111,33,81,24,143,143,131,131,14,5,10,6,0.6,0.4
2022-04-29T19:00:00,1779A,123.9305,47.3636,齐齐哈尔市,安居小区,颗粒物(PM10),55,59,48,31,27,106,90,100,100,18,19,2,2,0.6,0.5
2022-04-29T19:00:00,1780A,123.9488,47.3386,齐齐哈尔市,中心广场,颗粒物(PM10),59,68,47,38,27,107,83,101,100,24,16,5,5,0.7,0.5
2022-04-29T19:00:00,1781A,123.9483,47.3227,齐齐哈尔市,农牧车辆厂,颗粒物(PM10),54,58,40,29,27,111,92,107,105,15,13,2,2,0.5,0.4
2022-04-29T19:00:00,1783A,123.945,47.2988,齐齐哈尔市,市环境监测站,颗粒物(PM10),59,67,42,30,30,107,85,102,101,18,15,5,5,0.5,0.4
2022-04-29T19:00:00,1784A,129.61,44.561,牡丹江市,环保大楼,,41,41,49,27,31,127,107,121,120,18,15,4,4,0.4,0.4
2022-04-29T19:00:00,1785A,129.6115,44.5782,牡丹江市,文化广场,,44,44,54,29,36,127,98,119,118,27,18,3,5,0.4,0.4
2022-04-29T19:00:00,1786A,129.5904,44.5963,牡丹江市,第一医院,,45,41,48,31,37,127,92,118,117,19,11,4,6,0.7,0.6
2022-04-29T19:00:00,1787A,129.6364,44.6075,牡丹江市,机车工厂,,37,34,56,17,26,128,118,122,122,8,16,9,9,0.3,0.3
2022-04-29T19:00:00,1788A,129.6386,44.5462,牡丹江市,第一中学,,43,43,40,23,29,126,76,123,118,42,18,2,2,0.4,0.4
2022-04-29T19:00:00,1789A,124.81117,46.03138,大庆市,大同区,颗粒物(PM10),56,61,70,37,57,133,104,118,117,10,17,4,5,0.6,0.7
2022-04-29T19:00:00,1790A,125.129,46.533,大庆市,龙凤区,,33,33,51,19,41,117,92,108,105,19,19,6,7,0.4,0.5
2022-04-29T19:00:00,1791A,124.902,46.408,大庆市,红岗区,,35,32,50,24,37,124,92,117,114,9,14,7,10,0.5,0.5
2022-04-29T19:00:00,1792A,125.153,46.586,大庆市,萨尔图区,,43,31,51,30,45,126,95,114,112,16,14,5,6,0.4,0.5
2022-04-29T19:00:00,1793A,124.9042,46.6215,大庆市,让胡路区,,36,36,44,21,34,124,99,114,112,16,24,6,7,1.3,1.3
2022-04-29T19:00:00,1794A,118.3606,31.3519,芜湖市,监测站,,49,49,36,32,26,106,84,103,87,38,28,10,11,0.8,0.8
2022-04-29T19:00:00,1795A,118.3714,31.4134,芜湖市,科创中心,颗粒物(PM10),54,57,40,27,37,102,81,100,82,33,30,7,8,1.0,0.8
2022-04-29T19:00:00,1796A,118.3673,31.3131,芜湖市,四水厂,,45,43,35,31,25,100,89,96,88,26,22,6,7,0.6,0.8
2022-04-29T19:00:00,1798A,118.5092,31.6837,马鞍山市,湖东路四小,,50,46,25,35,22,113,67,110,95,37,13,3,3,0.7,0.5
2022-04-29T19:00:00,1799A,118.5024,31.6449,马鞍山市,开发区,颗粒物(PM10),56,61,24,27,13,112,56,111,88,49,17,9,9,1.1,0.9
2022-04-29T19:00:00,1800A,118.5228,31.7231,马鞍山市,慈湖,,38,31,24,26,24,83,58,80,71,35,19,6,6,0.6,0.6
2022-04-29T19:00:00,1802A,118.6245,31.7241,马鞍山市,濮塘(对照点),,,32,29,22,13,,,,,6,6,6,6,,
2022-04-29T19:00:00,1803A,115.9872,29.6815,九江市,十里,,35,20,18,15,12,124,110,111,111,17,11,4,4,0.5,0.5
2022-04-29T19:00:00,1804A,115.9584,29.7046,九江市,茅山头,,35,21,14,15,13,115,109,107,107,14,10,3,3,0.6,0.5
2022-04-29T19:00:00,1805A,115.9877,29.7295,九江市,西园,,34,23,20,19,8,112,106,102,102,15,13,7,6,0.5,0.5
2022-04-29T19:00:00,1806A,116.0172,29.6547,九江市,五七二七厂,,33,24,18,11,6,107,104,98,98,7,4,5,5,0.5,0.4
2022-04-29T19:00:00,1808A,115.9114,29.6038,九江市,综合工业园,,36,27,15,22,9,122,115,110,110,7,6,7,7,0.5,0.4
2022-04-29T19:00:00,1809A,116.0721,29.7535,九江市,石化总厂,,35,25,15,7,7,115,110,105,105,10,8,1,2,0.5,0.3
2022-04-29T19:00:00,1810A,115.9773,29.5698,九江市,庐山气象台(对照点),,29,8,7,8,10,92,92,87,84,6,8,7,4,0.5,0.4
2022-04-29T19:00:00,1812A,112.3931,34.6516,洛阳市,市委党校,,43,39,44,25,29,145,135,128,128,11,13,4,4,0.5,0.6
2022-04-29T19:00:00,1814A,112.4657,34.6871,洛阳市,豫西宾馆,,,,39,32,29,124,117,114,114,12,13,1,2,0.4,0.7
2022-04-29T19:00:00,1815A,112.494,34.6886,洛阳市,河南林校,,42,39,40,23,29,139,133,128,128,12,19,6,7,0.5,0.6
2022-04-29T19:00:00,1816A,112.3844,34.623,洛阳市,开发区管委会,,45,45,44,26,31,145,132,127,127,17,16,3,2,0.4,0.4
2022-04-29T19:00:00,1817A,112.4267,34.6258,洛阳市,市委新办公区,,41,41,40,24,30,136,130,121,121,14,15,4,4,0.3,0.4
2022-04-29T19:00:00,1818A,114.4839,36.0621,安阳市,棉研所(对照点),,50,50,51,30,33,112,96,98,98,16,26,6,7,0.6,0.7
2022-04-29T19:00:00,1819A,114.3551,36.1017,安阳市,红庙街,细颗粒物(PM2.5),53,52,53,37,38,117,104,100,100,19,27,7,9,0.3,0.6
2022-04-29T19:00:00,1820A,114.361,36.0681,安阳市,银杏小区,细颗粒物(PM2.5),59,59,54,42,43,123,111,106,106,20,34,6,8,0.6,0.9
2022-04-29T19:00:00,1824A,114.3389,34.7781,开封市,肿瘤医院,,,,48,,46,137,115,118,118,,16,7,7,0.9,0.9
2022-04-29T19:00:00,1826A,114.2885,34.7965,开封市,世纪星幼儿园,细颗粒物(PM2.5),54,48,51,38,47,142,120,124,124,14,16,3,4,0.6,0.6
2022-04-29T19:00:00,1828A,113.2269,35.2127,焦作市,市环保局,细颗粒物(PM2.5),67,66,64,48,48,139,134,114,114,17,23,3,4,0.6,0.7
2022-04-29T19:00:00,1829A,113.2467,35.176,焦作市,高新区政府,颗粒物(PM10),63,76,67,34,40,135,130,114,114,17,24,9,9,0.9,0.6
2022-04-29T19:00:00,1830A,113.1987,35.2703,焦作市,影视城(对照点),细颗粒物(PM2.5),69,52,63,50,50,121,106,96,96,20,24,6,6,0.7,0.9
2022-04-29T19:00:00,1832A,113.3257,33.742,平顶山市,新华旅馆,"颗粒物(PM10),细颗粒物(PM2.5)",54,58,75,38,48,148,104,118,118,16,22,5,6,0.4,0.4
2022-04-29T19:00:00,1833A,113.2919,33.737,平顶山市,规划设计院,细颗粒物(PM2.5),52,48,69,36,46,142,104,112,112,20,27,3,5,0.4,0.5
2022-04-29T19:00:00,1834A,113.182,33.774,平顶山市,平顶山工学院,细颗粒物(PM2.5),74,58,67,54,53,142,118,114,114,17,28,1,4,0.4,0.4
2022-04-29T19:00:00,1835A,111.1922,34.7752,三门峡市,市政府,,29,23,32,10,31,113,91,97,97,28,17,5,5,0.4,0.5
2022-04-29T19:00:00,1836A,111.1587,34.7942,三门峡市,开发区,,,,36,,31,111,99,99,99,15,12,6,6,0.4,0.6
2022-04-29T19:00:00,1838A,111.143,34.7955,三门峡市,风景区(对照点),,35,24,36,8,27,122,110,107,107,12,14,6,6,0.3,0.5
2022-04-29T19:00:00,1840A,111.2992,30.6981,宜昌市,白龙岗,,,36,24,17,11,109,85,95,95,29,22,,6,1.2,0.7
2022-04-29T19:00:00,1841A,111.3549,30.6465,宜昌市,伍家岗,,43,43,37,19,13,114,81,100,100,25,17,4,5,0.4,0.4
2022-04-29T19:00:00,1843A,111.3275,30.7819,宜昌市,夷陵区,,34,34,24,17,11,120,107,114,114,17,16,7,7,0.3,0.4
2022-04-29T19:00:00,1844A,112.2494,30.3197,荆州市,市图书馆,,44,44,32,18,18,121,102,112,112,25,19,8,6,0.6,0.5
2022-04-29T19:00:00,1845A,112.2008,30.3544,荆州市,市委党校,,40,40,32,23,25,123,106,114,114,19,12,8,8,0.7,0.5
2022-04-29T19:00:00,1847A,113.1094,29.3578,岳阳市,南湖风景区,,41,41,31,27,16,81,79,74,74,19,14,7,6,0.6,0.6
2022-04-29T19:00:00,1848A,113.1493,29.4251,岳阳市,城陵矶,,42,42,28,22,16,80,80,75,75,21,16,11,10,0.4,0.4
2022-04-29T19:00:00,1849A,113.1497,29.3575,岳阳市,开发区,,50,50,37,21,16,90,79,80,80,24,13,6,7,0.5,0.6
2022-04-29T19:00:00,1850A,113.2621,29.4758,岳阳市,云溪区,,32,32,25,22,16,82,77,75,75,17,15,7,8,0.4,0.4
2022-04-29T19:00:00,1851A,112.9943,29.4402,岳阳市,君山区,,39,36,26,27,25,93,86,86,86,11,9,4,6,0.6,0.5
2022-04-29T19:00:00,1852A,113.2117,29.355,岳阳市,金凤水库(对照点),,38,33,25,26,18,83,77,76,76,13,8,6,4,0.7,0.6
2022-04-29T19:00:00,1854A,111.6975,28.9703,常德市,市二中,,38,35,30,26,20,111,98,104,104,9,5,5,5,0.7,0.6
2022-04-29T19:00:00,1857A,111.7158,29.1456,常德市,白鹤山(对照点),,42,42,29,27,20,102,88,96,96,7,6,4,5,0.6,0.6
2022-04-29T19:00:00,1858A,110.5319,29.1217,张家界市,永定新区,,33,32,22,23,14,101,85,98,96,4,7,5,6,0.4,0.4
2022-04-29T19:00:00,1859A,110.4697,29.1242,张家界市,电业局,,36,30,10,25,7,98,84,95,94,15,13,7,7,0.2,0.2
2022-04-29T19:00:00,1860A,110.5594,29.3547,张家界市,未央路,,,22,19,,7,94,60,89,86,,6,,2,0.4,0.4
2022-04-29T19:00:00,1861A,110.4417,29.315,张家界市,袁家界(对照点),,30,24,13,10,4,106,96,103,102,6,6,5,5,0.2,0.2
2022-04-29T19:00:00,1862A,110.4144,25.3167,桂林市,电子科大尧山校区(对照点),,26,22,18,13,13,113,82,93,77,5,4,6,5,0.4,0.5
2022-04-29T19:00:00,1863A,110.2819,25.2697,桂林市,监测站,,30,30,22,7,12,106,74,99,67,11,8,7,4,0.5,0.6
2022-04-29T19:00:00,1864A,110.3089,25.2708,桂林市,龙隐路小学,,25,22,20,11,13,114,78,107,73,9,8,7,7,0.6,0.6
2022-04-29T19:00:00,1865A,110.2869,25.2178,桂林市,八中,,25,22,21,8,10,111,78,109,72,8,7,8,8,0.8,0.7
2022-04-29T19:00:00,1866A,109.2262,21.588,北海市,牛尾岭水库(对照点),,38,38,28,22,19,61,60,53,53,8,14,4,4,0.3,0.4
2022-04-29T19:00:00,1867A,109.1436,21.4086,北海市,海滩公园,,30,30,25,10,11,92,77,72,72,2,4,4,4,0.5,0.6
2022-04-29T19:00:00,1868A,109.0981,21.4661,北海市,新市环保局,,27,27,23,7,7,83,67,62,62,4,5,4,4,0.5,0.5
2022-04-29T19:00:00,1869A,109.1778,21.5233,北海市,北海工业园,,41,41,34,17,19,77,69,60,60,5,8,5,5,0.3,0.3
2022-04-29T19:00:00,1870A,109.4856,24.3895,柳州市,柳东小学,,,24,25,,19,98,78,76,76,8,9,7,7,0.5,0.5
2022-04-29T19:00:00,1871A,109.4157,24.3277,柳州市,环保监测站,,23,12,25,13,19,92,72,76,73,10,11,5,5,0.7,0.7
2022-04-29T19:00:00,1872A,109.389,24.341,柳州市,河西水厂,,24,20,41,13,25,88,75,72,72,11,16,10,11,0.8,0.9
2022-04-29T19:00:00,1873A,109.4311,24.2921,柳州市,市四中,,26,26,32,13,20,85,73,73,73,10,14,7,7,0.7,0.7
2022-04-29T19:00:00,1874A,109.4006,24.3631,柳州市,市九中,,28,24,31,19,21,87,67,73,67,11,11,5,6,0.7,0.8
2022-04-29T19:00:00,1875A,109.4958,24.3134,柳州市,古亭山,,26,17,25,8,15,95,81,84,84,7,10,4,4,0.5,0.5
2022-04-29T19:00:00,1876A,109.5078,18.2489,三亚市,河东子站,,19,19,18,12,12,46,43,44,44,4,3,2,2,0.4,0.4
2022-04-29T19:00:00,1877A,109.4964,18.2681,三亚市,河西子站,,18,18,18,11,11,54,48,49,48,4,4,3,3,0.3,0.3
2022-04-29T19:00:00,1878A,104.7778,31.4741,绵阳市,富乐山,,26,19,66,13,32,116,81,101,100,12,12,11,10,0.7,0.6
2022-04-29T19:00:00,1879A,104.7563,31.4535,绵阳市,市人大,,37,37,81,18,39,104,63,91,87,33,34,6,9,0.7,0.6
2022-04-29T19:00:00,1880A,104.6697,31.4668,绵阳市,高新区自来水公司,,26,26,57,10,36,110,55,91,90,40,30,3,5,0.7,0.6
2022-04-29T19:00:00,1881A,104.7287,31.5075,绵阳市,三水厂,,31,31,76,15,33,108,59,96,94,33,30,3,4,0.7,0.7
2022-04-29T19:00:00,1882A,104.563,28.793,宜宾市,石马中学(对照点),细颗粒物(PM2.5),78,55,55,57,46,114,101,108,108,18,21,7,11,0.5,0.6
2022-04-29T19:00:00,1883A,104.6201,28.7728,宜宾市,市委,颗粒物(PM10),52,53,65,33,40,122,106,109,109,17,22,11,14,0.5,0.6
2022-04-29T19:00:00,1884A,104.6055,28.793,宜宾市,宜宾四中,颗粒物(PM10),55,60,67,34,39,115,101,107,105,24,30,8,11,0.6,0.5
2022-04-29T19:00:00,1885A,104.639,28.7562,宜宾市,市政府,颗粒物(PM10),53,55,69,30,40,123,106,110,110,19,26,12,18,0.6,0.6
2022-04-29T19:00:00,1886A,104.5742,28.7199,宜宾市,黄金嘴,,50,50,60,28,35,127,97,108,108,17,23,7,9,0.4,0.5
2022-04-29T19:00:00,1888A,101.6891,26.571,攀枝花市,弄弄坪,,46,42,59,32,36,174,131,150,150,15,15,14,13,1.1,0.9
2022-04-29T19:00:00,1889A,101.5769,26.5928,攀枝花市,河门口,颗粒物(PM10),51,51,71,23,39,142,124,134,134,14,21,6,13,0.4,0.9
2022-04-29T19:00:00,1890A,101.7169,26.585,攀枝花市,炳草岗,颗粒物(PM10),55,60,50,36,29,164,116,143,143,44,28,16,15,0.6,0.7
2022-04-29T19:00:00,1891A,101.7369,26.5008,攀枝花市,仁和,颗粒物(PM10),52,54,76,30,44,154,126,147,146,19,18,6,11,0.7,0.7
2022-04-29T19:00:00,1893A,105.4324,28.9634,泸州市,九狮山(对照点),,35,35,46,10,18,112,81,95,95,19,17,10,9,0.5,0.4
2022-04-29T19:00:00,1894A,105.4427,28.9063,泸州市,小市上码头,,37,37,53,18,21,105,76,82,82,19,16,16,16,0.5,0.4
2022-04-29T19:00:00,1895A,105.4241,28.8573,泸州市,兰田宪桥,,38,38,49,12,19,104,74,83,83,25,20,11,10,0.6,0.5
2022-04-29T19:00:00,1896A,105.4379,28.8833,泸州市,市环监站,,32,32,45,15,19,93,68,72,72,25,22,8,9,0.5,0.3
2022-04-29T19:00:00,1902A,104.3826,31.1317,德阳市,西小区,颗粒物(PM10),60,69,93,26,39,121,79,94,94,24,42,12,9,0.5,0.5
2022-04-29T19:00:00,1904A,104.3553,31.1091,德阳市,耐火材料厂,颗粒物(PM10),67,84,105,24,47,106,79,97,97,26,41,13,8,0.4,0.5
2022-04-29T19:00:00,1905A,106.056,30.8064,南充市,西山风景区(对照点),,27,23,35,17,25,96,86,89,89,11,12,4,3,0.7,0.6
2022-04-29T19:00:00,1906A,106.0789,30.8023,南充市,南充市委,,31,31,42,13,23,98,89,93,93,16,11,3,3,0.7,0.6
2022-04-29T19:00:00,1907A,106.1031,30.8217,南充市,南充炼油厂,,29,28,38,10,18,103,91,98,98,8,9,2,5,0.5,0.5
2022-04-29T19:00:00,1908A,106.1064,30.7856,南充市,高坪区监测站,,22,19,31,3,22,90,69,81,81,10,10,2,12,0.6,0.5
2022-04-29T19:00:00,1909A,106.0642,30.7636,南充市,嘉陵区环保局,,26,22,34,18,24,99,80,90,90,8,8,3,7,0.5,0.4
2022-04-29T19:00:00,1910A,106.1087,30.8388,南充市,市环境监测站,,30,23,43,11,24,107,95,98,98,8,13,4,4,0.4,0.4
2022-04-29T19:00:00,1911A,106.9222,27.6869,遵义市,丁字口,,30,25,21,14,11,102,96,93,92,13,14,6,6,0.7,0.7
2022-04-29T19:00:00,1912A,106.9242,27.7019,遵义市,凤凰山,,29,21,15,17,17,100,92,91,90,10,12,5,5,0.5,0.5
2022-04-29T19:00:00,1913A,106.8906,27.6486,遵义市,忠庄,,31,31,21,17,10,95,91,86,86,12,12,1,2,0.6,0.6
2022-04-29T19:00:00,1914A,106.9231,27.6506,遵义市,舟水桥,,,30,14,13,10,101,,94,93,9,14,1,2,0.4,0.3
2022-04-29T19:00:00,1915A,106.9178,27.72,遵义市,干田坝,,30,16,18,17,13,96,93,90,90,10,11,3,5,0.7,0.8
2022-04-29T19:00:00,1916A,103.7897,25.5035,曲靖市,环境监测站,颗粒物(PM10),62,73,68,21,30,180,161,165,164,18,15,7,7,0.6,0.6
2022-04-29T19:00:00,1917A,103.8,25.5364,曲靖市,烟厂办公区,臭氧1小时,75,51,59,20,27,197,180,180,180,9,9,3,6,0.6,0.7
2022-04-29T19:00:00,1918A,108.7197,34.3956,咸阳市,气象站(对照点),"颗粒物(PM10),细颗粒物(PM2.5)",68,86,74,49,40,111,93,98,98,22,24,6,6,0.6,0.5
2022-04-29T19:00:00,1919A,108.673,34.3155,咸阳市,实验中学,颗粒物(PM10),76,101,77,49,40,104,87,93,93,31,24,3,4,0.5,0.5
2022-04-29T19:00:00,1920A,108.7233,34.3617,咸阳市,师范学院,,,,74,,42,112,,99,99,28,21,4,5,1.1,0.6
2022-04-29T19:00:00,1922A,109.0656,35.0994,铜川市,党校(对照点),,,,56,,36,97,67,78,76,43,24,6,5,0.9,0.5
2022-04-29T19:00:00,1923A,109.0697,35.0697,铜川市,王益区政府,细颗粒物(PM2.5),83,94,59,61,35,95,68,81,80,45,20,5,7,0.8,0.6
2022-04-29T19:00:00,1924A,108.9344,34.9058,铜川市,新区管委会,细颗粒物(PM2.5),65,78,66,47,37,102,102,85,85,18,27,7,9,0.6,0.5
2022-04-29T19:00:00,1926A,109.4131,36.6275,延安市,枣园(对照点),,42,42,45,10,18,102,102,91,91,8,23,3,3,0.2,0.2
2022-04-29T19:00:00,1927A,109.4761,36.6028,延安市,延大医附院,,50,50,55,12,22,104,99,90,90,14,23,3,3,0.4,0.5
2022-04-29T19:00:00,1929A,109.5056,36.6106,延安市,百米大道,颗粒物(PM10),51,51,59,17,21,93,93,78,78,18,31,5,6,0.5,0.7
2022-04-29T19:00:00,1930A,107.185,34.3063,宝鸡市,庙沟村(对照点),细颗粒物(PM2.5),68,55,73,49,47,86,62,73,73,12,14,4,4,0.4,0.4
2022-04-29T19:00:00,1931A,107.0708,34.3017,宝鸡市,竹园沟,细颗粒物(PM2.5),64,58,71,46,43,83,55,63,63,16,17,5,5,0.5,0.4
2022-04-29T19:00:00,1932A,107.1906,34.3672,宝鸡市,三陆医院,细颗粒物(PM2.5),60,68,84,43,40,99,52,77,75,22,23,5,6,0.7,0.6
2022-04-29T19:00:00,1933A,107.1431,34.3547,宝鸡市,监测站,细颗粒物(PM2.5),60,62,75,43,43,101,50,77,74,25,21,4,4,0.7,0.6
2022-04-29T19:00:00,1934A,107.1186,34.3739,宝鸡市,技工学校,细颗粒物(PM2.5),73,71,81,53,46,97,54,75,74,19,19,5,5,0.5,0.4
2022-04-29T19:00:00,1935A,107.3906,34.3528,宝鸡市,陈仓区环保局家属楼,细颗粒物(PM2.5),73,80,88,53,55,98,61,84,82,31,29,5,6,0.8,0.6
2022-04-29T19:00:00,1936A,107.2058,34.3497,宝鸡市,文理学院,细颗粒物(PM2.5),68,70,79,49,47,101,51,77,75,30,25,6,7,0.6,0.4
2022-04-29T19:00:00,1937A,107.2386,34.3622,宝鸡市,三迪小学,细颗粒物(PM2.5),78,73,84,57,52,92,49,76,74,34,26,8,8,0.6,0.5
2022-04-29T19:00:00,1939A,109.4974,34.4877,渭南市,日报社,细颗粒物(PM2.5),64,58,49,46,32,105,87,95,95,17,18,10,7,0.6,0.5
2022-04-29T19:00:00,1940A,109.4636,34.493,渭南市,体育馆,颗粒物(PM10),57,63,52,34,31,110,89,100,100,25,26,10,6,0.6,0.6
2022-04-29T19:00:00,1941A,109.4259,34.5023,渭南市,高新一小,颗粒物(PM10),64,78,57,36,35,105,88,94,94,19,14,5,4,0.6,0.5
2022-04-29T19:00:00,1943A,102.1725,38.5339,金昌市,新川苑,颗粒物(PM10),70,90,110,17,27,99,81,98,85,12,10,10,11,0.3,0.3
2022-04-29T19:00:00,1944A,102.1692,38.5167,金昌市,天庆家园,颗粒物(PM10),60,70,88,11,22,101,82,92,86,10,10,10,11,0.2,0.2
2022-04-29T19:00:00,1945A,98.2908,39.7711,嘉峪关市,气象局,,32,17,45,7,12,110,101,101,101,6,8,1,11,0.3,0.4
2022-04-29T19:00:00,1947A,106.3394,38.817,石嘴山市,沙湖旅游区(对照点),,,58,102,23,27,104,47,90,66,,36,6,25,0.2,0.5
2022-04-29T19:00:00,1948A,106.3668,39.0145,石嘴山市,大武口朝阳西街,,37,37,88,20,31,110,85,84,84,9,31,5,34,0.4,0.8
2022-04-29T19:00:00,1949A,106.7704,39.2282,石嘴山市,惠农南大街,颗粒物(PM10),68,85,119,22,36,118,84,74,74,18,38,11,20,0.5,0.7
2022-04-29T19:00:00,1950A,106.7099,39.1325,石嘴山市,红果子镇惠新街,颗粒物(PM10),62,74,105,19,30,113,86,82,82,10,34,29,18,0.5,0.3
2022-04-29T19:00:00,1951A,84.895,45.6094,克拉玛依市,长征新村,,39,25,19,5,6,123,122,115,115,8,8,8,8,0.2,0.2
2022-04-29T19:00:00,1952A,84.8988,45.5893,克拉玛依市,南林小区,,,,26,,10,131,129,123,120,,12,8,7,0.2,0.5
2022-04-29T19:00:00,1954A,84.905,44.3396,克拉玛依市,独山子区,,41,28,20,6,8,130,130,119,119,10,10,6,5,0.4,0.3
2022-04-29T19:00:00,1955A,85.6979,46.098,克拉玛依市,乌尔禾区商贸楼,,36,8,25,0,10,115,114,106,106,3,11,7,7,0.2,0.2
2022-04-29T19:00:00,1956A,86.1472,41.7538,巴音郭楞州,孔雀公园,颗粒物(PM10),54,58,38,30,15,106,106,98,98,4,13,1,1,0.4,0.5
2022-04-29T19:00:00,1957A,86.1972,41.7166,巴音郭楞州,棉纺厂,,,25,16,9,11,99,98,94,94,7,13,3,3,,0.6
2022-04-29T19:00:00,1958A,86.2357,41.7173,巴音郭楞州,经济开发区,,39,30,21,27,14,105,105,100,100,6,9,2,2,0.4,0.4
2022-04-29T19:00:00,1961A,117.532,36.6868,济南市,东山小学,颗粒物(PM10),63,76,63,42,38,144,125,133,133,19,21,10,10,0.7,0.7
2022-04-29T19:00:00,1966A,120.0405,35.8735,青岛市,黄岛区4号,细颗粒物(PM2.5),70,51,40,51,28,113,97,104,104,32,26,6,6,0.5,0.4
2022-04-29T19:00:00,1982A,122.0693,37.2174,威海市,文登开发区,,40,39,30,19,16,130,125,126,126,18,14,6,4,0.3,0.2
2022-04-29T19:00:00,2031A,113.1817,27.9958,株洲市,云田中学,,46,46,21,10,11,75,62,68,68,26,14,2,2,0.5,0.2
2022-04-29T19:00:00,2054A,114.1099,32.1059,信阳市,平桥分局,,50,50,50,22,27,106,103,96,96,14,14,6,6,0.4,0.4
2022-04-29T19:00:00,2064A,113.9956,32.1271,信阳市,南湾水厂,颗粒物(PM10),55,59,53,26,32,117,95,101,101,13,12,7,7,0.4,0.4
2022-04-29T19:00:00,2065A,114.0775,32.1195,信阳市,市酿酒公司,颗粒物(PM10),52,54,49,24,30,108,99,97,97,16,15,5,5,0.5,0.5
2022-04-29T19:00:00,2066A,114.0609,32.1399,信阳市,审计局,颗粒物(PM10),56,61,53,29,34,108,95,95,95,15,15,8,8,0.4,0.4
2022-04-29T19:00:00,2067A,114.6613,33.6128,周口市,市环境监测站,颗粒物(PM10),57,63,74,21,28,111,91,102,102,14,16,6,7,0.5,0.5
2022-04-29T19:00:00,2068A,114.6758,33.6347,周口市,周口师范,颗粒物(PM10),60,69,66,26,33,107,85,97,97,11,14,6,8,0.6,0.7
2022-04-29T19:00:00,2069A,114.6546,33.5979,周口市,市运管处,颗粒物(PM10),52,53,60,27,31,109,86,100,100,7,10,5,5,0.4,0.5
2022-04-29T19:00:00,2070A,114.6369,33.6406,周口市,川汇区环保局,颗粒物(PM10),54,57,58,36,36,113,88,105,103,9,11,2,2,0.7,0.7
2022-04-29T19:00:00,2075A,117.6336,24.4674,漳州市,九湖(对照点),颗粒物(PM10),54,58,50,25,27,147,93,120,120,15,15,8,9,0.4,0.4
2022-04-29T19:00:00,2160A,112.85,35.5051,晋城市,自来水公司,细颗粒物(PM2.5),98,111,79,73,51,124,110,102,102,21,27,6,5,0.9,1.1
2022-04-29T19:00:00,2161A,112.8318,35.4936,晋城市,白云商贸,细颗粒物(PM2.5),98,108,74,73,48,133,114,108,108,19,20,5,3,1.0,1.3
2022-04-29T19:00:00,2162A,112.8508,35.4887,晋城市,市环保局,细颗粒物(PM2.5),98,88,67,73,49,119,108,101,101,17,19,6,4,1.0,1.3
2022-04-29T19:00:00,2163A,112.8676,35.4897,晋城市,技术学院,细颗粒物(PM2.5),98,112,69,73,48,119,107,101,101,17,18,5,3,0.8,1.1
2022-04-29T19:00:00,2165A,112.8453,35.546,晋城市,白马寺 (对照点),"颗粒物(PM10),细颗粒物(PM2.5)",85,120,83,63,45,141,117,110,110,19,20,4,3,1.1,1.3
2022-04-29T19:00:00,2166A,112.4397,39.3522,朔州市,平朔,细颗粒物(PM2.5),52,36,81,36,50,117,92,105,105,24,39,10,9,0.7,0.6
2022-04-29T19:00:00,2167A,112.4575,39.3617,朔州市,朔唯,细颗粒物(PM2.5),60,36,91,43,51,120,96,109,109,20,39,3,5,0.5,0.5
2022-04-29T19:00:00,2168A,112.4258,39.3197,朔州市,区政府,颗粒物(PM10),51,51,81,19,34,120,91,108,108,25,34,8,10,0.7,0.7
2022-04-29T19:00:00,2169A,112.4072,39.3278,朔州市,市环保局,颗粒物(PM10),57,63,94,19,33,111,86,101,100,33,33,8,8,0.4,0.3
2022-04-29T19:00:00,2170A,112.4272,39.3681,朔州市,市二中,细颗粒物(PM2.5),58,54,91,41,45,119,83,107,105,26,34,6,7,0.8,0.7
2022-04-29T19:00:00,2171A,112.7532,37.6945,晋中市,锦纶小区,细颗粒物(PM2.5),97,111,80,72,53,100,89,89,89,31,31,10,11,0.7,0.5
2022-04-29T19:00:00,2173A,112.7249,37.7067,晋中市,南都小区,细颗粒物(PM2.5),93,92,78,69,54,105,97,92,92,27,31,10,12,0.7,0.6
2022-04-29T19:00:00,2174A,112.6991,37.6982,晋中市,榆次区政府,细颗粒物(PM2.5),94,99,82,70,56,103,95,89,89,27,29,12,12,0.5,0.4
2022-04-29T19:00:00,2175A,110.9956,35.0147,运城市,运城中学,颗粒物(PM10),52,54,48,29,35,120,112,108,108,16,12,5,4,0.8,0.9
2022-04-29T19:00:00,2178A,110.9686,35.0303,运城市,地区技校,颗粒物(PM10),57,63,55,23,27,126,104,113,113,18,16,4,4,0.5,0.9
2022-04-29T19:00:00,2179A,111.0414,35.1147,运城市,空港新区,,46,46,54,30,42,120,109,110,110,13,16,6,7,0.6,0.8
2022-04-29T19:00:00,2181A,112.7383,38.4519,忻州市,开发区,颗粒物(PM10),62,73,68,42,52,93,87,71,71,27,33,16,22,0.7,0.8
2022-04-29T19:00:00,2182A,112.7003,38.4928,忻州市,会展中心,细颗粒物(PM2.5),69,78,66,50,49,75,66,66,66,35,39,13,15,0.7,0.7
2022-04-29T19:00:00,2183A,111.1406,37.5211,吕梁市,环保局,,41,41,76,23,25,86,72,72,72,32,35,10,11,0.3,0.4
2022-04-29T19:00:00,2185A,111.1297,37.5136,吕梁市,自来水公司,,33,33,77,14,26,85,82,75,75,29,40,6,8,0.3,0.7
2022-04-29T19:00:00,2187A,106.8174,39.6973,乌海市,市林业局,颗粒物(PM10),51,52,89,20,28,119,97,95,95,7,39,5,19,0.4,0.7
2022-04-29T19:00:00,2188A,106.7907,39.6667,乌海市,中海勃湾学校,,43,43,82,22,28,130,99,97,97,10,45,7,18,0.3,0.6
2022-04-29T19:00:00,2191A,122.2532,43.6801,通辽市,艺术职业学校,颗粒物(PM10),66,81,76,20,28,112,77,97,94,29,23,7,8,0.5,0.5
2022-04-29T19:00:00,2192A,119.7594,49.2261,呼伦贝尔市,区环保局,,32,32,26,22,18,92,74,87,85,6,9,5,5,0.3,0.4
2022-04-29T19:00:00,2195A,107.4212,40.761,巴彦淖尔市,附二中,,45,45,89,21,25,99,93,93,93,5,9,3,5,0.2,0.3
2022-04-29T19:00:00,2196A,107.37,40.7372,巴彦淖尔市,市环保大楼,,41,41,87,23,31,103,101,100,100,8,10,4,5,0.3,0.3
2022-04-29T19:00:00,2197A,113.1306,40.9923,乌兰察布市,集宁新区,,28,21,40,13,32,98,89,91,91,4,18,9,10,0.2,0.4
2022-04-29T19:00:00,2200A,122.0392,46.0656,兴安盟,胜华新制药厂,,42,23,52,29,34,92,75,81,80,9,15,2,7,0.1,1.2
2022-04-29T19:00:00,2201A,121.9504,46.0741,兴安盟,科右前旗环保局,,,25,43,27,30,86,69,79,77,,17,4,4,0.2,0.3
2022-04-29T19:00:00,2202A,116.1042,43.9317,锡林郭勒盟,市环保监测站,颗粒物(PM10),52,53,30,8,7,90,79,84,84,3,8,8,8,0.5,0.5
2022-04-29T19:00:00,2203A,116.0781,43.9311,锡林郭勒盟,市政府,,28,28,27,5,7,89,76,82,82,5,12,6,8,0.5,0.6
2022-04-29T19:00:00,2204A,105.6467,38.8363,阿拉善盟,西城区西花园(对照点),颗粒物(PM10),57,64,97,27,31,116,96,99,96,6,7,7,8,0.3,0.3
2022-04-29T19:00:00,2205A,105.6985,38.8411,阿拉善盟,蒙二幼,颗粒物(PM10),52,54,101,32,33,120,93,100,95,7,8,7,7,0.4,0.4
2022-04-29T19:00:00,2206A,105.724,38.8516,阿拉善盟,环保局新楼,颗粒物(PM10),60,69,83,38,37,115,89,101,92,9,7,7,7,0.3,0.4
2022-04-29T19:00:00,2207A,121.6094,41.998,阜新市,工业园区,,,114,81,8,37,160,88,118,115,,33,7,17,0.3,0.5
2022-04-29T19:00:00,2208A,121.6697,42.0279,阜新市,长青街,,28,28,71,6,37,106,82,103,101,7,28,10,21,0.4,0.6
2022-04-29T19:00:00,2209A,121.6673,42.0705,阜新市,农业园区,颗粒物(PM10),53,56,70,11,36,116,88,113,110,15,27,10,24,0.1,0.3
2022-04-29T19:00:00,2210A,121.6717,42.0224,阜新市,东苑,颗粒物(PM10),72,94,76,11,34,112,87,108,105,16,37,7,22,0.4,0.6
2022-04-29T19:00:00,2211A,121.6506,42.0498,阜新市,玉龙新城,颗粒物(PM10),63,76,57,5,28,105,77,102,99,11,25,11,16,0.1,0.4
2022-04-29T19:00:00,2212A,123.2,41.1953,辽阳市,宏伟区,颗粒物(PM10),57,63,60,26,30,132,109,116,116,26,36,17,17,0.9,1
2022-04-29T19:00:00,2213A,123.1683,41.2495,辽阳市,新华园,颗粒物(PM10),57,63,76,33,43,137,111,122,122,27,43,15,15,1.1,1.2
2022-04-29T19:00:00,2214A,123.2354,41.2639,辽阳市,滨河路,颗粒物(PM10),64,78,78,41,46,141,120,125,125,23,38,15,16,0.7,0.9
2022-04-29T19:00:00,2215A,123.149,41.2991,辽阳市,铁西工业园,颗粒物(PM10),60,70,83,38,49,137,107,121,121,23,40,14,18,1.2,1.4
2022-04-29T19:00:00,2216A,123.8139,42.3022,铁岭市,汇工街西,颗粒物(PM10),81,112,79,28,53,153,120,142,138,18,35,6,14,0.5,0.7
2022-04-29T19:00:00,2217A,123.8649,42.2923,铁岭市,水上乐园,颗粒物(PM10),57,64,58,20,35,148,122,135,135,13,22,7,7,0.3,0.4
2022-04-29T19:00:00,2218A,123.8486,42.2867,铁岭市,银州路东段,颗粒物(PM10),75,100,72,28,40,142,117,128,128,19,27,6,8,0.5,0.6
2022-04-29T19:00:00,2219A,123.7153,42.2217,铁岭市,金沙江路北,颗粒物(PM10),56,61,61,31,39,147,112,128,128,18,40,9,12,0.5,0.6
2022-04-29T19:00:00,2220A,120.4318,41.5881,朝阳市,西梁,,44,44,47,16,23,100,60,94,90,27,23,10,10,0.8,0.8
2022-04-29T19:00:00,2221A,120.4521,41.5646,朝阳市,河畔小区,,44,44,44,15,22,107,68,100,96,25,15,7,8,0.7,0.7
2022-04-29T19:00:00,2222A,120.4176,41.5648,朝阳市,八里堡,,46,46,54,11,28,102,72,94,91,18,26,6,8,0.8,0.8
2022-04-29T19:00:00,2223A,120.3806,41.5969,朝阳市,农业园区,,25,25,37,14,16,104,76,97,96,15,22,8,11,0.7,0.8
2022-04-29T19:00:00,2225A,124.4002,43.1713,四平市,一商场,颗粒物(PM10),55,59,71,36,41,136,110,127,126,15,31,9,10,0.3,0.4
2022-04-29T19:00:00,2226A,124.388,43.193,四平市,境园,,50,50,56,24,34,147,117,136,135,11,30,11,11,0.3,0.4
2022-04-29T19:00:00,2227A,125.1358,42.8845,辽源市,环保局,,38,24,40,18,28,138,121,133,132,13,15,8,9,0.6,0.6
2022-04-29T19:00:00,2229A,125.9358,41.7173,通化市,光明,,32,21,25,13,12,118,102,111,111,7,13,11,18,0.5,0.7
2022-04-29T19:00:00,2230A,125.9446,41.7325,通化市,铁路,,30,16,30,12,17,116,96,111,110,11,19,8,20,0.6,0.9
2022-04-29T19:00:00,2231A,126.4219,41.9171,白山市,喜丰,,50,50,53,10,14,114,95,110,109,13,22,10,10,0.6,0.5
2022-04-29T19:00:00,2232A,126.4077,41.9419,白山市,环保局,,34,34,37,17,12,111,100,106,105,14,17,10,10,0.7,0.6
2022-04-29T19:00:00,2233A,124.8006,45.1214,松原市,江南,颗粒物(PM10),66,81,73,37,55,141,98,129,124,14,18,3,6,0.2,0.3
2022-04-29T19:00:00,2234A,124.7965,45.1722,松原市,江北,颗粒物(PM10),54,57,76,19,59,138,102,127,123,10,17,2,4,0.3,0.4
2022-04-29T19:00:00,2235A,122.7911,45.6077,白城市,洮北区环保局,,,27,44,,,112,66,98,89,14,14,4,5,0.4,0.4
2022-04-29T19:00:00,2236A,122.8738,45.5725,白城市,市环保局,,37,37,50,14,33,67,36,59,53,32,24,6,6,0.4,0.3
2022-04-29T19:00:00,2237A,129.47,42.8883,延边朝鲜族自治州,妇幼医院,,48,48,31,24,18,125,108,117,117,7,10,7,6,0.5,0.4
2022-04-29T19:00:00,2238A,129.5055,42.9108,延边朝鲜族自治州,延边医院,,44,44,35,22,20,129,109,121,121,14,14,9,9,0.5,0.6
2022-04-29T19:00:00,2239A,129.3964,42.8881,延边朝鲜族自治州,朝阳川镇医院,,36,36,32,15,18,130,107,122,122,8,12,6,7,0.4,0.4
2022-04-29T19:00:00,2240A,130.9762,45.3001,鸡西市,环保局,,29,29,58,11,32,91,61,86,83,32,39,5,8,0.4,0.6
2022-04-29T19:00:00,2243A,130.9429,45.3039,鸡西市,第一中学,,43,43,57,16,27,96,65,88,84,30,38,9,9,0.3,0.4
2022-04-29T19:00:00,2244A,130.2537,47.3416,鹤岗市,哈啤分公司,,31,31,26,15,17,104,94,98,98,20,12,11,12,0.3,0.3
2022-04-29T19:00:00,2245A,130.2684,47.3086,鹤岗市,斯达机电,颗粒物(PM10),64,77,25,21,9,102,83,95,95,18,12,7,7,0.4,0.3
2022-04-29T19:00:00,2246A,130.3114,47.3388,鹤岗市,东山纸板厂,,36,36,50,16,20,99,81,91,91,23,20,10,10,0.3,0.6
2022-04-29T19:00:00,2247A,130.1097,47.3382,鹤岗市,五号水库(对照点),,28,23,14,19,14,94,79,84,84,9,10,5,4,0.0,0
2022-04-29T19:00:00,2248A,131.1511,46.6937,双鸭山市,双合村,,26,26,103,16,51,105,77,98,96,17,28,4,22,0.5,1.7
2022-04-29T19:00:00,2249A,131.1652,46.6191,双鸭山市,南小市,颗粒物(PM10),59,68,46,41,28,96,70,92,90,23,14,4,2,0.5,0.5
2022-04-29T19:00:00,2250A,131.1524,46.6554,双鸭山市,环保局,,40,35,42,28,28,107,76,100,98,19,27,5,6,0.4,0.5
2022-04-29T19:00:00,2251A,131.12,46.5656,双鸭山市,苗圃(对照点),,35,35,21,24,18,104,73,99,96,5,6,3,2,0.4,0.4
2022-04-29T19:00:00,2252A,128.5159,47.4311,伊春市,环保局,,27,15,13,6,9,92,84,87,87,12,11,5,6,0.4,0.4
2022-04-29T19:00:00,2253A,128.9102,47.7412,伊春市,电力嘉园,,30,23,21,14,12,95,93,91,91,10,12,6,7,0.5,0.6
2022-04-29T19:00:00,2254A,129.5029,48.471,伊春市,汤旺河国家公园(对照点),,17,5,4,1,3,96,52,94,87,2,3,12,8,0.3,0.2
2022-04-29T19:00:00,2255A,130.2751,46.8028,佳木斯市,佳纺,,23,23,39,14,31,100,44,95,89,44,26,3,3,0.5,0.4
2022-04-29T19:00:00,2256A,130.3995,46.8307,佳木斯市,发电厂,,28,28,33,13,19,104,74,98,95,18,19,9,6,0.3,0.3
2022-04-29T19:00:00,2257A,130.3258,46.7975,佳木斯市,环保局,,20,19,49,14,25,101,59,97,93,36,26,4,4,0.5,0.5
2022-04-29T19:00:00,2258A,130.3648,46.8032,佳木斯市,十一中,,31,31,38,16,23,93,64,87,84,30,31,1,3,0.5,0.5
2022-04-29T19:00:00,2259A,130.3794,46.7588,佳木斯市,四丰(对照点),,22,14,27,11,20,101,68,97,94,22,14,3,3,0.3,0.4
2022-04-29T19:00:00,2262A,131.0518,45.8751,七台河市,新一中(对照点),,26,24,19,11,11,105,83,98,97,11,11,6,6,0.6,0.6
2022-04-29T19:00:00,2263A,127.4833,50.2524,黑河市,交通局,,27,22,19,14,11,110,86,100,100,15,9,4,4,0.5,0.4
2022-04-29T19:00:00,2264A,127.5144,50.2341,黑河市,环保局,,29,23,20,18,14,104,92,97,97,10,7,5,6,0.3,0.3
2022-04-29T19:00:00,2265A,127.5291,50.2472,黑河市,大黑河岛(对照点),,39,39,27,12,9,112,90,102,102,15,7,8,6,0.5,0.4
2022-04-29T19:00:00,2266A,126.9785,46.6365,绥化市,人和东街,细颗粒物(PM2.5),175,180,48,132,32,116,89,109,107,44,17,16,9,0.9,0.5
2022-04-29T19:00:00,2267A,126.964,46.6528,绥化市,党政办公中心,细颗粒物(PM2.5),204,180,45,154,36,124,87,115,114,34,14,16,8,0.8,0.3
2022-04-29T19:00:00,2269A,124.1069,50.4097,大兴安岭地区,科技局,,23,10,17,10,13,96,73,89,82,6,8,2,4,0.4,0.4
2022-04-29T19:00:00,2270A,117.396,32.939,蚌埠市,工人疗养院,细颗粒物(PM2.5),53,50,36,37,28,108,93,102,101,13,7,4,3,0.4,0.3
2022-04-29T19:00:00,2271A,117.3605,32.9427,蚌埠市,百货大楼,细颗粒物(PM2.5),60,67,46,43,25,108,93,104,103,26,14,6,5,0.4,0.5
2022-04-29T19:00:00,2273A,117.4185,32.8911,蚌埠市,蚌埠学院,颗粒物(PM10),52,53,33,31,23,106,94,101,100,21,15,6,6,0.4,0.4
2022-04-29T19:00:00,2274A,117.3533,32.9673,蚌埠市,淮上区政府,颗粒物(PM10),52,53,40,27,22,108,97,104,104,10,9,7,7,0.4,0.4
2022-04-29T19:00:00,2275A,117.3145,32.8977,蚌埠市,高新区,颗粒物(PM10),51,51,35,24,23,114,96,108,108,23,16,8,7,0.4,0.3
2022-04-29T19:00:00,2277A,116.8305,32.7727,淮南市,潘集区政府,,,39,36,35,34,114,,112,112,,7,,5,,0.2
2022-04-29T19:00:00,2278A,117.0067,32.6524,淮南市,师范学院,,38,38,42,25,25,106,99,103,103,18,8,5,5,0.2,0.3
2022-04-29T19:00:00,2279A,116.8569,32.5951,淮南市,谢家集区政府,细颗粒物(PM2.5),54,49,37,38,27,106,100,102,102,13,11,4,5,0.3,0.3
2022-04-29T19:00:00,2280A,116.8281,32.633,淮南市,八公山区政府,颗粒物(PM10),54,57,50,34,25,105,95,102,102,10,6,10,5,0.4,0.3
2022-04-29T19:00:00,2281A,116.6325,32.6201,淮南市,焦岗湖风景区管理处(对照点),,43,43,36,19,24,114,90,111,109,15,10,6,6,0.3,0.3
2022-04-29T19:00:00,2282A,116.8004,33.975,淮北市,监测站,细颗粒物(PM2.5),70,71,61,51,45,100,88,95,95,18,13,6,6,0.8,0.7
2022-04-29T19:00:00,2283A,116.8091,33.9007,淮北市,烈山区政府,细颗粒物(PM2.5),72,84,63,52,47,109,85,100,100,15,12,3,3,0.6,0.6
2022-04-29T19:00:00,2284A,116.7856,33.9477,淮北市,职业技术学院,颗粒物(PM10),62,74,61,38,38,102,94,99,99,13,12,6,6,0.7,0.7
2022-04-29T19:00:00,2285A,117.8177,30.9412,铜陵市,市第四中学,颗粒物(PM10),55,60,29,28,17,111,93,104,104,26,21,10,9,0.4,0.3
2022-04-29T19:00:00,2286A,117.8059,30.9273,铜陵市,市公路局,颗粒物(PM10),61,72,34,35,19,98,78,91,90,27,20,2,2,0.6,0.5
2022-04-29T19:00:00,2287A,117.7807,30.9413,铜陵市,市新民污水厂,颗粒物(PM10),60,70,45,39,28,109,89,100,100,21,14,4,4,0.5,0.3
2022-04-29T19:00:00,2288A,117.7439,30.8792,铜陵市,市第九中学,细颗粒物(PM2.5),57,59,38,40,25,91,82,88,86,17,16,7,8,0.5,0.5
2022-04-29T19:00:00,2289A,117.846,30.9413,铜陵市,车站新区,细颗粒物(PM2.5),58,55,30,41,26,99,83,99,90,21,13,6,6,0.6,0.4
2022-04-29T19:00:00,2290A,117.8483,30.97,铜陵市,市职教基地,,,51,27,38,16,102,,98,95,22,16,,10,0.7,0.5
2022-04-29T19:00:00,2291A,117.0809,30.5177,安庆市,环科院,细颗粒物(PM2.5),65,61,22,47,20,115,92,106,105,16,6,5,5,0.6,0.4
2022-04-29T19:00:00,2292A,117.0331,30.5119,安庆市,马山宾馆,细颗粒物(PM2.5),59,52,21,42,18,113,90,102,102,20,10,5,5,0.7,0.5
2022-04-29T19:00:00,2294A,116.9896,30.6145,安庆市,安庆大学,,31,31,18,20,16,109,97,103,103,7,6,5,5,0.3,0.3
2022-04-29T19:00:00,2295A,118.2903,29.6963,黄山市,延安路89号,,23,17,18,4,8,92,71,85,83,5,4,4,4,0.7,0.7
2022-04-29T19:00:00,2296A,118.327,29.7178,黄山市,黄山东路89号,,22,22,16,10,7,87,66,83,80,7,5,4,4,0.4,0.4
2022-04-29T19:00:00,2297A,118.1371,30.2756,黄山市,黄山区政府5号楼,,23,17,9,12,6,91,73,89,85,5,6,5,5,0.5,0.5
2022-04-29T19:00:00,2298A,118.3093,32.3153,滁州市,老年大学,,38,36,32,26,21,114,102,109,108,15,11,4,4,0.3,0.2
2022-04-29T19:00:00,2299A,118.3244,32.2786,滁州市,人大宾馆,,50,50,35,30,20,113,100,107,107,20,15,5,5,0.4,0.3
2022-04-29T19:00:00,2301A,115.8277,32.8929,阜阳市,市监测站,细颗粒物(PM2.5),63,56,57,45,45,98,87,92,92,18,17,7,7,0.5,0.6
2022-04-29T19:00:00,2303A,115.8554,32.8605,阜阳市,开发区,细颗粒物(PM2.5),68,61,62,49,53,88,78,79,79,20,20,4,4,0.6,0.7
2022-04-29T19:00:00,2307A,116.5079,31.737,六安市,监测大楼,,36,32,26,25,14,111,101,106,106,11,7,5,5,0.2,0.2
2022-04-29T19:00:00,2308A,116.4738,31.7643,六安市,皖西学院,,35,35,24,24,15,113,106,111,111,9,6,6,6,0.1,0.1
2022-04-29T19:00:00,2309A,116.4996,31.7905,六安市,朝阳厂,,43,43,25,23,20,105,94,102,102,14,7,5,5,0.3,0.3
2022-04-29T19:00:00,2310A,116.5567,31.7886,六安市,开发区,,43,43,30,28,21,115,106,111,111,5,4,5,5,0.2,0.2
2022-04-29T19:00:00,2311A,115.8072,33.8399,亳州市,污水处理厂,细颗粒物(PM2.5),55,47,53,39,46,100,97,97,97,13,15,4,4,0.4,0.5
2022-04-29T19:00:00,2312A,115.7789,33.8518,亳州市,三国揽胜宫,细颗粒物(PM2.5),59,50,67,42,47,95,91,93,93,15,19,3,3,0.6,0.7
2022-04-29T19:00:00,2314A,117.47,30.6618,池州市,池州学院,细颗粒物(PM2.5),57,59,32,40,19,95,81,94,88,22,11,8,6,0.6,0.4
2022-04-29T19:00:00,2316A,118.7581,30.9454,宣城市,鳌峰子站,,33,31,18,23,14,97,83,93,91,17,10,4,4,0.3,0.3
2022-04-29T19:00:00,2317A,118.7385,30.9743,宣城市,敬亭山子站,,36,35,19,25,15,102,86,94,94,21,15,4,4,0.4,0.4
2022-04-29T19:00:00,2318A,118.7173,30.9427,宣城市,开发区子站,,35,34,20,24,15,101,90,96,96,14,13,4,6,0.5,0.5
2022-04-29T19:00:00,2319A,119.0141,25.4325,莆田市,荔城区仓后路,,28,18,62,10,29,148,89,108,107,14,19,4,6,0.5,0.6
2022-04-29T19:00:00,2320A,119.0015,25.4553,莆田市,莆田市监测站,,29,22,58,20,38,147,83,108,106,10,14,4,6,0.7,0.8
2022-04-29T19:00:00,2321A,119.1119,25.4561,莆田市,涵江区六中,,30,13,57,7,43,155,94,106,106,10,20,5,8,0.5,0.6
2022-04-29T19:00:00,2322A,119.1013,25.3215,莆田市,秀屿区政府,,43,43,50,5,34,130,103,105,105,10,19,6,10,0.8,0.7
2022-04-29T19:00:00,2323A,118.981,25.4792,莆田市,东圳水库(对照点),,26,12,57,17,36,149,83,108,106,10,13,5,5,0.7,0.8
2022-04-29T19:00:00,2324A,117.6211,26.2625,三明市,三钢,,19,16,31,13,18,54,43,45,42,13,21,5,9,0.8,1.5
2022-04-29T19:00:00,2325A,117.635,26.2714,三明市,三明二中,,15,15,26,7,16,57,44,47,44,9,16,4,3,0.8,0.9
2022-04-29T19:00:00,2326A,117.6028,26.2378,三明市,三元区政府,,,18,29,10,16,55,40,48,44,,16,5,3,0.8,0.8
2022-04-29T19:00:00,2327A,117.7275,26.3108,三明市,洋溪(对照点),,32,32,30,12,16,46,26,41,40,15,10,6,5,1.7,1.2
2022-04-29T19:00:00,2331A,118.0966,26.6761,南平市,茫荡山(对照点),,14,1,10,3,11,69,44,61,55,3,3,4,4,0.6,0.5
2022-04-29T19:00:00,2332A,118.1681,26.6369,南平市,南平市监测站,,17,17,28,10,16,70,48,57,57,9,14,5,5,0.7,0.8
2022-04-29T19:00:00,2333A,118.1825,26.6489,南平市,南平铝业有限公司,,21,21,29,10,15,64,51,56,56,5,12,4,5,0.6,0.7
2022-04-29T19:00:00,2334A,118.1756,26.6272,南平市,南平七中,,20,19,29,14,16,61,49,54,54,7,12,15,4,0.7,0.7
2022-04-29T19:00:00,2335A,117.0189,25.1181,龙岩市,龙岩师专(对照点),,23,23,31,16,21,91,57,75,75,12,11,5,7,0.7,0.5
2022-04-29T19:00:00,2336A,117.0217,25.1033,龙岩市,龙岩市监测站,,30,30,32,14,19,91,60,76,76,14,11,5,5,0.7,0.5
2022-04-29T19:00:00,2337A,117.0258,25.0661,龙岩市,闽西职业技术学院,,35,35,33,17,18,83,61,74,74,11,10,5,6,0.7,0.4
2022-04-29T19:00:00,2338A,117.0196,25.0306,龙岩市,龙岩学院,,38,38,32,18,19,90,69,80,80,12,8,2,4,0.6,0.5
2022-04-29T19:00:00,2339A,119.5001,26.6946,宁德市,金涵水库(对照点),,29,6,36,9,21,92,92,78,78,10,15,6,6,0.5,0.7
2022-04-29T19:00:00,2341A,119.5388,26.6612,宁德市,宁德市监测站,,28,4,41,3,25,88,88,79,79,15,19,7,8,0.6,0.7
2022-04-29T19:00:00,2342A,117.3102,29.3867,景德镇市,王港中学(对照点),,18,18,10,10,9,76,53,71,68,3,3,4,4,0.5,0.5
2022-04-29T19:00:00,2343A,117.2117,29.2933,景德镇市,老干部活动中心,,40,35,26,28,15,71,61,69,68,9,8,3,4,0.5,0.5
2022-04-29T19:00:00,2344A,117.1894,29.2789,景德镇市,兽医站,,20,9,11,14,11,74,62,70,70,15,12,5,5,0.5,0.5
2022-04-29T19:00:00,2345A,117.1547,29.2617,景德镇市,台达陶瓷,,27,27,14,14,9,76,56,72,71,27,11,36,7,0.7,0.6
2022-04-29T19:00:00,2346A,117.2461,29.2956,景德镇市,陶研所,,29,29,26,10,9,78,63,74,73,7,7,4,4,0.5,0.5
2022-04-29T19:00:00,2347A,114.0997,27.5002,萍乡市,武功山(对照点),,17,1,2,9,4,68,53,56,56,10,9,11,11,0.5,0.3
2022-04-29T19:00:00,2348A,113.8385,27.6434,萍乡市,中医院,细颗粒物(PM2.5),59,53,22,42,20,55,39,48,43,30,19,10,8,0.9,0.7
2022-04-29T19:00:00,2349A,113.8493,27.6253,萍乡市,市政府车库,颗粒物(PM10),51,51,14,34,11,55,42,51,51,20,13,6,11,1.0,0.7
2022-04-29T19:00:00,2350A,113.8676,27.6435,萍乡市,市环保局,,,,19,,16,52,,43,43,,13,,6,,0.4
2022-04-29T19:00:00,2351A,113.866,27.6198,萍乡市,安源区政府,,40,39,27,28,12,58,47,49,49,23,17,14,14,0.9,0.6
2022-04-29T19:00:00,2352A,115.0861,27.9317,新余市,北岗(对照点),,25,9,19,3,11,100,80,85,84,13,8,12,7,0.3,0.3
2022-04-29T19:00:00,2353A,114.9886,27.8431,新余市,飞宇,,,21,24,11,9,105,,88,88,13,12,8,8,0.3,0.4
2022-04-29T19:00:00,2354A,114.9231,27.8246,新余市,第二水厂,,30,18,24,10,10,96,96,84,84,11,12,8,6,0.3,0.6
2022-04-29T19:00:00,2355A,114.9308,27.8036,新余市,市气象局,,29,19,20,10,14,91,91,77,77,12,15,8,8,0.4,0.5
2022-04-29T19:00:00,2357A,116.9822,28.1136,鹰潭市,龙虎山(对照点),,30,30,19,12,10,75,55,72,69,2,4,1,2,0.4,0.4
2022-04-29T19:00:00,2358A,117.0564,28.2642,鹰潭市,新监测站,颗粒物(PM10),57,64,36,17,12,79,79,75,75,5,5,1,4,0.4,0.3
2022-04-29T19:00:00,2359A,117.0311,28.2475,鹰潭市,财苑宾馆,,33,33,19,14,7,70,69,66,66,8,7,11,13,0.4,0.5
2022-04-29T19:00:00,2360A,117.0222,28.2264,鹰潭市,体育馆,,35,35,19,19,12,77,73,72,72,7,5,1,3,0.4,0.5
2022-04-29T19:00:00,2361A,117.0017,28.2131,鹰潭市,三川水表,,40,40,22,19,12,74,73,70,70,9,8,5,7,0.6,0.5
2022-04-29T19:00:00,2362A,114.9017,25.9149,赣州市,通天岩(对照点),,30,19,23,11,14,102,93,94,94,8,8,8,7,0.6,0.7
2022-04-29T19:00:00,2363A,114.9367,25.8664,赣州市,地委,,25,25,24,10,14,71,65,66,66,10,11,4,8,0.6,0.6
2022-04-29T19:00:00,2364A,114.9461,25.8481,赣州市,气象台,,25,16,21,8,15,85,80,77,77,11,11,5,8,0.7,0.7
2022-04-29T19:00:00,2365A,114.9322,25.8333,赣州市,市图书馆,,26,19,21,10,15,91,82,84,84,12,16,4,9,0.7,1
2022-04-29T19:00:00,2366A,114.8905,25.8471,赣州市,华坚鞋城,,26,23,18,10,13,85,81,80,80,10,10,3,4,0.8,0.8
2022-04-29T19:00:00,2367A,114.9754,27.0803,吉安市,红声器材厂,,29,25,30,10,14,105,90,90,90,7,9,7,6,0.3,0.5
2022-04-29T19:00:00,2368A,114.9658,27.0999,吉安市,市森林工业局,,28,19,23,10,13,109,87,90,90,8,8,6,4,0.3,0.4
2022-04-29T19:00:00,2369A,114.99,27.1312,吉安市,市环境监测站,,31,23,22,8,6,118,98,101,101,6,6,14,4,0,0.1
2022-04-29T19:00:00,2370A,115.0093,27.0968,吉安市,青原区法院,,,22,24,12,14,112,,87,87,9,9,10,9,0.4,0.4
2022-04-29T19:00:00,2371A,114.3408,27.8064,宜春市,槟榔水业(对照点),,,30,22,19,13,63,,50,50,12,11,7,3,0.6,0.6
2022-04-29T19:00:00,2373A,114.3956,27.7844,宜春市,市石油公司,,,,21,,14,59,49,50,50,16,13,4,6,0.8,0.5
2022-04-29T19:00:00,2374A,114.3703,27.7914,宜春市,市气象局,,26,25,23,18,14,64,56,55,55,16,14,7,7,0.8,0.7
2022-04-29T19:00:00,2375A,114.4013,27.8074,宜春市,市广电局,细颗粒物(PM2.5),69,18,20,50,17,54,47,48,48,22,15,3,4,0.9,0.9
2022-04-29T19:00:00,2376A,116.2127,28.0814,抚州市,桐源党溪(对照点),,35,30,25,16,15,110,110,107,107,4,4,5,6,0.5,0.5
2022-04-29T19:00:00,2377A,116.3544,27.9831,抚州市,市站,,31,30,29,19,16,103,99,99,99,7,6,6,6,0.8,0.7
2022-04-29T19:00:00,2378A,116.3565,27.963,抚州市,血防站,,33,33,26,15,14,106,104,103,103,11,8,4,4,0.5,0.5
2022-04-29T19:00:00,2379A,116.3564,28.0007,抚州市,采茶剧团,,32,28,24,18,14,104,101,100,100,6,7,4,4,0.4,0.4
2022-04-29T19:00:00,2380A,116.385,27.9647,抚州市,医学分院,,34,27,27,16,13,111,108,105,105,3,4,4,5,0.4,0.5
2022-04-29T19:00:00,2381A,118.005,28.4572,上饶市,百草园(对照点),,25,25,37,10,15,57,34,52,39,13,10,16,10,0.9,0.8
2022-04-29T19:00:00,2382A,117.9756,28.4436,上饶市,市监测站,,34,34,31,17,20,67,32,51,42,18,16,25,17,0.5,0.5
2022-04-29T19:00:00,2383A,117.9519,28.4628,上饶市,凤凰光学,,26,25,27,18,16,64,30,46,40,16,12,56,23,0.6,0.5
2022-04-29T19:00:00,2385A,114.17,35.9019,鹤壁市,市监测站,细颗粒物(PM2.5),85,84,80,63,53,122,111,91,91,28,30,6,8,0.8,0.9
2022-04-29T19:00:00,2386A,114.2956,35.7511,鹤壁市,市交警支队,细颗粒物(PM2.5),67,75,69,48,42,118,96,91,91,23,30,8,7,0.8,0.9
2022-04-29T19:00:00,2387A,114.2878,35.7306,鹤壁市,迎宾馆,细颗粒物(PM2.5),63,58,59,45,38,119,100,92,92,21,28,9,6,0.8,0.8
2022-04-29T19:00:00,2389A,113.836,35.311,新乡市,环保西院,细颗粒物(PM2.5),64,64,63,46,45,136,134,117,117,12,18,5,5,0.6,0.6
2022-04-29T19:00:00,2390A,113.884,35.272,新乡市,开发区,细颗粒物(PM2.5),70,70,65,51,48,134,123,118,118,25,22,4,4,1.1,1.2
2022-04-29T19:00:00,2391A,113.883,35.303,新乡市,环保东院,细颗粒物(PM2.5),67,61,57,48,41,137,127,119,119,20,22,3,3,1.1,1.1
2022-04-29T19:00:00,2392A,115.0312,35.7636,濮阳市,环保局,细颗粒物(PM2.5),59,45,42,42,41,105,99,96,96,15,21,6,9,0.5,0.6
2022-04-29T19:00:00,2394A,115.0574,35.7609,濮阳市,油田运输公司,细颗粒物(PM2.5),59,56,57,42,43,116,100,104,104,20,19,6,8,0.6,0.5
2022-04-29T19:00:00,2395A,115.0866,35.7754,濮阳市,油田物探公司,细颗粒物(PM2.5),63,53,48,45,45,114,90,99,99,22,23,7,10,0.4,0.3
2022-04-29T19:00:00,2396A,113.8276,34.0159,许昌市,监测站,颗粒物(PM10),61,72,70,24,40,122,106,105,105,9,16,4,7,0.7,0.7
2022-04-29T19:00:00,2398A,113.7906,33.9953,许昌市,开发区,颗粒物(PM10),52,53,63,24,34,129,101,113,111,15,23,4,7,0.6,0.7
2022-04-29T19:00:00,2399A,114.051,33.5699,漯河市,三五一五工厂,颗粒物(PM10),52,54,54,31,39,116,91,101,101,20,16,8,15,0.6,0.6
2022-04-29T19:00:00,2400A,114.0055,33.5698,漯河市,漯河大学,颗粒物(PM10),51,52,50,18,34,107,92,96,96,7,11,5,13,0.7,0.7
2022-04-29T19:00:00,2401A,114.0138,33.5828,漯河市,市水利局,细颗粒物(PM2.5),59,48,46,42,42,112,96,99,99,11,13,2,8,0.6,0.6
2022-04-29T19:00:00,2402A,114.0261,33.5698,漯河市,市广电局,,,46,49,48,44,110,97,102,101,7,10,3,12,,0.5
2022-04-29T19:00:00,2403A,112.5192,32.9917,南阳市,环保局,颗粒物(PM10),55,59,48,23,22,118,108,108,108,16,11,2,2,0.6,0.5
2022-04-29T19:00:00,2404A,112.5339,33.0086,南阳市,瓦房庄,,,56,45,30,26,108,104,89,89,19,12,1,3,,0.5
2022-04-29T19:00:00,2405A,112.5003,32.9735,南阳市,汉画馆,,46,41,45,32,31,125,114,112,112,16,15,4,4,0.7,0.6
2022-04-29T19:00:00,2406A,112.5779,33.0144,南阳市,气象站,颗粒物(PM10),54,57,41,30,27,121,116,111,111,20,13,6,6,0.7,0.6
2022-04-29T19:00:00,2407A,112.548,32.9692,南阳市,理工学院,,,53,42,35,29,117,,110,110,,13,,9,0.7,0.6
2022-04-29T19:00:00,2408A,115.6702,34.4285,商丘市,环境监测站,细颗粒物(PM2.5),69,73,76,50,58,102,83,92,92,15,19,5,5,0.4,0.5
2022-04-29T19:00:00,2409A,115.6458,34.4045,商丘市,粮食局,细颗粒物(PM2.5),68,76,79,49,55,111,93,98,98,15,20,5,5,0.4,0.6
2022-04-29T19:00:00,2410A,115.6293,34.3948,商丘市,睢阳区环保局,细颗粒物(PM2.5),72,82,77,52,54,107,83,93,93,17,18,4,4,0.4,0.5
2022-04-29T19:00:00,2420A,114.0189,32.9656,驻马店市,市一纸厂,,50,50,58,35,45,106,87,98,98,12,13,9,7,0.5,0.4
2022-04-29T19:00:00,2421A,114.0114,33.015,驻马店市,市彩印厂,颗粒物(PM10),54,58,55,31,36,108,87,98,98,12,12,5,5,0.3,0.4
2022-04-29T19:00:00,2422A,113.9976,32.9771,驻马店市,天方二分厂,细颗粒物(PM2.5),52,45,50,36,47,112,93,104,104,10,10,4,3,0.5,0.4
