timepoint,stationcode,longitude,latitude,area,positionname,primarypollutant,aqi,pm10,pm10_24h,pm2_5,pm2_5_24h,o3,o3_24h,o3_8h,o3_8h_24h,no2,no2_24h,so2,so2_24h,co,co_24h
2025-12-20T0500,2566A,102.1879,31.914,阿坝藏族羌族自治州,州农科所,,,,,,,,,,,,,,,,
2025-12-20T0500,2568A,102.2502,31.8896,阿坝藏族羌族自治州,马师校,,12,,19,8,16,27,27,,,8,17,4,5,0.4,0.6
2025-12-20T0500,3994A,102.2165,31.9024,阿坝藏族羌族自治州,马尔康中学西区,,18,18,15,7,10,27,27,,,10,15,5,5,0.5,0.6
2025-12-20T0500,2695A,80.292,41.1694,阿克苏地区,电视台,颗粒物(PM10),111,171,215,59,76,13,13,,,62,48,5,8,1.3,0.9
2025-12-20T0500,2696A,80.2613,41.1551,阿克苏地区,艺术中心,"颗粒物(PM10),细颗粒物(PM2.5)",112,173,193,84,82,15,15,,,46,47,4,4,1.2,1.2
2025-12-20T0500,2204A,105.6467,38.8363,阿拉善盟,西城区西花园,,,,,,,,,,,,,,,,
2025-12-20T0500,2205A,105.6985,38.8411,阿拉善盟,蒙二幼,颗粒物(PM10),70,89,48,17,10,78,78,,,3,5,9,9,0.6,0.6
2025-12-20T0500,2206A,105.724,38.8516,阿拉善盟,环保局新楼,颗粒物(PM10),59,67,37,18,12,71,71,,,3,4,9,9,0.6,0.6
2025-12-20T0500,2708A,88.1264,47.8517,阿勒泰地区,市站,,18,6,16,3,11,57,57,,,7,38,3,7,0.3,0.4
2025-12-20T0500,2630A,80.1161,32.5,阿里地区,阿里监测站,,20,6,3,3,3,61,61,,,2,9,7,10,0.2,0.3
2025-12-20T0500,3192A,80.0903,32.5028,阿里地区,阿里藏医院,,22,22,18,15,11,46,46,,,16,13,10,12,0.4,0.5
2025-12-20T0500,2642A,109.0318,32.6537,安康市,香溪洞,,,,,,,,,,,,,,,,
2025-12-20T0500,2644A,109.0072,32.6975,安康市,汉滨区检察院,细颗粒物(PM2.5),82,97,100,60,65,2,2,,,23,31,5,6,1.0,1.1
2025-12-20T0500,4054A,109.0325,32.6913,安康市,市邮政管理局,细颗粒物(PM2.5),93,94,109,69,74,0,0,,,25,34,9,7,1.0,1.4
2025-12-20T0500,2291A,117.0809,30.5177,安庆市,环科院,细颗粒物(PM2.5),142,128,126,108,99,3,3,,,71,61,6,8,1.1,1
2025-12-20T0500,2292A,117.0331,30.5119,安庆市,马山宾馆,细颗粒物(PM2.5),139,129,128,106,101,3,3,,,81,68,6,8,1.1,1
2025-12-20T0500,2294A,116.9896,30.6145,安庆市,安庆大学,细颗粒物(PM2.5),93,99,123,69,86,40,40,,,33,45,4,7,0.7,0.8
2025-12-20T0500,3173A,117.0598,30.5351,安庆市,市人大,细颗粒物(PM2.5),145,125,138,111,104,1,1,,,72,67,6,10,0.9,1
2025-12-20T0500,3122A,105.9606,26.2611,安顺市,伍家关,,36,32,30,25,32,50,50,,,5,7,10,11,0.7,0.6
2025-12-20T0500,3123A,105.9408,26.2431,安顺市,凤凰山,,46,38,32,32,27,59,59,,,8,12,10,12,0.4,0.4
2025-12-20T0500,3124A,105.9439,26.2564,安顺市,金钟山,,40,32,32,28,25,61,61,,,6,10,9,14,0.6,0.6
2025-12-20T0500,3125A,105.8983,26.2481,安顺市,娄家坡,,43,34,30,30,25,53,53,,,8,10,15,14,0.6,0.6
2025-12-20T0500,1818A,114.4839,36.0621,安阳市,棉研所,,,,,,,,,,,,,,,,
2025-12-20T0500,1819A,114.3551,36.1017,安阳市,红庙街,细颗粒物(PM2.5),179,144,198,135,163,10,10,,,52,52,5,4,2.3,2.1
2025-12-20T0500,1820A,114.361,36.0681,安阳市,银杏小区,细颗粒物(PM2.5),212,165,216,162,169,4,4,,,44,51,5,3,2.9,2.1
2025-12-20T0500,3141A,114.3922,36.0878,安阳市,信访局,细颗粒物(PM2.5),180,142,200,136,150,22,22,,,44,47,5,3,1.6,1.6
2025-12-20T0500,3669A,114.4705,36.0637,安阳市,左辅环卫站,细颗粒物(PM2.5),185,155,202,139,141,30,30,,,36,42,2,3,1.1,1.5
2025-12-20T0500,3703A,114.2917,36.0949,安阳市,安钢职工学校,细颗粒物(PM2.5),226,188,230,176,182,4,4,,,49,59,6,4,3.2,2.8
2025-12-20T0500,1748A,123.044,41.1196,鞍山市,深沟寺,,20,20,76,3,56,56,56,,,10,25,9,11,0.5,0.9
2025-12-20T0500,1749A,123.011,41.0931,鞍山市,太阳城,,24,24,75,8,53,55,55,,,15,29,19,14,0.7,1
2025-12-20T0500,1750A,123.0485,41.1442,鞍山市,太平,,,14,90,3,57,54,54,,,,32,11,13,0.4,1.1
2025-12-20T0500,1751A,122.9642,41.0971,鞍山市,铁西三道街,,27,16,97,3,63,36,36,,,33,41,28,19,2.7,1.4
2025-12-20T0500,1753A,123.022,41.0821,鞍山市,明达新区,,20,15,79,3,56,62,62,,,10,23,10,13,0.1,0.5
2025-12-20T0500,1754A,123.1289,41.0228,鞍山市,千山,,,,50,,48,,,62,,,23,,4,,0.7
2025-12-20T0500,4201A,122.9446,41.0826,鞍山市,兴盛南路290号,,28,28,96,8,64,49,49,,,26,41,32,19,1.2,1.1
2025-12-20T0500,2195A,107.4212,40.761,巴彦淖尔市,附二中,颗粒物(PM10),91,132,131,37,36,59,59,,,5,11,4,5,0.3,0.4
2025-12-20T0500,2196A,107.37,40.7372,巴彦淖尔市,市环保大楼,颗粒物(PM10),94,137,132,38,28,64,64,,,6,11,3,4,0.4,0.4
2025-12-20T0500,1956A,86.1472,41.7538,巴音郭楞蒙古自治州,孔雀公园,颗粒物(PM10),68,86,143,34,41,26,26,,,42,62,8,10,0.8,1
2025-12-20T0500,1957A,86.1972,41.7166,巴音郭楞蒙古自治州,棉纺厂,颗粒物(PM10),80,110,143,14,26,5,5,,,52,47,4,7,0.6,0.8
2025-12-20T0500,1958A,86.2357,41.7173,巴音郭楞蒙古自治州,经济开发区,颗粒物(PM10),58,65,99,6,20,25,25,,,24,26,4,6,0.6,0.5
2025-12-20T0500,2914A,106.7677,31.8794,巴中市,苏山坪,,,,,,,,,,,,,,,,
2025-12-20T0500,3181A,106.7768,31.8526,巴中市,市五中,,,45,110,39,82,44,44,,,,34,5,6,0.9,1.5
2025-12-20T0500,3183A,106.7418,31.8654,巴中市,圣泉水务公司,,,37,77,27,63,63,63,,,,26,5,5,0.5,0.8
2025-12-20T0500,3616A,106.7616,31.8344,巴中市,市中心医院,,,41,109,33,94,46,46,,,,31,6,6,1.0,1.5
2025-12-20T0500,2235A,122.7911,45.6077,白城市,洮北区环保局,,25,25,102,3,43,45,45,,,10,15,8,7,0.1,0.3
2025-12-20T0500,2236A,122.8738,45.5725,白城市,市环保局,,19,19,102,12,40,42,42,,,5,12,5,6,0.2,0.4
2025-12-20T0500,2231A,126.4219,41.9171,白山市,喜丰,颗粒物(PM10),71,92,36,27,14,49,49,,,8,12,7,8,0.8,0.9
2025-12-20T0500,2232A,126.4077,41.9419,白山市,环保局,,,68,24,25,18,52,52,,,,14,8,10,0.8,1
2025-12-20T0500,2647A,104.1724,36.5446,白银市,第三小学,,48,48,50,6,13,79,79,,,6,18,7,21,0.6,0.7
2025-12-20T0500,2648A,104.1465,36.5482,白银市,动力公司,,23,16,41,8,13,72,72,,,6,13,2,9,0.5,0.5
2025-12-20T0500,2512A,106.6103,23.9011,百色市,市监测站,细颗粒物(PM2.5),70,73,74,51,51,5,5,,,22,24,7,13,1.0,1.1
2025-12-20T0500,2513A,106.6538,23.8859,百色市,市中心血站,细颗粒物(PM2.5),68,67,95,49,66,18,18,,,23,47,6,14,0.9,1.1
2025-12-20T0500,3406A,106.6085,23.8798,百色市,祈福高中,细颗粒物(PM2.5),62,62,81,44,52,3,3,,,28,32,6,11,0.9,1
2025-12-20T0500,2270A,117.396,32.939,蚌埠市,工人疗养院,细颗粒物(PM2.5),243,243,152,193,108,14,14,,,43,34,4,7,1.1,0.9
2025-12-20T0500,2271A,117.3605,32.9427,蚌埠市,百货大楼,细颗粒物(PM2.5),241,228,139,191,106,8,8,,,46,44,5,8,1.2,1
2025-12-20T0500,2273A,117.4185,32.8911,蚌埠市,蚌埠学院,细颗粒物(PM2.5),238,224,138,188,107,24,24,,,39,33,4,7,1.0,0.9
2025-12-20T0500,2274A,117.3533,32.9673,蚌埠市,淮上区政府,细颗粒物(PM2.5),243,224,145,193,109,6,6,,,45,38,1,5,1.1,0.8
2025-12-20T0500,2275A,117.3145,32.8977,蚌埠市,高新区,细颗粒物(PM2.5),250,229,152,200,120,9,9,,,,43,7,10,1.1,0.9
2025-12-20T0500,3715A,117.3092,32.9314,蚌埠市,蚌埠田家炳中学,细颗粒物(PM2.5),241,236,159,191,123,4,4,,,47,45,4,8,1.1,0.9
2025-12-20T0500,1585A,109.8756,40.6532,包头市,市环境监测站,,24,24,52,3,15,62,62,,,11,21,8,12,0.6,0.8
2025-12-20T0500,1587A,109.9991,40.5842,包头市,包头八中,,36,36,60,16,18,56,56,,,7,19,8,9,0.5,0.6
2025-12-20T0500,1588A,109.8538,40.6821,包头市,青山宾馆,,,23,42,13,16,56,56,,,,22,6,8,0.5,0.6
2025-12-20T0500,1589A,109.8642,40.6288,包头市,惠龙物流,,,32,48,7,15,62,62,,,,19,6,10,0.5,0.6
2025-12-20T0500,1590A,110.0377,40.5546,包头市,东河鸿龙湾,,18,14,46,3,12,55,55,,,6,15,7,9,0.7,0.6
2025-12-20T0500,3283A,109.9154,40.5685,包头市,滨河大厦,,28,28,47,15,15,49,49,,,16,17,6,10,0.5,0.6
2025-12-20T0500,3419A,109.9447,40.6261,包头市,包头市委党校,,33,33,54,18,14,49,49,,,16,18,8,10,0.5,0.6
2025-12-20T0500,3683A,109.8331,40.6576,包头市,昆区政府,,26,26,51,13,16,56,56,,,16,22,5,9,0.6,0.7
2025-12-20T0500,1930A,107.185,34.3063,宝鸡市,庙沟村,,,,,,,,,,,,,,,,
2025-12-20T0500,1931A,107.0708,34.3017,宝鸡市,竹园沟,,26,26,49,13,30,53,53,,,8,17,6,7,0.2,0.3
2025-12-20T0500,1932A,107.1906,34.3672,宝鸡市,三陆医院,,36,36,79,8,41,44,44,,,29,45,5,6,0.3,0.6
2025-12-20T0500,1933A,107.1431,34.3547,宝鸡市,监测站,,32,32,68,9,36,54,54,,,13,30,5,5,0.3,0.6
2025-12-20T0500,1934A,107.1186,34.3739,宝鸡市,技工学校,,36,36,80,14,43,59,59,,,12,30,4,7,0.3,0.6
2025-12-20T0500,1936A,107.2058,34.3497,宝鸡市,文理学院,,32,32,63,8,33,61,61,,,13,32,4,5,0.2,0.6
2025-12-20T0500,1937A,107.2386,34.3622,宝鸡市,三迪小学,,29,29,78,8,41,67,67,,,10,43,4,5,0.2,0.6
2025-12-20T0500,4308A,107.3898,34.3601,宝鸡市,陈仓区北开路21号,,33,33,95,12,50,45,45,,,22,38,6,43,0.3,0.5
2025-12-20T0500,1051A,115.493,38.8632,保定市,游泳馆,细颗粒物(PM2.5),253,,223,203,211,5,5,,,54,50,5,5,0.9,0.8
2025-12-20T0500,1052A,115.5213,38.8959,保定市,华电二区,细颗粒物(PM2.5),258,,205,208,210,0,0,,,48,39,2,2,1.3,1.2
2025-12-20T0500,1053A,115.4713,38.9108,保定市,接待中心,细颗粒物(PM2.5),258,223,227,208,204,1,1,,,58,46,3,3,1.5,1.3
2025-12-20T0500,1054A,115.4612,38.8416,保定市,地表水厂,细颗粒物(PM2.5),282,267,250,232,209,4,4,,,53,54,3,2,1.3,1.1
2025-12-20T0500,3581A,115.31981,38.95208,保定市,满城区生态环境分局,细颗粒物(PM2.5),243,222,236,193,191,2,2,,,59,61,6,5,1.4,1.2
2025-12-20T0500,3582A,115.47694,38.76408,保定市,清苑区第二中学,细颗粒物(PM2.5),251,263,255,201,190,2,2,,,49,45,3,4,1.5,1.3
2025-12-20T0500,3583A,115.62909,39.02311,保定市,徐水物探局,细颗粒物(PM2.5),254,263,265,204,196,0,0,,,62,52,7,8,1.5,1.3
2025-12-20T0500,4004A,115.4202,38.8656,保定市,双鹰农机,细颗粒物(PM2.5),300,301,276,250,206,10,10,,,54,49,4,3,1.4,1.1
2025-12-20T0500,4034A,115.5150,38.8590,保定市,植保所站,细颗粒物(PM2.5),215,,233,165,214,6,6,,,57,53,2,2,1.2,1.4
2025-12-20T0500,2594A,99.1678,25.1081,保山市,市环境监测站,,15,14,23,10,15,42,42,,,5,10,6,7,0.3,0.4
2025-12-20T0500,2595A,99.1711,25.1328,保山市,市环保局,,30,,27,21,19,55,55,,,3,7,4,4,0.4,0.4
2025-12-20T0500,1866A,109.2262,21.588,北海市,牛尾岭水库,,36,30,32,25,28,49,49,,,10,12,9,7,0.5,0.5
2025-12-20T0500,1867A,109.1436,21.4086,北海市,海滩公园,,43,43,50,29,28,61,61,,,16,13,18,12,0.8,0.8
2025-12-20T0500,1868A,109.0981,21.4661,北海市,新市环保局,细颗粒物(PM2.5),52,39,42,36,27,63,63,,,18,15,17,13,0.5,0.6
2025-12-20T0500,1869A,109.1778,21.5233,北海市,北海工业园,"颗粒物(PM10),细颗粒物(PM2.5)",68,85,52,49,30,51,51,,,24,14,41,14,0.7,0.6
2025-12-20T0500,3400A,109.1911,21.4415,北海市,龙潭自来水厂,,46,40,45,32,32,36,36,,,17,11,15,9,0.9,0.8
2025-12-20T0500,1001A,116.3621,39.8784,北京市,万寿西宫,,20,8,84,3,63,61,61,,,8,21,2,2,0.3,0.7
2025-12-20T0500,1002A,116.2202,40.2915,北京市,定陵,,,,,,,,,,,,,,,,
2025-12-20T0500,1003A,116.4174,39.9289,北京市,东四,,19,7,83,3,63,59,59,,,10,29,3,4,0.3,0.7
2025-12-20T0500,1004A,116.4072,39.8863,北京市,天坛,,20,8,83,3,62,63,63,,,7,22,1,1,0.2,0.6
2025-12-20T0500,1005A,116.462,39.9365,北京市,农展馆,,17,6,82,3,61,54,54,,,13,19,3,4,0.3,0.7
2025-12-20T0500,1006A,116.3392,39.9295,北京市,官园,,19,8,73,3,58,59,59,,,7,23,2,2,0.4,0.7
2025-12-20T0500,1007A,116.2878,39.9611,北京市,海淀万柳,,18,7,63,3,54,55,55,,,8,25,2,2,0.1,0.5
2025-12-20T0500,1008A,116.6636,40.135,北京市,顺义新城,,19,6,95,3,73,59,59,,,5,18,2,3,0.3,0.7
2025-12-20T0500,1009A,116.6275,40.3275,北京市,怀柔镇,,20,6,93,3,77,63,63,,,10,22,5,5,0.4,0.8
2025-12-20T0500,1010A,116.2296,40.217,北京市,昌平镇,,16,8,63,3,49,51,51,,,18,25,3,4,0.2,0.5
2025-12-20T0500,1011A,116.3966,39.9821,北京市,奥体中心,,15,7,73,3,59,47,47,,,27,32,3,3,0.5,0.9
2025-12-20T0500,3281A,115.9718,40.4529,北京市,延庆夏都,,18,7,71,3,54,55,55,,,11,23,1,2,0.4,0.8
2025-12-20T0500,3418A,116.8336,40.4095,北京市,密云新城,,20,6,107,3,79,63,63,,,6,21,2,2,0.3,0.7
2025-12-20T0500,3671A,116.088,39.9726,北京市,门头沟三家店,,18,9,57,3,44,55,55,,,9,15,4,4,0.3,0.5
2025-12-20T0500,3672A,116.1541,39.8204,北京市,丰台云岗,,20,7,61,3,47,61,61,,,2,14,2,4,0.2,0.5
2025-12-20T0500,3673A,116.6804,39.9081,北京市,通州东关,,18,6,92,3,70,56,56,,,8,25,3,4,0.3,0.7
2025-12-20T0500,3674A,115.9577,39.7603,北京市,房山燕山,,19,7,134,3,112,60,60,,,7,24,3,3,0.2,0.8
2025-12-20T0500,3675A,116.4672,39.7733,北京市,大兴旧宫,,20,8,87,3,63,64,64,,,9,22,4,4,0.3,0.7
2025-12-20T0500,3694A,115.986,40.4563,北京市,延庆石河营,,18,6,66,3,52,55,55,,,8,19,3,3,0.4,0.7
2025-12-20T0500,3695A,116.6151,40.3053,北京市,怀柔新城,,20,6,96,3,81,64,64,,,6,14,3,3,0.2,0.7
2025-12-20T0500,3696A,116.2545,39.8768,北京市,丰台小屯,,17,9,67,3,51,52,52,,,10,22,3,3,0.3,0.6
2025-12-20T0500,3697A,116.84,40.3844,北京市,密云镇,,20,9,102,3,85,63,63,,,7,29,2,3,0.2,0.7
2025-12-20T0500,4182A,116.1942,39.9158,北京市,八角北路9号,,16,9,62,3,46,51,51,,,8,19,1,2,0,0.4
2025-12-20T0500,4194A,117.0790,40.1518,北京市,洳河巡河路,,19,6,117,3,95,58,58,,,1,19,3,2,0.2,0.7
2025-12-20T0500,1761A,123.8275,41.3064,本溪市,大峪,,16,14,41,6,30,49,49,,,14,26,11,10,0.6,0.8
2025-12-20T0500,1762A,123.7567,41.3325,本溪市,溪湖,,33,33,45,7,29,54,54,,,13,28,9,13,0.6,1.5
2025-12-20T0500,1763A,123.7169,41.3094,本溪市,彩屯,,26,26,58,3,39,54,54,,,13,34,9,15,0.7,2.1
2025-12-20T0500,1764A,123.7669,41.2864,本溪市,东明,,19,19,40,6,30,53,53,,,14,25,10,8,0.4,0.6
2025-12-20T0500,1765A,123.7992,41.2664,本溪市,新立屯,,14,12,38,6,28,44,44,,,12,25,8,7,0.4,0.5
2025-12-20T0500,1766A,123.8142,41.3472,本溪市,威宁,,18,18,42,6,26,47,47,,,10,22,7,8,0.7,0.9
2025-12-20T0500,2587A,105.2864,27.3125,毕节市,八中,,15,15,74,3,55,44,44,,,7,12,8,12,0.8,0.9
2025-12-20T0500,2588A,105.31,27.2944,毕节市,师专,,14,6,77,3,61,44,44,,,8,16,8,13,0.9,1
2025-12-20T0500,4263A,105.3688,27.3598,毕节市,工业大道,,15,6,71,3,57,45,45,,,6,13,9,10,1.0,1
2025-12-20T0500,1629A,118.0018,37.3617,滨州市,第二水厂,,41,41,171,19,125,34,34,,,28,49,8,10,0.4,0.9
2025-12-20T0500,1630A,117.9776,37.393,滨州市,北中新校,颗粒物(PM10),54,58,173,31,131,22,22,,,36,52,4,7,0.4,0.9
2025-12-20T0500,3514A,117.9378,37.3956,滨州市,中海酒店,,39,36,173,27,143,29,29,,,36,52,6,10,0.4,1.2
2025-12-20T0500,3515A,117.9378,37.3553,滨州市,开发区一中,,,46,178,17,143,31,31,,,,48,8,13,0.5,1.2
2025-12-20T0500,3516A,118.0917,37.694,滨州市,金海六路,,,32,163,3,113,55,55,,,,50,6,13,0.2,1
2025-12-20T0500,4028A,117.9956,37.3753,滨州市,滨州市西街道办事处,,44,44,171,24,137,33,33,,,30,47,7,9,0.5,1
2025-12-20T0500,2311A,115.8072,33.8399,亳州市,污水处理厂,细颗粒物(PM2.5),238,217,173,188,143,24,24,,,35,38,2,4,1.1,0.9
2025-12-20T0500,2312A,115.7789,33.8518,亳州市,三国揽胜宫,细颗粒物(PM2.5),247,264,208,197,144,24,24,,,32,36,3,5,1.1,0.9
2025-12-20T0500,3332A,115.7633,33.8034,亳州市,亳州学院,细颗粒物(PM2.5),237,237,182,187,142,28,28,,,27,34,1,3,1.1,0.8
2025-12-20T0500,2693A,82.0485,44.8556,博尔塔拉蒙古自治州,市党校,,37,37,42,9,14,61,61,,,4,10,2,4,0.1,0.2
2025-12-20T0500,2694A,82.0806,44.8969,博尔塔拉蒙古自治州,市环保局,,37,37,53,19,22,58,58,,,5,15,5,9,0.4,0.4
2025-12-20T0500,1071A,116.8842,38.2991,沧州市,沧县城建局,细颗粒物(PM2.5),59,55,207,42,188,37,37,,,36,59,3,6,0.8,1.6
2025-12-20T0500,1072A,116.8584,38.3254,沧州市,电视转播站,细颗粒物(PM2.5),67,62,215,48,184,27,27,,,33,60,3,3,0.8,1.4
2025-12-20T0500,1073A,116.8709,38.3228,沧州市,市环保局,细颗粒物(PM2.5),85,78,216,63,189,19,19,,,31,52,3,3,0.7,1.4
2025-12-20T0500,3324A,116.8136,38.3004,沧州市,河北水利电力学院,颗粒物(PM10),52,53,235,32,178,41,41,,,25,62,7,10,0.3,1.3
2025-12-20T0500,2622A,97.1806,31.1273,昌都市,昌都监测站,,18,18,53,3,24,24,24,,,5,31,3,6,0.4,1.4
2025-12-20T0500,3719A,97.1714,31.1406,昌都市,昌都会议中心,,12,12,24,7,13,36,36,,,1,14,2,2,0.3,0.5
2025-12-20T0500,2690A,88.1236,43.8886,昌吉回族自治州,天山天池,,,,,,,,,,,,,,,,
2025-12-20T0500,2692A,87.2717,44.0297,昌吉回族自治州,新区政务中心,细颗粒物(PM2.5),89,66,58,66,46,46,46,,,18,30,5,6,0.8,0.7
2025-12-20T0500,3613A,87.3095,44.0142,昌吉回族自治州,亚心广场,细颗粒物(PM2.5),98,95,62,73,49,42,42,,,12,22,6,6,0.7,0.6
2025-12-20T0500,1120A,125.2863,43.9027,长春市,客车厂,,27,27,74,17,37,30,30,,,26,21,18,11,0.2,0.4
2025-12-20T0500,1121A,125.2841,43.8463,长春市,邮电学院,,31,31,77,14,35,40,40,,,8,17,11,11,0.3,0.5
2025-12-20T0500,1122A,125.3716,43.8772,长春市,劳动公园,,23,23,74,6,30,42,42,,,11,17,9,9,0.1,0.1
2025-12-20T0500,1123A,125.3297,43.8805,长春市,园林处,,23,23,66,12,34,37,37,,,13,17,8,8,0.0,0.2
2025-12-20T0500,1124A,125.4605,43.79,长春市,净月潭,,29,29,63,14,31,33,33,,,14,14,7,7,0.3,0.4
2025-12-20T0500,1125A,125.7194,43.515,长春市,甩湾子,,32,32,52,13,27,29,29,,,9,9,4,5,0.7,0.7
2025-12-20T0500,1126A,125.3863,43.8447,长春市,经开区环卫处,,20,20,64,8,28,41,41,,,13,20,7,8,0.3,0.5
2025-12-20T0500,1127A,125.245,43.7783,长春市,高新区管委会,,23,23,68,10,35,41,41,,,11,19,6,6,0.1,0.2
2025-12-20T0500,1128A,125.1761,43.8325,长春市,岱山公园,,18,18,73,10,36,38,38,,,9,18,7,7,0.2,0.3
2025-12-20T0500,4281A,125.3346,43.9164,长春市,北亚泰大街1068号,,23,23,71,13,36,38,38,,,13,22,8,9,0.2,0.4
2025-12-20T0500,1335A,113.0833,28.2325,长沙市,经开区环保局,,,94,80,75,59,10,10,,,,38,7,9,1.0,1
2025-12-20T0500,1336A,112.8872,28.2189,长沙市,高开区环保局,细颗粒物(PM2.5),105,95,88,79,65,0,0,,,,34,8,10,0.9,1
2025-12-20T0500,1337A,113.0792,28.2053,长沙市,马坡岭,细颗粒物(PM2.5),107,105,95,80,63,2,2,,,,40,8,10,1.2,0.9
2025-12-20T0500,1338A,112.9394,28.19,长沙市,湖南师范大学,细颗粒物(PM2.5),80,81,90,59,54,7,7,,,71,40,4,8,1.0,0.9
2025-12-20T0500,1339A,113.0178,28.1322,长沙市,雨花区环保局,,,67,77,55,56,46,46,,,,24,9,11,0.8,0.9
2025-12-20T0500,1340A,112.9792,28.2597,长沙市,伍家岭,细颗粒物(PM2.5),102,102,106,76,71,0,0,,,,51,6,9,1.1,1.2
2025-12-20T0500,1341A,113.0014,28.1944,长沙市,火车新站,细颗粒物(PM2.5),98,121,116,73,77,3,3,,,83,64,9,11,1.4,1.4
2025-12-20T0500,1342A,112.9844,28.1178,长沙市,天心区环保局,细颗粒物(PM2.5),85,70,77,63,56,42,42,,,44,34,8,10,0.6,0.8
2025-12-20T0500,1343A,112.8908,28.1308,长沙市,湖南中医药大学,细颗粒物(PM2.5),77,79,99,56,65,6,6,,,50,46,6,9,1.0,1.2
2025-12-20T0500,1344A,112.9581,28.3611,长沙市,沙坪,,,,,,,,,,,,,,,,
2025-12-20T0500,1727A,113.1147,36.1547,长治市,清华站,,,28,77,9,62,59,59,,,,47,17,17,0.7,1.1
2025-12-20T0500,1730A,113.0886,36.2125,长治市,审计局,,24,24,68,12,57,49,49,,,24,44,16,18,0.6,1
2025-12-20T0500,1731A,113.0844,36.1856,长治市,长治八中,,34,34,81,19,69,52,52,,,16,35,15,17,0.6,1.1
2025-12-20T0500,2845A,113.1569,36.1911,长治市,德盛苑,颗粒物(PM10),53,56,67,19,61,45,45,,,20,28,23,20,1.1,1.1
2025-12-20T0500,3568A,113.06,36.0464,长治市,向阳小学,颗粒物(PM10),53,55,99,22,65,41,41,,,38,44,15,18,0.6,1.2
2025-12-20T0500,3569A,112.8792,36.3144,长治市,屯留一中,,31,31,69,16,56,57,57,,,18,38,28,27,0.4,1
2025-12-20T0500,4189A,113.1131,36.19948,长治市,英华南巷50号,,25,25,77,14,69,54,54,,,6,31,13,16,1.0,1.2
2025-12-20T0500,4190A,113.2367,36.3344,长治市,学府街1号,,,22,75,7,61,66,66,,,,35,23,25,0.5,1.6
2025-12-20T0500,1854A,111.6975,28.9703,常德市,市二中,细颗粒物(PM2.5),118,122,84,89,58,70,70,,,,20,10,8,0.9,0.8
2025-12-20T0500,1857A,111.7158,29.1456,常德市,白鹤山,,,,,,,,,,,,,,,,
2025-12-20T0500,3138A,111.7153,29.0289,常德市,武陵区永安,细颗粒物(PM2.5),104,116,83,78,55,80,80,,,14,17,7,6,0.8,0.8
2025-12-20T0500,3139A,111.6892,28.9881,常德市,鼎城区玉霞,细颗粒物(PM2.5),132,121,87,100,62,60,60,,,,25,11,10,0.8,0.7
2025-12-20T0500,3140A,111.6625,29.0531,常德市,武陵区长庚,细颗粒物(PM2.5),109,126,86,82,60,73,73,,,13,22,8,6,0.8,0.8
2025-12-20T0500,1196A,119.9633,31.762,常州市,市监测站,细颗粒物(PM2.5),115,130,138,87,87,0,0,,,86,75,7,7,1.4,1.3
2025-12-20T0500,1200A,119.9468,31.7069,常州市,武进监测站,细颗粒物(PM2.5),90,120,125,67,74,6,6,,,70,55,11,10,0.7,0.7
2025-12-20T0500,1201A,119.9255,31.9087,常州市,安家,细颗粒物(PM2.5),168,204,151,127,96,1,1,,,118,88,16,13,1.1,1
2025-12-20T0500,3002A,119.9805,31.8174,常州市,行政中心,细颗粒物(PM2.5),122,130,122,92,79,1,1,,,97,67,8,8,1.1,1
2025-12-20T0500,3003A,120.0522,31.7748,常州市,经开区,细颗粒物(PM2.5),105,150,164,79,93,0,0,,,100,99,6,15,1.1,1.5
2025-12-20T0500,3010A,119.9025,31.7964,常州市,钟楼,细颗粒物(PM2.5),140,155,136,107,90,2,2,,,95,67,9,8,1.2,1
2025-12-20T0500,3429A,119.8598,31.7066,常州市,武进经发区,细颗粒物(PM2.5),107,118,115,80,84,0,0,,,84,69,9,10,0.9,0.8
2025-12-20T0500,3430A,119.5826,31.7245,常州市,金坛城区,细颗粒物(PM2.5),205,194,153,155,119,1,1,,,88,64,10,10,,1.4
2025-12-20T0500,2220A,120.4318,41.5881,朝阳市,西梁,,20,20,78,3,52,48,48,,,15,24,11,11,0.7,0.9
2025-12-20T0500,2221A,120.4521,41.5646,朝阳市,河畔小区,,19,19,59,3,54,52,52,,,13,21,7,8,0.3,0.7
2025-12-20T0500,2222A,120.4176,41.5648,朝阳市,八里堡,,19,19,65,3,52,54,54,,,11,26,7,9,0.2,0.7
2025-12-20T0500,2223A,120.3806,41.5969,朝阳市,农业园区,,27,27,55,6,58,55,55,,,11,22,8,10,0.5,0.8
2025-12-20T0500,1705A,116.6367,23.6719,潮州市,西园路,,,,,,,,,,,,,,,,
2025-12-20T0500,3026A,116.6183,23.6608,潮州市,市政府,,15,14,31,10,21,29,29,,,2,10,4,5,0.6,0.8
2025-12-20T0500,4036A,116.6461,23.6761,潮州市,金山,,20,16,30,14,25,14,14,,,8,10,2,2,0.6,0.8
2025-12-20T0500,2472A,113.0073,25.9061,郴州市,马头岭,,,,,,,,,,,,,,,,
2025-12-20T0500,2473A,113.0116,25.8226,郴州市,市职中,细颗粒物(PM2.5),52,48,47,36,35,3,3,,,29,20,3,5,0.8,0.8
2025-12-20T0500,2475A,113.0383,25.8071,郴州市,市审计局,细颗粒物(PM2.5),57,58,59,40,33,12,12,,,29,23,1,3,0.8,0.7
2025-12-20T0500,2476A,113.0348,25.7759,郴州市,市环保局,,50,44,50,35,29,43,43,,,22,25,2,4,0.6,0.6
2025-12-20T0500,4252A,113.0138,25.8011,郴州市,好美居路49号,细颗粒物(PM2.5),52,48,45,36,35,26,26,,,31,25,1,2,0.4,0.4
2025-12-20T0500,1431A,103.9728,30.7236,成都市,金泉两河,细颗粒物(PM2.5),144,132,161,110,131,4,4,,,38,48,2,4,1.0,1.1
2025-12-20T0500,1432A,104.176,30.6872,成都市,十里店,细颗粒物(PM2.5),133,140,172,101,127,8,8,,,50,59,4,4,1.0,1.1
2025-12-20T0500,1433A,104.079,30.5706,成都市,三瓦窑,细颗粒物(PM2.5),148,153,157,113,110,9,9,,,44,53,4,4,1.0,1.1
2025-12-20T0500,1434A,104.1114,30.63,成都市,沙河铺,细颗粒物(PM2.5),195,160,167,146,144,1,1,,,57,65,4,4,1.0,1
2025-12-20T0500,1437A,104.0786,30.6531,成都市,君平街,细颗粒物(PM2.5),166,162,180,126,138,12,12,,,41,54,3,4,1.0,1.1
2025-12-20T0500,1438A,103.613,31.0283,成都市,灵岩寺,,,,,,,,,,,,,,,,
2025-12-20T0500,2880A,104.0239,30.65639,成都市,大石西路,细颗粒物(PM2.5),150,133,157,115,121,10,10,,,42,52,5,5,0.9,1
2025-12-20T0500,3136A,104.2725,30.5589,成都市,龙泉驿区区政府,细颗粒物(PM2.5),156,146,143,119,105,7,7,,,36,45,6,6,1.0,1
2025-12-20T0500,3357A,104.0106,30.6931,成都市,金博路,细颗粒物(PM2.5),129,124,158,98,118,6,6,,,44,54,4,5,0.7,0.8
2025-12-20T0500,3359A,104.0578,30.5225,成都市,华阳,细颗粒物(PM2.5),153,156,151,117,107,11,11,,,41,54,3,3,1.4,1.3
2025-12-20T0500,3488A,104.3880,30.7467,成都市,青石路225号,细颗粒物(PM2.5),176,153,145,133,125,1,1,,,43,49,3,4,1.0,1
2025-12-20T0500,3489A,104.0789,30.4072,成都市,科学城,细颗粒物(PM2.5),159,160,152,121,113,10,10,,,39,49,7,6,,0.8
2025-12-20T0500,4011A,103.8506,30.6947,成都市,光华大道三段,细颗粒物(PM2.5),145,123,165,111,135,18,18,,,28,45,3,3,0.8,1
2025-12-20T0500,4224A,104.2433,30.5353,成都市,鲸龙路1057号,细颗粒物(PM2.5),180,164,154,136,121,7,7,,,38,53,6,6,1.0,1
2025-12-20T0500,1062A,117.9531,40.9081,承德市,铁路,,26,26,93,3,55,56,56,,,4,26,2,5,0.1,0.8
2025-12-20T0500,1063A,117.9392,40.9763,承德市,中国银行,,29,29,88,7,53,57,57,,,4,23,1,4,0.2,0.6
2025-12-20T0500,1064A,117.9503,40.928,承德市,开发区,,42,42,98,14,56,60,60,,,5,26,3,8,0.1,0.6
2025-12-20T0500,1066A,117.9268,41.0026,承德市,离宫,,,,,,,,,,,,,,,,
2025-12-20T0500,4274A,117.7994,40.9605,承德市,滨河大街98号,,18,18,64,3,53,55,55,,,5,22,1,5,0.2,0.6
2025-12-20T0500,2314A,117.47,30.6618,池州市,池州学院,细颗粒物(PM2.5),115,106,107,87,85,6,6,,,68,42,4,6,0.8,0.9
2025-12-20T0500,3237A,117.4918,30.6617,池州市,展览馆,细颗粒物(PM2.5),102,95,110,76,77,0,0,,,45,46,2,3,0.9,1
2025-12-20T0500,3333A,117.5627,30.695,池州市,第八中学,细颗粒物(PM2.5),129,146,116,98,82,0,0,,,,48,13,8,1.3,1.2
2025-12-20T0500,3334A,117.5038,30.6243,池州市,第十二中学,细颗粒物(PM2.5),73,71,102,53,77,4,4,,,46,50,2,5,1.1,1.2
2025-12-20T0500,1744A,118.9233,42.2816,赤峰市,松山一中,,22,22,53,3,23,52,52,,,9,17,4,5,0.3,0.5
2025-12-20T0500,1745A,118.9576,42.2728,赤峰市,哈达街,,19,9,49,3,23,58,58,,,7,17,6,8,0.1,0.2
2025-12-20T0500,1746A,118.8788,42.2554,赤峰市,天义路,,,7,46,6,25,57,57,,,,18,5,6,0.4,0.5
2025-12-20T0500,3058A,119.2658,42.0353,赤峰市,银河街,,20,16,64,6,40,62,62,,,6,18,6,9,0.5,0.7
2025-12-20T0500,3286A,118.9359,42.3147,赤峰市,桥北物流园区,,16,6,61,3,27,50,50,,,7,12,5,5,0.2,0.5
2025-12-20T0500,2521A,107.3476,22.4136,崇左市,市环保局江州分局,,42,42,52,25,30,6,6,,,27,22,5,6,0.5,0.5
2025-12-20T0500,4256A,107.3750,22.3736,崇左市,石景林东路7号,,36,32,43,25,29,14,14,,,23,24,6,6,0.6,0.7
2025-12-20T0500,2298A,118.3093,32.3153,滁州市,老年大学,细颗粒物(PM2.5),163,145,145,124,112,26,26,,,40,61,14,13,0.8,1.1
2025-12-20T0500,2299A,118.3244,32.2786,滁州市,人大宾馆,细颗粒物(PM2.5),185,151,154,139,124,43,43,,,35,61,6,9,1.1,1.4
2025-12-20T0500,3207A,118.3118,32.3038,滁州市,市政府原办公楼,细颗粒物(PM2.5),160,146,150,122,115,40,40,,,34,63,6,8,0.6,1
2025-12-20T0500,3331A,118.3267,32.2634,滁州市,图书馆,细颗粒物(PM2.5),159,140,145,121,107,48,48,,,28,53,8,12,0.7,1
2025-12-20T0500,2605A,101.5482,25.0441,楚雄彝族自治州,州环境监测站,,23,23,24,14,16,2,2,,,22,17,14,9,0.5,0.6
2025-12-20T0500,2606A,101.538,25.0492,楚雄彝族自治州,市经济开发区,,20,20,23,12,18,1,1,,,19,16,13,9,0.5,0.6
2025-12-20T0500,2548A,107.5277,31.2827,达州市,达州职业技术学院,,,,,,,,,,,,,,,,
2025-12-20T0500,2549A,107.5086,31.2186,达州市,市环境监测站,细颗粒物(PM2.5),149,145,125,114,98,3,3,,,34,39,9,9,0.9,0.8
2025-12-20T0500,2550A,107.4988,31.2132,达州市,凤凰小区,细颗粒物(PM2.5),149,151,130,114,99,4,4,,,,35,8,9,0.9,0.9
2025-12-20T0500,2551A,107.5082,31.1986,达州市,达县机关宾馆,细颗粒物(PM2.5),158,158,129,120,95,3,3,,,39,39,6,6,1.0,1
2025-12-20T0500,2552A,107.4644,31.2124,达州市,市政中心,细颗粒物(PM2.5),156,165,141,119,98,4,4,,,33,43,9,9,0.9,1.2
2025-12-20T0500,2614A,100.1542,25.7054,大理白族自治州,大理市环境监测站,,29,21,22,20,21,51,51,,,8,10,6,6,0.5,0.5
2025-12-20T0500,2615A,100.2171,25.5811,大理白族自治州,大理古城,,19,,27,13,15,45,45,,,5,18,8,8,0.6,0.7
2025-12-20T0500,1109A,121.612,38.9741,大连市,甘井子,颗粒物(PM10),54,58,109,9,80,58,58,,,17,42,10,10,0,0.4
2025-12-20T0500,1110A,121.565,38.9511,大连市,周水子,,36,36,115,9,78,56,56,,,13,36,13,11,0.4,0.8
2025-12-20T0500,1111A,121.5637,38.8845,大连市,星海三站,,35,35,104,12,77,50,50,,,21,26,9,6,0.3,0.5
2025-12-20T0500,1112A,121.6302,38.9117,大连市,青泥洼桥,,,19,115,12,81,53,53,,,,35,9,9,0.5,1.2
2025-12-20T0500,1113A,121.6251,38.8638,大连市,傅家庄,,32,32,113,12,74,47,47,,,16,25,12,11,0.4,0.7
2025-12-20T0500,1114A,121.5213,38.8661,大连市,七贤岭,,41,41,109,11,76,54,54,,,14,27,4,14,0.6,0.8
2025-12-20T0500,1115A,121.2529,38.8061,大连市,旅顺,,24,24,145,14,82,56,56,,,11,27,9,7,0.4,0.7
2025-12-20T0500,1116A,121.7485,39.1311,大连市,金州,,19,13,118,8,64,58,58,,,9,33,10,10,0.3,0.6
2025-12-20T0500,1117A,121.7811,39.0496,大连市,开发区,,39,39,107,8,73,60,60,,,7,32,9,7,0.2,0.7
2025-12-20T0500,1118A,121.9762,39.0631,大连市,双D港,,42,42,96,15,67,59,59,,,12,24,13,12,0.3,0.6
2025-12-20T0500,1789A,124.81117,46.03138,大庆市,大同区,,12,,98,7,33,37,37,,,5,10,6,7,0.6,0.7
2025-12-20T0500,1790A,125.129,46.533,大庆市,龙凤区,,26,26,77,13,45,25,25,,,11,12,6,6,0.4,0.7
2025-12-20T0500,1791A,124.902,46.408,大庆市,红岗区,,45,45,105,11,39,29,29,,,14,17,6,7,1.2,0.8
2025-12-20T0500,1792A,125.153,46.586,大庆市,萨尔图区,,47,47,94,14,54,34,34,,,16,19,8,9,0.6,0.8
2025-12-20T0500,1793A,124.9042,46.6215,大庆市,让胡路区,,30,30,83,20,60,40,40,,,8,14,7,9,0.4,0.8
2025-12-20T0500,3481A,125.141,46.634,大庆市,萨区政府监测点,,36,36,81,24,47,30,30,,,18,19,11,10,0.9,0.8
2025-12-20T0500,1721A,113.3819,40.1097,大同市,果树场,,26,25,50,18,35,60,60,,,12,30,7,12,0.2,0.7
2025-12-20T0500,1723A,113.2994,40.0758,大同市,云冈宾馆,,34,34,44,13,24,45,45,,,19,34,6,8,0.5,0.8
2025-12-20T0500,1724A,113.3444,40.0917,大同市,大同大学,,29,28,53,20,25,51,51,,,16,33,4,7,0.5,0.8
2025-12-20T0500,1725A,113.2661,40.1269,大同市,安家小村,,47,47,59,13,22,34,34,,,25,34,8,9,0.5,0.8
2025-12-20T0500,1726A,113.2711,40.0844,大同市,教育学院,,41,41,56,20,23,37,37,,,25,34,6,8,0.7,0.8
2025-12-20T0500,3282A,113.3397,40.0597,大同市,大同市卫生学校,,34,34,58,8,24,46,46,,,21,36,4,7,0.5,0.7
2025-12-20T0500,3565A,113.1367,40.1122,大同市,云冈站,,40,40,50,16,25,42,42,,,8,29,5,7,0.4,0.5
2025-12-20T0500,3566A,113.1186,40.2556,大同市,图书馆,颗粒物(PM10),54,58,54,21,28,40,40,,,9,12,4,5,0.6,0.5
2025-12-20T0500,3567A,113.5931,40.0461,大同市,区一中,,36,36,66,7,30,59,59,,,16,33,7,14,0.5,0.7
2025-12-20T0500,4199A,113.2798,40.0997,大同市,魏都大道141号,,47,47,65,18,26,40,40,,,23,35,5,7,0.6,0.9
2025-12-20T0500,2269A,124.1069,50.4097,大兴安岭地区,科技局,,22,22,41,15,21,58,58,,,1,4,4,5,0.1,0.2
2025-12-20T0500,3663A,124.1164,50.4278,大兴安岭地区,红旗社区,,20,6,12,3,9,62,62,,,3,4,3,4,0.2,0.3
2025-12-20T0500,1600A,124.3303,40.0625,丹东市,江湾东路,,45,39,37,31,29,42,42,,,18,18,10,9,0.8,0.9
2025-12-20T0500,1601A,124.4256,40.1503,丹东市,临江后街,,40,40,36,25,20,39,39,,,17,18,10,6,0.7,0.7
2025-12-20T0500,1602A,124.3933,40.1461,丹东市,元宝山,,40,36,32,28,24,40,40,,,17,19,7,8,0.8,0.7
2025-12-20T0500,1603A,124.3633,40.1092,丹东市,民主桥,,38,38,39,21,22,45,45,,,15,20,8,7,0.7,0.7
2025-12-20T0500,3541A,109.5726,19.5167,儋州市,第一中学子站,,44,44,39,19,17,52,52,,,5,4,6,3,0.5,0.5
2025-12-20T0500,3542A,109.5567,19.5187,儋州市,东坡学校子站,,37,37,39,18,16,57,57,,,4,4,6,5,0.5,0.5
2025-12-20T0500,2616A,98.5842,24.428,德宏傣族景颇族自治州,德宏州监测站,,43,,44,30,36,3,3,,,26,23,5,7,0.6,0.7
2025-12-20T0500,3677A,98.5881,24.4368,德宏傣族景颇族自治州,芒市人民政府综合楼,,36,36,45,24,28,16,16,,,12,16,7,8,0.6,0.6
2025-12-20T0500,1901A,104.4239,31.1208,德阳市,东山公园,细颗粒物(PM2.5),160,139,136,122,118,0,0,,,49,33,3,2,1.2,1
2025-12-20T0500,1902A,104.3826,31.1317,德阳市,西小区,细颗粒物(PM2.5),173,169,168,131,128,2,2,,,53,45,5,4,1.2,1.2
2025-12-20T0500,1904A,104.3553,31.1091,德阳市,耐火材料厂,细颗粒物(PM2.5),176,145,152,133,131,0,0,,,54,48,8,6,1.2,1.1
2025-12-20T0500,3639A,104.4019,31.1244,德阳市,市教育局,细颗粒物(PM2.5),156,137,139,119,121,2,2,,,54,51,3,2,1.0,1
2025-12-20T0500,1622A,116.3032,37.4674,德州市,儿童乐园,细颗粒物(PM2.5),240,241,266,190,207,2,2,,,,61,10,10,1.7,1.8
2025-12-20T0500,1624A,116.2991,37.4451,德州市,监理站,细颗粒物(PM2.5),178,178,258,134,208,24,24,,,,62,14,12,1.1,1.5
2025-12-20T0500,3066A,116.2721,37.4379,德州市,九衢泉纯净水厂,细颗粒物(PM2.5),180,178,272,136,212,17,17,,,57,65,13,15,0.9,1.3
2025-12-20T0500,3371A,116.3728,37.4403,德州市,开发区人民医院,细颗粒物(PM2.5),192,197,263,144,198,15,15,,,60,66,12,11,1.2,1.5
2025-12-20T0500,3511A,116.5652,37.3319,德州市,陵城艺术中心,细颗粒物(PM2.5),221,212,255,171,200,8,8,,,72,78,13,12,1.2,1.4
2025-12-20T0500,4292A,116.3525,37.4209,德州市,新河东路,细颗粒物(PM2.5),156,156,251,119,200,26,26,,,52,71,12,12,1.0,1.4
2025-12-20T0500,2621A,99.7056,27.8317,迪庆藏族自治州,迪庆州站,,22,,28,15,18,43,43,,,8,12,5,5,0.1,0.3
2025-12-20T0500,3180A,99.7136,27.8094,迪庆藏族自治州,质量技术监督局,,16,16,29,8,18,41,41,,,11,13,7,8,0.5,0.5
2025-12-20T0500,4257A,104.6092,35.5962,定西市,将台街,,32,32,58,13,33,76,76,,,5,17,7,10,0.2,0.4
2025-12-20T0500,4309A,104.6159,35.5701,定西市,正龙路62号,,35,35,61,16,34,71,71,,,4,11,3,7,0.3,0.5
2025-12-20T0500,1389A,113.7547,23.0494,东莞市,莞城梨川,,45,45,50,27,31,12,12,,,37,30,5,5,0.6,0.6
2025-12-20T0500,1390A,113.7944,23.0128,东莞市,东城石井,,38,38,44,24,30,21,21,,,33,32,12,8,0.7,0.7
2025-12-20T0500,1391A,113.7383,22.9658,东莞市,南城西平,,,36,46,22,32,14,14,,,,44,8,7,0.7,0.8
2025-12-20T0500,3319A,113.7338,23.0381,东莞市,万江金泰,,,46,57,28,35,20,20,,,,30,6,6,0.8,0.8
2025-12-20T0500,3626A,113.7533,23.0202,东莞市,南城元岭,,36,36,45,22,32,24,24,,,29,28,10,7,0.6,0.7
2025-12-20T0500,3627A,113.7875,23.0457,东莞市,东城主山,,42,42,48,29,32,15,15,,,38,30,8,6,0.5,0.5
2025-12-20T0500,1666A,118.6614,37.4309,东营市,市环保局,,29,29,151,7,108,47,47,,,21,46,7,18,0.5,1
2025-12-20T0500,3036A,118.6904,37.4338,东营市,开发区管委会,,34,34,162,3,111,50,50,,,19,45,9,16,0.3,0.9
2025-12-20T0500,3365A,118.5719,37.565,东营市,垦利区民丰路,,,24,138,3,101,46,46,,,,44,6,9,0.5,1
2025-12-20T0500,3498A,118.5055,37.8612,东营市,河口城区,,19,19,146,3,92,56,56,,,24,52,7,8,0.6,1.1
2025-12-20T0500,3646A,118.4978,37.4623,东营市,胜利站,,37,37,149,3,116,46,46,,,22,53,10,13,0.3,1.1
2025-12-20T0500,3734A,118.35,37.26,东营市,理想之城,,24,24,156,3,110,44,44,,,27,48,5,9,0.5,1.1
2025-12-20T0500,1591A,110.0023,39.8129,鄂尔多斯市,综合楼,颗粒物(PM10),151,251,74,56,20,65,65,,,6,13,2,4,0.2,0.3
2025-12-20T0500,1592A,109.9486,39.8261,鄂尔多斯市,巴音孟克林场办事处,颗粒物(PM10),178,305,94,48,21,68,68,,,,14,5,5,0.1,0.1
2025-12-20T0500,1593A,109.7736,39.5986,鄂尔多斯市,康泽苑,颗粒物(PM10),125,200,111,36,25,70,70,,,5,7,5,6,0.3,0.3
2025-12-20T0500,1594A,109.8119,39.5989,鄂尔多斯市,华泰汽车城,颗粒物(PM10),134,217,114,41,24,72,72,,,5,10,2,4,0.3,0.3
2025-12-20T0500,1595A,109.9734,39.7884,鄂尔多斯市,奥林花园,颗粒物(PM10),175,300,98,46,19,63,63,,,7,16,9,9,0.3,0.4
2025-12-20T0500,2436A,114.8938,30.3994,鄂州市,市政府,细颗粒物(PM2.5),104,90,114,78,94,48,48,,,27,51,5,8,0.8,1
2025-12-20T0500,2437A,114.8989,30.3714,鄂州市,赵家坝,细颗粒物(PM2.5),104,111,123,78,92,60,60,,,16,28,6,9,1.1,1.3
2025-12-20T0500,3654A,114.8094,30.4089,鄂州市,精准医疗中心,细颗粒物(PM2.5),100,112,124,75,95,66,66,,,15,42,4,21,1.3,1.9
2025-12-20T0500,2454A,109.4978,30.2981,恩施土家族苗族自治州,湖北民院,细颗粒物(PM2.5),153,127,100,117,94,3,3,,,2,2,6,6,1.3,1.1
2025-12-20T0500,2455A,109.4707,30.2798,恩施土家族苗族自治州,州电力总公司,细颗粒物(PM2.5),142,112,101,108,85,1,1,,,24,32,6,6,1.1,1
2025-12-20T0500,3549A,109.5061,30.3772,恩施土家族苗族自治州,龙凤新区,细颗粒物(PM2.5),133,127,105,101,77,1,1,,,16,18,6,6,0.9,0.8
2025-12-20T0500,2499A,108.3411,21.6158,防城港市,沙万,,46,46,60,24,31,65,65,,,22,30,5,9,0.6,0.7
2025-12-20T0500,2500A,108.3514,21.7731,防城港市,防城档案局,,35,34,70,24,33,43,43,,,16,24,4,6,0.5,0.7
2025-12-20T0500,2501A,108.3506,21.6414,防城港市,大海花园,,38,27,49,26,31,73,73,,,11,23,6,11,0.5,0.7
2025-12-20T0500,1371A,113.1294,23.0067,佛山市,湾梁,,34,34,74,16,40,4,4,,,50,61,7,8,0.7,0.9
2025-12-20T0500,1372A,113.1083,23.0478,佛山市,华材职中,,44,44,66,29,53,4,4,,,57,53,6,7,0.7,0.9
2025-12-20T0500,1373A,113.144,23.0453,佛山市,南海气象局,,39,37,65,27,44,14,14,,,40,55,7,8,0.5,0.8
2025-12-20T0500,1374A,113.2881,22.8094,佛山市,顺德苏岗,,35,31,65,24,40,21,21,,,32,52,8,7,0.6,0.8
2025-12-20T0500,1376A,112.8383,22.8678,佛山市,高明孔堂,颗粒物(PM10),59,68,74,41,54,0,0,,,53,41,3,4,0.8,0.8
2025-12-20T0500,1377A,112.8836,23.1588,佛山市,三水监测站,,,51,87,29,55,5,5,,,,70,5,8,0.7,0.9
2025-12-20T0500,1378A,112.867,23.185,佛山市,三水云东海,颗粒物(PM10),55,59,79,31,53,0,0,,,46,59,8,6,0.7,0.8
2025-12-20T0500,3625A,113.2544,22.7642,佛山市,容桂街道办,,32,27,64,22,44,22,22,,,31,51,8,7,0.6,0.7
2025-12-20T0500,1280A,119.3903,26.0543,福州市,鼓山,,,,56,,26,,,73,,,21,,2,,0.5
2025-12-20T0500,1282A,119.2681,26.0504,福州市,师大,,35,28,59,24,31,25,25,,,26,38,7,8,0.5,0.6
2025-12-20T0500,1283A,119.2984,26.1028,福州市,五四北路,,49,,52,34,36,20,20,,,23,36,4,5,0.5,0.6
2025-12-20T0500,1284A,119.2648,26.0768,福州市,杨桥西路,,,27,52,26,33,21,21,,,,29,4,5,0.5,0.6
2025-12-20T0500,1285A,119.317,26.0746,福州市,紫阳,,,34,70,27,40,20,20,,,,42,7,8,0.5,0.7
2025-12-20T0500,3048A,119.5799,26.0936,福州市,九龙,细颗粒物(PM2.5),69,57,49,50,32,18,18,,,25,26,3,4,0.5,0.5
2025-12-20T0500,3526A,119.5189,25.9664,福州市,吴航,,49,49,62,32,35,1,1,,,41,40,4,6,0.7,0.7
2025-12-20T0500,1755A,123.7977,41.8491,抚顺市,望花区,,29,29,74,3,44,56,56,,,10,30,7,13,0.4,0.7
2025-12-20T0500,1756A,123.9161,41.8822,抚顺市,顺城区,,29,29,59,9,40,48,48,,,15,27,9,11,0.4,0.8
2025-12-20T0500,1757A,124.0436,41.8611,抚顺市,东洲区,,,28,59,9,35,44,44,,,,24,8,11,0.5,0.8
2025-12-20T0500,1758A,123.9247,41.8642,抚顺市,新抚区,,32,32,55,9,32,48,48,,,17,25,11,12,0.7,1
2025-12-20T0500,1759A,124.0972,41.8961,抚顺市,大伙房水库,,,21,48,8,31,44,44,,,,17,12,13,0.6,0.8
2025-12-20T0500,1760A,123.7086,41.8391,抚顺市,沈抚新城,,,26,74,3,47,50,50,,,,34,8,11,0.3,0.7
2025-12-20T0500,2376A,116.2127,28.0814,抚州市,桐源党溪,,,,,,,,,,,,,,,,
2025-12-20T0500,2377A,116.3544,27.9831,抚州市,市站,,,55,80,39,52,22,22,,,,36,8,7,0.9,1
2025-12-20T0500,2378A,116.3565,27.963,抚州市,血防站,,50,50,68,31,45,46,46,,,22,38,4,4,0.9,1.1
2025-12-20T0500,2379A,116.3564,28.0007,抚州市,采茶剧团,细颗粒物(PM2.5),53,50,74,37,51,31,31,,,18,26,4,5,1.1,1.2
2025-12-20T0500,2380A,116.385,27.9647,抚州市,医学分院,,42,42,64,24,39,57,57,,,12,24,4,4,1.2,1.3
2025-12-20T0500,2207A,121.6094,41.998,阜新市,工业园区,,20,20,66,3,49,55,55,,,8,22,7,11,0.3,0.6
2025-12-20T0500,2208A,121.6697,42.0279,阜新市,长青街,,18,16,65,3,50,57,57,,,8,21,7,11,0.2,0.6
2025-12-20T0500,2209A,121.6673,42.0705,阜新市,农业园区,,19,19,72,3,49,52,52,,,8,20,5,10,0.1,0.4
2025-12-20T0500,2210A,121.6717,42.0224,阜新市,东苑,,33,33,67,7,48,59,59,,,5,19,2,8,0.4,0.7
2025-12-20T0500,2211A,121.6506,42.0498,阜新市,玉龙新城,,31,31,68,3,46,54,54,,,8,28,8,12,0.1,0.5
2025-12-20T0500,2301A,115.8277,32.8929,阜阳市,市监测站,细颗粒物(PM2.5),232,238,160,182,117,22,22,,,31,32,4,6,1.0,0.8
2025-12-20T0500,2303A,115.8554,32.8605,阜阳市,开发区,细颗粒物(PM2.5),223,232,138,173,100,17,17,,,,29,4,6,1.1,0.9
2025-12-20T0500,2875A,115.784,32.8892,阜阳市,阜阳职业技术学院,细颗粒物(PM2.5),225,218,136,175,103,26,26,,,24,26,5,7,0.9,0.9
2025-12-20T0500,3468A,115.7901,32.8613,阜阳市,市规划展馆,细颗粒物(PM2.5),247,238,151,197,120,19,19,,,,26,5,7,1.2,0.9
2025-12-20T0500,3469A,115.836,32.9183,阜阳市,枣园社区,细颗粒物(PM2.5),236,242,158,186,117,21,21,,,31,32,1,3,1.0,0.7
2025-12-20T0500,2669A,102.9099,34.9841,甘南藏族自治州,州政府,细颗粒物(PM2.5),58,59,69,41,40,47,47,,,14,23,6,11,0.6,0.9
2025-12-20T0500,3380A,102.8914,34.9617,甘南藏族自治州,甘肃民族师范学院,颗粒物(PM10),67,83,76,43,32,14,14,,,38,31,5,7,0.8,0.8
2025-12-20T0500,2570A,101.9603,30.0475,甘孜藏族自治州,水桥子,,16,11,30,3,8,15,15,,,32,29,7,8,1.2,0.8
2025-12-20T0500,3065A,101.9533,29.9972,甘孜藏族自治州,州环保局,,12,10,25,8,5,32,32,,,17,20,6,6,0.5,0.5
2025-12-20T0500,3414A,115.8347,28.932,赣江新区,桑海产业园,,,107,132,73,87,27,27,,,,61,9,11,1.0,1
2025-12-20T0500,2362A,114.9017,25.9149,赣州市,通天岩,,17,14,40,6,25,17,17,,,5,8,17,19,1.7,2
2025-12-20T0500,2363A,114.9367,25.8664,赣州市,地委,,,57,66,38,40,2,2,,,,35,6,12,0.9,1
2025-12-20T0500,2364A,114.9461,25.8481,赣州市,气象台,颗粒物(PM10),58,66,71,29,34,19,19,,,25,45,4,11,0.7,0.9
2025-12-20T0500,2365A,114.9322,25.8333,赣州市,市图书馆,,,54,66,30,38,17,17,,,,40,4,12,0.6,0.8
2025-12-20T0500,2366A,114.8905,25.8471,赣州市,华坚鞋城,颗粒物(PM10),56,61,68,30,37,5,5,,,42,44,9,11,0.4,0.5
2025-12-20T0500,3109A,115.0093,25.8613,赣州市,赣县区卫计委,,45,,55,31,41,17,17,,,14,28,7,7,0.5,0.6
2025-12-20T0500,2683A,106.2319,36.1417,固原市,马园,,,,,,,,,,,,,,,,
2025-12-20T0500,2684A,106.2792,36.0022,固原市,监测站,颗粒物(PM10),76,101,63,17,16,70,70,,,4,14,3,4,0.3,0.4
2025-12-20T0500,2685A,106.2375,36.0211,固原市,新区,颗粒物(PM10),76,102,82,16,20,69,69,,,4,20,3,4,0.3,0.4
2025-12-20T0500,3522A,106.2177,35.9959,固原市,原州区十五小,颗粒物(PM10),67,83,56,17,16,63,63,,,6,15,6,7,0.4,0.5
2025-12-20T0500,2543A,106.6308,30.5278,广安市,小平旧居,,,,,,,,,,,,,,,,
2025-12-20T0500,2544A,106.6303,30.4576,广安市,市委,细颗粒物(PM2.5),132,117,150,100,128,10,10,,,21,28,3,3,0.9,1.1
2025-12-20T0500,2545A,106.6271,30.4663,广安市,友谊中学,细颗粒物(PM2.5),120,114,144,91,115,24,24,,,20,27,2,2,0.8,1
2025-12-20T0500,2547A,106.6388,30.4551,广安市,广电花园,细颗粒物(PM2.5),140,,121,107,128,11,11,,,20,25,4,3,0.7,1
2025-12-20T0500,2902A,106.6351,30.4865,广安市,北辰小学,细颗粒物(PM2.5),123,109,143,93,117,24,24,,,15,21,15,16,0.9,1.1
2025-12-20T0500,2523A,105.8945,32.4535,广元市,黑石坡,,,,,,,,,,,,,,,,
2025-12-20T0500,2524A,105.821,32.4444,广元市,老城,,33,33,92,22,60,80,80,,,9,39,4,9,0.5,1.3
2025-12-20T0500,2526A,105.8628,32.4287,广元市,监测站,,,38,90,9,62,77,77,,,,41,4,9,0.5,1.5
2025-12-20T0500,3617A,105.8047,32.4166,广元市,经开区,,30,30,88,15,62,71,71,,,13,41,2,5,0.4,1
2025-12-20T0500,1345A,113.2347,23.1423,广州市,广雅中学,,41,41,59,21,34,6,6,,,50,53,2,4,0.6,0.7
2025-12-20T0500,1346A,113.2612,23.105,广州市,市五中,,28,28,53,18,32,27,27,,,39,54,7,7,0.5,0.7
2025-12-20T0500,1348A,113.3478,23.0916,广州市,广东商学院,,,35,55,22,40,6,6,,,,57,5,6,0.7,0.8
2025-12-20T0500,1349A,113.4332,23.1047,广州市,市八十六中,,25,24,46,16,29,8,8,,,49,56,7,7,0.9,1.1
2025-12-20T0500,1350A,113.3505,22.9483,广州市,番禺中学,,40,40,56,24,36,16,16,,,44,48,7,7,0.8,0.8
2025-12-20T0500,1351A,113.2146,23.3916,广州市,花都师范,,37,37,54,22,33,11,11,,,52,52,5,6,0.5,0.6
2025-12-20T0500,1352A,113.2597,23.1331,广州市,市监测站,,,32,52,22,34,7,7,,,,54,4,4,0.5,0.7
2025-12-20T0500,1353A,113.5618,23.312,广州市,九龙镇镇龙,,,33,41,22,29,6,6,,,,24,6,6,0.5,0.5
2025-12-20T0500,1354A,113.2765,23.1544,广州市,麓湖,,,27,48,19,36,3,3,,,,53,7,7,0.4,0.5
2025-12-20T0500,1355A,113.443,23.3035,广州市,帽峰山森林公园,,,,,,,,,,,,,,,,
2025-12-20T0500,2846A,113.3221,23.1322,广州市,体育西,,26,26,53,16,32,28,28,,,31,53,5,5,0.5,0.7
2025-12-20T0500,3298A,113.5717,23.5491,广州市,从化街口,,,26,41,21,31,21,21,,,,25,7,7,0.6,0.7
2025-12-20T0500,3299A,113.3472,23.3692,广州市,白云竹料,,32,32,47,22,30,19,19,,,28,33,2,3,0.6,0.6
2025-12-20T0500,3300A,113.2981,23.237,广州市,白云嘉禾,,30,30,53,18,33,20,20,,,33,46,7,7,0.6,0.8
2025-12-20T0500,3301A,113.4256,23.1716,广州市,黄埔科学城,,,23,52,17,37,40,40,,,,42,3,4,0.8,0.9
2025-12-20T0500,3302A,113.3942,23.0483,广州市,番禺大学城,,48,48,88,19,36,2,2,,,58,53,14,16,0.6,0.7
2025-12-20T0500,3303A,113.4922,22.8168,广州市,南沙黄阁,,44,44,59,28,35,12,12,,,45,57,13,7,0.9,1
2025-12-20T0500,3304A,113.5342,22.7896,广州市,南沙街,,41,41,60,26,36,10,10,,,40,46,6,6,0.6,0.6
2025-12-20T0500,3443A,113.2902,23.5544,广州市,花都梯面,,22,22,47,13,29,21,21,,,17,32,4,4,0.5,0.6
2025-12-20T0500,3445A,113.7858,23.7478,广州市,从化良口,,19,18,23,13,18,14,14,,,24,20,6,7,0.6,0.6
2025-12-20T0500,3446A,113.8051,23.2614,广州市,增城荔城,,,25,39,20,30,50,50,,,,17,7,7,0.5,0.6
2025-12-20T0500,2505A,109.568,23.1478,贵港市,德智高中,,,,,,,,,,,,,,,,
2025-12-20T0500,2506A,109.6047,23.0666,贵港市,江南子站,细颗粒物(PM2.5),97,105,93,72,60,16,16,,,51,36,13,12,1.0,0.9
2025-12-20T0500,2508A,109.5669,23.1065,贵港市,荷城子站,细颗粒物(PM2.5),92,90,85,68,58,10,10,,,51,38,9,10,1.2,1.2
2025-12-20T0500,3405A,109.5886,23.1172,贵港市,新世纪学校,细颗粒物(PM2.5),89,88,88,66,59,3,3,,,64,34,5,10,0.8,0.8
2025-12-20T0500,4260A,109.5933,23.0951,贵港市,中山路155-3号,细颗粒物(PM2.5),93,100,88,69,58,31,31,,,44,34,14,14,1.0,1
2025-12-20T0500,1439A,106.6899,26.5998,贵阳市,马鞍山,,29,29,30,19,18,10,10,,,10,16,3,8,0.7,0.6
2025-12-20T0500,1441A,106.6243,26.6266,贵阳市,鉴湖路,,41,41,39,24,20,70,70,,,13,18,5,7,0.6,0.4
2025-12-20T0500,1442A,106.7487,26.6343,贵阳市,燕子冲,细颗粒物(PM2.5),58,46,34,41,31,3,3,,,28,21,7,9,0.8,0.4
2025-12-20T0500,1443A,106.6555,26.4365,贵阳市,碧云窝,,41,41,38,24,21,67,67,,,7,11,4,8,0.4,0.3
2025-12-20T0500,1445A,106.7109,26.6027,贵阳市,红边门,细颗粒物(PM2.5),55,39,40,39,28,35,35,,,22,26,11,12,0.5,0.3
2025-12-20T0500,1446A,106.7164,26.5699,贵阳市,新华路,,45,39,50,31,29,16,16,,,34,23,8,12,0.6,0.5
2025-12-20T0500,1447A,106.674,26.5424,贵阳市,太慈桥,,45,39,36,31,21,26,26,,,16,19,4,8,0.3,0.2
2025-12-20T0500,1552A,106.805,26.3003,贵阳市,桐木岭,,48,48,44,31,29,84,84,,,1,2,6,7,0.7,0.7
2025-12-20T0500,4230A,106.6882,26.5695,贵阳市,花果园大街66号,细颗粒物(PM2.5),58,,29,41,28,31,31,,,26,23,4,7,0.8,0.6
2025-12-20T0500,4231A,106.6873,26.5169,贵阳市,漓江路57号,,45,41,36,31,27,18,18,,,33,25,6,14,0.9,0.7
2025-12-20T0500,1862A,110.4144,25.3167,桂林市,电子科大尧山校区,,,,,,,,,,,,,,,,
2025-12-20T0500,1864A,110.3089,25.2708,桂林市,龙隐路小学,细颗粒物(PM2.5),73,64,77,53,58,12,12,,,29,27,6,6,0.6,0.6
2025-12-20T0500,1865A,110.2869,25.2178,桂林市,八中,细颗粒物(PM2.5),83,88,85,61,64,7,7,,,38,38,6,7,0.7,0.6
2025-12-20T0500,3531A,110.296,25.1253,桂林市,旅游学院,细颗粒物(PM2.5),77,68,67,56,50,2,2,,,29,27,5,5,0.7,0.6
2025-12-20T0500,4222A,110.1835,25.2444,桂林市,环湖路276号,细颗粒物(PM2.5),67,63,85,48,56,0,0,,,49,51,7,7,0.5,0.6
2025-12-20T0500,4301A,110.2803,25.2773,桂林市,信义路13号,细颗粒物(PM2.5),69,86,82,50,55,5,5,,,42,40,4,5,1.0,1.1
2025-12-20T0500,2674A,100.2561,34.4714,果洛藏族自治州,玛沁县大武镇,,33,33,53,15,15,70,70,,,1,8,13,15,0.3,0.5
2025-12-20T0500,1129A,126.5422,45.755,哈尔滨市,岭北,,,,,,,,,,,,,,,,
2025-12-20T0500,1130A,126.561,45.8167,哈尔滨市,松北商大,,18,18,73,7,25,42,42,,,6,13,7,9,0.4,0.6
2025-12-20T0500,1131A,126.979,45.5419,哈尔滨市,阿城会宁,,,,34,,20,,,72,,,10,,8,,0.5
2025-12-20T0500,1132A,126.599,45.7222,哈尔滨市,南岗学府路,,22,22,83,3,20,38,38,,,6,13,7,10,0.3,0.4
2025-12-20T0500,1133A,126.689,45.7733,哈尔滨市,太平宏伟公园,,18,18,87,10,28,45,45,,,5,12,9,13,0.3,0.4
2025-12-20T0500,1134A,126.635,45.7667,哈尔滨市,道外承德广场,,27,27,104,10,27,43,43,,,7,18,7,14,0.2,0.2
2025-12-20T0500,1135A,126.685,45.7319,哈尔滨市,香坊红旗大街,,,,,,,,,,,,,,,,
2025-12-20T0500,1136A,126.6411,45.7258,哈尔滨市,动力和平路,,26,26,84,6,26,41,41,,,5,16,8,12,0.5,0.7
2025-12-20T0500,1137A,126.593,45.7478,哈尔滨市,道里建国路,,15,13,68,10,27,35,35,,,5,14,4,15,0.0,0.1
2025-12-20T0500,1138A,126.615,45.61,哈尔滨市,平房东轻厂,,35,35,58,9,25,30,30,,,13,16,6,9,0.2,0.3
2025-12-20T0500,1139A,126.595,45.9855,哈尔滨市,呼兰师专,,21,21,75,13,22,30,30,,,7,15,5,11,0.4,0.5
2025-12-20T0500,1140A,126.6206,45.6842,哈尔滨市,省农科院,,14,14,83,9,25,28,28,,,18,20,12,16,0.4,0.5
2025-12-20T0500,2688A,93.5128,42.8172,哈密市,地区监测站,,20,12,59,7,32,63,63,,,5,19,5,6,0.0,0.1
2025-12-20T0500,2689A,93.4961,42.8328,哈密市,哈密师范学校,,21,20,66,3,26,67,67,,,4,22,5,9,0.3,0.6
2025-12-20T0500,2671A,100.9048,36.9639,海北藏族自治州,海晏县西海镇,细颗粒物(PM2.5),53,41,48,37,27,52,52,,,9,15,12,13,0.6,0.6
2025-12-20T0500,3867A,102.0738,36.5056,海东市,平安区公安北苑,颗粒物(PM10),57,64,62,17,22,60,60,,,5,14,15,25,0.5,0.6
2025-12-20T0500,1409A,110.576,19.9507,海口市,东寨港,,,,,,,,,,,,,,,,
2025-12-20T0500,1410A,110.3232,20.0574,海口市,海南大学,颗粒物(PM10),53,55,48,29,24,104,104,,,8,7,5,5,0.4,0.4
2025-12-20T0500,1411A,110.283,20.0053,海口市,秀英海南医院,,38,38,42,25,21,92,92,,,8,8,7,7,0.4,0.4
2025-12-20T0500,1412A,110.338,19.9969,海口市,海南师范大学,,40,40,41,26,21,98,98,,,10,8,6,6,0.5,0.5
2025-12-20T0500,1413A,110.33,20.0356,海口市,龙华路环保局宿舍,,39,37,41,27,21,101,101,,,10,9,7,7,0.5,0.5
2025-12-20T0500,3539A,110.5111,19.9736,海口市,桂林洋子站,颗粒物(PM10),53,55,43,30,22,85,85,,,10,7,7,7,0.4,0.3
2025-12-20T0500,2673A,100.6188,36.2866,海南藏族自治州,共和县恰卜恰镇,,43,43,39,16,20,65,65,,,6,16,12,11,0.4,0.5
2025-12-20T0500,2676A,97.3731,37.3753,海西蒙古族藏族自治州,德令哈市,,20,14,38,7,11,62,62,,,5,12,10,13,0.3,0.5
2025-12-20T0500,1048A,114.5302,36.6116,邯郸市,东污水处理厂,细颗粒物(PM2.5),150,,179,115,157,24,24,,,38,40,3,2,1.2,1.5
2025-12-20T0500,1049A,114.4918,36.5713,邯郸市,矿院,细颗粒物(PM2.5),160,,186,122,177,2,2,,,63,48,4,2,1.8,1.5
2025-12-20T0500,1050A,114.484,36.6133,邯郸市,丛台公园,细颗粒物(PM2.5),147,115,206,112,170,16,16,,,49,45,10,7,1.2,1.4
2025-12-20T0500,3458A,114.7895,36.5593,邯郸市,香泉濮院小区,细颗粒物(PM2.5),220,173,223,170,163,4,4,,,54,40,11,7,1.8,1.6
2025-12-20T0500,3579A,114.50634,36.77178,邯郸市,永年区实验高中,细颗粒物(PM2.5),123,134,184,93,125,5,5,,,,58,5,3,2.2,1.8
2025-12-20T0500,3580A,114.20016,36.44293,邯郸市,峰峰矿区临水派出所,细颗粒物(PM2.5),107,,115,80,147,74,74,,,19,33,11,12,1.3,2
2025-12-20T0500,2634A,106.9893,33.1842,汉中市,汉川机床厂子校,,,,,,,,,,,,,,,,
2025-12-20T0500,2635A,107.0154,33.0706,汉中市,市监测站,细颗粒物(PM2.5),142,,95,108,85,4,4,,,36,36,4,5,1.5,1.2
2025-12-20T0500,2636A,107.0089,33.1138,汉中市,鑫源开发区,细颗粒物(PM2.5),127,108,106,96,79,5,5,,,36,37,4,5,1.3,1.1
2025-12-20T0500,2637A,107.007,33.0323,汉中市,南郑大河坎水厂,细颗粒物(PM2.5),132,124,113,100,91,2,2,,,27,33,5,6,1.4,1.4
2025-12-20T0500,1223A,120.2072,30.2111,杭州市,滨江,颗粒物(PM10),54,58,99,36,48,28,28,,,47,62,9,9,0.6,1
2025-12-20T0500,1224A,120.0633,30.2747,杭州市,西溪,颗粒物(PM10),56,61,81,37,41,0,0,,,30,36,8,8,0.9,1
2025-12-20T0500,1226A,120.3417,30.3150,杭州市,下沙,细颗粒物(PM2.5),74,86,114,54,74,19,19,,,61,80,7,9,0.8,0.9
2025-12-20T0500,1227A,120.1269,30.2456,杭州市,卧龙桥,,42,41,75,29,49,4,4,,,21,39,8,9,0.5,0.7
2025-12-20T0500,1228A,120.1903,30.2692,杭州市,浙江农大,,,73,97,50,66,8,8,,,,77,4,4,0.9,1.1
2025-12-20T0500,1230A,120.1197,30.3119,杭州市,和睦小学,细颗粒物(PM2.5),74,86,118,54,66,1,1,,,64,69,5,6,1.0,1.1
2025-12-20T0500,1231A,120.3019,30.4183,杭州市,临平镇,,,96,120,60,74,0,0,,,,73,7,8,1.0,1
2025-12-20T0500,1232A,120.2753,30.1839,杭州市,城厢镇,细颗粒物(PM2.5),72,80,106,52,60,19,19,,,53,65,9,10,0.7,0.8
2025-12-20T0500,1233A,120.0883,30.1808,杭州市,云栖,,,53,95,36,53,6,6,,,,49,4,5,0.6,0.7
2025-12-20T0500,3557A,119.9464,30.0494,杭州市,镇二中,细颗粒物(PM2.5),84,68,79,62,56,2,2,,,55,57,6,6,1.1,1.2
2025-12-20T0500,3558A,119.7183,30.2367,杭州市,市府大楼,颗粒物(PM10),54,57,96,35,57,31,31,,,22,32,10,11,0.8,0.9
2025-12-20T0500,3656A,120.1556,30.2864,杭州市,消防大队,细颗粒物(PM2.5),80,92,115,59,77,0,0,,,68,67,5,6,1.0,1.2
2025-12-20T0500,1270A,117.1959,31.7848,合肥市,明珠广场,细颗粒物(PM2.5),185,173,143,139,104,50,50,,,31,57,7,9,1.0,1.2
2025-12-20T0500,1271A,117.3072,31.8764,合肥市,三里街,细颗粒物(PM2.5),170,175,150,129,102,43,43,,,38,76,6,7,1.1,1.3
2025-12-20T0500,1272A,117.2588,31.8707,合肥市,琥珀山庄,细颗粒物(PM2.5),176,166,154,133,108,38,38,,,34,60,8,8,1.0,1.5
2025-12-20T0500,1273A,117.1604,31.9052,合肥市,董铺水库,,,,,,,,,,,,,,,,
2025-12-20T0500,1274A,117.25,31.8571,合肥市,长江中路,细颗粒物(PM2.5),178,171,156,134,110,40,40,,,33,56,7,9,1.0,1.2
2025-12-20T0500,1275A,117.266,31.9436,合肥市,庐阳区,细颗粒物(PM2.5),168,178,158,127,101,42,42,,,38,70,5,8,0.9,1
2025-12-20T0500,1276A,117.3453,31.8616,合肥市,瑶海区,细颗粒物(PM2.5),182,175,149,137,101,44,44,,,41,64,6,8,1.2,1.3
2025-12-20T0500,1277A,117.3027,31.7964,合肥市,包河区,细颗粒物(PM2.5),175,161,140,132,102,41,41,,,46,72,9,11,1.1,1.2
2025-12-20T0500,1278A,117.2776,31.7385,合肥市,滨湖新区,细颗粒物(PM2.5),178,166,148,134,112,47,47,,,38,53,7,8,1.1,1.4
2025-12-20T0500,1279A,117.1318,31.8403,合肥市,高新区,细颗粒物(PM2.5),183,173,135,138,98,52,52,,,32,50,5,7,1.0,1.1
2025-12-20T0500,3464A,117.3803,31.9147,合肥市,高教基地,细颗粒物(PM2.5),212,175,142,162,107,47,47,,,34,36,8,9,1.1,1
2025-12-20T0500,3614A,79.924,37.0877,和田地区,地区环保局,颗粒物(PM10),120,190,198,61,82,25,25,,,34,41,9,9,0.4,0.8
2025-12-20T0500,3615A,79.9131,37.113,和田地区,市环保局,颗粒物(PM10),137,223,213,96,83,13,13,,,49,60,8,9,1.6,3.6
2025-12-20T0500,2516A,108.2011,24.715,河池市,东仁乐园,,,,,,,,,,,,,,,,
2025-12-20T0500,2517A,108.0497,24.6947,河池市,市环保站,细颗粒物(PM2.5),53,50,55,37,39,4,4,,,42,25,2,4,0.8,0.8
2025-12-20T0500,2518A,108.0983,24.6989,河池市,市疾控中心,细颗粒物(PM2.5),52,47,59,36,40,0,0,,,44,37,6,8,0.8,0.8
2025-12-20T0500,1696A,114.6778,23.7569,河源市,源西,,,,,,,,,,,,,,,,
2025-12-20T0500,1697A,114.6944,23.7586,河源市,东埔,,,30,33,27,29,12,12,,,,26,5,6,0.5,0.6
2025-12-20T0500,1698A,114.6892,23.7233,河源市,老城,,30,22,30,21,20,21,21,,,14,21,5,6,0.7,0.7
2025-12-20T0500,1718A,115.4208,35.2464,菏泽市,气象局,细颗粒物(PM2.5),260,275,224,210,177,12,12,,,39,31,3,3,1.3,1.1
2025-12-20T0500,3374A,115.5564,35.0891,菏泽市,定陶老年大学,细颗粒物(PM2.5),255,249,213,205,172,12,12,,,42,38,3,3,1.2,0.9
2025-12-20T0500,4184A,115.4797,35.24401,菏泽市,永昌路1号,细颗粒物(PM2.5),256,263,217,206,173,14,14,,,44,38,5,6,1.4,1.2
2025-12-20T0500,4193A,115.4715,35.2800,菏泽市,长城路999号,细颗粒物(PM2.5),250,262,213,200,169,10,10,,,39,30,5,3,1.7,1.4
2025-12-20T0500,2514A,111.5264,24.4172,贺州市,环保小区,细颗粒物(PM2.5),62,50,55,44,40,27,27,,,24,25,5,6,0.8,0.9
2025-12-20T0500,2515A,111.5608,24.4078,贺州市,政协大楼,,46,43,49,32,34,11,11,,,42,27,7,8,0.7,0.8
2025-12-20T0500,3534A,111.4744,24.4553,贺州市,西湾,细颗粒物(PM2.5),57,50,56,40,39,10,10,,,36,33,5,6,0.8,0.8
2025-12-20T0500,2385A,114.17,35.9019,鹤壁市,市监测站,细颗粒物(PM2.5),144,121,184,110,156,43,43,,,22,38,8,4,1.8,2.6
2025-12-20T0500,2386A,114.2956,35.7511,鹤壁市,市交警支队,细颗粒物(PM2.5),165,144,213,125,165,27,27,,,41,54,10,4,2.1,2.2
2025-12-20T0500,2387A,114.2878,35.7306,鹤壁市,迎宾馆,细颗粒物(PM2.5),169,142,193,128,159,36,36,,,29,42,17,8,2.1,2.2
2025-12-20T0500,3474A,114.2617,35.6822,鹤壁市,大新区,细颗粒物(PM2.5),144,129,186,110,144,47,47,,,24,39,17,8,1.9,2.2
2025-12-20T0500,3596A,114.1572,35.9603,鹤壁市,南山宾馆,细颗粒物(PM2.5),148,118,177,113,133,51,51,,,27,39,12,7,1.4,2.7
2025-12-20T0500,2244A,130.2537,47.3416,鹤岗市,哈啤分公司,细颗粒物(PM2.5),67,,35,48,32,48,48,,,11,14,9,7,0.9,0.8
2025-12-20T0500,2245A,130.2684,47.3086,鹤岗市,斯达机电,颗粒物(PM10),57,64,42,33,22,50,50,,,13,17,14,12,0.9,0.8
2025-12-20T0500,2246A,130.3114,47.3388,鹤岗市,东山纸板厂,细颗粒物(PM2.5),65,48,29,47,26,45,45,,,15,13,10,10,1.4,1.1
2025-12-20T0500,2247A,130.1097,47.3382,鹤岗市,五号水库,,,,,,,,,,,,,,,,
2025-12-20T0500,2263A,127.4833,50.2524,黑河市,交通局,,19,12,39,12,16,60,60,,,2,13,3,5,0.2,0.3
2025-12-20T0500,2264A,127.5144,50.2341,黑河市,环保局,,23,16,58,16,18,53,53,,,13,14,4,7,0.2,0.3
2025-12-20T0500,2265A,127.5291,50.2472,黑河市,大黑河岛,,,,,,,,,,,,,,,,
2025-12-20T0500,1074A,115.6838,37.7541,衡水市,电机北厂,细颗粒物(PM2.5),268,266,261,218,209,0,0,,,42,48,7,6,1.4,1.3
2025-12-20T0500,1075A,115.6303,37.7316,衡水市,市监测站,细颗粒物(PM2.5),258,243,237,208,206,4,4,,,46,49,4,4,1.4,1.4
2025-12-20T0500,3188A,115.6683,37.7217,衡水市,市城管局,细颗粒物(PM2.5),247,245,244,197,194,0,0,,,55,48,8,7,1.5,1.4
2025-12-20T0500,3459A,115.5989,37.5491,衡水市,地表水厂,细颗粒物(PM2.5),287,246,244,237,218,3,3,,,,41,5,4,1.4,1.3
2025-12-20T0500,2456A,112.5003,26.9167,衡阳市,原169医院,,,,,,,,,,,,,,,,
2025-12-20T0500,2457A,112.6194,26.9258,衡阳市,衡阳化工总厂,细颗粒物(PM2.5),72,64,82,52,63,21,21,,,35,29,8,11,0.9,0.9
2025-12-20T0500,2458A,112.6211,26.8956,衡阳市,珠晖区环保局,细颗粒物(PM2.5),83,88,82,61,69,2,2,,,56,43,5,10,1.4,1.2
2025-12-20T0500,2459A,112.6197,26.8733,衡阳市,市委党校,细颗粒物(PM2.5),55,55,75,39,54,19,19,,,29,22,4,11,1.2,1.2
2025-12-20T0500,2460A,112.6006,26.8919,衡阳市,市监测站,细颗粒物(PM2.5),92,83,107,68,67,2,2,,,48,46,7,11,1.4,1.3
2025-12-20T0500,2461A,112.5664,26.9056,衡阳市,真空机电公司,细颗粒物(PM2.5),83,79,85,61,60,1,1,,,46,44,7,13,1.8,1.4
2025-12-20T0500,3399A,112.6703,26.882,衡阳市,师范学院,,50,43,83,35,54,34,34,,,21,27,3,7,1.1,1.2
2025-12-20T0500,2608A,103.3772,23.3993,红河哈尼族彝族自治州,污水处理厂,,33,26,25,23,20,41,41,,,9,9,10,8,0.3,0.3
2025-12-20T0500,2609A,103.3861,23.35,红河哈尼族彝族自治州,监测站,,36,,23,25,22,58,58,,,2,5,7,9,0.2,0.2
2025-12-20T0500,3038A,103.3758,23.368,红河哈尼族彝族自治州,州图书馆,,24,24,19,16,12,55,55,,,4,6,6,10,0.3,0.3
2025-12-20T0500,1090A,111.6507,40.7517,呼和浩特市,呼市一监,,19,19,41,3,14,53,53,,,8,21,4,6,0.2,0.3
2025-12-20T0500,1091A,111.6572,40.8033,呼和浩特市,小召,,22,22,41,3,11,52,52,,,8,19,6,7,0.2,0.4
2025-12-20T0500,1094A,111.7516,40.8369,呼和浩特市,如意水处理厂,,16,14,32,3,12,50,50,,,9,22,8,9,0.3,0.4
2025-12-20T0500,1095A,111.7276,40.8062,呼和浩特市,二十九中,,22,22,46,3,12,56,56,,,5,17,8,10,0.3,0.4
2025-12-20T0500,1096A,111.5512,40.7866,呼和浩特市,工大金川校区,,16,14,51,3,17,50,50,,,13,28,6,9,0.2,0.4
2025-12-20T0500,1097A,111.717,40.7612,呼和浩特市,化肥厂生活区,,17,15,34,3,14,54,54,,,15,28,5,6,0.2,0.4
2025-12-20T0500,3698A,111.5968,40.8178,呼和浩特市,红旗小学,,17,7,34,3,9,54,54,,,5,15,5,6,0.2,0.3
2025-12-20T0500,3699A,111.6518,40.8389,呼和浩特市,海东办,,18,12,34,3,8,56,56,,,11,17,4,5,0.3,0.3
2025-12-20T0500,3061A,119.7512,49.1577,呼伦贝尔市,国华电力东,,34,34,37,22,21,54,54,,,31,26,6,7,0.6,0.7
2025-12-20T0500,4279A,119.7569,49.2222,呼伦贝尔市,伊敏大街东7号,,39,27,30,27,19,49,49,,,4,7,7,8,0.2,0.2
2025-12-20T0500,1250A,120.0751,30.8669,湖州市,城西水厂,细颗粒物(PM2.5),87,120,128,64,71,10,10,,,71,73,9,10,0.8,0.9
2025-12-20T0500,2873A,120.0830,30.8929,湖州市,仁皇山新区,细颗粒物(PM2.5),114,129,126,86,89,7,7,,,,69,10,9,1.1,1
2025-12-20T0500,2907A,120.1844,30.8596,湖州市,吴兴区站,颗粒物(PM10),85,120,126,3,52,2,2,,,85,67,10,9,0.8,0.9
2025-12-20T0500,3562A,120.4148,30.8538,湖州市,南浔区站,"颗粒物(PM10),细颗粒物(PM2.5)",88,125,104,65,59,0,0,,,98,62,8,7,1.1,1
2025-12-20T0500,1607A,120.9049,40.7211,葫芦岛市,龙港区,,47,47,138,8,118,38,38,,,26,41,23,22,0.8,1.4
2025-12-20T0500,1608A,120.8392,40.7514,葫芦岛市,化工街,,27,27,162,9,112,38,38,,,29,55,16,30,0.3,1.3
2025-12-20T0500,1609A,120.8341,40.7073,葫芦岛市,新区,,32,32,113,6,99,46,46,,,21,49,27,14,0.4,1.4
2025-12-20T0500,1610A,120.8695,40.7677,葫芦岛市,东城区,,34,34,129,10,124,40,40,,,29,52,13,20,0.7,1.7
2025-12-20T0500,2482A,109.5981,27.5721,怀化市,林科所,,,,,,,,,,,,,,,,
2025-12-20T0500,2483A,109.9453,27.5444,怀化市,河西地税局,细颗粒物(PM2.5),57,46,55,40,40,16,16,,,18,31,4,6,0.6,0.7
2025-12-20T0500,2484A,109.9781,27.5342,怀化市,市四医院,,,65,79,57,55,4,4,,,,41,10,12,1.1,0.7
2025-12-20T0500,2485A,109.9972,27.5578,怀化市,监测楼,细颗粒物(PM2.5),62,58,75,44,50,0,0,,,37,34,3,4,0.3,0.5
2025-12-20T0500,2486A,110.0394,27.583,怀化市,市委党校,细颗粒物(PM2.5),59,,61,42,48,19,19,,,20,21,5,3,0.3,0.4
2025-12-20T0500,1210A,119.036,33.5981,淮安市,钵池山,细颗粒物(PM2.5),193,171,119,145,94,1,1,,,73,47,8,8,1.2,1.1
2025-12-20T0500,1211A,119.007,33.575,淮安市,北京南路,细颗粒物(PM2.5),205,166,121,155,103,0,0,,,68,54,9,9,1.2,1.2
2025-12-20T0500,1212A,118.989,33.6067,淮安市,市监测站,细颗粒物(PM2.5),206,168,118,156,106,8,8,,,,47,10,12,1.5,1.5
2025-12-20T0500,1213A,119.135,33.5039,淮安市,楚州区监测站,细颗粒物(PM2.5),217,176,123,167,103,3,3,,,60,50,9,10,1.5,1.2
2025-12-20T0500,3426A,118.8755,33.2894,淮安市,新华书店,细颗粒物(PM2.5),199,180,137,149,107,20,20,,,45,43,10,12,1.0,1
2025-12-20T0500,4206A,119.0288,33.6319,淮安市,承德北路606号,细颗粒物(PM2.5),201,195,141,151,97,4,4,,,63,53,9,10,1.2,1.3
2025-12-20T0500,2282A,116.8004,33.975,淮北市,监测站,细颗粒物(PM2.5),244,264,196,194,144,21,21,,,34,37,7,9,1.2,1
2025-12-20T0500,2283A,116.8091,33.9007,淮北市,烈山区政府,细颗粒物(PM2.5),248,241,146,198,146,25,25,,,30,35,8,11,1.1,0.8
2025-12-20T0500,3330A,116.8873,33.9836,淮北市,杜集区检察院,细颗粒物(PM2.5),264,231,170,214,146,18,18,,,30,31,4,8,1.3,1.1
2025-12-20T0500,4017A,116.7923,33.9535,淮北市,市博物馆,细颗粒物(PM2.5),249,258,193,199,153,22,22,,,32,36,8,11,1.3,1.1
2025-12-20T0500,2277A,116.8305,32.7727,淮南市,潘集区政府,细颗粒物(PM2.5),241,229,152,191,120,7,7,,,38,28,4,7,1.2,0.8
2025-12-20T0500,2279A,116.8569,32.5951,淮南市,谢家集区政府,细颗粒物(PM2.5),221,212,135,171,99,10,10,,,41,33,8,9,1.0,0.7
2025-12-20T0500,2280A,116.8281,32.633,淮南市,八公山区政府,细颗粒物(PM2.5),230,222,128,180,95,13,13,,,,22,7,6,1.0,0.7
2025-12-20T0500,2281A,116.6325,32.6201,淮南市,焦岗湖风景区管理处,,,,,,,,,,,,,,,,
2025-12-20T0500,2894A,117.0566,32.6531,淮南市,经济技术开发区消防队,细颗粒物(PM2.5),243,236,148,193,114,16,16,,,,38,4,7,1.0,0.8
2025-12-20T0500,3329A,117.0108,32.5893,淮南市,山南新区,细颗粒物(PM2.5),241,249,146,191,101,26,26,,,39,31,3,4,1.0,0.8
2025-12-20T0500,4209A,117.0031,32.6445,淮南市,国庆中路369号,细颗粒物(PM2.5),240,229,143,190,112,9,9,,,36,42,7,12,1.0,0.9
2025-12-20T0500,2446A,114.9028,30.4742,黄冈市,职工中心,细颗粒物(PM2.5),83,82,98,61,70,70,70,,,16,34,6,9,1.0,1.1
2025-12-20T0500,2929A,114.8858,30.4519,黄冈市,红卫路,细颗粒物(PM2.5),85,87,102,63,80,63,63,,,18,30,7,9,0.7,0.9
2025-12-20T0500,3398A,114.9136,30.4445,黄冈市,市林业局,细颗粒物(PM2.5),93,82,105,69,80,69,69,,,17,33,4,6,0.8,1
2025-12-20T0500,2672A,102.0199,35.5102,黄南藏族自治州,同仁县隆务镇,,49,49,64,28,38,51,51,,,3,10,9,14,0.4,0.6
2025-12-20T0500,2295A,118.2903,29.6963,黄山市,延安路89号,,43,36,55,30,41,4,4,,,23,22,3,4,0.5,0.6
2025-12-20T0500,2297A,118.1371,30.2756,黄山市,黄山区政府5号楼,,,58,68,56,55,9,9,,,,18,5,6,0.5,0.6
2025-12-20T0500,4210A,118.3354,29.7203,黄山市,滨江东路7-2号,细颗粒物(PM2.5),65,62,74,47,52,4,4,,,18,27,3,4,0.6,0.7
2025-12-20T0500,2423A,115.0601,30.2313,黄石市,沈家营,细颗粒物(PM2.5),117,151,131,88,85,38,38,,,40,46,7,25,0.8,0.8
2025-12-20T0500,2426A,114.8988,30.2019,黄石市,铁山,细颗粒物(PM2.5),130,128,104,99,94,27,27,,,66,39,6,8,1.0,0.9
2025-12-20T0500,2427A,115.0307,30.2092,黄石市,团城山,细颗粒物(PM2.5),129,163,135,98,96,42,42,,,33,41,8,9,1.0,1
2025-12-20T0500,3149A,115.0235,30.1578,黄石市,笔架山北路,细颗粒物(PM2.5),172,216,162,130,94,10,10,,,67,28,26,17,1.5,1.3
2025-12-20T0500,4185A,115.0780,30.21118,黄石市,磁湖东路29号,细颗粒物(PM2.5),159,148,154,121,112,20,20,,,30,47,7,12,1.2,1.4
2025-12-20T0500,1392A,114.4183,23.0528,惠州市,河南岸金山湖子站,,30,30,33,15,23,20,20,,,22,23,2,3,0.5,0.6
2025-12-20T0500,1393A,114.4053,23.0822,惠州市,下埔横江三路子站,,,27,32,20,23,29,29,,,15,14,,6,0.7,0.7
2025-12-20T0500,1394A,114.4103,23.1142,惠州市,江北云山西路子站,,28,26,31,19,22,30,30,,,20,21,7,6,0.6,0.6
2025-12-20T0500,1395A,114.4645,22.7833,惠州市,惠阳区承修路船湖子站,,,32,45,22,29,23,23,,,,21,6,6,0.6,0.7
2025-12-20T0500,1396A,114.5317,22.7422,惠州市,大亚湾管委会子站,,,28,39,19,26,28,28,,,,22,5,5,0.5,0.6
2025-12-20T0500,3314A,114.4338,22.8134,惠州市,惠阳秋长,,,29,39,21,29,25,25,,,18,21,,11,0.5,0.5
2025-12-20T0500,3452A,114.6517,22.775,惠州市,大亚湾霞涌,,15,14,31,9,18,47,47,,,9,16,3,4,0.4,0.5
2025-12-20T0500,2240A,130.9762,45.3001,鸡西市,环保局,颗粒物(PM10),54,58,97,10,56,58,58,,,2,27,8,10,0.3,0.7
2025-12-20T0500,2243A,130.9429,45.3039,鸡西市,第一中学,,39,39,68,8,38,56,56,,,4,26,6,7,0.2,0.5
2025-12-20T0500,3707A,131.0207,45.3073,鸡西市,欧美日汽修厂,,37,37,115,12,66,57,57,,,4,27,8,15,0.2,0.4
2025-12-20T0500,3709A,130.9967,45.3106,鸡西市,市政设施管理处,颗粒物(PM10),54,57,104,10,55,58,58,,,5,30,11,14,0.1,0.6
2025-12-20T0500,2367A,114.9754,27.0803,吉安市,红声器材厂,颗粒物(PM10),59,68,71,38,42,0,0,,,48,35,6,7,0.7,0.8
2025-12-20T0500,2368A,114.9658,27.0999,吉安市,市森林工业局,细颗粒物(PM2.5),54,55,71,38,45,0,0,,,32,32,8,9,1.0,0.7
2025-12-20T0500,2369A,114.99,27.1312,吉安市,市环境监测站,"颗粒物(PM10),细颗粒物(PM2.5)",57,63,69,40,45,2,2,,,43,35,15,14,0.5,0.6
2025-12-20T0500,2370A,115.0093,27.0968,吉安市,青原区法院,颗粒物(PM10),54,58,67,36,41,0,0,,,53,40,9,10,0.7,0.7
2025-12-20T0500,1772A,126.54,43.8622,吉林市,哈达湾,,44,44,43,15,20,44,44,,,10,11,9,6,0.7,0.9
2025-12-20T0500,1773A,126.5844,43.8358,吉林市,东局子,,37,37,36,6,18,42,42,,,9,11,12,14,0.5,0.7
2025-12-20T0500,1774A,126.5052,43.8245,吉林市,电力学院,,34,34,37,15,26,40,40,,,11,14,8,10,0.4,0.4
2025-12-20T0500,1775A,126.6133,43.8972,吉林市,江北,,35,35,42,13,24,26,26,,,21,14,5,7,0.9,0.9
2025-12-20T0500,1776A,126.555,43.8306,吉林市,江南公园,,,26,35,10,23,36,36,,,,12,8,7,0.4,0.5
2025-12-20T0500,1778A,126.7061,43.7133,吉林市,丰满,,30,30,26,8,21,41,41,,,6,8,7,6,0.5,0.6
2025-12-20T0500,2868A,126.4739,43.953,吉林市,九站,,,30,48,12,23,41,41,,,,16,5,7,0.5,0.6
2025-12-20T0500,1299A,116.9862,36.6114,济南市,科干所,颗粒物(PM10),60,70,191,42,127,46,46,,,26,56,4,7,0.7,1.3
2025-12-20T0500,1300A,116.9376,36.665,济南市,农科所,细颗粒物(PM2.5),240,227,211,190,161,1,1,,,72,59,2,3,1.4,1.2
2025-12-20T0500,1301A,117.1265,36.6734,济南市,开发区,细颗粒物(PM2.5),95,98,190,71,146,36,36,,,31,55,3,4,0.8,1.1
2025-12-20T0500,1303A,117.0624,36.6868,济南市,省种子仓库,细颗粒物(PM2.5),180,175,217,136,160,15,15,,,55,60,5,6,1.1,1.2
2025-12-20T0500,1304A,116.9489,36.6447,济南市,机床二厂,细颗粒物(PM2.5),140,129,209,107,173,20,20,,,41,48,7,8,0.8,1.1
2025-12-20T0500,1305A,117.0495,36.663,济南市,市监测站,,,83,199,54,150,39,39,,,24,52,,2,0.7,1.1
2025-12-20T0500,1306A,116.7675,36.5484,济南市,长清党校,细颗粒物(PM2.5),201,208,217,151,157,4,4,,,61,46,6,6,1.1,1.2
2025-12-20T0500,1616A,117.6795,36.229,济南市,技术学院,细颗粒物(PM2.5),58,56,153,41,116,48,48,,,29,42,4,9,0.6,1.2
2025-12-20T0500,1961A,117.532,36.6868,济南市,东山小学,细颗粒物(PM2.5),129,129,199,98,147,25,25,,,34,36,4,6,0.9,1.1
2025-12-20T0500,3059A,117.7161,36.2049,济南市,泰兴公司,细颗粒物(PM2.5),67,75,166,48,134,55,55,,,28,46,6,10,0.6,1
2025-12-20T0500,3064A,117.6867,36.2171,济南市,莱芜战役纪念馆,细颗粒物(PM2.5),65,63,161,47,129,55,55,,,26,41,6,11,0.4,0.8
2025-12-20T0500,3494A,117.1673,36.9782,济南市,济阳区政府,细颗粒物(PM2.5),250,239,217,200,168,7,7,,,65,54,7,6,1.2,1.1
2025-12-20T0500,3495A,117.1171,36.63,济南市,锦屏中学,细颗粒物(PM2.5),68,76,165,49,122,47,47,,,24,48,3,4,0.8,1.2
2025-12-20T0500,3682A,116.9814,36.6819,济南市,济南四建,细颗粒物(PM2.5),204,188,203,154,155,2,2,,,60,48,5,6,1.3,1.4
2025-12-20T0500,1653A,116.6251,35.4302,济宁市,火炬城,细颗粒物(PM2.5),223,200,188,173,166,11,11,,,41,36,6,7,1.0,1
2025-12-20T0500,1655A,116.5491,35.4042,济宁市,电化厂,细颗粒物(PM2.5),228,256,244,178,161,8,8,,,50,43,7,7,0.9,0.9
2025-12-20T0500,3500A,116.5814,35.3707,济宁市,北湖一中,细颗粒物(PM2.5),220,196,181,170,164,11,11,,,39,35,8,8,1.1,1.1
2025-12-20T0500,3501A,116.8249,35.5593,济宁市,服务中心,细颗粒物(PM2.5),189,227,206,142,147,8,8,,,38,35,9,11,0.7,0.7
2025-12-20T0500,3678A,116.5907,35.4054,济宁市,市第七中学,细颗粒物(PM2.5),203,180,174,153,150,12,12,,,45,40,12,10,1.1,1.1
2025-12-20T0500,2255A,130.2751,46.8028,佳木斯市,佳纺,颗粒物(PM10),51,52,45,21,30,48,48,,,8,18,2,2,0.2,0.5
2025-12-20T0500,2256A,130.3995,46.8307,佳木斯市,发电厂,,,,,,,,,,,,,,,,
2025-12-20T0500,2257A,130.3258,46.7975,佳木斯市,环保局,颗粒物(PM10),57,63,42,17,29,51,51,,,9,22,2,2,0.5,0.4
2025-12-20T0500,2258A,130.3648,46.8032,佳木斯市,十一中,,,,,,,,,,,,,,,,
2025-12-20T0500,2259A,130.3794,46.7588,佳木斯市,四丰,,,,,,,,,,,,,,,,
2025-12-20T0500,1252A,120.7436,30.778,嘉兴市,清河小学,,,89,78,59,44,2,2,,,,47,6,6,0.5,0.4
2025-12-20T0500,1253A,120.726,30.7478,嘉兴市,嘉兴学院,"颗粒物(PM10),细颗粒物(PM2.5)",77,103,88,56,44,0,0,,,79,48,8,8,0.6,0.5
2025-12-20T0500,2872A,120.7846,30.7525,嘉兴市,南湖区残联,细颗粒物(PM2.5),77,78,62,56,42,26,26,,,42,37,4,5,0.4,0.3
2025-12-20T0500,3407A,120.6916,30.7739,嘉兴市,秀洲住建,细颗粒物(PM2.5),84,90,82,62,48,1,1,,,76,46,7,7,0.6,0.5
2025-12-20T0500,1945A,98.2908,39.7711,嘉峪关市,气象局,,36,36,55,24,25,68,68,,,4,11,5,12,0.5,0.8
2025-12-20T0500,2884A,98.2672,39.7978,嘉峪关市,酒钢宾馆,,39,34,64,27,30,41,41,,,22,20,11,31,0.5,1.1
2025-12-20T0500,3248A,98.2643,39.7724,嘉峪关市,雄关区,,43,37,54,30,30,66,66,,,8,20,8,16,0.3,0.6
2025-12-20T0500,1383A,113.1064,22.6058,江门市,北街,颗粒物(PM10),53,56,72,34,48,3,3,,,60,59,7,8,0.6,0.7
2025-12-20T0500,1384A,113.0731,22.5835,江门市,西区,,,65,75,33,50,0,0,,,,57,7,8,0.6,0.7
2025-12-20T0500,1385A,113.0219,22.5311,江门市,圭峰西,,,46,67,37,50,9,9,,,,43,7,6,0.6,0.6
2025-12-20T0500,1386A,113.0828,22.5947,江门市,东湖,细颗粒物(PM2.5),67,55,76,48,44,2,2,,,59,52,5,6,0.4,0.5
2025-12-20T0500,3311A,113.1075,22.5647,江门市,江海富民,细颗粒物(PM2.5),77,91,97,56,53,2,2,,,62,57,6,7,0.5,0.6
2025-12-20T0500,3449A,113.05,22.4667,江门市,新会银湖,细颗粒物(PM2.5),67,63,64,48,48,0,0,,,64,43,6,6,0.6,0.6
2025-12-20T0500,1830A,113.1992,35.2590,焦作市,影视城,,,,174,,125,,,49,,,46,,4,,1.3
2025-12-20T0500,3335A,113.3137,35.2641,焦作市,马村街道办,细颗粒物(PM2.5),238,219,212,188,171,1,1,,,48,46,7,6,2.1,1.8
2025-12-20T0500,3336A,113.2465,35.2373,焦作市,焦作技师学院,细颗粒物(PM2.5),245,245,235,195,177,0,0,,,56,51,9,9,2.2,1.8
2025-12-20T0500,3477A,113.1656,35.2539,焦作市,中站许衡医院,细颗粒物(PM2.5),110,,199,83,161,30,30,,,27,49,7,8,1.2,1.9
2025-12-20T0500,3981A,113.2449,35.1803,焦作市,原李万街道办,细颗粒物(PM2.5),230,214,210,180,167,1,1,,,46,46,7,8,1.9,1.7
2025-12-20T0500,4264A,113.2340,35.2190,焦作市,新安路1731号,细颗粒物(PM2.5),243,225,222,193,178,0,0,,,54,50,8,8,2.1,1.8
2025-12-20T0500,4295A,113.2722,35.2121,焦作市,人民路3066号,细颗粒物(PM2.5),210,246,222,160,146,1,1,,,,48,7,6,1.8,1.6
2025-12-20T0500,1708A,116.3701,23.5345,揭阳市,新兴,细颗粒物(PM2.5),64,50,62,46,55,2,2,,,45,42,25,9,0.7,0.9
2025-12-20T0500,1709A,116.3264,23.5443,揭阳市,西马,细颗粒物(PM2.5),64,,63,46,53,2,2,,,43,38,20,5,0.7,0.8
2025-12-20T0500,1710A,116.3611,23.5626,揭阳市,东兴,,,56,68,50,60,3,3,,,,44,28,10,0.9,1
2025-12-20T0500,1711A,116.4151,23.5294,揭阳市,渔湖,细颗粒物(PM2.5),57,47,49,40,29,1,1,,,43,37,13,11,0.8,0.8
2025-12-20T0500,3320A,116.403,23.5699,揭阳市,曲溪,颗粒物(PM10),52,54,47,35,29,6,6,,,31,30,21,4,0.7,0.7
2025-12-20T0500,1944A,102.1692,38.5167,金昌市,天庆家园,,18,17,46,9,12,57,57,,,11,8,3,4,0.4,0.4
2025-12-20T0500,4022A,102.1647,38.5371,金昌市,金川区人防中心,,22,8,49,8,15,69,69,,,4,5,3,5,0.3,0.4
2025-12-20T0500,4239A,102.1930,38.5319,金昌市,长春路96号,,25,25,45,10,12,70,70,,,7,6,4,8,0.5,0.5
2025-12-20T0500,1262A,119.647,29.077,金华市,十五中,细颗粒物(PM2.5),74,84,170,54,114,2,2,,,48,87,4,5,0.9,1.3
2025-12-20T0500,1263A,119.686,29.1029,金华市,监测站,,,110,213,,15,0,0,,,47,81,7,7,0.8,1.3
2025-12-20T0500,3659A,119.656,29.1131,金华市,气象局,颗粒物(PM10),111,171,199,82,89,2,2,,,70,99,6,24,1.3,1.3
2025-12-20T0500,1767A,121.1115,41.0879,锦州市,南山,,31,31,96,8,99,63,63,,,12,49,11,12,0.4,1.1
2025-12-20T0500,1768A,121.0604,40.8428,锦州市,开发区,,31,31,112,11,97,49,49,,,19,58,9,19,0.7,1.2
2025-12-20T0500,1769A,121.1836,41.1119,锦州市,百股街道,,26,26,110,3,94,54,54,,,14,42,8,10,0.4,1.1
2025-12-20T0500,1770A,121.1178,41.1222,锦州市,天安街道,,25,25,100,3,94,70,70,,,7,36,8,14,0.4,1.4
2025-12-20T0500,1771A,121.1303,41.1386,锦州市,北湖公园,,20,20,100,3,91,60,60,,,7,34,8,14,0.4,1.2
2025-12-20T0500,2160A,112.85,35.5051,晋城市,自来水公司,颗粒物(PM10),56,61,97,19,60,45,45,,,16,30,8,8,0.6,1.2
2025-12-20T0500,2161A,112.8318,35.4936,晋城市,白云商贸,,,56,101,7,48,49,49,,,,25,6,6,0.4,1.1
2025-12-20T0500,2162A,112.8508,35.4887,晋城市,市环保局,颗粒物(PM10),55,59,99,12,53,52,52,,,9,25,9,8,0.7,1.3
2025-12-20T0500,2163A,112.8676,35.4897,晋城市,技术学院,颗粒物(PM10),60,69,97,12,53,46,46,,,19,34,9,10,0.6,1.2
2025-12-20T0500,2165A,112.8453,35.546,晋城市,白马寺,,46,39,80,32,60,47,47,,,18,17,11,11,0.4,0.9
2025-12-20T0500,3620A,112.8271,35.4828,晋城市,泽州一中,,49,49,95,7,56,56,56,,,17,35,7,6,0.4,0.9
2025-12-20T0500,2173A,112.7249,37.7067,晋中市,南都小区,颗粒物(PM10),51,51,106,21,55,65,65,,,8,45,6,15,0.3,0.9
2025-12-20T0500,2174A,112.6991,37.6982,晋中市,榆次区政府,,,34,105,13,62,64,64,,,,49,8,22,0,0.8
2025-12-20T0500,2865A,112.7195,37.6828,晋中市,榆次三中,,39,39,110,3,59,68,68,,,9,44,8,17,0.4,1.5
2025-12-20T0500,4200A,112.7478,37.6954,晋中市,迎宾街26号,,,41,105,3,60,66,66,,,,49,8,17,0.3,1.1
2025-12-20T0500,2439A,112.2014,31.0481,荆门市,竹园小学,细颗粒物(PM2.5),127,120,129,96,97,83,83,,,21,32,,2,0.5,0.6
2025-12-20T0500,2440A,112.1969,30.9891,荆门市,掇刀,细颗粒物(PM2.5),122,124,137,92,99,91,91,,,15,33,,5,0.6,0.8
2025-12-20T0500,2441A,112.2213,31.0386,荆门市,石化一小,细颗粒物(PM2.5),123,126,151,93,104,76,76,,,22,41,7,7,0.7,1
2025-12-20T0500,3012A,112.1849,31.0362,荆门市,西山林语,细颗粒物(PM2.5),119,120,120,90,86,92,92,,,18,27,,7,0.9,1
2025-12-20T0500,3547A,112.1632,31.0138,荆门市,龙泉中学南校,细颗粒物(PM2.5),104,124,133,78,97,101,101,,,16,25,,10,0.6,0.4
2025-12-20T0500,1844A,112.2494,30.3197,荆州市,市图书馆,细颗粒物(PM2.5),109,90,91,82,80,63,63,,,19,22,9,7,0.8,0.9
2025-12-20T0500,1845A,112.2008,30.3544,荆州市,市委党校,细颗粒物(PM2.5),109,94,107,82,91,56,56,,,24,33,7,4,0.9,1
2025-12-20T0500,3194A,112.2747,30.3122,荆州市,管委会,细颗粒物(PM2.5),99,85,93,74,82,60,60,,,18,23,8,6,0.8,1
2025-12-20T0500,4268A,112.1722,30.3366,荆州市,学苑路85号,细颗粒物(PM2.5),109,101,116,82,92,65,65,,,20,25,6,5,0.9,1
2025-12-20T0500,2342A,117.3102,29.3867,景德镇市,王港中学,,,,,,,,,,,,,,,,
2025-12-20T0500,2343A,117.2117,29.2933,景德镇市,老干部活动中心,细颗粒物(PM2.5),59,48,73,42,55,5,5,,,41,37,7,10,0.9,1
2025-12-20T0500,2344A,117.1894,29.2789,景德镇市,兽医站,,,67,77,48,49,1,1,,,,35,7,9,0.8,1
2025-12-20T0500,2346A,117.2461,29.2956,景德镇市,陶研所,细颗粒物(PM2.5),62,54,63,44,50,1,1,,,29,33,3,5,0.8,0.9
2025-12-20T0500,4289A,117.1542,29.2566,景德镇市,青少年活动中心,细颗粒物(PM2.5),67,59,82,48,50,7,7,,,39,42,6,14,0.9,0.9
2025-12-20T0500,1803A,115.9872,29.6815,九江市,十里,细颗粒物(PM2.5),107,106,115,80,84,5,5,,,,63,6,7,1.5,1.5
2025-12-20T0500,1804A,115.9584,29.7046,九江市,茅山头,细颗粒物(PM2.5),122,120,128,92,89,2,2,,,83,57,8,7,1.2,1.5
2025-12-20T0500,1805A,115.9877,29.7295,九江市,西园,细颗粒物(PM2.5),122,133,124,92,88,5,5,,,,90,9,7,1.1,1.1
2025-12-20T0500,1808A,115.9114,29.6038,九江市,综合工业园,细颗粒物(PM2.5),152,142,118,116,94,12,12,,,84,62,5,5,0.9,0.9
2025-12-20T0500,1809A,116.0721,29.7535,九江市,石化总厂,细颗粒物(PM2.5),133,125,134,101,96,6,6,,,102,49,14,13,1.0,1
2025-12-20T0500,1810A,115.9773,29.5698,九江市,庐山气象台,,,,,,,,,,,,,,,,
2025-12-20T0500,3190A,116.0254,29.6994,九江市,外国语学校,细颗粒物(PM2.5),137,128,112,104,83,2,2,,,,60,10,10,1.1,1
2025-12-20T0500,4253A,116.0102,29.6594,九江市,莲花大道8号,,,89,99,66,73,40,40,,,,25,3,5,0.7,0.8
2025-12-20T0500,4240A,98.4958,39.7339,酒泉市,玉门东路5号,,41,41,57,22,24,68,68,,,2,7,8,9,0.4,0.4
2025-12-20T0500,4241A,98.5099,39.7506,酒泉市,北大街108号,,39,39,52,17,24,58,58,,,10,14,6,7,0.4,0.5
2025-12-20T0500,2698A,76.0072,39.4467,喀什地区,巡警大队,颗粒物(PM10),113,176,187,59,78,49,49,,,32,48,4,8,0.7,1
2025-12-20T0500,2699A,75.9755,39.4694,喀什地区,吾办,颗粒物(PM10),106,162,181,56,68,41,41,,,31,42,5,8,1.1,1.4
2025-12-20T0500,4027A,75.9483,39.4689,喀什地区,老干局,颗粒物(PM10),118,185,210,47,69,53,53,,,20,45,6,9,0.8,1.7
2025-12-20T0500,1824A,114.3389,34.7781,开封市,肿瘤医院,细颗粒物(PM2.5),206,208,198,156,152,11,11,,,45,38,4,3,1.8,1.5
2025-12-20T0500,1826A,114.2885,34.7965,开封市,世纪星幼儿园,细颗粒物(PM2.5),225,219,193,175,172,5,5,,,53,42,3,3,1.7,1.3
2025-12-20T0500,3147A,114.3438,34.8106,开封市,龙亭公园,细颗粒物(PM2.5),223,221,200,173,168,1,1,,,50,43,2,2,1.8,1.2
2025-12-20T0500,3210A,114.3644,34.7964,开封市,汴京公园,细颗粒物(PM2.5),216,254,216,166,162,3,3,,,,44,3,3,1.7,1.3
2025-12-20T0500,3473A,114.2485,34.8306,开封市,技师学院,细颗粒物(PM2.5),196,224,190,147,156,1,1,,,47,39,5,4,2.0,1.4
2025-12-20T0500,3592A,114.4644,34.7556,开封市,祥符区生态环境局,细颗粒物(PM2.5),214,241,221,164,156,9,9,,,45,37,3,3,1.5,1.2
2025-12-20T0500,1951A,84.895,45.6094,克拉玛依市,长征新村,,14,9,28,6,18,36,36,,,27,20,5,4,0.2,0.3
2025-12-20T0500,1952A,84.8988,45.5893,克拉玛依市,南林小区,,12,8,30,3,16,36,36,,,19,14,4,3,0.3,0.4
2025-12-20T0500,1954A,84.905,44.3396,克拉玛依市,独山子区,,43,43,27,27,14,36,36,,,20,21,6,6,0.5,0.4
2025-12-20T0500,1955A,85.6979,46.098,克拉玛依市,乌尔禾区商贸楼,,20,,10,14,11,22,22,,,28,12,4,4,0.5,0.3
2025-12-20T0500,3612A,85.1045,45.6899,克拉玛依市,白碱滩区新站,,14,14,31,7,16,37,37,,,19,13,8,6,0.3,0.4
2025-12-20T0500,2697A,76.1454,39.7142,克孜勒苏柯尔克孜自治州,市人民政府,颗粒物(PM10),106,162,175,46,58,49,49,,,9,21,6,7,0.4,0.4
2025-12-20T0500,3665A,76.1658,39.7157,克孜勒苏柯尔克孜自治州,克州文化中心,颗粒物(PM10),104,157,162,55,52,35,35,,,34,28,8,9,0.6,0.8
2025-12-20T0500,1450A,102.8204,24.8886,昆明市,呈贡新区,,22,22,22,12,10,26,26,,,30,17,12,6,0.5,0.3
2025-12-20T0500,1451A,102.6251,24.9608,昆明市,西山森林公园,,,,,,,,,,,,,,,,
2025-12-20T0500,1452A,102.7252,25.0902,昆明市,龙泉镇,,48,48,36,22,17,0,0,,,30,26,2,3,0.5,0.5
2025-12-20T0500,1453A,102.7266,25.0375,昆明市,东风东路,,33,25,31,23,25,21,21,,,24,22,6,6,0.5,0.5
2025-12-20T0500,1454A,102.6742,25.0669,昆明市,金鼎山,,48,48,44,21,20,3,3,,,34,25,3,4,0.8,0.8
2025-12-20T0500,1455A,102.6644,25.0401,昆明市,碧鸡广场,,38,38,35,23,24,4,4,,,38,26,2,4,0.5,0.5
2025-12-20T0500,3179A,102.7494,25.0119,昆明市,官渡区博物馆,,26,21,39,18,21,15,15,,,24,26,3,4,0.5,0.7
2025-12-20T0500,3375A,102.8017,24.8336,昆明市,青年创业园,,25,25,16,11,9,4,4,,,30,18,2,2,0.4,0.4
2025-12-20T0500,3550A,102.7997,24.9786,昆明市,昆明学院,,21,21,23,12,14,26,26,,,20,17,2,3,0.3,0.4
2025-12-20T0500,3551A,102.5967,24.6736,昆明市,晋宁区生态环境分局,,18,17,21,12,12,27,27,,,14,11,2,3,0.4,0.4
2025-12-20T0500,3552A,102.6678,24.9856,昆明市,云天化总部,,29,29,29,16,17,11,11,,,31,26,5,7,0.3,0.4
2025-12-20T0500,1456A,91.1319,29.6514,拉萨市,八廓街,,16,13,40,7,29,49,49,,,16,35,16,15,0.5,1.1
2025-12-20T0500,1457A,91.1221,29.6747,拉萨市,市环保局,,49,49,77,32,44,7,7,,,37,40,7,13,1.9,2.2
2025-12-20T0500,1458A,91.0874,29.6475,拉萨市,区监测站,,26,26,33,14,21,26,26,,,38,49,12,13,1.6,1.7
2025-12-20T0500,1459A,91.1774,29.6541,拉萨市,西藏大学,,22,22,34,9,24,53,53,,,16,33,18,15,0.2,0.6
2025-12-20T0500,1460A,90.9798,29.6588,拉萨市,区辐射站,,25,25,67,8,47,17,17,,,46,49,5,12,1.0,1.1
2025-12-20T0500,1461A,91.0834,29.6292,拉萨市,拉萨火车站,,29,29,37,20,24,16,16,,,55,44,8,10,1.2,0.9
2025-12-20T0500,2520A,109.2203,23.7256,来宾市,来宾技工学校,细颗粒物(PM2.5),74,83,81,54,53,4,4,,,31,30,5,12,0.8,0.8
2025-12-20T0500,3535A,109.1781,23.7297,来宾市,兴宾区政府,细颗粒物(PM2.5),64,63,64,46,46,32,32,,,13,17,5,7,0.7,0.7
2025-12-20T0500,4002A,109.2416,23.7461,来宾市,中南小学,细颗粒物(PM2.5),63,68,78,45,50,0,0,,,46,36,4,8,0.7,0.9
2025-12-20T0500,1477A,104.1373,35.9454,兰州市,榆中兰大校区,,,,,,,,,,,,,,,,
2025-12-20T0500,1479A,103.831,36.0464,兰州市,铁路设计院,,,,,,,,,,,,,,,,
2025-12-20T0500,3241A,103.7439,36.0842,兰州市,百合公园,,41,41,60,18,28,69,69,,,5,29,9,11,0.0,0.5
2025-12-20T0500,3242A,103.9611,35.998,兰州市,和平,,40,40,64,3,27,54,54,,,2,16,4,9,0.3,0.6
2025-12-20T0500,4236A,103.6293,36.0938,兰州市,庄浪东路808号,颗粒物(PM10),52,54,72,26,34,74,74,,,3,31,8,14,0.2,0.6
2025-12-20T0500,4237A,103.7251,36.1043,兰州市,安宁西路88号,颗粒物(PM10),64,77,79,30,32,77,77,,,6,33,2,9,0.2,0.6
2025-12-20T0500,4238A,103.8470,36.0676,兰州市,北滨河东路1号,,49,49,64,31,32,75,75,,,10,30,5,11,0.4,0.8
2025-12-20T0500,3245A,103.6633,36.533,兰州新区,新区管委会,颗粒物(PM10),51,51,57,17,22,72,72,,,7,15,9,14,0.2,0.3
2025-12-20T0500,3246A,103.6975,36.4789,兰州新区,舟曲中学,颗粒物(PM10),53,56,50,13,11,82,82,,,5,15,2,7,0.2,0.3
2025-12-20T0500,1067A,116.6708,39.5111,廊坊市,药材公司,,,23,159,,118,55,55,,,17,35,1,2,0.4,0.9
2025-12-20T0500,1068A,116.7214,39.5589,廊坊市,开发区,,18,13,113,3,85,55,55,,,23,40,3,2,0.2,0.6
2025-12-20T0500,1070A,116.7244,39.5269,廊坊市,北华航天学院,,17,16,136,3,92,53,53,,,14,33,3,2,0.2,0.7
2025-12-20T0500,2919A,116.7022,39.5453,廊坊市,河北工业大学,,16,16,144,3,90,50,50,,,20,36,1,3,0.2,0.7
2025-12-20T0500,2535A,103.7723,29.5462,乐山市,花湖湾,,,,,,,,,,,,,,,,
2025-12-20T0500,2536A,103.7627,29.5844,乐山市,牛耳桥,细颗粒物(PM2.5),134,122,141,102,96,18,18,,,29,36,7,8,0.9,1.1
2025-12-20T0500,2537A,103.7508,29.6006,乐山市,市第三水厂,细颗粒物(PM2.5),127,122,137,96,110,20,20,,,25,38,6,7,0.9,1.1
2025-12-20T0500,2538A,103.7571,29.5664,乐山市,市监测站,细颗粒物(PM2.5),135,124,139,103,114,14,14,,,30,33,8,9,1.0,1.1
2025-12-20T0500,3361A,103.7311,29.5628,乐山市,理工大学,细颗粒物(PM2.5),127,112,130,96,107,18,18,,,23,32,5,5,0.9,1.1
2025-12-20T0500,2598A,100.2143,26.8576,丽江市,西南郊,,,,,,,,,,,,,,,,
2025-12-20T0500,2599A,100.2497,26.8802,丽江市,丽江古城,,20,11,27,6,11,64,64,,,7,12,8,8,0.4,0.4
2025-12-20T0500,2600A,100.2203,26.8906,丽江市,市中心,,16,,20,3,10,50,50,,,8,15,6,6,0.3,0.4
2025-12-20T0500,1267A,119.914,28.4514,丽水市,监测站大楼,,,44,67,34,42,0,0,,,31,43,,8,0.6,0.9
2025-12-20T0500,1268A,119.93,28.4586,丽水市,莲都小学,颗粒物(PM10),59,68,76,32,35,0,0,,,33,44,5,6,0.5,0.7
2025-12-20T0500,1269A,119.879,28.4231,丽水市,余庄前,细颗粒物(PM2.5),70,57,60,51,42,0,0,,,14,29,4,5,0.5,0.5
2025-12-20T0500,1173A,119.176,34.5885,连云港市,市环境监测站,细颗粒物(PM2.5),221,197,138,171,107,32,32,,,36,51,14,12,1.4,0.8
2025-12-20T0500,3000A,119.3581,34.6972,连云港市,德源药业,细颗粒物(PM2.5),218,234,151,168,96,34,34,,,37,56,8,7,1.7,1
2025-12-20T0500,3007A,119.178,34.844,连云港市,新城一中,细颗粒物(PM2.5),208,183,144,158,120,34,34,,,37,65,15,13,1.2,1.1
2025-12-20T0500,3008A,119.3608,34.7519,连云港市,胡沟管理处,细颗粒物(PM2.5),213,219,133,163,95,23,23,,,43,57,13,10,2.5,0.9
2025-12-20T0500,3009A,119.1478,34.5911,连云港市,矿山设计院,细颗粒物(PM2.5),208,207,142,158,98,34,34,,,34,49,13,12,1.6,1.2
2025-12-20T0500,3434A,119.2413,34.6539,连云港市,工贸学校,细颗粒物(PM2.5),236,230,160,186,106,25,25,,,44,47,17,12,2.5,1.1
2025-12-20T0500,3664A,119.4172,34.7341,连云港市,连云街道,细颗粒物(PM2.5),215,214,143,165,98,31,31,,,,60,8,10,1.2,0.9
2025-12-20T0500,2571A,102.3431,27.8099,凉山彝族自治州,青龙寺,,,,,,,,,,,,,,,,
2025-12-20T0500,2572A,102.2721,27.8415,凉山彝族自治州,邛海宾馆,细颗粒物(PM2.5),57,52,61,40,41,33,33,,,15,21,17,17,1.0,1
2025-12-20T0500,2573A,102.2625,27.898,凉山彝族自治州,西昌市政府,,45,36,50,31,39,30,30,,,14,19,6,12,0.8,0.9
2025-12-20T0500,2574A,102.2685,27.8851,凉山彝族自治州,凉山州政府,细颗粒物(PM2.5),54,46,65,38,42,22,22,,,19,25,8,14,0.8,1
2025-12-20T0500,4229A,102.2342,27.8859,凉山彝族自治州,凯乐南路30号,,,85,87,57,57,1,1,,,,48,7,13,1.2,1.4
2025-12-20T0500,2212A,123.2,41.1953,辽阳市,宏伟区,,26,20,69,18,48,61,61,,,6,20,6,8,0.2,0.8
2025-12-20T0500,2213A,123.1683,41.2495,辽阳市,新华园,,20,8,76,6,51,62,62,,,7,26,6,10,0.3,0.9
2025-12-20T0500,2214A,123.2354,41.2639,辽阳市,滨河路,,26,26,81,10,54,50,50,,,6,22,7,8,0.4,0.9
2025-12-20T0500,2215A,123.149,41.2991,辽阳市,铁西工业园,,17,17,83,8,59,51,51,,,8,30,5,10,0.3,1
2025-12-20T0500,2227A,125.1358,42.8845,辽源市,环保局,,48,48,67,24,28,43,43,,,12,14,8,5,0.7,0.7
2025-12-20T0500,3239A,125.0764,42.9078,辽源市,银鹰制药,,,36,49,17,30,32,32,,,,17,10,5,0.7,0.6
2025-12-20T0500,1625A,115.9848,36.4372,聊城市,区政府,细颗粒物(PM2.5),227,210,199,177,164,14,14,,,60,48,12,9,1.3,1.4
2025-12-20T0500,2878A,116.0072,36.4343,聊城市,聊大东校,细颗粒物(PM2.5),236,234,215,186,167,11,11,,,,46,12,8,1.5,1.5
2025-12-20T0500,3200A,115.9819,36.4978,聊城市,监控中心,细颗粒物(PM2.5),267,251,204,217,172,8,8,,,49,35,9,9,1.7,1.5
2025-12-20T0500,3513A,116.0445,36.4361,聊城市,九州社区,细颗粒物(PM2.5),232,230,207,182,161,14,14,,,,36,4,2,1.3,1.3
2025-12-20T0500,4018A,116.0567,36.4608,聊城市,星美广场,细颗粒物(PM2.5),252,260,217,202,167,11,11,,,44,36,4,2,1.4,1.3
2025-12-20T0500,2632A,94.3681,29.6376,林芝市,林芝监测站,,16,16,20,7,9,32,32,,,9,15,5,5,0.4,0.4
2025-12-20T0500,2633A,94.3616,29.6616,林芝市,林芝人民医院,,,,,,,,,,,,,,,,
2025-12-20T0500,2603A,100.0781,23.8982,临沧市,市环保局,细颗粒物(PM2.5),55,,29,39,37,12,12,,,7,10,6,8,0.5,0.5
2025-12-20T0500,2604A,100.0894,23.8822,临沧市,市气象局,,,,29,,17,,,,,,12,,7,,0.4
2025-12-20T0500,1733A,111.5531,36.0783,临汾市,临钢医院,,23,17,128,3,74,71,71,,,9,33,4,9,0.4,1.3
2025-12-20T0500,1734A,111.5028,36.0714,临汾市,技工学校,,22,20,134,3,79,68,68,,,6,37,4,10,0.2,1.4
2025-12-20T0500,1736A,111.5018,36.0855,临汾市,市委,,25,25,137,3,80,75,75,,,9,37,8,12,0.5,1.6
2025-12-20T0500,3018A,111.505,36.1014,临汾市,唐尧大酒店,,,25,125,,72,74,74,,,10,36,2,6,0.2,1.1
2025-12-20T0500,4244A,111.4879,36.0530,临汾市,启星学校,,23,20,133,12,87,73,73,,,10,49,6,11,0.7,1.9
2025-12-20T0500,4271A,103.2464,35.6123,临夏回族自治州,滨河东路1号,颗粒物(PM10),52,53,129,9,59,54,54,,,8,30,3,6,0.3,1.2
2025-12-20T0500,4310A,103.2093,35.5995,临夏回族自治州,新华街21号,,37,37,110,11,57,54,54,,,2,18,8,13,0.3,1.1
2025-12-20T0500,1618A,118.3429,35.0532,临沂市,沂河小区,细颗粒物(PM2.5),169,139,191,128,160,43,43,,,31,64,11,17,0.9,1.2
2025-12-20T0500,1619A,118.295,35.0583,临沂市,鲁南制药厂,细颗粒物(PM2.5),159,144,194,121,154,43,43,,,36,68,12,21,1.0,1.5
2025-12-20T0500,1620A,118.2794,34.9976,临沂市,新光毛纺厂,细颗粒物(PM2.5),168,139,197,127,158,41,41,,,35,66,10,22,1.2,1.6
2025-12-20T0500,1621A,118.3956,35.0888,临沂市,河东保险公司,细颗粒物(PM2.5),118,119,202,89,143,47,47,,,29,60,12,14,0.8,1.2
2025-12-20T0500,3370A,118.3564,35.0215,临沂市,十里堡居委,细颗粒物(PM2.5),117,132,179,88,123,45,45,,,32,64,10,16,0.9,1.3
2025-12-20T0500,3496A,118.3604,35.1084,临沂市,南坊新区,细颗粒物(PM2.5),140,134,180,107,144,42,42,,,35,59,11,15,1.2,1.5
2025-12-20T0500,3860A,118.3920,35.0300,临沂市,皇山花园小区,细颗粒物(PM2.5),119,132,185,90,128,45,45,,,28,58,12,18,1.0,1.3
2025-12-20T0500,1870A,109.4856,24.3895,柳州市,柳东小学,细颗粒物(PM2.5),82,76,72,60,55,50,50,,,32,26,24,22,0.7,0.6
2025-12-20T0500,1871A,109.4157,24.3277,柳州市,环保监测站,细颗粒物(PM2.5),95,115,90,71,62,11,11,,,45,37,16,12,1.1,1
2025-12-20T0500,1872A,109.389,24.341,柳州市,河西水厂,细颗粒物(PM2.5),100,132,108,75,61,13,13,,,45,39,13,16,0.8,0.8
2025-12-20T0500,1873A,109.4311,24.2921,柳州市,市四中,细颗粒物(PM2.5),87,92,85,64,57,2,2,,,52,44,12,13,0.9,0.9
2025-12-20T0500,1874A,109.4006,24.3631,柳州市,市九中,细颗粒物(PM2.5),89,116,99,66,62,17,17,,,46,40,16,14,1.0,1.1
2025-12-20T0500,1875A,109.4958,24.3134,柳州市,古亭山,"颗粒物(PM10),细颗粒物(PM2.5)",55,60,68,39,43,0,0,,,49,43,9,11,0.8,0.9
2025-12-20T0500,3402A,109.5422,24.3996,柳州市,市二中,细颗粒物(PM2.5),92,71,78,68,58,3,3,,,44,40,12,23,0.8,0.7
2025-12-20T0500,2307A,116.5079,31.737,六安市,监测大楼,细颗粒物(PM2.5),185,158,97,139,82,63,63,,,,39,4,5,0.8,0.8
2025-12-20T0500,2308A,116.4738,31.7643,六安市,皖西学院,细颗粒物(PM2.5),189,163,106,142,82,57,57,,,23,35,2,3,0.8,0.7
2025-12-20T0500,2309A,116.4996,31.7905,六安市,朝阳厂,细颗粒物(PM2.5),173,153,101,131,82,54,54,,,,39,3,4,0.8,0.8
2025-12-20T0500,2310A,116.5567,31.7886,六安市,开发区,细颗粒物(PM2.5),190,199,123,143,83,61,61,,,25,46,2,3,0.9,0.7
2025-12-20T0500,2576A,104.8,26.5892,六盘水市,窑上,,,,50,37,38,39,39,,,6,7,2,3,0.4,0.4
2025-12-20T0500,2577A,104.83,26.5917,六盘水市,黄土坡,,48,39,54,33,37,49,49,,,10,19,6,8,0.5,0.7
2025-12-20T0500,2578A,104.89,26.5939,六盘水市,水钢,,39,37,53,27,39,52,52,,,6,11,2,4,0.3,0.4
2025-12-20T0500,2579A,104.8475,26.5894,六盘水市,民中,,35,34,48,24,37,49,49,,,7,16,4,5,0.5,0.6
2025-12-20T0500,2580A,104.9544,26.5506,六盘水市,双水,,39,34,47,27,36,50,50,,,6,11,3,4,0.1,0.3
2025-12-20T0500,2335A,117.0189,25.1181,龙岩市,龙岩师专,,,,,,,,,,,,,,,,
2025-12-20T0500,2336A,117.0217,25.1033,龙岩市,龙岩市监测站,,,,43,44,48,19,19,,,,29,16,14,0.7,0.8
2025-12-20T0500,2337A,117.0258,25.0661,龙岩市,闽西职业技术学院,,,53,49,52,50,14,14,,,,30,11,10,0.9,0.9
2025-12-20T0500,2338A,117.0196,25.0306,龙岩市,龙岩学院,,,,43,62,50,12,12,,,,28,10,8,0.7,0.7
2025-12-20T0500,2665A,105.0822,33.3261,陇南市,汉王镇固水子,,,,,,,,,,,,,,,,
2025-12-20T0500,2885A,104.9339,33.3826,陇南市,滨江中学,细颗粒物(PM2.5),54,56,91,38,52,26,26,,,31,53,20,18,1.3,1.6
2025-12-20T0500,3247A,104.955,33.371,陇南市,市总工会,颗粒物(PM10),56,61,91,27,45,31,31,,,28,29,9,8,0.8,0.9
2025-12-20T0500,2487A,111.9589,27.8901,娄底市,电视发射台,,,,,,,,,,,,,,,,
2025-12-20T0500,2488A,111.9975,27.725,娄底市,市监测站,,,97,113,70,78,5,5,,,,49,10,9,1.5,1.2
2025-12-20T0500,2489A,112.0194,27.7314,娄底市,市委党校,细颗粒物(PM2.5),98,100,112,73,80,2,2,,,57,50,10,10,1.2,1
2025-12-20T0500,2490A,111.9561,27.7569,娄底市,涟钢,细颗粒物(PM2.5),99,106,105,74,80,24,24,,,22,31,8,20,0.6,0.9
2025-12-20T0500,2491A,111.9892,27.7044,娄底市,市政府,细颗粒物(PM2.5),83,86,97,61,71,14,14,,,20,28,5,8,0.9,1
2025-12-20T0500,1893A,105.4324,28.9634,泸州市,九狮山,,,,,,,,,,,,,,,,
2025-12-20T0500,1894A,105.4427,28.9063,泸州市,小市上码头,细颗粒物(PM2.5),220,182,128,170,82,42,42,,,17,29,12,10,0.8,0.8
2025-12-20T0500,1895A,105.4241,28.8573,泸州市,兰田宪桥,细颗粒物(PM2.5),79,94,116,58,76,40,40,,,12,24,7,8,0.8,0.9
2025-12-20T0500,1896A,105.4379,28.8833,泸州市,市环监站,细颗粒物(PM2.5),85,87,111,63,76,46,46,,,6,24,9,10,0.6,0.8
2025-12-20T0500,4272A,105.3689,28.7783,泸州市,纳溪中医医院,细颗粒物(PM2.5),77,59,90,56,76,44,44,,,10,18,7,8,0.8,0.9
2025-12-20T0500,2183A,111.1406,37.5211,吕梁市,环保局,颗粒物(PM10),60,70,82,17,29,67,67,,,3,36,5,9,0.3,0.7
2025-12-20T0500,2185A,111.1297,37.5136,吕梁市,自来水公司,颗粒物(PM10),59,68,82,18,28,67,67,,,5,30,4,9,0.3,0.7
2025-12-20T0500,2867A,111.1283,37.51,吕梁市,马茂庄小学,颗粒物(PM10),67,83,91,20,30,63,63,,,3,32,4,9,0.3,0.7
2025-12-20T0500,1812A,112.3931,34.6516,洛阳市,市委党校,细颗粒物(PM2.5),220,192,156,170,125,5,5,,,67,49,8,10,1.5,1.2
2025-12-20T0500,1815A,112.494,34.6886,洛阳市,河南林校,细颗粒物(PM2.5),260,212,172,210,156,1,1,,,,50,7,9,1.7,1.3
2025-12-20T0500,1816A,112.3844,34.623,洛阳市,开发区管委会,细颗粒物(PM2.5),234,222,172,184,133,3,3,,,51,34,7,9,1.3,1
2025-12-20T0500,1817A,112.4267,34.6258,洛阳市,市委新办公区,细颗粒物(PM2.5),250,262,187,200,133,2,2,,,57,43,8,10,1.7,1.2
2025-12-20T0500,3340A,112.6005,34.6326,洛阳市,伊滨,细颗粒物(PM2.5),236,253,192,186,140,1,1,,,50,37,7,10,1.8,1.3
2025-12-20T0500,3341A,112.4951,34.6332,洛阳市,中移产业园,细颗粒物(PM2.5),239,219,166,189,136,2,2,,,,50,9,11,1.7,1.2
2025-12-20T0500,3593A,112.5736,34.8993,洛阳市,吉利监测站,细颗粒物(PM2.5),254,221,158,204,142,4,4,,,54,48,6,8,1.6,1.3
2025-12-20T0500,3635A,112.3677,34.662,洛阳市,河科大西苑校区,细颗粒物(PM2.5),178,174,149,134,109,4,4,,,65,49,9,11,1.5,1.3
2025-12-20T0500,3636A,112.4388,34.6781,洛阳市,英才小学,细颗粒物(PM2.5),238,223,176,188,137,0,0,,,64,54,9,13,2.1,1.6
2025-12-20T0500,4214A,112.4600,34.6949,洛阳市,春都路1号院,细颗粒物(PM2.5),229,241,206,179,133,,,,,52,53,6,10,1.9,1.6
2025-12-20T0500,2399A,114.051,33.5699,漯河市,三五一五工厂,细颗粒物(PM2.5),237,239,203,187,160,14,14,,,,31,6,8,1.8,1.3
2025-12-20T0500,2400A,114.0055,33.5698,漯河市,漯河大学,细颗粒物(PM2.5),228,203,177,178,145,17,17,,,41,34,5,7,1.4,1
2025-12-20T0500,2401A,114.0138,33.5828,漯河市,市水利局,细颗粒物(PM2.5),230,219,184,180,146,17,17,,,,34,7,8,1.6,1.2
2025-12-20T0500,2402A,114.0261,33.5698,漯河市,市广电局,细颗粒物(PM2.5),227,217,186,177,148,16,16,,,34,34,6,8,1.6,1.2
2025-12-20T0500,3478A,113.9749,33.5664,漯河市,市图书馆,细颗粒物(PM2.5),234,242,201,184,150,17,17,,,38,31,4,6,1.6,1.1
2025-12-20T0500,4250A,114.0892,33.5882,漯河市,韶山路11号,细颗粒物(PM2.5),239,247,200,189,149,8,8,,,38,34,7,9,1.5,1
2025-12-20T0500,1798A,118.5092,31.6837,马鞍山市,湖东路四小,细颗粒物(PM2.5),145,167,141,111,99,0,0,,,87,71,19,9,1.8,1.5
2025-12-20T0500,1799A,118.5024,31.6449,马鞍山市,开发区,细颗粒物(PM2.5),130,156,145,99,83,0,0,,,81,70,11,8,1.5,1.3
2025-12-20T0500,1802A,118.6245,31.7241,马鞍山市,濮塘,,,,,,,,,,,,,,,,
2025-12-20T0500,3633A,118.4918,31.6809,马鞍山市,雨山,细颗粒物(PM2.5),148,170,152,113,98,0,0,,,86,75,22,13,2.0,1.6
2025-12-20T0500,4191A,118.5274,31.72227,马鞍山市,慈湖高新区,细颗粒物(PM2.5),122,173,142,92,89,0,0,,,92,72,,10,1.2,1.1
2025-12-20T0500,1686A,111.0286,21.4688,茂名市,电白南海,,44,44,53,29,32,58,58,,,18,16,22,12,0.8,0.8
2025-12-20T0500,1687A,110.9294,21.6533,茂名市,茂石化七小,,,51,54,34,29,67,67,,,,20,24,12,0.5,0.5
2025-12-20T0500,1688A,110.9107,21.6687,茂名市,健康路,,,44,46,22,25,69,69,,,,19,23,14,0.9,0.9
2025-12-20T0500,1689A,110.8592,21.6828,茂名市,高岭,颗粒物(PM10),58,66,65,31,27,49,49,,,23,23,22,16,0.6,0.6
2025-12-20T0500,3450A,111.01,21.5165,茂名市,电白水东,,32,29,43,22,25,57,57,,,20,15,10,10,0.8,0.8
2025-12-20T0500,2539A,104.0308,30.0478,眉山市,黑龙滩水库,,,,,,,,,,,,,,,,
2025-12-20T0500,2540A,103.8416,30.0874,眉山市,气象局,细颗粒物(PM2.5),144,130,143,110,119,15,15,,,31,34,9,10,0.8,0.9
2025-12-20T0500,3137A,103.8578,30.0744,眉山市,市委党校,细颗粒物(PM2.5),138,127,138,105,111,16,16,,,29,36,7,8,0.7,0.8
2025-12-20T0500,3148A,103.8291,30.0564,眉山市,区人社局,细颗粒物(PM2.5),132,104,140,100,116,23,23,,,26,34,9,9,0.8,1
2025-12-20T0500,1690A,116.1231,24.3284,梅州市,梅江月梅,,,,30,36,27,1,1,,,,24,6,5,0.7,0.6
2025-12-20T0500,1691A,116.0797,24.2719,梅州市,梅县新城,,,,31,33,31,2,2,,,,28,8,7,0.6,0.7
2025-12-20T0500,1692A,116.1248,24.2654,梅州市,环境监控中心,细颗粒物(PM2.5),60,,35,43,38,17,17,,,19,25,18,11,0.5,0.5
2025-12-20T0500,3315A,116.1233,24.2991,梅州市,梅龙,,,24,27,23,24,13,13,,,,19,7,8,0.7,0.7
2025-12-20T0500,1878A,104.7778,31.4741,绵阳市,富乐山,细颗粒物(PM2.5),102,88,134,76,109,10,10,,,28,39,10,10,0.6,0.8
2025-12-20T0500,1880A,104.6697,31.4668,绵阳市,高新区自来水公司,细颗粒物(PM2.5),98,106,149,73,105,2,2,,,35,46,8,8,0.9,1.4
2025-12-20T0500,1881A,104.7287,31.5075,绵阳市,三水厂,细颗粒物(PM2.5),119,115,173,90,125,2,2,,,,46,6,7,0.7,0.9
2025-12-20T0500,3491A,104.69,31.5322,绵阳市,西科大附属小学,细颗粒物(PM2.5),89,89,150,66,105,7,7,,,28,39,7,8,0.5,0.7
2025-12-20T0500,3492A,104.5648,31.5343,绵阳市,安州区旅游局,细颗粒物(PM2.5),77,73,122,56,105,13,13,,,24,37,15,12,1.1,1.2
2025-12-20T0500,4226A,104.7651,31.4531,绵阳市,绵阳市气象局,细颗粒物(PM2.5),107,106,144,80,99,0,0,,,43,47,8,5,0.9,1.1
2025-12-20T0500,1784A,129.61,44.561,牡丹江市,环保大楼,,46,46,86,12,42,49,49,,,12,31,8,16,0.2,0.4
2025-12-20T0500,1785A,129.6115,44.5782,牡丹江市,文化广场,,47,47,100,21,48,36,36,,,24,37,7,16,0.5,0.9
2025-12-20T0500,1786A,129.5904,44.5963,牡丹江市,第一医院,,,,,,,,,,,,,,,,
2025-12-20T0500,1787A,129.6364,44.6075,牡丹江市,机车工厂,颗粒物(PM10),79,108,129,42,59,11,11,,,36,45,21,48,0.4,0.7
2025-12-20T0500,1788A,129.6386,44.5462,牡丹江市,第一中学,,50,50,78,22,45,36,36,,,9,30,6,17,0.5,0.9
2025-12-20T0500,2531A,105.0703,29.61,内江市,市监测站,细颗粒物(PM2.5),132,101,106,100,94,35,35,,,18,24,6,6,0.8,0.8
2025-12-20T0500,2532A,105.0717,29.5947,内江市,东兴区政府,细颗粒物(PM2.5),120,96,104,91,89,23,23,,,24,33,4,4,0.7,0.7
2025-12-20T0500,2533A,105.0653,29.5817,内江市,内江二中,细颗粒物(PM2.5),132,128,121,100,95,24,24,,,24,34,4,5,0.9,1
2025-12-20T0500,2534A,105.0406,29.5822,内江市,内江日报社,细颗粒物(PM2.5),118,95,101,89,88,25,25,,,24,38,3,3,0.7,0.8
2025-12-20T0500,2628A,92.0657,31.4846,那曲市,那曲监测站,,18,17,101,12,63,25,25,,,18,38,8,17,1.2,2.2
2025-12-20T0500,4243A,92.0515,31.4787,那曲市,那曲市委宣传部,,29,29,55,14,37,15,15,,,21,25,7,10,1.8,1.5
2025-12-20T0500,1290A,115.8931,28.6843,南昌市,省外办,细颗粒物(PM2.5),153,147,176,117,132,7,7,,,104,76,10,12,1.9,2
2025-12-20T0500,1291A,115.8886,28.7003,南昌市,省林业公司,细颗粒物(PM2.5),122,117,144,92,110,1,1,,,,74,6,9,1.3,1.3
2025-12-20T0500,1292A,115.8126,28.7442,南昌市,林科所,细颗粒物(PM2.5),85,83,123,63,86,63,63,,,24,58,8,11,0.6,0.7
2025-12-20T0500,1294A,115.8518,28.687,南昌市,建工学校,细颗粒物(PM2.5),138,156,179,105,118,4,4,,,96,83,14,16,1.3,1.5
2025-12-20T0500,1295A,115.8921,28.6424,南昌市,象湖,细颗粒物(PM2.5),168,169,167,127,131,1,1,,,,83,10,13,1.9,1.7
2025-12-20T0500,1296A,115.7423,28.7996,南昌市,武术学校,,,,,,,,,,,,,,,,
2025-12-20T0500,3046A,115.9084,28.6062,南昌市,机电学校,细颗粒物(PM2.5),180,184,188,136,135,2,2,,,90,75,7,10,1.3,1.1
2025-12-20T0500,3690A,115.9721,28.7031,南昌市,外国语学校,细颗粒物(PM2.5),165,,157,125,121,26,26,,,51,62,12,15,0.9,1
2025-12-20T0500,4192A,115.9316,28.68677,南昌市,南京东路235号,细颗粒物(PM2.5),156,159,184,119,135,5,5,,,91,83,7,11,1.3,1.4
2025-12-20T0500,1905A,106.056,30.8064,南充市,西山风景区,,,,,,,,,,,,,,,,
2025-12-20T0500,1906A,106.0789,30.8023,南充市,南充市委,细颗粒物(PM2.5),107,91,107,80,87,10,10,,,27,34,6,5,0.7,0.8
2025-12-20T0500,1907A,106.1031,30.8217,南充市,南充炼油厂,细颗粒物(PM2.5),104,89,112,78,94,13,13,,,18,28,8,7,0.7,0.8
2025-12-20T0500,4227A,106.1083,30.7884,南充市,梨树横街98号,细颗粒物(PM2.5),95,96,113,71,84,15,15,,,22,30,6,7,0.7,0.8
2025-12-20T0500,4304A,106.1172,30.843,南充市,清泉寺北路188号,细颗粒物(PM2.5),87,84,100,64,82,19,19,,,22,26,6,6,0.8,0.8
2025-12-20T0500,4305A,106.067,30.7616,南充市,同庆路1号,,,86,105,73,81,12,12,,,,34,6,7,0.7,0.9
2025-12-20T0500,1151A,118.8086,32.1065,南京市,迈皋桥,,,97,103,66,63,24,24,,,,61,4,4,0.4,0.7
2025-12-20T0500,1152A,118.7538,32.0551,南京市,草场门,细颗粒物(PM2.5),104,132,111,78,69,3,3,,,95,73,11,10,1.1,1
2025-12-20T0500,1153A,118.7794,32.0745,南京市,山西路,细颗粒物(PM2.5),119,149,119,90,72,6,6,,,89,76,4,4,1.4,1.1
2025-12-20T0500,1154A,118.7752,32.0023,南京市,中华门,细颗粒物(PM2.5),107,112,99,80,64,0,0,,,,57,6,4,1.3,1
2025-12-20T0500,1155A,118.8109,32.0309,南京市,瑞金路,细颗粒物(PM2.5),83,85,111,61,73,4,4,,,71,82,4,4,1.1,1.1
2025-12-20T0500,1156A,118.7997,32.0754,南京市,玄武湖,细颗粒物(PM2.5),95,108,98,71,63,7,7,,,58,34,4,4,1.4,1.1
2025-12-20T0500,1157A,118.6414,32.0931,南京市,浦口,细颗粒物(PM2.5),143,156,134,109,88,28,28,,,43,45,11,12,0.9,0.9
2025-12-20T0500,1158A,118.7356,31.9996,南京市,奥体中心,细颗粒物(PM2.5),100,100,107,75,71,6,6,,,97,78,7,9,1.3,1.2
2025-12-20T0500,1159A,118.9125,32.1028,南京市,仙林大学城,细颗粒物(PM2.5),110,114,96,83,65,0,0,,,91,55,10,8,1.4,1
2025-12-20T0500,3422A,118.8436,31.9198,南京市,江宁彩虹桥,细颗粒物(PM2.5),100,99,99,75,62,5,5,,,84,59,3,4,1.4,1
2025-12-20T0500,3427A,118.8554,32.3578,南京市,六合雄州,细颗粒物(PM2.5),122,158,126,92,77,12,12,,,63,67,7,12,1.1,1.3
2025-12-20T0500,4249A,118.8708,31.3402,南京市,汶溪路181号,细颗粒物(PM2.5),142,150,124,108,98,8,8,,,66,64,7,8,1.0,0.9
2025-12-20T0500,4312A,119.019,31.6512,南京市,中山西路1号,细颗粒物(PM2.5),134,107,98,102,87,1,1,,,69,58,5,4,1.0,1
2025-12-20T0500,1401A,108.3103,22.7881,南宁市,二十一中,,40,35,43,28,33,52,52,,,13,21,4,4,0.9,0.8
2025-12-20T0500,1402A,108.3141,22.8528,南宁市,北湖,细颗粒物(PM2.5),54,,51,38,40,34,34,,,37,37,7,9,0.9,0.9
2025-12-20T0500,1403A,108.3206,22.8225,南宁市,市监测站,,46,,48,32,35,68,68,,,8,21,6,8,0.8,0.7
2025-12-20T0500,1404A,108.3829,22.8037,南宁市,大自然花园,,47,47,44,27,32,52,52,,,13,19,6,7,1.0,0.8
2025-12-20T0500,1405A,108.4394,22.7904,南宁市,仙葫,,,,,,,,,,,,,,,,
2025-12-20T0500,1406A,108.2397,22.8467,南宁市,区农职院,,47,47,52,31,34,47,47,,,26,31,6,8,0.6,0.7
2025-12-20T0500,1407A,108.3275,22.735,南宁市,英华嘉园,,40,31,54,28,37,46,46,,,17,32,3,4,0.7,0.6
2025-12-20T0500,3401A,108.4834,22.7618,南宁市,红星社区,,49,,46,34,36,25,25,,,28,21,5,6,0.9,0.8
2025-12-20T0500,4221A,108.2177,22.7774,南宁市,乐贤路16号,细颗粒物(PM2.5),60,61,64,43,37,37,37,,,37,37,6,6,0.9,0.7
2025-12-20T0500,2331A,118.0966,26.6761,南平市,茫荡山,,,,20,,,,,72,,,,,2,,
2025-12-20T0500,2332A,118.1681,26.6369,南平市,南平市监测站,细颗粒物(PM2.5),55,56,56,39,40,1,1,,,28,30,10,6,0.9,1
2025-12-20T0500,2333A,118.1825,26.6489,南平市,南平铝业有限公司,细颗粒物(PM2.5),52,41,53,36,41,0,0,,,29,32,7,8,0.9,0.9
2025-12-20T0500,2334A,118.1756,26.6272,南平市,南平七中,细颗粒物(PM2.5),55,,49,39,40,0,0,,,24,27,4,6,0.8,0.8
2025-12-20T0500,1168A,120.9098,31.9663,南通市,狼山街道,颗粒物(PM10),52,54,66,32,37,0,0,,,49,65,3,4,0.7,0.7
2025-12-20T0500,1169A,120.86,32.0005,南通市,虹桥,细颗粒物(PM2.5),62,66,61,44,38,1,1,,,75,58,8,6,0.7,0.7
2025-12-20T0500,1170A,120.87,32.02,南通市,城中,颗粒物(PM10),66,81,74,44,36,1,1,,,77,57,7,7,0.5,0.6
2025-12-20T0500,1171A,120.94,31.93,南通市,星湖花园,细颗粒物(PM2.5),60,65,70,43,40,6,6,,,70,66,6,7,0.8,0.7
2025-12-20T0500,1172A,120.81,32.0417,南通市,紫琅学院,颗粒物(PM10),61,71,78,40,37,0,0,,,81,78,7,7,0.4,0.4
2025-12-20T0500,3291A,121.067,32.062,南通市,通州监测站,细颗粒物(PM2.5),67,66,60,48,38,1,1,,,87,53,5,6,0.9,0.8
2025-12-20T0500,3432A,120.9348,31.9883,南通市,环境教育馆,细颗粒物(PM2.5),55,53,64,39,40,0,0,,,69,67,6,7,0.6,0.5
2025-12-20T0500,2404A,112.5224,33.0122,南阳市,瓦房庄,细颗粒物(PM2.5),218,179,166,168,140,12,12,,,42,40,7,11,1.2,1.3
2025-12-20T0500,2405A,112.5003,32.9735,南阳市,汉画馆,细颗粒物(PM2.5),199,181,170,149,128,9,9,,,39,42,6,8,1.4,1.5
2025-12-20T0500,2406A,112.5573,33.027,南阳市,气象站,细颗粒物(PM2.5),218,228,184,168,127,12,12,,,,33,9,12,1.4,1.3
2025-12-20T0500,2407A,112.5481,32.9689,南阳市,理工学院,细颗粒物(PM2.5),193,187,160,145,114,18,18,,,44,39,7,8,1.2,1.2
2025-12-20T0500,4008A,112.5234,32.9922,南阳市,卧龙区政府,细颗粒物(PM2.5),210,223,183,160,130,12,12,,,48,45,6,9,1.3,1.2
2025-12-20T0500,1234A,121.8358,29.911,宁波市,区环保大楼,,48,48,33,23,14,0,0,,,67,30,6,5,1.1,0.6
2025-12-20T0500,1235A,121.56,29.82,宁波市,万里学院,颗粒物(PM10),54,57,40,37,24,0,0,,,66,35,8,7,0.8,0.7
2025-12-20T0500,1236A,121.713,29.9572,宁波市,龙赛医院,,,52,39,27,20,6,6,,,,33,3,3,0.4,0.3
2025-12-20T0500,1239A,121.633,29.7733,宁波市,钱湖水厂,颗粒物(PM10),52,53,27,34,15,24,24,,,26,14,6,6,0.4,0.3
2025-12-20T0500,1240A,121.5856,29.8635,宁波市,太古小学,颗粒物(PM10),55,59,40,37,22,11,11,,,49,27,3,3,0.4,0.3
2025-12-20T0500,1241A,121.524,29.8674,宁波市,市环境监测中心,,48,48,44,28,23,16,16,,,46,36,5,6,0.8,0.8
2025-12-20T0500,2871A,121.6147,29.9017,宁波市,万里国际学校,,48,43,32,33,20,15,15,,,55,26,4,4,0.8,0.7
2025-12-20T0500,3710A,121.5594,29.8975,宁波市,白沙活动中心,颗粒物(PM10),52,53,42,31,18,5,5,,,49,36,4,5,0.7,0.6
2025-12-20T0500,2339A,119.5001,26.6946,宁德市,金涵水库,,,,49,,30,,,42,,,16,,2,,0.6
2025-12-20T0500,2341A,119.5388,26.6612,宁德市,宁德市监测站,,,,50,26,34,6,6,,,,36,4,5,0.7,0.8
2025-12-20T0500,3209A,119.5231,26.6562,宁德市,宁德一中,,38,37,47,26,35,7,7,,,28,26,5,6,0.5,0.7
2025-12-20T0500,2618A,98.8601,25.8567,怒江傈僳族自治州,州监测站,,28,22,28,19,21,35,35,,,8,11,8,8,0.4,0.4
2025-12-20T0500,2619A,98.8546,25.8417,怒江傈僳族自治州,泸水一中,,13,9,29,9,20,18,18,,,11,19,5,5,0.3,0.4
2025-12-20T0500,1888A,101.6891,26.571,攀枝花市,弄弄坪,,,55,77,38,51,17,17,,,,31,6,18,1.2,1.6
2025-12-20T0500,1889A,101.5769,26.5928,攀枝花市,河门口,细颗粒物(PM2.5),64,65,78,46,53,9,9,,,26,27,9,19,1.2,1.7
2025-12-20T0500,1890A,101.7169,26.585,攀枝花市,炳草岗,,,64,88,51,56,0,0,,,,47,6,13,1.1,1.4
2025-12-20T0500,1891A,101.7369,26.5008,攀枝花市,仁和,,,40,68,26,44,12,12,,,,24,6,13,0.8,1.3
2025-12-20T0500,2835A,101.7227,26.567,攀枝花市,四十中小,细颗粒物(PM2.5),70,79,92,51,61,2,2,,,41,47,11,16,1.2,1.6
2025-12-20T0500,1604A,122.0303,41.1489,盘锦市,开发区,,19,15,40,3,40,60,60,,,4,20,4,7,0.2,0.7
2025-12-20T0500,1605A,122.0485,41.0883,盘锦市,兴隆台,,45,45,43,3,38,60,60,,,8,25,6,8,0.3,0.7
2025-12-20T0500,1606A,121.8297,41.1028,盘锦市,新生街道,,,22,38,3,35,4,4,,,,33,12,11,0.4,0.6
2025-12-20T0500,1832A,113.3257,33.742,平顶山市,新华旅馆,细颗粒物(PM2.5),200,202,165,150,119,4,4,,,56,38,9,10,1.4,1.1
2025-12-20T0500,1833A,113.2919,33.737,平顶山市,规划设计院,细颗粒物(PM2.5),205,234,199,155,126,4,4,,,64,42,7,8,1.2,1
2025-12-20T0500,1834A,113.182,33.774,平顶山市,平顶山工学院,颗粒物(PM10),73,95,167,51,119,34,34,,,22,28,11,9,0.5,0.8
2025-12-20T0500,3204A,113.3025,33.73,平顶山市,规划局,细颗粒物(PM2.5),213,212,174,163,121,5,5,,,64,40,8,9,1.3,1
2025-12-20T0500,3594A,112.8867,33.9116,平顶山市,石龙区,颗粒物(PM10),58,65,116,20,71,64,64,,,18,35,7,7,0.4,0.6
2025-12-20T0500,2656A,106.6692,35.5461,平凉市,聚贤嘉苑,,,77,46,25,20,72,72,,,5,15,,5,0.3,0.3
2025-12-20T0500,2657A,106.7021,35.5307,平凉市,博物馆,颗粒物(PM10),68,86,44,22,20,76,76,,,4,13,7,9,0.2,0.3
2025-12-20T0500,2347A,114.0997,27.5002,萍乡市,武功山,,,,,,,,,,,,,,,,
2025-12-20T0500,2348A,113.8385,27.6434,萍乡市,中医院,,,75,105,58,63,1,1,,,,45,8,11,1.5,1.7
2025-12-20T0500,2349A,113.8493,27.6253,萍乡市,市政府车库,细颗粒物(PM2.5),72,70,93,52,67,4,4,,,30,37,7,12,1.3,2.2
2025-12-20T0500,2350A,113.8676,27.6435,萍乡市,市环保局,细颗粒物(PM2.5),90,89,86,67,58,8,8,,,38,36,18,25,0.9,1.3
2025-12-20T0500,2351A,113.866,27.6198,萍乡市,安源区政府,细颗粒物(PM2.5),112,94,101,84,86,6,6,,,30,37,9,15,1.4,2.2
2025-12-20T0500,2319A,119.0141,25.4325,莆田市,荔城区仓后路,细颗粒物(PM2.5),58,48,58,41,46,7,7,,,27,28,4,3,0.8,0.8
2025-12-20T0500,2320A,119.0015,25.4553,莆田市,莆田市监测站,,35,28,38,24,32,10,10,,,15,17,4,4,0.7,0.6
2025-12-20T0500,2321A,119.1119,25.4561,莆田市,涵江区六中,细颗粒物(PM2.5),68,56,58,49,41,1,1,,,41,38,4,4,0.9,0.7
2025-12-20T0500,2322A,119.1013,25.3215,莆田市,秀屿区政府,,49,37,54,34,42,15,15,,,28,29,4,5,0.6,0.6
2025-12-20T0500,2323A,118.981,25.4792,莆田市,东圳水库,,,,32,,27,,,70,,,4,,4,,0.5
2025-12-20T0500,2392A,115.0312,35.7636,濮阳市,环保局,细颗粒物(PM2.5),224,190,152,174,139,16,16,,,,33,6,6,2.4,2.3
2025-12-20T0500,2394A,115.0574,35.7609,濮阳市,油田运输公司,细颗粒物(PM2.5),226,228,196,176,137,12,12,,,,42,7,6,2.0,1.9
2025-12-20T0500,3021A,115,35.7668,濮阳市,濮水河管理处,细颗粒物(PM2.5),247,216,191,197,167,7,7,,,40,31,8,8,1.7,1.5
2025-12-20T0500,4216A,115.0924,35.7686,濮阳市,任丘路479号,细颗粒物(PM2.5),230,227,195,180,151,5,5,,,,40,4,4,2.0,1.8
2025-12-20T0500,2601A,100.98,22.7633,普洱市,市环保局,,26,26,36,6,15,12,12,,,5,8,4,4,0.4,0.4
2025-12-20T0500,2602A,100.9817,22.8322,普洱市,普洱第二中学,,26,20,31,18,17,9,9,,,12,13,5,5,0.2,0.3
2025-12-20T0500,2262A,131.0518,45.8751,七台河市,新一中,,,,,,,,,,,,,,,,
2025-12-20T0500,3345A,131.0577,45.7879,七台河市,中波台,颗粒物(PM10),78,106,67,16,22,33,33,,,24,18,9,8,0.2,0.2
2025-12-20T0500,3637A,131.0176,45.7761,七台河市,人民广场,颗粒物(PM10),82,114,70,15,27,33,33,,,27,21,7,8,0.5,0.5
2025-12-20T0500,3684A,130.8781,45.8222,七台河市,新建矿广场,颗粒物(PM10),58,66,70,16,23,30,30,,,27,21,10,9,0.1,0.4
2025-12-20T0500,1779A,123.9305,47.3636,齐齐哈尔市,安居小区,,,27,83,22,75,46,46,,,,25,15,10,0.4,0.8
2025-12-20T0500,1780A,123.9488,47.3386,齐齐哈尔市,中心广场,,29,29,101,9,74,42,42,,,14,20,17,8,0.5,0.9
2025-12-20T0500,1781A,123.9483,47.3227,齐齐哈尔市,农牧车辆厂,,24,24,95,16,72,41,41,,,12,24,5,7,0.5,0.8
2025-12-20T0500,1783A,123.945,47.2988,齐齐哈尔市,市环境监测站,,29,22,94,20,73,46,46,,,16,25,9,7,0.5,0.8
2025-12-20T0500,3662A,123.6333,47.2075,齐齐哈尔市,富区青少年活动中心,,39,39,90,24,81,44,44,,,11,24,4,7,0.6,1.1
2025-12-20T0500,2591A,107.9783,26.5747,黔东南苗族侗族自治州,市环境监测站,,50,44,34,35,29,57,57,,,14,11,5,4,0.5,0.5
2025-12-20T0500,2881A,107.8908,26.5311,黔东南苗族侗族自治州,凯里学院,,46,46,34,32,27,74,74,,,9,7,5,4,0.5,0.5
2025-12-20T0500,2593A,107.5228,26.2403,黔南布依族苗族自治州,小围寨,,35,24,27,24,22,90,90,,,5,5,8,6,0.5,0.5
2025-12-20T0500,3538A,107.5175,26.2978,黔南布依族苗族自治州,沙坝,,35,34,30,24,24,84,84,,,7,8,4,4,0.7,0.7
2025-12-20T0500,2589A,104.9022,25.0925,黔西南布依族苗族自治州,场坝街,,36,33,29,25,23,55,55,,,5,8,2,2,0.5,0.5
2025-12-20T0500,2590A,104.8811,25.0992,黔西南布依族苗族自治州,坪东大道,,38,31,26,26,20,55,55,,,5,7,5,5,0.5,0.6
2025-12-20T0500,2502A,108.6236,21.9667,钦州市,市环保站,,48,48,58,24,29,74,74,,,13,29,4,6,0.6,0.5
2025-12-20T0500,2503A,108.6549,21.9481,钦州市,沙埠小学,,44,44,66,30,37,64,64,,,17,42,8,14,0.6,0.6
2025-12-20T0500,2504A,108.5989,21.7431,钦州市,港区一小,,39,39,66,27,33,41,41,,,38,41,4,10,0.4,0.4
2025-12-20T0500,3404A,108.5959,21.9633,钦州市,北职校,细颗粒物(PM2.5),52,41,55,36,38,43,43,,,25,27,7,10,0.7,0.7
2025-12-20T0500,1043A,119.7493,40.0116,秦皇岛市,第一关,,29,,122,20,93,70,70,,,9,51,4,11,0.2,1.1
2025-12-20T0500,1044A,119.5897,39.9499,秦皇岛市,监测站,,32,32,126,13,88,73,73,,,16,52,6,13,0.2,1.1
2025-12-20T0500,1046A,119.5251,39.9041,秦皇岛市,建设大厦,,29,29,121,18,86,68,68,,,10,48,4,11,0.2,1
2025-12-20T0500,3132A,119.610547,39.943889,秦皇岛市,文明里,,33,30,130,23,84,70,70,,,8,47,7,14,0.1,1
2025-12-20T0500,4198A,119.5090,39.8253,秦皇岛市,北戴河轮滑馆,,21,19,120,7,82,65,65,,,10,50,3,8,0.4,1.4
2025-12-20T0500,1307A,120.6659,36.2403,青岛市,仰口,,,,,,,,,,,,,,,,
2025-12-20T0500,1310A,120.4134,36.0658,青岛市,市南区东部子站,细颗粒物(PM2.5),206,219,125,156,72,17,17,,,57,27,10,10,1.4,0.8
2025-12-20T0500,1311A,120.3664,36.1032,青岛市,四方区子站,细颗粒物(PM2.5),225,,88,175,83,20,20,,,,27,4,5,1.4,0.9
2025-12-20T0500,1312A,120.2994,36.054,青岛市,市南区西部子站,细颗粒物(PM2.5),211,219,112,161,73,10,10,,,54,35,5,5,1.4,0.9
2025-12-20T0500,1313A,120.4581,36.0858,青岛市,崂山区子站,细颗粒物(PM2.5),201,215,123,151,64,21,21,,,58,34,10,11,1.3,0.8
2025-12-20T0500,1315A,120.3999,36.3083,青岛市,城阳区子站,细颗粒物(PM2.5),182,219,128,137,74,14,14,,,67,49,7,8,1.4,1.1
2025-12-20T0500,3362A,120.5014,36.4034,青岛市,即墨2号,细颗粒物(PM2.5),278,,130,228,120,20,20,,,59,45,7,10,1.3,1
2025-12-20T0500,3642A,120.3503,36.0736,青岛市,市北区南部,细颗粒物(PM2.5),203,220,98,153,67,10,10,,,49,29,1,3,1.4,1
2025-12-20T0500,3643A,120.3948,36.1805,青岛市,李沧区北部,细颗粒物(PM2.5),233,217,126,183,89,5,5,,,66,45,15,13,1.6,1.1
2025-12-20T0500,4290A,120.1969,35.9546,青岛市,珠江路669号,细颗粒物(PM2.5),228,210,111,178,85,23,23,,,48,31,12,11,1.2,0.8
2025-12-20T0500,4291A,120.0424,35.8656,青岛市,黄岛区人民政府广场,细颗粒物(PM2.5),216,217,127,166,83,26,26,,,52,44,10,8,1.5,1.1
2025-12-20T0500,1702A,113.0426,23.691,清远市,环保大楼,,,,,,,,,,,,,,,,
2025-12-20T0500,1703A,113.0208,23.7106,清远市,凤城街办,,41,41,72,26,46,34,34,,,22,47,22,10,0.6,0.8
2025-12-20T0500,3025A,113.0477,23.6344,清远市,技师学院,,47,47,62,28,37,15,15,,,34,40,10,9,0.6,0.6
2025-12-20T0500,3318A,112.9903,23.7403,清远市,清新太和,,34,34,63,22,38,36,36,,,22,32,11,12,0.5,0.6
2025-12-20T0500,3455A,113.076,23.7198,清远市,清城东城,,,46,65,29,40,28,28,,,,36,12,10,0.7,0.8
2025-12-20T0500,2661A,107.6325,35.7357,庆阳市,庆阳五中,,43,43,62,16,23,72,72,,,6,12,4,5,0.3,0.4
2025-12-20T0500,2662A,107.6364,35.7067,庆阳市,市环保局,,49,49,63,10,15,73,73,,,5,9,1,2,0.2,0.3
2025-12-20T0500,1916A,103.7897,25.5035,曲靖市,环境监测站,,20,20,26,12,13,34,34,,,10,14,3,4,0.5,0.5
2025-12-20T0500,1917A,103.8,25.5364,曲靖市,烟厂办公区,,18,16,25,12,15,34,34,,,11,15,4,4,0.4,0.5
2025-12-20T0500,3376A,103.7947,25.462,曲靖市,南苑二区,,16,15,20,11,11,35,35,,,5,10,4,4,0.4,0.4
2025-12-20T0500,3377A,103.7444,25.5261,曲靖市,曲靖师范学院,,29,29,30,20,20,3,3,,,48,17,4,3,0.5,0.4
2025-12-20T0500,1264A,118.8692,28.9398,衢州市,环保大楼,细颗粒物(PM2.5),78,86,134,57,94,2,2,,,69,67,5,6,0.8,1
2025-12-20T0500,1265A,118.8709,28.9666,衢州市,实验学校,细颗粒物(PM2.5),70,68,121,51,88,1,1,,,58,61,8,6,0.8,0.9
2025-12-20T0500,1266A,118.8621,28.9808,衢州市,衢州学院,细颗粒物(PM2.5),68,71,111,49,79,1,1,,,66,63,4,5,0.5,0.7
2025-12-20T0500,1611A,118.5819,24.9117,泉州市,涂山街,,46,,51,32,42,10,10,,,22,36,2,3,0.9,0.9
2025-12-20T0500,1612A,118.5972,24.8978,泉州市,津头埔,,,,50,34,46,10,10,,,,35,3,4,0.8,0.8
2025-12-20T0500,1613A,118.6663,24.9424,泉州市,万安,,,32,47,29,31,9,9,,,,31,3,3,0.6,0.7
2025-12-20T0500,1614A,118.6117,24.9604,泉州市,清源山,,,,36,,33,,,80,,,10,,2,,0.5
2025-12-20T0500,3529A,118.6333,24.9264,泉州市,城华南路,,40,35,48,28,36,2,2,,,28,31,4,4,0.6,0.6
2025-12-20T0500,2626A,88.8876,29.2718,日喀则市,日喀则监测站,颗粒物(PM10),53,56,47,30,27,3,3,,,44,30,15,17,1.3,0.8
2025-12-20T0500,3726A,88.8781,29.2426,日喀则市,林业技术推广中心,,25,25,37,16,20,32,32,,,2,2,10,11,0.6,0.5
2025-12-20T0500,1659A,119.471,35.4209,日照市,监测站,细颗粒物(PM2.5),122,139,158,92,105,46,46,,,36,68,9,13,0.9,1.3
2025-12-20T0500,1660A,119.523,35.4216,日照市,市政府广场,细颗粒物(PM2.5),137,163,148,104,96,36,36,,,42,59,12,14,1.3,1.4
2025-12-20T0500,1661A,119.5587,35.4044,日照市,港务局,细颗粒物(PM2.5),169,161,146,128,106,42,42,,,,56,10,12,1.3,1.4
2025-12-20T0500,3507A,119.5328,35.4625,日照市,职业技术学院,细颗粒物(PM2.5),134,163,149,102,86,35,35,,,42,59,9,10,1.2,1.3
2025-12-20T0500,3604A,119.3266,35.1044,日照市,岚山环保分局,细颗粒物(PM2.5),166,185,181,126,120,54,54,,,33,69,32,32,2.3,2.3
2025-12-20T0500,1835A,111.1922,34.7752,三门峡市,市政府,,,49,101,26,77,15,15,,,,51,11,13,0.6,1
2025-12-20T0500,1836A,111.1587,34.7942,三门峡市,开发区,,47,47,113,17,72,23,23,,,43,51,10,10,0.4,0.8
2025-12-20T0500,1838A,111.143,34.7955,三门峡市,风景区,,,,108,,88,,,44,,,40,,10,,0.9
2025-12-20T0500,3039A,111.1911,34.7829,三门峡市,三门峡市第一小学,,,56,110,11,68,39,39,,,,46,12,14,0.6,0.9
2025-12-20T0500,3598A,111.1,34.7167,三门峡市,富达温泉假日酒店,颗粒物(PM10),56,62,110,26,75,26,26,,,40,44,25,20,1.0,0.9
2025-12-20T0500,2324A,117.6211,26.2625,三明市,三钢,细颗粒物(PM2.5),79,,56,58,47,2,2,,,24,33,4,8,0.8,1.1
2025-12-20T0500,2325A,117.635,26.2714,三明市,三明二中,,,33,48,31,38,3,3,,,,28,7,10,0.7,1
2025-12-20T0500,2326A,117.6028,26.2378,三明市,三元区政府,,,52,59,49,44,2,2,,,,31,6,9,1.5,1.6
2025-12-20T0500,2327A,117.7275,26.3108,三明市,洋溪,,,,36,,41,,,41,,,19,,20,,1.7
2025-12-20T0500,1876A,109.5078,18.2489,三亚市,河东子站,,25,25,34,14,14,51,51,,,12,12,4,5,0.6,0.6
2025-12-20T0500,1877A,109.4964,18.2681,三亚市,河西子站,,38,38,36,14,14,46,46,,,9,12,4,4,0.6,0.6
2025-12-20T0500,3540A,109.7348,18.3443,三亚市,君悦子站,,27,27,39,16,16,24,24,,,12,10,5,5,0.5,0.5
2025-12-20T0500,2624A,91.7608,29.2313,山南市,山南监测站,,15,14,26,6,17,46,46,,,7,16,5,5,0.4,0.5
2025-12-20T0500,2625A,91.7706,29.2436,山南市,山南人民医院,,12,12,27,3,19,33,33,,,15,19,5,6,0.4,0.6
2025-12-20T0500,1674A,116.6794,23.3667,汕头市,金平子站,细颗粒物(PM2.5),58,44,51,41,43,18,18,,,31,29,8,8,0.8,0.8
2025-12-20T0500,1675A,116.7244,23.3633,汕头市,龙湖子站,,48,,48,33,38,27,27,,,21,26,10,12,0.7,0.8
2025-12-20T0500,1676A,116.7258,23.2775,汕头市,濠江子站,,50,,43,35,38,31,31,,,21,24,7,9,0.7,0.8
2025-12-20T0500,1677A,116.7519,23.4714,汕头市,澄海子站,细颗粒物(PM2.5),55,47,51,39,43,2,2,,,37,29,16,8,0.8,0.8
2025-12-20T0500,1678A,116.6092,23.2539,汕头市,潮阳子站,,,34,49,29,39,18,18,,,,28,7,7,0.8,0.8
2025-12-20T0500,3444A,116.454,23.2684,汕头市,潮南峡山,,,48,56,34,40,11,11,,,,24,11,9,0.8,0.7
2025-12-20T0500,3624A,116.4069,23.2533,汕头市,潮南子站,"颗粒物(PM10),细颗粒物(PM2.5)",53,55,80,37,51,10,10,,,28,30,8,6,0.8,0.8
2025-12-20T0500,1693A,115.3653,22.775,汕尾市,市环保局,,16,13,25,11,21,46,46,,,9,13,6,6,0.5,0.6
2025-12-20T0500,1694A,115.3706,22.7898,汕尾市,市政府,,16,16,27,9,20,46,46,,,11,15,6,6,0.5,0.6
2025-12-20T0500,1695A,115.3622,22.7925,汕尾市,新城中学,,17,10,24,9,18,54,54,,,7,11,5,4,0.4,0.5
2025-12-20T0500,2645A,109.9154,33.8715,商洛市,监测站,颗粒物(PM10),56,62,72,25,34,36,36,,,28,30,4,6,0.3,0.5
2025-12-20T0500,3045A,109.9643,33.8471,商洛市,商州区中学,颗粒物(PM10),61,72,87,25,38,6,6,,,49,35,6,6,0.6,0.6
2025-12-20T0500,2408A,115.6702,34.4285,商丘市,环境监测站,细颗粒物(PM2.5),259,237,191,209,170,23,23,,,27,29,1,3,1.1,1
2025-12-20T0500,2409A,115.6458,34.4045,商丘市,粮食局,细颗粒物(PM2.5),250,231,194,200,160,25,25,,,,29,2,3,1.4,1.2
