timepoint,stationcode,longitude,latitude,area,positionname,primarypollutant,aqi,pm10,pm10_24h,pm2_5,pm2_5_24h,o3,o3_24h,o3_8h,o3_8h_24h,no2,no2_24h,so2,so2_24h,co,co_24h
2022-09-04T23:00:00,1001A,116.3621,39.8784,北京市,万寿西宫,,25,25,63,16,45,152,45,146,112,29,21,3,3,0.5,0.7
2022-09-04T23:00:00,1002A,116.2202,40.2915,北京市,定陵(对照点),,12,6,39,4,27,190,38,159,119,3,8,3,3,0.3,0.5
2022-09-04T23:00:00,1003A,116.4174,39.9289,北京市,东四,,25,25,56,12,34,167,80,159,130,22,21,3,2,0.4,0.6
2022-09-04T23:00:00,1004A,116.4072,39.8863,北京市,天坛,,20,20,59,12,44,139,30,132,100,20,17,3,3,0.4,0.6
2022-09-04T23:00:00,1005A,116.462,39.9365,北京市,农展馆,,25,25,57,12,34,158,59,145,114,28,27,3,2,0.5,0.6
2022-09-04T23:00:00,1006A,116.3392,39.9295,北京市,官园,,21,20,55,10,36,154,67,146,120,18,15,3,3,0.5,0.6
2022-09-04T23:00:00,1007A,116.2878,39.9611,北京市,海淀万柳,,21,21,56,12,41,171,57,155,121,26,23,3,3,0.3,0.5
2022-09-04T23:00:00,1008A,116.6636,40.135,北京市,顺义新城,,19,19,55,8,33,194,57,167,130,30,19,3,2,0.2,0.5
2022-09-04T23:00:00,1009A,116.6275,40.3275,北京市,怀柔镇,,34,18,53,12,38,227,108,183,165,5,14,3,3,0.4,0.7
2022-09-04T23:00:00,1010A,116.2296,40.217,北京市,昌平镇,,15,9,46,4,33,166,46,144,106,8,17,3,3,0.3,0.6
2022-09-04T23:00:00,1011A,116.3966,39.9821,北京市,奥体中心,,24,18,65,8,36,165,74,150,127,27,23,3,2,0.4,0.5
2022-09-04T23:00:00,1012A,116.184,39.9136,北京市,古城,,24,22,54,8,35,172,75,154,126,15,20,3,3,0.4,0.5
2022-09-04T23:00:00,1015A,117.1444,39.1661,天津市,勤俭道,颗粒物(PM10),62,73,54,43,32,173,129,169,155,15,18,7,7,0.7,0.7
2022-09-04T23:00:00,1017A,117.237,39.1082,天津市,大直沽八号路,细颗粒物(PM2.5),77,81,52,56,29,163,128,157,146,16,20,7,8,0.8,0.6
2022-09-04T23:00:00,1018A,117.202,39.0927,天津市,前进道,细颗粒物(PM2.5),77,80,51,56,29,182,129,172,156,16,18,8,8,0.8,0.6
2022-09-04T23:00:00,1019A,117.1837,39.2133,天津市,淮河道,,41,41,61,26,33,176,110,170,152,21,30,6,8,0.2,0.3
2022-09-04T23:00:00,1021A,117.307,39.0877,天津市,跃进路,细颗粒物(PM2.5),74,85,58,54,28,159,128,154,144,16,30,9,9,0.8,0.6
2022-09-04T23:00:00,1023A,117.707,39.0343,天津市,第四大街,颗粒物(PM10),65,80,45,46,24,199,104,171,158,25,38,7,10,1.2,0.9
2022-09-04T23:00:00,1024A,117.457,38.8394,天津市,永明路,,,,52,67,31,186,101,169,146,21,22,5,7,0.8,0.7
2022-09-04T23:00:00,1026A,117.764,39.1587,天津市,汉北路,,,83,44,,22,226,,172,171,26,30,,11,1.1,0.8
2022-09-04T23:00:00,1027A,117.157,38.9194,天津市,团泊洼(对照点),颗粒物(PM10),71,92,50,50,28,171,68,164,135,30,21,8,10,1.1,1
2022-09-04T23:00:00,1029A,114.4422,38.0444,石家庄市,职工医院,,,77,54,46,41,176,117,161,154,22,22,,,0.9,0.5
2022-09-04T23:00:00,1030A,114.6063,38.0266,石家庄市,高新区,细颗粒物(PM2.5),70,78,67,51,45,178,88,163,148,25,20,8,8,1.0,0.7
2022-09-04T23:00:00,1031A,114.4898,38.1328,石家庄市,西北水源,颗粒物(PM10),67,84,68,43,35,190,110,180,167,30,24,8,5,1.2,0.8
2022-09-04T23:00:00,1032A,114.4586,38.0058,石家庄市,西南高教,细颗粒物(PM2.5),70,85,58,51,37,168,81,152,138,35,23,6,4,1.5,0.7
2022-09-04T23:00:00,1033A,114.5331,38.0178,石家庄市,世纪公园,细颗粒物(PM2.5),73,83,62,53,40,185,90,166,148,27,23,6,7,1.0,0.7
2022-09-04T23:00:00,1034A,114.509,38.0457,石家庄市,人民会堂,细颗粒物(PM2.5),77,80,65,56,47,185,121,171,157,20,20,13,10,1.5,1.1
2022-09-04T23:00:00,1035A,114.3524,37.8911,石家庄市,封龙山(对照点),细颗粒物(PM2.5),67,71,45,48,28,204,117,152,150,14,15,16,15,0.7,0.9
2022-09-04T23:00:00,1037A,118.131,39.6363,唐山市,雷达站,颗粒物(PM10),65,80,56,44,27,210,136,178,173,31,27,7,5,0.6,0.5
2022-09-04T23:00:00,1038A,118.1725,39.6334,唐山市,物资局,颗粒物(PM10),71,91,69,40,31,195,127,168,159,28,23,8,8,0.7,0.7
2022-09-04T23:00:00,1040A,118.1705,39.6506,唐山市,十二中,颗粒物(PM10),61,72,53,27,22,212,129,172,165,23,18,5,5,0.7,0.6
2022-09-04T23:00:00,1041A,118.1869,39.622,唐山市,小山,颗粒物(PM10),61,72,58,35,23,190,123,170,157,34,28,5,6,0.6,0.6
2022-09-04T23:00:00,1042A,119.5134,39.8207,秦皇岛市,北戴河环保局,,43,43,30,13,8,158,112,131,131,16,13,9,7,0.7,0.3
2022-09-04T23:00:00,1043A,119.7493,40.0116,秦皇岛市,第一关,颗粒物(PM10),53,55,29,34,15,119,65,112,100,61,39,10,6,0.9,0.5
2022-09-04T23:00:00,1044A,119.5897,39.9499,秦皇岛市,监测站,颗粒物(PM10),52,54,37,30,17,129,124,118,118,19,30,9,5,0.5,0.2
2022-09-04T23:00:00,1046A,119.5251,39.9041,秦皇岛市,建设大厦,颗粒物(PM10),51,52,41,32,11,145,125,129,129,19,25,8,5,0.7,0.5
2022-09-04T23:00:00,1047A,114.5129,36.61763,邯郸市,环保局,,,,,,,,,,,,,,,,
2022-09-04T23:00:00,1048A,114.5302,36.6116,邯郸市,东污水处理厂,颗粒物(PM10),64,78,64,39,36,182,103,155,129,15,14,38,18,0.7,1
2022-09-04T23:00:00,1049A,114.4918,36.5713,邯郸市,矿院,细颗粒物(PM2.5),65,63,59,47,49,175,98,146,122,18,22,7,17,1.0,1.1
2022-09-04T23:00:00,1050A,114.484,36.6133,邯郸市,丛台公园,颗粒物(PM10),60,70,65,41,41,180,96,153,128,21,22,5,15,0.6,1
2022-09-04T23:00:00,1051A,115.493,38.8632,保定市,游泳馆,颗粒物(PM10),61,72,56,40,42,199,110,175,162,31,26,8,7,1.1,0.6
2022-09-04T23:00:00,1052A,115.5213,38.8959,保定市,华电二区,颗粒物(PM10),75,100,68,49,34,185,102,171,154,32,22,8,6,1.1,0.6
2022-09-04T23:00:00,1053A,115.4713,38.9108,保定市,接待中心,颗粒物(PM10),63,76,67,25,27,194,112,172,159,26,24,9,8,1.2,0.8
2022-09-04T23:00:00,1054A,115.4612,38.8416,保定市,地表水厂,颗粒物(PM10),62,74,67,42,34,196,97,167,150,43,28,8,7,1.1,0.7
2022-09-04T23:00:00,1055A,115.4323,38.8697,保定市,胶片厂,细颗粒物(PM2.5),70,80,58,51,41,196,95,171,155,31,24,10,9,1.0,0.6
2022-09-04T23:00:00,1056A,115.5086,38.8639,保定市,监测站,颗粒物(PM10),63,75,68,37,36,200,106,180,165,26,22,7,6,0.9,0.5
2022-09-04T23:00:00,1057A,114.8883,40.8336,张家口市,人民公园,,26,26,28,4,11,143,74,123,91,10,17,6,6,0.2,0.4
2022-09-04T23:00:00,1059A,114.8687,40.8042,张家口市,五金库,,24,24,33,7,22,142,70,118,83,8,24,8,9,0.2,0.5
2022-09-04T23:00:00,1060A,114.8902,40.762,张家口市,世纪豪园,,43,30,47,30,29,144,78,123,95,10,23,4,5,0.1,0.3
2022-09-04T23:00:00,1061A,114.8916,40.8661,张家口市,北泵房(对照点),,28,28,35,14,23,143,75,121,80,5,14,7,7,0.1,0.3
2022-09-04T23:00:00,1062A,117.9531,40.9081,承德市,铁路,颗粒物(PM10),79,107,48,31,30,132,52,118,76,21,25,10,9,0.7,0.6
2022-09-04T23:00:00,1063A,117.9392,40.9763,承德市,中国银行,细颗粒物(PM2.5),52,44,31,36,24,139,42,122,104,51,15,14,12,0.7,0.6
2022-09-04T23:00:00,1064A,117.9503,40.928,承德市,开发区,颗粒物(PM10),51,52,41,34,29,140,43,127,96,35,17,12,8,0.9,0.7
2022-09-04T23:00:00,1065A,117.8051,40.9655,承德市,文化中心,细颗粒物(PM2.5),73,44,38,53,36,138,94,128,121,15,12,11,15,0.6,0.7
2022-09-04T23:00:00,1066A,117.9268,41.0026,承德市,离宫(对照点),细颗粒物(PM2.5),52,41,37,36,30,127,54,99,77,7,7,4,7,0.4,0.6
2022-09-04T23:00:00,1067A,116.6708,39.5111,廊坊市,药材公司,,50,50,59,31,34,176,105,165,140,15,20,7,10,0.5,0.6
2022-09-04T23:00:00,1068A,116.7214,39.5589,廊坊市,开发区,颗粒物(PM10),54,57,52,32,30,187,124,175,149,18,19,4,6,0.5,0.5
2022-09-04T23:00:00,1070A,116.7244,39.5269,廊坊市,北华航天学院,"颗粒物(PM10),细颗粒物(PM2.5)",55,59,65,39,42,189,126,175,154,16,20,6,8,0.5,0.5
2022-09-04T23:00:00,1071A,116.8842,38.2991,沧州市,沧县城建局,颗粒物(PM10),57,63,62,32,26,176,101,159,141,26,36,4,7,0.6,0.6
2022-09-04T23:00:00,1072A,116.8584,38.3254,沧州市,电视转播站,颗粒物(PM10),71,92,59,42,26,175,104,167,156,27,30,4,8,0.6,0.5
2022-09-04T23:00:00,1073A,116.8709,38.3228,沧州市,市环保局,颗粒物(PM10),65,79,54,37,23,175,108,160,144,20,29,9,10,0.4,0.4
2022-09-04T23:00:00,1074A,115.6838,37.7541,衡水市,电机北厂,,,,48,,23,57,,67,,,27,,13,,0.4
2022-09-04T23:00:00,1075A,115.6303,37.7316,衡水市,市监测站,细颗粒物(PM2.5),69,82,70,50,39,180,96,158,134,20,18,12,12,1.1,1.1
2022-09-04T23:00:00,1077A,114.4704,37.0886,邢台市,达活泉,颗粒物(PM10),67,83,72,42,42,244,72,188,152,37,25,12,11,1.3,1.2
2022-09-04T23:00:00,1078A,114.5062,37.0349,邢台市,邢师高专,颗粒物(PM10),77,104,78,41,39,218,21,171,117,67,31,8,8,0.9,0.9
2022-09-04T23:00:00,1079A,114.5237,37.0851,邢台市,路桥公司,颗粒物(PM10),65,80,72,43,37,219,58,172,131,38,29,11,9,0.7,0.8
2022-09-04T23:00:00,1080A,114.4725,37.0719,邢台市,市环保局,细颗粒物(PM2.5),70,76,64,51,47,243,69,223,171,39,25,9,11,0.9,1.1
2022-09-04T23:00:00,1081A,112.5139,37.8873,太原市,尖草坪,颗粒物(PM10),70,89,85,40,45,209,28,130,74,70,43,11,7,0.9,0.8
2022-09-04T23:00:00,1083A,112.434,38.0108,太原市,上兰(对照点),,,,,,,,,,,,,,,,
2022-09-04T23:00:00,1084A,112.469,37.7124,太原市,晋源,颗粒物(PM10),58,65,83,30,50,200,5,143,76,86,42,11,14,0.7,1
2022-09-04T23:00:00,1085A,112.5583,37.7394,太原市,小店,颗粒物(PM10),107,163,100,73,54,206,48,160,93,49,45,17,14,1.5,1
2022-09-04T23:00:00,1086A,112.5369,37.8692,太原市,桃园,颗粒物(PM10),88,125,92,58,54,210,39,142,88,61,45,16,9,1.2,0.9
2022-09-04T23:00:00,1087A,112.57,37.8195,太原市,坞城,细颗粒物(PM2.5),97,134,93,72,56,213,35,151,87,61,45,18,11,1.3,1
2022-09-04T23:00:00,1088A,112.549,37.9854,太原市,南寨,颗粒物(PM10),68,86,96,13,35,164,1,112,48,53,34,6,9,0.8,0.8
2022-09-04T23:00:00,1089A,112.4701,37.782,太原市,金胜,,,,,,,,,,,,,,,,
2022-09-04T23:00:00,1090A,111.6507,40.7517,呼和浩特市,呼市一监,,36,36,34,5,15,131,68,114,97,10,17,5,6,0.4,0.5
2022-09-04T23:00:00,1091A,111.6572,40.8033,呼和浩特市,小召,,34,34,27,3,16,134,70,113,94,12,21,3,6,0.2,0.4
2022-09-04T23:00:00,1094A,111.7516,40.8369,呼和浩特市,如意水处理厂,,23,17,29,2,13,130,72,110,93,6,22,7,8,0.2,0.5
2022-09-04T23:00:00,1095A,111.7276,40.8062,呼和浩特市,二十九中,,,41,31,4,17,132,,114,109,7,19,3,5,0.3,0.5
2022-09-04T23:00:00,1096A,111.5512,40.7866,呼和浩特市,工大金川校区,,29,29,34,3,14,130,71,110,93,7,18,3,6,0.4,0.5
2022-09-04T23:00:00,1097A,111.717,40.7612,呼和浩特市,化肥厂生活区,,23,17,29,4,17,123,72,109,92,6,20,5,7,0.3,0.4
2022-09-04T23:00:00,1098A,123.6836,41.9339,沈阳市,森林路(对照点),,,,,,,,,,,,,,,,
2022-09-04T23:00:00,1099A,123.505,41.7406,沈阳市,浑南东路,,34,34,28,14,13,85,4,66,35,39,32,16,13,0.8,0.7
2022-09-04T23:00:00,1100A,123.4231,41.6989,沈阳市,新秀街,,41,41,34,15,15,81,38,67,46,30,34,58,26,1.1,0.7
2022-09-04T23:00:00,1102A,123.5903,41.8411,沈阳市,东陵路,,30,30,34,13,16,71,9,56,39,25,25,9,11,0.5,0.7
2022-09-04T23:00:00,1103A,123.4264,41.8467,沈阳市,陵东街,,30,30,34,17,17,81,29,68,48,27,34,7,7,0.8,0.8
2022-09-04T23:00:00,1104A,123.4114,41.7653,沈阳市,文化路,颗粒物(PM10),55,59,31,37,17,97,46,78,63,23,23,31,19,0.8,0.7
2022-09-04T23:00:00,1105A,123.4678,41.7867,沈阳市,小河沿,,32,25,35,22,19,80,13,60,38,31,32,9,6,0.6,0.6
2022-09-04T23:00:00,1106A,123.4017,41.7972,沈阳市,太原街,,44,44,30,29,17,94,46,79,62,29,30,18,12,0.7,0.6
2022-09-04T23:00:00,1108A,123.3783,41.9228,沈阳市,京沈街,,31,31,41,21,20,94,27,79,54,41,39,15,13,0.6,0.6
2022-09-04T23:00:00,1109A,121.612,38.9741,大连市,甘井子,,27,12,15,8,10,124,85,106,96,13,15,4,5,0.4,0.4
2022-09-04T23:00:00,1110A,121.565,38.9511,大连市,周水子,,27,10,14,5,7,117,85,105,96,10,11,4,5,0.2,0.3
2022-09-04T23:00:00,1111A,121.5637,38.8845,大连市,星海三站,,35,14,12,6,6,152,109,135,127,16,15,5,5,0.3,0.4
2022-09-04T23:00:00,1112A,121.6302,38.9117,大连市,青泥洼桥,,30,7,10,4,5,129,95,114,106,13,14,9,9,0.3,0.4
2022-09-04T23:00:00,1113A,121.6251,38.8638,大连市,傅家庄,,35,17,16,5,7,124,110,117,114,14,14,9,9,0.4,0.4
2022-09-04T23:00:00,1114A,121.5213,38.8661,大连市,七贤岭,,22,12,14,4,6,151,68,137,114,8,7,5,5,0.4,0.4
2022-09-04T23:00:00,1115A,121.2529,38.8061,大连市,旅顺,,29,12,13,4,6,111,90,104,101,17,11,7,5,0.7,0.7
2022-09-04T23:00:00,1116A,121.7485,39.1311,大连市,金州,,29,29,16,12,10,118,57,110,93,27,10,5,4,0.3,0.3
2022-09-04T23:00:00,1117A,121.7811,39.0496,大连市,开发区,,30,11,16,7,8,117,93,108,103,16,15,10,9,0.5,0.6
2022-09-04T23:00:00,1118A,121.9762,39.0631,大连市,双D港,,,,,,,,,,,,,,,,
2022-09-04T23:00:00,1119A,125.3325,43.9166,长春市,食品厂,,16,16,34,9,16,72,37,50,42,17,34,3,3,0.3,0.4
2022-09-04T23:00:00,1120A,125.2863,43.9027,长春市,客车厂,,17,17,30,9,12,83,33,57,49,20,26,4,4,0.5,0.5
2022-09-04T23:00:00,1121A,125.2841,43.8463,长春市,邮电学院,,22,22,28,8,11,70,16,45,36,25,22,4,4,0.5,0.5
2022-09-04T23:00:00,1122A,125.3716,43.8772,长春市,劳动公园,,16,16,32,7,13,66,34,44,39,14,30,4,4,0.4,0.5
2022-09-04T23:00:00,1123A,125.3297,43.8805,长春市,园林处,,16,16,30,10,13,80,37,51,46,17,31,4,4,0.4,0.4
2022-09-04T23:00:00,1124A,125.4605,43.79,长春市,净月潭,,19,19,25,7,9,47,16,38,26,8,11,5,5,0.4,0.5
2022-09-04T23:00:00,1125A,125.7194,43.515,长春市,甩湾子(对照点),,,,,,,,,,,,,,,,
2022-09-04T23:00:00,1126A,125.3863,43.8447,长春市,经开区环卫处,,16,16,29,6,10,62,32,39,36,14,28,4,5,0.4,0.5
2022-09-04T23:00:00,1127A,125.245,43.7783,长春市,高新区管委会,,12,12,29,6,10,70,28,42,37,16,22,5,5,0.4,0.5
2022-09-04T23:00:00,1128A,125.1761,43.8325,长春市,岱山公园,,14,14,34,6,12,71,36,45,41,16,30,5,6,0.3,0.4
2022-09-04T23:00:00,1129A,126.5422,45.755,哈尔滨市,岭北(对照点),,21,14,30,9,13,72,67,63,59,10,14,9,10,0.3,0.4
2022-09-04T23:00:00,1130A,126.561,45.8167,哈尔滨市,松北商大,,20,5,24,8,11,67,63,58,53,10,25,4,5,0.4,0.5
2022-09-04T23:00:00,1131A,126.979,45.5419,哈尔滨市,阿城会宁,,20,5,29,1,3,66,63,45,45,7,16,10,10,0.4,0.4
2022-09-04T23:00:00,1132A,126.599,45.7222,哈尔滨市,南岗学府路,,,,24,,12,30,,26,,,28,,16,,0.2
2022-09-04T23:00:00,1133A,126.689,45.7733,哈尔滨市,太平宏伟公园,,22,11,38,7,12,68,68,55,51,16,28,4,9,0.2,0.3
2022-09-04T23:00:00,1134A,126.635,45.7667,哈尔滨市,道外承德广场,,24,4,26,11,11,76,76,56,56,13,18,6,8,0.4,0.4
2022-09-04T23:00:00,1135A,126.685,45.7319,哈尔滨市,香坊红旗大街,,21,4,28,7,10,67,66,54,50,14,21,5,9,0.4,0.5
2022-09-04T23:00:00,1136A,126.6411,45.7258,哈尔滨市,动力和平路,,,6,29,,,66,66,46,46,16,21,6,10,0.5,0.6
2022-09-04T23:00:00,1137A,126.593,45.7478,哈尔滨市,道里建国路,,21,10,30,13,15,67,65,56,54,18,22,12,17,2.1,1.6
2022-09-04T23:00:00,1138A,126.615,45.61,哈尔滨市,平房东轻厂,,21,11,20,6,10,68,66,60,54,10,12,3,4,0.3,0.3
2022-09-04T23:00:00,1139A,126.595,45.9855,哈尔滨市,呼兰师专,,22,6,44,12,16,69,69,55,49,14,29,6,6,0.4,0.6
2022-09-04T23:00:00,1140A,126.6206,45.6842,哈尔滨市,省农科院,,17,7,27,4,10,65,53,54,48,18,24,11,16,0.3,0.5
2022-09-04T23:00:00,1141A,121.4,31.238,上海市,普陀,,15,14,21,8,7,48,47,40,40,11,14,2,2,0.5,0.4
2022-09-04T23:00:00,1142A,121.478,31.2036,上海市,十五厂,,17,1,17,4,10,52,52,38,38,4,8,3,4,0.2,0.2
2022-09-04T23:00:00,1143A,121.467,31.3008,上海市,虹口,,17,9,20,10,7,52,52,42,42,3,8,3,3,0.4,0.4
2022-09-04T23:00:00,1144A,121.412,31.1654,上海市,徐汇上师大,,17,9,18,2,6,53,53,41,41,8,12,3,3,0.8,0.7
2022-09-04T23:00:00,1145A,121.536,31.2659,上海市,杨浦四漂,,19,5,14,4,6,59,59,47,47,6,10,2,3,0.5,0.5
2022-09-04T23:00:00,1146A,120.978,31.0935,上海市,青浦淀山湖(对照点),,,,,,,,,,,,,,,,
2022-09-04T23:00:00,1147A,121.425,31.2261,上海市,静安监测站,,15,6,19,0,6,46,46,37,37,9,12,3,3,0.4,0.4
2022-09-04T23:00:00,1148A,121.703,31.1907,上海市,浦东川沙,,15,5,22,7,6,48,48,35,35,7,8,4,4,0.3,0.3
2022-09-04T23:00:00,1149A,121.533,31.2284,上海市,浦东新区监测站,,16,4,18,3,6,69,49,42,42,8,12,5,5,0.5,0.5
2022-09-04T23:00:00,1150A,121.577,31.2071,上海市,浦东张江,,17,0,14,2,7,52,52,37,37,6,11,3,3,0.6,0.6
2022-09-04T23:00:00,1151A,118.8086,32.1065,南京市,迈皋桥,,24,15,23,2,5,112,74,98,87,10,11,2,6,0.2,0.3
2022-09-04T23:00:00,1152A,118.7538,32.0551,南京市,草场门,,25,5,18,0,8,107,78,96,89,9,15,2,5,0.4,0.6
2022-09-04T23:00:00,1153A,118.7794,32.0745,南京市,山西路,,27,12,25,5,12,120,85,108,98,6,9,4,6,0.1,0.3
2022-09-04T23:00:00,1154A,118.7752,32.0023,南京市,中华门,,25,19,24,0,5,114,80,102,94,9,8,4,6,0.6,0.7
2022-09-04T23:00:00,1155A,118.8109,32.0309,南京市,瑞金路,,26,14,20,0,9,117,83,104,96,4,5,3,5,0.4,0.4
2022-09-04T23:00:00,1156A,118.7997,32.0754,南京市,玄武湖,,25,15,31,0,7,117,79,104,93,6,7,4,5,0.4,0.5
2022-09-04T23:00:00,1157A,118.6414,32.0931,南京市,浦口,,,9,22,,6,142,77,123,112,11,7,2,3,0.2,0.3
2022-09-04T23:00:00,1158A,118.7356,31.9996,南京市,奥体中心,,29,12,24,7,10,122,90,111,102,9,14,3,5,0.3,0.5
2022-09-04T23:00:00,1159A,118.9125,32.1028,南京市,仙林大学城,,24,12,16,2,8,116,76,100,91,13,11,3,3,0.5,0.4
2022-09-04T23:00:00,1160A,120.561,31.2472,苏州市,上方山(对照点),,22,22,32,12,15,62,62,55,55,5,14,6,6,0.6,0.8
2022-09-04T23:00:00,1161A,120.628,31.2864,苏州市,南门,,,,,,,,,,,,,,,,
2022-09-04T23:00:00,1162A,120.591,31.3019,苏州市,彩香,,22,13,19,3,13,70,70,63,63,3,11,6,6,0.6,0.9
2022-09-04T23:00:00,1163A,120.596,31.3264,苏州市,轧钢厂,,23,8,21,3,12,71,71,63,63,2,7,3,4,0.6,0.9
2022-09-04T23:00:00,1164A,120.613,31.2703,苏州市,吴中区,,23,8,16,1,14,72,72,61,61,6,14,6,6,0.5,0.8
2022-09-04T23:00:00,1165A,120.543,31.2994,苏州市,苏州新区,,22,9,19,4,18,69,68,62,62,7,14,4,5,0.6,0.8
2022-09-04T23:00:00,1166A,120.669,31.3097,苏州市,苏州工业园区,,22,6,16,3,12,70,70,60,60,6,15,4,4,0.5,1
2022-09-04T23:00:00,1167A,120.641,31.3708,苏州市,相城区,,24,8,19,15,20,74,74,66,66,1,8,4,4,0.6,1
2022-09-04T23:00:00,1168A,120.9098,31.9663,南通市,狼山街道,,,2,10,,2,91,85,82,82,4,9,5,5,0.3,0.4
2022-09-04T23:00:00,1169A,120.86,32.0005,南通市,虹桥,,26,14,10,2,9,86,81,78,78,2,4,8,8,0.4,0.5
2022-09-04T23:00:00,1170A,120.87,32.02,南通市,城中,,25,12,10,5,10,86,80,78,78,5,7,5,5,0.4,0.5
2022-09-04T23:00:00,1171A,120.94,31.93,南通市,星湖花园,,24,9,13,2,4,81,76,74,74,5,7,4,4,0.2,0.3
2022-09-04T23:00:00,1172A,120.81,32.0417,南通市,紫琅学院,,26,10,13,0,1,86,83,78,78,4,7,4,4,0.3,0.4
2022-09-04T23:00:00,1173A,119.176,34.5885,连云港市,市环境监测站,,33,17,34,5,15,160,103,139,126,12,16,4,6,0.2,0.4
2022-09-04T23:00:00,1177A,117.179,34.2761,徐州市,黄河新村,颗粒物(PM10),70,90,64,42,30,212,50,172,139,66,33,11,16,1.0,0.7
2022-09-04T23:00:00,1178A,117.1918,34.2384,徐州市,淮塔,颗粒物(PM10),62,73,62,36,28,199,82,169,144,28,24,10,16,0.8,0.8
2022-09-04T23:00:00,1180A,117.256,34.2153,徐州市,新城区,颗粒物(PM10),63,76,68,34,30,206,85,172,151,39,29,11,14,0.7,0.7
2022-09-04T23:00:00,1181A,117.244,34.2911,徐州市,桃园路,颗粒物(PM10),60,70,75,29,25,218,85,183,152,42,38,8,14,0.8,0.8
2022-09-04T23:00:00,1182A,117.2933,34.2778,徐州市,农科院,颗粒物(PM10),58,66,71,27,24,207,91,178,159,44,37,11,15,0.9,0.8
2022-09-04T23:00:00,1186A,119.389,32.3761,扬州市,邗江监测站,,24,12,10,6,6,96,74,88,77,11,10,6,6,0.4,0.5
2022-09-04T23:00:00,1188A,120.269,31.4867,无锡市,雪浪,,20,5,19,5,13,69,64,61,61,2,8,4,4,0.4,0.8
2022-09-04T23:00:00,1189A,120.275,31.6219,无锡市,黄巷,,20,7,19,2,12,66,64,62,62,2,9,4,4,0.4,0.8
2022-09-04T23:00:00,1190A,120.294,31.56,无锡市,曹张,,21,10,19,5,12,68,65,62,62,4,11,5,5,0.4,0.9
2022-09-04T23:00:00,1191A,120.242,31.5031,无锡市,漆塘,,21,5,13,2,10,71,67,64,64,2,9,6,6,0.5,0.9
2022-09-04T23:00:00,1192A,120.3489,31.5863,无锡市,东亭,,20,9,16,5,8,69,63,62,62,1,7,7,7,0.6,0.8
2022-09-04T23:00:00,1193A,120.354,31.5475,无锡市,旺庄,,22,12,15,5,7,71,68,65,65,6,12,6,6,0.6,0.8
2022-09-04T23:00:00,1194A,120.245,31.5631,无锡市,荣巷,,22,9,16,9,15,68,68,64,64,2,8,6,6,0.4,0.9
2022-09-04T23:00:00,1195A,120.299,31.6817,无锡市,堰桥,,23,7,18,5,11,76,73,72,72,5,11,6,6,0.4,0.7
2022-09-04T23:00:00,1196A,119.9633,31.762,常州市,市监测站,,23,11,16,4,9,79,73,71,71,8,10,5,4,0.3,0.4
2022-09-04T23:00:00,1200A,119.9468,31.7069,常州市,武进监测站,,25,15,15,3,9,82,78,76,76,2,4,5,5,0.5,0.5
2022-09-04T23:00:00,1201A,119.9255,31.9087,常州市,安家,,26,13,16,3,10,90,83,84,84,6,6,6,5,0.2,0.3
2022-09-04T23:00:00,1203A,119.6707,32.1875,镇江市,新区办事处,,27,5,7,4,6,92,86,83,81,13,13,10,8,0.3,0.4
2022-09-04T23:00:00,1204A,119.4974,32.1968,镇江市,职教中心,,,,10,,2,69,,67,,,7,,3,,0.3
2022-09-04T23:00:00,1205A,119.4303,32.1328,镇江市,丹徒区监测站,,28,10,10,4,10,91,88,81,81,6,8,1,2,0.2,0.3
2022-09-04T23:00:00,1206A,119.905,32.4878,泰州市,公园路,,19,12,6,5,5,73,58,70,61,12,8,5,6,0.5,0.5
2022-09-04T23:00:00,1207A,119.9189,32.4625,泰州市,莲花,,25,7,6,5,8,79,77,76,76,10,9,8,8,0.5,0.5
2022-09-04T23:00:00,1209A,119.888,32.4639,泰州市,留学生创业园,,25,12,9,7,6,82,80,78,78,7,7,5,5,0.4,0.5
2022-09-04T23:00:00,1210A,119.036,33.5981,淮安市,钵池山,,27,27,27,15,12,117,65,110,92,22,13,6,5,0.6,0.7
2022-09-04T23:00:00,1211A,119.007,33.575,淮安市,北京南路,,25,24,31,14,14,116,78,110,98,18,13,11,10,0.6,0.7
2022-09-04T23:00:00,1212A,118.989,33.6067,淮安市,市监测站,,27,27,33,16,14,122,80,116,105,20,16,9,8,0.9,1
2022-09-04T23:00:00,1213A,119.135,33.5039,淮安市,楚州区监测站,,27,22,30,9,10,103,84,100,93,10,11,5,5,0.6,0.8
2022-09-04T23:00:00,1214A,119.0186,33.6297,淮安市,淮阴区监测站,,31,31,34,21,16,117,66,111,96,25,15,10,8,0.7,0.7
2022-09-04T23:00:00,1215A,120.118,33.4022,盐城市,盐城电厂,,30,9,9,5,5,98,94,94,94,4,4,6,5,0.3,0.3
2022-09-04T23:00:00,1216A,120.156,33.3942,盐城市,市监测站,,27,14,10,5,7,92,84,89,89,10,8,10,7,0.2,0.2
2022-09-04T23:00:00,1218A,120.2144,33.38,盐城市,开发区管委会,,29,6,7,2,2,99,91,92,92,2,4,9,8,0.3,0.4
2022-09-04T23:00:00,1220A,118.293,33.9528,宿迁市,宿迁学院,,46,46,32,21,18,149,90,141,122,27,16,7,10,0.3,0.4
2022-09-04T23:00:00,1221A,118.2442,33.9592,宿迁市,宿迁中学,,43,43,34,17,18,188,82,158,128,26,16,7,11,0.5,0.6
2022-09-04T23:00:00,1223A,120.2072,30.2111,杭州市,滨江,,16,15,14,9,11,55,50,52,52,15,18,5,4,0.4,0.5
2022-09-04T23:00:00,1224A,120.0633,30.2747,杭州市,西溪,,17,17,16,8,7,49,49,46,46,10,12,7,7,0.7,0.7
2022-09-04T23:00:00,1225A,119.026,29.635,杭州市,千岛湖(对照点),,,,,,,,,,,,,,,,
2022-09-04T23:00:00,1226A,120.3461,30.3153,杭州市,下沙,,17,11,17,6,10,72,53,58,53,9,15,5,5,0.4,0.6
2022-09-04T23:00:00,1227A,120.1269,30.2456,杭州市,卧龙桥,,17,15,12,7,8,53,53,52,52,11,13,5,5,0.6,0.6
2022-09-04T23:00:00,1228A,120.1903,30.2692,杭州市,浙江农大,,16,12,12,8,10,55,51,53,53,13,16,3,3,0.6,0.6
2022-09-04T23:00:00,1229A,120.157,30.2897,杭州市,朝晖五区,,,,,,,,,,,,,,,,
2022-09-04T23:00:00,1230A,120.1197,30.3119,杭州市,和睦小学,,18,18,18,10,11,45,45,39,39,20,25,1,2,0.6,0.6
2022-09-04T23:00:00,1231A,120.3019,30.4183,杭州市,临平镇,,18,8,19,4,10,76,56,60,54,10,16,5,5,0.4,0.6
2022-09-04T23:00:00,1232A,120.2697,30.1819,杭州市,城厢镇,,16,15,16,7,10,78,51,60,53,12,16,6,6,0.5,0.6
2022-09-04T23:00:00,1233A,120.0883,30.1808,杭州市,云栖,,18,15,11,5,5,56,56,55,55,8,10,8,7,0.5,0.5
2022-09-04T23:00:00,1234A,121.8358,29.911,宁波市,区环保大楼,,33,33,15,4,5,51,43,41,41,2,6,6,6,0.5,0.5
2022-09-04T23:00:00,1235A,121.56,29.82,宁波市,万里学院,,17,17,15,0,7,49,41,40,37,4,3,5,5,0.6,0.6
2022-09-04T23:00:00,1236A,121.713,29.9572,宁波市,龙赛医院,,16,16,10,4,5,56,44,43,43,2,3,5,5,0.4,0.5
2022-09-04T23:00:00,1239A,121.633,29.7733,宁波市,钱湖水厂,,14,9,14,6,6,52,42,42,42,4,6,4,4,0.4,0.5
2022-09-04T23:00:00,1240A,121.5856,29.8635,宁波市,太古小学,,13,11,11,4,6,50,40,42,41,4,7,5,6,0.5,0.5
2022-09-04T23:00:00,1241A,121.524,29.8674,宁波市,市环境监测中心,,16,16,17,1,4,47,36,37,36,5,7,3,3,0.3,0.4
2022-09-04T23:00:00,1242A,120.634,28.0089,温州市,瓯海,,17,7,12,2,5,72,52,66,58,8,13,6,6,0.4,0.5
2022-09-04T23:00:00,1243A,120.6748,27.9939,温州市,南浦,,17,6,10,4,7,75,54,67,61,5,10,4,4,0.3,0.4
2022-09-04T23:00:00,1244A,120.76,27.9747,温州市,龙湾,,15,8,12,2,5,71,48,61,55,10,11,5,5,0.5,0.5
2022-09-04T23:00:00,1245A,120.6709,28.0167,温州市,市站,,16,6,12,2,5,73,51,64,58,10,15,5,5,0.4,0.4
2022-09-04T23:00:00,1246A,120.598,30.0911,绍兴市,袍江站,,,,,,,,,,,,,,,,
2022-09-04T23:00:00,1247A,120.6053,29.9928,绍兴市,城东开发委,,15,12,16,6,10,61,46,47,45,5,12,7,7,0.6,0.6
2022-09-04T23:00:00,1250A,120.0751,30.8669,湖州市,城西水厂,,22,14,18,4,10,68,68,62,62,10,15,4,4,0.3,0.4
2022-09-04T23:00:00,1252A,120.7436,30.778,嘉兴市,清河小学,,21,5,15,4,9,66,66,55,55,6,14,5,5,0.4,0.6
2022-09-04T23:00:00,1253A,120.726,30.7478,嘉兴市,嘉兴学院,,20,12,19,2,11,62,61,54,53,7,16,3,3,0.4,0.7
2022-09-04T23:00:00,1255A,121.273,28.6459,台州市,黄岩环保大楼,,12,0,9,4,5,51,36,43,37,8,8,4,4,0.3,0.3
2022-09-04T23:00:00,1256A,121.419,28.6542,台州市,台州环保大楼,,11,10,9,2,4,46,35,45,39,10,6,5,5,0.4,0.3
2022-09-04T23:00:00,1257A,121.377,28.5773,台州市,路桥田洋王,,12,5,6,4,6,52,38,44,39,8,7,3,4,0.4,0.3
2022-09-04T23:00:00,1258A,122.122,30.0203,舟山市,定海檀枫,,15,15,16,4,5,43,40,37,37,3,4,1,1,0.3,0.3
2022-09-04T23:00:00,1259A,122.3094,29.9558,舟山市,普陀东港,,21,21,20,6,6,45,44,40,39,10,11,2,2,0.4,0.3
2022-09-04T23:00:00,1260A,122.19,29.9944,舟山市,临城新区,,21,21,17,5,4,45,41,40,40,2,2,2,2,0.4,0.4
2022-09-04T23:00:00,1261A,119.649,29.1131,金华市,四中(停运161031),,,,,,,,,,,,,,,,
2022-09-04T23:00:00,1262A,119.647,29.077,金华市,十五中,,15,10,32,6,23,67,47,60,58,18,21,10,10,0.6,0.7
2022-09-04T23:00:00,1263A,119.686,29.1029,金华市,监测站,,17,13,26,1,14,64,52,58,58,9,20,3,6,0.4,0.7
2022-09-04T23:00:00,1264A,118.8692,28.9398,衢州市,环保大楼,,26,26,33,5,21,76,76,65,65,8,12,4,7,0.6,0.7
2022-09-04T23:00:00,1265A,118.8709,28.9666,衢州市,实验学校,,20,20,30,4,22,69,63,58,57,20,20,6,7,0.4,0.5
2022-09-04T23:00:00,1266A,118.8621,28.9808,衢州市,衢州学院,,21,6,28,3,23,71,66,68,66,15,14,5,8,0.5,0.5
2022-09-04T23:00:00,1267A,119.914,28.4514,丽水市,监测站大楼,,18,14,14,7,10,68,56,52,52,6,15,6,6,0.4,0.6
2022-09-04T23:00:00,1268A,119.93,28.4586,丽水市,莲都小学,,19,7,15,4,8,72,59,60,60,6,14,6,6,0.4,0.5
2022-09-04T23:00:00,1269A,119.879,28.4231,丽水市,余庄前,,13,12,22,9,10,43,11,21,14,18,23,7,8,0.6,0.6
2022-09-04T23:00:00,1270A,117.1959,31.7848,合肥市,明珠广场,颗粒物(PM10),51,51,47,22,21,168,102,160,134,23,18,12,11,0.5,0.4
2022-09-04T23:00:00,1271A,117.3072,31.8764,合肥市,三里街,颗粒物(PM10),54,57,53,19,20,172,81,153,130,34,23,10,10,0.7,0.6
2022-09-04T23:00:00,1272A,117.2588,31.8707,合肥市,琥珀山庄,,48,48,51,24,21,166,97,158,135,20,16,8,7,0.7,0.6
2022-09-04T23:00:00,1273A,117.1604,31.9052,合肥市,董铺水库(对照点),颗粒物(PM10),51,51,52,17,16,142,65,128,104,27,18,10,9,0.5,0.5
2022-09-04T23:00:00,1274A,117.25,31.8571,合肥市,长江中路,颗粒物(PM10),60,70,55,27,25,166,77,157,123,35,16,10,10,0.6,0.5
2022-09-04T23:00:00,1275A,117.266,31.9436,合肥市,庐阳区,颗粒物(PM10),51,51,57,29,25,167,89,157,130,24,17,10,10,0.8,0.8
2022-09-04T23:00:00,1276A,117.336,31.8586,合肥市,瑶海区,颗粒物(PM10),56,61,60,20,20,161,84,150,125,33,25,14,15,0.8,0.7
2022-09-04T23:00:00,1277A,117.3027,31.7964,合肥市,包河区,颗粒物(PM10),56,61,52,22,22,163,92,153,125,36,27,10,10,0.6,0.5
2022-09-04T23:00:00,1278A,117.2776,31.7385,合肥市,滨湖新区,颗粒物(PM10),54,58,53,17,17,162,93,152,124,36,28,13,12,0.6,0.6
2022-09-04T23:00:00,1279A,117.1318,31.8403,合肥市,高新区,,48,48,53,22,21,161,96,152,126,21,18,5,6,0.5,0.5
2022-09-04T23:00:00,1280A,119.3903,26.0543,福州市,鼓山(对照点),,,,,,,,,,,,,,,,
2022-09-04T23:00:00,1282A,119.2681,26.0504,福州市,师大,,23,19,20,6,6,85,72,83,75,4,4,3,3,0.3,0.3
2022-09-04T23:00:00,1283A,119.2984,26.1028,福州市,五四北路,,23,14,23,7,7,84,71,82,72,9,10,2,2,0.3,0.4
2022-09-04T23:00:00,1284A,119.2648,26.0768,福州市,杨桥西路,,23,18,19,9,8,83,72,82,74,5,5,3,3,0.4,0.5
2022-09-04T23:00:00,1285A,119.317,26.0746,福州市,紫阳,,21,18,20,12,8,83,67,82,72,7,6,4,4,0.3,0.3
2022-09-04T23:00:00,1286A,118.1608,24.8169,厦门市,溪东(对照点),,,,,,,,,,,,,,,,
2022-09-04T23:00:00,1287A,118.1514,24.4767,厦门市,洪文,,24,24,21,9,12,122,50,99,64,13,12,2,2,0.3,0.3
2022-09-04T23:00:00,1288A,118.0661,24.4444,厦门市,鼓浪屿,,20,20,16,12,8,120,48,82,55,6,13,3,3,0.3,0.3
2022-09-04T23:00:00,1290A,115.8931,28.6843,南昌市,省外办,颗粒物(PM10),51,52,47,21,14,184,125,157,138,14,12,8,9,0.7,0.7
2022-09-04T23:00:00,1291A,115.8886,28.7003,南昌市,省林业公司,,44,44,37,12,8,180,111,154,134,26,16,5,6,0.8,0.7
2022-09-04T23:00:00,1292A,115.8126,28.7442,南昌市,林科所,,36,29,33,19,13,168,114,159,141,27,10,7,7,0.5,0.5
2022-09-04T23:00:00,1294A,115.8518,28.687,南昌市,建工学校,细颗粒物(PM2.5),57,58,43,40,18,178,140,159,141,10,12,11,11,0.5,0.5
2022-09-04T23:00:00,1295A,115.8921,28.6424,南昌市,象湖,,42,42,34,12,10,177,127,157,140,11,10,6,6,0.8,0.7
2022-09-04T23:00:00,1296A,115.7423,28.7996,南昌市,武术学校(对照点),,34,34,28,14,17,144,87,133,106,5,6,3,2,0.3,0.3
2022-09-04T23:00:00,1298A,115.9314,28.6842,南昌市,省站,颗粒物(PM10),57,64,44,26,21,178,114,153,132,21,17,6,6,0.7,0.7
2022-09-04T23:00:00,1299A,116.9862,36.6114,济南市,科干所,颗粒物(PM10),52,53,83,20,34,186,104,166,123,36,44,6,8,0.2,0.3
2022-09-04T23:00:00,1300A,116.9376,36.665,济南市,农科所,,,,56,,21,72,,58,,,43,,7,,0.5
2022-09-04T23:00:00,1301A,117.1265,36.6734,济南市,开发区,,,,75,,25,101,,79,,,50,,10,,0.8
2022-09-04T23:00:00,1303A,117.0624,36.6868,济南市,省种子仓库,,,,70,,28,94,,77,,,44,,9,,0.8
2022-09-04T23:00:00,1304A,116.9489,36.6447,济南市,机床二厂,,,,95,,29,88,,69,,,47,,9,,0.7
2022-09-04T23:00:00,1305A,117.0495,36.663,济南市,市监测站,,,,73,,31,103,,84,,,41,,11,,0.9
2022-09-04T23:00:00,1306A,116.7675,36.5484,济南市,长清党校,颗粒物(PM10),55,59,64,24,27,161,84,148,130,39,41,5,7,0.5,0.6
2022-09-04T23:00:00,1307A,120.6659,36.2403,青岛市,仰口(对照点),,,,,,,,,,,,,,,,
2022-09-04T23:00:00,1308A,120.3905,36.1851,青岛市,李沧区子站,,,,,,,,,,,,,,,,
2022-09-04T23:00:00,1309A,120.3471,36.0699,青岛市,市北区子站,,,,,,,,,,,,,,,,
2022-09-04T23:00:00,1310A,120.4134,36.0658,青岛市,市南区东部子站,,27,14,14,7,4,120,86,105,95,14,15,7,7,0.2,0.2
2022-09-04T23:00:00,1311A,120.3664,36.1032,青岛市,四方区子站,,21,12,11,5,4,113,65,98,86,25,15,5,5,0.4,0.4
2022-09-04T23:00:00,1312A,120.2994,36.054,青岛市,市南区西部子站,,24,9,13,2,3,119,75,110,99,28,16,8,7,0.4,0.5
2022-09-04T23:00:00,1313A,120.4581,36.0858,青岛市,崂山区子站,,35,5,16,5,6,132,110,117,113,6,14,5,5,0.2,0.2
2022-09-04T23:00:00,1314A,120.1983,35.9608,青岛市,黄岛区子站,,33,9,20,7,12,145,103,125,121,8,26,5,6,0.3,0.4
2022-09-04T23:00:00,1315A,120.3999,36.3083,青岛市,城阳区子站,,19,17,12,11,6,125,58,104,87,24,14,5,5,0.6,0.5
2022-09-04T23:00:00,1316A,113.69031,34.76122,郑州市,烟厂,颗粒物(PM10),63,76,53,31,29,193,21,166,122,102,23,5,4,0.9,0.7
2022-09-04T23:00:00,1317A,113.65724,34.77134,郑州市,郑纺机,,,81,54,,23,165,5,143,92,109,23,7,8,0.9,0.6
2022-09-04T23:00:00,1318A,113.67526,34.80246,郑州市,银行学校,颗粒物(PM10),59,68,48,25,25,166,33,143,113,74,20,6,7,0.9,0.8
2022-09-04T23:00:00,1319A,113.56746,34.81334,郑州市,供水公司,,,72,52,,22,164,53,144,111,,12,4,5,0.5,0.5
2022-09-04T23:00:00,1320A,113.7329,34.7178,郑州市,经开区管委,颗粒物(PM10),76,101,53,38,29,172,8,154,106,93,22,3,4,0.9,0.7
2022-09-04T23:00:00,1321A,113.73961,34.77172,郑州市,四十七中,颗粒物(PM10),68,85,51,31,26,175,11,152,108,117,26,5,6,1.1,0.8
2022-09-04T23:00:00,1322A,113.60532,34.74838,郑州市,市监测站,颗粒物(PM10),74,98,56,30,28,161,5,142,85,98,32,6,7,1.0,0.7
2022-09-04T23:00:00,1323A,113.64164,34.7525,郑州市,河医大,颗粒物(PM10),63,76,55,27,30,172,4,150,106,99,20,5,7,1.0,0.8
2022-09-04T23:00:00,1324A,113.51488,34.91089,郑州市,岗李水库(对照点),,,,,,,,,,,,,,,,
2022-09-04T23:00:00,1325A,114.3677,30.5584,武汉市,东湖梨园,细颗粒物(PM2.5),68,63,40,49,28,156,107,152,134,29,15,27,11,3.1,0.9
2022-09-04T23:00:00,1326A,114.2529,30.558,武汉市,汉阳月湖,,47,47,40,31,25,153,128,150,137,16,14,6,6,0.7,0.7
2022-09-04T23:00:00,1327A,114.282,30.6189,武汉市,汉口花桥,细颗粒物(PM2.5),53,53,45,37,32,161,132,156,145,14,13,8,8,0.8,0.8
2022-09-04T23:00:00,1328A,114.3025,30.5332,武汉市,武昌紫阳,,48,48,37,26,24,159,126,153,136,17,13,11,11,0.8,0.7
2022-09-04T23:00:00,1329A,114.3646,30.6217,武汉市,青山钢花,细颗粒物(PM2.5),64,53,51,46,34,151,121,146,133,18,15,8,8,0.7,0.6
2022-09-04T23:00:00,1330A,114.1566,30.4825,武汉市,沌口新区,颗粒物(PM10),52,54,48,29,33,161,132,156,142,12,18,10,10,0.7,0.7
2022-09-04T23:00:00,1331A,114.3014,30.5944,武汉市,汉口江滩,细颗粒物(PM2.5),63,49,41,45,34,165,130,159,136,13,12,10,11,0.8,0.8
2022-09-04T23:00:00,1333A,114.135,30.6319,武汉市,吴家山,颗粒物(PM10),54,58,54,34,35,160,138,155,145,9,13,6,6,0.8,0.7
2022-09-04T23:00:00,1334A,113.8454,30.2917,武汉市,沉湖七壕(对照点),细颗粒物(PM2.5),54,53,50,38,34,170,91,160,128,18,14,8,9,0.8,0.8
2022-09-04T23:00:00,1335A,113.0833,28.2325,长沙市,经开区环保局,细颗粒物(PM2.5),70,54,49,51,38,161,112,155,140,23,15,7,7,0.5,0.4
2022-09-04T23:00:00,1336A,112.8872,28.2189,长沙市,高开区环保局,"颗粒物(PM10),细颗粒物(PM2.5)",57,64,50,40,30,167,109,163,144,20,7,8,8,0.5,0.4
2022-09-04T23:00:00,1337A,113.0792,28.2053,长沙市,马坡岭,细颗粒物(PM2.5),78,62,52,57,39,180,121,173,156,24,17,8,8,0.4,0.3
2022-09-04T23:00:00,1338A,112.9394,28.19,长沙市,湖南师范大学,,,,57,40,33,154,114,151,141,11,8,4,4,0.6,0.6
2022-09-04T23:00:00,1339A,113.0178,28.1322,长沙市,雨花区环保局,细颗粒物(PM2.5),52,52,45,36,26,174,125,168,155,20,12,7,7,0.3,0.3
2022-09-04T23:00:00,1340A,112.9792,28.2597,长沙市,伍家岭,细颗粒物(PM2.5),62,61,48,44,29,162,112,158,144,16,9,5,5,0.5,0.5
2022-09-04T23:00:00,1341A,113.0014,28.1944,长沙市,火车新站,细颗粒物(PM2.5),115,57,50,87,40,161,112,156,143,18,12,8,8,0.6,0.5
2022-09-04T23:00:00,1342A,112.9844,28.1178,长沙市,天心区环保局,细颗粒物(PM2.5),59,57,51,42,29,166,110,159,145,20,12,5,5,0.6,0.5
2022-09-04T23:00:00,1343A,112.8908,28.1308,长沙市,湖南中医药大学,细颗粒物(PM2.5),64,55,44,46,32,162,105,158,140,19,8,5,5,0.7,0.6
2022-09-04T23:00:00,1344A,112.9581,28.3611,长沙市,沙坪(对照点),细颗粒物(PM2.5),54,55,52,38,27,161,116,156,144,14,10,6,5,0.7,0.7
2022-09-04T23:00:00,1345A,113.2347,23.1423,广州市,广雅中学,颗粒物(PM10),51,52,46,26,24,152,62,142,109,52,32,8,7,0.8,0.8
2022-09-04T23:00:00,1346A,113.2612,23.105,广州市,市五中,,49,49,39,31,25,174,82,161,128,34,19,8,7,0.7,0.7
2022-09-04T23:00:00,1348A,113.3478,23.0916,广州市,广东商学院,颗粒物(PM10),62,74,46,32,23,164,31,142,106,82,29,7,6,0.6,0.5
2022-09-04T23:00:00,1349A,113.4332,23.1047,广州市,市八十六中,,45,45,36,20,18,171,112,145,132,25,18,7,7,0.6,0.6
2022-09-04T23:00:00,1350A,113.3505,22.9483,广州市,番禺中学,颗粒物(PM10),54,58,39,28,21,178,78,154,129,36,19,5,5,0.5,0.5
2022-09-04T23:00:00,1351A,113.2146,23.3916,广州市,花都师范,,35,35,35,18,20,160,112,147,130,21,18,6,8,1.0,0.9
2022-09-04T23:00:00,1352A,113.2597,23.1331,广州市,市监测站,颗粒物(PM10),56,62,46,32,24,169,54,156,119,72,29,7,7,0.9,0.8
2022-09-04T23:00:00,1353A,113.5618,23.312,广州市,九龙镇镇龙,颗粒物(PM10),64,77,44,33,21,134,55,119,108,47,18,5,5,0.8,0.7
2022-09-04T23:00:00,1354A,113.2765,23.1544,广州市,麓湖,颗粒物(PM10),52,53,42,29,23,166,31,148,103,60,30,4,4,0.8,0.7
2022-09-04T23:00:00,1355A,113.443,23.3035,广州市,帽峰山森林公园(对照点),,38,38,30,22,18,152,107,134,129,14,10,8,8,0.7,0.7
2022-09-04T23:00:00,1356A,114.1063,22.5545,深圳市,通心岭子站,,33,33,26,19,13,148,74,134,116,12,8,4,4,0.6,0.6
2022-09-04T23:00:00,1357A,114.117,22.5625,深圳市,洪湖,,46,46,31,21,14,147,51,133,104,41,20,6,6,0.9,0.8
2022-09-04T23:00:00,1358A,113.987,22.5417,深圳市,华侨城,颗粒物(PM10),51,52,33,24,15,149,85,134,118,17,10,8,7,0.8,0.7
2022-09-04T23:00:00,1359A,113.9181,22.5171,深圳市,南海子站,,40,40,20,26,17,167,107,154,134,17,10,6,4,0.8,0.8
2022-09-04T23:00:00,1360A,114.2458,22.5689,深圳市,盐田,,26,26,28,14,14,131,74,127,106,20,13,5,5,0.6,0.6
2022-09-04T23:00:00,1361A,114.2283,22.7244,深圳市,龙岗,,37,37,30,18,15,123,42,118,92,41,14,5,6,0.6,0.6
2022-09-04T23:00:00,1362A,113.8953,22.5861,深圳市,西乡,,,,,,,,,,,,,,,,
2022-09-04T23:00:00,1363A,114.494,22.5422,深圳市,南澳,,29,29,25,10,11,124,84,116,102,12,10,9,9,0.4,0.5
2022-09-04T23:00:00,1364A,114.41,22.6342,深圳市,葵涌,,38,38,27,15,14,126,58,120,90,19,10,7,7,0.7,0.6
2022-09-04T23:00:00,1365A,114.297,22.5978,深圳市,梅沙,,32,32,28,13,12,140,75,128,104,17,10,7,8,0.6,0.5
2022-09-04T23:00:00,1366A,114.0678,22.738,深圳市,观澜,颗粒物(PM10),60,70,40,29,15,141,66,127,107,17,13,6,6,0.3,0.3
2022-09-04T23:00:00,1367A,113.5814,22.2618,珠海市,吉大,,44,44,41,25,22,174,106,161,148,16,14,5,5,0.5,0.5
2022-09-04T23:00:00,1368A,113.4881,22.2335,珠海市,前山,颗粒物(PM10),57,64,45,26,22,210,78,181,155,43,24,8,6,0.7,0.5
2022-09-04T23:00:00,1369A,113.628,22.4251,珠海市,唐家,,50,44,45,35,25,180,95,170,144,22,20,8,7,0.5,0.5
2022-09-04T23:00:00,1370A,113.299,22.2281,珠海市,斗门,,,36,36,23,25,208,116,191,160,14,18,8,9,,0.7
2022-09-04T23:00:00,1371A,113.1294,23.0067,佛山市,湾梁,颗粒物(PM10),56,61,42,24,22,147,58,133,101,36,15,10,7,0.6,0.5
2022-09-04T23:00:00,1372A,113.1083,23.0478,佛山市,华材职中,颗粒物(PM10),53,56,46,30,26,156,47,143,102,55,23,15,10,0.8,0.7
2022-09-04T23:00:00,1373A,113.144,23.0453,佛山市,南海气象局,颗粒物(PM10),52,54,42,27,23,165,64,151,116,42,20,10,7,0.8,0.7
2022-09-04T23:00:00,1374A,113.2881,22.8094,佛山市,顺德苏岗,,43,43,33,22,19,180,71,167,133,34,19,6,7,0.8,0.7
2022-09-04T23:00:00,1375A,113.2544,22.7642,佛山市,容桂街道办,,,,,,,,,,,,,,,,
2022-09-04T23:00:00,1376A,112.8383,22.8678,佛山市,高明孔堂,,49,49,45,27,22,169,67,155,112,34,21,14,10,0.6,0.5
2022-09-04T23:00:00,1377A,112.8836,23.1588,佛山市,三水监测站,颗粒物(PM10),53,56,46,32,27,130,54,125,95,42,27,8,8,0.7,0.6
2022-09-04T23:00:00,1378A,112.867,23.185,佛山市,三水云东海,,45,45,43,30,26,132,47,126,82,42,28,6,7,0.6,0.6
2022-09-04T23:00:00,1379A,113.3769,22.5211,中山市,华柏园,,36,36,39,23,25,201,73,182,147,35,20,8,6,0.7,0.6
2022-09-04T23:00:00,1380A,113.3881,22.5497,中山市,张溪,,50,50,47,31,28,194,76,177,142,33,19,4,4,0.7,0.6
2022-09-04T23:00:00,1381A,113.4075,22.5111,中山市,紫马岭,,36,36,44,22,21,194,82,177,145,26,21,5,6,0.7,0.6
2022-09-04T23:00:00,1382A,113.4411,22.4853,中山市,长江旅游区(对照点),,46,46,30,11,27,204,73,181,145,15,15,8,9,0.3,0.3
2022-09-04T23:00:00,1383A,113.1064,22.6058,江门市,北街,,35,35,45,18,22,203,94,183,140,21,17,7,8,0.7,0.6
2022-09-04T23:00:00,1384A,113.0731,22.5835,江门市,西区,,44,44,47,25,26,194,84,178,132,27,22,10,9,0.6,0.6
2022-09-04T23:00:00,1385A,113.0219,22.5311,江门市,圭峰西,,34,25,40,14,20,176,106,166,139,14,14,8,9,0.5,0.6
2022-09-04T23:00:00,1386A,113.0828,22.5947,江门市,东湖,,36,36,43,11,22,195,100,180,142,16,17,8,8,0.6,0.6
2022-09-04T23:00:00,1387A,113.7875,23.0457,东莞市,东城主山,,,,,,,,,,,,,,,,
2022-09-04T23:00:00,1388A,113.7533,23.0202,东莞市,南城元岭,,,,,,,,,,,,,,,,
2022-09-04T23:00:00,1389A,113.7547,23.0494,东莞市,莞城梨川,,38,38,33,24,19,139,92,128,116,24,18,11,10,0.8,0.8
2022-09-04T23:00:00,1390A,113.7944,23.0128,东莞市,东城石井,,38,38,28,20,15,142,89,129,115,22,17,10,11,0.6,0.5
2022-09-04T23:00:00,1391A,113.7383,22.9658,东莞市,南城西平,,41,41,30,20,19,143,78,130,114,38,19,12,11,1.0,0.9
2022-09-04T23:00:00,1392A,114.4183,23.0528,惠州市,河南岸金山湖子站,,42,42,32,16,14,120,52,112,87,29,17,4,6,0.6,0.5
2022-09-04T23:00:00,1393A,114.4053,23.0822,惠州市,下埔横江三路子站,,43,43,32,18,15,121,49,121,88,37,22,5,5,0.6,0.6
2022-09-04T23:00:00,1394A,114.4103,23.1142,惠州市,江北云山西路子站,,46,46,33,18,16,126,37,118,91,40,6,7,9,0.7,0.7
2022-09-04T23:00:00,1395A,114.4645,22.7833,惠州市,惠阳区承修路船湖子站,,42,42,33,20,17,122,60,114,92,18,10,7,6,0.7,0.6
2022-09-04T23:00:00,1396A,114.5317,22.7422,惠州市,大亚湾管委会子站,,30,30,30,17,16,125,81,117,100,17,12,3,3,0.7,0.7
2022-09-04T23:00:00,1397A,112.4267,23.0706,肇庆市,睦岗子站,,37,37,35,20,21,146,105,140,112,17,16,5,5,0.5,0.5
2022-09-04T23:00:00,1398A,112.4645,23.0475,肇庆市,城中子站,,37,37,33,22,20,145,73,139,109,35,13,8,7,0.6,0.5
2022-09-04T23:00:00,1399A,112.5544,23.1522,肇庆市,坑口子站,,29,27,32,19,23,136,91,132,109,14,13,8,8,0.5,0.5
2022-09-04T23:00:00,1400A,112.4753,23.1,肇庆市,七星岩子站(对照点),,,,,,,,,,,,,,,,
2022-09-04T23:00:00,1401A,108.3103,22.7881,南宁市,二十一中,,32,32,50,21,28,146,79,136,111,22,29,6,9,0.7,0.8
2022-09-04T23:00:00,1402A,108.3141,22.8528,南宁市,北湖,,46,46,53,25,29,147,82,137,114,15,24,5,11,0.7,0.7
2022-09-04T23:00:00,1403A,108.3206,22.8225,南宁市,市监测站,,41,41,49,25,30,143,73,129,105,32,35,7,11,0.6,0.7
2022-09-04T23:00:00,1404A,108.3829,22.8037,南宁市,大自然花园,,43,43,43,22,25,147,82,138,116,19,20,9,10,0.6,0.7
2022-09-04T23:00:00,1405A,108.4394,22.7904,南宁市,仙葫(对照点),颗粒物(PM10),54,58,53,30,29,133,56,127,103,36,29,8,14,0.7,0.7
2022-09-04T23:00:00,1406A,108.2397,22.8467,南宁市,区农职院,,35,30,42,24,25,148,71,136,110,20,18,8,10,0.7,0.7
2022-09-04T23:00:00,1407A,108.3275,22.735,南宁市,英华嘉园,颗粒物(PM10),62,73,58,38,34,141,46,128,95,41,34,10,8,0.7,0.6
2022-09-04T23:00:00,1408A,108.2257,22.7757,南宁市,沙井镇街道办,,49,49,70,27,31,136,51,127,96,38,31,10,13,0.8,0.8
2022-09-04T23:00:00,1409A,110.576,19.9507,海口市,东寨港(对照点),,,48,40,32,23,,,,,,,4,3,0.9,0.8
2022-09-04T23:00:00,1410A,110.3232,20.0574,海口市,海南大学,"颗粒物(PM10),臭氧1小时",55,60,49,31,27,203,164,178,175,23,19,6,7,0.9,0.8
2022-09-04T23:00:00,1411A,110.283,20.0053,海口市,秀英海南医院,臭氧1小时,53,45,48,34,32,180,162,161,161,13,20,6,8,0.7,0.7
2022-09-04T23:00:00,1412A,110.338,19.9969,海口市,海南师范大学,臭氧1小时,65,58,52,24,24,193,172,170,170,13,18,5,5,0.7,0.7
2022-09-04T23:00:00,1413A,110.33,20.0356,海口市,龙华路环保局宿舍,臭氧1小时,58,47,44,29,23,200,166,176,174,8,12,6,6,0.7,0.7
2022-09-04T23:00:00,1414A,106.3787,29.8279,重庆市,缙云山(对照点),,34,13,12,8,7,107,107,103,103,11,10,5,4,0.4,0.4
2022-09-04T23:00:00,1416A,106.4213,29.8253,重庆市,天生,,45,45,28,17,24,126,27,107,79,38,18,5,5,0.8,0.8
2022-09-04T23:00:00,1417A,106.6263,29.7228,重庆市,两路,,36,31,29,25,19,115,40,106,79,43,17,9,7,0.8,0.8
2022-09-04T23:00:00,1418A,106.2953,29.5983,重庆市,虎溪,,30,30,28,19,12,110,48,101,82,32,16,9,6,0.6,0.6
2022-09-04T23:00:00,1419A,106.5777,29.5102,重庆市,南坪,,45,45,37,22,25,148,58,126,102,38,24,4,3,0.8,0.7
2022-09-04T23:00:00,1420A,106.6556,29.6277,重庆市,唐家沱,,46,46,35,16,15,150,8,120,74,77,34,6,6,0.6,0.6
2022-09-04T23:00:00,1421A,106.6349,29.4906,重庆市,茶园,,47,47,35,22,21,167,54,146,110,49,26,7,6,0.6,0.5
2022-09-04T23:00:00,1422A,106.3754,29.4572,重庆市,白市驿,,35,26,23,24,17,121,73,111,94,26,19,8,5,0.5,0.6
2022-09-04T23:00:00,1425A,106.6205,29.7166,重庆市,空港,,47,47,30,24,20,124,46,113,85,41,15,6,5,0.7,0.7
2022-09-04T23:00:00,1426A,106.4782,29.4875,重庆市,新山村,,33,32,29,15,18,134,37,114,82,66,33,4,8,0.5,0.5
2022-09-04T23:00:00,1427A,106.5616,29.6453,重庆市,礼嘉,,36,36,19,14,11,141,69,121,98,34,19,8,7,0.5,0.5
2022-09-04T23:00:00,1428A,106.4522,29.7091,重庆市,蔡家,,32,32,25,16,15,112,34,100,69,39,21,4,4,0.5,0.5
2022-09-04T23:00:00,1429A,106.5093,29.3917,重庆市,鱼新街,颗粒物(PM10),51,52,41,32,24,134,22,111,76,66,31,7,6,0.8,0.7
2022-09-04T23:00:00,1431A,103.9728,30.7236,成都市,金泉两河,,29,27,21,20,13,94,20,68,54,28,16,2,2,0.7,0.5
2022-09-04T23:00:00,1432A,104.1419,30.6764,成都市,十里店,,38,38,19,25,13,100,56,86,81,21,13,5,5,0.5,0.4
2022-09-04T23:00:00,1433A,104.0594,30.5767,成都市,三瓦窑,,41,41,22,24,16,115,54,90,83,38,26,3,3,0.6,0.5
2022-09-04T23:00:00,1434A,104.1122,30.6306,成都市,沙河铺,,43,43,22,20,13,103,37,84,74,25,17,5,5,0.7,0.6
2022-09-04T23:00:00,1437A,104.0431,30.6556,成都市,君平街,,35,35,23,24,15,102,42,81,71,26,13,4,4,0.8,0.6
2022-09-04T23:00:00,1438A,103.6202,31.0201,成都市,灵岩寺(对照点),,26,7,5,3,2,104,83,98,94,5,6,5,5,0.4,0.5
2022-09-04T23:00:00,1439A,106.6899,26.5998,贵阳市,马鞍山,,27,27,10,9,5,103,62,93,83,8,5,5,5,0.3,0.3
2022-09-04T23:00:00,1440A,106.6971,26.5694,贵阳市,市环保站,,27,19,6,15,7,98,84,92,91,9,6,4,4,0.3,0.3
2022-09-04T23:00:00,1441A,106.6243,26.6266,贵阳市,鉴湖路,,28,19,12,12,5,99,88,94,93,6,5,4,3,0.2,0.2
2022-09-04T23:00:00,1442A,106.7487,26.6343,贵阳市,燕子冲,,28,27,18,19,16,92,54,83,75,13,6,7,7,0.5,0.4
2022-09-04T23:00:00,1443A,106.6555,26.4365,贵阳市,碧云窝,,34,34,20,12,7,112,96,105,103,8,6,4,3,0.3,0.4
2022-09-04T23:00:00,1444A,106.694,26.5161,贵阳市,中院村,,28,19,14,14,6,98,88,92,91,5,6,8,7,0.4,0.4
2022-09-04T23:00:00,1445A,106.7109,26.6027,贵阳市,红边门,,30,27,15,17,9,104,94,98,98,7,5,3,3,0.4,0.4
2022-09-04T23:00:00,1446A,106.7164,26.5699,贵阳市,新华路,,28,19,12,19,9,98,87,92,91,5,4,5,4,0.4,0.4
2022-09-04T23:00:00,1447A,106.674,26.5424,贵阳市,太慈桥,,29,29,16,12,4,102,86,96,95,8,6,2,3,0.3,0.3
2022-09-04T23:00:00,1450A,102.8204,24.8886,昆明市,呈贡新区,,24,19,10,8,6,81,76,76,71,11,10,7,10,0.2,0.3
2022-09-04T23:00:00,1451A,102.6251,24.9608,昆明市,西山森林公园(对照点),,20,10,8,9,5,70,62,66,63,8,7,6,5,0.4,0.5
2022-09-04T23:00:00,1452A,102.7252,25.0902,昆明市,龙泉镇,,20,12,10,6,4,76,64,70,68,12,8,6,6,0.3,0.3
2022-09-04T23:00:00,1453A,102.7266,25.0375,昆明市,东风东路,,21,14,11,11,7,76,67,71,66,12,12,4,4,0.4,0.4
2022-09-04T23:00:00,1454A,102.6742,25.0669,昆明市,金鼎山,,22,11,10,5,4,78,68,74,72,7,6,1,2,0.3,0.3
2022-09-04T23:00:00,1455A,102.6644,25.0401,昆明市,碧鸡广场,,22,14,12,12,9,76,70,74,71,12,12,7,8,0.4,0.4
2022-09-04T23:00:00,1456A,91.1319,29.6514,拉萨市,八廓街,,,,,,,,,,,,,,,,
2022-09-04T23:00:00,1457A,91.1221,29.6747,拉萨市,市环保局,,32,1,3,0,2,113,100,104,98,6,6,6,7,0.2,0.2
2022-09-04T23:00:00,1458A,91.0874,29.6475,拉萨市,区监测站,,37,3,2,0,0,129,118,119,113,3,4,9,9,0.2,0.2
2022-09-04T23:00:00,1459A,91.1774,29.6541,拉萨市,西藏大学,,,10,4,3,1,118,,112,107,6,6,10,10,0.2,0.1
2022-09-04T23:00:00,1460A,90.9798,29.6588,拉萨市,区辐射站,,,,,,,,,,,,,,,,
2022-09-04T23:00:00,1461A,91.0834,29.6292,拉萨市,拉萨火车站,,,,,,2,116,110,109,106,4,4,9,10,0,0
2022-09-04T23:00:00,1462A,108.882,34.2749,西安市,高压开关厂,,,,38,,15,99,2,89,56,86,29,6,6,1.0,0.5
2022-09-04T23:00:00,1463A,108.993,34.2629,西安市,兴庆小区,,29,29,30,17,18,87,45,78,61,28,22,5,5,0.3,0.4
2022-09-04T23:00:00,1464A,109.06,34.2572,西安市,纺织城,颗粒物(PM10),53,55,38,18,14,92,3,70,40,51,36,5,6,0.6,0.5
2022-09-04T23:00:00,1465A,108.9356,34.2173,西安市,小寨,,,41,28,18,12,96,3,83,51,,28,11,8,0.6,0.5
2022-09-04T23:00:00,1466A,108.954,34.2713,西安市,市人民体育场,,50,50,33,16,15,95,13,84,57,64,28,7,7,0.6,0.5
2022-09-04T23:00:00,1467A,108.8922,34.2322,西安市,高新西区,颗粒物(PM10),54,57,33,20,15,94,2,86,54,80,35,6,6,0.8,0.5
2022-09-04T23:00:00,1468A,108.935,34.3474,西安市,经开区,颗粒物(PM10),54,58,39,23,17,98,6,84,58,68,30,5,4,0.7,0.4
2022-09-04T23:00:00,1469A,108.906,34.1546,西安市,长安区,,41,41,26,14,12,99,25,89,62,35,20,5,5,0.4,0.3
2022-09-04T23:00:00,1470A,109.2,34.6575,西安市,阎良区,,,,,,,,,,,,,,,,
2022-09-04T23:00:00,1471A,109.2186,34.3731,西安市,临潼区,,32,30,38,12,20,109,100,101,101,11,28,4,4,0.3,0.5
2022-09-04T23:00:00,1472A,108.869,34.378,西安市,草滩(对照点),颗粒物(PM10),69,88,52,31,17,77,4,67,40,80,42,8,7,1.2,0.9
2022-09-04T23:00:00,1473A,108.985,34.1978,西安市,曲江文化产业集团,,43,43,34,12,14,100,6,88,52,68,34,11,6,0.7,0.6
2022-09-04T23:00:00,1474A,109.051,34.3213,西安市,广运潭,,45,45,37,19,17,96,11,84,58,19,21,5,5,0.6,0.6
2022-09-04T23:00:00,1476A,103.631,36.1031,兰州市,兰炼宾馆,颗粒物(PM10),53,55,44,23,20,118,24,108,82,84,43,5,7,0.7,0.4
2022-09-04T23:00:00,1477A,104.1373,35.9454,兰州市,榆中兰大校区(对照点),,,,,,,,,,,,,,,,
2022-09-04T23:00:00,1478A,103.8412,36.0726,兰州市,生物制品所,颗粒物(PM10),62,74,48,34,28,130,23,119,90,62,41,7,11,0.6,0.6
2022-09-04T23:00:00,1479A,103.831,36.0464,兰州市,铁路设计院,颗粒物(PM10),57,63,48,21,20,109,28,100,75,69,47,5,8,0.8,0.7
2022-09-04T23:00:00,1480A,101.748,36.6428,西宁市,市环境监测站,,,,,,,,,,,,,,,,
2022-09-04T23:00:00,1482A,101.834,36.5819,西宁市,四陆医院,,,,,,,,,,,,,,,,
2022-09-04T23:00:00,1483A,101.524,36.6867,西宁市,第五水厂(对照点),,23,13,14,6,7,139,73,130,112,8,8,8,9,0.5,0.6
2022-09-04T23:00:00,1484A,105.9512,38.6016,银川市,贺兰山马莲口(对照点),,34,34,26,21,12,120,102,114,110,4,5,8,8,0.3,0.3
2022-09-04T23:00:00,1488A,106.2328,38.4975,银川市,贺兰山东路,颗粒物(PM10),59,67,39,22,15,114,52,109,88,53,30,5,6,0.6,0.5
2022-09-04T23:00:00,1489A,106.1358,38.5036,银川市,学院路,颗粒物(PM10),53,56,52,18,14,102,34,97,82,63,31,12,9,0.7,0.5
2022-09-04T23:00:00,1490A,87.5801,43.8303,乌鲁木齐市,监测站,,28,28,31,10,9,132,64,122,111,28,13,5,5,0.7,0.6
2022-09-04T23:00:00,1491A,87.6046,43.768,乌鲁木齐市,收费所,,,,,,,,,,,,,,,,
2022-09-04T23:00:00,1492A,87.4754,43.9469,乌鲁木齐市,新疆农科院农场(对照点),颗粒物(PM10),56,61,55,16,13,99,50,94,84,38,23,9,8,0.7,0.7
2022-09-04T23:00:00,1493A,87.5525,43.8711,乌鲁木齐市,铁路局,,45,45,29,23,15,134,28,123,103,56,14,4,4,1.0,0.5
2022-09-04T23:00:00,1494A,87.6432,43.831,乌鲁木齐市,三十一中学,,34,26,33,6,9,134,108,126,121,5,4,6,6,0.2,0.2
2022-09-04T23:00:00,1496A,87.7216,44.1747,乌鲁木齐市,米东区环保局,颗粒物(PM10),58,66,43,20,13,129,59,123,107,36,16,5,6,0.2,0.3
2022-09-04T23:00:00,1508A,112.9433,27.8614,湘潭市,板塘,细颗粒物(PM2.5),68,64,54,49,34,174,132,170,158,14,13,6,6,0.4,0.4
2022-09-04T23:00:00,1511A,112.9118,27.8403,湘潭市,市监测站,细颗粒物(PM2.5),113,54,47,85,37,159,103,156,140,25,13,8,8,0.6,0.6
2022-09-04T23:00:00,1512A,112.8937,27.8728,湘潭市,江麓,颗粒物(PM10),58,65,56,40,34,164,117,157,149,16,11,13,11,0.6,0.5
2022-09-04T23:00:00,1513A,112.9227,27.8159,湘潭市,岳塘,细颗粒物(PM2.5),65,64,63,47,36,171,129,168,153,14,12,8,8,0.5,0.5
2022-09-04T23:00:00,1514A,112.9074,27.9119,湘潭市,科大,颗粒物(PM10),57,64,57,38,30,171,121,168,152,14,11,6,5,0.3,0.3
2022-09-04T23:00:00,1515A,113.135,27.8244,株洲市,天台山庄,细颗粒物(PM2.5),59,47,43,42,29,189,137,178,163,16,15,5,5,0.5,0.4
2022-09-04T23:00:00,1518A,113.095,27.8867,株洲市,株冶医院,细颗粒物(PM2.5),64,53,47,46,29,195,148,185,168,15,23,5,6,0.5,0.5
2022-09-04T23:00:00,1519A,113.167,27.8667,株洲市,市四中,细颗粒物(PM2.5),64,58,51,46,29,196,146,184,173,20,21,1,4,0.5,0.4
2022-09-04T23:00:00,1520A,113.143,27.8381,株洲市,火车站,,,56,53,37,28,195,146,183,172,21,20,,3,0.5,0.5
2022-09-04T23:00:00,1524A,113.13,27.8528,株洲市,市监测站,细颗粒物(PM2.5),54,53,54,38,30,190,136,179,166,22,17,5,4,0.6,0.6
2022-09-04T23:00:00,1552A,106.805,26.3003,贵阳市,桐木岭(对照点),,,,,,,,,,,,,,,,
2022-09-04T23:00:00,1559A,113.251,27.8336,株洲市,大京风景区(对照点),细颗粒物(PM2.5),58,61,46,41,28,175,130,164,154,13,12,3,4,0.6,0.6
2022-09-04T23:00:00,1562A,113.0048,27.9153,湘潭市,昭山,颗粒物(PM10),63,75,55,43,30,166,88,158,137,26,13,4,4,0.6,0.5
2022-09-04T23:00:00,1564A,112.4876,27.9164,湘潭市,韶山(对照点),颗粒物(PM10),51,52,50,21,20,161,146,157,155,10,10,8,9,0.4,0.4
2022-09-04T23:00:00,1585A,109.8756,40.6532,包头市,市环境监测站,,46,46,39,2,15,141,64,104,88,9,29,4,14,0.3,0.8
2022-09-04T23:00:00,1587A,109.9991,40.5842,包头市,包头八中,,42,42,39,7,16,144,58,104,90,15,31,8,11,0.3,0.8
2022-09-04T23:00:00,1588A,109.8538,40.6821,包头市,青山宾馆,,31,31,38,5,14,143,67,101,86,5,35,6,13,0.3,1
2022-09-04T23:00:00,1589A,109.8642,40.6288,包头市,惠龙物流,,33,33,40,7,16,151,68,110,92,7,29,5,16,0.2,0.7
2022-09-04T23:00:00,1590A,110.0377,40.5546,包头市,东河鸿龙湾,,40,40,38,2,11,142,58,103,87,13,22,9,10,0.5,0.7
2022-09-04T23:00:00,1591A,110.0023,39.8129,鄂尔多斯市,综合楼,,45,45,56,6,12,116,45,107,85,36,26,6,9,0.4,0.5
2022-09-04T23:00:00,1592A,109.9486,39.8261,鄂尔多斯市,巴音孟克林场办事处,颗粒物(PM10),52,53,62,14,20,124,62,116,92,29,25,5,8,0.6,0.7
2022-09-04T23:00:00,1593A,109.7736,39.5986,鄂尔多斯市,康泽苑,颗粒物(PM10),52,53,44,12,12,123,76,118,103,10,15,5,5,0.5,0.5
2022-09-04T23:00:00,1594A,109.8119,39.5989,鄂尔多斯市,华泰汽车城,颗粒物(PM10),54,58,47,14,17,122,60,117,98,17,18,7,7,0.3,0.4
2022-09-04T23:00:00,1595A,109.9734,39.7884,鄂尔多斯市,奥林花园,,46,46,61,12,17,113,66,108,91,18,25,6,7,0.6,0.7
2022-09-04T23:00:00,1596A,122.2414,40.6592,营口市,学府南路,,,,,,,,,,,,,,,,
2022-09-04T23:00:00,1597A,122.2703,40.7094,营口市,大庆路,,36,19,31,7,15,145,114,124,113,9,23,3,6,0.4,0.7
2022-09-04T23:00:00,1598A,122.215,40.6511,营口市,镜湖西路,,33,15,25,3,9,126,103,112,105,8,16,2,4,0.5,0.6
2022-09-04T23:00:00,1599A,122.167,40.6655,营口市,西炮台,,36,16,24,9,13,134,113,123,121,7,17,4,5,0.4,0.5
2022-09-04T23:00:00,1600A,124.3303,40.0625,丹东市,江湾东路,,16,16,18,9,8,66,17,54,41,23,17,11,11,0.6,0.6
2022-09-04T23:00:00,1601A,124.4256,40.1503,丹东市,临江后街,,11,11,14,7,6,65,30,56,50,16,14,6,6,0.7,0.7
2022-09-04T23:00:00,1602A,124.3933,40.1461,丹东市,元宝山,,12,10,14,5,7,52,36,48,46,6,10,5,6,1.1,1.1
2022-09-04T23:00:00,1603A,124.3633,40.1092,丹东市,民主桥,,13,13,18,7,8,61,10,50,38,24,20,8,8,0.7,0.7
2022-09-04T23:00:00,1604A,122.0303,41.1489,盘锦市,开发区,,28,12,32,11,24,99,89,88,83,11,23,5,9,0.6,1
2022-09-04T23:00:00,1605A,122.0485,41.0883,盘锦市,兴隆台,,29,28,38,8,24,111,92,95,85,9,25,5,11,0.4,0.9
2022-09-04T23:00:00,1606A,121.8297,41.1028,盘锦市,新生街道,,32,7,18,7,11,105,100,94,86,6,13,7,8,0.4,0.5
2022-09-04T23:00:00,1607A,120.9092,40.7136,葫芦岛市,龙港区,,36,20,18,8,13,117,115,110,108,6,8,7,6,0.5,0.4
2022-09-04T23:00:00,1608A,120.8392,40.7514,葫芦岛市,化工街,,28,28,36,7,16,121,88,114,105,8,31,5,6,0.4,0.4
2022-09-04T23:00:00,1609A,120.8341,40.7073,葫芦岛市,新区,,38,18,28,9,11,125,121,117,114,6,21,10,10,0.8,0.7
2022-09-04T23:00:00,1610A,120.8695,40.7677,葫芦岛市,东城区,,30,30,35,16,17,115,89,106,99,14,32,9,10,0.5,0.5
2022-09-04T23:00:00,1611A,118.5819,24.9117,泉州市,涂山街,,24,24,22,12,9,97,68,90,74,9,8,7,7,0.7,0.6
2022-09-04T23:00:00,1612A,118.5972,24.8978,泉州市,津头埔,,31,31,25,14,10,91,58,83,65,14,11,8,8,0.5,0.5
2022-09-04T23:00:00,1613A,118.6663,24.9424,泉州市,万安,,28,24,17,19,10,88,60,81,66,12,8,8,7,0.5,0.5
2022-09-04T23:00:00,1614A,118.6117,24.9604,泉州市,清源山(对照点),,,,,,,,,,,,,,,,
2022-09-04T23:00:00,1616A,117.6795,36.229,济南市,技术学院,,,,84,,31,109,,93,,,31,,12,,0.8
2022-09-04T23:00:00,1618A,118.3429,35.0532,临沂市,沂河小区,,,,42,,19,113,,102,,,19,,9,,0.4
2022-09-04T23:00:00,1619A,118.295,35.0583,临沂市,鲁南制药厂,,,,40,,20,116,,102,,,27,,9,,0.7
2022-09-04T23:00:00,1620A,118.2794,34.9976,临沂市,新光毛纺厂,,,,42,,16,110,,97,,,24,,6,,0.5
2022-09-04T23:00:00,1621A,118.3956,35.0888,临沂市,河东保险公司,,,,34,,21,107,,95,,,17,,7,,0.5
2022-09-04T23:00:00,1622A,116.3032,37.4674,德州市,儿童乐园,细颗粒物(PM2.5),69,66,58,50,34,200,170,177,173,16,28,13,12,0.9,0.7
2022-09-04T23:00:00,1624A,116.2991,37.4451,德州市,监理站,细颗粒物(PM2.5),63,70,53,45,29,207,169,181,177,13,24,21,20,0.8,0.6
2022-09-04T23:00:00,1625A,115.9848,36.4372,聊城市,区政府,"颗粒物(PM10),细颗粒物(PM2.5)",54,57,61,38,32,184,109,166,136,34,37,7,8,0.9,0.9
2022-09-04T23:00:00,1628A,118.0062,37.3803,滨州市,市环保局,,,,41,,24,102,,86,,,19,,14,,0.6
2022-09-04T23:00:00,1629A,118.0018,37.3617,滨州市,第二水厂,,,,42,,19,99,,85,,,19,,13,,0.4
2022-09-04T23:00:00,1630A,117.9776,37.393,滨州市,北中新校,,,,34,,20,89,,72,,,20,,12,,0.3
2022-09-04T23:00:00,1631A,118.0414,36.8103,淄博市,人民公园,颗粒物(PM10),106,161,99,70,65,247,36,218,140,111,51,20,31,1.8,1
2022-09-04T23:00:00,1632A,118.0253,36.8406,淄博市,东风化工厂,,,,,,,,,,,,,,,,
2022-09-04T23:00:00,1633A,117.8525,36.4847,淄博市,双山,颗粒物(PM10),54,57,78,34,44,206,89,195,143,39,35,9,15,0.6,0.8
2022-09-04T23:00:00,1634A,117.9592,36.6331,淄博市,气象站,颗粒物(PM10),76,102,108,48,49,238,78,211,139,43,47,45,23,0.7,0.9
2022-09-04T23:00:00,1635A,118.3092,36.8194,淄博市,莆田园,细颗粒物(PM2.5),107,158,86,80,50,207,53,191,125,87,46,44,26,6.2,1.8
2022-09-04T23:00:00,1636A,117.8661,36.805,淄博市,三金集团,,,,,,,,,,,,,,,,
2022-09-04T23:00:00,1637A,117.558,34.8438,枣庄市,市中区政府,,,,75,,24,107,,91,,,29,,26,,0.6
2022-09-04T23:00:00,1638A,117.2852,34.7837,枣庄市,薛城环保局,,,,82,,34,106,,84,,,31,,35,,0.8
2022-09-04T23:00:00,1639A,117.5852,34.7745,枣庄市,峄城区政府,,,,70,,30,111,,92,,,31,,24,,0.7
2022-09-04T23:00:00,1640A,117.7276,34.5578,枣庄市,台儿庄区环保局,,,,51,,21,99,,87,,,28,,17,,0.7
2022-09-04T23:00:00,1641A,117.4518,35.0992,枣庄市,山亭区环保局,,,,40,,23,114,,103,,,20,,13,,0.7
2022-09-04T23:00:00,1642A,121.2514,37.5639,烟台市,开发区,,,,11,,2,101,,100,,,5,,8,,0.6
2022-09-04T23:00:00,1643A,121.3719,37.5433,烟台市,轴承厂,,,,15,,4,97,,95,,,8,,7,,0.1
2022-09-04T23:00:00,1644A,121.3181,37.5436,烟台市,西郊化工站,,,,9,,1,98,,97,,,8,,7,,0.3
2022-09-04T23:00:00,1645A,121.4478,37.4822,烟台市,莱山环保局,,,,6,,1,106,,104,,,2,,6,,0.3
2022-09-04T23:00:00,1646A,121.2611,37.4967,烟台市,福山环保局,,,,14,,3,82,,80,,,15,,10,,0.1
2022-09-04T23:00:00,1648A,119.12,36.7019,潍坊市,仲裁委,,,,,,,,,,,,,,,,
2022-09-04T23:00:00,1650A,119.1437,36.7023,潍坊市,环保局,,,,45,,29,107,,97,,,18,,7,,0.5
2022-09-04T23:00:00,1652A,119.1936,36.7729,潍坊市,寒亭监测站,,,,,,,,,,,,,,,,
2022-09-04T23:00:00,1653A,116.6251,35.4302,济宁市,火炬城,,,,46,,29,116,,96,,,14,,17,,0.7
2022-09-04T23:00:00,1655A,116.5491,35.4042,济宁市,电化厂,,,,52,,30,109,,87,,,24,,18,,0.8
2022-09-04T23:00:00,1656A,117.1437,36.1937,泰安市,监测站,,,,49,,23,88,,70,,,28,,9,,0.6
2022-09-04T23:00:00,1657A,117.0885,36.2017,泰安市,人口学校,,44,44,42,21,16,147,100,140,120,24,22,10,9,0.5,0.3
2022-09-04T23:00:00,1658A,117.1089,36.1758,泰安市,电力学校,颗粒物(PM10),68,85,60,24,20,164,21,153,102,88,39,7,8,0.7,0.6
2022-09-04T23:00:00,1659A,119.471,35.4209,日照市,监测站,,,,28,,18,96,,86,,,15,,6,,0.4
2022-09-04T23:00:00,1660A,119.523,35.4216,日照市,市政府广场,,,,30,,17,99,,88,,,15,,4,,0.5
2022-09-04T23:00:00,1661A,119.5587,35.4044,日照市,港务局,,,,29,,15,108,,96,,,6,,3,,0.2
2022-09-04T23:00:00,1662A,122.1214,37.4236,威海市,华夏技校,,24,24,7,9,8,115,69,109,93,10,6,5,4,0.3,0.2
2022-09-04T23:00:00,1663A,122.0508,37.5236,威海市,山大分校,,20,15,9,7,3,128,61,119,98,32,9,4,3,0.5,0.3
2022-09-04T23:00:00,1664A,122.1067,37.5072,威海市,市监测站,,17,17,8,5,2,122,52,117,86,25,8,6,5,0.4,0.2
2022-09-04T23:00:00,1665A,118.5019,37.4658,东营市,西城阳光环保公司,,,,,,,,,,,,,,,,
2022-09-04T23:00:00,1666A,118.6614,37.4309,东营市,市环保局,,,,31,,18,116,,106,,,9,,9,,0.4
2022-09-04T23:00:00,1669A,113.5824,24.7733,韶关市,市八中,,45,32,34,18,18,163,141,151,150,11,10,11,10,0.7,0.6
2022-09-04T23:00:00,1670A,113.5556,24.8082,韶关市,碧湖山庄,,,,,,,,,,,,,,,,
2022-09-04T23:00:00,1671A,113.5917,24.7972,韶关市,园林处,,45,41,34,31,22,150,139,144,143,5,5,15,12,0.5,0.4
2022-09-04T23:00:00,1672A,113.6735,24.7791,韶关市,韶关学院,,40,35,34,28,9,156,107,139,129,13,12,11,12,0.6,0.5
2022-09-04T23:00:00,1673A,113.5971,24.6863,韶关市,曲江监测站,,44,44,36,28,20,158,133,149,148,15,9,10,12,0.6,0.6
2022-09-04T23:00:00,1674A,116.6794,23.3667,汕头市,金平子站,,28,28,26,8,12,123,76,114,94,11,11,7,8,0.6,0.6
2022-09-04T23:00:00,1675A,116.7244,23.3633,汕头市,龙湖子站,,25,25,33,8,15,119,71,114,94,12,12,8,8,0.6,0.7
2022-09-04T23:00:00,1676A,116.7258,23.2775,汕头市,濠江子站,,23,9,26,10,16,139,72,128,99,10,11,8,10,0.6,0.7
2022-09-04T23:00:00,1677A,116.7519,23.4714,汕头市,澄海子站,,23,14,27,9,13,112,72,107,89,10,10,8,10,0.7,0.8
2022-09-04T23:00:00,1678A,116.6092,23.2539,汕头市,潮阳子站,,25,19,27,9,14,124,80,119,97,5,9,11,11,0.6,0.7
2022-09-04T23:00:00,1679A,116.4069,23.2533,汕头市,潮南子站,,,,,,,,,,,,,,,,
2022-09-04T23:00:00,1680A,110.3539,21.2706,湛江市,湛江影剧院,颗粒物(PM10),56,62,55,36,31,168,107,159,142,18,14,12,13,0.8,0.8
2022-09-04T23:00:00,1681A,110.3928,21.2228,湛江市,市环境监测站,,44,44,54,23,34,161,130,152,148,17,18,8,13,0.7,0.8
2022-09-04T23:00:00,1682A,110.4019,21.1997,湛江市,环保局宿舍,,46,46,54,29,34,156,127,149,144,12,15,9,13,0.6,0.7
2022-09-04T23:00:00,1683A,110.4111,21.2028,湛江市,霞山游泳场,,44,41,51,25,33,158,140,149,147,10,11,9,12,0.7,0.7
2022-09-04T23:00:00,1684A,110.3316,21.2679,湛江市,麻章区环保局,颗粒物(PM10),55,60,60,24,32,162,117,155,141,20,14,12,10,0.6,0.7
2022-09-04T23:00:00,1685A,110.4558,21.2567,湛江市,坡头区环保局,颗粒物(PM10),53,56,55,34,35,158,134,150,147,12,13,24,19,0.6,0.7
2022-09-04T23:00:00,1686A,111.0286,21.4688,茂名市,电白南海,颗粒物(PM10),54,58,64,29,36,149,103,143,123,11,15,9,13,0.8,0.9
2022-09-04T23:00:00,1687A,110.9294,21.6533,茂名市,茂石化七小,颗粒物(PM10),57,63,54,39,35,136,106,133,116,14,16,12,29,0.8,1
2022-09-04T23:00:00,1688A,110.9107,21.6687,茂名市,健康路,颗粒物(PM10),62,73,55,33,33,140,97,136,118,12,12,16,37,0.7,0.8
2022-09-04T23:00:00,1689A,110.8592,21.6828,茂名市,高岭,颗粒物(PM10),69,88,54,48,37,136,62,130,106,27,14,27,22,0.8,0.7
2022-09-04T23:00:00,1690A,116.1231,24.3284,梅州市,梅江月梅,,26,26,22,18,11,113,48,109,86,27,10,12,7,0.6,0.5
2022-09-04T23:00:00,1691A,116.0797,24.2719,梅州市,梅县新城,,29,27,24,20,11,100,62,88,78,23,11,12,7,0.5,0.5
2022-09-04T23:00:00,1692A,116.1248,24.2654,梅州市,环境监控中心,,27,27,22,16,12,111,67,109,91,22,10,7,6,0.4,0.4
2022-09-04T23:00:00,1693A,115.3653,22.775,汕尾市,市环保局,,33,33,25,16,14,107,104,103,102,11,8,8,6,0.6,0.6
2022-09-04T23:00:00,1694A,115.3706,22.7898,汕尾市,市政府,,35,26,21,9,14,111,111,108,108,7,5,8,6,0.7,0.6
2022-09-04T23:00:00,1695A,115.3622,22.7925,汕尾市,新城中学,,33,29,45,20,17,105,104,101,101,7,4,8,7,0.7,0.6
2022-09-04T23:00:00,1696A,114.6778,23.7569,河源市,源西(对照点),,35,35,29,16,12,114,82,110,84,20,12,7,5,0.6,0.6
2022-09-04T23:00:00,1697A,114.6944,23.7586,河源市,东埔,,33,33,25,16,13,124,88,118,98,18,12,8,6,0.7,0.6
2022-09-04T23:00:00,1698A,114.6892,23.7233,河源市,老城,,31,31,29,13,11,122,92,117,97,17,13,6,4,0.7,0.7
2022-09-04T23:00:00,1699A,111.9797,21.8593,阳江市,鸳鸯湖(对照点),,,,,,,,,,,,,,,,
2022-09-04T23:00:00,1700A,111.9508,21.8536,阳江市,南恩路,,,,,,,,,,,,,,,,
2022-09-04T23:00:00,1701A,111.9491,21.8658,阳江市,马南垌,颗粒物(PM10),51,52,46,32,29,140,82,137,122,20,16,6,8,0.7,0.6
2022-09-04T23:00:00,1702A,113.0426,23.691,清远市,环保大楼(对照点),,49,37,30,27,22,161,156,148,147,5,6,6,6,0.7,0.8
2022-09-04T23:00:00,1703A,113.0208,23.7106,清远市,凤城街办,,42,40,31,25,26,134,133,123,123,10,11,7,6,0.7,0.7
2022-09-04T23:00:00,1705A,116.6367,23.6719,潮州市,西园路(对照点),,27,16,18,6,7,111,86,104,92,2,7,7,6,0.7,0.4
2022-09-04T23:00:00,1706A,116.6447,23.6706,潮州市,档案局,,29,14,20,6,12,113,90,107,96,6,7,7,8,0.5,0.6
2022-09-04T23:00:00,1708A,116.3701,23.5345,揭阳市,新兴,,26,9,22,12,12,111,83,107,95,5,3,8,7,0.6,0.6
2022-09-04T23:00:00,1709A,116.3264,23.5443,揭阳市,西马,,25,16,27,12,12,101,80,97,85,6,5,6,6,0.8,0.7
2022-09-04T23:00:00,1710A,116.3611,23.5626,揭阳市,东兴,,25,20,26,13,13,99,79,96,85,5,4,5,5,0.5,0.6
2022-09-04T23:00:00,1711A,116.4151,23.5294,揭阳市,渔湖,,24,7,31,5,16,105,76,103,89,4,6,4,5,0.5,0.5
2022-09-04T23:00:00,1712A,112.0392,22.9169,云浮市,新市府(对照点),,,,,,,,,,,,,,,,
2022-09-04T23:00:00,1713A,112.0369,22.9394,云浮市,市监测站,,,,,,,,,,,,,,,,
2022-09-04T23:00:00,1714A,112.0539,22.9539,云浮市,牧羊,,35,35,46,17,22,149,41,137,110,51,32,21,27,0.7,0.7
2022-09-04T23:00:00,1715A,102.575,24.3711,玉溪市,东风水库,,23,23,12,10,7,80,59,76,66,9,7,4,4,0.7,0.7
2022-09-04T23:00:00,1718A,115.4208,35.2464,菏泽市,气象局,,,,66,,40,115,,102,,,23,,10,,0.5
2022-09-04T23:00:00,1719A,115.4747,35.2375,菏泽市,市政协,,,,72,,37,125,,113,,,19,,11,,0.4
2022-09-04T23:00:00,1720A,115.455,35.27,菏泽市,菏泽学院,,,,,,,,,,,,,,,,
2022-09-04T23:00:00,1721A,113.3819,40.1097,大同市,果树场(对照点),,,,,,,,,,,,,,,,
2022-09-04T23:00:00,1723A,113.2994,40.0758,大同市,云冈宾馆,,25,25,34,11,13,116,64,110,92,17,24,9,11,0.7,0.6
2022-09-04T23:00:00,1724A,113.3444,40.0917,大同市,大同大学,,35,35,39,6,10,115,64,108,87,11,18,16,9,0.3,0.4
2022-09-04T23:00:00,1725A,113.2661,40.1269,大同市,安家小村,,,,29,,10,96,,92,,,17,,14,,0.7
2022-09-04T23:00:00,1726A,113.2711,40.0844,大同市,教育学院,,36,36,42,13,15,107,64,100,84,12,24,8,11,0.7,0.8
2022-09-04T23:00:00,1727A,113.1147,36.1547,长治市,清华站,颗粒物(PM10),59,67,51,39,35,125,40,104,78,26,18,10,9,1.0,1
2022-09-04T23:00:00,1728A,113.1031,36.1989,长治市,监测站,"颗粒物(PM10),细颗粒物(PM2.5)",55,60,47,39,35,126,55,111,85,28,24,9,9,0.7,0.7
2022-09-04T23:00:00,1730A,113.0886,36.2125,长治市,审计局,细颗粒物(PM2.5),55,58,42,39,32,132,67,128,96,26,22,9,9,1.3,1
2022-09-04T23:00:00,1731A,113.0844,36.1856,长治市,长治八中,颗粒物(PM10),64,78,53,33,29,128,49,114,79,38,33,10,11,0.9,0.8
2022-09-04T23:00:00,1733A,111.5531,36.0783,临汾市,临钢医院,颗粒物(PM10),59,68,73,35,47,138,24,127,92,49,24,2,2,1.2,1.3
2022-09-04T23:00:00,1734A,111.5028,36.0714,临汾市,技工学校,颗粒物(PM10),57,64,65,37,50,160,51,128,98,38,25,5,5,1.1,1.4
2022-09-04T23:00:00,1735A,111.5169,36.0822,临汾市,工商学校,,,,,,,,,,,,,,,,
2022-09-04T23:00:00,1736A,111.5018,36.0855,临汾市,市委,细颗粒物(PM2.5),64,54,66,46,60,155,56,125,100,30,23,8,7,1.1,1.4
2022-09-04T23:00:00,1738A,113.5758,37.8572,阳泉市,市中心,颗粒物(PM10),75,99,70,39,37,150,70,142,119,46,29,14,10,0.9,0.8
2022-09-04T23:00:00,1739A,113.4894,37.8731,阳泉市,赛鱼,颗粒物(PM10),74,98,63,36,33,150,64,135,101,48,30,14,9,0.9,0.6
2022-09-04T23:00:00,1740A,113.5819,37.8486,阳泉市,南庄,颗粒物(PM10),71,91,62,37,34,146,88,140,127,29,21,16,11,1.1,1
2022-09-04T23:00:00,1741A,113.6292,37.8531,阳泉市,白羊墅,,,,,,,,,,,,,,,,
2022-09-04T23:00:00,1742A,113.5614,37.8703,阳泉市,平坦,颗粒物(PM10),78,106,71,34,36,150,50,140,113,70,32,12,8,1.1,1
2022-09-04T23:00:00,1743A,113.5158,37.8392,阳泉市,大阳泉,颗粒物(PM10),61,71,44,39,37,151,89,141,132,33,20,15,9,0.9,0.7
2022-09-04T23:00:00,1744A,118.9233,42.2816,赤峰市,松山一中,,32,20,20,16,12,133,101,122,108,16,17,10,10,0.5,0.6
2022-09-04T23:00:00,1745A,118.9576,42.2728,赤峰市,哈达街,,34,26,19,9,15,133,107,130,108,9,13,9,10,0.4,0.5
2022-09-04T23:00:00,1746A,118.8788,42.2554,赤峰市,天义路,,32,24,20,15,14,130,102,129,112,9,10,10,11,0.6,0.6
2022-09-04T23:00:00,1748A,123.044,41.1196,鞍山市,深沟寺,,29,29,19,20,11,82,64,67,61,16,12,10,8,0.8,0.4
2022-09-04T23:00:00,1749A,123.011,41.0931,鞍山市,太阳城,,36,36,21,25,12,88,53,72,61,17,14,8,6,1.1,0.7
2022-09-04T23:00:00,1750A,123.0485,41.1442,鞍山市,太平,,46,46,26,26,12,86,67,69,64,18,22,12,7,0.8,0.6
2022-09-04T23:00:00,1751A,122.9642,41.0971,鞍山市,铁西三道街,细颗粒物(PM2.5),58,64,35,41,14,99,40,84,74,44,26,14,6,1.9,0.8
2022-09-04T23:00:00,1752A,122.9341,41.0833,鞍山市,铁西工业园区,颗粒物(PM10),62,74,37,32,14,95,42,79,68,36,28,13,8,1.7,0.7
2022-09-04T23:00:00,1753A,123.022,41.0821,鞍山市,明达新区,,40,40,21,20,10,88,61,71,65,20,13,9,6,1.0,0.5
2022-09-04T23:00:00,1754A,123.1289,41.0228,鞍山市,千山(对照点),,,,,,,,,,,,,,,,
2022-09-04T23:00:00,1755A,123.7977,41.8491,抚顺市,望花区,,38,38,39,18,19,72,12,51,33,24,32,5,5,0.6,0.7
2022-09-04T23:00:00,1756A,123.9161,41.8822,抚顺市,顺城区,,32,32,30,10,14,67,2,46,26,28,31,11,9,0.6,0.7
2022-09-04T23:00:00,1757A,124.0436,41.8611,抚顺市,东洲区,,30,30,19,11,8,78,21,59,40,14,14,6,3,0.6,0.6
2022-09-04T23:00:00,1758A,123.9247,41.8642,抚顺市,新抚区,,48,48,30,24,12,67,4,46,26,20,22,3,2,0.5,0.5
2022-09-04T23:00:00,1759A,124.0972,41.8961,抚顺市,大伙房水库,,10,10,14,6,9,76,23,56,43,8,12,6,6,0.3,0.4
2022-09-04T23:00:00,1760A,123.7086,41.8391,抚顺市,沈抚新城,,19,19,42,10,22,71,12,50,34,18,28,6,11,0.4,1
2022-09-04T23:00:00,1761A,123.8275,41.3064,本溪市,大峪,,14,14,18,9,15,73,11,47,34,19,16,6,6,0.6,0.7
2022-09-04T23:00:00,1762A,123.7567,41.3325,本溪市,溪湖,,29,29,24,15,14,73,5,55,38,17,15,10,9,0.9,1
2022-09-04T23:00:00,1763A,123.7169,41.3094,本溪市,彩屯,,46,33,37,32,25,81,6,54,36,16,20,5,7,1.0,1.4
2022-09-04T23:00:00,1764A,123.7669,41.2864,本溪市,东明,,22,22,25,14,13,77,6,47,31,25,21,6,6,0.7,0.7
2022-09-04T23:00:00,1765A,123.7992,41.2664,本溪市,新立屯,,16,16,18,6,9,70,14,46,24,26,18,5,5,0.6,0.7
2022-09-04T23:00:00,1766A,123.8142,41.3472,本溪市,威宁,,25,25,19,5,7,64,7,41,26,13,13,5,5,0.8,0.6
2022-09-04T23:00:00,1767A,121.1115,41.0879,锦州市,南山,,22,19,27,14,23,113,70,102,95,19,21,6,8,0.5,0.5
2022-09-04T23:00:00,1768A,121.0533,40.8434,锦州市,开发区,,38,23,44,26,16,124,104,113,109,10,27,39,11,1.1,0.7
2022-09-04T23:00:00,1769A,121.1836,41.1119,锦州市,百股街道,,29,20,26,10,14,121,92,107,104,14,24,7,9,0.7,0.7
2022-09-04T23:00:00,1770A,121.1178,41.1222,锦州市,天安街道,,27,22,31,9,15,114,85,104,100,12,20,8,11,0.6,0.6
2022-09-04T23:00:00,1771A,121.1303,41.1386,锦州市,北湖公园,,24,22,28,13,17,98,76,90,87,12,20,4,6,0.6,0.6
2022-09-04T23:00:00,1772A,126.54,43.8622,吉林市,哈达湾,,13,13,23,6,10,51,39,43,42,12,19,5,6,0.5,0.6
2022-09-04T23:00:00,1773A,126.5844,43.8358,吉林市,东局子,,16,16,24,8,11,50,40,44,40,7,16,4,4,0.5,0.6
2022-09-04T23:00:00,1774A,126.5052,43.8245,吉林市,电力学院,,21,21,28,12,13,55,18,41,34,21,18,7,8,0.5,0.5
2022-09-04T23:00:00,1775A,126.6133,43.8972,吉林市,江北,,15,14,24,10,12,47,25,36,29,9,13,8,8,0.5,0.6
2022-09-04T23:00:00,1776A,126.555,43.8306,吉林市,江南公园,,15,15,22,8,10,53,33,41,38,13,17,4,5,0.6,0.7
2022-09-04T23:00:00,1778A,126.7061,43.7133,吉林市,丰满(对照点),,,,,,,,,,,,,,,,
2022-09-04T23:00:00,1779A,123.9305,47.3636,齐齐哈尔市,安居小区,,38,38,49,23,17,116,60,114,71,12,17,5,6,0.5,0.6
2022-09-04T23:00:00,1780A,123.9488,47.3386,齐齐哈尔市,中心广场,,31,31,34,21,13,106,61,98,78,9,10,4,4,0.4,0.4
2022-09-04T23:00:00,1781A,123.9483,47.3227,齐齐哈尔市,农牧车辆厂,,41,41,44,10,11,115,63,111,81,5,5,4,4,0.5,0.6
2022-09-04T23:00:00,1783A,123.945,47.2988,齐齐哈尔市,市环境监测站,,35,35,33,9,12,110,64,102,82,9,8,4,4,0.5,0.5
2022-09-04T23:00:00,1784A,129.61,44.561,牡丹江市,环保大楼,,23,7,13,16,8,68,66,44,44,4,17,5,6,0.2,0.4
2022-09-04T23:00:00,1785A,129.6115,44.5782,牡丹江市,文化广场,,17,8,33,5,10,57,53,35,35,14,24,2,4,0.5,0.6
2022-09-04T23:00:00,1786A,129.5904,44.5963,牡丹江市,第一医院,,18,12,23,10,11,58,56,33,33,9,21,4,6,0.5,0.7
2022-09-04T23:00:00,1787A,129.6364,44.6075,牡丹江市,机车工厂,,18,9,36,7,12,58,56,33,30,10,18,15,9,0.2,0.4
2022-09-04T23:00:00,1788A,129.6386,44.5462,牡丹江市,第一中学,,19,11,13,9,8,63,58,36,33,6,17,4,5,0.3,0.4
2022-09-04T23:00:00,1789A,124.81117,46.03138,大庆市,大同区,,,18,33,,,93,75,80,73,4,9,5,5,0.3,0.4
2022-09-04T23:00:00,1790A,125.129,46.533,大庆市,龙凤区,,21,13,22,9,13,96,66,89,70,4,6,2,3,0.2,0.3
2022-09-04T23:00:00,1791A,124.902,46.408,大庆市,红岗区,,23,14,19,13,11,92,72,87,72,3,6,3,3,0.4,0.5
2022-09-04T23:00:00,1792A,125.153,46.586,大庆市,萨尔图区,,26,26,28,16,18,105,62,102,69,5,8,5,7,0.1,0.2
2022-09-04T23:00:00,1793A,124.9042,46.6215,大庆市,让胡路区,,,,,,13,94,60,87,68,5,6,2,3,0.9,1
2022-09-04T23:00:00,1794A,118.3606,31.3519,芜湖市,监测站,,32,32,33,11,15,120,78,109,102,14,14,8,7,0.4,0.4
2022-09-04T23:00:00,1795A,118.3714,31.4134,芜湖市,科创中心,,26,22,27,6,14,124,81,114,106,14,19,7,7,0.4,0.5
2022-09-04T23:00:00,1796A,118.3673,31.3131,芜湖市,四水厂,,25,25,28,9,14,121,67,103,94,22,19,7,6,0.7,0.5
2022-09-04T23:00:00,1797A,118.4022,31.3839,芜湖市,济民医院(对照点),,,,,,,,,,,,,,,,
2022-09-04T23:00:00,1798A,118.5092,31.6837,马鞍山市,湖东路四小,,27,9,25,9,12,126,86,115,106,10,11,3,5,0.5,0.7
2022-09-04T23:00:00,1799A,118.5024,31.6449,马鞍山市,开发区,,,,35,4,15,118,86,117,86,12,16,7,10,0.5,0.9
2022-09-04T23:00:00,1800A,118.5228,31.7231,马鞍山市,慈湖,,27,9,28,8,16,119,84,112,102,16,17,5,5,0.5,0.7
2022-09-04T23:00:00,1801A,118.48,31.6928,马鞍山市,马钢动力厂,,,,,,,,,,,,,,,,
2022-09-04T23:00:00,1802A,118.6245,31.7241,马鞍山市,濮塘(对照点),,27,27,26,1,14,122,78,110,102,5,9,4,6,0.4,0.7
2022-09-04T23:00:00,1803A,115.9872,29.6815,九江市,十里,颗粒物(PM10),51,51,30,34,17,178,90,162,141,29,19,10,10,0.8,0.7
2022-09-04T23:00:00,1804A,115.9584,29.7046,九江市,茅山头,细颗粒物(PM2.5),54,53,32,38,19,171,77,158,127,37,21,8,9,0.8,0.7
2022-09-04T23:00:00,1805A,115.9877,29.7295,九江市,西园,颗粒物(PM10),59,68,38,41,19,173,26,153,117,84,26,18,16,0.8,0.7
2022-09-04T23:00:00,1806A,116.0172,29.6547,九江市,五七二七厂,,,53,31,30,18,174,,164,164,20,14,9,7,0.4,0.6
2022-09-04T23:00:00,1808A,115.9114,29.6038,九江市,综合工业园,颗粒物(PM10),59,68,37,36,18,170,60,156,130,53,24,12,9,0.8,0.6
2022-09-04T23:00:00,1809A,116.0721,29.7535,九江市,石化总厂,颗粒物(PM10),51,52,40,30,16,168,101,154,125,28,20,8,8,0.7,0.8
2022-09-04T23:00:00,1810A,115.9773,29.5698,九江市,庐山气象台(对照点),,50,49,26,35,17,174,115,160,150,19,9,21,14,0.9,0.7
2022-09-04T23:00:00,1811A,112.3628,34.6692,洛阳市,中信二小,,,,,,,,,,,,,,,,
2022-09-04T23:00:00,1812A,112.3931,34.6516,洛阳市,市委党校,,44,44,42,20,24,130,92,115,102,14,10,9,5,0.4,0.4
2022-09-04T23:00:00,1814A,112.4657,34.6871,洛阳市,豫西宾馆,颗粒物(PM10),53,56,50,31,33,141,72,119,93,21,18,10,10,0.4,0.4
2022-09-04T23:00:00,1815A,112.494,34.6886,洛阳市,河南林校,,43,43,43,25,28,144,82,120,98,14,12,7,6,0.3,0.4
2022-09-04T23:00:00,1816A,112.3844,34.623,洛阳市,开发区管委会,,35,35,35,24,25,130,102,116,105,9,9,6,4,0.3,0.3
2022-09-04T23:00:00,1817A,112.4267,34.6258,洛阳市,市委新办公区,,40,40,38,23,25,125,88,113,101,9,7,8,6,0.5,0.5
2022-09-04T23:00:00,1818A,114.4839,36.0621,安阳市,棉研所(对照点),,,,,,,,,,,,,,,,
2022-09-04T23:00:00,1819A,114.3551,36.1017,安阳市,红庙街,颗粒物(PM10),68,86,64,45,46,169,89,153,124,29,26,9,11,1.0,0.6
2022-09-04T23:00:00,1820A,114.361,36.0681,安阳市,银杏小区,,,86,62,,34,167,80,152,120,33,23,6,8,1.5,0.8
2022-09-04T23:00:00,1824A,114.3389,34.7781,开封市,肿瘤医院,颗粒物(PM10),79,107,56,38,34,172,87,158,132,48,20,4,5,0.7,0.7
2022-09-04T23:00:00,1826A,114.2885,34.7965,开封市,世纪星幼儿园,颗粒物(PM10),71,91,55,32,31,167,111,152,136,30,17,6,7,0.5,0.5
2022-09-04T23:00:00,1828A,113.227,35.2125,焦作市,市环保局,颗粒物(PM10),54,58,58,19,31,139,48,122,80,14,16,4,6,0.4,0.7
2022-09-04T23:00:00,1829A,113.2464,35.1764,焦作市,高新区政府（停运20220628）,,,,,,,,,,,,,,,,
2022-09-04T23:00:00,1830A,113.1992,35.2590,焦作市,影视城(对照点),,,,,,,,,,,,,,,,
2022-09-04T23:00:00,1832A,113.3257,33.742,平顶山市,新华旅馆,颗粒物(PM10),63,76,46,36,24,132,20,123,79,61,18,8,6,0.7,0.5
2022-09-04T23:00:00,1833A,113.2919,33.737,平顶山市,规划设计院,颗粒物(PM10),68,86,52,31,24,127,9,118,66,68,19,5,6,0.6,0.4
2022-09-04T23:00:00,1834A,113.182,33.774,平顶山市,平顶山工学院,颗粒物(PM10),55,60,47,24,26,136,55,125,107,34,19,8,11,0.3,0.4
2022-09-04T23:00:00,1835A,111.1922,34.7752,三门峡市,市政府,,28,28,35,18,26,129,41,120,93,21,21,5,7,0.4,0.5
2022-09-04T23:00:00,1836A,111.1587,34.7942,三门峡市,开发区,,37,37,38,24,25,128,54,120,100,13,13,2,4,0.4,0.4
2022-09-04T23:00:00,1838A,111.143,34.7955,三门峡市,风景区(对照点),,,,,,,,,,,,,,,,
2022-09-04T23:00:00,1839A,111.3009,30.7157,宜昌市,四零三,,,,,,,,,,,,,,,,
2022-09-04T23:00:00,1840A,111.2992,30.6981,宜昌市,白龙岗,,44,44,26,22,13,160,86,136,111,27,25,5,5,0.5,0.5
2022-09-04T23:00:00,1841A,111.3549,30.6465,宜昌市,伍家岗,,48,48,25,24,13,166,28,144,102,70,27,8,7,0.8,0.5
2022-09-04T23:00:00,1842A,111.2628,30.6961,宜昌市,点军区,颗粒物(PM10),52,54,38,27,17,161,72,139,116,22,20,7,6,0.5,0.4
2022-09-04T23:00:00,1843A,111.3275,30.7819,宜昌市,夷陵区,颗粒物(PM10),60,69,31,36,16,161,57,141,106,24,17,6,6,0.5,0.4
2022-09-04T23:00:00,1844A,112.2494,30.3197,荆州市,市图书馆,颗粒物(PM10),53,56,38,29,22,160,125,146,140,15,17,8,10,0.7,0.6
2022-09-04T23:00:00,1845A,112.2008,30.3544,荆州市,市委党校,,43,43,34,25,18,157,120,143,139,17,13,14,12,0.6,0.6
2022-09-04T23:00:00,1847A,113.1094,29.3578,岳阳市,南湖风景区,细颗粒物(PM2.5),60,48,47,43,35,165,99,160,143,29,13,7,8,0.5,0.4
2022-09-04T23:00:00,1848A,113.1493,29.4251,岳阳市,城陵矶,细颗粒物(PM2.5),59,65,56,42,32,151,32,148,116,105,26,5,9,0.7,0.9
2022-09-04T23:00:00,1849A,113.1497,29.3575,岳阳市,开发区,细颗粒物(PM2.5),69,62,58,50,45,164,90,159,139,41,18,6,9,0.7,0.7
2022-09-04T23:00:00,1850A,113.2621,29.4758,岳阳市,云溪区,细颗粒物(PM2.5),68,76,55,49,35,167,63,162,123,40,19,5,6,1.0,0.7
2022-09-04T23:00:00,1851A,112.9943,29.4402,岳阳市,君山区,细颗粒物(PM2.5),67,73,54,48,36,163,75,156,124,34,17,6,6,0.8,0.7
2022-09-04T23:00:00,1852A,113.2117,29.355,岳阳市,金凤水库(对照点),"颗粒物(PM10),细颗粒物(PM2.5)",59,67,51,42,30,162,81,158,134,28,13,4,5,0.7,0.7
2022-09-04T23:00:00,1854A,111.6975,28.9703,常德市,市二中,细颗粒物(PM2.5),60,66,40,43,26,152,104,146,125,19,11,19,8,0.6,0.4
2022-09-04T23:00:00,1857A,111.7158,29.1456,常德市,白鹤山(对照点),,39,31,30,21,19,149,122,145,132,6,5,3,3,0.3,0.4
2022-09-04T23:00:00,1858A,110.5319,29.1217,张家界市,永定新区,,49,49,38,29,20,149,88,139,109,14,13,3,3,0.3,0.3
2022-09-04T23:00:00,1859A,110.4697,29.1242,张家界市,电业局,,34,34,30,19,12,160,95,146,111,14,14,4,4,0.2,0.2
2022-09-04T23:00:00,1860A,110.5594,29.3547,张家界市,未央路,,23,17,23,16,17,137,65,134,99,8,7,4,4,0.2,0.2
2022-09-04T23:00:00,1861A,110.4417,29.315,张家界市,袁家界(对照点),,45,15,24,11,14,161,143,157,146,49,25,8,8,0.6,0.5
2022-09-04T23:00:00,1862A,110.4144,25.3167,桂林市,电子科大尧山校区(对照点),,46,45,44,32,27,162,103,158,132,7,6,16,16,0.5,0.5
2022-09-04T23:00:00,1863A,110.2819,25.2697,桂林市,监测站,,38,38,40,19,19,157,105,152,129,17,10,8,9,0.5,0.5
2022-09-04T23:00:00,1864A,110.3089,25.2708,桂林市,龙隐路小学,,34,34,37,22,21,156,101,152,126,17,8,10,14,0.5,0.5
2022-09-04T23:00:00,1865A,110.2869,25.2178,桂林市,八中,,33,28,37,18,20,153,103,149,126,16,10,8,11,0.7,0.6
2022-09-04T23:00:00,1866A,109.2262,21.588,北海市,牛尾岭水库(对照点),细颗粒物(PM2.5),64,42,48,46,40,127,59,123,110,19,14,5,6,0.8,0.8
2022-09-04T23:00:00,1867A,109.1436,21.4086,北海市,海滩公园,,46,46,48,24,27,160,123,150,139,13,10,6,7,0.7,0.7
2022-09-04T23:00:00,1868A,109.0981,21.4661,北海市,新市环保局,,44,44,46,22,33,155,120,148,136,11,10,11,8,0.6,0.6
2022-09-04T23:00:00,1869A,109.1778,21.5233,北海市,北海工业园,颗粒物(PM10),52,53,56,29,35,152,107,145,128,19,14,9,10,0.6,0.6
2022-09-04T23:00:00,1870A,109.4856,24.3895,柳州市,柳东小学,,39,36,35,19,24,147,122,141,131,7,7,13,8,0.6,0.6
2022-09-04T23:00:00,1871A,109.4157,24.3277,柳州市,环保监测站,,,19,43,10,19,142,,133,118,18,13,17,10,0.6,0.7
2022-09-04T23:00:00,1872A,109.389,24.341,柳州市,河西水厂,颗粒物(PM10),57,64,64,35,30,135,76,129,105,34,16,30,18,1.3,0.8
2022-09-04T23:00:00,1873A,109.4311,24.2921,柳州市,市四中,,43,38,38,30,24,145,108,137,120,12,10,14,11,0.6,0.6
2022-09-04T23:00:00,1874A,109.4006,24.3631,柳州市,市九中,颗粒物(PM10),54,57,52,35,29,129,95,122,102,17,16,18,15,0.5,0.6
2022-09-04T23:00:00,1875A,109.4958,24.3134,柳州市,古亭山,,32,22,35,18,20,147,102,137,124,9,9,8,9,0.7,0.6
2022-09-04T23:00:00,1876A,109.5078,18.2489,三亚市,河东子站,,31,29,27,20,19,144,99,124,121,5,5,2,2,0.6,0.6
2022-09-04T23:00:00,1877A,109.4964,18.2681,三亚市,河西子站,,35,29,26,24,20,144,96,129,126,4,4,2,2,0.6,0.6
2022-09-04T23:00:00,1878A,104.7778,31.4741,绵阳市,富乐山,,41,41,31,25,18,119,62,88,85,31,20,3,2,0.7,0.6
2022-09-04T23:00:00,1879A,104.7563,31.4535,绵阳市,市人大,颗粒物(PM10),57,64,41,33,21,140,45,92,87,49,22,14,15,0.6,0.5
2022-09-04T23:00:00,1880A,104.6697,31.4668,绵阳市,高新区自来水公司,颗粒物(PM10),73,96,58,47,31,117,34,88,82,53,27,10,11,0.8,0.6
2022-09-04T23:00:00,1881A,104.7287,31.5075,绵阳市,三水厂,细颗粒物(PM2.5),65,75,46,47,25,99,11,74,63,67,33,4,5,0.8,0.6
2022-09-04T23:00:00,1882A,104.563,28.793,宜宾市,石马中学(对照点),,48,48,20,19,11,103,18,88,60,30,15,4,5,0.5,0.4
2022-09-04T23:00:00,1883A,104.6201,28.7728,宜宾市,市委,,35,35,19,18,11,110,8,83,53,63,27,5,5,0.6,0.5
2022-09-04T23:00:00,1884A,104.6055,28.793,宜宾市,宜宾四中,,49,49,22,28,13,123,5,102,68,64,19,10,9,0.7,0.5
2022-09-04T23:00:00,1885A,104.639,28.7562,宜宾市,市政府,,43,43,23,25,14,132,1,104,66,67,22,8,8,0.7,0.5
2022-09-04T23:00:00,1886A,104.5742,28.7199,宜宾市,黄金嘴,,40,40,17,19,10,110,21,97,62,41,17,6,6,0.6,0.5
2022-09-04T23:00:00,1888A,101.6891,26.571,攀枝花市,弄弄坪,颗粒物(PM10),55,59,48,20,17,66,40,57,52,18,16,10,8,1.4,0.9
2022-09-04T23:00:00,1889A,101.5769,26.5928,攀枝花市,河门口,,16,16,13,9,8,74,37,63,56,15,22,8,15,0.8,1.2
2022-09-04T23:00:00,1890A,101.7169,26.585,攀枝花市,炳草岗,,21,21,22,14,16,59,13,50,41,35,20,8,12,1.0,1
2022-09-04T23:00:00,1891A,101.7369,26.5008,攀枝花市,仁和,,13,13,12,7,6,74,39,68,53,5,5,7,7,0.8,0.8
2022-09-04T23:00:00,1893A,105.4324,28.9634,泸州市,九狮山(对照点),,26,24,20,18,14,106,31,97,70,26,12,6,7,0.3,0.3
2022-09-04T23:00:00,1894A,105.4427,28.9063,泸州市,小市上码头,,49,43,23,34,19,121,66,115,99,26,14,9,10,0.6,0.7
2022-09-04T23:00:00,1895A,105.4241,28.8573,泸州市,兰田宪桥,,50,50,22,27,14,118,85,111,102,19,12,7,7,0.5,0.4
2022-09-04T23:00:00,1896A,105.4379,28.8833,泸州市,市环监站,,37,37,22,25,16,112,78,105,95,25,12,5,5,0.6,0.4
2022-09-04T23:00:00,1897A,104.7547,29.3628,自贡市,大塘山(对照点),,,,,,,,,,,,,,,,
2022-09-04T23:00:00,1900A,104.7692,29.3411,自贡市,春华路,,,,,,,,,,,,,,,,
2022-09-04T23:00:00,1901A,104.4239,31.1208,德阳市,东山公园,颗粒物(PM10),53,56,38,33,18,106,71,94,91,22,20,38,6,0.7,0.6
2022-09-04T23:00:00,1902A,104.3826,31.1317,德阳市,西小区,颗粒物(PM10),55,60,45,27,18,112,47,90,83,40,26,6,5,0.7,0.6
2022-09-04T23:00:00,1903A,104.4053,31.1167,德阳市,市检察院,,,,,,,,,,,,,,,,
2022-09-04T23:00:00,1904A,104.3553,31.1091,德阳市,耐火材料厂,颗粒物(PM10),65,80,47,26,14,112,38,91,82,50,24,5,6,0.7,0.5
2022-09-04T23:00:00,1905A,106.056,30.8064,南充市,西山风景区(对照点),,27,11,19,17,17,92,85,88,88,13,14,3,2,0.7,0.7
2022-09-04T23:00:00,1906A,106.0789,30.8023,南充市,南充市委,,45,45,31,18,14,95,44,89,78,44,15,7,10,0.6,0.5
2022-09-04T23:00:00,1907A,106.1031,30.8217,南充市,南充炼油厂,,35,35,33,21,15,106,69,99,93,16,11,6,5,0.5,0.4
2022-09-04T23:00:00,1908A,106.1064,30.7856,南充市,高坪区监测站,,46,40,29,32,18,106,58,100,91,22,8,2,5,0.5,0.5
2022-09-04T23:00:00,1909A,106.0642,30.7636,南充市,嘉陵区环保局,,40,40,30,19,19,110,78,102,94,24,12,4,4,0.5,0.5
2022-09-04T23:00:00,1910A,106.1087,30.8388,南充市,市环境监测站,,41,41,31,28,22,103,84,96,92,4,8,3,4,0.3,0.3
2022-09-04T23:00:00,1911A,106.9222,27.6869,遵义市,丁字口,,35,35,19,20,14,121,84,112,109,16,7,6,5,0.6,0.6
2022-09-04T23:00:00,1912A,106.9242,27.7019,遵义市,凤凰山,,36,27,17,22,13,126,113,119,119,9,9,4,5,0.6,0.6
2022-09-04T23:00:00,1913A,106.8906,27.6486,遵义市,忠庄,,28,24,23,18,14,109,88,103,102,17,11,1,2,0.3,0.3
2022-09-04T23:00:00,1914A,106.9231,27.6506,遵义市,舟水桥,,33,33,22,20,13,130,59,122,114,37,14,2,2,0.3,0.2
2022-09-04T23:00:00,1915A,106.9178,27.72,遵义市,干田坝,,42,42,21,19,16,126,107,117,117,10,8,5,5,0.4,0.4
2022-09-04T23:00:00,1916A,103.7897,25.5035,曲靖市,环境监测站,,33,33,20,12,14,86,58,76,69,17,15,7,7,0.7,0.7
2022-09-04T23:00:00,1917A,103.8,25.5364,曲靖市,烟厂办公区,,28,28,17,7,9,93,59,83,76,16,11,10,9,0.7,0.7
2022-09-04T23:00:00,1918A,108.7197,34.3956,咸阳市,气象站(对照点),颗粒物(PM10),62,74,51,18,14,74,9,64,42,57,32,6,6,0.6,0.6
2022-09-04T23:00:00,1919A,108.673,34.3155,咸阳市,实验中学,颗粒物(PM10),65,80,42,25,18,86,9,76,53,53,28,7,5,0.8,0.7
2022-09-04T23:00:00,1920A,108.7233,34.3617,咸阳市,师范学院,颗粒物(PM10),55,60,44,21,16,80,17,72,53,48,26,7,6,0.9,0.8
2022-09-04T23:00:00,1922A,109.0656,35.0994,铜川市,党校(对照点),颗粒物(PM10),58,66,41,31,18,52,2,40,26,43,43,1,2,1.1,1
2022-09-04T23:00:00,1923A,109.0697,35.0697,铜川市,王益区政府,颗粒物(PM10),56,61,45,24,20,96,4,82,51,35,32,6,8,1.0,0.8
2022-09-04T23:00:00,1924A,108.9344,34.9058,铜川市,新区管委会,颗粒物(PM10),75,100,42,24,19,109,12,89,66,56,21,6,6,0.9,0.5
2022-09-04T23:00:00,1925A,108.9589,34.8731,铜川市,新区兰芝公司,,,,,,,,,,,,,,,,
2022-09-04T23:00:00,1926A,109.4131,36.6275,延安市,枣园(对照点),,45,45,28,12,9,113,5,89,41,32,19,4,4,0.5,0.5
2022-09-04T23:00:00,1927A,109.4761,36.6028,延安市,延大医附院,,44,44,31,14,10,110,2,80,34,40,23,4,4,0.4,0.4
2022-09-04T23:00:00,1928A,109.4824,36.5767,延安市,市监测站,,,,,,,,,,,,,,,,
2022-09-04T23:00:00,1929A,109.5056,36.6106,延安市,百米大道,颗粒物(PM10),105,159,46,14,12,111,3,86,41,48,28,4,4,0.6,0.5
2022-09-04T23:00:00,1930A,107.185,34.3063,宝鸡市,庙沟村(对照点),,27,23,20,7,8,85,84,69,69,6,7,5,5,0.1,0.2
2022-09-04T23:00:00,1931A,107.0708,34.3017,宝鸡市,竹园沟,,29,29,19,13,9,68,66,61,56,14,12,4,4,0.3,0.4
2022-09-04T23:00:00,1932A,107.1906,34.3672,宝鸡市,三陆医院,,32,32,29,12,11,76,18,68,45,33,24,4,5,0.6,0.5
2022-09-04T23:00:00,1933A,107.1431,34.3547,宝鸡市,监测站,,26,26,25,14,12,76,33,68,49,21,18,6,6,0.4,0.4
2022-09-04T23:00:00,1934A,107.1186,34.3739,宝鸡市,技工学校,,25,25,26,12,11,82,27,76,56,26,14,4,4,0.3,0.3
2022-09-04T23:00:00,1935A,107.3906,34.3528,宝鸡市,陈仓区环保局家属楼,,40,40,34,14,13,76,32,68,49,30,24,5,5,0.5,0.5
2022-09-04T23:00:00,1936A,107.2058,34.3497,宝鸡市,文理学院,,32,32,24,7,9,77,37,69,53,22,20,5,5,0.4,0.4
2022-09-04T23:00:00,1937A,107.2386,34.3622,宝鸡市,三迪小学,,38,38,28,13,9,71,26,63,44,31,25,5,5,0.5,0.5
2022-09-04T23:00:00,1938A,109.5293,34.5101,渭南市,农科所(对照点),,,,,,,,,,,,,,,,
2022-09-04T23:00:00,1939A,109.4974,34.4877,渭南市,日报社,,29,29,30,16,18,106,85,96,85,26,27,12,8,0.3,0.4
2022-09-04T23:00:00,1940A,109.4636,34.493,渭南市,体育馆,,25,19,30,12,20,110,80,97,86,22,31,2,6,0.2,0.3
2022-09-04T23:00:00,1941A,109.4259,34.5023,渭南市,高新一小,,27,27,42,10,19,109,69,98,86,23,21,10,7,0.4,0.5
2022-09-04T23:00:00,1943A,102.1725,38.5339,金昌市,新川苑,,36,25,30,11,11,121,113,118,116,9,9,7,7,0.5,0.6
2022-09-04T23:00:00,1944A,102.1692,38.5167,金昌市,天庆家园,,35,27,31,8,6,119,111,117,114,6,4,5,5,0.4,0.4
2022-09-04T23:00:00,1945A,98.2908,39.7711,嘉峪关市,气象局,,23,22,22,7,9,126,73,122,108,43,10,5,11,0.3,0.3
2022-09-04T23:00:00,1947A,106.3394,38.817,石嘴山市,沙湖旅游区(对照点),颗粒物(PM10),58,65,62,17,29,118,36,109,89,47,23,4,5,0.2,0.2
2022-09-04T23:00:00,1948A,106.3668,39.0145,石嘴山市,大武口朝阳西街,颗粒物(PM10),54,58,62,14,14,112,43,109,89,45,31,2,5,0.5,0.5
2022-09-04T23:00:00,1949A,106.7704,39.2282,石嘴山市,惠农南大街,颗粒物(PM10),102,154,75,26,12,103,31,95,70,56,34,25,17,1.4,0.5
2022-09-04T23:00:00,1950A,106.7099,39.1325,石嘴山市,红果子镇惠新街,颗粒物(PM10),78,105,82,20,16,110,41,105,87,50,25,25,14,0.6,0.5
2022-09-04T23:00:00,1951A,84.895,45.6094,克拉玛依市,长征新村,,39,38,29,12,5,133,21,122,97,78,16,9,9,0.8,0.3
2022-09-04T23:00:00,1952A,84.8988,45.5893,克拉玛依市,南林小区,,,92,41,31,11,130,6,109,71,96,29,8,6,1.2,0.4
2022-09-04T23:00:00,1953A,85.1186,45.6886,克拉玛依市,白碱滩区,,,,,,,,,,,,,,,,
2022-09-04T23:00:00,1954A,84.905,44.3396,克拉玛依市,独山子区,颗粒物(PM10),58,65,32,26,11,120,86,114,101,7,12,7,9,0.2,0.3
2022-09-04T23:00:00,1955A,85.6979,46.098,克拉玛依市,乌尔禾区商贸楼,,49,49,26,22,8,112,27,104,90,34,9,5,5,0.3,0.2
2022-09-04T23:00:00,1956A,86.1472,41.7538,巴音郭楞州,孔雀公园,,,,,,,,,,,,,,,,
2022-09-04T23:00:00,1957A,86.1972,41.7166,巴音郭楞州,棉纺厂,颗粒物(PM10),66,82,70,27,25,121,79,119,108,12,14,4,4,0.3,0.2
2022-09-04T23:00:00,1958A,86.2357,41.7173,巴音郭楞州,经济开发区,,46,46,66,25,20,120,97,118,112,5,5,5,5,0.2,0.2
2022-09-04T23:00:00,1961A,117.532,36.6868,济南市,东山小学,颗粒物(PM10),75,100,87,24,32,197,58,177,111,80,46,5,8,0.4,0.6
2022-09-04T23:00:00,1966A,120.0405,35.8735,青岛市,黄岛区4号,,,,27,,9,101,,92,,,19,,5,,0.6
2022-09-04T23:00:00,1982A,122.0693,37.2174,威海市,文登开发区,,,,6,,1,95,,92,,,8,,4,,0.4
2022-09-04T23:00:00,2031A,113.1817,27.9958,株洲市,云田中学,细颗粒物(PM2.5),60,58,50,43,27,189,143,180,168,16,13,6,7,0.7,0.7
2022-09-04T23:00:00,2054A,114.1099,32.1059,信阳市,平桥分局,颗粒物(PM10),57,63,64,30,32,162,82,153,134,31,16,8,10,0.9,1
2022-09-04T23:00:00,2064A,113.9956,32.1271,信阳市,南湾水厂,,42,42,49,24,33,146,99,137,128,15,7,7,9,0.8,0.8
2022-09-04T23:00:00,2065A,114.0775,32.1195,信阳市,市酿酒公司,,40,40,56,28,32,162,86,150,136,28,14,8,10,0.9,0.9
2022-09-04T23:00:00,2066A,114.0609,32.1399,信阳市,审计局,,49,45,53,34,38,156,46,144,124,34,10,10,11,0.9,0.9
2022-09-04T23:00:00,2067A,114.6613,33.6128,周口市,市环境监测站,颗粒物(PM10),62,73,72,31,33,172,59,155,135,41,13,6,8,0.8,0.6
2022-09-04T23:00:00,2068A,114.6758,33.6347,周口市,周口师范,颗粒物(PM10),55,59,65,28,34,172,86,157,139,28,15,4,7,1.0,1
2022-09-04T23:00:00,2069A,114.6546,33.5979,周口市,市运管处,颗粒物(PM10),59,68,59,36,36,179,37,160,135,66,10,6,9,1.1,0.8
2022-09-04T23:00:00,2070A,114.6369,33.6406,周口市,川汇区环保局,,,76,59,30,32,172,55,154,130,35,14,7,8,,0.7
2022-09-04T23:00:00,2075A,117.6336,24.4674,漳州市,九湖(对照点),,,,,,,,,,,,,,,,
2022-09-04T23:00:00,2160A,112.85,35.5051,晋城市,自来水公司,,50,50,45,29,28,132,79,112,88,20,19,5,6,0.8,1
2022-09-04T23:00:00,2161A,112.8318,35.4936,晋城市,白云商贸,,44,44,45,24,24,126,83,112,95,20,20,3,4,0.6,0.8
2022-09-04T23:00:00,2162A,112.8508,35.4887,晋城市,市环保局,颗粒物(PM10),51,51,45,29,31,130,78,116,94,22,18,5,6,0.7,0.9
2022-09-04T23:00:00,2163A,112.8676,35.4897,晋城市,技术学院,,49,49,36,22,26,128,68,113,85,28,21,3,4,0.6,0.7
2022-09-04T23:00:00,2164A,112.8271,35.4828,晋城市,泽州一中,,,,,,,,,,,,,,,,
2022-09-04T23:00:00,2165A,112.8453,35.546,晋城市,白马寺 (对照点),,,,,,,,,,,,,,,,
2022-09-04T23:00:00,2166A,112.4397,39.3522,朔州市,平朔,颗粒物(PM10),65,80,50,19,16,124,69,118,97,36,17,6,3,0.4,0.4
2022-09-04T23:00:00,2167A,112.4575,39.3617,朔州市,朔唯,颗粒物(PM10),63,75,61,18,19,124,76,120,100,32,23,5,5,0.5,0.5
2022-09-04T23:00:00,2168A,112.4258,39.3197,朔州市,区政府,颗粒物(PM10),70,90,61,23,17,120,66,117,91,28,21,6,6,0.6,0.4
2022-09-04T23:00:00,2169A,112.4072,39.3278,朔州市,市环保局,,,,43,,12,77,,85,,,17,,6,,0.4
2022-09-04T23:00:00,2170A,112.4272,39.3681,朔州市,市二中,颗粒物(PM10),78,106,61,24,17,123,57,118,90,41,20,7,5,0.8,0.6
2022-09-04T23:00:00,2171A,112.7532,37.6945,晋中市,锦纶小区,细颗粒物(PM2.5),109,161,94,82,55,213,73,165,128,37,30,15,12,1.4,0.9
2022-09-04T23:00:00,2173A,112.7249,37.7067,晋中市,南都小区,细颗粒物(PM2.5),114,168,93,86,61,211,68,166,126,37,28,14,13,1.4,0.9
2022-09-04T23:00:00,2174A,112.6991,37.6982,晋中市,榆次区政府,颗粒物(PM10),108,166,91,78,54,208,58,161,120,35,27,12,12,1.7,1
2022-09-04T23:00:00,2175A,110.9956,35.0147,运城市,运城中学,,36,36,54,23,32,109,68,100,86,15,11,6,8,0.5,0.5
2022-09-04T23:00:00,2176A,111.0233,35.0611,运城市,禹都开发区,,,,,,,,,,,,,,,,
2022-09-04T23:00:00,2178A,110.9686,35.0303,运城市,地区技校,颗粒物(PM10),53,56,43,19,28,122,39,112,93,43,12,6,8,1.1,0.7
2022-09-04T23:00:00,2179A,111.0414,35.1147,运城市,空港新区,颗粒物(PM10),64,77,69,32,40,122,33,110,79,32,17,10,10,0.9,0.9
2022-09-04T23:00:00,2181A,112.7383,38.4519,忻州市,开发区,,36,36,81,10,47,147,64,124,95,24,25,9,16,0.5,0.9
2022-09-04T23:00:00,2182A,112.7003,38.4928,忻州市,会展中心,,42,42,72,14,43,150,51,124,99,33,26,8,13,0.3,0.7
2022-09-04T23:00:00,2183A,111.1406,37.5211,吕梁市,环保局,颗粒物(PM10),63,75,66,33,21,125,1,95,46,70,43,3,3,0.6,0.7
2022-09-04T23:00:00,2185A,111.1297,37.5136,吕梁市,自来水公司,颗粒物(PM10),62,73,63,19,21,107,11,91,52,51,37,6,7,0.6,0.6
2022-09-04T23:00:00,2186A,106.8288,39.6778,乌海市,聚英学校,,,,,,,,,,,,,,,,
2022-09-04T23:00:00,2187A,106.8174,39.6973,乌海市,市林业局,,42,42,75,19,25,114,92,110,95,5,17,5,10,0.4,0.6
2022-09-04T23:00:00,2188A,106.7907,39.6667,乌海市,中海勃湾学校,,50,50,88,22,21,121,83,117,102,17,23,7,17,0.2,0.6
2022-09-04T23:00:00,2191A,122.2532,43.6801,通辽市,艺术职业学校,,40,40,46,7,14,109,93,103,100,12,13,5,7,0.1,0.3
2022-09-04T23:00:00,2192A,119.7594,49.2261,呼伦贝尔市,区环保局,,30,18,33,21,18,110,48,96,76,8,14,3,5,0.5,0.5
2022-09-04T23:00:00,2194A,107.5936,40.916,巴彦淖尔市,秋林养殖基地(对照点),,,,,,,,,,,,,,,,
2022-09-04T23:00:00,2195A,107.4212,40.761,巴彦淖尔市,附二中,,41,41,82,22,37,107,52,96,76,10,12,4,5,0.4,0.4
2022-09-04T23:00:00,2196A,107.37,40.7372,巴彦淖尔市,市环保大楼,,41,41,76,14,24,108,58,99,81,10,12,3,4,0.5,0.5
2022-09-04T23:00:00,2197A,113.1306,40.9923,乌兰察布市,集宁新区,,21,21,28,13,21,124,64,108,86,4,8,6,9,0.2,0.3
2022-09-04T23:00:00,2200A,122.0392,46.0656,兴安盟,胜华新制药厂,,28,28,33,15,20,107,77,96,85,12,10,6,4,0.8,0.8
2022-09-04T23:00:00,2201A,121.9504,46.0741,兴安盟,科右前旗环保局,,32,28,28,12,20,120,100,110,101,2,5,3,4,0.0,0.3
2022-09-04T23:00:00,2202A,116.1042,43.9317,锡林郭勒盟,市环保监测站,,19,2,14,4,6,116,60,107,82,4,3,7,7,0.2,0.2
2022-09-04T23:00:00,2203A,116.0781,43.9311,锡林郭勒盟,市政府,,26,26,14,4,4,112,57,102,78,6,4,8,7,0.1,0.2
2022-09-04T23:00:00,2204A,105.6467,38.8363,阿拉善盟,西城区西花园(对照点),颗粒物(PM10),57,63,52,25,20,124,76,117,102,25,11,5,5,0.4,0.3
2022-09-04T23:00:00,2205A,105.6985,38.8411,阿拉善盟,蒙二幼,颗粒物(PM10),56,62,58,32,24,122,76,116,104,21,10,7,8,0.3,0.2
2022-09-04T23:00:00,2206A,105.724,38.8516,阿拉善盟,环保局新楼,,37,37,31,23,18,117,94,112,107,11,8,7,7,0.2,0.2
2022-09-04T23:00:00,2207A,121.6094,41.998,阜新市,工业园区,,39,39,51,15,17,106,95,93,91,10,23,10,16,0.5,0.6
2022-09-04T23:00:00,2208A,121.6697,42.0279,阜新市,长青街,,38,38,48,15,14,120,103,105,104,11,15,10,15,0.3,0.3
2022-09-04T23:00:00,2209A,121.6673,42.0705,阜新市,农业园区,,32,28,34,22,21,112,100,105,98,8,12,8,11,0.5,0.6
2022-09-04T23:00:00,2210A,121.6717,42.0224,阜新市,东苑,,44,44,45,19,19,112,96,100,97,11,14,9,10,0.5,0.6
2022-09-04T23:00:00,2211A,121.6506,42.0498,阜新市,玉龙新城,,34,28,36,21,19,124,108,112,110,7,12,10,13,0.3,0.4
2022-09-04T23:00:00,2212A,123.2,41.1953,辽阳市,宏伟区,,28,28,19,8,7,84,57,59,49,22,17,10,7,0.8,0.6
2022-09-04T23:00:00,2213A,123.1683,41.2495,辽阳市,新华园,,34,34,35,10,14,86,34,69,49,42,29,14,8,0.8,0.6
2022-09-04T23:00:00,2214A,123.2354,41.2639,辽阳市,滨河路,,32,30,33,22,16,82,30,61,40,31,28,5,6,0.7,0.8
2022-09-04T23:00:00,2215A,123.149,41.2991,辽阳市,铁西工业园,,42,42,33,24,22,107,39,70,58,49,24,11,10,1.0,0.8
2022-09-04T23:00:00,2216A,123.8139,42.3022,铁岭市,汇工街西,,16,16,26,11,15,96,46,87,56,17,16,9,10,0.9,0.6
2022-09-04T23:00:00,2217A,123.8649,42.2923,铁岭市,水上乐园,,16,15,18,11,11,88,27,75,42,20,17,9,5,0.3,0.3
2022-09-04T23:00:00,2218A,123.8486,42.2867,铁岭市,银州路东段,,15,7,18,5,11,90,16,75,36,30,20,5,5,0.6,0.6
2022-09-04T23:00:00,2219A,123.7153,42.2217,铁岭市,金沙江路北,,19,19,20,11,11,89,29,80,46,26,21,6,4,1.0,0.8
2022-09-04T23:00:00,2220A,120.4318,41.5881,朝阳市,西梁,,31,31,35,18,15,104,70,100,92,10,11,7,9,0.8,0.8
2022-09-04T23:00:00,2221A,120.4521,41.5646,朝阳市,河畔小区,,36,36,29,21,16,110,91,107,102,7,9,10,10,0.5,0.5
2022-09-04T23:00:00,2222A,120.4176,41.5648,朝阳市,八里堡,,34,34,39,19,17,102,76,97,89,10,15,6,6,0.7,0.7
2022-09-04T23:00:00,2223A,120.3806,41.5969,朝阳市,农业园区,,39,36,32,27,19,104,72,99,89,12,14,6,9,0.9,0.9
2022-09-04T23:00:00,2225A,124.4002,43.1713,四平市,一商场,,17,17,26,9,12,90,35,72,66,23,21,7,4,0.2,0.3
2022-09-04T23:00:00,2226A,124.388,43.193,四平市,境园,,29,29,24,10,9,93,41,74,62,19,20,3,3,0.3,0.3
2022-09-04T23:00:00,2227A,125.1358,42.8845,辽源市,环保局,,25,21,26,17,18,70,21,48,37,8,18,6,7,0.4,0.5
2022-09-04T23:00:00,2229A,125.9358,41.7173,通化市,光明,,9,5,27,5,10,34,25,27,27,17,23,16,13,0.6,0.8
2022-09-04T23:00:00,2230A,125.9446,41.7325,通化市,铁路,,10,9,24,7,11,38,18,26,25,17,22,10,12,0.6,0.8
2022-09-04T23:00:00,2231A,126.4219,41.9171,白山市,喜丰,,22,22,45,13,10,37,20,22,20,13,18,6,12,1.0,0.9
2022-09-04T23:00:00,2232A,126.4077,41.9419,白山市,环保局,,27,27,37,10,9,32,18,28,26,18,20,6,9,0.7,0.6
2022-09-04T23:00:00,2233A,124.8006,45.1214,松原市,江南,,22,13,29,6,16,88,69,85,77,8,15,3,9,0.3,0.4
2022-09-04T23:00:00,2234A,124.7965,45.1722,松原市,江北,,22,10,26,7,11,92,69,81,79,8,13,2,4,0.2,0.5
2022-09-04T23:00:00,2235A,122.7911,45.6077,白城市,洮北区环保局,,28,14,33,4,16,113,89,98,93,6,9,2,2,0.2,0.3
2022-09-04T23:00:00,2236A,122.8738,45.5725,白城市,市环保局,,26,12,31,5,15,100,83,89,85,4,7,5,6,0.2,0.4
2022-09-04T23:00:00,2237A,129.47,42.8883,延边朝鲜族自治州,妇幼医院,,23,3,15,3,9,74,72,68,68,7,8,7,8,0.4,0.4
2022-09-04T23:00:00,2238A,129.5055,42.9108,延边朝鲜族自治州,延边医院,,23,1,20,0,8,77,73,66,66,7,11,6,7,0.4,0.5
2022-09-04T23:00:00,2239A,129.3964,42.8881,延边朝鲜族自治州,朝阳川镇医院,,23,0,15,2,7,71,71,66,66,4,10,6,6,0.4,0.4
2022-09-04T23:00:00,2240A,130.9762,45.3001,鸡西市,环保局,,16,10,33,4,11,50,50,35,35,6,16,2,2,0.3,0.4
2022-09-04T23:00:00,2243A,130.9429,45.3039,鸡西市,第一中学,,,,34,4,10,65,65,45,45,2,13,4,4,0.2,0.3
2022-09-04T23:00:00,2244A,130.2537,47.3416,鹤岗市,哈啤分公司,,13,13,20,5,8,92,33,73,50,14,14,9,6,0.0,0.1
2022-09-04T23:00:00,2245A,130.2684,47.3086,鹤岗市,斯达机电,,25,25,30,10,9,86,36,70,52,13,10,11,5,0.3,0.3
2022-09-04T23:00:00,2246A,130.3114,47.3388,鹤岗市,东山纸板厂,,26,26,47,14,13,74,25,64,37,16,19,6,7,0.6,0.6
2022-09-04T23:00:00,2247A,130.1097,47.3382,鹤岗市,五号水库(对照点),,17,17,14,8,7,91,21,75,37,13,10,5,6,0.4,0.4
2022-09-04T23:00:00,2248A,131.1511,46.6937,双鸭山市,双合村,,18,16,20,8,6,83,56,72,56,8,9,7,8,0.3,0.3
2022-09-04T23:00:00,2249A,131.1652,46.6191,双鸭山市,南小市,,22,19,23,13,5,88,68,76,61,3,6,3,3,0.1,0.1
2022-09-04T23:00:00,2250A,131.1524,46.6554,双鸭山市,环保局,,19,19,15,0,2,82,47,70,52,10,10,3,3,0.1,0.1
2022-09-04T23:00:00,2251A,131.12,46.5656,双鸭山市,苗圃(对照点),,29,23,16,20,10,90,31,77,55,13,3,2,2,0.4,0.3
2022-09-04T23:00:00,2252A,128.5159,47.4311,伊春市,环保局,,24,19,17,9,10,75,75,68,68,4,9,5,6,0.2,0.4
2022-09-04T23:00:00,2253A,128.9102,47.7412,伊春市,电力嘉园,,25,10,11,10,8,77,77,64,64,3,8,5,7,0.5,0.8
2022-09-04T23:00:00,2254A,129.5029,48.471,伊春市,汤旺河国家公园(对照点),,28,28,22,7,5,68,45,63,50,2,2,5,5,0.3,0.2
2022-09-04T23:00:00,2255A,130.2751,46.8028,佳木斯市,佳纺,,30,30,46,10,14,82,12,69,43,30,18,3,3,0.3,0.3
2022-09-04T23:00:00,2256A,130.3995,46.8307,佳木斯市,发电厂,,31,31,35,10,12,74,21,65,41,14,13,1,2,0.2,0.3
2022-09-04T23:00:00,2257A,130.3258,46.7975,佳木斯市,环保局,,26,26,31,8,11,79,30,70,47,22,20,4,2,0.4,0.4
2022-09-04T23:00:00,2258A,130.3648,46.8032,佳木斯市,十一中,,26,26,44,13,16,75,26,63,42,22,22,6,5,0.4,0.4
2022-09-04T23:00:00,2259A,130.3794,46.7588,佳木斯市,四丰(对照点),,18,18,18,8,8,97,54,88,64,10,11,1,2,0.2,0.2
2022-09-04T23:00:00,2262A,131.0518,45.8751,七台河市,新一中(对照点),,20,5,17,3,6,81,64,69,53,4,7,7,7,0.5,0.6
2022-09-04T23:00:00,2263A,127.4833,50.2524,黑河市,交通局,,26,26,23,10,15,99,41,87,50,5,10,5,6,0.4,0.5
2022-09-04T23:00:00,2264A,127.5144,50.2341,黑河市,环保局,,13,8,11,4,7,102,41,93,58,6,8,5,5,0.3,0.4
2022-09-04T23:00:00,2265A,127.5291,50.2472,黑河市,大黑河岛(对照点),,13,5,27,9,11,105,38,95,50,2,3,4,5,0.2,0.3
2022-09-04T23:00:00,2266A,126.9785,46.6365,绥化市,人和东街,,14,13,19,9,8,75,42,64,49,4,9,6,6,0.6,0.6
2022-09-04T23:00:00,2267A,126.964,46.6528,绥化市,党政办公中心,,16,16,20,9,9,83,49,75,60,4,7,6,6,0.6,0.5
2022-09-04T23:00:00,2269A,124.1069,50.4097,大兴安岭地区,科技局,,21,4,7,12,9,96,65,92,84,5,6,4,4,0.4,0.5
2022-09-04T23:00:00,2270A,117.396,32.939,蚌埠市,工人疗养院,颗粒物(PM10),58,65,53,27,25,155,126,149,142,17,14,14,15,0.5,0.4
2022-09-04T23:00:00,2271A,117.3605,32.9427,蚌埠市,百货大楼,颗粒物(PM10),56,61,52,31,18,151,117,147,137,24,21,13,13,0.6,0.5
2022-09-04T23:00:00,2273A,117.4185,32.8911,蚌埠市,蚌埠学院,颗粒物(PM10),57,63,47,24,20,157,138,152,143,18,17,13,13,0.4,0.3
2022-09-04T23:00:00,2274A,117.3533,32.9673,蚌埠市,淮上区政府,颗粒物(PM10),64,78,56,31,24,153,106,148,128,19,17,12,13,0.5,0.4
2022-09-04T23:00:00,2275A,117.3145,32.8977,蚌埠市,高新区,颗粒物(PM10),70,90,62,41,26,155,66,149,113,63,37,30,16,0.5,0.3
2022-09-04T23:00:00,2277A,116.8305,32.7727,淮南市,潘集区政府,颗粒物(PM10),53,55,52,23,25,157,110,145,126,17,15,12,15,0.4,0.4
2022-09-04T23:00:00,2278A,117.0067,32.6524,淮南市,师范学院,细颗粒物(PM2.5),70,58,60,51,30,160,100,143,121,15,14,13,12,0.4,0.4
2022-09-04T23:00:00,2279A,116.8569,32.5951,淮南市,谢家集区政府,,37,32,45,13,19,158,116,147,126,16,19,12,16,0.4,0.4
2022-09-04T23:00:00,2280A,116.8281,32.633,淮南市,八公山区政府,,37,28,37,20,22,150,117,138,120,14,18,9,10,0.4,0.4
2022-09-04T23:00:00,2281A,116.6325,32.6201,淮南市,焦岗湖风景区管理处(对照点),颗粒物(PM10),65,80,51,33,20,134,20,117,72,62,31,10,12,0.4,0.4
2022-09-04T23:00:00,2282A,116.8004,33.975,淮北市,监测站,,44,44,47,27,24,165,65,147,119,43,17,24,14,1.0,0.8
2022-09-04T23:00:00,2283A,116.8091,33.9007,淮北市,烈山区政府,颗粒物(PM10),69,88,51,36,26,179,39,165,119,66,25,11,13,1.0,0.7
2022-09-04T23:00:00,2284A,116.7856,33.9477,淮北市,职业技术学院,颗粒物(PM10),81,111,55,38,24,162,50,150,99,48,23,14,11,0.8,0.6
2022-09-04T23:00:00,2285A,117.8177,30.9412,铜陵市,市第四中学,,40,40,35,18,20,142,89,128,120,31,24,17,9,0.5,0.5
2022-09-04T23:00:00,2286A,117.8059,30.9273,铜陵市,市公路局,,49,49,37,24,20,146,103,134,128,13,13,10,10,0.4,0.4
2022-09-04T23:00:00,2287A,117.7807,30.9413,铜陵市,市新民污水厂,,39,39,31,17,16,148,95,135,128,17,13,5,5,0.3,0.3
2022-09-04T23:00:00,2288A,117.7439,30.8792,铜陵市,市第九中学,颗粒物(PM10),62,73,48,16,17,141,94,127,120,23,20,14,11,0.5,0.5
2022-09-04T23:00:00,2289A,117.846,30.9413,铜陵市,车站新区,,,31,35,16,11,137,,129,128,23,20,5,5,0.3,0.3
2022-09-04T23:00:00,2290A,117.8483,30.97,铜陵市,市职教基地,,38,38,39,13,13,149,107,141,136,19,15,5,5,0.5,0.6
2022-09-04T23:00:00,2291A,117.0809,30.5177,安庆市,环科院,,43,38,34,18,17,171,135,162,145,9,9,8,7,0.4,0.5
2022-09-04T23:00:00,2292A,117.0331,30.5119,安庆市,马山宾馆,,38,38,34,22,18,170,120,158,142,15,9,7,6,0.4,0.5
2022-09-04T23:00:00,2294A,116.9896,30.6145,安庆市,安庆大学,,38,34,32,17,17,166,121,156,139,17,13,7,8,0.6,0.7
2022-09-04T23:00:00,2295A,118.2903,29.6963,黄山市,延安路89号,,18,18,13,8,6,106,54,86,78,10,9,6,6,0.4,0.3
2022-09-04T23:00:00,2296A,118.327,29.7178,黄山市,黄山东路89号,,20,15,11,6,4,93,64,84,81,9,8,6,6,0.2,0.2
2022-09-04T23:00:00,2297A,118.1371,30.2756,黄山市,黄山区政府5号楼,,31,31,26,12,11,83,10,78,39,6,6,6,6,0.6,0.5
2022-09-04T23:00:00,2298A,118.3093,32.3153,滁州市,老年大学,,20,16,25,9,13,137,64,128,107,16,10,6,6,0.2,0.2
2022-09-04T23:00:00,2299A,118.3244,32.2786,滁州市,人大宾馆,,25,14,22,8,10,137,78,130,112,10,10,8,4,0.1,0.2
2022-09-04T23:00:00,2301A,115.8277,32.8929,阜阳市,市监测站,,46,46,44,23,22,133,85,128,106,28,17,8,9,0.5,0.5
2022-09-04T23:00:00,2303A,115.8554,32.8605,阜阳市,开发区,颗粒物(PM10),58,65,47,27,24,138,64,128,100,39,22,7,8,0.6,0.6
2022-09-04T23:00:00,2306A,116.989,33.6306,宿州市,火车站,,,,,,,,,,,,,,,,
2022-09-04T23:00:00,2307A,116.5079,31.737,六安市,监测大楼,颗粒物(PM10),55,60,51,20,18,143,74,131,109,22,13,6,9,0.4,0.4
2022-09-04T23:00:00,2308A,116.4738,31.7643,六安市,皖西学院,颗粒物(PM10),66,82,51,25,13,160,64,146,104,31,17,5,8,0.2,0.2
2022-09-04T23:00:00,2309A,116.4996,31.7905,六安市,朝阳厂,,46,46,40,12,14,158,74,143,107,24,14,10,12,0.5,0.4
2022-09-04T23:00:00,2310A,116.5567,31.7886,六安市,开发区,颗粒物(PM10),58,66,50,22,18,158,70,139,107,31,17,9,11,0.4,0.3
2022-09-04T23:00:00,2311A,115.8072,33.8399,亳州市,污水处理厂,颗粒物(PM10),56,62,52,31,30,157,64,150,123,33,12,7,8,0.5,0.5
2022-09-04T23:00:00,2312A,115.7789,33.8518,亳州市,三国揽胜宫,"颗粒物(PM10),细颗粒物(PM2.5)",57,63,53,40,34,165,69,157,126,26,9,4,6,0.7,0.6
2022-09-04T23:00:00,2314A,117.47,30.6618,池州市,池州学院,,38,29,34,16,19,169,119,160,150,11,10,8,7,0.6,0.6
2022-09-04T23:00:00,2315A,117.4974,30.6539,池州市,平天湖(对照点),,,,,,,,,,,,,,,,
2022-09-04T23:00:00,2316A,118.7581,30.9454,宣城市,鳌峰子站,,21,21,19,3,13,96,63,87,85,10,15,7,7,0.2,0.4
2022-09-04T23:00:00,2317A,118.7385,30.9743,宣城市,敬亭山子站,,21,21,21,6,13,91,46,81,76,19,15,6,7,0.2,0.3
2022-09-04T23:00:00,2318A,118.7173,30.9427,宣城市,开发区子站,,20,16,18,4,13,94,62,88,85,11,13,5,7,0.3,0.4
2022-09-04T23:00:00,2319A,119.0141,25.4325,莆田市,荔城区仓后路,,22,8,15,4,7,76,68,73,70,6,7,4,4,0.7,0.6
2022-09-04T23:00:00,2320A,119.0015,25.4553,莆田市,莆田市监测站,,23,13,11,7,6,82,73,79,76,2,2,6,6,0.5,0.5
2022-09-04T23:00:00,2321A,119.1119,25.4561,莆田市,涵江区六中,,20,12,13,8,9,80,64,77,70,6,5,7,7,0.6,0.6
2022-09-04T23:00:00,2322A,119.1013,25.3215,莆田市,秀屿区政府,,21,15,17,8,9,83,66,80,72,5,3,5,5,0.7,0.7
2022-09-04T23:00:00,2323A,118.981,25.4792,莆田市,东圳水库(对照点),,,,,,,,,,,,,,,,
2022-09-04T23:00:00,2324A,117.6211,26.2625,三明市,三钢,,31,31,26,18,18,93,80,75,68,16,16,9,12,0.2,0.6
2022-09-04T23:00:00,2325A,117.635,26.2714,三明市,三明二中,,30,19,18,12,12,97,94,87,87,7,7,8,7,0.6,0.7
2022-09-04T23:00:00,2326A,117.6028,26.2378,三明市,三元区政府,,33,33,22,20,19,96,72,83,75,13,10,8,7,0.6,0.6
2022-09-04T23:00:00,2327A,117.7275,26.3108,三明市,洋溪(对照点),,,,,,,,,,,,,,,,
2022-09-04T23:00:00,2331A,118.0966,26.6761,南平市,茫荡山(对照点),,,,,,,,,,,,,,,,
2022-09-04T23:00:00,2332A,118.1681,26.6369,南平市,南平市监测站,,29,24,16,9,11,99,90,86,86,5,6,6,6,0.4,0.5
2022-09-04T23:00:00,2333A,118.1825,26.6489,南平市,南平铝业有限公司,,29,21,16,16,15,98,91,86,86,4,5,4,4,0.6,0.6
2022-09-04T23:00:00,2334A,118.1756,26.6272,南平市,南平七中,,30,17,16,11,11,104,95,89,89,5,6,6,6,0.6,0.6
2022-09-04T23:00:00,2335A,117.0189,25.1181,龙岩市,龙岩师专(对照点),,,,,,,,,,,,,,,,
2022-09-04T23:00:00,2336A,117.0217,25.1033,龙岩市,龙岩市监测站,,25,21,16,14,10,95,78,84,74,12,9,7,6,0.4,0.4
2022-09-04T23:00:00,2337A,117.0258,25.0661,龙岩市,闽西职业技术学院,,25,22,15,14,8,101,78,94,76,9,5,8,6,0.4,0.4
2022-09-04T23:00:00,2338A,117.0196,25.0306,龙岩市,龙岩学院,,25,17,14,15,9,103,80,90,78,8,7,3,2,0.3,0.4
2022-09-04T23:00:00,2339A,119.5001,26.6946,宁德市,金涵水库(对照点),,,,,,,,,,,,,,,,
2022-09-04T23:00:00,2341A,119.5388,26.6612,宁德市,宁德市监测站,,22,7,9,5,4,71,68,67,66,6,6,4,5,0.5,0.5
2022-09-04T23:00:00,2342A,117.3102,29.3867,景德镇市,王港中学(对照点),,27,27,19,18,12,96,40,90,73,9,5,4,4,0.4,0.5
2022-09-04T23:00:00,2343A,117.2117,29.2933,景德镇市,老干部活动中心,颗粒物(PM10),59,68,40,22,15,110,100,104,104,16,9,9,7,0.5,0.5
2022-09-04T23:00:00,2344A,117.1894,29.2789,景德镇市,兽医站,,49,49,25,19,13,125,91,110,108,17,11,5,6,0.7,0.6
2022-09-04T23:00:00,2345A,117.1547,29.2617,景德镇市,台达陶瓷,颗粒物(PM10),63,76,29,44,17,119,67,109,96,41,19,38,16,0.8,0.5
2022-09-04T23:00:00,2346A,117.2461,29.2956,景德镇市,陶研所,,45,45,36,21,11,108,64,103,97,26,7,6,6,0.7,0.5
2022-09-04T23:00:00,2347A,114.0997,27.5002,萍乡市,武功山(对照点),,26,18,11,18,8,146,83,131,109,10,8,13,14,0.4,0.3
2022-09-04T23:00:00,2348A,113.8385,27.6434,萍乡市,中医院,,45,42,44,26,24,156,142,151,150,17,24,10,19,0.6,0.6
2022-09-04T23:00:00,2349A,113.8493,27.6253,萍乡市,市政府车库,细颗粒物(PM2.5),59,66,44,42,26,156,123,154,148,23,18,17,13,0.8,0.7
2022-09-04T23:00:00,2350A,113.8676,27.6435,萍乡市,市环保局,细颗粒物(PM2.5),52,50,35,36,25,151,143,147,147,10,15,9,13,0.6,0.6
2022-09-04T23:00:00,2351A,113.866,27.6198,萍乡市,安源区政府,细颗粒物(PM2.5),57,61,41,40,23,162,135,158,155,13,13,19,18,0.6,0.5
2022-09-04T23:00:00,2352A,115.0861,27.9317,新余市,北岗(对照点),,,,37,47,18,158,51,129,107,13,9,12,14,0.7,0.6
2022-09-04T23:00:00,2353A,114.9886,27.8431,新余市,飞宇,颗粒物(PM10),55,60,38,28,15,128,56,112,97,28,19,18,14,0.5,0.4
2022-09-04T23:00:00,2354A,114.9231,27.8246,新余市,第二水厂,颗粒物(PM10),56,61,33,36,16,152,88,135,125,38,18,10,7,0.5,0.4
2022-09-04T23:00:00,2355A,114.9308,27.8036,新余市,市气象局,,46,46,33,17,15,136,80,125,113,17,9,13,11,0.4,0.3
2022-09-04T23:00:00,2357A,116.9822,28.1136,鹰潭市,龙虎山(对照点),,,,,,,,,,,,,,,,
2022-09-04T23:00:00,2358A,117.0564,28.2642,鹰潭市,新监测站,,32,32,26,12,13,123,90,112,105,7,3,3,2,0.4,0.3
2022-09-04T23:00:00,2359A,117.0311,28.2475,鹰潭市,财苑宾馆,,43,43,27,12,16,121,105,109,104,6,4,2,3,0.5,0.4
2022-09-04T23:00:00,2360A,117.0222,28.2264,鹰潭市,体育馆,,41,41,33,20,17,130,120,109,102,6,6,1,2,0.6,0.6
2022-09-04T23:00:00,2361A,117.0017,28.2131,鹰潭市,三川水表,颗粒物(PM10),54,57,37,9,15,126,111,103,94,3,3,1,2,1.1,1.1
2022-09-04T23:00:00,2362A,114.9017,25.9149,赣州市,通天岩(对照点),,34,34,20,15,11,146,98,133,122,8,6,6,7,0.5,0.5
2022-09-04T23:00:00,2363A,114.9367,25.8664,赣州市,地委,,35,33,32,14,17,125,111,118,114,11,14,6,7,0.8,0.7
2022-09-04T23:00:00,2364A,114.9461,25.8481,赣州市,气象台,,37,28,24,8,14,153,117,145,134,12,8,5,5,0.7,0.6
2022-09-04T23:00:00,2365A,114.9322,25.8333,赣州市,市图书馆,,44,33,25,23,15,175,140,163,150,12,9,7,7,0.9,0.8
2022-09-04T23:00:00,2366A,114.8905,25.8471,赣州市,华坚鞋城,,42,41,34,28,15,149,132,136,129,9,10,6,6,0.6,0.6
2022-09-04T23:00:00,2367A,114.9754,27.0803,吉安市,红声器材厂,,48,48,36,24,15,164,73,155,132,25,11,7,8,0.5,0.5
2022-09-04T23:00:00,2368A,114.9658,27.0999,吉安市,市森林工业局,,48,48,37,24,18,162,75,152,126,24,9,7,9,0.5,0.4
2022-09-04T23:00:00,2369A,114.99,27.1312,吉安市,市环境监测站,颗粒物(PM10),53,55,39,29,22,164,65,154,128,32,14,5,7,0.6,0.5
2022-09-04T23:00:00,2370A,115.0093,27.0968,吉安市,青原区法院,颗粒物(PM10),52,54,33,30,15,166,36,150,117,56,14,13,12,0.5,0.4
2022-09-04T23:00:00,2371A,114.3408,27.8064,宜春市,槟榔水业(对照点),,,,,,,,,,,,,,,,
2022-09-04T23:00:00,2373A,114.3956,27.7844,宜春市,市石油公司,颗粒物(PM10),54,58,42,36,19,137,125,125,118,20,22,13,11,0.9,0.9
2022-09-04T23:00:00,2374A,114.3703,27.7914,宜春市,市气象局,颗粒物(PM10),60,70,39,34,20,143,115,133,119,23,17,17,13,0.9,0.9
2022-09-04T23:00:00,2375A,114.4013,27.8074,宜春市,市广电局,颗粒物(PM10),56,62,50,28,24,146,126,130,119,16,17,14,16,0.6,0.6
2022-09-04T23:00:00,2376A,116.2127,28.0814,抚州市,桐源党溪(对照点),,37,32,31,19,14,194,118,185,161,2,6,2,2,0.7,0.7
2022-09-04T23:00:00,2377A,116.3544,27.9831,抚州市,市站,,38,38,32,22,15,163,115,152,144,8,7,6,7,0.4,0.5
2022-09-04T23:00:00,2378A,116.3565,27.963,抚州市,血防站,,42,42,34,21,16,157,114,147,140,9,7,3,6,0.8,0.7
2022-09-04T23:00:00,2379A,116.3564,28.0007,抚州市,采茶剧团,,41,41,31,20,16,154,111,144,136,8,6,5,4,0.7,0.7
2022-09-04T23:00:00,2380A,116.385,27.9647,抚州市,医学分院,,39,39,33,21,15,161,110,152,143,12,8,4,5,0.7,0.6
2022-09-04T23:00:00,2381A,118.005,28.4572,上饶市,百草园(对照点),,,,,,,,,,,,,,,,
2022-09-04T23:00:00,2382A,117.9756,28.4436,上饶市,市监测站,,36,36,33,12,15,103,69,94,75,6,7,6,17,0.5,0.6
2022-09-04T23:00:00,2383A,117.9519,28.4628,上饶市,凤凰光学,,25,25,24,12,15,81,61,76,66,14,10,5,16,0.8,0.6
2022-09-04T23:00:00,2385A,114.17,35.9019,鹤壁市,市监测站,,44,44,45,28,27,184,52,149,120,12,8,5,4,1.0,0.9
2022-09-04T23:00:00,2386A,114.2956,35.7511,鹤壁市,市交警支队,颗粒物(PM10),65,79,56,33,37,183,53,151,126,42,19,11,9,0.8,0.7
2022-09-04T23:00:00,2387A,114.2878,35.7306,鹤壁市,迎宾馆,颗粒物(PM10),61,72,49,37,29,176,49,149,121,43,19,7,6,1.0,0.8
2022-09-04T23:00:00,2389A,113.836,35.311,新乡市,环保西院,颗粒物(PM10),52,53,59,31,42,160,89,144,124,21,22,8,8,0.7,0.9
2022-09-04T23:00:00,2390A,113.884,35.272,新乡市,开发区,颗粒物(PM10),56,61,62,29,43,156,90,144,127,18,17,8,10,0.7,0.8
2022-09-04T23:00:00,2391A,113.883,35.303,新乡市,环保东院,颗粒物(PM10),52,54,57,26,38,159,92,144,131,23,22,10,10,0.7,0.8
2022-09-04T23:00:00,2392A,115.0312,35.7636,濮阳市,环保局,细颗粒物(PM2.5),57,51,56,40,47,155,86,144,124,25,20,8,9,0.7,0.6
2022-09-04T23:00:00,2394A,115.0574,35.7609,濮阳市,油田运输公司,细颗粒物(PM2.5),70,48,68,51,55,142,75,132,108,32,28,6,8,0.9,0.8
2022-09-04T23:00:00,2395A,115.0866,35.7754,濮阳市,油田物探公司,细颗粒物(PM2.5),73,74,58,53,49,153,65,146,117,40,23,9,10,0.6,0.5
2022-09-04T23:00:00,2396A,113.8276,34.0159,许昌市,监测站,细颗粒物(PM2.5),57,54,53,40,32,167,95,151,130,25,23,8,14,0.7,0.7
2022-09-04T23:00:00,2398A,113.7906,33.9953,许昌市,开发区,颗粒物(PM10),56,62,57,36,37,170,66,147,120,36,20,6,8,0.7,0.8
2022-09-04T23:00:00,2399A,114.051,33.5699,漯河市,三五一五工厂,颗粒物(PM10),58,66,55,34,35,156,36,147,117,51,16,7,9,0.9,0.7
2022-09-04T23:00:00,2400A,114.0055,33.5698,漯河市,漯河大学,颗粒物(PM10),57,63,52,29,32,163,56,151,113,61,22,8,9,0.5,0.5
2022-09-04T23:00:00,2401A,114.0138,33.5828,漯河市,市水利局,细颗粒物(PM2.5),54,53,53,38,32,167,66,150,119,38,20,9,11,0.9,0.8
2022-09-04T23:00:00,2402A,114.0261,33.5698,漯河市,市广电局,颗粒物(PM10),53,56,49,36,37,162,68,147,121,36,15,7,9,0.9,0.7
2022-09-04T23:00:00,2403A,112.5192,32.9917,南阳市,环保局,颗粒物(PM10),63,75,52,24,21,154,12,132,77,76,29,7,7,0.9,0.6
2022-09-04T23:00:00,2404A,112.5339,33.0086,南阳市,瓦房庄,颗粒物(PM10),73,96,50,34,25,155,4,131,76,85,27,8,7,0.8,0.4
2022-09-04T23:00:00,2405A,112.5003,32.9735,南阳市,汉画馆,颗粒物(PM10),61,71,46,29,23,156,40,132,89,52,23,7,7,0.7,0.5
2022-09-04T23:00:00,2406A,112.5779,33.0144,南阳市,气象站,颗粒物(PM10),53,56,46,30,22,179,20,141,83,75,25,8,7,0.7,0.4
2022-09-04T23:00:00,2407A,112.548,32.9692,南阳市,理工学院,颗粒物(PM10),68,85,54,33,24,168,30,144,103,70,26,6,6,1.0,0.6
2022-09-04T23:00:00,2408A,115.6702,34.4285,商丘市,环境监测站,颗粒物(PM10),68,85,52,38,32,154,24,150,108,53,16,8,12,1.0,0.7
2022-09-04T23:00:00,2409A,115.6458,34.4045,商丘市,粮食局,颗粒物(PM10),72,93,67,42,32,160,47,154,124,49,15,5,8,0.7,0.5
