timepoint,stationcode,longitude,latitude,area,positionname,primarypollutant,aqi,pm10,pm10_24h,pm2_5,pm2_5_24h,o3,o3_24h,o3_8h,o3_8h_24h,no2,no2_24h,so2,so2_24h,co,co_24h
2023-01-02T14:00:00,1001A,116.3621,39.8784,北京市,万寿西宫,,21,21,26,11,15,56,56,51,51,11,30,2,2,0.3,0.4
2023-01-02T14:00:00,1002A,116.2202,40.2915,北京市,定陵(对照点),,20,16,20,8,11,79,63,76,58,5,7,5,3,0.1,0.2
2023-01-02T14:00:00,1003A,116.4174,39.9289,北京市,东四,,21,21,24,11,13,57,49,51,50,10,19,1,2,0.2,0.3
2023-01-02T14:00:00,1004A,116.4072,39.8863,北京市,天坛,,20,20,23,11,13,58,58,54,54,8,23,2,2,0.0,0.3
2023-01-02T14:00:00,1005A,116.462,39.9365,北京市,农展馆,,19,18,20,9,8,58,58,53,53,9,21,3,2,0.2,0.3
2023-01-02T14:00:00,1006A,116.3392,39.9295,北京市,官园,,22,22,25,10,14,60,60,56,56,10,23,4,4,0.2,0.3
2023-01-02T14:00:00,1007A,116.2878,39.9611,北京市,海淀万柳,,24,24,29,11,13,47,47,43,43,16,32,2,2,0.2,0.3
2023-01-02T14:00:00,1008A,116.6636,40.135,北京市,顺义新城,,23,11,16,5,8,73,71,70,67,1,9,1,1,0.1,0.2
2023-01-02T14:00:00,1009A,116.6275,40.3275,北京市,怀柔镇,,21,9,19,4,11,65,65,57,57,4,13,3,2,0.1,0.2
2023-01-02T14:00:00,1010A,116.2296,40.217,北京市,昌平镇,,20,15,19,8,11,69,64,68,54,3,10,2,2,0.4,0.3
2023-01-02T14:00:00,1011A,116.3966,39.9821,北京市,奥体中心,,25,25,45,10,10,61,61,58,58,9,23,3,3,0,0.1
2023-01-02T14:00:00,1012A,116.184,39.9136,北京市,古城,,30,30,41,13,18,56,56,48,48,12,34,2,2,0.3,0.4
2023-01-02T14:00:00,1015A,117.1444,39.1661,天津市,勤俭道,,23,23,74,13,45,67,67,50,50,12,44,3,8,0.4,0.9
2023-01-02T14:00:00,1017A,117.237,39.1082,天津市,大直沽八号路,,,20,83,10,47,64,64,36,36,,56,4,10,0.2,1
2023-01-02T14:00:00,1018A,117.202,39.0927,天津市,前进道,,22,20,65,11,36,69,69,48,48,13,50,4,9,0.4,0.8
2023-01-02T14:00:00,1019A,117.1837,39.2133,天津市,淮河道,,21,18,78,10,49,66,65,48,48,10,49,4,9,0.4,1
2023-01-02T14:00:00,1021A,117.307,39.0877,天津市,跃进路,,20,20,83,10,52,63,63,33,33,16,53,6,10,0.3,0.8
2023-01-02T14:00:00,1023A,117.707,39.0343,天津市,第四大街,,27,27,106,16,69,42,42,17,17,23,65,8,10,0.6,1.1
2023-01-02T14:00:00,1024A,117.457,38.8394,天津市,永明路,,21,21,87,12,56,49,49,21,21,24,61,7,12,0.4,0.9
2023-01-02T14:00:00,1026A,117.764,39.1587,天津市,汉北路,,28,28,98,14,55,52,52,21,21,18,53,9,9,0.6,1.1
2023-01-02T14:00:00,1027A,117.157,38.9194,天津市,团泊洼(对照点),,22,22,69,8,38,53,53,20,20,23,58,4,8,0.3,0.8
2023-01-02T14:00:00,1029A,114.4422,38.0444,石家庄市,职工医院,颗粒物(PM10),57,64,146,32,89,44,44,19,19,39,68,6,13,0.9,1.4
2023-01-02T14:00:00,1030A,114.6063,38.0266,石家庄市,高新区,颗粒物(PM10),52,53,126,33,79,55,55,25,25,27,57,5,11,0.5,1.1
2023-01-02T14:00:00,1031A,114.4898,38.1328,石家庄市,西北水源,细颗粒物(PM2.5),68,61,157,49,96,41,41,16,16,35,72,7,14,0.6,1.4
2023-01-02T14:00:00,1032A,114.4586,38.0058,石家庄市,西南高教,细颗粒物(PM2.5),63,56,134,45,95,38,38,18,18,42,67,7,14,0.7,1.1
2023-01-02T14:00:00,1033A,114.5331,38.0178,石家庄市,世纪公园,细颗粒物(PM2.5),65,62,110,47,77,42,42,18,18,30,62,8,13,0.7,1.1
2023-01-02T14:00:00,1034A,114.509,38.0457,石家庄市,人民会堂,细颗粒物(PM2.5),70,52,125,51,96,43,43,22,22,39,63,6,10,0.8,1.2
2023-01-02T14:00:00,1035A,114.3524,37.8911,石家庄市,封龙山(对照点),细颗粒物(PM2.5),72,88,126,52,84,54,54,38,38,51,74,5,5,1.3,1.4
2023-01-02T14:00:00,1037A,118.131,39.6363,唐山市,雷达站,,22,22,62,7,34,64,64,56,56,7,28,4,9,0.5,0.8
2023-01-02T14:00:00,1038A,118.1725,39.6334,唐山市,物资局,,19,12,52,6,28,58,58,48,48,17,45,6,11,0.5,0.8
2023-01-02T14:00:00,1040A,118.1705,39.6506,唐山市,十二中,,22,17,53,15,39,62,62,47,47,15,47,4,8,0.4,0.8
2023-01-02T14:00:00,1041A,118.1869,39.622,唐山市,小山,,20,17,58,14,31,61,61,47,47,13,46,8,12,0.4,0.8
2023-01-02T14:00:00,1042A,119.5134,39.8207,秦皇岛市,北戴河环保局,,26,26,40,17,24,61,54,45,45,12,29,14,8,0.3,0.4
2023-01-02T14:00:00,1043A,119.7493,40.0116,秦皇岛市,第一关,,41,41,38,22,28,65,62,37,37,12,38,10,7,0.4,0.5
2023-01-02T14:00:00,1044A,119.5897,39.9499,秦皇岛市,监测站,,40,40,54,21,34,61,61,35,35,5,30,14,10,0.4,0.5
2023-01-02T14:00:00,1046A,119.5251,39.9041,秦皇岛市,建设大厦,,45,45,62,8,22,58,56,25,25,14,40,13,9,0.4,0.7
2023-01-02T14:00:00,1048A,114.5302,36.6116,邯郸市,东污水处理厂,细颗粒物(PM2.5),123,121,172,93,129,48,35,19,19,52,82,19,19,0.7,0.5
2023-01-02T14:00:00,1049A,114.4918,36.5713,邯郸市,矿院,细颗粒物(PM2.5),113,103,156,85,124,43,32,16,16,56,77,16,17,1.3,1.6
2023-01-02T14:00:00,1050A,114.484,36.6133,邯郸市,丛台公园,细颗粒物(PM2.5),122,99,152,92,129,44,24,16,16,61,71,26,17,1.1,1.3
2023-01-02T14:00:00,1051A,115.493,38.8632,保定市,游泳馆,,27,27,53,15,32,57,52,38,38,29,61,7,10,0.3,0.7
2023-01-02T14:00:00,1052A,115.5213,38.8959,保定市,华电二区,,15,0,45,7,40,55,45,31,31,26,52,7,11,0.5,1
2023-01-02T14:00:00,1053A,115.4713,38.9108,保定市,接待中心,,29,29,63,11,33,47,44,29,29,25,52,5,9,0.4,0.7
2023-01-02T14:00:00,1054A,115.4612,38.8416,保定市,地表水厂,,46,46,89,18,37,57,47,35,35,34,62,9,8,0.2,0.5
2023-01-02T14:00:00,1056A,115.5086,38.8639,保定市,监测站,,28,28,63,7,36,51,49,35,35,29,56,6,10,0,0.2
2023-01-02T14:00:00,1057A,114.8883,40.8336,张家口市,人民公园,,21,8,20,2,8,74,65,66,58,5,7,5,7,0.3,0.4
2023-01-02T14:00:00,1059A,114.8687,40.8042,张家口市,五金库,,22,15,13,15,12,68,59,68,58,12,10,12,10,0.3,0.3
2023-01-02T14:00:00,1060A,114.8902,40.762,张家口市,世纪豪园,,18,14,16,4,8,68,57,68,56,13,11,3,2,0.3,0.2
2023-01-02T14:00:00,1061A,114.8916,40.8661,张家口市,北泵房(对照点),,22,12,22,8,20,80,69,67,60,7,10,8,13,0.6,0.6
2023-01-02T14:00:00,1062A,117.9531,40.9081,承德市,铁路,,21,16,28,6,17,70,67,56,44,9,22,9,8,0.2,0.4
2023-01-02T14:00:00,1063A,117.9392,40.9763,承德市,中国银行,,22,11,28,1,17,68,68,45,45,9,20,7,6,0.3,0.4
2023-01-02T14:00:00,1064A,117.9503,40.928,承德市,开发区,,23,20,32,9,19,77,73,65,38,8,22,4,4,0.3,0.5
2023-01-02T14:00:00,1065A,117.8051,40.9655,承德市,文化中心,,21,2,41,2,22,66,65,48,45,4,24,6,10,0.3,0.5
2023-01-02T14:00:00,1066A,117.9268,41.0026,承德市,离宫(对照点),,,29,16,18,16,68,,56,48,7,8,8,8,0.2,0.3
2023-01-02T14:00:00,1067A,116.6708,39.5111,廊坊市,药材公司,,21,14,49,10,29,66,66,57,57,9,38,5,8,0.3,0.7
2023-01-02T14:00:00,1068A,116.7214,39.5589,廊坊市,开发区,,22,9,50,2,33,70,70,56,56,15,46,6,10,0.4,0.8
2023-01-02T14:00:00,1070A,116.7244,39.5269,廊坊市,北华航天学院,,,17,49,1,26,67,67,60,60,12,45,,11,0.3,0.7
2023-01-02T14:00:00,1071A,116.8842,38.2991,沧州市,沧县城建局,细颗粒物(PM2.5),63,63,116,45,76,45,45,22,22,42,66,15,17,1.4,1.5
2023-01-02T14:00:00,1072A,116.8584,38.3254,沧州市,电视转播站,颗粒物(PM10),52,53,100,34,65,49,49,24,24,40,67,17,16,0.9,1.1
2023-01-02T14:00:00,1073A,116.8709,38.3228,沧州市,市环保局,,,58,110,26,63,40,40,18,18,,74,10,12,0.8,1.2
2023-01-02T14:00:00,1074A,115.6838,37.7541,衡水市,电机北厂,细颗粒物(PM2.5),84,92,148,62,104,41,31,12,12,49,68,15,18,1.0,1.3
2023-01-02T14:00:00,1075A,115.6303,37.7316,衡水市,市监测站,细颗粒物(PM2.5),87,97,163,64,107,36,35,15,15,45,74,20,20,1.6,2
2023-01-02T14:00:00,1077A,114.4704,37.0886,邢台市,达活泉,细颗粒物(PM2.5),115,112,173,87,129,38,38,20,20,32,61,10,8,1.0,1.2
2023-01-02T14:00:00,1078A,114.5062,37.0349,邢台市,邢师高专,细颗粒物(PM2.5),98,92,132,73,108,39,39,20,20,41,72,14,12,0.9,0.9
2023-01-02T14:00:00,1079A,114.5237,37.0851,邢台市,路桥公司,细颗粒物(PM2.5),97,88,140,72,114,38,37,19,19,39,57,12,12,0.8,1
2023-01-02T14:00:00,1080A,114.4725,37.0719,邢台市,市环保局,细颗粒物(PM2.5),104,115,161,78,114,38,38,19,19,40,63,10,10,1.1,1.3
2023-01-02T14:00:00,1081A,112.522,37.8873,太原市,尖草坪,细颗粒物(PM2.5),77,90,82,56,48,51,39,22,22,56,62,39,25,1.4,0.9
2023-01-02T14:00:00,1083A,112.434,38.0108,太原市,上兰(对照点),,,,,,,,,,,,,,,,
2023-01-02T14:00:00,1084A,112.469,37.7124,太原市,晋源,细颗粒物(PM2.5),93,106,96,69,60,63,43,17,17,50,65,39,22,1.7,1.7
2023-01-02T14:00:00,1085A,112.5583,37.7394,太原市,小店,细颗粒物(PM2.5),88,109,128,65,71,46,46,14,14,43,75,34,27,1.3,1.7
2023-01-02T14:00:00,1086A,112.5369,37.8692,太原市,桃园,细颗粒物(PM2.5),90,107,94,67,53,39,33,18,18,62,65,38,25,1.5,1
2023-01-02T14:00:00,1087A,112.57,37.8195,太原市,坞城,细颗粒物(PM2.5),94,119,98,70,59,38,37,20,20,65,72,39,31,1.3,1.4
2023-01-02T14:00:00,1088A,112.549,37.9854,太原市,南寨,细颗粒物(PM2.5),69,74,93,50,50,54,45,24,24,47,58,43,19,1.8,0.7
2023-01-02T14:00:00,1089A,112.4783,37.7778,太原市,金胜(停运211219),,,,,,,,,,,,,,,,
2023-01-02T14:00:00,1090A,111.6507,40.7517,呼和浩特市,呼市一监,颗粒物(PM10),60,70,42,39,25,61,51,61,34,23,26,26,14,0.8,0.7
2023-01-02T14:00:00,1091A,111.6572,40.8033,呼和浩特市,小召,颗粒物(PM10),69,88,45,47,23,51,48,51,34,30,35,37,30,0.7,0.6
2023-01-02T14:00:00,1094A,111.7516,40.8369,呼和浩特市,如意水处理厂,,47,47,34,22,14,78,56,56,37,33,44,20,13,0.6,0.5
2023-01-02T14:00:00,1095A,111.7276,40.8062,呼和浩特市,二十九中,,40,38,38,28,18,67,57,57,40,20,28,20,15,0.6,0.6
2023-01-02T14:00:00,1096A,111.5512,40.7866,呼和浩特市,工大金川校区,颗粒物(PM10),87,123,70,36,27,55,47,49,21,18,28,18,20,0.6,0.6
2023-01-02T14:00:00,1097A,111.717,40.7612,呼和浩特市,化肥厂生活区,,43,43,53,22,29,57,56,40,39,19,36,19,19,0.6,0.7
2023-01-02T14:00:00,1098A,123.6836,41.9339,沈阳市,森林路(对照点),,,,,,,,,,,,,,,,
2023-01-02T14:00:00,1099A,123.505,41.7406,沈阳市,浑南东路,,28,28,45,13,24,55,53,45,26,16,30,9,11,0.7,0.8
2023-01-02T14:00:00,1100A,123.4231,41.6989,沈阳市,新秀街,,20,20,47,8,22,59,59,52,29,12,34,6,16,0.4,0.7
2023-01-02T14:00:00,1102A,123.5903,41.8411,沈阳市,东陵路,,30,27,47,21,33,45,45,23,23,22,34,17,12,0.7,0.8
2023-01-02T14:00:00,1103A,123.4264,41.8467,沈阳市,陵东街,,19,16,29,7,11,60,58,49,40,14,23,13,11,0.4,0.5
2023-01-02T14:00:00,1104A,123.4114,41.7653,沈阳市,文化路,,25,25,38,13,19,56,53,48,36,20,33,20,29,0.5,0.5
2023-01-02T14:00:00,1105A,123.4678,41.7867,沈阳市,小河沿,,27,27,26,12,11,58,46,48,35,27,28,24,19,0.5,0.6
2023-01-02T14:00:00,1106A,123.4017,41.7972,沈阳市,太原街,,29,29,41,12,15,54,54,42,38,18,32,17,19,0.7,0.7
2023-01-02T14:00:00,1108A,123.3783,41.9228,沈阳市,京沈街,,20,16,41,12,21,61,61,47,44,9,20,13,15,0.4,0.6
2023-01-02T14:00:00,1109A,121.612,38.9741,大连市,甘井子,,22,17,26,15,25,66,66,52,52,12,22,7,13,0.8,0.8
2023-01-02T14:00:00,1110A,121.565,38.9511,大连市,周水子,,23,23,33,12,21,65,63,47,43,16,33,9,13,0.7,0.8
2023-01-02T14:00:00,1111A,121.5637,38.8845,大连市,星海三站,,,,,,,,,,,,,,,,
2023-01-02T14:00:00,1112A,121.6302,38.9117,大连市,青泥洼桥,,26,26,39,14,20,62,61,49,49,23,33,9,14,0.7,0.7
2023-01-02T14:00:00,1113A,121.6251,38.8638,大连市,傅家庄,,25,25,30,11,17,60,58,47,47,21,32,9,16,1.0,1
2023-01-02T14:00:00,1114A,121.5213,38.8661,大连市,七贤岭,,24,21,30,11,16,74,74,55,55,8,23,8,16,0.6,0.6
2023-01-02T14:00:00,1115A,121.2529,38.8061,大连市,旅顺,,21,21,29,13,20,68,64,62,57,13,15,10,12,0.6,0.7
2023-01-02T14:00:00,1116A,121.7485,39.1311,大连市,金州,,20,20,45,14,31,66,62,49,49,16,25,10,14,0.3,0.5
2023-01-02T14:00:00,1117A,121.7811,39.0496,大连市,开发区,,33,33,37,15,24,66,60,51,51,22,33,12,14,0.6,0.6
2023-01-02T14:00:00,1118A,121.9762,39.0631,大连市,双D港,,,18,29,10,20,70,69,61,61,14,18,6,12,,0.9
2023-01-02T14:00:00,1119A,125.3325,43.9166,长春市,食品厂,,50,50,63,19,25,62,62,40,38,14,27,6,11,0.4,0.4
2023-01-02T14:00:00,1120A,125.2863,43.9027,长春市,客车厂,,41,41,62,17,25,58,58,36,36,16,27,6,18,0.3,0.4
2023-01-02T14:00:00,1121A,125.2841,43.8463,长春市,邮电学院,,36,36,62,22,25,61,61,34,34,15,28,10,20,0.4,0.4
2023-01-02T14:00:00,1122A,125.3716,43.8772,长春市,劳动公园,,35,35,49,18,19,58,57,35,35,17,29,10,21,0.2,0.2
2023-01-02T14:00:00,1123A,125.3297,43.8805,长春市,园林处,,33,33,54,19,21,53,53,32,32,22,33,18,25,0.4,0.4
2023-01-02T14:00:00,1124A,125.4605,43.79,长春市,净月潭,,28,28,52,11,19,63,58,45,45,14,22,7,5,0.6,0.6
2023-01-02T14:00:00,1125A,125.7194,43.515,长春市,甩湾子(对照点),,,,,,,,,,,,,,,,
2023-01-02T14:00:00,1126A,125.3863,43.8447,长春市,经开区环卫处,,23,23,53,15,19,59,59,34,34,14,32,13,19,0.4,0.4
2023-01-02T14:00:00,1127A,125.245,43.7783,长春市,高新区管委会,,37,37,56,11,28,66,66,41,41,11,26,6,7,0.3,0.4
2023-01-02T14:00:00,1128A,125.1761,43.8325,长春市,岱山公园,,43,43,56,26,26,73,73,50,50,7,19,5,5,0.4,0.4
2023-01-02T14:00:00,1129A,126.5422,45.755,哈尔滨市,岭北(对照点),,46,44,46,32,35,101,66,88,84,10,20,12,11,0.6,0.6
2023-01-02T14:00:00,1130A,126.561,45.8167,哈尔滨市,松北商大,,48,48,37,27,24,59,59,47,47,15,27,5,8,0.8,0.8
2023-01-02T14:00:00,1131A,126.979,45.5419,哈尔滨市,阿城会宁,颗粒物(PM10),62,74,64,42,53,63,63,42,42,18,31,19,17,0.5,0.7
2023-01-02T14:00:00,1132A,126.599,45.7222,哈尔滨市,南岗学府路,颗粒物(PM10),56,61,42,31,31,61,59,48,48,19,22,10,8,0.6,0.7
2023-01-02T14:00:00,1133A,126.689,45.7733,哈尔滨市,太平宏伟公园,,46,46,32,19,18,60,60,50,50,10,14,11,11,0.6,0.5
2023-01-02T14:00:00,1134A,126.635,45.7667,哈尔滨市,道外承德广场,颗粒物(PM10),53,56,33,19,18,65,65,51,50,15,19,6,9,0.4,0.4
2023-01-02T14:00:00,1135A,126.685,45.7319,哈尔滨市,香坊红旗大街,,48,48,37,32,27,61,55,44,42,26,30,18,21,0.6,0.6
2023-01-02T14:00:00,1136A,126.6411,45.7258,哈尔滨市,动力和平路,,41,41,38,26,25,57,57,43,43,19,26,16,17,0.7,0.7
2023-01-02T14:00:00,1137A,126.593,45.7478,哈尔滨市,道里建国路,颗粒物(PM10),51,51,37,30,26,58,57,46,46,17,22,9,8,0.4,0.7
2023-01-02T14:00:00,1138A,126.615,45.61,哈尔滨市,平房东轻厂,,39,39,37,18,26,56,56,39,39,15,36,10,14,0.5,0.7
2023-01-02T14:00:00,1139A,126.595,45.9855,哈尔滨市,呼兰师专,颗粒物(PM10),51,51,45,32,39,64,64,52,52,6,14,7,11,0.7,0.9
2023-01-02T14:00:00,1140A,126.6206,45.6842,哈尔滨市,省农科院,,,39,57,21,45,58,58,34,34,,37,14,27,0.6,1.2
2023-01-02T14:00:00,1141A,121.4,31.238,上海市,普陀,细颗粒物(PM2.5),78,38,72,57,79,81,73,71,69,30,64,5,8,0.6,0.8
2023-01-02T14:00:00,1142A,121.478,31.2036,上海市,十五厂,细颗粒物(PM2.5),82,35,61,60,72,84,67,70,68,32,66,11,13,0.8,0.9
2023-01-02T14:00:00,1143A,121.467,31.3008,上海市,虹口,细颗粒物(PM2.5),68,44,104,49,83,71,66,60,60,28,74,9,12,0.5,0.8
2023-01-02T14:00:00,1144A,121.412,31.1654,上海市,徐汇上师大,细颗粒物(PM2.5),83,56,62,61,63,80,65,69,66,33,60,7,8,0.9,0.9
2023-01-02T14:00:00,1145A,121.536,31.2659,上海市,杨浦四漂,,49,41,104,34,81,78,71,64,64,27,78,6,9,0.7,1
2023-01-02T14:00:00,1147A,121.425,31.2261,上海市,静安监测站,细颗粒物(PM2.5),79,90,103,58,72,80,70,73,69,34,67,8,10,0.6,0.8
2023-01-02T14:00:00,1148A,121.703,31.1907,上海市,浦东川沙,,40,23,58,28,74,72,66,58,56,20,49,5,7,0.6,0.9
2023-01-02T14:00:00,1149A,121.533,31.2284,上海市,浦东新区监测站,细颗粒物(PM2.5),72,75,102,52,76,71,60,56,56,34,75,6,8,0.9,1.1
2023-01-02T14:00:00,1150A,121.577,31.2071,上海市,浦东张江,,23,19,63,16,67,68,65,56,56,22,65,5,7,0.7,0.9
2023-01-02T14:00:00,1151A,118.8086,32.1065,南京市,迈皋桥,颗粒物(PM10),65,80,152,34,99,62,62,41,41,30,77,4,5,0.4,0.9
2023-01-02T14:00:00,1152A,118.7538,32.0551,南京市,草场门,颗粒物(PM10),62,73,126,39,90,52,52,40,40,34,61,6,8,0.5,0.9
2023-01-02T14:00:00,1153A,118.7794,32.0745,南京市,山西路,颗粒物(PM10),65,80,144,44,99,60,60,43,43,32,70,4,8,0.5,0.9
2023-01-02T14:00:00,1154A,118.7752,32.0023,南京市,中华门,细颗粒物(PM2.5),73,83,116,53,83,62,49,49,49,47,61,8,10,0.7,1
2023-01-02T14:00:00,1155A,118.8109,32.0309,南京市,瑞金路,颗粒物(PM10),77,104,148,48,86,55,51,48,48,47,72,4,8,0.5,0.8
2023-01-02T14:00:00,1156A,118.7997,32.0754,南京市,玄武湖,"颗粒物(PM10),细颗粒物(PM2.5)",65,79,144,47,98,51,51,36,36,34,70,7,9,0.3,0.7
2023-01-02T14:00:00,1157A,118.6414,32.0931,南京市,浦口,颗粒物(PM10),70,90,152,44,101,73,68,64,64,29,70,11,10,1.1,1.1
2023-01-02T14:00:00,1158A,118.7356,31.9996,南京市,奥体中心,细颗粒物(PM2.5),79,105,140,58,86,66,55,52,50,53,70,7,8,0.6,0.9
2023-01-02T14:00:00,1159A,118.9125,32.1028,南京市,仙林大学城,颗粒物(PM10),57,63,130,39,94,59,59,45,45,35,73,6,9,0.7,1.2
2023-01-02T14:00:00,1160A,120.561,31.2472,苏州市,上方山(对照点),细颗粒物(PM2.5),143,144,111,109,93,52,52,34,32,46,60,11,11,1.1,1
2023-01-02T14:00:00,1162A,120.591,31.3019,苏州市,彩香,细颗粒物(PM2.5),139,134,115,106,92,62,62,51,31,39,62,8,8,1.0,1
2023-01-02T14:00:00,1163A,120.596,31.3264,苏州市,轧钢厂,细颗粒物(PM2.5),124,137,122,94,85,65,65,54,30,44,69,9,8,1.0,1
2023-01-02T14:00:00,1164A,120.613,31.2703,苏州市,吴中区,细颗粒物(PM2.5),124,121,105,94,80,73,73,48,45,40,60,10,10,0.8,0.9
2023-01-02T14:00:00,1165A,120.543,31.2994,苏州市,苏州新区,细颗粒物(PM2.5),139,130,114,106,92,58,58,46,32,43,66,10,9,1.2,1.2
2023-01-02T14:00:00,1166A,120.669,31.3097,苏州市,苏州工业园区,细颗粒物(PM2.5),129,124,107,98,85,76,76,54,45,39,60,8,9,1.0,1
2023-01-02T14:00:00,1167A,120.641,31.3708,苏州市,相城区,细颗粒物(PM2.5),128,132,127,97,90,85,85,67,46,34,60,11,10,1.1,1.1
2023-01-02T14:00:00,1168A,120.9098,31.9663,南通市,狼山街道,,38,38,126,19,98,75,73,66,66,10,32,7,10,0.3,0.8
2023-01-02T14:00:00,1169A,120.86,32.0005,南通市,虹桥,,42,42,127,14,95,80,67,67,64,22,45,5,8,0.3,0.7
2023-01-02T14:00:00,1170A,120.87,32.02,南通市,城中,,42,42,132,16,100,83,76,68,68,5,20,6,9,0.1,0.6
2023-01-02T14:00:00,1171A,120.94,31.93,南通市,星湖花园,,44,44,129,14,94,72,72,64,64,13,37,7,11,0.4,0.9
2023-01-02T14:00:00,1172A,120.81,32.0417,南通市,紫琅学院,,50,50,146,14,96,71,66,58,58,12,39,4,7,0.4,0.8
2023-01-02T14:00:00,1173A,119.176,34.5885,连云港市,市环境监测站,颗粒物(PM10),57,63,89,36,65,63,61,47,32,31,46,15,13,1.1,1
2023-01-02T14:00:00,1177A,117.179,34.2761,徐州市,黄河新村,细颗粒物(PM2.5),74,78,162,54,115,119,73,41,41,23,48,15,19,1.0,1.3
2023-01-02T14:00:00,1178A,117.1918,34.2384,徐州市,淮塔,细颗粒物(PM2.5),73,83,168,53,123,132,80,40,40,31,51,10,15,1.0,1.5
2023-01-02T14:00:00,1180A,117.256,34.2153,徐州市,新城区,细颗粒物(PM2.5),68,73,164,49,124,124,76,40,40,26,47,13,18,1.4,1.8
2023-01-02T14:00:00,1181A,117.244,34.2911,徐州市,桃园路,颗粒物(PM10),54,58,166,34,112,126,81,39,39,23,54,10,14,0.7,1.1
2023-01-02T14:00:00,1182A,117.2933,34.2778,徐州市,农科院,细颗粒物(PM2.5),62,68,167,44,114,128,82,40,40,10,52,12,17,0.9,1.3
2023-01-02T14:00:00,1186A,119.389,32.3761,扬州市,邗江监测站,颗粒物(PM10),53,56,133,35,111,77,76,74,59,20,57,9,13,0.5,1
2023-01-02T14:00:00,1188A,120.269,31.4867,无锡市,雪浪,细颗粒物(PM2.5),113,139,114,85,79,66,66,31,31,40,65,14,9,1.6,1.3
2023-01-02T14:00:00,1189A,120.275,31.6219,无锡市,黄巷,细颗粒物(PM2.5),113,134,152,85,100,84,84,51,51,34,72,17,15,2.0,2.5
2023-01-02T14:00:00,1190A,120.294,31.56,无锡市,曹张,细颗粒物(PM2.5),104,150,141,78,85,76,76,46,46,31,62,25,19,2.6,2.2
2023-01-02T14:00:00,1191A,120.242,31.5031,无锡市,漆塘,细颗粒物(PM2.5),107,122,94,80,70,44,44,26,26,39,52,7,7,1.7,1.3
2023-01-02T14:00:00,1192A,120.3489,31.5863,无锡市,东亭,细颗粒物(PM2.5),125,139,128,95,95,74,74,43,43,39,69,21,14,2.0,1.7
2023-01-02T14:00:00,1193A,120.354,31.5475,无锡市,旺庄,细颗粒物(PM2.5),125,129,128,95,98,79,79,43,43,35,67,13,9,1.6,1.4
2023-01-02T14:00:00,1194A,120.245,31.5631,无锡市,荣巷,细颗粒物(PM2.5),125,112,107,95,90,85,85,47,47,36,66,18,14,1.6,1.5
2023-01-02T14:00:00,1195A,120.299,31.6817,无锡市,堰桥,颗粒物(PM10),89,127,148,61,108,73,73,54,54,35,63,13,12,1.9,1.7
2023-01-02T14:00:00,1196A,119.9633,31.762,常州市,市监测站,细颗粒物(PM2.5),120,125,148,91,101,74,74,58,58,32,59,9,10,0.8,1.2
2023-01-02T14:00:00,1200A,119.9468,31.7069,常州市,武进监测站,细颗粒物(PM2.5),119,129,128,90,94,83,83,58,58,36,59,16,17,0.9,1.1
2023-01-02T14:00:00,1201A,119.9255,31.9087,常州市,安家,细颗粒物(PM2.5),98,104,134,73,100,84,84,68,57,28,52,10,12,0.8,1.2
2023-01-02T14:00:00,1203A,119.6707,32.1875,镇江市,新区办事处,,,87,125,60,97,74,72,61,49,,55,11,12,0.6,1
2023-01-02T14:00:00,1204A,119.4974,32.1968,镇江市,职教中心,细颗粒物(PM2.5),65,78,127,47,96,78,78,54,54,23,55,6,9,0.5,0.8
2023-01-02T14:00:00,1205A,119.4303,32.1328,镇江市,丹徒区监测站,细颗粒物(PM2.5),78,73,124,57,96,67,67,60,60,24,51,7,9,0.7,0.9
2023-01-02T14:00:00,1206A,119.905,32.4878,泰州市,公园路,,49,48,121,34,96,80,80,55,55,13,47,5,9,0.6,1.2
2023-01-02T14:00:00,1207A,119.9189,32.4625,泰州市,莲花,细颗粒物(PM2.5),57,44,127,40,103,84,84,60,59,15,55,7,13,0.5,1.1
2023-01-02T14:00:00,1209A,119.888,32.4639,泰州市,留学生创业园,颗粒物(PM10),53,55,139,34,91,84,84,56,56,13,51,10,15,0.8,1.3
2023-01-02T14:00:00,1210A,119.036,33.5981,淮安市,钵池山,,29,29,110,11,89,99,79,53,53,10,30,9,11,0.4,0.8
2023-01-02T14:00:00,1211A,119.007,33.575,淮安市,北京南路,,43,39,106,30,91,107,80,60,60,12,27,9,11,0.4,0.8
2023-01-02T14:00:00,1212A,118.989,33.6067,淮安市,市监测站,,,,107,12,77,104,80,60,55,13,30,,10,0.6,1
2023-01-02T14:00:00,1213A,119.135,33.5039,淮安市,楚州区监测站,,32,32,98,22,83,93,76,60,60,10,24,8,11,0.3,0.7
2023-01-02T14:00:00,1214A,119.0186,33.6297,淮安市,淮阴区监测站,,31,31,122,15,101,98,80,53,53,10,30,7,11,0.3,0.8
2023-01-02T14:00:00,1215A,120.118,33.4022,盐城市,盐城电厂,,31,31,92,14,62,120,88,71,64,12,27,6,8,0.4,0.7
2023-01-02T14:00:00,1216A,120.156,33.3942,盐城市,市监测站,,26,24,95,17,71,112,83,59,59,9,26,2,3,0.3,0.6
2023-01-02T14:00:00,1218A,120.2144,33.38,盐城市,开发区管委会,,28,28,94,9,65,121,84,65,63,9,20,8,7,0.3,0.6
2023-01-02T14:00:00,1220A,118.293,33.9528,宿迁市,宿迁学院,,47,47,138,32,114,122,80,48,48,20,41,8,11,0.5,0.8
2023-01-02T14:00:00,1221A,118.2442,33.9592,宿迁市,宿迁中学,颗粒物(PM10),51,52,136,32,105,120,76,48,48,14,33,9,11,0.7,0.9
2023-01-02T14:00:00,1223A,120.2072,30.2111,杭州市,滨江,细颗粒物(PM2.5),97,101,113,72,79,71,39,41,40,54,58,7,8,0.7,0.7
2023-01-02T14:00:00,1224A,120.0633,30.2747,杭州市,西溪,细颗粒物(PM2.5),104,103,146,78,105,43,43,25,25,43,60,7,7,0.8,0.8
2023-01-02T14:00:00,1226A,120.3461,30.3153,杭州市,下沙,细颗粒物(PM2.5),97,101,119,72,85,72,47,27,27,55,69,6,7,0.9,0.9
2023-01-02T14:00:00,1227A,120.1269,30.2456,杭州市,卧龙桥,细颗粒物(PM2.5),102,93,103,76,83,62,39,26,25,43,54,8,8,0.8,0.8
2023-01-02T14:00:00,1228A,120.1903,30.2692,杭州市,浙江农大,细颗粒物(PM2.5),92,85,112,68,87,64,48,35,34,43,57,9,9,0.6,0.7
2023-01-02T14:00:00,1230A,120.1197,30.3119,杭州市,和睦小学,细颗粒物(PM2.5),90,85,138,67,104,64,64,26,26,39,76,6,6,0.8,0.9
2023-01-02T14:00:00,1231A,120.3019,30.4183,杭州市,临平镇,细颗粒物(PM2.5),87,92,115,64,79,85,70,41,41,35,58,9,8,0.6,0.7
2023-01-02T14:00:00,1232A,120.2697,30.1819,杭州市,城厢镇,细颗粒物(PM2.5),104,108,116,78,84,57,34,43,41,65,63,6,6,0.9,0.9
2023-01-02T14:00:00,1233A,120.0883,30.1808,杭州市,云栖,细颗粒物(PM2.5),92,91,99,68,72,70,40,29,29,54,60,10,10,0.9,0.8
2023-01-02T14:00:00,1234A,121.8358,29.911,宁波市,区环保大楼,细颗粒物(PM2.5),104,90,68,78,59,94,82,71,71,35,56,11,9,1.0,0.8
2023-01-02T14:00:00,1235A,121.56,29.82,宁波市,万里学院,颗粒物(PM10),61,72,95,40,55,82,66,73,72,43,57,10,9,0.5,0.5
2023-01-02T14:00:00,1236A,121.713,29.9572,宁波市,龙赛医院,细颗粒物(PM2.5),95,93,75,71,47,95,57,88,76,73,46,20,10,0.9,0.6
2023-01-02T14:00:00,1239A,121.633,29.7733,宁波市,钱湖水厂,,,62,99,53,79,68,67,63,63,34,61,,6,0.8,0.9
2023-01-02T14:00:00,1240A,121.5856,29.8635,宁波市,太古小学,细颗粒物(PM2.5),75,69,87,55,68,73,49,68,63,51,51,10,10,0.6,0.6
2023-01-02T14:00:00,1241A,121.524,29.8674,宁波市,市环境监测中心,颗粒物(PM10),51,51,56,30,37,62,44,58,56,44,41,7,7,0.6,0.6
2023-01-02T14:00:00,1242A,120.634,28.0089,温州市,瓯海,颗粒物(PM10),59,68,54,40,31,88,84,75,75,15,30,7,8,0.5,0.4
2023-01-02T14:00:00,1243A,120.6748,27.9939,温州市,南浦,细颗粒物(PM2.5),58,60,43,41,29,92,85,78,76,15,21,5,6,0.3,0.3
2023-01-02T14:00:00,1244A,120.76,27.9747,温州市,龙湾,,50,50,49,26,26,90,69,53,52,39,41,8,7,0.1,0.1
2023-01-02T14:00:00,1245A,120.6709,28.0167,温州市,市站,颗粒物(PM10),53,56,47,32,24,91,83,75,75,16,21,6,6,0.4,0.4
2023-01-02T14:00:00,1247A,120.6053,29.9928,绍兴市,城东开发委,,,,87,,65,41,,39,,,48,,5,,0.7
2023-01-02T14:00:00,1250A,120.0751,30.8669,湖州市,城西水厂,细颗粒物(PM2.5),114,86,85,86,94,50,35,25,22,58,64,11,10,0.9,0.9
2023-01-02T14:00:00,1252A,120.7436,30.778,嘉兴市,清河小学,细颗粒物(PM2.5),134,132,107,102,73,70,44,44,39,49,69,8,8,0.9,0.6
2023-01-02T14:00:00,1253A,120.726,30.7478,嘉兴市,嘉兴学院,细颗粒物(PM2.5),135,134,105,103,71,82,51,51,42,50,73,10,10,1.2,1
2023-01-02T14:00:00,1255A,121.273,28.6459,台州市,黄岩环保大楼,细颗粒物(PM2.5),58,53,53,41,39,94,80,57,57,26,29,9,9,0.5,0.6
2023-01-02T14:00:00,1256A,121.419,28.6542,台州市,台州环保大楼,颗粒物(PM10),54,57,57,30,35,100,87,86,77,18,17,12,12,0.5,0.5
2023-01-02T14:00:00,1257A,121.377,28.5773,台州市,路桥田洋王,细颗粒物(PM2.5),54,56,63,38,43,94,83,76,68,24,23,8,9,0.5,0.5
2023-01-02T14:00:00,1258A,122.122,30.0203,舟山市,定海檀枫,细颗粒物(PM2.5),123,113,57,93,47,114,96,100,99,36,24,6,5,0.6,0.5
2023-01-02T14:00:00,1259A,122.3094,29.9558,舟山市,普陀东港,细颗粒物(PM2.5),104,99,56,78,43,116,100,97,96,31,21,7,6,0.8,0.6
2023-01-02T14:00:00,1260A,122.19,29.9944,舟山市,临城新区,细颗粒物(PM2.5),115,110,64,87,46,109,104,98,98,33,26,7,6,0.7,0.5
2023-01-02T14:00:00,1262A,119.647,29.077,金华市,十五中,细颗粒物(PM2.5),89,84,73,66,66,55,39,44,42,59,52,5,5,0.8,0.7
2023-01-02T14:00:00,1263A,119.686,29.1029,金华市,监测站,,,54,67,64,74,61,61,49,49,37,45,,6,0.6,0.6
2023-01-02T14:00:00,1264A,118.8692,28.9398,衢州市,环保大楼,细颗粒物(PM2.5),102,75,82,76,77,57,39,36,36,37,40,8,9,0.6,0.6
2023-01-02T14:00:00,1265A,118.8709,28.9666,衢州市,实验学校,细颗粒物(PM2.5),103,97,93,77,74,64,37,36,36,46,45,3,4,0.6,0.6
2023-01-02T14:00:00,1266A,118.8621,28.9808,衢州市,衢州学院,细颗粒物(PM2.5),93,100,92,69,63,65,37,37,37,34,34,4,5,0.6,0.6
2023-01-02T14:00:00,1267A,119.914,28.4514,丽水市,监测站大楼,细颗粒物(PM2.5),97,54,51,72,39,45,29,38,34,26,30,7,8,0.3,0.4
2023-01-02T14:00:00,1268A,119.93,28.4586,丽水市,莲都小学,,,85,58,69,39,66,38,54,43,,29,7,8,0.9,0.8
2023-01-02T14:00:00,1269A,119.879,28.4231,丽水市,余庄前,细颗粒物(PM2.5),98,88,47,73,37,59,41,35,35,24,23,7,8,0.6,0.5
2023-01-02T14:00:00,1270A,117.1959,31.7848,合肥市,明珠广场,细颗粒物(PM2.5),156,185,160,119,114,42,30,18,18,59,74,11,11,1.2,1.2
2023-01-02T14:00:00,1271A,117.3072,31.8764,合肥市,三里街,细颗粒物(PM2.5),185,173,161,139,131,42,42,30,30,45,69,9,11,1.2,1.2
2023-01-02T14:00:00,1272A,117.2588,31.8707,合肥市,琥珀山庄,细颗粒物(PM2.5),153,178,168,117,121,42,40,28,28,47,73,9,10,1.3,1.2
2023-01-02T14:00:00,1273A,117.1604,31.9052,合肥市,董铺水库(对照点),细颗粒物(PM2.5),153,176,175,117,121,50,47,37,37,36,41,5,4,1.0,0.8
2023-01-02T14:00:00,1274A,117.25,31.8571,合肥市,长江中路,细颗粒物(PM2.5),192,178,160,144,125,46,46,30,30,42,67,10,12,1.2,1.2
2023-01-02T14:00:00,1275A,117.266,31.9436,合肥市,庐阳区,细颗粒物(PM2.5),138,156,165,105,113,50,50,36,36,42,62,8,9,1.0,1
2023-01-02T14:00:00,1276A,117.336,31.8586,合肥市,瑶海区,细颗粒物(PM2.5),189,175,170,142,129,50,50,35,35,40,66,8,10,1.4,1.4
2023-01-02T14:00:00,1277A,117.3027,31.7964,合肥市,包河区,细颗粒物(PM2.5),199,185,170,149,132,39,36,23,23,56,76,7,10,1.2,1.1
2023-01-02T14:00:00,1278A,117.2776,31.7385,合肥市,滨湖新区,细颗粒物(PM2.5),178,193,162,134,115,42,36,22,22,60,79,7,10,1.1,1
2023-01-02T14:00:00,1279A,117.1318,31.8403,合肥市,高新区,细颗粒物(PM2.5),195,193,157,146,120,38,37,24,24,55,65,8,10,1.1,1
2023-01-02T14:00:00,1280A,119.3903,26.0543,福州市,鼓山(对照点),,,,,,,,,,,,,,,,
2023-01-02T14:00:00,1282A,119.2681,26.0504,福州市,师大,,33,32,39,23,23,78,78,63,63,14,20,5,5,0.5,0.5
2023-01-02T14:00:00,1283A,119.2984,26.1028,福州市,五四北路,,36,28,33,25,20,81,77,71,69,13,14,3,4,0.6,0.6
2023-01-02T14:00:00,1284A,119.2648,26.0768,福州市,杨桥西路,,36,36,41,17,19,76,76,58,58,13,20,4,4,0.6,0.5
2023-01-02T14:00:00,1285A,119.317,26.0746,福州市,紫阳,,35,34,35,24,19,85,78,78,74,13,12,4,6,0.7,0.7
2023-01-02T14:00:00,1286A,118.1608,24.8169,厦门市,溪东(对照点),,,,,,,,,,,,,,,,
2023-01-02T14:00:00,1287A,118.1514,24.4767,厦门市,洪文,,28,28,23,19,15,81,75,76,70,21,18,2,1,0.5,0.5
2023-01-02T14:00:00,1288A,118.0661,24.4444,厦门市,鼓浪屿,,26,26,21,16,14,88,77,77,68,22,24,3,3,0.5,0.5
2023-01-02T14:00:00,1290A,115.8931,28.6843,南昌市,省外办,细颗粒物(PM2.5),69,68,91,50,64,65,65,51,51,25,34,7,10,0.5,0.7
2023-01-02T14:00:00,1291A,115.8886,28.7003,南昌市,省林业公司,细颗粒物(PM2.5),67,51,81,48,65,62,62,48,48,25,36,5,7,0.7,0.9
2023-01-02T14:00:00,1292A,115.8126,28.7442,南昌市,林科所,细颗粒物(PM2.5),62,53,74,44,62,75,73,59,59,12,23,7,8,0.4,0.6
2023-01-02T14:00:00,1294A,115.8518,28.687,南昌市,建工学校,细颗粒物(PM2.5),69,63,82,50,61,70,70,54,54,17,29,6,8,0.5,0.7
2023-01-02T14:00:00,1295A,115.8921,28.6424,南昌市,象湖,细颗粒物(PM2.5),70,51,71,51,69,62,62,48,48,21,28,6,9,0.4,0.5
2023-01-02T14:00:00,1296A,115.7423,28.7996,南昌市,武术学校(对照点),细颗粒物(PM2.5),67,48,51,48,56,75,75,61,61,19,27,5,7,0.7,0.9
2023-01-02T14:00:00,1298A,115.9314,28.6842,南昌市,省站,细颗粒物(PM2.5),73,79,95,53,66,72,72,55,55,14,22,8,11,0.6,0.7
2023-01-02T14:00:00,1299A,116.9862,36.6114,济南市,科干所,细颗粒物(PM2.5),89,112,117,66,76,52,52,31,28,51,63,23,25,0.8,0.8
2023-01-02T14:00:00,1300A,116.9376,36.665,济南市,农科所,颗粒物(PM10),70,90,197,42,128,49,25,12,12,75,93,18,35,0.8,1.4
2023-01-02T14:00:00,1301A,117.1265,36.6734,济南市,开发区,,,,140,,89,56,,16,16,52,72,20,26,0.7,1.1
2023-01-02T14:00:00,1303A,117.0624,36.6868,济南市,省种子仓库,颗粒物(PM10),65,80,185,46,124,42,35,11,11,52,76,23,32,0.8,1.4
2023-01-02T14:00:00,1304A,116.9489,36.6447,济南市,机床二厂,细颗粒物(PM2.5),77,100,171,56,107,51,45,22,22,49,72,22,49,0.9,1.6
2023-01-02T14:00:00,1305A,117.0495,36.663,济南市,市监测站,颗粒物(PM10),79,107,150,53,97,52,33,15,15,78,86,23,27,0.9,1.1
2023-01-02T14:00:00,1306A,116.7675,36.5484,济南市,长清党校,细颗粒物(PM2.5),150,173,155,115,104,69,69,24,24,48,80,26,29,1.7,1.4
2023-01-02T14:00:00,1307A,120.6659,36.2403,青岛市,仰口(对照点),,32,29,36,22,26,91,76,67,67,22,21,4,3,0.4,0.4
2023-01-02T14:00:00,1310A,120.4134,36.0658,青岛市,市南区东部子站,细颗粒物(PM2.5),73,83,99,53,62,86,59,30,30,37,46,16,15,0.7,1
2023-01-02T14:00:00,1311A,120.3664,36.1032,青岛市,四方区子站,颗粒物(PM10),56,61,109,31,76,65,46,22,22,36,47,22,16,0.7,1.1
2023-01-02T14:00:00,1312A,120.2994,36.054,青岛市,市南区西部子站,,,,99,,68,93,66,25,25,,58,14,13,,1.1
2023-01-02T14:00:00,1313A,120.4581,36.0858,青岛市,崂山区子站,颗粒物(PM10),52,53,79,31,47,93,77,40,40,33,50,12,11,0.6,0.8
2023-01-02T14:00:00,1314A,120.1983,35.9608,青岛市,黄岛区子站,颗粒物(PM10),74,97,105,51,75,77,31,31,29,67,50,18,13,0.9,1
2023-01-02T14:00:00,1315A,120.3999,36.3083,青岛市,城阳区子站,,,,104,,55,75,71,42,42,27,60,10,14,,1.3
2023-01-02T14:00:00,1316A,113.69031,34.76122,郑州市,烟厂,细颗粒物(PM2.5),215,200,190,165,164,86,38,20,20,71,66,23,22,1.4,1.3
2023-01-02T14:00:00,1317A,113.65724,34.77134,郑州市,郑纺机,细颗粒物(PM2.5),202,165,177,152,154,92,49,29,28,69,67,30,27,1.9,1.8
2023-01-02T14:00:00,1318A,113.67526,34.80246,郑州市,银行学校,细颗粒物(PM2.5),206,174,190,156,164,90,46,24,24,60,66,27,25,1.9,1.8
2023-01-02T14:00:00,1319A,113.56746,34.81334,郑州市,供水公司,细颗粒物(PM2.5),202,171,188,152,155,72,45,22,22,62,73,24,20,2.2,2.2
2023-01-02T14:00:00,1320A,113.7329,34.7178,郑州市,经开区管委,细颗粒物(PM2.5),218,172,186,168,164,90,41,23,23,69,63,26,23,1.8,1.6
2023-01-02T14:00:00,1321A,113.73961,34.77172,郑州市,四十七中,细颗粒物(PM2.5),217,193,206,167,178,90,42,22,22,55,59,25,22,1.7,1.7
2023-01-02T14:00:00,1322A,113.60532,34.74838,郑州市,市监测站,细颗粒物(PM2.5),226,197,191,176,167,92,45,30,27,60,53,27,23,1.4,1.2
2023-01-02T14:00:00,1323A,113.64164,34.7525,郑州市,河医大,细颗粒物(PM2.5),216,180,184,166,162,74,38,20,20,70,67,25,20,1.6,1.4
2023-01-02T14:00:00,1324A,113.51488,34.91089,郑州市,岗李水库(对照点),,,,,,,,,,,,,,,,
2023-01-02T14:00:00,1325A,114.3677,30.5584,武汉市,东湖梨园,细颗粒物(PM2.5),218,183,152,168,137,57,57,48,48,45,51,13,11,2.0,1.4
2023-01-02T14:00:00,1326A,114.2529,30.558,武汉市,汉阳月湖,细颗粒物(PM2.5),199,164,156,149,137,50,50,44,41,47,56,10,9,1.3,1.2
2023-01-02T14:00:00,1327A,114.282,30.6189,武汉市,汉口花桥,细颗粒物(PM2.5),165,163,156,125,133,67,67,49,45,38,53,10,10,1.0,1.1
2023-01-02T14:00:00,1328A,114.3025,30.5332,武汉市,武昌紫阳,细颗粒物(PM2.5),189,168,143,142,130,62,62,48,48,45,55,12,10,1.6,1.2
2023-01-02T14:00:00,1329A,114.3646,30.6217,武汉市,青山钢花,细颗粒物(PM2.5),188,176,158,141,137,66,66,47,47,41,61,15,14,1.1,1.2
2023-01-02T14:00:00,1330A,114.1566,30.4825,武汉市,沌口新区,,,,,,,,,,,,,,,,
2023-01-02T14:00:00,1331A,114.3014,30.5944,武汉市,汉口江滩,细颗粒物(PM2.5),200,162,158,150,142,64,64,53,53,40,47,14,11,1.2,1.1
2023-01-02T14:00:00,1333A,114.135,30.6319,武汉市,吴家山,细颗粒物(PM2.5),182,159,156,137,134,85,85,46,46,38,61,11,10,0.9,1
2023-01-02T14:00:00,1334A,113.8454,30.2917,武汉市,沉湖七壕(对照点),细颗粒物(PM2.5),107,116,133,80,87,95,75,52,51,30,28,11,9,1.0,1.1
2023-01-02T14:00:00,1335A,113.0833,28.2325,长沙市,经开区环保局,细颗粒物(PM2.5),109,92,151,82,137,57,57,37,37,24,36,5,8,0.8,1
2023-01-02T14:00:00,1336A,112.8872,28.2189,长沙市,高开区环保局,细颗粒物(PM2.5),134,103,122,102,118,69,56,63,51,19,20,6,7,0.8,0.9
2023-01-02T14:00:00,1337A,113.0792,28.2053,长沙市,马坡岭,细颗粒物(PM2.5),122,110,147,92,139,52,47,36,33,30,39,6,9,0.7,0.8
2023-01-02T14:00:00,1338A,112.9394,28.19,长沙市,湖南师范大学,细颗粒物(PM2.5),142,116,137,108,131,57,47,53,43,24,25,4,5,0.6,0.7
2023-01-02T14:00:00,1339A,113.0178,28.1322,长沙市,雨花区环保局,细颗粒物(PM2.5),122,105,135,92,125,60,43,42,39,28,33,2,4,0.6,0.7
2023-01-02T14:00:00,1340A,112.9792,28.2597,长沙市,伍家岭,细颗粒物(PM2.5),138,133,153,105,123,58,47,53,41,26,27,6,7,0.8,0.9
2023-01-02T14:00:00,1341A,113.0014,28.1944,长沙市,火车新站,细颗粒物(PM2.5),132,115,139,100,145,59,43,48,40,31,32,6,8,0.9,1
2023-01-02T14:00:00,1342A,112.9844,28.1178,长沙市,天心区环保局,细颗粒物(PM2.5),122,111,135,92,120,72,47,56,47,36,34,6,8,0.6,0.9
2023-01-02T14:00:00,1343A,112.8908,28.1308,长沙市,湖南中医药大学,细颗粒物(PM2.5),140,116,138,107,126,62,52,58,45,20,21,4,5,0.9,1
2023-01-02T14:00:00,1344A,112.9581,28.3611,长沙市,沙坪(对照点),细颗粒物(PM2.5),142,132,150,108,131,46,,38,37,25,25,6,9,0.7,0.8
2023-01-02T14:00:00,1345A,113.2347,23.1423,广州市,广雅中学,颗粒物(PM10),51,52,53,29,30,80,67,39,39,20,31,5,6,1.1,1.2
2023-01-02T14:00:00,1346A,113.2612,23.105,广州市,市五中,细颗粒物(PM2.5),53,49,49,37,35,98,86,56,56,13,25,6,6,0.8,0.8
2023-01-02T14:00:00,1348A,113.3478,23.0916,广州市,广东商学院,,,,40,,27,97,78,54,54,18,27,6,7,0.7,0.7
2023-01-02T14:00:00,1349A,113.4332,23.1047,广州市,市八十六中,,45,45,48,30,29,87,75,51,51,11,21,4,4,1.0,1
2023-01-02T14:00:00,1350A,113.3505,22.9483,广州市,番禺中学,细颗粒物(PM2.5),53,50,46,37,31,96,81,54,54,21,33,8,9,0.8,0.8
2023-01-02T14:00:00,1351A,113.2146,23.3916,广州市,花都师范,,39,37,37,27,26,101,82,62,53,13,19,8,8,0.7,0.7
2023-01-02T14:00:00,1352A,113.2597,23.1331,广州市,市监测站,,47,47,51,28,31,91,81,48,48,12,30,6,7,0.8,0.9
2023-01-02T14:00:00,1353A,113.5618,23.312,广州市,九龙镇镇龙,,42,37,41,29,29,87,73,53,53,12,22,5,5,0.7,0.7
2023-01-02T14:00:00,1354A,113.2765,23.1544,广州市,麓湖,,44,44,44,30,28,91,81,51,51,12,29,6,7,0.7,0.8
2023-01-02T14:00:00,1355A,113.443,23.3035,广州市,帽峰山森林公园(对照点),,45,37,36,31,29,94,74,55,55,10,13,5,5,0.6,0.6
2023-01-02T14:00:00,1356A,114.1063,22.5545,深圳市,通心岭子站,,,46,50,31,33,63,,42,42,18,30,4,4,,0.8
2023-01-02T14:00:00,1357A,114.117,22.5625,深圳市,洪湖,颗粒物(PM10),54,57,54,35,33,84,84,54,54,21,31,8,8,0.7,0.8
2023-01-02T14:00:00,1358A,113.987,22.5417,深圳市,华侨城,细颗粒物(PM2.5),54,54,52,38,34,87,87,43,43,27,36,5,5,0.8,0.8
2023-01-02T14:00:00,1359A,113.9181,22.5171,深圳市,南海子站,"颗粒物(PM10),细颗粒物(PM2.5)",57,64,63,40,40,67,67,38,38,25,42,5,5,1.0,1.1
2023-01-02T14:00:00,1360A,114.2458,22.5689,深圳市,盐田,,43,38,36,30,27,79,79,55,47,16,23,6,6,0.6,0.7
2023-01-02T14:00:00,1361A,114.2283,22.7244,深圳市,龙岗,,46,46,51,31,33,78,78,51,51,7,24,5,5,0.8,0.8
2023-01-02T14:00:00,1363A,114.494,22.5422,深圳市,南澳,,34,34,37,23,26,94,94,63,63,13,17,4,5,0.6,0.7
2023-01-02T14:00:00,1364A,114.41,22.6342,深圳市,葵涌,,39,37,44,27,33,76,76,49,49,13,16,8,9,0.8,0.8
2023-01-02T14:00:00,1365A,114.297,22.5978,深圳市,梅沙,,41,41,40,26,27,88,88,67,62,13,13,7,7,0.8,0.9
2023-01-02T14:00:00,1366A,114.0678,22.738,深圳市,观澜,颗粒物(PM10),56,62,75,33,38,81,81,48,48,18,39,8,7,0.6,0.7
2023-01-02T14:00:00,1367A,113.5814,22.2618,珠海市,吉大,细颗粒物(PM2.5),57,57,55,40,37,86,86,49,49,22,32,8,8,0.5,0.6
2023-01-02T14:00:00,1368A,113.4881,22.2335,珠海市,前山,颗粒物(PM10),52,53,52,29,27,76,76,47,40,26,39,3,4,0.7,0.7
2023-01-02T14:00:00,1369A,113.628,22.4251,珠海市,唐家,细颗粒物(PM2.5),62,53,55,44,39,91,91,49,49,24,38,9,9,0.5,0.6
2023-01-02T14:00:00,1370A,113.299,22.2281,珠海市,斗门,细颗粒物(PM2.5),54,54,62,38,42,73,60,56,56,30,36,4,4,0.6,0.6
2023-01-02T14:00:00,1371A,113.1294,23.0067,佛山市,湾梁,,46,46,40,31,27,103,83,54,54,15,21,9,9,0.7,0.7
2023-01-02T14:00:00,1372A,113.1083,23.0478,佛山市,华材职中,细颗粒物(PM2.5),52,48,41,36,32,104,83,52,52,18,27,10,9,0.6,0.6
2023-01-02T14:00:00,1373A,113.144,23.0453,佛山市,南海气象局,,50,50,40,28,27,89,69,43,43,19,26,6,6,0.9,0.9
2023-01-02T14:00:00,1374A,113.2881,22.8094,佛山市,顺德苏岗,,42,29,38,29,25,87,70,40,40,20,34,7,7,0.5,1.1
2023-01-02T14:00:00,1376A,112.8383,22.8678,佛山市,高明孔堂,颗粒物(PM10),64,77,45,41,31,94,75,52,51,16,18,6,5,0.7,0.7
2023-01-02T14:00:00,1377A,112.8836,23.1588,佛山市,三水监测站,细颗粒物(PM2.5),55,46,44,39,35,95,78,48,48,15,23,7,9,0.7,0.6
2023-01-02T14:00:00,1378A,112.867,23.185,佛山市,三水云东海,细颗粒物(PM2.5),53,46,36,37,32,93,79,50,50,13,19,7,7,0.6,0.6
2023-01-02T14:00:00,1379A,113.3769,22.5211,中山市,华柏园,颗粒物(PM10),51,52,51,35,38,73,63,38,38,28,39,8,6,0.6,0.8
2023-01-02T14:00:00,1380A,113.3881,22.5497,中山市,张溪,细颗粒物(PM2.5),59,58,56,42,40,78,67,40,40,25,42,6,4,0.6,0.7
2023-01-02T14:00:00,1381A,113.4075,22.5111,中山市,紫马岭,,49,47,49,34,34,70,62,39,39,24,37,6,9,0.6,0.7
2023-01-02T14:00:00,1382A,113.4411,22.4853,中山市,长江旅游区(对照点),,,,,,,,,,,,,,,,
2023-01-02T14:00:00,1383A,113.1064,22.6058,江门市,北街,颗粒物(PM10),54,58,45,35,30,107,79,48,48,30,36,10,9,0.7,0.8
2023-01-02T14:00:00,1384A,113.0731,22.5835,江门市,西区,颗粒物(PM10),59,68,55,35,35,104,81,46,46,28,33,9,8,0.6,0.6
2023-01-02T14:00:00,1385A,113.0219,22.5311,江门市,圭峰西,细颗粒物(PM2.5),58,54,43,41,32,90,87,56,55,28,29,6,6,0.7,0.7
2023-01-02T14:00:00,1386A,113.0828,22.5947,江门市,东湖,细颗粒物(PM2.5),59,63,50,42,34,106,79,46,46,26,29,8,8,0.7,0.7
2023-01-02T14:00:00,1389A,113.7547,23.0494,东莞市,莞城梨川,,38,34,49,26,34,86,74,49,49,14,34,8,8,0.5,0.6
2023-01-02T14:00:00,1390A,113.7944,23.0128,东莞市,东城石井,,45,38,47,31,31,90,81,48,48,14,24,12,11,0.7,0.8
2023-01-02T14:00:00,1391A,113.7383,22.9658,东莞市,南城西平,,41,41,54,22,33,88,76,46,46,18,39,10,10,0.6,0.7
2023-01-02T14:00:00,1392A,114.4183,23.0528,惠州市,河南岸金山湖子站,,46,46,48,32,34,69,69,47,47,10,21,6,7,0.7,0.8
2023-01-02T14:00:00,1393A,114.4053,23.0822,惠州市,下埔横江三路子站,,47,47,45,29,32,77,77,52,52,12,23,7,8,0.6,0.8
2023-01-02T14:00:00,1394A,114.4103,23.1142,惠州市,江北云山西路子站,,45,25,42,31,35,77,77,51,51,9,17,5,6,0.7,0.8
2023-01-02T14:00:00,1395A,114.4645,22.7833,惠州市,惠阳区承修路船湖子站,细颗粒物(PM2.5),52,52,66,36,49,74,74,48,48,13,20,5,6,0.7,0.9
2023-01-02T14:00:00,1396A,114.5317,22.7422,惠州市,大亚湾管委会子站,,,49,52,31,33,73,73,45,45,,25,4,4,0.8,0.9
2023-01-02T14:00:00,1397A,112.4267,23.0706,肇庆市,睦岗子站,,48,46,42,33,30,85,71,52,47,22,33,9,8,0.7,0.8
2023-01-02T14:00:00,1398A,112.4645,23.0475,肇庆市,城中子站,,50,49,42,35,29,88,70,68,57,20,20,9,8,0.6,0.6
2023-01-02T14:00:00,1399A,112.5544,23.1522,肇庆市,坑口子站,细颗粒物(PM2.5),52,45,41,36,32,94,80,50,50,20,29,10,10,0.6,0.6
2023-01-02T14:00:00,1400A,112.4753,23.1,肇庆市,七星岩子站(对照点),,46,43,39,32,27,91,75,58,50,8,16,3,3,0.6,0.6
2023-01-02T14:00:00,1401A,108.3103,22.7881,南宁市,二十一中,细颗粒物(PM2.5),68,68,65,49,53,116,42,74,52,29,24,5,8,0.9,0.9
2023-01-02T14:00:00,1402A,108.3141,22.8528,南宁市,北湖,细颗粒物(PM2.5),54,46,71,38,53,119,55,55,54,16,22,7,10,0.8,0.9
2023-01-02T14:00:00,1403A,108.3206,22.8225,南宁市,市监测站,颗粒物(PM10),59,68,65,36,49,116,46,56,50,37,37,9,13,0.8,0.9
2023-01-02T14:00:00,1404A,108.3829,22.8037,南宁市,大自然花园,细颗粒物(PM2.5),67,53,61,48,54,110,44,79,53,25,25,6,9,0.9,0.9
2023-01-02T14:00:00,1405A,108.4394,22.7904,南宁市,仙葫(对照点),颗粒物(PM10),74,98,60,38,48,105,54,78,56,11,16,10,13,0.8,0.8
2023-01-02T14:00:00,1406A,108.2397,22.8467,南宁市,区农职院,,45,44,57,31,44,119,57,56,54,17,27,6,9,0.8,0.9
2023-01-02T14:00:00,1407A,108.3275,22.735,南宁市,英华嘉园,细颗粒物(PM2.5),84,73,69,62,58,109,44,77,49,26,29,6,9,0.9,0.9
2023-01-02T14:00:00,1408A,108.2257,22.7757,南宁市,沙井镇街道办,,46,45,87,32,56,110,50,65,36,20,49,5,10,0.8,0.9
2023-01-02T14:00:00,1409A,110.576,19.9507,海口市,东寨港(对照点),,,31,26,22,19,60,55,54,37,,,3,3,0.6,0.6
2023-01-02T14:00:00,1410A,110.3232,20.0574,海口市,海南大学,,36,31,35,25,27,97,83,85,67,12,12,6,5,0.7,0.7
2023-01-02T14:00:00,1411A,110.283,20.0053,海口市,秀英海南医院,,39,39,34,19,22,96,81,88,64,15,14,7,6,0.8,0.8
2023-01-02T14:00:00,1412A,110.338,19.9969,海口市,海南师范大学,,48,48,33,22,20,93,80,82,66,11,12,7,6,0.8,0.8
2023-01-02T14:00:00,1413A,110.33,20.0356,海口市,龙华路环保局宿舍,,38,38,31,25,23,93,80,84,65,13,11,6,5,0.8,0.8
2023-01-02T14:00:00,1414A,106.3787,29.8279,重庆市,缙云山(对照点),,45,45,39,30,23,48,41,44,44,25,23,5,5,0.6,0.6
2023-01-02T14:00:00,1416A,106.4213,29.8253,重庆市,天生,细颗粒物(PM2.5),87,75,73,64,57,30,19,12,8,33,28,7,6,0.9,0.9
2023-01-02T14:00:00,1417A,106.6263,29.7228,重庆市,两路,细颗粒物(PM2.5),77,66,68,56,52,27,15,14,14,41,38,8,7,0.9,0.9
2023-01-02T14:00:00,1418A,106.2953,29.5983,重庆市,虎溪,细颗粒物(PM2.5),80,61,66,59,60,35,29,23,18,34,32,5,7,0.8,0.8
2023-01-02T14:00:00,1419A,106.5777,29.5102,重庆市,南坪,细颗粒物(PM2.5),94,83,77,70,57,18,18,6,6,34,41,10,6,0.9,0.9
2023-01-02T14:00:00,1420A,106.6556,29.6277,重庆市,唐家沱,细颗粒物(PM2.5),84,57,64,62,54,23,7,4,4,48,41,8,7,0.7,0.7
2023-01-02T14:00:00,1421A,106.6349,29.4906,重庆市,茶园,细颗粒物(PM2.5),85,93,84,63,58,28,28,17,17,32,41,12,8,0.7,0.8
2023-01-02T14:00:00,1422A,106.3754,29.4572,重庆市,白市驿,,,,61,64,51,35,21,19,19,45,38,8,6,0.8,0.8
2023-01-02T14:00:00,1425A,106.6205,29.7166,重庆市,空港,细颗粒物(PM2.5),87,82,71,64,57,27,9,13,12,44,34,8,7,1.0,1
2023-01-02T14:00:00,1426A,106.4782,29.4875,重庆市,新山村,细颗粒物(PM2.5),102,85,81,76,63,19,14,11,11,50,51,6,6,0.5,0.5
2023-01-02T14:00:00,1427A,106.5616,29.6453,重庆市,礼嘉,细颗粒物(PM2.5),79,82,81,58,53,23,21,15,15,41,42,11,10,0.7,0.6
2023-01-02T14:00:00,1428A,106.4522,29.7091,重庆市,蔡家,细颗粒物(PM2.5),73,64,74,53,55,38,38,16,16,25,31,7,5,0.9,1
2023-01-02T14:00:00,1429A,106.5093,29.3917,重庆市,鱼新街,细颗粒物(PM2.5),108,102,79,81,60,27,9,6,6,39,38,25,17,1.1,1.1
2023-01-02T14:00:00,1431A,103.9728,30.7236,成都市,金泉两河,细颗粒物(PM2.5),53,50,73,37,60,60,60,17,17,14,29,2,1,0.7,0.8
2023-01-02T14:00:00,1432A,104.176,30.6872,成都市,十里店,,49,49,64,30,54,57,57,12,12,22,34,3,2,0.5,0.9
2023-01-02T14:00:00,1433A,104.079,30.5706,成都市,三瓦窑,细颗粒物(PM2.5),73,54,75,53,56,45,45,13,13,25,33,3,2,0.7,0.7
2023-01-02T14:00:00,1434A,104.1114,30.63,成都市,沙河铺,"颗粒物(PM10),细颗粒物(PM2.5)",57,64,69,40,52,42,42,18,11,36,31,1,2,0.7,0.7
2023-01-02T14:00:00,1437A,104.0786,30.6531,成都市,君平街,细颗粒物(PM2.5),58,54,72,41,60,55,55,18,18,31,39,3,2,0.6,0.7
2023-01-02T14:00:00,1438A,103.613,31.0283,成都市,灵岩寺(对照点),细颗粒物(PM2.5),54,40,57,38,55,75,75,45,45,14,17,3,5,0.8,0.9
2023-01-02T14:00:00,1439A,106.6899,26.5998,贵阳市,马鞍山,,39,24,19,27,19,36,17,31,16,19,16,8,6,0.8,0.7
2023-01-02T14:00:00,1440A,106.6971,26.5694,贵阳市,市环保站,,39,22,15,27,20,42,22,32,24,22,18,9,5,0.6,0.4
2023-01-02T14:00:00,1441A,106.6243,26.6266,贵阳市,鉴湖路,,19,19,27,12,16,36,26,30,26,13,16,8,6,0.5,0.5
2023-01-02T14:00:00,1442A,106.7487,26.6343,贵阳市,燕子冲,,39,29,25,27,24,39,20,24,19,14,13,10,6,0.5,0.4
2023-01-02T14:00:00,1443A,106.6555,26.4365,贵阳市,碧云窝,,,,,,,,,,,,,,,,
2023-01-02T14:00:00,1444A,106.694,26.5161,贵阳市,中院村,,39,39,35,19,19,33,23,30,23,23,23,13,10,0.7,0.6
2023-01-02T14:00:00,1445A,106.7109,26.6027,贵阳市,红边门,,,29,24,22,17,40,21,35,22,,16,17,13,0.9,0.6
2023-01-02T14:00:00,1446A,106.7164,26.5699,贵阳市,新华路,,27,27,28,17,15,42,28,33,25,11,12,9,6,0.6,0.5
2023-01-02T14:00:00,1447A,106.674,26.5424,贵阳市,太慈桥,,41,41,31,19,15,33,18,31,22,26,21,8,6,0.6,0.5
2023-01-02T14:00:00,1450A,102.8204,24.8886,昆明市,呈贡新区,,23,12,21,14,19,72,71,32,32,10,24,6,6,0.6,0.7
2023-01-02T14:00:00,1451A,102.6251,24.9608,昆明市,西山森林公园(对照点),,32,11,12,22,11,73,73,57,57,7,11,6,7,0.2,0.4
2023-01-02T14:00:00,1452A,102.7252,25.0902,昆明市,龙泉镇,,23,23,35,12,19,65,65,28,28,11,24,8,8,0.7,1
2023-01-02T14:00:00,1453A,102.7266,25.0375,昆明市,东风东路,,20,20,29,14,23,64,64,30,30,14,31,8,8,0.5,0.8
2023-01-02T14:00:00,1454A,102.6742,25.0669,昆明市,金鼎山,,26,19,35,18,28,70,70,28,28,6,21,7,22,0.2,0.6
2023-01-02T14:00:00,1455A,102.6644,25.0401,昆明市,碧鸡广场,,22,17,27,12,22,69,69,30,30,22,29,4,4,0.5,0.7
2023-01-02T14:00:00,1456A,91.1319,29.6514,拉萨市,八廓街,颗粒物(PM10),97,144,45,26,14,100,82,72,54,13,19,7,7,0.8,1
2023-01-02T14:00:00,1457A,91.1221,29.6747,拉萨市,市环保局,,37,37,40,8,19,100,82,66,45,20,31,5,6,0.4,0.9
2023-01-02T14:00:00,1458A,91.0874,29.6475,拉萨市,区监测站,颗粒物(PM10),146,241,52,53,18,103,86,72,44,15,16,6,7,0.4,0.5
2023-01-02T14:00:00,1459A,91.1774,29.6541,拉萨市,西藏大学,颗粒物(PM10),89,128,33,40,12,102,85,72,56,10,17,9,10,1.0,0.8
2023-01-02T14:00:00,1460A,90.9798,29.6588,拉萨市,区辐射站,颗粒物(PM10),127,204,71,48,29,91,73,39,39,12,41,8,10,0.6,1.1
2023-01-02T14:00:00,1461A,91.0834,29.6292,拉萨市,拉萨火车站,颗粒物(PM10),157,263,52,42,11,93,73,58,48,12,19,8,8,0.3,0.4
2023-01-02T14:00:00,1462A,108.882,34.2749,西安市,高压开关厂,细颗粒物(PM2.5),261,246,246,211,211,58,40,21,21,92,79,9,10,1.6,1.5
2023-01-02T14:00:00,1463A,108.993,34.2629,西安市,兴庆小区,细颗粒物(PM2.5),226,181,190,176,194,43,43,35,27,72,65,11,10,1.4,1.3
2023-01-02T14:00:00,1464A,109.06,34.2572,西安市,纺织城,细颗粒物(PM2.5),221,187,215,171,200,57,57,24,24,62,78,16,12,1.6,1.8
2023-01-02T14:00:00,1465A,108.9356,34.2173,西安市,小寨,细颗粒物(PM2.5),205,195,249,155,202,48,48,36,20,78,67,10,11,1.4,1.4
2023-01-02T14:00:00,1466A,108.954,34.2713,西安市,市人民体育场,细颗粒物(PM2.5),239,216,216,189,197,53,41,30,21,80,70,11,11,1.4,1.4
2023-01-02T14:00:00,1467A,108.8922,34.2322,西安市,高新西区,细颗粒物(PM2.5),240,212,234,190,215,58,46,36,24,,70,10,11,1.5,1.5
2023-01-02T14:00:00,1468A,108.935,34.3474,西安市,经开区,细颗粒物(PM2.5),251,186,197,201,210,61,44,18,18,69,72,11,12,1.6,1.6
2023-01-02T14:00:00,1469A,108.906,34.1546,西安市,长安区,细颗粒物(PM2.5),223,209,249,173,227,60,55,26,26,72,64,8,10,1.5,1.7
2023-01-02T14:00:00,1471A,109.2186,34.3731,西安市,临潼区,细颗粒物(PM2.5),247,232,224,197,190,54,54,24,24,52,70,13,12,1.7,2
2023-01-02T14:00:00,1472A,108.869,34.378,西安市,草滩(对照点),细颗粒物(PM2.5),250,175,149,200,174,63,45,18,18,68,63,15,13,1.8,1.7
2023-01-02T14:00:00,1473A,108.985,34.1978,西安市,曲江文化产业集团,细颗粒物(PM2.5),162,145,221,123,195,60,60,31,29,60,64,8,9,1.2,1.3
2023-01-02T14:00:00,1474A,109.051,34.3213,西安市,广运潭,细颗粒物(PM2.5),230,203,212,180,208,54,54,18,18,57,73,10,10,1.7,1.9
2023-01-02T14:00:00,1476A,103.631,36.1031,兰州市,兰炼宾馆,细颗粒物(PM2.5),63,69,82,45,51,57,44,19,19,57,60,34,29,2.2,1
2023-01-02T14:00:00,1477A,104.1373,35.9454,兰州市,榆中兰大校区(对照点),,,,,,,,,,,,,,,,
2023-01-02T14:00:00,1478A,103.8412,36.0726,兰州市,生物制品所,细颗粒物(PM2.5),84,96,77,62,43,55,32,13,13,60,65,50,26,2.6,1.3
2023-01-02T14:00:00,1479A,103.831,36.0464,兰州市,铁路设计院,细颗粒物(PM2.5),105,108,92,79,66,58,38,21,21,73,66,57,40,2.7,2.1
2023-01-02T14:00:00,1483A,101.524,36.6867,西宁市,第五水厂(对照点),,,,,,,,,,,,,,,,
2023-01-02T14:00:00,1484A,105.9512,38.6016,银川市,贺兰山马莲口(对照点),,50,50,73,32,57,52,51,52,39,36,48,37,43,1.4,1.6
2023-01-02T14:00:00,1488A,106.2328,38.4975,银川市,贺兰山东路,细颗粒物(PM2.5),72,64,215,52,168,49,49,26,26,34,71,26,36,1.0,2.6
2023-01-02T14:00:00,1489A,106.1358,38.5036,银川市,学院路,细颗粒物(PM2.5),77,76,174,56,111,48,48,22,22,35,71,39,51,1.4,2.5
2023-01-02T14:00:00,1490A,87.5801,43.8303,乌鲁木齐市,监测站,细颗粒物(PM2.5),175,197,238,132,164,9,7,2,2,100,95,7,6,2.4,2.4
2023-01-02T14:00:00,1491A,87.6046,43.768,乌鲁木齐市,收费所,颗粒物(PM10),73,96,194,46,108,54,54,21,21,32,74,2,3,0.6,1.6
2023-01-02T14:00:00,1492A,87.4754,43.9469,乌鲁木齐市,新疆农科院农场(对照点),,,,205,,147,107,107,18,18,78,69,19,6,2.6,2.5
2023-01-02T14:00:00,1493A,87.5525,43.8711,乌鲁木齐市,铁路局,细颗粒物(PM2.5),302,282,256,252,231,19,11,6,6,125,97,5,3,3.2,2.7
2023-01-02T14:00:00,1494A,87.6432,43.831,乌鲁木齐市,三十一中学,细颗粒物(PM2.5),94,117,199,70,139,34,25,14,14,58,78,5,5,1.4,1.8
2023-01-02T14:00:00,1496A,87.7216,44.1747,乌鲁木齐市,米东区环保局,细颗粒物(PM2.5),271,297,256,221,202,46,23,12,12,81,72,5,8,2.1,2
2023-01-02T14:00:00,1508A,112.9433,27.8614,湘潭市,板塘,细颗粒物(PM2.5),129,110,127,98,129,71,47,54,46,31,31,8,9,0.9,1
2023-01-02T14:00:00,1511A,112.9118,27.8403,湘潭市,市监测站,细颗粒物(PM2.5),128,113,137,97,124,65,41,54,41,31,29,6,7,1.0,1.1
2023-01-02T14:00:00,1512A,112.8937,27.8728,湘潭市,江麓,细颗粒物(PM2.5),122,113,135,92,114,77,55,60,51,,35,12,12,0.9,1
2023-01-02T14:00:00,1513A,112.9227,27.8159,湘潭市,岳塘,细颗粒物(PM2.5),129,116,134,98,125,64,44,51,43,27,27,6,7,0.8,0.8
2023-01-02T14:00:00,1514A,112.9074,27.9119,湘潭市,科大,细颗粒物(PM2.5),133,124,135,101,125,68,48,56,46,33,32,11,13,1.1,1.2
2023-01-02T14:00:00,1515A,113.135,27.8244,株洲市,天台山庄,细颗粒物(PM2.5),137,130,142,104,135,77,44,40,37,30,35,6,5,1.0,1.1
2023-01-02T14:00:00,1518A,113.095,27.8867,株洲市,株冶医院,细颗粒物(PM2.5),123,122,144,93,126,71,47,39,38,34,41,5,5,0.9,0.9
2023-01-02T14:00:00,1519A,113.167,27.8667,株洲市,市四中,细颗粒物(PM2.5),128,110,143,97,135,74,52,43,43,32,41,5,6,0.6,0.7
2023-01-02T14:00:00,1520A,113.143,27.8381,株洲市,火车站,细颗粒物(PM2.5),138,132,160,105,145,70,44,38,38,36,40,4,6,1.0,1.1
2023-01-02T14:00:00,1524A,113.13,27.8528,株洲市,市监测站,细颗粒物(PM2.5),143,112,150,109,146,79,50,42,42,35,42,4,5,0.7,0.8
2023-01-02T14:00:00,1552A,106.805,26.3003,贵阳市,桐木岭(对照点),,,,,,,,,,,,,,,,
2023-01-02T14:00:00,1559A,113.251,27.8336,株洲市,大京风景区(对照点),细颗粒物(PM2.5),127,122,147,96,134,73,51,37,37,20,28,4,5,0.8,0.9
2023-01-02T14:00:00,1562A,113.0048,27.9153,湘潭市,昭山,细颗粒物(PM2.5),134,127,153,102,134,67,44,46,43,27,28,2,4,0.7,0.8
2023-01-02T14:00:00,1564A,112.4876,27.9164,湘潭市,韶山(对照点),细颗粒物(PM2.5),97,98,87,72,84,86,64,68,61,17,17,9,8,0.9,1.2
2023-01-02T14:00:00,1585A,109.8756,40.6532,包头市,市环境监测站,"颗粒物(PM10),细颗粒物(PM2.5)",55,59,32,39,18,63,40,46,29,36,26,30,17,1.5,0.9
2023-01-02T14:00:00,1587A,109.9991,40.5842,包头市,包头八中,细颗粒物(PM2.5),63,69,68,45,33,50,45,32,16,30,42,26,21,1.1,1.1
2023-01-02T14:00:00,1588A,109.8538,40.6821,包头市,青山宾馆,细颗粒物(PM2.5),70,68,41,51,22,58,40,48,30,42,27,22,10,1.5,0.7
2023-01-02T14:00:00,1589A,109.8642,40.6288,包头市,惠龙物流,"颗粒物(PM10),细颗粒物(PM2.5)",67,84,45,48,23,50,42,49,30,38,33,26,15,1.4,0.9
2023-01-02T14:00:00,1590A,110.0377,40.5546,包头市,东河鸿龙湾,细颗粒物(PM2.5),57,59,62,40,30,42,42,20,19,30,42,30,18,1.0,1.1
2023-01-02T14:00:00,1591A,110.0023,39.8129,鄂尔多斯市,综合楼,,34,34,62,12,22,52,52,36,33,30,42,36,21,0.6,0.8
2023-01-02T14:00:00,1592A,109.9486,39.8261,鄂尔多斯市,巴音孟克林场办事处,,27,27,56,12,22,70,70,35,35,13,43,28,23,0.8,1.1
2023-01-02T14:00:00,1593A,109.7736,39.5986,鄂尔多斯市,康泽苑,,27,27,43,14,18,55,43,31,31,23,20,19,9,0.7,0.8
2023-01-02T14:00:00,1594A,109.8119,39.5989,鄂尔多斯市,华泰汽车城,,25,24,45,17,24,68,61,41,34,19,28,16,13,0.6,0.7
2023-01-02T14:00:00,1595A,109.9734,39.7884,鄂尔多斯市,奥林花园,,24,24,58,12,24,71,71,39,34,16,36,15,15,0.6,0.9
2023-01-02T14:00:00,1596A,122.2414,40.6592,营口市,学府南路(停运211214),,,,,,,,,,,,,,,,
2023-01-02T14:00:00,1597A,122.2703,40.7094,营口市,大庆路,,31,31,69,11,41,69,67,38,38,11,41,6,19,0.5,1.2
2023-01-02T14:00:00,1598A,122.2150,40.6511,营口市,镜湖西路,,44,44,53,12,22,68,65,52,42,18,37,15,19,0.6,0.8
2023-01-02T14:00:00,1599A,122.1658,40.6789,营口市,西炮台,,37,37,71,18,48,62,62,36,36,18,38,15,11,0.3,0.8
2023-01-02T14:00:00,1600A,124.3303,40.0625,丹东市,江湾东路,,20,19,28,13,17,64,63,55,55,8,13,13,16,0.6,0.7
2023-01-02T14:00:00,1601A,124.4256,40.1503,丹东市,临江后街,,19,15,37,8,21,63,60,43,43,12,22,10,13,0.6,0.8
2023-01-02T14:00:00,1602A,124.3933,40.1461,丹东市,元宝山,,18,18,27,9,15,60,57,47,46,16,20,13,17,1.0,1
2023-01-02T14:00:00,1603A,124.3633,40.1092,丹东市,民主桥,,24,24,31,10,14,61,61,50,50,11,16,11,12,0.4,0.6
2023-01-02T14:00:00,1604A,122.0303,41.1489,盘锦市,开发区,,30,30,39,7,17,68,65,53,44,11,21,9,10,0.4,0.6
2023-01-02T14:00:00,1605A,122.0485,41.0883,盘锦市,兴隆台,,20,19,45,9,22,66,63,40,35,12,37,11,13,0.4,0.8
2023-01-02T14:00:00,1606A,121.8297,41.1028,盘锦市,新生街道,,21,13,43,9,25,69,67,39,39,10,38,11,21,0.5,0.6
2023-01-02T14:00:00,1607A,120.9092,40.7136,葫芦岛市,龙港区,,43,43,78,23,49,64,64,40,40,18,40,62,78,0.6,1.2
2023-01-02T14:00:00,1608A,120.8392,40.7514,葫芦岛市,化工街,,50,50,84,34,61,58,54,31,31,24,46,58,50,0.6,1.1
2023-01-02T14:00:00,1609A,120.8341,40.7073,葫芦岛市,新区,,50,50,76,23,58,63,57,33,33,17,41,52,32,0.6,1.2
2023-01-02T14:00:00,1610A,120.8695,40.7677,葫芦岛市,东城区,,50,50,93,24,69,64,58,32,32,25,43,48,42,0.7,1.4
2023-01-02T14:00:00,1611A,118.5819,24.9117,泉州市,涂山街,,26,24,21,9,12,84,82,75,72,9,9,7,7,0.5,0.5
2023-01-02T14:00:00,1612A,118.5972,24.8978,泉州市,津头埔,,25,25,22,17,15,79,77,71,67,15,14,8,7,0.6,0.6
2023-01-02T14:00:00,1613A,118.6663,24.9424,泉州市,万安,,30,26,22,21,13,88,82,81,77,10,9,8,7,0.5,0.4
2023-01-02T14:00:00,1614A,118.6117,24.9604,泉州市,清源山(对照点),,,,,,,,,,,,,,,,
2023-01-02T14:00:00,1616A,117.6795,36.229,济南市,技术学院,颗粒物(PM10),67,83,133,47,79,73,72,32,32,27,66,17,21,1.2,1.6
2023-01-02T14:00:00,1618A,118.3429,35.0532,临沂市,沂河小区,颗粒物(PM10),58,66,126,39,99,82,75,46,46,21,40,12,15,0.7,1.1
2023-01-02T14:00:00,1619A,118.295,35.0583,临沂市,鲁南制药厂,颗粒物(PM10),57,63,125,38,85,82,71,46,46,44,60,22,23,0.6,0.9
2023-01-02T14:00:00,1620A,118.2794,34.9976,临沂市,新光毛纺厂,颗粒物(PM10),53,56,128,33,88,78,75,39,39,28,60,15,21,1.0,1.6
2023-01-02T14:00:00,1621A,118.3956,35.0888,临沂市,河东保险公司,颗粒物(PM10),52,53,132,24,92,85,82,44,44,21,57,13,20,0.9,1.4
2023-01-02T14:00:00,1622A,116.3032,37.4674,德州市,儿童乐园,颗粒物(PM10),65,80,146,44,96,63,57,24,24,30,69,17,26,1.0,1.4
2023-01-02T14:00:00,1624A,116.2991,37.4451,德州市,监理站,细颗粒物(PM2.5),79,92,148,58,103,67,63,29,29,30,64,20,26,0.9,1.3
2023-01-02T14:00:00,1625A,115.9848,36.4372,聊城市,区政府,细颗粒物(PM2.5),200,200,177,150,127,58,41,20,20,60,67,41,44,1.6,1.5
2023-01-02T14:00:00,1628A,118.0062,37.3803,滨州市,市环保局,细颗粒物(PM2.5),58,59,85,41,52,64,64,38,38,31,49,52,38,0.8,0.9
2023-01-02T14:00:00,1629A,118.0018,37.3617,滨州市,第二水厂,"颗粒物(PM10),细颗粒物(PM2.5)",54,58,77,38,50,71,66,43,43,32,52,58,27,0.7,0.8
2023-01-02T14:00:00,1630A,117.9776,37.393,滨州市,北中新校,颗粒物(PM10),53,56,79,30,47,64,64,32,32,30,54,32,32,0.5,0.6
2023-01-02T14:00:00,1631A,118.0414,36.8103,淄博市,人民公园,细颗粒物(PM2.5),82,85,184,60,127,81,56,26,26,55,75,13,24,0.8,1.3
2023-01-02T14:00:00,1633A,117.8525,36.4847,淄博市,双山,颗粒物(PM10),55,59,144,36,101,72,63,36,36,29,63,12,22,0.6,1.2
2023-01-02T14:00:00,1634A,117.9592,36.6331,淄博市,气象站,颗粒物(PM10),57,63,171,31,100,72,56,24,24,38,62,14,28,0.8,1.4
2023-01-02T14:00:00,1635A,118.3092,36.8194,淄博市,莆田园,,39,36,139,27,92,69,68,34,34,24,49,14,24,0.6,1.7
2023-01-02T14:00:00,1637A,117.558,34.8438,枣庄市,市中区政府,颗粒物(PM10),63,75,165,44,100,90,80,44,44,31,64,15,22,0.9,1.3
2023-01-02T14:00:00,1638A,117.2852,34.7837,枣庄市,薛城环保局,细颗粒物(PM2.5),67,71,125,48,85,88,88,53,53,32,57,14,17,1.1,1.3
2023-01-02T14:00:00,1639A,117.5852,34.7745,枣庄市,峄城区政府,颗粒物(PM10),57,63,133,29,87,80,75,55,55,31,45,15,22,0.6,0.9
2023-01-02T14:00:00,1640A,117.7276,34.5578,枣庄市,台儿庄区环保局,颗粒物(PM10),54,58,147,36,106,119,86,47,47,30,55,11,18,0.8,1.3
2023-01-02T14:00:00,1641A,117.4518,35.0992,枣庄市,山亭区环保局,细颗粒物(PM2.5),80,85,118,59,88,94,85,53,53,34,49,13,14,0.9,1.3
2023-01-02T14:00:00,1642A,121.2514,37.5639,烟台市,开发区,,28,24,38,19,29,63,61,26,26,15,35,14,10,0.5,0.8
2023-01-02T14:00:00,1643A,121.3719,37.5433,烟台市,轴承厂,,39,39,34,18,19,75,56,44,44,24,30,18,16,0.4,0.6
2023-01-02T14:00:00,1644A,121.3181,37.5436,烟台市,西郊化工站,,48,48,40,22,22,77,68,45,45,18,28,20,16,0.6,0.7
2023-01-02T14:00:00,1645A,121.4478,37.4822,烟台市,莱山环保局,,,24,31,,,76,68,39,34,11,24,14,10,0.7,0.9
2023-01-02T14:00:00,1646A,121.2611,37.4967,烟台市,福山环保局,颗粒物(PM10),52,53,66,17,43,61,55,26,26,25,41,12,9,0.3,0.8
2023-01-02T14:00:00,1650A,119.1437,36.7023,潍坊市,环保局,,,53,61,36,45,72,52,44,22,36,44,12,9,,0.9
2023-01-02T14:00:00,1653A,116.6251,35.4302,济宁市,火炬城,细颗粒物(PM2.5),125,96,163,95,149,120,79,32,32,30,58,19,21,0.9,1.2
2023-01-02T14:00:00,1655A,116.5491,35.4042,济宁市,电化厂,细颗粒物(PM2.5),122,116,183,92,151,110,79,35,35,32,61,22,28,1.2,1.5
2023-01-02T14:00:00,1656A,117.1437,36.1937,泰安市,监测站,细颗粒物(PM2.5),144,134,109,110,75,70,55,43,32,56,49,22,20,1.5,1.4
2023-01-02T14:00:00,1657A,117.0885,36.2017,泰安市,人口学校,细颗粒物(PM2.5),119,134,98,90,60,62,53,40,27,55,49,23,20,1.2,1.1
2023-01-02T14:00:00,1658A,117.1089,36.1758,泰安市,电力学校,细颗粒物(PM2.5),147,146,119,112,85,62,53,31,23,44,50,30,27,1.4,1.3
2023-01-02T14:00:00,1659A,119.471,35.4209,日照市,监测站,,39,39,96,21,66,71,68,34,34,32,64,11,13,0.9,1.4
2023-01-02T14:00:00,1660A,119.523,35.4216,日照市,市政府广场,颗粒物(PM10),53,56,79,35,54,77,71,54,54,24,28,9,9,0.9,1
2023-01-02T14:00:00,1661A,119.5587,35.4044,日照市,港务局,细颗粒物(PM2.5),63,70,78,45,53,82,78,53,46,28,36,10,10,0.7,0.8
2023-01-02T14:00:00,1662A,122.1214,37.4236,威海市,华夏技校,,39,39,20,15,12,77,68,65,62,14,15,7,4,0.4,0.4
2023-01-02T14:00:00,1663A,122.0508,37.5236,威海市,山大分校,,34,34,22,17,9,76,71,68,63,6,6,8,6,0.2,0.1
2023-01-02T14:00:00,1664A,122.1067,37.5072,威海市,市监测站,,35,34,22,24,12,76,70,68,59,13,16,6,4,0.4,0.3
2023-01-02T14:00:00,1666A,118.6614,37.4309,东营市,市环保局,,39,39,43,27,28,86,84,49,44,17,26,16,12,0.6,0.6
2023-01-02T14:00:00,1669A,113.5824,24.7733,韶关市,市八中,,33,32,36,23,29,79,66,48,48,6,10,10,11,0.6,0.8
2023-01-02T14:00:00,1671A,113.5917,24.7972,韶关市,园林处,,23,21,36,16,33,79,66,50,50,4,9,9,9,0.7,0.8
2023-01-02T14:00:00,1672A,113.6735,24.7791,韶关市,韶关学院,,35,25,33,24,34,80,61,49,49,11,17,6,7,0.6,0.6
2023-01-02T14:00:00,1673A,113.5971,24.6863,韶关市,曲江监测站,,29,24,36,20,33,83,62,52,52,6,14,9,14,0.5,0.6
2023-01-02T14:00:00,1674A,116.6794,23.3667,汕头市,金平子站,,28,28,38,16,29,87,76,45,36,12,24,12,12,0.5,0.6
2023-01-02T14:00:00,1675A,116.7244,23.3633,汕头市,龙湖子站,,25,24,35,14,26,88,77,53,42,13,26,12,11,0.5,0.6
2023-01-02T14:00:00,1676A,116.7258,23.2775,汕头市,濠江子站,,25,20,27,10,21,91,79,58,58,12,20,8,9,0.5,0.5
2023-01-02T14:00:00,1677A,116.7519,23.4714,汕头市,澄海子站,,25,19,37,16,32,91,80,44,39,12,25,5,6,0.6,0.7
2023-01-02T14:00:00,1678A,116.6092,23.2539,汕头市,潮阳子站,,25,24,37,7,24,82,78,49,42,8,17,7,7,0.4,0.5
2023-01-02T14:00:00,1680A,110.3539,21.2706,湛江市,湛江影剧院,细颗粒物(PM2.5),63,60,70,45,54,108,86,87,65,10,23,11,20,0.7,0.8
2023-01-02T14:00:00,1681A,110.3928,21.2228,湛江市,市环境监测站,细颗粒物(PM2.5),65,58,68,47,52,98,83,80,64,16,25,16,17,0.7,0.7
2023-01-02T14:00:00,1682A,110.4019,21.1997,湛江市,环保局宿舍,细颗粒物(PM2.5),60,55,65,43,51,92,84,88,63,16,25,11,13,0.8,0.8
2023-01-02T14:00:00,1683A,110.4111,21.2028,湛江市,霞山游泳场,细颗粒物(PM2.5),64,65,68,46,52,102,83,83,64,17,23,15,16,0.7,0.7
2023-01-02T14:00:00,1684A,110.3316,21.2679,湛江市,麻章区环保局,细颗粒物(PM2.5),65,67,76,47,60,104,84,83,60,15,25,13,18,0.7,0.8
2023-01-02T14:00:00,1685A,110.4558,21.2567,湛江市,坡头区环保局,细颗粒物(PM2.5),70,61,60,51,56,101,82,86,65,18,20,14,20,0.9,0.9
2023-01-02T14:00:00,1686A,111.0286,21.4688,茂名市,电白南海,"颗粒物(PM10),细颗粒物(PM2.5)",62,73,64,44,37,101,93,67,67,12,21,12,13,0.6,0.7
2023-01-02T14:00:00,1687A,110.9294,21.6533,茂名市,茂石化七小,,49,46,58,34,44,120,86,70,70,10,21,12,17,0.8,1
2023-01-02T14:00:00,1688A,110.9107,21.6687,茂名市,健康路,,46,46,58,30,34,125,88,72,72,11,20,14,21,0.9,1
2023-01-02T14:00:00,1689A,110.8592,21.6828,茂名市,高岭,细颗粒物(PM2.5),58,61,61,41,46,117,82,68,68,16,23,24,22,0.8,1
2023-01-02T14:00:00,1690A,116.1231,24.3284,梅州市,梅江月梅,,43,40,40,30,33,62,42,20,20,23,29,6,5,0.6,0.6
2023-01-02T14:00:00,1691A,116.0797,24.2719,梅州市,梅县新城,,,,49,29,34,52,52,25,25,20,32,6,7,0.7,0.8
2023-01-02T14:00:00,1692A,116.1248,24.2654,梅州市,环境监控中心,,43,36,39,30,33,64,48,22,22,21,28,9,10,0.6,0.7
2023-01-02T14:00:00,1693A,115.3653,22.775,汕尾市,市环保局,,34,34,42,14,31,78,78,54,54,6,13,8,8,0.6,0.7
2023-01-02T14:00:00,1694A,115.3706,22.7898,汕尾市,市政府,,28,28,36,18,30,84,84,57,57,8,15,8,8,0.6,0.7
2023-01-02T14:00:00,1695A,115.3622,22.7925,汕尾市,新城中学,,39,39,47,16,30,82,82,57,57,5,12,10,9,0.5,0.7
2023-01-02T14:00:00,1696A,114.6778,23.7569,河源市,源西(对照点),,40,31,40,28,30,77,71,51,51,7,20,5,5,0.7,0.8
2023-01-02T14:00:00,1697A,114.6944,23.7586,河源市,东埔,颗粒物(PM10),51,51,43,29,31,78,71,49,49,9,16,6,6,0.8,0.9
2023-01-02T14:00:00,1698A,114.6892,23.7233,河源市,老城,"颗粒物(PM10),细颗粒物(PM2.5)",52,53,48,36,34,78,71,49,49,9,17,6,6,0.7,0.8
2023-01-02T14:00:00,1699A,111.9797,21.8593,阳江市,鸳鸯湖(对照点),,42,35,39,29,34,84,69,64,58,16,19,6,7,0.6,0.6
2023-01-02T14:00:00,1701A,111.9491,21.8658,阳江市,马南垌,,40,40,41,28,29,84,72,60,59,17,26,6,6,0.6,0.6
2023-01-02T14:00:00,1702A,113.0426,23.691,清远市,环保大楼(对照点),,43,33,32,30,28,98,85,61,58,2,7,4,4,0.7,0.7
2023-01-02T14:00:00,1703A,113.0208,23.7106,清远市,凤城街办,,42,39,37,29,27,83,71,56,50,4,7,7,7,0.6,0.6
2023-01-02T14:00:00,1705A,116.6367,23.6719,潮州市,西园路(对照点),,40,36,46,28,42,69,66,42,42,16,21,9,7,0.7,0.8
2023-01-02T14:00:00,1706A,116.6447,23.6706,潮州市,档案局,,50,50,49,32,40,69,63,46,46,16,22,8,7,0.7,0.9
2023-01-02T14:00:00,1708A,116.3701,23.5345,揭阳市,新兴,,43,43,57,20,46,82,82,44,44,9,28,11,8,0.4,0.7
2023-01-02T14:00:00,1709A,116.3264,23.5443,揭阳市,西马,,45,45,63,26,41,90,86,47,47,10,28,10,9,0.6,0.8
2023-01-02T14:00:00,1710A,116.3611,23.5626,揭阳市,东兴,,39,39,71,17,44,85,81,42,42,8,37,8,7,0.6,1
2023-01-02T14:00:00,1711A,116.4151,23.5294,揭阳市,渔湖,,37,37,62,20,39,82,82,43,39,13,30,11,11,0.6,0.8
2023-01-02T14:00:00,1712A,112.0392,22.9169,云浮市,新市府(对照点),,45,41,32,31,28,97,77,62,62,15,16,26,16,0.6,0.6
2023-01-02T14:00:00,1714A,112.0539,22.9539,云浮市,牧羊,,49,47,37,34,27,84,70,62,62,14,25,28,23,0.6,0.6
2023-01-02T14:00:00,1715A,102.575,24.3711,玉溪市,东风水库,,23,23,24,12,16,63,63,28,28,7,13,6,5,0.5,0.6
2023-01-02T14:00:00,1718A,115.4208,35.2464,菏泽市,气象局,细颗粒物(PM2.5),193,194,240,145,183,88,65,31,31,56,72,19,20,1.3,1.5
2023-01-02T14:00:00,1719A,115.4747,35.2375,菏泽市,市政协,细颗粒物(PM2.5),201,210,233,151,177,86,61,30,30,67,77,23,22,1.4,1.5
2023-01-02T14:00:00,1721A,113.3819,40.1097,大同市,果树场(对照点),,,,,,,,,,,,,,,,
2023-01-02T14:00:00,1723A,113.2994,40.0758,大同市,云冈宾馆,,46,46,57,23,28,71,55,27,26,20,37,30,25,0.6,0.9
2023-01-02T14:00:00,1724A,113.3444,40.0917,大同市,大同大学,,,,46,,18,68,54,37,37,18,23,23,27,,1
2023-01-02T14:00:00,1725A,113.2661,40.1269,大同市,安家小村,,37,37,60,16,21,74,58,30,30,18,33,30,25,0.5,1
2023-01-02T14:00:00,1726A,113.2711,40.0844,大同市,教育学院,,45,45,59,18,34,64,50,22,22,20,35,27,31,0.6,0.9
2023-01-02T14:00:00,1727A,113.1147,36.1547,长治市,清华站,细颗粒物(PM2.5),147,176,128,112,100,88,63,47,47,63,48,31,22,1.5,1.3
2023-01-02T14:00:00,1728A,113.1031,36.1989,长治市,监测站,细颗粒物(PM2.5),128,125,118,97,105,75,66,31,31,42,49,34,27,1.5,1.6
2023-01-02T14:00:00,1730A,113.0886,36.2125,长治市,审计局,细颗粒物(PM2.5),147,127,125,112,118,71,68,35,26,33,45,27,22,1.6,1.7
2023-01-02T14:00:00,1731A,113.0844,36.1856,长治市,长治八中,细颗粒物(PM2.5),119,131,131,90,97,80,72,38,32,34,40,28,20,1.5,1.5
2023-01-02T14:00:00,1733A,111.5531,36.0783,临汾市,临钢医院,细颗粒物(PM2.5),203,208,195,153,129,60,60,23,23,51,57,27,25,3.0,2.6
2023-01-02T14:00:00,1734A,111.5028,36.0714,临汾市,技工学校,细颗粒物(PM2.5),221,250,218,171,145,55,55,20,20,64,69,32,35,2.7,2.4
2023-01-02T14:00:00,1736A,111.5018,36.0855,临汾市,市委,,,,206,,136,48,43,14,14,56,60,,31,2.8,2.8
2023-01-02T14:00:00,1738A,113.5758,37.8572,阳泉市,市中心,细颗粒物(PM2.5),134,153,119,102,64,45,45,17,17,78,72,50,31,2.0,1.3
2023-01-02T14:00:00,1739A,113.4894,37.8731,阳泉市,赛鱼,细颗粒物(PM2.5),160,172,110,122,73,51,50,20,20,61,62,30,21,2.0,1.3
2023-01-02T14:00:00,1740A,113.5819,37.8486,阳泉市,南庄,细颗粒物(PM2.5),133,191,139,101,72,47,47,18,18,78,75,50,33,2.0,1.6
2023-01-02T14:00:00,1742A,113.5614,37.8703,阳泉市,平坦,细颗粒物(PM2.5),180,162,125,136,75,54,54,19,19,60,72,40,33,2.0,1.5
2023-01-02T14:00:00,1743A,113.5158,37.8392,阳泉市,大阳泉,细颗粒物(PM2.5),120,141,105,91,72,57,49,42,42,55,56,34,24,2.0,1.4
2023-01-02T14:00:00,1744A,118.9233,42.2816,赤峰市,松山一中,颗粒物(PM10),73,96,32,15,14,72,71,50,41,12,29,9,16,0.3,0.8
2023-01-02T14:00:00,1745A,118.9576,42.2728,赤峰市,哈达街,,22,15,19,2,10,69,69,58,50,12,16,9,13,0.4,0.5
2023-01-02T14:00:00,1746A,118.8788,42.2554,赤峰市,天义路,,23,19,21,8,9,73,72,58,54,10,19,13,15,0.3,0.5
2023-01-02T14:00:00,1748A,123.044,41.1196,鞍山市,深沟寺,,42,42,35,22,17,65,47,50,49,31,19,39,18,2.2,0.8
2023-01-02T14:00:00,1749A,123.011,41.0931,鞍山市,太阳城,,37,37,37,19,18,59,58,48,48,17,20,22,17,0.6,0.8
2023-01-02T14:00:00,1750A,123.0485,41.1442,鞍山市,太平,,39,28,70,27,37,57,54,38,38,16,32,15,16,0.8,1.3
2023-01-02T14:00:00,1751A,122.9642,41.0971,鞍山市,铁西三道街,,32,32,70,16,36,62,62,38,38,13,32,12,22,0.5,1.2
2023-01-02T14:00:00,1752A,122.9341,41.0833,鞍山市,铁西工业园区,,20,15,77,11,49,63,61,39,39,15,44,10,23,0.5,1.5
2023-01-02T14:00:00,1753A,123.022,41.0821,鞍山市,明达新区,,38,38,41,17,20,48,46,39,34,20,25,23,17,0.8,0.9
2023-01-02T14:00:00,1754A,123.1289,41.0228,鞍山市,千山(对照点),,,,,,,,,,,,,,,,
2023-01-02T14:00:00,1755A,123.7977,41.8491,抚顺市,望花区,颗粒物(PM10),52,54,90,20,50,66,48,26,26,27,35,12,5,0.6,1
2023-01-02T14:00:00,1756A,123.9161,41.8822,抚顺市,顺城区,,45,45,108,19,67,64,38,20,20,38,40,16,7,0.8,1.4
2023-01-02T14:00:00,1757A,124.0436,41.8611,抚顺市,东洲区,,43,43,97,15,58,65,48,26,26,22,31,15,6,0.5,0.9
2023-01-02T14:00:00,1758A,123.9247,41.8642,抚顺市,新抚区,颗粒物(PM10),53,56,114,26,65,72,50,33,33,35,35,18,6,0.8,1.1
2023-01-02T14:00:00,1759A,124.0972,41.8961,抚顺市,大伙房水库,,49,49,60,13,33,70,50,36,36,26,20,16,6,0.7,0.7
2023-01-02T14:00:00,1760A,123.7086,41.8391,抚顺市,沈抚新城,,40,40,76,14,42,82,66,42,42,22,33,9,8,0.4,0.7
2023-01-02T14:00:00,1761A,123.8275,41.3064,本溪市,大峪,,48,48,62,19,23,53,47,23,23,22,32,23,13,1.2,1
2023-01-02T14:00:00,1762A,123.7567,41.3325,本溪市,溪湖,,41,41,60,10,31,60,60,31,31,10,32,6,12,0.6,1
2023-01-02T14:00:00,1763A,123.7169,41.3094,本溪市,彩屯,,42,42,70,8,39,60,60,34,34,13,34,9,11,0.5,1.1
2023-01-02T14:00:00,1764A,123.7669,41.2864,本溪市,东明,颗粒物(PM10),55,60,80,24,38,59,47,26,26,34,41,30,18,1.6,1.2
2023-01-02T14:00:00,1765A,123.7992,41.2664,本溪市,新立屯,细颗粒物(PM2.5),57,60,51,40,28,59,41,32,32,41,42,38,16,2.5,1.3
2023-01-02T14:00:00,1766A,123.8142,41.3472,本溪市,威宁,,42,42,77,18,42,52,50,24,24,17,34,13,7,0.7,1
2023-01-02T14:00:00,1767A,121.1115,41.0879,锦州市,南山,,43,43,80,22,79,76,76,42,42,13,44,30,28,0.9,1.6
2023-01-02T14:00:00,1768A,121.0533,40.8434,锦州市,开发区,颗粒物(PM10),70,90,127,30,74,75,42,29,29,48,52,92,56,0.7,1
2023-01-02T14:00:00,1769A,121.1836,41.1119,锦州市,百股街道,,34,34,66,17,58,74,74,40,40,14,41,15,22,0.7,1.3
2023-01-02T14:00:00,1770A,121.1178,41.1222,锦州市,天安街道,,31,31,90,17,57,71,71,41,41,10,40,17,36,0.5,1.1
2023-01-02T14:00:00,1771A,121.1303,41.1386,锦州市,北湖公园,,34,34,60,12,39,75,75,53,43,9,32,16,27,0.5,1
2023-01-02T14:00:00,1772A,126.54,43.8622,吉林市,哈达湾,,24,24,47,9,22,68,68,49,49,4,16,8,12,0.6,0.7
2023-01-02T14:00:00,1773A,126.5844,43.8358,吉林市,东局子,,21,21,47,9,21,61,61,43,43,12,21,8,11,0.4,0.7
2023-01-02T14:00:00,1774A,126.5052,43.8245,吉林市,电力学院,,22,20,60,10,31,69,69,47,47,4,27,6,13,0.7,1.2
2023-01-02T14:00:00,1775A,126.6133,43.8972,吉林市,江北,,21,19,44,10,23,67,67,46,46,6,20,9,14,0.4,0.6
2023-01-02T14:00:00,1776A,126.555,43.8306,吉林市,江南公园,,25,25,43,12,22,64,64,47,47,9,19,10,11,0.5,0.7
2023-01-02T14:00:00,1778A,126.7061,43.7133,吉林市,丰满(对照点),,,,,,,,,,,,,,,,
2023-01-02T14:00:00,1779A,123.9305,47.3636,齐齐哈尔市,安居小区,,26,26,23,6,12,59,59,51,51,5,7,5,7,0.4,0.4
2023-01-02T14:00:00,1780A,123.9488,47.3386,齐齐哈尔市,中心广场,,20,6,14,2,6,63,61,60,55,6,5,4,5,0.2,0.1
2023-01-02T14:00:00,1781A,123.9483,47.3227,齐齐哈尔市,农牧车辆厂,,20,19,20,6,11,63,61,59,48,13,12,6,8,0.3,0.4
2023-01-02T14:00:00,1783A,123.945,47.2988,齐齐哈尔市,市环境监测站,,26,23,23,18,19,63,62,55,49,8,11,4,7,0.3,0.3
2023-01-02T14:00:00,1784A,129.61,44.561,牡丹江市,环保大楼,,26,26,28,8,18,67,67,62,58,5,10,3,5,0.3,0.3
2023-01-02T14:00:00,1785A,129.6115,44.5782,牡丹江市,文化广场,,28,15,28,19,24,65,65,54,50,4,10,3,5,0.3,0.3
2023-01-02T14:00:00,1786A,129.5904,44.5963,牡丹江市,第一医院,,22,22,29,10,24,68,68,60,54,5,10,3,4,0.4,0.5
2023-01-02T14:00:00,1787A,129.6364,44.6075,牡丹江市,机车工厂,,33,33,35,19,18,74,74,62,53,5,14,1,2,0.3,0.4
2023-01-02T14:00:00,1788A,129.6386,44.5462,牡丹江市,第一中学,,25,25,25,17,20,68,68,57,57,5,10,2,4,0.3,0.3
2023-01-02T14:00:00,1789A,124.81117,46.03138,大庆市,大同区,,20,18,29,11,20,64,64,50,45,5,11,4,6,0.4,0.5
2023-01-02T14:00:00,1790A,125.129,46.533,大庆市,龙凤区,,21,21,29,11,16,55,55,44,39,12,20,11,13,0.4,0.4
2023-01-02T14:00:00,1791A,124.902,46.408,大庆市,红岗区,,,7,20,11,12,63,62,55,50,5,10,,6,0.1,0.2
2023-01-02T14:00:00,1792A,125.153,46.586,大庆市,萨尔图区,,20,8,23,14,16,59,59,49,43,11,21,7,8,0.4,0.4
2023-01-02T14:00:00,1793A,124.9042,46.6215,大庆市,让胡路区,,21,14,25,9,21,66,66,57,52,5,9,8,7,0.2,0.3
2023-01-02T14:00:00,1794A,118.3606,31.3519,芜湖市,监测站,细颗粒物(PM2.5),179,156,135,135,113,72,72,39,39,52,71,9,8,1.0,1.1
2023-01-02T14:00:00,1795A,118.3714,31.4134,芜湖市,科创中心,细颗粒物(PM2.5),182,145,146,137,118,78,78,37,37,,69,,10,1.3,1.4
2023-01-02T14:00:00,1796A,118.3673,31.3131,芜湖市,四水厂,细颗粒物(PM2.5),176,168,145,133,108,78,78,42,42,52,67,11,10,1.2,1.2
2023-01-02T14:00:00,1798A,118.5092,31.6837,马鞍山市,湖东路四小,细颗粒物(PM2.5),148,107,88,113,100,73,69,48,43,37,57,11,11,1.0,1.1
2023-01-02T14:00:00,1799A,118.5024,31.6449,马鞍山市,开发区,细颗粒物(PM2.5),129,100,92,98,101,82,82,47,47,28,58,11,10,1.1,1.3
2023-01-02T14:00:00,1800A,118.5228,31.7231,马鞍山市,慈湖,细颗粒物(PM2.5),153,140,100,117,100,66,66,56,45,41,49,18,14,1.1,1.2
2023-01-02T14:00:00,1802A,118.6245,31.7241,马鞍山市,濮塘(对照点),细颗粒物(PM2.5),94,118,118,70,75,86,86,56,52,21,42,9,9,0.8,1
2023-01-02T14:00:00,1803A,115.9872,29.6815,九江市,十里,细颗粒物(PM2.5),60,63,69,43,51,68,65,60,60,28,33,8,9,0.8,0.8
2023-01-02T14:00:00,1804A,115.9584,29.7046,九江市,茅山头,细颗粒物(PM2.5),65,55,67,47,54,66,61,60,59,30,38,9,11,0.9,0.8
2023-01-02T14:00:00,1805A,115.9877,29.7295,九江市,西园,细颗粒物(PM2.5),65,52,63,47,60,55,53,52,49,29,35,7,8,1.0,0.9
2023-01-02T14:00:00,1806A,116.0172,29.6547,九江市,五七二七厂,细颗粒物(PM2.5),74,70,75,54,54,60,57,54,50,28,30,7,7,0.9,0.9
2023-01-02T14:00:00,1808A,115.9114,29.6038,九江市,综合工业园,细颗粒物(PM2.5),77,53,66,56,63,60,47,50,46,40,41,8,9,0.8,0.8
2023-01-02T14:00:00,1809A,116.0721,29.7535,九江市,石化总厂,细颗粒物(PM2.5),59,61,74,42,50,62,59,55,55,37,41,9,10,0.9,0.9
2023-01-02T14:00:00,1810A,115.9773,29.5698,九江市,庐山气象台(对照点),,23,6,21,11,21,75,72,71,69,15,20,5,6,0.4,0.4
2023-01-02T14:00:00,1812A,112.3931,34.6516,洛阳市,市委党校,细颗粒物(PM2.5),188,203,210,141,149,70,53,16,16,61,70,26,25,1.3,1.4
2023-01-02T14:00:00,1814A,112.4657,34.6871,洛阳市,豫西宾馆,细颗粒物(PM2.5),186,210,208,140,150,66,62,22,22,50,68,24,18,1.2,1.5
2023-01-02T14:00:00,1815A,112.494,34.6886,洛阳市,河南林校,细颗粒物(PM2.5),201,189,201,151,152,75,55,25,25,61,70,19,12,1.3,1.5
2023-01-02T14:00:00,1816A,112.3844,34.623,洛阳市,开发区管委会,细颗粒物(PM2.5),179,175,190,135,148,76,76,27,27,48,66,21,16,1.0,1.2
2023-01-02T14:00:00,1817A,112.4267,34.6258,洛阳市,市委新办公区,细颗粒物(PM2.5),209,202,218,159,171,68,61,25,25,57,67,21,14,1.4,1.6
2023-01-02T14:00:00,1818A,114.4839,36.0621,安阳市,棉研所(对照点),,,,,,,,,,,,,,,,
2023-01-02T14:00:00,1819A,114.3551,36.1017,安阳市,红庙街,细颗粒物(PM2.5),132,131,171,100,134,65,39,21,21,64,85,16,17,1.3,1.7
2023-01-02T14:00:00,1820A,114.361,36.0681,安阳市,银杏小区,细颗粒物(PM2.5),149,118,162,114,146,69,44,21,21,60,81,19,20,1.3,1.6
2023-01-02T14:00:00,1824A,114.3389,34.7781,开封市,肿瘤医院,细颗粒物(PM2.5),208,226,242,158,168,86,55,25,25,57,60,23,18,1.7,1.7
2023-01-02T14:00:00,1826A,114.2885,34.7965,开封市,世纪星幼儿园,细颗粒物(PM2.5),223,197,200,173,173,90,54,28,28,66,65,27,19,1.4,1.4
2023-01-02T14:00:00,1828A,113.227,35.2125,焦作市,市环保局,细颗粒物(PM2.5),188,177,168,141,127,55,52,28,22,50,50,26,23,1.6,1.7
2023-01-02T14:00:00,1830A,113.1992,35.2590,焦作市,影视城(对照点),,,,,,,,,,,,,,,,
2023-01-02T14:00:00,1832A,113.3257,33.742,平顶山市,新华旅馆,细颗粒物(PM2.5),226,254,252,176,160,97,97,52,48,38,52,20,19,1.1,1.1
2023-01-02T14:00:00,1833A,113.2919,33.737,平顶山市,规划设计院,细颗粒物(PM2.5),247,233,220,197,187,92,92,59,49,42,49,15,14,0.9,0.9
2023-01-02T14:00:00,1834A,113.182,33.774,平顶山市,平顶山工学院,,,,238,,202,36,,40,,,62,,15,,1.4
2023-01-02T14:00:00,1835A,111.1922,34.7752,三门峡市,市政府,细颗粒物(PM2.5),243,181,182,193,178,59,59,18,18,52,67,21,17,1.6,1.9
2023-01-02T14:00:00,1836A,111.1587,34.7942,三门峡市,开发区,细颗粒物(PM2.5),241,248,235,191,182,69,69,21,21,39,53,38,11,1.7,1.8
2023-01-02T14:00:00,1838A,111.143,34.7955,三门峡市,风景区(对照点),,,,,,,,,,,,,,,,
2023-01-02T14:00:00,1840A,111.2992,30.6981,宜昌市,白龙岗,细颗粒物(PM2.5),94,73,108,70,102,75,75,33,33,20,29,5,5,0.7,1
2023-01-02T14:00:00,1841A,111.3549,30.6465,宜昌市,伍家岗,细颗粒物(PM2.5),83,79,128,61,121,66,66,36,22,24,38,4,4,0.8,1.1
2023-01-02T14:00:00,1842A,111.2628,30.6961,宜昌市,点军区,细颗粒物(PM2.5),70,64,126,51,112,71,71,25,25,19,23,5,5,0.6,0.9
2023-01-02T14:00:00,1843A,111.3275,30.7819,宜昌市,夷陵区,细颗粒物(PM2.5),98,64,108,73,117,71,71,30,30,19,28,5,5,0.6,0.9
2023-01-02T14:00:00,1844A,112.2494,30.3197,荆州市,市图书馆,细颗粒物(PM2.5),155,109,84,118,90,102,102,70,70,22,27,8,6,0.8,0.7
2023-01-02T14:00:00,1845A,112.2008,30.3544,荆州市,市委党校,细颗粒物(PM2.5),156,117,84,119,89,104,104,75,75,18,23,8,6,0.9,0.8
2023-01-02T14:00:00,1847A,113.1094,29.3578,岳阳市,南湖风景区,细颗粒物(PM2.5),135,114,112,103,101,74,63,67,42,29,36,12,10,1.0,1
2023-01-02T14:00:00,1848A,113.1493,29.4251,岳阳市,城陵矶,细颗粒物(PM2.5),170,114,118,129,104,67,55,64,39,36,46,10,13,1.0,1.1
2023-01-02T14:00:00,1849A,113.1497,29.3575,岳阳市,开发区,细颗粒物(PM2.5),159,118,125,121,126,60,50,56,34,32,35,15,10,1.2,1.2
2023-01-02T14:00:00,1850A,113.2621,29.4758,岳阳市,云溪区,细颗粒物(PM2.5),156,113,141,119,153,59,59,47,33,33,39,9,9,0.8,1.1
2023-01-02T14:00:00,1851A,112.9943,29.4402,岳阳市,君山区,细颗粒物(PM2.5),133,106,112,101,106,71,65,61,50,23,27,8,7,0.9,0.9
2023-01-02T14:00:00,1852A,113.2117,29.355,岳阳市,金凤水库(对照点),细颗粒物(PM2.5),137,115,135,104,111,50,50,44,32,32,36,9,8,0.9,1
2023-01-02T14:00:00,1854A,111.6975,28.9703,常德市,市二中,细颗粒物(PM2.5),139,108,102,106,98,65,53,52,52,21,22,4,4,0.7,0.7
2023-01-02T14:00:00,1857A,111.7158,29.1456,常德市,白鹤山(对照点),细颗粒物(PM2.5),115,66,62,87,72,74,68,69,54,12,10,4,3,0.6,0.6
2023-01-02T14:00:00,1858A,110.5319,29.1217,张家界市,永定新区,细颗粒物(PM2.5),95,79,64,71,55,63,50,52,44,28,20,4,4,1.0,0.9
2023-01-02T14:00:00,1859A,110.4697,29.1242,张家界市,电业局,细颗粒物(PM2.5),79,57,47,58,48,68,53,58,47,21,16,4,4,0.7,0.6
2023-01-02T14:00:00,1860A,110.5594,29.3547,张家界市,未央路,细颗粒物(PM2.5),73,67,52,53,43,71,71,55,55,7,6,2,2,0.5,0.5
2023-01-02T14:00:00,1861A,110.4417,29.315,张家界市,袁家界(对照点),,45,38,28,31,24,85,84,83,82,5,5,9,8,0.5,0.6
2023-01-02T14:00:00,1862A,110.4144,25.3167,桂林市,电子科大尧山校区(对照点),细颗粒物(PM2.5),75,51,56,55,55,95,87,72,67,5,5,6,5,0.9,0.9
2023-01-02T14:00:00,1863A,110.2819,25.2697,桂林市,监测站,细颗粒物(PM2.5),104,91,78,78,76,96,73,67,60,17,14,4,6,0.9,0.8
2023-01-02T14:00:00,1864A,110.3089,25.2708,桂林市,龙隐路小学,细颗粒物(PM2.5),100,81,69,75,70,94,76,66,61,12,12,7,9,0.9,0.8
2023-01-02T14:00:00,1865A,110.2869,25.2178,桂林市,八中,细颗粒物(PM2.5),100,91,67,75,72,94,68,62,55,16,13,6,6,0.7,0.7
2023-01-02T14:00:00,1866A,109.2262,21.588,北海市,牛尾岭水库(对照点),细颗粒物(PM2.5),75,66,66,55,59,95,66,63,55,13,17,9,10,0.5,0.6
2023-01-02T14:00:00,1867A,109.1436,21.4086,北海市,海滩公园,细颗粒物(PM2.5),74,70,74,54,55,115,79,96,73,11,12,7,9,0.8,0.8
2023-01-02T14:00:00,1868A,109.0981,21.4661,北海市,新市环保局,细颗粒物(PM2.5),83,79,71,61,65,113,79,91,71,13,18,6,8,0.7,0.9
2023-01-02T14:00:00,1869A,109.1778,21.5233,北海市,北海工业园,细颗粒物(PM2.5),85,82,79,63,63,105,76,85,66,18,22,7,9,0.7,0.7
2023-01-02T14:00:00,1870A,109.4856,24.3895,柳州市,柳东小学,细颗粒物(PM2.5),133,82,72,101,73,102,47,68,44,8,12,5,7,0.9,0.8
2023-01-02T14:00:00,1871A,109.4157,24.3277,柳州市,环保监测站,细颗粒物(PM2.5),89,76,74,66,63,100,50,65,44,12,14,5,7,0.7,0.8
2023-01-02T14:00:00,1872A,109.389,24.341,柳州市,河西水厂,细颗粒物(PM2.5),97,54,84,72,70,101,44,52,38,18,22,10,10,1.1,1
2023-01-02T14:00:00,1873A,109.4311,24.2921,柳州市,市四中,细颗粒物(PM2.5),67,69,72,48,57,104,51,72,45,11,20,7,10,0.9,1
2023-01-02T14:00:00,1874A,109.4006,24.3631,柳州市,市九中,细颗粒物(PM2.5),73,46,71,53,65,92,49,49,40,11,21,7,9,0.8,0.8
2023-01-02T14:00:00,1875A,109.4958,24.3134,柳州市,古亭山,细颗粒物(PM2.5),83,82,64,61,59,104,45,68,48,8,13,9,10,0.9,0.8
2023-01-02T14:00:00,1876A,109.5078,18.2489,三亚市,河东子站,,,,25,3,14,96,96,65,64,6,14,3,3,0.5,0.6
2023-01-02T14:00:00,1877A,109.4964,18.2681,三亚市,河西子站,,28,5,21,3,13,89,89,60,60,7,14,3,3,0.5,0.6
2023-01-02T14:00:00,1878A,104.7778,31.4741,绵阳市,富乐山,细颗粒物(PM2.5),90,72,80,67,70,49,49,14,14,30,33,2,3,0.9,1
2023-01-02T14:00:00,1879A,104.7563,31.4535,绵阳市,市人大,细颗粒物(PM2.5),89,83,104,66,82,42,42,10,10,32,39,5,4,0.6,0.8
2023-01-02T14:00:00,1880A,104.6697,31.4668,绵阳市,高新区自来水公司,细颗粒物(PM2.5),138,119,105,105,81,40,40,9,9,35,31,5,5,0.8,1
2023-01-02T14:00:00,1881A,104.7287,31.5075,绵阳市,三水厂,细颗粒物(PM2.5),87,89,112,64,86,48,48,11,11,29,33,3,3,0.6,0.9
2023-01-02T14:00:00,1882A,104.563,28.793,宜宾市,石马中学(对照点),细颗粒物(PM2.5),83,78,65,61,51,40,36,28,20,13,15,5,5,0.7,0.7
2023-01-02T14:00:00,1883A,104.6201,28.7728,宜宾市,市委,细颗粒物(PM2.5),89,85,72,66,57,44,32,24,16,27,28,8,8,0.5,0.5
2023-01-02T14:00:00,1884A,104.6055,28.793,宜宾市,宜宾四中,细颗粒物(PM2.5),103,84,73,77,63,45,45,25,22,18,32,7,7,0.4,0.4
2023-01-02T14:00:00,1885A,104.639,28.7562,宜宾市,市政府,细颗粒物(PM2.5),104,81,68,78,60,39,30,26,14,31,32,8,7,0.6,0.6
2023-01-02T14:00:00,1886A,104.5742,28.7199,宜宾市,黄金嘴,细颗粒物(PM2.5),87,78,38,64,57,46,44,34,17,22,30,9,8,0.7,0.7
2023-01-02T14:00:00,1888A,101.6891,26.571,攀枝花市,弄弄坪,细颗粒物(PM2.5),65,68,64,47,47,63,59,21,21,41,34,22,20,1.6,1.7
2023-01-02T14:00:00,1889A,101.5769,26.5928,攀枝花市,河门口,,46,38,44,32,34,70,69,27,27,28,26,39,18,2.5,1.5
2023-01-02T14:00:00,1890A,101.7169,26.585,攀枝花市,炳草岗,细颗粒物(PM2.5),55,58,76,39,53,69,69,19,19,27,43,33,21,2.0,2.2
2023-01-02T14:00:00,1891A,101.7369,26.5008,攀枝花市,仁和,细颗粒物(PM2.5),102,127,78,76,51,94,94,33,33,40,28,62,25,2.5,2
2023-01-02T14:00:00,1893A,105.4324,28.9634,泸州市,九狮山(对照点),细颗粒物(PM2.5),57,59,67,40,46,36,36,14,14,10,12,10,7,0.3,0.5
2023-01-02T14:00:00,1894A,105.4427,28.9063,泸州市,小市上码头,细颗粒物(PM2.5),73,72,82,53,60,33,30,20,17,30,28,6,6,0.9,0.6
2023-01-02T14:00:00,1895A,105.4241,28.8573,泸州市,兰田宪桥,细颗粒物(PM2.5),79,71,76,58,61,34,31,22,22,22,26,8,8,0.7,0.7
2023-01-02T14:00:00,1896A,105.4379,28.8833,泸州市,市环监站,细颗粒物(PM2.5),67,69,79,48,55,32,29,19,19,26,27,4,4,0.6,0.7
2023-01-02T14:00:00,1901A,104.4239,31.1208,德阳市,东山公园,细颗粒物(PM2.5),104,93,79,78,69,54,37,13,13,44,32,4,3,1.0,0.9
2023-01-02T14:00:00,1902A,104.3826,31.1317,德阳市,西小区,细颗粒物(PM2.5),120,97,97,91,76,53,34,9,9,53,36,1,3,0.9,1
2023-01-02T14:00:00,1904A,104.3553,31.1091,德阳市,耐火材料厂,细颗粒物(PM2.5),127,113,106,96,74,57,46,12,12,35,28,3,4,0.9,0.9
2023-01-02T14:00:00,1905A,106.056,30.8064,南充市,西山风景区(对照点),细颗粒物(PM2.5),84,44,45,62,50,49,27,42,21,17,12,3,2,1.2,1
2023-01-02T14:00:00,1906A,106.0789,30.8023,南充市,南充市委,细颗粒物(PM2.5),88,97,69,65,52,44,26,19,14,19,25,5,4,0.8,0.8
2023-01-02T14:00:00,1907A,106.1031,30.8217,南充市,南充炼油厂,细颗粒物(PM2.5),84,75,68,62,51,51,22,28,13,30,23,6,6,0.8,0.6
2023-01-02T14:00:00,1908A,106.1064,30.7856,南充市,高坪区监测站,细颗粒物(PM2.5),84,81,73,62,58,51,28,30,14,31,29,9,13,0.7,0.7
2023-01-02T14:00:00,1909A,106.0642,30.7636,南充市,嘉陵区环保局,细颗粒物(PM2.5),79,90,69,58,47,37,32,16,15,29,34,6,6,1.0,1
2023-01-02T14:00:00,1910A,106.1087,30.8388,南充市,市环境监测站,细颗粒物(PM2.5),78,89,71,57,56,44,19,24,8,26,23,8,8,0.6,0.5
2023-01-02T14:00:00,1911A,106.9222,27.6869,遵义市,丁字口,,35,16,31,24,27,51,28,26,23,20,20,22,19,0.8,0.8
2023-01-02T14:00:00,1912A,106.9242,27.7019,遵义市,凤凰山,,25,23,30,17,14,46,24,24,18,17,18,5,6,0.7,0.7
2023-01-02T14:00:00,1913A,106.8906,27.6486,遵义市,忠庄,,28,19,31,19,26,47,27,26,18,14,16,2,2,0.4,0.5
2023-01-02T14:00:00,1914A,106.9231,27.6506,遵义市,舟水桥,,46,40,42,32,30,49,34,28,28,7,10,17,16,0.6,0.6
2023-01-02T14:00:00,1915A,106.9178,27.72,遵义市,干田坝,,21,21,27,14,21,40,22,21,13,19,19,16,9,0.9,0.8
2023-01-02T14:00:00,1916A,103.7897,25.5035,曲靖市,环境监测站,,32,31,29,22,23,60,29,16,16,9,18,7,4,0.7,0.7
2023-01-02T14:00:00,1917A,103.8,25.5364,曲靖市,烟厂办公区,,28,28,28,19,19,65,33,25,17,7,15,4,4,0.8,0.8
2023-01-02T14:00:00,1918A,108.7197,34.3956,咸阳市,气象站(对照点),细颗粒物(PM2.5),246,212,226,196,209,79,55,20,20,55,69,14,14,1.6,1.7
2023-01-02T14:00:00,1919A,108.673,34.3155,咸阳市,实验中学,细颗粒物(PM2.5),280,280,261,230,242,78,41,16,16,95,73,11,10,1.3,1.4
2023-01-02T14:00:00,1920A,108.7233,34.3617,咸阳市,师范学院,细颗粒物(PM2.5),263,224,238,213,221,88,51,24,24,61,57,11,11,1.2,1.2
2023-01-02T14:00:00,1922A,109.0656,35.0994,铜川市,党校(对照点),,33,29,100,23,50,87,87,47,47,29,60,17,18,0.8,1.3
2023-01-02T14:00:00,1923A,109.0697,35.0697,铜川市,王益区政府,细颗粒物(PM2.5),92,74,111,68,91,88,88,36,36,23,50,14,13,0.9,1.4
2023-01-02T14:00:00,1924A,108.9344,34.9058,铜川市,新区管委会,细颗粒物(PM2.5),124,116,113,94,93,109,109,62,62,24,45,20,19,0.9,1.1
2023-01-02T14:00:00,1926A,109.4131,36.6275,延安市,枣园(对照点),,43,41,62,30,49,85,85,32,32,22,43,11,6,0.4,0.6
2023-01-02T14:00:00,1927A,109.4761,36.6028,延安市,延大医附院,颗粒物(PM10),59,67,64,35,49,67,67,28,28,31,51,13,9,0.7,1.1
2023-01-02T14:00:00,1929A,109.5056,36.6106,延安市,百米大道,颗粒物(PM10),54,58,74,29,57,79,75,34,34,36,56,14,12,0.8,1.5
2023-01-02T14:00:00,1930A,107.185,34.3063,宝鸡市,庙沟村(对照点),细颗粒物(PM2.5),92,62,149,68,142,74,74,42,42,15,45,5,6,1.2,1.5
2023-01-02T14:00:00,1931A,107.0708,34.3017,宝鸡市,竹园沟,细颗粒物(PM2.5),79,70,139,58,143,98,86,38,38,16,32,5,5,0.7,1
2023-01-02T14:00:00,1932A,107.1906,34.3672,宝鸡市,三陆医院,细颗粒物(PM2.5),122,133,158,92,144,73,70,30,30,31,45,12,10,1.0,1.2
2023-01-02T14:00:00,1933A,107.1431,34.3547,宝鸡市,监测站,细颗粒物(PM2.5),114,92,153,86,151,76,66,30,30,34,49,6,6,1.0,1.3
2023-01-02T14:00:00,1934A,107.1186,34.3739,宝鸡市,技工学校,细颗粒物(PM2.5),107,106,137,80,142,74,64,33,33,37,42,5,6,1.0,1.1
2023-01-02T14:00:00,1935A,107.3906,34.3528,宝鸡市,陈仓区环保局家属楼,细颗粒物(PM2.5),113,113,181,85,168,73,73,42,42,25,55,16,50,0.9,1.9
2023-01-02T14:00:00,1936A,107.2058,34.3497,宝鸡市,文理学院,细颗粒物(PM2.5),108,122,160,81,144,82,74,32,32,28,46,12,10,1.0,1.2
2023-01-02T14:00:00,1937A,107.2386,34.3622,宝鸡市,三迪小学,细颗粒物(PM2.5),107,116,168,80,146,71,71,32,32,28,48,12,11,0.9,1.2
2023-01-02T14:00:00,1938A,109.5293,34.5101,渭南市,农科所(对照点),细颗粒物(PM2.5),279,256,243,229,194,67,65,23,23,47,63,10,12,1.8,2
2023-01-02T14:00:00,1939A,109.4974,34.4877,渭南市,日报社,细颗粒物(PM2.5),276,229,205,226,177,55,55,22,22,49,73,11,14,1.5,1.6
2023-01-02T14:00:00,1940A,109.4636,34.493,渭南市,体育馆,细颗粒物(PM2.5),276,244,212,226,194,54,54,23,20,48,69,9,11,1.5,1.6
2023-01-02T14:00:00,1941A,109.4259,34.5023,渭南市,高新一小,细颗粒物(PM2.5),270,248,252,220,221,63,63,21,18,46,71,12,13,1.4,1.9
2023-01-02T14:00:00,1943A,102.1725,38.5339,金昌市,新川苑,颗粒物(PM10),72,93,85,38,38,82,74,44,40,18,28,56,36,0.8,1
2023-01-02T14:00:00,1944A,102.1692,38.5167,金昌市,天庆家园,颗粒物(PM10),63,76,72,43,36,84,77,43,43,20,33,63,36,0.8,1
2023-01-02T14:00:00,1945A,98.2908,39.7711,嘉峪关市,气象局,颗粒物(PM10),70,90,51,48,27,83,60,31,31,36,43,66,14,1.5,0.5
2023-01-02T14:00:00,1947A,106.3394,38.817,石嘴山市,沙湖旅游区(对照点),细颗粒物(PM2.5),99,94,172,74,142,47,47,25,25,35,60,61,62,1.3,2.5
2023-01-02T14:00:00,1948A,106.3668,39.0145,石嘴山市,大武口朝阳西街,颗粒物(PM10),64,78,96,41,58,46,40,20,20,36,67,30,35,0.7,1
2023-01-02T14:00:00,1949A,106.7704,39.2282,石嘴山市,惠农南大街,,33,33,85,16,38,45,45,20,20,22,50,11,40,0.4,0.9
2023-01-02T14:00:00,1950A,106.7099,39.1325,石嘴山市,红果子镇惠新街,,46,46,88,17,40,50,50,25,25,21,46,25,40,0.5,1.2
2023-01-02T14:00:00,1951A,84.895,45.6094,克拉玛依市,长征新村,细颗粒物(PM2.5),123,137,134,93,93,56,48,27,27,45,58,16,16,1.1,1.1
2023-01-02T14:00:00,1952A,84.8988,45.5893,克拉玛依市,南林小区,细颗粒物(PM2.5),172,142,134,130,112,53,52,33,33,40,50,12,12,1.0,1
2023-01-02T14:00:00,1954A,84.905,44.3396,克拉玛依市,独山子区,颗粒物(PM10),95,140,211,57,162,72,49,58,56,52,70,8,8,1.2,1.2
2023-01-02T14:00:00,1955A,85.6979,46.098,克拉玛依市,乌尔禾区商贸楼,细颗粒物(PM2.5),138,135,141,105,122,68,64,57,57,37,47,6,8,1.0,1.2
2023-01-02T14:00:00,1956A,86.1472,41.7538,巴音郭楞州,孔雀公园,颗粒物(PM10),125,200,175,85,73,83,70,14,14,22,52,14,13,0.9,1
2023-01-02T14:00:00,1957A,86.1972,41.7166,巴音郭楞州,棉纺厂,颗粒物(PM10),137,223,221,86,81,84,56,18,18,43,58,12,8,0.8,1
2023-01-02T14:00:00,1958A,86.2357,41.7173,巴音郭楞州,经济开发区,颗粒物(PM10),117,184,146,76,56,89,68,46,40,40,34,15,11,0.8,0.8
2023-01-02T14:00:00,1961A,117.532,36.6868,济南市,东山小学,颗粒物(PM10),67,83,124,46,77,67,62,34,34,38,68,15,13,0.7,0.8
2023-01-02T14:00:00,1966A,120.0405,35.8735,青岛市,黄岛区4号,,42,41,90,29,64,67,65,28,28,32,53,11,13,0.5,0.8
2023-01-02T14:00:00,1982A,122.0693,37.2174,威海市,文登开发区,,,36,46,22,30,71,70,40,37,16,34,8,6,,1
2023-01-02T14:00:00,2031A,113.1817,27.9958,株洲市,云田中学,细颗粒物(PM2.5),130,114,150,99,140,58,42,34,34,33,41,5,6,1.0,1.2
2023-01-02T14:00:00,2054A,114.1099,32.1059,信阳市,平桥分局,细颗粒物(PM2.5),321,315,215,271,190,97,57,37,34,49,47,14,11,1.7,1.2
2023-01-02T14:00:00,2064A,113.9956,32.1271,信阳市,南湾水厂,细颗粒物(PM2.5),301,276,198,251,176,104,68,42,42,38,37,14,9,1.6,1.3
2023-01-02T14:00:00,2065A,114.0775,32.1195,信阳市,市酿酒公司,,,,190,,178,46,,40,,,49,,10,,1.3
2023-01-02T14:00:00,2066A,114.0609,32.1399,信阳市,审计局,细颗粒物(PM2.5),306,271,207,256,189,100,65,34,34,42,48,15,11,1.5,1.2
2023-01-02T14:00:00,2067A,114.6613,33.6128,周口市,市环境监测站,细颗粒物(PM2.5),195,196,235,146,203,112,90,59,51,22,35,10,12,1.0,1.3
2023-01-02T14:00:00,2068A,114.6758,33.6347,周口市,周口师范,细颗粒物(PM2.5),199,196,239,149,220,126,103,55,52,29,45,12,13,1.1,1.3
2023-01-02T14:00:00,2069A,114.6546,33.5979,周口市,市运管处,细颗粒物(PM2.5),202,179,231,152,205,122,95,66,58,28,39,10,13,1.3,1.5
2023-01-02T14:00:00,2070A,114.6369,33.6406,周口市,川汇区环保局,细颗粒物(PM2.5),213,171,234,163,224,113,92,47,47,31,52,12,12,1.3,1.4
2023-01-02T14:00:00,2075A,117.6336,24.4674,漳州市,九湖(对照点),,,,,,,,,,,,,,,,
2023-01-02T14:00:00,2160A,112.85,35.5051,晋城市,自来水公司,细颗粒物(PM2.5),149,143,140,114,112,119,90,39,39,45,54,23,18,0.8,1
2023-01-02T14:00:00,2161A,112.8318,35.4936,晋城市,白云商贸,细颗粒物(PM2.5),134,131,127,102,95,106,80,35,35,43,48,22,13,1.6,1.7
2023-01-02T14:00:00,2162A,112.8508,35.4887,晋城市,市环保局,细颗粒物(PM2.5),140,145,142,107,106,109,80,34,34,39,55,24,18,1.4,1.4
2023-01-02T14:00:00,2163A,112.8676,35.4897,晋城市,技术学院,,,,146,,111,101,,27,27,,73,,12,,1.6
2023-01-02T14:00:00,2165A,112.8453,35.546,晋城市,白马寺 (对照点),,,,,,,,,,,,,,,,
2023-01-02T14:00:00,2166A,112.4397,39.3522,朔州市,平朔,颗粒物(PM10),62,73,161,43,73,44,44,21,21,29,59,27,48,0.7,1.2
2023-01-02T14:00:00,2167A,112.4575,39.3617,朔州市,朔唯,"颗粒物(PM10),细颗粒物(PM2.5)",67,83,161,48,73,43,43,19,19,28,56,26,38,0.8,1
2023-01-02T14:00:00,2168A,112.4258,39.3197,朔州市,区政府,颗粒物(PM10),73,96,172,39,84,44,41,18,18,32,60,38,44,0.9,1.2
2023-01-02T14:00:00,2169A,112.4072,39.3278,朔州市,市环保局,细颗粒物(PM2.5),74,86,170,54,102,45,45,19,19,32,57,42,46,1.0,1.4
2023-01-02T14:00:00,2170A,112.4272,39.3681,朔州市,市二中,颗粒物(PM10),75,100,194,46,76,40,40,16,16,30,58,27,45,0.3,0.7
2023-01-02T14:00:00,2171A,112.7532,37.6945,晋中市,锦纶小区,细颗粒物(PM2.5),94,117,98,70,60,51,51,22,22,40,58,36,25,1.0,1
2023-01-02T14:00:00,2173A,112.7249,37.7067,晋中市,南都小区,颗粒物(PM10),71,92,107,47,51,50,50,24,24,37,61,32,25,1.0,1.1
2023-01-02T14:00:00,2174A,112.6991,37.6982,晋中市,榆次区政府,颗粒物(PM10),72,93,110,45,53,48,48,20,20,37,59,35,26,1.0,1.2
2023-01-02T14:00:00,2175A,110.9956,35.0147,运城市,运城中学,细颗粒物(PM2.5),234,255,214,184,174,70,70,37,26,42,46,22,20,2.1,2.6
2023-01-02T14:00:00,2178A,110.9686,35.0303,运城市,地区技校,细颗粒物(PM2.5),249,260,222,199,185,70,70,31,25,40,53,22,25,1.7,2.4
2023-01-02T14:00:00,2179A,111.0414,35.1147,运城市,空港新区,细颗粒物(PM2.5),248,266,256,198,198,79,79,33,33,38,55,18,21,1.3,2.4
2023-01-02T14:00:00,2181A,112.7383,38.4519,忻州市,开发区,细颗粒物(PM2.5),127,149,140,96,92,30,30,14,14,54,54,34,26,1.4,1.3
2023-01-02T14:00:00,2182A,112.7003,38.4928,忻州市,会展中心,细颗粒物(PM2.5),112,116,134,84,92,35,35,18,18,48,56,28,21,0.8,1.1
2023-01-02T14:00:00,2183A,111.1406,37.5211,吕梁市,环保局,颗粒物(PM10),77,104,112,48,45,24,24,10,10,57,59,21,11,0.9,0.8
2023-01-02T14:00:00,2185A,111.1297,37.5136,吕梁市,自来水公司,细颗粒物(PM2.5),75,98,128,55,46,24,24,11,11,53,55,18,18,1.0,0.8
2023-01-02T14:00:00,2187A,106.8174,39.6973,乌海市,市林业局,细颗粒物(PM2.5),108,117,87,81,56,60,43,31,19,47,41,72,30,1.6,1.3
2023-01-02T14:00:00,2188A,106.7907,39.6667,乌海市,中海勃湾学校,细颗粒物(PM2.5),94,116,74,70,46,65,45,22,22,44,38,78,24,1.6,0.9
2023-01-02T14:00:00,2191A,122.2532,43.6801,通辽市,艺术职业学校,,21,16,40,3,10,66,66,54,54,9,14,6,7,0.1,0.1
2023-01-02T14:00:00,2192A,119.7594,49.2261,呼伦贝尔市,区环保局,,20,20,21,9,16,62,62,60,57,6,8,5,5,0.3,0.3
2023-01-02T14:00:00,2195A,107.4212,40.761,巴彦淖尔市,附二中,,38,38,60,9,31,66,59,44,44,10,28,5,11,0.3,0.6
2023-01-02T14:00:00,2196A,107.37,40.7372,巴彦淖尔市,市环保大楼,,29,29,48,11,27,69,69,46,46,12,29,5,7,0.5,0.7
2023-01-02T14:00:00,2197A,113.1306,40.9923,乌兰察布市,集宁新区,,26,26,34,10,14,70,41,36,36,20,18,23,12,0.5,0.4
2023-01-02T14:00:00,2200A,122.0392,46.0656,兴安盟,胜华新制药厂,,35,17,20,24,14,69,69,61,61,12,14,3,5,0.2,0.2
2023-01-02T14:00:00,2201A,121.9504,46.0741,兴安盟,科右前旗环保局,,23,8,17,9,16,72,72,65,65,4,5,2,2,0.3,0.4
2023-01-02T14:00:00,2202A,116.1042,43.9317,锡林郭勒盟,市环保监测站,,21,11,15,5,9,67,67,62,62,2,5,9,9,0.3,0.3
2023-01-02T14:00:00,2203A,116.0781,43.9311,锡林郭勒盟,市政府,,21,8,16,7,8,67,67,61,61,3,7,11,9,0.2,0.2
2023-01-02T14:00:00,2204A,105.6467,38.8363,阿拉善盟,西城区西花园(对照点),细颗粒物(PM2.5),70,65,51,51,29,80,80,66,66,19,25,19,10,0.8,0.7
2023-01-02T14:00:00,2205A,105.6985,38.8411,阿拉善盟,蒙二幼,细颗粒物(PM2.5),79,58,33,58,35,80,80,62,62,17,21,21,13,0.6,0.5
2023-01-02T14:00:00,2206A,105.724,38.8516,阿拉善盟,环保局新楼,,,,30,,26,69,,69,,,13,,13,,0.5
2023-01-02T14:00:00,2207A,121.6094,41.998,阜新市,工业园区,,28,28,47,6,16,63,63,50,50,8,17,11,11,0.5,0.7
2023-01-02T14:00:00,2208A,121.6697,42.0279,阜新市,长青街,,28,28,37,6,13,61,61,50,50,6,12,8,7,0.6,0.7
2023-01-02T14:00:00,2209A,121.6673,42.0705,阜新市,农业园区,,31,31,29,7,9,64,64,54,54,4,7,9,9,0.8,0.8
2023-01-02T14:00:00,2210A,121.6717,42.0224,阜新市,东苑,,,36,32,9,13,68,68,57,57,,8,,8,0.9,0.9
2023-01-02T14:00:00,2211A,121.6506,42.0498,阜新市,玉龙新城,,37,37,40,15,25,64,64,50,50,5,18,6,9,0.4,0.6
2023-01-02T14:00:00,2212A,123.2,41.1953,辽阳市,宏伟区,,23,20,37,16,27,62,59,48,48,10,22,10,16,0.6,0.8
2023-01-02T14:00:00,2213A,123.1683,41.2495,辽阳市,新华园,,26,22,41,18,31,57,52,33,33,11,25,11,37,0.6,1.1
2023-01-02T14:00:00,2214A,123.2354,41.2639,辽阳市,滨河路,,,,44,,36,67,,29,29,,28,,8,,1
2023-01-02T14:00:00,2215A,123.149,41.2991,辽阳市,铁西工业园,,24,24,52,15,45,60,52,34,34,16,34,8,14,0.6,1.1
2023-01-02T14:00:00,2216A,123.8139,42.3022,铁岭市,汇工街西,,20,19,61,3,40,64,63,35,35,8,35,5,10,0.6,1.1
2023-01-02T14:00:00,2217A,123.8649,42.2923,铁岭市,水上乐园,,33,33,54,9,36,63,59,39,39,11,26,7,9,0.2,0.4
2023-01-02T14:00:00,2218A,123.8486,42.2867,铁岭市,银州路东段,,41,41,72,12,35,64,59,33,33,17,36,6,9,0.6,0.7
2023-01-02T14:00:00,2219A,123.7153,42.2217,铁岭市,金沙江路北,,22,22,68,14,55,61,61,36,36,12,40,7,9,0.6,1
2023-01-02T14:00:00,2220A,120.4318,41.5881,朝阳市,西梁,,33,33,56,12,30,61,59,39,31,15,27,21,22,0.3,0.6
2023-01-02T14:00:00,2221A,120.4521,41.5646,朝阳市,河畔小区,,,50,52,14,30,57,43,38,32,,19,30,16,1.4,1
2023-01-02T14:00:00,2222A,120.4176,41.5648,朝阳市,八里堡,,26,26,57,13,28,63,57,31,31,18,29,25,18,0.8,0.9
2023-01-02T14:00:00,2223A,120.3806,41.5969,朝阳市,农业园区,,48,48,58,20,29,68,61,48,36,11,26,17,13,0.9,1
2023-01-02T14:00:00,2225A,124.4002,43.1713,四平市,一商场,,36,36,54,24,25,58,57,41,41,18,28,7,8,0.4,0.5
2023-01-02T14:00:00,2226A,124.388,43.193,四平市,境园,,46,46,60,23,21,60,60,39,37,14,18,6,8,0.3,0.4
2023-01-02T14:00:00,2227A,125.1358,42.8845,辽源市,环保局,,20,18,50,13,34,64,64,40,40,4,27,10,10,0.5,0.8
2023-01-02T14:00:00,2229A,125.9358,41.7173,通化市,光明,细颗粒物(PM2.5),78,95,66,57,42,61,61,27,27,10,37,14,24,0.5,0.7
2023-01-02T14:00:00,2230A,125.9446,41.7325,通化市,铁路,,30,30,72,7,41,64,61,29,29,10,35,14,22,0.6,1.1
2023-01-02T14:00:00,2231A,126.4219,41.9171,白山市,喜丰,颗粒物(PM10),55,60,61,31,35,48,44,26,26,16,25,15,13,0.5,0.7
2023-01-02T14:00:00,2232A,126.4077,41.9419,白山市,环保局,,,45,91,21,47,58,52,28,28,11,29,,17,0.8,1
2023-01-02T14:00:00,2233A,124.8006,45.1214,松原市,江南,,21,21,51,11,32,51,51,32,32,6,27,6,14,0.4,0.8
2023-01-02T14:00:00,2234A,124.7965,45.1722,松原市,江北,,21,21,52,2,23,56,55,36,36,8,28,4,4,0.3,0.6
2023-01-02T14:00:00,2235A,122.7911,45.6077,白城市,洮北区环保局,,32,32,33,15,14,66,66,53,53,8,11,6,6,0.2,0.3
2023-01-02T14:00:00,2236A,122.8738,45.5725,白城市,市环保局,,28,28,30,14,10,68,68,48,48,8,14,4,4,0.2,0.3
2023-01-02T14:00:00,2237A,129.47,42.8883,延边朝鲜族自治州,妇幼医院,,26,26,31,7,9,64,62,58,57,8,11,8,16,0.5,0.5
2023-01-02T14:00:00,2238A,129.5055,42.9108,延边朝鲜族自治州,延边医院,,21,21,30,7,10,62,62,57,57,8,8,6,6,0.5,0.5
2023-01-02T14:00:00,2239A,129.3964,42.8881,延边朝鲜族自治州,朝阳川镇医院,,,24,30,5,8,63,63,58,58,,4,6,6,0.4,0.4
2023-01-02T14:00:00,2240A,130.9762,45.3001,鸡西市,环保局,,20,14,16,9,11,64,64,62,57,7,8,4,4,0.3,0.3
2023-01-02T14:00:00,2243A,130.9429,45.3039,鸡西市,第一中学,,21,10,16,6,9,67,67,60,60,1,2,3,4,0.5,0.5
2023-01-02T14:00:00,2244A,130.2537,47.3416,鹤岗市,哈啤分公司,,,14,20,10,16,63,,58,58,4,7,9,12,0.2,0.3
2023-01-02T14:00:00,2245A,130.2684,47.3086,鹤岗市,斯达机电,,21,18,24,10,16,75,66,67,61,5,8,6,7,0.1,0.2
2023-01-02T14:00:00,2246A,130.3114,47.3388,鹤岗市,东山纸板厂,,27,27,30,7,16,66,66,60,60,2,4,10,10,0.3,0.4
2023-01-02T14:00:00,2247A,130.1097,47.3382,鹤岗市,五号水库(对照点),,46,46,32,13,17,71,71,67,67,3,4,6,7,0.5,0.5
2023-01-02T14:00:00,2248A,131.1511,46.6937,双鸭山市,双合村,,22,12,12,12,8,70,69,68,68,4,5,6,6,0.6,0.6
2023-01-02T14:00:00,2249A,131.1652,46.6191,双鸭山市,南小市,,39,39,24,11,10,71,68,60,60,6,9,8,8,0.5,0.5
2023-01-02T14:00:00,2250A,131.1524,46.6554,双鸭山市,环保局,,22,7,20,15,17,72,70,70,64,6,7,4,4,0.4,0.4
2023-01-02T14:00:00,2251A,131.12,46.5656,双鸭山市,苗圃(对照点),,24,9,28,7,21,75,75,71,71,8,7,5,6,0.4,0.4
2023-01-02T14:00:00,2252A,128.5159,47.4311,伊春市,环保局,,21,14,20,5,11,66,65,56,56,5,7,7,6,0.5,0.5
2023-01-02T14:00:00,2253A,128.9102,47.7412,伊春市,电力嘉园,,21,16,18,7,14,67,66,62,62,5,5,8,6,0.5,0.5
2023-01-02T14:00:00,2254A,129.5029,48.471,伊春市,汤旺河国家公园(对照点),,25,20,19,7,8,81,79,68,68,2,2,8,6,0.2,0.2
2023-01-02T14:00:00,2255A,130.2751,46.8028,佳木斯市,佳纺,,30,24,24,21,19,60,59,53,53,6,8,4,3,0.4,0.4
2023-01-02T14:00:00,2256A,130.3995,46.8307,佳木斯市,发电厂,,19,16,12,12,11,62,59,56,56,9,7,5,3,0.3,0.2
2023-01-02T14:00:00,2257A,130.3258,46.7975,佳木斯市,环保局,,26,22,19,18,13,58,55,52,52,11,11,7,6,0.3,0.3
2023-01-02T14:00:00,2258A,130.3648,46.8032,佳木斯市,十一中,,26,19,21,18,12,59,55,55,55,13,11,3,4,0.4,0.3
2023-01-02T14:00:00,2259A,130.3794,46.7588,佳木斯市,四丰(对照点),,25,13,12,13,9,80,78,77,77,3,3,1,1,0.2,0.2
2023-01-02T14:00:00,2262A,131.0518,45.8751,七台河市,新一中(对照点),,24,15,15,7,13,74,74,64,64,6,6,12,12,0.8,1
2023-01-02T14:00:00,2263A,127.4833,50.2524,黑河市,交通局,,22,11,11,8,10,70,70,69,66,3,4,6,7,0.4,0.4
2023-01-02T14:00:00,2264A,127.5144,50.2341,黑河市,环保局,,21,11,11,9,13,67,65,66,64,4,4,8,7,0.3,0.3
2023-01-02T14:00:00,2265A,127.5291,50.2472,黑河市,大黑河岛(对照点),,27,27,8,6,7,70,60,69,66,2,2,16,4,0.3,0.3
2023-01-02T14:00:00,2266A,126.9785,46.6365,绥化市,人和东街,,20,19,32,14,26,62,62,51,51,9,15,5,5,0.2,0.2
2023-01-02T14:00:00,2267A,126.964,46.6528,绥化市,党政办公中心,,20,20,32,14,28,63,63,53,53,10,14,5,6,0.0,0.1
2023-01-02T14:00:00,2269A,124.1069,50.4097,大兴安岭地区,科技局,,,11,14,6,14,65,65,62,62,3,5,,,0.2,0.2
2023-01-02T14:00:00,2270A,117.396,32.939,蚌埠市,工人疗养院,细颗粒物(PM2.5),70,73,170,51,124,83,83,52,52,16,36,7,9,0.6,0.9
2023-01-02T14:00:00,2271A,117.3605,32.9427,蚌埠市,百货大楼,细颗粒物(PM2.5),69,76,171,50,125,83,83,49,49,14,36,12,12,0.4,0.8
2023-01-02T14:00:00,2273A,117.4185,32.8911,蚌埠市,蚌埠学院,颗粒物(PM10),58,66,168,36,119,84,84,37,37,24,57,14,21,0.5,0.9
2023-01-02T14:00:00,2274A,117.3533,32.9673,蚌埠市,淮上区政府,颗粒物(PM10),54,58,166,29,118,86,86,52,52,11,33,10,11,0.4,0.8
2023-01-02T14:00:00,2275A,117.3145,32.8977,蚌埠市,高新区,细颗粒物(PM2.5),67,73,157,48,126,81,81,56,56,24,44,11,11,0.5,0.9
2023-01-02T14:00:00,2277A,116.8305,32.7727,淮南市,潘集区政府,细颗粒物(PM2.5),108,112,217,81,179,79,79,42,42,24,44,8,8,0.6,0.9
2023-01-02T14:00:00,2278A,117.0067,32.6524,淮南市,师范学院,颗粒物(PM10),87,123,227,63,157,75,75,46,46,24,50,15,13,0.7,1
2023-01-02T14:00:00,2279A,116.8569,32.5951,淮南市,谢家集区政府,细颗粒物(PM2.5),102,109,208,76,157,80,80,45,45,28,54,14,16,0.7,0.9
2023-01-02T14:00:00,2280A,116.8281,32.633,淮南市,八公山区政府,细颗粒物(PM2.5),120,58,170,91,187,67,67,45,45,24,41,19,15,0.7,0.9
2023-01-02T14:00:00,2281A,116.6325,32.6201,淮南市,焦岗湖风景区管理处(对照点),细颗粒物(PM2.5),129,136,221,98,170,74,74,45,45,2,10,23,19,0.5,0.8
2023-01-02T14:00:00,2282A,116.8004,33.975,淮北市,监测站,细颗粒物(PM2.5),59,66,177,42,120,127,86,55,55,15,33,10,14,0.6,1.3
2023-01-02T14:00:00,2283A,116.8091,33.9007,淮北市,烈山区政府,细颗粒物(PM2.5),52,44,140,36,114,138,90,70,70,21,39,8,12,0.5,1
2023-01-02T14:00:00,2284A,116.7856,33.9477,淮北市,职业技术学院,"颗粒物(PM10),细颗粒物(PM2.5)",52,53,161,36,116,126,85,63,63,12,34,10,14,0.5,0.9
2023-01-02T14:00:00,2285A,117.8177,30.9412,铜陵市,市第四中学,,,,121,,80,50,50,41,39,,65,7,8,1.0,1
2023-01-02T14:00:00,2286A,117.8059,30.9273,铜陵市,市公路局,细颗粒物(PM2.5),103,84,103,77,85,50,50,40,36,33,57,1,2,1.0,1
2023-01-02T14:00:00,2287A,117.7807,30.9413,铜陵市,市新民污水厂,细颗粒物(PM2.5),87,69,93,64,64,58,58,51,43,37,59,7,7,0.7,0.7
2023-01-02T14:00:00,2288A,117.7439,30.8792,铜陵市,市第九中学,细颗粒物(PM2.5),113,108,116,85,83,62,62,44,44,26,59,14,17,1.0,1.1
2023-01-02T14:00:00,2289A,117.846,30.9413,铜陵市,车站新区,,,71,93,72,76,56,55,41,41,31,52,,19,0.8,0.9
2023-01-02T14:00:00,2290A,117.8483,30.97,铜陵市,市职教基地,细颗粒物(PM2.5),94,77,101,70,78,59,59,43,42,31,45,10,10,0.6,0.6
2023-01-02T14:00:00,2291A,117.0809,30.5177,安庆市,环科院,细颗粒物(PM2.5),102,108,99,76,78,66,62,58,42,23,34,8,10,0.9,0.8
2023-01-02T14:00:00,2292A,117.0331,30.5119,安庆市,马山宾馆,细颗粒物(PM2.5),89,98,93,66,71,72,68,63,44,26,40,10,10,0.8,0.9
2023-01-02T14:00:00,2294A,116.9896,30.6145,安庆市,安庆大学,细颗粒物(PM2.5),112,87,91,84,86,65,65,58,50,30,39,10,12,1.0,1
2023-01-02T14:00:00,2295A,118.2903,29.6963,黄山市,延安路89号,细颗粒物(PM2.5),109,76,57,82,49,67,39,49,24,24,24,5,5,0.5,0.4
2023-01-02T14:00:00,2296A,118.327,29.7178,黄山市,黄山东路89号,细颗粒物(PM2.5),100,78,63,75,54,57,34,45,27,28,25,6,6,0.7,0.7
2023-01-02T14:00:00,2297A,118.1371,30.2756,黄山市,黄山区政府5号楼,细颗粒物(PM2.5),89,94,92,66,64,59,40,25,25,33,30,6,6,0.8,0.9
2023-01-02T14:00:00,2298A,118.3093,32.3153,滁州市,老年大学,颗粒物(PM10),58,65,133,36,110,77,67,68,63,24,53,7,11,0.5,1
2023-01-02T14:00:00,2299A,118.3244,32.2786,滁州市,人大宾馆,颗粒物(PM10),58,65,143,32,91,71,65,63,58,25,57,7,10,0.6,1
2023-01-02T14:00:00,2301A,115.8277,32.8929,阜阳市,市监测站,细颗粒物(PM2.5),135,123,195,103,169,86,86,57,57,19,45,13,12,0.9,1.1
2023-01-02T14:00:00,2303A,115.8554,32.8605,阜阳市,开发区,细颗粒物(PM2.5),123,148,235,93,166,86,86,54,54,21,47,11,8,0.8,1.1
2023-01-02T14:00:00,2307A,116.5079,31.737,六安市,监测大楼,细颗粒物(PM2.5),240,206,179,190,156,42,33,28,17,47,60,9,11,1.0,0.9
2023-01-02T14:00:00,2308A,116.4738,31.7643,六安市,皖西学院,细颗粒物(PM2.5),213,210,201,163,155,42,42,22,22,40,58,7,9,0.9,0.9
2023-01-02T14:00:00,2309A,116.4996,31.7905,六安市,朝阳厂,细颗粒物(PM2.5),216,190,180,166,156,44,42,25,25,38,60,7,9,1.0,1.1
2023-01-02T14:00:00,2310A,116.5567,31.7886,六安市,开发区,细颗粒物(PM2.5),220,231,208,170,157,40,40,19,19,41,62,9,10,1.0,1
2023-01-02T14:00:00,2311A,115.8072,33.8399,亳州市,污水处理厂,细颗粒物(PM2.5),67,69,188,48,153,90,67,55,43,16,33,8,10,0.6,1.1
2023-01-02T14:00:00,2312A,115.7789,33.8518,亳州市,三国揽胜宫,细颗粒物(PM2.5),80,99,227,59,176,99,74,60,47,12,34,7,11,0.5,1.1
2023-01-02T14:00:00,2314A,117.47,30.6618,池州市,池州学院,细颗粒物(PM2.5),104,86,100,78,87,66,66,46,36,22,45,5,7,0.7,0.8
2023-01-02T14:00:00,2316A,118.7581,30.9454,宣城市,鳌峰子站,,,,109,,85,82,,56,37,,46,,5,,0.8
2023-01-02T14:00:00,2317A,118.7385,30.9743,宣城市,敬亭山子站,细颗粒物(PM2.5),100,98,112,75,82,62,62,35,31,25,53,10,9,0.8,0.8
2023-01-02T14:00:00,2318A,118.7173,30.9427,宣城市,开发区子站,细颗粒物(PM2.5),100,90,105,75,82,85,75,60,46,19,41,6,6,0.8,0.8
2023-01-02T14:00:00,2319A,119.0141,25.4325,莆田市,荔城区仓后路,,30,30,25,16,13,84,75,80,74,12,9,6,6,0.7,0.6
2023-01-02T14:00:00,2320A,119.0015,25.4553,莆田市,莆田市监测站,,26,22,21,14,14,88,81,83,77,7,6,6,6,0.5,0.5
2023-01-02T14:00:00,2321A,119.1119,25.4561,莆田市,涵江区六中,,28,25,23,19,17,86,85,80,78,12,9,4,4,0.5,0.5
2023-01-02T14:00:00,2322A,119.1013,25.3215,莆田市,秀屿区政府,,35,33,27,24,18,84,79,81,74,15,11,7,7,0.5,0.5
2023-01-02T14:00:00,2323A,118.981,25.4792,莆田市,东圳水库(对照点),,,,,,,,,,,,,,,,
2023-01-02T14:00:00,2324A,117.6211,26.2625,三明市,三钢,,36,36,34,21,26,77,67,58,58,14,23,6,8,0.4,0.5
2023-01-02T14:00:00,2325A,117.635,26.2714,三明市,三明二中,,32,32,33,20,23,74,65,56,56,12,19,9,10,0.5,0.6
2023-01-02T14:00:00,2326A,117.6028,26.2378,三明市,三元区政府,,34,34,39,23,26,72,62,39,39,17,29,8,11,0.5,0.8
2023-01-02T14:00:00,2327A,117.7275,26.3108,三明市,洋溪(对照点),,,,,,,,,,,,,,,,
2023-01-02T14:00:00,2331A,118.0966,26.6761,南平市,茫荡山(对照点),,,,,,,,,,,,,,,,
2023-01-02T14:00:00,2332A,118.1681,26.6369,南平市,南平市监测站,,36,35,48,25,37,80,44,24,23,20,26,7,6,0.6,0.7
2023-01-02T14:00:00,2333A,118.1825,26.6489,南平市,南平铝业有限公司,,46,46,39,24,30,73,40,19,19,20,26,7,8,0.7,0.7
2023-01-02T14:00:00,2334A,118.1756,26.6272,南平市,南平七中,,48,46,50,33,53,79,43,27,24,24,21,9,6,0.7,0.6
2023-01-02T14:00:00,2335A,117.0189,25.1181,龙岩市,龙岩师专(对照点),,,,,,,,,,,,,,,,
2023-01-02T14:00:00,2336A,117.0217,25.1033,龙岩市,龙岩市监测站,,25,10,20,8,14,87,78,67,67,9,14,8,11,0.4,0.5
2023-01-02T14:00:00,2337A,117.0258,25.0661,龙岩市,闽西职业技术学院,,,27,29,9,17,83,75,43,43,6,21,7,9,,0.5
2023-01-02T14:00:00,2338A,117.0196,25.0306,龙岩市,龙岩学院,,25,12,21,7,13,84,78,50,50,7,12,7,6,0.4,0.4
2023-01-02T14:00:00,2339A,119.5001,26.6946,宁德市,金涵水库(对照点),,,,,,,,,,,,,,,,
2023-01-02T14:00:00,2341A,119.5388,26.6612,宁德市,宁德市监测站,,,50,46,30,30,75,51,34,34,26,27,7,4,,0.6
2023-01-02T14:00:00,2342A,117.3102,29.3867,景德镇市,王港中学(对照点),,,,,,,,,,,,,,,,
2023-01-02T14:00:00,2343A,117.2117,29.2933,景德镇市,老干部活动中心,颗粒物(PM10),59,68,83,36,51,53,37,34,33,15,20,5,7,0.7,0.7
2023-01-02T14:00:00,2344A,117.1894,29.2789,景德镇市,兽医站,,50,45,45,35,38,58,40,40,39,15,18,5,6,0.7,0.7
2023-01-02T14:00:00,2345A,117.1547,29.2617,景德镇市,台达陶瓷,,49,47,45,34,32,54,40,39,39,21,25,6,9,0.9,0.9
2023-01-02T14:00:00,2346A,117.2461,29.2956,景德镇市,陶研所,颗粒物(PM10),56,61,65,28,38,61,38,37,36,16,18,4,4,0.8,0.8
2023-01-02T14:00:00,2347A,114.0997,27.5002,萍乡市,武功山(对照点),细颗粒物(PM2.5),189,176,72,142,61,48,23,21,21,28,17,9,8,1.1,1
2023-01-02T14:00:00,2348A,113.8385,27.6434,萍乡市,中医院,细颗粒物(PM2.5),201,210,164,151,129,60,19,19,13,39,41,21,12,2.0,1.8
2023-01-02T14:00:00,2349A,113.8493,27.6253,萍乡市,市政府车库,细颗粒物(PM2.5),225,208,168,175,146,64,22,20,11,37,39,15,15,1.6,1.7
2023-01-02T14:00:00,2350A,113.8676,27.6435,萍乡市,市环保局,颗粒物(PM10),134,218,160,,133,56,20,18,12,35,36,19,20,1.3,1.3
2023-01-02T14:00:00,2351A,113.866,27.6198,萍乡市,安源区政府,细颗粒物(PM2.5),220,187,153,170,140,58,25,25,16,29,31,18,17,1.3,1.3
2023-01-02T14:00:00,2352A,115.0861,27.9317,新余市,北岗(对照点),,48,41,43,33,36,56,56,37,37,14,15,8,8,0.3,0.3
2023-01-02T14:00:00,2353A,114.9886,27.8431,新余市,飞宇,颗粒物(PM10),52,54,58,32,35,51,49,38,38,20,24,14,13,0.5,0.5
2023-01-02T14:00:00,2354A,114.9231,27.8246,新余市,第二水厂,颗粒物(PM10),62,74,78,41,45,44,39,35,34,27,31,15,14,0.1,0.2
2023-01-02T14:00:00,2355A,114.9308,27.8036,新余市,市气象局,细颗粒物(PM2.5),58,56,82,41,60,43,36,33,30,24,32,11,13,0.0,0.4
2023-01-02T14:00:00,2357A,116.9822,28.1136,鹰潭市,龙虎山(对照点),细颗粒物(PM2.5),92,68,55,68,55,89,35,37,29,28,23,3,5,1.2,1.1
2023-01-02T14:00:00,2358A,117.0564,28.2642,鹰潭市,新监测站,细颗粒物(PM2.5),89,64,57,66,56,82,32,24,21,26,29,15,6,0.6,0.6
2023-01-02T14:00:00,2359A,117.0311,28.2475,鹰潭市,财苑宾馆,细颗粒物(PM2.5),75,53,57,55,55,80,38,26,26,24,28,5,19,0.7,0.7
2023-01-02T14:00:00,2360A,117.0222,28.2264,鹰潭市,体育馆,细颗粒物(PM2.5),82,59,59,60,60,83,33,28,27,26,26,1,5,0.7,0.7
2023-01-02T14:00:00,2361A,117.0017,28.2131,鹰潭市,三川水表,细颗粒物(PM2.5),117,70,64,88,70,85,30,28,24,26,26,,5,0.6,0.5
2023-01-02T14:00:00,2362A,114.9017,25.9149,赣州市,通天岩(对照点),,38,38,29,26,24,72,72,57,54,10,9,8,8,1.0,1
2023-01-02T14:00:00,2363A,114.9367,25.8664,赣州市,地委,颗粒物(PM10),56,62,53,27,35,70,70,56,52,15,14,14,16,0.7,0.8
2023-01-02T14:00:00,2364A,114.9461,25.8481,赣州市,气象台,细颗粒物(PM2.5),67,57,47,48,36,58,58,45,39,15,16,9,8,0.6,0.6
2023-01-02T14:00:00,2365A,114.9322,25.8333,赣州市,市图书馆,颗粒物(PM10),55,59,53,38,37,66,66,51,46,16,17,5,10,0.9,1
2023-01-02T14:00:00,2366A,114.8905,25.8471,赣州市,华坚鞋城,颗粒物(PM10),62,73,54,41,33,56,49,55,42,26,15,2,2,1.0,1
2023-01-02T14:00:00,2367A,114.9754,27.0803,吉安市,红声器材厂,"颗粒物(PM10),细颗粒物(PM2.5)",57,63,68,40,44,62,61,46,46,25,29,11,12,0.7,0.7
2023-01-02T14:00:00,2368A,114.9658,27.0999,吉安市,市森林工业局,细颗粒物(PM2.5),57,58,63,40,48,67,67,46,46,23,30,10,11,0.6,0.9
2023-01-02T14:00:00,2369A,114.99,27.1312,吉安市,市环境监测站,细颗粒物(PM2.5),57,57,61,40,46,64,64,47,47,23,27,7,9,0.7,0.8
2023-01-02T14:00:00,2370A,115.0093,27.0968,吉安市,青原区法院,细颗粒物(PM2.5),57,56,61,40,46,64,64,48,48,19,22,9,10,0.6,0.7
2023-01-02T14:00:00,2371A,114.3408,27.8064,宜春市,槟榔水业(对照点),,,,,,,,,,,,,,,,
2023-01-02T14:00:00,2373A,114.3956,27.7844,宜春市,市石油公司,,,,,,,,,,,,,,,,
2023-01-02T14:00:00,2374A,114.3703,27.7914,宜春市,市气象局,,,,,,,,,,,,,,,,
2023-01-02T14:00:00,2375A,114.4013,27.8074,宜春市,市广电局,,,,,,,,,,,,,,,,
2023-01-02T14:00:00,2376A,116.2127,28.0814,抚州市,桐源党溪(对照点),细颗粒物(PM2.5),59,59,65,42,47,90,66,48,48,14,15,5,5,0.5,0.6
2023-01-02T14:00:00,2377A,116.3544,27.9831,抚州市,市站,细颗粒物(PM2.5),65,63,69,47,51,79,51,42,38,28,30,3,3,1.0,0.8
2023-01-02T14:00:00,2378A,116.3565,27.963,抚州市,血防站,细颗粒物(PM2.5),65,74,72,47,50,76,49,40,36,17,20,6,6,0.6,0.7
2023-01-02T14:00:00,2379A,116.3564,28.0007,抚州市,采茶剧团,细颗粒物(PM2.5),72,64,66,52,54,75,50,38,36,18,22,4,5,0.7,0.8
2023-01-02T14:00:00,2380A,116.385,27.9647,抚州市,医学分院,细颗粒物(PM2.5),64,67,69,46,47,60,38,30,27,25,30,5,7,0.8,0.8
2023-01-02T14:00:00,2381A,118.005,28.4572,上饶市,百草园(对照点),颗粒物(PM10),63,76,64,32,37,46,31,25,25,24,24,4,6,1.1,1.1
2023-01-02T14:00:00,2382A,117.9756,28.4436,上饶市,市监测站,颗粒物(PM10),67,84,75,46,45,84,51,40,40,40,39,10,13,0.7,0.7
2023-01-02T14:00:00,2383A,117.9519,28.4628,上饶市,凤凰光学,颗粒物(PM10),69,88,78,49,45,87,57,41,41,25,35,9,22,0.8,0.9
2023-01-02T14:00:00,2385A,114.17,35.9019,鹤壁市,市监测站,细颗粒物(PM2.5),180,178,187,136,145,74,42,21,21,59,67,22,24,1.9,2.3
2023-01-02T14:00:00,2386A,114.2956,35.7511,鹤壁市,市交警支队,细颗粒物(PM2.5),153,159,186,117,141,67,42,19,19,59,79,26,24,1.6,1.9
2023-01-02T14:00:00,2387A,114.2878,35.7306,鹤壁市,迎宾馆,细颗粒物(PM2.5),152,134,167,116,146,69,45,20,20,53,73,34,27,1.7,1.9
2023-01-02T14:00:00,2389A,113.836,35.311,新乡市,环保西院,细颗粒物(PM2.5),208,186,180,158,144,72,41,19,19,63,66,26,22,2.1,1.7
2023-01-02T14:00:00,2390A,113.884,35.272,新乡市,开发区,细颗粒物(PM2.5),188,170,175,141,139,77,48,28,22,52,61,22,19,1.9,1.7
2023-01-02T14:00:00,2391A,113.883,35.303,新乡市,环保东院,细颗粒物(PM2.5),156,152,154,119,124,74,46,22,22,61,73,26,25,1.7,1.6
2023-01-02T14:00:00,2392A,115.0312,35.7636,濮阳市,环保局,细颗粒物(PM2.5),175,144,160,132,147,70,44,20,20,66,78,29,21,1.4,1.5
2023-01-02T14:00:00,2394A,115.0574,35.7609,濮阳市,油田运输公司,细颗粒物(PM2.5),189,202,209,142,156,80,46,23,23,64,70,33,26,1.5,1.5
2023-01-02T14:00:00,2395A,115.0866,35.7754,濮阳市,油田物探公司,细颗粒物(PM2.5),189,176,176,142,167,77,45,19,19,67,77,30,21,1.3,1.5
2023-01-02T14:00:00,2396A,113.8276,34.0159,许昌市,监测站,细颗粒物(PM2.5),259,249,227,209,211,90,66,32,31,50,54,14,11,1.7,1.6
2023-01-02T14:00:00,2398A,113.7906,33.9953,许昌市,开发区,细颗粒物(PM2.5),255,218,201,205,188,85,62,31,27,53,58,18,14,1.4,1.3
2023-01-02T14:00:00,2399A,114.051,33.5699,漯河市,三五一五工厂,细颗粒物(PM2.5),277,254,264,227,228,76,69,35,35,37,47,16,14,1.5,1.4
2023-01-02T14:00:00,2400A,114.0055,33.5698,漯河市,漯河大学,细颗粒物(PM2.5),257,267,275,207,213,82,66,41,40,47,52,10,8,1.5,1.5
