timepoint,stationcode,longitude,latitude,area,positionname,primarypollutant,aqi,pm10,pm10_24h,pm2_5,pm2_5_24h,o3,o3_24h,o3_8h,o3_8h_24h,no2,no2_24h,so2,so2_24h,co,co_24h
2023-01-02T00:00:00,1001A,116.3621,39.8784,北京市,万寿西宫,,24,24,34,14,19,48,29,45,14,38,33,3,3,0.4,0.5
2023-01-02T00:00:00,1002A,116.2202,40.2915,北京市,定陵(对照点),,25,7,29,4,17,79,78,54,54,2,12,2,3,0.2,0.3
2023-01-02T00:00:00,1003A,116.4174,39.9289,北京市,东四,,20,20,35,11,18,49,44,44,23,24,25,2,2,0.3,0.4
2023-01-02T00:00:00,1004A,116.4072,39.8863,北京市,天坛,,18,18,33,10,18,51,45,46,22,23,34,2,3,0.4,0.6
2023-01-02T00:00:00,1005A,116.462,39.9365,北京市,农展馆,,18,18,33,8,13,55,48,49,33,20,36,1,2,0.2,0.4
2023-01-02T00:00:00,1006A,116.3392,39.9295,北京市,官园,,32,32,32,17,17,55,23,52,21,41,29,3,4,0.4,0.3
2023-01-02T00:00:00,1007A,116.2878,39.9611,北京市,海淀万柳,,46,46,37,22,16,46,7,40,13,59,43,2,2,0.4,0.4
2023-01-02T00:00:00,1008A,116.6636,40.135,北京市,顺义新城,,21,12,26,6,11,73,66,66,47,5,13,2,2,0.2,0.3
2023-01-02T00:00:00,1009A,116.6275,40.3275,北京市,怀柔镇,,32,32,27,20,15,64,33,56,39,17,15,3,2,0.3,0.2
2023-01-02T00:00:00,1010A,116.2296,40.217,北京市,昌平镇,,22,8,33,4,20,69,69,46,46,4,28,1,2,0.1,0.5
2023-01-02T00:00:00,1011A,116.3966,39.9821,北京市,奥体中心,,35,35,52,12,14,59,43,53,26,27,30,3,3,0.2,0.2
2023-01-02T00:00:00,1012A,116.184,39.9136,北京市,古城,颗粒物(PM10),59,67,55,31,24,55,2,44,10,58,40,1,2,0.6,0.6
2023-01-02T00:00:00,1015A,117.1444,39.1661,天津市,勤俭道,细颗粒物(PM2.5),132,152,129,100,80,35,1,21,5,69,64,13,13,1.4,1.3
2023-01-02T00:00:00,1017A,117.237,39.1082,天津市,大直沽八号路,细颗粒物(PM2.5),132,167,114,100,62,40,2,22,6,77,67,12,14,1.3,1.4
2023-01-02T00:00:00,1018A,117.202,39.0927,天津市,前进道,细颗粒物(PM2.5),75,93,103,55,58,36,14,26,13,66,66,10,14,0.9,1.3
2023-01-02T00:00:00,1019A,117.1837,39.2133,天津市,淮河道,细颗粒物(PM2.5),145,166,126,111,79,37,6,23,7,73,65,15,14,1.7,1.4
2023-01-02T00:00:00,1021A,117.307,39.0877,天津市,跃进路,细颗粒物(PM2.5),132,154,121,100,74,38,1,18,3,66,61,11,14,1.0,1.1
2023-01-02T00:00:00,1023A,117.707,39.0343,天津市,第四大街,细颗粒物(PM2.5),110,117,109,83,63,12,1,8,2,72,66,9,12,0.8,1.1
2023-01-02T00:00:00,1024A,117.457,38.8394,天津市,永明路,细颗粒物(PM2.5),110,125,116,83,75,40,5,25,10,73,68,11,14,1.0,1
2023-01-02T00:00:00,1026A,117.764,39.1587,天津市,汉北路,颗粒物(PM10),75,100,96,54,47,26,1,17,1,55,52,7,10,0.9,1.1
2023-01-02T00:00:00,1027A,117.157,38.9194,天津市,团泊洼(对照点),细颗粒物(PM2.5),78,101,115,57,70,25,0,19,8,68,66,6,15,0.9,1.4
2023-01-02T00:00:00,1029A,114.4422,38.0444,石家庄市,职工医院,细颗粒物(PM2.5),114,138,131,86,79,38,6,28,11,76,66,12,13,1.4,1.3
2023-01-02T00:00:00,1030A,114.6063,38.0266,石家庄市,高新区,颗粒物(PM10),88,125,131,61,83,41,9,30,12,64,61,10,12,1.0,1.1
2023-01-02T00:00:00,1031A,114.4898,38.1328,石家庄市,西北水源,细颗粒物(PM2.5),133,177,135,101,80,34,3,21,5,81,68,19,14,1.4,1.2
2023-01-02T00:00:00,1032A,114.4586,38.0058,石家庄市,西南高教,细颗粒物(PM2.5),110,117,127,83,90,33,4,25,8,71,67,15,15,1.0,1
2023-01-02T00:00:00,1033A,114.5331,38.0178,石家庄市,世纪公园,细颗粒物(PM2.5),92,115,118,68,83,26,1,22,6,72,67,12,14,1.1,1.2
2023-01-02T00:00:00,1034A,114.509,38.0457,石家庄市,人民会堂,细颗粒物(PM2.5),113,122,126,85,88,37,6,28,10,68,65,9,10,1.1,1.1
2023-01-02T00:00:00,1035A,114.3524,37.8911,石家庄市,封龙山(对照点),细颗粒物(PM2.5),105,123,104,79,68,68,25,49,24,78,63,3,9,1.3,1.4
2023-01-02T00:00:00,1037A,118.131,39.6363,唐山市,雷达站,细颗粒物(PM2.5),119,135,89,90,50,48,3,36,7,55,41,11,18,1.4,1.5
2023-01-02T00:00:00,1038A,118.1725,39.6334,唐山市,物资局,细颗粒物(PM2.5),89,120,86,66,44,43,0,26,5,72,64,9,21,1.2,1.6
2023-01-02T00:00:00,1040A,118.1705,39.6506,唐山市,十二中,细颗粒物(PM2.5),103,118,82,77,52,47,0,34,8,74,63,8,17,1.1,1.5
2023-01-02T00:00:00,1041A,118.1869,39.622,唐山市,小山,细颗粒物(PM2.5),113,130,90,85,46,45,0,32,6,73,61,11,23,1.7,1.6
2023-01-02T00:00:00,1042A,119.5134,39.8207,秦皇岛市,北戴河环保局,颗粒物(PM10),52,54,56,32,32,61,9,53,36,58,38,4,12,0.6,0.3
2023-01-02T00:00:00,1043A,119.7493,40.0116,秦皇岛市,第一关,,,33,32,29,25,65,6,56,23,64,40,5,9,0.7,0.5
2023-01-02T00:00:00,1044A,119.5897,39.9499,秦皇岛市,监测站,细颗粒物(PM2.5),67,61,60,48,37,62,8,54,22,44,33,8,12,0.8,0.6
2023-01-02T00:00:00,1046A,119.5251,39.9041,秦皇岛市,建设大厦,颗粒物(PM10),64,77,67,32,23,58,7,51,21,51,40,8,10,1.0,0.8
2023-01-02T00:00:00,1048A,114.5302,36.6116,邯郸市,东污水处理厂,细颗粒物(PM2.5),208,196,176,158,132,48,7,34,16,100,81,22,21,0.9,0.8
2023-01-02T00:00:00,1049A,114.4918,36.5713,邯郸市,矿院,细颗粒物(PM2.5),201,189,165,151,131,43,2,35,20,97,76,18,19,1.9,1.9
2023-01-02T00:00:00,1050A,114.484,36.6133,邯郸市,丛台公园,细颗粒物(PM2.5),205,174,154,155,127,44,3,38,21,88,68,18,20,1.6,1.7
2023-01-02T00:00:00,1051A,115.493,38.8632,保定市,游泳馆,颗粒物(PM10),62,73,68,43,46,37,6,30,8,78,67,12,11,0.8,0.9
2023-01-02T00:00:00,1052A,115.5213,38.8959,保定市,华电二区,细颗粒物(PM2.5),80,102,73,59,47,34,4,25,7,67,57,13,12,1.1,1
2023-01-02T00:00:00,1053A,115.4713,38.9108,保定市,接待中心,颗粒物(PM10),82,114,75,54,44,32,2,25,4,63,55,11,10,0.9,0.8
2023-01-02T00:00:00,1054A,115.4612,38.8416,保定市,地表水厂,颗粒物(PM10),100,150,110,60,48,36,8,29,9,62,65,10,9,0.9,0.7
2023-01-02T00:00:00,1056A,115.5086,38.8639,保定市,监测站,细颗粒物(PM2.5),75,73,78,55,46,34,6,28,7,71,60,12,10,0.3,0.3
2023-01-02T00:00:00,1057A,114.8883,40.8336,张家口市,人民公园,,25,12,21,17,9,74,66,70,68,4,8,4,8,0.3,0.5
2023-01-02T00:00:00,1059A,114.8687,40.8042,张家口市,五金库,,21,7,15,10,13,68,67,66,66,8,12,9,11,0.2,0.3
2023-01-02T00:00:00,1060A,114.8902,40.762,张家口市,世纪豪园,,22,16,26,7,12,68,68,65,65,7,13,1,3,0.1,0.2
2023-01-02T00:00:00,1061A,114.8916,40.8661,张家口市,北泵房(对照点),,22,18,24,11,17,80,68,73,68,7,9,9,12,0.6,0.5
2023-01-02T00:00:00,1062A,117.9531,40.9081,承德市,铁路,,23,7,38,16,23,70,64,46,46,7,31,7,10,0.2,0.6
2023-01-02T00:00:00,1063A,117.9392,40.9763,承德市,中国银行,,28,28,41,15,23,67,60,54,48,9,28,6,7,0.2,0.5
2023-01-02T00:00:00,1064A,117.9503,40.928,承德市,开发区,,24,21,47,12,26,77,74,69,69,5,29,3,6,0.3,0.6
2023-01-02T00:00:00,1065A,117.8051,40.9655,承德市,文化中心,,49,49,70,21,37,66,45,46,30,20,33,9,16,0.3,0.9
2023-01-02T00:00:00,1066A,117.9268,41.0026,承德市,离宫(对照点),,19,18,23,13,17,68,60,60,59,4,14,8,9,0.2,0.4
2023-01-02T00:00:00,1067A,116.6708,39.5111,廊坊市,药材公司,颗粒物(PM10),64,77,78,39,44,50,8,42,8,70,59,10,11,0.8,1
2023-01-02T00:00:00,1068A,116.7214,39.5589,廊坊市,开发区,细颗粒物(PM2.5),137,136,73,104,47,55,7,46,17,78,63,15,13,1.6,1
2023-01-02T00:00:00,1070A,116.7244,39.5269,廊坊市,北华航天学院,颗粒物(PM10),70,90,76,48,42,52,5,38,14,82,67,12,13,1.0,1
2023-01-02T00:00:00,1071A,116.8842,38.2991,沧州市,沧县城建局,细颗粒物(PM2.5),135,119,180,103,131,46,8,29,11,80,80,18,22,1.3,1.9
2023-01-02T00:00:00,1072A,116.8584,38.3254,沧州市,电视转播站,细颗粒物(PM2.5),110,107,145,83,110,49,10,31,12,75,80,15,16,1.2,1.5
2023-01-02T00:00:00,1073A,116.8709,38.3228,沧州市,市环保局,细颗粒物(PM2.5),122,99,152,92,108,41,2,26,6,86,86,13,19,1.2,1.5
2023-01-02T00:00:00,1074A,115.6838,37.7541,衡水市,电机北厂,细颗粒物(PM2.5),135,161,176,103,128,41,1,27,8,,89,20,23,1.4,1.3
2023-01-02T00:00:00,1075A,115.6303,37.7316,衡水市,市监测站,细颗粒物(PM2.5),150,192,189,115,129,36,3,21,9,92,82,23,19,2.0,2
2023-01-02T00:00:00,1077A,114.4704,37.0886,邢台市,达活泉,细颗粒物(PM2.5),212,210,151,162,111,33,3,26,6,77,57,11,9,1.3,1.2
2023-01-02T00:00:00,1078A,114.5062,37.0349,邢台市,邢师高专,细颗粒物(PM2.5),200,168,128,150,108,34,6,26,8,93,71,14,13,1.2,1
2023-01-02T00:00:00,1079A,114.5237,37.0851,邢台市,路桥公司,细颗粒物(PM2.5),198,169,127,148,105,34,2,26,5,68,57,16,13,1.2,1.1
2023-01-02T00:00:00,1080A,114.4725,37.0719,邢台市,市环保局,细颗粒物(PM2.5),199,198,138,149,103,31,3,25,6,77,60,11,10,1.4,1.3
2023-01-02T00:00:00,1081A,112.522,37.8873,太原市,尖草坪,细颗粒物(PM2.5),88,106,69,65,42,51,5,38,14,80,62,32,23,0.8,0.8
2023-01-02T00:00:00,1083A,112.434,38.0108,太原市,上兰(对照点),,,,,,,,,,,,,,,,
2023-01-02T00:00:00,1084A,112.469,37.7124,太原市,晋源,细颗粒物(PM2.5),85,103,94,63,59,63,5,36,10,74,65,19,20,1.9,1.6
2023-01-02T00:00:00,1085A,112.5583,37.7394,太原市,小店,细颗粒物(PM2.5),123,169,116,93,62,36,3,22,5,92,74,27,27,2.1,1.7
2023-01-02T00:00:00,1086A,112.5369,37.8692,太原市,桃园,细颗粒物(PM2.5),95,123,84,71,47,38,2,26,12,83,67,33,28,0.9,1.1
2023-01-02T00:00:00,1087A,112.57,37.8195,太原市,坞城,细颗粒物(PM2.5),90,109,80,67,49,41,5,29,13,79,73,28,39,1.3,1.6
2023-01-02T00:00:00,1088A,112.549,37.9854,太原市,南寨,颗粒物(PM10),92,133,83,63,45,56,4,36,6,70,57,20,15,0.7,0.7
2023-01-02T00:00:00,1089A,112.4783,37.7778,太原市,金胜(停运211219),,,,,,,,,,,,,,,,
2023-01-02T00:00:00,1090A,111.6507,40.7517,呼和浩特市,呼市一监,,22,22,82,8,65,59,58,50,50,13,40,9,22,0.5,1
2023-01-02T00:00:00,1091A,111.6572,40.8033,呼和浩特市,小召,,24,24,75,9,69,50,50,44,44,23,47,22,34,0.4,0.9
2023-01-02T00:00:00,1094A,111.7516,40.8369,呼和浩特市,如意水处理厂,,26,26,71,8,39,78,59,58,51,21,57,10,15,0.3,0.8
2023-01-02T00:00:00,1095A,111.7276,40.8062,呼和浩特市,二十九中,,46,46,74,10,42,67,52,57,45,15,43,12,19,0.4,0.8
2023-01-02T00:00:00,1096A,111.5512,40.7866,呼和浩特市,工大金川校区,,25,25,109,8,54,55,51,46,46,12,41,7,19,0.3,0.9
2023-01-02T00:00:00,1097A,111.717,40.7612,呼和浩特市,化肥厂生活区,颗粒物(PM10),57,63,90,33,57,55,32,43,30,36,50,19,24,0.8,1
2023-01-02T00:00:00,1098A,123.6836,41.9339,沈阳市,森林路(对照点),,,,,,,,,,,,,,,,
2023-01-02T00:00:00,1099A,123.505,41.7406,沈阳市,浑南东路,颗粒物(PM10),60,69,57,39,37,55,12,49,28,54,40,14,10,1.1,1
2023-01-02T00:00:00,1100A,123.4231,41.6989,沈阳市,新秀街,颗粒物(PM10),60,70,48,34,24,59,24,51,25,39,35,16,15,0.8,0.7
2023-01-02T00:00:00,1102A,123.5903,41.8411,沈阳市,东陵路,颗粒物(PM10),54,58,68,36,52,55,3,43,13,45,38,11,11,0.9,0.9
2023-01-02T00:00:00,1103A,123.4264,41.8467,沈阳市,陵东街,,50,50,33,22,16,60,30,55,38,34,31,11,11,0.6,0.6
2023-01-02T00:00:00,1104A,123.4114,41.7653,沈阳市,文化路,颗粒物(PM10),57,63,37,34,21,56,22,51,23,44,33,19,32,0.6,0.5
2023-01-02T00:00:00,1105A,123.4678,41.7867,沈阳市,小河沿,,44,44,35,20,19,58,27,51,33,38,28,26,13,0.8,0.6
2023-01-02T00:00:00,1106A,123.4017,41.7972,沈阳市,太原街,颗粒物(PM10),56,62,45,25,19,57,17,47,19,45,33,14,21,0.8,0.7
2023-01-02T00:00:00,1108A,123.3783,41.9228,沈阳市,京沈街,颗粒物(PM10),60,69,50,30,28,60,31,55,38,30,27,15,17,0.7,0.7
2023-01-02T00:00:00,1109A,121.612,38.9741,大连市,甘井子,,38,26,26,26,25,65,46,60,52,27,25,19,13,0.8,0.9
2023-01-02T00:00:00,1110A,121.565,38.9511,大连市,周水子,,36,36,34,25,24,65,34,54,37,38,37,17,16,0.9,0.9
2023-01-02T00:00:00,1111A,121.5637,38.8845,大连市,星海三站,,,,,,,,,,,,,,,,
2023-01-02T00:00:00,1112A,121.6302,38.9117,大连市,青泥洼桥,,47,47,44,26,21,62,30,53,44,48,38,20,15,0.8,0.8
2023-01-02T00:00:00,1113A,121.6251,38.8638,大连市,傅家庄,,32,32,38,22,17,60,37,53,38,34,36,18,19,1.1,1.1
2023-01-02T00:00:00,1114A,121.5213,38.8661,大连市,七贤岭,,32,32,31,17,19,73,47,65,49,24,25,15,18,0.7,0.7
2023-01-02T00:00:00,1115A,121.2529,38.8061,大连市,旅顺,,30,28,29,21,20,68,59,66,58,15,16,11,11,0.7,0.8
2023-01-02T00:00:00,1116A,121.7485,39.1311,大连市,金州,细颗粒物(PM2.5),83,94,49,61,34,66,44,59,46,24,28,13,18,0.6,0.5
2023-01-02T00:00:00,1117A,121.7811,39.0496,大连市,开发区,细颗粒物(PM2.5),58,44,42,41,20,66,36,61,47,43,31,17,14,0.8,0.6
2023-01-02T00:00:00,1118A,121.9762,39.0631,大连市,双D港,,39,39,29,27,19,73,51,66,57,21,18,16,11,0.9,0.8
2023-01-02T00:00:00,1119A,125.3325,43.9166,长春市,食品厂,颗粒物(PM10),69,87,56,35,24,57,36,47,32,21,25,4,7,0.4,0.4
2023-01-02T00:00:00,1120A,125.2863,43.9027,长春市,客车厂,颗粒物(PM10),69,88,55,27,24,56,32,48,29,26,26,10,22,0.4,0.3
2023-01-02T00:00:00,1121A,125.2841,43.8463,长春市,邮电学院,颗粒物(PM10),67,84,51,27,21,60,30,51,28,27,27,13,22,0.4,0.4
2023-01-02T00:00:00,1122A,125.3716,43.8772,长春市,劳动公园,颗粒物(PM10),62,74,43,23,19,59,35,51,33,25,26,14,20,0.2,0.2
2023-01-02T00:00:00,1123A,125.3297,43.8805,长春市,园林处,颗粒物(PM10),66,82,48,23,21,52,31,44,26,28,30,22,22,0.4,0.4
2023-01-02T00:00:00,1124A,125.4605,43.79,长春市,净月潭,颗粒物(PM10),66,82,49,29,20,63,22,54,26,31,22,4,5,0.6,0.5
2023-01-02T00:00:00,1125A,125.7194,43.515,长春市,甩湾子(对照点),,,,,,,,,,,,,,,,
2023-01-02T00:00:00,1126A,125.3863,43.8447,长春市,经开区环卫处,颗粒物(PM10),66,82,45,26,18,56,14,48,24,44,30,20,21,0.5,0.4
2023-01-02T00:00:00,1127A,125.245,43.7783,长春市,高新区管委会,颗粒物(PM10),62,73,49,31,25,62,26,56,28,32,22,6,6,0.4,0.4
2023-01-02T00:00:00,1128A,125.1761,43.8325,长春市,岱山公园,颗粒物(PM10),60,70,50,19,25,67,34,58,32,21,18,4,5,0.4,0.4
2023-01-02T00:00:00,1129A,126.5422,45.755,哈尔滨市,岭北(对照点),细颗粒物(PM2.5),83,63,39,61,31,94,72,71,50,42,17,17,13,1.0,0.6
2023-01-02T00:00:00,1130A,126.561,45.8167,哈尔滨市,松北商大,,45,39,34,31,21,57,26,49,18,30,26,7,16,0.9,0.7
2023-01-02T00:00:00,1131A,126.979,45.5419,哈尔滨市,阿城会宁,细颗粒物(PM2.5),77,87,57,56,45,55,14,48,20,39,29,15,17,0.9,0.6
2023-01-02T00:00:00,1132A,126.599,45.7222,哈尔滨市,南岗学府路,颗粒物(PM10),64,78,34,41,22,61,33,55,39,36,18,20,5,0.6,0.8
2023-01-02T00:00:00,1133A,126.689,45.7733,哈尔滨市,太平宏伟公园,,31,31,29,19,16,59,49,54,43,12,11,2,13,0.6,0.4
2023-01-02T00:00:00,1134A,126.635,45.7667,哈尔滨市,道外承德广场,,36,33,28,25,15,62,48,57,45,21,18,8,11,0.4,0.4
2023-01-02T00:00:00,1135A,126.685,45.7319,哈尔滨市,香坊红旗大街,细颗粒物(PM2.5),57,53,30,40,30,61,23,56,38,51,24,42,20,0.8,0.6
2023-01-02T00:00:00,1136A,126.6411,45.7258,哈尔滨市,动力和平路,细颗粒物(PM2.5),54,56,29,38,18,58,26,54,38,43,21,27,10,0.9,0.7
2023-01-02T00:00:00,1137A,126.593,45.7478,哈尔滨市,道里建国路,颗粒物(PM10),59,67,32,35,24,59,32,53,38,37,19,10,9,0.7,0.6
2023-01-02T00:00:00,1138A,126.615,45.61,哈尔滨市,平房东轻厂,,38,36,35,26,26,54,17,45,14,48,34,12,13,0.8,0.7
2023-01-02T00:00:00,1139A,126.595,45.9855,哈尔滨市,呼兰师专,细颗粒物(PM2.5),68,59,42,49,37,57,29,51,31,23,14,15,12,1.0,0.8
2023-01-02T00:00:00,1140A,126.6206,45.6842,哈尔滨市,省农科院,颗粒物(PM10),68,85,52,44,39,56,11,51,15,45,33,26,31,1.4,1
2023-01-02T00:00:00,1141A,121.4,31.238,上海市,普陀,细颗粒物(PM2.5),110,67,76,83,75,58,49,40,40,77,96,8,7,0.8,0.9
2023-01-02T00:00:00,1142A,121.478,31.2036,上海市,十五厂,细颗粒物(PM2.5),107,65,69,80,74,46,23,31,31,107,103,15,13,0.9,0.9
2023-01-02T00:00:00,1143A,121.467,31.3008,上海市,虹口,细颗粒物(PM2.5),122,112,106,92,81,42,34,18,18,90,109,12,13,0.8,0.9
2023-01-02T00:00:00,1144A,121.412,31.1654,上海市,徐汇上师大,细颗粒物(PM2.5),92,65,68,68,65,49,34,26,26,82,97,11,8,0.9,0.9
2023-01-02T00:00:00,1145A,121.536,31.2659,上海市,杨浦四漂,细颗粒物(PM2.5),112,107,122,84,91,38,6,15,14,127,114,11,11,1.1,1
2023-01-02T00:00:00,1147A,121.425,31.2261,上海市,静安监测站,细颗粒物(PM2.5),93,101,102,69,67,59,46,41,41,82,103,11,10,0.8,0.9
2023-01-02T00:00:00,1148A,121.703,31.1907,上海市,浦东川沙,细颗粒物(PM2.5),89,54,74,66,91,58,38,46,44,59,73,6,7,0.8,0.9
2023-01-02T00:00:00,1149A,121.533,31.2284,上海市,浦东新区监测站,细颗粒物(PM2.5),107,101,105,80,80,28,19,12,12,99,103,9,9,1.1,1.1
2023-01-02T00:00:00,1150A,121.577,31.2071,上海市,浦东张江,细颗粒物(PM2.5),98,64,74,73,75,45,8,28,20,105,86,8,7,0.9,1
2023-01-02T00:00:00,1151A,118.8086,32.1065,南京市,迈皋桥,细颗粒物(PM2.5),122,135,156,92,97,42,14,24,9,99,94,4,5,1.1,1
2023-01-02T00:00:00,1152A,118.7538,32.0551,南京市,草场门,,,85,122,61,86,57,,38,9,59,85,9,9,1.0,1
2023-01-02T00:00:00,1153A,118.7794,32.0745,南京市,山西路,细颗粒物(PM2.5),89,100,138,66,93,56,44,37,18,55,87,10,9,1.0,1.1
2023-01-02T00:00:00,1154A,118.7752,32.0023,南京市,中华门,细颗粒物(PM2.5),85,78,123,63,84,65,43,47,23,57,74,11,11,1.0,1.1
2023-01-02T00:00:00,1155A,118.8109,32.0309,南京市,瑞金路,颗粒物(PM10),87,124,144,63,86,61,24,46,16,80,92,10,8,0.9,0.9
2023-01-02T00:00:00,1156A,118.7997,32.0754,南京市,玄武湖,细颗粒物(PM2.5),94,115,139,70,93,48,38,27,16,56,86,10,9,0.8,0.8
2023-01-02T00:00:00,1157A,118.6414,32.0931,南京市,浦口,细颗粒物(PM2.5),144,160,142,110,97,39,6,24,10,111,100,12,11,1.3,1.1
2023-01-02T00:00:00,1158A,118.7356,31.9996,南京市,奥体中心,细颗粒物(PM2.5),85,118,140,63,85,68,52,52,29,53,94,9,9,1.0,1
2023-01-02T00:00:00,1159A,118.9125,32.1028,南京市,仙林大学城,细颗粒物(PM2.5),100,95,131,75,95,55,30,33,15,63,86,8,10,1.2,1.3
2023-01-02T00:00:00,1160A,120.561,31.2472,苏州市,上方山(对照点),细颗粒物(PM2.5),142,62,118,108,101,52,31,33,19,57,74,13,11,1.1,1
2023-01-02T00:00:00,1162A,120.591,31.3019,苏州市,彩香,细颗粒物(PM2.5),152,145,118,116,96,66,31,47,17,60,72,9,9,1.1,1
2023-01-02T00:00:00,1163A,120.596,31.3264,苏州市,轧钢厂,细颗粒物(PM2.5),145,159,130,111,90,61,38,42,14,61,80,11,9,1.1,1
2023-01-02T00:00:00,1164A,120.613,31.2703,苏州市,吴中区,细颗粒物(PM2.5),143,143,122,109,91,70,28,43,25,68,77,10,11,1.0,0.8
2023-01-02T00:00:00,1165A,120.543,31.2994,苏州市,苏州新区,细颗粒物(PM2.5),140,132,117,107,95,54,26,38,13,68,79,10,10,1.3,1.1
2023-01-02T00:00:00,1166A,120.669,31.3097,苏州市,苏州工业园区,细颗粒物(PM2.5),155,145,121,118,94,70,29,46,32,70,72,9,9,1.2,1
2023-01-02T00:00:00,1167A,120.641,31.3708,苏州市,相城区,细颗粒物(PM2.5),145,157,146,111,99,50,41,32,14,58,84,12,10,1.3,1.1
2023-01-02T00:00:00,1168A,120.9098,31.9663,南通市,狼山街道,细颗粒物(PM2.5),70,84,138,51,112,75,58,55,53,22,59,8,10,0.5,0.9
2023-01-02T00:00:00,1169A,120.86,32.0005,南通市,虹桥,细颗粒物(PM2.5),74,91,153,54,111,64,51,53,52,42,83,6,12,0.5,0.9
2023-01-02T00:00:00,1170A,120.87,32.02,南通市,城中,细颗粒物(PM2.5),87,83,150,64,118,83,61,62,60,15,67,7,11,0.4,0.8
2023-01-02T00:00:00,1171A,120.94,31.93,南通市,星湖花园,细颗粒物(PM2.5),119,131,143,90,107,65,46,54,49,40,66,10,11,0.8,1
2023-01-02T00:00:00,1172A,120.81,32.0417,南通市,紫琅学院,细颗粒物(PM2.5),77,88,167,56,107,71,44,50,47,35,73,4,10,0.6,1
2023-01-02T00:00:00,1173A,119.176,34.5885,连云港市,市环境监测站,,45,44,146,31,120,65,57,61,54,27,56,10,14,0.7,1.1
2023-01-02T00:00:00,1177A,117.179,34.2761,徐州市,黄河新村,细颗粒物(PM2.5),98,119,299,73,225,119,34,95,52,44,72,18,22,1.3,1.9
2023-01-02T00:00:00,1178A,117.1918,34.2384,徐州市,淮塔,细颗粒物(PM2.5),125,132,230,95,183,132,26,105,59,50,68,12,16,1.3,1.7
2023-01-02T00:00:00,1180A,117.256,34.2153,徐州市,新城区,细颗粒物(PM2.5),120,117,228,91,181,124,35,96,59,40,68,14,19,1.5,2
2023-01-02T00:00:00,1181A,117.244,34.2911,徐州市,桃园路,细颗粒物(PM2.5),119,136,250,90,187,126,26,102,56,53,73,11,15,1.0,1.4
2023-01-02T00:00:00,1182A,117.2933,34.2778,徐州市,农科院,细颗粒物(PM2.5),117,129,261,88,195,128,10,90,30,56,66,13,18,1.1,1.6
2023-01-02T00:00:00,1186A,119.389,32.3761,扬州市,邗江监测站,细颗粒物(PM2.5),222,200,171,172,140,44,40,24,24,72,107,13,15,1.2,1.4
2023-01-02T00:00:00,1188A,120.269,31.4867,无锡市,雪浪,细颗粒物(PM2.5),89,92,111,66,73,53,8,33,9,78,76,8,9,1.2,1
2023-01-02T00:00:00,1189A,120.275,31.6219,无锡市,黄巷,细颗粒物(PM2.5),100,117,145,75,90,46,7,38,10,92,86,16,15,2.6,2.2
2023-01-02T00:00:00,1190A,120.294,31.56,无锡市,曹张,细颗粒物(PM2.5),110,102,127,83,74,50,7,38,21,84,73,18,19,2.1,2
2023-01-02T00:00:00,1191A,120.242,31.5031,无锡市,漆塘,细颗粒物(PM2.5),70,68,92,51,66,68,19,43,22,58,74,6,10,1.2,1
2023-01-02T00:00:00,1192A,120.3489,31.5863,无锡市,东亭,细颗粒物(PM2.5),144,153,118,110,89,43,2,33,15,95,81,13,13,1.6,1.5
2023-01-02T00:00:00,1193A,120.354,31.5475,无锡市,旺庄,细颗粒物(PM2.5),140,136,120,107,86,44,10,34,11,88,78,8,9,1.4,1.2
2023-01-02T00:00:00,1194A,120.245,31.5631,无锡市,荣巷,细颗粒物(PM2.5),156,139,98,119,79,56,11,38,30,93,78,14,13,1.5,1.3
2023-01-02T00:00:00,1195A,120.299,31.6817,无锡市,堰桥,细颗粒物(PM2.5),199,183,145,149,106,57,11,42,12,79,81,13,13,1.8,1.7
2023-01-02T00:00:00,1196A,119.9633,31.762,常州市,市监测站,细颗粒物(PM2.5),128,147,164,97,113,44,35,35,15,56,91,12,13,1.3,1.5
2023-01-02T00:00:00,1200A,119.9468,31.7069,常州市,武进监测站,细颗粒物(PM2.5),140,148,130,107,95,56,37,45,28,64,85,19,18,1.3,1.2
2023-01-02T00:00:00,1201A,119.9255,31.9087,常州市,安家,细颗粒物(PM2.5),79,77,165,58,122,59,59,32,26,30,81,11,13,1.0,1.6
2023-01-02T00:00:00,1203A,119.6707,32.1875,镇江市,新区办事处,细颗粒物(PM2.5),95,91,172,71,131,67,55,41,41,38,91,10,16,0.9,1.4
2023-01-02T00:00:00,1204A,119.4974,32.1968,镇江市,职教中心,细颗粒物(PM2.5),97,91,155,72,118,67,44,35,35,50,85,7,12,0.7,1.1
2023-01-02T00:00:00,1205A,119.4303,32.1328,镇江市,丹徒区监测站,细颗粒物(PM2.5),84,79,149,62,114,67,63,39,39,38,86,7,11,0.8,1.2
2023-01-02T00:00:00,1206A,119.905,32.4878,泰州市,公园路,细颗粒物(PM2.5),208,178,188,158,151,53,53,18,18,41,83,6,11,1.3,1.7
2023-01-02T00:00:00,1207A,119.9189,32.4625,泰州市,莲花,细颗粒物(PM2.5),226,190,198,176,164,72,72,25,25,37,89,10,15,1.2,1.4
2023-01-02T00:00:00,1209A,119.888,32.4639,泰州市,留学生创业园,细颗粒物(PM2.5),213,232,204,163,140,67,67,20,20,38,85,13,18,1.4,1.7
2023-01-02T00:00:00,1210A,119.036,33.5981,淮安市,钵池山,细颗粒物(PM2.5),139,127,153,106,144,99,49,89,69,33,49,11,14,0.9,1
2023-01-02T00:00:00,1211A,119.007,33.575,淮安市,北京南路,细颗粒物(PM2.5),140,124,171,107,134,107,57,95,70,30,50,12,14,1.0,1.2
2023-01-02T00:00:00,1212A,118.989,33.6067,淮安市,市监测站,细颗粒物(PM2.5),119,117,167,90,131,104,60,87,71,29,52,10,12,1.1,1.4
2023-01-02T00:00:00,1213A,119.135,33.5039,淮安市,楚州区监测站,细颗粒物(PM2.5),132,120,161,100,134,93,57,84,71,24,49,10,13,0.8,1
2023-01-02T00:00:00,1214A,119.0186,33.6297,淮安市,淮阴区监测站,细颗粒物(PM2.5),147,133,184,112,187,98,49,81,61,31,52,11,14,0.9,1.1
2023-01-02T00:00:00,1215A,120.118,33.4022,盐城市,盐城电厂,细颗粒物(PM2.5),85,95,166,63,113,120,69,108,89,28,43,7,12,0.8,1
2023-01-02T00:00:00,1216A,120.156,33.3942,盐城市,市监测站,细颗粒物(PM2.5),97,90,161,72,124,112,56,102,82,27,40,3,8,0.6,0.9
2023-01-02T00:00:00,1218A,120.2144,33.38,盐城市,开发区管委会,细颗粒物(PM2.5),83,82,160,61,126,121,71,111,92,15,38,5,8,0.7,0.9
2023-01-02T00:00:00,1220A,118.293,33.9528,宿迁市,宿迁学院,细颗粒物(PM2.5),160,154,211,122,170,122,48,90,56,38,53,9,15,0.9,1
2023-01-02T00:00:00,1221A,118.2442,33.9592,宿迁市,宿迁中学,细颗粒物(PM2.5),149,154,204,114,159,120,44,88,55,35,50,8,13,1.0,1.1
2023-01-02T00:00:00,1223A,120.2072,30.2111,杭州市,滨江,细颗粒物(PM2.5),99,104,117,74,80,71,25,52,50,58,62,8,8,0.6,0.7
2023-01-02T00:00:00,1224A,120.0633,30.2747,杭州市,西溪,细颗粒物(PM2.5),132,141,138,100,99,37,6,27,17,70,58,7,7,0.8,0.9
2023-01-02T00:00:00,1226A,120.3461,30.3153,杭州市,下沙,细颗粒物(PM2.5),103,111,142,77,100,72,4,62,40,88,70,7,7,0.8,1.1
2023-01-02T00:00:00,1227A,120.1269,30.2456,杭州市,卧龙桥,细颗粒物(PM2.5),105,97,97,79,81,62,8,47,44,67,51,8,9,0.7,0.8
2023-01-02T00:00:00,1228A,120.1903,30.2692,杭州市,浙江农大,细颗粒物(PM2.5),112,105,118,84,95,64,9,47,42,73,61,9,9,0.7,0.8
2023-01-02T00:00:00,1230A,120.1197,30.3119,杭州市,和睦小学,细颗粒物(PM2.5),125,126,136,95,103,47,3,30,18,91,78,6,6,0.8,1
2023-01-02T00:00:00,1231A,120.3019,30.4183,杭州市,临平镇,细颗粒物(PM2.5),93,110,146,69,97,85,3,61,31,89,66,9,9,0.7,0.9
2023-01-02T00:00:00,1232A,120.2697,30.1819,杭州市,城厢镇,细颗粒物(PM2.5),103,106,126,77,93,57,28,45,42,55,65,6,7,0.8,1
2023-01-02T00:00:00,1233A,120.0883,30.1808,杭州市,云栖,细颗粒物(PM2.5),78,79,97,57,75,70,25,44,44,44,56,9,10,0.7,0.9
2023-01-02T00:00:00,1234A,121.8358,29.911,宁波市,区环保大楼,细颗粒物(PM2.5),109,109,98,82,85,57,2,45,16,69,66,8,10,1.1,1
2023-01-02T00:00:00,1235A,121.56,29.82,宁波市,万里学院,细颗粒物(PM2.5),88,114,114,65,70,49,13,39,34,80,72,8,10,0.7,0.7
2023-01-02T00:00:00,1236A,121.713,29.9572,宁波市,龙赛医院,"颗粒物(PM10),细颗粒物(PM2.5)",63,76,107,45,74,75,65,66,57,37,71,9,11,0.5,0.8
2023-01-02T00:00:00,1239A,121.633,29.7733,宁波市,钱湖水厂,细颗粒物(PM2.5),134,131,113,102,91,50,4,31,12,75,60,6,6,1.1,1
2023-01-02T00:00:00,1240A,121.5856,29.8635,宁波市,太古小学,细颗粒物(PM2.5),90,75,121,67,82,43,24,35,32,60,75,9,11,0.5,0.8
2023-01-02T00:00:00,1241A,121.524,29.8674,宁波市,市环境监测中心,颗粒物(PM10),53,55,74,36,47,62,16,45,38,52,57,7,7,0.6,0.8
2023-01-02T00:00:00,1242A,120.634,28.0089,温州市,瓯海,,45,45,58,26,35,90,47,82,65,36,39,7,9,0.4,0.4
2023-01-02T00:00:00,1243A,120.6748,27.9939,温州市,南浦,,36,36,44,23,28,92,69,85,76,22,28,5,7,0.3,0.2
2023-01-02T00:00:00,1244A,120.76,27.9747,温州市,龙湾,,37,37,42,19,25,90,59,82,74,38,36,6,7,0.1,0.1
2023-01-02T00:00:00,1245A,120.6709,28.0167,温州市,市站,,44,44,44,20,25,91,70,84,74,20,24,5,6,0.4,0.4
2023-01-02T00:00:00,1247A,120.6053,29.9928,绍兴市,城东开发委,细颗粒物(PM2.5),92,91,111,68,86,60,39,49,49,43,50,6,5,0.6,0.8
2023-01-02T00:00:00,1250A,120.0751,30.8669,湖州市,城西水厂,细颗粒物(PM2.5),110,83,96,83,102,49,4,44,31,98,74,10,11,0.9,0.9
2023-01-02T00:00:00,1252A,120.7436,30.778,嘉兴市,清河小学,细颗粒物(PM2.5),75,90,126,55,90,67,4,40,8,100,72,8,8,0.5,0.8
2023-01-02T00:00:00,1253A,120.726,30.7478,嘉兴市,嘉兴学院,细颗粒物(PM2.5),72,88,123,52,88,69,4,41,10,108,81,11,10,0.9,1
2023-01-02T00:00:00,1255A,121.273,28.6459,台州市,黄岩环保大楼,,37,37,48,23,34,94,46,82,68,32,29,8,9,0.5,0.6
2023-01-02T00:00:00,1256A,121.419,28.6542,台州市,台州环保大楼,颗粒物(PM10),52,53,63,35,43,100,85,92,88,14,28,13,11,0.5,0.5
2023-01-02T00:00:00,1257A,121.377,28.5773,台州市,路桥田洋王,细颗粒物(PM2.5),53,54,60,37,43,94,73,87,82,22,30,8,9,0.4,0.5
2023-01-02T00:00:00,1258A,122.122,30.0203,舟山市,定海檀枫,,49,41,64,34,50,92,79,85,79,22,26,5,5,0.4,0.5
2023-01-02T00:00:00,1259A,122.3094,29.9558,舟山市,普陀东港,,40,36,63,28,48,101,83,95,91,17,19,6,6,0.5,0.6
2023-01-02T00:00:00,1260A,122.19,29.9944,舟山市,临城新区,,48,48,75,33,55,95,75,88,81,24,28,6,6,0.4,0.5
2023-01-02T00:00:00,1262A,119.647,29.077,金华市,十五中,细颗粒物(PM2.5),99,76,84,74,71,55,21,47,34,64,58,5,5,0.8,0.8
2023-01-02T00:00:00,1263A,119.686,29.1029,金华市,监测站,细颗粒物(PM2.5),113,72,78,85,75,56,13,46,28,64,53,6,6,0.8,0.7
2023-01-02T00:00:00,1264A,118.8692,28.9398,衢州市,环保大楼,细颗粒物(PM2.5),73,60,77,53,68,63,33,49,31,33,43,10,9,0.6,0.6
2023-01-02T00:00:00,1265A,118.8709,28.9666,衢州市,实验学校,细颗粒物(PM2.5),70,69,82,51,65,70,25,54,31,42,44,2,6,0.6,0.6
2023-01-02T00:00:00,1266A,118.8621,28.9808,衢州市,衢州学院,颗粒物(PM10),57,63,79,39,55,71,29,56,35,34,35,5,6,0.6,0.6
2023-01-02T00:00:00,1267A,119.914,28.4514,丽水市,监测站大楼,,45,45,45,30,29,44,6,33,24,45,34,8,8,0.7,0.6
2023-01-02T00:00:00,1268A,119.93,28.4586,丽水市,莲都小学,,42,42,43,23,26,66,33,52,52,36,35,8,8,0.8,0.8
2023-01-02T00:00:00,1269A,119.879,28.4231,丽水市,余庄前,,31,31,45,20,30,59,19,38,25,23,25,8,8,0.5,0.6
2023-01-02T00:00:00,1270A,117.1959,31.7848,合肥市,明珠广场,细颗粒物(PM2.5),144,144,142,110,96,42,5,24,10,81,84,10,14,1.1,1.2
2023-01-02T00:00:00,1271A,117.3072,31.8764,合肥市,三里街,细颗粒物(PM2.5),156,149,149,119,116,36,2,25,14,90,85,10,13,1.1,1.2
2023-01-02T00:00:00,1272A,117.2588,31.8707,合肥市,琥珀山庄,细颗粒物(PM2.5),192,183,164,144,111,34,5,21,10,91,84,10,12,1.3,1.3
2023-01-02T00:00:00,1273A,117.1604,31.9052,合肥市,董铺水库(对照点),颗粒物(PM10),102,154,172,,,41,41,35,35,33,44,4,6,0.6,0.7
2023-01-02T00:00:00,1274A,117.25,31.8571,合肥市,长江中路,细颗粒物(PM2.5),156,151,155,119,111,44,14,28,18,74,81,12,14,1.0,1.3
2023-01-02T00:00:00,1275A,117.266,31.9436,合肥市,庐阳区,细颗粒物(PM2.5),94,105,161,70,101,50,26,33,31,65,76,9,11,0.8,1
2023-01-02T00:00:00,1276A,117.336,31.8586,合肥市,瑶海区,细颗粒物(PM2.5),125,134,161,95,113,36,6,27,18,80,82,8,12,1.2,1.4
2023-01-02T00:00:00,1277A,117.3027,31.7964,合肥市,包河区,细颗粒物(PM2.5),168,158,155,127,110,30,8,21,11,84,86,9,12,1.0,1.1
2023-01-02T00:00:00,1278A,117.2776,31.7385,合肥市,滨湖新区,细颗粒物(PM2.5),138,153,146,105,99,33,13,24,19,83,88,10,11,0.9,1
2023-01-02T00:00:00,1279A,117.1318,31.8403,合肥市,高新区,细颗粒物(PM2.5),134,129,145,102,104,38,34,32,28,54,80,9,12,0.7,1.1
2023-01-02T00:00:00,1280A,119.3903,26.0543,福州市,鼓山(对照点),,,,,,,,,,,,,,,,
2023-01-02T00:00:00,1282A,119.2681,26.0504,福州市,师大,,45,45,44,28,22,82,45,72,60,27,19,5,5,0.5,0.5
2023-01-02T00:00:00,1283A,119.2984,26.1028,福州市,五四北路,,32,32,37,19,18,85,61,84,67,14,13,4,4,0.5,0.5
2023-01-02T00:00:00,1284A,119.2648,26.0768,福州市,杨桥西路,,49,49,45,22,18,80,33,71,52,32,20,3,4,0.5,0.5
2023-01-02T00:00:00,1285A,119.317,26.0746,福州市,紫阳,,34,34,38,18,16,91,76,88,77,11,11,6,6,0.6,0.6
2023-01-02T00:00:00,1286A,118.1608,24.8169,厦门市,溪东(对照点),,,,,,,,,,,,,,,,
2023-01-02T00:00:00,1287A,118.1514,24.4767,厦门市,洪文,,23,20,24,13,13,86,72,84,73,17,18,1,1,0.5,0.6
2023-01-02T00:00:00,1288A,118.0661,24.4444,厦门市,鼓浪屿,,25,18,20,13,12,90,77,84,77,17,25,2,3,0.5,0.5
2023-01-02T00:00:00,1290A,115.8931,28.6843,南昌市,省外办,细颗粒物(PM2.5),77,85,91,56,65,68,41,61,43,43,48,10,10,0.6,0.7
2023-01-02T00:00:00,1291A,115.8886,28.7003,南昌市,省林业公司,细颗粒物(PM2.5),77,75,83,56,64,62,39,57,40,43,51,7,8,0.8,0.9
2023-01-02T00:00:00,1292A,115.8126,28.7442,南昌市,林科所,细颗粒物(PM2.5),73,58,76,53,61,75,58,65,51,21,35,8,8,0.5,0.6
2023-01-02T00:00:00,1294A,115.8518,28.687,南昌市,建工学校,细颗粒物(PM2.5),88,76,83,65,59,69,52,59,45,28,42,8,8,0.6,0.7
2023-01-02T00:00:00,1295A,115.8921,28.6424,南昌市,象湖,细颗粒物(PM2.5),78,74,74,57,67,65,41,59,43,34,42,10,8,0.4,0.6
2023-01-02T00:00:00,1296A,115.7423,28.7996,南昌市,武术学校(对照点),细颗粒物(PM2.5),77,46,46,56,48,80,54,67,53,26,23,7,6,0.8,0.9
2023-01-02T00:00:00,1298A,115.9314,28.6842,南昌市,省站,颗粒物(PM10),73,95,97,51,65,71,50,62,50,23,35,11,11,0.7,0.8
2023-01-02T00:00:00,1299A,116.9862,36.6114,济南市,科干所,细颗粒物(PM2.5),123,139,156,93,109,55,18,44,26,75,69,30,24,0.9,0.9
2023-01-02T00:00:00,1300A,116.9376,36.665,济南市,农科所,细颗粒物(PM2.5),209,220,224,159,146,50,7,40,19,108,90,33,35,1.5,1.6
2023-01-02T00:00:00,1301A,117.1265,36.6734,济南市,开发区,细颗粒物(PM2.5),175,188,171,132,118,60,7,47,17,88,72,32,26,1.4,1.2
2023-01-02T00:00:00,1303A,117.0624,36.6868,济南市,省种子仓库,细颗粒物(PM2.5),250,261,210,200,150,46,1,37,14,92,75,29,29,1.5,1.5
2023-01-02T00:00:00,1304A,116.9489,36.6447,济南市,机床二厂,细颗粒物(PM2.5),178,186,218,134,144,52,9,43,23,96,76,29,45,1.3,1.7
2023-01-02T00:00:00,1305A,117.0495,36.663,济南市,市监测站,细颗粒物(PM2.5),178,193,171,134,115,57,5,47,20,102,83,24,25,1.2,1.1
2023-01-02T00:00:00,1306A,116.7675,36.5484,济南市,长清党校,细颗粒物(PM2.5),147,156,172,112,122,53,17,43,24,84,82,32,25,1.3,1.3
2023-01-02T00:00:00,1307A,120.6659,36.2403,青岛市,仰口(对照点),,39,36,89,27,66,106,77,87,84,19,32,3,8,0.4,0.6
2023-01-02T00:00:00,1310A,120.4134,36.0658,青岛市,市南区东部子站,颗粒物(PM10),65,80,130,39,96,86,31,79,66,53,40,10,14,0.8,0.9
2023-01-02T00:00:00,1311A,120.3664,36.1032,青岛市,四方区子站,细颗粒物(PM2.5),94,114,146,70,111,70,5,59,40,75,44,14,17,1.0,1.1
2023-01-02T00:00:00,1312A,120.2994,36.054,青岛市,市南区西部子站,细颗粒物(PM2.5),98,114,159,73,113,93,7,81,61,93,60,14,16,1.1,1.2
2023-01-02T00:00:00,1313A,120.4581,36.0858,青岛市,崂山区子站,"颗粒物(PM10),细颗粒物(PM2.5)",62,73,116,44,79,93,52,86,73,43,44,11,13,0.7,0.9
2023-01-02T00:00:00,1314A,120.1983,35.9608,青岛市,黄岛区子站,细颗粒物(PM2.5),70,70,169,51,128,77,38,64,51,49,64,10,16,0.8,1.3
2023-01-02T00:00:00,1315A,120.3999,36.3083,青岛市,城阳区子站,细颗粒物(PM2.5),138,193,169,105,98,78,8,65,20,83,70,16,16,2.0,1.5
2023-01-02T00:00:00,1316A,113.69031,34.76122,郑州市,烟厂,细颗粒物(PM2.5),201,166,200,151,187,86,24,67,45,68,67,29,17,1.1,1.2
2023-01-02T00:00:00,1317A,113.65724,34.77134,郑州市,郑纺机,细颗粒物(PM2.5),192,165,191,144,176,92,29,75,52,70,71,32,22,1.7,1.7
2023-01-02T00:00:00,1318A,113.67526,34.80246,郑州市,银行学校,细颗粒物(PM2.5),198,189,208,148,192,90,22,69,42,72,67,30,21,1.7,1.7
2023-01-02T00:00:00,1319A,113.56746,34.81334,郑州市,供水公司,细颗粒物(PM2.5),201,190,193,151,168,72,4,57,35,96,73,23,18,2.1,2
2023-01-02T00:00:00,1320A,113.7329,34.7178,郑州市,经开区管委,细颗粒物(PM2.5),199,173,200,149,190,90,24,70,50,66,68,24,18,1.5,1.5
2023-01-02T00:00:00,1321A,113.73961,34.77172,郑州市,四十七中,细颗粒物(PM2.5),220,215,215,170,200,90,9,68,35,71,59,28,17,1.6,1.5
2023-01-02T00:00:00,1322A,113.60532,34.74838,郑州市,市监测站,细颗粒物(PM2.5),200,158,202,150,174,92,30,73,54,54,59,29,18,1.1,1.1
2023-01-02T00:00:00,1323A,113.64164,34.7525,郑州市,河医大,细颗粒物(PM2.5),195,164,187,146,175,74,23,58,39,67,70,24,14,1.2,1.3
2023-01-02T00:00:00,1324A,113.51488,34.91089,郑州市,岗李水库(对照点),,,,,,,,,,,,,,,,
2023-01-02T00:00:00,1325A,114.3677,30.5584,武汉市,东湖梨园,细颗粒物(PM2.5),158,135,166,120,143,48,40,37,36,47,75,10,9,1.2,1.6
2023-01-02T00:00:00,1326A,114.2529,30.558,武汉市,汉阳月湖,细颗粒物(PM2.5),160,141,179,122,152,42,38,26,22,45,82,9,9,1.1,1.5
2023-01-02T00:00:00,1327A,114.282,30.6189,武汉市,汉口花桥,细颗粒物(PM2.5),165,152,168,125,141,45,40,32,28,44,77,10,11,1.0,1.4
2023-01-02T00:00:00,1328A,114.3025,30.5332,武汉市,武昌紫阳,细颗粒物(PM2.5),152,128,151,116,132,59,40,40,32,48,82,9,10,1.0,1.4
2023-01-02T00:00:00,1329A,114.3646,30.6217,武汉市,青山钢花,细颗粒物(PM2.5),149,135,173,114,146,49,39,30,28,54,87,13,14,1.1,1.4
2023-01-02T00:00:00,1330A,114.1566,30.4825,武汉市,沌口新区,,,,,,,,,,,,,,,,
2023-01-02T00:00:00,1331A,114.3014,30.5944,武汉市,汉口江滩,细颗粒物(PM2.5),178,148,168,134,147,52,46,33,32,38,75,10,12,1.0,1.3
2023-01-02T00:00:00,1333A,114.135,30.6319,武汉市,吴家山,细颗粒物(PM2.5),168,159,176,127,146,66,52,43,43,45,85,10,11,0.9,1.3
2023-01-02T00:00:00,1334A,113.8454,30.2917,武汉市,沉湖七壕(对照点),细颗粒物(PM2.5),113,114,144,85,94,95,55,84,75,24,33,8,10,1.1,1.2
2023-01-02T00:00:00,1335A,113.0833,28.2325,长沙市,经开区环保局,细颗粒物(PM2.5),211,173,151,161,143,56,26,41,27,41,39,8,7,1.1,1
2023-01-02T00:00:00,1336A,112.8872,28.2189,长沙市,高开区环保局,细颗粒物(PM2.5),201,154,133,151,128,69,54,58,51,22,24,9,7,1.0,1
2023-01-02T00:00:00,1337A,113.0792,28.2053,长沙市,马坡岭,细颗粒物(PM2.5),216,172,146,166,148,52,28,41,26,42,41,10,8,0.9,0.9
2023-01-02T00:00:00,1338A,112.9394,28.19,长沙市,湖南师范大学,细颗粒物(PM2.5),219,172,145,169,145,58,50,48,42,27,26,6,5,0.8,0.8
2023-01-02T00:00:00,1339A,113.0178,28.1322,长沙市,雨花区环保局,细颗粒物(PM2.5),201,162,136,151,130,60,36,48,35,39,35,5,4,0.7,0.7
2023-01-02T00:00:00,1340A,112.9792,28.2597,长沙市,伍家岭,细颗粒物(PM2.5),206,182,163,156,135,63,53,46,42,25,28,8,7,1.0,1
2023-01-02T00:00:00,1341A,113.0014,28.1944,长沙市,火车新站,细颗粒物(PM2.5),201,164,145,151,135,61,45,47,38,34,34,9,7,1.0,1
2023-01-02T00:00:00,1342A,112.9844,28.1178,长沙市,天心区环保局,细颗粒物(PM2.5),192,158,143,144,128,72,48,57,43,39,37,9,7,0.8,0.8
2023-01-02T00:00:00,1343A,112.8908,28.1308,长沙市,湖南中医药大学,细颗粒物(PM2.5),215,165,144,165,142,65,50,50,46,22,27,6,4,1.2,1.1
2023-01-02T00:00:00,1344A,112.9581,28.3611,长沙市,沙坪(对照点),细颗粒物(PM2.5),205,175,153,155,130,43,27,40,34,31,23,8,7,0.9,0.8
2023-01-02T00:00:00,1345A,113.2347,23.1423,广州市,广雅中学,颗粒物(PM10),53,55,50,30,28,80,33,68,50,40,32,6,5,1.2,1.1
2023-01-02T00:00:00,1346A,113.2612,23.105,广州市,市五中,细颗粒物(PM2.5),53,54,46,37,32,98,41,86,67,38,26,6,6,0.9,0.8
2023-01-02T00:00:00,1348A,113.3478,23.0916,广州市,广东商学院,,49,49,37,30,25,97,39,86,61,38,24,8,6,0.8,0.7
2023-01-02T00:00:00,1349A,113.4332,23.1047,广州市,市八十六中,颗粒物(PM10),53,55,45,32,29,87,30,76,58,39,21,5,4,1.0,0.9
2023-01-02T00:00:00,1350A,113.3505,22.9483,广州市,番禺中学,颗粒物(PM10),51,52,42,33,28,96,39,85,61,45,28,9,8,0.9,0.8
2023-01-02T00:00:00,1351A,113.2146,23.3916,广州市,花都师范,,35,35,32,24,23,101,65,88,75,19,17,8,7,0.7,0.7
2023-01-02T00:00:00,1352A,113.2597,23.1331,广州市,市监测站,颗粒物(PM10),54,57,48,33,28,91,30,80,58,48,32,6,6,0.9,0.8
2023-01-02T00:00:00,1353A,113.5618,23.312,广州市,九龙镇镇龙,,48,48,38,31,28,87,42,78,56,30,21,6,4,0.8,0.7
2023-01-02T00:00:00,1354A,113.2765,23.1544,广州市,麓湖,,48,48,41,29,26,91,21,79,49,48,27,6,7,0.8,0.7
2023-01-02T00:00:00,1355A,113.443,23.3035,广州市,帽峰山森林公园(对照点),,42,36,34,29,28,94,56,81,70,16,14,6,4,0.7,0.6
2023-01-02T00:00:00,1356A,114.1063,22.5545,深圳市,通心岭子站,"颗粒物(PM10),细颗粒物(PM2.5)",54,57,50,38,33,46,21,40,28,49,30,3,3,0.9,0.8
2023-01-02T00:00:00,1357A,114.117,22.5625,深圳市,洪湖,颗粒物(PM10),56,62,55,39,33,53,16,45,35,57,30,8,8,0.9,0.8
2023-01-02T00:00:00,1358A,113.987,22.5417,深圳市,华侨城,颗粒物(PM10),52,54,52,34,35,49,26,39,31,44,37,5,5,0.9,0.8
2023-01-02T00:00:00,1359A,113.9181,22.5171,深圳市,南海子站,细颗粒物(PM2.5),68,80,58,49,36,48,5,39,23,70,37,5,5,1.3,1.1
2023-01-02T00:00:00,1360A,114.2458,22.5689,深圳市,盐田,,42,40,35,29,26,62,24,53,34,34,21,5,6,0.7,0.7
2023-01-02T00:00:00,1361A,114.2283,22.7244,深圳市,龙岗,"颗粒物(PM10),细颗粒物(PM2.5)",57,63,50,40,34,52,12,46,29,53,22,4,5,1.0,0.8
2023-01-02T00:00:00,1363A,114.494,22.5422,深圳市,南澳,,32,30,32,22,24,77,60,70,57,13,17,4,4,0.6,0.7
2023-01-02T00:00:00,1364A,114.41,22.6342,深圳市,葵涌,,43,41,41,30,30,55,45,52,50,16,16,8,8,0.8,0.8
2023-01-02T00:00:00,1365A,114.297,22.5978,深圳市,梅沙,,42,42,40,28,26,72,69,68,68,11,14,7,6,0.9,0.9
2023-01-02T00:00:00,1366A,114.0678,22.738,深圳市,观澜,颗粒物(PM10),78,105,66,51,35,55,6,47,20,58,39,7,7,0.9,0.7
2023-01-02T00:00:00,1367A,113.5814,22.2618,珠海市,吉大,,50,50,50,26,31,69,56,63,61,22,29,8,8,0.5,0.5
2023-01-02T00:00:00,1368A,113.4881,22.2335,珠海市,前山,,40,40,44,24,24,62,52,53,48,29,37,3,4,0.6,0.7
2023-01-02T00:00:00,1369A,113.628,22.4251,珠海市,唐家,颗粒物(PM10),54,58,46,36,32,76,22,68,53,53,32,9,9,0.6,0.6
2023-01-02T00:00:00,1370A,113.299,22.2281,珠海市,斗门,细颗粒物(PM2.5),78,80,50,57,33,73,34,63,54,47,33,4,4,0.8,0.6
2023-01-02T00:00:00,1371A,113.1294,23.0067,佛山市,湾梁,,43,39,37,30,25,103,53,89,72,27,19,8,8,0.7,0.6
2023-01-02T00:00:00,1372A,113.1083,23.0478,佛山市,华材职中,,45,41,36,31,32,104,50,88,66,31,27,8,8,0.6,0.5
2023-01-02T00:00:00,1373A,113.144,23.0453,佛山市,南海气象局,,43,40,35,30,25,89,42,75,57,32,25,6,6,0.9,0.9
2023-01-02T00:00:00,1374A,113.2881,22.8094,佛山市,顺德苏岗,,43,43,33,27,22,87,22,72,48,50,31,7,6,1.2,1
2023-01-02T00:00:00,1376A,112.8383,22.8678,佛山市,高明孔堂,,46,46,41,31,27,94,54,82,70,23,19,6,5,0.7,0.7
2023-01-02T00:00:00,1377A,112.8836,23.1588,佛山市,三水监测站,细颗粒物(PM2.5),53,41,39,37,28,95,48,78,59,29,24,12,8,0.6,0.7
2023-01-02T00:00:00,1378A,112.867,23.185,佛山市,三水云东海,,46,33,31,32,27,93,50,78,58,21,20,9,6,0.7,0.6
2023-01-02T00:00:00,1379A,113.3769,22.5211,中山市,华柏园,细颗粒物(PM2.5),65,52,44,47,33,73,16,60,32,48,35,6,6,0.9,0.8
2023-01-02T00:00:00,1380A,113.3881,22.5497,中山市,张溪,细颗粒物(PM2.5),69,71,49,50,35,78,10,64,37,64,37,4,4,0.8,0.6
2023-01-02T00:00:00,1381A,113.4075,22.5111,中山市,紫马岭,细颗粒物(PM2.5),57,48,42,40,30,70,20,57,40,46,33,8,10,0.8,0.7
2023-01-02T00:00:00,1382A,113.4411,22.4853,中山市,长江旅游区(对照点),,,,,,,,,,,,,,,,
2023-01-02T00:00:00,1383A,113.1064,22.6058,江门市,北街,,45,45,40,29,28,107,42,88,69,49,35,9,9,0.9,0.8
2023-01-02T00:00:00,1384A,113.0731,22.5835,江门市,西区,颗粒物(PM10),53,56,50,36,32,104,33,84,63,37,31,8,8,0.6,0.6
2023-01-02T00:00:00,1385A,113.0219,22.5311,江门市,圭峰西,,46,46,39,30,30,90,51,80,70,38,28,6,6,0.7,0.7
2023-01-02T00:00:00,1386A,113.0828,22.5947,江门市,东湖,,49,49,46,34,27,106,47,88,69,35,28,7,8,0.7,0.7
2023-01-02T00:00:00,1389A,113.7547,23.0494,东莞市,莞城梨川,细颗粒物(PM2.5),72,79,43,52,30,86,8,78,43,64,26,8,8,0.9,0.6
2023-01-02T00:00:00,1390A,113.7944,23.0128,东莞市,东城石井,颗粒物(PM10),55,60,41,36,28,90,15,76,44,36,19,10,11,0.9,0.8
2023-01-02T00:00:00,1391A,113.7383,22.9658,东莞市,南城西平,细颗粒物(PM2.5),63,74,47,45,30,88,4,76,39,70,34,10,10,0.8,0.6
2023-01-02T00:00:00,1392A,114.4183,23.0528,惠州市,河南岸金山湖子站,颗粒物(PM10),59,68,49,40,36,66,35,57,37,29,22,10,8,0.9,0.9
2023-01-02T00:00:00,1393A,114.4053,23.0822,惠州市,下埔横江三路子站,细颗粒物(PM2.5),54,55,44,38,32,72,37,62,44,32,24,8,8,0.8,0.8
2023-01-02T00:00:00,1394A,114.4103,23.1142,惠州市,江北云山西路子站,细颗粒物(PM2.5),55,52,42,39,39,70,43,64,56,23,17,5,5,0.9,0.8
2023-01-02T00:00:00,1395A,114.4645,22.7833,惠州市,惠阳区承修路船湖子站,细颗粒物(PM2.5),75,78,56,55,41,61,27,53,35,25,19,5,5,0.9,0.9
2023-01-02T00:00:00,1396A,114.5317,22.7422,惠州市,大亚湾管委会子站,,,61,45,38,32,59,36,51,42,27,23,4,4,,0.9
2023-01-02T00:00:00,1397A,112.4267,23.0706,肇庆市,睦岗子站,,44,44,35,29,25,85,45,77,59,44,33,8,8,0.8,0.7
2023-01-02T00:00:00,1398A,112.4645,23.0475,肇庆市,城中子站,,40,40,35,26,25,88,63,77,70,21,20,8,7,0.6,0.6
2023-01-02T00:00:00,1399A,112.5544,23.1522,肇庆市,坑口子站,,43,41,33,30,26,94,44,78,58,36,26,9,8,0.7,0.6
2023-01-02T00:00:00,1400A,112.4753,23.1,肇庆市,七星岩子站(对照点),,37,37,32,24,22,91,64,80,72,15,14,3,2,0.6,0.6
2023-01-02T00:00:00,1401A,108.3103,22.7881,南宁市,二十一中,细颗粒物(PM2.5),78,68,76,57,55,116,84,96,91,22,34,10,8,1.0,0.9
2023-01-02T00:00:00,1402A,108.3141,22.8528,南宁市,北湖,细颗粒物(PM2.5),80,82,77,59,56,119,76,98,88,25,28,14,13,1.0,0.9
2023-01-02T00:00:00,1403A,108.3206,22.8225,南宁市,市监测站,细颗粒物(PM2.5),79,69,74,58,54,116,75,91,82,38,47,15,15,1.0,0.9
2023-01-02T00:00:00,1404A,108.3829,22.8037,南宁市,大自然花园,细颗粒物(PM2.5),75,69,60,55,50,110,85,89,85,22,30,12,11,1.0,0.8
2023-01-02T00:00:00,1405A,108.4394,22.7904,南宁市,仙葫(对照点),细颗粒物(PM2.5),70,55,59,51,49,105,81,93,86,15,21,17,16,0.9,0.7
2023-01-02T00:00:00,1406A,108.2397,22.8467,南宁市,区农职院,细颗粒物(PM2.5),84,66,55,62,38,119,74,100,88,37,30,14,10,1.0,0.9
2023-01-02T00:00:00,1407A,108.3275,22.735,南宁市,英华嘉园,细颗粒物(PM2.5),79,70,72,58,56,109,74,80,73,28,42,11,10,0.9,0.9
2023-01-02T00:00:00,1408A,108.2257,22.7757,南宁市,沙井镇街道办,细颗粒物(PM2.5),132,157,89,100,52,110,54,92,57,57,44,12,10,1.0,0.8
2023-01-02T00:00:00,1409A,110.576,19.9507,海口市,东寨港(对照点),,,19,28,13,25,64,55,58,57,,,3,3,0.6,0.7
2023-01-02T00:00:00,1410A,110.3232,20.0574,海口市,海南大学,,28,27,41,19,31,103,88,90,90,12,13,5,6,0.7,0.7
2023-01-02T00:00:00,1411A,110.283,20.0053,海口市,秀英海南医院,,29,29,41,17,26,102,92,91,91,11,15,5,6,0.7,0.8
2023-01-02T00:00:00,1412A,110.338,19.9969,海口市,海南师范大学,,32,32,40,18,23,103,87,87,87,9,13,5,6,0.8,0.8
2023-01-02T00:00:00,1413A,110.33,20.0356,海口市,龙华路环保局宿舍,,29,27,37,20,28,104,89,90,90,10,12,4,6,0.7,0.8
2023-01-02T00:00:00,1414A,106.3787,29.8279,重庆市,缙云山(对照点),,41,41,36,19,23,67,34,54,37,27,26,4,4,0.6,0.6
2023-01-02T00:00:00,1416A,106.4213,29.8253,重庆市,天生,细颗粒物(PM2.5),77,74,64,56,50,30,13,22,16,29,27,6,6,0.9,0.9
2023-01-02T00:00:00,1417A,106.6263,29.7228,重庆市,两路,细颗粒物(PM2.5),78,69,55,57,43,28,5,20,10,45,46,6,7,1.0,0.9
2023-01-02T00:00:00,1418A,106.2953,29.5983,重庆市,虎溪,细颗粒物(PM2.5),73,62,62,53,54,35,5,30,14,39,34,5,5,0.9,0.8
2023-01-02T00:00:00,1419A,106.5777,29.5102,重庆市,南坪,细颗粒物(PM2.5),88,79,65,65,52,24,3,13,6,44,38,5,4,0.9,0.8
2023-01-02T00:00:00,1420A,106.6556,29.6277,重庆市,唐家沱,细颗粒物(PM2.5),102,80,59,76,51,23,2,16,9,44,47,7,7,0.7,0.6
2023-01-02T00:00:00,1421A,106.6349,29.4906,重庆市,茶园,细颗粒物(PM2.5),80,86,78,59,55,34,14,23,16,45,43,7,8,0.8,0.7
2023-01-02T00:00:00,1422A,106.3754,29.4572,重庆市,白市驿,细颗粒物(PM2.5),64,57,59,46,48,26,7,16,7,39,40,6,6,0.8,0.8
2023-01-02T00:00:00,1425A,106.6205,29.7166,重庆市,空港,细颗粒物(PM2.5),77,81,56,56,47,32,5,23,11,42,39,7,7,1.1,0.9
2023-01-02T00:00:00,1426A,106.4782,29.4875,重庆市,新山村,细颗粒物(PM2.5),83,81,77,61,62,19,5,11,5,55,54,5,6,0.6,0.6
2023-01-02T00:00:00,1427A,106.5616,29.6453,重庆市,礼嘉,细颗粒物(PM2.5),70,80,73,51,47,19,4,11,5,47,49,10,10,0.6,0.6
2023-01-02T00:00:00,1428A,106.4522,29.7091,重庆市,蔡家,细颗粒物(PM2.5),72,66,66,52,49,23,9,19,10,31,32,5,5,1.0,0.9
2023-01-02T00:00:00,1429A,106.5093,29.3917,重庆市,鱼新街,,,88,72,63,56,27,5,18,7,,33,8,10,1.3,1
2023-01-02T00:00:00,1431A,103.9728,30.7236,成都市,金泉两河,细颗粒物(PM2.5),90,86,74,67,61,27,0,14,12,36,34,1,2,0.9,0.8
2023-01-02T00:00:00,1432A,104.176,30.6872,成都市,十里店,细颗粒物(PM2.5),67,58,59,48,51,47,3,39,34,52,34,2,2,0.9,0.8
2023-01-02T00:00:00,1433A,104.079,30.5706,成都市,三瓦窑,颗粒物(PM10),55,59,63,36,46,37,20,29,29,34,33,1,1,0.7,0.7
2023-01-02T00:00:00,1434A,104.1114,30.63,成都市,沙河铺,细颗粒物(PM2.5),67,60,64,48,50,35,21,32,30,29,31,2,2,0.6,0.7
2023-01-02T00:00:00,1437A,104.0786,30.6531,成都市,君平街,细颗粒物(PM2.5),69,58,62,50,53,50,6,40,36,54,38,2,5,0.7,0.6
2023-01-02T00:00:00,1438A,103.613,31.0283,成都市,灵岩寺(对照点),细颗粒物(PM2.5),89,71,71,66,69,47,40,39,35,17,19,1,3,0.9,0.9
2023-01-02T00:00:00,1439A,106.6899,26.5998,贵阳市,马鞍山,,20,14,19,14,18,41,29,37,26,11,15,5,5,0.6,0.6
2023-01-02T00:00:00,1440A,106.6971,26.5694,贵阳市,市环保站,,23,12,16,16,20,52,28,46,30,16,19,4,5,0.4,0.4
2023-01-02T00:00:00,1441A,106.6243,26.6266,贵阳市,鉴湖路,,24,24,28,14,17,43,26,35,24,15,18,4,4,0.4,0.4
2023-01-02T00:00:00,1442A,106.7487,26.6343,贵阳市,燕子冲,,32,17,24,22,25,48,20,45,26,14,11,4,6,0.4,0.4
2023-01-02T00:00:00,1443A,106.6555,26.4365,贵阳市,碧云窝,,,,18,,19,38,,36,,,16,,9,,0.5
2023-01-02T00:00:00,1444A,106.694,26.5161,贵阳市,中院村,,28,27,32,19,20,47,24,42,22,19,22,8,10,0.5,0.6
2023-01-02T00:00:00,1445A,106.7109,26.6027,贵阳市,红边门,,18,12,24,12,18,52,31,49,29,11,16,10,11,0.5,0.6
2023-01-02T00:00:00,1446A,106.7164,26.5699,贵阳市,新华路,,25,19,29,17,17,52,25,47,30,11,13,5,5,0.5,0.5
2023-01-02T00:00:00,1447A,106.674,26.5424,贵阳市,太慈桥,,22,22,34,9,17,44,28,39,28,15,23,4,6,0.4,0.4
2023-01-02T00:00:00,1450A,102.8204,24.8886,昆明市,呈贡新区,,37,37,18,21,16,53,26,47,37,32,21,7,6,0.7,0.7
2023-01-02T00:00:00,1451A,102.6251,24.9608,昆明市,西山森林公园(对照点),,18,10,10,12,10,65,54,57,51,10,10,7,7,0.4,0.4
2023-01-02T00:00:00,1452A,102.7252,25.0902,昆明市,龙泉镇,,36,36,26,22,17,55,2,38,19,24,26,8,7,1.1,1.1
2023-01-02T00:00:00,1453A,102.7266,25.0375,昆明市,东风东路,,40,40,24,28,19,54,5,38,21,41,25,7,7,1.1,0.9
2023-01-02T00:00:00,1454A,102.6742,25.0669,昆明市,金鼎山,,39,30,25,27,20,53,29,40,30,21,18,7,8,0.6,0.7
2023-01-02T00:00:00,1455A,102.6644,25.0401,昆明市,碧鸡广场,,32,25,21,22,18,54,29,44,29,32,29,3,4,0.6,0.8
2023-01-02T00:00:00,1456A,91.1319,29.6514,拉萨市,八廓街,,40,40,45,13,14,109,70,93,63,14,17,7,7,0.9,0.9
2023-01-02T00:00:00,1457A,91.1221,29.6747,拉萨市,市环保局,,35,35,49,15,22,100,60,87,70,28,31,6,6,0.8,0.8
2023-01-02T00:00:00,1458A,91.0874,29.6475,拉萨市,区监测站,,28,28,42,13,15,103,72,91,76,12,16,7,6,0.4,0.5
2023-01-02T00:00:00,1459A,91.1774,29.6541,拉萨市,西藏大学,,26,26,31,9,10,102,73,92,82,16,14,10,10,0.6,0.6
2023-01-02T00:00:00,1460A,90.9798,29.6588,拉萨市,区辐射站,颗粒物(PM10),60,70,62,41,25,91,17,79,44,65,37,13,10,1.8,0.9
2023-01-02T00:00:00,1461A,91.0834,29.6292,拉萨市,拉萨火车站,,20,11,50,0,15,93,62,85,81,23,24,8,8,0.4,0.5
2023-01-02T00:00:00,1462A,108.882,34.2749,西安市,高压开关厂,细颗粒物(PM2.5),289,277,263,239,220,58,10,53,46,94,80,9,12,1.5,1.6
2023-01-02T00:00:00,1463A,108.993,34.2629,西安市,兴庆小区,细颗粒物(PM2.5),301,255,231,251,222,41,27,22,19,59,78,10,11,1.4,1.6
2023-01-02T00:00:00,1464A,109.06,34.2572,西安市,纺织城,细颗粒物(PM2.5),276,248,223,226,202,21,14,11,10,76,78,11,12,1.9,2
2023-01-02T00:00:00,1465A,108.9356,34.2173,西安市,小寨,细颗粒物(PM2.5),290,287,279,240,223,45,30,39,36,63,80,12,12,1.4,1.5
2023-01-02T00:00:00,1466A,108.954,34.2713,西安市,市人民体育场,细颗粒物(PM2.5),284,260,258,234,224,53,31,38,32,59,80,10,12,1.5,1.6
2023-01-02T00:00:00,1467A,108.8922,34.2322,西安市,高新西区,细颗粒物(PM2.5),289,265,257,239,230,58,24,48,43,77,81,10,12,1.5,1.7
2023-01-02T00:00:00,1468A,108.935,34.3474,西安市,经开区,细颗粒物(PM2.5),317,268,204,267,211,61,10,46,36,82,73,11,14,1.6,1.6
2023-01-02T00:00:00,1469A,108.906,34.1546,西安市,长安区,细颗粒物(PM2.5),326,302,261,276,235,49,8,36,26,82,69,12,11,1.9,1.8
2023-01-02T00:00:00,1471A,109.2186,34.3731,西安市,临潼区,细颗粒物(PM2.5),148,177,249,113,215,29,19,18,18,58,73,14,13,2.0,2.2
2023-01-02T00:00:00,1472A,108.869,34.378,西安市,草滩(对照点),细颗粒物(PM2.5),237,163,175,187,200,63,6,36,20,78,65,12,14,1.6,1.7
2023-01-02T00:00:00,1473A,108.985,34.1978,西安市,曲江文化产业集团,细颗粒物(PM2.5),305,318,321,255,279,44,28,36,31,63,79,11,11,1.4,1.5
2023-01-02T00:00:00,1474A,109.051,34.3213,西安市,广运潭,细颗粒物(PM2.5),321,267,252,271,239,29,4,14,10,86,77,9,13,1.9,2.2
2023-01-02T00:00:00,1476A,103.631,36.1031,兰州市,兰炼宾馆,细颗粒物(PM2.5),142,131,114,108,69,57,12,42,22,70,64,25,45,1.0,1.5
2023-01-02T00:00:00,1477A,104.1373,35.9454,兰州市,榆中兰大校区(对照点),,,,,,,,,,,,,,,,
2023-01-02T00:00:00,1478A,103.8412,36.0726,兰州市,生物制品所,颗粒物(PM10),61,72,107,38,66,55,5,46,27,80,76,16,34,1.0,1.7
2023-01-02T00:00:00,1479A,103.831,36.0464,兰州市,铁路设计院,细颗粒物(PM2.5),87,75,131,64,94,58,15,47,39,80,80,28,42,1.3,2
2023-01-02T00:00:00,1483A,101.524,36.6867,西宁市,第五水厂(对照点),,,,,,,,,,,,,,,,
2023-01-02T00:00:00,1484A,105.9512,38.6016,银川市,贺兰山马莲口(对照点),细颗粒物(PM2.5),79,73,67,58,54,70,50,63,38,36,41,33,39,1.2,1.5
2023-01-02T00:00:00,1488A,106.2328,38.4975,银川市,贺兰山东路,细颗粒物(PM2.5),273,293,247,223,192,37,11,28,14,90,75,42,35,3.5,2.6
2023-01-02T00:00:00,1489A,106.1358,38.5036,银川市,学院路,细颗粒物(PM2.5),188,203,208,141,138,30,7,24,12,88,76,46,47,2.7,2.6
2023-01-02T00:00:00,1490A,87.5801,43.8303,乌鲁木齐市,监测站,细颗粒物(PM2.5),103,133,277,77,190,9,0,6,1,91,93,6,5,1.7,2.5
2023-01-02T00:00:00,1491A,87.6046,43.768,乌鲁木齐市,收费所,细颗粒物(PM2.5),113,158,233,85,162,14,3,10,4,80,85,2,3,1.2,2.2
2023-01-02T00:00:00,1492A,87.4754,43.9469,乌鲁木齐市,新疆农科院农场(对照点),,,167,169,203,213,43,3,34,28,83,62,10,5,2.5,2.4
2023-01-02T00:00:00,1493A,87.5525,43.8711,乌鲁木齐市,铁路局,细颗粒物(PM2.5),283,236,284,233,239,19,6,13,7,100,91,4,2,3.3,2.6
2023-01-02T00:00:00,1494A,87.6432,43.831,乌鲁木齐市,三十一中学,细颗粒物(PM2.5),119,147,253,90,186,19,5,14,8,77,91,4,5,1.3,2.2
2023-01-02T00:00:00,1496A,87.7216,44.1747,乌鲁木齐市,米东区环保局,细颗粒物(PM2.5),235,233,240,185,197,46,3,33,26,96,63,10,12,2.0,2.4
2023-01-02T00:00:00,1508A,112.9433,27.8614,湘潭市,板塘,细颗粒物(PM2.5),212,144,130,162,137,71,48,52,46,33,34,10,8,1.1,1
2023-01-02T00:00:00,1511A,112.9118,27.8403,湘潭市,市监测站,细颗粒物(PM2.5),207,168,141,157,131,65,50,50,46,29,32,9,7,1.2,1.2
2023-01-02T00:00:00,1512A,112.8937,27.8728,湘潭市,江麓,细颗粒物(PM2.5),186,160,137,140,124,77,55,70,60,38,38,13,10,1.2,1.1
2023-01-02T00:00:00,1513A,112.9227,27.8159,湘潭市,岳塘,细颗粒物(PM2.5),206,148,135,156,128,64,48,51,47,27,30,13,5,0.9,0.9
2023-01-02T00:00:00,1514A,112.9074,27.9119,湘潭市,科大,细颗粒物(PM2.5),211,156,139,161,136,68,49,54,48,33,33,14,11,1.3,1.2
2023-01-02T00:00:00,1515A,113.135,27.8244,株洲市,天台山庄,细颗粒物(PM2.5),214,167,128,164,133,77,33,58,36,39,38,5,5,1.2,1
2023-01-02T00:00:00,1518A,113.095,27.8867,株洲市,株冶医院,细颗粒物(PM2.5),204,176,127,154,120,71,34,54,36,45,39,6,5,0.9,0.9
2023-01-02T00:00:00,1519A,113.167,27.8667,株洲市,市四中,细颗粒物(PM2.5),209,166,127,159,127,74,33,56,38,46,38,5,5,0.7,0.7
2023-01-02T00:00:00,1520A,113.143,27.8381,株洲市,火车站,细颗粒物(PM2.5),229,190,147,179,140,70,27,55,34,47,39,6,5,1.2,1.1
2023-01-02T00:00:00,1524A,113.13,27.8528,株洲市,市监测站,细颗粒物(PM2.5),226,180,138,176,139,79,30,61,38,50,41,7,8,0.9,0.8
2023-01-02T00:00:00,1552A,106.805,26.3003,贵阳市,桐木岭(对照点),,,,,,,,,,,,,,,,
2023-01-02T00:00:00,1559A,113.251,27.8336,株洲市,大京风景区(对照点),细颗粒物(PM2.5),217,158,116,167,110,73,25,60,42,38,20,5,4,1.0,0.8
2023-01-02T00:00:00,1562A,113.0048,27.9153,湘潭市,昭山,细颗粒物(PM2.5),209,180,137,159,130,67,40,54,40,31,35,4,3,1.0,0.9
2023-01-02T00:00:00,1564A,112.4876,27.9164,湘潭市,韶山(对照点),细颗粒物(PM2.5),139,111,75,106,72,86,58,76,70,18,15,10,8,1.3,1.2
2023-01-02T00:00:00,1585A,109.8756,40.6532,包头市,市环境监测站,,23,23,53,14,34,67,44,54,44,16,35,11,15,0.7,1.1
2023-01-02T00:00:00,1587A,109.9991,40.5842,包头市,包头八中,,40,40,103,13,59,50,32,38,38,30,55,12,26,0.7,1.7
2023-01-02T00:00:00,1588A,109.8538,40.6821,包头市,青山宾馆,,37,37,62,9,39,69,44,53,47,17,33,6,10,0.5,0.9
2023-01-02T00:00:00,1589A,109.8642,40.6288,包头市,惠龙物流,,36,36,81,20,50,71,48,50,44,18,45,8,17,0.5,1.3
2023-01-02T00:00:00,1590A,110.0377,40.5546,包头市,东河鸿龙湾,,42,42,106,12,59,41,30,33,30,34,53,13,22,0.6,1.7
2023-01-02T00:00:00,1591A,110.0023,39.8129,鄂尔多斯市,综合楼,颗粒物(PM10),60,70,68,34,26,68,40,57,37,30,33,16,15,0.7,0.7
2023-01-02T00:00:00,1592A,109.9486,39.8261,鄂尔多斯市,巴音孟克林场办事处,颗粒物(PM10),52,53,56,19,24,74,38,68,28,34,31,13,14,0.8,0.9
2023-01-02T00:00:00,1593A,109.7736,39.5986,鄂尔多斯市,康泽苑,,31,31,40,19,19,57,35,48,36,16,20,6,7,0.5,0.7
2023-01-02T00:00:00,1594A,109.8119,39.5989,鄂尔多斯市,华泰汽车城,颗粒物(PM10),51,51,45,34,27,72,27,57,34,34,31,10,13,0.8,0.7
2023-01-02T00:00:00,1595A,109.9734,39.7884,鄂尔多斯市,奥林花园,颗粒物(PM10),56,61,62,29,28,59,42,52,35,25,40,16,13,0.8,0.8
2023-01-02T00:00:00,1596A,122.2414,40.6592,营口市,学府南路(停运211214),,,,,,,,,,,,,,,,
2023-01-02T00:00:00,1597A,122.2703,40.7094,营口市,大庆路,颗粒物(PM10),55,60,65,36,40,69,11,57,19,57,40,47,19,0.8,1.1
2023-01-02T00:00:00,1598A,122.2150,40.6511,营口市,镜湖西路,颗粒物(PM10),52,53,51,15,21,71,44,60,30,30,35,23,17,0.6,0.8
2023-01-02T00:00:00,1599A,122.1658,40.6789,营口市,西炮台,细颗粒物(PM2.5),75,78,61,55,40,65,25,58,22,40,34,25,13,0.8,0.8
2023-01-02T00:00:00,1600A,124.3303,40.0625,丹东市,江湾东路,,29,29,32,17,22,64,53,60,54,10,17,11,17,0.7,0.9
2023-01-02T00:00:00,1601A,124.4256,40.1503,丹东市,临江后街,,39,39,34,22,21,63,40,59,48,20,21,14,15,0.8,0.8
2023-01-02T00:00:00,1602A,124.3933,40.1461,丹东市,元宝山,,24,24,29,15,18,60,51,56,52,14,26,16,19,1.0,1.1
2023-01-02T00:00:00,1603A,124.3633,40.1092,丹东市,民主桥,,37,37,36,17,19,61,42,58,50,18,20,12,16,0.7,0.8
2023-01-02T00:00:00,1604A,122.0303,41.1489,盘锦市,开发区,,40,40,35,10,18,68,51,62,43,15,17,18,16,0.5,0.6
2023-01-02T00:00:00,1605A,122.0485,41.0883,盘锦市,兴隆台,,39,39,41,12,20,66,39,60,32,31,24,26,16,0.5,0.6
2023-01-02T00:00:00,1606A,121.8297,41.1028,盘锦市,新生街道,颗粒物(PM10),64,77,48,42,28,69,10,52,19,59,38,14,22,0.9,0.7
2023-01-02T00:00:00,1607A,120.9092,40.7136,葫芦岛市,龙港区,细颗粒物(PM2.5),62,66,68,44,43,59,15,55,39,58,39,27,92,1.1,0.9
2023-01-02T00:00:00,1608A,120.8392,40.7514,葫芦岛市,化工街,细颗粒物(PM2.5),100,97,80,75,55,55,11,45,22,55,45,40,72,1.2,1.1
2023-01-02T00:00:00,1609A,120.8341,40.7073,葫芦岛市,新区,细颗粒物(PM2.5),123,118,63,93,45,63,10,55,25,55,41,16,28,1.9,1
2023-01-02T00:00:00,1610A,120.8695,40.7677,葫芦岛市,东城区,细颗粒物(PM2.5),124,96,94,94,68,62,12,49,17,47,42,30,46,1.6,1.3
2023-01-02T00:00:00,1611A,118.5819,24.9117,泉州市,涂山街,,23,19,28,12,13,87,72,82,78,8,11,7,7,0.5,0.5
2023-01-02T00:00:00,1612A,118.5972,24.8978,泉州市,津头埔,,22,20,29,13,17,80,68,75,72,13,17,7,7,0.6,0.6
2023-01-02T00:00:00,1613A,118.6663,24.9424,泉州市,万安,,25,15,24,8,13,88,77,86,81,9,9,6,7,0.4,0.4
2023-01-02T00:00:00,1614A,118.6117,24.9604,泉州市,清源山(对照点),,,,,,,,,,,,,,,,
2023-01-02T00:00:00,1616A,117.6795,36.229,济南市,技术学院,细颗粒物(PM2.5),114,139,180,86,124,73,10,58,24,89,68,24,17,1.5,1.5
2023-01-02T00:00:00,1618A,118.3429,35.0532,临沂市,沂河小区,细颗粒物(PM2.5),190,197,187,143,156,82,16,72,42,59,46,19,19,1.4,1.3
2023-01-02T00:00:00,1619A,118.295,35.0583,临沂市,鲁南制药厂,细颗粒物(PM2.5),160,178,174,122,129,82,24,74,49,74,62,29,26,1.2,1
2023-01-02T00:00:00,1620A,118.2794,34.9976,临沂市,新光毛纺厂,细颗粒物(PM2.5),173,190,176,131,132,78,9,70,43,87,63,39,23,2.2,1.7
2023-01-02T00:00:00,1621A,118.3956,35.0888,临沂市,河东保险公司,细颗粒物(PM2.5),180,178,191,136,157,85,12,71,35,81,63,20,22,1.6,1.6
2023-01-02T00:00:00,1622A,116.3032,37.4674,德州市,儿童乐园,细颗粒物(PM2.5),119,134,171,90,122,63,5,54,22,82,73,24,22,1.4,1.5
2023-01-02T00:00:00,1624A,116.2991,37.4451,德州市,监理站,细颗粒物(PM2.5),134,139,181,102,133,67,8,56,28,78,69,20,22,1.3,1.4
2023-01-02T00:00:00,1625A,115.9848,36.4372,聊城市,区政府,细颗粒物(PM2.5),176,175,188,133,138,58,26,45,35,67,64,40,22,1.5,1.5
2023-01-02T00:00:00,1628A,118.0062,37.3803,滨州市,市环保局,"颗粒物(PM10),细颗粒物(PM2.5)",67,83,229,48,161,62,29,47,31,50,74,26,37,0.8,1.4
2023-01-02T00:00:00,1629A,118.0018,37.3617,滨州市,第二水厂,细颗粒物(PM2.5),63,63,200,45,148,61,30,48,31,52,78,18,24,0.6,1.3
2023-01-02T00:00:00,1630A,117.9776,37.393,滨州市,北中新校,细颗粒物(PM2.5),83,92,203,61,147,60,14,47,22,60,72,32,30,0.6,1.2
2023-01-02T00:00:00,1631A,118.0414,36.8103,淄博市,人民公园,细颗粒物(PM2.5),179,178,270,135,208,81,3,50,14,81,83,29,28,1.1,1.4
2023-01-02T00:00:00,1633A,117.8525,36.4847,淄博市,双山,细颗粒物(PM2.5),173,189,188,131,141,74,4,61,18,80,68,28,22,1.7,1.4
2023-01-02T00:00:00,1634A,117.9592,36.6331,淄博市,气象站,细颗粒物(PM2.5),163,201,233,124,155,72,1,42,8,65,72,33,32,1.6,1.6
2023-01-02T00:00:00,1635A,118.3092,36.8194,淄博市,莆田园,细颗粒物(PM2.5),178,222,203,134,158,61,2,46,16,64,57,39,23,2.8,2
2023-01-02T00:00:00,1637A,117.558,34.8438,枣庄市,市中区政府,细颗粒物(PM2.5),134,173,210,102,141,90,18,80,38,84,67,40,23,1.5,1.5
2023-01-02T00:00:00,1638A,117.2852,34.7837,枣庄市,薛城环保局,细颗粒物(PM2.5),113,125,184,85,136,99,38,76,47,56,68,29,19,1.5,1.3
2023-01-02T00:00:00,1639A,117.5852,34.7745,枣庄市,峄城区政府,细颗粒物(PM2.5),113,127,204,85,142,80,48,71,55,40,53,25,24,0.9,1.1
2023-01-02T00:00:00,1640A,117.7276,34.5578,枣庄市,台儿庄区环保局,细颗粒物(PM2.5),113,124,223,85,173,119,43,91,50,45,61,14,18,1.1,1.5
2023-01-02T00:00:00,1641A,117.4518,35.0992,枣庄市,山亭区环保局,细颗粒物(PM2.5),119,122,147,90,117,96,54,90,72,45,49,12,16,1.3,1.3
2023-01-02T00:00:00,1642A,121.2514,37.5639,烟台市,开发区,细颗粒物(PM2.5),52,41,64,36,56,63,16,60,47,47,39,8,10,0.7,0.8
2023-01-02T00:00:00,1643A,121.3719,37.5433,烟台市,轴承厂,,39,39,65,23,48,75,6,73,38,65,34,18,16,0.9,0.7
2023-01-02T00:00:00,1644A,121.3181,37.5436,烟台市,西郊化工站,颗粒物(PM10),51,51,86,33,66,77,21,66,38,48,34,17,15,1.0,0.9
2023-01-02T00:00:00,1645A,121.4478,37.4822,烟台市,莱山环保局,,,12,46,,139,76,43,72,58,32,23,8,10,0.6,0.8
2023-01-02T00:00:00,1646A,121.2611,37.4967,烟台市,福山环保局,细颗粒物(PM2.5),83,78,125,61,96,63,1,53,18,53,50,9,10,1.3,1.2
2023-01-02T00:00:00,1650A,119.1437,36.7023,潍坊市,环保局,,32,27,186,22,153,72,43,60,51,31,63,6,15,0.6,1.5
2023-01-02T00:00:00,1653A,116.6251,35.4302,济宁市,火炬城,细颗粒物(PM2.5),213,192,205,163,192,120,12,98,55,70,68,23,18,1.3,1.2
2023-01-02T00:00:00,1655A,116.5491,35.4042,济宁市,电化厂,细颗粒物(PM2.5),228,214,218,178,188,110,9,87,52,79,66,30,22,1.5,1.4
2023-01-02T00:00:00,1656A,117.1437,36.1937,泰安市,监测站,细颗粒物(PM2.5),87,90,125,64,92,72,50,64,45,36,48,16,17,1.1,1.3
2023-01-02T00:00:00,1657A,117.0885,36.2017,泰安市,人口学校,细颗粒物(PM2.5),79,92,104,58,70,65,45,57,47,40,51,20,16,1.0,1
2023-01-02T00:00:00,1658A,117.1089,36.1758,泰安市,电力学校,细颗粒物(PM2.5),100,97,155,75,119,65,37,54,31,35,52,25,24,1.2,1.5
2023-01-02T00:00:00,1659A,119.471,35.4209,日照市,监测站,细颗粒物(PM2.5),102,105,155,76,116,71,7,64,27,75,67,11,15,1.5,1.5
2023-01-02T00:00:00,1660A,119.523,35.4216,日照市,市政府广场,细颗粒物(PM2.5),99,95,135,74,103,73,54,68,56,26,34,9,12,1.0,1.2
2023-01-02T00:00:00,1661A,119.5587,35.4044,日照市,港务局,细颗粒物(PM2.5),94,92,129,70,97,82,55,76,66,35,40,10,13,0.8,1
2023-01-02T00:00:00,1662A,122.1214,37.4236,威海市,华夏技校,,24,24,46,15,33,77,63,74,67,16,21,4,4,0.4,0.5
2023-01-02T00:00:00,1663A,122.0508,37.5236,威海市,山大分校,,24,24,45,10,29,76,65,76,72,8,10,6,5,0.1,0.2
2023-01-02T00:00:00,1664A,122.1067,37.5072,威海市,市监测站,,27,27,48,15,35,76,63,74,64,15,19,4,3,0.3,0.4
2023-01-02T00:00:00,1666A,118.6614,37.4309,东营市,市环保局,,25,22,149,17,122,75,50,67,49,19,46,9,17,0.4,1.1
2023-01-02T00:00:00,1669A,113.5824,24.7733,韶关市,市八中,,46,35,29,32,25,79,36,72,48,10,9,12,9,0.8,0.7
2023-01-02T00:00:00,1671A,113.5917,24.7972,韶关市,园林处,细颗粒物(PM2.5),58,38,30,41,25,79,35,72,48,10,8,10,9,0.8,0.7
2023-01-02T00:00:00,1672A,113.6735,24.7791,韶关市,韶关学院,细颗粒物(PM2.5),63,36,31,45,30,80,30,73,40,21,20,8,6,0.7,0.6
2023-01-02T00:00:00,1673A,113.5971,24.6863,韶关市,曲江监测站,细颗粒物(PM2.5),62,45,31,44,27,83,26,76,43,23,13,18,13,0.6,0.6
2023-01-02T00:00:00,1674A,116.6794,23.3667,汕头市,金平子站,,35,35,37,23,26,87,53,74,62,22,22,12,15,0.6,0.7
2023-01-02T00:00:00,1675A,116.7244,23.3633,汕头市,龙湖子站,,42,42,35,19,21,88,55,79,69,26,22,12,12,0.6,0.6
2023-01-02T00:00:00,1676A,116.7258,23.2775,汕头市,濠江子站,,35,31,31,24,22,91,56,80,71,24,21,9,10,0.5,0.6
2023-01-02T00:00:00,1677A,116.7519,23.4714,汕头市,澄海子站,,40,39,34,28,25,91,51,81,68,27,20,5,5,0.7,0.7
2023-01-02T00:00:00,1678A,116.6092,23.2539,汕头市,潮阳子站,,32,32,38,17,21,82,57,72,65,15,17,6,8,0.4,0.5
2023-01-02T00:00:00,1680A,110.3539,21.2706,湛江市,湛江影剧院,细颗粒物(PM2.5),93,99,72,69,53,108,73,94,73,27,26,20,24,0.9,0.8
2023-01-02T00:00:00,1681A,110.3928,21.2228,湛江市,市环境监测站,细颗粒物(PM2.5),89,82,72,66,53,98,76,84,73,23,26,13,18,0.8,0.8
2023-01-02T00:00:00,1682A,110.4019,21.1997,湛江市,环保局宿舍,细颗粒物(PM2.5),84,79,70,62,57,92,88,82,76,17,26,11,14,0.9,0.9
2023-01-02T00:00:00,1683A,110.4111,21.2028,湛江市,霞山游泳场,细颗粒物(PM2.5),83,75,74,61,54,102,82,88,78,21,23,12,19,0.8,0.8
2023-01-02T00:00:00,1684A,110.3316,21.2679,湛江市,麻章区环保局,细颗粒物(PM2.5),105,92,76,79,58,104,62,92,73,31,27,20,25,0.9,0.8
2023-01-02T00:00:00,1685A,110.4558,21.2567,湛江市,坡头区环保局,细颗粒物(PM2.5),77,59,66,56,58,101,86,91,84,15,23,9,18,0.9,0.9
2023-01-02T00:00:00,1686A,111.0286,21.4688,茂名市,电白南海,颗粒物(PM10),53,56,67,34,37,102,61,93,77,27,22,11,13,0.7,0.7
2023-01-02T00:00:00,1687A,110.9294,21.6533,茂名市,茂石化七小,细颗粒物(PM2.5),92,100,65,68,47,120,60,108,74,26,23,13,21,1.0,1.1
2023-01-02T00:00:00,1688A,110.9107,21.6687,茂名市,健康路,颗粒物(PM10),79,107,66,54,40,125,64,112,81,25,22,15,24,0.9,1.2
2023-01-02T00:00:00,1689A,110.8592,21.6828,茂名市,高岭,细颗粒物(PM2.5),92,92,68,68,51,117,62,100,74,28,26,14,25,1.0,1
2023-01-02T00:00:00,1690A,116.1231,24.3284,梅州市,梅江月梅,颗粒物(PM10),51,52,37,32,33,62,7,47,30,36,27,5,6,0.7,0.7
2023-01-02T00:00:00,1691A,116.0797,24.2719,梅州市,梅县新城,细颗粒物(PM2.5),57,41,40,40,32,49,4,34,15,44,32,6,7,0.8,0.8
2023-01-02T00:00:00,1692A,116.1248,24.2654,梅州市,环境监控中心,,45,39,35,31,32,64,17,48,28,28,27,11,10,0.7,0.7
2023-01-02T00:00:00,1693A,115.3653,22.775,汕尾市,市环保局,细颗粒物(PM2.5),58,46,38,41,29,80,43,65,49,16,12,8,8,0.7,0.7
2023-01-02T00:00:00,1694A,115.3706,22.7898,汕尾市,市政府,,45,37,33,31,30,84,44,69,47,16,14,8,8,0.8,0.7
2023-01-02T00:00:00,1695A,115.3622,22.7925,汕尾市,新城中学,,48,48,44,24,30,80,46,64,45,13,12,9,9,0.8,0.7
2023-01-02T00:00:00,1696A,114.6778,23.7569,河源市,源西(对照点),,46,42,38,32,31,77,33,64,41,28,20,6,5,0.8,0.8
2023-01-02T00:00:00,1697A,114.6944,23.7586,河源市,东埔,颗粒物(PM10),52,53,44,29,32,78,39,65,54,20,16,7,6,0.9,0.9
2023-01-02T00:00:00,1698A,114.6892,23.7233,河源市,老城,,48,48,49,32,34,78,39,66,51,21,17,7,6,0.8,0.8
2023-01-02T00:00:00,1699A,111.9797,21.8593,阳江市,鸳鸯湖(对照点),细颗粒物(PM2.5),57,50,38,40,31,84,64,82,76,24,21,8,7,0.7,0.6
2023-01-02T00:00:00,1701A,111.9491,21.8658,阳江市,马南垌,细颗粒物(PM2.5),53,44,41,37,28,84,66,80,75,27,26,7,6,0.6,0.6
2023-01-02T00:00:00,1702A,113.0426,23.691,清远市,环保大楼(对照点),,39,30,27,27,23,98,62,86,75,10,7,4,3,0.7,0.7
2023-01-02T00:00:00,1703A,113.0208,23.7106,清远市,凤城街办,,35,34,31,24,23,83,56,72,66,6,8,6,7,0.6,0.5
2023-01-02T00:00:00,1705A,116.6367,23.6719,潮州市,西园路(对照点),细颗粒物(PM2.5),95,66,41,71,37,69,19,56,37,36,18,9,7,1.0,0.8
2023-01-02T00:00:00,1706A,116.6447,23.6706,潮州市,档案局,细颗粒物(PM2.5),77,68,42,56,33,69,11,56,30,38,19,8,7,1.2,0.9
2023-01-02T00:00:00,1708A,116.3701,23.5345,揭阳市,新兴,细颗粒物(PM2.5),57,61,50,40,40,80,41,66,46,27,26,8,7,0.6,0.7
2023-01-02T00:00:00,1709A,116.3264,23.5443,揭阳市,西马,颗粒物(PM10),56,61,56,36,35,79,44,60,45,23,24,10,9,0.6,0.8
2023-01-02T00:00:00,1710A,116.3611,23.5626,揭阳市,东兴,细颗粒物(PM2.5),70,79,60,51,36,77,26,60,34,43,36,9,8,0.8,0.9
2023-01-02T00:00:00,1711A,116.4151,23.5294,揭阳市,渔湖,颗粒物(PM10),53,55,58,32,39,74,41,64,47,29,29,12,11,0.6,0.7
2023-01-02T00:00:00,1712A,112.0392,22.9169,云浮市,新市府(对照点),,42,34,30,29,25,97,44,83,63,19,16,12,16,0.6,0.7
2023-01-02T00:00:00,1714A,112.0539,22.9539,云浮市,牧羊,,39,34,35,27,23,84,31,70,38,42,30,14,27,0.6,0.6
2023-01-02T00:00:00,1715A,102.575,24.3711,玉溪市,东风水库,,23,23,28,14,21,47,18,39,35,12,17,5,5,0.6,0.7
2023-01-02T00:00:00,1718A,115.4208,35.2464,菏泽市,气象局,细颗粒物(PM2.5),243,250,267,193,207,88,19,74,52,85,75,12,13,1.6,1.6
2023-01-02T00:00:00,1719A,115.4747,35.2375,菏泽市,市政协,细颗粒物(PM2.5),235,238,265,185,206,86,18,71,46,94,84,20,19,1.5,1.5
2023-01-02T00:00:00,1721A,113.3819,40.1097,大同市,果树场(对照点),,,,,,,,,,,,,,,,
2023-01-02T00:00:00,1723A,113.2994,40.0758,大同市,云冈宾馆,细颗粒物(PM2.5),54,44,84,38,44,71,26,56,33,33,45,35,25,0.7,1.5
2023-01-02T00:00:00,1724A,113.3444,40.0917,大同市,大同大学,,36,36,65,13,31,68,39,58,44,22,32,13,33,0.7,1.4
2023-01-02T00:00:00,1725A,113.2661,40.1269,大同市,安家小村,,50,50,83,13,30,74,21,63,51,60,38,24,27,0.8,1.8
2023-01-02T00:00:00,1726A,113.2711,40.0844,大同市,教育学院,,48,48,85,24,47,64,20,55,41,37,42,28,30,0.7,1.5
2023-01-02T00:00:00,1727A,113.1147,36.1547,长治市,清华站,细颗粒物(PM2.5),147,130,105,112,77,88,45,75,68,54,55,26,31,1.2,1.3
2023-01-02T00:00:00,1728A,113.1031,36.1989,长治市,监测站,细颗粒物(PM2.5),140,113,100,107,80,75,24,68,58,61,53,29,34,1.6,1.4
2023-01-02T00:00:00,1730A,113.0886,36.2125,长治市,审计局,细颗粒物(PM2.5),156,127,107,119,90,71,34,62,56,50,47,27,33,1.6,1.5
2023-01-02T00:00:00,1731A,113.0844,36.1856,长治市,长治八中,细颗粒物(PM2.5),114,126,131,86,77,80,39,67,61,42,40,24,36,1.4,1.4
2023-01-02T00:00:00,1733A,111.5531,36.0783,临汾市,临钢医院,细颗粒物(PM2.5),195,230,155,146,100,39,5,28,10,73,54,30,27,3.1,2.1
2023-01-02T00:00:00,1734A,111.5028,36.0714,临汾市,技工学校,细颗粒物(PM2.5),227,262,164,177,105,50,4,34,10,83,63,44,33,2.8,1.8
2023-01-02T00:00:00,1736A,111.5018,36.0855,临汾市,市委,细颗粒物(PM2.5),222,258,156,172,99,48,6,34,12,74,55,38,30,3.4,2.1
2023-01-02T00:00:00,1738A,113.5758,37.8572,阳泉市,市中心,颗粒物(PM10),89,127,109,59,57,33,3,22,9,76,74,29,42,1.2,1.2
2023-01-02T00:00:00,1739A,113.4894,37.8731,阳泉市,赛鱼,细颗粒物(PM2.5),99,106,92,74,57,37,5,25,13,66,65,19,30,1.2,1.1
2023-01-02T00:00:00,1740A,113.5819,37.8486,阳泉市,南庄,细颗粒物(PM2.5),102,146,111,76,59,33,4,24,11,78,73,22,37,1.4,1.3
2023-01-02T00:00:00,1742A,113.5614,37.8703,阳泉市,平坦,颗粒物(PM10),97,143,108,65,59,32,5,24,13,82,73,44,39,1.5,1.2
2023-01-02T00:00:00,1743A,113.5158,37.8392,阳泉市,大阳泉,细颗粒物(PM2.5),105,123,71,79,48,57,16,42,22,75,53,21,29,1.3,1
2023-01-02T00:00:00,1744A,118.9233,42.2816,赤峰市,松山一中,,16,15,37,11,28,70,48,61,54,20,30,15,16,0.6,0.8
2023-01-02T00:00:00,1745A,118.9576,42.2728,赤峰市,哈达街,,18,18,34,11,20,67,49,61,55,14,21,17,14,0.5,0.7
2023-01-02T00:00:00,1746A,118.8788,42.2554,赤峰市,天义路,,27,27,36,8,21,70,52,60,48,13,22,13,16,0.4,0.6
2023-01-02T00:00:00,1748A,123.044,41.1196,鞍山市,深沟寺,,39,39,39,19,21,65,36,58,40,21,23,14,16,0.8,0.8
2023-01-02T00:00:00,1749A,123.011,41.0931,鞍山市,太阳城,细颗粒物(PM2.5),57,61,37,40,19,59,24,53,42,32,21,13,17,0.6,0.7
2023-01-02T00:00:00,1750A,123.0485,41.1442,鞍山市,太平,"颗粒物(PM10),细颗粒物(PM2.5)",78,105,71,57,39,57,11,50,24,45,35,13,15,1.7,1.3
2023-01-02T00:00:00,1751A,122.9642,41.0971,鞍山市,铁西三道街,细颗粒物(PM2.5),100,140,67,75,34,62,9,56,29,53,36,22,28,1.7,1.7
2023-01-02T00:00:00,1752A,122.9341,41.0833,鞍山市,铁西工业园区,细颗粒物(PM2.5),100,115,77,75,47,63,10,56,20,60,45,17,24,2.2,1.5
2023-01-02T00:00:00,1753A,123.022,41.0821,鞍山市,明达新区,颗粒物(PM10),57,63,39,34,22,48,13,43,30,42,25,12,15,0.8,0.8
2023-01-02T00:00:00,1754A,123.1289,41.0228,鞍山市,千山(对照点),,,,,,,,,,,,,,,,
2023-01-02T00:00:00,1755A,123.7977,41.8491,抚顺市,望花区,细颗粒物(PM2.5),103,115,104,77,62,67,8,57,25,41,34,1,3,1.4,1.1
2023-01-02T00:00:00,1756A,123.9161,41.8822,抚顺市,顺城区,细颗粒物(PM2.5),144,150,121,110,79,66,5,50,18,45,41,5,7,1.8,1.5
2023-01-02T00:00:00,1757A,124.0436,41.8611,抚顺市,东洲区,细颗粒物(PM2.5),93,111,109,69,70,65,14,52,20,41,30,4,7,1.0,0.9
2023-01-02T00:00:00,1758A,123.9247,41.8642,抚顺市,新抚区,细颗粒物(PM2.5),153,182,127,117,80,73,20,62,36,42,36,5,6,1.5,1.2
2023-01-02T00:00:00,1759A,124.0972,41.8961,抚顺市,大伙房水库,细颗粒物(PM2.5),62,71,67,44,46,71,22,57,37,28,21,4,5,0.8,0.8
2023-01-02T00:00:00,1760A,123.7086,41.8391,抚顺市,沈抚新城,细颗粒物(PM2.5),102,138,92,76,62,82,23,71,39,41,32,12,8,1.2,0.9
2023-01-02T00:00:00,1761A,123.8275,41.3064,本溪市,大峪,颗粒物(PM10),53,56,73,24,25,53,19,47,32,30,31,12,13,0.8,0.9
2023-01-02T00:00:00,1762A,123.7567,41.3325,本溪市,溪湖,颗粒物(PM10),60,70,64,36,31,59,7,54,23,44,33,10,10,1.0,1
2023-01-02T00:00:00,1763A,123.7169,41.3094,本溪市,彩屯,颗粒物(PM10),55,60,74,26,43,60,23,52,26,30,35,9,12,0.9,1.2
2023-01-02T00:00:00,1764A,123.7669,41.2864,本溪市,东明,"颗粒物(PM10),细颗粒物(PM2.5)",92,134,82,68,47,59,7,54,24,52,38,13,13,1.1,1.1
2023-01-02T00:00:00,1765A,123.7992,41.2664,本溪市,新立屯,,32,32,39,18,24,59,23,53,19,37,38,8,9,0.6,0.7
2023-01-02T00:00:00,1766A,123.8142,41.3472,本溪市,威宁,细颗粒物(PM2.5),80,96,76,59,45,52,5,43,14,42,35,6,7,1.2,1
2023-01-02T00:00:00,1767A,121.1115,41.0879,锦州市,南山,细颗粒物(PM2.5),208,168,73,158,74,73,15,58,23,65,41,31,28,2.9,1.4
2023-01-02T00:00:00,1768A,121.0533,40.8434,锦州市,开发区,细颗粒物(PM2.5),145,134,100,111,51,75,9,59,16,62,46,93,30,1.5,0.8
2023-01-02T00:00:00,1769A,121.1836,41.1119,锦州市,百股街道,细颗粒物(PM2.5),92,83,67,68,57,74,13,53,20,57,42,23,29,1.8,1.2
2023-01-02T00:00:00,1770A,121.1178,41.1222,锦州市,天安街道,细颗粒物(PM2.5),149,175,96,114,60,65,14,51,17,53,44,48,38,2.2,1.1
2023-01-02T00:00:00,1771A,121.1303,41.1386,锦州市,北湖公园,,33,33,65,18,42,71,44,55,34,21,34,14,30,0.8,1
2023-01-02T00:00:00,1772A,126.54,43.8622,吉林市,哈达湾,颗粒物(PM10),54,58,34,24,22,59,39,55,46,19,16,15,11,0.6,0.7
2023-01-02T00:00:00,1773A,126.5844,43.8358,吉林市,东局子,颗粒物(PM10),53,56,38,23,23,54,35,49,39,22,23,11,11,0.7,0.7
2023-01-02T00:00:00,1774A,126.5052,43.8245,吉林市,电力学院,细颗粒物(PM2.5),67,61,57,48,33,59,15,54,20,36,26,10,14,1.3,1.1
2023-01-02T00:00:00,1775A,126.6133,43.8972,吉林市,江北,,50,50,35,26,23,61,36,55,38,22,19,14,11,0.6,0.5
2023-01-02T00:00:00,1776A,126.555,43.8306,吉林市,江南公园,,48,48,37,24,24,57,36,52,43,22,20,10,12,0.8,0.7
2023-01-02T00:00:00,1778A,126.7061,43.7133,吉林市,丰满(对照点),,,,,,,,,,,,,,,,
2023-01-02T00:00:00,1779A,123.9305,47.3636,齐齐哈尔市,安居小区,,19,16,22,13,15,55,50,50,48,5,6,5,6,0.4,0.4
2023-01-02T00:00:00,1780A,123.9488,47.3386,齐齐哈尔市,中心广场,,19,12,15,2,5,61,60,56,56,1,4,2,3,0.0,0.1
2023-01-02T00:00:00,1781A,123.9483,47.3227,齐齐哈尔市,农牧车辆厂,,19,12,17,13,9,62,59,57,56,4,7,6,6,0.3,0.3
2023-01-02T00:00:00,1783A,123.945,47.2988,齐齐哈尔市,市环境监测站,,29,8,20,20,20,60,58,55,52,6,8,4,4,0.2,0.3
2023-01-02T00:00:00,1784A,129.61,44.561,牡丹江市,环保大楼,,33,17,31,23,20,65,65,62,62,6,11,3,5,0.3,0.3
2023-01-02T00:00:00,1785A,129.6115,44.5782,牡丹江市,文化广场,,36,36,38,22,31,55,55,53,53,5,11,4,6,0.3,0.4
2023-01-02T00:00:00,1786A,129.5904,44.5963,牡丹江市,第一医院,,28,26,36,19,30,60,60,59,59,5,13,2,4,0.4,0.5
2023-01-02T00:00:00,1787A,129.6364,44.6075,牡丹江市,机车工厂,,26,26,38,14,20,66,64,62,62,5,17,1,2,0.3,0.4
2023-01-02T00:00:00,1788A,129.6386,44.5462,牡丹江市,第一中学,,29,26,29,20,23,58,46,56,55,16,10,2,4,0.3,0.4
2023-01-02T00:00:00,1789A,124.81117,46.03138,大庆市,大同区,,30,19,27,21,18,63,48,57,46,7,9,5,6,0.4,0.4
2023-01-02T00:00:00,1790A,125.129,46.533,大庆市,龙凤区,,27,27,36,15,16,52,45,48,41,13,15,14,12,0.4,0.4
2023-01-02T00:00:00,1791A,124.902,46.408,大庆市,红岗区,,25,25,22,17,13,63,52,56,50,6,8,5,6,0.1,0.1
2023-01-02T00:00:00,1792A,125.153,46.586,大庆市,萨尔图区,,35,29,24,24,15,55,52,50,40,10,15,7,8,0.4,0.3
2023-01-02T00:00:00,1793A,124.9042,46.6215,大庆市,让胡路区,,39,30,28,27,20,60,51,55,47,6,9,8,8,0.3,0.4
2023-01-02T00:00:00,1794A,118.3606,31.3519,芜湖市,监测站,细颗粒物(PM2.5),138,129,121,105,98,52,16,29,29,89,78,8,7,0.9,0.9
2023-01-02T00:00:00,1795A,118.3714,31.4134,芜湖市,科创中心,细颗粒物(PM2.5),156,143,128,119,100,39,7,30,22,94,72,11,9,1.4,1.2
2023-01-02T00:00:00,1796A,118.3673,31.3131,芜湖市,四水厂,细颗粒物(PM2.5),134,129,132,102,97,58,23,36,36,78,73,10,9,1.1,1.1
2023-01-02T00:00:00,1798A,118.5092,31.6837,马鞍山市,湖东路四小,细颗粒物(PM2.5),94,81,92,70,94,44,36,37,28,65,72,11,11,1.1,1.1
2023-01-02T00:00:00,1799A,118.5024,31.6449,马鞍山市,开发区,细颗粒物(PM2.5),118,78,96,89,96,50,29,44,35,74,71,12,11,1.4,1.2
2023-01-02T00:00:00,1800A,118.5228,31.7231,马鞍山市,慈湖,细颗粒物(PM2.5),89,46,105,66,94,59,59,51,46,40,65,12,15,1.1,1.2
2023-01-02T00:00:00,1802A,118.6245,31.7241,马鞍山市,濮塘(对照点),细颗粒物(PM2.5),112,140,128,84,80,55,41,48,35,52,58,10,10,1.1,1
2023-01-02T00:00:00,1803A,115.9872,29.6815,九江市,十里,细颗粒物(PM2.5),75,74,103,55,78,68,57,59,50,30,54,9,11,0.8,1
2023-01-02T00:00:00,1804A,115.9584,29.7046,九江市,茅山头,细颗粒物(PM2.5),85,67,106,63,85,66,53,56,46,36,65,12,12,0.8,0.9
2023-01-02T00:00:00,1805A,115.9877,29.7295,九江市,西园,细颗粒物(PM2.5),78,59,99,57,92,53,46,47,38,32,55,8,9,0.9,1.1
2023-01-02T00:00:00,1806A,116.0172,29.6547,九江市,五七二七厂,颗粒物(PM10),59,67,91,37,71,68,49,51,40,32,39,8,9,0.9,1
2023-01-02T00:00:00,1808A,115.9114,29.6038,九江市,综合工业园,细颗粒物(PM2.5),73,70,97,53,85,51,44,37,34,36,61,10,10,0.9,0.9
2023-01-02T00:00:00,1809A,116.0721,29.7535,九江市,石化总厂,细颗粒物(PM2.5),67,68,96,48,69,69,47,56,42,40,48,10,11,0.8,1
2023-01-02T00:00:00,1810A,115.9773,29.5698,九江市,庐山气象台(对照点),,16,15,19,11,22,75,40,66,60,14,21,5,6,0.4,0.4
2023-01-02T00:00:00,1812A,112.3931,34.6516,洛阳市,市委党校,细颗粒物(PM2.5),222,234,180,172,125,70,3,54,38,89,67,18,19,1.5,1.2
2023-01-02T00:00:00,1814A,112.4657,34.6871,洛阳市,豫西宾馆,细颗粒物(PM2.5),200,216,188,150,136,66,16,50,28,76,69,19,19,1.5,1.6
2023-01-02T00:00:00,1815A,112.494,34.6886,洛阳市,河南林校,细颗粒物(PM2.5),201,196,186,151,138,75,14,56,29,78,69,11,12,1.5,1.5
2023-01-02T00:00:00,1816A,112.3844,34.623,洛阳市,开发区管委会,细颗粒物(PM2.5),208,206,164,158,126,76,7,64,48,95,58,14,13,1.3,1.1
2023-01-02T00:00:00,1817A,112.4267,34.6258,洛阳市,市委新办公区,细颗粒物(PM2.5),241,249,182,191,142,68,14,55,36,85,59,15,13,1.7,1.3
2023-01-02T00:00:00,1818A,114.4839,36.0621,安阳市,棉研所(对照点),,,,,,,,,,,,,,,,
2023-01-02T00:00:00,1819A,114.3551,36.1017,安阳市,红庙街,细颗粒物(PM2.5),204,197,175,154,138,70,8,55,25,106,75,16,18,1.5,2
2023-01-02T00:00:00,1820A,114.361,36.0681,安阳市,银杏小区,细颗粒物(PM2.5),215,187,162,165,145,76,6,61,26,99,70,17,20,1.4,1.9
2023-01-02T00:00:00,1824A,114.3389,34.7781,开封市,肿瘤医院,细颗粒物(PM2.5),211,227,268,161,191,88,28,73,46,55,62,16,13,1.5,1.6
2023-01-02T00:00:00,1826A,114.2885,34.7965,开封市,世纪星幼儿园,细颗粒物(PM2.5),205,181,215,155,201,100,34,82,52,59,67,17,14,1.2,1.5
2023-01-02T00:00:00,1828A,113.227,35.2125,焦作市,市环保局,细颗粒物(PM2.5),178,174,159,134,118,56,26,50,31,45,49,22,24,1.6,1.6
2023-01-02T00:00:00,1830A,113.1992,35.2590,焦作市,影视城(对照点),,,,,,,,,,,,,,,,
2023-01-02T00:00:00,1832A,113.3257,33.742,平顶山市,新华旅馆,细颗粒物(PM2.5),228,278,236,178,147,64,55,58,54,48,62,17,14,1.2,1
2023-01-02T00:00:00,1833A,113.2919,33.737,平顶山市,规划设计院,细颗粒物(PM2.5),252,235,201,202,168,63,63,53,53,42,60,12,9,0.9,0.9
2023-01-02T00:00:00,1834A,113.182,33.774,平顶山市,平顶山工学院,细颗粒物(PM2.5),255,233,174,205,146,76,46,60,49,57,53,14,12,1.3,1.1
2023-01-02T00:00:00,1835A,111.1922,34.7752,三门峡市,市政府,细颗粒物(PM2.5),224,202,142,174,126,59,2,35,10,75,62,16,16,1.9,1.6
2023-01-02T00:00:00,1836A,111.1587,34.7942,三门峡市,开发区,细颗粒物(PM2.5),230,237,191,180,147,50,2,41,20,60,48,8,9,1.7,1.5
2023-01-02T00:00:00,1838A,111.143,34.7955,三门峡市,风景区(对照点),,,,,,,,,,,,,,,,
2023-01-02T00:00:00,1840A,111.2992,30.6981,宜昌市,白龙岗,细颗粒物(PM2.5),153,127,173,117,159,51,35,42,34,28,43,5,6,1.0,1.2
2023-01-02T00:00:00,1841A,111.3549,30.6465,宜昌市,伍家岗,细颗粒物(PM2.5),175,134,178,132,166,64,27,42,28,37,51,3,4,1.0,1.2
2023-01-02T00:00:00,1842A,111.2628,30.6961,宜昌市,点军区,细颗粒物(PM2.5),201,158,196,151,172,50,13,34,19,24,32,5,5,1.1,1.2
2023-01-02T00:00:00,1843A,111.3275,30.7819,宜昌市,夷陵区,细颗粒物(PM2.5),206,137,157,156,164,64,12,46,26,35,40,5,6,1.2,1.1
2023-01-02T00:00:00,1844A,112.2494,30.3197,荆州市,市图书馆,细颗粒物(PM2.5),112,84,139,84,146,67,58,62,58,27,44,6,7,0.7,1
2023-01-02T00:00:00,1845A,112.2008,30.3544,荆州市,市委党校,细颗粒物(PM2.5),115,77,140,87,144,73,38,63,52,22,34,5,6,0.9,1.1
2023-01-02T00:00:00,1847A,113.1094,29.3578,岳阳市,南湖风景区,细颗粒物(PM2.5),115,90,151,87,136,74,74,64,64,26,52,9,11,0.9,1.3
2023-01-02T00:00:00,1848A,113.1493,29.4251,岳阳市,城陵矶,细颗粒物(PM2.5),107,92,153,80,130,64,59,58,58,37,57,10,13,1.1,1.4
2023-01-02T00:00:00,1849A,113.1497,29.3575,岳阳市,开发区,细颗粒物(PM2.5),153,110,169,117,164,59,58,50,50,25,46,8,11,1.1,1.5
2023-01-02T00:00:00,1850A,113.2621,29.4758,岳阳市,云溪区,细颗粒物(PM2.5),222,162,161,172,181,47,43,42,42,35,47,12,10,1.1,1.3
2023-01-02T00:00:00,1851A,112.9943,29.4402,岳阳市,君山区,细颗粒物(PM2.5),113,87,161,85,158,71,63,64,64,26,38,6,8,0.8,1.2
2023-01-02T00:00:00,1852A,113.2117,29.355,岳阳市,金凤水库(对照点),细颗粒物(PM2.5),162,143,154,123,128,47,42,37,37,34,46,8,8,1.0,1.2
2023-01-02T00:00:00,1854A,111.6975,28.9703,常德市,市二中,细颗粒物(PM2.5),130,100,113,99,109,65,36,49,48,28,27,3,3,0.7,0.8
2023-01-02T00:00:00,1857A,111.7158,29.1456,常德市,白鹤山(对照点),细颗粒物(PM2.5),90,59,87,67,102,72,39,58,58,8,13,2,3,0.6,0.8
2023-01-02T00:00:00,1858A,110.5319,29.1217,张家界市,永定新区,细颗粒物(PM2.5),72,61,99,52,89,58,42,52,48,19,25,3,4,0.9,1.1
2023-01-02T00:00:00,1859A,110.4697,29.1242,张家界市,电业局,细颗粒物(PM2.5),63,47,78,45,76,62,51,57,56,12,19,4,4,0.6,0.8
2023-01-02T00:00:00,1860A,110.5594,29.3547,张家界市,未央路,细颗粒物(PM2.5),52,45,62,36,49,66,54,59,57,5,6,2,2,0.5,0.5
2023-01-02T00:00:00,1861A,110.4417,29.315,张家界市,袁家界(对照点),,29,17,24,20,21,85,79,81,81,4,4,8,8,0.6,0.5
2023-01-02T00:00:00,1862A,110.4144,25.3167,桂林市,电子科大尧山校区(对照点),细颗粒物(PM2.5),74,54,50,54,49,95,70,87,74,5,5,5,5,0.8,0.9
2023-01-02T00:00:00,1863A,110.2819,25.2697,桂林市,监测站,细颗粒物(PM2.5),94,63,70,70,65,96,64,84,68,12,14,15,7,0.8,0.7
2023-01-02T00:00:00,1864A,110.3089,25.2708,桂林市,龙隐路小学,细颗粒物(PM2.5),87,60,62,64,60,94,62,84,69,11,13,6,9,0.8,0.8
2023-01-02T00:00:00,1865A,110.2869,25.2178,桂林市,八中,细颗粒物(PM2.5),88,56,62,65,64,94,58,82,65,11,16,5,7,0.7,0.7
2023-01-02T00:00:00,1866A,109.2262,21.588,北海市,牛尾岭水库(对照点),细颗粒物(PM2.5),82,71,60,60,56,95,67,85,76,18,15,12,9,0.6,0.6
2023-01-02T00:00:00,1867A,109.1436,21.4086,北海市,海滩公园,细颗粒物(PM2.5),89,91,73,66,56,115,97,105,101,12,12,10,8,0.9,0.8
2023-01-02T00:00:00,1868A,109.0981,21.4661,北海市,新市环保局,细颗粒物(PM2.5),94,73,66,70,61,113,95,102,97,16,17,7,8,0.9,0.9
2023-01-02T00:00:00,1869A,109.1778,21.5233,北海市,北海工业园,细颗粒物(PM2.5),98,85,77,73,62,105,90,96,91,20,22,11,14,0.8,0.7
2023-01-02T00:00:00,1870A,109.4856,24.3895,柳州市,柳东小学,细颗粒物(PM2.5),85,78,66,63,62,102,77,93,88,13,10,9,8,0.8,0.8
2023-01-02T00:00:00,1871A,109.4157,24.3277,柳州市,环保监测站,细颗粒物(PM2.5),90,77,68,67,54,100,75,88,73,17,15,9,8,0.7,0.7
2023-01-02T00:00:00,1872A,109.389,24.341,柳州市,河西水厂,细颗粒物(PM2.5),102,84,86,76,62,101,65,86,63,21,26,14,12,1.0,1
2023-01-02T00:00:00,1873A,109.4311,24.2921,柳州市,市四中,细颗粒物(PM2.5),83,64,67,61,54,104,72,89,67,21,20,12,11,0.9,0.9
2023-01-02T00:00:00,1874A,109.4006,24.3631,柳州市,市九中,细颗粒物(PM2.5),109,98,72,82,62,92,49,82,61,34,24,14,12,0.8,0.7
2023-01-02T00:00:00,1875A,109.4958,24.3134,柳州市,古亭山,细颗粒物(PM2.5),85,65,58,63,58,104,73,88,72,16,13,12,10,0.8,0.8
2023-01-02T00:00:00,1876A,109.5078,18.2489,三亚市,河东子站,,26,26,30,17,19,102,66,93,67,14,12,3,3,0.7,0.6
2023-01-02T00:00:00,1877A,109.4964,18.2681,三亚市,河西子站,,26,26,28,16,19,88,60,83,61,13,13,3,3,0.6,0.5
2023-01-02T00:00:00,1878A,104.7778,31.4741,绵阳市,富乐山,细颗粒物(PM2.5),98,80,74,73,68,40,2,34,17,46,27,3,3,1.1,0.9
2023-01-02T00:00:00,1879A,104.7563,31.4535,绵阳市,市人大,细颗粒物(PM2.5),122,111,92,92,78,32,0,22,10,49,37,5,4,0.8,0.7
2023-01-02T00:00:00,1880A,104.6697,31.4668,绵阳市,高新区自来水公司,细颗粒物(PM2.5),124,119,104,94,84,32,2,20,9,35,33,6,4,1.0,0.8
2023-01-02T00:00:00,1881A,104.7287,31.5075,绵阳市,三水厂,细颗粒物(PM2.5),133,130,103,101,86,31,1,22,10,44,37,2,2,0.9,0.7
2023-01-02T00:00:00,1882A,104.563,28.793,宜宾市,石马中学(对照点),细颗粒物(PM2.5),72,69,58,52,47,40,25,34,28,14,16,4,5,0.7,0.7
2023-01-02T00:00:00,1883A,104.6201,28.7728,宜宾市,市委,细颗粒物(PM2.5),82,75,68,60,57,44,19,35,23,29,27,8,9,0.4,0.5
2023-01-02T00:00:00,1884A,104.6055,28.793,宜宾市,宜宾四中,细颗粒物(PM2.5),87,77,70,64,62,39,18,29,16,30,32,6,7,0.4,0.4
2023-01-02T00:00:00,1885A,104.639,28.7562,宜宾市,市政府,细颗粒物(PM2.5),84,74,68,62,60,39,24,30,22,31,31,6,7,0.6,0.6
2023-01-02T00:00:00,1886A,104.5742,28.7199,宜宾市,黄金嘴,细颗粒物(PM2.5),82,12,7,60,55,46,25,39,30,32,25,8,8,0.7,0.7
2023-01-02T00:00:00,1888A,101.6891,26.571,攀枝花市,弄弄坪,细颗粒物(PM2.5),69,67,84,50,59,63,9,48,34,39,35,9,18,1.2,1.9
2023-01-02T00:00:00,1889A,101.5769,26.5928,攀枝花市,河门口,细颗粒物(PM2.5),55,53,62,39,49,70,6,58,42,41,27,13,18,1.8,1.8
2023-01-02T00:00:00,1890A,101.7169,26.585,攀枝花市,炳草岗,细颗粒物(PM2.5),99,105,75,74,57,59,3,40,18,53,42,16,25,2.7,2.4
2023-01-02T00:00:00,1891A,101.7369,26.5008,攀枝花市,仁和,细颗粒物(PM2.5),54,47,81,38,58,64,18,41,22,22,28,9,25,1.1,2.3
2023-01-02T00:00:00,1893A,105.4324,28.9634,泸州市,九狮山(对照点),细颗粒物(PM2.5),74,64,67,54,48,26,4,18,7,10,18,6,7,0.5,0.5
2023-01-02T00:00:00,1894A,105.4427,28.9063,泸州市,小市上码头,细颗粒物(PM2.5),94,94,83,70,63,33,22,24,20,26,31,7,6,0.5,0.6
2023-01-02T00:00:00,1895A,105.4241,28.8573,泸州市,兰田宪桥,细颗粒物(PM2.5),97,91,77,72,64,24,8,20,9,29,29,6,7,0.8,0.8
2023-01-02T00:00:00,1896A,105.4379,28.8833,泸州市,市环监站,细颗粒物(PM2.5),89,92,82,66,59,24,10,17,13,32,30,3,3,0.7,0.6
2023-01-02T00:00:00,1901A,104.4239,31.1208,德阳市,东山公园,细颗粒物(PM2.5),92,80,72,68,65,54,3,47,31,46,28,2,1,1.0,0.9
2023-01-02T00:00:00,1902A,104.3826,31.1317,德阳市,西小区,细颗粒物(PM2.5),115,114,76,87,65,53,1,42,25,42,37,1,2,0.9,0.8
2023-01-02T00:00:00,1904A,104.3553,31.1091,德阳市,耐火材料厂,细颗粒物(PM2.5),112,154,85,84,67,57,3,44,29,35,32,3,2,0.9,0.8
2023-01-02T00:00:00,1905A,106.056,30.8064,南充市,西山风景区(对照点),细颗粒物(PM2.5),70,49,45,51,47,49,40,49,46,11,12,2,2,1.0,1
2023-01-02T00:00:00,1906A,106.0789,30.8023,南充市,南充市委,细颗粒物(PM2.5),62,54,63,44,50,44,20,35,25,26,27,4,4,0.7,0.7
2023-01-02T00:00:00,1907A,106.1031,30.8217,南充市,南充炼油厂,细颗粒物(PM2.5),74,65,63,54,50,51,25,45,34,24,22,6,6,0.6,0.6
2023-01-02T00:00:00,1908A,106.1064,30.7856,南充市,高坪区监测站,细颗粒物(PM2.5),80,83,64,59,54,51,24,44,34,33,28,7,7,0.7,0.6
2023-01-02T00:00:00,1909A,106.0642,30.7636,南充市,嘉陵区环保局,细颗粒物(PM2.5),64,61,61,46,44,38,14,33,25,40,34,6,6,0.9,1
2023-01-02T00:00:00,1910A,106.1087,30.8388,南充市,市环境监测站,细颗粒物(PM2.5),79,74,66,58,55,44,25,38,31,20,21,8,8,0.5,0.5
2023-01-02T00:00:00,1911A,106.9222,27.6869,遵义市,丁字口,细颗粒物(PM2.5),53,41,34,37,31,52,28,46,38,18,19,19,16,0.8,0.7
2023-01-02T00:00:00,1912A,106.9242,27.7019,遵义市,凤凰山,,38,38,35,22,19,55,22,43,34,16,16,6,6,0.7,0.6
2023-01-02T00:00:00,1913A,106.8906,27.6486,遵义市,忠庄,细颗粒物(PM2.5),54,36,37,38,32,47,27,42,32,16,15,2,3,0.4,0.4
2023-01-02T00:00:00,1914A,106.9231,27.6506,遵义市,舟水桥,,48,46,43,33,32,53,29,48,37,10,10,7,14,0.6,0.6
2023-01-02T00:00:00,1915A,106.9178,27.72,遵义市,干田坝,,48,35,32,33,27,44,20,38,29,20,18,8,9,0.8,0.7
2023-01-02T00:00:00,1916A,103.7897,25.5035,曲靖市,环境监测站,,42,40,26,29,25,64,10,50,26,30,15,2,4,0.8,0.7
2023-01-02T00:00:00,1917A,103.8,25.5364,曲靖市,烟厂办公区,,29,28,24,20,18,67,28,52,34,16,11,3,5,0.8,0.8
2023-01-02T00:00:00,1918A,108.7197,34.3956,咸阳市,气象站(对照点),细颗粒物(PM2.5),327,295,208,277,186,79,9,52,31,84,71,14,17,1.9,1.8
2023-01-02T00:00:00,1919A,108.673,34.3155,咸阳市,实验中学,细颗粒物(PM2.5),358,323,257,308,229,78,16,58,45,83,80,9,12,1.4,1.4
2023-01-02T00:00:00,1920A,108.7233,34.3617,咸阳市,师范学院,细颗粒物(PM2.5),324,282,218,274,197,88,19,62,48,66,61,9,13,1.4,1.1
2023-01-02T00:00:00,1922A,109.0656,35.0994,铜川市,党校(对照点),颗粒物(PM10),110,170,92,78,48,78,5,67,28,88,57,18,18,1.8,1.2
2023-01-02T00:00:00,1923A,109.0697,35.0697,铜川市,王益区政府,细颗粒物(PM2.5),155,149,100,118,82,75,6,58,24,60,51,12,13,1.7,1.3
2023-01-02T00:00:00,1924A,108.9344,34.9058,铜川市,新区管委会,细颗粒物(PM2.5),158,156,108,120,90,87,27,74,38,65,44,22,19,1.4,1
2023-01-02T00:00:00,1926A,109.4131,36.6275,延安市,枣园(对照点),细颗粒物(PM2.5),72,67,61,52,48,68,4,50,19,54,45,5,5,0.8,0.6
2023-01-02T00:00:00,1927A,109.4761,36.6028,延安市,延大医附院,细颗粒物(PM2.5),89,91,62,66,46,63,8,43,17,65,51,11,8,1.4,1.2
2023-01-02T00:00:00,1929A,109.5056,36.6106,延安市,百米大道,细颗粒物(PM2.5),114,100,73,86,56,79,14,58,32,73,58,10,12,2.0,1.5
2023-01-02T00:00:00,1930A,107.185,34.3063,宝鸡市,庙沟村(对照点),细颗粒物(PM2.5),239,191,157,189,146,69,7,53,15,65,48,6,10,1.6,1.6
2023-01-02T00:00:00,1931A,107.0708,34.3017,宝鸡市,竹园沟,细颗粒物(PM2.5),236,172,127,186,135,98,23,69,43,36,35,4,6,1.2,1
2023-01-02T00:00:00,1932A,107.1906,34.3672,宝鸡市,三陆医院,细颗粒物(PM2.5),212,194,188,162,174,73,29,50,32,36,53,10,12,1.3,1.4
2023-01-02T00:00:00,1933A,107.1431,34.3547,宝鸡市,监测站,细颗粒物(PM2.5),214,165,150,164,147,76,22,55,29,50,54,5,7,1.2,1.3
2023-01-02T00:00:00,1934A,107.1186,34.3739,宝鸡市,技工学校,细颗粒物(PM2.5),215,146,143,165,144,74,37,58,40,35,47,4,7,1.1,1.2
2023-01-02T00:00:00,1935A,107.3906,34.3528,宝鸡市,陈仓区环保局家属楼,细颗粒物(PM2.5),293,224,200,243,187,70,16,52,30,75,63,12,39,1.7,1.7
2023-01-02T00:00:00,1936A,107.2058,34.3497,宝鸡市,文理学院,细颗粒物(PM2.5),227,202,167,177,155,82,25,58,32,48,54,10,11,1.4,1.2
2023-01-02T00:00:00,1937A,107.2386,34.3622,宝鸡市,三迪小学,细颗粒物(PM2.5),246,218,187,196,166,66,26,50,31,53,57,11,13,1.4,1.3
2023-01-02T00:00:00,1938A,109.5293,34.5101,渭南市,农科所(对照点),细颗粒物(PM2.5),279,261,224,229,181,67,17,52,30,72,62,8,15,1.8,1.9
2023-01-02T00:00:00,1939A,109.4974,34.4877,渭南市,日报社,细颗粒物(PM2.5),278,229,204,228,171,52,7,32,16,82,72,11,17,1.5,1.6
2023-01-02T00:00:00,1940A,109.4636,34.493,渭南市,体育馆,细颗粒物(PM2.5),288,261,209,238,185,44,15,32,20,70,67,8,13,1.5,1.7
2023-01-02T00:00:00,1941A,109.4259,34.5023,渭南市,高新一小,细颗粒物(PM2.5),284,271,254,234,221,50,14,31,17,82,71,8,16,1.5,1.9
2023-01-02T00:00:00,1943A,102.1725,38.5339,金昌市,新川苑,"颗粒物(PM10),细颗粒物(PM2.5)",79,108,106,58,47,82,37,74,44,27,32,12,49,0.7,0.9
2023-01-02T00:00:00,1944A,102.1692,38.5167,金昌市,天庆家园,颗粒物(PM10),67,83,65,43,33,84,34,78,46,36,34,18,49,1.0,0.9
2023-01-02T00:00:00,1945A,98.2908,39.7711,嘉峪关市,气象局,,48,48,53,22,29,83,7,76,36,62,45,6,10,0.5,0.5
2023-01-02T00:00:00,1947A,106.3394,38.817,石嘴山市,沙湖旅游区(对照点),细颗粒物(PM2.5),190,162,347,143,266,23,13,20,14,64,66,41,54,2.5,3.9
2023-01-02T00:00:00,1948A,106.3668,39.0145,石嘴山市,大武口朝阳西街,颗粒物(PM10),92,133,162,58,109,46,7,37,16,76,75,42,54,1.2,1.4
2023-01-02T00:00:00,1949A,106.7704,39.2282,石嘴山市,惠农南大街,颗粒物(PM10),106,162,147,65,85,28,1,16,4,70,66,64,58,1.6,1.6
2023-01-02T00:00:00,1950A,106.7099,39.1325,石嘴山市,红果子镇惠新街,颗粒物(PM10),63,76,141,39,74,34,14,25,12,48,61,33,52,0.9,1.6
2023-01-02T00:00:00,1951A,84.895,45.6094,克拉玛依市,长征新村,细颗粒物(PM2.5),128,125,120,97,92,56,21,43,39,67,54,18,10,1.0,1.1
2023-01-02T00:00:00,1952A,84.8988,45.5893,克拉玛依市,南林小区,细颗粒物(PM2.5),148,135,128,113,112,53,28,42,38,54,50,12,8,1.1,1.1
2023-01-02T00:00:00,1954A,84.905,44.3396,克拉玛依市,独山子区,细颗粒物(PM2.5),280,297,364,230,261,59,8,37,22,95,105,8,9,1.5,1.7
2023-01-02T00:00:00,1955A,85.6979,46.098,克拉玛依市,乌尔禾区商贸楼,细颗粒物(PM2.5),195,157,165,146,133,68,38,57,52,56,57,7,6,1.3,1.5
2023-01-02T00:00:00,1956A,86.1472,41.7538,巴音郭楞州,孔雀公园,颗粒物(PM10),121,191,166,85,72,83,3,62,48,75,35,14,15,1.3,0.8
2023-01-02T00:00:00,1957A,86.1972,41.7166,巴音郭楞州,棉纺厂,颗粒物(PM10),159,268,185,83,64,84,4,74,39,79,54,7,9,0.9,0.8
2023-01-02T00:00:00,1958A,86.2357,41.7173,巴音郭楞州,经济开发区,颗粒物(PM10),96,142,137,50,52,89,45,76,59,34,38,9,11,1.0,0.7
2023-01-02T00:00:00,1961A,117.532,36.6868,济南市,东山小学,细颗粒物(PM2.5),160,181,170,122,118,71,6,58,16,91,71,14,14,1.1,1
2023-01-02T00:00:00,1966A,120.0405,35.8735,青岛市,黄岛区4号,细颗粒物(PM2.5),77,88,149,56,115,67,29,59,47,62,64,13,16,0.8,1
2023-01-02T00:00:00,1982A,122.0693,37.2174,威海市,文登开发区,细颗粒物(PM2.5),58,51,92,41,72,75,28,68,38,35,36,5,6,1.0,1.1
2023-01-02T00:00:00,2031A,113.1817,27.9958,株洲市,云田中学,细颗粒物(PM2.5),216,173,138,166,133,67,25,48,28,48,36,6,5,1.3,1.1
2023-01-02T00:00:00,2054A,114.1099,32.1059,信阳市,平桥分局,细颗粒物(PM2.5),198,177,161,148,139,97,47,80,71,48,48,10,11,1.1,1.3
2023-01-02T00:00:00,2064A,113.9956,32.1271,信阳市,南湾水厂,细颗粒物(PM2.5),245,207,146,195,127,104,33,88,64,51,30,8,9,1.3,1.2
2023-01-02T00:00:00,2065A,114.0775,32.1195,信阳市,市酿酒公司,细颗粒物(PM2.5),216,180,158,166,144,98,34,75,64,56,64,9,10,1.3,1.4
2023-01-02T00:00:00,2066A,114.0609,32.1399,信阳市,审计局,细颗粒物(PM2.5),223,182,163,173,146,100,24,70,54,57,58,10,11,1.2,1.3
2023-01-02T00:00:00,2067A,114.6613,33.6128,周口市,市环境监测站,细颗粒物(PM2.5),301,327,211,251,182,112,50,98,75,45,43,13,10,1.4,1.3
2023-01-02T00:00:00,2068A,114.6758,33.6347,周口市,周口师范,细颗粒物(PM2.5),314,265,211,264,204,126,52,107,75,57,47,12,12,1.4,1.2
2023-01-02T00:00:00,2069A,114.6546,33.5979,周口市,市运管处,细颗粒物(PM2.5),288,279,210,238,185,122,70,108,88,45,48,13,12,1.5,1.3
2023-01-02T00:00:00,2070A,114.6369,33.6406,周口市,川汇区环保局,细颗粒物(PM2.5),315,286,220,265,202,113,34,99,62,72,57,13,11,1.5,1.3
2023-01-02T00:00:00,2075A,117.6336,24.4674,漳州市,九湖(对照点),,,,,,,,,,,,,,,,
2023-01-02T00:00:00,2160A,112.85,35.5051,晋城市,自来水公司,细颗粒物(PM2.5),156,154,119,119,89,119,23,99,77,66,50,14,25,0.9,1.2
2023-01-02T00:00:00,2161A,112.8318,35.4936,晋城市,白云商贸,细颗粒物(PM2.5),156,125,113,119,79,106,22,93,71,64,47,9,15,1.7,1.9
2023-01-02T00:00:00,2162A,112.8508,35.4887,晋城市,市环保局,细颗粒物(PM2.5),134,133,120,102,88,109,22,89,67,73,48,16,27,1.5,1.7
2023-01-02T00:00:00,2163A,112.8676,35.4897,晋城市,技术学院,细颗粒物(PM2.5),132,136,119,100,85,101,37,82,57,80,52,13,22,1.5,1.8
2023-01-02T00:00:00,2165A,112.8453,35.546,晋城市,白马寺 (对照点),,,,,,,,,,,,,,,,
2023-01-02T00:00:00,2166A,112.4397,39.3522,朔州市,平朔,颗粒物(PM10),220,364,158,93,72,37,10,28,15,73,62,63,37,1.6,1.3
2023-01-02T00:00:00,2167A,112.4575,39.3617,朔州市,朔唯,颗粒物(PM10),233,373,196,89,84,42,4,26,9,77,62,63,41,1.1,1
2023-01-02T00:00:00,2168A,112.4258,39.3197,朔州市,区政府,细颗粒物(PM2.5),112,162,149,84,76,35,4,24,10,66,60,33,33,1.2,1
2023-01-02T00:00:00,2169A,112.4072,39.3278,朔州市,市环保局,细颗粒物(PM2.5),125,148,148,95,80,35,4,25,9,63,58,32,34,1.3,1.2
2023-01-02T00:00:00,2170A,112.4272,39.3681,朔州市,市二中,颗粒物(PM10),183,315,170,90,71,40,4,27,10,76,58,55,33,0.9,1
2023-01-02T00:00:00,2171A,112.7532,37.6945,晋中市,锦纶小区,细颗粒物(PM2.5),77,95,82,56,48,46,4,35,7,65,50,30,19,0.9,0.9
2023-01-02T00:00:00,2173A,112.7249,37.7067,晋中市,南都小区,颗粒物(PM10),87,123,95,59,46,43,7,33,10,64,55,31,20,1.0,1
2023-01-02T00:00:00,2174A,112.6991,37.6982,晋中市,榆次区政府,颗粒物(PM10),81,111,94,55,48,35,3,28,7,63,52,30,21,1.0,1.1
2023-01-02T00:00:00,2175A,110.9956,35.0147,运城市,运城中学,细颗粒物(PM2.5),227,222,192,177,163,65,34,55,47,49,47,40,23,2.4,3.1
2023-01-02T00:00:00,2178A,110.9686,35.0303,运城市,地区技校,细颗粒物(PM2.5),235,242,201,185,168,62,32,50,40,46,54,33,29,2.1,3
2023-01-02T00:00:00,2179A,111.0414,35.1147,运城市,空港新区,细颗粒物(PM2.5),246,260,245,196,193,61,17,50,32,56,59,20,28,2.3,3.5
2023-01-02T00:00:00,2181A,112.7383,38.4519,忻州市,开发区,细颗粒物(PM2.5),196,192,124,147,78,24,12,18,9,57,54,28,25,1.5,1.1
2023-01-02T00:00:00,2182A,112.7003,38.4928,忻州市,会展中心,细颗粒物(PM2.5),114,134,116,86,77,27,10,18,10,65,57,23,19,1.1,1
2023-01-02T00:00:00,2183A,111.1406,37.5211,吕梁市,环保局,颗粒物(PM10),96,142,98,57,39,31,1,18,5,60,60,7,8,0.7,0.6
2023-01-02T00:00:00,2185A,111.1297,37.5136,吕梁市,自来水公司,颗粒物(PM10),97,143,119,47,45,34,2,19,10,59,53,15,13,0.7,0.7
2023-01-02T00:00:00,2187A,106.8174,39.6973,乌海市,市林业局,细颗粒物(PM2.5),62,63,105,44,63,60,33,44,41,34,47,18,26,1.0,1.4
2023-01-02T00:00:00,2188A,106.7907,39.6667,乌海市,中海勃湾学校,细颗粒物(PM2.5),67,59,89,48,50,65,30,56,48,42,41,16,23,0.7,1.1
2023-01-02T00:00:00,2191A,122.2532,43.6801,通辽市,艺术职业学校,,44,44,39,12,10,62,54,59,54,15,12,7,6,0.2,0.1
2023-01-02T00:00:00,2192A,119.7594,49.2261,呼伦贝尔市,区环保局,,22,22,22,13,17,60,55,57,54,8,9,5,5,0.3,0.3
2023-01-02T00:00:00,2195A,107.4212,40.761,巴彦淖尔市,附二中,细颗粒物(PM2.5),117,141,106,88,61,66,12,57,29,55,41,26,32,1.1,1
2023-01-02T00:00:00,2196A,107.37,40.7372,巴彦淖尔市,市环保大楼,颗粒物(PM10),56,62,101,38,75,64,10,57,34,58,42,16,11,1.7,1.2
2023-01-02T00:00:00,2197A,113.1306,40.9923,乌兰察布市,集宁新区,,37,37,66,19,41,71,39,59,44,14,28,8,15,0.4,0.5
2023-01-02T00:00:00,2200A,122.0392,46.0656,兴安盟,胜华新制药厂,,25,18,24,17,16,65,58,61,60,14,14,4,5,0.2,0.3
2023-01-02T00:00:00,2201A,121.9504,46.0741,兴安盟,科右前旗环保局,,35,15,21,24,17,67,64,66,66,4,6,2,2,0.3,0.4
2023-01-02T00:00:00,2202A,116.1042,43.9317,锡林郭勒盟,市环保监测站,,33,21,28,23,15,65,48,57,51,12,10,8,9,0.2,0.3
2023-01-02T00:00:00,2203A,116.0781,43.9311,锡林郭勒盟,市政府,,31,31,41,7,21,65,56,57,52,6,14,8,9,0.2,0.2
2023-01-02T00:00:00,2204A,105.6467,38.8363,阿拉善盟,西城区西花园(对照点),,50,50,47,23,26,74,51,64,45,21,23,8,8,0.6,0.5
2023-01-02T00:00:00,2205A,105.6985,38.8411,阿拉善盟,蒙二幼,细颗粒物(PM2.5),62,32,33,44,33,72,34,64,48,34,20,15,12,0.9,0.4
2023-01-02T00:00:00,2206A,105.724,38.8516,阿拉善盟,环保局新楼,,38,24,25,26,21,90,56,84,65,16,11,26,14,0.5,0.4
2023-01-02T00:00:00,2207A,121.6094,41.998,阜新市,工业园区,,42,42,83,10,29,58,45,50,34,12,25,10,14,0.5,1
2023-01-02T00:00:00,2208A,121.6697,42.0279,阜新市,长青街,,40,40,51,16,23,57,39,52,36,12,22,7,8,0.7,0.8
2023-01-02T00:00:00,2209A,121.6673,42.0705,阜新市,农业园区,,31,31,26,10,10,62,44,59,51,8,7,9,8,0.9,0.8
2023-01-02T00:00:00,2210A,121.6717,42.0224,阜新市,东苑,,35,35,51,12,25,66,53,59,48,5,18,7,11,0.9,1.1
2023-01-02T00:00:00,2211A,121.6506,42.0498,阜新市,玉龙新城,颗粒物(PM10),76,102,52,40,22,60,35,53,26,17,26,9,10,0.5,0.7
2023-01-02T00:00:00,2212A,123.2,41.1953,辽阳市,宏伟区,细颗粒物(PM2.5),90,80,46,67,34,62,9,54,28,47,32,15,19,1.7,1
2023-01-02T00:00:00,2213A,123.1683,41.2495,辽阳市,新华园,细颗粒物(PM2.5),62,55,44,44,36,57,12,50,29,40,28,72,29,1.4,1.1
2023-01-02T00:00:00,2214A,123.2354,41.2639,辽阳市,滨河路,细颗粒物(PM2.5),85,67,41,63,40,67,8,59,28,41,29,10,8,1.2,0.9
2023-01-02T00:00:00,2215A,123.149,41.2991,辽阳市,铁西工业园,细颗粒物(PM2.5),176,103,49,133,47,60,6,48,8,51,38,30,10,2.3,1.1
2023-01-02T00:00:00,2216A,123.8139,42.3022,铁岭市,汇工街西,细颗粒物(PM2.5),88,83,72,65,56,67,11,56,28,46,38,8,11,1.3,1.2
2023-01-02T00:00:00,2217A,123.8649,42.2923,铁岭市,水上乐园,细颗粒物(PM2.5),54,55,54,38,37,66,31,54,36,29,26,8,9,0.5,0.4
2023-01-02T00:00:00,2218A,123.8486,42.2867,铁岭市,银州路东段,颗粒物(PM10),68,85,72,44,38,68,21,52,24,39,36,9,9,0.8,0.7
2023-01-02T00:00:00,2219A,123.7153,42.2217,铁岭市,金沙江路北,细颗粒物(PM2.5),117,94,94,88,81,61,10,54,23,55,43,7,8,1.2,1.1
2023-01-02T00:00:00,2220A,120.4318,41.5881,朝阳市,西梁,,27,27,84,7,53,61,49,45,33,10,34,14,23,0.1,1
2023-01-02T00:00:00,2221A,120.4521,41.5646,朝阳市,河畔小区,,26,26,80,10,51,57,45,44,36,9,26,7,15,0.6,1.1
2023-01-02T00:00:00,2222A,120.4176,41.5648,朝阳市,八里堡,,36,36,70,7,39,63,50,44,32,10,33,10,16,0.4,1
2023-01-02T00:00:00,2223A,120.3806,41.5969,朝阳市,农业园区,,33,33,88,14,50,68,51,44,36,8,34,7,16,0.6,1.4
2023-01-02T00:00:00,2225A,124.4002,43.1713,四平市,一商场,"颗粒物(PM10),细颗粒物(PM2.5)",67,84,50,48,27,57,26,50,31,29,26,9,8,0.5,0.4
2023-01-02T00:00:00,2226A,124.388,43.193,四平市,境园,颗粒物(PM10),53,56,45,27,16,60,37,55,38,16,17,6,7,0.4,0.4
2023-01-02T00:00:00,2227A,125.1358,42.8845,辽源市,环保局,细颗粒物(PM2.5),65,68,32,47,22,64,12,61,39,46,16,9,9,1.1,0.7
2023-01-02T00:00:00,2229A,125.9358,41.7173,通化市,光明,细颗粒物(PM2.5),78,92,95,57,70,59,12,53,24,43,34,14,22,0.7,0.6
2023-01-02T00:00:00,2230A,125.9446,41.7325,通化市,铁路,颗粒物(PM10),56,62,85,30,57,64,8,56,27,48,36,11,16,1.1,1.1
2023-01-02T00:00:00,2231A,126.4219,41.9171,白山市,喜丰,细颗粒物(PM2.5),57,61,74,40,48,48,21,43,33,26,29,7,13,0.6,0.8
2023-01-02T00:00:00,2232A,126.4077,41.9419,白山市,环保局,颗粒物(PM10),75,99,113,51,75,58,11,49,20,40,32,12,18,1.0,1.2
2023-01-02T00:00:00,2233A,124.8006,45.1214,松原市,江南,颗粒物(PM10),64,77,50,38,30,50,10,44,19,35,22,14,13,1.0,0.7
2023-01-02T00:00:00,2234A,124.7965,45.1722,松原市,江北,颗粒物(PM10),74,98,43,44,20,56,6,51,25,49,20,4,4,0.8,0.5
2023-01-02T00:00:00,2235A,122.7911,45.6077,白城市,洮北区环保局,,35,35,32,16,14,59,46,55,50,13,10,5,5,0.4,0.4
2023-01-02T00:00:00,2236A,122.8738,45.5725,白城市,市环保局,,34,34,29,3,10,63,46,58,52,19,11,4,4,0.3,0.3
2023-01-02T00:00:00,2237A,129.47,42.8883,延边朝鲜族自治州,妇幼医院,,27,27,32,10,14,62,54,56,55,10,12,14,17,0.5,0.5
2023-01-02T00:00:00,2238A,129.5055,42.9108,延边朝鲜族自治州,延边医院,,24,24,25,10,12,65,58,59,59,8,11,6,8,0.5,0.5
2023-01-02T00:00:00,2239A,129.3964,42.8881,延边朝鲜族自治州,朝阳川镇医院,,31,31,24,9,10,64,56,58,58,4,5,5,6,0.4,0.4
2023-01-02T00:00:00,2240A,130.9762,45.3001,鸡西市,环保局,,19,14,25,6,18,61,59,56,56,4,10,4,5,0.2,0.3
2023-01-02T00:00:00,2243A,130.9429,45.3039,鸡西市,第一中学,,19,8,26,7,18,61,59,57,56,2,4,3,4,0.4,0.5
2023-01-02T00:00:00,2244A,130.2537,47.3416,鹤岗市,哈啤分公司,,22,16,25,15,20,60,54,55,55,5,7,11,13,0.3,0.3
2023-01-02T00:00:00,2245A,130.2684,47.3086,鹤岗市,斯达机电,,25,24,31,17,21,64,58,59,57,5,8,6,7,0.2,0.3
2023-01-02T00:00:00,2246A,130.3114,47.3388,鹤岗市,东山纸板厂,,23,20,37,16,24,60,56,60,58,2,8,9,10,0.4,0.5
2023-01-02T00:00:00,2247A,130.1097,47.3382,鹤岗市,五号水库(对照点),,19,19,22,11,21,66,60,64,62,4,5,6,7,0.5,0.5
2023-01-02T00:00:00,2248A,131.1511,46.6937,双鸭山市,双合村,,19,5,25,5,21,68,60,59,55,3,11,5,8,0.6,0.7
2023-01-02T00:00:00,2249A,131.1652,46.6191,双鸭山市,南小市,,15,14,29,9,18,64,48,60,54,16,11,19,10,0.8,0.5
2023-01-02T00:00:00,2250A,131.1524,46.6554,双鸭山市,环保局,,22,22,35,14,27,71,68,65,64,4,14,3,7,0.4,0.6
2023-01-02T00:00:00,2251A,131.12,46.5656,双鸭山市,苗圃(对照点),,26,25,37,18,31,72,71,68,66,4,8,5,6,0.3,0.4
2023-01-02T00:00:00,2252A,128.5159,47.4311,伊春市,环保局,,28,24,25,19,17,59,51,56,50,6,8,6,6,0.5,0.5
2023-01-02T00:00:00,2253A,128.9102,47.7412,伊春市,电力嘉园,,19,16,28,13,21,61,58,60,57,4,8,5,6,0.5,0.6
2023-01-02T00:00:00,2254A,129.5029,48.471,伊春市,汤旺河国家公园(对照点),,,,27,,18,82,60,76,65,2,3,5,6,0.0,0.2
2023-01-02T00:00:00,2255A,130.2751,46.8028,佳木斯市,佳纺,,22,20,31,15,28,57,52,53,49,6,10,1,3,0.3,0.5
2023-01-02T00:00:00,2256A,130.3995,46.8307,佳木斯市,发电厂,,18,18,22,12,16,61,52,58,52,8,9,1,5,0.2,0.3
2023-01-02T00:00:00,2257A,130.3258,46.7975,佳木斯市,环保局,,16,16,26,7,19,56,46,50,44,12,15,4,7,0.2,0.2
2023-01-02T00:00:00,2258A,130.3648,46.8032,佳木斯市,十一中,,19,17,28,13,18,56,53,50,46,6,15,1,5,0.3,0.3
2023-01-02T00:00:00,2259A,130.3794,46.7588,佳木斯市,四丰(对照点),,23,10,20,5,16,78,71,73,68,2,6,1,1,0.2,0.3
2023-01-02T00:00:00,2262A,131.0518,45.8751,七台河市,新一中(对照点),,20,11,18,14,16,71,61,68,61,5,7,10,11,1.0,0.9
2023-01-02T00:00:00,2263A,127.4833,50.2524,黑河市,交通局,,21,8,13,9,11,69,66,66,64,2,3,7,5,0.4,0.4
2023-01-02T00:00:00,2264A,127.5144,50.2341,黑河市,环保局,,20,10,11,14,14,65,64,62,62,2,4,7,6,0.3,0.3
2023-01-02T00:00:00,2265A,127.5291,50.2472,黑河市,大黑河岛(对照点),,21,2,11,3,7,67,67,65,65,2,2,1,10,0.3,0.3
2023-01-02T00:00:00,2266A,126.9785,46.6365,绥化市,人和东街,细颗粒物(PM2.5),54,45,32,38,27,56,41,50,42,16,14,4,4,0.4,0.2
2023-01-02T00:00:00,2267A,126.964,46.6528,绥化市,党政办公中心,细颗粒物(PM2.5),55,42,29,39,27,57,42,53,45,16,12,5,4,0.2,0.1
2023-01-02T00:00:00,2269A,124.1069,50.4097,大兴安岭地区,科技局,,,14,14,16,14,62,58,58,58,5,5,,,0.2,0.2
2023-01-02T00:00:00,2270A,117.396,32.939,蚌埠市,工人疗养院,细颗粒物(PM2.5),226,229,223,176,172,73,39,67,60,43,61,8,13,1.2,1.2
2023-01-02T00:00:00,2271A,117.3605,32.9427,蚌埠市,百货大楼,细颗粒物(PM2.5),229,241,255,179,204,79,38,67,63,44,68,10,15,1.0,1.2
2023-01-02T00:00:00,2273A,117.4185,32.8911,蚌埠市,蚌埠学院,细颗粒物(PM2.5),233,237,213,183,151,81,21,64,50,73,72,19,22,1.1,0.9
2023-01-02T00:00:00,2274A,117.3533,32.9673,蚌埠市,淮上区政府,细颗粒物(PM2.5),225,239,259,175,195,85,40,71,60,40,66,9,14,1.1,1
2023-01-02T00:00:00,2275A,117.3145,32.8977,蚌埠市,高新区,细颗粒物(PM2.5),243,234,222,193,183,79,45,61,58,50,68,9,14,1.1,1.1
2023-01-02T00:00:00,2277A,116.8305,32.7727,淮南市,潘集区政府,细颗粒物(PM2.5),279,280,253,229,213,60,26,48,39,54,66,7,10,1.0,1
2023-01-02T00:00:00,2278A,117.0067,32.6524,淮南市,师范学院,细颗粒物(PM2.5),240,277,285,190,207,58,14,35,21,72,75,12,15,1.1,1.3
2023-01-02T00:00:00,2279A,116.8569,32.5951,淮南市,谢家集区政府,细颗粒物(PM2.5),249,258,212,199,164,94,37,62,39,56,63,15,21,1.0,1
2023-01-02T00:00:00,2280A,116.8281,32.633,淮南市,八公山区政府,细颗粒物(PM2.5),300,212,172,250,199,103,41,82,38,38,45,12,17,1.0,0.9
2023-01-02T00:00:00,2281A,116.6325,32.6201,淮南市,焦岗湖风景区管理处(对照点),细颗粒物(PM2.5),257,265,252,207,196,73,13,58,22,16,16,17,20,0.8,0.9
2023-01-02T00:00:00,2282A,116.8004,33.975,淮北市,监测站,细颗粒物(PM2.5),182,252,231,137,171,127,55,109,77,33,50,16,15,1.4,1.5
2023-01-02T00:00:00,2283A,116.8091,33.9007,淮北市,烈山区政府,细颗粒物(PM2.5),156,151,213,119,176,138,64,124,90,39,62,14,12,1.0,1.2
2023-01-02T00:00:00,2284A,116.7856,33.9477,淮北市,职业技术学院,细颗粒物(PM2.5),193,209,230,145,183,126,55,111,83,39,55,16,14,1.1,1.2
2023-01-02T00:00:00,2285A,117.8177,30.9412,铜陵市,市第四中学,颗粒物(PM10),83,116,128,42,82,49,49,22,15,52,77,7,8,0.7,1
2023-01-02T00:00:00,2286A,117.8059,30.9273,铜陵市,市公路局,细颗粒物(PM2.5),78,41,112,57,89,35,35,18,10,51,73,1,3,0.8,1.1
2023-01-02T00:00:00,2287A,117.7807,30.9413,铜陵市,市新民污水厂,颗粒物(PM10),60,69,112,30,69,55,55,20,15,42,72,7,9,0.4,0.8
2023-01-02T00:00:00,2288A,117.7439,30.8792,铜陵市,市第九中学,细颗粒物(PM2.5),88,80,132,65,94,34,34,18,18,56,72,18,19,1.1,1.2
2023-01-02T00:00:00,2289A,117.846,30.9413,铜陵市,车站新区,细颗粒物(PM2.5),90,82,98,67,79,38,38,21,15,43,62,16,17,0.7,0.9
2023-01-02T00:00:00,2290A,117.8483,30.97,铜陵市,市职教基地,细颗粒物(PM2.5),69,60,108,50,83,47,47,24,16,37,51,9,10,0.4,0.7
2023-01-02T00:00:00,2291A,117.0809,30.5177,安庆市,环科院,细颗粒物(PM2.5),102,101,114,76,86,56,42,39,26,34,42,9,12,0.8,0.9
2023-01-02T00:00:00,2292A,117.0331,30.5119,安庆市,马山宾馆,细颗粒物(PM2.5),94,95,111,70,84,60,45,43,27,38,47,9,12,0.8,0.9
2023-01-02T00:00:00,2294A,116.9896,30.6145,安庆市,安庆大学,细颗粒物(PM2.5),119,91,99,90,106,52,43,39,36,41,47,10,13,1.0,1
2023-01-02T00:00:00,2295A,118.2903,29.6963,黄山市,延安路89号,颗粒物(PM10),51,51,41,32,27,67,47,45,31,19,22,5,5,0.3,0.3
2023-01-02T00:00:00,2296A,118.327,29.7178,黄山市,黄山东路89号,细颗粒物(PM2.5),57,48,40,40,29,57,44,41,26,18,21,6,6,0.5,0.6
2023-01-02T00:00:00,2297A,118.1371,30.2756,黄山市,黄山区政府5号楼,细颗粒物(PM2.5),109,106,63,82,40,59,22,47,33,36,23,6,6,1.0,0.7
2023-01-02T00:00:00,2298A,118.3093,32.3153,滁州市,老年大学,细颗粒物(PM2.5),200,172,135,150,107,38,11,24,16,88,73,13,12,1.4,1.1
2023-01-02T00:00:00,2299A,118.3244,32.2786,滁州市,人大宾馆,细颗粒物(PM2.5),156,182,147,119,89,35,13,23,13,93,82,13,13,1.5,1.3
2023-01-02T00:00:00,2301A,115.8277,32.8929,阜阳市,市监测站,细颗粒物(PM2.5),312,299,208,262,184,72,4,62,32,89,64,10,12,1.4,1.2
2023-01-02T00:00:00,2303A,115.8554,32.8605,阜阳市,开发区,细颗粒物(PM2.5),266,300,246,216,174,77,7,65,34,89,63,7,9,1.4,1.2
2023-01-02T00:00:00,2307A,116.5079,31.737,六安市,监测大楼,细颗粒物(PM2.5),133,112,131,101,109,65,39,43,22,41,58,10,11,0.7,0.8
2023-01-02T00:00:00,2308A,116.4738,31.7643,六安市,皖西学院,细颗粒物(PM2.5),189,170,167,142,127,41,21,31,20,57,65,9,8,0.8,0.8
2023-01-02T00:00:00,2309A,116.4996,31.7905,六安市,朝阳厂,细颗粒物(PM2.5),162,152,139,123,118,48,19,29,23,59,67,8,8,0.9,1
2023-01-02T00:00:00,2310A,116.5567,31.7886,六安市,开发区,细颗粒物(PM2.5),180,173,161,136,116,34,10,24,14,64,68,9,10,1.0,0.9
2023-01-02T00:00:00,2311A,115.8072,33.8399,亳州市,污水处理厂,细颗粒物(PM2.5),249,235,216,199,181,90,61,75,64,31,46,11,11,1.3,1.2
2023-01-02T00:00:00,2312A,115.7789,33.8518,亳州市,三国揽胜宫,细颗粒物(PM2.5),271,276,261,221,205,99,62,89,73,39,49,13,11,1.3,1.2
2023-01-02T00:00:00,2314A,117.47,30.6618,池州市,池州学院,细颗粒物(PM2.5),110,100,120,83,100,55,36,33,20,40,52,5,10,0.8,1
2023-01-02T00:00:00,2316A,118.7581,30.9454,宣城市,鳌峰子站,细颗粒物(PM2.5),134,122,112,102,89,82,61,63,58,35,54,6,5,0.8,0.8
2023-01-02T00:00:00,2317A,118.7385,30.9743,宣城市,敬亭山子站,细颗粒物(PM2.5),122,119,116,92,85,57,39,49,44,42,57,8,8,0.7,0.8
2023-01-02T00:00:00,2318A,118.7173,30.9427,宣城市,开发区子站,细颗粒物(PM2.5),125,112,109,95,87,85,61,65,60,33,47,7,6,0.8,0.8
2023-01-02T00:00:00,2319A,119.0141,25.4325,莆田市,荔城区仓后路,,26,15,25,12,13,90,81,88,80,7,9,6,6,0.6,0.6
2023-01-02T00:00:00,2320A,119.0015,25.4553,莆田市,莆田市监测站,,27,15,22,11,13,91,84,90,83,4,5,6,6,0.5,0.5
2023-01-02T00:00:00,2321A,119.1119,25.4561,莆田市,涵江区六中,,25,17,28,12,18,84,80,83,77,5,9,4,4,0.4,0.5
2023-01-02T00:00:00,2322A,119.1013,25.3215,莆田市,秀屿区政府,,27,18,28,11,17,91,84,82,80,6,10,7,7,0.5,0.5
2023-01-02T00:00:00,2323A,118.981,25.4792,莆田市,东圳水库(对照点),,,,,,,,,,,,,,,,
2023-01-02T00:00:00,2324A,117.6211,26.2625,三明市,三钢,,39,37,35,27,28,78,36,72,42,22,25,6,7,0.5,0.6
2023-01-02T00:00:00,2325A,117.635,26.2714,三明市,三明二中,,33,28,40,23,27,74,31,70,42,19,21,8,11,0.7,0.7
2023-01-02T00:00:00,2326A,117.6028,26.2378,三明市,三元区政府,,45,45,40,28,26,74,8,68,34,42,28,10,10,1.0,0.9
2023-01-02T00:00:00,2327A,117.7275,26.3108,三明市,洋溪(对照点),,,,,,,,,,,,,,,,
2023-01-02T00:00:00,2331A,118.0966,26.6761,南平市,茫荡山(对照点),,,,,,,,,,,,,,,,
2023-01-02T00:00:00,2332A,118.1681,26.6369,南平市,南平市监测站,细颗粒物(PM2.5),88,73,41,65,34,80,17,70,37,34,25,6,5,0.8,0.6
2023-01-02T00:00:00,2333A,118.1825,26.6489,南平市,南平铝业有限公司,细颗粒物(PM2.5),53,43,39,37,30,73,14,66,39,34,25,7,7,0.7,0.7
2023-01-02T00:00:00,2334A,118.1756,26.6272,南平市,南平七中,细颗粒物(PM2.5),123,86,44,93,32,79,29,75,48,21,20,6,6,0.5,0.6
2023-01-02T00:00:00,2335A,117.0189,25.1181,龙岩市,龙岩师专(对照点),,,,,,,,,,,,,,,,
2023-01-02T00:00:00,2336A,117.0217,25.1033,龙岩市,龙岩市监测站,,26,24,23,18,16,87,60,78,67,13,15,15,12,0.5,0.6
2023-01-02T00:00:00,2337A,117.0258,25.0661,龙岩市,闽西职业技术学院,,32,32,33,22,18,83,18,78,51,36,21,11,19,0.5,0.6
2023-01-02T00:00:00,2338A,117.0196,25.0306,龙岩市,龙岩学院,,23,18,23,16,15,85,35,77,51,14,14,5,5,0.4,0.5
2023-01-02T00:00:00,2339A,119.5001,26.6946,宁德市,金涵水库(对照点),,,,,,,,,,,,,,,,
2023-01-02T00:00:00,2341A,119.5388,26.6612,宁德市,宁德市监测站,颗粒物(PM10),51,51,41,32,26,81,37,63,36,21,25,4,5,0.6,0.6
2023-01-02T00:00:00,2342A,117.3102,29.3867,景德镇市,王港中学(对照点),,,,,,,,,,,,,,,,
2023-01-02T00:00:00,2343A,117.2117,29.2933,景德镇市,老干部活动中心,细颗粒物(PM2.5),159,169,102,121,62,55,5,42,18,39,29,10,10,1.0,0.7
2023-01-02T00:00:00,2344A,117.1894,29.2789,景德镇市,兽医站,细颗粒物(PM2.5),74,63,61,54,46,62,16,46,28,37,27,6,10,0.9,0.7
2023-01-02T00:00:00,2345A,117.1547,29.2617,景德镇市,台达陶瓷,细颗粒物(PM2.5),72,73,53,52,36,58,5,46,23,48,34,12,14,1.2,0.9
2023-01-02T00:00:00,2346A,117.2461,29.2956,景德镇市,陶研所,细颗粒物(PM2.5),163,161,79,124,48,61,25,50,25,26,26,4,5,0.8,0.8
2023-01-02T00:00:00,2347A,114.0997,27.5002,萍乡市,武功山(对照点),细颗粒物(PM2.5),63,48,50,45,43,48,17,44,27,15,15,6,9,0.9,0.9
2023-01-02T00:00:00,2348A,113.8385,27.6434,萍乡市,中医院,细颗粒物(PM2.5),185,180,121,139,92,60,14,49,25,45,39,29,8,2.2,1.5
2023-01-02T00:00:00,2349A,113.8493,27.6253,萍乡市,市政府车库,细颗粒物(PM2.5),185,164,131,139,111,64,13,50,23,37,35,19,13,1.7,1.6
2023-01-02T00:00:00,2350A,113.8676,27.6435,萍乡市,市环保局,细颗粒物(PM2.5),172,155,121,130,104,56,7,45,22,41,34,30,17,1.6,1.2
2023-01-02T00:00:00,2351A,113.866,27.6198,萍乡市,安源区政府,细颗粒物(PM2.5),182,149,118,137,113,58,19,49,30,29,29,20,16,1.4,1.4
2023-01-02T00:00:00,2352A,115.0861,27.9317,新余市,北岗(对照点),细颗粒物(PM2.5),54,45,40,38,33,50,22,44,27,14,12,9,9,0.3,0.3
2023-01-02T00:00:00,2353A,114.9886,27.8431,新余市,飞宇,颗粒物(PM10),61,71,76,40,49,52,23,46,32,30,29,9,17,0.5,0.6
2023-01-02T00:00:00,2354A,114.9231,27.8246,新余市,第二水厂,"颗粒物(PM10),细颗粒物(PM2.5)",75,99,105,55,66,44,3,37,20,54,38,12,16,0.5,0.3
2023-01-02T00:00:00,2355A,114.9308,27.8036,新余市,市气象局,细颗粒物(PM2.5),198,182,98,148,72,43,6,34,21,52,34,13,14,0.8,0.7
2023-01-02T00:00:00,2357A,116.9822,28.1136,鹰潭市,龙虎山(对照点),颗粒物(PM10),57,64,40,37,37,90,42,83,67,18,18,3,6,1.1,0.9
2023-01-02T00:00:00,2358A,117.0564,28.2642,鹰潭市,新监测站,细颗粒物(PM2.5),94,77,50,70,45,82,30,68,49,32,26,5,11,0.8,0.6
2023-01-02T00:00:00,2359A,117.0311,28.2475,鹰潭市,财苑宾馆,细颗粒物(PM2.5),95,84,55,71,47,80,27,72,51,36,27,37,26,1.1,0.6
2023-01-02T00:00:00,2360A,117.0222,28.2264,鹰潭市,体育馆,细颗粒物(PM2.5),103,83,55,77,51,83,30,71,54,31,25,3,9,0.9,0.6
2023-01-02T00:00:00,2361A,117.0017,28.2131,鹰潭市,三川水表,细颗粒物(PM2.5),122,84,56,92,53,85,30,71,50,32,26,4,11,0.8,0.5
2023-01-02T00:00:00,2362A,114.9017,25.9149,赣州市,通天岩(对照点),,32,28,24,22,22,67,54,61,57,8,8,6,6,1.0,1
2023-01-02T00:00:00,2363A,114.9367,25.8664,赣州市,地委,细颗粒物(PM2.5),59,46,46,42,31,64,57,59,56,13,13,14,14,0.7,0.8
2023-01-02T00:00:00,2364A,114.9461,25.8481,赣州市,气象台,细颗粒物(PM2.5),52,40,42,36,33,51,44,45,42,14,15,7,7,0.5,0.6
2023-01-02T00:00:00,2365A,114.9322,25.8333,赣州市,市图书馆,细颗粒物(PM2.5),68,55,50,49,35,60,53,55,50,15,16,11,11,0.9,1
2023-01-02T00:00:00,2366A,114.8905,25.8471,赣州市,华坚鞋城,,50,50,46,30,29,56,56,50,50,9,13,3,2,1.0,1
2023-01-02T00:00:00,2367A,114.9754,27.0803,吉安市,红声器材厂,细颗粒物(PM2.5),77,79,70,56,48,62,34,55,43,32,28,15,11,0.7,0.8
2023-01-02T00:00:00,2368A,114.9658,27.0999,吉安市,市森林工业局,细颗粒物(PM2.5),82,75,63,60,49,66,33,57,43,32,28,12,10,1.0,0.8
2023-01-02T00:00:00,2369A,114.99,27.1312,吉安市,市环境监测站,细颗粒物(PM2.5),72,66,60,52,46,62,31,55,42,28,25,10,9,0.8,0.8
2023-01-02T00:00:00,2370A,115.0093,27.0968,吉安市,青原区法院,细颗粒物(PM2.5),73,65,63,53,47,63,35,55,44,25,20,12,11,0.7,0.7
2023-01-02T00:00:00,2371A,114.3408,27.8064,宜春市,槟榔水业(对照点),,,,175,,76,5,,3,,,,,26,,0.8
2023-01-02T00:00:00,2373A,114.3956,27.7844,宜春市,市石油公司,,,,114,,69,9,,6,,,25,,1,,0.9
2023-01-02T00:00:00,2374A,114.3703,27.7914,宜春市,市气象局,,,,94,,64,11,,6,,,26,,4,,0.9
2023-01-02T00:00:00,2375A,114.4013,27.8074,宜春市,市广电局,,,,108,,77,16,,9,,,28,,2,,1.4
2023-01-02T00:00:00,2376A,116.2127,28.0814,抚州市,桐源党溪(对照点),细颗粒物(PM2.5),65,62,47,47,31,90,49,76,62,18,11,5,6,0.6,0.4
