timepoint,stationcode,longitude,latitude,area,positionname,primarypollutant,aqi,pm10,pm10_24h,pm2_5,pm2_5_24h,o3,o3_24h,o3_8h,o3_8h_24h,no2,no2_24h,so2,so2_24h,co,co_24h
2022-10-21T22:00:00,1001A,116.3621,39.8784,北京市,万寿西宫,细颗粒物(PM2.5),143,163,145,109,105,132,71,113,99,51,60,3,2,0.9,0.9
2022-10-21T22:00:00,1002A,116.2202,40.2915,北京市,定陵(对照点),细颗粒物(PM2.5),128,155,146,97,94,150,100,125,122,17,22,2,3,0.6,0.5
2022-10-21T22:00:00,1003A,116.4174,39.9289,北京市,东四,细颗粒物(PM2.5),152,191,169,116,106,142,78,122,114,62,67,2,2,0.9,0.8
2022-10-21T22:00:00,1004A,116.4072,39.8863,北京市,天坛,细颗粒物(PM2.5),130,146,135,99,96,140,,117,110,43,46,1,3,0.8,0.8
2022-10-21T22:00:00,1005A,116.462,39.9365,北京市,农展馆,细颗粒物(PM2.5),142,160,141,108,99,122,77,102,96,44,56,3,4,0.9,0.8
2022-10-21T22:00:00,1006A,116.3392,39.9295,北京市,官园,细颗粒物(PM2.5),140,163,152,107,102,142,52,120,106,52,46,2,3,0.9,0.8
2022-10-21T22:00:00,1007A,116.2878,39.9611,北京市,海淀万柳,细颗粒物(PM2.5),143,170,149,109,99,126,19,100,78,93,62,3,3,1.1,0.8
2022-10-21T22:00:00,1008A,116.6636,40.135,北京市,顺义新城,细颗粒物(PM2.5),149,183,152,114,97,132,28,109,74,63,52,1,3,1.0,0.7
2022-10-21T22:00:00,1009A,116.6275,40.3275,北京市,怀柔镇,细颗粒物(PM2.5),125,138,122,95,86,132,79,110,97,28,30,1,2,0.8,0.7
2022-10-21T22:00:00,1010A,116.2296,40.217,北京市,昌平镇,细颗粒物(PM2.5),137,154,142,104,99,128,95,104,102,23,36,1,3,0.8,0.9
2022-10-21T22:00:00,1011A,116.3966,39.9821,北京市,奥体中心,细颗粒物(PM2.5),142,152,145,108,106,143,53,123,110,52,53,4,5,1.0,0.7
2022-10-21T22:00:00,1012A,116.184,39.9136,北京市,古城,细颗粒物(PM2.5),150,189,161,115,102,134,39,118,103,67,49,1,2,1.2,0.9
2022-10-21T22:00:00,1015A,117.1444,39.1661,天津市,勤俭道,细颗粒物(PM2.5),150,192,136,115,83,150,66,122,97,64,56,11,9,1.2,0.9
2022-10-21T22:00:00,1017A,117.237,39.1082,天津市,大直沽八号路,颗粒物(PM10),108,165,127,71,74,148,82,126,116,62,60,10,9,1.1,0.9
2022-10-21T22:00:00,1018A,117.202,39.0927,天津市,前进道,细颗粒物(PM2.5),118,158,124,89,77,155,62,127,112,73,61,11,10,1.1,0.7
2022-10-21T22:00:00,1019A,117.1837,39.2133,天津市,淮河道,细颗粒物(PM2.5),147,201,137,112,78,154,46,125,92,95,68,11,11,1.2,0.8
2022-10-21T22:00:00,1021A,117.307,39.0877,天津市,跃进路,颗粒物(PM10),116,181,133,72,71,148,10,116,87,119,76,10,11,1.2,0.8
2022-10-21T22:00:00,1023A,117.707,39.0343,天津市,第四大街,细颗粒物(PM2.5),115,129,120,87,77,145,11,90,56,109,72,6,11,1.0,0.9
2022-10-21T22:00:00,1024A,117.457,38.8394,天津市,永明路,细颗粒物(PM2.5),97,117,104,72,65,136,5,117,70,116,74,8,18,0.7,0.7
2022-10-21T22:00:00,1026A,117.764,39.1587,天津市,汉北路,细颗粒物(PM2.5),108,138,118,81,73,128,9,88,44,100,72,9,13,0.9,0.9
2022-10-21T22:00:00,1027A,117.157,38.9194,天津市,团泊洼(对照点),细颗粒物(PM2.5),143,173,125,109,78,155,59,127,104,82,55,12,12,1.1,1
2022-10-21T22:00:00,1029A,114.4422,38.0444,石家庄市,职工医院,细颗粒物(PM2.5),122,167,155,92,95,152,11,135,110,140,71,7,9,0.9,0.9
2022-10-21T22:00:00,1030A,114.6063,38.0266,石家庄市,高新区,细颗粒物(PM2.5),123,148,126,93,85,162,44,139,115,85,58,10,8,1.4,0.9
2022-10-21T22:00:00,1031A,114.4898,38.1328,石家庄市,西北水源,细颗粒物(PM2.5),163,222,180,124,102,171,7,144,112,132,75,4,10,1.0,1
2022-10-21T22:00:00,1032A,114.4586,38.0058,石家庄市,西南高教,细颗粒物(PM2.5),148,171,151,113,105,158,32,133,111,99,64,10,11,1.2,1
2022-10-21T22:00:00,1033A,114.5331,38.0178,石家庄市,世纪公园,细颗粒物(PM2.5),132,149,141,100,94,149,40,130,110,72,54,5,6,1.6,1.1
2022-10-21T22:00:00,1034A,114.509,38.0457,石家庄市,人民会堂,细颗粒物(PM2.5),128,164,155,97,107,163,40,145,130,98,65,13,12,1.6,1.3
2022-10-21T22:00:00,1035A,114.3524,37.8911,石家庄市,封龙山(对照点),细颗粒物(PM2.5),78,79,114,57,72,187,160,168,168,21,30,10,13,0.9,1
2022-10-21T22:00:00,1037A,118.131,39.6363,唐山市,雷达站,细颗粒物(PM2.5),134,141,121,102,85,152,44,121,91,86,66,5,7,0.7,0.7
2022-10-21T22:00:00,1038A,118.1725,39.6334,唐山市,物资局,细颗粒物(PM2.5),110,148,126,83,84,138,13,111,72,112,69,8,10,0.9,0.8
2022-10-21T22:00:00,1040A,118.1705,39.6506,唐山市,十二中,细颗粒物(PM2.5),108,119,112,81,79,145,29,116,93,89,58,6,7,0.8,0.8
2022-10-21T22:00:00,1041A,118.1869,39.622,唐山市,小山,细颗粒物(PM2.5),125,136,117,95,87,141,20,125,80,91,64,8,8,0.6,0.8
2022-10-21T22:00:00,1042A,119.5134,39.8207,秦皇岛市,北戴河环保局,细颗粒物(PM2.5),123,136,111,93,64,143,55,125,97,63,48,10,16,0.7,0.8
2022-10-21T22:00:00,1043A,119.7493,40.0116,秦皇岛市,第一关,细颗粒物(PM2.5),145,143,122,111,75,156,6,136,87,50,59,11,15,1.0,1.1
2022-10-21T22:00:00,1044A,119.5897,39.9499,秦皇岛市,监测站,细颗粒物(PM2.5),120,146,123,91,77,148,58,126,98,65,49,14,18,1.1,1.1
2022-10-21T22:00:00,1046A,119.5251,39.9041,秦皇岛市,建设大厦,细颗粒物(PM2.5),103,151,120,77,70,154,49,137,104,75,49,14,18,1.4,1.2
2022-10-21T22:00:00,1047A,114.5129,36.61763,邯郸市,环保局,,,,,,,,,,,,,,,,
2022-10-21T22:00:00,1048A,114.5302,36.6116,邯郸市,东污水处理厂,细颗粒物(PM2.5),113,123,117,85,74,156,55,120,96,72,58,11,7,0.7,0.7
2022-10-21T22:00:00,1049A,114.4918,36.5713,邯郸市,矿院,细颗粒物(PM2.5),119,144,118,90,77,162,14,134,103,101,55,8,12,1.0,0.8
2022-10-21T22:00:00,1050A,114.484,36.6133,邯郸市,丛台公园,细颗粒物(PM2.5),109,124,102,82,72,164,49,137,116,74,47,11,13,0.7,0.6
2022-10-21T22:00:00,1051A,115.493,38.8632,保定市,游泳馆,细颗粒物(PM2.5),220,203,150,170,122,178,79,144,127,60,50,10,12,1.2,0.8
2022-10-21T22:00:00,1052A,115.5213,38.8959,保定市,华电二区,细颗粒物(PM2.5),209,200,149,159,112,157,81,137,125,62,52,8,10,1.6,1
2022-10-21T22:00:00,1053A,115.4713,38.9108,保定市,接待中心,细颗粒物(PM2.5),206,213,161,156,108,162,84,140,128,58,55,9,8,1.0,0.9
2022-10-21T22:00:00,1054A,115.4612,38.8416,保定市,地表水厂,细颗粒物(PM2.5),195,231,173,146,102,156,25,120,91,124,51,10,11,1.2,0.8
2022-10-21T22:00:00,1055A,115.4323,38.8697,保定市,胶片厂,细颗粒物(PM2.5),230,171,150,180,127,179,83,139,127,56,60,8,8,1.0,0.9
2022-10-21T22:00:00,1056A,115.5086,38.8639,保定市,监测站,细颗粒物(PM2.5),228,233,168,178,118,170,56,130,108,86,66,8,10,1.6,0.7
2022-10-21T22:00:00,1057A,114.8883,40.8336,张家口市,人民公园,颗粒物(PM10),91,131,108,23,61,158,80,130,120,10,25,6,10,0.0,0.4
2022-10-21T22:00:00,1059A,114.8687,40.8042,张家口市,五金库,颗粒物(PM10),69,88,112,12,59,155,82,127,117,9,28,9,13,0.2,0.6
2022-10-21T22:00:00,1060A,114.8902,40.762,张家口市,世纪豪园,颗粒物(PM10),97,144,126,27,69,158,81,130,116,17,40,3,4,0.3,0.8
2022-10-21T22:00:00,1061A,114.8916,40.8661,张家口市,北泵房(对照点),颗粒物(PM10),86,122,118,16,63,162,80,131,119,9,29,5,8,0.4,0.8
2022-10-21T22:00:00,1062A,117.9531,40.9081,承德市,铁路,颗粒物(PM10),94,137,108,55,51,121,6,86,50,97,69,10,14,1.3,0.9
2022-10-21T22:00:00,1063A,117.9392,40.9763,承德市,中国银行,细颗粒物(PM2.5),98,142,112,73,66,134,2,95,46,90,63,7,12,1.5,1.2
2022-10-21T22:00:00,1064A,117.9503,40.928,承德市,开发区,颗粒物(PM10),82,113,101,48,52,138,5,109,68,98,63,11,12,1.5,1
2022-10-21T22:00:00,1065A,117.8051,40.9655,承德市,文化中心,颗粒物(PM10),96,142,132,61,71,131,6,105,62,102,62,9,28,1.1,1.3
2022-10-21T22:00:00,1066A,117.9268,41.0026,承德市,离宫(对照点),"颗粒物(PM10),细颗粒物(PM2.5)",69,88,90,50,56,129,34,111,88,62,41,14,16,0.9,0.8
2022-10-21T22:00:00,1067A,116.6708,39.5111,廊坊市,药材公司,细颗粒物(PM2.5),123,160,136,93,71,153,91,127,121,48,62,6,6,0.8,0.7
2022-10-21T22:00:00,1068A,116.7214,39.5589,廊坊市,开发区,细颗粒物(PM2.5),133,141,124,101,77,145,75,117,104,66,67,8,9,0.9,0.8
2022-10-21T22:00:00,1070A,116.7244,39.5269,廊坊市,北华航天学院,细颗粒物(PM2.5),145,168,143,111,77,155,100,127,123,64,66,8,6,0.8,0.7
2022-10-21T22:00:00,1071A,116.8842,38.2991,沧州市,沧县城建局,细颗粒物(PM2.5),90,106,96,67,57,159,75,128,107,57,53,7,9,0.3,0.3
2022-10-21T22:00:00,1072A,116.8584,38.3254,沧州市,电视转播站,细颗粒物(PM2.5),99,124,98,74,52,172,83,145,121,60,48,11,12,0.6,0.6
2022-10-21T22:00:00,1073A,116.8709,38.3228,沧州市,市环保局,细颗粒物(PM2.5),98,124,102,73,55,167,69,137,110,73,54,9,9,0.7,0.6
2022-10-21T22:00:00,1074A,115.6838,37.7541,衡水市,电机北厂,细颗粒物(PM2.5),109,144,103,82,56,171,88,148,138,53,32,5,4,0.6,0.4
2022-10-21T22:00:00,1075A,115.6303,37.7316,衡水市,市监测站,细颗粒物(PM2.5),103,,,77,57,172,86,146,138,49,36,10,9,0.7,0.6
2022-10-21T22:00:00,1077A,114.4704,37.0886,邢台市,达活泉,细颗粒物(PM2.5),109,124,108,82,69,157,90,134,121,56,50,23,16,1.6,1.3
2022-10-21T22:00:00,1078A,114.5062,37.0349,邢台市,邢师高专,细颗粒物(PM2.5),110,128,100,83,66,149,31,123,94,97,58,9,10,1.3,1.1
2022-10-21T22:00:00,1079A,114.5237,37.0851,邢台市,路桥公司,细颗粒物(PM2.5),100,105,102,75,69,160,98,128,120,43,53,13,13,0.8,0.9
2022-10-21T22:00:00,1080A,114.4725,37.0719,邢台市,市环保局,颗粒物(PM10),114,178,135,85,69,155,74,130,116,66,52,18,12,1.7,1.1
2022-10-21T22:00:00,1081A,112.5139,37.8873,太原市,尖草坪,细颗粒物(PM2.5),162,220,151,123,86,131,6,94,66,121,76,9,13,1.9,1
2022-10-21T22:00:00,1083A,112.434,38.0108,太原市,上兰(对照点),,,,,,,,,,,,,,,,
2022-10-21T22:00:00,1084A,112.469,37.7124,太原市,晋源,细颗粒物(PM2.5),129,187,138,98,78,136,6,94,69,115,72,16,19,1.6,1.1
2022-10-21T22:00:00,1085A,112.5583,37.7394,太原市,小店,细颗粒物(PM2.5),156,252,183,119,88,127,5,95,71,131,87,12,16,1.4,1.2
2022-10-21T22:00:00,1086A,112.5369,37.8692,太原市,桃园,细颗粒物(PM2.5),166,222,156,126,86,130,6,93,68,126,79,6,13,2.6,1.3
2022-10-21T22:00:00,1087A,112.57,37.8195,太原市,坞城,细颗粒物(PM2.5),147,225,149,112,83,129,12,97,71,126,79,7,15,1.5,1.2
2022-10-21T22:00:00,1088A,112.549,37.9854,太原市,南寨,细颗粒物(PM2.5),118,163,132,89,74,106,3,88,60,95,62,6,12,0.9,0.9
2022-10-21T22:00:00,1089A,112.4701,37.782,太原市,金胜,,,,,,,,,,,,,,,,
2022-10-21T22:00:00,1090A,111.6507,40.7517,呼和浩特市,呼市一监,,,,,,,,,107,,,,,,,
2022-10-21T22:00:00,1091A,111.6572,40.8033,呼和浩特市,小召,颗粒物(PM10),78,105,108,15,58,179,76,140,122,11,35,10,13,0.2,0.7
2022-10-21T22:00:00,1094A,111.7516,40.8369,呼和浩特市,如意水处理厂,颗粒物(PM10),62,74,101,13,52,162,72,128,109,9,36,3,9,0.3,0.7
2022-10-21T22:00:00,1095A,111.7276,40.8062,呼和浩特市,二十九中,颗粒物(PM10),77,104,111,16,56,168,72,133,113,8,32,5,11,0.5,0.8
2022-10-21T22:00:00,1096A,111.5512,40.7866,呼和浩特市,工大金川校区,,,86,106,10,54,164,73,120,108,6,28,5,14,,
2022-10-21T22:00:00,1097A,111.717,40.7612,呼和浩特市,化肥厂生活区,,,62,115,14,63,158,72,128,110,,,7,16,0.3,0.8
2022-10-21T22:00:00,1098A,123.6836,41.9339,沈阳市,森林路(对照点),,,,,,,,,,,,,,,,
2022-10-21T22:00:00,1099A,123.505,41.7406,沈阳市,浑南东路,颗粒物(PM10),78,106,59,55,29,126,17,115,93,71,20,14,24,1.2,0.8
2022-10-21T22:00:00,1100A,123.4231,41.6989,沈阳市,新秀街,颗粒物(PM10),89,128,67,52,35,121,7,116,74,100,35,12,18,1.2,0.8
2022-10-21T22:00:00,1102A,123.5903,41.8411,沈阳市,东陵路,,39,35,60,27,35,130,35,116,86,35,24,14,17,0.4,0.6
2022-10-21T22:00:00,1103A,123.4264,41.8467,沈阳市,陵东街,颗粒物(PM10),77,104,70,39,32,125,4,115,70,89,34,8,13,1.2,0.9
2022-10-21T22:00:00,1104A,123.4114,41.7653,沈阳市,文化路,颗粒物(PM10),53,55,59,32,37,126,30,114,85,57,27,11,18,0.8,0.7
2022-10-21T22:00:00,1105A,123.4678,41.7867,沈阳市,小河沿,颗粒物(PM10),54,58,69,25,33,118,29,118,86,57,28,7,14,0.7,0.8
2022-10-21T22:00:00,1106A,123.4017,41.7972,沈阳市,太原街,颗粒物(PM10),61,72,74,32,36,127,7,118,73,81,36,6,12,1.0,0.8
2022-10-21T22:00:00,1108A,123.3783,41.9228,沈阳市,京沈街,,42,42,55,14,31,134,57,116,90,22,24,9,14,0.4,0.8
2022-10-21T22:00:00,1109A,121.612,38.9741,大连市,甘井子,,,92,45,50,25,124,69,102,80,44,26,,6,,0.6
2022-10-21T22:00:00,1110A,121.565,38.9511,大连市,周水子,颗粒物(PM10),69,88,52,43,21,126,59,111,88,61,23,8,6,0.8,0.6
2022-10-21T22:00:00,1111A,121.5637,38.8845,大连市,星海三站,,,,39,,22,74,,78,,,23,,5,,0.8
2022-10-21T22:00:00,1112A,121.6302,38.9117,大连市,青泥洼桥,颗粒物(PM10),61,71,38,36,16,114,100,110,97,31,23,7,6,0.8,0.7
2022-10-21T22:00:00,1113A,121.6251,38.8638,大连市,傅家庄,颗粒物(PM10),51,51,33,34,14,82,67,78,75,25,19,7,6,0.8,0.7
2022-10-21T22:00:00,1114A,121.5213,38.8661,大连市,七贤岭,颗粒物(PM10),65,80,42,36,18,119,48,112,97,54,20,7,7,1.0,0.6
2022-10-21T22:00:00,1115A,121.2529,38.8061,大连市,旅顺,细颗粒物(PM2.5),54,51,36,38,18,114,99,100,93,15,18,8,7,0.6,0.6
2022-10-21T22:00:00,1116A,121.7485,39.1311,大连市,金州,细颗粒物(PM2.5),62,66,46,44,25,131,88,114,99,39,32,13,10,0.6,0.5
2022-10-21T22:00:00,1117A,121.7811,39.0496,大连市,开发区,细颗粒物(PM2.5),55,56,41,39,18,103,74,103,86,40,30,13,8,0.6,0.5
2022-10-21T22:00:00,1118A,121.9762,39.0631,大连市,双D港,,45,45,28,24,13,110,89,102,84,18,12,10,9,0.9,0.8
2022-10-21T22:00:00,1119A,125.3325,43.9166,长春市,食品厂,细颗粒物(PM2.5),69,73,78,50,36,109,37,97,54,44,32,11,9,0.6,0.6
2022-10-21T22:00:00,1120A,125.2863,43.9027,长春市,客车厂,颗粒物(PM10),56,62,74,33,36,109,31,95,52,54,34,9,10,0.5,0.6
2022-10-21T22:00:00,1121A,125.2841,43.8463,长春市,邮电学院,颗粒物(PM10),59,67,73,33,28,121,40,110,71,51,30,10,16,0.4,0.6
2022-10-21T22:00:00,1122A,125.3716,43.8772,长春市,劳动公园,颗粒物(PM10),59,68,64,35,31,119,43,108,70,41,24,13,11,0.4,0.4
2022-10-21T22:00:00,1123A,125.3297,43.8805,长春市,园林处,细颗粒物(PM2.5),84,55,70,62,32,112,44,103,68,44,25,11,10,0.6,0.6
2022-10-21T22:00:00,1124A,125.4605,43.79,长春市,净月潭,颗粒物(PM10),53,56,54,19,15,118,50,107,74,34,18,7,8,0.4,0.5
2022-10-21T22:00:00,1125A,125.7194,43.515,长春市,甩湾子(对照点),,,,,,,,,,,,,,,,
2022-10-21T22:00:00,1126A,125.3863,43.8447,长春市,经开区环卫处,颗粒物(PM10),52,54,66,31,31,120,45,108,73,31,24,9,10,0.4,0.6
2022-10-21T22:00:00,1127A,125.245,43.7783,长春市,高新区管委会,颗粒物(PM10),66,81,64,34,33,114,21,104,49,66,29,9,7,0.5,0.5
2022-10-21T22:00:00,1128A,125.1761,43.8325,长春市,岱山公园,颗粒物(PM10),62,74,75,29,26,119,24,105,46,62,35,18,11,0.5,0.6
2022-10-21T22:00:00,1129A,126.5422,45.755,哈尔滨市,岭北(对照点),,38,30,91,26,52,105,42,91,59,15,24,3,5,0,0.2
2022-10-21T22:00:00,1130A,126.561,45.8167,哈尔滨市,松北商大,,18,18,71,11,40,120,42,104,63,18,19,5,10,0.6,0.8
2022-10-21T22:00:00,1131A,126.979,45.5419,哈尔滨市,阿城会宁,,13,12,79,8,30,112,41,97,62,14,19,9,12,0.5,0.6
2022-10-21T22:00:00,1132A,126.599,45.7222,哈尔滨市,南岗学府路,,31,31,87,8,42,111,47,95,61,17,26,4,7,0.5,0.6
2022-10-21T22:00:00,1133A,126.689,45.7733,哈尔滨市,太平宏伟公园,,17,17,80,8,47,117,52,101,67,10,22,11,16,0.2,0.6
2022-10-21T22:00:00,1134A,126.635,45.7667,哈尔滨市,道外承德广场,,24,24,89,12,42,105,48,91,61,16,29,9,12,0.3,0.5
2022-10-21T22:00:00,1135A,126.685,45.7319,哈尔滨市,香坊红旗大街,,16,9,82,11,35,110,43,94,65,19,31,6,14,0.4,0.6
2022-10-21T22:00:00,1136A,126.6411,45.7258,哈尔滨市,动力和平路,,25,25,76,8,38,104,45,91,60,19,28,7,10,0.4,0.7
2022-10-21T22:00:00,1137A,126.593,45.7478,哈尔滨市,道里建国路,,22,14,75,15,35,101,41,89,58,20,27,14,15,0.2,0.6
2022-10-21T22:00:00,1138A,126.615,45.61,哈尔滨市,平房东轻厂,,25,25,75,17,40,102,12,88,46,47,27,7,9,0.4,0.6
2022-10-21T22:00:00,1139A,126.595,45.9855,哈尔滨市,呼兰师专,,35,10,80,24,54,99,36,92,50,18,23,7,14,0.5,0.7
2022-10-21T22:00:00,1140A,126.6206,45.6842,哈尔滨市,省农科院,,25,14,76,17,37,113,44,96,62,18,24,10,8,0.8,1
2022-10-21T22:00:00,1141A,121.4,31.238,上海市,普陀,,50,50,48,22,17,106,46,97,76,37,44,5,4,0.5,0.7
2022-10-21T22:00:00,1142A,121.478,31.2036,上海市,十五厂,,45,42,39,31,19,112,21,97,64,66,50,10,7,0.5,0.6
2022-10-21T22:00:00,1143A,121.467,31.3008,上海市,虹口,,39,39,36,25,16,99,36,85,62,36,42,6,6,0.6,0.6
2022-10-21T22:00:00,1144A,121.412,31.1654,上海市,徐汇上师大,,48,48,44,28,16,114,29,103,75,57,47,7,7,0.6,0.6
2022-10-21T22:00:00,1145A,121.536,31.2659,上海市,杨浦四漂,,36,36,42,23,16,109,26,92,56,61,63,8,7,0.4,0.5
2022-10-21T22:00:00,1146A,120.978,31.0935,上海市,青浦淀山湖(对照点),,,,,,,,,,,,,,,,
2022-10-21T22:00:00,1147A,121.425,31.2261,上海市,静安监测站,,46,46,40,25,17,103,38,94,73,43,42,7,6,0.6,0.7
2022-10-21T22:00:00,1148A,121.703,31.1907,上海市,浦东川沙,,36,36,43,18,16,105,30,94,61,52,51,9,9,0.6,0.6
2022-10-21T22:00:00,1149A,121.533,31.2284,上海市,浦东新区监测站,,,,37,,18,102,32,91,67,40,49,,6,0.5,0.6
2022-10-21T22:00:00,1150A,121.577,31.2071,上海市,浦东张江,,32,31,34,22,14,103,18,90,58,59,49,5,4,0.7,0.7
2022-10-21T22:00:00,1151A,118.8086,32.1065,南京市,迈皋桥,颗粒物(PM10),69,87,51,36,17,105,2,84,48,71,33,5,2,0.5,0.4
2022-10-21T22:00:00,1152A,118.7538,32.0551,南京市,草场门,颗粒物(PM10),73,95,48,50,26,102,5,84,47,123,49,4,3,1.1,0.5
2022-10-21T22:00:00,1153A,118.7794,32.0745,南京市,山西路,颗粒物(PM10),79,107,55,44,21,119,9,99,57,114,37,4,3,0.8,0.3
2022-10-21T22:00:00,1154A,118.7752,32.0023,南京市,中华门,颗粒物(PM10),90,129,55,56,21,113,9,94,53,108,44,5,4,1.4,0.6
2022-10-21T22:00:00,1155A,118.8109,32.0309,南京市,瑞金路,颗粒物(PM10),62,73,49,36,22,113,5,94,52,85,38,5,4,0.9,0.5
2022-10-21T22:00:00,1156A,118.7997,32.0754,南京市,玄武湖,,,97,46,45,18,113,,97,76,92,29,3,4,0.9,0.5
2022-10-21T22:00:00,1157A,118.6414,32.0931,南京市,浦口,颗粒物(PM10),51,51,45,29,18,104,102,91,90,23,30,6,3,0.7,0.4
2022-10-21T22:00:00,1158A,118.7356,31.9996,南京市,奥体中心,颗粒物(PM10),68,85,52,31,21,106,5,86,53,117,47,3,3,0.8,0.3
2022-10-21T22:00:00,1159A,118.9125,32.1028,南京市,仙林大学城,颗粒物(PM10),67,83,47,36,16,123,2,105,62,107,30,4,3,0.7,0.5
2022-10-21T22:00:00,1160A,120.561,31.2472,苏州市,上方山(对照点),,48,48,34,23,19,134,58,123,101,16,23,6,5,0.4,0.4
2022-10-21T22:00:00,1161A,120.628,31.2864,苏州市,南门,,,,,,,,,,,,,,,,
2022-10-21T22:00:00,1162A,120.591,31.3019,苏州市,彩香,颗粒物(PM10),51,51,35,25,15,150,62,135,113,18,20,7,6,0.4,0.4
2022-10-21T22:00:00,1163A,120.596,31.3264,苏州市,轧钢厂,,50,50,38,24,14,148,56,134,110,29,28,8,6,0.5,0.5
2022-10-21T22:00:00,1164A,120.613,31.2703,苏州市,吴中区,颗粒物(PM10),51,51,35,25,16,154,56,136,105,30,30,12,8,0.5,0.4
2022-10-21T22:00:00,1165A,120.543,31.2994,苏州市,苏州新区,,50,50,34,24,14,141,58,130,109,25,20,7,7,0.6,0.5
2022-10-21T22:00:00,1166A,120.669,31.3097,苏州市,苏州工业园区,颗粒物(PM10),53,55,38,25,16,145,49,127,100,31,27,6,6,0.6,0.5
2022-10-21T22:00:00,1167A,120.641,31.3708,苏州市,相城区,,45,45,37,24,16,145,39,120,78,48,46,7,8,0.5,0.5
2022-10-21T22:00:00,1168A,120.9098,31.9663,南通市,狼山街道,,39,39,40,12,15,99,69,92,77,15,31,6,7,0.4,0.4
2022-10-21T22:00:00,1169A,120.86,32.0005,南通市,虹桥,,45,35,37,31,22,95,64,82,67,23,34,5,6,0.4,0.4
2022-10-21T22:00:00,1170A,120.87,32.02,南通市,城中,细颗粒物(PM2.5),62,38,35,44,23,97,66,87,72,22,30,2,3,0.2,0.3
2022-10-21T22:00:00,1171A,120.94,31.93,南通市,星湖花园,,29,29,35,17,18,96,63,88,72,18,31,6,7,0.3,0.3
2022-10-21T22:00:00,1172A,120.81,32.0417,南通市,紫琅学院,颗粒物(PM10),51,52,42,12,16,107,67,99,75,22,35,6,7,0.5,0.5
2022-10-21T22:00:00,1173A,119.176,34.5885,连云港市,市环境监测站,,46,46,36,17,11,107,47,99,76,32,20,7,6,0.3,0.2
2022-10-21T22:00:00,1177A,117.179,34.2761,徐州市,黄河新村,颗粒物(PM10),80,110,72,47,29,155,70,127,108,47,32,10,9,1.1,0.8
2022-10-21T22:00:00,1178A,117.1918,34.2384,徐州市,淮塔,颗粒物(PM10),91,132,75,66,31,157,41,130,100,61,35,10,8,0.8,0.6
2022-10-21T22:00:00,1180A,117.256,34.2153,徐州市,新城区,颗粒物(PM10),74,98,70,53,31,150,58,126,98,51,36,8,9,0.7,0.6
2022-10-21T22:00:00,1181A,117.244,34.2911,徐州市,桃园路,颗粒物(PM10),68,85,70,44,26,151,60,125,97,38,31,8,8,1.1,1
2022-10-21T22:00:00,1182A,117.2933,34.2778,徐州市,农科院,细颗粒物(PM2.5),92,97,66,68,26,142,45,115,76,68,47,11,8,0.7,0.5
2022-10-21T22:00:00,1186A,119.389,32.3761,扬州市,邗江监测站,颗粒物(PM10),73,95,54,49,24,122,22,103,70,72,42,7,6,0.9,0.7
2022-10-21T22:00:00,1188A,120.269,31.4867,无锡市,雪浪,,,56,35,24,12,136,,123,110,34,25,7,10,0.6,0.5
2022-10-21T22:00:00,1189A,120.275,31.6219,无锡市,黄巷,,,106,51,31,17,132,6,107,63,118,52,9,7,1.0,0.7
2022-10-21T22:00:00,1190A,120.294,31.56,无锡市,曹张,,,96,42,39,18,140,3,122,79,119,40,10,10,1.1,0.6
2022-10-21T22:00:00,1191A,120.242,31.5031,无锡市,漆塘,,44,44,30,24,12,145,68,132,105,18,20,9,12,0.7,0.6
2022-10-21T22:00:00,1192A,120.3489,31.5863,无锡市,东亭,颗粒物(PM10),70,90,45,39,19,146,12,127,80,102,47,9,8,1.2,0.8
2022-10-21T22:00:00,1193A,120.354,31.5475,无锡市,旺庄,颗粒物(PM10),65,79,44,31,18,146,30,128,91,81,49,13,11,0.8,0.7
2022-10-21T22:00:00,1194A,120.245,31.5631,无锡市,荣巷,,46,46,35,27,17,144,39,127,98,47,31,7,10,0.8,0.6
2022-10-21T22:00:00,1195A,120.299,31.6817,无锡市,堰桥,颗粒物(PM10),62,73,43,36,20,152,30,123,89,72,41,6,6,1.0,0.8
2022-10-21T22:00:00,1196A,119.9633,31.762,常州市,市监测站,颗粒物(PM10),80,110,51,51,26,130,5,114,89,110,47,6,6,1.1,0.7
2022-10-21T22:00:00,1200A,119.9468,31.7069,常州市,武进监测站,颗粒物(PM10),87,124,47,59,20,147,12,133,99,101,38,7,8,1.0,0.5
2022-10-21T22:00:00,1201A,119.9255,31.9087,常州市,安家,"颗粒物(PM10),细颗粒物(PM2.5)",72,94,44,52,25,131,6,113,69,97,41,5,5,0.8,0.6
2022-10-21T22:00:00,1203A,119.6707,32.1875,镇江市,新区办事处,颗粒物(PM10),76,102,46,46,24,129,8,110,70,92,50,7,7,1.1,0.6
2022-10-21T22:00:00,1204A,119.4974,32.1968,镇江市,职教中心,颗粒物(PM10),77,103,56,51,25,127,10,117,82,92,38,7,7,0.5,0.4
2022-10-21T22:00:00,1205A,119.4303,32.1328,镇江市,丹徒区监测站,"颗粒物(PM10),细颗粒物(PM2.5)",57,64,49,40,32,134,42,120,90,79,37,4,6,0.4,0.5
2022-10-21T22:00:00,1206A,119.905,32.4878,泰州市,公园路,颗粒物(PM10),54,58,36,36,19,105,26,96,68,41,24,7,8,0.8,0.7
2022-10-21T22:00:00,1207A,119.9189,32.4625,泰州市,莲花,颗粒物(PM10),55,59,39,36,25,105,30,96,75,44,26,6,7,0.9,0.7
2022-10-21T22:00:00,1209A,119.888,32.4639,泰州市,留学生创业园,颗粒物(PM10),59,68,45,41,23,106,28,98,72,48,27,6,8,0.8,0.6
2022-10-21T22:00:00,1210A,119.036,33.5981,淮安市,钵池山,颗粒物(PM10),56,61,35,30,18,108,34,98,81,42,22,6,7,0.9,0.7
2022-10-21T22:00:00,1211A,119.007,33.575,淮安市,北京南路,颗粒物(PM10),54,58,41,30,18,110,43,97,84,35,21,8,9,0.6,0.5
2022-10-21T22:00:00,1212A,118.989,33.6067,淮安市,市监测站,颗粒物(PM10),51,51,38,28,18,107,57,96,87,32,25,4,5,0.9,0.8
2022-10-21T22:00:00,1213A,119.135,33.5039,淮安市,楚州区监测站,颗粒物(PM10),57,63,38,31,15,103,45,92,79,31,20,9,8,0.7,0.6
2022-10-21T22:00:00,1214A,119.0186,33.6297,淮安市,淮阴区监测站,颗粒物(PM10),58,66,44,36,20,100,35,91,72,48,28,5,6,0.6,0.4
2022-10-21T22:00:00,1215A,120.118,33.4022,盐城市,盐城电厂,,29,29,31,14,13,110,77,104,86,19,18,5,6,0.5,0.4
2022-10-21T22:00:00,1216A,120.156,33.3942,盐城市,市监测站,,36,36,29,21,14,96,67,92,81,24,20,4,4,0.4,0.4
2022-10-21T22:00:00,1218A,120.2144,33.38,盐城市,开发区管委会,,26,26,29,12,13,105,58,97,77,27,21,6,7,0.6,0.6
2022-10-21T22:00:00,1220A,118.293,33.9528,宿迁市,宿迁学院,颗粒物(PM10),69,88,53,40,23,100,35,86,77,66,31,9,7,0.9,0.3
2022-10-21T22:00:00,1221A,118.2442,33.9592,宿迁市,宿迁中学,颗粒物(PM10),60,69,53,34,20,104,13,90,67,70,30,5,6,0.9,0.4
2022-10-21T22:00:00,1223A,120.2072,30.2111,杭州市,滨江,,,118,62,58,33,136,,121,120,50,40,5,5,0.5,0.6
2022-10-21T22:00:00,1224A,120.0633,30.2747,杭州市,西溪,颗粒物(PM10),56,62,54,32,28,137,36,108,85,20,24,7,7,0.7,0.6
2022-10-21T22:00:00,1225A,119.026,29.635,杭州市,千岛湖(对照点),,,,,,,,,,,,,,,,
2022-10-21T22:00:00,1226A,120.3461,30.3153,杭州市,下沙,,47,47,45,24,23,141,28,120,100,66,48,8,9,0.5,0.5
2022-10-21T22:00:00,1227A,120.1269,30.2456,杭州市,卧龙桥,,38,38,37,25,21,149,22,115,78,27,25,6,6,0.6,0.5
2022-10-21T22:00:00,1228A,120.1903,30.2692,杭州市,浙江农大,颗粒物(PM10),63,75,46,35,26,143,63,121,110,34,34,7,7,0.5,0.5
2022-10-21T22:00:00,1229A,120.157,30.2897,杭州市,朝晖五区,,,,,,,,,,,,,,,,
2022-10-21T22:00:00,1230A,120.1197,30.3119,杭州市,和睦小学,颗粒物(PM10),64,77,57,40,31,146,26,119,95,75,40,12,10,0.7,0.6
2022-10-21T22:00:00,1231A,120.3019,30.4183,杭州市,临平镇,颗粒物(PM10),57,63,52,20,23,141,55,118,105,27,39,6,8,0.6,0.6
2022-10-21T22:00:00,1232A,120.2697,30.1819,杭州市,城厢镇,细颗粒物(PM2.5),83,84,56,61,33,132,53,118,103,53,37,8,8,0.9,0.7
2022-10-21T22:00:00,1233A,120.0883,30.1808,杭州市,云栖,,38,38,38,21,22,126,33,112,82,37,30,5,5,0.5,0.5
2022-10-21T22:00:00,1234A,121.8358,29.911,宁波市,区环保大楼,,37,37,27,21,15,108,15,88,60,61,31,10,11,0.5,0.5
2022-10-21T22:00:00,1235A,121.56,29.82,宁波市,万里学院,,47,47,47,26,26,114,52,105,86,29,34,7,11,0.6,0.6
2022-10-21T22:00:00,1236A,121.713,29.9572,宁波市,龙赛医院,颗粒物(PM10),51,52,55,25,27,151,42,108,76,40,48,12,15,0.5,0.7
2022-10-21T22:00:00,1239A,121.633,29.7733,宁波市,钱湖水厂,,32,32,42,21,26,105,40,96,75,16,21,5,8,0.5,0.6
2022-10-21T22:00:00,1240A,121.5856,29.8635,宁波市,太古小学,细颗粒物(PM2.5),60,52,47,43,38,114,25,93,66,51,46,12,16,0.6,0.6
2022-10-21T22:00:00,1241A,121.524,29.8674,宁波市,市环境监测中心,颗粒物(PM10),51,51,50,25,22,106,29,94,69,44,42,7,12,0.5,0.5
2022-10-21T22:00:00,1242A,120.634,28.0089,温州市,瓯海,细颗粒物(PM2.5),60,65,50,43,28,116,11,106,77,58,39,7,8,0.6,0.4
2022-10-21T22:00:00,1243A,120.6748,27.9939,温州市,南浦,颗粒物(PM10),55,59,45,33,25,128,32,116,79,38,29,6,6,0.4,0.3
2022-10-21T22:00:00,1244A,120.76,27.9747,温州市,龙湾,颗粒物(PM10),59,67,45,25,19,127,31,107,76,48,37,7,8,0.4,0.4
2022-10-21T22:00:00,1245A,120.6709,28.0167,温州市,市站,颗粒物(PM10),56,61,38,29,18,131,31,119,86,43,27,6,6,0.5,0.3
2022-10-21T22:00:00,1246A,120.598,30.0911,绍兴市,袍江站,,,,,,,,,,,,,,,,
2022-10-21T22:00:00,1247A,120.6053,29.9928,绍兴市,城东开发委,细颗粒物(PM2.5),74,72,41,54,23,128,45,114,101,50,24,14,9,0.7,0.5
2022-10-21T22:00:00,1250A,120.0751,30.8669,湖州市,城西水厂,颗粒物(PM10),66,81,49,35,28,145,13,120,92,101,43,7,7,0.6,0.4
2022-10-21T22:00:00,1252A,120.7436,30.778,嘉兴市,清河小学,颗粒物(PM10),51,51,36,22,15,100,47,91,73,32,34,8,8,0.3,0.3
2022-10-21T22:00:00,1253A,120.726,30.7478,嘉兴市,嘉兴学院,细颗粒物(PM2.5),54,43,43,38,26,147,35,127,93,43,32,6,6,0.5,0.4
2022-10-21T22:00:00,1255A,121.273,28.6459,台州市,黄岩环保大楼,,46,46,35,26,17,131,44,109,78,18,15,6,8,0.4,0.4
2022-10-21T22:00:00,1256A,121.419,28.6542,台州市,台州环保大楼,,36,36,35,20,21,117,58,104,78,16,22,6,8,0.4,0.3
2022-10-21T22:00:00,1257A,121.377,28.5773,台州市,路桥田洋王,颗粒物(PM10),51,52,39,32,29,125,45,103,76,15,15,5,8,0.5,0.5
2022-10-21T22:00:00,1258A,122.122,30.0203,舟山市,定海檀枫,,30,30,24,16,10,110,44,94,75,23,16,4,4,0.4,0.3
2022-10-21T22:00:00,1259A,122.3094,29.9558,舟山市,普陀东港,,31,31,23,16,10,105,73,99,87,16,18,4,5,0.3,0.3
2022-10-21T22:00:00,1260A,122.19,29.9944,舟山市,临城新区,,26,26,28,16,14,94,43,87,67,15,16,5,6,0.4,0.3
2022-10-21T22:00:00,1261A,119.649,29.1131,金华市,四中(停运161031),,,,,,,,,,,,,,,,
2022-10-21T22:00:00,1262A,119.647,29.077,金华市,十五中,颗粒物(PM10),78,105,57,42,30,137,21,119,76,88,51,10,12,0.8,0.6
2022-10-21T22:00:00,1263A,119.686,29.1029,金华市,监测站,颗粒物(PM10),73,96,57,41,35,146,16,129,86,97,47,3,23,0.6,0.4
2022-10-21T22:00:00,1264A,118.8692,28.9398,衢州市,环保大楼,颗粒物(PM10),65,79,62,42,34,132,16,113,75,60,31,7,7,0.7,0.6
2022-10-21T22:00:00,1265A,118.8709,28.9666,衢州市,实验学校,,49,49,50,32,32,143,76,122,102,40,38,9,8,0.5,0.5
2022-10-21T22:00:00,1266A,118.8621,28.9808,衢州市,衢州学院,颗粒物(PM10),51,52,51,29,28,143,37,126,89,61,32,8,8,0.4,0.4
2022-10-21T22:00:00,1267A,119.914,28.4514,丽水市,监测站大楼,,,59,43,28,25,111,,95,61,53,25,8,8,0.5,0.4
2022-10-21T22:00:00,1268A,119.93,28.4586,丽水市,莲都小学,,36,36,38,8,20,120,63,102,84,18,20,6,6,0.3,0.3
2022-10-21T22:00:00,1269A,119.879,28.4231,丽水市,余庄前,,38,38,30,14,14,125,25,109,74,31,18,6,6,0.3,0.3
2022-10-21T22:00:00,1270A,117.1959,31.7848,合肥市,明珠广场,颗粒物(PM10),84,118,90,48,43,101,2,84,54,107,55,10,10,0.7,0.6
2022-10-21T22:00:00,1271A,117.3072,31.8764,合肥市,三里街,颗粒物(PM10),79,107,80,48,33,110,3,90,62,109,54,8,10,0.8,0.6
2022-10-21T22:00:00,1272A,117.2588,31.8707,合肥市,琥珀山庄,颗粒物(PM10),75,100,78,51,37,113,5,91,61,77,41,8,10,1.2,0.7
2022-10-21T22:00:00,1273A,117.1604,31.9052,合肥市,董铺水库(对照点),颗粒物(PM10),79,108,81,51,36,113,18,98,80,69,38,6,7,0.7,0.6
2022-10-21T22:00:00,1274A,117.25,31.8571,合肥市,长江中路,细颗粒物(PM2.5),85,117,87,63,46,122,10,100,76,88,42,9,9,1.4,0.7
2022-10-21T22:00:00,1275A,117.266,31.9436,合肥市,庐阳区,颗粒物(PM10),93,136,98,61,42,114,2,89,54,121,68,9,8,0.8,0.6
2022-10-21T22:00:00,1276A,117.336,31.8586,合肥市,瑶海区,颗粒物(PM10),71,92,78,46,38,112,24,94,70,79,46,12,13,0.8,0.7
2022-10-21T22:00:00,1277A,117.3027,31.7964,合肥市,包河区,,,149,89,51,37,99,5,84,50,114,72,16,13,0.9,0.7
2022-10-21T22:00:00,1278A,117.2776,31.7385,合肥市,滨湖新区,颗粒物(PM10),76,102,76,53,35,112,56,101,86,41,29,10,11,0.4,0.3
2022-10-21T22:00:00,1279A,117.1318,31.8403,合肥市,高新区,颗粒物(PM10),82,114,87,56,42,125,9,101,82,119,54,6,6,0.8,0.6
2022-10-21T22:00:00,1280A,119.3903,26.0543,福州市,鼓山(对照点),,,,,,,,,,,,,,,,
2022-10-21T22:00:00,1282A,119.2681,26.0504,福州市,师大,,42,42,37,19,15,118,68,104,92,17,14,6,5,0.5,0.3
2022-10-21T22:00:00,1283A,119.2984,26.1028,福州市,五四北路,,39,39,33,17,12,104,71,99,87,15,11,5,4,0.5,0.3
2022-10-21T22:00:00,1284A,119.2648,26.0768,福州市,杨桥西路,,38,38,35,15,11,111,78,105,95,12,12,5,4,0.5,0.4
2022-10-21T22:00:00,1285A,119.317,26.0746,福州市,紫阳,,38,38,34,16,11,109,78,102,92,10,10,8,7,0.5,0.3
2022-10-21T22:00:00,1286A,118.1608,24.8169,厦门市,溪东(对照点),,,,,,,,,,,,,,,,
2022-10-21T22:00:00,1287A,118.1514,24.4767,厦门市,洪文,颗粒物(PM10),57,64,45,25,15,121,48,108,85,35,17,5,2,0.4,0.2
2022-10-21T22:00:00,1288A,118.0661,24.4444,厦门市,鼓浪屿,颗粒物(PM10),57,63,36,30,14,133,44,115,91,43,21,5,4,0.5,0.3
2022-10-21T22:00:00,1290A,115.8931,28.6843,南昌市,省外办,颗粒物(PM10),70,90,74,39,32,160,54,134,91,71,59,13,12,0.7,0.8
2022-10-21T22:00:00,1291A,115.8886,28.7003,南昌市,省林业公司,颗粒物(PM10),84,117,82,36,30,152,29,135,95,116,69,9,9,0.6,0.5
2022-10-21T22:00:00,1292A,115.8126,28.7442,南昌市,林科所,颗粒物(PM10),56,61,45,36,20,168,112,148,130,39,28,10,10,0.7,0.6
2022-10-21T22:00:00,1294A,115.8518,28.687,南昌市,建工学校,颗粒物(PM10),66,81,69,27,29,160,93,135,110,58,67,12,11,0.8,0.7
2022-10-21T22:00:00,1295A,115.8921,28.6424,南昌市,象湖,细颗粒物(PM2.5),55,58,58,39,31,161,72,140,110,50,47,8,7,0.7,0.6
2022-10-21T22:00:00,1296A,115.7423,28.7996,南昌市,武术学校(对照点),,36,36,28,25,20,129,45,111,92,15,7,6,4,0.5,0.4
2022-10-21T22:00:00,1298A,115.9314,28.6842,南昌市,省站,颗粒物(PM10),78,105,95,50,40,152,61,130,96,63,64,11,9,0.7,0.7
2022-10-21T22:00:00,1299A,116.9862,36.6114,济南市,科干所,颗粒物(PM10),58,66,52,29,23,156,135,144,139,25,20,6,6,0.5,0.5
2022-10-21T22:00:00,1300A,116.9376,36.665,济南市,农科所,颗粒物(PM10),66,81,62,29,19,145,48,120,80,67,37,5,6,0.5,0.3
2022-10-21T22:00:00,1301A,117.1265,36.6734,济南市,开发区,颗粒物(PM10),66,81,60,36,27,150,49,126,83,81,53,4,5,0.6,0.5
2022-10-21T22:00:00,1303A,117.0624,36.6868,济南市,省种子仓库,颗粒物(PM10),76,102,68,42,29,154,16,139,85,114,53,3,4,1.0,0.6
2022-10-21T22:00:00,1304A,116.9489,36.6447,济南市,机床二厂,颗粒物(PM10),77,103,71,42,27,155,44,141,107,76,40,5,7,0.8,0.7
2022-10-21T22:00:00,1305A,117.0495,36.663,济南市,市监测站,颗粒物(PM10),69,88,61,44,26,161,17,146,82,123,46,7,8,1.2,0.6
2022-10-21T22:00:00,1306A,116.7675,36.5484,济南市,长清党校,颗粒物(PM10),59,68,55,29,22,161,85,142,126,45,23,8,10,0.5,0.5
2022-10-21T22:00:00,1307A,120.6659,36.2403,青岛市,仰口(对照点),,40,12,15,14,8,127,127,116,116,11,10,3,3,0.9,0.7
2022-10-21T22:00:00,1308A,120.3905,36.1851,青岛市,李沧区子站,,,,,,,,,,,,,,,,
2022-10-21T22:00:00,1309A,120.3471,36.0699,青岛市,市北区子站,,,,,,,,,,,,,,,,
2022-10-21T22:00:00,1310A,120.4134,36.0658,青岛市,市南区东部子站,,35,19,19,5,6,126,112,118,118,10,14,7,7,0.4,0.4
2022-10-21T22:00:00,1311A,120.3664,36.1032,青岛市,四方区子站,,29,29,26,12,10,106,89,102,95,22,21,6,6,0.4,0.4
2022-10-21T22:00:00,1312A,120.2994,36.054,青岛市,市南区西部子站,,35,17,22,5,5,131,110,123,122,11,19,7,7,0.5,0.5
2022-10-21T22:00:00,1313A,120.4581,36.0858,青岛市,崂山区子站,,31,27,28,7,8,127,99,118,114,23,20,6,5,0.4,0.4
2022-10-21T22:00:00,1314A,120.1983,35.9608,青岛市,黄岛区子站,,31,19,21,15,13,132,99,128,124,24,18,5,6,0.4,0.3
2022-10-21T22:00:00,1315A,120.3999,36.3083,青岛市,城阳区子站,,45,45,39,16,10,112,73,97,86,48,35,5,5,0.6,0.6
2022-10-21T22:00:00,1316A,113.69031,34.76122,郑州市,烟厂,细颗粒物(PM2.5),100,78,82,75,73,184,66,168,148,50,39,5,7,1.0,0.8
2022-10-21T22:00:00,1317A,113.65724,34.77134,郑州市,郑纺机,细颗粒物(PM2.5),113,134,90,85,76,189,26,168,131,66,47,8,12,1.4,0.8
2022-10-21T22:00:00,1318A,113.67526,34.80246,郑州市,银行学校,细颗粒物(PM2.5),108,97,84,81,79,160,74,144,130,39,38,8,10,1.2,1
2022-10-21T22:00:00,1319A,113.56746,34.81334,郑州市,供水公司,细颗粒物(PM2.5),72,87,85,52,63,184,68,160,141,33,38,7,11,1.0,0.8
2022-10-21T22:00:00,1320A,113.7329,34.7178,郑州市,经开区管委,细颗粒物(PM2.5),80,101,82,59,64,184,44,167,135,42,29,5,7,0.7,0.6
2022-10-21T22:00:00,1321A,113.73961,34.77172,郑州市,四十七中,颗粒物(PM10),68,86,81,33,41,186,94,167,148,38,40,10,10,0.7,0.6
2022-10-21T22:00:00,1322A,113.60532,34.74838,郑州市,市监测站,颗粒物(PM10),82,114,88,38,46,184,59,170,147,42,31,6,8,0.7,0.6
2022-10-21T22:00:00,1323A,113.64164,34.7525,郑州市,河医大,细颗粒物(PM2.5),90,80,83,67,70,176,53,153,122,57,37,9,10,1.0,0.7
2022-10-21T22:00:00,1324A,113.51488,34.91089,郑州市,岗李水库(对照点),,,,,,,,,,,,,,,,
2022-10-21T22:00:00,1325A,114.3677,30.5584,武汉市,东湖梨园,细颗粒物(PM2.5),77,74,74,56,56,134,40,122,101,68,59,8,12,1.5,1.3
2022-10-21T22:00:00,1326A,114.2529,30.558,武汉市,汉阳月湖,细颗粒物(PM2.5),79,90,95,58,56,125,9,108,82,131,82,8,10,1.2,1.2
2022-10-21T22:00:00,1327A,114.282,30.6189,武汉市,汉口花桥,细颗粒物(PM2.5),92,107,99,68,54,128,13,103,76,122,73,11,14,1.4,1.2
2022-10-21T22:00:00,1328A,114.3025,30.5332,武汉市,武昌紫阳,细颗粒物(PM2.5),70,80,85,51,58,142,12,116,101,122,75,9,13,1.2,1.2
2022-10-21T22:00:00,1329A,114.3646,30.6217,武汉市,青山钢花,细颗粒物(PM2.5),122,168,104,92,65,124,7,94,63,135,91,12,14,1.5,1.1
2022-10-21T22:00:00,1330A,114.1566,30.4825,武汉市,沌口新区,细颗粒物(PM2.5),93,102,87,69,59,149,20,124,94,143,92,10,14,1.0,1
2022-10-21T22:00:00,1331A,114.3014,30.5944,武汉市,汉口江滩,细颗粒物(PM2.5),77,65,82,56,63,134,24,96,71,114,79,8,12,1.3,1.2
2022-10-21T22:00:00,1333A,114.135,30.6319,武汉市,吴家山,细颗粒物(PM2.5),85,99,97,63,59,163,28,126,108,123,79,9,12,1.1,1.1
2022-10-21T22:00:00,1334A,113.8454,30.2917,武汉市,沉湖七壕(对照点),细颗粒物(PM2.5),90,85,82,67,49,178,128,158,157,20,49,8,11,0.9,1
2022-10-21T22:00:00,1335A,113.0833,28.2325,长沙市,经开区环保局,细颗粒物(PM2.5),55,53,83,39,62,192,90,158,132,39,41,7,10,0.5,0.6
2022-10-21T22:00:00,1336A,112.8872,28.2189,长沙市,高开区环保局,,,44,89,54,63,179,,165,151,15,51,9,11,,0.6
2022-10-21T22:00:00,1337A,113.0792,28.2053,长沙市,马坡岭,细颗粒物(PM2.5),67,74,87,48,69,187,78,154,127,26,32,9,12,0.5,0.5
2022-10-21T22:00:00,1338A,112.9394,28.19,长沙市,湖南师范大学,细颗粒物(PM2.5),60,51,76,43,72,173,112,153,136,14,34,4,4,0.7,0.9
2022-10-21T22:00:00,1339A,113.0178,28.1322,长沙市,雨花区环保局,细颗粒物(PM2.5),67,69,82,48,52,166,77,141,119,27,64,9,10,0.3,0.5
2022-10-21T22:00:00,1340A,112.9792,28.2597,长沙市,伍家岭,细颗粒物(PM2.5),74,72,101,54,60,182,101,159,126,28,50,7,9,0.7,0.7
2022-10-21T22:00:00,1341A,113.0014,28.1944,长沙市,火车新站,颗粒物(PM10),54,58,84,34,53,197,103,161,135,21,42,8,10,0.5,0.6
2022-10-21T22:00:00,1342A,112.9844,28.1178,长沙市,天心区环保局,细颗粒物(PM2.5),58,50,79,41,60,201,99,155,127,24,52,8,10,0.5,0.6
2022-10-21T22:00:00,1343A,112.8908,28.1308,长沙市,湖南中医药大学,颗粒物(PM10),53,55,97,32,57,193,107,166,140,15,46,4,6,0.6,0.7
2022-10-21T22:00:00,1344A,112.9581,28.3611,长沙市,沙坪(对照点),细颗粒物(PM2.5),67,60,70,48,54,160,127,151,141,12,18,6,8,0.6,0.6
2022-10-21T22:00:00,1345A,113.2347,23.1423,广州市,广雅中学,细颗粒物(PM2.5),95,123,82,71,41,240,15,199,156,161,73,7,8,1.3,0.8
2022-10-21T22:00:00,1346A,113.2612,23.105,广州市,市五中,细颗粒物(PM2.5),118,115,68,89,41,285,54,242,213,104,57,6,11,1.2,0.8
2022-10-21T22:00:00,1348A,113.3478,23.0916,广州市,广东商学院,颗粒物(PM10),78,106,70,56,34,251,48,213,182,115,65,8,7,1.1,0.7
2022-10-21T22:00:00,1349A,113.4332,23.1047,广州市,市八十六中,颗粒物(PM10),99,148,88,58,35,227,33,200,160,150,75,11,10,0.9,0.7
2022-10-21T22:00:00,1350A,113.3505,22.9483,广州市,番禺中学,细颗粒物(PM2.5),129,149,67,98,34,287,145,247,220,85,44,14,11,1.1,0.6
2022-10-21T22:00:00,1351A,113.2146,23.3916,广州市,花都师范,细颗粒物(PM2.5),77,99,70,56,38,235,57,196,156,62,53,8,9,1.0,0.8
2022-10-21T22:00:00,1352A,113.2597,23.1331,广州市,市监测站,细颗粒物(PM2.5),93,113,77,69,40,278,14,230,178,146,69,6,7,1.5,0.9
2022-10-21T22:00:00,1353A,113.5618,23.312,广州市,九龙镇镇龙,颗粒物(PM10),153,256,93,106,40,195,1,169,94,106,58,5,5,0.8,0.6
2022-10-21T22:00:00,1354A,113.2765,23.1544,广州市,麓湖,二氧化氮,73,71,64,46,34,257,15,228,169,145,69,5,5,0.9,0.6
2022-10-21T22:00:00,1355A,113.443,23.3035,广州市,帽峰山森林公园(对照点),臭氧1小时,75,47,52,27,29,199,180,184,182,15,32,9,8,0.4,0.4
2022-10-21T22:00:00,1356A,114.1063,22.5545,深圳市,通心岭子站,,35,35,41,15,19,198,91,172,149,8,15,5,5,0.5,0.6
2022-10-21T22:00:00,1357A,114.117,22.5625,深圳市,洪湖,,40,40,47,15,18,198,91,168,142,15,25,6,7,0.6,0.6
2022-10-21T22:00:00,1358A,113.987,22.5417,深圳市,华侨城,颗粒物(PM10),52,53,49,24,21,210,92,178,156,19,23,5,6,0.5,0.8
2022-10-21T22:00:00,1359A,113.9181,22.5171,深圳市,南海子站,,43,43,49,19,20,241,105,179,167,9,17,4,5,0.4,0.4
2022-10-21T22:00:00,1360A,114.2458,22.5689,深圳市,盐田,,32,32,34,14,15,177,70,141,117,10,25,5,7,0.5,0.5
2022-10-21T22:00:00,1361A,114.2283,22.7244,深圳市,龙岗,,47,47,45,18,18,170,82,148,117,20,18,5,5,0.4,0.5
2022-10-21T22:00:00,1362A,113.8953,22.5861,深圳市,西乡,,,,,,,,,,,,,,,,
2022-10-21T22:00:00,1363A,114.494,22.5422,深圳市,南澳,,35,35,33,18,14,134,66,126,102,7,9,9,12,0.6,0.6
2022-10-21T22:00:00,1364A,114.41,22.6342,深圳市,葵涌,,29,29,29,14,13,153,65,131,106,11,11,6,6,0.6,0.6
2022-10-21T22:00:00,1365A,114.297,22.5978,深圳市,梅沙,,39,39,39,14,13,173,80,137,111,11,11,8,9,0.4,0.5
2022-10-21T22:00:00,1366A,114.0678,22.738,深圳市,观澜,颗粒物(PM10),55,60,65,19,23,208,48,173,126,46,30,6,6,0.6,0.5
2022-10-21T22:00:00,1367A,113.5814,22.2618,珠海市,吉大,,33,33,38,17,24,196,95,141,129,10,16,5,6,0.4,0.3
2022-10-21T22:00:00,1368A,113.4881,22.2335,珠海市,前山,颗粒物(PM10),51,51,50,17,14,217,74,153,131,32,30,6,6,0.3,0.3
2022-10-21T22:00:00,1369A,113.628,22.4251,珠海市,唐家,,37,37,38,16,20,261,99,186,158,17,16,7,7,0.4,0.4
2022-10-21T22:00:00,1370A,113.299,22.2281,珠海市,斗门,,35,35,44,17,21,240,94,170,156,19,29,7,9,0.5,0.5
2022-10-21T22:00:00,1371A,113.1294,23.0067,佛山市,湾梁,颗粒物(PM10),82,114,71,48,32,309,69,262,230,98,48,8,8,1.1,0.6
2022-10-21T22:00:00,1372A,113.1083,23.0478,佛山市,华材职中,"颗粒物(PM10),细颗粒物(PM2.5)",67,83,73,48,37,295,26,234,193,114,55,10,10,1.1,0.6
2022-10-21T22:00:00,1373A,113.144,23.0453,佛山市,南海气象局,细颗粒物(PM2.5),99,104,65,74,36,304,68,247,215,112,55,9,8,0.8,0.5
2022-10-21T22:00:00,1374A,113.2881,22.8094,佛山市,顺德苏岗,细颗粒物(PM2.5),100,112,59,75,31,290,136,260,237,76,42,9,8,1.3,0.8
2022-10-21T22:00:00,1375A,113.2544,22.7642,佛山市,容桂街道办,,,,,,,,,,,,,,,,
2022-10-21T22:00:00,1376A,112.8383,22.8678,佛山市,高明孔堂,颗粒物(PM10),61,71,80,37,54,338,137,271,244,42,41,10,11,0.8,0.8
2022-10-21T22:00:00,1377A,112.8836,23.1588,佛山市,三水监测站,颗粒物(PM10),78,105,102,52,58,237,17,204,142,153,87,10,13,0.7,0.7
2022-10-21T22:00:00,1378A,112.867,23.185,佛山市,三水云东海,颗粒物(PM10),66,82,90,38,52,241,51,202,149,77,72,7,12,0.6,0.7
2022-10-21T22:00:00,1379A,113.3769,22.5211,中山市,华柏园,颗粒物(PM10),62,74,54,30,27,309,120,234,213,35,30,6,6,0.6,0.6
2022-10-21T22:00:00,1380A,113.3881,22.5497,中山市,张溪,颗粒物(PM10),73,95,66,24,32,312,124,248,204,39,36,6,6,0.6,0.4
2022-10-21T22:00:00,1381A,113.4075,22.5111,中山市,紫马岭,颗粒物(PM10),62,73,51,39,28,306,104,240,218,43,26,6,7,0.6,0.5
2022-10-21T22:00:00,1382A,113.4411,22.4853,中山市,长江旅游区(对照点),颗粒物(PM10),53,56,41,28,27,290,131,233,216,21,17,6,6,0.7,0.6
2022-10-21T22:00:00,1383A,113.1064,22.6058,江门市,北街,颗粒物(PM10),69,88,63,41,33,353,120,289,272,41,32,8,8,0.9,0.7
2022-10-21T22:00:00,1384A,113.0731,22.5835,江门市,西区,颗粒物(PM10),71,91,65,33,34,331,112,284,263,44,35,10,9,0.7,0.7
2022-10-21T22:00:00,1385A,113.0219,22.5311,江门市,圭峰西,颗粒物(PM10),84,118,66,39,37,368,124,300,285,51,34,8,8,0.9,0.6
2022-10-21T22:00:00,1386A,113.0828,22.5947,江门市,东湖,颗粒物(PM10),71,91,67,44,32,325,111,282,264,45,30,9,8,0.8,0.6
2022-10-21T22:00:00,1387A,113.7875,23.0457,东莞市,东城主山,,,,,,,,,,,,,,,,
2022-10-21T22:00:00,1388A,113.7533,23.0202,东莞市,南城元岭,,,,,,,,,,,,,,,,
2022-10-21T22:00:00,1389A,113.7547,23.0494,东莞市,莞城梨川,,,,57,,26,89,,76,,,32,,10,,0.7
2022-10-21T22:00:00,1390A,113.7944,23.0128,东莞市,东城石井,颗粒物(PM10),58,65,46,37,24,191,97,178,151,30,17,10,10,0.8,0.7
2022-10-21T22:00:00,1391A,113.7383,22.9658,东莞市,南城西平,颗粒物(PM10),56,62,66,35,26,192,113,182,161,38,34,11,11,0.7,0.7
2022-10-21T22:00:00,1392A,114.4183,23.0528,惠州市,河南岸金山湖子站,颗粒物(PM10),58,66,58,26,24,148,62,130,106,29,24,5,6,0.6,0.6
2022-10-21T22:00:00,1393A,114.4053,23.0822,惠州市,下埔横江三路子站,,,70,56,24,23,160,,141,132,27,20,6,9,0.4,0.4
2022-10-21T22:00:00,1394A,114.4103,23.1142,惠州市,江北云山西路子站,,,,,,,,,,,,,,,,
2022-10-21T22:00:00,1395A,114.4645,22.7833,惠州市,惠阳区承修路船湖子站,颗粒物(PM10),57,64,61,22,21,178,80,154,128,17,20,7,9,0.8,0.8
2022-10-21T22:00:00,1396A,114.5317,22.7422,惠州市,大亚湾管委会子站,,45,45,50,21,20,161,82,140,113,12,21,3,4,0.6,0.7
2022-10-21T22:00:00,1397A,112.4267,23.0706,肇庆市,睦岗子站,颗粒物(PM10),66,82,69,41,39,262,70,222,188,105,68,13,11,0.8,0.7
2022-10-21T22:00:00,1398A,112.4645,23.0475,肇庆市,城中子站,颗粒物(PM10),73,95,76,52,42,250,86,220,185,84,66,25,19,0.9,0.6
2022-10-21T22:00:00,1399A,112.5544,23.1522,肇庆市,坑口子站,,42,40,52,26,32,252,134,214,198,21,31,9,12,0.6,0.6
2022-10-21T22:00:00,1400A,112.4753,23.1,肇庆市,七星岩子站(对照点),颗粒物(PM10),56,62,61,35,33,241,115,225,202,44,29,6,8,0.8,0.7
2022-10-21T22:00:00,1401A,108.3103,22.7881,南宁市,二十一中,颗粒物(PM10),63,75,57,42,37,161,52,127,110,55,33,6,10,0.9,0.8
2022-10-21T22:00:00,1402A,108.3141,22.8528,南宁市,北湖,细颗粒物(PM2.5),82,103,61,60,44,155,54,130,119,37,19,10,10,0.9,0.9
2022-10-21T22:00:00,1403A,108.3206,22.8225,南宁市,市监测站,"颗粒物(PM10),细颗粒物(PM2.5)",65,79,62,47,40,150,31,109,90,79,42,10,12,0.8,0.8
2022-10-21T22:00:00,1404A,108.3829,22.8037,南宁市,大自然花园,颗粒物(PM10),57,64,54,39,38,165,68,136,124,45,25,7,8,0.9,0.8
2022-10-21T22:00:00,1405A,108.4394,22.7904,南宁市,仙葫(对照点),颗粒物(PM10),58,66,56,38,35,157,43,128,109,62,30,6,6,0.8,0.7
2022-10-21T22:00:00,1406A,108.2397,22.8467,南宁市,区农职院,颗粒物(PM10),58,65,50,37,33,155,63,133,109,42,25,14,10,1.0,0.9
2022-10-21T22:00:00,1407A,108.3275,22.735,南宁市,英华嘉园,细颗粒物(PM2.5),59,65,54,42,40,153,66,118,108,32,25,11,9,0.9,0.8
2022-10-21T22:00:00,1408A,108.2257,22.7757,南宁市,沙井镇街道办,颗粒物(PM10),54,58,48,32,31,152,57,129,112,36,19,5,7,0.7,0.7
2022-10-21T22:00:00,1409A,110.576,19.9507,海口市,东寨港(对照点),,,25,33,5,7,45,34,42,41,,,4,5,0.3,0.2
2022-10-21T22:00:00,1410A,110.3232,20.0574,海口市,海南大学,,40,40,39,8,20,118,113,102,102,7,5,6,6,0.5,0.5
2022-10-21T22:00:00,1411A,110.283,20.0053,海口市,秀英海南医院,,41,41,40,13,9,110,106,95,95,10,5,4,4,0.5,0.4
2022-10-21T22:00:00,1412A,110.338,19.9969,海口市,海南师范大学,,43,43,42,15,10,106,101,92,92,8,4,5,4,0.6,0.6
2022-10-21T22:00:00,1413A,110.33,20.0356,海口市,龙华路环保局宿舍,,39,39,40,10,13,108,101,93,93,8,4,4,4,0.6,0.6
2022-10-21T22:00:00,1414A,106.3787,29.8279,重庆市,缙云山(对照点),臭氧1小时,89,48,43,28,25,206,191,194,194,14,15,6,8,0.3,0.4
2022-10-21T22:00:00,1416A,106.4213,29.8253,重庆市,天生,细颗粒物(PM2.5),105,118,83,79,56,201,56,166,139,62,54,14,16,0.9,0.8
2022-10-21T22:00:00,1417A,106.6263,29.7228,重庆市,两路,颗粒物(PM10),84,117,68,51,41,192,100,152,147,57,56,12,13,0.6,0.7
2022-10-21T22:00:00,1418A,106.2953,29.5983,重庆市,虎溪,二氧化氮,65,66,72,45,43,218,12,184,136,129,67,10,16,0.9,0.7
2022-10-21T22:00:00,1419A,106.5777,29.5102,重庆市,南坪,细颗粒物(PM2.5),69,73,69,50,46,193,134,186,176,31,40,14,9,0.7,0.7
2022-10-21T22:00:00,1420A,106.6556,29.6277,重庆市,唐家沱,细颗粒物(PM2.5),125,164,85,95,47,213,16,158,120,113,78,11,14,0.7,0.6
2022-10-21T22:00:00,1421A,106.6349,29.4906,重庆市,茶园,细颗粒物(PM2.5),80,104,93,59,49,204,82,174,133,98,84,12,13,1.0,1
2022-10-21T22:00:00,1422A,106.3754,29.4572,重庆市,白市驿,,,84,89,49,51,208,170,190,188,22,44,16,20,,0.6
2022-10-21T22:00:00,1425A,106.6205,29.7166,重庆市,空港,细颗粒物(PM2.5),75,89,69,55,41,186,44,148,137,109,54,15,16,0.9,0.5
2022-10-21T22:00:00,1426A,106.4782,29.4875,重庆市,新山村,二氧化氮,76,71,90,55,54,216,36,169,125,151,107,8,12,1.2,0.9
2022-10-21T22:00:00,1427A,106.5616,29.6453,重庆市,礼嘉,颗粒物(PM10),73,95,85,50,42,212,58,171,158,102,89,15,15,1.0,0.9
2022-10-21T22:00:00,1428A,106.4522,29.7091,重庆市,蔡家,颗粒物(PM10),69,88,86,49,45,193,36,152,114,96,62,8,11,0.6,0.6
2022-10-21T22:00:00,1429A,106.5093,29.3917,重庆市,鱼新街,细颗粒物(PM2.5),123,142,85,93,55,208,17,151,114,146,84,16,21,1.5,1
2022-10-21T22:00:00,1431A,103.9728,30.7236,成都市,金泉两河,细颗粒物(PM2.5),74,94,88,54,57,193,1,164,112,98,48,4,8,1.4,0.8
2022-10-21T22:00:00,1432A,104.1419,30.6764,成都市,十里店,细颗粒物(PM2.5),104,128,100,78,61,179,3,149,108,136,73,5,8,1.2,0.8
2022-10-21T22:00:00,1433A,104.0594,30.5767,成都市,三瓦窑,颗粒物(PM10),95,140,110,61,62,195,0,152,110,130,85,2,4,1.3,0.8
2022-10-21T22:00:00,1434A,104.1122,30.6306,成都市,沙河铺,细颗粒物(PM2.5),87,121,97,64,54,197,1,139,106,94,68,5,5,1.5,0.9
2022-10-21T22:00:00,1437A,104.0431,30.6556,成都市,君平街,细颗粒物(PM2.5),112,125,92,84,63,197,6,168,132,149,66,4,7,1.6,1
2022-10-21T22:00:00,1438A,103.6202,31.0201,成都市,灵岩寺(对照点),颗粒物(PM10),53,55,52,35,34,165,133,151,151,11,12,9,12,0.5,0.5
2022-10-21T22:00:00,1439A,106.6899,26.5998,贵阳市,马鞍山,细颗粒物(PM2.5),67,46,26,48,25,76,6,58,41,23,14,4,4,0.7,0.5
2022-10-21T22:00:00,1440A,106.6971,26.5694,贵阳市,市环保站,细颗粒物(PM2.5),73,80,31,53,26,80,3,58,45,60,29,5,4,1.0,0.5
2022-10-21T22:00:00,1441A,106.6243,26.6266,贵阳市,鉴湖路,细颗粒物(PM2.5),67,58,40,48,28,98,21,77,54,35,17,4,4,0.8,0.6
2022-10-21T22:00:00,1442A,106.7487,26.6343,贵阳市,燕子冲,细颗粒物(PM2.5),62,53,32,44,31,93,38,70,66,20,22,5,4,0.6,0.6
2022-10-21T22:00:00,1443A,106.6555,26.4365,贵阳市,碧云窝,细颗粒物(PM2.5),58,51,34,41,22,88,28,59,57,18,16,5,5,0.6,0.5
2022-10-21T22:00:00,1444A,106.694,26.5161,贵阳市,中院村,,,,37,53,24,90,8,65,49,57,28,8,6,1.1,0.6
2022-10-21T22:00:00,1445A,106.7109,26.6027,贵阳市,红边门,细颗粒物(PM2.5),85,63,34,63,31,89,25,74,60,41,26,7,5,0.9,0.6
2022-10-21T22:00:00,1446A,106.7164,26.5699,贵阳市,新华路,细颗粒物(PM2.5),70,63,26,51,25,95,3,74,56,54,19,4,4,0.8,0.5
2022-10-21T22:00:00,1447A,106.674,26.5424,贵阳市,太慈桥,,46,46,33,31,18,86,8,58,48,20,15,1,3,0.6,0.5
2022-10-21T22:00:00,1450A,102.8204,24.8886,昆明市,呈贡新区,,39,39,49,20,25,99,18,82,57,49,38,5,8,0.7,0.6
2022-10-21T22:00:00,1451A,102.6251,24.9608,昆明市,西山森林公园(对照点),,25,15,23,4,14,102,77,101,79,6,9,6,7,0.6,0.7
2022-10-21T22:00:00,1452A,102.7252,25.0902,昆明市,龙泉镇,颗粒物(PM10),57,64,42,23,29,103,5,86,55,48,42,7,7,0.8,0.5
2022-10-21T22:00:00,1453A,102.7266,25.0375,昆明市,东风东路,,29,29,47,14,28,98,38,83,65,30,41,6,8,0.6,0.7
2022-10-21T22:00:00,1454A,102.6742,25.0669,昆明市,金鼎山,,32,32,44,11,22,86,34,76,61,27,31,7,9,0.5,0.6
2022-10-21T22:00:00,1455A,102.6644,25.0401,昆明市,碧鸡广场,细颗粒物(PM2.5),52,46,43,36,31,86,22,77,57,46,36,9,12,0.6,0.6
2022-10-21T22:00:00,1456A,91.1319,29.6514,拉萨市,八廓街,,,12,9,,,110,110,104,104,8,9,7,7,0,0
2022-10-21T22:00:00,1457A,91.1221,29.6747,拉萨市,市环保局,,30,19,9,6,3,107,95,103,100,8,7,2,2,0.2,0.2
2022-10-21T22:00:00,1458A,91.0874,29.6475,拉萨市,区监测站,,39,8,8,2,3,124,124,116,116,2,5,9,9,0.2,0.3
2022-10-21T22:00:00,1459A,91.1774,29.6541,拉萨市,西藏大学,,36,21,14,5,3,113,113,105,105,5,8,11,10,0.1,0
2022-10-21T22:00:00,1460A,90.9798,29.6588,拉萨市,区辐射站,,35,6,5,7,5,111,111,104,104,5,7,9,9,0.2,0.2
2022-10-21T22:00:00,1461A,91.0834,29.6292,拉萨市,拉萨火车站,,37,10,10,2,4,117,117,110,110,3,6,10,10,0,0
2022-10-21T22:00:00,1462A,108.882,34.2749,西安市,高压开关厂,颗粒物(PM10),104,157,142,77,86,163,6,129,93,132,76,9,10,1.7,0.9
2022-10-21T22:00:00,1463A,108.993,34.2629,西安市,兴庆小区,颗粒物(PM10),71,92,99,36,60,159,38,128,102,64,55,10,10,0.7,0.7
2022-10-21T22:00:00,1464A,109.06,34.2572,西安市,纺织城,颗粒物(PM10),90,129,120,51,66,159,4,124,89,98,55,8,10,1.1,0.9
2022-10-21T22:00:00,1465A,108.9356,34.2173,西安市,小寨,颗粒物(PM10),81,112,136,40,58,155,3,120,79,116,68,9,9,1.7,1.2
2022-10-21T22:00:00,1466A,108.954,34.2713,西安市,市人民体育场,细颗粒物(PM2.5),92,124,114,68,83,158,5,127,94,122,62,6,7,1.5,0.8
2022-10-21T22:00:00,1467A,108.8922,34.2322,西安市,高新西区,颗粒物(PM10),83,116,130,55,70,160,5,122,82,118,67,7,7,1.8,1.1
2022-10-21T22:00:00,1468A,108.935,34.3474,西安市,经开区,颗粒物(PM10),96,141,119,63,71,162,4,118,88,122,78,6,9,1.6,0.9
2022-10-21T22:00:00,1469A,108.906,34.1546,西安市,长安区,颗粒物(PM10),87,124,123,50,55,151,28,123,93,58,47,4,5,0.8,0.7
2022-10-21T22:00:00,1470A,109.2,34.6575,西安市,阎良区,,,,,,,,,,,,,,,,
2022-10-21T22:00:00,1471A,109.2186,34.3731,西安市,临潼区,细颗粒物(PM2.5),64,65,109,46,60,162,110,129,122,28,47,6,9,0.7,0.7
2022-10-21T22:00:00,1472A,108.869,34.378,西安市,草滩(对照点),颗粒物(PM10),78,105,111,55,68,150,13,98,74,83,68,8,9,1.0,0.9
2022-10-21T22:00:00,1473A,108.985,34.1978,西安市,曲江文化产业集团,颗粒物(PM10),88,126,134,56,85,154,5,124,88,111,69,10,6,0.9,0.9
2022-10-21T22:00:00,1474A,109.051,34.3213,西安市,广运潭,颗粒物(PM10),90,129,110,47,65,156,10,122,95,106,65,6,7,0.7,0.7
2022-10-21T22:00:00,1476A,103.631,36.1031,兰州市,兰炼宾馆,颗粒物(PM10),71,91,74,46,40,120,29,101,89,89,49,9,24,0.8,0.8
2022-10-21T22:00:00,1477A,104.1373,35.9454,兰州市,榆中兰大校区(对照点),,,,,,,,,,,,,,,,
2022-10-21T22:00:00,1478A,103.8412,36.0726,兰州市,生物制品所,颗粒物(PM10),75,100,84,42,42,118,27,98,90,80,47,8,11,0.7,0.8
2022-10-21T22:00:00,1479A,103.831,36.0464,兰州市,铁路设计院,颗粒物(PM10),73,96,88,34,46,117,10,98,79,113,57,12,17,1.6,1.1
2022-10-21T22:00:00,1480A,101.748,36.6428,西宁市,市环境监测站,,,,,,,,,,,,,,,,
2022-10-21T22:00:00,1482A,101.834,36.5819,西宁市,四陆医院,,,,,,,,,,,,,,,,
2022-10-21T22:00:00,1483A,101.524,36.6867,西宁市,第五水厂(对照点),,,,,,,,,,,,,,,,
2022-10-21T22:00:00,1484A,105.9512,38.6016,银川市,贺兰山马莲口(对照点),颗粒物(PM10),56,62,63,27,30,165,94,153,142,24,22,15,23,0.4,0.6
2022-10-21T22:00:00,1488A,106.2328,38.4975,银川市,贺兰山东路,,50,50,103,29,62,156,56,130,109,25,32,6,15,0.4,0.8
2022-10-21T22:00:00,1489A,106.1358,38.5036,银川市,学院路,颗粒物(PM10),59,67,103,26,46,146,53,125,105,26,34,8,16,0.8,1.1
2022-10-21T22:00:00,1490A,87.5801,43.8303,乌鲁木齐市,监测站,,32,32,27,21,20,78,48,72,67,37,27,6,6,0.5,0.6
2022-10-21T22:00:00,1491A,87.6046,43.768,乌鲁木齐市,收费所,,46,42,25,32,17,90,38,82,75,35,22,7,8,0.4,0.3
2022-10-21T22:00:00,1492A,87.4754,43.9469,乌鲁木齐市,新疆农科院农场(对照点),,23,15,11,16,16,78,34,57,56,23,29,5,6,0.8,0.9
2022-10-21T22:00:00,1493A,87.5525,43.8711,乌鲁木齐市,铁路局,,38,33,24,26,19,78,29,71,64,47,21,5,6,0.8,0.7
2022-10-21T22:00:00,1494A,87.6432,43.831,乌鲁木齐市,三十一中学,,,50,36,,,84,51,78,74,36,18,9,9,0.3,0.3
2022-10-21T22:00:00,1496A,87.7216,44.1747,乌鲁木齐市,米东区环保局,,21,21,45,13,34,84,44,74,71,13,20,6,8,0.3,0.5
2022-10-21T22:00:00,1508A,112.9433,27.8614,湘潭市,板塘,细颗粒物(PM2.5),58,64,79,41,49,233,110,202,170,27,49,12,13,0.4,0.4
2022-10-21T22:00:00,1511A,112.9118,27.8403,湘潭市,市监测站,细颗粒物(PM2.5),58,56,75,41,49,224,101,189,157,25,49,8,12,0.6,0.6
2022-10-21T22:00:00,1512A,112.8937,27.8728,湘潭市,江麓,细颗粒物(PM2.5),58,63,87,41,55,231,110,200,171,20,32,5,11,0.5,0.6
2022-10-21T22:00:00,1513A,112.9227,27.8159,湘潭市,岳塘,细颗粒物(PM2.5),60,64,93,43,55,240,110,204,170,28,59,8,9,0.5,0.6
2022-10-21T22:00:00,1514A,112.9074,27.9119,湘潭市,科大,颗粒物(PM10),74,97,95,48,58,232,108,200,168,24,44,5,9,0.4,0.5
2022-10-21T22:00:00,1515A,113.135,27.8244,株洲市,天台山庄,细颗粒物(PM2.5),64,64,66,46,47,237,114,204,178,33,43,6,10,0.5,0.4
2022-10-21T22:00:00,1518A,113.095,27.8867,株洲市,株冶医院,,,,68,,43,233,,202,193,,39,7,12,0.5,0.4
2022-10-21T22:00:00,1519A,113.167,27.8667,株洲市,市四中,细颗粒物(PM2.5),63,68,66,45,46,246,123,206,181,24,39,5,8,0.5,0.4
2022-10-21T22:00:00,1520A,113.143,27.8381,株洲市,火车站,"颗粒物(PM10),细颗粒物(PM2.5)",65,80,81,47,47,246,95,214,186,55,40,9,9,0.6,0.7
2022-10-21T22:00:00,1524A,113.13,27.8528,株洲市,市监测站,细颗粒物(PM2.5),82,80,80,60,56,234,116,204,179,30,42,3,9,0.6,0.7
2022-10-21T22:00:00,1552A,106.805,26.3003,贵阳市,桐木岭(对照点),,,,,,,,,,,,,,,,
2022-10-21T22:00:00,1559A,113.251,27.8336,株洲市,大京风景区(对照点),细颗粒物(PM2.5),57,61,50,40,34,212,120,182,165,14,13,5,5,0.5,0.4
2022-10-21T22:00:00,1562A,113.0048,27.9153,湘潭市,昭山,颗粒物(PM10),67,84,99,42,44,225,97,189,163,24,57,4,6,0.5,0.5
2022-10-21T22:00:00,1564A,112.4876,27.9164,湘潭市,韶山(对照点),颗粒物(PM10),62,74,68,34,29,201,138,186,170,15,17,7,10,0.6,0.6
2022-10-21T22:00:00,1585A,109.8756,40.6532,包头市,市环境监测站,颗粒物(PM10),73,95,114,21,45,110,68,97,86,10,36,7,21,0.6,1.4
2022-10-21T22:00:00,1587A,109.9991,40.5842,包头市,包头八中,颗粒物(PM10),87,123,146,12,54,116,68,100,87,11,50,6,21,0.4,1.1
2022-10-21T22:00:00,1588A,109.8538,40.6821,包头市,青山宾馆,颗粒物(PM10),74,98,118,13,51,103,58,90,82,16,34,11,25,0.5,1.3
2022-10-21T22:00:00,1589A,109.8642,40.6288,包头市,惠龙物流,颗粒物(PM10),74,97,116,24,51,122,63,100,87,12,43,6,21,0.8,1.6
2022-10-21T22:00:00,1590A,110.0377,40.5546,包头市,东河鸿龙湾,颗粒物(PM10),81,111,123,19,46,104,59,93,80,16,44,6,18,0.2,0.7
2022-10-21T22:00:00,1591A,110.0023,39.8129,鄂尔多斯市,综合楼,颗粒物(PM10),91,132,81,16,25,93,31,86,70,17,33,7,9,0.4,0.7
2022-10-21T22:00:00,1592A,109.9486,39.8261,鄂尔多斯市,巴音孟克林场办事处,颗粒物(PM10),98,146,86,24,31,104,65,99,84,19,27,7,11,0.5,0.7
2022-10-21T22:00:00,1593A,109.7736,39.5986,鄂尔多斯市,康泽苑,颗粒物(PM10),73,95,70,14,29,104,66,100,86,13,13,5,5,0.7,0.8
2022-10-21T22:00:00,1594A,109.8119,39.5989,鄂尔多斯市,华泰汽车城,颗粒物(PM10),80,110,69,22,35,96,65,90,78,9,22,7,7,0.4,0.6
2022-10-21T22:00:00,1595A,109.9734,39.7884,鄂尔多斯市,奥林花园,颗粒物(PM10),102,153,102,24,31,98,66,89,76,17,47,7,9,0.3,0.6
2022-10-21T22:00:00,1596A,122.2414,40.6592,营口市,学府南路,,,,,,,,,,,,,,,,
2022-10-21T22:00:00,1597A,122.2703,40.7094,营口市,大庆路,细颗粒物(PM2.5),84,90,58,62,40,164,99,151,142,33,29,5,8,1.2,0.9
2022-10-21T22:00:00,1598A,122.215,40.6511,营口市,镜湖西路,细颗粒物(PM2.5),88,96,64,65,34,154,108,146,142,25,20,5,5,1.1,1
2022-10-21T22:00:00,1599A,122.167,40.6655,营口市,西炮台,细颗粒物(PM2.5),110,120,70,83,45,157,120,150,147,20,19,13,12,0.8,0.7
2022-10-21T22:00:00,1600A,124.3303,40.0625,丹东市,江湾东路,,42,42,34,25,17,108,64,102,88,11,15,9,11,0.6,0.7
2022-10-21T22:00:00,1601A,124.4256,40.1503,丹东市,临江后街,,28,28,28,11,13,113,82,108,91,6,7,8,8,0.6,0.6
2022-10-21T22:00:00,1602A,124.3933,40.1461,丹东市,元宝山,,31,31,29,19,16,105,70,102,84,19,18,12,11,1.2,0.8
2022-10-21T22:00:00,1603A,124.3633,40.1092,丹东市,民主桥,,39,39,35,16,15,110,69,108,86,8,7,11,10,1.0,0.7
2022-10-21T22:00:00,1604A,122.0303,41.1489,盘锦市,开发区,细颗粒物(PM2.5),140,70,43,107,55,142,73,122,106,40,25,8,8,1.3,1
2022-10-21T22:00:00,1605A,122.0485,41.0883,盘锦市,兴隆台,细颗粒物(PM2.5),107,48,46,80,48,146,88,127,116,34,18,10,10,1.0,0.8
2022-10-21T22:00:00,1606A,121.8297,41.1028,盘锦市,新生街道,细颗粒物(PM2.5),72,18,44,52,50,151,72,137,118,25,17,7,10,1.1,0.9
2022-10-21T22:00:00,1607A,120.9092,40.7136,葫芦岛市,龙港区,细颗粒物(PM2.5),163,138,87,124,61,147,27,135,109,63,24,9,16,1.4,0.8
2022-10-21T22:00:00,1608A,120.8392,40.7514,葫芦岛市,化工街,颗粒物(PM10),174,298,115,,,159,15,139,97,117,39,,,2.3,1.3
2022-10-21T22:00:00,1609A,120.8341,40.7073,葫芦岛市,新区,细颗粒物(PM2.5),170,128,87,129,70,141,22,135,94,86,38,7,14,2.0,1.3
2022-10-21T22:00:00,1610A,120.8695,40.7677,葫芦岛市,东城区,细颗粒物(PM2.5),173,181,98,131,79,138,5,116,73,97,37,12,16,2.2,1.3
2022-10-21T22:00:00,1611A,118.5819,24.9117,泉州市,涂山街,,41,41,36,14,11,127,75,110,93,11,9,8,7,0.5,0.5
2022-10-21T22:00:00,1612A,118.5972,24.8978,泉州市,津头埔,,42,42,37,22,16,121,61,106,86,17,8,12,6,0.5,0.4
2022-10-21T22:00:00,1613A,118.6663,24.9424,泉州市,万安,,38,38,34,19,15,132,70,116,96,15,8,13,7,0.5,0.5
2022-10-21T22:00:00,1614A,118.6117,24.9604,泉州市,清源山(对照点),,,,,,,,,,,,,,,,
2022-10-21T22:00:00,1616A,117.6795,36.229,济南市,技术学院,颗粒物(PM10),86,122,77,41,27,165,1,145,101,118,42,8,8,1.5,1
2022-10-21T22:00:00,1618A,118.3429,35.0532,临沂市,沂河小区,颗粒物(PM10),52,53,45,29,24,139,76,126,110,36,18,20,11,0.5,0.4
2022-10-21T22:00:00,1619A,118.295,35.0583,临沂市,鲁南制药厂,颗粒物(PM10),62,73,42,37,21,146,68,131,113,45,28,44,15,0.5,0.5
2022-10-21T22:00:00,1620A,118.2794,34.9976,临沂市,新光毛纺厂,颗粒物(PM10),65,80,48,39,22,140,53,123,98,55,30,55,12,0.8,0.7
2022-10-21T22:00:00,1621A,118.3956,35.0888,临沂市,河东保险公司,颗粒物(PM10),59,68,42,31,20,145,42,128,101,49,22,6,6,0.8,0.6
2022-10-21T22:00:00,1622A,116.3032,37.4674,德州市,儿童乐园,细颗粒物(PM2.5),94,135,96,70,44,165,87,140,130,64,47,9,11,0.7,0.6
2022-10-21T22:00:00,1624A,116.2991,37.4451,德州市,监理站,细颗粒物(PM2.5),109,143,104,82,58,168,87,145,133,60,43,12,14,0.7,0.7
2022-10-21T22:00:00,1625A,115.9848,36.4372,聊城市,区政府,颗粒物(PM10),67,84,78,40,34,169,104,134,128,38,25,10,11,0.6,0.6
2022-10-21T22:00:00,1628A,118.0062,37.3803,滨州市,市环保局,颗粒物(PM10),95,140,92,69,42,164,59,139,118,60,39,25,18,0.9,0.8
2022-10-21T22:00:00,1629A,118.0018,37.3617,滨州市,第二水厂,颗粒物(PM10),95,139,87,66,39,163,39,134,106,86,53,19,13,0.9,0.7
2022-10-21T22:00:00,1630A,117.9776,37.393,滨州市,北中新校,细颗粒物(PM2.5),87,102,70,64,37,159,59,129,98,67,50,22,15,0.9,0.7
2022-10-21T22:00:00,1631A,118.0414,36.8103,淄博市,人民公园,颗粒物(PM10),102,153,78,72,40,165,5,142,96,125,47,8,7,1.7,0.7
2022-10-21T22:00:00,1632A,118.0253,36.8406,淄博市,东风化工厂,,,,,,,,,,,,,,,,
2022-10-21T22:00:00,1633A,117.8525,36.4847,淄博市,双山,细颗粒物(PM2.5),69,85,57,50,33,150,50,135,105,63,31,10,10,0.7,0.7
2022-10-21T22:00:00,1634A,117.9592,36.6331,淄博市,气象站,颗粒物(PM10),95,139,68,56,28,156,17,138,85,93,39,21,9,1.0,0.7
2022-10-21T22:00:00,1635A,118.3092,36.8194,淄博市,莆田园,,,,86,,45,164,,133,109,106,54,18,9,5.1,1.4
2022-10-21T22:00:00,1636A,117.8661,36.805,淄博市,三金集团,,,,,,,,,,,,,,,,
2022-10-21T22:00:00,1637A,117.558,34.8438,枣庄市,市中区政府,颗粒物(PM10),85,119,70,53,27,158,43,138,118,76,35,11,13,0.8,0.6
2022-10-21T22:00:00,1638A,117.2852,34.7837,枣庄市,薛城环保局,颗粒物(PM10),69,88,70,41,31,152,66,131,108,69,38,13,12,0.8,0.7
2022-10-21T22:00:00,1639A,117.5852,34.7745,枣庄市,峄城区政府,,,,67,56,28,156,,131,107,61,33,10,13,1.1,0.9
2022-10-21T22:00:00,1640A,117.7276,34.5578,枣庄市,台儿庄区环保局,颗粒物(PM10),58,66,54,34,26,153,15,126,97,73,36,10,13,0.9,0.8
2022-10-21T22:00:00,1641A,117.4518,35.0992,枣庄市,山亭区环保局,颗粒物(PM10),64,78,54,37,26,171,64,150,120,51,27,11,13,1.1,0.8
2022-10-21T22:00:00,1642A,121.2514,37.5639,烟台市,开发区,颗粒物(PM10),56,61,19,22,10,113,6,95,62,89,26,9,8,0.7,0.4
2022-10-21T22:00:00,1643A,121.3719,37.5433,烟台市,轴承厂,颗粒物(PM10),57,63,28,35,13,119,25,105,72,60,20,7,8,0.5,0.2
2022-10-21T22:00:00,1644A,121.3181,37.5436,烟台市,西郊化工站,颗粒物(PM10),65,80,34,23,10,115,33,105,65,60,22,8,9,0.9,0.8
2022-10-21T22:00:00,1645A,121.4478,37.4822,烟台市,莱山环保局,颗粒物(PM10),51,51,26,19,8,117,41,108,84,42,16,7,7,0.4,0.3
2022-10-21T22:00:00,1646A,121.2611,37.4967,烟台市,福山环保局,颗粒物(PM10),64,78,34,34,10,99,8,90,58,90,37,8,7,0.6,0.6
2022-10-21T22:00:00,1648A,119.12,36.7019,潍坊市,仲裁委,,,,,,,,,,,,,,,,
2022-10-21T22:00:00,1650A,119.1437,36.7023,潍坊市,环保局,颗粒物(PM10),79,107,53,46,24,118,9,97,56,97,41,5,5,1.0,0.6
2022-10-21T22:00:00,1652A,119.1936,36.7729,潍坊市,寒亭监测站,,,,,,,,,,,,,,,,
2022-10-21T22:00:00,1653A,116.6251,35.4302,济宁市,火炬城,颗粒物(PM10),58,65,50,36,25,169,86,158,148,37,22,8,10,0.8,0.5
2022-10-21T22:00:00,1655A,116.5491,35.4042,济宁市,电化厂,颗粒物(PM10),63,75,60,41,30,166,115,145,138,33,22,10,11,0.7,0.6
2022-10-21T22:00:00,1656A,117.1437,36.1937,泰安市,监测站,颗粒物(PM10),65,80,61,29,21,162,40,142,126,52,21,8,10,0.6,0.4
2022-10-21T22:00:00,1657A,117.0885,36.2017,泰安市,人口学校,颗粒物(PM10),52,53,55,24,21,147,97,131,123,19,19,8,11,0.2,0.2
2022-10-21T22:00:00,1658A,117.1089,36.1758,泰安市,电力学校,颗粒物(PM10),57,63,57,26,21,155,54,138,116,45,26,7,9,0.8,0.7
2022-10-21T22:00:00,1659A,119.471,35.4209,日照市,监测站,颗粒物(PM10),53,56,35,31,14,127,0,107,70,77,36,9,10,1.4,0.9
2022-10-21T22:00:00,1660A,119.523,35.4216,日照市,市政府广场,,22,22,31,11,11,126,41,107,93,39,27,7,8,0.5,0.6
2022-10-21T22:00:00,1661A,119.5587,35.4044,日照市,港务局,,31,31,35,12,11,148,47,117,104,46,27,5,8,0.4,0.5
2022-10-21T22:00:00,1662A,122.1214,37.4236,威海市,华夏技校,,30,19,19,7,9,110,94,104,96,5,9,5,4,0.1,0.2
2022-10-21T22:00:00,1663A,122.0508,37.5236,威海市,山大分校,,29,22,19,7,6,115,90,107,97,11,12,2,3,0.2,0.2
2022-10-21T22:00:00,1664A,122.1067,37.5072,威海市,市监测站,,28,17,18,10,10,113,88,108,89,13,15,3,4,0.4,0.4
2022-10-21T22:00:00,1665A,118.5019,37.4658,东营市,西城阳光环保公司,,,,,,,,,,,,,,,,
2022-10-21T22:00:00,1666A,118.6614,37.4309,东营市,市环保局,颗粒物(PM10),70,90,60,48,31,145,42,117,94,52,35,17,18,0.9,0.9
2022-10-21T22:00:00,1669A,113.5824,24.7733,韶关市,市八中,颗粒物(PM10),60,69,53,29,27,168,62,151,104,47,30,14,17,0.7,0.6
2022-10-21T22:00:00,1670A,113.5556,24.8082,韶关市,碧湖山庄,,,,,,,,,,,,,,,,
2022-10-21T22:00:00,1671A,113.5917,24.7972,韶关市,园林处,颗粒物(PM10),52,53,54,28,34,171,66,155,120,33,32,15,17,0.8,0.5
2022-10-21T22:00:00,1672A,113.6735,24.7791,韶关市,韶关学院,细颗粒物(PM2.5),77,66,60,56,37,160,27,147,104,56,33,13,12,0.8,0.7
2022-10-21T22:00:00,1673A,113.5971,24.6863,韶关市,曲江监测站,颗粒物(PM10),52,53,64,33,32,179,45,164,112,47,35,10,16,0.9,1
2022-10-21T22:00:00,1674A,116.6794,23.3667,汕头市,金平子站,,33,33,38,19,15,142,79,125,114,18,17,10,11,0.5,0.5
2022-10-21T22:00:00,1675A,116.7244,23.3633,汕头市,龙湖子站,颗粒物(PM10),52,54,47,16,13,141,72,122,110,24,15,11,11,0.5,0.5
2022-10-21T22:00:00,1676A,116.7258,23.2775,汕头市,濠江子站,,38,35,34,26,15,141,79,119,109,13,13,8,9,0.6,0.6
2022-10-21T22:00:00,1677A,116.7519,23.4714,汕头市,澄海子站,,41,41,36,19,18,139,83,122,112,20,17,12,15,0.6,0.6
2022-10-21T22:00:00,1678A,116.6092,23.2539,汕头市,潮阳子站,,38,38,36,15,14,134,81,118,108,11,13,7,10,0.6,0.6
2022-10-21T22:00:00,1679A,116.4069,23.2533,汕头市,潮南子站,,,,,,,,,,,,,,,,
2022-10-21T22:00:00,1680A,110.3539,21.2706,湛江市,湛江影剧院,,40,40,46,21,22,156,107,140,130,18,14,6,8,0.5,0.5
2022-10-21T22:00:00,1681A,110.3928,21.2228,湛江市,市环境监测站,,36,31,41,18,23,150,113,136,130,8,10,5,8,0.4,0.4
2022-10-21T22:00:00,1682A,110.4019,21.1997,湛江市,环保局宿舍,,36,36,38,18,21,149,110,135,126,14,10,6,7,0.5,0.5
2022-10-21T22:00:00,1683A,110.4111,21.2028,湛江市,霞山游泳场,,42,42,42,17,20,147,109,133,127,15,10,6,7,0.5,0.5
2022-10-21T22:00:00,1684A,110.3316,21.2679,湛江市,麻章区环保局,颗粒物(PM10),56,62,51,31,28,158,89,140,121,27,15,5,8,0.5,0.5
2022-10-21T22:00:00,1685A,110.4558,21.2567,湛江市,坡头区环保局,颗粒物(PM10),59,68,40,20,22,156,98,142,129,9,9,5,7,0.5,0.6
2022-10-21T22:00:00,1686A,111.0286,21.4688,茂名市,电白南海,颗粒物(PM10),56,61,65,19,24,150,81,137,115,44,20,6,11,0.4,0.4
2022-10-21T22:00:00,1687A,110.9294,21.6533,茂名市,茂石化七小,颗粒物(PM10),63,75,66,34,32,159,112,147,132,17,17,15,18,0.6,0.6
2022-10-21T22:00:00,1688A,110.9107,21.6687,茂名市,健康路,颗粒物(PM10),65,80,61,45,28,166,92,155,133,20,18,10,17,0.7,0.7
2022-10-21T22:00:00,1689A,110.8592,21.6828,茂名市,高岭,颗粒物(PM10),57,63,67,29,39,175,88,158,131,28,22,15,21,0.6,0.7
2022-10-21T22:00:00,1690A,116.1231,24.3284,梅州市,梅江月梅,颗粒物(PM10),51,51,41,34,31,173,70,150,127,35,26,10,12,0.5,0.4
2022-10-21T22:00:00,1691A,116.0797,24.2719,梅州市,梅县新城,颗粒物(PM10),61,72,48,37,25,160,29,140,94,69,36,11,9,0.7,0.5
2022-10-21T22:00:00,1692A,116.1248,24.2654,梅州市,环境监控中心,颗粒物(PM10),51,52,51,28,23,159,31,143,99,69,40,7,8,0.6,0.4
2022-10-21T22:00:00,1693A,115.3653,22.775,汕尾市,市环保局,,36,32,36,12,16,125,115,107,105,7,10,8,8,0.6,0.5
2022-10-21T22:00:00,1694A,115.3706,22.7898,汕尾市,市政府,,35,26,35,23,18,125,111,109,107,10,10,9,8,0.6,0.5
2022-10-21T22:00:00,1695A,115.3622,22.7925,汕尾市,新城中学,,38,38,52,19,17,124,110,108,106,10,9,9,10,0.5,0.4
2022-10-21T22:00:00,1696A,114.6778,23.7569,河源市,源西(对照点),颗粒物(PM10),57,64,50,26,22,156,33,131,80,63,42,5,7,0.4,0.4
2022-10-21T22:00:00,1697A,114.6944,23.7586,河源市,东埔,颗粒物(PM10),56,61,49,33,24,164,47,141,92,44,34,5,6,1.1,0.7
2022-10-21T22:00:00,1698A,114.6892,23.7233,河源市,老城,颗粒物(PM10),56,62,52,26,22,162,62,141,106,27,25,4,6,0.7,0.6
2022-10-21T22:00:00,1699A,111.9797,21.8593,阳江市,鸳鸯湖(对照点),,42,28,49,21,32,173,134,155,146,4,12,5,8,0.6,0.7
2022-10-21T22:00:00,1700A,111.9508,21.8536,阳江市,南恩路,,,,,,,,,,,,,,,,
2022-10-21T22:00:00,1701A,111.9491,21.8658,阳江市,马南垌,,41,34,51,28,28,176,130,153,146,13,22,7,9,0.6,0.6
2022-10-21T22:00:00,1702A,113.0426,23.691,清远市,环保大楼(对照点),细颗粒物(PM2.5),59,63,52,42,35,246,45,225,154,77,36,6,8,1.0,0.9
2022-10-21T22:00:00,1703A,113.0208,23.7106,清远市,凤城街办,颗粒物(PM10),54,58,54,37,34,222,63,188,133,46,35,2,5,1.3,0.9
2022-10-21T22:00:00,1705A,116.6367,23.6719,潮州市,西园路(对照点),颗粒物(PM10),66,81,45,34,22,142,71,131,120,21,13,9,9,0.6,0.5
2022-10-21T22:00:00,1706A,116.6447,23.6706,潮州市,档案局,颗粒物(PM10),56,62,43,31,23,141,66,130,116,21,11,11,11,0.8,0.6
2022-10-21T22:00:00,1708A,116.3701,23.5345,揭阳市,新兴,细颗粒物(PM2.5),62,55,51,44,29,159,91,144,128,18,12,11,15,0.7,0.6
2022-10-21T22:00:00,1709A,116.3264,23.5443,揭阳市,西马,颗粒物(PM10),62,73,54,37,26,147,82,133,121,23,14,8,11,0.8,0.6
2022-10-21T22:00:00,1710A,116.3611,23.5626,揭阳市,东兴,颗粒物(PM10),52,54,55,26,23,148,86,131,120,20,20,12,13,0.9,0.6
2022-10-21T22:00:00,1711A,116.4151,23.5294,揭阳市,渔湖,细颗粒物(PM2.5),65,72,54,47,26,136,73,123,110,22,20,9,14,0.6,0.6
2022-10-21T22:00:00,1712A,112.0392,22.9169,云浮市,新市府(对照点),,,,,,,,,,,,,,,,
2022-10-21T22:00:00,1713A,112.0369,22.9394,云浮市,市监测站,,,,,,,,,,,,,,,,
2022-10-21T22:00:00,1714A,112.0539,22.9539,云浮市,牧羊,颗粒物(PM10),52,54,65,32,35,226,114,195,167,32,38,65,32,0.8,0.9
2022-10-21T22:00:00,1715A,102.575,24.3711,玉溪市,东风水库,,29,27,35,20,22,76,26,65,53,15,17,4,5,0.8,1
2022-10-21T22:00:00,1718A,115.4208,35.2464,菏泽市,气象局,颗粒物(PM10),76,102,85,50,40,184,108,163,148,47,31,9,8,0.8,0.6
2022-10-21T22:00:00,1719A,115.4747,35.2375,菏泽市,市政协,颗粒物(PM10),81,111,85,58,46,187,100,157,130,51,39,4,4,0.5,0.5
2022-10-21T22:00:00,1720A,115.455,35.27,菏泽市,菏泽学院,,,,,,,,,,,,,,,,
2022-10-21T22:00:00,1721A,113.3819,40.1097,大同市,果树场(对照点),,,,,,,,,,,,,,,,
2022-10-21T22:00:00,1723A,113.2994,40.0758,大同市,云冈宾馆,颗粒物(PM10),64,78,101,23,49,144,78,119,104,23,35,19,18,0.4,1.1
2022-10-21T22:00:00,1724A,113.3444,40.0917,大同市,大同大学,颗粒物(PM10),62,74,89,22,40,159,87,129,113,13,25,13,18,0.4,0.7
2022-10-21T22:00:00,1725A,113.2661,40.1269,大同市,安家小村,,,,,,,,,,,,,,,,
2022-10-21T22:00:00,1726A,113.2711,40.0844,大同市,教育学院,颗粒物(PM10),68,86,114,28,62,145,75,119,102,20,39,18,19,0.4,1.2
2022-10-21T22:00:00,1727A,113.1147,36.1547,长治市,清华站,细颗粒物(PM2.5),94,136,85,70,54,189,6,145,87,87,55,8,12,1.0,0.9
2022-10-21T22:00:00,1728A,113.1031,36.1989,长治市,监测站,细颗粒物(PM2.5),94,131,75,70,50,172,20,130,80,79,50,13,11,1.6,0.8
2022-10-21T22:00:00,1730A,113.0886,36.2125,长治市,审计局,细颗粒物(PM2.5),100,126,72,75,52,175,12,133,85,99,56,8,7,1.5,0.7
2022-10-21T22:00:00,1731A,113.0844,36.1856,长治市,长治八中,颗粒物(PM10),126,202,93,77,47,171,4,139,76,87,48,11,14,1.3,0.6
2022-10-21T22:00:00,1733A,111.5531,36.0783,临汾市,临钢医院,细颗粒物(PM2.5),112,95,66,84,68,162,48,135,116,36,28,2,7,1.3,0.9
2022-10-21T22:00:00,1734A,111.5028,36.0714,临汾市,技工学校,细颗粒物(PM2.5),173,106,73,131,72,164,58,164,124,42,35,13,15,1.5,1
2022-10-21T22:00:00,1735A,111.5169,36.0822,临汾市,工商学校,,,,,,,,,,,,,,,,
2022-10-21T22:00:00,1736A,111.5018,36.0855,临汾市,市委,细颗粒物(PM2.5),148,118,72,113,64,164,70,134,125,36,34,7,10,1.4,0.9
2022-10-21T22:00:00,1738A,113.5758,37.8572,阳泉市,市中心,细颗粒物(PM2.5),100,137,134,75,69,150,55,117,99,83,61,18,18,0.9,1.1
2022-10-21T22:00:00,1739A,113.4894,37.8731,阳泉市,赛鱼,细颗粒物(PM2.5),97,132,116,72,72,144,12,117,80,118,65,19,17,0.7,0.8
2022-10-21T22:00:00,1740A,113.5819,37.8486,阳泉市,南庄,细颗粒物(PM2.5),105,134,132,79,76,148,71,126,114,66,45,20,21,1.0,1.1
2022-10-21T22:00:00,1741A,113.6292,37.8531,阳泉市,白羊墅,,,,,,,,,,,,,,,,
2022-10-21T22:00:00,1742A,113.5614,37.8703,阳泉市,平坦,细颗粒物(PM2.5),109,141,134,82,78,154,52,129,106,92,62,18,15,1.0,1.1
2022-10-21T22:00:00,1743A,113.5158,37.8392,阳泉市,大阳泉,细颗粒物(PM2.5),114,107,101,86,69,153,112,136,130,38,40,16,17,0.8,0.8
2022-10-21T22:00:00,1744A,118.9233,42.2816,赤峰市,松山一中,,19,19,56,4,29,125,55,125,70,27,23,11,12,0.4,0.6
2022-10-21T22:00:00,1745A,118.9576,42.2728,赤峰市,哈达街,,25,25,58,7,28,136,58,135,68,13,21,10,14,0.5,0.7
2022-10-21T22:00:00,1746A,118.8788,42.2554,赤峰市,天义路,,21,21,53,10,27,128,52,128,72,27,22,11,13,0.4,0.6
2022-10-21T22:00:00,1748A,123.044,41.1196,鞍山市,深沟寺,细颗粒物(PM2.5),89,100,62,66,37,157,93,143,128,33,22,8,11,1.0,0.7
2022-10-21T22:00:00,1749A,123.011,41.0931,鞍山市,太阳城,细颗粒物(PM2.5),90,105,64,67,36,155,110,139,129,22,19,8,10,0.9,0.7
2022-10-21T22:00:00,1750A,123.0485,41.1442,鞍山市,太平,细颗粒物(PM2.5),118,141,70,89,41,134,46,122,94,80,35,11,16,1.3,0.7
2022-10-21T22:00:00,1751A,122.9642,41.0971,鞍山市,铁西三道街,细颗粒物(PM2.5),148,202,93,113,48,149,8,129,80,121,49,8,14,1.9,1.3
2022-10-21T22:00:00,1752A,122.9341,41.0833,鞍山市,铁西工业园区,细颗粒物(PM2.5),124,190,84,94,48,152,5,132,84,128,34,9,11,1.2,0.7
2022-10-21T22:00:00,1753A,123.022,41.0821,鞍山市,明达新区,细颗粒物(PM2.5),104,119,65,78,39,146,87,134,119,27,17,9,11,1.1,0.8
2022-10-21T22:00:00,1754A,123.1289,41.0228,鞍山市,千山(对照点),,,,,,,,,,,,,,,,
2022-10-21T22:00:00,1755A,123.7977,41.8491,抚顺市,望花区,细颗粒物(PM2.5),104,127,79,78,42,131,17,121,78,79,35,14,18,1.4,1.2
2022-10-21T22:00:00,1756A,123.9161,41.8822,抚顺市,顺城区,细颗粒物(PM2.5),124,147,73,94,38,122,10,116,81,80,32,12,16,1.5,1
2022-10-21T22:00:00,1757A,124.0436,41.8611,抚顺市,东洲区,细颗粒物(PM2.5),118,151,75,89,39,131,65,123,102,46,26,13,15,1.3,0.9
2022-10-21T22:00:00,1758A,123.9247,41.8642,抚顺市,新抚区,细颗粒物(PM2.5),109,148,78,82,40,132,35,126,96,57,29,4,7,1.4,0.9
2022-10-21T22:00:00,1759A,124.0972,41.8961,抚顺市,大伙房水库,细颗粒物(PM2.5),113,145,70,85,37,126,50,120,96,52,19,8,9,1.3,0.8
2022-10-21T22:00:00,1760A,123.7086,41.8391,抚顺市,沈抚新城,颗粒物(PM10),68,86,80,39,38,128,18,117,83,61,24,10,13,0.6,0.7
2022-10-21T22:00:00,1761A,123.8275,41.3064,本溪市,大峪,细颗粒物(PM2.5),77,72,43,56,30,128,71,122,102,43,22,12,10,1.3,0.7
2022-10-21T22:00:00,1762A,123.7567,41.3325,本溪市,溪湖,细颗粒物(PM2.5),138,177,70,105,44,150,21,131,105,84,33,9,18,1.1,0.9
2022-10-21T22:00:00,1763A,123.7169,41.3094,本溪市,彩屯,细颗粒物(PM2.5),122,136,104,92,65,141,48,119,89,51,46,11,25,1.2,2.1
2022-10-21T22:00:00,1764A,123.7669,41.2864,本溪市,东明,细颗粒物(PM2.5),117,126,62,88,34,140,17,135,85,107,34,13,13,1.9,0.8
2022-10-21T22:00:00,1765A,123.7992,41.2664,本溪市,新立屯,细颗粒物(PM2.5),83,81,46,61,31,137,9,130,63,105,36,9,9,1.0,0.8
2022-10-21T22:00:00,1766A,123.8142,41.3472,本溪市,威宁,颗粒物(PM10),105,159,62,75,26,126,7,110,74,105,32,8,9,1.3,0.7
2022-10-21T22:00:00,1767A,121.1115,41.0879,锦州市,南山,细颗粒物(PM2.5),204,130,71,154,80,129,30,107,77,68,43,17,14,2.8,1
2022-10-21T22:00:00,1768A,121.0533,40.8434,锦州市,开发区,细颗粒物(PM2.5),196,81,90,147,84,130,28,128,81,68,43,8,70,1.5,1.2
2022-10-21T22:00:00,1769A,121.1836,41.1119,锦州市,百股街道,细颗粒物(PM2.5),201,219,85,151,69,135,29,120,81,69,40,24,22,2.0,1.4
2022-10-21T22:00:00,1770A,121.1178,41.1222,锦州市,天安街道,细颗粒物(PM2.5),189,172,79,142,73,127,55,114,86,58,43,39,16,2.6,1
2022-10-21T22:00:00,1771A,121.1303,41.1386,锦州市,北湖公园,细颗粒物(PM2.5),162,125,72,123,70,140,70,115,90,39,31,34,16,1.9,1.2
2022-10-21T22:00:00,1772A,126.54,43.8622,吉林市,哈达湾,颗粒物(PM10),63,76,51,40,27,131,80,124,99,30,20,15,10,0.6,0.7
2022-10-21T22:00:00,1773A,126.5844,43.8358,吉林市,东局子,颗粒物(PM10),67,83,58,42,29,127,71,120,92,34,22,14,6,0.7,0.6
2022-10-21T22:00:00,1774A,126.5052,43.8245,吉林市,电力学院,颗粒物(PM10),59,68,51,33,26,131,74,124,108,30,17,10,10,0.7,0.7
2022-10-21T22:00:00,1775A,126.6133,43.8972,吉林市,江北,颗粒物(PM10),61,72,53,36,25,128,63,119,94,28,19,8,8,0.8,0.6
2022-10-21T22:00:00,1776A,126.555,43.8306,吉林市,江南公园,颗粒物(PM10),61,72,53,36,27,128,77,121,95,28,17,10,8,0.5,0.5
2022-10-21T22:00:00,1778A,126.7061,43.7133,吉林市,丰满(对照点),,,,,,,,,,,,,,,,
2022-10-21T22:00:00,1779A,123.9305,47.3636,齐齐哈尔市,安居小区,,26,26,71,10,24,62,30,52,39,12,20,5,6,0.5,0.5
2022-10-21T22:00:00,1780A,123.9488,47.3386,齐齐哈尔市,中心广场,,20,20,63,6,20,66,34,55,40,13,20,6,9,0.3,0.4
2022-10-21T22:00:00,1781A,123.9483,47.3227,齐齐哈尔市,农牧车辆厂,,14,14,63,8,20,70,37,58,44,8,18,5,8,0.3,0.4
2022-10-21T22:00:00,1783A,123.945,47.2988,齐齐哈尔市,市环境监测站,,12,10,65,5,28,68,37,57,44,8,14,3,5,0.3,0.3
2022-10-21T22:00:00,1784A,129.61,44.561,牡丹江市,环保大楼,颗粒物(PM10),67,84,69,38,34,118,100,108,102,17,33,3,5,0.5,0.7
2022-10-21T22:00:00,1785A,129.6115,44.5782,牡丹江市,文化广场,颗粒物(PM10),70,90,83,37,35,112,97,99,92,15,39,4,6,0.6,0.9
2022-10-21T22:00:00,1786A,129.5904,44.5963,牡丹江市,第一医院,颗粒物(PM10),64,78,70,42,31,109,93,100,93,14,31,6,10,0.8,0.9
2022-10-21T22:00:00,1787A,129.6364,44.6075,牡丹江市,机车工厂,颗粒物(PM10),84,117,93,53,35,113,104,103,95,14,36,3,2,1.8,0.9
2022-10-21T22:00:00,1788A,129.6386,44.5462,牡丹江市,第一中学,颗粒物(PM10),65,80,59,38,24,118,95,111,102,16,32,2,3,0.6,0.6
2022-10-21T22:00:00,1789A,124.81117,46.03138,大庆市,大同区,,29,29,80,18,42,89,27,85,52,30,21,4,5,0.4,0.5
2022-10-21T22:00:00,1790A,125.129,46.533,大庆市,龙凤区,,19,19,65,10,35,72,34,72,45,17,17,4,5,0.2,0.6
2022-10-21T22:00:00,1791A,124.902,46.408,大庆市,红岗区,,32,32,65,22,39,82,29,81,46,21,21,6,6,0.4,0.6
2022-10-21T22:00:00,1792A,125.153,46.586,大庆市,萨尔图区,,25,25,87,14,51,80,36,80,35,16,25,8,9,0.4,0.7
2022-10-21T22:00:00,1793A,124.9042,46.6215,大庆市,让胡路区,,45,25,67,31,43,71,33,68,44,15,23,2,4,0.3,0.5
2022-10-21T22:00:00,1794A,118.3606,31.3519,芜湖市,监测站,颗粒物(PM10),81,111,58,48,31,91,5,76,39,124,54,25,12,1.9,0.7
2022-10-21T22:00:00,1795A,118.3714,31.4134,芜湖市,科创中心,颗粒物(PM10),85,120,59,45,30,89,1,81,44,119,54,17,9,1.5,0.6
2022-10-21T22:00:00,1796A,118.3673,31.3131,芜湖市,四水厂,颗粒物(PM10),76,102,56,46,28,99,4,80,46,117,47,22,11,1.8,0.6
2022-10-21T22:00:00,1797A,118.4022,31.3839,芜湖市,济民医院(对照点),,,,,,,,,,,,,,,,
2022-10-21T22:00:00,1798A,118.5092,31.6837,马鞍山市,湖东路四小,颗粒物(PM10),62,74,54,38,31,102,4,92,34,98,46,10,12,1.2,0.9
2022-10-21T22:00:00,1799A,118.5024,31.6449,马鞍山市,开发区,"颗粒物(PM10),细颗粒物(PM2.5)",60,70,58,43,31,103,13,90,50,90,54,11,12,1.0,1
2022-10-21T22:00:00,1800A,118.5228,31.7231,马鞍山市,慈湖,颗粒物(PM10),73,96,61,38,29,101,5,86,34,101,59,10,16,1.0,0.9
2022-10-21T22:00:00,1801A,118.48,31.6928,马鞍山市,马钢动力厂,,,,,,,,,,,,,,,,
2022-10-21T22:00:00,1802A,118.6245,31.7241,马鞍山市,濮塘(对照点),颗粒物(PM10),51,51,39,28,21,127,54,108,81,24,18,4,5,0.6,0.5
2022-10-21T22:00:00,1803A,115.9872,29.6815,九江市,十里,细颗粒物(PM2.5),104,108,64,78,38,201,77,160,138,52,52,13,9,0.9,0.8
2022-10-21T22:00:00,1804A,115.9584,29.7046,九江市,茅山头,细颗粒物(PM2.5),94,108,66,70,40,188,89,150,132,33,45,18,12,1.0,0.9
2022-10-21T22:00:00,1805A,115.9877,29.7295,九江市,西园,细颗粒物(PM2.5),108,121,78,81,48,176,69,136,118,66,56,18,13,0.9,0.7
2022-10-21T22:00:00,1806A,116.0172,29.6547,九江市,五七二七厂,颗粒物(PM10),72,94,58,49,32,194,104,157,137,23,30,12,9,0.5,0.6
2022-10-21T22:00:00,1808A,115.9114,29.6038,九江市,综合工业园,,,88,62,63,42,174,83,141,121,41,59,,11,0.6,0.8
2022-10-21T22:00:00,1809A,116.0721,29.7535,九江市,石化总厂,细颗粒物(PM2.5),117,140,83,88,47,180,75,147,120,51,42,17,12,0.9,0.8
2022-10-21T22:00:00,1810A,115.9773,29.5698,九江市,庐山气象台(对照点),,36,25,19,16,16,154,114,140,138,8,10,8,8,0.6,0.6
2022-10-21T22:00:00,1811A,112.3628,34.6692,洛阳市,中信二小,,,,,,,,,,,,,,,,
2022-10-21T22:00:00,1812A,112.3931,34.6516,洛阳市,市委党校,颗粒物(PM10),90,129,106,60,58,168,20,128,85,96,44,9,8,1.0,0.7
2022-10-21T22:00:00,1814A,112.4657,34.6871,洛阳市,豫西宾馆,颗粒物(PM10),92,133,128,67,74,173,3,142,99,108,58,6,10,0.9,0.8
2022-10-21T22:00:00,1815A,112.494,34.6886,洛阳市,河南林校,细颗粒物(PM2.5),87,109,111,64,65,170,9,140,94,89,42,5,6,0.7,0.6
2022-10-21T22:00:00,1816A,112.3844,34.623,洛阳市,开发区管委会,细颗粒物(PM2.5),78,84,80,57,58,164,72,138,112,47,30,6,6,0.5,0.4
2022-10-21T22:00:00,1817A,112.4267,34.6258,洛阳市,市委新办公区,细颗粒物(PM2.5),79,96,87,58,61,163,40,132,90,72,31,5,8,0.7,0.6
2022-10-21T22:00:00,1818A,114.4839,36.0621,安阳市,棉研所(对照点),,,,,,,,,,,,,,,,
2022-10-21T22:00:00,1819A,114.3551,36.1017,安阳市,红庙街,细颗粒物(PM2.5),114,142,105,86,71,174,38,140,99,71,50,41,16,1.1,0.7
2022-10-21T22:00:00,1820A,114.361,36.0681,安阳市,银杏小区,细颗粒物(PM2.5),109,113,97,82,75,172,38,143,112,94,55,74,18,1.1,0.7
2022-10-21T22:00:00,1824A,114.3389,34.7781,开封市,肿瘤医院,细颗粒物(PM2.5),132,126,105,100,76,196,61,160,130,60,46,6,10,1.1,0.7
2022-10-21T22:00:00,1826A,114.2885,34.7965,开封市,世纪星幼儿园,颗粒物(PM10),120,189,102,75,79,180,7,152,101,97,44,7,9,1.8,0.9
2022-10-21T22:00:00,1828A,113.227,35.2125,焦作市,市环保局,细颗粒物(PM2.5),100,124,102,75,67,167,84,142,133,33,34,12,11,1.1,0.9
2022-10-21T22:00:00,1829A,113.2464,35.1764,焦作市,高新区政府（停运20220628）,,,,,,,,,,,,,,,,
2022-10-21T22:00:00,1830A,113.1992,35.2590,焦作市,影视城(对照点),,,,,,,,,,,,,,,,
2022-10-21T22:00:00,1832A,113.3257,33.742,平顶山市,新华旅馆,细颗粒物(PM2.5),93,104,115,69,74,162,6,135,89,83,40,6,7,0.8,0.7
2022-10-21T22:00:00,1833A,113.2919,33.737,平顶山市,规划设计院,颗粒物(PM10),82,114,115,56,66,178,4,145,93,90,50,4,7,0.9,0.5
2022-10-21T22:00:00,1834A,113.182,33.774,平顶山市,平顶山工学院,细颗粒物(PM2.5),89,104,104,66,62,182,137,182,159,19,31,6,8,0.7,0.7
2022-10-21T22:00:00,1835A,111.1922,34.7752,三门峡市,市政府,细颗粒物(PM2.5),98,114,79,73,67,152,7,119,90,102,98,6,12,0.7,0.7
2022-10-21T22:00:00,1836A,111.1587,34.7942,三门峡市,开发区,细颗粒物(PM2.5),94,110,102,70,67,169,66,142,128,45,31,6,10,0.9,0.8
2022-10-21T22:00:00,1838A,111.143,34.7955,三门峡市,风景区(对照点),,,,,,,,,,,,,,,,
2022-10-21T22:00:00,1839A,111.3009,30.7157,宜昌市,四零三,,,,,,,,,,,,,,,,
2022-10-21T22:00:00,1840A,111.2992,30.6981,宜昌市,白龙岗,细颗粒物(PM2.5),104,102,85,78,60,194,121,165,144,35,37,5,6,0.7,0.7
2022-10-21T22:00:00,1841A,111.3549,30.6465,宜昌市,伍家岗,,,,95,,61,192,33,151,128,88,51,7,7,0.8,0.6
2022-10-21T22:00:00,1842A,111.2628,30.6961,宜昌市,点军区,细颗粒物(PM2.5),104,128,95,78,64,191,55,163,136,41,28,7,8,0.9,0.6
2022-10-21T22:00:00,1843A,111.3275,30.7819,宜昌市,夷陵区,细颗粒物(PM2.5),134,135,83,102,60,190,57,158,126,48,38,10,11,0.8,0.7
2022-10-21T22:00:00,1844A,112.2494,30.3197,荆州市,市图书馆,细颗粒物(PM2.5),105,114,127,79,113,197,70,174,145,61,51,6,9,0.8,1
2022-10-21T22:00:00,1845A,112.2008,30.3544,荆州市,市委党校,细颗粒物(PM2.5),122,128,144,92,119,200,60,176,141,64,52,6,9,1.2,1.1
2022-10-21T22:00:00,1847A,113.1094,29.3578,岳阳市,南湖风景区,"颗粒物(PM10),细颗粒物(PM2.5)",53,55,66,37,53,170,116,153,140,28,40,20,11,0.7,0.8
2022-10-21T22:00:00,1848A,113.1493,29.4251,岳阳市,城陵矶,颗粒物(PM10),52,53,74,33,47,151,95,132,120,46,54,11,9,0.5,0.7
2022-10-21T22:00:00,1849A,113.1497,29.3575,岳阳市,开发区,细颗粒物(PM2.5),53,51,71,37,54,154,115,133,127,27,41,17,14,0.6,0.8
2022-10-21T22:00:00,1850A,113.2621,29.4758,岳阳市,云溪区,细颗粒物(PM2.5),55,54,71,39,45,149,101,136,127,24,44,12,15,0.6,0.7
2022-10-21T22:00:00,1851A,112.9943,29.4402,岳阳市,君山区,细颗粒物(PM2.5),69,58,85,50,72,154,77,137,124,40,34,9,10,0.7,0.7
2022-10-21T22:00:00,1852A,113.2117,29.355,岳阳市,金凤水库(对照点),,50,42,59,35,40,152,114,136,132,19,26,8,8,0.7,0.8
2022-10-21T22:00:00,1854A,111.6975,28.9703,常德市,市二中,细颗粒物(PM2.5),70,67,72,51,52,146,62,128,109,44,32,6,9,0.5,0.5
2022-10-21T22:00:00,1857A,111.7158,29.1456,常德市,白鹤山(对照点),细颗粒物(PM2.5),55,55,52,39,42,157,105,144,125,11,13,4,3,0.5,0.5
2022-10-21T22:00:00,1858A,110.5319,29.1217,张家界市,永定新区,"颗粒物(PM10),细颗粒物(PM2.5)",53,55,54,37,36,127,42,108,92,20,18,4,4,0.2,0.2
2022-10-21T22:00:00,1859A,110.4697,29.1242,张家界市,电业局,,41,41,41,28,29,132,54,109,96,24,17,5,5,0.4,0.4
2022-10-21T22:00:00,1860A,110.5594,29.3547,张家界市,未央路,细颗粒物(PM2.5),60,36,41,43,30,123,58,118,102,10,10,3,4,0.1,0.1
2022-10-21T22:00:00,1861A,110.4417,29.315,张家界市,袁家界(对照点),,38,25,33,26,27,148,112,138,120,13,14,9,10,0.5,0.5
2022-10-21T22:00:00,1862A,110.4144,25.3167,桂林市,电子科大尧山校区(对照点),细颗粒物(PM2.5),70,53,64,51,57,175,126,168,140,11,11,24,15,0.6,0.8
2022-10-21T22:00:00,1863A,110.2819,25.2697,桂林市,监测站,细颗粒物(PM2.5),72,74,90,52,64,192,144,161,129,21,29,11,14,0.7,0.8
2022-10-21T22:00:00,1864A,110.3089,25.2708,桂林市,龙隐路小学,细颗粒物(PM2.5),65,61,74,47,65,182,143,160,136,14,22,18,20,0.7,0.7
2022-10-21T22:00:00,1865A,110.2869,25.2178,桂林市,八中,细颗粒物(PM2.5),60,65,80,43,58,188,138,161,132,24,31,12,16,0.5,0.6
2022-10-21T22:00:00,1866A,109.2262,21.588,北海市,牛尾岭水库(对照点),,,,,,,,,,,,,,,,
2022-10-21T22:00:00,1867A,109.1436,21.4086,北海市,海滩公园,细颗粒物(PM2.5),68,68,70,49,45,209,126,168,159,13,16,11,11,0.9,0.8
2022-10-21T22:00:00,1868A,109.0981,21.4661,北海市,新市环保局,细颗粒物(PM2.5),73,63,61,53,53,181,106,152,143,16,16,10,11,0.7,0.6
2022-10-21T22:00:00,1869A,109.1778,21.5233,北海市,北海工业园,"颗粒物(PM10),细颗粒物(PM2.5)",64,78,80,46,52,179,92,155,142,34,23,13,11,0.7,0.6
2022-10-21T22:00:00,1870A,109.4856,24.3895,柳州市,柳东小学,细颗粒物(PM2.5),60,61,71,43,58,168,98,162,142,14,14,30,44,0.6,0.7
2022-10-21T22:00:00,1871A,109.4157,24.3277,柳州市,环保监测站,颗粒物(PM10),81,111,89,56,60,177,55,158,111,52,33,27,27,1.0,0.7
2022-10-21T22:00:00,1872A,109.389,24.341,柳州市,河西水厂,颗粒物(PM10),107,163,106,76,64,168,45,146,102,54,36,16,26,1.4,1.5
2022-10-21T22:00:00,1873A,109.4311,24.2921,柳州市,市四中,颗粒物(PM10),109,167,100,65,53,174,21,160,107,75,30,19,28,1.7,0.9
2022-10-21T22:00:00,1874A,109.4006,24.3631,柳州市,市九中,,,84,92,53,57,174,,149,113,24,29,30,31,1.2,1.1
2022-10-21T22:00:00,1875A,109.4958,24.3134,柳州市,古亭山,细颗粒物(PM2.5),60,68,63,43,50,171,19,151,104,77,40,14,18,0.8,0.7
2022-10-21T22:00:00,1876A,109.5078,18.2489,三亚市,河东子站,,18,14,9,9,5,67,57,64,60,4,4,2,2,0.4,0.4
2022-10-21T22:00:00,1877A,109.4964,18.2681,三亚市,河西子站,,,13,8,11,5,61,,56,54,6,5,1,1,0.3,0.3
2022-10-21T22:00:00,1878A,104.7778,31.4741,绵阳市,富乐山,,43,43,46,28,33,157,34,143,116,66,27,4,5,0.7,0.5
2022-10-21T22:00:00,1879A,104.7563,31.4535,绵阳市,市人大,细颗粒物(PM2.5),92,101,60,68,36,146,0,123,86,103,50,1,3,1.3,0.7
2022-10-21T22:00:00,1880A,104.6697,31.4668,绵阳市,高新区自来水公司,颗粒物(PM10),88,126,66,33,34,160,2,131,86,98,42,15,11,0.9,0.7
2022-10-21T22:00:00,1881A,104.7287,31.5075,绵阳市,三水厂,颗粒物(PM10),69,88,74,45,38,152,2,122,81,84,44,5,5,0.8,0.6
2022-10-21T22:00:00,1882A,104.563,28.793,宜宾市,石马中学(对照点),细颗粒物(PM2.5),97,112,96,72,67,186,16,157,117,78,36,8,10,1.2,1.1
2022-10-21T22:00:00,1883A,104.6201,28.7728,宜宾市,市委,细颗粒物(PM2.5),84,104,95,62,62,206,17,161,112,100,53,11,13,0.8,0.7
2022-10-21T22:00:00,1884A,104.6055,28.793,宜宾市,宜宾四中,细颗粒物(PM2.5),108,136,102,81,70,207,35,164,114,84,49,9,8,0.9,0.8
2022-10-21T22:00:00,1885A,104.639,28.7562,宜宾市,市政府,,,138,117,69,65,210,1,163,99,120,71,9,10,1.3,0.9
2022-10-21T22:00:00,1886A,104.5742,28.7199,宜宾市,黄金嘴,细颗粒物(PM2.5),113,124,97,85,67,204,33,168,122,76,46,10,11,1.1,0.9
2022-10-21T22:00:00,1888A,101.6891,26.571,攀枝花市,弄弄坪,细颗粒物(PM2.5),73,84,104,53,61,162,61,126,116,39,43,14,24,1.3,2.1
2022-10-21T22:00:00,1889A,101.5769,26.5928,攀枝花市,河门口,颗粒物(PM10),56,61,63,38,41,172,76,144,132,28,25,29,25,1.7,1.6
2022-10-21T22:00:00,1890A,101.7169,26.585,攀枝花市,炳草岗,细颗粒物(PM2.5),87,93,75,64,71,157,5,120,92,105,52,24,32,2.2,1.7
2022-10-21T22:00:00,1891A,101.7369,26.5008,攀枝花市,仁和,细颗粒物(PM2.5),70,81,53,51,36,150,61,121,101,22,22,15,20,1.0,1.1
2022-10-21T22:00:00,1893A,105.4324,28.9634,泸州市,九狮山(对照点),细颗粒物(PM2.5),75,53,81,55,72,137,58,118,99,19,21,10,15,0.4,0.4
2022-10-21T22:00:00,1894A,105.4427,28.9063,泸州市,小市上码头,细颗粒物(PM2.5),115,128,127,87,103,199,53,185,158,96,44,10,16,0.9,0.9
2022-10-21T22:00:00,1895A,105.4241,28.8573,泸州市,兰田宪桥,颗粒物(PM10),152,254,129,92,95,196,36,168,132,76,35,13,19,1.5,0.9
2022-10-21T22:00:00,1896A,105.4379,28.8833,泸州市,市环监站,细颗粒物(PM2.5),118,127,124,89,98,169,33,158,132,109,39,10,23,1.2,0.8
2022-10-21T22:00:00,1897A,104.7547,29.3628,自贡市,大塘山(对照点),,,,,,,,,,,,,,,,
2022-10-21T22:00:00,1900A,104.7692,29.3411,自贡市,春华路,,,,,,,,,,,,,,,,
2022-10-21T22:00:00,1901A,104.4239,31.1208,德阳市,东山公园,颗粒物(PM10),61,71,74,34,38,155,74,143,132,59,34,7,11,0.8,0.6
2022-10-21T22:00:00,1902A,104.3826,31.1317,德阳市,西小区,颗粒物(PM10),84,117,77,61,40,154,4,136,97,98,48,7,23,1.2,0.7
2022-10-21T22:00:00,1903A,104.4053,31.1167,德阳市,市检察院,,,,,,,,,,,,,,,,
2022-10-21T22:00:00,1904A,104.3553,31.1091,德阳市,耐火材料厂,颗粒物(PM10),112,173,102,77,56,150,11,125,96,110,50,11,37,0.9,0.7
2022-10-21T22:00:00,1905A,106.056,30.8064,南充市,西山风景区(对照点),,,,,,,,,,,,,,,,
2022-10-21T22:00:00,1906A,106.0789,30.8023,南充市,南充市委,颗粒物(PM10),82,113,64,56,39,151,50,126,99,41,25,4,6,0.8,0.7
2022-10-21T22:00:00,1907A,106.1031,30.8217,南充市,南充炼油厂,颗粒物(PM10),75,100,68,48,38,156,5,132,99,83,30,7,11,1.0,0.6
2022-10-21T22:00:00,1908A,106.1064,30.7856,南充市,高坪区监测站,细颗粒物(PM2.5),90,118,72,67,44,142,2,115,77,87,34,9,12,1.2,0.6
2022-10-21T22:00:00,1909A,106.0642,30.7636,南充市,嘉陵区环保局,细颗粒物(PM2.5),115,75,63,87,42,161,10,131,90,,33,18,12,0.9,0.6
2022-10-21T22:00:00,1910A,106.1087,30.8388,南充市,市环境监测站,颗粒物(PM10),72,93,62,44,44,144,20,121,102,80,25,11,11,0.8,0.5
2022-10-21T22:00:00,1911A,106.9222,27.6869,遵义市,丁字口,细颗粒物(PM2.5),87,84,48,64,38,133,48,110,95,51,21,16,12,1.2,0.8
2022-10-21T22:00:00,1912A,106.9242,27.7019,遵义市,凤凰山,颗粒物(PM10),71,91,50,50,28,151,68,129,124,48,20,7,8,1.0,0.6
2022-10-21T22:00:00,1913A,106.8906,27.6486,遵义市,忠庄,颗粒物(PM10),77,103,53,50,31,147,67,129,123,49,20,6,4,0.9,0.6
2022-10-21T22:00:00,1914A,106.9231,27.6506,遵义市,舟水桥,细颗粒物(PM2.5),97,115,53,72,34,147,49,120,110,42,20,4,6,0.8,0.5
2022-10-21T22:00:00,1915A,106.9178,27.72,遵义市,干田坝,细颗粒物(PM2.5),68,83,51,49,32,142,29,120,103,62,24,9,10,0.9,0.6
2022-10-21T22:00:00,1916A,103.7897,25.5035,曲靖市,环境监测站,,47,47,48,17,28,118,48,93,76,12,23,5,6,0.7,0.5
2022-10-21T22:00:00,1917A,103.8,25.5364,曲靖市,烟厂办公区,,21,21,47,10,26,119,49,94,79,14,27,7,13,0.5,0.8
2022-10-21T22:00:00,1918A,108.7197,34.3956,咸阳市,气象站(对照点),细颗粒物(PM2.5),107,152,128,80,82,129,33,94,84,99,72,10,11,1.0,0.9
2022-10-21T22:00:00,1919A,108.673,34.3155,咸阳市,实验中学,颗粒物(PM10),132,213,149,63,75,166,7,131,102,105,67,5,6,1.7,1
2022-10-21T22:00:00,1920A,108.7233,34.3617,咸阳市,师范学院,细颗粒物(PM2.5),132,193,144,100,90,151,23,114,97,73,64,7,9,1.0,0.9
2022-10-21T22:00:00,1922A,109.0656,35.0994,铜川市,党校(对照点),细颗粒物(PM2.5),134,185,110,102,69,110,4,95,56,105,71,13,15,0.9,0.7
2022-10-21T22:00:00,1923A,109.0697,35.0697,铜川市,王益区政府,细颗粒物(PM2.5),105,148,101,79,53,142,11,120,74,72,50,21,15,1.1,0.8
2022-10-21T22:00:00,1924A,108.9344,34.9058,铜川市,新区管委会,颗粒物(PM10),91,132,104,55,49,147,83,126,103,37,36,13,15,0.8,0.7
2022-10-21T22:00:00,1925A,108.9589,34.8731,铜川市,新区兰芝公司,,,,,,,,,,,,,,,,
2022-10-21T22:00:00,1926A,109.4131,36.6275,延安市,枣园(对照点),颗粒物(PM10),58,66,52,22,27,146,24,129,92,58,32,5,5,0.4,0.6
2022-10-21T22:00:00,1927A,109.4761,36.6028,延安市,延大医附院,颗粒物(PM10),67,83,62,32,30,144,4,114,73,84,43,5,5,0.8,0.7
2022-10-21T22:00:00,1928A,109.4824,36.5767,延安市,市监测站,,,,,,,,,,,,,,,,
2022-10-21T22:00:00,1929A,109.5056,36.6106,延安市,百米大道,颗粒物(PM10),67,84,67,43,36,141,4,113,76,96,52,7,8,1.2,0.8
2022-10-21T22:00:00,1930A,107.185,34.3063,宝鸡市,庙沟村(对照点),颗粒物(PM10),58,65,66,32,35,145,71,125,113,49,27,6,6,0.6,0.6
2022-10-21T22:00:00,1931A,107.0708,34.3017,宝鸡市,竹园沟,细颗粒物(PM2.5),55,54,59,39,44,158,63,118,93,28,26,6,7,0.6,0.6
2022-10-21T22:00:00,1932A,107.1906,34.3672,宝鸡市,三陆医院,"颗粒物(PM10),细颗粒物(PM2.5)",88,126,103,65,66,160,4,129,86,86,39,8,8,1.2,0.8
2022-10-21T22:00:00,1933A,107.1431,34.3547,宝鸡市,监测站,颗粒物(PM10),62,73,80,33,50,156,31,120,87,58,44,6,7,0.7,0.7
2022-10-21T22:00:00,1934A,107.1186,34.3739,宝鸡市,技工学校,细颗粒物(PM2.5),82,99,91,60,69,161,50,125,98,46,39,7,8,0.7,0.8
2022-10-21T22:00:00,1935A,107.3906,34.3528,宝鸡市,陈仓区环保局家属楼,颗粒物(PM10),135,220,140,58,60,157,5,114,70,96,63,8,16,1.5,1
2022-10-21T22:00:00,1936A,107.2058,34.3497,宝鸡市,文理学院,颗粒物(PM10),71,92,100,39,66,160,35,128,89,64,48,7,8,0.6,0.7
2022-10-21T22:00:00,1937A,107.2386,34.3622,宝鸡市,三迪小学,颗粒物(PM10),81,111,113,50,74,163,18,121,79,87,59,8,9,0.9,0.8
2022-10-21T22:00:00,1938A,109.5293,34.5101,渭南市,农科所(对照点),细颗粒物(PM2.5),122,149,117,92,70,159,42,117,88,68,54,10,10,0.8,0.7
2022-10-21T22:00:00,1939A,109.4974,34.4877,渭南市,日报社,细颗粒物(PM2.5),153,158,121,117,87,155,24,110,74,73,68,10,14,0.7,0.6
2022-10-21T22:00:00,1940A,109.4636,34.493,渭南市,体育馆,细颗粒物(PM2.5),152,171,122,116,85,166,20,118,80,104,75,11,14,0.8,0.7
2022-10-21T22:00:00,1941A,109.4259,34.5023,渭南市,高新一小,细颗粒物(PM2.5),155,187,125,118,86,155,8,117,83,116,64,11,12,1.1,0.7
2022-10-21T22:00:00,1943A,102.1725,38.5339,金昌市,新川苑,颗粒物(PM10),90,130,55,41,15,92,49,84,69,45,18,10,8,1.0,0.6
2022-10-21T22:00:00,1944A,102.1692,38.5167,金昌市,天庆家园,颗粒物(PM10),81,111,49,39,12,89,56,83,68,36,19,8,7,0.9,0.6
2022-10-21T22:00:00,1945A,98.2908,39.7711,嘉峪关市,气象局,颗粒物(PM10),75,100,67,27,19,93,52,87,76,38,32,4,14,0.3,0.5
2022-10-21T22:00:00,1947A,106.3394,38.817,石嘴山市,沙湖旅游区(对照点),颗粒物(PM10),61,71,135,29,78,131,52,101,91,27,32,16,16,0.8,1
2022-10-21T22:00:00,1948A,106.3668,39.0145,石嘴山市,大武口朝阳西街,,36,36,85,16,41,95,83,88,85,7,36,2,9,0.2,0.9
2022-10-21T22:00:00,1949A,106.7704,39.2282,石嘴山市,惠农南大街,颗粒物(PM10),69,88,97,20,33,84,43,80,68,36,39,26,20,2.7,1.1
2022-10-21T22:00:00,1950A,106.7099,39.1325,石嘴山市,红果子镇惠新街,颗粒物(PM10),60,70,114,15,45,91,69,85,79,18,38,26,23,0.6,0.9
2022-10-21T22:00:00,1951A,84.895,45.6094,克拉玛依市,长征新村,,26,26,20,10,10,93,72,85,85,11,9,5,6,0.2,0.2
2022-10-21T22:00:00,1952A,84.8988,45.5893,克拉玛依市,南林小区,,23,18,19,14,16,96,71,88,88,13,13,1,2,0.3,0.3
2022-10-21T22:00:00,1953A,85.1186,45.6886,克拉玛依市,白碱滩区,,,,,,,,,,,,,,,,
2022-10-21T22:00:00,1954A,84.905,44.3396,克拉玛依市,独山子区,,47,47,21,25,12,83,38,75,66,36,18,6,9,0.6,0.4
2022-10-21T22:00:00,1955A,85.6979,46.098,克拉玛依市,乌尔禾区商贸楼,,34,34,18,19,11,88,42,76,72,24,11,2,3,0.2,0.2
2022-10-21T22:00:00,1956A,86.1472,41.7538,巴音郭楞州,孔雀公园,颗粒物(PM10),474,574,146,162,41,86,68,83,80,7,13,4,3,0.3,0.2
2022-10-21T22:00:00,1957A,86.1972,41.7166,巴音郭楞州,棉纺厂,颗粒物(PM10),312,429,143,118,35,93,57,88,82,15,10,5,5,0.4,0.2
2022-10-21T22:00:00,1958A,86.2357,41.7173,巴音郭楞州,经济开发区,颗粒物(PM10),179,308,106,80,26,92,51,87,80,19,7,6,6,0.3,0.2
2022-10-21T22:00:00,1959A,118.746,36.881,寿光市,监测站,,,,,,,,,,,,,,,,
2022-10-21T22:00:00,1960A,118.780,36.864,寿光市,世纪学校,,,,,,,,,,,,,,,,
2022-10-21T22:00:00,1961A,117.532,36.6868,济南市,东山小学,颗粒物(PM10),67,83,62,39,22,160,93,135,106,45,30,5,6,0.2,0.4
2022-10-21T22:00:00,1962A,117.541,36.710,章丘市,明水开发区,,,,,,,,,,,,,,,,
2022-10-21T22:00:00,1963A,120.610,36.440,即墨市,环保局子站,,,,,,,,,,,,,,,,
2022-10-21T22:00:00,1964A,120.470,36.390,即墨市,开发区子站,,,,,,,,,,,,,,,,
2022-10-21T22:00:00,1965A,120.005,35.878,胶南市,JN子站,,,,,,,,,,,,,,,,
2022-10-21T22:00:00,1966A,120.0405,35.8735,青岛市,黄岛区4号,,29,22,28,9,10,134,91,128,122,32,22,6,7,0.6,0.6
2022-10-21T22:00:00,1967A,120.008,36.283,胶州市,胶州环保局,,,,,,,,,,,,,,,,
2022-10-21T22:00:00,1968A,120.014,36.253,胶州市,胶州一中,,,,,,,,,,,,,,,,
2022-10-21T22:00:00,1969A,120.537,36.865,莱西市,环保局子站,,,,,,,,,,,,,,,,
2022-10-21T22:00:00,1970A,120.515,36.885,莱西市,人民广场子站,,,,,,,,,,,,,,,,
2022-10-21T22:00:00,1971A,119.952,36.792,平度市,1号,,,,,,,,,,,,,,,,
2022-10-21T22:00:00,1972A,119.976,36.799,平度市,2号,,,,,,,,,,,,,,,,
2022-10-21T22:00:00,1973A,120.747,37.825,蓬莱市,蓬莱环保局,,,,,,,,,,,,,,,,
2022-10-21T22:00:00,1974A,120.773,37.809,蓬莱市,蓬莱博物馆,,,,,,,,,,,,,,,,
2022-10-21T22:00:00,1975A,120.399,37.374,招远市,招远环保局,,,,,,,,,,,,,,,,
2022-10-21T22:00:00,1976A,120.394,37.364,招远市,招远教育局,,,,,,,,,,,,,,,,
2022-10-21T22:00:00,1977A,119.941,37.177,莱州市,莱州环保局,,,,,,,,,,,,,,,,
2022-10-21T22:00:00,1978A,119.959,37.180,莱州市,莱州外经委,,,,,,,,,,,,,,,,
2022-10-21T22:00:00,1979A,122.471,37.154,荣成市,荣成市环保局办公楼,,,,,,,,,,,,,,,,
2022-10-21T22:00:00,1980A,122.410,37.161,荣成市,山东成山轮胎公司,,,,,,,,,,,,,,,,
2022-10-21T22:00:00,1981A,122.038,37.197,文登市,文登市环保局,,,,,,,,,,,,,,,,
2022-10-21T22:00:00,1982A,122.0693,37.2174,威海市,文登开发区,,26,19,22,9,8,104,83,96,90,16,19,4,4,0.3,0.3
2022-10-21T22:00:00,1983A,121.531,36.913,乳山市,乳山市环保局,,,,,,,,,,,,,,,,
2022-10-21T22:00:00,1984A,121.544,36.907,乳山市,乳山市气象局,,,,,,,,,,,,,,,,
2022-10-21T22:00:00,1985A,120.636,31.155,吴江市,吴江市环保局,,,,,,,,,,,,,,,,
2022-10-21T22:00:00,1986A,120.635,31.170,吴江市,教师进修学校,,,,,,,,,,,,,,,,
2022-10-21T22:00:00,1987A,120.658,31.172,吴江市,吴江开发区,,,,,,,,,,,,,,,,
2022-10-21T22:00:00,1988A,120.953,31.388,昆山市,昆山实验小学,,,,,,,,,,,,,,,,
2022-10-21T22:00:00,1989A,120.999,31.381,昆山市,震川中学,,,,,,,,,,,,,,,,
2022-10-21T22:00:00,1990A,120.758,31.670,常熟市,海虞子站,,,,,,,,,,,,,,,,
2022-10-21T22:00:00,1991A,120.721,31.671,常熟市,兴福子站,,,,,,,,,,,,,,,,
2022-10-21T22:00:00,1992A,120.734,31.656,常熟市,菱塘子站,,,,,,,,,,,,,,,,
2022-10-21T22:00:00,1993A,120.526,31.874,张家港市,张家港市监测站,,,,,,,,,,,,,,,,
2022-10-21T22:00:00,1994A,120.550,31.882,张家港市,城北小学,,,,,,,,,,,,,,,,
2022-10-21T22:00:00,1995A,121.115,31.453,太仓市,太仓市监测站,,,,,,,,,,,,,,,,
2022-10-21T22:00:00,1996A,121.140,31.422,太仓市,科教新城实小,,,,,,,,,,,,,,,,
2022-10-21T22:00:00,1997A,119.146,31.955,句容市,消防指挥中心,,,,,,,,,,,,,,,,
2022-10-21T22:00:00,1998A,119.180,31.955,句容市,房家坝,,,,,,,,,,,,,,,,
2022-10-21T22:00:00,1999A,120.268,31.920,江阴市,虹桥邮政,,,,,,,,,,,,,,,,
2022-10-21T22:00:00,2000A,120.237,31.909,江阴市,五星公园,,,,,,,,,,,,,,,,
2022-10-21T22:00:00,2001A,120.302,31.920,江阴市,第二实验小学,,,,,,,,,,,,,,,,
2022-10-21T22:00:00,2002A,119.818,31.354,宜兴市,宜兴市环保局,,,,,,,,,,,,,,,,
2022-10-21T22:00:00,2003A,119.794,31.371,宜兴市,宜园,,,,,,,,,,,,,,,,
2022-10-21T22:00:00,2004A,119.579,31.751,金坛市,金坛市环境监测站,,,,,,,,,,,,,,,,
2022-10-21T22:00:00,2005A,119.579,31.737,金坛市,金坛市自来水公司,,,,,,,,,,,,,,,,
2022-10-21T22:00:00,2006A,119.460,31.400,溧阳市,溧阳市东门子站,,,,,,,,,,,,,,,,
2022-10-21T22:00:00,2007A,119.438,31.317,溧阳市,燕山子站,,,,,,,,,,,,,,,,
2022-10-21T22:00:00,2008A,121.173,31.896,海门市,海门市监测站,,,,,,,,,,,,,,,,
2022-10-21T22:00:00,2009A,121.1518,31.89708,海门市,社会福利院,,,,,,,,,,,,,,,,
2022-10-21T22:00:00,2010A,119.7183,30.2366,临安市,市政府,,,,,,,,,,,,,,,,
2022-10-21T22:00:00,2011A,119.6942,30.2311,临安市,四中,,,,,,,,,,,,,,,,
2022-10-21T22:00:00,2012A,119.954,30.054,富阳市,监测站,,,,,,,,,,,,,,,,
2022-10-21T22:00:00,2013A,119.946,30.049,富阳市,富春二小,,,,,,,,,,,,,,,,
2022-10-21T22:00:00,2014A,120.091,29.305,义乌市,江东,,,,,,,,,,,,,,,,
2022-10-21T22:00:00,2015A,120.040,29.334,义乌市,北苑,,,,,,,,,,,,,,,,
2022-10-21T22:00:00,2016A,120.251,29.719,诸暨市,图书馆,,,,,,,,,,,,,,,,
2022-10-21T22:00:00,2017A,120.209,29.732,诸暨市,富林印务,,,,,,,,,,,,,,,,
2022-10-21T22:00:00,2018A,121.989,39.625,瓦房店市,抱龙山庄,,,,,,,,,,,,,,,,
2022-10-21T22:00:00,2019A,122.011,39.617,瓦房店市,东山公园,,,,,,,,,,,,,,,,
2022-10-21T22:00:00,2031A,113.1817,27.9958,株洲市,云田中学,细颗粒物(PM2.5),55,53,63,39,39,220,110,181,159,19,29,6,9,0.5,0.5
2022-10-21T22:00:00,2054A,114.1099,32.1059,信阳市,平桥分局,颗粒物(PM10),60,70,61,36,29,151,63,131,104,35,36,9,9,0.7,0.7
2022-10-21T22:00:00,2064A,113.9956,32.1271,信阳市,南湾水厂,,40,40,37,5,14,155,112,137,132,15,19,7,7,0.6,0.5
2022-10-21T22:00:00,2065A,114.0775,32.1195,信阳市,市酿酒公司,细颗粒物(PM2.5),52,50,45,36,24,150,21,127,86,82,46,9,9,1.0,0.7
2022-10-21T22:00:00,2066A,114.0609,32.1399,信阳市,审计局,细颗粒物(PM2.5),72,77,61,52,35,148,5,119,66,78,47,8,8,1.2,0.7
2022-10-21T22:00:00,2067A,114.6613,33.6128,周口市,市环境监测站,细颗粒物(PM2.5),97,118,106,72,65,189,82,163,139,42,30,9,11,1.0,0.8
2022-10-21T22:00:00,2068A,114.6758,33.6347,周口市,周口师范,细颗粒物(PM2.5),70,81,90,51,48,187,127,166,155,29,31,7,9,0.7,0.7
2022-10-21T22:00:00,2069A,114.6546,33.5979,周口市,市运管处,细颗粒物(PM2.5),87,112,104,64,65,189,87,164,137,65,42,11,9,0.8,0.6
2022-10-21T22:00:00,2070A,114.6369,33.6406,周口市,川汇区环保局,颗粒物(PM10),78,105,96,55,65,184,105,162,136,40,34,4,7,0.6,0.6
2022-10-21T22:00:00,2075A,117.6336,24.4674,漳州市,九湖(对照点),,,,,,,,,,,,,,,,
2022-10-21T22:00:00,2160A,112.85,35.5051,晋城市,自来水公司,细颗粒物(PM2.5),85,114,81,63,46,170,34,160,136,80,40,8,11,1.3,1.2
2022-10-21T22:00:00,2161A,112.8318,35.4936,晋城市,白云商贸,颗粒物(PM10),77,104,82,53,41,159,47,145,123,61,31,5,7,1.1,0.7
2022-10-21T22:00:00,2162A,112.8508,35.4887,晋城市,市环保局,细颗粒物(PM2.5),83,107,70,61,47,167,20,152,125,105,46,7,10,1.4,1
2022-10-21T22:00:00,2163A,112.8676,35.4897,晋城市,技术学院,细颗粒物(PM2.5),92,127,79,68,51,158,33,150,130,100,46,6,10,1.3,0.9
2022-10-21T22:00:00,2164A,112.8271,35.4828,晋城市,泽州一中,,,,,,,,,,,,,,,,
2022-10-21T22:00:00,2165A,112.8453,35.546,晋城市,白马寺 (对照点),,,,,,,,,,,,,,,,
2022-10-21T22:00:00,2166A,112.4397,39.3522,朔州市,平朔,颗粒物(PM10),79,107,104,17,39,134,81,116,96,13,41,4,9,0.3,0.6
2022-10-21T22:00:00,2167A,112.4575,39.3617,朔州市,朔唯,颗粒物(PM10),81,112,111,17,41,142,94,124,105,14,50,4,13,0.3,0.7
2022-10-21T22:00:00,2168A,112.4258,39.3197,朔州市,区政府,颗粒物(PM10),72,94,111,13,38,133,83,117,96,13,37,4,9,0.4,0.7
2022-10-21T22:00:00,2169A,112.4072,39.3278,朔州市,市环保局,颗粒物(PM10),72,94,116,22,46,130,78,107,86,16,42,6,12,0.4,0.7
2022-10-21T22:00:00,2170A,112.4272,39.3681,朔州市,市二中,颗粒物(PM10),78,105,119,20,41,141,77,122,100,21,43,7,11,0.3,0.7
2022-10-21T22:00:00,2171A,112.7532,37.6945,晋中市,锦纶小区,颗粒物(PM10),128,205,143,94,79,150,,115,104,100,59,9,13,0.8,0.8
2022-10-21T22:00:00,2173A,112.7249,37.7067,晋中市,南都小区,细颗粒物(PM2.5),150,228,171,115,81,153,6,114,78,120,72,8,10,1.2,0.9
2022-10-21T22:00:00,2174A,112.6991,37.6982,晋中市,榆次区政府,细颗粒物(PM2.5),168,240,144,127,84,150,4,115,78,112,64,13,14,1.8,1
2022-10-21T22:00:00,2175A,110.9956,35.0147,运城市,运城中学,细颗粒物(PM2.5),102,110,96,76,71,161,88,142,133,15,16,13,20,0.8,0.8
2022-10-21T22:00:00,2176A,111.0233,35.0611,运城市,禹都开发区,,,,,,,,,,,,,,,,
2022-10-21T22:00:00,2178A,110.9686,35.0303,运城市,地区技校,细颗粒物(PM2.5),122,124,92,92,59,182,62,159,139,28,19,12,19,1.1,0.7
2022-10-21T22:00:00,2179A,111.0414,35.1147,运城市,空港新区,细颗粒物(PM2.5),160,141,100,122,76,185,103,163,152,21,20,14,24,1.2,1.1
2022-10-21T22:00:00,2181A,112.7383,38.4519,忻州市,开发区,细颗粒物(PM2.5),82,110,109,60,65,134,19,102,75,89,55,16,18,0.8,0.9
2022-10-21T22:00:00,2182A,112.7003,38.4928,忻州市,会展中心,细颗粒物(PM2.5),82,102,114,60,67,140,22,105,74,76,56,11,16,0.6,0.7
2022-10-21T22:00:00,2183A,111.1406,37.5211,吕梁市,环保局,颗粒物(PM10),106,162,104,39,33,139,0,95,55,88,60,5,6,0.6,0.5
2022-10-21T22:00:00,2185A,111.1297,37.5136,吕梁市,自来水公司,颗粒物(PM10),112,173,123,43,36,134,11,86,60,69,53,5,6,0.7,0.6
2022-10-21T22:00:00,2186A,106.8288,39.6778,乌海市,聚英学校,,,,,,,,,,,,,,,,
2022-10-21T22:00:00,2187A,106.8174,39.6973,乌海市,市林业局,颗粒物(PM10),75,99,54,28,28,96,39,93,76,38,27,7,6,0.4,0.5
2022-10-21T22:00:00,2188A,106.7907,39.6667,乌海市,中海勃湾学校,颗粒物(PM10),72,93,62,39,32,99,51,96,87,31,31,10,9,0.3,0.5
2022-10-21T22:00:00,2191A,122.2532,43.6801,通辽市,艺术职业学校,,39,39,75,8,27,106,51,102,62,26,28,6,10,0.0,0.1
2022-10-21T22:00:00,2192A,119.7594,49.2261,呼伦贝尔市,区环保局,颗粒物(PM10),55,59,35,37,24,69,5,68,26,45,19,5,5,0.8,0.5
2022-10-21T22:00:00,2194A,107.5936,40.916,巴彦淖尔市,秋林养殖基地(对照点),,,,,,,,,,,,,,,,
2022-10-21T22:00:00,2195A,107.4212,40.761,巴彦淖尔市,附二中,颗粒物(PM10),142,233,169,66,52,85,52,79,65,22,29,11,8,0.4,0.6
2022-10-21T22:00:00,2196A,107.37,40.7372,巴彦淖尔市,市环保大楼,颗粒物(PM10),124,197,150,56,48,92,47,87,72,28,21,6,4,0.5,0.4
2022-10-21T22:00:00,2197A,113.1306,40.9923,乌兰察布市,集宁新区,颗粒物(PM10),63,75,101,27,45,137,73,122,109,5,32,8,22,0.3,0.5
2022-10-21T22:00:00,2200A,122.0392,46.0656,兴安盟,胜华新制药厂,,,135,49,,27,76,27,71,58,40,18,4,3,0.5,0.4
2022-10-21T22:00:00,2201A,121.9504,46.0741,兴安盟,科右前旗环保局,,29,25,45,20,27,76,44,71,61,22,20,4,4,0.1,0.3
2022-10-21T22:00:00,2202A,116.1042,43.9317,锡林郭勒盟,市环保监测站,,19,14,27,3,11,85,60,75,71,3,4,10,10,0.3,0.3
2022-10-21T22:00:00,2203A,116.0781,43.9311,锡林郭勒盟,市政府,,19,13,29,2,9,78,60,70,66,5,6,10,10,0.2,0.2
2022-10-21T22:00:00,2204A,105.6467,38.8363,阿拉善盟,西城区西花园(对照点),,33,33,39,12,16,94,82,90,83,9,11,6,7,0.3,0.3
2022-10-21T22:00:00,2205A,105.6985,38.8411,阿拉善盟,蒙二幼,,35,35,37,16,22,96,81,92,83,7,7,8,9,0.3,0.3
2022-10-21T22:00:00,2206A,105.724,38.8516,阿拉善盟,环保局新楼,,28,23,26,8,15,111,89,103,87,6,7,5,5,0.3,0.3
2022-10-21T22:00:00,2207A,121.6094,41.998,阜新市,工业园区,颗粒物(PM10),54,57,60,11,26,124,32,116,54,39,24,15,14,0.4,0.6
2022-10-21T22:00:00,2208A,121.6697,42.0279,阜新市,长青街,,48,48,67,21,36,129,28,118,51,41,26,11,14,0.6,0.6
2022-10-21T22:00:00,2209A,121.6673,42.0705,阜新市,农业园区,,35,35,53,10,35,117,51,110,62,18,18,12,15,1.0,0.6
2022-10-21T22:00:00,2210A,121.6717,42.0224,阜新市,东苑,颗粒物(PM10),58,66,69,12,25,131,34,124,53,42,30,22,19,0.7,0.8
2022-10-21T22:00:00,2211A,121.6506,42.0498,阜新市,玉龙新城,,39,39,55,9,31,123,33,114,46,34,25,12,14,0.5,0.6
2022-10-21T22:00:00,2212A,123.2,41.1953,辽阳市,宏伟区,颗粒物(PM10),89,128,64,53,26,142,63,122,89,60,31,11,13,1.4,0.9
2022-10-21T22:00:00,2213A,123.1683,41.2495,辽阳市,新华园,细颗粒物(PM2.5),102,150,73,76,38,127,44,113,86,79,34,14,16,1.1,0.8
2022-10-21T22:00:00,2214A,123.2354,41.2639,辽阳市,滨河路,细颗粒物(PM2.5),117,83,58,88,48,148,51,136,99,62,31,7,9,1.3,1.1
2022-10-21T22:00:00,2215A,123.149,41.2991,辽阳市,铁西工业园,细颗粒物(PM2.5),230,166,73,180,64,150,24,126,89,83,33,11,13,1.7,0.8
2022-10-21T22:00:00,2216A,123.8139,42.3022,铁岭市,汇工街西,颗粒物(PM10),65,80,62,42,31,133,27,122,84,40,22,12,14,0.8,0.7
2022-10-21T22:00:00,2217A,123.8649,42.2923,铁岭市,水上乐园,颗粒物(PM10),68,86,69,24,34,119,27,111,77,59,31,15,14,1.0,0.7
2022-10-21T22:00:00,2218A,123.8486,42.2867,铁岭市,银州路东段,颗粒物(PM10),73,95,78,31,29,121,26,115,71,47,28,7,9,1.1,1
2022-10-21T22:00:00,2219A,123.7153,42.2217,铁岭市,金沙江路北,颗粒物(PM10),55,59,54,20,32,130,39,114,81,31,25,9,13,0.5,0.7
2022-10-21T22:00:00,2220A,120.4318,41.5881,朝阳市,西梁,,30,30,66,16,39,133,56,114,72,19,20,15,20,0.7,1
2022-10-21T22:00:00,2221A,120.4521,41.5646,朝阳市,河畔小区,,45,45,71,13,41,133,57,111,74,17,19,86,24,0.6,1
2022-10-21T22:00:00,2222A,120.4176,41.5648,朝阳市,八里堡,颗粒物(PM10),56,62,72,15,39,132,46,111,70,26,24,34,23,0.9,1.2
2022-10-21T22:00:00,2223A,120.3806,41.5969,朝阳市,农业园区,颗粒物(PM10),51,52,73,20,42,133,47,112,68,30,22,8,11,0.6,0.9
2022-10-21T22:00:00,2225A,124.4002,43.1713,四平市,一商场,颗粒物(PM10),68,85,73,28,30,118,43,105,60,28,22,7,7,0.8,0.6
2022-10-21T22:00:00,2226A,124.388,43.193,四平市,境园,颗粒物(PM10),71,92,65,29,27,120,8,107,52,47,20,8,9,1.0,0.7
2022-10-21T22:00:00,2227A,125.1358,42.8845,辽源市,环保局,颗粒物(PM10),57,63,47,37,29,131,41,124,91,35,14,10,10,0.7,0.7
2022-10-21T22:00:00,2229A,125.9358,41.7173,通化市,光明,,29,24,26,15,14,136,92,131,98,15,12,14,12,0.3,0.4
2022-10-21T22:00:00,2230A,125.9446,41.7325,通化市,铁路,,44,44,30,12,14,143,63,138,93,43,16,10,11,0.6,0.6
2022-10-21T22:00:00,2231A,126.4219,41.9171,白山市,喜丰,,47,47,52,18,19,114,72,112,96,26,18,10,9,0.8,0.7
2022-10-21T22:00:00,2232A,126.4077,41.9419,白山市,环保局,颗粒物(PM10),68,85,62,29,23,115,40,111,78,37,32,12,11,1.1,0.9
2022-10-21T22:00:00,2233A,124.8006,45.1214,松原市,江南,,47,47,55,23,32,114,43,112,62,23,20,5,9,0.3,0.5
2022-10-21T22:00:00,2234A,124.7965,45.1722,松原市,江北,颗粒物(PM10),53,56,61,23,30,118,36,116,60,29,15,4,5,0.4,0.4
2022-10-21T22:00:00,2235A,122.7911,45.6077,白城市,洮北区环保局,,46,46,76,28,54,100,60,90,74,17,28,4,5,0.2,0.5
2022-10-21T22:00:00,2236A,122.8738,45.5725,白城市,市环保局,颗粒物(PM10),54,57,74,11,23,96,56,88,73,20,26,8,7,0.5,0.6
2022-10-21T22:00:00,2237A,129.47,42.8883,延边朝鲜族自治州,妇幼医院,颗粒物(PM10),53,55,53,27,27,112,112,76,67,20,38,10,15,0.7,0.7
2022-10-21T22:00:00,2238A,129.5055,42.9108,延边朝鲜族自治州,延边医院,颗粒物(PM10),52,54,66,24,30,106,103,91,91,23,42,12,11,0.7,0.8
2022-10-21T22:00:00,2239A,129.3964,42.8881,延边朝鲜族自治州,朝阳川镇医院,颗粒物(PM10),53,56,50,28,21,113,110,93,93,16,25,8,13,0.6,0.6
2022-10-21T22:00:00,2240A,130.9762,45.3001,鸡西市,环保局,颗粒物(PM10),60,70,97,35,45,100,93,91,88,16,36,4,7,0.5,0.9
2022-10-21T22:00:00,2243A,130.9429,45.3039,鸡西市,第一中学,颗粒物(PM10),59,67,72,36,29,118,109,114,111,6,24,5,9,0.6,0.6
2022-10-21T22:00:00,2244A,130.2537,47.3416,鹤岗市,哈啤分公司,,25,16,23,17,16,50,49,47,47,6,15,6,8,0.2,0.3
2022-10-21T22:00:00,2245A,130.2684,47.3086,鹤岗市,斯达机电,,23,19,26,16,15,62,50,62,47,6,20,5,7,0.3,0.4
2022-10-21T22:00:00,2246A,130.3114,47.3388,鹤岗市,东山纸板厂,,29,23,57,20,23,51,49,44,44,5,21,6,10,0.3,0.7
2022-10-21T22:00:00,2247A,130.1097,47.3382,鹤岗市,五号水库(对照点),,25,14,13,17,9,58,53,55,55,4,8,5,5,0.1,0
2022-10-21T22:00:00,2248A,131.1511,46.6937,双鸭山市,双合村,细颗粒物(PM2.5),64,40,73,46,44,74,33,36,13,14,31,5,16,0.3,1.1
2022-10-21T22:00:00,2249A,131.1652,46.6191,双鸭山市,南小市,细颗粒物(PM2.5),52,34,54,36,27,83,43,41,20,10,27,4,7,0.3,0.4
2022-10-21T22:00:00,2250A,131.1524,46.6554,双鸭山市,环保局,细颗粒物(PM2.5),53,47,41,37,24,84,49,61,24,10,27,3,6,0.3,0.4
2022-10-21T22:00:00,2251A,131.12,46.5656,双鸭山市,苗圃(对照点),细颗粒物(PM2.5),55,49,32,39,26,88,36,62,10,11,15,5,4,0.4,0.4
2022-10-21T22:00:00,2252A,128.5159,47.4311,伊春市,环保局,,18,18,20,11,14,53,35,44,44,7,15,6,6,0.3,0.5
2022-10-21T22:00:00,2253A,128.9102,47.7412,伊春市,电力嘉园,,28,24,27,19,13,59,39,49,49,3,13,1,5,0.2,0.5
2022-10-21T22:00:00,2254A,129.5029,48.471,伊春市,汤旺河国家公园(对照点),颗粒物(PM10),53,56,45,27,25,57,39,40,35,5,7,5,5,0.2,0.2
2022-10-21T22:00:00,2255A,130.2751,46.8028,佳木斯市,佳纺,,26,26,65,17,31,41,40,21,21,11,31,4,5,0.4,0.5
2022-10-21T22:00:00,2256A,130.3995,46.8307,佳木斯市,发电厂,,29,29,73,18,34,34,33,23,23,12,26,2,3,0.5,0.5
2022-10-21T22:00:00,2257A,130.3258,46.7975,佳木斯市,环保局,,29,27,79,20,37,36,36,19,19,14,38,4,6,0.5,0.7
2022-10-21T22:00:00,2258A,130.3648,46.8032,佳木斯市,十一中,,26,24,54,18,32,40,40,26,26,16,36,1,2,0.5,0.6
2022-10-21T22:00:00,2259A,130.3794,46.7588,佳木斯市,四丰(对照点),,,23,44,0,41,49,30,44,16,,,1,1,0.4,0.6
2022-10-21T22:00:00,2262A,131.0518,45.8751,七台河市,新一中(对照点),颗粒物(PM10),63,76,63,38,24,82,63,61,60,20,28,9,12,0.2,0.3
2022-10-21T22:00:00,2263A,127.4833,50.2524,黑河市,交通局,,19,19,35,9,11,55,48,53,46,2,8,5,5,0.5,0.8
2022-10-21T22:00:00,2264A,127.5144,50.2341,黑河市,环保局,,20,20,23,8,14,57,49,48,46,3,10,5,11,0.5,0.3
2022-10-21T22:00:00,2265A,127.5291,50.2472,黑河市,大黑河岛(对照点),,,,,,,58,45,52,46,2,3,21,7,0.2,0.2
2022-10-21T22:00:00,2266A,126.9785,46.6365,绥化市,人和东街,,16,16,75,9,43,101,38,83,46,11,17,2,6,0.4,0.7
2022-10-21T22:00:00,2267A,126.964,46.6528,绥化市,党政办公中心,,,13,68,9,47,101,,90,49,6,14,4,6,0.4,0.6
2022-10-21T22:00:00,2269A,124.1069,50.4097,大兴安岭地区,科技局,,38,12,10,26,9,60,36,56,47,10,7,9,4,0.4,0.3
2022-10-21T22:00:00,2270A,117.396,32.939,蚌埠市,工人疗养院,颗粒物(PM10),89,128,93,62,46,122,58,105,96,63,43,15,9,0.6,0.4
2022-10-21T22:00:00,2271A,117.3605,32.9427,蚌埠市,百货大楼,细颗粒物(PM2.5),79,105,74,58,45,140,37,110,93,84,50,9,11,0.6,0.4
2022-10-21T22:00:00,2273A,117.4185,32.8911,蚌埠市,蚌埠学院,颗粒物(PM10),98,146,79,70,38,125,32,102,82,84,55,13,16,0.6,0.5
2022-10-21T22:00:00,2274A,117.3533,32.9673,蚌埠市,淮上区政府,颗粒物(PM10),87,124,86,56,43,138,50,113,101,62,37,8,10,0.4,0.3
2022-10-21T22:00:00,2275A,117.3145,32.8977,蚌埠市,高新区,"颗粒物(PM10),细颗粒物(PM2.5)",79,107,71,58,35,137,15,104,76,82,53,6,11,0.8,0.6
2022-10-21T22:00:00,2277A,116.8305,32.7727,淮南市,潘集区政府,细颗粒物(PM2.5),107,119,87,80,51,148,100,124,112,28,27,7,8,0.4,0.4
2022-10-21T22:00:00,2278A,117.0067,32.6524,淮南市,师范学院,细颗粒物(PM2.5),130,156,88,99,45,146,59,122,102,56,32,13,11,1.2,0.7
2022-10-21T22:00:00,2279A,116.8569,32.5951,淮南市,谢家集区政府,细颗粒物(PM2.5),119,145,81,90,44,161,111,134,124,31,32,12,14,0.4,0.4
2022-10-21T22:00:00,2280A,116.8281,32.633,淮南市,八公山区政府,细颗粒物(PM2.5),135,110,71,103,50,171,106,142,129,26,25,17,16,0.6,0.5
2022-10-21T22:00:00,2281A,116.6325,32.6201,淮南市,焦岗湖风景区管理处(对照点),"颗粒物(PM10),细颗粒物(PM2.5)",90,130,79,67,39,158,20,130,91,26,9,8,10,0.5,0.5
2022-10-21T22:00:00,2282A,116.8004,33.975,淮北市,监测站,颗粒物(PM10),60,69,54,32,28,159,63,132,108,40,22,6,8,0.6,0.6
2022-10-21T22:00:00,2283A,116.8091,33.9007,淮北市,烈山区政府,颗粒物(PM10),70,89,55,35,32,161,43,131,103,64,30,5,6,0.5,0.4
2022-10-21T22:00:00,2284A,116.7856,33.9477,淮北市,职业技术学院,颗粒物(PM10),71,91,62,43,31,156,23,122,77,82,40,7,8,1.3,0.7
2022-10-21T22:00:00,2285A,117.8177,30.9412,铜陵市,市第四中学,颗粒物(PM10),73,96,89,50,43,140,7,112,86,104,51,10,17,0.8,0.8
2022-10-21T22:00:00,2286A,117.8059,30.9273,铜陵市,市公路局,细颗粒物(PM2.5),85,92,81,63,52,145,21,114,93,70,44,10,14,0.7,1
2022-10-21T22:00:00,2287A,117.7807,30.9413,铜陵市,市新民污水厂,细颗粒物(PM2.5),93,112,73,69,40,149,21,119,93,70,49,12,16,0.5,0.5
2022-10-21T22:00:00,2288A,117.7439,30.8792,铜陵市,市第九中学,细颗粒物(PM2.5),115,140,114,87,56,138,34,106,89,68,60,9,10,0.8,0.9
2022-10-21T22:00:00,2289A,117.846,30.9413,铜陵市,车站新区,颗粒物(PM10),64,78,65,45,43,142,21,109,90,64,44,7,11,0.6,0.7
2022-10-21T22:00:00,2290A,117.8483,30.97,铜陵市,市职教基地,细颗粒物(PM2.5),83,85,69,61,41,155,53,122,102,32,26,7,10,0.7,0.6
