timepoint,stationcode,longitude,latitude,area,positionname,primarypollutant,aqi,pm10,pm10_24h,pm2_5,pm2_5_24h,o3,o3_24h,o3_8h,o3_8h_24h,no2,no2_24h,so2,so2_24h,co,co_24h
2022-04-22T05:00:00,1001A,116.3621,39.8784,北京市,万寿西宫,,25,20,104,4,26,93,77,76,76,3,12,3,3,0.1,0.2
2022-04-22T05:00:00,1002A,116.2202,40.2915,北京市,定陵(对照点),,27,14,100,4,26,118,85,88,88,4,12,1,2,0.2,0.2
2022-04-22T05:00:00,1003A,116.4174,39.9289,北京市,东四,,27,21,120,5,31,101,84,83,83,2,18,3,3,0.2,0.3
2022-04-22T05:00:00,1004A,116.4072,39.8863,北京市,天坛,,27,18,100,4,24,102,85,85,85,7,14,3,3,0.2,0.4
2022-04-22T05:00:00,1005A,116.462,39.9365,北京市,农展馆,,26,17,109,4,28,100,83,83,83,5,15,1,3,0.2,0.3
2022-04-22T05:00:00,1006A,116.3392,39.9295,北京市,官园,,24,17,107,5,33,94,76,76,76,6,13,2,4,0.2,0.3
2022-04-22T05:00:00,1007A,116.2878,39.9611,北京市,海淀万柳,,29,29,115,17,40,96,71,76,74,13,17,2,2,0.3,0.4
2022-04-22T05:00:00,1008A,116.6636,40.135,北京市,顺义新城,,22,20,98,4,25,98,68,71,70,7,13,3,3,0.2,0.3
2022-04-22T05:00:00,1009A,116.6275,40.3275,北京市,怀柔镇,,23,17,84,5,25,125,71,86,81,7,13,3,3,0.3,0.4
2022-04-22T05:00:00,1010A,116.2296,40.217,北京市,昌平镇,,26,16,106,8,33,100,82,84,83,6,11,3,3,0.2,0.3
2022-04-22T05:00:00,1011A,116.3966,39.9821,北京市,奥体中心,,25,19,115,3,22,98,79,78,78,7,14,1,2,0.2,0.3
2022-04-22T05:00:00,1012A,116.184,39.9136,北京市,古城,,25,25,111,6,30,98,75,88,77,8,16,3,2,0.2,0.3
2022-04-22T05:00:00,1017A,117.237,39.1082,天津市,大直沽八号路,,28,25,127,8,38,134,87,84,84,7,19,6,10,0.2,0.5
2022-04-22T05:00:00,1018A,117.202,39.0927,天津市,前进道,,32,32,147,6,34,122,82,80,80,7,18,5,8,0.2,0.6
2022-04-22T05:00:00,1019A,117.1837,39.2133,天津市,淮河道,,33,33,131,11,38,125,82,81,81,9,18,6,10,0.3,0.6
2022-04-22T05:00:00,1021A,117.307,39.0877,天津市,跃进路,,41,41,126,11,35,131,84,81,81,7,21,5,8,0.3,0.6
2022-04-22T05:00:00,1023A,117.707,39.0343,天津市,第四大街,,42,42,123,6,31,119,69,78,76,23,25,7,9,0.3,0.6
2022-04-22T05:00:00,1024A,117.457,38.8394,天津市,永明路,,36,36,99,6,28,124,83,82,82,7,15,7,11,0.3,0.5
2022-04-22T05:00:00,1026A,117.764,39.1587,天津市,汉北路,,34,34,113,6,30,122,72,72,72,12,20,6,10,0.3,0.5
2022-04-22T05:00:00,1027A,117.157,38.9194,天津市,团泊洼(对照点),,30,30,119,12,33,123,86,82,82,21,27,5,8,0.4,0.6
2022-04-22T05:00:00,1029A,114.4422,38.0444,石家庄市,职工医院,颗粒物(PM10),58,66,175,21,46,123,75,78,73,14,33,4,9,0.3,0.7
2022-04-22T05:00:00,1030A,114.6063,38.0266,石家庄市,高新区,颗粒物(PM10),60,69,144,28,36,113,62,70,65,15,29,6,12,0.5,1
2022-04-22T05:00:00,1031A,114.4898,38.1328,石家庄市,西北水源,颗粒物(PM10),51,51,201,26,54,126,68,67,65,4,25,5,10,0.3,0.6
2022-04-22T05:00:00,1032A,114.4586,38.0058,石家庄市,西南高教,颗粒物(PM10),62,74,154,23,42,115,72,81,74,10,28,3,8,0.4,0.9
2022-04-22T05:00:00,1033A,114.5331,38.0178,石家庄市,世纪公园,颗粒物(PM10),56,62,136,18,42,112,72,85,72,6,22,1,5,0.3,0.8
2022-04-22T05:00:00,1034A,114.509,38.0457,石家庄市,人民会堂,,48,48,165,19,45,125,76,85,75,17,32,6,14,0.4,0.8
2022-04-22T05:00:00,1035A,114.3524,37.8911,石家庄市,封龙山(对照点),颗粒物(PM10),66,81,248,22,64,129,67,103,82,8,7,8,12,0.4,0.4
2022-04-22T05:00:00,1037A,118.131,39.6363,唐山市,雷达站,颗粒物(PM10),60,69,124,7,37,124,84,77,77,1,15,2,6,0.3,0.5
2022-04-22T05:00:00,1038A,118.1725,39.6334,唐山市,物资局,,49,49,136,16,36,128,85,77,77,9,23,7,11,0.7,0.5
2022-04-22T05:00:00,1040A,118.1705,39.6506,唐山市,十二中,,50,50,118,20,42,120,81,72,72,5,16,6,9,0.6,0.5
2022-04-22T05:00:00,1041A,118.1869,39.622,唐山市,小山,颗粒物(PM10),55,59,129,23,30,136,87,76,76,4,18,6,10,0.4,0.5
2022-04-22T05:00:00,1042A,119.5134,39.8207,秦皇岛市,北戴河环保局,,36,33,71,25,43,156,79,62,62,14,25,10,9,1.0,1.4
2022-04-22T05:00:00,1043A,119.7493,40.0116,秦皇岛市,第一关,,,42,105,7,51,,,,,16,27,10,13,0.3,0.6
2022-04-22T05:00:00,1044A,119.5897,39.9499,秦皇岛市,监测站,,41,41,105,0,45,154,77,66,66,13,35,9,9,0.6,0.8
2022-04-22T05:00:00,1046A,119.5251,39.9041,秦皇岛市,建设大厦,颗粒物(PM10),52,53,104,16,41,155,90,81,81,6,21,5,7,0.4,0.7
2022-04-22T05:00:00,1048A,114.5302,36.6116,邯郸市,东污水处理厂,颗粒物(PM10),89,128,93,29,31,145,46,65,58,17,14,2,7,0.2,0.3
2022-04-22T05:00:00,1049A,114.4918,36.5713,邯郸市,矿院,颗粒物(PM10),95,140,93,27,30,145,56,68,63,8,9,4,5,0.5,0.4
2022-04-22T05:00:00,1050A,114.484,36.6133,邯郸市,丛台公园,颗粒物(PM10),105,159,77,29,32,149,52,68,64,15,15,5,7,0.5,0.6
2022-04-22T05:00:00,1051A,115.493,38.8632,保定市,游泳馆,颗粒物(PM10),65,79,137,8,38,103,71,71,71,15,23,6,13,0.4,0.7
2022-04-22T05:00:00,1053A,115.4713,38.9108,保定市,接待中心,颗粒物(PM10),57,63,142,13,43,105,74,71,71,35,38,4,9,0.2,0.6
2022-04-22T05:00:00,1054A,115.4612,38.8416,保定市,地表水厂,颗粒物(PM10),68,86,165,16,38,103,74,71,71,12,24,6,11,0.3,0.7
2022-04-22T05:00:00,1055A,115.4323,38.8697,保定市,胶片厂,颗粒物(PM10),64,78,132,13,57,103,77,74,74,9,21,8,13,0.4,0.8
2022-04-22T05:00:00,1056A,115.5086,38.8639,保定市,监测站,颗粒物(PM10),60,70,165,21,46,101,68,71,68,16,26,3,8,0.3,0.7
2022-04-22T05:00:00,1057A,114.8883,40.8336,张家口市,人民公园,,25,25,147,5,23,113,66,89,78,6,6,3,4,0.2,0.3
2022-04-22T05:00:00,1059A,114.8687,40.8042,张家口市,五金库,,28,27,178,19,25,116,75,92,85,7,10,5,5,0.1,0.2
2022-04-22T05:00:00,1060A,114.8902,40.762,张家口市,世纪豪园,,24,24,156,15,27,123,73,87,81,11,12,3,3,0.4,0.4
2022-04-22T05:00:00,1061A,114.8916,40.8661,张家口市,北泵房(对照点),,20,16,134,14,30,105,63,88,75,4,4,6,7,0.3,0.4
2022-04-22T05:00:00,1062A,117.9531,40.9081,承德市,铁路,,25,24,128,17,30,102,59,83,75,11,11,5,6,0.2,0.3
2022-04-22T05:00:00,1063A,117.9392,40.9763,承德市,中国银行,,18,12,116,12,39,103,54,76,68,5,9,4,6,0.1,0.3
2022-04-22T05:00:00,1064A,117.9503,40.928,承德市,开发区,,30,30,106,16,33,115,60,88,80,13,9,5,8,0.2,0.3
2022-04-22T05:00:00,1065A,117.8051,40.9655,承德市,文化中心,,29,29,128,11,33,112,64,82,75,12,10,2,8,0.2,0.3
2022-04-22T05:00:00,1066A,117.9268,41.0026,承德市,离宫(对照点),,32,12,111,22,35,113,57,80,71,6,8,3,5,0.2,0.3
2022-04-22T05:00:00,1067A,116.6708,39.5111,廊坊市,药材公司,,38,32,138,26,38,115,76,83,81,10,14,2,5,0.2,0.4
2022-04-22T05:00:00,1068A,116.7214,39.5589,廊坊市,开发区,,34,34,138,14,33,112,73,82,78,11,14,2,5,0.2,0.3
2022-04-22T05:00:00,1070A,116.7244,39.5269,廊坊市,北华航天学院,,36,36,151,3,38,113,74,81,79,13,16,5,7,0.2,0.4
2022-04-22T05:00:00,1071A,116.8842,38.2991,沧州市,沧县城建局,颗粒物(PM10),59,68,75,6,25,112,71,71,71,12,18,7,10,0.1,0.2
2022-04-22T05:00:00,1072A,116.8584,38.3254,沧州市,电视转播站,颗粒物(PM10),65,80,95,8,23,107,66,69,68,10,14,4,3,0.3,0.5
2022-04-22T05:00:00,1073A,116.8709,38.3228,沧州市,市环保局,颗粒物(PM10),52,54,70,14,29,117,71,73,72,7,14,6,10,0.4,0.6
2022-04-22T05:00:00,1074A,115.6838,37.7541,衡水市,电机北厂,颗粒物(PM10),97,144,117,14,32,129,67,61,61,10,14,13,7,0.3,0.3
2022-04-22T05:00:00,1075A,115.6303,37.7316,衡水市,市监测站,颗粒物(PM10),99,148,115,11,27,123,68,61,61,9,13,4,9,0.3,0.4
2022-04-22T05:00:00,1077A,114.4704,37.0886,邢台市,达活泉,颗粒物(PM10),134,217,131,34,32,143,42,45,44,24,27,5,14,0.6,1.1
2022-04-22T05:00:00,1078A,114.5062,37.0349,邢台市,邢师高专,颗粒物(PM10),104,157,110,36,36,140,45,71,58,18,22,6,12,0.7,1.2
2022-04-22T05:00:00,1079A,114.5237,37.0851,邢台市,路桥公司,颗粒物(PM10),104,158,105,34,36,126,40,65,52,25,26,9,13,0.9,1.1
2022-04-22T05:00:00,1080A,114.4725,37.0719,邢台市,市环保局,颗粒物(PM10),110,170,106,39,39,134,39,47,45,25,27,4,10,0.5,0.9
2022-04-22T05:00:00,1081A,112.5139,37.8873,太原市,尖草坪,颗粒物(PM10),65,80,169,16,52,121,56,84,68,23,24,6,10,0.3,0.4
2022-04-22T05:00:00,1083A,112.434,38.0108,太原市,上兰(对照点),,,,110,17,54,122,74,89,83,8,10,6,7,0.3,0.4
2022-04-22T05:00:00,1084A,112.469,37.7124,太原市,晋源,颗粒物(PM10),59,67,144,23,56,127,67,74,72,22,32,9,13,0.3,0.5
2022-04-22T05:00:00,1085A,112.5583,37.7394,太原市,小店,颗粒物(PM10),69,88,166,26,73,127,55,80,70,24,22,9,11,0.5,0.5
2022-04-22T05:00:00,1086A,112.5369,37.8692,太原市,桃园,颗粒物(PM10),65,80,163,21,56,124,49,81,61,32,26,6,9,0.3,0.4
2022-04-22T05:00:00,1087A,112.57,37.8195,太原市,坞城,颗粒物(PM10),64,77,151,16,49,139,58,92,72,23,22,15,18,0.5,0.5
2022-04-22T05:00:00,1088A,112.549,37.9854,太原市,南寨,颗粒物(PM10),80,110,236,38,91,119,20,24,24,42,33,7,10,0.3,0.4
2022-04-22T05:00:00,1090A,111.6507,40.7517,呼和浩特市,呼市一监,,46,44,213,32,50,97,27,77,50,35,14,5,5,0.4,0.3
2022-04-22T05:00:00,1091A,111.6572,40.8033,呼和浩特市,小召,,19,19,215,12,32,88,36,70,60,28,13,5,5,0.4,0.4
2022-04-22T05:00:00,1094A,111.7516,40.8369,呼和浩特市,如意水处理厂,,15,14,146,7,33,98,46,54,48,22,12,7,7,0.3,0.3
2022-04-22T05:00:00,1095A,111.7276,40.8062,呼和浩特市,二十九中,,26,25,177,18,32,98,45,77,53,22,10,8,7,0.5,0.4
2022-04-22T05:00:00,1096A,111.5512,40.7866,呼和浩特市,工大金川校区,,25,25,219,15,37,86,32,40,38,27,13,7,6,0.4,0.5
2022-04-22T05:00:00,1097A,111.717,40.7612,呼和浩特市,化肥厂生活区,,30,30,168,15,45,88,39,63,42,22,11,8,8,0.3,0.3
2022-04-22T05:00:00,1098A,123.6836,41.9339,沈阳市,森林路(对照点),,27,27,57,15,31,169,65,65,65,10,16,6,9,0.2,0.5
2022-04-22T05:00:00,1099A,123.505,41.7406,沈阳市,浑南东路,细颗粒物(PM2.5),70,41,73,51,32,155,72,65,65,5,11,13,17,0.4,0.6
2022-04-22T05:00:00,1100A,123.4231,41.6989,沈阳市,新秀街,,26,26,66,11,28,157,71,66,66,7,14,5,9,0.3,0.4
2022-04-22T05:00:00,1102A,123.5903,41.8411,沈阳市,东陵路,细颗粒物(PM2.5),65,17,69,47,42,151,56,55,55,13,18,10,13,0.4,0.7
2022-04-22T05:00:00,1103A,123.4264,41.8467,沈阳市,陵东街,,21,20,57,11,28,158,65,61,61,10,16,4,7,0.4,0.6
2022-04-22T05:00:00,1104A,123.4114,41.7653,沈阳市,文化路,,30,30,66,12,36,162,71,66,66,4,9,4,7,0.9,1.1
2022-04-22T05:00:00,1105A,123.4678,41.7867,沈阳市,小河沿,,29,29,67,10,28,144,68,64,64,6,12,5,8,0.5,0.7
2022-04-22T05:00:00,1106A,123.4017,41.7972,沈阳市,太原街,,31,31,66,14,36,164,69,66,66,9,15,5,8,0.4,0.7
2022-04-22T05:00:00,1108A,123.3783,41.9228,沈阳市,京沈街,,19,2,46,10,31,164,60,64,63,9,13,6,9,0.8,1
2022-04-22T05:00:00,1109A,121.612,38.9741,大连市,甘井子,,46,46,67,28,40,157,53,107,73,16,24,5,5,0.5,0.6
2022-04-22T05:00:00,1110A,121.565,38.9511,大连市,周水子,,50,50,69,19,29,206,53,123,77,19,25,5,8,0.5,0.6
2022-04-22T05:00:00,1111A,121.5637,38.8845,大连市,星海三站,颗粒物(PM10),54,58,68,33,44,161,49,114,70,23,27,5,6,0.6,0.7
2022-04-22T05:00:00,1112A,121.6302,38.9117,大连市,青泥洼桥,颗粒物(PM10),54,57,69,32,38,168,61,109,78,16,17,7,9,0.4,0.6
2022-04-22T05:00:00,1113A,121.6251,38.8638,大连市,傅家庄,颗粒物(PM10),54,58,68,22,31,184,62,121,83,25,27,11,8,0.2,0.3
2022-04-22T05:00:00,1114A,121.5213,38.8661,大连市,七贤岭,,48,48,64,13,24,27,10,20,15,17,25,13,14,0.6,0.7
2022-04-22T05:00:00,1115A,121.2529,38.8061,大连市,旅顺,颗粒物(PM10),57,64,72,27,35,152,47,112,69,13,21,7,11,0.4,0.5
2022-04-22T05:00:00,1116A,121.7485,39.1311,大连市,金州,,38,38,57,25,36,171,50,100,69,19,20,5,8,0.7,0.7
2022-04-22T05:00:00,1117A,121.7811,39.0496,大连市,开发区,,50,50,61,22,36,159,60,96,78,16,23,6,7,0.5,0.6
2022-04-22T05:00:00,1118A,121.9762,39.0631,大连市,双D港,,38,36,58,26,39,176,69,114,86,17,23,12,13,0.5,0.6
2022-04-22T05:00:00,1119A,125.3325,43.9166,长春市,食品厂,,19,15,60,6,40,159,60,72,65,5,11,5,7,0.4,0.6
2022-04-22T05:00:00,1120A,125.2863,43.9027,长春市,客车厂,,,10,62,13,38,160,63,77,69,,,5,7,0.9,1.1
2022-04-22T05:00:00,1122A,125.3716,43.8772,长春市,劳动公园,,,11,53,8,33,172,65,76,69,,,2,3,0.4,0.6
2022-04-22T05:00:00,1123A,125.3297,43.8805,长春市,园林处,,,16,51,,,169,62,73,67,,,4,5,0.2,0.4
2022-04-22T05:00:00,1124A,125.4605,43.79,长春市,净月潭,,,9,59,,,,,,,,,,,,
2022-04-22T05:00:00,1125A,125.7194,43.515,长春市,甩湾子(对照点),,,9,68,6,38,165,61,58,58,5,11,,,0.6,0.8
2022-04-22T05:00:00,1127A,125.245,43.7783,长春市,高新区管委会,,22,12,57,15,38,168,66,75,71,5,10,4,6,0.6,0.8
2022-04-22T05:00:00,1128A,125.1761,43.8325,长春市,岱山公园,,18,13,59,12,36,154,56,70,63,5,11,5,7,0.5,0.7
2022-04-22T05:00:00,1129A,126.5422,45.755,哈尔滨市,岭北(对照点),,18,16,119,7,79,151,56,66,60,2,17,7,7,0.4,1
2022-04-22T05:00:00,1130A,126.561,45.8167,哈尔滨市,松北商大,,20,10,135,5,96,164,63,73,67,3,20,3,7,0.7,1.1
2022-04-22T05:00:00,1131A,126.979,45.5419,哈尔滨市,阿城会宁,,26,16,127,18,85,169,57,62,56,11,26,16,24,0.6,0.9
2022-04-22T05:00:00,1132A,126.599,45.7222,哈尔滨市,南岗学府路,,17,12,85,2,58,173,54,68,63,8,17,16,23,0.6,0.8
2022-04-22T05:00:00,1133A,126.689,45.7733,哈尔滨市,太平宏伟公园,,19,11,117,13,68,160,50,64,60,4,13,12,11,0.5,0.8
2022-04-22T05:00:00,1134A,126.635,45.7667,哈尔滨市,道外承德广场,,18,9,107,8,74,161,56,69,65,7,20,12,10,0.7,0.7
2022-04-22T05:00:00,1135A,126.685,45.7319,哈尔滨市,香坊红旗大街,,17,6,98,6,58,162,52,65,61,7,21,6,8,0.4,0.5
2022-04-22T05:00:00,1136A,126.6411,45.7258,哈尔滨市,动力和平路,,18,18,91,7,62,155,53,68,64,5,12,6,8,0.7,0.9
2022-04-22T05:00:00,1137A,126.593,45.7478,哈尔滨市,道里建国路,,17,10,100,11,80,163,53,62,58,5,18,12,21,0.6,0.9
2022-04-22T05:00:00,1138A,126.615,45.61,哈尔滨市,平房东轻厂,,,5,90,9,61,170,43,58,53,5,17,30,29,,0
2022-04-22T05:00:00,1139A,126.595,45.9855,哈尔滨市,呼兰师专,,,15,17,,17,74,54,68,61,8,7,9,9,0.7,0.8
2022-04-22T05:00:00,1140A,126.6206,45.6842,哈尔滨市,省农科院,,16,9,105,7,53,153,51,62,59,1,12,12,13,0.5,0.6
2022-04-22T05:00:00,1141A,121.4,31.238,上海市,普陀,,48,46,51,33,37,198,88,117,104,27,20,18,10,1.7,1.6
2022-04-22T05:00:00,1142A,121.478,31.2036,上海市,十五厂,,49,38,48,34,45,188,75,104,87,20,18,7,8,0.9,0.9
2022-04-22T05:00:00,1143A,121.467,31.3008,上海市,虹口,,,34,45,,,174,76,107,91,25,19,7,6,1.2,1.2
2022-04-22T05:00:00,1144A,121.412,31.1654,上海市,徐汇上师大,细颗粒物(PM2.5),54,52,61,38,47,193,53,99,81,27,14,18,20,1.0,0.9
2022-04-22T05:00:00,1145A,121.536,31.2659,上海市,杨浦四漂,,48,34,44,33,48,197,81,108,92,19,14,10,10,0.7,0.7
2022-04-22T05:00:00,1147A,121.425,31.2261,上海市,静安监测站,细颗粒物(PM2.5),62,55,58,44,50,182,70,108,89,34,23,19,10,0,0
2022-04-22T05:00:00,1148A,121.703,31.1907,上海市,浦东川沙,,38,29,48,26,42,217,89,110,101,21,20,5,6,1.0,1
2022-04-22T05:00:00,1149A,121.533,31.2284,上海市,浦东新区监测站,,45,45,57,31,42,197,77,114,95,26,16,6,7,0.8,0.8
2022-04-22T05:00:00,1150A,121.577,31.2071,上海市,浦东张江,,45,38,49,31,43,190,75,102,89,25,18,4,6,0.9,0.9
2022-04-22T05:00:00,1151A,118.8086,32.1065,南京市,迈皋桥,颗粒物(PM10),53,55,60,22,23,136,44,47,35,31,31,4,9,0.7,0.9
2022-04-22T05:00:00,1152A,118.7538,32.0551,南京市,草场门,,46,46,59,27,24,150,33,62,29,49,33,2,9,0.7,0.9
2022-04-22T05:00:00,1153A,118.7794,32.0745,南京市,山西路,颗粒物(PM10),52,53,70,29,30,148,51,45,45,20,17,3,7,0.3,0.6
2022-04-22T05:00:00,1154A,118.7752,32.0023,南京市,中华门,颗粒物(PM10),56,61,61,22,20,147,8,59,35,61,22,3,4,0.4,0.5
2022-04-22T05:00:00,1155A,118.8109,32.0309,南京市,瑞金路,,49,49,58,24,26,141,16,20,13,40,35,3,6,0.4,0.5
2022-04-22T05:00:00,1156A,118.7997,32.0754,南京市,玄武湖,,50,50,53,29,26,147,59,59,56,21,20,3,4,0.5,0.7
2022-04-22T05:00:00,1157A,118.6414,32.0931,南京市,浦口,颗粒物(PM10),58,66,58,29,20,150,48,54,51,30,25,14,10,1.2,0.9
2022-04-22T05:00:00,1158A,118.7356,31.9996,南京市,奥体中心,,41,41,59,24,28,146,33,76,52,44,30,6,11,0.7,0.8
2022-04-22T05:00:00,1159A,118.9125,32.1028,南京市,仙林大学城,,44,44,60,22,26,167,43,50,46,34,27,5,7,0.7,0.8
2022-04-22T05:00:00,1160A,120.561,31.2472,苏州市,上方山(对照点),细颗粒物(PM2.5),75,50,51,55,46,171,31,77,54,35,15,5,5,0.8,0.8
2022-04-22T05:00:00,1162A,120.591,31.3019,苏州市,彩香,细颗粒物(PM2.5),85,52,52,63,43,172,27,83,54,49,22,10,7,0.8,0.7
2022-04-22T05:00:00,1163A,120.596,31.3264,苏州市,轧钢厂,颗粒物(PM10),54,57,54,27,21,172,37,93,57,41,20,9,7,0.7,0.6
2022-04-22T05:00:00,1164A,120.613,31.2703,苏州市,吴中区,细颗粒物(PM2.5),108,63,59,81,54,178,31,84,53,51,25,8,6,0.7,0.6
2022-04-22T05:00:00,1165A,120.543,31.2994,苏州市,苏州新区,细颗粒物(PM2.5),83,76,53,61,39,179,41,92,69,45,20,12,9,0.8,0.6
2022-04-22T05:00:00,1166A,120.669,31.3097,苏州市,苏州工业园区,细颗粒物(PM2.5),54,52,54,38,36,167,55,92,73,24,20,5,5,0.7,0.6
2022-04-22T05:00:00,1167A,120.641,31.3708,苏州市,相城区,细颗粒物(PM2.5),69,74,55,50,37,163,17,79,53,58,26,5,4,0.8,0.7
2022-04-22T05:00:00,1168A,120.9098,31.9663,南通市,狼山街道,,47,47,53,31,35,178,47,76,68,39,31,8,9,0.7,0.7
2022-04-22T05:00:00,1169A,120.86,32.0005,南通市,虹桥,细颗粒物(PM2.5),80,50,54,59,52,154,68,123,86,32,32,6,5,0.8,0.8
2022-04-22T05:00:00,1170A,120.87,32.02,南通市,城中,细颗粒物(PM2.5),68,52,53,49,46,166,70,120,90,34,29,7,6,0.7,0.7
2022-04-22T05:00:00,1171A,120.94,31.93,南通市,星湖花园,细颗粒物(PM2.5),55,53,55,39,40,176,68,111,92,34,30,9,8,0.9,0.8
2022-04-22T05:00:00,1172A,120.81,32.0417,南通市,紫琅学院,颗粒物(PM10),61,72,58,36,36,175,57,103,83,42,33,11,10,0.8,0.7
2022-04-22T05:00:00,1173A,119.176,34.5885,连云港市,市环境监测站,颗粒物(PM10),56,61,67,31,25,144,87,117,101,13,13,7,7,0.6,0.5
2022-04-22T05:00:00,1177A,117.179,34.2761,徐州市,黄河新村,细颗粒物(PM2.5),64,46,49,46,30,147,50,88,74,33,12,8,7,0.9,0.8
2022-04-22T05:00:00,1178A,117.1918,34.2384,徐州市,淮塔,颗粒物(PM10),73,96,70,44,30,142,45,84,59,33,20,12,12,0.8,0.7
2022-04-22T05:00:00,1180A,117.256,34.2153,徐州市,新城区,颗粒物(PM10),67,83,79,45,31,140,52,80,67,28,20,8,8,0.8,0.7
2022-04-22T05:00:00,1181A,117.244,34.2911,徐州市,桃园路,颗粒物(PM10),69,88,74,48,30,141,55,84,69,22,13,15,14,0.8,0.7
2022-04-22T05:00:00,1182A,117.2933,34.2778,徐州市,农科院,颗粒物(PM10),57,63,64,34,22,134,66,85,69,12,11,9,9,0.9,0.8
2022-04-22T05:00:00,1186A,119.389,32.3761,扬州市,邗江监测站,颗粒物(PM10),65,80,70,45,30,165,52,90,67,31,23,14,12,0.9,0.8
2022-04-22T05:00:00,1188A,120.269,31.4867,无锡市,雪浪,细颗粒物(PM2.5),70,78,58,51,32,187,50,115,80,24,13,8,8,0.8,0.7
2022-04-22T05:00:00,1189A,120.275,31.6219,无锡市,黄巷,细颗粒物(PM2.5),62,70,56,44,32,180,45,120,81,43,22,8,7,1.0,0.9
2022-04-22T05:00:00,1190A,120.294,31.56,无锡市,曹张,细颗粒物(PM2.5),70,67,58,51,30,173,10,105,50,65,17,9,7,0.8,0.6
2022-04-22T05:00:00,1191A,120.242,31.5031,无锡市,漆塘,细颗粒物(PM2.5),58,61,48,41,32,174,44,112,75,19,11,5,6,0.8,0.7
2022-04-22T05:00:00,1192A,120.3489,31.5863,无锡市,东亭,细颗粒物(PM2.5),70,78,59,51,37,180,35,94,69,49,30,9,9,0.8,0.8
2022-04-22T05:00:00,1193A,120.354,31.5475,无锡市,旺庄,细颗粒物(PM2.5),70,70,59,51,40,171,30,82,55,53,30,10,8,0.7,0.6
2022-04-22T05:00:00,1194A,120.245,31.5631,无锡市,荣巷,细颗粒物(PM2.5),67,56,49,48,37,174,41,121,76,20,15,8,8,0.5,0.5
2022-04-22T05:00:00,1195A,120.299,31.6817,无锡市,堰桥,细颗粒物(PM2.5),67,66,55,48,36,166,46,99,75,40,25,7,7,0.8,0.7
2022-04-22T05:00:00,1196A,119.9633,31.762,常州市,市监测站,颗粒物(PM10),106,161,79,61,33,155,47,117,80,29,15,8,7,0.7,0.6
2022-04-22T05:00:00,1200A,119.9468,31.7069,常州市,武进监测站,颗粒物(PM10),103,156,75,65,37,165,59,128,90,28,16,10,7,0.7,0.5
2022-04-22T05:00:00,1201A,119.9255,31.9087,常州市,安家,细颗粒物(PM2.5),133,137,72,101,47,158,55,125,89,30,20,6,7,0.7,0.6
2022-04-22T05:00:00,1203A,119.6707,32.1875,镇江市,新区办事处,细颗粒物(PM2.5),83,90,59,61,31,139,70,108,92,29,22,5,5,0.7,0.6
2022-04-22T05:00:00,1204A,119.4974,32.1968,镇江市,职教中心,细颗粒物(PM2.5),142,89,59,108,42,138,61,91,78,28,20,8,6,0.8,0.5
2022-04-22T05:00:00,1205A,119.4303,32.1328,镇江市,丹徒区监测站,细颗粒物(PM2.5),110,108,62,83,34,171,79,94,85,21,17,6,6,0.8,0.5
2022-04-22T05:00:00,1206A,119.905,32.4878,泰州市,公园路,细颗粒物(PM2.5),73,73,60,53,34,157,69,121,95,35,24,9,11,1.0,0.9
2022-04-22T05:00:00,1207A,119.9189,32.4625,泰州市,莲花,细颗粒物(PM2.5),83,88,62,61,38,160,73,109,92,26,17,8,7,1.3,0.9
2022-04-22T05:00:00,1209A,119.888,32.4639,泰州市,留学生创业园,细颗粒物(PM2.5),87,104,67,64,38,159,70,117,97,37,25,6,7,1.2,0.9
2022-04-22T05:00:00,1210A,119.036,33.5981,淮安市,钵池山,颗粒物(PM10),52,53,59,30,26,134,67,90,80,21,18,13,13,0.5,0.5
2022-04-22T05:00:00,1211A,119.007,33.575,淮安市,北京南路,颗粒物(PM10),56,61,69,34,32,137,58,87,74,33,24,11,13,0.6,0.6
2022-04-22T05:00:00,1212A,118.989,33.6067,淮安市,市监测站,颗粒物(PM10),56,61,65,29,28,144,58,79,72,40,25,25,16,1.9,1
2022-04-22T05:00:00,1213A,119.135,33.5039,淮安市,楚州区监测站,细颗粒物(PM2.5),65,66,64,47,27,152,36,97,69,49,22,14,12,0.8,0.7
2022-04-22T05:00:00,1214A,119.0186,33.6297,淮安市,淮阴区监测站,颗粒物(PM10),57,63,65,36,26,130,50,89,69,45,25,22,14,2.0,1.1
2022-04-22T05:00:00,1215A,120.118,33.4022,盐城市,盐城电厂,细颗粒物(PM2.5),74,88,74,54,42,167,76,118,90,33,22,16,13,0.8,0.6
2022-04-22T05:00:00,1216A,120.156,33.3942,盐城市,市监测站,细颗粒物(PM2.5),109,65,57,82,39,158,66,113,84,29,18,16,11,0.7,0.5
2022-04-22T05:00:00,1218A,120.2144,33.38,盐城市,开发区管委会,细颗粒物(PM2.5),82,72,50,60,32,166,73,115,89,25,16,8,8,0.6,0.7
2022-04-22T05:00:00,1220A,118.293,33.9528,宿迁市,宿迁学院,颗粒物(PM10),55,60,72,34,30,153,59,92,70,22,19,7,6,0.6,0.5
2022-04-22T05:00:00,1221A,118.2442,33.9592,宿迁市,宿迁中学,颗粒物(PM10),62,74,62,33,30,151,72,98,85,10,10,6,5,0.7,0.7
2022-04-22T05:00:00,1223A,120.2072,30.2111,杭州市,滨江,颗粒物(PM10),58,66,56,35,29,138,44,36,35,35,31,7,6,0.7,0.6
2022-04-22T05:00:00,1224A,120.0633,30.2747,杭州市,西溪,,44,44,44,28,27,142,6,6,6,26,23,5,5,0.6,0.5
2022-04-22T05:00:00,1226A,120.3461,30.3153,杭州市,下沙,颗粒物(PM10),56,61,71,33,40,163,53,40,40,36,50,8,7,0.8,0.7
2022-04-22T05:00:00,1227A,120.1269,30.2456,杭州市,卧龙桥,,43,43,42,28,28,144,2,8,3,36,22,5,5,0.6,0.6
2022-04-22T05:00:00,1228A,120.1903,30.2692,杭州市,浙江农大,颗粒物(PM10),52,53,49,31,32,160,22,30,23,52,33,5,5,0.7,0.6
2022-04-22T05:00:00,1230A,120.1197,30.3119,杭州市,和睦小学,颗粒物(PM10),56,62,57,35,33,146,7,26,9,53,33,2,3,0.9,0.8
2022-04-22T05:00:00,1231A,120.3019,30.4183,杭州市,临平镇,颗粒物(PM10),60,70,89,41,50,163,9,21,9,73,44,4,4,0.9,0.9
2022-04-22T05:00:00,1232A,120.2697,30.1819,杭州市,城厢镇,细颗粒物(PM2.5),77,81,62,56,40,139,29,46,41,42,32,6,6,0.7,0.7
2022-04-22T05:00:00,1233A,120.0883,30.1808,杭州市,云栖,,41,41,47,19,24,150,11,15,13,28,23,7,6,0.5,0.5
2022-04-22T05:00:00,1234A,121.8358,29.911,宁波市,区环保大楼,,47,47,53,30,33,153,47,69,63,41,38,9,10,0.6,0.7
2022-04-22T05:00:00,1235A,121.56,29.82,宁波市,万里学院,,47,47,52,30,38,190,76,92,85,20,20,10,10,0.8,0.8
2022-04-22T05:00:00,1236A,121.713,29.9572,宁波市,龙赛医院,,48,48,56,30,31,182,46,45,45,44,38,11,9,0.8,0.8
2022-04-22T05:00:00,1239A,121.633,29.7733,宁波市,钱湖水厂,,25,25,44,16,32,176,74,100,88,6,14,7,8,0.7,0.6
2022-04-22T05:00:00,1240A,121.5856,29.8635,宁波市,太古小学,,46,33,46,32,40,155,74,87,81,16,21,10,9,0.7,0.7
2022-04-22T05:00:00,1241A,121.524,29.8674,宁波市,市环境监测中心,,48,48,51,27,32,185,60,76,66,19,24,8,9,0.7,0.7
2022-04-22T05:00:00,1242A,120.634,28.0089,温州市,瓯海,颗粒物(PM10),54,57,57,32,40,167,6,64,26,61,34,5,5,0.5,0.5
2022-04-22T05:00:00,1243A,120.6748,27.9939,温州市,南浦,颗粒物(PM10),61,71,62,40,40,166,57,102,78,30,24,6,6,0.6,0.6
2022-04-22T05:00:00,1244A,120.76,27.9747,温州市,龙湾,颗粒物(PM10),62,73,67,34,33,161,7,67,30,58,40,5,5,0.6,0.6
2022-04-22T05:00:00,1245A,120.6709,28.0167,温州市,市站,颗粒物(PM10),53,56,66,30,36,188,7,91,47,58,32,6,6,0.7,0.6
2022-04-22T05:00:00,1247A,120.6053,29.9928,绍兴市,城东开发委,细颗粒物(PM2.5),54,54,50,38,33,153,63,81,74,19,16,5,6,0.6,0.6
2022-04-22T05:00:00,1250A,120.0751,30.8669,湖州市,城西水厂,细颗粒物(PM2.5),109,92,61,82,43,163,10,69,26,70,42,6,6,0.9,0.6
2022-04-22T05:00:00,1252A,120.7436,30.778,嘉兴市,清河小学,颗粒物(PM10),57,63,56,39,36,173,64,75,69,29,28,7,7,0.6,0.7
2022-04-22T05:00:00,1253A,120.726,30.7478,嘉兴市,嘉兴学院,细颗粒物(PM2.5),62,67,61,44,41,175,73,81,76,28,26,6,6,0.6,0.5
2022-04-22T05:00:00,1255A,121.273,28.6459,台州市,黄岩环保大楼,颗粒物(PM10),62,73,71,39,32,164,32,38,31,24,22,6,6,0.6,0.5
2022-04-22T05:00:00,1256A,121.419,28.6542,台州市,台州环保大楼,颗粒物(PM10),51,52,64,35,44,182,73,86,82,12,18,5,5,0.4,0.5
2022-04-22T05:00:00,1257A,121.377,28.5773,台州市,路桥田洋王,,49,35,55,34,49,154,72,68,65,14,23,6,8,0.5,0.7
2022-04-22T05:00:00,1258A,122.122,30.0203,舟山市,定海檀枫,,26,24,40,13,26,125,83,81,81,8,26,2,3,0.3,0.4
2022-04-22T05:00:00,1259A,122.3094,29.9558,舟山市,普陀东港,,29,21,36,10,26,151,91,116,99,16,23,4,4,0.3,0.4
2022-04-22T05:00:00,1260A,122.19,29.9944,舟山市,临城新区,,25,22,43,17,27,148,73,72,71,15,25,2,3,0.4,0.5
2022-04-22T05:00:00,1262A,119.647,29.077,金华市,十五中,细颗粒物(PM2.5),53,43,53,37,36,147,52,51,49,17,16,6,8,0.6,0.6
2022-04-22T05:00:00,1263A,119.686,29.1029,金华市,监测站,,50,50,50,33,30,139,4,23,11,45,21,5,6,0.6,0.5
2022-04-22T05:00:00,1264A,118.8692,28.9398,衢州市,环保大楼,,39,39,61,23,26,123,1,1,1,43,30,9,11,0.6,0.7
2022-04-22T05:00:00,1265A,118.8709,28.9666,衢州市,实验学校,,40,40,50,17,26,128,1,1,1,32,27,4,7,0.6,0.7
2022-04-22T05:00:00,1266A,118.8621,28.9808,衢州市,衢州学院,,49,49,50,17,24,129,2,2,2,42,35,4,5,0.6,0.7
2022-04-22T05:00:00,1267A,119.914,28.4514,丽水市,监测站大楼,,38,29,51,26,30,119,6,21,10,33,21,20,8,0.4,0.4
2022-04-22T05:00:00,1268A,119.93,28.4586,丽水市,莲都小学,,48,44,52,33,27,129,14,46,34,35,19,6,6,0.4,0.4
2022-04-22T05:00:00,1269A,119.879,28.4231,丽水市,余庄前,,32,32,38,20,26,105,5,13,7,11,14,6,7,0.3,0.4
2022-04-22T05:00:00,1270A,117.1959,31.7848,合肥市,明珠广场,,48,48,57,22,27,134,46,90,70,45,25,6,6,0.8,0.7
2022-04-22T05:00:00,1271A,117.3072,31.8764,合肥市,三里街,颗粒物(PM10),56,61,63,34,26,138,59,76,60,32,28,10,10,0.6,0.5
2022-04-22T05:00:00,1272A,117.2588,31.8707,合肥市,琥珀山庄,颗粒物(PM10),51,51,56,27,24,143,38,100,73,40,21,5,6,0.8,0.7
2022-04-22T05:00:00,1273A,117.1604,31.9052,合肥市,董铺水库(对照点),颗粒物(PM10),52,53,57,19,23,150,60,100,88,27,19,10,10,0.8,0.8
2022-04-22T05:00:00,1274A,117.25,31.8571,合肥市,长江中路,颗粒物(PM10),51,51,62,17,18,147,44,103,82,49,26,8,8,0.6,0.5
2022-04-22T05:00:00,1275A,117.266,31.9436,合肥市,庐阳区,颗粒物(PM10),60,69,62,34,18,143,42,100,77,67,31,7,8,0.6,0.5
2022-04-22T05:00:00,1276A,117.336,31.8586,合肥市,瑶海区,细颗粒物(PM2.5),58,63,76,41,34,134,70,72,69,24,28,8,8,0.6,0.5
2022-04-22T05:00:00,1277A,117.3027,31.7964,合肥市,包河区,颗粒物(PM10),60,70,66,39,30,144,31,89,55,57,23,5,6,0.5,0.4
2022-04-22T05:00:00,1278A,117.2776,31.7385,合肥市,滨湖新区,颗粒物(PM10),52,53,54,31,26,150,84,115,101,17,14,6,7,0.1,0.1
2022-04-22T05:00:00,1279A,117.1318,31.8403,合肥市,高新区,,48,48,55,27,27,150,76,104,94,32,22,10,10,0.7,0.7
2022-04-22T05:00:00,1280A,119.3903,26.0543,福州市,鼓山(对照点),细颗粒物(PM2.5),97,52,43,72,45,129,99,116,92,16,18,5,5,0.7,0.7
2022-04-22T05:00:00,1282A,119.2681,26.0504,福州市,师大,细颗粒物(PM2.5),88,84,68,65,50,131,4,26,13,62,34,4,5,0.6,0.5
2022-04-22T05:00:00,1283A,119.2984,26.1028,福州市,五四北路,细颗粒物(PM2.5),64,67,49,46,39,132,5,31,14,50,30,3,4,0.6,0.6
2022-04-22T05:00:00,1284A,119.2648,26.0768,福州市,杨桥西路,细颗粒物(PM2.5),83,81,60,61,46,118,3,14,7,52,30,4,5,0.8,0.7
2022-04-22T05:00:00,1285A,119.317,26.0746,福州市,紫阳,细颗粒物(PM2.5),80,85,59,59,44,128,20,34,29,50,29,8,7,0.8,0.7
2022-04-22T05:00:00,1286A,118.1608,24.8169,厦门市,溪东(对照点),,48,31,52,33,44,163,9,21,14,4,6,1,2,0.5,0.5
2022-04-22T05:00:00,1287A,118.1514,24.4767,厦门市,洪文,细颗粒物(PM2.5),52,42,55,36,41,138,13,24,22,37,30,3,4,0.6,0.7
2022-04-22T05:00:00,1288A,118.0661,24.4444,厦门市,鼓浪屿,,46,32,42,32,35,180,29,44,40,52,37,10,5,0.4,0.4
2022-04-22T05:00:00,1290A,115.8931,28.6843,南昌市,省外办,颗粒物(PM10),58,66,67,37,37,149,1,4,2,52,30,4,7,0.9,0.9
2022-04-22T05:00:00,1291A,115.8886,28.7003,南昌市,省林业公司,颗粒物(PM10),72,94,75,33,32,156,1,21,5,90,48,7,10,1.2,1.1
2022-04-22T05:00:00,1292A,115.8126,28.7442,南昌市,林科所,,41,41,49,22,27,154,10,51,40,64,27,7,8,0.7,0.7
2022-04-22T05:00:00,1294A,115.8518,28.687,南昌市,建工学校,颗粒物(PM10),59,68,66,36,34,152,2,5,3,68,41,8,10,0.8,0.7
2022-04-22T05:00:00,1295A,115.8921,28.6424,南昌市,象湖,颗粒物(PM10),60,69,73,37,35,152,1,1,1,50,37,2,8,1.4,1
2022-04-22T05:00:00,1296A,115.7423,28.7996,南昌市,武术学校(对照点),,25,25,34,17,21,138,7,16,10,6,10,11,12,0.5,0.6
2022-04-22T05:00:00,1298A,115.9314,28.6842,南昌市,省站,颗粒物(PM10),64,77,81,38,42,145,2,2,2,78,45,8,11,0.9,0.7
2022-04-22T05:00:00,1300A,116.9376,36.665,济南市,农科所,颗粒物(PM10),116,181,87,10,20,143,77,118,96,10,11,8,9,0.3,0.4
2022-04-22T05:00:00,1301A,117.1265,36.6734,济南市,开发区,颗粒物(PM10),86,122,65,24,29,147,77,130,106,8,7,9,9,0.4,0.5
2022-04-22T05:00:00,1303A,117.0624,36.6868,济南市,省种子仓库,颗粒物(PM10),157,263,105,27,26,149,76,129,103,6,4,10,10,0.7,0.6
2022-04-22T05:00:00,1304A,116.9489,36.6447,济南市,机床二厂,颗粒物(PM10),124,198,114,7,24,141,76,112,93,10,10,7,9,0.2,0.3
2022-04-22T05:00:00,1305A,117.0495,36.663,济南市,市监测站,颗粒物(PM10),106,161,72,16,24,144,77,130,105,6,5,11,11,0.3,0.3
2022-04-22T05:00:00,1306A,116.7675,36.5484,济南市,长清党校,颗粒物(PM10),103,156,78,17,24,145,70,115,95,18,14,11,12,0.6,0.6
2022-04-22T05:00:00,1307A,120.6659,36.2403,青岛市,仰口(对照点),颗粒物(PM10),57,63,67,34,36,153,108,114,112,10,9,6,6,0.7,0.7
2022-04-22T05:00:00,1310A,120.4134,36.0658,青岛市,市南区东部子站,颗粒物(PM10),60,70,76,31,38,160,87,107,97,14,18,5,6,0.5,0.5
2022-04-22T05:00:00,1311A,120.3664,36.1032,青岛市,四方区子站,颗粒物(PM10),58,66,75,34,38,158,88,113,103,19,24,4,8,0.8,0.8
2022-04-22T05:00:00,1312A,120.2994,36.054,青岛市,市南区西部子站,颗粒物(PM10),56,61,72,27,33,171,104,124,113,16,21,8,8,0.7,0.7
2022-04-22T05:00:00,1313A,120.4581,36.0858,青岛市,崂山区子站,颗粒物(PM10),62,73,78,29,39,178,91,126,111,26,24,8,8,0.6,0.6
2022-04-22T05:00:00,1314A,120.1983,35.9608,青岛市,黄岛区子站,颗粒物(PM10),59,68,72,29,41,160,88,110,101,23,24,5,6,0.4,0.4
2022-04-22T05:00:00,1315A,120.3999,36.3083,青岛市,城阳区子站,颗粒物(PM10),56,61,88,22,27,147,84,110,99,23,20,6,6,0.7,0.7
2022-04-22T05:00:00,1316A,113.69031,34.76122,郑州市,烟厂,颗粒物(PM10),76,101,82,28,27,142,23,71,42,62,27,10,8,0.5,0.4
2022-04-22T05:00:00,1317A,113.65724,34.77134,郑州市,郑纺机,颗粒物(PM10),74,98,88,34,28,135,17,69,37,66,32,10,8,0.7,0.6
2022-04-22T05:00:00,1318A,113.67526,34.80246,郑州市,银行学校,颗粒物(PM10),69,88,75,40,36,146,31,79,58,45,24,9,7,0.6,0.5
2022-04-22T05:00:00,1319A,113.56746,34.81334,郑州市,供水公司,颗粒物(PM10),78,105,82,41,32,141,25,84,52,54,27,13,9,0.6,0.5
2022-04-22T05:00:00,1320A,113.7329,34.7178,郑州市,经开区管委,颗粒物(PM10),63,75,79,36,33,139,16,88,51,79,28,8,8,0.6,0.5
2022-04-22T05:00:00,1321A,113.73961,34.77172,郑州市,四十七中,颗粒物(PM10),67,83,80,29,28,145,21,90,63,44,20,7,8,0.7,0.6
2022-04-22T05:00:00,1322A,113.60532,34.74838,郑州市,市监测站,颗粒物(PM10),101,151,89,54,27,134,39,69,40,44,34,14,10,0.6,0.6
2022-04-22T05:00:00,1323A,113.64164,34.7525,郑州市,河医大,颗粒物(PM10),65,80,79,29,28,138,15,79,47,63,29,6,5,0.6,0.5
2022-04-22T05:00:00,1324A,113.51488,34.91089,郑州市,岗李水库(对照点),颗粒物(PM10),58,65,80,27,30,154,14,41,24,11,14,6,8,0.3,0.4
2022-04-22T05:00:00,1325A,114.3677,30.5584,武汉市,东湖梨园,颗粒物(PM10),67,83,64,39,35,138,14,43,25,70,34,10,11,1.0,0.8
2022-04-22T05:00:00,1326A,114.2529,30.558,武汉市,汉阳月湖,"颗粒物(PM10),细颗粒物(PM2.5)",55,60,55,39,30,127,11,31,23,67,45,6,7,1.0,0.9
2022-04-22T05:00:00,1327A,114.282,30.6189,武汉市,汉口花桥,颗粒物(PM10),58,65,57,37,32,122,31,25,25,47,39,8,9,0.9,0.9
2022-04-22T05:00:00,1328A,114.3025,30.5332,武汉市,武昌紫阳,细颗粒物(PM2.5),53,48,53,37,31,124,14,52,44,57,30,9,11,1.0,0.9
2022-04-22T05:00:00,1329A,114.3646,30.6217,武汉市,青山钢花,颗粒物(PM10),66,82,74,44,39,133,21,33,27,63,40,13,12,1.1,0.9
2022-04-22T05:00:00,1330A,114.1566,30.4825,武汉市,沌口新区,颗粒物(PM10),68,85,65,39,35,128,11,23,19,78,52,9,10,0.9,0.8
2022-04-22T05:00:00,1331A,114.3014,30.5944,武汉市,汉口江滩,"颗粒物(PM10),细颗粒物(PM2.5)",65,79,63,47,34,124,12,20,14,68,56,7,8,1.1,0.9
2022-04-22T05:00:00,1333A,114.135,30.6319,武汉市,吴家山,颗粒物(PM10),59,67,65,32,30,130,19,21,20,62,45,11,13,1.1,1
2022-04-22T05:00:00,1334A,113.8454,30.2917,武汉市,沉湖七壕(对照点),,36,36,44,20,19,136,44,16,16,30,30,6,6,0.7,0.7
2022-04-22T05:00:00,1335A,113.0833,28.2325,长沙市,经开区环保局,,45,0,40,31,34,171,41,45,44,31,27,18,13,0.9,0.7
2022-04-22T05:00:00,1336A,112.8872,28.2189,长沙市,高开区环保局,细颗粒物(PM2.5),52,51,50,36,35,144,35,34,34,39,25,17,13,0.9,0.8
2022-04-22T05:00:00,1337A,113.0792,28.2053,长沙市,马坡岭,颗粒物(PM10),52,54,61,27,30,152,24,24,24,42,30,16,14,0.7,0.6
2022-04-22T05:00:00,1338A,112.9394,28.19,长沙市,湖南师范大学,细颗粒物(PM2.5),53,46,47,37,38,156,26,28,27,37,23,6,8,0.6,0.6
2022-04-22T05:00:00,1339A,113.0178,28.1322,长沙市,雨花区环保局,颗粒物(PM10),52,53,49,31,30,148,34,48,40,40,28,11,12,0.5,0.4
2022-04-22T05:00:00,1340A,112.9792,28.2597,长沙市,伍家岭,颗粒物(PM10),76,101,81,36,37,150,5,4,4,63,40,8,8,0.9,0.8
2022-04-22T05:00:00,1341A,113.0014,28.1944,长沙市,火车新站,颗粒物(PM10),55,60,61,36,36,141,8,10,9,64,44,11,12,0.8,0.7
2022-04-22T05:00:00,1342A,112.9844,28.1178,长沙市,天心区环保局,,38,35,42,26,29,146,43,51,46,26,25,12,13,0.6,0.7
2022-04-22T05:00:00,1343A,112.8908,28.1308,长沙市,湖南中医药大学,,,71,58,41,35,131,3,3,3,55,38,6,8,1.0,0.9
2022-04-22T05:00:00,1344A,112.9581,28.3611,长沙市,沙坪(对照点),细颗粒物(PM2.5),54,56,66,38,34,135,34,38,35,33,28,7,9,0.8,0.8
2022-04-22T05:00:00,1345A,113.2347,23.1423,广州市,广雅中学,,32,32,69,20,40,251,56,70,60,25,48,6,7,1.0,1.3
2022-04-22T05:00:00,1346A,113.2612,23.105,广州市,市五中,,29,29,60,19,38,270,54,66,62,26,46,4,5,0.7,1
2022-04-22T05:00:00,1348A,113.3478,23.0916,广州市,广东商学院,,35,35,66,18,37,272,40,64,55,40,54,4,5,0.8,1
2022-04-22T05:00:00,1349A,113.4332,23.1047,广州市,市八十六中,,27,26,75,12,33,287,26,71,50,54,59,6,8,0.7,0.9
2022-04-22T05:00:00,1350A,113.3505,22.9483,广州市,番禺中学,,25,25,66,16,37,268,53,76,69,19,37,9,10,0.6,0.8
2022-04-22T05:00:00,1351A,113.2146,23.3916,广州市,花都师范,,50,50,72,30,43,275,55,59,54,26,46,4,5,0.8,0.9
2022-04-22T05:00:00,1352A,113.2597,23.1331,广州市,市监测站,,37,37,68,18,34,275,62,70,66,20,45,5,6,0.7,0.9
2022-04-22T05:00:00,1353A,113.5618,23.312,广州市,九龙镇镇龙,颗粒物(PM10),61,71,87,32,41,247,28,43,34,38,55,6,6,0.8,0.9
2022-04-22T05:00:00,1354A,113.2765,23.1544,广州市,麓湖,,32,32,64,20,34,297,69,67,67,16,38,4,4,0.8,1.1
2022-04-22T05:00:00,1355A,113.443,23.3035,广州市,帽峰山森林公园(对照点),,20,20,45,14,31,237,62,67,66,10,25,4,5,0.6,0.8
2022-04-22T05:00:00,1356A,114.1063,22.5545,深圳市,通心岭子站,,20,20,34,14,24,153,52,92,75,4,12,2,3,0.6,0.7
2022-04-22T05:00:00,1357A,114.117,22.5625,深圳市,洪湖,,20,20,35,12,25,174,37,97,76,33,20,6,6,0.7,0.8
2022-04-22T05:00:00,1358A,113.987,22.5417,深圳市,华侨城,,23,23,35,13,24,147,54,72,61,9,28,1,4,0.5,0.7
2022-04-22T05:00:00,1359A,113.9181,22.5171,深圳市,南海子站,,33,32,48,23,28,124,37,70,51,28,42,3,4,0.6,0.7
2022-04-22T05:00:00,1360A,114.2458,22.5689,深圳市,盐田,,16,15,34,11,28,131,49,96,72,24,36,3,4,0.7,0.8
2022-04-22T05:00:00,1361A,114.2283,22.7244,深圳市,龙岗,,25,25,44,15,27,170,42,88,77,41,29,3,3,0.5,0.7
2022-04-22T05:00:00,1363A,114.494,22.5422,深圳市,南澳,,40,38,39,28,29,159,67,79,77,10,11,3,5,0.7,0.8
2022-04-22T05:00:00,1364A,114.41,22.6342,深圳市,葵涌,,22,22,40,15,27,144,64,96,81,5,13,5,5,0.5,0.6
2022-04-22T05:00:00,1365A,114.297,22.5978,深圳市,梅沙,,19,11,37,7,27,155,60,107,80,3,11,5,5,0.5,0.6
2022-04-22T05:00:00,1366A,114.0678,22.738,深圳市,观澜,颗粒物(PM10),56,61,64,35,33,193,29,45,35,24,41,5,5,0.9,1
2022-04-22T05:00:00,1367A,113.5814,22.2618,珠海市,吉大,,26,26,34,17,26,166,68,86,73,8,13,10,10,0.4,0.6
2022-04-22T05:00:00,1368A,113.4881,22.2335,珠海市,前山,,24,24,36,16,21,152,64,80,72,22,34,10,10,0.4,0.6
2022-04-22T05:00:00,1369A,113.628,22.4251,珠海市,唐家,,26,26,38,14,26,189,76,102,81,13,24,8,10,0.5,0.6
2022-04-22T05:00:00,1370A,113.299,22.2281,珠海市,斗门,,22,20,33,11,20,156,69,83,75,10,17,6,7,0.6,0.7
2022-04-22T05:00:00,1371A,113.1294,23.0067,佛山市,湾梁,,27,27,77,17,32,275,48,99,79,24,35,7,9,0.6,0.8
2022-04-22T05:00:00,1372A,113.1083,23.0478,佛山市,华材职中,,29,29,86,17,42,246,62,103,86,19,41,5,8,0.6,0.9
2022-04-22T05:00:00,1373A,113.144,23.0453,佛山市,南海气象局,,36,36,66,25,40,237,44,90,71,29,43,5,5,0.6,0.8
2022-04-22T05:00:00,1374A,113.2881,22.8094,佛山市,顺德苏岗,,32,29,65,22,47,283,40,72,58,32,42,2,3,0.8,1.1
2022-04-22T05:00:00,1376A,112.8383,22.8678,佛山市,高明孔堂,,29,26,48,20,28,180,79,86,79,5,16,5,7,0.8,0.9
2022-04-22T05:00:00,1377A,112.8836,23.1588,佛山市,三水监测站,,46,46,77,31,46,141,33,49,44,37,54,2,7,0.9,1
2022-04-22T05:00:00,1378A,112.867,23.185,佛山市,三水云东海,颗粒物(PM10),51,51,69,24,39,162,60,65,64,24,33,5,8,0.7,0.8
2022-04-22T05:00:00,1379A,113.3769,22.5211,中山市,华柏园,,20,16,42,14,28,205,57,84,73,10,23,3,5,0.5,0.7
2022-04-22T05:00:00,1380A,113.3881,22.5497,中山市,张溪,,30,25,58,21,34,182,50,78,66,13,23,2,4,0.6,0.8
2022-04-22T05:00:00,1381A,113.4075,22.5111,中山市,紫马岭,,26,26,42,14,23,176,38,64,51,15,16,5,4,0.5,0.7
2022-04-22T05:00:00,1382A,113.4411,22.4853,中山市,长江旅游区(对照点),,20,14,31,14,21,172,40,58,54,9,16,2,3,0.5,0.7
2022-04-22T05:00:00,1383A,113.1064,22.6058,江门市,北街,,24,24,43,11,21,187,60,89,73,14,27,5,6,0.5,0.8
2022-04-22T05:00:00,1384A,113.0731,22.5835,江门市,西区,,27,27,54,13,27,173,60,89,72,14,31,6,7,0.6,0.9
2022-04-22T05:00:00,1385A,113.0219,22.5311,江门市,圭峰西,,33,33,48,19,30,175,54,89,69,20,27,8,9,0.3,0.6
2022-04-22T05:00:00,1386A,113.0828,22.5947,江门市,东湖,,28,28,65,14,26,175,63,94,72,13,27,6,6,0.3,0.6
2022-04-22T05:00:00,1389A,113.7547,23.0494,东莞市,莞城梨川,"颗粒物(PM10),细颗粒物(PM2.5)",59,68,76,42,43,270,43,48,45,28,38,8,10,0.8,1
2022-04-22T05:00:00,1390A,113.7944,23.0128,东莞市,东城石井,颗粒物(PM10),51,51,59,34,37,279,24,42,36,27,36,8,9,0.7,0.8
2022-04-22T05:00:00,1391A,113.7383,22.9658,东莞市,南城西平,颗粒物(PM10),53,56,70,31,50,258,20,41,35,52,41,7,8,0.7,0.8
2022-04-22T05:00:00,1392A,114.4183,23.0528,惠州市,河南岸金山湖子站,,42,41,54,29,34,202,65,79,73,14,22,6,5,0.6,0.7
2022-04-22T05:00:00,1393A,114.4053,23.0822,惠州市,下埔横江三路子站,,35,35,53,20,27,222,76,84,80,11,24,5,6,0.5,0.7
2022-04-22T05:00:00,1394A,114.4103,23.1142,惠州市,江北云山西路子站,,32,27,55,22,33,229,80,89,83,5,19,9,8,0.6,0.7
2022-04-22T05:00:00,1395A,114.4645,22.7833,惠州市,惠阳区承修路船湖子站,,36,32,46,25,31,147,68,83,75,12,18,1,1,0.5,0.6
2022-04-22T05:00:00,1396A,114.5317,22.7422,惠州市,大亚湾管委会子站,,33,30,43,23,28,165,73,90,84,16,17,4,4,0.2,0.4
2022-04-22T05:00:00,1397A,112.4267,23.0706,肇庆市,睦岗子站,颗粒物(PM10),52,53,41,35,28,119,80,73,73,16,36,15,15,0.5,0.8
2022-04-22T05:00:00,1398A,112.4645,23.0475,肇庆市,城中子站,,46,46,43,32,29,116,80,73,73,16,30,17,21,0.7,0.8
2022-04-22T05:00:00,1399A,112.5544,23.1522,肇庆市,坑口子站,,35,32,36,24,26,126,96,89,89,4,14,1,4,0.5,0.7
2022-04-22T05:00:00,1400A,112.4753,23.1,肇庆市,七星岩子站(对照点),,49,49,44,31,30,118,78,70,70,14,18,18,20,0.3,0.7
2022-04-22T05:00:00,1401A,108.3103,22.7881,南宁市,二十一中,细颗粒物(PM2.5),53,43,53,37,38,92,57,54,53,15,23,6,7,0.9,0.9
2022-04-22T05:00:00,1402A,108.3141,22.8528,南宁市,北湖,细颗粒物(PM2.5),57,58,62,40,39,87,56,50,50,13,21,9,10,0.9,1
2022-04-22T05:00:00,1403A,108.3206,22.8225,南宁市,市监测站,细颗粒物(PM2.5),58,45,53,41,40,91,59,54,54,16,29,8,10,0.9,1
2022-04-22T05:00:00,1404A,108.3829,22.8037,南宁市,大自然花园,细颗粒物(PM2.5),57,47,47,40,37,96,70,68,68,10,18,6,7,0.9,0.9
2022-04-22T05:00:00,1405A,108.4394,22.7904,南宁市,仙葫(对照点),细颗粒物(PM2.5),60,47,55,43,37,95,64,49,49,11,19,5,7,0.7,0.8
2022-04-22T05:00:00,1406A,108.2397,22.8467,南宁市,区农职院,细颗粒物(PM2.5),55,48,56,39,40,88,62,43,43,17,35,7,9,0.9,0.9
2022-04-22T05:00:00,1407A,108.3275,22.735,南宁市,英华嘉园,细颗粒物(PM2.5),59,48,61,42,39,78,46,37,37,24,38,7,7,0.8,0.9
2022-04-22T05:00:00,1408A,108.2257,22.7757,南宁市,沙井镇街道办,细颗粒物(PM2.5),57,48,63,40,38,92,41,18,18,31,40,5,6,0.9,0.9
2022-04-22T05:00:00,1409A,110.576,19.9507,海口市,东寨港(对照点),,26,26,30,16,17,106,38,54,46,4,4,2,3,0.3,0.4
2022-04-22T05:00:00,1410A,110.3232,20.0574,海口市,海南大学,,32,32,30,17,17,104,59,73,68,2,2,4,4,0.6,0.6
2022-04-22T05:00:00,1411A,110.283,20.0053,海口市,秀英海南医院,,35,35,34,19,18,111,57,67,61,3,3,4,4,0.6,0.6
2022-04-22T05:00:00,1412A,110.338,19.9969,海口市,海南师范大学,,36,36,31,18,16,101,52,64,60,9,6,3,3,0.5,0.5
2022-04-22T05:00:00,1413A,110.33,20.0356,海口市,龙华路环保局宿舍,,34,34,32,16,16,115,54,71,64,6,5,4,4,0.6,0.6
2022-04-22T05:00:00,1414A,106.3787,29.8279,重庆市,缙云山(对照点),,30,28,32,18,15,192,94,94,93,15,15,16,15,0.6,0.6
2022-04-22T05:00:00,1416A,106.4213,29.8253,重庆市,天生,颗粒物(PM10),53,56,55,33,26,156,4,15,9,59,38,11,10,0.8,0.7
2022-04-22T05:00:00,1417A,106.6263,29.7228,重庆市,两路,,36,36,41,21,20,165,55,70,67,47,36,11,10,0.7,0.7
2022-04-22T05:00:00,1418A,106.2953,29.5983,重庆市,虎溪,,48,48,45,32,23,153,7,20,11,59,46,6,7,0.7,0.7
2022-04-22T05:00:00,1419A,106.5777,29.5102,重庆市,南坪,,47,47,46,26,22,195,49,77,63,45,23,8,8,0.5,0.6
2022-04-22T05:00:00,1420A,106.6556,29.6277,重庆市,唐家沱,,49,49,51,17,23,180,9,14,13,66,46,4,6,0.6,0.6
2022-04-22T05:00:00,1421A,106.6349,29.4906,重庆市,茶园,,,105,80,23,24,214,5,6,6,101,69,8,10,1.0,0.9
2022-04-22T05:00:00,1422A,106.3754,29.4572,重庆市,白市驿,颗粒物(PM10),51,51,52,14,18,206,70,110,87,48,30,9,11,1.0,0.9
2022-04-22T05:00:00,1425A,106.6205,29.7166,重庆市,空港,,50,50,52,17,19,162,63,80,76,38,29,15,13,0.7,0.6
2022-04-22T05:00:00,1426A,106.4782,29.4875,重庆市,新山村,颗粒物(PM10),51,52,54,27,24,179,5,56,21,92,61,8,6,0.9,0.7
2022-04-22T05:00:00,1427A,106.5616,29.6453,重庆市,礼嘉,,50,50,54,23,24,183,23,13,13,84,64,12,13,0.6,0.6
2022-04-22T05:00:00,1428A,106.4522,29.7091,重庆市,蔡家,,42,42,49,27,22,146,11,16,13,46,44,6,7,0.8,0.7
2022-04-22T05:00:00,1429A,106.5093,29.3917,重庆市,鱼新街,颗粒物(PM10),64,77,61,37,28,198,5,5,5,74,57,16,12,1.2,1.2
2022-04-22T05:00:00,1431A,103.9728,30.7236,成都市,金泉两河,颗粒物(PM10),61,72,80,38,43,225,29,92,55,34,26,2,5,0.6,0.6
2022-04-22T05:00:00,1432A,104.1419,30.6764,成都市,十里店,颗粒物(PM10),78,105,102,48,43,189,47,23,23,44,42,12,8,0.6,0.5
2022-04-22T05:00:00,1433A,104.0594,30.5767,成都市,三瓦窑,细颗粒物(PM2.5),79,96,93,58,46,212,22,52,22,77,50,4,4,0.5,0.6
2022-04-22T05:00:00,1434A,104.1122,30.6306,成都市,沙河铺,细颗粒物(PM2.5),80,103,88,59,51,202,3,75,19,63,44,2,4,0.7,0.6
2022-04-22T05:00:00,1437A,104.0431,30.6556,成都市,君平街,细颗粒物(PM2.5),83,108,94,61,49,215,26,84,50,57,36,7,9,0.8,0.7
2022-04-22T05:00:00,1438A,103.6202,31.0201,成都市,灵岩寺(对照点),细颗粒物(PM2.5),82,77,68,60,39,182,130,153,146,7,7,24,13,0.3,0.2
2022-04-22T05:00:00,1439A,106.6899,26.5998,贵阳市,马鞍山,细颗粒物(PM2.5),52,34,30,36,27,58,49,58,55,6,13,5,4,0.6,0.5
2022-04-22T05:00:00,1440A,106.6971,26.5694,贵阳市,市环保站,,36,36,33,24,22,60,55,58,57,8,18,6,5,0.4,0.4
2022-04-22T05:00:00,1441A,106.6243,26.6266,贵阳市,鉴湖路,,41,41,38,22,20,70,64,69,67,4,9,3,3,0.6,0.6
2022-04-22T05:00:00,1442A,106.7487,26.6343,贵阳市,燕子冲,,49,41,36,34,27,69,60,62,62,8,13,5,6,0.7,0.7
2022-04-22T05:00:00,1443A,106.6555,26.4365,贵阳市,碧云窝,颗粒物(PM10),51,51,40,31,23,71,62,71,68,6,8,6,4,0.5,0.5
2022-04-22T05:00:00,1444A,106.694,26.5161,贵阳市,中院村,,41,41,36,27,21,65,57,62,59,8,16,5,5,0.5,0.5
2022-04-22T05:00:00,1445A,106.7109,26.6027,贵阳市,红边门,,45,41,37,31,25,67,49,56,52,21,24,4,3,0.3,0.4
2022-04-22T05:00:00,1446A,106.7164,26.5699,贵阳市,新华路,,41,41,32,24,23,66,58,64,61,6,12,1,3,0.4,0.4
2022-04-22T05:00:00,1447A,106.674,26.5424,贵阳市,太慈桥,,46,46,45,24,19,62,56,61,59,6,12,5,5,0.3,0.4
2022-04-22T05:00:00,1450A,102.8204,24.8886,昆明市,呈贡新区,,32,32,31,22,20,128,86,74,74,12,16,10,12,0.5,0.4
2022-04-22T05:00:00,1451A,102.6251,24.9608,昆明市,西山森林公园(对照点),,29,24,24,20,18,116,84,81,81,4,9,7,10,0.3,0.4
2022-04-22T05:00:00,1452A,102.7252,25.0902,昆明市,龙泉镇,,35,35,42,18,18,112,82,67,67,12,22,10,11,0.4,0.5
2022-04-22T05:00:00,1453A,102.7266,25.0375,昆明市,东风东路,,33,31,33,23,19,111,75,66,66,8,16,6,8,0.4,0.5
2022-04-22T05:00:00,1454A,102.6742,25.0669,昆明市,金鼎山,,44,44,39,27,21,108,57,76,69,23,22,11,9,0.4,0.4
2022-04-22T05:00:00,1455A,102.6644,25.0401,昆明市,碧鸡广场,,43,43,37,28,22,111,51,75,66,31,24,16,13,0.5,0.5
2022-04-22T05:00:00,1456A,91.1319,29.6514,拉萨市,八廓街,,26,26,30,13,15,91,48,37,35,16,16,6,6,0.2,0.3
2022-04-22T05:00:00,1457A,91.1221,29.6747,拉萨市,市环保局,,32,32,27,16,11,107,32,31,31,25,17,5,5,0.4,0.3
2022-04-22T05:00:00,1458A,91.0874,29.6475,拉萨市,区监测站,,23,23,28,7,10,102,47,43,43,31,22,6,7,0.3,0.3
2022-04-22T05:00:00,1459A,91.1774,29.6541,拉萨市,西藏大学,,18,18,23,6,9,98,54,52,48,10,12,6,7,0.3,0.3
2022-04-22T05:00:00,1460A,90.9798,29.6588,拉萨市,区辐射站,,33,21,30,7,13,109,103,48,48,10,30,6,7,0.4,0.4
2022-04-22T05:00:00,1461A,91.0834,29.6292,拉萨市,拉萨火车站,,29,29,31,6,10,92,68,58,57,9,10,6,3,0.4,0.4
2022-04-22T05:00:00,1462A,108.882,34.2749,西安市,高压开关厂,颗粒物(PM10),107,163,104,64,41,172,4,4,4,100,65,7,6,0.7,0.7
2022-04-22T05:00:00,1463A,108.993,34.2629,西安市,兴庆小区,颗粒物(PM10),61,72,79,36,38,178,27,70,56,68,54,6,6,0.5,0.7
2022-04-22T05:00:00,1464A,109.06,34.2572,西安市,纺织城,颗粒物(PM10),77,103,93,36,36,189,2,18,7,75,56,6,7,0.6,0.6
2022-04-22T05:00:00,1465A,108.9356,34.2173,西安市,小寨,颗粒物(PM10),74,98,90,36,39,166,3,17,9,101,69,3,5,0.5,0.5
2022-04-22T05:00:00,1466A,108.954,34.2713,西安市,市人民体育场,颗粒物(PM10),69,87,84,37,37,170,12,19,18,74,61,5,6,0.7,0.8
2022-04-22T05:00:00,1467A,108.8922,34.2322,西安市,高新西区,颗粒物(PM10),88,126,85,43,34,161,6,7,7,103,68,9,9,1.0,0.9
2022-04-22T05:00:00,1468A,108.935,34.3474,西安市,经开区,颗粒物(PM10),95,139,101,54,40,172,2,4,3,99,66,4,3,0.6,0.6
2022-04-22T05:00:00,1469A,108.906,34.1546,西安市,长安区,颗粒物(PM10),51,51,73,30,29,156,13,45,37,59,36,6,8,0.5,0.5
2022-04-22T05:00:00,1471A,109.2186,34.3731,西安市,临潼区,颗粒物(PM10),74,97,96,30,34,159,45,90,41,43,45,5,5,0.6,0.6
2022-04-22T05:00:00,1472A,108.869,34.378,西安市,草滩(对照点),细颗粒物(PM2.5),80,105,96,59,38,172,5,6,6,72,54,6,6,0.6,0.4
2022-04-22T05:00:00,1473A,108.985,34.1978,西安市,曲江文化产业集团,颗粒物(PM10),76,102,84,31,30,172,1,41,9,91,67,4,5,0.5,0.6
2022-04-22T05:00:00,1474A,109.051,34.3213,西安市,广运潭,颗粒物(PM10),77,104,90,40,36,179,3,19,13,74,48,5,6,0.7,0.7
2022-04-22T05:00:00,1476A,103.631,36.1031,兰州市,兰炼宾馆,颗粒物(PM10),170,290,248,102,88,119,32,32,32,40,31,5,16,0.4,0.4
2022-04-22T05:00:00,1477A,104.1373,35.9454,兰州市,榆中兰大校区(对照点),颗粒物(PM10),169,287,216,64,49,130,76,91,79,21,16,3,4,0.5,0.6
2022-04-22T05:00:00,1478A,103.8412,36.0726,兰州市,生物制品所,颗粒物(PM10),179,307,219,76,55,131,3,66,33,74,36,8,11,0.7,0.8
2022-04-22T05:00:00,1479A,103.831,36.0464,兰州市,铁路设计院,颗粒物(PM10),177,304,234,78,71,115,12,36,23,70,48,9,11,0.7,0.6
2022-04-22T05:00:00,1483A,101.524,36.6867,西宁市,第五水厂(对照点),颗粒物(PM10),113,175,133,36,26,134,69,102,87,14,15,9,13,0.8,0.7
2022-04-22T05:00:00,1484A,105.9512,38.6016,银川市,贺兰山马莲口(对照点),,39,39,165,7,42,121,70,76,72,9,7,14,9,0.3,0.2
2022-04-22T05:00:00,1488A,106.2328,38.4975,银川市,贺兰山东路,颗粒物(PM10),75,100,347,35,108,102,14,50,23,63,28,8,9,0.6,0.5
2022-04-22T05:00:00,1489A,106.1358,38.5036,银川市,学院路,颗粒物(PM10),63,75,304,16,79,110,15,45,30,52,23,8,10,0.7,0.6
2022-04-22T05:00:00,1490A,87.5801,43.8303,乌鲁木齐市,监测站,颗粒物(PM10),76,101,104,24,22,115,29,11,11,48,42,5,6,0.2,0.3
2022-04-22T05:00:00,1491A,87.6046,43.768,乌鲁木齐市,收费所,颗粒物(PM10),72,94,111,24,29,103,10,4,4,50,40,6,6,0.3,0.3
2022-04-22T05:00:00,1492A,87.4754,43.9469,乌鲁木齐市,新疆农科院农场(对照点),,,,121,38,26,98,0,2,1,75,38,8,10,0.2,0.2
2022-04-22T05:00:00,1493A,87.5525,43.8711,乌鲁木齐市,铁路局,颗粒物(PM10),74,97,100,15,22,113,52,30,30,20,31,5,5,0.4,0.4
2022-04-22T05:00:00,1494A,87.6432,43.831,乌鲁木齐市,三十一中学,颗粒物(PM10),67,84,104,17,21,104,56,35,35,18,28,6,7,0.3,0.3
2022-04-22T05:00:00,1496A,87.7216,44.1747,乌鲁木齐市,米东区环保局,颗粒物(PM10),98,146,117,25,20,114,39,58,48,30,23,8,10,0.4,0.3
2022-04-22T05:00:00,1508A,112.9433,27.8614,湘潭市,板塘,颗粒物(PM10),61,71,68,33,36,132,38,34,34,18,24,15,15,0.6,0.7
2022-04-22T05:00:00,1511A,112.9118,27.8403,湘潭市,市监测站,细颗粒物(PM2.5),58,44,47,41,37,127,42,62,54,16,19,15,17,0.9,0.9
2022-04-22T05:00:00,1512A,112.8937,27.8728,湘潭市,江麓,颗粒物(PM10),67,83,64,29,30,116,23,35,31,33,29,33,28,1.1,0.8
2022-04-22T05:00:00,1513A,112.9227,27.8159,湘潭市,岳塘,颗粒物(PM10),58,65,60,36,34,138,45,52,47,17,22,17,17,0.8,0.8
2022-04-22T05:00:00,1514A,112.9074,27.9119,湘潭市,科大,颗粒物(PM10),53,55,56,33,34,132,41,48,47,28,26,12,22,0.8,0.7
2022-04-22T05:00:00,1515A,113.135,27.8244,株洲市,天台山庄,,48,41,40,33,32,127,45,48,47,24,31,14,11,0.4,0.5
2022-04-22T05:00:00,1518A,113.095,27.8867,株洲市,株冶医院,细颗粒物(PM2.5),53,39,47,37,37,136,18,24,23,48,40,15,11,0.8,0.6
2022-04-22T05:00:00,1519A,113.167,27.8667,株洲市,市四中,,48,45,47,33,36,123,44,56,53,25,25,16,11,0.7,0.7
2022-04-22T05:00:00,1520A,113.143,27.8381,株洲市,火车站,,46,46,53,31,32,135,34,49,46,32,25,16,11,0.9,0.8
2022-04-22T05:00:00,1524A,113.13,27.8528,株洲市,市监测站,,46,46,49,31,32,124,32,36,35,32,28,14,10,0.9,0.7
2022-04-22T05:00:00,1552A,106.805,26.3003,贵阳市,桐木岭(对照点),,45,39,34,31,26,82,75,80,77,3,3,3,4,0.4,0.4
2022-04-22T05:00:00,1559A,113.251,27.8336,株洲市,大京风景区(对照点),,38,29,25,26,25,122,33,52,46,11,7,8,8,0.7,0.5
2022-04-22T05:00:00,1562A,113.0048,27.9153,湘潭市,昭山,,48,39,41,33,32,119,44,42,42,11,18,12,13,0.7,0.7
2022-04-22T05:00:00,1564A,112.4876,27.9164,湘潭市,韶山(对照点),,42,42,50,21,25,114,52,40,40,5,7,5,6,0.5,0.5
2022-04-22T05:00:00,1585A,109.8756,40.6532,包头市,市环境监测站,,20,14,222,9,47,94,33,50,40,39,12,10,6,0.6,0.3
2022-04-22T05:00:00,1587A,109.9991,40.5842,包头市,包头八中,,27,27,210,7,36,98,33,70,50,32,10,13,11,0.7,0.4
2022-04-22T05:00:00,1588A,109.8538,40.6821,包头市,青山宾馆,,33,31,217,23,52,93,29,40,24,38,15,10,8,0.7,0.5
2022-04-22T05:00:00,1589A,109.8642,40.6288,包头市,惠龙物流,,19,15,215,13,45,94,41,43,39,26,11,7,5,0.6,0.3
2022-04-22T05:00:00,1590A,110.0377,40.5546,包头市,东河鸿龙湾,,20,20,180,9,27,94,23,50,38,36,9,9,8,0.7,0.4
2022-04-22T05:00:00,1591A,110.0023,39.8129,鄂尔多斯市,综合楼,,27,27,188,14,55,100,43,39,39,25,14,6,7,0.5,0.4
2022-04-22T05:00:00,1592A,109.9486,39.8261,鄂尔多斯市,巴音孟克林场办事处,,19,19,163,7,37,105,39,59,53,29,12,9,10,0.5,0.3
2022-04-22T05:00:00,1593A,109.7736,39.5986,鄂尔多斯市,康泽苑,,24,24,242,0,53,110,50,69,55,9,7,4,4,0.5,0.5
2022-04-22T05:00:00,1594A,109.8119,39.5989,鄂尔多斯市,华泰汽车城,,41,41,249,9,58,95,19,50,25,35,12,6,5,0.5,0.4
2022-04-22T05:00:00,1595A,109.9734,39.7884,鄂尔多斯市,奥林花园,,28,27,165,7,26,94,7,62,37,56,15,5,5,0.4,0.3
2022-04-22T05:00:00,1597A,122.2703,40.7094,营口市,大庆路,细颗粒物(PM2.5),97,106,60,72,35,154,64,57,57,8,14,3,6,2.4,0.9
2022-04-22T05:00:00,1598A,122.215,40.6511,营口市,镜湖西路,,32,32,64,6,20,172,68,60,60,8,13,2,6,0.4,0.5
2022-04-22T05:00:00,1599A,122.167,40.6655,营口市,西炮台,,23,21,50,11,26,176,73,63,63,12,18,4,5,0.4,0.6
2022-04-22T05:00:00,1600A,124.3303,40.0625,丹东市,江湾东路,,48,48,56,28,32,166,137,157,148,12,15,7,12,0.5,0.5
2022-04-22T05:00:00,1601A,124.4256,40.1503,丹东市,临江后街,,44,40,55,20,23,160,138,156,147,8,10,8,10,0.6,0.6
2022-04-22T05:00:00,1602A,124.3933,40.1461,丹东市,元宝山,,45,45,56,24,30,157,121,155,138,12,13,8,11,0.6,0.7
2022-04-22T05:00:00,1603A,124.3633,40.1092,丹东市,民主桥,,43,35,54,18,22,159,137,155,145,6,8,8,10,0.5,0.5
2022-04-22T05:00:00,1604A,122.0303,41.1489,盘锦市,开发区,,21,7,66,12,38,164,66,67,67,12,19,5,8,0.6,0.8
2022-04-22T05:00:00,1605A,122.0485,41.0883,盘锦市,兴隆台,,23,12,73,12,37,162,71,68,68,8,17,7,9,0.5,0.8
2022-04-22T05:00:00,1606A,121.8297,41.1028,盘锦市,新生街道,,21,21,54,14,36,170,36,56,52,34,20,7,8,0.7,0.8
2022-04-22T05:00:00,1607A,120.9092,40.7136,葫芦岛市,龙港区,颗粒物(PM10),56,62,77,19,42,169,64,60,60,20,21,19,21,0.7,0.8
2022-04-22T05:00:00,1608A,120.8392,40.7514,葫芦岛市,化工街,,23,9,95,9,40,169,73,78,77,6,17,6,6,0.5,0.9
2022-04-22T05:00:00,1609A,120.8341,40.7073,葫芦岛市,新区,,22,11,78,4,40,170,68,74,73,17,18,10,10,0.5,0.7
2022-04-22T05:00:00,1610A,120.8695,40.7677,葫芦岛市,东城区,,21,9,79,4,38,161,65,70,69,13,16,11,9,0.5,0.7
2022-04-22T05:00:00,1611A,118.5819,24.9117,泉州市,涂山街,细颗粒物(PM2.5),77,47,57,56,58,225,16,51,27,42,31,8,10,0.8,0.7
2022-04-22T05:00:00,1612A,118.5972,24.8978,泉州市,津头埔,细颗粒物(PM2.5),89,40,58,66,60,213,46,35,33,31,36,10,10,0.7,0.7
2022-04-22T05:00:00,1613A,118.6663,24.9424,泉州市,万安,细颗粒物(PM2.5),72,53,50,52,52,204,21,10,10,40,29,4,5,0.6,0.5
2022-04-22T05:00:00,1614A,118.6117,24.9604,泉州市,清源山(对照点),细颗粒物(PM2.5),65,37,45,47,44,206,73,72,72,14,17,7,7,0.5,0.5
2022-04-22T05:00:00,1616A,117.6795,36.229,济南市,技术学院,颗粒物(PM10),60,70,64,34,24,148,87,120,98,14,7,17,13,0.8,0.6
2022-04-22T05:00:00,1618A,118.3429,35.0532,临沂市,沂河小区,颗粒物(PM10),64,78,78,44,30,133,86,102,92,20,21,14,13,0.5,0.6
2022-04-22T05:00:00,1619A,118.295,35.0583,临沂市,鲁南制药厂,细颗粒物(PM2.5),63,73,67,45,26,146,81,94,85,28,22,13,11,0.8,0.7
2022-04-22T05:00:00,1620A,118.2794,34.9976,临沂市,新光毛纺厂,颗粒物(PM10),67,83,72,35,26,132,73,87,78,24,20,17,10,0.6,0.6
2022-04-22T05:00:00,1621A,118.3956,35.0888,临沂市,河东保险公司,细颗粒物(PM2.5),67,66,61,48,26,144,93,115,104,19,17,8,8,0.6,0.5
2022-04-22T05:00:00,1622A,116.3032,37.4674,德州市,儿童乐园,颗粒物(PM10),101,152,118,9,27,128,63,72,67,15,15,4,7,0.3,0.5
2022-04-22T05:00:00,1624A,116.2991,37.4451,德州市,监理站,颗粒物(PM10),98,145,114,23,30,122,68,75,70,8,9,9,13,0.4,0.4
2022-04-22T05:00:00,1625A,115.9848,36.4372,聊城市,区政府,颗粒物(PM10),109,167,92,18,25,126,60,77,62,13,12,8,11,0.3,0.5
2022-04-22T05:00:00,1628A,118.0062,37.3803,滨州市,市环保局,颗粒物(PM10),80,110,102,47,32,169,91,84,84,14,19,11,12,3.3,3.2
2022-04-22T05:00:00,1629A,118.0018,37.3617,滨州市,第二水厂,颗粒物(PM10),119,187,114,39,34,142,81,77,76,12,21,11,12,0.5,0.5
2022-04-22T05:00:00,1630A,117.9776,37.393,滨州市,北中新校,颗粒物(PM10),94,138,98,41,24,146,84,68,68,11,23,6,11,0.4,0.4
2022-04-22T05:00:00,1631A,118.0414,36.8103,淄博市,人民公园,颗粒物(PM10),102,153,102,13,32,148,67,109,86,11,9,9,7,0.1,0.2
2022-04-22T05:00:00,1633A,117.8525,36.4847,淄博市,双山,颗粒物(PM10),78,106,65,44,32,142,67,118,100,23,9,16,9,0.6,0.4
2022-04-22T05:00:00,1634A,117.9592,36.6331,淄博市,气象站,颗粒物(PM10),80,110,87,17,27,146,71,121,100,22,17,13,8,0.4,0.4
2022-04-22T05:00:00,1635A,118.3092,36.8194,淄博市,莆田园,颗粒物(PM10),106,161,100,17,24,143,58,113,84,16,10,16,13,0.4,0.7
2022-04-22T05:00:00,1637A,117.558,34.8438,枣庄市,市中区政府,颗粒物(PM10),76,102,77,44,27,161,6,88,36,54,20,8,8,0.6,0.5
2022-04-22T05:00:00,1638A,117.2852,34.7837,枣庄市,薛城环保局,颗粒物(PM10),64,78,80,39,31,154,78,83,82,25,15,12,12,0.6,0.5
2022-04-22T05:00:00,1639A,117.5852,34.7745,枣庄市,峄城区政府,颗粒物(PM10),65,80,77,44,30,148,45,93,70,37,22,14,12,0.5,0.5
2022-04-22T05:00:00,1640A,117.7276,34.5578,枣庄市,台儿庄区环保局,颗粒物(PM10),58,66,59,36,24,133,67,88,75,23,22,11,11,0.9,0.8
2022-04-22T05:00:00,1641A,117.4518,35.0992,枣庄市,山亭区环保局,颗粒物(PM10),56,61,63,32,28,145,96,106,103,21,17,11,12,0.8,0.7
2022-04-22T05:00:00,1642A,121.2514,37.5639,烟台市,开发区,颗粒物(PM10),76,102,84,48,31,165,92,120,103,13,14,4,6,0.5,0.5
2022-04-22T05:00:00,1643A,121.3719,37.5433,烟台市,轴承厂,细颗粒物(PM2.5),80,97,76,59,38,175,90,139,115,21,14,8,9,0.6,0.7
2022-04-22T05:00:00,1644A,121.3181,37.5436,烟台市,西郊化工站,颗粒物(PM10),104,158,105,44,30,166,87,131,109,23,17,6,7,0.5,0.5
2022-04-22T05:00:00,1645A,121.4478,37.4822,烟台市,莱山环保局,颗粒物(PM10),73,95,80,39,32,174,97,140,122,19,11,7,7,0.5,0.6
2022-04-22T05:00:00,1646A,121.2611,37.4967,烟台市,福山环保局,颗粒物(PM10),74,97,77,41,30,182,107,137,119,15,13,7,8,0.8,0.8
2022-04-22T05:00:00,1650A,119.1437,36.7023,潍坊市,环保局,颗粒物(PM10),85,119,91,35,30,150,60,88,78,24,20,29,8,0.8,0.7
2022-04-22T05:00:00,1653A,116.6251,35.4302,济宁市,火炬城,颗粒物(PM10),52,54,62,27,24,135,80,98,92,10,7,12,10,0.8,0.7
2022-04-22T05:00:00,1655A,116.5491,35.4042,济宁市,电化厂,颗粒物(PM10),64,78,74,36,28,130,70,95,84,11,6,8,5,0.9,0.8
2022-04-22T05:00:00,1656A,117.1437,36.1937,泰安市,监测站,细颗粒物(PM2.5),68,68,75,49,32,142,79,106,96,10,6,13,13,0.3,0.3
2022-04-22T05:00:00,1657A,117.0885,36.2017,泰安市,人口学校,颗粒物(PM10),58,66,68,30,26,134,81,114,102,11,10,8,8,0.5,0.5
2022-04-22T05:00:00,1658A,117.1089,36.1758,泰安市,电力学校,颗粒物(PM10),64,78,69,35,28,138,36,80,44,49,19,10,10,0.6,0.4
2022-04-22T05:00:00,1659A,119.471,35.4209,日照市,监测站,颗粒物(PM10),69,88,93,43,30,142,58,95,75,33,20,12,9,0.6,0.5
2022-04-22T05:00:00,1660A,119.523,35.4216,日照市,市政府广场,颗粒物(PM10),65,80,86,42,32,150,70,100,88,25,25,13,11,0.7,0.7
2022-04-22T05:00:00,1661A,119.5587,35.4044,日照市,港务局,颗粒物(PM10),68,85,117,35,30,145,58,93,82,44,32,12,10,0.7,0.7
2022-04-22T05:00:00,1662A,122.1214,37.4236,威海市,华夏技校,细颗粒物(PM2.5),62,61,77,44,40,178,139,157,150,17,18,4,5,0.5,0.5
2022-04-22T05:00:00,1663A,122.0508,37.5236,威海市,山大分校,颗粒物(PM10),53,56,76,32,32,178,133,160,149,10,12,7,7,0.4,0.3
2022-04-22T05:00:00,1664A,122.1067,37.5072,威海市,市监测站,颗粒物(PM10),55,59,65,31,29,174,134,154,146,13,12,8,8,0.6,0.5
2022-04-22T05:00:00,1666A,118.6614,37.4309,东营市,市环保局,颗粒物(PM10),58,66,92,19,31,158,76,69,69,7,21,6,20,0.4,0.5
2022-04-22T05:00:00,1669A,113.5824,24.7733,韶关市,市八中,颗粒物(PM10),80,109,73,57,44,136,89,110,100,28,23,14,13,0.7,0.7
2022-04-22T05:00:00,1671A,113.5917,24.7972,韶关市,园林处,细颗粒物(PM2.5),70,51,49,51,36,184,64,149,117,38,23,9,11,0.9,0.8
2022-04-22T05:00:00,1672A,113.6735,24.7791,韶关市,韶关学院,细颗粒物(PM2.5),58,40,41,41,34,137,24,66,36,18,17,11,14,0.7,0.7
2022-04-22T05:00:00,1673A,113.5971,24.6863,韶关市,曲江监测站,细颗粒物(PM2.5),94,66,54,70,53,152,96,81,75,34,27,14,11,0.9,0.8
2022-04-22T05:00:00,1674A,116.6794,23.3667,汕头市,金平子站,颗粒物(PM10),85,119,84,61,56,151,18,48,29,37,32,10,9,1.4,1.1
2022-04-22T05:00:00,1675A,116.7244,23.3633,汕头市,龙湖子站,细颗粒物(PM2.5),78,57,52,57,53,151,38,58,48,34,34,8,6,1.2,1
2022-04-22T05:00:00,1676A,116.7258,23.2775,汕头市,濠江子站,颗粒物(PM10),57,63,50,37,41,143,44,92,64,26,21,9,9,0.9,1
2022-04-22T05:00:00,1677A,116.7519,23.4714,汕头市,澄海子站,细颗粒物(PM2.5),79,85,80,58,53,157,30,52,46,36,29,11,8,1.2,1
2022-04-22T05:00:00,1678A,116.6092,23.2539,汕头市,潮阳子站,颗粒物(PM10),62,74,76,34,41,145,34,48,44,16,20,9,10,1.0,0.9
2022-04-22T05:00:00,1680A,110.3539,21.2706,湛江市,湛江影剧院,,28,26,34,19,26,117,76,89,82,6,11,5,6,0.5,0.6
2022-04-22T05:00:00,1681A,110.3928,21.2228,湛江市,市环境监测站,,29,28,27,20,22,132,83,98,90,3,7,5,5,0.4,0.4
2022-04-22T05:00:00,1682A,110.4019,21.1997,湛江市,环保局宿舍,,28,28,27,18,20,135,82,95,89,4,8,4,4,0.5,0.6
2022-04-22T05:00:00,1683A,110.4111,21.2028,湛江市,霞山游泳场,,26,26,27,16,18,130,78,91,85,5,7,4,4,0.5,0.6
2022-04-22T05:00:00,1684A,110.3316,21.2679,湛江市,麻章区环保局,,33,33,36,21,23,113,72,83,77,5,9,4,5,0.5,0.6
2022-04-22T05:00:00,1685A,110.4558,21.2567,湛江市,坡头区环保局,,26,25,32,18,21,134,83,98,91,6,7,3,3,0.9,0.6
2022-04-22T05:00:00,1686A,111.0286,21.4688,茂名市,电白南海,,24,22,33,9,24,123,75,95,83,16,21,5,6,0.5,0.7
2022-04-22T05:00:00,1687A,110.9294,21.6533,茂名市,茂石化七小,,29,29,40,17,25,120,61,97,79,15,17,6,8,0.6,0.7
2022-04-22T05:00:00,1688A,110.9107,21.6687,茂名市,健康路,,26,19,30,18,20,124,66,97,81,9,12,7,8,0.7,0.9
2022-04-22T05:00:00,1689A,110.8592,21.6828,茂名市,高岭,,31,31,42,9,18,116,78,87,82,9,15,7,11,0.7,0.8
2022-04-22T05:00:00,1690A,116.1231,24.3284,梅州市,梅江月梅,颗粒物(PM10),59,68,39,35,26,110,4,54,15,41,17,5,6,0.6,0.6
2022-04-22T05:00:00,1691A,116.0797,24.2719,梅州市,梅县新城,细颗粒物(PM2.5),53,45,38,37,28,117,2,10,5,30,24,4,5,0.7,0.7
2022-04-22T05:00:00,1692A,116.1248,24.2654,梅州市,环境监控中心,细颗粒物(PM2.5),57,52,38,40,27,109,5,4,4,40,28,5,7,0.7,0.7
2022-04-22T05:00:00,1693A,115.3653,22.775,汕尾市,市环保局,,33,32,35,23,26,125,75,95,88,11,12,7,7,0.7,0.8
2022-04-22T05:00:00,1694A,115.3706,22.7898,汕尾市,市政府,,43,31,36,30,30,125,70,83,80,11,12,5,6,0.7,0.7
2022-04-22T05:00:00,1695A,115.3622,22.7925,汕尾市,新城中学,,40,27,36,28,28,126,75,80,79,8,9,6,6,0.6,0.6
2022-04-22T05:00:00,1696A,114.6778,23.7569,河源市,源西(对照点),,39,26,44,27,24,137,71,88,80,14,24,3,3,0.7,0.9
2022-04-22T05:00:00,1697A,114.6944,23.7586,河源市,东埔,,40,34,43,28,24,135,77,86,83,12,22,4,4,0.6,0.9
2022-04-22T05:00:00,1698A,114.6892,23.7233,河源市,老城,,39,32,43,27,25,150,75,95,87,12,16,4,4,0.7,0.9
2022-04-22T05:00:00,1699A,111.9797,21.8593,阳江市,鸳鸯湖(对照点),,43,30,32,30,36,151,59,112,90,18,11,7,8,0.7,0.8
2022-04-22T05:00:00,1701A,111.9491,21.8658,阳江市,马南垌,,48,25,35,33,31,133,76,106,92,9,13,5,5,0.5,0.7
2022-04-22T05:00:00,1702A,113.0426,23.691,清远市,环保大楼(对照点),颗粒物(PM10),54,58,96,31,66,244,71,70,63,16,34,8,10,0.7,0.9
2022-04-22T05:00:00,1703A,113.0208,23.7106,清远市,凤城街办,细颗粒物(PM2.5),60,62,105,43,67,217,73,64,64,14,33,8,10,0.6,0.9
2022-04-22T05:00:00,1705A,116.6367,23.6719,潮州市,西园路(对照点),细颗粒物(PM2.5),60,53,56,43,44,156,10,50,31,35,22,28,13,1.0,0.9
2022-04-22T05:00:00,1706A,116.6447,23.6706,潮州市,档案局,,45,36,57,31,46,154,14,50,29,26,23,21,14,0.8,0.8
2022-04-22T05:00:00,1708A,116.3701,23.5345,揭阳市,新兴,细颗粒物(PM2.5),113,144,93,85,64,141,19,53,36,39,26,9,10,1.0,1.1
2022-04-22T05:00:00,1709A,116.3264,23.5443,揭阳市,西马,细颗粒物(PM2.5),93,82,63,69,41,145,28,59,46,28,18,8,7,1.1,1
2022-04-22T05:00:00,1710A,116.3611,23.5626,揭阳市,东兴,颗粒物(PM10),77,103,93,48,55,141,5,39,24,46,26,11,10,1.4,1.3
2022-04-22T05:00:00,1711A,116.4151,23.5294,揭阳市,渔湖,颗粒物(PM10),82,114,90,53,42,131,14,39,31,36,25,7,12,0.9,1.2
2022-04-22T05:00:00,1712A,112.0392,22.9169,云浮市,新市府(对照点),,30,29,25,21,19,82,14,22,19,10,6,6,6,0.6,0.6
2022-04-22T05:00:00,1714A,112.0539,22.9539,云浮市,牧羊,颗粒物(PM10),51,51,42,35,25,83,9,9,9,27,19,9,8,0.7,0.7
2022-04-22T05:00:00,1715A,102.575,24.3711,玉溪市,东风水库,,32,32,32,20,17,116,71,57,57,12,14,8,7,0.6,0.7
2022-04-22T05:00:00,1718A,115.4208,35.2464,菏泽市,气象局,颗粒物(PM10),73,95,90,44,33,127,46,90,73,44,15,9,21,0.6,0.4
2022-04-22T05:00:00,1719A,115.4747,35.2375,菏泽市,市政协,颗粒物(PM10),70,90,88,42,28,124,56,95,81,30,13,11,11,0.4,0.3
2022-04-22T05:00:00,1721A,113.3819,40.1097,大同市,果树场(对照点),,23,23,291,9,80,111,55,73,63,15,10,8,8,0.4,0.4
2022-04-22T05:00:00,1723A,113.2994,40.0758,大同市,云冈宾馆,颗粒物(PM10),61,71,328,4,120,109,24,66,56,41,11,6,6,0.4,0.5
2022-04-22T05:00:00,1724A,113.3444,40.0917,大同市,大同大学,,41,41,375,11,66,109,37,66,51,30,15,35,11,0.7,0.3
2022-04-22T05:00:00,1725A,113.2661,40.1269,大同市,安家小村,,27,27,340,9,69,115,36,72,63,25,8,10,10,0.4,0.3
2022-04-22T05:00:00,1726A,113.2711,40.0844,大同市,教育学院,,25,25,365,9,81,103,49,71,62,20,12,9,7,0.3,0.3
2022-04-22T05:00:00,1727A,113.1147,36.1547,长治市,清华站,颗粒物(PM10),137,223,184,41,55,134,47,65,44,34,21,17,12,0.7,0.5
2022-04-22T05:00:00,1728A,113.1031,36.1989,长治市,监测站,颗粒物(PM10),91,131,160,46,56,138,43,68,53,43,26,17,12,0.7,0.4
2022-04-22T05:00:00,1730A,113.0886,36.2125,长治市,审计局,颗粒物(PM10),78,106,155,41,59,135,57,63,61,30,26,9,9,1.1,0.6
2022-04-22T05:00:00,1731A,113.0844,36.1856,长治市,长治八中,颗粒物(PM10),88,125,185,28,52,133,58,70,58,26,22,18,17,1.2,0.7
2022-04-22T05:00:00,1733A,111.5531,36.0783,临汾市,临钢医院,颗粒物(PM10),99,148,153,36,60,157,50,47,47,33,41,9,15,0.4,0.9
2022-04-22T05:00:00,1734A,111.5028,36.0714,临汾市,技工学校,颗粒物(PM10),106,162,156,36,52,152,63,63,62,22,31,9,17,0.4,0.8
2022-04-22T05:00:00,1736A,111.5018,36.0855,临汾市,市委,颗粒物(PM10),93,135,142,28,49,152,66,66,65,20,30,6,14,0.5,0.9
2022-04-22T05:00:00,1738A,113.5758,37.8572,阳泉市,市中心,颗粒物(PM10),95,139,248,41,93,132,5,19,13,78,37,19,12,0.5,0.5
2022-04-22T05:00:00,1739A,113.4894,37.8731,阳泉市,赛鱼,颗粒物(PM10),75,99,196,37,57,128,5,23,9,75,47,13,15,0.6,0.6
2022-04-22T05:00:00,1740A,113.5819,37.8486,阳泉市,南庄,颗粒物(PM10),87,124,236,29,58,130,30,47,44,59,31,8,7,0.6,0.6
2022-04-22T05:00:00,1742A,113.5614,37.8703,阳泉市,平坦,颗粒物(PM10),87,124,226,30,70,131,11,38,24,79,32,20,12,0.5,0.6
2022-04-22T05:00:00,1743A,113.5158,37.8392,阳泉市,大阳泉,颗粒物(PM10),72,93,181,32,56,134,73,76,73,19,19,8,10,0.4,0.4
2022-04-22T05:00:00,1744A,118.9233,42.2816,赤峰市,松山一中,,20,20,94,12,25,142,57,88,74,17,14,10,11,0.4,0.5
2022-04-22T05:00:00,1745A,118.9576,42.2728,赤峰市,哈达街,,18,14,85,8,18,129,57,85,75,11,15,9,9,0.4,0.5
2022-04-22T05:00:00,1746A,118.8788,42.2554,赤峰市,天义路,,22,10,84,6,18,134,70,91,78,6,12,8,9,0.4,0.5
2022-04-22T05:00:00,1748A,123.044,41.1196,鞍山市,深沟寺,,28,27,49,19,30,163,57,47,47,10,12,6,6,0.4,0.5
2022-04-22T05:00:00,1749A,123.011,41.0931,鞍山市,太阳城,,41,41,61,21,30,153,45,35,35,16,15,6,7,0.7,0.8
2022-04-22T05:00:00,1750A,123.0485,41.1442,鞍山市,太平,,32,32,55,18,31,152,56,48,48,11,15,9,8,0.4,0.5
2022-04-22T05:00:00,1751A,122.9642,41.0971,鞍山市,铁西三道街,,39,39,74,18,31,149,54,50,50,12,15,12,9,0.7,0.8
2022-04-22T05:00:00,1752A,122.9341,41.0833,鞍山市,铁西工业园区,,32,32,67,16,32,149,60,53,53,6,11,9,10,0.5,0.7
2022-04-22T05:00:00,1753A,123.022,41.0821,鞍山市,明达新区,,33,33,56,19,30,151,48,40,40,14,13,6,7,0.4,0.6
2022-04-22T05:00:00,1754A,123.1289,41.0228,鞍山市,千山(对照点),,36,33,46,25,34,141,42,34,34,11,12,8,8,0.9,0.9
2022-04-22T05:00:00,1755A,123.7977,41.8491,抚顺市,望花区,,22,20,76,15,34,153,61,54,54,4,11,8,11,0.2,0.5
2022-04-22T05:00:00,1756A,123.9161,41.8822,抚顺市,顺城区,,20,16,70,10,31,150,63,50,50,8,14,4,6,0.3,0.5
2022-04-22T05:00:00,1757A,124.0436,41.8611,抚顺市,东洲区,,22,15,75,7,32,171,69,52,52,6,11,5,7,0.6,0.9
2022-04-22T05:00:00,1758A,123.9247,41.8642,抚顺市,新抚区,,24,24,67,11,33,144,64,52,52,3,12,5,7,0.4,0.6
2022-04-22T05:00:00,1759A,124.0972,41.8961,抚顺市,大伙房水库,,22,14,62,9,31,186,68,55,55,6,7,4,5,0.3,0.4
2022-04-22T05:00:00,1760A,123.7086,41.8391,抚顺市,沈抚新城,,,21,75,,,158,66,60,60,3,8,5,7,1.1,1.3
2022-04-22T05:00:00,1761A,123.8275,41.3064,本溪市,大峪,,27,27,53,15,27,162,51,40,40,14,14,11,13,0.6,0.8
2022-04-22T05:00:00,1762A,123.7567,41.3325,本溪市,溪湖,,46,46,69,28,36,160,38,36,36,28,20,11,14,0.7,0.9
2022-04-22T05:00:00,1763A,123.7169,41.3094,本溪市,彩屯,,40,40,93,20,48,137,55,47,47,6,27,8,39,0.5,1.7
2022-04-22T05:00:00,1764A,123.7669,41.2864,本溪市,东明,,25,25,60,14,28,162,49,40,40,13,13,7,9,0.5,0.7
2022-04-22T05:00:00,1765A,123.7992,41.2664,本溪市,新立屯,,29,25,63,20,31,162,56,45,45,7,7,8,10,0.8,0.9
2022-04-22T05:00:00,1766A,123.8142,41.3472,本溪市,威宁,,27,27,59,17,31,153,48,41,41,8,11,11,13,0.4,0.6
2022-04-22T05:00:00,1767A,121.1115,41.0879,锦州市,南山,,22,16,77,7,46,148,68,72,71,6,10,7,9,0.4,0.7
2022-04-22T05:00:00,1768A,121.0533,40.8434,锦州市,开发区,,18,14,93,5,44,155,56,72,69,22,18,7,11,0.5,0.8
2022-04-22T05:00:00,1769A,121.1836,41.1119,锦州市,百股街道,,23,11,65,6,46,170,73,80,78,10,17,5,8,0.5,0.8
2022-04-22T05:00:00,1770A,121.1178,41.1222,锦州市,天安街道,,23,10,89,13,46,170,71,85,82,16,16,6,10,0.4,0.8
2022-04-22T05:00:00,1771A,121.1303,41.1386,锦州市,北湖公园,,21,10,76,5,40,160,66,77,74,8,13,7,10,0.4,0.7
2022-04-22T05:00:00,1772A,126.54,43.8622,吉林市,哈达湾,,22,8,69,5,41,196,69,94,74,5,10,3,6,0.4,0.7
2022-04-22T05:00:00,1773A,126.5844,43.8358,吉林市,东局子,,22,12,75,6,45,191,68,97,72,5,12,3,5,0.5,0.7
2022-04-22T05:00:00,1774A,126.5052,43.8245,吉林市,电力学院,,25,12,73,8,41,199,77,93,80,5,12,9,12,0.5,0.8
2022-04-22T05:00:00,1775A,126.6133,43.8972,吉林市,江北,,20,12,78,10,51,186,64,85,64,13,17,7,10,0.5,0.8
2022-04-22T05:00:00,1776A,126.555,43.8306,吉林市,江南公园,,21,9,70,8,45,183,65,87,69,4,9,4,7,0.5,0.7
2022-04-22T05:00:00,1778A,126.7061,43.7133,吉林市,丰满(对照点),,23,6,64,5,44,204,71,124,80,4,10,4,6,0.5,0.7
2022-04-22T05:00:00,1779A,123.9305,47.3636,齐齐哈尔市,安居小区,细颗粒物(PM2.5),97,102,56,72,19,64,37,47,43,28,18,3,2,1.0,0.6
2022-04-22T05:00:00,1780A,123.9488,47.3386,齐齐哈尔市,中心广场,细颗粒物(PM2.5),110,76,35,83,20,70,56,63,60,10,7,7,5,0.7,0.4
2022-04-22T05:00:00,1781A,123.9483,47.3227,齐齐哈尔市,农牧车辆厂,细颗粒物(PM2.5),80,92,45,59,17,74,45,60,52,19,12,4,2,0.7,0.4
2022-04-22T05:00:00,1783A,123.945,47.2988,齐齐哈尔市,市环境监测站,细颗粒物(PM2.5),79,91,57,58,22,72,51,60,57,19,9,6,5,0.8,0.4
2022-04-22T05:00:00,1784A,129.61,44.561,牡丹江市,环保大楼,细颗粒物(PM2.5),58,37,68,41,46,164,108,91,87,9,14,3,5,0.5,0.6
2022-04-22T05:00:00,1785A,129.6115,44.5782,牡丹江市,文化广场,,48,35,73,33,48,163,107,98,91,8,13,5,6,0.5,0.5
2022-04-22T05:00:00,1786A,129.5904,44.5963,牡丹江市,第一医院,细颗粒物(PM2.5),149,118,79,114,64,160,84,86,81,16,16,5,6,1.0,0.8
2022-04-22T05:00:00,1787A,129.6364,44.6075,牡丹江市,机车工厂,细颗粒物(PM2.5),123,111,77,93,45,163,93,95,84,12,16,12,13,0.5,0.5
2022-04-22T05:00:00,1788A,129.6386,44.5462,牡丹江市,第一中学,细颗粒物(PM2.5),118,122,78,89,48,165,110,77,77,12,21,4,5,0.5,0.6
2022-04-22T05:00:00,1789A,124.81117,46.03138,大庆市,大同区,,32,24,57,22,37,62,46,50,47,5,10,3,4,0.5,0.5
2022-04-22T05:00:00,1790A,125.129,46.533,大庆市,龙凤区,,33,20,29,23,15,69,51,60,54,10,9,5,4,0.4,0.4
2022-04-22T05:00:00,1791A,124.902,46.408,大庆市,红岗区,,21,21,37,13,15,68,48,55,47,14,14,5,5,0.5,1
2022-04-22T05:00:00,1792A,125.153,46.586,大庆市,萨尔图区,,30,16,24,21,26,74,55,64,58,2,6,3,2,0.3,0.4
2022-04-22T05:00:00,1793A,124.9042,46.6215,大庆市,让胡路区,,32,30,36,22,19,79,54,58,55,6,9,5,6,1.0,1
2022-04-22T05:00:00,1794A,118.3606,31.3519,芜湖市,监测站,,43,43,54,26,26,146,86,90,88,16,24,12,12,0.5,0.7
2022-04-22T05:00:00,1795A,118.3714,31.4134,芜湖市,科创中心,,47,47,52,28,25,142,55,62,60,30,29,7,11,0.7,0.8
2022-04-22T05:00:00,1796A,118.3673,31.3131,芜湖市,四水厂,,43,43,53,25,25,139,64,85,77,19,16,7,8,0.5,0.6
2022-04-22T05:00:00,1798A,118.5092,31.6837,马鞍山市,湖东路四小,,41,41,51,20,27,156,90,77,77,11,24,5,8,0.4,0.6
2022-04-22T05:00:00,1799A,118.5024,31.6449,马鞍山市,开发区,,38,37,56,26,30,137,68,52,52,19,35,9,12,0.6,0.9
2022-04-22T05:00:00,1800A,118.5228,31.7231,马鞍山市,慈湖,,50,50,58,25,23,113,56,42,42,23,30,8,9,0.8,1
2022-04-22T05:00:00,1802A,118.6245,31.7241,马鞍山市,濮塘(对照点),,,42,57,29,30,129,65,79,75,5,14,7,10,,
2022-04-22T05:00:00,1803A,115.9872,29.6815,九江市,十里,,40,40,60,28,36,151,32,19,19,30,37,4,6,0.8,0.8
2022-04-22T05:00:00,1804A,115.9584,29.7046,九江市,茅山头,颗粒物(PM10),61,71,60,35,41,148,3,3,3,61,36,5,6,1.1,0.8
2022-04-22T05:00:00,1805A,115.9877,29.7295,九江市,西园,,,58,64,35,35,132,1,10,5,81,44,16,12,0.4,0.6
2022-04-22T05:00:00,1806A,116.0172,29.6547,九江市,五七二七厂,,24,24,44,14,21,138,63,78,70,5,6,5,6,0.4,0.6
2022-04-22T05:00:00,1808A,115.9114,29.6038,九江市,综合工业园,,39,39,53,22,32,151,41,80,58,45,22,9,11,0.5,0.5
2022-04-22T05:00:00,1809A,116.0721,29.7535,九江市,石化总厂,颗粒物(PM10),52,53,57,25,30,148,70,84,78,21,21,21,17,0.5,0.5
2022-04-22T05:00:00,1810A,115.9773,29.5698,九江市,庐山气象台(对照点),,34,24,31,21,15,150,106,109,105,5,6,5,6,0.4,0.3
2022-04-22T05:00:00,1812A,112.3931,34.6516,洛阳市,市委党校,颗粒物(PM10),71,91,66,42,27,147,11,72,24,67,22,14,9,0.7,0.5
2022-04-22T05:00:00,1814A,112.4657,34.6871,洛阳市,豫西宾馆,颗粒物(PM10),89,127,79,55,33,142,0,12,7,65,34,26,7,1.0,0.5
2022-04-22T05:00:00,1815A,112.494,34.6886,洛阳市,河南林校,颗粒物(PM10),80,109,76,47,29,143,0,8,6,57,27,16,10,0.6,0.4
2022-04-22T05:00:00,1816A,112.3844,34.623,洛阳市,开发区管委会,颗粒物(PM10),56,61,61,34,29,147,34,75,46,25,16,8,7,0.4,0.3
2022-04-22T05:00:00,1817A,112.4267,34.6258,洛阳市,市委新办公区,,,73,63,33,28,147,34,72,48,,13,5,12,1.1,0.6
2022-04-22T05:00:00,1818A,114.4839,36.0621,安阳市,棉研所(对照点),颗粒物(PM10),113,176,98,29,28,130,45,43,42,14,17,8,8,0.5,0.5
2022-04-22T05:00:00,1819A,114.3551,36.1017,安阳市,红庙街,颗粒物(PM10),96,141,101,29,27,151,60,48,48,18,26,11,10,0.2,0.4
2022-04-22T05:00:00,1820A,114.361,36.0681,安阳市,银杏小区,颗粒物(PM10),110,169,108,34,34,160,65,44,44,16,27,8,9,0.4,0.7
2022-04-22T05:00:00,1824A,114.3389,34.7781,开封市,肿瘤医院,颗粒物(PM10),61,71,90,29,25,130,48,45,45,20,21,10,9,1.0,0.9
2022-04-22T05:00:00,1826A,114.2885,34.7965,开封市,世纪星幼儿园,颗粒物(PM10),56,61,72,28,28,134,50,72,57,24,15,7,7,0.6,0.5
2022-04-22T05:00:00,1828A,113.2269,35.2127,焦作市,市环保局,颗粒物(PM10),83,115,84,48,34,173,49,90,70,36,30,21,11,1.0,0.6
2022-04-22T05:00:00,1829A,113.2467,35.176,焦作市,高新区政府,颗粒物(PM10),88,126,101,56,37,156,8,29,15,68,41,21,15,0.6,0.4
2022-04-22T05:00:00,1830A,113.1987,35.2703,焦作市,影视城(对照点),颗粒物(PM10),101,152,71,36,24,161,92,119,103,4,8,13,14,0.7,0.6
2022-04-22T05:00:00,1832A,113.3257,33.742,平顶山市,新华旅馆,颗粒物(PM10),55,59,60,32,36,126,98,109,106,7,10,3,3,0.2,0.2
2022-04-22T05:00:00,1833A,113.2919,33.737,平顶山市,规划设计院,,39,39,55,15,22,134,89,103,97,11,12,3,4,0.4,0.4
2022-04-22T05:00:00,1834A,113.182,33.774,平顶山市,平顶山工学院,颗粒物(PM10),51,51,55,22,23,124,106,106,106,6,7,4,4,0.2,0.2
2022-04-22T05:00:00,1835A,111.1922,34.7752,三门峡市,市政府,颗粒物(PM10),69,87,75,39,32,151,33,48,36,46,36,13,11,0.5,0.5
2022-04-22T05:00:00,1836A,111.1587,34.7942,三门峡市,开发区,颗粒物(PM10),76,102,83,33,31,146,20,24,21,42,27,20,13,0.5,0.4
2022-04-22T05:00:00,1838A,111.143,34.7955,三门峡市,风景区(对照点),颗粒物(PM10),73,95,85,30,28,149,27,45,38,33,22,19,13,0.7,0.5
2022-04-22T05:00:00,1840A,111.2992,30.6981,宜昌市,白龙岗,,39,39,41,22,20,135,30,35,31,20,28,5,6,0.1,0.2
2022-04-22T05:00:00,1841A,111.3549,30.6465,宜昌市,伍家岗,颗粒物(PM10),51,52,46,27,22,124,5,5,5,38,36,4,5,0.4,0.5
2022-04-22T05:00:00,1842A,111.2628,30.6961,宜昌市,点军区,,47,47,47,17,21,148,18,22,21,17,23,7,9,0.5,0.5
2022-04-22T05:00:00,1843A,111.3275,30.7819,宜昌市,夷陵区,,41,41,47,22,20,143,42,46,43,15,21,3,4,0.2,0.2
2022-04-22T05:00:00,1844A,112.2494,30.3197,荆州市,市图书馆,,49,49,53,23,22,124,71,88,78,16,20,11,12,0.6,0.6
2022-04-22T05:00:00,1845A,112.2008,30.3544,荆州市,市委党校,,49,49,48,30,27,127,64,88,75,22,16,11,11,0.3,0.6
2022-04-22T05:00:00,1847A,113.1094,29.3578,岳阳市,南湖风景区,,46,46,46,31,26,158,77,73,71,17,19,13,13,0.6,0.6
2022-04-22T05:00:00,1848A,113.1493,29.4251,岳阳市,城陵矶,,38,38,48,20,25,160,85,77,77,15,18,16,18,0.7,0.7
2022-04-22T05:00:00,1849A,113.1497,29.3575,岳阳市,开发区,,42,42,47,21,26,172,79,79,79,16,15,15,13,0.7,0.7
2022-04-22T05:00:00,1850A,113.2621,29.4758,岳阳市,云溪区,,30,27,38,17,24,159,96,104,101,6,9,11,12,0.7,0.6
2022-04-22T05:00:00,1851A,112.9943,29.4402,岳阳市,君山区,,29,25,38,20,29,144,55,86,77,20,14,16,13,0.7,0.7
2022-04-22T05:00:00,1852A,113.2117,29.355,岳阳市,金凤水库(对照点),,29,27,41,20,24,158,62,66,65,21,20,10,8,0.6,0.5
2022-04-22T05:00:00,1854A,111.6975,28.9703,常德市,市二中,,39,35,43,27,27,120,56,80,68,7,10,7,8,0.7,0.7
2022-04-22T05:00:00,1857A,111.7158,29.1456,常德市,白鹤山(对照点),,40,32,47,28,29,135,85,87,87,4,6,9,8,0.6,0.7
2022-04-22T05:00:00,1858A,110.5319,29.1217,张家界市,永定新区,,43,33,43,30,23,124,35,50,41,11,12,4,5,0.7,0.7
2022-04-22T05:00:00,1859A,110.4697,29.1242,张家界市,电业局,,40,40,33,24,18,109,25,31,29,12,16,6,6,0.2,0.1
2022-04-22T05:00:00,1860A,110.5594,29.3547,张家界市,未央路,,27,27,32,13,14,113,39,48,44,4,6,1,2,0.2,0.2
2022-04-22T05:00:00,1861A,110.4417,29.315,张家界市,袁家界(对照点),,29,24,25,8,7,128,91,113,104,1,1,5,5,0.4,0.4
2022-04-22T05:00:00,1862A,110.4144,25.3167,桂林市,电子科大尧山校区(对照点),细颗粒物(PM2.5),59,50,47,42,34,109,21,31,22,6,6,5,6,0.7,0.6
2022-04-22T05:00:00,1863A,110.2819,25.2697,桂林市,监测站,,50,34,58,35,46,111,39,61,49,11,13,4,7,0.7,0.8
2022-04-22T05:00:00,1864A,110.3089,25.2708,桂林市,龙隐路小学,,45,33,53,31,40,110,34,50,37,9,13,5,8,0.7,0.8
2022-04-22T05:00:00,1865A,110.2869,25.2178,桂林市,八中,,32,10,53,22,38,107,56,52,48,6,14,7,8,0.6,0.7
2022-04-22T05:00:00,1866A,109.2262,21.588,北海市,牛尾岭水库(对照点),,39,25,40,27,33,98,64,95,80,6,11,3,7,0.5,0.7
2022-04-22T05:00:00,1867A,109.1436,21.4086,北海市,海滩公园,,45,45,44,17,26,134,94,110,102,8,11,5,5,0.5,0.7
2022-04-22T05:00:00,1868A,109.0981,21.4661,北海市,新市环保局,,39,28,44,27,37,114,85,106,97,3,15,4,6,0.5,0.7
2022-04-22T05:00:00,1869A,109.1778,21.5233,北海市,北海工业园,,39,36,62,27,38,114,86,109,97,5,18,5,12,0.5,0.7
2022-04-22T05:00:00,1870A,109.4856,24.3895,柳州市,柳东小学,细颗粒物(PM2.5),73,41,50,53,54,121,63,64,61,7,13,6,10,0.9,0.9
2022-04-22T05:00:00,1871A,109.4157,24.3277,柳州市,环保监测站,细颗粒物(PM2.5),62,41,57,44,55,116,53,49,49,8,24,5,8,0.9,1
2022-04-22T05:00:00,1872A,109.389,24.341,柳州市,河西水厂,,49,44,67,34,48,116,54,59,56,10,23,8,11,0.8,1.1
2022-04-22T05:00:00,1873A,109.4311,24.2921,柳州市,市四中,细颗粒物(PM2.5),54,54,70,38,46,111,48,44,44,14,27,6,8,0.9,1
2022-04-22T05:00:00,1874A,109.4006,24.3631,柳州市,市九中,细颗粒物(PM2.5),57,38,68,40,47,112,51,46,46,9,22,5,7,0.4,0.6
2022-04-22T05:00:00,1875A,109.4958,24.3134,柳州市,古亭山,细颗粒物(PM2.5),57,45,53,40,43,106,60,45,45,10,19,4,6,0.7,0.8
2022-04-22T05:00:00,1876A,109.5078,18.2489,三亚市,河东子站,,23,23,26,14,13,89,62,64,63,2,3,3,3,0.6,0.6
2022-04-22T05:00:00,1877A,109.4964,18.2681,三亚市,河西子站,,24,24,21,12,13,90,65,67,66,2,3,3,3,0.4,0.4
2022-04-22T05:00:00,1878A,104.7778,31.4741,绵阳市,富乐山,颗粒物(PM10),60,69,62,38,32,164,63,47,46,22,22,9,11,0.6,0.6
2022-04-22T05:00:00,1879A,104.7563,31.4535,绵阳市,市人大,颗粒物(PM10),62,73,72,38,34,152,65,56,56,26,44,8,9,0.7,0.8
2022-04-22T05:00:00,1880A,104.6697,31.4668,绵阳市,高新区自来水公司,颗粒物(PM10),56,62,55,39,36,147,31,71,58,41,31,9,10,1.0,0.9
2022-04-22T05:00:00,1881A,104.7287,31.5075,绵阳市,三水厂,颗粒物(PM10),64,77,80,39,37,159,52,56,53,38,37,4,4,0.6,0.6
2022-04-22T05:00:00,1882A,104.563,28.793,宜宾市,石马中学(对照点),细颗粒物(PM2.5),75,89,66,55,40,172,26,66,48,29,22,10,11,0.8,0.7
2022-04-22T05:00:00,1883A,104.6201,28.7728,宜宾市,市委,细颗粒物(PM2.5),70,83,71,51,40,188,28,32,31,49,39,11,10,0.8,0.8
2022-04-22T05:00:00,1884A,104.6055,28.793,宜宾市,宜宾四中,细颗粒物(PM2.5),75,86,74,55,41,166,43,66,57,45,41,11,12,0.8,0.7
2022-04-22T05:00:00,1885A,104.639,28.7562,宜宾市,市政府,颗粒物(PM10),71,91,87,49,41,184,39,20,20,45,56,12,12,0.6,0.7
2022-04-22T05:00:00,1886A,104.5742,28.7199,宜宾市,黄金嘴,细颗粒物(PM2.5),63,74,69,45,40,187,36,28,21,33,30,14,12,0.6,0.6
2022-04-22T05:00:00,1888A,101.6891,26.571,攀枝花市,弄弄坪,,42,42,45,18,20,123,42,85,71,37,18,10,14,1.0,1.2
2022-04-22T05:00:00,1889A,101.5769,26.5928,攀枝花市,河门口,,46,46,49,25,26,139,56,70,66,31,29,32,25,1.6,1.5
2022-04-22T05:00:00,1890A,101.7169,26.585,攀枝花市,炳草岗,细颗粒物(PM2.5),69,48,34,50,33,122,59,86,76,23,20,33,24,0.6,0.7
2022-04-22T05:00:00,1891A,101.7369,26.5008,攀枝花市,仁和,,32,29,35,22,23,106,61,90,77,15,20,5,6,0.6,0.7
2022-04-22T05:00:00,1893A,105.4324,28.9634,泸州市,九狮山(对照点),细颗粒物(PM2.5),83,92,82,61,42,188,34,28,28,17,24,14,12,0.6,0.5
2022-04-22T05:00:00,1894A,105.4427,28.9063,泸州市,小市上码头,颗粒物(PM10),80,110,98,54,42,185,66,59,59,24,39,42,22,0.8,0.8
2022-04-22T05:00:00,1895A,105.4241,28.8573,泸州市,兰田宪桥,颗粒物(PM10),82,113,86,57,38,188,46,58,54,24,26,18,25,0.6,0.6
2022-04-22T05:00:00,1896A,105.4379,28.8833,泸州市,市环监站,细颗粒物(PM2.5),79,95,83,58,46,179,64,77,72,26,33,38,25,0.6,0.6
2022-04-22T05:00:00,1901A,104.4239,31.1208,德阳市,东山公园,颗粒物(PM10),65,79,80,42,36,152,27,76,57,45,25,12,11,0.7,0.6
2022-04-22T05:00:00,1902A,104.3826,31.1317,德阳市,西小区,颗粒物(PM10),67,83,85,47,41,155,37,58,48,40,32,37,14,0.5,0.5
2022-04-22T05:00:00,1904A,104.3553,31.1091,德阳市,耐火材料厂,细颗粒物(PM2.5),78,89,89,57,44,161,33,50,41,36,31,28,16,0.6,0.5
2022-04-22T05:00:00,1905A,106.056,30.8064,南充市,西山风景区(对照点),颗粒物(PM10),51,52,55,29,34,150,92,118,104,10,11,2,2,0.5,0.5
2022-04-22T05:00:00,1906A,106.0789,30.8023,南充市,南充市委,颗粒物(PM10),52,54,62,33,34,148,71,99,85,19,17,2,2,0.6,0.6
2022-04-22T05:00:00,1907A,106.1031,30.8217,南充市,南充炼油厂,颗粒物(PM10),59,68,66,31,31,177,48,90,74,20,13,2,3,0.5,0.5
2022-04-22T05:00:00,1908A,106.1064,30.7856,南充市,高坪区监测站,细颗粒物(PM2.5),53,44,63,37,34,145,30,53,42,24,21,2,3,0.5,0.5
2022-04-22T05:00:00,1909A,106.0642,30.7636,南充市,嘉陵区环保局,细颗粒物(PM2.5),52,43,52,36,34,133,69,94,72,15,23,5,6,0.4,0.4
2022-04-22T05:00:00,1910A,106.1087,30.8388,南充市,市环境监测站,细颗粒物(PM2.5),57,58,64,40,36,148,70,94,82,13,15,1,2,0.3,0.3
2022-04-22T05:00:00,1911A,106.9222,27.6869,遵义市,丁字口,,37,37,35,23,20,110,62,65,64,12,14,7,8,0.4,0.4
2022-04-22T05:00:00,1912A,106.9242,27.7019,遵义市,凤凰山,,28,28,30,15,19,109,67,79,73,8,11,6,7,0.5,0.5
2022-04-22T05:00:00,1913A,106.8906,27.6486,遵义市,忠庄,,35,35,40,24,20,116,53,71,62,10,13,3,5,0.6,0.7
2022-04-22T05:00:00,1914A,106.9231,27.6506,遵义市,舟水桥,,28,24,28,19,16,99,38,57,51,12,11,3,4,0.4,0.4
2022-04-22T05:00:00,1915A,106.9178,27.72,遵义市,干田坝,,29,29,29,14,20,108,63,72,66,7,11,7,7,0.7,0.7
2022-04-22T05:00:00,1916A,103.7897,25.5035,曲靖市,环境监测站,,24,24,41,14,18,125,76,71,71,6,12,5,7,0.4,0.5
2022-04-22T05:00:00,1917A,103.8,25.5364,曲靖市,烟厂办公区,,30,30,33,12,17,139,82,84,82,8,11,5,6,0.5,0.7
2022-04-22T05:00:00,1918A,108.7197,34.3956,咸阳市,气象站(对照点),颗粒物(PM10),89,127,119,49,40,174,3,6,5,90,63,8,7,0.8,0.7
2022-04-22T05:00:00,1919A,108.673,34.3155,咸阳市,实验中学,颗粒物(PM10),97,143,122,57,42,169,3,6,4,88,61,5,4,0.7,0.7
2022-04-22T05:00:00,1920A,108.7233,34.3617,咸阳市,师范学院,颗粒物(PM10),92,134,112,58,50,168,2,12,8,82,55,5,5,1.0,1
2022-04-22T05:00:00,1922A,109.0656,35.0994,铜川市,党校(对照点),颗粒物(PM10),166,281,92,82,40,123,55,63,55,25,53,6,7,0.3,0.5
2022-04-22T05:00:00,1923A,109.0697,35.0697,铜川市,王益区政府,颗粒物(PM10),128,205,83,58,30,142,42,36,36,22,38,8,11,0.3,0.6
2022-04-22T05:00:00,1924A,108.9344,34.9058,铜川市,新区管委会,颗粒物(PM10),166,281,90,57,32,164,66,86,81,29,28,16,10,0.3,0.4
2022-04-22T05:00:00,1926A,109.4131,36.6275,延安市,枣园(对照点),颗粒物(PM10),75,100,240,29,60,133,17,11,11,31,33,3,3,0.4,0.4
2022-04-22T05:00:00,1927A,109.4761,36.6028,延安市,延大医附院,颗粒物(PM10),86,121,256,26,72,138,7,4,4,43,35,4,4,0.6,0.6
2022-04-22T05:00:00,1929A,109.5056,36.6106,延安市,百米大道,颗粒物(PM10),90,130,250,36,62,132,3,11,5,53,37,5,6,0.5,0.6
2022-04-22T05:00:00,1930A,107.185,34.3063,宝鸡市,庙沟村(对照点),颗粒物(PM10),99,148,62,44,24,125,83,102,95,10,10,4,5,0.2,0.4
2022-04-22T05:00:00,1931A,107.0708,34.3017,宝鸡市,竹园沟,颗粒物(PM10),75,99,50,33,26,137,74,82,80,12,16,6,6,0.3,0.4
2022-04-22T05:00:00,1932A,107.1906,34.3672,宝鸡市,三陆医院,颗粒物(PM10),68,85,71,30,26,140,14,46,33,49,31,12,8,0.5,0.5
2022-04-22T05:00:00,1933A,107.1431,34.3547,宝鸡市,监测站,颗粒物(PM10),59,68,55,31,27,142,49,55,53,18,26,3,4,0.4,0.5
2022-04-22T05:00:00,1934A,107.1186,34.3739,宝鸡市,技工学校,颗粒物(PM10),62,73,68,24,24,145,56,62,58,11,20,6,6,0.2,0.3
2022-04-22T05:00:00,1935A,107.3906,34.3528,宝鸡市,陈仓区环保局家属楼,颗粒物(PM10),71,91,77,36,32,136,34,42,40,25,35,19,40,0.5,0.7
2022-04-22T05:00:00,1936A,107.2058,34.3497,宝鸡市,文理学院,颗粒物(PM10),60,70,60,35,29,138,54,64,56,22,30,8,8,0.3,0.4
2022-04-22T05:00:00,1937A,107.2386,34.3622,宝鸡市,三迪小学,颗粒物(PM10),57,64,67,30,29,139,42,58,50,30,38,9,8,0.3,0.5
2022-04-22T05:00:00,1938A,109.5293,34.5101,渭南市,农科所(对照点),颗粒物(PM10),51,51,78,29,38,156,58,94,73,25,34,12,16,0.4,0.5
2022-04-22T05:00:00,1939A,109.4974,34.4877,渭南市,日报社,颗粒物(PM10),54,58,78,31,29,159,4,57,40,74,41,11,18,0.5,0.5
2022-04-22T05:00:00,1940A,109.4636,34.493,渭南市,体育馆,颗粒物(PM10),63,75,83,32,28,171,7,67,31,73,51,17,19,0.6,0.5
2022-04-22T05:00:00,1941A,109.4259,34.5023,渭南市,高新一小,颗粒物(PM10),85,120,110,53,41,166,5,13,10,77,44,8,8,0.7,0.6
2022-04-22T05:00:00,1943A,102.1725,38.5339,金昌市,新川苑,颗粒物(PM10),70,89,98,16,17,105,43,57,53,16,14,11,11,0.7,0.6
2022-04-22T05:00:00,1944A,102.1692,38.5167,金昌市,天庆家园,颗粒物(PM10),67,84,97,22,19,103,40,54,44,20,15,20,15,0.4,0.3
2022-04-22T05:00:00,1945A,98.2908,39.7711,嘉峪关市,气象局,颗粒物(PM10),75,100,70,27,17,126,62,82,76,32,18,42,9,1.2,0.5
2022-04-22T05:00:00,1947A,106.3394,38.817,石嘴山市,沙湖旅游区(对照点),颗粒物(PM10),67,84,406,43,129,106,14,42,32,46,26,47,38,1.4,0.5
2022-04-22T05:00:00,1948A,106.3668,39.0145,石嘴山市,大武口朝阳西街,,39,39,244,21,65,107,43,29,29,22,16,14,11,0.4,0.4
2022-04-22T05:00:00,1949A,106.7704,39.2282,石嘴山市,惠农南大街,,38,27,225,26,98,95,41,40,40,15,22,9,16,0.3,0.6
2022-04-22T05:00:00,1950A,106.7099,39.1325,石嘴山市,红果子镇惠新街,,31,31,337,16,78,96,34,38,37,18,17,8,26,0.4,0.6
2022-04-22T05:00:00,1951A,84.895,45.6094,克拉玛依市,长征新村,,29,12,31,1,6,103,92,93,93,2,9,8,8,0.2,0.4
2022-04-22T05:00:00,1952A,84.8988,45.5893,克拉玛依市,南林小区,,32,19,41,11,11,115,102,99,99,3,15,6,6,0.4,0.4
2022-04-22T05:00:00,1954A,84.905,44.3396,克拉玛依市,独山子区,,35,35,71,13,18,149,96,94,94,5,15,5,7,0.3,0.4
2022-04-22T05:00:00,1955A,85.6979,46.098,克拉玛依市,乌尔禾区商贸楼,,27,10,29,6,10,104,85,90,86,1,10,9,8,0.3,0.3
2022-04-22T05:00:00,1956A,86.1472,41.7538,巴音郭楞州,孔雀公园,,36,36,174,13,51,118,76,80,79,6,12,1,2,0.5,0.5
2022-04-22T05:00:00,1957A,86.1972,41.7166,巴音郭楞州,棉纺厂,,24,22,180,5,57,115,76,69,69,4,15,2,2,0.3,0.3
2022-04-22T05:00:00,1958A,86.2357,41.7173,巴音郭楞州,经济开发区,,46,18,229,32,58,121,86,83,83,2,9,2,3,0.3,0.5
2022-04-22T05:00:00,1961A,117.532,36.6868,济南市,东山小学,颗粒物(PM10),86,122,74,44,29,152,73,126,105,15,10,17,10,1.0,0.3
2022-04-22T05:00:00,1966A,120.0405,35.8735,青岛市,黄岛区4号,颗粒物(PM10),62,73,77,36,45,155,88,104,97,22,29,8,8,0.7,0.6
2022-04-22T05:00:00,1982A,122.0693,37.2174,威海市,文登开发区,颗粒物(PM10),59,68,81,41,39,188,159,177,167,15,17,5,5,0.6,0.5
2022-04-22T05:00:00,2031A,113.1817,27.9958,株洲市,云田中学,,44,44,44,30,28,135,42,73,58,28,14,12,9,0.7,0.5
2022-04-22T05:00:00,2054A,114.1099,32.1059,信阳市,平桥分局,,47,47,46,29,30,141,85,117,105,18,11,12,11,0.5,0.5
2022-04-22T05:00:00,2064A,113.9956,32.1271,信阳市,南湾水厂,颗粒物(PM10),53,56,54,28,24,149,98,142,118,15,9,11,9,0.5,0.4
2022-04-22T05:00:00,2065A,114.0775,32.1195,信阳市,市酿酒公司,,45,45,44,25,24,137,83,102,77,19,16,8,8,0.6,0.5
2022-04-22T05:00:00,2066A,114.0609,32.1399,信阳市,审计局,,46,46,48,29,26,136,82,110,91,20,15,11,10,0.4,0.2
2022-04-22T05:00:00,2067A,114.6613,33.6128,周口市,市环境监测站,颗粒物(PM10),51,51,66,24,22,146,82,102,87,21,12,10,8,0.6,0.6
2022-04-22T05:00:00,2068A,114.6758,33.6347,周口市,周口师范,颗粒物(PM10),52,53,63,24,23,138,81,93,86,11,10,8,8,0.5,0.5
2022-04-22T05:00:00,2069A,114.6546,33.5979,周口市,市运管处,,49,49,58,24,29,137,82,94,85,10,8,6,5,0.8,0.7
2022-04-22T05:00:00,2070A,114.6369,33.6406,周口市,川汇区环保局,,47,47,60,24,24,141,71,104,90,19,9,6,6,0.6,0.6
2022-04-22T05:00:00,2075A,117.6336,24.4674,漳州市,九湖(对照点),"颗粒物(PM10),细颗粒物(PM2.5)",60,69,72,43,46,174,47,40,40,22,26,8,11,0.6,0.6
2022-04-22T05:00:00,2160A,112.85,35.5051,晋城市,自来水公司,,,320,114,,25,180,48,44,44,38,38,26,7,1.7,0.8
2022-04-22T05:00:00,2161A,112.8318,35.4936,晋城市,白云商贸,颗粒物(PM10),159,268,102,58,24,175,37,28,28,40,34,20,8,2.0,0.9
2022-04-22T05:00:00,2162A,112.8508,35.4887,晋城市,市环保局,颗粒物(PM10),174,298,102,85,33,178,38,32,32,39,36,30,13,1.8,0.8
2022-04-22T05:00:00,2163A,112.8676,35.4897,晋城市,技术学院,颗粒物(PM10),173,295,105,78,30,163,31,34,31,49,38,25,8,1.5,0.8
2022-04-22T05:00:00,2165A,112.8453,35.546,晋城市,白马寺 (对照点),颗粒物(PM10),157,263,127,75,26,198,66,105,76,25,18,28,13,1.1,0.7
2022-04-22T05:00:00,2166A,112.4397,39.3522,朔州市,平朔,颗粒物(PM10),53,56,349,16,76,109,30,73,51,30,13,6,6,0.4,0.3
2022-04-22T05:00:00,2167A,112.4575,39.3617,朔州市,朔唯,颗粒物(PM10),54,58,346,17,74,113,26,68,49,35,11,16,6,0.4,0.4
2022-04-22T05:00:00,2168A,112.4258,39.3197,朔州市,区政府,,34,34,336,2,62,110,47,78,64,17,11,8,6,0.5,0.5
2022-04-22T05:00:00,2169A,112.4072,39.3278,朔州市,市环保局,,30,30,332,7,52,106,47,75,63,16,14,8,7,0.3,0.3
2022-04-22T05:00:00,2170A,112.4272,39.3681,朔州市,市二中,颗粒物(PM10),57,64,363,12,77,112,28,68,41,32,14,5,7,0.4,0.4
2022-04-22T05:00:00,2171A,112.7532,37.6945,晋中市,锦纶小区,颗粒物(PM10),85,120,174,30,46,132,18,86,63,51,21,2,8,0.3,0.3
2022-04-22T05:00:00,2174A,112.6991,37.6982,晋中市,榆次区政府,细颗粒物(PM2.5),90,97,170,67,56,129,57,67,65,22,19,6,10,2.6,2.8
2022-04-22T05:00:00,2175A,110.9956,35.0147,运城市,运城中学,颗粒物(PM10),91,132,97,41,38,170,36,40,39,32,30,9,9,0.8,0.6
2022-04-22T05:00:00,2178A,110.9686,35.0303,运城市,地区技校,颗粒物(PM10),100,150,100,41,34,166,15,12,11,61,42,8,8,0.6,0.5
2022-04-22T05:00:00,2179A,111.0414,35.1147,运城市,空港新区,颗粒物(PM10),135,220,124,67,43,168,29,41,28,42,38,31,12,1.8,0.7
2022-04-22T05:00:00,2181A,112.7383,38.4519,忻州市,开发区,,46,46,221,12,55,117,66,70,69,9,10,12,13,0.4,0.5
2022-04-22T05:00:00,2182A,112.7003,38.4928,忻州市,会展中心,,47,47,199,6,46,120,60,63,62,14,17,10,10,0.4,0.4
2022-04-22T05:00:00,2183A,111.1406,37.5211,吕梁市,环保局,颗粒物(PM10),83,115,287,17,63,113,4,1,1,57,38,7,8,0.2,0.3
2022-04-22T05:00:00,2187A,106.8174,39.6973,乌海市,市林业局,颗粒物(PM10),77,104,129,19,36,102,16,24,17,64,21,67,10,1.1,0.5
2022-04-22T05:00:00,2188A,106.7907,39.6667,乌海市,中海勃湾学校,,50,50,121,21,32,105,12,54,31,69,19,38,9,1.2,0.4
2022-04-22T05:00:00,2191A,122.2532,43.6801,通辽市,艺术职业学校,,41,41,60,13,22,130,48,63,57,17,16,6,7,0.3,0.5
2022-04-22T05:00:00,2192A,119.7594,49.2261,呼伦贝尔市,区环保局,,39,31,29,27,16,94,72,74,73,8,10,4,5,0.2,0.2
2022-04-22T05:00:00,2195A,107.4212,40.761,巴彦淖尔市,附二中,颗粒物(PM10),66,82,74,26,22,97,18,74,57,48,10,5,6,0.5,0.4
2022-04-22T05:00:00,2196A,107.37,40.7372,巴彦淖尔市,市环保大楼,,26,25,60,18,26,100,50,79,68,14,6,4,4,0.3,0.3
2022-04-22T05:00:00,2197A,113.1306,40.9923,乌兰察布市,集宁新区,,25,25,106,10,22,104,60,65,58,12,6,8,7,0.3,0.3
2022-04-22T05:00:00,2200A,122.0392,46.0656,兴安盟,胜华新制药厂,,48,48,44,30,29,69,10,25,15,22,13,2,3,0.3,0.3
2022-04-22T05:00:00,2201A,121.9504,46.0741,兴安盟,科右前旗环保局,,35,29,33,24,25,79,8,26,16,27,15,3,4,0.4,0.3
2022-04-22T05:00:00,2202A,116.1042,43.9317,锡林郭勒盟,市环保监测站,,17,8,93,2,8,84,54,57,55,3,8,8,9,0.5,0.4
2022-04-22T05:00:00,2203A,116.0781,43.9311,锡林郭勒盟,市政府,,20,5,81,3,7,82,61,59,59,5,9,8,7,0.5,0.6
2022-04-22T05:00:00,2204A,105.6467,38.8363,阿拉善盟,西城区西花园(对照点),颗粒物(PM10),83,116,380,30,99,110,93,92,91,5,7,7,6,0.3,0.3
2022-04-22T05:00:00,2205A,105.6985,38.8411,阿拉善盟,蒙二幼,颗粒物(PM10),89,127,369,25,97,112,94,92,92,3,7,6,6,0.4,0.4
2022-04-22T05:00:00,2206A,105.724,38.8516,阿拉善盟,环保局新楼,颗粒物(PM10),72,94,280,30,97,116,101,99,99,5,7,7,7,0.4,0.4
2022-04-22T05:00:00,2207A,121.6094,41.998,阜新市,工业园区,,24,7,87,8,31,354,75,96,88,15,19,7,9,0.3,0.5
2022-04-22T05:00:00,2208A,121.6697,42.0279,阜新市,长青街,,20,20,72,6,23,156,63,80,73,9,13,8,12,0.3,0.5
2022-04-22T05:00:00,2209A,121.6673,42.0705,阜新市,农业园区,,17,5,74,6,36,158,54,79,68,13,15,6,8,0.4,0.6
2022-04-22T05:00:00,2210A,121.6717,42.0224,阜新市,东苑,,19,9,86,4,25,152,60,80,72,16,17,5,11,0.4,0.7
2022-04-22T05:00:00,2211A,121.6506,42.0498,阜新市,玉龙新城,,19,13,63,4,21,155,58,80,69,10,11,9,12,0.2,0.3
2022-04-22T05:00:00,2212A,123.2,41.1953,辽阳市,宏伟区,,26,21,44,18,30,145,57,48,48,10,11,8,8,0.5,0.6
2022-04-22T05:00:00,2213A,123.1683,41.2495,辽阳市,新华园,,25,21,51,17,32,162,59,50,50,10,10,4,5,0.4,0.3
2022-04-22T05:00:00,2214A,123.2354,41.2639,辽阳市,滨河路,,26,18,66,18,35,161,62,54,54,6,14,5,9,0.4,0.5
2022-04-22T05:00:00,2215A,123.149,41.2991,辽阳市,铁西工业园,,20,20,60,14,31,157,53,45,45,10,14,9,11,0.4,0.5
2022-04-22T05:00:00,2216A,123.8139,42.3022,铁岭市,汇工街西,,21,13,70,11,31,170,66,67,67,12,16,5,9,0.3,0.5
2022-04-22T05:00:00,2217A,123.8649,42.2923,铁岭市,水上乐园,,20,13,62,11,28,168,63,62,62,8,14,5,7,0.2,0.4
2022-04-22T05:00:00,2218A,123.8486,42.2867,铁岭市,银州路东段,,20,17,75,14,30,166,64,65,65,10,39,5,6,0.3,0.5
2022-04-22T05:00:00,2219A,123.7153,42.2217,铁岭市,金沙江路北,,21,17,78,12,33,158,65,66,66,13,20,6,7,0.3,0.6
2022-04-22T05:00:00,2220A,120.4318,41.5881,朝阳市,西梁,,24,7,75,2,26,136,76,81,75,5,10,7,11,0.5,0.7
2022-04-22T05:00:00,2221A,120.4521,41.5646,朝阳市,河畔小区,,24,5,72,3,24,137,76,81,76,5,10,6,9,0.4,0.6
2022-04-22T05:00:00,2222A,120.4176,41.5648,朝阳市,八里堡,,24,2,81,0,25,135,74,80,75,7,13,5,9,0.5,0.7
2022-04-22T05:00:00,2223A,120.3806,41.5969,朝阳市,农业园区,,23,7,74,2,25,132,72,74,73,11,13,7,11,0.4,0.6
2022-04-22T05:00:00,2225A,124.4002,43.1713,四平市,一商场,,23,9,57,16,29,165,58,68,65,4,8,7,9,0.5,0.5
2022-04-22T05:00:00,2226A,124.388,43.193,四平市,境园,,19,9,56,5,24,172,59,70,67,3,5,5,8,0.6,0.4
2022-04-22T05:00:00,2227A,125.1358,42.8845,辽源市,环保局,,22,10,43,8,30,174,70,60,60,5,8,6,6,0.7,0.8
2022-04-22T05:00:00,2229A,125.9358,41.7173,通化市,光明,,45,15,44,6,25,200,144,165,153,5,7,10,11,0.4,0.5
2022-04-22T05:00:00,2230A,125.9446,41.7325,通化市,铁路,,40,18,42,8,25,178,128,148,138,5,8,13,13,0.6,0.7
2022-04-22T05:00:00,2231A,126.4219,41.9171,白山市,喜丰,,47,47,75,12,26,193,122,160,138,20,19,9,9,0.6,0.5
2022-04-22T05:00:00,2232A,126.4077,41.9419,白山市,环保局,,42,36,62,20,29,170,134,160,144,12,16,7,9,0.3,0.6
2022-04-22T05:00:00,2233A,124.8006,45.1214,松原市,江南,,27,27,92,8,37,143,49,65,59,10,15,2,3,0.3,0.5
2022-04-22T05:00:00,2234A,124.7965,45.1722,松原市,江北,,20,20,75,7,35,131,53,63,60,9,13,3,2,0.3,0.5
2022-04-22T05:00:00,2235A,122.7911,45.6077,白城市,洮北区环保局,,,48,52,,,67,38,38,36,18,15,4,4,0.5,0.4
2022-04-22T05:00:00,2236A,122.8738,45.5725,白城市,市环保局,细颗粒物(PM2.5),53,41,54,37,33,43,31,39,37,21,24,5,5,0.4,0.4
2022-04-22T05:00:00,2237A,129.47,42.8883,延边朝鲜族自治州,妇幼医院,,42,42,41,17,20,135,103,89,88,10,13,7,7,0.5,0.6
2022-04-22T05:00:00,2238A,129.5055,42.9108,延边朝鲜族自治州,延边医院,,47,47,44,16,21,142,130,108,107,9,12,10,10,0.7,0.6
2022-04-22T05:00:00,2239A,129.3964,42.8881,延边朝鲜族自治州,朝阳川镇医院,颗粒物(PM10),52,54,43,12,19,145,122,81,81,7,12,7,7,0.5,0.5
2022-04-22T05:00:00,2240A,130.9762,45.3001,鸡西市,环保局,细颗粒物(PM2.5),142,143,94,108,71,162,66,89,79,34,35,,,0.7,0.6
2022-04-22T05:00:00,2243A,130.9429,45.3039,鸡西市,第一中学,细颗粒物(PM2.5),150,165,111,115,63,166,72,92,82,31,28,10,10,1.0,0.7
2022-04-22T05:00:00,2244A,130.2537,47.3416,鹤岗市,哈啤分公司,,23,14,56,14,28,188,73,83,78,6,12,10,13,0.3,0.4
2022-04-22T05:00:00,2245A,130.2684,47.3086,鹤岗市,斯达机电,,24,14,61,7,27,171,76,85,81,4,14,6,11,0.3,0.5
2022-04-22T05:00:00,2246A,130.3114,47.3388,鹤岗市,东山纸板厂,,24,7,59,8,26,168,75,84,81,4,10,9,12,0.5,0.4
2022-04-22T05:00:00,2248A,131.1511,46.6937,双鸭山市,双合村,,17,1,89,1,59,200,53,51,51,14,19,4,7,0.3,0.6
2022-04-22T05:00:00,2249A,131.1652,46.6191,双鸭山市,南小市,,21,0,114,1,78,187,66,58,58,6,15,1,6,0.5,0.8
2022-04-22T05:00:00,2250A,131.1524,46.6554,双鸭山市,环保局,,20,11,86,13,62,201,62,59,59,10,22,2,9,0.2,0.6
2022-04-22T05:00:00,2251A,131.12,46.5656,双鸭山市,苗圃(对照点),,35,15,82,24,71,195,61,50,50,8,15,1,6,0.5,0.8
2022-04-22T05:00:00,2252A,128.5159,47.4311,伊春市,环保局,,17,13,25,11,11,85,53,54,53,8,14,5,5,0.3,0.4
2022-04-22T05:00:00,2253A,128.9102,47.7412,伊春市,电力嘉园,,25,16,36,17,21,89,58,65,62,6,9,7,9,0.5,0.6
2022-04-22T05:00:00,2254A,129.5029,48.471,伊春市,汤旺河国家公园(对照点),,17,10,4,4,1,82,52,48,47,4,7,5,6,0.4,0.3
2022-04-22T05:00:00,2255A,130.2751,46.8028,佳木斯市,佳纺,,20,10,98,4,92,219,62,71,69,14,20,3,7,0.4,0.8
2022-04-22T05:00:00,2256A,130.3995,46.8307,佳木斯市,发电厂,,25,7,89,6,83,225,78,75,75,6,19,4,9,0.3,0.6
2022-04-22T05:00:00,2257A,130.3258,46.7975,佳木斯市,环保局,,25,10,120,2,88,220,78,74,74,3,17,4,9,0.3,0.7
2022-04-22T05:00:00,2258A,130.3648,46.8032,佳木斯市,十一中,,25,6,94,4,77,214,79,75,75,5,20,8,13,0.4,0.8
2022-04-22T05:00:00,2259A,130.3794,46.7588,佳木斯市,四丰(对照点),,23,9,87,3,71,226,72,70,70,10,17,5,7,0.9,0.8
2022-04-22T05:00:00,2262A,131.0518,45.8751,七台河市,新一中(对照点),细颗粒物(PM2.5),57,47,75,40,48,168,78,108,98,14,15,8,10,1.0,0.9
2022-04-22T05:00:00,2263A,127.4833,50.2524,黑河市,交通局,,19,9,13,9,9,83,60,63,62,4,5,3,4,0.4,0.4
2022-04-22T05:00:00,2264A,127.5144,50.2341,黑河市,环保局,,23,14,28,7,13,78,71,73,72,4,11,4,9,0.3,0.3
2022-04-22T05:00:00,2265A,127.5291,50.2472,黑河市,大黑河岛(对照点),,20,17,39,13,8,79,62,66,63,4,10,9,8,0.3,0.3
2022-04-22T05:00:00,2266A,126.9785,46.6365,绥化市,人和东街,,26,26,166,10,87,149,42,54,47,8,20,8,11,0.6,0.9
2022-04-22T05:00:00,2267A,126.964,46.6528,绥化市,党政办公中心,,15,14,135,10,74,135,46,58,50,8,18,6,9,0.3,0.6
2022-04-22T05:00:00,2269A,124.1069,50.4097,大兴安岭地区,科技局,,20,15,14,14,13,90,35,50,43,4,6,3,4,0.4,0.3
2022-04-22T05:00:00,2270A,117.396,32.939,蚌埠市,工人疗养院,颗粒物(PM10),56,62,62,29,29,158,94,91,91,13,12,9,10,0.3,0.3
2022-04-22T05:00:00,2271A,117.3605,32.9427,蚌埠市,百货大楼,颗粒物(PM10),58,65,64,19,19,154,102,95,95,16,17,13,10,0.5,0.5
2022-04-22T05:00:00,2273A,117.4185,32.8911,蚌埠市,蚌埠学院,颗粒物(PM10),51,51,62,29,25,147,88,90,90,8,9,13,11,0.6,0.5
2022-04-22T05:00:00,2274A,117.3533,32.9673,蚌埠市,淮上区政府,颗粒物(PM10),58,66,69,27,26,145,95,93,93,14,13,16,13,0.4,0.4
2022-04-22T05:00:00,2275A,117.3145,32.8977,蚌埠市,高新区,颗粒物(PM10),57,63,69,29,28,149,67,79,74,30,22,17,14,0.5,0.4
2022-04-22T05:00:00,2277A,116.8305,32.7727,淮南市,潘集区政府,,48,45,56,33,34,136,96,89,89,4,6,6,6,0.3,0.3
2022-04-22T05:00:00,2278A,117.0067,32.6524,淮南市,师范学院,,40,26,40,28,26,141,109,110,110,1,4,7,7,0.4,0.3
2022-04-22T05:00:00,2279A,116.8569,32.5951,淮南市,谢家集区政府,,45,45,49,21,22,127,96,88,88,7,11,5,5,0.3,0.3
2022-04-22T05:00:00,2280A,116.8281,32.633,淮南市,八公山区政府,,48,48,59,26,25,123,98,89,89,1,6,7,7,0.3,0.3
2022-04-22T05:00:00,2281A,116.6325,32.6201,淮南市,焦岗湖风景区管理处(对照点),,36,36,45,22,22,136,80,85,83,10,6,6,6,0.3,0.2
2022-04-22T05:00:00,2282A,116.8004,33.975,淮北市,监测站,颗粒物(PM10),58,66,72,36,28,133,86,102,97,14,10,10,8,0.5,0.4
2022-04-22T05:00:00,2283A,116.8091,33.9007,淮北市,烈山区政府,颗粒物(PM10),62,73,74,34,31,138,67,78,75,23,12,5,5,0.6,0.5
2022-04-22T05:00:00,2284A,116.7856,33.9477,淮北市,职业技术学院,颗粒物(PM10),59,68,68,39,29,129,83,94,90,14,11,9,7,0.8,0.7
2022-04-22T05:00:00,2285A,117.8177,30.9412,铜陵市,市第四中学,颗粒物(PM10),53,56,61,26,28,142,20,10,10,57,32,15,19,0.6,0.8
2022-04-22T05:00:00,2286A,117.8059,30.9273,铜陵市,市公路局,,,75,71,32,27,133,48,66,26,40,33,,20,0.7,0.8
2022-04-22T05:00:00,2287A,117.7807,30.9413,铜陵市,市新民污水厂,颗粒物(PM10),56,61,67,36,32,137,31,8,8,55,43,18,19,0.7,0.6
2022-04-22T05:00:00,2288A,117.7439,30.8792,铜陵市,市第九中学,颗粒物(PM10),68,86,74,33,33,126,19,30,12,63,50,6,9,0.6,0.6
2022-04-22T05:00:00,2289A,117.846,30.9413,铜陵市,车站新区,颗粒物(PM10),53,56,56,30,31,134,57,107,57,34,24,6,8,0.6,0.5
2022-04-22T05:00:00,2290A,117.8483,30.97,铜陵市,市职教基地,颗粒物(PM10),60,69,56,32,26,135,27,42,20,47,30,25,26,0.8,0.9
2022-04-22T05:00:00,2291A,117.0809,30.5177,安庆市,环科院,,46,46,45,23,21,122,70,66,66,24,25,11,7,0.5,0.5
2022-04-22T05:00:00,2292A,117.0331,30.5119,安庆市,马山宾馆,细颗粒物(PM2.5),54,49,46,38,27,124,43,83,65,50,25,13,8,0.7,0.7
2022-04-22T05:00:00,2294A,116.9896,30.6145,安庆市,安庆大学,,49,49,49,24,24,135,21,67,51,37,18,5,6,0.8,0.5
2022-04-22T05:00:00,2295A,118.2903,29.6963,黄山市,延安路89号,,31,31,39,21,23,120,10,19,14,12,6,4,5,0.5,0.5
2022-04-22T05:00:00,2296A,118.327,29.7178,黄山市,黄山东路89号,,35,35,37,21,20,118,7,26,16,9,8,4,4,0.5,0.5
2022-04-22T05:00:00,2297A,118.1371,30.2756,黄山市,黄山区政府5号楼,,32,32,36,16,17,122,16,29,24,5,7,4,5,0.4,0.5
2022-04-22T05:00:00,2298A,118.3093,32.3153,滁州市,老年大学,颗粒物(PM10),52,54,62,22,26,154,74,102,90,19,15,15,13,0.3,0.3
2022-04-22T05:00:00,2299A,118.3244,32.2786,滁州市,人大宾馆,颗粒物(PM10),51,52,59,24,28,151,44,78,71,32,22,6,7,0.4,0.4
2022-04-22T05:00:00,2301A,115.8277,32.8929,阜阳市,市监测站,,44,44,53,22,24,144,89,127,109,13,11,8,8,0.6,0.5
2022-04-22T05:00:00,2303A,115.8554,32.8605,阜阳市,开发区,,50,50,56,30,27,142,89,118,106,18,14,5,6,0.4,0.4
2022-04-22T05:00:00,2307A,116.5079,31.737,六安市,监测大楼,,38,38,36,14,22,126,102,122,114,5,5,5,6,0.3,0.3
2022-04-22T05:00:00,2308A,116.4738,31.7643,六安市,皖西学院,,33,33,41,21,17,126,88,123,113,5,6,8,8,0.3,0.2
2022-04-22T05:00:00,2309A,116.4996,31.7905,六安市,朝阳厂,,38,38,38,18,19,119,70,117,105,6,2,5,6,0.3,0.3
2022-04-22T05:00:00,2310A,116.5567,31.7886,六安市,开发区,,48,48,43,22,20,132,92,104,101,3,3,6,6,0.4,0.3
2022-04-22T05:00:00,2311A,115.8072,33.8399,亳州市,污水处理厂,,42,42,46,23,24,134,101,105,104,6,7,8,7,0.5,0.5
2022-04-22T05:00:00,2312A,115.7789,33.8518,亳州市,三国揽胜宫,,48,48,54,26,30,138,101,105,104,9,9,9,7,0.5,0.6
2022-04-22T05:00:00,2314A,117.47,30.6618,池州市,池州学院,,48,48,52,28,30,129,59,46,46,18,16,26,8,0.6,0.5
2022-04-22T05:00:00,2316A,118.7581,30.9454,宣城市,鳌峰子站,,45,45,42,25,23,112,54,71,64,16,12,7,5,0.4,0.4
2022-04-22T05:00:00,2317A,118.7385,30.9743,宣城市,敬亭山子站,,29,29,38,20,21,121,54,64,60,14,17,6,7,0.4,0.4
2022-04-22T05:00:00,2318A,118.7173,30.9427,宣城市,开发区子站,,35,33,42,24,25,114,58,74,66,21,15,4,7,0.5,0.4
2022-04-22T05:00:00,2319A,119.0141,25.4325,莆田市,荔城区仓后路,细颗粒物(PM2.5),92,62,64,68,55,166,14,32,29,28,22,5,5,0.9,0.7
2022-04-22T05:00:00,2320A,119.0015,25.4553,莆田市,莆田市监测站,细颗粒物(PM2.5),89,45,54,66,57,173,35,60,43,8,13,4,5,0.8,0.8
2022-04-22T05:00:00,2321A,119.1119,25.4561,莆田市,涵江区六中,细颗粒物(PM2.5),105,99,55,79,60,154,3,35,20,54,24,7,7,0.8,0.7
2022-04-22T05:00:00,2322A,119.1013,25.3215,莆田市,秀屿区政府,细颗粒物(PM2.5),119,44,50,90,75,177,54,86,66,16,17,6,8,0.7,0.7
2022-04-22T05:00:00,2323A,118.981,25.4792,莆田市,东圳水库(对照点),细颗粒物(PM2.5),60,40,47,43,42,168,27,47,38,7,11,4,4,0.7,0.7
2022-04-22T05:00:00,2324A,117.6211,26.2625,三明市,三钢,,37,37,45,25,32,108,3,8,6,24,30,2,9,1.0,1.3
2022-04-22T05:00:00,2325A,117.635,26.2714,三明市,三明二中,,39,39,44,24,28,111,3,9,6,22,28,2,7,0.8,1.2
2022-04-22T05:00:00,2326A,117.6028,26.2378,三明市,三元区政府,,42,42,55,29,28,114,4,7,6,21,30,2,5,1.0,1.2
2022-04-22T05:00:00,2327A,117.7275,26.3108,三明市,洋溪(对照点),,26,25,35,18,26,122,6,16,10,11,14,4,7,0.7,0.9
2022-04-22T05:00:00,2331A,118.0966,26.6761,南平市,茫荡山(对照点),,36,16,21,25,18,97,60,69,64,2,2,5,5,0.6,0.6
2022-04-22T05:00:00,2332A,118.1681,26.6369,南平市,南平市监测站,,46,46,37,28,28,116,11,20,16,16,17,6,6,0.6,0.8
2022-04-22T05:00:00,2333A,118.1825,26.6489,南平市,南平铝业有限公司,,48,34,32,33,28,109,4,8,7,23,18,6,6,0.8,0.7
2022-04-22T05:00:00,2334A,118.1756,26.6272,南平市,南平七中,,50,34,33,35,27,114,10,23,18,14,13,2,3,0.5,0.6
2022-04-22T05:00:00,2335A,117.0189,25.1181,龙岩市,龙岩师专(对照点),,40,40,39,26,22,106,1,1,1,18,20,6,6,0.8,0.7
2022-04-22T05:00:00,2336A,117.0217,25.1033,龙岩市,龙岩市监测站,,47,47,39,24,29,104,2,3,2,26,23,9,7,0.7,0.7
2022-04-22T05:00:00,2337A,117.0258,25.0661,龙岩市,闽西职业技术学院,颗粒物(PM10),55,59,46,34,29,91,2,2,2,30,25,21,9,0.7,0.7
2022-04-22T05:00:00,2338A,117.0196,25.0306,龙岩市,龙岩学院,,24,24,30,16,20,90,22,22,22,10,12,3,4,0.6,0.7
2022-04-22T05:00:00,2339A,119.5001,26.6946,宁德市,金涵水库(对照点),,38,33,36,26,27,133,13,24,17,6,12,6,7,1.0,1
2022-04-22T05:00:00,2341A,119.5388,26.6612,宁德市,宁德市监测站,,42,42,41,24,27,127,21,52,29,31,20,8,8,0.9,0.9
2022-04-22T05:00:00,2342A,117.3102,29.3867,景德镇市,王港中学(对照点),,33,33,39,13,20,141,22,37,30,2,4,3,4,0.4,0.5
2022-04-22T05:00:00,2343A,117.2117,29.2933,景德镇市,老干部活动中心,颗粒物(PM10),53,55,60,30,31,124,42,32,32,19,23,5,7,0.4,0.5
2022-04-22T05:00:00,2344A,117.1894,29.2789,景德镇市,兽医站,,48,44,53,33,27,125,39,29,29,13,29,7,8,0.4,0.5
2022-04-22T05:00:00,2345A,117.1547,29.2617,景德镇市,台达陶瓷,颗粒物(PM10),54,58,73,21,31,121,35,23,23,25,39,11,27,0.1,0.3
2022-04-22T05:00:00,2346A,117.2461,29.2956,景德镇市,陶研所,颗粒物(PM10),56,61,54,29,24,117,29,24,24,23,20,10,9,0.4,0.4
2022-04-22T05:00:00,2347A,114.0997,27.5002,萍乡市,武功山(对照点),,9,2,10,2,8,108,27,46,39,8,9,10,10,0.3,0.3
2022-04-22T05:00:00,2348A,113.8385,27.6434,萍乡市,中医院,,50,45,55,35,36,121,17,13,13,32,37,6,9,1.0,1.2
2022-04-22T05:00:00,2349A,113.8493,27.6253,萍乡市,市政府车库,,49,49,61,24,24,122,6,8,6,34,32,6,9,1.1,1.2
2022-04-22T05:00:00,2350A,113.8676,27.6435,萍乡市,市环保局,细颗粒物(PM2.5),54,56,49,38,34,119,8,5,4,38,34,15,15,0.9,1.1
2022-04-22T05:00:00,2351A,113.866,27.6198,萍乡市,安源区政府,颗粒物(PM10),51,51,51,28,26,111,6,7,6,27,29,13,16,1.0,1.5
2022-04-22T05:00:00,2352A,115.0861,27.9317,新余市,北岗(对照点),,31,31,32,21,22,118,20,28,24,14,13,6,6,0.4,0.3
2022-04-22T05:00:00,2353A,114.9886,27.8431,新余市,飞宇,颗粒物(PM10),63,76,60,31,23,111,0,0,0,41,33,8,12,0.6,0.5
2022-04-22T05:00:00,2354A,114.9231,27.8246,新余市,第二水厂,颗粒物(PM10),55,59,65,34,31,110,16,9,9,24,29,9,19,1.3,0.8
2022-04-22T05:00:00,2355A,114.9308,27.8036,新余市,市气象局,颗粒物(PM10),55,60,56,33,33,108,5,6,5,46,37,11,15,0.6,0.7
2022-04-22T05:00:00,2357A,116.9822,28.1136,鹰潭市,龙虎山(对照点),,23,23,30,8,9,111,16,28,21,2,2,1,1,0.3,0.4
2022-04-22T05:00:00,2358A,117.0564,28.2642,鹰潭市,新监测站,颗粒物(PM10),51,52,49,29,27,168,6,19,5,27,20,34,29,0.5,0.5
2022-04-22T05:00:00,2359A,117.0311,28.2475,鹰潭市,财苑宾馆,,48,48,48,24,20,123,5,27,7,27,16,35,16,0.7,0.5
2022-04-22T05:00:00,2360A,117.0222,28.2264,鹰潭市,体育馆,颗粒物(PM10),72,94,48,48,22,119,68,51,51,54,17,46,11,1.5,0.6
2022-04-22T05:00:00,2361A,117.0017,28.2131,鹰潭市,三川水表,"颗粒物(PM10),细颗粒物(PM2.5)",67,84,47,48,23,112,50,45,44,48,16,32,9,1.3,0.8
2022-04-22T05:00:00,2362A,114.9017,25.9149,赣州市,通天岩(对照点),,46,38,39,32,25,133,62,59,59,20,18,10,7,0.7,0.7
2022-04-22T05:00:00,2363A,114.9367,25.8664,赣州市,地委,,36,36,36,21,21,108,81,84,83,14,19,7,9,0.7,0.7
2022-04-22T05:00:00,2364A,114.9461,25.8481,赣州市,气象台,,38,31,32,26,21,113,113,101,101,14,14,15,9,0.7,0.7
2022-04-22T05:00:00,2365A,114.9322,25.8333,赣州市,市图书馆,,38,33,35,26,23,118,102,96,96,15,20,15,8,0.9,1
2022-04-22T05:00:00,2366A,114.8905,25.8471,赣州市,华坚鞋城,,47,47,36,26,21,120,66,71,70,19,16,24,8,0.7,0.7
2022-04-22T05:00:00,2367A,114.9754,27.0803,吉安市,红声器材厂,,33,33,50,19,27,112,65,71,68,6,14,5,5,0.5,0.5
2022-04-22T05:00:00,2368A,114.9658,27.0999,吉安市,市森林工业局,,27,27,47,18,29,115,60,71,64,9,14,9,4,0.5,0.5
2022-04-22T05:00:00,2369A,114.99,27.1312,吉安市,市环境监测站,,28,28,48,18,24,115,66,69,68,9,15,15,12,0.3,0.4
2022-04-22T05:00:00,2370A,115.0093,27.0968,吉安市,青原区法院,,31,31,44,19,25,117,73,78,76,3,13,13,12,0.6,0.5
2022-04-22T05:00:00,2371A,114.3408,27.8064,宜春市,槟榔水业(对照点),颗粒物(PM10),62,74,58,30,26,139,1,3,2,34,24,1,3,0.6,0.5
2022-04-22T05:00:00,2373A,114.3956,27.7844,宜春市,市石油公司,,40,40,44,24,24,137,13,28,20,19,12,3,4,0.7,0.6
2022-04-22T05:00:00,2374A,114.3703,27.7914,宜春市,市气象局,,45,45,47,21,22,141,25,46,36,25,20,4,5,0.6,0.6
2022-04-22T05:00:00,2375A,114.4013,27.8074,宜春市,市广电局,颗粒物(PM10),58,65,48,28,24,135,22,29,18,33,22,3,4,0.9,0.9
2022-04-22T05:00:00,2376A,116.2127,28.0814,抚州市,桐源党溪(对照点),,29,27,37,20,22,113,25,38,35,19,11,6,7,0.7,0.7
2022-04-22T05:00:00,2377A,116.3544,27.9831,抚州市,市站,,44,44,42,27,23,109,33,42,31,24,16,8,6,0.6,0.6
2022-04-22T05:00:00,2378A,116.3565,27.963,抚州市,血防站,,43,43,38,22,21,109,34,43,34,4,4,12,6,0.7,0.7
2022-04-22T05:00:00,2379A,116.3564,28.0007,抚州市,采茶剧团,,45,45,39,25,20,111,29,48,35,17,12,10,6,0.8,0.8
2022-04-22T05:00:00,2380A,116.385,27.9647,抚州市,医学分院,颗粒物(PM10),56,61,42,27,20,106,34,42,33,16,12,19,9,0.7,0.7
2022-04-22T05:00:00,2381A,118.005,28.4572,上饶市,百草园(对照点),,46,46,38,20,22,144,37,47,43,28,11,84,11,0.6,0.5
2022-04-22T05:00:00,2382A,117.9756,28.4436,上饶市,市监测站,,45,45,44,29,22,144,32,30,30,28,14,80,9,0.8,0.5
2022-04-22T05:00:00,2383A,117.9519,28.4628,上饶市,凤凰光学,,42,41,44,29,28,146,13,36,22,34,18,32,14,0.5,0.5
2022-04-22T05:00:00,2385A,114.17,35.9019,鹤壁市,市监测站,颗粒物(PM10),81,112,108,40,38,153,64,47,47,24,30,13,10,0.6,0.6
2022-04-22T05:00:00,2386A,114.2956,35.7511,鹤壁市,市交警支队,颗粒物(PM10),94,137,103,38,36,159,52,51,40,29,26,13,12,1.0,0.7
2022-04-22T05:00:00,2387A,114.2878,35.7306,鹤壁市,迎宾馆,颗粒物(PM10),104,158,108,44,37,159,56,50,42,29,27,12,11,1.0,0.6
2022-04-22T05:00:00,2389A,113.836,35.311,新乡市,环保西院,颗粒物(PM10),113,175,87,36,32,168,63,47,37,34,30,11,13,0.8,0.6
2022-04-22T05:00:00,2390A,113.884,35.272,新乡市,开发区,颗粒物(PM10),154,258,84,39,31,156,59,57,34,38,33,12,6,0.9,0.6
2022-04-22T05:00:00,2391A,113.883,35.303,新乡市,环保东院,颗粒物(PM10),104,158,77,31,25,170,37,54,25,54,30,10,5,0.9,0.5
2022-04-22T05:00:00,2392A,115.0312,35.7636,濮阳市,环保局,颗粒物(PM10),95,140,81,40,31,126,65,84,70,22,15,23,10,0.5,0.4
2022-04-22T05:00:00,2394A,115.0574,35.7609,濮阳市,油田运输公司,颗粒物(PM10),75,99,82,37,29,127,67,83,72,18,19,20,8,0.4,0.4
2022-04-22T05:00:00,2395A,115.0866,35.7754,濮阳市,油田物探公司,颗粒物(PM10),73,95,84,36,28,132,59,87,70,20,15,14,9,0.4,0.4
2022-04-22T05:00:00,2396A,113.8276,34.0159,许昌市,监测站,颗粒物(PM10),59,68,64,33,28,123,60,80,72,20,13,15,9,0.5,0.5
2022-04-22T05:00:00,2398A,113.7906,33.9953,许昌市,开发区,颗粒物(PM10),54,58,64,29,26,127,49,66,54,13,14,16,8,0.5,0.5
2022-04-22T05:00:00,2399A,114.051,33.5699,漯河市,三五一五工厂,颗粒物(PM10),58,66,64,39,26,140,4,91,55,59,16,12,9,0.7,0.6
2022-04-22T05:00:00,2400A,114.0055,33.5698,漯河市,漯河大学,,39,39,43,27,28,137,55,94,78,15,15,2,3,0.3,0.4
2022-04-22T05:00:00,2401A,114.0138,33.5828,漯河市,市水利局,颗粒物(PM10),52,53,53,28,27,132,51,95,75,13,8,3,4,0.7,0.6
2022-04-22T05:00:00,2402A,114.0261,33.5698,漯河市,市广电局,颗粒物(PM10),58,66,56,38,29,140,39,95,70,25,10,13,8,0.6,0.5
2022-04-22T05:00:00,2403A,112.5192,32.9917,南阳市,环保局,颗粒物(PM10),60,70,52,38,25,138,37,97,67,36,14,4,6,0.5,0.5
2022-04-22T05:00:00,2404A,112.5339,33.0086,南阳市,瓦房庄,颗粒物(PM10),63,76,55,36,26,140,28,86,56,42,19,4,5,0.8,0.7
2022-04-22T05:00:00,2405A,112.5003,32.9735,南阳市,汉画馆,颗粒物(PM10),54,58,51,32,29,143,28,90,61,34,9,6,9,0.7,0.7
2022-04-22T05:00:00,2406A,112.5779,33.0144,南阳市,气象站,颗粒物(PM10),62,74,57,34,26,134,58,111,67,26,15,6,7,0.5,0.5
2022-04-22T05:00:00,2407A,112.548,32.9692,南阳市,理工学院,颗粒物(PM10),60,70,56,41,29,128,29,98,66,45,15,1,10,0.9,0.7
2022-04-22T05:00:00,2408A,115.6702,34.4285,商丘市,环境监测站,颗粒物(PM10),52,54,62,28,23,131,85,107,95,12,10,12,10,0.3,0.5
2022-04-22T05:00:00,2409A,115.6458,34.4045,商丘市,粮食局,颗粒物(PM10),54,57,66,29,26,133,84,101,91,13,11,14,8,0.5,0.4
2022-04-22T05:00:00,2410A,115.6293,34.3948,商丘市,睢阳区环保局,颗粒物(PM10),53,55,69,26,28,135,80,97,88,13,9,10,6,0.4,0.5
2022-04-22T05:00:00,2420A,114.0189,32.9656,驻马店市,市一纸厂,颗粒物(PM10),56,62,58,37,31,135,84,108,97,17,11,13,15,0.4,0.4
2022-04-22T05:00:00,2421A,114.0114,33.015,驻马店市,市彩印厂,颗粒物(PM10),54,58,49,34,23,138,74,121,108,23,11,9,5,0.6,0.3
2022-04-22T05:00:00,2422A,113.9976,32.9771,驻马店市,天方二分厂,颗粒物(PM10),52,54,49,31,29,134,78,95,90,19,13,8,5,0.3,0.3
