timepoint,stationcode,longitude,latitude,area,positionname,primarypollutant,aqi,pm10,pm10_24h,pm2_5,pm2_5_24h,o3,o3_24h,o3_8h,o3_8h_24h,no2,no2_24h,so2,so2_24h,co,co_24h
2024-03-15T1400,2566A,102.1879,31.914,阿坝藏族羌族自治州,州农科所,,12,12,22,6,9,35,,18,18,8,8,3,4,0.1,0.3
2024-03-15T1400,2568A,102.2502,31.8896,阿坝藏族羌族自治州,马师校,,31,8,16,5,10,98,,57,57,5,6,4,3,0.5,0.5
2024-03-15T1400,3994A,102.2165,31.9024,阿坝藏族羌族自治州,马尔康中学西区,,,,10,,7,104,,65,65,5,6,4,4,0.4,0.6
2024-03-15T1400,2695A,80.292,41.1694,阿克苏地区,电视台,颗粒物(PM10),81,112,194,10,29,119,,98,98,3,3,2,3,0.6,0.8
2024-03-15T1400,2696A,80.2613,41.1551,阿克苏地区,艺术中心,,41,41,219,7,31,115,,99,99,8,9,5,6,1.0,1
2024-03-15T1400,2204A,105.6467,38.8363,阿拉善盟,西城区西花园,颗粒物(PM10),283,408,313,81,57,102,,116,98,34,29,7,9,0.7,0.7
2024-03-15T1400,2205A,105.6985,38.8411,阿拉善盟,蒙二幼,颗粒物(PM10),500,752,316,113,67,100,,112,93,7,9,6,7,0.3,0.5
2024-03-15T1400,2206A,105.724,38.8516,阿拉善盟,环保局新楼,颗粒物(PM10),480,580,260,121,59,104,,119,98,6,9,6,7,0.5,0.5
2024-03-15T1400,2708A,88.1264,47.8517,阿勒泰地区,市站,,25,14,10,4,7,79,,81,72,11,12,5,5,0.2,0.1
2024-03-15T1400,2630A,80.1161,32.5,阿里地区,阿里监测站,,30,8,14,4,6,95,,83,78,2,7,8,15,0.4,0.5
2024-03-15T1400,3192A,80.0903,32.5028,阿里地区,阿里藏医院,,31,9,18,6,8,99,,90,78,2,6,8,10,0.4,0.5
2024-03-15T1400,2642A,109.0318,32.6537,安康市,香溪洞,细颗粒物(PM2.5),65,66,54,47,29,113,,118,112,11,11,6,7,0.7,0.7
2024-03-15T1400,2643A,109.0281,32.6939,安康市,安康市监测站,细颗粒物(PM2.5),80,85,59,59,33,111,,86,63,13,22,9,8,0.7,0.7
2024-03-15T1400,2644A,109.0072,32.6975,安康市,汉滨区检察院,细颗粒物(PM2.5),82,82,56,60,33,121,,89,71,10,18,8,10,0.5,0.5
2024-03-15T1400,2291A,117.0809,30.5177,安庆市,环科院,细颗粒物(PM2.5),89,103,116,66,89,132,,62,62,16,37,7,9,0.8,1
2024-03-15T1400,2292A,117.0331,30.5119,安庆市,马山宾馆,颗粒物(PM10),75,99,127,50,86,135,,70,70,11,29,8,10,0.5,0.8
2024-03-15T1400,2294A,116.9896,30.6145,安庆市,安庆大学,细颗粒物(PM2.5),95,96,123,71,82,153,,83,83,24,26,10,9,0.9,1
2024-03-15T1400,3173A,117.0598,30.5351,安庆市,市人大,,,,122,,103,123,,53,53,10,32,,7,0.8,1.1
2024-03-15T1400,3122A,105.9606,26.2611,安顺市,伍家关,,,,,,,,,,,,,,,,
2024-03-15T1400,3123A,105.9408,26.2431,安顺市,凤凰山,,42,34,26,29,20,88,,47,47,7,10,13,13,0.8,0.8
2024-03-15T1400,3124A,105.9439,26.2564,安顺市,金钟山,,43,30,25,30,19,90,,49,49,7,10,8,11,0.7,0.6
2024-03-15T1400,3125A,105.8983,26.2481,安顺市,娄家坡,,49,36,28,34,25,84,,51,51,7,10,9,13,0.8,0.8
2024-03-15T1400,1818A,114.4839,36.0621,安阳市,棉研所,,,,,,,,,,,,,,,,
2024-03-15T1400,1819A,114.3551,36.1017,安阳市,红庙街,颗粒物(PM10),56,61,89,30,60,136,,110,110,10,20,4,6,0.7,0.7
2024-03-15T1400,1820A,114.361,36.0681,安阳市,银杏小区,,47,47,75,30,68,134,,104,104,3,12,6,8,0.7,1
2024-03-15T1400,3141A,114.3922,36.0878,安阳市,信访局,颗粒物(PM10),53,55,94,32,68,137,,112,112,7,17,3,6,0.4,0.7
2024-03-15T1400,3669A,114.4705,36.0637,安阳市,左辅环卫站,细颗粒物(PM2.5),54,52,95,38,69,133,,97,97,4,13,5,7,0.3,0.5
2024-03-15T1400,3703A,114.2917,36.0949,安阳市,安钢职工学校,颗粒物(PM10),54,58,96,35,71,135,,111,111,9,19,6,11,0.1,0.3
2024-03-15T1400,1748A,123.044,41.1196,鞍山市,深沟寺,,41,41,168,24,103,116,,107,98,14,30,8,18,0.5,1.2
2024-03-15T1400,1749A,123.011,41.0931,鞍山市,太阳城,颗粒物(PM10),53,56,153,31,92,126,,112,106,15,27,9,19,0.7,1.4
2024-03-15T1400,1750A,123.0485,41.1442,鞍山市,太平,,41,41,176,23,103,115,,101,93,18,34,6,16,0.5,1.2
2024-03-15T1400,1751A,122.9642,41.0971,鞍山市,铁西三道街,颗粒物(PM10),57,63,170,35,108,116,,106,93,27,33,12,16,0.7,1.1
2024-03-15T1400,1752A,122.9341,41.0833,鞍山市,铁西工业园区,颗粒物(PM10),65,80,181,36,121,102,,105,80,36,37,15,19,1.2,1.5
2024-03-15T1400,1753A,123.022,41.0821,鞍山市,明达新区,颗粒物(PM10),65,79,149,37,90,118,,105,97,17,29,10,19,0.5,1.2
2024-03-15T1400,1754A,123.1289,41.0228,鞍山市,千山,,,,,,,,,,,,,,,,
2024-03-15T1400,2195A,107.4212,40.761,巴彦淖尔市,附二中,颗粒物(PM10),117,184,140,40,41,137,,108,108,15,15,8,5,0.6,0.5
2024-03-15T1400,2196A,107.37,40.7372,巴彦淖尔市,市环保大楼,颗粒物(PM10),109,168,125,49,36,140,,112,112,14,12,9,6,0.5,0.4
2024-03-15T1400,1956A,86.1472,41.7538,巴音郭楞蒙古自治州,孔雀公园,颗粒物(PM10),55,60,128,10,24,84,,86,80,5,6,4,5,0.3,0.3
2024-03-15T1400,1957A,86.1972,41.7166,巴音郭楞蒙古自治州,棉纺厂,细颗粒物(PM2.5),95,105,159,71,35,81,,82,72,7,9,3,3,0.2,0.2
2024-03-15T1400,1958A,86.2357,41.7173,巴音郭楞蒙古自治州,经济开发区,颗粒物(PM10),68,85,125,16,26,79,,86,79,13,7,5,5,0.3,0.3
2024-03-15T1400,2914A,106.7677,31.8794,巴中市,苏山坪,,35,35,34,22,23,86,,98,82,8,8,5,4,0.4,0.3
2024-03-15T1400,3182A,106.7656,31.8545,巴中市,丽阳花园,细颗粒物(PM2.5),52,52,45,36,31,69,,16,16,26,37,6,4,0.6,0.7
2024-03-15T1400,3183A,106.7418,31.8654,巴中市,圣泉水务公司,,45,45,38,29,28,74,,19,19,21,38,6,5,0.5,0.6
2024-03-15T1400,3616A,106.7616,31.8344,巴中市,市中心医院,颗粒物(PM10),53,55,54,34,33,69,,14,14,22,34,7,6,0.5,0.6
2024-03-15T1400,2235A,122.7911,45.6077,白城市,洮北区环保局,,29,23,41,6,14,92,,87,87,7,9,4,5,0.4,0.4
2024-03-15T1400,2236A,122.8738,45.5725,白城市,市环保局,,32,32,45,7,11,97,,92,92,4,9,2,4,0.5,0.4
2024-03-15T1400,2231A,126.4219,41.9171,白山市,喜丰,,35,35,73,11,40,108,,132,109,15,16,10,20,0.6,0.9
2024-03-15T1400,2232A,126.4077,41.9419,白山市,环保局,,,30,76,16,45,107,,103,98,6,13,,13,0.6,1
2024-03-15T1400,2647A,104.1724,36.5446,白银市,第三小学,颗粒物(PM10),425,525,106,91,31,104,,84,84,4,16,6,33,0.5,0.7
2024-03-15T1400,2648A,104.1465,36.5482,白银市,动力公司,颗粒物(PM10),380,484,91,87,29,102,,82,82,7,21,5,25,0.4,0.7
2024-03-15T1400,2512A,106.6103,23.9011,百色市,市监测站,,33,33,27,15,12,39,,46,37,14,12,11,12,0.7,0.7
2024-03-15T1400,2513A,106.6538,23.8859,百色市,市中心血站,,36,36,24,25,13,33,,44,32,18,14,9,9,0.8,0.8
2024-03-15T1400,3406A,106.6085,23.8798,百色市,祈福高中,,49,49,32,30,22,37,,36,28,18,18,14,14,0.8,0.8
2024-03-15T1400,2270A,117.396,32.939,蚌埠市,工人疗养院,颗粒物(PM10),53,55,83,32,58,137,,67,67,17,32,9,9,0.6,0.5
2024-03-15T1400,2271A,117.3605,32.9427,蚌埠市,百货大楼,颗粒物(PM10),51,52,84,27,58,138,,72,72,20,34,6,5,0.6,0.5
2024-03-15T1400,2273A,117.4185,32.8911,蚌埠市,蚌埠学院,,45,44,73,30,56,144,,83,83,11,28,6,5,0.7,0.6
2024-03-15T1400,2274A,117.3533,32.9673,蚌埠市,淮上区政府,细颗粒物(PM2.5),63,53,82,45,64,129,,66,66,13,33,8,8,0.5,0.5
2024-03-15T1400,2275A,117.3145,32.8977,蚌埠市,高新区,细颗粒物(PM2.5),54,46,70,38,59,153,,90,90,14,33,6,6,0.7,0.7
2024-03-15T1400,3715A,117.3092,32.9314,蚌埠市,蚌埠田家炳中学,颗粒物(PM10),53,56,85,31,58,148,,91,91,25,33,6,7,0.6,0.6
2024-03-15T1400,1585A,109.8756,40.6532,包头市,市环境监测站,颗粒物(PM10),87,123,90,38,37,125,,96,96,18,46,11,21,0.5,0.8
2024-03-15T1400,1587A,109.9991,40.5842,包头市,包头八中,颗粒物(PM10),97,144,107,39,45,115,,93,93,19,38,11,22,0.9,1
2024-03-15T1400,1588A,109.8538,40.6821,包头市,青山宾馆,颗粒物(PM10),89,127,91,34,44,127,,89,89,18,61,12,22,0.5,0.8
2024-03-15T1400,1589A,109.8642,40.6288,包头市,惠龙物流,颗粒物(PM10),93,135,90,36,41,121,,90,90,21,43,10,19,0.6,0.8
2024-03-15T1400,1590A,110.0377,40.5546,包头市,东河鸿龙湾,颗粒物(PM10),88,126,116,38,47,119,,86,86,22,50,11,29,0.6,0.7
2024-03-15T1400,3283A,109.9154,40.5685,包头市,滨河大厦,颗粒物(PM10),85,120,94,28,39,128,,90,90,17,42,9,15,0.6,0.8
2024-03-15T1400,3419A,109.9447,40.6261,包头市,包头市委党校,,,146,94,41,36,120,,97,97,,34,12,29,0.7,1
2024-03-15T1400,3683A,109.8331,40.6576,包头市,昆区政府,颗粒物(PM10),86,122,81,35,40,126,,92,92,18,44,11,18,0.6,0.8
2024-03-15T1400,1930A,107.185,34.3063,宝鸡市,庙沟村,颗粒物(PM10),63,75,99,42,76,81,,69,69,21,22,9,9,0.4,0.5
2024-03-15T1400,1931A,107.0708,34.3017,宝鸡市,竹园沟,颗粒物(PM10),62,74,102,42,75,100,,66,66,30,31,6,5,0.6,0.7
2024-03-15T1400,1932A,107.1906,34.3672,宝鸡市,三陆医院,颗粒物(PM10),70,90,118,43,80,71,,63,63,44,46,13,19,0.5,0.6
2024-03-15T1400,1933A,107.1431,34.3547,宝鸡市,监测站,颗粒物(PM10),69,87,103,43,77,77,,57,57,33,34,6,6,0.7,0.7
2024-03-15T1400,1934A,107.1186,34.3739,宝鸡市,技工学校,细颗粒物(PM2.5),69,81,108,50,82,86,,56,56,27,36,7,11,0.6,0.7
2024-03-15T1400,1935A,107.3906,34.3528,宝鸡市,陈仓区环保局家属楼,颗粒物(PM10),63,76,113,43,75,129,,75,75,21,53,9,9,0.5,0.7
2024-03-15T1400,1936A,107.2058,34.3497,宝鸡市,文理学院,颗粒物(PM10),72,94,112,45,78,72,,67,67,42,38,8,9,0.7,0.7
2024-03-15T1400,1937A,107.2386,34.3622,宝鸡市,三迪小学,颗粒物(PM10),66,81,110,43,79,77,,69,69,44,48,11,11,0.7,0.8
2024-03-15T1400,1051A,115.493,38.8632,保定市,游泳馆,细颗粒物(PM2.5),129,138,135,98,79,154,,79,79,12,21,15,10,0.5,0.3
2024-03-15T1400,1052A,115.5213,38.8959,保定市,华电二区,细颗粒物(PM2.5),102,119,111,76,71,144,,78,78,19,24,13,6,0.8,0.5
2024-03-15T1400,1053A,115.4713,38.9108,保定市,接待中心,细颗粒物(PM2.5),113,112,124,85,75,155,,81,81,9,15,14,10,0.8,0.6
2024-03-15T1400,1054A,115.4612,38.8416,保定市,地表水厂,细颗粒物(PM2.5),114,172,152,86,74,155,,81,81,14,24,15,10,1.0,0.7
2024-03-15T1400,3581A,115.31981,38.95208,保定市,满城区生态环境分局,细颗粒物(PM2.5),110,136,151,83,91,142,,69,69,6,24,12,8,0.5,0.4
2024-03-15T1400,3582A,115.47694,38.76408,保定市,清苑区第二中学,细颗粒物(PM2.5),104,137,129,78,66,156,,82,82,19,25,13,7,0.8,0.5
2024-03-15T1400,3583A,115.62909,39.02311,保定市,徐水物探局,颗粒物(PM10),111,171,148,78,72,140,,66,66,17,33,11,9,0.7,0.5
2024-03-15T1400,4004A,115.4202,38.8656,保定市,双鹰农机,细颗粒物(PM2.5),83,108,116,61,66,158,,76,76,12,23,14,9,0.9,0.7
2024-03-15T1400,4034A,115.5150,38.8590,保定市,植保所站,细颗粒物(PM2.5),109,125,118,82,75,156,,80,80,14,25,11,6,0.9,0.7
2024-03-15T1400,2594A,99.1678,25.1081,保山市,市环境监测站,颗粒物(PM10),54,58,66,28,42,123,,97,97,6,10,7,7,0.6,0.7
2024-03-15T1400,2595A,99.1711,25.1328,保山市,市环保局,颗粒物(PM10),56,62,71,34,42,122,,104,94,4,8,8,8,0.4,0.6
2024-03-15T1400,1866A,109.2262,21.588,北海市,牛尾岭水库,,,,,,,,,,,,,,,,
2024-03-15T1400,1867A,109.1436,21.4086,北海市,海滩公园,颗粒物(PM10),56,62,57,37,23,116,,100,100,7,8,8,8,0.6,0.5
2024-03-15T1400,1868A,109.0981,21.4661,北海市,新市环保局,颗粒物(PM10),58,66,50,29,26,105,,94,94,7,14,6,6,0.5,0.6
2024-03-15T1400,1869A,109.1778,21.5233,北海市,北海工业园,颗粒物(PM10),62,74,62,37,31,103,,90,90,7,15,6,8,0.5,0.6
2024-03-15T1400,3400A,109.1911,21.4415,北海市,龙潭自来水厂,颗粒物(PM10),66,81,53,36,28,103,,91,90,8,7,8,8,0.5,0.5
2024-03-15T1400,1001A,116.3621,39.8784,北京市,万寿西宫,细颗粒物(PM2.5),150,186,143,115,80,136,,55,55,25,47,5,3,0.6,0.6
2024-03-15T1400,1002A,116.2202,40.2915,北京市,定陵,,,,,,,,,,,,,,,,
2024-03-15T1400,1003A,116.4174,39.9289,北京市,东四,细颗粒物(PM2.5),148,192,142,113,75,134,,51,51,29,45,3,2,0.7,0.8
2024-03-15T1400,1004A,116.4072,39.8863,北京市,天坛,细颗粒物(PM2.5),147,181,136,112,79,141,,54,54,22,40,6,4,0.6,0.6
2024-03-15T1400,1005A,116.462,39.9365,北京市,农展馆,细颗粒物(PM2.5),145,185,137,111,73,133,,48,48,25,46,5,4,0.6,0.7
2024-03-15T1400,1006A,116.3392,39.9295,北京市,官园,细颗粒物(PM2.5),145,192,144,111,75,140,,57,57,24,43,8,6,0.7,0.7
2024-03-15T1400,1007A,116.2878,39.9611,北京市,海淀万柳,细颗粒物(PM2.5),137,184,142,104,69,131,,60,60,30,52,6,5,0.7,0.7
2024-03-15T1400,1008A,116.6636,40.135,北京市,顺义新城,细颗粒物(PM2.5),144,175,142,110,76,138,,71,71,22,43,5,3,0.5,0.5
2024-03-15T1400,1009A,116.6275,40.3275,北京市,怀柔镇,细颗粒物(PM2.5),130,169,103,99,58,140,,88,88,22,22,4,3,0.5,0.5
2024-03-15T1400,1010A,116.2296,40.217,北京市,昌平镇,细颗粒物(PM2.5),128,177,119,97,65,109,,60,60,43,33,5,3,0.6,0.5
2024-03-15T1400,1011A,116.3966,39.9821,北京市,奥体中心,细颗粒物(PM2.5),165,172,128,125,73,115,,50,50,33,47,3,3,0.7,0.6
2024-03-15T1400,1012A,116.184,39.9136,北京市,古城,细颗粒物(PM2.5),130,168,143,99,69,135,,58,58,27,53,4,3,0.7,0.7
2024-03-15T1400,3281A,115.9718,40.4529,北京市,延庆夏都,细颗粒物(PM2.5),112,134,88,84,53,121,,58,58,17,32,3,2,0.5,0.5
2024-03-15T1400,3417A,117.0709,40.1465,北京市,平谷新城,细颗粒物(PM2.5),145,175,128,111,74,162,,80,80,24,40,6,3,0.6,0.5
2024-03-15T1400,3418A,116.8336,40.4095,北京市,密云新城,细颗粒物(PM2.5),127,158,121,96,63,151,,88,88,19,29,6,3,0.5,0.5
2024-03-15T1400,3671A,116.088,39.9726,北京市,门头沟三家店,,,,,,,,,,,,,,,,
2024-03-15T1400,3672A,116.1541,39.8204,北京市,丰台云岗,细颗粒物(PM2.5),138,182,144,105,73,139,,63,63,18,37,5,4,0.6,0.5
2024-03-15T1400,3673A,116.6804,39.9081,北京市,通州东关,细颗粒物(PM2.5),148,183,135,113,76,159,,83,83,21,41,8,4,0.7,0.5
2024-03-15T1400,3674A,115.9577,39.7603,北京市,房山燕山,细颗粒物(PM2.5),135,163,105,103,62,139,,78,78,30,27,5,4,0.6,0.5
2024-03-15T1400,3675A,116.4672,39.7733,北京市,大兴旧宫,细颗粒物(PM2.5),148,163,138,113,78,146,,80,80,18,28,5,3,0.6,0.5
2024-03-15T1400,3694A,115.986,40.4563,北京市,延庆石河营,细颗粒物(PM2.5),108,133,86,81,49,126,,58,58,17,37,3,3,0.5,0.5
2024-03-15T1400,3695A,116.6151,40.3053,北京市,怀柔新城,细颗粒物(PM2.5),133,160,104,101,60,143,,92,92,26,20,5,3,0.5,0.4
2024-03-15T1400,3696A,116.2545,39.8768,北京市,丰台小屯,细颗粒物(PM2.5),143,193,153,109,73,137,,52,52,19,57,5,3,0.5,0.6
2024-03-15T1400,3697A,116.84,40.3844,北京市,密云镇,细颗粒物(PM2.5),140,161,121,107,66,146,,71,71,18,47,5,2,0.7,0.6
2024-03-15T1400,1761A,123.8275,41.3064,本溪市,大峪,颗粒物(PM10),54,58,127,36,75,125,,103,103,16,26,10,16,0.9,1.2
2024-03-15T1400,1762A,123.7567,41.3325,本溪市,溪湖,颗粒物(PM10),51,51,161,25,92,123,,102,102,12,37,6,28,0.4,1.8
2024-03-15T1400,1763A,123.7169,41.3094,本溪市,彩屯,,41,41,159,26,99,113,,82,82,23,44,8,31,0.7,2
2024-03-15T1400,1764A,123.7669,41.2864,本溪市,东明,颗粒物(PM10),63,76,112,36,88,126,,99,93,19,32,9,17,0.7,1.2
2024-03-15T1400,1765A,123.7992,41.2664,本溪市,新立屯,细颗粒物(PM2.5),92,73,97,68,74,133,,92,92,15,30,12,15,1.0,1.3
2024-03-15T1400,1766A,123.8142,41.3472,本溪市,威宁,颗粒物(PM10),66,81,135,32,78,117,,82,82,25,41,10,12,0.5,1
2024-03-15T1400,2587A,105.2864,27.3125,毕节市,八中,,45,40,52,31,42,112,,61,61,10,14,14,11,0.6,0.6
2024-03-15T1400,2588A,105.31,27.2944,毕节市,师专,,49,40,50,34,39,110,,61,61,12,16,16,13,0.6,0.6
2024-03-15T1400,3537A,105.3631,27.3533,毕节市,长征村,细颗粒物(PM2.5),74,70,92,54,73,123,,74,74,10,13,12,11,0.5,0.5
2024-03-15T1400,1629A,118.0018,37.3617,滨州市,第二水厂,颗粒物(PM10),70,90,110,46,59,173,,94,94,16,50,9,15,0.7,0.8
2024-03-15T1400,1630A,117.9776,37.393,滨州市,北中新校,颗粒物(PM10),70,90,101,39,51,172,,105,105,17,39,12,16,0.6,0.7
2024-03-15T1400,3514A,117.9378,37.3956,滨州市,中海酒店,细颗粒物(PM2.5),64,73,89,46,56,159,,110,110,15,31,13,21,0.8,0.7
2024-03-15T1400,3515A,117.9378,37.3553,滨州市,开发区一中,颗粒物(PM10),69,88,102,41,55,173,,102,102,25,59,14,21,0.4,0.6
2024-03-15T1400,3516A,118.0917,37.694,滨州市,金海六路,颗粒物(PM10),53,56,104,34,57,161,,107,107,14,48,12,15,0.6,0.8
2024-03-15T1400,4028A,117.9956,37.3753,滨州市,滨州市西街道办事处,细颗粒物(PM2.5),70,85,105,51,65,167,,100,100,17,40,15,18,0.7,0.8
2024-03-15T1400,2311A,115.8072,33.8399,亳州市,污水处理厂,颗粒物(PM10),52,54,58,32,40,138,,94,94,10,15,8,10,0.5,0.5
2024-03-15T1400,2312A,115.7789,33.8518,亳州市,三国揽胜宫,颗粒物(PM10),63,75,66,31,32,136,,94,94,11,21,7,8,0.6,0.6
2024-03-15T1400,3332A,115.7633,33.8034,亳州市,亳州学院,颗粒物(PM10),57,64,68,38,42,140,,97,97,10,14,7,7,0.4,0.4
2024-03-15T1400,2693A,82.0485,44.8556,博尔塔拉蒙古自治州,市党校,,46,46,50,13,11,72,,69,69,6,8,6,7,0.2,0.3
2024-03-15T1400,2694A,82.0806,44.8969,博尔塔拉蒙古自治州,市环保局,,43,43,47,15,12,62,,62,62,14,13,8,7,0.4,0.6
2024-03-15T1400,1071A,116.8842,38.2991,沧州市,沧县城建局,颗粒物(PM10),66,81,90,33,57,155,,106,106,10,18,6,7,0.5,0.5
2024-03-15T1400,1072A,116.8584,38.3254,沧州市,电视转播站,颗粒物(PM10),61,72,88,39,55,144,,96,96,7,14,6,8,0.3,0.4
2024-03-15T1400,1073A,116.8709,38.3228,沧州市,市环保局,颗粒物(PM10),62,73,91,40,60,138,,90,90,13,21,12,11,0.3,0.4
2024-03-15T1400,3324A,116.8136,38.3004,沧州市,河北水利电力学院,颗粒物(PM10),71,92,100,39,55,145,,94,94,7,20,9,10,0.3,0.4
2024-03-15T1400,2622A,97.1806,31.1273,昌都市,昌都监测站,,34,19,17,8,9,106,,74,74,7,13,9,9,0.6,0.7
2024-03-15T1400,3719A,97.1714,31.1406,昌都市,昌都会议中心,,36,13,10,5,7,115,,85,85,6,8,7,7,0.5,0.6
2024-03-15T1400,2690A,88.1236,43.8886,昌吉回族自治州,天山天池,,28,2,3,0,4,88,,80,80,5,5,7,7,0.5,0.5
2024-03-15T1400,2692A,87.2717,44.0297,昌吉回族自治州,新区政务中心,颗粒物(PM10),51,51,25,26,22,66,,48,48,7,30,7,7,0.6,0.8
2024-03-15T1400,3613A,87.3095,44.0142,昌吉回族自治州,亚心广场,,,56,23,12,13,60,,50,50,,28,5,5,0.6,0.8
2024-03-15T1400,1119A,125.3325,43.9166,长春市,食品厂,,37,37,87,9,54,90,,70,70,12,27,6,10,0.2,0.5
2024-03-15T1400,1120A,125.2863,43.9027,长春市,客车厂,,28,26,80,7,51,87,,71,71,13,27,4,8,0.3,0.6
2024-03-15T1400,1121A,125.2841,43.8463,长春市,邮电学院,,30,27,92,8,56,93,,79,79,8,22,6,10,0.2,0.5
2024-03-15T1400,1122A,125.3716,43.8772,长春市,劳动公园,,32,32,78,12,47,98,,80,80,8,20,3,8,0.3,0.6
2024-03-15T1400,1123A,125.3297,43.8805,长春市,园林处,,28,24,76,7,47,89,,73,73,12,23,7,12,0.2,0.5
2024-03-15T1400,1124A,125.4605,43.79,长春市,净月潭,,29,27,73,5,49,92,,76,76,6,14,6,9,0.2,0.5
2024-03-15T1400,1125A,125.7194,43.515,长春市,甩湾子,,,,,,,,,,,,,,,,
2024-03-15T1400,1126A,125.3863,43.8447,长春市,经开区环卫处,,30,18,81,6,48,94,,73,73,5,24,4,6,0.2,0.6
2024-03-15T1400,1127A,125.245,43.7783,长春市,高新区管委会,,33,33,84,4,56,97,,81,81,7,19,7,10,0.2,0.6
2024-03-15T1400,1128A,125.1761,43.8325,长春市,岱山公园,,29,27,88,10,58,92,,74,74,6,25,6,9,0.3,0.6
2024-03-15T1400,1335A,113.0833,28.2325,长沙市,经开区环保局,,44,44,69,26,69,67,,18,18,14,42,5,5,0.5,0.7
2024-03-15T1400,1336A,112.8872,28.2189,长沙市,高开区环保局,细颗粒物(PM2.5),62,48,81,44,80,58,,23,23,26,43,4,4,0.8,1
2024-03-15T1400,1337A,113.0792,28.2053,长沙市,马坡岭,,48,48,80,30,60,48,,17,17,24,45,6,6,0.4,0.7
2024-03-15T1400,1338A,112.9394,28.19,长沙市,湖南师范大学,颗粒物(PM10),53,56,99,29,76,63,,29,29,26,38,4,3,0.7,0.9
2024-03-15T1400,1339A,113.0178,28.1322,长沙市,雨花区环保局,细颗粒物(PM2.5),55,48,82,39,68,73,,26,26,9,43,5,4,0.7,1.1
2024-03-15T1400,1340A,112.9792,28.2597,长沙市,伍家岭,,48,48,85,29,73,56,,14,14,26,42,5,5,0.8,1
2024-03-15T1400,1341A,113.0014,28.1944,长沙市,火车新站,细颗粒物(PM2.5),55,56,86,39,77,59,,27,27,22,40,4,3,0.7,0.9
2024-03-15T1400,1342A,112.9844,28.1178,长沙市,天心区环保局,颗粒物(PM10),52,53,94,18,50,73,,34,34,11,45,4,3,0.6,0.9
2024-03-15T1400,1343A,112.8908,28.1308,长沙市,湖南中医药大学,细颗粒物(PM2.5),54,45,80,38,82,75,,24,24,13,34,4,3,0.7,0.9
2024-03-15T1400,1344A,112.9581,28.3611,长沙市,沙坪,,50,49,82,35,37,34,,17,17,17,12,5,4,0.7,0.8
2024-03-15T1400,1727A,113.1147,36.1547,长治市,清华站,,42,33,71,12,50,133,,90,90,15,25,8,10,0.4,0.7
2024-03-15T1400,1728A,113.1031,36.1989,长治市,监测站,,,38,79,17,55,139,,91,91,,26,10,14,,0.8
2024-03-15T1400,1730A,113.0886,36.2125,长治市,审计局,,42,36,72,12,56,134,,87,85,12,24,10,13,0.2,0.6
2024-03-15T1400,1731A,113.0844,36.1856,长治市,长治八中,,,,85,,52,,,103,,,29,,8,,0.6
2024-03-15T1400,2845A,113.1569,36.1911,长治市,德盛苑,,43,28,60,12,48,137,,117,108,12,19,8,11,0.5,0.7
2024-03-15T1400,3568A,113.06,36.0464,长治市,向阳小学,,47,47,93,12,59,145,,110,110,13,21,7,10,0.3,0.6
2024-03-15T1400,3569A,112.8792,36.3144,长治市,屯留一中,颗粒物(PM10),52,54,85,34,61,149,,95,95,14,24,9,9,0.4,0.6
2024-03-15T1400,3570A,113.235,36.3489,长治市,潞城四中,,49,49,90,15,54,138,,92,92,18,32,6,7,0.2,0.5
2024-03-15T1400,1854A,111.6975,28.9703,常德市,市二中,细颗粒物(PM2.5),73,84,71,53,55,60,,20,20,14,27,9,8,0.8,0.8
2024-03-15T1400,1857A,111.7158,29.1456,常德市,白鹤山,细颗粒物(PM2.5),110,107,84,83,61,40,,37,24,13,7,5,4,0.7,0.6
2024-03-15T1400,3138A,111.7153,29.0289,常德市,武陵区永安,细颗粒物(PM2.5),75,68,74,55,52,40,,16,16,32,37,8,7,0.8,0.9
2024-03-15T1400,3139A,111.6892,28.9881,常德市,鼎城区玉霞,细颗粒物(PM2.5),73,93,101,53,53,54,,15,15,22,35,10,9,0.9,1
2024-03-15T1400,3140A,111.6625,29.0531,常德市,武陵区长庚,,,76,79,58,54,,,16,16,26,31,8,7,,0.8
2024-03-15T1400,1196A,119.9633,31.762,常州市,市监测站,细颗粒物(PM2.5),92,114,125,68,71,124,,57,57,41,65,11,11,1.3,1.4
2024-03-15T1400,1200A,119.9468,31.7069,常州市,武进监测站,细颗粒物(PM2.5),95,114,118,71,72,122,,52,52,37,68,12,16,0.8,1.4
2024-03-15T1400,1201A,119.9255,31.9087,常州市,安家,细颗粒物(PM2.5),107,103,130,80,76,133,,50,50,30,56,10,11,0.9,1.5
2024-03-15T1400,3002A,119.9805,31.8174,常州市,行政中心,细颗粒物(PM2.5),103,110,112,77,68,136,,54,54,37,67,9,10,0.9,1.2
2024-03-15T1400,3003A,120.0522,31.7748,常州市,经开区,细颗粒物(PM2.5),79,92,128,58,68,131,,60,60,36,70,6,9,0.6,1
2024-03-15T1400,3010A,119.9025,31.7964,常州市,钟楼,细颗粒物(PM2.5),113,117,109,85,74,123,,52,52,39,66,10,10,1.3,1.2
2024-03-15T1400,3429A,119.8598,31.7066,常州市,武进经发区,细颗粒物(PM2.5),94,100,115,70,81,138,,56,56,26,69,8,11,0.9,1.5
2024-03-15T1400,3430A,119.5826,31.7245,常州市,金坛城区,细颗粒物(PM2.5),100,102,108,75,73,138,,49,49,30,64,9,9,0.8,1.2
2024-03-15T1400,2220A,120.4318,41.5881,朝阳市,西梁,,37,20,62,10,30,117,,104,102,9,16,11,15,0.4,0.6
2024-03-15T1400,2221A,120.4521,41.5646,朝阳市,河畔小区,,35,21,64,7,32,111,,98,97,6,18,5,17,0.4,0.8
2024-03-15T1400,2222A,120.4176,41.5648,朝阳市,八里堡,,36,13,65,11,28,115,,100,99,7,18,8,16,0.4,0.7
2024-03-15T1400,2223A,120.3806,41.5969,朝阳市,农业园区,,35,20,52,14,31,112,,98,98,5,11,9,8,0.4,0.5
2024-03-15T1400,1705A,116.6367,23.6719,潮州市,西园路,细颗粒物(PM2.5),83,65,87,61,77,78,,42,42,26,29,5,7,0.8,0.7
2024-03-15T1400,3026A,116.6183,23.6608,潮州市,市政府,细颗粒物(PM2.5),104,,82,78,80,88,,61,45,34,32,8,10,1.2,1
2024-03-15T1400,4036A,116.6461,23.6761,潮州市,金山,细颗粒物(PM2.5),82,,77,60,76,82,,38,38,23,31,7,8,0.9,0.9
2024-03-15T1400,2472A,113.0073,25.9061,郴州市,马头岭,,34,34,28,7,10,25,,32,25,24,22,11,13,0.9,0.8
2024-03-15T1400,2473A,113.0116,25.8226,郴州市,市职中,,32,28,24,22,24,31,,31,28,18,15,14,8,0.9,0.8
2024-03-15T1400,2474A,113.0161,25.8001,郴州市,兴隆步行街,,38,38,28,25,24,31,,33,26,17,14,9,7,1.0,0.9
2024-03-15T1400,2475A,113.0383,25.8071,郴州市,市审计局,,33,24,24,23,20,26,,26,20,19,20,17,10,0.9,0.8
2024-03-15T1400,2476A,113.0348,25.7759,郴州市,市环保局,,39,36,27,27,24,26,,26,20,24,23,18,8,1.1,0.9
2024-03-15T1400,1431A,103.9728,30.7236,成都市,金泉两河,细颗粒物(PM2.5),63,55,50,45,35,117,,64,64,11,19,2,3,0.4,0.5
2024-03-15T1400,1432A,104.176,30.6872,成都市,十里店,,,60,56,41,37,,,56,43,14,23,2,2,0.5,0.5
2024-03-15T1400,1433A,104.079,30.5706,成都市,三瓦窑,细颗粒物(PM2.5),63,66,53,45,35,129,,69,69,15,28,2,2,0.5,0.6
2024-03-15T1400,1434A,104.1114,30.63,成都市,沙河铺,细颗粒物(PM2.5),58,64,54,41,38,126,,64,64,18,24,4,4,0.5,0.5
2024-03-15T1400,1437A,104.0786,30.6531,成都市,君平街,细颗粒物(PM2.5),64,57,54,46,36,128,,79,79,22,26,5,5,0.4,0.4
2024-03-15T1400,1438A,103.613,31.0283,成都市,灵岩寺,细颗粒物(PM2.5),54,48,38,38,26,114,,79,75,14,18,8,9,0.6,0.6
2024-03-15T1400,2880A,104.0239,30.65639,成都市,大石西路,细颗粒物(PM2.5),55,57,53,39,34,129,,76,76,11,15,5,3,0.6,0.6
2024-03-15T1400,3136A,104.2725,30.5589,成都市,龙泉驿区区政府,细颗粒物(PM2.5),62,53,40,44,33,126,,89,89,9,13,3,3,0.7,0.7
2024-03-15T1400,3357A,104.0106,30.6931,成都市,金博路,细颗粒物(PM2.5),62,64,50,44,35,117,,66,66,14,17,2,2,0.6,0.6
2024-03-15T1400,3359A,104.0578,30.5225,成都市,华阳,细颗粒物(PM2.5),55,58,54,39,39,128,,71,71,16,26,2,2,0.5,0.5
2024-03-15T1400,3487A,104.2394,30.5319,成都市,车城东七路,细颗粒物(PM2.5),64,62,58,46,44,131,,87,87,10,21,4,3,0.5,0.5
2024-03-15T1400,3488A,104.3853,30.7453,成都市,青白江技师分院,,50,50,55,27,33,135,,61,61,12,24,5,3,0.8,0.7
2024-03-15T1400,3489A,104.0789,30.4072,成都市,科学城,,,54,54,45,42,123,,75,75,,24,3,3,0.5,0.5
2024-03-15T1400,4011A,103.8506,30.6947,成都市,光华大道三段,,50,50,52,29,35,125,,55,55,9,18,3,2,0.5,0.5
2024-03-15T1400,1062A,117.9531,40.9081,承德市,铁路,颗粒物(PM10),71,92,76,35,40,147,,68,68,20,40,10,9,0.5,0.6
2024-03-15T1400,1063A,117.9392,40.9763,承德市,中国银行,颗粒物(PM10),59,67,68,30,33,151,,79,79,15,31,12,10,0.5,0.6
2024-03-15T1400,1064A,117.9503,40.928,承德市,开发区,颗粒物(PM10),71,92,75,42,39,148,,76,76,22,37,10,9,0.5,0.6
2024-03-15T1400,1065A,117.8051,40.9655,承德市,文化中心,颗粒物(PM10),66,81,99,37,41,152,,81,81,16,35,9,16,0.5,0.7
2024-03-15T1400,1066A,117.9268,41.0026,承德市,离宫,颗粒物(PM10),60,70,62,36,36,146,,84,84,10,15,6,7,0.4,0.5
2024-03-15T1400,2314A,117.47,30.6618,池州市,池州学院,细颗粒物(PM2.5),102,131,120,76,83,124,,57,57,58,61,13,8,1.1,1.2
2024-03-15T1400,3237A,117.4918,30.6617,池州市,展览馆,细颗粒物(PM2.5),102,105,100,76,70,123,,67,67,38,45,13,6,1.0,1.1
2024-03-15T1400,3333A,117.5627,30.695,池州市,第八中学,细颗粒物(PM2.5),78,87,83,57,56,130,,60,60,31,46,6,5,0.8,1.1
2024-03-15T1400,3334A,117.5038,30.6243,池州市,第十二中学,细颗粒物(PM2.5),75,86,83,55,60,132,,67,67,28,36,5,5,0.8,1.1
2024-03-15T1400,1744A,118.9233,42.2816,赤峰市,松山一中,,39,39,54,18,16,83,,60,60,22,31,24,9,0.7,0.9
2024-03-15T1400,1745A,118.9576,42.2728,赤峰市,哈达街,,42,42,42,28,18,76,,68,66,34,27,34,13,0.9,0.5
2024-03-15T1400,1746A,118.8788,42.2554,赤峰市,天义路,,39,39,41,16,16,85,,54,54,17,27,19,9,0.5,0.6
2024-03-15T1400,3058A,119.2658,42.0353,赤峰市,银河街,,32,27,59,22,27,94,,75,75,12,18,12,17,0.5,0.6
2024-03-15T1400,3286A,118.9359,42.3147,赤峰市,桥北物流园区,,33,29,44,15,21,103,,83,83,10,24,8,7,1.0,0.7
2024-03-15T1400,2521A,107.3476,22.4136,崇左市,市环保局江州分局,,33,33,16,16,10,31,,30,24,12,9,7,7,0.7,0.7
2024-03-15T1400,2522A,107.3702,22.3707,崇左市,城南新区,,,34,19,18,12,28,,29,23,15,14,,6,0.7,0.7
2024-03-15T1400,2298A,118.3093,32.3153,滁州市,老年大学,细颗粒物(PM2.5),166,138,115,126,97,124,,11,,38,51,11,10,1.2,0.9
2024-03-15T1400,2299A,118.3244,32.2786,滁州市,人大宾馆,细颗粒物(PM2.5),153,149,129,117,100,132,,50,50,41,53,12,9,1.4,1.1
2024-03-15T1400,3207A,118.3118,32.3038,滁州市,市政府原办公楼,细颗粒物(PM2.5),138,124,115,105,91,130,,51,51,44,56,11,7,1.3,1
2024-03-15T1400,3331A,118.3267,32.2634,滁州市,图书馆,细颗粒物(PM2.5),143,152,130,109,100,129,,50,50,39,53,13,10,1.5,1.1
2024-03-15T1400,2605A,101.5482,25.0441,楚雄彝族自治州,州环境监测站,,48,48,48,25,38,125,,100,92,5,12,6,7,0.6,0.7
2024-03-15T1400,2606A,101.538,25.0492,楚雄彝族自治州,市经济开发区,,41,41,53,26,36,118,,89,86,6,13,6,6,0.6,0.7
2024-03-15T1400,2548A,107.5277,31.2827,达州市,达州职业技术学院,颗粒物(PM10),77,103,65,39,30,60,,13,13,38,36,9,8,0.8,0.8
2024-03-15T1400,2549A,107.5086,31.2186,达州市,市环境监测站,,,63,60,34,33,42,,11,11,53,46,8,7,,0.9
2024-03-15T1400,2550A,107.4988,31.2132,达州市,凤凰小区,颗粒物(PM10),57,63,63,34,37,50,,13,13,42,47,6,7,0.8,0.9
2024-03-15T1400,2551A,107.5082,31.1986,达州市,达县机关宾馆,颗粒物(PM10),53,56,66,28,38,48,,12,12,47,55,5,6,0.6,0.8
2024-03-15T1400,2552A,107.4644,31.2124,达州市,市政中心,颗粒物(PM10),60,69,68,41,40,55,,14,14,45,53,7,8,0.6,0.8
2024-03-15T1400,2614A,100.1542,25.7054,大理白族自治州,大理市环境监测站,,46,46,53,29,38,122,,109,109,9,16,7,7,0.6,0.6
2024-03-15T1400,2615A,100.2171,25.5811,大理白族自治州,大理古城,,45,45,47,28,34,122,,113,113,7,10,6,7,0.6,0.5
2024-03-15T1400,1109A,121.612,38.9741,大连市,甘井子,细颗粒物(PM2.5),95,112,116,71,77,147,,116,116,20,28,8,10,0.7,0.7
2024-03-15T1400,1110A,121.565,38.9511,大连市,周水子,细颗粒物(PM2.5),102,110,104,76,73,140,,118,117,16,19,6,10,1.0,1
2024-03-15T1400,1111A,121.5637,38.8845,大连市,星海三站,细颗粒物(PM2.5),99,99,119,74,92,141,,107,106,15,27,7,10,0.8,0.9
2024-03-15T1400,1112A,121.6302,38.9117,大连市,青泥洼桥,细颗粒物(PM2.5),92,108,116,68,77,140,,113,110,21,23,14,15,1.0,1
2024-03-15T1400,1113A,121.6251,38.8638,大连市,傅家庄,细颗粒物(PM2.5),113,119,136,85,96,142,,117,111,25,26,12,13,0.8,0.9
2024-03-15T1400,1114A,121.5213,38.8661,大连市,七贤岭,细颗粒物(PM2.5),90,102,120,67,79,144,,116,116,16,26,14,16,0.7,0.9
2024-03-15T1400,1115A,121.2529,38.8061,大连市,旅顺,细颗粒物(PM2.5),120,123,119,91,85,135,,105,99,29,29,11,13,1.0,1.1
2024-03-15T1400,1116A,121.7485,39.1311,大连市,金州,细颗粒物(PM2.5),133,141,134,101,94,109,,113,100,31,28,14,16,0.9,0.9
2024-03-15T1400,1117A,121.7811,39.0496,大连市,开发区,细颗粒物(PM2.5),115,136,132,87,83,115,,96,96,35,45,9,11,0.6,0.7
2024-03-15T1400,1118A,121.9762,39.0631,大连市,双D港,细颗粒物(PM2.5),99,102,125,74,83,143,,125,125,21,31,12,13,0.9,0.9
2024-03-15T1400,1789A,124.81117,46.03138,大庆市,大同区,,39,39,71,21,43,84,,80,80,4,12,5,8,0.3,0.4
2024-03-15T1400,1790A,125.129,46.533,大庆市,龙凤区,,,25,66,16,24,82,,81,81,7,13,2,5,,0.4
2024-03-15T1400,1791A,124.902,46.408,大庆市,红岗区,颗粒物(PM10),52,53,53,12,23,87,,83,83,4,10,5,6,0.3,0.4
2024-03-15T1400,1792A,125.153,46.586,大庆市,萨尔图区,,26,24,56,6,23,81,,77,77,7,10,8,10,0.3,0.4
2024-03-15T1400,1793A,124.9042,46.6215,大庆市,让胡路区,,30,30,50,19,25,88,,84,84,3,10,6,8,0.5,0.5
2024-03-15T1400,3481A,125.141,46.634,大庆市,萨区政府监测点,,28,22,51,12,25,88,,81,81,3,12,7,10,0.4,0.5
2024-03-15T1400,1721A,113.3819,40.1097,大同市,果树场,,,,,,,,,,,,,,,,
2024-03-15T1400,1723A,113.2994,40.0758,大同市,云冈宾馆,细颗粒物(PM2.5),79,99,104,58,54,161,,81,81,21,44,13,14,0.8,1.1
2024-03-15T1400,1724A,113.3444,40.0917,大同市,大同大学,颗粒物(PM10),77,103,95,55,48,162,,76,76,14,31,21,21,0.5,0.7
2024-03-15T1400,1725A,113.2661,40.1269,大同市,安家小村,颗粒物(PM10),85,119,113,50,43,152,,83,83,18,38,18,20,0.5,0.8
2024-03-15T1400,1726A,113.2711,40.0844,大同市,教育学院,颗粒物(PM10),80,109,125,39,52,147,,66,66,19,57,13,21,0.5,1.4
2024-03-15T1400,3282A,113.3397,40.0597,大同市,大同市卫生学校,颗粒物(PM10),94,138,112,46,50,164,,77,77,17,40,15,18,0.5,0.9
2024-03-15T1400,3565A,113.1367,40.1122,大同市,云冈站,颗粒物(PM10),89,128,94,49,37,154,,75,75,12,40,10,29,0.4,0.6
2024-03-15T1400,3566A,113.1186,40.2556,大同市,图书馆,颗粒物(PM10),80,109,73,45,35,148,,83,83,21,19,14,16,0.5,0.5
2024-03-15T1400,3567A,113.5931,40.0461,大同市,区一中,颗粒物(PM10),72,94,104,46,48,153,,100,100,18,25,16,20,0.6,0.8
2024-03-15T1400,3676A,113.2802,40.0995,大同市,第二人民医院,颗粒物(PM10),80,109,120,38,47,161,,80,80,24,52,15,22,0.6,1.5
2024-03-15T1400,2269A,124.1069,50.4097,大兴安岭地区,科技局,,27,,16,13,17,86,,84,84,3,5,6,7,0.4,0.4
2024-03-15T1400,3663A,124.1164,50.4278,大兴安岭地区,红旗社区,,29,,5,3,7,90,,87,87,3,6,7,9,0.3,0.3
2024-03-15T1400,1600A,124.3303,40.0625,丹东市,江湾东路,细颗粒物(PM2.5),127,128,116,96,91,144,,92,92,24,29,12,15,1.0,1.1
2024-03-15T1400,1601A,124.4256,40.1503,丹东市,临江后街,细颗粒物(PM2.5),113,124,126,85,87,149,,72,72,20,31,17,16,1.1,1.6
2024-03-15T1400,1602A,124.3933,40.1461,丹东市,元宝山,细颗粒物(PM2.5),118,126,121,89,88,129,,80,79,26,28,14,12,1.0,1
2024-03-15T1400,1603A,124.3633,40.1092,丹东市,民主桥,细颗粒物(PM2.5),124,137,121,94,87,142,,88,88,24,30,18,14,1.0,1
2024-03-15T1400,3541A,109.5726,19.5167,儋州市,第一中学子站,,29,23,26,20,14,70,,68,68,3,4,7,6,0.6,0.6
2024-03-15T1400,3542A,109.5567,19.5187,儋州市,东坡学校子站,,38,38,25,18,12,74,,70,70,1,3,7,7,0.5,0.5
2024-03-15T1400,2616A,98.5842,24.428,德宏傣族景颇族自治州,德宏州监测站,颗粒物(PM10),68,86,91,32,54,145,,59,59,16,30,4,6,0.7,0.8
2024-03-15T1400,3677A,98.5881,24.4368,德宏傣族景颇族自治州,芒市人民政府综合楼,细颗粒物(PM2.5),80,88,81,59,54,139,,70,70,18,19,10,7,0.6,0.7
2024-03-15T1400,1901A,104.4239,31.1208,德阳市,东山公园,细颗粒物(PM2.5),58,,39,41,40,108,,67,67,10,19,2,2,0.5,0.6
2024-03-15T1400,1902A,104.3826,31.1317,德阳市,西小区,细颗粒物(PM2.5),64,47,54,46,48,111,,57,57,13,24,2,2,0.5,0.6
2024-03-15T1400,1904A,104.3553,31.1091,德阳市,耐火材料厂,,48,44,55,33,48,112,,47,47,8,23,3,4,0.5,0.6
2024-03-15T1400,3639A,104.4019,31.1244,德阳市,市教育局,细颗粒物(PM2.5),54,44,51,38,45,111,,54,54,10,24,2,2,0.4,0.5
2024-03-15T1400,1622A,116.3032,37.4674,德州市,儿童乐园,颗粒物(PM10),76,102,97,44,50,157,,108,108,10,16,9,9,0.5,0.5
2024-03-15T1400,1624A,116.2991,37.4451,德州市,监理站,颗粒物(PM10),79,107,90,44,49,163,,113,113,13,19,12,12,0.5,0.5
2024-03-15T1400,3066A,116.2721,37.4379,德州市,九衢泉纯净水厂,颗粒物(PM10),79,107,97,39,46,158,,110,110,13,21,7,8,0.5,0.5
2024-03-15T1400,3371A,116.3728,37.4403,德州市,开发区人民医院,颗粒物(PM10),76,102,100,34,45,162,,111,111,12,18,9,9,0.4,0.5
2024-03-15T1400,3372A,116.3572,37.4094,德州市,太阳城中学,颗粒物(PM10),75,100,98,41,52,158,,106,106,9,18,8,8,0.5,0.6
2024-03-15T1400,3511A,116.5652,37.3319,德州市,陵城艺术中心,颗粒物(PM10),64,78,89,34,46,157,,104,104,9,17,8,9,0.6,0.6
2024-03-15T1400,2621A,99.7056,27.8317,迪庆藏族自治州,迪庆州站,,37,24,40,18,25,117,,107,98,11,14,6,7,0.4,0.5
2024-03-15T1400,3180A,99.7136,27.8094,迪庆藏族自治州,质量技术监督局,,37,26,33,14,18,116,,112,103,9,12,6,6,0.5,0.5
2024-03-15T1400,2663A,104.6241,35.5734,定西市,东关小学,,35,35,43,18,26,85,,77,65,12,15,10,10,0.3,0.4
2024-03-15T1400,2664A,104.6194,35.5934,定西市,供电公司,,39,29,40,27,30,83,,68,46,5,18,12,12,0.1,0.3
2024-03-15T1400,1389A,113.7547,23.0494,东莞市,莞城梨川,颗粒物(PM10),62,74,77,41,40,82,,53,53,34,33,8,8,0.7,0.7
2024-03-15T1400,1390A,113.7944,23.0128,东莞市,东城石井,颗粒物(PM10),61,72,78,38,41,81,,51,51,28,34,8,8,0.8,0.8
2024-03-15T1400,1391A,113.7383,22.9658,东莞市,南城西平,颗粒物(PM10),64,77,81,36,40,78,,49,49,34,43,7,6,0.8,0.7
2024-03-15T1400,3319A,113.7338,23.0381,东莞市,万江金泰,颗粒物(PM10),70,90,81,47,44,89,,49,49,29,30,9,9,0.7,0.7
2024-03-15T1400,3626A,113.7533,23.0202,东莞市,南城元岭,颗粒物(PM10),62,74,79,40,39,83,,52,52,28,31,9,9,0.9,0.8
2024-03-15T1400,3627A,113.7875,23.0457,东莞市,东城主山,,,73,70,37,38,72,,44,44,31,29,,8,0.7,0.7
2024-03-15T1400,1666A,118.6614,37.4309,东营市,市环保局,臭氧1小时,75,90,108,48,60,180,,108,108,16,39,12,14,0.4,0.6
2024-03-15T1400,3036A,118.6904,37.4338,东营市,开发区管委会,细颗粒物(PM2.5),73,94,104,53,62,168,,99,99,21,42,8,10,0.5,0.7
2024-03-15T1400,3365A,118.5719,37.565,东营市,垦利区民丰路,臭氧1小时,74,73,110,39,64,179,,110,110,20,47,11,17,0.6,1
2024-03-15T1400,3498A,118.5055,37.8612,东营市,河口城区,臭氧1小时,67,78,128,47,77,173,,96,96,10,35,9,11,0.7,0.9
2024-03-15T1400,3646A,118.4978,37.4623,东营市,胜利站,颗粒物(PM10),71,91,128,34,64,166,,104,104,27,55,12,23,0.8,1.1
2024-03-15T1400,3734A,118.35,37.26,东营市,理想之城,颗粒物(PM10),69,88,117,44,68,168,,96,96,27,53,10,9,0.7,1
2024-03-15T1400,1591A,110.0023,39.8129,鄂尔多斯市,综合楼,,,144,121,39,29,134,,117,117,,30,6,12,0.4,0.6
2024-03-15T1400,1592A,109.9486,39.8261,鄂尔多斯市,巴音孟克林场办事处,颗粒物(PM10),84,117,100,29,30,134,,114,114,14,26,9,14,0.5,0.6
2024-03-15T1400,1593A,109.7736,39.5986,鄂尔多斯市,康泽苑,颗粒物(PM10),73,95,73,29,28,140,,120,120,17,24,7,10,0.6,0.6
2024-03-15T1400,1594A,109.8119,39.5989,鄂尔多斯市,华泰汽车城,颗粒物(PM10),68,85,81,31,34,134,,104,104,17,28,6,12,0.5,0.5
2024-03-15T1400,1595A,109.9734,39.7884,鄂尔多斯市,奥林花园,颗粒物(PM10),75,100,109,36,34,131,,112,112,17,31,9,14,0.6,0.7
2024-03-15T1400,2436A,114.8938,30.3994,鄂州市,市政府,细颗粒物(PM2.5),69,68,76,50,56,130,,85,85,14,23,11,12,1.0,0.9
2024-03-15T1400,2437A,114.8989,30.3714,鄂州市,赵家坝,细颗粒物(PM2.5),73,64,70,53,52,132,,84,84,13,18,9,8,0.9,0.8
2024-03-15T1400,3654A,114.8094,30.4089,鄂州市,精准医疗中心,"颗粒物(PM10),细颗粒物(PM2.5)",69,87,92,50,50,133,,85,85,12,23,9,12,0.9,1.4
2024-03-15T1400,2454A,109.4978,30.2981,恩施土家族苗族自治州,湖北民院,细颗粒物(PM2.5),67,66,56,48,43,42,,45,25,35,22,8,7,1.3,1.1
2024-03-15T1400,2455A,109.4707,30.2798,恩施土家族苗族自治州,州电力总公司,细颗粒物(PM2.5),64,62,47,46,36,49,,20,19,21,22,7,8,0.9,1
2024-03-15T1400,3549A,109.5061,30.3772,恩施土家族苗族自治州,龙凤新区,细颗粒物(PM2.5),62,60,44,44,36,24,,20,19,40,22,7,6,1.0,0.8
2024-03-15T1400,2499A,108.3411,21.6158,防城港市,沙万,颗粒物(PM10),65,79,22,33,12,37,,31,25,34,20,4,4,1.0,0.8
2024-03-15T1400,2500A,108.3514,21.7731,防城港市,防城档案局,"颗粒物(PM10),细颗粒物(PM2.5)",65,80,24,47,11,28,,25,15,23,20,6,5,1.3,0.8
2024-03-15T1400,2501A,108.3506,21.6414,防城港市,大海花园,颗粒物(PM10),67,84,23,24,10,58,,32,26,20,17,3,4,0.9,0.9
2024-03-15T1400,1371A,113.1294,23.0067,佛山市,湾梁,颗粒物(PM10),92,134,80,41,32,27,,16,16,56,55,9,9,0.8,0.7
2024-03-15T1400,1372A,113.1083,23.0478,佛山市,华材职中,颗粒物(PM10),80,110,64,43,35,17,,12,12,68,59,11,9,0.8,0.7
2024-03-15T1400,1373A,113.144,23.0453,佛山市,南海气象局,颗粒物(PM10),78,105,61,48,35,35,,15,15,53,54,9,9,0.7,0.7
2024-03-15T1400,1374A,113.2881,22.8094,佛山市,顺德苏岗,颗粒物(PM10),75,99,81,53,47,32,,20,20,62,58,5,5,0.7,0.7
2024-03-15T1400,1376A,112.8383,22.8678,佛山市,高明孔堂,颗粒物(PM10),91,131,72,51,39,15,,10,10,69,59,11,9,0.9,0.8
2024-03-15T1400,1377A,112.8836,23.1588,佛山市,三水监测站,颗粒物(PM10),87,124,50,45,25,13,,10,10,42,38,8,8,1.0,1
2024-03-15T1400,1378A,112.867,23.185,佛山市,三水云东海,颗粒物(PM10),71,92,40,48,27,12,,11,11,46,36,9,6,0.8,0.8
2024-03-15T1400,3625A,113.2544,22.7642,佛山市,容桂街道办,颗粒物(PM10),84,117,88,48,43,46,,25,25,58,63,6,7,0.6,0.6
2024-03-15T1400,1280A,119.3903,26.0543,福州市,鼓山,,,,,,,,,,,,,,,,
2024-03-15T1400,1282A,119.2681,26.0504,福州市,师大,,33,,40,23,42,50,,29,29,29,23,3,3,0.6,0.5
2024-03-15T1400,1283A,119.2984,26.1028,福州市,五四北路,,48,,41,33,44,31,,19,19,39,38,3,3,0.9,0.8
2024-03-15T1400,1284A,119.2648,26.0768,福州市,杨桥西路,,39,,37,27,40,40,,27,27,34,27,3,3,0.6,0.5
2024-03-15T1400,1285A,119.317,26.0746,福州市,紫阳,,38,,42,26,46,42,,25,25,34,34,2,2,0.8,0.7
2024-03-15T1400,3048A,119.5799,26.0936,福州市,九龙,,32,28,32,22,30,63,,52,48,17,22,4,3,0.5,0.7
2024-03-15T1400,3526A,119.5189,25.9664,福州市,吴航,,33,27,58,23,40,58,,25,25,20,43,3,4,0.6,0.8
2024-03-15T1400,1755A,123.7977,41.8491,抚顺市,望花区,,36,31,144,13,92,115,,90,85,10,32,6,18,0.3,1
2024-03-15T1400,1756A,123.9161,41.8822,抚顺市,顺城区,,38,26,151,13,86,121,,88,85,13,37,5,13,0.4,1.1
2024-03-15T1400,1757A,124.0436,41.8611,抚顺市,东洲区,,37,31,137,15,84,118,,92,89,8,26,7,16,0.4,1.1
2024-03-15T1400,1758A,123.9247,41.8642,抚顺市,新抚区,,41,28,142,14,90,129,,103,90,13,34,6,13,0.3,1.1
2024-03-15T1400,1759A,124.0972,41.8961,抚顺市,大伙房水库,,37,30,146,16,86,116,,105,103,10,24,6,14,0.3,1
2024-03-15T1400,1760A,123.7086,41.8391,抚顺市,沈抚新城,,37,24,147,11,91,116,,95,85,8,29,5,12,0.4,1
2024-03-15T1400,2376A,116.2127,28.0814,抚州市,桐源党溪,,50,50,37,32,18,40,,28,28,21,23,5,12,0.7,0.6
2024-03-15T1400,2377A,116.3544,27.9831,抚州市,市站,,33,33,39,20,22,38,,32,32,19,21,4,4,0.8,0.8
2024-03-15T1400,2378A,116.3565,27.963,抚州市,血防站,,33,33,41,22,21,45,,38,38,21,27,1,4,1.0,1
2024-03-15T1400,2379A,116.3564,28.0007,抚州市,采茶剧团,,,35,37,22,21,,,38,38,19,26,3,3,1.0,0.9
2024-03-15T1400,2380A,116.385,27.9647,抚州市,医学分院,,34,34,37,17,16,40,,36,36,24,27,6,7,0.9,0.9
2024-03-15T1400,2207A,121.6094,41.998,阜新市,工业园区,,33,21,131,6,81,103,,90,90,15,40,10,16,0.6,1.2
2024-03-15T1400,2208A,121.6697,42.0279,阜新市,长青街,,33,27,126,4,89,103,,87,87,11,35,12,17,0.4,1.1
2024-03-15T1400,2209A,121.6673,42.0705,阜新市,农业园区,,33,26,112,2,57,105,,95,95,8,23,6,16,0.5,0.9
2024-03-15T1400,2210A,121.6717,42.0224,阜新市,东苑,,39,39,110,2,78,95,,84,84,13,45,17,26,0.5,1.3
2024-03-15T1400,2211A,121.6506,42.0498,阜新市,玉龙新城,,32,9,114,7,70,101,,89,89,10,37,12,16,0.3,0.9
2024-03-15T1400,2301A,115.8277,32.8929,阜阳市,市监测站,细颗粒物(PM2.5),99,101,111,74,88,156,,85,85,17,26,9,8,0.8,0.7
2024-03-15T1400,2303A,115.8554,32.8605,阜阳市,开发区,细颗粒物(PM2.5),108,119,128,81,82,158,,85,85,22,34,8,7,0.7,0.7
2024-03-15T1400,2875A,115.784,32.8892,阜阳市,阜阳职业技术学院,细颗粒物(PM2.5),92,89,107,68,81,159,,88,88,18,26,7,6,0.8,0.8
2024-03-15T1400,3468A,115.7901,32.8613,阜阳市,市规划展馆,细颗粒物(PM2.5),92,103,101,68,78,160,,92,92,22,30,7,8,0.6,0.6
2024-03-15T1400,3469A,115.836,32.9183,阜阳市,枣园社区,细颗粒物(PM2.5),95,99,92,71,69,159,,89,89,23,32,10,9,0.7,0.7
2024-03-15T1400,2669A,102.9099,34.9841,甘南藏族自治州,州政府,,30,29,38,21,26,95,,72,72,6,20,10,14,0.3,0.7
2024-03-15T1400,3380A,102.8914,34.9617,甘南藏族自治州,甘肃民族师范学院,,33,25,29,14,16,104,,75,75,9,17,12,9,0.3,0.4
2024-03-15T1400,2570A,101.9603,30.0475,甘孜藏族自治州,水桥子,,24,17,12,8,7,76,,39,39,11,19,12,11,0.3,0.4
2024-03-15T1400,3065A,101.9533,29.9972,甘孜藏族自治州,州环保局,,25,19,17,6,5,80,,64,64,12,15,8,8,0.3,0.3
2024-03-15T1400,3414A,115.8347,28.932,赣江新区,桑海产业园,细颗粒物(PM2.5),60,61,72,43,36,93,,41,41,20,35,10,8,0.4,0.4
2024-03-15T1400,2362A,114.9017,25.9149,赣州市,通天岩,,,,,,,,,,,,,,,,
2024-03-15T1400,2363A,114.9367,25.8664,赣州市,地委,,38,38,30,26,24,24,,35,24,25,17,10,9,0.9,0.9
2024-03-15T1400,2364A,114.9461,25.8481,赣州市,气象台,,40,38,30,28,24,31,,42,28,34,28,13,12,0.6,0.6
2024-03-15T1400,2365A,114.9322,25.8333,赣州市,市图书馆,,,40,33,21,21,,,43,26,29,23,13,8,,0.6
2024-03-15T1400,2366A,114.8905,25.8471,赣州市,华坚鞋城,细颗粒物(PM2.5),54,50,34,38,21,18,,40,24,38,22,12,9,0.6,0.5
2024-03-15T1400,3109A,115.0093,25.8613,赣州市,赣县区卫计委,,42,38,24,29,21,27,,35,30,24,19,9,7,0.6,0.6
2024-03-15T1400,2683A,106.2319,36.1417,固原市,马园,颗粒物(PM10),68,85,90,39,42,76,,100,70,35,34,5,5,0.6,0.6
2024-03-15T1400,2684A,106.2792,36.0022,固原市,监测站,细颗粒物(PM2.5),75,65,63,55,43,93,,108,96,20,17,8,7,0.6,0.5
2024-03-15T1400,2685A,106.2375,36.0211,固原市,新区,细颗粒物(PM2.5),68,62,64,49,42,87,,107,89,20,15,8,8,0.7,0.5
2024-03-15T1400,3522A,106.2177,35.9959,固原市,原州区十五小,细颗粒物(PM2.5),72,92,84,52,40,89,,114,89,34,22,11,10,0.7,0.5
2024-03-15T1400,2543A,106.6308,30.5278,广安市,小平旧居,,,,,,,,,,,,,,,,
2024-03-15T1400,2544A,106.6303,30.4576,广安市,市委,颗粒物(PM10),63,75,82,35,54,65,,32,32,21,38,6,5,0.7,0.9
2024-03-15T1400,2545A,106.6271,30.4663,广安市,友谊中学,颗粒物(PM10),56,61,71,31,51,73,,32,32,22,40,7,5,0.8,1
2024-03-15T1400,2547A,106.6388,30.4551,广安市,广电花园,颗粒物(PM10),56,62,75,35,54,64,,30,29,23,40,7,7,0.7,1
2024-03-15T1400,2902A,106.6351,30.4865,广安市,北辰小学,颗粒物(PM10),57,64,78,39,58,73,,40,32,19,29,9,8,0.8,0.9
2024-03-15T1400,2523A,105.8945,32.4535,广元市,黑石坡,,49,49,37,29,16,87,,87,72,12,16,5,8,0.4,0.5
2024-03-15T1400,2524A,105.821,32.4444,广元市,老城,颗粒物(PM10),63,76,46,33,23,59,,43,25,34,36,8,6,0.8,0.9
2024-03-15T1400,2526A,105.8628,32.4287,广元市,监测站,细颗粒物(PM2.5),63,61,39,45,26,61,,44,31,40,35,18,11,0.9,0.7
2024-03-15T1400,3617A,105.8047,32.4166,广元市,经开区,细颗粒物(PM2.5),59,64,51,42,34,68,,38,26,24,34,8,8,0.7,0.6
2024-03-15T1400,1345A,113.2347,23.1423,广州市,广雅中学,颗粒物(PM10),66,81,62,47,36,41,,20,20,49,53,6,6,0.9,0.9
2024-03-15T1400,1346A,113.2612,23.105,广州市,市五中,细颗粒物(PM2.5),68,81,69,49,43,44,,24,24,50,57,8,6,1.0,0.9
2024-03-15T1400,1348A,113.3478,23.0916,广州市,广东商学院,细颗粒物(PM2.5),64,76,73,46,43,43,,25,25,57,57,8,6,0.8,0.8
2024-03-15T1400,1349A,113.4332,23.1047,广州市,市八十六中,颗粒物(PM10),66,81,75,40,38,74,,36,36,44,50,7,6,0.8,0.8
2024-03-15T1400,1350A,113.3505,22.9483,广州市,番禺中学,颗粒物(PM10),70,89,83,46,45,66,,37,37,51,57,6,7,0.9,0.9
2024-03-15T1400,1351A,113.2146,23.3916,广州市,花都师范,颗粒物(PM10),57,64,39,35,24,40,,22,22,37,32,5,5,0.7,0.7
2024-03-15T1400,1352A,113.2597,23.1331,广州市,市监测站,细颗粒物(PM2.5),72,84,66,52,41,42,,25,25,56,61,6,5,0.9,0.8
2024-03-15T1400,1353A,113.5618,23.312,广州市,九龙镇镇龙,颗粒物(PM10),54,58,52,36,29,71,,44,44,19,21,5,5,0.7,0.7
2024-03-15T1400,1354A,113.2765,23.1544,广州市,麓湖,颗粒物(PM10),64,78,62,43,36,42,,24,24,42,45,5,5,0.9,0.8
2024-03-15T1400,1355A,113.443,23.3035,广州市,帽峰山森林公园,,,,37,29,24,,,50,50,,20,7,7,0.9,0.9
2024-03-15T1400,2846A,113.3221,23.1322,广州市,体育西,颗粒物(PM10),54,58,74,31,39,40,,26,26,48,48,8,6,0.9,0.6
2024-03-15T1400,3298A,113.5717,23.5491,广州市,从化街口,,33,32,34,23,25,20,,18,18,24,30,6,6,0.8,0.8
2024-03-15T1400,3299A,113.3472,23.3692,广州市,白云竹料,颗粒物(PM10),51,51,41,31,27,47,,30,30,24,24,6,6,0.6,0.6
2024-03-15T1400,3300A,113.2981,23.237,广州市,白云嘉禾,颗粒物(PM10),62,74,61,43,35,47,,27,27,41,48,7,7,0.8,0.7
2024-03-15T1400,3301A,113.4256,23.1716,广州市,黄埔科学城,细颗粒物(PM2.5),63,71,71,45,41,76,,45,45,35,36,6,5,0.8,0.8
2024-03-15T1400,3302A,113.3942,23.0483,广州市,番禺大学城,颗粒物(PM10),70,90,106,38,36,64,,31,31,49,56,11,9,1.2,1.1
2024-03-15T1400,3303A,113.4922,22.8168,广州市,南沙黄阁,颗粒物(PM10),80,109,100,45,55,81,,44,44,43,63,5,7,0.9,1
2024-03-15T1400,3304A,113.5342,22.7896,广州市,南沙街,颗粒物(PM10),79,108,93,36,49,75,,49,49,41,52,8,9,0.8,0.8
2024-03-15T1400,3443A,113.2902,23.5544,广州市,花都梯面,,35,34,25,24,19,18,,19,19,18,21,6,6,0.8,0.7
2024-03-15T1400,3445A,113.7858,23.7478,广州市,从化良口,,18,10,20,7,13,55,,39,39,5,11,4,4,0.7,0.7
2024-03-15T1400,3446A,113.8051,23.2614,广州市,增城荔城,,40,40,56,27,32,76,,50,50,10,10,5,7,0.6,0.7
2024-03-15T1400,2505A,109.568,23.1478,贵港市,德智高中,,28,28,17,10,13,33,,34,33,25,18,5,5,0.7,0.7
2024-03-15T1400,2506A,109.6047,23.0666,贵港市,江南子站,,36,36,21,20,18,30,,38,31,21,21,6,6,0.8,0.8
2024-03-15T1400,2507A,109.6014,23.0948,贵港市,贵城子站,,30,30,24,15,16,40,,35,29,13,20,8,7,0.6,0.7
2024-03-15T1400,2508A,109.5669,23.1065,贵港市,荷城子站,,29,29,19,12,9,34,,38,32,19,18,10,9,1.0,1
2024-03-15T1400,3405A,109.5886,23.1172,贵港市,新世纪学校,,24,24,18,15,14,38,,40,35,17,17,7,7,0.9,0.8
2024-03-15T1400,1439A,106.6899,26.5998,贵阳市,马鞍山,,22,22,25,9,14,54,,36,32,7,9,9,8,0.6,0.5
2024-03-15T1400,1440A,106.6971,26.5694,贵阳市,市环保站,颗粒物(PM10),53,56,31,20,21,53,,46,36,18,18,5,5,0.5,0.5
2024-03-15T1400,1441A,106.6243,26.6266,贵阳市,鉴湖路,,34,34,34,19,16,50,,46,36,11,16,5,4,0.4,0.5
2024-03-15T1400,1442A,106.7487,26.6343,贵阳市,燕子冲,,20,,22,14,21,63,,52,44,12,12,8,8,0.7,0.6
2024-03-15T1400,1443A,106.6555,26.4365,贵阳市,碧云窝,,39,39,26,14,10,50,,53,49,9,10,7,7,0.5,0.5
2024-03-15T1400,1444A,106.694,26.5161,贵阳市,中院村,,24,24,25,14,15,55,,43,42,11,15,10,10,0.5,0.5
2024-03-15T1400,1445A,106.7109,26.6027,贵阳市,红边门,,27,27,30,17,22,55,,43,33,13,17,5,7,0.5,0.5
2024-03-15T1400,1446A,106.7164,26.5699,贵阳市,新华路,,20,19,26,14,18,58,,47,39,12,16,4,4,0.5,0.6
2024-03-15T1400,1447A,106.674,26.5424,贵阳市,太慈桥,,24,24,24,12,14,52,,42,42,11,15,8,8,0.4,0.4
2024-03-15T1400,1552A,106.805,26.3003,贵阳市,桐木岭,,,,,,,,,,,,,,,,
2024-03-15T1400,1862A,110.4144,25.3167,桂林市,电子科大尧山校区,,19,16,18,12,14,59,,66,58,7,6,3,3,0.5,0.5
2024-03-15T1400,1863A,110.2819,25.2697,桂林市,监测站,,33,33,26,20,24,52,,66,48,20,18,8,6,0.7,0.7
2024-03-15T1400,1864A,110.3089,25.2708,桂林市,龙隐路小学,,29,22,23,20,25,56,,61,52,15,13,4,4,0.7,0.6
2024-03-15T1400,1865A,110.2869,25.2178,桂林市,八中,,32,32,27,20,22,52,,57,44,20,22,4,4,0.7,0.7
2024-03-15T1400,3403A,110.1764,25.2381,桂林市,创业大厦,,,36,26,22,19,,,75,52,19,12,11,8,,0.6
2024-03-15T1400,3531A,110.296,25.1253,桂林市,旅游学院,,25,17,19,17,17,49,,51,47,16,16,6,5,0.6,0.6
2024-03-15T1400,2674A,100.2561,34.4714,果洛藏族自治州,玛沁县大武镇,,46,46,25,12,14,135,,99,99,2,6,6,9,0.4,0.5
2024-03-15T1400,1129A,126.5422,45.755,哈尔滨市,岭北,,31,11,39,5,28,97,,94,94,10,18,13,11,0.2,0.4
2024-03-15T1400,1130A,126.561,45.8167,哈尔滨市,松北商大,,33,33,44,9,26,88,,83,83,8,15,3,7,0.3,0.4
2024-03-15T1400,1131A,126.979,45.5419,哈尔滨市,阿城会宁,,,32,45,8,25,,,81,81,13,18,13,13,,0.3
2024-03-15T1400,1132A,126.599,45.7222,哈尔滨市,南岗学府路,,35,35,59,2,25,86,,80,80,7,20,7,14,0.2,0.4
2024-03-15T1400,1133A,126.689,45.7733,哈尔滨市,太平宏伟公园,,,32,46,10,29,87,,83,83,,15,8,10,,0.5
2024-03-15T1400,1134A,126.635,45.7667,哈尔滨市,道外承德广场,,28,25,48,7,28,87,,82,82,9,18,7,10,0.3,0.3
2024-03-15T1400,1135A,126.685,45.7319,哈尔滨市,香坊红旗大街,,34,34,50,7,28,82,,80,80,12,21,3,6,0.4,0.5
2024-03-15T1400,1136A,126.6411,45.7258,哈尔滨市,动力和平路,,32,32,47,10,29,91,,87,87,6,15,2,6,0.3,0.5
2024-03-15T1400,1137A,126.593,45.7478,哈尔滨市,道里建国路,,32,29,49,22,33,81,,77,77,13,26,1,6,0.5,1.1
2024-03-15T1400,1138A,126.615,45.61,哈尔滨市,平房东轻厂,,43,43,48,13,29,68,,66,66,26,21,4,6,0.1,0.3
2024-03-15T1400,1139A,126.595,45.9855,哈尔滨市,呼兰师专,颗粒物(PM10),57,63,53,11,30,77,,73,73,9,19,9,12,0.4,0.6
2024-03-15T1400,1140A,126.6206,45.6842,哈尔滨市,省农科院,,31,31,45,16,32,93,,90,90,4,21,6,10,0.3,0.5
2024-03-15T1400,2688A,93.5128,42.8172,哈密市,地区监测站,颗粒物(PM10),166,281,452,31,65,83,,79,79,6,10,3,3,0.2,0.2
2024-03-15T1400,2689A,93.4961,42.8328,哈密市,哈密师范学校,颗粒物(PM10),153,255,423,28,63,80,,76,75,8,12,4,6,0.2,0.3
2024-03-15T1400,2671A,100.9048,36.9639,海北藏族自治州,海晏县西海镇,颗粒物(PM10),106,162,73,48,30,103,,81,81,6,15,15,19,0.6,0.6
2024-03-15T1400,3867A,102.0738,36.5056,海东市,平安区公安北苑,颗粒物(PM10),87,123,67,37,35,87,,45,45,17,24,19,11,0.4,0.5
2024-03-15T1400,1409A,110.576,19.9507,海口市,东寨港,,,,,,,,,,,,,,,,
2024-03-15T1400,1410A,110.3232,20.0574,海口市,海南大学,,47,47,56,23,23,91,,84,84,4,9,7,7,0.4,0.4
2024-03-15T1400,1411A,110.283,20.0053,海口市,秀英海南医院,颗粒物(PM10),51,51,56,24,22,85,,82,82,7,6,8,8,0.4,0.4
2024-03-15T1400,1412A,110.338,19.9969,海口市,海南师范大学,颗粒物(PM10),51,52,56,21,24,89,,82,82,2,7,7,7,0.4,0.5
2024-03-15T1400,1413A,110.33,20.0356,海口市,龙华路环保局宿舍,颗粒物(PM10),54,57,57,23,23,86,,79,79,4,8,8,8,0.3,0.3
2024-03-15T1400,3539A,110.5111,19.9736,海口市,桂林洋子站,,41,41,51,20,21,88,,86,86,3,4,7,7,0.3,0.3
2024-03-15T1400,2673A,100.6188,36.2866,海南藏族自治州,共和县恰卜恰镇,细颗粒物(PM2.5),99,116,66,74,28,114,,82,82,4,20,10,13,0.2,0.5
2024-03-15T1400,2676A,97.3731,37.3753,海西蒙古族藏族自治州,德令哈市,颗粒物(PM10),171,292,242,48,45,109,,107,106,11,16,7,6,0.5,0.5
2024-03-15T1400,1048A,114.5302,36.6116,邯郸市,东污水处理厂,颗粒物(PM10),56,61,101,24,63,128,,100,100,2,9,3,5,0.2,0.5
2024-03-15T1400,1049A,114.4918,36.5713,邯郸市,矿院,颗粒物(PM10),56,61,93,9,56,122,,95,95,4,11,3,5,0.4,0.7
2024-03-15T1400,1050A,114.484,36.6133,邯郸市,丛台公园,,42,42,87,18,56,134,,101,101,7,13,6,8,0.5,0.6
2024-03-15T1400,3458A,114.7895,36.5593,邯郸市,香泉濮院小区,颗粒物(PM10),58,65,93,36,59,138,,105,105,1,7,6,6,0.4,0.3
2024-03-15T1400,3579A,114.50634,36.77178,邯郸市,永年区实验高中,颗粒物(PM10),56,62,116,22,67,148,,110,110,8,15,4,7,0.1,0.4
2024-03-15T1400,3580A,114.20016,36.44293,邯郸市,峰峰矿区临水派出所,,48,48,107,17,74,142,,97,97,6,13,8,12,0.3,1
2024-03-15T1400,2634A,106.9893,33.1842,汉中市,汉川机床厂子校,,40,40,37,26,17,105,,100,100,10,10,4,4,0.5,0.4
2024-03-15T1400,2635A,107.0154,33.0706,汉中市,市监测站,颗粒物(PM10),53,55,53,33,33,114,,83,83,10,27,7,8,0.6,0.8
2024-03-15T1400,2636A,107.0089,33.1138,汉中市,鑫源开发区,,49,49,43,23,24,118,,108,108,12,21,8,9,0.5,0.5
2024-03-15T1400,2637A,107.007,33.0323,汉中市,南郑大河坎水厂,,48,48,47,26,32,108,,56,56,10,26,8,8,0.5,0.6
2024-03-15T1400,1223A,120.2072,30.2111,杭州市,滨江,细颗粒物(PM2.5),107,144,121,80,63,114,,61,61,67,83,10,7,0.6,0.6
2024-03-15T1400,1224A,120.0633,30.2747,杭州市,西溪,细颗粒物(PM2.5),112,166,123,84,57,128,,61,61,59,77,14,9,0.8,0.9
2024-03-15T1400,1226A,120.3461,30.3153,杭州市,下沙,细颗粒物(PM2.5),145,185,130,111,71,122,,62,62,56,83,12,9,0.7,0.7
2024-03-15T1400,1227A,120.1269,30.2456,杭州市,卧龙桥,细颗粒物(PM2.5),134,157,112,102,72,121,,63,63,63,69,10,6,0.7,0.8
2024-03-15T1400,1228A,120.1903,30.2692,杭州市,浙江农大,细颗粒物(PM2.5),129,167,129,98,74,95,,55,55,70,81,12,9,0.8,0.8
2024-03-15T1400,1230A,120.1197,30.3119,杭州市,和睦小学,细颗粒物(PM2.5),140,160,130,107,77,112,,62,62,58,79,11,9,0.6,0.7
2024-03-15T1400,1231A,120.3019,30.4183,杭州市,临平镇,细颗粒物(PM2.5),119,138,120,90,85,134,,68,68,35,71,10,7,0.6,0.6
2024-03-15T1400,1232A,120.2697,30.1819,杭州市,城厢镇,细颗粒物(PM2.5),117,134,112,88,61,116,,61,61,62,81,11,10,0.7,0.8
2024-03-15T1400,1233A,120.0883,30.1808,杭州市,云栖,细颗粒物(PM2.5),150,169,117,115,73,128,,72,72,60,60,12,8,0.8,0.8
2024-03-15T1400,3557A,119.9464,30.0494,杭州市,镇二中,细颗粒物(PM2.5),124,121,108,94,72,128,,68,68,54,84,12,9,0.7,0.9
2024-03-15T1400,3558A,119.7183,30.2367,杭州市,市府大楼,细颗粒物(PM2.5),142,161,136,108,94,148,,77,77,67,72,10,7,0.8,0.9
2024-03-15T1400,3656A,120.1556,30.2864,杭州市,消防大队,细颗粒物(PM2.5),158,184,136,120,80,108,,66,66,87,92,14,12,0.8,0.9
2024-03-15T1400,1270A,117.1959,31.7848,合肥市,明珠广场,细颗粒物(PM2.5),77,80,123,56,85,139,,66,66,20,55,8,9,0.7,1.1
2024-03-15T1400,1271A,117.3072,31.8764,合肥市,三里街,细颗粒物(PM2.5),100,105,133,75,98,120,,48,48,32,59,9,8,0.9,1.1
2024-03-15T1400,1272A,117.2588,31.8707,合肥市,琥珀山庄,颗粒物(PM10),78,105,124,51,72,150,,74,74,26,54,7,6,0.5,0.9
2024-03-15T1400,1273A,117.1604,31.9052,合肥市,董铺水库,细颗粒物(PM2.5),100,130,136,75,77,158,,75,75,20,46,5,4,0.7,0.8
2024-03-15T1400,1274A,117.25,31.8571,合肥市,长江中路,细颗粒物(PM2.5),100,97,126,75,97,146,,66,66,20,45,11,11,0.9,1.3
2024-03-15T1400,1275A,117.266,31.9436,合肥市,庐阳区,细颗粒物(PM2.5),83,92,135,61,88,126,,58,58,26,56,6,5,0.7,1
2024-03-15T1400,1276A,117.336,31.8586,合肥市,瑶海区,细颗粒物(PM2.5),98,112,129,73,93,143,,64,64,21,55,9,8,0.8,1.2
2024-03-15T1400,1277A,117.3027,31.7964,合肥市,包河区,细颗粒物(PM2.5),73,90,132,53,86,149,,70,70,20,66,10,9,0.5,0.8
2024-03-15T1400,1278A,117.2776,31.7385,合肥市,滨湖新区,细颗粒物(PM2.5),104,124,125,78,85,162,,75,75,18,44,12,9,0.8,1
2024-03-15T1400,1279A,117.1318,31.8403,合肥市,高新区,细颗粒物(PM2.5),72,73,119,52,89,135,,67,67,20,51,6,7,0.7,1
2024-03-15T1400,3464A,117.3803,31.9147,合肥市,高教基地,细颗粒物(PM2.5),83,89,117,61,65,154,,72,72,29,55,7,6,0.6,0.8
2024-03-15T1400,3614A,79.924,37.0877,和田地区,地区环保局,颗粒物(PM10),500,1099,416,185,78,93,,87,84,3,14,5,8,0.5,0.7
2024-03-15T1400,3615A,79.9131,37.113,和田地区,市环保局,颗粒物(PM10),500,1025,370,129,57,95,,86,86,4,12,5,6,0.5,0.8
2024-03-15T1400,2516A,108.2011,24.715,河池市,东仁乐园,,12,8,14,8,12,16,,14,14,8,7,5,5,0.5,0.5
2024-03-15T1400,2517A,108.0497,24.6947,河池市,市环保站,,13,10,16,8,14,39,,34,32,17,18,6,6,0.6,0.6
2024-03-15T1400,2518A,108.0983,24.6989,河池市,市疾控中心,,12,12,14,6,11,34,,35,30,20,21,7,7,0.6,0.5
2024-03-15T1400,1696A,114.6778,23.7569,河源市,源西,,11,,24,5,18,34,,30,25,13,19,4,4,0.7,0.7
2024-03-15T1400,1697A,114.6944,23.7586,河源市,东埔,,21,21,39,11,25,34,,32,26,10,13,6,6,0.8,0.7
2024-03-15T1400,1698A,114.6892,23.7233,河源市,老城,,19,19,29,9,18,35,,32,27,14,14,5,5,0.5,0.5
2024-03-15T1400,1718A,115.4208,35.2464,菏泽市,气象局,颗粒物(PM10),57,63,69,30,37,145,,106,106,13,18,4,4,0.4,0.4
2024-03-15T1400,1719A,115.4747,35.2375,菏泽市,市政协,颗粒物(PM10),54,57,64,33,43,143,,97,97,14,20,4,4,0.4,0.4
2024-03-15T1400,3374A,115.5564,35.0891,菏泽市,定陶老年大学,颗粒物(PM10),53,56,66,36,40,136,,97,97,12,19,5,5,0.3,0.5
2024-03-15T1400,3647A,115.4702,35.2706,菏泽市,菏泽医专,颗粒物(PM10),53,56,63,23,34,148,,97,97,12,17,4,4,0.4,0.4
2024-03-15T1400,2514A,111.5264,24.4172,贺州市,环保小区,,38,38,20,16,10,21,,42,28,23,17,5,6,0.8,0.7
2024-03-15T1400,2515A,111.5608,24.4078,贺州市,政协大楼,,,32,23,2,13,,,42,24,31,21,6,6,0.8,0.7
2024-03-15T1400,3534A,111.4744,24.4553,贺州市,西湾,,23,23,16,14,11,33,,45,32,11,10,8,9,0.7,0.7
2024-03-15T1400,2385A,114.17,35.9019,鹤壁市,市监测站,颗粒物(PM10),58,65,102,36,75,131,,111,111,8,13,10,11,0.2,0.5
2024-03-15T1400,2386A,114.2956,35.7511,鹤壁市,市交警支队,细颗粒物(PM2.5),52,49,96,36,67,136,,93,93,10,19,5,8,0.2,0.5
2024-03-15T1400,2387A,114.2878,35.7306,鹤壁市,迎宾馆,,46,46,82,28,64,136,,90,90,10,19,12,12,0.4,0.5
2024-03-15T1400,3474A,114.2617,35.6822,鹤壁市,大新区,细颗粒物(PM2.5),62,61,87,44,66,137,,78,78,6,29,8,10,0.6,0.7
2024-03-15T1400,3596A,114.1572,35.9603,鹤壁市,南山宾馆,,48,48,111,22,70,132,,105,105,8,17,6,10,0.3,0.5
2024-03-15T1400,2244A,130.2537,47.3416,鹤岗市,哈啤分公司,,33,30,39,23,27,84,,75,75,8,15,13,15,1.7,0.8
2024-03-15T1400,2245A,130.2684,47.3086,鹤岗市,斯达机电,,36,31,36,25,30,83,,73,73,11,17,10,12,0.4,0.5
2024-03-15T1400,2246A,130.3114,47.3388,鹤岗市,东山纸板厂,,39,39,45,23,34,85,,72,72,7,23,14,16,0,0.3
2024-03-15T1400,2247A,130.1097,47.3382,鹤岗市,五号水库,,30,21,26,15,18,96,,81,81,7,12,8,9,0.6,0.6
2024-03-15T1400,2263A,127.4833,50.2524,黑河市,交通局,,27,,25,14,22,85,,83,83,4,9,6,8,0.2,0.3
2024-03-15T1400,2264A,127.5144,50.2341,黑河市,环保局,,27,16,26,10,25,85,,83,83,12,11,8,6,0.3,0.4
2024-03-15T1400,2265A,127.5291,50.2472,黑河市,大黑河岛,,,,,,,,,,,,,,,,
2024-03-15T1400,1074A,115.6838,37.7541,衡水市,电机北厂,颗粒物(PM10),84,118,88,28,49,158,,115,115,5,8,2,3,0.3,0.4
2024-03-15T1400,1075A,115.6303,37.7316,衡水市,市监测站,颗粒物(PM10),82,113,88,28,47,153,,111,111,8,13,9,9,0.4,0.5
2024-03-15T1400,3188A,115.6683,37.7217,衡水市,市城管局,颗粒物(PM10),86,122,94,47,52,151,,110,110,8,13,6,6,0.3,0.4
2024-03-15T1400,3459A,115.5989,37.5491,衡水市,地表水厂,颗粒物(PM10),83,116,96,35,49,154,,113,113,1,18,3,4,0.3,0.4
2024-03-15T1400,2456A,112.5003,26.9167,衡阳市,原169医院,颗粒物(PM10),53,55,38,32,25,53,,28,28,14,20,10,9,0.9,0.7
2024-03-15T1400,2457A,112.6194,26.9258,衡阳市,衡阳化工总厂,细颗粒物(PM2.5),55,,48,39,43,45,,38,38,13,17,7,8,0.7,0.7
2024-03-15T1400,2458A,112.6211,26.8956,衡阳市,珠晖区环保局,细颗粒物(PM2.5),53,47,48,37,40,36,,27,27,17,19,7,8,0.8,0.8
2024-03-15T1400,2459A,112.6197,26.8733,衡阳市,市委党校,,38,32,46,26,32,45,,36,32,15,17,6,6,0.9,0.8
2024-03-15T1400,2460A,112.6006,26.8919,衡阳市,市监测站,细颗粒物(PM2.5),64,61,49,46,37,42,,33,33,13,16,8,9,0.8,0.8
2024-03-15T1400,2461A,112.5664,26.9056,衡阳市,真空机电公司,,44,44,47,29,35,48,,28,28,13,21,7,9,0.8,1
2024-03-15T1400,3399A,112.6703,26.882,衡阳市,师范学院,细颗粒物(PM2.5),60,46,46,43,37,40,,32,31,17,16,10,8,0.8,0.8
2024-03-15T1400,2608A,103.3772,23.3993,红河哈尼族彝族自治州,污水处理厂,颗粒物(PM10),56,62,62,31,47,127,,100,100,6,9,6,7,0.5,0.8
2024-03-15T1400,2609A,103.3861,23.35,红河哈尼族彝族自治州,监测站,,44,44,62,27,52,128,,109,109,5,8,8,8,0.5,0.9
2024-03-15T1400,3038A,103.3758,23.368,红河哈尼族彝族自治州,州图书馆,,42,37,58,29,48,125,,104,104,4,8,6,6,0.5,0.8
2024-03-15T1400,1090A,111.6507,40.7517,呼和浩特市,呼市一监,,,,92,35,41,147,,84,84,9,48,9,12,0.4,0.7
2024-03-15T1400,1091A,111.6572,40.8033,呼和浩特市,小召,颗粒物(PM10),84,117,96,33,39,150,,85,85,14,61,8,12,0.2,0.7
2024-03-15T1400,1094A,111.7516,40.8369,呼和浩特市,如意水处理厂,颗粒物(PM10),61,72,88,28,35,136,,65,65,11,62,9,14,0.3,0.6
2024-03-15T1400,1095A,111.7276,40.8062,呼和浩特市,二十九中,颗粒物(PM10),63,75,89,28,37,142,,75,75,12,53,10,14,0.4,0.7
2024-03-15T1400,1096A,111.5512,40.7866,呼和浩特市,工大金川校区,颗粒物(PM10),77,103,106,38,45,127,,67,67,13,60,8,10,0.4,0.7
2024-03-15T1400,1097A,111.717,40.7612,呼和浩特市,化肥厂生活区,颗粒物(PM10),74,98,106,35,42,142,,80,80,11,49,8,13,0.4,0.8
2024-03-15T1400,3698A,111.5968,40.8178,呼和浩特市,红旗小学,颗粒物(PM10),91,132,106,35,42,136,,65,65,15,61,8,12,0.3,0.6
2024-03-15T1400,3699A,111.6518,40.8389,呼和浩特市,海东办,颗粒物(PM10),78,105,108,32,44,142,,68,68,13,64,9,14,0.3,0.7
2024-03-15T1400,2192A,119.7594,49.2261,呼伦贝尔市,区环保局,,30,25,28,21,22,95,,87,85,9,12,5,4,0.4,0.4
2024-03-15T1400,3061A,119.7512,49.1577,呼伦贝尔市,国华电力东,,31,17,20,12,17,98,,92,91,6,6,4,4,0.2,0.3
2024-03-15T1400,1250A,120.0751,30.8669,湖州市,城西水厂,细颗粒物(PM2.5),102,115,108,76,70,112,,53,53,62,71,7,6,0.7,0.7
2024-03-15T1400,2873A,120.0875,30.8955,湖州市,仁皇山新区,细颗粒物(PM2.5),109,114,91,82,62,88,,33,33,69,70,10,8,0.8,0.8
2024-03-15T1400,2907A,120.1844,30.8596,湖州市,吴兴区站,细颗粒物(PM2.5),78,97,95,57,63,180,,66,66,26,77,10,10,0.8,0.9
2024-03-15T1400,3562A,120.4148,30.8538,湖州市,南浔区站,臭氧1小时,64,66,109,42,60,171,,61,61,14,71,11,10,0.5,0.7
2024-03-15T1400,1607A,120.9092,40.7136,葫芦岛市,龙港区,颗粒物(PM10),58,66,156,18,91,117,,77,77,12,38,7,42,0.4,0.9
2024-03-15T1400,1608A,120.8392,40.7514,葫芦岛市,化工街,颗粒物(PM10),65,80,159,29,85,117,,76,76,9,46,14,17,0.2,0.7
2024-03-15T1400,1609A,120.8341,40.7073,葫芦岛市,新区,颗粒物(PM10),58,66,131,21,89,119,,76,76,18,50,19,13,0.4,0.9
2024-03-15T1400,1610A,120.8695,40.7677,葫芦岛市,东城区,颗粒物(PM10),61,71,139,20,93,124,,80,80,16,59,6,16,0.5,1.1
2024-03-15T1400,2482A,109.5981,27.5721,怀化市,林科所,,36,36,31,23,21,57,,61,61,4,4,5,6,0.7,0.7
2024-03-15T1400,2483A,109.9453,27.5444,怀化市,河西地税局,,45,44,45,31,30,49,,54,54,9,12,4,5,0.8,0.7
2024-03-15T1400,2484A,109.9781,27.5342,怀化市,市四医院,,50,50,40,31,32,50,,49,49,10,12,6,7,0.8,0.7
2024-03-15T1400,2485A,109.9972,27.5578,怀化市,监测楼,,48,44,42,33,28,42,,41,41,11,13,8,9,0.8,0.7
2024-03-15T1400,2486A,110.0394,27.583,怀化市,市委党校,,46,37,43,32,29,48,,50,50,9,12,6,13,0.6,0.6
2024-03-15T1400,1210A,119.036,33.5981,淮安市,钵池山,,43,36,49,30,44,88,,52,52,15,35,8,8,0.6,0.7
2024-03-15T1400,1211A,119.007,33.575,淮安市,北京南路,,,36,50,36,46,89,,50,50,,38,6,6,,0.7
2024-03-15T1400,1212A,118.989,33.6067,淮安市,市监测站,,44,44,55,24,41,87,,53,53,18,31,6,7,0.5,0.6
2024-03-15T1400,1213A,119.135,33.5039,淮安市,楚州区监测站,,50,46,46,35,40,98,,57,57,13,32,6,6,0.6,0.6
2024-03-15T1400,1214A,119.0186,33.6297,淮安市,淮阴区监测站,,50,41,61,35,48,83,,49,49,15,34,4,4,0.3,0.4
2024-03-15T1400,3426A,118.8755,33.2894,淮安市,新华书店,,,58,57,33,35,,,54,54,23,40,5,5,0.6,0.7
2024-03-15T1400,2282A,116.8004,33.975,淮北市,监测站,颗粒物(PM10),56,61,60,25,38,129,,97,97,9,15,5,6,0.5,0.6
2024-03-15T1400,2283A,116.8091,33.9007,淮北市,烈山区政府,,46,44,65,32,47,127,,89,89,12,24,5,8,0.3,0.4
2024-03-15T1400,3330A,116.8873,33.9836,淮北市,杜集区检察院,,47,47,66,27,45,132,,100,100,10,17,6,8,0.5,0.6
2024-03-15T1400,4017A,116.7923,33.9535,淮北市,市博物馆,颗粒物(PM10),51,52,58,26,43,126,,93,93,6,13,5,6,0.2,0.3
2024-03-15T1400,2277A,116.8305,32.7727,淮南市,潘集区政府,细颗粒物(PM2.5),79,78,102,58,74,156,,87,87,15,25,6,5,0.5,0.5
2024-03-15T1400,2278A,117.0067,32.6524,淮南市,师范学院,细颗粒物(PM2.5),115,,114,87,80,150,,86,86,15,27,8,10,0.6,0.8
2024-03-15T1400,2279A,116.8569,32.5951,淮南市,谢家集区政府,细颗粒物(PM2.5),94,74,103,70,88,160,,90,90,24,29,7,13,0.8,0.8
2024-03-15T1400,2280A,116.8281,32.633,淮南市,八公山区政府,细颗粒物(PM2.5),97,98,108,72,75,160,,83,83,16,25,8,8,0.8,0.8
2024-03-15T1400,2281A,116.6325,32.6201,淮南市,焦岗湖风景区管理处,"颗粒物(PM10),细颗粒物(PM2.5)",72,94,91,52,47,148,,79,79,19,40,2,3,0.5,0.4
2024-03-15T1400,2894A,117.0566,32.6531,淮南市,经济技术开发区消防队,细颗粒物(PM2.5),77,81,103,56,73,148,,87,87,17,35,6,7,0.7,0.8
2024-03-15T1400,3329A,117.0108,32.5893,淮南市,山南新区,细颗粒物(PM2.5),85,79,102,63,70,164,,94,94,30,33,6,6,0.9,0.8
2024-03-15T1400,2446A,114.9028,30.4742,黄冈市,职工中心,细颗粒物(PM2.5),72,90,94,52,60,133,,90,90,11,19,11,11,0.6,0.6
2024-03-15T1400,2929A,114.8858,30.4519,黄冈市,红卫路,细颗粒物(PM2.5),62,70,80,44,58,134,,91,91,12,23,8,11,0.5,0.5
2024-03-15T1400,3398A,114.9136,30.4445,黄冈市,市林业局,细颗粒物(PM2.5),69,74,84,50,59,135,,89,89,8,22,7,7,0.4,0.5
2024-03-15T1400,2672A,102.0199,35.5102,黄南藏族自治州,同仁县隆务镇,颗粒物(PM10),54,57,50,33,28,105,,71,71,5,5,11,11,0.7,0.7
2024-03-15T1400,2295A,118.2903,29.6963,黄山市,延安路89号,颗粒物(PM10),62,74,77,33,41,125,,56,56,8,14,6,6,0.5,0.6
2024-03-15T1400,2296A,118.327,29.7178,黄山市,黄山东路89号,颗粒物(PM10),53,56,69,30,40,122,,61,61,11,19,6,6,0.5,0.7
2024-03-15T1400,2297A,118.1371,30.2756,黄山市,黄山区政府5号楼,细颗粒物(PM2.5),52,51,45,36,30,117,,58,58,12,12,5,4,0.5,0.5
2024-03-15T1400,2423A,115.0601,30.2313,黄石市,沈家营,颗粒物(PM10),68,85,77,46,45,138,,94,94,16,23,10,11,0.7,0.8
2024-03-15T1400,2424A,115.0817,30.2006,黄石市,陈家湾,,,79,82,56,62,125,,94,94,16,22,,30,0.7,0.7
2024-03-15T1400,2426A,114.8988,30.2019,黄石市,铁山,细颗粒物(PM2.5),78,59,71,57,57,133,,103,103,14,18,8,7,0.6,0.6
2024-03-15T1400,2427A,115.0307,30.2092,黄石市,团城山,颗粒物(PM10),61,71,73,36,45,134,,107,107,14,16,9,9,0.5,0.6
2024-03-15T1400,3149A,115.0235,30.1578,黄石市,笔架山北路,细颗粒物(PM2.5),78,68,77,57,56,143,,104,104,14,16,9,8,0.6,0.6
2024-03-15T1400,1392A,114.4183,23.0528,惠州市,河南岸金山湖子站,,42,42,54,24,33,35,,34,29,18,18,5,6,0.7,0.7
2024-03-15T1400,1393A,114.4053,23.0822,惠州市,下埔横江三路子站,,42,42,55,23,32,44,,41,34,16,20,7,9,0.7,0.6
2024-03-15T1400,1394A,114.4103,23.1142,惠州市,江北云山西路子站,,33,33,49,14,26,44,,34,32,11,17,10,10,0.6,0.6
2024-03-15T1400,1395A,114.4645,22.7833,惠州市,惠阳区承修路船湖子站,颗粒物(PM10),69,88,85,35,37,84,,34,34,25,31,9,9,0.6,0.7
2024-03-15T1400,1396A,114.5317,22.7422,惠州市,大亚湾管委会子站,颗粒物(PM10),62,74,84,33,32,98,,66,66,23,35,9,8,0.9,0.8
2024-03-15T1400,3314A,114.4338,22.8134,惠州市,惠阳秋长,颗粒物(PM10),73,95,89,34,37,61,,37,37,32,32,8,8,0.7,0.7
2024-03-15T1400,3452A,114.6517,22.775,惠州市,大亚湾霞涌,颗粒物(PM10),57,64,63,39,34,100,,70,70,9,15,11,9,0.6,0.6
2024-03-15T1400,2240A,130.9762,45.3001,鸡西市,环保局,颗粒物(PM10),55,60,62,17,37,60,,57,54,8,31,6,8,0.1,0.4
2024-03-15T1400,2243A,130.9429,45.3039,鸡西市,第一中学,,29,22,50,14,31,90,,83,83,7,23,6,10,0.1,0.3
2024-03-15T1400,3707A,131.0207,45.3073,鸡西市,欧美日汽修厂,,32,32,68,21,45,70,,65,65,8,28,3,7,0.1,0.4
2024-03-15T1400,3709A,130.9967,45.3106,鸡西市,市政设施管理处,颗粒物(PM10),54,58,70,17,41,90,,83,83,12,32,5,5,0.4,0.7
2024-03-15T1400,2367A,114.9754,27.0803,吉安市,红声器材厂,,42,42,54,19,30,54,,48,48,17,20,16,10,0.5,0.4
2024-03-15T1400,2368A,114.9658,27.0999,吉安市,市森林工业局,,36,31,49,25,34,54,,48,45,20,23,38,12,0.7,0.7
2024-03-15T1400,2369A,114.99,27.1312,吉安市,市环境监测站,,35,35,49,22,29,54,,49,44,18,23,21,16,0.4,0.4
2024-03-15T1400,2370A,115.0093,27.0968,吉安市,青原区法院,,,,52,,33,48,,43,40,21,24,28,13,0.8,0.8
2024-03-15T1400,1772A,126.54,43.8622,吉林市,哈达湾,,34,17,70,10,42,106,,90,90,8,16,3,6,0.4,0.7
2024-03-15T1400,1773A,126.5844,43.8358,吉林市,东局子,,33,32,70,13,40,103,,88,87,11,20,5,7,0.4,0.7
2024-03-15T1400,1774A,126.5052,43.8245,吉林市,电力学院,,35,25,66,11,39,109,,93,93,6,14,5,9,0.4,0.6
2024-03-15T1400,1775A,126.6133,43.8972,吉林市,江北,,33,29,82,9,41,104,,88,87,12,22,10,14,0.4,0.7
2024-03-15T1400,1776A,126.555,43.8306,吉林市,江南公园,,33,29,69,16,45,105,,90,90,9,14,5,8,0.4,0.7
2024-03-15T1400,1778A,126.7061,43.7133,吉林市,丰满,,,,,,,,,,,,,,,,
2024-03-15T1400,2868A,126.4739,43.953,吉林市,九站,,36,27,68,11,39,113,,94,94,10,18,8,11,0.4,0.6
2024-03-15T1400,1299A,116.9862,36.6114,济南市,科干所,颗粒物(PM10),59,68,66,32,30,162,,136,136,14,14,7,7,0.5,0.5
2024-03-15T1400,1300A,116.9376,36.665,济南市,农科所,颗粒物(PM10),56,61,72,29,33,156,,121,121,14,23,5,6,0.6,0.6
2024-03-15T1400,1301A,117.1265,36.6734,济南市,开发区,,49,44,62,22,29,154,,124,124,12,16,6,7,0.4,0.5
2024-03-15T1400,1303A,117.0624,36.6868,济南市,省种子仓库,颗粒物(PM10),53,56,68,31,32,160,,125,125,9,13,5,5,0.3,0.3
2024-03-15T1400,1304A,116.9489,36.6447,济南市,机床二厂,,,,75,,36,,,123,123,10,16,,7,0.5,0.5
2024-03-15T1400,1305A,117.0495,36.663,济南市,市监测站,颗粒物(PM10),59,68,63,34,29,165,,134,134,15,19,10,10,0.6,0.5
2024-03-15T1400,1306A,116.7675,36.5484,济南市,长清党校,颗粒物(PM10),59,68,72,29,36,162,,132,132,17,24,6,6,0.5,0.5
2024-03-15T1400,1616A,117.6795,36.229,济南市,技术学院,颗粒物(PM10),56,61,82,31,48,151,,91,91,16,32,11,10,0.7,0.9
2024-03-15T1400,1961A,117.532,36.6868,济南市,东山小学,颗粒物(PM10),62,73,70,34,33,161,,131,131,14,21,7,7,0.4,0.4
2024-03-15T1400,3059A,117.7161,36.2049,济南市,泰兴公司,颗粒物(PM10),57,63,109,34,65,150,,85,85,13,53,10,12,0.7,1
2024-03-15T1400,3064A,117.6867,36.2171,济南市,莱芜战役纪念馆,颗粒物(PM10),58,66,96,36,54,139,,81,81,17,34,9,10,0.6,0.8
2024-03-15T1400,3494A,117.1673,36.9782,济南市,济阳区政府,颗粒物(PM10),63,76,79,44,42,153,,109,109,20,26,7,8,0.5,0.5
2024-03-15T1400,3495A,117.1171,36.63,济南市,锦屏中学,,45,44,54,27,29,142,,124,124,8,9,6,7,0.4,0.4
2024-03-15T1400,3682A,116.9814,36.6819,济南市,济南四建,颗粒物(PM10),53,56,60,32,34,157,,122,122,10,15,8,8,0.5,0.5
2024-03-15T1400,1653A,116.6251,35.4302,济宁市,火炬城,,,54,55,29,32,132,,93,93,14,18,,4,0.6,0.7
2024-03-15T1400,1655A,116.5491,35.4042,济宁市,电化厂,颗粒物(PM10),58,66,76,34,35,133,,93,93,10,21,5,5,0.6,0.7
2024-03-15T1400,3500A,116.5814,35.3707,济宁市,北湖一中,颗粒物(PM10),56,61,56,27,38,136,,84,84,9,16,9,8,0.5,0.4
2024-03-15T1400,3501A,116.8249,35.5593,济宁市,服务中心,颗粒物(PM10),64,77,80,28,36,133,,89,89,8,22,4,4,0.6,0.7
2024-03-15T1400,3678A,116.5907,35.4054,济宁市,市第七中学,颗粒物(PM10),57,63,58,31,36,136,,88,88,9,16,4,4,0.6,0.7
2024-03-15T1400,2255A,130.2751,46.8028,佳木斯市,佳纺,,49,38,35,34,28,67,,62,57,26,22,6,7,0.5,0.5
2024-03-15T1400,2256A,130.3995,46.8307,佳木斯市,发电厂,,46,,35,32,30,91,,74,74,14,20,4,4,0.5,0.5
2024-03-15T1400,2257A,130.3258,46.7975,佳木斯市,环保局,细颗粒物(PM2.5),52,38,34,36,26,76,,78,58,22,23,4,5,0.6,0.6
2024-03-15T1400,2258A,130.3648,46.8032,佳木斯市,十一中,,50,37,34,35,28,74,,67,65,21,24,6,7,0.5,0.6
2024-03-15T1400,2259A,130.3794,46.7588,佳木斯市,四丰,,45,45,35,29,20,86,,92,59,19,17,1,1,0.6,0.6
2024-03-15T1400,1252A,120.7436,30.778,嘉兴市,清河小学,颗粒物(PM10),59,67,75,30,37,144,,66,66,21,68,10,8,0.4,0.6
2024-03-15T1400,1253A,120.726,30.7478,嘉兴市,嘉兴学院,颗粒物(PM10),69,87,85,42,41,166,,73,73,20,66,10,8,0.4,0.5
2024-03-15T1400,2872A,120.7846,30.7525,嘉兴市,南湖区残联,,,69,81,38,40,159,,78,78,21,69,11,9,,0.7
2024-03-15T1400,3407A,120.6916,30.7739,嘉兴市,秀洲住建,"颗粒物(PM10),细颗粒物(PM2.5)",58,66,71,41,43,153,,69,69,22,69,10,9,0.7,0.8
2024-03-15T1400,1945A,98.2908,39.7711,嘉峪关市,气象局,颗粒物(PM10),197,344,697,53,129,100,,108,99,10,11,42,10,0.8,0.6
2024-03-15T1400,2884A,98.2672,39.7978,嘉峪关市,酒钢宾馆,颗粒物(PM10),286,410,729,63,128,105,,101,93,6,16,28,38,0.5,0.6
2024-03-15T1400,3248A,98.2643,39.7724,嘉峪关市,雄关区,颗粒物(PM10),139,228,557,29,102,103,,103,98,8,16,12,13,0.4,0.3
2024-03-15T1400,1383A,113.1064,22.6058,江门市,北街,颗粒物(PM10),97,144,85,71,52,68,,23,23,67,72,8,8,0.8,0.9
2024-03-15T1400,1384A,113.0731,22.5835,江门市,西区,颗粒物(PM10),85,119,90,47,46,68,,22,22,52,69,9,8,0.7,0.8
2024-03-15T1400,1385A,113.0219,22.5311,江门市,圭峰西,颗粒物(PM10),93,136,90,56,49,62,,23,23,60,70,7,7,0.8,0.9
2024-03-15T1400,1386A,113.0828,22.5947,江门市,东湖,颗粒物(PM10),96,142,93,70,52,60,,20,20,67,65,9,8,0.7,0.8
2024-03-15T1400,3311A,113.1075,22.5647,江门市,江海富民,颗粒物(PM10),106,161,121,68,59,75,,28,28,47,66,9,7,0.6,0.7
2024-03-15T1400,3449A,113.05,22.4667,江门市,新会银湖,颗粒物(PM10),76,102,81,54,65,69,,27,27,36,55,6,6,0.7,0.8
2024-03-15T1400,1828A,113.227,35.2125,焦作市,市环保局,细颗粒物(PM2.5),72,74,115,52,77,138,,90,90,9,22,5,10,0.6,0.8
2024-03-15T1400,1830A,113.1992,35.2590,焦作市,影视城,,,,,,,,,,,,,,,,
2024-03-15T1400,3169A,113.2725,35.2067,焦作市,太极体育中心,细颗粒物(PM2.5),82,111,129,60,82,142,,94,94,13,24,5,12,0.5,0.6
2024-03-15T1400,3335A,113.3137,35.2641,焦作市,马村街道办,细颗粒物(PM2.5),87,64,130,64,88,139,,93,93,12,30,9,10,0.4,0.6
2024-03-15T1400,3336A,113.2465,35.2373,焦作市,焦作技师学院,,,,122,,81,,,86,86,12,26,,8,0.8,1
2024-03-15T1400,3477A,113.1656,35.2539,焦作市,中站许衡医院,颗粒物(PM10),52,53,108,34,65,143,,110,110,9,19,7,9,0.4,0.6
2024-03-15T1400,3981A,113.2449,35.1803,焦作市,原李万街道办,细颗粒物(PM2.5),70,86,114,51,72,134,,88,88,7,17,8,11,0.3,0.5
2024-03-15T1400,1708A,116.3701,23.5345,揭阳市,新兴,细颗粒物(PM2.5),90,78,101,67,93,96,,56,56,29,43,19,15,0.8,1
2024-03-15T1400,1709A,116.3264,23.5443,揭阳市,西马,细颗粒物(PM2.5),69,58,93,50,85,103,,58,58,22,39,14,14,0.7,0.9
2024-03-15T1400,1710A,116.3611,23.5626,揭阳市,东兴,细颗粒物(PM2.5),72,80,105,52,79,94,,50,50,21,42,15,17,0.9,1
2024-03-15T1400,1711A,116.4151,23.5294,揭阳市,渔湖,颗粒物(PM10),80,109,105,43,45,87,,48,48,25,42,16,14,0.7,0.8
2024-03-15T1400,3320A,116.403,23.5699,揭阳市,曲溪,细颗粒物(PM2.5),63,66,88,45,52,89,,41,41,30,41,19,14,0.9,0.9
2024-03-15T1400,1944A,102.1692,38.5167,金昌市,天庆家园,颗粒物(PM10),276,403,398,66,67,99,,104,100,8,17,5,18,0.2,0.3
2024-03-15T1400,3170A,102.1864,38.5253,金昌市,市委党校,颗粒物(PM10),223,366,480,70,121,101,,106,102,3,8,6,12,0.3,0.4
2024-03-15T1400,4022A,102.1647,38.5371,金昌市,金川区人防中心,颗粒物(PM10),460,560,514,69,77,103,,104,102,7,11,8,13,0.4,0.5
2024-03-15T1400,1262A,119.647,29.077,金华市,十五中,细颗粒物(PM2.5),119,144,149,90,94,41,,26,26,67,71,4,7,0.8,0.9
2024-03-15T1400,1263A,119.686,29.1029,金华市,监测站,细颗粒物(PM2.5),120,130,150,91,98,44,,23,23,59,79,4,7,0.8,0.9
2024-03-15T1400,3659A,119.656,29.1131,金华市,气象局,细颗粒物(PM2.5),94,120,159,70,98,54,,26,26,46,76,4,6,0.6,0.9
2024-03-15T1400,1767A,121.1115,41.0879,锦州市,南山,,45,,120,31,84,124,,91,91,14,49,10,24,0.5,1
2024-03-15T1400,1768A,121.0533,40.8434,锦州市,开发区,颗粒物(PM10),53,56,171,18,107,120,,84,84,11,65,8,23,0.5,1.1
2024-03-15T1400,1769A,121.1836,41.1119,锦州市,百股街道,颗粒物(PM10),51,52,127,29,100,128,,92,92,8,45,1,13,0.4,1
2024-03-15T1400,1770A,121.1178,41.1222,锦州市,天安街道,,36,28,130,10,91,114,,85,85,7,43,8,21,0.4,1.1
2024-03-15T1400,1771A,121.1303,41.1386,锦州市,北湖公园,,45,45,104,13,86,113,,84,84,14,41,11,22,0.4,0.9
2024-03-15T1400,2160A,112.85,35.5051,晋城市,自来水公司,,48,39,96,19,62,151,,94,94,11,27,4,6,0.4,0.8
2024-03-15T1400,2161A,112.8318,35.4936,晋城市,白云商贸,,46,46,108,9,54,146,,86,86,14,33,8,8,0.5,0.9
2024-03-15T1400,2162A,112.8508,35.4887,晋城市,市环保局,,46,44,116,22,58,145,,84,84,13,34,5,6,0.6,0.9
2024-03-15T1400,2163A,112.8676,35.4897,晋城市,技术学院,,45,38,103,14,55,144,,88,88,16,36,3,4,0.4,0.7
2024-03-15T1400,2165A,112.8453,35.546,晋城市,白马寺,,,,,,,,,,,,,,,,
2024-03-15T1400,3620A,112.8271,35.4828,晋城市,泽州一中,,46,46,112,17,70,145,,77,77,12,36,7,9,0.4,0.8
2024-03-15T1400,2171A,112.7532,37.6945,晋中市,锦纶小区,颗粒物(PM10),52,53,104,19,54,147,,93,93,11,37,11,12,0.4,0.6
2024-03-15T1400,2173A,112.7249,37.7067,晋中市,南都小区,,,57,105,35,53,151,,99,99,12,40,,11,0.3,0.6
2024-03-15T1400,2174A,112.6991,37.6982,晋中市,榆次区政府,颗粒物(PM10),53,55,93,33,53,148,,95,95,10,37,8,10,0.3,0.5
2024-03-15T1400,2865A,112.7195,37.6828,晋中市,榆次三中,颗粒物(PM10),63,75,116,27,51,148,,94,94,10,40,12,12,0.4,0.7
2024-03-15T1400,2439A,112.2014,31.0481,荆门市,竹园小学,细颗粒物(PM2.5),89,106,128,66,91,105,,79,55,25,32,13,14,0.8,0.8
2024-03-15T1400,2440A,112.1969,30.9891,荆门市,掇刀,细颗粒物(PM2.5),99,100,133,74,96,96,,82,72,21,22,12,12,0.7,0.7
2024-03-15T1400,2441A,112.2213,31.0386,荆门市,石化一小,细颗粒物(PM2.5),94,103,136,70,87,108,,76,65,27,29,21,18,0.7,0.8
2024-03-15T1400,3012A,112.1849,31.0362,荆门市,西山林语,颗粒物(PM10),73,96,118,52,83,110,,85,79,25,24,13,14,0.6,0.7
2024-03-15T1400,3547A,112.1632,31.0138,荆门市,龙泉中学南校,"颗粒物(PM10),细颗粒物(PM2.5)",75,100,122,55,79,106,,91,82,21,20,10,10,0.7,0.6
2024-03-15T1400,1844A,112.2494,30.3197,荆州市,市图书馆,,,,95,,68,,,62,58,37,32,10,10,0.8,0.8
2024-03-15T1400,1845A,112.2008,30.3544,荆州市,市委党校,细颗粒物(PM2.5),85,92,103,63,73,93,,64,64,40,33,9,8,0.8,0.8
2024-03-15T1400,3194A,112.2747,30.3122,荆州市,管委会,细颗粒物(PM2.5),83,94,90,61,62,83,,61,55,34,28,14,12,0.8,0.8
2024-03-15T1400,3548A,112.1655,30.3364,荆州市,学苑路,细颗粒物(PM2.5),108,87,99,81,94,86,,70,63,34,30,6,7,0.9,0.9
2024-03-15T1400,2342A,117.3102,29.3867,景德镇市,王港中学,,45,45,31,25,18,130,,69,69,4,4,4,5,0.4,0.2
2024-03-15T1400,2343A,117.2117,29.2933,景德镇市,老干部活动中心,,46,44,50,32,34,103,,57,57,9,25,4,5,0.3,0.4
2024-03-15T1400,2344A,117.1894,29.2789,景德镇市,兽医站,,44,44,53,22,28,118,,67,67,4,24,8,10,0.5,0.5
2024-03-15T1400,2345A,117.1547,29.2617,景德镇市,台达陶瓷,,45,45,56,22,28,118,,67,67,8,28,14,12,0.7,0.7
2024-03-15T1400,2346A,117.2461,29.2956,景德镇市,陶研所,,40,36,44,28,32,108,,56,56,10,20,4,5,0.4,0.5
2024-03-15T1400,1803A,115.9872,29.6815,九江市,十里,颗粒物(PM10),73,96,98,42,63,108,,64,64,29,28,15,13,1.4,1.1
2024-03-15T1400,1804A,115.9584,29.7046,九江市,茅山头,细颗粒物(PM2.5),90,84,94,67,62,96,,56,56,39,34,14,13,1.2,1
2024-03-15T1400,1805A,115.9877,29.7295,九江市,西园,细颗粒物(PM2.5),92,90,93,68,71,107,,63,63,26,30,14,11,1.2,1
2024-03-15T1400,1806A,116.0172,29.6547,九江市,五七二七厂,细颗粒物(PM2.5),104,125,107,78,75,90,,56,56,35,28,13,13,1.2,1.1
2024-03-15T1400,1808A,115.9114,29.6038,九江市,综合工业园,细颗粒物(PM2.5),150,,105,115,97,98,,44,44,36,46,16,15,1.3,1.1
2024-03-15T1400,1809A,116.0721,29.7535,九江市,石化总厂,细颗粒物(PM2.5),87,100,114,64,62,100,,53,53,30,37,13,12,1.2,1.1
2024-03-15T1400,1810A,115.9773,29.5698,九江市,庐山气象台,,49,44,44,34,31,106,,104,101,8,8,8,12,0.9,0.8
2024-03-15T1400,3190A,116.0254,29.6994,九江市,外国语学校,细颗粒物(PM2.5),55,58,88,39,58,113,,63,63,19,33,14,14,0.5,1.1
2024-03-15T1400,2658A,98.5061,39.7443,酒泉市,仓门街子站,颗粒物(PM10),169,288,329,43,112,98,,91,85,5,10,5,7,0.2,0.3
2024-03-15T1400,2659A,98.4989,39.7256,酒泉市,油田生活基地,颗粒物(PM10),167,283,538,42,111,104,,94,89,4,10,,9,,0.3
2024-03-15T1400,2698A,76.0072,39.4467,喀什地区,巡警大队,颗粒物(PM10),70,90,92,8,10,95,,94,85,9,14,2,2,0.2,0.3
2024-03-15T1400,2699A,75.9755,39.4694,喀什地区,吾办,颗粒物(PM10),77,104,92,21,15,93,,93,77,12,13,3,3,0.3,0.4
2024-03-15T1400,4027A,75.9483,39.4689,喀什地区,老干局,颗粒物(PM10),84,118,119,14,13,97,,90,81,10,11,1,3,0.3,0.3
2024-03-15T1400,1824A,114.3389,34.7781,开封市,肿瘤医院,细颗粒物(PM2.5),63,55,72,45,64,129,,89,89,8,18,4,4,0.5,0.5
2024-03-15T1400,1826A,114.2885,34.7965,开封市,世纪星幼儿园,细颗粒物(PM2.5),58,,64,41,56,144,,106,106,8,13,7,7,0.3,0.4
2024-03-15T1400,3147A,114.3438,34.8106,开封市,龙亭公园,细颗粒物(PM2.5),57,48,69,40,52,131,,95,95,7,14,6,6,0.5,0.5
2024-03-15T1400,3210A,114.3644,34.7964,开封市,汴京公园,细颗粒物(PM2.5),62,64,75,44,60,138,,95,95,3,12,3,3,0.5,0.5
2024-03-15T1400,3473A,114.2485,34.8306,开封市,技师学院,,49,46,77,34,56,136,,,,4,9,6,8,0.4,0.5
2024-03-15T1400,3592A,114.4644,34.7556,开封市,祥符区生态环境局,细颗粒物(PM2.5),65,71,82,47,57,135,,88,88,12,26,5,4,0.5,0.5
2024-03-15T1400,1951A,84.895,45.6094,克拉玛依市,长征新村,,27,18,16,6,6,86,,82,82,5,13,8,8,0.2,0.3
2024-03-15T1400,1952A,84.8988,45.5893,克拉玛依市,南林小区,,27,,14,13,8,86,,84,84,6,15,8,7,0.5,0.4
2024-03-15T1400,1954A,84.905,44.3396,克拉玛依市,独山子区,,25,18,17,7,4,80,,77,76,1,5,6,6,0.4,0.4
2024-03-15T1400,1955A,85.6979,46.098,克拉玛依市,乌尔禾区商贸楼,颗粒物(PM10),54,58,27,11,9,86,,84,84,7,13,4,6,0.2,0.2
2024-03-15T1400,3612A,85.1045,45.6899,克拉玛依市,白碱滩区新站,,26,11,18,8,12,82,,86,86,9,9,6,7,0.2,0.1
2024-03-15T1400,2697A,76.1454,39.7142,克孜勒苏柯尔克孜自治州,市人民政府,,47,47,93,9,14,103,,102,102,1,5,5,5,0.3,0.3
2024-03-15T1400,3665A,76.1658,39.7157,克孜勒苏柯尔克孜自治州,克州文化中心,,33,33,89,6,12,102,,99,99,1,5,5,6,0.3,0.3
2024-03-15T1400,1450A,102.8204,24.8886,昆明市,呈贡新区,,40,30,51,23,40,127,,113,113,6,13,5,7,0.4,0.5
2024-03-15T1400,1451A,102.6251,24.9608,昆明市,西山森林公园,,45,45,47,29,31,133,,126,125,5,7,10,11,1.1,1.1
2024-03-15T1400,1452A,102.7252,25.0902,昆明市,龙泉镇,,40,29,48,22,32,127,,118,118,9,20,6,6,0.5,0.5
2024-03-15T1400,1453A,102.7266,25.0375,昆明市,东风东路,细颗粒物(PM2.5),52,49,54,36,39,127,,114,114,11,16,6,8,0.4,0.4
2024-03-15T1400,1454A,102.6742,25.0669,昆明市,金鼎山,,45,45,51,18,32,127,,117,117,10,16,5,6,0.6,0.6
2024-03-15T1400,1455A,102.6644,25.0401,昆明市,碧鸡广场,,40,38,56,28,38,128,,117,117,8,20,7,9,0.4,0.5
2024-03-15T1400,3179A,102.7494,25.0119,昆明市,官渡区博物馆,,45,45,58,27,34,125,,112,112,10,15,8,10,0.5,0.6
2024-03-15T1400,3375A,102.8017,24.8336,昆明市,青年创业园,,42,36,53,25,37,134,,126,126,4,7,9,10,0.4,0.5
2024-03-15T1400,3550A,102.7997,24.9786,昆明市,昆明学院,,48,48,56,26,34,117,,107,107,7,10,8,10,0.6,0.5
2024-03-15T1400,3551A,102.5967,24.6736,昆明市,晋宁区生态环境分局,,41,,55,24,35,129,,121,121,4,7,3,5,0.6,0.7
2024-03-15T1400,3552A,102.6678,24.9856,昆明市,云天化总部,,44,42,50,28,33,140,,130,130,6,9,8,9,0.5,0.6
2024-03-15T1400,1456A,91.1319,29.6514,拉萨市,八廓街,,37,26,31,19,15,116,,96,85,10,18,6,6,0.4,0.5
2024-03-15T1400,1457A,91.1221,29.6747,拉萨市,市环保局,,37,10,29,6,15,117,,96,86,7,15,6,7,0.3,0.6
2024-03-15T1400,1458A,91.0874,29.6475,拉萨市,区监测站,,37,6,24,6,11,116,,104,98,6,12,5,5,0.4,0.3
2024-03-15T1400,1459A,91.1774,29.6541,拉萨市,西藏大学,,37,9,28,6,12,116,,97,95,6,11,4,5,0.2,0.4
2024-03-15T1400,1460A,90.9798,29.6588,拉萨市,区辐射站,,37,11,37,9,15,116,,95,82,5,16,4,5,0.3,0.4
2024-03-15T1400,1461A,91.0834,29.6292,拉萨市,拉萨火车站,,36,7,27,6,12,113,,105,101,4,8,3,3,0.3,0.3
2024-03-15T1400,2520A,109.2203,23.7256,来宾市,来宾技工学校,,20,20,16,8,12,32,,44,36,17,14,6,6,0.7,0.8
2024-03-15T1400,3535A,109.1781,23.7297,来宾市,兴宾区政府,,15,15,15,9,11,33,,44,37,18,15,3,3,0.8,0.8
2024-03-15T1400,4002A,109.2416,23.7461,来宾市,中南小学,,13,9,16,9,13,32,,42,34,18,18,6,6,0.7,0.7
2024-03-15T1400,1476A,103.631,36.1031,兰州市,兰炼宾馆,颗粒物(PM10),142,234,87,70,42,106,,47,47,8,39,14,20,0.3,0.6
2024-03-15T1400,1477A,104.1373,35.9454,兰州市,榆中兰大校区,,,,,,,,,,,,,,,,
2024-03-15T1400,1478A,103.8412,36.0726,兰州市,生物制品所,颗粒物(PM10),139,227,86,61,39,108,,48,48,16,39,13,11,0.4,0.6
2024-03-15T1400,1479A,103.831,36.0464,兰州市,铁路设计院,颗粒物(PM10),130,210,74,50,40,107,,48,48,16,40,10,9,0.4,0.7
2024-03-15T1400,3186A,103.7158,36.1058,兰州市,教育港,颗粒物(PM10),147,244,76,46,32,114,,50,50,7,35,12,11,0.3,0.6
2024-03-15T1400,3241A,103.7439,36.0842,兰州市,百合公园,颗粒物(PM10),126,202,82,40,31,107,,45,45,10,35,11,7,0.5,0.7
2024-03-15T1400,3242A,103.9611,35.998,兰州市,和平,颗粒物(PM10),151,251,79,60,33,114,,64,64,10,24,12,9,0.4,0.5
2024-03-15T1400,3245A,103.6633,36.533,兰州新区,新区管委会,颗粒物(PM10),174,298,81,85,34,100,,75,75,5,13,8,10,0.4,0.7
2024-03-15T1400,3246A,103.6975,36.4789,兰州新区,舟曲中学,颗粒物(PM10),276,403,99,87,30,98,,71,71,6,14,6,10,0.4,0.4
2024-03-15T1400,1067A,116.6708,39.5111,廊坊市,药材公司,细颗粒物(PM2.5),123,160,146,93,76,153,,84,84,17,28,10,7,1.0,0.7
2024-03-15T1400,1068A,116.7214,39.5589,廊坊市,开发区,细颗粒物(PM2.5),125,153,128,95,76,152,,88,88,21,28,10,6,0.8,0.6
2024-03-15T1400,1070A,116.7244,39.5269,廊坊市,北华航天学院,细颗粒物(PM2.5),120,158,131,91,72,155,,89,89,14,22,9,6,0.9,0.6
2024-03-15T1400,2919A,116.7022,39.5453,廊坊市,河北工业大学,细颗粒物(PM2.5),125,148,125,95,77,151,,87,87,18,26,9,7,0.9,0.6
2024-03-15T1400,2535A,103.7723,29.5462,乐山市,花湖湾,细颗粒物(PM2.5),74,87,82,54,41,128,,87,87,11,15,5,6,0.4,0.4
2024-03-15T1400,2536A,103.7627,29.5844,乐山市,牛耳桥,细颗粒物(PM2.5),74,65,56,54,44,136,,69,69,14,27,5,6,0.5,0.6
2024-03-15T1400,2537A,103.7508,29.6006,乐山市,市第三水厂,细颗粒物(PM2.5),64,68,53,46,36,144,,77,77,14,25,5,6,0.6,0.6
2024-03-15T1400,2538A,103.7571,29.5664,乐山市,市监测站,细颗粒物(PM2.5),72,65,54,52,37,133,,76,76,12,22,5,7,0.5,0.6
2024-03-15T1400,3361A,103.7311,29.5628,乐山市,理工大学,细颗粒物(PM2.5),80,70,56,59,43,146,,70,70,11,21,6,7,0.5,0.6
2024-03-15T1400,2598A,100.2143,26.8576,丽江市,西南郊,,,,,,,,,,,,,,,,
2024-03-15T1400,2599A,100.2497,26.8802,丽江市,丽江古城,,48,48,46,23,28,115,,104,104,6,9,9,9,0.5,0.5
2024-03-15T1400,2600A,100.2203,26.8906,丽江市,市中心,,36,31,34,16,19,113,,107,107,9,13,2,3,0.7,0.7
2024-03-15T1400,1267A,119.914,28.4514,丽水市,监测站大楼,,23,23,64,14,44,73,,22,22,16,43,3,4,0.6,0.8
2024-03-15T1400,1268A,119.93,28.4586,丽水市,莲都小学,,23,17,77,8,43,72,,23,23,19,42,3,3,0.4,0.6
2024-03-15T1400,1269A,119.879,28.4231,丽水市,余庄前,,,,63,,43,70,,17,17,,27,,4,0.6,0.6
2024-03-15T1400,1173A,119.176,34.5885,连云港市,市环境监测站,,36,36,66,14,46,111,,81,81,20,28,6,8,0.2,0.3
2024-03-15T1400,3000A,119.3581,34.6972,连云港市,德源药业,颗粒物(PM10),58,66,75,31,47,102,,82,82,18,29,9,6,0.7,0.6
2024-03-15T1400,3007A,119.178,34.844,连云港市,新城一中,颗粒物(PM10),54,57,82,26,55,119,,74,74,29,48,11,9,0.7,0.7
2024-03-15T1400,3008A,119.3608,34.7519,连云港市,胡沟管理处,颗粒物(PM10),57,63,69,14,42,78,,67,64,31,30,13,12,0.7,0.6
2024-03-15T1400,3009A,119.1478,34.5911,连云港市,矿山设计院,,39,39,71,22,46,109,,77,77,12,21,3,5,0.5,0.6
2024-03-15T1400,3434A,119.2413,34.6539,连云港市,工贸学校,,39,34,62,23,43,123,,104,104,14,16,8,9,0.5,0.6
2024-03-15T1400,3664A,119.4172,34.7341,连云港市,连云街道,颗粒物(PM10),54,57,83,25,48,86,,87,73,45,32,6,5,0.6,0.6
2024-03-15T1400,2571A,102.3431,27.8099,凉山彝族自治州,青龙寺,,42,27,30,6,5,134,,88,88,5,8,6,7,0.8,0.9
2024-03-15T1400,2572A,102.2721,27.8415,凉山彝族自治州,邛海宾馆,,42,31,28,21,19,132,,82,82,6,13,9,9,0.6,0.7
2024-03-15T1400,2573A,102.2625,27.898,凉山彝族自治州,西昌市政府,,39,36,34,22,20,124,,75,75,6,14,10,12,0.6,0.7
2024-03-15T1400,2574A,102.2685,27.8851,凉山彝族自治州,凉山州政府,,38,33,33,19,20,121,,75,75,6,14,8,9,0.6,0.7
2024-03-15T1400,2575A,102.237,27.8914,凉山彝族自治州,长安,细颗粒物(PM2.5),63,,36,45,24,128,,76,76,9,16,12,12,0.8,0.9
2024-03-15T1400,2212A,123.2,41.1953,辽阳市,宏伟区,颗粒物(PM10),51,51,147,32,91,111,,94,89,17,31,12,20,0.6,1.3
2024-03-15T1400,2213A,123.1683,41.2495,辽阳市,新华园,,48,34,149,33,104,105,,92,87,18,32,15,24,0.7,1.4
2024-03-15T1400,2214A,123.2354,41.2639,辽阳市,滨河路,细颗粒物(PM2.5),52,48,136,36,108,106,,94,84,15,28,9,17,0.6,1.3
2024-03-15T1400,2215A,123.149,41.2991,辽阳市,铁西工业园,,43,43,160,28,112,108,,91,91,18,37,16,25,0.6,1.7
2024-03-15T1400,2227A,125.1358,42.8845,辽源市,环保局,,33,19,55,8,38,104,,92,88,8,16,13,14,0.4,0.8
2024-03-15T1400,3239A,125.0764,42.9078,辽源市,银鹰制药,,32,16,59,6,39,102,,84,83,8,16,5,11,0.4,0.8
2024-03-15T1400,1625A,115.9848,36.4372,聊城市,区政府,颗粒物(PM10),72,94,86,42,41,154,,108,108,6,11,4,5,0.7,0.7
2024-03-15T1400,2878A,116.0072,36.4343,聊城市,聊大东校,颗粒物(PM10),67,83,73,41,45,165,,115,115,9,16,6,8,0.6,0.6
2024-03-15T1400,3200A,115.9819,36.4978,聊城市,监控中心,颗粒物(PM10),75,100,88,46,43,164,,117,117,6,12,6,6,0.6,0.7
2024-03-15T1400,3513A,116.0445,36.4361,聊城市,九州社区,颗粒物(PM10),76,101,90,38,40,161,,108,108,7,12,7,7,0.6,0.6
2024-03-15T1400,4018A,116.0567,36.4608,聊城市,星美广场,颗粒物(PM10),78,106,91,44,41,156,,112,112,9,12,8,11,0.6,0.8
2024-03-15T1400,2632A,94.3681,29.6376,林芝市,林芝监测站,,38,8,12,4,4,120,,116,103,2,3,6,5,0.6,0.6
2024-03-15T1400,2633A,94.3616,29.6616,林芝市,林芝人民医院,,35,11,14,6,8,111,,107,97,5,5,5,5,0.6,0.6
2024-03-15T1400,2603A,100.0781,23.8982,临沧市,市环保局,细颗粒物(PM2.5),69,63,58,50,48,130,,87,87,7,12,6,7,0.4,0.5
2024-03-15T1400,2604A,100.0894,23.8822,临沧市,市气象局,颗粒物(PM10),72,94,65,46,47,122,,82,82,8,13,7,11,0.5,0.2
2024-03-15T1400,1733A,111.5531,36.0783,临汾市,临钢医院,,,70,103,,53,154,,89,89,,26,,8,0.7,0.8
2024-03-15T1400,1734A,111.5028,36.0714,临汾市,技工学校,颗粒物(PM10),63,75,94,36,56,150,,104,104,11,20,8,8,0.6,0.6
2024-03-15T1400,1736A,111.5018,36.0855,临汾市,市委,颗粒物(PM10),64,78,100,35,50,161,,108,108,8,20,6,7,0.6,0.7
2024-03-15T1400,3018A,111.505,36.1014,临汾市,唐尧大酒店,颗粒物(PM10),65,79,99,44,50,154,,103,103,9,21,7,8,0.5,0.6
2024-03-15T1400,3668A,111.5036,36.0414,临汾市,城南,颗粒物(PM10),61,72,95,36,57,158,,100,100,8,25,8,10,0.6,0.6
2024-03-15T1400,2667A,103.2069,35.5993,临夏回族自治州,环保局,颗粒物(PM10),60,69,81,37,46,87,,34,34,2,16,7,7,0.4,0.8
2024-03-15T1400,2668A,103.2417,35.6057,临夏回族自治州,建设大厦,细颗粒物(PM2.5),59,66,72,42,42,89,,35,35,8,17,7,5,0.4,0.6
2024-03-15T1400,1618A,118.3429,35.0532,临沂市,沂河小区,,49,46,86,34,66,121,,89,89,7,27,7,13,0.5,0.6
2024-03-15T1400,1619A,118.295,35.0583,临沂市,鲁南制药厂,,46,46,79,30,55,132,,95,95,10,28,12,12,0.3,0.5
2024-03-15T1400,1620A,118.2794,34.9976,临沂市,新光毛纺厂,细颗粒物(PM2.5),52,48,82,36,59,122,,79,79,17,40,17,12,0.7,0.9
2024-03-15T1400,1621A,118.3956,35.0888,临沂市,河东保险公司,,48,48,90,28,62,125,,85,85,13,38,5,10,0.4,0.6
2024-03-15T1400,3370A,118.3564,35.0215,临沂市,十里堡居委,,39,34,78,22,51,124,,92,92,16,33,7,11,0.5,0.7
2024-03-15T1400,3496A,118.3604,35.1084,临沂市,南坊新区,,48,48,79,24,55,131,,92,92,9,28,7,11,0.4,0.6
2024-03-15T1400,3860A,118.3920,35.0300,临沂市,皇山花园小区,,,41,85,32,61,124,,96,96,7,38,,13,,0.9
2024-03-15T1400,1870A,109.4856,24.3895,柳州市,柳东小学,,20,19,17,14,15,52,,55,54,9,9,6,6,0.5,0.5
2024-03-15T1400,1871A,109.4157,24.3277,柳州市,环保监测站,,24,24,20,14,13,48,,54,52,15,14,6,6,0.7,0.6
2024-03-15T1400,1872A,109.389,24.341,柳州市,河西水厂,,21,21,20,13,14,48,,50,49,12,12,3,4,0.7,0.8
2024-03-15T1400,1873A,109.4311,24.2921,柳州市,市四中,,29,29,22,12,14,43,,48,46,20,16,5,5,0.7,0.7
2024-03-15T1400,1874A,109.4006,24.3631,柳州市,市九中,,22,21,24,15,16,50,,48,48,13,16,7,6,0.6,0.6
2024-03-15T1400,1875A,109.4958,24.3134,柳州市,古亭山,,19,19,17,11,12,42,,55,49,18,12,6,6,0.8,0.8
2024-03-15T1400,3402A,109.5422,24.3996,柳州市,市二中,,17,17,18,8,12,50,,53,52,16,14,6,6,0.8,0.7
2024-03-15T1400,2307A,116.5079,31.737,六安市,监测大楼,细颗粒物(PM2.5),89,94,91,66,81,140,,72,72,26,35,7,6,0.8,0.8
2024-03-15T1400,2308A,116.4738,31.7643,六安市,皖西学院,细颗粒物(PM2.5),97,87,98,72,81,144,,79,79,19,31,6,6,0.8,0.8
2024-03-15T1400,2309A,116.4996,31.7905,六安市,朝阳厂,细颗粒物(PM2.5),104,83,94,78,88,136,,71,71,20,36,7,6,0.7,0.8
2024-03-15T1400,2310A,116.5567,31.7886,六安市,开发区,细颗粒物(PM2.5),72,92,97,52,64,135,,68,68,23,40,14,9,0.8,0.8
2024-03-15T1400,2576A,104.8,26.5892,六盘水市,窑上,,,,,,,,,,,,,,,,
2024-03-15T1400,2577A,104.83,26.5917,六盘水市,黄土坡,,49,41,36,34,33,105,,75,75,11,15,10,8,0.9,0.9
2024-03-15T1400,2578A,104.89,26.5939,六盘水市,水钢,细颗粒物(PM2.5),58,47,40,41,34,105,,78,78,8,10,8,7,0.7,0.7
2024-03-15T1400,2579A,104.8475,26.5894,六盘水市,民中,,49,43,36,34,29,105,,76,76,10,13,9,7,0.8,0.9
2024-03-15T1400,2580A,104.9544,26.5506,六盘水市,双水,细颗粒物(PM2.5),53,48,41,37,30,106,,76,76,8,12,8,6,0.8,0.8
2024-03-15T1400,2335A,117.0189,25.1181,龙岩市,龙岩师专,,,,,,,,,,,,,,,,
2024-03-15T1400,2336A,117.0217,25.1033,龙岩市,龙岩市监测站,,48,,29,33,30,29,,33,25,32,26,12,11,0.9,0.7
2024-03-15T1400,2337A,117.0258,25.0661,龙岩市,闽西职业技术学院,,28,22,30,19,31,26,,30,25,30,25,6,6,0.9,0.8
2024-03-15T1400,2338A,117.0196,25.0306,龙岩市,龙岩学院,,26,,28,18,31,23,,28,24,22,24,6,5,0.8,0.7
2024-03-15T1400,2665A,105.0822,33.3261,陇南市,汉王镇固水子,,,,,,,,,,,,,,,,
2024-03-15T1400,2885A,104.9339,33.3826,陇南市,滨江中学,,41,41,43,9,16,115,,113,113,2,3,5,5,0.8,0.8
2024-03-15T1400,3247A,104.955,33.371,陇南市,市总工会,,34,30,34,9,10,108,,113,107,6,7,6,6,0.5,0.7
2024-03-15T1400,2487A,111.9589,27.8901,娄底市,电视发射台,细颗粒物(PM2.5),52,52,41,36,28,55,,51,51,13,10,5,5,0.6,0.4
2024-03-15T1400,2488A,111.9975,27.725,娄底市,市监测站,细颗粒物(PM2.5),55,50,52,39,40,51,,34,34,19,25,6,5,0.6,0.6
2024-03-15T1400,2489A,112.0194,27.7314,娄底市,市委党校,细颗粒物(PM2.5),54,45,45,38,36,42,,30,30,18,21,7,6,0.4,0.4
2024-03-15T1400,2490A,111.9561,27.7569,娄底市,涟钢,,39,31,44,27,34,41,,31,31,28,25,10,9,0.7,0.7
2024-03-15T1400,2491A,111.9892,27.7044,娄底市,市政府,细颗粒物(PM2.5),59,50,56,42,37,48,,31,31,14,14,6,5,0.7,0.6
2024-03-15T1400,1893A,105.4324,28.9634,泸州市,九狮山,,49,49,89,33,62,95,,43,43,14,23,9,10,0.5,0.6
2024-03-15T1400,1894A,105.4427,28.9063,泸州市,小市上码头,颗粒物(PM10),53,56,99,35,76,91,,44,44,11,24,11,17,0.5,0.7
2024-03-15T1400,1895A,105.4241,28.8573,泸州市,兰田宪桥,颗粒物(PM10),52,54,99,35,79,96,,36,36,10,25,9,11,0.4,0.6
2024-03-15T1400,1896A,105.4379,28.8833,泸州市,市环监站,细颗粒物(PM2.5),58,48,88,41,81,87,,38,38,8,23,10,17,0.4,0.5
2024-03-15T1400,3490A,105.3617,28.7703,泸州市,纳溪区环保局,细颗粒物(PM2.5),52,52,82,36,65,92,,33,33,7,32,5,5,0.6,0.8
2024-03-15T1400,2183A,111.1406,37.5211,吕梁市,环保局,细颗粒物(PM2.5),73,74,99,53,42,141,,82,82,18,49,8,4,0.4,0.4
2024-03-15T1400,2185A,111.1297,37.5136,吕梁市,自来水公司,细颗粒物(PM2.5),64,73,100,46,44,143,,80,80,15,42,11,9,0.5,0.6
2024-03-15T1400,2867A,111.1283,37.51,吕梁市,马茂庄小学,颗粒物(PM10),65,79,115,45,44,140,,84,84,23,54,6,5,0.5,0.6
2024-03-15T1400,1812A,112.3931,34.6516,洛阳市,市委党校,细颗粒物(PM2.5),85,82,92,63,64,131,,72,72,20,30,6,7,0.4,0.5
2024-03-15T1400,1814A,112.4657,34.6871,洛阳市,豫西宾馆,颗粒物(PM10),73,95,106,45,56,140,,86,86,12,20,9,8,0.1,0.2
2024-03-15T1400,1815A,112.494,34.6886,洛阳市,河南林校,细颗粒物(PM2.5),94,73,87,70,69,137,,78,78,14,24,10,8,0.3,0.4
2024-03-15T1400,1816A,112.3844,34.623,洛阳市,开发区管委会,细颗粒物(PM2.5),88,99,100,65,64,140,,84,84,12,16,5,6,0.6,0.6
2024-03-15T1400,1817A,112.4267,34.6258,洛阳市,市委新办公区,细颗粒物(PM2.5),73,84,102,53,57,126,,76,76,16,22,6,7,0.4,0.4
2024-03-15T1400,3340A,112.6005,34.6326,洛阳市,伊滨,颗粒物(PM10),69,87,100,43,61,140,,78,78,14,23,6,6,0.6,0.7
2024-03-15T1400,3341A,112.4951,34.6332,洛阳市,中移产业园,细颗粒物(PM2.5),78,74,86,57,65,139,,77,77,15,22,7,7,0.4,0.5
2024-03-15T1400,3593A,112.5736,34.8993,洛阳市,吉利监测站,细颗粒物(PM2.5),74,84,102,54,67,138,,76,76,17,45,10,9,0.6,0.8
2024-03-15T1400,3635A,112.3677,34.662,洛阳市,河科大西苑校区,细颗粒物(PM2.5),80,85,91,59,58,132,,72,72,17,29,4,6,0.4,0.4
2024-03-15T1400,3636A,112.4388,34.6781,洛阳市,英才小学,颗粒物(PM10),68,86,98,46,53,134,,82,82,15,22,6,6,0.5,0.6
2024-03-15T1400,2399A,114.051,33.5699,漯河市,三五一五工厂,细颗粒物(PM2.5),118,,87,89,79,140,,97,97,9,19,11,10,0.6,0.4
2024-03-15T1400,2400A,114.0055,33.5698,漯河市,漯河大学,细颗粒物(PM2.5),89,90,93,66,70,140,,100,100,14,16,8,6,0.6,0.6
2024-03-15T1400,2401A,114.0138,33.5828,漯河市,市水利局,细颗粒物(PM2.5),85,78,86,63,70,140,,101,101,13,17,7,6,0.7,0.6
2024-03-15T1400,2402A,114.0261,33.5698,漯河市,市广电局,细颗粒物(PM2.5),95,81,85,71,69,140,,94,94,8,14,4,3,0.7,0.6
2024-03-15T1400,3478A,113.9749,33.5664,漯河市,市图书馆,细颗粒物(PM2.5),94,93,95,70,70,145,,106,106,12,17,12,12,0.6,0.5
2024-03-15T1400,3479A,114.0967,33.5906,漯河市,召陵区卫健委,颗粒物(PM10),73,95,97,50,63,143,,95,95,10,17,5,5,0.7,0.6
2024-03-15T1400,1798A,118.5092,31.6837,马鞍山市,湖东路四小,,,,99,74,68,105,,53,53,,46,,7,0.8,0.9
2024-03-15T1400,1799A,118.5024,31.6449,马鞍山市,开发区,细颗粒物(PM2.5),117,96,101,88,89,113,,54,54,37,51,6,7,0.7,0.9
2024-03-15T1400,1800A,118.5228,31.7231,马鞍山市,慈湖,细颗粒物(PM2.5),110,84,87,83,83,110,,56,56,36,47,9,9,0.8,0.9
2024-03-15T1400,1802A,118.6245,31.7241,马鞍山市,濮塘,细颗粒物(PM2.5),92,99,93,68,53,94,,46,46,36,41,6,6,1.0,0.9
2024-03-15T1400,3633A,118.4918,31.6809,马鞍山市,雨山,细颗粒物(PM2.5),113,102,99,85,69,106,,60,60,37,47,8,10,0.8,0.8
2024-03-15T1400,1686A,111.0286,21.4688,茂名市,电白南海,颗粒物(PM10),64,78,67,39,34,97,,75,75,18,17,7,8,0.6,0.6
2024-03-15T1400,1687A,110.9294,21.6533,茂名市,茂石化七小,细颗粒物(PM2.5),67,68,48,48,34,77,,75,75,18,16,8,11,0.7,0.7
2024-03-15T1400,1688A,110.9107,21.6687,茂名市,健康路,"颗粒物(PM10),细颗粒物(PM2.5)",58,66,42,41,29,76,,75,75,18,15,10,11,0.7,0.6
2024-03-15T1400,1689A,110.8592,21.6828,茂名市,高岭,"颗粒物(PM10),细颗粒物(PM2.5)",58,66,50,41,35,84,,76,76,17,30,12,19,0.9,0.9
2024-03-15T1400,3450A,111.01,21.5165,茂名市,电白水东,,48,48,48,29,29,102,,81,81,10,14,6,8,0.6,0.5
2024-03-15T1400,2539A,104.0308,30.0478,眉山市,黑龙滩水库,,50,46,41,35,29,144,,89,89,5,9,6,5,0.4,0.6
2024-03-15T1400,2540A,103.8416,30.0874,眉山市,气象局,细颗粒物(PM2.5),55,55,50,39,30,136,,84,84,14,24,8,11,0.5,0.5
2024-03-15T1400,3137A,103.8578,30.0744,眉山市,市委党校,,48,48,46,31,33,132,,84,84,14,26,8,10,0.5,0.5
2024-03-15T1400,3148A,103.8291,30.0564,眉山市,区人社局,细颗粒物(PM2.5),55,53,46,39,35,133,,85,85,18,32,9,13,0.5,0.5
2024-03-15T1400,1690A,116.1231,24.3284,梅州市,梅江月梅,,23,23,37,16,28,49,,33,33,16,32,10,12,0.6,0.7
2024-03-15T1400,1691A,116.0797,24.2719,梅州市,梅县新城,,39,39,36,23,31,62,,32,32,17,25,6,6,0.7,0.7
2024-03-15T1400,1692A,116.1248,24.2654,梅州市,环境监控中心,,35,35,38,19,28,59,,38,38,13,24,6,7,0.6,0.7
2024-03-15T1400,3315A,116.1233,24.2991,梅州市,梅龙,,22,17,33,15,28,55,,36,36,10,23,7,8,0.7,0.7
2024-03-15T1400,1878A,104.7778,31.4741,绵阳市,富乐山,细颗粒物(PM2.5),57,44,52,40,40,105,,43,43,14,17,9,7,0.7,0.7
2024-03-15T1400,1879A,104.7563,31.4535,绵阳市,市人大,,,55,59,27,40,,,47,38,20,28,7,5,0.5,0.6
2024-03-15T1400,1880A,104.6697,31.4668,绵阳市,高新区自来水公司,细颗粒物(PM2.5),63,70,59,45,39,105,,47,42,18,25,9,8,0.6,0.6
2024-03-15T1400,1881A,104.7287,31.5075,绵阳市,三水厂,细颗粒物(PM2.5),62,64,54,44,46,100,,31,28,14,27,10,9,0.8,0.9
2024-03-15T1400,3491A,104.69,31.5322,绵阳市,西科大附属小学,细颗粒物(PM2.5),62,56,51,44,38,95,,33,33,17,27,9,7,0.7,0.8
2024-03-15T1400,3492A,104.5648,31.5343,绵阳市,安州区旅游局,,49,,44,34,39,105,,56,56,11,21,5,6,0.6,0.7
2024-03-15T1400,1784A,129.61,44.561,牡丹江市,环保大楼,,35,30,51,24,26,101,,92,92,6,24,5,8,0.3,0.5
2024-03-15T1400,1785A,129.6115,44.5782,牡丹江市,文化广场,,39,39,53,23,33,88,,83,83,10,28,8,12,0.4,0.7
2024-03-15T1400,1786A,129.5904,44.5963,牡丹江市,第一医院,,42,32,54,29,38,93,,85,85,6,23,7,10,0.4,0.7
2024-03-15T1400,1787A,129.6364,44.6075,牡丹江市,机车工厂,,31,30,54,18,37,97,,85,85,4,20,7,13,0.3,0.5
2024-03-15T1400,1788A,129.6386,44.5462,牡丹江市,第一中学,,35,25,38,24,25,95,,87,87,7,20,8,9,0.4,0.5
2024-03-15T1400,2531A,105.0703,29.61,内江市,市监测站,细颗粒物(PM2.5),104,,80,78,75,87,,48,38,27,37,14,10,0.5,0.6
2024-03-15T1400,2532A,105.0717,29.5947,内江市,东兴区政府,细颗粒物(PM2.5),79,61,82,58,63,87,,54,40,18,28,14,12,0.5,0.5
2024-03-15T1400,2533A,105.0653,29.5817,内江市,内江二中,细颗粒物(PM2.5),95,,78,71,72,92,,41,37,18,31,10,8,0.8,0.8
2024-03-15T1400,2534A,105.0406,29.5822,内江市,内江日报社,细颗粒物(PM2.5),97,,72,72,65,88,,38,37,22,43,14,12,0.8,0.8
2024-03-15T1400,2628A,92.0657,31.4846,那曲市,那曲监测站,,34,28,40,9,18,106,,73,73,5,9,6,7,0.6,0.9
2024-03-15T1400,3128A,92.0506,31.4797,那曲市,那曲会议中心,,36,36,69,7,25,107,,72,70,2,11,6,8,0.2,0.5
2024-03-15T1400,1290A,115.8931,28.6843,南昌市,省外办,细颗粒物(PM2.5),79,77,80,58,50,90,,52,52,8,31,12,8,0.8,0.7
2024-03-15T1400,1291A,115.8886,28.7003,南昌市,省林业公司,细颗粒物(PM2.5),70,70,74,51,44,83,,40,40,25,40,11,8,0.6,0.5
2024-03-15T1400,1292A,115.8126,28.7442,南昌市,林科所,细颗粒物(PM2.5),67,73,58,48,29,94,,64,64,19,32,12,10,0.5,0.5
2024-03-15T1400,1294A,115.8518,28.687,南昌市,建工学校,颗粒物(PM10),65,79,79,35,37,75,,43,43,19,36,10,8,0.7,0.6
2024-03-15T1400,1295A,115.8921,28.6424,南昌市,象湖,"颗粒物(PM10),细颗粒物(PM2.5)",62,74,80,44,40,87,,50,50,16,34,15,9,1.3,0.8
2024-03-15T1400,1296A,115.7423,28.7996,南昌市,武术学校,细颗粒物(PM2.5),60,45,30,43,29,103,,58,58,11,8,13,10,0.5,0.3
2024-03-15T1400,1298A,115.9314,28.6842,南昌市,省站,细颗粒物(PM2.5),70,68,90,51,49,96,,49,49,8,31,15,11,0.7,0.7
2024-03-15T1400,3046A,115.9084,28.6062,南昌市,机电学校,细颗粒物(PM2.5),67,72,79,48,41,61,,38,38,36,35,14,10,0.6,0.6
2024-03-15T1400,3690A,115.9721,28.7031,南昌市,外国语学校,颗粒物(PM10),60,70,74,41,40,96,,56,56,10,30,11,6,0.5,0.5
2024-03-15T1400,1905A,106.056,30.8064,南充市,西山风景区,细颗粒物(PM2.5),68,55,46,49,43,73,,79,57,22,20,8,11,0.8,0.7
2024-03-15T1400,1906A,106.0789,30.8023,南充市,南充市委,颗粒物(PM10),59,67,65,36,30,82,,34,34,19,41,9,8,0.6,0.7
2024-03-15T1400,1907A,106.1031,30.8217,南充市,南充炼油厂,细颗粒物(PM2.5),73,65,67,53,46,83,,39,39,18,33,8,9,0.4,0.5
2024-03-15T1400,1908A,106.1064,30.7856,南充市,高坪区监测站,细颗粒物(PM2.5),70,81,64,51,42,76,,33,33,21,41,9,10,0.3,0.4
2024-03-15T1400,1909A,106.0642,30.7636,南充市,嘉陵区环保局,细颗粒物(PM2.5),70,68,65,51,40,77,,33,33,21,47,25,9,0.5,0.7
2024-03-15T1400,1910A,106.1087,30.8388,南充市,市环境监测站,细颗粒物(PM2.5),69,84,67,50,42,91,,49,46,19,28,8,9,0.5,0.5
2024-03-15T1400,1151A,118.8086,32.1065,南京市,迈皋桥,细颗粒物(PM2.5),70,74,105,51,66,120,,49,49,25,69,3,6,0.7,0.8
2024-03-15T1400,1152A,118.7538,32.0551,南京市,草场门,细颗粒物(PM2.5),77,73,88,56,61,125,,57,57,23,56,1,3,0.8,0.9
2024-03-15T1400,1153A,118.7794,32.0745,南京市,山西路,细颗粒物(PM2.5),89,75,103,66,75,131,,55,55,24,61,4,4,0.7,0.8
2024-03-15T1400,1154A,118.7752,32.0023,南京市,中华门,细颗粒物(PM2.5),89,97,92,66,63,120,,54,54,35,60,6,6,1.0,1
2024-03-15T1400,1155A,118.8109,32.0309,南京市,瑞金路,,,,98,,60,120,,49,49,20,52,7,10,,0.7
2024-03-15T1400,1156A,118.7997,32.0754,南京市,玄武湖,颗粒物(PM10),75,100,114,54,68,121,,48,48,27,54,8,10,0.6,0.7
2024-03-15T1400,1157A,118.6414,32.0931,南京市,浦口,颗粒物(PM10),85,120,124,59,67,112,,43,43,35,73,5,7,0.9,0.9
2024-03-15T1400,1158A,118.7356,31.9996,南京市,奥体中心,细颗粒物(PM2.5),79,94,100,58,61,124,,57,57,25,52,7,9,0.8,0.8
2024-03-15T1400,1159A,118.9125,32.1028,南京市,仙林大学城,细颗粒物(PM2.5),85,78,97,63,69,114,,49,49,21,62,7,8,1.1,1
2024-03-15T1400,3422A,118.8436,31.9198,南京市,江宁彩虹桥,,,,102,,58,105,,47,47,30,53,,5,0.8,0.5
2024-03-15T1400,3423A,119.0138,31.6494,南京市,溧水永阳,颗粒物(PM10),74,97,91,52,67,124,,46,46,35,52,4,4,0.9,1
2024-03-15T1400,3424A,118.879,31.3302,南京市,高淳老职中,细颗粒物(PM2.5),98,107,103,73,66,97,,50,50,44,54,8,9,0.7,1
2024-03-15T1400,3427A,118.8554,32.3578,南京市,六合雄州,细颗粒物(PM2.5),139,,89,106,81,117,,47,47,30,41,8,7,1.0,0.9
2024-03-15T1400,1401A,108.3103,22.7881,南宁市,二十一中,,23,23,17,7,12,22,,31,20,23,24,3,4,0.9,0.8
2024-03-15T1400,1402A,108.3141,22.8528,南宁市,北湖,,20,17,19,14,18,18,,16,14,29,31,5,9,1.0,0.9
2024-03-15T1400,1403A,108.3206,22.8225,南宁市,市监测站,,30,30,20,12,15,20,,28,19,28,31,5,6,0.9,0.8
2024-03-15T1400,1404A,108.3829,22.8037,南宁市,大自然花园,,21,21,14,10,8,20,,31,20,25,21,4,4,0.8,0.7
2024-03-15T1400,1405A,108.4394,22.7904,南宁市,仙葫,,,21,15,11,10,26,,32,23,,,6,7,0.6,0.5
2024-03-15T1400,1406A,108.2397,22.8467,南宁市,区农职院,,26,26,18,9,11,18,,19,11,34,32,5,5,0.8,0.7
2024-03-15T1400,1407A,108.3275,22.735,南宁市,英华嘉园,,23,23,14,12,11,23,,31,21,22,23,5,5,0.8,0.6
2024-03-15T1400,1408A,108.2257,22.7757,南宁市,沙井镇街道办,,,28,20,13,15,17,,10,8,28,39,6,5,,0.8
2024-03-15T1400,3401A,108.4834,22.7618,南宁市,红星社区,,20,20,14,12,12,16,,31,19,21,15,6,6,0.9,0.8
2024-03-15T1400,2331A,118.0966,26.6761,南平市,茫荡山,,,,,,,,,,,,,,,,
2024-03-15T1400,2332A,118.1681,26.6369,南平市,南平市监测站,,38,29,38,26,36,26,,37,24,32,22,7,6,1.2,0.8
2024-03-15T1400,2333A,118.1825,26.6489,南平市,南平铝业有限公司,,33,33,33,22,38,30,,32,23,24,21,7,6,0.8,0.8
2024-03-15T1400,2334A,118.1756,26.6272,南平市,南平七中,,,26,34,20,29,33,,35,25,,22,4,4,1.0,0.9
2024-03-15T1400,1168A,120.9098,31.9663,南通市,狼山街道,颗粒物(PM10),53,56,46,31,32,114,,91,91,28,22,11,9,0.7,0.6
2024-03-15T1400,1169A,120.86,32.0005,南通市,虹桥,细颗粒物(PM2.5),59,59,51,42,37,106,,85,85,29,25,7,5,0.7,0.5
2024-03-15T1400,1170A,120.87,32.02,南通市,城中,颗粒物(PM10),61,71,60,34,33,104,,85,85,35,28,7,5,0.6,0.8
2024-03-15T1400,1171A,120.94,31.93,南通市,星湖花园,颗粒物(PM10),52,54,45,29,27,93,,76,76,33,28,8,6,0.6,0.6
2024-03-15T1400,1172A,120.81,32.0417,南通市,紫琅学院,颗粒物(PM10),53,56,48,35,27,111,,84,84,35,31,9,7,0.8,0.6
2024-03-15T1400,3291A,121.067,32.062,南通市,通州监测站,,39,39,47,22,29,121,,86,86,6,17,8,7,0.4,0.6
2024-03-15T1400,3432A,120.9348,31.9883,南通市,环境教育馆,颗粒物(PM10),52,53,48,32,34,108,,84,84,32,26,9,7,0.6,0.4
2024-03-15T1400,2404A,112.5224,33.0122,南阳市,瓦房庄,颗粒物(PM10),53,56,66,28,42,113,,104,104,19,15,4,4,0.5,0.5
2024-03-15T1400,2405A,112.5003,32.9735,南阳市,汉画馆,颗粒物(PM10),51,52,61,34,43,116,,106,106,20,20,6,6,0.4,0.5
2024-03-15T1400,2406A,112.5573,33.027,南阳市,气象站,颗粒物(PM10),53,55,64,36,43,119,,107,107,19,20,5,5,0.5,0.5
2024-03-15T1400,2407A,112.5481,32.9689,南阳市,理工学院,,49,49,62,34,42,120,,107,107,12,15,7,7,0.6,0.6
2024-03-15T1400,4008A,112.5234,32.9922,南阳市,卧龙区政府,颗粒物(PM10),55,59,65,34,42,112,,100,100,20,20,5,5,0.5,0.6
2024-03-15T1400,1234A,121.8358,29.911,宁波市,区环保大楼,,,60,83,22,32,104,,46,46,13,83,,13,0.7,0.8
2024-03-15T1400,1235A,121.56,29.82,宁波市,万里学院,,36,36,83,18,44,101,,55,55,18,60,8,11,0.5,0.6
2024-03-15T1400,1236A,121.713,29.9572,宁波市,龙赛医院,颗粒物(PM10),52,54,78,20,28,115,,46,46,15,82,5,10,0.4,0.5
2024-03-15T1400,1239A,121.633,29.7733,宁波市,钱湖水厂,,39,30,52,21,32,122,,80,80,7,29,6,8,0.5,0.6
2024-03-15T1400,1240A,121.5856,29.8635,宁波市,太古小学,,45,45,77,20,43,93,,45,45,16,68,8,11,0.7,0.8
2024-03-15T1400,1241A,121.524,29.8674,宁波市,市环境监测中心,,32,32,84,20,38,102,,55,55,22,71,7,10,0.5,0.7
2024-03-15T1400,2871A,121.6147,29.9017,宁波市,万里国际学校,,43,43,79,16,48,127,,57,57,15,77,8,12,0.6,0.8
2024-03-15T1400,3710A,121.5594,29.8975,宁波市,白沙活动中心,,37,37,94,24,44,99,,47,47,21,71,8,11,0.4,0.8
2024-03-15T1400,2339A,119.5001,26.6946,宁德市,金涵水库,,,,,,,,,,,,,,,,
2024-03-15T1400,2341A,119.5388,26.6612,宁德市,宁德市监测站,,46,34,37,32,44,29,,18,18,38,37,6,6,0.6,0.7
2024-03-15T1400,3209A,119.5231,26.6562,宁德市,宁德一中,,40,,37,28,37,47,,32,25,28,22,6,6,0.8,0.7
2024-03-15T1400,2618A,98.8601,25.8567,怒江傈僳族自治州,州监测站,细颗粒物(PM2.5),55,50,64,39,48,105,,67,66,9,9,8,8,0.5,0.5
2024-03-15T1400,2619A,98.8546,25.8417,怒江傈僳族自治州,泸水一中,细颗粒物(PM2.5),62,59,59,44,48,93,,56,47,17,18,7,7,0.4,0.5
2024-03-15T1400,1888A,101.6891,26.571,攀枝花市,弄弄坪,细颗粒物(PM2.5),62,,52,44,42,122,,96,94,14,24,18,27,1.0,1.5
2024-03-15T1400,1889A,101.5769,26.5928,攀枝花市,河门口,,41,41,51,17,34,122,,87,83,9,16,6,9,0.4,0.5
2024-03-15T1400,1890A,101.7169,26.585,攀枝花市,炳草岗,,40,38,49,22,29,128,,82,74,11,24,15,13,0.9,0.8
2024-03-15T1400,1891A,101.7369,26.5008,攀枝花市,仁和,,,,49,24,31,128,,98,98,7,14,5,6,0.6,0.7
2024-03-15T1400,2835A,101.7227,26.567,攀枝花市,四十中小,,41,40,45,26,27,131,,102,89,12,20,11,10,0.7,0.6
2024-03-15T1400,1604A,122.0303,41.1489,盘锦市,开发区,颗粒物(PM10),56,62,133,28,115,136,,92,92,13,29,6,8,0.7,1
2024-03-15T1400,1605A,122.0485,41.0883,盘锦市,兴隆台,颗粒物(PM10),52,53,129,34,105,136,,92,92,16,30,10,9,0.6,0.9
2024-03-15T1400,1606A,121.8297,41.1028,盘锦市,新生街道,颗粒物(PM10),58,66,108,27,106,124,,85,85,20,31,8,7,0.6,0.8
2024-03-15T1400,1832A,113.3257,33.742,平顶山市,新华旅馆,颗粒物(PM10),72,93,97,46,51,142,,109,109,15,23,8,9,0.6,0.6
2024-03-15T1400,1833A,113.2919,33.737,平顶山市,规划设计院,细颗粒物(PM2.5),84,87,91,62,61,130,,100,100,11,17,7,6,0.8,0.7
2024-03-15T1400,1834A,113.182,33.774,平顶山市,平顶山工学院,细颗粒物(PM2.5),77,75,88,56,54,133,,106,106,5,10,6,7,0.6,0.6
2024-03-15T1400,3204A,113.3025,33.73,平顶山市,规划局,细颗粒物(PM2.5),89,85,90,66,67,136,,108,108,8,16,8,8,1.0,1
2024-03-15T1400,3594A,112.8867,33.9116,平顶山市,石龙区,细颗粒物(PM2.5),84,83,102,62,65,145,,87,87,14,24,8,7,0.6,0.6
2024-03-15T1400,2656A,106.6692,35.5461,平凉市,聚贤嘉苑,颗粒物(PM10),74,97,99,38,45,88,,108,68,32,29,17,13,0.7,0.7
2024-03-15T1400,2657A,106.7021,35.5307,平凉市,博物馆,颗粒物(PM10),78,105,98,50,50,76,,99,67,45,37,17,10,0.6,0.5
2024-03-15T1400,2347A,114.0997,27.5002,萍乡市,武功山,,12,12,22,1,13,32,,26,26,12,11,4,4,0.6,0.6
2024-03-15T1400,2348A,113.8385,27.6434,萍乡市,中医院,,21,21,48,14,35,52,,41,40,21,20,4,7,0.7,0.7
2024-03-15T1400,2349A,113.8493,27.6253,萍乡市,市政府车库,,24,24,51,15,34,48,,37,37,19,21,5,8,0.8,1
2024-03-15T1400,2350A,113.8676,27.6435,萍乡市,市环保局,,23,16,48,16,33,46,,38,38,20,19,8,9,0.7,0.6
2024-03-15T1400,2351A,113.866,27.6198,萍乡市,安源区政府,,17,17,47,10,31,40,,30,30,26,25,5,6,1.2,0.8
2024-03-15T1400,2319A,119.0141,25.4325,莆田市,荔城区仓后路,,32,,42,22,30,51,,50,38,23,24,4,4,0.5,0.5
2024-03-15T1400,2320A,119.0015,25.4553,莆田市,莆田市监测站,,20,17,26,14,15,55,,58,52,24,14,5,5,0.7,0.6
2024-03-15T1400,2321A,119.1119,25.4561,莆田市,涵江区六中,,,,37,24,24,55,,51,36,,30,5,4,0.9,0.8
2024-03-15T1400,2322A,119.1013,25.3215,莆田市,秀屿区政府,,35,,38,24,32,62,,58,53,20,24,9,7,0.9,0.8
2024-03-15T1400,2323A,118.981,25.4792,莆田市,东圳水库,,,,,,,,,,,,,,,,
2024-03-15T1400,2392A,115.0312,35.7636,濮阳市,环保局,细颗粒物(PM2.5),53,51,67,37,51,148,,107,107,8,14,7,8,0.4,0.5
2024-03-15T1400,2394A,115.0574,35.7609,濮阳市,油田运输公司,颗粒物(PM10),60,70,87,37,54,158,,104,104,11,16,10,10,0.4,0.5
2024-03-15T1400,2395A,115.0866,35.7754,濮阳市,油田物探公司,"颗粒物(PM10),细颗粒物(PM2.5)",62,73,83,44,53,153,,100,100,9,16,8,8,0.3,0.4
2024-03-15T1400,3021A,115,35.7668,濮阳市,濮水河管理处,,48,39,71,33,52,133,,90,90,8,14,7,7,0.3,0.4
2024-03-15T1400,2601A,100.98,22.7633,普洱市,市环保局,颗粒物(PM10),60,70,79,41,53,132,,91,91,9,16,8,7,0.3,0.4
2024-03-15T1400,2602A,100.9817,22.8322,普洱市,普洱第二中学,,,61,68,,48,130,,70,70,7,34,,6,0.6,0.8
2024-03-15T1400,2262A,131.0518,45.8751,七台河市,新一中,,32,15,36,12,29,102,,98,98,8,18,8,13,0.9,1
2024-03-15T1400,3345A,131.0577,45.7879,七台河市,中波台,,29,17,37,15,30,90,,83,83,16,25,7,7,0.5,0.7
2024-03-15T1400,3637A,131.0176,45.7761,七台河市,人民广场,,29,23,47,19,35,90,,87,82,14,32,8,9,0.6,0.8
2024-03-15T1400,3684A,130.8781,45.8222,七台河市,新建矿广场,,38,,30,26,33,91,,83,83,14,26,9,13,0.5,0.7
2024-03-15T1400,1779A,123.9305,47.3636,齐齐哈尔市,安居小区,,29,16,61,4,32,91,,85,85,4,14,4,8,0.2,0.4
2024-03-15T1400,1780A,123.9488,47.3386,齐齐哈尔市,中心广场,,26,22,63,2,35,82,,78,78,7,12,4,7,0.2,0.3
2024-03-15T1400,1781A,123.9483,47.3227,齐齐哈尔市,农牧车辆厂,,27,24,66,2,32,84,,78,78,3,11,6,8,0.3,0.4
2024-03-15T1400,1783A,123.945,47.2988,齐齐哈尔市,市环境监测站,,28,23,65,7,36,88,,82,82,4,11,2,4,0.2,0.3
2024-03-15T1400,3662A,123.6333,47.2075,齐齐哈尔市,富区青少年活动中心,,31,31,89,10,47,90,,82,82,7,18,5,10,0.3,0.6
2024-03-15T1400,2591A,107.9783,26.5747,黔东南苗族侗族自治州,市环境监测站,,35,34,23,24,16,32,,55,33,25,14,5,5,0.8,0.7
2024-03-15T1400,2881A,107.8908,26.5311,黔东南苗族侗族自治州,凯里学院,,20,17,18,14,14,36,,52,37,12,12,3,4,0.7,0.7
2024-03-15T1400,2593A,107.5228,26.2403,黔南布依族苗族自治州,小围寨,,16,9,9,5,7,49,,52,45,9,8,5,4,0.4,0.5
2024-03-15T1400,3538A,107.5175,26.2978,黔南布依族苗族自治州,沙坝,,15,7,13,2,8,45,,55,44,6,6,4,4,0.5,0.4
2024-03-15T1400,2589A,104.9022,25.0925,黔西南布依族苗族自治州,场坝街,,32,32,24,14,16,88,,54,54,7,9,2,2,0.5,0.6
2024-03-15T1400,2590A,104.8811,25.0992,黔西南布依族苗族自治州,坪东大道,,31,31,26,16,18,85,,54,54,8,10,2,2,0.5,0.5
2024-03-15T1400,2502A,108.6236,21.9667,钦州市,市环保站,颗粒物(PM10),63,75,28,31,14,8,,15,6,33,26,8,10,1.4,1.7
2024-03-15T1400,2503A,108.6549,21.9481,钦州市,沙埠小学,颗粒物(PM10),64,78,25,40,15,8,,24,11,36,20,6,6,1.7,0.9
2024-03-15T1400,2504A,108.5989,21.7431,钦州市,港区一小,颗粒物(PM10),73,95,31,35,16,93,,29,29,12,26,8,7,0.7,1
2024-03-15T1400,3404A,108.5959,21.9633,钦州市,北职校,,,70,18,29,14,13,,20,11,17,15,,7,1.1,1.1
2024-03-15T1400,1042A,119.5134,39.8207,秦皇岛市,北戴河环保局,"颗粒物(PM10),细颗粒物(PM2.5)",58,65,127,41,80,108,,80,80,24,44,8,11,0.2,0.7
2024-03-15T1400,1043A,119.7493,40.0116,秦皇岛市,第一关,颗粒物(PM10),53,55,156,21,89,104,,82,82,16,53,7,14,0.2,0.9
2024-03-15T1400,1044A,119.5897,39.9499,秦皇岛市,监测站,颗粒物(PM10),57,63,145,28,80,101,,91,91,20,42,6,13,0.3,0.9
2024-03-15T1400,1046A,119.5251,39.9041,秦皇岛市,建设大厦,颗粒物(PM10),58,66,134,22,65,102,,89,89,14,35,1,9,0.1,0.8
2024-03-15T1400,3132A,119.610547,39.943889,秦皇岛市,文明里,颗粒物(PM10),77,104,151,23,65,104,,87,87,27,52,4,10,0.3,0.8
2024-03-15T1400,1307A,120.6659,36.2403,青岛市,仰口,颗粒物(PM10),68,85,79,41,52,137,,107,100,20,18,5,5,0.4,0.4
2024-03-15T1400,1310A,120.4134,36.0658,青岛市,市南区东部子站,"颗粒物(PM10),细颗粒物(PM2.5)",62,73,82,44,51,100,,60,55,18,34,11,9,0.8,0.7
2024-03-15T1400,1311A,120.3664,36.1032,青岛市,四方区子站,细颗粒物(PM2.5),70,80,85,51,62,115,,70,70,27,39,9,9,1.2,1
2024-03-15T1400,1312A,120.2994,36.054,青岛市,市南区西部子站,细颗粒物(PM2.5),64,63,68,46,52,90,,65,53,28,38,8,7,0.8,0.8
2024-03-15T1400,1313A,120.4581,36.0858,青岛市,崂山区子站,细颗粒物(PM2.5),64,75,82,46,51,90,,53,52,26,37,9,8,0.5,0.6
2024-03-15T1400,1314A,120.1983,35.9608,青岛市,黄岛区子站,细颗粒物(PM2.5),62,61,79,44,58,115,,64,63,28,35,9,9,0.8,0.9
2024-03-15T1400,1315A,120.3999,36.3083,青岛市,城阳区子站,颗粒物(PM10),65,80,87,29,42,127,,80,80,21,34,10,10,0.8,0.9
2024-03-15T1400,1966A,120.0405,35.8735,青岛市,黄岛区4号,,46,46,73,29,53,121,,63,58,24,50,6,10,0.7,0.9
2024-03-15T1400,3362A,120.5014,36.4034,青岛市,即墨2号,细颗粒物(PM2.5),78,97,101,57,62,143,,103,103,27,35,8,9,0.6,0.8
2024-03-15T1400,3642A,120.3503,36.0736,青岛市,市北区南部,颗粒物(PM10),73,96,86,41,50,110,,68,66,24,32,8,8,1.0,1.1
2024-03-15T1400,3643A,120.3948,36.1805,青岛市,李沧区北部,颗粒物(PM10),63,75,94,36,61,137,,82,82,26,43,10,11,0.8,1
2024-03-15T1400,1702A,113.0426,23.691,清远市,环保大楼,,30,29,17,21,12,23,,32,19,16,14,3,4,0.9,0.9
2024-03-15T1400,1703A,113.0208,23.7106,清远市,凤城街办,,,47,24,28,17,9,,23,11,38,29,,2,0.9,0.8
2024-03-15T1400,3025A,113.0477,23.6344,清远市,技师学院,,35,35,25,16,14,31,,22,22,16,25,3,3,0.9,0.8
2024-03-15T1400,3318A,112.9903,23.7403,清远市,清新太和,,47,47,31,26,20,10,,11,7,34,36,8,6,0.9,0.9
2024-03-15T1400,3455A,113.076,23.7198,清远市,清城东城,,22,22,20,15,14,31,,28,21,14,19,4,4,0.9,0.9
2024-03-15T1400,2661A,107.6325,35.7357,庆阳市,庆阳五中,颗粒物(PM10),63,76,79,40,37,100,,116,98,19,15,9,8,0.5,0.4
