timepoint,stationcode,longitude,latitude,area,positionname,primarypollutant,aqi,pm10,pm10_24h,pm2_5,pm2_5_24h,o3,o3_24h,o3_8h,o3_8h_24h,no2,no2_24h,so2,so2_24h,co,co_24h
2024-07-08T2000,2566A,102.1879,31.914,阿坝藏族羌族自治州,州农科所,,22,22,25,8,9,32,,48,48,12,15,5,5,0.2,0.2
2024-07-08T2000,2568A,102.2502,31.8896,阿坝藏族羌族自治州,马师校,,21,21,13,12,12,23,,52,52,13,14,5,5,0.2,0.2
2024-07-08T2000,3994A,102.2165,31.9024,阿坝藏族羌族自治州,马尔康中学西区,,25,25,19,16,12,30,,55,55,6,8,6,6,0.4,0.3
2024-07-08T2000,2695A,80.292,41.1694,阿克苏地区,电视台,,39,29,28,11,11,124,,139,138,9,12,6,5,0.2,0.2
2024-07-08T2000,2696A,80.2613,41.1551,阿克苏地区,艺术中心,,38,27,35,13,16,120,,134,134,8,11,4,4,0.3,0.3
2024-07-08T2000,2204A,105.6467,38.8363,阿拉善盟,西城区西花园,,45,33,35,22,22,143,,148,148,16,15,8,8,0.4,0.5
2024-07-08T2000,2205A,105.6985,38.8411,阿拉善盟,蒙二幼,,43,25,32,16,19,136,,138,138,11,10,12,12,0.7,0.6
2024-07-08T2000,2206A,105.724,38.8516,阿拉善盟,环保局新楼,,42,27,35,17,18,134,,139,138,10,8,11,12,0.6,0.6
2024-07-08T2000,2708A,88.1264,47.8517,阿勒泰地区,市站,,37,17,12,3,5,118,,119,119,7,8,6,6,0.5,0.4
2024-07-08T2000,2630A,80.1161,32.5,阿里地区,阿里监测站,,38,13,7,3,3,121,,113,112,3,3,9,8,0.4,0.4
2024-07-08T2000,3192A,80.0903,32.5028,阿里地区,阿里藏医院,,40,18,9,3,3,125,,119,118,3,3,8,8,0.4,0.4
2024-07-08T2000,2642A,109.0318,32.6537,安康市,香溪洞,,17,17,17,7,10,45,,42,42,5,7,5,6,0.6,0.7
2024-07-08T2000,2643A,109.0281,32.6939,安康市,安康市监测站,,27,27,24,11,12,34,,39,39,10,8,6,6,0.7,0.5
2024-07-08T2000,2644A,109.0072,32.6975,安康市,汉滨区检察院,,24,24,24,12,12,44,,43,43,9,9,6,6,0.6,0.5
2024-07-08T2000,2291A,117.0809,30.5177,安庆市,环科院,,23,17,18,11,10,73,,93,92,21,17,5,5,0.4,0.4
2024-07-08T2000,2292A,117.0331,30.5119,安庆市,马山宾馆,,23,18,18,16,11,73,,94,92,21,22,7,8,0.4,0.4
2024-07-08T2000,2294A,116.9896,30.6145,安庆市,安庆大学,,43,43,25,14,12,83,,97,95,14,13,8,8,0.4,0.4
2024-07-08T2000,3173A,117.0598,30.5351,安庆市,市人大,,26,19,17,12,10,82,,96,95,8,11,7,8,0.3,0.3
2024-07-08T2000,3122A,105.9606,26.2611,安顺市,伍家关,,,,,,,,,,,,,,,,
2024-07-08T2000,3123A,105.9408,26.2431,安顺市,凤凰山,,21,13,15,11,12,65,,70,70,4,4,8,8,0.6,0.3
2024-07-08T2000,3124A,105.9439,26.2564,安顺市,金钟山,,22,10,12,10,9,70,,73,73,4,3,4,4,0.5,0.4
2024-07-08T2000,3125A,105.8983,26.2481,安顺市,娄家坡,,27,27,19,11,9,66,,70,70,4,2,4,5,0.4,0.4
2024-07-08T2000,1818A,114.4839,36.0621,安阳市,棉研所,,,,,,,,,,,,,,,,
2024-07-08T2000,1819A,114.3551,36.1017,安阳市,红庙街,,,,23,,15,80,,103,101,,4,,3,0.6,0.4
2024-07-08T2000,1820A,114.361,36.0681,安阳市,银杏小区,,,32,20,,18,83,,99,97,5,3,3,3,0.8,0.6
2024-07-08T2000,3141A,114.3922,36.0878,安阳市,信访局,,27,22,22,14,13,86,,102,101,2,4,2,2,0.8,0.6
2024-07-08T2000,3669A,114.4705,36.0637,安阳市,左辅环卫站,,28,16,18,12,17,87,,100,100,2,4,3,3,0.6,0.5
2024-07-08T2000,3703A,114.2917,36.0949,安阳市,安钢职工学校,,42,33,25,29,22,74,,97,94,3,6,2,2,0.6,0.6
2024-07-08T2000,1748A,123.044,41.1196,鞍山市,深沟寺,细颗粒物(PM2.5),54,53,50,38,30,71,,78,78,24,23,4,4,0.8,0.7
2024-07-08T2000,1749A,123.011,41.0931,鞍山市,太阳城,,50,49,42,35,29,72,,78,78,20,18,5,6,0.8,0.7
2024-07-08T2000,1750A,123.0485,41.1442,鞍山市,太平,细颗粒物(PM2.5),55,58,55,39,34,78,,90,90,26,29,3,4,1.2,0.9
2024-07-08T2000,1751A,122.9642,41.0971,鞍山市,铁西三道街,细颗粒物(PM2.5),72,69,49,52,38,56,,78,75,49,32,12,6,3.5,1.5
2024-07-08T2000,1752A,122.9341,41.0833,鞍山市,铁西工业园区,细颗粒物(PM2.5),63,51,49,45,37,80,,77,77,27,33,7,5,1.4,1.5
2024-07-08T2000,1753A,123.022,41.0821,鞍山市,明达新区,细颗粒物(PM2.5),54,47,41,38,29,69,,81,81,19,21,4,5,0.8,0.8
2024-07-08T2000,1754A,123.1289,41.0228,鞍山市,千山,,,,,,,,,,,,,,,,
2024-07-08T2000,2195A,107.4212,40.761,巴彦淖尔市,附二中,,43,39,44,16,24,136,,152,150,12,14,2,6,0.6,0.7
2024-07-08T2000,2196A,107.37,40.7372,巴彦淖尔市,市环保大楼,颗粒物(PM10),52,53,61,14,17,122,,144,140,8,16,5,6,0.5,0.6
2024-07-08T2000,1956A,86.1472,41.7538,巴音郭楞蒙古自治州,孔雀公园,颗粒物(PM10),62,74,61,26,18,104,,113,113,7,19,3,4,0.2,0.3
2024-07-08T2000,1957A,86.1972,41.7166,巴音郭楞蒙古自治州,棉纺厂,颗粒物(PM10),61,71,69,27,22,112,,115,115,9,18,4,5,0.2,0.3
2024-07-08T2000,1958A,86.2357,41.7173,巴音郭楞蒙古自治州,经济开发区,颗粒物(PM10),57,64,62,28,25,116,,118,118,6,6,3,3,0.2,0.3
2024-07-08T2000,2914A,106.7677,31.8794,巴中市,苏山坪,,13,12,12,8,8,40,,39,38,4,5,2,3,0.4,0.4
2024-07-08T2000,3182A,106.7656,31.8545,巴中市,丽阳花园,,20,19,16,14,10,15,,29,27,20,14,5,6,0.7,0.6
2024-07-08T2000,3183A,106.7418,31.8654,巴中市,圣泉水务公司,,18,15,12,12,10,22,,27,27,22,13,4,4,0.7,0.5
2024-07-08T2000,3616A,106.7616,31.8344,巴中市,市中心医院,,29,29,21,15,11,19,,36,34,23,14,6,6,0.7,0.5
2024-07-08T2000,2235A,122.7911,45.6077,白城市,洮北区环保局,细颗粒物(PM2.5),54,51,54,38,48,105,,124,124,18,15,10,6,0.4,0.5
2024-07-08T2000,2236A,122.8738,45.5725,白城市,市环保局,细颗粒物(PM2.5),70,63,64,51,53,101,,115,112,12,11,2,3,0.4,0.5
2024-07-08T2000,2231A,126.4219,41.9171,白山市,喜丰,,48,48,33,30,17,73,,87,80,5,8,8,9,1.2,1.3
2024-07-08T2000,2232A,126.4077,41.9419,白山市,环保局,颗粒物(PM10),55,60,38,35,20,58,,86,78,8,9,9,9,1.1,1.1
2024-07-08T2000,2647A,104.1724,36.5446,白银市,第三小学,,34,20,29,11,20,107,,98,98,15,16,21,17,0.9,0.7
2024-07-08T2000,2648A,104.1465,36.5482,白银市,动力公司,,36,13,22,8,17,114,,106,106,7,11,6,9,0.4,0.5
2024-07-08T2000,2512A,106.6103,23.9011,百色市,市监测站,,38,38,30,15,14,59,,81,78,12,12,11,15,0.7,0.8
2024-07-08T2000,2513A,106.6538,23.8859,百色市,市中心血站,,45,45,32,11,14,58,,75,73,12,11,9,13,0.7,0.7
2024-07-08T2000,3406A,106.6085,23.8798,百色市,祈福高中,,39,39,34,16,25,57,,81,77,11,12,14,18,0.9,0.9
2024-07-08T2000,2270A,117.396,32.939,蚌埠市,工人疗养院,,32,29,31,12,10,101,,104,103,1,3,8,9,0.3,0.4
2024-07-08T2000,2271A,117.3605,32.9427,蚌埠市,百货大楼,,38,38,31,11,12,102,,105,104,2,4,5,6,0.2,0.2
2024-07-08T2000,2273A,117.4185,32.8911,蚌埠市,蚌埠学院,,34,29,25,13,11,107,,102,102,4,5,6,8,0.4,0.5
2024-07-08T2000,2274A,117.3533,32.9673,蚌埠市,淮上区政府,,36,29,27,18,13,114,,108,108,7,5,6,7,0.4,0.4
2024-07-08T2000,2275A,117.3145,32.8977,蚌埠市,高新区,,36,36,29,15,11,110,,104,104,4,8,6,7,0.4,0.4
2024-07-08T2000,3715A,117.3092,32.9314,蚌埠市,蚌埠田家炳中学,,34,34,30,19,12,108,,102,102,1,5,7,8,0.4,0.3
2024-07-08T2000,1585A,109.8756,40.6532,包头市,市环境监测站,,44,44,35,28,14,126,,152,151,31,37,7,16,0.5,0.5
2024-07-08T2000,1587A,109.9991,40.5842,包头市,包头八中,,47,47,45,30,24,144,,155,155,18,32,9,17,0.5,0.8
2024-07-08T2000,1588A,109.8538,40.6821,包头市,青山宾馆,细颗粒物(PM2.5),90,,30,67,17,139,,159,159,18,30,8,12,0.6,0.6
2024-07-08T2000,1589A,109.8642,40.6288,包头市,惠龙物流,,48,42,37,33,18,145,,159,159,17,36,10,19,0.6,0.5
2024-07-08T2000,1590A,110.0377,40.5546,包头市,东河鸿龙湾,,42,42,40,26,20,123,,152,151,15,31,7,9,0.9,1
2024-07-08T2000,3283A,109.9154,40.5685,包头市,滨河大厦,,45,41,39,31,20,137,,155,155,13,44,9,15,0.7,0.7
2024-07-08T2000,3419A,109.9447,40.6261,包头市,包头市委党校,,46,,39,31,17,147,,160,160,22,35,5,16,0.4,0.5
2024-07-08T2000,3683A,109.8331,40.6576,包头市,昆区政府,细颗粒物(PM2.5),54,,32,38,21,147,,159,159,16,28,6,15,0.8,0.8
2024-07-08T2000,1930A,107.185,34.3063,宝鸡市,庙沟村,,21,21,9,8,5,47,,75,66,10,4,8,8,0.4,0.4
2024-07-08T2000,1931A,107.0708,34.3017,宝鸡市,竹园沟,,21,14,9,8,6,66,,71,70,10,9,8,9,0.6,0.6
2024-07-08T2000,1932A,107.1906,34.3672,宝鸡市,三陆医院,,33,33,15,23,10,49,,74,69,26,19,7,7,0.7,0.6
2024-07-08T2000,1933A,107.1431,34.3547,宝鸡市,监测站,,24,24,12,13,8,68,,73,69,15,13,8,8,0.5,0.5
2024-07-08T2000,1934A,107.1186,34.3739,宝鸡市,技工学校,,29,29,13,16,8,51,,80,75,15,13,7,7,0.7,0.6
2024-07-08T2000,1935A,107.3906,34.3528,宝鸡市,陈仓区环保局家属楼,,29,27,15,20,17,48,,81,77,34,13,6,6,0.5,0.4
2024-07-08T2000,1936A,107.2058,34.3497,宝鸡市,文理学院,,37,37,14,13,6,58,,78,74,26,15,8,8,0.7,0.6
2024-07-08T2000,1937A,107.2386,34.3622,宝鸡市,三迪小学,,,39,14,19,8,49,,74,70,31,14,,7,0.7,0.5
2024-07-08T2000,1051A,115.493,38.8632,保定市,游泳馆,臭氧1小时,70,40,40,14,19,176,,162,162,2,6,5,6,0.1,0.1
2024-07-08T2000,1052A,115.5213,38.8959,保定市,华电二区,臭氧1小时,90,40,40,22,18,192,,179,179,6,8,6,6,0.4,0.5
2024-07-08T2000,1053A,115.4713,38.9108,保定市,接待中心,臭氧1小时,75,32,40,22,17,180,,167,167,1,8,3,3,0.4,0.4
2024-07-08T2000,1054A,115.4612,38.8416,保定市,地表水厂,臭氧1小时,68,54,59,27,29,174,,168,168,5,12,3,2,0.7,0.7
2024-07-08T2000,3581A,115.31981,38.95208,保定市,满城区生态环境分局,臭氧1小时,58,36,38,14,15,166,,166,166,3,11,2,2,0.3,0.3
2024-07-08T2000,3582A,115.47694,38.76408,保定市,清苑区第二中学,臭氧1小时,64,46,60,24,26,171,,172,172,8,19,3,3,0.5,0.5
2024-07-08T2000,3583A,115.62909,39.02311,保定市,徐水物探局,臭氧1小时,55,31,36,9,13,164,,169,169,11,15,3,4,0.3,0.3
2024-07-08T2000,4004A,115.4202,38.8656,保定市,双鹰农机,臭氧1小时,79,31,36,18,17,183,,174,174,6,13,5,5,0.3,0.3
2024-07-08T2000,4034A,115.5150,38.8590,保定市,植保所站,臭氧1小时,83,40,37,22,21,186,,184,184,8,8,2,3,0.2,0.3
2024-07-08T2000,2594A,99.1678,25.1081,保山市,市环境监测站,,28,,16,19,11,37,,35,35,4,6,6,6,0.4,0.4
2024-07-08T2000,2595A,99.1711,25.1328,保山市,市环保局,,22,22,19,3,6,39,,38,38,3,4,4,4,0.5,0.5
2024-07-08T2000,1866A,109.2262,21.588,北海市,牛尾岭水库,,,,,,,,,,,,,,,,
2024-07-08T2000,1867A,109.1436,21.4086,北海市,海滩公园,颗粒物(PM10),65,80,23,3,2,53,,56,52,4,4,3,3,0.6,0.6
2024-07-08T2000,1868A,109.0981,21.4661,北海市,新市环保局,,19,19,16,3,5,49,,54,51,4,4,4,4,0.4,0.5
2024-07-08T2000,1869A,109.1778,21.5233,北海市,北海工业园,,14,9,13,3,8,43,,55,52,6,6,4,4,0.4,0.4
2024-07-08T2000,3400A,109.1911,21.4415,北海市,龙潭自来水厂,,15,14,12,3,6,48,,53,51,5,4,5,5,0.4,0.5
2024-07-08T2000,1001A,116.3621,39.8784,北京市,万寿西宫,,46,39,30,32,23,107,,138,134,22,15,3,3,0.6,0.6
2024-07-08T2000,1002A,116.2202,40.2915,北京市,定陵,颗粒物(PM10),52,54,30,3,11,74,,104,100,8,8,3,3,0.7,0.6
2024-07-08T2000,1003A,116.4174,39.9289,北京市,东四,,48,48,30,32,20,115,,138,133,20,15,3,4,0.6,0.6
2024-07-08T2000,1004A,116.4072,39.8863,北京市,天坛,,40,35,29,28,21,89,,142,135,27,15,3,3,0.6,0.6
2024-07-08T2000,1005A,116.462,39.9365,北京市,农展馆,,46,43,29,32,19,95,,127,120,23,14,3,3,0.5,0.5
2024-07-08T2000,1006A,116.3392,39.9295,北京市,官园,细颗粒物(PM2.5),53,47,32,37,21,105,,137,128,24,15,4,4,0.6,0.4
2024-07-08T2000,1007A,116.2878,39.9611,北京市,海淀万柳,,46,46,30,30,19,96,,134,126,24,14,5,5,0.5,0.4
2024-07-08T2000,1008A,116.6636,40.135,北京市,顺义新城,细颗粒物(PM2.5),54,43,24,38,18,86,,121,114,9,6,3,3,0.5,0.5
2024-07-08T2000,1009A,116.6275,40.3275,北京市,怀柔镇,细颗粒物(PM2.5),57,49,30,40,22,83,,117,110,3,2,1,1,0.4,0.3
2024-07-08T2000,1010A,116.2296,40.217,北京市,昌平镇,颗粒物(PM10),51,51,32,34,21,60,,102,86,12,16,3,2,0.6,0.5
2024-07-08T2000,1011A,116.3966,39.9821,北京市,奥体中心,,50,48,30,35,20,101,,116,111,20,20,3,2,0.5,0.5
2024-07-08T2000,1012A,116.184,39.9136,北京市,古城,,40,40,30,28,18,106,,136,131,19,16,1,1,0.5,0.5
2024-07-08T2000,3281A,115.9718,40.4529,北京市,延庆夏都,,50,47,28,35,19,71,,100,96,12,8,3,3,0.5,0.4
2024-07-08T2000,3417A,117.0709,40.1465,北京市,平谷新城,细颗粒物(PM2.5),58,47,30,41,22,40,,95,82,9,8,3,3,0.6,0.5
2024-07-08T2000,3418A,116.8336,40.4095,北京市,密云新城,颗粒物(PM10),51,52,33,33,19,106,,117,116,7,5,3,3,0.5,0.5
2024-07-08T2000,3671A,116.088,39.9726,北京市,门头沟三家店,,,,,,,,,,,,,,,,
2024-07-08T2000,3672A,116.1541,39.8204,北京市,丰台云岗,,46,46,33,31,20,82,,125,117,24,13,1,2,0.5,0.5
2024-07-08T2000,3673A,116.6804,39.9081,北京市,通州东关,细颗粒物(PM2.5),58,55,31,41,23,108,,134,131,15,9,3,3,0.5,0.5
2024-07-08T2000,3674A,115.9577,39.7603,北京市,房山燕山,颗粒物(PM10),52,54,34,29,18,127,,133,133,11,9,3,2,0.5,0.4
2024-07-08T2000,3675A,116.4672,39.7733,北京市,大兴旧宫,,45,34,26,31,18,130,,138,138,8,12,3,3,0.5,0.6
2024-07-08T2000,3694A,115.986,40.4563,北京市,延庆石河营,细颗粒物(PM2.5),52,46,27,36,20,61,,96,89,10,9,3,3,0.5,0.4
2024-07-08T2000,3695A,116.6151,40.3053,北京市,怀柔新城,细颗粒物(PM2.5),57,51,29,40,22,92,,113,109,3,4,1,1,0.6,0.6
2024-07-08T2000,3696A,116.2545,39.8768,北京市,丰台小屯,,41,41,29,28,18,96,,126,118,14,10,3,3,0.5,0.5
2024-07-08T2000,3697A,116.84,40.3844,北京市,密云镇,"颗粒物(PM10),细颗粒物(PM2.5)",55,59,33,39,21,101,,107,107,14,6,3,3,0.5,0.5
2024-07-08T2000,1761A,123.8275,41.3064,本溪市,大峪,,49,49,40,22,18,78,,95,95,19,13,9,9,0.8,0.8
2024-07-08T2000,1762A,123.7567,41.3325,本溪市,溪湖,,37,37,37,23,21,85,,97,97,15,14,6,5,0.8,0.9
2024-07-08T2000,1763A,123.7169,41.3094,本溪市,彩屯,,40,35,36,28,27,87,,92,92,19,21,6,6,0.8,0.9
2024-07-08T2000,1764A,123.7669,41.2864,本溪市,东明,,40,38,40,28,23,95,,98,98,25,20,7,7,0.9,0.8
2024-07-08T2000,1765A,123.7992,41.2664,本溪市,新立屯,,31,31,30,16,16,84,,96,96,12,13,4,4,0.8,0.8
2024-07-08T2000,1766A,123.8142,41.3472,本溪市,威宁,,42,40,34,29,26,72,,89,89,28,21,8,8,0.9,0.9
2024-07-08T2000,2587A,105.2864,27.3125,毕节市,八中,,24,23,23,16,13,74,,81,81,14,10,7,6,0.5,0.4
2024-07-08T2000,2588A,105.31,27.2944,毕节市,师专,,24,20,19,13,13,76,,76,76,11,10,5,5,0.5,0.5
2024-07-08T2000,3537A,105.3631,27.3533,毕节市,长征村,,27,27,18,18,12,79,,87,87,10,7,8,8,0.4,0.4
2024-07-08T2000,1629A,118.0018,37.3617,滨州市,第二水厂,,40,29,29,22,15,125,,146,142,9,14,1,3,0.5,0.5
2024-07-08T2000,1630A,117.9776,37.393,滨州市,北中新校,,,27,31,19,12,129,,150,144,7,13,1,3,,0.5
2024-07-08T2000,3514A,117.9378,37.3956,滨州市,中海酒店,,44,24,31,17,17,138,,159,153,9,16,3,6,0.3,0.5
2024-07-08T2000,3515A,117.9378,37.3553,滨州市,开发区一中,,40,31,33,17,17,125,,146,140,9,18,4,7,0.7,0.7
2024-07-08T2000,3516A,118.0917,37.694,滨州市,金海六路,,44,27,33,17,16,139,,154,150,10,15,4,4,0.4,0.4
2024-07-08T2000,4028A,117.9956,37.3753,滨州市,滨州市西街道办事处,,40,27,26,19,17,128,,154,148,10,13,3,3,0.6,0.6
2024-07-08T2000,2311A,115.8072,33.8399,亳州市,污水处理厂,,29,,16,20,13,54,,69,68,7,7,1,2,1.0,0.8
2024-07-08T2000,2312A,115.7789,33.8518,亳州市,三国揽胜宫,,,25,23,,12,61,,70,70,8,8,1,2,0.7,0.5
2024-07-08T2000,3332A,115.7633,33.8034,亳州市,亳州学院,,40,,17,28,11,64,,79,79,10,9,2,2,0.7,0.6
2024-07-08T2000,2693A,82.0485,44.8556,博尔塔拉蒙古自治州,市党校,,35,20,26,6,9,110,,126,126,11,11,9,10,0.2,0.3
2024-07-08T2000,2694A,82.0806,44.8969,博尔塔拉蒙古自治州,市环保局,,35,31,33,11,11,112,,118,118,16,18,9,9,0.4,0.4
2024-07-08T2000,1071A,116.8842,38.2991,沧州市,沧县城建局,,41,39,45,28,33,131,,164,160,12,10,2,3,0.9,1
2024-07-08T2000,1072A,116.8584,38.3254,沧州市,电视转播站,,42,42,47,19,33,128,,156,153,14,9,8,4,0.7,0.6
2024-07-08T2000,1073A,116.8709,38.3228,沧州市,市环保局,,46,46,43,23,26,120,,153,149,12,10,2,5,0.4,0.5
2024-07-08T2000,3324A,116.8136,38.3004,沧州市,河北水利电力学院,,49,,38,34,33,143,,170,167,13,12,7,4,0.7,0.6
2024-07-08T2000,2622A,97.1806,31.1273,昌都市,昌都监测站,,15,,10,10,5,31,,50,49,21,7,7,7,0.7,0.5
2024-07-08T2000,3719A,97.1714,31.1406,昌都市,昌都会议中心,,14,11,9,6,4,42,,50,50,7,5,6,6,0.4,0.4
2024-07-08T2000,2690A,88.1236,43.8886,昌吉回族自治州,天山天池,,43,9,5,8,2,136,,132,132,7,6,4,3,0.6,0.5
2024-07-08T2000,2692A,87.2717,44.0297,昌吉回族自治州,新区政务中心,,40,16,25,3,9,126,,144,144,11,22,8,9,0.4,0.5
2024-07-08T2000,3613A,87.3095,44.0142,昌吉回族自治州,亚心广场,,42,14,31,3,6,134,,153,153,15,28,4,7,0.2,0.3
2024-07-08T2000,1119A,125.3325,43.9166,长春市,食品厂,细颗粒物(PM2.5),54,53,64,38,48,89,,109,109,29,34,5,4,0.5,0.8
2024-07-08T2000,1120A,125.2863,43.9027,长春市,客车厂,,50,40,61,35,50,104,,126,126,18,24,3,2,0.4,0.7
2024-07-08T2000,1121A,125.2841,43.8463,长春市,邮电学院,,42,42,62,28,38,89,,104,104,22,18,6,6,0.4,0.7
2024-07-08T2000,1122A,125.3716,43.8772,长春市,劳动公园,,50,50,68,21,39,117,,136,136,16,22,2,2,0.5,0.9
2024-07-08T2000,1123A,125.3297,43.8805,长春市,园林处,,42,41,61,29,50,108,,122,122,14,18,5,4,0.3,0.6
2024-07-08T2000,1124A,125.4605,43.79,长春市,净月潭,,40,40,61,16,33,101,,122,122,12,9,4,4,0.4,0.6
2024-07-08T2000,1125A,125.7194,43.515,长春市,甩湾子,,,,,,,,,,,,,,,,
2024-07-08T2000,1126A,125.3863,43.8447,长春市,经开区环卫处,,44,44,66,20,40,108,,130,130,18,25,7,3,0.4,0.7
2024-07-08T2000,1127A,125.245,43.7783,长春市,高新区管委会,,40,40,62,23,44,111,,131,131,19,22,5,4,0.4,0.7
2024-07-08T2000,1128A,125.1761,43.8325,长春市,岱山公园,,45,45,61,20,43,88,,127,125,30,24,4,4,0.8,0.7
2024-07-08T2000,1335A,113.0833,28.2325,长沙市,经开区环保局,,21,21,25,10,10,56,,89,83,8,9,5,5,0.3,0.3
2024-07-08T2000,1336A,112.8872,28.2189,长沙市,高开区环保局,,34,34,27,12,11,79,,96,93,9,8,6,8,0.6,0.7
2024-07-08T2000,1337A,113.0792,28.2053,长沙市,马坡岭,,23,18,24,10,13,72,,106,100,7,9,8,9,0.4,0.4
2024-07-08T2000,1338A,112.9394,28.19,长沙市,湖南师范大学,,35,35,30,12,13,64,,96,89,12,9,4,4,0.4,0.5
2024-07-08T2000,1339A,113.0178,28.1322,长沙市,雨花区环保局,,20,17,25,13,11,63,,99,91,9,6,4,5,0.5,0.6
2024-07-08T2000,1340A,112.9792,28.2597,长沙市,伍家岭,,22,20,27,10,8,68,,95,88,6,8,2,3,0.4,0.4
2024-07-08T2000,1341A,113.0014,28.1944,长沙市,火车新站,,24,24,25,9,11,66,,100,91,12,9,4,4,0.3,0.3
2024-07-08T2000,1342A,112.9844,28.1178,长沙市,天心区环保局,,18,18,30,10,12,57,,89,81,9,8,4,4,0.4,0.4
2024-07-08T2000,1343A,112.8908,28.1308,长沙市,湖南中医药大学,,25,25,33,9,13,70,,99,93,6,9,6,8,0.5,0.6
2024-07-08T2000,1344A,112.9581,28.3611,长沙市,沙坪,,24,20,20,12,11,76,,98,93,9,12,7,8,0.4,0.5
2024-07-08T2000,1727A,113.1147,36.1547,长治市,清华站,,39,32,31,27,23,119,,136,132,12,10,9,10,0.5,0.6
2024-07-08T2000,1728A,113.1031,36.1989,长治市,监测站,,40,40,36,22,25,110,,121,120,12,13,4,4,0.9,1
2024-07-08T2000,1730A,113.0886,36.2125,长治市,审计局,,42,36,31,29,23,116,,130,127,18,17,2,2,0.9,1
2024-07-08T2000,1731A,113.0844,36.1856,长治市,长治八中,,37,35,35,24,25,116,,133,130,10,11,2,3,0.8,0.9
2024-07-08T2000,2845A,113.1569,36.1911,长治市,德盛苑,,42,32,31,29,24,114,,133,130,10,8,7,7,1.0,1
2024-07-08T2000,3568A,113.06,36.0464,长治市,向阳小学,细颗粒物(PM2.5),57,60,48,40,41,130,,141,139,12,11,6,6,1.3,1.1
2024-07-08T2000,3569A,112.8792,36.3144,长治市,屯留一中,细颗粒物(PM2.5),57,48,63,40,32,125,,144,139,18,12,13,10,2.0,0.7
2024-07-08T2000,3570A,113.235,36.3489,长治市,潞城四中,细颗粒物(PM2.5),58,,40,41,35,139,,145,143,5,6,8,7,0.7,0.6
2024-07-08T2000,1854A,111.6975,28.9703,常德市,市二中,,19,15,16,11,9,60,,69,68,11,7,7,7,0.5,0.5
2024-07-08T2000,1857A,111.7158,29.1456,常德市,白鹤山,,,,,,,,,,,,,,,,
2024-07-08T2000,3138A,111.7153,29.0289,常德市,武陵区永安,,19,19,18,13,8,54,,67,64,9,7,8,9,0.4,0.3
2024-07-08T2000,3139A,111.6892,28.9881,常德市,鼎城区玉霞,,25,25,18,16,11,53,,66,64,8,3,5,6,0.4,0.4
2024-07-08T2000,3140A,111.6625,29.0531,常德市,武陵区长庚,,21,21,14,12,9,55,,66,64,5,2,8,9,0.5,0.4
2024-07-08T2000,1196A,119.9633,31.762,常州市,市监测站,,39,24,28,14,10,124,,123,123,10,5,6,9,0.3,0.3
2024-07-08T2000,1200A,119.9468,31.7069,常州市,武进监测站,,41,22,20,12,10,129,,122,122,4,3,6,10,0.6,0.6
2024-07-08T2000,1201A,119.9255,31.9087,常州市,安家,,30,30,26,11,11,93,,96,96,15,13,6,8,0.5,0.5
2024-07-08T2000,3002A,119.9805,31.8174,常州市,行政中心,,36,23,17,18,14,113,,111,111,14,8,14,14,0.4,0.3
2024-07-08T2000,3003A,120.0522,31.7748,常州市,经开区,,37,34,29,13,12,118,,117,117,28,21,10,8,0.7,0.3
2024-07-08T2000,3010A,119.9025,31.7964,常州市,钟楼,,37,28,22,9,8,118,,109,109,10,9,4,5,0.4,0.5
2024-07-08T2000,3429A,119.8598,31.7066,常州市,武进经发区,,36,27,24,13,13,114,,116,116,13,7,7,11,0.4,0.4
2024-07-08T2000,3430A,119.5826,31.7245,常州市,金坛城区,,,14,22,8,12,74,,99,96,13,12,6,9,,0.5
2024-07-08T2000,2220A,120.4318,41.5881,朝阳市,西梁,细颗粒物(PM2.5),59,58,62,42,32,61,,110,99,30,22,9,9,1.0,0.8
2024-07-08T2000,2221A,120.4521,41.5646,朝阳市,河畔小区,颗粒物(PM10),69,88,62,35,30,83,,116,112,16,12,6,7,0.9,0.7
2024-07-08T2000,2222A,120.4176,41.5648,朝阳市,八里堡,细颗粒物(PM2.5),57,57,58,40,32,78,,112,107,25,21,5,5,1.2,1
2024-07-08T2000,2223A,120.3806,41.5969,朝阳市,农业园区,细颗粒物(PM2.5),60,51,56,43,40,53,,111,101,25,19,5,6,0.9,0.7
2024-07-08T2000,1705A,116.6367,23.6719,潮州市,西园路,,19,15,20,6,7,58,,69,66,14,12,5,3,0.6,0.5
2024-07-08T2000,3026A,116.6183,23.6608,潮州市,市政府,,48,48,28,13,9,57,,72,67,13,9,7,8,0.9,0.8
2024-07-08T2000,4036A,116.6461,23.6761,潮州市,金山,,27,27,22,8,6,56,,71,68,11,8,8,6,0.6,0.6
2024-07-08T2000,2472A,113.0073,25.9061,郴州市,马头岭,颗粒物(PM10),92,134,26,6,7,66,,66,64,11,6,11,12,0.7,0.5
2024-07-08T2000,2473A,113.0116,25.8226,郴州市,市职中,,22,18,13,7,8,70,,68,66,6,6,15,13,0.3,0.3
2024-07-08T2000,2474A,113.0161,25.8001,郴州市,兴隆步行街,,22,13,14,11,6,69,,67,65,5,5,18,13,0.4,0.4
2024-07-08T2000,2475A,113.0383,25.8071,郴州市,市审计局,,20,,11,14,9,62,,68,64,10,6,8,11,0.3,0.3
2024-07-08T2000,2476A,113.0348,25.7759,郴州市,市环保局,,23,10,13,10,8,72,,71,69,4,3,22,15,0.4,0.4
2024-07-08T2000,1431A,103.9728,30.7236,成都市,金泉两河,,17,11,15,3,8,52,,46,46,2,6,1,1,0.3,0.4
2024-07-08T2000,1432A,104.176,30.6872,成都市,十里店,,15,6,16,3,8,48,,50,49,13,13,4,3,0.4,0.4
2024-07-08T2000,1433A,104.079,30.5706,成都市,三瓦窑,,18,,19,11,11,55,,56,55,5,8,1,1,0.3,0.3
2024-07-08T2000,1434A,104.1114,30.63,成都市,沙河铺,,19,19,18,3,6,54,,53,52,8,10,3,2,0.4,0.4
2024-07-08T2000,1437A,104.0786,30.6531,成都市,君平街,,19,6,12,3,7,59,,61,60,8,11,2,2,0.4,0.4
2024-07-08T2000,1438A,103.613,31.0283,成都市,灵岩寺,,,,,,,,,,,,,,,,
2024-07-08T2000,2880A,104.0239,30.65639,成都市,大石西路,,17,11,15,3,8,53,,52,52,5,8,3,3,0.4,0.4
2024-07-08T2000,3136A,104.2725,30.5589,成都市,龙泉驿区区政府,,15,6,7,3,5,47,,51,50,8,9,3,3,0.4,0.4
2024-07-08T2000,3357A,104.0106,30.6931,成都市,金博路,,15,,10,3,5,46,,43,43,2,4,3,2,0.5,0.4
2024-07-08T2000,3359A,104.0578,30.5225,成都市,华阳,,16,,13,7,13,51,,52,52,2,4,3,3,0.5,0.5
2024-07-08T2000,3487A,104.2394,30.5319,成都市,车城东七路,,14,6,15,3,12,44,,49,48,12,10,2,3,0.5,0.5
2024-07-08T2000,3488A,104.3853,30.7453,成都市,青白江技师分院,,,,12,,6,37,,45,42,,5,,5,,0.6
2024-07-08T2000,3489A,104.0789,30.4072,成都市,科学城,,19,6,14,3,10,58,,61,61,9,8,1,2,0.4,0.4
2024-07-08T2000,4011A,103.8506,30.6947,成都市,光华大道三段,,15,13,18,3,6,45,,48,48,4,4,3,3,0.4,0.4
2024-07-08T2000,1062A,117.9531,40.9081,承德市,铁路,细颗粒物(PM2.5),74,,34,54,24,92,,120,120,40,19,7,5,0.6,0.4
2024-07-08T2000,1063A,117.9392,40.9763,承德市,中国银行,细颗粒物(PM2.5),73,66,37,53,23,101,,115,115,20,16,5,4,0.5,0.4
2024-07-08T2000,1064A,117.9503,40.928,承德市,开发区,细颗粒物(PM2.5),65,59,36,47,23,95,,122,122,24,17,5,5,0.6,0.5
2024-07-08T2000,1065A,117.8051,40.9655,承德市,文化中心,颗粒物(PM10),57,64,42,39,25,109,,120,120,18,19,5,8,0.5,0.4
2024-07-08T2000,1066A,117.9268,41.0026,承德市,离宫,颗粒物(PM10),60,69,35,34,21,77,,94,94,12,10,2,2,0.5,0.4
2024-07-08T2000,2314A,117.47,30.6618,池州市,池州学院,,25,25,20,14,11,76,,79,79,5,7,6,6,0.3,0.3
2024-07-08T2000,3237A,117.4918,30.6617,池州市,展览馆,,24,23,19,13,8,75,,80,79,4,6,4,4,0.3,0.4
2024-07-08T2000,3333A,117.5627,30.695,池州市,第八中学,,24,24,17,11,9,69,,80,79,7,8,3,3,0.3,0.2
2024-07-08T2000,3334A,117.5038,30.6243,池州市,第十二中学,,28,28,19,18,11,56,,81,77,17,10,6,6,0.4,0.5
2024-07-08T2000,1744A,118.9233,42.2816,赤峰市,松山一中,细颗粒物(PM2.5),74,76,50,54,30,94,,112,106,33,25,10,13,0.8,0.7
2024-07-08T2000,1745A,118.9576,42.2728,赤峰市,哈达街,细颗粒物(PM2.5),80,77,48,59,33,116,,131,127,13,14,12,14,0.8,0.7
2024-07-08T2000,1746A,118.8788,42.2554,赤峰市,天义路,细颗粒物(PM2.5),69,66,44,50,30,92,,120,115,41,23,6,9,0.6,0.5
2024-07-08T2000,3058A,119.2658,42.0353,赤峰市,银河街,细颗粒物(PM2.5),79,65,49,58,39,113,,126,125,15,17,10,12,0.5,0.5
2024-07-08T2000,3286A,118.9359,42.3147,赤峰市,桥北物流园区,细颗粒物(PM2.5),103,77,46,77,35,95,,111,104,29,23,7,8,1.1,0.6
2024-07-08T2000,2521A,107.3476,22.4136,崇左市,市环保局江州分局,,28,28,24,16,10,54,,61,61,8,8,6,5,0.7,0.6
2024-07-08T2000,2522A,107.3702,22.3707,崇左市,城南新区,,35,35,17,16,9,50,,60,60,6,6,4,3,0.7,0.6
2024-07-08T2000,2298A,118.3093,32.3153,滁州市,老年大学,,33,29,24,14,12,104,,115,114,8,5,7,6,0.5,0.5
2024-07-08T2000,2299A,118.3244,32.2786,滁州市,人大宾馆,,34,29,27,15,16,106,,119,118,8,9,6,6,0.5,0.5
2024-07-08T2000,3207A,118.3118,32.3038,滁州市,市政府原办公楼,,31,23,21,17,16,98,,111,110,10,7,8,8,0.6,0.5
2024-07-08T2000,3331A,118.3267,32.2634,滁州市,图书馆,,33,26,26,18,14,103,,116,115,4,5,10,10,0.8,0.8
2024-07-08T2000,2605A,101.5482,25.0441,楚雄彝族自治州,州环境监测站,,14,11,7,3,6,43,,44,44,5,5,4,3,0.4,0.5
2024-07-08T2000,2606A,101.538,25.0492,楚雄彝族自治州,市经济开发区,,29,29,13,10,6,41,,42,42,7,7,4,4,0.6,0.5
2024-07-08T2000,2548A,107.5277,31.2827,达州市,达州职业技术学院,,19,19,16,3,6,3,,12,12,16,20,4,3,0.2,0.2
2024-07-08T2000,2549A,107.5086,31.2186,达州市,市环境监测站,,24,24,15,3,2,8,,32,19,29,23,6,6,0.6,0.5
2024-07-08T2000,2550A,107.4988,31.2132,达州市,凤凰小区,,17,17,10,7,5,14,,24,24,25,21,7,7,0.6,0.5
2024-07-08T2000,2551A,107.5082,31.1986,达州市,达县机关宾馆,,19,19,13,3,6,10,,22,20,30,26,4,4,0.3,0.3
2024-07-08T2000,2552A,107.4644,31.2124,达州市,市政中心,,27,27,21,9,5,14,,23,22,26,21,6,6,0.6,0.5
2024-07-08T2000,2614A,100.1542,25.7054,大理白族自治州,大理市环境监测站,,26,24,15,18,10,32,,34,33,9,5,4,4,0.5,0.5
2024-07-08T2000,2615A,100.2171,25.5811,大理白族自治州,大理古城,,24,24,15,9,8,28,,43,42,15,8,6,6,0.7,0.7
2024-07-08T2000,1109A,121.612,38.9741,大连市,甘井子,细颗粒物(PM2.5),53,44,37,37,31,129,,138,136,16,17,8,8,0.8,0.7
2024-07-08T2000,1110A,121.565,38.9511,大连市,周水子,细颗粒物(PM2.5),59,,37,42,34,124,,140,138,28,24,11,8,0.7,0.7
2024-07-08T2000,1111A,121.5637,38.8845,大连市,星海三站,,47,39,37,29,31,148,,144,144,10,12,7,7,0.7,0.7
2024-07-08T2000,1112A,121.6302,38.9117,大连市,青泥洼桥,细颗粒物(PM2.5),55,57,53,39,35,132,,147,143,20,23,9,9,0.8,0.7
2024-07-08T2000,1113A,121.6251,38.8638,大连市,傅家庄,,45,35,33,31,33,141,,143,143,16,14,7,7,0.8,0.7
2024-07-08T2000,1114A,121.5213,38.8661,大连市,七贤岭,细颗粒物(PM2.5),52,42,36,36,29,138,,138,138,11,14,6,6,0.6,0.6
2024-07-08T2000,1115A,121.2529,38.8061,大连市,旅顺,臭氧1小时,60,48,23,41,27,168,,168,168,12,11,9,9,0.7,0.6
2024-07-08T2000,1116A,121.7485,39.1311,大连市,金州,细颗粒物(PM2.5),58,44,36,41,33,141,,137,137,11,10,9,8,1.0,0.8
2024-07-08T2000,1117A,121.7811,39.0496,大连市,开发区,细颗粒物(PM2.5),53,48,40,37,32,125,,118,117,22,17,6,6,0.8,0.8
2024-07-08T2000,1118A,121.9762,39.0631,大连市,双D港,,36,36,37,21,29,50,,112,95,15,14,6,6,1.0,0.8
2024-07-08T2000,1789A,124.81117,46.03138,大庆市,大同区,细颗粒物(PM2.5),95,,90,71,77,93,,112,109,10,9,6,6,0.4,0.4
2024-07-08T2000,1790A,125.129,46.533,大庆市,龙凤区,细颗粒物(PM2.5),68,68,79,49,65,95,,113,110,14,10,5,5,0.5,0.6
2024-07-08T2000,1791A,124.902,46.408,大庆市,红岗区,细颗粒物(PM2.5),75,96,74,55,65,110,,130,128,14,10,6,7,0.6,0.7
2024-07-08T2000,1792A,125.153,46.586,大庆市,萨尔图区,细颗粒物(PM2.5),75,64,79,55,69,93,,104,102,8,8,7,7,0.4,0.5
2024-07-08T2000,1793A,124.9042,46.6215,大庆市,让胡路区,细颗粒物(PM2.5),85,96,106,63,70,87,,129,123,30,13,6,6,0.6,0.6
2024-07-08T2000,3481A,125.141,46.634,大庆市,萨区政府监测点,细颗粒物(PM2.5),72,79,88,52,66,99,,111,110,10,12,6,6,0.4,0.5
2024-07-08T2000,1721A,113.3819,40.1097,大同市,果树场,,,,,,,,,,,,,,,,
2024-07-08T2000,1723A,113.2994,40.0758,大同市,云冈宾馆,,44,35,52,19,30,138,,158,155,16,24,6,9,0.5,0.6
2024-07-08T2000,1724A,113.3444,40.0917,大同市,大同大学,,41,27,39,18,22,131,,150,147,15,17,13,13,0.4,0.6
2024-07-08T2000,1725A,113.2661,40.1269,大同市,安家小村,,41,35,51,20,24,130,,154,150,20,22,12,15,0.4,0.8
2024-07-08T2000,1726A,113.2711,40.0844,大同市,教育学院,,42,34,51,21,26,132,,153,149,29,33,9,14,0.4,0.7
2024-07-08T2000,3282A,113.3397,40.0597,大同市,大同市卫生学校,,43,40,50,17,24,135,,154,152,16,24,10,14,0.5,0.8
2024-07-08T2000,3565A,113.1367,40.1122,大同市,云冈站,,45,25,39,16,17,141,,155,155,9,22,8,12,0.4,0.5
2024-07-08T2000,3566A,113.1186,40.2556,大同市,图书馆,,43,33,41,21,23,137,,167,165,14,19,9,12,0.5,0.6
2024-07-08T2000,3567A,113.5931,40.0461,大同市,区一中,,42,27,39,15,18,132,,150,149,13,15,8,12,0.5,0.6
2024-07-08T2000,3676A,113.2802,40.0995,大同市,第二人民医院,,44,28,53,15,24,140,,156,152,16,25,9,12,0.5,0.9
2024-07-08T2000,2269A,124.1069,50.4097,大兴安岭地区,科技局,颗粒物(PM10),61,71,60,39,41,79,,92,91,10,6,6,6,0.5,0.4
2024-07-08T2000,3663A,124.1164,50.4278,大兴安岭地区,红旗社区,细颗粒物(PM2.5),87,,51,64,48,82,,90,90,8,7,8,7,0.6,0.6
2024-07-08T2000,1600A,124.3303,40.0625,丹东市,江湾东路,,23,17,16,15,12,72,,100,96,8,7,3,8,0.5,0.5
2024-07-08T2000,1601A,124.4256,40.1503,丹东市,临江后街,,24,19,16,14,10,74,,109,97,14,6,10,8,0.6,0.7
2024-07-08T2000,1602A,124.3933,40.1461,丹东市,元宝山,,22,22,16,12,12,68,,90,86,8,5,6,6,0.3,0.3
2024-07-08T2000,1603A,124.3633,40.1092,丹东市,民主桥,,21,19,17,13,10,65,,93,87,16,7,4,4,0.6,0.6
2024-07-08T2000,3541A,109.5726,19.5167,儋州市,第一中学子站,,16,16,13,7,4,28,,50,44,4,3,6,6,0.5,0.4
2024-07-08T2000,3542A,109.5567,19.5187,儋州市,东坡学校子站,,13,13,13,8,6,27,,49,42,5,4,6,5,0.5,0.5
2024-07-08T2000,2616A,98.5842,24.428,德宏傣族景颇族自治州,德宏州监测站,,23,23,22,7,10,56,,59,59,11,11,3,5,0.7,0.7
2024-07-08T2000,3677A,98.5881,24.4368,德宏傣族景颇族自治州,芒市人民政府综合楼,,21,21,14,10,12,52,,56,56,9,10,7,12,0.4,0.5
2024-07-08T2000,1901A,104.4239,31.1208,德阳市,东山公园,,14,14,14,3,6,39,,51,48,10,8,1,2,0.5,0.4
2024-07-08T2000,1902A,104.3826,31.1317,德阳市,西小区,,11,,8,6,7,33,,49,47,16,11,1,2,0.6,0.5
2024-07-08T2000,1904A,104.3553,31.1091,德阳市,耐火材料厂,,12,,7,6,7,36,,48,47,10,8,3,3,0.6,0.5
2024-07-08T2000,3639A,104.4019,31.1244,德阳市,市教育局,,10,,10,3,7,32,,53,49,19,10,3,3,0.6,0.5
2024-07-08T2000,1622A,116.3032,37.4674,德州市,儿童乐园,,36,36,37,19,23,100,,137,130,19,11,7,7,0.8,0.8
2024-07-08T2000,1624A,116.2991,37.4451,德州市,监理站,,39,36,34,27,22,103,,138,130,21,16,9,10,0.8,0.7
2024-07-08T2000,3066A,116.2721,37.4379,德州市,九衢泉纯净水厂,,41,41,37,24,24,90,,130,117,20,17,4,5,0.8,0.8
2024-07-08T2000,3371A,116.3728,37.4403,德州市,开发区人民医院,,36,36,35,14,23,104,,137,132,18,14,9,10,0.8,0.7
2024-07-08T2000,3372A,116.3572,37.4094,德州市,太阳城中学,,34,34,33,19,22,83,,133,123,18,15,6,8,0.8,0.7
2024-07-08T2000,3511A,116.5652,37.3319,德州市,陵城艺术中心,颗粒物(PM10),57,63,36,27,16,98,,152,145,25,18,6,9,0.8,0.7
2024-07-08T2000,2621A,99.7056,27.8317,迪庆藏族自治州,迪庆州站,,22,22,14,7,6,31,,33,33,8,7,10,11,0.4,0.3
2024-07-08T2000,3180A,99.7136,27.8094,迪庆藏族自治州,质量技术监督局,,14,14,14,3,7,34,,35,35,7,7,9,9,0.5,0.5
2024-07-08T2000,2663A,104.6241,35.5734,定西市,东关小学,,28,28,25,16,10,82,,98,95,14,11,5,5,0.2,0.2
2024-07-08T2000,2664A,104.6194,35.5934,定西市,供电公司,,33,31,22,23,20,90,,97,95,10,11,4,4,0.3,0.2
2024-07-08T2000,1389A,113.7547,23.0494,东莞市,莞城梨川,,33,33,17,16,11,38,,95,86,18,14,8,7,0.7,0.7
2024-07-08T2000,1390A,113.7944,23.0128,东莞市,东城石井,,23,22,16,16,9,39,,92,81,20,13,2,2,0.5,0.6
2024-07-08T2000,1391A,113.7383,22.9658,东莞市,南城西平,,15,15,15,8,6,41,,94,80,11,12,3,2,0.5,0.5
2024-07-08T2000,3319A,113.7338,23.0381,东莞市,万江金泰,,20,20,16,12,8,39,,94,84,10,10,6,6,0.6,0.7
2024-07-08T2000,3626A,113.7533,23.0202,东莞市,南城元岭,,22,22,16,10,7,39,,95,86,12,10,8,7,0.6,0.6
2024-07-08T2000,3627A,113.7875,23.0457,东莞市,东城主山,,25,25,19,12,8,38,,97,88,16,10,6,5,0.6,0.6
2024-07-08T2000,1666A,118.6614,37.4309,东营市,市环保局,,39,19,15,19,9,124,,127,127,6,9,9,10,0.4,0.4
2024-07-08T2000,3036A,118.6904,37.4338,东营市,开发区管委会,,43,23,19,19,8,136,,135,135,7,10,7,9,0.3,0.7
2024-07-08T2000,3365A,118.5719,37.565,东营市,垦利区民丰路,,43,24,19,14,11,137,,142,142,7,10,9,9,0.5,0.6
2024-07-08T2000,3498A,118.5055,37.8612,东营市,河口城区,,42,36,24,29,15,122,,130,129,16,10,8,7,0.4,0.3
2024-07-08T2000,3646A,118.4978,37.4623,东营市,胜利站,,42,24,23,14,9,132,,142,142,6,11,5,5,0.8,0.8
2024-07-08T2000,3734A,118.35,37.26,东营市,理想之城,,40,27,18,24,13,125,,129,129,7,11,6,7,0.4,0.4
2024-07-08T2000,1591A,110.0023,39.8129,鄂尔多斯市,综合楼,,46,46,49,19,16,124,,160,156,41,32,10,12,0.6,0.6
2024-07-08T2000,1592A,109.9486,39.8261,鄂尔多斯市,巴音孟克林场办事处,,43,41,36,17,14,136,,143,142,15,33,6,9,0.5,0.7
2024-07-08T2000,1593A,109.7736,39.5986,鄂尔多斯市,康泽苑,,44,31,31,17,14,140,,166,165,15,15,9,12,0.5,0.5
2024-07-08T2000,1594A,109.8119,39.5989,鄂尔多斯市,华泰汽车城,,36,31,31,14,15,113,,151,148,24,22,8,10,0.4,0.5
2024-07-08T2000,1595A,109.9734,39.7884,鄂尔多斯市,奥林花园,,41,41,46,22,21,117,,146,143,24,39,6,8,0.6,0.7
2024-07-08T2000,2436A,114.8938,30.3994,鄂州市,市政府,,29,29,21,3,6,77,,89,88,12,7,8,7,0.5,0.5
2024-07-08T2000,2437A,114.8989,30.3714,鄂州市,赵家坝,,24,21,23,8,8,74,,88,86,9,7,7,8,0.5,0.6
2024-07-08T2000,3654A,114.8094,30.4089,鄂州市,精准医疗中心,,24,13,27,8,10,75,,88,87,8,10,7,6,0.4,0.4
2024-07-08T2000,2454A,109.4978,30.2981,恩施土家族苗族自治州,湖北民院,,31,31,28,16,16,22,,36,36,19,14,6,6,0.8,0.8
2024-07-08T2000,2455A,109.4707,30.2798,恩施土家族苗族自治州,州电力总公司,,35,35,34,21,15,19,,27,27,38,34,8,8,0.8,0.7
2024-07-08T2000,3549A,109.5061,30.3772,恩施土家族苗族自治州,龙凤新区,,29,29,24,18,11,7,,18,18,20,13,6,6,0.9,0.7
2024-07-08T2000,2499A,108.3411,21.6158,防城港市,沙万,,,27,15,7,6,43,,45,43,,6,9,10,0.5,0.5
2024-07-08T2000,2500A,108.3514,21.7731,防城港市,防城档案局,,13,13,12,7,6,37,,42,42,6,8,5,5,0.4,0.4
2024-07-08T2000,2501A,108.3506,21.6414,防城港市,大海花园,,14,11,15,8,4,42,,44,43,7,7,5,6,0.5,0.5
2024-07-08T2000,1371A,113.1294,23.0067,佛山市,湾梁,,17,17,13,10,10,50,,107,101,14,11,6,6,0.6,0.5
2024-07-08T2000,1372A,113.1083,23.0478,佛山市,华材职中,,19,19,10,11,5,54,,113,108,14,11,3,3,0.4,0.4
2024-07-08T2000,1373A,113.144,23.0453,佛山市,南海气象局,,25,25,17,13,6,53,,105,99,10,9,7,7,0.4,0.4
2024-07-08T2000,1374A,113.2881,22.8094,佛山市,顺德苏岗,,,16,10,12,6,55,,90,84,10,9,6,6,,0.4
2024-07-08T2000,1376A,112.8383,22.8678,佛山市,高明孔堂,,36,36,15,15,8,56,,70,69,7,7,7,7,0.6,0.5
2024-07-08T2000,1377A,112.8836,23.1588,佛山市,三水监测站,,24,24,12,3,8,43,,90,86,32,20,3,4,0.3,0.3
2024-07-08T2000,1378A,112.867,23.185,佛山市,三水云东海,,26,26,18,16,10,56,,96,93,26,17,3,5,0.2,0.3
2024-07-08T2000,3625A,113.2544,22.7642,佛山市,容桂街道办,,20,17,8,14,7,48,,85,79,15,14,7,7,0.5,0.4
2024-07-08T2000,1280A,119.3903,26.0543,福州市,鼓山,,,,,,,,,,,,,,,,
2024-07-08T2000,1282A,119.2681,26.0504,福州市,师大,,31,31,26,7,8,53,,81,79,12,8,4,4,0.4,0.4
2024-07-08T2000,1283A,119.2984,26.1028,福州市,五四北路,,33,33,25,8,7,54,,92,87,11,8,4,4,0.3,0.3
2024-07-08T2000,1284A,119.2648,26.0768,福州市,杨桥西路,,36,36,27,10,7,56,,84,81,11,8,4,4,0.5,0.5
2024-07-08T2000,1285A,119.317,26.0746,福州市,紫阳,,25,25,26,6,7,47,,85,80,11,10,3,3,0.4,0.4
2024-07-08T2000,3048A,119.5799,26.0936,福州市,九龙,,18,14,20,3,4,57,,92,86,3,6,4,5,0.2,0.2
2024-07-08T2000,3526A,119.5189,25.9664,福州市,吴航,,15,14,19,3,7,46,,90,84,3,5,5,5,0.3,0.3
2024-07-08T2000,1755A,123.7977,41.8491,抚顺市,望花区,细颗粒物(PM2.5),58,44,35,41,33,77,,88,86,28,22,6,2,1.0,0.6
2024-07-08T2000,1756A,123.9161,41.8822,抚顺市,顺城区,,43,38,38,30,29,74,,87,86,33,24,4,4,0.7,0.6
2024-07-08T2000,1757A,124.0436,41.8611,抚顺市,东洲区,,48,,33,33,32,63,,89,86,20,14,4,4,0.9,0.6
2024-07-08T2000,1758A,123.9247,41.8642,抚顺市,新抚区,,35,32,35,24,29,61,,72,69,15,18,1,2,0.6,0.7
2024-07-08T2000,1759A,124.0972,41.8961,抚顺市,大伙房水库,,45,34,33,31,31,94,,98,97,15,13,4,5,0.7,0.7
2024-07-08T2000,1760A,123.7086,41.8391,抚顺市,沈抚新城,细颗粒物(PM2.5),52,37,30,36,31,45,,77,68,29,24,4,4,0.7,0.6
2024-07-08T2000,2376A,116.2127,28.0814,抚州市,桐源党溪,,32,32,17,19,10,58,,74,71,12,5,5,5,0.4,0.3
2024-07-08T2000,2377A,116.3544,27.9831,抚州市,市站,,22,22,20,12,8,58,,70,68,4,3,3,4,0.6,0.6
2024-07-08T2000,2378A,116.3565,27.963,抚州市,血防站,,24,24,20,11,9,52,,63,62,5,5,4,8,0.6,1
2024-07-08T2000,2379A,116.3564,28.0007,抚州市,采茶剧团,,22,22,17,12,8,54,,66,64,2,3,3,4,0.7,0.6
2024-07-08T2000,2380A,116.385,27.9647,抚州市,医学分院,,28,28,22,13,8,56,,72,69,7,5,4,4,0.6,0.7
2024-07-08T2000,2207A,121.6094,41.998,阜新市,工业园区,细颗粒物(PM2.5),62,69,53,44,33,54,,82,75,32,39,6,5,1.1,0.9
2024-07-08T2000,2208A,121.6697,42.0279,阜新市,长青街,,,,51,,31,,,59,,,26,,4,,0.9
2024-07-08T2000,2209A,121.6673,42.0705,阜新市,农业园区,细颗粒物(PM2.5),85,64,52,63,34,75,,87,85,14,14,5,5,1.5,1.1
2024-07-08T2000,2210A,121.6717,42.0224,阜新市,东苑,细颗粒物(PM2.5),64,63,55,46,35,65,,94,85,34,35,11,7,1.4,1
2024-07-08T2000,2211A,121.6506,42.0498,阜新市,玉龙新城,细颗粒物(PM2.5),64,54,57,46,33,46,,81,72,23,29,2,2,0.9,0.9
2024-07-08T2000,2301A,115.8277,32.8929,阜阳市,市监测站,,30,30,25,11,11,89,,99,99,10,10,4,5,0.4,0.5
2024-07-08T2000,2303A,115.8554,32.8605,阜阳市,开发区,,39,39,27,3,8,87,,100,99,13,10,5,5,0.2,0.2
2024-07-08T2000,2875A,115.784,32.8892,阜阳市,阜阳职业技术学院,,26,22,21,12,11,82,,104,102,14,9,6,6,0.2,0.1
2024-07-08T2000,3468A,115.7901,32.8613,阜阳市,市规划展馆,,25,,25,17,16,76,,90,89,12,9,2,2,0.4,0.4
2024-07-08T2000,3469A,115.836,32.9183,阜阳市,枣园社区,,29,22,28,16,15,90,,100,99,14,11,1,1,0.4,0.4
2024-07-08T2000,2669A,102.9099,34.9841,甘南藏族自治州,州政府,,34,34,16,15,11,89,,91,91,4,7,7,7,0.2,0.3
2024-07-08T2000,3380A,102.8914,34.9617,甘南藏族自治州,甘肃民族师范学院,,,,8,,7,86,,86,86,1,5,,3,0.2,0.7
2024-07-08T2000,2570A,101.9603,30.0475,甘孜藏族自治州,水桥子,,20,15,9,14,8,20,,30,30,26,17,4,4,0.5,0.4
2024-07-08T2000,3065A,101.9533,29.9972,甘孜藏族自治州,州环保局,,16,12,12,7,5,18,,40,40,32,21,2,2,0.3,0.2
2024-07-08T2000,3414A,115.8347,28.932,赣江新区,桑海产业园,,34,34,23,15,10,70,,109,102,30,21,10,12,0.4,0.4
2024-07-08T2000,2362A,114.9017,25.9149,赣州市,通天岩,,,,,,,,,,,,,,,,
2024-07-08T2000,2363A,114.9367,25.8664,赣州市,地委,,22,19,14,10,7,68,,78,77,5,3,9,10,1.0,0.9
2024-07-08T2000,2364A,114.9461,25.8481,赣州市,气象台,,21,19,13,10,8,65,,71,71,3,6,9,8,0.6,0.6
2024-07-08T2000,2365A,114.9322,25.8333,赣州市,市图书馆,,24,24,13,13,6,65,,77,76,7,5,33,15,0.9,1
2024-07-08T2000,2366A,114.8905,25.8471,赣州市,华坚鞋城,,23,23,16,8,7,67,,77,77,6,6,28,18,0.5,0.5
2024-07-08T2000,3109A,115.0093,25.8613,赣州市,赣县区卫计委,,21,,13,14,7,66,,76,74,7,5,7,7,0.5,0.5
2024-07-08T2000,2683A,106.2319,36.1417,固原市,马园,颗粒物(PM10),67,84,56,13,11,115,,112,112,22,25,5,7,0.9,0.9
2024-07-08T2000,2684A,106.2792,36.0022,固原市,监测站,,39,28,28,19,26,122,,111,111,16,15,6,7,0.4,0.3
2024-07-08T2000,2685A,106.2375,36.0211,固原市,新区,,36,25,27,15,11,115,,105,105,14,13,5,6,0.5,0.5
2024-07-08T2000,3522A,106.2177,35.9959,固原市,原州区十五小,,38,23,28,17,17,119,,107,107,14,15,6,7,0.6,0.6
2024-07-08T2000,2543A,106.6308,30.5278,广安市,小平旧居,,,,,,,,,,,,,,,,
2024-07-08T2000,2544A,106.6303,30.4576,广安市,市委,,22,22,23,13,12,32,,41,33,8,9,7,7,0.4,0.4
2024-07-08T2000,2545A,106.6271,30.4663,广安市,友谊中学,,17,17,19,11,12,41,,50,42,9,10,7,7,0.4,0.4
2024-07-08T2000,2547A,106.6388,30.4551,广安市,广电花园,,17,17,25,9,12,33,,42,34,9,9,6,6,0.4,0.4
2024-07-08T2000,2902A,106.6351,30.4865,广安市,北辰小学,,18,17,20,12,14,38,,48,39,8,8,8,8,0.3,0.3
2024-07-08T2000,2523A,105.8945,32.4535,广元市,黑石坡,,10,10,12,6,6,26,,36,34,13,10,14,14,0.4,0.3
2024-07-08T2000,2524A,105.821,32.4444,广元市,老城,,14,12,12,3,7,42,,51,50,22,22,6,6,0.5,0.6
2024-07-08T2000,2526A,105.8628,32.4287,广元市,监测站,,,25,24,11,7,49,,51,51,18,16,11,8,,0.5
2024-07-08T2000,3617A,105.8047,32.4166,广元市,经开区,,17,6,6,3,3,52,,48,47,12,20,4,4,0.5,0.6
2024-07-08T2000,1345A,113.2347,23.1423,广州市,广雅中学,,32,32,21,22,13,71,,110,108,17,14,5,4,0.5,0.5
2024-07-08T2000,1346A,113.2612,23.105,广州市,市五中,,31,31,19,21,12,74,,120,116,13,10,4,3,0.6,0.6
2024-07-08T2000,1348A,113.3478,23.0916,广州市,广东商学院,,35,30,19,24,10,63,,110,105,18,16,4,4,0.5,0.5
2024-07-08T2000,1349A,113.4332,23.1047,广州市,市八十六中,,22,22,19,8,7,28,,100,91,35,22,3,3,0.5,0.5
2024-07-08T2000,1350A,113.3505,22.9483,广州市,番禺中学,,29,26,18,20,11,51,,112,105,20,13,7,7,0.6,0.5
2024-07-08T2000,1351A,113.2146,23.3916,广州市,花都师范,,23,23,20,13,17,73,,133,130,19,14,6,7,0.5,0.4
2024-07-08T2000,1352A,113.2597,23.1331,广州市,市监测站,颗粒物(PM10),63,76,26,12,8,70,,111,108,17,13,6,4,0.7,0.5
2024-07-08T2000,1353A,113.5618,23.312,广州市,九龙镇镇龙,,28,28,24,15,12,55,,117,113,24,19,8,7,0.5,0.5
2024-07-08T2000,1354A,113.2765,23.1544,广州市,麓湖,,29,29,18,16,9,73,,114,112,17,13,4,3,0.4,0.4
2024-07-08T2000,1355A,113.443,23.3035,广州市,帽峰山森林公园,,22,21,12,8,8,69,,130,128,23,11,6,5,0.5,0.4
2024-07-08T2000,2846A,113.3221,23.1322,广州市,体育西,,31,31,17,19,9,62,,109,105,20,13,4,4,0.6,0.5
2024-07-08T2000,3298A,113.5717,23.5491,广州市,从化街口,,35,31,21,22,13,109,,129,129,15,16,6,5,0.5,0.5
2024-07-08T2000,3299A,113.3472,23.3692,广州市,白云竹料,,34,34,24,15,9,65,,128,123,25,20,4,4,0.5,0.5
2024-07-08T2000,3300A,113.2981,23.237,广州市,白云嘉禾,,31,31,21,14,10,61,,117,113,27,19,6,6,0.6,0.6
2024-07-08T2000,3301A,113.4256,23.1716,广州市,黄埔科学城,,31,31,22,15,12,34,,110,102,31,17,7,6,0.6,0.6
2024-07-08T2000,3302A,113.3942,23.0483,广州市,番禺大学城,,18,18,14,10,8,54,,104,100,17,13,5,5,0.4,0.4
2024-07-08T2000,3303A,113.4922,22.8168,广州市,南沙黄阁,,19,19,18,10,10,37,,80,73,14,11,5,5,0.6,0.6
2024-07-08T2000,3304A,113.5342,22.7896,广州市,南沙街,,26,26,17,12,8,37,,72,65,12,11,6,5,0.6,0.6
2024-07-08T2000,3443A,113.2902,23.5544,广州市,花都梯面,,31,25,18,15,10,97,,142,140,17,13,4,4,0.6,0.5
2024-07-08T2000,3445A,113.7858,23.7478,广州市,从化良口,,32,26,14,14,8,102,,121,121,12,9,5,5,0.5,0.5
2024-07-08T2000,3446A,113.8051,23.2614,广州市,增城荔城,,25,25,29,13,13,54,,124,117,22,20,6,7,0.4,0.6
2024-07-08T2000,2505A,109.568,23.1478,贵港市,德智高中,,,,,,,,,,,,,,,,
2024-07-08T2000,2506A,109.6047,23.0666,贵港市,江南子站,,34,34,20,9,14,57,,68,68,12,8,7,7,0.5,0.5
2024-07-08T2000,2507A,109.6014,23.0948,贵港市,贵城子站,,39,39,26,17,13,62,,70,70,12,9,7,7,0.5,0.5
2024-07-08T2000,2508A,109.5669,23.1065,贵港市,荷城子站,,29,29,21,9,7,56,,70,68,12,7,10,10,0.5,0.4
2024-07-08T2000,3405A,109.5886,23.1172,贵港市,新世纪学校,,39,39,22,15,10,62,,71,70,10,6,6,6,0.6,0.6
2024-07-08T2000,1439A,106.6899,26.5998,贵阳市,马鞍山,,19,12,13,3,2,58,,67,66,9,6,8,7,0.3,0.2
2024-07-08T2000,1440A,106.6971,26.5694,贵阳市,市环保站,,36,36,25,17,14,41,,60,56,22,13,5,6,0.4,0.3
2024-07-08T2000,1441A,106.6243,26.6266,贵阳市,鉴湖路,,17,14,15,9,7,53,,59,59,6,4,2,3,0.2,0.3
2024-07-08T2000,1442A,106.7487,26.6343,贵阳市,燕子冲,,18,,7,9,7,56,,63,63,7,6,5,6,0.5,0.5
2024-07-08T2000,1443A,106.6555,26.4365,贵阳市,碧云窝,,17,17,24,3,8,54,,62,61,7,7,5,6,0.6,0.6
2024-07-08T2000,1444A,106.694,26.5161,贵阳市,中院村,,16,14,16,3,5,49,,58,57,11,7,4,5,0.3,0.4
2024-07-08T2000,1445A,106.7109,26.6027,贵阳市,红边门,,25,19,19,17,16,49,,61,59,15,11,3,4,0.6,0.5
2024-07-08T2000,1446A,106.7164,26.5699,贵阳市,新华路,,,,,,,,,,,,,,,,
2024-07-08T2000,1447A,106.674,26.5424,贵阳市,太慈桥,,17,17,15,9,7,54,,63,62,5,5,6,7,0.4,0.3
2024-07-08T2000,1552A,106.805,26.3003,贵阳市,桐木岭,,,,,,,,,,,,,,,,
2024-07-08T2000,1862A,110.4144,25.3167,桂林市,电子科大尧山校区,,21,21,21,10,11,50,,62,61,5,6,4,4,0.3,0.3
2024-07-08T2000,1863A,110.2819,25.2697,桂林市,监测站,,22,16,19,15,11,54,,62,62,9,6,6,6,0.5,0.5
2024-07-08T2000,1864A,110.3089,25.2708,桂林市,龙隐路小学,,23,23,19,12,11,55,,62,61,8,7,6,5,0.5,0.5
2024-07-08T2000,1865A,110.2869,25.2178,桂林市,八中,,18,15,17,11,9,56,,60,60,6,6,7,6,0.5,0.5
2024-07-08T2000,3403A,110.1764,25.2381,桂林市,创业大厦,,18,14,14,9,10,56,,63,62,7,5,6,6,0.3,0.4
2024-07-08T2000,3531A,110.296,25.1253,桂林市,旅游学院,,18,9,11,7,10,57,,64,63,7,7,8,7,0.4,0.4
2024-07-08T2000,2674A,100.2561,34.4714,果洛藏族自治州,玛沁县大武镇,,31,31,22,10,10,88,,84,84,10,8,9,10,0.4,0.4
2024-07-08T2000,1129A,126.5422,45.755,哈尔滨市,岭北,细颗粒物(PM2.5),58,49,56,41,50,98,,118,116,17,17,6,5,0.3,0.9
2024-07-08T2000,1130A,126.561,45.8167,哈尔滨市,松北商大,颗粒物(PM10),55,60,69,31,40,80,,105,102,23,21,6,6,0.5,0.7
2024-07-08T2000,1131A,126.979,45.5419,哈尔滨市,阿城会宁,颗粒物(PM10),55,60,63,38,45,79,,95,90,21,18,8,4,0.6,0.7
2024-07-08T2000,1132A,126.599,45.7222,哈尔滨市,南岗学府路,颗粒物(PM10),63,76,88,43,48,92,,112,110,18,17,6,9,0.6,0.7
2024-07-08T2000,1133A,126.689,45.7733,哈尔滨市,太平宏伟公园,颗粒物(PM10),66,81,76,42,40,77,,103,100,33,23,8,6,0.6,0.6
2024-07-08T2000,1134A,126.635,45.7667,哈尔滨市,道外承德广场,颗粒物(PM10),60,69,77,32,35,81,,103,101,33,25,8,9,0.8,0.7
2024-07-08T2000,1135A,126.685,45.7319,哈尔滨市,香坊红旗大街,细颗粒物(PM2.5),68,68,76,49,54,88,,106,104,24,18,13,10,0.6,0.7
2024-07-08T2000,1136A,126.6411,45.7258,哈尔滨市,动力和平路,颗粒物(PM10),58,66,72,33,33,90,,110,108,24,20,6,6,0.4,0.5
2024-07-08T2000,1137A,126.593,45.7478,哈尔滨市,道里建国路,颗粒物(PM10),55,60,68,34,43,87,,110,107,24,19,4,5,0.3,0.6
2024-07-08T2000,1138A,126.615,45.61,哈尔滨市,平房东轻厂,颗粒物(PM10),62,74,81,33,40,77,,107,104,46,37,10,10,0.2,0.4
2024-07-08T2000,1139A,126.595,45.9855,哈尔滨市,呼兰师专,颗粒物(PM10),57,64,86,30,44,76,,93,92,26,21,10,11,0.5,0.8
2024-07-08T2000,1140A,126.6206,45.6842,哈尔滨市,省农科院,颗粒物(PM10),64,77,84,41,42,88,,109,108,26,25,14,13,0.7,0.8
2024-07-08T2000,2688A,93.5128,42.8172,哈密市,地区监测站,颗粒物(PM10),60,69,74,33,29,146,,141,141,4,16,3,5,0.2,0.3
2024-07-08T2000,2689A,93.4961,42.8328,哈密市,哈密师范学校,颗粒物(PM10),59,68,76,30,24,129,,136,136,10,16,4,5,0.3,0.4
2024-07-08T2000,2671A,100.9048,36.9639,海北藏族自治州,海晏县西海镇,颗粒物(PM10),51,52,20,27,20,126,,117,117,8,9,12,13,0.9,0.5
2024-07-08T2000,3867A,102.0738,36.5056,海东市,平安区公安北苑,颗粒物(PM10),53,55,41,32,36,126,,124,124,17,19,15,10,0.3,1
2024-07-08T2000,1409A,110.576,19.9507,海口市,东寨港,,,,,,,,,,,,,,,,
2024-07-08T2000,1410A,110.3232,20.0574,海口市,海南大学,,16,16,13,9,5,31,,60,54,18,6,6,6,0.5,0.3
2024-07-08T2000,1411A,110.283,20.0053,海口市,秀英海南医院,,21,10,12,7,6,6,,52,41,42,11,6,6,0.4,0.2
2024-07-08T2000,1412A,110.338,19.9969,海口市,海南师范大学,,16,,12,11,6,22,,59,52,24,7,7,7,0.5,0.4
2024-07-08T2000,1413A,110.33,20.0356,海口市,龙华路环保局宿舍,,19,19,12,9,6,26,,56,50,21,7,7,7,0.4,0.2
2024-07-08T2000,3539A,110.5111,19.9736,海口市,桂林洋子站,,,18,13,10,6,25,,46,41,16,6,6,6,,0.2
2024-07-08T2000,2673A,100.6188,36.2866,海南藏族自治州,共和县恰卜恰镇,,32,24,18,11,11,100,,105,104,7,9,7,6,0.6,0.6
2024-07-08T2000,2676A,97.3731,37.3753,海西蒙古族藏族自治州,德令哈市,,45,44,42,21,16,144,,131,131,16,10,9,8,0.3,0.6
2024-07-08T2000,1048A,114.5302,36.6116,邯郸市,东污水处理厂,,34,13,39,7,20,108,,113,113,3,11,3,2,0.2,0.4
2024-07-08T2000,1049A,114.4918,36.5713,邯郸市,矿院,,38,32,37,9,19,121,,123,123,6,13,4,4,0.4,0.6
2024-07-08T2000,1050A,114.484,36.6133,邯郸市,丛台公园,,50,50,41,10,23,113,,120,120,1,10,6,6,0.3,0.6
2024-07-08T2000,3458A,114.7895,36.5593,邯郸市,香泉濮院小区,,37,24,30,10,16,116,,117,117,4,6,2,2,0.2,0.4
2024-07-08T2000,3579A,114.50634,36.77178,邯郸市,永年区实验高中,,,50,54,37,31,89,,123,117,,10,3,2,0.5,0.6
2024-07-08T2000,3580A,114.20016,36.44293,邯郸市,峰峰矿区临水派出所,,42,42,55,8,28,95,,121,115,9,12,4,4,0.4,0.7
2024-07-08T2000,2634A,106.9893,33.1842,汉中市,汉川机床厂子校,,16,13,16,11,7,39,,48,48,9,9,6,4,0.7,0.7
2024-07-08T2000,2635A,107.0154,33.0706,汉中市,市监测站,,18,18,16,7,8,36,,47,47,11,13,6,7,0.7,0.8
2024-07-08T2000,2636A,107.0089,33.1138,汉中市,鑫源开发区,,21,21,19,8,8,34,,40,40,10,14,8,8,0.6,0.8
2024-07-08T2000,2637A,107.007,33.0323,汉中市,南郑大河坎水厂,,16,16,12,3,9,36,,46,45,6,10,7,7,0.5,0.6
2024-07-08T2000,1223A,120.2072,30.2111,杭州市,滨江,,32,32,29,15,15,99,,104,103,12,14,3,3,0.6,0.6
2024-07-08T2000,1224A,120.0633,30.2747,杭州市,西溪,,23,21,21,16,15,52,,84,80,9,12,6,5,0.5,0.6
2024-07-08T2000,1226A,120.3461,30.3153,杭州市,下沙,,36,32,36,25,20,70,,112,105,43,22,6,6,0.4,0.4
2024-07-08T2000,1227A,120.1269,30.2456,杭州市,卧龙桥,,25,21,22,17,16,37,,81,74,17,13,5,5,0.7,0.7
2024-07-08T2000,1228A,120.1903,30.2692,杭州市,浙江农大,,30,30,32,15,16,90,,99,99,17,20,6,7,0.4,0.4
2024-07-08T2000,1230A,120.1197,30.3119,杭州市,和睦小学,,29,25,21,20,13,79,,92,91,15,13,5,6,0.4,0.5
2024-07-08T2000,1231A,120.3019,30.4183,杭州市,临平镇,,36,36,33,16,16,85,,110,106,17,17,5,5,0.4,0.5
2024-07-08T2000,1232A,120.2697,30.1819,杭州市,城厢镇,,33,33,30,23,21,87,,107,101,24,21,4,3,0.4,0.4
2024-07-08T2000,1233A,120.0883,30.1808,杭州市,云栖,,23,23,29,10,11,50,,99,84,14,15,7,7,0.5,0.6
2024-07-08T2000,3557A,119.9464,30.0494,杭州市,镇二中,,50,36,26,35,18,54,,98,89,38,22,7,7,0.6,0.5
2024-07-08T2000,3558A,119.7183,30.2367,杭州市,市府大楼,,30,27,16,17,12,96,,83,83,14,11,7,6,0.4,0.4
2024-07-08T2000,3656A,120.1556,30.2864,杭州市,消防大队,,27,20,24,17,17,86,,100,100,8,12,8,8,0.8,0.8
2024-07-08T2000,1270A,117.1959,31.7848,合肥市,明珠广场,,31,31,27,14,13,96,,114,112,11,10,8,8,0.2,0.2
2024-07-08T2000,1271A,117.3072,31.8764,合肥市,三里街,,30,24,23,14,11,96,,113,109,11,13,5,5,0.3,0.3
2024-07-08T2000,1272A,117.2588,31.8707,合肥市,琥珀山庄,,34,34,29,17,10,99,,121,115,9,7,8,6,0.4,0.4
2024-07-08T2000,1273A,117.1604,31.9052,合肥市,董铺水库,,29,27,27,12,12,90,,100,99,6,7,3,3,0.3,0.2
2024-07-08T2000,1274A,117.25,31.8571,合肥市,长江中路,,31,31,30,15,15,94,,114,109,9,8,5,6,0.4,0.4
2024-07-08T2000,1275A,117.266,31.9436,合肥市,庐阳区,,32,29,27,17,14,100,,114,113,8,8,5,6,0.4,0.3
2024-07-08T2000,1276A,117.336,31.8586,合肥市,瑶海区,,29,27,27,11,12,90,,104,102,8,8,9,9,0.1,0.1
2024-07-08T2000,1277A,117.3027,31.7964,合肥市,包河区,,30,22,21,12,10,96,,109,108,5,6,5,5,0.4,0.4
2024-07-08T2000,1278A,117.2776,31.7385,合肥市,滨湖新区,,29,24,20,12,11,91,,106,103,6,6,8,9,0.4,0.4
2024-07-08T2000,1279A,117.1318,31.8403,合肥市,高新区,,29,27,23,12,10,90,,101,99,7,8,7,10,0.4,0.4
2024-07-08T2000,3464A,117.3803,31.9147,合肥市,高教基地,,29,25,22,15,12,92,,106,104,6,6,7,7,0.3,0.3
2024-07-08T2000,3614A,79.924,37.0877,和田地区,地区环保局,颗粒物(PM10),127,203,367,57,82,127,,134,133,5,7,6,6,0.4,0.4
2024-07-08T2000,3615A,79.9131,37.113,和田地区,市环保局,颗粒物(PM10),122,194,323,51,67,113,,128,126,8,8,6,6,0.4,0.4
2024-07-08T2000,2516A,108.2011,24.715,河池市,东仁乐园,,22,22,24,3,11,45,,57,56,10,10,4,7,0.6,0.6
2024-07-08T2000,2517A,108.0497,24.6947,河池市,市环保站,,21,19,14,12,9,65,,59,59,6,6,8,8,0.4,0.4
2024-07-08T2000,2518A,108.0983,24.6989,河池市,市疾控中心,,26,26,18,13,10,57,,57,57,11,10,8,9,0.5,0.5
2024-07-08T2000,1696A,114.6778,23.7569,河源市,源西,,,,19,,17,,,44,,,10,,4,,0.5
2024-07-08T2000,1697A,114.6944,23.7586,河源市,东埔,,35,,16,24,14,74,,92,92,10,8,7,7,0.5,0.5
2024-07-08T2000,1698A,114.6892,23.7233,河源市,老城,,,,22,10,11,68,,94,93,,6,,5,0.6,0.6
2024-07-08T2000,1718A,115.4208,35.2464,菏泽市,气象局,,37,16,22,11,15,116,,109,109,3,7,2,2,0.2,0.3
2024-07-08T2000,1719A,115.4747,35.2375,菏泽市,市政协,,35,,17,13,21,111,,104,104,4,8,1,2,0.3,0.3
2024-07-08T2000,3374A,115.5564,35.0891,菏泽市,定陶老年大学,,35,6,13,3,5,109,,107,107,4,6,1,2,0.4,0.5
2024-07-08T2000,3647A,115.4702,35.2706,菏泽市,菏泽医专,,38,9,19,3,16,120,,113,113,4,8,1,3,0,0.1
2024-07-08T2000,2514A,111.5264,24.4172,贺州市,环保小区,,27,27,19,15,11,75,,71,71,10,10,6,7,0.6,0.6
2024-07-08T2000,2515A,111.5608,24.4078,贺州市,政协大楼,,35,35,26,14,13,65,,77,77,15,12,7,7,0.6,0.5
2024-07-08T2000,3534A,111.4744,24.4553,贺州市,西湾,,27,27,21,13,16,58,,69,68,26,12,9,10,1.2,0.5
2024-07-08T2000,2385A,114.17,35.9019,鹤壁市,市监测站,,46,,29,32,26,75,,103,96,8,9,6,6,0.7,0.8
2024-07-08T2000,2386A,114.2956,35.7511,鹤壁市,市交警支队,,38,,31,26,24,79,,100,99,22,11,5,3,0.5,0.5
2024-07-08T2000,2387A,114.2878,35.7306,鹤壁市,迎宾馆,,29,,17,20,25,82,,102,100,26,12,2,2,0.5,0.5
2024-07-08T2000,3474A,114.2617,35.6822,鹤壁市,大新区,,28,11,15,6,9,88,,100,100,14,11,1,2,0.3,0.3
2024-07-08T2000,3596A,114.1572,35.9603,鹤壁市,南山宾馆,,40,,30,28,31,67,,103,95,14,9,5,7,0.6,0.9
2024-07-08T2000,2244A,130.2537,47.3416,鹤岗市,哈啤分公司,,,,57,,47,84,,84,84,,6,13,14,,0.5
2024-07-08T2000,2245A,130.2684,47.3086,鹤岗市,斯达机电,细颗粒物(PM2.5),55,49,57,39,45,88,,88,88,8,8,12,13,0.2,0.4
2024-07-08T2000,2246A,130.3114,47.3388,鹤岗市,东山纸板厂,颗粒物(PM10),58,65,60,39,57,87,,87,87,5,5,15,16,0.4,0.6
2024-07-08T2000,2247A,130.1097,47.3382,鹤岗市,五号水库,颗粒物(PM10),52,54,50,32,38,69,,89,87,7,5,10,10,0.1,0.2
2024-07-08T2000,2263A,127.4833,50.2524,黑河市,交通局,细颗粒物(PM2.5),78,81,90,57,65,85,,86,86,11,9,6,6,0.6,0.5
2024-07-08T2000,2264A,127.5144,50.2341,黑河市,环保局,细颗粒物(PM2.5),78,83,99,57,70,91,,92,92,8,12,3,7,0.3,0.4
2024-07-08T2000,2265A,127.5291,50.2472,黑河市,大黑河岛,,,85,110,65,92,,,,,14,17,1,2,,
2024-07-08T2000,1074A,115.6838,37.7541,衡水市,电机北厂,,50,50,56,31,30,141,,164,163,8,8,2,4,0.4,0.5
2024-07-08T2000,1075A,115.6303,37.7316,衡水市,市监测站,,43,42,42,20,27,135,,164,163,9,9,6,6,0.6,0.7
2024-07-08T2000,3188A,115.6683,37.7217,衡水市,市城管局,,45,36,43,19,30,141,,165,163,8,7,2,4,0.4,0.5
2024-07-08T2000,3459A,115.5989,37.5491,衡水市,地表水厂,,47,47,51,16,23,127,,149,147,7,10,6,6,0.4,0.5
2024-07-08T2000,2456A,112.5003,26.9167,衡阳市,原169医院,,20,20,20,11,12,52,,67,62,14,11,10,11,0.6,0.7
2024-07-08T2000,2457A,112.6194,26.9258,衡阳市,衡阳化工总厂,,20,14,21,9,9,62,,74,70,7,5,8,11,0.4,0.4
2024-07-08T2000,2458A,112.6211,26.8956,衡阳市,珠晖区环保局,,,22,20,,,65,,76,72,5,4,7,11,0.5,0.5
2024-07-08T2000,2459A,112.6197,26.8733,衡阳市,市委党校,,19,18,19,9,9,60,,73,69,9,7,8,11,0.4,0.5
2024-07-08T2000,2460A,112.6006,26.8919,衡阳市,市监测站,,20,17,19,6,11,62,,76,72,8,8,9,12,0.4,0.4
2024-07-08T2000,2461A,112.5664,26.9056,衡阳市,真空机电公司,,,30,27,,13,45,,72,66,22,10,14,15,1.0,0.9
2024-07-08T2000,3399A,112.6703,26.882,衡阳市,师范学院,,20,9,18,6,10,62,,73,69,7,7,8,9,0.5,0.5
2024-07-08T2000,2608A,103.3772,23.3993,红河哈尼族彝族自治州,污水处理厂,,23,17,11,16,12,46,,51,51,5,5,4,4,0.4,0.4
2024-07-08T2000,2609A,103.3861,23.35,红河哈尼族彝族自治州,监测站,,,,11,,9,48,,51,51,6,4,,6,,0.4
2024-07-08T2000,3038A,103.3758,23.368,红河哈尼族彝族自治州,州图书馆,,15,13,12,10,7,47,,50,50,4,4,2,2,0.3,0.4
2024-07-08T2000,1090A,111.6507,40.7517,呼和浩特市,呼市一监,细颗粒物(PM2.5),59,66,38,42,27,123,,147,145,15,19,2,7,0.4,0.5
2024-07-08T2000,1091A,111.6572,40.8033,呼和浩特市,小召,,44,44,39,28,24,139,,144,144,16,21,6,6,0.5,0.5
2024-07-08T2000,1094A,111.7516,40.8369,呼和浩特市,如意水处理厂,,42,34,43,24,22,132,,143,143,11,21,6,6,0.4,0.5
2024-07-08T2000,1095A,111.7276,40.8062,呼和浩特市,二十九中,,,37,36,26,26,136,,145,145,,26,3,4,0.3,0.6
2024-07-08T2000,1096A,111.5512,40.7866,呼和浩特市,工大金川校区,,50,49,47,35,23,137,,143,143,19,35,6,6,0.5,0.5
2024-07-08T2000,1097A,111.717,40.7612,呼和浩特市,化肥厂生活区,,49,49,44,34,29,123,,146,144,20,21,8,8,0.6,0.6
2024-07-08T2000,3698A,111.5968,40.8178,呼和浩特市,红旗小学,颗粒物(PM10),52,53,47,31,25,133,,152,151,26,33,5,6,0.5,0.5
2024-07-08T2000,3699A,111.6518,40.8389,呼和浩特市,海东办,,,41,41,33,27,139,,148,148,16,30,4,5,,0.7
2024-07-08T2000,2192A,119.7594,49.2261,呼伦贝尔市,区环保局,细颗粒物(PM2.5),54,49,49,38,39,112,,121,121,17,17,5,6,0.5,0.6
2024-07-08T2000,3061A,119.7512,49.1577,呼伦贝尔市,国华电力东,细颗粒物(PM2.5),53,45,44,37,36,103,,121,120,9,9,4,4,0.4,0.4
2024-07-08T2000,1250A,120.0751,30.8669,湖州市,城西水厂,,22,22,25,12,13,68,,96,95,23,25,4,4,0.4,0.4
2024-07-08T2000,2873A,120.0875,30.8955,湖州市,仁皇山新区,,25,24,25,12,14,80,,106,105,18,22,6,6,0.5,0.6
2024-07-08T2000,2907A,120.1844,30.8596,湖州市,吴兴区站,,26,26,27,16,16,75,,107,102,21,19,6,6,0.5,0.5
2024-07-08T2000,3562A,120.4148,30.8538,湖州市,南浔区站,,30,25,33,18,20,93,,109,109,13,12,3,3,0.5,0.5
2024-07-08T2000,1607A,120.9092,40.7136,葫芦岛市,龙港区,细颗粒物(PM2.5),55,46,53,39,43,100,,121,118,24,24,7,14,0.8,0.8
2024-07-08T2000,1608A,120.8392,40.7514,葫芦岛市,化工街,细颗粒物(PM2.5),55,46,51,39,29,89,,109,104,28,35,13,14,1.1,1.1
2024-07-08T2000,1609A,120.8341,40.7073,葫芦岛市,新区,细颗粒物(PM2.5),65,60,56,47,29,100,,114,112,27,36,4,5,0.9,0.9
2024-07-08T2000,1610A,120.8695,40.7677,葫芦岛市,东城区,细颗粒物(PM2.5),63,52,45,45,42,90,,125,121,38,28,8,12,0.9,0.8
2024-07-08T2000,2482A,109.5981,27.5721,怀化市,林科所,,20,12,12,3,4,63,,74,71,5,4,5,7,0.7,0.7
2024-07-08T2000,2483A,109.9453,27.5444,怀化市,河西地税局,,16,16,14,7,8,49,,60,56,5,3,4,4,0.5,0.5
2024-07-08T2000,2484A,109.9781,27.5342,怀化市,市四医院,,16,16,14,3,8,50,,57,54,2,3,2,2,0.4,0.4
2024-07-08T2000,2485A,109.9972,27.5578,怀化市,监测楼,,16,9,16,7,7,49,,55,52,2,3,8,8,0.4,0.5
2024-07-08T2000,2486A,110.0394,27.583,怀化市,市委党校,,19,19,14,8,6,47,,51,49,2,3,5,5,0.4,0.4
2024-07-08T2000,1210A,119.036,33.5981,淮安市,钵池山,,33,29,22,16,14,105,,119,119,13,12,7,8,0.6,0.6
2024-07-08T2000,1211A,119.007,33.575,淮安市,北京南路,,39,,27,27,17,103,,117,117,11,14,6,9,0.6,0.8
2024-07-08T2000,1212A,118.989,33.6067,淮安市,市监测站,,39,36,26,27,15,100,,114,114,13,13,5,5,0.6,0.5
2024-07-08T2000,1213A,119.135,33.5039,淮安市,楚州区监测站,,39,39,32,20,15,99,,113,113,13,16,4,5,0.5,0.5
2024-07-08T2000,1214A,119.0186,33.6297,淮安市,淮阴区监测站,,29,29,22,16,12,89,,113,112,21,16,6,6,0.4,0.4
2024-07-08T2000,3426A,118.8755,33.2894,淮安市,新华书店,,,33,26,24,17,,,138,138,20,13,5,6,0.5,0.5
2024-07-08T2000,2282A,116.8004,33.975,淮北市,监测站,,29,26,29,20,19,71,,83,81,6,9,4,5,0.7,0.6
2024-07-08T2000,2283A,116.8091,33.9007,淮北市,烈山区政府,,29,29,33,20,19,77,,85,85,3,9,6,6,0.8,0.8
2024-07-08T2000,3330A,116.8873,33.9836,淮北市,杜集区检察院,,29,,32,20,25,87,,94,94,1,5,4,5,0.7,0.6
2024-07-08T2000,4017A,116.7923,33.9535,淮北市,市博物馆,,29,23,28,20,20,84,,95,93,3,8,3,4,0.8,0.7
2024-07-08T2000,2277A,116.8305,32.7727,淮南市,潘集区政府,,44,44,28,14,15,107,,91,91,8,7,2,4,0.2,0.2
2024-07-08T2000,2278A,117.0067,32.6524,淮南市,师范学院,,44,44,30,16,20,113,,102,102,6,4,8,8,0.0,0
2024-07-08T2000,2279A,116.8569,32.5951,淮南市,谢家集区政府,,34,25,22,3,6,106,,93,93,6,5,5,5,0.0,0.1
2024-07-08T2000,2280A,116.8281,32.633,淮南市,八公山区政府,,39,39,32,18,13,114,,98,98,6,4,5,5,0.2,0.2
2024-07-08T2000,2281A,116.6325,32.6201,淮南市,焦岗湖风景区管理处,,19,17,13,3,7,60,,54,54,7,6,5,5,0.2,0.1
2024-07-08T2000,2894A,117.0566,32.6531,淮南市,经济技术开发区消防队,,34,25,18,10,8,108,,99,99,8,5,4,4,0.4,0.3
2024-07-08T2000,3329A,117.0108,32.5893,淮南市,山南新区,,38,38,30,7,7,113,,102,102,8,6,1,2,0.4,0.3
2024-07-08T2000,2446A,114.9028,30.4742,黄冈市,职工中心,,35,35,30,18,15,68,,82,81,14,14,8,10,0.4,0.6
2024-07-08T2000,2929A,114.8858,30.4519,黄冈市,红卫路,,29,29,26,18,15,70,,86,84,15,14,8,9,0.3,0.3
2024-07-08T2000,3398A,114.9136,30.4445,黄冈市,市林业局,颗粒物(PM10),52,54,31,15,14,60,,92,86,21,14,8,9,0.4,0.4
2024-07-08T2000,2672A,102.0199,35.5102,黄南藏族自治州,同仁县隆务镇,,,,28,,14,,,94,,,4,,5,,0.4
2024-07-08T2000,2295A,118.2903,29.6963,黄山市,延安路89号,,42,42,30,13,8,77,,86,86,6,5,6,6,0.5,0.5
2024-07-08T2000,2296A,118.327,29.7178,黄山市,黄山东路89号,,29,29,22,16,9,77,,83,83,8,6,6,6,0.4,0.3
2024-07-08T2000,2297A,118.1371,30.2756,黄山市,黄山区政府5号楼,,25,20,20,17,10,66,,78,76,5,5,6,6,0.5,0.3
2024-07-08T2000,2423A,115.0601,30.2313,黄石市,沈家营,,31,31,27,11,9,73,,85,83,18,13,6,16,0.4,0.4
2024-07-08T2000,2424A,115.0817,30.2006,黄石市,陈家湾,,43,43,24,17,10,94,,92,92,5,4,8,7,0.4,0.4
2024-07-08T2000,2426A,114.8988,30.2019,黄石市,铁山,,33,33,33,9,9,79,,92,90,8,13,13,17,0.3,0.3
2024-07-08T2000,2427A,115.0307,30.2092,黄石市,团城山,,28,24,25,12,9,87,,90,89,6,4,4,7,0.3,0.3
2024-07-08T2000,3149A,115.0235,30.1578,黄石市,笔架山北路,,32,32,27,6,4,81,,82,82,2,4,7,7,0.4,0.4
2024-07-08T2000,1392A,114.4183,23.0528,惠州市,河南岸金山湖子站,,,36,22,18,12,51,,78,74,23,10,9,4,,0.4
2024-07-08T2000,1393A,114.4053,23.0822,惠州市,下埔横江三路子站,颗粒物(PM10),51,51,25,19,9,49,,84,78,29,10,8,6,0.6,0.5
2024-07-08T2000,1394A,114.4103,23.1142,惠州市,江北云山西路子站,,46,46,20,17,8,48,,85,77,33,10,6,4,0.6,0.4
2024-07-08T2000,1395A,114.4645,22.7833,惠州市,惠阳区承修路船湖子站,,17,17,18,11,11,46,,69,66,10,10,1,1,0.5,0.5
2024-07-08T2000,1396A,114.5317,22.7422,惠州市,大亚湾管委会子站,,20,12,17,10,9,61,,69,67,7,10,5,5,0.4,0.4
2024-07-08T2000,3314A,114.4338,22.8134,惠州市,惠阳秋长,,18,17,19,9,12,57,,95,89,5,8,4,5,0.4,0.5
2024-07-08T2000,3452A,114.6517,22.775,惠州市,大亚湾霞涌,,20,11,15,3,8,61,,63,63,3,6,3,4,0.5,0.4
2024-07-08T2000,2240A,130.9762,45.3001,鸡西市,环保局,,44,44,59,24,44,61,,80,76,12,10,6,7,0.4,0.5
2024-07-08T2000,2243A,130.9429,45.3039,鸡西市,第一中学,,43,43,60,21,39,66,,100,95,10,7,7,8,0.4,0.6
2024-07-08T2000,3707A,131.0207,45.3073,鸡西市,欧美日汽修厂,颗粒物(PM10),51,52,59,25,47,52,,86,80,14,13,4,5,0.4,0.6
2024-07-08T2000,3709A,130.9967,45.3106,鸡西市,市政设施管理处,,48,48,64,27,40,54,,90,85,16,17,8,8,0.3,0.5
2024-07-08T2000,2367A,114.9754,27.0803,吉安市,红声器材厂,,34,34,24,20,10,73,,87,85,12,8,13,14,0.4,0.5
2024-07-08T2000,2368A,114.9658,27.0999,吉安市,市森林工业局,,32,32,23,20,11,67,,85,81,19,10,12,12,0.4,0.4
2024-07-08T2000,2369A,114.99,27.1312,吉安市,市环境监测站,,25,24,22,12,9,79,,93,91,13,10,11,13,0.4,0.5
2024-07-08T2000,2370A,115.0093,27.0968,吉安市,青原区法院,,31,31,21,16,9,68,,84,82,16,10,16,15,0.7,0.5
2024-07-08T2000,1772A,126.54,43.8622,吉林市,哈达湾,,31,30,75,17,56,97,,106,106,16,16,6,7,0.6,0.8
2024-07-08T2000,1773A,126.5844,43.8358,吉林市,东局子,,33,26,69,23,56,98,,105,105,13,23,5,4,0.6,0.9
2024-07-08T2000,1774A,126.5052,43.8245,吉林市,电力学院,,38,38,66,25,55,94,,103,103,18,18,12,12,0.6,0.7
2024-07-08T2000,1775A,126.6133,43.8972,吉林市,江北,,32,32,74,18,52,85,,93,93,11,17,7,8,0.6,0.9
2024-07-08T2000,1776A,126.555,43.8306,吉林市,江南公园,,31,31,58,18,55,94,,100,100,21,24,3,3,0.6,1.3
2024-07-08T2000,1778A,126.7061,43.7133,吉林市,丰满,,,,,,,,,,,,,,,,
2024-07-08T2000,2868A,126.4739,43.953,吉林市,九站,,40,32,72,28,50,79,,103,103,32,19,39,10,0.4,0.6
2024-07-08T2000,1299A,116.9862,36.6114,济南市,科干所,,39,39,31,22,15,73,,94,84,26,27,6,7,0.7,0.5
2024-07-08T2000,1300A,116.9376,36.665,济南市,农科所,,39,39,31,12,9,92,,106,103,29,26,8,8,0.5,0.4
2024-07-08T2000,1301A,117.1265,36.6734,济南市,开发区,,29,29,33,12,11,86,,134,122,13,26,8,10,0.9,0.6
2024-07-08T2000,1303A,117.0624,36.6868,济南市,省种子仓库,,,,33,,10,,,58,,,28,,7,,0.4
2024-07-08T2000,1304A,116.9489,36.6447,济南市,机床二厂,,42,42,36,20,8,85,,112,102,31,26,9,10,0.4,0.3
2024-07-08T2000,1305A,117.0495,36.663,济南市,市监测站,,39,32,33,27,16,77,,133,119,33,25,9,10,0.7,0.5
2024-07-08T2000,1306A,116.7675,36.5484,济南市,长清党校,,32,,28,22,16,90,,94,91,10,18,8,8,0.7,0.5
2024-07-08T2000,1616A,117.6795,36.229,济南市,技术学院,,42,34,30,29,20,80,,103,96,24,20,9,11,1.7,1.2
2024-07-08T2000,1961A,117.532,36.6868,济南市,东山小学,颗粒物(PM10),51,51,36,32,14,93,,149,140,29,24,6,7,1.3,0.8
2024-07-08T2000,3059A,117.7161,36.2049,济南市,泰兴公司,细颗粒物(PM2.5),55,44,32,39,18,59,,83,72,32,22,9,10,1.4,0.9
2024-07-08T2000,3064A,117.6867,36.2171,济南市,莱芜战役纪念馆,,42,41,34,29,15,59,,84,74,23,19,8,10,1.6,1
2024-07-08T2000,3494A,117.1673,36.9782,济南市,济阳区政府,颗粒物(PM10),55,59,43,27,16,145,,180,180,14,20,6,9,0.4,0.4
2024-07-08T2000,3495A,117.1171,36.63,济南市,锦屏中学,,34,34,27,22,14,67,,131,110,14,18,9,10,0.6,0.3
2024-07-08T2000,3682A,116.9814,36.6819,济南市,济南四建,,42,39,31,29,16,88,,114,111,26,24,8,8,0.8,0.6
2024-07-08T2000,1653A,116.6251,35.4302,济宁市,火炬城,,25,19,26,12,17,79,,77,77,11,14,9,9,0.8,0.8
2024-07-08T2000,1655A,116.5491,35.4042,济宁市,电化厂,,25,23,22,17,16,80,,83,83,11,13,5,5,0.7,0.7
2024-07-08T2000,3500A,116.5814,35.3707,济宁市,北湖一中,,25,24,23,3,11,79,,82,82,11,11,6,6,0.8,0.7
2024-07-08T2000,3501A,116.8249,35.5593,济宁市,服务中心,,29,16,20,13,16,91,,81,81,11,14,2,2,0.6,0.5
2024-07-08T2000,3678A,116.5907,35.4054,济宁市,市第七中学,,37,37,26,14,14,80,,82,82,15,18,4,4,0.7,0.6
2024-07-08T2000,2255A,130.2751,46.8028,佳木斯市,佳纺,细颗粒物(PM2.5),65,70,57,47,44,84,,90,88,11,11,8,8,0.5,0.6
2024-07-08T2000,2256A,130.3995,46.8307,佳木斯市,发电厂,细颗粒物(PM2.5),65,58,57,47,50,84,,88,87,7,8,5,4,0.5,0.6
2024-07-08T2000,2257A,130.3258,46.7975,佳木斯市,环保局,细颗粒物(PM2.5),59,66,62,42,48,78,,83,80,13,13,6,7,0.7,0.8
2024-07-08T2000,2258A,130.3648,46.8032,佳木斯市,十一中,细颗粒物(PM2.5),63,53,56,45,52,91,,90,88,6,10,7,8,0.4,0.6
2024-07-08T2000,2259A,130.3794,46.7588,佳木斯市,四丰,,49,44,58,34,40,77,,77,76,8,9,1,1,0.8,0.9
2024-07-08T2000,1252A,120.7436,30.778,嘉兴市,清河小学,臭氧1小时,52,45,40,19,18,161,,152,150,11,13,6,6,0.6,0.6
2024-07-08T2000,1253A,120.726,30.7478,嘉兴市,嘉兴学院,,46,41,38,20,20,146,,135,134,13,16,2,2,0.6,0.5
2024-07-08T2000,2872A,120.7846,30.7525,嘉兴市,南湖区残联,臭氧1小时,67,41,37,22,22,173,,164,164,15,16,4,4,0.7,0.5
2024-07-08T2000,3407A,120.6916,30.7739,嘉兴市,秀洲住建,臭氧1小时,53,41,41,19,16,162,,147,147,16,14,3,3,0.7,0.7
2024-07-08T2000,1945A,98.2908,39.7711,嘉峪关市,气象局,颗粒物(PM10),120,190,355,53,129,135,,133,133,7,12,3,10,0.3,0.4
2024-07-08T2000,2884A,98.2672,39.7978,嘉峪关市,酒钢宾馆,颗粒物(PM10),123,195,354,58,130,140,,134,134,8,11,11,32,0.1,0.4
2024-07-08T2000,3248A,98.2643,39.7724,嘉峪关市,雄关区,颗粒物(PM10),113,176,310,59,98,131,,128,128,10,16,6,11,0.2,0.5
2024-07-08T2000,1383A,113.1064,22.6058,江门市,北街,,16,,13,11,8,43,,72,67,6,7,3,3,0.3,0.4
2024-07-08T2000,1384A,113.0731,22.5835,江门市,西区,,27,27,12,13,6,40,,72,67,7,8,5,5,0.3,0.3
2024-07-08T2000,1385A,113.0219,22.5311,江门市,圭峰西,,19,13,14,13,8,36,,64,60,11,8,4,4,0.6,0.6
2024-07-08T2000,1386A,113.0828,22.5947,江门市,东湖,,26,22,14,18,8,41,,71,66,8,8,4,5,0.3,0.3
2024-07-08T2000,3311A,113.1075,22.5647,江门市,江海富民,,29,,20,20,10,43,,73,69,8,7,5,5,0.5,0.5
2024-07-08T2000,3449A,113.05,22.4667,江门市,新会银湖,,15,15,14,9,5,36,,61,58,11,11,5,4,0.5,0.5
2024-07-08T2000,1828A,113.227,35.2125,焦作市,市环保局,,29,25,31,20,20,82,,91,89,7,5,3,3,0.4,0.5
2024-07-08T2000,1830A,113.1992,35.2590,焦作市,影视城,,,,,,,,,,,,,,,,
2024-07-08T2000,3169A,113.2725,35.2067,焦作市,太极体育中心,,29,28,32,17,20,91,,96,93,7,7,1,3,0.2,0.3
2024-07-08T2000,3335A,113.3137,35.2641,焦作市,马村街道办,,29,20,24,20,20,92,,104,93,6,7,6,5,0.4,0.5
2024-07-08T2000,3336A,113.2465,35.2373,焦作市,焦作技师学院,,22,22,28,14,20,65,,75,74,6,6,1,2,0.2,0.5
2024-07-08T2000,3477A,113.1656,35.2539,焦作市,中站许衡医院,,28,18,25,17,20,89,,93,93,8,8,4,4,0.4,0.6
2024-07-08T2000,3981A,113.2449,35.1803,焦作市,原李万街道办,,31,31,28,9,19,81,,88,87,6,5,5,6,0.4,0.5
2024-07-08T2000,1708A,116.3701,23.5345,揭阳市,新兴,,28,22,22,19,9,62,,81,77,13,12,3,4,0.7,0.6
2024-07-08T2000,1709A,116.3264,23.5443,揭阳市,西马,,43,38,26,30,11,48,,78,74,18,8,3,3,0.9,0.7
2024-07-08T2000,1710A,116.3611,23.5626,揭阳市,东兴,,26,26,25,13,8,56,,82,78,13,8,2,2,0.8,0.7
2024-07-08T2000,1711A,116.4151,23.5294,揭阳市,渔湖,,24,24,25,7,10,60,,80,74,16,15,3,3,0.7,0.7
2024-07-08T2000,3320A,116.403,23.5699,揭阳市,曲溪,,26,26,19,17,10,58,,86,79,13,11,4,4,0.6,0.6
2024-07-08T2000,1944A,102.1692,38.5167,金昌市,天庆家园,,36,29,47,19,40,113,,111,111,9,11,13,10,0.6,0.6
2024-07-08T2000,3170A,102.1864,38.5253,金昌市,市委党校,,41,41,60,18,38,105,,111,111,12,12,20,10,0.5,0.6
2024-07-08T2000,4022A,102.1647,38.5371,金昌市,金川区人防中心,,41,41,51,18,41,126,,129,129,8,11,10,10,0.8,0.7
2024-07-08T2000,1262A,119.647,29.077,金华市,十五中,,48,48,30,10,13,88,,117,100,16,14,3,3,0.5,0.4
2024-07-08T2000,1263A,119.686,29.1029,金华市,监测站,,42,42,30,18,16,92,,114,99,13,10,3,3,0.4,0.4
2024-07-08T2000,3659A,119.656,29.1131,金华市,气象局,,39,39,27,12,10,91,,113,100,15,10,6,6,0.3,0.5
2024-07-08T2000,1767A,121.1115,41.0879,锦州市,南山,细颗粒物(PM2.5),67,58,44,48,35,86,,117,114,16,14,5,6,1.0,0.7
2024-07-08T2000,1768A,121.0533,40.8434,锦州市,开发区,"颗粒物(PM10),细颗粒物(PM2.5)",63,76,57,45,37,84,,123,116,24,32,8,13,1.1,1
2024-07-08T2000,1769A,121.1836,41.1119,锦州市,百股街道,细颗粒物(PM2.5),55,53,45,39,31,83,,119,116,21,17,7,13,0.9,0.9
2024-07-08T2000,1770A,121.1178,41.1222,锦州市,天安街道,细颗粒物(PM2.5),65,61,47,47,30,96,,108,108,11,17,5,7,1.0,0.8
2024-07-08T2000,1771A,121.1303,41.1386,锦州市,北湖公园,细颗粒物(PM2.5),82,,42,60,39,89,,104,103,4,6,5,6,1.0,0.7
2024-07-08T2000,2160A,112.85,35.5051,晋城市,自来水公司,,33,33,28,19,15,99,,115,115,19,12,4,5,0.8,0.8
2024-07-08T2000,2161A,112.8318,35.4936,晋城市,白云商贸,,33,33,29,17,12,95,,116,115,20,12,6,6,0.7,0.8
2024-07-08T2000,2162A,112.8508,35.4887,晋城市,市环保局,,32,32,26,17,17,94,,112,112,22,13,5,5,0.8,0.8
2024-07-08T2000,2163A,112.8676,35.4897,晋城市,技术学院,,33,33,25,19,16,95,,120,118,32,14,6,6,0.9,0.8
2024-07-08T2000,2165A,112.8453,35.546,晋城市,白马寺,,,,,,,,,,,,,,,,
2024-07-08T2000,3620A,112.8271,35.4828,晋城市,泽州一中,,31,,17,12,12,98,,122,120,18,11,7,8,0.8,0.9
2024-07-08T2000,2171A,112.7532,37.6945,晋中市,锦纶小区,颗粒物(PM10),56,61,57,34,36,159,,169,168,10,12,8,8,0.5,0.7
2024-07-08T2000,2173A,112.7249,37.7067,晋中市,南都小区,颗粒物(PM10),61,72,64,42,42,159,,172,170,11,12,6,7,0.5,0.6
2024-07-08T2000,2174A,112.6991,37.6982,晋中市,榆次区政府,"颗粒物(PM10),细颗粒物(PM2.5)",53,56,59,37,32,156,,165,163,12,15,7,7,0.4,0.5
2024-07-08T2000,2865A,112.7195,37.6828,晋中市,榆次三中,颗粒物(PM10),54,58,60,31,32,160,,172,170,11,11,6,7,0.6,0.7
2024-07-08T2000,2439A,112.2014,31.0481,荆门市,竹园小学,,30,29,26,17,13,94,,86,86,12,8,9,10,0.5,0.4
2024-07-08T2000,2440A,112.1969,30.9891,荆门市,掇刀,,34,34,27,12,12,103,,89,89,15,12,9,9,0.5,0.5
2024-07-08T2000,2441A,112.2213,31.0386,荆门市,石化一小,,32,32,26,11,11,98,,91,91,11,10,19,16,0.5,0.4
2024-07-08T2000,3012A,112.1849,31.0362,荆门市,西山林语,,32,26,23,16,12,100,,88,88,9,6,7,9,0.5,0.5
2024-07-08T2000,3547A,112.1632,31.0138,荆门市,龙泉中学南校,,30,21,20,12,10,95,,85,85,13,9,8,8,0.5,0.5
2024-07-08T2000,1844A,112.2494,30.3197,荆州市,市图书馆,,28,21,20,15,12,88,,93,93,8,8,7,7,0.5,0.5
2024-07-08T2000,1845A,112.2008,30.3544,荆州市,市委党校,,36,25,17,25,14,91,,94,94,14,10,7,7,0.4,0.4
2024-07-08T2000,3194A,112.2747,30.3122,荆州市,管委会,,29,28,17,20,13,82,,96,96,18,9,6,7,0.5,0.4
2024-07-08T2000,3548A,112.1655,30.3364,荆州市,学苑路,,33,29,24,23,15,89,,94,94,11,8,6,7,0.5,0.4
2024-07-08T2000,2342A,117.3102,29.3867,景德镇市,王港中学,,,,,,,,,,,,,,,,
2024-07-08T2000,2343A,117.2117,29.2933,景德镇市,老干部活动中心,,29,29,16,17,9,75,,86,85,10,8,7,8,0.2,0.2
2024-07-08T2000,2344A,117.1894,29.2789,景德镇市,兽医站,,24,20,21,15,12,75,,90,89,12,17,11,18,0.4,0.5
2024-07-08T2000,2345A,117.1547,29.2617,景德镇市,台达陶瓷,,26,26,20,12,14,59,,65,65,4,14,12,27,0.2,0.2
2024-07-08T2000,2346A,117.2461,29.2956,景德镇市,陶研所,,20,20,16,7,6,55,,84,81,7,6,4,4,0.3,0.3
2024-07-08T2000,1803A,115.9872,29.6815,九江市,十里,,32,30,19,15,10,100,,102,102,9,11,10,11,0.6,0.5
2024-07-08T2000,1804A,115.9584,29.7046,九江市,茅山头,,36,,16,25,10,108,,112,112,7,9,9,12,0.5,0.5
2024-07-08T2000,1805A,115.9877,29.7295,九江市,西园,,32,24,16,16,8,101,,110,109,20,20,9,12,0.8,0.7
2024-07-08T2000,1806A,116.0172,29.6547,九江市,五七二七厂,,35,21,13,17,10,110,,112,112,9,9,10,10,0.8,0.6
2024-07-08T2000,1808A,115.9114,29.6038,九江市,综合工业园,,38,29,18,14,10,121,,126,126,6,14,8,12,0.7,0.7
2024-07-08T2000,1809A,116.0721,29.7535,九江市,石化总厂,,27,23,24,16,14,84,,113,110,18,14,11,13,0.6,0.6
2024-07-08T2000,1810A,115.9773,29.5698,九江市,庐山气象台,,34,22,13,13,11,108,,108,108,2,1,7,10,1.0,0.8
2024-07-08T2000,3190A,116.0254,29.6994,九江市,外国语学校,,37,28,22,18,10,116,,125,125,11,13,10,14,0.5,0.5
2024-07-08T2000,2658A,98.5061,39.7443,酒泉市,仓门街子站,颗粒物(PM10),124,197,397,67,139,134,,138,138,5,9,6,10,0.1,0.3
2024-07-08T2000,2659A,98.4989,39.7256,酒泉市,油田生活基地,颗粒物(PM10),129,207,409,78,200,144,,143,143,6,14,6,11,0.1,0.2
2024-07-08T2000,2698A,76.0072,39.4467,喀什地区,巡警大队,颗粒物(PM10),52,54,89,14,14,145,,132,132,6,22,3,3,0.1,0.3
2024-07-08T2000,2699A,75.9755,39.4694,喀什地区,吾办,颗粒物(PM10),51,52,84,26,27,137,,129,129,13,19,2,2,0.3,0.3
2024-07-08T2000,4027A,75.9483,39.4689,喀什地区,老干局,颗粒物(PM10),51,51,114,3,15,145,,135,135,6,21,4,4,0.3,0.4
2024-07-08T2000,1824A,114.3389,34.7781,开封市,肿瘤医院,,35,7,13,3,5,112,,95,95,1,3,2,2,0.4,0.5
2024-07-08T2000,1826A,114.2885,34.7965,开封市,世纪星幼儿园,,38,,12,3,7,119,,105,105,1,3,3,3,0.3,0.4
2024-07-08T2000,3147A,114.3438,34.8106,开封市,龙亭公园,,35,6,9,3,6,109,,96,96,5,6,2,2,0.3,0.4
2024-07-08T2000,3210A,114.3644,34.7964,开封市,汴京公园,,,,20,,21,,,65,,,6,,3,,0.5
2024-07-08T2000,3473A,114.2485,34.8306,开封市,技师学院,,36,8,11,3,7,113,,101,101,4,5,2,2,0.8,0.9
2024-07-08T2000,3592A,114.4644,34.7556,开封市,祥符区生态环境局,,30,14,17,8,10,96,,85,85,18,15,3,2,1.6,1.2
2024-07-08T2000,1951A,84.895,45.6094,克拉玛依市,长征新村,,42,21,26,3,8,133,,137,136,7,15,10,11,0.2,0.3
2024-07-08T2000,1952A,84.8988,45.5893,克拉玛依市,南林小区,,38,21,26,3,15,119,,131,130,13,23,6,6,0.1,0.3
2024-07-08T2000,1954A,84.905,44.3396,克拉玛依市,独山子区,,46,32,29,16,9,147,,139,139,14,11,19,9,0.7,0.4
2024-07-08T2000,1955A,85.6979,46.098,克拉玛依市,乌尔禾区商贸楼,,39,13,20,3,5,124,,123,123,2,12,4,4,0.4,0.4
2024-07-08T2000,3612A,85.1045,45.6899,克拉玛依市,白碱滩区新站,,44,10,18,10,13,138,,133,133,4,9,6,6,0.2,0.2
2024-07-08T2000,2697A,76.1454,39.7142,克孜勒苏柯尔克孜自治州,市人民政府,,45,42,63,20,23,144,,138,138,1,8,8,12,0.3,0.3
2024-07-08T2000,3665A,76.1658,39.7157,克孜勒苏柯尔克孜自治州,克州文化中心,,47,47,55,19,26,147,,140,140,4,7,10,12,0.4,0.4
2024-07-08T2000,1450A,102.8204,24.8886,昆明市,呈贡新区,,16,15,17,3,7,50,,55,55,6,7,6,5,0.0,0.2
2024-07-08T2000,1451A,102.6251,24.9608,昆明市,西山森林公园,,,,,,,,,,,,,,,,
2024-07-08T2000,1452A,102.7252,25.0902,昆明市,龙泉镇,,16,16,13,3,4,48,,57,56,8,7,7,7,0.5,0.5
2024-07-08T2000,1453A,102.7266,25.0375,昆明市,东风东路,,14,12,13,7,8,42,,50,50,11,10,2,2,0.2,0.3
2024-07-08T2000,1454A,102.6742,25.0669,昆明市,金鼎山,,20,20,14,3,5,44,,52,51,11,9,8,7,0.2,0.3
2024-07-08T2000,1455A,102.6644,25.0401,昆明市,碧鸡广场,,15,15,14,3,7,44,,53,52,12,9,3,3,0.3,0.4
2024-07-08T2000,3179A,102.7494,25.0119,昆明市,官渡区博物馆,,17,11,12,11,5,52,,56,56,6,6,6,6,0.3,0.4
2024-07-08T2000,3375A,102.8017,24.8336,昆明市,青年创业园,,16,6,12,6,7,49,,54,53,3,6,7,8,0.2,0.3
2024-07-08T2000,3550A,102.7997,24.9786,昆明市,昆明学院,,17,12,14,3,7,52,,57,57,7,6,4,4,0.3,0.4
2024-07-08T2000,3551A,102.5967,24.6736,昆明市,晋宁区生态环境分局,,15,12,12,3,6,47,,48,48,3,6,7,6,0.3,0.4
2024-07-08T2000,3552A,102.6678,24.9856,昆明市,云天化总部,,16,13,6,3,6,49,,54,54,4,4,2,2,0.4,0.4
2024-07-08T2000,1456A,91.1319,29.6514,拉萨市,八廓街,,25,9,12,7,7,79,,81,81,11,10,6,6,0.3,0.2
2024-07-08T2000,1457A,91.1221,29.6747,拉萨市,市环保局,,25,8,8,3,5,78,,78,78,12,11,8,8,0.4,0.3
2024-07-08T2000,1458A,91.0874,29.6475,拉萨市,区监测站,,22,8,7,3,6,70,,75,75,13,9,7,7,0.6,0.4
2024-07-08T2000,1459A,91.1774,29.6541,拉萨市,西藏大学,,25,9,8,3,6,80,,81,81,7,8,8,8,0.1,0.1
2024-07-08T2000,1460A,90.9798,29.6588,拉萨市,区辐射站,,20,19,10,6,6,62,,72,72,25,11,12,7,0.3,0.2
2024-07-08T2000,1461A,91.0834,29.6292,拉萨市,拉萨火车站,,,7,9,7,6,73,,74,74,,8,9,8,0.4,0.1
2024-07-08T2000,2520A,109.2203,23.7256,来宾市,来宾技工学校,,18,,19,12,10,53,,72,70,5,6,6,9,0.5,0.6
2024-07-08T2000,3535A,109.1781,23.7297,来宾市,兴宾区政府,,18,,18,12,9,52,,71,69,7,8,5,4,0.6,0.5
2024-07-08T2000,4002A,109.2416,23.7461,来宾市,中南小学,,29,,21,20,11,56,,73,71,9,7,6,8,0.6,0.6
2024-07-08T2000,1476A,103.631,36.1031,兰州市,兰炼宾馆,,40,40,35,28,25,120,,126,126,13,14,11,12,0.4,0.4
2024-07-08T2000,1477A,104.1373,35.9454,兰州市,榆中兰大校区,,,,,,,,,,,,,,,,
2024-07-08T2000,1478A,103.8412,36.0726,兰州市,生物制品所,,45,43,33,31,23,114,,110,110,13,14,12,16,0.4,0.4
2024-07-08T2000,1479A,103.831,36.0464,兰州市,铁路设计院,,46,46,36,27,19,107,,110,110,28,26,9,9,0.6,0.6
2024-07-08T2000,3186A,103.7158,36.1058,兰州市,教育港,,44,44,34,27,22,120,,125,125,11,14,14,13,0.4,0.4
2024-07-08T2000,3241A,103.7439,36.0842,兰州市,百合公园,,39,36,30,27,20,118,,113,113,12,16,12,9,0.6,0.7
2024-07-08T2000,3242A,103.9611,35.998,兰州市,和平,,39,38,35,26,18,124,,126,126,15,14,7,9,0.6,0.6
2024-07-08T2000,3245A,103.6633,36.533,兰州新区,新区管委会,,42,37,28,23,20,134,,132,132,9,9,18,16,0.4,0.5
2024-07-08T2000,3246A,103.6975,36.4789,兰州新区,舟曲中学,,39,18,30,11,19,124,,122,122,9,10,6,9,0.5,0.5
2024-07-08T2000,1067A,116.6708,39.5111,廊坊市,药材公司,,,39,30,29,18,140,,156,154,16,6,,3,,0.5
2024-07-08T2000,1068A,116.7214,39.5589,廊坊市,开发区,,44,44,33,30,19,127,,148,146,12,9,3,3,0.6,0.5
2024-07-08T2000,1070A,116.7244,39.5269,廊坊市,北华航天学院,,49,49,37,28,17,123,,143,141,15,9,3,3,0.6,0.5
2024-07-08T2000,2919A,116.7022,39.5453,廊坊市,河北工业大学,颗粒物(PM10),52,54,39,27,17,127,,150,147,20,10,3,3,0.6,0.5
2024-07-08T2000,2535A,103.7723,29.5462,乐山市,花湖湾,,14,,12,3,14,42,,36,36,12,20,2,3,0.3,0.4
2024-07-08T2000,2536A,103.7627,29.5844,乐山市,牛耳桥,,13,8,19,3,14,40,,43,43,20,21,2,3,0.7,0.7
2024-07-08T2000,2537A,103.7508,29.6006,乐山市,市第三水厂,,15,9,20,3,14,46,,47,47,17,21,2,3,0.4,0.5
2024-07-08T2000,2538A,103.7571,29.5664,乐山市,市监测站,,15,9,20,3,14,47,,46,46,16,19,2,2,0.5,0.6
2024-07-08T2000,3361A,103.7311,29.5628,乐山市,理工大学,,18,7,18,3,14,56,,50,50,15,17,6,5,0.4,0.4
2024-07-08T2000,2598A,100.2143,26.8576,丽江市,西南郊,,,,,,,,,,,,,,,,
2024-07-08T2000,2599A,100.2497,26.8802,丽江市,丽江古城,,20,19,16,14,10,26,,34,32,15,10,6,6,0.7,0.6
2024-07-08T2000,2600A,100.2203,26.8906,丽江市,市中心,,,,7,0,6,28,,28,,,8,17,10,1.3,0.6
2024-07-08T2000,1267A,119.914,28.4514,丽水市,监测站大楼,,24,12,23,11,12,74,,80,73,7,9,3,3,0.3,0.4
2024-07-08T2000,1268A,119.93,28.4586,丽水市,莲都小学,,25,18,27,3,8,79,,86,77,7,11,3,4,0.4,0.5
2024-07-08T2000,1269A,119.879,28.4231,丽水市,余庄前,,22,15,22,9,13,69,,71,68,5,8,2,2,0.4,0.5
2024-07-08T2000,1173A,119.176,34.5885,连云港市,市环境监测站,,28,19,11,19,8,82,,80,76,18,14,4,4,0.6,0.4
2024-07-08T2000,3000A,119.3581,34.6972,连云港市,德源药业,,29,24,9,17,5,92,,95,82,15,13,3,3,1.0,0.5
2024-07-08T2000,3007A,119.178,34.844,连云港市,新城一中,,29,18,11,14,6,92,,92,88,19,15,3,3,1.1,0.7
2024-07-08T2000,3008A,119.3608,34.7519,连云港市,胡沟管理处,,31,31,8,19,3,40,,80,77,55,16,6,5,1.3,0.8
2024-07-08T2000,3009A,119.1478,34.5911,连云港市,矿山设计院,,24,24,10,14,6,76,,79,74,19,13,3,3,0.5,0.3
2024-07-08T2000,3434A,119.2413,34.6539,连云港市,工贸学校,,27,27,9,16,6,76,,87,86,13,7,5,5,0.9,0.8
2024-07-08T2000,3664A,119.4172,34.7341,连云港市,连云街道,,39,39,14,27,7,96,,82,77,18,21,1,2,1.3,0.8
2024-07-08T2000,2571A,102.3431,27.8099,凉山彝族自治州,青龙寺,,18,18,15,3,7,36,,49,48,7,6,6,4,0.5,0.4
2024-07-08T2000,2572A,102.2721,27.8415,凉山彝族自治州,邛海宾馆,,17,17,14,9,8,39,,52,52,12,10,10,13,0.6,0.6
2024-07-08T2000,2573A,102.2625,27.898,凉山彝族自治州,西昌市政府,,23,23,16,16,9,48,,54,54,13,9,14,15,0.8,0.7
2024-07-08T2000,2574A,102.2685,27.8851,凉山彝族自治州,凉山州政府,,20,20,19,10,9,52,,56,56,10,10,12,13,0.7,0.7
2024-07-08T2000,2575A,102.237,27.8914,凉山彝族自治州,长安,,28,28,21,13,10,57,,57,57,12,12,15,18,0.5,0.9
2024-07-08T2000,2212A,123.2,41.1953,辽阳市,宏伟区,,46,46,46,32,26,59,,72,72,23,14,9,8,0.9,1.1
2024-07-08T2000,2213A,123.1683,41.2495,辽阳市,新华园,,46,41,43,32,27,76,,85,85,25,19,11,10,1.4,0.9
2024-07-08T2000,2214A,123.2354,41.2639,辽阳市,滨河路,,42,32,38,29,27,69,,78,77,26,19,8,8,0.8,0.7
2024-07-08T2000,2215A,123.149,41.2991,辽阳市,铁西工业园,,43,,45,30,26,54,,80,77,26,17,8,9,1.1,1.1
2024-07-08T2000,2227A,125.1358,42.8845,辽源市,环保局,细颗粒物(PM2.5),64,61,44,46,36,114,,110,110,16,12,7,9,0.7,0.9
2024-07-08T2000,3239A,125.0764,42.9078,辽源市,银鹰制药,细颗粒物(PM2.5),64,52,43,46,36,117,,110,110,11,13,5,5,0.8,1.1
2024-07-08T2000,1625A,115.9848,36.4372,聊城市,区政府,,40,12,27,9,13,126,,121,121,11,15,7,9,0.5,0.5
2024-07-08T2000,2878A,116.0072,36.4343,聊城市,聊大东校,,41,,20,16,20,131,,131,131,9,12,5,7,0.5,0.5
2024-07-08T2000,3200A,115.9819,36.4978,聊城市,监控中心,,36,24,24,12,14,115,,114,114,15,17,8,8,0.4,0.4
2024-07-08T2000,3513A,116.0445,36.4361,聊城市,九州社区,,36,22,33,14,15,115,,114,114,14,13,6,7,0.7,0.7
2024-07-08T2000,4018A,116.0567,36.4608,聊城市,星美广场,,35,28,38,18,14,111,,112,112,21,20,11,6,0.8,0.7
2024-07-08T2000,2632A,94.3681,29.6376,林芝市,林芝监测站,,13,7,5,3,4,40,,42,42,1,3,7,7,0.3,0.3
2024-07-08T2000,2633A,94.3616,29.6616,林芝市,林芝人民医院,,12,7,9,3,5,38,,43,43,3,6,9,9,0.1,0.1
2024-07-08T2000,2603A,100.0781,23.8982,临沧市,市环保局,,23,,19,16,14,44,,50,50,7,9,4,4,0.2,0.3
2024-07-08T2000,2604A,100.0894,23.8822,临沧市,市气象局,,23,18,20,16,15,37,,48,48,13,10,4,4,0.5,0.5
2024-07-08T2000,1733A,111.5531,36.0783,临汾市,临钢医院,,46,46,43,16,19,110,,126,121,11,12,6,9,0.6,1.1
2024-07-08T2000,1734A,111.5028,36.0714,临汾市,技工学校,,39,,33,27,24,115,,135,130,12,14,5,9,0.6,1
2024-07-08T2000,1736A,111.5018,36.0855,临汾市,市委,,50,50,48,17,17,120,,142,135,10,13,7,9,0.8,1.2
2024-07-08T2000,3018A,111.505,36.1014,临汾市,唐尧大酒店,,35,28,29,8,14,110,,137,131,14,14,4,6,0.7,1.1
2024-07-08T2000,3668A,111.5036,36.0414,临汾市,城南,,35,,36,20,25,111,,122,113,7,13,4,6,0.8,1.3
2024-07-08T2000,2667A,103.2069,35.5993,临夏回族自治州,环保局,,35,34,28,24,27,74,,96,94,10,6,7,6,0.5,0.4
2024-07-08T2000,2668A,103.2417,35.6057,临夏回族自治州,建设大厦,,32,25,28,22,22,78,,99,98,11,12,9,10,0.4,0.4
2024-07-08T2000,1618A,118.3429,35.0532,临沂市,沂河小区,,36,36,13,25,11,79,,88,88,29,20,8,8,0.6,0.7
2024-07-08T2000,1619A,118.295,35.0583,临沂市,鲁南制药厂,,29,29,9,19,10,77,,90,90,17,11,8,8,0.8,0.8
2024-07-08T2000,1620A,118.2794,34.9976,临沂市,新光毛纺厂,,25,24,8,16,11,80,,91,91,22,16,5,4,0.8,0.9
2024-07-08T2000,1621A,118.3956,35.0888,临沂市,河东保险公司,,40,34,13,28,9,60,,78,78,20,10,4,4,0.7,0.9
2024-07-08T2000,3370A,118.3564,35.0215,临沂市,十里堡居委,,39,,5,27,11,74,,89,88,19,13,8,8,0.7,0.9
2024-07-08T2000,3496A,118.3604,35.1084,临沂市,南坊新区,,35,29,12,24,6,72,,91,90,24,14,7,6,0.9,1.1
2024-07-08T2000,3860A,118.3920,35.0300,临沂市,皇山花园小区,,38,29,12,26,13,71,,82,82,25,20,7,6,0.9,1.2
2024-07-08T2000,1870A,109.4856,24.3895,柳州市,柳东小学,,28,13,17,10,9,89,,85,85,8,9,7,7,0.5,0.5
2024-07-08T2000,1871A,109.4157,24.3277,柳州市,环保监测站,,,21,21,17,12,79,,83,83,9,8,7,7,,0.5
2024-07-08T2000,1872A,109.389,24.341,柳州市,河西水厂,,25,17,19,9,11,79,,84,84,8,7,7,7,0.4,0.4
2024-07-08T2000,1873A,109.4311,24.2921,柳州市,市四中,,25,19,21,16,12,79,,88,88,11,8,5,5,0.3,0.3
2024-07-08T2000,1874A,109.4006,24.3631,柳州市,市九中,,32,32,26,8,9,79,,85,85,11,11,4,4,0.4,0.5
2024-07-08T2000,1875A,109.4958,24.3134,柳州市,古亭山,,27,18,19,9,12,85,,87,87,11,11,6,6,0.4,0.4
2024-07-08T2000,3402A,109.5422,24.3996,柳州市,市二中,,28,17,19,9,9,87,,88,88,9,10,9,7,0.5,0.5
2024-07-08T2000,2307A,116.5079,31.737,六安市,监测大楼,,30,,17,18,11,95,,90,90,7,10,5,7,0.4,0.3
2024-07-08T2000,2308A,116.4738,31.7643,六安市,皖西学院,,35,35,21,11,10,90,,90,90,5,4,4,4,0.3,0.2
2024-07-08T2000,2309A,116.4996,31.7905,六安市,朝阳厂,,28,12,14,11,11,89,,86,86,3,3,8,8,0.3,0.2
2024-07-08T2000,2310A,116.5567,31.7886,六安市,开发区,,33,33,26,20,18,89,,87,87,6,6,6,7,0.6,0.6
2024-07-08T2000,2576A,104.8,26.5892,六盘水市,窑上,,,,,,,,,,,,,,,,
2024-07-08T2000,2577A,104.83,26.5917,六盘水市,黄土坡,,27,16,13,11,7,84,,79,79,8,7,5,5,0.4,0.4
2024-07-08T2000,2578A,104.89,26.5939,六盘水市,水钢,,28,26,21,3,8,89,,80,80,6,5,11,10,0.3,0.3
2024-07-08T2000,2579A,104.8475,26.5894,六盘水市,民中,,27,20,14,14,7,84,,76,76,8,8,7,6,0.3,0.3
2024-07-08T2000,2580A,104.9544,26.5506,六盘水市,双水,,29,19,16,7,8,90,,86,86,7,5,6,6,0.2,0.2
2024-07-08T2000,2335A,117.0189,25.1181,龙岩市,龙岩师专,,,,,,,,,,,,,,,,
2024-07-08T2000,2336A,117.0217,25.1033,龙岩市,龙岩市监测站,,15,8,16,7,8,45,,57,54,7,10,5,8,0.4,0.4
2024-07-08T2000,2337A,117.0258,25.0661,龙岩市,闽西职业技术学院,,18,18,20,8,12,47,,57,55,5,9,4,15,0.4,0.4
2024-07-08T2000,2338A,117.0196,25.0306,龙岩市,龙岩学院,,18,,10,12,4,41,,54,53,5,3,5,4,0.4,0.3
2024-07-08T2000,2665A,105.0822,33.3261,陇南市,汉王镇固水子,,,,,,,,,,,,,,,,
2024-07-08T2000,2885A,104.9339,33.3826,陇南市,滨江中学,,41,41,34,9,6,48,,74,72,14,15,3,4,0.4,0.7
2024-07-08T2000,3247A,104.955,33.371,陇南市,市总工会,,24,24,24,12,10,50,,71,69,7,10,6,6,0.2,0.3
2024-07-08T2000,2487A,111.9589,27.8901,娄底市,电视发射台,,26,26,23,9,10,54,,74,68,8,5,9,7,0.7,0.5
2024-07-08T2000,2488A,111.9975,27.725,娄底市,市监测站,,,9,22,3,12,67,,78,75,7,4,,7,0.5,0.4
2024-07-08T2000,2489A,112.0194,27.7314,娄底市,市委党校,,25,25,21,11,14,61,,68,67,5,4,8,7,0.6,0.6
2024-07-08T2000,2490A,111.9561,27.7569,娄底市,涟钢,颗粒物(PM10),70,90,52,40,23,38,,52,50,33,32,27,39,0.9,1.6
2024-07-08T2000,2491A,111.9892,27.7044,娄底市,市政府,,22,15,19,10,11,69,,75,74,4,4,11,10,0.3,0.2
2024-07-08T2000,1893A,105.4324,28.9634,泸州市,九狮山,,18,18,33,12,21,36,,63,57,14,14,4,5,0.5,0.5
2024-07-08T2000,1894A,105.4427,28.9063,泸州市,小市上码头,,19,19,42,11,28,8,,36,21,11,11,6,6,0.3,0.4
2024-07-08T2000,1895A,105.4241,28.8573,泸州市,兰田宪桥,,17,16,36,11,35,52,,82,75,11,12,5,5,0.3,0.4
2024-07-08T2000,1896A,105.4379,28.8833,泸州市,市环监站,,20,20,46,13,32,42,,75,69,12,11,6,6,0.4,0.5
2024-07-08T2000,3490A,105.3617,28.7703,泸州市,纳溪区环保局,,,17,39,17,34,59,,83,76,10,13,,1,,0.5
2024-07-08T2000,2183A,111.1406,37.5211,吕梁市,环保局,,,44,51,32,27,116,,167,162,15,20,1,4,,0.6
2024-07-08T2000,2185A,111.1297,37.5136,吕梁市,自来水公司,,46,46,59,31,29,123,,172,168,16,22,2,4,0.7,0.6
2024-07-08T2000,2867A,111.1283,37.51,吕梁市,马茂庄小学,颗粒物(PM10),53,56,58,32,28,117,,178,172,21,26,2,4,0.8,0.7
2024-07-08T2000,1812A,112.3931,34.6516,洛阳市,市委党校,,28,15,19,14,20,88,,91,90,14,6,2,2,0.6,0.8
2024-07-08T2000,1814A,112.4657,34.6871,洛阳市,豫西宾馆,,35,14,23,11,19,109,,108,107,9,11,3,3,0.4,0.6
2024-07-08T2000,1815A,112.494,34.6886,洛阳市,河南林校,,31,,13,16,17,97,,100,99,10,11,1,2,0.4,0.6
2024-07-08T2000,1816A,112.3844,34.623,洛阳市,开发区管委会,,32,16,21,15,18,101,,106,104,6,5,7,8,0.4,0.5
2024-07-08T2000,1817A,112.4267,34.6258,洛阳市,市委新办公区,,33,,19,17,20,104,,105,104,7,5,5,5,0.5,0.6
2024-07-08T2000,3340A,112.6005,34.6326,洛阳市,伊滨,,35,,17,11,20,110,,105,105,5,6,4,4,0.4,0.6
2024-07-08T2000,3341A,112.4951,34.6332,洛阳市,中移产业园,,33,,21,15,21,103,,100,100,3,4,6,7,0.5,0.6
2024-07-08T2000,3593A,112.5736,34.8993,洛阳市,吉利监测站,,31,14,21,10,20,98,,93,93,1,4,3,2,0.5,0.8
2024-07-08T2000,3635A,112.3677,34.662,洛阳市,河科大西苑校区,,33,13,15,9,14,104,,100,100,6,4,3,3,0.5,0.7
2024-07-08T2000,3636A,112.4388,34.6781,洛阳市,英才小学,,30,18,27,16,20,96,,95,95,2,3,1,2,0.5,0.7
2024-07-08T2000,2399A,114.051,33.5699,漯河市,三五一五工厂,,27,,20,10,19,86,,61,61,6,12,6,6,0.4,0.5
2024-07-08T2000,2400A,114.0055,33.5698,漯河市,漯河大学,,29,9,25,3,14,92,,65,65,5,10,7,7,0.5,0.6
2024-07-08T2000,2401A,114.0138,33.5828,漯河市,市水利局,,28,6,24,3,14,89,,62,62,5,9,6,7,0.2,0.2
2024-07-08T2000,2402A,114.0261,33.5698,漯河市,市广电局,,27,,21,6,13,86,,63,63,3,7,3,3,0.6,0.6
2024-07-08T2000,3478A,113.9749,33.5664,漯河市,市图书馆,,,2,24,,15,96,,66,66,2,7,5,5,0.3,0.4
2024-07-08T2000,3479A,114.0967,33.5906,漯河市,召陵区卫健委,,28,11,24,8,18,88,,61,61,4,8,4,4,0.3,0.4
2024-07-08T2000,1798A,118.5092,31.6837,马鞍山市,湖东路四小,,29,,28,20,16,88,,121,118,18,12,8,9,0.5,0.6
2024-07-08T2000,1799A,118.5024,31.6449,马鞍山市,开发区,,35,35,30,17,14,70,,121,116,31,22,9,10,0.6,0.6
2024-07-08T2000,1800A,118.5228,31.7231,马鞍山市,慈湖,,30,25,24,16,15,95,,118,116,24,17,10,11,0.6,0.6
2024-07-08T2000,1802A,118.6245,31.7241,马鞍山市,濮塘,,26,22,25,18,16,63,,116,103,11,12,3,4,0.6,0.7
2024-07-08T2000,3633A,118.4918,31.6809,马鞍山市,雨山,,29,29,27,16,13,72,,114,110,36,17,6,8,0.6,0.6
2024-07-08T2000,1686A,111.0286,21.4688,茂名市,电白南海,,14,12,11,9,8,42,,45,44,4,3,5,5,0.4,0.4
2024-07-08T2000,1687A,110.9294,21.6533,茂名市,茂石化七小,,28,,11,19,9,35,,47,44,4,3,9,8,0.6,0.5
2024-07-08T2000,1688A,110.9107,21.6687,茂名市,健康路,,13,12,10,3,2,41,,53,50,7,6,9,9,0.4,0.4
2024-07-08T2000,1689A,110.8592,21.6828,茂名市,高岭,,25,17,15,17,11,36,,46,45,8,7,9,10,0.6,0.5
2024-07-08T2000,3450A,111.01,21.5165,茂名市,电白水东,,12,12,7,3,5,34,,47,44,12,5,3,3,0.6,0.6
2024-07-08T2000,2539A,104.0308,30.0478,眉山市,黑龙滩水库,,21,21,33,9,24,31,,34,34,9,8,7,7,0.5,0.4
2024-07-08T2000,2540A,103.8416,30.0874,眉山市,气象局,,15,7,18,3,13,46,,48,48,11,18,7,7,0.4,0.5
2024-07-08T2000,3137A,103.8578,30.0744,眉山市,市委党校,,14,6,18,3,8,44,,49,49,11,17,7,7,0.4,0.5
2024-07-08T2000,3148A,103.8291,30.0564,眉山市,区人社局,,,16,28,,13,48,,51,51,15,20,9,11,0.4,0.4
2024-07-08T2000,1690A,116.1231,24.3284,梅州市,梅江月梅,,18,13,17,3,8,55,,70,67,1,5,8,10,0.4,0.4
2024-07-08T2000,1691A,116.0797,24.2719,梅州市,梅县新城,,20,20,20,3,8,51,,65,63,8,9,4,4,0.4,0.4
2024-07-08T2000,1692A,116.1248,24.2654,梅州市,环境监控中心,,18,18,19,9,8,41,,59,56,12,10,5,6,0.3,0.3
2024-07-08T2000,3315A,116.1233,24.2991,梅州市,梅龙,,16,12,16,11,10,49,,66,63,7,7,8,9,0.5,0.5
2024-07-08T2000,1878A,104.7778,31.4741,绵阳市,富乐山,,9,6,10,3,7,23,,46,41,18,6,8,8,0.5,0.4
2024-07-08T2000,1879A,104.7563,31.4535,绵阳市,市人大,,15,7,11,6,7,16,,43,28,30,15,7,8,0.6,0.5
2024-07-08T2000,1880A,104.6697,31.4668,绵阳市,高新区自来水公司,,,,10,,5,13,,40,30,,13,6,6,,0.6
2024-07-08T2000,1881A,104.7287,31.5075,绵阳市,三水厂,,18,,11,8,8,4,,37,24,36,13,7,6,0.7,0.5
2024-07-08T2000,3491A,104.69,31.5322,绵阳市,西科大附属小学,,15,12,9,7,5,13,,38,31,30,13,6,5,0.6,0.6
2024-07-08T2000,3492A,104.5648,31.5343,绵阳市,安州区旅游局,,10,,6,7,6,22,,34,34,17,12,8,8,0.4,0.3
2024-07-08T2000,1784A,129.61,44.561,牡丹江市,环保大楼,细颗粒物(PM2.5),67,57,42,48,31,60,,85,79,24,12,8,7,0.6,0.6
2024-07-08T2000,1785A,129.6115,44.5782,牡丹江市,文化广场,细颗粒物(PM2.5),80,89,49,59,44,38,,82,73,38,17,8,7,0.8,0.7
2024-07-08T2000,1786A,129.5904,44.5963,牡丹江市,第一医院,细颗粒物(PM2.5),55,48,37,39,34,49,,81,74,16,14,4,5,0.5,0.6
2024-07-08T2000,1787A,129.6364,44.6075,牡丹江市,机车工厂,细颗粒物(PM2.5),73,56,43,53,34,48,,79,71,11,10,22,6,0.4,0.6
2024-07-08T2000,1788A,129.6386,44.5462,牡丹江市,第一中学,颗粒物(PM10),71,92,46,37,21,37,,82,73,38,14,4,4,0.5,0.5
2024-07-08T2000,2531A,105.0703,29.61,内江市,市监测站,,18,14,27,12,23,17,,22,18,12,10,6,6,0.3,0.3
2024-07-08T2000,2532A,105.0717,29.5947,内江市,东兴区政府,,11,11,28,3,13,18,,23,22,12,13,9,9,0.5,0.5
2024-07-08T2000,2533A,105.0653,29.5817,内江市,内江二中,,,15,25,12,19,23,,36,26,,15,10,11,,0.6
2024-07-08T2000,2534A,105.0406,29.5822,内江市,内江日报社,,10,8,22,7,26,24,,30,27,10,11,8,8,0.7,0.6
2024-07-08T2000,2628A,92.0657,31.4846,那曲市,那曲监测站,,20,13,12,11,6,61,,85,68,10,5,6,6,0.6,0.5
2024-07-08T2000,3128A,92.0506,31.4797,那曲市,那曲会议中心,,22,14,10,7,6,69,,89,77,7,6,3,4,0.4,0.4
2024-07-08T2000,1290A,115.8931,28.6843,南昌市,省外办,,29,29,30,17,13,79,,103,100,9,12,6,8,0.4,0.4
2024-07-08T2000,1291A,115.8886,28.7003,南昌市,省林业公司,,25,22,18,14,8,77,,104,100,10,10,5,7,0.7,0.7
2024-07-08T2000,1292A,115.8126,28.7442,南昌市,林科所,,29,22,20,9,8,92,,112,110,10,24,6,10,0.4,0.4
2024-07-08T2000,1294A,115.8518,28.687,南昌市,建工学校,,25,24,16,14,7,79,,106,102,6,7,7,9,0.3,0.3
2024-07-08T2000,1295A,115.8921,28.6424,南昌市,象湖,,25,14,14,10,7,79,,113,107,6,6,4,6,0.6,0.5
2024-07-08T2000,1296A,115.7423,28.7996,南昌市,武术学校,,25,25,18,10,15,62,,103,99,8,7,5,7,0.5,0.4
2024-07-08T2000,1298A,115.9314,28.6842,南昌市,省站,颗粒物(PM10),68,85,30,14,11,72,,101,95,12,12,4,6,0.5,0.5
2024-07-08T2000,3046A,115.9084,28.6062,南昌市,机电学校,,23,20,22,14,7,73,,102,96,4,5,8,9,0.6,0.6
2024-07-08T2000,3690A,115.9721,28.7031,南昌市,外国语学校,,25,25,23,12,8,74,,103,97,9,8,3,5,0.4,0.4
2024-07-08T2000,1905A,106.056,30.8064,南充市,西山风景区,,24,24,35,7,11,16,,14,14,11,52,4,4,0.5,0.4
2024-07-08T2000,1906A,106.0789,30.8023,南充市,南充市委,,,,37,19,18,28,,32,32,13,11,5,6,0.3,0.3
2024-07-08T2000,1907A,106.1031,30.8217,南充市,南充炼油厂,,18,18,21,10,13,28,,27,27,9,9,3,4,0.1,0.1
2024-07-08T2000,1908A,106.1064,30.7856,南充市,高坪区监测站,,16,16,22,3,10,24,,22,22,11,11,5,5,0.3,0.3
2024-07-08T2000,1909A,106.0642,30.7636,南充市,嘉陵区环保局,,21,21,18,12,13,19,,20,19,14,10,3,3,0.3,0.2
2024-07-08T2000,1910A,106.1087,30.8388,南充市,市环境监测站,,20,20,24,11,13,22,,20,20,6,8,3,3,0.5,0.4
2024-07-08T2000,1151A,118.8086,32.1065,南京市,迈皋桥,,,18,22,14,11,82,,116,109,,22,5,9,0.3,0.5
2024-07-08T2000,1152A,118.7538,32.0551,南京市,草场门,,24,22,21,12,12,75,,103,98,16,24,4,8,0.6,0.9
2024-07-08T2000,1153A,118.7794,32.0745,南京市,山西路,,28,17,24,7,10,88,,122,116,3,16,4,4,0.3,0.6
2024-07-08T2000,1154A,118.7752,32.0023,南京市,中华门,,21,12,18,7,9,67,,103,96,12,16,7,6,0.4,0.6
2024-07-08T2000,1155A,118.8109,32.0309,南京市,瑞金路,,24,19,23,9,10,75,,121,113,7,8,4,5,0.2,0.4
2024-07-08T2000,1156A,118.7997,32.0754,南京市,玄武湖,,23,17,24,3,9,73,,102,97,1,6,5,4,0.3,0.6
2024-07-08T2000,1157A,118.6414,32.0931,南京市,浦口,,,,34,7,10,93,,112,110,,10,6,6,,0.6
2024-07-08T2000,1158A,118.7356,31.9996,南京市,奥体中心,,25,24,25,17,15,71,,108,102,11,21,6,10,0.2,0.5
2024-07-08T2000,1159A,118.9125,32.1028,南京市,仙林大学城,,26,22,23,9,8,82,,130,124,12,14,6,9,0.4,0.6
2024-07-08T2000,3422A,118.8436,31.9198,南京市,江宁彩虹桥,,27,27,23,9,10,71,,119,109,9,8,3,3,0.5,0.5
2024-07-08T2000,3423A,119.0138,31.6494,南京市,溧水永阳,,23,,14,11,11,73,,103,96,13,12,4,4,0.1,0.1
2024-07-08T2000,3424A,118.879,31.3302,南京市,高淳老职中,,21,14,18,14,15,67,,85,81,4,6,4,4,0.6,0.7
2024-07-08T2000,3427A,118.8554,32.3578,南京市,六合雄州,,43,43,26,19,15,90,,118,115,15,12,7,8,0.9,0.8
2024-07-08T2000,1401A,108.3103,22.7881,南宁市,二十一中,,17,15,17,8,7,52,,66,63,10,10,4,3,0.7,0.7
2024-07-08T2000,1402A,108.3141,22.8528,南宁市,北湖,,39,39,16,9,7,50,,70,67,13,9,3,3,0.7,0.6
2024-07-08T2000,1403A,108.3206,22.8225,南宁市,市监测站,,18,17,15,12,10,50,,68,64,14,11,4,4,0.5,0.5
2024-07-08T2000,1404A,108.3829,22.8037,南宁市,大自然花园,,20,20,16,11,9,59,,64,62,8,7,5,5,0.7,0.4
2024-07-08T2000,1405A,108.4394,22.7904,南宁市,仙葫,,38,38,15,17,8,68,,76,68,12,12,5,4,0.3,0.3
2024-07-08T2000,1406A,108.2397,22.8467,南宁市,区农职院,,24,24,19,10,6,53,,72,70,10,8,6,6,0.7,0.6
2024-07-08T2000,1407A,108.3275,22.735,南宁市,英华嘉园,,20,20,20,9,9,39,,54,51,18,17,7,6,0.5,0.5
2024-07-08T2000,1408A,108.2257,22.7757,南宁市,沙井镇街道办,,35,35,30,12,9,39,,60,54,11,16,2,2,0.5,0.5
2024-07-08T2000,3401A,108.4834,22.7618,南宁市,红星社区,,18,13,19,11,10,56,,59,55,9,9,5,5,0.8,0.8
2024-07-08T2000,2331A,118.0966,26.6761,南平市,茫荡山,,,,,,,,,,,,,,,,
2024-07-08T2000,2332A,118.1681,26.6369,南平市,南平市监测站,,25,25,15,9,7,58,,86,84,14,14,5,5,0.9,0.7
2024-07-08T2000,2333A,118.1825,26.6489,南平市,南平铝业有限公司,,35,35,21,14,10,51,,82,79,16,12,10,8,0.7,0.6
2024-07-08T2000,2334A,118.1756,26.6272,南平市,南平七中,,32,32,18,8,10,59,,92,89,12,9,4,5,0.8,0.5
2024-07-08T2000,1168A,120.9098,31.9663,南通市,狼山街道,,31,31,25,12,10,73,,112,89,36,34,6,7,0.3,0.4
2024-07-08T2000,1169A,120.86,32.0005,南通市,虹桥,,27,22,31,8,12,84,,123,119,45,38,6,6,0.6,0.7
2024-07-08T2000,1170A,120.87,32.02,南通市,城中,,32,30,38,11,15,101,,133,131,35,31,6,7,0.7,0.9
2024-07-08T2000,1171A,120.94,31.93,南通市,星湖花园,,34,34,28,17,13,103,,135,131,33,29,6,8,0.4,0.4
2024-07-08T2000,1172A,120.81,32.0417,南通市,紫琅学院,,48,20,30,10,12,41,,135,116,96,55,7,9,0.3,0.4
2024-07-08T2000,3291A,121.067,32.062,南通市,通州监测站,,39,39,44,19,17,106,,152,146,28,22,5,6,0.8,1
2024-07-08T2000,3432A,120.9348,31.9883,南通市,环境教育馆,,39,39,40,19,16,112,,133,128,30,29,9,10,0.5,0.6
2024-07-08T2000,2404A,112.5224,33.0122,南阳市,瓦房庄,,26,19,24,18,18,60,,87,80,12,11,2,2,0.5,0.5
2024-07-08T2000,2405A,112.5003,32.9735,南阳市,汉画馆,,26,26,30,10,11,55,,85,78,11,12,3,3,0.6,0.4
2024-07-08T2000,2406A,112.5573,33.027,南阳市,气象站,,21,21,20,3,12,61,,88,82,9,10,3,3,0.3,0.3
2024-07-08T2000,2407A,112.5481,32.9689,南阳市,理工学院,,23,23,28,10,16,59,,93,83,11,11,2,3,0.4,0.3
2024-07-08T2000,4008A,112.5234,32.9922,南阳市,卧龙区政府,,25,,25,17,16,58,,91,83,11,11,4,3,0.8,0.6
2024-07-08T2000,1234A,121.8358,29.911,宁波市,区环保大楼,,40,40,32,20,13,78,,114,108,26,14,6,7,0.5,0.5
2024-07-08T2000,1235A,121.56,29.82,宁波市,万里学院,,24,24,26,11,18,65,,116,102,22,12,6,8,0.6,0.6
2024-07-08T2000,1236A,121.713,29.9572,宁波市,龙赛医院,,26,26,24,10,11,52,,127,110,32,11,6,6,0.2,0.1
2024-07-08T2000,1239A,121.633,29.7733,宁波市,钱湖水厂,,20,20,22,3,11,60,,111,102,8,6,5,6,0.5,0.5
2024-07-08T2000,1240A,121.5856,29.8635,宁波市,太古小学,,26,26,27,14,11,66,,116,102,22,10,5,7,0.6,0.6
2024-07-08T2000,1241A,121.524,29.8674,宁波市,市环境监测中心,,29,29,24,20,11,61,,122,107,29,13,4,5,0.5,0.5
2024-07-08T2000,2871A,121.6147,29.9017,宁波市,万里国际学校,,26,26,22,12,13,66,,124,109,22,10,4,5,0.3,0.2
2024-07-08T2000,3710A,121.5594,29.8975,宁波市,白沙活动中心,,,24,24,18,10,50,,124,106,32,8,,9,0.4,0.3
2024-07-08T2000,2339A,119.5001,26.6946,宁德市,金涵水库,,,,,,,,,,,,,,,,
2024-07-08T2000,2341A,119.5388,26.6612,宁德市,宁德市监测站,,34,34,31,13,13,54,,115,103,18,15,12,8,2.2,1.1
2024-07-08T2000,3209A,119.5231,26.6562,宁德市,宁德一中,,44,44,31,16,12,61,,121,110,15,12,13,8,2.3,1.3
2024-07-08T2000,2618A,98.8601,25.8567,怒江傈僳族自治州,州监测站,,16,14,17,11,13,51,,58,58,12,12,9,9,0.5,0.6
2024-07-08T2000,2619A,98.8546,25.8417,怒江傈僳族自治州,泸水一中,,20,20,16,7,7,39,,46,46,14,13,5,5,0.3,0.3
2024-07-08T2000,1888A,101.6891,26.571,攀枝花市,弄弄坪,,33,33,33,9,6,41,,65,65,22,21,11,12,0.5,0.6
2024-07-08T2000,1889A,101.5769,26.5928,攀枝花市,河门口,,17,16,27,7,11,54,,72,72,15,20,10,16,0.7,1.1
2024-07-08T2000,1890A,101.7169,26.585,攀枝花市,炳草岗,,20,20,27,8,9,43,,68,67,19,17,10,14,0.6,0.6
2024-07-08T2000,1891A,101.7369,26.5008,攀枝花市,仁和,,16,13,15,3,7,50,,63,63,11,12,7,8,0.4,0.4
2024-07-08T2000,2835A,101.7227,26.567,攀枝花市,四十中小,,17,16,18,9,8,54,,72,72,12,12,6,8,0.4,0.5
2024-07-08T2000,1604A,122.0303,41.1489,盘锦市,开发区,细颗粒物(PM2.5),53,44,41,37,31,98,,119,116,14,15,4,6,0.5,0.4
2024-07-08T2000,1605A,122.0485,41.0883,盘锦市,兴隆台,,44,44,40,28,29,104,,118,116,18,26,1,3,0.6,0.5
2024-07-08T2000,1606A,121.8297,41.1028,盘锦市,新生街道,,49,39,36,34,26,81,,107,106,18,26,2,2,0.5,0.5
2024-07-08T2000,1832A,113.3257,33.742,平顶山市,新华旅馆,,36,,21,20,21,114,,86,86,5,8,2,2,0.3,0.3
2024-07-08T2000,1833A,113.2919,33.737,平顶山市,规划设计院,,34,10,15,3,10,108,,82,82,8,11,4,4,0.6,0.6
2024-07-08T2000,1834A,113.182,33.774,平顶山市,平顶山工学院,,31,9,13,3,5,99,,81,81,5,6,5,5,0.6,0.7
2024-07-08T2000,3204A,113.3025,33.73,平顶山市,规划局,,34,,10,9,12,107,,78,78,6,11,1,2,0.2,0.2
2024-07-08T2000,3594A,112.8867,33.9116,平顶山市,石龙区,,32,,13,7,11,102,,86,86,6,12,5,6,0.2,0.4
2024-07-08T2000,2656A,106.6692,35.5461,平凉市,聚贤嘉苑,颗粒物(PM10),51,52,36,26,19,114,,130,127,14,18,8,8,0.4,0.4
2024-07-08T2000,2657A,106.7021,35.5307,平凉市,博物馆,,47,47,39,23,16,111,,133,130,24,23,3,4,0.6,0.5
2024-07-08T2000,2347A,114.0997,27.5002,萍乡市,武功山,,21,,3,14,7,66,,80,64,5,4,12,10,0.7,0.5
2024-07-08T2000,2348A,113.8385,27.6434,萍乡市,中医院,,19,9,16,3,8,59,,69,68,8,8,3,5,0.5,0.6
2024-07-08T2000,2349A,113.8493,27.6253,萍乡市,市政府车库,,,34,17,,12,50,,66,64,11,5,14,11,0.5,0.4
2024-07-08T2000,2350A,113.8676,27.6435,萍乡市,市环保局,,19,6,16,3,11,58,,68,67,5,4,10,10,0.3,0.4
2024-07-08T2000,2351A,113.866,27.6198,萍乡市,安源区政府,,,,20,9,5,49,,66,64,14,8,7,8,0.4,0.3
2024-07-08T2000,2319A,119.0141,25.4325,莆田市,荔城区仓后路,,25,25,27,8,6,46,,84,77,12,11,8,8,0.6,0.6
2024-07-08T2000,2320A,119.0015,25.4553,莆田市,莆田市监测站,,15,,21,10,5,45,,86,80,9,6,11,10,0.6,0.5
2024-07-08T2000,2321A,119.1119,25.4561,莆田市,涵江区六中,,14,14,22,6,5,41,,84,74,13,11,12,11,0.7,0.6
2024-07-08T2000,2322A,119.1013,25.3215,莆田市,秀屿区政府,,18,18,20,6,6,51,,74,68,8,7,11,12,0.5,0.6
2024-07-08T2000,2323A,118.981,25.4792,莆田市,东圳水库,,,,,,,,,,,,,,,,
2024-07-08T2000,2392A,115.0312,35.7636,濮阳市,环保局,,27,,23,18,27,84,,85,85,13,10,6,8,0.8,0.7
2024-07-08T2000,2394A,115.0574,35.7609,濮阳市,油田运输公司,,30,22,42,16,27,93,,92,92,10,8,4,8,0.5,0.5
2024-07-08T2000,2395A,115.0866,35.7754,濮阳市,油田物探公司,,29,,32,20,31,91,,90,90,10,8,3,6,0.3,0.4
2024-07-08T2000,3021A,115,35.7668,濮阳市,濮水河管理处,,35,,26,24,30,70,,73,73,10,8,4,6,0.5,0.5
2024-07-08T2000,2601A,100.98,22.7633,普洱市,市环保局,,24,24,16,10,13,43,,52,50,5,5,4,5,0.5,0.5
2024-07-08T2000,2602A,100.9817,22.8322,普洱市,普洱第二中学,,24,24,15,8,12,29,,51,42,14,6,8,8,0.6,0.5
2024-07-08T2000,2262A,131.0518,45.8751,七台河市,新一中,颗粒物(PM10),54,58,65,34,56,98,,115,109,8,8,10,10,0.8,0.9
2024-07-08T2000,3345A,131.0577,45.7879,七台河市,中波台,,35,28,65,24,47,77,,96,89,9,15,11,11,0.3,0.4
2024-07-08T2000,3637A,131.0176,45.7761,七台河市,人民广场,,46,46,65,29,50,79,,93,87,7,15,11,12,0.3,0.5
2024-07-08T2000,3684A,130.8781,45.8222,七台河市,新建矿广场,"颗粒物(PM10),细颗粒物(PM2.5)",52,53,81,36,42,74,,99,92,15,17,19,9,0.3,0.4
2024-07-08T2000,1779A,123.9305,47.3636,齐齐哈尔市,安居小区,细颗粒物(PM2.5),107,94,70,80,57,126,,127,127,25,18,18,13,0.6,0.5
2024-07-08T2000,1780A,123.9488,47.3386,齐齐哈尔市,中心广场,细颗粒物(PM2.5),98,109,80,73,62,130,,124,124,24,18,10,10,0.6,0.5
2024-07-08T2000,1781A,123.9483,47.3227,齐齐哈尔市,农牧车辆厂,细颗粒物(PM2.5),82,95,79,60,51,131,,128,128,16,16,8,8,0.5,0.4
2024-07-08T2000,1783A,123.945,47.2988,齐齐哈尔市,市环境监测站,细颗粒物(PM2.5),87,95,75,64,62,125,,126,126,22,15,7,6,0.5,0.4
2024-07-08T2000,3662A,123.6333,47.2075,齐齐哈尔市,富区青少年活动中心,颗粒物(PM10),61,71,56,43,39,119,,125,125,11,17,4,4,0.6,0.6
2024-07-08T2000,2591A,107.9783,26.5747,黔东南苗族侗族自治州,市环境监测站,,18,13,12,11,10,56,,64,59,6,4,3,3,0.3,0.3
2024-07-08T2000,2881A,107.8908,26.5311,黔东南苗族侗族自治州,凯里学院,,17,,7,9,7,54,,57,56,4,4,6,5,0.4,0.4
2024-07-08T2000,2593A,107.5228,26.2403,黔南布依族苗族自治州,小围寨,,19,12,7,3,3,60,,59,59,2,2,4,4,0.4,0.4
2024-07-08T2000,3538A,107.5175,26.2978,黔南布依族苗族自治州,沙坝,,15,7,8,3,3,47,,55,54,5,3,4,4,0.5,0.4
2024-07-08T2000,2589A,104.9022,25.0925,黔西南布依族苗族自治州,场坝街,,20,17,12,3,6,62,,64,64,5,5,2,3,0.3,0.2
2024-07-08T2000,2590A,104.8811,25.0992,黔西南布依族苗族自治州,坪东大道,,18,14,14,8,7,57,,60,60,5,3,4,4,0.4,0.4
2024-07-08T2000,2502A,108.6236,21.9667,钦州市,市环保站,,12,9,13,3,3,38,,64,61,11,14,6,5,0.6,0.6
2024-07-08T2000,2503A,108.6549,21.9481,钦州市,沙埠小学,,19,18,18,13,8,38,,70,65,11,13,4,5,0.6,0.6
2024-07-08T2000,2504A,108.5989,21.7431,钦州市,港区一小,,20,20,22,9,6,37,,61,55,11,12,7,8,0.4,0.6
2024-07-08T2000,3404A,108.5959,21.9633,钦州市,北职校,,15,15,16,6,5,38,,63,59,7,9,8,7,0.5,0.6
2024-07-08T2000,1042A,119.5134,39.8207,秦皇岛市,北戴河环保局,颗粒物(PM10),59,67,48,3,9,118,,145,145,12,17,3,4,0.5,0.5
2024-07-08T2000,1043A,119.7493,40.0116,秦皇岛市,第一关,细颗粒物(PM2.5),52,51,51,36,25,100,,127,127,18,31,3,2,0.5,0.4
2024-07-08T2000,1044A,119.5897,39.9499,秦皇岛市,监测站,颗粒物(PM10),51,52,50,31,21,103,,141,138,33,24,3,5,0.6,0.5
2024-07-08T2000,1046A,119.5251,39.9041,秦皇岛市,建设大厦,颗粒物(PM10),54,57,44,26,13,97,,138,136,25,20,3,4,0.4,0.3
2024-07-08T2000,3132A,119.610547,39.943889,秦皇岛市,文明里,细颗粒物(PM2.5),53,46,42,37,27,100,,137,135,28,20,2,3,0.5,0.5
2024-07-08T2000,1307A,120.6659,36.2403,青岛市,仰口,,28,27,8,19,9,85,,99,85,9,5,3,3,0.4,0.4
2024-07-08T2000,1310A,120.4134,36.0658,青岛市,市南区东部子站,,,,6,,2,38,,96,76,,19,,7,,0.6
2024-07-08T2000,1311A,120.3664,36.1032,青岛市,四方区子站,,46,46,12,19,7,53,,110,103,83,27,18,12,0.7,0.5
2024-07-08T2000,1312A,120.2994,36.054,青岛市,市南区西部子站,二氧化氮,53,46,16,12,4,10,,78,60,106,45,11,9,0.9,0.5
2024-07-08T2000,1313A,120.4581,36.0858,青岛市,崂山区子站,,23,19,7,3,2,62,,100,77,45,24,8,7,0.7,0.5
2024-07-08T2000,1314A,120.1983,35.9608,青岛市,黄岛区子站,,36,36,11,12,5,66,,95,86,41,27,6,6,0.7,0.5
2024-07-08T2000,1315A,120.3999,36.3083,青岛市,城阳区子站,,39,39,14,15,10,76,,118,116,58,21,6,6,0.8,0.6
2024-07-08T2000,1966A,120.0405,35.8735,青岛市,黄岛区4号,,,,11,,4,61,,98,84,,20,11,9,,0.5
2024-07-08T2000,3362A,120.5014,36.4034,青岛市,即墨2号,,36,36,13,23,10,102,,124,121,29,14,6,5,0.5,0.5
2024-07-08T2000,3642A,120.3503,36.0736,青岛市,市北区南部,,43,37,9,27,6,44,,111,97,86,25,8,6,1.0,0.5
2024-07-08T2000,3643A,120.3948,36.1805,青岛市,李沧区北部,,31,31,9,19,10,87,,107,107,38,28,10,10,0.4,0.4
2024-07-08T2000,1702A,113.0426,23.691,清远市,环保大楼,,40,26,15,11,9,126,,124,124,18,14,5,4,0.8,0.7
2024-07-08T2000,1703A,113.0208,23.7106,清远市,凤城街办,,41,33,22,23,13,129,,121,121,15,14,3,3,0.4,0.4
2024-07-08T2000,3025A,113.0477,23.6344,清远市,技师学院,,41,41,24,21,11,126,,128,128,19,16,6,6,0.3,0.3
2024-07-08T2000,3318A,112.9903,23.7403,清远市,清新太和,,31,,29,20,11,98,,106,106,16,8,7,8,0.6,0.6
2024-07-08T2000,3455A,113.076,23.7198,清远市,清城东城,"颗粒物(PM10),细颗粒物(PM2.5)",52,54,23,36,15,125,,116,116,12,8,4,4,0.5,0.5
2024-07-08T2000,2661A,107.6325,35.7357,庆阳市,庆阳五中,,47,47,30,28,18,114,,137,135,16,10,4,4,0.6,0.4
2024-07-08T2000,2662A,107.6364,35.7067,庆阳市,市环保局,,46,46,31,25,15,97,,133,128,20,11,3,4,0.6,0.5
2024-07-08T2000,1916A,103.7897,25.5035,曲靖市,环境监测站,,,29,15,8,6,62,,68,68,,5,,4,1.3,0.4
2024-07-08T2000,1917A,103.8,25.5364,曲靖市,烟厂办公区,,21,15,13,13,7,67,,70,70,6,6,3,4,0.3,0.3
2024-07-08T2000,3376A,103.7947,25.462,曲靖市,南苑二区,,21,10,12,3,6,66,,70,70,6,5,4,4,0.5,0.5
2024-07-08T2000,3377A,103.7444,25.5261,曲靖市,曲靖师范学院,,23,21,12,3,7,71,,75,75,6,5,5,5,0.3,0.3
2024-07-08T2000,1264A,118.8692,28.9398,衢州市,环保大楼,,24,16,24,12,16,75,,93,93,9,10,8,9,0.3,0.3
2024-07-08T2000,1265A,118.8709,28.9666,衢州市,实验学校,,24,22,31,13,17,75,,92,91,8,16,13,13,0.3,0.4
2024-07-08T2000,1266A,118.8621,28.9808,衢州市,衢州学院,,22,21,29,13,17,68,,95,93,22,18,4,6,0.3,0.4
2024-07-08T2000,1611A,118.5819,24.9117,泉州市,涂山街,,16,16,25,7,8,45,,69,65,9,12,3,5,0.6,0.6
2024-07-08T2000,1612A,118.5972,24.8978,泉州市,津头埔,,19,19,21,10,7,42,,68,64,14,13,2,4,0.7,0.6
2024-07-08T2000,1613A,118.6663,24.9424,泉州市,万安,,23,23,22,6,7,44,,72,67,8,9,2,3,0.6,0.6
2024-07-08T2000,1614A,118.6117,24.9604,泉州市,清源山,,,,,,,,,,,,,,,,
2024-07-08T2000,3529A,118.6333,24.9264,泉州市,城华南路,,17,17,18,6,7,39,,69,63,12,11,2,3,0.4,0.4
2024-07-08T2000,2626A,88.8876,29.2718,日喀则市,日喀则监测站,,29,29,10,8,3,64,,79,78,8,5,6,5,0.4,0.4
2024-07-08T2000,3726A,88.8781,29.2426,日喀则市,林业技术推广中心,,25,6,8,3,4,77,,82,82,6,8,6,6,0.5,0.5
2024-07-08T2000,1659A,119.471,35.4209,日照市,监测站,,,19,8,,11,26,,70,59,34,26,9,9,0.5,0.3
2024-07-08T2000,1660A,119.523,35.4216,日照市,市政府广场,,22,22,10,7,7,37,,86,58,27,15,8,8,0.7,0.5
2024-07-08T2000,1661A,119.5587,35.4044,日照市,港务局,,36,36,11,12,3,48,,112,66,34,16,9,9,0.8,0.6
2024-07-08T2000,3507A,119.5328,35.4625,日照市,职业技术学院,,31,31,13,19,8,50,,91,70,23,15,8,8,0.8,0.6
2024-07-08T2000,3604A,119.3266,35.1044,日照市,岚山环保分局,,43,24,11,17,8,21,,26,21,85,24,14,8,0.7,0.9
2024-07-08T2000,1835A,111.1922,34.7752,三门峡市,市政府,,28,13,17,8,11,89,,103,103,18,9,6,6,0.7,0.6
2024-07-08T2000,1836A,111.1587,34.7942,三门峡市,开发区,,35,14,23,10,14,111,,105,105,9,11,8,8,0.4,0.4
2024-07-08T2000,1838A,111.143,34.7955,三门峡市,风景区,,,,,,,,,,,,,,,,
2024-07-08T2000,3039A,111.1911,34.7829,三门峡市,三门峡市第一小学,,31,16,20,6,10,99,,105,105,11,7,6,7,0.7,0.6
2024-07-08T2000,3598A,111.1,34.7167,三门峡市,富达温泉假日酒店,,29,25,24,14,16,90,,105,105,16,17,11,12,0.7,0.7
2024-07-08T2000,2324A,117.6211,26.2625,三明市,三钢,,36,36,21,16,13,46,,74,70,19,14,10,16,0.6,1.6
2024-07-08T2000,2325A,117.635,26.2714,三明市,三明二中,,19,19,15,8,9,52,,80,77,18,12,4,6,0.7,0.7
2024-07-08T2000,2326A,117.6028,26.2378,三明市,三元区政府,,34,34,20,8,10,46,,76,71,14,11,4,5,0.4,0.3
2024-07-08T2000,2327A,117.7275,26.3108,三明市,洋溪,,,,,,,,,,,,,,,,
2024-07-08T2000,1876A,109.5078,18.2489,三亚市,河东子站,,19,19,16,6,6,34,,44,43,10,7,2,2,0.4,0.4
2024-07-08T2000,1877A,109.4964,18.2681,三亚市,河西子站,,11,11,12,3,3,32,,41,39,11,5,3,3,0.4,0.4
2024-07-08T2000,3540A,109.7348,18.3443,三亚市,君悦子站,,14,14,12,3,2,27,,43,37,11,6,3,3,0.5,0.4
2024-07-08T2000,2624A,91.7608,29.2313,山南市,山南监测站,,13,13,11,6,5,7,,56,45,5,6,6,6,0.3,0.3
2024-07-08T2000,2625A,91.7706,29.2436,山南市,山南人民医院,,22,20,15,3,5,68,,68,68,8,10,6,5,0.2,0.3
2024-07-08T2000,1674A,116.6794,23.3667,汕头市,金平子站,,19,6,12,3,4,60,,64,64,9,7,6,6,0.8,0.8
2024-07-08T2000,1675A,116.7244,23.3633,汕头市,龙湖子站,,19,,11,8,5,58,,56,56,7,9,5,5,0.7,0.6
2024-07-08T2000,1676A,116.7258,23.2775,汕头市,濠江子站,,19,,12,6,6,60,,63,63,8,7,5,5,0.5,0.5
2024-07-08T2000,1677A,116.7519,23.4714,汕头市,澄海子站,,18,14,11,3,5,56,,52,52,8,10,4,4,0.7,0.7
2024-07-08T2000,1678A,116.6092,23.2539,汕头市,潮阳子站,,,21,13,3,3,60,,62,62,5,4,,5,0.7,0.7
2024-07-08T2000,3444A,116.454,23.2684,汕头市,潮南峡山,,29,27,17,20,9,64,,67,67,4,4,4,4,0.6,0.6
2024-07-08T2000,3624A,116.4069,23.2533,汕头市,潮南子站,,39,39,18,16,9,62,,70,70,6,5,6,7,0.6,0.6
2024-07-08T2000,1693A,115.3653,22.775,汕尾市,市环保局,,20,20,15,10,9,64,,65,65,6,6,5,5,0.5,0.5
2024-07-08T2000,1694A,115.3706,22.7898,汕尾市,市政府,,21,11,13,3,10,65,,64,64,2,2,7,7,0.5,0.5
2024-07-08T2000,1695A,115.3622,22.7925,汕尾市,新城中学,,21,10,16,8,8,67,,67,67,2,3,4,5,0.5,0.5
2024-07-08T2000,2645A,109.9154,33.8715,商洛市,监测站,,23,10,9,3,8,71,,65,65,3,6,6,5,0.8,0.8
2024-07-08T2000,3045A,109.9643,33.8471,商洛市,商州区中学,,21,6,13,3,7,67,,64,64,7,12,4,3,0.7,0.7
2024-07-08T2000,2408A,115.6702,34.4285,商丘市,环境监测站,,25,9,15,9,11,80,,71,71,6,5,8,8,0.5,0.6
2024-07-08T2000,2409A,115.6458,34.4045,商丘市,粮食局,,24,12,19,10,9,76,,66,66,7,6,4,5,0.4,0.4
2024-07-08T2000,2410A,115.6293,34.3948,商丘市,睢阳区环保局,,25,,17,13,13,78,,73,73,5,5,4,5,0.3,0.4
2024-07-08T2000,3171A,115.6071,34.4465,商丘市,梁园区档案局,,28,,13,19,23,83,,72,72,7,8,7,7,0.4,0.5
2024-07-08T2000,1141A,121.4,31.238,上海市,普陀,臭氧1小时,62,50,43,32,25,169,,147,147,18,18,7,7,0.5,0.5
2024-07-08T2000,1142A,121.478,31.2036,上海市,十五厂,臭氧1小时,68,52,43,29,23,174,,160,160,20,23,8,9,0.5,0.5
2024-07-08T2000,1143A,121.467,31.3008,上海市,虹口,臭氧1小时,55,49,40,28,25,164,,145,145,20,19,6,7,0.7,0.6
2024-07-08T2000,1144A,121.412,31.1654,上海市,徐汇上师大,颗粒物(PM10),53,55,44,31,23,131,,136,136,33,24,5,5,0.8,0.7
2024-07-08T2000,1145A,121.536,31.2659,上海市,杨浦四漂,臭氧1小时,65,53,40,29,24,172,,162,161,23,21,7,8,0.6,0.6
2024-07-08T2000,1147A,121.425,31.2261,上海市,静安监测站,臭氧1小时,68,47,42,27,23,174,,144,144,18,24,8,10,0.6,0.6
2024-07-08T2000,1148A,121.703,31.1907,上海市,浦东川沙,臭氧1小时,54,49,42,32,25,163,,200,195,24,20,6,6,0.8,0.7
2024-07-08T2000,1149A,121.533,31.2284,上海市,浦东新区监测站,臭氧1小时,63,44,37,26,22,170,,151,151,19,23,4,4,0.3,0.4
2024-07-08T2000,1150A,121.577,31.2071,上海市,浦东张江,臭氧1小时,64,47,42,23,23,171,,155,153,21,22,5,5,0.8,0.8
2024-07-08T2000,3265A,121.4316,31.3322,上海市,宝山庙行,臭氧1小时,58,47,39,29,23,166,,148,148,21,17,10,10,0.7,0.7
2024-07-08T2000,3266A,121.8791,31.4662,上海市,崇明上实东滩,臭氧1小时,58,40,36,22,19,166,,216,212,13,21,9,9,0.6,0.6
2024-07-08T2000,3268A,121.3162,31.2838,上海市,嘉定南翔,,45,45,42,26,24,140,,130,130,39,31,10,6,0.6,0.6
2024-07-08T2000,3269A,121.3359,30.7456,上海市,金山新城,,45,,35,31,31,121,,179,171,12,15,8,8,0.4,0.4
2024-07-08T2000,3270A,121.4996,31.0739,上海市,闵行浦江,臭氧1小时,55,46,38,29,24,164,,171,171,15,17,5,6,0.4,0.4
2024-07-08T2000,3271A,121.2886,31.1663,上海市,青浦徐泾,细颗粒物(PM2.5),54,41,40,38,36,160,,155,155,20,22,6,5,0.5,0.5
2024-07-08T2000,3272A,121.2186,31.0378,上海市,松江图书馆,细颗粒物(PM2.5),53,47,40,37,27,152,,167,163,24,20,6,6,0.6,0.6
2024-07-08T2000,3273A,121.3902,31.2059,上海市,长宁仙霞,,49,39,40,28,22,155,,144,144,35,25,9,7,0.9,0.8
