timepoint,stationcode,longitude,latitude,area,positionname,primarypollutant,aqi,pm10,pm10_24h,pm2_5,pm2_5_24h,o3,o3_24h,o3_8h,o3_8h_24h,no2,no2_24h,so2,so2_24h,co,co_24h
2024-05-12T1600,2566A,102.1879,31.914,阿坝藏族羌族自治州,州农科所,,22,20,20,7,7,68,,43,43,11,13,3,3,0.3,0.3
2024-05-12T1600,2568A,102.2502,31.8896,阿坝藏族羌族自治州,马师校,,30,,10,10,12,94,,58,58,6,7,4,4,0.3,0.3
2024-05-12T1600,3994A,102.2165,31.9024,阿坝藏族羌族自治州,马尔康中学西区,,30,,19,10,13,95,,62,62,6,6,3,4,0.3,0.3
2024-05-12T1600,2695A,80.292,41.1694,阿克苏地区,电视台,颗粒物(PM10),68,86,128,20,37,128,,92,92,9,33,8,5,0.2,0.5
2024-05-12T1600,2696A,80.2613,41.1551,阿克苏地区,艺术中心,颗粒物(PM10),77,104,128,20,43,136,,91,91,10,48,4,4,0.3,0.7
2024-05-12T1600,2204A,105.6467,38.8363,阿拉善盟,西城区西花园,,45,15,81,5,25,144,,124,124,6,8,9,9,1.0,0.8
2024-05-12T1600,2205A,105.6985,38.8411,阿拉善盟,蒙二幼,,43,24,74,10,20,136,,116,116,7,7,8,9,0.4,0.4
2024-05-12T1600,2206A,105.724,38.8516,阿拉善盟,环保局新楼,,41,24,58,7,17,131,,115,115,5,6,9,9,0.5,0.5
2024-05-12T1600,2708A,88.1264,47.8517,阿勒泰地区,市站,颗粒物(PM10),54,57,57,13,9,81,,83,65,8,8,5,5,0.4,0.3
2024-05-12T1600,2630A,80.1161,32.5,阿里地区,阿里监测站,,49,35,20,8,7,154,,138,138,5,10,8,8,0.4,0.5
2024-05-12T1600,3192A,80.0903,32.5028,阿里地区,阿里藏医院,臭氧1小时,63,13,11,8,5,170,,155,155,2,4,10,10,0.5,0.4
2024-05-12T1600,2642A,109.0318,32.6537,安康市,香溪洞,颗粒物(PM10),59,67,74,20,21,118,,,,4,5,7,8,0.3,0.4
2024-05-12T1600,2643A,109.0281,32.6939,安康市,安康市监测站,颗粒物(PM10),56,61,63,19,24,140,,91,91,7,11,9,9,0.3,0.4
2024-05-12T1600,2644A,109.0072,32.6975,安康市,汉滨区检察院,颗粒物(PM10),52,54,52,20,19,139,,89,89,7,8,8,8,0.4,0.4
2024-05-12T1600,2291A,117.0809,30.5177,安庆市,环科院,颗粒物(PM10),135,220,78,44,33,160,,121,121,14,11,10,7,0.5,0.6
2024-05-12T1600,2292A,117.0331,30.5119,安庆市,马山宾馆,颗粒物(PM10),133,215,80,40,32,160,,124,124,15,12,10,7,0.4,0.6
2024-05-12T1600,2294A,116.9896,30.6145,安庆市,安庆大学,颗粒物(PM10),129,208,84,39,30,160,,118,118,11,11,9,7,0.4,0.5
2024-05-12T1600,3173A,117.0598,30.5351,安庆市,市人大,颗粒物(PM10),141,232,85,40,33,158,,120,120,12,7,8,5,0.5,0.7
2024-05-12T1600,3123A,105.9408,26.2431,安顺市,凤凰山,,27,22,13,13,9,84,,80,80,9,6,8,8,0.1,0.1
2024-05-12T1600,3124A,105.9439,26.2564,安顺市,金钟山,,28,23,13,19,8,82,,75,75,8,6,5,4,0.2,0.1
2024-05-12T1600,3125A,105.8983,26.2481,安顺市,娄家坡,,41,41,23,22,10,85,,78,78,8,6,8,7,0.4,0.4
2024-05-12T1600,1819A,114.3551,36.1017,安阳市,红庙街,颗粒物(PM10),88,125,194,46,53,183,,135,135,4,14,6,9,0.6,0.7
2024-05-12T1600,1820A,114.361,36.0681,安阳市,银杏小区,颗粒物(PM10),78,106,193,46,74,177,,136,136,1,13,9,13,0.3,0.4
2024-05-12T1600,3141A,114.3922,36.0878,安阳市,信访局,细颗粒物(PM2.5),93,121,204,69,68,176,,132,132,5,16,4,7,0.4,0.6
2024-05-12T1600,3669A,114.4705,36.0637,安阳市,左辅环卫站,颗粒物(PM10),93,136,196,28,52,175,,133,133,3,24,9,10,0.6,0.6
2024-05-12T1600,3703A,114.2917,36.0949,安阳市,安钢职工学校,颗粒物(PM10),87,123,240,33,65,174,,128,128,9,20,8,11,0.4,0.6
2024-05-12T1600,1748A,123.044,41.1196,鞍山市,深沟寺,,31,30,72,7,18,99,,87,87,7,21,7,16,0.4,1.3
2024-05-12T1600,1749A,123.011,41.0931,鞍山市,太阳城,,31,29,63,10,15,99,,85,85,15,18,18,12,1.1,0.9
2024-05-12T1600,1750A,123.0485,41.1442,鞍山市,太平,,32,30,60,19,20,100,,90,90,11,16,6,8,0.4,0.5
2024-05-12T1600,1751A,122.9642,41.0971,鞍山市,铁西三道街,,32,30,65,14,16,100,,91,91,14,19,6,5,0.6,0.6
2024-05-12T1600,1752A,122.9341,41.0833,鞍山市,铁西工业园区,,32,23,62,9,17,100,,90,90,9,19,6,9,0.3,0.4
2024-05-12T1600,1753A,123.022,41.0821,鞍山市,明达新区,,,40,76,13,15,,,78,78,16,18,,12,0.9,0.8
2024-05-12T1600,2195A,107.4212,40.761,巴彦淖尔市,附二中,,43,21,45,14,28,136,,110,110,5,14,3,4,0.3,0.3
2024-05-12T1600,2196A,107.37,40.7372,巴彦淖尔市,市环保大楼,颗粒物(PM10),72,94,59,11,20,134,,111,111,6,11,3,4,0.3,0.3
2024-05-12T1600,1956A,86.1472,41.7538,巴音郭楞蒙古自治州,孔雀公园,颗粒物(PM10),69,88,82,14,16,128,,107,107,5,24,7,9,0.2,0.3
2024-05-12T1600,1957A,86.1972,41.7166,巴音郭楞蒙古自治州,棉纺厂,颗粒物(PM10),65,79,80,14,19,118,,102,102,3,19,3,5,0.2,0.3
2024-05-12T1600,1958A,86.2357,41.7173,巴音郭楞蒙古自治州,经济开发区,颗粒物(PM10),61,71,75,19,22,128,,116,116,3,7,8,7,0.2,0.2
2024-05-12T1600,2914A,106.7677,31.8794,巴中市,苏山坪,颗粒物(PM10),59,68,138,33,59,114,,82,82,6,16,4,5,0.4,0.5
2024-05-12T1600,3182A,106.7656,31.8545,巴中市,丽阳花园,颗粒物(PM10),62,73,118,34,56,114,,78,78,10,23,5,5,0.4,0.6
2024-05-12T1600,3183A,106.7418,31.8654,巴中市,圣泉水务公司,颗粒物(PM10),66,81,104,33,47,116,,79,79,8,23,5,4,0.4,0.5
2024-05-12T1600,3616A,106.7616,31.8344,巴中市,市中心医院,颗粒物(PM10),69,87,121,41,63,119,,78,78,6,21,6,5,0.4,0.6
2024-05-12T1600,2235A,122.7911,45.6077,白城市,洮北区环保局,,31,26,19,12,15,98,,95,95,6,6,4,5,0.3,0.4
2024-05-12T1600,2236A,122.8738,45.5725,白城市,市环保局,,35,35,38,7,16,105,,100,100,10,10,4,4,0.2,0.3
2024-05-12T1600,2231A,126.4219,41.9171,白山市,喜丰,,40,40,69,15,20,110,,99,99,11,9,8,9,1.0,1.1
2024-05-12T1600,2232A,126.4077,41.9419,白山市,环保局,,36,27,65,19,22,113,,101,101,4,5,9,9,0.7,0.8
2024-05-12T1600,2647A,104.1724,36.5446,白银市,第三小学,颗粒物(PM10),59,67,82,18,25,139,,120,120,8,21,29,30,0.5,0.7
2024-05-12T1600,2648A,104.1465,36.5482,白银市,动力公司,颗粒物(PM10),57,64,74,22,24,136,,119,119,8,17,36,27,0.4,0.6
2024-05-12T1600,2512A,106.6103,23.9011,百色市,市监测站,,24,21,23,9,15,74,,64,61,5,7,5,5,0.6,0.6
2024-05-12T1600,2513A,106.6538,23.8859,百色市,市中心血站,,26,26,28,7,15,73,,60,59,6,10,4,4,0.5,0.6
2024-05-12T1600,3406A,106.6085,23.8798,百色市,祈福高中,,27,27,24,7,13,73,,61,60,4,8,6,6,0.6,0.7
2024-05-12T1600,2270A,117.396,32.939,蚌埠市,工人疗养院,颗粒物(PM10),129,208,231,50,60,169,,123,123,10,19,9,8,0.2,0.4
2024-05-12T1600,2271A,117.3605,32.9427,蚌埠市,百货大楼,颗粒物(PM10),144,238,243,69,66,164,,119,119,18,24,5,4,0.3,0.5
2024-05-12T1600,2273A,117.4185,32.8911,蚌埠市,蚌埠学院,颗粒物(PM10),135,219,242,46,60,144,,106,106,22,29,10,8,0.3,0.4
2024-05-12T1600,2274A,117.3533,32.9673,蚌埠市,淮上区政府,颗粒物(PM10),122,193,234,51,61,161,,115,115,7,15,7,6,0.2,0.3
2024-05-12T1600,2275A,117.3145,32.8977,蚌埠市,高新区,颗粒物(PM10),129,207,233,56,64,162,,116,116,8,28,7,8,0.2,0.4
2024-05-12T1600,3715A,117.3092,32.9314,蚌埠市,蚌埠田家炳中学,颗粒物(PM10),122,194,234,51,66,170,,125,125,7,20,7,6,0.3,0.4
2024-05-12T1600,1585A,109.8756,40.6532,包头市,市环境监测站,,38,,27,13,22,120,,102,102,5,15,7,13,0.1,0.4
2024-05-12T1600,1587A,109.9991,40.5842,包头市,包头八中,,,,39,16,18,122,,104,104,9,27,9,11,0.3,0.5
2024-05-12T1600,1588A,109.8538,40.6821,包头市,青山宾馆,,37,13,23,9,10,118,,100,100,4,12,9,13,0.3,0.4
2024-05-12T1600,1589A,109.8642,40.6288,包头市,惠龙物流,,38,23,25,15,10,121,,103,103,6,17,8,15,0.1,0.4
2024-05-12T1600,1590A,110.0377,40.5546,包头市,东河鸿龙湾,,40,29,29,16,18,128,,99,99,9,23,11,11,0.7,0.6
2024-05-12T1600,3283A,109.9154,40.5685,包头市,滨河大厦,,39,28,25,10,12,122,,103,103,9,26,13,18,0.5,0.6
2024-05-12T1600,3419A,109.9447,40.6261,包头市,包头市委党校,,50,,27,35,13,121,,104,104,6,25,9,14,0.3,0.4
2024-05-12T1600,3683A,109.8331,40.6576,包头市,昆区政府,,38,17,26,3,9,120,,100,100,7,16,7,16,0.2,0.5
2024-05-12T1600,1930A,107.185,34.3063,宝鸡市,庙沟村,颗粒物(PM10),53,55,53,22,16,145,,108,108,6,11,11,9,0.5,0.4
2024-05-12T1600,1931A,107.0708,34.3017,宝鸡市,竹园沟,颗粒物(PM10),63,76,57,21,16,167,,116,116,10,16,7,5,0.4,0.4
2024-05-12T1600,1932A,107.1906,34.3672,宝鸡市,三陆医院,颗粒物(PM10),66,81,68,36,21,156,,108,108,14,25,7,7,0.3,0.4
2024-05-12T1600,1933A,107.1431,34.3547,宝鸡市,监测站,颗粒物(PM10),58,66,59,20,21,154,,107,107,13,23,9,8,0.4,0.4
2024-05-12T1600,1934A,107.1186,34.3739,宝鸡市,技工学校,颗粒物(PM10),71,92,59,23,22,159,,112,112,16,17,7,6,0.3,0.3
2024-05-12T1600,1935A,107.3906,34.3528,宝鸡市,陈仓区环保局家属楼,细颗粒物(PM2.5),62,60,69,44,28,167,,115,115,5,21,6,6,0.2,0.3
2024-05-12T1600,1936A,107.2058,34.3497,宝鸡市,文理学院,颗粒物(PM10),58,66,64,24,19,164,,115,115,10,21,8,7,0.3,0.3
2024-05-12T1600,1937A,107.2386,34.3622,宝鸡市,三迪小学,颗粒物(PM10),71,91,66,28,25,165,,111,111,14,26,8,7,0.2,0.3
2024-05-12T1600,1051A,115.493,38.8632,保定市,游泳馆,颗粒物(PM10),52,54,90,12,17,129,,109,109,2,20,3,2,0.2,0.2
2024-05-12T1600,1052A,115.5213,38.8959,保定市,华电二区,,40,28,54,10,27,125,,106,106,8,25,1,3,0.2,0.2
2024-05-12T1600,1054A,115.4612,38.8416,保定市,地表水厂,,43,43,72,9,28,123,,101,101,4,25,1,3,0.0,0.1
2024-05-12T1600,3581A,115.31981,38.95208,保定市,满城区生态环境分局,,40,36,58,2,14,127,,110,110,2,25,3,2,0.1,0.2
2024-05-12T1600,3582A,115.47694,38.76408,保定市,清苑区第二中学,,,42,85,9,18,129,,105,105,7,30,,4,0.2,0.3
2024-05-12T1600,3583A,115.62909,39.02311,保定市,徐水物探局,,43,36,70,2,16,135,,112,112,3,20,3,3,0.2,0.2
2024-05-12T1600,4004A,115.4202,38.8656,保定市,双鹰农机,,42,37,59,15,22,133,,111,111,8,25,3,3,0.0,0.1
2024-05-12T1600,4034A,115.5150,38.8590,保定市,植保所站,,47,47,71,13,29,133,,113,113,5,21,3,3,0.1,0.2
2024-05-12T1600,2594A,99.1678,25.1081,保山市,市环境监测站,,39,22,33,9,19,123,,105,105,5,9,8,8,0.4,0.6
2024-05-12T1600,2595A,99.1711,25.1328,保山市,市环保局,,42,32,40,17,17,134,,114,114,4,6,7,7,0.4,0.5
2024-05-12T1600,1867A,109.1436,21.4086,北海市,海滩公园,,18,18,22,5,8,50,,60,60,5,5,6,6,0.5,0.5
2024-05-12T1600,1868A,109.0981,21.4661,北海市,新市环保局,,20,20,24,7,10,54,,62,62,4,6,4,5,0.5,0.6
2024-05-12T1600,1869A,109.1778,21.5233,北海市,北海工业园,,24,24,28,10,14,50,,56,56,5,7,7,6,0.4,0.5
2024-05-12T1600,3400A,109.1911,21.4415,北海市,龙潭自来水厂,,21,21,23,13,14,51,,56,56,2,4,5,5,0.5,0.5
2024-05-12T1600,1001A,116.3621,39.8784,北京市,万寿西宫,,38,19,43,8,12,119,,99,99,8,20,3,3,0.2,0.2
2024-05-12T1600,1003A,116.4174,39.9289,北京市,东四,,35,21,48,8,15,112,,90,90,8,21,1,2,0.3,0.6
2024-05-12T1600,1004A,116.4072,39.8863,北京市,天坛,,36,18,38,7,13,115,,94,94,9,20,2,1,0.2,0.2
2024-05-12T1600,1005A,116.462,39.9365,北京市,农展馆,,32,23,42,9,13,101,,86,86,8,20,3,2,0.1,0.2
2024-05-12T1600,1006A,116.3392,39.9295,北京市,官园,,38,22,46,6,11,121,,100,100,11,21,2,2,0.1,0.1
2024-05-12T1600,1007A,116.2878,39.9611,北京市,海淀万柳,,38,22,41,8,13,119,,97,97,7,26,4,4,0.4,0.3
2024-05-12T1600,1008A,116.6636,40.135,北京市,顺义新城,,33,12,49,4,11,105,,88,88,6,13,3,3,0.1,0.1
2024-05-12T1600,1009A,116.6275,40.3275,北京市,怀柔镇,,34,15,49,6,14,107,,91,91,4,6,3,3,0.2,0.4
2024-05-12T1600,1010A,116.2296,40.217,北京市,昌平镇,,32,17,41,7,12,100,,83,83,5,10,3,2,0.1,0.1
2024-05-12T1600,1011A,116.3966,39.9821,北京市,奥体中心,,31,15,42,8,14,99,,82,82,6,27,3,3,0.2,0.2
2024-05-12T1600,1012A,116.184,39.9136,北京市,古城,,35,17,39,6,11,112,,93,93,11,15,1,1,0.0,0
2024-05-12T1600,3281A,115.9718,40.4529,北京市,延庆夏都,,37,15,49,10,17,117,,96,96,5,17,3,3,0.1,0.1
2024-05-12T1600,3417A,117.0709,40.1465,北京市,平谷新城,,32,18,52,6,12,100,,90,90,4,9,3,3,0.1,0.2
2024-05-12T1600,3418A,116.8336,40.4095,北京市,密云新城,,32,17,50,7,14,100,,90,90,4,11,3,3,0.2,0.2
2024-05-12T1600,3672A,116.1541,39.8204,北京市,丰台云岗,,34,17,36,8,10,107,,93,93,6,8,3,3,0.1,0.1
2024-05-12T1600,3673A,116.6804,39.9081,北京市,通州东关,,35,27,60,10,15,110,,84,84,5,18,3,3,0.2,0.3
2024-05-12T1600,3674A,115.9577,39.7603,北京市,房山燕山,,40,40,36,9,10,109,,94,94,11,7,3,2,0.1,0.2
2024-05-12T1600,3675A,116.4672,39.7733,北京市,大兴旧宫,,35,23,43,7,10,109,,90,90,8,18,3,3,0.1,0.2
2024-05-12T1600,3694A,115.986,40.4563,北京市,延庆石河营,,36,12,43,5,12,114,,97,97,4,16,1,2,0.2,0.1
2024-05-12T1600,3695A,116.6151,40.3053,北京市,怀柔新城,,31,16,45,5,13,97,,83,83,10,5,3,3,0.2,0.1
2024-05-12T1600,3696A,116.2545,39.8768,北京市,丰台小屯,,34,18,47,6,13,108,,90,90,4,21,3,3,0.1,0.2
2024-05-12T1600,3697A,116.84,40.3844,北京市,密云镇,,,15,51,7,15,98,,81,81,2,20,,3,0.2,0.2
2024-05-12T1600,1761A,123.8275,41.3064,本溪市,大峪,,35,30,79,12,17,110,,102,102,9,12,10,13,0.5,0.5
2024-05-12T1600,1762A,123.7567,41.3325,本溪市,溪湖,,47,47,90,12,15,107,,99,99,8,11,10,12,0.4,0.4
2024-05-12T1600,1763A,123.7169,41.3094,本溪市,彩屯,,33,26,55,12,17,104,,93,93,14,17,9,11,0.5,0.5
2024-05-12T1600,1764A,123.7669,41.2864,本溪市,东明,,32,25,82,13,19,102,,92,92,11,19,11,16,0.5,0.8
2024-05-12T1600,1765A,123.7992,41.2664,本溪市,新立屯,,33,20,71,14,21,104,,96,96,10,18,12,16,0.5,0.8
2024-05-12T1600,1766A,123.8142,41.3472,本溪市,威宁,,32,29,86,13,24,101,,92,92,11,16,8,8,0.4,0.4
2024-05-12T1600,2587A,105.2864,27.3125,毕节市,八中,,31,,9,14,7,97,,88,88,7,6,4,4,0.4,0.4
2024-05-12T1600,2588A,105.31,27.2944,毕节市,师专,,29,15,10,14,8,91,,83,80,9,8,6,6,0.4,0.4
2024-05-12T1600,3537A,105.3631,27.3533,毕节市,长征村,,33,22,12,17,9,103,,92,89,5,6,6,6,0.3,0.4
2024-05-12T1600,1629A,118.0018,37.3617,滨州市,第二水厂,颗粒物(PM10),59,68,105,19,30,135,,111,111,11,30,6,12,0.3,0.5
2024-05-12T1600,1630A,117.9776,37.393,滨州市,北中新校,颗粒物(PM10),53,56,86,12,28,129,,104,104,8,29,10,13,0.5,0.7
2024-05-12T1600,3514A,117.9378,37.3956,滨州市,中海酒店,颗粒物(PM10),53,56,74,36,34,140,,114,114,8,23,9,15,0.5,0.6
2024-05-12T1600,3515A,117.9378,37.3553,滨州市,开发区一中,颗粒物(PM10),63,75,100,29,37,131,,108,108,6,28,12,16,0.6,0.7
2024-05-12T1600,3516A,118.0917,37.694,滨州市,金海六路,,,51,84,,23,128,,107,107,8,34,9,11,0.3,0.5
2024-05-12T1600,4028A,117.9956,37.3753,滨州市,滨州市西街道办事处,颗粒物(PM10),51,51,96,12,26,130,,106,106,11,27,8,14,0.5,0.7
2024-05-12T1600,2311A,115.8072,33.8399,亳州市,污水处理厂,颗粒物(PM10),78,106,210,47,55,161,,132,132,4,14,9,12,0.2,0.2
2024-05-12T1600,2312A,115.7789,33.8518,亳州市,三国揽胜宫,颗粒物(PM10),88,126,229,32,53,154,,128,128,3,13,9,10,0.3,0.4
2024-05-12T1600,3332A,115.7633,33.8034,亳州市,亳州学院,颗粒物(PM10),87,124,219,25,46,157,,134,134,5,12,10,10,0.4,0.4
2024-05-12T1600,2693A,82.0485,44.8556,博尔塔拉蒙古自治州,市党校,颗粒物(PM10),66,82,138,29,32,113,,94,94,5,6,11,11,0.4,0.4
2024-05-12T1600,2694A,82.0806,44.8969,博尔塔拉蒙古自治州,市环保局,颗粒物(PM10),65,79,132,22,26,117,,95,95,5,7,10,10,0.3,0.3
2024-05-12T1600,1071A,116.8842,38.2991,沧州市,沧县城建局,,42,41,67,8,21,134,,108,108,7,30,1,2,0.2,0.3
2024-05-12T1600,1072A,116.8584,38.3254,沧州市,电视转播站,,41,36,60,17,18,130,,102,102,9,28,6,4,0.2,0.3
2024-05-12T1600,1073A,116.8709,38.3228,沧州市,市环保局,,38,37,68,14,36,121,,105,105,8,31,3,4,0.1,0.4
2024-05-12T1600,3324A,116.8136,38.3004,沧州市,河北水利电力学院,,42,34,62,17,29,133,,105,105,7,36,4,6,0.3,0.3
2024-05-12T1600,2622A,97.1806,31.1273,昌都市,昌都监测站,,46,16,13,4,9,147,,108,108,3,8,6,7,0.4,0.4
2024-05-12T1600,3719A,97.1714,31.1406,昌都市,昌都会议中心,,48,8,13,1,7,151,,110,110,5,7,6,6,0.4,0.4
2024-05-12T1600,2690A,88.1236,43.8886,昌吉回族自治州,天山天池,颗粒物(PM10),58,66,77,16,16,108,,86,86,6,7,7,7,0.5,0.5
2024-05-12T1600,2692A,87.2717,44.0297,昌吉回族自治州,新区政务中心,颗粒物(PM10),57,63,216,31,60,103,,87,87,5,15,10,12,0.4,0.5
2024-05-12T1600,3613A,87.3095,44.0142,昌吉回族自治州,亚心广场,"颗粒物(PM10),细颗粒物(PM2.5)",70,90,247,51,57,108,,93,93,10,23,8,9,0.3,0.4
2024-05-12T1600,1119A,125.3325,43.9166,长春市,食品厂,,33,26,30,21,14,104,,93,93,13,17,6,6,0.3,0.3
2024-05-12T1600,1120A,125.2863,43.9027,长春市,客车厂,,32,26,29,22,14,100,,88,88,12,14,4,4,0.3,0.3
2024-05-12T1600,1121A,125.2841,43.8463,长春市,邮电学院,,33,26,27,14,11,105,,93,93,8,11,7,7,0.3,0.3
2024-05-12T1600,1122A,125.3716,43.8772,长春市,劳动公园,,35,35,29,17,10,109,,98,98,10,12,4,4,0.2,0.3
2024-05-12T1600,1123A,125.3297,43.8805,长春市,园林处,,40,28,25,28,13,103,,93,93,10,12,4,4,0.3,0.3
2024-05-12T1600,1124A,125.4605,43.79,长春市,净月潭,,34,28,30,16,8,106,,95,95,5,7,7,7,0.2,0.2
2024-05-12T1600,1126A,125.3863,43.8447,长春市,经开区环卫处,,35,24,25,14,11,109,,98,98,7,10,5,5,0.3,0.3
2024-05-12T1600,1127A,125.245,43.7783,长春市,高新区管委会,,34,27,29,20,14,106,,94,94,6,10,6,6,0.4,0.4
2024-05-12T1600,1128A,125.1761,43.8325,长春市,岱山公园,,34,27,29,19,14,107,,93,93,9,13,6,5,0.3,0.3
2024-05-12T1600,1335A,113.0833,28.2325,长沙市,经开区环保局,颗粒物(PM10),115,180,112,32,36,166,,126,126,6,13,9,8,0.3,0.5
2024-05-12T1600,1336A,112.8872,28.2189,长沙市,高开区环保局,颗粒物(PM10),141,232,137,30,32,159,,130,130,8,11,6,6,0.4,0.5
2024-05-12T1600,1337A,113.0792,28.2053,长沙市,马坡岭,颗粒物(PM10),122,194,112,29,38,145,,111,111,10,14,9,8,0.3,0.5
2024-05-12T1600,1338A,112.9394,28.19,长沙市,湖南师范大学,颗粒物(PM10),141,231,135,30,34,161,,130,130,2,5,5,4,0.3,0.4
2024-05-12T1600,1339A,113.0178,28.1322,长沙市,雨花区环保局,颗粒物(PM10),134,218,126,44,41,152,,122,122,11,10,7,6,0.5,0.6
2024-05-12T1600,1340A,112.9792,28.2597,长沙市,伍家岭,颗粒物(PM10),132,214,126,44,36,149,,116,116,8,11,7,6,0.3,0.4
2024-05-12T1600,1341A,113.0014,28.1944,长沙市,火车新站,颗粒物(PM10),135,219,124,44,42,155,,124,124,12,12,5,4,0.5,0.6
2024-05-12T1600,1342A,112.9844,28.1178,长沙市,天心区环保局,颗粒物(PM10),144,237,127,30,33,147,,118,118,20,22,4,3,0.1,0.3
2024-05-12T1600,1343A,112.8908,28.1308,长沙市,湖南中医药大学,颗粒物(PM10),139,227,135,35,33,149,,127,127,9,9,9,8,0.4,0.5
2024-05-12T1600,1344A,112.9581,28.3611,长沙市,沙坪,颗粒物(PM10),99,148,96,54,33,156,,125,125,6,9,9,8,0.2,0.5
2024-05-12T1600,1727A,113.1147,36.1547,长治市,清华站,臭氧1小时,73,68,99,22,23,178,,138,138,10,28,12,13,0.4,0.6
2024-05-12T1600,1728A,113.1031,36.1989,长治市,监测站,臭氧1小时,75,60,99,22,27,180,,142,142,13,33,18,20,0.7,1.2
2024-05-12T1600,1730A,113.0886,36.2125,长治市,审计局,臭氧1小时,78,51,85,19,25,182,,144,144,9,29,17,20,0.3,0.6
2024-05-12T1600,1731A,113.0844,36.1856,长治市,长治八中,臭氧1小时,77,67,104,25,24,181,,140,140,12,38,11,13,0.4,0.8
2024-05-12T1600,2845A,113.1569,36.1911,长治市,德盛苑,臭氧1小时,69,57,68,17,21,175,,138,138,10,16,10,10,0.4,0.6
2024-05-12T1600,3568A,113.06,36.0464,长治市,向阳小学,臭氧1小时,88,81,110,2,31,190,,137,137,13,32,15,16,0.5,0.8
2024-05-12T1600,3569A,112.8792,36.3144,长治市,屯留一中,臭氧1小时,72,47,64,8,15,177,,147,147,7,21,14,14,0.8,0.9
2024-05-12T1600,3570A,113.235,36.3489,长治市,潞城四中,臭氧1小时,70,77,139,32,41,176,,149,149,10,32,6,7,0.3,0.6
2024-05-12T1600,1854A,111.6975,28.9703,常德市,市二中,颗粒物(PM10),82,113,85,30,31,146,,110,110,9,14,10,9,0.4,0.4
2024-05-12T1600,3138A,111.7153,29.0289,常德市,武陵区永安,颗粒物(PM10),88,125,91,27,31,149,,116,116,5,11,9,9,0.3,0.4
2024-05-12T1600,3139A,111.6892,28.9881,常德市,鼎城区玉霞,颗粒物(PM10),84,117,88,31,33,144,,110,110,11,16,8,7,0.3,0.4
2024-05-12T1600,3140A,111.6625,29.0531,常德市,武陵区长庚,颗粒物(PM10),80,110,84,30,31,147,,108,108,7,12,9,9,0.4,0.5
2024-05-12T1600,1196A,119.9633,31.762,常州市,市监测站,颗粒物(PM10),78,106,78,29,36,143,,118,118,4,11,9,9,0.4,0.5
2024-05-12T1600,1200A,119.9468,31.7069,常州市,武进监测站,颗粒物(PM10),72,94,64,28,31,144,,122,122,7,11,7,8,0.3,0.5
2024-05-12T1600,1201A,119.9255,31.9087,常州市,安家,颗粒物(PM10),89,128,94,59,42,142,,116,116,9,17,8,8,0.4,0.6
2024-05-12T1600,3002A,119.9805,31.8174,常州市,行政中心,颗粒物(PM10),70,90,71,29,33,134,,108,108,3,10,8,9,0.3,0.3
2024-05-12T1600,3003A,120.0522,31.7748,常州市,经开区,颗粒物(PM10),64,78,79,26,31,140,,112,112,13,14,9,7,0.3,0.4
2024-05-12T1600,3010A,119.9025,31.7964,常州市,钟楼,颗粒物(PM10),81,111,76,31,35,140,,109,109,7,15,8,8,0.4,0.6
2024-05-12T1600,3429A,119.8598,31.7066,常州市,武进经发区,颗粒物(PM10),107,164,93,47,31,144,,110,110,10,14,6,4,0.5,0.5
2024-05-12T1600,3430A,119.5826,31.7245,常州市,金坛城区,颗粒物(PM10),121,191,104,67,38,161,,123,123,9,12,8,8,0.5,0.6
2024-05-12T1600,2220A,120.4318,41.5881,朝阳市,西梁,,46,46,17,11,11,114,,98,98,6,9,8,9,0.3,0.3
2024-05-12T1600,2221A,120.4521,41.5646,朝阳市,河畔小区,颗粒物(PM10),70,89,30,21,11,117,,102,102,8,12,7,8,0.3,0.3
2024-05-12T1600,2222A,120.4176,41.5648,朝阳市,八里堡,颗粒物(PM10),68,86,39,16,15,117,,101,101,6,15,8,9,0.4,0.5
2024-05-12T1600,2223A,120.3806,41.5969,朝阳市,农业园区,,50,50,21,19,14,127,,107,107,6,11,6,7,0.2,0.3
2024-05-12T1600,1705A,116.6367,23.6719,潮州市,西园路,,48,48,56,30,32,74,,70,70,12,20,8,11,0.4,0.5
2024-05-12T1600,3026A,116.6183,23.6608,潮州市,市政府,颗粒物(PM10),55,59,67,26,30,91,,77,77,12,24,11,15,0.8,0.9
2024-05-12T1600,4036A,116.6461,23.6761,潮州市,金山,颗粒物(PM10),54,58,59,33,34,80,,72,72,14,20,10,12,0.8,0.8
2024-05-12T1600,2472A,113.0073,25.9061,郴州市,马头岭,颗粒物(PM10),64,77,33,26,11,100,,66,66,9,9,4,4,0.8,0.7
2024-05-12T1600,2473A,113.0116,25.8226,郴州市,市职中,细颗粒物(PM2.5),63,57,24,45,20,103,,65,63,6,5,6,6,0.7,0.6
2024-05-12T1600,2474A,113.0161,25.8001,郴州市,兴隆步行街,"颗粒物(PM10),细颗粒物(PM2.5)",54,58,27,38,18,75,,71,64,9,7,6,6,0.7,0.6
2024-05-12T1600,2475A,113.0383,25.8071,郴州市,市审计局,细颗粒物(PM2.5),54,54,23,38,17,71,,67,64,9,7,4,3,0.6,0.6
2024-05-12T1600,2476A,113.0348,25.7759,郴州市,市环保局,细颗粒物(PM2.5),59,60,27,42,23,70,,67,61,10,8,4,3,0.8,0.7
2024-05-12T1600,1431A,103.9728,30.7236,成都市,金泉两河,,43,43,58,2,16,89,,60,60,9,14,2,2,0.5,0.5
2024-05-12T1600,1432A,104.176,30.6872,成都市,十里店,颗粒物(PM10),51,52,61,9,23,117,,78,78,18,27,6,5,0.6,0.6
2024-05-12T1600,1433A,104.079,30.5706,成都市,三瓦窑,颗粒物(PM10),56,61,63,22,27,80,,58,58,31,32,5,4,0.4,0.4
2024-05-12T1600,1434A,104.1114,30.63,成都市,沙河铺,,50,50,59,16,19,101,,60,60,18,27,7,6,0.3,0.4
2024-05-12T1600,1437A,104.0786,30.6531,成都市,君平街,颗粒物(PM10),54,58,67,20,20,101,,68,68,16,22,7,5,0.5,0.5
2024-05-12T1600,2880A,104.0239,30.65639,成都市,大石西路,颗粒物(PM10),54,58,57,26,18,95,,62,62,22,28,7,4,0.4,0.4
2024-05-12T1600,3136A,104.2725,30.5589,成都市,龙泉驿区区政府,颗粒物(PM10),52,53,50,14,19,121,,86,86,5,13,4,4,0.3,0.4
2024-05-12T1600,3357A,104.0106,30.6931,成都市,金博路,颗粒物(PM10),56,61,57,16,19,80,,52,52,16,18,3,2,0.4,0.4
2024-05-12T1600,3359A,104.0578,30.5225,成都市,华阳,,48,48,56,22,29,100,,68,68,11,18,4,4,0.3,0.3
2024-05-12T1600,3487A,104.2394,30.5319,成都市,车城东七路,,46,46,50,18,20,117,,84,84,6,14,3,4,0.3,0.4
2024-05-12T1600,3488A,104.3853,30.7453,成都市,青白江技师分院,颗粒物(PM10),51,52,56,10,19,126,,82,82,10,24,3,4,0.4,0.5
2024-05-12T1600,3489A,104.0789,30.4072,成都市,科学城,颗粒物(PM10),51,51,45,26,19,77,,70,70,14,16,4,4,0.6,0.5
2024-05-12T1600,4011A,103.8506,30.6947,成都市,光华大道三段,颗粒物(PM10),53,56,66,25,20,102,,72,72,16,21,1,2,0.5,0.4
2024-05-12T1600,1062A,117.9531,40.9081,承德市,铁路,,32,16,25,3,11,100,,91,91,4,10,7,7,0.2,0.2
2024-05-12T1600,1063A,117.9392,40.9763,承德市,中国银行,,32,19,31,2,9,102,,93,93,3,15,8,8,0.3,0.2
2024-05-12T1600,1064A,117.9503,40.928,承德市,开发区,,33,33,39,10,13,102,,91,91,6,16,5,5,0.2,0.2
2024-05-12T1600,1065A,117.8051,40.9655,承德市,文化中心,,32,18,44,3,5,100,,93,93,3,19,6,7,0.2,0.2
2024-05-12T1600,1066A,117.9268,41.0026,承德市,离宫,,32,16,26,4,13,100,,90,90,2,7,2,2,0.2,0.2
2024-05-12T1600,2314A,117.47,30.6618,池州市,池州学院,颗粒物(PM10),94,137,62,38,31,143,,110,110,12,12,6,5,0.4,0.6
2024-05-12T1600,3237A,117.4918,30.6617,池州市,展览馆,细颗粒物(PM2.5),65,62,39,47,33,136,,107,107,7,10,4,4,0.4,0.6
2024-05-12T1600,3333A,117.5627,30.695,池州市,第八中学,颗粒物(PM10),90,130,63,34,29,139,,110,110,8,12,4,4,0.5,0.7
2024-05-12T1600,3334A,117.5038,30.6243,池州市,第十二中学,颗粒物(PM10),103,155,64,33,28,144,,117,117,10,12,6,4,0.3,0.6
2024-05-12T1600,1744A,118.9233,42.2816,赤峰市,松山一中,,31,17,23,4,10,99,,94,94,10,14,8,8,0.3,0.3
2024-05-12T1600,1745A,118.9576,42.2728,赤峰市,哈达街,,28,15,21,4,9,87,,83,83,17,18,8,9,0.3,0.3
2024-05-12T1600,1746A,118.8788,42.2554,赤峰市,天义路,,32,14,16,3,8,100,,94,94,19,19,5,5,0.2,0.2
2024-05-12T1600,3058A,119.2658,42.0353,赤峰市,银河街,,31,31,27,3,9,99,,96,96,11,13,11,11,0.3,0.3
2024-05-12T1600,3286A,118.9359,42.3147,赤峰市,桥北物流园区,,31,,19,8,8,98,,93,93,14,15,7,7,0.3,0.4
2024-05-12T1600,2521A,107.3476,22.4136,崇左市,市环保局江州分局,,28,13,41,11,26,89,,64,64,2,8,8,10,0.5,0.5
2024-05-12T1600,2522A,107.3702,22.3707,崇左市,城南新区,,28,17,37,12,24,89,,68,68,6,9,6,8,0.6,0.7
2024-05-12T1600,2298A,118.3093,32.3153,滁州市,老年大学,颗粒物(PM10),126,202,137,43,41,153,,118,118,12,12,8,8,0.4,0.5
2024-05-12T1600,2299A,118.3244,32.2786,滁州市,人大宾馆,颗粒物(PM10),131,212,148,45,39,151,,120,120,14,14,6,7,0.5,0.6
2024-05-12T1600,3207A,118.3118,32.3038,滁州市,市政府原办公楼,颗粒物(PM10),122,193,140,43,45,154,,120,120,10,13,7,8,0.4,0.5
2024-05-12T1600,3331A,118.3267,32.2634,滁州市,图书馆,颗粒物(PM10),126,202,154,41,37,153,,123,123,6,10,8,8,0.4,0.6
2024-05-12T1600,2605A,101.5482,25.0441,楚雄彝族自治州,州环境监测站,,38,25,22,16,18,120,,101,101,6,13,6,7,0.5,0.5
2024-05-12T1600,2606A,101.538,25.0492,楚雄彝族自治州,市经济开发区,,38,38,29,19,22,120,,95,95,7,14,4,5,0.5,0.5
2024-05-12T1600,2548A,107.5277,31.2827,达州市,达州职业技术学院,颗粒物(PM10),68,86,61,26,20,119,,82,82,19,22,11,7,0.8,0.8
2024-05-12T1600,2549A,107.5086,31.2186,达州市,市环境监测站,颗粒物(PM10),71,92,72,36,29,122,,80,80,18,32,8,9,0.6,1.1
2024-05-12T1600,2550A,107.4988,31.2132,达州市,凤凰小区,颗粒物(PM10),71,92,74,34,33,122,,84,84,13,31,7,11,0.5,1.1
2024-05-12T1600,2551A,107.5082,31.1986,达州市,达县机关宾馆,颗粒物(PM10),74,97,71,37,34,119,,82,82,22,29,5,5,0.3,0.7
2024-05-12T1600,2552A,107.4644,31.2124,达州市,市政中心,颗粒物(PM10),72,93,73,41,31,110,,73,73,24,32,24,12,1.3,1.2
2024-05-12T1600,2614A,100.1542,25.7054,大理白族自治州,大理市环境监测站,颗粒物(PM10),58,65,34,15,14,116,,113,113,16,13,6,7,0.6,0.5
2024-05-12T1600,2615A,100.2171,25.5811,大理白族自治州,大理古城,,40,18,22,8,16,127,,124,124,7,12,7,7,0.6,0.7
2024-05-12T1600,1109A,121.612,38.9741,大连市,甘井子,,36,33,72,8,15,114,,99,99,13,18,9,9,0.4,0.4
2024-05-12T1600,1110A,121.565,38.9511,大连市,周水子,,36,34,66,14,19,115,,100,100,12,29,7,8,0.3,0.4
2024-05-12T1600,1111A,121.5637,38.8845,大连市,星海三站,,35,28,59,6,11,111,,102,102,7,12,5,5,0.5,0.5
2024-05-12T1600,1112A,121.6302,38.9117,大连市,青泥洼桥,,33,26,52,8,15,105,,94,94,14,26,8,7,0.4,0.4
2024-05-12T1600,1113A,121.6251,38.8638,大连市,傅家庄,,32,30,48,9,12,100,,101,101,15,17,6,6,0.4,0.4
2024-05-12T1600,1114A,121.5213,38.8661,大连市,七贤岭,,36,28,54,10,15,114,,103,103,9,12,8,8,0.5,0.5
2024-05-12T1600,1115A,121.2529,38.8061,大连市,旅顺,,37,31,56,7,14,118,,107,107,13,15,8,8,0.4,0.5
2024-05-12T1600,1116A,121.7485,39.1311,大连市,金州,,37,37,81,8,22,109,,96,96,12,17,7,7,0.5,0.5
2024-05-12T1600,1117A,121.7811,39.0496,大连市,开发区,,43,43,100,10,23,106,,93,93,16,22,8,5,0.4,0.4
2024-05-12T1600,1118A,121.9762,39.0631,大连市,双D港,,36,24,45,8,14,115,,102,102,10,14,8,8,0.5,0.6
2024-05-12T1600,1789A,124.81117,46.03138,大庆市,大同区,,42,31,20,29,23,111,,96,96,4,4,6,6,0.3,0.4
2024-05-12T1600,1790A,125.129,46.533,大庆市,龙凤区,,40,29,25,28,24,110,,94,94,11,11,7,6,0.3,0.2
2024-05-12T1600,1791A,124.902,46.408,大庆市,红岗区,,35,25,26,23,19,111,,97,97,6,5,8,7,0.3,0.3
2024-05-12T1600,1792A,125.153,46.586,大庆市,萨尔图区,,36,36,22,19,14,103,,88,88,10,9,8,7,0.3,0.1
2024-05-12T1600,1793A,124.9042,46.6215,大庆市,让胡路区,,46,32,29,32,23,105,,93,93,7,5,5,4,0.2,0.2
2024-05-12T1600,3481A,125.141,46.634,大庆市,萨区政府监测点,,34,26,29,18,15,106,,90,90,5,6,8,7,0.1,0.2
2024-05-12T1600,1723A,113.2994,40.0758,大同市,云冈宾馆,,,17,35,3,14,125,,115,115,7,16,,9,,0.9
2024-05-12T1600,1724A,113.3444,40.0917,大同市,大同大学,,38,17,30,9,16,120,,108,108,6,11,12,16,0.4,0.5
2024-05-12T1600,1725A,113.2661,40.1269,大同市,安家小村,,37,11,33,7,14,118,,100,100,3,12,8,9,0.4,0.6
2024-05-12T1600,1726A,113.2711,40.0844,大同市,教育学院,,40,17,32,8,10,128,,108,108,5,14,6,8,0.3,0.6
2024-05-12T1600,3282A,113.3397,40.0597,大同市,大同市卫生学校,,39,19,26,8,13,124,,106,106,8,14,6,10,0.3,0.5
2024-05-12T1600,3565A,113.1367,40.1122,大同市,云冈站,,,33,31,10,17,123,,105,105,,16,7,14,0.2,0.3
2024-05-12T1600,3566A,113.1186,40.2556,大同市,图书馆,,36,14,30,4,12,113,,96,96,9,12,11,12,0.4,0.5
2024-05-12T1600,3567A,113.5931,40.0461,大同市,区一中,,41,23,29,5,10,130,,110,110,6,8,7,7,0.2,0.2
2024-05-12T1600,3676A,113.2802,40.0995,大同市,第二人民医院,,39,26,36,3,11,122,,103,103,5,13,9,10,0.3,0.7
2024-05-12T1600,2269A,124.1069,50.4097,大兴安岭地区,科技局,,28,12,39,12,29,88,,79,79,4,6,7,7,0.3,0.3
2024-05-12T1600,3663A,124.1164,50.4278,大兴安岭地区,红旗社区,,30,7,24,4,24,93,,83,83,3,6,5,6,0.3,0.4
2024-05-12T1600,1600A,124.3303,40.0625,丹东市,江湾东路,,45,45,133,10,34,106,,98,98,11,19,7,7,0.3,0.5
2024-05-12T1600,1601A,124.4256,40.1503,丹东市,临江后街,,36,21,92,9,26,114,,99,99,10,15,7,9,0.5,0.8
2024-05-12T1600,1602A,124.3933,40.1461,丹东市,元宝山,,34,34,126,12,31,104,,92,92,7,13,8,9,0.4,0.7
2024-05-12T1600,1603A,124.3633,40.1092,丹东市,民主桥,,,61,142,7,36,99,,88,88,13,25,,11,0.4,0.6
2024-05-12T1600,3541A,109.5726,19.5167,儋州市,第一中学子站,,32,32,25,11,12,78,,67,67,2,5,4,5,0.3,0.4
2024-05-12T1600,3542A,109.5567,19.5187,儋州市,东坡学校子站,,25,17,22,15,11,80,,67,67,2,4,3,5,0.5,0.5
2024-05-12T1600,2616A,98.5842,24.428,德宏傣族景颇族自治州,德宏州监测站,,46,33,41,24,31,147,,96,96,9,16,9,6,0.5,0.7
2024-05-12T1600,3677A,98.5881,24.4368,德宏傣族景颇族自治州,芒市人民政府综合楼,,44,40,41,19,24,140,,94,94,10,14,9,5,0.5,0.6
2024-05-12T1600,1901A,104.4239,31.1208,德阳市,东山公园,颗粒物(PM10),74,98,79,23,25,132,,80,80,16,24,2,3,0.4,0.4
2024-05-12T1600,1902A,104.3826,31.1317,德阳市,西小区,颗粒物(PM10),67,83,73,27,27,122,,76,76,17,31,1,3,0.4,0.5
2024-05-12T1600,1904A,104.3553,31.1091,德阳市,耐火材料厂,颗粒物(PM10),74,97,75,28,25,126,,85,85,16,30,3,4,0.4,0.5
2024-05-12T1600,3639A,104.4019,31.1244,德阳市,市教育局,颗粒物(PM10),65,80,69,25,23,118,,72,72,15,25,2,4,0.4,0.4
2024-05-12T1600,1622A,116.3032,37.4674,德州市,儿童乐园,颗粒物(PM10),58,66,88,12,21,144,,114,114,8,25,6,7,0.4,0.5
2024-05-12T1600,1624A,116.2991,37.4451,德州市,监理站,颗粒物(PM10),56,61,85,17,20,149,,118,118,8,22,6,9,0.4,0.4
2024-05-12T1600,3066A,116.2721,37.4379,德州市,九衢泉纯净水厂,颗粒物(PM10),54,58,87,22,25,142,,116,116,12,35,4,6,0.2,0.3
2024-05-12T1600,3371A,116.3728,37.4403,德州市,开发区人民医院,颗粒物(PM10),54,58,86,9,22,144,,114,114,2,22,7,9,0.2,0.3
2024-05-12T1600,3372A,116.3572,37.4094,德州市,太阳城中学,颗粒物(PM10),56,61,90,22,27,142,,111,111,8,23,6,7,0.3,0.4
2024-05-12T1600,3511A,116.5652,37.3319,德州市,陵城艺术中心,颗粒物(PM10),62,73,87,14,20,136,,107,107,8,21,4,5,0.3,0.4
2024-05-12T1600,2621A,99.7056,27.8317,迪庆藏族自治州,迪庆州站,,39,12,20,6,11,123,,115,115,9,11,7,8,0.3,0.4
2024-05-12T1600,3180A,99.7136,27.8094,迪庆藏族自治州,质量技术监督局,,39,24,18,4,5,124,,120,120,8,10,7,7,0.5,0.6
2024-05-12T1600,2663A,104.6241,35.5734,定西市,东关小学,,48,34,69,8,22,153,,122,122,4,20,5,4,0.2,0.2
2024-05-12T1600,2664A,104.6194,35.5934,定西市,供电公司,,47,24,59,15,23,149,,113,113,1,24,6,5,0.2,0.3
2024-05-12T1600,1389A,113.7547,23.0494,东莞市,莞城梨川,,25,13,39,5,16,78,,71,71,14,26,7,8,0.7,0.7
2024-05-12T1600,1390A,113.7944,23.0128,东莞市,东城石井,,23,10,36,6,15,73,,69,69,14,21,6,6,0.7,0.8
2024-05-12T1600,1391A,113.7383,22.9658,东莞市,南城西平,,20,15,38,6,16,62,,63,63,16,28,4,4,0.8,0.8
2024-05-12T1600,3319A,113.7338,23.0381,东莞市,万江金泰,,22,14,38,6,15,70,,65,65,12,25,8,8,0.6,0.7
2024-05-12T1600,3626A,113.7533,23.0202,东莞市,南城元岭,,25,12,39,5,16,77,,71,71,10,23,8,8,0.8,0.8
2024-05-12T1600,3627A,113.7875,23.0457,东莞市,东城主山,,23,11,33,6,15,73,,73,73,13,20,7,7,0.5,0.6
2024-05-12T1600,1666A,118.6614,37.4309,东营市,市环保局,臭氧1小时,55,58,80,22,30,164,,128,128,14,32,13,13,0.3,0.3
2024-05-12T1600,3036A,118.6904,37.4338,东营市,开发区管委会,颗粒物(PM10),62,74,94,24,23,160,,125,125,12,27,9,9,0.5,0.4
2024-05-12T1600,3365A,118.5719,37.565,东营市,垦利区民丰路,,,46,72,,29,137,,115,115,10,33,10,11,0.4,0.5
2024-05-12T1600,3498A,118.5055,37.8612,东营市,河口城区,,41,41,72,7,16,117,,97,97,8,18,5,7,0.1,0.2
2024-05-12T1600,3646A,118.4978,37.4623,东营市,胜利站,颗粒物(PM10),58,66,85,27,30,152,,125,125,10,28,13,14,0.4,0.4
2024-05-12T1600,3734A,118.35,37.26,东营市,理想之城,颗粒物(PM10),60,70,84,31,37,155,,122,122,11,35,14,14,0.7,0.8
2024-05-12T1600,1591A,110.0023,39.8129,鄂尔多斯市,综合楼,,39,29,44,5,9,124,,106,106,10,20,2,21,0.4,0.5
2024-05-12T1600,1592A,109.9486,39.8261,鄂尔多斯市,巴音孟克林场办事处,,38,31,56,7,18,119,,101,101,7,32,6,10,0.4,0.6
2024-05-12T1600,1593A,109.7736,39.5986,鄂尔多斯市,康泽苑,,40,19,38,9,13,125,,110,110,5,13,4,8,0.3,0.4
2024-05-12T1600,1594A,109.8119,39.5989,鄂尔多斯市,华泰汽车城,,39,19,39,9,15,122,,103,103,4,23,7,7,0.3,0.4
2024-05-12T1600,1595A,109.9734,39.7884,鄂尔多斯市,奥林花园,,38,31,40,9,17,120,,104,104,9,21,6,14,0.5,0.6
2024-05-12T1600,2436A,114.8938,30.3994,鄂州市,市政府,颗粒物(PM10),77,104,125,36,32,159,,118,118,8,14,11,10,0.7,0.7
2024-05-12T1600,2437A,114.8989,30.3714,鄂州市,赵家坝,颗粒物(PM10),90,130,134,36,33,160,,113,113,4,8,12,9,0.4,0.4
2024-05-12T1600,3654A,114.8094,30.4089,鄂州市,精准医疗中心,颗粒物(PM10),95,140,150,36,35,153,,108,108,6,12,6,7,0.3,0.5
2024-05-12T1600,2454A,109.4978,30.2981,恩施土家族苗族自治州,湖北民院,,40,40,44,18,20,122,,100,100,15,15,8,8,0.5,0.5
2024-05-12T1600,2455A,109.4707,30.2798,恩施土家族苗族自治州,州电力总公司,,37,37,36,14,18,117,,91,91,12,17,8,8,0.4,0.5
2024-05-12T1600,3549A,109.5061,30.3772,恩施土家族苗族自治州,龙凤新区,,41,36,36,9,14,131,,93,93,8,10,6,7,0.4,0.5
2024-05-12T1600,2499A,108.3411,21.6158,防城港市,沙万,,36,36,28,13,13,38,,40,40,10,15,4,6,0.6,0.7
2024-05-12T1600,2500A,108.3514,21.7731,防城港市,防城档案局,,22,22,34,14,19,48,,47,47,9,11,4,7,0.5,0.6
2024-05-12T1600,2501A,108.3506,21.6414,防城港市,大海花园,,27,27,24,11,11,40,,40,40,8,13,4,6,0.4,0.5
2024-05-12T1600,1371A,113.1294,23.0067,佛山市,湾梁,,24,12,38,11,15,75,,70,70,22,16,8,9,0.3,0.3
2024-05-12T1600,1372A,113.1083,23.0478,佛山市,华材职中,,25,14,37,13,19,77,,71,71,28,18,2,2,0.5,0.5
2024-05-12T1600,1373A,113.144,23.0453,佛山市,南海气象局,,25,22,34,14,19,80,,69,69,19,17,8,8,0.6,0.7
2024-05-12T1600,1374A,113.2881,22.8094,佛山市,顺德苏岗,,23,23,38,7,19,65,,66,66,21,21,5,5,0.7,0.7
2024-05-12T1600,1376A,112.8383,22.8678,佛山市,高明孔堂,,25,,33,14,19,78,,73,73,22,13,6,6,0.6,0.6
2024-05-12T1600,1377A,112.8836,23.1588,佛山市,三水监测站,,29,,37,7,19,92,,64,64,14,33,5,7,0.5,0.6
2024-05-12T1600,1378A,112.867,23.185,佛山市,三水云东海,,30,,37,12,22,95,,67,67,11,32,3,6,0.5,0.6
2024-05-12T1600,3625A,113.2544,22.7642,佛山市,容桂街道办,,24,,34,7,15,76,,74,74,19,22,4,5,0.4,0.5
2024-05-12T1600,1282A,119.2681,26.0504,福州市,师大,,26,21,61,6,35,82,,110,110,2,18,3,5,0.4,0.5
2024-05-12T1600,1283A,119.2984,26.1028,福州市,五四北路,,26,17,61,7,38,82,,109,109,11,22,3,5,0.5,0.6
2024-05-12T1600,1284A,119.2648,26.0768,福州市,杨桥西路,,27,16,61,3,35,85,,108,108,9,20,3,4,0.4,0.5
2024-05-12T1600,1285A,119.317,26.0746,福州市,紫阳,,24,21,65,4,33,74,,98,98,10,20,2,5,0.3,0.4
2024-05-12T1600,3048A,119.5799,26.0936,福州市,九龙,,24,14,42,1,26,76,,88,88,3,14,4,5,0.3,0.4
2024-05-12T1600,3526A,119.5189,25.9664,福州市,吴航,,28,25,51,12,26,89,,109,109,7,12,4,6,0.6,0.6
2024-05-12T1600,1755A,123.7977,41.8491,抚顺市,望花区,,36,25,95,10,20,114,,104,104,7,12,3,3,0.3,0.3
2024-05-12T1600,1756A,123.9161,41.8822,抚顺市,顺城区,,35,21,82,8,17,111,,106,106,9,14,6,6,0.2,0.3
2024-05-12T1600,1757A,124.0436,41.8611,抚顺市,东洲区,,35,19,78,14,22,110,,104,104,6,10,4,5,0.2,0.2
2024-05-12T1600,1758A,123.9247,41.8642,抚顺市,新抚区,,33,30,78,8,17,105,,99,99,8,12,5,5,0.2,0.3
2024-05-12T1600,1759A,124.0972,41.8961,抚顺市,大伙房水库,,35,19,85,10,17,112,,107,107,7,12,6,7,0.1,0.1
2024-05-12T1600,1760A,123.7086,41.8391,抚顺市,沈抚新城,,35,31,105,11,17,109,,98,98,4,9,4,4,0.2,0.2
2024-05-12T1600,2377A,116.3544,27.9831,抚州市,市站,颗粒物(PM10),75,100,46,34,26,119,,103,103,7,9,4,5,0.9,0.9
2024-05-12T1600,2378A,116.3565,27.963,抚州市,血防站,颗粒物(PM10),75,100,48,32,24,122,,106,106,5,9,4,4,0.8,0.8
2024-05-12T1600,2379A,116.3564,28.0007,抚州市,采茶剧团,颗粒物(PM10),77,104,46,34,26,118,,101,101,5,7,5,4,0.8,0.8
2024-05-12T1600,2380A,116.385,27.9647,抚州市,医学分院,颗粒物(PM10),82,114,50,30,22,117,,98,98,8,10,4,5,1.1,1
2024-05-12T1600,2207A,121.6094,41.998,阜新市,工业园区,,43,43,60,22,34,106,,96,96,7,10,5,5,0.4,0.5
2024-05-12T1600,2208A,121.6697,42.0279,阜新市,长青街,,34,30,50,9,22,108,,96,96,8,10,5,4,0.3,0.4
2024-05-12T1600,2209A,121.6673,42.0705,阜新市,农业园区,,,69,69,5,6,102,,91,91,,5,5,5,0.4,0.4
2024-05-12T1600,2210A,121.6717,42.0224,阜新市,东苑,,50,50,65,11,14,104,,92,92,6,9,4,4,0.4,0.4
2024-05-12T1600,2211A,121.6506,42.0498,阜新市,玉龙新城,,37,37,58,6,6,103,,92,92,6,9,6,6,0.3,0.3
2024-05-12T1600,2301A,115.8277,32.8929,阜阳市,市监测站,颗粒物(PM10),92,134,211,55,84,157,,130,130,12,26,7,8,0.2,0.4
2024-05-12T1600,2303A,115.8554,32.8605,阜阳市,开发区,颗粒物(PM10),107,163,259,34,55,153,,126,126,8,22,5,6,0.3,0.4
2024-05-12T1600,2875A,115.784,32.8892,阜阳市,阜阳职业技术学院,颗粒物(PM10),90,129,230,48,77,160,,135,135,11,20,6,7,0.2,0.3
2024-05-12T1600,3468A,115.7901,32.8613,阜阳市,市规划展馆,颗粒物(PM10),109,167,274,50,71,161,,136,136,8,18,5,6,0.3,0.4
2024-05-12T1600,3469A,115.836,32.9183,阜阳市,枣园社区,颗粒物(PM10),112,173,232,46,65,160,,133,133,14,25,7,8,0.2,0.3
2024-05-12T1600,2669A,102.9099,34.9841,甘南藏族自治州,州政府,,40,21,56,11,24,125,,100,100,1,22,6,8,0.5,0.6
2024-05-12T1600,3380A,102.8914,34.9617,甘南藏族自治州,甘肃民族师范学院,,41,13,67,9,24,129,,101,101,2,26,9,12,0.7,0.7
2024-05-12T1600,2570A,101.9603,30.0475,甘孜藏族自治州,水桥子,,33,31,7,12,5,105,,100,100,4,14,3,2,0.2,0.3
2024-05-12T1600,3065A,101.9533,29.9972,甘孜藏族自治州,州环保局,,33,9,8,6,5,103,,96,96,8,27,2,1,0.2,0.2
2024-05-12T1600,3414A,115.8347,28.932,赣江新区,桑海产业园,颗粒物(PM10),85,119,77,31,27,131,,117,117,9,14,9,8,0.7,0.7
2024-05-12T1600,2363A,114.9367,25.8664,赣州市,地委,,21,11,20,9,13,66,,65,65,9,9,10,11,0.5,0.4
2024-05-12T1600,2364A,114.9461,25.8481,赣州市,气象台,,21,15,20,13,12,65,,63,63,12,6,7,7,0.5,0.4
2024-05-12T1600,2365A,114.9322,25.8333,赣州市,市图书馆,,23,14,19,8,10,73,,67,67,7,8,4,4,0.8,0.7
2024-05-12T1600,2366A,114.8905,25.8471,赣州市,华坚鞋城,,26,26,25,5,12,57,,54,52,22,12,11,12,0.5,0.5
2024-05-12T1600,3109A,115.0093,25.8613,赣州市,赣县区卫计委,,22,21,22,7,12,69,,62,62,16,15,4,5,0.6,0.5
2024-05-12T1600,2683A,106.2319,36.1417,固原市,马园,,41,27,68,7,24,130,,109,109,10,32,5,6,0.3,0.5
2024-05-12T1600,2684A,106.2792,36.0022,固原市,监测站,,41,26,68,6,17,130,,107,107,7,20,3,4,0.2,0.3
2024-05-12T1600,2685A,106.2375,36.0211,固原市,新区,,42,29,77,10,23,132,,110,110,5,30,3,4,0.1,0.2
2024-05-12T1600,3522A,106.2177,35.9959,固原市,原州区十五小,,41,33,65,19,24,131,,112,112,7,11,4,5,0.1,0.1
2024-05-12T1600,2544A,106.6303,30.4576,广安市,市委,颗粒物(PM10),61,71,84,28,34,99,,73,73,11,19,8,7,0.6,0.6
2024-05-12T1600,2545A,106.6271,30.4663,广安市,友谊中学,颗粒物(PM10),57,63,70,27,33,104,,78,78,13,19,6,7,0.6,0.6
2024-05-12T1600,2547A,106.6388,30.4551,广安市,广电花园,颗粒物(PM10),57,64,72,26,33,95,,68,68,11,17,8,8,0.6,0.6
2024-05-12T1600,2902A,106.6351,30.4865,广安市,北辰小学,颗粒物(PM10),59,67,82,27,31,104,,78,78,10,16,8,8,0.6,0.6
2024-05-12T1600,2523A,105.8945,32.4535,广元市,黑石坡,,36,32,61,3,19,114,,77,77,6,12,10,7,0.3,0.3
2024-05-12T1600,2524A,105.821,32.4444,广元市,老城,颗粒物(PM10),58,65,82,10,22,118,,78,78,4,33,8,9,0.3,0.5
2024-05-12T1600,2526A,105.8628,32.4287,广元市,监测站,颗粒物(PM10),51,51,69,11,23,124,,89,89,4,12,3,5,0.3,0.4
2024-05-12T1600,3617A,105.8047,32.4166,广元市,经开区,颗粒物(PM10),69,88,106,28,37,121,,84,84,6,33,9,12,0.5,0.7
2024-05-12T1600,1345A,113.2347,23.1423,广州市,广雅中学,,27,13,39,6,17,85,,69,69,26,29,5,6,0.6,0.7
2024-05-12T1600,1346A,113.2612,23.105,广州市,市五中,,30,12,40,7,19,96,,78,78,12,24,3,4,0.6,0.6
2024-05-12T1600,1348A,113.3478,23.0916,广州市,广东商学院,,23,12,36,6,18,72,,61,61,22,30,4,4,0.5,0.5
2024-05-12T1600,1349A,113.4332,23.1047,广州市,市八十六中,,27,11,39,6,15,85,,62,62,14,41,4,4,0.8,0.8
2024-05-12T1600,1350A,113.3505,22.9483,广州市,番禺中学,,,14,36,7,17,76,,73,73,26,23,4,5,,0.5
2024-05-12T1600,1351A,113.2146,23.3916,广州市,花都师范,,29,10,40,5,18,92,,77,77,14,28,5,5,0.4,0.5
2024-05-12T1600,1352A,113.2597,23.1331,广州市,市监测站,,27,11,38,5,16,84,,68,68,12,22,4,5,0.5,0.5
2024-05-12T1600,1353A,113.5618,23.312,广州市,九龙镇镇龙,,26,9,34,4,14,81,,75,75,6,26,6,6,0.4,0.5
2024-05-12T1600,1354A,113.2765,23.1544,广州市,麓湖,,27,10,38,6,18,86,,71,71,12,24,5,5,0.4,0.5
2024-05-12T1600,1355A,113.443,23.3035,广州市,帽峰山森林公园,,30,,25,3,11,94,,87,87,7,20,5,6,0.4,0.5
2024-05-12T1600,2846A,113.3221,23.1322,广州市,体育西,,28,13,40,8,18,87,,68,68,12,25,4,5,0.5,0.6
2024-05-12T1600,3298A,113.5717,23.5491,广州市,从化街口,,30,7,29,5,14,94,,88,88,9,22,5,6,0.5,0.6
2024-05-12T1600,3299A,113.3472,23.3692,广州市,白云竹料,,32,7,37,4,15,100,,86,86,9,26,4,4,0.5,0.6
2024-05-12T1600,3300A,113.2981,23.237,广州市,白云嘉禾,,30,12,38,5,16,94,,72,72,20,36,5,5,0.7,0.7
2024-05-12T1600,3301A,113.4256,23.1716,广州市,黄埔科学城,,27,8,37,3,15,84,,71,71,14,28,4,6,0.6,0.6
2024-05-12T1600,3302A,113.3942,23.0483,广州市,番禺大学城,,23,22,40,6,15,72,,57,57,22,25,4,8,0.5,0.5
2024-05-12T1600,3303A,113.4922,22.8168,广州市,南沙黄阁,,22,10,37,9,17,68,,68,68,32,24,7,6,0.7,0.7
2024-05-12T1600,3304A,113.5342,22.7896,广州市,南沙街,,24,24,37,9,16,57,,65,65,32,22,9,7,0.7,0.7
2024-05-12T1600,3443A,113.2902,23.5544,广州市,花都梯面,,34,6,36,3,14,107,,91,91,4,20,4,4,0.5,0.6
2024-05-12T1600,3445A,113.7858,23.7478,广州市,从化良口,,28,3,23,2,12,87,,85,85,5,13,5,5,0.6,0.6
2024-05-12T1600,3446A,113.8051,23.2614,广州市,增城荔城,颗粒物(PM10),86,121,46,44,18,78,,75,75,8,22,4,5,0.6,0.6
2024-05-12T1600,2506A,109.6047,23.0666,贵港市,江南子站,,28,,36,8,19,89,,89,89,5,17,6,8,0.4,0.6
2024-05-12T1600,2507A,109.6014,23.0948,贵港市,贵城子站,,27,,41,9,21,86,,87,87,4,16,6,9,0.4,0.5
2024-05-12T1600,2508A,109.5669,23.1065,贵港市,荷城子站,,26,7,29,7,12,81,,84,84,3,13,8,10,0.4,0.5
2024-05-12T1600,3405A,109.5886,23.1172,贵港市,新世纪学校,,27,9,30,4,16,84,,91,90,6,12,9,10,0.6,0.7
2024-05-12T1600,1439A,106.6899,26.5998,贵阳市,马鞍山,,21,9,10,0,3,65,,60,58,18,12,7,7,0.4,0.4
2024-05-12T1600,1440A,106.6971,26.5694,贵阳市,市环保站,,21,,11,6,7,67,,66,63,16,17,4,4,0.3,0.3
2024-05-12T1600,1441A,106.6243,26.6266,贵阳市,鉴湖路,,23,7,10,2,4,73,,68,62,7,7,2,3,0.3,0.4
2024-05-12T1600,1442A,106.7487,26.6343,贵阳市,燕子冲,,23,17,13,7,9,71,,61,60,10,8,6,6,0.4,0.5
2024-05-12T1600,1443A,106.6555,26.4365,贵阳市,碧云窝,,23,17,13,2,2,72,,71,66,12,9,5,5,0.5,0.5
2024-05-12T1600,1444A,106.694,26.5161,贵阳市,中院村,,,17,13,9,6,64,,63,58,12,10,6,6,,0.4
2024-05-12T1600,1445A,106.7109,26.6027,贵阳市,红边门,,21,7,12,5,9,67,,74,65,14,11,3,4,0.3,0.4
2024-05-12T1600,1446A,106.7164,26.5699,贵阳市,新华路,,,12,12,5,7,63,,73,60,14,10,6,4,,0.4
2024-05-12T1600,1447A,106.674,26.5424,贵阳市,太慈桥,,21,5,9,2,4,66,,59,59,10,9,5,5,0.2,0.3
2024-05-12T1600,1862A,110.4144,25.3167,桂林市,电子科大尧山校区,颗粒物(PM10),51,51,23,16,12,120,,101,101,4,5,4,4,0.5,0.6
2024-05-12T1600,1863A,110.2819,25.2697,桂林市,监测站,颗粒物(PM10),54,57,25,20,14,97,,83,83,10,10,5,3,0.6,0.7
2024-05-12T1600,1864A,110.3089,25.2708,桂林市,龙隐路小学,颗粒物(PM10),53,55,21,17,17,98,,84,84,6,8,4,4,0.7,0.7
2024-05-12T1600,1865A,110.2869,25.2178,桂林市,八中,颗粒物(PM10),52,54,22,20,13,102,,84,84,6,10,5,4,0.7,0.7
2024-05-12T1600,3403A,110.1764,25.2381,桂林市,创业大厦,颗粒物(PM10),62,73,23,27,15,116,,86,86,7,10,8,7,0.5,0.6
2024-05-12T1600,3531A,110.296,25.1253,桂林市,旅游学院,,48,48,14,22,10,104,,85,85,6,8,6,5,0.7,0.6
2024-05-12T1600,2674A,100.2561,34.4714,果洛藏族自治州,玛沁县大武镇,,44,15,13,13,14,138,,129,129,10,11,13,10,0.4,0.4
2024-05-12T1600,1129A,126.5422,45.755,哈尔滨市,岭北,,38,36,17,26,10,105,,89,89,9,8,9,9,0.3,0.2
2024-05-12T1600,1130A,126.561,45.8167,哈尔滨市,松北商大,,38,38,14,16,6,100,,84,84,11,8,4,4,0.5,0.5
2024-05-12T1600,1131A,126.979,45.5419,哈尔滨市,阿城会宁,,44,44,24,22,12,77,,78,78,14,8,7,4,0.7,0.6
2024-05-12T1600,1132A,126.599,45.7222,哈尔滨市,南岗学府路,,37,37,21,23,6,103,,86,86,10,10,4,4,0.4,0.4
2024-05-12T1600,1133A,126.689,45.7733,哈尔滨市,太平宏伟公园,,42,36,16,29,11,98,,86,86,10,9,9,8,0.4,0.3
2024-05-12T1600,1134A,126.635,45.7667,哈尔滨市,道外承德广场,,39,37,22,27,9,102,,85,85,12,13,8,7,0.4,0.5
2024-05-12T1600,1135A,126.685,45.7319,哈尔滨市,香坊红旗大街,,,29,15,22,11,99,,86,86,12,5,,5,0.3,0.4
2024-05-12T1600,1136A,126.6411,45.7258,哈尔滨市,动力和平路,,42,,20,29,10,99,,84,84,11,11,5,4,0.4,0.3
2024-05-12T1600,1137A,126.593,45.7478,哈尔滨市,道里建国路,,36,36,18,25,10,97,,81,81,13,11,4,4,0.5,0.3
2024-05-12T1600,1138A,126.615,45.61,哈尔滨市,平房东轻厂,,37,37,18,17,6,100,,79,79,11,10,6,6,0.2,0.2
2024-05-12T1600,1139A,126.595,45.9855,哈尔滨市,呼兰师专,,46,38,12,32,8,94,,83,83,7,6,7,6,0.4,0.4
2024-05-12T1600,1140A,126.6206,45.6842,哈尔滨市,省农科院,,40,34,19,28,10,105,,88,88,9,8,5,5,0.5,0.5
2024-05-12T1600,2688A,93.5128,42.8172,哈密市,地区监测站,,46,15,42,11,18,145,,122,122,3,35,3,3,0.2,0.3
2024-05-12T1600,2689A,93.4961,42.8328,哈密市,哈密师范学校,,45,,49,16,18,141,,114,114,4,31,7,6,0.0,0.5
2024-05-12T1600,2671A,100.9048,36.9639,海北藏族自治州,海晏县西海镇,,45,26,22,8,14,144,,118,118,6,9,12,8,0.4,0.4
2024-05-12T1600,3867A,102.0738,36.5056,海东市,平安区公安北苑,,47,30,36,18,17,148,,111,111,6,11,8,9,0.4,0.4
2024-05-12T1600,1410A,110.3232,20.0574,海口市,海南大学,,29,29,27,16,14,85,,72,72,13,8,4,4,0.4,0.4
2024-05-12T1600,1411A,110.283,20.0053,海口市,秀英海南医院,,38,38,31,17,14,79,,68,68,14,16,5,5,0.3,0.4
2024-05-12T1600,1412A,110.338,19.9969,海口市,海南师范大学,,32,32,27,14,15,87,,76,76,5,7,6,6,0.4,0.5
2024-05-12T1600,1413A,110.33,20.0356,海口市,龙华路环保局宿舍,,30,30,28,14,14,82,,72,72,10,9,6,6,0.3,0.3
2024-05-12T1600,3539A,110.5111,19.9736,海口市,桂林洋子站,,23,20,28,16,14,65,,56,56,5,8,5,5,0.3,0.3
2024-05-12T1600,2673A,100.6188,36.2866,海南藏族自治州,共和县恰卜恰镇,,48,15,29,9,12,152,,128,128,6,13,8,11,0.5,0.5
2024-05-12T1600,2676A,97.3731,37.3753,海西蒙古族藏族自治州,德令哈市,,48,19,32,6,13,151,,142,142,5,6,7,6,0.4,0.5
2024-05-12T1600,1048A,114.5302,36.6116,邯郸市,东污水处理厂,颗粒物(PM10),82,113,151,39,63,167,,123,123,6,21,10,12,0.5,0.6
2024-05-12T1600,1049A,114.4918,36.5713,邯郸市,矿院,颗粒物(PM10),81,112,111,53,57,171,,127,127,9,25,11,12,0.6,0.7
2024-05-12T1600,1050A,114.484,36.6133,邯郸市,丛台公园,颗粒物(PM10),87,123,158,37,41,172,,127,127,7,19,9,13,0.4,0.6
2024-05-12T1600,3579A,114.50634,36.77178,邯郸市,永年区实验高中,颗粒物(PM10),109,168,186,46,65,181,,142,142,9,24,12,15,0.6,0.7
2024-05-12T1600,3580A,114.20016,36.44293,邯郸市,峰峰矿区临水派出所,颗粒物(PM10),88,126,170,31,50,183,,132,132,12,17,8,12,0.5,0.7
2024-05-12T1600,2634A,106.9893,33.1842,汉中市,汉川机床厂子校,颗粒物(PM10),72,94,78,24,20,134,,102,102,6,12,7,6,0.8,0.6
2024-05-12T1600,2635A,107.0154,33.0706,汉中市,市监测站,颗粒物(PM10),69,88,94,24,28,151,,109,109,8,18,11,15,0.5,0.7
2024-05-12T1600,2636A,107.0089,33.1138,汉中市,鑫源开发区,颗粒物(PM10),67,84,87,23,23,156,,115,115,7,18,14,12,0.7,0.6
2024-05-12T1600,2637A,107.007,33.0323,汉中市,南郑大河坎水厂,颗粒物(PM10),67,84,88,27,30,130,,95,95,6,13,8,8,0.4,0.5
2024-05-12T1600,1223A,120.2072,30.2111,杭州市,滨江,颗粒物(PM10),63,76,44,27,26,129,,105,105,17,17,5,4,0.5,0.8
2024-05-12T1600,1224A,120.0633,30.2747,杭州市,西溪,颗粒物(PM10),55,60,37,23,23,132,,90,90,14,17,7,6,0.5,0.7
2024-05-12T1600,1226A,120.3461,30.3153,杭州市,下沙,颗粒物(PM10),69,87,52,21,25,131,,101,101,16,22,7,6,0.6,0.7
2024-05-12T1600,1227A,120.1269,30.2456,杭州市,卧龙桥,颗粒物(PM10),52,54,33,22,24,136,,100,100,12,13,5,4,0.4,0.7
2024-05-12T1600,1228A,120.1903,30.2692,杭州市,浙江农大,颗粒物(PM10),58,66,36,25,25,115,,88,88,18,21,6,6,0.4,0.6
2024-05-12T1600,1230A,120.1197,30.3119,杭州市,和睦小学,颗粒物(PM10),66,81,42,20,26,136,,101,101,12,16,3,4,0.5,0.7
2024-05-12T1600,1231A,120.3019,30.4183,杭州市,临平镇,颗粒物(PM10),68,86,50,24,32,133,,96,96,13,30,5,4,0.4,0.7
2024-05-12T1600,1232A,120.2697,30.1819,杭州市,城厢镇,颗粒物(PM10),67,83,45,24,27,118,,104,104,26,20,6,5,0.6,0.8
2024-05-12T1600,1233A,120.0883,30.1808,杭州市,云栖,颗粒物(PM10),61,72,36,22,16,103,,97,95,27,18,7,7,0.7,0.8
2024-05-12T1600,3557A,119.9464,30.0494,杭州市,镇二中,,50,50,34,20,21,117,,105,105,22,21,8,7,0.6,0.8
2024-05-12T1600,3558A,119.7183,30.2367,杭州市,市府大楼,颗粒物(PM10),58,66,36,26,24,135,,106,106,16,12,6,5,0.4,0.6
2024-05-12T1600,3656A,120.1556,30.2864,杭州市,消防大队,颗粒物(PM10),67,84,41,24,25,138,,99,99,14,23,7,6,0.6,0.9
2024-05-12T1600,1270A,117.1959,31.7848,合肥市,明珠广场,颗粒物(PM10),137,224,162,56,55,151,,118,118,16,20,8,7,0.4,0.6
2024-05-12T1600,1271A,117.3072,31.8764,合肥市,三里街,颗粒物(PM10),137,224,175,44,47,129,,102,102,12,20,,6,0.3,0.4
2024-05-12T1600,1272A,117.2588,31.8707,合肥市,琥珀山庄,颗粒物(PM10),136,222,173,56,43,138,,114,114,12,15,5,4,0.5,0.7
2024-05-12T1600,1273A,117.1604,31.9052,合肥市,董铺水库,颗粒物(PM10),173,296,179,51,43,135,,111,111,7,11,3,2,0.3,0.4
2024-05-12T1600,1274A,117.25,31.8571,合肥市,长江中路,颗粒物(PM10),141,232,176,68,57,133,,106,106,11,14,6,5,0.4,0.6
2024-05-12T1600,1275A,117.266,31.9436,合肥市,庐阳区,颗粒物(PM10),148,246,197,56,52,143,,117,117,9,16,3,3,0.2,0.4
2024-05-12T1600,1276A,117.336,31.8586,合肥市,瑶海区,颗粒物(PM10),152,254,177,54,48,126,,102,102,8,16,8,7,0.5,0.7
2024-05-12T1600,1277A,117.3027,31.7964,合肥市,包河区,颗粒物(PM10),145,239,162,75,60,129,,100,100,15,31,6,5,0.2,0.4
2024-05-12T1600,1278A,117.2776,31.7385,合肥市,滨湖新区,颗粒物(PM10),155,259,162,56,49,134,,105,105,8,17,6,6,0.3,0.5
2024-05-12T1600,1279A,117.1318,31.8403,合肥市,高新区,颗粒物(PM10),147,244,172,58,52,134,,105,105,15,18,7,7,0.5,0.7
2024-05-12T1600,3464A,117.3803,31.9147,合肥市,高教基地,颗粒物(PM10),142,234,168,46,36,132,,106,106,5,9,6,4,0.2,0.4
2024-05-12T1600,3614A,79.924,37.0877,和田地区,地区环保局,颗粒物(PM10),167,283,461,110,127,130,,98,98,4,7,7,11,0.4,0.4
2024-05-12T1600,3615A,79.9131,37.113,和田地区,市环保局,颗粒物(PM10),185,320,423,97,112,125,,87,87,7,17,6,8,0.5,0.6
2024-05-12T1600,2517A,108.0497,24.6947,河池市,市环保站,,20,15,19,6,11,62,,60,52,8,12,8,7,0.5,0.5
2024-05-12T1600,2518A,108.0983,24.6989,河池市,市疾控中心,,33,33,27,7,16,62,,59,53,9,16,9,8,0.6,0.6
2024-05-12T1600,1697A,114.6944,23.7586,河源市,东埔,,,,40,5,14,90,,71,71,7,11,6,6,0.5,0.6
2024-05-12T1600,1698A,114.6892,23.7233,河源市,老城,,28,,28,6,13,89,,72,72,3,7,5,5,0.5,0.5
2024-05-12T1600,1718A,115.4208,35.2464,菏泽市,气象局,颗粒物(PM10),109,167,276,52,76,197,,148,148,16,35,7,13,0.3,0.4
2024-05-12T1600,1719A,115.4747,35.2375,菏泽市,市政协,颗粒物(PM10),92,133,234,42,75,191,,144,144,11,30,6,10,0.1,0.1
2024-05-12T1600,3374A,115.5564,35.0891,菏泽市,定陶老年大学,颗粒物(PM10),85,119,217,27,47,171,,142,142,11,23,7,8,0.2,0.3
2024-05-12T1600,3647A,115.4702,35.2706,菏泽市,菏泽医专,颗粒物(PM10),107,164,262,35,59,205,,156,156,12,29,9,10,0.3,0.3
2024-05-12T1600,2514A,111.5264,24.4172,贺州市,环保小区,,28,22,27,9,12,87,,83,83,7,12,6,7,0.7,0.7
2024-05-12T1600,2515A,111.5608,24.4078,贺州市,政协大楼,,28,20,27,9,14,88,,84,84,8,13,8,8,0.6,0.6
2024-05-12T1600,3534A,111.4744,24.4553,贺州市,西湾,,27,27,28,14,16,83,,75,75,8,15,9,8,0.6,0.5
2024-05-12T1600,2385A,114.17,35.9019,鹤壁市,市监测站,颗粒物(PM10),108,165,208,72,68,193,,142,142,9,14,15,11,0.6,0.6
2024-05-12T1600,2386A,114.2956,35.7511,鹤壁市,市交警支队,颗粒物(PM10),102,154,190,28,49,177,,126,126,13,29,12,10,0.5,0.5
2024-05-12T1600,2387A,114.2878,35.7306,鹤壁市,迎宾馆,颗粒物(PM10),116,181,182,45,57,181,,128,128,17,28,14,13,0.6,0.6
2024-05-12T1600,3474A,114.2617,35.6822,鹤壁市,大新区,颗粒物(PM10),111,172,187,33,64,171,,125,125,6,16,13,12,0.4,0.4
2024-05-12T1600,3596A,114.1572,35.9603,鹤壁市,南山宾馆,颗粒物(PM10),103,155,224,57,54,198,,144,144,8,15,12,14,0.6,0.6
2024-05-12T1600,2244A,130.2537,47.3416,鹤岗市,哈啤分公司,,21,12,14,9,10,65,,60,60,4,6,13,14,0.4,0.4
2024-05-12T1600,2245A,130.2684,47.3086,鹤岗市,斯达机电,,,26,19,18,20,64,,61,61,7,7,9,10,,0.7
2024-05-12T1600,2246A,130.3114,47.3388,鹤岗市,东山纸板厂,,25,,16,17,14,61,,57,57,5,7,12,13,0.4,0.4
2024-05-12T1600,2247A,130.1097,47.3382,鹤岗市,五号水库,,23,,18,16,9,72,,69,69,5,6,10,11,0.1,0.1
2024-05-12T1600,2263A,127.4833,50.2524,黑河市,交通局,,,,31,32,29,79,,75,75,8,6,5,6,,0.3
2024-05-12T1600,2264A,127.5144,50.2341,黑河市,环保局,,30,26,23,21,28,82,,74,74,6,7,4,6,0.4,0.4
2024-05-12T1600,2265A,127.5291,50.2472,黑河市,大黑河岛,,48,48,35,24,29,61,,72,71,16,13,8,6,0.5,0.5
2024-05-12T1600,1074A,115.6838,37.7541,衡水市,电机北厂,,45,44,80,20,30,144,,116,116,5,26,3,5,0.2,0.2
2024-05-12T1600,1075A,115.6303,37.7316,衡水市,市监测站,颗粒物(PM10),52,54,75,8,30,145,,119,119,8,23,3,3,0.1,0.2
2024-05-12T1600,3188A,115.6683,37.7217,衡水市,市城管局,,46,38,67,11,30,146,,116,116,9,29,2,2,0.3,0.3
2024-05-12T1600,3459A,115.5989,37.5491,衡水市,地表水厂,颗粒物(PM10),55,59,84,28,26,150,,120,120,8,40,2,3,0.4,0.2
2024-05-12T1600,2456A,112.5003,26.9167,衡阳市,原169医院,颗粒物(PM10),99,147,67,26,19,131,,107,107,8,6,7,5,0.5,0.7
2024-05-12T1600,2457A,112.6194,26.9258,衡阳市,衡阳化工总厂,颗粒物(PM10),92,133,66,24,24,154,,121,121,5,10,10,8,0.5,0.5
2024-05-12T1600,2458A,112.6211,26.8956,衡阳市,珠晖区环保局,颗粒物(PM10),90,129,62,25,20,145,,119,119,16,12,8,7,0.7,0.8
2024-05-12T1600,2459A,112.6197,26.8733,衡阳市,市委党校,颗粒物(PM10),97,143,64,26,19,154,,124,124,11,12,10,9,0.5,0.7
2024-05-12T1600,2460A,112.6006,26.8919,衡阳市,市监测站,颗粒物(PM10),92,133,60,35,23,157,,127,127,8,10,9,8,0.6,0.7
2024-05-12T1600,2461A,112.5664,26.9056,衡阳市,真空机电公司,颗粒物(PM10),95,140,64,30,20,143,,119,119,6,8,8,7,0.5,0.7
2024-05-12T1600,3399A,112.6703,26.882,衡阳市,师范学院,颗粒物(PM10),90,129,58,36,25,142,,115,115,10,14,9,8,0.5,0.6
2024-05-12T1600,2608A,103.3772,23.3993,红河哈尼族彝族自治州,污水处理厂,,43,,29,29,22,135,,106,106,8,10,11,13,0.4,0.4
2024-05-12T1600,2609A,103.3861,23.35,红河哈尼族彝族自治州,监测站,,47,,26,24,18,148,,118,118,9,10,13,24,0.4,0.4
2024-05-12T1600,3038A,103.3758,23.368,红河哈尼族彝族自治州,州图书馆,,43,30,29,16,19,135,,106,106,8,9,9,29,0.4,0.4
2024-05-12T1600,1090A,111.6507,40.7517,呼和浩特市,呼市一监,,38,22,23,9,9,120,,102,102,11,13,6,5,0.4,0.4
2024-05-12T1600,1091A,111.6572,40.8033,呼和浩特市,小召,,36,36,23,14,11,107,,92,92,19,14,8,6,0.4,0.4
2024-05-12T1600,1094A,111.7516,40.8369,呼和浩特市,如意水处理厂,,35,26,25,10,8,110,,92,92,9,13,7,6,0.3,0.3
2024-05-12T1600,1095A,111.7276,40.8062,呼和浩特市,二十九中,,37,22,24,12,11,117,,97,97,11,13,3,2,0.3,0.3
2024-05-12T1600,1096A,111.5512,40.7866,呼和浩特市,工大金川校区,,34,23,25,18,12,107,,88,88,13,18,7,6,0.2,0.2
2024-05-12T1600,1097A,111.717,40.7612,呼和浩特市,化肥厂生活区,,36,29,29,15,16,114,,95,95,14,14,7,7,0.2,0.2
2024-05-12T1600,3698A,111.5968,40.8178,呼和浩特市,红旗小学,,36,36,27,13,11,112,,95,95,16,17,6,4,0.3,0.3
2024-05-12T1600,3699A,111.6518,40.8389,呼和浩特市,海东办,,35,29,20,15,10,112,,94,94,12,14,11,8,0.4,0.4
2024-05-12T1600,2192A,119.7594,49.2261,呼伦贝尔市,区环保局,,32,24,30,8,18,101,,93,93,8,8,5,4,0.3,0.4
2024-05-12T1600,3061A,119.7512,49.1577,呼伦贝尔市,国华电力东,,32,26,31,9,13,102,,94,94,4,5,3,3,0.2,0.3
2024-05-12T1600,1250A,120.0751,30.8669,湖州市,城西水厂,颗粒物(PM10),79,107,58,20,24,127,,116,116,24,28,5,4,0.6,0.8
2024-05-12T1600,2873A,120.0875,30.8955,湖州市,仁皇山新区,颗粒物(PM10),75,99,51,20,29,125,,113,113,26,25,7,5,0.7,0.9
2024-05-12T1600,2907A,120.1844,30.8596,湖州市,吴兴区站,颗粒物(PM10),88,126,52,21,26,133,,117,117,20,16,7,4,0.6,0.6
2024-05-12T1600,3562A,120.4148,30.8538,湖州市,南浔区站,颗粒物(PM10),80,110,48,22,29,131,,114,114,20,17,6,5,0.4,0.6
2024-05-12T1600,1607A,120.9092,40.7136,葫芦岛市,龙港区,,35,30,41,12,12,110,,98,98,7,16,6,10,0.5,0.5
2024-05-12T1600,1608A,120.8392,40.7514,葫芦岛市,化工街,,35,22,27,2,8,109,,101,101,13,23,10,20,0.3,0.3
2024-05-12T1600,1609A,120.8341,40.7073,葫芦岛市,新区,,37,37,28,8,10,110,,102,102,9,16,7,9,0.5,0.5
2024-05-12T1600,1610A,120.8695,40.7677,葫芦岛市,东城区,,34,29,29,11,8,107,,96,96,10,20,4,12,0.5,0.5
2024-05-12T1600,2482A,109.5981,27.5721,怀化市,林科所,颗粒物(PM10),56,62,33,17,15,98,,87,87,3,4,11,17,0.5,0.5
2024-05-12T1600,2483A,109.9453,27.5444,怀化市,河西地税局,颗粒物(PM10),63,76,47,32,22,86,,85,85,12,9,14,15,0.6,0.6
2024-05-12T1600,2484A,109.9781,27.5342,怀化市,市四医院,颗粒物(PM10),64,77,45,29,23,97,,86,86,8,8,7,7,0.6,0.5
2024-05-12T1600,2485A,109.9972,27.5578,怀化市,监测楼,颗粒物(PM10),63,76,44,27,22,96,,81,81,6,8,15,12,0.6,0.6
2024-05-12T1600,2486A,110.0394,27.583,怀化市,市委党校,颗粒物(PM10),68,85,43,28,21,105,,88,88,4,8,6,9,0.5,0.6
2024-05-12T1600,1210A,119.036,33.5981,淮安市,钵池山,颗粒物(PM10),92,134,212,32,51,138,,116,116,10,25,7,7,0.4,0.6
2024-05-12T1600,1211A,119.007,33.575,淮安市,北京南路,颗粒物(PM10),131,212,233,48,55,141,,122,122,19,26,11,8,0.5,0.5
2024-05-12T1600,1212A,118.989,33.6067,淮安市,市监测站,颗粒物(PM10),97,144,240,34,57,140,,120,120,13,34,6,6,0.4,0.5
2024-05-12T1600,1213A,119.135,33.5039,淮安市,楚州区监测站,颗粒物(PM10),157,264,243,56,53,157,,120,120,16,25,8,7,0.5,0.5
2024-05-12T1600,1214A,119.0186,33.6297,淮安市,淮阴区监测站,细颗粒物(PM2.5),100,124,242,75,61,134,,115,115,20,38,5,6,0.3,0.4
2024-05-12T1600,3426A,118.8755,33.2894,淮安市,新华书店,颗粒物(PM10),167,284,244,80,67,150,,121,121,12,23,7,14,0.4,0.6
2024-05-12T1600,2282A,116.8004,33.975,淮北市,监测站,颗粒物(PM10),71,91,211,41,60,172,,143,143,11,17,7,7,0.4,0.5
2024-05-12T1600,2283A,116.8091,33.9007,淮北市,烈山区政府,颗粒物(PM10),106,161,263,38,59,178,,148,148,9,19,6,7,0.4,0.5
2024-05-12T1600,3330A,116.8873,33.9836,淮北市,杜集区检察院,臭氧1小时,83,99,234,49,86,186,,151,151,10,18,7,7,0.3,0.5
2024-05-12T1600,4017A,116.7923,33.9535,淮北市,市博物馆,"颗粒物(PM10),臭氧1小时",73,96,241,36,57,178,,139,139,10,14,8,8,0.5,0.7
2024-05-12T1600,2277A,116.8305,32.7727,淮南市,潘集区政府,颗粒物(PM10),131,212,232,69,76,169,,128,128,12,19,8,8,0.2,0.3
2024-05-12T1600,2278A,117.0067,32.6524,淮南市,师范学院,颗粒物(PM10),146,242,247,67,73,156,,131,131,12,17,12,10,0.3,0.4
2024-05-12T1600,2279A,116.8569,32.5951,淮南市,谢家集区政府,细颗粒物(PM2.5),159,206,205,121,69,151,,120,120,11,18,6,8,0.2,0.3
2024-05-12T1600,2280A,116.8281,32.633,淮南市,八公山区政府,颗粒物(PM10),140,230,219,53,60,155,,120,120,11,14,8,7,0.2,0.3
2024-05-12T1600,2281A,116.6325,32.6201,淮南市,焦岗湖风景区管理处,细颗粒物(PM2.5),158,217,166,120,55,108,,90,90,13,34,4,3,0,0.1
2024-05-12T1600,2894A,117.0566,32.6531,淮南市,经济技术开发区消防队,颗粒物(PM10),140,230,226,61,72,158,,128,128,11,19,6,6,0.3,0.3
2024-05-12T1600,3329A,117.0108,32.5893,淮南市,山南新区,颗粒物(PM10),170,290,257,61,68,162,,130,130,10,16,9,7,0.3,0.4
2024-05-12T1600,2446A,114.9028,30.4742,黄冈市,职工中心,颗粒物(PM10),90,130,137,37,39,154,,123,123,2,4,6,5,0.4,0.4
2024-05-12T1600,2929A,114.8858,30.4519,黄冈市,红卫路,颗粒物(PM10),82,113,119,40,38,148,,115,115,12,8,8,5,0.6,0.7
2024-05-12T1600,3398A,114.9136,30.4445,黄冈市,市林业局,颗粒物(PM10),75,100,113,34,36,159,,124,124,2,2,3,2,0.5,0.4
2024-05-12T1600,2672A,102.0199,35.5102,黄南藏族自治州,同仁县隆务镇,,45,19,21,12,10,144,,120,120,3,2,9,9,0.4,0.5
2024-05-12T1600,2295A,118.2903,29.6963,黄山市,延安路89号,颗粒物(PM10),107,163,45,70,16,125,,107,107,5,6,8,6,0.3,0.6
2024-05-12T1600,2296A,118.327,29.7178,黄山市,黄山东路89号,颗粒物(PM10),91,132,40,31,13,117,,103,103,6,9,6,5,0.3,0.5
2024-05-12T1600,2297A,118.1371,30.2756,黄山市,黄山区政府5号楼,颗粒物(PM10),84,117,41,39,20,125,,107,107,7,7,6,4,0.5,0.7
2024-05-12T1600,2423A,115.0601,30.2313,黄石市,沈家营,颗粒物(PM10),90,130,100,38,34,182,,130,130,9,13,14,13,0.8,0.7
2024-05-12T1600,2424A,115.0817,30.2006,黄石市,陈家湾,颗粒物(PM10),100,149,117,22,39,170,,117,117,7,15,8,8,0.8,0.8
2024-05-12T1600,2426A,114.8988,30.2019,黄石市,铁山,颗粒物(PM10),81,111,114,44,42,184,,124,124,5,19,6,12,0.6,0.9
2024-05-12T1600,2427A,115.0307,30.2092,黄石市,团城山,颗粒物(PM10),87,124,123,32,35,181,,127,127,9,13,13,12,0.9,0.9
2024-05-12T1600,3149A,115.0235,30.1578,黄石市,笔架山北路,颗粒物(PM10),70,90,95,27,31,162,,123,123,4,17,10,12,0.7,0.9
2024-05-12T1600,1392A,114.4183,23.0528,惠州市,河南岸金山湖子站,,30,14,34,7,17,96,,74,74,8,10,5,5,0.5,0.5
2024-05-12T1600,1393A,114.4053,23.0822,惠州市,下埔横江三路子站,,32,8,38,4,17,100,,84,84,6,11,6,6,0.5,0.6
2024-05-12T1600,1394A,114.4103,23.1142,惠州市,江北云山西路子站,,,9,33,,14,102,,82,82,5,8,6,6,0.8,0.9
2024-05-12T1600,1395A,114.4645,22.7833,惠州市,惠阳区承修路船湖子站,,27,12,35,6,17,84,,75,75,16,13,4,4,0.5,0.5
2024-05-12T1600,1396A,114.5317,22.7422,惠州市,大亚湾管委会子站,,32,18,36,10,16,101,,79,79,16,15,6,6,0.5,0.6
2024-05-12T1600,3314A,114.4338,22.8134,惠州市,惠阳秋长,,31,27,42,7,17,99,,90,90,13,10,6,5,0.6,0.7
2024-05-12T1600,2240A,130.9762,45.3001,鸡西市,环保局,,22,15,29,4,9,69,,62,62,3,9,5,6,0.4,0.5
2024-05-12T1600,2243A,130.9429,45.3039,鸡西市,第一中学,,22,14,24,1,7,69,,64,64,4,6,7,7,0.2,0.3
2024-05-12T1600,3707A,131.0207,45.3073,鸡西市,欧美日汽修厂,,20,16,25,9,12,64,,58,58,8,12,3,4,0.3,0.4
2024-05-12T1600,3709A,130.9967,45.3106,鸡西市,市政设施管理处,,26,26,31,4,11,61,,58,58,11,14,7,7,0.4,0.4
2024-05-12T1600,2367A,114.9754,27.0803,吉安市,红声器材厂,颗粒物(PM10),54,58,28,25,13,119,,82,82,19,16,10,8,0.5,0.5
2024-05-12T1600,2368A,114.9658,27.0999,吉安市,市森林工业局,颗粒物(PM10),56,62,29,29,18,115,,81,81,14,14,14,11,0.5,0.5
2024-05-12T1600,2369A,114.99,27.1312,吉安市,市环境监测站,颗粒物(PM10),56,62,29,28,14,125,,90,90,17,13,16,15,0.6,0.7
2024-05-12T1600,2370A,115.0093,27.0968,吉安市,青原区法院,颗粒物(PM10),57,64,30,33,18,111,,78,78,15,12,15,13,0.5,0.5
2024-05-12T1600,1772A,126.54,43.8622,吉林市,哈达湾,,42,34,40,29,13,105,,95,95,9,8,5,4,0.5,0.5
2024-05-12T1600,1773A,126.5844,43.8358,吉林市,东局子,,40,40,58,23,17,101,,90,90,11,10,5,4,0.5,0.5
2024-05-12T1600,1774A,126.5052,43.8245,吉林市,电力学院,,43,43,68,17,14,108,,97,97,6,7,9,9,0.5,0.4
2024-05-12T1600,1775A,126.6133,43.8972,吉林市,江北,颗粒物(PM10),52,54,62,24,18,101,,90,90,9,13,8,8,0.6,0.5
2024-05-12T1600,1776A,126.555,43.8306,吉林市,江南公园,,42,42,66,27,16,100,,90,90,11,10,4,4,0.4,0.4
2024-05-12T1600,2868A,126.4739,43.953,吉林市,九站,颗粒物(PM10),55,60,65,28,14,104,,94,94,12,10,8,5,0.4,0.4
2024-05-12T1600,1299A,116.9862,36.6114,济南市,科干所,颗粒物(PM10),60,70,94,15,27,134,,112,112,10,32,7,6,0.5,0.6
2024-05-12T1600,1300A,116.9376,36.665,济南市,农科所,颗粒物(PM10),63,76,98,7,16,133,,109,109,9,36,6,5,0.4,0.5
2024-05-12T1600,1301A,117.1265,36.6734,济南市,开发区,颗粒物(PM10),64,78,95,24,30,130,,112,112,11,30,7,7,0.5,0.5
2024-05-12T1600,1303A,117.0624,36.6868,济南市,省种子仓库,细颗粒物(PM2.5),92,80,107,68,55,129,,102,102,9,50,4,3,0.2,0.4
2024-05-12T1600,1304A,116.9489,36.6447,济南市,机床二厂,颗粒物(PM10),69,88,126,24,35,136,,112,112,6,40,9,8,0.2,0.3
2024-05-12T1600,1305A,117.0495,36.663,济南市,市监测站,颗粒物(PM10),61,71,93,20,37,138,,115,115,11,49,8,7,0.2,0.3
2024-05-12T1600,1306A,116.7675,36.5484,济南市,长清党校,颗粒物(PM10),84,117,106,22,30,143,,121,121,8,29,8,7,0.5,0.5
2024-05-12T1600,1616A,117.6795,36.229,济南市,技术学院,颗粒物(PM10),63,75,112,44,40,150,,129,129,14,37,10,9,0.2,0.3
2024-05-12T1600,1961A,117.532,36.6868,济南市,东山小学,颗粒物(PM10),63,76,87,27,23,137,,118,118,8,28,5,6,0.2,0.2
2024-05-12T1600,3059A,117.7161,36.2049,济南市,泰兴公司,颗粒物(PM10),60,70,104,29,30,151,,123,123,8,38,10,10,0.5,0.6
2024-05-12T1600,3064A,117.6867,36.2171,济南市,莱芜战役纪念馆,颗粒物(PM10),67,83,112,17,28,144,,120,120,10,32,8,7,0.6,0.6
2024-05-12T1600,3494A,117.1673,36.9782,济南市,济阳区政府,细颗粒物(PM2.5),70,51,105,51,36,126,,104,104,14,53,9,12,0.4,0.6
2024-05-12T1600,3495A,117.1171,36.63,济南市,锦屏中学,颗粒物(PM10),63,76,86,27,27,138,,118,118,9,14,7,6,0.2,0.3
2024-05-12T1600,3682A,116.9814,36.6819,济南市,济南四建,颗粒物(PM10),70,90,113,24,28,127,,107,107,8,39,8,7,0.2,0.3
2024-05-12T1600,1653A,116.6251,35.4302,济宁市,火炬城,细颗粒物(PM2.5),104,112,147,78,34,172,,140,140,3,23,8,10,0.3,0.5
2024-05-12T1600,1655A,116.5491,35.4042,济宁市,电化厂,颗粒物(PM10),89,128,183,29,49,170,,133,133,3,30,7,9,0.4,0.5
2024-05-12T1600,3500A,116.5814,35.3707,济宁市,北湖一中,颗粒物(PM10),80,110,176,19,44,161,,133,133,5,26,3,6,0.2,0.3
2024-05-12T1600,3501A,116.8249,35.5593,济宁市,服务中心,颗粒物(PM10),103,155,145,26,39,162,,129,129,9,35,4,5,0.4,0.5
2024-05-12T1600,3678A,116.5907,35.4054,济宁市,市第七中学,颗粒物(PM10),83,115,167,34,45,176,,149,149,4,22,6,8,0.3,0.4
2024-05-12T1600,2255A,130.2751,46.8028,佳木斯市,佳纺,,23,17,16,7,8,71,,67,67,4,5,3,4,0.4,0.4
2024-05-12T1600,2256A,130.3995,46.8307,佳木斯市,发电厂,,23,11,13,6,7,72,,68,68,3,7,5,5,0.4,0.4
2024-05-12T1600,2257A,130.3258,46.7975,佳木斯市,环保局,,22,,15,6,6,70,,66,66,5,8,4,4,0.4,0.4
2024-05-12T1600,2258A,130.3648,46.8032,佳木斯市,十一中,,22,15,15,9,8,70,,68,68,10,10,5,5,0.4,0.4
2024-05-12T1600,2259A,130.3794,46.7588,佳木斯市,四丰,,,,19,,,69,,65,65,5,5,1,1,0.5,0.5
2024-05-12T1600,1252A,120.7436,30.778,嘉兴市,清河小学,颗粒物(PM10),87,123,47,26,23,120,,105,105,17,20,5,4,0.7,0.9
2024-05-12T1600,1253A,120.726,30.7478,嘉兴市,嘉兴学院,颗粒物(PM10),65,80,42,18,25,120,,102,102,10,13,6,5,0.4,0.6
2024-05-12T1600,2872A,120.7846,30.7525,嘉兴市,南湖区残联,颗粒物(PM10),71,92,48,19,26,126,,105,105,13,16,7,6,0.4,0.6
2024-05-12T1600,3407A,120.6916,30.7739,嘉兴市,秀洲住建,颗粒物(PM10),83,115,48,34,24,128,,109,109,9,15,6,5,0.5,0.8
2024-05-12T1600,1945A,98.2908,39.7711,嘉峪关市,气象局,颗粒物(PM10),79,107,46,22,12,153,,122,122,4,30,2,3,0.3,0.4
2024-05-12T1600,2884A,98.2672,39.7978,嘉峪关市,酒钢宾馆,颗粒物(PM10),75,100,42,24,12,151,,124,124,4,17,7,8,0.3,0.3
2024-05-12T1600,3248A,98.2643,39.7724,嘉峪关市,雄关区,颗粒物(PM10),63,76,33,21,16,151,,116,116,4,25,5,6,0.4,0.4
2024-05-12T1600,1383A,113.1064,22.6058,江门市,北街,,,,33,12,18,74,,83,83,26,13,3,4,0.5,0.6
2024-05-12T1600,1384A,113.0731,22.5835,江门市,西区,,24,,42,16,18,74,,84,84,25,15,6,7,0.5,0.5
2024-05-12T1600,1385A,113.0219,22.5311,江门市,圭峰西,,26,,37,8,19,82,,80,80,16,14,3,4,0.6,0.7
2024-05-12T1600,1386A,113.0828,22.5947,江门市,东湖,,23,20,41,11,18,71,,80,80,23,14,5,6,0.6,0.6
2024-05-12T1600,3311A,113.1075,22.5647,江门市,江海富民,,47,47,56,22,20,71,,88,88,26,16,4,4,0.5,0.5
2024-05-12T1600,3449A,113.05,22.4667,江门市,新会银湖,,28,,34,19,19,64,,81,81,26,14,3,3,0.6,0.6
2024-05-12T1600,1828A,113.227,35.2125,焦作市,市环保局,细颗粒物(PM2.5),127,173,184,96,69,168,,134,134,10,17,6,6,0.3,0.3
2024-05-12T1600,3169A,113.2725,35.2067,焦作市,太极体育中心,颗粒物(PM10),135,219,212,62,55,166,,132,132,12,22,6,13,0.2,0.3
2024-05-12T1600,3335A,113.3137,35.2641,焦作市,马村街道办,颗粒物(PM10),122,194,198,59,62,161,,136,136,6,17,5,6,,0.4
2024-05-12T1600,3336A,113.2465,35.2373,焦作市,焦作技师学院,颗粒物(PM10),128,206,204,58,55,158,,128,128,10,17,6,5,0.3,0.3
2024-05-12T1600,3477A,113.1656,35.2539,焦作市,中站许衡医院,颗粒物(PM10),125,200,192,70,69,166,,137,137,5,15,9,8,0.2,0.2
2024-05-12T1600,3981A,113.2449,35.1803,焦作市,原李万街道办,颗粒物(PM10),125,200,194,56,49,147,,118,118,14,16,7,12,0.3,0.4
2024-05-12T1600,1708A,116.3701,23.5345,揭阳市,新兴,,,,68,25,32,94,,84,84,7,26,5,7,0.5,0.6
2024-05-12T1600,1709A,116.3264,23.5443,揭阳市,西马,,47,47,52,17,19,90,,76,76,7,12,6,7,0.7,0.8
2024-05-12T1600,1710A,116.3611,23.5626,揭阳市,东兴,,49,49,55,22,23,90,,86,86,5,13,6,8,0.7,0.8
2024-05-12T1600,1711A,116.4151,23.5294,揭阳市,渔湖,,38,38,52,11,19,94,,80,80,5,15,6,8,0.7,0.7
2024-05-12T1600,3320A,116.403,23.5699,揭阳市,曲溪,,49,41,44,34,24,93,,87,87,8,17,4,10,0.6,0.7
2024-05-12T1600,1944A,102.1692,38.5167,金昌市,天庆家园,,43,39,61,10,25,135,,120,120,6,15,20,14,0.4,0.4
2024-05-12T1600,3170A,102.1864,38.5253,金昌市,市委党校,,44,40,79,11,27,138,,124,124,4,16,17,22,0.4,1
2024-05-12T1600,4022A,102.1647,38.5371,金昌市,金川区人防中心,,44,44,63,8,22,135,,124,124,8,9,9,10,0.5,0.6
2024-05-12T1600,1262A,119.647,29.077,金华市,十五中,,38,38,41,11,33,97,,86,86,21,22,4,4,0.4,0.7
2024-05-12T1600,1263A,119.686,29.1029,金华市,监测站,,37,37,40,19,26,97,,83,83,20,25,3,2,0.4,0.6
2024-05-12T1600,3659A,119.656,29.1131,金华市,气象局,,34,34,41,13,28,98,,83,83,21,23,5,4,0.7,1
2024-05-12T1600,1767A,121.1115,41.0879,锦州市,南山,,39,32,27,15,9,122,,111,111,9,10,8,10,0.4,0.4
2024-05-12T1600,1768A,121.0533,40.8434,锦州市,开发区,颗粒物(PM10),65,79,51,14,15,102,,100,100,23,35,10,15,0.4,0.5
2024-05-12T1600,1769A,121.1836,41.1119,锦州市,百股街道,颗粒物(PM10),66,81,27,7,6,118,,108,108,10,14,8,8,0.4,0.5
2024-05-12T1600,1770A,121.1178,41.1222,锦州市,天安街道,,48,48,24,7,6,112,,103,103,8,8,9,11,0.4,0.5
2024-05-12T1600,1771A,121.1303,41.1386,锦州市,北湖公园,,43,43,20,9,7,108,,100,100,8,10,7,7,0.5,0.5
2024-05-12T1600,2160A,112.85,35.5051,晋城市,自来水公司,颗粒物(PM10),115,179,142,39,32,186,,140,140,16,37,12,11,0.7,1.1
2024-05-12T1600,2161A,112.8318,35.4936,晋城市,白云商贸,颗粒物(PM10),121,192,127,68,28,189,,140,140,15,36,14,12,0.5,0.8
2024-05-12T1600,2162A,112.8508,35.4887,晋城市,市环保局,颗粒物(PM10),149,248,168,46,33,185,,138,138,17,36,13,11,0.5,0.9
2024-05-12T1600,2163A,112.8676,35.4897,晋城市,技术学院,颗粒物(PM10),120,189,133,41,36,181,,135,135,16,36,12,10,0.7,0.9
2024-05-12T1600,3620A,112.8271,35.4828,晋城市,泽州一中,颗粒物(PM10),113,175,127,36,24,186,,139,139,20,32,13,10,0.8,1.1
2024-05-12T1600,2171A,112.7532,37.6945,晋中市,锦纶小区,,42,22,51,2,15,133,,113,113,8,23,8,9,0.1,0.2
2024-05-12T1600,2173A,112.7249,37.7067,晋中市,南都小区,,42,20,52,19,15,132,,113,113,7,26,6,7,0.1,0.2
2024-05-12T1600,2174A,112.6991,37.6982,晋中市,榆次区政府,,43,22,50,6,16,136,,115,115,9,29,6,7,0.1,0.2
2024-05-12T1600,2865A,112.7195,37.6828,晋中市,榆次三中,,42,19,57,5,9,134,,113,113,6,25,7,8,0.3,0.3
2024-05-12T1600,2439A,112.2014,31.0481,荆门市,竹园小学,颗粒物(PM10),75,100,123,22,27,173,,145,145,9,20,10,9,0.4,0.6
2024-05-12T1600,2440A,112.1969,30.9891,荆门市,掇刀,"颗粒物(PM10),臭氧1小时",82,114,136,24,33,185,,154,154,18,22,12,12,0.4,0.6
2024-05-12T1600,2441A,112.2213,31.0386,荆门市,石化一小,颗粒物(PM10),79,108,144,37,36,179,,150,150,8,21,14,12,0.5,0.7
2024-05-12T1600,3012A,112.1849,31.0362,荆门市,西山林语,颗粒物(PM10),78,105,118,27,35,176,,149,149,7,12,11,10,0.4,0.5
2024-05-12T1600,3547A,112.1632,31.0138,荆门市,龙泉中学南校,颗粒物(PM10),77,103,142,29,33,177,,145,145,13,18,9,9,0.2,0.4
2024-05-12T1600,1844A,112.2494,30.3197,荆州市,市图书馆,颗粒物(PM10),81,112,101,26,32,164,,136,136,22,45,8,7,0.3,0.6
2024-05-12T1600,1845A,112.2008,30.3544,荆州市,市委党校,颗粒物(PM10),76,101,101,18,30,172,,142,142,10,24,8,8,0.5,0.7
2024-05-12T1600,3194A,112.2747,30.3122,荆州市,管委会,颗粒物(PM10),72,93,93,27,33,171,,137,137,9,38,6,6,0.4,0.6
2024-05-12T1600,3548A,112.1655,30.3364,荆州市,学苑路,臭氧1小时,78,96,90,24,36,182,,146,146,6,16,7,7,0.3,0.5
2024-05-12T1600,2343A,117.2117,29.2933,景德镇市,老干部活动中心,,45,45,30,26,20,106,,85,85,5,9,4,5,0.3,0.4
2024-05-12T1600,2344A,117.1894,29.2789,景德镇市,兽医站,,48,48,33,10,17,106,,92,92,3,10,6,7,0.1,0.5
2024-05-12T1600,2345A,117.1547,29.2617,景德镇市,台达陶瓷,颗粒物(PM10),53,55,31,24,19,102,,89,89,14,22,12,7,0.5,0.3
2024-05-12T1600,2346A,117.2461,29.2956,景德镇市,陶研所,,36,36,29,10,15,100,,85,85,8,8,4,5,0.2,0.2
2024-05-12T1600,1803A,115.9872,29.6815,九江市,十里,颗粒物(PM10),90,130,88,28,31,148,,126,126,8,7,12,11,0.4,0.7
2024-05-12T1600,1804A,115.9584,29.7046,九江市,茅山头,颗粒物(PM10),78,106,81,28,35,137,,117,117,12,24,10,9,0.5,0.7
2024-05-12T1600,1805A,115.9877,29.7295,九江市,西园,颗粒物(PM10),72,93,77,30,33,134,,109,109,13,24,14,14,0.5,0.8
2024-05-12T1600,1806A,116.0172,29.6547,九江市,五七二七厂,颗粒物(PM10),85,120,81,28,28,132,,108,108,9,14,11,10,0.6,0.8
2024-05-12T1600,1808A,115.9114,29.6038,九江市,综合工业园,颗粒物(PM10),107,163,89,48,33,149,,122,122,9,24,11,10,0.5,0.9
2024-05-12T1600,1809A,116.0721,29.7535,九江市,石化总厂,颗粒物(PM10),86,122,88,26,32,142,,119,119,13,26,14,13,0.6,0.7
2024-05-12T1600,1810A,115.9773,29.5698,九江市,庐山气象台,颗粒物(PM10),87,124,70,42,23,132,,124,122,4,6,7,12,0.5,0.7
2024-05-12T1600,3190A,116.0254,29.6994,九江市,外国语学校,颗粒物(PM10),104,158,86,41,37,148,,126,126,15,23,7,8,0.4,0.7
2024-05-12T1600,2658A,98.5061,39.7443,酒泉市,仓门街子站,颗粒物(PM10),62,73,50,23,16,146,,113,113,4,18,8,9,0.2,0.3
2024-05-12T1600,2659A,98.4989,39.7256,酒泉市,油田生活基地,颗粒物(PM10),73,95,54,21,18,151,,114,114,4,19,10,11,0.2,0.2
2024-05-12T1600,2698A,76.0072,39.4467,喀什地区,巡警大队,颗粒物(PM10),193,335,273,76,58,112,,82,82,7,21,3,4,0.1,0.2
2024-05-12T1600,2699A,75.9755,39.4694,喀什地区,吾办,颗粒物(PM10),184,318,274,111,97,109,,84,78,13,21,4,4,0.4,0.4
2024-05-12T1600,4027A,75.9483,39.4689,喀什地区,老干局,颗粒物(PM10),202,351,404,89,85,111,,71,71,8,32,6,5,0.3,0.4
2024-05-12T1600,1824A,114.3389,34.7781,开封市,肿瘤医院,颗粒物(PM10),111,172,231,37,46,167,,138,138,8,23,4,8,0.3,0.3
2024-05-12T1600,1826A,114.2885,34.7965,开封市,世纪星幼儿园,细颗粒物(PM2.5),144,174,212,110,78,167,,139,139,7,16,6,8,0.3,0.3
2024-05-12T1600,3147A,114.3438,34.8106,开封市,龙亭公园,颗粒物(PM10),120,190,223,54,59,162,,133,133,7,18,6,7,0.4,0.4
2024-05-12T1600,3210A,114.3644,34.7964,开封市,汴京公园,颗粒物(PM10),116,181,212,58,72,170,,139,139,8,21,4,7,0.3,0.4
2024-05-12T1600,3473A,114.2485,34.8306,开封市,技师学院,颗粒物(PM10),119,188,216,57,69,169,,140,140,10,19,5,7,0.3,0.2
2024-05-12T1600,3592A,114.4644,34.7556,开封市,祥符区生态环境局,,,,201,60,95,161,,125,125,9,35,6,7,0.2,0.2
2024-05-12T1600,1951A,84.895,45.6094,克拉玛依市,长征新村,,36,34,34,1,5,115,,100,100,5,5,8,8,0.1,0.2
2024-05-12T1600,1952A,84.8988,45.5893,克拉玛依市,南林小区,,37,31,33,22,16,116,,100,100,5,6,7,7,0.2,0.3
2024-05-12T1600,1954A,84.905,44.3396,克拉玛依市,独山子区,,48,48,47,30,25,98,,99,99,1,3,6,7,0.2,0.3
2024-05-12T1600,1955A,85.6979,46.098,克拉玛依市,乌尔禾区商贸楼,,31,,50,16,12,98,,95,95,2,2,9,10,0.1,0.2
2024-05-12T1600,3612A,85.1045,45.6899,克拉玛依市,白碱滩区新站,,39,28,37,23,19,124,,101,101,5,5,7,8,0.3,0.2
2024-05-12T1600,2697A,76.1454,39.7142,克孜勒苏柯尔克孜自治州,市人民政府,颗粒物(PM10),280,406,218,118,80,116,,90,90,2,15,7,10,0.2,0.3
2024-05-12T1600,3665A,76.1658,39.7157,克孜勒苏柯尔克孜自治州,克州文化中心,颗粒物(PM10),447,547,225,116,74,121,,100,100,2,9,8,11,0.3,0.3
2024-05-12T1600,1450A,102.8204,24.8886,昆明市,呈贡新区,,42,26,25,21,16,134,,101,101,7,14,5,4,0.7,0.7
2024-05-12T1600,1452A,102.7252,25.0902,昆明市,龙泉镇,,47,,23,22,14,148,,92,92,15,15,8,6,0.4,0.5
2024-05-12T1600,1453A,102.7266,25.0375,昆明市,东风东路,,44,31,24,20,14,138,,95,95,11,14,7,6,0.6,0.5
2024-05-12T1600,1454A,102.6742,25.0669,昆明市,金鼎山,,45,41,23,21,15,142,,85,85,13,14,8,7,0.6,0.5
2024-05-12T1600,1455A,102.6644,25.0401,昆明市,碧鸡广场,,43,25,25,13,18,136,,94,94,13,13,5,4,0.7,0.6
2024-05-12T1600,3179A,102.7494,25.0119,昆明市,官渡区博物馆,,47,29,24,22,14,149,,103,103,8,19,10,8,0.5,0.5
2024-05-12T1600,3375A,102.8017,24.8336,昆明市,青年创业园,,46,22,28,20,18,145,,109,109,7,17,8,8,0.5,0.6
2024-05-12T1600,3550A,102.7997,24.9786,昆明市,昆明学院,,46,31,27,20,16,146,,98,98,9,19,9,8,0.6,0.6
2024-05-12T1600,3551A,102.5967,24.6736,昆明市,晋宁区生态环境分局,,43,,25,24,20,137,,105,105,11,12,3,3,0.6,0.7
2024-05-12T1600,3552A,102.6678,24.9856,昆明市,云天化总部,,44,22,23,16,15,140,,98,98,6,13,8,7,0.7,0.6
2024-05-12T1600,1456A,91.1319,29.6514,拉萨市,八廓街,,47,25,23,10,13,150,,123,123,2,13,9,8,0.2,0.3
2024-05-12T1600,1457A,91.1221,29.6747,拉萨市,市环保局,,46,20,26,9,12,147,,119,119,11,22,6,6,0.2,0.4
2024-05-12T1600,1458A,91.0874,29.6475,拉萨市,区监测站,,45,14,19,9,10,143,,113,113,7,19,5,6,0.1,0.2
2024-05-12T1600,1459A,91.1774,29.6541,拉萨市,西藏大学,,48,17,21,9,11,151,,124,124,5,13,4,4,0.3,0.4
2024-05-12T1600,1460A,90.9798,29.6588,拉萨市,区辐射站,,42,19,21,8,11,132,,108,108,10,16,6,7,0.3,0.3
2024-05-12T1600,1461A,91.0834,29.6292,拉萨市,拉萨火车站,,46,15,18,8,10,145,,114,114,6,17,6,7,0.2,0.3
2024-05-12T1600,2520A,109.2203,23.7256,来宾市,来宾技工学校,,30,,25,10,16,96,,98,98,4,10,6,6,0.7,0.7
2024-05-12T1600,3535A,109.1781,23.7297,来宾市,兴宾区政府,,29,10,23,5,11,90,,95,95,4,9,5,6,0.6,0.6
2024-05-12T1600,4002A,109.2416,23.7461,来宾市,中南小学,,33,10,27,9,18,104,,103,103,4,13,9,8,0.7,0.7
2024-05-12T1600,1476A,103.631,36.1031,兰州市,兰炼宾馆,臭氧1小时,58,23,67,23,38,166,,133,133,10,44,9,12,0.3,0.4
2024-05-12T1600,1478A,103.8412,36.0726,兰州市,生物制品所,,47,,60,20,35,150,,102,102,13,48,12,12,0.2,0.4
2024-05-12T1600,1479A,103.831,36.0464,兰州市,铁路设计院,,49,37,71,15,27,155,,108,108,17,55,11,11,0.3,0.5
2024-05-12T1600,3186A,103.7158,36.1058,兰州市,教育港,臭氧1小时,58,26,73,12,35,166,,126,126,8,32,9,12,0.3,0.4
2024-05-12T1600,3241A,103.7439,36.0842,兰州市,百合公园,,49,30,61,11,27,154,,113,113,10,34,4,6,0.1,0.3
2024-05-12T1600,3242A,103.9611,35.998,兰州市,和平,,49,23,65,17,24,155,,117,117,6,19,8,10,0.2,0.4
2024-05-12T1600,3245A,103.6633,36.533,兰州新区,新区管委会,,48,48,58,21,25,148,,123,123,4,14,19,17,0.3,0.4
2024-05-12T1600,3246A,103.6975,36.4789,兰州新区,舟曲中学,,50,50,72,18,23,146,,120,120,5,18,20,15,0.3,0.4
2024-05-12T1600,1067A,116.6708,39.5111,廊坊市,药材公司,,39,17,41,7,12,122,,96,96,8,18,3,3,0.3,0.3
2024-05-12T1600,1068A,116.7214,39.5589,廊坊市,开发区,,39,25,50,6,13,123,,96,96,9,21,2,1,0.3,0.3
2024-05-12T1600,1070A,116.7244,39.5269,廊坊市,北华航天学院,,38,34,58,5,11,121,,94,94,11,22,3,2,0.3,0.2
2024-05-12T1600,2919A,116.7022,39.5453,廊坊市,河北工业大学,,38,23,46,10,14,120,,92,92,7,20,3,3,0.3,0.2
2024-05-12T1600,2535A,103.7723,29.5462,乐山市,花湖湾,,29,25,33,20,22,61,,40,40,16,16,5,4,0.7,0.7
2024-05-12T1600,2536A,103.7627,29.5844,乐山市,牛耳桥,,47,47,49,22,22,69,,45,45,23,28,11,8,0.6,0.6
2024-05-12T1600,2537A,103.7508,29.6006,乐山市,市第三水厂,,36,36,49,21,22,79,,50,50,13,25,9,6,0.5,0.5
2024-05-12T1600,2538A,103.7571,29.5664,乐山市,市监测站,,39,39,47,19,23,76,,52,52,13,21,10,8,0.5,0.5
2024-05-12T1600,3361A,103.7311,29.5628,乐山市,理工大学,,34,34,47,16,23,77,,50,50,10,21,9,10,0.4,0.5
2024-05-12T1600,2599A,100.2497,26.8802,丽江市,丽江古城,,40,31,26,11,15,127,,119,119,10,11,7,6,0.5,0.5
2024-05-12T1600,2600A,100.2203,26.8906,丽江市,市中心,,39,27,18,9,10,124,,116,116,7,10,9,9,0.5,0.5
2024-05-12T1600,1267A,119.914,28.4514,丽水市,监测站大楼,,33,15,30,6,23,103,,61,61,12,25,2,3,0.5,0.7
2024-05-12T1600,1268A,119.93,28.4586,丽水市,莲都小学,,32,12,31,6,18,100,,64,64,14,25,3,4,0.4,0.6
2024-05-12T1600,1269A,119.879,28.4231,丽水市,余庄前,,28,10,29,5,20,88,,49,49,10,16,3,3,0.6,0.7
2024-05-12T1600,1173A,119.176,34.5885,连云港市,市环境监测站,颗粒物(PM10),91,132,280,34,61,161,,129,129,12,23,8,9,0.3,0.3
2024-05-12T1600,3000A,119.3581,34.6972,连云港市,德源药业,颗粒物(PM10),98,146,255,29,55,172,,132,132,16,41,9,7,0.6,0.4
2024-05-12T1600,3007A,119.178,34.844,连云港市,新城一中,颗粒物(PM10),121,191,270,65,86,176,,144,144,23,36,8,8,0.6,0.6
2024-05-12T1600,3008A,119.3608,34.7519,连云港市,胡沟管理处,颗粒物(PM10),101,151,270,31,54,162,,137,137,24,25,12,10,0.6,0.4
2024-05-12T1600,3009A,119.1478,34.5911,连云港市,矿山设计院,颗粒物(PM10),106,161,294,46,66,163,,131,131,13,30,9,9,0.5,0.6
2024-05-12T1600,3434A,119.2413,34.6539,连云港市,工贸学校,颗粒物(PM10),90,130,264,45,85,180,,142,142,11,14,9,8,0.4,0.4
2024-05-12T1600,3664A,119.4172,34.7341,连云港市,连云街道,颗粒物(PM10),103,156,250,40,61,187,,136,136,10,17,7,5,0.6,0.5
2024-05-12T1600,2571A,102.3431,27.8099,凉山彝族自治州,青龙寺,,31,10,7,5,3,97,,83,83,3,4,6,6,0.4,0.5
2024-05-12T1600,2572A,102.2721,27.8415,凉山彝族自治州,邛海宾馆,,33,20,9,11,5,103,,85,85,6,7,10,9,0.6,0.6
2024-05-12T1600,2573A,102.2625,27.898,凉山彝族自治州,西昌市政府,,30,,7,11,9,94,,81,81,8,8,13,9,0.5,0.5
2024-05-12T1600,2574A,102.2685,27.8851,凉山彝族自治州,凉山州政府,,30,19,13,9,6,96,,84,84,7,8,9,7,0.4,0.5
2024-05-12T1600,2575A,102.237,27.8914,凉山彝族自治州,长安,,30,13,13,9,9,95,,77,77,10,11,12,10,0.6,0.6
2024-05-12T1600,2212A,123.2,41.1953,辽阳市,宏伟区,,26,24,49,10,14,83,,84,84,12,12,10,11,0.5,0.5
2024-05-12T1600,2213A,123.1683,41.2495,辽阳市,新华园,,35,35,55,11,16,95,,88,88,11,15,10,10,0.4,0.4
2024-05-12T1600,2214A,123.2354,41.2639,辽阳市,滨河路,,30,25,63,17,35,94,,85,85,9,11,7,8,0.3,0.3
2024-05-12T1600,2215A,123.149,41.2991,辽阳市,铁西工业园,,30,30,65,9,25,96,,88,88,9,14,11,11,0.3,0.4
2024-05-12T1600,2227A,125.1358,42.8845,辽源市,环保局,,35,26,39,18,10,111,,104,104,8,8,10,9,0.4,0.5
2024-05-12T1600,3239A,125.0764,42.9078,辽源市,银鹰制药,,33,30,47,21,12,103,,97,97,9,13,5,9,0.4,0.4
2024-05-12T1600,1625A,115.9848,36.4372,聊城市,区政府,颗粒物(PM10),109,167,162,28,59,171,,143,143,9,22,7,6,0.5,0.5
2024-05-12T1600,2878A,116.0072,36.4343,聊城市,聊大东校,颗粒物(PM10),100,149,156,36,39,165,,143,143,7,21,10,6,0.5,0.4
2024-05-12T1600,3200A,115.9819,36.4978,聊城市,监控中心,颗粒物(PM10),79,107,113,19,27,155,,133,133,4,39,10,8,0.3,0.4
2024-05-12T1600,3513A,116.0445,36.4361,聊城市,九州社区,颗粒物(PM10),93,136,155,28,36,167,,147,147,8,24,7,6,0.4,0.4
2024-05-12T1600,4018A,116.0567,36.4608,聊城市,星美广场,颗粒物(PM10),100,149,167,22,39,162,,143,143,13,28,5,8,0.4,0.4
2024-05-12T1600,2632A,94.3681,29.6376,林芝市,林芝监测站,,36,29,17,12,10,115,,91,91,4,4,6,6,0.3,0.4
2024-05-12T1600,2633A,94.3616,29.6616,林芝市,林芝人民医院,,39,17,14,8,10,122,,96,96,6,6,7,7,0.3,0.3
2024-05-12T1600,2603A,100.0781,23.8982,临沧市,市环保局,,50,40,39,35,30,120,,92,92,8,14,7,12,0.2,0.3
2024-05-12T1600,2604A,100.0894,23.8822,临沧市,市气象局,,45,37,39,31,31,109,,88,88,9,17,7,12,0.6,0.6
2024-05-12T1600,1733A,111.5531,36.0783,临汾市,临钢医院,颗粒物(PM10),69,87,125,11,34,165,,121,121,12,25,8,11,0.4,0.6
2024-05-12T1600,1734A,111.5028,36.0714,临汾市,技工学校,臭氧1小时,70,54,102,11,31,176,,128,128,11,29,7,10,0.4,0.6
2024-05-12T1600,1736A,111.5018,36.0855,临汾市,市委,臭氧1小时,87,68,115,20,31,189,,137,137,3,21,11,13,0.6,0.8
2024-05-12T1600,3018A,111.505,36.1014,临汾市,唐尧大酒店,颗粒物(PM10),64,78,113,39,31,168,,123,123,8,24,8,9,0.5,0.7
2024-05-12T1600,3668A,111.5036,36.0414,临汾市,城南,臭氧1小时,74,52,104,30,38,179,,134,134,14,31,9,11,0.3,0.6
2024-05-12T1600,2667A,103.2069,35.5993,临夏回族自治州,环保局,,46,37,64,13,25,146,,107,107,2,16,4,4,0.2,0.4
2024-05-12T1600,2668A,103.2417,35.6057,临夏回族自治州,建设大厦,,48,34,55,11,25,152,,114,114,4,12,9,9,0.2,0.3
2024-05-12T1600,1618A,118.3429,35.0532,临沂市,沂河小区,臭氧1小时,67,78,277,43,114,173,,155,155,26,25,9,13,0.3,0.4
2024-05-12T1600,1619A,118.295,35.0583,临沂市,鲁南制药厂,细颗粒物(PM2.5),103,114,258,77,109,180,,149,149,10,27,8,13,0.2,0.4
2024-05-12T1600,1620A,118.2794,34.9976,临沂市,新光毛纺厂,颗粒物(PM10),74,97,284,19,60,171,,146,146,6,25,6,12,0.4,0.6
2024-05-12T1600,1621A,118.3956,35.0888,临沂市,河东保险公司,臭氧1小时,68,70,246,16,66,174,,139,139,8,24,8,8,0.2,0.4
2024-05-12T1600,3370A,118.3564,35.0215,临沂市,十里堡居委,臭氧1小时,73,75,274,24,75,178,,149,149,10,24,7,10,0.3,0.5
2024-05-12T1600,3496A,118.3604,35.1084,临沂市,南坊新区,颗粒物(PM10),84,117,268,46,68,174,,140,140,13,25,10,11,0.4,0.6
2024-05-12T1600,3860A,118.3920,35.0300,临沂市,皇山花园小区,颗粒物(PM10),73,95,284,22,62,176,,146,146,4,22,10,13,0.2,0.5
2024-05-12T1600,1870A,109.4856,24.3895,柳州市,柳东小学,,22,16,19,15,13,69,,80,70,7,7,9,7,0.5,0.5
2024-05-12T1600,1871A,109.4157,24.3277,柳州市,环保监测站,,24,24,22,11,15,70,,81,68,13,10,9,8,0.8,0.7
2024-05-12T1600,1872A,109.389,24.341,柳州市,河西水厂,,23,23,21,10,14,66,,79,63,9,9,8,7,0.7,0.8
2024-05-12T1600,1873A,109.4311,24.2921,柳州市,市四中,,24,24,21,12,16,75,,83,74,13,10,8,6,0.8,0.7
2024-05-12T1600,1874A,109.4006,24.3631,柳州市,市九中,,30,30,26,16,10,67,,77,66,17,14,12,8,1.0,0.7
2024-05-12T1600,1875A,109.4958,24.3134,柳州市,古亭山,,26,17,20,12,13,81,,88,75,6,10,6,4,0.5,0.5
2024-05-12T1600,3402A,109.5422,24.3996,柳州市,市二中,,26,26,20,15,11,72,,84,71,12,11,8,8,0.5,0.4
2024-05-12T1600,2307A,116.5079,31.737,六安市,监测大楼,颗粒物(PM10),122,193,117,55,53,170,,132,132,12,11,5,5,0.5,0.6
2024-05-12T1600,2308A,116.4738,31.7643,六安市,皖西学院,颗粒物(PM10),137,223,134,55,47,168,,137,137,12,13,5,4,0.4,0.6
2024-05-12T1600,2309A,116.4996,31.7905,六安市,朝阳厂,颗粒物(PM10),127,204,119,54,44,161,,129,129,9,10,7,6,0.3,0.4
2024-05-12T1600,2310A,116.5567,31.7886,六安市,开发区,颗粒物(PM10),152,254,140,70,53,159,,128,128,14,17,8,8,0.4,0.7
2024-05-12T1600,2577A,104.83,26.5917,六盘水市,黄土坡,,28,,11,8,6,88,,89,89,7,8,6,7,0.3,0.3
2024-05-12T1600,2578A,104.89,26.5939,六盘水市,水钢,,26,26,19,10,11,83,,80,80,11,20,9,11,0.4,0.6
2024-05-12T1600,2579A,104.8475,26.5894,六盘水市,民中,,27,13,10,9,6,86,,86,86,8,8,6,7,0.4,0.4
2024-05-12T1600,2580A,104.9544,26.5506,六盘水市,双水,,30,,8,11,6,95,,92,92,5,8,6,7,0.3,0.4
2024-05-12T1600,2336A,117.0217,25.1033,龙岩市,龙岩市监测站,,33,23,25,23,21,74,,68,68,7,8,5,6,0.4,0.4
2024-05-12T1600,2337A,117.0258,25.0661,龙岩市,闽西职业技术学院,,23,22,27,14,14,72,,68,68,6,8,4,5,0.4,0.4
2024-05-12T1600,2338A,117.0196,25.0306,龙岩市,龙岩学院,,33,33,22,12,12,80,,76,76,4,5,4,4,0.5,0.5
2024-05-12T1600,2885A,104.9339,33.3826,陇南市,滨江中学,颗粒物(PM10),54,57,111,10,28,138,,92,92,2,9,4,8,0.6,0.7
2024-05-12T1600,3247A,104.955,33.371,陇南市,市总工会,,41,39,92,10,20,130,,88,88,3,6,6,6,0.4,0.5
2024-05-12T1600,2487A,111.9589,27.8901,娄底市,电视发射台,颗粒物(PM10),84,117,79,20,25,134,,112,112,5,5,7,6,0.7,0.8
2024-05-12T1600,2488A,111.9975,27.725,娄底市,市监测站,颗粒物(PM10),85,120,87,22,29,151,,123,123,4,16,4,5,0.5,0.7
2024-05-12T1600,2489A,112.0194,27.7314,娄底市,市委党校,颗粒物(PM10),78,106,79,32,32,139,,113,113,5,14,3,6,0.3,0.5
2024-05-12T1600,2490A,111.9561,27.7569,娄底市,涟钢,颗粒物(PM10),86,121,68,20,26,119,,96,96,21,16,14,11,0.4,0.5
2024-05-12T1600,2491A,111.9892,27.7044,娄底市,市政府,颗粒物(PM10),81,111,69,33,29,147,,118,118,5,12,8,7,0.3,0.5
2024-05-12T1600,1893A,105.4324,28.9634,泸州市,九狮山,,31,23,40,5,15,97,,73,73,7,10,5,5,0.2,0.2
2024-05-12T1600,1894A,105.4427,28.9063,泸州市,小市上码头,,35,35,42,17,20,95,,76,76,5,11,5,6,0.1,0.2
2024-05-12T1600,1895A,105.4241,28.8573,泸州市,兰田宪桥,,32,32,39,16,19,93,,75,75,2,6,5,5,0.1,0.2
2024-05-12T1600,1896A,105.4379,28.8833,泸州市,市环监站,,31,31,40,15,18,91,,75,75,6,12,3,4,0.2,0.2
2024-05-12T1600,3490A,105.3617,28.7703,泸州市,纳溪区环保局,,31,31,40,12,14,96,,68,68,9,18,2,1,0.1,0.2
2024-05-12T1600,2183A,111.1406,37.5211,吕梁市,环保局,,40,12,55,4,19,126,,108,108,5,30,3,3,0,0.1
2024-05-12T1600,2185A,111.1297,37.5136,吕梁市,自来水公司,,37,17,68,4,24,117,,99,99,7,23,3,4,0.2,0.3
2024-05-12T1600,2867A,111.1283,37.51,吕梁市,马茂庄小学,,40,26,74,22,24,128,,106,106,7,35,2,2,0.2,0.3
2024-05-12T1600,1812A,112.3931,34.6516,洛阳市,市委党校,颗粒物(PM10),99,147,163,63,59,189,,134,134,15,32,7,7,0.4,0.4
2024-05-12T1600,1814A,112.4657,34.6871,洛阳市,豫西宾馆,颗粒物(PM10),121,192,197,49,46,196,,140,140,15,28,9,11,0.3,0.4
2024-05-12T1600,1815A,112.494,34.6886,洛阳市,河南林校,颗粒物(PM10),114,177,178,51,54,195,,137,137,21,30,10,9,0.3,0.3
2024-05-12T1600,1816A,112.3844,34.623,洛阳市,开发区管委会,颗粒物(PM10),107,163,153,51,54,194,,138,138,10,18,8,5,0.3,0.3
2024-05-12T1600,1817A,112.4267,34.6258,洛阳市,市委新办公区,颗粒物(PM10),103,155,153,46,43,190,,136,136,14,21,9,7,0.6,0.6
2024-05-12T1600,3340A,112.6005,34.6326,洛阳市,伊滨,颗粒物(PM10),120,189,179,78,51,197,,133,133,17,27,12,8,0.4,0.3
2024-05-12T1600,3341A,112.4951,34.6332,洛阳市,中移产业园,颗粒物(PM10),121,192,165,60,60,200,,140,140,13,22,10,8,0.5,0.3
2024-05-12T1600,3593A,112.5736,34.8993,洛阳市,吉利监测站,颗粒物(PM10),133,216,195,85,56,195,,143,143,19,30,,4,0.4,0.4
2024-05-12T1600,3635A,112.3677,34.662,洛阳市,河科大西苑校区,颗粒物(PM10),112,173,170,41,50,187,,131,131,9,31,7,9,0.4,0.4
2024-05-12T1600,3636A,112.4388,34.6781,洛阳市,英才小学,颗粒物(PM10),112,174,188,39,43,186,,131,131,14,29,8,10,0.5,0.5
2024-05-12T1600,2399A,114.051,33.5699,漯河市,三五一五工厂,颗粒物(PM10),125,200,263,43,62,155,,137,137,8,21,7,8,0.4,0.5
2024-05-12T1600,2400A,114.0055,33.5698,漯河市,漯河大学,颗粒物(PM10),113,175,236,63,68,160,,138,138,12,20,8,10,0.3,0.3
2024-05-12T1600,2401A,114.0138,33.5828,漯河市,市水利局,颗粒物(PM10),134,217,262,68,73,157,,140,140,8,18,8,10,0.4,0.5
2024-05-12T1600,2402A,114.0261,33.5698,漯河市,市广电局,颗粒物(PM10),116,181,252,45,54,156,,139,139,8,19,6,7,0.4,0.4
2024-05-12T1600,3478A,113.9749,33.5664,漯河市,市图书馆,细颗粒物(PM2.5),142,205,245,108,100,160,,134,134,5,17,3,6,0.4,0.4
2024-05-12T1600,3479A,114.0967,33.5906,漯河市,召陵区卫健委,颗粒物(PM10),117,183,246,61,84,161,,135,135,8,19,6,8,0.2,0.3
2024-05-12T1600,1798A,118.5092,31.6837,马鞍山市,湖东路四小,颗粒物(PM10),120,189,113,27,33,171,,123,123,17,20,7,6,0.5,0.8
2024-05-12T1600,1799A,118.5024,31.6449,马鞍山市,开发区,颗粒物(PM10),110,170,109,30,31,171,,124,124,18,17,8,8,0.5,0.8
2024-05-12T1600,1800A,118.5228,31.7231,马鞍山市,慈湖,颗粒物(PM10),120,190,112,38,39,169,,118,118,21,30,6,5,0.6,0.8
2024-05-12T1600,1802A,118.6245,31.7241,马鞍山市,濮塘,颗粒物(PM10),107,163,99,74,45,158,,117,117,11,10,4,3,0.6,0.8
2024-05-12T1600,3633A,118.4918,31.6809,马鞍山市,雨山,颗粒物(PM10),119,188,123,36,33,178,,125,125,17,21,11,10,0.6,0.8
2024-05-12T1600,1686A,111.0286,21.4688,茂名市,电白南海,,27,27,36,17,15,53,,63,56,4,6,8,8,0.5,0.5
2024-05-12T1600,1687A,110.9294,21.6533,茂名市,茂石化七小,,32,22,40,22,21,48,,57,57,9,10,9,11,0.8,0.8
2024-05-12T1600,1688A,110.9107,21.6687,茂名市,健康路,,31,31,37,12,13,56,,60,60,6,9,8,10,0.6,0.6
2024-05-12T1600,1689A,110.8592,21.6828,茂名市,高岭,,25,19,43,17,19,61,,58,58,5,13,8,9,0.8,0.8
2024-05-12T1600,3450A,111.01,21.5165,茂名市,电白水东,,20,19,32,14,16,52,,62,53,7,12,4,4,0.5,0.5
2024-05-12T1600,2539A,104.0308,30.0478,眉山市,黑龙滩水库,,34,34,41,15,20,91,,61,61,5,11,4,4,0.3,0.3
2024-05-12T1600,2540A,103.8416,30.0874,眉山市,气象局,,40,40,53,24,28,79,,45,45,18,27,11,12,0.5,0.4
2024-05-12T1600,3137A,103.8578,30.0744,眉山市,市委党校,,41,41,65,17,22,82,,44,44,17,32,8,9,0.4,0.4
2024-05-12T1600,3148A,103.8291,30.0564,眉山市,区人社局,,44,44,51,14,22,85,,45,45,17,32,9,11,0.5,0.4
2024-05-12T1600,1690A,116.1231,24.3284,梅州市,梅江月梅,,28,,38,19,30,54,,50,50,7,18,3,5,0.6,0.7
2024-05-12T1600,1691A,116.0797,24.2719,梅州市,梅县新城,,,,34,24,29,57,,44,44,3,15,,4,0.4,0.5
2024-05-12T1600,1692A,116.1248,24.2654,梅州市,环境监控中心,,19,18,37,12,27,58,,49,49,9,23,2,4,0.5,0.6
2024-05-12T1600,3315A,116.1233,24.2991,梅州市,梅龙,,18,14,36,11,24,56,,49,49,3,15,7,10,0.7,0.8
2024-05-12T1600,1878A,104.7778,31.4741,绵阳市,富乐山,颗粒物(PM10),60,69,71,26,34,143,,99,99,9,32,8,9,0.3,0.5
2024-05-12T1600,1879A,104.7563,31.4535,绵阳市,市人大,颗粒物(PM10),62,74,84,13,33,138,,93,93,10,37,6,5,0.4,0.6
2024-05-12T1600,1880A,104.6697,31.4668,绵阳市,高新区自来水公司,颗粒物(PM10),63,76,91,19,35,150,,97,97,10,41,8,12,0.3,0.4
2024-05-12T1600,1881A,104.7287,31.5075,绵阳市,三水厂,颗粒物(PM10),59,68,78,26,37,140,,90,90,15,42,7,9,0.4,0.6
2024-05-12T1600,3491A,104.69,31.5322,绵阳市,西科大附属小学,颗粒物(PM10),58,66,78,23,34,145,,93,93,10,34,7,9,0.4,0.5
2024-05-12T1600,3492A,104.5648,31.5343,绵阳市,安州区旅游局,颗粒物(PM10),67,84,94,25,45,131,,88,88,11,28,7,11,0.4,0.6
2024-05-12T1600,1784A,129.61,44.561,牡丹江市,环保大楼,,31,31,40,21,23,75,,72,72,7,6,4,5,0.3,0.3
2024-05-12T1600,1785A,129.6115,44.5782,牡丹江市,文化广场,,50,,46,35,30,72,,70,70,10,9,7,7,0.3,0.3
2024-05-12T1600,1786A,129.5904,44.5963,牡丹江市,第一医院,,32,23,44,22,23,76,,73,73,7,7,4,4,0.4,0.3
2024-05-12T1600,1787A,129.6364,44.6075,牡丹江市,机车工厂,,27,27,42,13,10,76,,73,73,5,7,4,4,0.3,0.2
2024-05-12T1600,1788A,129.6386,44.5462,牡丹江市,第一中学,,25,25,45,15,16,77,,76,76,8,7,5,5,0.3,0.2
2024-05-12T1600,2531A,105.0703,29.61,内江市,市监测站,,35,35,46,24,29,97,,62,62,10,18,14,6,0.3,0.4
2024-05-12T1600,2532A,105.0717,29.5947,内江市,东兴区政府,,,36,55,16,20,102,,70,70,8,18,11,10,,0.5
2024-05-12T1600,2533A,105.0653,29.5817,内江市,内江二中,,,26,48,14,26,,,59,,12,18,9,8,0.3,0.4
2024-05-12T1600,2534A,105.0406,29.5822,内江市,内江日报社,,35,35,53,19,21,97,,63,63,11,18,11,7,0.4,0.4
2024-05-12T1600,2628A,92.0657,31.4846,那曲市,那曲监测站,,48,20,34,7,16,152,,160,160,6,13,4,5,0.5,0.9
2024-05-12T1600,3128A,92.0506,31.4797,那曲市,那曲会议中心,,,,35,10,12,158,,170,170,1,8,2,2,0.4,0.5
2024-05-12T1600,1290A,115.8931,28.6843,南昌市,省外办,颗粒物(PM10),90,129,80,39,31,135,,115,115,12,17,8,6,0.4,0.5
2024-05-12T1600,1291A,115.8886,28.7003,南昌市,省林业公司,颗粒物(PM10),92,134,79,39,30,139,,118,118,12,22,6,5,0.5,0.5
2024-05-12T1600,1292A,115.8126,28.7442,南昌市,林科所,颗粒物(PM10),89,127,79,31,26,152,,131,131,12,21,6,6,0.8,0.7
2024-05-12T1600,1294A,115.8518,28.687,南昌市,建工学校,颗粒物(PM10),99,148,84,31,26,146,,124,124,6,13,6,5,0.5,0.6
2024-05-12T1600,1295A,115.8921,28.6424,南昌市,象湖,颗粒物(PM10),85,119,75,34,31,152,,127,127,7,19,6,5,0.5,0.6
2024-05-12T1600,1296A,115.7423,28.7996,南昌市,武术学校,颗粒物(PM10),70,89,47,38,33,140,,118,118,6,3,6,7,0.3,0.4
2024-05-12T1600,1298A,115.9314,28.6842,南昌市,省站,颗粒物(PM10),89,128,75,37,33,144,,122,122,9,11,8,7,0.6,0.7
2024-05-12T1600,3046A,115.9084,28.6062,南昌市,机电学校,颗粒物(PM10),95,139,86,36,32,149,,124,124,8,14,8,8,0.6,0.7
2024-05-12T1600,3690A,115.9721,28.7031,南昌市,外国语学校,颗粒物(PM10),85,120,77,28,32,142,,118,118,9,15,4,4,0.7,0.7
2024-05-12T1600,1905A,106.056,30.8064,南充市,西山风景区,颗粒物(PM10),51,52,69,30,34,97,,64,64,7,12,7,7,0.3,0.4
2024-05-12T1600,1906A,106.0789,30.8023,南充市,南充市委,颗粒物(PM10),62,73,90,33,42,102,,70,70,13,25,12,12,0.2,0.3
2024-05-12T1600,1907A,106.1031,30.8217,南充市,南充炼油厂,颗粒物(PM10),67,83,96,34,43,122,,88,88,9,21,12,11,0.3,0.3
2024-05-12T1600,1908A,106.1064,30.7856,南充市,高坪区监测站,颗粒物(PM10),58,65,94,36,40,113,,81,81,10,24,11,11,0,0.1
2024-05-12T1600,1909A,106.0642,30.7636,南充市,嘉陵区环保局,颗粒物(PM10),64,78,94,31,39,109,,72,72,10,23,11,13,0.2,0.3
2024-05-12T1600,1910A,106.1087,30.8388,南充市,市环境监测站,颗粒物(PM10),65,80,101,38,41,108,,78,78,15,26,11,10,0.5,0.7
2024-05-12T1600,1151A,118.8086,32.1065,南京市,迈皋桥,颗粒物(PM10),97,143,100,27,35,139,,113,113,12,21,3,4,0.4,0.6
2024-05-12T1600,1152A,118.7538,32.0551,南京市,草场门,颗粒物(PM10),108,166,122,48,45,141,,116,116,14,16,1,2,0.1,0.4
2024-05-12T1600,1153A,118.7794,32.0745,南京市,山西路,颗粒物(PM10),112,173,133,34,38,134,,111,111,5,13,3,4,0.2,0.3
2024-05-12T1600,1154A,118.7752,32.0023,南京市,中华门,颗粒物(PM10),113,175,119,53,41,135,,114,114,11,16,7,6,0.3,0.5
2024-05-12T1600,1155A,118.8109,32.0309,南京市,瑞金路,颗粒物(PM10),106,161,120,39,39,137,,111,111,7,11,8,7,0.2,0.3
2024-05-12T1600,1156A,118.7997,32.0754,南京市,玄武湖,颗粒物(PM10),107,164,116,55,39,138,,109,109,1,15,7,6,0.2,0.5
2024-05-12T1600,1157A,118.6414,32.0931,南京市,浦口,颗粒物(PM10),110,169,109,29,35,132,,109,109,17,14,7,7,0.4,0.6
2024-05-12T1600,1158A,118.7356,31.9996,南京市,奥体中心,,,,97,,41,140,,116,116,9,14,8,7,0.3,0.4
2024-05-12T1600,1159A,118.9125,32.1028,南京市,仙林大学城,颗粒物(PM10),107,163,125,29,34,144,,116,116,15,20,9,9,0.3,0.5
2024-05-12T1600,3422A,118.8436,31.9198,南京市,江宁彩虹桥,颗粒物(PM10),124,198,110,41,37,150,,121,121,3,12,5,3,0.4,0.6
2024-05-12T1600,3423A,119.0138,31.6494,南京市,溧水永阳,颗粒物(PM10),120,190,108,46,33,164,,124,124,10,15,4,4,0.2,0.3
2024-05-12T1600,3424A,118.879,31.3302,南京市,高淳老职中,颗粒物(PM10),125,200,99,43,32,147,,112,112,13,13,6,4,0.1,0.3
2024-05-12T1600,3427A,118.8554,32.3578,南京市,六合雄州,颗粒物(PM10),96,141,106,28,38,134,,112,112,13,10,3,3,0.3,0.5
2024-05-12T1600,1401A,108.3103,22.7881,南宁市,二十一中,,39,39,32,21,20,101,,69,69,12,15,4,5,0.5,0.8
2024-05-12T1600,1402A,108.3141,22.8528,南宁市,北湖,,34,34,33,20,19,92,,57,57,9,16,5,5,0.7,0.8
2024-05-12T1600,1403A,108.3206,22.8225,南宁市,市监测站,,37,37,29,21,19,94,,59,59,13,17,5,6,0.7,0.7
2024-05-12T1600,1404A,108.3829,22.8037,南宁市,大自然花园,,33,30,27,23,18,78,,62,62,12,12,5,5,0.5,0.6
2024-05-12T1600,1405A,108.4394,22.7904,南宁市,仙葫,,39,39,30,20,16,74,,60,60,14,15,5,5,0.7,0.9
2024-05-12T1600,1406A,108.2397,22.8467,南宁市,区农职院,,34,16,35,9,17,108,,70,70,8,20,3,5,0.6,0.7
2024-05-12T1600,1407A,108.3275,22.735,南宁市,英华嘉园,,38,38,34,24,20,92,,59,59,15,22,6,6,0.6,0.6
2024-05-12T1600,1408A,108.2257,22.7757,南宁市,沙井镇街道办,,30,28,42,14,19,96,,69,69,13,21,6,6,0.6,0.6
2024-05-12T1600,3401A,108.4834,22.7618,南宁市,红星社区,,36,36,34,18,19,87,,74,74,9,16,9,9,0.5,0.7
2024-05-12T1600,2332A,118.1681,26.6369,南平市,南平市监测站,,18,10,44,10,34,57,,46,46,12,22,4,5,0.7,0.8
2024-05-12T1600,2333A,118.1825,26.6489,南平市,南平铝业有限公司,,19,18,44,10,34,59,,44,44,15,22,8,7,0.9,0.8
2024-05-12T1600,2334A,118.1756,26.6272,南平市,南平七中,,19,17,43,6,33,59,,42,42,6,17,3,4,0.7,0.9
2024-05-12T1600,1168A,120.9098,31.9663,南通市,狼山街道,颗粒物(PM10),73,96,87,17,25,128,,111,111,6,12,9,8,0.3,0.5
2024-05-12T1600,1169A,120.86,32.0005,南通市,虹桥,颗粒物(PM10),74,97,86,17,24,123,,106,106,10,17,4,4,0.3,0.4
2024-05-12T1600,1170A,120.87,32.02,南通市,城中,颗粒物(PM10),86,122,106,19,30,117,,92,92,8,13,5,4,0.5,0.5
2024-05-12T1600,1171A,120.94,31.93,南通市,星湖花园,颗粒物(PM10),76,102,81,14,22,126,,108,108,11,16,7,7,0.4,0.6
2024-05-12T1600,1172A,120.81,32.0417,南通市,紫琅学院,颗粒物(PM10),72,93,80,12,21,141,,117,117,12,19,10,9,0.2,0.3
2024-05-12T1600,3291A,121.067,32.062,南通市,通州监测站,颗粒物(PM10),106,161,98,22,21,125,,111,111,8,10,9,8,0.4,0.5
2024-05-12T1600,3432A,120.9348,31.9883,南通市,环境教育馆,颗粒物(PM10),80,110,93,14,26,125,,107,107,8,17,7,7,0.4,0.5
2024-05-12T1600,2404A,112.5224,33.0122,南阳市,瓦房庄,颗粒物(PM10),68,86,145,28,35,124,,106,106,35,26,6,6,0.3,0.4
2024-05-12T1600,2405A,112.5003,32.9735,南阳市,汉画馆,颗粒物(PM10),78,105,162,37,54,146,,104,104,14,33,5,6,0.4,0.5
2024-05-12T1600,2406A,112.5573,33.027,南阳市,气象站,,,,167,22,35,155,,115,115,10,29,3,4,0.7,0.8
2024-05-12T1600,2407A,112.5481,32.9689,南阳市,理工学院,颗粒物(PM10),71,92,149,24,37,152,,113,113,8,32,6,5,0.4,0.5
2024-05-12T1600,4008A,112.5234,32.9922,南阳市,卧龙区政府,颗粒物(PM10),76,101,152,31,40,149,,112,112,13,26,6,4,0.5,0.7
2024-05-12T1600,1234A,121.8358,29.911,宁波市,区环保大楼,颗粒物(PM10),59,67,42,23,17,90,,89,89,26,36,9,6,0.7,0.8
2024-05-12T1600,1235A,121.56,29.82,宁波市,万里学院,,41,41,28,18,17,92,,109,109,26,17,4,4,0.5,0.6
2024-05-12T1600,1236A,121.713,29.9572,宁波市,龙赛医院,,50,50,29,16,13,101,,110,110,17,21,4,5,0.4,0.6
2024-05-12T1600,1239A,121.633,29.7733,宁波市,钱湖水厂,颗粒物(PM10),51,52,26,12,15,90,,106,106,24,8,4,3,0.6,0.7
2024-05-12T1600,1240A,121.5856,29.8635,宁波市,太古小学,,40,40,24,16,15,91,,107,107,24,18,5,5,0.6,0.8
2024-05-12T1600,1241A,121.524,29.8674,宁波市,市环境监测中心,,40,40,28,12,15,97,,115,114,26,21,9,8,0.5,0.6
2024-05-12T1600,2871A,121.6147,29.9017,宁波市,万里国际学校,,40,40,29,15,16,91,,111,110,29,20,3,4,0.5,0.5
2024-05-12T1600,3710A,121.5594,29.8975,宁波市,白沙活动中心,,49,49,31,16,14,84,,108,105,25,22,9,9,0.5,0.6
2024-05-12T1600,2341A,119.5388,26.6612,宁德市,宁德市监测站,颗粒物(PM10),53,55,46,34,28,46,,37,37,41,28,8,8,1.2,0.8
2024-05-12T1600,3209A,119.5231,26.6562,宁德市,宁德一中,颗粒物(PM10),65,80,54,45,27,34,,39,39,50,24,7,7,1.2,0.9
2024-05-12T1600,2618A,98.8601,25.8567,怒江傈僳族自治州,州监测站,,37,20,23,18,18,118,,86,86,5,4,7,7,0.4,0.4
2024-05-12T1600,2619A,98.8546,25.8417,怒江傈僳族自治州,泸水一中,,35,35,29,17,21,90,,68,68,26,15,6,6,0.3,0.4
2024-05-12T1600,1888A,101.6891,26.571,攀枝花市,弄弄坪,,36,18,28,12,10,113,,85,85,10,15,10,13,0.5,0.6
2024-05-12T1600,1889A,101.5769,26.5928,攀枝花市,河门口,,36,30,27,15,14,114,,84,84,18,21,22,22,1.3,1.2
2024-05-12T1600,1890A,101.7169,26.585,攀枝花市,炳草岗,,37,25,28,11,10,117,,83,83,11,15,18,21,0.4,0.5
2024-05-12T1600,1891A,101.7369,26.5008,攀枝花市,仁和,,39,21,19,13,11,123,,98,98,8,12,7,8,0.4,0.5
2024-05-12T1600,2835A,101.7227,26.567,攀枝花市,四十中小,,39,17,21,8,12,122,,95,95,8,10,7,10,0.6,0.6
2024-05-12T1600,1604A,122.0303,41.1489,盘锦市,开发区,,38,30,37,14,16,120,,100,100,13,16,8,6,0.4,0.3
2024-05-12T1600,1605A,122.0485,41.0883,盘锦市,兴隆台,,37,18,35,10,11,118,,97,97,12,19,10,9,0.4,0.4
2024-05-12T1600,1606A,121.8297,41.1028,盘锦市,新生街道,,40,26,28,9,9,127,,102,102,9,18,9,10,0.4,0.4
2024-05-12T1600,1832A,113.3257,33.742,平顶山市,新华旅馆,颗粒物(PM10),102,153,226,41,62,192,,152,152,14,39,12,12,0.4,0.5
2024-05-12T1600,1833A,113.2919,33.737,平顶山市,规划设计院,颗粒物(PM10),97,144,210,40,58,186,,144,144,9,32,15,12,0.5,0.7
2024-05-12T1600,1834A,113.182,33.774,平顶山市,平顶山工学院,颗粒物(PM10),101,152,194,58,61,191,,142,142,9,20,8,10,0.5,0.6
2024-05-12T1600,3204A,113.3025,33.73,平顶山市,规划局,颗粒物(PM10),98,146,231,41,57,187,,145,145,8,30,12,11,0.4,0.5
2024-05-12T1600,3594A,112.8867,33.9116,平顶山市,石龙区,颗粒物(PM10),121,191,229,55,56,223,,147,147,13,45,13,12,0.5,0.5
2024-05-12T1600,2656A,106.6692,35.5461,平凉市,聚贤嘉苑,颗粒物(PM10),52,53,75,10,19,144,,126,126,4,20,6,7,0.1,0.2
2024-05-12T1600,2657A,106.7021,35.5307,平凉市,博物馆,,46,45,74,11,21,145,,129,129,4,16,3,7,0.1,0.3
2024-05-12T1600,2347A,114.0997,27.5002,萍乡市,武功山,,34,34,23,7,7,60,,54,54,8,6,8,8,0.5,0.4
2024-05-12T1600,2348A,113.8385,27.6434,萍乡市,中医院,颗粒物(PM10),72,93,57,27,30,79,,58,58,13,14,4,5,0.7,0.9
2024-05-12T1600,2349A,113.8493,27.6253,萍乡市,市政府车库,颗粒物(PM10),71,92,43,30,25,86,,60,60,9,13,10,10,0.8,0.8
2024-05-12T1600,2350A,113.8676,27.6435,萍乡市,市环保局,,,94,46,32,24,,,51,51,14,14,,7,0.7,0.8
2024-05-12T1600,2351A,113.866,27.6198,萍乡市,安源区政府,颗粒物(PM10),71,92,48,37,24,82,,60,60,11,11,11,10,0.5,0.6
2024-05-12T1600,2319A,119.0141,25.4325,莆田市,荔城区仓后路,颗粒物(PM10),57,63,55,24,28,108,,93,93,14,18,6,6,0.7,0.8
2024-05-12T1600,2320A,119.0015,25.4553,莆田市,莆田市监测站,,48,48,48,24,26,97,,91,91,16,15,8,8,0.7,0.7
2024-05-12T1600,2321A,119.1119,25.4561,莆田市,涵江区六中,颗粒物(PM10),56,61,52,24,25,100,,98,98,21,22,8,10,0.7,0.7
2024-05-12T1600,2322A,119.1013,25.3215,莆田市,秀屿区政府,,33,33,42,20,23,94,,103,103,8,17,9,10,0.7,0.7
2024-05-12T1600,2392A,115.0312,35.7636,濮阳市,环保局,颗粒物(PM10),99,147,187,33,46,164,,142,142,7,21,10,11,0.0,0.3
2024-05-12T1600,2394A,115.0574,35.7609,濮阳市,油田运输公司,颗粒物(PM10),98,146,187,33,46,172,,146,146,12,17,11,12,0.3,0.3
2024-05-12T1600,2395A,115.0866,35.7754,濮阳市,油田物探公司,细颗粒物(PM2.5),108,120,154,81,60,174,,146,146,10,18,11,10,0.1,0.2
2024-05-12T1600,3021A,115,35.7668,濮阳市,濮水河管理处,颗粒物(PM10),95,140,161,42,47,158,,137,137,18,22,13,10,0.3,0.3
2024-05-12T1600,2601A,100.98,22.7633,普洱市,市环保局,细颗粒物(PM2.5),52,,33,36,26,121,,98,98,7,11,7,7,0.4,0.4
2024-05-12T1600,2602A,100.9817,22.8322,普洱市,普洱第二中学,,37,32,34,19,14,117,,97,97,6,12,9,9,0.3,0.4
2024-05-12T1600,2262A,131.0518,45.8751,七台河市,新一中,,27,9,13,2,8,84,,78,78,6,8,9,9,0.6,0.6
2024-05-12T1600,3345A,131.0577,45.7879,七台河市,中波台,,26,15,13,5,8,81,,72,72,11,17,7,8,0.3,0.3
2024-05-12T1600,3637A,131.0176,45.7761,七台河市,人民广场,,24,24,22,15,14,70,,61,61,13,17,8,8,0.3,0.4
2024-05-12T1600,3684A,130.8781,45.8222,七台河市,新建矿广场,颗粒物(PM10),60,70,32,19,20,70,,66,66,15,19,4,4,0.4,0.5
2024-05-12T1600,1779A,123.9305,47.3636,齐齐哈尔市,安居小区,,45,,27,31,25,99,,88,88,8,7,4,5,0.4,0.5
2024-05-12T1600,1780A,123.9488,47.3386,齐齐哈尔市,中心广场,,32,30,27,14,16,102,,88,88,9,9,7,7,0.3,0.4
2024-05-12T1600,1781A,123.9483,47.3227,齐齐哈尔市,农牧车辆厂,,34,34,30,7,12,99,,92,92,16,9,8,7,0.3,0.4
2024-05-12T1600,1783A,123.945,47.2988,齐齐哈尔市,市环境监测站,,34,23,30,17,20,106,,92,92,8,8,4,4,0.2,0.3
2024-05-12T1600,3662A,123.6333,47.2075,齐齐哈尔市,富区青少年活动中心,,29,24,25,9,14,92,,89,89,14,12,11,7,0.5,0.4
2024-05-12T1600,2591A,107.9783,26.5747,黔东南苗族侗族自治州,市环境监测站,,31,31,18,20,16,87,,84,84,11,8,3,3,0.5,0.5
2024-05-12T1600,2881A,107.8908,26.5311,黔东南苗族侗族自治州,凯里学院,,41,41,22,18,13,92,,78,78,9,6,2,2,0.2,0.3
2024-05-12T1600,2593A,107.5228,26.2403,黔南布依族苗族自治州,小围寨,,23,17,11,7,6,71,,56,56,9,7,5,4,0.6,0.6
2024-05-12T1600,3538A,107.5175,26.2978,黔南布依族苗族自治州,沙坝,,,,12,17,6,82,,62,62,7,7,4,4,0.5,0.5
2024-05-12T1600,2589A,104.9022,25.0925,黔西南布依族苗族自治州,场坝街,,37,13,16,8,7,118,,90,90,17,18,5,6,0.3,0.3
2024-05-12T1600,2590A,104.8811,25.0992,黔西南布依族苗族自治州,坪东大道,,39,10,13,8,7,122,,90,90,6,9,4,6,0.2,0.2
2024-05-12T1600,2502A,108.6236,21.9667,钦州市,市环保站,,31,31,37,14,14,57,,64,64,12,15,8,8,0.8,0.7
2024-05-12T1600,2503A,108.6549,21.9481,钦州市,沙埠小学,,40,40,42,21,23,57,,66,66,18,21,6,7,0.9,0.8
2024-05-12T1600,2504A,108.5989,21.7431,钦州市,港区一小,,41,41,40,16,16,44,,50,50,10,16,6,7,0.6,0.6
2024-05-12T1600,3404A,108.5959,21.9633,钦州市,北职校,,30,30,34,15,19,50,,58,58,9,13,8,8,0.8,0.7
2024-05-12T1600,1042A,119.5134,39.8207,秦皇岛市,北戴河环保局,颗粒物(PM10),55,59,50,8,12,116,,94,94,20,25,6,2,0.8,0.3
2024-05-12T1600,1043A,119.7493,40.0116,秦皇岛市,第一关,,40,30,46,28,17,116,,102,102,3,30,4,3,0.4,0.3
2024-05-12T1600,1044A,119.5897,39.9499,秦皇岛市,监测站,,,43,60,29,25,117,,106,106,20,32,6,3,,0.3
2024-05-12T1600,1046A,119.5251,39.9041,秦皇岛市,建设大厦,,44,44,53,16,21,121,,98,98,9,31,6,5,0.4,0.2
2024-05-12T1600,3132A,119.610547,39.943889,秦皇岛市,文明里,颗粒物(PM10),65,80,72,20,21,102,,90,90,14,26,5,3,0.6,0.4
2024-05-12T1600,1307A,120.6659,36.2403,青岛市,仰口,,34,34,96,7,25,103,,106,104,8,7,4,4,0.4,0.4
2024-05-12T1600,1310A,120.4134,36.0658,青岛市,市南区东部子站,,41,41,196,22,41,113,,110,110,28,40,7,8,0.6,0.5
2024-05-12T1600,1311A,120.3664,36.1032,青岛市,四方区子站,,45,31,195,31,63,119,,125,125,18,48,4,6,0.4,0.5
2024-05-12T1600,1312A,120.2994,36.054,青岛市,市南区西部子站,颗粒物(PM10),54,58,226,17,55,140,,125,125,30,57,9,9,0.4,0.5
2024-05-12T1600,1313A,120.4581,36.0858,青岛市,崂山区子站,,34,27,166,5,36,108,,115,115,23,36,9,8,0.4,0.5
2024-05-12T1600,1314A,120.1983,35.9608,青岛市,黄岛区子站,颗粒物(PM10),54,58,204,15,52,132,,109,109,12,38,7,9,0.4,0.5
2024-05-12T1600,1315A,120.3999,36.3083,青岛市,城阳区子站,,48,48,160,7,28,112,,122,122,10,41,7,8,0.4,0.5
2024-05-12T1600,1966A,120.0405,35.8735,青岛市,黄岛区4号,,,,246,27,55,150,,123,123,11,30,9,10,0.5,0.7
2024-05-12T1600,3362A,120.5014,36.4034,青岛市,即墨2号,,40,40,164,16,43,112,,120,120,6,34,5,7,0.4,0.5
2024-05-12T1600,3642A,120.3503,36.0736,青岛市,市北区南部,颗粒物(PM10),51,52,210,5,44,127,,119,119,14,49,4,7,0.2,0.5
2024-05-12T1600,3643A,120.3948,36.1805,青岛市,李沧区北部,,44,44,224,24,52,123,,139,139,24,49,9,10,0.5,0.6
2024-05-12T1600,1702A,113.0426,23.691,清远市,环保大楼,,29,8,31,8,16,92,,84,84,6,20,4,5,0.8,0.8
2024-05-12T1600,1703A,113.0208,23.7106,清远市,凤城街办,,30,,33,5,14,94,,84,84,8,24,5,5,0.7,0.8
2024-05-12T1600,3025A,113.0477,23.6344,清远市,技师学院,,30,11,40,6,16,95,,84,84,6,26,4,6,0.4,0.5
2024-05-12T1600,3318A,112.9903,23.7403,清远市,清新太和,,28,9,36,6,17,89,,89,89,17,24,6,7,0.5,0.5
2024-05-12T1600,3455A,113.076,23.7198,清远市,清城东城,,31,6,41,3,23,98,,58,58,7,22,5,6,0.4,0.5
2024-05-12T1600,2661A,107.6325,35.7357,庆阳市,庆阳五中,,45,38,74,3,19,141,,123,123,7,11,5,8,0.2,0.3
2024-05-12T1600,2662A,107.6364,35.7067,庆阳市,市环保局,,45,32,71,6,17,143,,123,123,7,12,5,6,0.4,0.4
2024-05-12T1600,1916A,103.7897,25.5035,曲靖市,环境监测站,,42,16,21,15,10,132,,97,97,9,10,2,4,0.4,0.5
2024-05-12T1600,1917A,103.8,25.5364,曲靖市,烟厂办公区,,38,23,19,15,9,119,,93,93,5,9,4,4,0.5,0.6
2024-05-12T1600,3376A,103.7947,25.462,曲靖市,南苑二区,,41,27,19,21,11,131,,97,97,11,14,4,5,0.6,0.6
2024-05-12T1600,3377A,103.7444,25.5261,曲靖市,曲靖师范学院,,36,23,20,23,13,115,,94,94,23,14,7,7,0.5,0.4
2024-05-12T1600,1264A,118.8692,28.9398,衢州市,环保大楼,,45,45,28,19,21,88,,73,73,18,19,3,3,0.6,0.7
2024-05-12T1600,1265A,118.8709,28.9666,衢州市,实验学校,颗粒物(PM10),51,51,32,19,23,90,,74,74,16,18,5,5,0.5,0.6
2024-05-12T1600,1266A,118.8621,28.9808,衢州市,衢州学院,,46,46,30,18,23,94,,72,72,18,25,5,4,0.3,0.5
2024-05-12T1600,1611A,118.5819,24.9117,泉州市,涂山街,颗粒物(PM10),55,60,58,22,21,98,,94,94,22,26,4,8,0.6,0.6
2024-05-12T1600,1612A,118.5972,24.8978,泉州市,津头埔,,48,48,46,21,18,97,,93,93,26,26,4,5,0.6,0.6
2024-05-12T1600,1613A,118.6663,24.9424,泉州市,万安,,48,48,44,24,17,108,,99,99,15,20,2,2,0.5,0.5
2024-05-12T1600,3529A,118.6333,24.9264,泉州市,城华南路,颗粒物(PM10),51,51,42,23,19,100,,93,93,22,24,5,7,0.4,0.3
2024-05-12T1600,2626A,88.8876,29.2718,日喀则市,日喀则监测站,,44,18,26,6,9,138,,116,116,4,8,6,5,0.3,0.3
2024-05-12T1600,3726A,88.8781,29.2426,日喀则市,林业技术推广中心,,41,25,22,4,7,130,,112,112,8,9,6,6,0.5,0.5
2024-05-12T1600,1659A,119.471,35.4209,日照市,监测站,颗粒物(PM10),113,175,240,45,62,167,,142,142,30,40,13,10,0.7,0.7
2024-05-12T1600,1660A,119.523,35.4216,日照市,市政府广场,颗粒物(PM10),148,246,256,61,61,160,,143,143,29,39,12,9,0.8,0.6
2024-05-12T1600,1661A,119.5587,35.4044,日照市,港务局,颗粒物(PM10),179,307,303,73,67,111,,128,128,34,43,12,9,1.0,0.7
2024-05-12T1600,3507A,119.5328,35.4625,日照市,职业技术学院,颗粒物(PM10),157,263,255,83,62,161,,145,145,24,37,13,9,0.6,0.5
2024-05-12T1600,3604A,119.3266,35.1044,日照市,岚山环保分局,颗粒物(PM10),133,215,281,51,66,195,,,,9,9,10,8,0.6,0.5
2024-05-12T1600,1835A,111.1922,34.7752,三门峡市,市政府,臭氧1小时,60,57,100,27,36,168,,155,155,11,35,9,9,0.3,0.4
2024-05-12T1600,1836A,111.1587,34.7942,三门峡市,开发区,臭氧1小时,85,63,120,20,37,188,,140,140,10,19,9,10,0.5,0.5
2024-05-12T1600,3039A,111.1911,34.7829,三门峡市,三门峡市第一小学,臭氧1小时,69,64,116,29,38,175,,138,138,13,29,12,11,0.3,0.3
2024-05-12T1600,3598A,111.1,34.7167,三门峡市,富达温泉假日酒店,颗粒物(PM10),63,75,117,24,20,166,,121,121,14,30,11,11,0.6,0.5
2024-05-12T1600,2324A,117.6211,26.2625,三明市,三钢,,23,12,39,10,24,71,,40,40,14,15,18,10,0.9,0.9
2024-05-12T1600,2325A,117.635,26.2714,三明市,三明二中,,25,,32,17,27,76,,43,43,11,21,11,6,1.0,1
2024-05-12T1600,2326A,117.6028,26.2378,三明市,三元区政府,,21,12,42,8,26,67,,39,39,16,26,6,7,0.6,0.7
2024-05-12T1600,1876A,109.5078,18.2489,三亚市,河东子站,,22,22,23,10,12,47,,46,46,2,6,4,4,0.4,0.4
2024-05-12T1600,1877A,109.4964,18.2681,三亚市,河西子站,,15,15,22,9,14,44,,45,45,2,6,2,2,0.2,0.2
2024-05-12T1600,3540A,109.7348,18.3443,三亚市,君悦子站,,35,35,28,9,10,44,,49,49,4,7,2,2,0.2,0.3
2024-05-12T1600,2624A,91.7608,29.2313,山南市,山南监测站,,41,15,24,7,14,129,,104,104,5,9,8,8,0.2,0.3
2024-05-12T1600,2625A,91.7706,29.2436,山南市,山南人民医院,,43,24,26,8,13,137,,113,113,8,11,8,7,0.2,0.2
2024-05-12T1600,1674A,116.6794,23.3667,汕头市,金平子站,,30,,30,21,20,88,,95,95,10,8,6,5,1.0,0.8
2024-05-12T1600,1675A,116.7244,23.3633,汕头市,龙湖子站,,37,37,33,17,18,85,,86,86,11,16,4,5,0.8,0.8
2024-05-12T1600,1676A,116.7258,23.2775,汕头市,濠江子站,,39,30,33,27,22,88,,83,83,10,13,5,6,0.7,0.7
2024-05-12T1600,1677A,116.7519,23.4714,汕头市,澄海子站,颗粒物(PM10),56,61,38,25,26,99,,108,108,16,14,6,7,0.9,0.9
2024-05-12T1600,1678A,116.6092,23.2539,汕头市,潮阳子站,,36,36,38,24,26,98,,87,87,6,9,5,5,0.8,1
2024-05-12T1600,3444A,116.454,23.2684,汕头市,潮南峡山,"颗粒物(PM10),细颗粒物(PM2.5)",63,75,39,45,20,92,,92,92,5,2,4,4,0.7,0.6
2024-05-12T1600,3624A,116.4069,23.2533,汕头市,潮南子站,颗粒物(PM10),52,54,59,25,27,70,,85,85,11,9,6,7,0.8,0.8
2024-05-12T1600,1693A,115.3653,22.775,汕尾市,市环保局,,26,15,26,10,12,81,,76,76,4,8,8,9,0.5,0.5
2024-05-12T1600,1694A,115.3706,22.7898,汕尾市,市政府,,30,,25,21,21,78,,78,78,4,8,5,5,0.5,0.5
2024-05-12T1600,1695A,115.3622,22.7925,汕尾市,新城中学,,27,27,28,11,14,79,,80,80,6,10,6,7,0.5,0.4
2024-05-12T1600,2645A,109.9154,33.8715,商洛市,监测站,,48,48,72,16,23,136,,107,107,4,16,6,7,0.3,0.3
2024-05-12T1600,3045A,109.9643,33.8471,商洛市,商州区中学,颗粒物(PM10),73,96,76,15,17,146,,109,109,4,22,8,10,0.2,0.3
2024-05-12T1600,2408A,115.6702,34.4285,商丘市,环境监测站,颗粒物(PM10),82,114,211,23,51,159,,136,136,7,33,8,8,0.2,0.3
