timepoint,stationcode,longitude,latitude,area,positionname,primarypollutant,aqi,pm10,pm10_24h,pm2_5,pm2_5_24h,o3,o3_24h,o3_8h,o3_8h_24h,no2,no2_24h,so2,so2_24h,co,co_24h
2023-11-02T13:00:00,1001A,116.3621,39.8784,北京市,万寿西宫,细颗粒物(PM2.5),135,197,188,103,123,152,91,47,47,31,35,3,2,1.0,1.1
2023-11-02T13:00:00,1002A,116.2202,40.2915,北京市,定陵,"颗粒物(PM10),细颗粒物(PM2.5)",125,200,196,95,122,136,67,40,40,18,20,3,3,0.8,1.1
2023-11-02T13:00:00,1003A,116.4174,39.9289,北京市,东四,细颗粒物(PM2.5),148,214,183,113,115,143,92,47,47,29,36,3,2,0.9,1.1
2023-11-02T13:00:00,1004A,116.4072,39.8863,北京市,天坛,细颗粒物(PM2.5),142,219,187,108,114,138,85,43,43,29,30,3,2,1.0,1.1
2023-11-02T13:00:00,1005A,116.462,39.9365,北京市,农展馆,细颗粒物(PM2.5),139,199,180,106,116,139,90,43,43,23,29,3,2,1.0,1.1
2023-11-02T13:00:00,1006A,116.3392,39.9295,北京市,官园,细颗粒物(PM2.5),137,176,186,104,121,153,101,53,53,20,25,3,3,1.1,1.2
2023-11-02T13:00:00,1007A,116.2878,39.9611,北京市,海淀万柳,细颗粒物(PM2.5),125,160,185,95,119,137,85,46,46,23,33,3,2,1.1,1.3
2023-11-02T13:00:00,1008A,116.6636,40.135,北京市,顺义新城,颗粒物(PM10),123,196,179,92,111,148,74,57,55,31,21,3,2,0.9,1.1
2023-11-02T13:00:00,1009A,116.6275,40.3275,北京市,怀柔镇,细颗粒物(PM2.5),124,193,176,94,107,148,90,67,67,15,16,1,1,1.0,1.1
2023-11-02T13:00:00,1010A,116.2296,40.217,北京市,昌平镇,细颗粒物(PM2.5),138,202,202,105,114,134,88,55,55,19,26,2,2,0.9,1.1
2023-11-02T13:00:00,1011A,116.3966,39.9821,北京市,奥体中心,细颗粒物(PM2.5),129,175,184,98,115,138,86,44,44,25,30,2,2,1.0,1
2023-11-02T13:00:00,1012A,116.184,39.9136,北京市,古城,细颗粒物(PM2.5),140,178,212,107,136,149,83,43,43,13,21,1,2,1.0,1.5
2023-11-02T13:00:00,1015A,117.1444,39.1661,天津市,勤俭道,颗粒物(PM10),128,206,156,88,103,105,54,27,23,30,33,8,9,1.1,1.2
2023-11-02T13:00:00,1017A,117.237,39.1082,天津市,大直沽八号路,颗粒物(PM10),149,248,163,102,103,103,61,26,25,39,38,4,5,1.0,1.1
2023-11-02T13:00:00,1018A,117.202,39.0927,天津市,前进道,颗粒物(PM10),135,220,150,96,94,106,76,30,30,32,37,6,7,1.1,1.2
2023-11-02T13:00:00,1019A,117.1837,39.2133,天津市,淮河道,颗粒物(PM10),130,210,123,82,70,104,45,31,23,39,36,7,7,1.3,1.3
2023-11-02T13:00:00,1021A,117.307,39.0877,天津市,跃进路,颗粒物(PM10),129,208,147,79,94,108,58,22,22,38,40,7,8,,1.4
2023-11-02T13:00:00,1023A,117.707,39.0343,天津市,第四大街,细颗粒物(PM2.5),132,170,129,100,83,85,58,23,19,37,39,6,6,1.2,1.2
2023-11-02T13:00:00,1024A,117.457,38.8394,天津市,永明路,细颗粒物(PM2.5),145,175,156,111,111,127,81,45,35,25,28,5,5,0.9,1
2023-11-02T13:00:00,1026A,117.764,39.1587,天津市,汉北路,颗粒物(PM10),119,188,116,85,68,101,40,28,21,40,31,10,9,1.4,1.2
2023-11-02T13:00:00,1027A,117.157,38.9194,天津市,团泊洼,细颗粒物(PM2.5),144,194,183,110,115,114,60,25,23,27,26,4,4,1.3,1.4
2023-11-02T13:00:00,1029A,114.4422,38.0444,石家庄市,职工医院,细颗粒物(PM2.5),264,285,269,214,211,183,114,74,74,32,38,2,3,1.5,1.4
2023-11-02T13:00:00,1030A,114.6063,38.0266,石家庄市,高新区,细颗粒物(PM2.5),266,251,272,216,203,186,117,86,86,28,33,2,2,1.5,1.4
2023-11-02T13:00:00,1031A,114.4898,38.1328,石家庄市,西北水源,细颗粒物(PM2.5),274,267,246,224,179,151,120,92,92,27,33,3,3,1.3,1.3
2023-11-02T13:00:00,1032A,114.4586,38.0058,石家庄市,西南高教,细颗粒物(PM2.5),279,233,231,229,218,177,102,64,64,27,30,2,2,1.4,1.4
2023-11-02T13:00:00,1033A,114.5331,38.0178,石家庄市,世纪公园,细颗粒物(PM2.5),264,287,261,214,178,170,101,78,78,40,31,5,5,1.6,1.5
2023-11-02T13:00:00,1034A,114.509,38.0457,石家庄市,人民会堂,细颗粒物(PM2.5),290,253,247,240,235,184,126,93,93,32,31,4,5,1.4,1.3
2023-11-02T13:00:00,1035A,114.3524,37.8911,石家庄市,封龙山,颗粒物(PM10),52,53,164,27,98,185,104,128,101,15,16,13,13,0.8,1.3
2023-11-02T13:00:00,1037A,118.131,39.6363,唐山市,雷达站,"颗粒物(PM10),细颗粒物(PM2.5)",100,150,133,75,69,131,72,34,34,24,28,4,9,1.3,1.3
2023-11-02T13:00:00,1038A,118.1725,39.6334,唐山市,物资局,细颗粒物(PM2.5),117,151,123,88,60,143,70,29,29,38,40,6,9,1.4,1.3
2023-11-02T13:00:00,1040A,118.1705,39.6506,唐山市,十二中,"颗粒物(PM10),细颗粒物(PM2.5)",95,139,126,71,54,137,69,26,26,34,41,4,8,1.3,1.2
2023-11-02T13:00:00,1041A,118.1869,39.622,唐山市,小山,颗粒物(PM10),106,162,125,74,51,139,71,22,22,22,28,,8,0.9,1.1
2023-11-02T13:00:00,1042A,119.5134,39.8207,秦皇岛市,北戴河环保局,细颗粒物(PM2.5),133,131,86,101,33,91,91,56,56,35,49,7,8,1.2,0.4
2023-11-02T13:00:00,1043A,119.7493,40.0116,秦皇岛市,第一关,,,,91,,40,107,107,55,55,,48,8,11,1.0,0.6
2023-11-02T13:00:00,1044A,119.5897,39.9499,秦皇岛市,监测站,细颗粒物(PM2.5),93,96,88,69,41,102,102,46,46,20,50,9,10,1.1,0.6
2023-11-02T13:00:00,1046A,119.5251,39.9041,秦皇岛市,建设大厦,细颗粒物(PM2.5),83,96,99,61,34,97,97,47,47,19,47,3,4,1.0,0.3
2023-11-02T13:00:00,1048A,114.5302,36.6116,邯郸市,东污水处理厂,细颗粒物(PM2.5),348,295,200,298,182,155,110,54,54,28,51,4,5,1.5,1.4
2023-11-02T13:00:00,1049A,114.4918,36.5713,邯郸市,矿院,细颗粒物(PM2.5),354,272,181,304,185,150,118,52,52,32,46,5,5,1.2,1.1
2023-11-02T13:00:00,1050A,114.484,36.6133,邯郸市,丛台公园,细颗粒物(PM2.5),337,320,232,287,183,156,118,65,65,36,32,7,8,1.5,1.4
2023-11-02T13:00:00,1051A,115.493,38.8632,保定市,游泳馆,细颗粒物(PM2.5),283,227,266,233,240,116,116,70,70,29,38,8,7,1.4,1.3
2023-11-02T13:00:00,1052A,115.5213,38.8959,保定市,华电二区,细颗粒物(PM2.5),251,186,216,201,198,113,113,66,66,26,41,4,5,1.1,1.2
2023-11-02T13:00:00,1053A,115.4713,38.9108,保定市,接待中心,细颗粒物(PM2.5),322,255,278,272,246,105,103,64,64,20,34,4,3,1.1,1.2
2023-11-02T13:00:00,1054A,115.4612,38.8416,保定市,地表水厂,细颗粒物(PM2.5),236,242,262,186,182,112,112,69,69,21,39,5,5,1.4,1.2
2023-11-02T13:00:00,1056A,115.5086,38.8639,保定市,监测站,细颗粒物(PM2.5),254,242,255,204,229,119,119,69,69,30,43,6,6,1.2,1.1
2023-11-02T13:00:00,1057A,114.8883,40.8336,张家口市,人民公园,颗粒物(PM10),179,307,96,34,24,99,82,61,61,6,25,3,5,0.1,0.3
2023-11-02T13:00:00,1059A,114.8687,40.8042,张家口市,五金库,颗粒物(PM10),151,252,101,38,29,95,82,54,54,5,36,2,6,0.2,0.6
2023-11-02T13:00:00,1060A,114.8902,40.762,张家口市,世纪豪园,颗粒物(PM10),138,226,94,35,30,103,82,55,55,8,34,2,5,0.4,0.7
2023-11-02T13:00:00,1061A,114.8916,40.8661,张家口市,北泵房,颗粒物(PM10),168,285,96,31,28,112,88,66,66,4,23,7,10,0.2,0.4
2023-11-02T13:00:00,1062A,117.9531,40.9081,承德市,铁路,细颗粒物(PM2.5),120,137,175,91,111,118,110,38,38,36,47,13,10,1.1,1.3
2023-11-02T13:00:00,1063A,117.9392,40.9763,承德市,中国银行,细颗粒物(PM2.5),112,145,173,84,108,128,112,48,48,31,41,13,8,1.1,1.2
2023-11-02T13:00:00,1064A,117.9503,40.928,承德市,开发区,细颗粒物(PM2.5),119,143,162,90,97,131,107,41,41,33,42,13,9,1.2,1.3
2023-11-02T13:00:00,1065A,117.8051,40.9655,承德市,文化中心,细颗粒物(PM2.5),94,118,167,70,95,118,117,49,49,24,60,26,7,0.7,1
2023-11-02T13:00:00,1066A,117.9268,41.0026,承德市,离宫,,,119,159,72,101,121,113,53,53,,21,5,2,0.8,1.1
2023-11-02T13:00:00,1067A,116.6708,39.5111,廊坊市,药材公司,细颗粒物(PM2.5),129,178,181,98,95,105,69,41,31,20,29,2,2,1.0,1.2
2023-11-02T13:00:00,1068A,116.7214,39.5589,廊坊市,开发区,细颗粒物(PM2.5),140,208,191,107,103,102,66,34,28,33,38,2,2,0.9,1
2023-11-02T13:00:00,1070A,116.7244,39.5269,廊坊市,北华航天学院,细颗粒物(PM2.5),134,196,183,102,101,95,66,40,31,26,31,4,4,0.9,1.1
2023-11-02T13:00:00,1071A,116.8842,38.2991,沧州市,沧县城建局,细颗粒物(PM2.5),208,169,180,158,165,98,90,50,45,24,36,4,4,0.7,0.9
2023-11-02T13:00:00,1072A,116.8584,38.3254,沧州市,电视转播站,细颗粒物(PM2.5),233,209,191,183,160,92,78,55,45,20,28,9,6,0.9,0.9
2023-11-02T13:00:00,1073A,116.8709,38.3228,沧州市,市环保局,细颗粒物(PM2.5),210,181,188,160,152,90,75,51,45,20,29,12,20,0.9,1
2023-11-02T13:00:00,1074A,115.6838,37.7541,衡水市,电机北厂,细颗粒物(PM2.5),262,246,217,212,179,149,74,52,52,14,44,4,6,1.1,1.1
2023-11-02T13:00:00,1075A,115.6303,37.7316,衡水市,市监测站,细颗粒物(PM2.5),259,220,211,209,179,140,66,51,51,17,53,,6,,1.4
2023-11-02T13:00:00,1077A,114.4704,37.0886,邢台市,达活泉,细颗粒物(PM2.5),320,273,269,270,216,204,76,81,70,20,22,7,12,2.1,1.7
2023-11-02T13:00:00,1078A,114.5062,37.0349,邢台市,邢师高专,细颗粒物(PM2.5),303,264,229,253,202,191,63,62,48,29,35,1,8,0.9,1.4
2023-11-02T13:00:00,1079A,114.5237,37.0851,邢台市,路桥公司,细颗粒物(PM2.5),297,278,254,247,221,202,67,64,53,32,32,2,5,1.6,1.5
2023-11-02T13:00:00,1080A,114.4725,37.0719,邢台市,市环保局,细颗粒物(PM2.5),271,237,242,221,203,218,82,84,68,23,27,3,9,1.9,1.5
2023-11-02T13:00:00,1081A,112.522,37.8873,太原市,尖草坪,颗粒物(PM10),71,91,144,23,82,167,99,36,36,12,81,6,13,0.3,1.1
2023-11-02T13:00:00,1083A,112.434,38.0108,太原市,上兰,颗粒物(PM10),57,63,60,21,25,101,101,,,4,18,4,10,0.4,0.5
2023-11-02T13:00:00,1084A,112.469,37.7124,太原市,晋源,颗粒物(PM10),90,129,140,45,80,182,85,30,30,44,73,20,18,1.0,1.4
2023-11-02T13:00:00,1085A,112.5583,37.7394,太原市,小店,颗粒物(PM10),74,98,150,38,75,183,90,32,32,38,89,13,16,0.6,1.3
2023-11-02T13:00:00,1086A,112.5369,37.8692,太原市,桃园,颗粒物(PM10),78,105,151,18,77,171,98,35,35,12,86,6,13,0.3,1.3
2023-11-02T13:00:00,1087A,112.57,37.8195,太原市,坞城,颗粒物(PM10),64,78,123,18,69,176,97,31,31,13,85,6,11,0.3,1.3
2023-11-02T13:00:00,1088A,112.549,37.9854,太原市,南寨,颗粒物(PM10),70,89,139,20,74,161,93,34,34,18,74,9,10,0.3,0.9
2023-11-02T13:00:00,1090A,111.6507,40.7517,呼和浩特市,呼市一监,颗粒物(PM10),159,268,134,40,45,83,,5,,2,49,4,13,0.3,0.8
2023-11-02T13:00:00,1091A,111.6572,40.8033,呼和浩特市,小召,颗粒物(PM10),186,322,133,70,41,79,70,27,27,9,58,4,13,0.3,1
2023-11-02T13:00:00,1094A,111.7516,40.8369,呼和浩特市,如意水处理厂,颗粒物(PM10),138,225,119,42,36,88,73,35,35,7,55,5,11,0.3,0.7
2023-11-02T13:00:00,1095A,111.7276,40.8062,呼和浩特市,二十九中,颗粒物(PM10),187,324,119,50,37,89,76,33,33,4,55,6,14,0.3,0.7
2023-11-02T13:00:00,1096A,111.5512,40.7866,呼和浩特市,工大金川校区,颗粒物(PM10),142,234,112,46,38,86,73,28,28,4,56,5,11,0.3,0.7
2023-11-02T13:00:00,1097A,111.717,40.7612,呼和浩特市,化肥厂生活区,颗粒物(PM10),142,234,123,47,45,87,76,28,28,7,60,4,15,0.2,0.7
2023-11-02T13:00:00,1098A,123.6836,41.9339,沈阳市,森林路,,,,,,,,,,,,,,,,
2023-11-02T13:00:00,1099A,123.505,41.7406,沈阳市,浑南东路,细颗粒物(PM2.5),68,73,84,49,47,142,142,64,64,17,42,19,18,0.9,1.2
2023-11-02T13:00:00,1100A,123.4231,41.6989,沈阳市,新秀街,细颗粒物(PM2.5),72,87,94,52,59,144,144,63,63,20,54,11,23,0.7,1.2
2023-11-02T13:00:00,1102A,123.5903,41.8411,沈阳市,东陵路,颗粒物(PM10),78,105,79,52,46,153,153,70,70,16,38,20,16,0.8,1.2
2023-11-02T13:00:00,1103A,123.4264,41.8467,沈阳市,陵东街,细颗粒物(PM2.5),103,125,102,77,57,130,130,49,49,34,51,18,14,1.3,1.3
2023-11-02T13:00:00,1104A,123.4114,41.7653,沈阳市,文化路,细颗粒物(PM2.5),82,98,113,60,59,142,142,54,54,24,53,15,20,1.0,1.3
2023-11-02T13:00:00,1105A,123.4678,41.7867,沈阳市,小河沿,颗粒物(PM10),78,106,102,56,53,145,145,66,66,24,52,12,14,1.0,1.2
2023-11-02T13:00:00,1106A,123.4017,41.7972,沈阳市,太原街,细颗粒物(PM2.5),90,94,95,67,67,131,131,44,44,38,57,17,18,1.1,1.3
2023-11-02T13:00:00,1108A,123.3783,41.9228,沈阳市,京沈街,细颗粒物(PM2.5),120,144,85,91,69,130,130,53,53,33,47,18,20,1.3,1.2
2023-11-02T13:00:00,1109A,121.612,38.9741,大连市,甘井子,,48,34,166,19,111,154,151,116,90,19,24,8,6,0.6,0.7
2023-11-02T13:00:00,1110A,121.565,38.9511,大连市,周水子,,,32,121,,149,152,145,106,80,23,32,6,11,0.7,1.2
2023-11-02T13:00:00,1111A,121.5637,38.8845,大连市,星海三站,,45,40,142,25,98,171,141,122,93,22,20,8,6,0.6,0.9
2023-11-02T13:00:00,1112A,121.6302,38.9117,大连市,青泥洼桥,,45,44,145,24,98,145,142,96,87,20,27,10,10,1.2,1.5
2023-11-02T13:00:00,1113A,121.6251,38.8638,大连市,傅家庄,,,35,111,29,93,167,140,118,99,23,18,11,10,,1
2023-11-02T13:00:00,1114A,121.5213,38.8661,大连市,七贤岭,臭氧1小时,54,36,156,26,123,168,163,125,100,26,23,24,10,0.7,0.8
2023-11-02T13:00:00,1115A,121.2529,38.8061,大连市,旅顺,臭氧1小时,70,21,117,22,83,178,176,120,116,14,22,8,8,0.7,1
2023-11-02T13:00:00,1116A,121.7485,39.1311,大连市,金州,,,30,158,,133,162,146,100,100,23,30,16,14,0.7,1.1
2023-11-02T13:00:00,1117A,121.7811,39.0496,大连市,开发区,颗粒物(PM10),54,57,154,23,102,154,135,115,91,28,35,9,7,0.6,0.9
2023-11-02T13:00:00,1118A,121.9762,39.0631,大连市,双D港,颗粒物(PM10),57,64,99,21,77,177,150,147,121,31,21,10,7,0.7,0.9
2023-11-02T13:00:00,1119A,125.3325,43.9166,长春市,食品厂,细颗粒物(PM2.5),104,136,59,78,48,122,122,62,62,33,31,12,8,1.1,0.6
2023-11-02T13:00:00,1120A,125.2863,43.9027,长春市,客车厂,细颗粒物(PM2.5),115,135,55,87,48,121,120,64,64,26,28,6,8,1.0,0.7
2023-11-02T13:00:00,1121A,125.2841,43.8463,长春市,邮电学院,,,130,57,63,56,133,133,71,71,,32,11,8,0.9,0.6
2023-11-02T13:00:00,1122A,125.3716,43.8772,长春市,劳动公园,细颗粒物(PM2.5),99,128,59,74,53,142,142,64,64,24,31,12,8,0.9,0.5
2023-11-02T13:00:00,1123A,125.3297,43.8805,长春市,园林处,细颗粒物(PM2.5),117,126,59,88,52,138,138,72,72,29,34,14,11,0.9,0.5
2023-11-02T13:00:00,1124A,125.4605,43.79,长春市,净月潭,细颗粒物(PM2.5),82,86,50,60,48,138,138,68,68,13,14,11,8,0.8,0.5
2023-11-02T13:00:00,1125A,125.7194,43.515,长春市,甩湾子,细颗粒物(PM2.5),78,77,62,57,44,134,134,82,82,6,8,9,7,0.8,0.8
2023-11-02T13:00:00,1126A,125.3863,43.8447,长春市,经开区环卫处,细颗粒物(PM2.5),107,119,62,80,54,135,135,63,63,26,31,12,7,1.0,0.6
2023-11-02T13:00:00,1127A,125.245,43.7783,长春市,高新区管委会,细颗粒物(PM2.5),93,116,62,69,62,137,137,73,73,28,27,11,7,0.9,0.5
2023-11-02T13:00:00,1128A,125.1761,43.8325,长春市,岱山公园,细颗粒物(PM2.5),124,119,58,94,52,125,125,67,67,25,30,11,6,1.0,0.6
2023-11-02T13:00:00,1129A,126.5422,45.755,哈尔滨市,岭北,细颗粒物(PM2.5),87,95,70,64,56,70,70,40,,16,23,21,21,0.7,0.8
2023-11-02T13:00:00,1130A,126.561,45.8167,哈尔滨市,松北商大,细颗粒物(PM2.5),72,74,65,52,47,59,58,46,46,24,32,9,8,0.9,0.6
2023-11-02T13:00:00,1131A,126.979,45.5419,哈尔滨市,阿城会宁,颗粒物(PM10),62,74,72,36,59,64,60,54,54,16,26,8,8,0.6,0.8
2023-11-02T13:00:00,1132A,126.599,45.7222,哈尔滨市,南岗学府路,颗粒物(PM10),71,92,81,50,51,60,60,41,41,23,33,9,13,0.9,0.6
2023-11-02T13:00:00,1133A,126.689,45.7733,哈尔滨市,太平宏伟公园,细颗粒物(PM2.5),73,86,83,53,58,52,52,35,35,26,37,8,7,0.7,0.6
2023-11-02T13:00:00,1134A,126.635,45.7667,哈尔滨市,道外承德广场,细颗粒物(PM2.5),65,60,75,47,54,56,54,41,41,35,37,11,13,0.9,0.7
2023-11-02T13:00:00,1135A,126.685,45.7319,哈尔滨市,香坊红旗大街,细颗粒物(PM2.5),73,82,74,53,44,54,54,40,40,34,38,10,12,0.7,0.6
2023-11-02T13:00:00,1136A,126.6411,45.7258,哈尔滨市,动力和平路,细颗粒物(PM2.5),72,82,79,52,60,54,54,37,37,26,41,9,11,0.6,0.5
2023-11-02T13:00:00,1137A,126.593,45.7478,哈尔滨市,道里建国路,细颗粒物(PM2.5),85,96,70,63,46,55,51,41,41,32,33,12,13,0.8,1.3
2023-11-02T13:00:00,1138A,126.615,45.61,哈尔滨市,平房东轻厂,颗粒物(PM10),67,84,65,41,52,67,67,53,53,21,25,10,8,0.5,0.2
2023-11-02T13:00:00,1139A,126.595,45.9855,哈尔滨市,呼兰师专,细颗粒物(PM2.5),80,82,73,59,62,63,63,39,39,21,33,11,8,0.8,0.7
2023-11-02T13:00:00,1140A,126.6206,45.6842,哈尔滨市,省农科院,细颗粒物(PM2.5),68,73,84,49,60,60,60,41,41,27,37,12,13,1.0,0.9
2023-11-02T13:00:00,1141A,121.4,31.238,上海市,普陀,,38,35,36,10,15,164,121,92,92,14,25,5,8,0.5,0.5
2023-11-02T13:00:00,1142A,121.478,31.2036,上海市,十五厂,,36,31,36,13,16,145,115,86,86,17,32,7,6,0.5,0.5
2023-11-02T13:00:00,1143A,121.467,31.3008,上海市,虹口,,37,26,34,11,17,154,118,93,93,18,27,6,5,0.6,0.6
2023-11-02T13:00:00,1144A,121.412,31.1654,上海市,徐汇上师大,,42,25,35,11,17,164,132,98,98,14,28,9,10,0.6,0.7
2023-11-02T13:00:00,1145A,121.536,31.2659,上海市,杨浦四漂,,,40,45,12,16,148,119,90,90,,16,7,6,0.5,0.6
2023-11-02T13:00:00,1147A,121.425,31.2261,上海市,静安监测站,,40,26,33,11,19,169,126,100,100,15,27,8,7,0.6,0.6
2023-11-02T13:00:00,1148A,121.703,31.1907,上海市,浦东川沙,,43,21,33,16,18,175,137,86,86,5,16,6,6,0.6,0.6
2023-11-02T13:00:00,1149A,121.533,31.2284,上海市,浦东新区监测站,,37,24,34,10,14,154,118,90,90,13,24,8,7,0.6,0.6
2023-11-02T13:00:00,1150A,121.577,31.2071,上海市,浦东张江,,37,23,32,10,15,138,116,86,86,9,18,6,6,0.6,0.6
2023-11-02T13:00:00,1151A,118.8086,32.1065,南京市,迈皋桥,,43,41,48,14,18,145,137,85,85,21,31,3,4,0.5,0.5
2023-11-02T13:00:00,1152A,118.7538,32.0551,南京市,草场门,,44,36,55,14,27,143,138,72,72,18,48,6,5,0.4,0.4
2023-11-02T13:00:00,1153A,118.7794,32.0745,南京市,山西路,,46,36,55,12,24,149,145,89,89,15,26,5,7,0.5,0.6
2023-11-02T13:00:00,1154A,118.7752,32.0023,南京市,中华门,,45,27,47,12,25,143,143,74,74,10,39,4,6,0.6,0.7
2023-11-02T13:00:00,1155A,118.8109,32.0309,南京市,瑞金路,,39,36,58,14,24,130,124,64,64,22,52,6,7,0.3,0.5
2023-11-02T13:00:00,1156A,118.7997,32.0754,南京市,玄武湖,,50,50,45,15,21,141,132,82,82,20,25,7,9,0.4,0.5
2023-11-02T13:00:00,1157A,118.6414,32.0931,南京市,浦口,颗粒物(PM10),53,56,52,16,21,143,127,75,75,26,35,11,8,0.9,0.7
2023-11-02T13:00:00,1158A,118.7356,31.9996,南京市,奥体中心,,,35,53,14,26,143,136,68,68,14,40,,10,,0.3
2023-11-02T13:00:00,1159A,118.9125,32.1028,南京市,仙林大学城,,43,41,49,22,26,145,137,80,80,22,31,3,4,0.6,0.7
2023-11-02T13:00:00,1160A,120.561,31.2472,苏州市,上方山,,42,37,45,24,27,192,134,78,78,12,30,6,13,0.6,0.7
2023-11-02T13:00:00,1162A,120.591,31.3019,苏州市,彩香,,39,34,43,18,22,185,123,71,71,15,27,8,9,0.5,0.6
2023-11-02T13:00:00,1163A,120.596,31.3264,苏州市,轧钢厂,,40,39,46,14,21,185,126,74,74,14,24,9,10,0.7,0.7
2023-11-02T13:00:00,1164A,120.613,31.2703,苏州市,吴中区,,41,33,46,14,21,182,130,70,70,20,39,9,10,0.5,0.6
2023-11-02T13:00:00,1165A,120.543,31.2994,苏州市,苏州新区,,42,40,44,20,23,194,133,80,80,21,42,7,7,0.6,0.6
2023-11-02T13:00:00,1166A,120.669,31.3097,苏州市,苏州工业园区,,41,29,40,11,20,176,130,82,82,20,32,8,9,0.6,0.6
2023-11-02T13:00:00,1167A,120.641,31.3708,苏州市,相城区,,40,40,46,14,20,184,127,77,77,24,37,10,10,0.6,0.6
2023-11-02T13:00:00,1168A,120.9098,31.9663,南通市,狼山街道,,41,37,45,15,22,193,131,72,72,21,69,8,10,0.4,0.5
2023-11-02T13:00:00,1169A,120.86,32.0005,南通市,虹桥,,46,46,46,14,23,193,124,84,84,28,54,7,9,0.4,0.5
2023-11-02T13:00:00,1170A,120.87,32.02,南通市,城中,,41,37,40,14,22,192,129,86,86,26,50,8,9,0.5,0.5
2023-11-02T13:00:00,1171A,120.94,31.93,南通市,星湖花园,,42,42,48,13,21,186,122,74,74,24,52,9,10,0.3,0.4
2023-11-02T13:00:00,1172A,120.81,32.0417,南通市,紫琅学院,,39,39,54,16,20,153,107,60,60,30,78,9,9,0.3,0.5
2023-11-02T13:00:00,1173A,119.176,34.5885,连云港市,市环境监测站,颗粒物(PM10),58,66,80,31,41,159,141,82,82,17,32,9,9,0.5,0.7
2023-11-02T13:00:00,1177A,117.179,34.2761,徐州市,黄河新村,颗粒物(PM10),54,58,85,33,51,177,156,78,78,16,35,8,8,0.6,0.6
2023-11-02T13:00:00,1178A,117.1918,34.2384,徐州市,淮塔,颗粒物(PM10),62,73,94,38,54,190,159,78,78,20,36,11,10,0.8,0.8
2023-11-02T13:00:00,1180A,117.256,34.2153,徐州市,新城区,颗粒物(PM10),67,83,96,34,53,183,153,83,83,30,45,9,10,0.6,0.7
2023-11-02T13:00:00,1181A,117.244,34.2911,徐州市,桃园路,,,,91,,48,177,,80,80,26,35,10,11,0.6,0.8
2023-11-02T13:00:00,1182A,117.2933,34.2778,徐州市,农科院,颗粒物(PM10),58,66,79,35,46,189,163,91,91,20,34,10,10,0.6,0.7
2023-11-02T13:00:00,1186A,119.389,32.3761,扬州市,邗江监测站,颗粒物(PM10),53,56,72,22,29,157,145,72,72,26,44,9,9,0.5,0.5
2023-11-02T13:00:00,1188A,120.269,31.4867,无锡市,雪浪,,44,44,47,22,21,198,137,82,82,14,30,7,7,0.4,0.4
2023-11-02T13:00:00,1189A,120.275,31.6219,无锡市,黄巷,,44,44,63,17,21,174,137,68,68,25,65,8,8,0.3,0.4
2023-11-02T13:00:00,1190A,120.294,31.56,无锡市,曹张,,42,41,47,17,23,176,134,72,72,16,42,7,8,0.6,0.7
2023-11-02T13:00:00,1191A,120.242,31.5031,无锡市,漆塘,,47,41,41,22,21,211,148,88,88,18,30,8,8,0.6,0.6
2023-11-02T13:00:00,1192A,120.3489,31.5863,无锡市,东亭,,44,44,55,14,25,171,137,62,62,19,67,6,6,0.5,0.6
2023-11-02T13:00:00,1193A,120.354,31.5475,无锡市,旺庄,,42,41,52,14,25,170,134,62,62,20,64,6,6,0.5,0.7
2023-11-02T13:00:00,1194A,120.245,31.5631,无锡市,荣巷,,45,29,37,22,24,183,142,71,71,16,31,9,9,0.5,0.9
2023-11-02T13:00:00,1195A,120.299,31.6817,无锡市,堰桥,,41,39,56,17,24,153,130,60,60,19,52,6,7,0.5,0.6
2023-11-02T13:00:00,1196A,119.9633,31.762,常州市,市监测站,颗粒物(PM10),51,51,55,31,35,174,143,73,73,16,34,9,9,0.5,0.5
2023-11-02T13:00:00,1200A,119.9468,31.7069,常州市,武进监测站,,48,41,52,31,30,174,152,84,84,16,27,7,11,0.5,0.5
2023-11-02T13:00:00,1201A,119.9255,31.9087,常州市,安家,,50,42,52,35,33,162,153,73,73,26,46,7,8,0.6,0.7
2023-11-02T13:00:00,1203A,119.6707,32.1875,镇江市,新区办事处,,49,40,55,22,31,178,156,69,69,22,45,6,7,0.5,0.6
2023-11-02T13:00:00,1204A,119.4974,32.1968,镇江市,职教中心,颗粒物(PM10),51,52,61,30,36,170,153,72,72,22,34,5,8,0.5,0.5
2023-11-02T13:00:00,1205A,119.4303,32.1328,镇江市,丹徒区监测站,颗粒物(PM10),55,59,57,28,35,168,145,70,70,22,31,8,4,0.5,0.4
2023-11-02T13:00:00,1206A,119.905,32.4878,泰州市,公园路,颗粒物(PM10),54,58,63,27,35,162,162,66,66,35,42,10,10,0.6,0.7
2023-11-02T13:00:00,1207A,119.9189,32.4625,泰州市,莲花,颗粒物(PM10),55,59,67,31,33,171,162,64,64,37,44,9,9,0.5,0.6
2023-11-02T13:00:00,1209A,119.888,32.4639,泰州市,留学生创业园,臭氧1小时,63,70,64,33,30,170,170,69,69,34,40,10,10,0.7,0.7
2023-11-02T13:00:00,1210A,119.036,33.5981,淮安市,钵池山,,48,48,55,23,30,144,144,92,92,15,23,9,9,0.8,0.7
2023-11-02T13:00:00,1211A,119.007,33.575,淮安市,北京南路,,47,44,64,25,33,148,148,89,89,19,31,8,10,0.6,0.6
2023-11-02T13:00:00,1212A,118.989,33.6067,淮安市,市监测站,颗粒物(PM10),51,51,69,24,30,156,156,92,92,15,30,13,16,0.7,0.6
2023-11-02T13:00:00,1213A,119.135,33.5039,淮安市,楚州区监测站,颗粒物(PM10),55,59,72,26,31,150,150,78,78,22,40,8,7,0.7,0.7
2023-11-02T13:00:00,1214A,119.0186,33.6297,淮安市,淮阴区监测站,颗粒物(PM10),74,97,82,25,32,146,146,89,89,16,30,12,12,0.9,0.8
2023-11-02T13:00:00,1215A,120.118,33.4022,盐城市,盐城电厂,颗粒物(PM10),51,51,66,29,29,181,134,68,68,18,26,11,11,0.6,0.7
2023-11-02T13:00:00,1216A,120.156,33.3942,盐城市,市监测站,,47,39,56,29,31,205,149,82,82,20,28,12,11,0.8,0.8
2023-11-02T13:00:00,1218A,120.2144,33.38,盐城市,开发区管委会,,46,44,68,22,32,184,146,69,69,15,30,4,7,0.6,0.7
2023-11-02T13:00:00,1220A,118.293,33.9528,宿迁市,宿迁学院,,50,36,58,22,33,176,159,94,94,16,37,11,12,0.5,0.6
2023-11-02T13:00:00,1221A,118.2442,33.9592,宿迁市,宿迁中学,颗粒物(PM10),53,55,67,25,30,161,146,85,85,20,43,10,11,0.5,0.6
2023-11-02T13:00:00,1223A,120.2072,30.2111,杭州市,滨江,,39,32,57,15,29,137,122,61,61,26,51,7,7,0.4,0.5
2023-11-02T13:00:00,1224A,120.0633,30.2747,杭州市,西溪,,39,33,38,16,27,155,122,48,48,18,36,5,5,0.5,0.6
2023-11-02T13:00:00,1226A,120.3461,30.3153,杭州市,下沙,,39,35,53,14,26,152,123,68,68,20,66,7,8,0.3,0.4
2023-11-02T13:00:00,1227A,120.1269,30.2456,杭州市,卧龙桥,,42,39,33,22,24,148,133,53,53,22,29,5,4,0.5,0.5
2023-11-02T13:00:00,1228A,120.1903,30.2692,杭州市,浙江农大,,35,30,48,17,30,130,111,58,58,27,52,7,7,0.4,0.6
2023-11-02T13:00:00,1230A,120.1197,30.3119,杭州市,和睦小学,,39,37,49,24,34,136,124,54,54,21,53,9,9,0.4,0.5
2023-11-02T13:00:00,1231A,120.3019,30.4183,杭州市,临平镇,,,40,63,8,24,138,121,57,57,23,52,5,6,,0.5
2023-11-02T13:00:00,1232A,120.2697,30.1819,杭州市,城厢镇,,35,34,49,12,28,124,109,58,58,25,51,6,6,0.4,0.5
2023-11-02T13:00:00,1233A,120.0883,30.1808,杭州市,云栖,,40,29,37,19,25,170,128,48,48,27,39,6,6,0.6,0.6
2023-11-02T13:00:00,1234A,121.8358,29.911,宁波市,区环保大楼,,38,21,29,10,9,120,120,76,76,8,22,5,6,0.6,0.7
2023-11-02T13:00:00,1235A,121.56,29.82,宁波市,万里学院,,35,28,33,6,16,123,110,68,68,2,23,9,10,0.5,0.6
2023-11-02T13:00:00,1236A,121.713,29.9572,宁波市,龙赛医院,,35,24,25,10,11,112,110,70,70,8,23,6,7,0.2,0.4
2023-11-02T13:00:00,1239A,121.633,29.7733,宁波市,钱湖水厂,,34,11,19,10,10,120,108,79,79,4,7,7,7,0.3,0.4
2023-11-02T13:00:00,1240A,121.5856,29.8635,宁波市,太古小学,,36,19,29,9,12,131,113,77,77,7,19,8,8,0.5,0.7
2023-11-02T13:00:00,1241A,121.524,29.8674,宁波市,市环境监测中心,,34,15,29,9,11,126,108,68,68,5,19,7,7,0.7,0.7
2023-11-02T13:00:00,1242A,120.634,28.0089,温州市,瓯海,,31,23,43,11,21,116,98,45,45,20,39,7,7,0.4,0.5
2023-11-02T13:00:00,1243A,120.6748,27.9939,温州市,南浦,,31,25,45,12,21,111,99,45,45,17,35,7,7,0.3,0.4
2023-11-02T13:00:00,1244A,120.76,27.9747,温州市,龙湾,,31,14,42,7,16,111,98,47,47,13,35,6,6,0.3,0.4
2023-11-02T13:00:00,1245A,120.6709,28.0167,温州市,市站,,30,28,43,9,18,103,93,54,54,17,33,7,7,0.3,0.4
2023-11-02T13:00:00,1247A,120.6053,29.9928,绍兴市,城东开发委,,34,15,33,8,18,129,108,72,72,10,22,8,8,0.4,0.5
2023-11-02T13:00:00,1250A,120.0751,30.8669,湖州市,城西水厂,,41,40,71,18,36,152,129,57,57,26,55,4,5,0.4,0.5
2023-11-02T13:00:00,1252A,120.7436,30.778,嘉兴市,清河小学,,42,35,37,17,16,160,133,92,92,15,21,6,7,0.5,0.6
2023-11-02T13:00:00,1253A,120.726,30.7478,嘉兴市,嘉兴学院,,40,35,33,16,17,158,128,92,92,16,21,7,7,0.3,0.3
2023-11-02T13:00:00,1255A,121.273,28.6459,台州市,黄岩环保大楼,,43,43,26,13,15,139,107,68,68,16,15,7,6,0.4,0.5
2023-11-02T13:00:00,1256A,121.419,28.6542,台州市,台州环保大楼,,39,30,35,15,20,123,123,69,69,7,18,5,5,0.4,0.5
2023-11-02T13:00:00,1257A,121.377,28.5773,台州市,路桥田洋王,,35,30,34,12,20,119,111,60,60,10,25,9,8,0.4,0.5
2023-11-02T13:00:00,1258A,122.122,30.0203,舟山市,定海檀枫,,,,14,,9,113,113,85,85,8,14,6,6,0.2,0.3
2023-11-02T13:00:00,1259A,122.3094,29.9558,舟山市,普陀东港,,33,13,16,10,8,105,104,96,96,6,8,6,6,0.3,0.3
2023-11-02T13:00:00,1260A,122.19,29.9944,舟山市,临城新区,,32,14,16,7,8,106,100,89,89,14,12,5,5,0.2,0.3
2023-11-02T13:00:00,1262A,119.647,29.077,金华市,十五中,,36,21,52,14,23,156,115,62,62,11,49,4,5,0.3,0.4
2023-11-02T13:00:00,1263A,119.686,29.1029,金华市,监测站,,35,26,55,11,25,155,112,55,55,12,62,5,6,0.4,0.5
2023-11-02T13:00:00,1264A,118.8692,28.9398,衢州市,环保大楼,,37,37,53,19,29,138,107,48,48,20,37,8,5,0.9,0.6
2023-11-02T13:00:00,1265A,118.8709,28.9666,衢州市,实验学校,,31,25,47,16,28,134,97,46,46,14,40,9,8,0.5,0.4
2023-11-02T13:00:00,1266A,118.8621,28.9808,衢州市,衢州学院,,33,29,49,16,25,140,105,42,42,19,48,6,6,0.5,0.6
2023-11-02T13:00:00,1267A,119.914,28.4514,丽水市,监测站大楼,,33,33,31,23,17,119,98,43,43,15,22,6,7,0.3,0.3
2023-11-02T13:00:00,1268A,119.93,28.4586,丽水市,莲都小学,,,,28,,11,124,96,36,,,21,6,6,0.4,0.3
2023-11-02T13:00:00,1269A,119.879,28.4231,丽水市,余庄前,,32,27,24,6,14,113,100,42,42,19,18,5,5,0.3,0.3
2023-11-02T13:00:00,1270A,117.1959,31.7848,合肥市,明珠广场,,48,48,58,24,30,158,138,87,87,22,30,11,10,0.4,0.5
2023-11-02T13:00:00,1271A,117.3072,31.8764,合肥市,三里街,颗粒物(PM10),58,66,65,39,34,153,124,78,78,28,51,8,7,0.5,0.5
2023-11-02T13:00:00,1272A,117.2588,31.8707,合肥市,琥珀山庄,颗粒物(PM10),56,61,52,34,28,167,141,98,98,18,21,7,6,0.6,0.5
2023-11-02T13:00:00,1273A,117.1604,31.9052,合肥市,董铺水库,颗粒物(PM10),59,68,51,22,24,173,151,106,106,17,21,5,5,0.4,0.4
2023-11-02T13:00:00,1274A,117.25,31.8571,合肥市,长江中路,颗粒物(PM10),58,66,54,33,27,159,136,88,88,21,26,11,10,0.7,0.6
2023-11-02T13:00:00,1275A,117.266,31.9436,合肥市,庐阳区,颗粒物(PM10),51,51,52,29,28,159,133,91,91,23,33,8,6,0.6,0.5
2023-11-02T13:00:00,1276A,117.336,31.8586,合肥市,瑶海区,颗粒物(PM10),58,66,76,28,31,149,132,79,79,16,46,8,6,0.5,0.5
2023-11-02T13:00:00,1277A,117.3027,31.7964,合肥市,包河区,颗粒物(PM10),54,58,51,34,28,156,144,98,98,18,29,8,7,0.6,0.6
2023-11-02T13:00:00,1278A,117.2776,31.7385,合肥市,滨湖新区,颗粒物(PM10),56,61,51,29,25,154,142,99,99,12,17,8,6,0.5,0.5
2023-11-02T13:00:00,1279A,117.1318,31.8403,合肥市,高新区,颗粒物(PM10),59,68,57,27,25,156,135,89,89,24,32,10,10,0.5,0.5
2023-11-02T13:00:00,1280A,119.3903,26.0543,福州市,鼓山,,,,21,,10,,,,,,9,,3,,
2023-11-02T13:00:00,1282A,119.2681,26.0504,福州市,师大,,,26,29,5,9,112,,62,62,8,11,5,6,0.3,0.5
2023-11-02T13:00:00,1283A,119.2984,26.1028,福州市,五四北路,,36,36,29,10,10,106,91,70,70,3,10,3,4,0.3,0.3
2023-11-02T13:00:00,1284A,119.2648,26.0768,福州市,杨桥西路,,35,35,31,11,10,107,101,67,67,6,11,3,5,0.5,0.5
2023-11-02T13:00:00,1285A,119.317,26.0746,福州市,紫阳,,39,39,28,8,9,101,90,69,68,2,7,5,7,0.4,0.4
2023-11-02T13:00:00,1286A,118.1608,24.8169,厦门市,溪东,,,,,,,,,,,,,,,,
2023-11-02T13:00:00,1287A,118.1514,24.4767,厦门市,洪文,,34,34,33,16,14,112,93,51,51,5,12,2,2,0.4,0.3
2023-11-02T13:00:00,1288A,118.0661,24.4444,厦门市,鼓浪屿,,27,27,35,14,17,99,70,32,32,14,21,4,5,0.5,0.5
2023-11-02T13:00:00,1290A,115.8931,28.6843,南昌市,省外办,颗粒物(PM10),54,57,80,36,39,145,105,38,38,19,47,13,9,0.2,0.5
2023-11-02T13:00:00,1291A,115.8886,28.7003,南昌市,省林业公司,颗粒物(PM10),53,56,78,22,34,165,121,42,42,9,52,15,9,0.2,0.3
2023-11-02T13:00:00,1292A,115.8126,28.7442,南昌市,林科所,,48,48,46,24,24,178,139,58,58,7,50,19,11,0.5,0.5
2023-11-02T13:00:00,1294A,115.8518,28.687,南昌市,建工学校,颗粒物(PM10),57,63,80,22,34,161,119,39,39,18,66,18,9,0.5,0.7
2023-11-02T13:00:00,1295A,115.8921,28.6424,南昌市,象湖,颗粒物(PM10),53,56,70,29,35,169,128,47,47,14,53,14,10,0.2,0.5
2023-11-02T13:00:00,1296A,115.7423,28.7996,南昌市,武术学校,,39,19,21,10,12,174,122,54,54,13,10,6,3,0.2,0.2
2023-11-02T13:00:00,1298A,115.9314,28.6842,南昌市,省站,颗粒物(PM10),57,63,84,29,38,153,126,53,53,15,35,13,14,0.4,0.7
2023-11-02T13:00:00,1299A,116.9862,36.6114,济南市,科干所,臭氧1小时,63,63,65,32,33,170,170,154,154,10,12,10,9,0.5,0.5
2023-11-02T13:00:00,1300A,116.9376,36.665,济南市,农科所,颗粒物(PM10),69,88,80,29,30,158,158,130,130,18,26,8,7,0.3,0.4
2023-11-02T13:00:00,1301A,117.1265,36.6734,济南市,开发区,颗粒物(PM10),55,59,55,27,28,149,149,137,137,17,25,8,8,0.5,0.5
2023-11-02T13:00:00,1303A,117.0624,36.6868,济南市,省种子仓库,,,68,61,22,26,156,,145,145,,18,,7,,0.6
2023-11-02T13:00:00,1304A,116.9489,36.6447,济南市,机床二厂,,,90,87,39,34,157,,135,135,20,23,5,7,,0.5
2023-11-02T13:00:00,1305A,117.0495,36.663,济南市,市监测站,颗粒物(PM10),53,56,60,24,27,158,157,148,148,20,23,8,8,0.4,0.4
2023-11-02T13:00:00,1306A,116.7675,36.5484,济南市,长清党校,颗粒物(PM10),69,88,78,44,43,167,167,134,134,16,20,11,10,0.6,0.6
2023-11-02T13:00:00,1307A,120.6659,36.2403,青岛市,仰口,颗粒物(PM10),82,114,56,17,28,149,129,128,128,5,11,2,4,0.2,0.4
2023-11-02T13:00:00,1310A,120.4134,36.0658,青岛市,市南区东部子站,臭氧1小时,87,75,81,39,38,189,189,102,102,24,31,10,11,0.5,0.7
2023-11-02T13:00:00,1311A,120.3664,36.1032,青岛市,四方区子站,臭氧1小时,83,73,87,39,40,186,186,106,106,31,44,9,9,0.8,1
2023-11-02T13:00:00,1312A,120.2994,36.054,青岛市,市南区西部子站,臭氧1小时,69,70,89,37,38,175,175,102,102,22,35,10,10,0.6,0.7
2023-11-02T13:00:00,1313A,120.4581,36.0858,青岛市,崂山区子站,臭氧1小时,101,78,85,44,45,201,201,107,107,26,35,9,9,0.6,0.7
2023-11-02T13:00:00,1314A,120.1983,35.9608,青岛市,黄岛区子站,臭氧1小时,64,68,77,42,42,171,171,101,101,32,41,9,11,0.8,1
2023-11-02T13:00:00,1315A,120.3999,36.3083,青岛市,城阳区子站,颗粒物(PM10),64,78,93,27,34,170,162,103,103,30,51,11,12,0.8,1.1
2023-11-02T13:00:00,1316A,113.69031,34.76122,郑州市,烟厂,颗粒物(PM10),65,80,64,27,31,130,121,95,92,19,25,8,9,0.5,0.5
2023-11-02T13:00:00,1317A,113.65724,34.77134,郑州市,郑纺机,颗粒物(PM10),76,101,68,32,27,128,118,82,82,20,28,8,9,0.6,0.7
2023-11-02T13:00:00,1318A,113.67526,34.80246,郑州市,银行学校,颗粒物(PM10),60,70,58,36,30,130,122,87,87,19,24,9,9,0.8,0.7
2023-11-02T13:00:00,1319A,113.56746,34.81334,郑州市,供水公司,颗粒物(PM10),69,87,67,32,27,132,129,67,67,16,29,8,6,0.7,0.7
2023-11-02T13:00:00,1320A,113.7329,34.7178,郑州市,经开区管委,颗粒物(PM10),61,72,66,40,36,133,120,92,92,18,25,11,11,0.6,0.6
2023-11-02T13:00:00,1321A,113.73961,34.77172,郑州市,四十七中,颗粒物(PM10),59,67,60,25,28,142,128,95,94,25,30,9,9,0.5,0.5
2023-11-02T13:00:00,1322A,113.60532,34.74838,郑州市,市监测站,颗粒物(PM10),76,101,69,25,31,128,115,73,73,27,36,8,10,0.5,0.5
2023-11-02T13:00:00,1323A,113.64164,34.7525,郑州市,河医大,颗粒物(PM10),64,78,65,27,29,131,120,87,87,14,21,11,12,0.6,0.7
2023-11-02T13:00:00,1324A,113.51488,34.91089,郑州市,岗李水库,颗粒物(PM10),71,92,96,40,48,127,127,,,29,40,12,15,0.8,0.9
2023-11-02T13:00:00,1325A,114.3677,30.5584,武汉市,东湖梨园,,47,27,55,22,39,169,148,66,66,14,40,10,9,0.6,0.9
2023-11-02T13:00:00,1326A,114.2529,30.558,武汉市,汉阳月湖,,40,39,55,22,35,137,127,63,63,19,60,9,8,0.5,0.7
2023-11-02T13:00:00,1327A,114.282,30.6189,武汉市,汉口花桥,细颗粒物(PM2.5),53,43,60,37,43,153,138,84,84,22,68,10,9,0.6,0.8
2023-11-02T13:00:00,1328A,114.3025,30.5332,武汉市,武昌紫阳,,47,32,61,25,31,170,150,87,87,15,53,10,9,0.7,0.9
2023-11-02T13:00:00,1329A,114.3646,30.6217,武汉市,青山钢花,,,,86,,58,170,150,70,70,16,65,11,12,0.7,1.1
2023-11-02T13:00:00,1330A,114.1566,30.4825,武汉市,沌口新区,,43,42,69,29,42,156,136,79,79,18,72,14,11,0.6,0.7
2023-11-02T13:00:00,1331A,114.3014,30.5944,武汉市,汉口江滩,,43,43,55,28,32,154,135,74,74,30,69,9,8,0.6,0.7
2023-11-02T13:00:00,1333A,114.135,30.6319,武汉市,吴家山,,48,29,68,29,45,169,152,84,84,14,67,10,10,0.5,0.9
2023-11-02T13:00:00,1334A,113.8454,30.2917,武汉市,沉湖七壕,臭氧1小时,73,94,83,33,40,183,178,79,79,27,47,18,9,0.8,0.8
2023-11-02T13:00:00,1335A,113.0833,28.2325,长沙市,经开区环保局,颗粒物(PM10),54,58,58,30,35,155,123,77,77,15,30,12,10,0.6,0.5
2023-11-02T13:00:00,1336A,112.8872,28.2189,长沙市,高开区环保局,细颗粒物(PM2.5),53,54,60,37,38,163,128,78,78,15,33,12,10,0.7,0.8
2023-11-02T13:00:00,1337A,113.0792,28.2053,长沙市,马坡岭,颗粒物(PM10),55,60,72,36,42,174,141,78,78,10,32,12,9,0.6,0.5
2023-11-02T13:00:00,1338A,112.9394,28.19,长沙市,湖南师范大学,细颗粒物(PM2.5),54,56,57,38,39,169,135,72,72,15,26,18,10,1.0,0.8
2023-11-02T13:00:00,1339A,113.0178,28.1322,长沙市,雨花区环保局,,,,49,,34,150,130,75,75,,32,14,6,1.3,0.7
2023-11-02T13:00:00,1340A,112.9792,28.2597,长沙市,伍家岭,,,66,80,32,50,166,,36,36,17,49,,8,1.0,1
2023-11-02T13:00:00,1341A,113.0014,28.1944,长沙市,火车新站,颗粒物(PM10),57,64,66,36,41,158,129,69,69,18,51,11,6,0.8,0.8
2023-11-02T13:00:00,1342A,112.9844,28.1178,长沙市,天心区环保局,细颗粒物(PM2.5),57,51,53,40,33,158,129,70,70,19,41,20,10,0.9,0.6
2023-11-02T13:00:00,1343A,112.8908,28.1308,长沙市,湖南中医药大学,细颗粒物(PM2.5),58,53,73,41,47,167,141,52,52,2,34,11,7,0.9,1.1
2023-11-02T13:00:00,1344A,112.9581,28.3611,长沙市,沙坪,,39,39,57,26,39,114,88,46,46,15,24,10,8,0.5,0.6
2023-11-02T13:00:00,1345A,113.2347,23.1423,广州市,广雅中学,臭氧1小时,84,80,74,38,35,190,187,68,68,34,59,6,6,0.9,1
2023-11-02T13:00:00,1346A,113.2612,23.105,广州市,市五中,臭氧1小时,95,78,60,48,35,217,196,82,82,36,47,9,8,0.7,0.6
2023-11-02T13:00:00,1348A,113.3478,23.0916,广州市,广东商学院,臭氧1小时,73,69,56,37,28,178,178,66,66,29,54,8,6,0.7,0.7
2023-11-02T13:00:00,1349A,113.4332,23.1047,广州市,市八十六中,臭氧1小时,93,80,61,42,27,194,194,73,73,34,55,10,5,0.7,0.7
2023-11-02T13:00:00,1350A,113.3505,22.9483,广州市,番禺中学,,,58,54,33,26,220,198,75,75,,43,6,7,0.5,0.6
2023-11-02T13:00:00,1351A,113.2146,23.3916,广州市,花都师范,臭氧1小时,94,99,70,56,36,195,195,61,61,39,56,7,7,0.9,0.8
2023-11-02T13:00:00,1352A,113.2597,23.1331,广州市,市监测站,臭氧1小时,97,70,61,41,34,206,197,73,73,36,55,6,5,0.7,0.7
2023-11-02T13:00:00,1353A,113.5618,23.312,广州市,九龙镇镇龙,颗粒物(PM10),56,61,61,29,31,153,153,54,54,15,39,5,5,0.5,0.6
2023-11-02T13:00:00,1354A,113.2765,23.1544,广州市,麓湖,,,75,52,43,32,202,177,57,57,33,60,6,4,,0.7
2023-11-02T13:00:00,1355A,113.443,23.3035,广州市,帽峰山森林公园,,50,39,39,26,22,167,158,74,74,18,25,8,8,1.0,1
2023-11-02T13:00:00,1356A,114.1063,22.5545,深圳市,通心岭子站,,38,32,32,18,14,180,119,84,84,7,14,4,4,0.1,0.1
2023-11-02T13:00:00,1357A,114.117,22.5625,深圳市,洪湖,,39,38,44,21,17,179,122,65,65,4,16,5,5,0.6,0.7
2023-11-02T13:00:00,1358A,113.987,22.5417,深圳市,华侨城,,43,35,35,22,16,259,137,78,78,10,18,1,2,0,0
2023-11-02T13:00:00,1359A,113.9181,22.5171,深圳市,南海子站,,46,46,48,18,22,225,106,83,80,23,25,3,3,0.4,0.4
2023-11-02T13:00:00,1360A,114.2458,22.5689,深圳市,盐田,,40,31,29,16,13,173,126,85,85,11,22,4,4,0.5,0.5
2023-11-02T13:00:00,1361A,114.2283,22.7244,深圳市,龙岗,,45,41,39,16,15,161,143,86,86,12,18,2,3,0.6,0.7
2023-11-02T13:00:00,1363A,114.494,22.5422,深圳市,南澳,,,,22,,8,143,115,,,6,8,3,3,,0.2
2023-11-02T13:00:00,1364A,114.41,22.6342,深圳市,葵涌,,42,28,26,16,14,158,133,92,92,9,12,3,2,0.5,0.5
2023-11-02T13:00:00,1365A,114.297,22.5978,深圳市,梅沙,,41,36,31,20,14,170,129,98,98,7,9,4,3,0.4,0.3
2023-11-02T13:00:00,1366A,114.0678,22.738,深圳市,观澜,颗粒物(PM10),53,55,61,31,23,203,149,85,85,28,38,5,4,1.1,1.1
2023-11-02T13:00:00,1367A,113.5814,22.2618,珠海市,吉大,,41,37,34,18,17,240,129,95,95,7,13,6,7,0.5,0.5
2023-11-02T13:00:00,1368A,113.4881,22.2335,珠海市,前山,,39,20,25,13,29,220,123,79,79,12,21,7,7,0.4,0.4
2023-11-02T13:00:00,1369A,113.628,22.4251,珠海市,唐家,,39,30,36,14,18,240,123,83,83,9,19,5,5,0.4,0.4
2023-11-02T13:00:00,1370A,113.299,22.2281,珠海市,斗门,,36,36,34,14,15,193,107,64,64,17,21,8,8,0.5,0.5
2023-11-02T13:00:00,1371A,113.1294,23.0067,佛山市,湾梁,臭氧1小时,83,78,59,32,28,227,186,67,67,36,40,13,12,0.4,0.4
2023-11-02T13:00:00,1372A,113.1083,23.0478,佛山市,华材职中,臭氧1小时,68,78,72,37,39,207,174,56,56,38,55,10,10,0.6,0.7
2023-11-02T13:00:00,1373A,113.144,23.0453,佛山市,南海气象局,臭氧1小时,87,74,62,38,37,211,189,68,68,42,53,10,11,0.6,0.7
2023-11-02T13:00:00,1374A,113.2881,22.8094,佛山市,顺德苏岗,臭氧1小时,57,49,60,24,30,228,165,66,66,18,40,9,9,0.7,0.8
2023-11-02T13:00:00,1376A,112.8383,22.8678,佛山市,高明孔堂,臭氧1小时,89,58,67,30,35,254,191,86,86,11,26,8,9,0.5,0.6
2023-11-02T13:00:00,1377A,112.8836,23.1588,佛山市,三水监测站,臭氧1小时,84,95,75,57,42,187,187,71,71,32,56,6,6,0.8,0.8
2023-11-02T13:00:00,1378A,112.867,23.185,佛山市,三水云东海,,,,56,65,41,184,184,60,60,,43,11,7,0.8,0.7
2023-11-02T13:00:00,1379A,113.3769,22.5211,中山市,华柏园,颗粒物(PM10),51,51,46,18,21,245,110,63,63,18,29,4,4,0.3,0.3
2023-11-02T13:00:00,1380A,113.3881,22.5497,中山市,张溪,颗粒物(PM10),54,57,57,27,28,251,107,62,62,23,28,3,3,0.4,0.4
2023-11-02T13:00:00,1381A,113.4075,22.5111,中山市,紫马岭,,41,41,39,15,22,253,110,58,58,13,23,4,4,0.4,0.5
2023-11-02T13:00:00,1382A,113.4411,22.4853,中山市,长江旅游区,,32,21,47,22,25,96,96,,,13,16,9,8,0.6,0.6
2023-11-02T13:00:00,1383A,113.1064,22.6058,江门市,北街,臭氧1小时,85,62,46,37,28,254,188,83,83,28,29,7,8,0.6,0.6
2023-11-02T13:00:00,1384A,113.0731,22.5835,江门市,西区,臭氧1小时,73,72,55,35,27,256,178,70,70,32,37,8,8,0.5,0.6
2023-11-02T13:00:00,1385A,113.0219,22.5311,江门市,圭峰西,臭氧1小时,64,51,42,27,22,238,171,91,91,19,26,5,5,0.6,0.6
2023-11-02T13:00:00,1386A,113.0828,22.5947,江门市,东湖,,,81,50,47,24,248,175,79,79,,28,7,6,0.6,0.6
2023-11-02T13:00:00,1389A,113.7547,23.0494,东莞市,莞城梨川,臭氧1小时,90,55,52,29,27,192,192,96,96,23,29,8,8,0.7,0.7
2023-11-02T13:00:00,1390A,113.7944,23.0128,东莞市,东城石井,臭氧1小时,103,59,50,34,32,205,205,82,82,18,22,8,7,0.7,0.7
2023-11-02T13:00:00,1391A,113.7383,22.9658,东莞市,南城西平,臭氧1小时,72,49,52,25,26,177,177,69,69,22,40,4,6,0.7,0.6
2023-11-02T13:00:00,1392A,114.4183,23.0528,惠州市,河南岸金山湖子站,,41,41,43,20,23,131,131,74,74,6,15,6,6,0.6,0.6
2023-11-02T13:00:00,1393A,114.4053,23.0822,惠州市,下埔横江三路子站,,47,47,46,23,24,134,134,75,75,13,17,8,9,0.5,0.5
2023-11-02T13:00:00,1394A,114.4103,23.1142,惠州市,江北云山西路子站,,47,45,48,23,22,150,150,75,75,10,16,9,11,0.5,0.5
2023-11-02T13:00:00,1395A,114.4645,22.7833,惠州市,惠阳区承修路船湖子站,,42,33,41,17,18,134,134,62,62,10,15,8,7,0.7,0.8
2023-11-02T13:00:00,1396A,114.5317,22.7422,惠州市,大亚湾管委会子站,,40,37,45,16,16,153,127,81,81,14,26,7,6,0.8,0.8
2023-11-02T13:00:00,1397A,112.4267,23.0706,肇庆市,睦岗子站,臭氧1小时,67,71,60,46,35,185,173,63,63,25,54,24,12,0.6,0.6
2023-11-02T13:00:00,1398A,112.4645,23.0475,肇庆市,城中子站,臭氧1小时,78,64,61,38,39,189,182,60,60,24,58,26,24,0.7,0.7
2023-11-02T13:00:00,1399A,112.5544,23.1522,肇庆市,坑口子站,颗粒物(PM10),55,59,40,38,27,159,131,85,81,33,23,18,10,0.5,0.4
2023-11-02T13:00:00,1400A,112.4753,23.1,肇庆市,七星岩子站,,,74,79,42,46,178,178,,,34,34,20,26,,0.7
2023-11-02T13:00:00,1401A,108.3103,22.7881,南宁市,二十一中,颗粒物(PM10),52,53,63,24,40,160,145,44,44,12,51,8,8,1.0,1.1
2023-11-02T13:00:00,1402A,108.3141,22.8528,南宁市,北湖,,,50,64,36,42,153,,32,32,,35,10,11,0.9,0.9
2023-11-02T13:00:00,1403A,108.3206,22.8225,南宁市,市监测站,颗粒物(PM10),67,84,52,35,36,153,147,50,50,15,43,14,15,0.9,0.8
2023-11-02T13:00:00,1404A,108.3829,22.8037,南宁市,大自然花园,细颗粒物(PM2.5),60,53,44,43,32,136,120,66,66,25,30,9,8,0.7,0.6
2023-11-02T13:00:00,1405A,108.4394,22.7904,南宁市,仙葫,,50,50,56,27,35,151,130,44,44,16,38,8,8,0.6,0.6
2023-11-02T13:00:00,1406A,108.2397,22.8467,南宁市,区农职院,颗粒物(PM10),60,69,54,34,32,174,145,54,54,20,33,12,16,0.9,0.8
2023-11-02T13:00:00,1407A,108.3275,22.735,南宁市,英华嘉园,,46,46,68,22,41,139,116,42,42,13,60,8,8,0.7,0.8
2023-11-02T13:00:00,1408A,108.2257,22.7757,南宁市,沙井镇街道办,颗粒物(PM10),51,51,91,34,55,182,140,42,42,14,44,12,50,0.9,0.9
2023-11-02T13:00:00,1409A,110.576,19.9507,海口市,东寨港,,,,,,,,,,,,,,,,
2023-11-02T13:00:00,1410A,110.3232,20.0574,海口市,海南大学,,30,29,26,11,11,126,96,82,82,8,11,7,7,0.3,0.4
2023-11-02T13:00:00,1411A,110.283,20.0053,海口市,秀英海南医院,,29,27,29,12,11,123,92,95,85,5,6,8,8,0.4,0.4
2023-11-02T13:00:00,1412A,110.338,19.9969,海口市,海南师范大学,,26,26,31,11,12,118,83,88,78,6,7,5,6,0.4,0.4
2023-11-02T13:00:00,1413A,110.33,20.0356,海口市,龙华路环保局宿舍,,29,28,28,12,11,124,92,92,84,5,6,8,9,0.4,0.3
2023-11-02T13:00:00,1414A,106.3787,29.8279,重庆市,缙云山,,30,30,38,16,22,110,88,89,81,14,13,11,10,0.3,0.2
2023-11-02T13:00:00,1416A,106.4213,29.8253,重庆市,天生,细颗粒物(PM2.5),57,46,61,40,42,115,69,19,19,30,37,13,10,0.9,0.9
2023-11-02T13:00:00,1417A,106.6263,29.7228,重庆市,两路,颗粒物(PM10),51,52,54,27,30,106,61,27,27,40,48,8,9,0.9,1
2023-11-02T13:00:00,1418A,106.2953,29.5983,重庆市,虎溪,细颗粒物(PM2.5),55,50,59,39,42,105,74,21,21,29,53,9,7,0.6,0.7
2023-11-02T13:00:00,1419A,106.5777,29.5102,重庆市,南坪,,,54,71,31,40,121,49,29,22,,46,14,12,,1.1
2023-11-02T13:00:00,1420A,106.6556,29.6277,重庆市,唐家沱,,45,45,57,28,32,111,51,18,18,45,45,10,8,1.0,1
2023-11-02T13:00:00,1421A,106.6349,29.4906,重庆市,茶园,细颗粒物(PM2.5),57,55,84,40,42,116,75,31,31,39,60,12,8,1.3,1.3
2023-11-02T13:00:00,1422A,106.3754,29.4572,重庆市,白市驿,细颗粒物(PM2.5),60,65,73,43,45,90,81,26,26,37,51,9,9,0.7,1.1
2023-11-02T13:00:00,1425A,106.6205,29.7166,重庆市,空港,颗粒物(PM10),52,54,62,29,38,115,69,30,30,41,45,9,9,0.8,0.9
2023-11-02T13:00:00,1426A,106.4782,29.4875,重庆市,新山村,细颗粒物(PM2.5),64,57,83,46,49,90,54,16,16,51,78,12,11,1.0,1.4
2023-11-02T13:00:00,1427A,106.5616,29.6453,重庆市,礼嘉,颗粒物(PM10),69,88,71,30,37,104,36,19,19,67,68,11,9,1.0,1
2023-11-02T13:00:00,1428A,106.4522,29.7091,重庆市,蔡家,颗粒物(PM10),56,61,66,39,42,91,55,18,18,43,43,7,6,0.8,0.8
2023-11-02T13:00:00,1429A,106.5093,29.3917,重庆市,鱼新街,细颗粒物(PM2.5),68,69,78,49,48,131,59,21,21,68,69,11,8,1.4,1.5
2023-11-02T13:00:00,1431A,103.9728,30.7236,成都市,金泉两河,,50,41,68,35,51,55,43,26,26,18,39,3,2,0.5,0.8
2023-11-02T13:00:00,1432A,104.176,30.6872,成都市,十里店,细颗粒物(PM2.5),80,77,85,59,68,85,55,17,17,22,42,3,2,0.7,0.8
2023-11-02T13:00:00,1433A,104.079,30.5706,成都市,三瓦窑,细颗粒物(PM2.5),115,120,106,87,76,84,40,22,22,18,31,3,2,0.7,0.7
2023-11-02T13:00:00,1434A,104.1114,30.63,成都市,沙河铺,细颗粒物(PM2.5),107,104,97,80,72,78,47,19,19,22,36,,2,0.8,0.7
2023-11-02T13:00:00,1437A,104.0786,30.6531,成都市,君平街,细颗粒物(PM2.5),77,88,113,56,78,94,57,27,27,34,52,3,2,0.8,0.9
2023-11-02T13:00:00,1438A,103.613,31.0283,成都市,灵岩寺,,,,42,30,34,78,19,38,18,15,13,8,9,0.7,0.7
2023-11-02T13:00:00,1439A,106.6899,26.5998,贵阳市,马鞍山,,49,31,27,34,20,111,93,46,46,12,16,7,5,0.6,0.5
2023-11-02T13:00:00,1440A,106.6971,26.5694,贵阳市,市环保站,,49,41,38,34,28,108,96,66,66,13,30,6,7,0.3,0.4
2023-11-02T13:00:00,1441A,106.6243,26.6266,贵阳市,鉴湖路,,41,41,31,24,15,103,89,71,71,10,10,6,5,0.6,0.4
2023-11-02T13:00:00,1442A,106.7487,26.6343,贵阳市,燕子冲,,,,29,,22,107,90,56,56,12,19,8,7,,0.5
2023-11-02T13:00:00,1443A,106.6555,26.4365,贵阳市,碧云窝,,32,31,32,22,17,102,93,66,66,8,12,6,6,0.4,0.3
2023-11-02T13:00:00,1444A,106.694,26.5161,贵阳市,中院村,,34,34,47,22,25,89,83,52,52,10,31,4,6,0.3,0.4
2023-11-02T13:00:00,1445A,106.7109,26.6027,贵阳市,红边门,,46,46,45,27,25,105,90,64,64,13,32,3,4,0.3,0.4
2023-11-02T13:00:00,1446A,106.7164,26.5699,贵阳市,新华路,,,,44,29,22,106,98,66,66,12,26,9,7,,0.5
2023-11-02T13:00:00,1447A,106.674,26.5424,贵阳市,太慈桥,,29,29,32,19,16,102,92,49,49,10,22,6,4,0.4,0.4
2023-11-02T13:00:00,1450A,102.8204,24.8886,昆明市,呈贡新区,,,17,23,10,12,101,83,48,48,,20,8,9,,0.9
2023-11-02T13:00:00,1451A,102.6251,24.9608,昆明市,西山森林公园,,29,16,16,20,11,96,91,56,56,6,7,7,6,0.6,0.6
2023-11-02T13:00:00,1452A,102.7252,25.0902,昆明市,龙泉镇,,26,5,32,9,14,87,81,33,33,8,29,7,8,0.6,0.8
2023-11-02T13:00:00,1453A,102.7266,25.0375,昆明市,东风东路,,26,21,25,16,15,96,83,46,46,12,23,10,11,0.6,0.6
2023-11-02T13:00:00,1454A,102.6742,25.0669,昆明市,金鼎山,,26,3,37,12,16,89,81,37,37,11,28,16,19,0.4,0.6
2023-11-02T13:00:00,1455A,102.6644,25.0401,昆明市,碧鸡广场,,26,14,30,7,17,90,81,38,38,8,29,7,9,0.6,0.8
2023-11-02T13:00:00,1456A,91.1319,29.6514,拉萨市,八廓街,,31,19,24,13,11,98,98,65,62,10,19,10,12,0.3,0.3
2023-11-02T13:00:00,1457A,91.1221,29.6747,拉萨市,市环保局,,30,12,30,7,13,98,95,52,51,11,26,7,8,0.3,0.5
2023-11-02T13:00:00,1458A,91.0874,29.6475,拉萨市,区监测站,,30,12,20,8,10,95,95,70,56,10,25,8,9,0.3,0.5
2023-11-02T13:00:00,1459A,91.1774,29.6541,拉萨市,西藏大学,,31,15,22,6,8,97,97,62,61,8,17,6,8,0.2,0.4
2023-11-02T13:00:00,1460A,90.9798,29.6588,拉萨市,区辐射站,,29,28,22,10,9,96,92,84,61,12,20,6,6,0.5,0.5
2023-11-02T13:00:00,1461A,91.0834,29.6292,拉萨市,拉萨火车站,,28,17,19,8,9,88,87,71,57,10,20,5,6,0.3,0.4
2023-11-02T13:00:00,1462A,108.882,34.2749,西安市,高压开关厂,,48,48,98,18,40,96,96,30,30,17,66,10,14,0.4,0.9
2023-11-02T13:00:00,1463A,108.993,34.2629,西安市,兴庆小区,颗粒物(PM10),52,54,66,24,28,70,70,23,23,26,60,8,7,0.5,0.7
2023-11-02T13:00:00,1464A,109.06,34.2572,西安市,纺织城,颗粒物(PM10),57,63,80,24,37,74,72,25,25,28,53,8,7,0.6,0.7
2023-11-02T13:00:00,1465A,108.9356,34.2173,西安市,小寨,颗粒物(PM10),53,55,75,17,32,75,75,20,20,21,63,8,10,0.4,1.1
2023-11-02T13:00:00,1466A,108.954,34.2713,西安市,市人民体育场,颗粒物(PM10),59,68,84,20,36,70,70,22,22,24,59,7,7,0.6,1.1
2023-11-02T13:00:00,1467A,108.8922,34.2322,西安市,高新西区,,41,41,73,23,39,87,87,28,28,14,61,8,8,0.4,1.1
2023-11-02T13:00:00,1468A,108.935,34.3474,西安市,经开区,,48,48,77,14,36,84,84,26,26,13,62,6,6,0.3,0.9
2023-11-02T13:00:00,1469A,108.906,34.1546,西安市,长安区,颗粒物(PM10),52,54,65,18,28,88,88,34,34,17,57,8,7,0.4,0.6
2023-11-02T13:00:00,1471A,109.2186,34.3731,西安市,临潼区,颗粒物(PM10),54,57,58,25,31,93,72,58,58,26,34,7,8,0.6,0.7
2023-11-02T13:00:00,1472A,108.869,34.378,西安市,草滩,颗粒物(PM10),58,65,93,10,27,94,94,24,24,15,65,17,17,0.4,0.8
2023-11-02T13:00:00,1473A,108.985,34.1978,西安市,曲江文化产业集团,颗粒物(PM10),63,76,75,22,49,74,74,22,22,25,56,6,6,0.4,0.6
2023-11-02T13:00:00,1474A,109.051,34.3213,西安市,广运潭,颗粒物(PM10),53,56,71,27,34,72,66,22,22,25,52,8,9,0.5,0.6
2023-11-02T13:00:00,1476A,103.631,36.1031,兰州市,兰炼宾馆,颗粒物(PM10),99,147,130,40,59,121,74,31,31,21,74,7,14,0.5,1.1
2023-11-02T13:00:00,1477A,104.1373,35.9454,兰州市,榆中兰大校区,,,,,,,,,,,,,,,,
2023-11-02T13:00:00,1478A,103.8412,36.0726,兰州市,生物制品所,颗粒物(PM10),90,129,115,37,51,81,81,25,25,19,74,9,11,0.3,1.2
2023-11-02T13:00:00,1479A,103.831,36.0464,兰州市,铁路设计院,颗粒物(PM10),75,99,112,35,56,70,70,21,21,22,90,12,16,0.5,2.2
2023-11-02T13:00:00,1483A,101.524,36.6867,西宁市,第五水厂,,,,,,,,,,,,,,,,
2023-11-02T13:00:00,1484A,105.9512,38.6016,银川市,贺兰山马莲口,,,,68,,13,91,,81,,,11,,6,,0.2
2023-11-02T13:00:00,1488A,106.2328,38.4975,银川市,贺兰山东路,,43,43,114,8,36,115,97,95,94,13,40,6,10,0.3,0.6
2023-11-02T13:00:00,1489A,106.1358,38.5036,银川市,学院路,,28,25,125,14,30,102,88,84,84,4,28,5,10,0.4,0.4
2023-11-02T13:00:00,1490A,87.5801,43.8303,乌鲁木齐市,监测站,,42,42,30,21,11,68,13,10,10,43,42,10,6,1.0,0.8
2023-11-02T13:00:00,1491A,87.6046,43.768,乌鲁木齐市,收费所,,37,37,38,16,15,72,29,13,13,35,35,5,3,0.7,0.4
2023-11-02T13:00:00,1492A,87.4754,43.9469,乌鲁木齐市,新疆农科院农场,,48,48,51,20,18,58,24,7,7,26,42,6,4,0.1,0.1
2023-11-02T13:00:00,1493A,87.5525,43.8711,乌鲁木齐市,铁路局,,47,47,37,20,14,72,20,7,7,33,41,8,5,0.8,0.8
2023-11-02T13:00:00,1494A,87.6432,43.831,乌鲁木齐市,三十一中学,,47,47,30,23,9,74,21,12,12,36,36,6,3,0.7,0.4
2023-11-02T13:00:00,1496A,87.7216,44.1747,乌鲁木齐市,米东区环保局,,36,36,26,15,10,70,26,19,9,13,17,6,4,0.3,0.3
2023-11-02T13:00:00,1508A,112.9433,27.8614,湘潭市,板塘,颗粒物(PM10),51,51,75,28,45,132,106,49,49,14,40,17,20,0.7,0.7
2023-11-02T13:00:00,1511A,112.9118,27.8403,湘潭市,市监测站,颗粒物(PM10),52,54,59,34,39,148,119,71,71,22,35,24,14,1.0,0.8
2023-11-02T13:00:00,1512A,112.8937,27.8728,湘潭市,江麓,细颗粒物(PM2.5),54,42,75,38,50,144,131,61,61,10,36,12,16,0.6,0.9
2023-11-02T13:00:00,1513A,112.9227,27.8159,湘潭市,岳塘,颗粒物(PM10),51,51,69,30,46,148,128,67,67,5,33,9,11,0.5,0.9
2023-11-02T13:00:00,1514A,112.9074,27.9119,湘潭市,科大,颗粒物(PM10),59,67,74,41,47,136,119,50,50,12,46,15,14,0.8,0.8
2023-11-02T13:00:00,1515A,113.135,27.8244,株洲市,天台山庄,,45,45,72,26,40,138,127,72,72,14,37,10,13,0.5,0.9
2023-11-02T13:00:00,1518A,113.095,27.8867,株洲市,株冶医院,细颗粒物(PM2.5),52,44,71,36,48,142,129,58,58,14,49,11,11,0.4,0.7
2023-11-02T13:00:00,1519A,113.167,27.8667,株洲市,市四中,,49,49,69,30,44,137,128,67,67,17,38,9,10,0.4,0.7
2023-11-02T13:00:00,1520A,113.143,27.8381,株洲市,火车站,,46,46,70,27,45,136,126,69,69,10,32,9,12,0.5,0.9
2023-11-02T13:00:00,1524A,113.13,27.8528,株洲市,市监测站,,48,46,67,33,48,142,130,75,75,13,36,6,12,0.6,0.9
2023-11-02T13:00:00,1552A,106.805,26.3003,贵阳市,桐木岭,颗粒物(PM10),54,57,45,35,27,90,82,84,84,3,3,7,6,0.5,0.5
2023-11-02T13:00:00,1559A,113.251,27.8336,株洲市,大京风景区,,40,36,38,24,33,136,126,56,56,4,6,8,6,0.6,0.5
2023-11-02T13:00:00,1562A,113.0048,27.9153,湘潭市,昭山,颗粒物(PM10),56,61,67,34,41,145,136,59,59,18,49,16,10,0.8,0.8
2023-11-02T13:00:00,1564A,112.4876,27.9164,湘潭市,韶山,,,55,60,6,30,154,117,54,54,9,18,10,8,,0.7
2023-11-02T13:00:00,1585A,109.8756,40.6532,包头市,市环境监测站,颗粒物(PM10),420,520,222,110,71,90,75,55,55,7,56,8,23,0.4,1.3
2023-11-02T13:00:00,1587A,109.9991,40.5842,包头市,包头八中,颗粒物(PM10),409,509,240,88,71,107,76,55,55,7,51,8,25,0.4,0.9
2023-11-02T13:00:00,1588A,109.8538,40.6821,包头市,青山宾馆,颗粒物(PM10),383,486,230,76,72,83,75,58,58,6,56,10,28,0.4,1.3
2023-11-02T13:00:00,1589A,109.8642,40.6288,包头市,惠龙物流,颗粒物(PM10),401,501,236,79,74,92,74,56,56,7,53,6,26,0.4,1.3
2023-11-02T13:00:00,1590A,110.0377,40.5546,包头市,东河鸿龙湾,颗粒物(PM10),355,464,244,63,64,112,73,56,56,10,56,11,28,0.2,0.7
2023-11-02T13:00:00,1591A,110.0023,39.8129,鄂尔多斯市,综合楼,颗粒物(PM10),173,295,190,48,33,103,76,83,76,8,26,3,8,0.4,0.5
2023-11-02T13:00:00,1592A,109.9486,39.8261,鄂尔多斯市,巴音孟克林场办事处,颗粒物(PM10),148,246,178,46,38,102,74,82,75,6,21,6,10,0.3,0.5
2023-11-02T13:00:00,1593A,109.7736,39.5986,鄂尔多斯市,康泽苑,颗粒物(PM10),118,185,163,36,31,106,74,80,75,7,20,4,8,0.3,0.4
2023-11-02T13:00:00,1594A,109.8119,39.5989,鄂尔多斯市,华泰汽车城,颗粒物(PM10),122,193,195,36,41,102,75,78,76,5,20,4,6,0.3,0.4
2023-11-02T13:00:00,1595A,109.9734,39.7884,鄂尔多斯市,奥林花园,颗粒物(PM10),164,278,188,44,35,108,76,77,75,4,29,6,11,0.4,0.4
2023-11-02T13:00:00,1597A,122.2703,40.7094,营口市,大庆路,细颗粒物(PM2.5),94,109,109,70,59,146,146,76,76,20,40,9,7,0.6,0.7
2023-11-02T13:00:00,1598A,122.2150,40.6511,营口市,镜湖西路,颗粒物(PM10),92,134,121,63,63,135,135,81,81,24,47,12,9,1.0,1.1
2023-11-02T13:00:00,1599A,122.1658,40.6789,营口市,西炮台,细颗粒物(PM2.5),92,101,108,68,68,134,134,99,99,20,38,9,8,0.9,0.9
2023-11-02T13:00:00,1600A,124.3303,40.0625,丹东市,江湾东路,,47,47,110,30,73,147,147,106,106,15,35,7,9,0.8,1.4
2023-11-02T13:00:00,1601A,124.4256,40.1503,丹东市,临江后街,颗粒物(PM10),51,51,88,27,50,151,151,99,99,12,35,8,9,0.9,1.2
2023-11-02T13:00:00,1602A,124.3933,40.1461,丹东市,元宝山,,44,44,87,27,49,140,140,103,103,15,29,8,7,0.7,1
2023-11-02T13:00:00,1603A,124.3633,40.1092,丹东市,民主桥,颗粒物(PM10),53,55,99,27,52,137,137,87,87,10,40,7,8,1.0,1.4
2023-11-02T13:00:00,1604A,122.0303,41.1489,盘锦市,开发区,细颗粒物(PM2.5),145,95,56,111,50,119,116,69,69,30,40,11,10,0.8,1.1
2023-11-02T13:00:00,1605A,122.0485,41.0883,盘锦市,兴隆台,细颗粒物(PM2.5),128,116,67,97,46,127,114,87,87,27,34,8,10,1.0,0.7
2023-11-02T13:00:00,1606A,121.8297,41.1028,盘锦市,新生街道,细颗粒物(PM2.5),135,127,59,103,43,130,130,69,69,18,32,10,10,1.1,0.8
2023-11-02T13:00:00,1607A,120.9092,40.7136,葫芦岛市,龙港区,细颗粒物(PM2.5),172,164,76,130,45,118,118,62,62,21,45,13,30,0.9,0.5
2023-11-02T13:00:00,1608A,120.8392,40.7514,葫芦岛市,化工街,颗粒物(PM10),113,175,82,78,31,113,113,49,49,22,36,9,14,1.0,0.5
2023-11-02T13:00:00,1609A,120.8341,40.7073,葫芦岛市,新区,细颗粒物(PM2.5),168,150,72,127,44,123,123,58,58,23,47,11,17,1.1,0.6
2023-11-02T13:00:00,1610A,120.8695,40.7677,葫芦岛市,东城区,细颗粒物(PM2.5),148,150,72,113,42,120,120,46,46,24,44,13,19,1.3,0.7
2023-11-02T13:00:00,1611A,118.5819,24.9117,泉州市,涂山街,,37,35,38,17,16,117,117,72,72,9,13,4,5,0.9,0.8
2023-11-02T13:00:00,1612A,118.5972,24.8978,泉州市,津头埔,,35,31,37,23,16,112,112,66,66,14,19,3,4,0.5,0.5
2023-11-02T13:00:00,1613A,118.6663,24.9424,泉州市,万安,,40,32,32,14,13,128,128,76,76,7,16,3,3,0.5,0.5
2023-11-02T13:00:00,1614A,118.6117,24.9604,泉州市,清源山,,,,,,,,,,,,,,,,
2023-11-02T13:00:00,1616A,117.6795,36.229,济南市,技术学院,臭氧1小时,73,83,76,30,34,178,178,140,140,15,29,9,11,0.7,0.8
2023-11-02T13:00:00,1618A,118.3429,35.0532,临沂市,沂河小区,颗粒物(PM10),62,73,92,42,52,162,151,79,79,26,48,13,19,0.5,0.5
2023-11-02T13:00:00,1619A,118.295,35.0583,临沂市,鲁南制药厂,颗粒物(PM10),62,73,87,37,39,177,167,87,87,23,42,12,19,0.7,0.8
2023-11-02T13:00:00,1620A,118.2794,34.9976,临沂市,新光毛纺厂,"颗粒物(PM10),细颗粒物(PM2.5)",59,68,94,42,44,172,159,80,80,24,53,12,25,0.6,0.7
2023-11-02T13:00:00,1621A,118.3956,35.0888,临沂市,河东保险公司,细颗粒物(PM2.5),67,63,89,48,46,171,158,80,80,22,53,12,15,0.8,0.9
2023-11-02T13:00:00,1622A,116.3032,37.4674,德州市,儿童乐园,细颗粒物(PM2.5),89,122,119,66,63,179,124,67,62,23,32,16,16,0.9,1
2023-11-02T13:00:00,1624A,116.2991,37.4451,德州市,监理站,细颗粒物(PM2.5),89,125,119,66,62,175,124,62,58,12,23,19,19,0.8,0.9
2023-11-02T13:00:00,1625A,115.9848,36.4372,聊城市,区政府,颗粒物(PM10),73,95,93,48,42,152,152,100,100,15,23,10,9,0.8,0.7
2023-11-02T13:00:00,1629A,118.0018,37.3617,滨州市,第二水厂,颗粒物(PM10),74,97,122,34,70,180,168,106,106,15,39,11,16,0.7,0.9
2023-11-02T13:00:00,1630A,117.9776,37.393,滨州市,北中新校,颗粒物(PM10),68,85,127,34,66,177,166,105,105,19,48,13,17,0.5,0.9
2023-11-02T13:00:00,1631A,118.0414,36.8103,淄博市,人民公园,臭氧1小时,63,73,75,31,38,182,170,138,138,9,22,9,11,0.5,0.5
2023-11-02T13:00:00,1633A,117.8525,36.4847,淄博市,双山,颗粒物(PM10),86,121,72,34,34,169,169,137,137,9,17,8,8,0.4,0.5
2023-11-02T13:00:00,1634A,117.9592,36.6331,淄博市,气象站,颗粒物(PM10),68,86,65,36,33,162,162,138,138,9,16,7,8,0.2,0.3
2023-11-02T13:00:00,1635A,118.3092,36.8194,淄博市,莆田园,颗粒物(PM10),75,100,104,27,43,188,159,134,134,7,31,9,15,0.5,1.4
2023-11-02T13:00:00,1637A,117.558,34.8438,枣庄市,市中区政府,颗粒物(PM10),67,83,120,31,57,179,161,70,70,23,50,6,7,0.6,0.7
2023-11-02T13:00:00,1638A,117.2852,34.7837,枣庄市,薛城环保局,臭氧1小时,77,83,98,46,52,181,181,108,108,25,42,10,11,0.7,0.9
2023-11-02T13:00:00,1639A,117.5852,34.7745,枣庄市,峄城区政府,颗粒物(PM10),65,80,117,24,54,174,163,76,76,26,49,10,8,0.8,0.8
2023-11-02T13:00:00,1640A,117.7276,34.5578,枣庄市,台儿庄区环保局,颗粒物(PM10),63,75,85,39,47,183,163,74,74,27,57,8,6,0.7,0.8
2023-11-02T13:00:00,1641A,117.4518,35.0992,枣庄市,山亭区环保局,臭氧1小时,75,80,71,34,38,180,180,132,132,26,30,10,11,0.9,0.9
2023-11-02T13:00:00,1642A,121.2514,37.5639,烟台市,开发区,颗粒物(PM10),93,136,106,22,61,170,152,110,110,18,35,11,12,0.7,0.9
2023-11-02T13:00:00,1643A,121.3719,37.5433,烟台市,轴承厂,颗粒物(PM10),68,85,103,20,64,169,154,109,109,12,29,8,9,0.2,0.5
2023-11-02T13:00:00,1644A,121.3181,37.5436,烟台市,西郊化工站,颗粒物(PM10),65,80,100,14,53,167,151,119,119,22,36,11,11,0.4,0.6
2023-11-02T13:00:00,1645A,121.4478,37.4822,烟台市,莱山环保局,颗粒物(PM10),57,63,105,16,53,168,157,116,116,17,28,9,11,0.5,0.7
2023-11-02T13:00:00,1646A,121.2611,37.4967,烟台市,福山环保局,颗粒物(PM10),63,75,108,17,57,162,146,116,116,17,37,10,11,0.7,0.7
2023-11-02T13:00:00,1650A,119.1437,36.7023,潍坊市,环保局,颗粒物(PM10),65,80,91,24,45,182,159,92,92,18,41,9,11,0.4,0.6
2023-11-02T13:00:00,1653A,116.6251,35.4302,济宁市,火炬城,颗粒物(PM10),66,82,74,36,34,157,157,103,103,16,25,13,14,0.7,0.6
2023-11-02T13:00:00,1655A,116.5491,35.4042,济宁市,电化厂,颗粒物(PM10),70,90,88,39,38,164,164,113,113,15,29,9,11,0.6,0.6
2023-11-02T13:00:00,1656A,117.1437,36.1937,泰安市,监测站,臭氧1小时,68,78,85,38,47,174,174,123,123,19,31,15,14,1.0,1
2023-11-02T13:00:00,1657A,117.0885,36.2017,泰安市,人口学校,臭氧1小时,65,73,72,34,38,172,172,133,133,18,24,9,9,0.8,0.8
2023-11-02T13:00:00,1658A,117.1089,36.1758,泰安市,电力学校,颗粒物(PM10),64,78,86,40,43,166,166,117,117,10,25,12,13,0.5,0.5
2023-11-02T13:00:00,1659A,119.471,35.4209,日照市,监测站,颗粒物(PM10),62,73,88,28,45,144,137,72,72,22,49,12,13,0.9,1.1
2023-11-02T13:00:00,1660A,119.523,35.4216,日照市,市政府广场,颗粒物(PM10),65,80,79,39,37,171,146,89,89,40,42,12,11,0.8,0.8
2023-11-02T13:00:00,1661A,119.5587,35.4044,日照市,港务局,颗粒物(PM10),74,97,91,31,37,163,134,83,83,47,56,15,16,1.2,1.3
2023-11-02T13:00:00,1662A,122.1214,37.4236,威海市,华夏技校,颗粒物(PM10),56,61,69,26,45,160,160,117,115,20,29,4,5,0.6,0.7
2023-11-02T13:00:00,1663A,122.0508,37.5236,威海市,山大分校,颗粒物(PM10),52,54,74,15,39,176,155,116,116,14,26,6,8,0.5,0.7
2023-11-02T13:00:00,1664A,122.1067,37.5072,威海市,市监测站,颗粒物(PM10),51,51,75,20,34,172,160,126,126,14,29,9,10,0.7,0.9
2023-11-02T13:00:00,1666A,118.6614,37.4309,东营市,市环保局,臭氧1小时,78,92,107,19,67,186,182,103,103,17,31,14,15,0.4,0.6
2023-11-02T13:00:00,1669A,113.5824,24.7733,韶关市,市八中,颗粒物(PM10),52,54,65,32,35,129,122,46,46,18,29,28,18,0.8,0.6
2023-11-02T13:00:00,1671A,113.5917,24.7972,韶关市,园林处,,,,41,,29,121,,28,28,,27,,26,,0.6
2023-11-02T13:00:00,1672A,113.6735,24.7791,韶关市,韶关学院,颗粒物(PM10),62,73,40,33,32,138,138,54,54,17,19,43,26,1.5,0.6
2023-11-02T13:00:00,1673A,113.5971,24.6863,韶关市,曲江监测站,颗粒物(PM10),60,70,52,37,32,124,118,41,41,20,25,26,19,1.2,1.1
2023-11-02T13:00:00,1674A,116.6794,23.3667,汕头市,金平子站,,33,33,29,11,14,128,97,66,66,8,13,6,7,0.5,0.6
2023-11-02T13:00:00,1675A,116.7244,23.3633,汕头市,龙湖子站,,31,18,28,10,12,132,97,75,75,7,12,7,8,0.5,0.5
2023-11-02T13:00:00,1676A,116.7258,23.2775,汕头市,濠江子站,,29,18,28,5,14,125,92,71,71,5,9,8,8,0.5,0.5
2023-11-02T13:00:00,1677A,116.7519,23.4714,汕头市,澄海子站,,33,24,30,13,15,122,103,69,69,10,14,6,8,0.4,0.5
2023-11-02T13:00:00,1678A,116.6092,23.2539,汕头市,潮阳子站,,36,23,28,12,10,136,115,78,78,5,8,9,9,0.5,0.5
2023-11-02T13:00:00,1680A,110.3539,21.2706,湛江市,湛江影剧院,,37,33,43,16,19,156,118,104,101,7,13,6,10,0.5,0.5
2023-11-02T13:00:00,1681A,110.3928,21.2228,湛江市,市环境监测站,,36,33,42,19,29,152,115,110,98,7,11,3,5,0.4,0.5
2023-11-02T13:00:00,1682A,110.4019,21.1997,湛江市,环保局宿舍,,39,23,35,19,20,151,122,116,102,9,12,5,6,0.7,0.7
2023-11-02T13:00:00,1683A,110.4111,21.2028,湛江市,霞山游泳场,,40,25,34,18,21,152,125,112,102,4,9,6,7,0.5,0.5
2023-11-02T13:00:00,1684A,110.3316,21.2679,湛江市,麻章区环保局,,35,35,43,17,25,153,112,87,82,10,17,4,6,0.6,0.6
2023-11-02T13:00:00,1685A,110.4558,21.2567,湛江市,坡头区环保局,,,30,36,14,21,165,123,110,100,,10,5,9,0.5,0.6
2023-11-02T13:00:00,1686A,111.0286,21.4688,茂名市,电白南海,,44,44,49,19,27,173,108,83,83,12,14,10,13,0.4,0.6
2023-11-02T13:00:00,1687A,110.9294,21.6533,茂名市,茂石化七小,,31,31,55,14,29,147,95,86,86,8,15,7,11,0.4,0.5
2023-11-02T13:00:00,1688A,110.9107,21.6687,茂名市,健康路,,32,31,43,5,25,149,101,83,83,8,13,8,14,0.4,0.5
2023-11-02T13:00:00,1689A,110.8592,21.6828,茂名市,高岭,,39,36,56,27,38,153,107,79,79,9,15,8,15,0.5,0.7
2023-11-02T13:00:00,1690A,116.1231,24.3284,梅州市,梅江月梅,,40,36,36,26,17,128,127,47,47,12,28,7,7,0.5,0.5
2023-11-02T13:00:00,1691A,116.0797,24.2719,梅州市,梅县新城,,40,35,41,23,21,126,126,56,56,10,28,8,8,0.7,0.8
2023-11-02T13:00:00,1692A,116.1248,24.2654,梅州市,环境监控中心,,44,44,35,25,18,116,116,54,54,12,31,7,11,0.6,0.6
2023-11-02T13:00:00,1693A,115.3653,22.775,汕尾市,市环保局,,35,24,30,17,14,130,111,86,86,8,11,9,10,0.6,0.6
2023-11-02T13:00:00,1694A,115.3706,22.7898,汕尾市,市政府,,36,30,29,20,19,139,113,84,84,5,7,8,8,0.5,0.5
2023-11-02T13:00:00,1695A,115.3622,22.7925,汕尾市,新城中学,,37,36,36,21,16,133,117,84,84,6,9,8,8,0.7,0.6
2023-11-02T13:00:00,1696A,114.6778,23.7569,河源市,源西,,38,36,48,14,29,121,121,49,49,7,34,5,6,0.5,0.6
2023-11-02T13:00:00,1697A,114.6944,23.7586,河源市,东埔,,40,40,48,15,26,116,116,50,50,8,30,8,7,0.6,0.7
2023-11-02T13:00:00,1698A,114.6892,23.7233,河源市,老城,,42,42,41,17,22,130,130,61,61,7,21,6,6,0.6,0.5
2023-11-02T13:00:00,1699A,111.9797,21.8593,阳江市,鸳鸯湖,,45,45,37,20,24,168,100,82,82,7,14,8,8,0.6,0.6
2023-11-02T13:00:00,1701A,111.9491,21.8658,阳江市,马南垌,,38,38,41,21,22,162,108,78,78,8,17,6,5,0.6,0.6
2023-11-02T13:00:00,1702A,113.0426,23.691,清远市,环保大楼,细颗粒物(PM2.5),68,78,38,49,26,173,173,71,71,22,22,11,10,0.8,0.7
2023-11-02T13:00:00,1703A,113.0208,23.7106,清远市,凤城街办,细颗粒物(PM2.5),83,97,42,61,24,184,184,85,85,22,18,7,7,0.5,0.5
2023-11-02T13:00:00,1705A,116.6367,23.6719,潮州市,西园路,,32,24,36,15,13,130,102,62,62,6,11,5,5,0.2,0.4
2023-11-02T13:00:00,1706A,116.6447,23.6706,潮州市,档案局,,49,49,31,18,18,134,109,66,66,6,11,5,5,0.5,0.5
2023-11-02T13:00:00,1708A,116.3701,23.5345,揭阳市,新兴,,47,47,39,19,20,160,134,70,70,9,16,12,14,0.6,0.6
2023-11-02T13:00:00,1709A,116.3264,23.5443,揭阳市,西马,,46,43,43,20,19,147,146,77,77,10,16,10,10,0.5,0.6
2023-11-02T13:00:00,1710A,116.3611,23.5626,揭阳市,东兴,,44,40,42,16,15,161,139,75,75,11,17,11,11,0.7,0.6
2023-11-02T13:00:00,1711A,116.4151,23.5294,揭阳市,渔湖,,,,43,11,21,152,140,52,52,11,24,10,13,0.4,0.5
2023-11-02T13:00:00,1712A,112.0392,22.9169,云浮市,新市府,臭氧1小时,75,70,39,38,26,180,180,79,79,15,12,7,4,0.5,0.4
2023-11-02T13:00:00,1714A,112.0539,22.9539,云浮市,牧羊,臭氧1小时,89,75,63,40,30,191,191,68,68,17,34,11,14,0.7,0.7
2023-11-02T13:00:00,1715A,102.575,24.3711,玉溪市,东风水库,,22,19,21,4,11,79,70,28,28,5,13,7,8,0.6,0.8
2023-11-02T13:00:00,1718A,115.4208,35.2464,菏泽市,气象局,颗粒物(PM10),80,109,98,40,40,172,172,117,117,18,29,8,13,0.5,0.5
2023-11-02T13:00:00,1719A,115.4747,35.2375,菏泽市,市政协,颗粒物(PM10),77,103,85,41,40,166,166,117,117,16,23,10,12,0.3,0.3
2023-11-02T13:00:00,1721A,113.3819,40.1097,大同市,果树场,颗粒物(PM10),190,329,196,65,51,78,78,54,54,10,30,7,13,0.3,0.4
2023-11-02T13:00:00,1723A,113.2994,40.0758,大同市,云冈宾馆,颗粒物(PM10),175,300,118,65,34,96,84,64,64,8,43,7,20,0.4,0.8
2023-11-02T13:00:00,1724A,113.3444,40.0917,大同市,大同大学,颗粒物(PM10),174,298,115,58,36,102,86,72,72,10,44,8,22,0.3,0.6
2023-11-02T13:00:00,1725A,113.2661,40.1269,大同市,安家小村,颗粒物(PM10),185,319,109,70,30,104,90,85,84,6,32,11,21,0.2,0.6
2023-11-02T13:00:00,1726A,113.2711,40.0844,大同市,教育学院,颗粒物(PM10),242,379,127,77,44,97,86,67,67,9,46,5,23,0.3,0.6
2023-11-02T13:00:00,1727A,113.1147,36.1547,长治市,清华站,颗粒物(PM10),56,61,57,29,28,127,127,53,53,20,33,14,11,0.7,0.7
2023-11-02T13:00:00,1728A,113.1031,36.1989,长治市,监测站,颗粒物(PM10),52,53,54,29,34,125,125,39,39,21,43,14,11,1.1,1.1
2023-11-02T13:00:00,1730A,113.0886,36.2125,长治市,审计局,,43,43,52,29,30,125,125,40,40,20,41,17,15,0.8,0.8
2023-11-02T13:00:00,1731A,113.0844,36.1856,长治市,长治八中,颗粒物(PM10),55,60,62,30,25,123,123,38,38,19,37,18,15,0.8,0.8
2023-11-02T13:00:00,1733A,111.5531,36.0783,临汾市,临钢医院,颗粒物(PM10),71,92,110,25,53,153,92,29,29,20,37,12,10,1.0,1.3
2023-11-02T13:00:00,1734A,111.5028,36.0714,临汾市,技工学校,颗粒物(PM10),71,91,122,34,67,162,95,31,31,22,56,10,11,0.9,1.5
2023-11-02T13:00:00,1736A,111.5018,36.0855,临汾市,市委,颗粒物(PM10),69,87,126,29,70,159,94,31,31,26,55,13,13,0.8,1.2
2023-11-02T13:00:00,1738A,113.5758,37.8572,阳泉市,市中心,颗粒物(PM10),53,55,95,22,43,137,112,44,44,26,70,16,15,0.7,0.9
2023-11-02T13:00:00,1739A,113.4894,37.8731,阳泉市,赛鱼,颗粒物(PM10),58,66,66,29,31,134,110,69,69,24,71,18,15,0.7,0.8
2023-11-02T13:00:00,1740A,113.5819,37.8486,阳泉市,南庄,颗粒物(PM10),61,71,125,21,51,138,115,49,49,27,64,18,16,0.7,1
2023-11-02T13:00:00,1742A,113.5614,37.8703,阳泉市,平坦,颗粒物(PM10),58,66,98,25,43,132,110,50,50,22,64,16,15,0.8,1
2023-11-02T13:00:00,1743A,113.5158,37.8392,阳泉市,大阳泉,,50,50,47,20,32,140,117,100,100,25,30,16,14,0.7,0.6
2023-11-02T13:00:00,1744A,118.9233,42.2816,赤峰市,松山一中,颗粒物(PM10),146,242,119,28,37,89,80,67,67,18,51,9,30,0.5,1.4
2023-11-02T13:00:00,1745A,118.9576,42.2728,赤峰市,哈达街,颗粒物(PM10),132,214,126,40,60,83,75,63,63,22,56,11,46,0.5,1.2
2023-11-02T13:00:00,1746A,118.8788,42.2554,赤峰市,天义路,颗粒物(PM10),143,236,86,28,38,96,86,68,68,13,48,5,19,0.7,1.4
2023-11-02T13:00:00,1748A,123.044,41.1196,鞍山市,深沟寺,细颗粒物(PM2.5),77,92,98,56,60,154,154,118,118,15,32,10,10,0.9,0.9
2023-11-02T13:00:00,1749A,123.011,41.0931,鞍山市,太阳城,颗粒物(PM10),75,99,101,52,52,154,154,105,105,19,35,14,13,1.0,1
2023-11-02T13:00:00,1750A,123.0485,41.1442,鞍山市,太平,颗粒物(PM10),81,112,130,57,62,155,155,95,95,19,47,15,16,0.8,1
2023-11-02T13:00:00,1751A,122.9642,41.0971,鞍山市,铁西三道街,颗粒物(PM10),93,135,148,61,68,150,150,74,74,17,51,12,17,0.9,1.3
2023-11-02T13:00:00,1752A,122.9341,41.0833,鞍山市,铁西工业园区,细颗粒物(PM2.5),95,124,136,71,71,150,150,71,71,17,51,14,17,0.9,1.5
2023-11-02T13:00:00,1753A,123.022,41.0821,鞍山市,明达新区,"颗粒物(PM10),细颗粒物(PM2.5)",74,97,93,54,51,144,144,103,103,17,37,12,13,0.6,0.6
2023-11-02T13:00:00,1754A,123.1289,41.0228,鞍山市,千山,,,,119,,87,77,,,,,10,,10,,1.2
2023-11-02T13:00:00,1755A,123.7977,41.8491,抚顺市,望花区,细颗粒物(PM2.5),79,96,70,58,51,143,143,78,78,17,32,15,13,0.6,0.6
2023-11-02T13:00:00,1756A,123.9161,41.8822,抚顺市,顺城区,"颗粒物(PM10),细颗粒物(PM2.5)",69,87,60,50,39,146,146,74,74,16,30,9,6,0.8,0.6
2023-11-02T13:00:00,1757A,124.0436,41.8611,抚顺市,东洲区,,49,49,51,32,39,154,154,90,90,10,18,5,5,0.8,0.7
2023-11-02T13:00:00,1758A,123.9247,41.8642,抚顺市,新抚区,细颗粒物(PM2.5),84,84,55,62,54,138,138,63,63,14,30,10,9,0.8,0.7
2023-11-02T13:00:00,1759A,124.0972,41.8961,抚顺市,大伙房水库,,47,47,46,25,32,147,147,104,104,7,13,8,8,0.7,0.5
2023-11-02T13:00:00,1760A,123.7086,41.8391,抚顺市,沈抚新城,细颗粒物(PM2.5),92,117,85,68,70,154,154,68,68,14,38,12,19,0.7,1.2
2023-11-02T13:00:00,1761A,123.8275,41.3064,本溪市,大峪,颗粒物(PM10),56,61,80,37,34,142,140,126,126,13,28,8,9,1.0,1
2023-11-02T13:00:00,1762A,123.7567,41.3325,本溪市,溪湖,颗粒物(PM10),64,77,112,41,50,140,137,135,135,15,37,13,15,0.9,1.1
2023-11-02T13:00:00,1763A,123.7169,41.3094,本溪市,彩屯,细颗粒物(PM2.5),79,96,120,58,61,112,105,94,94,32,46,29,18,2.5,2.1
2023-11-02T13:00:00,1764A,123.7669,41.2864,本溪市,东明,细颗粒物(PM2.5),55,38,82,39,49,148,136,141,141,17,41,8,11,0.9,0.9
2023-11-02T13:00:00,1765A,123.7992,41.2664,本溪市,新立屯,细颗粒物(PM2.5),59,57,75,42,42,143,135,138,138,13,31,9,12,1.0,0.9
2023-11-02T13:00:00,1766A,123.8142,41.3472,本溪市,威宁,细颗粒物(PM2.5),59,47,104,42,45,134,133,100,100,13,36,8,7,0.7,0.7
2023-11-02T13:00:00,1767A,121.1115,41.0879,锦州市,南山,细颗粒物(PM2.5),158,130,77,120,56,95,95,41,41,33,36,11,24,0.9,0.7
2023-11-02T13:00:00,1768A,121.0533,40.8434,锦州市,开发区,细颗粒物(PM2.5),179,185,86,135,49,114,114,47,47,23,41,14,24,1.1,0.7
2023-11-02T13:00:00,1769A,121.1836,41.1119,锦州市,百股街道,,,113,65,,39,99,98,51,51,,33,13,18,1.1,0.8
2023-11-02T13:00:00,1770A,121.1178,41.1222,锦州市,天安街道,细颗粒物(PM2.5),134,134,82,102,51,95,95,44,44,31,39,11,23,1.0,0.8
2023-11-02T13:00:00,1771A,121.1303,41.1386,锦州市,北湖公园,细颗粒物(PM2.5),138,118,73,105,57,95,95,48,48,29,32,10,19,0.9,0.7
2023-11-02T13:00:00,1772A,126.54,43.8622,吉林市,哈达湾,细颗粒物(PM2.5),84,75,70,62,53,137,137,82,82,14,30,7,7,0.8,0.8
2023-11-02T13:00:00,1773A,126.5844,43.8358,吉林市,东局子,细颗粒物(PM2.5),84,84,75,62,58,132,132,82,82,16,28,7,7,0.8,0.8
2023-11-02T13:00:00,1774A,126.5052,43.8245,吉林市,电力学院,细颗粒物(PM2.5),82,81,90,60,76,125,125,73,73,13,31,10,9,0.8,1
2023-11-02T13:00:00,1775A,126.6133,43.8972,吉林市,江北,细颗粒物(PM2.5),82,89,79,60,59,128,128,71,71,16,27,11,9,0.9,1.2
2023-11-02T13:00:00,1776A,126.555,43.8306,吉林市,江南公园,细颗粒物(PM2.5),99,82,75,74,64,133,133,78,78,12,28,10,8,0.8,0.8
2023-11-02T13:00:00,1778A,126.7061,43.7133,吉林市,丰满,细颗粒物(PM2.5),89,78,55,66,45,134,134,,,7,5,10,9,0.9,0.8
2023-11-02T13:00:00,1779A,123.9305,47.3636,齐齐哈尔市,安居小区,细颗粒物(PM2.5),84,92,66,62,47,57,34,46,27,20,22,5,6,0.7,0.4
2023-11-02T13:00:00,1780A,123.9488,47.3386,齐齐哈尔市,中心广场,细颗粒物(PM2.5),103,123,78,77,54,58,28,44,24,24,21,3,4,0.9,0.7
2023-11-02T13:00:00,1781A,123.9483,47.3227,齐齐哈尔市,农牧车辆厂,细颗粒物(PM2.5),89,80,63,66,37,57,28,44,24,24,19,7,7,0.8,0.5
2023-11-02T13:00:00,1783A,123.945,47.2988,齐齐哈尔市,市环境监测站,细颗粒物(PM2.5),109,105,63,82,49,58,30,46,26,24,18,4,4,0.7,0.4
2023-11-02T13:00:00,1784A,129.61,44.561,牡丹江市,环保大楼,细颗粒物(PM2.5),52,41,98,36,76,63,63,26,26,12,33,7,7,0.5,0.7
2023-11-02T13:00:00,1785A,129.6115,44.5782,牡丹江市,文化广场,,41,41,103,27,80,58,58,22,22,13,33,7,7,0.4,0.7
2023-11-02T13:00:00,1786A,129.5904,44.5963,牡丹江市,第一医院,,50,39,93,35,86,58,58,24,24,12,27,8,9,0.5,0.7
2023-11-02T13:00:00,1787A,129.6364,44.6075,牡丹江市,机车工厂,,42,42,105,27,77,54,54,22,22,10,26,7,8,0.6,0.8
2023-11-02T13:00:00,1788A,129.6386,44.5462,牡丹江市,第一中学,,36,27,93,25,79,63,63,28,28,12,27,6,7,0.5,0.7
2023-11-02T13:00:00,1789A,124.81117,46.03138,大庆市,大同区,,,63,79,,55,59,29,39,31,12,20,6,7,0.5,0.5
2023-11-02T13:00:00,1790A,125.129,46.533,大庆市,龙凤区,颗粒物(PM10),51,52,59,34,42,52,28,34,28,21,28,6,10,0.7,0.6
2023-11-02T13:00:00,1791A,124.902,46.408,大庆市,红岗区,颗粒物(PM10),54,57,52,37,36,59,32,43,34,18,19,5,5,0.4,0.3
2023-11-02T13:00:00,1792A,125.153,46.586,大庆市,萨尔图区,细颗粒物(PM2.5),65,74,68,47,49,48,29,35,29,24,28,6,8,0.4,0.4
2023-11-02T13:00:00,1793A,124.9042,46.6215,大庆市,让胡路区,细颗粒物(PM2.5),55,55,58,39,39,54,32,40,30,16,24,4,6,0.6,0.6
2023-11-02T13:00:00,1794A,118.3606,31.3519,芜湖市,监测站,,,39,66,15,36,142,111,74,74,,49,,9,0.6,0.6
2023-11-02T13:00:00,1795A,118.3714,31.4134,芜湖市,科创中心,,41,38,73,18,44,157,129,60,60,21,60,9,8,0.5,0.6
2023-11-02T13:00:00,1796A,118.3673,31.3131,芜湖市,四水厂,,41,23,66,17,34,151,130,,,18,38,7,7,0.4,0.5
2023-11-02T13:00:00,1798A,118.5092,31.6837,马鞍山市,湖东路四小,,40,19,57,14,31,153,128,80,80,12,31,10,11,0.7,0.8
2023-11-02T13:00:00,1799A,118.5024,31.6449,马鞍山市,开发区,,41,33,61,16,40,153,129,66,66,16,43,12,12,0.6,0.9
2023-11-02T13:00:00,1800A,118.5228,31.7231,马鞍山市,慈湖,,47,47,57,20,34,144,128,81,81,22,40,9,12,0.7,0.7
2023-11-02T13:00:00,1802A,118.6245,31.7241,马鞍山市,濮塘,,41,39,49,13,26,147,131,92,92,10,18,8,11,0.6,0.6
2023-11-02T13:00:00,1803A,115.9872,29.6815,九江市,十里,,44,44,54,20,30,167,134,58,58,14,43,10,8,0.5,0.8
2023-11-02T13:00:00,1804A,115.9584,29.7046,九江市,茅山头,,43,42,44,27,30,158,136,69,69,15,39,12,12,0.7,0.8
2023-11-02T13:00:00,1805A,115.9877,29.7295,九江市,西园,颗粒物(PM10),52,54,54,22,28,148,84,43,43,55,52,11,10,0.8,0.8
2023-11-02T13:00:00,1806A,116.0172,29.6547,九江市,五七二七厂,,41,33,31,21,20,159,131,87,87,16,16,14,11,0.7,0.6
2023-11-02T13:00:00,1808A,115.9114,29.6038,九江市,综合工业园,,42,41,49,22,30,145,132,75,75,20,38,14,13,0.8,0.7
2023-11-02T13:00:00,1809A,116.0721,29.7535,九江市,石化总厂,,,49,62,25,31,147,,63,63,,37,,15,,0.5
2023-11-02T13:00:00,1810A,115.9773,29.5698,九江市,庐山气象台,,38,23,22,19,19,141,121,120,113,4,5,7,6,0.6,0.6
2023-11-02T13:00:00,1812A,112.3931,34.6516,洛阳市,市委党校,颗粒物(PM10),56,61,68,33,47,134,116,46,46,14,27,8,9,0.4,0.5
2023-11-02T13:00:00,1814A,112.4657,34.6871,洛阳市,豫西宾馆,颗粒物(PM10),76,102,84,30,43,118,112,37,37,14,40,7,6,0.5,0.7
2023-11-02T13:00:00,1815A,112.494,34.6886,洛阳市,河南林校,颗粒物(PM10),67,84,68,31,39,110,108,40,40,15,40,6,5,0.4,0.6
2023-11-02T13:00:00,1816A,112.3844,34.623,洛阳市,开发区管委会,颗粒物(PM10),54,58,65,26,42,132,119,47,47,9,23,3,4,0.4,0.5
2023-11-02T13:00:00,1817A,112.4267,34.6258,洛阳市,市委新办公区,颗粒物(PM10),57,63,68,25,43,132,123,51,51,12,24,5,5,0.4,0.5
2023-11-02T13:00:00,1818A,114.4839,36.0621,安阳市,棉研所,颗粒物(PM10),109,168,281,69,120,105,105,59,59,39,35,18,10,1.1,1.4
2023-11-02T13:00:00,1819A,114.3551,36.1017,安阳市,红庙街,细颗粒物(PM2.5),222,250,182,172,118,170,130,67,67,52,46,15,9,1.9,1.5
2023-11-02T13:00:00,1820A,114.361,36.0681,安阳市,银杏小区,细颗粒物(PM2.5),159,196,151,121,106,156,113,60,60,45,43,16,9,1.4,1
2023-11-02T13:00:00,1824A,114.3389,34.7781,开封市,肿瘤医院,,,78,88,52,48,151,151,87,87,,28,7,4,0.9,0.8
2023-11-02T13:00:00,1826A,114.2885,34.7965,开封市,世纪星幼儿园,颗粒物(PM10),65,80,84,39,42,144,144,86,86,15,33,10,9,0.9,0.8
2023-11-02T13:00:00,1828A,113.227,35.2125,焦作市,市环保局,细颗粒物(PM2.5),60,65,72,43,37,124,103,37,37,26,40,16,15,1.0,0.6
2023-11-02T13:00:00,1830A,113.1992,35.2590,焦作市,影视城,,,,,,,,,,,,,,,,
2023-11-02T13:00:00,1832A,113.3257,33.742,平顶山市,新华旅馆,颗粒物(PM10),63,76,67,32,44,138,138,125,121,12,16,8,8,0.7,0.7
2023-11-02T13:00:00,1833A,113.2919,33.737,平顶山市,规划设计院,,,,59,,40,132,,123,117,,20,10,9,0.5,0.5
2023-11-02T13:00:00,1834A,113.182,33.774,平顶山市,平顶山工学院,颗粒物(PM10),57,64,57,36,33,147,147,122,121,13,14,7,7,0.8,0.7
2023-11-02T13:00:00,1835A,111.1922,34.7752,三门峡市,市政府,颗粒物(PM10),70,89,58,31,27,108,88,22,22,25,51,11,9,0.7,0.8
2023-11-02T13:00:00,1836A,111.1587,34.7942,三门峡市,开发区,颗粒物(PM10),60,70,70,28,28,106,93,25,25,15,45,11,10,0.6,0.7
2023-11-02T13:00:00,1838A,111.143,34.7955,三门峡市,风景区,细颗粒物(PM2.5),74,94,80,54,53,103,103,,,13,29,13,12,0.7,0.7
2023-11-02T13:00:00,1840A,111.2992,30.6981,宜昌市,白龙岗,,39,39,39,19,23,117,78,39,39,34,33,7,6,0.5,0.5
2023-11-02T13:00:00,1841A,111.3549,30.6465,宜昌市,伍家岗,,26,25,43,17,31,141,81,33,33,32,41,6,6,0.4,0.6
2023-11-02T13:00:00,1842A,111.2628,30.6961,宜昌市,点军区,,,,44,,36,123,82,36,36,25,27,,8,0.6,0.7
2023-11-02T13:00:00,1843A,111.3275,30.7819,宜昌市,夷陵区,,44,44,48,22,27,126,86,37,37,31,33,8,8,0.4,0.5
2023-11-02T13:00:00,1844A,112.2494,30.3197,荆州市,市图书馆,,45,45,41,23,55,144,112,77,70,15,21,10,12,0.6,0.8
2023-11-02T13:00:00,1845A,112.2008,30.3544,荆州市,市委党校,颗粒物(PM10),56,62,79,34,60,139,114,77,73,14,24,9,13,0.5,0.7
2023-11-02T13:00:00,1847A,113.1094,29.3578,岳阳市,南湖风景区,,43,39,50,26,37,172,136,101,101,10,25,8,9,0.8,0.9
2023-11-02T13:00:00,1848A,113.1493,29.4251,岳阳市,城陵矶,,43,43,57,25,35,161,126,102,102,14,34,14,14,0.5,0.6
2023-11-02T13:00:00,1849A,113.1497,29.3575,岳阳市,开发区,,,,,,,,,,,,,,,,
2023-11-02T13:00:00,1850A,113.2621,29.4758,岳阳市,云溪区,,42,36,42,24,30,156,132,114,114,22,24,11,10,0.5,0.6
2023-11-02T13:00:00,1851A,112.9943,29.4402,岳阳市,君山区,,44,39,51,22,38,175,138,97,97,20,30,8,10,0.6,0.6
2023-11-02T13:00:00,1852A,113.2117,29.355,岳阳市,金凤水库,,46,43,50,23,33,173,145,90,90,6,23,7,8,0.6,0.7
2023-11-02T13:00:00,1854A,111.6975,28.9703,常德市,市二中,,42,42,51,26,35,130,110,54,54,9,27,8,9,0.6,0.7
2023-11-02T13:00:00,1857A,111.7158,29.1456,常德市,白鹤山,,50,50,63,26,34,114,110,68,68,4,10,3,5,0.4,0.5
2023-11-02T13:00:00,1858A,110.5319,29.1217,张家界市,永定新区,,38,38,34,23,22,102,98,44,44,7,14,7,6,0.2,0.3
2023-11-02T13:00:00,1859A,110.4697,29.1242,张家界市,电业局,,47,47,45,16,20,104,81,30,30,14,24,4,4,0.4,0.4
2023-11-02T13:00:00,1860A,110.5594,29.3547,张家界市,未央路,,31,26,23,20,16,99,99,49,49,4,12,5,3,0.2,0.2
2023-11-02T13:00:00,1861A,110.4417,29.315,张家界市,袁家界,,30,23,17,21,13,96,95,88,88,3,6,7,7,0.5,0.4
2023-11-02T13:00:00,1862A,110.4144,25.3167,桂林市,电子科大尧山校区,,39,30,42,22,28,123,123,56,56,4,5,3,3,0.6,0.6
2023-11-02T13:00:00,1863A,110.2819,25.2697,桂林市,监测站,,,56,56,36,33,135,,46,46,,19,8,8,0.5,0.5
2023-11-02T13:00:00,1864A,110.3089,25.2708,桂林市,龙隐路小学,细颗粒物(PM2.5),54,47,51,38,39,130,127,53,53,10,24,9,11,0.5,0.6
2023-11-02T13:00:00,1865A,110.2869,25.2178,桂林市,八中,颗粒物(PM10),51,51,55,28,36,130,127,48,48,7,19,6,5,0.6,0.7
2023-11-02T13:00:00,1866A,109.2262,21.588,北海市,牛尾岭水库,,35,35,40,15,31,109,104,68,68,10,11,8,6,0.6,0.6
2023-11-02T13:00:00,1867A,109.1436,21.4086,北海市,海滩公园,,42,39,41,17,23,212,133,100,100,6,12,8,9,0.6,0.6
2023-11-02T13:00:00,1868A,109.0981,21.4661,北海市,新市环保局,,34,30,43,14,32,195,106,90,90,7,16,7,9,0.6,0.8
2023-11-02T13:00:00,1869A,109.1778,21.5233,北海市,北海工业园,,37,37,54,10,34,190,99,79,79,4,18,7,9,0.7,0.8
2023-11-02T13:00:00,1870A,109.4856,24.3895,柳州市,柳东小学,颗粒物(PM10),53,56,50,36,38,152,152,60,60,15,21,11,11,0.6,0.6
2023-11-02T13:00:00,1871A,109.4157,24.3277,柳州市,环保监测站,细颗粒物(PM2.5),77,86,75,56,48,145,145,51,51,18,38,10,12,0.8,1
2023-11-02T13:00:00,1872A,109.389,24.341,柳州市,河西水厂,颗粒物(PM10),67,84,87,45,47,152,150,50,50,14,40,12,15,1.1,1.5
2023-11-02T13:00:00,1873A,109.4311,24.2921,柳州市,市四中,颗粒物(PM10),57,63,68,31,41,150,150,51,51,17,43,8,11,0.8,1.1
2023-11-02T13:00:00,1874A,109.4006,24.3631,柳州市,市九中,,,62,88,39,50,148,,39,39,18,33,9,11,,1.2
2023-11-02T13:00:00,1875A,109.4958,24.3134,柳州市,古亭山,颗粒物(PM10),59,67,48,33,32,152,152,51,51,13,37,9,9,0.5,0.5
2023-11-02T13:00:00,1876A,109.5078,18.2489,三亚市,河东子站,,,14,17,11,8,116,68,61,57,5,6,,4,0.4,0.4
2023-11-02T13:00:00,1877A,109.4964,18.2681,三亚市,河西子站,,22,19,17,8,8,110,70,53,51,3,4,2,2,0.4,0.4
2023-11-02T13:00:00,1878A,104.7778,31.4741,绵阳市,富乐山,细颗粒物(PM2.5),83,83,95,61,73,98,32,10,10,36,29,7,7,0.9,0.8
2023-11-02T13:00:00,1879A,104.7563,31.4535,绵阳市,市人大,细颗粒物(PM2.5),79,93,107,58,77,95,35,10,10,42,45,9,9,1.0,1.1
2023-11-02T13:00:00,1880A,104.6697,31.4668,绵阳市,高新区自来水公司,颗粒物(PM10),68,85,100,40,53,106,66,22,22,27,39,8,8,0.6,0.8
2023-11-02T13:00:00,1881A,104.7287,31.5075,绵阳市,三水厂,细颗粒物(PM2.5),92,110,121,68,89,83,58,11,11,33,44,5,6,0.8,1
2023-11-02T13:00:00,1882A,104.563,28.793,宜宾市,石马中学,,,,,,,,,,,,,,,,
2023-11-02T13:00:00,1883A,104.6201,28.7728,宜宾市,市委,细颗粒物(PM2.5),104,99,81,78,62,132,52,36,36,25,29,11,10,0.8,0.7
2023-11-02T13:00:00,1884A,104.6055,28.793,宜宾市,宜宾四中,细颗粒物(PM2.5),109,98,84,82,68,118,51,39,38,25,32,14,10,0.7,0.7
2023-11-02T13:00:00,1885A,104.639,28.7562,宜宾市,市政府,细颗粒物(PM2.5),103,97,83,77,66,133,57,42,42,20,30,10,10,0.7,0.7
2023-11-02T13:00:00,1886A,104.5742,28.7199,宜宾市,黄金嘴,细颗粒物(PM2.5),92,86,74,68,56,130,65,38,38,15,26,11,10,0.7,0.7
2023-11-02T13:00:00,1888A,101.6891,26.571,攀枝花市,弄弄坪,,,60,43,33,26,121,64,26,26,55,23,,22,,1.3
2023-11-02T13:00:00,1889A,101.5769,26.5928,攀枝花市,河门口,,27,26,38,16,22,132,84,34,34,17,23,15,16,0.7,0.9
2023-11-02T13:00:00,1890A,101.7169,26.585,攀枝花市,炳草岗,颗粒物(PM10),53,55,65,23,35,132,79,24,24,34,47,47,32,1.8,1.4
2023-11-02T13:00:00,1891A,101.7369,26.5008,攀枝花市,仁和,,30,15,28,15,20,121,95,38,38,16,20,21,14,1.1,0.8
2023-11-02T13:00:00,1893A,105.4324,28.9634,泸州市,九狮山,细颗粒物(PM2.5),65,55,55,47,39,121,81,35,35,17,16,10,6,0.5,0.5
2023-11-02T13:00:00,1894A,105.4427,28.9063,泸州市,小市上码头,细颗粒物(PM2.5),82,81,83,60,60,125,82,39,39,18,23,11,10,0.6,0.6
2023-11-02T13:00:00,1895A,105.4241,28.8573,泸州市,兰田宪桥,细颗粒物(PM2.5),83,87,87,61,64,126,80,35,35,17,21,10,9,0.7,0.7
2023-11-02T13:00:00,1896A,105.4379,28.8833,泸州市,市环监站,细颗粒物(PM2.5),73,77,76,53,52,104,67,34,32,23,30,7,5,0.9,0.9
2023-11-02T13:00:00,1901A,104.4239,31.1208,德阳市,东山公园,颗粒物(PM10),79,108,107,47,54,97,60,28,28,31,29,3,2,0.8,0.8
2023-11-02T13:00:00,1902A,104.3826,31.1317,德阳市,西小区,细颗粒物(PM2.5),94,105,110,70,76,83,61,22,22,21,43,13,3,0.8,0.9
2023-11-02T13:00:00,1904A,104.3553,31.1091,德阳市,耐火材料厂,颗粒物(PM10),86,122,137,62,76,87,61,20,20,20,41,8,3,0.7,0.8
2023-11-02T13:00:00,1905A,106.056,30.8064,南充市,西山风景区,,45,33,39,31,35,119,42,52,37,22,28,6,6,0.5,0.4
2023-11-02T13:00:00,1906A,106.0789,30.8023,南充市,南充市委,颗粒物(PM10),59,68,61,41,45,107,44,19,19,22,30,7,5,0.5,0.5
2023-11-02T13:00:00,1907A,106.1031,30.8217,南充市,南充炼油厂,颗粒物(PM10),59,68,66,29,33,106,43,25,21,16,28,7,7,0.6,0.5
2023-11-02T13:00:00,1908A,106.1064,30.7856,南充市,高坪区监测站,颗粒物(PM10),70,89,66,46,44,105,41,24,24,23,32,6,7,0.4,0.4
2023-11-02T13:00:00,1909A,106.0642,30.7636,南充市,嘉陵区环保局,细颗粒物(PM2.5),58,40,60,41,43,107,41,28,24,20,35,7,5,0.4,0.5
2023-11-02T13:00:00,1910A,106.1087,30.8388,南充市,市环境监测站,细颗粒物(PM2.5),57,52,57,40,41,110,48,23,21,16,25,8,7,0.5,0.5
2023-11-02T13:00:00,1911A,106.9222,27.6869,遵义市,丁字口,,34,34,36,20,26,115,91,39,39,20,33,14,8,0.5,0.7
2023-11-02T13:00:00,1912A,106.9242,27.7019,遵义市,凤凰山,,31,27,34,21,28,124,99,75,67,11,13,14,11,0.6,0.5
2023-11-02T13:00:00,1913A,106.8906,27.6486,遵义市,忠庄,,41,41,49,9,31,119,85,33,33,17,24,9,4,0.5,0.6
2023-11-02T13:00:00,1914A,106.9231,27.6506,遵义市,舟水桥,,,36,52,8,25,122,92,28,28,,18,10,4,,0.7
2023-11-02T13:00:00,1915A,106.9178,27.72,遵义市,干田坝,,33,30,39,19,30,127,105,36,36,10,29,12,7,0.6,0.6
2023-11-02T13:00:00,1916A,103.7897,25.5035,曲靖市,环境监测站,,27,14,27,11,14,118,85,53,53,8,16,3,2,0.4,0.4
2023-11-02T13:00:00,1917A,103.8,25.5364,曲靖市,烟厂办公区,,,18,30,10,18,116,82,44,44,7,14,,4,0.5,0.6
2023-11-02T13:00:00,1918A,108.7197,34.3956,咸阳市,气象站,,,,,,,,,,,,,,,,
2023-11-02T13:00:00,1919A,108.673,34.3155,咸阳市,实验中学,颗粒物(PM10),68,86,92,14,39,103,103,30,30,12,49,5,4,0.3,0.8
2023-11-02T13:00:00,1920A,108.7233,34.3617,咸阳市,师范学院,,,,79,16,37,69,,24,24,12,48,8,6,,0.7
2023-11-02T13:00:00,1922A,109.0656,35.0994,铜川市,党校,颗粒物(PM10),64,77,83,13,31,99,99,48,48,10,50,9,8,0.6,0.9
2023-11-02T13:00:00,1923A,109.0697,35.0697,铜川市,王益区政府,颗粒物(PM10),64,77,72,22,36,103,98,43,43,11,36,4,5,0.3,0.7
2023-11-02T13:00:00,1924A,108.9344,34.9058,铜川市,新区管委会,颗粒物(PM10),67,84,57,20,26,119,92,55,55,20,31,6,6,0.2,0.4
2023-11-02T13:00:00,1926A,109.4131,36.6275,延安市,枣园,颗粒物(PM10),97,144,52,21,19,116,97,38,38,6,32,9,7,0.4,0.5
2023-11-02T13:00:00,1927A,109.4761,36.6028,延安市,延大医附院,颗粒物(PM10),111,172,66,19,20,108,93,32,32,5,37,5,3,0.3,0.6
2023-11-02T13:00:00,1929A,109.5056,36.6106,延安市,百米大道,颗粒物(PM10),102,153,66,16,20,104,94,33,33,10,52,6,6,0.2,0.7
2023-11-02T13:00:00,1930A,107.185,34.3063,宝鸡市,庙沟村,颗粒物(PM10),71,92,27,18,13,92,88,68,68,2,5,9,8,0.2,0.3
2023-11-02T13:00:00,1931A,107.0708,34.3017,宝鸡市,竹园沟,颗粒物(PM10),80,109,23,20,14,106,102,69,69,7,12,8,7,0.3,0.4
2023-11-02T13:00:00,1932A,107.1906,34.3672,宝鸡市,三陆医院,颗粒物(PM10),82,113,50,20,22,102,94,47,47,20,47,9,9,0.3,0.6
2023-11-02T13:00:00,1933A,107.1431,34.3547,宝鸡市,监测站,颗粒物(PM10),83,116,36,23,20,101,95,55,45,5,24,8,7,0.3,0.5
2023-11-02T13:00:00,1934A,107.1186,34.3739,宝鸡市,技工学校,颗粒物(PM10),80,110,33,14,18,100,98,74,68,9,20,8,7,0.3,0.4
2023-11-02T13:00:00,1935A,107.3906,34.3528,宝鸡市,陈仓区环保局家属楼,颗粒物(PM10),84,117,73,23,51,102,93,40,40,8,45,10,10,0.4,0.7
2023-11-02T13:00:00,1936A,107.2058,34.3497,宝鸡市,文理学院,颗粒物(PM10),78,106,47,21,21,101,95,52,52,12,42,6,6,0.3,0.5
2023-11-02T13:00:00,1937A,107.2386,34.3622,宝鸡市,三迪小学,颗粒物(PM10),74,97,53,21,26,96,96,39,39,9,51,7,7,0.3,0.6
2023-11-02T13:00:00,1938A,109.5293,34.5101,渭南市,农科所,,,,,,,,,,,,,,,,
2023-11-02T13:00:00,1939A,109.4974,34.4877,渭南市,日报社,颗粒物(PM10),62,73,69,21,38,109,72,30,30,33,54,6,7,0.4,0.5
2023-11-02T13:00:00,1940A,109.4636,34.493,渭南市,体育馆,颗粒物(PM10),62,73,74,27,38,114,74,24,24,31,58,8,7,0.5,0.6
2023-11-02T13:00:00,1941A,109.4259,34.5023,渭南市,高新一小,颗粒物(PM10),57,63,88,24,50,114,69,22,22,28,52,6,6,0.6,0.6
2023-11-02T13:00:00,1944A,102.1692,38.5167,金昌市,天庆家园,颗粒物(PM10),62,73,124,15,16,102,89,85,78,18,10,24,15,0.7,0.5
2023-11-02T13:00:00,1945A,98.2908,39.7711,嘉峪关市,气象局,颗粒物(PM10),79,107,113,24,21,94,83,70,66,17,17,6,21,0.4,0.5
2023-11-02T13:00:00,1947A,106.3394,38.817,石嘴山市,沙湖旅游区,颗粒物(PM10),64,77,185,20,43,103,97,71,71,6,58,6,16,0.2,0.5
2023-11-02T13:00:00,1948A,106.3668,39.0145,石嘴山市,大武口朝阳西街,,50,50,142,5,42,111,92,98,92,4,24,8,28,0.1,0.5
2023-11-02T13:00:00,1949A,106.7704,39.2282,石嘴山市,惠农南大街,颗粒物(PM10),89,128,216,4,50,114,84,81,80,8,32,5,30,0.3,1.1
2023-11-02T13:00:00,1950A,106.7099,39.1325,石嘴山市,红果子镇惠新街,,34,34,159,4,45,118,88,92,88,9,31,8,33,0.2,0.6
2023-11-02T13:00:00,1951A,84.895,45.6094,克拉玛依市,长征新村,,20,9,5,10,6,61,61,55,53,2,4,9,9,0.2,0.2
2023-11-02T13:00:00,1952A,84.8988,45.5893,克拉玛依市,南林小区,,20,3,6,9,6,64,62,56,56,4,5,4,4,0.3,0.3
2023-11-02T13:00:00,1954A,84.905,44.3396,克拉玛依市,独山子区,,18,10,21,11,11,76,55,54,54,10,15,5,6,0.3,0.3
2023-11-02T13:00:00,1955A,85.6979,46.098,克拉玛依市,乌尔禾区商贸楼,,16,6,7,1,7,64,50,58,55,4,3,7,8,0.2,0.2
2023-11-02T13:00:00,1956A,86.1472,41.7538,巴音郭楞州,孔雀公园,颗粒物(PM10),82,114,145,27,27,86,44,21,21,36,51,3,2,0.5,0.5
2023-11-02T13:00:00,1957A,86.1972,41.7166,巴音郭楞州,棉纺厂,颗粒物(PM10),58,66,179,5,41,92,53,28,28,22,34,4,2,0.3,0.4
2023-11-02T13:00:00,1958A,86.2357,41.7173,巴音郭楞州,经济开发区,,46,46,162,20,33,96,62,59,54,12,10,3,2,0.3,0.3
2023-11-02T13:00:00,1961A,117.532,36.6868,济南市,东山小学,臭氧1小时,60,68,78,24,34,168,168,144,144,14,20,8,9,0.3,0.4
2023-11-02T13:00:00,1966A,120.0405,35.8735,青岛市,黄岛区4号,颗粒物(PM10),64,78,79,36,37,168,165,117,117,25,32,12,13,1.1,1.1
2023-11-02T13:00:00,1982A,122.0693,37.2174,威海市,文登开发区,颗粒物(PM10),62,73,88,24,45,163,163,110,110,9,14,9,8,0.8,1.2
2023-11-02T13:00:00,2031A,113.1817,27.9958,株洲市,云田中学,,45,40,57,31,38,152,131,73,73,17,22,12,10,0.7,0.8
2023-11-02T13:00:00,2054A,114.1099,32.1059,信阳市,平桥分局,,49,38,50,34,37,168,140,125,125,16,18,7,7,0.6,0.7
2023-11-02T13:00:00,2064A,113.9956,32.1271,信阳市,南湾水厂,,50,38,53,35,36,179,157,147,142,14,14,8,7,0.7,0.6
2023-11-02T13:00:00,2065A,114.0775,32.1195,信阳市,市酿酒公司,,,37,50,31,36,169,146,121,121,,20,7,7,0.6,0.9
2023-11-02T13:00:00,2066A,114.0609,32.1399,信阳市,审计局,细颗粒物(PM2.5),52,43,52,36,38,176,152,131,131,11,14,9,9,0.7,0.7
2023-11-02T13:00:00,2067A,114.6613,33.6128,周口市,市环境监测站,颗粒物(PM10),68,85,79,25,43,152,152,111,111,20,28,10,9,0.5,0.5
2023-11-02T13:00:00,2068A,114.6758,33.6347,周口市,周口师范,颗粒物(PM10),65,80,75,39,40,154,154,117,117,18,23,7,7,0.5,0.5
2023-11-02T13:00:00,2069A,114.6546,33.5979,周口市,市运管处,,,88,75,42,45,152,152,108,108,,28,7,5,0.8,0.7
2023-11-02T13:00:00,2070A,114.6369,33.6406,周口市,川汇区环保局,颗粒物(PM10),65,79,73,22,39,140,140,112,112,16,19,10,9,0.7,0.6
2023-11-02T13:00:00,2075A,117.6336,24.4674,漳州市,九湖,,,,,,,,,,,,,,,,
2023-11-02T13:00:00,2160A,112.85,35.5051,晋城市,自来水公司,颗粒物(PM10),70,89,73,29,38,136,123,52,52,14,46,8,10,0.8,1.4
2023-11-02T13:00:00,2161A,112.8318,35.4936,晋城市,白云商贸,颗粒物(PM10),55,60,72,24,30,136,128,56,56,12,38,9,7,0.7,1
2023-11-02T13:00:00,2162A,112.8508,35.4887,晋城市,市环保局,颗粒物(PM10),53,56,84,29,43,140,126,48,48,13,55,10,8,0.8,1.3
2023-11-02T13:00:00,2163A,112.8676,35.4897,晋城市,技术学院,,50,50,78,27,42,138,126,48,48,14,53,8,8,0.8,1.2
2023-11-02T13:00:00,2165A,112.8453,35.546,晋城市,白马寺,,48,41,56,33,44,128,128,,,15,20,13,14,0.7,0.9
2023-11-02T13:00:00,2166A,112.4397,39.3522,朔州市,平朔,颗粒物(PM10),128,205,107,56,33,112,90,81,81,6,35,3,8,0.5,0.6
2023-11-02T13:00:00,2167A,112.4575,39.3617,朔州市,朔唯,颗粒物(PM10),143,236,126,52,35,101,84,76,76,8,40,4,12,0.4,0.6
2023-11-02T13:00:00,2168A,112.4258,39.3197,朔州市,区政府,颗粒物(PM10),125,200,99,49,34,103,82,78,78,9,18,5,7,0.4,0.5
2023-11-02T13:00:00,2169A,112.4072,39.3278,朔州市,市环保局,颗粒物(PM10),133,215,109,51,38,104,80,70,,,30,4,8,0.5,0.6
2023-11-02T13:00:00,2170A,112.4272,39.3681,朔州市,市二中,颗粒物(PM10),138,226,106,59,33,112,89,81,81,6,34,6,9,0.4,0.6
2023-11-02T13:00:00,2171A,112.7532,37.6945,晋中市,锦纶小区,颗粒物(PM10),95,139,99,36,52,170,95,52,52,30,48,14,15,0.6,0.7
2023-11-02T13:00:00,2173A,112.7249,37.7067,晋中市,南都小区,颗粒物(PM10),86,121,112,33,54,165,91,47,47,26,58,12,16,0.4,0.8
2023-11-02T13:00:00,2174A,112.6991,37.6982,晋中市,榆次区政府,颗粒物(PM10),76,101,89,37,46,167,93,48,48,30,52,14,18,0.6,0.9
2023-11-02T13:00:00,2175A,110.9956,35.0147,运城市,运城中学,,,145,101,32,56,149,106,51,51,,22,11,13,,0.9
2023-11-02T13:00:00,2178A,110.9686,35.0303,运城市,地区技校,颗粒物(PM10),107,163,106,30,52,161,104,50,50,15,29,8,10,0.5,0.8
2023-11-02T13:00:00,2179A,111.0414,35.1147,运城市,空港新区,颗粒物(PM10),94,138,96,41,52,150,101,41,41,20,39,11,10,0.7,0.8
2023-11-02T13:00:00,2181A,112.7383,38.4519,忻州市,开发区,颗粒物(PM10),101,152,113,54,57,136,102,47,47,25,55,16,24,0.6,1
2023-11-02T13:00:00,2182A,112.7003,38.4928,忻州市,会展中心,颗粒物(PM10),103,156,105,44,57,129,91,35,35,28,56,15,18,0.6,0.9
2023-11-02T13:00:00,2183A,111.1406,37.5211,吕梁市,环保局,颗粒物(PM10),109,168,111,29,32,115,94,27,27,4,55,1,3,0.3,0.6
2023-11-02T13:00:00,2185A,111.1297,37.5136,吕梁市,自来水公司,颗粒物(PM10),138,225,136,48,38,114,93,31,31,5,49,2,11,0.3,0.7
2023-11-02T13:00:00,2187A,106.8174,39.6973,乌海市,市林业局,颗粒物(PM10),68,86,157,22,49,91,80,80,79,5,28,8,21,0.4,0.8
2023-11-02T13:00:00,2188A,106.7907,39.6667,乌海市,中海勃湾学校,颗粒物(PM10),54,58,154,23,44,95,85,86,85,4,28,7,19,0.5,0.9
2023-11-02T13:00:00,2191A,122.2532,43.6801,通辽市,艺术职业学校,,,100,67,55,42,102,91,62,62,31,28,10,9,,0.6
2023-11-02T13:00:00,2192A,119.7594,49.2261,呼伦贝尔市,区环保局,,22,22,18,15,15,63,54,59,52,7,11,5,5,0.3,0.3
2023-11-02T13:00:00,2195A,107.4212,40.761,巴彦淖尔市,附二中,颗粒物(PM10),69,87,268,17,55,101,72,76,69,3,11,2,6,0.4,0.5
2023-11-02T13:00:00,2196A,107.37,40.7372,巴彦淖尔市,市环保大楼,颗粒物(PM10),75,100,266,15,52,117,78,80,73,5,12,2,5,0.3,0.3
2023-11-02T13:00:00,2197A,113.1306,40.9923,乌兰察布市,集宁新区,颗粒物(PM10),133,215,75,40,20,94,78,66,66,3,25,5,10,0.3,0.5
2023-11-02T13:00:00,2200A,122.0392,46.0656,兴安盟,胜华新制药厂,,,52,52,34,44,72,41,47,39,,11,,3,0.4,0.3
2023-11-02T13:00:00,2201A,121.9504,46.0741,兴安盟,科右前旗环保局,细颗粒物(PM2.5),52,35,49,36,39,72,47,50,44,8,9,2,3,0.7,0.8
2023-11-02T13:00:00,2202A,116.1042,43.9317,锡林郭勒盟,市环保监测站,,39,39,95,21,15,95,42,86,68,3,4,10,9,0.2,0.2
2023-11-02T13:00:00,2203A,116.0781,43.9311,锡林郭勒盟,市政府,颗粒物(PM10),88,125,95,14,17,88,43,83,64,5,5,10,10,0.2,0.2
2023-11-02T13:00:00,2204A,105.6467,38.8363,阿拉善盟,西城区西花园,,,15,73,11,22,115,92,87,84,5,12,,9,,1.2
2023-11-02T13:00:00,2205A,105.6985,38.8411,阿拉善盟,蒙二幼,,29,26,87,4,22,108,92,89,86,6,13,7,8,0.3,0.4
2023-11-02T13:00:00,2206A,105.724,38.8516,阿拉善盟,环保局新楼,,28,15,52,6,21,112,88,93,87,6,8,7,8,0.4,0.4
2023-11-02T13:00:00,2207A,121.6094,41.998,阜新市,工业园区,颗粒物(PM10),122,194,84,52,30,117,117,62,62,26,35,16,22,1.1,0.9
2023-11-02T13:00:00,2208A,121.6697,42.0279,阜新市,长青街,颗粒物(PM10),125,199,93,94,56,108,108,61,61,30,34,12,19,1.2,1
2023-11-02T13:00:00,2209A,121.6673,42.0705,阜新市,农业园区,细颗粒物(PM2.5),147,184,82,112,52,105,105,63,63,23,25,16,51,0.9,0.8
2023-11-02T13:00:00,2210A,121.6717,42.0224,阜新市,东苑,细颗粒物(PM2.5),99,145,81,74,47,105,105,58,58,33,38,13,23,1.1,0.8
2023-11-02T13:00:00,2211A,121.6506,42.0498,阜新市,玉龙新城,颗粒物(PM10),101,151,73,69,33,117,117,65,65,28,36,16,29,1.0,0.8
2023-11-02T13:00:00,2212A,123.2,41.1953,辽阳市,宏伟区,细颗粒物(PM2.5),69,38,100,50,74,143,143,135,135,11,30,10,17,0.9,0.9
2023-11-02T13:00:00,2213A,123.1683,41.2495,辽阳市,新华园,细颗粒物(PM2.5),67,73,104,48,70,139,139,104,104,16,45,11,24,0.8,1
2023-11-02T13:00:00,2214A,123.2354,41.2639,辽阳市,滨河路,颗粒物(PM10),74,97,95,42,65,122,122,109,109,15,32,10,15,0.9,0.9
2023-11-02T13:00:00,2215A,123.149,41.2991,辽阳市,铁西工业园,颗粒物(PM10),95,140,110,54,67,148,148,89,89,17,39,16,18,0.9,1.2
2023-11-02T13:00:00,2216A,123.8139,42.3022,铁岭市,汇工街西,颗粒物(PM10),197,343,63,86,46,127,127,56,56,34,32,18,10,0.9,0.7
2023-11-02T13:00:00,2217A,123.8649,42.2923,铁岭市,水上乐园,颗粒物(PM10),86,122,65,63,47,152,152,97,97,22,30,14,5,1.1,1
2023-11-02T13:00:00,2218A,123.8486,42.2867,铁岭市,银州路东段,细颗粒物(PM2.5),97,142,81,72,76,152,152,94,94,28,35,12,6,0.8,0.7
2023-11-02T13:00:00,2219A,123.7153,42.2217,铁岭市,金沙江路北,细颗粒物(PM2.5),108,133,63,81,50,140,140,67,67,35,37,16,10,1.0,0.7
2023-11-02T13:00:00,2220A,120.4318,41.5881,朝阳市,西梁,细颗粒物(PM2.5),104,130,71,78,37,131,131,67,67,13,25,12,12,1.1,0.8
2023-11-02T13:00:00,2221A,120.4521,41.5646,朝阳市,河畔小区,细颗粒物(PM2.5),102,125,67,76,31,134,134,82,82,16,18,10,11,1.1,0.7
2023-11-02T13:00:00,2222A,120.4176,41.5648,朝阳市,八里堡,细颗粒物(PM2.5),93,126,74,69,29,118,118,59,59,19,26,14,12,1.3,0.9
2023-11-02T13:00:00,2223A,120.3806,41.5969,朝阳市,农业园区,颗粒物(PM10),117,183,76,84,42,127,127,59,59,,31,,11,1.3,1
2023-11-02T13:00:00,2225A,124.4002,43.1713,四平市,一商场,颗粒物(PM10),109,168,66,77,34,119,119,79,79,31,22,14,7,1.1,0.6
2023-11-02T13:00:00,2226A,124.388,43.193,四平市,境园,细颗粒物(PM2.5),137,128,54,104,47,128,128,82,82,26,18,14,6,1.0,0.5
2023-11-02T13:00:00,2227A,125.1358,42.8845,辽源市,环保局,,,75,31,40,21,148,146,80,80,8,17,,11,0.8,0.7
2023-11-02T13:00:00,2229A,125.9358,41.7173,通化市,光明,颗粒物(PM10),85,120,53,53,25,84,84,19,18,38,33,33,18,1.4,1
2023-11-02T13:00:00,2230A,125.9446,41.7325,通化市,铁路,颗粒物(PM10),109,168,59,61,27,48,33,16,9,51,31,40,20,3.2,1.4
2023-11-02T13:00:00,2231A,126.4219,41.9171,白山市,喜丰,颗粒物(PM10),71,92,39,34,16,61,16,9,9,52,25,12,8,1.3,0.9
2023-11-02T13:00:00,2232A,126.4077,41.9419,白山市,环保局,,,,46,,24,48,8,7,7,,24,11,9,1.2,1
2023-11-02T13:00:00,2233A,124.8006,45.1214,松原市,江南,细颗粒物(PM2.5),122,121,61,92,52,74,68,38,38,,23,10,11,0.8,0.5
2023-11-02T13:00:00,2234A,124.7965,45.1722,松原市,江北,细颗粒物(PM2.5),103,113,62,77,53,69,68,44,44,15,21,6,6,0.8,0.5
2023-11-02T13:00:00,2235A,122.7911,45.6077,白城市,洮北区环保局,细颗粒物(PM2.5),84,64,61,62,55,84,43,41,34,14,15,4,5,0.5,0.5
2023-11-02T13:00:00,2236A,122.8738,45.5725,白城市,市环保局,细颗粒物(PM2.5),79,75,72,58,51,88,50,42,40,13,20,4,4,0.5,0.5
2023-11-02T13:00:00,2237A,129.47,42.8883,延边朝鲜族自治州,妇幼医院,,39,39,24,25,19,51,51,44,44,14,17,8,9,0.6,0.5
2023-11-02T13:00:00,2238A,129.5055,42.9108,延边朝鲜族自治州,延边医院,,,,23,28,20,60,54,51,50,11,15,,6,,0.6
2023-11-02T13:00:00,2239A,129.3964,42.8881,延边朝鲜族自治州,朝阳川镇医院,,40,40,23,23,18,56,56,38,38,10,12,7,8,0.7,0.6
2023-11-02T13:00:00,2240A,130.9762,45.3001,鸡西市,环保局,颗粒物(PM10),58,66,72,35,49,39,31,18,18,17,23,6,5,0.7,0.8
2023-11-02T13:00:00,2243A,130.9429,45.3039,鸡西市,第一中学,,50,50,64,32,45,47,39,22,22,18,25,9,7,0.3,0.3
2023-11-02T13:00:00,2244A,130.2537,47.3416,鹤岗市,哈啤分公司,,,23,39,8,22,61,35,24,24,12,25,14,14,,0.3
2023-11-02T13:00:00,2245A,130.2684,47.3086,鹤岗市,斯达机电,,20,19,38,14,23,62,34,23,23,14,26,9,11,0.3,0.4
2023-11-02T13:00:00,2246A,130.3114,47.3388,鹤岗市,东山纸板厂,,30,30,45,12,21,69,36,27,27,12,30,12,13,0.2,0.9
2023-11-02T13:00:00,2247A,130.1097,47.3382,鹤岗市,五号水库,,16,16,27,5,12,68,40,32,32,13,16,10,10,0.1,0.1
2023-11-02T13:00:00,2248A,131.1511,46.6937,双鸭山市,双合村,,26,26,58,16,23,56,32,24,24,12,19,10,12,0.5,1
2023-11-02T13:00:00,2249A,131.1652,46.6191,双鸭山市,南小市,,27,27,39,13,25,59,36,24,24,12,18,8,8,0.4,0.5
2023-11-02T13:00:00,2250A,131.1524,46.6554,双鸭山市,环保局,,25,23,44,17,27,52,33,22,22,15,20,7,7,0.4,0.4
2023-11-02T13:00:00,2251A,131.12,46.5656,双鸭山市,苗圃,,21,21,21,14,14,65,65,,,9,9,4,4,0.3,0.3
2023-11-02T13:00:00,2252A,128.5159,47.4311,伊春市,环保局,,48,26,24,33,16,56,36,26,26,18,21,9,9,0.6,0.7
2023-11-02T13:00:00,2253A,128.9102,47.7412,伊春市,电力嘉园,,28,28,23,18,11,56,33,21,21,18,19,14,12,0.6,0.6
2023-11-02T13:00:00,2254A,129.5029,48.471,伊春市,汤旺河国家公园,,30,30,27,12,19,61,59,38,38,5,5,5,4,0.3,0.3
2023-11-02T13:00:00,2255A,130.2751,46.8028,佳木斯市,佳纺,,39,32,54,27,36,53,20,20,20,27,30,8,6,0.5,0.6
2023-11-02T13:00:00,2256A,130.3995,46.8307,佳木斯市,发电厂,,34,34,43,20,26,52,28,22,22,17,25,10,7,0.5,0.5
2023-11-02T13:00:00,2257A,130.3258,46.7975,佳木斯市,环保局,,,30,41,29,30,47,18,20,20,26,32,5,5,,0.8
2023-11-02T13:00:00,2258A,130.3648,46.8032,佳木斯市,十一中,,33,30,40,23,35,51,22,21,21,24,32,4,5,0.5,0.6
2023-11-02T13:00:00,2259A,130.3794,46.7588,佳木斯市,四丰,,27,27,31,18,22,53,21,32,32,24,16,1,1,0.3,0.3
2023-11-02T13:00:00,2262A,131.0518,45.8751,七台河市,新一中,,40,32,31,28,22,59,53,38,38,12,16,8,8,0.7,0.7
2023-11-02T13:00:00,2263A,127.4833,50.2524,黑河市,交通局,,45,27,48,31,43,61,49,40,40,16,18,8,14,0.4,0.4
2023-11-02T13:00:00,2264A,127.5144,50.2341,黑河市,环保局,,38,36,59,26,47,57,52,35,35,8,17,3,11,0.3,0.4
2023-11-02T13:00:00,2265A,127.5291,50.2472,黑河市,大黑河岛,,,,116,24,53,,,,,2,2,2,5,,
2023-11-02T13:00:00,2266A,126.9785,46.6365,绥化市,人和东街,,,,67,,50,57,29,35,34,24,26,,3,0.7,0.6
2023-11-02T13:00:00,2267A,126.964,46.6528,绥化市,党政办公中心,细颗粒物(PM2.5),64,61,70,46,57,64,33,39,39,22,23,5,3,0.6,0.6
2023-11-02T13:00:00,2269A,124.1069,50.4097,大兴安岭地区,科技局,颗粒物(PM10),54,58,49,33,33,59,50,41,37,7,12,2,7,0.3,0.4
2023-11-02T13:00:00,2270A,117.396,32.939,蚌埠市,工人疗养院,颗粒物(PM10),51,51,52,21,24,156,156,107,107,17,21,6,5,0.5,0.5
2023-11-02T13:00:00,2271A,117.3605,32.9427,蚌埠市,百货大楼,,47,47,54,18,23,150,147,105,105,13,19,5,7,0.4,0.5
2023-11-02T13:00:00,2273A,117.4185,32.8911,蚌埠市,蚌埠学院,,48,44,61,21,27,152,152,102,102,15,24,7,6,0.5,0.4
2023-11-02T13:00:00,2274A,117.3533,32.9673,蚌埠市,淮上区政府,,44,39,52,24,32,145,140,97,97,6,15,7,8,0.4,0.4
2023-11-02T13:00:00,2275A,117.3145,32.8977,蚌埠市,高新区,,47,34,66,27,38,158,149,97,97,14,30,6,11,0.4,0.6
2023-11-02T13:00:00,2277A,116.8305,32.7727,淮南市,潘集区政府,颗粒物(PM10),53,55,84,27,49,145,142,80,80,15,36,9,14,0.3,0.4
2023-11-02T13:00:00,2278A,117.0067,32.6524,淮南市,师范学院,,45,34,60,18,31,158,141,94,94,11,23,10,10,0.2,0.3
2023-11-02T13:00:00,2279A,116.8569,32.5951,淮南市,谢家集区政府,,41,37,74,17,41,140,129,77,77,14,41,6,8,0.3,0.4
2023-11-02T13:00:00,2280A,116.8281,32.633,淮南市,八公山区政府,,49,49,67,22,38,137,130,86,86,18,27,8,8,0.4,0.4
2023-11-02T13:00:00,2281A,116.6325,32.6201,淮南市,焦岗湖风景区管理处,,42,33,43,25,26,134,132,77,77,12,29,3,2,0.2,0.2
2023-11-02T13:00:00,2282A,116.8004,33.975,淮北市,监测站,颗粒物(PM10),61,71,84,31,45,167,153,88,88,18,34,10,11,0.5,0.6
2023-11-02T13:00:00,2283A,116.8091,33.9007,淮北市,烈山区政府,颗粒物(PM10),64,77,103,34,53,173,160,90,90,20,40,9,10,0.5,0.5
2023-11-02T13:00:00,2285A,117.8177,30.9412,铜陵市,市第四中学,颗粒物(PM10),61,71,64,33,36,140,120,47,47,22,50,17,13,1.1,1.1
2023-11-02T13:00:00,2286A,117.8059,30.9273,铜陵市,市公路局,细颗粒物(PM2.5),62,55,57,44,38,140,115,46,46,24,34,23,20,1.2,1.1
2023-11-02T13:00:00,2287A,117.7807,30.9413,铜陵市,市新民污水厂,,46,46,61,13,30,139,110,42,42,26,51,4,3,0.4,0.8
2023-11-02T13:00:00,2288A,117.7439,30.8792,铜陵市,市第九中学,颗粒物(PM10),53,55,88,21,30,126,112,41,41,26,55,8,5,0.6,0.7
2023-11-02T13:00:00,2289A,117.846,30.9413,铜陵市,车站新区,,42,42,47,23,24,140,107,40,40,22,45,12,8,0.3,0.5
2023-11-02T13:00:00,2290A,117.8483,30.97,铜陵市,市职教基地,,,47,58,18,32,120,,33,31,25,34,14,22,0.8,0.8
2023-11-02T13:00:00,2291A,117.0809,30.5177,安庆市,环科院,,48,48,55,21,35,139,121,51,51,16,66,8,8,0.5,0.7
2023-11-02T13:00:00,2292A,117.0331,30.5119,安庆市,马山宾馆,,41,41,46,17,26,155,123,,,21,40,6,7,0.3,0.4
2023-11-02T13:00:00,2294A,116.9896,30.6145,安庆市,安庆大学,,43,41,53,19,31,148,137,64,64,16,45,9,8,0.7,0.8
2023-11-02T13:00:00,2295A,118.2903,29.6963,黄山市,延安路89号,,40,40,36,10,16,138,110,43,43,10,15,6,5,0.2,0.2
2023-11-02T13:00:00,2296A,118.327,29.7178,黄山市,黄山东路89号,,35,29,44,13,24,126,111,44,44,8,17,5,5,0.4,0.6
2023-11-02T13:00:00,2297A,118.1371,30.2756,黄山市,黄山区政府5号楼,,37,35,49,11,30,128,116,56,56,7,13,7,6,0.4,0.6
2023-11-02T13:00:00,2298A,118.3093,32.3153,滁州市,老年大学,,45,44,64,24,38,157,142,62,62,17,47,9,13,0.4,0.7
2023-11-02T13:00:00,2299A,118.3244,32.2786,滁州市,人大宾馆,,48,48,68,22,40,159,144,66,66,24,47,11,16,0.4,0.7
2023-11-02T13:00:00,2301A,115.8277,32.8929,阜阳市,市监测站,颗粒物(PM10),52,54,62,32,43,150,149,97,97,13,32,9,8,0.6,0.6
2023-11-02T13:00:00,2303A,115.8554,32.8605,阜阳市,开发区,颗粒物(PM10),59,68,80,32,47,150,150,95,95,15,34,10,9,0.6,0.6
2023-11-02T13:00:00,2307A,116.5079,31.737,六安市,监测大楼,,45,28,40,15,21,143,143,88,88,12,25,6,6,0.3,0.3
2023-11-02T13:00:00,2308A,116.4738,31.7643,六安市,皖西学院,,45,34,46,18,21,146,141,101,101,11,20,7,7,0.3,0.7
2023-11-02T13:00:00,2309A,116.4996,31.7905,六安市,朝阳厂,,,22,38,10,20,147,,103,103,10,19,7,7,0.3,0.4
2023-11-02T13:00:00,2310A,116.5567,31.7886,六安市,开发区,,44,35,67,17,31,140,140,80,80,17,32,8,10,0.4,0.5
2023-11-02T13:00:00,2311A,115.8072,33.8399,亳州市,污水处理厂,臭氧1小时,63,63,67,29,33,170,170,129,129,19,23,11,12,0.5,0.5
2023-11-02T13:00:00,2312A,115.7789,33.8518,亳州市,三国揽胜宫,臭氧1小时,69,59,61,33,33,175,175,144,144,17,20,10,13,0.4,0.4
2023-11-02T13:00:00,2314A,117.47,30.6618,池州市,池州学院,,39,31,44,18,27,145,124,66,66,9,24,5,5,0.4,0.8
2023-11-02T13:00:00,2316A,118.7581,30.9454,宣城市,鳌峰子站,,35,25,35,14,20,121,109,72,72,10,18,4,5,0.4,0.4
2023-11-02T13:00:00,2317A,118.7385,30.9743,宣城市,敬亭山子站,,33,28,30,11,17,125,103,71,71,10,20,5,7,0.4,0.4
2023-11-02T13:00:00,2318A,118.7173,30.9427,宣城市,开发区子站,,31,25,34,10,16,120,97,64,64,8,23,4,5,0.4,0.5
2023-11-02T13:00:00,2319A,119.0141,25.4325,莆田市,荔城区仓后路,,30,30,24,14,10,99,94,75,75,6,8,6,6,0.5,0.6
2023-11-02T13:00:00,2320A,119.0015,25.4553,莆田市,莆田市监测站,,29,17,20,9,7,103,91,80,80,4,4,8,8,0.5,0.4
2023-11-02T13:00:00,2321A,119.1119,25.4561,莆田市,涵江区六中,,34,34,22,9,8,104,98,79,79,3,5,7,8,0.5,0.5
2023-11-02T13:00:00,2322A,119.1013,25.3215,莆田市,秀屿区政府,颗粒物(PM10),53,55,34,21,10,105,105,76,76,7,10,9,8,0.6,0.6
2023-11-02T13:00:00,2323A,118.981,25.4792,莆田市,东圳水库,,,,,,,,,,,,,,,,
2023-11-02T13:00:00,2324A,117.6211,26.2625,三明市,三钢,,28,23,29,12,21,108,89,32,32,20,29,10,9,1.4,0.6
2023-11-02T13:00:00,2325A,117.635,26.2714,三明市,三明二中,,35,35,28,15,19,106,91,37,37,16,24,12,6,1.2,0.6
2023-11-02T13:00:00,2326A,117.6028,26.2378,三明市,三元区政府,,43,43,39,16,20,107,92,34,34,17,31,7,7,0.8,1.1
2023-11-02T13:00:00,2327A,117.7275,26.3108,三明市,洋溪,,,,,,,,,,,,,,,,
2023-11-02T13:00:00,2331A,118.0966,26.6761,南平市,茫荡山,,,,,,,,,,,,,,,,
2023-11-02T13:00:00,2332A,118.1681,26.6369,南平市,南平市监测站,,30,19,26,9,14,105,93,51,51,7,22,4,5,0.4,0.6
2023-11-02T13:00:00,2333A,118.1825,26.6489,南平市,南平铝业有限公司,,30,22,28,16,17,105,95,48,48,6,25,4,8,0.5,0.6
2023-11-02T13:00:00,2334A,118.1756,26.6272,南平市,南平七中,,37,37,27,14,17,105,94,48,48,5,16,5,5,0.3,0.5
2023-11-02T13:00:00,2335A,117.0189,25.1181,龙岩市,龙岩师专,,,,,,,,,,,,,,,,
2023-11-02T13:00:00,2336A,117.0217,25.1033,龙岩市,龙岩市监测站,,35,24,31,21,21,112,112,51,51,9,26,4,6,0.5,0.6
2023-11-02T13:00:00,2337A,117.0258,25.0661,龙岩市,闽西职业技术学院,,37,28,36,17,19,118,118,47,47,7,26,5,13,0.5,0.6
2023-11-02T13:00:00,2338A,117.0196,25.0306,龙岩市,龙岩学院,,37,30,30,14,18,116,116,47,47,8,16,4,5,0.6,0.5
2023-11-02T13:00:00,2339A,119.5001,26.6946,宁德市,金涵水库,,,,,,,,,,,,,,,,
2023-11-02T13:00:00,2341A,119.5388,26.6612,宁德市,宁德市监测站,,50,50,24,22,15,111,50,36,34,27,18,7,7,0.6,0.5
2023-11-02T13:00:00,2342A,117.3102,29.3867,景德镇市,王港中学,,,27,29,20,16,141,128,60,60,,3,5,2,0.1,0
2023-11-02T13:00:00,2343A,117.2117,29.2933,景德镇市,老干部活动中心,,49,34,41,34,28,144,108,60,60,16,23,19,11,0.5,0.4
2023-11-02T13:00:00,2344A,117.1894,29.2789,景德镇市,兽医站,,40,30,50,28,28,142,109,52,52,11,19,14,12,0.6,0.6
2023-11-02T13:00:00,2345A,117.1547,29.2617,景德镇市,台达陶瓷,,47,47,51,10,30,122,95,50,50,20,32,18,30,0.6,0.6
2023-11-02T13:00:00,2346A,117.2461,29.2956,景德镇市,陶研所,,33,22,50,10,17,122,104,48,48,10,23,8,6,0.5,0.5
2023-11-02T13:00:00,2347A,114.0997,27.5002,萍乡市,武功山,,33,10,17,12,17,127,104,67,67,5,7,7,7,0.3,0.3
2023-11-02T13:00:00,2348A,113.8385,27.6434,萍乡市,中医院,,38,38,63,16,39,131,109,45,45,7,34,18,16,0.8,1
2023-11-02T13:00:00,2349A,113.8493,27.6253,萍乡市,市政府车库,,37,37,63,20,41,123,102,44,44,4,26,10,16,0.3,1
2023-11-02T13:00:00,2350A,113.8676,27.6435,萍乡市,市环保局,颗粒物(PM10),51,52,58,24,39,139,116,52,52,9,31,14,18,0.8,0.9
2023-11-02T13:00:00,2351A,113.866,27.6198,萍乡市,安源区政府,细颗粒物(PM2.5),67,52,53,48,38,129,110,47,47,2,20,10,14,0,0.9
2023-11-02T13:00:00,2352A,115.0861,27.9317,新余市,北岗,,47,47,33,31,25,123,116,46,46,15,16,26,14,0.6,0.4
2023-11-02T13:00:00,2353A,114.9886,27.8431,新余市,飞宇,细颗粒物(PM2.5),77,97,65,56,35,120,96,41,41,22,38,24,19,1.0,0.9
2023-11-02T13:00:00,2354A,114.9231,27.8246,新余市,第二水厂,颗粒物(PM10),54,58,58,37,37,143,111,43,43,11,41,14,13,0.3,0.7
2023-11-02T13:00:00,2355A,114.9308,27.8036,新余市,市气象局,细颗粒物(PM2.5),69,80,55,50,34,127,96,38,38,27,31,17,10,1.6,0.9
2023-11-02T13:00:00,2357A,116.9822,28.1136,鹰潭市,龙虎山,,37,22,21,4,4,123,118,54,54,1,3,5,5,0.4,0.4
2023-11-02T13:00:00,2358A,117.0564,28.2642,鹰潭市,新监测站,,35,21,48,6,26,137,110,45,45,5,22,5,36,0.2,0.3
2023-11-02T13:00:00,2359A,117.0311,28.2475,鹰潭市,财苑宾馆,,36,26,49,8,28,143,114,50,50,7,27,6,33,0.4,0.5
2023-11-02T13:00:00,2360A,117.0222,28.2264,鹰潭市,体育馆,,35,20,52,8,28,140,112,50,50,2,24,6,18,0.2,0.4
2023-11-02T13:00:00,2361A,117.0017,28.2131,鹰潭市,三川水表,,35,19,42,13,24,139,110,56,56,2,16,5,6,0.3,0.3
2023-11-02T13:00:00,2362A,114.9017,25.9149,赣州市,通天岩,,,,,,,,,,,,,,,,
2023-11-02T13:00:00,2363A,114.9367,25.8664,赣州市,地委,颗粒物(PM10),55,60,56,29,28,158,143,57,57,15,26,8,8,1.1,1.1
2023-11-02T13:00:00,2364A,114.9461,25.8481,赣州市,气象台,细颗粒物(PM2.5),52,43,49,36,30,154,136,50,50,17,44,9,9,0.7,0.8
2023-11-02T13:00:00,2365A,114.9322,25.8333,赣州市,市图书馆,颗粒物(PM10),54,57,67,32,34,148,127,52,52,17,39,13,13,0.9,0.9
2023-11-02T13:00:00,2366A,114.8905,25.8471,赣州市,华坚鞋城,"颗粒物(PM10),细颗粒物(PM2.5)",58,66,74,41,41,147,131,57,57,13,36,16,40,1.1,1.2
2023-11-02T13:00:00,2367A,114.9754,27.0803,吉安市,红声器材厂,,47,47,53,31,34,119,118,61,61,13,24,12,16,0.8,0.8
2023-11-02T13:00:00,2368A,114.9658,27.0999,吉安市,市森林工业局,颗粒物(PM10),55,60,56,35,35,122,122,63,63,17,36,13,17,0.2,0.4
2023-11-02T13:00:00,2369A,114.99,27.1312,吉安市,市环境监测站,,50,50,53,32,31,127,127,66,66,14,29,10,14,0.5,0.6
2023-11-02T13:00:00,2370A,115.0093,27.0968,吉安市,青原区法院,,42,42,49,29,30,127,127,61,61,13,25,11,12,0.6,0.7
2023-11-02T13:00:00,2371A,114.3408,27.8064,宜春市,槟榔水业,颗粒物(PM10),51,51,44,28,27,154,127,51,51,10,20,4,3,0.5,0.5
2023-11-02T13:00:00,2373A,114.3956,27.7844,宜春市,市石油公司,颗粒物(PM10),53,56,47,30,28,138,117,52,52,16,22,5,4,0.6,0.6
2023-11-02T13:00:00,2374A,114.3703,27.7914,宜春市,市气象局,,50,50,53,27,31,134,113,53,53,12,23,5,3,0.6,0.7
2023-11-02T13:00:00,2375A,114.4013,27.8074,宜春市,市广电局,颗粒物(PM10),55,60,45,29,31,142,121,50,50,12,26,7,5,1.0,1
2023-11-02T13:00:00,2376A,116.2127,28.0814,抚州市,桐源党溪,,35,23,39,13,21,115,111,51,51,5,17,3,2,0.6,0.5
2023-11-02T13:00:00,2377A,116.3544,27.9831,抚州市,市站,颗粒物(PM10),51,51,42,15,21,125,104,61,61,10,28,5,7,0.6,0.9
2023-11-02T13:00:00,2378A,116.3565,27.963,抚州市,血防站,,39,39,42,15,19,123,99,50,50,8,23,2,4,0.8,0.9
2023-11-02T13:00:00,2379A,116.3564,28.0007,抚州市,采茶剧团,,38,38,39,14,20,122,97,50,50,6,22,5,5,1.1,1
2023-11-02T13:00:00,2380A,116.385,27.9647,抚州市,医学分院,,42,42,43,18,20,124,105,49,49,6,24,6,8,0.8,0.8
2023-11-02T13:00:00,2381A,118.005,28.4572,上饶市,百草园,,,42,44,11,23,130,100,42,42,10,26,12,35,,
2023-11-02T13:00:00,2382A,117.9756,28.4436,上饶市,市监测站,,44,44,52,21,26,143,108,51,51,17,34,8,24,0.5,0.6
2023-11-02T13:00:00,2383A,117.9519,28.4628,上饶市,凤凰光学,,40,40,48,22,22,138,104,48,48,9,38,6,32,0.3,0.5
2023-11-02T13:00:00,2385A,114.17,35.9019,鹤壁市,市监测站,细颗粒物(PM2.5),112,120,124,84,82,146,109,47,47,41,47,,20,0.9,1.1
2023-11-02T13:00:00,2386A,114.2956,35.7511,鹤壁市,市交警支队,细颗粒物(PM2.5),77,98,103,56,58,149,122,41,41,37,45,11,5,0.8,0.7
2023-11-02T13:00:00,2387A,114.2878,35.7306,鹤壁市,迎宾馆,细颗粒物(PM2.5),84,103,90,62,61,152,125,41,41,37,47,20,13,0.7,0.7
2023-11-02T13:00:00,2389A,113.836,35.311,新乡市,环保西院,,50,47,74,35,35,122,117,46,46,28,55,15,13,0.8,0.8
2023-11-02T13:00:00,2390A,113.884,35.272,新乡市,开发区,细颗粒物(PM2.5),52,52,63,36,33,125,124,53,53,19,39,13,11,0.8,0.7
2023-11-02T13:00:00,2391A,113.883,35.303,新乡市,环保东院,颗粒物(PM10),68,86,78,37,36,121,116,47,47,19,40,14,12,0.6,0.6
2023-11-02T13:00:00,2392A,115.0312,35.7636,濮阳市,环保局,,,79,65,33,29,128,126,93,93,10,13,,6,0.5,0.5
2023-11-02T13:00:00,2394A,115.0574,35.7609,濮阳市,油田运输公司,颗粒物(PM10),58,65,52,28,21,131,131,92,92,13,18,7,6,0.7,0.6
2023-11-02T13:00:00,2395A,115.0866,35.7754,濮阳市,油田物探公司,,49,49,53,25,25,140,136,95,95,5,11,10,9,0.6,0.6
2023-11-02T13:00:00,2396A,113.8276,34.0159,许昌市,监测站,颗粒物(PM10),65,79,82,34,49,139,139,105,105,15,26,9,9,0.6,0.7
2023-11-02T13:00:00,2398A,113.7906,33.9953,许昌市,开发区,,43,41,72,29,57,135,135,90,90,13,29,6,6,0.5,0.6
2023-11-02T13:00:00,2399A,114.051,33.5699,漯河市,三五一五工厂,颗粒物(PM10),63,76,82,35,49,155,155,96,96,9,28,14,12,0.7,0.6
2023-11-02T13:00:00,2400A,114.0055,33.5698,漯河市,漯河大学,颗粒物(PM10),64,77,69,36,46,156,156,108,108,11,25,14,13,0.7,0.7
2023-11-02T13:00:00,2401A,114.0138,33.5828,漯河市,市水利局,,,,72,40,41,141,,99,99,10,19,9,11,0.7,0.4
2023-11-02T13:00:00,2402A,114.0261,33.5698,漯河市,市广电局,细颗粒物(PM2.5),63,71,77,45,46,150,150,95,95,11,25,8,6,0.7,0.7
2023-11-02T13:00:00,2404A,112.5224,33.0122,南阳市,瓦房庄,细颗粒物(PM2.5),69,78,65,50,46,131,88,86,64,32,29,14,10,0.8,0.7
2023-11-02T13:00:00,2405A,112.5003,32.9735,南阳市,汉画馆,细颗粒物(PM2.5),65,70,65,47,46,137,93,86,67,28,28,13,8,0.8,0.7
2023-11-02T13:00:00,2406A,112.5573,33.027,南阳市,气象站,,,72,64,48,45,138,103,99,74,23,27,,8,0.7,0.6
2023-11-02T13:00:00,2407A,112.5481,32.9689,南阳市,理工学院,细颗粒物(PM2.5),64,73,78,46,49,142,95,92,70,24,24,16,10,0.6,0.5
2023-11-02T13:00:00,2408A,115.6702,34.4285,商丘市,环境监测站,颗粒物(PM10),55,60,67,30,39,141,141,112,112,13,19,9,10,0.6,0.6
2023-11-02T13:00:00,2409A,115.6458,34.4045,商丘市,粮食局,颗粒物(PM10),55,59,66,33,41,150,150,123,123,10,14,7,8,0.6,0.6
