timepoint,stationcode,longitude,latitude,area,positionname,primarypollutant,aqi,pm10,pm10_24h,pm2_5,pm2_5_24h,o3,o3_24h,o3_8h,o3_8h_24h,no2,no2_24h,so2,so2_24h,co,co_24h
2024-10-04T1800,2566A,102.1879,31.914,阿坝藏族羌族自治州,州农科所,,16,16,25,6,8,48,,47,47,20,14,8,8,0,0
2024-10-04T1800,2568A,102.2502,31.8896,阿坝藏族羌族自治州,马师校,,22,18,20,15,15,43,,40,40,12,8,5,5,0.3,0.3
2024-10-04T1800,3994A,102.2165,31.9024,阿坝藏族羌族自治州,马尔康中学西区,,22,20,17,15,13,40,,36,36,13,11,7,7,0.4,0.5
2024-10-04T1800,2695A,80.292,41.1694,阿克苏地区,电视台,,,29,91,15,31,125,,98,98,6,19,3,5,,0.5
2024-10-04T1800,2696A,80.2613,41.1551,阿克苏地区,艺术中心,,40,37,93,16,31,126,,98,98,7,19,4,4,0.3,0.4
2024-10-04T1800,2204A,105.6467,38.8363,阿拉善盟,西城区西花园,,44,31,36,22,23,138,,123,123,8,11,12,11,0.6,0.7
2024-10-04T1800,2205A,105.6985,38.8411,阿拉善盟,蒙二幼,,39,34,37,12,16,122,,108,108,9,10,8,8,0.6,0.7
2024-10-04T1800,2206A,105.724,38.8516,阿拉善盟,环保局新楼,,37,31,35,13,15,116,,107,107,12,9,9,10,0.5,0.5
2024-10-04T1800,2708A,88.1264,47.8517,阿勒泰地区,市站,,49,49,44,13,11,69,,62,62,15,16,8,8,0.7,0.7
2024-10-04T1800,2630A,80.1161,32.5,阿里地区,阿里监测站,,33,6,17,3,7,104,,98,98,5,21,6,10,0.3,0.4
2024-10-04T1800,3192A,80.0903,32.5028,阿里地区,阿里藏医院,,37,8,14,3,4,117,,103,103,3,11,5,7,0.2,0.3
2024-10-04T1800,2642A,109.0318,32.6537,安康市,香溪洞,,46,46,37,18,14,125,,116,116,5,6,10,10,0.3,0.3
2024-10-04T1800,2643A,109.0281,32.6939,安康市,安康市监测站,,43,43,44,19,21,121,,115,115,13,15,10,14,0.4,0.5
2024-10-04T1800,2644A,109.0072,32.6975,安康市,汉滨区检察院,,39,34,35,17,19,124,,113,113,13,14,10,10,0.4,0.4
2024-10-04T1800,2291A,117.0809,30.5177,安庆市,环科院,,41,29,32,27,20,130,,127,127,17,18,9,10,0.4,0.5
2024-10-04T1800,2292A,117.0331,30.5119,安庆市,马山宾馆,,42,30,32,14,19,133,,130,130,18,21,11,12,0.4,0.5
2024-10-04T1800,2294A,116.9896,30.6145,安庆市,安庆大学,,42,22,30,15,18,134,,127,127,9,12,10,11,0.6,0.7
2024-10-04T1800,3173A,117.0598,30.5351,安庆市,市人大,,39,34,32,16,19,124,,124,124,15,17,10,11,0.7,0.8
2024-10-04T1800,3123A,105.9408,26.2431,安顺市,凤凰山,,32,31,38,21,23,101,,100,100,7,8,5,15,0.4,0.4
2024-10-04T1800,3124A,105.9439,26.2564,安顺市,金钟山,,34,28,37,21,24,106,,102,102,6,10,8,16,0.3,0.6
2024-10-04T1800,3125A,105.8983,26.2481,安顺市,娄家坡,,33,27,40,21,22,104,,103,103,7,9,7,15,0.5,0.6
2024-10-04T1800,1819A,114.3551,36.1017,安阳市,红庙街,,47,40,55,24,31,149,,143,143,8,19,2,3,0.5,0.5
2024-10-04T1800,1820A,114.361,36.0681,安阳市,银杏小区,,50,50,58,28,26,148,,143,143,10,19,2,3,0.2,0.3
2024-10-04T1800,3141A,114.3922,36.0878,安阳市,信访局,颗粒物(PM10),51,51,61,25,31,144,,139,139,13,21,3,4,0.0,0.1
2024-10-04T1800,3669A,114.4705,36.0637,安阳市,左辅环卫站,颗粒物(PM10),68,86,90,24,39,126,,140,140,28,40,4,5,0.6,0.6
2024-10-04T1800,3703A,114.2917,36.0949,安阳市,安钢职工学校,,47,47,67,23,39,142,,137,137,14,24,9,26,0.3,0.4
2024-10-04T1800,1748A,123.044,41.1196,鞍山市,深沟寺,,39,33,25,22,13,123,,126,126,19,12,8,6,0.7,0.6
2024-10-04T1800,1749A,123.011,41.0931,鞍山市,太阳城,,39,39,24,17,12,122,,127,127,25,14,11,9,0.6,0.5
2024-10-04T1800,1750A,123.0485,41.1442,鞍山市,太平,,38,38,31,18,14,120,,123,123,27,21,10,11,0.9,0.9
2024-10-04T1800,1751A,122.9642,41.0971,鞍山市,铁西三道街,,48,48,62,22,23,122,,124,124,23,24,6,7,0.6,0.7
2024-10-04T1800,1752A,122.9341,41.0833,鞍山市,铁西工业园区,,43,38,42,26,22,135,,133,133,17,27,10,11,0.3,0.6
2024-10-04T1800,1753A,123.022,41.0821,鞍山市,明达新区,,40,40,26,22,13,118,,116,116,20,14,10,7,0.8,0.6
2024-10-04T1800,2195A,107.4212,40.761,巴彦淖尔市,附二中,颗粒物(PM10),68,86,81,36,33,156,,124,124,20,31,11,14,0.6,0.5
2024-10-04T1800,2196A,107.37,40.7372,巴彦淖尔市,市环保大楼,颗粒物(PM10),64,78,66,33,27,131,,121,121,16,25,6,5,0.6,0.6
2024-10-04T1800,1956A,86.1472,41.7538,巴音郭楞蒙古自治州,孔雀公园,,43,43,77,9,18,112,,103,103,5,18,7,7,0.2,0.3
2024-10-04T1800,1957A,86.1972,41.7166,巴音郭楞蒙古自治州,棉纺厂,颗粒物(PM10),54,57,91,12,18,109,,103,103,6,18,5,6,0.2,0.3
2024-10-04T1800,1958A,86.2357,41.7173,巴音郭楞蒙古自治州,经济开发区,,44,44,73,16,23,109,,104,104,5,10,7,7,0.2,0.2
2024-10-04T1800,2914A,106.7677,31.8794,巴中市,苏山坪,,36,36,29,23,22,81,,76,76,10,9,4,3,0.4,0.4
2024-10-04T1800,3182A,106.7656,31.8545,巴中市,丽阳花园,,34,34,29,21,21,84,,71,71,15,16,5,5,0.5,0.5
2024-10-04T1800,3183A,106.7418,31.8654,巴中市,圣泉水务公司,,33,33,24,22,18,82,,64,64,13,14,5,4,0.4,0.4
2024-10-04T1800,3616A,106.7616,31.8344,巴中市,市中心医院,,34,34,35,22,24,82,,70,70,9,18,6,5,0.4,0.5
2024-10-04T1800,2235A,122.7911,45.6077,白城市,洮北区环保局,颗粒物(PM10),52,53,30,14,10,97,,104,104,20,9,3,3,0.6,0.5
2024-10-04T1800,2236A,122.8738,45.5725,白城市,市环保局,,48,48,29,20,11,86,,98,98,27,15,6,5,0.4,0.4
2024-10-04T1800,2231A,126.4219,41.9171,白山市,喜丰,,30,30,50,10,16,79,,85,85,15,23,11,9,0.5,0.6
2024-10-04T1800,2232A,126.4077,41.9419,白山市,环保局,,33,33,43,13,14,58,,74,74,28,21,12,9,0.8,0.7
2024-10-04T1800,2647A,104.1724,36.5446,白银市,第三小学,,32,32,40,13,23,101,,96,96,16,19,54,82,0.5,0.9
2024-10-04T1800,2648A,104.1465,36.5482,白银市,动力公司,,40,40,30,13,18,104,,97,97,14,14,101,35,0.4,0.7
2024-10-04T1800,2512A,106.6103,23.9011,百色市,市监测站,颗粒物(PM10),58,66,40,26,17,144,,128,128,11,14,18,9,0.8,0.6
2024-10-04T1800,2513A,106.6538,23.8859,百色市,市中心血站,颗粒物(PM10),56,62,53,23,24,128,,118,118,11,25,12,10,0.7,0.6
2024-10-04T1800,3406A,106.6085,23.8798,百色市,祈福高中,颗粒物(PM10),63,76,55,43,20,142,,127,127,19,23,16,15,0.7,0.6
2024-10-04T1800,2270A,117.396,32.939,蚌埠市,工人疗养院,,35,25,44,6,20,112,,122,122,10,37,5,9,0.3,0.4
2024-10-04T1800,2271A,117.3605,32.9427,蚌埠市,百货大楼,,34,34,44,8,21,97,,114,114,24,40,6,9,0.3,0.4
2024-10-04T1800,2273A,117.4185,32.8911,蚌埠市,蚌埠学院,,33,24,32,6,20,104,,122,122,17,23,7,7,0.3,0.3
2024-10-04T1800,2274A,117.3533,32.9673,蚌埠市,淮上区政府,,34,24,40,6,22,108,,119,119,11,23,6,7,0.3,0.4
2024-10-04T1800,2275A,117.3145,32.8977,蚌埠市,高新区,,36,19,31,8,19,113,,123,123,17,22,6,7,0.3,0.3
2024-10-04T1800,3715A,117.3092,32.9314,蚌埠市,蚌埠田家炳中学,,36,30,43,9,22,114,,122,122,10,36,5,9,0.2,0.3
2024-10-04T1800,1585A,109.8756,40.6532,包头市,市环境监测站,颗粒物(PM10),51,52,53,25,20,63,,106,104,80,48,12,17,0.8,0.8
2024-10-04T1800,1587A,109.9991,40.5842,包头市,包头八中,,,106,58,21,23,56,,57,,,40,6,15,1.1,1
2024-10-04T1800,1588A,109.8538,40.6821,包头市,青山宾馆,,45,45,56,20,23,104,,113,113,36,43,12,14,0.8,0.8
2024-10-04T1800,1589A,109.8642,40.6288,包头市,惠龙物流,颗粒物(PM10),55,60,52,21,19,117,,112,112,29,38,11,16,0.6,0.7
2024-10-04T1800,1590A,110.0377,40.5546,包头市,东河鸿龙湾,颗粒物(PM10),57,64,51,29,19,119,,115,115,28,33,26,19,0.7,0.6
2024-10-04T1800,3283A,109.9154,40.5685,包头市,滨河大厦,颗粒物(PM10),53,55,46,16,16,114,,112,112,36,42,14,17,0.6,0.7
2024-10-04T1800,3419A,109.9447,40.6261,包头市,包头市委党校,颗粒物(PM10),55,59,49,20,19,115,,114,114,34,39,32,23,0.8,0.7
2024-10-04T1800,3683A,109.8331,40.6576,包头市,昆区政府,颗粒物(PM10),51,52,52,27,25,112,,110,110,32,40,10,17,0.6,0.7
2024-10-04T1800,1930A,107.185,34.3063,宝鸡市,庙沟村,颗粒物(PM10),55,59,61,34,36,111,,93,93,21,20,8,8,0.7,0.7
2024-10-04T1800,1931A,107.0708,34.3017,宝鸡市,竹园沟,细颗粒物(PM2.5),69,76,54,50,37,98,,92,92,25,20,9,8,0.6,0.5
2024-10-04T1800,1932A,107.1906,34.3672,宝鸡市,三陆医院,颗粒物(PM10),59,68,75,41,48,112,,105,105,37,44,8,10,0.4,0.5
2024-10-04T1800,1933A,107.1431,34.3547,宝鸡市,监测站,细颗粒物(PM2.5),60,68,68,43,42,119,,99,99,29,29,9,8,0.7,0.7
2024-10-04T1800,1934A,107.1186,34.3739,宝鸡市,技工学校,颗粒物(PM10),62,74,66,41,45,120,,104,104,32,28,8,8,0.6,0.6
2024-10-04T1800,1935A,107.3906,34.3528,宝鸡市,陈仓区环保局家属楼,细颗粒物(PM2.5),67,69,78,48,52,122,,116,116,29,44,11,11,0.6,0.6
2024-10-04T1800,1936A,107.2058,34.3497,宝鸡市,文理学院,颗粒物(PM10),58,66,68,35,43,122,,111,111,23,27,10,10,0.5,0.6
2024-10-04T1800,1937A,107.2386,34.3622,宝鸡市,三迪小学,颗粒物(PM10),57,64,72,39,48,115,,114,114,34,42,10,10,0.6,0.7
2024-10-04T1800,1051A,115.493,38.8632,保定市,游泳馆,颗粒物(PM10),63,75,70,34,44,158,,145,145,16,20,5,5,0.5,0.5
2024-10-04T1800,1052A,115.5213,38.8959,保定市,华电二区,细颗粒物(PM2.5),59,62,68,42,47,156,,139,139,16,27,4,5,0.2,0.2
2024-10-04T1800,1053A,115.4713,38.9108,保定市,接待中心,颗粒物(PM10),66,82,68,42,42,149,,140,140,20,24,8,7,0.5,0.3
2024-10-04T1800,1054A,115.4612,38.8416,保定市,地表水厂,颗粒物(PM10),65,80,74,40,53,148,,137,137,20,27,6,6,0.1,0.1
2024-10-04T1800,3581A,115.31981,38.95208,保定市,满城区生态环境分局,"颗粒物(PM10),细颗粒物(PM2.5)",70,90,73,51,40,151,,143,143,27,28,9,7,0.7,0.5
2024-10-04T1800,3582A,115.47694,38.76408,保定市,清苑区第二中学,颗粒物(PM10),62,74,80,37,50,137,,138,138,25,31,4,5,0.5,0.5
2024-10-04T1800,3583A,115.62909,39.02311,保定市,徐水物探局,颗粒物(PM10),56,62,65,36,41,144,,132,132,24,36,7,7,0.5,0.4
2024-10-04T1800,4004A,115.4202,38.8656,保定市,双鹰农机,颗粒物(PM10),57,64,73,39,44,153,,147,147,27,32,6,7,0.6,0.4
2024-10-04T1800,4034A,115.5150,38.8590,保定市,植保所站,细颗粒物(PM2.5),63,69,75,45,48,155,,140,140,23,36,5,8,0.3,0.4
2024-10-04T1800,2594A,99.1678,25.1081,保山市,市环境监测站,,16,16,20,11,9,35,,38,38,9,7,4,4,0.5,0.5
2024-10-04T1800,2595A,99.1711,25.1328,保山市,市环保局,,20,20,23,3,7,40,,43,43,9,7,6,6,0.6,0.5
2024-10-04T1800,1867A,109.1436,21.4086,北海市,海滩公园,臭氧1小时,72,79,64,27,28,177,,168,168,14,11,9,9,1.1,0.7
2024-10-04T1800,1868A,109.0981,21.4661,北海市,新市环保局,臭氧1小时,65,53,61,27,32,172,,156,156,14,12,7,9,0.7,0.7
2024-10-04T1800,1869A,109.1778,21.5233,北海市,北海工业园,臭氧1小时,89,58,60,32,31,191,,151,151,11,13,10,9,0.8,0.7
2024-10-04T1800,3400A,109.1911,21.4415,北海市,龙潭自来水厂,臭氧1小时,87,58,57,30,34,189,,161,161,12,12,10,9,0.6,0.6
2024-10-04T1800,1001A,116.3621,39.8784,北京市,万寿西宫,细颗粒物(PM2.5),70,85,68,51,39,145,,115,115,18,30,5,3,0.7,0.5
2024-10-04T1800,1002A,116.2202,40.2915,北京市,定陵,细颗粒物(PM2.5),73,82,50,53,31,52,,81,81,34,16,1,3,0.6,0.5
2024-10-04T1800,1003A,116.4174,39.9289,北京市,东四,细颗粒物(PM2.5),75,96,70,55,38,147,,112,112,22,33,6,5,0.7,0.6
2024-10-04T1800,1004A,116.4072,39.8863,北京市,天坛,细颗粒物(PM2.5),70,75,59,51,39,132,,109,109,21,31,3,3,0.6,0.5
2024-10-04T1800,1005A,116.462,39.9365,北京市,农展馆,细颗粒物(PM2.5),69,85,66,50,37,137,,105,105,23,36,6,4,0.6,0.5
2024-10-04T1800,1006A,116.3392,39.9295,北京市,官园,细颗粒物(PM2.5),74,91,71,54,38,149,,109,109,15,28,4,3,0.6,0.6
2024-10-04T1800,1007A,116.2878,39.9611,北京市,海淀万柳,细颗粒物(PM2.5),77,91,67,56,36,133,,102,102,26,39,5,4,0.5,0.5
2024-10-04T1800,1008A,116.6636,40.135,北京市,顺义新城,细颗粒物(PM2.5),64,72,74,46,40,118,,106,106,26,36,3,3,0.5,0.4
2024-10-04T1800,1009A,116.6275,40.3275,北京市,怀柔镇,细颗粒物(PM2.5),75,82,52,55,33,122,,117,117,17,13,4,4,0.6,0.4
2024-10-04T1800,1010A,116.2296,40.217,北京市,昌平镇,颗粒物(PM10),78,105,62,52,32,88,,81,81,46,24,6,4,0.6,0.5
2024-10-04T1800,1011A,116.3966,39.9821,北京市,奥体中心,"颗粒物(PM10),细颗粒物(PM2.5)",68,85,64,49,36,134,,94,94,27,41,4,4,0.6,0.5
2024-10-04T1800,1012A,116.184,39.9136,北京市,古城,颗粒物(PM10),84,117,81,59,38,119,,98,98,35,45,6,4,0.7,0.6
2024-10-04T1800,3281A,115.9718,40.4529,北京市,延庆夏都,细颗粒物(PM2.5),72,76,49,52,28,95,,100,100,37,21,1,2,0.5,0.4
2024-10-04T1800,3417A,117.0709,40.1465,北京市,平谷新城,颗粒物(PM10),62,73,56,42,33,117,,130,130,24,18,2,4,0.7,0.4
2024-10-04T1800,3418A,116.8336,40.4095,北京市,密云新城,颗粒物(PM10),80,110,57,50,29,119,,114,114,25,19,2,3,0.6,0.4
2024-10-04T1800,3671A,116.088,39.9726,北京市,门头沟三家店,细颗粒物(PM2.5),80,99,64,59,35,121,,104,104,30,26,4,3,0.5,0.4
2024-10-04T1800,3672A,116.1541,39.8204,北京市,丰台云岗,细颗粒物(PM2.5),84,97,70,62,37,105,,92,92,27,35,5,4,0.5,0.4
2024-10-04T1800,3673A,116.6804,39.9081,北京市,通州东关,颗粒物(PM10),58,66,75,39,42,145,,120,120,24,30,4,3,0.6,0.4
2024-10-04T1800,3674A,115.9577,39.7603,北京市,房山燕山,细颗粒物(PM2.5),77,84,55,56,34,127,,102,102,19,16,3,2,0.4,0.4
2024-10-04T1800,3675A,116.4672,39.7733,北京市,大兴旧宫,"颗粒物(PM10),细颗粒物(PM2.5)",58,65,62,41,37,109,,113,113,40,27,2,3,0.6,0.4
2024-10-04T1800,3694A,115.986,40.4563,北京市,延庆石河营,细颗粒物(PM2.5),73,88,46,53,27,97,,99,99,36,19,1,2,0.6,0.4
2024-10-04T1800,3695A,116.6151,40.3053,北京市,怀柔新城,细颗粒物(PM2.5),74,75,53,54,36,120,,110,110,22,16,1,3,0.5,0.3
2024-10-04T1800,3696A,116.2545,39.8768,北京市,丰台小屯,细颗粒物(PM2.5),77,86,69,56,38,100,,94,94,50,47,2,2,0.6,0.6
2024-10-04T1800,3697A,116.84,40.3844,北京市,密云镇,细颗粒物(PM2.5),62,70,54,44,31,133,,116,116,21,30,5,4,0.4,0.4
2024-10-04T1800,1761A,123.8275,41.3064,本溪市,大峪,,35,25,30,13,12,112,,117,117,11,28,10,10,0.6,0.7
2024-10-04T1800,1762A,123.7567,41.3325,本溪市,溪湖,,36,36,61,16,21,97,,108,108,20,32,10,10,0.7,1.2
2024-10-04T1800,1763A,123.7169,41.3094,本溪市,彩屯,,32,32,50,20,27,82,,106,106,28,36,12,15,1.0,1.9
2024-10-04T1800,1764A,123.7669,41.2864,本溪市,东明,,38,38,47,17,19,100,,112,112,27,39,6,6,0.9,1
2024-10-04T1800,1765A,123.7992,41.2664,本溪市,新立屯,,42,42,20,9,8,16,,109,98,81,33,5,6,0.6,0.4
2024-10-04T1800,1766A,123.8142,41.3472,本溪市,威宁,,31,31,47,9,16,88,,110,110,19,26,9,8,0.5,0.7
2024-10-04T1800,2587A,105.2864,27.3125,毕节市,八中,细颗粒物(PM2.5),64,72,45,46,27,67,,78,78,10,16,9,12,0.5,0.4
2024-10-04T1800,2588A,105.31,27.2944,毕节市,师专,细颗粒物(PM2.5),59,65,44,42,27,70,,81,81,9,13,11,17,0.5,0.4
2024-10-04T1800,3537A,105.3631,27.3533,毕节市,长征村,细颗粒物(PM2.5),65,67,44,47,29,77,,85,85,9,12,10,18,0.5,0.4
2024-10-04T1800,1629A,118.0018,37.3617,滨州市,第二水厂,,45,36,66,24,34,142,,134,134,17,39,8,15,0,0.3
2024-10-04T1800,1630A,117.9776,37.393,滨州市,北中新校,,46,46,62,27,34,64,,129,129,74,40,11,13,0.5,0.7
2024-10-04T1800,3514A,117.9378,37.3956,滨州市,中海酒店,颗粒物(PM10),58,66,64,31,36,129,,144,144,44,34,15,12,0.6,0.7
2024-10-04T1800,3515A,117.9378,37.3553,滨州市,开发区一中,颗粒物(PM10),56,61,74,31,38,146,,144,144,26,46,15,17,0.8,0.8
2024-10-04T1800,3516A,118.0917,37.694,滨州市,金海六路,颗粒物(PM10),61,71,68,31,35,120,,142,142,42,38,11,14,0.6,0.5
2024-10-04T1800,4028A,117.9956,37.3753,滨州市,滨州市西街道办事处,,42,36,67,27,41,132,,143,143,27,39,9,17,0.6,0.7
2024-10-04T1800,2311A,115.8072,33.8399,亳州市,污水处理厂,,45,45,64,7,36,135,,137,137,15,24,8,17,0.2,0.4
2024-10-04T1800,2312A,115.7789,33.8518,亳州市,三国揽胜宫,,40,37,62,18,46,128,,129,129,14,19,4,10,0.3,0.5
2024-10-04T1800,3332A,115.7633,33.8034,亳州市,亳州学院,,44,38,58,11,27,138,,139,139,13,19,3,6,0.3,0.4
2024-10-04T1800,2693A,82.0485,44.8556,博尔塔拉蒙古自治州,市党校,,39,39,42,6,12,106,,87,87,5,5,5,6,0.3,0.4
2024-10-04T1800,2694A,82.0806,44.8969,博尔塔拉蒙古自治州,市环保局,,,37,49,13,13,104,,80,80,,12,8,7,0.4,0.4
2024-10-04T1800,1071A,116.8842,38.2991,沧州市,沧县城建局,,48,43,57,33,32,133,,134,134,21,33,3,4,0.4,0.4
2024-10-04T1800,1072A,116.8584,38.3254,沧州市,电视转播站,颗粒物(PM10),53,56,57,31,36,148,,148,148,20,36,8,11,0.4,0.4
2024-10-04T1800,1073A,116.8709,38.3228,沧州市,市环保局,颗粒物(PM10),52,53,61,32,38,140,,142,142,21,36,3,5,0.3,0.4
2024-10-04T1800,3324A,116.8136,38.3004,沧州市,河北水利电力学院,颗粒物(PM10),58,66,69,34,41,144,,143,143,18,35,4,6,0.4,0.4
2024-10-04T1800,2622A,97.1806,31.1273,昌都市,昌都监测站,,,,18,3,6,45,,51,51,6,10,8,8,0.6,0.6
2024-10-04T1800,3719A,97.1714,31.1406,昌都市,昌都会议中心,,,6,8,3,5,44,,49,49,5,6,,8,,0.4
2024-10-04T1800,2690A,88.1236,43.8886,昌吉回族自治州,天山天池,,30,30,29,17,9,76,,80,80,13,6,10,10,0.6,0.6
2024-10-04T1800,2692A,87.2717,44.0297,昌吉回族自治州,新区政务中心,,36,36,50,12,19,92,,73,73,12,22,8,6,0.6,0.7
2024-10-04T1800,3613A,87.3095,44.0142,昌吉回族自治州,亚心广场,,44,44,56,7,13,90,,71,71,16,25,5,9,0.5,0.6
2024-10-04T1800,1119A,125.3325,43.9166,长春市,食品厂,颗粒物(PM10),58,65,40,26,17,121,,117,117,32,30,8,7,0.5,0.4
2024-10-04T1800,1120A,125.2863,43.9027,长春市,客车厂,颗粒物(PM10),51,51,35,25,17,117,,114,114,28,21,9,8,0.6,0.5
2024-10-04T1800,1121A,125.2841,43.8463,长春市,邮电学院,颗粒物(PM10),53,55,35,20,22,127,,123,123,22,19,9,8,0.5,0.4
2024-10-04T1800,1122A,125.3716,43.8772,长春市,劳动公园,颗粒物(PM10),53,55,38,19,17,138,,128,128,22,23,9,8,0.5,0.4
2024-10-04T1800,1123A,125.3297,43.8805,长春市,园林处,,50,50,37,18,14,127,,124,124,28,21,7,7,0.5,0.4
2024-10-04T1800,1124A,125.4605,43.79,长春市,净月潭,,40,35,24,13,13,128,,125,125,14,10,7,7,0.4,0.3
2024-10-04T1800,1126A,125.3863,43.8447,长春市,经开区环卫处,,44,44,34,12,14,110,,114,114,28,27,9,9,0.7,0.5
2024-10-04T1800,1127A,125.245,43.7783,长春市,高新区管委会,颗粒物(PM10),51,52,33,17,16,117,,124,124,22,22,8,7,0.5,0.4
2024-10-04T1800,1128A,125.1761,43.8325,长春市,岱山公园,颗粒物(PM10),54,57,41,26,18,108,,117,117,36,27,8,6,0.5,0.4
2024-10-04T1800,1335A,113.0833,28.2325,长沙市,经开区环保局,,45,45,54,23,25,139,,132,132,18,20,7,7,0.4,0.4
2024-10-04T1800,1336A,112.8872,28.2189,长沙市,高开区环保局,,48,46,81,33,48,136,,137,137,9,16,6,7,0.2,0.3
2024-10-04T1800,1337A,113.0792,28.2053,长沙市,马坡岭,,46,46,56,28,30,143,,138,138,11,16,6,7,0.5,0.6
2024-10-04T1800,1338A,112.9394,28.19,长沙市,湖南师范大学,,49,49,74,20,43,142,,140,140,9,17,6,7,0.5,0.5
2024-10-04T1800,1339A,113.0178,28.1322,长沙市,雨花区环保局,,45,44,52,20,22,144,,138,138,10,14,8,8,0.5,0.5
2024-10-04T1800,1340A,112.9792,28.2597,长沙市,伍家岭,,40,38,68,17,33,128,,131,131,10,19,5,7,0.6,0.7
2024-10-04T1800,1341A,113.0014,28.1944,长沙市,火车新站,,48,48,63,24,30,132,,130,130,15,21,6,7,0.4,0.4
2024-10-04T1800,1342A,112.9844,28.1178,长沙市,天心区环保局,,46,46,61,23,31,135,,140,140,20,21,7,7,0.6,0.5
2024-10-04T1800,1343A,112.8908,28.1308,长沙市,湖南中医药大学,,47,46,83,26,47,150,,147,147,7,11,8,8,0.7,0.8
2024-10-04T1800,1344A,112.9581,28.3611,长沙市,沙坪,,40,31,51,21,36,127,,128,128,4,9,7,10,0.5,0.6
2024-10-04T1800,1727A,113.1147,36.1547,长治市,清华站,,39,28,41,17,24,124,,131,131,20,23,9,8,0.6,0.6
2024-10-04T1800,1728A,113.1031,36.1989,长治市,监测站,,40,32,41,19,26,125,,128,128,19,21,11,11,0.5,0.6
2024-10-04T1800,1730A,113.0886,36.2125,长治市,审计局,,37,36,43,14,27,117,,127,126,22,19,8,7,0.2,0.3
2024-10-04T1800,1731A,113.0844,36.1856,长治市,长治八中,,49,49,54,21,21,125,,131,131,21,21,10,8,0.5,0.6
2024-10-04T1800,2845A,113.1569,36.1911,长治市,德盛苑,,41,24,39,17,26,130,,135,135,16,17,7,6,0.6,0.6
2024-10-04T1800,3568A,113.06,36.0464,长治市,向阳小学,颗粒物(PM10),53,55,57,32,30,128,,135,135,28,20,8,6,0.4,0.4
2024-10-04T1800,3569A,112.8792,36.3144,长治市,屯留一中,"颗粒物(PM10),细颗粒物(PM2.5)",55,60,53,39,32,141,,141,141,22,24,12,10,1.3,1.1
2024-10-04T1800,3570A,113.235,36.3489,长治市,潞城四中,,44,44,62,28,36,135,,139,139,17,27,6,9,0.3,0.7
2024-10-04T1800,1854A,111.6975,28.9703,常德市,市二中,细颗粒物(PM2.5),87,88,77,64,54,151,,145,145,21,23,13,12,0.8,0.7
2024-10-04T1800,3138A,111.7153,29.0289,常德市,武陵区永安,细颗粒物(PM2.5),95,89,79,71,52,156,,146,146,17,18,15,15,0.9,0.8
2024-10-04T1800,3139A,111.6892,28.9881,常德市,鼎城区玉霞,细颗粒物(PM2.5),74,82,81,54,49,165,,154,154,14,22,14,15,0.7,0.7
2024-10-04T1800,3140A,111.6625,29.0531,常德市,武陵区长庚,细颗粒物(PM2.5),75,78,83,55,52,163,,149,149,16,20,12,12,0.6,0.6
2024-10-04T1800,1196A,119.9633,31.762,常州市,市监测站,,33,26,26,12,14,105,,117,117,12,12,9,8,0.5,0.4
2024-10-04T1800,1200A,119.9468,31.7069,常州市,武进监测站,,34,22,21,9,11,107,,118,118,10,10,12,9,0.7,0.6
2024-10-04T1800,1201A,119.9255,31.9087,常州市,安家,,,22,27,13,15,104,,113,113,15,22,,9,,0.3
2024-10-04T1800,3002A,119.9805,31.8174,常州市,行政中心,,30,21,26,9,13,93,,108,108,17,14,6,4,0.1,0.2
2024-10-04T1800,3003A,120.0522,31.7748,常州市,经开区,,31,23,29,11,14,99,,118,117,26,27,8,8,0.2,0.2
2024-10-04T1800,3010A,119.9025,31.7964,常州市,钟楼,,32,25,25,15,16,100,,112,112,16,17,10,10,0.5,0.4
2024-10-04T1800,3429A,119.8598,31.7066,常州市,武进经发区,,,24,32,10,15,101,,114,114,,20,7,7,0.4,0.3
2024-10-04T1800,3430A,119.5826,31.7245,常州市,金坛城区,,36,24,26,12,16,113,,123,123,10,11,9,9,0.5,0.5
2024-10-04T1800,2220A,120.4318,41.5881,朝阳市,西梁,颗粒物(PM10),52,53,38,22,20,124,,129,129,21,22,11,8,1.3,0.7
2024-10-04T1800,2221A,120.4521,41.5646,朝阳市,河畔小区,,44,44,30,20,14,118,,130,130,25,14,10,9,0.5,0.5
2024-10-04T1800,2222A,120.4176,41.5648,朝阳市,八里堡,颗粒物(PM10),54,57,42,27,19,128,,131,131,23,29,10,10,0.8,0.8
2024-10-04T1800,2223A,120.3806,41.5969,朝阳市,农业园区,,45,37,29,28,21,143,,138,138,10,16,9,7,0.5,0.6
2024-10-04T1800,1705A,116.6367,23.6719,潮州市,西园路,,33,,22,23,14,67,,70,68,13,11,3,2,0.4,0.4
2024-10-04T1800,3026A,116.6183,23.6608,潮州市,市政府,,30,30,22,19,12,74,,82,80,8,8,5,6,0.6,0.4
2024-10-04T1800,4036A,116.6461,23.6761,潮州市,金山,,36,,23,25,14,69,,79,77,10,7,7,7,0.6,0.5
2024-10-04T1800,2472A,113.0073,25.9061,郴州市,马头岭,,44,44,62,17,20,128,,127,127,8,16,11,12,0.7,0.8
2024-10-04T1800,2473A,113.0116,25.8226,郴州市,市职中,,45,42,53,31,36,133,,137,137,15,19,16,8,0.6,0.6
2024-10-04T1800,2474A,113.0161,25.8001,郴州市,兴隆步行街,,49,49,60,30,34,142,,144,144,14,17,18,9,0.4,0.3
2024-10-04T1800,2475A,113.0383,25.8071,郴州市,市审计局,颗粒物(PM10),54,58,54,34,34,136,,138,138,7,14,19,7,0.5,0.5
2024-10-04T1800,2476A,113.0348,25.7759,郴州市,市环保局,,45,45,59,24,34,129,,134,134,8,15,21,9,0.5,0.5
2024-10-04T1800,1431A,103.9728,30.7236,成都市,金泉两河,,33,33,18,3,3,71,,66,66,11,11,4,3,0.3,0.2
2024-10-04T1800,1432A,104.176,30.6872,成都市,十里店,,31,31,17,20,9,76,,65,65,13,11,2,1,0.5,0.5
2024-10-04T1800,1433A,104.079,30.5706,成都市,三瓦窑,,44,44,25,15,11,68,,68,68,24,12,3,2,0.6,0.4
2024-10-04T1800,1434A,104.1114,30.63,成都市,沙河铺,,47,47,30,23,10,60,,63,63,25,16,3,2,0.5,0.4
2024-10-04T1800,1437A,104.0786,30.6531,成都市,君平街,,49,38,20,34,9,75,,65,65,21,17,5,5,0.5,0.4
2024-10-04T1800,2880A,104.0239,30.65639,成都市,大石西路,,45,45,25,18,8,74,,69,69,18,10,3,3,0.4,0.3
2024-10-04T1800,3136A,104.2725,30.5589,成都市,龙泉驿区区政府,,28,27,15,19,9,63,,66,66,27,18,2,1,0.4,0.4
2024-10-04T1800,3357A,104.0106,30.6931,成都市,金博路,,33,33,17,22,6,65,,59,59,15,13,2,1,0.5,0.4
2024-10-04T1800,3359A,104.0578,30.5225,成都市,华阳,,48,48,20,27,14,56,,61,61,23,12,2,3,0.6,0.5
2024-10-04T1800,3487A,104.2394,30.5319,成都市,车城东七路,,27,27,21,17,14,80,,71,71,18,15,2,2,0.4,0.4
2024-10-04T1800,3488A,104.3853,30.7453,成都市,青白江技师分院,,30,30,16,15,7,65,,78,78,19,8,2,2,0.6,0.5
2024-10-04T1800,3489A,104.0789,30.4072,成都市,科学城,,35,33,21,24,16,56,,64,64,22,13,4,4,0.5,0.4
2024-10-04T1800,4011A,103.8506,30.6947,成都市,光华大道三段,,24,24,21,14,6,75,,71,70,8,8,3,3,0.5,0.4
2024-10-04T1800,1062A,117.9531,40.9081,承德市,铁路,颗粒物(PM10),57,64,30,30,13,112,,103,103,43,25,13,10,0.5,0.4
2024-10-04T1800,1063A,117.9392,40.9763,承德市,中国银行,颗粒物(PM10),61,72,34,27,13,139,,121,121,19,22,9,7,0.6,0.5
2024-10-04T1800,1064A,117.9503,40.928,承德市,开发区,颗粒物(PM10),56,62,42,28,17,140,,116,116,19,25,10,8,0.5,0.4
2024-10-04T1800,1065A,117.8051,40.9655,承德市,文化中心,颗粒物(PM10),60,70,42,42,12,96,,111,111,33,29,11,12,0.6,0.5
2024-10-04T1800,1066A,117.9268,41.0026,承德市,离宫,颗粒物(PM10),51,52,13,35,29,84,,95,95,6,13,5,5,0.5,0.4
2024-10-04T1800,2314A,117.47,30.6618,池州市,池州学院,,38,24,34,12,20,119,,120,120,14,16,8,9,0.3,0.4
2024-10-04T1800,3237A,117.4918,30.6617,池州市,展览馆,,38,23,32,12,17,119,,118,118,10,13,6,6,0.3,0.5
2024-10-04T1800,3333A,117.5627,30.695,池州市,第八中学,,37,22,33,13,18,117,,117,117,12,13,5,8,0.3,0.6
2024-10-04T1800,3334A,117.5038,30.6243,池州市,第十二中学,,38,24,31,13,21,120,,119,119,13,19,5,6,0.3,0.5
2024-10-04T1800,1744A,118.9233,42.2816,赤峰市,松山一中,,39,39,33,16,15,109,,105,105,23,27,11,10,0.5,0.5
2024-10-04T1800,1745A,118.9576,42.2728,赤峰市,哈达街,颗粒物(PM10),51,52,42,19,16,118,,118,118,17,16,9,8,0.6,0.5
2024-10-04T1800,1746A,118.8788,42.2554,赤峰市,天义路,,39,38,26,22,15,123,,120,120,20,20,8,8,0.3,0.3
2024-10-04T1800,3058A,119.2658,42.0353,赤峰市,银河街,颗粒物(PM10),53,56,54,19,24,117,,115,115,23,22,15,17,0.6,0.5
2024-10-04T1800,3286A,118.9359,42.3147,赤峰市,桥北物流园区,,39,39,34,22,18,113,,120,120,35,39,10,9,0.2,0.3
2024-10-04T1800,2521A,107.3476,22.4136,崇左市,市环保局江州分局,颗粒物(PM10),51,52,50,23,21,158,,135,135,7,10,7,4,0.5,0.6
2024-10-04T1800,2522A,107.3702,22.3707,崇左市,城南新区,臭氧1小时,55,41,41,22,19,164,,152,152,9,14,7,5,0.5,0.5
2024-10-04T1800,2298A,118.3093,32.3153,滁州市,老年大学,,38,24,31,10,17,119,,136,136,14,18,6,13,0.3,0.4
2024-10-04T1800,2299A,118.3244,32.2786,滁州市,人大宾馆,,36,31,32,12,17,115,,136,136,17,22,6,7,0.2,0.3
2024-10-04T1800,3207A,118.3118,32.3038,滁州市,市政府原办公楼,,,,30,,21,115,,136,135,14,19,6,7,,0.4
2024-10-04T1800,3331A,118.3267,32.2634,滁州市,图书馆,,39,24,33,9,17,122,,137,137,12,18,4,6,0.3,0.4
2024-10-04T1800,2605A,101.5482,25.0441,楚雄彝族自治州,州环境监测站,,16,16,13,6,12,46,,49,49,4,5,6,6,0.6,0.6
2024-10-04T1800,2606A,101.538,25.0492,楚雄彝族自治州,市经济开发区,,15,14,15,8,13,45,,46,46,6,6,5,5,0.8,0.7
2024-10-04T1800,2548A,107.5277,31.2827,达州市,达州职业技术学院,,40,40,46,18,26,80,,64,64,12,27,5,7,0.6,0.7
2024-10-04T1800,2549A,107.5086,31.2186,达州市,市环境监测站,,33,33,48,7,22,79,,67,67,25,29,6,7,0.3,0.5
2024-10-04T1800,2550A,107.4988,31.2132,达州市,凤凰小区,,31,31,42,12,23,91,,76,76,18,28,7,9,0.3,0.5
2024-10-04T1800,2551A,107.5082,31.1986,达州市,达县机关宾馆,,27,27,43,12,24,81,,70,70,23,33,5,7,0.3,0.4
2024-10-04T1800,2552A,107.4644,31.2124,达州市,市政中心,,30,30,48,14,24,91,,74,74,15,29,4,6,0.4,0.5
2024-10-04T1800,2614A,100.1542,25.7054,大理白族自治州,大理市环境监测站,,15,15,14,7,11,40,,42,42,6,6,6,6,0.7,0.7
2024-10-04T1800,2615A,100.2171,25.5811,大理白族自治州,大理古城,,11,11,16,3,9,35,,41,41,10,11,7,7,0.5,0.6
2024-10-04T1800,1109A,121.612,38.9741,大连市,甘井子,,43,31,30,11,16,137,,133,133,19,23,10,10,0.7,0.8
2024-10-04T1800,1110A,121.565,38.9511,大连市,周水子,,43,28,32,14,20,135,,132,132,20,40,11,10,0.6,0.8
2024-10-04T1800,1111A,121.5637,38.8845,大连市,星海三站,,45,26,25,15,18,144,,139,139,12,17,10,8,0.4,0.5
2024-10-04T1800,1112A,121.6302,38.9117,大连市,青泥洼桥,,43,18,27,10,16,137,,134,134,11,16,10,8,0.4,0.5
2024-10-04T1800,1113A,121.6251,38.8638,大连市,傅家庄,,45,22,23,10,13,143,,134,134,9,9,11,10,0.5,0.5
2024-10-04T1800,1114A,121.5213,38.8661,大连市,七贤岭,,48,27,26,16,16,151,,145,145,15,14,10,8,0.6,0.7
2024-10-04T1800,1115A,121.2529,38.8061,大连市,旅顺,颗粒物(PM10),53,55,33,19,20,160,,156,156,17,16,9,9,0.6,0.6
2024-10-04T1800,1116A,121.7485,39.1311,大连市,金州,,42,25,24,19,17,134,,140,140,20,15,8,6,0.6,0.6
2024-10-04T1800,1117A,121.7811,39.0496,大连市,开发区,,45,22,32,12,22,144,,134,134,9,27,14,11,0.4,0.5
2024-10-04T1800,1118A,121.9762,39.0631,大连市,双D港,,44,19,21,6,11,140,,141,141,19,16,10,8,0.7,0.7
2024-10-04T1800,1789A,124.81117,46.03138,大庆市,大同区,颗粒物(PM10),55,59,38,23,20,92,,97,97,18,10,6,4,0.5,0.4
2024-10-04T1800,1790A,125.129,46.533,大庆市,龙凤区,颗粒物(PM10),52,53,42,19,21,107,,91,91,12,16,4,3,0.5,0.5
2024-10-04T1800,1791A,124.902,46.408,大庆市,红岗区,,48,48,35,11,15,104,,100,100,15,12,7,7,0.5,0.4
2024-10-04T1800,1792A,125.153,46.586,大庆市,萨尔图区,颗粒物(PM10),53,56,38,15,13,97,,94,94,18,11,7,6,0.4,0.3
2024-10-04T1800,1793A,124.9042,46.6215,大庆市,让胡路区,颗粒物(PM10),52,53,39,22,20,102,,99,99,16,11,6,5,0.4,0.4
2024-10-04T1800,3481A,125.141,46.634,大庆市,萨区政府监测点,,48,48,30,20,13,105,,102,102,16,12,7,7,0.4,0.3
2024-10-04T1800,1721A,113.3819,40.1097,大同市,果树场,颗粒物(PM10),55,59,48,24,23,113,,124,122,19,17,8,9,0.6,0.7
2024-10-04T1800,1723A,113.2994,40.0758,大同市,云冈宾馆,,38,30,59,14,26,119,,125,125,23,40,9,11,0.7,0.9
2024-10-04T1800,1724A,113.3444,40.0917,大同市,大同大学,,37,37,48,18,21,118,,126,126,20,30,12,14,0.8,0.7
2024-10-04T1800,1725A,113.2661,40.1269,大同市,安家小村,颗粒物(PM10),54,58,65,13,27,117,,126,126,23,31,13,16,0.4,0.6
2024-10-04T1800,1726A,113.2711,40.0844,大同市,教育学院,颗粒物(PM10),55,59,80,15,30,107,,121,121,30,46,9,12,0.5,0.8
2024-10-04T1800,3282A,113.3397,40.0597,大同市,大同市卫生学校,,42,42,54,16,23,120,,127,127,16,34,8,14,0.5,0.4
2024-10-04T1800,3565A,113.1367,40.1122,大同市,云冈站,颗粒物(PM10),64,77,72,23,29,109,,121,121,30,30,12,13,0.5,0.5
2024-10-04T1800,3566A,113.1186,40.2556,大同市,图书馆,颗粒物(PM10),64,78,103,26,34,122,,121,121,26,30,13,16,0.6,0.6
2024-10-04T1800,3567A,113.5931,40.0461,大同市,区一中,,38,38,42,3,13,105,,119,119,31,19,10,11,0.5,0.5
2024-10-04T1800,3676A,113.2802,40.0995,大同市,第二人民医院,,46,46,66,16,26,121,,129,129,22,35,13,16,0.5,0.7
2024-10-04T1800,2269A,124.1069,50.4097,大兴安岭地区,科技局,,39,39,20,18,14,69,,67,67,18,9,14,8,0.4,0.3
2024-10-04T1800,3663A,124.1164,50.4278,大兴安岭地区,红旗社区,,25,19,20,3,11,77,,69,69,8,16,3,4,0.3,0.3
2024-10-04T1800,1600A,124.3303,40.0625,丹东市,江湾东路,,29,29,39,17,23,86,,93,92,23,21,8,10,0.5,0.6
2024-10-04T1800,1601A,124.4256,40.1503,丹东市,临江后街,,39,39,36,20,18,97,,105,105,22,19,7,7,0.8,0.8
2024-10-04T1800,1602A,124.3933,40.1461,丹东市,元宝山,,29,19,25,10,13,92,,94,94,9,14,4,5,0.7,0.7
2024-10-04T1800,1603A,124.3633,40.1092,丹东市,民主桥,,32,29,32,14,15,100,,102,102,19,22,6,6,0.5,0.5
2024-10-04T1800,3541A,109.5726,19.5167,儋州市,第一中学子站,,45,39,46,19,26,143,,144,144,11,8,6,7,0.6,0.6
2024-10-04T1800,3542A,109.5567,19.5187,儋州市,东坡学校子站,,49,42,44,20,25,155,,153,153,7,7,6,7,0.6,0.7
2024-10-04T1800,2616A,98.5842,24.428,德宏傣族景颇族自治州,德宏州监测站,,20,20,26,7,12,38,,46,46,10,13,13,10,0.4,0.5
2024-10-04T1800,3677A,98.5881,24.4368,德宏傣族景颇族自治州,芒市人民政府综合楼,,12,11,23,3,15,38,,49,49,12,12,24,9,0.4,0.7
2024-10-04T1800,1901A,104.4239,31.1208,德阳市,东山公园,,28,27,18,15,11,88,,81,81,11,10,2,5,0.4,0.3
2024-10-04T1800,1902A,104.3826,31.1317,德阳市,西小区,,34,34,26,20,12,84,,78,78,18,11,1,3,0.4,0.4
2024-10-04T1800,1904A,104.3553,31.1091,德阳市,耐火材料厂,,33,33,22,19,9,81,,72,72,14,10,3,4,0.2,0.2
2024-10-04T1800,3639A,104.4019,31.1244,德阳市,市教育局,,32,32,22,18,11,76,,78,78,18,12,2,4,0.4,0.3
2024-10-04T1800,1622A,116.3032,37.4674,德州市,儿童乐园,颗粒物(PM10),76,102,74,36,36,141,,150,150,35,35,10,11,0.5,0.5
2024-10-04T1800,1624A,116.2991,37.4451,德州市,监理站,颗粒物(PM10),65,80,68,29,35,151,,154,154,31,36,8,9,0.4,0.5
2024-10-04T1800,3066A,116.2721,37.4379,德州市,九衢泉纯净水厂,颗粒物(PM10),63,75,78,31,36,144,,146,146,30,45,10,11,0.5,0.5
2024-10-04T1800,3371A,116.3728,37.4403,德州市,开发区人民医院,颗粒物(PM10),63,75,73,22,34,139,,149,149,32,40,10,12,0.5,0.6
2024-10-04T1800,3372A,116.3572,37.4094,德州市,太阳城中学,颗粒物(PM10),70,90,80,29,37,148,,148,148,29,51,9,11,0.4,0.5
2024-10-04T1800,3511A,116.5652,37.3319,德州市,陵城艺术中心,颗粒物(PM10),60,70,64,29,33,149,,148,148,33,44,11,13,0.6,0.7
2024-10-04T1800,2621A,99.7056,27.8317,迪庆藏族自治州,迪庆州站,,13,11,14,6,9,40,,41,41,9,8,9,8,0.4,0.4
2024-10-04T1800,3180A,99.7136,27.8094,迪庆藏族自治州,质量技术监督局,,18,18,14,11,6,40,,41,41,11,7,7,6,0.5,0.4
2024-10-04T1800,2663A,104.6241,35.5734,定西市,东关小学,,39,31,31,27,25,68,,74,74,6,7,6,6,0.2,0.2
2024-10-04T1800,2664A,104.6194,35.5934,定西市,供电公司,,36,36,32,18,16,64,,75,75,11,6,6,6,0.4,0.4
2024-10-04T1800,1389A,113.7547,23.0494,东莞市,莞城梨川,,34,28,32,15,14,108,,118,118,11,13,7,8,0.6,0.5
2024-10-04T1800,1390A,113.7944,23.0128,东莞市,东城石井,,36,28,28,15,13,115,,129,129,10,12,7,7,0.7,0.7
2024-10-04T1800,1391A,113.7383,22.9658,东莞市,南城西平,,34,28,31,17,12,107,,125,125,12,16,3,4,0.8,0.8
2024-10-04T1800,3319A,113.7338,23.0381,东莞市,万江金泰,,34,30,30,18,14,106,,115,115,10,12,4,6,0.5,0.4
2024-10-04T1800,3626A,113.7533,23.0202,东莞市,南城元岭,,35,27,30,12,13,111,,122,122,8,10,7,8,0.5,0.5
2024-10-04T1800,3627A,113.7875,23.0457,东莞市,东城主山,,35,35,31,15,15,112,,124,124,32,15,8,8,0.5,0.5
2024-10-04T1800,1666A,118.6614,37.4309,东营市,市环保局,颗粒物(PM10),56,61,58,27,27,163,,161,161,32,32,37,12,0.5,0.6
2024-10-04T1800,3036A,118.6904,37.4338,东营市,开发区管委会,颗粒物(PM10),56,62,62,31,30,156,,160,160,35,30,28,13,0.2,0.4
2024-10-04T1800,3365A,118.5719,37.565,东营市,垦利区民丰路,颗粒物(PM10),58,66,50,34,26,146,,150,150,43,39,13,14,0.3,0.3
2024-10-04T1800,3498A,118.5055,37.8612,东营市,河口城区,颗粒物(PM10),63,75,64,32,32,156,,144,144,29,35,10,10,0.4,0.4
2024-10-04T1800,3646A,118.4978,37.4623,东营市,胜利站,颗粒物(PM10),56,62,57,24,26,152,,147,147,36,34,12,13,0.4,0.4
2024-10-04T1800,3734A,118.35,37.26,东营市,理想之城,颗粒物(PM10),59,68,54,39,30,161,,151,151,36,37,11,7,0.4,0.4
2024-10-04T1800,1591A,110.0023,39.8129,鄂尔多斯市,综合楼,,34,27,57,3,14,107,,115,115,17,21,10,13,0.5,0.6
2024-10-04T1800,1592A,109.9486,39.8261,鄂尔多斯市,巴音孟克林场办事处,,31,31,53,14,18,94,,107,107,22,22,8,10,0.5,0.6
2024-10-04T1800,1593A,109.7736,39.5986,鄂尔多斯市,康泽苑,,33,27,41,9,16,103,,112,112,13,17,7,8,0.5,0.6
2024-10-04T1800,1594A,109.8119,39.5989,鄂尔多斯市,华泰汽车城,,31,24,44,17,21,98,,108,108,11,21,9,11,0.4,0.5
2024-10-04T1800,1595A,109.9734,39.7884,鄂尔多斯市,奥林花园,,30,27,53,9,19,96,,105,105,14,23,5,7,0.5,0.6
2024-10-04T1800,2436A,114.8938,30.3994,鄂州市,市政府,,41,30,33,16,18,129,,125,125,17,23,12,12,0.7,0.7
2024-10-04T1800,2437A,114.8989,30.3714,鄂州市,赵家坝,,41,30,37,17,17,130,,126,126,15,22,12,12,0.5,0.5
2024-10-04T1800,3654A,114.8094,30.4089,鄂州市,精准医疗中心,,45,24,36,13,17,143,,134,134,8,16,5,7,0.5,0.6
2024-10-04T1800,2454A,109.4978,30.2981,恩施土家族苗族自治州,湖北民院,,46,46,43,24,24,74,,71,71,25,18,11,10,0.6,0.6
2024-10-04T1800,2455A,109.4707,30.2798,恩施土家族苗族自治州,州电力总公司,,42,42,39,21,22,71,,70,70,24,23,8,7,0.7,0.7
2024-10-04T1800,3549A,109.5061,30.3772,恩施土家族苗族自治州,龙凤新区,,44,44,36,24,22,50,,55,55,26,19,7,6,0.7,0.7
2024-10-04T1800,2499A,108.3411,21.6158,防城港市,沙万,颗粒物(PM10),51,52,53,28,23,147,,142,142,12,14,11,11,0.6,0.6
2024-10-04T1800,2500A,108.3514,21.7731,防城港市,防城档案局,颗粒物(PM10),55,60,108,38,32,133,,128,128,19,27,10,10,0.6,0.6
2024-10-04T1800,2501A,108.3506,21.6414,防城港市,大海花园,颗粒物(PM10),55,59,54,26,24,146,,137,137,9,12,9,9,0.9,0.8
2024-10-04T1800,1371A,113.1294,23.0067,佛山市,湾梁,,39,31,33,23,11,124,,144,144,20,24,7,8,0.5,0.5
2024-10-04T1800,1372A,113.1083,23.0478,佛山市,华材职中,,44,44,40,24,18,125,,136,136,33,26,9,9,0.5,0.5
2024-10-04T1800,1373A,113.144,23.0453,佛山市,南海气象局,,38,35,34,23,14,119,,139,139,16,21,7,8,0.6,0.6
2024-10-04T1800,1374A,113.2881,22.8094,佛山市,顺德苏岗,,44,24,28,9,11,138,,141,141,15,18,8,8,0.6,0.6
2024-10-04T1800,1376A,112.8383,22.8678,佛山市,高明孔堂,,47,36,38,23,16,148,,152,152,17,18,8,12,0.5,0.5
2024-10-04T1800,1377A,112.8836,23.1588,佛山市,三水监测站,,44,39,36,20,17,139,,135,135,18,24,8,8,0.4,0.4
2024-10-04T1800,1378A,112.867,23.185,佛山市,三水云东海,,39,29,30,20,17,124,,131,130,21,26,10,11,0.6,0.5
2024-10-04T1800,3625A,113.2544,22.7642,佛山市,容桂街道办,,46,24,27,12,15,147,,147,147,15,19,7,8,0.6,0.6
2024-10-04T1800,1283A,119.2984,26.1028,福州市,五四北路,,17,12,16,3,5,52,,86,56,13,12,3,3,0.3,0.3
2024-10-04T1800,1284A,119.2648,26.0768,福州市,杨桥西路,,17,7,15,3,6,54,,84,59,12,7,3,3,0.4,0.4
2024-10-04T1800,1285A,119.317,26.0746,福州市,紫阳,,16,14,18,6,9,49,,83,52,14,13,5,6,0.5,0.4
2024-10-04T1800,3048A,119.5799,26.0936,福州市,九龙,,22,10,15,3,5,68,,85,70,4,3,6,6,0.4,0.4
2024-10-04T1800,3526A,119.5189,25.9664,福州市,吴航,,22,10,10,7,6,70,,84,78,9,7,6,7,0.4,0.4
2024-10-04T1800,1755A,123.7977,41.8491,抚顺市,望花区,颗粒物(PM10),55,59,75,18,29,48,,54,54,26,33,5,7,0.6,1
2024-10-04T1800,1756A,123.9161,41.8822,抚顺市,顺城区,颗粒物(PM10),52,53,53,16,22,107,,121,121,33,28,11,7,0.5,0.6
2024-10-04T1800,1757A,124.0436,41.8611,抚顺市,东洲区,颗粒物(PM10),54,58,34,19,18,96,,112,112,31,15,13,8,0.6,0.6
2024-10-04T1800,1758A,123.9247,41.8642,抚顺市,新抚区,颗粒物(PM10),53,56,52,16,24,110,,124,124,28,27,7,6,0.4,0.6
2024-10-04T1800,1759A,124.0972,41.8961,抚顺市,大伙房水库,颗粒物(PM10),53,55,27,23,15,112,,122,122,22,12,10,7,0.6,0.5
2024-10-04T1800,1760A,123.7086,41.8391,抚顺市,沈抚新城,颗粒物(PM10),51,52,69,11,28,123,,130,129,21,36,10,13,0.2,0.9
2024-10-04T1800,2376A,116.2127,28.0814,抚州市,桐源党溪,,39,36,41,13,15,123,,126,126,3,4,5,6,0.7,0.6
2024-10-04T1800,2377A,116.3544,27.9831,抚州市,市站,,34,29,34,14,14,106,,106,106,7,8,1,4,0.5,0.7
2024-10-04T1800,2378A,116.3565,27.963,抚州市,血防站,,39,29,32,10,13,122,,120,120,10,11,9,4,0.5,0.5
2024-10-04T1800,2379A,116.3564,28.0007,抚州市,采茶剧团,,36,32,33,10,14,113,,114,114,6,5,4,4,0.5,0.6
2024-10-04T1800,2380A,116.385,27.9647,抚州市,医学分院,,40,28,35,9,13,127,,130,130,6,7,5,8,0.6,0.6
2024-10-04T1800,2207A,121.6094,41.998,阜新市,工业园区,颗粒物(PM10),60,69,48,32,25,150,,147,147,22,26,14,17,0.8,0.9
2024-10-04T1800,2208A,121.6697,42.0279,阜新市,长青街,颗粒物(PM10),55,59,44,33,24,148,,140,140,19,21,11,16,0.6,0.8
2024-10-04T1800,2209A,121.6673,42.0705,阜新市,农业园区,细颗粒物(PM2.5),64,64,43,46,34,149,,136,136,19,22,11,20,0.6,0.8
2024-10-04T1800,2210A,121.6717,42.0224,阜新市,东苑,颗粒物(PM10),55,59,44,29,22,145,,134,134,25,30,13,23,0.7,0.9
2024-10-04T1800,2211A,121.6506,42.0498,阜新市,玉龙新城,细颗粒物(PM2.5),55,56,44,39,23,162,,151,151,20,24,13,13,0.5,0.7
2024-10-04T1800,2301A,115.8277,32.8929,阜阳市,市监测站,,42,41,57,10,37,134,,129,129,14,23,6,8,0.3,0.4
2024-10-04T1800,2303A,115.8554,32.8605,阜阳市,开发区,颗粒物(PM10),54,58,74,12,32,128,,128,128,19,26,8,8,0.4,0.4
2024-10-04T1800,2875A,115.784,32.8892,阜阳市,阜阳职业技术学院,,42,32,50,9,29,132,,127,127,16,22,6,7,0.3,0.4
2024-10-04T1800,3468A,115.7901,32.8613,阜阳市,市规划展馆,,41,17,49,7,26,131,,128,128,14,23,6,8,0.3,0.4
2024-10-04T1800,3469A,115.836,32.9183,阜阳市,枣园社区,,42,31,60,11,31,132,,131,131,17,27,8,9,0.3,0.4
2024-10-04T1800,2669A,102.9099,34.9841,甘南藏族自治州,州政府,,30,15,28,13,17,93,,90,90,6,8,11,11,0.4,0.4
2024-10-04T1800,3380A,102.8914,34.9617,甘南藏族自治州,甘肃民族师范学院,,34,34,31,17,24,77,,83,83,16,12,6,5,0.5,0.5
2024-10-04T1800,2570A,101.9603,30.0475,甘孜藏族自治州,水桥子,,11,6,5,3,5,33,,35,35,10,12,6,6,0.4,0.3
2024-10-04T1800,3065A,101.9533,29.9972,甘孜藏族自治州,州环保局,,12,7,5,6,6,36,,42,41,12,13,3,3,0.3,0.3
2024-10-04T1800,3414A,115.8347,28.932,赣江新区,桑海产业园,,44,36,32,18,15,139,,125,125,12,13,10,11,0.7,0.7
2024-10-04T1800,2362A,114.9017,25.9149,赣州市,通天岩,,41,34,30,22,20,131,,139,139,7,8,18,14,0.4,0.4
2024-10-04T1800,2363A,114.9367,25.8664,赣州市,地委,,39,29,32,21,20,123,,119,119,10,11,1,5,1.1,1
2024-10-04T1800,2364A,114.9461,25.8481,赣州市,气象台,,39,35,31,19,20,123,,123,123,2,8,2,5,0.6,0.6
2024-10-04T1800,2365A,114.9322,25.8333,赣州市,市图书馆,,41,29,36,13,17,131,,129,129,8,8,5,7,0.6,0.5
2024-10-04T1800,2366A,114.8905,25.8471,赣州市,华坚鞋城,,39,36,32,24,15,123,,120,120,8,8,5,6,0.4,0.4
2024-10-04T1800,3109A,115.0093,25.8613,赣州市,赣县区卫计委,,38,32,35,20,16,121,,122,122,10,15,7,6,0.5,0.6
2024-10-04T1800,2683A,106.2319,36.1417,固原市,马园,,29,29,22,7,9,76,,83,82,8,11,6,6,0.5,0.5
2024-10-04T1800,2684A,106.2792,36.0022,固原市,监测站,,24,17,21,7,14,75,,75,75,12,11,6,7,0.4,0.4
2024-10-04T1800,2685A,106.2375,36.0211,固原市,新区,,24,14,18,3,9,75,,76,76,8,10,5,5,0.3,0.4
2024-10-04T1800,3522A,106.2177,35.9959,固原市,原州区十五小,,22,15,18,9,11,70,,79,77,16,10,4,4,0.6,0.6
2024-10-04T1800,2544A,106.6303,30.4576,广安市,市委,颗粒物(PM10),51,51,51,24,28,115,,86,86,13,18,2,3,0.3,0.4
2024-10-04T1800,2545A,106.6271,30.4663,广安市,友谊中学,,35,31,42,23,28,112,,81,81,15,19,5,4,0.4,0.6
2024-10-04T1800,2547A,106.6388,30.4551,广安市,广电花园,,37,32,44,18,26,117,,86,86,14,18,4,3,0.4,0.5
2024-10-04T1800,2902A,106.6351,30.4865,广安市,北辰小学,,38,38,43,26,26,116,,90,90,10,14,7,5,0.4,0.4
2024-10-04T1800,2523A,105.8945,32.4535,广元市,黑石坡,,29,23,27,20,18,63,,34,34,7,12,14,14,0.3,0.4
2024-10-04T1800,2524A,105.821,32.4444,广元市,老城,,27,27,30,12,13,74,,49,49,18,21,1,4,0.5,0.6
2024-10-04T1800,2526A,105.8628,32.4287,广元市,监测站,,31,31,28,17,19,75,,45,45,16,19,2,3,0.5,0.5
2024-10-04T1800,3617A,105.8047,32.4166,广元市,经开区,,36,36,33,16,19,72,,50,50,22,26,4,5,0.6,0.6
2024-10-04T1800,1345A,113.2347,23.1423,广州市,广雅中学,,35,35,40,15,19,110,,129,129,21,22,7,8,0.8,0.7
2024-10-04T1800,1346A,113.2612,23.105,广州市,市五中,,39,29,36,20,17,124,,138,138,11,14,4,5,0.6,0.6
2024-10-04T1800,1348A,113.3478,23.0916,广州市,广东商学院,,46,46,41,21,14,118,,130,130,22,17,5,6,0.6,0.6
2024-10-04T1800,1349A,113.4332,23.1047,广州市,市八十六中,,39,30,34,15,14,123,,129,129,14,18,4,4,0.5,0.5
2024-10-04T1800,1350A,113.3505,22.9483,广州市,番禺中学,,33,27,34,20,14,105,,107,107,14,19,6,7,0.6,0.5
2024-10-04T1800,1351A,113.2146,23.3916,广州市,花都师范,,45,32,32,15,14,143,,134,134,10,10,8,8,0.4,0.4
2024-10-04T1800,1352A,113.2597,23.1331,广州市,市监测站,,36,24,33,15,14,115,,132,132,16,5,6,6,0.8,0.7
2024-10-04T1800,1353A,113.5618,23.312,广州市,九龙镇镇龙,,41,41,28,22,12,106,,111,111,14,13,8,7,0.6,0.6
2024-10-04T1800,1354A,113.2765,23.1544,广州市,麓湖,,31,28,35,13,15,98,,128,128,23,19,6,7,0.6,0.5
2024-10-04T1800,1355A,113.443,23.3035,广州市,帽峰山森林公园,,39,18,21,17,13,124,,131,131,7,9,8,8,0.5,0.6
2024-10-04T1800,2846A,113.3221,23.1322,广州市,体育西,,36,31,28,25,14,115,,124,124,15,16,5,5,0.6,0.5
2024-10-04T1800,3298A,113.5717,23.5491,广州市,从化街口,,40,40,28,26,14,116,,115,114,8,9,10,10,0.5,0.5
2024-10-04T1800,3299A,113.3472,23.3692,广州市,白云竹料,,50,50,32,20,16,128,,127,127,12,13,8,7,0.6,0.5
2024-10-04T1800,3300A,113.2981,23.237,广州市,白云嘉禾,,46,46,41,15,16,109,,119,118,17,24,7,8,0.6,0.6
2024-10-04T1800,3301A,113.4256,23.1716,广州市,黄埔科学城,,39,28,31,11,15,122,,128,128,12,15,8,4,0.6,0.7
2024-10-04T1800,3302A,113.3942,23.0483,广州市,番禺大学城,,38,38,35,15,15,116,,133,133,26,22,11,11,0.2,0.3
2024-10-04T1800,3303A,113.4922,22.8168,广州市,南沙黄阁,,44,33,38,20,17,140,,150,150,23,26,7,11,0.6,0.6
2024-10-04T1800,3304A,113.5342,22.7896,广州市,南沙街,,45,42,37,17,17,144,,148,148,21,21,10,11,0.7,0.6
2024-10-04T1800,3443A,113.2902,23.5544,广州市,花都梯面,,37,34,28,19,14,118,,119,118,7,8,8,11,0.5,0.5
2024-10-04T1800,3445A,113.7858,23.7478,广州市,从化良口,,35,29,24,22,13,111,,113,113,7,8,8,8,0.5,0.4
2024-10-04T1800,3446A,113.8051,23.2614,广州市,增城荔城,,35,30,28,19,14,109,,115,115,10,12,7,8,0.5,0.6
2024-10-04T1800,2506A,109.6047,23.0666,贵港市,江南子站,臭氧1小时,73,53,83,26,36,178,,161,161,9,22,10,11,0.6,0.7
2024-10-04T1800,2507A,109.6014,23.0948,贵港市,贵城子站,臭氧1小时,73,58,59,27,28,178,,160,160,9,13,10,10,0.7,0.7
2024-10-04T1800,2508A,109.5669,23.1065,贵港市,荷城子站,,,61,61,31,22,162,,152,152,,11,,13,0.7,0.6
2024-10-04T1800,3405A,109.5886,23.1172,贵港市,新世纪学校,臭氧1小时,58,58,64,23,26,166,,153,153,11,11,10,10,0.6,0.5
2024-10-04T1800,1439A,106.6899,26.5998,贵阳市,马鞍山,,34,31,34,9,11,107,,118,118,9,10,4,4,0.5,0.5
2024-10-04T1800,1440A,106.6971,26.5694,贵阳市,市环保站,,40,31,41,23,22,125,,125,125,13,9,7,6,0.3,0.3
2024-10-04T1800,1441A,106.6243,26.6266,贵阳市,鉴湖路,,37,36,44,12,14,118,,117,117,8,7,5,4,0.4,0.4
2024-10-04T1800,1442A,106.7487,26.6343,贵阳市,燕子冲,,43,22,36,22,20,135,,130,130,8,6,7,7,0.3,0.3
2024-10-04T1800,1443A,106.6555,26.4365,贵阳市,碧云窝,,36,36,48,14,17,114,,118,118,6,11,8,7,0.3,0.3
2024-10-04T1800,1444A,106.694,26.5161,贵阳市,中院村,,39,39,42,17,19,100,,112,112,15,13,9,9,0.6,0.6
2024-10-04T1800,1445A,106.7109,26.6027,贵阳市,红边门,,41,41,44,22,21,122,,121,121,17,13,6,6,0.4,0.3
2024-10-04T1800,1446A,106.7164,26.5699,贵阳市,新华路,,38,34,39,19,17,121,,119,119,10,9,8,6,0.3,0.3
2024-10-04T1800,1447A,106.674,26.5424,贵阳市,太慈桥,,38,31,41,17,16,119,,120,120,9,11,9,6,0.4,0.3
2024-10-04T1800,1862A,110.4144,25.3167,桂林市,电子科大尧山校区,,43,33,53,14,35,135,,138,138,5,9,6,10,0.5,0.6
2024-10-04T1800,1863A,110.2819,25.2697,桂林市,监测站,,48,35,52,33,32,132,,141,141,16,12,10,13,0.3,0.4
2024-10-04T1800,1864A,110.3089,25.2708,桂林市,龙隐路小学,,46,,44,29,28,146,,150,150,6,7,10,15,0.5,0.6
2024-10-04T1800,1865A,110.2869,25.2178,桂林市,八中,,42,36,50,25,29,134,,143,143,12,12,10,14,0.5,0.6
2024-10-04T1800,3403A,110.1764,25.2381,桂林市,创业大厦,,44,44,55,24,31,115,,121,121,10,9,12,9,0.3,0.3
2024-10-04T1800,3531A,110.296,25.1253,桂林市,旅游学院,,43,34,46,17,26,137,,143,143,7,8,8,11,0.4,0.4
2024-10-04T1800,2674A,100.2561,34.4714,果洛藏族自治州,玛沁县大武镇,,37,19,19,7,12,116,,108,108,1,3,8,10,0.4,0.4
2024-10-04T1800,1129A,126.5422,45.755,哈尔滨市,岭北,,37,35,31,12,16,118,,129,129,20,15,8,13,0.3,0.4
2024-10-04T1800,1130A,126.561,45.8167,哈尔滨市,松北商大,,31,28,33,14,12,99,,108,108,18,22,8,9,0.4,0.4
2024-10-04T1800,1131A,126.979,45.5419,哈尔滨市,阿城会宁,,40,40,31,25,16,90,,109,106,17,13,7,11,0.6,0.5
2024-10-04T1800,1132A,126.599,45.7222,哈尔滨市,南岗学府路,颗粒物(PM10),55,60,58,16,12,98,,112,112,27,18,7,7,0.5,0.4
2024-10-04T1800,1133A,126.689,45.7733,哈尔滨市,太平宏伟公园,,45,45,34,17,15,101,,107,107,25,21,6,8,0.7,0.6
2024-10-04T1800,1134A,126.635,45.7667,哈尔滨市,道外承德广场,,50,50,41,21,11,101,,106,106,28,23,6,6,0.6,0.6
2024-10-04T1800,1135A,126.685,45.7319,哈尔滨市,香坊红旗大街,颗粒物(PM10),57,63,46,16,17,89,,106,106,36,25,8,8,0.7,0.6
2024-10-04T1800,1136A,126.6411,45.7258,哈尔滨市,动力和平路,,40,40,36,20,16,97,,108,108,27,21,10,10,0.6,0.5
2024-10-04T1800,1137A,126.593,45.7478,哈尔滨市,道里建国路,,40,40,40,19,17,100,,111,111,29,20,13,13,1.2,0.7
2024-10-04T1800,1138A,126.615,45.61,哈尔滨市,平房东轻厂,,45,45,35,19,13,111,,113,113,16,14,6,6,0.7,0.5
2024-10-04T1800,1139A,126.595,45.9855,哈尔滨市,呼兰师专,,39,39,37,15,16,87,,88,88,30,28,5,5,0.5,0.4
2024-10-04T1800,1140A,126.6206,45.6842,哈尔滨市,省农科院,颗粒物(PM10),64,77,59,28,18,62,,98,96,59,30,3,5,0.5,0.5
2024-10-04T1800,2688A,93.5128,42.8172,哈密市,地区监测站,,39,39,92,15,27,95,,94,94,12,33,7,6,0.3,0.4
2024-10-04T1800,2689A,93.4961,42.8328,哈密市,哈密师范学校,颗粒物(PM10),56,62,73,13,27,94,,93,93,9,36,5,5,0.3,0.5
2024-10-04T1800,2671A,100.9048,36.9639,海北藏族自治州,海晏县西海镇,,,,27,14,24,113,,103,103,,11,9,12,0.3,0.5
2024-10-04T1800,3867A,102.0738,36.5056,海东市,平安区公安北苑,颗粒物(PM10),52,54,50,30,29,115,,99,99,15,18,20,14,0.6,0.6
2024-10-04T1800,1410A,110.3232,20.0574,海口市,海南大学,臭氧1小时,65,40,46,18,23,172,,155,155,8,11,5,5,0.4,0.5
2024-10-04T1800,1411A,110.283,20.0053,海口市,秀英海南医院,臭氧1小时,62,43,48,20,24,169,,155,155,12,16,7,7,0.3,0.4
2024-10-04T1800,1412A,110.338,19.9969,海口市,海南师范大学,臭氧1小时,59,44,46,18,22,167,,157,157,10,12,8,8,0.5,0.5
2024-10-04T1800,1413A,110.33,20.0356,海口市,龙华路环保局宿舍,臭氧1小时,60,42,45,20,23,168,,154,154,8,11,6,7,0.4,0.4
2024-10-04T1800,3539A,110.5111,19.9736,海口市,桂林洋子站,臭氧1小时,59,46,52,23,28,167,,154,154,8,14,9,9,0.4,0.5
2024-10-04T1800,2673A,100.6188,36.2866,海南藏族自治州,共和县恰卜恰镇,,34,23,35,17,20,107,,104,104,4,15,7,10,0.3,0.5
2024-10-04T1800,2676A,97.3731,37.3753,海西蒙古族藏族自治州,德令哈市,,,36,28,16,11,123,,105,105,,10,,10,0.4,0.5
2024-10-04T1800,1048A,114.5302,36.6116,邯郸市,东污水处理厂,,40,30,57,19,32,128,,120,120,13,23,2,4,0.4,0.6
2024-10-04T1800,1049A,114.4918,36.5713,邯郸市,矿院,颗粒物(PM10),53,56,64,22,30,130,,120,120,11,24,4,5,0.2,0.4
2024-10-04T1800,1050A,114.484,36.6133,邯郸市,丛台公园,,41,41,48,13,28,125,,113,113,14,24,1,3,0.4,0.6
2024-10-04T1800,3458A,114.7895,36.5593,邯郸市,香泉濮院小区,颗粒物(PM10),63,76,90,26,36,139,,137,137,17,20,4,5,0.5,0.4
2024-10-04T1800,3579A,114.50634,36.77178,邯郸市,永年区实验高中,颗粒物(PM10),52,54,67,16,30,152,,144,144,9,20,4,9,0.3,0.6
2024-10-04T1800,3580A,114.20016,36.44293,邯郸市,峰峰矿区临水派出所,,45,37,38,24,21,142,,137,137,13,14,5,6,0.3,0.5
2024-10-04T1800,2634A,106.9893,33.1842,汉中市,汉川机床厂子校,,38,38,32,3,20,82,,100,100,8,11,6,6,0.6,0.6
2024-10-04T1800,2635A,107.0154,33.0706,汉中市,市监测站,,49,49,48,22,25,94,,86,86,16,22,12,15,0.5,0.6
2024-10-04T1800,2636A,107.0089,33.1138,汉中市,鑫源开发区,颗粒物(PM10),56,62,86,24,22,104,,99,99,14,12,13,13,0.4,0.8
2024-10-04T1800,2637A,107.007,33.0323,汉中市,南郑大河坎水厂,,41,41,43,24,27,84,,78,78,19,18,10,9,0.5,0.5
2024-10-04T1800,1223A,120.2072,30.2111,杭州市,滨江,,37,29,26,12,13,118,,112,112,17,19,5,5,0.5,0.5
2024-10-04T1800,1224A,120.0633,30.2747,杭州市,西溪,,35,31,28,17,18,110,,113,113,19,26,6,6,0.7,0.7
2024-10-04T1800,1226A,120.3461,30.3153,杭州市,下沙,,36,32,28,12,12,113,,116,116,28,36,7,7,0.5,0.6
2024-10-04T1800,1227A,120.1269,30.2456,杭州市,卧龙桥,,32,26,24,15,13,100,,118,118,18,19,6,6,0.5,0.5
2024-10-04T1800,1228A,120.1903,30.2692,杭州市,浙江农大,,36,29,26,13,13,114,,112,112,19,20,9,9,0.5,0.5
2024-10-04T1800,1230A,120.1197,30.3119,杭州市,和睦小学,,39,31,25,13,14,122,,119,119,20,26,7,8,0.5,0.5
2024-10-04T1800,1231A,120.3019,30.4183,杭州市,临平镇,颗粒物(PM10),59,68,31,21,13,113,,118,118,19,22,6,6,0.5,0.5
2024-10-04T1800,1232A,120.2697,30.1819,杭州市,城厢镇,,36,36,26,12,15,111,,115,115,20,19,7,7,0.4,0.5
2024-10-04T1800,1233A,120.0883,30.1808,杭州市,云栖,,33,24,22,12,11,103,,109,109,15,18,6,6,0.5,0.5
2024-10-04T1800,3557A,119.9464,30.0494,杭州市,镇二中,,39,32,28,14,19,124,,120,120,21,27,8,8,0.6,0.6
2024-10-04T1800,3558A,119.7183,30.2367,杭州市,市府大楼,,44,40,30,17,17,138,,128,128,13,18,7,7,0.6,0.6
2024-10-04T1800,3656A,120.1556,30.2864,杭州市,消防大队,,39,34,31,12,14,122,,117,117,14,22,9,9,0.3,0.3
2024-10-04T1800,1270A,117.1959,31.7848,合肥市,明珠广场,,43,22,28,9,12,135,,129,129,17,25,12,12,0.5,0.4
2024-10-04T1800,1271A,117.3072,31.8764,合肥市,三里街,,37,22,27,7,15,118,,114,114,11,19,5,5,0.5,0.5
2024-10-04T1800,1272A,117.2588,31.8707,合肥市,琥珀山庄,,40,27,26,12,15,125,,122,122,16,18,8,8,0.4,0.5
2024-10-04T1800,1273A,117.1604,31.9052,合肥市,董铺水库,,36,27,29,3,10,115,,109,109,10,15,5,4,0.4,0.4
2024-10-04T1800,1274A,117.25,31.8571,合肥市,长江中路,,38,34,31,14,17,120,,116,116,18,16,9,10,0.7,0.7
2024-10-04T1800,1275A,117.266,31.9436,合肥市,庐阳区,,38,27,33,7,15,121,,124,124,14,19,3,4,0.4,0.5
2024-10-04T1800,1276A,117.336,31.8586,合肥市,瑶海区,,37,19,30,9,13,116,,114,114,18,21,6,7,0.3,0.3
2024-10-04T1800,1277A,117.3027,31.7964,合肥市,包河区,,39,31,34,12,15,122,,119,119,18,46,6,6,0.6,0.6
2024-10-04T1800,1278A,117.2776,31.7385,合肥市,滨湖新区,,42,24,26,9,12,133,,121,121,12,17,5,4,0.4,0.3
2024-10-04T1800,1279A,117.1318,31.8403,合肥市,高新区,,40,24,27,10,14,126,,115,115,16,21,8,7,0.6,0.6
2024-10-04T1800,3464A,117.3803,31.9147,合肥市,高教基地,,37,31,26,13,15,117,,122,122,9,10,5,5,0.4,0.4
2024-10-04T1800,3614A,79.924,37.0877,和田地区,地区环保局,颗粒物(PM10),77,103,192,46,54,108,,90,90,4,15,6,8,0.4,0.4
2024-10-04T1800,3615A,79.9131,37.113,和田地区,市环保局,颗粒物(PM10),82,114,177,39,54,112,,94,94,4,23,6,7,0.1,0.4
2024-10-04T1800,2516A,108.2011,24.715,河池市,东仁乐园,颗粒物(PM10),58,66,46,23,22,120,,123,123,7,10,5,4,0.6,0.5
2024-10-04T1800,2517A,108.0497,24.6947,河池市,市环保站,,47,47,45,23,24,130,,131,131,10,17,14,11,0.5,0.6
2024-10-04T1800,2518A,108.0983,24.6989,河池市,市疾控中心,,42,40,47,24,26,134,,131,131,10,21,15,11,0.5,0.5
2024-10-04T1800,1696A,114.6778,23.7569,河源市,源西,,35,35,28,15,14,101,,115,112,9,10,5,6,0.5,0.4
2024-10-04T1800,1697A,114.6944,23.7586,河源市,东埔,,36,36,31,19,14,100,,112,111,11,13,4,5,0.7,0.7
2024-10-04T1800,1698A,114.6892,23.7233,河源市,老城,,35,32,31,24,14,98,,116,114,15,14,4,5,0.6,0.5
2024-10-04T1800,1718A,115.4208,35.2464,菏泽市,气象局,,50,50,56,12,27,151,,155,155,15,22,3,5,0.3,0.3
2024-10-04T1800,1719A,115.4747,35.2375,菏泽市,市政协,,47,40,50,9,26,150,,151,151,11,17,4,6,0.3,0.4
2024-10-04T1800,3374A,115.5564,35.0891,菏泽市,定陶老年大学,,43,34,54,9,29,137,,139,139,12,17,6,8,0.1,0.2
2024-10-04T1800,3647A,115.4702,35.2706,菏泽市,菏泽医专,,48,42,51,8,23,152,,153,153,14,22,6,7,0.6,0.6
2024-10-04T1800,2514A,111.5264,24.4172,贺州市,环保小区,,43,39,57,26,31,135,,143,143,14,15,8,8,0.5,0.5
2024-10-04T1800,2515A,111.5608,24.4078,贺州市,政协大楼,细颗粒物(PM2.5),59,52,56,42,29,139,,148,148,12,16,7,6,0.5,0.6
2024-10-04T1800,3534A,111.4744,24.4553,贺州市,西湾,,46,46,55,25,30,132,,137,137,12,13,8,8,0.5,0.5
2024-10-04T1800,2385A,114.17,35.9019,鹤壁市,市监测站,颗粒物(PM10),51,52,53,23,25,156,,144,144,26,27,6,6,0.5,0.6
2024-10-04T1800,2386A,114.2956,35.7511,鹤壁市,市交警支队,颗粒物(PM10),51,52,58,33,26,150,,144,144,23,32,3,3,0.2,0.2
2024-10-04T1800,2387A,114.2878,35.7306,鹤壁市,迎宾馆,颗粒物(PM10),54,58,60,36,28,160,,148,148,27,33,4,5,0.5,0.5
2024-10-04T1800,3474A,114.2617,35.6822,鹤壁市,大新区,,48,43,58,33,34,128,,140,140,25,33,1,2,0.1,0.2
2024-10-04T1800,3596A,114.1572,35.9603,鹤壁市,南山宾馆,,48,39,54,24,33,153,,141,141,16,17,1,6,0.3,0.2
2024-10-04T1800,2244A,130.2537,47.3416,鹤岗市,哈啤分公司,,41,41,38,22,20,80,,85,85,21,21,15,17,0.5,0.5
2024-10-04T1800,2245A,130.2684,47.3086,鹤岗市,斯达机电,,,39,39,25,23,,,64,,21,20,21,15,0.3,0.4
2024-10-04T1800,2246A,130.3114,47.3388,鹤岗市,东山纸板厂,,46,46,49,21,23,80,,86,86,19,22,18,18,0.2,0.4
2024-10-04T1800,2247A,130.1097,47.3382,鹤岗市,五号水库,,32,24,17,9,8,100,,104,104,6,7,9,8,0.2,0.2
2024-10-04T1800,2263A,127.4833,50.2524,黑河市,交通局,,29,29,31,16,17,77,,78,78,17,15,7,7,0.4,0.4
2024-10-04T1800,2264A,127.5144,50.2341,黑河市,环保局,,33,33,23,22,14,96,,88,88,11,9,5,4,0.4,0.3
2024-10-04T1800,2265A,127.5291,50.2472,黑河市,大黑河岛,,,,,16,14,83,,73,73,21,14,2,2,0.2,0.1
2024-10-04T1800,1074A,115.6838,37.7541,衡水市,电机北厂,颗粒物(PM10),53,56,55,36,33,145,,147,147,18,17,9,10,0.4,0.4
2024-10-04T1800,1075A,115.6303,37.7316,衡水市,市监测站,颗粒物(PM10),58,66,59,34,29,144,,149,149,23,27,8,10,0.4,0.4
2024-10-04T1800,3188A,115.6683,37.7217,衡水市,市城管局,颗粒物(PM10),56,62,57,39,32,155,,153,153,16,22,9,10,0.4,0.4
2024-10-04T1800,3459A,115.5989,37.5491,衡水市,地表水厂,颗粒物(PM10),60,69,58,31,34,130,,147,147,36,38,10,9,0.5,0.4
2024-10-04T1800,2456A,112.5003,26.9167,衡阳市,原169医院,,45,40,52,27,28,143,,143,143,18,19,13,15,0.6,0.6
2024-10-04T1800,2457A,112.6194,26.9258,衡阳市,衡阳化工总厂,,45,40,56,28,36,143,,142,142,8,12,13,9,0.6,0.6
2024-10-04T1800,2458A,112.6211,26.8956,衡阳市,珠晖区环保局,,44,42,56,28,30,138,,139,139,17,17,10,11,0.5,0.6
2024-10-04T1800,2459A,112.6197,26.8733,衡阳市,市委党校,,48,37,56,25,30,151,,146,146,10,15,13,14,0.6,0.6
2024-10-04T1800,2460A,112.6006,26.8919,衡阳市,市监测站,,48,41,60,22,39,151,,149,149,13,15,11,11,0.7,0.7
2024-10-04T1800,2461A,112.5664,26.9056,衡阳市,真空机电公司,颗粒物(PM10),53,56,57,31,27,143,,146,146,11,14,7,8,0.6,0.6
2024-10-04T1800,3399A,112.6703,26.882,衡阳市,师范学院,,47,42,61,23,33,150,,145,145,12,15,11,15,0.5,0.6
2024-10-04T1800,2608A,103.3772,23.3993,红河哈尼族彝族自治州,污水处理厂,,28,21,18,19,16,64,,70,70,5,5,5,5,0.4,0.4
2024-10-04T1800,2609A,103.3861,23.35,红河哈尼族彝族自治州,监测站,,32,32,33,15,18,66,,70,70,6,6,8,9,0.4,0.5
2024-10-04T1800,3038A,103.3758,23.368,红河哈尼族彝族自治州,州图书馆,,20,16,16,13,16,61,,65,65,5,4,7,6,0.4,0.4
2024-10-04T1800,1090A,111.6507,40.7517,呼和浩特市,呼市一监,颗粒物(PM10),51,51,51,23,22,132,,124,124,13,33,9,8,0.6,0.6
2024-10-04T1800,1091A,111.6572,40.8033,呼和浩特市,小召,颗粒物(PM10),54,58,52,27,23,120,,111,111,25,44,12,10,0.6,0.6
2024-10-04T1800,1094A,111.7516,40.8369,呼和浩特市,如意水处理厂,颗粒物(PM10),52,53,57,23,21,123,,114,114,18,47,10,9,0.5,0.5
2024-10-04T1800,1095A,111.7276,40.8062,呼和浩特市,二十九中,颗粒物(PM10),51,51,52,26,23,127,,119,119,23,46,8,7,0.6,0.6
2024-10-04T1800,1096A,111.5512,40.7866,呼和浩特市,工大金川校区,颗粒物(PM10),54,57,61,22,23,123,,118,118,23,51,6,7,0.6,0.6
2024-10-04T1800,1097A,111.717,40.7612,呼和浩特市,化肥厂生活区,,,61,59,23,20,124,,101,101,21,43,10,9,,0.5
2024-10-04T1800,3698A,111.5968,40.8178,呼和浩特市,红旗小学,颗粒物(PM10),56,61,69,25,24,125,,119,119,28,54,7,7,0.5,0.5
2024-10-04T1800,3699A,111.6518,40.8389,呼和浩特市,海东办,颗粒物(PM10),52,53,61,23,25,128,,120,120,22,52,7,6,0.6,0.7
2024-10-04T1800,2192A,119.7594,49.2261,呼伦贝尔市,区环保局,,42,42,29,18,17,55,,92,91,24,13,6,6,0.2,0.2
2024-10-04T1800,3061A,119.7512,49.1577,呼伦贝尔市,国华电力东,,32,32,24,19,12,71,,98,97,14,7,4,4,0.4,0.3
2024-10-04T1800,1250A,120.0751,30.8669,湖州市,城西水厂,,43,32,20,16,10,136,,132,132,16,17,5,6,0.6,0.6
2024-10-04T1800,2873A,120.0875,30.8955,湖州市,仁皇山新区,,42,34,19,18,10,133,,131,131,18,14,7,7,0.5,0.5
2024-10-04T1800,2907A,120.1844,30.8596,湖州市,吴兴区站,,39,24,19,14,9,124,,121,121,17,12,6,6,0.6,0.5
2024-10-04T1800,3562A,120.4148,30.8538,湖州市,南浔区站,,32,22,22,11,12,101,,106,106,13,15,3,3,0.4,0.4
2024-10-04T1800,1607A,120.9092,40.7136,葫芦岛市,龙港区,臭氧1小时,78,46,31,25,18,182,,156,156,12,15,14,14,0.6,0.7
2024-10-04T1800,1608A,120.8392,40.7514,葫芦岛市,化工街,臭氧1小时,65,58,59,27,26,172,,152,152,17,34,17,27,0.6,0.7
2024-10-04T1800,1609A,120.8341,40.7073,葫芦岛市,新区,臭氧1小时,77,56,36,29,27,181,,160,160,19,27,11,12,0.5,0.7
2024-10-04T1800,1610A,120.8695,40.7677,葫芦岛市,东城区,臭氧1小时,55,46,54,31,33,164,,146,146,24,39,13,22,0.5,0.7
2024-10-04T1800,2482A,109.5981,27.5721,怀化市,林科所,,44,31,33,11,14,138,,125,125,12,13,9,11,0.8,0.7
2024-10-04T1800,2483A,109.9453,27.5444,怀化市,河西地税局,,43,43,46,23,23,134,,125,125,10,11,10,15,0.4,0.6
2024-10-04T1800,2484A,109.9781,27.5342,怀化市,市四医院,颗粒物(PM10),51,51,57,24,29,131,,122,122,6,8,8,26,0.5,0.6
2024-10-04T1800,2485A,109.9972,27.5578,怀化市,监测楼,,50,50,53,26,27,135,,130,130,9,11,10,33,0.4,0.4
2024-10-04T1800,2486A,110.0394,27.583,怀化市,市委党校,,46,46,61,20,31,131,,125,125,10,12,10,48,0.3,0.4
2024-10-04T1800,1210A,119.036,33.5981,淮安市,钵池山,,33,19,34,14,22,105,,109,109,8,19,4,5,0.5,0.6
2024-10-04T1800,1211A,119.007,33.575,淮安市,北京南路,,33,31,47,16,24,104,,110,110,16,31,6,7,0.4,0.5
2024-10-04T1800,1212A,118.989,33.6067,淮安市,市监测站,,37,17,38,12,28,116,,117,117,13,31,7,8,0.4,0.5
2024-10-04T1800,1213A,119.135,33.5039,淮安市,楚州区监测站,,31,27,43,13,26,98,,111,109,16,34,6,7,0.4,0.6
2024-10-04T1800,1214A,119.0186,33.6297,淮安市,淮阴区监测站,,33,24,45,17,25,105,,114,114,24,41,2,3,0,0.3
2024-10-04T1800,3426A,118.8755,33.2894,淮安市,新华书店,,34,32,46,10,25,107,,118,118,19,31,8,11,0.5,0.6
2024-10-04T1800,2282A,116.8004,33.975,淮北市,监测站,,38,27,42,9,23,120,,127,127,16,17,7,9,0.5,0.6
2024-10-04T1800,2283A,116.8091,33.9007,淮北市,烈山区政府,,44,44,46,7,24,113,,131,131,22,21,6,8,0.2,0.4
2024-10-04T1800,3330A,116.8873,33.9836,淮北市,杜集区检察院,,41,36,56,8,26,130,,137,137,11,15,9,9,0.4,0.5
2024-10-04T1800,4017A,116.7923,33.9535,淮北市,市博物馆,,40,28,45,8,27,128,,133,133,16,23,9,11,0.5,0.6
2024-10-04T1800,2277A,116.8305,32.7727,淮南市,潘集区政府,,49,49,52,21,31,108,,126,126,25,22,7,9,0.3,0.4
2024-10-04T1800,2278A,117.0067,32.6524,淮南市,师范学院,,40,34,39,16,23,125,,127,127,11,15,7,7,0.3,0.5
2024-10-04T1800,2279A,116.8569,32.5951,淮南市,谢家集区政府,,39,25,31,14,18,124,,120,120,13,17,9,9,0.3,0.4
2024-10-04T1800,2280A,116.8281,32.633,淮南市,八公山区政府,,39,33,38,8,18,122,,123,123,10,16,8,10,0.3,0.4
2024-10-04T1800,2281A,116.6325,32.6201,淮南市,焦岗湖风景区管理处,,38,10,30,9,18,119,,113,113,6,15,7,7,0,0.1
2024-10-04T1800,2894A,117.0566,32.6531,淮南市,经济技术开发区消防队,,38,31,46,3,21,120,,125,125,11,17,5,8,0.3,0.5
2024-10-04T1800,3329A,117.0108,32.5893,淮南市,山南新区,,42,31,34,8,13,132,,129,129,15,17,3,4,0.3,0.4
2024-10-04T1800,2446A,114.9028,30.4742,黄冈市,职工中心,,44,40,33,20,20,140,,130,130,14,14,8,8,0.5,0.5
2024-10-04T1800,2929A,114.8858,30.4519,黄冈市,红卫路,,44,27,30,20,18,138,,131,131,12,14,7,7,0.5,0.5
2024-10-04T1800,3398A,114.9136,30.4445,黄冈市,市林业局,,45,33,42,21,19,143,,134,134,9,10,8,9,0.5,0.5
2024-10-04T1800,2672A,102.0199,35.5102,黄南藏族自治州,同仁县隆务镇,颗粒物(PM10),57,64,49,24,25,94,,80,,11,5,9,9,0.5,0.6
2024-10-04T1800,2295A,118.2903,29.6963,黄山市,延安路89号,,35,20,25,8,10,111,,109,109,4,6,7,6,0.2,0.2
2024-10-04T1800,2296A,118.327,29.7178,黄山市,黄山东路89号,,35,25,26,3,11,110,,107,107,5,7,5,5,0.2,0.3
2024-10-04T1800,2297A,118.1371,30.2756,黄山市,黄山区政府5号楼,,35,27,31,9,18,109,,111,111,7,8,7,7,0.3,0.4
2024-10-04T1800,2423A,115.0601,30.2313,黄石市,沈家营,,44,20,27,14,12,139,,136,136,9,15,6,13,0.5,0.5
2024-10-04T1800,2424A,115.0817,30.2006,黄石市,陈家湾,,47,31,31,16,17,150,,136,136,10,18,11,14,0.4,0.7
2024-10-04T1800,2426A,114.8988,30.2019,黄石市,铁山,,47,15,29,6,14,148,,148,148,9,14,10,11,0.4,0.4
2024-10-04T1800,2427A,115.0307,30.2092,黄石市,团城山,,45,28,32,14,13,142,,135,135,11,16,11,11,0.6,0.7
2024-10-04T1800,3149A,115.0235,30.1578,黄石市,笔架山北路,,45,20,28,9,12,142,,139,139,9,17,9,9,0.4,0.5
2024-10-04T1800,1392A,114.4183,23.0528,惠州市,河南岸金山湖子站,,35,35,34,18,15,112,,120,120,10,11,7,8,0.5,0.5
2024-10-04T1800,1393A,114.4053,23.0822,惠州市,下埔横江三路子站,,38,31,32,16,16,120,,128,128,11,11,13,12,0.6,0.6
2024-10-04T1800,1394A,114.4103,23.1142,惠州市,江北云山西路子站,,37,29,32,17,14,117,,128,128,7,10,5,7,0.6,0.5
2024-10-04T1800,1395A,114.4645,22.7833,惠州市,惠阳区承修路船湖子站,,36,36,38,16,16,108,,115,115,14,15,8,9,0.5,0.5
2024-10-04T1800,1396A,114.5317,22.7422,惠州市,大亚湾管委会子站,,34,32,31,18,14,106,,118,116,16,12,9,9,0.4,0.4
2024-10-04T1800,3314A,114.4338,22.8134,惠州市,惠阳秋长,,36,29,28,25,15,113,,116,116,10,9,6,7,0.4,0.7
2024-10-04T1800,3452A,114.6517,22.775,惠州市,大亚湾霞涌,,,,36,,19,92,,111,110,12,8,6,7,,0.8
2024-10-04T1800,2240A,130.9762,45.3001,鸡西市,环保局,,29,29,61,8,23,16,,75,71,54,24,7,6,0.8,0.5
2024-10-04T1800,2243A,130.9429,45.3039,鸡西市,第一中学,,26,23,38,3,13,82,,88,88,12,21,5,5,0.1,0.1
2024-10-04T1800,3707A,131.0207,45.3073,鸡西市,欧美日汽修厂,颗粒物(PM10),59,67,62,33,28,23,,78,75,60,28,11,8,0.6,0.3
2024-10-04T1800,3709A,130.9967,45.3106,鸡西市,市政设施管理处,,45,45,62,20,20,18,,80,77,70,32,7,7,0.5,0.3
2024-10-04T1800,2367A,114.9754,27.0803,吉安市,红声器材厂,,42,34,39,11,14,134,,130,130,14,17,8,12,0.4,0.5
2024-10-04T1800,2368A,114.9658,27.0999,吉安市,市森林工业局,,42,33,36,12,16,133,,127,127,13,17,9,14,0.6,0.7
2024-10-04T1800,2369A,114.99,27.1312,吉安市,市环境监测站,,42,30,34,13,16,133,,128,128,13,15,11,17,0.3,0.4
2024-10-04T1800,2370A,115.0093,27.0968,吉安市,青原区法院,,42,31,36,16,16,133,,130,130,15,17,12,15,0.4,0.5
2024-10-04T1800,1772A,126.54,43.8622,吉林市,哈达湾,,33,27,27,21,17,103,,105,105,18,23,9,7,0.7,0.6
2024-10-04T1800,1773A,126.5844,43.8358,吉林市,东局子,,28,24,21,11,10,88,,105,103,29,21,6,5,0.6,0.5
2024-10-04T1800,1774A,126.5052,43.8245,吉林市,电力学院,,34,34,36,20,22,87,,103,103,27,22,7,6,0.7,0.7
2024-10-04T1800,1775A,126.6133,43.8972,吉林市,江北,,38,38,21,13,10,79,,99,98,25,12,8,8,0.7,0.4
2024-10-04T1800,1776A,126.555,43.8306,吉林市,江南公园,,33,29,25,19,14,104,,106,106,16,21,8,7,0.6,0.6
2024-10-04T1800,1778A,126.7061,43.7133,吉林市,丰满,,27,9,10,6,8,85,,90,90,7,5,6,6,0.1,0.3
2024-10-04T1800,2868A,126.4739,43.953,吉林市,九站,,30,30,31,12,15,90,,102,102,28,23,8,8,0.7,0.6
2024-10-04T1800,1299A,116.9862,36.6114,济南市,科干所,臭氧1小时,59,46,39,20,18,167,,165,165,20,26,8,8,0.6,0.6
2024-10-04T1800,1300A,116.9376,36.665,济南市,农科所,颗粒物(PM10),55,59,51,20,22,145,,145,145,28,42,7,6,0.7,0.8
2024-10-04T1800,1301A,117.1265,36.6734,济南市,开发区,颗粒物(PM10),55,59,39,37,21,153,,152,152,27,35,7,5,0.5,0.5
2024-10-04T1800,1303A,117.0624,36.6868,济南市,省种子仓库,臭氧1小时,55,53,51,29,20,164,,159,159,14,42,4,4,0.2,0.3
2024-10-04T1800,1304A,116.9489,36.6447,济南市,机床二厂,颗粒物(PM10),62,73,59,22,23,144,,154,154,41,48,6,7,0.7,0.8
2024-10-04T1800,1305A,117.0495,36.663,济南市,市监测站,,49,49,43,22,20,156,,160,160,25,48,6,5,0.5,0.6
2024-10-04T1800,1306A,116.7675,36.5484,济南市,长清党校,臭氧1小时,60,56,45,32,20,168,,168,168,26,33,8,8,0.6,0.6
2024-10-04T1800,1616A,117.6795,36.229,济南市,技术学院,颗粒物(PM10),54,58,53,34,31,160,,154,154,18,40,12,11,0.5,0.8
2024-10-04T1800,1961A,117.532,36.6868,济南市,东山小学,颗粒物(PM10),56,61,37,27,16,149,,154,154,31,33,5,4,0.5,0.4
2024-10-04T1800,3059A,117.7161,36.2049,济南市,泰兴公司,颗粒物(PM10),53,56,55,29,30,150,,152,152,26,46,9,10,0.3,0.6
2024-10-04T1800,3064A,117.6867,36.2171,济南市,莱芜战役纪念馆,颗粒物(PM10),57,63,64,34,29,158,,150,150,20,45,9,8,0.5,0.8
2024-10-04T1800,3494A,117.1673,36.9782,济南市,济阳区政府,颗粒物(PM10),55,59,59,22,22,154,,158,158,26,47,5,3,0.4,0.4
2024-10-04T1800,3495A,117.1171,36.63,济南市,锦屏中学,,44,44,26,27,15,136,,154,154,29,19,6,6,0.5,0.3
2024-10-04T1800,3682A,116.9814,36.6819,济南市,济南四建,,49,41,44,22,24,155,,152,152,22,49,4,4,0.4,0.6
2024-10-04T1800,1653A,116.6251,35.4302,济宁市,火炬城,,50,34,45,19,33,157,,155,155,14,24,10,10,0.5,0.6
2024-10-04T1800,1655A,116.5491,35.4042,济宁市,电化厂,,48,48,72,24,37,145,,150,150,18,44,8,9,0.6,0.8
2024-10-04T1800,3500A,116.5814,35.3707,济宁市,北湖一中,,50,40,48,24,34,160,,163,163,17,31,7,7,0.4,0.5
2024-10-04T1800,3501A,116.8249,35.5593,济宁市,服务中心,,45,43,67,21,32,144,,150,150,20,46,9,9,0.5,0.6
2024-10-04T1800,3678A,116.5907,35.4054,济宁市,市第七中学,,46,36,57,22,38,147,,149,148,14,32,9,10,0.6,0.7
2024-10-04T1800,2255A,130.2751,46.8028,佳木斯市,佳纺,,29,15,22,11,10,91,,102,102,8,8,3,3,0.4,0.4
2024-10-04T1800,2256A,130.3995,46.8307,佳木斯市,发电厂,,39,39,21,19,12,71,,97,96,28,12,15,5,0.4,0.3
2024-10-04T1800,2257A,130.3258,46.7975,佳木斯市,环保局,,30,24,19,15,9,95,,98,98,8,6,8,8,0.4,0.3
2024-10-04T1800,2258A,130.3648,46.8032,佳木斯市,十一中,,28,28,22,6,11,78,,95,94,28,16,7,7,0.5,0.4
2024-10-04T1800,2259A,130.3794,46.7588,佳木斯市,四丰,,30,11,13,6,7,95,,100,100,9,7,1,1,0.1,0.1
2024-10-04T1800,1252A,120.7436,30.778,嘉兴市,清河小学,,31,21,22,9,8,99,,108,108,20,22,4,4,0.6,0.7
2024-10-04T1800,1253A,120.726,30.7478,嘉兴市,嘉兴学院,,33,24,25,10,12,105,,109,109,14,16,3,4,0.3,0.4
2024-10-04T1800,2872A,120.7846,30.7525,嘉兴市,南湖区残联,,33,30,23,22,11,105,,114,114,15,15,6,6,0.3,0.3
2024-10-04T1800,3407A,120.6916,30.7739,嘉兴市,秀洲住建,,29,27,24,10,12,91,,109,109,21,17,6,7,0.3,0.3
2024-10-04T1800,1945A,98.2908,39.7711,嘉峪关市,气象局,颗粒物(PM10),56,61,58,17,20,140,,123,123,10,23,11,13,0.3,0.5
2024-10-04T1800,2884A,98.2672,39.7978,嘉峪关市,酒钢宾馆,颗粒物(PM10),56,61,59,19,18,139,,118,118,13,23,20,35,0.3,0.6
2024-10-04T1800,3248A,98.2643,39.7724,嘉峪关市,雄关区,,48,48,48,26,17,134,,117,117,10,29,11,13,0.2,0.4
2024-10-04T1800,1383A,113.1064,22.6058,江门市,北街,臭氧1小时,94,39,37,22,16,195,,168,168,19,19,7,7,0.8,0.7
2024-10-04T1800,1384A,113.0731,22.5835,江门市,西区,臭氧1小时,97,58,40,45,15,197,,172,172,21,16,8,8,0.4,0.3
2024-10-04T1800,1385A,113.0219,22.5311,江门市,圭峰西,臭氧1小时,100,45,33,27,17,200,,159,159,20,17,6,5,0.8,0.7
2024-10-04T1800,1386A,113.0828,22.5947,江门市,东湖,臭氧1小时,93,37,32,34,17,194,,168,168,19,17,7,6,0.5,0.4
2024-10-04T1800,3311A,113.1075,22.5647,江门市,江海富民,臭氧1小时,99,44,42,11,16,199,,167,167,19,19,8,8,0.4,0.4
2024-10-04T1800,3449A,113.05,22.4667,江门市,新会银湖,臭氧1小时,90,51,36,26,17,192,,167,167,18,17,7,8,0.6,0.6
2024-10-04T1800,1828A,113.227,35.2125,焦作市,市环保局,臭氧1小时,58,55,58,27,33,166,,147,147,18,24,6,7,0.1,0.2
2024-10-04T1800,1830A,113.1992,35.2590,焦作市,影视城,细颗粒物(PM2.5),57,53,47,40,35,162,,162,162,12,10,6,7,0.2,0.4
2024-10-04T1800,3169A,113.2725,35.2067,焦作市,太极体育中心,,48,47,69,22,25,151,,141,141,27,27,6,10,0.2,0.2
2024-10-04T1800,3335A,113.3137,35.2641,焦作市,马村街道办,颗粒物(PM10),52,53,59,34,31,154,,148,148,22,21,4,6,0.2,0.2
2024-10-04T1800,3336A,113.2465,35.2373,焦作市,焦作技师学院,颗粒物(PM10),62,73,60,34,32,164,,145,145,16,20,4,4,0.4,0.4
2024-10-04T1800,3477A,113.1656,35.2539,焦作市,中站许衡医院,臭氧1小时,55,55,47,31,30,164,,150,150,7,21,4,3,0.4,0.4
2024-10-04T1800,3981A,113.2449,35.1803,焦作市,原李万街道办,颗粒物(PM10),54,58,66,34,34,157,,149,149,20,19,4,8,0.2,0.3
2024-10-04T1800,1708A,116.3701,23.5345,揭阳市,新兴,,25,17,26,17,16,76,,89,88,8,10,5,5,0.5,0.5
2024-10-04T1800,1709A,116.3264,23.5443,揭阳市,西马,,34,34,28,22,17,76,,94,91,7,6,5,6,0.6,0.5
2024-10-04T1800,1710A,116.3611,23.5626,揭阳市,东兴,,26,26,28,18,16,76,,88,86,10,12,4,5,0.6,0.6
2024-10-04T1800,1711A,116.4151,23.5294,揭阳市,渔湖,,28,28,26,16,16,77,,89,87,14,12,12,7,0.5,0.5
2024-10-04T1800,3320A,116.403,23.5699,揭阳市,曲溪,,25,23,25,13,16,77,,88,86,13,15,2,2,0.5,0.4
2024-10-04T1800,1944A,102.1692,38.5167,金昌市,天庆家园,,40,33,50,18,23,128,,126,126,11,28,26,32,0.3,0.5
2024-10-04T1800,3170A,102.1864,38.5253,金昌市,市委党校,,49,49,61,21,25,128,,122,122,14,29,11,23,0.7,0.7
2024-10-04T1800,4022A,102.1647,38.5371,金昌市,金川区人防中心,,43,43,70,24,24,126,,126,126,15,31,11,22,0.6,0.6
2024-10-04T1800,1262A,119.647,29.077,金华市,十五中,,41,31,36,15,16,129,,125,125,16,25,2,2,0.4,0.4
2024-10-04T1800,1263A,119.686,29.1029,金华市,监测站,,40,28,36,13,19,125,,122,122,14,23,3,3,0.5,0.5
2024-10-04T1800,3659A,119.656,29.1131,金华市,气象局,,38,29,35,13,21,121,,122,122,22,30,4,4,0.3,0.4
2024-10-04T1800,1767A,121.1115,41.0879,锦州市,南山,细颗粒物(PM2.5),67,48,43,48,36,151,,138,138,22,38,18,12,0.8,1
2024-10-04T1800,1768A,121.0533,40.8434,锦州市,开发区,颗粒物(PM10),91,132,95,38,36,158,,136,136,28,60,10,16,0.7,1.1
2024-10-04T1800,1769A,121.1836,41.1119,锦州市,百股街道,,49,49,40,29,25,156,,141,141,19,27,16,15,0.9,1
2024-10-04T1800,1770A,121.1178,41.1222,锦州市,天安街道,细颗粒物(PM2.5),62,59,51,44,38,150,,140,140,22,40,18,19,0.8,1
2024-10-04T1800,1771A,121.1303,41.1386,锦州市,北湖公园,细颗粒物(PM2.5),62,61,44,44,39,163,,149,149,22,34,18,22,0.8,1
2024-10-04T1800,2160A,112.85,35.5051,晋城市,自来水公司,"颗粒物(PM10),臭氧1小时",52,53,64,29,32,161,,149,149,24,36,13,11,0.6,0.8
2024-10-04T1800,2161A,112.8318,35.4936,晋城市,白云商贸,颗粒物(PM10),60,69,70,27,29,158,,146,146,27,39,9,7,0.6,0.8
2024-10-04T1800,2162A,112.8508,35.4887,晋城市,市环保局,颗粒物(PM10),53,56,72,27,31,158,,147,147,28,40,10,7,0.6,0.7
2024-10-04T1800,2163A,112.8676,35.4897,晋城市,技术学院,颗粒物(PM10),60,70,65,27,33,163,,148,148,27,43,10,8,0.6,0.8
2024-10-04T1800,3620A,112.8271,35.4828,晋城市,泽州一中,,50,50,52,27,27,156,,141,141,32,35,10,10,0.6,0.8
2024-10-04T1800,2171A,112.7532,37.6945,晋中市,锦纶小区,颗粒物(PM10),65,80,55,41,26,151,,150,150,26,23,10,8,0.5,0.5
2024-10-04T1800,2173A,112.7249,37.7067,晋中市,南都小区,颗粒物(PM10),60,70,55,34,28,148,,151,151,26,27,9,8,0.6,0.6
2024-10-04T1800,2174A,112.6991,37.6982,晋中市,榆次区政府,颗粒物(PM10),62,73,53,31,23,150,,152,152,28,26,9,8,0.6,0.4
2024-10-04T1800,2865A,112.7195,37.6828,晋中市,榆次三中,颗粒物(PM10),69,88,60,39,24,150,,151,151,26,27,12,11,0.6,0.5
2024-10-04T1800,2439A,112.2014,31.0481,荆门市,竹园小学,臭氧1小时,53,50,53,31,25,162,,154,154,22,30,13,12,0.5,0.5
2024-10-04T1800,2440A,112.1969,30.9891,荆门市,掇刀,臭氧1小时,69,49,57,36,32,175,,162,162,20,29,12,13,0.5,0.6
2024-10-04T1800,2441A,112.2213,31.0386,荆门市,石化一小,颗粒物(PM10),55,59,58,32,26,163,,154,154,18,36,15,19,0.4,0.5
2024-10-04T1800,3012A,112.1849,31.0362,荆门市,西山林语,臭氧1小时,60,55,44,25,24,168,,158,158,19,21,10,10,0.6,0.5
2024-10-04T1800,3547A,112.1632,31.0138,荆门市,龙泉中学南校,臭氧1小时,68,48,48,32,26,174,,161,161,21,26,9,11,0.5,0.5
2024-10-04T1800,1844A,112.2494,30.3197,荆州市,市图书馆,,50,34,47,17,31,159,,148,148,18,24,10,11,0.5,0.5
2024-10-04T1800,1845A,112.2008,30.3544,荆州市,市委党校,,50,31,43,22,30,158,,150,150,16,18,7,8,0.4,0.4
2024-10-04T1800,3194A,112.2747,30.3122,荆州市,管委会,,49,22,43,22,33,156,,151,151,21,25,9,11,0.6,0.6
2024-10-04T1800,3548A,112.1655,30.3364,荆州市,学苑路,臭氧1小时,60,40,52,21,27,168,,159,159,16,18,7,9,0.6,0.6
2024-10-04T1800,2343A,117.2117,29.2933,景德镇市,老干部活动中心,,30,20,20,9,13,93,,100,100,7,8,7,9,0.3,0.3
2024-10-04T1800,2344A,117.1894,29.2789,景德镇市,兽医站,,32,26,26,12,11,102,,104,104,2,4,6,8,0.2,0.2
2024-10-04T1800,2345A,117.1547,29.2617,景德镇市,台达陶瓷,,31,22,20,12,11,98,,104,104,10,9,7,9,0.4,0.4
2024-10-04T1800,2346A,117.2461,29.2956,景德镇市,陶研所,,32,22,25,3,12,102,,109,109,10,12,6,6,0.3,0.3
2024-10-04T1800,1803A,115.9872,29.6815,九江市,十里,,45,23,36,10,16,142,,127,127,14,16,9,10,0.5,0.5
2024-10-04T1800,1804A,115.9584,29.7046,九江市,茅山头,,41,23,26,16,15,130,,118,118,13,15,6,10,0.7,0.6
2024-10-04T1800,1805A,115.9877,29.7295,九江市,西园,,45,19,27,16,18,143,,131,131,12,16,9,10,0.5,0.4
2024-10-04T1800,1806A,116.0172,29.6547,九江市,五七二七厂,,39,21,32,19,20,124,,118,118,11,15,9,11,0.5,0.6
2024-10-04T1800,1808A,115.9114,29.6038,九江市,综合工业园,,42,17,32,14,23,133,,127,127,12,16,8,14,0.3,0.4
2024-10-04T1800,1809A,116.0721,29.7535,九江市,石化总厂,,41,26,34,10,22,130,,119,119,14,16,10,9,0.6,0.6
2024-10-04T1800,1810A,115.9773,29.5698,九江市,庐山气象台,颗粒物(PM10),54,57,28,21,19,134,,128,128,7,6,6,7,0.4,0.7
2024-10-04T1800,3190A,116.0254,29.6994,九江市,外国语学校,,39,23,32,11,20,124,,113,113,16,17,4,10,0.4,0.4
2024-10-04T1800,2658A,98.5061,39.7443,酒泉市,仓门街子站,,48,48,52,11,23,129,,109,109,7,13,4,5,0.5,0.4
2024-10-04T1800,2659A,98.4989,39.7256,酒泉市,油田生活基地,颗粒物(PM10),52,53,61,24,23,135,,115,115,8,18,5,6,0.3,0.3
2024-10-04T1800,2698A,76.0072,39.4467,喀什地区,巡警大队,,50,50,103,3,19,113,,88,88,8,38,4,5,0.3,0.6
2024-10-04T1800,2699A,75.9755,39.4694,喀什地区,吾办,颗粒物(PM10),52,54,110,14,34,113,,89,89,13,38,3,4,0.4,0.8
2024-10-04T1800,4027A,75.9483,39.4689,喀什地区,老干局,,45,45,145,3,22,107,,87,87,8,33,5,5,0.4,0.6
2024-10-04T1800,1824A,114.3389,34.7781,开封市,肿瘤医院,,50,43,73,20,49,160,,154,154,8,27,2,4,0.4,0.4
2024-10-04T1800,1826A,114.2885,34.7965,开封市,世纪星幼儿园,,,58,62,21,40,161,,158,158,,26,,9,0.5,0.6
2024-10-04T1800,3147A,114.3438,34.8106,开封市,龙亭公园,"颗粒物(PM10),臭氧1小时",52,54,68,21,44,161,,155,155,15,29,6,8,0.4,0.5
2024-10-04T1800,3210A,114.3644,34.7964,开封市,汴京公园,颗粒物(PM10),64,77,73,19,42,137,,142,142,11,25,4,5,0.2,0.3
2024-10-04T1800,3473A,114.2485,34.8306,开封市,技师学院,,50,46,56,20,34,158,,153,153,10,16,4,6,0.3,0.3
2024-10-04T1800,3592A,114.4644,34.7556,开封市,祥符区生态环境局,,40,39,79,19,44,128,,144,144,34,44,7,8,0.4,0.4
2024-10-04T1800,1951A,84.895,45.6094,克拉玛依市,长征新村,,31,31,29,9,5,99,,86,86,4,4,6,6,0.1,0.1
2024-10-04T1800,1952A,84.8988,45.5893,克拉玛依市,南林小区,,32,26,28,12,17,102,,86,86,6,6,3,2,0.2,0.2
2024-10-04T1800,1954A,84.905,44.3396,克拉玛依市,独山子区,,38,28,26,13,13,120,,93,93,12,18,27,9,0.6,0.4
2024-10-04T1800,1955A,85.6979,46.098,克拉玛依市,乌尔禾区商贸楼,,28,18,35,8,9,89,,79,79,9,11,3,2,0.2,0.2
2024-10-04T1800,3612A,85.1045,45.6899,克拉玛依市,白碱滩区新站,,34,34,32,13,10,100,,88,88,8,7,8,8,0.1,0.1
2024-10-04T1800,2697A,76.1454,39.7142,克孜勒苏柯尔克孜自治州,市人民政府,颗粒物(PM10),51,51,57,18,20,127,,116,112,1,9,3,17,0.7,0.8
2024-10-04T1800,3665A,76.1658,39.7157,克孜勒苏柯尔克孜自治州,克州文化中心,,44,44,44,14,15,124,,122,112,5,7,5,13,0.6,0.6
2024-10-04T1800,1450A,102.8204,24.8886,昆明市,呈贡新区,,19,19,27,10,15,53,,56,56,10,10,5,5,0.6,0.6
2024-10-04T1800,1452A,102.7252,25.0902,昆明市,龙泉镇,,17,17,22,8,14,53,,48,48,12,14,6,7,0.7,0.7
2024-10-04T1800,1453A,102.7266,25.0375,昆明市,东风东路,,18,17,23,12,15,50,,50,50,14,11,6,6,0.5,0.5
2024-10-04T1800,1454A,102.6742,25.0669,昆明市,金鼎山,,17,16,23,3,13,54,,50,50,14,16,2,3,0.6,0.5
2024-10-04T1800,1455A,102.6644,25.0401,昆明市,碧鸡广场,,20,20,26,8,14,46,,48,48,18,18,6,7,0.5,0.5
2024-10-04T1800,3179A,102.7494,25.0119,昆明市,官渡区博物馆,,20,20,24,9,13,58,,58,58,9,10,6,7,0.5,0.5
2024-10-04T1800,3375A,102.8017,24.8336,昆明市,青年创业园,,18,14,22,12,16,54,,57,56,11,9,4,5,0.5,0.5
2024-10-04T1800,3550A,102.7997,24.9786,昆明市,昆明学院,,18,11,26,8,18,57,,59,59,9,10,6,7,0.5,0.5
2024-10-04T1800,3551A,102.5967,24.6736,昆明市,晋宁区生态环境分局,,17,12,23,7,17,53,,59,59,4,7,2,2,0.6,0.7
2024-10-04T1800,3552A,102.6678,24.9856,昆明市,云天化总部,,19,14,23,11,17,58,,58,58,10,9,5,5,0.4,0.4
2024-10-04T1800,1456A,91.1319,29.6514,拉萨市,八廓街,,22,6,13,3,7,68,,74,74,8,13,8,7,0.3,0.1
2024-10-04T1800,1457A,91.1221,29.6747,拉萨市,市环保局,,23,13,13,3,6,72,,76,75,6,9,5,6,0.2,0.2
2024-10-04T1800,1458A,91.0874,29.6475,拉萨市,区监测站,,21,16,10,6,6,66,,72,67,6,9,6,6,0.3,0.3
2024-10-04T1800,1459A,91.1774,29.6541,拉萨市,西藏大学,,23,6,12,3,6,72,,74,74,4,9,6,7,0.2,0.4
2024-10-04T1800,1460A,90.9798,29.6588,拉萨市,区辐射站,,20,12,14,3,6,64,,68,67,9,13,8,9,0.2,0.2
2024-10-04T1800,1461A,91.0834,29.6292,拉萨市,拉萨火车站,,19,17,11,3,5,60,,72,66,8,7,6,6,0.2,0.3
2024-10-04T1800,2520A,109.2203,23.7256,来宾市,来宾技工学校,颗粒物(PM10),52,54,57,28,29,156,,145,145,11,13,10,11,0.7,0.7
2024-10-04T1800,3535A,109.1781,23.7297,来宾市,兴宾区政府,,,58,53,30,29,166,,149,149,11,11,11,10,,0.9
2024-10-04T1800,4002A,109.2416,23.7461,来宾市,中南小学,颗粒物(PM10),57,64,63,38,24,162,,154,154,7,9,12,12,0.8,0.7
2024-10-04T1800,1476A,103.631,36.1031,兰州市,兰炼宾馆,,40,40,44,26,28,112,,97,97,17,26,11,10,0.4,0.4
2024-10-04T1800,1478A,103.8412,36.0726,兰州市,生物制品所,,42,42,34,22,26,89,,85,85,28,24,17,11,0.6,0.5
2024-10-04T1800,1479A,103.831,36.0464,兰州市,铁路设计院,,48,48,40,21,28,88,,77,77,30,27,9,7,0.5,0.5
2024-10-04T1800,3186A,103.7158,36.1058,兰州市,教育港,颗粒物(PM10),56,62,47,25,27,101,,91,91,26,22,13,8,0.6,0.5
2024-10-04T1800,3241A,103.7439,36.0842,兰州市,百合公园,,38,38,35,17,20,105,,91,91,18,23,11,7,0.6,0.4
2024-10-04T1800,3242A,103.9611,35.998,兰州市,和平,,34,32,38,17,19,106,,89,89,13,18,10,9,0.4,0.5
2024-10-04T1800,3245A,103.6633,36.533,兰州新区,新区管委会,,47,47,42,32,24,118,,97,97,12,16,9,14,0.5,0.5
2024-10-04T1800,3246A,103.6975,36.4789,兰州新区,舟曲中学,,39,34,38,17,20,122,,101,101,13,19,9,26,0.4,0.4
2024-10-04T1800,1067A,116.6708,39.5111,廊坊市,药材公司,颗粒物(PM10),68,86,84,39,54,142,,134,134,18,34,7,7,0.5,0.5
2024-10-04T1800,1068A,116.7214,39.5589,廊坊市,开发区,颗粒物(PM10),63,76,74,40,44,150,,137,137,19,30,6,6,0.5,0.5
2024-10-04T1800,1070A,116.7244,39.5269,廊坊市,北华航天学院,颗粒物(PM10),65,79,79,36,40,149,,141,141,21,31,6,7,0.4,0.5
2024-10-04T1800,2919A,116.7022,39.5453,廊坊市,河北工业大学,细颗粒物(PM2.5),64,72,75,46,50,149,,136,136,19,31,7,9,0.5,0.5
2024-10-04T1800,2535A,103.7723,29.5462,乐山市,花湖湾,,21,21,21,13,12,55,,52,52,11,12,2,2,0.6,0.6
2024-10-04T1800,2536A,103.7627,29.5844,乐山市,牛耳桥,,27,27,21,17,15,60,,57,57,20,17,3,4,0.4,0.4
2024-10-04T1800,2537A,103.7508,29.6006,乐山市,市第三水厂,,30,30,23,15,18,60,,60,60,17,13,3,3,0.6,0.5
2024-10-04T1800,2538A,103.7571,29.5664,乐山市,市监测站,,21,21,22,14,13,61,,57,57,11,13,3,3,0.4,0.4
2024-10-04T1800,3361A,103.7311,29.5628,乐山市,理工大学,,28,24,21,19,16,51,,54,54,16,13,2,3,0.4,0.5
2024-10-04T1800,2599A,100.2497,26.8802,丽江市,丽江古城,,20,18,21,14,17,43,,43,43,10,10,9,9,0.5,0.7
2024-10-04T1800,2600A,100.2203,26.8906,丽江市,市中心,,16,15,16,11,12,35,,34,34,8,8,6,6,0.8,0.8
2024-10-04T1800,1267A,119.914,28.4514,丽水市,监测站大楼,,37,37,23,18,15,92,,101,100,23,17,6,5,0.4,0.3
2024-10-04T1800,1268A,119.93,28.4586,丽水市,莲都小学,,36,36,24,19,12,100,,108,108,17,16,4,4,0.4,0.3
2024-10-04T1800,1269A,119.879,28.4231,丽水市,余庄前,,25,24,22,12,12,78,,100,99,11,9,4,4,0.3,0.2
2024-10-04T1800,1173A,119.176,34.5885,连云港市,市环境监测站,臭氧1小时,60,36,39,17,23,168,,163,163,13,22,9,10,0.5,0.5
2024-10-04T1800,3000A,119.3581,34.6972,连云港市,德源药业,,45,31,36,17,18,142,,154,154,17,34,7,7,0.2,0.3
2024-10-04T1800,3007A,119.178,34.844,连云港市,新城一中,臭氧1小时,70,42,42,15,27,176,,170,170,21,37,7,9,0.6,0.6
2024-10-04T1800,3008A,119.3608,34.7519,连云港市,胡沟管理处,,48,34,33,9,18,152,,158,158,13,18,4,4,0.4,0.4
2024-10-04T1800,3009A,119.1478,34.5911,连云港市,矿山设计院,臭氧1小时,60,41,45,24,26,168,,162,162,14,28,9,9,0.8,0.7
2024-10-04T1800,3434A,119.2413,34.6539,连云港市,工贸学校,臭氧1小时,54,26,27,16,18,163,,160,160,13,15,9,9,0.6,0.8
2024-10-04T1800,3664A,119.4172,34.7341,连云港市,连云街道,,42,19,27,9,12,132,,155,155,11,15,5,7,0.3,0.4
2024-10-04T1800,2571A,102.3431,27.8099,凉山彝族自治州,青龙寺,,18,9,19,3,10,56,,56,56,4,10,6,6,0.6,0.7
2024-10-04T1800,2572A,102.2721,27.8415,凉山彝族自治州,邛海宾馆,,20,20,22,14,17,40,,47,47,12,15,8,10,0.6,0.7
2024-10-04T1800,2573A,102.2625,27.898,凉山彝族自治州,西昌市政府,,22,22,28,12,22,48,,45,45,9,18,7,10,0.6,0.8
2024-10-04T1800,2574A,102.2685,27.8851,凉山彝族自治州,凉山州政府,,19,19,27,13,18,52,,49,49,8,18,6,9,0.7,0.8
2024-10-04T1800,2575A,102.237,27.8914,凉山彝族自治州,长安,,18,18,27,9,15,47,,41,41,7,20,13,11,0.7,0.8
2024-10-04T1800,2212A,123.2,41.1953,辽阳市,宏伟区,,39,39,29,13,13,108,,117,117,30,16,9,6,0.7,0.5
2024-10-04T1800,2213A,123.1683,41.2495,辽阳市,新华园,,43,43,34,18,18,96,,112,112,34,25,19,14,1.3,0.9
2024-10-04T1800,2214A,123.2354,41.2639,辽阳市,滨河路,,40,40,31,17,15,103,,112,112,27,18,14,12,0.9,0.8
2024-10-04T1800,2215A,123.149,41.2991,辽阳市,铁西工业园,颗粒物(PM10),54,58,42,16,17,98,,108,108,24,19,19,13,1.2,0.9
2024-10-04T1800,2227A,125.1358,42.8845,辽源市,环保局,,35,30,33,16,18,110,,129,129,16,20,10,9,0.8,0.8
2024-10-04T1800,3239A,125.0764,42.9078,辽源市,银鹰制药,,37,37,33,20,18,105,,120,120,34,28,8,7,0.8,0.7
2024-10-04T1800,1625A,115.9848,36.4372,聊城市,区政府,颗粒物(PM10),60,70,68,28,34,153,,155,155,26,34,10,13,0.4,0.5
2024-10-04T1800,2878A,116.0072,36.4343,聊城市,聊大东校,颗粒物(PM10),62,73,72,28,39,158,,160,160,26,36,10,12,0.7,0.7
2024-10-04T1800,3200A,115.9819,36.4978,聊城市,监控中心,颗粒物(PM10),62,73,67,31,34,158,,154,154,23,32,10,12,0.5,0.6
2024-10-04T1800,3513A,116.0445,36.4361,聊城市,九州社区,颗粒物(PM10),61,71,66,25,31,147,,155,155,22,34,7,9,0.4,0.4
2024-10-04T1800,4018A,116.0567,36.4608,聊城市,星美广场,颗粒物(PM10),56,62,70,24,31,145,,158,158,20,27,2,9,0.4,0.5
2024-10-04T1800,2632A,94.3681,29.6376,林芝市,林芝监测站,,13,,3,3,4,40,,38,38,1,3,10,10,0.2,0.2
2024-10-04T1800,2633A,94.3616,29.6616,林芝市,林芝人民医院,,,6,5,3,3,41,,38,38,,6,5,5,0.3,0
2024-10-04T1800,2603A,100.0781,23.8982,临沧市,市环保局,,23,,12,16,12,36,,41,41,6,8,4,4,0.4,0.5
2024-10-04T1800,2604A,100.0894,23.8822,临沧市,市气象局,,14,14,13,3,10,34,,41,40,6,7,4,3,0.5,0.5
2024-10-04T1800,1733A,111.5531,36.0783,临汾市,临钢医院,颗粒物(PM10),57,63,71,38,28,152,,135,135,25,36,6,5,0.5,0.6
2024-10-04T1800,1734A,111.5028,36.0714,临汾市,技工学校,颗粒物(PM10),57,64,66,35,37,160,,140,140,27,33,8,6,0.6,0.6
2024-10-04T1800,1736A,111.5018,36.0855,临汾市,市委,臭氧1小时,63,69,66,32,28,170,,151,151,18,22,8,7,0.6,0.6
2024-10-04T1800,3018A,111.505,36.1014,临汾市,唐尧大酒店,颗粒物(PM10),58,65,64,36,31,152,,140,140,22,24,7,6,0.6,0.6
2024-10-04T1800,3668A,111.5036,36.0414,临汾市,城南,臭氧1小时,65,67,83,37,37,172,,152,152,18,36,8,7,0.5,0.6
2024-10-04T1800,2667A,103.2069,35.5993,临夏回族自治州,环保局,,41,41,35,18,18,97,,89,89,11,12,12,12,0.4,0.5
2024-10-04T1800,2668A,103.2417,35.6057,临夏回族自治州,建设大厦,,32,31,30,15,18,102,,92,92,10,13,4,4,0.4,0.4
2024-10-04T1800,1618A,118.3429,35.0532,临沂市,沂河小区,,49,46,66,26,44,155,,151,151,11,36,8,17,0.3,0.6
2024-10-04T1800,1619A,118.295,35.0583,临沂市,鲁南制药厂,,50,39,64,21,36,160,,159,159,12,38,8,16,0.3,0.6
2024-10-04T1800,1620A,118.2794,34.9976,临沂市,新光毛纺厂,,47,39,69,20,42,150,,150,150,19,42,7,16,0.6,0.7
2024-10-04T1800,1621A,118.3956,35.0888,临沂市,河东保险公司,臭氧1小时,55,41,77,25,44,164,,162,162,25,48,8,10,0.7,0.9
2024-10-04T1800,3370A,118.3564,35.0215,临沂市,十里堡居委,,49,44,58,24,38,156,,151,151,16,37,8,18,0.6,0.7
2024-10-04T1800,3496A,118.3604,35.1084,临沂市,南坊新区,臭氧1小时,52,44,68,17,41,161,,158,158,16,35,9,11,0.5,0.7
2024-10-04T1800,3860A,118.3920,35.0300,临沂市,皇山花园小区,,50,44,73,23,46,157,,151,151,16,40,9,18,0.5,0.7
2024-10-04T1800,1870A,109.4856,24.3895,柳州市,柳东小学,,46,46,52,27,28,142,,131,131,7,7,10,10,0.6,0.5
2024-10-04T1800,1871A,109.4157,24.3277,柳州市,环保监测站,,,48,57,23,28,143,,134,134,13,10,,11,0.8,0.6
2024-10-04T1800,1872A,109.389,24.341,柳州市,河西水厂,颗粒物(PM10),58,66,69,30,30,142,,135,135,10,21,13,20,0.6,1.4
2024-10-04T1800,1873A,109.4311,24.2921,柳州市,市四中,颗粒物(PM10),52,53,49,28,23,154,,151,151,10,7,10,9,0.8,0.7
2024-10-04T1800,1874A,109.4006,24.3631,柳州市,市九中,颗粒物(PM10),61,71,63,30,30,143,,137,137,11,12,10,9,0.9,0.8
2024-10-04T1800,1875A,109.4958,24.3134,柳州市,古亭山,,,60,51,23,25,150,,139,139,9,14,,10,0.6,0.7
2024-10-04T1800,3402A,109.5422,24.3996,柳州市,市二中,,48,47,51,24,26,153,,139,139,10,12,11,11,0.5,0.5
2024-10-04T1800,2307A,116.5079,31.737,六安市,监测大楼,,42,30,32,17,19,133,,124,124,10,20,5,5,0.3,0.4
2024-10-04T1800,2308A,116.4738,31.7643,六安市,皖西学院,,,32,46,15,21,132,,103,,11,23,,5,0.3,0.5
2024-10-04T1800,2309A,116.4996,31.7905,六安市,朝阳厂,,40,15,30,13,20,128,,121,121,12,19,1,2,0.4,0.4
2024-10-04T1800,2310A,116.5567,31.7886,六安市,开发区,,40,34,38,13,20,125,,127,127,24,21,4,2,0.4,0.4
2024-10-04T1800,2577A,104.83,26.5917,六盘水市,黄土坡,,44,44,32,22,21,91,,92,84,12,10,6,8,0.4,0.3
2024-10-04T1800,2578A,104.89,26.5939,六盘水市,水钢,,34,34,38,17,18,103,,97,96,8,8,7,8,0.2,0.2
2024-10-04T1800,2579A,104.8475,26.5894,六盘水市,民中,,33,33,32,17,17,90,,94,88,17,12,8,9,0.4,0.4
2024-10-04T1800,2580A,104.9544,26.5506,六盘水市,双水,,39,39,34,14,14,99,,96,96,8,7,8,9,0.4,0.4
2024-10-04T1800,2336A,117.0217,25.1033,龙岩市,龙岩市监测站,,23,,22,16,17,72,,78,77,10,12,6,11,0.5,0.5
2024-10-04T1800,2337A,117.0258,25.0661,龙岩市,闽西职业技术学院,,24,15,21,12,15,76,,79,78,5,7,4,8,0.5,0.5
2024-10-04T1800,2338A,117.0196,25.0306,龙岩市,龙岩学院,,25,,19,9,12,79,,79,77,6,9,3,4,0.4,0.4
2024-10-04T1800,2885A,104.9339,33.3826,陇南市,滨江中学,,33,33,35,20,16,72,,84,80,10,5,7,7,0.4,0.6
2024-10-04T1800,3247A,104.955,33.371,陇南市,市总工会,,27,27,24,6,5,75,,88,83,9,5,2,2,0.3,0.3
2024-10-04T1800,2487A,111.9589,27.8901,娄底市,电视发射台,,49,49,58,29,29,142,,130,130,8,8,9,8,0.9,0.8
2024-10-04T1800,2488A,111.9975,27.725,娄底市,市监测站,,46,33,69,32,43,147,,139,139,7,17,8,13,0.5,0.7
2024-10-04T1800,2489A,112.0194,27.7314,娄底市,市委党校,,44,44,67,25,40,135,,126,126,7,13,4,8,0.4,0.5
2024-10-04T1800,2490A,111.9561,27.7569,娄底市,涟钢,颗粒物(PM10),51,52,63,31,39,117,,109,109,15,12,13,9,0.5,0.4
2024-10-04T1800,2491A,111.9892,27.7044,娄底市,市政府,,43,37,63,23,41,136,,130,130,9,12,6,7,0.4,0.6
2024-10-04T1800,1893A,105.4324,28.9634,泸州市,九狮山,,45,45,34,23,19,40,,41,41,21,18,5,5,0.8,0.8
2024-10-04T1800,1894A,105.4427,28.9063,泸州市,小市上码头,,42,42,34,22,18,59,,52,52,23,17,4,4,0.5,0.5
2024-10-04T1800,1895A,105.4241,28.8573,泸州市,兰田宪桥,,40,34,24,28,19,69,,56,56,13,12,4,3,0.4,0.4
2024-10-04T1800,1896A,105.4379,28.8833,泸州市,市环监站,,39,39,33,26,21,49,,44,44,28,18,4,3,0.6,0.5
2024-10-04T1800,3490A,105.3617,28.7703,泸州市,纳溪区环保局,,37,37,32,22,22,51,,48,48,16,16,7,6,0.4,0.4
2024-10-04T1800,2183A,111.1406,37.5211,吕梁市,环保局,颗粒物(PM10),56,62,67,39,22,153,,109,109,19,35,14,8,0.6,0.5
2024-10-04T1800,2185A,111.1297,37.5136,吕梁市,自来水公司,颗粒物(PM10),53,55,71,36,20,156,,112,112,17,32,10,7,0.6,0.5
2024-10-04T1800,2867A,111.1283,37.51,吕梁市,马茂庄小学,颗粒物(PM10),60,70,74,37,20,132,,111,111,41,38,12,9,0.6,0.4
2024-10-04T1800,1812A,112.3931,34.6516,洛阳市,市委党校,颗粒物(PM10),59,68,83,40,54,165,,154,154,21,38,10,10,0.4,0.6
2024-10-04T1800,1814A,112.4657,34.6871,洛阳市,豫西宾馆,颗粒物(PM10),65,79,86,34,46,151,,138,138,16,33,13,13,0.5,0.6
2024-10-04T1800,1815A,112.494,34.6886,洛阳市,河南林校,细颗粒物(PM2.5),55,56,65,39,46,162,,148,148,17,31,8,8,0.6,0.7
2024-10-04T1800,1816A,112.3844,34.623,洛阳市,开发区管委会,细颗粒物(PM2.5),70,77,84,51,59,170,,160,160,22,21,6,6,0.3,0.4
2024-10-04T1800,1817A,112.4267,34.6258,洛阳市,市委新办公区,颗粒物(PM10),64,78,85,40,56,155,,151,151,21,24,6,5,0.3,0.3
2024-10-04T1800,3340A,112.6005,34.6326,洛阳市,伊滨,颗粒物(PM10),54,57,76,32,48,160,,146,146,17,28,14,12,0.3,0.4
2024-10-04T1800,3341A,112.4951,34.6332,洛阳市,中移产业园,臭氧1小时,62,62,71,36,50,169,,161,161,22,31,8,6,0.4,0.5
2024-10-04T1800,3593A,112.5736,34.8993,洛阳市,吉利监测站,颗粒物(PM10),56,62,64,31,35,149,,136,136,21,41,12,11,0.2,0.4
2024-10-04T1800,3635A,112.3677,34.662,洛阳市,河科大西苑校区,"颗粒物(PM10),臭氧1小时",59,67,86,38,57,167,,160,160,24,40,8,8,0.5,0.6
2024-10-04T1800,3636A,112.4388,34.6781,洛阳市,英才小学,颗粒物(PM10),61,71,91,26,44,162,,152,152,22,41,6,6,0.3,0.5
2024-10-04T1800,2399A,114.051,33.5699,漯河市,三五一五工厂,颗粒物(PM10),61,71,111,28,66,150,,146,146,13,26,6,8,0.4,0.5
2024-10-04T1800,2400A,114.0055,33.5698,漯河市,漯河大学,颗粒物(PM10),65,80,99,14,53,152,,149,149,14,26,5,7,0.5,0.6
2024-10-04T1800,2401A,114.0138,33.5828,漯河市,市水利局,颗粒物(PM10),59,68,95,17,49,152,,148,148,10,18,5,7,0.6,0.7
2024-10-04T1800,2402A,114.0261,33.5698,漯河市,市广电局,颗粒物(PM10),61,71,102,21,61,153,,149,149,14,23,8,12,0.4,0.6
2024-10-04T1800,3478A,113.9749,33.5664,漯河市,市图书馆,颗粒物(PM10),59,68,82,17,42,153,,153,153,16,24,3,5,0.4,0.4
2024-10-04T1800,3479A,114.0967,33.5906,漯河市,召陵区卫健委,颗粒物(PM10),54,57,104,21,62,148,,149,149,14,25,8,11,0.5,0.6
2024-10-04T1800,1798A,118.5092,31.6837,马鞍山市,湖东路四小,,37,20,26,12,12,117,,122,122,17,16,6,6,0.5,0.6
2024-10-04T1800,1799A,118.5024,31.6449,马鞍山市,开发区,,36,36,25,17,14,112,,119,119,30,23,6,6,0.7,0.7
2024-10-04T1800,1800A,118.5228,31.7231,马鞍山市,慈湖,,38,22,17,18,15,119,,124,124,15,13,7,7,0.5,0.8
2024-10-04T1800,1802A,118.6245,31.7241,马鞍山市,濮塘,,36,30,22,14,13,115,,120,120,1,3,8,9,0.9,0.9
2024-10-04T1800,3633A,118.4918,31.6809,马鞍山市,雨山,,37,26,26,14,13,117,,121,121,18,17,6,6,0.6,0.6
2024-10-04T1800,1686A,111.0286,21.4688,茂名市,电白南海,颗粒物(PM10),53,56,57,17,21,153,,148,148,16,15,11,16,0.7,0.6
2024-10-04T1800,1687A,110.9294,21.6533,茂名市,茂石化七小,,46,44,46,24,25,146,,133,133,13,14,12,15,0.6,0.6
2024-10-04T1800,1688A,110.9107,21.6687,茂名市,健康路,,46,39,40,17,22,147,,138,138,8,11,14,24,0.6,0.6
2024-10-04T1800,1689A,110.8592,21.6828,茂名市,高岭,颗粒物(PM10),68,85,61,36,29,133,,138,138,13,18,11,20,0.7,0.7
2024-10-04T1800,3450A,111.01,21.5165,茂名市,电白水东,,47,41,42,19,22,150,,132,132,8,11,8,12,0.6,0.6
2024-10-04T1800,2539A,104.0308,30.0478,眉山市,黑龙滩水库,,40,36,25,28,18,54,,54,54,6,5,4,4,0.5,0.5
2024-10-04T1800,2540A,103.8416,30.0874,眉山市,气象局,,27,27,20,17,13,54,,60,60,16,15,6,5,0.4,0.4
2024-10-04T1800,3137A,103.8578,30.0744,眉山市,市委党校,,19,19,15,3,8,59,,64,64,19,15,7,8,0.4,0.3
2024-10-04T1800,3148A,103.8291,30.0564,眉山市,区人社局,,30,30,22,9,8,51,,58,58,27,19,6,6,0.5,0.4
2024-10-04T1800,1690A,116.1231,24.3284,梅州市,梅江月梅,细颗粒物(PM2.5),73,,30,53,18,82,,95,95,5,16,7,8,0.6,0.6
2024-10-04T1800,1691A,116.0797,24.2719,梅州市,梅县新城,,38,30,29,26,15,80,,101,100,14,14,5,6,0.6,0.5
2024-10-04T1800,1692A,116.1248,24.2654,梅州市,环境监控中心,,28,26,27,19,15,82,,97,96,11,18,5,6,0.5,0.5
2024-10-04T1800,3315A,116.1233,24.2991,梅州市,梅龙,,28,22,28,19,16,77,,95,94,11,13,10,11,0.6,0.5
2024-10-04T1800,1878A,104.7778,31.4741,绵阳市,富乐山,,28,25,16,16,11,87,,82,82,12,12,2,2,0.4,0.4
2024-10-04T1800,1879A,104.7563,31.4535,绵阳市,市人大,,32,32,21,21,13,81,,78,78,20,14,11,9,0.5,0.4
2024-10-04T1800,1880A,104.6697,31.4668,绵阳市,高新区自来水公司,,,39,26,17,10,81,,83,83,,14,4,3,,0.4
2024-10-04T1800,1881A,104.7287,31.5075,绵阳市,三水厂,,21,15,20,13,11,67,,76,76,29,15,6,5,0.4,0.3
2024-10-04T1800,3491A,104.69,31.5322,绵阳市,西科大附属小学,,31,31,18,20,12,83,,86,86,21,15,4,4,0.4,0.4
2024-10-04T1800,3492A,104.5648,31.5343,绵阳市,安州区旅游局,,33,33,16,17,13,87,,88,88,20,10,5,5,0.4,0.3
2024-10-04T1800,1784A,129.61,44.561,牡丹江市,环保大楼,,36,36,33,21,18,36,,78,75,53,21,7,7,0.5,0.4
2024-10-04T1800,1785A,129.6115,44.5782,牡丹江市,文化广场,,29,29,40,16,24,40,,72,71,55,27,8,9,0.7,0.5
2024-10-04T1800,1786A,129.5904,44.5963,牡丹江市,第一医院,细颗粒物(PM2.5),68,83,39,49,27,29,,73,71,60,23,7,7,0.6,0.4
2024-10-04T1800,1787A,129.6364,44.6075,牡丹江市,机车工厂,颗粒物(PM10),85,119,36,42,20,22,,74,71,53,19,8,18,0.4,0.4
2024-10-04T1800,1788A,129.6386,44.5462,牡丹江市,第一中学,颗粒物(PM10),60,70,27,20,11,33,,82,80,44,16,6,6,0.4,0.2
2024-10-04T1800,2531A,105.0703,29.61,内江市,市监测站,,32,32,26,22,17,70,,66,66,14,13,7,7,0.3,0.3
2024-10-04T1800,2532A,105.0717,29.5947,内江市,东兴区政府,,25,25,15,16,11,76,,72,72,17,19,5,5,0.4,0.4
2024-10-04T1800,2533A,105.0653,29.5817,内江市,内江二中,,29,26,22,20,17,67,,67,67,22,20,5,5,0.5,0.5
2024-10-04T1800,2534A,105.0406,29.5822,内江市,内江日报社,,49,49,26,20,17,74,,66,66,23,24,3,3,0.4,0.4
2024-10-04T1800,2628A,92.0657,31.4846,那曲市,那曲监测站,,30,30,28,6,10,81,,86,86,7,6,6,5,0.2,0.3
2024-10-04T1800,3128A,92.0506,31.4797,那曲市,那曲会议中心,,34,34,33,8,10,98,,96,96,3,11,3,3,0.4,0.4
2024-10-04T1800,1290A,115.8931,28.6843,南昌市,省外办,,49,41,35,34,23,144,,124,124,20,19,12,10,0.5,0.5
2024-10-04T1800,1291A,115.8886,28.7003,南昌市,省林业公司,,48,39,33,22,18,153,,131,131,13,14,8,8,0.6,0.6
2024-10-04T1800,1292A,115.8126,28.7442,南昌市,林科所,,47,27,26,9,13,150,,137,137,17,14,9,9,0.6,0.5
2024-10-04T1800,1294A,115.8518,28.687,南昌市,建工学校,颗粒物(PM10),52,53,32,16,19,142,,128,128,18,12,9,9,0.6,0.5
2024-10-04T1800,1295A,115.8921,28.6424,南昌市,象湖,臭氧1小时,54,34,34,23,16,163,,139,139,20,18,10,9,0.5,0.4
2024-10-04T1800,1296A,115.7423,28.7996,南昌市,武术学校,,38,21,18,9,22,119,,128,128,7,8,3,2,0.4,0.4
2024-10-04T1800,1298A,115.9314,28.6842,南昌市,省站,,45,39,32,27,19,142,,121,121,14,17,12,11,0.7,0.5
2024-10-04T1800,3046A,115.9084,28.6062,南昌市,机电学校,颗粒物(PM10),51,51,38,14,17,149,,126,126,17,16,9,10,0.6,0.6
2024-10-04T1800,3690A,115.9721,28.7031,南昌市,外国语学校,,47,39,33,11,20,150,,123,123,12,13,8,7,0.5,0.4
2024-10-04T1800,1905A,106.056,30.8064,南充市,西山风景区,,36,28,27,25,25,97,,68,68,10,11,4,4,0.7,0.8
2024-10-04T1800,1906A,106.0789,30.8023,南充市,南充市委,,39,39,36,23,25,101,,75,75,15,20,5,4,0.3,0.4
2024-10-04T1800,1907A,106.1031,30.8217,南充市,南充炼油厂,颗粒物(PM10),51,51,46,30,29,97,,76,76,19,16,5,5,0.4,0.3
2024-10-04T1800,1908A,106.1064,30.7856,南充市,高坪区监测站,,40,40,37,21,25,103,,81,81,18,20,8,7,0.4,0.4
2024-10-04T1800,1909A,106.0642,30.7636,南充市,嘉陵区环保局,,42,32,40,29,23,101,,72,72,16,22,6,4,0.4,0.4
2024-10-04T1800,1910A,106.1087,30.8388,南充市,市环境监测站,颗粒物(PM10),51,51,44,33,31,98,,69,69,16,18,5,4,0.2,0.2
2024-10-04T1800,1151A,118.8086,32.1065,南京市,迈皋桥,,37,26,22,12,11,117,,119,119,12,25,3,4,0.3,0.3
2024-10-04T1800,1152A,118.7538,32.0551,南京市,草场门,,36,22,20,7,10,114,,116,116,19,24,5,6,0.2,0.2
2024-10-04T1800,1153A,118.7794,32.0745,南京市,山西路,,36,24,27,17,14,115,,121,121,7,15,4,4,0.4,0.4
2024-10-04T1800,1154A,118.7752,32.0023,南京市,中华门,,35,19,22,7,10,110,,116,116,12,17,5,6,0.4,0.4
2024-10-04T1800,1155A,118.8109,32.0309,南京市,瑞金路,,33,24,21,9,11,105,,115,114,19,13,4,4,0.4,0.5
2024-10-04T1800,1156A,118.7997,32.0754,南京市,玄武湖,,30,18,26,10,10,94,,109,109,30,36,5,6,0.4,0.3
2024-10-04T1800,1157A,118.6414,32.0931,南京市,浦口,,34,27,25,16,14,106,,108,108,14,16,5,7,0.3,0.4
2024-10-04T1800,1158A,118.7356,31.9996,南京市,奥体中心,,39,23,23,12,12,122,,124,124,16,20,5,6,0.3,0.3
2024-10-04T1800,1159A,118.9125,32.1028,南京市,仙林大学城,,38,27,25,12,12,119,,125,125,14,23,5,6,0.4,0.4
2024-10-04T1800,3422A,118.8436,31.9198,南京市,江宁彩虹桥,,36,21,25,14,10,113,,118,118,9,16,5,4,0.3,0.4
2024-10-04T1800,3423A,119.0138,31.6494,南京市,溧水永阳,,35,22,25,15,15,110,,119,118,12,15,3,4,0.5,0.6
2024-10-04T1800,3424A,118.879,31.3302,南京市,高淳老职中,,46,35,25,22,16,145,,134,134,14,14,6,5,0.6,0.5
2024-10-04T1800,3427A,118.8554,32.3578,南京市,六合雄州,,32,26,29,16,18,100,,112,112,18,19,7,7,0.3,0.3
2024-10-04T1800,1401A,108.3103,22.7881,南宁市,二十一中,颗粒物(PM10),55,60,63,20,40,156,,156,156,14,34,9,16,0.7,0.8
2024-10-04T1800,1402A,108.3141,22.8528,南宁市,北湖,颗粒物(PM10),52,53,70,26,33,151,,160,160,14,41,8,22,0.8,0.9
2024-10-04T1800,1403A,108.3206,22.8225,南宁市,市监测站,,47,43,66,25,31,149,,159,159,20,36,10,20,0.7,0.7
2024-10-04T1800,1404A,108.3829,22.8037,南宁市,大自然花园,颗粒物(PM10),51,51,51,19,30,152,,147,147,11,18,9,10,0.6,0.6
2024-10-04T1800,1405A,108.4394,22.7904,南宁市,仙葫,颗粒物(PM10),53,55,55,26,35,147,,138,138,10,24,10,16,0.7,0.7
2024-10-04T1800,1406A,108.2397,22.8467,南宁市,区农职院,臭氧1小时,55,58,55,26,26,164,,170,170,16,17,8,11,0.6,0.6
2024-10-04T1800,1407A,108.3275,22.735,南宁市,英华嘉园,,48,48,57,22,30,151,,152,152,16,27,8,11,0.6,0.6
2024-10-04T1800,1408A,108.2257,22.7757,南宁市,沙井镇街道办,臭氧1小时,88,73,65,32,31,190,,169,169,25,35,9,9,0.6,0.7
2024-10-04T1800,3401A,108.4834,22.7618,南宁市,红星社区,颗粒物(PM10),58,65,52,32,28,161,,150,150,10,17,8,9,0.5,0.5
2024-10-04T1800,2332A,118.1681,26.6369,南平市,南平市监测站,,28,26,24,19,16,80,,90,90,8,9,4,5,0.4,0.4
2024-10-04T1800,2333A,118.1825,26.6489,南平市,南平铝业有限公司,,32,23,21,22,14,75,,84,83,9,9,4,5,0.5,0.4
2024-10-04T1800,2334A,118.1756,26.6272,南平市,南平七中,,26,,21,18,14,76,,88,88,13,11,3,4,0.6,0.5
2024-10-04T1800,1168A,120.9098,31.9663,南通市,狼山街道,,31,17,15,8,8,98,,104,104,10,9,6,7,0.2,0.2
2024-10-04T1800,1169A,120.86,32.0005,南通市,虹桥,,30,20,18,9,8,96,,102,102,11,10,6,7,0.4,0.4
2024-10-04T1800,1170A,120.87,32.02,南通市,城中,,,30,19,8,7,98,,104,104,,7,,7,0.4,0.5
2024-10-04T1800,1171A,120.94,31.93,南通市,星湖花园,,32,11,14,3,7,100,,104,104,12,14,5,6,0.4,0.4
2024-10-04T1800,1172A,120.81,32.0417,南通市,紫琅学院,,30,11,16,7,10,95,,99,99,9,12,7,8,0.3,0.4
2024-10-04T1800,3291A,121.067,32.062,南通市,通州监测站,,33,17,20,3,10,104,,105,105,9,9,2,2,0.4,0.4
2024-10-04T1800,3432A,120.9348,31.9883,南通市,环境教育馆,,32,27,18,7,5,101,,107,107,10,10,4,4,0.4,0.4
2024-10-04T1800,2404A,112.5224,33.0122,南阳市,瓦房庄,,46,36,64,21,45,146,,147,147,15,20,4,5,0.4,0.4
2024-10-04T1800,2405A,112.5003,32.9735,南阳市,汉画馆,,43,36,59,24,42,135,,140,140,18,21,6,7,0.4,0.5
2024-10-04T1800,2406A,112.5573,33.027,南阳市,气象站,,45,34,69,12,39,144,,144,144,18,21,7,12,0.4,0.5
2024-10-04T1800,2407A,112.5481,32.9689,南阳市,理工学院,,46,35,68,19,46,146,,144,144,14,21,6,9,0.4,0.5
2024-10-04T1800,4008A,112.5234,32.9922,南阳市,卧龙区政府,,42,32,68,22,43,134,,146,146,27,24,4,5,0.5,0.5
2024-10-04T1800,1234A,121.8358,29.911,宁波市,区环保大楼,,30,28,22,7,7,94,,108,107,17,9,6,6,0.6,0.5
2024-10-04T1800,1235A,121.56,29.82,宁波市,万里学院,,34,24,21,8,8,107,,113,113,12,15,6,6,0.4,0.4
2024-10-04T1800,1236A,121.713,29.9572,宁波市,龙赛医院,,32,27,17,6,4,100,,108,108,14,11,7,7,0.5,0.5
2024-10-04T1800,1239A,121.633,29.7733,宁波市,钱湖水厂,,33,21,22,7,9,104,,112,112,11,16,8,8,0.4,0.4
2024-10-04T1800,1240A,121.5856,29.8635,宁波市,太古小学,,,23,21,13,6,105,,111,111,,17,8,8,0.5,0.5
2024-10-04T1800,1241A,121.524,29.8674,宁波市,市环境监测中心,,34,22,18,7,5,108,,111,111,11,15,4,5,0.4,0.4
2024-10-04T1800,2871A,121.6147,29.9017,宁波市,万里国际学校,,34,21,15,10,7,106,,114,114,20,20,8,8,0.5,0.5
2024-10-04T1800,3710A,121.5594,29.8975,宁波市,白沙活动中心,,35,26,18,6,5,111,,112,112,10,15,8,9,0.3,0.3
2024-10-04T1800,2341A,119.5388,26.6612,宁德市,宁德市监测站,,19,19,14,11,14,27,,68,51,25,13,6,6,0.8,0.5
2024-10-04T1800,3209A,119.5231,26.6562,宁德市,宁德一中,,29,29,14,13,11,30,,72,58,20,6,6,6,0.7,0.4
2024-10-04T1800,2618A,98.8601,25.8567,怒江傈僳族自治州,州监测站,,15,12,18,8,14,48,,42,42,6,8,5,5,0.4,0.4
2024-10-04T1800,2619A,98.8546,25.8417,怒江傈僳族自治州,泸水一中,,14,9,15,3,11,42,,38,38,8,12,6,6,0.4,0.4
2024-10-04T1800,1888A,101.6891,26.571,攀枝花市,弄弄坪,颗粒物(PM10),53,55,59,25,31,50,,56,56,26,26,18,18,0.6,0.8
2024-10-04T1800,1889A,101.5769,26.5928,攀枝花市,河门口,,26,26,55,15,35,58,,62,62,18,24,19,21,1.0,1.6
2024-10-04T1800,1890A,101.7169,26.585,攀枝花市,炳草岗,,50,50,45,21,30,43,,60,60,36,27,16,15,0.7,0.7
2024-10-04T1800,1891A,101.7369,26.5008,攀枝花市,仁和,,15,12,51,8,36,48,,63,63,9,21,5,11,0.4,1.2
2024-10-04T1800,2835A,101.7227,26.567,攀枝花市,四十中小,,40,40,40,27,26,59,,65,65,18,16,12,10,0.9,0.9
2024-10-04T1800,1604A,122.0303,41.1489,盘锦市,开发区,,48,37,34,25,22,151,,151,151,18,18,10,6,0.4,0.5
2024-10-04T1800,1605A,122.0485,41.0883,盘锦市,兴隆台,,47,33,28,23,20,150,,150,150,24,27,7,7,0.4,0.5
2024-10-04T1800,1606A,121.8297,41.1028,盘锦市,新生街道,臭氧1小时,55,38,25,18,19,164,,160,160,17,17,10,9,0.4,0.6
2024-10-04T1800,1832A,113.3257,33.742,平顶山市,新华旅馆,颗粒物(PM10),68,86,106,36,46,143,,143,143,21,39,6,8,0.4,0.4
2024-10-04T1800,1833A,113.2919,33.737,平顶山市,规划设计院,颗粒物(PM10),62,74,98,27,50,151,,147,147,16,37,6,9,0.5,0.6
2024-10-04T1800,1834A,113.182,33.774,平顶山市,平顶山工学院,,,69,86,31,41,152,,144,144,,33,7,8,0.4,0.5
2024-10-04T1800,3204A,113.3025,33.73,平顶山市,规划局,颗粒物(PM10),65,80,111,41,58,153,,143,143,12,36,5,8,0.3,0.4
2024-10-04T1800,3594A,112.8867,33.9116,平顶山市,石龙区,颗粒物(PM10),65,79,138,24,47,140,,140,140,21,54,10,16,0.6,0.7
2024-10-04T1800,2656A,106.6692,35.5461,平凉市,聚贤嘉苑,,33,33,47,15,28,87,,89,89,15,19,7,8,0.3,0.4
2024-10-04T1800,2657A,106.7021,35.5307,平凉市,博物馆,,41,41,51,16,25,90,,94,93,21,26,11,12,0.3,0.4
2024-10-04T1800,2347A,114.0997,27.5002,萍乡市,武功山,,38,20,12,6,5,121,,112,112,7,6,6,6,0.3,0.3
2024-10-04T1800,2348A,113.8385,27.6434,萍乡市,中医院,,40,36,38,17,20,128,,122,122,11,10,10,20,0.6,0.5
2024-10-04T1800,2349A,113.8493,27.6253,萍乡市,市政府车库,,40,29,33,18,23,128,,121,121,9,10,13,18,0.5,0.5
2024-10-04T1800,2350A,113.8676,27.6435,萍乡市,市环保局,,39,26,36,19,23,122,,114,114,5,6,9,18,0.5,0.5
2024-10-04T1800,2351A,113.866,27.6198,萍乡市,安源区政府,,41,32,39,9,18,129,,123,123,19,20,11,12,0.3,0.8
2024-10-04T1800,2319A,119.0141,25.4325,莆田市,荔城区仓后路,,23,16,12,3,4,72,,82,78,10,9,8,7,0.5,0.4
2024-10-04T1800,2320A,119.0015,25.4553,莆田市,莆田市监测站,,24,17,9,3,2,74,,92,85,8,6,6,7,0.4,0.4
2024-10-04T1800,2321A,119.1119,25.4561,莆田市,涵江区六中,,25,13,11,3,3,79,,90,85,11,9,8,8,0.6,0.5
2024-10-04T1800,2322A,119.1013,25.3215,莆田市,秀屿区政府,,25,16,16,3,4,80,,89,85,11,6,6,6,0.6,0.5
2024-10-04T1800,2392A,115.0312,35.7636,濮阳市,环保局,,44,44,62,15,42,139,,141,141,17,22,2,5,0.3,0.4
2024-10-04T1800,2394A,115.0574,35.7609,濮阳市,油田运输公司,,44,41,68,20,46,140,,143,143,18,27,3,6,0.3,0.4
2024-10-04T1800,2395A,115.0866,35.7754,濮阳市,油田物探公司,,,56,77,24,47,143,,150,150,,30,3,10,0.2,0.3
2024-10-04T1800,3021A,115,35.7668,濮阳市,濮水河管理处,,38,36,53,17,37,120,,133,133,12,19,2,2,0.2,0.3
2024-10-04T1800,2601A,100.98,22.7633,普洱市,市环保局,,22,15,19,15,17,37,,37,37,5,5,4,4,0.4,0.4
2024-10-04T1800,2602A,100.9817,22.8322,普洱市,普洱第二中学,,22,22,22,6,10,36,,36,36,5,9,4,4,0.5,0.5
2024-10-04T1800,2262A,131.0518,45.8751,七台河市,新一中,,38,38,18,12,10,71,,100,100,25,10,9,9,1.2,1.2
2024-10-04T1800,3345A,131.0577,45.7879,七台河市,中波台,,40,40,22,7,9,52,,74,74,41,19,5,6,0.5,0.5
2024-10-04T1800,3637A,131.0176,45.7761,七台河市,人民广场,颗粒物(PM10),53,55,30,28,16,37,,74,73,48,20,8,9,0.5,0.5
2024-10-04T1800,3684A,130.8781,45.8222,七台河市,新建矿广场,颗粒物(PM10),70,90,75,33,23,32,,72,72,58,38,12,11,0.6,0.5
2024-10-04T1800,1779A,123.9305,47.3636,齐齐哈尔市,安居小区,,49,49,34,14,9,88,,87,87,29,15,11,11,0.6,0.4
2024-10-04T1800,1780A,123.9488,47.3386,齐齐哈尔市,中心广场,颗粒物(PM10),64,77,34,13,8,90,,85,85,23,14,4,3,0.4,0.2
2024-10-04T1800,1781A,123.9483,47.3227,齐齐哈尔市,农牧车辆厂,颗粒物(PM10),63,75,35,16,8,101,,92,92,10,9,9,9,0.3,0.4
2024-10-04T1800,1783A,123.945,47.2988,齐齐哈尔市,市环境监测站,,48,48,30,11,9,106,,98,98,10,9,9,9,0.3,0.2
2024-10-04T1800,3662A,123.6333,47.2075,齐齐哈尔市,富区青少年活动中心,颗粒物(PM10),53,56,29,6,6,100,,96,96,10,6,5,5,0.4,0.4
2024-10-04T1800,2591A,107.9783,26.5747,黔东南苗族侗族自治州,市环境监测站,,37,34,39,18,19,116,,113,113,13,12,6,6,0.4,0.4
2024-10-04T1800,2881A,107.8908,26.5311,黔东南苗族侗族自治州,凯里学院,,40,29,38,17,17,126,,125,125,10,9,4,5,0.4,0.4
2024-10-04T1800,2593A,107.5228,26.2403,黔南布依族苗族自治州,小围寨,,,29,32,9,14,128,,124,124,3,6,7,5,,0.7
2024-10-04T1800,3538A,107.5175,26.2978,黔南布依族苗族自治州,沙坝,,42,34,37,9,15,133,,125,125,4,7,4,5,0.5,0.4
2024-10-04T1800,2589A,104.9022,25.0925,黔西南布依族苗族自治州,场坝街,,27,27,22,15,14,78,,90,89,6,6,2,2,0.2,0.2
2024-10-04T1800,2590A,104.8811,25.0992,黔西南布依族苗族自治州,坪东大道,,25,14,21,6,11,77,,90,88,6,6,7,7,0.3,0.3
2024-10-04T1800,2502A,108.6236,21.9667,钦州市,市环保站,颗粒物(PM10),73,95,81,27,28,147,,142,142,16,18,9,14,0.6,1.1
2024-10-04T1800,2503A,108.6549,21.9481,钦州市,沙埠小学,颗粒物(PM10),63,76,87,26,34,164,,153,153,15,24,9,10,0.6,0.8
2024-10-04T1800,2504A,108.5989,21.7431,钦州市,港区一小,颗粒物(PM10),68,85,86,31,34,158,,155,155,24,29,8,10,0.6,0.7
2024-10-04T1800,3404A,108.5959,21.9633,钦州市,北职校,颗粒物(PM10),63,76,69,35,34,157,,152,152,13,18,11,11,0.7,1.2
2024-10-04T1800,1042A,119.5134,39.8207,秦皇岛市,北戴河环保局,臭氧1小时,53,53,57,21,28,162,,144,144,16,23,3,5,0.5,0.8
2024-10-04T1800,1043A,119.7493,40.0116,秦皇岛市,第一关,细颗粒物(PM2.5),65,75,65,47,44,164,,157,157,17,50,6,7,0.5,0.8
2024-10-04T1800,1044A,119.5897,39.9499,秦皇岛市,监测站,颗粒物(PM10),54,57,59,35,40,150,,154,154,24,42,5,9,0.4,0.9
2024-10-04T1800,1046A,119.5251,39.9041,秦皇岛市,建设大厦,颗粒物(PM10),56,61,63,32,30,151,,155,155,12,27,4,8,0.4,0.9
2024-10-04T1800,3132A,119.610547,39.943889,秦皇岛市,文明里,颗粒物(PM10),60,69,72,33,33,159,,152,152,22,34,4,7,0.5,1
2024-10-04T1800,1307A,120.6659,36.2403,青岛市,仰口,,39,8,16,8,14,122,,116,116,4,8,7,7,0.8,0.8
2024-10-04T1800,1310A,120.4134,36.0658,青岛市,市南区东部子站,,44,17,45,7,20,138,,139,139,10,29,5,8,0.5,0.6
2024-10-04T1800,1311A,120.3664,36.1032,青岛市,四方区子站,,47,24,46,12,27,148,,141,141,20,37,10,12,0.4,0.5
2024-10-04T1800,1312A,120.2994,36.054,青岛市,市南区西部子站,,50,22,44,7,18,157,,146,146,8,25,9,10,0.5,0.6
2024-10-04T1800,1313A,120.4581,36.0858,青岛市,崂山区子站,,45,7,26,3,12,141,,145,145,10,23,8,9,0.6,0.6
2024-10-04T1800,1314A,120.1983,35.9608,青岛市,黄岛区子站,臭氧1小时,58,19,45,17,24,166,,149,149,8,26,9,11,0.4,0.5
2024-10-04T1800,1315A,120.3999,36.3083,青岛市,城阳区子站,,42,22,53,12,26,133,,145,145,25,33,8,10,0.5,0.6
2024-10-04T1800,1966A,120.0405,35.8735,青岛市,黄岛区4号,臭氧1小时,65,24,38,12,19,172,,156,156,12,25,7,8,0.4,0.5
2024-10-04T1800,3362A,120.5014,36.4034,青岛市,即墨2号,,39,16,39,3,21,124,,128,128,9,18,6,7,0.3,0.5
2024-10-04T1800,3642A,120.3503,36.0736,青岛市,市北区南部,,47,19,50,7,24,149,,143,143,16,35,6,10,0.6,0.7
2024-10-04T1800,3643A,120.3948,36.1805,青岛市,李沧区北部,,42,,44,14,25,134,,143,143,20,32,9,10,0.6,0.7
2024-10-04T1800,1702A,113.0426,23.691,清远市,环保大楼,,42,26,26,22,13,132,,126,126,13,16,9,11,0.7,0.7
2024-10-04T1800,1703A,113.0208,23.7106,清远市,凤城街办,,37,33,28,24,13,116,,119,119,8,8,8,10,0.7,0.7
2024-10-04T1800,3025A,113.0477,23.6344,清远市,技师学院,,41,40,32,17,12,130,,128,128,12,11,9,10,0.6,0.6
2024-10-04T1800,3318A,112.9903,23.7403,清远市,清新太和,,38,28,28,14,13,119,,119,119,5,5,6,7,0.5,0.4
2024-10-04T1800,3455A,113.076,23.7198,清远市,清城东城,,42,42,26,17,10,132,,126,126,7,6,7,8,0.5,0.5
2024-10-04T1800,2661A,107.6325,35.7357,庆阳市,庆阳五中,,37,37,50,18,20,94,,100,95,11,12,6,7,0.4,0.4
2024-10-04T1800,2662A,107.6364,35.7067,庆阳市,市环保局,,34,34,47,16,23,90,,99,94,14,12,6,6,0.3,0.4
2024-10-04T1800,1916A,103.7897,25.5035,曲靖市,环境监测站,,,21,38,6,19,60,,60,60,,13,1,6,0.5,0.6
2024-10-04T1800,1917A,103.8,25.5364,曲靖市,烟厂办公区,,21,21,32,14,18,53,,56,55,13,12,5,4,0.5,0.5
2024-10-04T1800,3376A,103.7947,25.462,曲靖市,南苑二区,,20,14,35,9,22,61,,60,60,7,11,8,17,0.6,0.7
2024-10-04T1800,3377A,103.7444,25.5261,曲靖市,曲靖师范学院,,22,14,31,8,22,69,,65,65,7,11,6,11,0.4,0.6
2024-10-04T1800,1264A,118.8692,28.9398,衢州市,环保大楼,,36,36,35,17,20,114,,118,118,19,18,7,7,0.6,0.6
2024-10-04T1800,1265A,118.8709,28.9666,衢州市,实验学校,,40,31,33,16,20,126,,129,129,14,16,4,6,0.3,0.4
2024-10-04T1800,1266A,118.8621,28.9808,衢州市,衢州学院,,,30,32,18,20,126,,131,130,,24,7,8,0.3,0.6
2024-10-04T1800,1611A,118.5819,24.9117,泉州市,涂山街,,23,20,12,10,7,73,,84,79,13,9,2,2,0.3,0.5
2024-10-04T1800,1612A,118.5972,24.8978,泉州市,津头埔,,23,18,14,10,8,71,,83,76,12,11,4,4,0.4,0.3
2024-10-04T1800,1613A,118.6663,24.9424,泉州市,万安,,28,28,14,15,7,66,,87,77,14,8,2,2,0.4,0.3
2024-10-04T1800,3529A,118.6333,24.9264,泉州市,城华南路,,23,20,14,3,5,72,,86,78,6,4,3,3,0.3,0.2
2024-10-04T1800,2626A,88.8876,29.2718,日喀则市,日喀则监测站,,30,6,21,3,7,95,,88,88,4,8,3,5,0.4,0.4
2024-10-04T1800,3726A,88.8781,29.2426,日喀则市,林业技术推广中心,,30,11,16,3,3,95,,85,85,6,8,6,7,0.4,0.4
2024-10-04T1800,1659A,119.471,35.4209,日照市,监测站,臭氧1小时,69,39,41,22,24,175,,152,152,20,44,14,12,0.6,0.8
2024-10-04T1800,1660A,119.523,35.4216,日照市,市政府广场,臭氧1小时,88,34,39,18,20,190,,169,169,15,41,7,7,0.5,0.7
2024-10-04T1800,1661A,119.5587,35.4044,日照市,港务局,臭氧1小时,89,31,47,24,29,191,,171,171,14,50,10,11,0.6,0.9
2024-10-04T1800,3507A,119.5328,35.4625,日照市,职业技术学院,臭氧1小时,78,34,37,14,17,182,,164,164,14,34,10,10,0.6,0.7
2024-10-04T1800,3604A,119.3266,35.1044,日照市,岚山环保分局,臭氧1小时,70,36,41,21,21,176,,165,165,20,22,12,14,0.6,0.8
2024-10-04T1800,1835A,111.1922,34.7752,三门峡市,市政府,颗粒物(PM10),52,54,58,27,34,152,,142,142,23,26,14,18,0.4,0.5
2024-10-04T1800,1836A,111.1587,34.7942,三门峡市,开发区,颗粒物(PM10),55,60,72,28,42,157,,147,147,21,22,14,17,0.5,0.4
2024-10-04T1800,1838A,111.143,34.7955,三门峡市,风景区,臭氧1小时,63,48,62,26,39,170,,160,160,17,19,14,18,0.6,0.7
2024-10-04T1800,3039A,111.1911,34.7829,三门峡市,三门峡市第一小学,,48,46,60,29,37,152,,141,141,18,22,14,18,0.5,0.5
2024-10-04T1800,3598A,111.1,34.7167,三门峡市,富达温泉假日酒店,颗粒物(PM10),55,60,62,21,35,154,,143,143,15,20,12,14,0.7,0.7
2024-10-04T1800,2324A,117.6211,26.2625,三明市,三钢,,27,23,26,16,18,86,,97,96,11,13,6,8,0.5,0.5
2024-10-04T1800,2325A,117.635,26.2714,三明市,三明二中,,27,19,20,13,14,84,,95,94,11,13,3,5,0.4,0.4
2024-10-04T1800,2326A,117.6028,26.2378,三明市,三元区政府,,26,17,23,12,13,83,,97,96,18,15,3,4,0.6,0.4
2024-10-04T1800,1876A,109.5078,18.2489,三亚市,河东子站,颗粒物(PM10),51,52,35,19,17,138,,138,138,7,6,5,5,0.3,0.3
2024-10-04T1800,1877A,109.4964,18.2681,三亚市,河西子站,,43,40,32,21,17,137,,133,133,10,7,5,5,0.5,0.5
2024-10-04T1800,3540A,109.7348,18.3443,三亚市,君悦子站,,48,48,40,17,19,144,,132,132,6,7,3,3,0.6,0.6
2024-10-04T1800,2624A,91.7608,29.2313,山南市,山南监测站,,20,,10,14,7,50,,56,56,11,6,10,9,0.4,0.4
2024-10-04T1800,2625A,91.7706,29.2436,山南市,山南人民医院,,19,19,11,9,6,48,,56,56,14,8,10,9,0.4,0.4
2024-10-04T1800,1674A,116.6794,23.3667,汕头市,金平子站,,29,29,33,18,19,79,,97,95,17,17,6,8,0.5,0.5
2024-10-04T1800,1675A,116.7244,23.3633,汕头市,龙湖子站,,24,23,24,16,13,74,,90,88,8,6,8,9,0.8,0.8
2024-10-04T1800,1676A,116.7258,23.2775,汕头市,濠江子站,,35,,23,24,18,73,,88,86,11,11,8,8,0.9,0.8
2024-10-04T1800,1677A,116.7519,23.4714,汕头市,澄海子站,,43,,24,30,14,76,,91,89,16,11,8,7,0.8,0.8
2024-10-04T1800,1678A,116.6092,23.2539,汕头市,潮阳子站,,42,42,29,21,12,79,,100,98,8,9,6,7,0.5,0.5
2024-10-04T1800,3444A,116.454,23.2684,汕头市,潮南峡山,,32,32,27,15,14,76,,100,98,9,7,8,7,0.7,0.6
2024-10-04T1800,3624A,116.4069,23.2533,汕头市,潮南子站,,37,37,30,14,18,74,,99,96,18,15,7,7,0.7,0.7
2024-10-04T1800,1693A,115.3653,22.775,汕尾市,市环保局,,,31,26,16,16,87,,100,98,,9,9,10,,0.7
2024-10-04T1800,1694A,115.3706,22.7898,汕尾市,市政府,,25,18,22,13,13,79,,91,90,14,10,8,9,0.5,0.5
2024-10-04T1800,1695A,115.3622,22.7925,汕尾市,新城中学,,35,,26,24,14,79,,90,89,9,6,7,8,0.7,0.6
