timepoint,stationcode,longitude,latitude,area,positionname,primarypollutant,aqi,pm10,pm10_24h,pm2_5,pm2_5_24h,o3,o3_24h,o3_8h,o3_8h_24h,no2,no2_24h,so2,so2_24h,co,co_24h
2024-10-04T1300,2566A,102.1879,31.914,阿坝藏族羌族自治州,州农科所,,14,14,25,8,8,40,,26,26,12,16,8,8,0,0
2024-10-04T1300,2568A,102.2502,31.8896,阿坝藏族羌族自治州,马师校,,31,31,18,21,15,29,,13,13,11,8,5,5,0.3,0.3
2024-10-04T1300,3994A,102.2165,31.9024,阿坝藏族羌族自治州,马尔康中学西区,,,,17,,13,28,,14,14,,10,,7,0.4,0.5
2024-10-04T1300,2695A,80.292,41.1694,阿克苏地区,电视台,颗粒物(PM10),60,70,115,28,35,82,,69,53,20,20,6,5,0.5,0.5
2024-10-04T1300,2696A,80.2613,41.1551,阿克苏地区,艺术中心,颗粒物(PM10),63,75,114,30,32,79,,67,56,24,20,4,4,0.5,0.4
2024-10-04T1300,2204A,105.6467,38.8363,阿拉善盟,西城区西花园,,38,31,37,17,22,120,,84,84,8,11,12,10,0.7,0.6
2024-10-04T1300,2205A,105.6985,38.8411,阿拉善盟,蒙二幼,,33,30,38,14,16,103,,76,76,8,10,10,7,0.7,0.7
2024-10-04T1300,2206A,105.724,38.8516,阿拉善盟,环保局新楼,,34,34,36,16,15,101,,87,83,9,9,11,9,0.5,0.5
2024-10-04T1300,2708A,88.1264,47.8517,阿勒泰地区,市站,,50,50,44,15,10,55,,32,30,14,16,8,8,0.7,0.6
2024-10-04T1300,2630A,80.1161,32.5,阿里地区,阿里监测站,,33,16,17,3,7,103,,56,56,4,21,6,10,0.3,0.4
2024-10-04T1300,3192A,80.0903,32.5028,阿里地区,阿里藏医院,,33,10,14,3,4,105,,75,70,4,11,5,7,0.3,0.3
2024-10-04T1300,2642A,109.0318,32.6537,安康市,香溪洞,,43,42,36,30,12,122,,109,83,6,6,11,10,0.3,0.3
2024-10-04T1300,2643A,109.0281,32.6939,安康市,安康市监测站,颗粒物(PM10),51,52,41,23,21,124,,70,70,9,15,11,13,0.4,0.5
2024-10-04T1300,2644A,109.0072,32.6975,安康市,汉滨区检察院,,45,45,33,22,18,123,,65,65,10,13,12,9,0.5,0.4
2024-10-04T1300,2291A,117.0809,30.5177,安庆市,环科院,,40,22,32,11,20,125,,82,82,12,18,9,10,0.4,0.5
2024-10-04T1300,2292A,117.0331,30.5119,安庆市,马山宾馆,,40,25,32,12,19,128,,87,87,14,21,11,12,0.4,0.5
2024-10-04T1300,2294A,116.9896,30.6145,安庆市,安庆大学,,40,21,30,12,18,127,,88,88,9,12,10,11,0.6,0.7
2024-10-04T1300,3173A,117.0598,30.5351,安庆市,市人大,,39,18,32,15,19,123,,84,84,9,18,10,11,0.7,0.8
2024-10-04T1300,3123A,105.9408,26.2431,安顺市,凤凰山,,31,26,38,11,23,98,,95,95,4,9,6,16,0.3,0.4
2024-10-04T1300,3124A,105.9439,26.2564,安顺市,金钟山,,,26,37,11,25,97,,94,94,4,10,8,17,,0.6
2024-10-04T1300,3125A,105.8983,26.2481,安顺市,娄家坡,,31,23,41,15,22,99,,98,98,4,9,7,16,0.5,0.6
2024-10-04T1300,1819A,114.3551,36.1017,安阳市,红庙街,,48,48,52,27,29,142,,77,77,7,18,4,3,0.4,0.5
2024-10-04T1300,1820A,114.361,36.0681,安阳市,银杏小区,颗粒物(PM10),53,55,54,26,22,141,,79,79,8,19,3,3,0.2,0.3
2024-10-04T1300,3141A,114.3922,36.0878,安阳市,信访局,,48,48,57,26,29,138,,73,73,7,21,4,5,0.0,0.2
2024-10-04T1300,3669A,114.4705,36.0637,安阳市,左辅环卫站,颗粒物(PM10),61,72,84,28,37,141,,73,73,11,39,8,5,0.6,0.6
2024-10-04T1300,3703A,114.2917,36.0949,安阳市,安钢职工学校,颗粒物(PM10),58,65,64,30,37,135,,71,71,11,23,10,26,0.3,0.4
2024-10-04T1300,1748A,123.044,41.1196,鞍山市,深沟寺,,40,25,23,13,12,125,,103,103,9,12,6,6,0.5,0.6
2024-10-04T1300,1749A,123.011,41.0931,鞍山市,太阳城,,40,20,22,11,12,125,,102,102,11,13,10,9,0.4,0.4
2024-10-04T1300,1750A,123.0485,41.1442,鞍山市,太平,,39,31,30,12,14,122,,101,101,14,22,10,11,0.7,0.9
2024-10-04T1300,1751A,122.9642,41.0971,鞍山市,铁西三道街,,44,44,61,14,23,124,,91,91,13,25,7,7,0.6,0.7
2024-10-04T1300,1752A,122.9341,41.0833,鞍山市,铁西工业园区,,41,30,42,13,22,131,,104,104,11,26,10,11,0.5,0.6
2024-10-04T1300,1753A,123.022,41.0821,鞍山市,明达新区,,36,26,24,12,13,114,,97,97,9,14,7,7,0.4,0.6
2024-10-04T1300,2195A,107.4212,40.761,巴彦淖尔市,附二中,颗粒物(PM10),72,94,73,42,30,99,,50,50,35,30,23,12,0.7,0.5
2024-10-04T1300,2196A,107.37,40.7372,巴彦淖尔市,市环保大楼,颗粒物(PM10),72,94,58,37,24,112,,50,50,25,24,12,4,0.7,0.5
2024-10-04T1300,1956A,86.1472,41.7538,巴音郭楞蒙古自治州,孔雀公园,,40,40,99,11,22,100,,90,88,8,17,7,7,0.3,0.3
2024-10-04T1300,1957A,86.1972,41.7166,巴音郭楞蒙古自治州,棉纺厂,颗粒物(PM10),59,67,115,15,24,99,,86,83,7,18,6,6,0.2,0.3
2024-10-04T1300,1958A,86.2357,41.7173,巴音郭楞蒙古自治州,经济开发区,,49,49,91,18,27,102,,92,87,3,10,7,8,0.2,0.3
2024-10-04T1300,2914A,106.7677,31.8794,巴中市,苏山坪,,25,25,31,17,23,74,,57,57,9,9,4,3,0.4,0.4
2024-10-04T1300,3182A,106.7656,31.8545,巴中市,丽阳花园,,28,27,30,19,23,73,,36,36,14,16,6,5,0.5,0.5
2024-10-04T1300,3183A,106.7418,31.8654,巴中市,圣泉水务公司,,29,28,26,20,20,59,,30,29,15,14,5,4,0.5,0.4
2024-10-04T1300,3616A,106.7616,31.8344,巴中市,市中心医院,,29,29,37,18,26,70,,33,33,10,19,6,5,0.5,0.5
2024-10-04T1300,2235A,122.7911,45.6077,白城市,洮北区环保局,,32,27,26,11,10,100,,68,68,8,8,3,2,0.6,0.5
2024-10-04T1300,2236A,122.8738,45.5725,白城市,市环保局,,34,34,24,11,10,98,,61,61,11,14,6,4,0.4,0.3
2024-10-04T1300,2231A,126.4219,41.9171,白山市,喜丰,,35,35,50,3,15,91,,42,42,6,23,8,9,0.4,0.6
2024-10-04T1300,2232A,126.4077,41.9419,白山市,环保局,,26,26,43,3,15,81,,34,34,7,22,8,9,0.6,0.7
2024-10-04T1300,2647A,104.1724,36.5446,白银市,第三小学,,39,39,39,22,23,100,,51,51,10,18,27,80,0.7,0.9
2024-10-04T1300,2648A,104.1465,36.5482,白银市,动力公司,,47,47,29,22,18,101,,47,47,10,14,27,33,0.7,0.7
2024-10-04T1300,2512A,106.6103,23.9011,百色市,市监测站,,43,43,33,18,15,120,,48,48,10,14,14,7,0.6,0.6
2024-10-04T1300,2513A,106.6538,23.8859,百色市,市中心血站,,46,46,47,27,21,112,,47,47,11,24,7,9,0.5,0.6
2024-10-04T1300,3406A,106.6085,23.8798,百色市,祈福高中,颗粒物(PM10),55,60,48,14,16,118,,48,48,14,22,34,12,0.7,0.5
2024-10-04T1300,2270A,117.396,32.939,蚌埠市,工人疗养院,,40,21,47,7,22,128,,69,69,7,37,7,9,0.3,0.4
2024-10-04T1300,2271A,117.3605,32.9427,蚌埠市,百货大楼,,40,20,46,9,22,126,,62,62,9,40,7,9,0.3,0.4
2024-10-04T1300,2273A,117.4185,32.8911,蚌埠市,蚌埠学院,,40,9,35,3,22,126,,93,93,6,24,6,7,0.2,0.3
2024-10-04T1300,2274A,117.3533,32.9673,蚌埠市,淮上区政府,,40,24,41,9,23,125,,79,79,7,23,6,7,0.3,0.4
2024-10-04T1300,2275A,117.3145,32.8977,蚌埠市,高新区,,40,22,34,7,20,127,,96,96,11,22,7,8,0.2,0.3
2024-10-04T1300,3715A,117.3092,32.9314,蚌埠市,蚌埠田家炳中学,,40,29,46,13,23,128,,78,78,9,37,8,9,0.2,0.3
2024-10-04T1300,1585A,109.8756,40.6532,包头市,市环境监测站,颗粒物(PM10),51,51,50,20,18,108,,66,66,24,44,16,16,0.7,0.8
2024-10-04T1300,1587A,109.9991,40.5842,包头市,包头八中,,,56,54,26,20,,,57,,24,37,,14,0.8,0.9
2024-10-04T1300,1588A,109.8538,40.6821,包头市,青山宾馆,,36,36,55,25,21,107,,65,65,23,41,15,13,0.7,0.7
2024-10-04T1300,1589A,109.8642,40.6288,包头市,惠龙物流,颗粒物(PM10),53,56,48,24,16,105,,71,71,24,36,16,15,0.6,0.6
2024-10-04T1300,1590A,110.0377,40.5546,包头市,东河鸿龙湾,,50,50,49,27,17,111,,70,70,19,32,10,17,0.6,0.6
2024-10-04T1300,3283A,109.9154,40.5685,包头市,滨河大厦,,40,40,41,14,14,108,,71,71,22,40,15,16,0.6,0.6
2024-10-04T1300,3419A,109.9447,40.6261,包头市,包头市委党校,颗粒物(PM10),56,62,49,21,17,107,,77,77,23,37,16,22,0.5,0.6
2024-10-04T1300,3683A,109.8331,40.6576,包头市,昆区政府,细颗粒物(PM2.5),52,49,49,36,21,103,,68,68,23,38,16,16,0.6,0.6
2024-10-04T1300,1930A,107.185,34.3063,宝鸡市,庙沟村,颗粒物(PM10),59,68,59,38,35,81,,71,63,18,20,8,8,0.7,0.7
2024-10-04T1300,1931A,107.0708,34.3017,宝鸡市,竹园沟,颗粒物(PM10),60,69,52,41,35,80,,54,54,23,19,10,8,0.5,0.5
2024-10-04T1300,1932A,107.1906,34.3672,宝鸡市,三陆医院,颗粒物(PM10),58,65,76,38,49,94,,70,70,28,44,10,10,0.4,0.5
2024-10-04T1300,1933A,107.1431,34.3547,宝鸡市,监测站,颗粒物(PM10),60,69,68,42,41,77,,65,65,29,27,10,8,0.7,0.7
2024-10-04T1300,1934A,107.1186,34.3739,宝鸡市,技工学校,颗粒物(PM10),55,59,66,37,44,87,,69,69,29,27,10,8,0.6,0.6
2024-10-04T1300,1935A,107.3906,34.3528,宝鸡市,陈仓区环保局家属楼,颗粒物(PM10),52,53,80,35,52,114,,65,65,20,43,12,11,0.5,0.6
2024-10-04T1300,1936A,107.2058,34.3497,宝鸡市,文理学院,细颗粒物(PM2.5),55,56,68,39,42,92,,76,76,25,27,11,10,0.5,0.6
2024-10-04T1300,1937A,107.2386,34.3622,宝鸡市,三迪小学,细颗粒物(PM2.5),55,55,73,39,49,107,,78,78,28,42,12,11,0.6,0.7
2024-10-04T1300,1051A,115.493,38.8632,保定市,游泳馆,细颗粒物(PM2.5),89,92,65,66,38,133,,76,76,21,18,6,4,0.6,0.4
2024-10-04T1300,1052A,115.5213,38.8959,保定市,华电二区,细颗粒物(PM2.5),83,78,61,61,40,122,,74,74,32,26,6,5,0.4,0.2
2024-10-04T1300,1053A,115.4713,38.9108,保定市,接待中心,细颗粒物(PM2.5),74,83,60,54,35,126,,77,77,27,23,8,7,0.4,0.3
2024-10-04T1300,1054A,115.4612,38.8416,保定市,地表水厂,细颗粒物(PM2.5),98,75,67,73,47,128,,66,66,21,26,7,6,0.1,0
2024-10-04T1300,3581A,115.31981,38.95208,保定市,满城区生态环境分局,颗粒物(PM10),74,97,64,53,33,140,,70,70,23,27,9,6,0.5,0.5
2024-10-04T1300,3582A,115.47694,38.76408,保定市,清苑区第二中学,细颗粒物(PM2.5),84,95,72,62,44,134,,63,63,21,29,7,5,0.6,0.5
2024-10-04T1300,3583A,115.62909,39.02311,保定市,徐水物探局,细颗粒物(PM2.5),92,84,57,68,34,108,,54,54,36,34,9,7,0.5,0.4
2024-10-04T1300,4004A,115.4202,38.8656,保定市,双鹰农机,细颗粒物(PM2.5),75,80,68,55,38,136,,71,71,28,31,7,6,0.5,0.4
2024-10-04T1300,4034A,115.5150,38.8590,保定市,植保所站,,,77,65,55,41,123,,62,62,34,33,,7,0.5,0.4
2024-10-04T1300,2594A,99.1678,25.1081,保山市,市环境监测站,,13,8,21,3,10,40,,32,32,6,7,5,4,0.5,0.5
2024-10-04T1300,2595A,99.1711,25.1328,保山市,市环保局,,15,15,24,8,6,43,,40,40,8,7,6,6,0.6,0.5
2024-10-04T1300,1867A,109.1436,21.4086,北海市,海滩公园,颗粒物(PM10),51,52,61,20,27,141,,118,118,8,10,9,9,0.5,0.6
2024-10-04T1300,1868A,109.0981,21.4661,北海市,新市环保局,颗粒物(PM10),54,58,61,29,31,154,,115,115,10,12,8,9,0.7,0.7
2024-10-04T1300,1869A,109.1778,21.5233,北海市,北海工业园,颗粒物(PM10),52,53,61,24,32,143,,108,108,8,13,9,9,0.7,0.7
2024-10-04T1300,3400A,109.1911,21.4415,北海市,龙潭自来水厂,颗粒物(PM10),52,53,56,28,33,139,,105,105,6,12,10,9,0.5,0.6
2024-10-04T1300,1001A,116.3621,39.8784,北京市,万寿西宫,细颗粒物(PM2.5),84,99,58,62,31,105,,37,37,19,29,6,3,0.6,0.5
2024-10-04T1300,1002A,116.2202,40.2915,北京市,定陵,细颗粒物(PM2.5),73,75,39,53,22,85,,40,40,21,12,3,2,0.5,0.4
2024-10-04T1300,1003A,116.4174,39.9289,北京市,东四,细颗粒物(PM2.5),85,109,58,63,30,100,,33,33,31,32,8,4,0.7,0.6
2024-10-04T1300,1004A,116.4072,39.8863,北京市,天坛,细颗粒物(PM2.5),87,97,48,64,31,102,,29,29,28,30,3,3,0.5,0.5
2024-10-04T1300,1005A,116.462,39.9365,北京市,农展馆,细颗粒物(PM2.5),94,109,55,70,29,100,,29,26,33,35,7,3,0.5,0.5
2024-10-04T1300,1006A,116.3392,39.9295,北京市,官园,细颗粒物(PM2.5),88,106,60,65,31,83,,33,33,34,27,5,2,0.7,0.6
2024-10-04T1300,1007A,116.2878,39.9611,北京市,海淀万柳,细颗粒物(PM2.5),74,88,55,54,28,78,,33,33,41,37,6,4,0.5,0.5
2024-10-04T1300,1008A,116.6636,40.135,北京市,顺义新城,细颗粒物(PM2.5),88,107,63,65,30,96,,44,44,28,35,5,2,0.4,0.4
2024-10-04T1300,1009A,116.6275,40.3275,北京市,怀柔镇,细颗粒物(PM2.5),72,84,39,52,24,117,,59,59,16,12,7,3,0.4,0.4
2024-10-04T1300,1010A,116.2296,40.217,北京市,昌平镇,"颗粒物(PM10),细颗粒物(PM2.5)",65,80,49,47,24,83,,48,48,25,19,6,4,0.5,0.4
2024-10-04T1300,1011A,116.3966,39.9821,北京市,奥体中心,细颗粒物(PM2.5),75,96,53,55,29,52,,25,25,59,40,4,3,0.7,0.5
2024-10-04T1300,1012A,116.184,39.9136,北京市,古城,颗粒物(PM10),81,111,67,59,30,71,,35,35,42,43,6,4,0.7,0.6
2024-10-04T1300,3281A,115.9718,40.4529,北京市,延庆夏都,,48,48,41,32,22,106,,44,44,10,19,1,3,0.4,0.3
2024-10-04T1300,3417A,117.0709,40.1465,北京市,平谷新城,细颗粒物(PM2.5),72,87,44,52,25,110,,63,63,25,17,6,3,0.5,0.3
2024-10-04T1300,3418A,116.8336,40.4095,北京市,密云新城,细颗粒物(PM2.5),69,82,43,50,21,114,,50,50,19,17,4,3,0.4,0.4
2024-10-04T1300,3671A,116.088,39.9726,北京市,门头沟三家店,细颗粒物(PM2.5),73,82,53,53,27,86,,46,46,26,23,4,2,0.4,0.4
2024-10-04T1300,3672A,116.1541,39.8204,北京市,丰台云岗,细颗粒物(PM2.5),83,104,59,61,28,91,,35,35,28,33,6,3,0.5,0.4
2024-10-04T1300,3673A,116.6804,39.9081,北京市,通州东关,细颗粒物(PM2.5),89,106,65,66,34,101,,47,47,23,30,5,3,0.5,0.4
2024-10-04T1300,3674A,115.9577,39.7603,北京市,房山燕山,"颗粒物(PM10),细颗粒物(PM2.5)",63,76,45,45,26,89,,51,51,30,14,2,1,0.5,0.3
2024-10-04T1300,3675A,116.4672,39.7733,北京市,大兴旧宫,细颗粒物(PM2.5),85,92,53,63,30,104,,49,49,24,25,4,3,0.4,0.4
2024-10-04T1300,3694A,115.986,40.4563,北京市,延庆石河营,,50,50,36,31,20,104,,44,44,9,17,1,3,0.4,0.3
2024-10-04T1300,3695A,116.6151,40.3053,北京市,怀柔新城,细颗粒物(PM2.5),75,82,42,55,28,110,,61,61,21,14,4,3,0.3,0.3
2024-10-04T1300,3696A,116.2545,39.8768,北京市,丰台小屯,细颗粒物(PM2.5),84,100,58,62,30,84,,31,31,39,46,5,2,0.7,0.6
2024-10-04T1300,3697A,116.84,40.3844,北京市,密云镇,细颗粒物(PM2.5),80,83,42,59,24,110,,42,42,17,29,7,3,0.4,0.4
2024-10-04T1300,1761A,123.8275,41.3064,本溪市,大峪,,38,20,29,9,12,119,,58,58,8,29,10,10,0.7,0.8
2024-10-04T1300,1762A,123.7567,41.3325,本溪市,溪湖,,35,32,62,9,22,109,,50,50,14,34,13,11,0.9,1.2
2024-10-04T1300,1763A,123.7169,41.3094,本溪市,彩屯,,36,18,50,10,27,113,,49,49,13,37,12,15,0.8,1.9
2024-10-04T1300,1764A,123.7669,41.2864,本溪市,东明,,36,21,47,7,19,115,,58,58,13,40,7,6,0.8,1
2024-10-04T1300,1765A,123.7992,41.2664,本溪市,新立屯,,38,14,19,3,8,119,,68,68,11,32,7,6,0.5,0.4
2024-10-04T1300,1766A,123.8142,41.3472,本溪市,威宁,,38,22,49,8,17,120,,57,57,9,29,8,9,0.5,0.8
2024-10-04T1300,2587A,105.2864,27.3125,毕节市,八中,,50,50,38,30,22,84,,75,72,17,16,15,13,0.4,0.4
2024-10-04T1300,2588A,105.31,27.2944,毕节市,师专,,46,46,38,27,22,87,,80,76,14,13,20,18,0.5,0.4
2024-10-04T1300,3537A,105.3631,27.3533,毕节市,长征村,,44,44,36,30,24,94,,80,80,12,12,16,17,0.4,0.4
2024-10-04T1300,1629A,118.0018,37.3617,滨州市,第二水厂,,40,39,65,14,34,125,,59,59,16,39,10,14,0.2,0.3
2024-10-04T1300,1630A,117.9776,37.393,滨州市,北中新校,,42,39,61,19,34,134,,66,66,15,38,12,13,0.3,0.8
2024-10-04T1300,3514A,117.9378,37.3956,滨州市,中海酒店,,45,39,62,19,36,142,,72,72,12,33,9,12,0.4,0.7
2024-10-04T1300,3515A,117.9378,37.3553,滨州市,开发区一中,,43,39,72,22,38,136,,60,60,18,46,12,16,0.7,0.8
2024-10-04T1300,3516A,118.0917,37.694,滨州市,金海六路,,47,41,62,19,31,148,,71,71,16,35,12,12,0.4,0.5
2024-10-04T1300,4028A,117.9956,37.3753,滨州市,滨州市西街道办事处,,43,41,68,22,42,137,,66,66,15,40,11,17,0.5,0.7
2024-10-04T1300,2311A,115.8072,33.8399,亳州市,污水处理厂,,42,22,63,6,36,133,,89,89,8,24,5,17,0.2,0.4
2024-10-04T1300,2312A,115.7789,33.8518,亳州市,三国揽胜宫,,,,61,,46,126,,88,88,12,19,4,10,0.3,0.5
2024-10-04T1300,3332A,115.7633,33.8034,亳州市,亳州学院,,44,34,57,11,27,139,,99,99,11,19,4,6,0.3,0.4
2024-10-04T1300,2693A,82.0485,44.8556,博尔塔拉蒙古自治州,市党校,,38,38,45,16,15,84,,69,50,4,6,7,6,0.4,0.4
2024-10-04T1300,2694A,82.0806,44.8969,博尔塔拉蒙古自治州,市环保局,,38,38,50,18,14,77,,64,41,11,12,4,7,0.4,0.4
2024-10-04T1300,1071A,116.8842,38.2991,沧州市,沧县城建局,,47,47,53,19,30,138,,75,75,13,33,4,4,0.3,0.4
2024-10-04T1300,1072A,116.8584,38.3254,沧州市,电视转播站,,47,47,52,31,33,148,,81,81,12,35,10,11,0.4,0.4
2024-10-04T1300,1073A,116.8709,38.3228,沧州市,市环保局,,49,49,58,31,36,144,,75,75,15,35,4,5,0.3,0.4
2024-10-04T1300,3324A,116.8136,38.3004,沧州市,河北水利电力学院,颗粒物(PM10),54,58,62,35,38,146,,78,78,10,36,6,5,0.4,0.4
2024-10-04T1300,2622A,97.1806,31.1273,昌都市,昌都监测站,,,,18,7,6,44,,50,49,13,10,8,8,0.7,0.6
2024-10-04T1300,3719A,97.1714,31.1406,昌都市,昌都会议中心,,15,,9,7,6,48,,46,44,11,6,8,8,0.5,0.4
2024-10-04T1300,2690A,88.1236,43.8886,昌吉回族自治州,天山天池,,27,24,30,16,9,85,,58,53,7,5,10,10,0.6,0.6
2024-10-04T1300,2692A,87.2717,44.0297,昌吉回族自治州,新区政务中心,颗粒物(PM10),57,64,53,18,21,63,,63,59,20,22,8,6,0.7,0.7
2024-10-04T1300,3613A,87.3095,44.0142,昌吉回族自治州,亚心广场,颗粒物(PM10),57,63,62,22,16,60,,70,62,27,25,6,10,0.6,0.6
2024-10-04T1300,1119A,125.3325,43.9166,长春市,食品厂,,37,35,36,7,16,116,,74,74,12,29,6,6,0.4,0.4
2024-10-04T1300,1120A,125.2863,43.9027,长春市,客车厂,,34,28,32,7,15,108,,77,77,11,21,8,8,0.4,0.4
2024-10-04T1300,1121A,125.2841,43.8463,长春市,邮电学院,,37,32,33,8,23,118,,73,73,9,19,8,7,0.4,0.4
2024-10-04T1300,1122A,125.3716,43.8772,长春市,劳动公园,,40,39,35,10,16,125,,79,79,8,22,9,8,0.4,0.3
2024-10-04T1300,1123A,125.3297,43.8805,长春市,园林处,,38,26,35,12,13,120,,76,76,8,20,7,6,0.4,0.4
2024-10-04T1300,1124A,125.4605,43.79,长春市,净月潭,,38,20,22,10,13,121,,86,86,8,10,8,7,0.3,0.3
2024-10-04T1300,1126A,125.3863,43.8447,长春市,经开区环卫处,,37,29,30,8,14,116,,73,73,9,27,10,9,0.5,0.5
2024-10-04T1300,1127A,125.245,43.7783,长春市,高新区管委会,,,,29,8,15,118,,80,80,6,22,8,7,0.5,0.4
2024-10-04T1300,1128A,125.1761,43.8325,长春市,岱山公园,,36,33,37,12,15,114,,80,80,7,27,6,6,0.4,0.4
2024-10-04T1300,1335A,113.0833,28.2325,长沙市,经开区环保局,,40,33,60,14,26,126,,101,101,10,21,4,7,0.3,0.4
2024-10-04T1300,1336A,112.8872,28.2189,长沙市,高开区环保局,,49,40,87,34,46,136,,81,81,9,16,6,7,0.2,0.4
2024-10-04T1300,1337A,113.0792,28.2053,长沙市,马坡岭,,44,32,62,23,31,139,,101,101,6,17,8,7,0.5,0.6
2024-10-04T1300,1338A,112.9394,28.19,长沙市,湖南师范大学,,50,50,80,18,45,143,,85,85,11,17,6,8,0.5,0.5
2024-10-04T1300,1339A,113.0178,28.1322,长沙市,雨花区环保局,,43,35,56,17,23,135,,103,103,8,14,6,8,0.4,0.5
2024-10-04T1300,1340A,112.9792,28.2597,长沙市,伍家岭,,40,37,73,17,33,128,,85,85,8,19,4,7,0.6,0.7
2024-10-04T1300,1341A,113.0014,28.1944,长沙市,火车新站,,45,45,67,19,31,132,,91,91,13,22,5,7,0.4,0.4
2024-10-04T1300,1342A,112.9844,28.1178,长沙市,天心区环保局,,40,28,68,14,33,127,,77,,13,22,5,7,0.6,0.5
2024-10-04T1300,1343A,112.8908,28.1308,长沙市,湖南中医药大学,,45,38,89,18,48,144,,83,83,4,11,7,8,0.7,0.9
2024-10-04T1300,1344A,112.9581,28.3611,长沙市,沙坪,,40,34,56,22,37,125,,84,84,5,10,8,10,0.6,0.6
2024-10-04T1300,1727A,113.1147,36.1547,长治市,清华站,,43,30,41,12,23,137,,71,71,10,22,9,8,0.6,0.6
2024-10-04T1300,1728A,113.1031,36.1989,长治市,监测站,,42,26,40,17,26,134,,74,74,13,21,12,11,0.5,0.6
2024-10-04T1300,1730A,113.0886,36.2125,长治市,审计局,,43,34,41,19,25,137,,65,65,8,17,8,7,0.3,0.2
2024-10-04T1300,1731A,113.0844,36.1856,长治市,长治八中,,45,45,53,15,20,138,,68,68,9,20,9,8,0.6,0.6
2024-10-04T1300,2845A,113.1569,36.1911,长治市,德盛苑,,45,31,39,19,26,143,,110,97,11,16,6,6,0.6,0.6
2024-10-04T1300,3568A,113.06,36.0464,长治市,向阳小学,,45,44,54,18,29,141,,104,104,17,18,8,6,0.3,0.4
2024-10-04T1300,3569A,112.8792,36.3144,长治市,屯留一中,,46,46,51,22,30,142,,76,76,13,22,11,10,1.1,1.1
2024-10-04T1300,3570A,113.235,36.3489,长治市,潞城四中,颗粒物(PM10),55,60,62,37,36,136,,78,78,18,27,6,9,0.4,0.7
2024-10-04T1300,1854A,111.6975,28.9703,常德市,市二中,,50,50,74,31,48,138,,72,72,10,22,11,12,0.6,0.6
2024-10-04T1300,3138A,111.7153,29.0289,常德市,武陵区永安,颗粒物(PM10),56,61,76,34,47,141,,95,95,10,18,13,14,0.8,0.8
2024-10-04T1300,3139A,111.6892,28.9881,常德市,鼎城区玉霞,颗粒物(PM10),54,58,78,31,44,148,,79,79,9,22,13,14,0.6,0.7
2024-10-04T1300,3140A,111.6625,29.0531,常德市,武陵区长庚,颗粒物(PM10),51,52,82,30,49,146,,82,82,11,20,11,12,0.5,0.5
2024-10-04T1300,1196A,119.9633,31.762,常州市,市监测站,,38,25,26,13,14,120,,94,94,5,11,8,8,0.4,0.4
2024-10-04T1300,1200A,119.9468,31.7069,常州市,武进监测站,,38,19,20,3,11,120,,89,89,3,9,8,9,0.6,0.6
2024-10-04T1300,1201A,119.9255,31.9087,常州市,安家,,37,16,28,8,16,117,,76,76,10,22,8,9,0.3,0.3
2024-10-04T1300,3002A,119.9805,31.8174,常州市,行政中心,,36,20,27,10,13,113,,86,86,7,13,4,4,0.1,0.2
2024-10-04T1300,3003A,120.0522,31.7748,常州市,经开区,,39,19,28,12,14,124,,86,86,12,26,8,7,0.2,0.2
2024-10-04T1300,3010A,119.9025,31.7964,常州市,钟楼,,36,25,26,13,16,114,,75,75,8,16,9,10,0.4,0.4
2024-10-04T1300,3429A,119.8598,31.7066,常州市,武进经发区,,37,24,32,12,15,118,,77,77,9,20,6,7,0.4,0.3
2024-10-04T1300,3430A,119.5826,31.7245,常州市,金坛城区,,40,16,27,8,17,126,,96,96,5,11,8,9,0.5,0.5
2024-10-04T1300,2220A,120.4318,41.5881,朝阳市,西梁,,41,40,36,18,17,129,,76,76,9,21,8,7,0.8,0.7
2024-10-04T1300,2221A,120.4521,41.5646,朝阳市,河畔小区,,42,41,25,18,13,133,,88,88,10,13,10,8,0.4,0.5
2024-10-04T1300,2222A,120.4176,41.5648,朝阳市,八里堡,颗粒物(PM10),53,56,36,22,17,128,,83,83,19,28,12,9,1.2,0.7
2024-10-04T1300,2223A,120.3806,41.5969,朝阳市,农业园区,,42,38,24,24,17,134,,86,86,7,15,9,7,0.5,0.5
2024-10-04T1300,1705A,116.6367,23.6719,潮州市,西园路,,27,27,21,17,14,70,,70,70,10,11,3,2,0.4,0.4
2024-10-04T1300,3026A,116.6183,23.6608,潮州市,市政府,,26,25,23,11,12,83,,82,82,7,8,6,5,0.3,0.3
2024-10-04T1300,4036A,116.6461,23.6761,潮州市,金山,,31,31,24,17,14,79,,76,76,7,7,8,7,0.5,0.5
2024-10-04T1300,2472A,113.0073,25.9061,郴州市,马头岭,颗粒物(PM10),54,58,62,12,20,129,,80,80,11,15,11,11,0.8,0.8
2024-10-04T1300,2473A,113.0116,25.8226,郴州市,市职中,,49,49,53,26,35,142,,86,86,12,19,7,7,0.5,0.5
2024-10-04T1300,2474A,113.0161,25.8001,郴州市,兴隆步行街,颗粒物(PM10),54,57,58,30,32,149,,96,96,13,17,7,7,0.3,0.3
2024-10-04T1300,2475A,113.0383,25.8071,郴州市,市审计局,,45,43,52,23,32,141,,90,90,7,15,5,5,0.4,0.5
2024-10-04T1300,2476A,113.0348,25.7759,郴州市,市环保局,颗粒物(PM10),55,59,59,27,33,139,,82,82,9,15,9,8,0.5,0.5
2024-10-04T1300,1431A,103.9728,30.7236,成都市,金泉两河,,21,21,15,3,3,60,,61,53,15,9,4,3,0.3,0.2
2024-10-04T1300,1432A,104.176,30.6872,成都市,十里店,,19,11,12,3,7,59,,55,51,18,10,2,1,0.5,0.5
2024-10-04T1300,1433A,104.079,30.5706,成都市,三瓦窑,,36,36,21,7,9,69,,56,54,14,10,3,2,0.5,0.4
2024-10-04T1300,1434A,104.1114,30.63,成都市,沙河铺,,27,27,26,3,8,62,,58,54,22,14,2,2,0.5,0.4
2024-10-04T1300,1437A,104.0786,30.6531,成都市,君平街,,20,16,17,3,7,62,,60,53,22,16,6,4,0.5,0.4
2024-10-04T1300,2880A,104.0239,30.65639,成都市,大石西路,,21,18,22,3,6,66,,62,57,14,8,3,3,0.3,0.2
2024-10-04T1300,3136A,104.2725,30.5589,成都市,龙泉驿区区政府,,22,22,10,12,7,66,,56,47,21,16,2,1,0.4,0.4
2024-10-04T1300,3357A,104.0106,30.6931,成都市,金博路,,17,12,14,3,5,52,,57,47,16,12,2,1,0.5,0.4
2024-10-04T1300,3359A,104.0578,30.5225,成都市,华阳,,29,29,17,14,13,59,,46,42,16,12,4,3,0.5,0.5
2024-10-04T1300,3487A,104.2394,30.5319,成都市,车城东七路,,26,25,17,18,12,67,,56,48,16,14,3,2,0.5,0.4
2024-10-04T1300,3488A,104.3853,30.7453,成都市,青白江技师分院,,26,7,12,3,6,82,,54,54,5,7,3,2,0.5,0.5
2024-10-04T1300,3489A,104.0789,30.4072,成都市,科学城,,25,23,18,17,13,60,,55,46,16,12,4,4,0.4,0.4
2024-10-04T1300,4011A,103.8506,30.6947,成都市,光华大道三段,,22,17,19,3,5,69,,71,61,10,8,3,3,0.5,0.4
2024-10-04T1300,1062A,117.9531,40.9081,承德市,铁路,,29,24,24,18,11,90,,32,32,27,26,13,9,0.4,0.4
2024-10-04T1300,1063A,117.9392,40.9763,承德市,中国银行,,38,33,28,15,11,120,,45,45,14,22,9,8,0.5,0.5
2024-10-04T1300,1064A,117.9503,40.928,承德市,开发区,,48,48,39,19,15,108,,36,36,21,25,10,7,0.4,0.4
2024-10-04T1300,1065A,117.8051,40.9655,承德市,文化中心,,35,30,38,3,9,112,,41,41,14,28,14,16,0.5,0.4
2024-10-04T1300,1066A,117.9268,41.0026,承德市,离宫,,46,,2,32,24,108,,42,42,7,12,7,6,0.5,0.4
2024-10-04T1300,2314A,117.47,30.6618,池州市,池州学院,,37,17,35,9,20,118,,80,80,7,17,7,9,0.3,0.4
2024-10-04T1300,3237A,117.4918,30.6617,池州市,展览馆,,37,17,33,10,17,117,,75,75,5,13,6,6,0.4,0.4
2024-10-04T1300,3333A,117.5627,30.695,池州市,第八中学,,37,15,34,9,18,116,,74,74,5,13,5,7,0.4,0.5
2024-10-04T1300,3334A,117.5038,30.6243,池州市,第十二中学,,38,19,32,10,20,119,,78,78,8,19,6,6,0.4,0.5
2024-10-04T1300,1744A,118.9233,42.2816,赤峰市,松山一中,,42,42,29,14,12,106,,62,62,15,26,11,10,0.4,0.4
2024-10-04T1300,1745A,118.9576,42.2728,赤峰市,哈达街,,48,48,34,9,15,123,,76,76,12,16,9,8,0.4,0.4
2024-10-04T1300,1746A,118.8788,42.2554,赤峰市,天义路,,38,25,22,12,13,120,,75,75,14,19,8,8,0.3,0.3
2024-10-04T1300,3058A,119.2658,42.0353,赤峰市,银河街,颗粒物(PM10),55,59,46,24,21,113,,50,50,18,21,21,16,0.4,0.5
2024-10-04T1300,3286A,118.9359,42.3147,赤峰市,桥北物流园区,,,35,28,20,18,125,,70,70,17,39,8,9,,0.3
2024-10-04T1300,2521A,107.3476,22.4136,崇左市,市环保局江州分局,颗粒物(PM10),51,52,47,19,19,131,,71,71,4,10,6,4,0.5,0.6
2024-10-04T1300,2522A,107.3702,22.3707,崇左市,城南新区,颗粒物(PM10),52,54,37,25,15,148,,80,80,9,14,8,5,0.5,0.5
2024-10-04T1300,2298A,118.3093,32.3153,滁州市,老年大学,,45,18,32,10,18,141,,91,91,10,18,14,11,0.3,0.4
2024-10-04T1300,2299A,118.3244,32.2786,滁州市,人大宾馆,,45,21,33,9,18,142,,92,92,14,22,8,7,0.2,0.3
2024-10-04T1300,3207A,118.3118,32.3038,滁州市,市政府原办公楼,,44,17,30,14,21,140,,91,91,9,19,6,7,0.3,0.4
2024-10-04T1300,3331A,118.3267,32.2634,滁州市,图书馆,,45,24,33,7,17,141,,91,91,10,18,6,6,0.3,0.4
2024-10-04T1300,2605A,101.5482,25.0441,楚雄彝族自治州,州环境监测站,,15,7,13,7,12,48,,48,48,4,5,6,6,0.6,0.6
2024-10-04T1300,2606A,101.538,25.0492,楚雄彝族自治州,市经济开发区,,15,8,15,7,13,46,,45,45,5,6,5,5,0.8,0.7
2024-10-04T1300,2548A,107.5277,31.2827,达州市,达州职业技术学院,,47,47,45,26,26,54,,25,25,16,28,7,7,0.6,0.7
2024-10-04T1300,2549A,107.5086,31.2186,达州市,市环境监测站,颗粒物(PM10),51,51,49,17,23,52,,25,25,24,30,7,7,0.4,0.5
2024-10-04T1300,2550A,107.4988,31.2132,达州市,凤凰小区,,44,44,43,19,24,61,,33,33,22,29,8,9,0.4,0.5
2024-10-04T1300,2551A,107.5082,31.1986,达州市,达县机关宾馆,,36,36,45,23,25,57,,30,30,22,34,6,7,0.4,0.4
2024-10-04T1300,2552A,107.4644,31.2124,达州市,市政中心,,43,43,50,22,25,68,,34,34,17,31,5,7,0.4,0.6
2024-10-04T1300,2614A,100.1542,25.7054,大理白族自治州,大理市环境监测站,,14,10,15,8,11,42,,41,40,3,8,6,6,0.7,0.7
2024-10-04T1300,2615A,100.2171,25.5811,大理白族自治州,大理古城,,14,13,18,3,10,42,,31,31,9,12,7,7,0.6,0.6
2024-10-04T1300,1109A,121.612,38.9741,大连市,甘井子,,41,28,28,6,17,129,,108,108,13,23,12,9,0.6,0.9
2024-10-04T1300,1110A,121.565,38.9511,大连市,周水子,,40,26,31,10,20,128,,82,82,13,41,14,10,0.6,0.8
2024-10-04T1300,1111A,121.5637,38.8845,大连市,星海三站,,43,18,24,7,17,135,,94,94,4,17,13,8,0.4,0.5
2024-10-04T1300,1112A,121.6302,38.9117,大连市,青泥洼桥,,41,12,26,6,16,131,,101,101,7,16,11,8,0.4,0.5
2024-10-04T1300,1113A,121.6251,38.8638,大连市,傅家庄,,41,16,22,6,14,130,,112,112,7,9,10,9,0.5,0.6
2024-10-04T1300,1114A,121.5213,38.8661,大连市,七贤岭,,44,16,24,10,15,139,,91,91,9,14,12,7,0.6,0.7
2024-10-04T1300,1115A,121.2529,38.8061,大连市,旅顺,,48,18,37,15,19,152,,119,119,11,17,10,8,0.6,0.6
2024-10-04T1300,1116A,121.7485,39.1311,大连市,金州,,44,14,23,9,16,139,,102,102,13,14,7,6,0.5,0.6
2024-10-04T1300,1117A,121.7811,39.0496,大连市,开发区,,42,22,31,7,22,133,,91,91,7,28,12,11,0.4,0.5
2024-10-04T1300,1118A,121.9762,39.0631,大连市,双D港,,46,16,20,3,12,145,,112,112,12,15,8,8,0.7,0.7
2024-10-04T1300,1789A,124.81117,46.03138,大庆市,大同区,,46,46,35,18,18,95,,66,66,9,9,5,4,0.4,0.4
2024-10-04T1300,1790A,125.129,46.533,大庆市,龙凤区,,48,48,39,25,19,98,,67,67,8,15,4,3,0.5,0.4
2024-10-04T1300,1791A,124.902,46.408,大庆市,红岗区,,35,35,33,18,14,98,,70,70,9,11,8,6,0.4,0.4
2024-10-04T1300,1792A,125.153,46.586,大庆市,萨尔图区,,48,48,34,16,11,91,,64,64,11,11,7,6,0.3,0.3
2024-10-04T1300,1793A,124.9042,46.6215,大庆市,让胡路区,,40,40,36,14,19,97,,68,68,9,10,6,5,0.4,0.4
2024-10-04T1300,3481A,125.141,46.634,大庆市,萨区政府监测点,,31,28,28,13,12,99,,69,69,9,12,8,7,0.4,0.3
2024-10-04T1300,1721A,113.3819,40.1097,大同市,果树场,,47,47,47,29,19,126,,,,12,17,11,9,0.7,0.7
2024-10-04T1300,1723A,113.2994,40.0758,大同市,云冈宾馆,颗粒物(PM10),54,57,56,20,25,125,,54,54,23,39,13,11,0.9,0.9
2024-10-04T1300,1724A,113.3444,40.0917,大同市,大同大学,,42,42,45,14,20,129,,62,62,14,29,15,14,0.6,0.7
2024-10-04T1300,1725A,113.2661,40.1269,大同市,安家小村,颗粒物(PM10),51,52,62,29,26,130,,71,71,16,30,16,16,0.5,0.6
2024-10-04T1300,1726A,113.2711,40.0844,大同市,教育学院,颗粒物(PM10),51,52,76,28,29,128,,50,50,17,45,12,12,0.5,0.8
2024-10-04T1300,3282A,113.3397,40.0597,大同市,大同市卫生学校,,49,49,50,19,22,131,,64,64,12,34,12,14,0.6,0.4
2024-10-04T1300,3565A,113.1367,40.1122,大同市,云冈站,颗粒物(PM10),63,76,66,31,25,114,,56,56,27,29,16,13,0.6,0.5
2024-10-04T1300,3566A,113.1186,40.2556,大同市,图书馆,颗粒物(PM10),61,71,97,28,31,114,,62,62,25,29,21,15,0.6,0.6
2024-10-04T1300,3567A,113.5931,40.0461,大同市,区一中,,41,38,40,8,15,130,,89,89,11,18,14,11,0.5,0.5
2024-10-04T1300,3676A,113.2802,40.0995,大同市,第二人民医院,颗粒物(PM10),53,55,62,25,25,130,,61,61,18,34,16,16,0.6,0.7
2024-10-04T1300,2269A,124.1069,50.4097,大兴安岭地区,科技局,,22,18,18,13,13,68,,43,43,7,8,7,8,0.3,0.3
2024-10-04T1300,3663A,124.1164,50.4278,大兴安岭地区,红旗社区,,22,19,18,3,11,68,,35,35,6,16,3,3,0.3,0.3
2024-10-04T1300,1600A,124.3303,40.0625,丹东市,江湾东路,,33,33,38,15,24,98,,52,52,6,22,13,10,0.4,0.6
2024-10-04T1300,1601A,124.4256,40.1503,丹东市,临江后街,,36,24,35,12,18,113,,54,54,7,19,8,7,0.7,0.8
2024-10-04T1300,1602A,124.3933,40.1461,丹东市,元宝山,,31,21,24,12,13,99,,42,42,8,13,7,4,0.7,0.7
2024-10-04T1300,1603A,124.3633,40.1092,丹东市,民主桥,,35,30,31,13,15,109,,48,48,7,23,9,6,0.4,0.5
2024-10-04T1300,3541A,109.5726,19.5167,儋州市,第一中学子站,,46,44,46,23,26,147,,100,100,6,7,7,7,0.6,0.6
2024-10-04T1300,3542A,109.5567,19.5187,儋州市,东坡学校子站,,48,39,44,24,25,151,,99,99,6,7,7,7,0.6,0.7
2024-10-04T1300,2616A,98.5842,24.428,德宏傣族景颇族自治州,德宏州监测站,,17,17,28,3,14,54,,22,22,10,16,13,15,0.4,0.5
2024-10-04T1300,3677A,98.5881,24.4368,德宏傣族景颇族自治州,芒市人民政府综合楼,,24,24,26,13,17,59,,24,24,9,14,9,11,0.4,0.7
2024-10-04T1300,1901A,104.4239,31.1208,德阳市,东山公园,,25,19,15,7,10,78,,63,59,9,10,2,5,0.4,0.3
2024-10-04T1300,1902A,104.3826,31.1317,德阳市,西小区,,31,31,24,10,10,75,,62,55,8,10,2,3,0.4,0.4
2024-10-04T1300,1904A,104.3553,31.1091,德阳市,耐火材料厂,,28,28,19,9,8,62,,60,46,18,9,4,4,0.2,0.2
2024-10-04T1300,3639A,104.4019,31.1244,德阳市,市教育局,,24,23,20,8,10,76,,63,54,10,12,2,4,0.2,0.3
2024-10-04T1300,1622A,116.3032,37.4674,德州市,儿童乐园,颗粒物(PM10),59,68,66,31,34,154,,96,96,17,34,11,11,0.5,0.5
2024-10-04T1300,1624A,116.2991,37.4451,德州市,监理站,颗粒物(PM10),57,63,62,31,33,157,,94,94,17,35,8,8,0.4,0.5
2024-10-04T1300,3066A,116.2721,37.4379,德州市,九衢泉纯净水厂,颗粒物(PM10),59,68,71,22,34,151,,82,82,17,44,11,11,0.4,0.5
2024-10-04T1300,3371A,116.3728,37.4403,德州市,开发区人民医院,颗粒物(PM10),62,73,67,24,32,154,,80,80,10,39,11,12,0.4,0.6
2024-10-04T1300,3372A,116.3572,37.4094,德州市,太阳城中学,颗粒物(PM10),60,70,73,24,35,151,,73,73,16,51,10,11,0.5,0.5
2024-10-04T1300,3511A,116.5652,37.3319,德州市,陵城艺术中心,颗粒物(PM10),56,61,58,27,30,146,,86,86,24,43,14,13,0.7,0.7
2024-10-04T1300,2621A,99.7056,27.8317,迪庆藏族自治州,迪庆州站,,19,,15,13,9,40,,38,38,8,8,8,8,0.4,0.4
2024-10-04T1300,3180A,99.7136,27.8094,迪庆藏族自治州,质量技术监督局,,16,12,13,11,6,41,,41,41,8,8,6,6,0.5,0.4
2024-10-04T1300,2663A,104.6241,35.5734,定西市,东关小学,,30,28,32,21,25,68,,59,59,5,8,7,6,0.2,0.2
2024-10-04T1300,2664A,104.6194,35.5934,定西市,供电公司,,31,31,32,10,16,73,,61,60,3,6,7,6,0.4,0.4
2024-10-04T1300,1389A,113.7547,23.0494,东莞市,莞城梨川,,41,28,34,13,15,131,,111,111,11,13,8,8,0.5,0.5
2024-10-04T1300,1390A,113.7944,23.0128,东莞市,东城石井,,48,37,29,18,13,153,,112,112,14,12,8,7,0.7,0.7
2024-10-04T1300,1391A,113.7383,22.9658,东莞市,南城西平,,47,39,33,17,12,149,,108,108,13,16,4,4,0.8,0.7
2024-10-04T1300,3319A,113.7338,23.0381,东莞市,万江金泰,,40,33,31,16,15,128,,107,107,10,12,5,6,0.5,0.4
2024-10-04T1300,3626A,113.7533,23.0202,东莞市,南城元岭,,43,34,32,18,13,136,,113,113,10,10,9,8,0.5,0.5
2024-10-04T1300,3627A,113.7875,23.0457,东莞市,东城主山,,45,32,31,14,16,142,,117,117,10,14,8,8,0.5,0.5
2024-10-04T1300,1666A,118.6614,37.4309,东营市,市环保局,,49,44,53,22,24,156,,81,81,17,32,7,10,0.5,0.6
2024-10-04T1300,3036A,118.6904,37.4338,东营市,开发区管委会,颗粒物(PM10),56,62,56,17,27,154,,78,78,18,28,5,11,0.3,0.4
2024-10-04T1300,3365A,118.5719,37.565,东营市,垦利区民丰路,臭氧1小时,64,46,47,24,25,171,,78,78,26,38,15,13,0.2,0.3
2024-10-04T1300,3498A,118.5055,37.8612,东营市,河口城区,,41,41,56,20,28,127,,77,77,19,34,9,10,0.3,0.4
2024-10-04T1300,3646A,118.4978,37.4623,东营市,胜利站,,48,41,54,17,25,152,,76,76,19,34,14,14,0.2,0.4
2024-10-04T1300,3734A,118.35,37.26,东营市,理想之城,,49,39,49,27,27,155,,72,72,21,36,9,7,0.3,0.4
2024-10-04T1300,1591A,110.0023,39.8129,鄂尔多斯市,综合楼,,48,48,60,14,14,122,,96,96,14,21,10,13,0.8,0.6
2024-10-04T1300,1592A,109.9486,39.8261,鄂尔多斯市,巴音孟克林场办事处,,44,44,55,17,17,117,,88,88,13,22,8,11,0.5,0.6
2024-10-04T1300,1593A,109.7736,39.5986,鄂尔多斯市,康泽苑,,39,39,44,14,17,119,,84,84,9,18,8,9,0.5,0.5
2024-10-04T1300,1594A,109.8119,39.5989,鄂尔多斯市,华泰汽车城,,39,39,46,19,20,113,,74,74,9,21,10,11,0.5,0.5
2024-10-04T1300,1595A,109.9734,39.7884,鄂尔多斯市,奥林花园,,41,41,56,22,19,112,,82,82,13,24,6,8,0.5,0.6
2024-10-04T1300,2436A,114.8938,30.3994,鄂州市,市政府,,38,22,32,16,17,121,,95,95,13,23,11,11,0.6,0.6
2024-10-04T1300,2437A,114.8989,30.3714,鄂州市,赵家坝,,39,33,38,10,17,122,,89,89,12,22,10,12,0.5,0.5
2024-10-04T1300,3654A,114.8094,30.4089,鄂州市,精准医疗中心,,42,27,37,14,16,132,,110,110,9,16,8,8,0.6,0.6
2024-10-04T1300,2454A,109.4978,30.2981,恩施土家族苗族自治州,湖北民院,,36,36,44,25,22,59,,50,50,26,16,10,10,0.6,0.5
2024-10-04T1300,2455A,109.4707,30.2798,恩施土家族苗族自治州,州电力总公司,,39,39,40,16,22,64,,39,39,23,21,7,7,0.7,0.7
2024-10-04T1300,3549A,109.5061,30.3772,恩施土家族苗族自治州,龙凤新区,,37,37,35,22,20,47,,46,43,39,16,5,6,0.7,0.6
2024-10-04T1300,2499A,108.3411,21.6158,防城港市,沙万,颗粒物(PM10),57,63,51,27,21,138,,112,112,12,13,12,10,0.6,0.6
2024-10-04T1300,2500A,108.3514,21.7731,防城港市,防城档案局,颗粒物(PM10),53,56,106,31,30,125,,97,97,13,26,11,10,0.6,0.5
2024-10-04T1300,2501A,108.3506,21.6414,防城港市,大海花园,颗粒物(PM10),52,53,52,26,22,132,,107,107,9,11,9,9,0.8,0.8
2024-10-04T1300,1371A,113.1294,23.0067,佛山市,湾梁,,46,41,35,15,10,146,,115,115,24,23,8,8,0.6,0.5
2024-10-04T1300,1372A,113.1083,23.0478,佛山市,华材职中,,45,41,41,18,18,144,,110,110,23,26,9,9,0.5,0.5
2024-10-04T1300,1373A,113.144,23.0453,佛山市,南海气象局,,50,50,35,17,12,146,,113,113,21,20,8,8,0.6,0.5
2024-10-04T1300,1374A,113.2881,22.8094,佛山市,顺德苏岗,,43,36,29,12,11,137,,106,106,17,18,8,8,0.6,0.6
2024-10-04T1300,1376A,112.8383,22.8678,佛山市,高明孔堂,,49,45,38,18,15,155,,108,108,16,18,10,12,0.5,0.5
2024-10-04T1300,1377A,112.8836,23.1588,佛山市,三水监测站,,42,36,36,20,16,132,,104,104,19,24,7,8,0.4,0.4
2024-10-04T1300,1378A,112.867,23.185,佛山市,三水云东海,,41,29,32,16,16,130,,102,102,16,27,10,10,0.5,0.5
2024-10-04T1300,3625A,113.2544,22.7642,佛山市,容桂街道办,,44,34,29,14,15,139,,111,111,18,19,8,8,0.6,0.6
2024-10-04T1300,1283A,119.2984,26.1028,福州市,五四北路,,20,20,16,6,5,58,,86,67,14,11,3,3,0.3,0.3
2024-10-04T1300,1284A,119.2648,26.0768,福州市,杨桥西路,,20,14,15,6,6,63,,84,66,8,6,3,3,0.4,0.4
2024-10-04T1300,1285A,119.317,26.0746,福州市,紫阳,,21,21,20,11,9,59,,83,58,11,17,5,6,0.4,0.4
2024-10-04T1300,3048A,119.5799,26.0936,福州市,九龙,,24,11,15,3,6,74,,85,77,3,3,6,6,0.4,0.4
2024-10-04T1300,3526A,119.5189,25.9664,福州市,吴航,,26,7,10,3,6,83,,84,80,5,7,6,7,0.4,0.4
2024-10-04T1300,1755A,123.7977,41.8491,抚顺市,望花区,,50,50,66,14,28,53,,22,22,17,33,6,9,0.6,1
2024-10-04T1300,1756A,123.9161,41.8822,抚顺市,顺城区,,40,38,48,13,22,126,,62,62,11,28,9,6,0.5,0.6
2024-10-04T1300,1757A,124.0436,41.8611,抚顺市,东洲区,,37,29,29,8,17,118,,70,70,8,14,8,8,0.5,0.5
2024-10-04T1300,1758A,123.9247,41.8642,抚顺市,新抚区,,48,48,49,12,23,128,,60,60,11,26,6,5,0.4,0.6
2024-10-04T1300,1759A,124.0972,41.8961,抚顺市,大伙房水库,,40,36,23,11,14,127,,73,73,7,11,8,7,0.6,0.5
2024-10-04T1300,1760A,123.7086,41.8391,抚顺市,沈抚新城,,50,50,62,15,27,128,,63,63,13,37,14,14,0.4,0.8
2024-10-04T1300,2376A,116.2127,28.0814,抚州市,桐源党溪,,40,24,42,13,15,125,,82,82,2,4,5,6,0.6,0.6
2024-10-04T1300,2377A,116.3544,27.9831,抚州市,市站,,34,28,36,8,15,108,,79,79,6,9,6,4,0.5,0.7
2024-10-04T1300,2378A,116.3565,27.963,抚州市,血防站,,40,24,34,10,13,125,,89,89,9,11,8,4,0.5,0.5
2024-10-04T1300,2379A,116.3564,28.0007,抚州市,采茶剧团,,,,34,,15,116,,79,79,3,6,4,5,0.5,0.6
2024-10-04T1300,2380A,116.385,27.9647,抚州市,医学分院,,43,31,42,10,13,136,,104,104,5,7,6,8,0.6,0.6
2024-10-04T1300,2207A,121.6094,41.998,阜新市,工业园区,颗粒物(PM10),51,51,41,24,21,143,,71,71,13,25,17,16,0.8,0.8
2024-10-04T1300,2208A,121.6697,42.0279,阜新市,长青街,,42,41,37,18,21,134,,67,67,17,21,15,16,0.7,0.7
2024-10-04T1300,2209A,121.6673,42.0705,阜新市,农业园区,,49,49,37,29,28,129,,80,80,15,21,17,21,0.7,0.8
2024-10-04T1300,2210A,121.6717,42.0224,阜新市,东苑,,50,50,38,18,18,129,,65,65,17,29,17,23,0.8,0.8
2024-10-04T1300,2211A,121.6506,42.0498,阜新市,玉龙新城,,48,48,40,28,20,143,,71,71,13,23,18,13,0.6,0.7
2024-10-04T1300,2301A,115.8277,32.8929,阜阳市,市监测站,,39,34,59,11,38,124,,86,86,6,23,6,8,0.3,0.4
2024-10-04T1300,2303A,115.8554,32.8605,阜阳市,开发区,,41,41,75,13,32,126,,82,82,11,26,7,9,0.3,0.4
2024-10-04T1300,2875A,115.784,32.8892,阜阳市,阜阳职业技术学院,,39,19,51,8,30,124,,87,87,10,23,6,8,0.3,0.4
2024-10-04T1300,3468A,115.7901,32.8613,阜阳市,市规划展馆,,40,25,50,8,28,126,,93,93,12,23,6,8,0.4,0.4
2024-10-04T1300,3469A,115.836,32.9183,阜阳市,枣园社区,,39,29,60,9,32,124,,76,76,8,27,7,9,0.3,0.4
2024-10-04T1300,2669A,102.9099,34.9841,甘南藏族自治州,州政府,,29,29,26,10,17,80,,76,69,6,7,12,11,0.4,0.4
2024-10-04T1300,3380A,102.8914,34.9617,甘南藏族自治州,甘肃民族师范学院,,43,,28,30,25,74,,73,62,12,11,11,5,0.5,0.5
2024-10-04T1300,2570A,101.9603,30.0475,甘孜藏族自治州,水桥子,,13,,5,9,5,34,,34,33,10,11,6,6,0.4,0.3
2024-10-04T1300,3065A,101.9533,29.9972,甘孜藏族自治州,州环保局,,13,,6,6,6,40,,40,40,10,13,3,3,0.3,0.3
2024-10-04T1300,3414A,115.8347,28.932,赣江新区,桑海产业园,,38,24,35,9,15,120,,89,89,6,12,10,11,0.6,0.6
2024-10-04T1300,2362A,114.9017,25.9149,赣州市,通天岩,,45,39,30,17,19,144,,107,107,8,7,17,13,0.4,0.4
2024-10-04T1300,2363A,114.9367,25.8664,赣州市,地委,,37,30,34,19,20,118,,101,101,9,11,6,4,1.0,1
2024-10-04T1300,2364A,114.9461,25.8481,赣州市,气象台,,39,33,31,16,20,122,,102,102,4,8,3,4,0.6,0.6
2024-10-04T1300,2365A,114.9322,25.8333,赣州市,市图书馆,,41,33,36,17,16,129,,113,113,6,8,7,7,0.5,0.5
2024-10-04T1300,2366A,114.8905,25.8471,赣州市,华坚鞋城,,37,28,33,15,13,118,,102,102,7,8,5,5,0.4,0.4
2024-10-04T1300,3109A,115.0093,25.8613,赣州市,赣县区卫计委,,43,43,35,19,16,130,,95,95,10,15,7,6,0.6,0.6
2024-10-04T1300,2683A,106.2319,36.1417,固原市,马园,,26,6,27,3,9,82,,75,75,5,13,6,6,0.5,0.6
2024-10-04T1300,2684A,106.2792,36.0022,固原市,监测站,,24,8,25,3,15,75,,72,68,8,11,7,8,0.4,0.4
2024-10-04T1300,2685A,106.2375,36.0211,固原市,新区,,25,13,22,3,9,78,,73,73,7,9,4,5,0.3,0.4
2024-10-04T1300,3522A,106.2177,35.9959,固原市,原州区十五小,,25,8,20,6,11,79,,76,76,6,9,4,4,0.6,0.6
2024-10-04T1300,2544A,106.6303,30.4576,广安市,市委,颗粒物(PM10),56,62,45,27,25,70,,53,47,21,17,3,2,0.4,0.4
2024-10-04T1300,2545A,106.6271,30.4663,广安市,友谊中学,,50,45,38,35,26,69,,50,41,20,19,6,4,0.7,0.5
2024-10-04T1300,2547A,106.6388,30.4551,广安市,广电花园,颗粒物(PM10),51,51,40,32,24,72,,52,45,19,17,5,3,0.6,0.5
2024-10-04T1300,2902A,106.6351,30.4865,广安市,北辰小学,颗粒物(PM10),51,52,40,25,24,75,,52,46,16,14,7,5,0.5,0.4
2024-10-04T1300,2523A,105.8945,32.4535,广元市,黑石坡,,32,32,25,14,18,8,,17,6,20,11,14,14,0.5,0.4
2024-10-04T1300,2524A,105.821,32.4444,广元市,老城,,48,48,30,21,13,26,,15,15,28,20,15,3,0.8,0.5
2024-10-04T1300,2526A,105.8628,32.4287,广元市,监测站,,29,29,28,12,21,18,,17,15,25,19,3,4,0.6,0.5
2024-10-04T1300,3617A,105.8047,32.4166,广元市,经开区,,34,34,33,18,20,38,,19,19,22,25,8,5,0.6,0.5
2024-10-04T1300,1345A,113.2347,23.1423,广州市,广雅中学,,48,48,42,23,19,143,,113,113,18,22,8,8,0.7,0.7
2024-10-04T1300,1346A,113.2612,23.105,广州市,市五中,,47,43,38,22,17,149,,120,120,13,14,5,5,0.6,0.5
2024-10-04T1300,1348A,113.3478,23.0916,广州市,广东商学院,,45,40,41,19,13,141,,112,112,12,17,6,6,0.6,0.5
2024-10-04T1300,1349A,113.4332,23.1047,广州市,市八十六中,,42,35,35,16,14,134,,111,111,14,18,4,4,0.5,0.5
2024-10-04T1300,1350A,113.3505,22.9483,广州市,番禺中学,,39,39,35,17,13,106,,86,86,16,19,6,7,0.6,0.5
2024-10-04T1300,1351A,113.2146,23.3916,广州市,花都师范,,42,32,33,15,13,132,,117,117,7,10,8,8,0.5,0.4
2024-10-04T1300,1352A,113.2597,23.1331,广州市,市监测站,,46,36,36,19,14,145,,117,117,2,4,6,6,0.9,0.6
2024-10-04T1300,1353A,113.5618,23.312,广州市,九龙镇镇龙,,39,39,28,16,12,118,,103,103,10,13,7,8,0.7,0.6
2024-10-04T1300,1354A,113.2765,23.1544,广州市,麓湖,,46,38,38,17,16,146,,108,108,13,19,8,8,0.5,0.5
2024-10-04T1300,1355A,113.443,23.3035,广州市,帽峰山森林公园,,41,23,21,18,12,131,,112,112,6,9,7,8,0.4,0.7
2024-10-04T1300,2846A,113.3221,23.1322,广州市,体育西,,42,34,30,20,13,133,,108,108,14,16,5,5,0.6,0.5
2024-10-04T1300,3298A,113.5717,23.5491,广州市,从化街口,,36,25,29,14,14,113,,115,114,7,9,9,10,0.5,0.4
2024-10-04T1300,3299A,113.3472,23.3692,广州市,白云竹料,,42,35,33,13,16,133,,120,120,11,13,7,7,0.6,0.5
2024-10-04T1300,3300A,113.2981,23.237,广州市,白云嘉禾,,47,47,42,20,16,129,,111,111,24,25,6,8,0.6,0.6
2024-10-04T1300,3301A,113.4256,23.1716,广州市,黄埔科学城,,44,36,32,19,15,138,,112,112,13,15,6,3,0.7,0.7
2024-10-04T1300,3302A,113.3942,23.0483,广州市,番禺大学城,,43,34,35,16,14,135,,107,107,19,21,11,11,0.2,0.2
2024-10-04T1300,3303A,113.4922,22.8168,广州市,南沙黄阁,,50,50,37,20,16,153,,109,109,21,25,10,10,0.6,0.6
2024-10-04T1300,3304A,113.5342,22.7896,广州市,南沙街,臭氧1小时,57,46,38,22,17,165,,114,114,19,21,11,10,0.7,0.6
2024-10-04T1300,3443A,113.2902,23.5544,广州市,花都梯面,,,30,29,14,13,114,,108,107,6,8,11,11,,0.5
2024-10-04T1300,3445A,113.7858,23.7478,广州市,从化良口,,35,26,24,17,11,109,,112,109,6,8,9,9,0.5,0.4
2024-10-04T1300,3446A,113.8051,23.2614,广州市,增城荔城,,37,29,30,16,14,118,,113,113,9,12,8,8,0.6,0.5
2024-10-04T1300,2506A,109.6047,23.0666,贵港市,江南子站,颗粒物(PM10),54,58,82,25,34,157,,90,90,10,21,14,10,0.7,0.7
2024-10-04T1300,2507A,109.6014,23.0948,贵港市,贵城子站,颗粒物(PM10),56,61,58,23,27,154,,114,114,8,13,11,10,0.7,0.7
2024-10-04T1300,2508A,109.5669,23.1065,贵港市,荷城子站,,48,48,61,19,22,148,,113,113,8,11,13,13,0.6,0.6
2024-10-04T1300,3405A,109.5886,23.1172,贵港市,新世纪学校,颗粒物(PM10),51,51,65,25,26,149,,110,110,8,11,10,10,0.5,0.5
2024-10-04T1300,1439A,106.6899,26.5998,贵阳市,马鞍山,,41,41,35,14,11,119,,92,92,14,10,4,4,0.5,0.5
2024-10-04T1300,1440A,106.6971,26.5694,贵阳市,市环保站,,48,48,43,24,21,128,,102,102,12,8,6,5,0.3,0.3
2024-10-04T1300,1441A,106.6243,26.6266,贵阳市,鉴湖路,,46,46,43,17,14,112,,92,92,11,7,5,4,0.4,0.4
2024-10-04T1300,1442A,106.7487,26.6343,贵阳市,燕子冲,,41,41,38,22,21,125,,104,104,9,6,8,7,0.3,0.3
2024-10-04T1300,1443A,106.6555,26.4365,贵阳市,碧云窝,,46,46,50,14,17,124,,94,94,8,11,7,7,0.3,0.3
2024-10-04T1300,1444A,106.694,26.5161,贵阳市,中院村,,44,44,43,19,18,124,,91,91,12,13,9,8,0.6,0.6
2024-10-04T1300,1445A,106.7109,26.6027,贵阳市,红边门,,48,48,45,22,20,118,,98,98,16,12,6,5,0.4,0.3
2024-10-04T1300,1446A,106.7164,26.5699,贵阳市,新华路,,44,44,41,17,17,120,,95,95,12,8,8,6,0.4,0.3
2024-10-04T1300,1447A,106.674,26.5424,贵阳市,太慈桥,,41,41,41,19,15,126,,92,92,11,10,6,6,0.3,0.3
2024-10-04T1300,1862A,110.4144,25.3167,桂林市,电子科大尧山校区,,46,46,49,22,43,141,,120,120,6,9,10,10,0.6,0.6
2024-10-04T1300,1863A,110.2819,25.2697,桂林市,监测站,颗粒物(PM10),60,69,58,33,32,149,,122,122,9,12,11,13,0.3,0.5
2024-10-04T1300,1864A,110.3089,25.2708,桂林市,龙隐路小学,,49,47,48,29,28,154,,127,127,7,7,12,15,0.6,0.6
2024-10-04T1300,1865A,110.2869,25.2178,桂林市,八中,颗粒物(PM10),51,51,55,31,28,150,,118,118,12,11,12,14,0.6,0.6
2024-10-04T1300,3403A,110.1764,25.2381,桂林市,创业大厦,颗粒物(PM10),52,53,59,34,32,124,,101,101,9,9,9,9,0.3,0.3
2024-10-04T1300,3531A,110.296,25.1253,桂林市,旅游学院,,45,41,49,24,26,144,,121,121,6,8,10,11,0.4,0.4
2024-10-04T1300,2674A,100.2561,34.4714,果洛藏族自治州,玛沁县大武镇,,34,21,20,10,15,108,,83,83,1,3,9,10,0.4,0.4
2024-10-04T1300,1129A,126.5422,45.755,哈尔滨市,岭北,,43,26,30,13,15,135,,100,100,10,14,12,13,0.5,0.4
2024-10-04T1300,1130A,126.561,45.8167,哈尔滨市,松北商大,,44,44,32,13,12,111,,74,74,11,22,9,9,0.4,0.4
2024-10-04T1300,1131A,126.979,45.5419,哈尔滨市,阿城会宁,,,29,31,14,16,112,,81,81,10,13,,12,0.6,0.5
2024-10-04T1300,1132A,126.599,45.7222,哈尔滨市,南岗学府路,颗粒物(PM10),52,53,55,6,11,116,,77,77,9,17,8,7,0.4,0.4
2024-10-04T1300,1133A,126.689,45.7733,哈尔滨市,太平宏伟公园,,,28,34,17,14,109,,73,73,,20,7,8,0.6,0.6
2024-10-04T1300,1134A,126.635,45.7667,哈尔滨市,道外承德广场,,42,42,39,7,10,107,,73,73,15,22,6,6,0.8,0.6
2024-10-04T1300,1135A,126.685,45.7319,哈尔滨市,香坊红旗大街,,44,44,43,12,16,110,,70,70,15,24,9,8,0.6,0.5
2024-10-04T1300,1136A,126.6411,45.7258,哈尔滨市,动力和平路,,35,34,40,15,16,111,,70,70,13,20,10,9,0.5,0.5
2024-10-04T1300,1137A,126.593,45.7478,哈尔滨市,道里建国路,,42,42,39,16,16,112,,78,78,11,19,13,13,0.6,0.6
2024-10-04T1300,1138A,126.615,45.61,哈尔滨市,平房东轻厂,,45,45,37,18,12,115,,76,76,11,13,7,6,0.7,0.5
2024-10-04T1300,1139A,126.595,45.9855,哈尔滨市,呼兰师专,,48,48,36,16,15,87,,61,61,24,26,5,5,0.5,0.4
2024-10-04T1300,1140A,126.6206,45.6842,哈尔滨市,省农科院,颗粒物(PM10),95,140,59,17,18,106,,66,66,13,27,5,5,0.5,0.5
2024-10-04T1300,2688A,93.5128,42.8172,哈密市,地区监测站,颗粒物(PM10),53,56,94,20,28,94,,76,76,15,33,4,6,0.3,0.4
2024-10-04T1300,2689A,93.4961,42.8328,哈密市,哈密师范学校,颗粒物(PM10),54,57,75,20,27,95,,74,74,10,36,4,5,0.3,0.5
2024-10-04T1300,2671A,100.9048,36.9639,海北藏族自治州,海晏县西海镇,,36,25,27,25,24,98,,74,74,9,11,13,12,0.5,0.5
2024-10-04T1300,3867A,102.0738,36.5056,海东市,平安区公安北苑,,46,46,48,30,26,99,,43,43,14,18,17,13,0.6,0.5
2024-10-04T1300,1410A,110.3232,20.0574,海口市,海南大学,,45,35,45,17,23,144,,130,130,6,11,6,5,0.4,0.5
2024-10-04T1300,1411A,110.283,20.0053,海口市,秀英海南医院,,46,41,47,18,23,146,,118,118,9,16,8,7,0.3,0.4
2024-10-04T1300,1412A,110.338,19.9969,海口市,海南师范大学,,48,43,46,18,22,151,,128,128,9,12,9,8,0.5,0.5
2024-10-04T1300,1413A,110.33,20.0356,海口市,龙华路环保局宿舍,,45,43,44,18,23,144,,124,124,8,11,7,6,0.4,0.4
2024-10-04T1300,3539A,110.5111,19.9736,海口市,桂林洋子站,,46,37,51,19,27,147,,113,113,7,14,9,8,0.4,0.4
2024-10-04T1300,2673A,100.6188,36.2866,海南藏族自治州,共和县恰卜恰镇,,43,36,34,30,19,107,,56,56,10,15,10,10,0.5,0.5
2024-10-04T1300,2676A,97.3731,37.3753,海西蒙古族藏族自治州,德令哈市,颗粒物(PM10),56,62,25,10,10,95,,72,72,13,9,14,9,0.7,0.5
2024-10-04T1300,1048A,114.5302,36.6116,邯郸市,东污水处理厂,,38,30,53,22,30,120,,62,62,7,23,4,4,0.4,0.6
2024-10-04T1300,1049A,114.4918,36.5713,邯郸市,矿院,,46,46,60,22,27,120,,54,54,7,24,5,5,0.2,0.4
2024-10-04T1300,1050A,114.484,36.6133,邯郸市,丛台公园,,36,34,44,20,25,114,,70,70,12,23,3,3,0.3,0.5
2024-10-04T1300,3458A,114.7895,36.5593,邯郸市,香泉濮院小区,颗粒物(PM10),57,64,84,15,35,137,,88,88,9,20,5,5,0.3,0.3
2024-10-04T1300,3579A,114.50634,36.77178,邯郸市,永年区实验高中,颗粒物(PM10),56,61,62,20,29,137,,94,94,10,20,7,9,0.4,0.6
2024-10-04T1300,3580A,114.20016,36.44293,邯郸市,峰峰矿区临水派出所,,46,46,32,25,18,132,,104,104,10,13,7,6,0.4,0.5
2024-10-04T1300,2634A,106.9893,33.1842,汉中市,汉川机床厂子校,,36,36,33,16,20,110,,60,60,6,12,6,7,0.6,0.6
2024-10-04T1300,2635A,107.0154,33.0706,汉中市,市监测站,,39,,46,27,22,82,,44,44,13,21,24,15,0.5,0.6
2024-10-04T1300,2636A,107.0089,33.1138,汉中市,鑫源开发区,,,32,32,,,66,,,,,,,,1.7,1.7
2024-10-04T1300,2637A,107.007,33.0323,汉中市,南郑大河坎水厂,,34,34,42,20,25,80,,36,36,12,18,15,9,0.4,0.5
2024-10-04T1300,1223A,120.2072,30.2111,杭州市,滨江,,34,21,27,10,14,106,,81,81,11,19,5,5,0.5,0.5
2024-10-04T1300,1224A,120.0633,30.2747,杭州市,西溪,,35,23,29,12,19,112,,64,64,11,26,6,6,0.6,0.7
2024-10-04T1300,1226A,120.3461,30.3153,杭州市,下沙,,35,26,28,9,12,111,,76,76,17,36,7,7,0.5,0.6
2024-10-04T1300,1227A,120.1269,30.2456,杭州市,卧龙桥,,36,23,24,11,13,115,,71,71,11,18,6,6,0.4,0.5
2024-10-04T1300,1228A,120.1903,30.2692,杭州市,浙江农大,,34,20,26,8,13,107,,79,79,9,20,9,9,0.4,0.5
2024-10-04T1300,1230A,120.1197,30.3119,杭州市,和睦小学,,37,19,24,10,14,116,,76,76,14,26,7,8,0.5,0.5
2024-10-04T1300,1231A,120.3019,30.4183,杭州市,临平镇,,35,20,28,9,13,112,,84,84,12,21,6,6,0.4,0.5
2024-10-04T1300,1232A,120.2697,30.1819,杭州市,城厢镇,,35,22,26,11,15,111,,87,87,12,19,7,7,0.5,0.4
2024-10-04T1300,1233A,120.0883,30.1808,杭州市,云栖,,34,18,22,10,11,107,,75,75,10,17,6,6,0.5,0.5
2024-10-04T1300,3557A,119.9464,30.0494,杭州市,镇二中,,38,17,29,8,19,121,,65,65,13,27,8,9,0.5,0.6
2024-10-04T1300,3558A,119.7183,30.2367,杭州市,市府大楼,,40,14,29,7,17,126,,78,78,8,18,6,7,0.5,0.6
2024-10-04T1300,3656A,120.1556,30.2864,杭州市,消防大队,,,25,31,10,15,113,,81,81,,22,9,9,0.3,0.4
2024-10-04T1300,1270A,117.1959,31.7848,合肥市,明珠广场,,40,14,28,3,12,127,,85,85,11,24,11,11,0.3,0.4
2024-10-04T1300,1271A,117.3072,31.8764,合肥市,三里街,,35,12,26,3,14,109,,77,77,10,18,5,6,0.4,0.5
2024-10-04T1300,1272A,117.2588,31.8707,合肥市,琥珀山庄,,37,17,26,8,14,118,,91,91,10,18,8,8,0.4,0.5
2024-10-04T1300,1273A,117.1604,31.9052,合肥市,董铺水库,,,12,29,,10,104,,78,78,6,15,5,4,0.3,0.4
2024-10-04T1300,1274A,117.25,31.8571,合肥市,长江中路,,35,17,29,11,17,111,,86,86,12,15,9,9,0.7,0.7
2024-10-04T1300,1275A,117.266,31.9436,合肥市,庐阳区,,38,12,33,7,15,121,,89,89,6,19,4,3,0.4,0.5
2024-10-04T1300,1276A,117.336,31.8586,合肥市,瑶海区,,35,14,30,3,13,111,,80,80,12,20,7,7,0.2,0.3
2024-10-04T1300,1277A,117.3027,31.7964,合肥市,包河区,,36,22,34,3,14,114,,69,69,12,46,6,5,0.5,0.5
2024-10-04T1300,1278A,117.2776,31.7385,合肥市,滨湖新区,,37,12,25,9,12,116,,85,85,9,17,5,4,0.3,0.3
2024-10-04T1300,1279A,117.1318,31.8403,合肥市,高新区,,35,14,26,6,14,111,,82,82,10,21,7,7,0.5,0.6
2024-10-04T1300,3464A,117.3803,31.9147,合肥市,高教基地,,39,15,25,7,15,122,,80,80,4,10,5,4,0.3,0.4
2024-10-04T1300,3614A,79.924,37.0877,和田地区,地区环保局,颗粒物(PM10),115,180,193,56,53,86,,59,59,9,15,9,8,0.5,0.4
2024-10-04T1300,3615A,79.9131,37.113,和田地区,市环保局,颗粒物(PM10),113,176,178,51,54,92,,55,55,13,23,9,7,0.4,0.4
2024-10-04T1300,2516A,108.2011,24.715,河池市,东仁乐园,颗粒物(PM10),54,58,46,24,22,122,,75,75,7,10,6,4,0.6,0.5
2024-10-04T1300,2517A,108.0497,24.6947,河池市,市环保站,颗粒物(PM10),51,52,44,25,23,130,,73,73,9,17,12,11,0.5,0.5
2024-10-04T1300,2518A,108.0983,24.6989,河池市,市疾控中心,颗粒物(PM10),53,56,46,26,24,129,,69,69,13,20,13,11,0.5,0.5
2024-10-04T1300,1696A,114.6778,23.7569,河源市,源西,,37,28,30,13,14,116,,115,111,8,9,6,7,0.4,0.4
2024-10-04T1300,1697A,114.6944,23.7586,河源市,东埔,颗粒物(PM10),51,51,30,13,14,118,,112,110,12,13,5,5,0.7,0.7
2024-10-04T1300,1698A,114.6892,23.7233,河源市,老城,,39,37,31,16,13,124,,113,113,12,14,4,5,0.5,0.5
2024-10-04T1300,1718A,115.4208,35.2464,菏泽市,气象局,,50,44,55,17,28,157,,115,115,10,22,4,5,0.3,0.3
2024-10-04T1300,1719A,115.4747,35.2375,菏泽市,市政协,,48,48,50,16,27,153,,118,118,9,18,5,6,0.3,0.4
2024-10-04T1300,3374A,115.5564,35.0891,菏泽市,定陶老年大学,,44,36,54,14,30,138,,102,102,8,17,7,8,0.1,0.2
2024-10-04T1300,3647A,115.4702,35.2706,菏泽市,菏泽医专,,49,35,51,14,25,155,,122,122,12,23,8,6,0.6,0.6
2024-10-04T1300,2514A,111.5264,24.4172,贺州市,环保小区,颗粒物(PM10),53,55,61,35,31,145,,106,106,12,16,10,8,0.5,0.5
2024-10-04T1300,2515A,111.5608,24.4078,贺州市,政协大楼,颗粒物(PM10),51,52,58,25,27,150,,109,109,12,16,6,6,0.6,0.6
2024-10-04T1300,3534A,111.4744,24.4553,贺州市,西湾,颗粒物(PM10),56,61,56,35,29,138,,105,105,11,13,7,8,0.5,0.5
2024-10-04T1300,2385A,114.17,35.9019,鹤壁市,市监测站,,,70,47,28,22,138,,77,77,19,26,,6,0.1,0.6
2024-10-04T1300,2386A,114.2956,35.7511,鹤壁市,市交警支队,,45,44,56,19,23,144,,68,68,13,32,3,3,0.2,0.2
2024-10-04T1300,2387A,114.2878,35.7306,鹤壁市,迎宾馆,颗粒物(PM10),51,52,57,17,26,146,,71,71,18,32,5,4,0.4,0.5
2024-10-04T1300,3474A,114.2617,35.6822,鹤壁市,大新区,颗粒物(PM10),55,59,58,30,32,143,,66,66,10,33,2,2,0.1,0.2
2024-10-04T1300,3596A,114.1572,35.9603,鹤壁市,南山宾馆,,50,50,49,21,30,136,,92,92,11,16,1,6,0.2,0.2
2024-10-04T1300,2244A,130.2537,47.3416,鹤岗市,哈啤分公司,,33,33,39,14,21,90,,48,48,14,21,22,16,0.5,0.5
2024-10-04T1300,2245A,130.2684,47.3086,鹤岗市,斯达机电,,,35,40,11,23,,,64,,10,20,15,15,0.3,0.3
2024-10-04T1300,2246A,130.3114,47.3388,鹤岗市,东山纸板厂,,29,27,54,18,23,92,,47,47,10,22,18,17,0.2,0.4
2024-10-04T1300,2247A,130.1097,47.3382,鹤岗市,五号水库,,34,15,16,9,8,107,,65,65,4,7,10,8,0.2,0.2
2024-10-04T1300,2263A,127.4833,50.2524,黑河市,交通局,,32,32,31,15,17,78,,45,45,11,15,7,8,0.4,0.4
2024-10-04T1300,2264A,127.5144,50.2341,黑河市,环保局,,27,18,26,10,13,86,,58,58,7,8,4,4,0.3,0.3
2024-10-04T1300,2265A,127.5291,50.2472,黑河市,大黑河岛,,,,,19,14,56,,45,45,10,12,3,2,0.1,0.1
2024-10-04T1300,1074A,115.6838,37.7541,衡水市,电机北厂,,47,44,50,23,30,150,,99,99,6,16,8,10,0.3,0.4
2024-10-04T1300,1075A,115.6303,37.7316,衡水市,市监测站,,48,42,54,20,27,152,,90,90,13,27,8,9,0.4,0.4
2024-10-04T1300,3188A,115.6683,37.7217,衡水市,市城管局,,49,42,51,22,30,155,,97,97,8,22,9,10,0.3,0.4
2024-10-04T1300,3459A,115.5989,37.5491,衡水市,地表水厂,颗粒物(PM10),52,54,51,24,31,151,,82,82,10,37,9,9,0.4,0.4
2024-10-04T1300,2456A,112.5003,26.9167,衡阳市,原169医院,,45,38,53,27,28,143,,102,102,19,19,15,15,0.6,0.6
2024-10-04T1300,2457A,112.6194,26.9258,衡阳市,衡阳化工总厂,颗粒物(PM10),55,60,60,29,36,145,,101,101,5,13,10,9,0.6,0.6
2024-10-04T1300,2458A,112.6211,26.8956,衡阳市,珠晖区环保局,颗粒物(PM10),53,56,61,30,30,142,,103,103,12,17,12,11,0.6,0.5
2024-10-04T1300,2459A,112.6197,26.8733,衡阳市,市委党校,颗粒物(PM10),59,68,60,28,29,150,,104,104,11,16,13,14,0.6,0.6
2024-10-04T1300,2460A,112.6006,26.8919,衡阳市,市监测站,细颗粒物(PM2.5),65,59,63,47,39,151,,103,103,10,15,12,11,0.6,0.7
2024-10-04T1300,2461A,112.5664,26.9056,衡阳市,真空机电公司,颗粒物(PM10),53,56,59,26,27,152,,103,103,8,14,9,8,0.6,0.6
2024-10-04T1300,3399A,112.6703,26.882,衡阳市,师范学院,颗粒物(PM10),51,52,64,23,33,148,,107,107,11,16,12,15,0.6,0.6
2024-10-04T1300,2608A,103.3772,23.3993,红河哈尼族彝族自治州,污水处理厂,,24,18,18,13,16,74,,67,67,5,6,4,5,0.4,0.4
2024-10-04T1300,2609A,103.3861,23.35,红河哈尼族彝族自治州,监测站,,26,26,33,18,19,72,,67,66,4,6,8,9,0.4,0.5
2024-10-04T1300,3038A,103.3758,23.368,红河哈尼族彝族自治州,州图书馆,,21,20,17,6,16,67,,64,62,4,4,6,6,0.4,0.4
2024-10-04T1300,1090A,111.6507,40.7517,呼和浩特市,呼市一监,颗粒物(PM10),54,58,48,28,19,116,,61,61,18,33,11,8,0.6,0.5
2024-10-04T1300,1091A,111.6572,40.8033,呼和浩特市,小召,颗粒物(PM10),57,63,46,30,19,105,,62,62,28,44,12,9,0.6,0.5
2024-10-04T1300,1094A,111.7516,40.8369,呼和浩特市,如意水处理厂,颗粒物(PM10),58,66,51,28,18,105,,59,59,21,46,12,9,0.5,0.4
2024-10-04T1300,1095A,111.7276,40.8062,呼和浩特市,二十九中,颗粒物(PM10),52,54,47,29,19,111,,60,60,23,45,10,7,0.6,0.5
2024-10-04T1300,1096A,111.5512,40.7866,呼和浩特市,工大金川校区,颗粒物(PM10),57,64,56,32,20,115,,55,55,22,50,14,6,0.6,0.6
2024-10-04T1300,1097A,111.717,40.7612,呼和浩特市,化肥厂生活区,,,73,52,29,16,85,,23,,,43,,9,0.5,0.4
2024-10-04T1300,3698A,111.5968,40.8178,呼和浩特市,红旗小学,颗粒物(PM10),62,73,64,36,21,110,,57,57,29,54,14,7,0.6,0.5
2024-10-04T1300,3699A,111.6518,40.8389,呼和浩特市,海东办,颗粒物(PM10),57,63,56,30,22,112,,51,51,23,51,10,6,0.7,0.6
2024-10-04T1300,2192A,119.7594,49.2261,呼伦贝尔市,区环保局,,31,27,26,12,16,97,,74,74,8,12,6,6,0.2,0.2
2024-10-04T1300,3061A,119.7512,49.1577,呼伦贝尔市,国华电力东,,32,31,23,11,11,101,,78,78,5,6,4,4,0.3,0.3
2024-10-04T1300,1250A,120.0751,30.8669,湖州市,城西水厂,,40,18,19,9,9,127,,103,103,12,18,6,6,0.6,0.6
2024-10-04T1300,2873A,120.0875,30.8955,湖州市,仁皇山新区,,40,18,18,8,9,125,,100,100,9,14,7,7,0.5,0.5
2024-10-04T1300,2907A,120.1844,30.8596,湖州市,吴兴区站,,37,12,18,7,9,117,,94,94,6,12,6,7,0.5,0.5
2024-10-04T1300,3562A,120.4148,30.8538,湖州市,南浔区站,,34,18,23,11,12,108,,84,84,11,16,4,3,0.3,0.3
2024-10-04T1300,1607A,120.9092,40.7136,葫芦岛市,龙港区,,46,44,25,27,14,146,,104,104,13,14,14,14,0.6,0.7
2024-10-04T1300,1608A,120.8392,40.7514,葫芦岛市,化工街,颗粒物(PM10),54,58,49,19,21,142,,77,77,16,33,19,27,0.5,0.7
2024-10-04T1300,1609A,120.8341,40.7073,葫芦岛市,新区,颗粒物(PM10),62,74,29,34,21,152,,93,93,15,26,14,12,0.6,0.7
2024-10-04T1300,1610A,120.8695,40.7677,葫芦岛市,东城区,颗粒物(PM10),54,58,48,30,28,139,,67,67,17,37,13,22,0.5,0.7
2024-10-04T1300,2482A,109.5981,27.5721,怀化市,林科所,,39,31,36,11,15,122,,93,93,12,13,10,11,0.6,0.7
2024-10-04T1300,2483A,109.9453,27.5444,怀化市,河西地税局,,45,45,49,24,23,124,,95,95,8,12,11,14,0.4,0.6
2024-10-04T1300,2484A,109.9781,27.5342,怀化市,市四医院,,50,50,58,32,28,123,,83,83,5,8,11,26,0.5,0.6
2024-10-04T1300,2485A,109.9972,27.5578,怀化市,监测楼,,42,42,56,15,26,129,,83,83,8,11,12,32,0.4,0.4
2024-10-04T1300,2486A,110.0394,27.583,怀化市,市委党校,,48,48,65,28,31,122,,75,75,8,12,14,48,0.4,0.4
2024-10-04T1300,1210A,119.036,33.5981,淮安市,钵池山,,34,,34,16,22,108,,76,76,5,19,4,5,0.5,0.6
2024-10-04T1300,1211A,119.007,33.575,淮安市,北京南路,,35,27,47,15,24,112,,65,65,10,32,6,7,0.3,0.5
2024-10-04T1300,1212A,118.989,33.6067,淮安市,市监测站,,37,17,39,9,29,117,,62,62,11,31,7,8,0.4,0.5
2024-10-04T1300,1213A,119.135,33.5039,淮安市,楚州区监测站,,,22,43,12,25,113,,61,61,10,34,6,7,,0.6
2024-10-04T1300,1214A,119.0186,33.6297,淮安市,淮阴区监测站,,37,,46,18,25,116,,67,67,15,41,3,4,0.2,0.5
2024-10-04T1300,3426A,118.8755,33.2894,淮安市,新华书店,,37,12,48,3,27,118,,78,78,9,32,8,11,0.5,0.6
2024-10-04T1300,2282A,116.8004,33.975,淮北市,监测站,,39,38,43,17,24,124,,89,89,8,17,8,9,0.4,0.6
2024-10-04T1300,2283A,116.8091,33.9007,淮北市,烈山区政府,,42,22,47,13,26,132,,93,93,8,20,6,8,0.2,0.4
2024-10-04T1300,3330A,116.8873,33.9836,淮北市,杜集区检察院,,43,36,58,17,28,136,,90,90,5,15,9,10,0.4,0.6
2024-10-04T1300,4017A,116.7923,33.9535,淮北市,市博物馆,,40,28,47,18,29,128,,88,88,10,24,10,11,0.5,0.7
2024-10-04T1300,2277A,116.8305,32.7727,淮南市,潘集区政府,,40,24,52,14,32,128,,98,98,14,22,7,9,0.3,0.4
2024-10-04T1300,2278A,117.0067,32.6524,淮南市,师范学院,,40,20,42,20,22,128,,104,104,6,16,5,8,0.3,0.6
2024-10-04T1300,2279A,116.8569,32.5951,淮南市,谢家集区政府,,38,18,35,12,20,120,,93,93,9,17,6,9,0.2,0.4
2024-10-04T1300,2280A,116.8281,32.633,淮南市,八公山区政府,,40,27,41,8,21,125,,97,97,6,18,9,10,0.3,0.4
2024-10-04T1300,2281A,116.6325,32.6201,淮南市,焦岗湖风景区管理处,,34,17,32,3,19,106,,91,91,4,16,7,7,0,0.1
2024-10-04T1300,2894A,117.0566,32.6531,淮南市,经济技术开发区消防队,,40,17,49,14,23,126,,94,94,5,18,4,9,0.3,0.5
2024-10-04T1300,3329A,117.0108,32.5893,淮南市,山南新区,,42,19,36,3,13,132,,106,106,12,18,3,4,0.3,0.4
2024-10-04T1300,2446A,114.9028,30.4742,黄冈市,职工中心,,41,29,34,18,19,130,,107,107,10,14,8,8,0.5,0.5
2024-10-04T1300,2929A,114.8858,30.4519,黄冈市,红卫路,,41,28,31,13,18,130,,107,107,12,14,8,7,0.5,0.5
2024-10-04T1300,3398A,114.9136,30.4445,黄冈市,市林业局,,40,32,40,16,18,128,,108,108,7,9,9,8,0.5,0.5
2024-10-04T1300,2672A,102.0199,35.5102,黄南藏族自治州,同仁县隆务镇,,,,48,,25,97,,80,66,4,5,,9,0.6,0.6
2024-10-04T1300,2295A,118.2903,29.6963,黄山市,延安路89号,,34,10,23,3,10,108,,70,70,3,7,6,6,0.2,0.2
2024-10-04T1300,2296A,118.327,29.7178,黄山市,黄山东路89号,,34,23,26,3,12,106,,77,77,3,7,5,5,0.2,0.3
2024-10-04T1300,2297A,118.1371,30.2756,黄山市,黄山区政府5号楼,,36,18,32,15,19,113,,64,64,5,8,7,7,0.3,0.4
2024-10-04T1300,2423A,115.0601,30.2313,黄石市,沈家营,,44,31,28,14,12,138,,114,114,12,15,16,13,0.6,0.5
2024-10-04T1300,2424A,115.0817,30.2006,黄石市,陈家湾,,43,33,30,17,16,135,,103,103,11,18,13,14,0.5,0.7
2024-10-04T1300,2426A,114.8988,30.2019,黄石市,铁山,,47,31,29,9,14,148,,123,123,8,14,9,10,0.3,0.4
2024-10-04T1300,2427A,115.0307,30.2092,黄石市,团城山,,43,31,31,8,12,135,,109,109,12,16,10,10,0.6,0.6
2024-10-04T1300,3149A,115.0235,30.1578,黄石市,笔架山北路,,43,20,28,10,11,135,,109,109,8,17,8,8,0.4,0.5
2024-10-04T1300,1392A,114.4183,23.0528,惠州市,河南岸金山湖子站,,38,33,34,16,15,119,,111,111,7,11,7,8,0.5,0.5
2024-10-04T1300,1393A,114.4053,23.0822,惠州市,下埔横江三路子站,,40,30,33,15,16,126,,117,117,9,11,13,11,0.6,0.6
2024-10-04T1300,1394A,114.4103,23.1142,惠州市,江北云山西路子站,,40,28,33,18,13,127,,115,115,6,10,6,7,0.6,0.5
2024-10-04T1300,1395A,114.4645,22.7833,惠州市,惠阳区承修路船湖子站,,41,41,40,17,16,122,,104,104,14,15,9,9,0.5,0.5
2024-10-04T1300,1396A,114.5317,22.7422,惠州市,大亚湾管委会子站,,40,36,32,16,14,126,,107,107,11,12,10,9,0.4,0.4
2024-10-04T1300,3314A,114.4338,22.8134,惠州市,惠阳秋长,,39,24,31,16,15,122,,108,108,8,9,7,7,0.8,0.7
2024-10-04T1300,3452A,114.6517,22.775,惠州市,大亚湾霞涌,,45,45,38,19,17,118,,105,105,7,8,7,7,0.9,0.8
2024-10-04T1300,2240A,130.9762,45.3001,鸡西市,环保局,,28,26,61,9,23,89,,49,49,1,23,5,6,0.2,0.5
2024-10-04T1300,2243A,130.9429,45.3039,鸡西市,第一中学,,30,12,38,3,13,96,,54,54,1,21,5,5,0.0,0.1
2024-10-04T1300,3707A,131.0207,45.3073,鸡西市,欧美日汽修厂,,30,20,60,3,28,95,,43,43,7,26,6,7,0.1,0.3
2024-10-04T1300,3709A,130.9967,45.3106,鸡西市,市政设施管理处,,37,37,62,6,20,96,,43,43,8,32,6,7,0.1,0.3
2024-10-04T1300,2367A,114.9754,27.0803,吉安市,红声器材厂,,41,35,40,14,13,129,,96,96,13,17,9,13,0.4,0.5
2024-10-04T1300,2368A,114.9658,27.0999,吉安市,市森林工业局,,40,32,36,16,15,127,,96,96,13,17,12,14,0.6,0.7
2024-10-04T1300,2369A,114.99,27.1312,吉安市,市环境监测站,,40,26,35,14,15,128,,97,97,11,15,15,17,0.3,0.4
2024-10-04T1300,2370A,115.0093,27.0968,吉安市,青原区法院,,40,34,37,13,16,128,,95,95,11,17,13,16,0.4,0.5
2024-10-04T1300,1772A,126.54,43.8622,吉林市,哈达湾,,33,14,26,3,16,103,,71,71,6,23,7,7,0.4,0.6
2024-10-04T1300,1773A,126.5844,43.8358,吉林市,东局子,,,9,21,8,10,100,,69,69,,20,,5,0.4,0.5
2024-10-04T1300,1774A,126.5052,43.8245,吉林市,电力学院,,32,,36,10,21,102,,58,58,5,22,5,5,0.5,0.7
2024-10-04T1300,1775A,126.6133,43.8972,吉林市,江北,,32,14,19,3,11,100,,66,66,7,13,7,8,0.2,0.4
2024-10-04T1300,1776A,126.555,43.8306,吉林市,江南公园,,33,8,25,7,14,103,,67,67,5,21,6,6,0.4,0.6
2024-10-04T1300,1778A,126.7061,43.7133,吉林市,丰满,,,16,10,15,9,93,,62,62,,5,7,6,0.2,0.3
2024-10-04T1300,2868A,126.4739,43.953,吉林市,九站,,32,19,31,6,15,101,,74,74,6,23,6,8,0.5,0.6
2024-10-04T1300,1299A,116.9862,36.6114,济南市,科干所,,50,39,34,20,15,158,,121,121,15,26,10,7,0.7,0.6
2024-10-04T1300,1300A,116.9376,36.665,济南市,农科所,,45,42,46,17,19,141,,92,92,20,42,8,5,0.7,0.7
2024-10-04T1300,1301A,117.1265,36.6734,济南市,开发区,,47,29,36,17,19,149,,94,94,10,36,6,5,0.4,0.4
2024-10-04T1300,1303A,117.0624,36.6868,济南市,省种子仓库,,49,34,50,14,17,156,,82,82,5,46,5,6,0.2,0.3
2024-10-04T1300,1304A,116.9489,36.6447,济南市,机床二厂,,47,39,52,17,20,150,,88,88,19,46,7,7,0.7,0.7
2024-10-04T1300,1305A,117.0495,36.663,济南市,市监测站,,50,37,38,20,16,158,,101,101,12,48,6,4,0.5,0.6
2024-10-04T1300,1306A,116.7675,36.5484,济南市,长清党校,臭氧1小时,60,44,39,20,17,168,,115,115,15,32,9,7,0.6,0.6
2024-10-04T1300,1616A,117.6795,36.229,济南市,技术学院,,48,44,49,22,28,153,,76,76,11,40,11,12,0.5,0.9
2024-10-04T1300,1961A,117.532,36.6868,济南市,东山小学,,46,27,32,15,13,147,,105,105,12,32,6,4,0.4,0.4
2024-10-04T1300,3059A,117.7161,36.2049,济南市,泰兴公司,,48,36,52,19,28,151,,69,69,10,45,11,11,0.2,0.8
2024-10-04T1300,3494A,117.1673,36.9782,济南市,济阳区政府,,49,42,55,15,18,155,,73,73,12,47,4,3,0.3,0.3
2024-10-04T1300,3495A,117.1171,36.63,济南市,锦屏中学,,48,24,22,10,11,153,,118,118,12,19,7,5,0.3,0.3
2024-10-04T1300,3682A,116.9814,36.6819,济南市,济南四建,,46,22,40,17,20,145,,89,89,11,48,5,3,0.3,0.5
2024-10-04T1300,1653A,116.6251,35.4302,济宁市,火炬城,,50,41,42,24,31,159,,100,100,13,24,10,10,0.5,0.6
2024-10-04T1300,1655A,116.5491,35.4042,济宁市,电化厂,颗粒物(PM10),56,61,71,31,35,160,,81,81,19,45,12,9,0.7,0.8
2024-10-04T1300,3500A,116.5814,35.3707,济宁市,北湖一中,臭氧1小时,64,38,44,31,32,171,,87,87,14,31,10,7,0.4,0.4
2024-10-04T1300,3501A,116.8249,35.5593,济宁市,服务中心,颗粒物(PM10),53,56,62,30,30,154,,77,77,14,48,10,9,0.5,0.6
2024-10-04T1300,3678A,116.5907,35.4054,济宁市,市第七中学,,47,44,53,29,35,150,,86,86,11,32,11,10,0.6,0.6
2024-10-04T1300,2255A,130.2751,46.8028,佳木斯市,佳纺,,33,17,23,9,9,103,,79,79,4,8,4,3,0.4,0.3
2024-10-04T1300,2256A,130.3995,46.8307,佳木斯市,发电厂,,,19,18,16,10,101,,74,74,5,12,,1,,0.3
2024-10-04T1300,2257A,130.3258,46.7975,佳木斯市,环保局,,32,27,20,12,9,100,,79,79,5,6,9,8,0.4,0.3
2024-10-04T1300,2258A,130.3648,46.8032,佳木斯市,十一中,,32,21,23,12,11,100,,74,74,9,16,8,7,0.4,0.4
2024-10-04T1300,2259A,130.3794,46.7588,佳木斯市,四丰,,32,13,13,8,7,100,,78,78,7,7,1,1,0.2,0.1
2024-10-04T1300,1252A,120.7436,30.778,嘉兴市,清河小学,,35,18,22,7,8,111,,79,79,13,22,4,4,0.6,0.7
2024-10-04T1300,1253A,120.726,30.7478,嘉兴市,嘉兴学院,,35,23,24,10,12,110,,80,80,10,16,4,4,0.3,0.4
2024-10-04T1300,2872A,120.7846,30.7525,嘉兴市,南湖区残联,,37,21,22,8,11,118,,89,89,6,14,6,6,0.3,0.3
2024-10-04T1300,3407A,120.6916,30.7739,嘉兴市,秀洲住建,,36,19,24,9,13,113,,78,78,8,17,6,7,0.3,0.3
2024-10-04T1300,1945A,98.2908,39.7711,嘉峪关市,气象局,颗粒物(PM10),75,100,51,39,17,118,,59,59,16,23,34,15,0.9,0.5
2024-10-04T1300,2884A,98.2672,39.7978,嘉峪关市,酒钢宾馆,颗粒物(PM10),67,83,55,24,16,102,,61,61,23,24,64,41,1.0,0.7
2024-10-04T1300,3248A,98.2643,39.7724,嘉峪关市,雄关区,颗粒物(PM10),67,84,44,19,15,111,,50,50,17,29,20,14,0.9,0.5
2024-10-04T1300,1383A,113.1064,22.6058,江门市,北街,,49,48,40,19,16,156,,116,116,13,19,7,7,0.7,0.7
2024-10-04T1300,1384A,113.0731,22.5835,江门市,西区,,50,46,42,22,9,160,,116,116,12,16,8,8,0.3,0.3
2024-10-04T1300,1385A,113.0219,22.5311,江门市,圭峰西,,48,41,35,20,17,151,,106,106,15,17,5,6,0.7,0.7
2024-10-04T1300,1386A,113.0828,22.5947,江门市,东湖,,,30,36,26,16,157,,118,118,13,17,,6,0.4,0.4
2024-10-04T1300,3311A,113.1075,22.5647,江门市,江海富民,,49,40,43,16,18,154,,114,114,14,19,8,8,0.4,0.4
2024-10-04T1300,3449A,113.05,22.4667,江门市,新会银湖,,50,50,38,17,17,159,,111,111,11,17,8,8,0.6,0.6
2024-10-04T1300,1828A,113.227,35.2125,焦作市,市环保局,,49,43,58,34,33,137,,80,80,17,24,7,8,0.1,0.2
2024-10-04T1300,1830A,113.1992,35.2590,焦作市,影视城,,49,40,44,29,34,156,,122,122,9,10,9,8,0.3,0.5
2024-10-04T1300,3169A,113.2725,35.2067,焦作市,太极体育中心,颗粒物(PM10),61,71,68,20,25,134,,77,77,17,26,7,10,0.1,0.2
2024-10-04T1300,3335A,113.3137,35.2641,焦作市,马村街道办,,49,48,61,34,31,141,,90,90,12,21,4,7,0.1,0.2
2024-10-04T1300,3336A,113.2465,35.2373,焦作市,焦作技师学院,颗粒物(PM10),53,56,58,29,32,137,,94,94,14,19,5,5,0.3,0.4
2024-10-04T1300,3477A,113.1656,35.2539,焦作市,中站许衡医院,,,43,45,21,30,148,,98,98,,22,7,3,0.4,0.4
2024-10-04T1300,3981A,113.2449,35.1803,焦作市,原李万街道办,颗粒物(PM10),53,56,66,34,34,141,,80,80,11,19,5,9,0.1,0.3
2024-10-04T1300,1708A,116.3701,23.5345,揭阳市,新兴,,35,35,28,15,16,97,,83,83,7,11,6,5,0.5,0.5
2024-10-04T1300,1709A,116.3264,23.5443,揭阳市,西马,,33,32,31,16,18,104,,91,91,5,7,6,6,0.6,0.5
2024-10-04T1300,1710A,116.3611,23.5626,揭阳市,东兴,,30,28,32,15,17,95,,84,84,7,13,5,5,0.6,0.6
2024-10-04T1300,1711A,116.4151,23.5294,揭阳市,渔湖,,40,40,28,20,16,92,,82,82,10,13,8,7,0.5,0.5
2024-10-04T1300,3320A,116.403,23.5699,揭阳市,曲溪,,28,24,28,16,17,89,,79,79,11,16,2,2,0.4,0.4
2024-10-04T1300,1944A,102.1692,38.5167,金昌市,天庆家园,颗粒物(PM10),60,70,50,31,21,131,,66,66,13,29,54,27,0.3,0.6
2024-10-04T1300,3170A,102.1864,38.5253,金昌市,市委党校,颗粒物(PM10),62,73,58,33,23,129,,64,64,14,29,28,21,0.8,0.7
2024-10-04T1300,4022A,102.1647,38.5371,金昌市,金川区人防中心,颗粒物(PM10),78,106,66,45,21,140,,80,80,15,29,48,20,0.7,0.6
2024-10-04T1300,1262A,119.647,29.077,金华市,十五中,,40,28,37,14,16,127,,80,80,14,25,3,2,0.4,0.4
2024-10-04T1300,1263A,119.686,29.1029,金华市,监测站,,39,24,38,12,19,122,,74,74,10,23,3,3,0.4,0.5
2024-10-04T1300,3659A,119.656,29.1131,金华市,气象局,,39,23,36,13,22,124,,72,72,14,30,4,4,0.3,0.4
2024-10-04T1300,1767A,121.1115,41.0879,锦州市,南山,细颗粒物(PM2.5),55,41,37,39,30,129,,70,70,17,37,13,11,0.8,0.9
2024-10-04T1300,1768A,121.0533,40.8434,锦州市,开发区,颗粒物(PM10),100,149,77,43,29,133,,71,71,20,60,10,16,0.6,1.2
2024-10-04T1300,1769A,121.1836,41.1119,锦州市,百股街道,,41,39,33,27,20,130,,71,71,17,26,15,14,0.8,0.9
2024-10-04T1300,1770A,121.1178,41.1222,锦州市,天安街道,,48,40,45,33,31,134,,69,69,14,40,13,18,0.7,1
2024-10-04T1300,1771A,121.1303,41.1386,锦州市,北湖公园,,48,37,39,33,32,142,,82,82,14,33,13,21,0.7,1
2024-10-04T1300,2160A,112.85,35.5051,晋城市,自来水公司,,47,38,62,22,30,150,,75,75,16,35,11,11,0.5,0.8
2024-10-04T1300,2161A,112.8318,35.4936,晋城市,白云商贸,颗粒物(PM10),52,53,68,19,27,148,,81,81,20,38,8,7,0.6,0.8
2024-10-04T1300,2162A,112.8508,35.4887,晋城市,市环保局,,47,43,68,22,28,148,,71,71,17,40,8,7,0.6,0.7
2024-10-04T1300,2163A,112.8676,35.4897,晋城市,技术学院,,47,37,61,17,31,148,,74,74,21,42,8,7,0.6,0.8
2024-10-04T1300,3620A,112.8271,35.4828,晋城市,泽州一中,颗粒物(PM10),67,83,53,19,26,143,,75,75,22,33,11,10,0.6,0.9
2024-10-04T1300,2171A,112.7532,37.6945,晋中市,锦纶小区,颗粒物(PM10),59,68,50,41,23,159,,84,84,16,22,13,8,0.7,0.5
2024-10-04T1300,2173A,112.7249,37.7067,晋中市,南都小区,颗粒物(PM10),57,63,50,32,26,155,,86,86,16,26,12,8,0.7,0.6
2024-10-04T1300,2174A,112.6991,37.6982,晋中市,榆次区政府,颗粒物(PM10),57,63,49,24,21,156,,90,90,16,26,11,8,0.4,0.4
2024-10-04T1300,2865A,112.7195,37.6828,晋中市,榆次三中,颗粒物(PM10),59,68,54,29,21,156,,76,76,14,26,14,11,0.6,0.5
2024-10-04T1300,2439A,112.2014,31.0481,荆门市,竹园小学,,46,44,49,30,21,147,,99,99,14,30,12,12,0.4,0.5
2024-10-04T1300,2440A,112.1969,30.9891,荆门市,掇刀,,49,48,53,30,29,156,,112,112,15,29,12,13,0.4,0.6
2024-10-04T1300,2441A,112.2213,31.0386,荆门市,石化一小,颗粒物(PM10),51,51,54,34,23,146,,100,100,14,35,19,18,0.3,0.5
2024-10-04T1300,3012A,112.1849,31.0362,荆门市,西山林语,,48,26,41,23,21,152,,109,109,14,20,10,10,0.4,0.5
2024-10-04T1300,3547A,112.1632,31.0138,荆门市,龙泉中学南校,,48,38,45,26,23,153,,107,107,19,25,11,10,0.4,0.5
2024-10-04T1300,1844A,112.2494,30.3197,荆州市,市图书馆,,46,,47,28,31,146,,116,116,15,24,10,11,0.5,0.5
2024-10-04T1300,1845A,112.2008,30.3544,荆州市,市委党校,,46,32,44,29,28,146,,116,116,11,19,8,8,0.4,0.4
2024-10-04T1300,3194A,112.2747,30.3122,荆州市,管委会,,47,32,44,31,33,150,,112,112,11,25,10,11,0.5,0.6
2024-10-04T1300,3548A,112.1655,30.3364,荆州市,学苑路,,49,47,53,18,26,156,,122,122,12,18,8,10,0.6,0.6
2024-10-04T1300,2343A,117.2117,29.2933,景德镇市,老干部活动中心,,32,,20,9,13,100,,83,83,4,7,7,9,0.3,0.3
2024-10-04T1300,2344A,117.1894,29.2789,景德镇市,兽医站,,33,28,27,3,11,104,,86,86,2,5,6,8,0.2,0.3
2024-10-04T1300,2345A,117.1547,29.2617,景德镇市,台达陶瓷,,34,19,21,11,11,106,,92,92,10,8,22,7,0.4,0.4
2024-10-04T1300,2346A,117.2461,29.2956,景德镇市,陶研所,,35,13,25,8,12,110,,78,78,5,13,5,6,0.3,0.3
2024-10-04T1300,1803A,115.9872,29.6815,九江市,十里,,41,36,36,14,16,130,,86,86,11,16,10,10,0.5,0.5
2024-10-04T1300,1804A,115.9584,29.7046,九江市,茅山头,,38,25,27,16,15,119,,82,82,11,15,10,11,0.6,0.6
2024-10-04T1300,1805A,115.9877,29.7295,九江市,西园,,42,32,28,16,17,132,,92,92,12,16,10,10,0.4,0.4
2024-10-04T1300,1806A,116.0172,29.6547,九江市,五七二七厂,,39,34,32,16,19,123,,83,83,12,15,10,11,0.6,0.6
2024-10-04T1300,1808A,115.9114,29.6038,九江市,综合工业园,,41,29,32,24,22,129,,90,90,15,16,11,14,0.5,0.4
2024-10-04T1300,1809A,116.0721,29.7535,九江市,石化总厂,,38,34,34,20,23,121,,81,81,9,17,9,9,0.6,0.6
2024-10-04T1300,1810A,115.9773,29.5698,九江市,庐山气象台,,38,28,27,22,18,121,,121,120,7,5,6,7,0.6,0.6
2024-10-04T1300,3190A,116.0254,29.6994,九江市,外国语学校,,37,30,33,21,19,118,,75,75,12,17,10,10,0.4,0.4
2024-10-04T1300,2658A,98.5061,39.7443,酒泉市,仓门街子站,颗粒物(PM10),52,53,49,24,22,109,,58,58,6,13,13,6,0.5,0.4
2024-10-04T1300,2659A,98.4989,39.7256,酒泉市,油田生活基地,颗粒物(PM10),57,63,57,18,22,112,,62,62,8,18,10,6,0.3,0.4
2024-10-04T1300,2698A,76.0072,39.4467,喀什地区,巡警大队,颗粒物(PM10),69,87,119,7,22,92,,41,37,17,38,6,6,0.5,0.7
2024-10-04T1300,2699A,75.9755,39.4694,喀什地区,吾办,颗粒物(PM10),55,59,124,18,37,94,,34,34,14,39,4,4,0.4,0.8
2024-10-04T1300,4027A,75.9483,39.4689,喀什地区,老干局,颗粒物(PM10),60,70,160,12,26,91,,37,37,13,34,4,5,0.4,0.6
2024-10-04T1300,1824A,114.3389,34.7781,开封市,肿瘤医院,,48,33,73,28,49,152,,88,88,4,27,3,5,0.3,0.4
2024-10-04T1300,1826A,114.2885,34.7965,开封市,世纪星幼儿园,,50,42,62,27,40,158,,97,97,11,26,8,9,0.5,0.6
2024-10-04T1300,3147A,114.3438,34.8106,开封市,龙亭公园,,48,44,70,24,46,152,,94,94,11,29,6,9,0.4,0.5
2024-10-04T1300,3210A,114.3644,34.7964,开封市,汴京公园,颗粒物(PM10),53,56,72,25,43,142,,83,83,8,26,3,5,0.3,0.3
2024-10-04T1300,3473A,114.2485,34.8306,开封市,技师学院,,50,50,56,28,34,154,,105,105,9,17,4,6,0.3,0.3
2024-10-04T1300,3592A,114.4644,34.7556,开封市,祥符区生态环境局,,46,45,81,28,45,147,,77,77,13,43,8,9,0.4,0.4
2024-10-04T1300,1951A,84.895,45.6094,克拉玛依市,长征新村,,25,25,28,12,5,79,,83,72,5,4,6,6,0.1,0.2
2024-10-04T1300,1952A,84.8988,45.5893,克拉玛依市,南林小区,,33,33,28,3,16,76,,84,72,8,8,2,2,0.1,0.2
2024-10-04T1300,1954A,84.905,44.3396,克拉玛依市,独山子区,,31,,29,20,14,97,,72,72,5,18,8,8,0.3,0.4
2024-10-04T1300,1955A,85.6979,46.098,克拉玛依市,乌尔禾区商贸楼,,24,23,42,6,10,75,,60,52,7,14,3,2,0.2,0.2
2024-10-04T1300,3612A,85.1045,45.6899,克拉玛依市,白碱滩区新站,,28,28,34,8,11,82,,82,70,8,7,8,8,0.1,0.1
2024-10-04T1300,2697A,76.1454,39.7142,克孜勒苏柯尔克孜自治州,市人民政府,颗粒物(PM10),63,75,64,25,21,93,,116,108,8,9,3,17,0.8,0.8
2024-10-04T1300,3665A,76.1658,39.7157,克孜勒苏柯尔克孜自治州,克州文化中心,颗粒物(PM10),84,118,52,25,16,93,,122,113,10,7,6,13,0.7,0.6
2024-10-04T1300,1450A,102.8204,24.8886,昆明市,呈贡新区,,19,15,28,10,17,58,,55,49,5,10,3,5,0.5,0.5
2024-10-04T1300,1452A,102.7252,25.0902,昆明市,龙泉镇,,23,17,22,16,14,45,,44,42,12,13,6,7,0.7,0.8
2024-10-04T1300,1453A,102.7266,25.0375,昆明市,东风东路,,23,22,24,16,15,48,,48,43,10,11,6,6,0.5,0.5
2024-10-04T1300,1454A,102.6742,25.0669,昆明市,金鼎山,,28,25,24,19,14,48,,41,41,12,16,2,4,0.5,0.5
2024-10-04T1300,1455A,102.6644,25.0401,昆明市,碧鸡广场,,26,26,26,16,14,48,,34,34,9,18,6,7,0.5,0.6
2024-10-04T1300,3179A,102.7494,25.0119,昆明市,官渡区博物馆,,18,16,26,12,14,57,,54,50,6,10,6,7,0.5,0.5
2024-10-04T1300,3375A,102.8017,24.8336,昆明市,青年创业园,,18,14,23,10,17,57,,57,49,4,8,4,5,0.5,0.5
2024-10-04T1300,3550A,102.7997,24.9786,昆明市,昆明学院,,19,17,27,10,18,60,,58,51,6,10,5,7,0.5,0.5
2024-10-04T1300,3551A,102.5967,24.6736,昆明市,晋宁区生态环境分局,,20,,23,14,16,61,,51,50,5,8,1,1,0.6,0.7
2024-10-04T1300,3552A,102.6678,24.9856,昆明市,云天化总部,,26,23,22,18,16,58,,48,48,5,9,5,6,0.4,0.3
2024-10-04T1300,1456A,91.1319,29.6514,拉萨市,八廓街,,23,13,13,7,7,73,,73,62,8,12,7,7,0.1,0.1
2024-10-04T1300,1457A,91.1221,29.6747,拉萨市,市环保局,,23,12,13,3,6,73,,76,64,8,9,6,6,0.2,0.2
2024-10-04T1300,1458A,91.0874,29.6475,拉萨市,区监测站,,22,6,9,3,6,68,,72,58,7,10,6,6,0.3,0.3
2024-10-04T1300,1459A,91.1774,29.6541,拉萨市,西藏大学,,22,10,12,3,6,69,,72,62,7,9,6,7,0.2,0.4
2024-10-04T1300,1460A,90.9798,29.6588,拉萨市,区辐射站,,22,16,14,7,7,68,,68,50,4,13,8,9,0.2,0.2
2024-10-04T1300,1461A,91.0834,29.6292,拉萨市,拉萨火车站,,21,12,11,3,5,67,,72,57,7,7,6,6,0.3,0.3
2024-10-04T1300,2520A,109.2203,23.7256,来宾市,来宾技工学校,颗粒物(PM10),56,62,57,30,28,141,,101,101,12,13,14,11,0.9,0.6
2024-10-04T1300,3535A,109.1781,23.7297,来宾市,兴宾区政府,颗粒物(PM10),52,53,48,26,28,145,,92,92,11,10,13,10,1.0,0.8
2024-10-04T1300,4002A,109.2416,23.7461,来宾市,中南小学,颗粒物(PM10),62,73,62,26,23,150,,106,106,8,9,17,12,0.9,0.7
2024-10-04T1300,1476A,103.631,36.1031,兰州市,兰炼宾馆,,44,44,44,20,28,101,,42,42,28,25,11,10,0.6,0.4
2024-10-04T1300,1478A,103.8412,36.0726,兰州市,生物制品所,,30,28,33,21,25,80,,35,35,18,23,11,10,0.5,0.5
2024-10-04T1300,1479A,103.831,36.0464,兰州市,铁路设计院,,,48,38,34,27,61,,35,32,31,25,,6,0.7,0.5
2024-10-04T1300,3186A,103.7158,36.1058,兰州市,教育港,,44,44,44,27,28,84,,36,36,17,20,9,8,0.4,0.5
2024-10-04T1300,3241A,103.7439,36.0842,兰州市,百合公园,,32,32,34,17,20,88,,36,36,14,22,7,7,0.4,0.5
2024-10-04T1300,3242A,103.9611,35.998,兰州市,和平,,,40,38,19,19,82,,37,37,11,17,,9,0.5,0.4
2024-10-04T1300,3245A,103.6633,36.533,兰州新区,新区管委会,,45,45,41,25,23,87,,39,39,15,16,18,15,0.5,0.5
2024-10-04T1300,3246A,103.6975,36.4789,兰州新区,舟曲中学,,39,39,37,22,20,91,,50,50,11,18,17,27,0.4,0.4
2024-10-04T1300,1067A,116.6708,39.5111,廊坊市,药材公司,细颗粒物(PM2.5),83,91,75,61,48,115,,58,58,28,34,9,6,0.7,0.5
2024-10-04T1300,1068A,116.7214,39.5589,廊坊市,开发区,颗粒物(PM10),76,102,64,55,38,118,,57,57,28,29,12,5,0.7,0.5
2024-10-04T1300,1070A,116.7244,39.5269,廊坊市,北华航天学院,颗粒物(PM10),76,101,69,53,35,124,,61,61,25,30,12,6,0.7,0.5
2024-10-04T1300,2919A,116.7022,39.5453,廊坊市,河北工业大学,细颗粒物(PM2.5),84,90,66,62,44,115,,64,64,27,30,12,8,0.7,0.5
2024-10-04T1300,2535A,103.7723,29.5462,乐山市,花湖湾,,16,14,20,9,12,51,,45,44,11,12,2,2,0.6,0.6
2024-10-04T1300,2536A,103.7627,29.5844,乐山市,牛耳桥,,18,18,21,11,15,57,,46,46,18,17,4,4,0.4,0.4
2024-10-04T1300,2537A,103.7508,29.6006,乐山市,市第三水厂,,20,17,21,14,18,61,,51,51,12,12,3,4,0.5,0.5
2024-10-04T1300,2538A,103.7571,29.5664,乐山市,市监测站,,19,16,21,13,13,59,,44,44,11,13,3,3,0.4,0.4
2024-10-04T1300,3361A,103.7311,29.5628,乐山市,理工大学,,25,22,20,17,15,57,,41,39,12,13,3,3,0.4,0.5
2024-10-04T1300,2599A,100.2497,26.8802,丽江市,丽江古城,,,17,22,13,19,38,,33,,,10,10,9,,0.7
2024-10-04T1300,2600A,100.2203,26.8906,丽江市,市中心,,15,10,16,10,14,31,,28,26,6,8,8,6,0.8,0.8
2024-10-04T1300,1267A,119.914,28.4514,丽水市,监测站大楼,,32,22,23,14,16,102,,59,,10,17,7,4,0.3,0.2
2024-10-04T1300,1268A,119.93,28.4586,丽水市,莲都小学,,35,23,25,12,13,111,,97,97,11,15,4,4,0.3,0.3
2024-10-04T1300,1269A,119.879,28.4231,丽水市,余庄前,,33,18,22,10,13,103,,67,67,7,9,4,4,0.2,0.2
2024-10-04T1300,1173A,119.176,34.5885,连云港市,市环境监测站,,50,39,36,14,20,158,,96,96,14,21,11,10,0.5,0.5
2024-10-04T1300,3000A,119.3581,34.6972,连云港市,德源药业,,49,29,35,9,17,154,,83,83,7,34,8,8,0.3,0.3
2024-10-04T1300,3007A,119.178,34.844,连云港市,新城一中,臭氧1小时,54,41,42,17,27,163,,103,103,14,37,7,10,0.5,0.7
2024-10-04T1300,3008A,119.3608,34.7519,连云港市,胡沟管理处,颗粒物(PM10),52,53,30,27,16,147,,84,84,16,18,9,4,0.8,0.4
2024-10-04T1300,3009A,119.1478,34.5911,连云港市,矿山设计院,,48,34,42,19,24,151,,87,87,16,28,10,9,0.6,0.7
2024-10-04T1300,3434A,119.2413,34.6539,连云港市,工贸学校,,50,27,25,18,17,159,,105,105,12,15,10,9,0.5,0.8
2024-10-04T1300,3664A,119.4172,34.7341,连云港市,连云街道,颗粒物(PM10),52,54,26,22,12,151,,107,107,27,15,18,7,1.2,0.4
2024-10-04T1300,2571A,102.3431,27.8099,凉山彝族自治州,青龙寺,,19,19,18,10,10,46,,21,21,7,10,6,5,0.7,0.7
2024-10-04T1300,2572A,102.2721,27.8415,凉山彝族自治州,邛海宾馆,,29,26,21,20,16,45,,19,19,10,16,8,9,0.7,0.7
2024-10-04T1300,2573A,102.2625,27.898,凉山彝族自治州,西昌市政府,,40,37,26,28,22,40,,16,16,17,19,8,10,0.8,0.8
2024-10-04T1300,2574A,102.2685,27.8851,凉山彝族自治州,凉山州政府,,41,41,28,25,18,43,,18,18,18,20,8,9,0.8,0.9
2024-10-04T1300,2575A,102.237,27.8914,凉山彝族自治州,长安,,46,46,27,23,15,34,,13,13,19,22,11,11,0.9,0.8
2024-10-04T1300,2212A,123.2,41.1953,辽阳市,宏伟区,,37,27,27,12,12,117,,92,92,10,16,9,6,0.5,0.5
2024-10-04T1300,2213A,123.1683,41.2495,辽阳市,新华园,,35,34,34,18,18,111,,79,79,11,26,12,15,0.9,0.9
2024-10-04T1300,2214A,123.2354,41.2639,辽阳市,滨河路,,35,31,29,9,14,110,,82,82,8,18,14,12,0.7,0.8
2024-10-04T1300,2215A,123.149,41.2991,辽阳市,铁西工业园,,40,40,42,12,18,109,,78,78,11,20,14,14,0.9,0.9
2024-10-04T1300,2227A,125.1358,42.8845,辽源市,环保局,,40,25,31,10,16,127,,71,71,2,19,10,9,0.6,0.7
2024-10-04T1300,3239A,125.0764,42.9078,辽源市,银鹰制药,,38,21,29,10,17,121,,63,63,8,27,6,6,0.6,0.7
2024-10-04T1300,1625A,115.9848,36.4372,聊城市,区政府,颗粒物(PM10),54,58,63,25,32,152,,97,97,16,34,11,13,0.4,0.5
2024-10-04T1300,2878A,116.0072,36.4343,聊城市,聊大东校,颗粒物(PM10),58,66,66,30,37,157,,97,97,17,36,11,12,0.6,0.7
2024-10-04T1300,3200A,115.9819,36.4978,聊城市,监控中心,颗粒物(PM10),57,63,61,19,33,151,,100,100,16,31,10,12,0.5,0.6
2024-10-04T1300,3513A,116.0445,36.4361,聊城市,九州社区,颗粒物(PM10),56,62,61,18,29,151,,91,91,12,34,8,9,0.4,0.4
2024-10-04T1300,4018A,116.0567,36.4608,聊城市,星美广场,颗粒物(PM10),55,60,66,20,30,155,,90,90,10,27,10,9,0.4,0.5
2024-10-04T1300,2632A,94.3681,29.6376,林芝市,林芝监测站,,13,6,3,3,4,40,,26,26,2,4,9,10,0.2,0.2
2024-10-04T1300,2633A,94.3616,29.6616,林芝市,林芝人民医院,,13,6,6,3,4,40,,27,27,4,7,5,5,0,0
2024-10-04T1300,2603A,100.0781,23.8982,临沧市,市环保局,,23,,12,16,11,45,,33,33,7,8,4,4,0.4,0.5
2024-10-04T1300,2604A,100.0894,23.8822,临沧市,市气象局,,14,13,12,3,10,43,,37,37,9,7,3,3,0.5,0.5
2024-10-04T1300,1733A,111.5531,36.0783,临汾市,临钢医院,颗粒物(PM10),57,64,73,29,24,132,,59,59,16,34,7,5,0.5,0.6
2024-10-04T1300,1734A,111.5028,36.0714,临汾市,技工学校,颗粒物(PM10),53,55,64,26,33,138,,80,80,19,32,7,6,0.5,0.6
2024-10-04T1300,1736A,111.5018,36.0855,临汾市,市委,,47,44,61,18,25,149,,87,87,9,22,7,7,0.5,0.6
2024-10-04T1300,3018A,111.505,36.1014,临汾市,唐尧大酒店,,44,43,59,22,28,140,,81,81,12,23,6,6,0.5,0.6
2024-10-04T1300,3668A,111.5036,36.0414,临汾市,城南,,49,49,80,21,33,150,,70,70,11,36,8,7,0.5,0.6
2024-10-04T1300,2667A,103.2069,35.5993,临夏回族自治州,环保局,,32,32,35,11,18,90,,46,46,6,11,13,12,0.4,0.4
2024-10-04T1300,2668A,103.2417,35.6057,临夏回族自治州,建设大厦,,37,37,29,16,17,89,,43,43,8,12,4,3,0.4,0.4
2024-10-04T1300,1618A,118.3429,35.0532,临沂市,沂河小区,细颗粒物(PM2.5),52,51,64,36,42,158,,74,74,14,36,12,16,0.4,0.6
2024-10-04T1300,1619A,118.295,35.0583,临沂市,鲁南制药厂,臭氧1小时,57,44,61,31,36,165,,81,81,11,38,10,16,0.3,0.5
2024-10-04T1300,1620A,118.2794,34.9976,临沂市,新光毛纺厂,,48,31,66,26,42,153,,79,79,16,42,6,15,0.5,0.7
2024-10-04T1300,1621A,118.3956,35.0888,临沂市,河东保险公司,臭氧1小时,57,44,76,16,43,165,,78,78,18,48,8,10,0.7,0.9
2024-10-04T1300,3370A,118.3564,35.0215,临沂市,十里堡居委,,49,31,55,22,36,156,,77,77,14,37,8,17,0.5,0.7
2024-10-04T1300,3496A,118.3604,35.1084,临沂市,南坊新区,臭氧1小时,57,39,65,34,40,165,,73,73,16,35,10,11,0.5,0.6
2024-10-04T1300,3860A,118.3920,35.0300,临沂市,皇山花园小区,,49,39,69,27,44,155,,74,74,14,39,11,18,0.5,0.6
2024-10-04T1300,1870A,109.4856,24.3895,柳州市,柳东小学,,47,47,54,24,28,128,,102,102,6,8,10,10,0.6,0.5
2024-10-04T1300,1871A,109.4157,24.3277,柳州市,环保监测站,颗粒物(PM10),61,71,58,32,28,132,,104,104,8,10,11,12,0.6,0.6
2024-10-04T1300,1872A,109.389,24.341,柳州市,河西水厂,颗粒物(PM10),58,65,73,28,30,133,,90,90,9,21,9,20,0.5,1.4
2024-10-04T1300,1874A,109.4006,24.3631,柳州市,市九中,颗粒物(PM10),57,64,65,35,29,134,,100,100,7,12,7,10,0.7,0.9
2024-10-04T1300,1875A,109.4958,24.3134,柳州市,古亭山,颗粒物(PM10),60,69,53,28,24,134,,106,106,11,14,10,10,0.7,0.7
2024-10-04T1300,3402A,109.5422,24.3996,柳州市,市二中,颗粒物(PM10),54,58,52,26,26,134,,96,96,10,12,12,11,0.5,0.5
2024-10-04T1300,2307A,116.5079,31.737,六安市,监测大楼,,39,24,35,8,19,124,,68,68,7,20,5,5,0.4,0.4
2024-10-04T1300,2309A,116.4996,31.7905,六安市,朝阳厂,,38,14,32,11,20,121,,65,65,8,19,1,2,0.3,0.4
2024-10-04T1300,2310A,116.5567,31.7886,六安市,开发区,,41,15,40,15,21,129,,70,70,8,20,2,2,0.3,0.4
2024-10-04T1300,2577A,104.83,26.5917,六盘水市,黄土坡,,40,38,30,28,19,78,,92,79,17,10,11,8,0.4,0.3
2024-10-04T1300,2578A,104.89,26.5939,六盘水市,水钢,,35,35,35,18,16,91,,97,87,9,8,7,8,0.2,0.2
2024-10-04T1300,2579A,104.8475,26.5894,六盘水市,民中,,35,35,29,14,16,87,,94,82,14,12,10,9,0.4,0.4
2024-10-04T1300,2580A,104.9544,26.5506,六盘水市,双水,,34,34,32,8,14,93,,96,88,5,6,8,9,0.4,0.4
2024-10-04T1300,2336A,117.0217,25.1033,龙岩市,龙岩市监测站,,26,16,22,14,17,82,,76,76,8,12,7,11,0.4,0.4
2024-10-04T1300,2337A,117.0258,25.0661,龙岩市,闽西职业技术学院,,26,12,21,9,15,83,,77,77,4,7,4,8,0.5,0.5
2024-10-04T1300,2338A,117.0196,25.0306,龙岩市,龙岩学院,,26,15,20,10,12,81,,79,79,7,9,1,4,0.4,0.4
2024-10-04T1300,2885A,104.9339,33.3826,陇南市,滨江中学,,,,37,,16,83,,84,79,6,5,8,7,0.4,0.6
2024-10-04T1300,3247A,104.955,33.371,陇南市,市总工会,,28,22,25,3,5,87,,88,83,4,5,3,2,0.3,0.3
2024-10-04T1300,2487A,111.9589,27.8901,娄底市,电视发射台,,41,41,62,10,30,122,,99,99,6,7,7,8,0.8,0.8
2024-10-04T1300,2488A,111.9975,27.725,娄底市,市监测站,颗粒物(PM10),54,57,71,34,43,139,,96,96,6,18,8,13,0.5,0.7
2024-10-04T1300,2489A,112.0194,27.7314,娄底市,市委党校,,49,39,71,34,40,126,,100,100,8,14,6,8,0.4,0.5
2024-10-04T1300,2490A,111.9561,27.7569,娄底市,涟钢,,34,28,68,18,40,107,,81,81,10,13,13,8,0.3,0.4
2024-10-04T1300,2491A,111.9892,27.7044,娄底市,市政府,,46,46,67,22,41,130,,86,86,7,12,6,7,0.3,0.6
2024-10-04T1300,1893A,105.4324,28.9634,泸州市,九狮山,,27,27,29,16,17,39,,22,20,21,18,5,5,0.8,0.8
2024-10-04T1300,1894A,105.4427,28.9063,泸州市,小市上码头,,34,34,30,20,15,60,,44,35,16,15,5,4,0.5,0.5
2024-10-04T1300,1895A,105.4241,28.8573,泸州市,兰田宪桥,,32,,23,22,17,46,,41,33,16,12,4,3,0.5,0.4
2024-10-04T1300,1896A,105.4379,28.8833,泸州市,市环监站,,35,35,30,23,19,53,,41,31,15,17,4,3,0.5,0.5
2024-10-04T1300,3490A,105.3617,28.7703,泸州市,纳溪区环保局,,35,30,29,24,21,42,,32,32,14,16,8,6,0.4,0.4
2024-10-04T1300,2183A,111.1406,37.5211,吕梁市,环保局,,38,38,64,22,20,99,,45,45,23,33,9,8,0.8,0.5
2024-10-04T1300,2185A,111.1297,37.5136,吕梁市,自来水公司,,47,47,68,12,18,103,,46,46,23,30,7,6,0.9,0.4
2024-10-04T1300,2867A,111.1283,37.51,吕梁市,马茂庄小学,颗粒物(PM10),56,61,71,13,18,95,,47,47,28,35,7,8,0.7,0.4
2024-10-04T1300,1812A,112.3931,34.6516,洛阳市,市委党校,细颗粒物(PM2.5),84,85,81,62,53,152,,62,62,17,37,12,10,0.5,0.6
2024-10-04T1300,1814A,112.4657,34.6871,洛阳市,豫西宾馆,颗粒物(PM10),65,80,86,40,45,137,,51,51,12,33,15,13,0.6,0.6
2024-10-04T1300,1815A,112.494,34.6886,洛阳市,河南林校,"颗粒物(PM10),细颗粒物(PM2.5)",54,57,68,38,49,148,,64,64,13,36,9,8,0.6,0.7
2024-10-04T1300,1816A,112.3844,34.623,洛阳市,开发区管委会,细颗粒物(PM2.5),83,94,81,61,56,159,,78,78,20,20,8,6,0.4,0.4
2024-10-04T1300,1817A,112.4267,34.6258,洛阳市,市委新办公区,细颗粒物(PM2.5),78,94,83,57,55,149,,75,75,19,23,8,5,0.4,0.3
2024-10-04T1300,3340A,112.6005,34.6326,洛阳市,伊滨,颗粒物(PM10),60,70,75,26,49,142,,64,64,15,28,12,11,0.3,0.4
2024-10-04T1300,3341A,112.4951,34.6332,洛阳市,中移产业园,细颗粒物(PM2.5),65,64,70,47,49,160,,72,72,17,31,9,6,0.4,0.5
2024-10-04T1300,3593A,112.5736,34.8993,洛阳市,吉利监测站,颗粒物(PM10),54,58,65,31,35,133,,60,60,14,41,12,10,0.2,0.4
2024-10-04T1300,3635A,112.3677,34.662,洛阳市,河科大西苑校区,细颗粒物(PM2.5),78,81,85,57,56,160,,66,66,18,39,9,9,0.5,0.6
2024-10-04T1300,3636A,112.4388,34.6781,洛阳市,英才小学,颗粒物(PM10),64,78,92,36,44,152,,64,64,18,40,8,7,0.3,0.5
2024-10-04T1300,2399A,114.051,33.5699,漯河市,三五一五工厂,颗粒物(PM10),64,78,108,26,67,141,,84,84,8,25,6,9,0.4,0.5
2024-10-04T1300,2400A,114.0055,33.5698,漯河市,漯河大学,颗粒物(PM10),66,81,93,22,54,146,,91,91,9,26,5,7,0.5,0.5
2024-10-04T1300,2401A,114.0138,33.5828,漯河市,市水利局,颗粒物(PM10),65,80,89,19,50,144,,94,94,6,18,6,8,0.6,0.7
2024-10-04T1300,2402A,114.0261,33.5698,漯河市,市广电局,颗粒物(PM10),64,78,95,29,62,145,,93,93,9,23,8,13,0.4,0.6
2024-10-04T1300,3478A,113.9749,33.5664,漯河市,市图书馆,,48,47,78,6,43,152,,89,89,8,24,4,5,0.4,0.4
2024-10-04T1300,3479A,114.0967,33.5906,漯河市,召陵区卫健委,颗粒物(PM10),54,58,110,17,61,146,,88,88,7,25,8,12,0.4,0.6
2024-10-04T1300,1798A,118.5092,31.6837,马鞍山市,湖东路四小,,38,26,27,3,12,120,,93,93,7,16,6,6,0.5,0.6
2024-10-04T1300,1799A,118.5024,31.6449,马鞍山市,开发区,,37,15,24,6,13,116,,90,90,14,23,7,6,0.7,0.7
2024-10-04T1300,1800A,118.5228,31.7231,马鞍山市,慈湖,,39,,17,11,15,122,,103,103,7,14,7,8,0.4,0.9
2024-10-04T1300,1802A,118.6245,31.7241,马鞍山市,濮塘,,37,11,22,6,13,116,,86,86,2,3,9,9,0.8,0.9
2024-10-04T1300,3633A,118.4918,31.6809,马鞍山市,雨山,,37,23,26,6,13,118,,94,94,9,17,6,6,0.5,0.6
2024-10-04T1300,1686A,111.0286,21.4688,茂名市,电白南海,颗粒物(PM10),51,51,58,19,21,144,,104,104,8,15,12,16,0.6,0.6
2024-10-04T1300,1687A,110.9294,21.6533,茂名市,茂石化七小,,42,36,48,17,26,134,,96,96,8,14,10,14,0.6,0.6
2024-10-04T1300,1688A,110.9107,21.6687,茂名市,健康路,,41,24,42,12,23,130,,92,92,4,11,14,24,0.5,0.6
2024-10-04T1300,1689A,110.8592,21.6828,茂名市,高岭,,44,41,61,17,29,140,,87,87,8,18,11,20,0.7,0.7
2024-10-04T1300,3450A,111.01,21.5165,茂名市,电白水东,,42,29,45,19,24,132,,102,102,8,11,8,13,0.5,0.6
2024-10-04T1300,2539A,104.0308,30.0478,眉山市,黑龙滩水库,,32,32,22,19,15,52,,49,47,7,4,4,4,0.5,0.4
2024-10-04T1300,2540A,103.8416,30.0874,眉山市,气象局,,25,,19,17,12,60,,47,47,13,15,6,5,0.4,0.3
2024-10-04T1300,3137A,103.8578,30.0744,眉山市,市委党校,,20,17,14,9,7,64,,56,56,15,14,10,8,0.4,0.3
2024-10-04T1300,3148A,103.8291,30.0564,眉山市,区人社局,,22,22,20,12,6,62,,50,49,17,19,6,6,0.5,0.4
2024-10-04T1300,1690A,116.1231,24.3284,梅州市,梅江月梅,,30,28,29,20,17,95,,89,88,13,16,9,8,0.6,0.5
2024-10-04T1300,1691A,116.0797,24.2719,梅州市,梅县新城,,36,36,27,20,14,100,,94,93,13,13,6,6,0.5,0.5
2024-10-04T1300,1692A,116.1248,24.2654,梅州市,环境监控中心,,31,28,27,18,14,98,,82,81,16,18,6,6,0.5,0.5
2024-10-04T1300,3315A,116.1233,24.2991,梅州市,梅龙,,31,31,28,18,16,95,,90,88,13,13,11,10,0.6,0.5
2024-10-04T1300,1878A,104.7778,31.4741,绵阳市,富乐山,,28,16,15,7,11,87,,67,61,9,12,2,2,0.4,0.4
2024-10-04T1300,1879A,104.7563,31.4535,绵阳市,市人大,,23,23,18,10,11,72,,71,58,16,15,9,8,0.4,0.4
2024-10-04T1300,1880A,104.6697,31.4668,绵阳市,高新区自来水公司,,29,29,22,12,9,88,,73,64,11,13,4,3,0.4,0.3
2024-10-04T1300,1881A,104.7287,31.5075,绵阳市,三水厂,,25,25,22,12,10,73,,65,53,13,14,5,5,0.3,0.3
2024-10-04T1300,3491A,104.69,31.5322,绵阳市,西科大附属小学,,28,22,14,3,10,87,,68,62,9,13,4,4,0.4,0.4
2024-10-04T1300,3492A,104.5648,31.5343,绵阳市,安州区旅游局,,28,,14,17,12,87,,76,64,7,10,5,6,0.4,0.3
2024-10-04T1300,1784A,129.61,44.561,牡丹江市,环保大楼,,28,20,32,11,18,87,,45,45,7,20,7,7,0.3,0.4
2024-10-04T1300,1785A,129.6115,44.5782,牡丹江市,文化广场,,25,18,40,13,25,79,,39,39,12,27,8,9,0.4,0.6
2024-10-04T1300,1786A,129.5904,44.5963,牡丹江市,第一医院,,26,23,39,18,26,83,,40,40,8,23,8,7,0.3,0.4
2024-10-04T1300,1787A,129.6364,44.6075,牡丹江市,机车工厂,,27,17,37,8,20,84,,38,38,9,19,7,19,0.2,0.4
2024-10-04T1300,1788A,129.6386,44.5462,牡丹江市,第一中学,,30,12,25,11,11,95,,50,50,6,15,7,6,0.2,0.2
2024-10-04T1300,2531A,105.0703,29.61,内江市,市监测站,,22,22,24,15,15,64,,41,41,11,13,7,6,0.3,0.3
2024-10-04T1300,2532A,105.0717,29.5947,内江市,东兴区政府,,23,10,14,9,9,72,,49,49,13,19,5,4,0.4,0.4
2024-10-04T1300,2533A,105.0653,29.5817,内江市,内江二中,,26,19,19,18,15,67,,48,48,16,20,5,4,0.4,0.5
2024-10-04T1300,2534A,105.0406,29.5822,内江市,内江日报社,,25,,24,17,15,64,,41,41,24,24,2,4,0.4,0.4
2024-10-04T1300,2628A,92.0657,31.4846,那曲市,那曲监测站,,33,33,28,10,11,83,,60,56,5,6,7,5,0.2,0.3
2024-10-04T1300,3128A,92.0506,31.4797,那曲市,那曲会议中心,,29,25,32,6,10,92,,57,57,3,11,3,3,0.4,0.4
2024-10-04T1300,1290A,115.8931,28.6843,南昌市,省外办,,37,23,37,19,23,116,,97,97,13,19,10,10,0.4,0.5
2024-10-04T1300,1291A,115.8886,28.7003,南昌市,省林业公司,,39,17,38,12,18,122,,99,99,7,14,6,8,0.5,0.6
2024-10-04T1300,1292A,115.8126,28.7442,南昌市,林科所,,41,14,31,3,13,130,,111,111,10,14,8,9,0.4,0.5
2024-10-04T1300,1294A,115.8518,28.687,南昌市,建工学校,,38,,36,14,19,120,,102,102,4,12,8,9,0.4,0.5
2024-10-04T1300,1295A,115.8921,28.6424,南昌市,象湖,,41,15,39,11,16,131,,109,109,12,18,8,9,0.3,0.4
2024-10-04T1300,1296A,115.7423,28.7996,南昌市,武术学校,,39,,20,25,24,124,,89,89,5,8,3,2,0.3,0.4
2024-10-04T1300,1298A,115.9314,28.6842,南昌市,省站,,36,,38,13,18,114,,94,94,16,18,9,11,0.5,0.5
2024-10-04T1300,3046A,115.9084,28.6062,南昌市,机电学校,,38,32,42,17,17,120,,105,105,11,17,7,11,0.5,0.6
2024-10-04T1300,3690A,115.9721,28.7031,南昌市,外国语学校,,36,21,37,14,20,115,,95,95,8,13,6,7,0.3,0.4
2024-10-04T1300,1905A,106.056,30.8064,南充市,西山风景区,,46,32,24,32,24,46,,44,28,15,10,3,3,0.9,0.7
2024-10-04T1300,1906A,106.0789,30.8023,南充市,南充市委,,48,48,34,33,24,58,,31,27,20,20,4,4,0.4,0.4
2024-10-04T1300,1907A,106.1031,30.8217,南充市,南充炼油厂,颗粒物(PM10),54,57,42,33,27,58,,41,31,18,16,4,4,0.4,0.3
2024-10-04T1300,1908A,106.1064,30.7856,南充市,高坪区监测站,,36,36,34,19,24,76,,46,38,18,20,7,7,0.4,0.4
2024-10-04T1300,1909A,106.0642,30.7636,南充市,嘉陵区环保局,颗粒物(PM10),54,57,39,24,21,64,,35,28,18,21,4,4,0.4,0.4
2024-10-04T1300,1910A,106.1087,30.8388,南充市,市环境监测站,,,56,40,37,29,47,,36,31,,18,4,4,0.2,0.2
2024-10-04T1300,1151A,118.8086,32.1065,南京市,迈皋桥,,36,16,20,3,11,113,,68,68,9,26,4,4,0.2,0.3
2024-10-04T1300,1152A,118.7538,32.0551,南京市,草场门,,36,9,20,3,11,114,,84,84,11,24,4,6,0.1,0.2
2024-10-04T1300,1153A,118.7794,32.0745,南京市,山西路,,37,17,28,7,14,118,,82,82,3,15,4,4,0.3,0.4
2024-10-04T1300,1154A,118.7752,32.0023,南京市,中华门,,36,9,22,3,10,114,,86,86,2,18,5,6,0.3,0.4
2024-10-04T1300,1155A,118.8109,32.0309,南京市,瑞金路,,,9,21,9,11,114,,84,84,,11,3,4,0.3,0.5
2024-10-04T1300,1156A,118.7997,32.0754,南京市,玄武湖,,34,14,27,3,10,106,,74,74,12,35,5,6,0.3,0.3
2024-10-04T1300,1157A,118.6414,32.0931,南京市,浦口,,33,17,25,9,14,104,,78,78,9,15,5,8,0.3,0.5
2024-10-04T1300,1158A,118.7356,31.9996,南京市,奥体中心,,38,17,23,7,13,121,,93,93,9,20,5,6,0.2,0.3
2024-10-04T1300,1159A,118.9125,32.1028,南京市,仙林大学城,,39,14,25,3,12,122,,80,80,8,22,5,5,0.3,0.4
2024-10-04T1300,3422A,118.8436,31.9198,南京市,江宁彩虹桥,,37,23,25,3,9,116,,80,80,3,16,5,4,0.3,0.4
2024-10-04T1300,3423A,119.0138,31.6494,南京市,溧水永阳,,,14,23,3,15,114,,79,79,8,15,4,4,,0.6
2024-10-04T1300,3424A,118.879,31.3302,南京市,高淳老职中,,40,12,23,12,15,127,,96,96,9,14,6,5,0.5,0.5
2024-10-04T1300,3427A,118.8554,32.3578,南京市,六合雄州,,37,10,29,3,18,116,,80,80,11,19,7,7,0.2,0.3
2024-10-04T1300,1401A,108.3103,22.7881,南宁市,二十一中,颗粒物(PM10),55,60,61,26,37,159,,64,64,12,36,8,16,0.8,0.8
2024-10-04T1300,1402A,108.3141,22.8528,南宁市,北湖,臭氧1小时,53,50,68,29,32,162,,84,84,17,41,12,22,0.8,0.9
2024-10-04T1300,1403A,108.3206,22.8225,南宁市,市监测站,颗粒物(PM10),54,57,66,24,29,161,,87,87,16,36,10,20,0.6,0.7
2024-10-04T1300,1404A,108.3829,22.8037,南宁市,大自然花园,颗粒物(PM10),52,53,49,22,29,144,,101,101,8,18,8,10,0.6,0.6
2024-10-04T1300,1405A,108.4394,22.7904,南宁市,仙葫,,44,44,55,25,34,135,,101,101,8,24,9,16,0.7,0.7
2024-10-04T1300,1406A,108.2397,22.8467,南宁市,区农职院,颗粒物(PM10),59,68,52,29,25,161,,85,85,14,16,10,10,0.6,0.6
2024-10-04T1300,1407A,108.3275,22.735,南宁市,英华嘉园,颗粒物(PM10),55,59,56,21,29,147,,82,82,12,27,9,10,0.5,0.6
2024-10-04T1300,1408A,108.2257,22.7757,南宁市,沙井镇街道办,颗粒物(PM10),70,89,62,38,28,145,,62,62,27,34,15,8,0.7,0.7
2024-10-04T1300,3401A,108.4834,22.7618,南宁市,红星社区,,47,38,50,23,27,149,,120,120,8,17,6,8,0.5,0.5
2024-10-04T1300,2332A,118.1681,26.6369,南平市,南平市监测站,,30,25,25,16,16,93,,87,85,9,9,5,5,0.4,0.4
2024-10-04T1300,2333A,118.1825,26.6489,南平市,南平铝业有限公司,,27,22,22,14,12,86,,81,80,8,10,5,5,0.4,0.4
2024-10-04T1300,2334A,118.1756,26.6272,南平市,南平七中,,34,34,23,13,14,95,,86,85,11,12,4,5,0.5,0.5
2024-10-04T1300,1168A,120.9098,31.9663,南通市,狼山街道,,34,10,15,3,8,107,,86,86,4,9,6,7,0.2,0.2
2024-10-04T1300,1169A,120.86,32.0005,南通市,虹桥,,33,14,19,8,9,104,,82,82,5,10,6,7,0.4,0.4
2024-10-04T1300,1170A,120.87,32.02,南通市,城中,,34,17,19,6,7,106,,85,85,2,7,5,7,0.4,0.5
2024-10-04T1300,1171A,120.94,31.93,南通市,星湖花园,,34,13,14,7,7,106,,83,83,7,14,5,6,0.4,0.4
2024-10-04T1300,1172A,120.81,32.0417,南通市,紫琅学院,,32,16,16,6,10,101,,79,79,5,11,7,8,0.2,0.4
2024-10-04T1300,3291A,121.067,32.062,南通市,通州监测站,,33,14,19,3,8,105,,76,76,7,10,2,2,0.4,0.4
2024-10-04T1300,3432A,120.9348,31.9883,南通市,环境教育馆,,35,19,17,3,5,110,,88,88,3,9,3,4,0.4,0.4
2024-10-04T1300,2404A,112.5224,33.0122,南阳市,瓦房庄,,47,39,65,23,45,150,,,,13,20,4,5,0.4,0.5
2024-10-04T1300,2405A,112.5003,32.9735,南阳市,汉画馆,,45,35,60,25,41,143,,93,93,14,21,6,7,0.4,0.5
2024-10-04T1300,2406A,112.5573,33.027,南阳市,气象站,,47,36,71,17,40,149,,100,100,14,21,7,12,0.4,0.5
2024-10-04T1300,2407A,112.5481,32.9689,南阳市,理工学院,,46,33,69,21,46,145,,104,104,14,21,7,9,0.4,0.5
2024-10-04T1300,4008A,112.5234,32.9922,南阳市,卧龙区政府,,48,40,70,23,43,151,,104,104,12,24,4,5,0.4,0.5
2024-10-04T1300,1234A,121.8358,29.911,宁波市,区环保大楼,,35,27,21,15,6,111,,96,96,7,9,6,6,0.5,0.5
2024-10-04T1300,1235A,121.56,29.82,宁波市,万里学院,,39,23,20,6,8,123,,91,91,8,15,6,6,0.3,0.4
2024-10-04T1300,1236A,121.713,29.9572,宁波市,龙赛医院,,36,26,16,3,4,114,,100,100,9,10,7,8,0.5,0.5
2024-10-04T1300,1239A,121.633,29.7733,宁波市,钱湖水厂,,38,16,22,6,9,120,,78,78,7,15,8,8,0.4,0.4
2024-10-04T1300,1240A,121.5856,29.8635,宁波市,太古小学,,38,25,20,10,6,119,,92,92,13,17,8,8,0.5,0.5
2024-10-04T1300,1241A,121.524,29.8674,宁波市,市环境监测中心,,37,17,19,6,5,118,,88,88,10,15,6,5,0.4,0.4
2024-10-04T1300,2871A,121.6147,29.9017,宁波市,万里国际学校,,39,14,14,11,7,124,,93,93,13,19,8,8,0.5,0.5
2024-10-04T1300,3710A,121.5594,29.8975,宁波市,白沙活动中心,,37,14,15,3,6,118,,95,95,12,14,9,9,0.3,0.3
2024-10-04T1300,2341A,119.5388,26.6612,宁德市,宁德市监测站,,20,,15,13,15,63,,68,66,14,11,6,6,0.6,0.5
2024-10-04T1300,3209A,119.5231,26.6562,宁德市,宁德一中,,22,,14,11,12,69,,72,72,6,4,6,6,0.4,0.3
2024-10-04T1300,2618A,98.8601,25.8567,怒江傈僳族自治州,州监测站,,16,16,19,9,12,40,,26,26,5,8,5,5,0.4,0.4
2024-10-04T1300,2619A,98.8546,25.8417,怒江傈僳族自治州,泸水一中,,16,16,16,3,10,36,,20,20,8,13,6,6,0.4,0.4
2024-10-04T1300,1888A,101.6891,26.571,攀枝花市,弄弄坪,,44,44,61,28,33,66,,25,25,19,26,25,17,0.6,0.8
2024-10-04T1300,1889A,101.5769,26.5928,攀枝花市,河门口,细颗粒物(PM2.5),57,59,60,40,39,71,,26,26,29,25,41,19,2.6,1.6
2024-10-04T1300,1890A,101.7169,26.585,攀枝花市,炳草岗,,45,45,46,18,31,68,,27,27,14,27,21,15,0.6,0.7
2024-10-04T1300,1891A,101.7369,26.5008,攀枝花市,仁和,细颗粒物(PM2.5),52,49,54,36,37,72,,29,29,17,22,20,11,0.8,1.2
2024-10-04T1300,2835A,101.7227,26.567,攀枝花市,四十中小,,40,40,40,28,25,69,,31,31,10,16,11,10,0.8,0.9
2024-10-04T1300,1604A,122.0303,41.1489,盘锦市,开发区,颗粒物(PM10),51,51,29,16,20,153,,106,106,12,17,10,6,0.4,0.5
2024-10-04T1300,1605A,122.0485,41.0883,盘锦市,兴隆台,,49,40,25,16,19,154,,103,103,15,27,8,7,0.4,0.5
2024-10-04T1300,1606A,121.8297,41.1028,盘锦市,新生街道,,50,44,20,18,17,157,,106,106,14,16,11,9,0.4,0.6
2024-10-04T1300,1832A,113.3257,33.742,平顶山市,新华旅馆,细颗粒物(PM2.5),53,53,106,37,45,143,,64,64,8,38,8,8,0.3,0.4
2024-10-04T1300,1833A,113.2919,33.737,平顶山市,规划设计院,颗粒物(PM10),53,55,96,30,49,145,,72,72,10,37,9,10,0.5,0.6
2024-10-04T1300,1834A,113.182,33.774,平顶山市,平顶山工学院,,,52,84,31,39,138,,64,64,13,32,7,8,,0.5
2024-10-04T1300,3204A,113.3025,33.73,平顶山市,规划局,细颗粒物(PM2.5),54,53,110,38,57,137,,67,67,12,36,6,8,0.4,0.4
2024-10-04T1300,3594A,112.8867,33.9116,平顶山市,石龙区,颗粒物(PM10),55,60,135,21,46,141,,62,62,12,53,10,16,0.5,0.7
2024-10-04T1300,2656A,106.6692,35.5461,平凉市,聚贤嘉苑,,,44,47,26,28,89,,86,79,14,19,,9,0.3,0.4
2024-10-04T1300,2657A,106.7021,35.5307,平凉市,博物馆,,43,43,54,15,26,96,,94,86,22,25,11,13,0.3,0.4
2024-10-04T1300,2347A,114.0997,27.5002,萍乡市,武功山,,32,8,11,3,5,102,,75,75,5,6,5,6,0.3,0.3
2024-10-04T1300,2348A,113.8385,27.6434,萍乡市,中医院,,38,32,38,10,20,120,,97,97,7,10,9,20,0.5,0.5
2024-10-04T1300,2349A,113.8493,27.6253,萍乡市,市政府车库,,37,30,34,17,23,117,,96,96,6,11,10,18,0.6,0.5
2024-10-04T1300,2350A,113.8676,27.6435,萍乡市,市环保局,,35,32,36,19,23,112,,90,90,3,6,7,18,0.5,0.5
2024-10-04T1300,2351A,113.866,27.6198,萍乡市,安源区政府,,38,36,40,9,17,121,,94,94,9,20,7,12,0.5,0.8
2024-10-04T1300,2319A,119.0141,25.4325,莆田市,荔城区仓后路,,25,8,12,3,3,80,,82,80,8,9,7,7,0.4,0.5
2024-10-04T1300,2320A,119.0015,25.4553,莆田市,莆田市监测站,,28,6,9,3,2,88,,92,88,6,6,6,7,0.4,0.4
2024-10-04T1300,2321A,119.1119,25.4561,莆田市,涵江区六中,,28,12,10,3,3,88,,90,88,8,8,8,8,0.5,0.5
2024-10-04T1300,2322A,119.1013,25.3215,莆田市,秀屿区政府,,28,17,17,3,4,89,,89,87,7,6,6,6,0.5,0.5
2024-10-04T1300,2392A,115.0312,35.7636,濮阳市,环保局,,47,47,62,27,42,146,,91,91,8,22,3,5,0.3,0.4
2024-10-04T1300,2394A,115.0574,35.7609,濮阳市,油田运输公司,,48,48,69,28,47,148,,78,78,9,26,3,7,0.3,0.4
2024-10-04T1300,2395A,115.0866,35.7754,濮阳市,油田物探公司,颗粒物(PM10),55,60,77,30,47,155,,87,87,12,30,6,11,0.1,0.3
2024-10-04T1300,3021A,115,35.7668,濮阳市,濮水河管理处,,44,40,52,20,37,139,,73,73,6,19,2,3,0.2,0.3
2024-10-04T1300,2601A,100.98,22.7633,普洱市,市环保局,,17,17,20,11,17,34,,30,30,4,5,4,4,0.4,0.4
2024-10-04T1300,2602A,100.9817,22.8322,普洱市,普洱第二中学,,20,14,23,14,11,34,,24,24,6,9,4,4,0.6,0.5
2024-10-04T1300,2262A,131.0518,45.8751,七台河市,新一中,,37,17,17,6,10,116,,65,65,8,10,11,9,1.1,1.2
2024-10-04T1300,3345A,131.0577,45.7879,七台河市,中波台,,26,19,22,8,9,83,,45,45,12,21,6,6,0.4,0.5
2024-10-04T1300,3637A,131.0176,45.7761,七台河市,人民广场,,27,10,28,3,15,86,,43,43,8,18,8,9,0.3,0.4
2024-10-04T1300,3684A,130.8781,45.8222,七台河市,新建矿广场,,27,14,74,14,23,85,,40,40,10,37,7,10,0.4,0.5
2024-10-04T1300,1779A,123.9305,47.3636,齐齐哈尔市,安居小区,,40,40,32,10,8,84,,58,58,17,14,11,10,0.5,0.4
2024-10-04T1300,1780A,123.9488,47.3386,齐齐哈尔市,中心广场,,49,49,38,3,7,82,,56,56,14,13,4,3,0.3,0.2
2024-10-04T1300,1781A,123.9483,47.3227,齐齐哈尔市,农牧车辆厂,颗粒物(PM10),51,51,41,17,6,87,,62,62,8,9,8,9,0.2,0.4
2024-10-04T1300,1783A,123.945,47.2988,齐齐哈尔市,市环境监测站,,38,38,29,10,8,92,,65,65,7,8,8,9,0.2,0.2
2024-10-04T1300,3662A,123.6333,47.2075,齐齐哈尔市,富区青少年活动中心,,41,41,29,6,7,93,,60,60,7,7,6,6,0.4,0.4
2024-10-04T1300,2591A,107.9783,26.5747,黔东南苗族侗族自治州,市环境监测站,,36,34,40,18,20,114,,92,90,14,11,6,6,0.3,0.4
2024-10-04T1300,2881A,107.8908,26.5311,黔东南苗族侗族自治州,凯里学院,,41,31,41,15,17,130,,94,94,8,9,4,5,0.4,0.4
2024-10-04T1300,2593A,107.5228,26.2403,黔南布依族苗族自治州,小围寨,,40,34,34,12,15,126,,90,90,6,6,6,5,0.6,0.7
2024-10-04T1300,3538A,107.5175,26.2978,黔南布依族苗族自治州,沙坝,,,,39,,16,126,,90,90,6,7,5,5,0.4,0.4
2024-10-04T1300,2589A,104.9022,25.0925,黔西南布依族苗族自治州,场坝街,,30,15,23,3,13,94,,86,86,6,6,2,2,0.2,0.2
2024-10-04T1300,2590A,104.8811,25.0992,黔西南布依族苗族自治州,坪东大道,,29,10,22,3,12,92,,84,84,8,6,7,8,0.2,0.3
2024-10-04T1300,2502A,108.6236,21.9667,钦州市,市环保站,颗粒物(PM10),67,83,75,27,28,142,,103,103,10,17,10,14,0.6,1.1
2024-10-04T1300,2503A,108.6549,21.9481,钦州市,沙埠小学,颗粒物(PM10),68,85,82,25,32,153,,103,103,14,24,10,10,0.6,0.8
2024-10-04T1300,2504A,108.5989,21.7431,钦州市,港区一小,颗粒物(PM10),64,77,82,29,33,153,,94,94,15,30,10,10,0.6,0.7
2024-10-04T1300,3404A,108.5959,21.9633,钦州市,北职校,颗粒物(PM10),55,60,67,27,32,149,,110,110,10,18,10,11,0.7,1.2
2024-10-04T1300,1042A,119.5134,39.8207,秦皇岛市,北戴河环保局,,44,41,51,26,25,139,,83,83,14,23,4,5,0.5,0.8
2024-10-04T1300,1043A,119.7493,40.0116,秦皇岛市,第一关,颗粒物(PM10),56,62,57,33,40,153,,68,68,12,50,8,7,0.6,0.8
2024-10-04T1300,1044A,119.5897,39.9499,秦皇岛市,监测站,,49,42,53,34,35,155,,66,66,15,41,8,9,0.7,0.9
2024-10-04T1300,1046A,119.5251,39.9041,秦皇岛市,建设大厦,颗粒物(PM10),52,54,56,20,28,155,,72,72,11,27,6,7,0.6,0.9
2024-10-04T1300,3132A,119.610547,39.943889,秦皇岛市,文明里,颗粒物(PM10),57,64,62,25,30,152,,73,73,18,33,7,7,0.8,1
2024-10-04T1300,1307A,120.6659,36.2403,青岛市,仰口,,37,,20,12,15,117,,98,98,6,8,7,7,0.8,0.8
2024-10-04T1300,1310A,120.4134,36.0658,青岛市,市南区东部子站,,42,24,50,12,22,134,,81,81,23,33,9,9,0.5,0.7
2024-10-04T1300,1311A,120.3664,36.1032,青岛市,四方区子站,,45,19,50,12,28,141,,78,78,17,38,11,13,0.4,0.5
2024-10-04T1300,1312A,120.2994,36.054,青岛市,市南区西部子站,,45,22,46,7,18,142,,80,80,16,27,10,11,0.4,0.6
2024-10-04T1300,1313A,120.4581,36.0858,青岛市,崂山区子站,,46,14,29,7,13,145,,103,103,14,23,9,10,0.6,0.6
2024-10-04T1300,1314A,120.1983,35.9608,青岛市,黄岛区子站,,43,,47,15,24,137,,97,97,6,28,9,12,0.4,0.5
2024-10-04T1300,1315A,120.3999,36.3083,青岛市,城阳区子站,,49,39,54,17,27,154,,77,77,22,32,9,10,0.5,0.6
2024-10-04T1300,1966A,120.0405,35.8735,青岛市,黄岛区4号,,43,12,38,3,19,136,,112,112,8,25,6,8,0.4,0.5
2024-10-04T1300,3362A,120.5014,36.4034,青岛市,即墨2号,,41,15,42,9,23,129,,87,87,6,19,7,8,0.4,0.5
2024-10-04T1300,3642A,120.3503,36.0736,青岛市,市北区南部,,45,42,52,7,25,141,,83,83,19,36,7,10,0.5,0.7
2024-10-04T1300,3643A,120.3948,36.1805,青岛市,李沧区北部,,46,22,49,14,28,146,,79,79,15,33,10,11,0.6,0.7
2024-10-04T1300,1702A,113.0426,23.691,清远市,环保大楼,,40,26,27,14,12,128,,111,111,13,16,10,10,0.7,0.7
2024-10-04T1300,1703A,113.0208,23.7106,清远市,凤城街办,,39,32,28,16,12,124,,111,111,7,8,10,10,0.7,0.6
2024-10-04T1300,3025A,113.0477,23.6344,清远市,技师学院,,42,33,33,12,12,132,,110,110,8,11,9,10,0.6,0.6
2024-10-04T1300,3318A,112.9903,23.7403,清远市,清新太和,,37,28,27,15,12,118,,119,116,5,5,8,7,0.5,0.5
2024-10-04T1300,3455A,113.076,23.7198,清远市,清城东城,,41,27,29,10,10,130,,113,113,3,6,7,8,0.4,0.5
2024-10-04T1300,2661A,107.6325,35.7357,庆阳市,庆阳五中,,42,42,51,27,20,100,,100,90,9,12,7,7,0.4,0.4
2024-10-04T1300,2662A,107.6364,35.7067,庆阳市,市环保局,,42,42,49,21,22,98,,99,87,10,12,6,6,0.3,0.4
2024-10-04T1300,1916A,103.7897,25.5035,曲靖市,环境监测站,,26,26,37,17,20,62,,57,52,8,13,3,6,0.5,0.6
2024-10-04T1300,1917A,103.8,25.5364,曲靖市,烟厂办公区,,39,39,32,20,17,55,,56,51,9,12,4,4,0.5,0.5
2024-10-04T1300,3376A,103.7947,25.462,曲靖市,南苑二区,,29,26,35,20,22,61,,60,56,6,11,8,17,0.6,0.7
2024-10-04T1300,3377A,103.7444,25.5261,曲靖市,曲靖师范学院,,22,,31,15,22,64,,56,55,7,12,6,12,0.4,0.6
2024-10-04T1300,1264A,118.8692,28.9398,衢州市,环保大楼,,37,27,35,15,20,117,,81,81,12,17,6,7,0.6,0.5
2024-10-04T1300,1265A,118.8709,28.9666,衢州市,实验学校,,41,24,32,14,20,129,,88,88,8,15,6,6,0.3,0.4
2024-10-04T1300,1266A,118.8621,28.9808,衢州市,衢州学院,,41,21,32,13,19,130,,56,,10,22,7,8,0.6,0.6
2024-10-04T1300,1611A,118.5819,24.9117,泉州市,涂山街,,27,12,13,8,7,84,,84,78,8,9,2,2,0.3,0.6
2024-10-04T1300,1612A,118.5972,24.8978,泉州市,津头埔,,26,14,14,9,8,83,,83,76,10,11,4,4,0.3,0.3
2024-10-04T1300,1613A,118.6663,24.9424,泉州市,万安,,26,15,13,9,7,83,,87,81,8,7,2,2,0.3,0.3
2024-10-04T1300,3529A,118.6333,24.9264,泉州市,城华南路,,26,12,13,3,6,83,,86,80,2,5,3,3,0.3,0.2
2024-10-04T1300,2626A,88.8876,29.2718,日喀则市,日喀则监测站,,27,11,21,8,7,85,,60,52,4,8,5,5,0.4,0.4
2024-10-04T1300,3726A,88.8781,29.2426,日喀则市,林业技术推广中心,,25,10,17,3,3,80,,56,56,7,8,7,7,0.4,0.4
2024-10-04T1300,1659A,119.471,35.4209,日照市,监测站,,44,29,40,13,23,138,,72,72,19,43,12,12,0.6,0.8
2024-10-04T1300,1660A,119.523,35.4216,日照市,市政府广场,,50,27,39,10,19,160,,89,89,12,41,7,7,0.5,0.7
2024-10-04T1300,1661A,119.5587,35.4044,日照市,港务局,,50,29,48,17,28,159,,88,88,17,51,11,11,0.6,0.9
2024-10-04T1300,3507A,119.5328,35.4625,日照市,职业技术学院,,50,27,36,9,15,158,,88,88,11,34,10,10,0.5,0.7
2024-10-04T1300,3604A,119.3266,35.1044,日照市,岚山环保分局,,50,41,40,18,20,157,,112,112,18,22,15,14,0.9,0.8
2024-10-04T1300,1835A,111.1922,34.7752,三门峡市,市政府,细颗粒物(PM2.5),55,55,56,39,32,146,,90,90,17,26,19,17,0.5,0.5
2024-10-04T1300,1836A,111.1587,34.7942,三门峡市,开发区,"颗粒物(PM10),细颗粒物(PM2.5)",62,74,67,44,38,145,,97,97,18,21,19,17,0.5,0.4
2024-10-04T1300,1838A,111.143,34.7955,三门峡市,风景区,颗粒物(PM10),63,76,58,43,33,156,,114,114,16,19,21,17,0.7,0.7
2024-10-04T1300,3039A,111.1911,34.7829,三门峡市,三门峡市第一小学,颗粒物(PM10),58,65,58,38,35,143,,94,94,16,22,19,17,0.5,0.5
2024-10-04T1300,3598A,111.1,34.7167,三门峡市,富达温泉假日酒店,颗粒物(PM10),61,72,61,38,33,149,,104,104,20,20,16,14,0.7,0.7
2024-10-04T1300,2324A,117.6211,26.2625,三明市,三钢,,31,23,27,11,19,99,,92,92,10,13,7,8,0.5,0.5
2024-10-04T1300,2325A,117.635,26.2714,三明市,三明二中,,31,29,22,12,14,98,,90,90,10,13,4,5,0.4,0.4
2024-10-04T1300,2326A,117.6028,26.2378,三明市,三元区政府,,31,30,25,14,14,99,,93,93,12,15,3,4,0.4,0.4
2024-10-04T1300,1876A,109.5078,18.2489,三亚市,河东子站,,,36,34,16,16,139,,127,127,4,5,,5,0.3,0.4
2024-10-04T1300,1877A,109.4964,18.2681,三亚市,河西子站,,42,25,32,13,16,133,,117,117,4,7,5,4,0.5,0.5
2024-10-04T1300,3540A,109.7348,18.3443,三亚市,君悦子站,,41,34,41,15,19,129,,101,101,5,8,3,3,0.6,0.6
2024-10-04T1300,2624A,91.7608,29.2313,山南市,山南监测站,,18,10,11,10,6,56,,49,39,4,6,9,9,0.3,0.3
2024-10-04T1300,2625A,91.7706,29.2436,山南市,山南人民医院,,18,9,12,3,8,56,,54,45,5,8,9,9,0.4,0.4
2024-10-04T1300,1674A,116.6794,23.3667,汕头市,金平子站,,34,27,36,17,19,106,,89,89,11,17,6,8,0.5,0.6
2024-10-04T1300,1675A,116.7244,23.3633,汕头市,龙湖子站,,31,31,26,16,13,94,,84,84,4,6,9,9,0.7,0.8
2024-10-04T1300,1676A,116.7258,23.2775,汕头市,濠江子站,,33,33,26,13,19,91,,79,79,7,12,8,8,0.7,0.8
2024-10-04T1300,1677A,116.7519,23.4714,汕头市,澄海子站,,30,30,25,9,16,92,,86,86,10,11,8,7,0.7,0.8
2024-10-04T1300,1678A,116.6092,23.2539,汕头市,潮阳子站,,35,35,30,12,14,110,,92,92,7,10,7,8,0.5,0.6
2024-10-04T1300,3444A,116.454,23.2684,汕头市,潮南峡山,,33,19,29,9,16,105,,85,85,3,7,7,7,0.6,0.6
2024-10-04T1300,3624A,116.4069,23.2533,汕头市,潮南子站,,34,23,35,10,21,106,,88,88,14,15,6,6,0.7,0.7
2024-10-04T1300,1693A,115.3653,22.775,汕尾市,市环保局,,32,25,25,12,17,102,,96,96,8,9,10,10,0.8,0.7
2024-10-04T1300,1694A,115.3706,22.7898,汕尾市,市政府,,30,28,23,17,14,93,,88,88,8,10,9,9,0.5,0.5
2024-10-04T1300,1695A,115.3622,22.7925,汕尾市,新城中学,,36,36,25,13,15,92,,88,88,4,6,7,8,0.6,0.6
2024-10-04T1300,2645A,109.9154,33.8715,商洛市,监测站,,45,45,42,20,16,134,,72,72,11,19,5,6,0.4,0.4
2024-10-04T1300,3045A,109.9643,33.8471,商洛市,商州区中学,颗粒物(PM10),56,61,46,21,18,133,,73,73,12,23,7,7,0.3,0.3
2024-10-04T1300,2408A,115.6702,34.4285,商丘市,环境监测站,,41,32,52,13,35,131,,98,98,11,30,5,6,0.4,0.5
2024-10-04T1300,2409A,115.6458,34.4045,商丘市,粮食局,,45,31,45,18,36,144,,115,115,6,16,5,6,0.5,0.7
2024-10-04T1300,2410A,115.6293,34.3948,商丘市,睢阳区环保局,,44,39,59,12,32,138,,100,100,11,27,7,7,0.3,0.4
2024-10-04T1300,3171A,115.6071,34.4465,商丘市,梁园区档案局,,41,23,45,9,30,131,,98,98,7,22,6,7,0.5,0.6
2024-10-04T1300,1141A,121.4,31.238,上海市,普陀,,,17,18,6,8,101,,76,76,,13,5,5,0.6,0.6
2024-10-04T1300,1142A,121.478,31.2036,上海市,十五厂,,34,21,17,13,8,107,,91,91,13,17,9,9,0.3,0.3
2024-10-04T1300,1143A,121.467,31.3008,上海市,虹口,,32,18,17,9,8,102,,88,88,5,11,8,9,0.3,0.4
2024-10-04T1300,1144A,121.412,31.1654,上海市,徐汇上师大,,34,21,18,9,9,106,,80,80,14,19,6,6,0.4,0.4
2024-10-04T1300,1145A,121.536,31.2659,上海市,杨浦四漂,,,22,18,8,7,,,87,,5,11,8,9,0.4,0.4
2024-10-04T1300,1147A,121.425,31.2261,上海市,静安监测站,,33,18,19,7,8,104,,82,82,11,18,7,6,0.3,0.4
2024-10-04T1300,1148A,121.703,31.1907,上海市,浦东川沙,,34,22,20,8,6,107,,89,89,8,13,6,6,0.5,0.5
2024-10-04T1300,1149A,121.533,31.2284,上海市,浦东新区监测站,,33,17,17,8,8,103,,87,87,10,16,7,7,0.5,0.6
2024-10-04T1300,1150A,121.577,31.2071,上海市,浦东张江,,30,16,15,11,9,96,,81,81,14,20,5,5,0.5,0.4
2024-10-04T1300,3265A,121.4316,31.3322,上海市,宝山庙行,,32,17,18,3,8,100,,88,88,6,13,8,8,0.5,0.6
2024-10-04T1300,3266A,121.8791,31.4662,上海市,崇明上实东滩,,35,14,11,6,5,109,,94,94,4,4,7,8,0.6,0.6
2024-10-04T1300,3268A,121.3162,31.2838,上海市,嘉定南翔,,32,19,18,6,8,102,,73,73,7,16,8,9,0.4,0.5
2024-10-04T1300,3269A,121.3359,30.7456,上海市,金山新城,,35,15,21,7,10,109,,74,74,6,16,4,5,0.2,0.3
2024-10-04T1300,3270A,121.4996,31.0739,上海市,闵行浦江,,34,17,18,7,7,106,,86,86,6,14,6,6,0.4,0.5
2024-10-04T1300,3271A,121.2886,31.1663,上海市,青浦徐泾,,35,17,20,9,11,109,,75,75,9,21,7,7,0.3,0.4
2024-10-04T1300,3272A,121.2186,31.0378,上海市,松江图书馆,,35,20,24,6,9,111,,79,79,13,21,5,5,0.4,0.4
2024-10-04T1300,3273A,121.3902,31.2059,上海市,长宁仙霞,,34,17,17,9,8,108,,,,8,12,6,6,0.5,0.6
2024-10-04T1300,3274A,121.7965,31.0507,上海市,浦东惠南,,34,30,20,8,6,106,,89,89,9,12,9,9,0.7,0.6
2024-10-04T1300,3544A,121.4891,30.925,上海市,奉贤南桥新城,,34,20,27,7,8,107,,78,78,11,19,8,9,0.4,0.4
