timepoint,stationcode,longitude,latitude,area,positionname,primarypollutant,aqi,pm10,pm10_24h,pm2_5,pm2_5_24h,o3,o3_24h,o3_8h,o3_8h_24h,no2,no2_24h,so2,so2_24h,co,co_24h
2024-10-04T1900,2566A,102.1879,31.914,阿坝藏族羌族自治州,州农科所,,15,15,24,3,8,39,,48,48,28,14,9,8,0,0
2024-10-04T1900,2568A,102.2502,31.8896,阿坝藏族羌族自治州,马师校,,25,25,20,17,16,28,,42,42,11,9,5,5,0.3,0.3
2024-10-04T1900,3994A,102.2165,31.9024,阿坝藏族羌族自治州,马尔康中学西区,,29,29,17,20,13,29,,37,37,18,11,7,7,0.4,0.5
2024-10-04T1900,2695A,80.292,41.1694,阿克苏地区,电视台,,,34,87,11,30,120,,108,108,,20,6,5,,0.5
2024-10-04T1900,2696A,80.2613,41.1551,阿克苏地区,艺术中心,,48,48,89,15,30,124,,108,108,10,19,3,4,0.3,0.4
2024-10-04T1900,2204A,105.6467,38.8363,阿拉善盟,西城区西花园,,40,34,36,25,23,127,,128,128,14,11,12,11,0.7,0.7
2024-10-04T1900,2205A,105.6985,38.8411,阿拉善盟,蒙二幼,,41,41,37,14,16,113,,113,113,16,10,8,8,0.7,0.7
2024-10-04T1900,2206A,105.724,38.8516,阿拉善盟,环保局新楼,,34,34,34,13,15,104,,110,110,20,10,9,10,0.6,0.5
2024-10-04T1900,2708A,88.1264,47.8517,阿勒泰地区,市站,,,51,44,13,11,64,,64,64,,16,,8,0.6,0.7
2024-10-04T1900,2630A,80.1161,32.5,阿里地区,阿里监测站,,33,6,17,3,7,103,,104,104,3,21,5,10,0.3,0.4
2024-10-04T1900,3192A,80.0903,32.5028,阿里地区,阿里藏医院,,37,9,14,3,4,116,,109,109,3,11,5,7,0.2,0.3
2024-10-04T1900,2642A,109.0318,32.6537,安康市,香溪洞,颗粒物(PM10),51,51,38,17,15,130,,124,124,6,6,13,10,0.3,0.3
2024-10-04T1900,2643A,109.0281,32.6939,安康市,安康市监测站,,50,50,44,22,22,99,,118,118,20,15,11,14,0.6,0.5
2024-10-04T1900,2644A,109.0072,32.6975,安康市,汉滨区检察院,,41,41,35,20,19,110,,119,119,21,14,10,10,0.5,0.4
2024-10-04T1900,2291A,117.0809,30.5177,安庆市,环科院,细颗粒物(PM2.5),53,43,33,37,21,122,,129,129,18,18,10,10,0.5,0.5
2024-10-04T1900,2292A,117.0331,30.5119,安庆市,马山宾馆,,39,30,32,20,19,122,,131,131,21,21,11,12,0.4,0.5
2024-10-04T1900,2294A,116.9896,30.6145,安庆市,安庆大学,,41,29,30,20,18,131,,131,131,10,12,10,11,0.7,0.7
2024-10-04T1900,3173A,117.0598,30.5351,安庆市,市人大,,35,32,32,21,19,112,,125,125,18,17,10,11,0.7,0.8
2024-10-04T1900,3123A,105.9408,26.2431,安顺市,凤凰山,,38,36,38,26,23,94,,100,99,10,9,6,15,0.4,0.4
2024-10-04T1900,3124A,105.9439,26.2564,安顺市,金钟山,,42,33,37,29,24,99,,102,101,8,10,9,16,0.4,0.5
2024-10-04T1900,3125A,105.8983,26.2481,安顺市,娄家坡,,49,43,40,34,23,97,,103,102,11,9,8,15,0.6,0.6
2024-10-04T1900,1819A,114.3551,36.1017,安阳市,红庙街,,48,46,55,33,31,139,,148,148,16,19,2,3,0.5,0.5
2024-10-04T1900,1820A,114.361,36.0681,安阳市,银杏小区,颗粒物(PM10),51,52,59,30,27,135,,146,146,16,19,2,3,0.3,0.3
2024-10-04T1900,3141A,114.3922,36.0878,安阳市,信访局,颗粒物(PM10),57,63,62,29,31,131,,143,143,22,21,3,4,0.1,0.1
2024-10-04T1900,3669A,114.4705,36.0637,安阳市,左辅环卫站,颗粒物(PM10),87,124,92,28,39,72,,140,135,66,41,4,5,0.7,0.6
2024-10-04T1900,3703A,114.2917,36.0949,安阳市,安钢职工学校,颗粒物(PM10),52,53,68,29,39,133,,141,141,18,24,8,26,0.4,0.4
2024-10-04T1900,1748A,123.044,41.1196,鞍山市,深沟寺,,42,40,25,29,14,112,,126,126,24,12,9,6,1.0,0.6
2024-10-04T1900,1749A,123.011,41.0931,鞍山市,太阳城,颗粒物(PM10),51,51,24,24,13,114,,127,127,26,14,11,9,0.9,0.5
2024-10-04T1900,1750A,123.0485,41.1442,鞍山市,太平,颗粒物(PM10),52,54,31,26,14,113,,123,123,34,20,13,10,1.2,0.9
2024-10-04T1900,1751A,122.9642,41.0971,鞍山市,铁西三道街,颗粒物(PM10),58,65,63,37,23,107,,124,123,32,24,9,7,0.9,0.7
2024-10-04T1900,1752A,122.9341,41.0833,鞍山市,铁西工业园区,细颗粒物(PM2.5),60,55,42,43,22,113,,133,132,27,26,10,11,0.6,0.7
2024-10-04T1900,1753A,123.022,41.0821,鞍山市,明达新区,颗粒物(PM10),52,54,27,30,14,113,,117,117,23,13,11,7,0.9,0.6
2024-10-04T1900,2195A,107.4212,40.761,巴彦淖尔市,附二中,颗粒物(PM10),88,126,82,40,34,117,,132,132,42,31,10,14,0.7,0.6
2024-10-04T1900,2196A,107.37,40.7372,巴彦淖尔市,市环保大楼,颗粒物(PM10),67,83,67,35,27,94,,128,128,32,25,5,6,0.6,0.6
2024-10-04T1900,1956A,86.1472,41.7538,巴音郭楞蒙古自治州,孔雀公园,颗粒物(PM10),57,63,74,14,18,110,,107,107,8,18,6,7,0.2,0.3
2024-10-04T1900,1957A,86.1972,41.7166,巴音郭楞蒙古自治州,棉纺厂,,36,36,85,6,17,102,,104,104,13,18,5,6,0.3,0.3
2024-10-04T1900,1958A,86.2357,41.7173,巴音郭楞蒙古自治州,经济开发区,颗粒物(PM10),51,52,69,19,23,109,,106,106,8,10,7,7,0.2,0.2
2024-10-04T1900,2914A,106.7677,31.8794,巴中市,苏山坪,,42,42,29,26,21,79,,78,78,12,9,4,3,0.4,0.4
2024-10-04T1900,3182A,106.7656,31.8545,巴中市,丽阳花园,,41,41,29,27,21,78,,75,75,20,16,5,5,0.6,0.5
2024-10-04T1900,3183A,106.7418,31.8654,巴中市,圣泉水务公司,,43,43,24,28,18,63,,70,70,24,14,5,4,0.5,0.4
2024-10-04T1900,3616A,106.7616,31.8344,巴中市,市中心医院,,38,38,35,24,24,72,,75,75,15,17,6,5,0.5,0.5
2024-10-04T1900,2235A,122.7911,45.6077,白城市,洮北区环保局,颗粒物(PM10),54,57,31,18,11,94,,106,106,18,9,3,3,0.6,0.5
2024-10-04T1900,2236A,122.8738,45.5725,白城市,市环保局,颗粒物(PM10),53,56,30,18,12,70,,98,98,32,16,6,5,0.4,0.4
2024-10-04T1900,2231A,126.4219,41.9171,白山市,喜丰,,39,39,49,12,16,54,,85,84,31,22,11,9,0.6,0.6
2024-10-04T1900,2232A,126.4077,41.9419,白山市,环保局,颗粒物(PM10),59,67,43,25,14,12,,74,70,63,22,11,9,1.0,0.7
2024-10-04T1900,2647A,104.1724,36.5446,白银市,第三小学,,33,33,40,12,22,73,,98,98,19,19,26,76,0.5,0.9
2024-10-04T1900,2648A,104.1465,36.5482,白银市,动力公司,,26,26,31,11,18,78,,99,99,13,14,14,35,0.4,0.7
2024-10-04T1900,2512A,106.6103,23.9011,百色市,市监测站,颗粒物(PM10),55,60,41,34,18,121,,135,135,16,14,14,9,0.8,0.6
2024-10-04T1900,2513A,106.6538,23.8859,百色市,市中心血站,颗粒物(PM10),53,55,53,25,24,111,,125,125,18,25,9,10,0.7,0.6
2024-10-04T1900,3406A,106.6085,23.8798,百色市,祈福高中,颗粒物(PM10),70,89,56,42,21,116,,134,134,34,23,13,15,0.7,0.6
2024-10-04T1900,2270A,117.396,32.939,蚌埠市,工人疗养院,,35,28,43,11,20,112,,122,122,8,36,5,9,0.3,0.4
2024-10-04T1900,2271A,117.3605,32.9427,蚌埠市,百货大楼,,38,38,44,13,20,100,,114,114,17,40,5,9,0.3,0.4
2024-10-04T1900,2273A,117.4185,32.8911,蚌埠市,蚌埠学院,,39,39,32,10,20,91,,122,119,26,23,8,7,0.3,0.3
2024-10-04T1900,2274A,117.3533,32.9673,蚌埠市,淮上区政府,,44,44,40,16,22,91,,119,117,22,24,6,7,0.4,0.4
2024-10-04T1900,2275A,117.3145,32.8977,蚌埠市,高新区,,35,24,31,10,19,109,,123,123,15,21,6,7,0.3,0.3
2024-10-04T1900,3715A,117.3092,32.9314,蚌埠市,蚌埠田家炳中学,,35,30,43,10,21,112,,122,122,8,35,5,9,0.2,0.3
2024-10-04T1900,1585A,109.8756,40.6532,包头市,市环境监测站,二氧化氮,56,58,54,25,21,29,,106,97,111,51,30,18,1.2,0.8
2024-10-04T1900,1587A,109.9991,40.5842,包头市,包头八中,,,121,61,26,23,82,,81,81,,40,14,15,,1
2024-10-04T1900,1588A,109.8538,40.6821,包头市,青山宾馆,,43,43,57,25,24,55,,113,108,79,45,22,14,1.0,0.8
2024-10-04T1900,1589A,109.8642,40.6288,包头市,惠龙物流,颗粒物(PM10),57,64,53,26,19,90,,112,112,47,38,10,16,0.7,0.7
2024-10-04T1900,1590A,110.0377,40.5546,包头市,东河鸿龙湾,颗粒物(PM10),54,58,52,32,20,105,,117,117,28,34,23,19,0.6,0.7
2024-10-04T1900,3283A,109.9154,40.5685,包头市,滨河大厦,颗粒物(PM10),59,68,47,18,16,102,,114,114,42,42,14,17,0.7,0.7
2024-10-04T1900,3419A,109.9447,40.6261,包头市,包头市委党校,颗粒物(PM10),54,58,51,25,20,102,,115,115,43,39,38,24,0.9,0.7
2024-10-04T1900,3683A,109.8331,40.6576,包头市,昆区政府,颗粒物(PM10),51,52,52,28,25,86,,110,110,52,40,21,17,0.8,0.7
2024-10-04T1900,1930A,107.185,34.3063,宝鸡市,庙沟村,颗粒物(PM10),55,59,61,36,36,92,,96,96,30,20,8,8,0.7,0.7
2024-10-04T1900,1931A,107.0708,34.3017,宝鸡市,竹园沟,细颗粒物(PM2.5),72,78,54,52,38,72,,93,93,23,20,8,8,0.6,0.5
2024-10-04T1900,1932A,107.1906,34.3672,宝鸡市,三陆医院,细颗粒物(PM2.5),57,59,74,40,48,100,,107,107,39,44,8,10,0.4,0.5
2024-10-04T1900,1933A,107.1431,34.3547,宝鸡市,监测站,细颗粒物(PM2.5),68,73,67,49,42,85,,99,98,39,29,8,8,0.8,0.7
2024-10-04T1900,1934A,107.1186,34.3739,宝鸡市,技工学校,颗粒物(PM10),61,72,66,40,44,83,,104,104,44,28,8,8,0.8,0.6
2024-10-04T1900,1935A,107.3906,34.3528,宝鸡市,陈仓区环保局家属楼,细颗粒物(PM2.5),80,82,78,59,53,90,,116,115,54,44,12,11,0.7,0.6
2024-10-04T1900,1936A,107.2058,34.3497,宝鸡市,文理学院,颗粒物(PM10),57,64,67,35,42,112,,112,112,28,27,10,10,0.5,0.6
2024-10-04T1900,1937A,107.2386,34.3622,宝鸡市,三迪小学,"颗粒物(PM10),细颗粒物(PM2.5)",59,67,72,42,48,97,,114,114,42,42,10,10,0.7,0.7
2024-10-04T1900,1051A,115.493,38.8632,保定市,游泳馆,颗粒物(PM10),66,81,72,32,45,141,,152,152,20,21,4,5,0.4,0.5
2024-10-04T1900,1052A,115.5213,38.8959,保定市,华电二区,"颗粒物(PM10),细颗粒物(PM2.5)",67,84,70,48,48,129,,144,144,27,27,4,5,0.2,0.2
2024-10-04T1900,1053A,115.4713,38.9108,保定市,接待中心,颗粒物(PM10),61,72,69,36,43,132,,145,145,25,24,6,7,0.5,0.3
2024-10-04T1900,1054A,115.4612,38.8416,保定市,地表水厂,细颗粒物(PM2.5),68,81,76,49,54,113,,141,141,38,27,5,6,0.1,0.1
2024-10-04T1900,3581A,115.31981,38.95208,保定市,满城区生态环境分局,细颗粒物(PM2.5),104,136,76,78,42,120,,148,148,38,28,8,7,0.8,0.5
2024-10-04T1900,3582A,115.47694,38.76408,保定市,清苑区第二中学,颗粒物(PM10),75,99,81,48,51,106,,142,142,40,31,3,5,0.5,0.5
2024-10-04T1900,3583A,115.62909,39.02311,保定市,徐水物探局,颗粒物(PM10),61,72,66,31,41,121,,137,137,33,36,6,7,0.4,0.4
2024-10-04T1900,4004A,115.4202,38.8656,保定市,双鹰农机,细颗粒物(PM2.5),73,92,75,53,45,123,,151,151,38,33,5,7,0.5,0.5
2024-10-04T1900,4034A,115.5150,38.8590,保定市,植保所站,颗粒物(PM10),71,92,76,48,49,112,,143,143,46,37,6,8,0.3,0.4
2024-10-04T1900,2594A,99.1678,25.1081,保山市,市环境监测站,,23,23,20,16,10,30,,38,38,9,7,5,4,0.5,0.5
2024-10-04T1900,2595A,99.1711,25.1328,保山市,市环保局,,24,24,23,11,7,35,,43,42,9,7,7,6,0.6,0.5
2024-10-04T1900,1867A,109.1436,21.4086,北海市,海滩公园,颗粒物(PM10),74,97,65,34,28,166,,173,173,13,11,8,9,1.5,0.7
2024-10-04T1900,1868A,109.0981,21.4661,北海市,新市环保局,臭氧1小时,52,50,61,27,32,161,,160,160,17,12,6,8,0.8,0.7
2024-10-04T1900,1869A,109.1778,21.5233,北海市,北海工业园,臭氧1小时,64,61,60,29,31,171,,157,157,16,13,8,9,0.8,0.7
2024-10-04T1900,3400A,109.1911,21.4415,北海市,龙潭自来水厂,颗粒物(PM10),57,64,58,29,34,164,,166,166,18,13,9,9,0.7,0.6
2024-10-04T1900,1001A,116.3621,39.8784,北京市,万寿西宫,细颗粒物(PM2.5),69,84,69,50,40,126,,124,124,24,30,5,3,0.8,0.6
2024-10-04T1900,1002A,116.2202,40.2915,北京市,定陵,细颗粒物(PM2.5),78,84,53,57,33,54,,81,81,23,16,1,3,0.6,0.5
2024-10-04T1900,1003A,116.4174,39.9289,北京市,东四,"颗粒物(PM10),细颗粒物(PM2.5)",70,90,71,51,39,136,,124,124,24,33,6,5,0.8,0.6
2024-10-04T1900,1004A,116.4072,39.8863,北京市,天坛,细颗粒物(PM2.5),63,65,60,45,40,95,,118,118,22,31,3,3,0.7,0.5
2024-10-04T1900,1005A,116.462,39.9365,北京市,农展馆,颗粒物(PM10),66,81,67,47,38,122,,117,117,23,36,5,4,0.7,0.5
2024-10-04T1900,1006A,116.3392,39.9295,北京市,官园,细颗粒物(PM2.5),70,88,72,51,40,138,,121,121,17,28,5,3,0.8,0.6
2024-10-04T1900,1007A,116.2878,39.9611,北京市,海淀万柳,细颗粒物(PM2.5),73,88,68,53,38,119,,111,111,30,39,5,4,0.6,0.5
2024-10-04T1900,1008A,116.6636,40.135,北京市,顺义新城,颗粒物(PM10),61,72,75,40,41,86,,110,110,25,35,1,3,0.5,0.4
2024-10-04T1900,1009A,116.6275,40.3275,北京市,怀柔镇,细颗粒物(PM2.5),79,85,54,58,35,92,,120,120,17,13,2,4,0.7,0.4
2024-10-04T1900,1010A,116.2296,40.217,北京市,昌平镇,颗粒物(PM10),75,100,64,50,33,75,,84,84,41,24,5,4,0.7,0.5
2024-10-04T1900,1011A,116.3966,39.9821,北京市,奥体中心,颗粒物(PM10),65,80,65,46,37,126,,105,105,28,41,4,4,0.7,0.5
2024-10-04T1900,1012A,116.184,39.9136,北京市,古城,"颗粒物(PM10),细颗粒物(PM2.5)",89,128,84,66,40,96,,104,104,49,46,5,4,0.8,0.6
2024-10-04T1900,3281A,115.9718,40.4529,北京市,延庆夏都,细颗粒物(PM2.5),84,94,52,62,30,101,,104,104,35,22,1,2,0.6,0.4
2024-10-04T1900,3417A,117.0709,40.1465,北京市,平谷新城,"颗粒物(PM10),细颗粒物(PM2.5)",64,77,58,46,34,101,,131,131,18,18,1,3,0.7,0.4
2024-10-04T1900,3418A,116.8336,40.4095,北京市,密云新城,颗粒物(PM10),88,125,60,53,30,83,,115,115,28,19,1,3,0.6,0.4
2024-10-04T1900,3671A,116.088,39.9726,北京市,门头沟三家店,细颗粒物(PM2.5),85,104,66,63,37,76,,106,106,27,26,2,3,0.5,0.4
2024-10-04T1900,3672A,116.1541,39.8204,北京市,丰台云岗,细颗粒物(PM2.5),94,109,73,70,39,74,,96,96,50,36,4,4,0.6,0.4
2024-10-04T1900,3673A,116.6804,39.9081,北京市,通州东关,颗粒物(PM10),63,76,77,44,43,129,,127,127,28,30,4,3,0.7,0.4
2024-10-04T1900,3674A,115.9577,39.7603,北京市,房山燕山,细颗粒物(PM2.5),88,88,57,65,36,112,,109,109,19,16,2,2,0.4,0.4
2024-10-04T1900,3675A,116.4672,39.7733,北京市,大兴旧宫,"颗粒物(PM10),细颗粒物(PM2.5)",57,64,64,40,38,74,,114,114,47,28,1,3,0.7,0.4
2024-10-04T1900,3694A,115.986,40.4563,北京市,延庆石河营,细颗粒物(PM2.5),80,95,49,59,29,100,,102,102,31,20,3,2,0.5,0.4
2024-10-04T1900,3695A,116.6151,40.3053,北京市,怀柔新城,细颗粒物(PM2.5),78,80,56,57,37,96,,114,114,23,16,3,3,0.5,0.3
2024-10-04T1900,3696A,116.2545,39.8768,北京市,丰台小屯,细颗粒物(PM2.5),72,83,70,52,39,79,,99,99,63,48,1,2,0.7,0.6
2024-10-04T1900,3697A,116.84,40.3844,北京市,密云镇,细颗粒物(PM2.5),67,82,56,48,33,81,,117,117,41,31,4,4,0.6,0.4
2024-10-04T1900,1761A,123.8275,41.3064,本溪市,大峪,,35,22,30,11,12,111,,117,117,10,28,10,10,0.6,0.7
2024-10-04T1900,1762A,123.7567,41.3325,本溪市,溪湖,,46,46,60,19,21,61,,108,105,38,31,9,10,0.7,1.2
2024-10-04T1900,1763A,123.7169,41.3094,本溪市,彩屯,,46,46,51,30,27,51,,106,101,39,35,10,15,0.9,1.9
2024-10-04T1900,1764A,123.7669,41.2864,本溪市,东明,,31,31,46,16,18,96,,112,110,26,38,6,6,0.8,1
2024-10-04T1900,1765A,123.7992,41.2664,本溪市,新立屯,,38,38,20,11,8,25,,109,88,72,34,5,6,0.6,0.4
2024-10-04T1900,1766A,123.8142,41.3472,本溪市,威宁,,44,44,46,19,16,55,,110,106,40,26,8,8,0.6,0.7
2024-10-04T1900,2587A,105.2864,27.3125,毕节市,八中,细颗粒物(PM2.5),59,65,47,42,28,63,,78,77,10,16,8,12,0.5,0.4
2024-10-04T1900,2588A,105.31,27.2944,毕节市,师专,颗粒物(PM10),56,61,45,39,28,66,,81,80,9,13,10,17,0.5,0.4
2024-10-04T1900,3537A,105.3631,27.3533,毕节市,长征村,细颗粒物(PM2.5),67,66,46,48,30,72,,85,84,10,12,12,18,0.5,0.4
2024-10-04T1900,1629A,118.0018,37.3617,滨州市,第二水厂,,46,46,65,19,34,100,,134,134,38,39,8,15,0.2,0.3
2024-10-04T1900,1630A,117.9776,37.393,滨州市,北中新校,颗粒物(PM10),52,53,62,22,34,56,,129,122,66,42,10,13,0.6,0.7
2024-10-04T1900,3514A,117.9378,37.3956,滨州市,中海酒店,颗粒物(PM10),73,95,65,41,37,62,,144,138,76,37,12,12,0.7,0.7
2024-10-04T1900,3515A,117.9378,37.3553,滨州市,开发区一中,颗粒物(PM10),59,68,74,27,38,106,,144,144,45,47,12,17,0.8,0.8
2024-10-04T1900,3516A,118.0917,37.694,滨州市,金海六路,颗粒物(PM10),79,107,70,34,36,46,,142,133,87,39,9,14,0.8,0.5
2024-10-04T1900,4028A,117.9956,37.3753,滨州市,滨州市西街道办事处,细颗粒物(PM2.5),67,78,67,48,41,52,,143,135,68,41,8,17,1.2,0.7
2024-10-04T1900,2311A,115.8072,33.8399,亳州市,污水处理厂,颗粒物(PM10),61,71,64,16,36,111,,137,135,23,24,14,17,0.4,0.4
2024-10-04T1900,2312A,115.7789,33.8518,亳州市,三国揽胜宫,,43,43,62,21,45,111,,129,128,18,19,5,10,0.4,0.5
2024-10-04T1900,3332A,115.7633,33.8034,亳州市,亳州学院,颗粒物(PM10),54,57,58,10,27,117,,139,138,21,19,4,6,0.3,0.4
2024-10-04T1900,2693A,82.0485,44.8556,博尔塔拉蒙古自治州,市党校,,36,36,42,7,12,104,,95,95,5,5,5,6,0.3,0.4
2024-10-04T1900,2694A,82.0806,44.8969,博尔塔拉蒙古自治州,市环保局,,,38,48,12,13,100,,89,89,9,12,6,7,,0.4
2024-10-04T1900,1071A,116.8842,38.2991,沧州市,沧县城建局,"颗粒物(PM10),细颗粒物(PM2.5)",53,55,57,37,32,121,,137,137,26,33,4,4,0.4,0.4
2024-10-04T1900,1072A,116.8584,38.3254,沧州市,电视转播站,颗粒物(PM10),53,55,58,24,36,143,,152,152,19,35,8,11,0.4,0.4
2024-10-04T1900,1073A,116.8709,38.3228,沧州市,市环保局,细颗粒物(PM2.5),57,51,61,40,39,127,,144,144,30,36,4,5,0.4,0.4
2024-10-04T1900,3324A,116.8136,38.3004,沧州市,河北水利电力学院,颗粒物(PM10),65,80,70,39,41,128,,146,146,20,34,4,6,0.4,0.4
2024-10-04T1900,2622A,97.1806,31.1273,昌都市,昌都监测站,,13,,17,3,6,40,,51,50,6,9,8,8,0.6,0.6
2024-10-04T1900,3719A,97.1714,31.1406,昌都市,昌都会议中心,,,,8,,5,40,,49,49,4,6,8,8,0.5,0.4
2024-10-04T1900,2690A,88.1236,43.8886,昌吉回族自治州,天山天池,,34,34,29,18,9,81,,81,81,10,6,10,10,0.6,0.6
2024-10-04T1900,2692A,87.2717,44.0297,昌吉回族自治州,新区政务中心,,34,34,49,16,19,92,,78,78,13,22,7,6,0.6,0.7
2024-10-04T1900,3613A,87.3095,44.0142,昌吉回族自治州,亚心广场,,36,36,54,9,13,88,,75,75,20,25,5,9,0.5,0.6
2024-10-04T1900,1119A,125.3325,43.9166,长春市,食品厂,颗粒物(PM10),54,58,41,27,18,113,,120,120,34,29,7,7,0.5,0.4
2024-10-04T1900,1120A,125.2863,43.9027,长春市,客车厂,颗粒物(PM10),56,62,36,25,17,108,,116,116,32,21,9,8,0.6,0.5
2024-10-04T1900,1121A,125.2841,43.8463,长春市,邮电学院,颗粒物(PM10),54,57,36,24,22,112,,125,125,24,19,8,8,0.5,0.4
2024-10-04T1900,1122A,125.3716,43.8772,长春市,劳动公园,颗粒物(PM10),53,56,39,22,17,123,,132,132,28,23,8,8,0.5,0.4
2024-10-04T1900,1123A,125.3297,43.8805,长春市,园林处,颗粒物(PM10),56,62,39,23,15,122,,127,127,28,21,7,7,0.5,0.4
2024-10-04T1900,1124A,125.4605,43.79,长春市,净月潭,,36,32,25,17,14,114,,126,126,13,10,6,7,0.5,0.3
2024-10-04T1900,1126A,125.3863,43.8447,长春市,经开区环卫处,,49,49,35,16,14,99,,116,116,35,28,10,9,0.7,0.5
2024-10-04T1900,1127A,125.245,43.7783,长春市,高新区管委会,颗粒物(PM10),57,64,35,29,17,98,,124,123,31,22,8,7,0.6,0.4
2024-10-04T1900,1128A,125.1761,43.8325,长春市,岱山公园,颗粒物(PM10),55,59,42,34,18,87,,117,116,49,26,7,6,0.6,0.4
2024-10-04T1900,1335A,113.0833,28.2325,长沙市,经开区环保局,,39,39,52,22,24,117,,133,133,23,20,7,6,0.4,0.4
2024-10-04T1900,1336A,112.8872,28.2189,长沙市,高开区环保局,,48,44,80,33,47,122,,139,139,13,16,6,7,0.2,0.3
2024-10-04T1900,1337A,113.0792,28.2053,长沙市,马坡岭,,50,50,55,28,30,122,,138,138,14,16,6,7,0.5,0.6
2024-10-04T1900,1338A,112.9394,28.19,长沙市,湖南师范大学,,40,38,73,22,43,128,,143,143,10,17,6,7,0.5,0.5
2024-10-04T1900,1339A,113.0178,28.1322,长沙市,雨花区环保局,,50,50,51,20,22,128,,140,140,10,13,7,8,0.5,0.5
2024-10-04T1900,1340A,112.9792,28.2597,长沙市,伍家岭,,42,42,67,20,32,117,,132,132,10,19,4,7,0.6,0.7
2024-10-04T1900,1341A,113.0014,28.1944,长沙市,火车新站,,49,49,62,22,30,113,,132,132,17,21,5,7,0.4,0.4
2024-10-04T1900,1342A,112.9844,28.1178,长沙市,天心区环保局,,43,43,60,22,30,118,,140,137,18,21,6,7,0.6,0.5
2024-10-04T1900,1343A,112.8908,28.1308,长沙市,湖南中医药大学,,44,44,82,28,47,125,,149,149,12,11,8,8,0.7,0.8
2024-10-04T1900,1344A,112.9581,28.3611,长沙市,沙坪,,38,38,50,21,36,119,,130,130,5,9,8,10,0.5,0.6
2024-10-04T1900,1727A,113.1147,36.1547,长治市,清华站,,40,32,42,27,24,128,,134,134,18,23,10,8,0.6,0.6
2024-10-04T1900,1728A,113.1031,36.1989,长治市,监测站,,42,42,41,24,26,118,,129,129,25,22,11,11,0.6,0.6
2024-10-04T1900,1730A,113.0886,36.2125,长治市,审计局,,42,42,43,27,28,119,,127,127,22,19,10,7,0.3,0.3
2024-10-04T1900,1731A,113.0844,36.1856,长治市,长治八中,颗粒物(PM10),55,60,54,27,21,119,,132,132,26,22,10,8,0.6,0.6
2024-10-04T1900,2845A,113.1569,36.1911,长治市,德盛苑,,42,33,39,19,26,134,,138,138,15,17,7,6,0.6,0.6
2024-10-04T1900,3568A,113.06,36.0464,长治市,向阳小学,细颗粒物(PM2.5),55,51,56,39,31,128,,135,134,22,20,9,6,0.4,0.4
2024-10-04T1900,3569A,112.8792,36.3144,长治市,屯留一中,细颗粒物(PM2.5),64,67,53,46,33,130,,145,145,23,24,14,10,1.4,1.1
2024-10-04T1900,3570A,113.235,36.3489,长治市,潞城四中,颗粒物(PM10),55,60,63,33,36,92,,139,136,36,28,5,9,0.4,0.7
2024-10-04T1900,1854A,111.6975,28.9703,常德市,市二中,细颗粒物(PM2.5),109,105,79,82,56,136,,147,147,24,23,14,12,0.9,0.7
2024-10-04T1900,3138A,111.7153,29.0289,常德市,武陵区永安,细颗粒物(PM2.5),119,112,81,90,54,146,,150,150,21,18,15,15,1.0,0.8
2024-10-04T1900,3139A,111.6892,28.9881,常德市,鼎城区玉霞,细颗粒物(PM2.5),108,92,82,81,51,158,,158,158,17,23,16,15,0.8,0.7
2024-10-04T1900,3140A,111.6625,29.0531,常德市,武陵区长庚,细颗粒物(PM2.5),77,84,84,56,53,159,,155,155,17,20,12,12,0.6,0.6
2024-10-04T1900,1196A,119.9633,31.762,常州市,市监测站,,32,32,25,17,14,87,,117,114,18,12,8,9,0.4,0.4
2024-10-04T1900,1200A,119.9468,31.7069,常州市,武进监测站,,29,23,21,9,11,91,,118,116,15,10,12,9,0.7,0.6
2024-10-04T1900,1201A,119.9255,31.9087,常州市,安家,,30,28,27,11,15,94,,113,111,17,22,7,9,0.3,0.3
2024-10-04T1900,3002A,119.9805,31.8174,常州市,行政中心,,29,29,26,16,13,83,,108,106,19,14,4,4,0.1,0.2
2024-10-04T1900,3003A,120.0522,31.7748,常州市,经开区,,38,38,28,20,14,77,,118,113,36,28,8,8,0.2,0.2
2024-10-04T1900,3010A,119.9025,31.7964,常州市,钟楼,,28,27,25,14,16,89,,112,110,17,17,9,10,0.4,0.4
2024-10-04T1900,3429A,119.8598,31.7066,常州市,武进经发区,,,45,32,23,15,84,,114,112,,20,7,7,0.4,0.3
2024-10-04T1900,3430A,119.5826,31.7245,常州市,金坛城区,,35,35,26,20,16,98,,123,121,15,11,9,9,0.6,0.5
2024-10-04T1900,2220A,120.4318,41.5881,朝阳市,西梁,颗粒物(PM10),57,63,38,29,21,102,,129,128,27,22,8,8,0.9,0.7
2024-10-04T1900,2221A,120.4521,41.5646,朝阳市,河畔小区,,44,44,31,24,15,121,,131,131,21,15,11,9,0.6,0.5
2024-10-04T1900,2222A,120.4176,41.5648,朝阳市,八里堡,颗粒物(PM10),69,87,43,29,19,88,,131,128,48,29,10,10,1.1,0.8
2024-10-04T1900,2223A,120.3806,41.5969,朝阳市,农业园区,,45,33,30,31,21,139,,140,140,10,16,9,7,0.6,0.6
2024-10-04T1900,1705A,116.6367,23.6719,潮州市,西园路,,32,28,22,22,14,64,,70,66,13,11,4,2,0.5,0.4
2024-10-04T1900,3026A,116.6183,23.6608,潮州市,市政府,,29,26,22,20,12,72,,82,79,7,8,5,6,0.5,0.4
2024-10-04T1900,4036A,116.6461,23.6761,潮州市,金山,,30,,23,21,14,71,,79,76,8,7,7,7,0.6,0.5
2024-10-04T1900,2472A,113.0073,25.9061,郴州市,马头岭,颗粒物(PM10),54,57,61,19,21,98,,127,125,24,16,13,12,0.9,0.8
2024-10-04T1900,2473A,113.0116,25.8226,郴州市,市职中,细颗粒物(PM2.5),64,53,54,46,37,90,,137,133,33,20,8,8,0.8,0.6
2024-10-04T1900,2474A,113.0161,25.8001,郴州市,兴隆步行街,,46,46,60,30,34,119,,144,144,21,17,11,9,0.5,0.4
2024-10-04T1900,2475A,113.0383,25.8071,郴州市,市审计局,颗粒物(PM10),60,70,55,32,35,108,,138,137,15,14,14,7,0.6,0.5
2024-10-04T1900,2476A,113.0348,25.7759,郴州市,市环保局,,50,50,60,26,34,116,,134,133,10,15,16,9,0.5,0.5
2024-10-04T1900,1431A,103.9728,30.7236,成都市,金泉两河,,21,21,18,11,4,61,,68,68,10,11,3,3,0.3,0.2
2024-10-04T1900,1432A,104.176,30.6872,成都市,十里店,,38,38,18,20,10,60,,67,67,20,12,2,1,0.6,0.5
2024-10-04T1900,1433A,104.079,30.5706,成都市,三瓦窑,,41,41,26,28,12,55,,68,68,30,12,3,2,0.6,0.4
2024-10-04T1900,1434A,104.1114,30.63,成都市,沙河铺,,48,48,31,25,11,56,,63,63,25,16,2,2,0.6,0.4
2024-10-04T1900,1437A,104.0786,30.6531,成都市,君平街,,47,47,21,32,10,63,,66,66,28,17,5,5,0.5,0.4
2024-10-04T1900,2880A,104.0239,30.65639,成都市,大石西路,颗粒物(PM10),51,51,26,32,9,65,,70,70,21,10,3,3,0.4,0.3
2024-10-04T1900,3136A,104.2725,30.5589,成都市,龙泉驿区区政府,,31,31,16,19,10,56,,67,67,26,18,1,1,0.5,0.4
2024-10-04T1900,3357A,104.0106,30.6931,成都市,金博路,,26,26,18,11,6,64,,61,61,15,12,2,1,0.5,0.4
2024-10-04T1900,3359A,104.0578,30.5225,成都市,华阳,,46,46,21,24,15,57,,63,63,20,13,3,3,0.5,0.5
2024-10-04T1900,3487A,104.2394,30.5319,成都市,车城东七路,,37,37,22,22,15,58,,72,72,23,16,2,2,0.5,0.4
2024-10-04T1900,3488A,104.3853,30.7453,成都市,青白江技师分院,,32,32,16,20,8,56,,78,78,26,9,3,2,0.7,0.5
2024-10-04T1900,3489A,104.0789,30.4072,成都市,科学城,,38,36,22,26,17,53,,65,65,22,13,4,4,0.5,0.4
2024-10-04T1900,4011A,103.8506,30.6947,成都市,光华大道三段,,37,37,22,17,7,67,,72,72,11,8,3,3,0.5,0.4
2024-10-04T1900,1062A,117.9531,40.9081,承德市,铁路,颗粒物(PM10),59,68,31,41,14,115,,113,113,32,25,12,10,0.5,0.4
2024-10-04T1900,1063A,117.9392,40.9763,承德市,中国银行,,,76,36,31,13,101,,126,126,35,22,7,7,,0.5
2024-10-04T1900,1064A,117.9503,40.928,承德市,开发区,颗粒物(PM10),62,74,43,36,18,126,,126,126,24,25,10,8,0.5,0.4
2024-10-04T1900,1065A,117.8051,40.9655,承德市,文化中心,颗粒物(PM10),65,80,43,42,13,76,,116,116,29,29,10,11,0.6,0.5
2024-10-04T1900,1066A,117.9268,41.0026,承德市,离宫,细颗粒物(PM2.5),58,63,16,41,30,85,,98,98,7,13,5,5,0.5,0.4
2024-10-04T1900,2314A,117.47,30.6618,池州市,池州学院,,34,34,34,18,20,100,,120,119,26,17,10,9,0.4,0.4
2024-10-04T1900,3237A,117.4918,30.6617,池州市,展览馆,,35,29,32,13,17,111,,119,119,13,13,6,6,0.3,0.5
2024-10-04T1900,3333A,117.5627,30.695,池州市,第八中学,,33,31,33,18,18,103,,117,117,16,14,5,8,0.4,0.6
2024-10-04T1900,3334A,117.5038,30.6243,池州市,第十二中学,,35,33,31,20,21,112,,120,120,15,19,6,6,0.4,0.5
2024-10-04T1900,1744A,118.9233,42.2816,赤峰市,松山一中,,47,47,35,24,15,104,,108,108,29,27,12,10,0.6,0.5
2024-10-04T1900,1745A,118.9576,42.2728,赤峰市,哈达街,颗粒物(PM10),57,63,43,35,17,85,,118,117,26,16,11,8,0.8,0.5
2024-10-04T1900,1746A,118.8788,42.2554,赤峰市,天义路,,44,44,27,25,15,114,,122,122,22,20,10,8,0.4,0.3
2024-10-04T1900,3058A,119.2658,42.0353,赤峰市,银河街,颗粒物(PM10),58,65,55,20,24,107,,120,120,24,22,16,17,0.6,0.5
2024-10-04T1900,3286A,118.9359,42.3147,赤峰市,桥北物流园区,,38,38,35,22,18,99,,120,120,44,38,10,9,0.2,0.3
2024-10-04T1900,2521A,107.3476,22.4136,崇左市,市环保局江州分局,颗粒物(PM10),60,69,51,36,22,151,,142,142,8,10,7,4,0.5,0.6
2024-10-04T1900,2522A,107.3702,22.3707,崇左市,城南新区,,47,42,41,21,20,148,,156,156,12,14,7,5,0.5,0.5
2024-10-04T1900,2298A,118.3093,32.3153,滁州市,老年大学,,34,31,31,17,17,106,,136,134,16,18,6,12,0.3,0.3
2024-10-04T1900,2299A,118.3244,32.2786,滁州市,人大宾馆,,36,36,32,16,17,96,,136,133,24,22,6,7,0.3,0.3
2024-10-04T1900,3207A,118.3118,32.3038,滁州市,市政府原办公楼,,30,26,30,19,21,94,,136,132,24,19,5,7,0.3,0.3
2024-10-04T1900,3331A,118.3267,32.2634,滁州市,图书馆,,34,26,33,12,17,107,,137,135,14,18,4,6,0.3,0.4
2024-10-04T1900,2605A,101.5482,25.0441,楚雄彝族自治州,州环境监测站,,15,9,13,8,12,45,,49,48,4,4,6,6,0.6,0.6
2024-10-04T1900,2606A,101.538,25.0492,楚雄彝族自治州,市经济开发区,,17,17,15,10,13,42,,46,46,7,6,5,5,0.8,0.7
2024-10-04T1900,2548A,107.5277,31.2827,达州市,达州职业技术学院,,48,48,47,17,26,48,,66,66,35,27,5,7,0.7,0.7
2024-10-04T1900,2549A,107.5086,31.2186,达州市,市环境监测站,,49,49,48,19,22,58,,70,70,39,29,6,7,0.4,0.4
2024-10-04T1900,2550A,107.4988,31.2132,达州市,凤凰小区,,36,36,42,14,23,78,,80,80,26,27,7,9,0.4,0.5
2024-10-04T1900,2551A,107.5082,31.1986,达州市,达县机关宾馆,,36,36,43,15,24,66,,74,74,28,32,5,7,0.3,0.4
2024-10-04T1900,2552A,107.4644,31.2124,达州市,市政中心,,40,40,47,17,24,82,,80,80,20,28,4,6,0.4,0.5
2024-10-04T1900,2614A,100.1542,25.7054,大理白族自治州,大理市环境监测站,,18,18,14,10,10,36,,42,41,9,6,6,6,0.7,0.7
2024-10-04T1900,2615A,100.2171,25.5811,大理白族自治州,大理古城,,9,9,15,3,9,25,,41,40,16,11,7,7,0.6,0.6
2024-10-04T1900,1109A,121.612,38.9741,大连市,甘井子,,39,35,30,18,16,123,,134,134,30,23,10,10,0.7,0.8
2024-10-04T1900,1110A,121.565,38.9511,大连市,周水子,,39,31,33,18,20,124,,133,133,28,39,11,10,0.6,0.8
2024-10-04T1900,1111A,121.5637,38.8845,大连市,星海三站,,44,29,26,19,18,138,,141,141,17,17,10,9,0.4,0.5
2024-10-04T1900,1112A,121.6302,38.9117,大连市,青泥洼桥,,38,17,26,10,15,120,,134,134,16,16,9,9,0.5,0.5
2024-10-04T1900,1113A,121.6251,38.8638,大连市,傅家庄,,45,21,23,8,13,141,,137,137,8,8,10,10,0.4,0.5
2024-10-04T1900,1114A,121.5213,38.8661,大连市,七贤岭,,44,31,26,18,16,138,,147,147,22,14,10,8,0.6,0.7
2024-10-04T1900,1115A,121.2529,38.8061,大连市,旅顺,颗粒物(PM10),51,51,34,22,19,152,,158,158,21,17,9,9,0.6,0.6
2024-10-04T1900,1116A,121.7485,39.1311,大连市,金州,,39,28,24,23,17,124,,142,142,20,15,8,6,0.6,0.6
2024-10-04T1900,1117A,121.7811,39.0496,大连市,开发区,,44,23,32,13,22,139,,137,137,9,27,13,11,0.4,0.5
2024-10-04T1900,1118A,121.9762,39.0631,大连市,双D港,,43,24,21,6,11,136,,142,142,16,16,9,8,0.7,0.7
2024-10-04T1900,1789A,124.81117,46.03138,大庆市,大同区,,47,47,38,24,20,90,,98,98,13,10,4,4,0.5,0.4
2024-10-04T1900,1790A,125.129,46.533,大庆市,龙凤区,,50,50,42,31,21,102,,94,94,11,16,3,3,0.5,0.5
2024-10-04T1900,1791A,124.902,46.408,大庆市,红岗区,,48,48,36,11,15,98,,102,102,15,12,8,7,0.5,0.4
2024-10-04T1900,1792A,125.153,46.586,大庆市,萨尔图区,颗粒物(PM10),54,58,38,16,14,96,,97,97,16,11,7,6,0.4,0.3
2024-10-04T1900,1793A,124.9042,46.6215,大庆市,让胡路区,颗粒物(PM10),51,52,39,20,20,103,,102,102,13,11,6,5,0.5,0.4
2024-10-04T1900,3481A,125.141,46.634,大庆市,萨区政府监测点,,50,50,31,10,13,105,,106,106,15,12,8,7,0.5,0.3
2024-10-04T1900,1721A,113.3819,40.1097,大同市,果树场,颗粒物(PM10),67,84,49,28,23,75,,124,120,33,18,8,9,0.7,0.7
2024-10-04T1900,1723A,113.2994,40.0758,大同市,云冈宾馆,,35,35,59,22,26,101,,127,127,34,40,8,11,0.8,0.9
2024-10-04T1900,1724A,113.3444,40.0917,大同市,大同大学,,37,37,49,20,21,106,,127,127,23,30,11,14,0.5,0.7
2024-10-04T1900,1725A,113.2661,40.1269,大同市,安家小村,颗粒物(PM10),54,57,66,18,28,97,,127,127,31,31,13,16,0.4,0.6
2024-10-04T1900,1726A,113.2711,40.0844,大同市,教育学院,颗粒物(PM10),53,56,80,21,30,99,,123,123,33,46,10,12,0.6,0.8
2024-10-04T1900,3282A,113.3397,40.0597,大同市,大同市卫生学校,,48,48,55,17,23,107,,129,129,22,35,10,14,0.5,0.5
2024-10-04T1900,3565A,113.1367,40.1122,大同市,云冈站,颗粒物(PM10),64,77,73,20,29,88,,121,120,33,30,11,13,0.5,0.5
2024-10-04T1900,3566A,113.1186,40.2556,大同市,图书馆,颗粒物(PM10),63,75,103,26,34,102,,121,120,33,30,18,16,0.7,0.6
2024-10-04T1900,3567A,113.5931,40.0461,大同市,区一中,颗粒物(PM10),51,52,43,7,13,94,,119,119,33,19,12,11,0.6,0.5
2024-10-04T1900,3676A,113.2802,40.0995,大同市,第二人民医院,,39,39,66,16,26,109,,131,131,27,35,13,16,0.5,0.7
2024-10-04T1900,2269A,124.1069,50.4097,大兴安岭地区,科技局,,41,41,19,18,14,53,,68,68,29,9,25,9,0.4,0.3
2024-10-04T1900,3663A,124.1164,50.4278,大兴安岭地区,红旗社区,,25,24,20,6,10,77,,72,72,8,16,3,4,0.3,0.3
2024-10-04T1900,1600A,124.3303,40.0625,丹东市,江湾东路,,42,39,38,29,23,53,,93,91,46,21,12,10,0.7,0.6
2024-10-04T1900,1601A,124.4256,40.1503,丹东市,临江后街,颗粒物(PM10),80,110,39,49,20,51,,105,103,43,20,9,7,1.6,0.8
2024-10-04T1900,1602A,124.3933,40.1461,丹东市,元宝山,,30,22,25,13,13,93,,99,99,9,13,4,5,0.7,0.7
2024-10-04T1900,1603A,124.3633,40.1092,丹东市,民主桥,,37,37,32,24,15,50,,102,100,48,22,6,6,0.8,0.5
2024-10-04T1900,3541A,109.5726,19.5167,儋州市,第一中学子站,,46,44,46,20,25,146,,146,146,10,8,6,7,0.6,0.6
2024-10-04T1900,3542A,109.5567,19.5187,儋州市,东坡学校子站,,50,42,44,23,25,158,,154,154,9,7,7,7,0.7,0.7
2024-10-04T1900,2616A,98.5842,24.428,德宏傣族景颇族自治州,德宏州监测站,,19,19,25,11,12,32,,47,47,14,13,32,10,0.4,0.5
2024-10-04T1900,3677A,98.5881,24.4368,德宏傣族景颇族自治州,芒市人民政府综合楼,,19,19,23,7,15,38,,50,50,11,12,14,9,0.5,0.7
2024-10-04T1900,1901A,104.4239,31.1208,德阳市,东山公园,,31,31,19,15,11,76,,84,84,16,10,2,5,0.4,0.3
2024-10-04T1900,1902A,104.3826,31.1317,德阳市,西小区,,42,42,27,23,12,74,,81,81,25,11,2,3,0.4,0.4
2024-10-04T1900,1904A,104.3553,31.1091,德阳市,耐火材料厂,,38,38,23,17,10,63,,75,75,22,10,3,4,0.2,0.2
2024-10-04T1900,3639A,104.4019,31.1244,德阳市,市教育局,,46,46,23,21,11,59,,79,79,32,13,2,4,0.4,0.3
2024-10-04T1900,1622A,116.3032,37.4674,德州市,儿童乐园,颗粒物(PM10),82,114,76,41,37,135,,152,152,38,35,11,11,0.5,0.5
2024-10-04T1900,1624A,116.2991,37.4451,德州市,监理站,颗粒物(PM10),70,90,70,44,36,141,,156,156,35,36,9,9,0.5,0.5
2024-10-04T1900,3066A,116.2721,37.4379,德州市,九衢泉纯净水厂,颗粒物(PM10),79,107,81,44,37,125,,148,148,41,45,10,11,0.6,0.5
2024-10-04T1900,3371A,116.3728,37.4403,德州市,开发区人民医院,颗粒物(PM10),73,95,74,36,34,138,,152,152,30,40,13,12,0.5,0.6
2024-10-04T1900,3372A,116.3572,37.4094,德州市,太阳城中学,颗粒物(PM10),76,102,81,39,38,117,,148,148,52,52,10,11,0.5,0.5
2024-10-04T1900,3511A,116.5652,37.3319,德州市,陵城艺术中心,,,75,65,34,33,142,,151,151,,44,11,13,,0.7
2024-10-04T1900,2621A,99.7056,27.8317,迪庆藏族自治州,迪庆州站,,16,,14,11,9,35,,41,40,12,8,9,8,0.5,0.4
2024-10-04T1900,3180A,99.7136,27.8094,迪庆藏族自治州,质量技术监督局,,15,15,14,9,6,38,,41,40,9,7,6,6,0.5,0.4
2024-10-04T1900,2663A,104.6241,35.5734,定西市,东关小学,,43,33,31,30,25,60,,74,74,6,7,6,6,0.2,0.2
2024-10-04T1900,2664A,104.6194,35.5934,定西市,供电公司,,34,34,31,22,16,58,,75,75,10,6,6,6,0.3,0.4
2024-10-04T1900,1389A,113.7547,23.0494,东莞市,莞城梨川,,33,30,31,16,14,103,,118,117,13,12,8,8,0.6,0.5
2024-10-04T1900,1390A,113.7944,23.0128,东莞市,东城石井,,34,30,28,17,13,106,,129,128,12,12,7,7,0.7,0.7
2024-10-04T1900,1391A,113.7383,22.9658,东莞市,南城西平,,34,34,31,19,12,105,,125,124,15,16,3,4,0.8,0.8
2024-10-04T1900,3319A,113.7338,23.0381,东莞市,万江金泰,,33,33,29,20,14,101,,115,114,12,12,5,6,0.5,0.4
2024-10-04T1900,3626A,113.7533,23.0202,东莞市,南城元岭,,32,31,30,15,13,100,,122,120,14,10,8,8,0.6,0.5
2024-10-04T1900,3627A,113.7875,23.0457,东莞市,东城主山,,35,35,31,16,15,107,,124,124,13,15,8,8,0.4,0.5
2024-10-04T1900,1666A,118.6614,37.4309,东营市,市环保局,颗粒物(PM10),60,70,59,36,28,156,,167,167,37,32,19,12,0.5,0.6
2024-10-04T1900,3036A,118.6904,37.4338,东营市,开发区管委会,细颗粒物(PM2.5),104,106,65,78,33,151,,166,166,46,31,37,14,0.2,0.4
2024-10-04T1900,3365A,118.5719,37.565,东营市,垦利区民丰路,颗粒物(PM10),65,80,52,36,27,104,,150,150,63,40,14,14,0.3,0.3
2024-10-04T1900,3498A,118.5055,37.8612,东营市,河口城区,细颗粒物(PM2.5),74,90,65,54,33,136,,147,147,36,35,10,10,0.4,0.4
2024-10-04T1900,3646A,118.4978,37.4623,东营市,胜利站,颗粒物(PM10),61,71,59,39,27,126,,150,150,47,35,18,14,0.5,0.4
2024-10-04T1900,3734A,118.35,37.26,东营市,理想之城,颗粒物(PM10),65,80,56,44,31,109,,152,152,66,39,17,8,0.4,0.4
2024-10-04T1900,1591A,110.0023,39.8129,鄂尔多斯市,综合楼,,30,29,55,3,13,95,,115,115,22,21,11,13,0.5,0.6
2024-10-04T1900,1592A,109.9486,39.8261,鄂尔多斯市,巴音孟克林场办事处,,31,31,52,12,17,77,,107,105,31,22,8,10,0.6,0.6
2024-10-04T1900,1593A,109.7736,39.5986,鄂尔多斯市,康泽苑,,34,34,41,17,16,99,,112,111,19,17,8,8,0.6,0.6
2024-10-04T1900,1594A,109.8119,39.5989,鄂尔多斯市,华泰汽车城,,29,29,43,17,21,87,,108,106,25,22,9,11,0.5,0.5
2024-10-04T1900,1595A,109.9734,39.7884,鄂尔多斯市,奥林花园,,29,29,52,9,18,82,,105,105,20,23,5,7,0.5,0.6
2024-10-04T1900,2436A,114.8938,30.3994,鄂州市,市政府,,34,33,33,19,17,108,,125,125,31,23,10,11,0.7,0.6
2024-10-04T1900,2437A,114.8989,30.3714,鄂州市,赵家坝,,40,33,37,19,17,125,,128,128,19,22,10,12,0.5,0.5
2024-10-04T1900,3654A,114.8094,30.4089,鄂州市,精准医疗中心,,44,32,36,18,17,138,,137,137,12,16,5,7,0.6,0.6
2024-10-04T1900,2454A,109.4978,30.2981,恩施土家族苗族自治州,湖北民院,,42,42,43,29,24,70,,72,72,27,18,11,10,0.6,0.6
2024-10-04T1900,2455A,109.4707,30.2798,恩施土家族苗族自治州,州电力总公司,,35,35,38,21,22,73,,74,74,22,22,7,7,0.6,0.7
2024-10-04T1900,3549A,109.5061,30.3772,恩施土家族苗族自治州,龙凤新区,,47,47,36,30,22,48,,55,55,28,20,6,6,0.8,0.7
2024-10-04T1900,2499A,108.3411,21.6158,防城港市,沙万,颗粒物(PM10),54,58,53,30,23,141,,144,144,14,14,11,11,0.6,0.6
2024-10-04T1900,2500A,108.3514,21.7731,防城港市,防城档案局,细颗粒物(PM2.5),82,97,108,60,33,104,,128,128,37,27,10,10,0.7,0.6
2024-10-04T1900,2501A,108.3506,21.6414,防城港市,大海花园,颗粒物(PM10),54,58,55,37,25,138,,140,140,13,12,8,9,0.9,0.8
2024-10-04T1900,1371A,113.1294,23.0067,佛山市,湾梁,,44,44,33,27,12,128,,145,145,24,24,9,8,0.6,0.5
2024-10-04T1900,1372A,113.1083,23.0478,佛山市,华材职中,,41,41,39,23,18,117,,138,138,34,26,10,9,0.6,0.5
2024-10-04T1900,1373A,113.144,23.0453,佛山市,南海气象局,,41,32,34,23,14,130,,141,141,21,21,10,8,0.7,0.6
2024-10-04T1900,1374A,113.2881,22.8094,佛山市,顺德苏岗,,38,32,28,12,11,120,,143,143,18,18,8,8,0.6,0.6
2024-10-04T1900,1376A,112.8383,22.8678,佛山市,高明孔堂,,42,40,38,26,17,134,,154,154,22,19,8,12,0.6,0.5
2024-10-04T1900,1377A,112.8836,23.1588,佛山市,三水监测站,,41,41,36,20,17,127,,137,137,22,24,8,8,0.5,0.4
2024-10-04T1900,1378A,112.867,23.185,佛山市,三水云东海,,37,37,30,22,17,108,,131,130,25,26,9,11,0.7,0.5
2024-10-04T1900,3625A,113.2544,22.7642,佛山市,容桂街道办,,41,31,27,19,15,130,,148,148,17,19,7,8,0.7,0.6
2024-10-04T1900,1282A,119.2681,26.0504,福州市,师大,,,,15,5,6,45,,84,,,4,,2,0.6,0.3
2024-10-04T1900,1283A,119.2984,26.1028,福州市,五四北路,,17,13,16,3,5,52,,86,56,12,12,3,3,0.4,0.3
2024-10-04T1900,1284A,119.2648,26.0768,福州市,杨桥西路,,17,17,15,3,6,50,,84,58,12,7,3,3,0.4,0.4
2024-10-04T1900,1285A,119.317,26.0746,福州市,紫阳,,16,14,18,8,9,49,,83,53,12,13,6,6,0.5,0.4
2024-10-04T1900,3048A,119.5799,26.0936,福州市,九龙,,20,10,15,3,5,64,,85,69,2,3,6,6,0.4,0.4
2024-10-04T1900,3526A,119.5189,25.9664,福州市,吴航,,21,12,10,8,6,67,,84,76,10,7,6,7,0.4,0.4
2024-10-04T1900,1755A,123.7977,41.8491,抚顺市,望花区,颗粒物(PM10),55,59,75,24,28,41,,54,54,27,31,5,7,0.5,1
2024-10-04T1900,1756A,123.9161,41.8822,抚顺市,顺城区,颗粒物(PM10),52,54,50,27,22,89,,121,120,44,26,11,7,0.5,0.6
2024-10-04T1900,1757A,124.0436,41.8611,抚顺市,东洲区,颗粒物(PM10),53,55,35,36,19,85,,112,110,31,16,14,8,1.2,0.6
2024-10-04T1900,1758A,123.9247,41.8642,抚顺市,新抚区,颗粒物(PM10),54,57,53,33,24,90,,124,122,37,26,7,6,0.9,0.6
2024-10-04T1900,1759A,124.0972,41.8961,抚顺市,大伙房水库,颗粒物(PM10),58,65,29,28,16,100,,122,121,26,12,13,7,0.8,0.5
2024-10-04T1900,1760A,123.7086,41.8391,抚顺市,沈抚新城,颗粒物(PM10),51,51,69,17,28,104,,130,127,32,35,10,13,0.3,0.8
2024-10-04T1900,2376A,116.2127,28.0814,抚州市,桐源党溪,,35,35,41,14,15,105,,126,125,2,4,5,6,0.7,0.6
2024-10-04T1900,2377A,116.3544,27.9831,抚州市,市站,,33,32,33,13,14,103,,107,107,9,8,3,4,0.6,0.7
2024-10-04T1900,2378A,116.3565,27.963,抚州市,血防站,,37,30,31,13,13,117,,122,122,11,11,2,4,0.5,0.5
2024-10-04T1900,2379A,116.3564,28.0007,抚州市,采茶剧团,,36,36,33,14,14,108,,115,115,6,5,4,4,0.5,0.6
2024-10-04T1900,2380A,116.385,27.9647,抚州市,医学分院,,37,34,35,14,13,116,,130,129,10,7,5,8,0.6,0.6
2024-10-04T1900,2207A,121.6094,41.998,阜新市,工业园区,颗粒物(PM10),70,90,51,30,26,139,,150,150,23,26,15,17,0.9,0.9
2024-10-04T1900,2208A,121.6697,42.0279,阜新市,长青街,颗粒物(PM10),57,63,46,34,24,146,,144,144,21,21,16,16,0.7,0.8
2024-10-04T1900,2209A,121.6673,42.0705,阜新市,农业园区,细颗粒物(PM2.5),70,61,44,51,36,147,,141,141,21,22,11,21,0.6,0.8
2024-10-04T1900,2210A,121.6717,42.0224,阜新市,东苑,颗粒物(PM10),54,58,45,30,23,142,,139,139,26,30,15,23,0.8,0.9
2024-10-04T1900,2211A,121.6506,42.0498,阜新市,玉龙新城,颗粒物(PM10),60,69,46,40,24,156,,156,156,19,24,14,14,0.5,0.7
2024-10-04T1900,2301A,115.8277,32.8929,阜阳市,市监测站,颗粒物(PM10),57,64,57,11,36,117,,130,130,22,24,7,8,0.3,0.4
2024-10-04T1900,2303A,115.8554,32.8605,阜阳市,开发区,颗粒物(PM10),83,115,75,20,32,106,,128,126,30,26,8,8,0.5,0.4
2024-10-04T1900,2875A,115.784,32.8892,阜阳市,阜阳职业技术学院,,46,46,50,17,29,123,,128,128,22,22,7,7,0.3,0.4
2024-10-04T1900,3468A,115.7901,32.8613,阜阳市,市规划展馆,,40,22,48,14,26,128,,130,130,21,23,7,8,0.4,0.4
2024-10-04T1900,3469A,115.836,32.9183,阜阳市,枣园社区,,37,26,60,14,31,117,,131,131,24,27,8,9,0.4,0.4
2024-10-04T1900,2669A,102.9099,34.9841,甘南藏族自治州,州政府,,27,18,27,14,17,84,,91,91,5,7,11,11,0.4,0.4
2024-10-04T1900,3380A,102.8914,34.9617,甘南藏族自治州,甘肃民族师范学院,,36,36,32,22,24,54,,83,83,29,13,10,5,0.5,0.5
2024-10-04T1900,2570A,101.9603,30.0475,甘孜藏族自治州,水桥子,,,6,5,3,5,29,,35,35,14,12,5,6,,0.3
2024-10-04T1900,3065A,101.9533,29.9972,甘孜藏族自治州,州环保局,,11,7,6,7,6,35,,42,40,13,14,3,3,0.3,0.3
2024-10-04T1900,3414A,115.8347,28.932,赣江新区,桑海产业园,,46,46,32,17,15,112,,126,126,19,13,11,11,0.7,0.7
2024-10-04T1900,2362A,114.9017,25.9149,赣州市,通天岩,细颗粒物(PM2.5),54,,30,38,20,121,,139,138,8,8,16,14,0.4,0.4
2024-10-04T1900,2363A,114.9367,25.8664,赣州市,地委,,40,40,32,22,20,128,,121,121,11,11,1,5,1.1,1
2024-10-04T1900,2364A,114.9461,25.8481,赣州市,气象台,,41,39,31,21,20,129,,124,124,8,8,3,5,0.6,0.6
2024-10-04T1900,2366A,114.8905,25.8471,赣州市,华坚鞋城,,41,38,32,20,16,130,,122,122,10,8,5,6,0.4,0.4
2024-10-04T1900,3109A,115.0093,25.8613,赣州市,赣县区卫计委,,39,39,35,19,16,121,,123,123,10,15,9,6,0.6,0.6
2024-10-04T1900,2683A,106.2319,36.1417,固原市,马园,,23,22,22,10,9,72,,83,81,10,11,5,6,0.5,0.5
2024-10-04T1900,2684A,106.2792,36.0022,固原市,监测站,,21,21,21,8,14,67,,75,74,18,11,6,7,0.4,0.4
2024-10-04T1900,2685A,106.2375,36.0211,固原市,新区,,23,16,17,6,9,73,,76,76,13,10,5,5,0.4,0.4
2024-10-04T1900,3522A,106.2177,35.9959,固原市,原州区十五小,,21,21,18,13,11,62,,79,75,19,10,5,4,0.6,0.6
2024-10-04T1900,2544A,106.6303,30.4576,广安市,市委,,45,45,52,24,28,105,,93,93,18,18,2,2,0.4,0.4
2024-10-04T1900,2545A,106.6271,30.4663,广安市,友谊中学,,40,40,42,23,28,101,,89,89,21,19,6,4,0.5,0.6
2024-10-04T1900,2547A,106.6388,30.4551,广安市,广电花园,,39,37,44,27,27,105,,94,94,18,17,4,3,0.5,0.5
2024-10-04T1900,2902A,106.6351,30.4865,广安市,北辰小学,,38,38,44,22,26,100,,96,96,17,14,7,5,0.4,0.4
2024-10-04T1900,2523A,105.8945,32.4535,广元市,黑石坡,,27,27,27,18,19,73,,42,42,7,12,14,14,0.3,0.4
2024-10-04T1900,2524A,105.821,32.4444,广元市,老城,,32,32,30,17,13,45,,52,52,35,22,1,4,0.6,0.6
2024-10-04T1900,2526A,105.8628,32.4287,广元市,监测站,,27,27,28,18,19,47,,49,49,26,20,2,3,0.5,0.5
2024-10-04T1900,3617A,105.8047,32.4166,广元市,经开区,,41,41,34,20,19,36,,51,51,35,26,4,5,0.7,0.6
2024-10-04T1900,1345A,113.2347,23.1423,广州市,广雅中学,,40,40,40,18,19,103,,129,127,27,22,8,8,0.8,0.7
2024-10-04T1900,1346A,113.2612,23.105,广州市,市五中,,37,32,35,25,17,118,,138,138,14,14,5,5,0.6,0.6
2024-10-04T1900,1348A,113.3478,23.0916,广州市,广东商学院,,39,39,41,23,14,113,,131,131,18,17,6,6,0.6,0.6
2024-10-04T1900,1349A,113.4332,23.1047,广州市,市八十六中,,35,32,34,17,14,109,,129,129,16,18,4,4,0.5,0.5
2024-10-04T1900,1350A,113.3505,22.9483,广州市,番禺中学,,32,30,34,22,15,90,,108,108,20,19,6,7,0.6,0.5
2024-10-04T1900,1351A,113.2146,23.3916,广州市,花都师范,,40,36,32,16,14,126,,135,135,15,10,8,8,0.4,0.4
2024-10-04T1900,1352A,113.2597,23.1331,广州市,市监测站,,34,28,32,16,14,108,,132,131,19,6,6,6,0.8,0.7
2024-10-04T1900,1353A,113.5618,23.312,广州市,九龙镇镇龙,颗粒物(PM10),56,61,29,35,13,90,,111,109,25,13,8,7,0.7,0.6
2024-10-04T1900,1354A,113.2765,23.1544,广州市,麓湖,,29,24,34,12,15,90,,128,126,22,19,7,7,0.6,0.5
2024-10-04T1900,1355A,113.443,23.3035,广州市,帽峰山森林公园,,36,25,21,17,13,115,,131,129,7,9,8,7,0.5,0.6
2024-10-04T1900,2846A,113.3221,23.1322,广州市,体育西,,46,38,28,32,15,105,,124,123,18,16,5,5,0.7,0.5
2024-10-04T1900,3298A,113.5717,23.5491,广州市,从化街口,,43,43,27,27,14,112,,115,114,11,9,12,10,0.6,0.5
2024-10-04T1900,3299A,113.3472,23.3692,广州市,白云竹料,颗粒物(PM10),66,81,34,38,16,117,,127,126,17,13,8,7,0.7,0.6
2024-10-04T1900,3300A,113.2981,23.237,广州市,白云嘉禾,颗粒物(PM10),54,57,41,21,16,97,,119,117,17,23,7,8,0.7,0.6
2024-10-04T1900,3301A,113.4256,23.1716,广州市,黄埔科学城,,34,34,31,13,15,100,,128,127,19,15,8,4,0.7,0.7
2024-10-04T1900,3302A,113.3942,23.0483,广州市,番禺大学城,,38,38,35,17,15,108,,133,133,22,23,11,11,0.2,0.3
2024-10-04T1900,3303A,113.4922,22.8168,广州市,南沙黄阁,,40,40,39,21,17,118,,151,151,28,26,8,11,0.7,0.6
2024-10-04T1900,3304A,113.5342,22.7896,广州市,南沙街,,41,41,37,19,17,116,,148,148,21,21,8,11,0.7,0.7
2024-10-04T1900,3443A,113.2902,23.5544,广州市,花都梯面,,44,44,28,24,14,89,,119,116,15,8,7,11,0.6,0.5
2024-10-04T1900,3445A,113.7858,23.7478,广州市,从化良口,,36,32,24,25,14,85,,113,110,13,8,8,8,0.6,0.4
2024-10-04T1900,3446A,113.8051,23.2614,广州市,增城荔城,,42,40,28,29,14,92,,115,112,15,12,7,8,0.6,0.6
2024-10-04T1900,2506A,109.6047,23.0666,贵港市,江南子站,臭氧1小时,60,58,83,30,36,168,,167,167,11,22,9,11,0.6,0.7
2024-10-04T1900,2507A,109.6014,23.0948,贵港市,贵城子站,"颗粒物(PM10),臭氧1小时",54,58,59,32,28,163,,164,164,12,13,9,10,0.7,0.7
2024-10-04T1900,2508A,109.5669,23.1065,贵港市,荷城子站,,,56,60,27,22,143,,154,154,16,11,11,13,,0.6
2024-10-04T1900,3405A,109.5886,23.1172,贵港市,新世纪学校,颗粒物(PM10),57,63,64,31,26,140,,155,155,15,11,9,10,0.6,0.5
2024-10-04T1900,1439A,106.6899,26.5998,贵阳市,马鞍山,,31,31,34,9,11,95,,118,118,13,10,4,4,0.6,0.5
2024-10-04T1900,1440A,106.6971,26.5694,贵阳市,市环保站,,46,46,41,28,22,125,,128,128,18,9,6,6,0.4,0.3
2024-10-04T1900,1441A,106.6243,26.6266,贵阳市,鉴湖路,,41,41,44,14,14,110,,120,120,12,8,5,4,0.3,0.4
2024-10-04T1900,1442A,106.7487,26.6343,贵阳市,燕子冲,,39,36,36,27,21,123,,132,132,8,6,8,7,0.3,0.3
2024-10-04T1900,1443A,106.6555,26.4365,贵阳市,碧云窝,,34,34,48,17,16,89,,118,116,15,12,6,7,0.4,0.3
2024-10-04T1900,1444A,106.694,26.5161,贵阳市,中院村,,39,39,41,14,19,102,,114,114,18,13,8,8,0.7,0.6
2024-10-04T1900,1445A,106.7109,26.6027,贵阳市,红边门,,41,41,44,24,22,116,,123,123,23,13,6,6,0.5,0.3
2024-10-04T1900,1446A,106.7164,26.5699,贵阳市,新华路,,44,44,40,19,17,124,,123,123,14,9,8,6,0.4,0.3
2024-10-04T1900,1447A,106.674,26.5424,贵阳市,太慈桥,,48,48,41,17,16,89,,120,120,26,11,8,6,0.5,0.3
2024-10-04T1900,1862A,110.4144,25.3167,桂林市,电子科大尧山校区,,42,37,52,17,33,134,,138,138,5,8,6,10,0.5,0.6
2024-10-04T1900,1863A,110.2819,25.2697,桂林市,监测站,,50,43,51,35,32,117,,141,140,18,12,9,13,0.3,0.4
2024-10-04T1900,1864A,110.3089,25.2708,桂林市,龙隐路小学,,43,32,44,30,28,137,,150,150,6,7,8,15,0.5,0.6
2024-10-04T1900,1865A,110.2869,25.2178,桂林市,八中,,39,33,50,25,29,122,,143,142,14,12,9,14,0.5,0.6
2024-10-04T1900,3403A,110.1764,25.2381,桂林市,创业大厦,颗粒物(PM10),58,66,55,36,32,105,,121,120,14,9,18,10,0.4,0.3
2024-10-04T1900,3531A,110.296,25.1253,桂林市,旅游学院,,40,39,45,22,25,125,,143,142,10,8,8,11,0.4,0.4
2024-10-04T1900,2674A,100.2561,34.4714,果洛藏族自治州,玛沁县大武镇,,35,24,19,16,13,110,,111,111,1,3,8,10,0.4,0.4
2024-10-04T1900,1129A,126.5422,45.755,哈尔滨市,岭北,,40,40,32,14,16,118,,129,129,25,16,10,13,0.3,0.4
2024-10-04T1900,1130A,126.561,45.8167,哈尔滨市,松北商大,,30,28,33,15,12,93,,109,109,24,22,9,9,0.5,0.4
2024-10-04T1900,1131A,126.979,45.5419,哈尔滨市,阿城会宁,,41,41,30,27,16,79,,109,104,19,13,7,11,0.6,0.5
2024-10-04T1900,1132A,126.599,45.7222,哈尔滨市,南岗学府路,颗粒物(PM10),54,57,58,14,13,100,,112,112,24,18,8,8,0.5,0.4
2024-10-04T1900,1133A,126.689,45.7733,哈尔滨市,太平宏伟公园,,47,47,35,18,15,93,,108,108,27,21,6,8,0.7,0.6
2024-10-04T1900,1134A,126.635,45.7667,哈尔滨市,道外承德广场,颗粒物(PM10),51,52,42,26,12,95,,106,106,29,23,6,6,0.7,0.6
2024-10-04T1900,1135A,126.685,45.7319,哈尔滨市,香坊红旗大街,颗粒物(PM10),59,68,47,21,17,84,,106,105,38,25,8,8,0.7,0.6
2024-10-04T1900,1136A,126.6411,45.7258,哈尔滨市,动力和平路,,44,44,37,26,17,88,,108,108,31,21,10,10,0.6,0.5
2024-10-04T1900,1137A,126.593,45.7478,哈尔滨市,道里建国路,,39,39,39,22,17,103,,112,112,20,20,13,13,1.0,0.7
2024-10-04T1900,1138A,126.615,45.61,哈尔滨市,平房东轻厂,,36,36,35,18,13,109,,115,115,16,14,6,6,0.7,0.5
2024-10-04T1900,1139A,126.595,45.9855,哈尔滨市,呼兰师专,颗粒物(PM10),55,60,37,23,16,82,,89,89,33,28,5,5,0.5,0.5
2024-10-04T1900,1140A,126.6206,45.6842,哈尔滨市,省农科院,颗粒物(PM10),65,79,60,28,19,61,,98,93,60,31,3,5,0.5,0.5
2024-10-04T1900,2688A,93.5128,42.8172,哈密市,地区监测站,颗粒物(PM10),51,52,91,18,27,89,,96,96,18,33,7,6,0.3,0.4
2024-10-04T1900,2689A,93.4961,42.8328,哈密市,哈密师范学校,颗粒物(PM10),57,64,73,20,28,89,,96,96,12,36,4,5,0.3,0.5
2024-10-04T1900,2671A,100.9048,36.9639,海北藏族自治州,海晏县西海镇,,,,27,,24,95,,104,104,,11,8,12,0.3,0.5
2024-10-04T1900,3867A,102.0738,36.5056,海东市,平安区公安北苑,颗粒物(PM10),53,55,50,31,29,99,,107,107,22,18,20,14,0.7,0.6
2024-10-04T1900,1410A,110.3232,20.0574,海口市,海南大学,臭氧1小时,60,40,46,19,23,168,,160,160,8,11,5,5,0.4,0.5
2024-10-04T1900,1411A,110.283,20.0053,海口市,秀英海南医院,臭氧1小时,58,43,48,21,24,166,,160,160,12,16,7,7,0.3,0.4
2024-10-04T1900,1412A,110.338,19.9969,海口市,海南师范大学,臭氧1小时,60,44,46,19,23,168,,162,162,10,12,8,8,0.5,0.5
2024-10-04T1900,1413A,110.33,20.0356,海口市,龙华路环保局宿舍,臭氧1小时,60,43,45,20,23,168,,159,159,8,11,6,7,0.4,0.4
2024-10-04T1900,3539A,110.5111,19.9736,海口市,桂林洋子站,臭氧1小时,52,50,52,26,28,161,,158,158,10,14,9,9,0.5,0.5
2024-10-04T1900,2673A,100.6188,36.2866,海南藏族自治州,共和县恰卜恰镇,,31,21,35,15,20,99,,106,106,8,15,8,10,0.3,0.5
2024-10-04T1900,2676A,97.3731,37.3753,海西蒙古族藏族自治州,德令哈市,,,33,29,11,11,118,,110,110,,10,8,10,,0.5
2024-10-04T1900,1048A,114.5302,36.6116,邯郸市,东污水处理厂,,44,44,58,27,32,116,,124,124,21,24,3,4,0.5,0.6
2024-10-04T1900,1049A,114.4918,36.5713,邯郸市,矿院,颗粒物(PM10),60,70,64,19,30,115,,124,124,18,24,7,5,0.3,0.4
2024-10-04T1900,1050A,114.484,36.6133,邯郸市,丛台公园,,47,47,48,22,28,120,,119,119,19,24,2,3,0.4,0.6
2024-10-04T1900,3458A,114.7895,36.5593,邯郸市,香泉濮院小区,颗粒物(PM10),71,92,91,35,36,128,,140,140,21,20,4,5,0.5,0.4
2024-10-04T1900,3579A,114.50634,36.77178,邯郸市,永年区实验高中,颗粒物(PM10),52,54,68,23,31,144,,147,147,13,20,4,9,0.3,0.6
2024-10-04T1900,3580A,114.20016,36.44293,邯郸市,峰峰矿区临水派出所,,45,45,39,25,21,130,,139,139,16,14,6,6,0.3,0.5
2024-10-04T1900,2634A,106.9893,33.1842,汉中市,汉川机床厂子校,,38,38,32,3,20,65,,100,97,8,11,5,6,0.6,0.6
2024-10-04T1900,2635A,107.0154,33.0706,汉中市,市监测站,颗粒物(PM10),59,68,49,25,25,81,,88,88,24,22,12,15,0.6,0.6
2024-10-04T1900,2636A,107.0089,33.1138,汉中市,鑫源开发区,颗粒物(PM10),55,60,82,24,22,98,,99,99,14,12,13,13,0.4,0.7
2024-10-04T1900,2637A,107.007,33.0323,汉中市,南郑大河坎水厂,,50,50,44,27,27,77,,81,81,23,18,10,9,0.5,0.5
2024-10-04T1900,1223A,120.2072,30.2111,杭州市,滨江,,34,30,26,11,13,106,,114,114,19,19,5,5,0.5,0.5
2024-10-04T1900,1224A,120.0633,30.2747,杭州市,西溪,,35,34,28,24,18,108,,114,114,22,27,6,6,0.8,0.7
2024-10-04T1900,1226A,120.3461,30.3153,杭州市,下沙,,32,32,29,15,13,86,,116,115,44,36,7,7,0.6,0.6
2024-10-04T1900,1227A,120.1269,30.2456,杭州市,卧龙桥,,26,26,24,17,13,57,,118,112,32,19,6,6,0.5,0.5
2024-10-04T1900,1228A,120.1903,30.2692,杭州市,浙江农大,,33,29,26,14,12,103,,113,113,19,20,9,9,0.5,0.5
2024-10-04T1900,1230A,120.1197,30.3119,杭州市,和睦小学,,35,35,25,16,14,112,,120,120,27,26,8,8,0.6,0.5
2024-10-04T1900,1231A,120.3019,30.4183,杭州市,临平镇,颗粒物(PM10),62,74,32,26,13,89,,118,116,28,22,6,6,0.5,0.5
2024-10-04T1900,1232A,120.2697,30.1819,杭州市,城厢镇,,38,38,26,16,15,95,,115,114,26,19,7,7,0.5,0.5
2024-10-04T1900,1233A,120.0883,30.1808,杭州市,云栖,,25,23,22,12,11,78,,109,107,20,18,6,6,0.6,0.5
2024-10-04T1900,3557A,119.9464,30.0494,杭州市,镇二中,,35,34,28,16,19,112,,122,122,22,28,8,8,0.6,0.6
2024-10-04T1900,3558A,119.7183,30.2367,杭州市,市府大楼,,43,43,30,19,17,134,,131,131,15,18,7,7,0.6,0.6
2024-10-04T1900,3656A,120.1556,30.2864,杭州市,消防大队,,41,41,31,17,14,110,,119,119,18,22,9,9,0.3,0.3
2024-10-04T1900,1270A,117.1959,31.7848,合肥市,明珠广场,,37,34,29,12,12,118,,130,130,21,25,12,12,0.5,0.4
2024-10-04T1900,1271A,117.3072,31.8764,合肥市,三里街,,35,27,27,12,15,109,,115,115,16,19,5,5,0.5,0.5
2024-10-04T1900,1272A,117.2588,31.8707,合肥市,琥珀山庄,,37,27,26,13,15,118,,124,124,19,18,8,8,0.5,0.5
2024-10-04T1900,1273A,117.1604,31.9052,合肥市,董铺水库,,35,27,30,9,10,111,,111,111,12,15,5,4,0.4,0.4
2024-10-04T1900,1274A,117.25,31.8571,合肥市,长江中路,,36,31,31,19,17,114,,118,118,20,17,9,10,0.8,0.7
2024-10-04T1900,1275A,117.266,31.9436,合肥市,庐阳区,,34,34,33,17,15,106,,124,124,23,19,4,4,0.5,0.5
2024-10-04T1900,1276A,117.336,31.8586,合肥市,瑶海区,,39,39,30,18,14,102,,115,115,25,21,6,7,0.4,0.3
2024-10-04T1900,1277A,117.3027,31.7964,合肥市,包河区,,41,41,35,17,15,100,,119,119,27,46,7,6,0.7,0.6
2024-10-04T1900,1278A,117.2776,31.7385,合肥市,滨湖新区,,36,27,26,12,12,115,,123,123,18,17,5,5,0.4,0.3
2024-10-04T1900,1279A,117.1318,31.8403,合肥市,高新区,,37,24,27,16,14,118,,118,118,17,21,8,7,0.6,0.6
2024-10-04T1900,3464A,117.3803,31.9147,合肥市,高教基地,,34,34,27,16,16,101,,122,121,12,10,5,5,0.4,0.4
2024-10-04T1900,3614A,79.924,37.0877,和田地区,地区环保局,颗粒物(PM10),100,150,190,45,54,105,,96,96,7,15,7,8,0.4,0.5
2024-10-04T1900,3615A,79.9131,37.113,和田地区,市环保局,,,,179,38,54,114,,103,103,,24,,8,0.1,0.4
2024-10-04T1900,2516A,108.2011,24.715,河池市,东仁乐园,颗粒物(PM10),53,55,46,25,22,101,,123,122,8,10,4,4,0.6,0.6
2024-10-04T1900,2517A,108.0497,24.6947,河池市,市环保站,,43,43,45,24,24,127,,133,133,9,17,17,11,0.6,0.6
2024-10-04T1900,2518A,108.0983,24.6989,河池市,市疾控中心,,41,39,47,23,26,129,,134,134,11,20,19,12,0.5,0.5
2024-10-04T1900,1696A,114.6778,23.7569,河源市,源西,,30,23,27,15,14,93,,115,109,10,9,6,6,0.5,0.4
2024-10-04T1900,1697A,114.6944,23.7586,河源市,东埔,,34,34,31,21,15,94,,112,109,12,13,6,5,0.8,0.7
2024-10-04T1900,1698A,114.6892,23.7233,河源市,老城,,39,36,30,27,15,93,,116,111,13,14,5,5,0.6,0.5
2024-10-04T1900,1718A,115.4208,35.2464,菏泽市,气象局,,45,45,56,12,27,140,,155,155,20,22,4,5,0.4,0.3
2024-10-04T1900,1719A,115.4747,35.2375,菏泽市,市政协,颗粒物(PM10),53,55,50,19,25,127,,151,149,22,17,4,6,0.5,0.4
2024-10-04T1900,3374A,115.5564,35.0891,菏泽市,定陶老年大学,,48,48,54,12,29,116,,139,137,16,17,6,8,0.2,0.2
2024-10-04T1900,3647A,115.4702,35.2706,菏泽市,菏泽医专,颗粒物(PM10),53,56,51,17,22,137,,153,153,24,22,6,7,0.7,0.6
2024-10-04T1900,2514A,111.5264,24.4172,贺州市,环保小区,,49,49,55,25,31,122,,143,142,16,15,8,8,0.5,0.5
2024-10-04T1900,2515A,111.5608,24.4078,贺州市,政协大楼,细颗粒物(PM2.5),59,60,56,42,29,126,,148,148,15,16,7,6,0.6,0.6
2024-10-04T1900,3534A,111.4744,24.4553,贺州市,西湾,,48,48,54,26,30,121,,137,136,15,13,8,8,0.6,0.5
2024-10-04T1900,2385A,114.17,35.9019,鹤壁市,市监测站,颗粒物(PM10),56,62,53,31,25,137,,148,148,33,27,5,6,0.6,0.6
2024-10-04T1900,2386A,114.2956,35.7511,鹤壁市,市交警支队,颗粒物(PM10),57,64,58,28,27,133,,148,148,33,33,3,3,0.3,0.3
2024-10-04T1900,2387A,114.2878,35.7306,鹤壁市,迎宾馆,颗粒物(PM10),57,63,61,37,29,141,,152,152,34,33,4,5,0.5,0.5
2024-10-04T1900,3474A,114.2617,35.6822,鹤壁市,大新区,细颗粒物(PM2.5),54,48,59,38,35,105,,140,140,33,33,3,2,0.2,0.2
2024-10-04T1900,3596A,114.1572,35.9603,鹤壁市,南山宾馆,颗粒物(PM10),54,58,55,31,33,133,,144,144,21,16,1,6,0.3,0.2
2024-10-04T1900,2244A,130.2537,47.3416,鹤岗市,哈啤分公司,,43,40,38,30,20,72,,86,86,21,21,15,17,0.6,0.5
2024-10-04T1900,2245A,130.2684,47.3086,鹤岗市,斯达机电,,,44,39,32,23,,,64,,24,20,15,15,0.4,0.4
2024-10-04T1900,2246A,130.3114,47.3388,鹤岗市,东山纸板厂,颗粒物(PM10),66,81,50,21,23,69,,86,86,24,22,19,18,0.3,0.4
2024-10-04T1900,2247A,130.1097,47.3382,鹤岗市,五号水库,,28,22,17,11,8,87,,104,103,6,7,8,8,0.1,0.2
2024-10-04T1900,2263A,127.4833,50.2524,黑河市,交通局,,37,37,31,24,17,80,,80,80,18,15,8,7,0.4,0.4
2024-10-04T1900,2264A,127.5144,50.2341,黑河市,环保局,,32,31,22,22,15,101,,91,91,10,9,4,4,0.4,0.3
2024-10-04T1900,2265A,127.5291,50.2472,黑河市,大黑河岛,,,,,25,14,94,,78,78,12,13,2,2,0.2,0.1
2024-10-04T1900,1074A,115.6838,37.7541,衡水市,电机北厂,"颗粒物(PM10),细颗粒物(PM2.5)",65,80,57,47,34,136,,150,150,21,17,8,10,0.4,0.4
2024-10-04T1900,1075A,115.6303,37.7316,衡水市,市监测站,颗粒物(PM10),64,78,60,33,29,127,,151,151,34,27,8,10,0.5,0.4
2024-10-04T1900,3188A,115.6683,37.7217,衡水市,市城管局,颗粒物(PM10),65,80,58,42,32,144,,156,156,22,22,9,10,0.4,0.4
2024-10-04T1900,3459A,115.5989,37.5491,衡水市,地表水厂,,,98,61,38,35,76,,147,142,,37,9,9,0.5,0.4
2024-10-04T1900,2456A,112.5003,26.9167,衡阳市,原169医院,颗粒物(PM10),55,60,53,31,28,116,,143,143,19,19,14,15,0.7,0.6
2024-10-04T1900,2457A,112.6194,26.9258,衡阳市,衡阳化工总厂,细颗粒物(PM2.5),54,51,56,38,36,130,,144,144,10,11,11,9,0.6,0.6
2024-10-04T1900,2458A,112.6211,26.8956,衡阳市,珠晖区环保局,,50,50,55,35,30,124,,140,140,21,17,11,11,0.6,0.6
2024-10-04T1900,2459A,112.6197,26.8733,衡阳市,市委党校,,45,35,55,29,30,142,,148,148,12,15,12,14,0.6,0.6
2024-10-04T1900,2460A,112.6006,26.8919,衡阳市,市监测站,细颗粒物(PM2.5),52,50,59,36,38,138,,151,151,18,15,15,11,0.8,0.7
2024-10-04T1900,2461A,112.5664,26.9056,衡阳市,真空机电公司,颗粒物(PM10),51,52,56,34,28,126,,147,147,22,14,7,8,0.7,0.6
2024-10-04T1900,3399A,112.6703,26.882,衡阳市,师范学院,,45,38,60,24,32,142,,148,148,13,15,10,15,0.5,0.6
2024-10-04T1900,2608A,103.3772,23.3993,红河哈尼族彝族自治州,污水处理厂,,28,27,19,19,16,61,,70,69,6,5,7,5,0.4,0.4
2024-10-04T1900,2609A,103.3861,23.35,红河哈尼族彝族自治州,监测站,,37,37,33,16,18,63,,70,70,5,5,8,9,0.4,0.5
2024-10-04T1900,3038A,103.3758,23.368,红河哈尼族彝族自治州,州图书馆,,23,19,16,16,15,56,,65,64,6,4,10,6,0.4,0.4
2024-10-04T1900,1090A,111.6507,40.7517,呼和浩特市,呼市一监,颗粒物(PM10),60,70,52,25,22,102,,125,125,30,34,9,8,0.7,0.6
2024-10-04T1900,1091A,111.6572,40.8033,呼和浩特市,小召,颗粒物(PM10),53,56,52,29,24,109,,115,115,29,44,10,10,0.7,0.6
2024-10-04T1900,1094A,111.7516,40.8369,呼和浩特市,如意水处理厂,颗粒物(PM10),58,66,58,26,22,80,,114,113,53,47,10,9,0.7,0.5
2024-10-04T1900,1095A,111.7276,40.8062,呼和浩特市,二十九中,颗粒物(PM10),55,60,53,31,23,120,,122,122,29,46,9,8,0.7,0.6
2024-10-04T1900,1096A,111.5512,40.7866,呼和浩特市,工大金川校区,颗粒物(PM10),57,63,61,30,24,81,,118,118,54,52,5,7,0.8,0.6
2024-10-04T1900,1097A,111.717,40.7612,呼和浩特市,化肥厂生活区,颗粒物(PM10),68,86,60,33,21,82,,104,104,50,43,10,9,0.8,0.5
2024-10-04T1900,3698A,111.5968,40.8178,呼和浩特市,红旗小学,颗粒物(PM10),65,80,69,30,25,84,,119,119,59,55,6,7,0.6,0.5
2024-10-04T1900,3699A,111.6518,40.8389,呼和浩特市,海东办,颗粒物(PM10),60,70,62,26,26,100,,122,122,42,52,7,6,0.7,0.7
2024-10-04T1900,2192A,119.7594,49.2261,呼伦贝尔市,区环保局,,44,44,29,23,17,57,,92,87,18,12,6,6,0.2,0.2
2024-10-04T1900,3061A,119.7512,49.1577,呼伦贝尔市,国华电力东,,32,32,24,19,13,66,,98,93,10,7,3,4,0.4,0.3
2024-10-04T1900,1250A,120.0751,30.8669,湖州市,城西水厂,,40,35,20,19,10,125,,134,134,23,16,5,6,0.7,0.6
2024-10-04T1900,2873A,120.0875,30.8955,湖州市,仁皇山新区,,40,39,19,23,10,127,,133,133,19,14,7,7,0.6,0.5
2024-10-04T1900,2907A,120.1844,30.8596,湖州市,吴兴区站,,38,25,19,15,9,121,,123,123,16,12,6,6,0.6,0.5
2024-10-04T1900,3562A,120.4148,30.8538,湖州市,南浔区站,,28,28,22,15,12,86,,106,106,18,15,3,3,0.4,0.4
2024-10-04T1900,1607A,120.9092,40.7136,葫芦岛市,龙港区,臭氧1小时,73,38,32,24,19,178,,165,165,10,15,14,14,0.6,0.7
2024-10-04T1900,1608A,120.8392,40.7514,葫芦岛市,化工街,臭氧1小时,60,61,61,22,27,168,,159,159,17,34,17,27,0.6,0.7
2024-10-04T1900,1609A,120.8341,40.7073,葫芦岛市,新区,臭氧1小时,78,44,37,27,27,182,,169,169,16,27,12,12,0.6,0.7
2024-10-04T1900,1610A,120.8695,40.7677,葫芦岛市,东城区,臭氧1小时,54,43,55,31,33,163,,154,154,24,38,13,22,0.6,0.7
2024-10-04T1900,2482A,109.5981,27.5721,怀化市,林科所,,41,34,32,13,14,131,,128,128,12,13,8,11,0.7,0.7
2024-10-04T1900,2483A,109.9453,27.5444,怀化市,河西地税局,,48,48,46,27,23,125,,128,128,13,11,10,14,0.5,0.6
2024-10-04T1900,2484A,109.9781,27.5342,怀化市,市四医院,颗粒物(PM10),52,53,56,24,29,124,,125,125,6,8,7,26,0.5,0.5
2024-10-04T1900,2485A,109.9972,27.5578,怀化市,监测楼,,47,47,53,24,27,126,,132,132,12,11,10,33,0.5,0.4
2024-10-04T1900,2486A,110.0394,27.583,怀化市,市委党校,,48,48,61,21,30,123,,127,127,12,12,10,48,0.3,0.4
2024-10-04T1900,1210A,119.036,33.5981,淮安市,钵池山,,29,19,32,16,22,92,,109,108,12,19,4,5,0.5,0.6
2024-10-04T1900,1211A,119.007,33.575,淮安市,北京南路,,34,34,47,16,24,90,,110,109,19,31,6,7,0.4,0.5
2024-10-04T1900,1212A,118.989,33.6067,淮安市,市监测站,,33,17,37,9,27,103,,117,116,16,31,7,8,0.4,0.5
2024-10-04T1900,1213A,119.135,33.5039,淮安市,楚州区监测站,,37,37,43,20,27,79,,111,106,25,34,6,7,0.5,0.6
2024-10-04T1900,1214A,119.0186,33.6297,淮安市,淮阴区监测站,,36,36,45,19,25,89,,114,112,28,41,2,3,0,0.3
2024-10-04T1900,3426A,118.8755,33.2894,淮安市,新华书店,,30,30,44,11,25,96,,118,116,23,31,8,10,0.6,0.6
2024-10-04T1900,2282A,116.8004,33.975,淮北市,监测站,,31,26,42,11,22,99,,127,124,18,16,7,9,0.6,0.6
2024-10-04T1900,2283A,116.8091,33.9007,淮北市,烈山区政府,,41,41,46,11,23,101,,131,128,19,20,5,7,0.2,0.4
2024-10-04T1900,3330A,116.8873,33.9836,淮北市,杜集区检察院,,35,32,55,7,26,111,,137,134,12,15,8,9,0.4,0.5
2024-10-04T1900,4017A,116.7923,33.9535,淮北市,市博物馆,,34,32,45,7,26,107,,133,130,19,23,9,11,0.5,0.6
2024-10-04T1900,2277A,116.8305,32.7727,淮南市,潘集区政府,颗粒物(PM10),78,106,54,31,31,83,,126,123,40,22,7,9,0.3,0.4
2024-10-04T1900,2278A,117.0067,32.6524,淮南市,师范学院,,43,38,39,30,24,106,,127,126,21,15,7,7,0.4,0.5
2024-10-04T1900,2279A,116.8569,32.5951,淮南市,谢家集区政府,,35,19,30,13,17,112,,120,120,18,17,9,9,0.3,0.4
2024-10-04T1900,2280A,116.8281,32.633,淮南市,八公山区政府,,43,43,38,8,18,113,,124,124,16,16,8,10,0.3,0.4
2024-10-04T1900,2281A,116.6325,32.6201,淮南市,焦岗湖风景区管理处,,34,22,30,6,17,106,,113,112,12,14,7,7,0,0.1
2024-10-04T1900,2894A,117.0566,32.6531,淮南市,经济技术开发区消防队,,34,31,45,13,20,107,,125,124,17,17,5,8,0.3,0.5
2024-10-04T1900,3329A,117.0108,32.5893,淮南市,山南新区,,39,32,33,3,12,122,,130,130,19,16,3,4,0.3,0.4
2024-10-04T1900,2446A,114.9028,30.4742,黄冈市,职工中心,,42,41,33,24,20,133,,132,132,17,14,8,8,0.5,0.5
2024-10-04T1900,2929A,114.8858,30.4519,黄冈市,红卫路,,41,37,30,21,18,131,,133,133,16,14,7,7,0.6,0.5
2024-10-04T1900,3398A,114.9136,30.4445,黄冈市,市林业局,,44,41,42,20,19,140,,136,136,8,10,8,9,0.5,0.5
2024-10-04T1900,2672A,102.0199,35.5102,黄南藏族自治州,同仁县隆务镇,颗粒物(PM10),56,61,49,22,25,76,,96,96,8,4,8,9,0.5,0.5
2024-10-04T1900,2295A,118.2903,29.6963,黄山市,延安路89号,,40,40,25,8,10,95,,109,108,10,6,7,6,0.3,0.2
2024-10-04T1900,2296A,118.327,29.7178,黄山市,黄山东路89号,,,37,26,24,11,102,,107,107,7,6,,5,0.3,0.3
2024-10-04T1900,2297A,118.1371,30.2756,黄山市,黄山区政府5号楼,颗粒物(PM10),58,65,33,33,19,80,,111,108,13,8,7,7,0.5,0.4
2024-10-04T1900,2423A,115.0601,30.2313,黄石市,沈家营,,42,23,27,19,13,133,,138,138,12,15,9,13,0.5,0.5
2024-10-04T1900,2424A,115.0817,30.2006,黄石市,陈家湾,,42,36,31,20,17,134,,139,139,9,18,9,14,0.4,0.7
2024-10-04T1900,2426A,114.8988,30.2019,黄石市,铁山,,40,33,29,19,14,126,,148,148,18,14,9,11,0.3,0.4
2024-10-04T1900,2427A,115.0307,30.2092,黄石市,团城山,,42,33,32,16,13,134,,138,138,14,16,6,11,0.6,0.7
2024-10-04T1900,3149A,115.0235,30.1578,黄石市,笔架山北路,,43,23,28,7,12,135,,140,140,12,17,8,9,0.5,0.5
2024-10-04T1900,1392A,114.4183,23.0528,惠州市,河南岸金山湖子站,,29,29,33,14,15,91,,120,117,11,11,7,8,0.5,0.5
2024-10-04T1900,1393A,114.4053,23.0822,惠州市,下埔横江三路子站,,32,29,32,16,16,100,,128,125,10,11,13,12,0.6,0.6
2024-10-04T1900,1394A,114.4103,23.1142,惠州市,江北云山西路子站,,30,28,32,19,14,96,,128,125,8,10,5,7,0.6,0.5
2024-10-04T1900,1395A,114.4645,22.7833,惠州市,惠阳区承修路船湖子站,,40,40,38,19,16,90,,115,112,16,15,8,9,0.6,0.5
2024-10-04T1900,1396A,114.5317,22.7422,惠州市,大亚湾管委会子站,,31,31,31,18,15,98,,118,115,14,13,9,9,0.4,0.4
2024-10-04T1900,3314A,114.4338,22.8134,惠州市,惠阳秋长,,39,31,28,27,15,96,,116,114,11,9,6,7,0.5,0.7
2024-10-04T1900,3452A,114.6517,22.775,惠州市,大亚湾霞涌,,,,36,,18,69,,111,104,16,8,6,7,0.6,0.8
2024-10-04T1900,2240A,130.9762,45.3001,鸡西市,环保局,颗粒物(PM10),55,60,62,20,23,5,,75,64,70,24,9,6,1.1,0.5
2024-10-04T1900,2243A,130.9429,45.3039,鸡西市,第一中学,,27,27,38,13,13,60,,88,87,25,21,5,5,0.1,0.1
2024-10-04T1900,3707A,131.0207,45.3073,鸡西市,欧美日汽修厂,,,,59,,27,7,,78,70,66,28,,8,0.6,0.3
2024-10-04T1900,3709A,130.9967,45.3106,鸡西市,市政设施管理处,颗粒物(PM10),62,74,62,28,20,7,,80,70,71,32,8,7,0.5,0.3
2024-10-04T1900,2367A,114.9754,27.0803,吉安市,红声器材厂,,42,31,38,13,14,133,,132,132,18,17,10,12,0.5,0.5
2024-10-04T1900,2368A,114.9658,27.0999,吉安市,市森林工业局,,41,37,36,14,16,131,,129,129,14,17,10,14,0.6,0.7
2024-10-04T1900,2369A,114.99,27.1312,吉安市,市环境监测站,,42,30,34,13,16,132,,131,131,18,15,14,17,0.3,0.4
2024-10-04T1900,2370A,115.0093,27.0968,吉安市,青原区法院,,42,32,36,15,16,133,,132,132,17,17,13,15,0.4,0.5
2024-10-04T1900,1772A,126.54,43.8622,吉林市,哈达湾,,40,33,27,28,17,87,,105,103,28,23,9,7,0.7,0.6
2024-10-04T1900,1773A,126.5844,43.8358,吉林市,东局子,,34,34,22,12,11,56,,105,97,47,22,6,5,0.7,0.5
2024-10-04T1900,1774A,126.5052,43.8245,吉林市,电力学院,颗粒物(PM10),91,132,36,55,22,30,,103,94,63,23,7,6,1.2,0.7
2024-10-04T1900,1775A,126.6133,43.8972,吉林市,江北,颗粒物(PM10),56,62,23,23,11,54,,99,93,39,14,7,8,0.8,0.4
2024-10-04T1900,1776A,126.555,43.8306,吉林市,江南公园,颗粒物(PM10),51,52,25,28,15,74,,106,103,37,22,8,7,0.8,0.6
2024-10-04T1900,1778A,126.7061,43.7133,吉林市,丰满,,24,13,10,13,8,76,,90,89,6,5,6,6,0.1,0.3
2024-10-04T1900,2868A,126.4739,43.953,吉林市,九站,,30,28,31,12,15,94,,102,102,26,23,7,8,0.7,0.6
2024-10-04T1900,1299A,116.9862,36.6114,济南市,科干所,颗粒物(PM10),52,53,40,29,19,156,,166,166,21,26,8,8,0.6,0.6
2024-10-04T1900,1300A,116.9376,36.665,济南市,农科所,颗粒物(PM10),56,61,52,34,23,120,,145,144,39,43,6,6,0.8,0.8
2024-10-04T1900,1301A,117.1265,36.6734,济南市,开发区,"颗粒物(PM10),细颗粒物(PM2.5)",64,78,41,46,23,116,,152,150,42,35,5,5,0.6,0.5
2024-10-04T1900,1303A,117.0624,36.6868,济南市,省种子仓库,颗粒物(PM10),53,56,52,31,21,123,,159,157,34,42,4,4,0.3,0.3
2024-10-04T1900,1304A,116.9489,36.6447,济南市,机床二厂,颗粒物(PM10),55,59,58,24,23,137,,154,154,38,47,5,7,0.8,0.7
2024-10-04T1900,1305A,117.0495,36.663,济南市,市监测站,颗粒物(PM10),55,59,44,34,21,128,,160,158,40,48,5,5,0.7,0.6
2024-10-04T1900,1306A,116.7675,36.5484,济南市,长清党校,"颗粒物(PM10),臭氧1小时",59,68,46,29,20,167,,171,171,26,33,9,8,0.7,0.6
2024-10-04T1900,1616A,117.6795,36.229,济南市,技术学院,"颗粒物(PM10),细颗粒物(PM2.5)",64,78,55,46,32,133,,156,156,33,40,14,11,1.3,0.8
2024-10-04T1900,1961A,117.532,36.6868,济南市,东山小学,颗粒物(PM10),57,63,39,29,17,120,,154,152,46,33,5,5,0.5,0.4
2024-10-04T1900,3059A,117.7161,36.2049,济南市,泰兴公司,颗粒物(PM10),67,83,57,39,31,98,,152,149,54,46,9,10,0.5,0.6
2024-10-04T1900,3064A,117.6867,36.2171,济南市,莱芜战役纪念馆,颗粒物(PM10),70,90,66,44,30,121,,150,150,43,45,10,8,0.8,0.8
2024-10-04T1900,3494A,117.1673,36.9782,济南市,济阳区政府,颗粒物(PM10),67,83,60,34,23,127,,158,158,39,47,5,4,0.5,0.4
2024-10-04T1900,3495A,117.1171,36.63,济南市,锦屏中学,,46,46,27,27,16,119,,154,152,27,19,5,6,0.5,0.3
2024-10-04T1900,3682A,116.9814,36.6819,济南市,济南四建,颗粒物(PM10),51,51,45,27,24,148,,153,153,24,47,3,4,0.4,0.6
2024-10-04T1900,1653A,116.6251,35.4302,济宁市,火炬城,,46,43,45,29,33,145,,158,158,20,23,10,10,0.6,0.6
2024-10-04T1900,1655A,116.5491,35.4042,济宁市,电化厂,颗粒物(PM10),51,51,72,27,37,141,,152,152,23,42,10,9,0.7,0.8
2024-10-04T1900,3500A,116.5814,35.3707,济宁市,北湖一中,,47,43,49,24,35,148,,164,164,20,31,7,7,0.4,0.5
2024-10-04T1900,3501A,116.8249,35.5593,济宁市,服务中心,颗粒物(PM10),55,60,67,24,33,122,,150,150,31,46,8,9,0.6,0.6
2024-10-04T1900,3678A,116.5907,35.4054,济宁市,市第七中学,,44,37,57,19,38,138,,151,151,21,32,9,10,0.7,0.7
2024-10-04T1900,2255A,130.2751,46.8028,佳木斯市,佳纺,,24,19,22,12,10,75,,102,100,16,8,3,3,0.5,0.4
2024-10-04T1900,2256A,130.3995,46.8307,佳木斯市,发电厂,颗粒物(PM10),57,64,23,27,13,79,,97,94,22,13,8,6,0.5,0.3
2024-10-04T1900,2257A,130.3258,46.7975,佳木斯市,环保局,,29,27,19,12,9,92,,99,99,9,6,8,8,0.4,0.3
2024-10-04T1900,2258A,130.3648,46.8032,佳木斯市,十一中,,34,34,22,11,11,83,,95,93,25,16,7,7,0.5,0.4
2024-10-04T1900,2259A,130.3794,46.7588,佳木斯市,四丰,,28,14,13,6,7,87,,100,99,9,7,1,1,0.2,0.1
2024-10-04T1900,1252A,120.7436,30.778,嘉兴市,清河小学,,30,30,22,10,8,78,,108,106,28,22,4,4,0.7,0.7
2024-10-04T1900,1253A,120.726,30.7478,嘉兴市,嘉兴学院,,28,27,25,14,12,87,,109,108,21,16,3,4,0.3,0.4
2024-10-04T1900,2872A,120.7846,30.7525,嘉兴市,南湖区残联,,32,30,23,22,12,91,,114,114,17,15,5,6,0.3,0.3
2024-10-04T1900,3407A,120.6916,30.7739,嘉兴市,秀洲住建,,36,36,25,16,12,78,,109,107,26,18,6,7,0.3,0.3
2024-10-04T1900,1945A,98.2908,39.7711,嘉峪关市,气象局,颗粒物(PM10),57,63,58,22,20,125,,128,128,20,23,8,12,0.5,0.5
2024-10-04T1900,2884A,98.2672,39.7978,嘉峪关市,酒钢宾馆,颗粒物(PM10),57,63,60,19,18,128,,125,125,13,23,30,35,0.5,0.6
2024-10-04T1900,3248A,98.2643,39.7724,嘉峪关市,雄关区,颗粒物(PM10),51,51,49,26,18,128,,124,124,11,28,10,12,0.3,0.4
2024-10-04T1900,1383A,113.1064,22.6058,江门市,北街,臭氧1小时,84,46,37,24,17,187,,176,176,21,19,9,7,0.8,0.7
2024-10-04T1900,1384A,113.0731,22.5835,江门市,西区,臭氧1小时,74,59,40,50,16,179,,179,179,25,17,10,8,0.5,0.4
2024-10-04T1900,1385A,113.0219,22.5311,江门市,圭峰西,臭氧1小时,85,50,34,27,17,188,,170,170,22,18,7,5,0.8,0.7
2024-10-04T1900,1386A,113.0828,22.5947,江门市,东湖,臭氧1小时,73,44,32,38,18,178,,176,176,23,18,8,6,0.6,0.4
2024-10-04T1900,3311A,113.1075,22.5647,江门市,江海富民,臭氧1小时,90,51,42,16,16,192,,176,176,23,20,10,8,0.5,0.4
2024-10-04T1900,3449A,113.05,22.4667,江门市,新会银湖,臭氧1小时,77,59,36,32,18,181,,175,175,27,18,9,8,0.7,0.6
2024-10-04T1900,1828A,113.227,35.2125,焦作市,市环保局,颗粒物(PM10),61,71,58,27,33,144,,152,152,28,24,6,7,0.2,0.2
2024-10-04T1900,1830A,113.1992,35.2590,焦作市,影视城,,50,46,47,31,35,159,,162,162,13,10,6,7,0.3,0.4
2024-10-04T1900,3169A,113.2725,35.2067,焦作市,太极体育中心,,49,49,68,27,25,135,,144,144,34,28,6,10,0.2,0.2
2024-10-04T1900,3335A,113.3137,35.2641,焦作市,马村街道办,颗粒物(PM10),64,78,59,33,31,125,,150,150,38,22,6,6,0.3,0.2
2024-10-04T1900,3336A,113.2465,35.2373,焦作市,焦作技师学院,颗粒物(PM10),60,69,60,39,32,141,,150,150,24,20,4,4,0.5,0.4
2024-10-04T1900,3477A,113.1656,35.2539,焦作市,中站许衡医院,颗粒物(PM10),62,74,48,41,30,149,,154,154,16,21,5,4,0.4,0.4
2024-10-04T1900,3981A,113.2449,35.1803,焦作市,原李万街道办,颗粒物(PM10),69,87,67,42,34,138,,152,152,26,20,4,8,0.3,0.3
2024-10-04T1900,1708A,116.3701,23.5345,揭阳市,新兴,,25,20,25,17,15,76,,89,85,8,10,5,5,0.5,0.5
2024-10-04T1900,1709A,116.3264,23.5443,揭阳市,西马,,35,35,28,18,16,79,,94,89,5,6,5,6,0.6,0.5
2024-10-04T1900,1710A,116.3611,23.5626,揭阳市,东兴,,26,19,28,18,15,77,,88,84,9,11,4,5,0.7,0.6
2024-10-04T1900,1711A,116.4151,23.5294,揭阳市,渔湖,,30,30,25,15,15,77,,89,85,12,12,9,8,0.5,0.5
2024-10-04T1900,3320A,116.403,23.5699,揭阳市,曲溪,,25,25,24,14,15,73,,88,83,15,15,2,2,0.5,0.4
2024-10-04T1900,1944A,102.1692,38.5167,金昌市,天庆家园,,41,41,50,16,24,112,,126,126,18,27,43,33,0.5,0.5
2024-10-04T1900,3170A,102.1864,38.5253,金昌市,市委党校,颗粒物(PM10),54,58,62,25,26,115,,125,125,18,29,16,23,0.8,0.7
2024-10-04T1900,4022A,102.1647,38.5371,金昌市,金川区人防中心,,49,49,70,32,25,110,,128,128,26,31,10,23,0.7,0.6
2024-10-04T1900,1262A,119.647,29.077,金华市,十五中,,37,36,36,15,16,116,,127,127,20,25,2,2,0.4,0.4
2024-10-04T1900,1263A,119.686,29.1029,金华市,监测站,,39,39,36,20,19,106,,123,123,21,24,3,3,0.5,0.5
2024-10-04T1900,3659A,119.656,29.1131,金华市,气象局,,34,34,35,14,20,103,,122,121,31,30,4,4,0.3,0.4
2024-10-04T1900,1767A,121.1115,41.0879,锦州市,南山,细颗粒物(PM2.5),67,,43,48,38,145,,142,142,24,38,12,12,0.8,0.9
2024-10-04T1900,1768A,121.0533,40.8434,锦州市,开发区,颗粒物(PM10),70,90,97,35,36,155,,144,144,28,59,9,16,0.7,1.1
2024-10-04T1900,1769A,121.1836,41.1119,锦州市,百股街道,,49,44,41,34,26,154,,146,146,20,27,16,15,1.0,1
2024-10-04T1900,1770A,121.1178,41.1222,锦州市,天安街道,细颗粒物(PM2.5),63,57,52,45,39,145,,144,144,24,40,13,19,0.8,1
2024-10-04T1900,1771A,121.1303,41.1386,锦州市,北湖公园,细颗粒物(PM2.5),57,58,46,40,39,157,,154,154,24,34,13,22,0.8,1
2024-10-04T1900,2160A,112.85,35.5051,晋城市,自来水公司,,50,50,64,34,32,159,,156,156,27,36,13,11,0.6,0.8
2024-10-04T1900,2161A,112.8318,35.4936,晋城市,白云商贸,颗粒物(PM10),53,55,69,31,29,155,,153,153,30,39,8,7,0.6,0.8
2024-10-04T1900,2162A,112.8508,35.4887,晋城市,市环保局,颗粒物(PM10),59,68,72,29,31,155,,154,154,30,41,9,7,0.6,0.8
2024-10-04T1900,2163A,112.8676,35.4897,晋城市,技术学院,颗粒物(PM10),57,64,65,24,33,160,,156,156,30,43,10,8,0.6,0.8
2024-10-04T1900,3620A,112.8271,35.4828,晋城市,泽州一中,颗粒物(PM10),56,62,53,29,28,148,,148,148,33,36,9,10,0.7,0.8
2024-10-04T1900,2171A,112.7532,37.6945,晋中市,锦纶小区,颗粒物(PM10),71,92,56,39,26,112,,150,150,48,24,9,8,0.7,0.5
2024-10-04T1900,2173A,112.7249,37.7067,晋中市,南都小区,颗粒物(PM10),76,101,57,41,28,121,,151,150,39,27,10,8,0.8,0.6
2024-10-04T1900,2174A,112.6991,37.6982,晋中市,榆次区政府,颗粒物(PM10),81,112,55,40,23,118,,152,152,41,27,11,8,0.6,0.4
2024-10-04T1900,2865A,112.7195,37.6828,晋中市,榆次三中,颗粒物(PM10),73,95,60,46,24,125,,151,151,33,27,12,11,0.6,0.5
2024-10-04T1900,2439A,112.2014,31.0481,荆门市,竹园小学,颗粒物(PM10),55,59,54,27,25,133,,156,156,30,30,13,12,0.4,0.5
2024-10-04T1900,2440A,112.1969,30.9891,荆门市,掇刀,颗粒物(PM10),56,62,58,38,33,146,,164,164,32,29,11,14,0.6,0.6
2024-10-04T1900,2441A,112.2213,31.0386,荆门市,石化一小,颗粒物(PM10),53,56,59,32,27,141,,157,157,24,36,8,19,0.4,0.5
2024-10-04T1900,3012A,112.1849,31.0362,荆门市,西山林语,,50,50,45,22,24,143,,160,160,22,21,9,10,0.5,0.5
2024-10-04T1900,3547A,112.1632,31.0138,荆门市,龙泉中学南校,颗粒物(PM10),53,55,49,34,27,152,,164,164,24,26,11,11,0.5,0.5
2024-10-04T1900,1844A,112.2494,30.3197,荆州市,市图书馆,,,36,48,21,31,145,,150,150,25,24,,11,0.5,0.5
2024-10-04T1900,1845A,112.2008,30.3544,荆州市,市委党校,,47,31,43,23,30,150,,153,153,22,18,8,8,0.5,0.4
2024-10-04T1900,3194A,112.2747,30.3122,荆州市,管委会,,45,36,43,22,33,141,,153,153,27,26,10,11,0.7,0.6
2024-10-04T1900,3548A,112.1655,30.3364,荆州市,学苑路,,,40,52,21,28,160,,162,162,,18,6,9,,0.6
2024-10-04T1900,2343A,117.2117,29.2933,景德镇市,老干部活动中心,,30,22,20,21,13,81,,100,98,9,8,8,9,0.4,0.3
2024-10-04T1900,2344A,117.1894,29.2789,景德镇市,兽医站,,39,39,27,12,11,87,,104,103,6,5,7,8,0.3,0.2
2024-10-04T1900,2345A,117.1547,29.2617,景德镇市,台达陶瓷,,28,28,20,16,11,62,,104,99,42,11,27,10,0.9,0.4
2024-10-04T1900,2346A,117.2461,29.2956,景德镇市,陶研所,,25,25,25,6,12,76,,109,105,14,12,6,6,0.4,0.3
2024-10-04T1900,1803A,115.9872,29.6815,九江市,十里,,41,32,35,12,16,129,,132,132,18,16,10,10,0.5,0.5
2024-10-04T1900,1804A,115.9584,29.7046,九江市,茅山头,,38,38,27,12,15,121,,122,122,17,15,13,10,0.7,0.6
2024-10-04T1900,1805A,115.9877,29.7295,九江市,西园,,40,30,27,21,18,126,,134,134,19,16,10,10,0.5,0.4
2024-10-04T1900,1806A,116.0172,29.6547,九江市,五七二七厂,,36,26,32,21,20,114,,122,122,12,14,10,11,0.6,0.6
2024-10-04T1900,1808A,115.9114,29.6038,九江市,综合工业园,,43,33,32,20,23,136,,132,132,14,16,9,13,0.4,0.4
2024-10-04T1900,1809A,116.0721,29.7535,九江市,石化总厂,,40,40,34,21,22,113,,122,122,22,16,9,9,0.6,0.6
2024-10-04T1900,1810A,115.9773,29.5698,九江市,庐山气象台,颗粒物(PM10),51,52,29,26,19,144,,131,131,6,5,6,7,0.7,0.7
2024-10-04T1900,3190A,116.0254,29.6994,九江市,外国语学校,,36,31,32,18,20,113,,118,118,19,17,9,10,0.4,0.4
2024-10-04T1900,2658A,98.5061,39.7443,酒泉市,仓门街子站,颗粒物(PM10),53,56,53,20,23,124,,119,119,9,13,5,5,0.5,0.4
2024-10-04T1900,2659A,98.4989,39.7256,酒泉市,油田生活基地,,,,61,,23,129,,124,124,,18,,6,,0.3
2024-10-04T1900,2698A,76.0072,39.4467,喀什地区,巡警大队,,,60,101,6,19,110,,99,99,,39,,5,0.3,0.6
2024-10-04T1900,2699A,75.9755,39.4694,喀什地区,吾办,颗粒物(PM10),53,56,108,16,34,112,,99,99,13,38,4,4,0.4,0.7
2024-10-04T1900,4027A,75.9483,39.4689,喀什地区,老干局,颗粒物(PM10),53,56,143,3,22,105,,96,96,8,33,5,5,0.4,0.6
2024-10-04T1900,1824A,114.3389,34.7781,开封市,肿瘤医院,颗粒物(PM10),51,52,73,31,48,136,,154,154,21,27,1,4,0.4,0.4
2024-10-04T1900,1826A,114.2885,34.7965,开封市,世纪星幼儿园,,,50,62,21,40,121,,158,156,23,26,1,9,,0.6
2024-10-04T1900,3147A,114.3438,34.8106,开封市,龙亭公园,颗粒物(PM10),52,54,68,24,44,147,,157,157,21,28,6,8,0.5,0.5
2024-10-04T1900,3210A,114.3644,34.7964,开封市,汴京公园,颗粒物(PM10),57,63,73,20,42,114,,142,141,18,25,3,5,0.3,0.3
2024-10-04T1900,3473A,114.2485,34.8306,开封市,技师学院,,47,38,56,21,34,150,,156,156,13,16,4,6,0.3,0.3
2024-10-04T1900,3592A,114.4644,34.7556,开封市,祥符区生态环境局,颗粒物(PM10),64,77,80,40,45,97,,144,140,57,44,8,8,0.4,0.4
2024-10-04T1900,1951A,84.895,45.6094,克拉玛依市,长征新村,,30,27,28,7,5,96,,89,89,5,4,6,6,0.1,0.1
2024-10-04T1900,1952A,84.8988,45.5893,克拉玛依市,南林小区,,31,31,28,7,16,95,,89,89,9,6,2,2,0.1,0.2
2024-10-04T1900,1954A,84.905,44.3396,克拉玛依市,独山子区,,36,31,27,16,13,115,,100,100,10,18,17,10,0.4,0.4
2024-10-04T1900,1955A,85.6979,46.098,克拉玛依市,乌尔禾区商贸楼,,28,14,32,8,8,88,,83,83,5,10,3,2,0.2,0.2
2024-10-04T1900,3612A,85.1045,45.6899,克拉玛依市,白碱滩区新站,,32,32,32,8,10,97,,91,91,7,7,8,8,0.1,0.1
2024-10-04T1900,2697A,76.1454,39.7142,克孜勒苏柯尔克孜自治州,市人民政府,,49,49,54,15,19,125,,116,115,3,9,3,17,0.7,0.8
2024-10-04T1900,3665A,76.1658,39.7157,克孜勒苏柯尔克孜自治州,克州文化中心,,39,33,41,14,14,124,,122,113,5,7,5,13,0.6,0.6
2024-10-04T1900,1450A,102.8204,24.8886,昆明市,呈贡新区,,22,22,27,13,16,51,,56,56,11,10,4,5,0.6,0.6
2024-10-04T1900,1452A,102.7252,25.0902,昆明市,龙泉镇,,19,19,22,8,14,44,,49,49,16,14,6,7,0.7,0.7
2024-10-04T1900,1453A,102.7266,25.0375,昆明市,东风东路,,20,20,23,13,15,41,,50,50,18,11,6,6,0.5,0.5
2024-10-04T1900,1454A,102.6742,25.0669,昆明市,金鼎山,,18,18,23,3,13,47,,51,51,18,16,3,3,0.6,0.5
2024-10-04T1900,1455A,102.6644,25.0401,昆明市,碧鸡广场,,21,21,26,9,15,40,,48,48,21,18,6,7,0.5,0.5
2024-10-04T1900,3179A,102.7494,25.0119,昆明市,官渡区博物馆,,19,19,24,9,13,50,,58,58,11,10,7,7,0.5,0.5
2024-10-04T1900,3375A,102.8017,24.8336,昆明市,青年创业园,,19,15,22,13,16,49,,57,56,12,9,4,5,0.6,0.5
2024-10-04T1900,3550A,102.7997,24.9786,昆明市,昆明学院,,16,12,25,8,17,49,,59,59,12,10,6,7,0.5,0.5
2024-10-04T1900,3551A,102.5967,24.6736,昆明市,晋宁区生态环境分局,,16,12,23,9,16,49,,59,59,7,7,2,2,0.7,0.7
2024-10-04T1900,3552A,102.6678,24.9856,昆明市,云天化总部,,16,13,23,10,17,49,,59,59,12,9,5,6,0.5,0.4
2024-10-04T1900,1456A,91.1319,29.6514,拉萨市,八廓街,,20,10,13,3,7,62,,74,74,11,13,8,7,0.2,0.1
2024-10-04T1900,1457A,91.1221,29.6747,拉萨市,市环保局,,22,12,14,3,6,70,,76,76,8,9,6,6,0.2,0.2
2024-10-04T1900,1458A,91.0874,29.6475,拉萨市,区监测站,,21,12,10,6,6,65,,72,68,7,9,6,6,0.3,0.3
2024-10-04T1900,1459A,91.1774,29.6541,拉萨市,西藏大学,,22,6,12,3,6,69,,75,75,2,8,6,7,0.2,0.4
2024-10-04T1900,1460A,90.9798,29.6588,拉萨市,区辐射站,,20,11,14,3,6,61,,68,68,10,12,8,9,0.2,0.2
2024-10-04T1900,1461A,91.0834,29.6292,拉萨市,拉萨火车站,,19,13,12,6,5,58,,72,66,10,7,6,6,0.3,0.3
2024-10-04T1900,2520A,109.2203,23.7256,来宾市,来宾技工学校,颗粒物(PM10),55,60,57,29,29,149,,150,150,13,13,10,11,0.7,0.7
2024-10-04T1900,3535A,109.1781,23.7297,来宾市,兴宾区政府,颗粒物(PM10),52,54,54,29,29,155,,154,154,12,11,11,10,0.6,0.9
2024-10-04T1900,4002A,109.2416,23.7461,来宾市,中南小学,"颗粒物(PM10),细颗粒物(PM2.5)",62,73,63,44,25,143,,158,158,14,10,12,12,0.8,0.8
2024-10-04T1900,1476A,103.631,36.1031,兰州市,兰炼宾馆,,48,48,44,26,28,83,,102,102,38,27,11,11,0.6,0.4
2024-10-04T1900,1478A,103.8412,36.0726,兰州市,生物制品所,,43,43,35,28,26,73,,88,88,36,25,21,11,0.8,0.5
2024-10-04T1900,1479A,103.831,36.0464,兰州市,铁路设计院,颗粒物(PM10),61,72,42,33,28,20,,77,76,94,31,8,7,0.9,0.6
2024-10-04T1900,3186A,103.7158,36.1058,兰州市,教育港,颗粒物(PM10),51,51,47,29,27,86,,96,96,34,22,13,9,0.6,0.5
2024-10-04T1900,3241A,103.7439,36.0842,兰州市,百合公园,,38,38,36,23,20,77,,94,94,30,23,13,8,0.7,0.5
2024-10-04T1900,3242A,103.9611,35.998,兰州市,和平,,43,43,38,17,19,80,,93,93,30,19,10,9,0.5,0.5
2024-10-04T1900,3245A,103.6633,36.533,兰州新区,新区管委会,,45,45,43,27,24,113,,104,104,13,17,9,14,0.5,0.5
2024-10-04T1900,3246A,103.6975,36.4789,兰州新区,舟曲中学,,35,34,38,16,20,109,,106,106,21,19,10,25,0.4,0.4
2024-10-04T1900,1067A,116.6708,39.5111,廊坊市,药材公司,颗粒物(PM10),67,83,86,46,55,118,,138,138,23,34,6,7,0.5,0.5
2024-10-04T1900,1068A,116.7214,39.5589,廊坊市,开发区,颗粒物(PM10),61,72,76,36,45,112,,140,140,25,30,4,6,0.5,0.5
2024-10-04T1900,1070A,116.7244,39.5269,廊坊市,北华航天学院,颗粒物(PM10),63,76,80,33,41,126,,146,146,27,31,4,7,0.4,0.5
2024-10-04T1900,2919A,116.7022,39.5453,廊坊市,河北工业大学,"颗粒物(PM10),细颗粒物(PM2.5)",65,79,76,47,51,126,,141,141,28,31,6,9,0.5,0.5
2024-10-04T1900,2535A,103.7723,29.5462,乐山市,花湖湾,,27,27,21,17,12,49,,52,52,15,11,2,2,0.6,0.6
2024-10-04T1900,2536A,103.7627,29.5844,乐山市,牛耳桥,,33,33,21,21,15,39,,57,56,28,18,4,4,0.5,0.4
2024-10-04T1900,2537A,103.7508,29.6006,乐山市,市第三水厂,,33,33,23,16,18,57,,61,61,20,13,3,3,0.6,0.5
2024-10-04T1900,2538A,103.7571,29.5664,乐山市,市监测站,,26,26,22,15,14,43,,57,57,17,13,3,3,0.5,0.4
2024-10-04T1900,3361A,103.7311,29.5628,乐山市,理工大学,,35,30,21,24,17,45,,56,56,19,13,2,3,0.4,0.5
2024-10-04T1900,2599A,100.2497,26.8802,丽江市,丽江古城,,25,20,21,17,17,35,,43,42,15,10,9,9,0.6,0.7
2024-10-04T1900,2600A,100.2203,26.8906,丽江市,市中心,,16,14,15,11,12,30,,34,34,12,8,6,6,0.9,0.8
2024-10-04T1900,1267A,119.914,28.4514,丽水市,监测站大楼,,40,37,23,28,15,87,,101,99,25,17,6,5,0.4,0.3
2024-10-04T1900,1268A,119.93,28.4586,丽水市,莲都小学,,46,46,25,25,12,94,,108,107,21,16,4,4,0.5,0.3
2024-10-04T1900,1269A,119.879,28.4231,丽水市,余庄前,,25,25,22,12,12,51,,100,93,10,9,4,4,0.3,0.2
2024-10-04T1900,1173A,119.176,34.5885,连云港市,市环境监测站,,45,34,39,17,23,144,,166,166,16,22,8,10,0.4,0.5
2024-10-04T1900,3000A,119.3581,34.6972,连云港市,德源药业,,35,34,37,14,18,109,,154,151,24,34,7,7,0.2,0.3
2024-10-04T1900,3007A,119.178,34.844,连云港市,新城一中,,50,40,43,13,27,160,,173,173,26,37,7,9,0.5,0.6
2024-10-04T1900,3008A,119.3608,34.7519,连云港市,胡沟管理处,,36,27,33,17,18,114,,158,157,17,18,2,4,0.3,0.4
2024-10-04T1900,3009A,119.1478,34.5911,连云港市,矿山设计院,,46,44,45,19,26,147,,164,164,15,28,7,9,0.7,0.7
2024-10-04T1900,3434A,119.2413,34.6539,连云港市,工贸学校,,41,23,27,14,18,130,,162,162,18,15,8,9,0.5,0.7
2024-10-04T1900,3664A,119.4172,34.7341,连云港市,连云街道,,38,13,27,6,12,120,,155,155,10,15,4,7,0.3,0.4
2024-10-04T1900,2571A,102.3431,27.8099,凉山彝族自治州,青龙寺,,13,12,19,6,10,41,,57,57,5,9,5,6,0.6,0.7
2024-10-04T1900,2572A,102.2721,27.8415,凉山彝族自治州,邛海宾馆,,22,22,22,15,17,42,,49,49,13,15,8,10,0.6,0.7
2024-10-04T1900,2573A,102.2625,27.898,凉山彝族自治州,西昌市政府,,29,26,28,20,22,33,,47,47,15,18,7,10,0.8,0.8
2024-10-04T1900,2574A,102.2685,27.8851,凉山彝族自治州,凉山州政府,,23,23,27,16,18,44,,51,51,12,18,6,9,0.7,0.8
2024-10-04T1900,2575A,102.237,27.8914,凉山彝族自治州,长安,,22,22,27,10,15,37,,43,43,14,19,12,11,0.8,0.8
2024-10-04T1900,2212A,123.2,41.1953,辽阳市,宏伟区,,46,46,29,15,13,101,,117,116,32,15,10,6,0.8,0.5
2024-10-04T1900,2213A,123.1683,41.2495,辽阳市,新华园,,39,39,34,18,18,107,,112,112,22,24,15,14,0.9,0.9
2024-10-04T1900,2214A,123.2354,41.2639,辽阳市,滨河路,,48,48,31,18,15,100,,112,111,25,16,14,12,0.9,0.8
2024-10-04T1900,2215A,123.149,41.2991,辽阳市,铁西工业园,颗粒物(PM10),53,55,42,22,17,87,,108,107,28,19,18,14,1.2,0.9
2024-10-04T1900,2227A,125.1358,42.8845,辽源市,环保局,,37,37,34,25,18,81,,129,125,30,20,9,9,1.0,0.8
2024-10-04T1900,3239A,125.0764,42.9078,辽源市,银鹰制药,颗粒物(PM10),52,54,34,25,19,55,,120,114,65,29,6,7,0.8,0.7
2024-10-04T1900,1625A,115.9848,36.4372,聊城市,区政府,颗粒物(PM10),68,85,69,34,35,133,,155,155,35,34,10,13,0.4,0.5
2024-10-04T1900,2878A,116.0072,36.4343,聊城市,聊大东校,颗粒物(PM10),69,88,73,33,39,134,,160,160,35,36,9,12,0.7,0.7
2024-10-04T1900,3200A,115.9819,36.4978,聊城市,监控中心,颗粒物(PM10),69,88,69,29,35,138,,155,155,29,32,9,12,0.6,0.6
2024-10-04T1900,3513A,116.0445,36.4361,聊城市,九州社区,颗粒物(PM10),64,78,67,24,31,132,,155,155,30,34,7,9,0.4,0.4
2024-10-04T1900,4018A,116.0567,36.4608,聊城市,星美广场,颗粒物(PM10),67,83,72,29,32,131,,158,157,26,27,6,10,0.4,0.5
2024-10-04T1900,2632A,94.3681,29.6376,林芝市,林芝监测站,,13,,2,3,4,39,,40,40,2,3,9,10,0.2,0.2
2024-10-04T1900,2633A,94.3616,29.6616,林芝市,林芝人民医院,,13,6,5,3,3,40,,40,40,6,6,6,5,0.3,0
2024-10-04T1900,2603A,100.0781,23.8982,临沧市,市环保局,,25,,12,17,12,34,,41,40,6,8,4,4,0.4,0.5
2024-10-04T1900,2604A,100.0894,23.8822,临沧市,市气象局,,12,9,12,8,10,31,,41,38,6,7,3,3,0.5,0.5
2024-10-04T1900,1733A,111.5531,36.0783,临汾市,临钢医院,颗粒物(PM10),77,103,73,45,29,43,,135,129,102,39,5,5,0.8,0.6
2024-10-04T1900,1734A,111.5028,36.0714,临汾市,技工学校,颗粒物(PM10),65,79,68,45,37,143,,147,147,34,33,6,6,0.6,0.6
2024-10-04T1900,1736A,111.5018,36.0855,临汾市,市委,颗粒物(PM10),73,95,68,39,29,137,,156,156,35,23,7,7,0.8,0.6
2024-10-04T1900,3018A,111.505,36.1014,临汾市,唐尧大酒店,颗粒物(PM10),72,94,66,47,32,122,,143,143,38,25,6,6,0.7,0.6
2024-10-04T1900,3668A,111.5036,36.0414,临汾市,城南,颗粒物(PM10),86,122,82,57,38,121,,155,155,37,35,7,7,0.6,0.6
2024-10-04T1900,2667A,103.2069,35.5993,临夏回族自治州,环保局,,42,42,36,20,18,87,,93,93,16,12,13,12,0.5,0.5
2024-10-04T1900,2668A,103.2417,35.6057,临夏回族自治州,建设大厦,,31,31,30,18,18,93,,97,97,15,13,3,4,0.5,0.4
2024-10-04T1900,1618A,118.3429,35.0532,临沂市,沂河小区,颗粒物(PM10),53,56,67,29,44,149,,153,153,16,35,8,17,0.4,0.6
2024-10-04T1900,1619A,118.295,35.0583,临沂市,鲁南制药厂,颗粒物(PM10),53,56,64,28,37,154,,161,161,19,38,8,16,0.5,0.6
2024-10-04T1900,1620A,118.2794,34.9976,临沂市,新光毛纺厂,颗粒物(PM10),56,61,70,28,43,140,,151,151,30,42,8,16,0.6,0.8
2024-10-04T1900,1621A,118.3956,35.0888,临沂市,河东保险公司,颗粒物(PM10),59,68,76,36,44,138,,162,162,44,48,9,10,0.8,0.9
2024-10-04T1900,3370A,118.3564,35.0215,临沂市,十里堡居委,颗粒物(PM10),52,53,59,31,38,151,,154,154,19,37,7,18,0.7,0.7
2024-10-04T1900,3496A,118.3604,35.1084,临沂市,南坊新区,颗粒物(PM10),54,58,69,29,42,149,,160,160,27,35,10,11,0.6,0.7
2024-10-04T1900,3860A,118.3920,35.0300,临沂市,皇山花园小区,颗粒物(PM10),57,63,74,36,46,138,,151,151,32,40,11,19,0.7,0.7
2024-10-04T1900,1870A,109.4856,24.3895,柳州市,柳东小学,颗粒物(PM10),58,65,51,29,28,134,,134,134,15,7,14,10,0.7,0.5
2024-10-04T1900,1871A,109.4157,24.3277,柳州市,环保监测站,,,53,58,27,28,135,,138,138,13,10,,11,0.7,0.6
2024-10-04T1900,1872A,109.389,24.341,柳州市,河西水厂,颗粒物(PM10),65,79,70,44,31,128,,138,138,14,21,10,20,0.7,1.4
2024-10-04T1900,1873A,109.4311,24.2921,柳州市,市四中,颗粒物(PM10),54,58,50,28,23,142,,151,147,16,8,19,10,0.9,0.7
2024-10-04T1900,1874A,109.4006,24.3631,柳州市,市九中,颗粒物(PM10),61,72,63,26,29,138,,141,141,14,12,10,8,0.9,0.8
2024-10-04T1900,1875A,109.4958,24.3134,柳州市,古亭山,,,,51,,25,117,,139,139,13,14,11,10,,0.7
2024-10-04T1900,3402A,109.5422,24.3996,柳州市,市二中,颗粒物(PM10),53,56,51,29,27,138,,143,143,15,12,10,11,0.6,0.5
2024-10-04T1900,2307A,116.5079,31.737,六安市,监测大楼,,40,40,33,22,19,120,,126,126,15,20,7,5,0.4,0.4
2024-10-04T1900,2308A,116.4738,31.7643,六安市,皖西学院,,,47,44,26,22,123,,126,126,,23,6,6,,0.5
2024-10-04T1900,2309A,116.4996,31.7905,六安市,朝阳厂,,37,30,30,17,20,118,,124,124,15,19,1,2,0.4,0.4
2024-10-04T1900,2310A,116.5567,31.7886,六安市,开发区,颗粒物(PM10),63,76,39,37,21,108,,128,128,26,21,4,2,0.5,0.4
2024-10-04T1900,2577A,104.83,26.5917,六盘水市,黄土坡,,39,39,33,26,21,84,,92,86,16,10,7,8,0.5,0.3
2024-10-04T1900,2578A,104.89,26.5939,六盘水市,水钢,,42,42,38,25,18,98,,98,98,11,8,7,8,0.2,0.2
2024-10-04T1900,2579A,104.8475,26.5894,六盘水市,民中,,39,37,32,27,17,90,,94,90,17,12,8,9,0.5,0.4
2024-10-04T1900,2580A,104.9544,26.5506,六盘水市,双水,,39,39,35,18,14,94,,97,97,9,7,8,9,0.4,0.4
2024-10-04T1900,2336A,117.0217,25.1033,龙岩市,龙岩市监测站,,23,,22,16,17,73,,78,76,9,12,6,11,0.4,0.5
2024-10-04T1900,2337A,117.0258,25.0661,龙岩市,闽西职业技术学院,,23,15,21,15,15,72,,79,78,6,7,4,8,0.5,0.5
2024-10-04T1900,2338A,117.0196,25.0306,龙岩市,龙岩学院,,24,10,18,9,12,74,,79,77,7,9,5,4,0.4,0.4
2024-10-04T1900,2885A,104.9339,33.3826,陇南市,滨江中学,,34,34,35,21,16,67,,84,78,13,6,7,7,0.5,0.5
2024-10-04T1900,3247A,104.955,33.371,陇南市,市总工会,,32,32,24,8,5,71,,88,81,10,5,3,2,0.4,0.3
2024-10-04T1900,2487A,111.9589,27.8901,娄底市,电视发射台,颗粒物(PM10),51,51,58,29,29,127,,132,132,7,8,9,8,0.9,0.8
2024-10-04T1900,2488A,111.9975,27.725,娄底市,市监测站,颗粒物(PM10),52,53,69,32,43,143,,140,140,12,17,8,13,0.5,0.7
2024-10-04T1900,2489A,112.0194,27.7314,娄底市,市委党校,颗粒物(PM10),56,61,67,32,40,128,,127,127,13,13,5,8,0.5,0.5
2024-10-04T1900,2490A,111.9561,27.7569,娄底市,涟钢,颗粒物(PM10),56,62,62,38,39,102,,109,109,34,13,12,9,1.2,0.4
2024-10-04T1900,2491A,111.9892,27.7044,娄底市,市政府,颗粒物(PM10),51,51,63,29,41,136,,132,132,13,12,6,7,0.5,0.6
2024-10-04T1900,1893A,105.4324,28.9634,泸州市,九狮山,,44,44,35,24,19,26,,42,42,21,19,4,5,0.8,0.8
2024-10-04T1900,1894A,105.4427,28.9063,泸州市,小市上码头,,44,44,35,22,18,56,,56,56,27,17,4,4,0.5,0.5
2024-10-04T1900,1895A,105.4241,28.8573,泸州市,兰田宪桥,,38,36,24,26,20,64,,60,60,16,12,4,3,0.5,0.4
2024-10-04T1900,1896A,105.4379,28.8833,泸州市,市环监站,,42,42,34,27,22,47,,46,46,30,19,4,3,0.6,0.5
2024-10-04T1900,3490A,105.3617,28.7703,泸州市,纳溪区环保局,,43,43,33,24,23,49,,50,50,16,17,7,6,0.4,0.4
2024-10-04T1900,2183A,111.1406,37.5211,吕梁市,环保局,颗粒物(PM10),64,77,68,32,23,110,,114,114,34,36,13,8,0.7,0.5
2024-10-04T1900,2185A,111.1297,37.5136,吕梁市,自来水公司,颗粒物(PM10),59,67,72,32,21,120,,118,118,29,32,11,7,0.7,0.5
2024-10-04T1900,2867A,111.1283,37.51,吕梁市,马茂庄小学,颗粒物(PM10),65,79,76,28,20,125,,116,116,30,38,12,9,0.5,0.4
2024-10-04T1900,1812A,112.3931,34.6516,洛阳市,市委党校,颗粒物(PM10),62,74,84,41,55,150,,160,160,27,38,11,10,0.5,0.6
2024-10-04T1900,1814A,112.4657,34.6871,洛阳市,豫西宾馆,颗粒物(PM10),69,88,87,40,46,131,,145,145,29,33,13,13,0.6,0.6
2024-10-04T1900,1815A,112.494,34.6886,洛阳市,河南林校,细颗粒物(PM2.5),70,72,66,51,46,142,,154,154,25,31,8,8,0.6,0.7
2024-10-04T1900,1816A,112.3844,34.623,洛阳市,开发区管委会,细颗粒物(PM2.5),75,85,86,55,60,146,,164,164,28,22,6,6,0.4,0.4
2024-10-04T1900,1817A,112.4267,34.6258,洛阳市,市委新办公区,颗粒物(PM10),65,80,87,44,57,132,,154,154,32,24,6,5,0.4,0.4
2024-10-04T1900,3340A,112.6005,34.6326,洛阳市,伊滨,颗粒物(PM10),53,55,75,32,48,132,,151,151,22,28,11,11,0.3,0.4
2024-10-04T1900,3341A,112.4951,34.6332,洛阳市,中移产业园,颗粒物(PM10),60,69,72,39,51,148,,165,165,29,32,8,6,0.4,0.5
2024-10-04T1900,3593A,112.5736,34.8993,洛阳市,吉利监测站,颗粒物(PM10),57,64,64,30,35,133,,142,142,28,41,11,10,0.2,0.4
2024-10-04T1900,3635A,112.3677,34.662,洛阳市,河科大西苑校区,颗粒物(PM10),63,75,87,41,58,163,,166,166,24,40,9,9,0.5,0.6
2024-10-04T1900,3636A,112.4388,34.6781,洛阳市,英才小学,颗粒物(PM10),64,78,91,32,44,146,,158,158,30,41,7,6,0.4,0.4
2024-10-04T1900,2399A,114.051,33.5699,漯河市,三五一五工厂,颗粒物(PM10),68,85,112,29,66,122,,146,146,22,26,6,8,0.5,0.5
2024-10-04T1900,2400A,114.0055,33.5698,漯河市,漯河大学,颗粒物(PM10),63,76,99,24,53,131,,149,149,21,26,5,7,0.5,0.6
2024-10-04T1900,2401A,114.0138,33.5828,漯河市,市水利局,颗粒物(PM10),60,70,95,17,49,137,,149,149,15,18,5,7,0.7,0.7
2024-10-04T1900,2402A,114.0261,33.5698,漯河市,市广电局,颗粒物(PM10),62,73,101,21,61,134,,150,150,20,23,8,12,0.4,0.6
2024-10-04T1900,3478A,113.9749,33.5664,漯河市,市图书馆,颗粒物(PM10),58,66,82,15,42,140,,154,154,18,24,4,5,0.4,0.4
2024-10-04T1900,3479A,114.0967,33.5906,漯河市,召陵区卫健委,颗粒物(PM10),56,61,103,22,62,117,,149,148,26,26,9,11,0.6,0.6
2024-10-04T1900,1798A,118.5092,31.6837,马鞍山市,湖东路四小,,33,24,26,14,12,105,,122,121,20,15,6,6,0.6,0.6
2024-10-04T1900,1799A,118.5024,31.6449,马鞍山市,开发区,,36,35,26,18,14,113,,119,119,22,23,6,6,0.7,0.7
2024-10-04T1900,1800A,118.5228,31.7231,马鞍山市,慈湖,,38,24,17,19,15,120,,125,125,13,13,7,7,0.5,0.8
2024-10-04T1900,1802A,118.6245,31.7241,马鞍山市,濮塘,,29,25,22,16,14,91,,120,118,2,3,8,9,0.9,0.9
2024-10-04T1900,3633A,118.4918,31.6809,马鞍山市,雨山,,33,32,26,17,13,105,,121,120,20,17,5,6,0.6,0.6
2024-10-04T1900,1686A,111.0286,21.4688,茂名市,电白南海,颗粒物(PM10),53,56,57,3,20,150,,151,151,24,15,12,16,0.7,0.6
2024-10-04T1900,1687A,110.9294,21.6533,茂名市,茂石化七小,颗粒物(PM10),53,56,45,22,25,137,,135,135,16,14,9,15,0.7,0.6
2024-10-04T1900,1688A,110.9107,21.6687,茂名市,健康路,,46,46,40,24,22,143,,140,140,13,11,12,24,0.7,0.6
2024-10-04T1900,1689A,110.8592,21.6828,茂名市,高岭,颗粒物(PM10),56,61,60,24,29,145,,141,141,13,18,15,20,0.7,0.7
2024-10-04T1900,3450A,111.01,21.5165,茂名市,电白水东,,47,36,42,19,22,148,,136,136,9,11,8,12,0.6,0.6
2024-10-04T1900,2539A,104.0308,30.0478,眉山市,黑龙滩水库,,39,35,25,27,18,48,,54,54,9,5,4,4,0.5,0.5
2024-10-04T1900,2540A,103.8416,30.0874,眉山市,气象局,,25,23,21,17,14,48,,60,60,16,15,6,5,0.4,0.4
2024-10-04T1900,3137A,103.8578,30.0744,眉山市,市委党校,,27,27,16,17,8,52,,64,63,20,15,8,8,0.4,0.3
2024-10-04T1900,3148A,103.8291,30.0564,眉山市,区人社局,,33,33,22,12,8,48,,58,58,26,20,6,6,0.5,0.5
2024-10-04T1900,1690A,116.1231,24.3284,梅州市,梅江月梅,细颗粒物(PM2.5),58,,30,41,18,78,,95,93,4,15,7,8,0.6,0.6
2024-10-04T1900,1691A,116.0797,24.2719,梅州市,梅县新城,,43,,28,30,15,78,,101,97,14,14,5,6,0.6,0.5
2024-10-04T1900,1692A,116.1248,24.2654,梅州市,环境监控中心,,42,,28,29,16,69,,97,93,23,18,5,6,0.6,0.5
2024-10-04T1900,3315A,116.1233,24.2991,梅州市,梅龙,,29,24,27,20,16,79,,95,93,10,13,9,10,0.6,0.5
2024-10-04T1900,1878A,104.7778,31.4741,绵阳市,富乐山,,28,28,17,15,12,64,,84,84,15,12,2,2,0.4,0.4
2024-10-04T1900,1879A,104.7563,31.4535,绵阳市,市人大,,39,35,22,27,13,71,,81,81,24,14,11,9,0.5,0.4
2024-10-04T1900,1880A,104.6697,31.4668,绵阳市,高新区自来水公司,,,38,27,22,11,70,,85,85,23,14,12,4,,0.4
2024-10-04T1900,1881A,104.7287,31.5075,绵阳市,三水厂,,25,22,20,17,12,50,,78,78,39,16,6,6,0.4,0.3
2024-10-04T1900,3491A,104.69,31.5322,绵阳市,西科大附属小学,,32,32,19,20,12,71,,88,88,24,15,4,4,0.4,0.4
2024-10-04T1900,3492A,104.5648,31.5343,绵阳市,安州区旅游局,,36,36,17,19,14,78,,91,91,19,10,6,5,0.4,0.3
2024-10-04T1900,1784A,129.61,44.561,牡丹江市,环保大楼,,43,43,33,26,18,40,,78,72,37,20,7,7,0.5,0.4
2024-10-04T1900,1785A,129.6115,44.5782,牡丹江市,文化广场,颗粒物(PM10),66,82,41,39,24,8,,72,64,78,27,9,9,1.2,0.6
2024-10-04T1900,1786A,129.5904,44.5963,牡丹江市,第一医院,细颗粒物(PM2.5),68,84,39,49,28,14,,73,65,61,23,10,8,0.8,0.4
2024-10-04T1900,1787A,129.6364,44.6075,牡丹江市,机车工厂,颗粒物(PM10),83,115,38,40,20,11,,74,66,49,20,17,16,0.5,0.4
2024-10-04T1900,1788A,129.6386,44.5462,牡丹江市,第一中学,,31,31,26,19,11,51,,82,77,20,17,6,6,0.3,0.2
2024-10-04T1900,2531A,105.0703,29.61,内江市,市监测站,,36,36,26,24,17,60,,67,67,23,13,7,7,0.3,0.3
2024-10-04T1900,2532A,105.0717,29.5947,内江市,东兴区政府,,28,24,15,19,12,74,,74,74,19,18,5,5,0.4,0.4
2024-10-04T1900,2533A,105.0653,29.5817,内江市,内江二中,,35,35,22,21,17,62,,68,68,26,21,5,5,0.5,0.5
2024-10-04T1900,2534A,105.0406,29.5822,内江市,内江日报社,,38,38,26,18,17,75,,70,70,24,24,2,3,0.4,0.4
2024-10-04T1900,2628A,92.0657,31.4846,那曲市,那曲监测站,,27,27,28,8,10,85,,89,89,5,6,6,5,0.2,0.3
2024-10-04T1900,3128A,92.0506,31.4797,那曲市,那曲会议中心,,32,19,32,6,10,100,,100,100,2,11,3,3,0.4,0.4
2024-10-04T1900,1290A,115.8931,28.6843,南昌市,省外办,,47,47,35,31,23,130,,126,126,22,19,12,10,0.5,0.5
2024-10-04T1900,1291A,115.8886,28.7003,南昌市,省林业公司,颗粒物(PM10),51,51,33,27,18,136,,134,134,17,14,9,8,0.7,0.6
2024-10-04T1900,1292A,115.8126,28.7442,南昌市,林科所,,40,36,26,17,13,128,,138,138,30,15,10,9,0.6,0.5
2024-10-04T1900,1294A,115.8518,28.687,南昌市,建工学校,,49,49,33,18,19,132,,130,130,18,12,10,9,0.5,0.5
2024-10-04T1900,1295A,115.8921,28.6424,南昌市,象湖,,48,29,31,23,16,153,,142,142,21,18,10,9,0.5,0.4
2024-10-04T1900,1296A,115.7423,28.7996,南昌市,武术学校,,35,22,18,8,22,112,,128,128,9,8,3,2,0.5,0.4
2024-10-04T1900,1298A,115.9314,28.6842,南昌市,省站,颗粒物(PM10),52,53,32,24,19,129,,124,124,20,17,11,11,0.6,0.5
2024-10-04T1900,3046A,115.9084,28.6062,南昌市,机电学校,,49,49,38,22,17,143,,129,129,20,16,9,10,0.6,0.6
2024-10-04T1900,3690A,115.9721,28.7031,南昌市,外国语学校,,45,45,32,18,19,135,,126,126,16,13,8,7,0.5,0.4
2024-10-04T1900,1905A,106.056,30.8064,南充市,西山风景区,,36,34,27,25,25,102,,77,77,10,11,4,4,0.7,0.8
2024-10-04T1900,1906A,106.0789,30.8023,南充市,南充市委,,37,37,36,22,25,92,,84,84,21,20,5,4,0.4,0.4
2024-10-04T1900,1907A,106.1031,30.8217,南充市,南充炼油厂,,46,46,46,31,29,95,,84,84,18,17,5,5,0.4,0.3
2024-10-04T1900,1908A,106.1064,30.7856,南充市,高坪区监测站,,46,46,38,30,25,95,,88,88,23,20,8,7,0.5,0.4
2024-10-04T1900,1909A,106.0642,30.7636,南充市,嘉陵区环保局,,44,44,41,24,23,100,,82,82,16,21,6,4,0.4,0.4
2024-10-04T1900,1910A,106.1087,30.8388,南充市,市环境监测站,颗粒物(PM10),52,53,44,31,31,86,,76,76,22,18,5,4,0.2,0.2
2024-10-04T1900,1151A,118.8086,32.1065,南京市,迈皋桥,,30,19,22,12,11,94,,119,118,16,25,3,4,0.3,0.3
2024-10-04T1900,1152A,118.7538,32.0551,南京市,草场门,,32,24,21,9,10,100,,116,116,25,24,5,6,0.2,0.2
2024-10-04T1900,1153A,118.7794,32.0745,南京市,山西路,,31,27,27,7,14,97,,121,119,13,15,4,4,0.4,0.4
2024-10-04T1900,1154A,118.7752,32.0023,南京市,中华门,,29,29,22,14,10,87,,116,114,28,18,4,6,0.4,0.4
2024-10-04T1900,1155A,118.8109,32.0309,南京市,瑞金路,,31,31,22,14,11,91,,115,112,27,13,4,4,0.4,0.5
2024-10-04T1900,1156A,118.7997,32.0754,南京市,玄武湖,,26,26,26,13,10,72,,109,105,51,37,6,6,0.4,0.4
2024-10-04T1900,1157A,118.6414,32.0931,南京市,浦口,,34,34,25,10,14,96,,108,108,15,16,5,7,0.3,0.4
2024-10-04T1900,1158A,118.7356,31.9996,南京市,奥体中心,,36,30,23,12,12,114,,124,124,20,20,5,6,0.3,0.3
2024-10-04T1900,1159A,118.9125,32.1028,南京市,仙林大学城,,29,27,25,14,12,90,,125,122,26,23,5,6,0.4,0.4
2024-10-04T1900,3422A,118.8436,31.9198,南京市,江宁彩虹桥,,33,27,25,12,10,105,,118,117,10,16,4,4,0.3,0.4
2024-10-04T1900,3423A,119.0138,31.6494,南京市,溧水永阳,,30,29,25,14,15,95,,119,116,18,16,4,4,0.6,0.6
2024-10-04T1900,3424A,118.879,31.3302,南京市,高淳老职中,,42,30,24,23,17,133,,136,136,16,14,5,5,0.7,0.5
2024-10-04T1900,3427A,118.8554,32.3578,南京市,六合雄州,细颗粒物(PM2.5),57,62,30,40,19,83,,112,109,21,18,8,7,0.4,0.3
2024-10-04T1900,1401A,108.3103,22.7881,南宁市,二十一中,颗粒物(PM10),65,79,65,28,40,149,,162,162,16,34,10,16,0.7,0.8
2024-10-04T1900,1402A,108.3141,22.8528,南宁市,北湖,颗粒物(PM10),53,56,71,28,34,138,,162,162,20,41,9,22,0.8,0.9
2024-10-04T1900,1403A,108.3206,22.8225,南宁市,市监测站,颗粒物(PM10),55,60,67,27,31,142,,162,162,24,36,11,21,0.7,0.8
2024-10-04T1900,1404A,108.3829,22.8037,南宁市,大自然花园,颗粒物(PM10),54,58,52,24,30,146,,150,150,15,18,10,10,0.6,0.6
2024-10-04T1900,1405A,108.4394,22.7904,南宁市,仙葫,,49,49,55,31,35,144,,141,141,12,24,11,16,0.7,0.7
2024-10-04T1900,1406A,108.2397,22.8467,南宁市,区农职院,颗粒物(PM10),54,58,55,28,26,140,,172,172,14,17,8,11,0.6,0.6
2024-10-04T1900,1407A,108.3275,22.735,南宁市,英华嘉园,颗粒物(PM10),55,59,57,38,31,124,,152,152,33,27,8,11,0.7,0.6
2024-10-04T1900,1408A,108.2257,22.7757,南宁市,沙井镇街道办,颗粒物(PM10),66,82,66,34,31,138,,174,174,44,36,8,9,0.7,0.7
2024-10-04T1900,3401A,108.4834,22.7618,南宁市,红星社区,细颗粒物(PM2.5),72,66,53,52,29,131,,151,151,24,18,7,9,0.7,0.5
2024-10-04T1900,2332A,118.1681,26.6369,南平市,南平市监测站,,28,26,23,19,15,73,,90,88,9,9,4,5,0.4,0.4
2024-10-04T1900,2333A,118.1825,26.6489,南平市,南平铝业有限公司,,33,23,21,23,13,67,,84,81,10,9,4,5,0.5,0.4
2024-10-04T1900,2334A,118.1756,26.6272,南平市,南平七中,,25,17,21,17,14,64,,88,84,12,11,2,4,0.6,0.5
2024-10-04T1900,1168A,120.9098,31.9663,南通市,狼山街道,,30,27,16,12,8,94,,104,104,12,9,6,7,0.2,0.2
2024-10-04T1900,1169A,120.86,32.0005,南通市,虹桥,,29,21,18,18,8,92,,102,101,14,10,6,7,0.5,0.4
2024-10-04T1900,1170A,120.87,32.02,南通市,城中,,,,19,,7,96,,104,104,17,7,7,7,,0.5
2024-10-04T1900,1171A,120.94,31.93,南通市,星湖花园,,32,15,14,3,7,100,,104,104,14,14,5,6,0.4,0.4
2024-10-04T1900,1172A,120.81,32.0417,南通市,紫琅学院,,30,25,17,21,10,86,,99,98,15,12,8,8,0.3,0.4
2024-10-04T1900,3291A,121.067,32.062,南通市,通州监测站,,31,31,21,19,10,98,,105,105,12,9,3,3,0.5,0.4
2024-10-04T1900,3432A,120.9348,31.9883,南通市,环境教育馆,,36,36,19,15,5,86,,107,105,19,10,4,4,0.5,0.4
2024-10-04T1900,2404A,112.5224,33.0122,南阳市,瓦房庄,,49,49,65,24,45,115,,147,145,31,20,4,5,0.5,0.4
2024-10-04T1900,2405A,112.5003,32.9735,南阳市,汉画馆,,43,43,59,26,42,112,,140,139,20,21,6,7,0.4,0.5
2024-10-04T1900,2406A,112.5573,33.027,南阳市,气象站,,39,37,69,14,39,123,,144,144,27,21,7,12,0.5,0.5
2024-10-04T1900,2407A,112.5481,32.9689,南阳市,理工学院,颗粒物(PM10),52,53,68,23,46,126,,144,144,21,21,8,9,0.5,0.5
2024-10-04T1900,4008A,112.5234,32.9922,南阳市,卧龙区政府,,39,39,67,24,43,104,,146,144,49,24,4,5,0.6,0.5
2024-10-04T1900,1234A,121.8358,29.911,宁波市,区环保大楼,,30,26,22,6,7,93,,108,105,16,10,6,6,0.6,0.5
2024-10-04T1900,1235A,121.56,29.82,宁波市,万里学院,,33,25,21,10,8,103,,114,114,12,15,6,6,0.4,0.4
2024-10-04T1900,1236A,121.713,29.9572,宁波市,龙赛医院,,31,25,18,6,4,97,,108,106,14,11,7,7,0.5,0.5
2024-10-04T1900,1239A,121.633,29.7733,宁波市,钱湖水厂,,31,22,23,8,9,97,,112,111,13,16,8,8,0.4,0.4
2024-10-04T1900,1240A,121.5856,29.8635,宁波市,太古小学,,,22,22,13,6,100,,111,111,,17,8,8,,0.5
2024-10-04T1900,1241A,121.524,29.8674,宁波市,市环境监测中心,,33,24,18,7,5,104,,112,112,12,15,5,5,0.4,0.4
2024-10-04T1900,2871A,121.6147,29.9017,宁波市,万里国际学校,,32,22,15,10,7,102,,114,114,19,20,8,8,0.5,0.5
2024-10-04T1900,3710A,121.5594,29.8975,宁波市,白沙活动中心,,33,28,18,3,5,105,,112,112,12,15,9,9,0.3,0.3
2024-10-04T1900,2341A,119.5388,26.6612,宁德市,宁德市监测站,,19,17,14,13,14,20,,68,44,33,14,6,6,0.8,0.6
2024-10-04T1900,3209A,119.5231,26.6562,宁德市,宁德一中,,28,28,15,18,11,27,,72,51,18,7,6,6,0.7,0.4
2024-10-04T1900,2618A,98.8601,25.8567,怒江傈僳族自治州,州监测站,,14,12,18,8,14,44,,44,44,7,8,5,5,0.4,0.4
2024-10-04T1900,2619A,98.8546,25.8417,怒江傈僳族自治州,泸水一中,,14,14,15,3,11,36,,39,39,12,12,6,6,0.5,0.4
2024-10-04T1900,1888A,101.6891,26.571,攀枝花市,弄弄坪,,45,45,58,25,31,39,,57,57,33,26,17,18,0.7,0.8
2024-10-04T1900,1889A,101.5769,26.5928,攀枝花市,河门口,,28,28,54,16,34,49,,64,64,20,24,21,21,0.8,1.5
2024-10-04T1900,1890A,101.7169,26.585,攀枝花市,炳草岗,颗粒物(PM10),51,52,45,24,29,37,,60,60,38,27,14,15,0.8,0.7
2024-10-04T1900,1891A,101.7369,26.5008,攀枝花市,仁和,,15,9,49,6,35,45,,63,63,10,20,6,10,0.5,1.2
2024-10-04T1900,2835A,101.7227,26.567,攀枝花市,四十中小,,40,40,40,26,26,58,,67,67,17,16,9,10,0.9,0.9
2024-10-04T1900,1604A,122.0303,41.1489,盘锦市,开发区,,48,33,34,31,23,152,,153,153,17,17,10,7,0.4,0.5
2024-10-04T1900,1605A,122.0485,41.0883,盘锦市,兴隆台,,45,34,28,25,21,142,,151,151,32,26,6,7,0.4,0.5
2024-10-04T1900,1606A,121.8297,41.1028,盘锦市,新生街道,,50,25,26,22,20,160,,162,162,18,16,9,9,0.4,0.6
2024-10-04T1900,1832A,113.3257,33.742,平顶山市,新华旅馆,颗粒物(PM10),70,89,105,36,46,110,,143,143,32,39,6,8,0.4,0.4
2024-10-04T1900,1833A,113.2919,33.737,平顶山市,规划设计院,颗粒物(PM10),63,75,97,35,49,120,,147,147,31,37,7,9,0.6,0.6
2024-10-04T1900,1834A,113.182,33.774,平顶山市,平顶山工学院,颗粒物(PM10),61,71,86,31,41,114,,144,144,34,33,6,8,0.5,0.5
2024-10-04T1900,3204A,113.3025,33.73,平顶山市,规划局,颗粒物(PM10),74,97,111,42,58,125,,144,144,24,36,5,8,0.4,0.4
2024-10-04T1900,3594A,112.8867,33.9116,平顶山市,石龙区,颗粒物(PM10),71,92,137,34,47,119,,142,142,30,54,12,16,0.7,0.7
2024-10-04T1900,2656A,106.6692,35.5461,平凉市,聚贤嘉苑,,31,31,46,14,28,75,,89,88,19,19,7,8,0.3,0.4
2024-10-04T1900,2657A,106.7021,35.5307,平凉市,博物馆,,43,43,51,16,25,77,,94,91,29,26,11,12,0.6,0.4
2024-10-04T1900,2347A,114.0997,27.5002,萍乡市,武功山,,32,32,12,10,5,92,,112,112,9,6,6,6,0.3,0.3
2024-10-04T1900,2348A,113.8385,27.6434,萍乡市,中医院,,48,48,39,23,20,113,,122,122,19,10,11,20,1.0,0.5
2024-10-04T1900,2349A,113.8493,27.6253,萍乡市,市政府车库,颗粒物(PM10),51,51,34,21,24,114,,122,122,16,10,12,18,0.5,0.5
2024-10-04T1900,2350A,113.8676,27.6435,萍乡市,市环保局,,35,35,36,20,24,105,,115,115,16,6,11,18,1.2,0.6
2024-10-04T1900,2351A,113.866,27.6198,萍乡市,安源区政府,,45,38,39,31,18,115,,124,124,43,21,12,12,0.4,0.8
2024-10-04T1900,2319A,119.0141,25.4325,莆田市,荔城区仓后路,,22,10,12,3,4,68,,82,76,10,9,7,7,0.5,0.4
2024-10-04T1900,2320A,119.0015,25.4553,莆田市,莆田市监测站,,24,7,9,3,2,74,,92,84,7,6,7,7,0.4,0.4
2024-10-04T1900,2321A,119.1119,25.4561,莆田市,涵江区六中,,23,12,11,8,4,72,,90,83,13,9,8,8,0.6,0.5
2024-10-04T1900,2322A,119.1013,25.3215,莆田市,秀屿区政府,,24,12,17,3,4,75,,89,83,12,7,6,6,0.6,0.5
2024-10-04T1900,2392A,115.0312,35.7636,濮阳市,环保局,,42,42,62,22,41,115,,141,141,30,22,3,5,0.4,0.4
2024-10-04T1900,2394A,115.0574,35.7609,濮阳市,油田运输公司,颗粒物(PM10),55,59,68,26,46,125,,144,144,26,26,4,6,0.4,0.4
2024-10-04T1900,2395A,115.0866,35.7754,濮阳市,油田物探公司,,,72,77,30,47,110,,150,147,,30,3,10,,0.3
2024-10-04T1900,3021A,115,35.7668,濮阳市,濮水河管理处,,46,46,53,18,37,75,,133,129,30,19,1,2,0.3,0.3
2024-10-04T1900,2601A,100.98,22.7633,普洱市,市环保局,,20,16,19,14,17,31,,37,36,6,5,3,4,0.4,0.4
2024-10-04T1900,2602A,100.9817,22.8322,普洱市,普洱第二中学,,19,19,21,7,9,33,,36,35,6,8,4,4,0.5,0.5
2024-10-04T1900,2262A,131.0518,45.8751,七台河市,新一中,,48,48,19,17,11,55,,100,96,27,11,10,9,1.3,1.2
2024-10-04T1900,3345A,131.0577,45.7879,七台河市,中波台,颗粒物(PM10),51,52,23,12,9,45,,74,72,46,19,6,6,0.6,0.5
2024-10-04T1900,3637A,131.0176,45.7761,七台河市,人民广场,颗粒物(PM10),51,52,31,24,17,46,,74,70,37,20,8,9,0.5,0.5
2024-10-04T1900,3684A,130.8781,45.8222,七台河市,新建矿广场,颗粒物(PM10),81,112,78,33,24,43,,72,68,34,38,9,11,0.7,0.5
2024-10-04T1900,1779A,123.9305,47.3636,齐齐哈尔市,安居小区,,44,44,35,14,9,95,,91,91,21,15,11,11,0.6,0.4
2024-10-04T1900,1780A,123.9488,47.3386,齐齐哈尔市,中心广场,颗粒物(PM10),55,59,35,13,8,93,,89,89,18,14,3,3,0.4,0.2
2024-10-04T1900,1781A,123.9483,47.3227,齐齐哈尔市,农牧车辆厂,,44,44,36,14,8,99,,96,96,9,9,9,9,0.2,0.3
2024-10-04T1900,1783A,123.945,47.2988,齐齐哈尔市,市环境监测站,,43,43,31,9,9,104,,101,101,9,9,9,9,0.3,0.2
2024-10-04T1900,3662A,123.6333,47.2075,齐齐哈尔市,富区青少年活动中心,,37,37,30,3,6,91,,99,99,9,6,5,5,0.4,0.4
2024-10-04T1900,2591A,107.9783,26.5747,黔东南苗族侗族自治州,市环境监测站,,35,35,38,19,19,105,,113,113,20,12,6,6,0.4,0.4
2024-10-04T1900,2881A,107.8908,26.5311,黔东南苗族侗族自治州,凯里学院,,37,36,37,17,17,117,,127,127,14,10,5,5,0.4,0.4
2024-10-04T1900,2593A,107.5228,26.2403,黔南布依族苗族自治州,小围寨,,,27,31,9,14,123,,126,126,4,6,,5,0.3,0.6
2024-10-04T1900,3538A,107.5175,26.2978,黔南布依族苗族自治州,沙坝,,45,45,37,19,15,120,,126,126,6,7,4,5,0.5,0.4
2024-10-04T1900,2589A,104.9022,25.0925,黔西南布依族苗族自治州,场坝街,,,30,22,15,14,73,,90,87,8,6,,2,0.3,0.2
2024-10-04T1900,2590A,104.8811,25.0992,黔西南布依族苗族自治州,坪东大道,,22,19,21,3,11,69,,90,86,6,6,7,7,0.3,0.3
2024-10-04T1900,2502A,108.6236,21.9667,钦州市,市环保站,颗粒物(PM10),89,127,84,27,29,136,,144,144,26,19,10,14,0.7,1.1
2024-10-04T1900,2503A,108.6549,21.9481,钦州市,沙埠小学,颗粒物(PM10),71,91,87,30,34,151,,156,156,22,24,9,10,0.6,0.8
2024-10-04T1900,2504A,108.5989,21.7431,钦州市,港区一小,颗粒物(PM10),90,129,87,32,34,141,,158,158,36,29,10,10,0.6,0.7
2024-10-04T1900,3404A,108.5959,21.9633,钦州市,北职校,颗粒物(PM10),61,71,70,39,34,148,,154,154,19,18,12,11,0.7,1.2
2024-10-04T1900,1042A,119.5134,39.8207,秦皇岛市,北戴河环保局,颗粒物(PM10),58,66,59,25,28,162,,153,153,16,23,3,5,0.5,0.8
2024-10-04T1900,1043A,119.7493,40.0116,秦皇岛市,第一关,细颗粒物(PM2.5),70,76,65,51,45,152,,162,162,18,48,5,7,0.5,0.8
2024-10-04T1900,1044A,119.5897,39.9499,秦皇岛市,监测站,颗粒物(PM10),56,61,60,38,40,150,,158,158,25,42,5,9,0.5,0.9
2024-10-04T1900,1046A,119.5251,39.9041,秦皇岛市,建设大厦,颗粒物(PM10),61,72,64,37,31,144,,159,159,19,26,4,8,0.5,0.8
2024-10-04T1900,3132A,119.610547,39.943889,秦皇岛市,文明里,颗粒物(PM10),60,69,73,37,34,156,,158,158,21,33,4,7,0.5,1
2024-10-04T1900,1307A,120.6659,36.2403,青岛市,仰口,,37,,16,8,13,118,,118,118,3,8,6,7,0.8,0.8
2024-10-04T1900,1310A,120.4134,36.0658,青岛市,市南区东部子站,,41,12,43,9,20,130,,140,140,9,28,4,8,0.5,0.6
2024-10-04T1900,1311A,120.3664,36.1032,青岛市,四方区子站,,42,22,45,7,26,132,,144,144,23,37,9,12,0.4,0.5
2024-10-04T1900,1312A,120.2994,36.054,青岛市,市南区西部子站,,49,27,43,7,18,154,,150,150,9,24,9,10,0.5,0.6
2024-10-04T1900,1313A,120.4581,36.0858,青岛市,崂山区子站,,43,6,25,3,12,135,,146,146,11,22,8,9,0.5,0.6
2024-10-04T1900,1314A,120.1983,35.9608,青岛市,黄岛区子站,,49,24,44,12,23,155,,154,154,14,26,9,11,0.5,0.5
2024-10-04T1900,1315A,120.3999,36.3083,青岛市,城阳区子站,,38,19,51,10,26,119,,145,145,26,33,8,9,0.5,0.6
2024-10-04T1900,1966A,120.0405,35.8735,青岛市,黄岛区4号,,50,12,36,12,19,157,,158,158,11,24,7,8,0.4,0.5
2024-10-04T1900,3362A,120.5014,36.4034,青岛市,即墨2号,,38,21,38,7,21,121,,128,127,12,18,7,7,0.4,0.5
2024-10-04T1900,3642A,120.3503,36.0736,青岛市,市北区南部,,46,22,49,7,24,145,,146,146,14,34,7,9,0.5,0.6
2024-10-04T1900,3643A,120.3948,36.1805,青岛市,李沧区北部,,34,27,43,12,24,108,,143,141,33,32,9,10,0.7,0.7
2024-10-04T1900,1702A,113.0426,23.691,清远市,环保大楼,,40,27,26,21,14,128,,128,128,16,16,11,11,0.7,0.7
2024-10-04T1900,1703A,113.0208,23.7106,清远市,凤城街办,,48,48,29,31,13,119,,120,120,12,8,10,10,0.8,0.7
2024-10-04T1900,3025A,113.0477,23.6344,清远市,技师学院,,42,42,33,20,12,127,,130,130,14,11,10,10,0.7,0.6
2024-10-04T1900,3318A,112.9903,23.7403,清远市,清新太和,,31,28,28,15,13,99,,119,117,9,5,6,7,0.5,0.4
2024-10-04T1900,3455A,113.076,23.7198,清远市,清城东城,,45,45,26,19,10,121,,127,127,10,6,8,8,0.5,0.5
2024-10-04T1900,2661A,107.6325,35.7357,庆阳市,庆阳五中,,33,33,49,19,20,84,,100,95,14,12,7,7,0.4,0.4
2024-10-04T1900,2662A,107.6364,35.7067,庆阳市,市环保局,,35,35,47,20,23,76,,99,93,20,12,6,6,0.3,0.4
2024-10-04T1900,1916A,103.7897,25.5035,曲靖市,环境监测站,,,25,38,10,19,56,,60,60,,13,1,6,0.6,0.6
2024-10-04T1900,1917A,103.8,25.5364,曲靖市,烟厂办公区,,37,37,33,17,18,51,,56,55,18,12,4,4,0.6,0.5
2024-10-04T1900,3376A,103.7947,25.462,曲靖市,南苑二区,,21,21,35,13,22,59,,61,61,11,11,7,17,0.6,0.7
2024-10-04T1900,3377A,103.7444,25.5261,曲靖市,曲靖师范学院,,21,12,30,11,22,67,,67,67,7,11,6,10,0.4,0.6
2024-10-04T1900,1264A,118.8692,28.9398,衢州市,环保大楼,颗粒物(PM10),56,61,36,32,20,104,,118,118,21,19,7,7,0.6,0.6
2024-10-04T1900,1265A,118.8709,28.9666,衢州市,实验学校,,38,38,33,21,21,113,,130,130,16,16,7,6,0.3,0.4
2024-10-04T1900,1266A,118.8621,28.9808,衢州市,衢州学院,,,35,32,22,20,108,,131,130,,24,7,8,0.3,0.6
2024-10-04T1900,1611A,118.5819,24.9117,泉州市,涂山街,,24,18,13,9,7,74,,84,78,11,9,2,2,0.3,0.5
2024-10-04T1900,1612A,118.5972,24.8978,泉州市,津头埔,,23,16,15,9,8,72,,83,76,12,11,4,4,0.4,0.3
2024-10-04T1900,1613A,118.6663,24.9424,泉州市,万安,,26,26,14,14,8,67,,87,75,13,8,2,2,0.4,0.3
2024-10-04T1900,3529A,118.6333,24.9264,泉州市,城华南路,,22,22,14,7,5,68,,86,76,7,5,3,3,0.3,0.2
2024-10-04T1900,2626A,88.8876,29.2718,日喀则市,日喀则监测站,,27,8,20,3,7,86,,90,90,8,8,4,5,0.3,0.4
2024-10-04T1900,3726A,88.8781,29.2426,日喀则市,林业技术推广中心,,30,24,17,3,3,96,,89,89,7,8,7,7,0.4,0.4
2024-10-04T1900,1659A,119.471,35.4209,日照市,监测站,,39,34,41,24,24,122,,152,152,41,44,12,12,0.7,0.8
2024-10-04T1900,1660A,119.523,35.4216,日照市,市政府广场,臭氧1小时,82,36,39,24,21,185,,175,175,18,41,7,7,0.5,0.7
2024-10-04T1900,1661A,119.5587,35.4044,日照市,港务局,臭氧1小时,88,34,47,27,29,190,,178,178,13,49,10,11,0.6,0.9
2024-10-04T1900,3507A,119.5328,35.4625,日照市,职业技术学院,,50,46,38,24,17,158,,167,167,20,34,10,10,0.6,0.7
2024-10-04T1900,3604A,119.3266,35.1044,日照市,岚山环保分局,臭氧1小时,63,36,41,17,21,170,,169,169,20,22,11,14,0.6,0.8
2024-10-04T1900,1835A,111.1922,34.7752,三门峡市,市政府,颗粒物(PM10),51,52,58,31,34,155,,146,146,22,26,15,18,0.5,0.5
2024-10-04T1900,1836A,111.1587,34.7942,三门峡市,开发区,颗粒物(PM10),62,74,73,36,42,161,,153,153,24,22,15,17,0.5,0.4
2024-10-04T1900,1838A,111.143,34.7955,三门峡市,风景区,臭氧1小时,67,54,63,37,39,173,,166,166,18,19,16,18,0.7,0.7
2024-10-04T1900,3039A,111.1911,34.7829,三门峡市,三门峡市第一小学,颗粒物(PM10),54,57,60,36,38,153,,146,146,21,22,13,17,0.5,0.5
2024-10-04T1900,3598A,111.1,34.7167,三门峡市,富达温泉假日酒店,颗粒物(PM10),62,73,63,34,35,161,,148,148,19,20,14,14,0.7,0.7
2024-10-04T1900,2324A,117.6211,26.2625,三明市,三钢,,36,,25,25,18,79,,97,93,14,13,6,8,0.5,0.5
2024-10-04T1900,2325A,117.635,26.2714,三明市,三明二中,,24,21,20,16,14,75,,95,91,15,13,3,5,0.5,0.4
2024-10-04T1900,2326A,117.6028,26.2378,三明市,三元区政府,,25,22,23,13,13,80,,97,93,16,14,3,4,0.7,0.4
2024-10-04T1900,1876A,109.5078,18.2489,三亚市,河东子站,,47,47,36,15,17,150,,139,139,7,6,5,5,0.3,0.3
2024-10-04T1900,1877A,109.4964,18.2681,三亚市,河西子站,,44,40,33,19,17,140,,134,134,7,8,5,5,0.4,0.5
2024-10-04T1900,3540A,109.7348,18.3443,三亚市,君悦子站,,50,50,40,20,19,139,,134,134,8,8,3,3,0.7,0.6
2024-10-04T1900,2624A,91.7608,29.2313,山南市,山南监测站,,14,14,11,8,7,42,,56,56,12,6,10,9,0.4,0.4
2024-10-04T1900,2625A,91.7706,29.2436,山南市,山南人民医院,,17,17,10,9,6,47,,56,56,13,8,9,9,0.4,0.4
2024-10-04T1900,1674A,116.6794,23.3667,汕头市,金平子站,,31,31,32,19,18,76,,97,91,17,17,5,8,0.6,0.5
2024-10-04T1900,1675A,116.7244,23.3633,汕头市,龙湖子站,,22,,23,15,12,70,,90,85,8,6,8,9,0.9,0.8
