timepoint,stationcode,longitude,latitude,area,positionname,primarypollutant,aqi,pm10,pm10_24h,pm2_5,pm2_5_24h,o3,o3_24h,o3_8h,o3_8h_24h,no2,no2_24h,so2,so2_24h,co,co_24h
2026-05-31T1200,1001A,116.3611,39.8786,北京市,万寿西宫,颗粒物(PM10),61,65,54,31,17,149,NA,99,99,17,19,7,6,0.5,0.3
2026-05-31T1200,1003A,116.4174,39.9289,北京市,东四,颗粒物(PM10),60,64,52,29,19,165,NA,110,110,19,20,7,6,0.6,0.5
2026-05-31T1200,1004A,116.4073,39.8858,北京市,天坛,颗粒物(PM10),62,66,48,23,17,143,NA,91,91,16,18,5,3,0.4,0.3
2026-05-31T1200,1005A,116.4622,39.9364,北京市,农展馆,颗粒物(PM10),60,64,52,29,18,152,NA,105,105,20,19,7,6,0.5,0.3
2026-05-31T1200,1006A,116.3399,39.9293,北京市,官园,颗粒物(PM10),69,76,54,24,18,147,NA,99,99,28,25,8,7,0.4,0.2
2026-05-31T1200,1007A,116.2879,39.9613,北京市,海淀万柳,颗粒物(PM10),69,76,57,29,17,137,NA,66,66,29,28,6,4,0.4,0.3
2026-05-31T1200,1008A,116.6635,40.1349,北京市,顺义新城,"颗粒物(PM10),臭氧1小时(O3_1h)",63,67,56,15,16,170,NA,88,88,15,22,7,4,0.6,0.4
2026-05-31T1200,1009A,116.6275,40.327,北京市,怀柔镇,臭氧1小时(O3_1h),73,70,46,27,20,178,NA,108,108,15,15,5,3,0.5,0.4
2026-05-31T1200,1010A,116.2295,40.217,北京市,昌平镇,颗粒物(PM10),64,69,46,26,15,166,NA,98,98,25,20,5,4,0.6,0.5
2026-05-31T1200,1011A,116.3968,39.982,北京市,奥体中心,颗粒物(PM10),61,65,50,27,17,135,NA,61,61,22,29,2,2,0.5,0.3
2026-05-31T1200,1015A,117.1446,39.1659,天津市,勤俭道,臭氧1小时(O3_1h),88,62,60,23,22,190,NA,139,139,12,12,8,8,0.5,0.5
2026-05-31T1200,1018A,117.2016,39.0928,天津市,前进道,臭氧1小时(O3_1h),83,51,58,24,26,186,NA,131,131,16,15,7,8,0.4,0.4
2026-05-31T1200,1019A,117.1837,39.2134,天津市,淮河道,臭氧1小时(O3_1h),83,68,68,27,22,186,NA,138,138,13,13,10,10,0.5,0.5
2026-05-31T1200,1021A,117.308261,39.088386,天津市,跃进路,臭氧1小时(O3_1h),82,65,63,28,25,185,NA,136,136,8,9,8,8,0.5,0.5
2026-05-31T1200,1023A,117.707,39.0344,天津市,第四大街,臭氧1小时(O3_1h),77,67,64,22,22,181,NA,136,136,17,20,7,7,0.6,0.7
2026-05-31T1200,1024A,117.4573,38.8395,天津市,永明路,臭氧1小时(O3_1h),88,47,52,17,23,190,NA,126,126,8,12,8,8,0.4,0.4
2026-05-31T1200,1026A,117.7641,39.1588,天津市,汉北路,臭氧1小时(O3_1h),80,57,59,26,23,184,NA,139,139,7,10,9,9,0.7,0.7
2026-05-31T1200,1030A,114.5919,38.0328,石家庄市,高新区,臭氧1小时(O3_1h),73,40,40,21,16,178,NA,120,120,16,20,11,10,0.5,0.5
2026-05-31T1200,1032A,114.4556,38.0136,石家庄市,西南高教,臭氧1小时(O3_1h),78,46,44,13,14,182,NA,126,126,9,15,5,4,0.4,0.4
2026-05-31T1200,1033A,114.533,38.0177,石家庄市,世纪公园,臭氧1小时(O3_1h),58,45,34,22,14,166,NA,96,96,12,12,2,2,0.6,0.5
2026-05-31T1200,1034A,114.5105,38.0489,石家庄市,人民会堂,臭氧1小时(O3_1h),79,45,39,28,16,183,NA,136,136,11,10,4,4,0.5,0.4
2026-05-31T1200,1040A,118.1707,39.6505,唐山市,十二中,颗粒物(PM10),65,70,65,26,23,134,NA,75,75,26,21,12,9,0.5,0.6
2026-05-31T1200,1041A,118.1868,39.6219,唐山市,小山,颗粒物(PM10),70,77,67,39,28,144,NA,93,93,16,17,8,7,0.5,0.6
2026-05-31T1200,1046A,119.5247,39.9346,秦皇岛市,建设大厦,臭氧1小时(O3_1h),80,73,69,17,24,184,NA,123,123,2,14,13,12,0.4,0.6
2026-05-31T1200,1049A,114.492,36.5712,邯郸市,矿院,臭氧1小时(O3_1h),93,28,39,5,19,194,NA,109,109,4,14,4,5,0.5,0.5
2026-05-31T1200,1050A,114.4839,36.6136,邯郸市,丛台公园,臭氧1小时(O3_1h),87,22,32,8,14,189,NA,121,121,4,12,5,7,0.5,0.5
2026-05-31T1200,1051A,115.4803,38.8568,保定市,游泳馆,臭氧1小时(O3_1h),70,52,45,21,19,176,NA,114,114,11,10,18,12,0.5,0.3
2026-05-31T1200,1052A,115.509,38.8895,保定市,华电二区,臭氧1小时(O3_1h),65,44,35,25,16,172,NA,110,110,13,12,12,7,0.9,0.6
2026-05-31T1200,1053A,115.4588,38.9037,保定市,接待中心,臭氧1小时(O3_1h),53,49,46,26,20,162,NA,103,103,13,12,10,5,0.8,0.5
2026-05-31T1200,1054A,115.4484,38.8344,保定市,地表水厂,臭氧1小时(O3_1h),70,58,52,29,18,176,NA,108,108,12,13,12,6,0.7,0.5
2026-05-31T1200,1057A,114.8884,40.8336,张家口市,人民公园,颗粒物(PM10),99,118,38,36,17,130,NA,101,101,8,12,3,2,0.2,0.2
2026-05-31T1200,1059A,114.868581,40.804273,张家口市,五金库,颗粒物(PM10),96,114,36,24,13,128,NA,102,102,8,14,/,/,/,/
2026-05-31T1200,1060A,114.8901,40.762,张家口市,世纪豪园,颗粒物(PM10),98,117,40,25,15,131,NA,99,99,5,10,5,4,0,0.1
2026-05-31T1200,1062A,117.9531,40.908,承德市,铁路,,49,36,39,2,13,156,NA,85,85,8,18,5,6,0.4,0.4
2026-05-31T1200,1063A,117.9397,40.9763,承德市,中国银行,,49,22,33,3,14,154,NA,82,82,6,12,5,5,0.4,0.4
2026-05-31T1200,1067A,116.6712,39.5109,廊坊市,药材公司,颗粒物(PM10),73,81,52,28,23,174,NA,111,111,14,14,9,4,0.6,0.4
2026-05-31T1200,1068A,116.7215,39.5592,廊坊市,开发区,臭氧1小时(O3_1h),75,70,55,28,24,180,NA,126,126,13,11,5,3,0.5,0.4
2026-05-31T1200,1070A,116.7246,39.5273,廊坊市,北华航天学院,NA,NA,71,54,29,18,182,NA,126,126,12,10,NA,3,0.5,0.3
2026-05-31T1200,1071A,116.8733,38.2922,沧州市,沧县城建局,臭氧1小时(O3_1h),79,62,56,18,24,183,NA,122,122,10,15,10,7,0.5,0.5
2026-05-31T1200,1072A,116.8462,38.3189,沧州市,电视转播站,臭氧1小时(O3_1h),74,49,52,22,21,179,NA,122,122,13,15,7,8,0.3,0.3
2026-05-31T1200,1073A,116.8588,38.3161,沧州市,市环保局,臭氧1小时(O3_1h),85,71,65,19,22,188,NA,123,123,11,14,7,7,0.4,0.4
2026-05-31T1200,1074A,115.6839,37.754,衡水市,电机北厂,臭氧1小时(O3_1h),95,79,60,20,17,196,NA,142,142,12,11,9,5,0.4,0.3
2026-05-31T1200,1075A,115.6303,37.7318,衡水市,市监测站,臭氧1小时(O3_1h),94,76,52,12,15,195,NA,129,129,15,14,8,8,0.7,0.6
2026-05-31T1200,1077A,114.4687,37.0883,邢台市,达活泉,臭氧1小时(O3_1h),85,40,53,18,14,188,NA,126,126,6,13,8,9,0.4,0.6
2026-05-31T1200,1078A,114.4954,37.0309,邢台市,邢师高专,臭氧1小时(O3_1h),78,42,45,13,12,182,NA,91,91,6,16,13,6,0.7,0.5
2026-05-31T1200,1079A,114.5281,37.0857,邢台市,路桥公司,臭氧1小时(O3_1h),78,30,47,21,20,182,NA,105,105,5,17,12,14,0.5,0.5
2026-05-31T1200,1080A,114.4721,37.0713,邢台市,市环保局,臭氧1小时(O3_1h),101,50,56,13,12,202,NA,121,121,3,9,12,11,0.6,0.7
2026-05-31T1200,1081A,112.5138,37.8916,太原市,尖草坪,臭氧1小时(O3_1h),77,63,53,26,24,181,NA,107,107,18,25,30,15,1.0,0.6
2026-05-31T1200,1084A,112.4691,37.7125,太原市,晋源,臭氧1小时(O3_1h),79,80,49,46,22,183,NA,91,91,33,29,68,16,1.4,0.6
2026-05-31T1200,1085A,112.5595,37.7391,太原市,小店,臭氧1小时(O3_1h),95,64,59,22,23,196,NA,95,95,17,28,48,22,0.9,0.7
2026-05-31T1200,1087A,112.5705,37.8199,太原市,坞城,臭氧1小时(O3_1h),79,43,38,31,26,183,NA,104,104,16,27,38,21,0.9,0.7
2026-05-31T1200,1088A,112.5495,37.9853,太原市,南寨,颗粒物(PM10),65,70,50,32,22,162,NA,62,62,23,30,35,16,1.8,0.8
2026-05-31T1200,1090A,111.6506,40.7517,呼和浩特市,呼市一监,,33,27,46,6,11,105,NA,87,87,2,13,9,13,0.1,0.2
2026-05-31T1200,1094A,111.7516,40.8369,呼和浩特市,如意水处理厂,,33,23,43,7,15,104,NA,88,88,3,15,7,11,0.3,0.4
2026-05-31T1200,1095A,111.727798,40.806187,呼和浩特市,二十九中,,31,24,44,8,14,98,NA,84,84,5,17,8,12,0.2,0.3
2026-05-31T1200,1097A,111.717,40.7617,呼和浩特市,化肥厂生活区,,31,22,40,20,21,99,NA,82,82,6,18,8,11,0.3,0.4
2026-05-31T1200,1099A,123.5058,41.7084,沈阳市,浑南东路,臭氧1小时(O3_1h),90,46,49,19,21,192,NA,156,156,20,40,12,15,0.6,0.9
2026-05-31T1200,1100A,123.4238,41.6992,沈阳市,新秀街,臭氧1小时(O3_1h),95,84,58,19,20,196,NA,162,162,15,24,11,12,0.7,0.8
2026-05-31T1200,1102A,123.5903,41.8412,沈阳市,东陵路,臭氧1小时(O3_1h),90,96,54,16,18,192,NA,156,156,13,23,10,11,0.6,0.7
2026-05-31T1200,1103A,123.4267,41.8466,沈阳市,陵东街,臭氧1小时(O3_1h),104,54,41,19,19,208,NA,167,167,20,21,11,10,0.8,0.9
2026-05-31T1200,1104A,123.4116,41.7654,沈阳市,文化路,臭氧1小时(O3_1h),106,80,50,20,17,211,NA,168,168,14,19,9,10,0.7,0.7
2026-05-31T1200,1105A,123.4673,41.787,沈阳市,小河沿,臭氧1小时(O3_1h),103,60,49,18,17,206,NA,158,158,15,20,11,8,0.7,0.9
2026-05-31T1200,1106A,123.4019,41.7978,沈阳市,太原街,臭氧1小时(O3_1h),104,106,57,20,18,208,NA,167,167,10,15,8,9,0.5,0.6
2026-05-31T1200,1108A,123.3778,41.9233,沈阳市,京沈街,颗粒物(PM10),122,176,66,23,18,220,NA,176,176,14,20,12,13,0.8,0.9
2026-05-31T1200,1109A,121.6119,38.974,大连市,甘井子,臭氧1小时(O3_1h),58,55,53,26,19,166,NA,137,137,10,10,12,10,0.6,0.5
2026-05-31T1200,1110A,121.565,38.9509,大连市,周水子,臭氧1小时(O3_1h),80,39,38,23,19,184,NA,146,146,15,18,8,8,0.4,0.4
2026-05-31T1200,1111A,121.5637,38.8849,大连市,星海三站,臭氧1小时(O3_1h),54,50,40,22,22,163,NA,132,132,17,16,12,10,0.7,0.6
2026-05-31T1200,1112A,121.6301,38.9117,大连市,青泥洼桥,臭氧1小时(O3_1h),85,55,43,32,20,188,NA,150,150,13,14,12,10,0.5,0.4
2026-05-31T1200,1113A,121.6248,38.8643,大连市,傅家庄,颗粒物(PM10),55,56,41,33,21,154,NA,126,126,15,16,9,9,0.5,0.4
2026-05-31T1200,1114A,121.5117,38.8636,大连市,七贤岭,臭氧1小时(O3_1h),78,42,41,17,12,182,NA,146,146,13,13,7,6,0.5,0.4
2026-05-31T1200,1116A,121.7507,39.1339,大连市,金州,臭氧1小时(O3_1h),70,53,50,30,17,176,NA,142,142,19,19,11,9,0.6,0.5
2026-05-31T1200,1117A,121.7811,39.0495,大连市,开发区,细颗粒物(PM2.5),58,44,40,39,22,157,NA,122,122,20,24,10,9,0.6,0.4
2026-05-31T1200,1118A,121.9762,39.0631,大连市,双D港,"颗粒物(PM10),臭氧1小时(O3_1h)",52,52,42,31,24,161,NA,116,116,12,16,9,8,0.7,0.6
2026-05-31T1200,1120A,125.2874,43.9024,长春市,客车厂,臭氧1小时(O3_1h),97,71,33,18,15,197,NA,118,118,15,29,8,7,0.4,0.3
2026-05-31T1200,1121A,125.2943,43.8508,长春市,邮电学院,臭氧1小时(O3_1h),103,80,27,18,14,205,NA,120,120,11,29,9,7,0.6,0.5
2026-05-31T1200,1122A,125.3648,43.8745,长春市,劳动公园,臭氧1小时(O3_1h),103,74,27,20,11,206,NA,128,128,12,29,8,7,0.4,0.3
2026-05-31T1200,1123A,125.3233,43.8781,长春市,园林处,臭氧1小时(O3_1h),105,68,25,13,12,210,NA,123,123,10,26,5,4,0.6,0.5
2026-05-31T1200,1124A,125.4604,43.7904,长春市,净月潭,臭氧1小时(O3_1h),103,42,17,19,11,205,NA,118,118,9,24,7,6,0.4,0.3
2026-05-31T1200,1126A,125.38,43.8422,长春市,经开区环卫处,臭氧1小时(O3_1h),102,58,25,15,11,203,NA,120,120,12,30,6,6,0.4,0.3
2026-05-31T1200,1127A,125.234,43.7761,长春市,高新区管委会,臭氧1小时(O3_1h),95,56,26,17,11,196,NA,113,113,9,35,8,7,0.7,0.5
2026-05-31T1200,1128A,125.1695,43.83,长春市,岱山公园,臭氧1小时(O3_1h),109,92,32,19,12,218,NA,134,134,12,31,6,5,0.6,0.5
2026-05-31T1200,1130A,126.5557,45.8109,哈尔滨市,松北商大,臭氧1小时(O3_1h),63,37,19,11,12,170,NA,112,112,12,24,6,5,0.3,0.3
2026-05-31T1200,1132A,126.6162,45.719,哈尔滨市,南岗学府路,臭氧1小时(O3_1h),63,64,39,9,12,170,NA,111,111,15,34,8,7,0.5,0.6
2026-05-31T1200,1133A,126.6894,45.7733,哈尔滨市,太平宏伟公园,颗粒物(PM10),98,117,39,11,11,171,NA,109,109,17,32,9,8,0.4,0.4
2026-05-31T1200,1134A,126.6361,45.7672,哈尔滨市,道外承德广场,颗粒物(PM10),100,119,51,4,9,168,NA,109,109,16,32,8,7,0.8,0.5
2026-05-31T1200,1136A,126.644,45.7261,哈尔滨市,动力和平路,颗粒物(PM10),68,74,36,20,11,170,NA,106,106,15,31,7,7,0.5,0.3
2026-05-31T1200,1137A,126.5933,45.7479,哈尔滨市,道里建国路,颗粒物(PM10),75,84,37,8,11,178,NA,120,120,16,32,6,5,0.8,0.9
2026-05-31T1200,1138A,126.6127,45.6119,哈尔滨市,平房东轻厂,臭氧1小时(O3_1h),59,31,23,2,5,167,NA,106,106,11,27,10,8,0.4,0.4
2026-05-31T1200,1139A,126.5875,45.9827,哈尔滨市,呼兰师专,颗粒物(PM10),75,85,41,7,8,157,NA,107,107,17,27,8,7,0.3,0.3
2026-05-31T1200,1140A,126.6299,45.6799,哈尔滨市,省农科院,NA,NA,NA,42,34,17,152,NA,93,93,12,23,7,6,0.4,0.5
2026-05-31T1200,1141A,121.401,31.2382,上海市,普陀,,44,21,27,9,14,140,NA,117,116,18,23,6,6,0.2,0.2
2026-05-31T1200,1142A,121.4774,31.2043,上海市,十五厂,,46,20,34,9,20,146,NA,106,106,18,26,6,6,0.4,0.4
2026-05-31T1200,1143A,121.4673,31.3011,上海市,虹口,,45,20,27,12,13,143,NA,112,112,12,20,4,4,0.4,0.4
2026-05-31T1200,1147A,121.4253,31.226,上海市,静安监测站,,45,15,35,10,16,142,NA,115,115,16,21,8,8,0.4,0.5
2026-05-31T1200,1148A,121.7029,31.1905,上海市,浦东川沙,,42,12,39,6,20,132,NA,104,104,30,30,6,6,0.4,0.5
2026-05-31T1200,1149A,121.5339,31.229,上海市,浦东新区监测站,,45,15,28,9,18,142,NA,103,103,11,16,7,7,0.4,0.4
2026-05-31T1200,1150A,121.5776,31.2038,上海市,浦东张江,,50,15,30,7,19,159,NA,111,111,19,26,7,7,0.2,0.2
2026-05-31T1200,1151A,118.8033,32.1085,南京市,迈皋桥,臭氧1小时(O3_1h),101,33,39,16,25,201,NA,137,137,11,16,6,8,0.3,0.3
2026-05-31T1200,1152A,118.7487,32.057,南京市,草场门,臭氧1小时(O3_1h),100,34,48,10,27,200,NA,144,144,13,20,5,7,0.4,0.4
2026-05-31T1200,1154A,118.770105,32.004342,南京市,中华门,臭氧1小时(O3_1h),65,41,56,5,31,172,NA,121,121,5,11,7,6,0.3,0.4
2026-05-31T1200,1155A,118.8059,32.0329,南京市,瑞金路,臭氧1小时(O3_1h),84,34,51,12,29,187,NA,125,125,13,28,4,4,0.3,0.3
2026-05-31T1200,1156A,118.7946,32.0774,南京市,玄武湖,臭氧1小时(O3_1h),78,53,45,11,21,182,NA,131,131,14,16,7,8,0.3,0.4
2026-05-31T1200,1157A,118.6415,32.0964,南京市,浦口,臭氧1小时(O3_1h),84,45,50,14,27,187,NA,117,117,18,24,5,7,0.3,0.4
2026-05-31T1200,1158A,118.730129,32.000956,南京市,奥体中心,臭氧1小时(O3_1h),78,37,58,8,27,182,NA,129,129,13,26,7,9,0.0,0.1
2026-05-31T1200,1159A,118.9072,32.1047,南京市,仙林大学城,臭氧1小时(O3_1h),93,41,53,10,28,194,NA,132,132,8,15,7,7,0.5,0.6
2026-05-31T1200,1163A,120.5974,31.3247,苏州市,轧钢厂,,46,23,40,3,13,146,NA,119,119,16,25,9,9,0.4,0.5
2026-05-31T1200,1164A,120.6329,31.2741,苏州市,吴中区,,47,16,38,5,15,149,NA,114,114,21,31,8,8,0.4,0.4
2026-05-31T1200,1165A,120.5566,31.3049,苏州市,苏州新区,臭氧1小时(O3_1h),65,21,33,9,18,172,NA,130,130,16,26,7,6,0.4,0.4
2026-05-31T1200,1166A,120.668709,31.312523,苏州市,苏州工业园区,,48,23,33,5,18,152,NA,128,128,9,19,9,9,0.6,0.7
2026-05-31T1200,1167A,120.6408,31.3707,苏州市,相城区,,46,18,37,2,16,147,NA,124,124,11,29,7,7,0.2,0.3
2026-05-31T1200,1168A,120.9056,31.9669,南通市,狼山街道,,40,13,26,0,14,127,NA,90,90,10,31,4,6,0.4,0.5
2026-05-31T1200,1170A,120.8635,32.0231,南通市,城中,,40,26,41,0,14,126,NA,99,99,12,33,6,8,0.4,0.5
2026-05-31T1200,1171A,120.9376,31.9301,南通市,星湖花园,,39,18,37,1,15,123,NA,97,97,7,25,4,6,0.4,0.6
2026-05-31T1200,1172A,120.8053,32.046,南通市,紫琅学院,,45,32,34,5,14,142,NA,91,91,24,43,9,8,0.7,0.7
2026-05-31T1200,1173A,119.1759,34.5885,连云港市,市环境监测站,臭氧1小时(O3_1h),77,36,42,17,26,181,NA,137,137,11,15,10,11,0.4,0.5
2026-05-31T1200,1180A,117.257,34.2161,徐州市,新城区,臭氧1小时(O3_1h),72,68,66,14,33,177,NA,125,125,2,11,8,8,0.4,0.5
2026-05-31T1200,1182A,117.2933,34.2796,徐州市,农科院,颗粒物(PM10),70,78,62,19,35,175,NA,129,129,7,13,6,6,0.6,0.5
2026-05-31T1200,1186A,119.3895,32.377,扬州市,邗江监测站,臭氧1小时(O3_1h),68,41,63,5,33,174,NA,115,115,10,28,10,12,0.6,0.7
2026-05-31T1200,1188A,120.2693,31.4864,无锡市,雪浪,臭氧1小时(O3_1h),54,29,39,2,17,163,NA,116,116,11,18,8,8,0.4,0.6
2026-05-31T1200,1189A,120.2761,31.621,无锡市,黄巷,,48,32,48,0,20,151,NA,106,106,12,40,6,6,0.4,0.6
2026-05-31T1200,1191A,120.2422,31.5037,无锡市,漆塘,臭氧1小时(O3_1h),73,46,47,4,17,178,NA,131,131,9,16,6,6,0.2,0.3
2026-05-31T1200,1192A,120.3489,31.5865,无锡市,东亭,,47,27,42,1,22,150,NA,98,98,20,56,7,8,0.7,0.8
2026-05-31T1200,1193A,120.3538,31.5474,无锡市,旺庄,臭氧1小时(O3_1h),52,26,50,1,22,161,NA,107,107,16,40,7,7,0.6,0.7
2026-05-31T1200,1194A,120.2447,31.5633,无锡市,荣巷,臭氧1小时(O3_1h),63,29,37,2,18,170,NA,124,124,11,22,6,6,0.2,0.4
2026-05-31T1200,1195A,120.2986,31.6816,无锡市,堰桥,,47,29,53,3,25,150,NA,100,100,22,55,6,6,0.1,0.4
2026-05-31T1200,1196A,119.9524,31.7586,常州市,市监测站,,44,10,46,0,26,139,NA,106,106,9,29,3,4,0.1,0.3
2026-05-31T1200,1200A,119.9351,31.703,常州市,武进监测站,NA,NA,NA,53,NA,28,NA,NA,155,NA,NA,26,NA,17,NA,0.6
2026-05-31T1200,1203A,119.6708,32.187,镇江市,新区办事处,臭氧1小时(O3_1h),58,15,75,5,49,166,NA,87,87,13,50,5,7,0.3,0.6
2026-05-31T1200,1204A,119.497455,32.196732,镇江市,职教中心,,50,14,66,6,46,159,NA,113,113,12,29,7,10,0.4,0.6
2026-05-31T1200,1205A,119.43,32.1328,镇江市,丹徒区监测站,臭氧1小时(O3_1h),54,17,62,6,40,163,NA,111,111,19,41,3,5,0.3,0.5
2026-05-31T1200,1206A,119.9042,32.488,泰州市,公园路,,44,29,58,3,40,140,NA,89,89,10,25,8,11,0.3,0.6
2026-05-31T1200,1207A,119.9189,32.4626,泰州市,莲花,,46,29,62,2,36,146,NA,92,92,10,27,9,12,0.2,0.4
2026-05-31T1200,1209A,119.8877,32.4636,泰州市,留学生创业园,,47,17,63,9,35,148,NA,100,100,8,25,11,15,0.4,0.7
2026-05-31T1200,1210A,119.0566,33.5991,淮安市,钵池山,臭氧1小时(O3_1h),52,34,40,13,24,161,NA,136,136,14,19,12,14,0.4,0.4
2026-05-31T1200,1211A,119.0083,33.578,淮安市,北京南路,臭氧1小时(O3_1h),73,44,46,14,28,178,NA,138,138,11,17,8,9,0.5,0.6
2026-05-31T1200,1212A,118.9938,33.6083,淮安市,市监测站,臭氧1小时(O3_1h),67,34,39,15,25,173,NA,128,128,14,22,7,11,0.4,0.7
2026-05-31T1200,1213A,119.135,33.5038,淮安市,楚州区监测站,,50,32,49,12,31,160,NA,125,125,10,23,7,8,0.3,0.4
2026-05-31T1200,1216A,120.1554,33.3941,盐城市,市监测站,,48,32,51,16,35,151,NA,112,112,10,20,9,12,0.4,0.5
2026-05-31T1200,1218A,120.214332,33.37951,盐城市,开发区管委会,,46,37,68,13,41,146,NA,93,93,8,18,9,12,0.3,0.5
2026-05-31T1200,1220A,118.2924,33.933,宿迁市,宿迁学院,臭氧1小时(O3_1h),94,56,50,25,25,195,NA,142,142,3,10,10,10,0.5,0.5
2026-05-31T1200,1221A,118.2321,33.9572,宿迁市,宿迁中学,臭氧1小时(O3_1h),99,40,45,19,25,199,NA,145,145,7,12,7,7,0.3,0.4
2026-05-31T1200,1223A,120.2073,30.2111,杭州市,滨江,臭氧1小时(O3_1h),64,26,47,14,23,171,NA,86,86,6,24,8,9,0.4,0.5
2026-05-31T1200,1224A,120.0625,30.2737,杭州市,西溪,臭氧1小时(O3_1h),63,32,34,20,22,170,NA,97,97,10,24,4,4,0.1,0.2
2026-05-31T1200,1226A,120.3417,30.315,杭州市,下沙,,50,13,37,10,20,158,NA,88,88,8,31,6,7,0.4,0.5
2026-05-31T1200,1227A,120.1252,30.2465,杭州市,卧龙桥,臭氧1小时(O3_1h),74,38,35,20,22,179,NA,91,91,10,19,9,8,0.1,0.2
2026-05-31T1200,1228A,120.1902,30.2691,杭州市,浙江农大,臭氧1小时(O3_1h),54,27,45,16,25,163,NA,86,86,12,31,7,7,0.4,0.4
2026-05-31T1200,1230A,120.1195,30.3121,杭州市,和睦小学,臭氧1小时(O3_1h),68,40,38,26,24,174,NA,90,90,15,27,8,8,0.5,0.5
2026-05-31T1200,1231A,120.3076,30.4146,杭州市,临平镇,NA,NA,32,40,15,20,181,NA,112,112,NA,21,10,8,0.3,0.3
2026-05-31T1200,1232A,120.2753,30.1839,杭州市,城厢镇,臭氧1小时(O3_1h),57,26,50,13,25,165,NA,91,91,10,31,6,8,0.4,0.5
2026-05-31T1200,1233A,120.0883,30.1808,杭州市,云栖,臭氧1小时(O3_1h),58,36,43,17,21,166,NA,79,79,17,28,9,9,0.6,0.7
2026-05-31T1200,1234A,121.8352,29.9111,宁波市,区环保大楼,臭氧1小时(O3_1h),60,29,32,8,8,168,NA,127,127,19,31,8,8,0.4,0.4
2026-05-31T1200,1235A,121.5595,29.8208,宁波市,万里学院,,50,27,33,3,10,159,NA,120,120,11,17,8,8,0.5,0.5
2026-05-31T1200,1236A,121.713,29.9564,宁波市,龙赛医院,臭氧1小时(O3_1h),77,32,34,8,9,181,NA,124,124,21,26,12,11,0.5,0.5
2026-05-31T1200,1240A,121.5855,29.8635,宁波市,太古小学,NA,NA,15,33,4,10,142,NA,116,116,NA,17,4,6,0.0,0.1
2026-05-31T1200,1241A,121.5239,29.8673,宁波市,市环境监测中心,,48,32,36,5,11,153,NA,114,114,11,20,11,11,0.3,0.4
2026-05-31T1200,1242A,120.6342,28.0088,温州市,瓯海,,42,33,35,10,16,134,NA,75,75,9,30,6,7,0.5,0.6
2026-05-31T1200,1243A,120.6747,27.9881,温州市,南浦,,47,32,37,11,16,150,NA,90,90,8,23,4,5,0.4,0.6
2026-05-31T1200,1244A,120.76,27.9745,温州市,龙湾,,42,27,33,9,12,134,NA,81,81,7,22,7,6,0.5,0.6
2026-05-31T1200,1247A,120.6053,29.9927,绍兴市,城东开发委,,42,17,38,9,19,133,NA,93,93,11,23,8,9,0.3,0.4
2026-05-31T1200,1250A,120.075,30.867,湖州市,城西水厂,,50,23,46,14,26,160,NA,95,95,11,27,6,7,0.4,0.5
2026-05-31T1200,1252A,120.7439,30.778,嘉兴市,清河小学,,41,14,37,0,13,131,NA,110,110,12,27,8,9,0.4,0.5
2026-05-31T1200,1253A,120.7261,30.7477,嘉兴市,嘉兴学院,,43,11,23,4,12,137,NA,118,118,7,16,5,6,0.3,0.3
2026-05-31T1200,1255A,121.2727,28.6461,台州市,黄岩环保大楼,,45,36,28,11,10,143,NA,105,105,13,15,/,/,/,/
2026-05-31T1200,1256A,121.4188,28.6545,台州市,台州环保大楼,,43,15,28,4,11,137,NA,114,114,9,10,/,/,0.3,0.3
2026-05-31T1200,1257A,121.3768,28.5772,台州市,路桥田洋王,,41,13,36,4,12,131,NA,108,108,10,13,5,5,0.2,0.2
2026-05-31T1200,1258A,122.1223,30.0203,舟山市,定海檀枫,,46,26,22,10,7,146,NA,118,118,8,10,11,11,0.4,0.4
2026-05-31T1200,1260A,122.1898,29.9945,舟山市,临城新区,臭氧1小时(O3_1h),53,23,20,10,7,162,NA,124,124,6,7,7,6,0.5,0.4
2026-05-31T1200,1262A,119.6478,29.0773,金华市,十五中,臭氧1小时(O3_1h),70,31,46,14,21,176,NA,117,117,10,26,2,3,0.3,0.4
2026-05-31T1200,1263A,119.6859,29.1032,金华市,监测站,,50,29,48,13,20,160,NA,108,108,12,32,4,5,0.4,0.4
2026-05-31T1200,1264A,118.8694,28.94,衢州市,环保大楼,臭氧1小时(O3_1h),78,62,45,42,27,182,NA,124,124,15,19,/,/,/,/
2026-05-31T1200,1266A,118.8622,28.9809,衢州市,衢州学院,臭氧1小时(O3_1h),55,45,43,34,25,164,NA,110,110,13,20,8,8,0.5,0.5
2026-05-31T1200,1267A,119.9141,28.4513,丽水市,监测站大楼,,43,31,39,11,20,136,NA,103,103,6,13,4,4,0.1,0.4
2026-05-31T1200,1268A,119.93,28.4589,丽水市,莲都小学,,44,28,35,12,19,140,NA,102,102,5,12,/,/,/,/
2026-05-31T1200,1269A,119.8794,28.4232,丽水市,余庄前,,42,17,34,8,20,134,NA,87,87,5,16,4,4,0.3,0.5
2026-05-31T1200,1270A,117.1957,31.7845,合肥市,明珠广场,臭氧1小时(O3_1h),105,51,58,17,30,210,NA,NA,NA,11,13,8,8,0.4,0.6
2026-05-31T1200,1271A,117.307,31.8765,合肥市,三里街,,50,41,66,11,33,157,NA,125,125,14,21,9,9,0.4,0.6
2026-05-31T1200,1272A,117.2587,31.8703,合肥市,琥珀山庄,臭氧1小时(O3_1h),60,46,61,14,27,168,NA,136,136,9,12,8,7,0.7,0.9
2026-05-31T1200,1275A,117.2593,31.9376,合肥市,庐阳区,臭氧1小时(O3_1h),58,39,65,8,29,166,NA,130,130,13,19,9,9,0.5,0.7
2026-05-31T1200,1276A,117.345251,31.861615,合肥市,瑶海区,臭氧1小时(O3_1h),73,34,73,10,30,178,NA,124,124,9,23,9,8,0.4,0.6
2026-05-31T1200,1277A,117.3033,31.7967,合肥市,包河区,臭氧1小时(O3_1h),67,51,66,16,28,173,NA,91,91,18,32,10,9,0.4,0.6
2026-05-31T1200,1278A,117.278,31.7392,合肥市,滨湖新区,臭氧1小时(O3_1h),70,56,61,15,26,176,NA,132,132,8,13,9,9,0.5,0.7
2026-05-31T1200,1279A,117.1324,31.8395,合肥市,高新区,臭氧1小时(O3_1h),75,48,67,14,30,180,NA,141,141,8,11,7,7,0.3,0.6
2026-05-31T1200,1282A,119.2681,26.0506,福州市,师大,臭氧1小时(O3_1h),77,47,36,16,15,181,NA,137,137,13,12,8,5,0.5,0.4
2026-05-31T1200,1283A,119.2983,26.1028,福州市,五四北路,臭氧1小时(O3_1h),60,43,30,15,16,168,NA,139,139,14,13,8,6,0.4,0.3
2026-05-31T1200,1284A,119.2648,26.0769,福州市,杨桥西路,臭氧1小时(O3_1h),79,50,35,18,16,183,NA,135,135,13,11,8,5,/,/
2026-05-31T1200,1287A,118.1519,24.4768,厦门市,洪文,臭氧1小时(O3_1h),70,38,40,17,18,176,NA,133,133,17,12,4,4,0.4,0.4
2026-05-31T1200,1288A,118.0671,24.4447,厦门市,鼓浪屿,臭氧1小时(O3_1h),102,43,48,19,18,204,NA,152,152,12,12,3,3,/,/
2026-05-31T1200,1291A,115.8887,28.7006,南昌市,省林业公司,颗粒物(PM10),56,58,60,37,42,150,NA,118,118,8,11,6,7,0.7,0.7
2026-05-31T1200,1292A,115.813,28.7443,南昌市,林科所,细颗粒物(PM2.5),72,61,54,46,40,157,NA,130,129,3,6,11,9,0.8,0.7
2026-05-31T1200,1294A,115.8518,28.687,南昌市,建工学校,细颗粒物(PM2.5),60,60,59,40,42,155,NA,130,129,4,9,10,9,0.8,0.8
2026-05-31T1200,1295A,115.8926,28.6425,南昌市,象湖,细颗粒物(PM2.5),62,61,59,41,44,158,NA,128,128,15,15,10,10,0.8,0.7
2026-05-31T1200,1299A,116.9866,36.6118,济南市,科干所,臭氧1小时(O3_1h),79,51,35,18,14,183,NA,158,158,13,12,8,8,0.5,0.4
2026-05-31T1200,1300A,116.9379,36.6652,济南市,农科所,臭氧1小时(O3_1h),74,71,48,17,16,179,NA,142,142,12,14,6,5,0.4,0.3
2026-05-31T1200,1301A,117.1265,36.6736,济南市,开发区,臭氧1小时(O3_1h),68,61,40,15,12,174,NA,157,157,7,9,7,7,0.4,0.4
2026-05-31T1200,1303A,117.0616,36.6865,济南市,省种子仓库,臭氧1小时(O3_1h),63,66,49,15,14,170,NA,142,142,19,23,8,7,0.5,0.4
2026-05-31T1200,1304A,116.9495185,36.644937,济南市,机床二厂,颗粒物(PM10),75,85,56,21,16,178,NA,148,148,12,12,8,7,0.4,0.4
2026-05-31T1200,1305A,117.0496,36.6629,济南市,市监测站,臭氧1小时(O3_1h),70,73,45,16,12,176,NA,156,156,10,11,5,5,0.3,0.2
2026-05-31T1200,1306A,116.7674,36.5458,济南市,长清党校,臭氧1小时(O3_1h),73,78,54,12,17,178,NA,142,142,12,14,8,7,0.3,0.2
2026-05-31T1200,1310A,120.404,36.0625,青岛市,市南区东部子站,细颗粒物(PM2.5),96,66,50,58,27,179,NA,120,120,18,18,9,10,0.6,0.5
2026-05-31T1200,1311A,120.362344,36.10282,青岛市,四方区子站,臭氧1小时(O3_1h),95,53,42,35,24,196,NA,141,141,16,16,11,10,0.9,0.7
2026-05-31T1200,1312A,120.294373,36.054183,青岛市,市南区西部子站,颗粒物(PM10),67,73,58,43,27,164,NA,113,113,21,27,7,9,1.0,0.9
2026-05-31T1200,1313A,120.4581,36.0858,青岛市,崂山区子站,细颗粒物(PM2.5),92,75,44,56,24,187,NA,118,118,25,20,12,10,0.3,0.4
2026-05-31T1200,1315A,120.3945,36.3083,青岛市,城阳区子站,臭氧1小时(O3_1h),113,75,49,30,20,226,NA,158,158,26,22,12,10,0.8,0.5
2026-05-31T1200,1316A,113.6843,34.7622,郑州市,烟厂,臭氧1小时(O3_1h),60,48,38,22,17,168,NA,125,125,10,16,7,7,0.3,0.3
2026-05-31T1200,1318A,113.669,34.8034,郑州市,银行学校,臭氧1小时(O3_1h),55,38,36,21,20,164,NA,113,113,7,15,5,5,0.3,0.3
2026-05-31T1200,1319A,113.5612,34.8143,郑州市,供水公司,臭氧1小时(O3_1h),58,45,49,13,19,166,NA,104,104,9,18,5,6,0.2,0.3
2026-05-31T1200,1320A,113.7269,34.7187,郑州市,经开区管委,颗粒物(PM10),55,56,39,18,14,162,NA,117,117,5,13,6,2,0.6,0.5
2026-05-31T1200,1321A,113.7332,34.7727,郑州市,四十七中,颗粒物(PM10),57,59,43,15,17,156,NA,121,121,6,12,4,4,0.3,0.3
2026-05-31T1200,1323A,113.6361,34.7537,郑州市,河医大,颗粒物(PM10),51,51,35,12,15,160,NA,113,113,13,20,5,5,0.3,0.3
2026-05-31T1200,1325A,114.3676,30.5584,武汉市,东湖梨园,"颗粒物(PM10),臭氧1小时(O3_1h)",53,53,40,28,27,162,NA,102,102,10,16,8,8,0.5,0.5
2026-05-31T1200,1326A,114.2527,30.5578,武汉市,汉阳月湖,,50,46,48,35,29,146,NA,98,98,13,23,2,3,0.5,0.5
2026-05-31T1200,1327A,114.2819,30.6189,武汉市,汉口花桥,"细颗粒物(PM2.5),臭氧1小时(O3_1h)",58,45,44,39,31,166,NA,122,122,13,17,5,4,0.4,0.4
2026-05-31T1200,1328A,114.3024,30.5332,武汉市,武昌紫阳,颗粒物(PM10),53,53,56,35,30,161,NA,106,106,4,23,7,8,0.6,0.6
2026-05-31T1200,1329A,114.3646,30.6217,武汉市,青山钢花,臭氧1小时(O3_1h),62,55,46,33,30,169,NA,101,101,14,19,4,3,0.5,0.5
2026-05-31T1200,1330A,114.156697,30.482592,武汉市,沌口新区,,48,34,44,22,25,152,NA,84,84,9,30,5,5,0.5,0.5
2026-05-31T1200,1331A,114.3013,30.5944,武汉市,汉口江滩,颗粒物(PM10),53,53,47,29,30,113,NA,67,67,59,55,8,8,0.6,0.6
2026-05-31T1200,1333A,114.1285,30.6339,武汉市,吴家山,颗粒物(PM10),51,51,33,29,25,155,NA,109,109,16,21,2,2,0.6,0.5
2026-05-31T1200,1335A,113.082,28.2421,长沙市,经开区环保局,颗粒物(PM10),67,73,56,42,30,138,NA,60,60,15,25,10,6,0.9,0.6
2026-05-31T1200,1336A,112.8873,28.2202,长沙市,高开区环保局,颗粒物(PM10),53,53,51,26,26,148,NA,85,85,2,14,10,9,0.6,0.7
2026-05-31T1200,1337A,113.0785,28.2012,长沙市,马坡岭,细颗粒物(PM2.5),66,70,55,43,25,147,NA,58,58,17,27,13,7,1.1,0.8
2026-05-31T1200,1338A,112.9448,28.1894,长沙市,湖南师范大学,颗粒物(PM10),60,63,46,25,21,158,NA,88,88,5,7,9,7,1.2,1
2026-05-31T1200,1339A,113.0177,28.1322,长沙市,雨花区环保局,颗粒物(PM10),69,76,54,36,28,149,NA,86,86,11,13,20,8,1.7,1
2026-05-31T1200,1340A,112.9795,28.2593,长沙市,伍家岭,,49,49,56,22,25,155,NA,66,66,6,21,6,4,0.7,0.7
2026-05-31T1200,1341A,113.002,28.1944,长沙市,火车新站,颗粒物(PM10),61,65,51,31,27,148,NA,84,84,12,21,13,10,0.7,0.5
2026-05-31T1200,1342A,112.9846,28.1177,长沙市,天心区环保局,颗粒物(PM10),63,68,51,27,29,157,NA,86,86,12,20,11,7,1.1,0.7
2026-05-31T1200,1343A,112.8906,28.1307,长沙市,湖南中医药大学,颗粒物(PM10),55,57,47,22,22,151,NA,69,69,7,23,8,7,0.5,0.5
2026-05-31T1200,1345A,113.2346,23.1423,广州市,广雅中学,,30,23,24,21,17,94,NA,73,73,15,17,3,2,0.7,0.6
2026-05-31T1200,1346A,113.2611,23.105,广州市,市五中,,38,23,25,22,16,119,NA,89,89,11,14,2,3,/,/
2026-05-31T1200,1348A,113.3477,23.0916,广州市,广东商学院,,38,18,27,16,16,119,NA,87,87,10,15,4,4,0.6,0.6
2026-05-31T1200,1349A,113.4332,23.105,广州市,市八十六中,,39,15,19,13,15,123,NA,82,82,16,23,6,6,/,/
2026-05-31T1200,1350A,113.3506,22.9488,广州市,番禺中学,,41,14,24,9,16,129,NA,101,101,11,15,5,5,0.5,0.5
2026-05-31T1200,1351A,113.2147,23.3918,广州市,花都师范,,37,20,27,13,15,118,NA,66,66,14,13,7,7,0.8,0.8
2026-05-31T1200,1352A,113.2599,23.1329,广州市,市监测站,,40,35,28,28,18,97,NA,77,75,16,14,2,2,/,/
2026-05-31T1200,1353A,113.5618,23.3119,广州市,九龙镇镇龙,,37,31,21,25,14,117,NA,76,76,19,17,6,6,0.8,0.7
2026-05-31T1200,1354A,113.2764,23.1544,广州市,麓湖,,48,36,21,33,15,105,NA,69,69,12,19,6,6,0.8,0.7
2026-05-31T1200,1356A,114.0948,22.5506,深圳市,通心岭子站,,40,38,32,14,17,127,NA,119,107,7,12,3,3,0.4,0.5
2026-05-31T1200,1357A,114.1153,22.5713,深圳市,洪湖,,42,40,38,21,20,132,NA,113,104,5,13,6,6,0.4,0.4
2026-05-31T1200,1358A,113.9823,22.5398,深圳市,华侨城,,47,25,31,16,20,148,NA,113,113,4,15,/,/,/,/
2026-05-31T1200,1359A,113.9181,22.517,深圳市,南海子站,,48,29,33,18,22,152,NA,122,122,9,14,4,5,0.8,0.8
2026-05-31T1200,1360A,114.2345,22.565,深圳市,盐田,,39,38,33,21,21,124,NA,113,104,19,19,6,6,0.3,0.3
2026-05-31T1200,1363A,114.4911,22.5381,深圳市,南澳,,46,31,32,13,18,147,NA,121,121,7,8,/,/,/,/
2026-05-31T1200,1364A,114.41,22.6346,深圳市,葵涌,,41,37,36,16,19,131,NA,129,127,20,12,7,7,0.7,0.7
2026-05-31T1200,1365A,114.2967,22.5978,深圳市,梅沙,,48,36,37,18,19,151,NA,139,134,5,7,/,/,/,/
2026-05-31T1200,1366A,114.0563,22.7353,深圳市,观澜,,47,46,38,25,19,149,NA,115,109,15,16,5,6,0.9,0.8
2026-05-31T1200,1367A,113.5811,22.2618,珠海市,吉大,,45,20,20,18,16,141,NA,133,127,2,4,5,5,0.8,0.8
2026-05-31T1200,1368A,113.4893,22.2323,珠海市,前山,,41,18,28,13,17,129,NA,125,117,11,12,/,/,/,/
2026-05-31T1200,1369A,113.6284,22.4252,珠海市,唐家,,42,23,24,14,17,134,NA,114,110,6,7,/,/,/,/
2026-05-31T1200,1370A,113.2986,22.2284,珠海市,斗门,,36,18,24,7,21,113,NA,115,110,10,7,6,6,0.8,0.8
2026-05-31T1200,1371A,113.1293,23.0065,佛山市,湾梁,,45,NA,32,31,25,94,NA,79,78,21,17,/,/,/,/
2026-05-31T1200,1372A,113.1082,23.0477,佛山市,华材职中,,48,NA,31,33,26,94,NA,72,72,16,16,6,7,0.9,0.8
2026-05-31T1200,1373A,113.1439,23.045,佛山市,南海气象局,,35,32,32,24,24,100,NA,74,74,21,18,/,/,/,/
2026-05-31T1200,1374A,113.2879,22.8094,佛山市,顺德苏岗,,44,NA,17,18,19,139,NA,106,106,13,14,/,/,0.7,0.6
2026-05-31T1200,1376A,112.8384,22.8678,佛山市,高明孔堂,,36,28,29,25,22,100,NA,72,69,13,13,/,/,/,/
2026-05-31T1200,1377A,112.8835,23.1584,佛山市,三水监测站,,40,NA,27,28,24,107,NA,52,52,17,26,4,5,0.9,0.8
2026-05-31T1200,1378A,112.8668,23.185,佛山市,三水云东海,,42,34,43,29,25,96,NA,48,48,10,16,/,/,/,/
2026-05-31T1200,1379A,113.377,22.5211,中山市,华柏园,,35,8,28,5,17,112,NA,114,108,8,10,/,/,/,/
2026-05-31T1200,1380A,113.3879,22.5499,中山市,张溪,,39,21,28,3,14,122,NA,121,115,7,11,/,/,/,/
2026-05-31T1200,1381A,113.4071,22.5111,中山市,紫马岭,,35,5,24,4,16,109,NA,110,104,3,7,6,6,0.6,0.7
2026-05-31T1200,1383A,113.1063,22.6058,江门市,北街,,37,23,34,10,24,118,NA,92,92,11,16,/,/,/,/
2026-05-31T1200,1384A,113.073,22.5835,江门市,西区,,39,17,32,12,24,123,NA,93,93,9,17,/,/,/,/
2026-05-31T1200,1385A,113.0218,22.531,江门市,圭峰西,,37,24,37,16,26,118,NA,78,78,10,14,/,/,/,/
2026-05-31T1200,1386A,113.0826,22.5947,江门市,东湖,,37,20,35,13,24,117,NA,88,88,10,15,8,9,0.4,0.4
2026-05-31T1200,1390A,113.7943,23.0132,东莞市,东城石井,,49,26,26,12,14,156,NA,NA,NA,14,17,3,3,0.6,0.7
2026-05-31T1200,1391A,113.7384,22.9659,东莞市,南城西平,,47,16,25,10,13,148,NA,99,99,10,13,1,2,0.7,0.6
2026-05-31T1200,1392A,114.4181,23.0528,惠州市,河南岸金山湖子站,,46,46,34,29,22,113,NA,113,110,8,9,7,7,0.9,0.8
2026-05-31T1200,1393A,114.4055,23.0824,惠州市,下埔横江三路子站,颗粒物(PM10),53,54,40,32,21,113,NA,115,113,9,8,5,4,0.9,0.8
2026-05-31T1200,1395A,114.4645,22.7832,惠州市,惠阳区承修路船湖子站,,48,48,46,23,23,145,NA,126,126,10,12,5,6,0.7,0.7
2026-05-31T1200,1396A,114.5316,22.7423,惠州市,大亚湾管委会子站,,45,37,42,19,23,143,NA,126,126,13,11,6,6,0.6,0.6
2026-05-31T1200,1397A,112.426,23.062,肇庆市,睦岗子站,,40,40,30,22,18,106,NA,53,53,7,15,7,6,/,/
2026-05-31T1200,1398A,112.4645,23.0476,肇庆市,城中子站,,43,39,30,30,21,101,NA,43,43,13,22,10,11,0.6,0.6
2026-05-31T1200,1399A,112.5545,23.1525,肇庆市,坑口子站,,36,34,26,25,17,102,NA,54,54,9,11,8,5,0.6,0.4
2026-05-31T1200,1401A,108.3098,22.788,南宁市,二十一中,,46,46,31,27,21,125,NA,64,64,14,16,4,4,0.7,0.7
2026-05-31T1200,1402A,108.3135,22.8529,南宁市,北湖,NA,NA,NA,33,NA,26,NA,NA,82,45,NA,15,NA,9,NA,0.7
2026-05-31T1200,1403A,108.3205,22.8222,南宁市,市监测站,颗粒物(PM10),56,58,34,34,21,141,NA,72,72,15,13,7,7,0.8,0.8
2026-05-31T1200,1404A,108.3828,22.8038,南宁市,大自然花园,,43,32,27,20,18,135,NA,67,67,12,14,5,5,1.0,1
2026-05-31T1200,1406A,108.2397,22.8462,南宁市,区农职院,颗粒物(PM10),54,55,35,26,21,125,NA,61,61,7,10,10,9,0.8,0.8
2026-05-31T1200,1407A,108.3285,22.7356,南宁市,英华嘉园,,44,42,35,20,21,138,NA,71,71,8,16,5,7,0.8,0.8
2026-05-31T1200,1410A,110.3189,20.0596,海口市,海南大学,,21,18,10,7,6,66,NA,48,48,3,3,5,5,0.4,0.3
2026-05-31T1200,1411A,110.2827,20.0051,海口市,秀英海南医院,,24,15,14,8,7,74,NA,40,40,6,9,6,5,0.3,0.3
2026-05-31T1200,1412A,110.3391,19.9979,海口市,海南师范大学,,24,19,16,10,8,76,NA,50,50,5,4,3,3,0.3,0.3
2026-05-31T1200,1413A,110.3303,20.0359,海口市,龙华路环保局宿舍,,22,13,15,12,7,69,NA,48,48,4,3,/,/,0.3,0.2
2026-05-31T1200,1416A,106.4216,29.8256,重庆市,天生,,32,21,29,10,14,102,NA,54,54,8,18,9,9,0.8,0.8
2026-05-31T1200,1417A,106.6264,29.7226,重庆市,两路,,30,24,31,14,14,94,NA,60,60,12,20,11,11,0.6,0.7
2026-05-31T1200,1419A,106.5778,29.5103,重庆市,南坪,,35,24,32,17,18,109,NA,61,61,13,18,10,9,0.5,0.6
2026-05-31T1200,1420A,106.6556,29.6277,重庆市,唐家沱,,33,23,30,15,17,105,NA,46,46,8,19,10,9,0.4,0.5
2026-05-31T1200,1431A,103.9727,30.7242,成都市,金泉两河,颗粒物(PM10),55,57,56,34,35,114,NA,86,86,22,21,4,4,0.5,0.4
2026-05-31T1200,1432A,104.1423,30.6765,成都市,十里店,颗粒物(PM10),53,53,50,31,27,119,NA,111,97,24,15,6,6,0.5,0.4
2026-05-31T1200,1433A,104.0594,30.5765,成都市,三瓦窑,颗粒物(PM10),71,79,51,40,27,135,NA,118,113,17,16,6,6,0.7,0.6
2026-05-31T1200,1434A,104.1122,30.6306,成都市,沙河铺,颗粒物(PM10),62,66,53,36,27,121,NA,118,108,22,16,6,6,0.5,0.5
2026-05-31T1200,1439A,106.6863,26.6035,贵阳市,马鞍山,,39,39,30,18,15,110,NA,50,50,8,9,9,6,/,/
2026-05-31T1200,1441A,106.6241,26.6266,贵阳市,鉴湖路,NA,NA,53,45,17,16,114,NA,83,83,NA,7,NA,12,1.6,0.9
2026-05-31T1200,1442A,106.7468,26.6344,贵阳市,燕子冲,,44,44,42,20,16,114,NA,54,54,10,11,20,9,0.8,0.9
2026-05-31T1200,1443A,106.6556,26.4362,贵阳市,碧云窝,,48,48,46,19,19,107,NA,62,62,5,10,12,7,/,/
2026-05-31T1200,1445A,106.6963,26.6063,贵阳市,红边门,,41,41,36,20,18,111,NA,71,71,9,13,14,8,/,/
2026-05-31T1200,1446A,106.7162383,26.56964667,贵阳市,新华路,,48,48,45,18,19,119,NA,76,76,9,12,83,52,0.9,0.4
2026-05-31T1200,1447A,106.6742,26.542,贵阳市,太慈桥,,34,34,33,20,17,86,NA,46,46,7,14,5,3,/,/
2026-05-31T1200,1450A,102.8203,24.889,昆明市,呈贡新区,,26,14,19,9,14,82,NA,63,63,5,11,3,5,0.5,0.7
2026-05-31T1200,1452A,102.7253,25.0904,昆明市,龙泉镇,,20,15,27,13,16,64,NA,44,44,10,17,5,5,0.4,0.5
2026-05-31T1200,1453A,102.7267,25.0378,昆明市,东风东路,,23,16,27,8,16,72,NA,54,54,13,24,2,2,0.3,0.4
2026-05-31T1200,1454A,102.6744,25.0671,昆明市,金鼎山,,22,21,33,15,18,67,NA,45,45,10,18,4,4,0.5,0.6
2026-05-31T1200,1455A,102.6643,25.0401,昆明市,碧鸡广场,,21,17,28,12,17,66,NA,39,39,9,17,2,2,0.5,0.6
2026-05-31T1200,1456A,91.132,29.6515,拉萨市,八廓街,,41,15,15,6,9,131,NA,112,110,4,7,5,5,0.2,0.2
2026-05-31T1200,1457A,91.1221,29.6748,拉萨市,市环保局,,41,14,18,6,10,130,NA,108,108,7,10,6,6,0.2,0.3
2026-05-31T1200,1458A,91.0874,29.6476,拉萨市,区监测站,,40,9,10,5,6,128,NA,119,114,6,9,4,5,0.2,0.2
2026-05-31T1200,1459A,91.1774,29.6541,拉萨市,西藏大学,,40,9,16,6,10,128,NA,108,108,8,10,5,6,0.3,0.2
2026-05-31T1200,1460A,90.9798,29.6586,拉萨市,区辐射站,,40,7,13,5,7,127,NA,112,108,7,12,5,6,0.3,0.3
2026-05-31T1200,1461A,91.0831,29.6292,拉萨市,拉萨火车站,,42,13,12,6,6,134,NA,123,120,4,6,4,4,0.2,0.3
2026-05-31T1200,1463A,108.9931,34.2629,西安市,兴庆小区,臭氧1小时(O3_1h),58,36,37,19,20,166,NA,76,76,16,21,7,6,0.5,0.5
2026-05-31T1200,1464A,109.0595,34.2569,西安市,纺织城,,49,44,50,20,17,155,NA,52,52,17,37,6,6,0.7,0.7
2026-05-31T1200,1465A,108.9377,34.2178,西安市,小寨,,44,37,36,15,18,140,NA,78,78,13,21,4,3,0.3,0.3
2026-05-31T1200,1466A,108.9522,34.2739,西安市,市人民体育场,臭氧1小时(O3_1h),59,48,49,16,19,167,NA,85,85,13,30,7,6,0.5,0.6
2026-05-31T1200,1467A,108.8923,34.2322,西安市,高新西区,,44,39,45,17,20,140,NA,79,79,11,21,6,6,0.4,0.5
2026-05-31T1200,1468A,108.9386,34.3446,西安市,经开区,臭氧1小时(O3_1h),57,56,51,26,22,165,NA,70,70,19,39,8,6,0.4,0.4
2026-05-31T1200,1469A,108.894,34.1557,西安市,长安区,,44,44,34,13,15,133,NA,62,62,12,18,7,6,0.3,0.3
2026-05-31T1200,1471A,109.213,34.3748,西安市,临潼区,,48,44,43,15,19,151,NA,83,83,12,15,8,8,0.5,0.5
2026-05-31T1200,1474A,109.0508,34.321,西安市,广运潭,,46,42,36,13,16,147,NA,68,68,13,20,4,4,0.5,0.5
2026-05-31T1200,1479A,103.8309,36.0467,兰州市,铁路设计院,细颗粒物(PM2.5),141,223,128,105,55,106,NA,108,108,13,17,6,7,0.5,0.6
2026-05-31T1200,1489A,106.1361,38.5039,银川市,学院路,颗粒物(PM10),94,111,124,43,47,130,NA,85,85,8,21,6,7,0.2,0.3
2026-05-31T1200,1490A,87.5796,43.8299,乌鲁木齐市,监测站,,33,19,42,11,14,104,NA,66,66,11,25,4,4,0.4,0.5
2026-05-31T1200,1491A,87.6044,43.7679,乌鲁木齐市,收费所,,38,38,56,9,16,104,NA,58,58,13,29,7,7,0.2,0.2
2026-05-31T1200,1493A,87.5529,43.8704,乌鲁木齐市,铁路局,,41,41,47,26,15,92,NA,59,59,19,28,6,5,0.3,0.3
2026-05-31T1200,1494A,87.6408,43.8258,乌鲁木齐市,三十一中学,,37,37,48,10,13,108,NA,71,71,4,17,9,8,0.3,0.3
2026-05-31T1200,1496A,87.7218,44.1747,乌鲁木齐市,米东区环保局,,37,37,35,3,11,105,NA,52,52,2,8,5,4,0.3,0.4
2026-05-31T1200,1508A,112.9508,27.8626,湘潭市,板塘,细颗粒物(PM2.5),80,72,54,50,29,144,NA,55,55,13,16,25,10,1.8,0.6
2026-05-31T1200,1511A,112.9114,27.8404,湘潭市,市监测站,颗粒物(PM10),55,56,41,33,28,146,NA,63,63,15,20,26,8,1.7,0.5
2026-05-31T1200,1512A,112.8935,27.8729,湘潭市,江麓,,45,45,50,22,27,133,NA,60,60,6,15,8,7,0.8,0.7
2026-05-31T1200,1513A,112.9227,27.8159,湘潭市,岳塘,,50,50,52,22,27,141,NA,71,71,5,14,3,3,0.8,0.5
2026-05-31T1200,1514A,112.9073,27.9118,湘潭市,科大,颗粒物(PM10),76,86,54,31,29,146,NA,54,54,8,19,17,6,1.3,0.8
2026-05-31T1200,1515A,113.1265,27.8306,株洲市,天台山庄,颗粒物(PM10),54,55,53,32,30,127,NA,72,72,9,13,7,4,1.2,0.7
2026-05-31T1200,1518A,113.0937,27.8919,株洲市,株冶医院,,48,48,50,28,30,136,NA,62,62,8,16,19,9,1.0,0.5
2026-05-31T1200,1519A,113.1709,27.8661,株洲市,市四中,,42,42,53,26,31,125,NA,60,60,6,14,7,3,0.8,0.6
2026-05-31T1200,1520A,113.1515,27.8265,株洲市,火车站,,44,44,53,30,30,126,NA,70,70,8,15,13,10,1.4,0.9
2026-05-31T1200,1524A,113.1329,27.8491,株洲市,市监测站,,46,42,49,32,28,128,NA,72,72,10,17,13,10,1.0,0.8
2026-05-31T1200,1562A,113.0048,27.9153,湘潭市,昭山,颗粒物(PM10),63,68,53,29,27,137,NA,50,50,12,22,7,6,1.2,0.9
2026-05-31T1200,1585A,109.8761,40.6533,包头市,市环境监测站,,49,38,56,34,20,102,NA,103,96,5,14,6,8,0.3,0.4
2026-05-31T1200,1587A,109.9992,40.5843,包头市,包头八中,,37,37,52,7,17,98,NA,95,90,5,13,7,9,0.2,0.3
2026-05-31T1200,1589A,109.8641,40.6288,包头市,惠龙物流,,35,35,49,9,18,99,NA,105,94,5,11,6,10,0.2,0.2
2026-05-31T1200,1590A,110.0376,40.5546,包头市,东河鸿龙湾,,37,37,44,2,15,97,NA,91,87,7,14,10,13,0.4,0.4
2026-05-31T1200,1591A,110.0024,39.8127,鄂尔多斯市,综合楼,颗粒物(PM10),72,80,81,44,21,95,NA,104,92,12,17,6,9,0.4,0.5
2026-05-31T1200,1592A,109.9485,39.8259,鄂尔多斯市,巴音孟克林场办事处,颗粒物(PM10),51,51,68,24,22,102,NA,111,94,5,13,4,6,0.3,0.4
2026-05-31T1200,1593A,109.7734,39.5987,鄂尔多斯市,康泽苑,颗粒物(PM10),63,68,62,9,15,100,NA,106,93,5,11,5,8,0.2,0.3
2026-05-31T1200,1594A,109.8121,39.5987,鄂尔多斯市,华泰汽车城,颗粒物(PM10),60,63,50,4,15,90,NA,93,80,4,12,8,10,0.3,0.4
2026-05-31T1200,1595A,109.9734,39.7884,鄂尔多斯市,奥林花园,颗粒物(PM10),62,66,79,13,20,102,NA,100,92,6,16,5,7,0.2,0.3
2026-05-31T1200,1597A,122.2704,40.7093,营口市,大庆路,臭氧1小时(O3_1h),99,66,71,23,24,199,NA,164,164,10,14,12,12,0.7,0.7
2026-05-31T1200,1598A,122.215,40.6511,营口市,镜湖西路,臭氧1小时(O3_1h),101,71,66,27,25,202,NA,166,166,14,24,8,7,0.5,0.6
2026-05-31T1200,1599A,122.1667,40.665,营口市,西炮台,臭氧1小时(O3_1h),104,69,61,34,27,207,NA,167,167,13,16,10,9,0.6,0.8
2026-05-31T1200,1600A,124.33,40.0625,丹东市,江湾东路,NA,NA,NA,46,NA,24,153,NA,154,149,8,11,5,6,0.4,0.5
2026-05-31T1200,1601A,124.4242,40.1513,丹东市,临江后街,,49,35,52,14,28,154,NA,123,123,6,12,4,5,0.4,0.6
2026-05-31T1200,1602A,124.3935,40.1461,丹东市,元宝山,,50,43,50,16,25,159,NA,139,139,9,13,7,8,0.5,0.7
2026-05-31T1200,1603A,124.3634,40.1093,丹东市,民主桥,颗粒物(PM10),52,52,74,19,35,148,NA,125,125,4,12,6,7,0.5,0.7
2026-05-31T1200,1604A,122.0303,41.1489,盘锦市,开发区,臭氧1小时(O3_1h),97,70,52,37,33,197,NA,154,154,9,12,10,9,0.4,0.4
2026-05-31T1200,1605A,122.0486,41.0883,盘锦市,兴隆台,臭氧1小时(O3_1h),70,68,54,44,40,176,NA,137,137,12,18,11,8,0.7,0.7
2026-05-31T1200,1606A,121.8297,41.1026,盘锦市,新生街道,臭氧1小时(O3_1h),70,58,49,39,34,176,NA,140,140,12,12,10,9,0.7,0.6
2026-05-31T1200,1607A,120.904878,40.721091,葫芦岛市,龙港区,颗粒物(PM10),77,87,65,32,29,167,NA,124,124,12,17,12,14,0.7,0.7
2026-05-31T1200,1608A,120.8382,40.7521,葫芦岛市,化工街,颗粒物(PM10),78,88,66,33,30,170,NA,117,117,25,32,18,20,0.7,0.8
2026-05-31T1200,1609A,120.8339,40.7078,葫芦岛市,新区,颗粒物(PM10),65,70,56,34,30,163,NA,124,120,16,15,12,11,0.7,0.8
2026-05-31T1200,1610A,120.8697,40.7679,葫芦岛市,东城区,颗粒物(PM10),77,87,63,35,35,157,NA,111,111,16,29,11,13,0.9,1
2026-05-31T1200,1611A,118.5818,24.9116,泉州市,涂山街,臭氧1小时(O3_1h),78,42,34,18,14,182,NA,144,144,12,11,5,4,0.4,0.5
2026-05-31T1200,1612A,118.597,24.8976,泉州市,津头埔,臭氧1小时(O3_1h),83,52,37,16,14,186,NA,146,146,11,9,4,3,0.5,0.5
2026-05-31T1200,1613A,118.6669,24.9422,泉州市,万安,臭氧1小时(O3_1h),85,54,38,17,14,188,NA,142,142,13,11,5,5,0.4,0.4
2026-05-31T1200,1618A,118.3429,35.0532,临沂市,沂河小区,臭氧1小时(O3_1h),92,73,58,25,26,193,NA,141,141,14,22,15,15,0.4,0.3
2026-05-31T1200,1619A,118.2962,35.0568,临沂市,鲁南制药厂,臭氧1小时(O3_1h),98,70,55,20,23,198,NA,151,151,15,23,14,16,0.4,0.4
2026-05-31T1200,1620A,118.2793,34.9976,临沂市,新光毛纺厂,臭氧1小时(O3_1h),94,88,58,26,26,195,NA,143,143,13,23,13,17,0.5,0.4
2026-05-31T1200,1621A,118.3955,35.0889,临沂市,河东保险公司,臭氧1小时(O3_1h),95,61,47,18,24,196,NA,149,149,7,16,13,14,0.2,0.2
2026-05-31T1200,1622A,116.3034,37.4675,德州市,儿童乐园,颗粒物(PM10),90,105,68,20,25,191,NA,138,138,12,16,13,12,0.7,0.7
2026-05-31T1200,1624A,116.2992,37.4449,德州市,监理站,颗粒物(PM10),95,112,68,15,22,188,NA,133,133,23,24,10,9,0.4,0.4
2026-05-31T1200,1625A,115.9789,36.4372,聊城市,区政府,颗粒物(PM10),86,100,63,17,20,184,NA,125,125,6,11,12,10,0.3,0.4
2026-05-31T1200,1629A,117.9961,37.3604,滨州市,第二水厂,臭氧1小时(O3_1h),101,105,69,22,20,202,NA,124,124,10,17,11,9,0.4,0.2
2026-05-31T1200,1630A,117.9789,37.3931,滨州市,北中新校,臭氧1小时(O3_1h),106,66,51,21,19,212,NA,136,136,13,21,11,10,0.6,0.4
2026-05-31T1200,1631A,118.0413,36.8101,淄博市,人民公园,臭氧1小时(O3_1h),101,90,57,24,17,202,NA,155,155,19,24,12,13,0.3,0.3
2026-05-31T1200,1633A,117.8524,36.4848,淄博市,双山,臭氧1小时(O3_1h),80,72,48,28,20,184,NA,134,134,9,14,14,15,0.4,0.5
2026-05-31T1200,1634A,117.9595,36.6332,淄博市,气象站,臭氧1小时(O3_1h),102,66,38,20,17,204,NA,133,NA,14,19,8,15,0.5,0.5
2026-05-31T1200,1637A,117.5628,34.8379,枣庄市,市中区政府,臭氧1小时(O3_1h),98,85,65,19,23,198,NA,134,134,11,18,10,10,0.3,0.3
2026-05-31T1200,1638A,117.2855,34.7838,枣庄市,薛城环保局,臭氧1小时(O3_1h),78,66,72,12,29,182,NA,132,132,7,22,8,11,0.5,0.6
2026-05-31T1200,1639A,117.5854,34.7744,枣庄市,峄城区政府,臭氧1小时(O3_1h),90,75,65,14,20,192,NA,136,136,11,21,9,10,0.3,0.4
2026-05-31T1200,1641A,117.4516,35.0992,枣庄市,山亭区环保局,臭氧1小时(O3_1h),97,78,55,23,22,197,NA,150,150,7,10,11,11,0.6,0.6
2026-05-31T1200,1642A,121.2517,37.564,烟台市,开发区,臭氧1小时(O3_1h),89,41,35,19,13,191,NA,148,148,13,13,14,14,0.5,0.4
2026-05-31T1200,1644A,121.3181,37.5436,烟台市,西郊化工站,臭氧1小时(O3_1h),100,51,38,19,14,200,NA,158,158,13,13,17,15,0.3,0.3
2026-05-31T1200,1645A,121.4419,37.4858,烟台市,莱山环保局,臭氧1小时(O3_1h),92,70,41,22,15,193,NA,145,145,11,12,6,6,0.4,0.3
2026-05-31T1200,1646A,121.2619,37.4965,烟台市,福山环保局,臭氧1小时(O3_1h),93,58,45,20,13,194,NA,150,150,10,11,10,9,0.5,0.4
2026-05-31T1200,1650A,119.1436,36.7022,潍坊市,环保局,臭氧1小时(O3_1h),101,85,53,19,17,202,NA,135,135,15,23,6,5,0.6,0.5
2026-05-31T1200,1653A,116.6229,35.4288,济宁市,火炬城,颗粒物(PM10),72,80,52,17,16,164,NA,107,107,13,16,6,4,0.5,0.4
2026-05-31T1200,1656A,117.1436,36.1938,泰安市,监测站,臭氧1小时(O3_1h),82,88,52,27,21,185,NA,132,132,14,20,10,10,0.3,0.3
2026-05-31T1200,1657A,117.0905,36.2002,泰安市,人口学校,臭氧1小时(O3_1h),80,80,53,18,19,184,NA,136,136,14,16,10,9,0.4,0.4
2026-05-31T1200,1658A,117.0992,36.1757,泰安市,电力学校,"颗粒物(PM10),臭氧1小时(O3_1h)",75,85,57,23,24,180,NA,129,129,11,19,9,9,0.2,0.2
2026-05-31T1200,1659A,119.4711,35.421,日照市,监测站,臭氧1小时(O3_1h),103,53,37,24,22,206,NA,147,147,16,23,11,11,0.7,0.7
2026-05-31T1200,1660A,119.523,35.4216,日照市,市政府广场,臭氧1小时(O3_1h),103,88,56,29,22,206,NA,143,143,30,29,11,10,0.9,0.9
2026-05-31T1200,1661A,119.5511,35.4113,日照市,港务局,颗粒物(PM10),108,139,70,35,23,192,NA,140,140,37,34,11,11,1.0,1
2026-05-31T1200,1662A,122.121,37.4231,威海市,华夏技校,臭氧1小时(O3_1h),72,39,28,16,15,177,NA,147,147,13,14,/,/,0.4,0.3
2026-05-31T1200,1663A,122.0508,37.5236,威海市,山大分校,臭氧1小时(O3_1h),85,46,29,16,13,188,NA,154,154,12,13,/,/,/,/
2026-05-31T1200,1664A,122.1067,37.5067,威海市,市监测站,臭氧1小时(O3_1h),80,37,27,13,12,184,NA,157,156,7,7,5,5,0.3,0.2
2026-05-31T1200,1666A,118.6612,37.4313,东营市,市环保局,臭氧1小时(O3_1h),103,58,53,10,8,206,NA,131,131,7,17,6,8,0.3,0.3
2026-05-31T1200,1669A,113.5821,24.7733,韶关市,市八中,,35,20,34,5,25,110,NA,67,67,8,8,7,3,0.9,0.8
2026-05-31T1200,1671A,113.5916,24.7973,韶关市,园林处,,38,29,25,26,21,96,NA,59,59,8,8,9,5,/,/
2026-05-31T1200,1673A,113.5971,24.6864,韶关市,曲江监测站,,38,38,22,23,16,118,NA,64,64,11,11,23,15,1.3,0.9
2026-05-31T1200,1674A,116.6795,23.3666,汕头市,金平子站,臭氧1小时(O3_1h),75,47,38,32,19,180,NA,133,133,14,9,6,4,0.8,0.6
2026-05-31T1200,1675A,116.7248,23.3632,汕头市,龙湖子站,颗粒物(PM10),53,53,40,27,20,157,NA,124,122,10,7,8,7,/,/
2026-05-31T1200,1676A,116.7257,23.2774,汕头市,濠江子站,颗粒物(PM10),55,56,44,23,20,146,NA,126,121,11,9,10,9,/,/
2026-05-31T1200,1677A,116.7518,23.4712,汕头市,澄海子站,颗粒物(PM10),70,77,44,40,23,174,NA,125,125,14,9,10,6,0.8,0.7
2026-05-31T1200,1678A,116.6088,23.2539,汕头市,潮阳子站,臭氧1小时(O3_1h),53,44,36,26,20,162,NA,124,124,12,7,9,7,0.7,0.6
2026-05-31T1200,1680A,110.3648,21.2697,湛江市,湛江影剧院,,47,47,31,30,24,129,NA,73,73,12,10,18,21,0.8,0.5
2026-05-31T1200,1681A,110.3907,21.2279,湛江市,市环境监测站,细颗粒物(PM2.5),94,NA,28,57,36,127,NA,64,64,17,13,17,14,0.7,0.5
2026-05-31T1200,1682A,110.3936,21.1943,湛江市,环保局宿舍,细颗粒物(PM2.5),60,58,27,40,23,131,NA,66,66,22,15,16,11,/,/
2026-05-31T1200,1683A,110.4138,21.2033,湛江市,霞山游泳场,细颗粒物(PM2.5),56,52,35,38,22,136,NA,73,73,21,16,19,15,/,/
2026-05-31T1200,1685A,110.4512,21.239,湛江市,坡头区环保局,颗粒物(PM10),52,52,28,32,24,127,NA,74,74,11,10,15,15,1.0,0.6
2026-05-31T1200,1686A,111.0285,21.469,茂名市,电白南海,,41,41,34,26,23,115,NA,69,69,9,12,12,10,0.9,0.9
2026-05-31T1200,1687A,110.9294,21.6533,茂名市,茂石化七小,,36,36,36,24,24,115,NA,69,69,10,14,9,14,0.5,0.5
2026-05-31T1200,1688A,110.9108,21.6688,茂名市,健康路,,36,36,30,21,24,115,NA,62,62,11,13,10,18,0.7,0.7
2026-05-31T1200,1689A,110.8592,21.6826,茂名市,高岭,,32,31,38,15,24,100,NA,50,50,6,12,6,13,/,/
2026-05-31T1200,1690A,116.1248,24.3307,梅州市,梅江月梅,NA,NA,16,30,NA,33,100,NA,82,82,7,11,/,/,/,/
2026-05-31T1200,1691A,116.0798,24.2719,梅州市,梅县新城,,43,43,29,26,20,102,NA,82,82,8,10,8,8,0.6,0.6
2026-05-31T1200,1693A,115.3653,22.7751,汕尾市,市环保局,,46,34,39,23,20,147,NA,134,134,12,8,6,6,0.6,0.6
2026-05-31T1200,1695A,115.362,22.7926,汕尾市,新城中学,颗粒物(PM10),54,55,39,23,22,153,NA,132,132,8,7,8,7,0.6,0.6
2026-05-31T1200,1697A,114.6962,23.7538,河源市,东埔,,45,42,20,31,20,97,NA,74,74,9,7,3,4,0.8,0.7
2026-05-31T1200,1698A,114.6895,23.7232,河源市,老城,,46,46,29,30,25,106,NA,71,71,9,10,5,5,0.7,0.7
2026-05-31T1200,1701A,111.9491,21.8658,阳江市,马南垌,,36,20,24,16,16,114,NA,68,68,4,9,4,5,0.6,0.7
2026-05-31T1200,1703A,113.0218,23.7086,清远市,凤城街办,,31,29,23,16,14,99,NA,54,54,9,9,/,/,/,/
2026-05-31T1200,1708A,116.3701,23.5345,揭阳市,新兴,细颗粒物(PM2.5),90,56,45,55,45,163,NA,113,113,13,10,6,7,0.9,0.8
2026-05-31T1200,1709A,116.3261,23.5442,揭阳市,西马,臭氧1小时(O3_1h),54,53,45,31,27,163,NA,116,116,12,10,6,6,0.8,0.7
2026-05-31T1200,1710A,116.361,23.5627,揭阳市,东兴,颗粒物(PM10),57,59,41,30,26,156,NA,114,114,11,11,3,4,/,/
2026-05-31T1200,1711A,116.4151,23.5295,揭阳市,渔湖,臭氧1小时(O3_1h),63,62,46,33,28,170,NA,113,113,12,9,4,5,/,/
2026-05-31T1200,1714A,112.0281,22.9738,云浮市,牧羊,,39,35,24,15,14,122,NA,53,53,8,18,4,5,0.7,0.7
2026-05-31T1200,1715A,102.575,24.371,玉溪市,东风水库,,24,12,19,8,10,74,NA,41,41,5,8,4,5,0.7,0.7
2026-05-31T1200,1723A,113.2926,40.0759,大同市,云冈宾馆,颗粒物(PM10),65,70,46,17,14,150,NA,101,101,8,21,8,9,0.6,0.6
2026-05-31T1200,1724A,113.3437,40.0921,大同市,大同大学,,50,50,31,18,14,145,NA,93,93,10,26,8,10,0.3,0.4
2026-05-31T1200,1725A,113.2637,40.129,大同市,安家小村,颗粒物(PM10),66,72,40,18,11,140,NA,114,114,8,15,12,13,0.3,0.4
2026-05-31T1200,1727A,113.1146,36.1547,长治市,清华站,臭氧1小时(O3_1h),70,28,36,7,14,176,NA,105,105,7,17,9,10,0.5,0.5
2026-05-31T1200,1730A,113.0887,36.2126,长治市,审计局,臭氧1小时(O3_1h),69,29,29,10,14,175,NA,120,120,7,12,9,9,0.3,0.5
2026-05-31T1200,1731A,113.0845,36.1856,长治市,长治八中,臭氧1小时(O3_1h),69,29,35,10,13,175,NA,114,114,10,16,10,11,0.4,0.5
2026-05-31T1200,1733A,111.5552,36.0791,临汾市,临钢医院,,50,48,54,18,19,160,NA,90,90,13,18,10,9,0.8,0.8
2026-05-31T1200,1734A,111.4984,36.0734,临汾市,技工学校,颗粒物(PM10),56,58,58,32,27,147,NA,87,87,16,20,12,11,0.9,0.8
2026-05-31T1200,1736A,111.5017,36.0857,临汾市,市委,颗粒物(PM10),65,71,67,24,22,153,NA,88,88,20,23,11,10,0.8,0.8
2026-05-31T1200,1739A,113.4894,37.8717,阳泉市,赛鱼,臭氧1小时(O3_1h),59,43,60,20,22,167,NA,114,114,9,42,12,12,0.7,0.6
2026-05-31T1200,1740A,113.582,37.8473,阳泉市,南庄,臭氧1小时(O3_1h),68,41,70,18,24,174,NA,96,96,10,36,12,16,0.5,0.7
2026-05-31T1200,1742A,113.5616,37.8706,阳泉市,平坦,NA,NA,NA,49,NA,21,NA,NA,98,98,NA,42,NA,12,NA,0.5
2026-05-31T1200,1743A,113.5115,37.8391,阳泉市,大阳泉,,50,26,28,12,16,158,NA,131,131,8,10,9,10,0.4,0.5
2026-05-31T1200,1744A,118.9229,42.2816,赤峰市,松山一中,颗粒物(PM10),63,67,28,20,14,154,NA,167,161,13,17,8,8,0.3,0.4
2026-05-31T1200,1745A,118.9588,42.2733,赤峰市,哈达街,颗粒物(PM10),60,64,27,11,12,147,NA,156,151,15,18,10,10,0.4,0.5
2026-05-31T1200,1746A,118.8792,42.2551,赤峰市,天义路,,45,44,15,21,10,143,NA,157,148,10,13,5,6,0.4,0.4
2026-05-31T1200,1748A,123.0441,41.1201,鞍山市,深沟寺,臭氧1小时(O3_1h),75,61,55,18,21,180,NA,155,155,13,15,11,12,0.7,0.8
2026-05-31T1200,1749A,123.011,41.0931,鞍山市,太阳城,臭氧1小时(O3_1h),84,54,53,20,23,187,NA,164,158,11,15,12,12,0.7,0.9
2026-05-31T1200,1750A,123.0483,41.1445,鞍山市,太平,臭氧1小时(O3_1h),84,82,69,22,23,187,NA,159,159,16,17,12,13,0.9,1
2026-05-31T1200,1751A,122.964,41.0968,鞍山市,铁西三道街,臭氧1小时(O3_1h),90,77,69,21,26,192,NA,165,164,15,18,10,11,0.6,0.9
2026-05-31T1200,1753A,123.0219,41.0822,鞍山市,明达新区,NA,NA,57,53,NA,21,175,NA,158,157,13,14,10,11,0.7,0.7
2026-05-31T1200,1755A,123.7974,41.8494,抚顺市,望花区,颗粒物(PM10),67,73,61,15,25,172,NA,128,128,11,28,16,18,0.8,1.2
2026-05-31T1200,1756A,123.9161,41.8827,抚顺市,顺城区,臭氧1小时(O3_1h),83,54,43,13,17,186,NA,134,134,14,32,13,13,0.9,0.9
2026-05-31T1200,1757A,124.0437,41.8615,抚顺市,东洲区,臭氧1小时(O3_1h),74,56,36,14,15,179,NA,146,146,9,21,14,14,0.6,0.6
2026-05-31T1200,1758A,123.9246,41.8638,抚顺市,新抚区,臭氧1小时(O3_1h),99,88,50,14,20,199,NA,135,135,13,31,11,11,0.6,0.7
2026-05-31T1200,1759A,124.0972,41.8961,抚顺市,大伙房水库,臭氧1小时(O3_1h),82,36,33,13,14,185,NA,155,155,12,23,12,11,0.6,0.6
2026-05-31T1200,1760A,123.708,41.8386,抚顺市,沈抚新城,臭氧1小时(O3_1h),89,91,55,17,18,191,NA,152,152,19,35,12,13,0.5,0.8
2026-05-31T1200,1761A,123.8274146,41.31234549,本溪市,大峪,臭氧1小时(O3_1h),60,51,38,18,15,168,NA,140,140,6,14,9,8,0.5,0.6
2026-05-31T1200,1763A,123.7169,41.3094,本溪市,彩屯,,47,47,53,20,22,142,NA,139,139,26,25,16,13,2.7,2
2026-05-31T1200,1764A,123.7672166,41.28649327,本溪市,东明,颗粒物(PM10),73,81,47,21,15,168,NA,164,164,11,15,6,9,0.6,0.6
2026-05-31T1200,1765A,123.799345,41.266614,本溪市,新立屯,颗粒物(PM10),71,79,42,20,15,171,NA,186,176,9,17,10,10,0.6,0.6
2026-05-31T1200,1766A,123.829144,41.336777,本溪市,威宁,臭氧1小时(O3_1h),58,55,48,18,18,166,NA,141,141,4,13,10,9,0.6,0.7
2026-05-31T1200,1767A,121.1114,41.0879,锦州市,南山,臭氧1小时(O3_1h),88,91,54,16,31,190,NA,124,124,22,25,12,8,0.8,0.8
2026-05-31T1200,1768A,121.060361,40.842794,锦州市,开发区,颗粒物(PM10),140,222,97,40,36,179,NA,129,129,17,22,9,10,0.7,0.8
2026-05-31T1200,1769A,121.1836,41.1118,锦州市,百股街道,颗粒物(PM10),102,123,59,18,43,193,NA,126,126,20,24,10,9,0.7,0.8
2026-05-31T1200,1770A,121.1176,41.1224,锦州市,天安街道,臭氧1小时(O3_1h),93,94,61,15,37,194,NA,126,126,20,24,11,9,1.0,1
2026-05-31T1200,1771A,121.1303,41.1385,锦州市,北湖公园,臭氧1小时(O3_1h),99,76,59,18,40,199,NA,126,126,15,20,11,10,0.6,0.6
2026-05-31T1200,1772A,126.54,43.8622,吉林市,哈达湾,臭氧1小时(O3_1h),68,27,21,14,10,174,NA,121,121,9,14,6,7,0.4,0.3
2026-05-31T1200,1773A,126.5843,43.8358,吉林市,东局子,臭氧1小时(O3_1h),64,18,17,11,9,171,NA,129,129,8,13,5,6,0.6,0.6
2026-05-31T1200,1774A,126.5051,43.8243,吉林市,电力学院,臭氧1小时(O3_1h),90,20,28,11,13,192,NA,115,115,11,31,6,5,0.5,0.5
2026-05-31T1200,1775A,126.6133,43.8971,吉林市,江北,臭氧1小时(O3_1h),53,29,24,9,10,162,NA,122,122,8,16,6,7,0.5,0.4
2026-05-31T1200,1776A,126.5549,43.8304,吉林市,江南公园,臭氧1小时(O3_1h),69,33,21,15,10,175,NA,122,122,9,14,7,8,0.3,0.2
2026-05-31T1200,1779A,123.9307,47.3641,齐齐哈尔市,安居小区,颗粒物(PM10),85,99,42,11,10,166,NA,125,125,11,9,5,4,0.6,0.4
2026-05-31T1200,1780A,123.9497,47.3389,齐齐哈尔市,中心广场,颗粒物(PM10),92,108,39,17,8,163,NA,118,118,17,17,5,4,0.8,0.5
2026-05-31T1200,1781A,123.9483,47.3229,齐齐哈尔市,农牧车辆厂,颗粒物(PM10),88,102,43,25,9,177,NA,131,131,10,9,10,8,0.3,0.3
2026-05-31T1200,1783A,123.9442,47.2994,齐齐哈尔市,市环境监测站,颗粒物(PM10),85,99,40,13,7,174,NA,127,127,10,10,6,4,0.6,0.5
2026-05-31T1200,1784A,129.61,44.561,牡丹江市,环保大楼,臭氧1小时(O3_1h),57,32,21,11,7,165,NA,77,77,9,18,5,4,0.2,0.2
2026-05-31T1200,1787A,129.6364,44.6075,牡丹江市,机车工厂,,49,20,28,4,14,154,NA,70,70,8,18,7,5,0.3,0.3
2026-05-31T1200,1788A,129.6386,44.5462,牡丹江市,第一中学,,50,21,21,4,7,158,NA,70,70,9,14,8,5,0.4,0.2
2026-05-31T1200,1789A,124.8085,46.0381,大庆市,大同区,颗粒物(PM10),163,275,73,44,16,220,NA,147,147,13,18,8,5,0.7,0.4
2026-05-31T1200,1790A,125.1166,46.5255,大庆市,龙凤区,颗粒物(PM10),140,223,58,32,15,191,NA,121,121,13,15,11,4,0.4,0.2
2026-05-31T1200,1791A,124.8894,46.4007,大庆市,红岗区,颗粒物(PM10),132,201,77,33,16,193,NA,124,124,11,14,12,9,0.6,0.3
2026-05-31T1200,1792A,125.1391,46.578,大庆市,萨尔图区,颗粒物(PM10),124,180,56,23,12,181,NA,118,118,12,15,7,6,0.5,0.3
2026-05-31T1200,1793A,124.9026,46.6217,大庆市,让胡路区,颗粒物(PM10),142,229,59,33,11,208,NA,133,133,10,13,7,4,0.7,0.4
2026-05-31T1200,1794A,118.3603,31.3515,芜湖市,监测站,臭氧1小时(O3_1h),72,46,49,18,33,177,NA,124,124,10,16,8,9,0.6,0.6
2026-05-31T1200,1795A,118.3716,31.4135,芜湖市,科创中心,臭氧1小时(O3_1h),77,53,60,30,36,181,NA,117,117,13,28,8,8,0.4,0.5
2026-05-31T1200,1796A,118.3671,31.3132,芜湖市,四水厂,臭氧1小时(O3_1h),83,51,57,26,32,186,NA,132,132,14,18,7,7,0.4,0.5
2026-05-31T1200,1798A,118.5084,31.6838,马鞍山市,湖东路四小,臭氧1小时(O3_1h),88,58,74,23,42,190,NA,126,126,14,20,8,11,0.5,0.7
2026-05-31T1200,1799A,118.5019,31.6449,马鞍山市,开发区,臭氧1小时(O3_1h),79,49,84,18,46,183,NA,121,121,7,24,8,10,0.8,0.7
2026-05-31T1200,1803A,115.9873,29.6816,九江市,十里,臭氧1小时(O3_1h),70,72,75,33,45,176,NA,109,109,12,22,6,4,1.3,1.2
2026-05-31T1200,1804A,115.9583,29.7047,九江市,茅山头,臭氧1小时(O3_1h),103,75,69,48,51,206,NA,121,121,15,22,4,4,0.9,0.7
2026-05-31T1200,1805A,115.9877,29.7295,九江市,西园,臭氧1小时(O3_1h),98,63,65,43,54,198,NA,98,98,20,49,6,5,1.2,1
2026-05-31T1200,1808A,115.9112,29.6038,九江市,综合工业园,臭氧1小时(O3_1h),107,76,61,31,42,213,NA,124,124,18,34,7,7,0.8,0.8
2026-05-31T1200,1812A,112.3934,34.6517,洛阳市,市委党校,,43,33,36,12,17,136,NA,86,86,9,16,8,8,0.4,0.4
2026-05-31T1200,1815A,112.494,34.6883,洛阳市,河南林校,,46,37,41,6,15,147,NA,88,88,10,18,10,11,0.7,0.5
2026-05-31T1200,1816A,112.3843,34.623,洛阳市,开发区管委会,,46,29,33,8,17,145,NA,84,84,5,14,9,9,0.4,0.4
2026-05-31T1200,1817A,112.4263,34.6249,洛阳市,市委新办公区,,43,28,38,11,18,137,NA,76,76,8,15,11,10,0.1,0.1
2026-05-31T1200,1819A,114.3552,36.1017,安阳市,红庙街,颗粒物(PM10),53,53,54,20,20,149,NA,97,97,1,12,4,9,0.3,0.4
2026-05-31T1200,1820A,114.361,36.0681,安阳市,银杏小区,颗粒物(PM10),60,63,58,17,20,159,NA,98,98,3,16,5,11,0.3,0.3
2026-05-31T1200,1824A,114.3389,34.778,开封市,肿瘤医院,颗粒物(PM10),78,88,66,27,28,163,NA,100,100,10,23,8,12,0.6,0.6
2026-05-31T1200,1826A,114.2884,34.7966,开封市,世纪星幼儿园,颗粒物(PM10),82,94,60,20,25,167,NA,103,103,2,13,6,8,0.5,0.5
2026-05-31T1200,1832A,113.3257,33.7423,平顶山市,新华旅馆,颗粒物(PM10),64,69,72,20,36,163,NA,113,113,6,14,3,4,0.4,0.4
2026-05-31T1200,1833A,113.2917,33.737,平顶山市,规划设计院,颗粒物(PM10),58,60,81,18,35,162,NA,119,119,10,14,8,9,0.4,0.4
2026-05-31T1200,1834A,113.182,33.7738,平顶山市,平顶山工学院,,49,42,54,28,32,155,NA,116,116,8,12,5,6,0.3,0.4
2026-05-31T1200,1835A,111.1922,34.7752,三门峡市,市政府,,41,41,33,21,12,120,NA,73,73,16,17,20,13,0.4,0.3
2026-05-31T1200,1836A,111.1588,34.794,三门峡市,开发区,,38,37,34,20,14,121,NA,77,77,11,13,14,9,0.4,0.4
2026-05-31T1200,1840A,111.2991,30.6981,宜昌市,白龙岗,,44,44,38,25,24,131,NA,59,59,12,15,8,8,0.5,0.5
2026-05-31T1200,1842A,111.263451,30.696754,宜昌市,点军区,,40,34,32,18,16,125,NA,56,56,15,17,10,9,0.3,0.4
2026-05-31T1200,1843A,111.3276,30.782,宜昌市,夷陵区,,43,28,28,20,16,137,NA,62,62,10,13,8,7,0.3,0.3
2026-05-31T1200,1844A,112.2493,30.3198,荆州市,市图书馆,,50,41,41,35,24,153,NA,84,84,7,16,7,9,0.3,0.3
2026-05-31T1200,1845A,112.2009,30.3543,荆州市,市委党校,,48,48,41,33,22,136,NA,74,74,10,14,10,9,0.5,0.4
2026-05-31T1200,1848A,113.1494,29.425,岳阳市,城陵矶,,36,36,40,17,17,115,NA,68,68,15,20,4,3,0.7,0.7
2026-05-31T1200,1849A,113.1493,29.3575,岳阳市,开发区,,45,45,39,21,22,140,NA,75,75,8,16,8,7,0.4,0.4
2026-05-31T1200,1850A,113.2672,29.4752,岳阳市,云溪区,,41,33,40,24,21,131,NA,90,90,7,10,4,5,0.7,0.7
2026-05-31T1200,1851A,112.9944,29.44,岳阳市,君山区,,49,49,39,18,17,140,NA,94,94,9,11,4,4,0.4,0.4
2026-05-31T1200,1854A,111.696,28.9725,常德市,市二中,,40,40,34,12,15,107,NA,60,60,3,6,8,8,0.8,0.9
2026-05-31T1200,1858A,110.532,29.1219,张家界市,永定新区,,26,26,28,16,21,77,NA,38,38,10,11,/,/,/,/
2026-05-31T1200,1859A,110.4696,29.1244,张家界市,电业局,,24,24,28,11,17,68,NA,34,34,6,11,4,4,0.7,0.7
2026-05-31T1200,1860A,110.5573,29.3486,张家界市,未央路,,25,NA,19,14,15,78,NA,33,33,4,7,6,6,0.4,0.4
2026-05-31T1200,1864A,110.3091,25.2705,桂林市,龙隐路小学,,30,30,25,16,17,96,NA,65,65,6,6,4,4,0.5,0.5
2026-05-31T1200,1865A,110.2849361,25.22909545,桂林市,八中,,33,33,28,8,11,97,NA,66,66,10,10,5,4,0.6,0.6
2026-05-31T1200,1867A,109.1435,21.4085,北海市,海滩公园,,36,31,26,21,19,113,NA,84,84,6,10,3,3,0.4,0.4
2026-05-31T1200,1868A,109.0983,21.466,北海市,新市环保局,,46,33,24,32,22,123,NA,88,88,7,10,3,3,0.6,0.5
2026-05-31T1200,1869A,109.1775,21.5232,北海市,北海工业园,颗粒物(PM10),54,55,32,26,20,131,NA,78,78,6,10,3,6,0.5,0.5
2026-05-31T1200,1870A,109.4854,24.3898,柳州市,柳东小学,,30,18,15,12,10,94,NA,51,51,7,11,4,7,0.7,0.6
2026-05-31T1200,1871A,109.4109,24.3304,柳州市,环保监测站,,32,17,18,9,12,102,NA,57,57,8,13,8,11,0.9,0.8
2026-05-31T1200,1872A,109.3886,24.3408,柳州市,河西水厂,,36,29,29,16,16,115,NA,NA,NA,10,10,13,13,1.1,1.1
2026-05-31T1200,1873A,109.4263,24.2951,柳州市,市四中,,34,27,17,12,9,106,NA,60,60,7,10,8,11,0.8,0.8
2026-05-31T1200,1874A,109.396,24.3658,柳州市,市九中,,33,29,25,16,13,103,NA,50,50,11,16,11,11,1.0,0.7
2026-05-31T1200,1875A,109.4912,24.3164,柳州市,古亭山,NA,NA,44,18,11,9,92,NA,40,40,5,11,3,4,NA,0.8
2026-05-31T1200,1877A,109.4962,18.2682,三亚市,河西子站,,21,11,19,8,10,65,NA,39,39,3,5,4,4,0.5,0.5
2026-05-31T1200,1878A,104.7775,31.4741,绵阳市,富乐山,,35,33,39,21,23,111,NA,91,91,6,6,11,10,0.7,0.7
2026-05-31T1200,1880A,104.6698,31.4668,绵阳市,高新区自来水公司,,34,34,47,20,23,106,NA,88,88,9,9,10,10,0.6,0.7
2026-05-31T1200,1883A,104.6204,28.7728,宜宾市,市委,,45,44,56,31,31,144,NA,82,82,15,18,11,12,0.9,0.9
2026-05-31T1200,1884A,104.6056,28.7931,宜宾市,宜宾四中,,48,43,63,33,34,137,NA,74,74,12,17,7,9,0.9,0.9
2026-05-31T1200,1886A,104.5743,28.7199,宜宾市,黄金嘴,,47,46,51,32,31,149,NA,76,76,13,20,13,13,0.5,0.5
2026-05-31T1200,1888A,101.6891,26.571,攀枝花市,弄弄坪,,32,32,28,12,10,92,NA,51,51,9,12,6,5,0.7,0.6
2026-05-31T1200,1889A,101.577,26.5914,攀枝花市,河门口,,42,42,23,25,14,113,NA,60,60,17,12,25,11,2.0,0.9
2026-05-31T1200,1891A,101.7365,26.4986,攀枝花市,仁和,,23,14,17,11,16,73,NA,38,38,4,10,6,6,0.4,0.6
2026-05-31T1200,1894A,105.4427,28.9063,泸州市,小市上码头,,44,30,34,15,15,138,NA,77,77,12,13,8,8,0.5,0.3
2026-05-31T1200,1895A,105.4241,28.8573,泸州市,兰田宪桥,颗粒物(PM10),52,52,45,28,22,153,NA,77,77,16,16,6,5,0.6,0.5
2026-05-31T1200,1896A,105.4378,28.8833,泸州市,市环监站,,45,31,30,14,15,142,NA,71,71,16,16,9,10,0.8,0.7
2026-05-31T1200,1901A,104.424,31.1209,德阳市,东山公园,,45,36,38,31,27,87,NA,88,74,8,9,4,4,0.5,0.4
2026-05-31T1200,1902A,104.3827,31.1318,德阳市,西小区,颗粒物(PM10),54,55,53,31,27,88,NA,83,69,13,16,7,7,0.7,0.6
2026-05-31T1200,1904A,104.3553,31.1091,德阳市,耐火材料厂,,48,48,55,32,30,105,NA,82,72,13,18,4,4,0.4,0.4
2026-05-31T1200,1906A,106.0791,30.8022,南充市,南充市委,,26,23,29,12,16,83,NA,46,46,7,15,6,6,0.3,0.3
2026-05-31T1200,1907A,106.1038,30.8215,南充市,南充炼油厂,,27,27,32,10,17,84,NA,54,54,6,12,6,6,0.3,0.3
2026-05-31T1200,1911A,106.9218,27.6872,遵义市,丁字口,,36,31,28,25,18,94,NA,40,40,5,9,11,8,0.7,0.6
2026-05-31T1200,1912A,106.9241,27.7044,遵义市,凤凰山,,40,32,31,28,18,88,NA,41,41,9,10,9,6,0.7,0.6
2026-05-31T1200,1913A,106.8895,27.648,遵义市,忠庄,细颗粒物(PM2.5),52,36,26,36,19,83,NA,38,38,5,6,4,2,0.6,0.5
2026-05-31T1200,1915A,106.9225,27.7253,遵义市,干田坝,,45,NA,31,31,19,103,NA,42,42,6,9,2,2,0.7,0.7
2026-05-31T1200,1916A,103.7897,25.5036,曲靖市,环境监测站,,26,10,33,9,20,82,NA,61,61,6,10,5,5,0.3,0.4
2026-05-31T1200,1917A,103.8013,25.5357,曲靖市,烟厂办公区,,26,10,32,8,17,82,NA,61,61,5,12,3,5,0.4,0.6
2026-05-31T1200,1919A,108.6726,34.315,咸阳市,实验中学,颗粒物(PM10),58,60,48,22,26,140,NA,50,50,16,29,9,6,0.5,0.5
2026-05-31T1200,1920A,108.7226,34.3622,咸阳市,师范学院,臭氧1小时(O3_1h),70,54,48,37,28,176,NA,74,74,23,31,8,6,0.5,0.5
2026-05-31T1200,1923A,109.0696,35.0699,铜川市,王益区政府,,46,37,33,19,15,145,NA,44,NA,16,18,10,7,0.3,0.4
2026-05-31T1200,1924A,108.9345,34.9059,铜川市,新区管委会,,43,42,37,17,14,136,NA,NA,NA,14,18,6,5,0.6,0.5
2026-05-31T1200,1927A,109.4569,36.6161,延安市,延大医附院,,40,40,28,15,15,116,NA,54,54,6,19,3,2,0.5,0.5
2026-05-31T1200,1929A,109.5053,36.6105,延安市,百米大道,,43,43,38,21,17,118,NA,67,67,13,26,4,4,0.3,0.4
2026-05-31T1200,1931A,107.0802,34.3129,宝鸡市,竹园沟,NA,NA,42,28,NA,15,115,NA,62,62,6,12,10,13,0.4,0.4
2026-05-31T1200,1933A,107.1429,34.3549,宝鸡市,监测站,,38,37,29,12,10,119,NA,72,72,10,11,8,9,0.4,0.4
2026-05-31T1200,1934A,107.1172,34.3759,宝鸡市,技工学校,,50,50,29,19,15,120,NA,78,78,9,10,6,6,0.5,0.5
2026-05-31T1200,1936A,107.2025,34.3518,宝鸡市,文理学院,,37,30,31,18,16,118,NA,71,71,10,13,7,6,0.4,0.4
2026-05-31T1200,1937A,107.2396,34.3626,宝鸡市,三迪小学,,43,43,35,19,16,118,NA,74,74,12,16,7,7,0.5,0.4
2026-05-31T1200,1940A,109.4605,34.4927,渭南市,体育馆,颗粒物(PM10),55,56,47,30,24,147,NA,65,65,18,29,35,15,0.6,0.4
2026-05-31T1200,1941A,109.4257,34.5067,渭南市,高新一小,颗粒物(PM10),61,65,52,23,26,145,NA,70,70,14,31,7,7,0.7,0.6
2026-05-31T1200,1944A,102.1691,38.5166,金昌市,天庆家园,颗粒物(PM10),60,63,72,20,24,95,NA,99,90,11,7,1,3,0.3,0.3
2026-05-31T1200,1945A,98.291,39.7705,嘉峪关市,气象局,,39,22,38,5,15,122,NA,95,95,5,9,3,5,0.4,0.6
2026-05-31T1200,1948A,106.3668,39.0145,石嘴山市,大武口朝阳西街,颗粒物(PM10),74,83,140,20,43,100,NA,117,112,5,9,6,8,1.3,1
2026-05-31T1200,1949A,106.7713,39.2278,石嘴山市,惠农南大街,细颗粒物(PM2.5),107,116,159,67,74,100,NA,106,96,9,19,14,18,0.3,0.6
2026-05-31T1200,1950A,106.7074,39.1332,石嘴山市,红果子镇惠新街,颗粒物(PM10),85,98,131,21,40,97,NA,109,105,4,14,12,11,0.6,0.6
2026-05-31T1200,1951A,84.886,45.6029,克拉玛依市,长征新村,,34,34,32,10,12,94,NA,75,75,10,12,3,3,0.2,0.3
2026-05-31T1200,1952A,84.8894,45.5827,克拉玛依市,南林小区,,34,34,32,0,9,84,NA,61,61,13,14,5,4,0.1,0.2
2026-05-31T1200,1954A,84.896,44.3328,克拉玛依市,独山子区,,43,43,53,6,9,126,NA,74,74,11,7,8,6,0.3,0.2
2026-05-31T1200,1955A,85.6888,46.0909,克拉玛依市,乌尔禾区商贸楼,,30,20,29,1,10,96,NA,59,59,7,10,6,6,0.1,0.1
2026-05-31T1200,1956A,86.1476,41.7529,巴音郭楞蒙古自治州,孔雀公园,颗粒物(PM10),88,102,101,22,33,97,NA,64,64,6,30,4,4,0.2,0.3
2026-05-31T1200,1957A,86.1971,41.7166,巴音郭楞蒙古自治州,棉纺厂,颗粒物(PM10),95,113,116,27,42,111,NA,93,93,4,14,/,/,/,/
2026-05-31T1200,1958A,86.236,41.7172,巴音郭楞蒙古自治州,经济开发区,颗粒物(PM10),77,87,86,24,26,109,NA,107,107,1,6,1,1,0.2,0.2
2026-05-31T1200,1961A,117.5323,36.6865,济南市,东山小学,颗粒物(PM10),73,81,48,23,16,177,NA,142,142,14,17,7,5,0.3,0.2
2026-05-31T1200,1982A,122.0693,37.2175,威海市,文登开发区,臭氧1小时(O3_1h),72,38,30,18,14,177,NA,146,146,11,11,/,/,/,/
2026-05-31T1200,2031A,113.1836,27.9959,株洲市,云田中学,细颗粒物(PM2.5),62,54,50,41,31,148,NA,55,55,14,17,11,7,0.9,0.6
2026-05-31T1200,2054A,114.1096,32.1059,信阳市,平桥分局,,49,36,40,20,21,155,NA,115,115,4,11,6,6,0.4,0.4
2026-05-31T1200,2064A,113.9956,32.1272,信阳市,南湾水厂,,49,47,42,23,20,154,NA,110,110,5,6,5,5,0.4,0.4
2026-05-31T1200,2065A,114.078,32.1194,信阳市,市酿酒公司,,46,40,42,23,21,146,NA,110,110,6,9,6,6,0.4,0.4
2026-05-31T1200,2066A,114.0712,32.1393,信阳市,审计局,,50,42,45,31,22,157,NA,125,125,4,8,7,7,0.5,0.4
2026-05-31T1200,2068A,114.6755,33.6347,周口市,周口师范,臭氧1小时(O3_1h),70,56,48,7,16,176,NA,107,107,6,13,3,3,0.4,0.5
2026-05-31T1200,2160A,112.8496,35.5051,晋城市,自来水公司,,47,34,44,3,9,148,NA,83,83,17,24,4,5,0.3,0.3
2026-05-31T1200,2162A,112.8509,35.4886,晋城市,市环保局,,50,40,34,2,10,158,NA,86,86,11,20,5,4,0.3,0.3
2026-05-31T1200,2166A,112.4399,39.3521,朔州市,平朔,颗粒物(PM10),61,65,29,15,9,150,NA,138,138,9,9,4,4,0.1,0.1
2026-05-31T1200,2167A,112.4574,39.362,朔州市,朔唯,颗粒物(PM10),69,76,38,16,10,156,NA,126,126,9,12,7,5,/,/
2026-05-31T1200,2168A,112.426,39.3199,朔州市,区政府,颗粒物(PM10),65,70,27,21,9,153,NA,142,142,9,8,8,6,0.2,0.2
2026-05-31T1200,2169A,112.4075,39.3277,朔州市,市环保局,颗粒物(PM10),73,81,31,24,9,147,NA,137,137,12,11,4,4,/,/
2026-05-31T1200,2170A,112.4273,39.3682,朔州市,市二中,臭氧1小时(O3_1h),62,65,30,10,8,169,NA,154,154,16,14,6,4,/,/
2026-05-31T1200,2174A,112.6992,37.6984,晋中市,榆次区政府,臭氧1小时(O3_1h),93,70,50,25,22,194,NA,107,107,13,17,16,14,0.9,0.6
2026-05-31T1200,2175A,110.996,35.0148,运城市,运城中学,颗粒物(PM10),52,52,44,14,18,158,NA,80,80,9,16,10,8,0.8,0.7
2026-05-31T1200,2178A,110.9685,35.0305,运城市,地区技校,颗粒物(PM10),59,62,49,18,22,146,NA,82,82,13,26,11,9,0.8,0.7
2026-05-31T1200,2181A,112.7313,38.457,忻州市,开发区,,49,49,37,19,16,140,NA,100,100,24,20,14,10,0.7,0.5
2026-05-31T1200,2182A,112.7023,38.4932,忻州市,会展中心,颗粒物(PM10),57,59,37,29,18,123,NA,79,76,24,24,10,10,0.6,0.4
2026-05-31T1200,2183A,111.1447,37.5212,吕梁市,环保局,,48,45,46,8,11,152,NA,92,92,17,22,9,8,0.4,0.4
2026-05-31T1200,2185A,111.1285,37.5338,吕梁市,自来水公司,,49,49,54,14,16,150,NA,74,74,19,27,4,3,0.5,0.4
2026-05-31T1200,2187A,106.8172,39.6972,乌海市,市林业局,颗粒物(PM10),70,77,136,16,53,101,NA,86,76,1,7,10,10,0.3,0.3
2026-05-31T1200,2188A,106.7907,39.6666,乌海市,中海勃湾学校,颗粒物(PM10),65,71,131,13,48,101,NA,107,92,4,8,8,10,0.3,0.3
2026-05-31T1200,2191A,122.253,43.6801,通辽市,艺术职业学校,臭氧1小时(O3_1h),101,82,59,28,21,202,NA,167,167,17,14,11,10,0.4,0.3
2026-05-31T1200,2195A,107.4206,40.7609,巴彦淖尔市,附二中,,32,32,130,8,42,100,NA,87,83,4,7,8,9,0.3,0.4
2026-05-31T1200,2196A,107.37,40.7372,巴彦淖尔市,市环保大楼,,39,39,122,8,43,104,NA,96,90,5,6,7,8,0.4,0.4
2026-05-31T1200,2197A,113.1306,40.9924,乌兰察布市,集宁新区,,38,36,34,11,17,120,NA,157,141,8,15,7,11,0.4,0.5
2026-05-31T1200,2202A,116.1048,43.9318,锡林郭勒盟,市环保监测站,颗粒物(PM10),56,58,55,8,17,110,NA,104,100,7,9,5,5,0.3,0.2
2026-05-31T1200,2203A,116.0778,43.9312,锡林郭勒盟,市政府,颗粒物(PM10),52,52,47,5,12,117,NA,108,105,4,6,6,6,0.2,0.2
2026-05-31T1200,2205A,105.699,38.8409,阿拉善盟,蒙二幼,颗粒物(PM10),75,85,128,19,42,104,NA,116,110,2,5,7,8,0.2,0.2
2026-05-31T1200,2206A,105.7198,38.8508,阿拉善盟,环保局新楼,颗粒物(PM10),62,66,107,19,38,102,NA,118,111,2,3,9,10,0.3,0.3
2026-05-31T1200,2207A,121.6095,41.9978,阜新市,工业园区,臭氧1小时(O3_1h),94,96,59,10,28,195,NA,131,131,19,32,12,16,0.6,0.5
2026-05-31T1200,2208A,121.6567,42.0188,阜新市,长青街,臭氧1小时(O3_1h),101,72,53,12,29,201,NA,142,142,17,25,12,14,0.7,0.6
2026-05-31T1200,2209A,121.6672,42.07,阜新市,农业园区,臭氧1小时(O3_1h),100,54,62,11,29,200,NA,148,148,19,24,10,10,0.8,0.7
2026-05-31T1200,2211A,121.6343,42.0455,阜新市,玉龙新城,臭氧1小时(O3_1h),97,85,53,10,30,197,NA,134,134,17,26,11,11,0.9,0.8
2026-05-31T1200,2212A,123.1978,41.2036,辽阳市,宏伟区,颗粒物(PM10),82,94,55,29,19,177,NA,167,165,9,12,8,9,0.6,0.7
2026-05-31T1200,2213A,123.1684,41.2497,辽阳市,新华园,颗粒物(PM10),106,135,64,23,22,201,NA,174,174,12,15,10,12,0.6,0.7
2026-05-31T1200,2214A,123.2355,41.2663,辽阳市,滨河路,颗粒物(PM10),82,94,56,24,21,170,NA,154,152,12,15,11,10,0.5,0.6
2026-05-31T1200,2217A,123.865,42.292,铁岭市,水上乐园,臭氧1小时(O3_1h),102,79,44,10,12,203,NA,169,169,16,35,13,12,0.6,0.5
2026-05-31T1200,2219A,123.7158,42.2218,铁岭市,金沙江路北,臭氧1小时(O3_1h),98,72,45,17,14,198,NA,167,167,16,25,14,10,0.6,0.6
2026-05-31T1200,2220A,120.4318,41.588,朝阳市,西梁,臭氧1小时(O3_1h),67,70,44,4,15,173,NA,135,135,12,19,9,9,0.7,0.7
2026-05-31T1200,2221A,120.452,41.565,朝阳市,河畔小区,臭氧1小时(O3_1h),68,60,40,3,13,174,NA,146,146,11,14,11,10,0.4,0.4
2026-05-31T1200,2222A,120.4176,41.5648,朝阳市,八里堡,颗粒物(PM10),71,79,51,15,19,172,NA,NA,NA,17,21,11,7,1.3,0.8
2026-05-31T1200,2226A,124.3744,43.1842,四平市,境园,臭氧1小时(O3_1h),102,86,34,25,15,204,NA,167,167,12,30,8,6,0.6,0.5
2026-05-31T1200,2227A,125.1359,42.8845,辽源市,环保局,臭氧1小时(O3_1h),80,42,27,8,9,184,NA,134,134,7,37,8,8,0.6,0.6
2026-05-31T1200,2229A,125.9359,41.7174,通化市,光明,臭氧1小时(O3_1h),75,54,33,18,14,180,NA,105,105,7,20,11,11,0.5,0.6
2026-05-31T1200,2230A,125.9446,41.7323,通化市,铁路,臭氧1小时(O3_1h),69,46,33,12,13,175,NA,104,104,9,18,10,13,0.8,0.9
2026-05-31T1200,2231A,126.4219,41.9172,白山市,喜丰,臭氧1小时(O3_1h),69,60,55,5,8,175,NA,88,88,7,22,12,11,0.7,0.7
2026-05-31T1200,2232A,126.4082,41.9416,白山市,环保局,臭氧1小时(O3_1h),79,46,24,11,8,183,NA,100,100,8,13,13,11,0.7,0.7
2026-05-31T1200,2233A,124.8007,45.1213,松原市,江南,颗粒物(PM10),158,265,73,83,22,195,NA,140,140,16,21,2,1,0.4,0.3
2026-05-31T1200,2234A,124.7967,45.1721,松原市,江北,颗粒物(PM10),115,158,39,27,13,206,NA,150,150,8,19,1,2,0.5,0.3
2026-05-31T1200,2235A,122.7909,45.608,白城市,洮北区环保局,臭氧1小时(O3_1h),103,72,44,23,16,206,NA,184,184,9,10,6,5,0.4,0.4
2026-05-31T1200,2236A,122.8741,45.5725,白城市,市环保局,颗粒物(PM10),83,95,48,16,14,164,NA,143,143,15,16,4,4,0.3,0.3
2026-05-31T1200,2237A,129.4704,42.8885,延边朝鲜族自治州,妇幼医院,,45,26,16,13,10,142,NA,62,62,11,15,7,6,0.4,0.3
2026-05-31T1200,2238A,129.5047,42.9117,延边朝鲜族自治州,延边医院,NA,NA,25,20,10,8,142,NA,68,68,7,11,6,4,NA,0.3
2026-05-31T1200,2239A,129.395,42.8884,延边朝鲜族自治州,朝阳川镇医院,,48,30,15,7,8,153,NA,69,69,12,22,10,8,0.5,0.5
2026-05-31T1200,2240A,130.9618,45.2926,鸡西市,环保局,,45,21,29,4,10,143,NA,86,86,9,16,7,7,0.2,0.3
2026-05-31T1200,2243A,130.9294,45.2959,鸡西市,第一中学,,44,10,21,2,8,139,NA,84,84,4,11,7,7,0.3,0.2
2026-05-31T1200,2244A,130.2537,47.3416,鹤岗市,哈啤分公司,,43,36,27,10,12,135,NA,74,74,9,11,12,11,0.1,0.1
2026-05-31T1200,2245A,130.2683,47.3087,鹤岗市,斯达机电,,44,34,27,4,8,138,NA,83,83,7,9,9,9,0.3,0.4
2026-05-31T1200,2246A,130.3114,47.3388,鹤岗市,东山纸板厂,颗粒物(PM10),63,68,66,12,21,128,NA,68,68,9,19,10,12,0.3,0.5
2026-05-31T1200,2248A,131.1509,46.6936,双鸭山市,双合村,NA,NA,20,32,6,14,132,NA,104,104,NA,10,5,6,0.6,0.4
2026-05-31T1200,2249A,131.1651,46.6191,双鸭山市,南小市,,48,48,26,1,10,123,NA,96,96,6,6,6,7,0.1,0.1
2026-05-31T1200,2250A,131.1526,46.6554,双鸭山市,环保局,NA,NA,10,30,3,12,120,NA,95,95,NA,11,4,5,0.5,0.3
2026-05-31T1200,2252A,128.8663,47.7199,伊春市,环保局,,45,27,23,10,7,143,NA,78,78,3,9,2,2,0.3,0.5
2026-05-31T1200,2253A,128.9014,47.732,伊春市,电力嘉园,,47,24,21,8,10,150,NA,80,80,5,10,4,4,0.2,0.4
2026-05-31T1200,2255A,130.2749,46.8028,佳木斯市,佳纺,,45,20,23,7,10,143,NA,99,99,4,10,6,4,0,0
2026-05-31T1200,2257A,130.3258,46.7975,佳木斯市,环保局,,45,22,19,2,11,143,NA,102,102,5,8,2,2,0.2,0.2
2026-05-31T1200,2263A,127.4832,50.2524,黑河市,交通局,,30,30,29,14,15,96,NA,69,69,8,13,6,6,0.1,0.1
2026-05-31T1200,2264A,127.5146,50.2339,黑河市,环保局,,26,NA,29,13,14,83,NA,NA,NA,6,8,4,5,0.3,0.3
2026-05-31T1200,2266A,126.9783,46.6365,绥化市,人和东街,,49,21,19,5,9,154,NA,105,105,6,18,8,12,0.3,0.4
2026-05-31T1200,2267A,126.964,46.6527,绥化市,党政办公中心,,49,24,30,10,8,154,NA,106,106,9,16,8,11,0.2,0.2
2026-05-31T1200,2269A,124.1068,50.4091,大兴安岭地区,科技局,颗粒物(PM10),51,51,34,8,10,74,NA,74,74,2,3,8,8,0.2,0.3
2026-05-31T1200,2270A,117.396,32.9389,蚌埠市,工人疗养院,臭氧1小时(O3_1h),93,64,85,15,42,194,NA,166,166,12,14,6,6,0.4,0.5
2026-05-31T1200,2271A,117.3606,32.9428,蚌埠市,百货大楼,臭氧1小时(O3_1h),99,56,79,15,46,199,NA,168,168,9,13,8,9,0.5,0.6
2026-05-31T1200,2273A,117.4183,32.8909,蚌埠市,蚌埠学院,臭氧1小时(O3_1h),85,51,77,8,44,188,NA,161,161,5,11,6,6,0.3,0.5
2026-05-31T1200,2274A,117.3534,32.9672,蚌埠市,淮上区政府,臭氧1小时(O3_1h),97,58,74,17,44,197,NA,172,172,12,12,6,7,0.3,0.5
2026-05-31T1200,2275A,117.3143,32.8977,蚌埠市,高新区,臭氧1小时(O3_1h),92,70,87,17,49,193,NA,154,154,9,17,6,7,0.3,0.5
2026-05-31T1200,2277A,116.8304,32.7726,淮南市,潘集区政府,臭氧1小时(O3_1h),97,71,89,13,41,197,NA,132,132,5,16,9,9,0.5,0.6
2026-05-31T1200,2279A,116.8569,32.5949,淮南市,谢家集区政府,臭氧1小时(O3_1h),90,49,72,19,40,192,NA,130,130,10,19,7,8,0.4,0.4
2026-05-31T1200,2280A,116.8279,32.6333,淮南市,八公山区政府,臭氧1小时(O3_1h),94,67,71,19,40,195,NA,130,130,8,10,5,7,0.4,0.4
2026-05-31T1200,2282A,116.8005,33.9749,淮北市,监测站,臭氧1小时(O3_1h),72,72,74,26,37,177,NA,131,131,8,14,7,7,0.6,0.7
2026-05-31T1200,2283A,116.8094,33.9008,淮北市,烈山区政府,臭氧1小时(O3_1h),68,66,88,9,35,174,NA,123,123,3,11,7,8,0.2,0.4
2026-05-31T1200,2285A,117.8176,30.9412,铜陵市,市第四中学,臭氧1小时(O3_1h),72,60,76,30,37,177,NA,100,100,7,14,7,8,0.4,0.5
2026-05-31T1200,2287A,117.7806,30.9413,铜陵市,市新民污水厂,臭氧1小时(O3_1h),94,58,68,33,38,195,NA,78,78,18,25,13,12,0.8,0.8
2026-05-31T1200,2289A,117.846,30.9414,铜陵市,车站新区,NA,NA,53,73,25,34,188,NA,104,104,NA,17,10,10,0.5,0.6
2026-05-31T1200,2290A,117.8472,30.9699,铜陵市,市职教基地,臭氧1小时(O3_1h),60,50,71,18,36,168,NA,94,94,5,13,7,10,0.5,0.6
2026-05-31T1200,2291A,117.0806,30.5181,安庆市,环科院,臭氧1小时(O3_1h),104,49,58,20,43,207,NA,126,126,7,22,9,9,0.6,0.7
2026-05-31T1200,2292A,117.0331,30.5118,安庆市,马山宾馆,臭氧1小时(O3_1h),108,63,61,33,44,216,NA,132,132,11,19,10,10,0.7,0.7
2026-05-31T1200,2294A,116.9897,30.6146,安庆市,安庆大学,臭氧1小时(O3_1h),85,42,52,21,36,188,NA,111,111,5,12,4,4,0.5,0.6
2026-05-31T1200,2295A,118.2905,29.6965,黄山市,延安路89号,,48,38,44,24,31,152,NA,83,83,6,10,6,6,0.4,0.5
2026-05-31T1200,2297A,118.1369,30.2755,黄山市,黄山区政府5号楼,,45,44,49,19,31,141,NA,64,64,4,6,3,3,0.4,0.5
2026-05-31T1200,2301A,115.8276,32.8929,阜阳市,市监测站,臭氧1小时(O3_1h),54,49,63,15,25,163,NA,121,121,8,13,6,7,0.2,0.2
2026-05-31T1200,2303A,115.8551,32.8606,阜阳市,开发区,颗粒物(PM10),65,70,81,11,26,162,NA,114,114,9,15,4,5,0.5,0.5
2026-05-31T1200,2307A,116.5078,31.7369,六安市,监测大楼,臭氧1小时(O3_1h),75,43,32,22,22,180,NA,117,117,6,11,4,4,0.4,0.4
2026-05-31T1200,2308A,116.4738,31.7642,六安市,皖西学院,臭氧1小时(O3_1h),80,51,38,25,21,184,NA,120,120,4,7,6,6,0.3,0.3
2026-05-31T1200,2309A,116.4997,31.7904,六安市,朝阳厂,臭氧1小时(O3_1h),65,47,33,27,25,172,NA,109,109,8,13,8,7,0.3,0.3
2026-05-31T1200,2310A,116.5566,31.7885,六安市,开发区,臭氧1小时(O3_1h),90,59,42,22,30,192,NA,121,121,7,21,6,7,0.3,0.3
2026-05-31T1200,2311A,115.8071,33.8399,亳州市,污水处理厂,,49,47,46,8,13,156,NA,109,109,10,16,5,6,0.2,0.2
2026-05-31T1200,2312A,115.7789,33.8519,亳州市,三国揽胜宫,颗粒物(PM10),59,62,54,13,16,162,NA,119,119,6,10,5,5,0.1,0.2
2026-05-31T1200,2314A,117.4698,30.6617,池州市,池州学院,臭氧1小时(O3_1h),98,56,44,37,29,198,NA,109,109,14,20,8,6,0.6,0.7
2026-05-31T1200,2316A,118.7578,30.9457,宣城市,鳌峰子站,NA,NA,NA,51,16,25,NA,NA,70,NA,2,15,NA,7,0.4,0.3
2026-05-31T1200,2317A,118.7384,30.9745,宣城市,敬亭山子站,臭氧1小时(O3_1h),68,54,49,40,29,174,NA,101,101,15,15,6,5,0.2,0.3
2026-05-31T1200,2318A,118.7172,30.9428,宣城市,开发区子站,臭氧1小时(O3_1h),83,49,50,30,28,186,NA,109,109,7,12,8,9,0.4,0.4
2026-05-31T1200,2319A,119.0142,25.4324,莆田市,荔城区仓后路,臭氧1小时(O3_1h),59,44,33,16,13,167,NA,144,144,12,9,/,/,/,/
2026-05-31T1200,2320A,119.0016,25.4553,莆田市,莆田市监测站,臭氧1小时(O3_1h),58,37,29,11,13,166,NA,146,146,5,4,4,4,0.6,0.5
2026-05-31T1200,2321A,119.112,25.4561,莆田市,涵江区六中,臭氧1小时(O3_1h),58,32,32,14,11,166,NA,139,139,10,10,/,/,0.6,0.6
2026-05-31T1200,2322A,119.1014,25.3215,莆田市,秀屿区政府,臭氧1小时(O3_1h),57,38,34,14,10,165,NA,141,141,10,9,6,6,0.5,0.5
2026-05-31T1200,2324A,117.621,26.2626,三明市,三钢,,41,41,39,26,28,113,NA,61,61,6,9,6,5,0.6,0.6
2026-05-31T1200,2325A,117.6352,26.2714,三明市,三明二中,颗粒物(PM10),53,53,40,30,29,111,NA,60,60,6,8,5,4,0.6,0.6
2026-05-31T1200,2326A,117.6028,26.2377,三明市,三元区政府,,45,45,38,31,26,112,NA,64,64,6,8,6,5,0.8,0.8
2026-05-31T1200,2332A,118.1682,26.6371,南平市,南平市监测站,,50,50,41,32,24,119,NA,57,57,6,11,10,5,0.7,0.6
2026-05-31T1200,2334A,118.1757,26.6276,南平市,南平七中,颗粒物(PM10),52,52,42,30,23,116,NA,52,52,6,12,8,3,0.7,0.5
2026-05-31T1200,2336A,117.022,25.1031,龙岩市,龙岩市监测站,,47,47,26,20,18,91,NA,55,55,5,9,7,7,0.5,0.4
2026-05-31T1200,2337A,117.0257,25.0662,龙岩市,闽西职业技术学院,,45,45,33,28,17,98,NA,65,65,6,7,7,6,0.8,0.6
2026-05-31T1200,2338A,117.0195,25.0306,龙岩市,龙岩学院,颗粒物(PM10),55,57,31,28,18,100,NA,53,53,6,6,1,3,/,/
2026-05-31T1200,2341A,119.5387,26.6611,宁德市,宁德市监测站,臭氧1小时(O3_1h),73,41,33,19,16,178,NA,117,117,13,15,12,7,0.7,0.6
2026-05-31T1200,2343A,117.2114,29.2931,景德镇市,老干部活动中心,细颗粒物(PM2.5),52,47,43,36,39,128,NA,76,76,6,9,6,4,0.8,0.9
2026-05-31T1200,2344A,117.1893,29.2789,景德镇市,兽医站,细颗粒物(PM2.5),52,45,51,36,36,154,NA,89,89,8,9,4,4,0.7,0.7
2026-05-31T1200,2346A,117.246,29.2958,景德镇市,陶研所,,44,43,44,30,36,138,NA,76,76,8,13,6,4,0.7,0.7
2026-05-31T1200,2348A,113.8384,27.6436,萍乡市,中医院,细颗粒物(PM2.5),78,85,65,49,36,96,NA,76,76,19,17,16,12,1.2,0.7
2026-05-31T1200,2350A,113.8677,27.6438,萍乡市,市环保局,细颗粒物(PM2.5),88,68,53,54,43,102,NA,76,76,13,12,14,11,1.4,0.9
2026-05-31T1200,2351A,113.8663,27.6202,萍乡市,安源区政府,细颗粒物(PM2.5),72,68,55,46,38,101,NA,70,70,12,10,12,7,0.9,0.5
2026-05-31T1200,2353A,114.9887,27.8433,新余市,飞宇,颗粒物(PM10),62,66,59,37,33,123,NA,80,80,20,12,7,6,0.9,0.8
2026-05-31T1200,2354A,114.9234,27.8248,新余市,第二水厂,细颗粒物(PM2.5),66,62,56,43,32,117,NA,79,79,14,10,4,4,1.3,0.7
2026-05-31T1200,2355A,114.931,27.8037,新余市,市气象局,细颗粒物(PM2.5),76,69,50,48,35,118,NA,76,76,21,10,2,1,2.6,0.7
2026-05-31T1200,2358A,117.0561,28.2641,鹰潭市,新监测站,臭氧1小时(O3_1h),67,71,63,42,47,173,NA,107,107,10,10,15,9,0.6,0.6
2026-05-31T1200,2359A,117.0312,28.2474,鹰潭市,财苑宾馆,臭氧1小时(O3_1h),70,75,62,40,47,176,NA,108,108,7,14,12,10,/,/
2026-05-31T1200,2360A,117.0221,28.2263,鹰潭市,体育馆,颗粒物(PM10),63,68,62,40,48,166,NA,111,111,11,17,10,13,0.7,0.7
2026-05-31T1200,2363A,114.9368,25.8663,赣州市,地委,细颗粒物(PM2.5),56,56,50,38,34,144,NA,100,100,4,4,4,3,1.0,0.8
2026-05-31T1200,2364A,114.946,25.8483,赣州市,气象台,细颗粒物(PM2.5),70,NA,47,45,38,149,NA,102,102,12,10,3,5,0.5,0.5
2026-05-31T1200,2365A,114.932,25.8332,赣州市,市图书馆,细颗粒物(PM2.5),60,56,49,40,32,156,NA,117,117,8,6,6,5,0.9,0.8
2026-05-31T1200,2366A,114.8905,25.8472,赣州市,华坚鞋城,颗粒物(PM10),58,61,56,35,28,148,NA,107,107,14,12,2,2,0.5,0.5
2026-05-31T1200,2367A,114.9753,27.0803,吉安市,红声器材厂,颗粒物(PM10),60,63,52,33,28,136,NA,77,77,8,10,2,2,0.7,0.6
2026-05-31T1200,2369A,114.9903,27.1313,吉安市,市环境监测站,细颗粒物(PM2.5),56,57,49,38,30,122,NA,72,72,8,8,11,10,/,/
2026-05-31T1200,2370A,115.009527,27.096792,吉安市,青原区法院,"颗粒物(PM10),细颗粒物(PM2.5)",56,58,51,38,29,140,NA,81,81,8,9,8,8,0.6,0.6
2026-05-31T1200,2373A,114.3954,27.7843,宜春市,市石油公司,NA,NA,58,63,32,41,111,NA,71,71,7,12,NA,5,0.8,0.8
2026-05-31T1200,2374A,114.37,27.7916,宜春市,市气象局,"颗粒物(PM10),细颗粒物(PM2.5)",58,60,59,39,39,112,NA,66,66,6,10,7,8,0.9,0.9
2026-05-31T1200,2375A,114.401,27.8059,宜春市,市广电局,细颗粒物(PM2.5),56,50,52,38,44,115,NA,76,76,10,14,4,7,0.8,0.8
2026-05-31T1200,2377A,116.3544,27.9833,抚州市,市站,细颗粒物(PM2.5),88,75,71,54,48,144,NA,124,112,8,8,11,13,0.8,0.8
2026-05-31T1200,2378A,116.3562,27.9631,抚州市,血防站,细颗粒物(PM2.5),90,80,68,55,50,141,NA,139,120,8,8,4,6,0.7,0.6
2026-05-31T1200,2379A,116.3561,28.0007,抚州市,采茶剧团,细颗粒物(PM2.5),102,72,70,62,52,144,NA,121,110,7,9,9,9,0.9,0.9
2026-05-31T1200,2380A,116.3854,27.9648,抚州市,医学分院,细颗粒物(PM2.5),94,81,75,57,47,134,NA,116,107,5,6,9,13,1.2,1.1
2026-05-31T1200,2382A,117.9758,28.4439,上饶市,市监测站,臭氧1小时(O3_1h),83,58,57,33,29,186,NA,129,129,6,10,7,16,/,/
2026-05-31T1200,2383A,117.9521,28.4637,上饶市,凤凰光学,臭氧1小时(O3_1h),63,44,52,31,29,170,NA,129,129,6,11,5,8,0.5,0.5
2026-05-31T1200,2385A,114.17,35.9019,鹤壁市,市监测站,,47,29,32,26,22,148,NA,122,122,7,16,4,5,0.6,0.6
2026-05-31T1200,2386A,114.2953,35.7512,鹤壁市,市交警支队,颗粒物(PM10),52,52,57,22,24,148,NA,99,99,10,25,12,8,0.5,0.5
2026-05-31T1200,2387A,114.2877,35.7302,鹤壁市,迎宾馆,颗粒物(PM10),55,56,64,16,21,158,NA,105,105,8,21,10,9,0.4,0.4
2026-05-31T1200,2389A,113.836,35.3104,新乡市,环保西院,颗粒物(PM10),53,53,59,21,23,155,NA,99,99,4,15,12,13,0.7,0.8
2026-05-31T1200,2390A,113.8847,35.2724,新乡市,开发区,,50,44,52,21,19,157,NA,102,102,9,19,10,11,0.4,0.4
2026-05-31T1200,2391A,113.8836,35.3028,新乡市,环保东院,臭氧1小时(O3_1h),55,52,53,20,21,164,NA,110,110,10,19,9,10,0.7,0.7
2026-05-31T1200,2392A,115.0312,35.7636,濮阳市,环保局,颗粒物(PM10),75,84,50,12,15,172,NA,115,115,5,11,5,6,0.6,0.7
2026-05-31T1200,2398A,113.7904,33.9949,许昌市,开发区,臭氧1小时(O3_1h),54,32,61,22,28,163,NA,103,103,2,16,3,5,0.3,0.4
2026-05-31T1200,2399A,114.051,33.5721,漯河市,三五一五工厂,臭氧1小时(O3_1h),77,81,53,7,16,181,NA,138,138,9,17,6,7,0.4,0.4
2026-05-31T1200,2400A,114.0055,33.5698,漯河市,漯河大学,颗粒物(PM10),67,73,54,25,21,172,NA,130,130,10,18,6,7,0.3,0.4
2026-05-31T1200,2401A,114.0134,33.5826,漯河市,市水利局,NA,NA,NA,52,15,21,169,NA,130,130,10,17,4,6,0.2,0.3
2026-05-31T1200,2402A,114.0261,33.5697,漯河市,市广电局,臭氧1小时(O3_1h),70,61,51,22,18,176,NA,135,135,10,17,5,6,0.3,0.4
2026-05-31T1200,2404A,112.5338,33.0086,南阳市,瓦房庄,臭氧1小时(O3_1h),67,60,119,20,98,173,NA,117,117,7,22,7,9,0.6,0.8
2026-05-31T1200,2405A,112.5002,32.9734,南阳市,汉画馆,颗粒物(PM10),66,72,124,25,88,164,NA,97,97,13,30,7,8,0.4,0.6
2026-05-31T1200,2406A,112.5778,33.0144,南阳市,气象站,颗粒物(PM10),52,52,133,17,96,154,NA,88,88,7,29,8,11,0.3,0.6
2026-05-31T1200,2407A,112.548,32.9687,南阳市,理工学院,臭氧1小时(O3_1h),60,51,122,22,95,168,NA,96,96,8,37,7,10,0.3,0.6
2026-05-31T1200,2408A,115.6701,34.4283,商丘市,环境监测站,颗粒物(PM10),68,75,66,18,21,171,NA,111,111,5,9,6,5,0.4,0.4
2026-05-31T1200,2409A,115.6458,34.4047,商丘市,粮食局,颗粒物(PM10),76,86,68,23,25,171,NA,113,113,6,12,6,7,0.4,0.4
2026-05-31T1200,2420A,114.0194,32.9648,驻马店市,市一纸厂,,46,32,38,20,15,147,NA,124,124,5,10,3,4,0.3,0.3
2026-05-31T1200,2421A,114.0112,33.0149,驻马店市,市彩印厂,,50,41,40,14,14,157,NA,130,130,5,8,4,5,0.4,0.3
2026-05-31T1200,2423A,115.0547,30.2332,黄石市,沈家营,臭氧1小时(O3_1h),92,90,72,39,31,193,NA,80,80,8,14,14,6,0.6,0.3
2026-05-31T1200,2426A,114.899,30.211,黄石市,铁山,细颗粒物(PM2.5),72,64,47,46,28,174,NA,110,110,10,9,8,5,0.7,0.5
2026-05-31T1200,2427A,115.0259,30.2108,黄石市,团城山,臭氧1小时(O3_1h),89,74,69,45,35,191,NA,89,89,10,15,10,5,1.1,0.9
2026-05-31T1200,2429A,110.78,32.6494,十堰市,滨河新村,,34,30,33,8,14,106,NA,51,51,13,15,/,/,0.8,0.8
2026-05-31T1200,2430A,110.7305,32.6408,十堰市,刘家沟,,35,24,26,9,11,109,NA,57,57,9,9,/,/,/,/
2026-05-31T1200,2431A,110.8843,32.5712,十堰市,铁二处,,43,33,29,22,16,136,NA,66,66,16,9,8,8,0.5,0.4
2026-05-31T1200,2432A,112.1555,32.0197,襄阳市,襄城运动路,颗粒物(PM10),65,71,48,33,24,161,NA,110,110,6,8,14,13,0.8,0.7
2026-05-31T1200,2434A,112.1829,32.1146,襄阳市,高新管委会,颗粒物(PM10),62,66,59,36,33,166,NA,111,111,3,10,7,6,0.8,0.7
2026-05-31T1200,2435A,112.2105,32.0903,襄阳市,襄州航空路,颗粒物(PM10),62,66,60,33,31,147,NA,102,102,4,10,9,9,0.3,0.2
2026-05-31T1200,2436A,114.894,30.3989,鄂州市,市政府,颗粒物(PM10),73,82,75,41,33,175,NA,85,85,17,24,10,7,0.8,0.8
2026-05-31T1200,2437A,114.8986,30.3714,鄂州市,赵家坝,臭氧1小时(O3_1h),85,76,64,36,29,188,NA,80,80,12,17,10,11,0.6,0.6
2026-05-31T1200,2439A,112.2012,31.048,荆门市,竹园小学,,50,34,52,27,27,157,NA,101,101,8,18,5,6,0.6,0.7
2026-05-31T1200,2440A,112.1968,30.9892,荆门市,掇刀,,49,47,44,32,24,156,NA,100,100,8,12,8,10,0.5,0.6
2026-05-31T1200,2444A,113.9062,30.9378,孝感市,东城区,臭氧1小时(O3_1h),80,54,53,21,26,184,NA,123,123,4,9,8,6,0.2,0.2
2026-05-31T1200,2446A,114.9021,30.474,黄冈市,职工中心,细颗粒物(PM2.5),64,58,51,42,34,42,NA,30,7,6,13,8,5,1.1,0.9
2026-05-31T1200,2451A,113.3587,31.7275,随州市,市委党校,颗粒物(PM10),52,52,43,16,19,158,NA,73,73,7,18,8,9,0.5,0.5
2026-05-31T1200,2452A,113.3745,31.6926,随州市,市林业局,臭氧1小时(O3_1h),60,48,39,30,19,168,NA,86,86,10,11,5,6,0.6,0.6
2026-05-31T1200,2453A,113.3984,31.7309,随州市,市立交桥水厂,臭氧1小时(O3_1h),58,51,40,29,20,166,NA,82,82,3,10,4,5,0.5,0.5
2026-05-31T1200,2454A,109.4978,30.2979,恩施土家族苗族自治州,湖北民院,,28,28,26,12,14,72,NA,23,23,2,4,8,8,0.5,0.5
2026-05-31T1200,2457A,112.6209,26.9268,衡阳市,衡阳化工总厂,细颗粒物(PM2.5),72,69,55,46,34,125,NA,59,59,12,17,5,4,1.2,0.9
2026-05-31T1200,2458A,112.621,26.8957,衡阳市,珠晖区环保局,颗粒物(PM10),65,70,52,37,31,136,NA,66,66,11,15,10,8,1.1,0.9
2026-05-31T1200,2459A,112.628,26.8654,衡阳市,市委党校,颗粒物(PM10),56,58,53,37,35,125,NA,62,62,7,10,11,10,1.0,0.8
2026-05-31T1200,2460A,112.6007,26.8977,衡阳市,市监测站,颗粒物(PM10),55,57,53,31,30,124,NA,65,65,8,12,10,8,1.0,0.9
2026-05-31T1200,2461A,112.5658,26.9013,衡阳市,真空机电公司,,46,46,50,30,31,115,NA,58,58,8,16,7,8,0.8,0.9
2026-05-31T1200,2464A,111.5277,27.2442,邵阳市,市化工厂,,33,30,43,23,30,81,NA,43,43,4,12,2,4,0.4,0.4
2026-05-31T1200,2466A,111.4327,27.2276,邵阳市,市环保局,,44,44,42,17,30,84,NA,38,38,7,11,3,2,0.6,0.6
2026-05-31T1200,2468A,112.3458,28.581,益阳市,市环保局,,43,21,32,21,22,136,NA,81,81,8,21,7,6,0.8,0.7
2026-05-31T1200,2473A,113.0116,25.8228,郴州市,市职中,,48,36,38,33,36,101,NA,52,52,8,12,5,5,1.0,1.1
2026-05-31T1200,2475A,113.0381,25.8074,郴州市,市审计局,颗粒物(PM10),51,51,40,34,35,91,NA,45,45,8,12,9,4,/,/
2026-05-31T1200,2476A,113.0348,25.7757,郴州市,市环保局,细颗粒物(PM2.5),60,40,38,40,38,100,NA,38,38,10,20,10,6,0.8,0.8
2026-05-31T1200,2478A,111.6126,26.4266,永州市,市环境监测站,,45,44,51,31,33,111,NA,44,44,8,12,5,5,0.9,0.9
2026-05-31T1200,2480A,111.6248,26.3803,永州市,永州市环保局,,40,37,49,28,33,102,NA,45,45,7,10,5,5,0.7,0.6
2026-05-31T1200,2481A,111.5989,26.4523,永州市,冷水滩区环保局,,49,49,56,33,32,118,NA,53,53,8,10,6,6,0.8,0.8
2026-05-31T1200,2483A,109.9297,27.5383,怀化市,河西地税局,,33,29,32,18,21,105,NA,47,47,5,9,7,6,/,/
2026-05-31T1200,2484A,109.9783,27.5342,怀化市,市四医院,,35,33,39,8,22,112,NA,46,46,5,10,7,7,0.4,0.4
2026-05-31T1200,2485A,109.9971,27.5579,怀化市,监测楼,,40,30,38,16,23,126,NA,55,55,4,9,7,6,0.4,0.5
2026-05-31T1200,2488A,111.9984,27.7346,娄底市,市监测站,,47,47,50,19,27,110,NA,49,49,4,16,7,7,0.6,0.7
2026-05-31T1200,2491A,111.9888,27.7035,娄底市,市政府,,43,43,44,21,30,113,NA,53,53,4,10,5,4,0.5,0.6
2026-05-31T1200,2493A,109.7298,28.3164,湘西土家族苗族自治州,州政府,,33,33,34,20,19,97,NA,39,39,11,11,4,4,0.2,0.3
2026-05-31T1200,2494A,109.6957,28.2676,湘西土家族苗族自治州,吉首市计生局,,35,35,32,21,18,92,NA,35,35,9,11,6,6,0.4,0.4
2026-05-31T1200,2496A,111.3126,23.4772,梧州市,市十一中,颗粒物(PM10),51,51,27,26,20,114,NA,49,49,11,17,10,13,0.4,0.4
2026-05-31T1200,2498A,111.26,23.4794,梧州市,龙新,颗粒物(PM10),53,54,29,26,15,108,NA,52,52,14,15,6,8,0.4,0.4
2026-05-31T1200,2499A,108.3411,21.6159,防城港市,沙万,,35,35,37,17,22,112,NA,70,70,10,12,3,2,1.0,0.9
2026-05-31T1200,2500A,108.3515,21.7733,防城港市,防城档案局,NA,NA,41,45,11,22,104,NA,62,62,6,12,NA,5,0.6,0.7
2026-05-31T1200,2501A,108.3506,21.6414,防城港市,大海花园,NA,NA,26,33,18,24,127,NA,77,77,NA,9,NA,6,0.8,0.7
2026-05-31T1200,2502A,108.6238,21.9667,钦州市,市环保站,,34,27,33,2,16,106,NA,60,60,8,11,2,2,0.7,0.7
2026-05-31T1200,2503A,108.655,21.9481,钦州市,沙埠小学,颗粒物(PM10),61,65,36,5,21,114,NA,56,56,6,13,2,2,0.6,0.7
2026-05-31T1200,2504A,108.5989,21.7435,钦州市,港区一小,,39,36,41,13,24,124,NA,46,NA,8,19,9,6,0.7,0.7
2026-05-31T1200,2506A,109.604387,23.066791,贵港市,江南子站,细颗粒物(PM2.5),56,48,29,38,19,128,NA,64,64,13,12,6,3,0.8,0.7
2026-05-31T1200,2508A,109.5669,23.1065,贵港市,荷城子站,,39,31,21,27,17,113,NA,62,62,11,8,4,3,1.0,0.8
2026-05-31T1200,2511A,110.1433,22.6162,玉林市,南江一中,NA,NA,60,37,44,28,95,NA,41,41,13,19,4,4,NA,0.8
2026-05-31T1200,2512A,106.6102,23.901,百色市,市监测站,,37,37,30,14,11,92,NA,37,37,4,4,7,7,0.7,0.7
2026-05-31T1200,2513A,106.6524,23.8842,百色市,市中心血站,,38,38,37,22,19,99,NA,36,36,10,16,9,8,0.5,0.5
2026-05-31T1200,2514A,111.5264,24.4178,贺州市,环保小区,,33,24,20,17,15,104,NA,68,68,6,6,7,7,0.5,0.5
2026-05-31T1200,2515A,111.561,24.4074,贺州市,政协大楼,,36,19,20,15,15,114,NA,72,72,10,9,10,10,0.7,0.7
2026-05-31T1200,2517A,108.0496,24.6957,河池市,市环保站,,34,34,22,10,10,93,NA,64,64,6,6,15,8,0.7,0.7
2026-05-31T1200,2520A,109.2203,23.7252,来宾市,来宾技工学校,,36,29,23,19,10,115,NA,55,55,7,10,9,10,0.7,0.7
2026-05-31T1200,2521A,107.3473,22.4137,崇左市,市环保局江州分局,,38,38,35,20,16,120,NA,44,44,7,12,7,3,0.7,0.6
2026-05-31T1200,2524A,105.8211,32.4444,广元市,老城,颗粒物(PM10),51,51,34,28,27,106,NA,73,73,14,11,9,9,0.9,0.6
2026-05-31T1200,2526A,105.8629,32.429,广元市,监测站,,45,45,48,24,25,102,NA,66,66,21,17,11,13,0.7,0.7
2026-05-31T1200,2528A,105.5581,30.5231,遂宁市,市监测站,,33,26,32,11,13,105,NA,62,62,8,14,11,13,0.6,0.7
2026-05-31T1200,2530A,105.5917,30.4727,遂宁市,美宁食品公司,,34,33,32,10,16,106,NA,66,66,10,21,9,12,0.7,0.6
2026-05-31T1200,2531A,105.0703,29.61,内江市,市监测站,,35,18,39,14,20,110,NA,81,81,13,17,10,11,0.6,0.7
2026-05-31T1200,2533A,105.0657,29.5807,内江市,内江二中,,37,21,32,11,22,118,NA,96,96,10,14,9,10,0.4,0.4
2026-05-31T1200,2534A,105.0407,29.5828,内江市,内江日报社,,37,13,31,12,23,118,NA,85,85,9,19,13,14,0.5,0.5
2026-05-31T1200,2536A,103.7629,29.5844,乐山市,牛耳桥,,44,40,44,23,23,139,NA,107,107,10,12,6,6,0.3,0.4
2026-05-31T1200,2537A,103.7501,29.6002,乐山市,市第三水厂,,43,43,45,21,24,135,NA,102,102,9,12,5,5,0.7,0.7
2026-05-31T1200,2538A,103.7571,29.5664,乐山市,市监测站,,43,41,45,21,22,137,NA,110,110,8,9,4,4,0.8,0.8
2026-05-31T1200,2540A,103.8414,30.0871,眉山市,气象局,细颗粒物(PM2.5),64,59,48,42,28,137,NA,95,77,20,22,11,8,0.8,0.7
2026-05-31T1200,2544A,106.6307,30.4577,广安市,市委,,33,15,23,5,18,104,NA,54,54,5,11,9,8,0.4,0.4
2026-05-31T1200,2545A,106.6266,30.4662,广安市,友谊中学,,33,16,21,8,13,103,NA,56,56,6,11,9,8,0.6,0.6
2026-05-31T1200,2547A,106.6386,30.4551,广安市,广电花园,,32,21,26,10,17,102,NA,46,46,8,14,8,7,0.5,0.5
2026-05-31T1200,2549A,107.5087,31.2186,达州市,市环境监测站,,29,29,24,9,8,75,NA,25,25,17,23,7,7,0.4,0.5
2026-05-31T1200,2550A,107.4988,31.2132,达州市,凤凰小区,,24,22,24,6,9,76,NA,27,27,12,20,6,6,0.4,0.4
2026-05-31T1200,2551A,107.5081,31.1987,达州市,达县机关宾馆,,25,19,24,9,11,79,NA,30,30,16,27,5,5,0.3,0.4
2026-05-31T1200,2552A,107.4644,31.2124,达州市,市政中心,,27,24,33,3,10,86,NA,30,30,13,26,5,4,0.4,0.5
2026-05-31T1200,2555A,103.011,29.9833,雅安市,市政府,,45,44,35,31,22,51,NA,52,38,13,12,14,9,0.4,0.3
2026-05-31T1200,2556A,102.9907,29.9778,雅安市,川农大,,49,46,36,34,24,36,NA,55,39,19,13,15,8,0.7,0.5
2026-05-31T1200,2562A,104.6357,30.1508,资阳市,资阳中学,,45,24,36,21,19,142,NA,100,100,10,11,8,7,0.7,0.7
2026-05-31T1200,2565A,104.6297,30.1259,资阳市,区法院,,42,NA,31,20,21,134,NA,96,96,5,9,5,6,0.4,0.3
2026-05-31T1200,2568A,102.2503,31.8896,阿坝藏族羌族自治州,马师校,,19,8,16,6,8,60,NA,22,22,4,4,7,7,0.3,0.3
2026-05-31T1200,2570A,101.96,30.048,甘孜藏族自治州,水桥子,,25,5,13,0,5,78,NA,22,22,3,15,6,6,0.2,0.2
2026-05-31T1200,2573A,102.2629,27.8981,凉山彝族自治州,西昌市政府,,28,19,15,14,12,89,NA,62,62,6,8,12,9,0.7,0.6
2026-05-31T1200,2574A,102.2686,27.885,凉山彝族自治州,凉山州政府,,26,21,16,14,11,81,NA,59,59,4,8,9,6,0.7,0.7
2026-05-31T1200,2577A,104.8293,26.592,六盘水市,黄土坡,,32,32,32,12,17,90,NA,60,60,7,11,4,4,0.4,0.3
2026-05-31T1200,2579A,104.8481,26.5898,六盘水市,民中,,28,25,31,18,19,87,NA,66,66,8,15,2,3,0.4,0.5
2026-05-31T1200,2580A,104.9541,26.5506,六盘水市,双水,,29,29,29,18,14,84,NA,78,77,8,8,5,4,0.3,0.3
2026-05-31T1200,2585A,109.1839,27.7344,铜仁市,铜仁卫校,,30,NA,34,14,15,94,NA,50,50,4,7,10,10,0.3,0.3
2026-05-31T1200,2586A,109.1752,27.6945,铜仁市,铜仁七中,,31,29,33,19,16,98,NA,49,49,5,6,10,10,0.4,0.3
2026-05-31T1200,2587A,105.287,27.3133,毕节市,八中,,37,37,36,21,18,107,NA,52,52,7,13,13,8,0.7,0.5
2026-05-31T1200,2588A,105.3079,27.2987,毕节市,师专,,38,38,36,20,18,103,NA,51,51,6,11,12,8,0.7,0.5
2026-05-31T1200,2589A,104.9022,25.0943,黔西南布依族苗族自治州,场坝街,,24,NA,24,12,15,74,NA,52,52,5,8,7,17,0.4,0.4
2026-05-31T1200,2590A,104.8812,25.0994,黔西南布依族苗族自治州,坪东大道,,24,12,19,11,14,74,NA,44,44,4,8,5,7,0.3,0.3
2026-05-31T1200,2591A,107.9765,26.5724,黔东南苗族侗族自治州,市环境监测站,,26,24,23,18,17,73,NA,34,34,8,8,2,2,0.5,0.5
2026-05-31T1200,2593A,107.5223,26.2371,黔南布依族苗族自治州,小围寨,,28,19,27,19,19,82,NA,37,37,4,8,5,5,0.8,0.8
2026-05-31T1200,2594A,99.1589,25.1137,保山市,市环境监测站,,23,20,19,16,12,64,NA,45,45,10,9,5,4,0.3,0.2
2026-05-31T1200,2595A,99.1616,25.1381,保山市,市环保局,,39,NA,18,27,22,70,NA,51,51,8,7,4,4,0.6,0.5
2026-05-31T1200,2596A,103.7668,27.3736,昭通市,监测站,,28,23,43,16,20,87,NA,75,75,6,12,5,6,0.3,0.3
2026-05-31T1200,2599A,100.2497,26.8802,丽江市,丽江古城,,21,13,17,8,15,65,NA,64,60,6,8,7,6,0.5,0.6
2026-05-31T1200,2600A,100.2203,26.8906,丽江市,市中心,,20,12,15,4,12,62,NA,58,53,4,8,5,5,0.5,0.5
2026-05-31T1200,2601A,100.9801,22.7634,普洱市,市环保局,,22,20,35,11,13,70,NA,42,42,4,8,5,5,0.7,0.7
2026-05-31T1200,2602A,100.9763,22.8237,普洱市,普洱第二中学,,23,22,28,7,10,71,NA,31,31,5,12,6,5,0.6,0.6
2026-05-31T1200,2603A,100.0779,23.8981,临沧市,市环保局,,22,22,17,9,11,66,NA,30,30,7,7,6,7,0.5,0.5
2026-05-31T1200,2604A,100.0894,23.882,临沧市,市气象局,,24,18,16,12,13,76,NA,36,36,8,7,8,8,0.6,0.6
2026-05-31T1200,2606A,101.5379,25.0492,楚雄彝族自治州,市经济开发区,,18,9,13,5,10,57,NA,52,52,4,5,1,2,0.5,0.6
2026-05-31T1200,2610A,104.2533,23.3595,文山壮族苗族自治州,州水务局,,26,26,27,8,16,79,NA,38,38,7,10,3,3,0.3,0.4
2026-05-31T1200,2611A,104.2319,23.3892,文山壮族苗族自治州,市便民服务中心,,27,26,27,14,18,84,NA,37,37,6,10,1,2,0.4,0.5
2026-05-31T1200,2612A,100.8018,21.9995,西双版纳傣族自治州,景洪市江南,,25,19,26,12,12,80,NA,43,43,6,8,7,7,0.5,0.6
2026-05-31T1200,2613A,100.7995,22.0238,西双版纳傣族自治州,景洪市江北,,22,18,30,8,8,69,NA,36,36,4,5,4,5,0.7,0.7
2026-05-31T1200,2614A,100.2168,25.5818,大理白族自治州,大理市环境监测站,,20,14,12,14,7,60,NA,52,52,7,7,3,3,0.4,0.5
2026-05-31T1200,2615A,100.1542,25.7055,大理白族自治州,大理古城,,25,16,18,5,11,77,NA,54,54,6,8,9,8,0.6,0.6
2026-05-31T1200,2616A,98.5611,24.4273,德宏傣族景颇族自治州,德宏州监测站,,29,29,15,17,11,42,NA,22,22,10,8,9,8,0.4,0.3
2026-05-31T1200,2618A,98.859,25.8541,怒江傈僳族自治州,州监测站,,24,24,22,15,13,52,NA,24,24,9,10,5,4,0.4,0.4
2026-05-31T1200,2619A,98.8607,25.8168,怒江傈僳族自治州,泸水一中,,23,NA,23,16,15,42,NA,16,16,10,11,4,4,0.5,0.6
2026-05-31T1200,2621A,99.7054,27.8319,迪庆藏族自治州,迪庆州站,,22,10,13,4,7,68,NA,55,55,7,8,7,7,0.4,0.4
2026-05-31T1200,2622A,97.1813,31.1289,昌都市,昌都监测站,,28,12,10,2,3,87,NA,62,62,6,10,3,3,0.5,0.5
2026-05-31T1200,2624A,91.7592,29.234,山南市,山南监测站,,39,12,10,0,3,122,NA,107,101,3,3,7,7,0.2,0.2
2026-05-31T1200,2625A,91.7701,29.2436,山南市,山南人民医院,,39,8,14,2,4,123,NA,109,102,2,2,5,5,0.2,0.2
2026-05-31T1200,2626A,88.8873,29.2723,日喀则市,日喀则监测站,,43,9,11,2,6,135,NA,117,116,4,5,6,5,0.5,0.5
2026-05-31T1200,2628A,92.0653,31.4846,那曲市,那曲监测站,,41,23,28,6,15,131,NA,76,76,5,14,5,6,0.3,0.5
2026-05-31T1200,2630A,80.1171,32.4999,阿里地区,阿里监测站,,41,13,11,7,3,130,NA,112,110,6,7,7,7,0.4,0.4
2026-05-31T1200,2632A,94.3683,29.6373,林芝市,林芝监测站,,26,9,12,3,8,82,NA,75,68,5,4,3,3,0.6,0.6
2026-05-31T1200,2633A,94.3616,29.6634,林芝市,林芝人民医院,,30,10,15,4,10,96,NA,82,77,4,5,3,3,0.4,0.3
2026-05-31T1200,2635A,107.0155,33.0707,汉中市,市监测站,细颗粒物(PM2.5),52,50,50,36,27,99,NA,58,58,15,13,10,6,0.6,0.4
2026-05-31T1200,2636A,107.0083,33.114,汉中市,鑫源开发区,,45,45,42,31,29,96,NA,53,53,14,15,9,7,0.6,0.5
2026-05-31T1200,2637A,107.0072,33.0323,汉中市,南郑大河坎水厂,颗粒物(PM10),63,67,47,35,31,91,NA,37,37,14,13,8,5,0.8,0.6
2026-05-31T1200,2639A,109.7445,38.2919,榆林市,世纪广场,颗粒物(PM10),133,205,47,56,18,111,NA,101,86,9,14,11,12,0.4,0.4
2026-05-31T1200,2640A,109.729,38.2837,榆林市,实验中学,颗粒物(PM10),139,219,56,83,23,114,NA,105,88,10,16,9,9,0.3,0.3
2026-05-31T1200,2641A,109.7347,38.2491,榆林市,环保监测大楼,颗粒物(PM10),133,204,45,60,19,109,NA,105,88,14,15,12,10,0.3,0.3
2026-05-31T1200,2644A,109.0088,32.6974,安康市,汉滨区检察院,,36,35,31,25,16,60,NA,26,26,8,10,15,16,0.5,0.5
2026-05-31T1200,2645A,109.9155,33.8714,商洛市,监测站,,35,31,27,17,14,112,NA,54,54,7,13,7,7,0.6,0.5
2026-05-31T1200,2647A,104.1727,36.5448,白银市,第三小学,细颗粒物(PM2.5),78,82,156,49,64,123,NA,106,106,2,9,2,9,0.4,0.4
2026-05-31T1200,2648A,104.1467,36.5482,白银市,动力公司,颗粒物(PM10),65,70,143,24,52,122,NA,104,104,3,11,7,9,0.3,0.3
2026-05-31T1200,2650A,105.72058,34.57859,天水市,公园小学,,31,31,50,18,17,92,NA,53,53,10,19,10,9,0.4,0.4
2026-05-31T1200,2651A,105.89428,34.55353,天水市,麦积国土局,,44,44,44,18,15,84,NA,74,65,14,12,11,9,0.3,0.2
2026-05-31T1200,2652A,102.6203,37.925,武威市,监测站,颗粒物(PM10),64,69,60,27,28,104,NA,99,99,8,6,7,9,0.3,0.2
2026-05-31T1200,2654A,100.4699,38.9525,张掖市,润泉湖,,45,42,61,31,25,119,NA,86,81,8,10,6,5,0.4,0.2
2026-05-31T1200,2655A,100.4155,38.9422,张掖市,区工会,,47,47,60,19,24,123,NA,93,90,9,9,5,4,0.3,0.3
2026-05-31T1200,2656A,106.6633,35.5338,平凉市,聚贤嘉苑,颗粒物(PM10),61,65,51,18,14,99,NA,69,68,17,17,10,10,0.8,0.6
2026-05-31T1200,2657A,106.7021,35.5307,平凉市,博物馆,颗粒物(PM10),65,70,48,22,16,94,NA,69,69,27,21,11,11,0.7,0.6
2026-05-31T1200,2661A,107.6325,35.7357,庆阳市,庆阳五中,,40,40,32,16,11,123,NA,115,110,13,12,5,5,0.4,0.4
2026-05-31T1200,2662A,107.6361,35.7067,庆阳市,市环保局,,45,45,31,13,10,135,NA,127,127,20,12,6,7,0.5,0.4
2026-05-31T1200,2669A,102.9097,34.9841,甘南藏族自治州,州政府,颗粒物(PM10),104,129,43,44,19,88,NA,81,81,10,7,2,2,0.3,0.2
2026-05-31T1200,2671A,100.9016,36.9464,海北藏族自治州,海晏县西海镇,,41,13,25,7,14,130,NA,132,131,1,1,7,8,0.4,0.4
2026-05-31T1200,2672A,102.02,35.5101,黄南藏族自治州,同仁县隆务镇,颗粒物(PM10),59,62,35,26,14,95,NA,130,116,1,2,8,8,0.2,0.1
2026-05-31T1200,2673A,100.6158,36.2985,海南藏族自治州,共和县恰卜恰镇,,38,23,28,11,18,119,NA,124,121,2,3,10,10,0.5,0.4
2026-05-31T1200,2674A,100.2262,34.4854,果洛藏族自治州,玛沁县大武镇,,30,15,23,4,8,94,NA,85,80,2,2,18,17,0.4,0.4
2026-05-31T1200,2675A,97.0386,33.0138,玉树藏族自治州,玉树县结古镇,,38,12,14,2,4,119,NA,60,60,3,16,6,6,0.3,0.2
2026-05-31T1200,2676A,97.373,37.376,海西蒙古族藏族自治州,德令哈市,,35,28,31,22,14,111,NA,120,114,4,2,16,18,0.5,0.4
2026-05-31T1200,2677A,106.1535,37.9648,吴忠市,教育园区,颗粒物(PM10),93,109,65,15,25,118,NA,81,81,3,16,5,9,0.2,0.3
2026-05-31T1200,2679A,106.1851,37.9957,吴忠市,新区二泵站,颗粒物(PM10),121,173,61,42,22,120,NA,82,81,6,18,7,10,0.2,0.3
2026-05-31T1200,2682A,105.1965,37.4996,中卫市,环保局站,颗粒物(PM10),120,171,179,50,65,102,NA,95,91,9,14,6,6,0.4,0.5
2026-05-31T1200,2684A,106.2753,36.0057,固原市,监测站,颗粒物(PM10),115,159,52,48,18,108,NA,106,98,13,12,10,7,0.3,0.2
2026-05-31T1200,2685A,106.2384,36.0189,固原市,新区,颗粒物(PM10),114,154,50,43,15,104,NA,99,98,12,10,11,6,0.4,0.4
2026-05-31T1200,2686A,89.1905,42.9419,吐鲁番市,市环保局,颗粒物(PM10),61,65,107,14,32,119,NA,106,95,3,11,5,5,0.4,0.4
2026-05-31T1200,2687A,89.1674,42.9558,吐鲁番市,地区环保局,颗粒物(PM10),57,59,89,12,30,116,NA,94,79,6,13,7,7,0.4,0.5
2026-05-31T1200,2688A,93.5124,42.8176,哈密市,地区监测站,,37,20,20,6,8,118,NA,92,88,7,7,5,3,0.5,0.5
2026-05-31T1200,2689A,93.5014,42.8312,哈密市,哈密师范学校,,38,24,20,6,9,121,NA,81,80,7,10,4,4,0.1,0.2
2026-05-31T1200,2692A,87.2722,44.0298,昌吉回族自治州,新区政务中心,,31,31,27,6,15,95,NA,56,56,15,18,9,7,0.3,0.3
2026-05-31T1200,2693A,82.0482,44.8553,博尔塔拉蒙古自治州,市党校,,48,48,44,4,10,104,NA,66,66,6,5,5,3,0.3,0.2
2026-05-31T1200,2694A,82.0805,44.8966,博尔塔拉蒙古自治州,市环保局,,33,30,44,9,9,103,NA,67,67,4,10,8,6,0.2,0.2
2026-05-31T1200,2695A,80.2899,41.1684,阿克苏地区,电视台,颗粒物(PM10),235,374,165,120,62,70,NA,68,68,11,23,3,3,0.7,0.9
2026-05-31T1200,2696A,80.2592,41.1541,阿克苏地区,艺术中心,颗粒物(PM10),171,291,162,125,69,60,NA,63,63,23,30,3,4,0.6,0.7
2026-05-31T1200,2697A,76.1457,39.7143,克孜勒苏柯尔克孜自治州,市人民政府,颗粒物(PM10),129,193,160,66,57,100,NA,77,76,2,8,8,9,0.1,0.1
2026-05-31T1200,2698A,76.0071,39.466,喀什地区,巡警大队,细颗粒物(PM2.5),136,184,124,99,51,60,NA,68,50,42,19,6,4,0.5,0.3
2026-05-31T1200,2699A,75.9756,39.4693,喀什地区,吾办,颗粒物(PM10),151,251,109,59,49,87,NA,66,57,14,13,9,10,0.3,0.3
2026-05-31T1200,2704A,81.3002,43.9177,伊犁哈萨克自治州,新政府片区,,28,21,31,3,7,88,NA,76,71,11,11,7,6,0.4,0.3
2026-05-31T1200,2705A,81.3364,43.9409,伊犁哈萨克自治州,第二水厂,,40,40,41,8,8,90,NA,77,71,7,6,8,7,0.4,0.3
2026-05-31T1200,2706A,82.9993,46.7432,塔城地区,东门外小游园,,43,43,46,2,4,100,NA,69,69,2,4,1,2,0.3,0.1
2026-05-31T1200,2708A,88.1266,47.8515,阿勒泰地区,市站,,31,31,23,1,4,97,NA,75,75,8,8,6,6,0.2,0.2
2026-05-31T1200,2709A,86.0391,44.298,石河子市,艾青诗歌馆,颗粒物(PM10),80,92,42,0,11,94,NA,68,68,12,17,9,6,0.2,0.2
2026-05-31T1200,2711A,87.5352,44.1606,五家渠市,农水大厦,颗粒物(PM10),63,67,40,2,15,94,NA,33,33,6,16,12,9,0.3,0.3
2026-05-31T1200,2809A,113.6668,24.7756,韶关市,大学路288号,细颗粒物(PM2.5),60,53,36,40,26,101,NA,64,64,7,10,11,9,/,/
2026-05-31T1200,2835A,101.7222,26.567,攀枝花市,四十中小,NA,NA,NA,17,NA,11,87,NA,48,48,NA,12,15,11,1.2,1.3
2026-05-31T1200,2842A,118.0937,24.5054,厦门市,湖里中学,NA,NA,45,39,24,20,183,NA,139,139,15,13,NA,3,0.4,0.4
2026-05-31T1200,2845A,113.1561,36.1912,长治市,德盛苑,臭氧1小时(O3_1h),80,21,26,10,13,184,NA,147,147,11,12,10,10,0.3,0.3
2026-05-31T1200,2846A,113.3209,23.1323,广州市,体育西,,37,20,26,14,15,116,NA,81,81,13,17,4,4,0.7,0.6
2026-05-31T1200,2858A,117.7917,39.2473,天津市,河西一经路,臭氧1小时(O3_1h),95,69,67,22,22,196,NA,141,141,14,18,10,10,0.8,0.8
2026-05-31T1200,2859A,117.3747,38.9845,天津市,津沽路,臭氧1小时(O3_1h),73,67,60,19,20,178,NA,129,129,15,16,6,6,0.4,0.4
2026-05-31T1200,2860A,117.159,39.0844,天津市,宾水西道,臭氧1小时(O3_1h),80,60,57,25,23,184,NA,129,129,4,7,6,7,0.6,0.6
2026-05-31T1200,2865A,112.7195,37.683,晋中市,榆次三中,臭氧1小时(O3_1h),89,61,50,18,21,191,NA,100,100,12,23,14,12,0.4,0.2
2026-05-31T1200,2867A,111.1225,37.5093,吕梁市,马茂庄小学,颗粒物(PM10),58,60,52,14,12,154,NA,78,78,14,30,3,6,0.4,0.7
2026-05-31T1200,2868A,126.4737,43.953,吉林市,九站,臭氧1小时(O3_1h),78,51,26,11,11,182,NA,128,128,11,23,2,4,0.5,0.4
2026-05-31T1200,2869A,119.4472,32.4156,扬州市,五台山医院,,48,18,54,12,38,152,NA,99,99,12,30,9,11,0.6,0.7
2026-05-31T1200,2870A,119.4369,32.1891,镇江市,市疾控中心,,42,12,52,3,37,132,NA,92,92,5,21,9,8,0.5,0.7
2026-05-31T1200,2871A,121.6156,29.9015,宁波市,万里国际学校,,50,19,31,4,9,160,NA,125,125,9,21,6,7,0.1,0.2
2026-05-31T1200,2872A,120.7845,30.7524,嘉兴市,南湖区残联,,46,NA,26,4,12,145,NA,132,132,10,19,5,7,0.3,0.5
2026-05-31T1200,2873A,120.083,30.8929,湖州市,仁皇山新区,臭氧1小时(O3_1h),52,28,40,19,23,161,NA,100,100,11,25,7,8,0.3,0.4
2026-05-31T1200,2875A,115.783962,32.889217,阜阳市,阜阳职业技术学院,臭氧1小时(O3_1h),57,58,73,14,24,165,NA,130,130,5,9,6,7,0.3,0.3
2026-05-31T1200,2877A,119.1638,36.6524,潍坊市,坊子邮政,臭氧1小时(O3_1h),93,88,54,24,19,194,NA,129,129,14,23,8,8,0.4,0.3
2026-05-31T1200,2880A,104.0219,30.6561,成都市,大石西路,细颗粒物(PM2.5),54,54,58,37,31,120,NA,111,98,20,17,5,6,0.5,0.4
2026-05-31T1200,2881A,107.8909,26.531,黔东南苗族侗族自治州,凯里学院,,28,NA,24,19,19,75,NA,31,31,5,8,2,2,0.5,0.5
2026-05-31T1200,2882A,102.5388,24.3703,玉溪市,玉溪一中,,24,19,23,10,13,76,NA,37,37,6,12,3,5,0.5,0.4
2026-05-31T1200,2883A,102.5382,24.339,玉溪市,文体中心,,24,14,24,7,12,75,NA,42,42,5,12,4,6,0.6,0.7
2026-05-31T1200,2884A,98.2672,39.7978,嘉峪关市,酒钢宾馆,,41,29,53,9,21,129,NA,95,93,4,10,6,16,0.2,0.6
2026-05-31T1200,2885A,104.9344,33.3827,陇南市,滨江中学,颗粒物(PM10),53,53,59,15,17,64,NA,72,65,9,7,3,4,0.6,0.5
2026-05-31T1200,2894A,117.0561,32.6536,淮南市,经济技术开发区消防队,臭氧1小时(O3_1h),93,63,71,20,42,194,NA,135,135,10,17,8,9,0.4,0.5
2026-05-31T1200,2897A,123.2429,41.7341,沈阳市,沈辽西路,臭氧1小时(O3_1h),101,98,75,23,21,202,NA,154,154,12,27,14,14,0.9,0.9
2026-05-31T1200,2900A,123.5951,41.9085,沈阳市,裕农路,臭氧1小时(O3_1h),95,53,41,14,17,196,NA,156,156,14,22,12,12,0.7,0.8
2026-05-31T1200,2902A,106.6347,30.4868,广安市,北辰小学,,33,21,24,13,15,104,NA,56,56,6,11,10,9,0.4,0.4
2026-05-31T1200,2907A,120.1846,30.8592,湖州市,吴兴区站,,44,20,44,10,22,139,NA,100,100,7,24,6,8,0.3,0.3
2026-05-31T1200,2919A,116.7022,39.5454,廊坊市,河北工业大学,臭氧1小时(O3_1h),83,69,58,29,20,186,NA,123,123,15,14,8,4,0.5,0.4
2026-05-31T1200,2920A,117.71,24.5048,漳州市,蓝田镇,臭氧1小时(O3_1h),84,74,52,37,23,187,NA,109,109,27,18,8,8,0.8,0.6
2026-05-31T1200,2921A,120.5482,30.0003,绍兴市,树下王站,,42,17,29,6,21,132,NA,81,81,7,22,8,8,0.3,0.4
2026-05-31T1200,2922A,117.194,39.1069,天津市,大理道,臭氧1小时(O3_1h),98,50,54,22,21,198,NA,139,139,4,7,5,5,0.4,0.4
2026-05-31T1200,2924A,106.2266,38.4417,银川市,水乡路,颗粒物(PM10),95,113,120,41,47,120,NA,82,78,9,19,8,6,0.5,0.4
2026-05-31T1200,2925A,106.2758,38.4841,银川市,上海东路,颗粒物(PM10),67,73,106,34,41,118,NA,91,84,7,18,9,9,0.3,0.3
2026-05-31T1200,2926A,106.1016,38.4971,银川市,文昌北街,颗粒物(PM10),97,115,113,45,42,122,NA,72,72,9,28,8,9,0.5,0.5
2026-05-31T1200,2929A,114.8858,30.4519,黄冈市,红卫路,臭氧1小时(O3_1h),75,54,48,44,32,180,NA,92,92,3,4,12,8,0.6,0.5
2026-05-31T1200,2996A,118.2781,33.9658,宿迁市,市供电局,臭氧1小时(O3_1h),104,58,48,27,25,207,NA,156,156,6,9,7,8,0.7,0.6
2026-05-31T1200,2997A,119.8767,32.3291,泰州市,王营,,48,31,59,6,36,152,NA,80,80,18,46,12,13,0.4,0.6
2026-05-31T1200,3000A,119.3577,34.6971,连云港市,德源药业,臭氧1小时(O3_1h),63,44,44,27,24,170,NA,137,137,12,15,6,7,0.6,0.6
2026-05-31T1200,3002A,119.9701,31.813,常州市,行政中心,,43,20,49,0,22,137,NA,88,88,7,27,5,7,0.3,0.5
2026-05-31T1200,3003A,120.0434,31.7726,常州市,经开区,,48,12,70,0,31,152,NA,85,85,12,48,9,11,0.6,0.7
2026-05-31T1200,3004A,120.1543,33.3664,盐城市,宝龙广场,,48,27,50,13,36,151,NA,108,108,7,17,8,10,0.5,0.7
2026-05-31T1200,3005A,117.1812,34.29,徐州市,鼓楼区政府,臭氧1小时(O3_1h),59,51,60,13,34,167,NA,129,129,6,13,6,8,0.3,0.5
2026-05-31T1200,3006A,117.1693,34.1781,徐州市,铜山区招生办,臭氧1小时(O3_1h),82,61,66,13,31,185,NA,130,130,6,19,8,8,0.2,0.3
2026-05-31T1200,3007A,119.178,34.8442,连云港市,新城一中,臭氧1小时(O3_1h),92,58,48,37,28,193,NA,131,131,12,18,6,5,0.7,0.5
2026-05-31T1200,3008A,119.3607,34.7519,连云港市,胡沟管理处,臭氧1小时(O3_1h),70,24,23,12,12,176,NA,154,153,12,15,12,13,0.5,0.5
2026-05-31T1200,3009A,119.1478,34.5913,连云港市,矿山设计院,臭氧1小时(O3_1h),67,41,37,14,17,173,NA,147,147,8,9,5,5,0.2,0.2
2026-05-31T1200,3010A,119.8919,31.7892,常州市,钟楼,,44,24,43,0,20,138,NA,107,107,9,22,7,8,0.3,0.5
2026-05-31T1200,3012A,112.1849,31.0361,荆门市,西山林语,NA,NA,NA,43,NA,20,150,NA,100,100,NA,9,NA,8,NA,0.7
2026-05-31T1200,3014A,106.4958,29.5347,重庆市,歇台子,,34,26,32,14,17,108,NA,61,61,11,20,11,10,0.6,0.8
2026-05-31T1200,3015A,106.4067,29.5729,重庆市,龙井湾,,39,26,30,10,17,124,NA,72,72,12,17,8,8,0.7,0.8
2026-05-31T1200,3016A,106.5506,29.415,重庆市,龙洲湾,,35,NA,31,22,20,111,NA,51,51,9,16,11,10,0.4,0.4
2026-05-31T1200,3018A,111.5048,36.1015,临汾市,唐尧大酒店,颗粒物(PM10),70,78,67,22,21,155,NA,82,82,15,20,10,9,0.8,0.8
2026-05-31T1200,3020A,117.2096,39.1698,天津市,中山北路,臭氧1小时(O3_1h),83,63,54,22,19,186,NA,138,138,15,15,11,11,0.2,0.2
2026-05-31T1200,3021A,115,35.7667,濮阳市,濮水河管理处,颗粒物(PM10),69,76,41,20,18,157,NA,91,91,12,16,5,5,0.5,0.5
2026-05-31T1200,3025A,113.0479,23.6343,清远市,技师学院,,34,26,22,18,14,106,NA,59,59,10,10,6,5,0.6,0.6
2026-05-31T1200,3026A,116.6179,23.6608,潮州市,市政府,颗粒物(PM10),95,113,54,41,30,156,NA,97,97,17,13,13,10,1.0,0.7
2026-05-31T1200,3028A,104.7765,29.3623,自贡市,檀木林体育馆,,40,20,46,16,25,128,NA,83,83,10,15,11,11,0.3,0.4
2026-05-31T1200,3033A,87.4652,43.4569,乌鲁木齐市,培训基地,,36,36,32,2,9,108,NA,98,98,7,5,6,6,0.3,0.3
2026-05-31T1200,3034A,113.1076,41.0385,乌兰察布市,光明街小学,,33,27,40,12,16,104,NA,131,113,4,8,1,5,0.3,0.3
2026-05-31T1200,3036A,118.6903,37.4337,东营市,开发区管委会,臭氧1小时(O3_1h),98,68,57,11,17,198,NA,129,129,15,26,10,12,0.4,0.4
2026-05-31T1200,3038A,103.3757,23.3679,红河哈尼族彝族自治州,州图书馆,,29,NA,15,16,11,90,NA,49,49,5,8,3,3,0.2,0.2
2026-05-31T1200,3039A,111.1911,34.7829,三门峡市,三门峡市第一小学,颗粒物(PM10),53,54,35,20,14,120,NA,72,72,17,16,19,12,0.4,0.2
2026-05-31T1200,3045A,109.9647,33.8486,商洛市,商州区中学,,36,35,33,19,15,113,NA,46,46,9,22,8,8,0.7,0.7
2026-05-31T1200,3046A,115.9084,28.6062,南昌市,机电学校,细颗粒物(PM2.5),72,74,70,46,43,174,NA,132,132,11,15,8,7,0.9,0.7
2026-05-31T1200,3048A,119.5799,26.0937,福州市,九龙,,45,30,26,10,8,143,NA,120,120,6,10,6,7,0.2,0.2
2026-05-31T1200,3051A,117.385,39.1483,天津市,西四道,臭氧1小时(O3_1h),79,81,64,29,24,183,NA,134,134,7,10,7,6,0.7,0.6
2026-05-31T1200,3054A,113.9194,35.2847,新乡市,市委党校,臭氧1小时(O3_1h),65,39,52,14,19,172,NA,115,115,7,16,10,11,0.3,0.3
2026-05-31T1200,3055A,101.7775,36.643,西宁市,城北区政府,,35,31,28,24,17,95,NA,123,117,24,10,9,7,0.5,0.2
2026-05-31T1200,3057A,121.5989,37.4016,烟台市,牟平检察院,NA,NA,66,41,NA,15,196,NA,152,152,8,8,5,6,0.4,0.3
2026-05-31T1200,3058A,119.2656,42.0356,赤峰市,银河街,颗粒物(PM10),97,115,55,32,17,181,NA,139,139,7,13,9,16,0.5,0.7
2026-05-31T1200,3059A,117.7181,36.205,济南市,泰兴公司,臭氧1小时(O3_1h),73,68,53,20,19,178,NA,108,108,10,41,15,14,0.2,0.4
2026-05-31T1200,3061A,119.7511,49.1576,呼伦贝尔市,国华电力东,颗粒物(PM10),70,78,44,22,15,109,NA,78,78,5,7,5,6,0.3,0.3
