timepoint,stationcode,longitude,latitude,area,positionname,primarypollutant,aqi,pm10,pm10_24h,pm2_5,pm2_5_24h,o3,o3_24h,o3_8h,o3_8h_24h,no2,no2_24h,so2,so2_24h,co,co_24h
2025-05-12T1800,2566A,102.1879,31.914,阿坝藏族羌族自治州,州农科所,,26,19,30,7,9,82,,78,78,17,9,12,16,0.6,0.6
2025-05-12T1800,2568A,102.2502,31.8896,阿坝藏族羌族自治州,马师校,,31,27,20,7,14,98,,91,91,10,13,4,4,0.4,0.4
2025-05-12T1800,3994A,102.2165,31.9024,阿坝藏族羌族自治州,马尔康中学西区,,,,20,15,17,108,,100,100,2,9,4,4,,0.3
2025-05-12T1800,2695A,80.292,41.1694,阿克苏地区,电视台,颗粒物(PM10),58,66,131,22,35,120,,112,112,19,23,6,6,0.3,0.4
2025-05-12T1800,2696A,80.2613,41.1551,阿克苏地区,艺术中心,颗粒物(PM10),62,73,171,16,37,107,,106,106,2,10,5,4,0.1,0.2
2025-05-12T1800,2204A,105.6467,38.8363,阿拉善盟,西城区西花园,颗粒物(PM10),75,99,58,32,26,120,,120,120,11,14,5,6,0.6,0.6
2025-05-12T1800,2205A,105.6985,38.8411,阿拉善盟,蒙二幼,颗粒物(PM10),76,101,58,36,17,104,,106,106,6,9,8,8,0.3,0.4
2025-05-12T1800,2206A,105.724,38.8516,阿拉善盟,环保局新楼,颗粒物(PM10),76,101,45,38,18,109,,118,111,4,4,8,8,0.4,0.3
2025-05-12T1800,2708A,88.1264,47.8517,阿勒泰地区,市站,,28,14,25,3,5,89,,86,86,4,6,2,2,0.5,0.5
2025-05-12T1800,2630A,80.1161,32.5,阿里地区,阿里监测站,,48,12,4,3,4,151,,145,145,2,5,6,6,0.4,0.4
2025-05-12T1800,3192A,80.0903,32.5028,阿里地区,阿里藏医院,颗粒物(PM10),73,95,18,12,4,157,,153,153,3,2,5,6,0.4,0.4
2025-05-12T1800,2642A,109.0318,32.6537,安康市,香溪洞,颗粒物(PM10),52,54,54,31,29,145,,148,148,6,7,8,9,0.3,0.4
2025-05-12T1800,2644A,109.0072,32.6975,安康市,汉滨区检察院,颗粒物(PM10),54,57,65,32,32,145,,147,147,8,14,9,20,0.4,0.5
2025-05-12T1800,4054A,109.0325,32.6913,安康市,市邮政管理局,颗粒物(PM10),54,57,64,28,33,148,,151,151,8,15,7,12,0.4,0.5
2025-05-12T1800,2291A,117.0809,30.5177,安庆市,环科院,,47,42,50,24,31,149,,153,153,9,16,4,4,0.4,0.4
2025-05-12T1800,2292A,117.0331,30.5119,安庆市,马山宾馆,,43,37,53,20,38,137,,143,143,20,24,6,6,0.4,0.6
2025-05-12T1800,2294A,116.9896,30.6145,安庆市,安庆大学,,46,40,49,26,28,147,,156,156,17,16,6,6,0.2,0.2
2025-05-12T1800,3173A,117.0598,30.5351,安庆市,市人大,,,,58,20,34,158,,161,161,13,19,8,9,0.3,0.4
2025-05-12T1800,3122A,105.9606,26.2611,安顺市,伍家关,,41,19,33,18,19,130,,131,131,6,10,4,6,0.4,0.4
2025-05-12T1800,3123A,105.9408,26.2431,安顺市,凤凰山,,39,29,33,13,19,122,,121,121,8,12,6,9,0.5,0.4
2025-05-12T1800,3124A,105.9439,26.2564,安顺市,金钟山,,37,22,31,14,20,118,,117,117,8,9,5,7,0.2,0.2
2025-05-12T1800,3125A,105.8983,26.2481,安顺市,娄家坡,,,25,30,16,19,120,,120,120,6,7,6,8,,0.5
2025-05-12T1800,1818A,114.4839,36.0621,安阳市,棉研所,,,,,,,,,,,,,,,,
2025-05-12T1800,1819A,114.3551,36.1017,安阳市,红庙街,臭氧1小时,92,108,68,42,21,193,,160,160,2,15,4,8,0.5,0.6
2025-05-12T1800,1820A,114.361,36.0681,安阳市,银杏小区,臭氧1小时,90,112,66,52,29,192,,161,161,1,20,4,10,0.3,0.3
2025-05-12T1800,3141A,114.3922,36.0878,安阳市,信访局,颗粒物(PM10),98,145,76,37,22,193,,168,168,6,25,4,6,0.5,0.5
2025-05-12T1800,3669A,114.4705,36.0637,安阳市,左辅环卫站,臭氧1小时,77,91,68,38,24,181,,167,167,4,20,4,8,0.5,0.5
2025-05-12T1800,3703A,114.2917,36.0949,安阳市,安钢职工学校,臭氧1小时,85,112,73,36,21,188,,158,158,7,20,4,5,0.4,0.5
2025-05-12T1800,1748A,123.044,41.1196,鞍山市,深沟寺,,49,41,53,25,36,156,,163,163,12,13,7,8,0.6,0.7
2025-05-12T1800,1749A,123.011,41.0931,鞍山市,太阳城,,45,38,53,22,34,142,,144,144,10,12,8,9,0.7,0.7
2025-05-12T1800,1750A,123.0485,41.1442,鞍山市,太平,颗粒物(PM10),53,56,66,29,36,140,,150,148,15,15,9,11,0.7,0.8
2025-05-12T1800,1751A,122.9642,41.0971,鞍山市,铁西三道街,颗粒物(PM10),53,56,67,27,39,152,,157,157,18,20,5,7,0.6,0.7
2025-05-12T1800,1753A,123.022,41.0821,鞍山市,明达新区,,50,39,54,20,29,158,,161,161,7,10,6,9,0.5,0.6
2025-05-12T1800,1754A,123.1289,41.0228,鞍山市,千山,,,,37,,19,,,134,,,10,,5,,0.6
2025-05-12T1800,4201A,122.9446,41.0826,鞍山市,兴盛南路290号,颗粒物(PM10),54,57,76,26,38,150,,158,158,13,21,6,8,0.5,0.7
2025-05-12T1800,2195A,107.4212,40.761,巴彦淖尔市,附二中,颗粒物(PM10),81,111,82,37,27,104,,99,99,6,12,8,8,0.3,0.4
2025-05-12T1800,2196A,107.37,40.7372,巴彦淖尔市,市环保大楼,颗粒物(PM10),100,150,82,22,34,111,,106,106,10,18,4,5,0.3,0.3
2025-05-12T1800,1956A,86.1472,41.7538,巴音郭楞蒙古自治州,孔雀公园,颗粒物(PM10),72,94,90,15,22,102,,95,94,8,18,6,6,0.2,0.3
2025-05-12T1800,1957A,86.1972,41.7166,巴音郭楞蒙古自治州,棉纺厂,颗粒物(PM10),106,162,132,11,18,105,,97,97,5,13,2,3,0.2,0.2
2025-05-12T1800,1958A,86.2357,41.7173,巴音郭楞蒙古自治州,经济开发区,,,,113,34,16,102,,97,97,,8,8,8,0.0,0.1
2025-05-12T1800,2914A,106.7677,31.8794,巴中市,苏山坪,,49,34,52,20,28,154,,150,150,6,9,6,6,0.2,0.3
2025-05-12T1800,3181A,106.7768,31.8526,巴中市,市五中,,45,34,59,18,31,143,,140,140,13,17,7,7,0.4,0.5
2025-05-12T1800,3183A,106.7418,31.8654,巴中市,圣泉水务公司,,48,37,52,21,29,153,,148,148,10,22,8,8,0.3,0.3
2025-05-12T1800,3616A,106.7616,31.8344,巴中市,市中心医院,,46,36,59,17,38,147,,138,138,8,22,6,5,0.3,0.5
2025-05-12T1800,2235A,122.7911,45.6077,白城市,洮北区环保局,细颗粒物(PM2.5),84,94,76,62,52,117,,99,99,18,18,8,6,0.7,0.5
2025-05-12T1800,2236A,122.8738,45.5725,白城市,市环保局,细颗粒物(PM2.5),74,85,76,54,48,131,,106,106,13,17,5,3,0.7,0.5
2025-05-12T1800,2231A,126.4219,41.9171,白山市,喜丰,,42,42,57,22,20,134,,144,144,9,25,7,9,0.6,0.7
2025-05-12T1800,2232A,126.4077,41.9419,白山市,环保局,,42,37,42,16,21,134,,141,141,9,18,10,10,0.7,0.8
2025-05-12T1800,2647A,104.1724,36.5446,白银市,第三小学,,45,45,56,12,22,123,,117,117,5,24,28,49,0.2,0.5
2025-05-12T1800,2648A,104.1465,36.5482,白银市,动力公司,,39,37,44,12,18,123,,117,117,6,18,10,20,0.2,0.5
2025-05-12T1800,2512A,106.6103,23.9011,百色市,市监测站,,41,35,38,16,18,129,,127,127,9,19,7,8,0.5,0.6
2025-05-12T1800,2513A,106.6538,23.8859,百色市,市中心血站,,48,48,52,15,26,130,,126,126,13,27,7,14,0.5,0.6
2025-05-12T1800,3406A,106.6085,23.8798,百色市,祈福高中,,46,46,46,16,14,127,,122,122,9,23,9,8,0.4,0.5
2025-05-12T1800,2270A,117.396,32.939,蚌埠市,工人疗养院,臭氧1小时,62,43,58,10,22,169,,169,169,9,14,4,5,0.3,0.4
2025-05-12T1800,2271A,117.3605,32.9427,蚌埠市,百货大楼,臭氧1小时,59,40,53,15,22,167,,166,166,11,15,5,6,0.2,0.2
2025-05-12T1800,2273A,117.4185,32.8911,蚌埠市,蚌埠学院,臭氧1小时,88,36,54,14,25,190,,182,182,11,20,3,5,0.4,0.6
2025-05-12T1800,2274A,117.3533,32.9673,蚌埠市,淮上区政府,臭氧1小时,60,39,53,19,26,168,,170,170,12,14,5,6,0.4,0.4
2025-05-12T1800,2275A,117.3145,32.8977,蚌埠市,高新区,臭氧1小时,55,39,56,13,24,164,,165,165,10,15,5,6,0.3,0.4
2025-05-12T1800,3715A,117.3092,32.9314,蚌埠市,蚌埠田家炳中学,臭氧1小时,63,39,61,12,25,170,,170,170,13,15,5,8,0.3,0.3
2025-05-12T1800,1585A,109.8756,40.6532,包头市,市环境监测站,颗粒物(PM10),82,113,72,35,26,114,,106,106,8,52,7,16,0.3,0.8
2025-05-12T1800,1587A,109.9991,40.5842,包头市,包头八中,颗粒物(PM10),83,116,89,33,37,113,,108,108,12,47,9,14,0.5,0.8
2025-05-12T1800,1588A,109.8538,40.6821,包头市,青山宾馆,颗粒物(PM10),88,125,83,26,44,114,,104,104,7,53,7,16,0.4,0.8
2025-05-12T1800,1589A,109.8642,40.6288,包头市,惠龙物流,颗粒物(PM10),76,102,70,21,23,110,,104,104,11,41,9,21,0.3,0.7
2025-05-12T1800,1590A,110.0377,40.5546,包头市,东河鸿龙湾,颗粒物(PM10),70,90,71,40,26,111,,106,106,8,33,9,11,0.6,0.6
2025-05-12T1800,3283A,109.9154,40.5685,包头市,滨河大厦,颗粒物(PM10),61,72,59,22,20,113,,106,106,5,28,7,9,0.5,0.6
2025-05-12T1800,3419A,109.9447,40.6261,包头市,包头市委党校,颗粒物(PM10),88,126,76,26,24,115,,107,107,4,39,7,18,0.3,0.7
2025-05-12T1800,3683A,109.8331,40.6576,包头市,昆区政府,颗粒物(PM10),76,101,72,20,30,114,,106,106,10,53,6,17,0.4,1.2
2025-05-12T1800,1930A,107.185,34.3063,宝鸡市,庙沟村,,50,50,46,32,28,147,,152,152,16,14,8,8,0.7,0.6
2025-05-12T1800,1931A,107.0708,34.3017,宝鸡市,竹园沟,细颗粒物(PM2.5),52,49,53,36,30,136,,139,139,7,18,4,4,0.4,0.3
2025-05-12T1800,1932A,107.1906,34.3672,宝鸡市,三陆医院,颗粒物(PM10),53,56,68,22,27,128,,129,129,14,38,6,8,0.4,0.5
2025-05-12T1800,1933A,107.1431,34.3547,宝鸡市,监测站,颗粒物(PM10),54,57,60,26,25,114,,126,124,17,24,6,5,0.3,0.5
2025-05-12T1800,1934A,107.1186,34.3739,宝鸡市,技工学校,颗粒物(PM10),56,61,60,37,33,121,,127,127,9,20,8,9,0.5,0.6
2025-05-12T1800,1935A,107.3906,34.3528,宝鸡市,陈仓区环保局家属楼,颗粒物(PM10),60,70,68,22,32,157,,149,149,14,31,8,12,0.4,0.5
2025-05-12T1800,1936A,107.2058,34.3497,宝鸡市,文理学院,颗粒物(PM10),53,55,60,26,28,134,,134,134,11,25,7,8,0.4,0.5
2025-05-12T1800,1937A,107.2386,34.3622,宝鸡市,三迪小学,颗粒物(PM10),57,63,65,33,35,135,,135,135,11,29,6,13,0.4,0.4
2025-05-12T1800,1051A,115.493,38.8632,保定市,游泳馆,臭氧1小时,68,80,92,28,42,174,,178,178,17,31,5,4,0.2,0.2
2025-05-12T1800,1052A,115.5213,38.8959,保定市,华电二区,臭氧1小时,102,58,61,43,36,203,,188,188,12,26,5,4,0.5,0.5
2025-05-12T1800,1053A,115.4713,38.9108,保定市,接待中心,臭氧1小时,110,79,66,28,35,219,,193,193,17,29,8,6,0.3,0.3
2025-05-12T1800,1054A,115.4612,38.8416,保定市,地表水厂,臭氧1小时,89,83,85,12,30,191,,185,185,18,33,7,6,0.7,0.5
2025-05-12T1800,3581A,115.31981,38.95208,保定市,满城区生态环境分局,臭氧1小时,123,80,76,39,36,245,,206,206,14,27,11,8,0.4,0.5
2025-05-12T1800,3582A,115.47694,38.76408,保定市,清苑区第二中学,臭氧1小时,84,86,94,26,40,187,,179,179,9,26,10,9,0.6,0.5
2025-05-12T1800,3583A,115.62909,39.02311,保定市,徐水物探局,臭氧1小时,110,106,91,39,38,219,,178,178,11,30,5,3,0.7,0.6
2025-05-12T1800,4004A,115.4202,38.8656,保定市,双鹰农机,臭氧1小时,89,73,68,24,28,191,,174,174,15,28,6,4,0.4,0.4
2025-05-12T1800,4034A,115.5150,38.8590,保定市,植保所站,臭氧1小时,84,75,72,35,38,187,,175,175,13,28,4,2,0.8,0.7
2025-05-12T1800,2594A,99.1678,25.1081,保山市,市环境监测站,,48,,43,33,33,103,,108,108,10,9,4,4,0.7,0.6
2025-05-12T1800,2595A,99.1711,25.1328,保山市,市环保局,,,27,42,13,28,109,,116,116,7,7,,6,0.4,0.4
2025-05-12T1800,1866A,109.2262,21.588,北海市,牛尾岭水库,,,26,32,17,18,151,,137,137,,15,8,7,0.5,0.5
2025-05-12T1800,1867A,109.1436,21.4086,北海市,海滩公园,臭氧1小时,72,32,40,17,17,177,,152,152,7,12,8,9,0.5,0.6
2025-05-12T1800,1868A,109.0981,21.4661,北海市,新市环保局,颗粒物(PM10),51,51,44,14,25,156,,144,144,10,11,6,12,0.3,0.6
2025-05-12T1800,1869A,109.1778,21.5233,北海市,北海工业园,臭氧1小时,52,31,43,24,27,161,,145,145,10,14,9,12,0.4,0.3
2025-05-12T1800,3400A,109.1911,21.4415,北海市,龙潭自来水厂,臭氧1小时,58,33,40,18,26,166,,143,143,10,13,10,10,0.3,0.4
2025-05-12T1800,1001A,116.3621,39.8784,北京市,万寿西宫,臭氧1小时,126,80,78,46,46,251,,202,202,23,44,6,5,0.6,0.7
2025-05-12T1800,1002A,116.2202,40.2915,北京市,定陵,,,,,,,,,,,,,,,,
2025-05-12T1800,1003A,116.4174,39.9289,北京市,东四,臭氧1小时,125,99,93,54,50,250,,202,202,25,47,7,6,0.6,0.7
2025-05-12T1800,1004A,116.4072,39.8863,北京市,天坛,臭氧1小时,118,83,72,48,42,235,,190,190,23,39,7,5,0.6,0.7
2025-05-12T1800,1005A,116.462,39.9365,北京市,农展馆,臭氧1小时,119,95,62,46,46,238,,190,190,19,45,7,5,0.8,0.9
2025-05-12T1800,1006A,116.3392,39.9295,北京市,官园,臭氧1小时,114,91,81,49,45,228,,186,186,24,45,9,6,0.6,0.7
2025-05-12T1800,1007A,116.2878,39.9611,北京市,海淀万柳,臭氧1小时,102,86,76,46,40,204,,176,176,20,42,8,6,0.5,0.5
2025-05-12T1800,1008A,116.6636,40.135,北京市,顺义新城,臭氧1小时,107,126,72,59,37,213,,191,191,22,27,8,6,0.8,0.6
2025-05-12T1800,1009A,116.6275,40.3275,北京市,怀柔镇,细颗粒物(PM2.5),87,117,63,64,37,170,,184,184,22,18,9,5,0.8,0.6
2025-05-12T1800,1010A,116.2296,40.217,北京市,昌平镇,臭氧1小时,116,102,63,46,34,232,,196,196,24,21,6,4,0.6,0.3
2025-05-12T1800,1011A,116.3966,39.9821,北京市,奥体中心,臭氧1小时,106,82,78,39,40,211,,175,175,26,51,5,5,0.5,0.7
2025-05-12T1800,3281A,115.9718,40.4529,北京市,延庆夏都,臭氧1小时,118,89,49,44,30,235,,178,178,18,18,6,4,0.8,0.6
2025-05-12T1800,3418A,116.8336,40.4095,北京市,密云新城,臭氧1小时,107,106,65,60,36,214,,190,190,27,18,9,5,0.8,0.6
2025-05-12T1800,3671A,116.088,39.9726,北京市,门头沟三家店,,,,,,,,,,,,,,,,
2025-05-12T1800,3672A,116.1541,39.8204,北京市,丰台云岗,臭氧1小时,121,99,77,67,39,241,,204,204,23,37,8,6,0.4,0.4
2025-05-12T1800,3673A,116.6804,39.9081,北京市,通州东关,臭氧1小时,125,97,109,50,58,249,,197,197,22,50,8,13,0.6,0.7
2025-05-12T1800,3674A,115.9577,39.7603,北京市,房山燕山,臭氧1小时,123,112,62,75,35,246,,199,199,24,25,3,2,0.6,0.4
2025-05-12T1800,3675A,116.4672,39.7733,北京市,大兴旧宫,臭氧1小时,113,87,80,41,42,225,,187,187,17,41,2,2,0.6,0.6
2025-05-12T1800,3694A,115.986,40.4563,北京市,延庆石河营,臭氧1小时,106,78,55,38,33,211,,164,164,18,18,4,2,0.7,0.5
2025-05-12T1800,3695A,116.6151,40.3053,北京市,怀柔新城,臭氧1小时,110,105,59,63,37,219,,192,192,25,15,7,3,1.0,0.7
2025-05-12T1800,3696A,116.2545,39.8768,北京市,丰台小屯,细颗粒物(PM2.5),112,91,81,84,58,213,,184,184,21,56,4,3,0.3,0.4
2025-05-12T1800,3697A,116.84,40.3844,北京市,密云镇,臭氧1小时,109,114,63,57,38,217,,191,191,20,27,12,7,0.8,0.6
2025-05-12T1800,4182A,116.1942,39.9158,北京市,八角北路9号,臭氧1小时,112,107,90,46,40,223,,190,190,24,57,5,5,0.4,0.3
2025-05-12T1800,4194A,117.0790,40.1518,北京市,洳河巡河路,臭氧1小时,121,88,63,66,48,242,,207,207,21,20,10,6,0.7,0.5
2025-05-12T1800,1761A,123.8275,41.3064,本溪市,大峪,臭氧1小时,67,52,55,23,26,173,,167,167,6,12,8,7,0.6,0.6
2025-05-12T1800,1762A,123.7567,41.3325,本溪市,溪湖,颗粒物(PM10),56,62,60,31,32,161,,158,158,12,16,7,9,0.8,1
2025-05-12T1800,1763A,123.7169,41.3094,本溪市,彩屯,,,77,75,37,39,148,,149,149,28,29,,21,2.2,2.2
2025-05-12T1800,1764A,123.7669,41.2864,本溪市,东明,臭氧1小时,63,74,58,22,22,170,,164,164,10,11,9,8,0.6,0.5
2025-05-12T1800,1765A,123.7992,41.2664,本溪市,新立屯,臭氧1小时,59,55,51,25,28,167,,164,164,10,10,7,7,0.6,0.5
2025-05-12T1800,1766A,123.8142,41.3472,本溪市,威宁,臭氧1小时,54,45,64,25,29,163,,159,159,4,12,6,6,0.7,0.7
2025-05-12T1800,2587A,105.2864,27.3125,毕节市,八中,,41,35,37,16,21,130,,121,121,9,13,7,8,0.4,0.5
2025-05-12T1800,2588A,105.31,27.2944,毕节市,师专,,40,34,44,15,25,128,,118,118,17,19,6,7,0.4,0.5
2025-05-12T1800,4263A,105.3688,27.3598,毕节市,工业大道,,44,30,43,14,24,139,,125,125,10,21,8,9,0.5,0.5
2025-05-12T1800,1629A,118.0018,37.3617,滨州市,第二水厂,颗粒物(PM10),57,63,56,24,21,160,,172,172,20,23,10,10,0.2,0.3
2025-05-12T1800,1630A,117.9776,37.393,滨州市,北中新校,臭氧1小时,53,44,47,19,22,162,,168,168,15,21,7,8,0.6,0.7
2025-05-12T1800,3514A,117.9378,37.3956,滨州市,中海酒店,臭氧1小时,67,63,53,17,28,173,,176,176,13,18,9,13,0.6,0.7
2025-05-12T1800,3515A,117.9378,37.3553,滨州市,开发区一中,颗粒物(PM10),56,61,56,22,21,162,,173,173,15,24,10,9,0.5,0.5
2025-05-12T1800,3516A,118.0917,37.694,滨州市,金海六路,臭氧1小时,64,63,61,12,21,171,,171,171,20,30,9,11,0.4,0.4
2025-05-12T1800,4028A,117.9956,37.3753,滨州市,滨州市西街道办事处,臭氧1小时,80,56,54,27,27,184,,194,194,15,19,8,8,0.3,0.4
2025-05-12T1800,2311A,115.8072,33.8399,亳州市,污水处理厂,颗粒物(PM10),52,54,53,18,18,160,,152,152,10,12,3,4,0.3,0.2
2025-05-12T1800,2312A,115.7789,33.8518,亳州市,三国揽胜宫,臭氧1小时,64,56,50,15,16,171,,158,158,7,10,5,5,0.4,0.4
2025-05-12T1800,3332A,115.7633,33.8034,亳州市,亳州学院,,49,46,44,18,17,155,,148,148,6,12,4,5,0.4,0.3
2025-05-12T1800,2693A,82.0485,44.8556,博尔塔拉蒙古自治州,市党校,,39,21,22,15,10,123,,107,107,7,10,7,6,0.3,0.4
2025-05-12T1800,2694A,82.0806,44.8969,博尔塔拉蒙古自治州,市环保局,,37,,28,16,16,118,,105,105,7,10,1,2,0.3,0.4
2025-05-12T1800,1071A,116.8842,38.2991,沧州市,沧县城建局,颗粒物(PM10),61,72,56,19,23,163,,157,157,16,21,7,8,0.4,0.4
2025-05-12T1800,1072A,116.8584,38.3254,沧州市,电视转播站,颗粒物(PM10),66,82,66,34,29,161,,149,149,14,21,3,6,0.3,0.4
2025-05-12T1800,1073A,116.8709,38.3228,沧州市,市环保局,颗粒物(PM10),66,82,69,38,35,167,,155,155,14,20,3,14,0.4,0.5
2025-05-12T1800,3324A,116.8136,38.3004,沧州市,河北水利电力学院,臭氧1小时,84,88,65,30,26,187,,170,170,17,24,9,9,0.3,0.4
2025-05-12T1800,2622A,97.1806,31.1273,昌都市,昌都监测站,,44,,24,3,12,138,,133,133,1,9,3,3,0.4,0.5
2025-05-12T1800,3719A,97.1714,31.1406,昌都市,昌都会议中心,,42,26,33,20,23,134,,132,132,4,7,3,3,0.9,0.4
2025-05-12T1800,2690A,88.1236,43.8886,昌吉回族自治州,天山天池,,24,6,8,3,3,76,,82,82,5,5,6,6,0.5,0.5
2025-05-12T1800,2692A,87.2717,44.0297,昌吉回族自治州,新区政务中心,,40,,18,21,15,126,,107,107,2,3,10,8,0.3,0.3
2025-05-12T1800,3613A,87.3095,44.0142,昌吉回族自治州,亚心广场,,36,17,21,14,11,114,,98,98,7,7,8,7,0.2,0.2
2025-05-12T1800,1119A,125.3325,43.9166,长春市,食品厂,颗粒物(PM10),66,81,62,38,35,154,,156,156,32,21,9,7,0.7,0.5
2025-05-12T1800,1120A,125.2863,43.9027,长春市,客车厂,颗粒物(PM10),63,75,61,37,36,162,,164,164,33,22,9,8,0.6,0.5
2025-05-12T1800,1121A,125.2841,43.8463,长春市,邮电学院,颗粒物(PM10),65,79,59,25,33,171,,172,172,23,17,9,8,0.6,0.5
2025-05-12T1800,1122A,125.3716,43.8772,长春市,劳动公园,颗粒物(PM10),60,70,61,33,37,165,,170,170,24,17,10,9,0.6,0.6
2025-05-12T1800,1123A,125.3297,43.8805,长春市,园林处,臭氧1小时,68,69,58,28,33,174,,172,172,19,14,10,9,0.7,0.6
2025-05-12T1800,1124A,125.4605,43.79,长春市,净月潭,颗粒物(PM10),58,66,51,23,29,154,,146,146,17,16,8,7,0.5,0.5
2025-05-12T1800,1125A,125.7194,43.515,长春市,甩湾子,,,,,,,,,,,,,,,,
2025-05-12T1800,1126A,125.3863,43.8447,长春市,经开区环卫处,颗粒物(PM10),71,91,73,21,26,139,,157,157,32,21,9,8,0.5,0.4
2025-05-12T1800,1127A,125.245,43.7783,长春市,高新区管委会,颗粒物(PM10),59,68,52,26,33,162,,168,168,21,15,8,8,0.5,0.4
2025-05-12T1800,1128A,125.1761,43.8325,长春市,岱山公园,颗粒物(PM10),61,72,61,32,41,153,,162,162,38,30,8,8,0.5,0.5
2025-05-12T1800,1335A,113.0833,28.2325,长沙市,经开区环保局,,50,40,56,23,28,157,,156,156,16,33,7,8,0.5,0.5
2025-05-12T1800,1336A,112.8872,28.2189,长沙市,高开区环保局,臭氧1小时,60,46,55,23,31,168,,159,159,9,23,9,10,0.5,0.6
2025-05-12T1800,1337A,113.0792,28.2053,长沙市,马坡岭,,50,38,54,21,29,160,,159,159,7,32,7,6,0.6,0.6
2025-05-12T1800,1338A,112.9394,28.19,长沙市,湖南师范大学,,50,44,52,22,29,159,,160,160,10,22,4,6,0.3,0.4
2025-05-12T1800,1339A,113.0178,28.1322,长沙市,雨花区环保局,,50,42,53,26,28,158,,154,154,13,34,7,8,0.8,1
2025-05-12T1800,1340A,112.9792,28.2597,长沙市,伍家岭,,49,41,64,22,31,154,,155,155,14,37,5,5,0.4,0.5
2025-05-12T1800,1341A,113.0014,28.1944,长沙市,火车新站,,48,45,65,22,35,152,,150,150,12,46,9,10,0.4,0.6
2025-05-12T1800,1342A,112.9844,28.1178,长沙市,天心区环保局,,49,42,53,26,32,156,,156,156,17,29,6,8,0.5,0.6
2025-05-12T1800,1343A,112.8908,28.1308,长沙市,湖南中医药大学,,48,47,62,30,34,152,,152,152,14,39,10,7,0.5,0.6
2025-05-12T1800,1344A,112.9581,28.3611,长沙市,沙坪,臭氧1小时,54,34,33,25,28,163,,163,163,9,15,7,6,0.6,0.7
2025-05-12T1800,1727A,113.1147,36.1547,长治市,清华站,,49,45,53,34,16,142,,150,150,11,24,7,8,0.6,0.7
2025-05-12T1800,1730A,113.0886,36.2125,长治市,审计局,,45,40,40,9,14,141,,144,144,15,26,6,9,0.3,0.5
2025-05-12T1800,1731A,113.0844,36.1856,长治市,长治八中,颗粒物(PM10),51,51,54,20,22,138,,143,143,15,25,8,11,0.5,0.7
2025-05-12T1800,2845A,113.1569,36.1911,长治市,德盛苑,,44,41,38,22,14,140,,148,148,9,13,5,6,0.5,0.5
2025-05-12T1800,3568A,113.06,36.0464,长治市,向阳小学,颗粒物(PM10),70,89,57,36,20,148,,153,153,19,18,9,9,0.3,0.4
2025-05-12T1800,3569A,112.8792,36.3144,长治市,屯留一中,,45,41,37,14,14,142,,145,145,11,26,9,10,0.3,0.4
2025-05-12T1800,4189A,113.1131,36.19948,长治市,英华南巷50号,,48,42,46,31,19,152,,156,155,8,20,5,7,0.4,0.6
2025-05-12T1800,4190A,113.2367,36.3344,长治市,学府街1号,,,62,56,15,19,148,,157,157,16,42,,9,0.3,0.8
2025-05-12T1800,1854A,111.6975,28.9703,常德市,市二中,,40,40,47,18,24,120,,118,118,8,11,6,7,0.5,0.5
2025-05-12T1800,1857A,111.7158,29.1456,常德市,白鹤山,,,,,,,,,,,,,,,,
2025-05-12T1800,3138A,111.7153,29.0289,常德市,武陵区永安,,43,43,55,22,29,123,,124,124,6,12,7,8,0.3,0.4
2025-05-12T1800,3139A,111.6892,28.9881,常德市,鼎城区玉霞,,38,35,51,20,30,120,,122,122,8,15,6,6,0.4,0.5
2025-05-12T1800,3140A,111.6625,29.0531,常德市,武陵区长庚,,41,39,51,19,28,131,,131,131,5,12,7,8,0.5,0.6
2025-05-12T1800,1196A,119.9633,31.762,常州市,市监测站,臭氧1小时,78,41,50,23,27,182,,180,180,20,25,10,14,0.6,0.8
2025-05-12T1800,1200A,119.9468,31.7069,常州市,武进监测站,臭氧1小时,68,78,48,17,25,174,,172,172,20,30,11,15,0.4,0.6
2025-05-12T1800,1201A,119.9255,31.9087,常州市,安家,臭氧1小时,67,42,63,23,33,173,,172,172,17,52,12,18,0.4,0.6
2025-05-12T1800,3002A,119.9805,31.8174,常州市,行政中心,臭氧1小时,69,28,41,18,25,175,,174,174,16,19,11,16,0.4,0.5
2025-05-12T1800,3003A,120.0522,31.7748,常州市,经开区,臭氧1小时,78,46,60,16,28,182,,186,186,20,28,7,9,0.8,0.6
2025-05-12T1800,3010A,119.9025,31.7964,常州市,钟楼,臭氧1小时,83,40,53,13,27,186,,179,179,16,23,8,13,0.4,0.6
2025-05-12T1800,3429A,119.8598,31.7066,常州市,武进经发区,臭氧1小时,68,37,52,21,29,174,,171,171,19,18,10,16,0.6,0.7
2025-05-12T1800,3430A,119.5826,31.7245,常州市,金坛城区,臭氧1小时,74,30,51,17,29,179,,169,169,14,21,10,13,0.5,0.6
2025-05-12T1800,2220A,120.4318,41.5881,朝阳市,西梁,臭氧1小时,67,71,78,17,47,173,,162,162,13,31,8,10,0.5,0.8
2025-05-12T1800,2221A,120.4521,41.5646,朝阳市,河畔小区,臭氧1小时,79,57,70,21,43,183,,170,170,9,20,10,11,0.4,0.6
2025-05-12T1800,2222A,120.4176,41.5648,朝阳市,八里堡,颗粒物(PM10),74,98,86,20,46,164,,158,158,17,24,8,13,0.4,0.6
2025-05-12T1800,2223A,120.3806,41.5969,朝阳市,农业园区,臭氧1小时,63,72,79,34,53,170,,165,165,13,23,10,13,0.5,1
2025-05-12T1800,1705A,116.6367,23.6719,潮州市,西园路,臭氧1小时,54,42,28,24,14,163,,134,134,11,9,4,4,0.3,0.2
2025-05-12T1800,3026A,116.6183,23.6608,潮州市,市政府,,50,49,35,24,16,157,,132,132,10,10,5,4,0.6,0.5
2025-05-12T1800,4036A,116.6461,23.6761,潮州市,金山,臭氧1小时,63,38,30,32,14,170,,141,141,11,11,8,7,0.5,0.5
2025-05-12T1800,2472A,113.0073,25.9061,郴州市,马头岭,,43,32,38,3,14,136,,131,131,7,16,8,9,0.2,0.3
2025-05-12T1800,2473A,113.0116,25.8226,郴州市,市职中,,47,30,39,18,28,150,,144,144,9,20,4,5,0.5,0.5
2025-05-12T1800,2475A,113.0383,25.8071,郴州市,市审计局,,47,24,36,18,26,149,,142,142,8,19,6,7,0.4,0.5
2025-05-12T1800,2476A,113.0348,25.7759,郴州市,市环保局,,45,25,47,17,27,141,,135,135,7,27,3,4,0.4,0.4
2025-05-12T1800,4252A,113.0138,25.8011,郴州市,好美居路49号,,48,,42,33,30,136,,142,142,17,21,3,5,0.4,0.4
2025-05-12T1800,1431A,103.9728,30.7236,成都市,金泉两河,臭氧1小时,67,66,75,37,37,173,,161,161,12,32,4,6,0.8,0.9
2025-05-12T1800,1432A,104.176,30.6872,成都市,十里店,臭氧1小时,100,54,69,28,38,200,,192,192,8,25,5,7,0.5,0.6
2025-05-12T1800,1433A,104.079,30.5706,成都市,三瓦窑,臭氧1小时,100,57,78,27,49,200,,195,195,16,50,5,7,0.6,0.8
2025-05-12T1800,1434A,104.1114,30.63,成都市,沙河铺,臭氧1小时,70,55,61,46,36,176,,173,173,15,27,8,8,0.6,0.7
2025-05-12T1800,1437A,104.0786,30.6531,成都市,君平街,,,70,81,35,52,191,,182,182,14,37,,10,0.6,0.7
2025-05-12T1800,1438A,103.613,31.0283,成都市,灵岩寺,,,,,,,,,,,,,,,,
2025-05-12T1800,2880A,104.0239,30.65639,成都市,大石西路,臭氧1小时,97,76,78,34,49,197,,190,190,20,41,6,7,0.5,0.8
2025-05-12T1800,3136A,104.2725,30.5589,成都市,龙泉驿区区政府,臭氧1小时,63,41,50,24,24,170,,167,167,15,23,6,5,0.4,0.5
2025-05-12T1800,3357A,104.0106,30.6931,成都市,金博路,臭氧1小时,67,71,71,37,40,173,,164,164,14,41,8,10,0.5,0.7
2025-05-12T1800,3359A,104.0578,30.5225,成都市,华阳,臭氧1小时,57,48,78,39,59,165,,171,171,13,34,7,8,0.6,0.8
2025-05-12T1800,3488A,104.3853,30.7453,成都市,青白江技师分院,臭氧1小时,98,60,59,43,34,198,,187,187,12,27,6,6,0.4,0.4
2025-05-12T1800,3489A,104.0789,30.4072,成都市,科学城,臭氧1小时,89,49,79,29,58,191,,177,177,8,23,5,7,0.4,0.6
2025-05-12T1800,4011A,103.8506,30.6947,成都市,光华大道三段,臭氧1小时,128,74,76,36,41,255,,231,231,16,28,2,5,0.6,0.8
2025-05-12T1800,4224A,104.2433,30.5353,成都市,鲸龙路1057号,臭氧1小时,60,49,59,31,35,168,,167,167,10,25,6,6,0.4,0.6
2025-05-12T1800,1062A,117.9531,40.9081,承德市,铁路,臭氧1小时,90,59,42,30,18,192,,165,165,19,22,8,3,0.6,0.4
2025-05-12T1800,1063A,117.9392,40.9763,承德市,中国银行,臭氧1小时,97,60,40,30,17,197,,167,167,9,17,7,4,0.6,0.4
2025-05-12T1800,1064A,117.9503,40.928,承德市,开发区,臭氧1小时,99,54,42,17,19,199,,170,170,14,22,10,5,0.7,0.5
2025-05-12T1800,1065A,117.8051,40.9655,承德市,文化中心,臭氧1小时,104,71,51,29,21,207,,169,169,11,24,8,9,0.7,0.4
2025-05-12T1800,1066A,117.9268,41.0026,承德市,离宫,臭氧1小时,100,71,45,36,25,200,,172,172,11,16,8,4,0.6,0.3
2025-05-12T1800,2314A,117.47,30.6618,池州市,池州学院,,47,41,42,24,27,150,,148,148,10,10,7,6,0.4,0.5
2025-05-12T1800,3237A,117.4918,30.6617,池州市,展览馆,,49,43,43,24,25,156,,153,153,9,10,7,6,0.4,0.5
2025-05-12T1800,3333A,117.5627,30.695,池州市,第八中学,,50,38,43,24,25,158,,152,152,10,10,8,6,0.3,0.4
2025-05-12T1800,3334A,117.5038,30.6243,池州市,第十二中学,,49,40,43,25,25,154,,151,151,5,12,8,5,0.3,0.6
2025-05-12T1800,1744A,118.9233,42.2816,赤峰市,松山一中,,48,36,37,6,11,151,,144,144,16,33,10,9,0.5,0.6
2025-05-12T1800,1745A,118.9576,42.2728,赤峰市,哈达街,,48,44,40,15,12,152,,143,143,18,28,10,10,0.6,0.5
2025-05-12T1800,1746A,118.8788,42.2554,赤峰市,天义路,臭氧1小时,60,38,22,17,18,168,,155,155,14,17,9,9,0.6,0.4
2025-05-12T1800,3058A,119.2658,42.0353,赤峰市,银河街,颗粒物(PM10),77,104,65,23,21,165,,146,146,11,17,18,21,0.9,0.7
2025-05-12T1800,3286A,118.9359,42.3147,赤峰市,桥北物流园区,,,,36,52,24,,,136,,24,37,10,8,,0.4
2025-05-12T1800,2521A,107.3476,22.4136,崇左市,市环保局江州分局,,50,24,34,13,16,158,,144,144,5,11,7,6,0.2,0.3
2025-05-12T1800,4256A,107.3750,22.3736,崇左市,石景林东路7号,臭氧1小时,57,32,33,14,14,165,,146,146,6,15,5,4,0.3,0.4
2025-05-12T1800,2298A,118.3093,32.3153,滁州市,老年大学,臭氧1小时,82,45,48,23,31,185,,175,175,8,10,5,3,0.3,0.3
2025-05-12T1800,2299A,118.3244,32.2786,滁州市,人大宾馆,臭氧1小时,59,43,54,26,34,167,,161,161,11,18,9,10,0.3,0.3
2025-05-12T1800,3207A,118.3118,32.3038,滁州市,市政府原办公楼,臭氧1小时,74,37,40,23,30,179,,172,172,9,10,6,6,0.2,0.2
2025-05-12T1800,3331A,118.3267,32.2634,滁州市,图书馆,,50,40,54,25,35,158,,156,156,9,14,9,9,0.3,0.3
2025-05-12T1800,2605A,101.5482,25.0441,楚雄彝族自治州,州环境监测站,,36,25,32,15,24,114,,107,107,7,22,6,7,0.4,0.5
2025-05-12T1800,2606A,101.538,25.0492,楚雄彝族自治州,市经济开发区,,34,,26,14,20,106,,101,101,8,19,6,8,0.6,0.6
2025-05-12T1800,2548A,107.5277,31.2827,达州市,达州职业技术学院,颗粒物(PM10),52,53,72,13,36,137,,130,130,8,25,6,7,0.6,0.7
2025-05-12T1800,2549A,107.5086,31.2186,达州市,市环境监测站,,40,37,70,14,32,127,,132,132,26,30,5,6,0.2,0.3
2025-05-12T1800,2550A,107.4988,31.2132,达州市,凤凰小区,,43,39,70,12,33,135,,134,134,20,28,7,8,0.3,0.5
2025-05-12T1800,2551A,107.5082,31.1986,达州市,达县机关宾馆,,41,36,71,17,24,129,,130,130,17,35,5,6,0.2,0.3
2025-05-12T1800,2552A,107.4644,31.2124,达州市,市政中心,,44,44,77,9,32,133,,128,128,15,30,3,3,0.3,0.5
2025-05-12T1800,2614A,100.1542,25.7054,大理白族自治州,大理市环境监测站,,,,26,26,22,114,,111,111,9,18,7,7,,0.3
2025-05-12T1800,2615A,100.2171,25.5811,大理白族自治州,大理古城,,42,,28,29,20,111,,109,109,13,12,8,8,0.7,0.6
2025-05-12T1800,1109A,121.612,38.9741,大连市,甘井子,颗粒物(PM10),60,70,61,31,36,148,,140,140,19,29,11,9,0.5,0.4
2025-05-12T1800,1110A,121.565,38.9511,大连市,周水子,颗粒物(PM10),70,90,67,38,39,145,,129,129,18,26,7,7,0.5,0.4
2025-05-12T1800,1111A,121.5637,38.8845,大连市,星海三站,颗粒物(PM10),56,61,52,37,37,150,,157,157,16,13,4,4,0.5,0.4
2025-05-12T1800,1112A,121.6302,38.9117,大连市,青泥洼桥,"颗粒物(PM10),细颗粒物(PM2.5)",57,64,53,40,36,152,,155,155,17,16,7,8,0.6,0.5
2025-05-12T1800,1113A,121.6251,38.8638,大连市,傅家庄,臭氧1小时,64,61,53,35,36,171,,167,167,22,20,6,6,0.3,0.3
2025-05-12T1800,1114A,121.5213,38.8661,大连市,七贤岭,颗粒物(PM10),57,63,62,36,40,148,,150,150,22,21,6,7,0.6,0.6
2025-05-12T1800,1115A,121.2529,38.8061,大连市,旅顺,颗粒物(PM10),59,67,51,35,40,140,,140,140,25,21,4,4,0.4,0.3
2025-05-12T1800,1116A,121.7485,39.1311,大连市,金州,颗粒物(PM10),71,91,72,42,35,150,,163,162,17,22,6,8,0.4,0.4
2025-05-12T1800,1117A,121.7811,39.0496,大连市,开发区,颗粒物(PM10),57,64,55,35,38,154,,141,141,17,33,4,6,0.5,0.5
2025-05-12T1800,1118A,121.9762,39.0631,大连市,双D港,臭氧1小时,59,53,44,29,31,167,,148,148,5,15,8,8,0.4,0.4
2025-05-12T1800,1789A,124.81117,46.03138,大庆市,大同区,细颗粒物(PM2.5),74,94,77,54,48,96,,114,114,26,15,7,7,1.0,0.8
2025-05-12T1800,1790A,125.129,46.533,大庆市,龙凤区,细颗粒物(PM2.5),70,88,71,51,38,119,,118,118,17,21,6,12,0.7,0.6
2025-05-12T1800,1791A,124.902,46.408,大庆市,红岗区,细颗粒物(PM2.5),62,71,58,44,32,121,,123,123,14,15,8,8,0.7,0.5
2025-05-12T1800,1792A,125.153,46.586,大庆市,萨尔图区,细颗粒物(PM2.5),78,94,80,57,42,110,,109,109,23,24,9,10,0.6,0.5
2025-05-12T1800,1793A,124.9042,46.6215,大庆市,让胡路区,细颗粒物(PM2.5),70,77,61,51,43,116,,112,112,16,18,7,8,0.5,0.4
2025-05-12T1800,3481A,125.141,46.634,大庆市,萨区政府监测点,颗粒物(PM10),73,96,68,46,33,127,,122,122,19,17,7,8,0.6,0.5
2025-05-12T1800,1721A,113.3819,40.1097,大同市,果树场,,,,,,,,,,,,,,,,
2025-05-12T1800,1723A,113.2994,40.0758,大同市,云冈宾馆,颗粒物(PM10),53,55,58,18,17,126,,130,129,18,31,12,11,0.4,0.4
2025-05-12T1800,1724A,113.3444,40.0917,大同市,大同大学,,50,50,55,16,19,129,,128,128,18,34,9,5,0.3,0.6
2025-05-12T1800,1725A,113.2661,40.1269,大同市,安家小村,颗粒物(PM10),52,54,67,25,32,132,,124,124,24,28,8,9,0.4,1.1
2025-05-12T1800,1726A,113.2711,40.0844,大同市,教育学院,颗粒物(PM10),53,56,66,12,20,124,,125,125,19,33,9,9,0.3,0.8
2025-05-12T1800,3282A,113.3397,40.0597,大同市,大同市卫生学校,,46,46,66,13,26,117,,120,120,15,35,9,10,0.4,0.7
2025-05-12T1800,3565A,113.1367,40.1122,大同市,云冈站,,50,50,50,17,16,135,,127,127,10,17,6,9,0.4,0.4
2025-05-12T1800,3566A,113.1186,40.2556,大同市,图书馆,,50,50,40,16,13,129,,125,125,10,10,8,7,0.4,0.4
2025-05-12T1800,3567A,113.5931,40.0461,大同市,区一中,颗粒物(PM10),53,56,54,9,14,122,,136,136,14,22,11,15,0.4,0.5
2025-05-12T1800,4199A,113.2798,40.0997,大同市,魏都大道141号,颗粒物(PM10),54,58,74,16,19,144,,142,142,14,34,8,8,0.4,1
2025-05-12T1800,2269A,124.1069,50.4097,大兴安岭地区,科技局,颗粒物(PM10),85,119,83,53,45,132,,114,114,10,9,5,6,0.5,0.4
2025-05-12T1800,3663A,124.1164,50.4278,大兴安岭地区,红旗社区,细颗粒物(PM2.5),79,95,62,58,39,137,,118,118,12,12,3,3,0.6,0.5
2025-05-12T1800,1600A,124.3303,40.0625,丹东市,江湾东路,颗粒物(PM10),52,53,56,31,40,158,,155,155,12,15,9,10,0.6,0.7
2025-05-12T1800,1601A,124.4256,40.1503,丹东市,临江后街,颗粒物(PM10),52,54,68,24,32,153,,149,149,10,13,7,7,0.7,0.9
2025-05-12T1800,1602A,124.3933,40.1461,丹东市,元宝山,,48,39,60,26,34,152,,146,146,15,14,8,8,0.5,0.7
2025-05-12T1800,1603A,124.3633,40.1092,丹东市,民主桥,颗粒物(PM10),61,71,68,28,32,157,,153,153,11,18,8,6,0.7,0.8
2025-05-12T1800,3541A,109.5726,19.5167,儋州市,第一中学子站,,36,36,38,17,22,104,,108,108,5,6,4,5,0.9,0.9
2025-05-12T1800,3542A,109.5567,19.5187,儋州市,东坡学校子站,,36,31,39,16,19,115,,119,119,6,6,5,7,0.6,0.6
2025-05-12T1800,2616A,98.5842,24.428,德宏傣族景颇族自治州,德宏州监测站,,33,33,58,23,42,81,,88,88,11,13,7,8,0.8,0.8
2025-05-12T1800,3677A,98.5881,24.4368,德宏傣族景颇族自治州,芒市人民政府综合楼,,42,35,74,29,42,94,,105,104,13,13,5,6,0.6,0.6
2025-05-12T1800,1901A,104.4239,31.1208,德阳市,东山公园,臭氧1小时,73,67,73,37,48,178,,179,179,10,18,6,6,0.6,0.9
2025-05-12T1800,1902A,104.3826,31.1317,德阳市,西小区,臭氧1小时,73,60,85,40,55,178,,175,175,13,37,6,6,0.9,1.1
2025-05-12T1800,1904A,104.3553,31.1091,德阳市,耐火材料厂,臭氧1小时,84,62,89,41,53,187,,183,183,10,33,7,8,0.5,0.6
2025-05-12T1800,3639A,104.4019,31.1244,德阳市,市教育局,,,58,70,39,50,187,,184,184,,33,8,7,0.5,0.6
2025-05-12T1800,1622A,116.3032,37.4674,德州市,儿童乐园,臭氧1小时,77,97,72,31,24,181,,168,168,15,19,8,10,0.6,0.6
2025-05-12T1800,1624A,116.2991,37.4451,德州市,监理站,臭氧1小时,75,95,65,24,23,180,,166,166,11,17,10,12,0.6,0.6
2025-05-12T1800,3066A,116.2721,37.4379,德州市,九衢泉纯净水厂,颗粒物(PM10),70,90,62,34,28,170,,155,155,12,21,8,9,0.5,0.5
2025-05-12T1800,3371A,116.3728,37.4403,德州市,开发区人民医院,颗粒物(PM10),74,97,74,27,24,159,,153,153,12,20,7,9,0.7,0.7
2025-05-12T1800,3372A,116.3572,37.4094,德州市,太阳城中学,臭氧1小时,73,90,74,31,26,178,,171,171,13,19,6,8,0.5,0.5
2025-05-12T1800,3511A,116.5652,37.3319,德州市,陵城艺术中心,颗粒物(PM10),68,85,77,22,24,161,,157,157,12,22,7,8,0,0.4
2025-05-12T1800,2621A,99.7056,27.8317,迪庆藏族自治州,迪庆州站,,38,14,25,10,16,120,,122,122,10,9,5,5,0.3,0.3
2025-05-12T1800,3180A,99.7136,27.8094,迪庆藏族自治州,质量技术监督局,,41,24,26,10,9,131,,126,126,9,9,5,4,0.5,0.5
2025-05-12T1800,4257A,104.6092,35.5962,定西市,将台街,,,83,66,15,22,124,,126,126,,27,6,5,0.2,0.3
2025-05-12T1800,4309A,104.6159,35.5701,定西市,正龙路62号,颗粒物(PM10),57,63,46,13,19,135,,133,133,5,10,8,7,0.3,0.3
2025-05-12T1800,1389A,113.7547,23.0494,东莞市,莞城梨川,臭氧1小时,83,38,29,28,25,186,,170,170,20,23,6,7,0.5,0.5
2025-05-12T1800,1390A,113.7944,23.0128,东莞市,东城石井,臭氧1小时,62,37,34,29,21,169,,162,162,20,23,6,6,0.6,0.6
2025-05-12T1800,1391A,113.7383,22.9658,东莞市,南城西平,臭氧1小时,105,27,42,21,22,210,,184,184,17,42,5,5,0.4,0.5
2025-05-12T1800,3319A,113.7338,23.0381,东莞市,万江金泰,臭氧1小时,82,37,35,28,20,185,,170,170,13,19,6,7,0.6,0.6
2025-05-12T1800,3626A,113.7533,23.0202,东莞市,南城元岭,臭氧1小时,100,39,36,26,20,200,,177,177,21,26,7,8,0.4,0.5
2025-05-12T1800,3627A,113.7875,23.0457,东莞市,东城主山,臭氧1小时,57,56,40,24,20,165,,162,162,21,27,5,7,0.2,0.3
2025-05-12T1800,1666A,118.6614,37.4309,东营市,市环保局,颗粒物(PM10),54,58,68,24,31,152,,183,183,30,29,8,15,0.5,0.7
2025-05-12T1800,3036A,118.6904,37.4338,东营市,开发区管委会,颗粒物(PM10),72,93,76,19,28,155,,185,185,28,28,8,12,0.6,0.7
2025-05-12T1800,3365A,118.5719,37.565,东营市,垦利区民丰路,,,68,67,22,29,177,,204,204,25,32,7,9,,0.3
2025-05-12T1800,3498A,118.5055,37.8612,东营市,河口城区,臭氧1小时,55,58,67,15,27,164,,190,186,21,30,13,12,0.5,0.8
2025-05-12T1800,3646A,118.4978,37.4623,东营市,胜利站,颗粒物(PM10),59,68,71,31,32,143,,183,183,32,36,11,12,0.7,0.8
2025-05-12T1800,3734A,118.35,37.26,东营市,理想之城,颗粒物(PM10),57,63,68,27,31,112,,138,138,31,40,7,12,0.6,0.9
2025-05-12T1800,1591A,110.0023,39.8129,鄂尔多斯市,综合楼,颗粒物(PM10),119,188,65,51,18,109,,108,108,9,21,5,8,0.2,0.3
2025-05-12T1800,1592A,109.9486,39.8261,鄂尔多斯市,巴音孟克林场办事处,颗粒物(PM10),96,141,58,41,17,116,,114,114,8,13,6,8,0.3,0.4
2025-05-12T1800,1593A,109.7736,39.5986,鄂尔多斯市,康泽苑,颗粒物(PM10),71,92,51,22,15,118,,116,116,5,14,8,8,0.2,0.3
2025-05-12T1800,1594A,109.8119,39.5989,鄂尔多斯市,华泰汽车城,颗粒物(PM10),76,102,58,34,20,120,,117,117,6,25,4,5,0.1,0.2
2025-05-12T1800,1595A,109.9734,39.7884,鄂尔多斯市,奥林花园,颗粒物(PM10),102,153,69,53,22,115,,113,113,8,40,1,6,0.3,0.5
2025-05-12T1800,2436A,114.8938,30.3994,鄂州市,市政府,臭氧1小时,54,23,57,16,35,163,,163,163,14,28,8,11,0.7,0.9
2025-05-12T1800,2437A,114.8989,30.3714,鄂州市,赵家坝,臭氧1小时,55,21,51,3,26,164,,177,177,9,21,6,7,0.5,0.7
2025-05-12T1800,3654A,114.8094,30.4089,鄂州市,精准医疗中心,,48,29,56,13,33,152,,155,155,11,24,4,9,0.4,0.7
2025-05-12T1800,2454A,109.4978,30.2981,恩施土家族苗族自治州,湖北民院,,41,37,52,16,24,131,,124,124,3,9,7,6,0.4,0.4
2025-05-12T1800,2455A,109.4707,30.2798,恩施土家族苗族自治州,州电力总公司,,38,34,43,22,24,120,,111,111,5,14,8,8,0.2,0.2
2025-05-12T1800,3549A,109.5061,30.3772,恩施土家族苗族自治州,龙凤新区,,42,33,40,23,20,134,,130,130,8,7,6,6,0.4,0.5
2025-05-12T1800,2499A,108.3411,21.6158,防城港市,沙万,,,69,43,22,20,126,,112,112,,14,7,5,0.6,0.5
2025-05-12T1800,2500A,108.3514,21.7731,防城港市,防城档案局,,47,47,74,23,22,141,,129,129,18,25,8,3,0.7,0.4
2025-05-12T1800,2501A,108.3506,21.6414,防城港市,大海花园,颗粒物(PM10),52,54,53,20,17,154,,136,136,18,15,13,5,0.9,0.5
2025-05-12T1800,1371A,113.1294,23.0067,佛山市,湾梁,臭氧1小时,117,46,50,19,24,234,,176,176,22,51,8,9,0.6,0.7
2025-05-12T1800,1372A,113.1083,23.0478,佛山市,华材职中,臭氧1小时,119,53,62,24,30,237,,183,183,29,49,6,7,0.4,0.6
2025-05-12T1800,1373A,113.144,23.0453,佛山市,南海气象局,臭氧1小时,120,49,51,22,23,239,,183,183,22,47,2,2,0.5,0.6
2025-05-12T1800,1374A,113.2881,22.8094,佛山市,顺德苏岗,臭氧1小时,106,46,41,29,21,212,,169,169,19,39,8,7,0.5,0.6
2025-05-12T1800,1376A,112.8383,22.8678,佛山市,高明孔堂,臭氧1小时,117,54,51,21,20,234,,192,192,22,28,7,9,0.5,0.5
2025-05-12T1800,1377A,112.8836,23.1588,佛山市,三水监测站,臭氧1小时,72,36,61,18,27,177,,156,156,43,57,4,7,0.4,0.6
2025-05-12T1800,1378A,112.867,23.185,佛山市,三水云东海,臭氧1小时,95,45,53,26,28,196,,185,185,28,46,1,4,0.5,0.6
2025-05-12T1800,3625A,113.2544,22.7642,佛山市,容桂街道办,臭氧1小时,109,39,42,29,26,218,,175,175,21,46,8,8,0.6,0.7
2025-05-12T1800,1280A,119.3903,26.0543,福州市,鼓山,,,,32,,12,,,99,,,6,,2,,0.3
2025-05-12T1800,1282A,119.2681,26.0504,福州市,师大,臭氧1小时,54,33,31,18,21,163,,152,152,14,18,4,4,0.3,0.3
2025-05-12T1800,1283A,119.2984,26.1028,福州市,五四北路,,49,28,28,19,21,156,,149,149,11,16,4,4,0.4,0.5
2025-05-12T1800,1284A,119.2648,26.0768,福州市,杨桥西路,,49,43,39,22,22,156,,152,152,10,14,4,4,0.3,0.4
2025-05-12T1800,1285A,119.317,26.0746,福州市,紫阳,,49,38,36,18,22,156,,149,149,15,17,6,6,0.4,0.4
2025-05-12T1800,3048A,119.5799,26.0936,福州市,九龙,,47,26,24,14,15,150,,143,143,7,8,4,4,0.2,0.3
2025-05-12T1800,3526A,119.5189,25.9664,福州市,吴航,臭氧1小时,55,30,32,19,20,164,,152,152,11,12,5,4,0.2,0.4
2025-05-12T1800,1755A,123.7977,41.8491,抚顺市,望花区,臭氧1小时,69,84,85,32,46,175,,177,177,14,23,9,14,0.6,0.8
2025-05-12T1800,1756A,123.9161,41.8822,抚顺市,顺城区,臭氧1小时,57,61,73,24,39,165,,172,172,17,27,10,11,0.6,0.8
2025-05-12T1800,1757A,124.0436,41.8611,抚顺市,东洲区,颗粒物(PM10),56,61,66,26,34,162,,160,160,12,15,8,9,0.5,0.6
2025-05-12T1800,1758A,123.9247,41.8642,抚顺市,新抚区,颗粒物(PM10),59,68,80,20,33,153,,159,159,12,21,9,9,0.6,0.7
2025-05-12T1800,1759A,124.0972,41.8961,抚顺市,大伙房水库,,,54,54,33,32,170,,169,169,5,10,,10,0.7,0.7
2025-05-12T1800,1760A,123.7086,41.8391,抚顺市,沈抚新城,颗粒物(PM10),72,93,86,27,40,166,,171,171,18,20,10,11,0.8,0.8
2025-05-12T1800,2376A,116.2127,28.0814,抚州市,桐源党溪,,41,18,38,10,22,131,,136,136,3,2,5,6,0.3,0.3
2025-05-12T1800,2377A,116.3544,27.9831,抚州市,市站,,38,29,36,16,21,121,,117,117,8,10,1,2,0.3,0.3
2025-05-12T1800,2378A,116.3565,27.963,抚州市,血防站,,38,29,41,12,20,121,,118,118,3,10,3,2,0.4,0.5
2025-05-12T1800,2379A,116.3564,28.0007,抚州市,采茶剧团,,40,30,36,9,21,125,,115,115,3,5,1,2,1.0,1
2025-05-12T1800,2380A,116.385,27.9647,抚州市,医学分院,,40,29,36,12,17,126,,122,122,2,7,3,6,0.9,1
2025-05-12T1800,2207A,121.6094,41.998,阜新市,工业园区,颗粒物(PM10),85,119,98,27,53,185,,180,180,10,22,10,24,0.5,0.7
2025-05-12T1800,2208A,121.6697,42.0279,阜新市,长青街,颗粒物(PM10),66,82,92,22,46,164,,166,166,19,25,12,24,0.6,0.8
2025-05-12T1800,2209A,121.6673,42.0705,阜新市,农业园区,臭氧1小时,75,82,90,39,59,180,,176,176,12,16,10,17,0.6,0.8
2025-05-12T1800,2210A,121.6717,42.0224,阜新市,东苑,臭氧1小时,73,74,106,29,64,178,,175,175,17,23,9,25,0.6,0.8
2025-05-12T1800,2211A,121.6506,42.0498,阜新市,玉龙新城,臭氧1小时,75,90,89,29,54,180,,175,175,9,17,11,17,0.6,0.8
2025-05-12T1800,2301A,115.8277,32.8929,阜阳市,市监测站,,50,50,48,29,27,149,,140,140,12,11,7,8,0.1,0.1
2025-05-12T1800,2303A,115.8554,32.8605,阜阳市,开发区,,49,39,60,19,24,155,,147,147,7,12,6,7,0.2,0.2
2025-05-12T1800,2875A,115.784,32.8892,阜阳市,阜阳职业技术学院,臭氧1小时,60,48,50,23,22,168,,156,156,10,14,6,6,0.3,0.3
2025-05-12T1800,3468A,115.7901,32.8613,阜阳市,市规划展馆,,,42,44,40,25,171,,160,160,,7,7,7,0.2,0.2
2025-05-12T1800,3469A,115.836,32.9183,阜阳市,枣园社区,颗粒物(PM10),51,52,47,31,23,160,,150,150,7,9,5,4,0.2,0.2
2025-05-12T1800,2669A,102.9099,34.9841,甘南藏族自治州,州政府,,37,31,49,19,23,116,,111,111,4,25,10,9,0.3,0.3
2025-05-12T1800,3380A,102.8914,34.9617,甘南藏族自治州,甘肃民族师范学院,,45,44,60,21,21,141,,138,138,6,38,13,10,0.4,0.4
2025-05-12T1800,2570A,101.9603,30.0475,甘孜藏族自治州,水桥子,,32,26,33,3,13,102,,89,89,5,22,5,5,0.4,0.4
2025-05-12T1800,3065A,101.9533,29.9972,甘孜藏族自治州,州环保局,,,31,33,3,9,98,,89,89,8,12,,2,0.2,0.2
2025-05-12T1800,3414A,115.8347,28.932,赣江新区,桑海产业园,臭氧1小时,68,39,55,20,30,174,,165,165,10,20,4,4,0.3,0.4
2025-05-12T1800,2362A,114.9017,25.9149,赣州市,通天岩,,49,29,32,3,7,154,,162,162,6,5,10,10,0.3,0.3
2025-05-12T1800,2363A,114.9367,25.8664,赣州市,地委,臭氧1小时,63,30,38,18,22,170,,154,154,13,13,4,5,0.4,0.4
2025-05-12T1800,2364A,114.9461,25.8481,赣州市,气象台,臭氧1小时,69,31,38,13,20,175,,158,158,12,18,8,11,0.3,0.4
2025-05-12T1800,2365A,114.9322,25.8333,赣州市,市图书馆,臭氧1小时,77,35,36,19,22,181,,160,160,11,14,4,6,0.3,0.4
2025-05-12T1800,2366A,114.8905,25.8471,赣州市,华坚鞋城,臭氧1小时,85,33,37,22,23,188,,164,164,19,17,6,7,0.3,0.3
2025-05-12T1800,3109A,115.0093,25.8613,赣州市,赣县区卫计委,,47,35,36,21,24,150,,140,140,7,19,3,3,0.6,0.6
2025-05-12T1800,2683A,106.2319,36.1417,固原市,马园,颗粒物(PM10),59,68,60,15,17,102,,126,122,18,26,7,5,0.6,0.6
2025-05-12T1800,2684A,106.2792,36.0022,固原市,监测站,颗粒物(PM10),64,77,54,15,16,113,,123,123,9,25,5,5,0.2,0.3
2025-05-12T1800,2685A,106.2375,36.0211,固原市,新区,颗粒物(PM10),61,71,56,19,17,101,,112,112,7,19,7,6,0.1,0.1
2025-05-12T1800,3522A,106.2177,35.9959,固原市,原州区十五小,颗粒物(PM10),60,70,53,33,18,111,,124,124,8,10,10,9,0.2,0.2
2025-05-12T1800,2543A,106.6308,30.5278,广安市,小平旧居,,,,,,,,,,,,,,,,
2025-05-12T1800,2544A,106.6303,30.4576,广安市,市委,,48,48,73,23,34,142,,144,144,10,18,8,5,0.4,0.5
2025-05-12T1800,2545A,106.6271,30.4663,广安市,友谊中学,,50,50,61,24,32,151,,153,153,16,20,5,4,0.4,0.6
2025-05-12T1800,2547A,106.6388,30.4551,广安市,广电花园,,48,48,68,25,34,147,,150,150,14,20,7,6,0.4,0.6
2025-05-12T1800,2902A,106.6351,30.4865,广安市,北辰小学,,49,49,63,28,32,155,,152,152,9,16,8,7,0.4,0.5
2025-05-12T1800,2523A,105.8945,32.4535,广元市,黑石坡,,48,46,66,10,19,152,,136,136,9,12,3,6,0.3,0.4
2025-05-12T1800,2524A,105.821,32.4444,广元市,老城,臭氧1小时,54,44,58,12,24,163,,154,154,5,20,3,2,0.6,0.7
2025-05-12T1800,2526A,105.8628,32.4287,广元市,监测站,,50,32,47,15,27,157,,149,149,9,13,8,8,0.4,0.5
2025-05-12T1800,3617A,105.8047,32.4166,广元市,经开区,颗粒物(PM10),56,61,71,29,42,164,,155,155,11,20,12,14,0.6,0.7
2025-05-12T1800,1345A,113.2347,23.1423,广州市,广雅中学,臭氧1小时,123,52,54,29,28,246,,204,204,27,42,5,5,0.1,0.2
2025-05-12T1800,1346A,113.2612,23.105,广州市,市五中,臭氧1小时,107,46,41,31,26,213,,176,176,20,37,3,3,0.7,0.8
2025-05-12T1800,1348A,113.3478,23.0916,广州市,广东商学院,臭氧1小时,111,44,42,19,24,221,,175,175,16,41,5,5,0.4,0.5
2025-05-12T1800,1349A,113.4332,23.1047,广州市,市八十六中,臭氧1小时,103,70,65,26,24,206,,176,176,37,51,6,4,0.6,0.6
2025-05-12T1800,1350A,113.3505,22.9483,广州市,番禺中学,臭氧1小时,111,48,49,24,26,222,,180,180,24,46,8,7,0.4,0.5
2025-05-12T1800,1351A,113.2146,23.3916,广州市,花都师范,臭氧1小时,107,38,44,16,21,213,,177,177,24,39,5,5,0.3,0.4
2025-05-12T1800,1352A,113.2597,23.1331,广州市,市监测站,臭氧1小时,111,50,46,26,23,222,,181,181,24,45,6,6,0.2,0.2
2025-05-12T1800,1353A,113.5618,23.312,广州市,九龙镇镇龙,,44,30,33,19,19,138,,130,130,10,23,6,6,0.4,0.4
2025-05-12T1800,1354A,113.2765,23.1544,广州市,麓湖,臭氧1小时,88,45,38,34,23,190,,170,170,19,36,6,6,0.4,0.5
2025-05-12T1800,1355A,113.443,23.3035,广州市,帽峰山森林公园,臭氧1小时,55,,18,19,16,164,,151,151,10,10,6,6,0.5,0.5
2025-05-12T1800,2846A,113.3221,23.1322,广州市,体育西,臭氧1小时,108,43,41,22,20,215,,174,174,17,38,5,5,0.4,0.4
2025-05-12T1800,3298A,113.5717,23.5491,广州市,从化街口,臭氧1小时,79,34,34,24,22,183,,160,160,9,24,7,7,0.4,0.5
2025-05-12T1800,3299A,113.3472,23.3692,广州市,白云竹料,臭氧1小时,101,41,43,25,23,201,,172,172,13,26,4,4,0.3,0.5
2025-05-12T1800,3300A,113.2981,23.237,广州市,白云嘉禾,臭氧1小时,90,49,44,28,23,192,,164,164,27,40,7,7,0.3,0.5
2025-05-12T1800,3301A,113.4256,23.1716,广州市,黄埔科学城,臭氧1小时,59,34,35,22,20,167,,141,141,13,18,3,3,0.4,0.5
2025-05-12T1800,3302A,113.3942,23.0483,广州市,番禺大学城,臭氧1小时,118,41,35,20,20,236,,188,188,24,50,6,4,0.3,0.3
2025-05-12T1800,3303A,113.4922,22.8168,广州市,南沙黄阁,臭氧1小时,115,75,50,28,25,230,,200,200,23,33,7,8,0.5,0.6
2025-05-12T1800,3304A,113.5342,22.7896,广州市,南沙街,臭氧1小时,130,48,42,23,19,259,,221,221,25,31,4,5,0.6,0.6
2025-05-12T1800,3443A,113.2902,23.5544,广州市,花都梯面,,49,30,29,20,17,156,,146,146,9,25,7,6,0.5,0.5
2025-05-12T1800,3445A,113.7858,23.7478,广州市,从化良口,臭氧1小时,53,28,25,24,16,162,,151,151,6,8,7,6,0.2,0.3
2025-05-12T1800,3446A,113.8051,23.2614,广州市,增城荔城,臭氧1小时,53,30,30,25,20,162,,144,144,9,13,8,8,0.4,0.5
2025-05-12T1800,2505A,109.568,23.1478,贵港市,德智高中,,,,,,,,,,,,,,,,
2025-05-12T1800,2506A,109.6047,23.0666,贵港市,江南子站,臭氧1小时,57,44,62,20,29,165,,148,148,11,30,7,6,0.4,0.7
2025-05-12T1800,2508A,109.5669,23.1065,贵港市,荷城子站,,50,23,37,12,21,157,,142,142,12,29,7,6,0.3,0.3
2025-05-12T1800,3405A,109.5886,23.1172,贵港市,新世纪学校,,50,41,45,23,24,160,,144,144,9,17,2,2,1.0,1
2025-05-12T1800,4260A,109.5933,23.0951,贵港市,中山路155-3号,臭氧1小时,68,43,55,24,30,174,,155,155,12,28,7,6,0.3,0.6
2025-05-12T1800,1439A,106.6899,26.5998,贵阳市,马鞍山,,36,12,27,3,11,115,,117,117,9,12,4,3,0.6,0.6
2025-05-12T1800,1441A,106.6243,26.6266,贵阳市,鉴湖路,,34,34,38,7,12,104,,104,104,9,12,5,6,0.4,0.4
2025-05-12T1800,1442A,106.7487,26.6343,贵阳市,燕子冲,,39,29,36,17,23,123,,124,124,10,15,11,16,0.2,0.2
2025-05-12T1800,1443A,106.6555,26.4365,贵阳市,碧云窝,,37,27,39,3,16,117,,114,114,5,13,7,6,0.2,0.3
2025-05-12T1800,1445A,106.7109,26.6027,贵阳市,红边门,,37,29,39,14,23,117,,118,118,14,22,12,12,0.1,0.2
2025-05-12T1800,1446A,106.7164,26.5699,贵阳市,新华路,,32,24,45,3,14,102,,109,109,12,22,41,17,0.3,0.4
2025-05-12T1800,1447A,106.674,26.5424,贵阳市,太慈桥,,35,27,41,7,14,109,,108,108,10,22,6,5,0.1,0.2
2025-05-12T1800,1552A,106.805,26.3003,贵阳市,桐木岭,,39,39,46,12,21,118,,110,110,7,6,4,4,0.7,0.6
2025-05-12T1800,4230A,106.6882,26.5695,贵阳市,花果园大街66号,,36,24,37,10,19,114,,110,110,6,15,5,5,0.3,0.3
2025-05-12T1800,4231A,106.6873,26.5169,贵阳市,漓江路57号,,,29,39,,21,110,,110,110,11,21,10,9,0.3,0.4
2025-05-12T1800,1862A,110.4144,25.3167,桂林市,电子科大尧山校区,,,,,,,,,,,,,,,,
2025-05-12T1800,1864A,110.3089,25.2708,桂林市,龙隐路小学,,44,33,37,18,24,138,,137,137,5,12,9,14,0.3,0.4
2025-05-12T1800,1865A,110.2869,25.2178,桂林市,八中,,40,35,40,19,22,128,,126,126,8,18,2,4,0.3,0.4
2025-05-12T1800,3531A,110.296,25.1253,桂林市,旅游学院,,43,22,29,17,17,135,,124,124,6,17,3,5,0.3,0.5
2025-05-12T1800,4222A,110.1835,25.2444,桂林市,环湖路276号,,38,34,47,19,28,121,,111,111,5,32,8,24,0.2,0.3
2025-05-12T1800,4301A,110.2803,25.2773,桂林市,信义路13号,,45,29,41,16,25,141,,136,136,8,16,4,12,0.2,0.3
2025-05-12T1800,2674A,100.2561,34.4714,果洛藏族自治州,玛沁县大武镇,,50,50,43,24,14,93,,94,94,1,7,27,27,0.3,0.4
2025-05-12T1800,1129A,126.5422,45.755,哈尔滨市,岭北,细颗粒物(PM2.5),63,70,58,45,43,136,,146,146,18,19,24,24,1.2,0.9
2025-05-12T1800,1130A,126.561,45.8167,哈尔滨市,松北商大,细颗粒物(PM2.5),62,69,65,44,39,125,,143,143,22,17,10,10,0.9,0.8
2025-05-12T1800,1131A,126.979,45.5419,哈尔滨市,阿城会宁,细颗粒物(PM2.5),77,76,55,56,43,127,,148,148,29,17,8,8,0.7,0.5
2025-05-12T1800,1132A,126.599,45.7222,哈尔滨市,南岗学府路,,,105,67,55,33,134,,145,145,,17,8,7,,0.7
2025-05-12T1800,1133A,126.689,45.7733,哈尔滨市,太平宏伟公园,颗粒物(PM10),67,83,69,47,37,136,,148,148,21,22,7,7,0.8,0.6
2025-05-12T1800,1134A,126.635,45.7667,哈尔滨市,道外承德广场,颗粒物(PM10),76,102,81,51,41,123,,140,140,26,22,9,8,0.9,0.7
2025-05-12T1800,1135A,126.685,45.7319,哈尔滨市,香坊红旗大街,颗粒物(PM10),67,83,73,39,40,135,,143,143,20,24,13,13,1.0,0.8
2025-05-12T1800,1136A,126.6411,45.7258,哈尔滨市,动力和平路,颗粒物(PM10),85,120,66,48,41,124,,133,133,18,17,9,9,0.7,0.6
2025-05-12T1800,1137A,126.593,45.7478,哈尔滨市,道里建国路,颗粒物(PM10),64,78,62,43,42,120,,140,140,29,20,7,8,0.7,0.6
2025-05-12T1800,1138A,126.615,45.61,哈尔滨市,平房东轻厂,颗粒物(PM10),60,69,60,32,29,132,,148,148,20,13,11,9,0.9,0.7
2025-05-12T1800,1139A,126.595,45.9855,哈尔滨市,呼兰师专,细颗粒物(PM2.5),77,75,66,56,45,134,,144,144,18,23,12,11,0.9,0.8
2025-05-12T1800,1140A,126.6206,45.6842,哈尔滨市,省农科院,颗粒物(PM10),79,107,90,49,44,123,,130,130,20,24,10,10,0.9,0.8
2025-05-12T1800,2688A,93.5128,42.8172,哈密市,地区监测站,,39,39,54,6,14,94,,91,91,7,8,3,4,0.0,0
2025-05-12T1800,2689A,93.4961,42.8328,哈密市,哈密师范学校,,34,31,37,16,14,107,,104,104,8,11,4,5,0.2,0.3
2025-05-12T1800,2671A,100.9048,36.9639,海北藏族自治州,海晏县西海镇,,47,37,27,11,12,148,,142,142,5,8,17,12,0.4,0.4
2025-05-12T1800,3867A,102.0738,36.5056,海东市,平安区公安北苑,,41,36,38,10,13,130,,113,113,7,12,9,13,0.5,0.6
2025-05-12T1800,1409A,110.576,19.9507,海口市,东寨港,,35,,28,18,10,112,,111,111,3,4,9,7,0.4,0.4
2025-05-12T1800,1410A,110.3232,20.0574,海口市,海南大学,,46,32,37,18,20,145,,150,149,6,7,4,4,0.3,0.4
2025-05-12T1800,1411A,110.283,20.0053,海口市,秀英海南医院,,42,34,38,17,22,132,,143,140,8,8,5,6,0.4,0.4
2025-05-12T1800,1412A,110.338,19.9969,海口市,海南师范大学,,44,36,37,17,21,139,,148,147,6,7,4,5,0.4,0.4
2025-05-12T1800,1413A,110.33,20.0356,海口市,龙华路环保局宿舍,,46,34,38,16,20,147,,149,149,6,8,4,5,0.3,0.3
2025-05-12T1800,3539A,110.5111,19.9736,海口市,桂林洋子站,,42,31,35,15,19,133,,141,138,6,7,4,4,0.3,0.2
2025-05-12T1800,2673A,100.6188,36.2866,海南藏族自治州,共和县恰卜恰镇,,44,34,44,11,13,138,,137,137,2,10,17,17,0.4,0.4
2025-05-12T1800,2676A,97.3731,37.3753,海西蒙古族藏族自治州,德令哈市,颗粒物(PM10),54,57,55,13,18,123,,120,120,2,6,9,9,0.5,0.4
2025-05-12T1800,1048A,114.5302,36.6116,邯郸市,东污水处理厂,臭氧1小时,83,92,57,31,9,186,,148,148,14,32,4,6,0.5,0.7
2025-05-12T1800,1049A,114.4918,36.5713,邯郸市,矿院,颗粒物(PM10),66,81,47,22,14,170,,137,137,11,28,5,6,0.4,0.6
2025-05-12T1800,1050A,114.484,36.6133,邯郸市,丛台公园,,,,45,,16,,,146,146,,24,,9,,0.7
2025-05-12T1800,3458A,114.7895,36.5593,邯郸市,香泉濮院小区,颗粒物(PM10),75,99,62,18,11,172,,141,141,12,20,4,6,0.4,0.4
2025-05-12T1800,3579A,114.50634,36.77178,邯郸市,永年区实验高中,臭氧1小时,77,102,62,45,23,181,,149,149,8,18,6,11,0.4,0.9
2025-05-12T1800,3580A,114.20016,36.44293,邯郸市,峰峰矿区临水派出所,臭氧1小时,103,70,38,33,5,205,,158,158,14,15,7,7,0.4,0.5
2025-05-12T1800,2634A,106.9893,33.1842,汉中市,汉川机床厂子校,细颗粒物(PM2.5),62,54,58,44,46,151,,150,150,7,11,8,9,0.7,0.8
2025-05-12T1800,2635A,107.0154,33.0706,汉中市,市监测站,,48,47,65,33,34,147,,146,146,6,11,6,9,0.4,0.5
2025-05-12T1800,2636A,107.0089,33.1138,汉中市,鑫源开发区,颗粒物(PM10),51,52,62,31,32,154,,152,152,8,14,5,8,0.4,0.6
2025-05-12T1800,2637A,107.007,33.0323,汉中市,南郑大河坎水厂,颗粒物(PM10),51,52,57,26,30,158,,155,155,8,13,6,6,0.4,0.5
2025-05-12T1800,1223A,120.2072,30.2111,杭州市,滨江,臭氧1小时,82,37,44,19,24,185,,174,174,17,31,8,7,0.6,0.6
2025-05-12T1800,1224A,120.0633,30.2747,杭州市,西溪,,46,36,35,22,25,146,,149,149,6,20,6,5,0.3,0.3
2025-05-12T1800,1226A,120.3417,30.3150,杭州市,下沙,臭氧1小时,80,36,48,21,29,184,,173,173,24,45,8,8,0.3,0.4
2025-05-12T1800,1227A,120.1269,30.2456,杭州市,卧龙桥,,49,38,33,29,22,155,,167,167,12,14,7,7,0.5,0.5
2025-05-12T1800,1228A,120.1903,30.2692,杭州市,浙江农大,臭氧1小时,63,42,52,28,30,170,,161,161,13,40,10,10,0.4,0.5
2025-05-12T1800,1230A,120.1197,30.3119,杭州市,和睦小学,臭氧1小时,62,35,39,22,24,169,,165,165,12,26,8,8,0.3,0.4
2025-05-12T1800,1231A,120.3019,30.4183,杭州市,临平镇,臭氧1小时,79,45,52,21,26,183,,174,174,20,43,6,6,0.3,0.4
2025-05-12T1800,1232A,120.2753,30.1839,杭州市,城厢镇,臭氧1小时,62,38,45,20,27,169,,161,161,24,29,9,9,0.2,0.3
2025-05-12T1800,1233A,120.0883,30.1808,杭州市,云栖,,45,31,36,20,19,141,,162,162,18,27,5,5,0.5,0.6
2025-05-12T1800,3557A,119.9464,30.0494,杭州市,镇二中,,42,32,39,20,28,132,,140,140,19,27,4,4,0.4,0.5
2025-05-12T1800,3558A,119.7183,30.2367,杭州市,市府大楼,,47,39,37,22,25,150,,147,147,23,20,8,8,0.4,0.5
2025-05-12T1800,3656A,120.1556,30.2864,杭州市,消防大队,臭氧1小时,67,36,39,20,26,173,,167,167,16,28,5,5,0.5,0.5
2025-05-12T1800,1270A,117.1959,31.7848,合肥市,明珠广场,,50,46,45,22,24,160,,160,160,13,24,10,9,0.4,0.4
2025-05-12T1800,1271A,117.3072,31.8764,合肥市,三里街,颗粒物(PM10),51,51,52,22,26,141,,143,143,16,31,6,6,0.5,0.5
2025-05-12T1800,1272A,117.2588,31.8707,合肥市,琥珀山庄,,50,44,48,25,27,158,,158,158,10,20,5,4,0.5,0.5
2025-05-12T1800,1273A,117.1604,31.9052,合肥市,董铺水库,颗粒物(PM10),53,55,44,19,18,156,,148,148,11,16,2,1,0.4,0.3
2025-05-12T1800,1274A,117.25,31.8571,合肥市,长江中路,,48,46,47,24,26,152,,154,154,15,19,7,7,0.5,0.5
2025-05-12T1800,1275A,117.266,31.9436,合肥市,庐阳区,颗粒物(PM10),51,51,46,17,24,158,,156,156,8,15,7,7,0.4,0.4
2025-05-12T1800,1276A,117.3453,31.8616,合肥市,瑶海区,,48,48,54,24,27,122,,132,132,28,32,7,7,0.3,0.4
2025-05-12T1800,1277A,117.3027,31.7964,合肥市,包河区,,48,41,48,19,28,153,,154,154,9,21,8,7,0.5,0.5
2025-05-12T1800,1278A,117.2776,31.7385,合肥市,滨湖新区,,49,41,46,34,35,143,,144,144,10,23,10,9,0.6,0.6
2025-05-12T1800,1279A,117.1318,31.8403,合肥市,高新区,,49,48,43,24,20,154,,146,146,12,17,4,3,0.4,0.4
2025-05-12T1800,3464A,117.3803,31.9147,合肥市,高教基地,,50,41,48,27,27,158,,162,162,7,16,8,7,0.4,0.4
2025-05-12T1800,3614A,79.924,37.0877,和田地区,地区环保局,细颗粒物(PM2.5),303,285,483,253,150,82,,81,81,5,13,2,2,0.3,0.4
2025-05-12T1800,3615A,79.9131,37.113,和田地区,市环保局,颗粒物(PM10),146,242,432,73,130,94,,92,92,5,19,1,2,0.3,0.4
2025-05-12T1800,2516A,108.2011,24.715,河池市,东仁乐园,,,,,,,,,,,,,,,,
2025-05-12T1800,2517A,108.0497,24.6947,河池市,市环保站,,45,35,28,9,12,142,,126,126,8,13,9,8,0.5,0.5
2025-05-12T1800,2518A,108.0983,24.6989,河池市,市疾控中心,,42,22,35,13,17,133,,117,117,10,20,9,10,0.5,0.5
2025-05-12T1800,1696A,114.6778,23.7569,河源市,源西,,41,28,29,17,16,129,,125,125,13,17,4,5,0.6,0.7
2025-05-12T1800,1697A,114.6944,23.7586,河源市,东埔,,50,27,33,17,18,157,,146,146,11,22,4,6,0.2,0.4
2025-05-12T1800,1698A,114.6892,23.7233,河源市,老城,,,28,29,19,19,141,,126,126,,19,4,5,0.3,0.4
2025-05-12T1800,1718A,115.4208,35.2464,菏泽市,气象局,颗粒物(PM10),69,87,85,33,30,156,,155,155,11,16,4,4,0.3,0.3
2025-05-12T1800,3374A,115.5564,35.0891,菏泽市,定陶老年大学,颗粒物(PM10),58,66,58,27,23,153,,144,144,13,11,3,5,0.4,0.4
2025-05-12T1800,4184A,115.4797,35.24401,菏泽市,永昌路1号,颗粒物(PM10),60,69,68,29,32,155,,150,150,10,14,7,6,0.2,0.2
2025-05-12T1800,4193A,115.4715,35.2800,菏泽市,长城路999号,颗粒物(PM10),64,78,70,12,21,154,,148,148,12,18,6,7,0.2,0.2
2025-05-12T1800,2514A,111.5264,24.4172,贺州市,环保小区,,50,34,40,30,26,157,,136,136,8,16,7,7,0.7,0.7
2025-05-12T1800,2515A,111.5608,24.4078,贺州市,政协大楼,,,28,35,22,23,155,,139,139,,19,6,11,0.6,0.6
2025-05-12T1800,3534A,111.4744,24.4553,贺州市,西湾,,48,30,40,19,24,151,,137,137,11,20,9,10,0.4,0.5
2025-05-12T1800,2385A,114.17,35.9019,鹤壁市,市监测站,臭氧1小时,98,78,46,40,21,198,,164,164,14,14,7,4,0.8,0.6
2025-05-12T1800,2386A,114.2956,35.7511,鹤壁市,市交警支队,颗粒物(PM10),63,76,62,35,19,161,,152,152,14,25,3,6,0.4,0.5
2025-05-12T1800,2387A,114.2878,35.7306,鹤壁市,迎宾馆,颗粒物(PM10),78,105,69,45,24,177,,177,177,8,20,4,7,0.5,0.5
2025-05-12T1800,3474A,114.2617,35.6822,鹤壁市,大新区,"颗粒物(PM10),细颗粒物(PM2.5)",62,74,57,44,29,165,,166,166,14,31,9,13,0.5,0.5
2025-05-12T1800,3596A,114.1572,35.9603,鹤壁市,南山宾馆,臭氧1小时,106,100,61,33,22,211,,168,168,13,10,8,8,0.4,0.3
2025-05-12T1800,2244A,130.2537,47.3416,鹤岗市,哈啤分公司,细颗粒物(PM2.5),67,58,57,48,47,81,,104,101,18,13,14,15,0.4,0.4
2025-05-12T1800,2245A,130.2684,47.3086,鹤岗市,斯达机电,细颗粒物(PM2.5),65,78,63,47,53,84,,106,105,25,15,14,13,0.4,0.4
2025-05-12T1800,2246A,130.3114,47.3388,鹤岗市,东山纸板厂,颗粒物(PM10),76,101,94,48,50,74,,98,97,23,18,14,15,0.6,0.6
2025-05-12T1800,2247A,130.1097,47.3382,鹤岗市,五号水库,,,,,,,,,,,,,,,,
2025-05-12T1800,2263A,127.4833,50.2524,黑河市,交通局,,50,50,124,25,90,87,,116,113,20,18,7,7,0.4,0.6
2025-05-12T1800,2264A,127.5144,50.2341,黑河市,环保局,颗粒物(PM10),52,53,94,29,90,89,,121,118,15,17,4,6,0.3,0.5
2025-05-12T1800,2265A,127.5291,50.2472,黑河市,大黑河岛,,43,43,138,26,101,81,,111,109,10,17,2,4,0.3,0.5
2025-05-12T1800,1074A,115.6838,37.7541,衡水市,电机北厂,臭氧1小时,70,78,58,39,23,176,,166,166,10,17,7,10,0.3,0.5
2025-05-12T1800,1075A,115.6303,37.7316,衡水市,市监测站,颗粒物(PM10),65,80,62,35,19,165,,160,160,10,18,8,10,0.4,0.5
2025-05-12T1800,3188A,115.6683,37.7217,衡水市,市城管局,臭氧1小时,65,78,63,44,25,172,,161,161,10,18,2,7,0.3,0.4
2025-05-12T1800,3459A,115.5989,37.5491,衡水市,地表水厂,,,117,74,31,24,169,,156,156,,29,7,8,0.4,0.5
2025-05-12T1800,2456A,112.5003,26.9167,衡阳市,原169医院,臭氧1小时,67,43,76,35,51,173,,167,167,8,30,10,9,0.5,0.7
2025-05-12T1800,2457A,112.6194,26.9258,衡阳市,衡阳化工总厂,,50,48,76,23,52,158,,146,146,8,19,8,11,0.4,0.6
2025-05-12T1800,2458A,112.6211,26.8956,衡阳市,珠晖区环保局,臭氧1小时,58,42,66,29,46,166,,156,156,11,20,10,14,0.5,0.7
2025-05-12T1800,2459A,112.6197,26.8733,衡阳市,市委党校,,49,43,72,27,49,156,,144,144,5,19,9,17,0.4,0.6
2025-05-12T1800,2460A,112.6006,26.8919,衡阳市,市监测站,,48,40,75,26,57,152,,144,144,8,22,11,17,0.3,0.6
2025-05-12T1800,2461A,112.5664,26.9056,衡阳市,真空机电公司,,49,41,79,30,49,154,,148,148,8,24,6,9,0.3,1.1
2025-05-12T1800,3399A,112.6703,26.882,衡阳市,师范学院,臭氧1小时,52,32,76,31,56,161,,146,146,9,16,10,12,0.6,0.7
2025-05-12T1800,2608A,103.3772,23.3993,红河哈尼族彝族自治州,污水处理厂,,31,23,22,17,15,98,,108,108,6,7,5,6,0.4,0.4
2025-05-12T1800,2609A,103.3861,23.35,红河哈尼族彝族自治州,监测站,,36,36,34,21,18,100,,111,111,8,6,9,11,0.4,0.4
2025-05-12T1800,3038A,103.3758,23.368,红河哈尼族彝族自治州,州图书馆,,29,15,15,3,13,91,,98,98,6,7,4,9,0.2,0.2
2025-05-12T1800,1090A,111.6507,40.7517,呼和浩特市,呼市一监,颗粒物(PM10),74,97,84,23,31,122,,106,106,11,30,14,12,0.5,0.6
2025-05-12T1800,1091A,111.6572,40.8033,呼和浩特市,小召,颗粒物(PM10),71,92,75,19,23,122,,114,114,20,45,10,11,0.5,0.6
2025-05-12T1800,1094A,111.7516,40.8369,呼和浩特市,如意水处理厂,颗粒物(PM10),57,64,64,22,27,124,,110,110,13,42,9,9,0.5,0.5
2025-05-12T1800,1095A,111.7276,40.8062,呼和浩特市,二十九中,颗粒物(PM10),68,86,69,30,31,124,,108,108,10,36,8,8,0.6,0.6
2025-05-12T1800,1096A,111.5512,40.7866,呼和浩特市,工大金川校区,颗粒物(PM10),65,79,59,20,23,126,,118,118,14,42,9,10,0.5,0.5
2025-05-12T1800,1097A,111.717,40.7612,呼和浩特市,化肥厂生活区,颗粒物(PM10),65,80,86,33,33,118,,108,108,28,43,11,9,0.5,0.5
2025-05-12T1800,3698A,111.5968,40.8178,呼和浩特市,红旗小学,颗粒物(PM10),64,78,65,19,23,128,,118,118,19,44,8,7,0.6,0.6
2025-05-12T1800,3699A,111.6518,40.8389,呼和浩特市,海东办,颗粒物(PM10),62,73,63,25,26,117,,109,109,13,44,10,10,0.5,0.5
2025-05-12T1800,2192A,119.7594,49.2261,呼伦贝尔市,区环保局,细颗粒物(PM2.5),72,63,89,52,77,131,,126,126,17,29,5,5,0.5,0.6
2025-05-12T1800,3061A,119.7512,49.1577,呼伦贝尔市,国华电力东,细颗粒物(PM2.5),54,53,84,38,60,122,,125,125,9,14,6,5,0.5,0.5
2025-05-12T1800,1250A,120.0751,30.8669,湖州市,城西水厂,臭氧1小时,58,32,42,18,26,166,,163,163,14,49,7,8,0.4,0.5
2025-05-12T1800,2873A,120.0830,30.8929,湖州市,仁皇山新区,,48,32,47,20,29,153,,154,154,18,46,6,5,0.4,0.6
2025-05-12T1800,2907A,120.1844,30.8596,湖州市,吴兴区站,臭氧1小时,72,35,47,24,29,177,,165,165,17,37,6,8,0.4,0.4
2025-05-12T1800,3562A,120.4148,30.8538,湖州市,南浔区站,臭氧1小时,80,38,46,22,29,184,,174,174,16,23,4,5,0.3,0.4
2025-05-12T1800,1607A,120.9049,40.7211,葫芦岛市,龙港区,臭氧1小时,87,71,66,24,54,189,,182,182,17,14,10,9,0.6,0.6
2025-05-12T1800,1608A,120.8392,40.7514,葫芦岛市,化工街,臭氧1小时,88,63,84,31,57,190,,175,175,18,26,13,12,0.6,0.7
2025-05-12T1800,1609A,120.8341,40.7073,葫芦岛市,新区,臭氧1小时,87,60,63,28,61,189,,178,178,18,19,8,8,0.7,0.8
2025-05-12T1800,1610A,120.8695,40.7677,葫芦岛市,东城区,臭氧1小时,77,56,60,30,75,181,,169,169,19,27,7,6,0.7,0.8
2025-05-12T1800,2482A,109.5981,27.5721,怀化市,林科所,,36,36,54,3,28,115,,112,112,6,10,14,5,0.3,0.5
2025-05-12T1800,2483A,109.9453,27.5444,怀化市,河西地税局,,35,33,46,20,29,109,,109,109,7,13,8,6,0.6,0.6
2025-05-12T1800,2484A,109.9781,27.5342,怀化市,市四医院,,,60,63,43,34,,,114,114,10,18,5,5,0.2,0.3
2025-05-12T1800,2485A,109.9972,27.5578,怀化市,监测楼,,47,47,58,25,30,115,,111,111,16,16,7,14,0.2,0.3
2025-05-12T1800,2486A,110.0394,27.583,怀化市,市委党校,,43,43,53,15,34,124,,114,114,6,15,3,3,0.4,0.5
2025-05-12T1800,1210A,119.036,33.5981,淮安市,钵池山,臭氧1小时,78,44,45,22,26,182,,170,170,12,15,10,9,0.4,0.4
2025-05-12T1800,1211A,119.007,33.575,淮安市,北京南路,臭氧1小时,82,51,50,23,26,185,,169,169,13,21,9,12,0.4,0.5
2025-05-12T1800,1212A,118.989,33.6067,淮安市,市监测站,臭氧1小时,65,46,47,24,22,172,,,,19,13,13,10,0.6,0.3
2025-05-12T1800,1213A,119.135,33.5039,淮安市,楚州区监测站,,49,49,58,24,29,155,,160,160,20,25,8,8,0.4,0.4
2025-05-12T1800,3426A,118.8755,33.2894,淮安市,新华书店,,49,37,44,19,26,156,,161,161,18,19,9,11,0.4,0.4
2025-05-12T1800,4206A,119.0288,33.6319,淮安市,承德北路606号,臭氧1小时,78,51,57,24,28,182,,164,164,12,20,10,14,0.4,1
2025-05-12T1800,2282A,116.8004,33.975,淮北市,监测站,臭氧1小时,64,60,61,21,26,171,,160,160,10,17,7,8,0.6,0.7
2025-05-12T1800,2283A,116.8091,33.9007,淮北市,烈山区政府,臭氧1小时,62,40,53,16,25,169,,158,158,10,21,4,7,0.5,0.7
2025-05-12T1800,3330A,116.8873,33.9836,淮北市,杜集区检察院,,,52,59,,25,164,,156,156,,17,7,9,0.5,0.6
2025-05-12T1800,4017A,116.7923,33.9535,淮北市,市博物馆,臭氧1小时,57,51,56,20,26,165,,158,158,13,17,6,8,0.4,0.6
2025-05-12T1800,2277A,116.8305,32.7727,淮南市,潘集区政府,颗粒物(PM10),53,56,58,16,26,156,,148,148,12,17,4,5,0.3,0.3
2025-05-12T1800,2279A,116.8569,32.5951,淮南市,谢家集区政府,,48,22,44,17,24,152,,155,155,15,15,4,4,0.1,0.2
2025-05-12T1800,2280A,116.8281,32.633,淮南市,八公山区政府,,48,47,54,18,27,153,,153,153,11,12,5,6,0.2,0.3
2025-05-12T1800,2281A,116.6325,32.6201,淮南市,焦岗湖风景区管理处,,,,,,,,,,,,,,,,
2025-05-12T1800,2894A,117.0566,32.6531,淮南市,经济技术开发区消防队,,47,39,48,19,27,148,,150,150,12,10,5,5,0.2,0.3
2025-05-12T1800,3329A,117.0108,32.5893,淮南市,山南新区,臭氧1小时,53,39,49,9,20,162,,158,158,11,11,7,8,0.2,0.3
2025-05-12T1800,4209A,117.0031,32.6445,淮南市,国庆中路369号,,48,37,42,26,23,151,,148,148,8,8,8,9,0.3,0.4
2025-05-12T1800,2446A,114.9028,30.4742,黄冈市,职工中心,,,,,,,,,,,,,,,,
2025-05-12T1800,2929A,114.8858,30.4519,黄冈市,红卫路,,48,26,50,16,30,151,,162,162,15,18,7,13,0.4,0.6
2025-05-12T1800,3398A,114.9136,30.4445,黄冈市,市林业局,,46,31,54,13,31,145,,159,159,21,26,8,18,0.9,1
2025-05-12T1800,2672A,102.0199,35.5102,黄南藏族自治州,同仁县隆务镇,颗粒物(PM10),53,56,34,13,13,119,,118,118,9,4,6,5,0.2,0.1
2025-05-12T1800,2295A,118.2903,29.6963,黄山市,延安路89号,,42,23,34,17,23,134,,139,139,4,8,6,6,0.2,0.3
2025-05-12T1800,2297A,118.1371,30.2756,黄山市,黄山区政府5号楼,,41,,29,25,20,131,,134,134,4,5,5,4,0.3,0.4
2025-05-12T1800,4210A,118.3354,29.7203,黄山市,滨江东路7-2号,,42,27,38,3,21,134,,141,141,5,8,5,5,0.3,0.4
2025-05-12T1800,2423A,115.0601,30.2313,黄石市,沈家营,,45,18,42,8,24,144,,154,154,7,27,6,8,0.4,0.6
2025-05-12T1800,2426A,114.8988,30.2019,黄石市,铁山,,41,20,44,8,17,130,,129,129,8,11,13,15,0.6,0.5
2025-05-12T1800,2427A,115.0307,30.2092,黄石市,团城山,,45,17,46,3,21,143,,146,146,6,24,7,9,0.4,0.6
2025-05-12T1800,3149A,115.0235,30.1578,黄石市,笔架山北路,,43,19,43,10,26,135,,146,144,4,19,5,11,0.4,0.7
2025-05-12T1800,4185A,115.0780,30.21118,黄石市,磁湖东路29号,,46,39,54,13,31,146,,152,152,6,32,7,8,0.5,0.7
2025-05-12T1800,1392A,114.4183,23.0528,惠州市,河南岸金山湖子站,,50,33,38,25,22,157,,132,132,13,21,10,10,0.4,0.5
2025-05-12T1800,1393A,114.4053,23.0822,惠州市,下埔横江三路子站,,50,31,40,16,20,158,,133,133,10,25,9,10,0.3,0.4
2025-05-12T1800,1394A,114.4103,23.1142,惠州市,江北云山西路子站,臭氧1小时,64,24,37,15,21,171,,149,149,13,24,11,13,0.4,0.5
2025-05-12T1800,1395A,114.4645,22.7833,惠州市,惠阳区承修路船湖子站,,46,39,39,22,20,147,,145,145,12,21,8,9,0.5,0.6
2025-05-12T1800,1396A,114.5317,22.7422,惠州市,大亚湾管委会子站,,,38,34,22,17,145,,126,126,,26,5,9,0.4,0.4
2025-05-12T1800,3314A,114.4338,22.8134,惠州市,惠阳秋长,,48,36,36,22,21,151,,153,153,13,21,7,10,0.3,0.3
2025-05-12T1800,3452A,114.6517,22.775,惠州市,大亚湾霞涌,,48,40,27,16,13,151,,128,128,11,13,8,9,0.7,0.6
2025-05-12T1800,2240A,130.9762,45.3001,鸡西市,环保局,,40,40,48,23,28,127,,147,147,18,22,7,7,0.5,0.6
2025-05-12T1800,2243A,130.9429,45.3039,鸡西市,第一中学,,45,45,38,18,25,123,,141,139,12,9,7,7,0.6,0.4
2025-05-12T1800,3707A,131.0207,45.3073,鸡西市,欧美日汽修厂,,,,,,,,,,,,33,,7,,0.7
2025-05-12T1800,3709A,130.9967,45.3106,鸡西市,市政设施管理处,颗粒物(PM10),51,52,71,26,34,113,,138,138,20,31,8,8,0.5,0.6
2025-05-12T1800,2367A,114.9754,27.0803,吉安市,红声器材厂,,46,25,40,13,24,145,,142,142,6,12,12,14,0.4,0.5
2025-05-12T1800,2368A,114.9658,27.0999,吉安市,市森林工业局,,,28,42,14,24,140,,143,143,6,14,,12,0.2,0.3
2025-05-12T1800,2369A,114.99,27.1312,吉安市,市环境监测站,细颗粒物(PM2.5),52,,34,36,26,146,,148,148,1,8,11,15,0.6,0.4
2025-05-12T1800,2370A,115.0093,27.0968,吉安市,青原区法院,,48,32,40,14,24,151,,151,151,6,13,12,13,0.3,0.3
2025-05-12T1800,1772A,126.54,43.8622,吉林市,哈达湾,,48,38,47,21,27,151,,160,160,15,15,7,7,0.5,0.5
2025-05-12T1800,1773A,126.5844,43.8358,吉林市,东局子,,,47,43,29,26,137,,152,152,28,18,8,7,,0.5
2025-05-12T1800,1774A,126.5052,43.8245,吉林市,电力学院,,46,43,53,24,33,145,,158,158,16,20,6,6,0.6,0.6
2025-05-12T1800,1775A,126.6133,43.8972,吉林市,江北,颗粒物(PM10),54,58,76,28,24,128,,151,151,29,14,10,7,0.6,0.5
2025-05-12T1800,1776A,126.555,43.8306,吉林市,江南公园,,,40,42,27,29,139,,154,154,18,13,,6,0.5,0.4
2025-05-12T1800,1778A,126.7061,43.7133,吉林市,丰满,,,,,,,,,,,,,,,,
2025-05-12T1800,2868A,126.4739,43.953,吉林市,九站,颗粒物(PM10),52,54,48,26,26,127,,161,160,33,14,8,8,0.5,0.4
2025-05-12T1800,1299A,116.9862,36.6114,济南市,科干所,臭氧1小时,68,61,42,24,16,174,,164,164,11,13,5,5,0.1,0.1
2025-05-12T1800,1300A,116.9376,36.665,济南市,农科所,,,,53,,25,162,,157,157,14,16,,8,0.3,0.3
2025-05-12T1800,1301A,117.1265,36.6734,济南市,开发区,,,56,40,27,15,167,,159,159,15,8,9,9,,0.4
2025-05-12T1800,1303A,117.0624,36.6868,济南市,省种子仓库,颗粒物(PM10),67,83,58,17,13,162,,158,158,16,11,5,6,0.3,0.3
2025-05-12T1800,1304A,116.9489,36.6447,济南市,机床二厂,颗粒物(PM10),74,98,62,22,16,161,,154,154,13,18,9,10,0.4,0.4
2025-05-12T1800,1305A,117.0495,36.663,济南市,市监测站,臭氧1小时,57,56,44,15,14,165,,157,157,12,9,8,9,0.4,0.3
2025-05-12T1800,1306A,116.7675,36.5484,济南市,长清党校,臭氧1小时,67,73,52,34,26,173,,162,162,12,14,7,8,0.6,0.6
2025-05-12T1800,1616A,117.6795,36.229,济南市,技术学院,颗粒物(PM10),58,66,56,22,26,163,,159,159,6,14,10,12,0.4,0.6
2025-05-12T1800,1961A,117.532,36.6868,济南市,东山小学,颗粒物(PM10),61,71,58,22,20,167,,161,161,9,10,7,8,0.3,0.3
2025-05-12T1800,3059A,117.7161,36.2049,济南市,泰兴公司,臭氧1小时,59,51,49,17,24,167,,156,156,20,46,7,7,0.2,0.4
2025-05-12T1800,3064A,117.6867,36.2171,济南市,莱芜战役纪念馆,颗粒物(PM10),60,70,55,22,20,155,,154,154,24,35,7,8,0.2,0.4
2025-05-12T1800,3494A,117.1673,36.9782,济南市,济阳区政府,"颗粒物(PM10),细颗粒物(PM2.5)",70,90,71,51,20,171,,169,169,19,31,6,7,0.3,0.3
2025-05-12T1800,3495A,117.1171,36.63,济南市,锦屏中学,颗粒物(PM10),70,90,42,17,10,163,,156,156,14,12,7,7,0.3,0.3
2025-05-12T1800,3682A,116.9814,36.6819,济南市,济南四建,臭氧1小时,69,83,51,24,18,175,,166,166,12,13,5,6,0.4,0.4
2025-05-12T1800,1653A,116.6251,35.4302,济宁市,火炬城,,49,47,51,29,24,154,,145,145,5,7,7,7,0.3,0.3
2025-05-12T1800,1655A,116.5491,35.4042,济宁市,电化厂,,47,40,50,22,24,149,,139,139,3,12,2,3,0.3,0.3
2025-05-12T1800,3500A,116.5814,35.3707,济宁市,北湖一中,颗粒物(PM10),51,52,57,26,28,157,,143,143,5,10,4,6,0.3,0.3
2025-05-12T1800,3501A,116.8249,35.5593,济宁市,服务中心,,,70,58,14,17,155,,141,141,12,17,,3,0.3,0.3
2025-05-12T1800,3678A,116.5907,35.4054,济宁市,市第七中学,颗粒物(PM10),73,96,55,9,17,155,,144,144,14,9,6,6,0.4,0.3
2025-05-12T1800,2255A,130.2751,46.8028,佳木斯市,佳纺,细颗粒物(PM2.5),94,96,79,70,54,88,,116,114,28,16,8,8,0.5,0.5
2025-05-12T1800,2256A,130.3995,46.8307,佳木斯市,发电厂,细颗粒物(PM2.5),95,79,67,71,55,91,,120,115,20,12,6,5,0.5,0.4
2025-05-12T1800,2257A,130.3258,46.7975,佳木斯市,环保局,细颗粒物(PM2.5),95,93,69,71,52,82,,110,108,37,19,8,8,0.6,0.5
2025-05-12T1800,2258A,130.3648,46.8032,佳木斯市,十一中,细颗粒物(PM2.5),95,78,64,71,56,93,,116,115,24,16,6,7,0.6,0.5
2025-05-12T1800,2259A,130.3794,46.7588,佳木斯市,四丰,细颗粒物(PM2.5),95,92,48,71,38,75,,101,98,36,18,1,1,0.6,0.4
2025-05-12T1800,1252A,120.7436,30.778,嘉兴市,清河小学,臭氧1小时,54,40,56,22,32,163,,154,154,16,40,6,6,0.5,0.7
2025-05-12T1800,1253A,120.726,30.7478,嘉兴市,嘉兴学院,臭氧1小时,65,43,53,20,32,172,,163,163,16,48,7,7,0.3,0.4
2025-05-12T1800,2872A,120.7846,30.7525,嘉兴市,南湖区残联,臭氧1小时,83,36,54,23,32,186,,177,177,16,28,8,7,0.2,0.3
2025-05-12T1800,3407A,120.6916,30.7739,嘉兴市,秀洲住建,臭氧1小时,83,48,68,27,34,186,,174,174,10,37,8,8,0.5,0.6
2025-05-12T1800,1945A,98.2908,39.7711,嘉峪关市,气象局,细颗粒物(PM2.5),52,48,44,36,22,125,,122,122,5,11,6,21,0.3,0.4
2025-05-12T1800,2884A,98.2672,39.7978,嘉峪关市,酒钢宾馆,颗粒物(PM10),58,66,52,19,22,113,,109,109,5,10,11,26,0.3,0.4
2025-05-12T1800,3248A,98.2643,39.7724,嘉峪关市,雄关区,,44,44,42,11,11,122,,119,119,7,14,10,13,0.2,0.3
2025-05-12T1800,1383A,113.1064,22.6058,江门市,北街,臭氧1小时,130,43,52,39,30,259,,210,210,17,39,3,4,0.4,0.5
2025-05-12T1800,1384A,113.0731,22.5835,江门市,西区,臭氧1小时,130,42,51,23,23,260,,210,210,19,39,10,10,0.5,0.6
2025-05-12T1800,1385A,113.0219,22.5311,江门市,圭峰西,臭氧1小时,108,52,42,25,24,216,,184,184,17,26,7,6,0.4,0.5
2025-05-12T1800,1386A,113.0828,22.5947,江门市,东湖,,,,50,,27,,,81,,,45,,10,,0.7
2025-05-12T1800,3311A,113.1075,22.5647,江门市,江海富民,臭氧1小时,132,40,47,30,24,263,,205,205,22,40,11,11,0.6,0.7
2025-05-12T1800,3449A,113.05,22.4667,江门市,新会银湖,臭氧1小时,139,62,57,32,31,278,,225,225,21,36,4,3,0.7,0.7
2025-05-12T1800,1830A,113.1992,35.2590,焦作市,影视城,,,,30,,4,,,,,,19,,9,,0.3
2025-05-12T1800,3169A,113.2725,35.2067,焦作市,太极体育中心,臭氧1小时,78,71,60,20,30,182,,152,152,14,19,5,12,0.1,0.2
2025-05-12T1800,3335A,113.3137,35.2641,焦作市,马村街道办,臭氧1小时,84,50,65,21,29,187,,168,168,14,24,10,13,0.2,0.4
2025-05-12T1800,3336A,113.2465,35.2373,焦作市,焦作技师学院,臭氧1小时,84,44,66,14,29,187,,166,166,10,19,6,14,0.5,0.8
2025-05-12T1800,3477A,113.1656,35.2539,焦作市,中站许衡医院,颗粒物(PM10),59,68,46,24,19,162,,162,162,18,24,10,11,0.4,0.5
2025-05-12T1800,3981A,113.2449,35.1803,焦作市,原李万街道办,臭氧1小时,93,43,54,27,25,194,,167,167,10,18,6,14,0.1,0.3
2025-05-12T1800,4264A,113.2340,35.2190,焦作市,新安路1731号,臭氧1小时,84,45,67,22,34,187,,168,168,18,28,6,16,0.5,0.7
2025-05-12T1800,1708A,116.3701,23.5345,揭阳市,新兴,颗粒物(PM10),52,54,42,23,22,152,,138,138,15,27,7,8,0.6,0.7
2025-05-12T1800,1709A,116.3264,23.5443,揭阳市,西马,颗粒物(PM10),53,55,44,22,25,156,,141,141,14,26,8,9,0.7,0.8
2025-05-12T1800,1710A,116.3611,23.5626,揭阳市,东兴,颗粒物(PM10),53,55,43,23,21,154,,137,137,10,19,5,8,0.6,0.6
2025-05-12T1800,1711A,116.4151,23.5294,揭阳市,渔湖,,50,43,46,27,25,160,,143,143,14,34,6,11,0.7,0.7
2025-05-12T1800,3320A,116.403,23.5699,揭阳市,曲溪,臭氧1小时,58,63,40,27,22,166,,152,152,18,31,7,10,0.8,0.6
2025-05-12T1800,1944A,102.1692,38.5167,金昌市,天庆家园,颗粒物(PM10),53,56,56,10,13,123,,124,124,4,5,8,7,0.7,0.6
2025-05-12T1800,4022A,102.1647,38.5371,金昌市,金川区人防中心,颗粒物(PM10),63,75,67,13,16,126,,128,127,4,6,4,4,0.5,0.4
2025-05-12T1800,4239A,102.1930,38.5319,金昌市,长春路96号,颗粒物(PM10),60,70,58,11,12,120,,122,122,2,3,8,6,0.5,0.6
2025-05-12T1800,1262A,119.647,29.077,金华市,十五中,,47,26,44,16,25,148,,152,152,9,22,3,4,0.3,0.4
2025-05-12T1800,1263A,119.686,29.1029,金华市,监测站,,45,29,43,17,27,142,,140,140,10,17,4,4,0.2,0.3
2025-05-12T1800,3659A,119.656,29.1131,金华市,气象局,臭氧1小时,55,33,47,19,26,164,,158,158,14,27,3,4,0.3,0.4
2025-05-12T1800,1767A,121.1115,41.0879,锦州市,南山,臭氧1小时,75,59,58,40,65,180,,173,173,22,19,9,9,0.6,0.8
2025-05-12T1800,1768A,121.0604,40.8428,锦州市,开发区,颗粒物(PM10),72,94,77,34,57,168,,168,168,34,32,8,7,0.7,0.7
2025-05-12T1800,1769A,121.1836,41.1119,锦州市,百股街道,臭氧1小时,72,77,62,36,52,177,,174,174,20,23,6,6,0.6,0.7
2025-05-12T1800,1770A,121.1178,41.1222,锦州市,天安街道,臭氧1小时,80,68,70,46,69,184,,178,178,21,22,9,8,0.7,0.8
2025-05-12T1800,1771A,121.1303,41.1386,锦州市,北湖公园,臭氧1小时,82,80,76,38,66,185,,172,172,20,21,10,9,0.7,0.8
2025-05-12T1800,2160A,112.85,35.5051,晋城市,自来水公司,臭氧1小时,90,45,50,14,15,192,,166,166,13,33,8,10,0.5,1
2025-05-12T1800,2161A,112.8318,35.4936,晋城市,白云商贸,臭氧1小时,90,53,55,3,11,192,,165,165,16,33,8,9,0.6,1
2025-05-12T1800,2162A,112.8508,35.4887,晋城市,市环保局,臭氧1小时,77,39,57,14,17,181,,159,159,11,32,6,8,0.1,0.7
2025-05-12T1800,2163A,112.8676,35.4897,晋城市,技术学院,,,33,44,7,12,177,,150,150,17,33,,9,,0.9
2025-05-12T1800,2165A,112.8453,35.546,晋城市,白马寺,臭氧1小时,97,35,29,13,14,197,,167,167,10,14,6,7,0.4,0.7
2025-05-12T1800,3620A,112.8271,35.4828,晋城市,泽州一中,臭氧1小时,88,23,44,9,15,190,,164,164,15,28,4,4,0.4,0.7
2025-05-12T1800,2173A,112.7249,37.7067,晋中市,南都小区,,48,48,58,17,18,147,,157,157,12,25,7,16,0.3,0.5
2025-05-12T1800,2174A,112.6991,37.6982,晋中市,榆次区政府,,48,48,61,11,16,149,,158,158,14,27,8,16,0.4,0.7
2025-05-12T1800,2865A,112.7195,37.6828,晋中市,榆次三中,颗粒物(PM10),58,66,67,9,20,153,,159,159,10,24,5,12,0.1,0.4
2025-05-12T1800,4200A,112.7478,37.6954,晋中市,迎宾街26号,颗粒物(PM10),57,63,64,7,20,149,,154,154,12,24,6,13,0.4,0.5
2025-05-12T1800,2439A,112.2014,31.0481,荆门市,竹园小学,,,86,78,38,44,169,,156,156,,15,,7,0.1,0.1
2025-05-12T1800,2440A,112.1969,30.9891,荆门市,掇刀,臭氧1小时,63,70,78,38,44,170,,153,153,6,15,3,4,0.3,0.3
2025-05-12T1800,2441A,112.2213,31.0386,荆门市,石化一小,颗粒物(PM10),61,72,71,41,43,164,,152,152,14,14,8,9,0.4,0.4
2025-05-12T1800,3012A,112.1849,31.0362,荆门市,西山林语,颗粒物(PM10),61,71,68,35,43,163,,146,146,6,10,8,9,0.4,0.5
2025-05-12T1800,3547A,112.1632,31.0138,荆门市,龙泉中学南校,颗粒物(PM10),64,78,77,40,49,161,,147,147,8,14,4,6,0.6,0.6
2025-05-12T1800,1844A,112.2494,30.3197,荆州市,市图书馆,细颗粒物(PM2.5),54,48,59,38,42,155,,142,142,16,18,7,8,0.3,0.4
2025-05-12T1800,1845A,112.2008,30.3544,荆州市,市委党校,颗粒物(PM10),56,62,62,32,43,129,,119,119,15,16,8,9,0.5,0.6
2025-05-12T1800,3194A,112.2747,30.3122,荆州市,管委会,颗粒物(PM10),52,54,57,33,40,150,,136,136,19,16,9,15,0.5,0.6
2025-05-12T1800,4268A,112.1722,30.3366,荆州市,学苑路85号,颗粒物(PM10),57,64,63,38,44,144,,134,134,12,18,4,4,0.5,0.6
2025-05-12T1800,2342A,117.3102,29.3867,景德镇市,王港中学,,,,,,,,,,,,,,,,
2025-05-12T1800,2343A,117.2117,29.2933,景德镇市,老干部活动中心,,49,37,44,18,26,156,,154,154,10,19,12,10,0.3,0.4
2025-05-12T1800,2344A,117.1894,29.2789,景德镇市,兽医站,,46,46,48,23,29,147,,145,145,8,15,7,7,0.5,0.5
2025-05-12T1800,2345A,117.1547,29.2617,景德镇市,台达陶瓷,颗粒物(PM10),54,58,60,29,33,149,,146,146,20,27,18,42,0.6,0.6
2025-05-12T1800,2346A,117.2461,29.2956,景德镇市,陶研所,,47,38,46,26,31,150,,151,151,14,13,16,9,0.2,0.4
2025-05-12T1800,1803A,115.9872,29.6815,九江市,十里,臭氧1小时,78,36,38,18,29,182,,164,164,4,22,4,2,0.5,0.5
2025-05-12T1800,1804A,115.9584,29.7046,九江市,茅山头,臭氧1小时,53,42,48,22,31,162,,154,154,10,27,6,7,0.6,0.5
2025-05-12T1800,1805A,115.9877,29.7295,九江市,西园,臭氧1小时,72,28,42,24,29,177,,166,166,16,38,6,10,0.5,0.7
2025-05-12T1800,1808A,115.9114,29.6038,九江市,综合工业园,臭氧1小时,64,46,50,28,35,171,,163,163,11,24,10,11,0.5,0.6
2025-05-12T1800,1809A,116.0721,29.7535,九江市,石化总厂,颗粒物(PM10),64,78,56,44,38,168,,159,159,18,18,7,7,0.5,0.6
2025-05-12T1800,1810A,115.9773,29.5698,九江市,庐山气象台,,50,40,42,26,23,160,,147,147,8,6,6,6,0.5,0.8
2025-05-12T1800,3190A,116.0254,29.6994,九江市,外国语学校,臭氧1小时,68,44,40,19,23,174,,153,153,9,20,10,10,0.8,0.8
2025-05-12T1800,4253A,116.0102,29.6594,九江市,莲花大道8号,臭氧1小时,68,25,32,25,22,174,,154,154,3,7,6,6,0.4,0.4
2025-05-12T1800,4240A,98.4958,39.7339,酒泉市,玉门东路5号,颗粒物(PM10),57,63,49,25,23,115,,114,114,3,6,8,10,0.2,0.3
2025-05-12T1800,4241A,98.5099,39.7506,酒泉市,北大街108号,颗粒物(PM10),60,70,48,26,21,115,,114,114,6,10,9,11,0.3,0.3
2025-05-12T1800,2698A,76.0072,39.4467,喀什地区,巡警大队,颗粒物(PM10),52,54,91,13,11,123,,114,114,6,8,3,3,0.1,0.2
2025-05-12T1800,2699A,75.9755,39.4694,喀什地区,吾办,,,,82,,61,126,,118,118,10,7,5,5,0.4,0.1
2025-05-12T1800,4027A,75.9483,39.4689,喀什地区,老干局,颗粒物(PM10),51,51,60,6,60,126,,122,119,7,6,5,3,0.7,0.6
2025-05-12T1800,1824A,114.3389,34.7781,开封市,肿瘤医院,颗粒物(PM10),69,88,79,22,25,156,,162,162,7,12,8,10,0.4,0.4
2025-05-12T1800,1826A,114.2885,34.7965,开封市,世纪星幼儿园,细颗粒物(PM2.5),125,,89,95,43,168,,174,174,,21,7,10,0.4,0.5
2025-05-12T1800,3147A,114.3438,34.8106,开封市,龙亭公园,,,80,80,,41,167,,172,172,10,16,2,4,0.4,0.4
2025-05-12T1800,3210A,114.3644,34.7964,开封市,汴京公园,颗粒物(PM10),80,110,80,29,27,154,,159,159,10,17,13,14,0.5,0.5
2025-05-12T1800,3473A,114.2485,34.8306,开封市,技师学院,颗粒物(PM10),86,121,79,7,39,163,,176,176,6,15,4,6,0.5,0.6
2025-05-12T1800,3592A,114.4644,34.7556,开封市,祥符区生态环境局,,49,37,39,34,30,154,,157,157,17,18,7,8,0.4,0.5
2025-05-12T1800,1951A,84.895,45.6094,克拉玛依市,长征新村,,31,15,23,3,6,99,,95,95,4,4,8,8,0.1,0.1
2025-05-12T1800,1952A,84.8988,45.5893,克拉玛依市,南林小区,,33,,13,10,8,104,,101,100,2,2,4,5,0.1,0.1
2025-05-12T1800,1954A,84.905,44.3396,克拉玛依市,独山子区,,36,14,35,3,9,114,,105,105,5,5,7,8,0.4,0.4
2025-05-12T1800,1955A,85.6979,46.098,克拉玛依市,乌尔禾区商贸楼,,33,17,19,10,7,103,,99,99,2,2,9,10,0.3,0.3
2025-05-12T1800,3612A,85.1045,45.6899,克拉玛依市,白碱滩区新站,,33,19,28,10,20,104,,100,100,2,2,11,11,0.4,0.4
2025-05-12T1800,2697A,76.1454,39.7142,克孜勒苏柯尔克孜自治州,市人民政府,,45,30,49,8,10,142,,131,131,6,6,2,4,0.7,0.4
2025-05-12T1800,3665A,76.1658,39.7157,克孜勒苏柯尔克孜自治州,克州文化中心,,45,20,38,3,15,144,,131,131,2,3,4,7,0.1,0.1
2025-05-12T1800,1450A,102.8204,24.8886,昆明市,呈贡新区,,45,27,33,14,20,143,,136,136,10,22,7,7,0.4,0.5
2025-05-12T1800,1451A,102.6251,24.9608,昆明市,西山森林公园,,,,,,,,,,,,,,,,
2025-05-12T1800,1452A,102.7252,25.0902,昆明市,龙泉镇,,41,27,32,10,19,130,,136,136,11,23,9,10,0.3,0.4
2025-05-12T1800,1453A,102.7266,25.0375,昆明市,东风东路,,41,22,32,16,26,131,,137,136,14,17,8,11,0.4,0.5
2025-05-12T1800,1454A,102.6742,25.0669,昆明市,金鼎山,,40,37,34,12,23,125,,134,134,14,19,1,4,0.5,0.6
2025-05-12T1800,1455A,102.6644,25.0401,昆明市,碧鸡广场,,37,17,35,10,22,116,,123,122,17,27,6,8,0.5,0.5
2025-05-12T1800,3179A,102.7494,25.0119,昆明市,官渡区博物馆,,43,34,31,12,18,136,,138,138,10,12,6,9,0.4,0.5
2025-05-12T1800,3375A,102.8017,24.8336,昆明市,青年创业园,,46,19,23,10,12,147,,138,138,8,14,8,10,0.2,0.3
2025-05-12T1800,3550A,102.7997,24.9786,昆明市,昆明学院,,43,17,32,10,19,136,,134,134,11,22,5,7,0.3,0.4
2025-05-12T1800,3551A,102.5967,24.6736,昆明市,晋宁区生态环境分局,,42,,26,17,20,132,,123,123,8,15,6,5,0.7,0.6
2025-05-12T1800,3552A,102.6678,24.9856,昆明市,云天化总部,,39,12,24,7,18,124,,124,124,12,14,6,9,0.6,0.7
2025-05-12T1800,1456A,91.1319,29.6514,拉萨市,八廓街,臭氧1小时,53,7,25,3,10,162,,142,142,7,7,6,6,0.3,0.3
2025-05-12T1800,1457A,91.1221,29.6747,拉萨市,市环保局,,49,13,30,7,10,156,,139,139,7,9,4,4,0.4,0.4
2025-05-12T1800,1458A,91.0874,29.6475,拉萨市,区监测站,臭氧1小时,52,7,24,6,9,161,,141,141,11,9,6,6,0.4,0.4
2025-05-12T1800,1459A,91.1774,29.6541,拉萨市,西藏大学,,49,8,26,3,10,156,,136,136,8,10,6,6,0.4,0.4
2025-05-12T1800,1460A,90.9798,29.6588,拉萨市,区辐射站,,46,12,29,7,10,147,,127,127,13,12,5,5,0.4,0.4
2025-05-12T1800,1461A,91.0834,29.6292,拉萨市,拉萨火车站,,50,7,24,3,8,159,,134,134,4,5,4,4,0.3,0.4
2025-05-12T1800,2520A,109.2203,23.7256,来宾市,来宾技工学校,臭氧1小时,65,46,52,14,24,172,,155,155,10,25,8,20,0.5,0.6
2025-05-12T1800,3535A,109.1781,23.7297,来宾市,兴宾区政府,臭氧1小时,55,34,41,21,23,164,,148,148,9,15,6,8,0.4,0.4
2025-05-12T1800,4002A,109.2416,23.7461,来宾市,中南小学,臭氧1小时,67,41,56,19,27,173,,152,152,9,30,8,14,0.4,0.5
2025-05-12T1800,1477A,104.1373,35.9454,兰州市,榆中兰大校区,,,,,,,,,,,,,,,,
2025-05-12T1800,1479A,103.831,36.0464,兰州市,铁路设计院,,45,45,62,21,33,115,,111,111,22,71,8,15,0.4,0.8
2025-05-12T1800,3241A,103.7439,36.0842,兰州市,百合公园,,44,44,67,12,24,116,,109,109,1,61,6,11,0.2,0.7
2025-05-12T1800,3242A,103.9611,35.998,兰州市,和平,,,49,59,,27,122,,115,115,6,24,6,8,0.3,0.5
2025-05-12T1800,4236A,103.6293,36.0938,兰州市,庄浪东路808号,颗粒物(PM10),54,57,59,26,26,126,,118,118,9,51,11,21,0.3,0.5
2025-05-12T1800,4237A,103.7251,36.1043,兰州市,安宁西路88号,,45,45,71,26,30,138,,131,131,1,54,7,11,0.3,0.6
2025-05-12T1800,4238A,103.8470,36.0676,兰州市,北滨河东路1号,颗粒物(PM10),51,51,72,16,25,134,,123,123,8,59,8,14,0.4,0.8
2025-05-12T1800,3245A,103.6633,36.533,兰州新区,新区管委会,,44,40,39,23,23,139,,137,137,4,12,12,21,0.3,0.3
2025-05-12T1800,3246A,103.6975,36.4789,兰州新区,舟曲中学,,43,42,41,11,15,136,,134,134,6,15,5,12,0.4,0.5
2025-05-12T1800,1067A,116.6708,39.5111,廊坊市,药材公司,臭氧1小时,110,93,90,44,52,219,,176,176,21,32,5,7,0.4,0.5
2025-05-12T1800,1068A,116.7214,39.5589,廊坊市,开发区,臭氧1小时,111,96,91,39,43,222,,180,180,19,53,5,4,0.4,0.4
2025-05-12T1800,1070A,116.7244,39.5269,廊坊市,北华航天学院,臭氧1小时,111,99,102,50,54,222,,175,175,18,44,7,8,0.5,0.5
2025-05-12T1800,2919A,116.7022,39.5453,廊坊市,河北工业大学,臭氧1小时,114,118,96,45,48,228,,180,180,16,36,7,8,0.5,0.5
2025-05-12T1800,2535A,103.7723,29.5462,乐山市,花湖湾,臭氧1小时,110,56,95,46,72,219,,192,192,8,25,5,10,0.6,1.1
2025-05-12T1800,2536A,103.7627,29.5844,乐山市,牛耳桥,臭氧1小时,103,51,115,38,95,205,,182,182,15,37,9,10,0.7,1
2025-05-12T1800,2537A,103.7508,29.6006,乐山市,市第三水厂,臭氧1小时,104,64,104,35,80,207,,177,177,13,37,7,8,0.8,1
2025-05-12T1800,2538A,103.7571,29.5664,乐山市,市监测站,臭氧1小时,104,59,93,45,65,208,,186,186,9,28,9,12,0.8,1.2
2025-05-12T1800,3361A,103.7311,29.5628,乐山市,理工大学,细颗粒物(PM2.5),58,59,88,41,66,86,,155,155,12,31,7,9,0.8,1
2025-05-12T1800,2598A,100.2143,26.8576,丽江市,西南郊,,,,20,,13,,,105,,,9,,5,,0.9
2025-05-12T1800,2599A,100.2497,26.8802,丽江市,丽江古城,,38,28,26,26,20,109,,114,114,15,15,8,9,0.6,0.6
2025-05-12T1800,2600A,100.2203,26.8906,丽江市,市中心,,35,19,21,16,18,109,,113,113,19,15,8,8,0.7,0.6
2025-05-12T1800,1267A,119.914,28.4514,丽水市,监测站大楼,,42,36,36,19,19,133,,131,131,11,19,3,3,0.1,0.2
2025-05-12T1800,1268A,119.93,28.4586,丽水市,莲都小学,,46,46,38,16,23,140,,135,135,10,16,4,4,0.2,0.2
2025-05-12T1800,1269A,119.879,28.4231,丽水市,余庄前,,44,26,34,15,22,138,,140,140,8,14,3,4,0.3,0.3
2025-05-12T1800,1173A,119.176,34.5885,连云港市,市环境监测站,臭氧1小时,65,51,53,17,25,172,,161,161,13,15,6,7,0.4,0.5
2025-05-12T1800,3000A,119.3581,34.6972,连云港市,德源药业,,,,,,,,,,,,,,,,
2025-05-12T1800,3007A,119.178,34.844,连云港市,新城一中,颗粒物(PM10),55,60,60,26,32,160,,156,156,15,19,7,8,0.4,0.5
2025-05-12T1800,3008A,119.3608,34.7519,连云港市,胡沟管理处,臭氧1小时,65,34,44,14,20,172,,156,156,14,19,8,9,0.6,0.6
2025-05-12T1800,3009A,119.1478,34.5911,连云港市,矿山设计院,臭氧1小时,67,48,56,17,25,173,,157,157,14,16,6,8,0.4,0.4
2025-05-12T1800,3434A,119.2413,34.6539,连云港市,工贸学校,臭氧1小时,67,51,49,22,27,173,,164,164,14,15,8,9,0.4,0.4
2025-05-12T1800,3664A,119.4172,34.7341,连云港市,连云街道,臭氧1小时,79,56,48,22,21,183,,166,166,11,10,8,8,0.4,0.5
2025-05-12T1800,2571A,102.3431,27.8099,凉山彝族自治州,青龙寺,,41,16,27,10,9,129,,126,126,2,11,4,7,0.4,0.7
2025-05-12T1800,2572A,102.2721,27.8415,凉山彝族自治州,邛海宾馆,,44,44,43,20,21,124,,116,116,12,22,10,11,0.6,0.9
2025-05-12T1800,2573A,102.2625,27.898,凉山彝族自治州,西昌市政府,,39,35,37,24,23,124,,118,118,8,12,14,13,0.8,0.8
2025-05-12T1800,2574A,102.2685,27.8851,凉山彝族自治州,凉山州政府,,39,36,38,20,20,124,,117,117,9,17,11,10,1.1,1.2
2025-05-12T1800,4229A,102.2342,27.8859,凉山彝族自治州,凯乐南路30号,,44,44,49,25,26,110,,100,100,10,25,9,10,1.0,1.2
2025-05-12T1800,2212A,123.2,41.1953,辽阳市,宏伟区,臭氧1小时,73,44,52,39,75,178,,170,170,10,10,8,9,0.5,0.6
2025-05-12T1800,2213A,123.1683,41.2495,辽阳市,新华园,臭氧1小时,54,47,56,30,46,163,,154,154,9,12,6,9,0.5,0.6
2025-05-12T1800,2214A,123.2354,41.2639,辽阳市,滨河路,臭氧1小时,52,46,53,28,36,161,,148,148,17,18,9,9,0.4,0.5
2025-05-12T1800,2215A,123.149,41.2991,辽阳市,铁西工业园,细颗粒物(PM2.5),78,61,67,57,51,158,,148,148,7,11,6,8,0.5,0.6
2025-05-12T1800,2227A,125.1358,42.8845,辽源市,环保局,,,,54,,31,,,110,,,35,,7,,0.8
2025-05-12T1800,3239A,125.0764,42.9078,辽源市,银鹰制药,臭氧1小时,55,45,50,20,28,164,,182,182,15,29,2,3,0.4,0.5
2025-05-12T1800,1625A,115.9848,36.4372,聊城市,区政府,颗粒物(PM10),65,80,66,20,21,148,,142,142,8,14,6,8,0.6,0.6
2025-05-12T1800,2878A,116.0072,36.4343,聊城市,聊大东校,颗粒物(PM10),68,85,68,27,28,152,,154,154,14,14,7,8,0.4,0.3
2025-05-12T1800,3200A,115.9819,36.4978,聊城市,监控中心,颗粒物(PM10),67,83,65,24,20,159,,158,158,11,16,8,10,0.6,0.5
2025-05-12T1800,3513A,116.0445,36.4361,聊城市,九州社区,臭氧1小时,60,62,58,22,19,168,,168,168,9,15,3,6,0.4,0.4
2025-05-12T1800,4018A,116.0567,36.4608,聊城市,星美广场,颗粒物(PM10),57,63,56,7,16,157,,158,158,10,13,9,10,0.6,0.5
2025-05-12T1800,2632A,94.3681,29.6376,林芝市,林芝监测站,,42,10,18,3,9,132,,109,109,6,7,5,5,0.1,0.1
2025-05-12T1800,2633A,94.3616,29.6616,林芝市,林芝人民医院,,40,20,21,3,9,127,,105,105,2,3,5,5,0.2,0.2
2025-05-12T1800,2603A,100.0781,23.8982,临沧市,市环保局,细颗粒物(PM2.5),62,44,30,44,31,84,,86,86,12,9,7,7,0.7,0.6
2025-05-12T1800,2604A,100.0894,23.8822,临沧市,市气象局,,42,37,27,29,22,90,,95,95,11,12,8,8,0.7,0.6
2025-05-12T1800,1733A,111.5531,36.0783,临汾市,临钢医院,臭氧1小时,62,68,51,16,13,169,,155,155,15,27,7,7,0.6,0.7
2025-05-12T1800,1734A,111.5028,36.0714,临汾市,技工学校,臭氧1小时,67,61,49,30,24,173,,171,171,14,25,11,10,0.7,0.7
2025-05-12T1800,1736A,111.5018,36.0855,临汾市,市委,臭氧1小时,67,66,55,18,16,173,,164,164,18,28,12,10,0.7,0.7
2025-05-12T1800,3018A,111.505,36.1014,临汾市,唐尧大酒店,"颗粒物(PM10),臭氧1小时",60,69,61,19,16,168,,157,157,14,27,8,6,0.7,0.7
2025-05-12T1800,4244A,111.4879,36.0530,临汾市,启星学校,臭氧1小时,58,64,52,25,22,166,,152,152,17,28,11,9,0.7,0.8
2025-05-12T1800,4271A,103.2464,35.6123,临夏回族自治州,滨河东路1号,细颗粒物(PM2.5),78,,70,57,41,124,,121,121,7,29,11,9,0.3,0.5
2025-05-12T1800,4310A,103.2093,35.5995,临夏回族自治州,新华街21号,,40,37,68,28,31,124,,118,118,9,26,9,10,0.3,0.5
2025-05-12T1800,1618A,118.3429,35.0532,临沂市,沂河小区,颗粒物(PM10),58,66,69,29,31,154,,152,152,10,19,7,12,0.3,0.3
2025-05-12T1800,1619A,118.295,35.0583,临沂市,鲁南制药厂,颗粒物(PM10),68,85,65,25,31,170,,168,168,12,22,7,10,0.3,0.4
2025-05-12T1800,1620A,118.2794,34.9976,临沂市,新光毛纺厂,颗粒物(PM10),54,58,66,23,30,161,,160,160,12,26,8,13,0.2,0.3
2025-05-12T1800,1621A,118.3956,35.0888,临沂市,河东保险公司,臭氧1小时,63,48,55,23,29,170,,168,168,9,15,7,10,0.3,0.3
2025-05-12T1800,3370A,118.3564,35.0215,临沂市,十里堡居委,臭氧1小时,69,68,68,39,31,175,,171,171,16,28,3,9,0.4,0.5
2025-05-12T1800,3496A,118.3604,35.1084,临沂市,南坊新区,颗粒物(PM10),57,63,63,27,26,157,,154,154,9,17,7,9,0.1,0.2
2025-05-12T1800,3860A,118.3920,35.0300,临沂市,皇山花园小区,臭氧1小时,59,63,67,22,32,167,,162,162,16,26,9,14,0.4,0.5
2025-05-12T1800,1870A,109.4856,24.3895,柳州市,柳东小学,臭氧1小时,64,39,42,21,26,171,,155,155,7,20,11,14,0.4,0.5
2025-05-12T1800,1871A,109.4157,24.3277,柳州市,环保监测站,,47,40,56,29,30,148,,145,145,11,31,5,8,0.4,0.8
2025-05-12T1800,1872A,109.389,24.341,柳州市,河西水厂,,50,40,64,15,28,159,,150,150,10,30,6,10,0.2,0.5
2025-05-12T1800,1873A,109.4311,24.2921,柳州市,市四中,,49,45,56,24,25,154,,145,145,12,34,9,12,0.3,0.7
2025-05-12T1800,1874A,109.4006,24.3631,柳州市,市九中,,46,42,59,20,27,147,,142,142,11,28,9,12,0.4,0.7
2025-05-12T1800,1875A,109.4958,24.3134,柳州市,古亭山,颗粒物(PM10),51,51,42,25,18,158,,142,142,11,32,8,9,0.6,0.8
2025-05-12T1800,3402A,109.5422,24.3996,柳州市,市二中,臭氧1小时,52,31,45,21,29,161,,155,155,11,32,15,14,0.4,0.5
2025-05-12T1800,2307A,116.5079,31.737,六安市,监测大楼,,43,37,34,28,27,135,,131,131,12,12,2,2,0.3,0.3
2025-05-12T1800,2308A,116.4738,31.7643,六安市,皖西学院,,47,41,40,20,20,148,,141,141,11,12,5,5,0.2,0.2
2025-05-12T1800,2309A,116.4996,31.7905,六安市,朝阳厂,,41,35,32,23,19,130,,127,127,16,19,4,5,0.2,0.3
2025-05-12T1800,2310A,116.5567,31.7886,六安市,开发区,颗粒物(PM10),56,61,44,20,20,135,,141,141,21,15,7,5,0.4,0.3
2025-05-12T1800,2576A,104.8,26.5892,六盘水市,窑上,,42,42,32,23,16,123,,115,115,10,7,7,6,0.4,0.4
2025-05-12T1800,2577A,104.83,26.5917,六盘水市,黄土坡,,46,40,33,20,16,146,,128,128,10,20,11,10,0.4,0.4
2025-05-12T1800,2578A,104.89,26.5939,六盘水市,水钢,,47,28,39,19,17,149,,132,132,7,10,12,10,0.5,0.4
2025-05-12T1800,2579A,104.8475,26.5894,六盘水市,民中,,45,35,33,19,17,141,,125,125,8,18,9,9,0.3,0.4
2025-05-12T1800,2580A,104.9544,26.5506,六盘水市,双水,,45,31,34,11,12,144,,125,125,12,12,11,10,0.2,0.2
2025-05-12T1800,2335A,117.0189,25.1181,龙岩市,龙岩师专,,,,,,,,,,,,,,,,
2025-05-12T1800,2336A,117.0217,25.1033,龙岩市,龙岩市监测站,臭氧1小时,58,,24,20,14,166,,152,152,12,22,5,8,0.4,0.4
2025-05-12T1800,2337A,117.0258,25.0661,龙岩市,闽西职业技术学院,臭氧1小时,52,28,34,13,17,161,,147,147,11,21,6,33,0.4,0.4
2025-05-12T1800,2338A,117.0196,25.0306,龙岩市,龙岩学院,臭氧1小时,52,25,24,16,13,161,,151,151,8,12,10,9,0.4,0.4
2025-05-12T1800,2665A,105.0822,33.3261,陇南市,汉王镇固水子,,,,,,,,,,,,,,,,
2025-05-12T1800,2885A,104.9339,33.3826,陇南市,滨江中学,颗粒物(PM10),62,74,73,35,35,132,,138,138,6,6,10,10,0.4,0.1
2025-05-12T1800,3247A,104.955,33.371,陇南市,市总工会,颗粒物(PM10),59,67,65,34,31,135,,142,142,8,6,8,8,0.4,0.4
2025-05-12T1800,2487A,111.9589,27.8901,娄底市,电视发射台,,49,49,51,19,28,136,,133,133,4,5,9,9,0.5,0.6
2025-05-12T1800,2488A,111.9975,27.725,娄底市,市监测站,,48,48,64,18,44,144,,135,135,9,29,9,15,0.5,0.7
2025-05-12T1800,2489A,112.0194,27.7314,娄底市,市委党校,,42,42,71,26,43,110,,117,117,29,17,3,5,0.3,0.5
2025-05-12T1800,2490A,111.9561,27.7569,娄底市,涟钢,颗粒物(PM10),52,54,65,24,38,121,,110,110,20,29,28,28,0.9,0.8
2025-05-12T1800,2491A,111.9892,27.7044,娄底市,市政府,,45,37,54,16,38,143,,134,134,6,10,8,8,0.5,0.6
2025-05-12T1800,1893A,105.4324,28.9634,泸州市,九狮山,,,,,,,,,,,,,,,,
2025-05-12T1800,1894A,105.4427,28.9063,泸州市,小市上码头,臭氧1小时,65,41,65,20,35,172,,160,160,15,23,7,10,0.7,0.7
2025-05-12T1800,1895A,105.4241,28.8573,泸州市,兰田宪桥,臭氧1小时,60,53,70,27,36,168,,151,151,10,25,12,11,0.6,0.6
2025-05-12T1800,1896A,105.4379,28.8833,泸州市,市环监站,,,48,91,26,49,171,,154,154,,,12,16,0.4,0.3
2025-05-12T1800,4272A,105.3689,28.7783,泸州市,纳溪中医医院,颗粒物(PM10),51,52,63,24,36,157,,139,139,22,30,10,9,0.3,0.4
2025-05-12T1800,2183A,111.1406,37.5211,吕梁市,环保局,,,,78,23,19,127,,129,129,28,32,7,3,0.4,0.5
2025-05-12T1800,2185A,111.1297,37.5136,吕梁市,自来水公司,,42,36,78,13,23,134,,128,128,24,36,9,5,0.7,0.8
2025-05-12T1800,2867A,111.1283,37.51,吕梁市,马茂庄小学,,50,50,80,26,22,120,,121,121,28,39,10,7,0.5,0.5
2025-05-12T1800,1812A,112.3931,34.6516,洛阳市,市委党校,,48,48,43,25,22,151,,150,150,13,26,12,6,0.5,0.5
2025-05-12T1800,1815A,112.494,34.6886,洛阳市,河南林校,,48,44,44,22,28,152,,154,154,8,23,8,9,0.3,0.4
2025-05-12T1800,1816A,112.3844,34.623,洛阳市,开发区管委会,颗粒物(PM10),55,60,39,29,22,154,,149,149,15,21,15,6,0.4,0.4
2025-05-12T1800,1817A,112.4267,34.6258,洛阳市,市委新办公区,,,,37,,17,,,99,,,21,,,,0.3
2025-05-12T1800,3340A,112.6005,34.6326,洛阳市,伊滨,颗粒物(PM10),74,97,59,27,28,159,,160,160,10,19,7,9,0.4,0.5
2025-05-12T1800,3341A,112.4951,34.6332,洛阳市,中移产业园,臭氧1小时,54,50,49,26,22,163,,167,167,10,19,8,8,0.4,0.3
2025-05-12T1800,3593A,112.5736,34.8993,洛阳市,吉利监测站,,48,43,34,18,14,152,,157,157,12,15,9,9,0.3,0.3
2025-05-12T1800,3635A,112.3677,34.662,洛阳市,河科大西苑校区,颗粒物(PM10),57,64,45,22,20,162,,155,155,12,27,15,9,0.4,0.4
2025-05-12T1800,3636A,112.4388,34.6781,洛阳市,英才小学,颗粒物(PM10),51,51,48,20,23,158,,161,161,23,38,8,7,0.4,0.4
2025-05-12T1800,4214A,112.4600,34.6949,洛阳市,春都路1号院,臭氧1小时,57,61,58,19,24,165,,164,164,12,30,6,8,0.3,0.5
2025-05-12T1800,2399A,114.051,33.5699,漯河市,三五一五工厂,,,65,54,,26,144,,148,148,11,11,5,5,0.5,0.4
2025-05-12T1800,2400A,114.0055,33.5698,漯河市,漯河大学,颗粒物(PM10),51,51,56,24,24,146,,150,150,13,14,7,6,0.4,0.3
2025-05-12T1800,2401A,114.0138,33.5828,漯河市,市水利局,颗粒物(PM10),58,66,54,36,27,149,,148,148,10,12,5,4,0.2,0.2
2025-05-12T1800,2402A,114.0261,33.5698,漯河市,市广电局,细颗粒物(PM2.5),57,56,45,40,34,146,,148,148,7,8,4,5,0.4,0.4
2025-05-12T1800,3478A,113.9749,33.5664,漯河市,市图书馆,颗粒物(PM10),59,67,59,26,30,144,,148,148,14,13,5,5,0.2,0.2
2025-05-12T1800,4250A,114.0892,33.5882,漯河市,韶山路11号,颗粒物(PM10),66,81,56,30,24,147,,150,150,9,10,5,5,0.3,0.3
2025-05-12T1800,1798A,118.5092,31.6837,马鞍山市,湖东路四小,臭氧1小时,75,44,56,17,29,180,,178,178,11,21,6,7,0.5,0.7
2025-05-12T1800,1799A,118.5024,31.6449,马鞍山市,开发区,臭氧1小时,75,46,57,23,33,180,,176,176,26,26,9,11,0.5,0.7
2025-05-12T1800,1802A,118.6245,31.7241,马鞍山市,濮塘,臭氧1小时,54,39,59,26,33,163,,174,174,8,18,9,11,0.6,0.9
2025-05-12T1800,3633A,118.4918,31.6809,马鞍山市,雨山,臭氧1小时,68,43,58,24,32,174,,173,173,12,26,8,10,0.5,0.7
2025-05-12T1800,4191A,118.5274,31.72227,马鞍山市,慈湖高新区,,50,48,55,24,32,159,,163,163,26,23,8,10,0.6,0.7
2025-05-12T1800,1686A,111.0286,21.4688,茂名市,电白南海,臭氧1小时,53,41,44,24,27,162,,148,148,13,15,4,11,1.0,1
2025-05-12T1800,1687A,110.9294,21.6533,茂名市,茂石化七小,,,41,43,24,21,161,,142,142,15,16,7,13,,0.3
2025-05-12T1800,1688A,110.9107,21.6687,茂名市,健康路,臭氧1小时,60,46,40,31,27,168,,150,150,11,15,4,29,0.9,0.9
2025-05-12T1800,1689A,110.8592,21.6828,茂名市,高岭,颗粒物(PM10),53,56,54,17,22,153,,139,139,12,14,6,16,0.4,0.9
2025-05-12T1800,3450A,111.01,21.5165,茂名市,电白水东,,49,31,36,14,17,156,,144,144,14,18,2,8,0.4,0.4
2025-05-12T1800,2539A,104.0308,30.0478,眉山市,黑龙滩水库,臭氧1小时,95,30,48,21,32,196,,182,182,3,11,4,3,0.5,0.7
2025-05-12T1800,2540A,103.8416,30.0874,眉山市,气象局,臭氧1小时,92,58,106,24,64,193,,183,183,12,40,1,4,0.3,0.6
2025-05-12T1800,3137A,103.8578,30.0744,眉山市,市委党校,臭氧1小时,79,46,97,27,66,183,,174,174,9,43,11,12,0.3,0.6
2025-05-12T1800,3148A,103.8291,30.0564,眉山市,区人社局,臭氧1小时,89,40,72,27,53,191,,181,181,17,50,13,15,0.4,0.6
2025-05-12T1800,1690A,116.1231,24.3284,梅州市,梅江月梅,,45,24,24,19,13,141,,126,126,7,16,6,6,0.6,0.7
2025-05-12T1800,1691A,116.0797,24.2719,梅州市,梅县新城,,46,27,26,26,14,145,,132,132,12,19,6,7,0.6,0.7
2025-05-12T1800,1692A,116.1248,24.2654,梅州市,环境监控中心,,45,37,25,16,13,144,,126,126,10,21,7,12,0.5,0.5
2025-05-12T1800,3315A,116.1233,24.2991,梅州市,梅龙,,46,22,22,13,12,146,,130,130,6,11,7,9,0.3,0.3
2025-05-12T1800,1878A,104.7778,31.4741,绵阳市,富乐山,臭氧1小时,62,62,74,34,47,169,,170,170,8,15,9,9,0.4,0.5
2025-05-12T1800,1880A,104.6697,31.4668,绵阳市,高新区自来水公司,臭氧1小时,69,58,83,29,40,175,,162,162,13,35,5,5,0.5,0.6
2025-05-12T1800,1881A,104.7287,31.5075,绵阳市,三水厂,臭氧1小时,62,47,100,35,46,169,,164,164,12,35,9,9,0.4,0.6
2025-05-12T1800,3491A,104.69,31.5322,绵阳市,西科大附属小学,臭氧1小时,73,59,85,36,44,178,,169,169,9,38,8,8,0.8,0.7
2025-05-12T1800,3492A,104.5648,31.5343,绵阳市,安州区旅游局,臭氧1小时,78,53,73,24,37,182,,171,171,10,19,9,9,0.3,0.5
2025-05-12T1800,4226A,104.7651,31.4531,绵阳市,绵阳市气象局,颗粒物(PM10),52,53,76,30,45,160,,151,151,20,23,5,6,0.6,0.6
2025-05-12T1800,1784A,129.61,44.561,牡丹江市,环保大楼,,33,28,37,14,21,103,,135,133,20,26,6,6,0.3,0.4
2025-05-12T1800,1785A,129.6115,44.5782,牡丹江市,文化广场,,34,22,53,19,29,108,,135,134,23,32,10,11,0.4,0.6
2025-05-12T1800,1786A,129.5904,44.5963,牡丹江市,第一医院,,36,30,41,15,26,114,,137,137,16,21,6,6,0.3,0.4
2025-05-12T1800,1787A,129.6364,44.6075,牡丹江市,机车工厂,,34,34,47,9,22,106,,132,132,18,20,6,8,0.3,0.4
2025-05-12T1800,1788A,129.6386,44.5462,牡丹江市,第一中学,,37,25,32,17,14,117,,144,142,15,25,5,5,0.3,0.4
2025-05-12T1800,2531A,105.0703,29.61,内江市,市监测站,臭氧1小时,80,66,65,37,56,184,,170,170,12,26,16,17,0.5,0.8
2025-05-12T1800,2532A,105.0717,29.5947,内江市,东兴区政府,臭氧1小时,85,42,57,25,46,188,,172,172,12,29,19,17,0.4,0.6
2025-05-12T1800,2533A,105.0653,29.5817,内江市,内江二中,臭氧1小时,87,48,69,33,52,189,,171,171,14,26,10,8,0.4,0.6
2025-05-12T1800,2534A,105.0406,29.5822,内江市,内江日报社,臭氧1小时,80,41,63,35,50,184,,165,165,8,38,11,7,0.4,0.6
2025-05-12T1800,2628A,92.0657,31.4846,那曲市,那曲监测站,,32,24,21,16,11,101,,117,117,30,16,8,7,0.6,0.5
2025-05-12T1800,4243A,92.0515,31.4787,那曲市,那曲市委宣传部,,38,7,14,3,6,121,,129,129,16,8,10,10,0.5,0.4
2025-05-12T1800,1290A,115.8931,28.6843,南昌市,省外办,臭氧1小时,53,35,46,27,36,162,,147,147,14,24,7,13,0.4,0.5
2025-05-12T1800,1291A,115.8886,28.7003,南昌市,省林业公司,臭氧1小时,64,34,47,17,31,171,,159,159,8,20,9,14,0.6,0.7
2025-05-12T1800,1292A,115.8126,28.7442,南昌市,林科所,臭氧1小时,65,34,50,17,29,172,,164,164,8,56,6,7,0.2,0.5
2025-05-12T1800,1294A,115.8518,28.687,南昌市,建工学校,臭氧1小时,63,,65,32,44,170,,154,154,12,27,7,10,0.4,0.5
2025-05-12T1800,1295A,115.8921,28.6424,南昌市,象湖,臭氧1小时,62,34,56,22,30,169,,155,155,13,29,9,14,0.5,0.6
2025-05-12T1800,1296A,115.7423,28.7996,南昌市,武术学校,,48,41,29,14,16,152,,159,159,5,6,5,4,0.4,0.4
2025-05-12T1800,3046A,115.9084,28.6062,南昌市,机电学校,臭氧1小时,58,34,56,22,32,166,,157,157,10,28,6,9,0.3,0.4
2025-05-12T1800,3690A,115.9721,28.7031,南昌市,外国语学校,臭氧1小时,59,43,51,20,31,167,,159,159,14,22,9,12,0.5,0.5
2025-05-12T1800,4192A,115.9316,28.68677,南昌市,南京东路235号,臭氧1小时,58,44,58,20,31,166,,156,156,10,22,5,9,0.6,0.8
2025-05-12T1800,1905A,106.056,30.8064,南充市,西山风景区,,,,,,,,,,,,,,,,
2025-05-12T1800,1906A,106.0789,30.8023,南充市,南充市委,,49,47,71,28,41,156,,151,151,10,27,5,6,0.3,0.5
2025-05-12T1800,1907A,106.1031,30.8217,南充市,南充炼油厂,,45,45,71,13,42,142,,138,138,11,21,5,6,0.2,0.3
2025-05-12T1800,4227A,106.1083,30.7884,南充市,梨树横街98号,颗粒物(PM10),52,54,75,18,36,140,,137,137,10,27,4,5,0.2,0.4
2025-05-12T1800,4304A,106.1172,30.843,南充市,清泉寺北路188号,,48,48,88,24,44,149,,142,142,6,16,5,6,0.2,0.3
2025-05-12T1800,4305A,106.067,30.7616,南充市,同庆路1号,,,45,78,,56,139,,138,138,10,29,4,5,0.3,0.5
2025-05-12T1800,1151A,118.8086,32.1065,南京市,迈皋桥,臭氧1小时,58,28,43,22,30,166,,161,161,10,25,4,13,0.1,0.5
2025-05-12T1800,1152A,118.7538,32.0551,南京市,草场门,,50,36,55,24,29,159,,155,155,23,30,3,9,0.3,0.8
2025-05-12T1800,1153A,118.7794,32.0745,南京市,山西路,臭氧1小时,63,41,62,14,27,170,,163,163,18,28,7,12,0.3,0.8
2025-05-12T1800,1154A,118.7752,32.0023,南京市,中华门,,47,44,56,22,26,150,,152,152,21,28,12,14,0.4,0.5
2025-05-12T1800,1155A,118.8109,32.0309,南京市,瑞金路,臭氧1小时,57,36,48,19,26,165,,164,164,14,23,6,6,0.8,0.9
2025-05-12T1800,1156A,118.7997,32.0754,南京市,玄武湖,,49,35,53,13,22,156,,151,151,8,12,4,5,0.4,0.7
2025-05-12T1800,1157A,118.6414,32.0931,南京市,浦口,,40,37,53,9,25,127,,123,123,14,20,4,4,0.7,0.7
2025-05-12T1800,1158A,118.7356,31.9996,南京市,奥体中心,臭氧1小时,67,45,56,19,27,173,,170,167,20,27,9,12,0.8,0.7
2025-05-12T1800,1159A,118.9125,32.1028,南京市,仙林大学城,臭氧1小时,62,44,59,17,26,169,,171,171,13,24,10,15,0.4,0.7
2025-05-12T1800,3422A,118.8436,31.9198,南京市,江宁彩虹桥,臭氧1小时,55,37,51,17,25,164,,176,176,21,23,4,4,0.4,0.6
2025-05-12T1800,3427A,118.8554,32.3578,南京市,六合雄州,臭氧1小时,60,43,55,15,30,168,,160,160,34,47,12,14,0.7,0.9
2025-05-12T1800,4249A,118.8708,31.3402,南京市,汶溪路181号,,50,30,36,22,29,158,,151,151,11,15,3,4,0.2,0.3
2025-05-12T1800,4312A,119.019,31.6512,南京市,中山西路1号,,48,22,34,16,27,153,,157,157,16,27,4,6,0.3,0.4
2025-05-12T1800,1401A,108.3103,22.7881,南宁市,二十一中,,,58,47,20,23,157,,145,145,,31,4,8,0.5,0.7
2025-05-12T1800,1402A,108.3141,22.8528,南宁市,北湖,臭氧1小时,72,33,44,19,23,177,,157,157,12,33,6,12,0.4,0.5
2025-05-12T1800,1403A,108.3206,22.8225,南宁市,市监测站,,50,30,47,21,21,159,,138,138,15,33,6,10,0.3,0.4
2025-05-12T1800,1404A,108.3829,22.8037,南宁市,大自然花园,臭氧1小时,72,33,43,17,22,177,,158,158,8,28,6,6,0.2,0.3
2025-05-12T1800,1405A,108.4394,22.7904,南宁市,仙葫,,46,37,41,19,25,147,,136,136,11,32,7,8,0.4,0.5
2025-05-12T1800,1406A,108.2397,22.8467,南宁市,区农职院,臭氧1小时,60,25,46,21,21,168,,156,156,21,25,5,13,0.7,0.7
2025-05-12T1800,1407A,108.3275,22.735,南宁市,英华嘉园,臭氧1小时,57,15,41,14,21,165,,154,154,13,29,8,11,0.3,0.4
2025-05-12T1800,3401A,108.4834,22.7618,南宁市,红星社区,臭氧1小时,68,34,39,19,19,174,,159,159,12,23,9,10,0.2,0.3
2025-05-12T1800,4221A,108.2177,22.7774,南宁市,乐贤路16号,,48,38,44,21,21,151,,142,142,10,24,6,7,0.4,0.5
2025-05-12T1800,2331A,118.0966,26.6761,南平市,茫荡山,,,,,,,,,,,,,,,,
2025-05-12T1800,2332A,118.1681,26.6369,南平市,南平市监测站,,41,41,28,25,16,131,,132,132,13,15,5,5,0.4,0.4
2025-05-12T1800,2333A,118.1825,26.6489,南平市,南平铝业有限公司,,48,29,29,16,20,152,,145,145,7,14,4,4,0.5,0.6
2025-05-12T1800,2334A,118.1756,26.6272,南平市,南平七中,,46,28,25,19,17,145,,133,133,6,10,4,4,0.5,0.5
2025-05-12T1800,1168A,120.9098,31.9663,南通市,狼山街道,臭氧1小时,80,38,44,21,29,184,,174,174,35,39,5,6,0.3,0.7
2025-05-12T1800,1169A,120.86,32.0005,南通市,虹桥,臭氧1小时,55,34,54,23,32,164,,161,161,50,52,3,6,0.5,0.7
2025-05-12T1800,1170A,120.87,32.02,南通市,城中,臭氧1小时,68,51,55,25,29,174,,172,172,45,47,3,7,0.4,0.7
2025-05-12T1800,1171A,120.94,31.93,南通市,星湖花园,臭氧1小时,87,39,47,23,29,189,,178,178,25,41,4,6,0.3,0.4
2025-05-12T1800,1172A,120.81,32.0417,南通市,紫琅学院,,39,38,56,17,27,124,,145,145,38,33,6,9,0.6,0.8
2025-05-12T1800,3291A,121.067,32.062,南通市,通州监测站,臭氧1小时,101,48,52,19,28,201,,188,188,19,33,6,9,0.5,0.7
2025-05-12T1800,3432A,120.9348,31.9883,南通市,环境教育馆,臭氧1小时,103,48,62,22,29,206,,191,191,26,33,4,6,0.3,0.5
2025-05-12T1800,2404A,112.5224,33.0122,南阳市,瓦房庄,颗粒物(PM10),61,71,71,27,34,163,,162,162,11,13,6,7,0.4,0.4
2025-05-12T1800,2405A,112.5003,32.9735,南阳市,汉画馆,,,,58,,30,,,115,,,19,,7,,0.3
2025-05-12T1800,2406A,112.5573,33.027,南阳市,气象站,颗粒物(PM10),59,67,65,29,34,161,,161,161,10,11,5,6,0.4,0.4
2025-05-12T1800,2407A,112.5481,32.9689,南阳市,理工学院,颗粒物(PM10),59,68,62,32,34,154,,154,154,13,14,6,6,0.4,0.4
2025-05-12T1800,4008A,112.5234,32.9922,南阳市,卧龙区政府,颗粒物(PM10),65,79,69,31,35,157,,158,158,15,18,5,6,0.5,0.5
2025-05-12T1800,1234A,121.8358,29.911,宁波市,区环保大楼,臭氧1小时,63,46,42,27,21,170,,160,160,14,25,9,10,0.3,0.4
2025-05-12T1800,1235A,121.56,29.82,宁波市,万里学院,臭氧1小时,52,35,35,25,25,161,,160,160,17,17,4,5,0.3,0.4
2025-05-12T1800,1236A,121.713,29.9572,宁波市,龙赛医院,臭氧1小时,68,51,52,20,20,174,,172,172,10,21,6,8,0.3,0.4
2025-05-12T1800,1239A,121.633,29.7733,宁波市,钱湖水厂,臭氧1小时,52,30,32,20,21,161,,160,160,9,11,8,8,0.1,0.2
2025-05-12T1800,1240A,121.5856,29.8635,宁波市,太古小学,,50,34,37,24,21,159,,160,160,12,13,6,6,0.3,0.4
2025-05-12T1800,1241A,121.524,29.8674,宁波市,市环境监测中心,,46,37,40,20,20,147,,149,149,22,21,11,11,0.6,0.8
2025-05-12T1800,2871A,121.6147,29.9017,宁波市,万里国际学校,臭氧1小时,57,31,31,18,21,165,,164,164,15,16,8,9,0.5,0.6
2025-05-12T1800,3710A,121.5594,29.8975,宁波市,白沙活动中心,,50,37,33,21,19,160,,157,157,11,14,8,8,0.4,0.5
2025-05-12T1800,2339A,119.5001,26.6946,宁德市,金涵水库,,,,,,,,,,,,,,,,
2025-05-12T1800,2341A,119.5388,26.6612,宁德市,宁德市监测站,,47,35,31,20,24,149,,140,140,13,14,5,5,0.3,0.5
2025-05-12T1800,3209A,119.5231,26.6562,宁德市,宁德一中,,48,39,32,23,22,151,,142,142,9,10,3,3,0.4,0.5
2025-05-12T1800,2618A,98.8601,25.8567,怒江傈僳族自治州,州监测站,,41,41,40,25,26,125,,99,99,7,10,9,9,0.4,0.4
2025-05-12T1800,2619A,98.8546,25.8417,怒江傈僳族自治州,泸水一中,颗粒物(PM10),58,65,36,34,26,106,,83,83,12,15,6,6,0.4,0.4
2025-05-12T1800,1888A,101.6891,26.571,攀枝花市,弄弄坪,,45,31,38,31,22,126,,126,126,9,20,7,14,0.6,0.6
2025-05-12T1800,1889A,101.5769,26.5928,攀枝花市,河门口,,38,29,36,21,21,120,,133,133,7,20,6,16,0.5,1
2025-05-12T1800,1890A,101.7169,26.585,攀枝花市,炳草岗,,40,26,43,19,25,128,,130,130,11,30,3,11,0.5,0.7
2025-05-12T1800,1891A,101.7369,26.5008,攀枝花市,仁和,,41,29,28,21,17,130,,123,123,9,15,8,11,0.4,0.5
2025-05-12T1800,2835A,101.7227,26.567,攀枝花市,四十中小,,43,37,40,26,24,135,,137,137,8,26,7,20,0.7,0.9
2025-05-12T1800,1604A,122.0303,41.1489,盘锦市,开发区,颗粒物(PM10),56,62,52,32,43,146,,173,172,27,17,9,10,0.5,0.4
2025-05-12T1800,1605A,122.0485,41.0883,盘锦市,兴隆台,颗粒物(PM10),56,62,60,25,42,128,,165,162,29,20,8,10,0.6,0.6
2025-05-12T1800,1606A,121.8297,41.1028,盘锦市,新生街道,臭氧1小时,70,46,43,25,45,176,,182,182,20,19,9,10,0.5,0.6
2025-05-12T1800,1832A,113.3257,33.742,平顶山市,新华旅馆,"颗粒物(PM10),臭氧1小时",58,66,60,33,28,166,,160,160,10,12,5,6,0.4,0.4
2025-05-12T1800,1833A,113.2919,33.737,平顶山市,规划设计院,颗粒物(PM10),61,71,65,29,31,164,,159,159,14,13,4,5,0.2,0.4
2025-05-12T1800,1834A,113.182,33.774,平顶山市,平顶山工学院,臭氧1小时,67,62,53,31,25,173,,163,163,17,18,3,4,0.2,0.2
2025-05-12T1800,3204A,113.3025,33.73,平顶山市,规划局,颗粒物(PM10),59,68,62,23,27,163,,155,155,6,8,6,7,0.4,0.4
2025-05-12T1800,3594A,112.8867,33.9116,平顶山市,石龙区,臭氧1小时,60,68,58,33,31,168,,163,163,8,10,7,8,0.5,0.5
2025-05-12T1800,2656A,106.6692,35.5461,平凉市,聚贤嘉苑,,41,38,50,10,18,130,,128,128,7,32,9,11,0,0.2
2025-05-12T1800,2657A,106.7021,35.5307,平凉市,博物馆,,46,46,58,15,19,130,,129,129,10,24,9,11,0.3,0.4
2025-05-12T1800,2347A,114.0997,27.5002,萍乡市,武功山,,37,17,23,14,18,118,,114,114,6,5,16,14,0.5,0.6
2025-05-12T1800,2348A,113.8385,27.6434,萍乡市,中医院,,46,35,42,25,21,147,,142,142,5,11,10,10,0.7,0.6
2025-05-12T1800,2349A,113.8493,27.6253,萍乡市,市政府车库,,45,28,35,18,26,142,,138,138,9,15,7,6,0.3,0.4
2025-05-12T1800,2350A,113.8676,27.6435,萍乡市,市环保局,,45,37,45,19,27,144,,142,142,14,17,6,6,0.6,0.7
2025-05-12T1800,2351A,113.866,27.6198,萍乡市,安源区政府,,42,36,40,16,20,134,,128,128,5,11,4,4,0.4,0.6
2025-05-12T1800,2319A,119.0141,25.4325,莆田市,荔城区仓后路,,49,36,35,16,20,156,,154,154,13,16,4,4,0.8,0.7
2025-05-12T1800,2320A,119.0015,25.4553,莆田市,莆田市监测站,,,41,29,,19,156,,156,156,16,9,6,5,0.7,0.6
2025-05-12T1800,2321A,119.1119,25.4561,莆田市,涵江区六中,,50,36,36,19,22,159,,156,156,15,23,6,4,0.6,0.6
2025-05-12T1800,2322A,119.1013,25.3215,莆田市,秀屿区政府,臭氧1小时,62,37,30,20,20,169,,157,157,11,14,4,5,0.4,0.7
2025-05-12T1800,2323A,118.981,25.4792,莆田市,东圳水库,,,,,,,,,,,,,,,,
2025-05-12T1800,2392A,115.0312,35.7636,濮阳市,环保局,颗粒物(PM10),62,74,52,25,19,159,,154,154,11,16,7,8,0.7,0.6
2025-05-12T1800,2394A,115.0574,35.7609,濮阳市,油田运输公司,臭氧1小时,65,74,57,22,20,172,,168,168,16,16,6,8,0.6,0.6
2025-05-12T1800,3021A,115,35.7668,濮阳市,濮水河管理处,臭氧1小时,62,69,59,23,21,169,,164,164,10,18,6,7,0.6,0.5
2025-05-12T1800,4216A,115.0924,35.7686,濮阳市,任丘路479号,颗粒物(PM10),64,78,59,23,19,156,,154,154,12,18,6,8,0.5,0.4
2025-05-12T1800,2601A,100.98,22.7633,普洱市,市环保局,,33,33,24,7,13,94,,92,92,3,4,7,7,0.6,0.6
2025-05-12T1800,2602A,100.9817,22.8322,普洱市,普洱第二中学,,28,,13,18,13,88,,89,89,6,6,7,7,0.6,0.6
2025-05-12T1800,2262A,131.0518,45.8751,七台河市,新一中,颗粒物(PM10),54,58,41,27,26,135,,150,150,14,14,12,11,0.8,0.7
2025-05-12T1800,3345A,131.0577,45.7879,七台河市,中波台,颗粒物(PM10),53,56,45,11,12,90,,110,109,30,19,8,7,0.5,0.4
2025-05-12T1800,3637A,131.0176,45.7761,七台河市,人民广场,颗粒物(PM10),60,69,53,29,30,97,,128,125,35,19,13,11,0.8,0.6
2025-05-12T1800,3684A,130.8781,45.8222,七台河市,新建矿广场,,,107,110,23,27,98,,114,114,,21,11,14,0.7,0.6
2025-05-12T1800,1779A,123.9305,47.3636,齐齐哈尔市,安居小区,细颗粒物(PM2.5),78,90,76,57,48,125,,126,126,31,19,9,8,0.7,0.5
2025-05-12T1800,1780A,123.9488,47.3386,齐齐哈尔市,中心广场,颗粒物(PM10),81,112,90,51,50,140,,138,138,25,20,3,3,0.6,0.5
2025-05-12T1800,1781A,123.9483,47.3227,齐齐哈尔市,农牧车辆厂,细颗粒物(PM2.5),74,85,81,54,47,139,,133,133,15,17,6,7,0.3,0.4
2025-05-12T1800,1783A,123.945,47.2988,齐齐哈尔市,市环境监测站,细颗粒物(PM2.5),69,85,85,50,49,144,,136,136,13,17,4,4,0.4,0.4
2025-05-12T1800,3662A,123.6333,47.2075,齐齐哈尔市,富区青少年活动中心,细颗粒物(PM2.5),85,78,80,63,58,136,,124,124,11,12,2,4,0.6,0.6
2025-05-12T1800,2591A,107.9783,26.5747,黔东南苗族侗族自治州,市环境监测站,,,25,34,14,19,114,,104,104,,18,4,3,0.3,0.4
2025-05-12T1800,2881A,107.8908,26.5311,黔东南苗族侗族自治州,凯里学院,,37,19,30,17,17,118,,105,105,1,12,3,2,0.3,0.3
2025-05-12T1800,2593A,107.5228,26.2403,黔南布依族苗族自治州,小围寨,,38,14,23,3,11,120,,110,110,4,10,3,2,0.2,0.3
2025-05-12T1800,3538A,107.5175,26.2978,黔南布依族苗族自治州,沙坝,,38,19,28,3,12,120,,111,111,6,8,3,3,0.2,0.3
2025-05-12T1800,2589A,104.9022,25.0925,黔西南布依族苗族自治州,场坝街,,40,13,30,3,15,127,,111,111,5,10,3,12,0.2,0.3
2025-05-12T1800,2590A,104.8811,25.0992,黔西南布依族苗族自治州,坪东大道,,35,11,34,3,21,112,,99,99,8,16,2,5,0.3,0.4
2025-05-12T1800,2502A,108.6236,21.9667,钦州市,市环保站,,49,46,41,17,17,154,,135,135,19,17,4,4,0.5,0.8
2025-05-12T1800,2503A,108.6549,21.9481,钦州市,沙埠小学,,,,58,10,25,161,,136,136,,25,8,7,,1.1
2025-05-12T1800,2504A,108.5989,21.7431,钦州市,港区一小,颗粒物(PM10),56,61,56,21,22,145,,129,129,16,20,9,9,0.6,0.7
2025-05-12T1800,3404A,108.5959,21.9633,钦州市,北职校,,49,36,40,20,21,154,,140,140,17,16,10,8,0.6,0.7
2025-05-12T1800,1043A,119.7493,40.0116,秦皇岛市,第一关,臭氧1小时,78,73,98,46,63,182,,159,159,19,46,8,8,0.4,0.6
2025-05-12T1800,1044A,119.5897,39.9499,秦皇岛市,监测站,颗粒物(PM10),71,91,101,49,56,174,,155,155,25,41,7,8,0.5,0.8
2025-05-12T1800,1046A,119.5251,39.9041,秦皇岛市,建设大厦,颗粒物(PM10),67,84,102,46,44,164,,151,151,27,38,6,9,0.5,0.8
2025-05-12T1800,3132A,119.610547,39.943889,秦皇岛市,文明里,,,89,102,35,44,166,,151,151,26,39,,7,,0.5
2025-05-12T1800,4198A,119.5090,39.8253,秦皇岛市,北戴河轮滑馆,细颗粒物(PM2.5),73,73,80,53,56,153,,146,146,30,25,4,5,0.5,0.6
2025-05-12T1800,1307A,120.6659,36.2403,青岛市,仰口,臭氧1小时,99,69,46,27,28,199,,189,189,7,7,10,10,0.4,0.4
2025-05-12T1800,1310A,120.4134,36.0658,青岛市,市南区东部子站,臭氧1小时,58,63,64,24,30,166,,149,149,15,16,8,9,0.4,0.4
2025-05-12T1800,1311A,120.3664,36.1032,青岛市,四方区子站,臭氧1小时,70,63,59,22,33,176,,161,161,16,20,7,9,0.7,0.8
2025-05-12T1800,1312A,120.2994,36.054,青岛市,市南区西部子站,颗粒物(PM10),63,75,60,24,29,156,,145,145,33,27,10,8,0.8,0.8
2025-05-12T1800,1313A,120.4581,36.0858,青岛市,崂山区子站,臭氧1小时,73,53,54,19,27,178,,159,159,16,16,9,9,0.4,0.4
2025-05-12T1800,1315A,120.3999,36.3083,青岛市,城阳区子站,颗粒物(PM10),67,83,64,24,26,167,,170,170,29,23,8,9,0.6,0.6
2025-05-12T1800,1966A,120.0405,35.8735,青岛市,黄岛区4号,臭氧1小时,70,88,64,22,32,176,,159,159,20,26,12,11,0.7,0.8
2025-05-12T1800,3362A,120.5014,36.4034,青岛市,即墨2号,颗粒物(PM10),88,125,74,27,33,182,,179,179,16,15,10,11,0.7,0.7
2025-05-12T1800,3642A,120.3503,36.0736,青岛市,市北区南部,臭氧1小时,58,63,56,22,31,166,,145,145,10,13,10,11,0.3,0.5
2025-05-12T1800,3643A,120.3948,36.1805,青岛市,李沧区北部,颗粒物(PM10),62,73,68,22,36,152,,145,145,22,24,11,12,0.6,0.7
2025-05-12T1800,4290A,120.1969,35.9546,青岛市,珠江路669号,臭氧1小时,67,58,62,24,36,173,,160,160,9,14,7,8,0.6,0.6
2025-05-12T1800,1702A,113.0426,23.691,清远市,环保大楼,臭氧1小时,88,29,25,26,20,190,,169,169,21,21,7,8,0.6,0.7
2025-05-12T1800,1703A,113.0208,23.7106,清远市,凤城街办,臭氧1小时,58,,34,34,22,166,,151,151,18,21,8,8,0.4,0.5
2025-05-12T1800,3025A,113.0477,23.6344,清远市,技师学院,臭氧1小时,55,37,41,20,21,164,,146,146,16,30,8,9,0.6,0.6
2025-05-12T1800,3318A,112.9903,23.7403,清远市,清新太和,,47,42,32,22,18,148,,144,144,18,15,10,10,0.5,0.5
2025-05-12T1800,3455A,113.076,23.7198,清远市,清城东城,臭氧1小时,58,42,34,27,19,166,,151,151,16,15,9,9,0.3,0.4
2025-05-12T1800,2661A,107.6325,35.7357,庆阳市,庆阳五中,,50,50,49,14,21,135,,136,136,3,10,3,5,0.4,0.5
2025-05-12T1800,2662A,107.6364,35.7067,庆阳市,市环保局,颗粒物(PM10),52,54,47,15,17,130,,137,137,8,9,7,9,0.4,0.4
2025-05-12T1800,1916A,103.7897,25.5035,曲靖市,环境监测站,,42,27,38,14,20,133,,124,124,11,15,3,7,0.4,0.5
2025-05-12T1800,1917A,103.8,25.5364,曲靖市,烟厂办公区,,45,27,37,10,18,142,,127,127,4,13,3,4,0.3,0.5
2025-05-12T1800,3376A,103.7947,25.462,曲靖市,南苑二区,,43,16,39,9,19,137,,127,127,7,11,4,8,0.4,0.6
2025-05-12T1800,3377A,103.7444,25.5261,曲靖市,曲靖师范学院,,46,28,33,10,21,146,,130,130,5,12,5,8,0.3,0.4
2025-05-12T1800,1264A,118.8692,28.9398,衢州市,环保大楼,臭氧1小时,54,42,52,27,34,163,,154,154,13,16,5,6,0.3,0.4
