timepoint,stationcode,longitude,latitude,area,positionname,primarypollutant,aqi,pm10,pm10_24h,pm2_5,pm2_5_24h,o3,o3_24h,o3_8h,o3_8h_24h,no2,no2_24h,so2,so2_24h,co,co_24h
2022-03-04T04:00:00,1001A,116.3621,39.8784,北京市,万寿西宫,细颗粒物(PM2.5),132,161,94,100,43,75,2,0,0,79,41,5,5,1.2,0.7
2022-03-04T04:00:00,1002A,116.2202,40.2915,北京市,定陵(对照点),颗粒物(PM10),61,72,66,35,25,78,39,46,42,15,16,2,2,0.6,0.5
2022-03-04T04:00:00,1003A,116.4174,39.9289,北京市,东四,细颗粒物(PM2.5),128,172,96,97,38,76,15,12,10,51,32,5,4,1.2,0.8
2022-03-04T04:00:00,1004A,116.4072,39.8863,北京市,天坛,细颗粒物(PM2.5),125,154,90,95,42,82,3,2,2,61,33,1,4,1.2,0.7
2022-03-04T04:00:00,1005A,116.462,39.9365,北京市,农展馆,细颗粒物(PM2.5),138,167,101,105,45,83,7,19,14,64,36,7,8,1.2,0.8
2022-03-04T04:00:00,1006A,116.3392,39.9295,北京市,官园,颗粒物(PM10),78,105,85,45,34,82,6,4,4,65,35,5,6,0.8,0.8
2022-03-04T04:00:00,1007A,116.2878,39.9611,北京市,海淀万柳,颗粒物(PM10),75,99,85,43,31,82,0,17,6,72,44,2,4,0.7,0.7
2022-03-04T04:00:00,1008A,116.6636,40.135,北京市,顺义新城,细颗粒物(PM2.5),104,150,95,78,35,82,3,16,8,68,39,2,5,1.1,0.8
2022-03-04T04:00:00,1009A,116.6275,40.3275,北京市,怀柔镇,颗粒物(PM10),65,80,72,41,27,78,36,46,42,15,16,3,4,0.6,0.5
2022-03-04T04:00:00,1010A,116.2296,40.217,北京市,昌平镇,颗粒物(PM10),66,82,75,39,30,81,29,23,23,20,22,3,4,0.6,0.6
2022-03-04T04:00:00,1011A,116.3966,39.9821,北京市,奥体中心,颗粒物(PM10),80,110,88,49,33,80,4,9,6,78,42,7,6,1.1,0.7
2022-03-04T04:00:00,1012A,116.184,39.9136,北京市,古城,颗粒物(PM10),67,83,85,39,32,78,18,18,16,39,36,2,4,0.7,0.7
2022-03-04T04:00:00,1015A,117.1444,39.1661,天津市,勤俭道,细颗粒物(PM2.5),102,139,121,76,55,69,1,1,1,71,60,9,12,1.1,0.9
2022-03-04T04:00:00,1017A,117.237,39.1082,天津市,大直沽八号路,细颗粒物(PM2.5),105,136,125,79,63,64,1,1,1,75,68,11,14,1.1,1
2022-03-04T04:00:00,1018A,117.202,39.0927,天津市,前进道,细颗粒物(PM2.5),108,146,130,81,63,62,4,4,4,81,66,12,14,2.1,1.3
2022-03-04T04:00:00,1019A,117.1837,39.2133,天津市,淮河道,细颗粒物(PM2.5),109,144,117,82,57,70,2,2,2,69,57,22,12,1.3,1
2022-03-04T04:00:00,1021A,117.307,39.0877,天津市,跃进路,细颗粒物(PM2.5),110,137,125,83,63,62,3,2,2,67,65,22,13,1.0,0.9
2022-03-04T04:00:00,1023A,117.707,39.0343,天津市,第四大街,细颗粒物(PM2.5),84,111,108,62,53,48,0,3,2,64,64,9,11,1.5,1
2022-03-04T04:00:00,1024A,117.457,38.8394,天津市,永明路,细颗粒物(PM2.5),113,132,103,85,62,64,0,1,0,71,54,14,12,1.9,0.8
2022-03-04T04:00:00,1026A,117.764,39.1587,天津市,汉北路,细颗粒物(PM2.5),97,118,91,72,47,62,2,8,4,49,41,7,8,1.3,0.7
2022-03-04T04:00:00,1027A,117.157,38.9194,天津市,团泊洼(对照点),细颗粒物(PM2.5),118,154,108,89,62,77,2,1,1,102,65,16,12,2.3,1.1
2022-03-04T04:00:00,1029A,114.4422,38.0444,石家庄市,职工医院,颗粒物(PM10),162,274,107,52,49,88,54,28,28,29,44,6,10,0.3,0.5
2022-03-04T04:00:00,1030A,114.6063,38.0266,石家庄市,高新区,颗粒物(PM10),97,143,116,46,45,88,14,33,20,63,52,11,13,0.7,0.7
2022-03-04T04:00:00,1031A,114.4898,38.1328,石家庄市,西北水源,颗粒物(PM10),112,174,122,55,46,89,5,5,4,68,47,9,9,0.7,0.6
2022-03-04T04:00:00,1032A,114.4586,38.0058,石家庄市,西南高教,颗粒物(PM10),100,149,116,46,46,74,74,32,32,16,55,5,11,0.4,0.7
2022-03-04T04:00:00,1033A,114.5331,38.0178,石家庄市,世纪公园,颗粒物(PM10),113,175,110,51,48,80,41,24,24,40,50,10,11,0.6,0.8
2022-03-04T04:00:00,1034A,114.509,38.0457,石家庄市,人民会堂,颗粒物(PM10),123,196,105,7,43,91,37,24,24,51,50,14,17,0.6,0.6
2022-03-04T04:00:00,1035A,114.3524,37.8911,石家庄市,封龙山(对照点),颗粒物(PM10),338,450,141,94,37,115,66,71,66,10,16,16,21,0.5,0.6
2022-03-04T04:00:00,1037A,118.131,39.6363,唐山市,雷达站,细颗粒物(PM2.5),98,105,90,73,45,86,4,37,17,57,30,27,12,2.7,1.2
2022-03-04T04:00:00,1038A,118.1725,39.6334,唐山市,物资局,颗粒物(PM10),84,118,97,60,41,81,5,30,12,67,36,34,17,3.2,1.2
2022-03-04T04:00:00,1040A,118.1705,39.6506,唐山市,十二中,颗粒物(PM10),89,127,110,57,40,75,5,11,5,56,34,26,13,3.2,1.2
2022-03-04T04:00:00,1041A,118.1869,39.622,唐山市,小山,颗粒物(PM10),96,141,95,54,36,90,8,25,12,62,33,42,12,3.4,1
2022-03-04T04:00:00,1042A,119.5134,39.8207,秦皇岛市,北戴河环保局,颗粒物(PM10),54,57,50,33,21,74,2,23,14,70,29,11,10,1.3,0.9
2022-03-04T04:00:00,1043A,119.7493,40.0116,秦皇岛市,第一关,细颗粒物(PM2.5),70,76,68,51,33,97,6,6,6,69,40,14,13,0.6,0.5
2022-03-04T04:00:00,1044A,119.5897,39.9499,秦皇岛市,监测站,颗粒物(PM10),65,79,64,41,27,95,1,2,1,58,34,8,8,0.8,0.6
2022-03-04T04:00:00,1046A,119.5251,39.9041,秦皇岛市,建设大厦,颗粒物(PM10),69,88,62,36,27,103,6,8,7,56,30,8,6,0.9,0.6
2022-03-04T04:00:00,1048A,114.5302,36.6116,邯郸市,东污水处理厂,颗粒物(PM10),68,86,111,20,38,103,70,49,49,13,38,7,19,0.3,0.9
2022-03-04T04:00:00,1049A,114.4918,36.5713,邯郸市,矿院,颗粒物(PM10),67,83,117,32,44,107,60,68,66,17,33,7,9,0.5,0.6
2022-03-04T04:00:00,1050A,114.484,36.6133,邯郸市,丛台公园,颗粒物(PM10),68,86,110,32,39,109,57,61,60,27,34,31,24,1.6,1.1
2022-03-04T04:00:00,1051A,115.493,38.8632,保定市,游泳馆,颗粒物(PM10),103,155,117,75,48,76,13,8,8,71,49,15,12,0.7,0.5
2022-03-04T04:00:00,1052A,115.5213,38.8959,保定市,华电二区,颗粒物(PM10),99,148,145,51,38,78,28,14,14,48,45,17,14,0.7,0.6
2022-03-04T04:00:00,1053A,115.4713,38.9108,保定市,接待中心,颗粒物(PM10),84,117,101,58,37,81,23,12,12,56,53,10,9,0.9,0.7
2022-03-04T04:00:00,1054A,115.4612,38.8416,保定市,地表水厂,颗粒物(PM10),90,129,117,56,38,84,10,6,6,66,54,15,12,0.6,0.4
2022-03-04T04:00:00,1055A,115.4323,38.8697,保定市,胶片厂,颗粒物(PM10),98,146,114,57,46,81,23,11,11,52,47,20,17,0.9,0.7
2022-03-04T04:00:00,1056A,115.5086,38.8639,保定市,监测站,细颗粒物(PM2.5),83,111,97,61,38,76,14,9,9,67,49,11,10,0.9,0.8
2022-03-04T04:00:00,1057A,114.8883,40.8336,张家口市,人民公园,颗粒物(PM10),180,310,119,52,20,93,93,82,82,4,15,4,8,0.5,0.7
2022-03-04T04:00:00,1059A,114.8687,40.8042,张家口市,五金库,颗粒物(PM10),245,381,161,56,32,97,97,89,89,1,20,6,10,0.5,0.8
2022-03-04T04:00:00,1060A,114.8902,40.762,张家口市,世纪豪园,颗粒物(PM10),259,391,131,80,34,91,86,75,70,6,23,2,5,0.2,0.4
2022-03-04T04:00:00,1061A,114.8916,40.8661,张家口市,北泵房(对照点),颗粒物(PM10),130,210,87,42,26,109,97,61,61,3,15,7,13,0.1,0.4
2022-03-04T04:00:00,1062A,117.9531,40.9081,承德市,铁路,颗粒物(PM10),62,73,59,38,28,86,20,37,27,40,31,8,9,1.1,0.7
2022-03-04T04:00:00,1063A,117.9392,40.9763,承德市,中国银行,颗粒物(PM10),70,90,62,34,24,82,10,24,16,45,26,10,11,1.1,0.7
2022-03-04T04:00:00,1064A,117.9503,40.928,承德市,开发区,颗粒物(PM10),64,77,52,39,27,96,9,18,11,60,36,12,11,1.3,0.8
2022-03-04T04:00:00,1065A,117.8051,40.9655,承德市,文化中心,颗粒物(PM10),69,88,72,38,26,82,13,11,11,46,40,6,12,0.9,1
2022-03-04T04:00:00,1066A,117.9268,41.0026,承德市,离宫(对照点),颗粒物(PM10),70,90,53,47,29,90,23,39,30,33,18,13,12,1.0,0.6
2022-03-04T04:00:00,1067A,116.6708,39.5111,廊坊市,药材公司,细颗粒物(PM2.5),112,135,103,84,49,79,1,2,2,79,53,12,13,1.3,0.9
2022-03-04T04:00:00,1068A,116.7214,39.5589,廊坊市,开发区,细颗粒物(PM2.5),124,136,99,94,48,86,4,5,4,85,52,8,10,1.1,0.8
2022-03-04T04:00:00,1070A,116.7244,39.5269,廊坊市,北华航天学院,细颗粒物(PM2.5),178,139,109,134,54,79,1,1,1,77,50,9,13,1.2,0.9
2022-03-04T04:00:00,1071A,116.8842,38.2991,沧州市,沧县城建局,细颗粒物(PM2.5),134,154,120,102,76,79,2,3,2,80,67,11,13,1.2,1
2022-03-04T04:00:00,1072A,116.8584,38.3254,沧州市,电视转播站,细颗粒物(PM2.5),128,151,124,97,67,82,5,4,4,75,63,12,10,1.0,0.8
2022-03-04T04:00:00,1073A,116.8709,38.3228,沧州市,市环保局,细颗粒物(PM2.5),137,136,109,104,72,81,4,4,4,83,67,12,13,1.0,0.8
2022-03-04T04:00:00,1074A,115.6838,37.7541,衡水市,电机北厂,颗粒物(PM10),88,126,96,59,48,115,50,40,40,28,38,10,10,0.5,0.5
2022-03-04T04:00:00,1075A,115.6303,37.7316,衡水市,市监测站,颗粒物(PM10),99,148,128,66,50,112,32,28,28,30,39,15,15,0.5,0.5
2022-03-04T04:00:00,1077A,114.4704,37.0886,邢台市,达活泉,颗粒物(PM10),89,128,114,48,35,114,31,31,25,48,32,14,11,1.5,1.1
2022-03-04T04:00:00,1078A,114.5062,37.0349,邢台市,邢师高专,颗粒物(PM10),97,143,112,51,44,114,18,10,9,57,36,12,10,1.0,0.7
2022-03-04T04:00:00,1079A,114.5237,37.0851,邢台市,路桥公司,颗粒物(PM10),80,109,98,36,33,117,34,34,28,55,36,12,8,1.1,0.9
2022-03-04T04:00:00,1080A,114.4725,37.0719,邢台市,市环保局,颗粒物(PM10),89,127,98,48,34,114,23,35,25,59,35,21,6,2.2,0.9
2022-03-04T04:00:00,1081A,112.5139,37.8873,太原市,尖草坪,颗粒物(PM10),178,306,130,73,40,108,86,84,84,9,34,5,11,0.2,0.5
2022-03-04T04:00:00,1083A,112.434,38.0108,太原市,上兰(对照点),颗粒物(PM10),199,348,120,93,40,110,92,91,91,6,15,4,11,0.3,0.4
2022-03-04T04:00:00,1084A,112.469,37.7124,太原市,晋源,颗粒物(PM10),134,218,119,51,46,114,98,69,69,7,50,8,22,0.3,0.8
2022-03-04T04:00:00,1085A,112.5583,37.7394,太原市,小店,颗粒物(PM10),113,175,116,61,48,113,31,26,26,54,47,30,23,1.0,0.8
2022-03-04T04:00:00,1086A,112.5369,37.8692,太原市,桃园,颗粒物(PM10),191,332,122,74,38,116,86,75,75,14,41,7,12,0.3,0.6
2022-03-04T04:00:00,1087A,112.57,37.8195,太原市,坞城,颗粒物(PM10),110,169,110,66,47,120,23,30,22,59,45,26,19,0.8,0.7
2022-03-04T04:00:00,1088A,112.549,37.9854,太原市,南寨,颗粒物(PM10),232,372,131,75,35,109,88,86,86,11,30,7,13,0.5,0.7
2022-03-04T04:00:00,1090A,111.6507,40.7517,呼和浩特市,呼市一监,颗粒物(PM10),191,332,431,68,86,102,89,86,86,4,21,5,12,0.3,0.6
2022-03-04T04:00:00,1091A,111.6572,40.8033,呼和浩特市,小召,颗粒物(PM10),174,298,436,59,87,102,92,90,88,3,23,5,12,0.2,0.5
2022-03-04T04:00:00,1094A,111.7516,40.8369,呼和浩特市,如意水处理厂,颗粒物(PM10),187,323,270,47,71,102,85,87,83,7,21,9,14,0.4,0.6
2022-03-04T04:00:00,1095A,111.7276,40.8062,呼和浩特市,二十九中,颗粒物(PM10),200,349,340,59,73,104,90,91,88,5,21,5,13,0.3,0.5
2022-03-04T04:00:00,1096A,111.5512,40.7866,呼和浩特市,工大金川校区,颗粒物(PM10),319,435,391,56,78,109,94,94,92,5,21,7,14,0.3,0.6
2022-03-04T04:00:00,1097A,111.717,40.7612,呼和浩特市,化肥厂生活区,颗粒物(PM10),262,393,328,76,82,104,91,85,85,3,21,7,15,0.3,0.7
2022-03-04T04:00:00,1098A,123.6836,41.9339,沈阳市,森林路(对照点),,49,49,40,22,20,86,82,73,73,15,20,14,14,0.7,0.6
2022-03-04T04:00:00,1099A,123.505,41.7406,沈阳市,浑南东路,颗粒物(PM10),62,73,55,28,27,85,68,52,52,24,30,14,15,0.6,0.5
2022-03-04T04:00:00,1100A,123.4231,41.6989,沈阳市,新秀街,颗粒物(PM10),58,65,52,24,24,82,76,72,72,22,38,12,16,0.7,0.6
2022-03-04T04:00:00,1102A,123.5903,41.8411,沈阳市,东陵路,颗粒物(PM10),56,62,53,23,23,84,66,52,52,21,33,19,15,1.0,0.6
2022-03-04T04:00:00,1103A,123.4264,41.8467,沈阳市,陵东街,,50,50,43,21,24,87,87,82,82,20,40,11,16,0.6,0.6
2022-03-04T04:00:00,1104A,123.4114,41.7653,沈阳市,文化路,颗粒物(PM10),57,63,57,28,34,85,82,77,77,14,31,9,13,0.7,0.6
2022-03-04T04:00:00,1105A,123.4678,41.7867,沈阳市,小河沿,颗粒物(PM10),56,62,45,24,20,78,73,75,74,22,31,16,14,0.9,0.6
2022-03-04T04:00:00,1106A,123.4017,41.7972,沈阳市,太原街,颗粒物(PM10),56,62,55,30,33,81,81,79,79,16,35,12,42,0.6,0.6
2022-03-04T04:00:00,1108A,123.3783,41.9228,沈阳市,京沈街,颗粒物(PM10),56,61,57,27,30,88,88,81,81,18,35,12,17,0.6,0.7
2022-03-04T04:00:00,1109A,121.612,38.9741,大连市,甘井子,颗粒物(PM10),83,116,54,56,22,113,113,104,104,24,27,7,7,0.6,0.6
2022-03-04T04:00:00,1110A,121.565,38.9511,大连市,周水子,颗粒物(PM10),92,133,60,53,21,137,137,124,124,19,28,17,13,0.6,0.6
2022-03-04T04:00:00,1111A,121.5637,38.8845,大连市,星海三站,细颗粒物(PM2.5),75,79,50,55,30,112,112,100,100,20,21,9,6,0.6,0.6
2022-03-04T04:00:00,1112A,121.6302,38.9117,大连市,青泥洼桥,颗粒物(PM10),77,104,49,44,16,119,119,113,113,25,23,15,12,0.6,0.7
2022-03-04T04:00:00,1113A,121.6251,38.8638,大连市,傅家庄,细颗粒物(PM2.5),69,80,46,50,19,113,113,108,108,27,21,8,9,0.5,0.4
2022-03-04T04:00:00,1114A,121.5213,38.8661,大连市,七贤岭,颗粒物(PM10),77,104,53,43,16,124,124,96,96,16,24,15,13,0.8,0.6
2022-03-04T04:00:00,1115A,121.2529,38.8061,大连市,旅顺,细颗粒物(PM2.5),74,86,47,54,22,122,119,119,119,25,24,11,11,0.8,0.7
2022-03-04T04:00:00,1116A,121.7485,39.1311,大连市,金州,细颗粒物(PM2.5),79,100,49,58,24,114,114,98,98,26,22,11,9,0.8,0.7
2022-03-04T04:00:00,1117A,121.7811,39.0496,大连市,开发区,颗粒物(PM10),63,76,44,41,18,102,102,78,78,27,28,9,7,0.5,0.5
2022-03-04T04:00:00,1118A,121.9762,39.0631,大连市,双D港,颗粒物(PM10),70,90,38,40,14,83,62,59,59,31,23,5,8,0.7,0.6
2022-03-04T04:00:00,1119A,125.3325,43.9166,长春市,食品厂,,38,38,41,15,20,66,60,60,59,22,31,15,15,0.4,0.5
2022-03-04T04:00:00,1120A,125.2863,43.9027,长春市,客车厂,,39,39,44,18,24,66,50,50,49,32,36,26,24,0.4,0.5
2022-03-04T04:00:00,1121A,125.2841,43.8463,长春市,邮电学院,,43,43,48,17,19,66,59,53,53,19,27,10,12,0.6,0.5
2022-03-04T04:00:00,1122A,125.3716,43.8772,长春市,劳动公园,颗粒物(PM10),55,60,48,13,18,81,76,71,71,14,26,7,8,0.5,0.6
2022-03-04T04:00:00,1123A,125.3297,43.8805,长春市,园林处,,30,30,39,13,17,77,71,67,67,10,23,8,12,0.4,0.5
2022-03-04T04:00:00,1124A,125.4605,43.79,长春市,净月潭,,32,32,31,11,14,89,73,72,72,11,14,7,6,0.4,0.4
2022-03-04T04:00:00,1125A,125.7194,43.515,长春市,甩湾子(对照点),,37,37,34,8,15,82,76,70,70,6,10,10,8,0.4,0.5
2022-03-04T04:00:00,1126A,125.3863,43.8447,长春市,经开区环卫处,,36,36,37,13,15,76,63,62,60,15,18,44,13,0.3,0.4
2022-03-04T04:00:00,1127A,125.245,43.7783,长春市,高新区管委会,,32,32,38,17,24,86,75,64,64,12,21,7,6,0.5,0.5
2022-03-04T04:00:00,1128A,125.1761,43.8325,长春市,岱山公园,颗粒物(PM10),51,52,48,16,19,77,71,68,68,19,28,6,7,0.5,0.5
2022-03-04T04:00:00,1129A,126.5422,45.755,哈尔滨市,岭北(对照点),,26,19,54,15,37,109,81,82,82,3,21,3,6,0.3,0.6
2022-03-04T04:00:00,1130A,126.561,45.8167,哈尔滨市,松北商大,,46,33,43,32,36,111,80,82,82,8,24,12,9,0.6,0.7
2022-03-04T04:00:00,1131A,126.979,45.5419,哈尔滨市,阿城会宁,,26,16,41,6,35,106,83,82,82,8,16,7,11,0.7,0.9
2022-03-04T04:00:00,1132A,126.599,45.7222,哈尔滨市,南岗学府路,,,,,,,14,2,2,2,8,11,4,3,0.3,0.2
2022-03-04T04:00:00,1133A,126.689,45.7733,哈尔滨市,太平宏伟公园,,23,18,61,10,46,94,72,76,74,12,37,26,25,0.5,1
2022-03-04T04:00:00,1134A,126.635,45.7667,哈尔滨市,道外承德广场,,25,25,49,9,40,96,70,71,70,36,43,45,30,0.5,0.6
2022-03-04T04:00:00,1135A,126.685,45.7319,哈尔滨市,香坊红旗大街,,27,27,57,10,42,87,75,74,74,10,39,14,22,0.5,0.8
2022-03-04T04:00:00,1136A,126.6411,45.7258,哈尔滨市,动力和平路,,23,20,50,7,41,93,73,73,73,11,33,27,23,0.6,0.9
2022-03-04T04:00:00,1137A,126.593,45.7478,哈尔滨市,道里建国路,,22,21,53,10,44,88,70,67,67,19,39,19,19,0.4,0.7
2022-03-04T04:00:00,1138A,126.615,45.61,哈尔滨市,平房东轻厂,,24,22,41,10,37,100,76,76,76,6,19,3,7,0.5,0.6
2022-03-04T04:00:00,1139A,126.595,45.9855,哈尔滨市,呼兰师专,,30,30,54,4,43,92,60,57,57,20,29,14,14,0.6,0.8
2022-03-04T04:00:00,1140A,126.6206,45.6842,哈尔滨市,省农科院,,40,40,71,6,42,91,68,60,60,13,33,14,21,0.7,0.9
2022-03-04T04:00:00,1141A,121.4,31.238,上海市,普陀,,39,39,99,21,45,144,85,90,88,29,45,5,18,0.6,0.8
2022-03-04T04:00:00,1142A,121.478,31.2036,上海市,十五厂,,36,36,100,18,48,142,83,78,78,27,44,6,6,0.5,0.7
2022-03-04T04:00:00,1143A,121.467,31.3008,上海市,虹口,,29,29,93,19,45,140,78,82,81,20,42,4,4,0.6,0.8
2022-03-04T04:00:00,1144A,121.412,31.1654,上海市,徐汇上师大,,43,43,101,16,45,141,78,80,78,29,49,6,22,1.0,1.1
2022-03-04T04:00:00,1145A,121.536,31.2659,上海市,杨浦四漂,,34,34,86,18,44,141,84,83,83,35,48,6,7,0.3,0.6
2022-03-04T04:00:00,1147A,121.425,31.2261,上海市,静安监测站,,43,43,100,26,52,140,75,84,82,31,44,12,12,0.5,0.7
2022-03-04T04:00:00,1148A,121.703,31.1907,上海市,浦东川沙,,31,31,87,19,45,165,90,79,79,27,45,4,5,0.5,0.6
2022-03-04T04:00:00,1149A,121.533,31.2284,上海市,浦东新区监测站,,45,45,90,16,41,156,91,96,94,24,39,4,5,0.5,0.6
2022-03-04T04:00:00,1150A,121.577,31.2071,上海市,浦东张江,,34,34,89,15,44,158,85,85,85,29,46,4,5,0.4,0.6
2022-03-04T04:00:00,1151A,118.8086,32.1065,南京市,迈皋桥,颗粒物(PM10),95,140,140,61,53,143,102,101,98,29,46,4,5,0.6,0.7
2022-03-04T04:00:00,1152A,118.7538,32.0551,南京市,草场门,颗粒物(PM10),87,124,145,53,54,128,92,88,74,48,63,6,7,0.5,0.6
2022-03-04T04:00:00,1153A,118.7794,32.0745,南京市,山西路,细颗粒物(PM2.5),85,110,156,63,56,137,98,87,87,49,61,3,4,0.5,0.6
2022-03-04T04:00:00,1154A,118.7752,32.0023,南京市,中华门,颗粒物(PM10),96,141,166,53,66,143,97,102,98,29,49,5,5,0.8,0.8
2022-03-04T04:00:00,1155A,118.8109,32.0309,南京市,瑞金路,颗粒物(PM10),81,111,142,56,63,139,104,78,78,30,55,4,4,0.4,0.6
2022-03-04T04:00:00,1156A,118.7997,32.0754,南京市,玄武湖,颗粒物(PM10),89,127,144,56,53,143,104,96,96,37,50,4,4,1.0,1
2022-03-04T04:00:00,1157A,118.6414,32.0931,南京市,浦口,颗粒物(PM10),97,143,157,61,48,126,68,95,80,60,66,1,3,1.1,1.2
2022-03-04T04:00:00,1158A,118.7356,31.9996,南京市,奥体中心,颗粒物(PM10),93,136,163,61,61,136,107,82,82,30,57,6,7,0.7,0.7
2022-03-04T04:00:00,1159A,118.9125,32.1028,南京市,仙林大学城,颗粒物(PM10),90,129,144,61,56,159,95,120,95,38,38,6,6,0.7,0.7
2022-03-04T04:00:00,1160A,120.561,31.2472,苏州市,上方山(对照点),细颗粒物(PM2.5),69,61,108,50,76,151,37,49,39,30,41,4,7,0.8,1
2022-03-04T04:00:00,1162A,120.591,31.3019,苏州市,彩香,细颗粒物(PM2.5),70,36,93,51,73,162,40,69,54,37,39,5,7,0.8,0.9
2022-03-04T04:00:00,1163A,120.596,31.3264,苏州市,轧钢厂,,50,35,124,35,69,159,43,72,56,35,43,6,9,0.6,0.8
2022-03-04T04:00:00,1164A,120.613,31.2703,苏州市,吴中区,细颗粒物(PM2.5),54,53,99,38,66,157,35,64,51,45,45,4,6,0.7,0.8
2022-03-04T04:00:00,1165A,120.543,31.2994,苏州市,苏州新区,"颗粒物(PM10),细颗粒物(PM2.5)",69,87,125,50,70,158,45,64,51,27,37,6,9,0.8,0.9
2022-03-04T04:00:00,1166A,120.669,31.3097,苏州市,苏州工业园区,,49,49,89,24,62,157,48,72,62,28,38,6,8,0.6,0.7
2022-03-04T04:00:00,1167A,120.641,31.3708,苏州市,相城区,细颗粒物(PM2.5),62,69,114,44,69,144,45,65,55,31,52,5,6,0.7,0.9
2022-03-04T04:00:00,1168A,120.9098,31.9663,南通市,狼山街道,颗粒物(PM10),67,83,125,46,67,171,2,25,12,87,64,5,8,0.6,0.7
2022-03-04T04:00:00,1169A,120.86,32.0005,南通市,虹桥,颗粒物(PM10),65,79,141,32,69,151,51,41,41,39,65,6,9,0.5,0.8
2022-03-04T04:00:00,1170A,120.87,32.02,南通市,城中,颗粒物(PM10),68,86,154,38,68,152,47,42,42,47,59,10,12,0.7,0.9
2022-03-04T04:00:00,1171A,120.94,31.93,南通市,星湖花园,颗粒物(PM10),60,70,118,41,64,162,15,24,22,82,73,5,6,0.6,0.8
2022-03-04T04:00:00,1172A,120.81,32.0417,南通市,紫琅学院,颗粒物(PM10),61,71,117,39,71,157,37,33,33,55,68,8,11,0.4,0.8
2022-03-04T04:00:00,1173A,119.176,34.5885,连云港市,市环境监测站,颗粒物(PM10),112,173,188,70,68,147,54,44,44,52,51,13,12,0.8,0.7
2022-03-04T04:00:00,1177A,117.179,34.2761,徐州市,黄河新村,颗粒物(PM10),100,149,153,57,67,127,93,84,76,30,55,13,13,0.8,1.1
2022-03-04T04:00:00,1178A,117.1918,34.2384,徐州市,淮塔,颗粒物(PM10),97,143,173,51,57,128,74,98,79,36,43,15,17,0.9,1.1
2022-03-04T04:00:00,1180A,117.256,34.2153,徐州市,新城区,颗粒物(PM10),109,168,178,62,63,130,2,25,16,96,68,14,14,1.2,0.9
2022-03-04T04:00:00,1181A,117.244,34.2911,徐州市,桃园路,颗粒物(PM10),106,161,174,48,55,123,66,68,52,50,60,14,16,0.8,0.8
2022-03-04T04:00:00,1182A,117.2933,34.2778,徐州市,农科院,颗粒物(PM10),92,134,159,46,50,124,68,59,39,52,62,17,16,0.8,0.8
2022-03-04T04:00:00,1186A,119.389,32.3761,扬州市,邗江监测站,细颗粒物(PM2.5),109,136,173,82,89,158,55,59,58,52,52,17,14,0.8,0.8
2022-03-04T04:00:00,1188A,120.269,31.4867,无锡市,雪浪,颗粒物(PM10),56,61,128,36,58,161,66,63,62,17,40,5,8,0.8,0.9
2022-03-04T04:00:00,1189A,120.275,31.6219,无锡市,黄巷,颗粒物(PM10),61,72,147,36,71,173,104,82,82,13,49,6,9,1.0,1.2
2022-03-04T04:00:00,1190A,120.294,31.56,无锡市,曹张,颗粒物(PM10),55,60,118,34,66,166,71,58,58,17,43,7,11,0.7,1.1
2022-03-04T04:00:00,1191A,120.242,31.5031,无锡市,漆塘,颗粒物(PM10),53,56,129,34,63,181,80,75,75,17,41,6,9,0.8,1
2022-03-04T04:00:00,1192A,120.3489,31.5863,无锡市,东亭,颗粒物(PM10),52,53,137,29,63,161,80,63,63,18,63,6,8,0.8,0.9
2022-03-04T04:00:00,1193A,120.354,31.5475,无锡市,旺庄,颗粒物(PM10),57,63,131,39,67,166,66,56,56,24,58,3,7,0.4,0.5
2022-03-04T04:00:00,1194A,120.245,31.5631,无锡市,荣巷,颗粒物(PM10),58,66,127,39,70,173,78,67,67,20,52,7,9,0.6,0.8
2022-03-04T04:00:00,1195A,120.299,31.6817,无锡市,堰桥,颗粒物(PM10),64,78,146,44,74,164,80,59,59,32,64,7,10,1.1,1.3
2022-03-04T04:00:00,1196A,119.9633,31.762,常州市,市监测站,颗粒物(PM10),82,113,153,48,84,179,78,76,76,26,55,8,12,0.8,1
2022-03-04T04:00:00,1200A,119.9468,31.7069,常州市,武进监测站,细颗粒物(PM2.5),92,122,142,68,85,177,70,83,74,28,39,11,18,0.7,0.7
2022-03-04T04:00:00,1201A,119.9255,31.9087,常州市,安家,细颗粒物(PM2.5),92,131,150,68,86,181,65,48,48,41,73,10,10,0.8,1
2022-03-04T04:00:00,1203A,119.6707,32.1875,镇江市,新区办事处,细颗粒物(PM2.5),102,126,154,76,95,150,73,70,70,36,66,8,10,0.7,0.7
2022-03-04T04:00:00,1204A,119.4974,32.1968,镇江市,职教中心,细颗粒物(PM2.5),105,142,136,79,92,171,71,80,77,36,43,14,11,0.9,1
2022-03-04T04:00:00,1205A,119.4303,32.1328,镇江市,丹徒区监测站,细颗粒物(PM2.5),128,182,172,97,98,168,31,60,50,66,53,16,13,0.7,0.7
2022-03-04T04:00:00,1206A,119.905,32.4878,泰州市,公园路,细颗粒物(PM2.5),134,163,178,102,95,172,21,45,31,88,62,12,12,1.3,1.1
2022-03-04T04:00:00,1207A,119.9189,32.4625,泰州市,莲花,细颗粒物(PM2.5),128,178,194,97,97,171,14,34,19,90,68,6,9,1.2,1.1
2022-03-04T04:00:00,1209A,119.888,32.4639,泰州市,留学生创业园,颗粒物(PM10),118,185,175,78,82,165,21,34,28,87,67,11,12,1.0,0.9
2022-03-04T04:00:00,1210A,119.036,33.5981,淮安市,钵池山,细颗粒物(PM2.5),122,165,169,92,75,141,74,100,88,43,37,17,15,0.6,0.8
2022-03-04T04:00:00,1211A,119.007,33.575,淮安市,北京南路,颗粒物(PM10),106,161,189,77,68,140,55,85,67,58,46,23,14,0.8,0.9
2022-03-04T04:00:00,1212A,118.989,33.6067,淮安市,市监测站,颗粒物(PM10),119,188,183,80,63,158,64,76,71,57,45,25,20,1.3,1
2022-03-04T04:00:00,1213A,119.135,33.5039,淮安市,楚州区监测站,颗粒物(PM10),118,186,194,84,72,134,53,86,71,48,45,11,11,0.7,0.7
2022-03-04T04:00:00,1214A,119.0186,33.6297,淮安市,淮阴区监测站,颗粒物(PM10),108,165,165,68,63,142,65,92,72,50,44,28,19,2.0,1.2
2022-03-04T04:00:00,1215A,120.118,33.4022,盐城市,盐城电厂,细颗粒物(PM2.5),155,183,201,118,90,172,50,73,62,41,40,14,14,1.3,1
2022-03-04T04:00:00,1216A,120.156,33.3942,盐城市,市监测站,细颗粒物(PM2.5),144,185,184,110,96,166,42,83,62,58,49,23,20,1.1,0.9
2022-03-04T04:00:00,1218A,120.2144,33.38,盐城市,开发区管委会,细颗粒物(PM2.5),134,149,143,102,82,162,34,68,50,48,41,11,9,1.1,0.8
2022-03-04T04:00:00,1220A,118.293,33.9528,宿迁市,宿迁学院,颗粒物(PM10),93,135,162,65,66,146,66,85,80,46,55,7,9,0.6,0.6
2022-03-04T04:00:00,1221A,118.2442,33.9592,宿迁市,宿迁中学,颗粒物(PM10),102,154,174,59,64,140,82,102,91,31,36,8,8,0.4,0.4
2022-03-04T04:00:00,1223A,120.2072,30.2111,杭州市,滨江,颗粒物(PM10),58,66,106,35,55,137,29,24,22,42,59,5,6,0.7,0.9
2022-03-04T04:00:00,1224A,120.0633,30.2747,杭州市,西溪,细颗粒物(PM2.5),70,67,82,51,65,144,31,20,20,47,59,5,6,0.5,0.6
2022-03-04T04:00:00,1226A,120.3461,30.3153,杭州市,下沙,颗粒物(PM10),61,71,107,35,55,156,31,26,26,44,61,6,8,0.7,0.9
2022-03-04T04:00:00,1227A,120.1269,30.2456,杭州市,卧龙桥,细颗粒物(PM2.5),84,62,101,62,71,137,16,8,8,60,52,6,6,0.7,0.8
2022-03-04T04:00:00,1228A,120.1903,30.2692,杭州市,浙江农大,细颗粒物(PM2.5),77,83,112,56,64,139,25,22,22,41,50,5,6,0.6,0.8
2022-03-04T04:00:00,1230A,120.1197,30.3119,杭州市,和睦小学,细颗粒物(PM2.5),79,96,131,58,71,146,26,12,12,47,48,4,5,0.8,0.9
2022-03-04T04:00:00,1231A,120.3019,30.4183,杭州市,临平镇,颗粒物(PM10),78,105,145,38,53,156,40,54,48,31,49,4,5,0.8,1
2022-03-04T04:00:00,1232A,120.2697,30.1819,杭州市,城厢镇,细颗粒物(PM2.5),70,77,114,51,61,131,33,26,26,48,61,8,9,0.9,1
2022-03-04T04:00:00,1233A,120.0883,30.1808,杭州市,云栖,,46,46,93,24,42,142,26,22,20,52,45,6,7,0.8,0.8
2022-03-04T04:00:00,1234A,121.8358,29.911,宁波市,区环保大楼,,41,41,52,13,20,120,72,109,94,26,24,7,9,0.7,0.8
2022-03-04T04:00:00,1235A,121.56,29.82,宁波市,万里学院,,36,36,55,20,24,134,87,98,95,14,20,8,11,0.6,0.6
2022-03-04T04:00:00,1236A,121.713,29.9572,宁波市,龙赛医院,,34,34,54,17,27,122,73,111,86,29,34,6,9,0.5,0.6
2022-03-04T04:00:00,1239A,121.633,29.7733,宁波市,钱湖水厂,,32,32,45,15,22,136,83,103,97,11,19,7,9,0.5,0.5
2022-03-04T04:00:00,1240A,121.5856,29.8635,宁波市,太古小学,,41,41,56,20,32,113,79,94,86,16,27,7,8,0.5,0.6
2022-03-04T04:00:00,1241A,121.524,29.8674,宁波市,市环境监测中心,,35,35,52,12,18,123,81,92,87,14,26,8,10,0.5,0.6
2022-03-04T04:00:00,1242A,120.634,28.0089,温州市,瓯海,颗粒物(PM10),66,82,82,33,37,104,14,33,24,81,57,7,8,0.6,0.7
2022-03-04T04:00:00,1243A,120.6748,27.9939,温州市,南浦,颗粒物(PM10),68,86,102,29,44,108,23,44,33,73,56,6,8,0.5,0.6
2022-03-04T04:00:00,1244A,120.76,27.9747,温州市,龙湾,颗粒物(PM10),75,100,110,29,38,97,3,4,3,94,70,5,6,0.6,0.7
2022-03-04T04:00:00,1245A,120.6709,28.0167,温州市,市站,颗粒物(PM10),83,115,103,34,40,103,25,50,23,69,50,7,8,0.5,0.7
2022-03-04T04:00:00,1247A,120.6053,29.9928,绍兴市,城东开发委,,49,49,86,19,49,142,80,81,80,9,34,3,4,0.8,0.9
2022-03-04T04:00:00,1250A,120.0751,30.8669,湖州市,城西水厂,细颗粒物(PM2.5),60,46,114,43,64,165,39,39,38,40,54,5,9,0.7,0.8
2022-03-04T04:00:00,1252A,120.7436,30.778,嘉兴市,清河小学,颗粒物(PM10),59,68,100,27,52,135,39,51,43,38,45,8,11,0.5,0.8
2022-03-04T04:00:00,1253A,120.726,30.7478,嘉兴市,嘉兴学院,,45,45,80,31,41,156,52,59,53,32,41,9,13,0.6,0.8
2022-03-04T04:00:00,1255A,121.273,28.6459,台州市,黄岩环保大楼,颗粒物(PM10),84,117,130,37,39,127,19,24,22,47,48,6,8,0.4,0.5
2022-03-04T04:00:00,1256A,121.419,28.6542,台州市,台州环保大楼,颗粒物(PM10),77,104,110,47,48,119,36,35,35,40,50,6,8,0.6,0.8
2022-03-04T04:00:00,1257A,121.377,28.5773,台州市,路桥田洋王,细颗粒物(PM2.5),72,86,90,52,52,112,23,18,18,49,45,5,8,0.5,0.6
2022-03-04T04:00:00,1258A,122.122,30.0203,舟山市,定海檀枫,,34,34,44,15,16,115,88,88,88,13,30,4,5,0.4,0.5
2022-03-04T04:00:00,1259A,122.3094,29.9558,舟山市,普陀东港,,32,32,43,15,20,107,102,101,101,11,28,4,5,0.4,0.4
2022-03-04T04:00:00,1260A,122.19,29.9944,舟山市,临城新区,,29,29,37,13,18,118,80,99,89,13,26,3,5,0.6,0.6
2022-03-04T04:00:00,1262A,119.647,29.077,金华市,十五中,细颗粒物(PM2.5),60,46,78,43,45,115,61,69,66,16,43,5,6,0.7,1
2022-03-04T04:00:00,1263A,119.686,29.1029,金华市,监测站,细颗粒物(PM2.5),74,58,73,54,45,92,34,67,50,37,39,4,5,0.8,0.8
2022-03-04T04:00:00,1264A,118.8692,28.9398,衢州市,环保大楼,,50,50,76,35,38,130,52,46,45,20,38,5,14,0.9,1
2022-03-04T04:00:00,1265A,118.8709,28.9666,衢州市,实验学校,颗粒物(PM10),53,56,67,33,38,139,55,56,53,16,29,6,9,0.9,0.9
2022-03-04T04:00:00,1266A,118.8621,28.9808,衢州市,衢州学院,颗粒物(PM10),60,70,77,42,54,137,51,56,53,23,35,4,7,0.9,0.9
2022-03-04T04:00:00,1267A,119.914,28.4514,丽水市,监测站大楼,颗粒物(PM10),51,51,51,28,33,100,59,68,62,14,16,5,5,0.6,0.7
2022-03-04T04:00:00,1268A,119.93,28.4586,丽水市,莲都小学,颗粒物(PM10),51,52,57,30,32,95,58,70,59,16,21,6,6,0.6,0.7
2022-03-04T04:00:00,1269A,119.879,28.4231,丽水市,余庄前,颗粒物(PM10),51,52,52,35,32,120,53,63,58,14,18,8,8,0.6,0.7
2022-03-04T04:00:00,1270A,117.1959,31.7848,合肥市,明珠广场,"颗粒物(PM10),细颗粒物(PM2.5)",70,89,157,51,50,129,101,83,83,15,60,6,9,0.7,0.7
2022-03-04T04:00:00,1271A,117.3072,31.8764,合肥市,三里街,颗粒物(PM10),80,110,174,48,50,124,81,70,70,35,65,6,11,0.8,0.9
2022-03-04T04:00:00,1272A,117.2588,31.8707,合肥市,琥珀山庄,颗粒物(PM10),75,100,158,44,46,130,92,84,84,24,46,5,9,0.6,0.7
2022-03-04T04:00:00,1273A,117.1604,31.9052,合肥市,董铺水库(对照点),颗粒物(PM10),81,112,161,44,41,120,89,81,79,16,41,6,9,0.7,0.7
2022-03-04T04:00:00,1274A,117.25,31.8571,合肥市,长江中路,颗粒物(PM10),76,102,164,36,44,136,95,84,84,28,55,6,11,0.7,0.8
2022-03-04T04:00:00,1275A,117.266,31.9436,合肥市,庐阳区,颗粒物(PM10),81,112,177,22,34,133,81,103,90,21,49,7,11,0.7,0.8
2022-03-04T04:00:00,1276A,117.336,31.8586,合肥市,瑶海区,颗粒物(PM10),74,97,178,48,50,147,84,84,71,32,64,7,12,0.9,0.9
2022-03-04T04:00:00,1277A,117.3027,31.7964,合肥市,包河区,细颗粒物(PM2.5),77,102,161,56,53,150,84,52,52,31,56,5,8,0.7,0.7
2022-03-04T04:00:00,1278A,117.2776,31.7385,合肥市,滨湖新区,颗粒物(PM10),68,85,163,41,47,157,66,77,74,51,37,7,11,0.6,0.6
2022-03-04T04:00:00,1279A,117.1318,31.8403,合肥市,高新区,颗粒物(PM10),70,90,153,46,46,145,98,96,96,27,44,8,12,0.8,1
2022-03-04T04:00:00,1280A,119.3903,26.0543,福州市,鼓山(对照点),颗粒物(PM10),64,77,60,28,35,139,99,92,92,17,21,4,4,0.4,0.5
2022-03-04T04:00:00,1282A,119.2681,26.0504,福州市,师大,颗粒物(PM10),71,91,73,33,43,133,33,76,57,52,28,4,3,0.6,0.6
2022-03-04T04:00:00,1283A,119.2984,26.1028,福州市,五四北路,颗粒物(PM10),65,79,70,29,39,128,50,52,49,36,28,3,3,0.6,0.7
2022-03-04T04:00:00,1284A,119.2648,26.0768,福州市,杨桥西路,颗粒物(PM10),73,96,74,29,44,118,27,66,42,60,30,5,4,0.8,0.9
2022-03-04T04:00:00,1285A,119.317,26.0746,福州市,紫阳,颗粒物(PM10),81,112,80,35,46,128,18,72,52,74,35,5,5,0.7,0.8
2022-03-04T04:00:00,1286A,118.1608,24.8169,厦门市,溪东(对照点),细颗粒物(PM2.5),77,54,52,56,46,202,39,45,43,5,7,1,1,0.4,0.4
2022-03-04T04:00:00,1287A,118.1514,24.4767,厦门市,洪文,细颗粒物(PM2.5),80,79,68,59,39,189,15,85,54,62,25,4,4,0.8,0.7
2022-03-04T04:00:00,1288A,118.0661,24.4444,厦门市,鼓浪屿,颗粒物(PM10),64,78,56,45,30,158,29,70,39,60,39,8,5,0.7,0.6
2022-03-04T04:00:00,1290A,115.8931,28.6843,南昌市,省外办,细颗粒物(PM2.5),69,69,116,50,60,111,64,79,64,17,57,7,11,1.1,1.3
2022-03-04T04:00:00,1291A,115.8886,28.7003,南昌市,省林业公司,颗粒物(PM10),66,82,122,46,59,110,55,71,55,29,49,2,7,1.0,1
2022-03-04T04:00:00,1292A,115.8126,28.7442,南昌市,林科所,细颗粒物(PM2.5),72,53,91,52,57,124,92,99,95,9,32,4,8,1.1,1.2
2022-03-04T04:00:00,1294A,115.8518,28.687,南昌市,建工学校,细颗粒物(PM2.5),67,63,121,48,55,102,82,88,79,14,53,6,11,1.0,1.1
2022-03-04T04:00:00,1295A,115.8921,28.6424,南昌市,象湖,细颗粒物(PM2.5),69,66,114,50,63,96,73,84,71,17,58,2,8,0.7,1.2
2022-03-04T04:00:00,1296A,115.7423,28.7996,南昌市,武术学校(对照点),,42,37,55,29,37,122,63,74,68,10,21,8,9,0.7,0.7
2022-03-04T04:00:00,1298A,115.9314,28.6842,南昌市,省站,细颗粒物(PM2.5),67,63,115,48,65,112,65,71,61,15,49,3,9,0.6,0.7
2022-03-04T04:00:00,1299A,116.9862,36.6114,济南市,科干所,颗粒物(PM10),108,166,129,44,34,110,64,92,77,22,13,18,16,0.8,0.7
2022-03-04T04:00:00,1300A,116.9376,36.665,济南市,农科所,颗粒物(PM10),111,171,133,49,35,111,47,82,65,25,25,17,15,0.9,0.8
2022-03-04T04:00:00,1301A,117.1265,36.6734,济南市,开发区,颗粒物(PM10),108,166,120,42,35,113,77,104,89,15,24,15,13,0.6,0.5
2022-03-04T04:00:00,1303A,117.0624,36.6868,济南市,省种子仓库,颗粒物(PM10),98,146,126,59,44,117,62,97,80,29,40,17,16,1.0,1.2
2022-03-04T04:00:00,1304A,116.9489,36.6447,济南市,机床二厂,颗粒物(PM10),114,178,150,66,40,112,38,81,62,49,30,16,13,0.7,0.6
2022-03-04T04:00:00,1305A,117.0495,36.663,济南市,市监测站,颗粒物(PM10),105,159,130,47,36,115,60,95,77,39,36,18,14,0.6,0.8
2022-03-04T04:00:00,1306A,116.7675,36.5484,济南市,长清党校,颗粒物(PM10),109,168,135,56,41,113,51,80,66,39,25,21,17,0.8,0.7
2022-03-04T04:00:00,1307A,120.6659,36.2403,青岛市,仰口(对照点),细颗粒物(PM2.5),117,180,134,88,67,155,110,148,130,24,34,8,7,0.8,0.9
2022-03-04T04:00:00,1310A,120.4134,36.0658,青岛市,市南区东部子站,细颗粒物(PM2.5),140,210,127,107,60,121,98,110,101,58,54,6,10,1.1,0.8
2022-03-04T04:00:00,1311A,120.3664,36.1032,青岛市,四方区子站,细颗粒物(PM2.5),168,205,128,127,69,134,119,132,126,27,44,6,10,1.1,0.9
2022-03-04T04:00:00,1312A,120.2994,36.054,青岛市,市南区西部子站,细颗粒物(PM2.5),158,197,132,120,68,138,130,132,130,29,51,6,12,1.0,0.7
2022-03-04T04:00:00,1313A,120.4581,36.0858,青岛市,崂山区子站,细颗粒物(PM2.5),147,219,130,112,60,135,125,133,130,28,37,7,12,1.1,0.9
2022-03-04T04:00:00,1314A,120.1983,35.9608,青岛市,黄岛区子站,细颗粒物(PM2.5),196,224,143,147,82,117,113,116,115,33,58,5,11,1.2,0.9
2022-03-04T04:00:00,1315A,120.3999,36.3083,青岛市,城阳区子站,颗粒物(PM10),125,200,140,81,41,146,87,128,106,44,42,10,11,1.0,0.8
2022-03-04T04:00:00,1316A,113.69031,34.76122,郑州市,烟厂,颗粒物(PM10),78,105,151,41,52,81,41,41,37,44,54,8,12,0.6,0.8
2022-03-04T04:00:00,1317A,113.65724,34.77134,郑州市,郑纺机,颗粒物(PM10),74,97,153,34,61,83,28,36,30,64,70,10,13,0.4,0.7
2022-03-04T04:00:00,1318A,113.67526,34.80246,郑州市,银行学校,颗粒物(PM10),68,85,140,37,52,92,52,50,50,37,48,10,14,0.4,0.7
2022-03-04T04:00:00,1319A,113.56746,34.81334,郑州市,供水公司,颗粒物(PM10),77,103,143,39,48,93,23,52,42,66,57,11,13,0.8,0.7
2022-03-04T04:00:00,1320A,113.7329,34.7178,郑州市,经开区管委,颗粒物(PM10),74,98,153,42,53,88,35,24,24,43,54,7,11,0.5,0.6
2022-03-04T04:00:00,1321A,113.73961,34.77172,郑州市,四十七中,颗粒物(PM10),74,98,150,39,49,87,61,57,56,33,54,8,11,0.4,0.7
2022-03-04T04:00:00,1322A,113.60532,34.74838,郑州市,市监测站,颗粒物(PM10),75,100,160,32,53,85,35,34,29,52,66,10,14,0.6,0.7
2022-03-04T04:00:00,1323A,113.64164,34.7525,郑州市,河医大,颗粒物(PM10),82,114,155,34,55,85,43,30,30,44,59,5,8,0.6,0.7
2022-03-04T04:00:00,1324A,113.51488,34.91089,郑州市,岗李水库(对照点),颗粒物(PM10),82,114,156,47,51,100,37,27,27,33,40,14,11,0.8,0.7
2022-03-04T04:00:00,1325A,114.3677,30.5584,武汉市,东湖梨园,细颗粒物(PM2.5),92,98,127,68,56,121,7,14,9,63,62,6,11,1.1,1
2022-03-04T04:00:00,1326A,114.2529,30.558,武汉市,汉阳月湖,"颗粒物(PM10),细颗粒物(PM2.5)",77,104,130,56,52,115,14,38,29,61,70,4,9,0.9,1
2022-03-04T04:00:00,1327A,114.282,30.6189,武汉市,汉口花桥,细颗粒物(PM2.5),89,120,136,66,61,111,21,20,20,59,73,7,12,1.0,1.1
2022-03-04T04:00:00,1328A,114.3025,30.5332,武汉市,武昌紫阳,细颗粒物(PM2.5),105,115,126,79,68,117,12,26,15,60,69,7,12,1.1,1.2
2022-03-04T04:00:00,1329A,114.3646,30.6217,武汉市,青山钢花,细颗粒物(PM2.5),104,117,147,78,67,107,6,9,8,76,82,7,15,1.3,1.4
2022-03-04T04:00:00,1330A,114.1566,30.4825,武汉市,沌口新区,细颗粒物(PM2.5),87,93,134,64,72,124,16,64,44,83,66,8,14,0.9,1.1
2022-03-04T04:00:00,1331A,114.3014,30.5944,武汉市,汉口江滩,细颗粒物(PM2.5),115,120,144,87,72,112,14,10,10,66,94,7,11,1.1,1.1
2022-03-04T04:00:00,1333A,114.135,30.6319,武汉市,吴家山,细颗粒物(PM2.5),102,118,140,76,57,115,36,33,33,46,73,9,13,1.0,1.2
2022-03-04T04:00:00,1334A,113.8454,30.2917,武汉市,沉湖七壕(对照点),颗粒物(PM10),70,90,130,47,47,139,20,88,67,64,30,5,7,0.7,0.7
2022-03-04T04:00:00,1335A,113.0833,28.2325,长沙市,经开区环保局,细颗粒物(PM2.5),140,129,88,107,67,84,26,35,30,44,49,11,9,0.8,0.8
2022-03-04T04:00:00,1336A,112.8872,28.2189,长沙市,高开区环保局,细颗粒物(PM2.5),117,115,112,88,68,76,40,40,40,36,56,9,10,0.8,1
2022-03-04T04:00:00,1337A,113.0792,28.2053,长沙市,马坡岭,细颗粒物(PM2.5),135,140,105,103,67,82,27,37,32,30,36,12,11,0.7,0.6
2022-03-04T04:00:00,1338A,112.9394,28.19,长沙市,湖南师范大学,细颗粒物(PM2.5),113,136,107,85,62,76,52,53,53,27,50,9,10,0.9,1
2022-03-04T04:00:00,1339A,113.0178,28.1322,长沙市,雨花区环保局,细颗粒物(PM2.5),124,151,112,94,65,59,33,45,39,41,55,8,8,0.9,0.7
2022-03-04T04:00:00,1340A,112.9792,28.2597,长沙市,伍家岭,细颗粒物(PM2.5),113,124,113,85,63,68,51,44,44,25,47,10,9,0.7,0.8
2022-03-04T04:00:00,1341A,113.0014,28.1944,长沙市,火车新站,细颗粒物(PM2.5),134,137,113,102,72,66,46,47,47,31,54,11,10,0.8,0.9
2022-03-04T04:00:00,1342A,112.9844,28.1178,长沙市,天心区环保局,细颗粒物(PM2.5),127,146,115,96,68,66,38,46,42,29,50,9,10,0.8,0.6
2022-03-04T04:00:00,1343A,112.8908,28.1308,长沙市,湖南中医药大学,细颗粒物(PM2.5),114,121,98,86,67,74,48,46,46,23,46,6,11,0.7,1.1
2022-03-04T04:00:00,1344A,112.9581,28.3611,长沙市,沙坪(对照点),细颗粒物(PM2.5),110,136,98,83,54,110,48,46,46,21,30,12,12,1.0,0.9
2022-03-04T04:00:00,1345A,113.2347,23.1423,广州市,广雅中学,颗粒物(PM10),53,56,56,36,34,162,42,61,48,45,34,7,7,0.9,0.9
2022-03-04T04:00:00,1346A,113.2612,23.105,广州市,市五中,颗粒物(PM10),54,57,53,37,34,174,43,60,49,44,34,5,5,0.8,0.8
2022-03-04T04:00:00,1348A,113.3478,23.0916,广州市,广东商学院,细颗粒物(PM2.5),57,59,51,40,32,144,14,25,20,73,47,6,5,0.8,0.8
2022-03-04T04:00:00,1349A,113.4332,23.1047,广州市,市八十六中,颗粒物(PM10),71,91,71,39,31,166,4,6,6,84,68,8,8,1.1,0.9
2022-03-04T04:00:00,1350A,113.3505,22.9483,广州市,番禺中学,颗粒物(PM10),54,58,53,34,31,162,58,60,59,38,33,9,9,0.8,0.8
2022-03-04T04:00:00,1351A,113.2146,23.3916,广州市,花都师范,颗粒物(PM10),59,67,58,38,33,137,21,44,29,68,46,4,5,0.8,0.8
2022-03-04T04:00:00,1352A,113.2597,23.1331,广州市,市监测站,,50,49,52,35,32,169,50,57,49,38,36,6,6,0.9,0.9
2022-03-04T04:00:00,1353A,113.5618,23.312,广州市,九龙镇镇龙,颗粒物(PM10),62,74,67,33,32,156,0,0,0,54,49,5,6,0.9,0.8
2022-03-04T04:00:00,1354A,113.2765,23.1544,广州市,麓湖,,48,48,48,26,28,147,5,42,19,77,39,6,7,0.9,0.9
2022-03-04T04:00:00,1355A,113.443,23.3035,广州市,帽峰山森林公园(对照点),,49,49,46,30,28,156,8,30,19,60,35,7,8,1.0,0.9
2022-03-04T04:00:00,1356A,114.1063,22.5545,深圳市,通心岭子站,细颗粒物(PM2.5),58,49,37,41,29,129,41,110,84,38,9,4,4,0.8,0.7
2022-03-04T04:00:00,1357A,114.117,22.5625,深圳市,洪湖,细颗粒物(PM2.5),63,69,44,45,31,145,15,105,56,80,23,5,4,0.9,0.8
2022-03-04T04:00:00,1358A,113.987,22.5417,深圳市,华侨城,,46,44,38,32,28,126,68,109,89,14,12,5,6,0.6,0.7
2022-03-04T04:00:00,1359A,113.9181,22.5171,深圳市,南海子站,细颗粒物(PM2.5),60,52,40,43,30,132,99,111,102,18,17,2,2,0.8,0.8
2022-03-04T04:00:00,1360A,114.2458,22.5689,深圳市,盐田,,43,37,37,30,31,161,60,72,69,34,19,3,2,0.9,0.9
2022-03-04T04:00:00,1361A,114.2283,22.7244,深圳市,龙岗,,41,41,42,28,29,144,59,104,90,48,21,2,2,0.6,0.7
2022-03-04T04:00:00,1363A,114.494,22.5422,深圳市,南澳,,36,32,39,25,29,130,84,83,83,9,11,6,5,0.9,0.9
2022-03-04T04:00:00,1364A,114.41,22.6342,深圳市,葵涌,,29,27,40,20,28,149,75,85,77,16,19,5,5,0.6,0.6
2022-03-04T04:00:00,1365A,114.297,22.5978,深圳市,梅沙,,33,32,41,23,29,166,103,116,107,11,15,8,8,0.7,0.8
2022-03-04T04:00:00,1366A,114.0678,22.738,深圳市,观澜,细颗粒物(PM2.5),63,74,54,45,30,133,35,74,54,37,32,4,5,1.1,0.9
2022-03-04T04:00:00,1367A,113.5814,22.2618,珠海市,吉大,,42,32,39,29,24,144,78,110,99,23,18,8,8,0.6,0.6
2022-03-04T04:00:00,1368A,113.4881,22.2335,珠海市,前山,,38,38,47,19,26,162,111,122,115,19,32,9,10,0.4,0.5
2022-03-04T04:00:00,1369A,113.628,22.4251,珠海市,唐家,,45,43,45,31,32,150,61,92,79,9,17,7,8,0.5,0.5
2022-03-04T04:00:00,1370A,113.299,22.2281,珠海市,斗门,,38,36,50,21,26,172,119,134,126,12,23,5,6,0.4,0.5
2022-03-04T04:00:00,1371A,113.1294,23.0067,佛山市,湾梁,颗粒物(PM10),59,68,67,36,28,214,74,85,80,30,28,9,8,0.8,0.7
2022-03-04T04:00:00,1372A,113.1083,23.0478,佛山市,华材职中,细颗粒物(PM2.5),62,61,64,44,31,208,75,83,81,25,24,7,7,0.6,0.6
2022-03-04T04:00:00,1373A,113.144,23.0453,佛山市,南海气象局,细颗粒物(PM2.5),64,54,61,46,35,174,61,60,60,32,35,6,5,0.7,0.7
2022-03-04T04:00:00,1374A,113.2881,22.8094,佛山市,顺德苏岗,细颗粒物(PM2.5),55,43,47,39,32,153,3,69,40,79,38,4,3,1.0,0.9
2022-03-04T04:00:00,1376A,112.8383,22.8678,佛山市,高明孔堂,颗粒物(PM10),51,51,41,35,27,139,59,77,68,21,18,5,5,0.7,0.6
2022-03-04T04:00:00,1377A,112.8836,23.1588,佛山市,三水监测站,细颗粒物(PM2.5),60,68,65,43,37,168,34,50,39,57,47,3,5,0.6,0.5
2022-03-04T04:00:00,1378A,112.867,23.185,佛山市,三水云东海,,48,48,65,31,32,192,26,57,47,39,39,5,6,0.8,0.8
2022-03-04T04:00:00,1379A,113.3769,22.5211,中山市,华柏园,细颗粒物(PM2.5),54,44,41,38,28,127,58,100,85,21,21,4,4,0.6,0.7
2022-03-04T04:00:00,1380A,113.3881,22.5497,中山市,张溪,颗粒物(PM10),53,55,48,33,26,136,57,73,57,25,21,5,5,0.6,0.6
2022-03-04T04:00:00,1381A,113.4075,22.5111,中山市,紫马岭,,32,27,40,22,24,133,58,75,62,12,18,6,6,0.5,0.6
2022-03-04T04:00:00,1382A,113.4411,22.4853,中山市,长江旅游区(对照点),,25,20,28,17,24,142,38,46,42,12,15,3,4,0.4,0.5
2022-03-04T04:00:00,1383A,113.1064,22.6058,江门市,北街,,36,33,43,25,25,147,87,111,98,16,20,6,8,0.7,0.7
2022-03-04T04:00:00,1384A,113.0731,22.5835,江门市,西区,,39,39,48,25,27,147,106,119,112,13,21,6,6,0.5,0.6
2022-03-04T04:00:00,1385A,113.0219,22.5311,江门市,圭峰西,,45,40,46,31,34,141,90,107,94,15,21,5,6,0.5,0.6
2022-03-04T04:00:00,1386A,113.0828,22.5947,江门市,东湖,颗粒物(PM10),56,62,51,24,28,147,101,124,109,12,17,6,7,0.4,0.5
2022-03-04T04:00:00,1389A,113.7547,23.0494,东莞市,莞城梨川,,49,49,54,27,32,168,74,78,74,25,31,8,8,0.7,0.7
2022-03-04T04:00:00,1390A,113.7944,23.0128,东莞市,东城石井,,38,38,47,24,28,164,66,56,56,21,33,6,7,0.6,0.6
2022-03-04T04:00:00,1391A,113.7383,22.9658,东莞市,南城西平,细颗粒物(PM2.5),80,75,54,59,45,168,24,22,22,62,46,8,9,0.9,0.8
2022-03-04T04:00:00,1392A,114.4183,23.0528,惠州市,河南岸金山湖子站,细颗粒物(PM2.5),63,55,44,45,31,136,40,98,75,40,18,4,3,0.8,0.7
2022-03-04T04:00:00,1393A,114.4053,23.0822,惠州市,下埔横江三路子站,细颗粒物(PM2.5),64,57,46,46,27,141,56,105,76,33,21,4,4,0.7,0.6
2022-03-04T04:00:00,1394A,114.4103,23.1142,惠州市,江北云山西路子站,细颗粒物(PM2.5),74,66,46,54,33,149,63,96,69,28,18,10,6,0.9,0.8
2022-03-04T04:00:00,1395A,114.4645,22.7833,惠州市,惠阳区承修路船湖子站,颗粒物(PM10),58,65,52,39,38,148,86,118,103,28,20,4,4,0.6,0.6
2022-03-04T04:00:00,1396A,114.5317,22.7422,惠州市,大亚湾管委会子站,,46,46,51,28,34,156,56,122,84,37,20,4,5,0.8,0.9
2022-03-04T04:00:00,1397A,112.4267,23.0706,肇庆市,睦岗子站,细颗粒物(PM2.5),58,63,43,41,28,93,49,87,71,47,26,21,11,0.9,0.8
2022-03-04T04:00:00,1398A,112.4645,23.0475,肇庆市,城中子站,颗粒物(PM10),51,52,42,31,27,97,77,85,79,24,25,23,13,0.7,0.6
2022-03-04T04:00:00,1399A,112.5544,23.1522,肇庆市,坑口子站,,30,30,44,21,30,93,47,70,59,17,23,13,15,0.5,0.5
2022-03-04T04:00:00,1400A,112.4753,23.1,肇庆市,七星岩子站(对照点),,49,45,41,34,31,96,71,76,70,19,21,20,11,0.8,0.7
2022-03-04T04:00:00,1401A,108.3103,22.7881,南宁市,二十一中,细颗粒物(PM2.5),55,48,54,39,39,123,83,81,81,12,21,5,8,0.6,0.8
2022-03-04T04:00:00,1402A,108.3141,22.8528,南宁市,北湖,细颗粒物(PM2.5),52,42,62,36,38,117,77,77,77,8,19,7,10,0.6,0.8
2022-03-04T04:00:00,1403A,108.3206,22.8225,南宁市,市监测站,细颗粒物(PM2.5),55,36,57,39,41,121,81,79,78,13,29,8,10,0.6,0.8
2022-03-04T04:00:00,1404A,108.3829,22.8037,南宁市,大自然花园,细颗粒物(PM2.5),54,37,50,38,36,117,78,80,79,11,19,6,7,0.6,0.7
2022-03-04T04:00:00,1405A,108.4394,22.7904,南宁市,仙葫(对照点),细颗粒物(PM2.5),59,37,52,42,41,124,84,88,87,11,22,5,6,0.6,0.7
2022-03-04T04:00:00,1406A,108.2397,22.8467,南宁市,区农职院,细颗粒物(PM2.5),53,40,59,37,39,116,71,70,70,19,28,6,9,0.8,1
2022-03-04T04:00:00,1407A,108.3275,22.735,南宁市,英华嘉园,细颗粒物(PM2.5),68,53,56,49,41,106,62,66,63,24,31,6,7,0.3,0.6
2022-03-04T04:00:00,1408A,108.2257,22.7757,南宁市,沙井镇街道办,细颗粒物(PM2.5),57,54,63,40,40,118,57,60,57,24,26,5,6,0.6,0.7
2022-03-04T04:00:00,1409A,110.576,19.9507,海口市,东寨港(对照点),,26,14,27,18,20,75,36,38,36,4,5,6,6,0.3,0.4
2022-03-04T04:00:00,1410A,110.3232,20.0574,海口市,海南大学,,36,36,38,19,24,92,31,41,35,12,9,3,3,0.5,0.5
2022-03-04T04:00:00,1411A,110.283,20.0053,海口市,秀英海南医院,,35,35,36,13,20,88,41,38,38,9,8,4,3,0.5,0.5
2022-03-04T04:00:00,1412A,110.338,19.9969,海口市,海南师范大学,,24,24,35,15,19,87,39,38,38,8,8,2,2,0.5,0.5
2022-03-04T04:00:00,1413A,110.33,20.0356,海口市,龙华路环保局宿舍,,30,30,39,15,22,99,24,45,35,15,10,4,5,0.6,0.5
2022-03-04T04:00:00,1414A,106.3787,29.8279,重庆市,缙云山(对照点),细颗粒物(PM2.5),55,54,53,39,38,107,107,95,95,16,22,7,7,0.7,0.7
2022-03-04T04:00:00,1416A,106.4213,29.8253,重庆市,天生,细颗粒物(PM2.5),70,69,70,51,48,88,2,4,3,43,42,8,8,0.9,0.9
2022-03-04T04:00:00,1417A,106.6263,29.7228,重庆市,两路,细颗粒物(PM2.5),65,63,72,47,46,77,12,14,13,80,75,7,10,1.0,1.1
2022-03-04T04:00:00,1418A,106.2953,29.5983,重庆市,虎溪,细颗粒物(PM2.5),60,56,67,43,44,92,5,5,5,56,53,5,6,0.8,1
2022-03-04T04:00:00,1419A,106.5777,29.5102,重庆市,南坪,细颗粒物(PM2.5),84,105,73,62,54,92,3,38,22,69,44,18,12,1.2,0.9
2022-03-04T04:00:00,1420A,106.6556,29.6277,重庆市,唐家沱,细颗粒物(PM2.5),67,65,73,48,47,91,14,8,8,30,38,3,7,0.6,0.7
2022-03-04T04:00:00,1421A,106.6349,29.4906,重庆市,茶园,"颗粒物(PM10),细颗粒物(PM2.5)",77,103,92,56,51,89,9,10,10,54,51,10,12,0.9,0.9
2022-03-04T04:00:00,1422A,106.3754,29.4572,重庆市,白市驿,颗粒物(PM10),68,86,95,32,44,80,5,25,14,56,51,9,11,1.2,1.1
2022-03-04T04:00:00,1425A,106.6205,29.7166,重庆市,空港,细颗粒物(PM2.5),62,69,74,44,47,81,13,7,7,58,59,4,7,0.8,0.9
2022-03-04T04:00:00,1426A,106.4782,29.4875,重庆市,新山村,细颗粒物(PM2.5),80,85,87,59,52,57,5,5,5,86,73,16,12,1.4,1.1
2022-03-04T04:00:00,1427A,106.5616,29.6453,重庆市,礼嘉,颗粒物(PM10),87,123,82,39,41,89,6,6,6,62,56,7,9,0.5,0.5
2022-03-04T04:00:00,1428A,106.4522,29.7091,重庆市,蔡家,细颗粒物(PM2.5),67,52,72,48,51,95,5,7,6,46,46,5,6,1.1,1
2022-03-04T04:00:00,1429A,106.5093,29.3917,重庆市,鱼新街,细颗粒物(PM2.5),93,83,83,69,50,90,4,5,4,56,49,7,10,1.1,1.2
2022-03-04T04:00:00,1431A,103.9728,30.7236,成都市,金泉两河,细颗粒物(PM2.5),123,131,123,93,83,100,3,8,6,59,47,4,6,0.5,0.6
2022-03-04T04:00:00,1432A,104.1419,30.6764,成都市,十里店,颗粒物(PM10),105,159,124,76,59,112,2,34,20,77,55,5,5,0.7,0.7
2022-03-04T04:00:00,1433A,104.0594,30.5767,成都市,三瓦窑,细颗粒物(PM2.5),129,147,121,98,68,113,0,27,8,90,54,6,6,0.8,0.6
2022-03-04T04:00:00,1434A,104.1122,30.6306,成都市,沙河铺,细颗粒物(PM2.5),103,120,106,77,66,126,5,33,19,63,45,4,5,0.9,0.9
2022-03-04T04:00:00,1437A,104.0431,30.6556,成都市,君平街,细颗粒物(PM2.5),109,127,113,82,73,112,3,31,14,90,68,6,8,0.9,0.8
2022-03-04T04:00:00,1438A,103.6202,31.0201,成都市,灵岩寺(对照点),细颗粒物(PM2.5),84,75,75,62,50,134,98,102,100,13,15,8,12,0.4,0.4
2022-03-04T04:00:00,1439A,106.6899,26.5998,贵阳市,马鞍山,细颗粒物(PM2.5),58,56,77,41,63,120,50,59,52,8,18,6,9,0.5,0.6
2022-03-04T04:00:00,1440A,106.6971,26.5694,贵阳市,市环保站,细颗粒物(PM2.5),55,51,72,39,43,111,51,54,52,14,27,3,7,0.2,0.3
2022-03-04T04:00:00,1441A,106.6243,26.6266,贵阳市,鉴湖路,,46,46,82,29,61,114,48,59,54,9,19,3,7,0.5,0.6
2022-03-04T04:00:00,1442A,106.7487,26.6343,贵阳市,燕子冲,细颗粒物(PM2.5),58,46,68,41,57,126,51,55,52,8,13,8,10,0.8,0.8
2022-03-04T04:00:00,1443A,106.6555,26.4365,贵阳市,碧云窝,细颗粒物(PM2.5),77,88,83,56,58,114,49,58,53,11,17,6,9,0.5,0.6
2022-03-04T04:00:00,1444A,106.694,26.5161,贵阳市,中院村,细颗粒物(PM2.5),64,73,81,46,56,115,52,54,52,11,22,7,12,0.6,0.7
2022-03-04T04:00:00,1445A,106.7109,26.6027,贵阳市,红边门,细颗粒物(PM2.5),55,51,74,39,57,116,57,58,58,16,22,7,12,0.4,0.5
2022-03-04T04:00:00,1446A,106.7164,26.5699,贵阳市,新华路,细颗粒物(PM2.5),58,57,75,41,55,116,52,56,52,5,15,4,9,0.5,0.6
2022-03-04T04:00:00,1447A,106.674,26.5424,贵阳市,太慈桥,细颗粒物(PM2.5),62,71,85,44,53,127,50,57,53,16,24,2,6,0.4,0.5
2022-03-04T04:00:00,1450A,102.8204,24.8886,昆明市,呈贡新区,,34,34,29,22,18,112,88,82,82,16,16,14,9,0.3,0.3
2022-03-04T04:00:00,1451A,102.6251,24.9608,昆明市,西山森林公园(对照点),,33,33,28,16,16,108,96,86,86,13,13,14,12,0.8,0.5
2022-03-04T04:00:00,1452A,102.7252,25.0902,昆明市,龙泉镇,,,100,60,35,26,108,4,8,6,83,47,12,11,0.4,0.4
2022-03-04T04:00:00,1453A,102.7266,25.0375,昆明市,东风东路,,31,31,34,18,20,105,74,75,68,26,28,14,11,0.3,0.3
2022-03-04T04:00:00,1454A,102.6742,25.0669,昆明市,金鼎山,,29,27,47,18,26,106,90,99,77,14,33,9,19,0.4,0.6
2022-03-04T04:00:00,1455A,102.6644,25.0401,昆明市,碧鸡广场,,31,31,39,17,20,107,73,54,54,23,38,10,11,0.2,0.3
2022-03-04T04:00:00,1456A,91.1319,29.6514,拉萨市,八廓街,,21,20,26,8,15,94,67,52,52,13,14,6,6,0.4,0.4
2022-03-04T04:00:00,1457A,91.1221,29.6747,拉萨市,市环保局,,25,25,30,14,21,89,56,59,58,16,15,5,6,0.6,0.6
2022-03-04T04:00:00,1458A,91.0874,29.6475,拉萨市,区监测站,,28,18,18,7,8,100,88,93,92,5,10,5,5,0.2,0.3
2022-03-04T04:00:00,1459A,91.1774,29.6541,拉萨市,西藏大学,,23,22,20,16,12,105,65,60,60,13,13,6,6,0.5,0.5
2022-03-04T04:00:00,1460A,90.9798,29.6588,拉萨市,区辐射站,,29,18,23,13,15,101,91,94,90,4,13,5,6,0.2,0.2
2022-03-04T04:00:00,1461A,91.0834,29.6292,拉萨市,拉萨火车站,,27,20,23,8,11,91,85,87,86,2,10,7,7,0.3,0.4
2022-03-04T04:00:00,1462A,108.882,34.2749,西安市,高压开关厂,细颗粒物(PM2.5),156,214,192,119,79,62,5,5,5,64,80,11,11,0.9,1
2022-03-04T04:00:00,1463A,108.993,34.2629,西安市,兴庆小区,颗粒物(PM10),109,167,160,81,66,75,4,4,4,88,77,9,9,0.9,1
2022-03-04T04:00:00,1464A,109.06,34.2572,西安市,纺织城,颗粒物(PM10),98,146,177,58,66,59,2,2,2,66,69,8,13,0.6,0.7
2022-03-04T04:00:00,1465A,108.9356,34.2173,西安市,小寨,颗粒物(PM10),128,206,178,95,70,57,3,2,2,75,87,9,10,0.7,1
2022-03-04T04:00:00,1466A,108.954,34.2713,西安市,市人民体育场,细颗粒物(PM2.5),122,141,153,92,71,73,5,3,3,74,81,7,7,0.7,1
2022-03-04T04:00:00,1467A,108.8922,34.2322,西安市,高新西区,细颗粒物(PM2.5),150,166,177,115,77,54,7,7,6,68,91,13,12,0.8,1.1
2022-03-04T04:00:00,1468A,108.935,34.3474,西安市,经开区,细颗粒物(PM2.5),134,173,196,102,87,78,7,7,7,79,80,6,7,0.7,0.9
2022-03-04T04:00:00,1469A,108.906,34.1546,西安市,长安区,颗粒物(PM10),126,202,192,81,69,58,4,4,4,72,75,10,10,1.2,1.2
2022-03-04T04:00:00,1471A,109.2186,34.3731,西安市,临潼区,颗粒物(PM10),98,145,148,49,56,87,57,32,27,37,62,6,11,0.6,0.8
2022-03-04T04:00:00,1472A,108.869,34.378,西安市,草滩(对照点),细颗粒物(PM2.5),165,276,207,125,83,72,5,5,5,91,76,10,9,1.2,0.9
2022-03-04T04:00:00,1473A,108.985,34.1978,西安市,曲江文化产业集团,细颗粒物(PM2.5),203,165,182,153,73,60,4,5,4,78,73,8,9,0.8,0.9
2022-03-04T04:00:00,1474A,109.051,34.3213,西安市,广运潭,颗粒物(PM10),101,152,166,59,65,77,3,3,3,67,63,6,8,0.7,0.7
2022-03-04T04:00:00,1476A,103.631,36.1031,兰州市,兰炼宾馆,颗粒物(PM10),57,64,71,29,38,96,54,85,76,37,33,7,15,0.8,0.9
2022-03-04T04:00:00,1477A,104.1373,35.9454,兰州市,榆中兰大校区(对照点),颗粒物(PM10),59,68,81,24,27,129,112,110,110,8,20,4,10,0.4,0.9
2022-03-04T04:00:00,1478A,103.8412,36.0726,兰州市,生物制品所,颗粒物(PM10),67,83,91,26,26,115,30,92,62,69,51,6,17,0.4,0.9
2022-03-04T04:00:00,1479A,103.831,36.0464,兰州市,铁路设计院,颗粒物(PM10),64,77,95,28,37,97,64,86,76,36,53,7,15,0.8,1.1
2022-03-04T04:00:00,1483A,101.524,36.6867,西宁市,第五水厂(对照点),颗粒物(PM10),57,63,79,20,20,104,64,103,87,9,10,5,10,1.1,0.6
2022-03-04T04:00:00,1484A,105.9512,38.6016,银川市,贺兰山马莲口(对照点),,42,42,39,17,11,102,94,96,96,5,3,6,6,0.2,0.2
2022-03-04T04:00:00,1488A,106.2328,38.4975,银川市,贺兰山东路,,46,46,52,13,17,90,80,83,79,11,15,4,4,0.4,0.4
2022-03-04T04:00:00,1489A,106.1358,38.5036,银川市,学院路,颗粒物(PM10),53,55,59,22,14,99,92,83,82,11,17,6,6,0.5,0.5
2022-03-04T04:00:00,1490A,87.5801,43.8303,乌鲁木齐市,监测站,,32,15,40,18,31,81,0,12,3,64,58,7,11,1.1,1
2022-03-04T04:00:00,1491A,87.6046,43.768,乌鲁木齐市,收费所,,26,22,42,18,27,66,4,4,4,50,54,3,5,0.9,1.1
2022-03-04T04:00:00,1492A,87.4754,43.9469,乌鲁木齐市,新疆农科院农场(对照点),,,82,96,53,75,80,0,1,0,82,67,12,13,0.9,1
2022-03-04T04:00:00,1493A,87.5525,43.8711,乌鲁木齐市,铁路局,,37,29,43,23,40,86,0,6,2,74,65,4,6,1.1,1.1
2022-03-04T04:00:00,1494A,87.6432,43.831,乌鲁木齐市,三十一中学,,38,36,51,26,34,58,3,51,25,64,39,6,9,1.2,0.9
2022-03-04T04:00:00,1496A,87.7216,44.1747,乌鲁木齐市,米东区环保局,细颗粒物(PM2.5),53,42,129,37,106,122,53,71,59,13,21,5,15,0.9,1.3
2022-03-04T04:00:00,1508A,112.9433,27.8614,湘潭市,板塘,,,157,118,99,68,98,53,56,52,21,45,4,3,,1.3
2022-03-04T04:00:00,1511A,112.9118,27.8403,湘潭市,市监测站,细颗粒物(PM2.5),147,139,104,112,68,87,49,52,49,25,50,11,12,0.6,0.7
2022-03-04T04:00:00,1512A,112.8937,27.8728,湘潭市,江麓,细颗粒物(PM2.5),132,164,126,100,69,85,40,50,42,26,47,11,13,0.5,0.6
2022-03-04T04:00:00,1513A,112.9227,27.8159,湘潭市,岳塘,细颗粒物(PM2.5),117,154,118,88,64,86,60,60,58,21,43,5,5,0.7,0.8
2022-03-04T04:00:00,1514A,112.9074,27.9119,湘潭市,科大,细颗粒物(PM2.5),115,156,125,87,72,95,53,52,51,26,53,10,11,0.4,0.3
2022-03-04T04:00:00,1515A,113.135,27.8244,株洲市,天台山庄,细颗粒物(PM2.5),123,130,96,93,65,97,26,47,37,42,48,10,10,0.3,0.3
2022-03-04T04:00:00,1518A,113.095,27.8867,株洲市,株冶医院,细颗粒物(PM2.5),114,134,91,86,57,120,17,40,26,58,47,12,13,0.6,0.6
2022-03-04T04:00:00,1519A,113.167,27.8667,株洲市,市四中,细颗粒物(PM2.5),107,104,77,80,62,113,56,71,66,52,44,10,9,0.8,0.9
2022-03-04T04:00:00,1520A,113.143,27.8381,株洲市,火车站,细颗粒物(PM2.5),135,146,107,103,69,106,23,46,38,48,44,14,10,0.6,0.8
2022-03-04T04:00:00,1524A,113.13,27.8528,株洲市,市监测站,细颗粒物(PM2.5),119,138,102,90,64,98,19,42,30,53,54,9,11,0.7,0.9
2022-03-04T04:00:00,1552A,106.805,26.3003,贵阳市,桐木岭(对照点),细颗粒物(PM2.5),107,141,67,80,51,98,39,67,47,12,11,9,14,0.6,0.6
2022-03-04T04:00:00,1559A,113.251,27.8336,株洲市,大京风景区(对照点),细颗粒物(PM2.5),84,88,73,62,51,104,17,28,23,27,24,5,9,0.3,0.3
2022-03-04T04:00:00,1562A,113.0048,27.9153,湘潭市,昭山,细颗粒物(PM2.5),138,146,106,105,67,60,18,34,22,39,49,7,10,0.7,0.8
2022-03-04T04:00:00,1564A,112.4876,27.9164,湘潭市,韶山(对照点),颗粒物(PM10),84,118,105,53,50,105,85,105,98,15,26,8,13,0.6,0.9
2022-03-04T04:00:00,1585A,109.8756,40.6532,包头市,市环境监测站,颗粒物(PM10),447,547,490,94,90,98,91,87,87,2,26,4,15,0.4,0.9
2022-03-04T04:00:00,1587A,109.9991,40.5842,包头市,包头八中,颗粒物(PM10),500,731,477,50,101,104,95,90,90,1,21,6,14,0.6,0.9
2022-03-04T04:00:00,1588A,109.8538,40.6821,包头市,青山宾馆,颗粒物(PM10),418,518,468,105,117,91,91,86,86,3,29,6,18,0.3,1
2022-03-04T04:00:00,1589A,109.8642,40.6288,包头市,惠龙物流,颗粒物(PM10),500,727,534,106,93,99,91,85,85,1,25,2,11,0.4,0.9
2022-03-04T04:00:00,1590A,110.0377,40.5546,包头市,东河鸿龙湾,颗粒物(PM10),500,803,410,76,81,103,88,83,83,2,15,7,9,0.5,0.7
2022-03-04T04:00:00,1591A,110.0023,39.8129,鄂尔多斯市,综合楼,颗粒物(PM10),500,1284,627,208,91,104,88,93,92,6,14,6,7,0.3,0.3
2022-03-04T04:00:00,1592A,109.9486,39.8261,鄂尔多斯市,巴音孟克林场办事处,颗粒物(PM10),500,1204,552,190,72,98,83,76,76,13,8,8,10,1.2,0.5
2022-03-04T04:00:00,1593A,109.7736,39.5986,鄂尔多斯市,康泽苑,颗粒物(PM10),492,592,530,112,77,108,95,94,94,7,11,3,5,0.4,0.4
2022-03-04T04:00:00,1594A,109.8119,39.5989,鄂尔多斯市,华泰汽车城,颗粒物(PM10),451,551,515,102,79,112,99,98,98,4,12,5,6,0.3,0.4
2022-03-04T04:00:00,1595A,109.9734,39.7884,鄂尔多斯市,奥林花园,颗粒物(PM10),500,1213,605,197,77,97,86,84,84,5,23,6,15,0.6,0.6
2022-03-04T04:00:00,1597A,122.2703,40.7094,营口市,大庆路,颗粒物(PM10),53,56,41,24,23,90,90,88,88,12,27,8,19,0.6,0.9
2022-03-04T04:00:00,1598A,122.215,40.6511,营口市,镜湖西路,,49,49,61,9,20,100,95,97,96,14,20,13,16,1.4,1.5
2022-03-04T04:00:00,1599A,122.167,40.6655,营口市,西炮台,颗粒物(PM10),57,63,46,29,22,85,80,79,79,26,29,8,14,0.6,0.8
2022-03-04T04:00:00,1600A,124.3303,40.0625,丹东市,江湾东路,颗粒物(PM10),61,72,69,38,31,89,16,20,16,38,28,15,18,1.6,0.9
2022-03-04T04:00:00,1601A,124.4256,40.1503,丹东市,临江后街,颗粒物(PM10),61,72,58,34,23,98,16,46,34,40,20,10,14,1.3,0.8
2022-03-04T04:00:00,1602A,124.3933,40.1461,丹东市,元宝山,,48,48,48,17,17,91,21,53,37,41,20,30,18,2.1,0.7
2022-03-04T04:00:00,1603A,124.3633,40.1092,丹东市,民主桥,,38,38,57,17,20,89,36,34,34,17,26,12,14,0.9,0.7
2022-03-04T04:00:00,1604A,122.0303,41.1489,盘锦市,开发区,,47,47,29,30,19,97,59,58,58,20,23,6,7,0.7,0.8
2022-03-04T04:00:00,1605A,122.0485,41.0883,盘锦市,兴隆台,颗粒物(PM10),53,55,32,25,14,87,49,52,51,26,27,5,8,0.9,0.8
2022-03-04T04:00:00,1606A,121.8297,41.1028,盘锦市,新生街道,,45,45,27,20,11,93,58,54,54,16,22,5,6,0.7,0.7
2022-03-04T04:00:00,1607A,120.9092,40.7136,葫芦岛市,龙港区,颗粒物(PM10),51,52,48,28,19,83,72,66,66,12,19,19,24,0.8,0.9
2022-03-04T04:00:00,1608A,120.8392,40.7514,葫芦岛市,化工街,,50,50,50,26,24,80,53,65,61,23,22,10,17,0.8,0.7
2022-03-04T04:00:00,1609A,120.8341,40.7073,葫芦岛市,新区,颗粒物(PM10),57,64,45,23,21,82,65,72,68,22,22,34,20,0.5,0.6
2022-03-04T04:00:00,1610A,120.8695,40.7677,葫芦岛市,东城区,,46,46,45,23,20,92,58,68,66,23,23,11,18,0.8,1
2022-03-04T04:00:00,1611A,118.5819,24.9117,泉州市,涂山街,细颗粒物(PM2.5),98,83,62,73,40,167,43,84,56,33,23,9,7,0.9,0.8
2022-03-04T04:00:00,1612A,118.5972,24.8978,泉州市,津头埔,细颗粒物(PM2.5),90,87,71,67,42,176,49,93,65,32,25,9,7,0.8,0.7
2022-03-04T04:00:00,1613A,118.6663,24.9424,泉州市,万安,细颗粒物(PM2.5),58,53,64,41,38,190,61,78,72,30,24,7,8,0.7,0.7
2022-03-04T04:00:00,1614A,118.6117,24.9604,泉州市,清源山(对照点),,40,35,52,24,33,186,126,126,126,8,16,5,6,0.5,0.6
2022-03-04T04:00:00,1616A,117.6795,36.229,济南市,技术学院,颗粒物(PM10),97,144,130,70,59,126,84,98,92,27,39,45,19,1.0,1.1
2022-03-04T04:00:00,1618A,118.3429,35.0532,临沂市,沂河小区,细颗粒物(PM2.5),124,180,188,94,79,128,50,64,58,56,63,37,28,0.8,0.9
2022-03-04T04:00:00,1619A,118.295,35.0583,临沂市,鲁南制药厂,细颗粒物(PM2.5),165,175,201,125,102,137,42,56,52,67,73,28,33,1.1,1.2
2022-03-04T04:00:00,1620A,118.2794,34.9976,临沂市,新光毛纺厂,细颗粒物(PM2.5),140,188,199,107,89,129,20,43,37,80,72,31,27,0.9,1
2022-03-04T04:00:00,1621A,118.3956,35.0888,临沂市,河东保险公司,颗粒物(PM10),102,153,175,72,76,135,67,66,66,46,61,30,24,1.0,1.1
2022-03-04T04:00:00,1622A,116.3032,37.4674,德州市,儿童乐园,颗粒物(PM10),111,171,131,61,46,117,30,42,32,41,34,11,14,1.1,0.9
2022-03-04T04:00:00,1624A,116.2991,37.4451,德州市,监理站,颗粒物(PM10),115,180,123,72,49,113,20,40,30,45,39,17,19,0.6,0.6
2022-03-04T04:00:00,1625A,115.9848,36.4372,聊城市,区政府,颗粒物(PM10),99,147,140,58,43,118,25,44,36,54,39,11,15,0.8,0.7
2022-03-04T04:00:00,1628A,118.0062,37.3803,滨州市,市环保局,颗粒物(PM10),113,175,127,55,48,135,54,34,34,36,52,17,20,0.6,0.6
2022-03-04T04:00:00,1629A,118.0018,37.3617,滨州市,第二水厂,颗粒物(PM10),105,159,131,55,45,115,52,28,28,29,51,13,20,0.5,0.6
2022-03-04T04:00:00,1630A,117.9776,37.393,滨州市,北中新校,颗粒物(PM10),105,160,119,70,44,123,57,40,40,30,56,60,26,1.3,0.8
2022-03-04T04:00:00,1631A,118.0414,36.8103,淄博市,人民公园,颗粒物(PM10),101,151,138,72,53,126,74,85,80,33,47,21,15,1.0,1.3
2022-03-04T04:00:00,1633A,117.8525,36.4847,淄博市,双山,颗粒物(PM10),98,146,116,70,49,133,77,80,78,34,37,20,12,0.9,0.7
2022-03-04T04:00:00,1634A,117.9592,36.6331,淄博市,气象站,颗粒物(PM10),99,147,130,56,43,122,87,96,93,22,34,19,19,0.8,0.8
2022-03-04T04:00:00,1635A,118.3092,36.8194,淄博市,莆田园,颗粒物(PM10),115,180,133,61,51,131,80,88,86,26,35,19,17,1.1,1.4
2022-03-04T04:00:00,1637A,117.558,34.8438,枣庄市,市中区政府,细颗粒物(PM2.5),144,210,216,110,84,124,4,2,2,87,73,39,37,1.3,1.2
2022-03-04T04:00:00,1638A,117.2852,34.7837,枣庄市,薛城环保局,颗粒物(PM10),91,132,175,48,66,120,79,64,64,30,50,16,24,0.6,0.9
2022-03-04T04:00:00,1639A,117.5852,34.7745,枣庄市,峄城区政府,颗粒物(PM10),97,144,199,51,80,121,72,45,45,34,61,17,23,0.6,0.9
2022-03-04T04:00:00,1640A,117.7276,34.5578,枣庄市,台儿庄区环保局,颗粒物(PM10),126,202,198,75,73,122,8,8,8,89,75,14,15,0.9,1
2022-03-04T04:00:00,1641A,117.4518,35.0992,枣庄市,山亭区环保局,颗粒物(PM10),91,132,146,51,56,129,87,85,83,20,30,19,23,0.8,1
2022-03-04T04:00:00,1642A,121.2514,37.5639,烟台市,开发区,颗粒物(PM10),117,183,107,68,52,140,140,127,127,22,44,12,16,0.5,0.7
2022-03-04T04:00:00,1643A,121.3719,37.5433,烟台市,轴承厂,"颗粒物(PM10),细颗粒物(PM2.5)",99,148,93,74,51,153,153,136,136,15,22,8,9,0.9,0.8
2022-03-04T04:00:00,1644A,121.3181,37.5436,烟台市,西郊化工站,颗粒物(PM10),107,163,106,66,49,148,148,144,144,14,33,10,12,0.6,0.8
2022-03-04T04:00:00,1645A,121.4478,37.4822,烟台市,莱山环保局,颗粒物(PM10),95,139,93,63,48,138,112,117,114,21,29,8,11,0.6,0.6
2022-03-04T04:00:00,1646A,121.2611,37.4967,烟台市,福山环保局,颗粒物(PM10),100,149,101,61,43,125,123,118,118,21,25,11,11,1.2,1.2
2022-03-04T04:00:00,1650A,119.1437,36.7023,潍坊市,环保局,颗粒物(PM10),82,114,137,48,52,143,68,56,56,37,46,10,11,0.7,0.9
2022-03-04T04:00:00,1653A,116.6251,35.4302,济宁市,火炬城,颗粒物(PM10),94,138,128,58,59,122,58,65,61,33,37,14,15,0.7,0.7
2022-03-04T04:00:00,1655A,116.5491,35.4042,济宁市,电化厂,颗粒物(PM10),104,158,146,75,70,126,37,34,34,51,51,4,12,0.7,0.7
2022-03-04T04:00:00,1656A,117.1437,36.1937,泰安市,监测站,细颗粒物(PM2.5),122,161,129,92,65,116,47,42,42,47,46,18,15,0.8,0.9
2022-03-04T04:00:00,1657A,117.0885,36.2017,泰安市,人口学校,颗粒物(PM10),100,149,120,74,52,105,58,77,69,36,39,12,13,0.8,0.9
2022-03-04T04:00:00,1658A,117.1089,36.1758,泰安市,电力学校,细颗粒物(PM2.5),127,149,124,96,70,115,27,60,40,56,44,14,17,1.0,1.1
2022-03-04T04:00:00,1659A,119.471,35.4209,日照市,监测站,细颗粒物(PM2.5),160,229,190,122,81,101,4,3,3,86,77,10,12,1.3,1.1
2022-03-04T04:00:00,1660A,119.523,35.4216,日照市,市政府广场,细颗粒物(PM2.5),147,229,186,112,75,117,13,18,17,91,68,29,14,2.0,1.2
2022-03-04T04:00:00,1661A,119.5587,35.4044,日照市,港务局,细颗粒物(PM2.5),142,229,180,108,77,114,6,17,11,96,70,16,12,1.5,1
2022-03-04T04:00:00,1662A,122.1214,37.4236,威海市,华夏技校,细颗粒物(PM2.5),160,178,93,122,60,141,141,126,126,18,24,8,7,0.8,0.5
2022-03-04T04:00:00,1663A,122.0508,37.5236,威海市,山大分校,细颗粒物(PM2.5),132,151,74,100,45,172,172,151,151,23,28,9,9,0.7,0.5
2022-03-04T04:00:00,1664A,122.1067,37.5072,威海市,市监测站,颗粒物(PM10),122,193,92,62,36,184,184,162,162,14,30,10,9,0.6,0.5
2022-03-04T04:00:00,1666A,118.6614,37.4309,东营市,市环保局,颗粒物(PM10),102,153,117,61,46,132,40,24,24,61,59,31,20,1.1,0.9
2022-03-04T04:00:00,1669A,113.5824,24.7733,韶关市,市八中,细颗粒物(PM2.5),98,104,74,73,52,125,38,64,45,42,27,11,14,0.7,0.8
2022-03-04T04:00:00,1671A,113.5917,24.7972,韶关市,园林处,细颗粒物(PM2.5),77,68,66,56,49,132,33,63,44,32,21,10,15,0.7,0.8
2022-03-04T04:00:00,1672A,113.6735,24.7791,韶关市,韶关学院,细颗粒物(PM2.5),82,82,64,60,48,124,50,93,67,30,26,10,14,0.8,0.9
2022-03-04T04:00:00,1673A,113.5971,24.6863,韶关市,曲江监测站,细颗粒物(PM2.5),95,92,71,71,54,107,19,21,16,51,37,10,12,0.6,0.8
2022-03-04T04:00:00,1674A,116.6794,23.3667,汕头市,金平子站,颗粒物(PM10),71,92,87,49,43,163,107,130,119,18,21,10,9,0.7,0.7
2022-03-04T04:00:00,1675A,116.7244,23.3633,汕头市,龙湖子站,颗粒物(PM10),69,88,67,39,38,155,105,123,114,21,23,7,6,0.7,0.8
2022-03-04T04:00:00,1676A,116.7258,23.2775,汕头市,濠江子站,颗粒物(PM10),68,85,61,37,36,163,98,117,108,16,16,10,10,0.8,0.9
2022-03-04T04:00:00,1677A,116.7519,23.4714,汕头市,澄海子站,细颗粒物(PM2.5),87,96,78,64,49,165,83,121,108,25,20,19,9,1.0,0.9
2022-03-04T04:00:00,1678A,116.6092,23.2539,汕头市,潮阳子站,颗粒物(PM10),66,81,62,32,28,165,108,118,112,16,17,10,10,0.5,0.5
2022-03-04T04:00:00,1680A,110.3539,21.2706,湛江市,湛江影剧院,细颗粒物(PM2.5),52,46,42,36,45,141,95,106,100,11,13,4,4,0.6,0.6
2022-03-04T04:00:00,1681A,110.3928,21.2228,湛江市,市环境监测站,,45,44,43,31,39,155,112,126,120,9,10,5,5,0.6,0.6
2022-03-04T04:00:00,1682A,110.4019,21.1997,湛江市,环保局宿舍,,48,37,45,33,43,152,113,121,117,8,10,3,4,0.6,0.6
2022-03-04T04:00:00,1683A,110.4111,21.2028,湛江市,霞山游泳场,,49,43,46,34,42,126,105,110,107,8,12,4,5,0.6,0.5
2022-03-04T04:00:00,1684A,110.3316,21.2679,湛江市,麻章区环保局,,42,38,44,29,38,146,95,102,99,5,8,7,5,0.6,0.5
2022-03-04T04:00:00,1685A,110.4558,21.2567,湛江市,坡头区环保局,细颗粒物(PM2.5),54,45,48,38,47,164,110,118,112,8,10,5,6,0.8,0.7
2022-03-04T04:00:00,1686A,111.0286,21.4688,茂名市,电白南海,,39,37,50,27,32,133,100,110,107,10,17,7,8,0.6,0.7
2022-03-04T04:00:00,1687A,110.9294,21.6533,茂名市,茂石化七小,,48,48,52,29,37,126,82,98,91,6,10,9,9,0.6,0.7
2022-03-04T04:00:00,1688A,110.9107,21.6687,茂名市,健康路,,41,41,48,18,25,136,85,98,92,5,9,5,6,0.7,0.8
2022-03-04T04:00:00,1689A,110.8592,21.6828,茂名市,高岭,,36,36,54,17,22,109,84,97,92,6,10,14,12,0.8,0.8
2022-03-04T04:00:00,1690A,116.1231,24.3284,梅州市,梅江月梅,细颗粒物(PM2.5),69,72,58,50,43,166,54,88,78,40,18,10,10,0.6,0.6
2022-03-04T04:00:00,1691A,116.0797,24.2719,梅州市,梅县新城,细颗粒物(PM2.5),62,43,55,44,50,147,83,63,63,23,26,11,6,0.8,0.9
2022-03-04T04:00:00,1692A,116.1248,24.2654,梅州市,环境监控中心,,48,41,52,33,42,138,64,72,70,26,24,6,6,0.6,0.7
2022-03-04T04:00:00,1693A,115.3653,22.775,汕尾市,市环保局,细颗粒物(PM2.5),64,45,41,46,37,150,104,114,109,16,15,7,6,0.8,0.8
2022-03-04T04:00:00,1694A,115.3706,22.7898,汕尾市,市政府,细颗粒物(PM2.5),67,46,43,48,40,157,100,116,110,15,14,7,7,0.7,0.7
2022-03-04T04:00:00,1695A,115.3622,22.7925,汕尾市,新城中学,细颗粒物(PM2.5),67,48,47,48,42,154,104,112,109,16,14,6,6,0.6,0.7
2022-03-04T04:00:00,1696A,114.6778,23.7569,河源市,源西(对照点),,40,40,47,27,32,118,16,39,28,52,20,4,4,0.8,0.8
2022-03-04T04:00:00,1697A,114.6944,23.7586,河源市,东埔,,49,43,48,34,35,118,94,93,91,15,19,7,5,0.8,0.9
2022-03-04T04:00:00,1698A,114.6892,23.7233,河源市,老城,,49,48,52,34,32,130,91,92,90,15,15,15,5,0.8,0.8
2022-03-04T04:00:00,1699A,111.9797,21.8593,阳江市,鸳鸯湖(对照点),细颗粒物(PM2.5),79,65,34,58,29,146,74,111,94,22,7,6,5,0.8,0.5
2022-03-04T04:00:00,1701A,111.9491,21.8658,阳江市,马南垌,细颗粒物(PM2.5),72,52,38,52,36,142,87,132,110,24,15,6,6,0.7,0.7
2022-03-04T04:00:00,1702A,113.0426,23.691,清远市,环保大楼(对照点),细颗粒物(PM2.5),90,73,86,67,90,136,17,48,33,48,40,6,7,0.8,0.8
2022-03-04T04:00:00,1703A,113.0208,23.7106,清远市,凤城街办,"颗粒物(PM10),细颗粒物(PM2.5)",57,64,76,40,54,116,27,40,36,44,41,7,8,0.9,1
2022-03-04T04:00:00,1705A,116.6367,23.6719,潮州市,西园路(对照点),细颗粒物(PM2.5),88,69,70,65,62,180,51,60,50,22,21,14,12,0.9,1
2022-03-04T04:00:00,1706A,116.6447,23.6706,潮州市,档案局,细颗粒物(PM2.5),82,61,68,60,58,174,46,57,47,20,20,13,12,0.9,0.9
2022-03-04T04:00:00,1708A,116.3701,23.5345,揭阳市,新兴,细颗粒物(PM2.5),99,105,82,74,62,180,79,98,90,26,26,14,12,1.1,1
2022-03-04T04:00:00,1709A,116.3264,23.5443,揭阳市,西马,细颗粒物(PM2.5),95,127,98,71,58,190,59,105,82,33,21,10,8,1.2,1
2022-03-04T04:00:00,1710A,116.3611,23.5626,揭阳市,东兴,细颗粒物(PM2.5),82,112,91,60,53,179,78,108,90,25,23,8,9,1.1,1.1
2022-03-04T04:00:00,1711A,116.4151,23.5294,揭阳市,渔湖,细颗粒物(PM2.5),68,51,52,49,46,182,76,88,85,28,27,13,13,1.0,0.9
2022-03-04T04:00:00,1712A,112.0392,22.9169,云浮市,新市府(对照点),,39,35,42,27,35,100,37,54,48,14,11,5,5,0.6,0.5
2022-03-04T04:00:00,1714A,112.0539,22.9539,云浮市,牧羊,颗粒物(PM10),62,73,69,31,39,102,39,55,50,22,25,7,8,0.7,0.6
2022-03-04T04:00:00,1715A,102.575,24.3711,玉溪市,东风水库,,26,26,32,18,20,111,39,56,47,24,17,6,6,0.8,0.8
2022-03-04T04:00:00,1718A,115.4208,35.2464,菏泽市,气象局,颗粒物(PM10),104,158,184,59,61,108,40,53,47,41,47,16,12,0.5,0.7
2022-03-04T04:00:00,1719A,115.4747,35.2375,菏泽市,市政协,颗粒物(PM10),106,162,189,51,56,109,47,66,53,36,43,12,13,0.5,0.6
2022-03-04T04:00:00,1721A,113.3819,40.1097,大同市,果树场(对照点),颗粒物(PM10),500,1002,281,175,54,103,85,81,80,4,21,8,15,0.3,0.5
2022-03-04T04:00:00,1723A,113.2994,40.0758,大同市,云冈宾馆,颗粒物(PM10),500,1093,383,311,73,99,83,82,82,4,23,8,12,0.4,0.5
2022-03-04T04:00:00,1724A,113.3444,40.0917,大同市,大同大学,颗粒物(PM10),500,1303,342,175,49,95,85,82,82,4,18,9,18,0.4,0.6
2022-03-04T04:00:00,1725A,113.2661,40.1269,大同市,安家小村,颗粒物(PM10),500,1340,406,195,43,106,86,84,84,2,16,11,24,0.4,0.8
2022-03-04T04:00:00,1726A,113.2711,40.0844,大同市,教育学院,颗粒物(PM10),500,1333,390,183,50,93,80,78,78,5,25,12,21,0.3,0.6
2022-03-04T04:00:00,1727A,113.1147,36.1547,长治市,清华站,颗粒物(PM10),83,116,103,51,44,100,19,54,42,58,43,9,10,0.7,0.6
2022-03-04T04:00:00,1728A,113.1031,36.1989,长治市,监测站,颗粒物(PM10),71,92,88,44,39,104,14,38,22,52,32,9,9,0.9,0.7
2022-03-04T04:00:00,1730A,113.0886,36.2125,长治市,审计局,,,179,104,75,39,100,6,34,20,110,43,9,9,1.3,1
2022-03-04T04:00:00,1731A,113.0844,36.1856,长治市,长治八中,颗粒物(PM10),87,124,114,43,42,100,18,34,30,58,40,10,12,1.0,0.7
2022-03-04T04:00:00,1733A,111.5531,36.0783,临汾市,临钢医院,细颗粒物(PM2.5),95,137,146,71,73,73,4,14,9,63,67,15,27,2.0,2.1
2022-03-04T04:00:00,1734A,111.5028,36.0714,临汾市,技工学校,细颗粒物(PM2.5),123,182,177,93,85,82,7,7,7,64,64,23,33,2.0,2
2022-03-04T04:00:00,1736A,111.5018,36.0855,临汾市,市委,细颗粒物(PM2.5),135,173,164,103,82,69,5,5,5,67,67,21,29,2.1,2
2022-03-04T04:00:00,1738A,113.5758,37.8572,阳泉市,市中心,颗粒物(PM10),182,313,141,62,35,110,61,64,57,30,37,14,18,0.6,0.6
2022-03-04T04:00:00,1739A,113.4894,37.8731,阳泉市,赛鱼,颗粒物(PM10),119,187,98,50,29,115,50,48,47,41,42,24,22,0.7,0.6
2022-03-04T04:00:00,1740A,113.5819,37.8486,阳泉市,南庄,颗粒物(PM10),162,274,137,49,32,114,77,72,72,14,28,12,19,0.6,0.7
2022-03-04T04:00:00,1742A,113.5614,37.8703,阳泉市,平坦,颗粒物(PM10),144,238,121,68,36,114,42,50,42,48,36,21,18,0.8,0.7
2022-03-04T04:00:00,1743A,113.5158,37.8392,阳泉市,大阳泉,颗粒物(PM10),154,257,112,47,32,116,78,72,72,16,25,13,16,0.7,0.7
2022-03-04T04:00:00,1744A,118.9233,42.2816,赤峰市,松山一中,颗粒物(PM10),66,82,52,20,18,88,82,73,73,13,29,12,19,0.7,1
2022-03-04T04:00:00,1745A,118.9576,42.2728,赤峰市,哈达街,颗粒物(PM10),63,75,48,27,20,88,82,78,78,7,22,6,16,0.6,0.8
2022-03-04T04:00:00,1746A,118.8788,42.2554,赤峰市,天义路,颗粒物(PM10),61,71,36,16,14,89,82,83,83,10,21,5,7,0.7,0.8
2022-03-04T04:00:00,1748A,123.044,41.1196,鞍山市,深沟寺,,42,42,43,18,18,95,91,95,93,5,16,6,9,0.4,0.6
2022-03-04T04:00:00,1749A,123.011,41.0931,鞍山市,太阳城,,46,46,45,22,21,106,102,105,104,12,21,7,9,0.6,0.8
2022-03-04T04:00:00,1750A,123.0485,41.1442,鞍山市,太平,,44,44,47,20,21,93,92,91,91,7,25,8,11,0.4,0.7
2022-03-04T04:00:00,1751A,122.9642,41.0971,鞍山市,铁西三道街,颗粒物(PM10),59,68,72,30,32,89,82,86,84,23,36,20,19,0.6,1
2022-03-04T04:00:00,1752A,122.9341,41.0833,鞍山市,铁西工业园区,颗粒物(PM10),52,53,84,21,38,100,90,91,91,23,35,9,14,0.7,1.1
2022-03-04T04:00:00,1753A,123.022,41.0821,鞍山市,明达新区,颗粒物(PM10),53,56,49,24,21,106,102,106,105,13,19,8,10,0.6,0.7
2022-03-04T04:00:00,1754A,123.1289,41.0228,鞍山市,千山(对照点),,32,32,23,17,12,103,90,78,78,7,9,7,7,0.5,0.4
2022-03-04T04:00:00,1755A,123.7977,41.8491,抚顺市,望花区,颗粒物(PM10),57,63,52,26,26,97,97,82,82,6,22,10,16,1.0,1.2
2022-03-04T04:00:00,1756A,123.9161,41.8822,抚顺市,顺城区,细颗粒物(PM2.5),78,90,84,57,43,80,10,10,10,54,41,19,15,1.3,1.4
2022-03-04T04:00:00,1757A,124.0436,41.8611,抚顺市,东洲区,,49,49,57,20,29,92,91,91,91,7,21,14,15,0.5,0.9
2022-03-04T04:00:00,1758A,123.9247,41.8642,抚顺市,新抚区,颗粒物(PM10),61,72,79,43,41,80,36,17,17,42,44,5,8,0.7,1.3
2022-03-04T04:00:00,1759A,124.0972,41.8961,抚顺市,大伙房水库,,38,38,35,19,17,94,86,74,74,5,10,8,11,0.5,0.7
2022-03-04T04:00:00,1760A,123.7086,41.8391,抚顺市,沈抚新城,颗粒物(PM10),55,59,64,26,31,84,84,72,72,13,29,9,10,0.7,0.9
2022-03-04T04:00:00,1761A,123.8275,41.3064,本溪市,大峪,颗粒物(PM10),59,68,42,29,16,95,92,92,92,11,18,15,18,0.5,0.8
2022-03-04T04:00:00,1762A,123.7567,41.3325,本溪市,溪湖,颗粒物(PM10),60,69,58,27,24,77,66,62,62,36,38,31,30,0.8,1.4
2022-03-04T04:00:00,1763A,123.7169,41.3094,本溪市,彩屯,颗粒物(PM10),71,92,72,50,38,76,50,65,54,48,40,44,32,2.9,2.3
2022-03-04T04:00:00,1764A,123.7669,41.2864,本溪市,东明,,50,50,44,20,15,96,96,92,92,10,23,9,12,0.5,0.7
2022-03-04T04:00:00,1765A,123.7992,41.2664,本溪市,新立屯,,49,49,35,24,13,96,96,95,95,4,10,11,11,0.5,0.7
2022-03-04T04:00:00,1766A,123.8142,41.3472,本溪市,威宁,颗粒物(PM10),59,68,56,19,15,83,79,79,79,10,20,8,10,0.4,0.8
2022-03-04T04:00:00,1767A,121.1115,41.0879,锦州市,南山,细颗粒物(PM2.5),57,55,57,40,31,80,36,53,46,38,33,12,18,0.7,0.9
2022-03-04T04:00:00,1768A,121.0533,40.8434,锦州市,开发区,颗粒物(PM10),61,71,94,42,32,68,41,46,45,40,46,42,50,0.9,0.9
2022-03-04T04:00:00,1769A,121.1836,41.1119,锦州市,百股街道,颗粒物(PM10),55,59,54,33,24,85,60,68,64,23,27,18,19,0.6,0.7
2022-03-04T04:00:00,1771A,121.1303,41.1386,锦州市,北湖公园,颗粒物(PM10),56,62,57,33,21,79,48,58,53,27,27,13,17,0.5,0.6
2022-03-04T04:00:00,1772A,126.54,43.8622,吉林市,哈达湾,,28,22,28,9,16,91,88,82,82,6,16,7,8,0.4,0.5
2022-03-04T04:00:00,1773A,126.5844,43.8358,吉林市,东局子,,28,26,28,10,17,89,89,85,85,5,15,6,7,0.5,0.5
2022-03-04T04:00:00,1774A,126.5052,43.8245,吉林市,电力学院,,27,18,33,10,20,94,85,74,74,12,20,8,9,0.5,0.7
2022-03-04T04:00:00,1775A,126.6133,43.8972,吉林市,江北,,30,26,30,11,17,94,94,90,90,5,14,6,8,0.5,0.6
2022-03-04T04:00:00,1776A,126.555,43.8306,吉林市,江南公园,,26,22,28,11,21,86,82,79,79,5,16,6,9,0.6,0.6
2022-03-04T04:00:00,1778A,126.7061,43.7133,吉林市,丰满(对照点),,26,15,19,7,14,92,81,76,76,2,4,7,6,0.6,0.6
2022-03-04T04:00:00,1779A,123.9305,47.3636,齐齐哈尔市,安居小区,,39,39,43,22,17,80,54,63,58,20,19,45,22,0.6,0.6
2022-03-04T04:00:00,1780A,123.9488,47.3386,齐齐哈尔市,中心广场,二氧化硫,63,41,39,32,17,70,26,65,44,41,21,240,59,1.1,0.7
2022-03-04T04:00:00,1781A,123.9483,47.3227,齐齐哈尔市,农牧车辆厂,,36,36,41,19,16,84,53,68,60,17,18,30,14,0.8,0.7
2022-03-04T04:00:00,1783A,123.945,47.2988,齐齐哈尔市,市环境监测站,,35,33,38,24,25,92,61,71,67,15,14,3,5,0.3,0.3
2022-03-04T04:00:00,1784A,129.61,44.561,牡丹江市,环保大楼,,39,39,27,25,23,83,34,27,27,28,20,12,5,0.7,0.5
2022-03-04T04:00:00,1785A,129.6115,44.5782,牡丹江市,文化广场,颗粒物(PM10),52,53,40,32,28,79,23,18,18,34,29,20,16,0.7,0.7
2022-03-04T04:00:00,1787A,129.6364,44.6075,牡丹江市,机车工厂,细颗粒物(PM2.5),53,47,38,37,24,81,14,23,20,38,23,15,16,0.7,0.6
2022-03-04T04:00:00,1788A,129.6386,44.5462,牡丹江市,第一中学,,19,18,28,13,22,82,32,37,33,18,17,2,3,0.7,0.6
2022-03-04T04:00:00,1789A,124.81117,46.03138,大庆市,大同区,,46,46,50,24,39,106,56,55,55,15,20,7,8,0.6,0.6
2022-03-04T04:00:00,1790A,125.129,46.533,大庆市,龙凤区,,30,26,42,21,28,100,58,60,59,15,20,14,15,0.4,0.4
2022-03-04T04:00:00,1791A,124.902,46.408,大庆市,红岗区,,33,29,28,23,23,106,58,57,55,12,19,5,5,1.1,0.8
2022-03-04T04:00:00,1792A,125.153,46.586,大庆市,萨尔图区,,39,39,36,24,29,98,59,60,59,15,24,9,7,0.4,0.5
2022-03-04T04:00:00,1793A,124.9042,46.6215,大庆市,让胡路区,,32,32,31,17,19,100,55,60,58,18,20,7,10,1.0,0.7
2022-03-04T04:00:00,1794A,118.3606,31.3519,芜湖市,监测站,细颗粒物(PM2.5),137,123,169,104,69,140,57,43,42,55,49,7,8,0.8,0.8
2022-03-04T04:00:00,1795A,118.3714,31.4134,芜湖市,科创中心,细颗粒物(PM2.5),112,90,154,84,72,144,44,72,63,55,46,7,9,0.9,0.8
2022-03-04T04:00:00,1796A,118.3673,31.3131,芜湖市,四水厂,细颗粒物(PM2.5),122,88,155,92,68,155,68,90,42,37,40,8,9,1.0,0.8
2022-03-04T04:00:00,1798A,118.5092,31.6837,马鞍山市,湖东路四小,细颗粒物(PM2.5),119,76,134,90,66,164,100,107,106,24,45,7,11,0.8,0.8
2022-03-04T04:00:00,1799A,118.5024,31.6449,马鞍山市,开发区,细颗粒物(PM2.5),89,80,145,66,64,154,88,93,92,25,47,10,13,0.9,0.9
2022-03-04T04:00:00,1800A,118.5228,31.7231,马鞍山市,慈湖,细颗粒物(PM2.5),107,95,155,80,75,146,92,94,93,24,47,7,13,0.8,0.9
2022-03-04T04:00:00,1802A,118.6245,31.7241,马鞍山市,濮塘(对照点),细颗粒物(PM2.5),75,74,112,55,64,143,82,105,94,17,20,6,9,0.8,0.7
2022-03-04T04:00:00,1803A,115.9872,29.6815,九江市,十里,颗粒物(PM10),109,167,91,37,50,131,71,83,72,26,55,7,10,0.4,0.8
2022-03-04T04:00:00,1804A,115.9584,29.7046,九江市,茅山头,细颗粒物(PM2.5),63,39,91,45,49,129,67,68,60,26,57,6,9,0.5,0.7
2022-03-04T04:00:00,1805A,115.9877,29.7295,九江市,西园,颗粒物(PM10),55,59,96,7,47,127,71,63,60,22,66,6,14,0.6,0.5
2022-03-04T04:00:00,1806A,116.0172,29.6547,九江市,五七二七厂,颗粒物(PM10),53,56,95,33,36,127,73,82,76,11,20,7,9,0.4,0.6
2022-03-04T04:00:00,1808A,115.9114,29.6038,九江市,综合工业园,细颗粒物(PM2.5),62,47,89,44,43,123,83,87,77,19,49,8,10,0.9,0.9
2022-03-04T04:00:00,1809A,116.0721,29.7535,九江市,石化总厂,颗粒物(PM10),59,68,99,40,48,130,29,55,39,63,57,9,31,0.3,0.5
2022-03-04T04:00:00,1810A,115.9773,29.5698,九江市,庐山气象台(对照点),,37,27,43,16,19,121,118,115,115,8,13,2,3,0.3,0.3
2022-03-04T04:00:00,1812A,112.3931,34.6516,洛阳市,市委党校,颗粒物(PM10),69,88,113,34,38,101,48,36,36,30,37,10,7,0.7,0.8
2022-03-04T04:00:00,1814A,112.4657,34.6871,洛阳市,豫西宾馆,颗粒物(PM10),96,142,146,60,54,80,2,3,2,68,56,20,13,0.8,0.8
2022-03-04T04:00:00,1815A,112.494,34.6886,洛阳市,河南林校,颗粒物(PM10),87,124,137,49,44,86,10,17,11,63,53,8,8,0.8,0.7
2022-03-04T04:00:00,1816A,112.3844,34.623,洛阳市,开发区管委会,颗粒物(PM10),72,94,103,45,40,94,23,27,23,44,39,6,6,0.4,0.4
2022-03-04T04:00:00,1817A,112.4267,34.6258,洛阳市,市委新办公区,颗粒物(PM10),77,103,115,50,41,91,19,14,14,42,41,6,5,0.4,0.4
2022-03-04T04:00:00,1818A,114.4839,36.0621,安阳市,棉研所(对照点),颗粒物(PM10),85,120,149,42,54,84,9,40,28,74,51,10,12,0.5,0.7
2022-03-04T04:00:00,1819A,114.3551,36.1017,安阳市,红庙街,颗粒物(PM10),77,104,117,28,40,90,55,48,46,37,47,9,10,0.9,0.9
2022-03-04T04:00:00,1820A,114.361,36.0681,安阳市,银杏小区,颗粒物(PM10),82,114,130,41,48,83,22,37,27,56,48,5,7,0.5,0.8
2022-03-04T04:00:00,1824A,114.3389,34.7781,开封市,肿瘤医院,颗粒物(PM10),100,150,179,55,61,97,19,42,30,58,50,14,14,0.4,0.8
2022-03-04T04:00:00,1826A,114.2885,34.7965,开封市,世纪星幼儿园,颗粒物(PM10),93,136,158,50,55,103,12,47,30,76,52,10,11,0.6,0.7
2022-03-04T04:00:00,1828A,113.2269,35.2127,焦作市,市环保局,颗粒物(PM10),78,105,135,51,70,87,12,20,15,64,55,13,20,0.9,1.3
2022-03-04T04:00:00,1829A,113.2467,35.176,焦作市,高新区政府,颗粒物(PM10),70,90,139,41,55,79,9,5,5,65,57,16,20,1.2,1.4
2022-03-04T04:00:00,1830A,113.1987,35.2703,焦作市,影视城(对照点),颗粒物(PM10),66,81,89,25,34,100,67,88,83,17,24,11,19,0.3,0.7
2022-03-04T04:00:00,1832A,113.3257,33.742,平顶山市,新华旅馆,颗粒物(PM10),98,146,176,48,59,121,10,32,21,69,48,2,4,0.1,0.3
2022-03-04T04:00:00,1833A,113.2919,33.737,平顶山市,规划设计院,颗粒物(PM10),93,136,154,51,51,103,0,34,13,69,47,2,4,0.1,0.2
2022-03-04T04:00:00,1834A,113.182,33.774,平顶山市,平顶山工学院,颗粒物(PM10),84,118,123,37,39,110,27,53,47,48,22,9,7,0.3,0.3
2022-03-04T04:00:00,1835A,111.1922,34.7752,三门峡市,市政府,颗粒物(PM10),80,110,153,56,67,74,3,4,3,54,61,14,14,0.7,0.9
2022-03-04T04:00:00,1836A,111.1587,34.7942,三门峡市,开发区,颗粒物(PM10),86,122,167,49,61,78,5,6,5,59,52,5,8,0.7,0.9
2022-03-04T04:00:00,1838A,111.143,34.7955,三门峡市,风景区(对照点),颗粒物(PM10),84,118,156,57,56,78,0,2,0,53,41,6,11,0.7,0.7
2022-03-04T04:00:00,1840A,111.2992,30.6981,宜昌市,白龙岗,细颗粒物(PM2.5),79,70,96,58,51,56,7,10,9,23,49,4,5,0.5,0.6
2022-03-04T04:00:00,1841A,111.3549,30.6465,宜昌市,伍家岗,细颗粒物(PM2.5),77,77,94,56,49,62,5,4,4,31,54,5,6,0.8,0.8
2022-03-04T04:00:00,1842A,111.2628,30.6961,宜昌市,点军区,"颗粒物(PM10),细颗粒物(PM2.5)",67,83,91,48,50,88,8,12,11,18,32,5,6,0.7,0.7
2022-03-04T04:00:00,1843A,111.3275,30.7819,宜昌市,夷陵区,细颗粒物(PM2.5),77,75,91,56,50,67,4,6,5,22,41,4,4,0.6,0.7
2022-03-04T04:00:00,1844A,112.2494,30.3197,荆州市,市图书馆,颗粒物(PM10),92,133,139,61,53,82,4,16,9,60,62,10,14,1.0,1
2022-03-04T04:00:00,1845A,112.2008,30.3544,荆州市,市委党校,细颗粒物(PM2.5),107,144,144,80,60,81,0,29,15,58,51,10,12,0.9,0.8
2022-03-04T04:00:00,1847A,113.1094,29.3578,岳阳市,南湖风景区,细颗粒物(PM2.5),70,84,111,51,53,88,54,85,74,27,54,11,14,0.9,0.9
2022-03-04T04:00:00,1848A,113.1493,29.4251,岳阳市,城陵矶,细颗粒物(PM2.5),75,79,122,55,51,96,44,83,72,45,66,9,12,0.6,0.7
2022-03-04T04:00:00,1849A,113.1497,29.3575,岳阳市,开发区,颗粒物(PM10),60,70,104,38,42,98,47,85,69,33,58,8,11,0.8,1
2022-03-04T04:00:00,1850A,113.2621,29.4758,岳阳市,云溪区,细颗粒物(PM2.5),68,80,117,49,55,92,44,83,65,19,48,6,12,0.8,0.9
2022-03-04T04:00:00,1851A,112.9943,29.4402,岳阳市,君山区,细颗粒物(PM2.5),80,88,124,59,52,89,47,77,62,32,43,13,14,0.8,0.9
2022-03-04T04:00:00,1852A,113.2117,29.355,岳阳市,金凤水库(对照点),"颗粒物(PM10),细颗粒物(PM2.5)",63,75,98,45,45,77,59,77,60,16,49,11,12,0.6,0.6
2022-03-04T04:00:00,1854A,111.6975,28.9703,常德市,市二中,细颗粒物(PM2.5),74,88,128,54,62,95,34,43,41,21,32,8,12,0.8,0.9
2022-03-04T04:00:00,1857A,111.7158,29.1456,常德市,白鹤山(对照点),细颗粒物(PM2.5),82,84,106,60,53,101,44,49,46,10,14,9,11,0.8,0.7
2022-03-04T04:00:00,1858A,110.5319,29.1217,张家界市,永定新区,细颗粒物(PM2.5),67,69,95,48,56,22,10,6,6,12,31,3,2,0.4,0.7
2022-03-04T04:00:00,1859A,110.4697,29.1242,张家界市,电业局,细颗粒物(PM2.5),69,72,65,50,35,27,14,13,13,18,31,4,4,0.5,0.6
2022-03-04T04:00:00,1860A,110.5594,29.3547,张家界市,未央路,,44,44,62,23,25,54,24,17,17,6,15,4,4,0.5,0.6
2022-03-04T04:00:00,1861A,110.4417,29.315,张家界市,袁家界(对照点),颗粒物(PM10),53,55,48,29,31,91,88,83,83,5,8,3,3,0.4,0.4
2022-03-04T04:00:00,1862A,110.4144,25.3167,桂林市,电子科大尧山校区(对照点),细颗粒物(PM2.5),83,72,74,61,58,132,19,33,26,10,10,5,9,0.6,0.6
2022-03-04T04:00:00,1863A,110.2819,25.2697,桂林市,监测站,细颗粒物(PM2.5),132,119,107,100,90,116,3,16,10,42,35,10,16,1.3,0.9
2022-03-04T04:00:00,1864A,110.3089,25.2708,桂林市,龙隐路小学,细颗粒物(PM2.5),94,83,94,70,76,122,8,34,22,42,30,9,18,0.9,0.9
2022-03-04T04:00:00,1865A,110.2869,25.2178,桂林市,八中,细颗粒物(PM2.5),140,105,109,107,82,114,5,7,6,42,34,13,14,1.0,1
2022-03-04T04:00:00,1866A,109.2262,21.588,北海市,牛尾岭水库(对照点),细颗粒物(PM2.5),67,57,69,48,63,109,56,61,59,6,8,9,6,0.6,0.6
2022-03-04T04:00:00,1867A,109.1436,21.4086,北海市,海滩公园,颗粒物(PM10),61,71,62,42,44,139,34,102,83,58,14,4,4,0.8,0.7
2022-03-04T04:00:00,1868A,109.0981,21.4661,北海市,新市环保局,颗粒物(PM10),67,84,54,46,55,137,83,96,91,14,14,4,4,0.6,0.6
2022-03-04T04:00:00,1869A,109.1778,21.5233,北海市,北海工业园,颗粒物(PM10),66,81,85,42,66,130,76,87,82,8,13,5,5,0.7,0.7
2022-03-04T04:00:00,1871A,109.4157,24.3277,柳州市,环保监测站,细颗粒物(PM2.5),52,43,106,36,98,110,54,64,61,16,38,6,15,0.7,1.1
2022-03-04T04:00:00,1872A,109.389,24.341,柳州市,河西水厂,细颗粒物(PM2.5),52,45,126,36,95,111,54,61,59,16,38,8,21,0,0.8
2022-03-04T04:00:00,1873A,109.4311,24.2921,柳州市,市四中,,43,43,133,30,74,56,52,55,54,17,35,6,8,0.7,1.2
2022-03-04T04:00:00,1874A,109.4006,24.3631,柳州市,市九中,,49,37,113,34,94,96,56,59,58,14,43,5,13,0.5,1
2022-03-04T04:00:00,1875A,109.4958,24.3134,柳州市,古亭山,颗粒物(PM10),51,52,86,32,64,126,50,81,66,18,33,5,6,0.5,0.7
2022-03-04T04:00:00,1876A,109.5078,18.2489,三亚市,河东子站,,24,24,22,9,13,68,38,39,38,6,7,3,3,0.5,0.4
2022-03-04T04:00:00,1877A,109.4964,18.2681,三亚市,河西子站,,14,14,21,9,12,83,39,43,41,3,5,4,4,0.2,0.3
2022-03-04T04:00:00,1878A,104.7778,31.4741,绵阳市,富乐山,细颗粒物(PM2.5),69,82,84,50,50,117,6,6,6,46,37,6,7,0.7,0.6
2022-03-04T04:00:00,1879A,104.7563,31.4535,绵阳市,市人大,细颗粒物(PM2.5),79,98,93,58,54,122,3,3,3,52,50,8,9,1.0,1.1
2022-03-04T04:00:00,1880A,104.6697,31.4668,绵阳市,高新区自来水公司,细颗粒物(PM2.5),87,107,97,64,61,238,7,6,6,55,43,3,4,0.8,0.8
2022-03-04T04:00:00,1881A,104.7287,31.5075,绵阳市,三水厂,细颗粒物(PM2.5),94,115,106,70,58,121,1,1,1,42,43,4,5,0.9,0.9
2022-03-04T04:00:00,1882A,104.563,28.793,宜宾市,石马中学(对照点),细颗粒物(PM2.5),132,122,116,100,93,126,17,12,10,35,31,18,10,1.0,0.9
2022-03-04T04:00:00,1883A,104.6201,28.7728,宜宾市,市委,细颗粒物(PM2.5),133,138,119,101,87,130,6,13,8,58,43,15,15,0.8,0.8
2022-03-04T04:00:00,1884A,104.6055,28.793,宜宾市,宜宾四中,细颗粒物(PM2.5),132,143,124,100,89,120,18,12,12,50,55,21,12,0.8,0.8
2022-03-04T04:00:00,1885A,104.639,28.7562,宜宾市,市政府,细颗粒物(PM2.5),115,113,112,87,83,135,0,0,0,76,56,10,12,0.8,0.8
2022-03-04T04:00:00,1886A,104.5742,28.7199,宜宾市,黄金嘴,细颗粒物(PM2.5),115,116,110,87,79,135,0,0,0,59,38,8,11,0.8,0.8
2022-03-04T04:00:00,1888A,101.6891,26.571,攀枝花市,弄弄坪,细颗粒物(PM2.5),128,172,70,97,46,98,5,6,5,78,50,95,52,7.0,3.1
2022-03-04T04:00:00,1889A,101.5769,26.5928,攀枝花市,河门口,,44,44,39,21,19,104,18,26,18,42,29,39,23,1.1,0.9
2022-03-04T04:00:00,1890A,101.7169,26.585,攀枝花市,炳草岗,颗粒物(PM10),54,58,44,33,35,93,3,25,9,71,53,15,22,1.4,1.8
2022-03-04T04:00:00,1891A,101.7369,26.5008,攀枝花市,仁和,,27,27,27,17,15,100,53,69,62,17,20,8,6,0.6,0.6
2022-03-04T04:00:00,1893A,105.4324,28.9634,泸州市,九狮山(对照点),细颗粒物(PM2.5),87,107,102,64,64,133,12,17,14,26,30,5,9,0.5,0.5
2022-03-04T04:00:00,1894A,105.4427,28.9063,泸州市,小市上码头,细颗粒物(PM2.5),113,139,110,85,68,119,35,38,32,40,40,27,16,0.9,0.9
2022-03-04T04:00:00,1895A,105.4241,28.8573,泸州市,兰田宪桥,细颗粒物(PM2.5),99,135,117,74,71,125,5,7,6,44,44,8,13,0.9,0.9
2022-03-04T04:00:00,1896A,105.4379,28.8833,泸州市,市环监站,细颗粒物(PM2.5),113,131,98,85,63,111,19,30,26,50,45,21,16,0.9,0.8
2022-03-04T04:00:00,1901A,104.4239,31.1208,德阳市,东山公园,细颗粒物(PM2.5),98,112,111,73,66,118,36,30,30,41,47,35,10,0.7,0.7
2022-03-04T04:00:00,1902A,104.3826,31.1317,德阳市,西小区,细颗粒物(PM2.5),98,115,116,73,70,119,8,11,6,56,44,46,11,0.8,0.8
2022-03-04T04:00:00,1904A,104.3553,31.1091,德阳市,耐火材料厂,细颗粒物(PM2.5),109,119,132,82,79,111,5,21,9,68,50,25,11,0.7,0.8
2022-03-04T04:00:00,1905A,106.056,30.8064,南充市,西山风景区(对照点),颗粒物(PM10),63,75,53,44,38,110,67,88,77,24,17,37,11,0.8,0.7
2022-03-04T04:00:00,1906A,106.0789,30.8023,南充市,南充市委,细颗粒物(PM2.5),60,68,80,43,49,97,40,43,42,20,30,5,4,0.6,0.7
2022-03-04T04:00:00,1907A,106.1031,30.8217,南充市,南充炼油厂,颗粒物(PM10),62,74,85,38,38,99,21,26,24,38,34,1,4,0.8,0.7
2022-03-04T04:00:00,1908A,106.1064,30.7856,南充市,高坪区监测站,细颗粒物(PM2.5),77,87,80,56,47,109,11,11,11,45,35,1,4,0.8,0.8
2022-03-04T04:00:00,1909A,106.0642,30.7636,南充市,嘉陵区环保局,颗粒物(PM10),61,72,74,43,44,113,36,31,31,46,42,13,14,0.7,0.8
2022-03-04T04:00:00,1910A,106.1087,30.8388,南充市,市环境监测站,细颗粒物(PM2.5),83,89,74,61,49,104,18,18,18,57,42,3,4,0.6,0.6
2022-03-04T04:00:00,1911A,106.9222,27.6869,遵义市,丁字口,细颗粒物(PM2.5),59,56,75,42,41,91,45,38,38,12,22,15,17,0.6,0.7
2022-03-04T04:00:00,1912A,106.9242,27.7019,遵义市,凤凰山,,50,50,61,35,38,90,46,49,48,12,17,10,10,0.6,0.7
2022-03-04T04:00:00,1913A,106.8906,27.6486,遵义市,忠庄,细颗粒物(PM2.5),63,52,64,45,41,92,40,42,42,12,17,7,5,0.3,0.3
2022-03-04T04:00:00,1914A,106.9231,27.6506,遵义市,舟水桥,细颗粒物(PM2.5),57,55,60,40,41,86,38,42,41,11,16,14,13,0.4,0.4
2022-03-04T04:00:00,1915A,106.9178,27.72,遵义市,干田坝,细颗粒物(PM2.5),62,53,72,44,47,81,31,38,34,19,20,22,15,0.6,0.7
2022-03-04T04:00:00,1916A,103.7897,25.5035,曲靖市,环境监测站,,35,35,30,16,16,125,30,82,63,47,18,4,4,0.6,0.5
2022-03-04T04:00:00,1917A,103.8,25.5364,曲靖市,烟厂办公区,颗粒物(PM10),54,58,39,29,19,117,9,64,30,75,29,12,9,0.7,0.4
2022-03-04T04:00:00,1918A,108.7197,34.3956,咸阳市,气象站(对照点),细颗粒物(PM2.5),102,144,172,76,81,61,11,7,7,61,79,6,8,0.8,0.9
2022-03-04T04:00:00,1919A,108.673,34.3155,咸阳市,实验中学,细颗粒物(PM2.5),152,186,183,116,81,80,6,6,6,65,76,9,10,0.9,0.9
2022-03-04T04:00:00,1920A,108.7233,34.3617,咸阳市,师范学院,细颗粒物(PM2.5),107,112,179,80,95,68,13,7,7,57,74,7,9,1.2,1.3
2022-03-04T04:00:00,1922A,109.0656,35.0994,铜川市,党校(对照点),颗粒物(PM10),64,77,96,28,37,108,8,11,9,74,53,9,10,0.5,0.5
2022-03-04T04:00:00,1923A,109.0697,35.0697,铜川市,王益区政府,颗粒物(PM10),62,74,102,28,40,107,9,12,10,52,45,6,8,0.5,0.6
2022-03-04T04:00:00,1924A,108.9344,34.9058,铜川市,新区管委会,颗粒物(PM10),57,64,108,23,48,109,76,72,72,15,34,6,12,0.4,0.6
2022-03-04T04:00:00,1926A,109.4131,36.6275,延安市,枣园(对照点),颗粒物(PM10),71,92,80,34,36,112,5,8,6,38,35,2,3,1.3,1.2
2022-03-04T04:00:00,1927A,109.4761,36.6028,延安市,延大医附院,颗粒物(PM10),110,169,120,28,31,105,3,3,3,48,42,6,6,1.1,1.2
2022-03-04T04:00:00,1929A,109.5056,36.6106,延安市,百米大道,颗粒物(PM10),80,109,106,31,44,104,3,4,3,62,53,8,8,1.2,1.2
2022-03-04T04:00:00,1930A,107.185,34.3063,宝鸡市,庙沟村(对照点),颗粒物(PM10),55,60,76,31,32,109,87,79,79,16,21,5,5,0.4,0.4
2022-03-04T04:00:00,1931A,107.0708,34.3017,宝鸡市,竹园沟,,38,38,67,20,33,118,79,71,71,12,23,4,5,0.3,0.4
2022-03-04T04:00:00,1932A,107.1906,34.3672,宝鸡市,三陆医院,颗粒物(PM10),54,58,91,31,46,112,40,52,47,38,43,10,10,0.5,0.6
2022-03-04T04:00:00,1933A,107.1431,34.3547,宝鸡市,监测站,颗粒物(PM10),56,62,80,29,39,114,41,35,35,27,36,3,4,0.4,0.5
2022-03-04T04:00:00,1934A,107.1186,34.3739,宝鸡市,技工学校,颗粒物(PM10),58,66,91,28,36,112,49,54,51,22,31,5,7,0.4,0.6
2022-03-04T04:00:00,1935A,107.3906,34.3528,宝鸡市,陈仓区环保局家属楼,颗粒物(PM10),71,92,117,45,56,111,48,43,43,35,43,28,21,2.0,1.1
2022-03-04T04:00:00,1936A,107.2058,34.3497,宝鸡市,文理学院,颗粒物(PM10),63,76,90,34,43,115,44,45,45,28,34,8,8,0.3,0.4
2022-03-04T04:00:00,1937A,107.2386,34.3622,宝鸡市,三迪小学,颗粒物(PM10),61,72,93,36,44,102,38,39,39,35,46,9,8,0.3,0.5
2022-03-04T04:00:00,1938A,109.5293,34.5101,渭南市,农科所(对照点),颗粒物(PM10),75,100,170,44,64,81,32,20,20,36,51,9,12,0.6,0.8
2022-03-04T04:00:00,1939A,109.4974,34.4877,渭南市,日报社,颗粒物(PM10),82,114,162,41,58,77,14,30,19,66,64,12,15,0.6,0.8
2022-03-04T04:00:00,1940A,109.4636,34.493,渭南市,体育馆,颗粒物(PM10),92,134,165,49,56,84,19,12,12,66,64,23,16,0.6,0.7
2022-03-04T04:00:00,1941A,109.4259,34.5023,渭南市,高新一小,颗粒物(PM10),91,131,164,64,75,82,6,7,6,80,66,10,14,0.7,0.7
2022-03-04T04:00:00,1943A,102.1725,38.5339,金昌市,新川苑,颗粒物(PM10),101,151,96,34,26,106,95,93,93,3,10,5,6,0.3,0.4
2022-03-04T04:00:00,1944A,102.1692,38.5167,金昌市,天庆家园,颗粒物(PM10),99,148,100,28,23,114,102,100,100,2,12,10,11,0.4,0.6
2022-03-04T04:00:00,1945A,98.2908,39.7711,嘉峪关市,气象局,颗粒物(PM10),62,73,85,22,23,106,87,88,88,8,10,4,3,0.3,0.3
2022-03-04T04:00:00,1947A,106.3394,38.817,石嘴山市,沙湖旅游区(对照点),,,,87,42,27,110,72,98,87,45,9,10,13,0.3,0.3
2022-03-04T04:00:00,1948A,106.3668,39.0145,石嘴山市,大武口朝阳西街,颗粒物(PM10),88,126,65,25,17,101,97,100,99,4,7,1,4,0.2,0.2
2022-03-04T04:00:00,1949A,106.7704,39.2282,石嘴山市,惠农南大街,颗粒物(PM10),175,299,126,49,24,100,94,98,96,7,16,10,17,0.3,0.5
2022-03-04T04:00:00,1950A,106.7099,39.1325,石嘴山市,红果子镇惠新街,颗粒物(PM10),112,174,128,37,25,98,87,93,92,8,9,24,14,0.5,0.5
2022-03-04T04:00:00,1951A,84.895,45.6094,克拉玛依市,长征新村,,27,15,86,12,59,136,85,82,82,5,20,6,8,0.3,0.7
2022-03-04T04:00:00,1952A,84.8988,45.5893,克拉玛依市,南林小区,,27,24,100,8,55,125,86,83,83,8,20,3,5,0.2,0.7
2022-03-04T04:00:00,1954A,84.905,44.3396,克拉玛依市,独山子区,细颗粒物(PM2.5),88,112,50,65,17,168,97,82,82,18,24,3,4,1.1,1
2022-03-04T04:00:00,1955A,85.6979,46.098,克拉玛依市,乌尔禾区商贸楼,,19,18,56,10,35,94,59,48,48,16,29,8,8,0.3,0.6
2022-03-04T04:00:00,1956A,86.1472,41.7538,巴音郭楞州,孔雀公园,颗粒物(PM10),133,216,318,54,83,102,61,51,51,29,47,4,6,0.2,0.5
2022-03-04T04:00:00,1957A,86.1972,41.7166,巴音郭楞州,棉纺厂,颗粒物(PM10),129,207,315,52,85,96,72,51,51,15,40,5,6,0.4,0.7
2022-03-04T04:00:00,1958A,86.2357,41.7173,巴音郭楞州,经济开发区,颗粒物(PM10),142,234,320,59,74,100,79,66,66,9,24,3,4,0.1,0.3
2022-03-04T04:00:00,1961A,117.532,36.6868,济南市,东山小学,颗粒物(PM10),102,154,120,54,38,126,82,104,95,27,30,13,14,0.6,0.6
2022-03-04T04:00:00,1966A,120.0405,35.8735,青岛市,黄岛区4号,细颗粒物(PM2.5),178,217,139,134,77,115,109,112,110,50,60,8,12,1.2,1
2022-03-04T04:00:00,1982A,122.0693,37.2174,威海市,文登开发区,细颗粒物(PM2.5),153,190,108,117,60,145,145,128,128,17,27,6,6,0.9,0.7
2022-03-04T04:00:00,2031A,113.1817,27.9958,株洲市,云田中学,细颗粒物(PM2.5),102,127,88,76,54,118,36,42,39,24,21,12,10,0.6,0.6
2022-03-04T04:00:00,2054A,114.1099,32.1059,信阳市,平桥分局,颗粒物(PM10),109,167,109,38,48,156,74,90,82,22,27,7,9,0.5,0.5
2022-03-04T04:00:00,2064A,113.9956,32.1271,信阳市,南湾水厂,细颗粒物(PM2.5),70,63,98,51,43,159,84,96,88,17,16,6,7,0.6,0.6
2022-03-04T04:00:00,2065A,114.0775,32.1195,信阳市,市酿酒公司,颗粒物(PM10),59,68,97,35,42,155,58,92,70,29,29,3,4,0.5,0.5
2022-03-04T04:00:00,2066A,114.0609,32.1399,信阳市,审计局,颗粒物(PM10),65,80,106,36,46,162,96,106,94,14,25,7,8,0.4,0.4
2022-03-04T04:00:00,2067A,114.6613,33.6128,周口市,市环境监测站,颗粒物(PM10),79,107,118,42,46,122,87,117,104,16,25,8,7,0.6,0.6
2022-03-04T04:00:00,2068A,114.6758,33.6347,周口市,周口师范,颗粒物(PM10),81,111,126,40,41,122,88,110,100,18,29,7,6,0.6,0.7
2022-03-04T04:00:00,2069A,114.6546,33.5979,周口市,市运管处,颗粒物(PM10),83,116,119,45,44,121,84,111,102,22,31,9,8,0.6,0.6
2022-03-04T04:00:00,2070A,114.6369,33.6406,周口市,川汇区环保局,颗粒物(PM10),81,112,124,44,47,123,75,110,95,22,30,5,6,0.4,0.5
2022-03-04T04:00:00,2075A,117.6336,24.4674,漳州市,九湖(对照点),细颗粒物(PM2.5),69,66,88,50,66,178,62,117,92,24,29,6,7,0.7,0.8
2022-03-04T04:00:00,2160A,112.85,35.5051,晋城市,自来水公司,颗粒物(PM10),63,76,97,27,37,93,67,34,34,30,56,13,25,0.7,1.4
2022-03-04T04:00:00,2161A,112.8318,35.4936,晋城市,白云商贸,颗粒物(PM10),94,137,141,39,41,93,28,21,21,48,52,11,21,1.0,1.3
2022-03-04T04:00:00,2162A,112.8508,35.4887,晋城市,市环保局,颗粒物(PM10),75,99,135,44,45,87,24,10,10,53,58,12,22,0.7,1.3
2022-03-04T04:00:00,2163A,112.8676,35.4897,晋城市,技术学院,颗粒物(PM10),77,104,123,44,40,95,70,27,27,30,59,12,22,0.5,1.2
2022-03-04T04:00:00,2165A,112.8453,35.546,晋城市,白马寺 (对照点),颗粒物(PM10),82,114,95,17,26,101,98,98,98,15,27,12,16,0.6,1
2022-03-04T04:00:00,2166A,112.4397,39.3522,朔州市,平朔,颗粒物(PM10),500,889,443,147,66,103,92,90,90,3,23,3,8,0.4,0.6
2022-03-04T04:00:00,2167A,112.4575,39.3617,朔州市,朔唯,颗粒物(PM10),500,881,282,133,61,109,90,90,90,5,25,3,12,0.4,0.5
2022-03-04T04:00:00,2168A,112.4258,39.3197,朔州市,区政府,颗粒物(PM10),500,905,392,112,61,102,91,88,88,4,20,2,8,0.3,0.5
2022-03-04T04:00:00,2169A,112.4072,39.3278,朔州市,市环保局,颗粒物(PM10),500,924,387,139,67,104,92,89,89,2,22,2,7,0.3,0.4
2022-03-04T04:00:00,2170A,112.4272,39.3681,朔州市,市二中,颗粒物(PM10),500,950,399,152,70,101,85,84,84,4,22,2,9,0.4,0.5
2022-03-04T04:00:00,2171A,112.7532,37.6945,晋中市,锦纶小区,颗粒物(PM10),111,171,125,68,48,107,7,29,20,58,29,30,22,1.1,0.7
2022-03-04T04:00:00,2173A,112.7249,37.7067,晋中市,南都小区,颗粒物(PM10),110,170,129,68,45,98,20,37,28,52,35,36,26,1.2,0.7
2022-03-04T04:00:00,2174A,112.6991,37.6982,晋中市,榆次区政府,颗粒物(PM10),109,167,121,74,48,110,17,28,21,52,29,38,25,1.4,0.6
2022-03-04T04:00:00,2175A,110.9956,35.0147,运城市,运城中学,颗粒物(PM10),124,197,189,89,83,94,5,7,6,75,54,17,21,1.1,1.2
2022-03-04T04:00:00,2178A,110.9686,35.0303,运城市,地区技校,颗粒物(PM10),145,240,205,94,75,95,4,4,4,80,62,13,16,1.0,1
2022-03-04T04:00:00,2179A,111.0414,35.1147,运城市,空港新区,细颗粒物(PM2.5),137,199,211,104,93,93,5,6,5,71,67,17,21,1.2,1.4
2022-03-04T04:00:00,2181A,112.7383,38.4519,忻州市,开发区,颗粒物(PM10),252,386,161,71,47,106,87,88,87,4,18,5,10,0.3,0.5
2022-03-04T04:00:00,2182A,112.7003,38.4928,忻州市,会展中心,颗粒物(PM10),242,379,165,82,51,101,86,91,88,5,24,6,12,0.3,0.5
2022-03-04T04:00:00,2183A,111.1406,37.5211,吕梁市,环保局,颗粒物(PM10),91,131,119,28,27,89,0,0,0,57,52,12,12,0.5,0.5
2022-03-04T04:00:00,2185A,111.1297,37.5136,吕梁市,自来水公司,颗粒物(PM10),115,180,135,31,30,88,2,3,2,56,49,16,12,0.5,0.5
2022-03-04T04:00:00,2187A,106.8174,39.6973,乌海市,市林业局,颗粒物(PM10),163,275,242,70,52,108,93,98,96,4,4,5,5,0.4,0.4
2022-03-04T04:00:00,2188A,106.7907,39.6667,乌海市,中海勃湾学校,颗粒物(PM10),148,245,205,73,47,115,103,107,105,5,6,6,5,0.3,0.3
2022-03-04T04:00:00,2191A,122.2532,43.6801,通辽市,艺术职业学校,颗粒物(PM10),62,74,45,26,16,90,56,61,59,38,25,48,21,0.4,0.4
2022-03-04T04:00:00,2192A,119.7594,49.2261,呼伦贝尔市,区环保局,,38,38,31,19,18,91,72,83,77,7,12,4,4,0.6,0.5
2022-03-04T04:00:00,2195A,107.4212,40.761,巴彦淖尔市,附二中,颗粒物(PM10),189,327,809,57,114,103,85,92,88,2,5,4,4,0.4,0.4
2022-03-04T04:00:00,2196A,107.37,40.7372,巴彦淖尔市,市环保大楼,颗粒物(PM10),167,284,968,40,135,104,88,93,90,3,3,5,5,0.4,0.3
2022-03-04T04:00:00,2197A,113.1306,40.9923,乌兰察布市,集宁新区,颗粒物(PM10),135,219,181,45,41,112,99,99,97,2,13,8,16,0.2,0.3
2022-03-04T04:00:00,2200A,122.0392,46.0656,兴安盟,胜华新制药厂,颗粒物(PM10),51,52,47,34,24,74,48,54,50,14,15,5,4,0.3,0.3
2022-03-04T04:00:00,2201A,121.9504,46.0741,兴安盟,科右前旗环保局,颗粒物(PM10),56,61,55,32,30,81,40,57,47,17,15,6,6,0.5,0.3
2022-03-04T04:00:00,2202A,116.1042,43.9317,锡林郭勒盟,市环保监测站,颗粒物(PM10),72,93,121,25,15,85,70,79,74,7,4,9,9,0.2,0.2
2022-03-04T04:00:00,2203A,116.0781,43.9311,锡林郭勒盟,市政府,颗粒物(PM10),72,94,99,19,16,82,68,75,71,7,5,8,6,0.2,0.3
2022-03-04T04:00:00,2204A,105.6467,38.8363,阿拉善盟,西城区西花园(对照点),颗粒物(PM10),66,81,57,25,22,110,97,100,100,4,8,6,5,0.2,0.3
2022-03-04T04:00:00,2205A,105.6985,38.8411,阿拉善盟,蒙二幼,颗粒物(PM10),63,76,53,23,19,107,99,102,101,4,7,5,5,0,0.1
2022-03-04T04:00:00,2206A,105.724,38.8516,阿拉善盟,环保局新楼,,50,50,45,26,22,110,103,105,103,3,6,5,5,0.2,0.2
2022-03-04T04:00:00,2207A,121.6094,41.998,阜新市,工业园区,颗粒物(PM10),58,66,68,38,22,96,83,79,79,23,23,16,13,0.8,0.6
2022-03-04T04:00:00,2208A,121.6697,42.0279,阜新市,长青街,颗粒物(PM10),70,90,63,42,24,85,60,62,62,20,22,20,18,0.6,0.6
2022-03-04T04:00:00,2209A,121.6673,42.0705,阜新市,农业园区,细颗粒物(PM2.5),67,66,52,48,26,91,62,65,64,19,16,16,21,0.8,0.5
2022-03-04T04:00:00,2210A,121.6717,42.0224,阜新市,东苑,细颗粒物(PM2.5),68,75,82,49,31,87,64,67,66,21,26,24,19,0.7,0.6
2022-03-04T04:00:00,2211A,121.6506,42.0498,阜新市,玉龙新城,颗粒物(PM10),54,58,46,37,20,91,59,61,61,19,20,16,15,0.7,0.6
2022-03-04T04:00:00,2212A,123.2,41.1953,辽阳市,宏伟区,,48,48,40,18,16,92,86,92,90,7,16,7,13,0.4,0.5
2022-03-04T04:00:00,2213A,123.1683,41.2495,辽阳市,新华园,,44,44,48,22,26,93,93,92,92,8,21,8,13,0.4,0.8
2022-03-04T04:00:00,2214A,123.2354,41.2639,辽阳市,滨河路,,43,43,41,30,21,91,91,87,87,3,15,10,14,0.4,0.4
2022-03-04T04:00:00,2215A,123.149,41.2991,辽阳市,铁西工业园,,50,50,57,19,24,87,86,86,86,10,29,9,14,0.4,0.7
2022-03-04T04:00:00,2216A,123.8139,42.3022,铁岭市,汇工街西,颗粒物(PM10),65,79,52,25,26,89,89,79,79,17,35,16,20,0.6,0.8
2022-03-04T04:00:00,2217A,123.8649,42.2923,铁岭市,水上乐园,颗粒物(PM10),53,56,43,23,21,91,91,80,80,19,34,10,12,0.4,0.6
2022-03-04T04:00:00,2218A,123.8486,42.2867,铁岭市,银州路东段,颗粒物(PM10),65,80,48,26,19,106,106,98,98,15,29,9,11,0.5,0.6
2022-03-04T04:00:00,2219A,123.7153,42.2217,铁岭市,金沙江路北,颗粒物(PM10),66,81,56,29,24,82,82,68,68,23,45,11,13,0.7,0.8
2022-03-04T04:00:00,2220A,120.4318,41.5881,朝阳市,西梁,颗粒物(PM10),54,58,57,29,24,94,67,80,72,15,19,14,16,0.8,0.8
2022-03-04T04:00:00,2221A,120.4521,41.5646,朝阳市,河畔小区,颗粒物(PM10),53,55,48,27,20,98,76,86,80,12,15,7,9,0.8,0.7
2022-03-04T04:00:00,2222A,120.4176,41.5648,朝阳市,八里堡,颗粒物(PM10),52,53,54,28,24,94,62,73,64,19,21,10,11,0.8,0.8
2022-03-04T04:00:00,2223A,120.3806,41.5969,朝阳市,农业园区,颗粒物(PM10),63,75,60,26,29,93,68,54,54,16,27,9,12,0.8,0.8
2022-03-04T04:00:00,2225A,124.4002,43.1713,四平市,一商场,,,,42,18,15,89,89,74,74,8,21,11,10,0.4,0.4
2022-03-04T04:00:00,2226A,124.388,43.193,四平市,境园,,43,43,31,19,15,84,84,63,63,18,35,14,11,0.6,0.5
2022-03-04T04:00:00,2227A,125.1358,42.8845,辽源市,环保局,,30,29,31,20,20,94,94,70,70,10,16,15,8,0.5,0.6
2022-03-04T04:00:00,2229A,125.9358,41.7173,通化市,光明,,31,26,49,13,13,98,98,67,67,5,21,10,17,0.3,0.6
2022-03-04T04:00:00,2230A,125.9446,41.7325,通化市,铁路,,45,45,49,20,18,82,6,9,8,49,26,26,19,0.8,0.7
2022-03-04T04:00:00,2231A,126.4219,41.9171,白山市,喜丰,颗粒物(PM10),71,92,88,18,18,92,31,28,28,31,28,26,23,1.1,0.8
2022-03-04T04:00:00,2232A,126.4077,41.9419,白山市,环保局,颗粒物(PM10),63,76,71,8,16,82,34,38,36,25,24,11,16,0.6,0.9
2022-03-04T04:00:00,2233A,124.8006,45.1214,松原市,江南,,39,39,40,17,24,84,60,60,60,18,24,5,5,0.4,0.3
2022-03-04T04:00:00,2234A,124.7965,45.1722,松原市,江北,,47,47,35,21,24,87,60,64,61,17,20,5,3,0.5,0.4
2022-03-04T04:00:00,2235A,122.7911,45.6077,白城市,洮北区环保局,,36,36,33,14,13,88,63,68,65,12,14,6,10,0.4,0.4
2022-03-04T04:00:00,2236A,122.8738,45.5725,白城市,市环保局,,37,37,30,16,18,88,50,50,50,20,20,6,6,0.3,0.3
2022-03-04T04:00:00,2237A,129.47,42.8883,延边朝鲜族自治州,妇幼医院,,34,34,30,22,23,92,23,32,28,17,15,12,9,0.6,0.6
2022-03-04T04:00:00,2238A,129.5055,42.9108,延边朝鲜族自治州,延边医院,,27,27,29,10,19,91,33,45,42,17,15,13,8,0.5,0.6
2022-03-04T04:00:00,2239A,129.3964,42.8881,延边朝鲜族自治州,朝阳川镇医院,,21,21,30,9,18,92,23,25,22,10,12,3,5,0.6,0.6
2022-03-04T04:00:00,2240A,130.9762,45.3001,鸡西市,环保局,细颗粒物(PM2.5),69,64,29,50,23,77,16,17,17,57,34,9,6,0.9,0.5
2022-03-04T04:00:00,2243A,130.9429,45.3039,鸡西市,第一中学,细颗粒物(PM2.5),57,51,24,40,20,82,33,22,22,43,27,16,10,0.5,0.2
2022-03-04T04:00:00,2244A,130.2537,47.3416,鹤岗市,哈啤分公司,颗粒物(PM10),56,61,45,33,23,94,78,55,55,39,23,13,13,0.5,0.5
2022-03-04T04:00:00,2245A,130.2684,47.3086,鹤岗市,斯达机电,,49,48,36,34,21,91,73,85,81,21,13,11,7,0.6,0.4
2022-03-04T04:00:00,2246A,130.3114,47.3388,鹤岗市,东山纸板厂,颗粒物(PM10),55,59,44,34,21,82,43,68,57,42,21,12,13,0.6,0.7
2022-03-04T04:00:00,2248A,131.1511,46.6937,双鸭山市,双合村,,23,21,19,14,16,93,73,80,76,11,9,9,7,0.5,0.5
2022-03-04T04:00:00,2249A,131.1652,46.6191,双鸭山市,南小市,,23,14,16,13,14,90,71,75,69,7,10,2,3,0.5,0.5
2022-03-04T04:00:00,2250A,131.1524,46.6554,双鸭山市,环保局,,27,20,22,16,20,92,85,87,86,8,16,3,4,0.2,0.4
2022-03-04T04:00:00,2251A,131.12,46.5656,双鸭山市,苗圃(对照点),,42,24,22,29,31,108,83,86,85,6,6,2,2,0.4,0.3
2022-03-04T04:00:00,2252A,128.5159,47.4311,伊春市,环保局,,25,23,15,13,10,86,79,82,80,10,12,13,7,0.6,0.5
2022-03-04T04:00:00,2253A,128.9102,47.7412,伊春市,电力嘉园,,19,17,28,13,19,71,45,48,46,12,18,13,6,1.0,0.7
2022-03-04T04:00:00,2254A,129.5029,48.471,伊春市,汤旺河国家公园(对照点),,19,5,4,4,6,81,59,60,60,3,2,6,6,0.1,0
2022-03-04T04:00:00,2255A,130.2751,46.8028,佳木斯市,佳纺,,23,21,32,16,25,95,71,86,81,13,13,4,6,0.3,0.4
2022-03-04T04:00:00,2256A,130.3995,46.8307,佳木斯市,发电厂,,35,35,25,20,18,97,54,70,55,27,16,8,7,0.4,0.4
2022-03-04T04:00:00,2257A,130.3258,46.7975,佳木斯市,环保局,,26,17,24,13,19,100,82,86,84,6,10,5,4,0.3,0.7
2022-03-04T04:00:00,2258A,130.3648,46.8032,佳木斯市,十一中,,25,18,23,17,19,89,74,75,74,10,18,6,7,0.4,0.5
2022-03-04T04:00:00,2259A,130.3794,46.7588,佳木斯市,四丰(对照点),,24,16,15,11,15,98,75,83,79,4,4,6,4,0.4,0.4
2022-03-04T04:00:00,2262A,131.0518,45.8751,七台河市,新一中(对照点),,22,22,21,15,16,94,64,54,54,12,12,8,7,0.4,0.4
2022-03-04T04:00:00,2263A,127.4833,50.2524,黑河市,交通局,,43,29,16,30,14,98,88,98,95,7,8,7,6,0.5,0.5
2022-03-04T04:00:00,2264A,127.5144,50.2341,黑河市,环保局,,38,30,19,26,15,110,96,110,104,5,7,7,8,0.4,0.4
2022-03-04T04:00:00,2265A,127.5291,50.2472,黑河市,大黑河岛(对照点),,31,31,17,19,12,96,90,96,93,8,8,8,9,0.5,0.4
2022-03-04T04:00:00,2266A,126.9785,46.6365,绥化市,人和东街,,26,22,59,18,53,102,82,78,78,9,19,7,8,0.5,0.7
2022-03-04T04:00:00,2267A,126.964,46.6528,绥化市,党政办公中心,,33,26,57,23,67,86,66,62,62,5,16,4,8,0.4,0.5
2022-03-04T04:00:00,2269A,124.1069,50.4097,大兴安岭地区,科技局,,30,23,21,21,15,78,75,65,65,14,11,7,9,0.5,0.5
2022-03-04T04:00:00,2270A,117.396,32.939,蚌埠市,工人疗养院,颗粒物(PM10),105,160,166,55,55,146,77,88,85,37,36,17,17,0.6,0.8
2022-03-04T04:00:00,2271A,117.3605,32.9427,蚌埠市,百货大楼,颗粒物(PM10),116,182,210,46,55,145,74,62,62,44,60,16,16,0.6,0.9
2022-03-04T04:00:00,2273A,117.4185,32.8911,蚌埠市,蚌埠学院,颗粒物(PM10),120,190,162,63,49,147,78,72,72,35,29,16,14,0.7,0.6
2022-03-04T04:00:00,2274A,117.3533,32.9673,蚌埠市,淮上区政府,颗粒物(PM10),111,171,180,58,60,141,76,44,44,46,61,19,20,0.5,0.6
2022-03-04T04:00:00,2275A,117.3145,32.8977,蚌埠市,高新区,颗粒物(PM10),107,163,197,61,74,144,29,30,25,89,59,16,15,0.6,0.6
2022-03-04T04:00:00,2277A,116.8305,32.7727,淮南市,潘集区政府,颗粒物(PM10),116,182,184,68,73,152,92,65,65,20,35,6,9,0.5,0.5
2022-03-04T04:00:00,2278A,117.0067,32.6524,淮南市,师范学院,细颗粒物(PM2.5),110,159,163,83,64,143,99,65,65,16,50,9,10,0.6,0.8
2022-03-04T04:00:00,2279A,116.8569,32.5951,淮南市,谢家集区政府,颗粒物(PM10),97,143,156,49,52,146,98,93,84,15,35,10,13,0.4,0.4
2022-03-04T04:00:00,2280A,116.8281,32.633,淮南市,八公山区政府,颗粒物(PM10),88,126,141,54,54,141,94,111,102,15,25,9,11,0.5,0.5
2022-03-04T04:00:00,2281A,116.6325,32.6201,淮南市,焦岗湖风景区管理处(对照点),颗粒物(PM10),95,140,153,58,56,159,80,42,42,21,51,10,11,0.5,0.5
2022-03-04T04:00:00,2282A,116.8004,33.975,淮北市,监测站,颗粒物(PM10),100,149,178,56,59,129,91,116,106,17,36,11,11,0.6,0.7
2022-03-04T04:00:00,2283A,116.8091,33.9007,淮北市,烈山区政府,颗粒物(PM10),94,138,171,47,52,136,72,88,84,49,45,14,15,0.7,0.7
2022-03-04T04:00:00,2284A,116.7856,33.9477,淮北市,职业技术学院,颗粒物(PM10),90,130,161,59,63,126,83,106,98,22,36,14,11,0.7,0.8
2022-03-04T04:00:00,2285A,117.8177,30.9412,铜陵市,市第四中学,细颗粒物(PM2.5),88,110,144,65,60,141,64,41,41,32,54,11,21,0.8,1
2022-03-04T04:00:00,2286A,117.8059,30.9273,铜陵市,市公路局,细颗粒物(PM2.5),102,103,142,76,61,135,50,43,36,45,54,14,23,1.0,1.2
2022-03-04T04:00:00,2287A,117.7807,30.9413,铜陵市,市新民污水厂,颗粒物(PM10),78,105,144,56,52,148,14,23,21,76,59,6,15,0.7,0.8
2022-03-04T04:00:00,2288A,117.7439,30.8792,铜陵市,市第九中学,细颗粒物(PM2.5),80,92,138,59,57,144,14,37,32,76,68,7,12,1.0,0.9
2022-03-04T04:00:00,2289A,117.846,30.9413,铜陵市,车站新区,细颗粒物(PM2.5),93,101,147,69,55,128,55,69,56,43,61,3,13,0.8,0.9
2022-03-04T04:00:00,2290A,117.8483,30.97,铜陵市,市职教基地,细颗粒物(PM2.5),87,97,137,64,56,132,57,50,50,28,46,7,17,1.0,1
2022-03-04T04:00:00,2291A,117.0809,30.5177,安庆市,环科院,颗粒物(PM10),72,93,112,49,41,148,88,94,92,13,47,8,11,0.8,0.7
2022-03-04T04:00:00,2292A,117.0331,30.5119,安庆市,马山宾馆,颗粒物(PM10),74,97,114,41,34,145,91,85,85,14,53,5,10,0.8,0.8
2022-03-04T04:00:00,2294A,116.9896,30.6145,安庆市,安庆大学,细颗粒物(PM2.5),68,80,113,49,38,143,81,78,78,12,46,5,7,0.9,0.8
2022-03-04T04:00:00,2295A,118.2903,29.6963,黄山市,延安路89号,,34,34,58,18,38,134,49,56,54,10,15,8,9,0.5,0.5
2022-03-04T04:00:00,2296A,118.327,29.7178,黄山市,黄山东路89号,,44,44,61,29,40,132,60,63,62,10,17,8,8,0.5,0.7
2022-03-04T04:00:00,2297A,118.1371,30.2756,黄山市,黄山区政府5号楼,,43,43,72,21,33,128,106,85,85,9,14,7,8,0.6,0.5
2022-03-04T04:00:00,2298A,118.3093,32.3153,滁州市,老年大学,细颗粒物(PM2.5),97,140,165,72,59,146,94,49,40,40,60,16,15,0.7,0.8
2022-03-04T04:00:00,2299A,118.3244,32.2786,滁州市,人大宾馆,细颗粒物(PM2.5),113,163,165,85,71,146,96,80,80,38,64,10,14,0.7,0.9
2022-03-04T04:00:00,2301A,115.8277,32.8929,阜阳市,市监测站,颗粒物(PM10),85,119,145,53,63,151,89,37,37,31,51,9,8,0.6,0.8
2022-03-04T04:00:00,2303A,115.8554,32.8605,阜阳市,开发区,颗粒物(PM10),106,161,176,58,57,148,58,36,36,47,58,8,9,0.6,0.6
2022-03-04T04:00:00,2307A,116.5079,31.737,六安市,监测大楼,颗粒物(PM10),67,83,126,45,47,142,88,113,96,16,34,6,8,0.5,0.4
2022-03-04T04:00:00,2308A,116.4738,31.7643,六安市,皖西学院,颗粒物(PM10),68,86,135,38,46,152,96,113,103,14,30,7,9,0.6,0.6
2022-03-04T04:00:00,2309A,116.4996,31.7905,六安市,朝阳厂,颗粒物(PM10),67,83,130,46,47,143,90,113,102,12,32,6,8,0.5,0.5
2022-03-04T04:00:00,2310A,116.5567,31.7886,六安市,开发区,颗粒物(PM10),72,94,160,39,50,154,97,100,99,11,30,6,8,0.4,0.4
2022-03-04T04:00:00,2311A,115.8072,33.8399,亳州市,污水处理厂,颗粒物(PM10),89,127,134,42,38,126,94,114,100,13,24,5,7,0.5,0.5
2022-03-04T04:00:00,2312A,115.7789,33.8518,亳州市,三国揽胜宫,颗粒物(PM10),82,114,130,45,45,127,95,110,99,16,21,5,7,0.7,0.6
2022-03-04T04:00:00,2314A,117.47,30.6618,池州市,池州学院,颗粒物(PM10),83,115,126,49,37,156,73,79,70,21,30,5,10,0.8,0.8
2022-03-04T04:00:00,2316A,118.7581,30.9454,宣城市,鳌峰子站,细颗粒物(PM2.5),123,91,140,93,70,146,79,88,85,28,32,5,8,0.8,0.8
2022-03-04T04:00:00,2317A,118.7385,30.9743,宣城市,敬亭山子站,细颗粒物(PM2.5),99,84,138,74,65,151,72,83,77,26,27,6,9,0.7,0.6
2022-03-04T04:00:00,2318A,118.7173,30.9427,宣城市,开发区子站,细颗粒物(PM2.5),125,78,136,95,68,138,59,73,67,45,32,6,9,0.8,0.8
2022-03-04T04:00:00,2319A,119.0141,25.4325,莆田市,荔城区仓后路,细颗粒物(PM2.5),65,71,69,47,37,165,34,42,36,29,23,6,5,0.8,0.8
2022-03-04T04:00:00,2320A,119.0015,25.4553,莆田市,莆田市监测站,细颗粒物(PM2.5),58,46,58,41,44,172,52,75,66,9,15,4,5,0.6,0.7
2022-03-04T04:00:00,2321A,119.1119,25.4561,莆田市,涵江区六中,细颗粒物(PM2.5),62,63,67,44,44,167,49,61,57,29,25,7,7,0.6,0.7
2022-03-04T04:00:00,2322A,119.1013,25.3215,莆田市,秀屿区政府,细颗粒物(PM2.5),83,73,65,61,47,151,32,65,46,36,24,8,8,1.0,0.9
2022-03-04T04:00:00,2323A,118.981,25.4792,莆田市,东圳水库(对照点),颗粒物(PM10),53,56,54,30,30,174,36,47,40,11,14,7,6,0.4,0.4
2022-03-04T04:00:00,2324A,117.6211,26.2625,三明市,三钢,颗粒物(PM10),90,130,90,59,58,134,22,43,31,30,28,10,12,1.2,1
2022-03-04T04:00:00,2325A,117.635,26.2714,三明市,三明二中,细颗粒物(PM2.5),77,53,66,56,52,139,29,38,35,21,22,5,11,1.0,1.1
2022-03-04T04:00:00,2326A,117.6028,26.2378,三明市,三元区政府,细颗粒物(PM2.5),75,54,75,55,60,134,25,21,21,26,29,11,15,1.1,1.3
2022-03-04T04:00:00,2327A,117.7275,26.3108,三明市,洋溪(对照点),细颗粒物(PM2.5),59,47,63,42,49,150,40,39,39,13,17,6,13,1.0,1.1
2022-03-04T04:00:00,2331A,118.0966,26.6761,南平市,茫荡山(对照点),细颗粒物(PM2.5),64,40,43,46,41,116,93,99,97,8,8,5,5,0.6,0.7
2022-03-04T04:00:00,2332A,118.1681,26.6369,南平市,南平市监测站,细颗粒物(PM2.5),57,56,56,40,43,122,70,80,73,13,16,4,5,0.8,0.9
2022-03-04T04:00:00,2333A,118.1825,26.6489,南平市,南平铝业有限公司,细颗粒物(PM2.5),60,48,54,43,42,122,62,86,70,21,14,7,6,0.7,0.7
2022-03-04T04:00:00,2334A,118.1756,26.6272,南平市,南平七中,颗粒物(PM10),59,68,57,32,52,122,83,95,92,12,14,3,3,0.7,0.8
2022-03-04T04:00:00,2335A,117.0189,25.1181,龙岩市,龙岩师专(对照点),细颗粒物(PM2.5),85,71,65,63,53,130,48,53,49,22,22,7,6,0.7,0.7
2022-03-04T04:00:00,2336A,117.0217,25.1033,龙岩市,龙岩市监测站,细颗粒物(PM2.5),89,70,58,66,54,122,53,80,65,23,23,9,8,0.7,0.8
2022-03-04T04:00:00,2337A,117.0258,25.0661,龙岩市,闽西职业技术学院,细颗粒物(PM2.5),93,72,62,69,52,118,38,56,50,32,22,18,11,0.7,0.7
2022-03-04T04:00:00,2338A,117.0196,25.0306,龙岩市,龙岩学院,细颗粒物(PM2.5),60,41,49,43,45,131,60,70,60,13,15,2,5,0.5,0.6
2022-03-04T04:00:00,2339A,119.5001,26.6946,宁德市,金涵水库(对照点),,40,40,55,27,37,101,28,36,30,17,27,6,6,0.9,1
2022-03-04T04:00:00,2341A,119.5388,26.6612,宁德市,宁德市监测站,颗粒物(PM10),66,81,72,40,51,111,20,30,27,50,38,7,8,0.8,1
2022-03-04T04:00:00,2342A,117.3102,29.3867,景德镇市,王港中学(对照点),,20,14,47,14,26,125,37,48,44,3,6,7,8,0.4,0.5
2022-03-04T04:00:00,2343A,117.2117,29.2933,景德镇市,老干部活动中心,,,25,66,31,35,126,66,70,67,,24,3,4,0.8,0.9
2022-03-04T04:00:00,2344A,117.1894,29.2789,景德镇市,兽医站,,29,29,61,16,33,127,70,65,65,12,24,5,5,0.4,0.4
2022-03-04T04:00:00,2345A,117.1547,29.2617,景德镇市,台达陶瓷,,33,33,75,16,35,114,65,62,62,15,36,7,15,0.4,0.6
2022-03-04T04:00:00,2346A,117.2461,29.2956,景德镇市,陶研所,,44,44,67,17,27,113,48,60,55,9,19,4,5,0.5,0.6
2022-03-04T04:00:00,2347A,114.0997,27.5002,萍乡市,武功山(对照点),,43,43,50,30,33,85,12,33,22,12,15,13,15,1.0,0.9
2022-03-04T04:00:00,2348A,113.8385,27.6434,萍乡市,中医院,细颗粒物(PM2.5),92,86,107,68,62,106,19,49,34,33,42,15,18,1.3,1.2
2022-03-04T04:00:00,2349A,113.8493,27.6253,萍乡市,市政府车库,细颗粒物(PM2.5),92,120,130,68,67,95,18,34,26,29,40,12,22,1.2,1.8
2022-03-04T04:00:00,2351A,113.866,27.6198,萍乡市,安源区政府,细颗粒物(PM2.5),84,85,102,62,61,96,23,30,27,27,37,16,29,0.9,1.6
2022-03-04T04:00:00,2352A,115.0861,27.9317,新余市,北岗(对照点),细颗粒物(PM2.5),58,58,86,41,52,91,31,41,35,16,23,5,16,0.6,0.6
2022-03-04T04:00:00,2353A,114.9886,27.8431,新余市,飞宇,细颗粒物(PM2.5),73,83,99,53,50,114,21,23,18,52,54,47,28,1.4,0.8
2022-03-04T04:00:00,2354A,114.9231,27.8246,新余市,第二水厂,颗粒物(PM10),72,94,122,44,51,106,32,43,28,26,38,8,19,0.7,0.7
2022-03-04T04:00:00,2355A,114.9308,27.8036,新余市,市气象局,细颗粒物(PM2.5),70,85,100,51,54,102,7,34,17,49,49,10,17,1.1,0.8
2022-03-04T04:00:00,2357A,116.9822,28.1136,鹰潭市,龙虎山(对照点),细颗粒物(PM2.5),52,34,58,36,37,143,86,82,82,8,13,1,4,0.5,0.5
2022-03-04T04:00:00,2358A,117.0564,28.2642,鹰潭市,新监测站,细颗粒物(PM2.5),52,40,70,36,48,142,83,82,82,10,29,3,20,0.4,0.7
2022-03-04T04:00:00,2359A,117.0311,28.2475,鹰潭市,财苑宾馆,,45,42,77,31,49,136,72,70,70,10,31,4,20,0.6,1
2022-03-04T04:00:00,2360A,117.0222,28.2264,鹰潭市,体育馆,细颗粒物(PM2.5),52,40,78,36,51,138,73,72,72,11,33,1,16,0.5,0.6
2022-03-04T04:00:00,2361A,117.0017,28.2131,鹰潭市,三川水表,细颗粒物(PM2.5),52,40,81,36,48,134,73,64,64,6,31,5,14,0.5,0.8
2022-03-04T04:00:00,2362A,114.9017,25.9149,赣州市,通天岩(对照点),细颗粒物(PM2.5),64,65,67,46,42,165,82,80,80,21,28,7,7,1.2,1.2
2022-03-04T04:00:00,2363A,114.9367,25.8664,赣州市,地委,颗粒物(PM10),51,52,76,35,48,195,85,92,90,16,29,5,6,0.8,1.1
2022-03-04T04:00:00,2364A,114.9461,25.8481,赣州市,气象台,颗粒物(PM10),53,55,64,28,39,219,102,113,110,13,25,7,8,0.8,0.9
2022-03-04T04:00:00,2365A,114.9322,25.8333,赣州市,市图书馆,,48,48,71,33,41,210,93,105,102,17,33,4,16,1.4,1.4
2022-03-04T04:00:00,2366A,114.8905,25.8471,赣州市,华坚鞋城,细颗粒物(PM2.5),54,51,80,38,44,207,92,90,90,18,29,21,19,1.0,1
2022-03-04T04:00:00,2367A,114.9754,27.0803,吉安市,红声器材厂,颗粒物(PM10),68,85,79,45,37,113,54,39,39,26,31,12,10,0.6,0.5
2022-03-04T04:00:00,2368A,114.9658,27.0999,吉安市,市森林工业局,细颗粒物(PM2.5),74,85,77,54,43,102,43,44,43,31,31,8,8,0.7,0.7
2022-03-04T04:00:00,2369A,114.99,27.1312,吉安市,市环境监测站,颗粒物(PM10),75,100,86,52,40,107,56,39,39,26,32,14,14,0.9,0.8
2022-03-04T04:00:00,2370A,115.0093,27.0968,吉安市,青原区法院,细颗粒物(PM2.5),74,89,79,54,44,112,58,34,34,22,33,15,16,0.7,0.7
