timepoint,stationcode,longitude,latitude,area,positionname,primarypollutant,aqi,pm10,pm10_24h,pm2_5,pm2_5_24h,o3,o3_24h,o3_8h,o3_8h_24h,no2,no2_24h,so2,so2_24h,co,co_24h
2025-09-11T0000,2566A,102.1879,31.914,阿坝藏族羌族自治州,州农科所,,12,,15,8,6,17,,42,29,9,6,3,2,0.2,0.2
2025-09-11T0000,2568A,102.2502,31.8896,阿坝藏族羌族自治州,马师校,,18,18,18,7,8,2,,34,18,10,6,8,8,0.6,0.6
2025-09-11T0000,3994A,102.2165,31.9024,阿坝藏族羌族自治州,马尔康中学西区,,28,24,21,19,11,8,,40,22,6,5,9,9,0.5,0.5
2025-09-11T0000,2695A,80.292,41.1694,阿克苏地区,电视台,颗粒物(PM10),97,143,160,46,49,42,,111,86,30,15,4,5,1.0,0.8
2025-09-11T0000,2696A,80.2613,41.1551,阿克苏地区,艺术中心,颗粒物(PM10),103,156,163,64,53,4,,112,76,73,21,4,4,1.1,0.5
2025-09-11T0000,2204A,105.6467,38.8363,阿拉善盟,西城区西花园,,38,,38,26,18,53,,103,61,12,12,10,10,0.9,0.9
2025-09-11T0000,2205A,105.6985,38.8411,阿拉善盟,蒙二幼,,30,29,42,16,15,96,,116,104,3,6,8,8,0.3,0.3
2025-09-11T0000,2206A,105.724,38.8516,阿拉善盟,环保局新楼,,33,32,36,15,15,105,,114,,4,5,8,8,0.4,0.4
2025-09-11T0000,2708A,88.1264,47.8517,阿勒泰地区,市站,,40,40,16,3,6,35,,76,57,9,12,3,3,0.6,0.6
2025-09-11T0000,2630A,80.1161,32.5,阿里地区,阿里监测站,,20,6,3,3,3,61,,113,108,25,12,6,6,0.4,0.3
2025-09-11T0000,3192A,80.0903,32.5028,阿里地区,阿里藏医院,,,,11,,3,,,104,,,5,,6,,0.1
2025-09-11T0000,2642A,109.0318,32.6537,安康市,香溪洞,,21,18,25,7,6,66,,64,64,7,8,7,7,0.5,0.5
2025-09-11T0000,2644A,109.0072,32.6975,安康市,汉滨区检察院,,35,35,32,17,12,30,,52,48,13,9,3,5,0.6,0.6
2025-09-11T0000,4054A,109.0325,32.6913,安康市,市邮政管理局,,23,23,31,11,8,48,,54,54,11,11,4,6,0.6,0.6
2025-09-11T0000,2291A,117.0809,30.5177,安庆市,环科院,,15,15,16,3,8,37,,81,59,9,7,6,7,0.6,0.8
2025-09-11T0000,2292A,117.0331,30.5119,安庆市,马山宾馆,,11,11,13,3,7,29,,74,52,14,10,4,5,0.8,0.9
2025-09-11T0000,2294A,116.9896,30.6145,安庆市,安庆大学,,18,18,16,7,8,38,,81,56,8,10,4,4,0.5,0.6
2025-09-11T0000,3173A,117.0598,30.5351,安庆市,市人大,,12,12,13,3,8,31,,82,55,16,12,5,6,0.5,0.6
2025-09-11T0000,3122A,105.9606,26.2611,安顺市,伍家关,,,,16,7,11,65,,70,57,3,5,6,8,0.5,0.5
2025-09-11T0000,3123A,105.9408,26.2431,安顺市,凤凰山,,21,13,19,3,13,66,,75,58,5,6,7,9,0.4,0.5
2025-09-11T0000,3124A,105.9439,26.2564,安顺市,金钟山,,21,13,17,6,12,65,,74,58,3,4,6,7,0.5,0.6
2025-09-11T0000,3125A,105.8983,26.2481,安顺市,娄家坡,,21,11,16,3,12,67,,71,57,1,4,5,8,0.5,0.5
2025-09-11T0000,1818A,114.4839,36.0621,安阳市,棉研所,,,,,,,,,,,,,,,,
2025-09-11T0000,1819A,114.3551,36.1017,安阳市,红庙街,,34,34,37,12,13,72,,111,93,17,13,5,7,0.4,0.4
2025-09-11T0000,1820A,114.361,36.0681,安阳市,银杏小区,,44,44,37,18,20,77,,116,95,18,16,7,8,0.5,0.6
2025-09-11T0000,3141A,114.3922,36.0878,安阳市,信访局,,34,34,39,14,21,88,,118,102,10,11,5,6,0.6,0.6
2025-09-11T0000,3669A,114.4705,36.0637,安阳市,左辅环卫站,颗粒物(PM10),65,80,38,32,19,61,,121,89,22,17,5,5,0.7,0.7
2025-09-11T0000,3703A,114.2917,36.0949,安阳市,安钢职工学校,,39,39,34,18,18,78,,111,91,10,11,6,10,0.5,0.5
2025-09-11T0000,1748A,123.044,41.1196,鞍山市,深沟寺,,34,34,38,17,17,46,,144,93,14,13,6,8,0.9,1.1
2025-09-11T0000,1749A,123.011,41.0931,鞍山市,太阳城,,34,34,32,18,18,87,,153,107,10,14,6,8,0.7,0.8
2025-09-11T0000,1750A,123.0485,41.1442,鞍山市,太平,,45,45,43,20,19,76,,140,95,13,24,8,12,0.9,1.3
2025-09-11T0000,1751A,122.9642,41.0971,鞍山市,铁西三道街,颗粒物(PM10),59,67,44,32,23,49,,140,93,37,24,6,8,1.0,1
2025-09-11T0000,1753A,123.022,41.0821,鞍山市,明达新区,,34,34,32,17,16,66,,132,92,12,15,7,9,0.8,0.8
2025-09-11T0000,1754A,123.1289,41.0228,鞍山市,千山,,,,28,,19,,,138,72,,8,,5,,0.6
2025-09-11T0000,4201A,122.9446,41.0826,鞍山市,兴盛南路290号,颗粒物(PM10),57,63,43,23,20,28,,143,80,57,31,8,10,0.9,1.1
2025-09-11T0000,2195A,107.4212,40.761,巴彦淖尔市,附二中,颗粒物(PM10),61,72,64,27,24,125,,124,117,23,20,13,15,0.7,0.6
2025-09-11T0000,2196A,107.37,40.7372,巴彦淖尔市,市环保大楼,颗粒物(PM10),54,58,63,33,24,105,,117,109,20,22,13,11,0.7,0.6
2025-09-11T0000,1956A,86.1472,41.7538,巴音郭楞蒙古自治州,孔雀公园,颗粒物(PM10),52,53,64,22,24,97,,98,94,7,8,5,5,0.3,0.3
2025-09-11T0000,1957A,86.1972,41.7166,巴音郭楞蒙古自治州,棉纺厂,颗粒物(PM10),52,53,70,13,13,91,,104,96,9,6,4,5,0.2,0.2
2025-09-11T0000,1958A,86.2357,41.7173,巴音郭楞蒙古自治州,经济开发区,颗粒物(PM10),65,80,63,6,12,98,,102,98,2,3,4,5,0.2,0.2
2025-09-11T0000,2914A,106.7677,31.8794,巴中市,苏山坪,,14,14,15,8,9,33,,54,49,3,3,2,3,0.6,0.5
2025-09-11T0000,3181A,106.7768,31.8526,巴中市,市五中,,20,20,21,10,11,10,,52,35,12,9,6,6,0.6,0.6
2025-09-11T0000,3183A,106.7418,31.8654,巴中市,圣泉水务公司,,29,,18,20,12,18,,58,42,10,9,6,6,0.6,0.6
2025-09-11T0000,3616A,106.7616,31.8344,巴中市,市中心医院,,21,21,21,10,10,5,,53,32,21,13,7,7,0.6,0.6
2025-09-11T0000,2235A,122.7911,45.6077,白城市,洮北区环保局,,22,22,26,8,9,39,,57,46,7,8,2,5,0.3,0.3
2025-09-11T0000,2236A,122.8738,45.5725,白城市,市环保局,,10,9,17,3,8,21,,58,25,20,16,5,4,0.4,0.4
2025-09-11T0000,2231A,126.4219,41.9171,白山市,喜丰,颗粒物(PM10),51,51,44,14,14,19,,91,40,12,15,8,7,0.6,0.7
2025-09-11T0000,2232A,126.4077,41.9419,白山市,环保局,,25,21,28,17,18,12,,95,38,8,13,6,7,0.5,0.6
2025-09-11T0000,2647A,104.1724,36.5446,白银市,第三小学,,39,39,52,13,24,45,,103,66,14,25,18,14,0.5,0.6
2025-09-11T0000,2648A,104.1465,36.5482,白银市,动力公司,,33,33,67,11,26,48,,103,69,11,20,13,9,0.5,0.7
2025-09-11T0000,2512A,106.6103,23.9011,百色市,市监测站,,41,41,35,23,18,16,,78,54,20,13,6,8,0.7,0.7
2025-09-11T0000,2513A,106.6538,23.8859,百色市,市中心血站,,48,48,39,31,25,11,,80,57,34,20,9,8,1.0,0.9
2025-09-11T0000,3406A,106.6085,23.8798,百色市,祈福高中,颗粒物(PM10),52,54,41,33,26,2,,66,39,27,18,4,7,0.8,0.8
2025-09-11T0000,2270A,117.396,32.939,蚌埠市,工人疗养院,,39,39,28,14,7,71,,99,82,14,9,5,5,0.3,0.4
2025-09-11T0000,2271A,117.3605,32.9427,蚌埠市,百货大楼,,25,25,24,10,8,62,,92,78,22,14,7,6,0.5,0.5
2025-09-11T0000,2273A,117.4185,32.8911,蚌埠市,蚌埠学院,,25,22,22,13,10,79,,95,85,10,20,6,7,0.3,0.3
2025-09-11T0000,2274A,117.3533,32.9673,蚌埠市,淮上区政府,,27,27,26,11,10,80,,102,87,10,11,6,6,0.5,0.4
2025-09-11T0000,2275A,117.3145,32.8977,蚌埠市,高新区,,26,22,18,11,8,83,,93,90,10,12,6,7,0.4,0.4
2025-09-11T0000,3715A,117.3092,32.9314,蚌埠市,蚌埠田家炳中学,,29,29,22,12,9,71,,97,84,18,12,8,6,0.3,0.4
2025-09-11T0000,1585A,109.8756,40.6532,包头市,市环境监测站,,46,46,57,13,23,73,,133,102,20,31,8,16,0.6,0.7
2025-09-11T0000,1587A,109.9991,40.5842,包头市,包头八中,颗粒物(PM10),54,58,62,14,24,81,,138,111,17,29,6,15,0.5,0.7
2025-09-11T0000,1588A,109.8538,40.6821,包头市,青山宾馆,,45,45,58,23,27,57,,139,102,19,40,5,10,0.9,0.9
2025-09-11T0000,1589A,109.8642,40.6288,包头市,惠龙物流,颗粒物(PM10),53,55,54,14,20,84,,140,111,13,25,8,14,0.6,0.6
2025-09-11T0000,1590A,110.0377,40.5546,包头市,东河鸿龙湾,颗粒物(PM10),51,52,57,12,24,92,,145,114,12,30,7,22,0.9,1.1
2025-09-11T0000,3283A,109.9154,40.5685,包头市,滨河大厦,,41,41,49,16,20,98,,148,116,13,23,4,13,0.4,0.6
2025-09-11T0000,3419A,109.9447,40.6261,包头市,包头市委党校,,32,32,53,16,21,87,,144,114,14,28,6,20,0.5,0.9
2025-09-11T0000,3683A,109.8331,40.6576,包头市,昆区政府,,45,45,55,14,23,97,,154,123,14,27,7,15,0.7,0.8
2025-09-11T0000,1930A,107.185,34.3063,宝鸡市,庙沟村,,29,,45,20,21,56,,74,70,14,15,4,5,0.6,0.6
2025-09-11T0000,1931A,107.0708,34.3017,宝鸡市,竹园沟,,36,26,39,25,28,12,,65,43,15,14,7,8,0.5,0.4
2025-09-11T0000,1932A,107.1906,34.3672,宝鸡市,三陆医院,,42,40,51,29,34,72,,88,82,10,24,5,6,0.8,0.7
2025-09-11T0000,1933A,107.1431,34.3547,宝鸡市,监测站,,43,33,47,30,32,69,,84,80,12,16,4,4,0.7,0.7
2025-09-11T0000,1934A,107.1186,34.3739,宝鸡市,技工学校,,43,32,50,30,28,69,,84,79,12,15,6,6,0.6,0.5
2025-09-11T0000,1936A,107.2058,34.3497,宝鸡市,文理学院,,48,39,47,33,32,69,,90,84,13,16,7,7,0.7,0.6
2025-09-11T0000,1937A,107.2386,34.3622,宝鸡市,三迪小学,细颗粒物(PM2.5),60,,48,43,38,72,,84,80,13,20,5,6,0.7,0.6
2025-09-11T0000,4308A,107.3898,34.3601,宝鸡市,陈仓区北开路21号,,36,36,40,20,23,72,,84,78,7,17,5,6,0.5,0.5
2025-09-11T0000,1051A,115.493,38.8632,保定市,游泳馆,,46,46,49,24,22,91,,185,158,20,14,2,4,0.3,0.3
2025-09-11T0000,1052A,115.5213,38.8959,保定市,华电二区,,44,44,51,29,22,102,,172,141,12,13,1,3,0.1,0.2
2025-09-11T0000,1053A,115.4713,38.9108,保定市,接待中心,颗粒物(PM10),52,53,45,17,22,79,,158,131,15,10,3,4,0.4,0.5
2025-09-11T0000,1054A,115.4612,38.8416,保定市,地表水厂,颗粒物(PM10),60,70,66,14,16,64,,165,130,30,19,6,6,0.3,0.3
2025-09-11T0000,3581A,115.31981,38.95208,保定市,满城区生态环境分局,颗粒物(PM10),65,80,64,41,25,74,,168,128,29,19,1,2,0.4,0.3
2025-09-11T0000,3582A,115.47694,38.76408,保定市,清苑区第二中学,颗粒物(PM10),67,83,76,23,24,85,,161,124,17,16,2,3,0.4,0.4
2025-09-11T0000,3583A,115.62909,39.02311,保定市,徐水物探局,颗粒物(PM10),71,91,62,50,30,32,,164,113,62,21,4,5,0.5,0.4
2025-09-11T0000,4004A,115.4202,38.8656,保定市,双鹰农机,颗粒物(PM10),54,58,56,24,23,63,,170,135,33,13,4,4,0.3,0.3
2025-09-11T0000,4034A,115.5150,38.8590,保定市,植保所站,颗粒物(PM10),53,55,62,25,26,96,,172,137,22,21,6,5,0.5,0.5
2025-09-11T0000,2594A,99.1678,25.1081,保山市,市环境监测站,,32,,20,22,22,17,,50,30,6,10,8,8,0.5,0.4
2025-09-11T0000,2595A,99.1711,25.1328,保山市,市环保局,,19,19,22,13,10,27,,56,42,3,6,6,7,0.4,0.5
2025-09-11T0000,1866A,109.2262,21.588,北海市,牛尾岭水库,,12,11,9,8,3,17,,44,30,9,4,8,4,0.6,0.5
2025-09-11T0000,1867A,109.1436,21.4086,北海市,海滩公园,,21,21,23,3,2,37,,61,53,6,5,4,3,0.5,0.5
2025-09-11T0000,1868A,109.0981,21.4661,北海市,新市环保局,,11,10,13,7,8,35,,54,47,7,7,3,4,0.5,0.5
2025-09-11T0000,1869A,109.1778,21.5233,北海市,北海工业园,,19,19,16,7,6,36,,55,40,7,7,3,3,0.4,0.4
2025-09-11T0000,3400A,109.1911,21.4415,北海市,龙潭自来水厂,,17,17,13,10,6,33,,57,46,7,5,4,4,0.5,0.4
2025-09-11T0000,1001A,116.3621,39.8784,北京市,万寿西宫,颗粒物(PM10),55,60,43,37,26,102,,139,129,17,18,3,3,0.8,0.7
2025-09-11T0000,1002A,116.2202,40.2915,北京市,定陵,,46,46,30,30,19,76,,126,81,3,3,4,4,0.5,0.4
2025-09-11T0000,1003A,116.4174,39.9289,北京市,东四,颗粒物(PM10),57,63,44,36,25,108,,142,134,20,22,4,3,0.6,0.5
2025-09-11T0000,1004A,116.4072,39.8863,北京市,天坛,,50,50,39,30,23,43,,120,95,15,19,3,4,0.7,0.5
2025-09-11T0000,1005A,116.462,39.9365,北京市,农展馆,颗粒物(PM10),55,59,41,37,22,68,,118,101,30,23,3,2,0.6,0.5
2025-09-11T0000,1006A,116.3392,39.9295,北京市,官园,颗粒物(PM10),54,58,46,36,27,104,,139,129,21,19,4,3,0.6,0.5
2025-09-11T0000,1007A,116.2878,39.9611,北京市,海淀万柳,颗粒物(PM10),56,62,46,38,27,16,,115,75,50,24,4,3,0.8,0.5
2025-09-11T0000,1008A,116.6636,40.135,北京市,顺义新城,,,,,,,,,,,,,,,,
2025-09-11T0000,1009A,116.6275,40.3275,北京市,怀柔镇,,48,48,32,31,18,57,,110,81,9,12,1,1,0.7,0.6
2025-09-11T0000,1010A,116.2296,40.217,北京市,昌平镇,颗粒物(PM10),52,53,35,33,22,100,,117,103,14,20,4,4,0.7,0.6
2025-09-11T0000,1011A,116.3966,39.9821,北京市,奥体中心,颗粒物(PM10),53,56,39,33,23,79,,118,108,24,22,4,4,0.6,0.4
2025-09-11T0000,3281A,115.9718,40.4529,北京市,延庆夏都,颗粒物(PM10),54,58,40,37,23,88,,114,108,11,9,2,2,0.5,0.5
2025-09-11T0000,3418A,116.8336,40.4095,北京市,密云新城,,46,46,26,29,15,44,,102,55,5,5,2,3,0.5,0.4
2025-09-11T0000,3671A,116.088,39.9726,北京市,门头沟三家店,颗粒物(PM10),54,58,44,34,28,3,,109,36,29,23,3,3,0.7,0.7
2025-09-11T0000,3672A,116.1541,39.8204,北京市,丰台云岗,细颗粒物(PM2.5),72,80,49,52,29,78,,116,95,20,19,2,1,0.7,0.5
2025-09-11T0000,3673A,116.6804,39.9081,北京市,通州东关,颗粒物(PM10),70,89,48,48,22,70,,126,104,22,17,3,3,0.6,0.5
2025-09-11T0000,3674A,115.9577,39.7603,北京市,房山燕山,颗粒物(PM10),55,59,48,37,25,70,,120,96,8,15,2,1,0.5,0.5
2025-09-11T0000,3675A,116.4672,39.7733,北京市,大兴旧宫,颗粒物(PM10),59,67,43,37,22,73,,121,104,19,21,3,3,0.7,0.5
2025-09-11T0000,3694A,115.986,40.4563,北京市,延庆石河营,颗粒物(PM10),55,59,42,38,22,75,,108,98,7,5,1,1,0.4,0.4
2025-09-11T0000,3695A,116.6151,40.3053,北京市,怀柔新城,,39,39,28,27,16,56,,101,73,5,7,4,4,0.6,0.5
2025-09-11T0000,3696A,116.2545,39.8768,北京市,丰台小屯,颗粒物(PM10),59,68,48,41,27,14,,112,86,48,21,1,1,0.8,0.6
2025-09-11T0000,3697A,116.84,40.3844,北京市,密云镇,,50,50,31,30,16,48,,111,71,16,15,3,3,0.5,0.5
2025-09-11T0000,4182A,116.1942,39.9158,北京市,八角北路9号,颗粒物(PM10),64,77,51,41,27,29,,133,89,37,28,3,4,0.8,0.6
2025-09-11T0000,4194A,117.0790,40.1518,北京市,洳河巡河路,颗粒物(PM10),59,68,34,41,18,125,,129,121,7,8,4,4,0.7,0.5
2025-09-11T0000,1761A,123.8275,41.3064,本溪市,大峪,颗粒物(PM10),58,65,50,24,22,20,,157,83,42,22,6,8,1.2,1.1
2025-09-11T0000,1762A,123.7567,41.3325,本溪市,溪湖,颗粒物(PM10),73,95,57,52,28,34,,168,90,28,20,5,9,1.6,1.4
2025-09-11T0000,1763A,123.7169,41.3094,本溪市,彩屯,,,54,42,,30,24,,154,63,30,27,5,8,1.1,1.1
2025-09-11T0000,1764A,123.7669,41.2864,本溪市,东明,颗粒物(PM10),60,69,51,30,25,37,,174,110,39,23,6,9,1.4,1.3
2025-09-11T0000,1765A,123.7992,41.2664,本溪市,新立屯,,40,40,39,18,20,52,,151,87,32,21,6,7,1.1,1
2025-09-11T0000,1766A,123.8142,41.3472,本溪市,威宁,颗粒物(PM10),53,56,57,25,20,26,,151,79,23,18,5,6,0.9,0.8
2025-09-11T0000,2587A,105.2864,27.3125,毕节市,八中,,35,,12,24,16,38,,76,53,8,7,6,6,0.5,0.5
2025-09-11T0000,2588A,105.31,27.2944,毕节市,师专,颗粒物(PM10),53,56,22,19,14,42,,78,54,9,8,8,8,0.6,0.6
2025-09-11T0000,4263A,105.3688,27.3598,毕节市,工业大道,,33,30,22,23,15,40,,72,52,10,9,8,7,0.7,0.7
2025-09-11T0000,1629A,118.0018,37.3617,滨州市,第二水厂,颗粒物(PM10),68,85,62,44,34,44,,207,142,50,21,9,8,0.7,0.6
2025-09-11T0000,1630A,117.9776,37.393,滨州市,北中新校,颗粒物(PM10),62,73,53,39,30,57,,213,140,46,25,8,8,0.7,0.5
2025-09-11T0000,3514A,117.9378,37.3956,滨州市,中海酒店,颗粒物(PM10),59,68,55,39,30,72,,211,147,28,18,5,6,0.8,0.7
2025-09-11T0000,3515A,117.9378,37.3553,滨州市,开发区一中,颗粒物(PM10),73,95,71,51,32,65,,220,155,35,22,8,8,0.8,0.8
2025-09-11T0000,3516A,118.0917,37.694,滨州市,金海六路,细颗粒物(PM2.5),70,80,57,51,26,96,,225,177,25,16,6,6,0.4,0.3
2025-09-11T0000,4028A,117.9956,37.3753,滨州市,滨州市西街道办事处,"颗粒物(PM10),细颗粒物(PM2.5)",67,83,56,48,32,46,,215,145,43,19,7,6,0.7,0.5
2025-09-11T0000,2311A,115.8072,33.8399,亳州市,污水处理厂,,38,27,20,26,16,63,,111,79,11,11,14,15,0.3,0.3
2025-09-11T0000,2312A,115.7789,33.8518,亳州市,三国揽胜宫,,34,34,28,23,16,71,,115,89,10,9,14,11,0.5,0.4
2025-09-11T0000,3332A,115.7633,33.8034,亳州市,亳州学院,,25,25,18,7,9,72,,115,93,10,9,8,8,0.4,0.4
2025-09-11T0000,2693A,82.0485,44.8556,博尔塔拉蒙古自治州,市党校,,,55,37,,16,34,,85,73,40,15,3,4,0.3,0.3
2025-09-11T0000,2694A,82.0806,44.8969,博尔塔拉蒙古自治州,市环保局,颗粒物(PM10),61,72,44,20,13,38,,88,72,39,16,8,8,0.6,0.4
2025-09-11T0000,1071A,116.8842,38.2991,沧州市,沧县城建局,颗粒物(PM10),51,52,44,28,17,98,,149,132,27,16,5,5,0.6,0.4
2025-09-11T0000,1072A,116.8584,38.3254,沧州市,电视转播站,颗粒物(PM10),56,62,48,34,24,84,,146,126,23,15,2,4,0.5,0.4
2025-09-11T0000,1073A,116.8709,38.3228,沧州市,市环保局,颗粒物(PM10),60,69,49,35,25,91,,150,132,22,13,6,7,0.5,0.4
2025-09-11T0000,3324A,116.8136,38.3004,沧州市,河北水利电力学院,颗粒物(PM10),57,63,47,32,22,109,,155,138,28,15,7,7,0.5,0.3
2025-09-11T0000,2622A,97.1806,31.1273,昌都市,昌都监测站,,18,7,11,3,4,56,,61,60,3,5,4,4,0.1,0.2
2025-09-11T0000,3719A,97.1714,31.1406,昌都市,昌都会议中心,,,,,,,,,,,,,,,,
2025-09-11T0000,2690A,88.1236,43.8886,昌吉回族自治州,天山天池,,15,14,14,6,4,45,,66,60,7,9,6,6,0.4,0.4
2025-09-11T0000,2692A,87.2717,44.0297,昌吉回族自治州,新区政务中心,,44,44,50,10,14,45,,105,81,26,19,7,7,0.3,0.3
2025-09-11T0000,3613A,87.3095,44.0142,昌吉回族自治州,亚心广场,,48,48,69,14,24,53,,108,82,31,25,7,8,0.5,0.4
2025-09-11T0000,1120A,125.2863,43.9027,长春市,客车厂,颗粒物(PM10),61,71,38,29,16,3,,80,21,64,36,5,5,0.5,0.5
2025-09-11T0000,1121A,125.2841,43.8463,长春市,邮电学院,,48,48,27,24,13,3,,86,42,54,23,5,5,0.8,0.4
2025-09-11T0000,1122A,125.3716,43.8772,长春市,劳动公园,细颗粒物(PM2.5),68,79,40,49,17,0,,87,39,67,29,9,8,0.5,0.3
2025-09-11T0000,1123A,125.3297,43.8805,长春市,园林处,细颗粒物(PM2.5),82,,26,60,17,9,,83,49,53,25,5,5,0.8,0.5
2025-09-11T0000,1124A,125.4605,43.79,长春市,净月潭,,16,16,13,9,7,28,,81,54,9,8,4,4,0.3,0.3
2025-09-11T0000,1125A,125.7194,43.515,长春市,甩湾子,,,,,,,,,,,,,,,,
2025-09-11T0000,1126A,125.3863,43.8447,长春市,经开区环卫处,颗粒物(PM10),79,107,38,27,13,0,,84,30,51,29,5,4,0.8,0.5
2025-09-11T0000,1127A,125.245,43.7783,长春市,高新区管委会,,38,38,25,23,14,6,,89,38,47,24,4,4,0.5,0.4
2025-09-11T0000,1128A,125.1761,43.8325,长春市,岱山公园,颗粒物(PM10),69,88,36,38,16,1,,82,28,84,40,5,4,0.7,0.4
2025-09-11T0000,4281A,125.3346,43.9164,长春市,北亚泰大街1068号,,49,38,35,34,16,4,,80,28,57,33,8,8,0.5,0.4
2025-09-11T0000,1335A,113.0833,28.2325,长沙市,经开区环保局,,32,29,33,22,18,61,,97,74,12,13,4,4,0.4,0.5
2025-09-11T0000,1336A,112.8872,28.2189,长沙市,高开区环保局,,41,41,52,22,22,34,,82,63,17,12,4,4,0.4,0.4
2025-09-11T0000,1337A,113.0792,28.2053,长沙市,马坡岭,,29,29,34,16,20,70,,108,85,11,11,4,5,0.5,0.5
2025-09-11T0000,1338A,112.9394,28.19,长沙市,湖南师范大学,,34,34,41,22,22,48,,98,70,15,11,3,4,0.8,0.8
2025-09-11T0000,1339A,113.0178,28.1322,长沙市,雨花区环保局,,31,31,35,15,18,56,,98,76,18,11,6,6,0.6,0.6
2025-09-11T0000,1340A,112.9792,28.2597,长沙市,伍家岭,,39,39,41,21,18,45,,95,64,15,11,2,2,0.4,0.4
2025-09-11T0000,1341A,113.0014,28.1944,长沙市,火车新站,,35,35,38,19,19,54,,94,75,15,10,6,6,0.6,0.6
2025-09-11T0000,1342A,112.9844,28.1178,长沙市,天心区环保局,,30,30,38,17,21,60,,99,81,17,15,4,4,0.3,0.4
2025-09-11T0000,1343A,112.8908,28.1308,长沙市,湖南中医药大学,,40,35,43,28,27,26,,91,59,18,9,4,4,0.3,0.3
2025-09-11T0000,1344A,112.9581,28.3611,长沙市,沙坪,颗粒物(PM10),52,54,46,25,21,32,,96,61,19,12,4,3,0.6,0.5
2025-09-11T0000,1727A,113.1147,36.1547,长治市,清华站,,33,33,36,19,18,38,,86,57,25,19,12,9,1.0,0.7
2025-09-11T0000,1730A,113.0886,36.2125,长治市,审计局,,20,17,30,14,19,53,,92,63,15,17,6,6,0.8,0.8
2025-09-11T0000,1731A,113.0844,36.1856,长治市,长治八中,,36,35,40,25,24,44,,86,59,18,14,9,8,1.0,0.8
2025-09-11T0000,2845A,113.1569,36.1911,长治市,德盛苑,,29,29,33,17,17,29,,90,54,12,11,7,7,1.0,0.9
2025-09-11T0000,3568A,113.06,36.0464,长治市,向阳小学,,49,49,62,27,26,28,,84,53,20,16,4,5,1.0,0.8
2025-09-11T0000,3569A,112.8792,36.3144,长治市,屯留一中,,25,20,37,17,26,69,,94,75,3,16,8,9,0.4,1.3
2025-09-11T0000,4189A,113.1131,36.19948,长治市,英华南巷50号,,,30,39,,30,31,,88,57,32,18,8,9,0.9,0.9
2025-09-11T0000,4190A,113.2367,36.3344,长治市,学府街1号,,40,40,49,24,30,76,,126,99,12,18,2,5,0.6,0.9
2025-09-11T0000,1854A,111.6975,28.9703,常德市,市二中,,22,22,20,14,14,65,,65,64,6,8,4,4,0.5,0.5
2025-09-11T0000,1857A,111.7158,29.1456,常德市,白鹤山,,,,,,,,,,,,,,,,
2025-09-11T0000,3138A,111.7153,29.0289,常德市,武陵区永安,,20,17,21,13,14,61,,67,67,5,6,4,4,0.7,0.8
2025-09-11T0000,3139A,111.6892,28.9881,常德市,鼎城区玉霞,,22,17,20,11,15,68,,68,68,5,6,4,5,0.6,0.6
2025-09-11T0000,3140A,111.6625,29.0531,常德市,武陵区长庚,,19,18,22,13,14,59,,74,72,7,7,5,5,0.8,0.6
2025-09-11T0000,1196A,119.9633,31.762,常州市,市监测站,,34,34,28,22,17,75,,136,112,19,18,14,14,0.5,0.6
2025-09-11T0000,1200A,119.9468,31.7069,常州市,武进监测站,,37,37,31,12,14,88,,111,101,13,21,11,12,0.4,0.8
2025-09-11T0000,1201A,119.9255,31.9087,常州市,安家,,39,39,30,13,15,75,,127,102,20,21,11,12,0.9,1
2025-09-11T0000,3002A,119.9805,31.8174,常州市,行政中心,,36,36,36,13,14,87,,138,118,17,19,2,3,0.6,0.7
2025-09-11T0000,3003A,120.0522,31.7748,常州市,经开区,,37,37,39,11,16,84,,139,118,21,26,4,6,0.7,0.9
2025-09-11T0000,3010A,119.9025,31.7964,常州市,钟楼,,32,32,30,14,13,84,,126,108,17,19,8,8,0.5,0.6
2025-09-11T0000,3429A,119.8598,31.7066,常州市,武进经发区,,40,40,43,15,15,91,,117,100,11,19,9,10,0.5,0.8
2025-09-11T0000,3430A,119.5826,31.7245,常州市,金坛城区,,30,30,28,16,16,82,,119,97,19,20,8,9,0.5,0.6
2025-09-11T0000,2220A,120.4318,41.5881,朝阳市,西梁,,40,40,32,23,18,34,,120,71,30,19,9,5,0.6,0.6
2025-09-11T0000,2221A,120.4521,41.5646,朝阳市,河畔小区,,35,35,26,18,14,45,,119,82,27,12,11,8,0.7,0.7
2025-09-11T0000,2222A,120.4176,41.5648,朝阳市,八里堡,,31,31,33,21,16,43,,128,68,26,20,12,8,0.7,0.8
2025-09-11T0000,2223A,120.3806,41.5969,朝阳市,农业园区,,35,35,32,18,18,32,,120,62,18,16,5,5,0.5,0.5
2025-09-11T0000,1705A,116.6367,23.6719,潮州市,西园路,,11,11,26,3,12,22,,77,44,5,8,2,4,0.3,0.4
2025-09-11T0000,3026A,116.6183,23.6608,潮州市,市政府,,10,10,24,7,9,28,,78,45,5,9,6,9,0.5,0.6
2025-09-11T0000,4036A,116.6461,23.6761,潮州市,金山,,8,8,23,3,5,20,,86,42,4,7,4,6,0.4,0.6
2025-09-11T0000,2472A,113.0073,25.9061,郴州市,马头岭,,15,13,14,8,7,46,,50,49,8,9,5,6,0.2,0.4
2025-09-11T0000,2473A,113.0116,25.8226,郴州市,市职中,,18,14,12,12,7,44,,64,48,10,8,3,3,0.6,0.5
2025-09-11T0000,2475A,113.0383,25.8071,郴州市,市审计局,,13,13,11,8,6,33,,61,41,10,8,5,5,0.4,0.4
2025-09-11T0000,2476A,113.0348,25.7759,郴州市,市环保局,,16,16,13,10,5,37,,60,45,11,7,4,4,0.3,0.3
2025-09-11T0000,4252A,113.0138,25.8011,郴州市,好美居路49号,,15,11,12,3,6,48,,65,50,8,7,4,5,0.3,0.3
2025-09-11T0000,1431A,103.9728,30.7236,成都市,金泉两河,,20,20,27,3,15,64,,77,63,12,15,2,3,0.5,0.5
2025-09-11T0000,1432A,104.176,30.6872,成都市,十里店,,36,36,39,24,20,73,,95,88,16,19,2,3,0.6,0.6
2025-09-11T0000,1433A,104.079,30.5706,成都市,三瓦窑,,45,,35,31,23,83,,99,87,18,25,2,3,0.6,0.6
2025-09-11T0000,1434A,104.1114,30.63,成都市,沙河铺,,49,49,39,26,20,76,,83,81,4,11,1,2,0.8,0.7
2025-09-11T0000,1437A,104.0786,30.6531,成都市,君平街,,38,38,41,23,19,87,,104,94,12,15,1,2,0.6,0.7
2025-09-11T0000,1438A,103.613,31.0283,成都市,灵岩寺,,,,,,,,,,,,,,,,
2025-09-11T0000,2880A,104.0239,30.65639,成都市,大石西路,,35,35,37,23,24,63,,86,73,22,20,3,2,0.6,0.7
2025-09-11T0000,3136A,104.2725,30.5589,成都市,龙泉驿区区政府,,44,44,35,29,19,62,,91,72,22,20,5,5,0.7,0.7
2025-09-11T0000,3357A,104.0106,30.6931,成都市,金博路,,18,12,24,7,14,57,,85,68,14,17,6,6,0.5,0.6
2025-09-11T0000,3359A,104.0578,30.5225,成都市,华阳,,42,34,38,29,26,55,,102,84,22,23,1,2,0.8,0.7
2025-09-11T0000,3488A,104.3853,30.7453,成都市,青白江技师分院,细颗粒物(PM2.5),54,49,46,38,31,47,,82,66,23,25,4,5,0.7,0.6
2025-09-11T0000,3489A,104.0789,30.4072,成都市,科学城,细颗粒物(PM2.5),55,56,37,39,24,43,,92,70,28,19,4,4,0.8,0.7
2025-09-11T0000,4011A,103.8506,30.6947,成都市,光华大道三段,,29,29,30,18,17,45,,86,56,21,14,2,2,0.6,0.6
2025-09-11T0000,4224A,104.2433,30.5353,成都市,鲸龙路1057号,细颗粒物(PM2.5),64,66,49,46,32,62,,93,82,24,25,4,4,0.7,0.6
2025-09-11T0000,1062A,117.9531,40.9081,承德市,铁路,颗粒物(PM10),52,53,29,22,12,37,,96,79,16,14,1,2,0.5,0.3
2025-09-11T0000,1063A,117.9392,40.9763,承德市,中国银行,,40,40,26,24,10,6,,79,37,16,11,3,1,0.5,0.4
2025-09-11T0000,1064A,117.9503,40.928,承德市,开发区,颗粒物(PM10),61,71,32,26,16,30,,103,80,21,14,3,3,0.6,0.4
2025-09-11T0000,1066A,117.9268,41.0026,承德市,离宫,,42,42,21,12,8,11,,79,30,8,7,4,4,0.3,0.3
2025-09-11T0000,4274A,117.7994,40.9605,承德市,滨河大街98号,,32,28,22,22,13,22,,98,54,4,6,3,3,0.3,0.3
2025-09-11T0000,2314A,117.47,30.6618,池州市,池州学院,,12,10,13,3,8,36,,65,49,7,9,5,6,0.6,0.6
2025-09-11T0000,3237A,117.4918,30.6617,池州市,展览馆,,12,7,11,3,5,36,,66,49,8,9,4,4,0.5,0.6
2025-09-11T0000,3333A,117.5627,30.695,池州市,第八中学,,11,11,14,3,7,35,,62,48,7,7,5,5,0.7,0.7
2025-09-11T0000,3334A,117.5038,30.6243,池州市,第十二中学,,12,12,13,3,8,28,,63,40,12,10,4,4,1.0,0.8
2025-09-11T0000,1744A,118.9233,42.2816,赤峰市,松山一中,,38,38,27,22,9,74,,105,98,17,22,10,12,0.6,0.6
2025-09-11T0000,1745A,118.9576,42.2728,赤峰市,哈达街,,40,40,27,18,13,82,,106,102,22,23,15,20,0.6,0.6
2025-09-11T0000,1746A,118.8788,42.2554,赤峰市,天义路,,36,,13,25,14,72,,110,98,13,15,8,9,0.5,0.5
2025-09-11T0000,3058A,119.2658,42.0353,赤峰市,银河街,,44,44,38,29,20,64,,90,71,9,10,25,14,0.8,0.7
2025-09-11T0000,3286A,118.9359,42.3147,赤峰市,桥北物流园区,,47,47,29,15,14,61,,99,70,20,20,10,12,0.8,0.6
2025-09-11T0000,2521A,107.3476,22.4136,崇左市,市环保局江州分局,,24,24,19,7,9,18,,74,42,18,9,8,9,0.7,0.7
2025-09-11T0000,4256A,107.3750,22.3736,崇左市,石景林东路7号,,15,15,16,8,9,14,,72,42,20,10,4,5,0.4,0.4
2025-09-11T0000,2298A,118.3093,32.3153,滁州市,老年大学,,48,48,33,25,18,57,,120,89,15,8,6,6,0.4,0.3
2025-09-11T0000,2299A,118.3244,32.2786,滁州市,人大宾馆,,,37,23,36,19,,,124,103,22,14,5,5,0.5,0.4
2025-09-11T0000,3207A,118.3118,32.3038,滁州市,市政府原办公楼,,50,36,28,35,26,58,,120,90,23,13,7,7,0.5,0.4
2025-09-11T0000,3331A,118.3267,32.2634,滁州市,图书馆,,42,31,21,29,14,54,,118,97,18,11,10,11,0.5,0.4
2025-09-11T0000,2605A,101.5482,25.0441,楚雄彝族自治州,州环境监测站,,12,,10,8,8,36,,43,39,3,2,7,7,0.6,0.5
2025-09-11T0000,2606A,101.538,25.0492,楚雄彝族自治州,市经济开发区,,19,19,13,12,9,38,,45,40,7,7,7,6,0.7,0.6
2025-09-11T0000,2548A,107.5277,31.2827,达州市,达州职业技术学院,,35,35,27,3,3,4,,33,18,10,10,7,7,0.4,0.4
2025-09-11T0000,2549A,107.5086,31.2186,达州市,市环境监测站,,23,23,24,3,1,1,,52,26,26,20,9,7,0.4,0.5
2025-09-11T0000,2550A,107.4988,31.2132,达州市,凤凰小区,,13,12,13,9,6,2,,56,30,26,18,9,7,0.5,0.5
2025-09-11T0000,2551A,107.5082,31.1986,达州市,达县机关宾馆,,22,22,17,3,4,4,,52,24,28,20,10,5,0.4,0.4
2025-09-11T0000,2552A,107.4644,31.2124,达州市,市政中心,,28,28,26,3,2,7,,57,35,21,15,6,4,0.3,0.3
2025-09-11T0000,2614A,100.1542,25.7054,大理白族自治州,大理市环境监测站,,20,,11,14,16,36,,48,42,11,7,4,4,0.6,0.6
2025-09-11T0000,2615A,100.2171,25.5811,大理白族自治州,大理古城,,20,,16,14,10,31,,62,42,7,8,6,6,0.7,0.8
2025-09-11T0000,1109A,121.612,38.9741,大连市,甘井子,细颗粒物(PM2.5),64,67,45,46,26,129,,169,152,28,23,8,8,0.7,0.6
2025-09-11T0000,1110A,121.565,38.9511,大连市,周水子,细颗粒物(PM2.5),60,55,45,43,27,118,,159,145,14,22,8,9,0.6,0.5
2025-09-11T0000,1111A,121.5637,38.8845,大连市,星海三站,细颗粒物(PM2.5),75,68,47,55,31,109,,190,174,24,18,6,6,0.6,0.4
2025-09-11T0000,1112A,121.6302,38.9117,大连市,青泥洼桥,,50,44,42,35,24,116,,170,153,15,14,9,9,0.6,0.6
2025-09-11T0000,1113A,121.6251,38.8638,大连市,傅家庄,,40,30,37,16,25,128,,191,180,11,11,9,11,0.6,0.6
2025-09-11T0000,1114A,121.5213,38.8661,大连市,七贤岭,,50,50,39,35,19,62,,175,122,11,12,5,5,0.6,0.6
2025-09-11T0000,1115A,121.2529,38.8061,大连市,旅顺,,42,36,37,29,25,98,,171,135,35,16,8,8,0.5,0.4
2025-09-11T0000,1116A,121.7485,39.1311,大连市,金州,颗粒物(PM10),64,77,44,42,24,153,,165,136,12,17,10,9,0.4,0.3
2025-09-11T0000,1117A,121.7811,39.0496,大连市,开发区,细颗粒物(PM2.5),55,49,45,39,26,133,,176,165,16,22,7,7,0.5,0.4
2025-09-11T0000,1118A,121.9762,39.0631,大连市,双D港,,39,37,31,27,19,107,,168,132,7,9,10,11,0.5,0.5
2025-09-11T0000,1789A,124.81117,46.03138,大庆市,大同区,,46,46,13,11,6,0,,44,27,33,11,8,8,0.8,0.6
2025-09-11T0000,1790A,125.129,46.533,大庆市,龙凤区,,40,40,28,18,10,2,,49,23,39,22,6,6,0.8,0.7
2025-09-11T0000,1791A,124.902,46.408,大庆市,红岗区,,36,36,27,11,11,1,,52,24,28,15,5,5,0.6,0.5
2025-09-11T0000,1792A,125.153,46.586,大庆市,萨尔图区,,32,32,25,7,9,10,,42,23,34,20,8,8,0.7,0.6
2025-09-11T0000,1793A,124.9042,46.6215,大庆市,让胡路区,,26,26,20,13,11,5,,50,21,29,13,6,6,0.4,0.3
2025-09-11T0000,3481A,125.141,46.634,大庆市,萨区政府监测点,,24,24,21,3,4,19,,52,35,24,13,7,8,0.4,0.3
2025-09-11T0000,1721A,113.3819,40.1097,大同市,果树场,颗粒物(PM10),54,57,49,24,19,67,,120,76,21,26,4,6,0.5,0.4
2025-09-11T0000,1723A,113.2994,40.0758,大同市,云冈宾馆,颗粒物(PM10),72,93,64,27,19,36,,134,84,49,28,7,8,0.9,1
2025-09-11T0000,1724A,113.3444,40.0917,大同市,大同大学,颗粒物(PM10),58,66,54,30,20,73,,133,91,25,28,8,11,0.7,0.6
2025-09-11T0000,1725A,113.2661,40.1269,大同市,安家小村,颗粒物(PM10),66,82,65,28,20,70,,134,98,33,26,8,8,0.7,1.1
2025-09-11T0000,1726A,113.2711,40.0844,大同市,教育学院,颗粒物(PM10),77,104,70,34,28,18,,132,80,73,34,9,12,0.8,1.4
2025-09-11T0000,3282A,113.3397,40.0597,大同市,大同市卫生学校,颗粒物(PM10),71,91,57,32,21,26,,127,80,64,31,9,11,0.8,0.6
2025-09-11T0000,3565A,113.1367,40.1122,大同市,云冈站,颗粒物(PM10),63,75,64,34,22,42,,129,98,23,13,7,8,0.7,0.6
2025-09-11T0000,3566A,113.1186,40.2556,大同市,图书馆,颗粒物(PM10),64,78,53,24,19,21,,125,73,31,14,5,7,0.8,0.7
2025-09-11T0000,3567A,113.5931,40.0461,大同市,区一中,颗粒物(PM10),51,51,56,26,20,67,,140,89,12,15,2,7,0.5,0.5
2025-09-11T0000,4199A,113.2798,40.0997,大同市,魏都大道141号,颗粒物(PM10),67,84,68,36,23,30,,134,83,58,30,6,7,0.7,1.3
2025-09-11T0000,2269A,124.1069,50.4097,大兴安岭地区,科技局,,,20,17,16,9,3,,33,13,,3,7,4,0.2,0.2
2025-09-11T0000,3663A,124.1164,50.4278,大兴安岭地区,红旗社区,,17,17,8,3,3,0,,34,13,4,4,4,4,0.3,0.3
2025-09-11T0000,1600A,124.3303,40.0625,丹东市,江湾东路,,48,48,38,25,20,37,,100,68,14,12,6,10,0.9,0.8
2025-09-11T0000,1601A,124.4256,40.1503,丹东市,临江后街,颗粒物(PM10),62,74,47,30,18,27,,109,60,18,15,8,8,1.0,0.8
2025-09-11T0000,1602A,124.3933,40.1461,丹东市,元宝山,颗粒物(PM10),51,51,31,23,14,39,,97,66,17,12,6,7,1.0,0.8
2025-09-11T0000,1603A,124.3633,40.1092,丹东市,民主桥,,41,41,38,25,20,14,,100,56,29,19,6,8,0.7,0.7
2025-09-11T0000,3541A,109.5726,19.5167,儋州市,第一中学子站,,20,20,14,6,5,14,,29,18,4,5,6,7,0.6,0.5
2025-09-11T0000,3542A,109.5567,19.5187,儋州市,东坡学校子站,,15,15,14,6,5,14,,35,19,5,5,7,8,0.5,0.5
2025-09-11T0000,2616A,98.5842,24.428,德宏傣族景颇族自治州,德宏州监测站,,26,26,31,16,18,36,,74,51,9,10,15,15,0.5,0.5
2025-09-11T0000,3677A,98.5881,24.4368,德宏傣族景颇族自治州,芒市人民政府综合楼,,,,29,,13,,,60,,,10,,18,,0.5
2025-09-11T0000,1901A,104.4239,31.1208,德阳市,东山公园,,18,13,25,11,20,56,,98,84,16,14,4,6,0.7,0.7
2025-09-11T0000,1902A,104.3826,31.1317,德阳市,西小区,,22,,38,14,20,69,,90,86,8,20,3,3,0.6,0.7
2025-09-11T0000,1904A,104.3553,31.1091,德阳市,耐火材料厂,,23,19,48,16,25,61,,91,82,9,24,3,5,0.7,0.8
2025-09-11T0000,3639A,104.4019,31.1244,德阳市,市教育局,,26,26,40,13,21,69,,97,89,7,16,2,3,0.6,0.7
2025-09-11T0000,1622A,116.3032,37.4674,德州市,儿童乐园,颗粒物(PM10),58,66,46,39,23,122,,159,142,26,14,10,10,0.7,0.6
2025-09-11T0000,1624A,116.2991,37.4451,德州市,监理站,颗粒物(PM10),58,66,46,36,23,113,,160,137,36,19,14,14,0.6,0.5
2025-09-11T0000,3066A,116.2721,37.4379,德州市,九衢泉纯净水厂,颗粒物(PM10),63,75,53,41,25,51,,143,99,71,25,8,7,0.7,0.6
2025-09-11T0000,3371A,116.3728,37.4403,德州市,开发区人民医院,颗粒物(PM10),58,66,47,36,22,113,,147,120,20,16,10,10,1.1,1
2025-09-11T0000,3511A,116.5652,37.3319,德州市,陵城艺术中心,颗粒物(PM10),57,63,49,31,21,114,,189,161,30,21,14,13,0.8,0.7
2025-09-11T0000,4292A,116.3525,37.4209,德州市,新河东路,颗粒物(PM10),62,73,50,39,23,91,,148,109,33,23,10,9,0.9,0.8
2025-09-11T0000,2621A,99.7056,27.8317,迪庆藏族自治州,迪庆州站,,15,10,13,10,10,38,,49,42,4,5,7,7,0.3,0.4
2025-09-11T0000,3180A,99.7136,27.8094,迪庆藏族自治州,质量技术监督局,,18,12,14,12,10,39,,47,41,6,7,6,7,0.5,0.5
2025-09-11T0000,4257A,104.6092,35.5962,定西市,将台街,,35,35,28,20,15,51,,81,62,14,12,7,7,0.2,0.3
2025-09-11T0000,4309A,104.6159,35.5701,定西市,正龙路62号,,38,,33,26,19,43,,74,54,11,7,5,5,0.2,0.2
2025-09-11T0000,1389A,113.7547,23.0494,东莞市,莞城梨川,,29,23,19,20,21,12,,65,19,39,24,9,7,0.2,0.1
2025-09-11T0000,1390A,113.7944,23.0128,东莞市,东城石井,,43,43,28,23,12,4,,65,17,39,19,6,5,0.7,0.5
2025-09-11T0000,1391A,113.7383,22.9658,东莞市,南城西平,,31,31,21,16,10,8,,59,22,49,26,4,4,0.6,0.4
2025-09-11T0000,3319A,113.7338,23.0381,东莞市,万江金泰,,22,21,16,15,9,11,,58,19,37,23,6,3,0.8,0.7
2025-09-11T0000,3626A,113.7533,23.0202,东莞市,南城元岭,颗粒物(PM10),51,51,20,27,12,9,,64,25,43,23,7,4,0.6,0.4
2025-09-11T0000,3627A,113.7875,23.0457,东莞市,东城主山,,46,46,30,32,15,9,,71,26,45,29,10,9,0.6,0.5
2025-09-11T0000,1666A,118.6614,37.4309,东营市,市环保局,颗粒物(PM10),51,51,57,22,21,93,,195,154,22,20,21,10,0.5,0.4
2025-09-11T0000,3036A,118.6904,37.4338,东营市,开发区管委会,颗粒物(PM10),54,57,59,14,22,105,,201,162,22,21,12,10,0.4,0.5
2025-09-11T0000,3365A,118.5719,37.565,东营市,垦利区民丰路,,48,48,57,17,22,103,,190,156,18,17,7,3,0.8,0.7
2025-09-11T0000,3498A,118.5055,37.8612,东营市,河口城区,颗粒物(PM10),52,53,45,22,14,123,,195,174,13,12,5,6,0.8,0.8
2025-09-11T0000,3646A,118.4978,37.4623,东营市,胜利站,颗粒物(PM10),58,65,62,22,22,89,,187,151,29,25,7,7,0.7,0.6
2025-09-11T0000,3734A,118.35,37.26,东营市,理想之城,,48,48,52,22,24,76,,194,148,37,26,6,7,0.5,0.6
2025-09-11T0000,1591A,110.0023,39.8129,鄂尔多斯市,综合楼,,39,39,52,9,15,75,,134,109,21,19,3,3,0.8,0.9
2025-09-11T0000,1592A,109.9486,39.8261,鄂尔多斯市,巴音孟克林场办事处,,39,39,62,12,17,89,,139,112,12,16,5,7,0.4,0.5
2025-09-11T0000,1593A,109.7736,39.5986,鄂尔多斯市,康泽苑,,36,36,45,7,14,81,,123,100,10,16,7,7,0.4,0.4
2025-09-11T0000,1594A,109.8119,39.5989,鄂尔多斯市,华泰汽车城,,29,29,44,17,18,77,,120,98,15,21,5,6,0.5,0.5
2025-09-11T0000,1595A,109.9734,39.7884,鄂尔多斯市,奥林花园,,48,48,62,14,19,68,,130,101,24,19,6,8,0.6,0.6
2025-09-11T0000,2436A,114.8938,30.3994,鄂州市,市政府,,19,19,18,3,3,44,,66,60,14,12,6,6,0.5,0.5
2025-09-11T0000,2437A,114.8989,30.3714,鄂州市,赵家坝,,21,21,26,3,3,38,,68,59,11,8,10,10,0.4,0.5
2025-09-11T0000,3654A,114.8094,30.4089,鄂州市,精准医疗中心,,22,22,25,11,9,42,,63,56,19,17,5,7,0.7,0.8
2025-09-11T0000,2454A,109.4978,30.2981,恩施土家族苗族自治州,湖北民院,,14,14,17,6,10,23,,58,42,11,9,6,7,0.5,0.5
2025-09-11T0000,2455A,109.4707,30.2798,恩施土家族苗族自治州,州电力总公司,,13,13,14,7,11,11,,51,34,16,9,5,5,0.5,0.5
2025-09-11T0000,3549A,109.5061,30.3772,恩施土家族苗族自治州,龙凤新区,,10,10,18,3,8,26,,56,37,3,5,6,6,0.5,0.5
2025-09-11T0000,2499A,108.3411,21.6158,防城港市,沙万,,35,35,24,7,8,34,,47,31,19,17,4,4,0.5,0.5
2025-09-11T0000,2500A,108.3514,21.7731,防城港市,防城档案局,,22,15,21,15,10,22,,44,38,10,9,2,2,0.5,0.5
2025-09-11T0000,2501A,108.3506,21.6414,防城港市,大海花园,,23,23,18,11,5,35,,50,35,10,9,8,7,0.6,0.5
2025-09-11T0000,1371A,113.1294,23.0067,佛山市,湾梁,,20,19,17,10,9,2,,55,3,39,28,6,6,0.7,0.6
2025-09-11T0000,1372A,113.1083,23.0478,佛山市,华材职中,,19,19,15,11,10,9,,56,7,29,19,4,4,0.5,0.4
2025-09-11T0000,1373A,113.144,23.0453,佛山市,南海气象局,,,22,23,11,13,2,,57,4,32,19,5,5,,0.7
2025-09-11T0000,1374A,113.2881,22.8094,佛山市,顺德苏岗,,21,21,24,3,7,0,,35,4,36,22,6,5,0.7,0.6
2025-09-11T0000,1376A,112.8383,22.8678,佛山市,高明孔堂,,23,23,16,7,7,5,,46,,20,9,2,2,0.5,0.2
2025-09-11T0000,1377A,112.8836,23.1588,佛山市,三水监测站,,27,27,19,16,10,0,,47,4,39,20,6,5,0.7,0.5
2025-09-11T0000,1378A,112.867,23.185,佛山市,三水云东海,,43,43,29,16,12,0,,51,2,25,21,2,2,0.8,0.7
2025-09-11T0000,3625A,113.2544,22.7642,佛山市,容桂街道办,,22,12,12,12,10,2,,52,9,44,25,6,6,0.8,0.7
2025-09-11T0000,1280A,119.3903,26.0543,福州市,鼓山,,,,23,,13,,,113,79,,10,,2,,0.3
2025-09-11T0000,1282A,119.2681,26.0504,福州市,师大,,15,6,29,3,12,48,,121,68,8,12,4,6,0.3,0.3
2025-09-11T0000,1283A,119.2984,26.1028,福州市,五四北路,,13,8,26,3,14,41,,111,59,13,15,3,4,0.2,0.3
2025-09-11T0000,1284A,119.2648,26.0768,福州市,杨桥西路,,15,6,26,3,12,46,,116,63,6,8,3,4,0.2,0.3
2025-09-11T0000,1285A,119.317,26.0746,福州市,紫阳,,15,6,34,3,14,45,,106,65,9,14,4,4,0.3,0.3
2025-09-11T0000,3048A,119.5799,26.0936,福州市,九龙,,12,12,23,3,9,34,,126,91,13,7,3,4,0.2,0.3
2025-09-11T0000,3526A,119.5189,25.9664,福州市,吴航,,13,13,26,8,14,39,,124,85,16,9,3,5,0.3,0.4
2025-09-11T0000,1755A,123.7977,41.8491,抚顺市,望花区,颗粒物(PM10),62,73,47,24,25,27,,146,81,41,25,9,11,0.9,1.1
2025-09-11T0000,1756A,123.9161,41.8822,抚顺市,顺城区,,39,39,37,15,18,52,,156,75,24,25,5,7,0.8,0.9
2025-09-11T0000,1757A,124.0436,41.8611,抚顺市,东洲区,,29,21,32,20,20,33,,148,83,16,10,4,5,0.4,0.3
2025-09-11T0000,1758A,123.9247,41.8642,抚顺市,新抚区,,41,41,41,21,20,33,,146,65,24,21,6,7,1.0,1.1
2025-09-11T0000,1759A,124.0972,41.8961,抚顺市,大伙房水库,,35,35,30,21,18,37,,144,86,28,16,8,9,0.8,0.7
2025-09-11T0000,1760A,123.7086,41.8391,抚顺市,沈抚新城,颗粒物(PM10),57,63,39,31,23,27,,160,93,43,24,7,8,1.1,0.9
2025-09-11T0000,2376A,116.2127,28.0814,抚州市,桐源党溪,,28,28,20,13,9,15,,70,47,7,3,5,5,0.6,0.5
2025-09-11T0000,2377A,116.3544,27.9831,抚州市,市站,,31,31,17,14,7,56,,82,70,8,4,6,5,0.8,0.7
2025-09-11T0000,2378A,116.3565,27.963,抚州市,血防站,,31,31,21,15,8,55,,83,70,8,5,5,4,0.6,0.5
2025-09-11T0000,2379A,116.3564,28.0007,抚州市,采茶剧团,,31,31,20,21,8,51,,76,64,3,2,8,5,0.6,0.5
2025-09-11T0000,2380A,116.385,27.9647,抚州市,医学分院,,28,28,21,17,7,53,,83,70,10,4,5,4,0.6,0.5
2025-09-11T0000,2207A,121.6094,41.998,阜新市,工业园区,颗粒物(PM10),53,56,35,30,19,4,,139,83,73,21,11,14,2.1,0.6
2025-09-11T0000,2208A,121.6697,42.0279,阜新市,长青街,颗粒物(PM10),54,58,26,27,17,37,,133,79,38,16,12,12,1.4,0.6
2025-09-11T0000,2209A,121.6673,42.0705,阜新市,农业园区,,50,50,26,14,9,76,,134,96,14,9,17,10,0.8,0.7
2025-09-11T0000,2210A,121.6717,42.0224,阜新市,东苑,颗粒物(PM10),65,79,36,26,15,42,,134,81,41,19,21,16,2.1,0.7
2025-09-11T0000,2211A,121.6506,42.0498,阜新市,玉龙新城,,41,41,32,22,15,39,,138,78,42,22,15,13,2.3,0.7
2025-09-11T0000,2301A,115.8277,32.8929,阜阳市,市监测站,,27,27,31,10,17,66,,95,75,10,13,4,5,0.3,0.3
2025-09-11T0000,2303A,115.8554,32.8605,阜阳市,开发区,,21,18,25,9,13,67,,100,72,9,12,6,8,0.3,0.4
2025-09-11T0000,2875A,115.784,32.8892,阜阳市,阜阳职业技术学院,,29,29,29,3,7,70,,99,81,8,11,6,7,0.4,0.4
2025-09-11T0000,3468A,115.7901,32.8613,阜阳市,市规划展馆,,26,26,34,12,16,72,,111,86,11,14,4,5,0.4,0.4
2025-09-11T0000,3469A,115.836,32.9183,阜阳市,枣园社区,,30,30,31,12,16,72,,98,76,10,13,5,5,0.4,0.4
2025-09-11T0000,2669A,102.9099,34.9841,甘南藏族自治州,州政府,,36,36,30,20,15,59,,80,65,12,14,6,6,0.3,0.3
2025-09-11T0000,3380A,102.8914,34.9617,甘南藏族自治州,甘肃民族师范学院,颗粒物(PM10),67,84,37,20,13,58,,97,81,16,15,4,4,0.3,0.2
2025-09-11T0000,2570A,101.9603,30.0475,甘孜藏族自治州,水桥子,,11,11,6,3,5,28,,58,41,21,16,6,6,0.5,0.5
2025-09-11T0000,3065A,101.9533,29.9972,甘孜藏族自治州,州环保局,,14,14,9,3,4,24,,65,41,26,14,4,4,0.6,0.6
2025-09-11T0000,3414A,115.8347,28.932,赣江新区,桑海产业园,,,17,12,13,8,,,81,,24,11,5,6,0.3,0.5
2025-09-11T0000,2362A,114.9017,25.9149,赣州市,通天岩,,20,20,15,10,6,41,,58,48,4,3,16,14,0.6,0.8
2025-09-11T0000,2363A,114.9367,25.8664,赣州市,地委,,25,25,16,11,7,55,,72,58,6,7,5,5,0.4,0.4
2025-09-11T0000,2364A,114.9461,25.8481,赣州市,气象台,,16,16,16,3,5,51,,67,54,4,4,6,6,0.4,0.4
2025-09-11T0000,2365A,114.9322,25.8333,赣州市,市图书馆,,29,,10,20,9,47,,60,49,6,6,5,4,0.5,0.6
2025-09-11T0000,2366A,114.8905,25.8471,赣州市,华坚鞋城,,22,22,17,9,6,44,,63,49,7,8,5,5,0.5,0.4
2025-09-11T0000,3109A,115.0093,25.8613,赣州市,赣县区卫计委,,15,,14,9,10,45,,61,47,4,5,6,6,0.4,0.4
2025-09-11T0000,2683A,106.2319,36.1417,固原市,马园,,,,,,,,,,,,,,,,
2025-09-11T0000,2684A,106.2792,36.0022,固原市,监测站,,23,,27,16,13,55,,84,69,8,7,7,7,0.2,0.2
2025-09-11T0000,2685A,106.2375,36.0211,固原市,新区,,29,21,26,20,18,42,,76,61,11,8,8,8,0.4,0.4
2025-09-11T0000,3522A,106.2177,35.9959,固原市,原州区十五小,,,22,29,17,17,39,,75,58,,7,10,9,0.4,0.4
2025-09-11T0000,2543A,106.6308,30.5278,广安市,小平旧居,,,,,,,,,,,,,,,,
2025-09-11T0000,2544A,106.6303,30.4576,广安市,市委,,,,32,12,27,,,106,,5,11,8,5,0.4,0.5
2025-09-11T0000,2545A,106.6271,30.4663,广安市,友谊中学,,,19,26,12,16,162,,154,154,,11,4,4,1.0,1
2025-09-11T0000,2547A,106.6388,30.4551,广安市,广电花园,,23,12,31,7,15,71,,76,63,6,11,4,4,0.6,0.7
2025-09-11T0000,2902A,106.6351,30.4865,广安市,北辰小学,,19,13,26,11,15,59,,83,70,5,9,6,5,0.6,0.6
2025-09-11T0000,2523A,105.8945,32.4535,广元市,黑石坡,,21,21,21,12,9,7,,30,22,15,12,8,9,0.3,0.3
2025-09-11T0000,2524A,105.821,32.4444,广元市,老城,,14,14,13,7,6,29,,47,34,19,19,5,5,0.6,0.7
2025-09-11T0000,2526A,105.8628,32.4287,广元市,监测站,,12,11,12,8,8,26,,41,35,18,18,7,7,0.7,0.7
2025-09-11T0000,3617A,105.8047,32.4166,广元市,经开区,,16,16,24,6,8,23,,41,33,17,21,5,5,0.6,0.7
2025-09-11T0000,1345A,113.2347,23.1423,广州市,广雅中学,,25,25,22,17,12,1,,63,7,48,22,3,3,0.5,0.4
2025-09-11T0000,1346A,113.2612,23.105,广州市,市五中,,27,22,20,13,10,1,,73,12,54,24,6,4,0.4,0.3
2025-09-11T0000,1348A,113.3478,23.0916,广州市,广东商学院,,37,37,21,20,11,11,,63,15,45,22,7,3,0.5,0.2
2025-09-11T0000,1349A,113.4332,23.1047,广州市,市八十六中,,26,24,17,18,9,5,,46,8,48,36,4,4,0.8,0.4
2025-09-11T0000,1350A,113.3505,22.9483,广州市,番禺中学,,23,16,16,8,8,4,,59,15,45,22,5,4,0.7,0.7
2025-09-11T0000,1351A,113.2146,23.3916,广州市,花都师范,,31,31,25,14,12,6,,68,10,39,29,5,5,0.6,0.6
2025-09-11T0000,1352A,113.2597,23.1331,广州市,市监测站,,25,25,21,12,9,0,,61,10,47,21,6,5,0.4,0.4
2025-09-11T0000,1353A,113.5618,23.312,广州市,九龙镇镇龙,,12,12,21,6,11,22,,82,25,15,19,7,7,0.4,0.4
2025-09-11T0000,1354A,113.2765,23.1544,广州市,麓湖,,29,29,19,16,10,0,,60,4,37,20,3,3,0.5,0.3
2025-09-11T0000,1355A,113.443,23.3035,广州市,帽峰山森林公园,,12,12,12,6,6,14,,76,25,16,16,4,5,0.6,0.6
2025-09-11T0000,2846A,113.3221,23.1322,广州市,体育西,,28,28,23,19,13,1,,61,8,54,23,7,4,0.7,0.6
2025-09-11T0000,3298A,113.5717,23.5491,广州市,从化街口,,18,18,21,10,13,7,,85,31,20,12,7,8,0.6,0.6
2025-09-11T0000,3299A,113.3472,23.3692,广州市,白云竹料,,16,16,22,8,10,14,,60,20,26,25,4,4,0.4,0.4
2025-09-11T0000,3300A,113.2981,23.237,广州市,白云嘉禾,,26,26,21,15,10,0,,61,7,44,24,5,3,0.5,0.3
2025-09-11T0000,3301A,113.4256,23.1716,广州市,黄埔科学城,,24,24,22,10,10,1,,54,8,31,23,5,6,0.6,0.7
2025-09-11T0000,3302A,113.3942,23.0483,广州市,番禺大学城,,32,28,16,22,10,2,,58,12,49,21,15,9,0.7,0.4
2025-09-11T0000,3303A,113.4922,22.8168,广州市,南沙黄阁,,,16,17,7,8,,,52,23,37,14,5,4,0.5,0.4
2025-09-11T0000,3304A,113.5342,22.7896,广州市,南沙街,,19,16,16,6,6,8,,54,25,37,13,5,4,0.5,0.4
2025-09-11T0000,3443A,113.2902,23.5544,广州市,花都梯面,,16,16,22,3,8,12,,63,15,14,18,5,5,0.5,0.6
2025-09-11T0000,3445A,113.7858,23.7478,广州市,从化良口,,11,11,17,3,7,11,,70,32,15,8,4,4,0.4,0.5
2025-09-11T0000,3446A,113.8051,23.2614,广州市,增城荔城,,9,8,19,3,10,27,,98,41,8,12,8,8,0.5,0.5
2025-09-11T0000,2505A,109.568,23.1478,贵港市,德智高中,,,,,,,,,,,,,,,,
2025-09-11T0000,2506A,109.6047,23.0666,贵港市,江南子站,颗粒物(PM10),60,70,25,18,15,9,,56,27,29,11,5,4,0.8,0.6
2025-09-11T0000,2508A,109.5669,23.1065,贵港市,荷城子站,颗粒物(PM10),51,51,17,22,8,10,,57,34,27,11,6,4,0.7,0.6
2025-09-11T0000,3405A,109.5886,23.1172,贵港市,新世纪学校,,36,36,23,13,13,15,,62,34,23,11,5,2,0.6,0.5
2025-09-11T0000,4260A,109.5933,23.0951,贵港市,中山路155-3号,颗粒物(PM10),52,54,27,15,14,9,,62,32,31,12,9,4,0.7,0.6
2025-09-11T0000,1439A,106.6899,26.5998,贵阳市,马鞍山,,17,17,13,9,9,49,,61,43,6,7,3,3,0.3,0.2
2025-09-11T0000,1441A,106.6243,26.6266,贵阳市,鉴湖路,,16,14,24,3,5,51,,61,50,6,9,7,6,0.4,0.4
2025-09-11T0000,1442A,106.7487,26.6343,贵阳市,燕子冲,,25,19,10,17,10,16,,65,43,18,11,6,3,0.5,0.4
2025-09-11T0000,1443A,106.6555,26.4365,贵阳市,碧云窝,,24,24,22,3,4,43,,60,48,8,8,6,4,0.3,0.3
2025-09-11T0000,1445A,106.7109,26.6027,贵阳市,红边门,,15,14,15,9,11,48,,65,,7,19,2,3,0.4,0.4
2025-09-11T0000,1446A,106.7164,26.5699,贵阳市,新华路,,22,22,13,3,3,44,,64,48,12,11,7,8,0.3,0.3
2025-09-11T0000,1447A,106.674,26.5424,贵阳市,太慈桥,,9,9,9,3,2,25,,42,29,11,11,4,3,0.2,0.1
2025-09-11T0000,1552A,106.805,26.3003,贵阳市,桐木岭,,23,23,22,12,11,65,,60,60,5,6,22,11,1.0,1
2025-09-11T0000,4230A,106.6882,26.5695,贵阳市,花果园大街66号,,14,,1,8,7,44,,62,48,7,8,3,3,0.2,0.2
2025-09-11T0000,4231A,106.6873,26.5169,贵阳市,漓江路57号,,17,17,11,3,4,40,,69,48,11,7,6,4,0.5,0.4
2025-09-11T0000,1862A,110.4144,25.3167,桂林市,电子科大尧山校区,,,,,,,,,,,,,,,,
2025-09-11T0000,1864A,110.3089,25.2708,桂林市,龙隐路小学,,22,22,19,11,8,23,,53,33,12,9,8,6,0.3,0.3
2025-09-11T0000,1865A,110.2869,25.2178,桂林市,八中,,28,28,20,8,4,13,,57,25,18,11,8,7,0.3,0.4
2025-09-11T0000,3531A,110.296,25.1253,桂林市,旅游学院,,24,24,11,7,6,2,,55,19,20,7,4,5,0.4,0.3
2025-09-11T0000,4222A,110.1835,25.2444,桂林市,环湖路276号,,29,29,19,12,10,15,,53,,17,9,13,11,0.4,0.3
2025-09-11T0000,4301A,110.2803,25.2773,桂林市,信义路13号,,30,30,20,18,11,10,,55,24,25,12,11,7,0.4,0.4
2025-09-11T0000,2674A,100.2561,34.4714,果洛藏族自治州,玛沁县大武镇,,30,30,36,13,17,87,,91,90,3,7,16,17,0.3,0.4
2025-09-11T0000,1129A,126.5422,45.755,哈尔滨市,岭北,,28,28,17,14,8,15,,72,46,37,16,8,8,0.2,0.3
2025-09-11T0000,1130A,126.561,45.8167,哈尔滨市,松北商大,,35,35,23,15,6,3,,52,20,38,19,6,6,0.4,0.3
2025-09-11T0000,1131A,126.979,45.5419,哈尔滨市,阿城会宁,,41,41,24,15,10,0,,61,20,30,16,7,8,0.7,0.7
2025-09-11T0000,1132A,126.599,45.7222,哈尔滨市,南岗学府路,,48,48,25,17,5,3,,54,30,47,19,8,8,0.5,0.3
2025-09-11T0000,1133A,126.689,45.7733,哈尔滨市,太平宏伟公园,,40,40,22,16,11,7,,57,31,44,18,9,8,0.6,0.5
2025-09-11T0000,1134A,126.635,45.7667,哈尔滨市,道外承德广场,,49,49,30,32,8,9,,48,29,36,20,7,7,0.7,0.6
2025-09-11T0000,1135A,126.685,45.7319,哈尔滨市,香坊红旗大街,,34,34,26,19,9,10,,56,33,46,27,8,7,0.7,0.5
2025-09-11T0000,1136A,126.6411,45.7258,哈尔滨市,动力和平路,,48,35,24,33,13,9,,57,33,49,23,6,6,0.6,0.4
2025-09-11T0000,1137A,126.593,45.7478,哈尔滨市,道里建国路,,28,27,24,12,8,7,,51,26,55,28,9,8,2.2,0.7
2025-09-11T0000,1138A,126.615,45.61,哈尔滨市,平房东轻厂,颗粒物(PM10),51,52,25,20,8,7,,54,14,44,25,10,9,0.7,0.4
2025-09-11T0000,1139A,126.595,45.9855,哈尔滨市,呼兰师专,,,47,30,,0,5,,57,26,43,17,8,7,0.8,0.7
2025-09-11T0000,1140A,126.6206,45.6842,哈尔滨市,省农科院,颗粒物(PM10),57,63,48,12,11,1,,42,16,60,27,9,7,0.7,0.6
2025-09-11T0000,2688A,93.5128,42.8172,哈密市,地区监测站,颗粒物(PM10),55,59,93,24,27,44,,103,74,49,14,4,6,0.4,0.2
2025-09-11T0000,2689A,93.4961,42.8328,哈密市,哈密师范学校,颗粒物(PM10),64,78,82,37,27,16,,103,65,73,18,4,5,0.6,0.2
2025-09-11T0000,2671A,100.9048,36.9639,海北藏族自治州,海晏县西海镇,颗粒物(PM10),52,54,44,28,28,102,,110,109,8,8,13,11,0.6,0.6
2025-09-11T0000,3867A,102.0738,36.5056,海东市,平安区公安北苑,,41,41,47,15,30,75,,125,98,14,10,13,14,0.5,0.8
2025-09-11T0000,1409A,110.576,19.9507,海口市,东寨港,,,,,,,,,,,,,,,,
2025-09-11T0000,1410A,110.3232,20.0574,海口市,海南大学,,,,15,,7,,,48,,,4,,3,,0.3
2025-09-11T0000,1411A,110.283,20.0053,海口市,秀英海南医院,,20,20,18,6,7,15,,45,11,15,13,6,6,0.3,0.3
2025-09-11T0000,1412A,110.338,19.9969,海口市,海南师范大学,,18,18,17,6,7,21,,45,20,8,8,4,4,0.4,0.4
2025-09-11T0000,1413A,110.33,20.0356,海口市,龙华路环保局宿舍,,15,15,15,8,7,25,,45,22,9,10,6,6,0.3,0.3
2025-09-11T0000,3539A,110.5111,19.9736,海口市,桂林洋子站,,20,20,19,10,10,17,,36,21,10,7,4,4,0.2,0.2
2025-09-11T0000,2673A,100.6188,36.2866,海南藏族自治州,共和县恰卜恰镇,,43,43,45,29,20,64,,108,76,6,13,16,11,0.4,0.5
2025-09-11T0000,2676A,97.3731,37.3753,海西蒙古族藏族自治州,德令哈市,,32,28,36,22,16,83,,108,98,2,3,4,9,0.5,0.4
2025-09-11T0000,1048A,114.5302,36.6116,邯郸市,东污水处理厂,,30,30,33,16,22,91,,126,107,9,9,5,7,0.3,0.3
2025-09-11T0000,1049A,114.4918,36.5713,邯郸市,矿院,,29,26,26,19,20,90,,131,110,10,8,4,5,0.3,0.3
2025-09-11T0000,1050A,114.484,36.6133,邯郸市,丛台公园,,29,20,25,14,14,91,,130,113,15,10,10,10,0.3,0.4
2025-09-11T0000,3458A,114.7895,36.5593,邯郸市,香泉濮院小区,颗粒物(PM10),59,68,42,19,11,94,,134,112,9,8,4,4,0.3,0.3
2025-09-11T0000,3579A,114.50634,36.77178,邯郸市,永年区实验高中,,32,32,35,13,17,82,,129,110,13,10,4,6,0.7,0.8
2025-09-11T0000,3580A,114.20016,36.44293,邯郸市,峰峰矿区临水派出所,,40,40,40,19,18,108,,137,112,11,12,6,8,0.4,0.4
2025-09-11T0000,2634A,106.9893,33.1842,汉中市,汉川机床厂子校,,15,9,19,3,9,46,,51,47,5,9,3,3,0.5,0.5
2025-09-11T0000,2635A,107.0154,33.0706,汉中市,市监测站,,15,7,18,3,7,45,,44,41,3,7,6,6,0.5,0.6
2025-09-11T0000,2636A,107.0089,33.1138,汉中市,鑫源开发区,,12,6,20,3,9,37,,41,38,4,10,6,6,0.4,0.5
2025-09-11T0000,2637A,107.007,33.0323,汉中市,南郑大河坎水厂,,11,8,21,7,9,35,,35,31,6,9,5,5,0.5,0.5
2025-09-11T0000,1223A,120.2072,30.2111,杭州市,滨江,,30,24,25,14,14,94,,94,88,19,22,8,7,0.5,0.5
2025-09-11T0000,1224A,120.0633,30.2747,杭州市,西溪,,19,19,17,12,14,47,,87,46,14,16,2,2,0.5,0.5
2025-09-11T0000,1226A,120.3417,30.3150,杭州市,下沙,,33,18,17,10,10,105,,110,109,10,16,6,6,0.3,0.4
2025-09-11T0000,1227A,120.1269,30.2456,杭州市,卧龙桥,,25,25,21,12,12,19,,88,35,11,10,8,8,0.6,0.6
2025-09-11T0000,1228A,120.1903,30.2692,杭州市,浙江农大,,31,31,25,18,17,61,,71,65,33,31,6,6,0.6,0.6
2025-09-11T0000,1230A,120.1197,30.3119,杭州市,和睦小学,,30,16,20,13,14,95,,106,79,10,17,6,5,0.5,0.6
2025-09-11T0000,1231A,120.3019,30.4183,杭州市,临平镇,,30,28,21,13,11,93,,115,106,14,18,6,6,0.4,0.5
2025-09-11T0000,1232A,120.2753,30.1839,杭州市,城厢镇,,28,28,24,13,17,88,,89,85,16,21,9,8,0.6,0.7
2025-09-11T0000,1233A,120.0883,30.1808,杭州市,云栖,,25,25,22,3,5,38,,99,61,18,16,5,7,0.7,0.8
2025-09-11T0000,3557A,119.9464,30.0494,杭州市,镇二中,,26,26,21,16,16,62,,95,75,24,19,5,4,0.7,0.8
2025-09-11T0000,3558A,119.7183,30.2367,杭州市,市府大楼,,25,20,14,17,12,53,,77,70,12,12,8,8,0.5,0.5
2025-09-11T0000,3656A,120.1556,30.2864,杭州市,消防大队,,24,24,21,11,13,76,,84,76,16,16,8,7,0.6,0.7
2025-09-11T0000,1270A,117.1959,31.7848,合肥市,明珠广场,,19,14,24,9,16,60,,90,71,16,19,7,8,0.6,0.7
2025-09-11T0000,1271A,117.3072,31.8764,合肥市,三里街,,22,22,24,12,12,51,,77,61,21,16,6,6,0.7,0.7
2025-09-11T0000,1272A,117.2588,31.8707,合肥市,琥珀山庄,,22,22,29,14,15,62,,91,72,17,15,8,9,0.7,0.7
2025-09-11T0000,1273A,117.1604,31.9052,合肥市,董铺水库,,19,19,27,7,13,60,,80,64,12,13,4,4,0.3,0.4
2025-09-11T0000,1274A,117.25,31.8571,合肥市,长江中路,,29,29,29,6,12,66,,89,72,14,14,7,7,0.6,0.7
2025-09-11T0000,1275A,117.266,31.9436,合肥市,庐阳区,,22,22,29,12,12,65,,92,66,19,20,6,6,0.6,0.6
2025-09-11T0000,1276A,117.3453,31.8616,合肥市,瑶海区,,22,22,30,10,10,54,,85,63,22,20,7,8,0.7,0.7
2025-09-11T0000,1277A,117.3027,31.7964,合肥市,包河区,,23,17,30,9,14,71,,88,59,14,28,9,10,0.6,0.7
2025-09-11T0000,1278A,117.2776,31.7385,合肥市,滨湖新区,,20,14,27,12,19,61,,96,73,11,15,5,6,0.7,0.7
2025-09-11T0000,1279A,117.1318,31.8403,合肥市,高新区,,20,14,28,9,17,64,,93,77,18,19,6,6,0.6,0.7
2025-09-11T0000,3464A,117.3803,31.9147,合肥市,高教基地,,19,19,23,9,12,56,,80,57,12,11,6,6,0.5,0.5
2025-09-11T0000,3614A,79.924,37.0877,和田地区,地区环保局,颗粒物(PM10),245,381,377,157,111,37,,103,78,40,12,2,3,2.3,0.7
2025-09-11T0000,3615A,79.9131,37.113,和田地区,市环保局,颗粒物(PM10),173,295,335,91,89,23,,102,60,68,28,1,2,0.6,0.4
2025-09-11T0000,2516A,108.2011,24.715,河池市,东仁乐园,,,,,,,,,,,,,,,,
2025-09-11T0000,2517A,108.0497,24.6947,河池市,市环保站,,20,20,15,7,7,8,,56,25,11,8,5,5,0.6,0.6
2025-09-11T0000,2518A,108.0983,24.6989,河池市,市疾控中心,,32,32,16,11,8,16,,57,28,19,12,6,6,0.6,0.6
2025-09-11T0000,1696A,114.6778,23.7569,河源市,源西,,16,16,14,6,6,13,,69,46,32,13,5,5,0.6,0.6
2025-09-11T0000,1697A,114.6944,23.7586,河源市,东埔,,13,12,16,7,6,39,,64,52,10,8,5,5,0.7,0.7
2025-09-11T0000,1698A,114.6892,23.7233,河源市,老城,,21,21,22,3,6,36,,73,54,8,6,7,6,0.7,0.7
2025-09-11T0000,1718A,115.4208,35.2464,菏泽市,气象局,颗粒物(PM10),51,52,45,23,21,92,,130,106,21,13,4,4,0.4,0.3
2025-09-11T0000,3374A,115.5564,35.0891,菏泽市,定陶老年大学,颗粒物(PM10),57,63,41,29,15,52,,120,74,31,15,7,5,0.3,0.3
2025-09-11T0000,4184A,115.4797,35.24401,菏泽市,永昌路1号,颗粒物(PM10),62,73,45,35,22,50,,130,93,34,12,9,8,0.4,0.3
2025-09-11T0000,4193A,115.4715,35.2800,菏泽市,长城路999号,颗粒物(PM10),67,83,46,34,17,45,,135,100,57,17,13,11,0.4,0.3
2025-09-11T0000,2514A,111.5264,24.4172,贺州市,环保小区,,12,12,14,8,11,20,,58,41,15,8,13,14,0.5,0.4
2025-09-11T0000,2515A,111.5608,24.4078,贺州市,政协大楼,,13,13,15,6,7,27,,70,47,15,8,10,11,0.5,0.5
2025-09-11T0000,3534A,111.4744,24.4553,贺州市,西湾,,13,,17,9,8,20,,65,49,13,10,11,7,0.5,0.4
2025-09-11T0000,2385A,114.17,35.9019,鹤壁市,市监测站,,,30,31,20,18,,,114,,17,12,6,6,0.5,0.5
2025-09-11T0000,2386A,114.2956,35.7511,鹤壁市,市交警支队,,30,30,30,20,21,53,,104,76,17,17,3,3,0.6,0.6
2025-09-11T0000,2387A,114.2878,35.7306,鹤壁市,迎宾馆,,37,37,39,22,19,41,,102,69,25,17,5,4,0.6,0.6
2025-09-11T0000,3474A,114.2617,35.6822,鹤壁市,大新区,,29,29,34,20,17,44,,99,58,15,20,5,5,0.6,0.6
2025-09-11T0000,3596A,114.1572,35.9603,鹤壁市,南山宾馆,,35,,26,24,22,86,,120,98,12,12,4,4,0.7,0.7
2025-09-11T0000,2244A,130.2537,47.3416,鹤岗市,哈啤分公司,,20,20,26,3,8,17,,36,20,2,7,11,11,0.2,0.2
2025-09-11T0000,2245A,130.2684,47.3086,鹤岗市,斯达机电,,19,19,21,12,10,25,,40,29,7,9,12,12,0.3,0.3
2025-09-11T0000,2246A,130.3114,47.3388,鹤岗市,东山纸板厂,,31,31,25,19,18,10,,39,15,8,13,10,13,0.4,0.5
2025-09-11T0000,2247A,130.1097,47.3382,鹤岗市,五号水库,,19,19,10,3,6,11,,39,17,8,8,6,6,0.3,0.2
2025-09-11T0000,2263A,127.4833,50.2524,黑河市,交通局,,,16,20,10,11,,,36,,8,11,6,7,0.4,0.4
2025-09-11T0000,2264A,127.5144,50.2341,黑河市,环保局,,45,45,27,12,12,3,,38,14,16,12,6,9,0.8,0.6
2025-09-11T0000,2265A,127.5291,50.2472,黑河市,大黑河岛,,,,,3,5,14,,36,22,2,2,20,22,,0.3
2025-09-11T0000,1074A,115.6838,37.7541,衡水市,电机北厂,颗粒物(PM10),60,70,46,28,17,114,,149,128,12,10,8,8,0.4,0.3
2025-09-11T0000,1075A,115.6303,37.7316,衡水市,市监测站,颗粒物(PM10),60,70,52,23,15,105,,141,116,16,13,8,7,0.5,0.4
2025-09-11T0000,3188A,115.6683,37.7217,衡水市,市城管局,颗粒物(PM10),61,72,51,33,20,96,,152,120,20,11,8,9,0.4,0.3
2025-09-11T0000,3459A,115.5989,37.5491,衡水市,地表水厂,颗粒物(PM10),70,90,58,29,18,56,,143,96,40,18,2,3,0.3,0.2
2025-09-11T0000,2456A,112.5003,26.9167,衡阳市,原169医院,,26,26,33,12,16,53,,91,64,19,8,14,7,0.6,0.6
2025-09-11T0000,2457A,112.6194,26.9258,衡阳市,衡阳化工总厂,,28,28,30,12,16,57,,93,82,9,7,5,5,0.8,0.8
2025-09-11T0000,2458A,112.6211,26.8956,衡阳市,珠晖区环保局,,28,28,27,15,16,50,,92,72,16,11,10,8,0.6,0.6
2025-09-11T0000,2459A,112.6197,26.8733,衡阳市,市委党校,,23,23,19,11,12,55,,89,75,10,8,8,5,0.5,0.5
2025-09-11T0000,2460A,112.6006,26.8919,衡阳市,市监测站,,31,31,26,14,16,57,,93,77,9,8,4,3,0.7,0.7
2025-09-11T0000,2461A,112.5664,26.9056,衡阳市,真空机电公司,,22,20,24,15,17,55,,89,73,7,6,7,5,0.9,0.9
2025-09-11T0000,3399A,112.6703,26.882,衡阳市,师范学院,,23,20,28,16,14,51,,89,73,10,8,5,3,0.8,0.8
2025-09-11T0000,2608A,103.3772,23.3993,红河哈尼族彝族自治州,污水处理厂,,33,24,15,23,14,24,,53,28,10,8,9,9,0.3,0.3
2025-09-11T0000,2609A,103.3861,23.35,红河哈尼族彝族自治州,监测站,,32,,20,22,11,27,,58,32,8,5,15,13,0.2,0.2
2025-09-11T0000,3038A,103.3758,23.368,红河哈尼族彝族自治州,州图书馆,,30,,10,21,14,35,,60,35,8,7,2,2,0.3,0.2
2025-09-11T0000,1090A,111.6507,40.7517,呼和浩特市,呼市一监,颗粒物(PM10),57,63,56,25,23,49,,135,78,31,27,7,8,0.4,0.5
2025-09-11T0000,1091A,111.6572,40.8033,呼和浩特市,小召,颗粒物(PM10),67,83,58,34,24,39,,141,96,46,30,6,7,0.8,0.7
2025-09-11T0000,1094A,111.7516,40.8369,呼和浩特市,如意水处理厂,颗粒物(PM10),63,76,64,29,24,12,,146,79,78,33,7,8,0.4,0.4
2025-09-11T0000,1095A,111.7276,40.8062,呼和浩特市,二十九中,颗粒物(PM10),60,70,61,28,23,59,,142,99,28,28,8,8,0.6,0.6
2025-09-11T0000,1096A,111.5512,40.7866,呼和浩特市,工大金川校区,颗粒物(PM10),79,107,70,38,25,7,,137,77,91,42,7,7,0.7,0.6
2025-09-11T0000,1097A,111.717,40.7612,呼和浩特市,化肥厂生活区,颗粒物(PM10),62,74,66,26,23,49,,148,86,36,31,6,8,0.4,0.5
2025-09-11T0000,3698A,111.5968,40.8178,呼和浩特市,红旗小学,颗粒物(PM10),69,88,61,29,25,0,,149,70,89,42,6,6,0.5,0.4
2025-09-11T0000,3699A,111.6518,40.8389,呼和浩特市,海东办,颗粒物(PM10),69,88,69,32,25,4,,152,81,85,43,7,8,0.7,0.5
2025-09-11T0000,2192A,119.7594,49.2261,呼伦贝尔市,区环保局,,,24,25,14,18,,,44,31,12,13,,6,0.4,0.5
2025-09-11T0000,3061A,119.7512,49.1577,呼伦贝尔市,国华电力东,,19,19,18,12,10,25,,53,34,6,8,7,7,0.2,0.2
2025-09-11T0000,1250A,120.0751,30.8669,湖州市,城西水厂,,30,26,25,12,16,96,,114,107,14,19,6,6,0.3,0.5
2025-09-11T0000,2873A,120.0830,30.8929,湖州市,仁皇山新区,,24,24,26,14,15,74,,108,96,15,20,5,4,0.4,0.5
2025-09-11T0000,2907A,120.1844,30.8596,湖州市,吴兴区站,,32,31,25,12,14,100,,110,101,10,16,8,8,0.5,0.6
2025-09-11T0000,3562A,120.4148,30.8538,湖州市,南浔区站,,36,36,26,18,15,87,,101,94,11,14,7,7,0.7,0.8
2025-09-11T0000,1607A,120.9049,40.7211,葫芦岛市,龙港区,,32,32,26,3,9,62,,150,124,11,13,5,7,0.7,0.6
2025-09-11T0000,1608A,120.8392,40.7514,葫芦岛市,化工街,颗粒物(PM10),56,61,25,27,12,3,,138,96,86,25,8,11,0.9,0.6
2025-09-11T0000,1609A,120.8341,40.7073,葫芦岛市,新区,,38,38,26,26,11,51,,143,119,33,17,5,5,0.9,0.6
2025-09-11T0000,1610A,120.8695,40.7677,葫芦岛市,东城区,颗粒物(PM10),68,86,31,46,17,10,,140,95,92,31,8,8,0.9,0.7
2025-09-11T0000,2482A,109.5981,27.5721,怀化市,林科所,,18,18,15,3,4,12,,58,39,6,6,5,4,0.8,0.8
2025-09-11T0000,2483A,109.9453,27.5444,怀化市,河西地税局,,21,21,14,10,9,18,,50,38,13,8,5,4,0.4,0.3
2025-09-11T0000,2484A,109.9781,27.5342,怀化市,市四医院,,21,21,19,14,15,26,,59,42,8,7,8,6,0.2,0.4
2025-09-11T0000,2485A,109.9972,27.5578,怀化市,监测楼,,23,22,18,16,12,31,,64,44,9,8,6,4,0.1,0.2
2025-09-11T0000,2486A,110.0394,27.583,怀化市,市委党校,,35,24,17,24,14,20,,48,32,11,7,12,7,0.4,0.4
2025-09-11T0000,1210A,119.036,33.5981,淮安市,钵池山,,24,24,22,15,14,68,,108,84,15,16,7,7,0.5,0.5
2025-09-11T0000,1211A,119.007,33.575,淮安市,北京南路,,24,24,25,11,14,74,,108,88,9,11,7,7,0.6,0.6
2025-09-11T0000,1212A,118.989,33.6067,淮安市,市监测站,,25,22,26,12,13,78,,110,91,15,18,9,10,0.3,0.4
2025-09-11T0000,1213A,119.135,33.5039,淮安市,楚州区监测站,,29,29,31,12,13,69,,104,78,15,21,7,8,0.5,0.4
2025-09-11T0000,3426A,118.8755,33.2894,淮安市,新华书店,,26,24,23,18,12,64,,102,80,13,18,7,7,0.5,0.6
2025-09-11T0000,4206A,119.0288,33.6319,淮安市,承德北路606号,,34,34,32,14,15,63,,104,79,16,17,6,7,0.4,0.4
2025-09-11T0000,2282A,116.8004,33.975,淮北市,监测站,,32,32,26,18,10,98,,112,98,10,10,8,7,0.7,0.8
2025-09-11T0000,2283A,116.8091,33.9007,淮北市,烈山区政府,,42,42,35,7,5,94,,121,103,11,7,9,9,0.4,0.4
2025-09-11T0000,3330A,116.8873,33.9836,淮北市,杜集区检察院,,32,32,26,13,10,102,,114,102,2,4,9,9,0.5,0.5
2025-09-11T0000,4017A,116.7923,33.9535,淮北市,市博物馆,,33,26,24,18,12,103,,117,106,7,8,7,7,0.4,0.4
2025-09-11T0000,2277A,116.8305,32.7727,淮南市,潘集区政府,,32,32,21,16,9,62,,92,67,10,8,8,3,0.4,0.3
2025-09-11T0000,2279A,116.8569,32.5951,淮南市,谢家集区政府,,22,20,16,12,11,68,,90,82,9,8,11,8,0.6,0.3
2025-09-11T0000,2280A,116.8281,32.633,淮南市,八公山区政府,,25,25,27,16,13,70,,91,75,12,9,8,6,0.6,0.3
2025-09-11T0000,2281A,116.6325,32.6201,淮南市,焦岗湖风景区管理处,,,,,,,,,,,,,,,,
2025-09-11T0000,2894A,117.0566,32.6531,淮南市,经济技术开发区消防队,,22,21,19,3,4,70,,89,69,12,12,8,8,0.4,0.2
2025-09-11T0000,3329A,117.0108,32.5893,淮南市,山南新区,,26,26,20,3,6,76,,98,87,10,9,5,4,0.5,0.3
2025-09-11T0000,4209A,117.0031,32.6445,淮南市,国庆中路369号,,40,,26,28,17,75,,101,86,9,8,5,5,0.4,0.4
2025-09-11T0000,2446A,114.9028,30.4742,黄冈市,职工中心,,22,22,21,9,12,51,,66,59,15,10,7,5,0.7,0.6
2025-09-11T0000,2929A,114.8858,30.4519,黄冈市,红卫路,,20,20,24,10,11,47,,66,58,14,12,6,5,0.5,0.5
2025-09-11T0000,3398A,114.9136,30.4445,黄冈市,市林业局,,18,18,18,8,7,46,,66,59,14,10,6,5,0.4,0.4
2025-09-11T0000,2672A,102.0199,35.5102,黄南藏族自治州,同仁县隆务镇,,34,34,35,15,15,72,,91,80,1,4,9,9,0.2,0.3
2025-09-11T0000,2295A,118.2903,29.6963,黄山市,延安路89号,,18,18,26,3,4,6,,68,44,13,6,4,3,0.5,0.4
2025-09-11T0000,2297A,118.1371,30.2756,黄山市,黄山区政府5号楼,,30,30,12,3,8,6,,50,26,3,3,4,4,0.4,0.4
2025-09-11T0000,4210A,118.3354,29.7203,黄山市,滨江东路7-2号,,24,24,19,9,5,14,,63,39,9,6,3,3,0.4,0.4
2025-09-11T0000,2423A,115.0601,30.2313,黄石市,沈家营,,36,36,34,3,5,5,,66,41,41,16,7,6,1.0,0.7
2025-09-11T0000,2426A,114.8988,30.2019,黄石市,铁山,,12,12,18,3,5,37,,66,55,6,6,3,4,0.7,0.5
2025-09-11T0000,2427A,115.0307,30.2092,黄石市,团城山,,18,18,23,3,5,54,,66,59,6,9,6,7,0.4,0.6
2025-09-11T0000,3149A,115.0235,30.1578,黄石市,笔架山北路,,10,7,18,3,1,32,,70,54,7,4,7,6,0.4,0.5
2025-09-11T0000,4185A,115.0780,30.21118,黄石市,磁湖东路29号,,18,18,38,3,6,53,,68,62,9,14,9,8,0.4,0.6
2025-09-11T0000,1392A,114.4183,23.0528,惠州市,河南岸金山湖子站,,28,28,19,15,10,8,,64,28,23,12,8,8,0.6,0.5
2025-09-11T0000,1393A,114.4053,23.0822,惠州市,下埔横江三路子站,,36,36,18,18,9,19,,69,37,25,11,10,6,0.6,0.5
2025-09-11T0000,1394A,114.4103,23.1142,惠州市,江北云山西路子站,,27,27,18,17,10,19,,75,34,28,17,10,8,0.6,0.5
2025-09-11T0000,1395A,114.4645,22.7833,惠州市,惠阳区承修路船湖子站,,34,34,18,12,9,5,,55,29,30,13,8,7,0.6,0.5
2025-09-11T0000,1396A,114.5317,22.7422,惠州市,大亚湾管委会子站,,20,20,13,9,7,14,,57,32,22,10,8,8,0.5,0.4
2025-09-11T0000,3314A,114.4338,22.8134,惠州市,惠阳秋长,,29,29,22,9,8,7,,57,23,29,17,9,9,0.5,0.5
2025-09-11T0000,3452A,114.6517,22.775,惠州市,大亚湾霞涌,,14,7,13,3,8,42,,67,53,12,9,7,7,0.5,0.4
2025-09-11T0000,2240A,130.9762,45.3001,鸡西市,环保局,,32,32,24,21,12,0,,55,12,25,20,6,6,0.7,0.7
2025-09-11T0000,2243A,130.9429,45.3039,鸡西市,第一中学,,25,25,22,7,8,1,,59,17,20,14,8,9,0.7,0.6
2025-09-11T0000,3707A,131.0207,45.3073,鸡西市,欧美日汽修厂,,22,22,35,13,12,1,,52,12,18,20,8,9,0.8,0.8
2025-09-11T0000,3709A,130.9967,45.3106,鸡西市,市政设施管理处,,28,28,51,9,12,1,,65,14,26,24,8,8,0.9,0.8
2025-09-11T0000,2367A,114.9754,27.0803,吉安市,红声器材厂,,17,14,19,6,6,53,,78,64,5,3,9,8,0.2,0.2
2025-09-11T0000,2368A,114.9658,27.0999,吉安市,市森林工业局,,15,11,20,3,7,45,,76,59,5,4,7,7,0.5,0.4
2025-09-11T0000,2369A,114.99,27.1312,吉安市,市环境监测站,,18,11,16,3,6,56,,86,65,1,1,12,11,0.5,0.4
2025-09-11T0000,2370A,115.0093,27.0968,吉安市,青原区法院,,15,10,18,3,6,45,,78,60,7,4,10,9,0.6,0.6
2025-09-11T0000,1772A,126.54,43.8622,吉林市,哈达湾,,27,27,22,13,10,23,,85,46,25,19,8,8,0.3,0.3
2025-09-11T0000,1773A,126.5844,43.8358,吉林市,东局子,,20,,26,14,11,26,,81,45,17,19,6,6,0.5,0.7
2025-09-11T0000,1774A,126.5052,43.8245,吉林市,电力学院,,31,31,27,17,14,3,,79,26,30,22,6,6,0.5,0.4
2025-09-11T0000,1775A,126.6133,43.8972,吉林市,江北,,22,22,29,8,9,20,,75,39,14,16,6,6,0.4,0.3
2025-09-11T0000,1776A,126.555,43.8306,吉林市,江南公园,,20,20,18,6,9,17,,78,44,25,14,3,2,0.4,0.3
2025-09-11T0000,1778A,126.7061,43.7133,吉林市,丰满,,17,8,11,3,6,53,,90,64,3,4,6,6,0.6,0.6
2025-09-11T0000,2868A,126.4739,43.953,吉林市,九站,,40,40,31,20,14,2,,84,27,39,29,35,17,0.6,0.4
2025-09-11T0000,1299A,116.9862,36.6114,济南市,科干所,颗粒物(PM10),56,61,46,39,22,96,,157,119,26,16,7,7,0.7,0.6
2025-09-11T0000,1300A,116.9376,36.665,济南市,农科所,颗粒物(PM10),63,76,44,27,19,52,,145,102,45,25,8,9,0.7,0.6
2025-09-11T0000,1301A,117.1265,36.6734,济南市,开发区,颗粒物(PM10),53,56,49,29,23,104,,167,126,24,29,8,9,0.8,0.7
2025-09-11T0000,1303A,117.0624,36.6868,济南市,省种子仓库,颗粒物(PM10),59,68,55,29,21,118,,164,130,24,23,6,6,0.8,0.7
2025-09-11T0000,1304A,116.9489,36.6447,济南市,机床二厂,颗粒物(PM10),75,100,55,34,22,45,,154,110,60,25,9,10,0.6,0.5
2025-09-11T0000,1305A,117.0495,36.663,济南市,市监测站,颗粒物(PM10),57,63,46,32,21,119,,153,128,18,19,11,10,0.8,0.7
2025-09-11T0000,1306A,116.7675,36.5484,济南市,长清党校,,49,49,45,24,24,61,,146,106,40,20,6,8,0.6,0.6
2025-09-11T0000,1616A,117.6795,36.229,济南市,技术学院,颗粒物(PM10),51,51,52,31,27,91,,153,113,32,33,12,15,0.9,1
2025-09-11T0000,1961A,117.532,36.6868,济南市,东山小学,颗粒物(PM10),57,63,56,24,25,117,,192,136,21,23,8,9,0.7,0.6
2025-09-11T0000,3059A,117.7161,36.2049,济南市,泰兴公司,颗粒物(PM10),57,63,57,29,30,63,,149,92,50,38,10,13,0.8,0.9
2025-09-11T0000,3064A,117.6867,36.2171,济南市,莱芜战役纪念馆,颗粒物(PM10),53,56,55,35,32,100,,151,110,30,37,12,12,0.9,1
2025-09-11T0000,3494A,117.1673,36.9782,济南市,济阳区政府,颗粒物(PM10),72,93,67,42,25,79,,180,133,34,26,8,10,0.5,0.4
2025-09-11T0000,3495A,117.1171,36.63,济南市,锦屏中学,颗粒物(PM10),64,78,40,27,15,52,,143,97,44,18,10,10,0.9,0.8
2025-09-11T0000,3682A,116.9814,36.6819,济南市,济南四建,颗粒物(PM10),68,85,46,37,23,68,,164,125,40,19,5,6,0.8,0.7
2025-09-11T0000,1653A,116.6251,35.4302,济宁市,火炬城,颗粒物(PM10),53,56,45,34,25,91,,144,126,13,9,8,6,0.3,0.3
2025-09-11T0000,1655A,116.5491,35.4042,济宁市,电化厂,颗粒物(PM10),52,53,51,24,26,101,,153,130,18,16,5,5,0.4,0.5
2025-09-11T0000,3500A,116.5814,35.3707,济宁市,北湖一中,,50,50,45,25,23,94,,144,124,14,11,7,7,0.4,0.4
2025-09-11T0000,3501A,116.8249,35.5593,济宁市,服务中心,颗粒物(PM10),59,67,50,11,17,91,,144,120,18,17,7,5,0.3,0.4
2025-09-11T0000,3678A,116.5907,35.4054,济宁市,市第七中学,颗粒物(PM10),60,69,49,19,17,90,,148,128,15,12,8,7,0.4,0.4
2025-09-11T0000,2255A,130.2751,46.8028,佳木斯市,佳纺,,20,20,15,8,6,0,,35,7,17,16,6,6,0.4,0.5
2025-09-11T0000,2256A,130.3995,46.8307,佳木斯市,发电厂,,19,19,19,10,7,1,,40,13,19,14,7,7,0.6,0.5
2025-09-11T0000,2257A,130.3258,46.7975,佳木斯市,环保局,,25,25,14,11,7,2,,41,10,26,16,8,8,0.6,0.5
2025-09-11T0000,2258A,130.3648,46.8032,佳木斯市,十一中,,37,37,18,14,10,2,,41,10,26,18,9,8,0.7,0.6
2025-09-11T0000,2259A,130.3794,46.7588,佳木斯市,四丰,二氧化硫,94,6,4,3,3,18,,18,16,12,11,455,80,0.2,0.3
2025-09-11T0000,1252A,120.7436,30.778,嘉兴市,清河小学,,37,37,27,12,9,87,,103,93,12,17,5,6,0.4,0.4
2025-09-11T0000,1253A,120.726,30.7478,嘉兴市,嘉兴学院,,31,30,22,13,12,98,,115,102,12,17,4,4,0.6,0.6
2025-09-11T0000,2872A,120.7846,30.7525,嘉兴市,南湖区残联,,32,32,23,17,14,88,,110,93,14,19,6,6,0.6,0.7
2025-09-11T0000,3407A,120.6916,30.7739,嘉兴市,秀洲住建,,33,33,25,16,11,104,,117,110,12,18,6,6,0.6,0.7
2025-09-11T0000,1945A,98.2908,39.7711,嘉峪关市,气象局,颗粒物(PM10),63,75,74,19,17,13,,117,86,85,22,7,19,0.7,0.6
2025-09-11T0000,2884A,98.2672,39.7978,嘉峪关市,酒钢宾馆,颗粒物(PM10),57,63,91,19,24,45,,120,96,52,22,12,33,0.6,0.9
2025-09-11T0000,3248A,98.2643,39.7724,嘉峪关市,雄关区,颗粒物(PM10),57,64,69,23,21,39,,114,89,55,23,8,17,0.5,0.5
2025-09-11T0000,1383A,113.1064,22.6058,江门市,北街,,41,41,21,23,13,2,,50,9,33,16,4,4,0.7,0.5
2025-09-11T0000,1384A,113.0731,22.5835,江门市,西区,,19,19,21,11,10,12,,49,12,25,19,9,8,0.6,0.5
2025-09-11T0000,1385A,113.0219,22.5311,江门市,圭峰西,,21,21,19,12,11,11,,50,18,17,10,4,3,0.7,0.6
2025-09-11T0000,1386A,113.0828,22.5947,江门市,东湖,,29,29,20,18,9,1,,44,8,26,16,6,6,0.8,0.6
2025-09-11T0000,3311A,113.1075,22.5647,江门市,江海富民,,50,50,34,24,16,10,,52,10,19,15,6,5,0.4,0.3
2025-09-11T0000,3449A,113.05,22.4667,江门市,新会银湖,,13,12,19,9,10,7,,44,8,13,12,2,2,0.5,0.5
2025-09-11T0000,1830A,113.1992,35.2590,焦作市,影视城,,,,31,,12,,,96,70,,9,,8,,0.7
2025-09-11T0000,3335A,113.3137,35.2641,焦作市,马村街道办,,49,49,46,26,23,78,,98,79,11,16,5,4,0.6,0.6
2025-09-11T0000,3336A,113.2465,35.2373,焦作市,焦作技师学院,,35,35,42,14,16,78,,93,77,12,15,6,7,0.5,0.5
2025-09-11T0000,3477A,113.1656,35.2539,焦作市,中站许衡医院,颗粒物(PM10),54,57,37,25,25,87,,94,75,8,11,6,6,0.5,0.5
2025-09-11T0000,3981A,113.2449,35.1803,焦作市,原李万街道办,颗粒物(PM10),53,56,32,14,16,88,,97,86,14,16,9,8,0.5,0.5
2025-09-11T0000,4264A,113.2340,35.2190,焦作市,新安路1731号,,39,39,42,20,18,89,,99,90,8,12,4,5,0.3,0.3
2025-09-11T0000,4295A,113.2722,35.2121,焦作市,人民路3066号,,33,33,50,14,15,83,,96,82,4,11,2,3,0.3,0.4
2025-09-11T0000,1708A,116.3701,23.5345,揭阳市,新兴,,13,10,23,9,14,25,,64,41,16,18,6,13,0.6,0.6
2025-09-11T0000,1709A,116.3264,23.5443,揭阳市,西马,,26,26,22,7,11,5,,57,26,34,17,5,6,0.8,0.5
2025-09-11T0000,1710A,116.3611,23.5626,揭阳市,东兴,,15,15,20,7,9,11,,61,27,24,16,7,8,0.7,0.7
2025-09-11T0000,1711A,116.4151,23.5294,揭阳市,渔湖,,19,19,28,9,12,9,,74,35,30,21,6,8,0.6,0.6
2025-09-11T0000,3320A,116.403,23.5699,揭阳市,曲溪,,21,21,20,10,11,13,,73,43,21,13,1,6,0.5,0.5
2025-09-11T0000,1944A,102.1692,38.5167,金昌市,天庆家园,颗粒物(PM10),51,51,83,19,29,93,,102,97,5,19,3,20,0.2,0.1
2025-09-11T0000,4022A,102.1647,38.5371,金昌市,金川区人防中心,颗粒物(PM10),53,56,72,19,26,86,,99,92,8,14,8,18,0.6,0.5
2025-09-11T0000,4239A,102.1930,38.5319,金昌市,长春路96号,颗粒物(PM10),55,59,77,18,22,98,,102,99,3,14,4,16,0.6,0.7
2025-09-11T0000,1262A,119.647,29.077,金华市,十五中,,23,,19,16,13,62,,124,105,9,13,2,2,0.4,0.5
2025-09-11T0000,1263A,119.686,29.1029,金华市,监测站,,17,6,21,3,11,53,,112,76,14,15,4,4,0.5,0.8
2025-09-11T0000,3659A,119.656,29.1131,金华市,气象局,,14,6,17,3,8,37,,97,64,28,16,2,2,0.4,0.5
2025-09-11T0000,1767A,121.1115,41.0879,锦州市,南山,,50,,23,35,18,71,,143,116,38,15,4,6,0.6,0.6
2025-09-11T0000,1768A,121.0604,40.8428,锦州市,开发区,颗粒物(PM10),78,105,38,30,16,69,,150,112,57,28,35,12,1.3,0.8
2025-09-11T0000,1769A,121.1836,41.1119,锦州市,百股街道,,40,40,29,24,15,42,,154,96,51,19,15,9,0.6,0.6
2025-09-11T0000,1770A,121.1178,41.1222,锦州市,天安街道,细颗粒物(PM2.5),52,46,29,36,21,59,,154,122,35,21,11,12,0.8,0.7
2025-09-11T0000,1771A,121.1303,41.1386,锦州市,北湖公园,,40,32,29,28,17,52,,142,108,18,14,5,7,0.7,0.7
2025-09-11T0000,2160A,112.85,35.5051,晋城市,自来水公司,,32,32,40,19,20,63,,80,72,13,15,3,8,0.6,0.6
2025-09-11T0000,2161A,112.8318,35.4936,晋城市,白云商贸,,35,35,39,14,16,64,,83,75,13,13,2,2,0.5,0.6
2025-09-11T0000,2162A,112.8508,35.4887,晋城市,市环保局,,43,43,38,17,18,57,,74,66,9,10,3,3,0.5,0.5
2025-09-11T0000,2163A,112.8676,35.4897,晋城市,技术学院,,32,32,37,14,14,62,,80,73,11,13,3,4,0.5,0.5
2025-09-11T0000,2165A,112.8453,35.546,晋城市,白马寺,,36,,27,25,22,71,,109,81,4,6,6,7,0.5,0.5
2025-09-11T0000,3620A,112.8271,35.4828,晋城市,泽州一中,,21,20,37,9,16,67,,87,76,11,12,2,2,0.6,0.6
2025-09-11T0000,2173A,112.7249,37.7067,晋中市,南都小区,,45,45,34,22,20,64,,130,101,23,17,5,6,0.5,0.5
2025-09-11T0000,2174A,112.6991,37.6982,晋中市,榆次区政府,,46,46,48,12,21,50,,119,90,31,23,6,7,0.6,0.7
2025-09-11T0000,2865A,112.7195,37.6828,晋中市,榆次三中,,39,39,45,19,15,52,,127,89,21,17,5,6,0.2,0.4
2025-09-11T0000,4200A,112.7478,37.6954,晋中市,迎宾街26号,,39,39,40,7,11,59,,133,94,25,18,4,5,0.4,0.5
2025-09-11T0000,2439A,112.2014,31.0481,荆门市,竹园小学,,29,23,32,20,25,50,,80,66,10,11,1,1,0.6,0.6
2025-09-11T0000,2440A,112.1969,30.9891,荆门市,掇刀,,35,,28,24,26,56,,82,69,8,10,2,1,0.5,0.5
2025-09-11T0000,2441A,112.2213,31.0386,荆门市,石化一小,,43,,32,30,26,50,,76,66,14,13,4,4,0.5,0.5
2025-09-11T0000,3012A,112.1849,31.0362,荆门市,西山林语,,26,,30,18,22,54,,81,70,7,8,1,2,0.5,0.4
2025-09-11T0000,3547A,112.1632,31.0138,荆门市,龙泉中学南校,,17,8,20,6,16,54,,90,72,9,11,2,2,0.6,0.7
2025-09-11T0000,1844A,112.2494,30.3197,荆州市,市图书馆,,22,,25,15,21,39,,59,51,12,15,3,4,0.6,0.5
2025-09-11T0000,1845A,112.2008,30.3544,荆州市,市委党校,,49,,30,34,19,27,,56,47,16,15,5,7,0.6,0.7
2025-09-11T0000,3194A,112.2747,30.3122,荆州市,管委会,,19,19,23,6,17,35,,55,46,10,12,1,2,0.6,0.6
2025-09-11T0000,4268A,112.1722,30.3366,荆州市,学苑路85号,,38,35,32,26,26,32,,62,50,18,21,4,5,0.6,0.6
2025-09-11T0000,2342A,117.3102,29.3867,景德镇市,王港中学,,,,,,,,,,,,,,,,
2025-09-11T0000,2343A,117.2117,29.2933,景德镇市,老干部活动中心,,16,16,10,3,6,21,,42,30,11,8,7,7,0.6,0.6
2025-09-11T0000,2344A,117.1894,29.2789,景德镇市,兽医站,,21,21,21,3,7,24,,42,31,8,7,4,4,0.8,0.8
2025-09-11T0000,2346A,117.2461,29.2956,景德镇市,陶研所,,16,16,14,11,9,32,,44,30,6,6,4,4,0.5,0.6
2025-09-11T0000,4289A,117.1542,29.2566,景德镇市,青少年活动中心,,11,11,9,3,8,30,,46,36,7,7,1,2,0.7,0.7
2025-09-11T0000,1803A,115.9872,29.6815,九江市,十里,,15,,11,8,12,46,,78,65,20,10,4,5,0.5,0.6
2025-09-11T0000,1804A,115.9584,29.7046,九江市,茅山头,,15,,19,7,11,47,,74,63,14,8,3,4,0.4,0.5
2025-09-11T0000,1805A,115.9877,29.7295,九江市,西园,,16,6,12,6,7,44,,80,66,32,15,4,4,0.6,0.7
2025-09-11T0000,1808A,115.9114,29.6038,九江市,综合工业园,,22,14,13,3,6,27,,76,61,43,23,7,6,0.7,0.8
2025-09-11T0000,1809A,116.0721,29.7535,九江市,石化总厂,,15,13,14,3,9,45,,68,58,16,12,4,4,0.5,0.5
2025-09-11T0000,1810A,115.9773,29.5698,九江市,庐山气象台,,,,,,,,,,,,,,,,
2025-09-11T0000,3190A,116.0254,29.6994,九江市,外国语学校,,14,6,11,6,11,43,,68,56,23,13,6,7,0.6,0.7
2025-09-11T0000,4253A,116.0102,29.6594,九江市,莲花大道8号,,18,,9,3,7,55,,63,59,1,4,4,4,0.4,0.5
2025-09-11T0000,4240A,98.4958,39.7339,酒泉市,玉门东路5号,颗粒物(PM10),67,83,79,45,29,26,,111,75,53,15,8,11,0.5,0.4
2025-09-11T0000,4241A,98.5099,39.7506,酒泉市,北大街108号,颗粒物(PM10),75,100,75,35,22,16,,110,76,57,12,12,21,0.7,0.4
2025-09-11T0000,2698A,76.0072,39.4467,喀什地区,巡警大队,颗粒物(PM10),137,224,235,77,68,47,,117,93,58,25,6,6,0.6,0.4
2025-09-11T0000,2699A,75.9755,39.4694,喀什地区,吾办,颗粒物(PM10),129,208,243,82,72,20,,109,85,66,30,5,6,0.9,0.5
2025-09-11T0000,4027A,75.9483,39.4689,喀什地区,老干局,颗粒物(PM10),118,185,204,53,55,38,,108,88,56,22,3,4,0.5,0.2
2025-09-11T0000,1824A,114.3389,34.7781,开封市,肿瘤医院,颗粒物(PM10),53,55,45,22,21,49,,98,79,30,21,8,5,0.6,0.7
2025-09-11T0000,1826A,114.2885,34.7965,开封市,世纪星幼儿园,颗粒物(PM10),51,51,41,24,24,71,,112,94,22,17,5,5,0.7,0.7
2025-09-11T0000,3147A,114.3438,34.8106,开封市,龙亭公园,,45,45,41,15,17,54,,98,76,21,14,5,6,0.7,0.7
2025-09-11T0000,3210A,114.3644,34.7964,开封市,汴京公园,,34,34,46,22,24,49,,102,77,24,15,5,5,0.7,0.7
2025-09-11T0000,3473A,114.2485,34.8306,开封市,技师学院,颗粒物(PM10),51,52,39,25,24,45,,92,67,24,14,6,6,0.8,1
2025-09-11T0000,3592A,114.4644,34.7556,开封市,祥符区生态环境局,颗粒物(PM10),55,59,40,25,18,25,,94,57,46,25,4,4,0.7,0.6
2025-09-11T0000,1951A,84.895,45.6094,克拉玛依市,长征新村,,49,49,21,17,9,45,,83,58,25,13,3,3,0.3,0.2
2025-09-11T0000,1952A,84.8988,45.5893,克拉玛依市,南林小区,颗粒物(PM10),66,81,27,26,9,5,,83,37,40,13,7,6,1.8,0.8
2025-09-11T0000,1954A,84.905,44.3396,克拉玛依市,独山子区,颗粒物(PM10),54,57,53,20,16,49,,101,78,25,17,6,6,0.5,0.4
2025-09-11T0000,1955A,85.6979,46.098,克拉玛依市,乌尔禾区商贸楼,,26,26,22,3,7,53,,84,60,24,15,3,3,0.1,0.1
2025-09-11T0000,3612A,85.1045,45.6899,克拉玛依市,白碱滩区新站,颗粒物(PM10),54,58,41,15,12,46,,92,73,17,6,10,10,0.4,0.4
2025-09-11T0000,2697A,76.1454,39.7142,克孜勒苏柯尔克孜自治州,市人民政府,颗粒物(PM10),100,149,178,72,68,63,,116,100,27,13,7,16,0.2,0.1
2025-09-11T0000,3665A,76.1658,39.7157,克孜勒苏柯尔克孜自治州,克州文化中心,颗粒物(PM10),102,153,171,51,55,38,,107,93,58,10,8,16,0.2,0.2
2025-09-11T0000,1450A,102.8204,24.8886,昆明市,呈贡新区,,19,19,14,13,14,26,,73,44,25,15,11,3,0.5,0.5
2025-09-11T0000,1451A,102.6251,24.9608,昆明市,西山森林公园,,,,,,,,,,,,,,,,
2025-09-11T0000,1452A,102.7252,25.0902,昆明市,龙泉镇,,16,16,19,6,10,34,,81,44,12,14,1,2,0.3,0.4
2025-09-11T0000,1453A,102.7266,25.0375,昆明市,东风东路,,16,11,22,6,13,49,,82,57,9,19,2,4,0.3,0.4
2025-09-11T0000,1454A,102.6742,25.0669,昆明市,金鼎山,,11,11,20,3,10,35,,75,46,11,12,1,2,0.3,0.4
2025-09-11T0000,1455A,102.6644,25.0401,昆明市,碧鸡广场,,19,17,18,13,10,32,,72,44,18,14,8,9,0.4,0.5
2025-09-11T0000,3179A,102.7494,25.0119,昆明市,官渡区博物馆,,15,8,19,6,10,48,,78,50,6,20,1,2,0.2,0.3
2025-09-11T0000,3375A,102.8017,24.8336,昆明市,青年创业园,,33,33,18,15,13,21,,70,44,20,12,6,3,0.8,0.7
2025-09-11T0000,3550A,102.7997,24.9786,昆明市,昆明学院,,14,14,28,8,16,38,,68,38,11,23,7,7,0.4,0.5
2025-09-11T0000,3551A,102.5967,24.6736,昆明市,晋宁区生态环境分局,,45,45,21,7,9,38,,69,47,8,10,2,2,0.3,0.5
2025-09-11T0000,3552A,102.6678,24.9856,昆明市,云天化总部,,15,11,15,8,10,45,,70,52,5,11,4,5,0.5,0.5
2025-09-11T0000,1456A,91.1319,29.6514,拉萨市,八廓街,,,,16,,11,,,84,82,,11,,7,,0.4
2025-09-11T0000,1457A,91.1221,29.6747,拉萨市,市环保局,,25,9,15,6,10,77,,89,82,8,12,6,8,0.4,0.5
2025-09-11T0000,1458A,91.0874,29.6475,拉萨市,区监测站,,25,8,19,8,8,80,,80,79,9,20,4,5,0.3,0.3
2025-09-11T0000,1459A,91.1774,29.6541,拉萨市,西藏大学,,25,10,11,6,7,79,,86,82,8,13,6,7,0.3,0.3
2025-09-11T0000,1460A,90.9798,29.6588,拉萨市,区辐射站,,20,8,20,6,12,61,,72,68,15,25,4,6,0.4,0.4
2025-09-11T0000,1461A,91.0834,29.6292,拉萨市,拉萨火车站,,26,8,13,7,8,82,,79,77,6,18,5,6,0.4,0.5
2025-09-11T0000,2520A,109.2203,23.7256,来宾市,来宾技工学校,,19,19,21,6,10,29,,70,50,8,6,9,7,0.8,0.8
2025-09-11T0000,3535A,109.1781,23.7297,来宾市,兴宾区政府,,13,13,18,3,12,38,,75,55,10,7,13,8,0.6,0.7
2025-09-11T0000,4002A,109.2416,23.7461,来宾市,中南小学,,16,16,19,3,9,24,,71,47,13,11,11,14,0.6,0.6
2025-09-11T0000,1477A,104.1373,35.9454,兰州市,榆中兰大校区,,,,,,,,,,,,,,,,
2025-09-11T0000,1479A,103.831,36.0464,兰州市,铁路设计院,,44,44,53,24,26,31,,114,65,26,38,9,11,0.5,0.7
2025-09-11T0000,3241A,103.7439,36.0842,兰州市,百合公园,,31,31,56,20,25,34,,127,67,17,30,3,3,0.2,0.6
2025-09-11T0000,3242A,103.9611,35.998,兰州市,和平,,30,30,51,16,23,43,,141,102,12,15,8,10,0.5,0.6
2025-09-11T0000,4236A,103.6293,36.0938,兰州市,庄浪东路808号,颗粒物(PM10),57,64,68,31,31,18,,139,64,67,47,13,16,0.4,0.5
2025-09-11T0000,4237A,103.7251,36.1043,兰州市,安宁西路88号,,46,46,64,22,27,38,,161,99,23,25,4,7,0.4,0.5
2025-09-11T0000,4238A,103.8470,36.0676,兰州市,北滨河东路1号,,36,36,49,21,25,42,,132,84,18,28,8,10,0.4,0.5
2025-09-11T0000,3245A,103.6633,36.533,兰州新区,新区管委会,,45,36,50,31,30,56,,126,87,21,18,8,14,0.2,0.7
2025-09-11T0000,3246A,103.6975,36.4789,兰州新区,舟曲中学,颗粒物(PM10),63,76,69,28,30,23,,116,76,56,31,9,17,0.4,0.6
2025-09-11T0000,1067A,116.6708,39.5111,廊坊市,药材公司,"颗粒物(PM10),细颗粒物(PM2.5)",59,67,47,42,28,72,,154,119,30,22,5,5,0.5,0.4
2025-09-11T0000,1068A,116.7214,39.5589,廊坊市,开发区,颗粒物(PM10),60,70,48,32,23,57,,140,91,26,21,2,2,0.4,0.3
2025-09-11T0000,1070A,116.7244,39.5269,廊坊市,北华航天学院,细颗粒物(PM2.5),67,50,40,48,28,62,,149,99,23,20,4,4,0.5,0.4
2025-09-11T0000,2919A,116.7022,39.5453,廊坊市,河北工业大学,颗粒物(PM10),53,55,38,36,24,77,,145,108,24,23,3,3,0.4,0.3
2025-09-11T0000,2535A,103.7723,29.5462,乐山市,花湖湾,细颗粒物(PM2.5),75,71,44,55,33,23,,84,70,38,20,4,5,0.6,0.5
2025-09-11T0000,2536A,103.7627,29.5844,乐山市,牛耳桥,颗粒物(PM10),58,66,48,40,34,52,,84,67,19,19,6,6,0.8,0.8
2025-09-11T0000,2537A,103.7508,29.6006,乐山市,市第三水厂,细颗粒物(PM2.5),54,54,46,38,33,51,,86,74,20,18,6,5,0.7,0.7
2025-09-11T0000,2538A,103.7571,29.5664,乐山市,市监测站,,,78,48,57,34,,,81,,26,18,9,8,1.0,0.9
2025-09-11T0000,3361A,103.7311,29.5628,乐山市,理工大学,细颗粒物(PM2.5),78,75,46,57,30,20,,78,60,33,20,6,6,0.9,0.7
2025-09-11T0000,2598A,100.2143,26.8576,丽江市,西南郊,,29,29,17,15,11,44,,66,53,9,6,6,6,1.3,1.2
2025-09-11T0000,2599A,100.2497,26.8802,丽江市,丽江古城,,26,26,24,8,18,49,,70,60,11,11,10,10,0.5,0.5
2025-09-11T0000,2600A,100.2203,26.8906,丽江市,市中心,,28,21,17,19,15,46,,70,57,12,11,11,11,0.5,0.5
2025-09-11T0000,1267A,119.914,28.4514,丽水市,监测站大楼,,12,7,11,3,4,37,,76,51,12,10,4,4,0.5,0.5
2025-09-11T0000,1268A,119.93,28.4586,丽水市,莲都小学,,12,10,13,3,5,37,,78,54,16,10,4,4,0.3,0.3
2025-09-11T0000,1269A,119.879,28.4231,丽水市,余庄前,,17,17,14,3,6,2,,70,28,14,11,5,5,0.4,0.4
2025-09-11T0000,1173A,119.176,34.5885,连云港市,市环境监测站,,27,27,25,12,9,80,,127,103,12,10,6,6,0.5,0.5
2025-09-11T0000,3000A,119.3581,34.6972,连云港市,德源药业,,26,24,33,7,10,81,,122,92,16,19,4,5,0.5,0.6
2025-09-11T0000,3007A,119.178,34.844,连云港市,新城一中,,26,22,34,6,13,81,,132,101,25,19,3,5,0.4,0.5
2025-09-11T0000,3008A,119.3608,34.7519,连云港市,胡沟管理处,,28,19,26,3,8,89,,115,91,16,14,6,6,0.6,0.9
2025-09-11T0000,3009A,119.1478,34.5911,连云港市,矿山设计院,,29,29,25,12,12,83,,121,100,12,12,6,7,0.6,0.6
2025-09-11T0000,3434A,119.2413,34.6539,连云港市,工贸学校,,31,22,25,10,12,97,,132,108,5,6,7,9,0.8,0.9
2025-09-11T0000,3664A,119.4172,34.7341,连云港市,连云街道,,35,14,23,6,11,112,,120,113,2,9,4,5,0.3,0.4
2025-09-11T0000,2571A,102.3431,27.8099,凉山彝族自治州,青龙寺,,33,33,20,12,9,22,,75,50,15,7,4,5,0.6,0.6
2025-09-11T0000,2572A,102.2721,27.8415,凉山彝族自治州,邛海宾馆,,26,26,25,18,15,31,,85,63,25,14,9,12,0.7,0.7
2025-09-11T0000,2573A,102.2625,27.898,凉山彝族自治州,西昌市政府,,46,34,27,32,24,22,,77,55,24,12,10,11,0.7,0.6
2025-09-11T0000,2574A,102.2685,27.8851,凉山彝族自治州,凉山州政府,,36,36,34,25,22,18,,80,55,37,15,9,11,0.8,0.7
2025-09-11T0000,4229A,102.2342,27.8859,凉山彝族自治州,凯乐南路30号,,38,35,29,26,17,7,,69,41,35,21,8,11,0.8,0.7
2025-09-11T0000,2212A,123.2,41.1953,辽阳市,宏伟区,颗粒物(PM10),52,53,45,25,19,37,,142,88,25,19,2,6,0.9,1
2025-09-11T0000,2213A,123.1683,41.2495,辽阳市,新华园,细颗粒物(PM2.5),64,68,45,46,22,45,,151,73,24,24,3,10,0.8,1
2025-09-11T0000,2214A,123.2354,41.2639,辽阳市,滨河路,颗粒物(PM10),55,60,46,25,20,28,,146,57,43,23,5,8,0.8,0.9
2025-09-11T0000,2215A,123.149,41.2991,辽阳市,铁西工业园,细颗粒物(PM2.5),83,102,44,61,20,8,,135,61,34,19,3,7,0.9,1
2025-09-11T0000,2227A,125.1358,42.8845,辽源市,环保局,颗粒物(PM10),51,52,36,7,11,8,,94,41,17,13,9,9,0.5,0.5
2025-09-11T0000,3239A,125.0764,42.9078,辽源市,银鹰制药,,34,34,28,20,15,6,,96,36,32,24,10,15,0.6,0.5
2025-09-11T0000,1625A,115.9848,36.4372,聊城市,区政府,颗粒物(PM10),56,62,46,30,22,88,,146,118,26,16,10,10,0.7,0.6
2025-09-11T0000,2878A,116.0072,36.4343,聊城市,聊大东校,颗粒物(PM10),60,70,50,33,24,64,,148,111,31,17,11,10,0.7,0.7
2025-09-11T0000,3200A,115.9819,36.4978,聊城市,监控中心,颗粒物(PM10),55,59,50,27,21,108,,150,118,20,18,10,10,0.7,0.7
2025-09-11T0000,3513A,116.0445,36.4361,聊城市,九州社区,颗粒物(PM10),61,72,54,31,27,70,,148,113,22,13,6,5,0.4,0.3
2025-09-11T0000,4018A,116.0567,36.4608,聊城市,星美广场,颗粒物(PM10),60,69,54,35,26,78,,141,107,15,13,7,5,0.7,0.6
2025-09-11T0000,2632A,94.3681,29.6376,林芝市,林芝监测站,,,9,9,3,5,,,34,,8,9,5,4,0.6,0.5
2025-09-11T0000,2633A,94.3616,29.6616,林芝市,林芝人民医院,,,,8,,4,,,28,,,5,,5,,0.5
2025-09-11T0000,2603A,100.0781,23.8982,临沧市,市环保局,,33,,17,23,17,11,,43,30,9,7,4,6,0.7,0.6
2025-09-11T0000,2604A,100.0894,23.8822,临沧市,市气象局,,23,,14,16,13,16,,36,28,9,8,9,9,0.5,0.5
2025-09-11T0000,1733A,111.5531,36.0783,临汾市,临钢医院,颗粒物(PM10),62,74,56,24,15,25,,92,63,44,22,5,6,0.9,0.8
2025-09-11T0000,1734A,111.5028,36.0714,临汾市,技工学校,颗粒物(PM10),64,78,62,36,29,14,,94,68,44,18,4,5,0.9,0.8
2025-09-11T0000,1736A,111.5018,36.0855,临汾市,市委,颗粒物(PM10),70,90,66,26,18,24,,98,72,39,22,4,5,0.9,0.8
2025-09-11T0000,3018A,111.505,36.1014,临汾市,唐尧大酒店,颗粒物(PM10),65,79,65,18,19,24,,97,69,33,20,6,7,0.9,0.9
2025-09-11T0000,4244A,111.4879,36.0530,临汾市,启星学校,颗粒物(PM10),65,79,55,32,28,1,,100,67,71,21,4,5,0.9,0.8
2025-09-11T0000,4271A,103.2464,35.6123,临夏回族自治州,滨河东路1号,颗粒物(PM10),65,79,63,27,28,25,,65,36,26,16,8,8,0.3,0.3
2025-09-11T0000,4310A,103.2093,35.5995,临夏回族自治州,新华街21号,颗粒物(PM10),55,60,59,20,30,63,,92,69,18,16,6,7,0.3,0.3
2025-09-11T0000,1618A,118.3429,35.0532,临沂市,沂河小区,,29,29,47,18,25,76,,147,108,16,21,11,9,0.4,0.5
2025-09-11T0000,1619A,118.295,35.0583,临沂市,鲁南制药厂,,27,19,42,17,23,84,,149,114,12,17,10,10,0.6,0.7
2025-09-11T0000,1620A,118.2794,34.9976,临沂市,新光毛纺厂,,23,22,38,15,25,73,,146,107,16,21,7,9,0.3,0.5
2025-09-11T0000,1621A,118.3956,35.0888,临沂市,河东保险公司,,,22,42,6,18,,,150,114,18,23,7,7,0.2,0.4
2025-09-11T0000,3370A,118.3564,35.0215,临沂市,十里堡居委,,27,27,44,9,23,78,,150,112,18,27,11,11,0.3,0.4
2025-09-11T0000,3496A,118.3604,35.1084,临沂市,南坊新区,,27,27,49,3,19,81,,160,120,16,23,9,10,0.4,0.5
2025-09-11T0000,3860A,118.3920,35.0300,临沂市,皇山花园小区,,34,34,50,10,27,71,,153,109,19,27,11,11,0.3,0.4
2025-09-11T0000,1870A,109.4856,24.3895,柳州市,柳东小学,,16,16,18,11,9,44,,81,69,8,7,4,4,0.4,0.4
2025-09-11T0000,1871A,109.4157,24.3277,柳州市,环保监测站,,,,24,,17,32,,75,,11,8,6,7,0.4,0.6
2025-09-11T0000,1872A,109.389,24.341,柳州市,河西水厂,,16,16,23,8,11,39,,72,64,10,9,5,5,0.5,0.6
2025-09-11T0000,1873A,109.4311,24.2921,柳州市,市四中,,,24,27,,11,37,,70,62,13,13,7,7,0.2,0.3
2025-09-11T0000,1874A,109.4006,24.3631,柳州市,市九中,,17,17,25,11,10,41,,73,64,9,9,3,3,0.6,0.6
2025-09-11T0000,1875A,109.4958,24.3134,柳州市,古亭山,,12,8,22,6,12,38,,72,56,9,8,6,5,0.5,0.5
2025-09-11T0000,3402A,109.5422,24.3996,柳州市,市二中,,15,9,27,3,10,46,,80,66,7,12,10,7,0.6,0.7
2025-09-11T0000,2307A,116.5079,31.737,六安市,监测大楼,,19,,27,8,20,58,,75,69,5,10,4,4,0.5,0.5
2025-09-11T0000,2308A,116.4738,31.7643,六安市,皖西学院,,20,,34,6,23,61,,75,71,3,10,3,3,0.3,0.4
2025-09-11T0000,2309A,116.4996,31.7905,六安市,朝阳厂,,18,,26,11,20,55,,71,64,11,17,5,6,0.4,0.5
2025-09-11T0000,2310A,116.5567,31.7886,六安市,开发区,,19,,17,10,16,58,,74,62,6,12,2,2,0.4,0.5
2025-09-11T0000,2576A,104.8,26.5892,六盘水市,窑上,,28,28,35,13,25,42,,88,48,4,5,2,4,0.3,0.4
2025-09-11T0000,2577A,104.83,26.5917,六盘水市,黄土坡,,21,17,27,6,13,66,,93,77,6,11,1,5,0.3,0.5
2025-09-11T0000,2578A,104.89,26.5939,六盘水市,水钢,,50,42,32,35,20,67,,96,79,4,7,2,4,0.3,0.4
2025-09-11T0000,2579A,104.8475,26.5894,六盘水市,民中,,21,13,20,3,12,67,,93,76,5,9,3,5,0.3,0.4
2025-09-11T0000,2580A,104.9544,26.5506,六盘水市,双水,,21,9,22,8,13,66,,90,74,4,7,3,4,0.1,0.1
2025-09-11T0000,2335A,117.0189,25.1181,龙岩市,龙岩师专,,,,,,,,,,,,,,,,
2025-09-11T0000,2336A,117.0217,25.1033,龙岩市,龙岩市监测站,,13,,14,3,8,40,,62,40,3,10,4,9,0.4,0.6
2025-09-11T0000,2337A,117.0258,25.0661,龙岩市,闽西职业技术学院,,12,,22,3,8,38,,55,30,2,9,3,14,0.4,0.5
2025-09-11T0000,2338A,117.0196,25.0306,龙岩市,龙岩学院,,12,6,12,3,8,37,,49,32,2,6,5,5,0.4,0.5
2025-09-11T0000,2665A,105.0822,33.3261,陇南市,汉王镇固水子,,,,,,,,,,,,,,,,
2025-09-11T0000,2885A,104.9339,33.3826,陇南市,滨江中学,,26,26,30,12,13,43,,78,55,3,5,4,5,0.7,0.6
2025-09-11T0000,3247A,104.955,33.371,陇南市,市总工会,,30,30,35,7,10,43,,78,58,5,7,7,7,0.5,0.4
2025-09-11T0000,2487A,111.9589,27.8901,娄底市,电视发射台,,42,42,29,12,12,26,,59,37,5,6,4,4,0.3,0.3
2025-09-11T0000,2488A,111.9975,27.725,娄底市,市监测站,,28,25,26,19,18,46,,78,67,11,9,4,5,0.7,0.6
2025-09-11T0000,2489A,112.0194,27.7314,娄底市,市委党校,,28,27,24,19,19,52,,78,69,9,7,2,2,0.5,0.5
2025-09-11T0000,2490A,111.9561,27.7569,娄底市,涟钢,,35,35,33,19,18,36,,67,56,10,12,4,5,1.1,1.4
2025-09-11T0000,2491A,111.9892,27.7044,娄底市,市政府,,26,23,21,18,17,53,,74,,9,5,5,6,0.9,0.9
2025-09-11T0000,1893A,105.4324,28.9634,泸州市,九狮山,颗粒物(PM10),72,93,56,36,19,15,,89,54,11,13,5,6,0.7,0.5
2025-09-11T0000,1894A,105.4427,28.9063,泸州市,小市上码头,,48,48,54,27,32,22,,76,54,41,22,5,5,0.6,0.5
2025-09-11T0000,1895A,105.4241,28.8573,泸州市,兰田宪桥,,,88,61,49,37,18,,105,68,,20,7,6,0.9,0.7
2025-09-11T0000,1896A,105.4379,28.8833,泸州市,市环监站,细颗粒物(PM2.5),64,70,55,46,37,33,,102,80,48,23,5,4,0.7,0.6
2025-09-11T0000,4272A,105.3689,28.7783,泸州市,纳溪中医医院,细颗粒物(PM2.5),62,54,55,44,40,8,,116,50,43,30,3,3,0.7,0.7
2025-09-11T0000,2183A,111.1406,37.5211,吕梁市,环保局,颗粒物(PM10),58,66,55,29,18,9,,111,72,61,26,3,5,0.8,0.7
2025-09-11T0000,2185A,111.1297,37.5136,吕梁市,自来水公司,,42,42,68,13,16,28,,105,75,31,22,3,7,0.6,0.6
2025-09-11T0000,2867A,111.1283,37.51,吕梁市,马茂庄小学,,43,43,68,10,16,5,,108,68,61,29,4,8,0.7,0.7
2025-09-11T0000,1812A,112.3931,34.6516,洛阳市,市委党校,,,,43,,24,,,79,64,,18,,7,,0.6
2025-09-11T0000,1815A,112.494,34.6886,洛阳市,河南林校,,36,36,47,20,24,69,,88,70,21,23,6,8,0.6,0.6
2025-09-11T0000,1816A,112.3844,34.623,洛阳市,开发区管委会,,25,25,38,15,25,66,,87,70,10,14,4,7,0.6,0.6
2025-09-11T0000,1817A,112.4267,34.6258,洛阳市,市委新办公区,,39,,37,27,29,56,,77,59,13,16,14,10,0.4,0.4
2025-09-11T0000,3340A,112.6005,34.6326,洛阳市,伊滨,,33,29,46,23,29,50,,79,57,20,26,5,6,0.6,0.6
2025-09-11T0000,3341A,112.4951,34.6332,洛阳市,中移产业园,,36,33,45,25,28,56,,76,59,17,24,6,9,0.7,0.7
2025-09-11T0000,3593A,112.5736,34.8993,洛阳市,吉利监测站,,42,36,45,29,27,70,,82,77,11,19,4,5,0.5,0.6
2025-09-11T0000,3635A,112.3677,34.662,洛阳市,河科大西苑校区,,35,35,48,17,18,75,,88,75,15,24,7,9,0.5,0.6
2025-09-11T0000,3636A,112.4388,34.6781,洛阳市,英才小学,,36,36,46,23,26,65,,83,67,16,19,6,8,0.5,0.5
2025-09-11T0000,4214A,112.4600,34.6949,洛阳市,春都路1号院,,27,27,43,18,23,64,,78,65,17,30,8,10,0.4,0.5
2025-09-11T0000,2399A,114.051,33.5699,漯河市,三五一五工厂,,28,22,25,19,17,43,,72,53,13,11,5,6,0.7,0.7
2025-09-11T0000,2400A,114.0055,33.5698,漯河市,漯河大学,,28,24,25,19,16,46,,72,56,13,11,5,5,0.6,0.5
2025-09-11T0000,2401A,114.0138,33.5828,漯河市,市水利局,,28,27,28,19,16,40,,72,52,15,12,5,6,0.7,0.6
2025-09-11T0000,2402A,114.0261,33.5698,漯河市,市广电局,,30,24,24,21,22,53,,74,59,10,10,3,3,0.6,0.6
2025-09-11T0000,3478A,113.9749,33.5664,漯河市,市图书馆,,25,25,23,16,14,53,,72,59,12,11,5,5,0.6,0.5
2025-09-11T0000,4250A,114.0892,33.5882,漯河市,韶山路11号,,26,26,26,14,15,35,,73,43,15,14,4,4,0.6,0.6
2025-09-11T0000,1798A,118.5092,31.6837,马鞍山市,湖东路四小,,33,33,32,17,15,64,,91,77,24,15,7,7,0.5,0.6
2025-09-11T0000,1799A,118.5024,31.6449,马鞍山市,开发区,,37,37,31,15,14,69,,90,76,21,17,11,9,0.8,0.8
2025-09-11T0000,1802A,118.6245,31.7241,马鞍山市,濮塘,,31,25,25,17,16,97,,94,90,11,11,8,8,0.8,0.9
2025-09-11T0000,3633A,118.4918,31.6809,马鞍山市,雨山,,27,27,31,14,15,74,,89,79,22,17,10,10,0.4,0.5
2025-09-11T0000,4191A,118.5274,31.72227,马鞍山市,慈湖高新区,,27,27,31,15,15,84,,89,74,15,18,4,6,0.4,0.5
2025-09-11T0000,1686A,111.0286,21.4688,茂名市,电白南海,,17,17,22,9,10,15,,42,24,20,7,3,3,0.8,0.8
2025-09-11T0000,1687A,110.9294,21.6533,茂名市,茂石化七小,,8,7,15,3,7,23,,36,24,8,9,6,5,0.4,0.6
2025-09-11T0000,1688A,110.9107,21.6687,茂名市,健康路,,9,,9,3,10,26,,44,26,10,10,6,4,0.4,0.5
2025-09-11T0000,1689A,110.8592,21.6828,茂名市,高岭,,19,19,21,3,3,21,,37,21,13,13,10,8,0.6,0.7
2025-09-11T0000,3450A,111.01,21.5165,茂名市,电白水东,,9,6,13,3,5,26,,42,31,11,7,9,5,0.8,0.8
2025-09-11T0000,2539A,104.0308,30.0478,眉山市,黑龙滩水库,,38,36,24,26,17,50,,95,85,13,9,1,3,0.4,0.3
2025-09-11T0000,2540A,103.8416,30.0874,眉山市,气象局,颗粒物(PM10),52,53,46,29,20,31,,89,68,25,17,8,10,0.4,0.3
2025-09-11T0000,3137A,103.8578,30.0744,眉山市,市委党校,,31,31,35,19,16,42,,88,72,22,17,8,10,0.6,0.6
2025-09-11T0000,3148A,103.8291,30.0564,眉山市,区人社局,颗粒物(PM10),52,54,52,27,18,35,,92,76,19,13,13,13,1.0,0.9
2025-09-11T0000,1690A,116.1231,24.3284,梅州市,梅江月梅,,12,,21,8,7,25,,66,44,10,11,8,8,0.5,0.5
2025-09-11T0000,1691A,116.0797,24.2719,梅州市,梅县新城,,8,,19,3,8,24,,55,38,12,9,6,6,0.7,0.7
2025-09-11T0000,1692A,116.1248,24.2654,梅州市,环境监控中心,,12,,20,8,10,26,,52,34,9,11,3,4,0.5,0.5
2025-09-11T0000,3315A,116.1233,24.2991,梅州市,梅龙,,9,6,13,3,11,27,,61,40,8,8,7,8,0.6,0.7
2025-09-11T0000,1878A,104.7778,31.4741,绵阳市,富乐山,,23,21,30,16,17,47,,47,35,12,14,8,8,0.7,0.7
2025-09-11T0000,1880A,104.6697,31.4668,绵阳市,高新区自来水公司,,34,34,39,12,15,35,,59,42,20,25,9,9,0.6,0.6
2025-09-11T0000,1881A,104.7287,31.5075,绵阳市,三水厂,,23,23,39,12,24,36,,64,42,23,22,10,10,0.5,0.6
2025-09-11T0000,3491A,104.69,31.5322,绵阳市,西科大附属小学,,33,33,40,19,21,31,,66,48,27,22,7,8,0.6,0.8
2025-09-11T0000,3492A,104.5648,31.5343,绵阳市,安州区旅游局,,18,17,28,12,16,56,,71,57,10,15,12,12,0.6,0.7
2025-09-11T0000,4226A,104.7651,31.4531,绵阳市,绵阳市气象局,,23,20,33,16,21,55,,55,50,12,20,12,12,0.5,0.6
2025-09-11T0000,1784A,129.61,44.561,牡丹江市,环保大楼,,27,27,24,14,14,24,,60,32,11,17,3,4,0.2,0.3
2025-09-11T0000,1785A,129.6115,44.5782,牡丹江市,文化广场,,43,,27,30,20,7,,63,36,30,19,7,6,0.5,0.4
2025-09-11T0000,1786A,129.5904,44.5963,牡丹江市,第一医院,,46,32,31,32,24,26,,63,29,17,23,8,8,0.2,0.3
2025-09-11T0000,1787A,129.6364,44.6075,牡丹江市,机车工厂,,34,34,31,15,16,7,,61,30,20,18,8,7,0.4,0.4
2025-09-11T0000,1788A,129.6386,44.5462,牡丹江市,第一中学,,29,,24,20,16,10,,60,28,13,15,3,3,0.2,0.3
2025-09-11T0000,2531A,105.0703,29.61,内江市,市监测站,,48,48,28,32,25,36,,128,82,14,12,4,4,0.8,0.8
2025-09-11T0000,2532A,105.0717,29.5947,内江市,东兴区政府,,44,44,25,26,17,42,,119,82,17,14,6,6,0.6,0.6
2025-09-11T0000,2533A,105.0653,29.5817,内江市,内江二中,细颗粒物(PM2.5),52,38,33,36,28,56,,122,92,15,14,4,3,0.8,0.7
2025-09-11T0000,2534A,105.0406,29.5822,内江市,内江日报社,细颗粒物(PM2.5),53,47,36,37,26,42,,121,84,16,18,6,6,0.6,0.6
2025-09-11T0000,2628A,92.0657,31.4846,那曲市,那曲监测站,,30,30,31,11,12,77,,92,79,11,17,4,4,0.5,0.4
2025-09-11T0000,4243A,92.0515,31.4787,那曲市,那曲市委宣传部,,28,10,19,3,8,88,,98,89,4,12,4,4,0.3,0.4
2025-09-11T0000,1290A,115.8931,28.6843,南昌市,省外办,,25,22,19,17,16,30,,69,58,7,4,5,5,0.8,0.8
2025-09-11T0000,1291A,115.8886,28.7003,南昌市,省林业公司,,25,19,14,17,11,32,,86,69,16,8,3,3,0.6,0.6
2025-09-11T0000,1292A,115.8126,28.7442,南昌市,林科所,,15,12,11,7,7,46,,96,62,10,13,5,5,0.5,0.5
2025-09-11T0000,1294A,115.8518,28.687,南昌市,建工学校,,25,25,20,3,2,41,,91,,23,15,7,7,0.8,0.7
2025-09-11T0000,1295A,115.8921,28.6424,南昌市,象湖,,25,25,15,9,11,48,,93,76,17,13,8,9,0.7,0.8
2025-09-11T0000,1296A,115.7423,28.7996,南昌市,武术学校,,16,15,16,11,10,10,,75,36,8,9,8,9,0.6,0.6
2025-09-11T0000,3046A,115.9084,28.6062,南昌市,机电学校,,26,26,22,14,12,50,,90,72,16,14,7,7,0.6,0.5
2025-09-11T0000,3690A,115.9721,28.7031,南昌市,外国语学校,,19,19,17,9,10,45,,84,70,11,12,7,7,0.4,0.4
2025-09-11T0000,4192A,115.9316,28.68677,南昌市,南京东路235号,,24,24,23,12,10,49,,92,77,13,11,10,10,0.8,0.8
2025-09-11T0000,1905A,106.056,30.8064,南充市,西山风景区,,,,,,,,,,,,,,,,
2025-09-11T0000,1906A,106.0789,30.8023,南充市,南充市委,,33,33,29,23,18,24,,55,42,14,14,3,3,0.5,0.5
2025-09-11T0000,1907A,106.1031,30.8217,南充市,南充炼油厂,,29,29,32,18,15,34,,61,49,8,10,5,5,0.2,0.2
2025-09-11T0000,4227A,106.1083,30.7884,南充市,梨树横街98号,,30,30,21,14,15,47,,68,59,6,11,2,2,0.3,0.3
2025-09-11T0000,4304A,106.1172,30.843,南充市,清泉寺北路188号,,35,28,23,24,20,30,,65,55,10,9,4,4,0.3,0.3
2025-09-11T0000,4305A,106.067,30.7616,南充市,同庆路1号,,28,25,18,19,12,28,,55,41,17,18,5,5,0.4,0.4
2025-09-11T0000,1151A,118.8086,32.1065,南京市,迈皋桥,,31,31,24,17,13,68,,110,91,11,15,4,4,0.6,0.5
2025-09-11T0000,1152A,118.7538,32.0551,南京市,草场门,,36,36,33,17,13,74,,108,92,18,19,4,5,0.7,0.7
2025-09-11T0000,1153A,118.7794,32.0745,南京市,山西路,,41,41,33,17,8,85,,119,104,16,20,4,4,0.6,0.6
2025-09-11T0000,1154A,118.7752,32.0023,南京市,中华门,,29,29,23,12,11,78,,107,84,12,14,4,4,0.6,0.5
2025-09-11T0000,1155A,118.8109,32.0309,南京市,瑞金路,,34,34,25,22,13,73,,114,92,20,11,6,6,0.4,0.4
2025-09-11T0000,1156A,118.7997,32.0754,南京市,玄武湖,,36,36,31,15,6,71,,112,96,11,10,4,4,0.5,0.4
2025-09-11T0000,1157A,118.6414,32.0931,南京市,浦口,,27,27,31,13,10,86,,105,92,18,19,7,7,0.5,0.4
2025-09-11T0000,1158A,118.7356,31.9996,南京市,奥体中心,,40,40,35,14,14,95,,124,103,16,18,7,7,0.5,0.5
2025-09-11T0000,1159A,118.9125,32.1028,南京市,仙林大学城,,46,46,35,17,9,78,,122,,11,15,8,9,0.7,0.7
2025-09-11T0000,3422A,118.8436,31.9198,南京市,江宁彩虹桥,,39,30,33,27,14,75,,115,84,22,21,5,5,0.6,0.6
2025-09-11T0000,3427A,118.8554,32.3578,南京市,六合雄州,,38,38,30,12,9,76,,120,92,12,14,6,6,0.5,0.5
2025-09-11T0000,4249A,118.8708,31.3402,南京市,汶溪路181号,,26,22,22,10,13,82,,78,73,13,17,4,6,0.7,0.7
2025-09-11T0000,4312A,119.019,31.6512,南京市,中山西路1号,,29,29,26,18,14,64,,81,71,21,21,4,4,0.5,0.7
2025-09-11T0000,1401A,108.3103,22.7881,南宁市,二十一中,,20,20,17,8,10,42,,61,54,9,6,7,5,0.5,0.5
2025-09-11T0000,1402A,108.3141,22.8528,南宁市,北湖,,20,19,17,14,10,44,,63,54,8,6,4,2,0.6,0.5
2025-09-11T0000,1403A,108.3206,22.8225,南宁市,市监测站,,18,18,15,6,8,42,,61,53,8,6,6,4,0.5,0.5
2025-09-11T0000,1404A,108.3829,22.8037,南宁市,大自然花园,,15,15,17,8,9,43,,59,55,8,5,6,5,0.6,0.5
2025-09-11T0000,1405A,108.4394,22.7904,南宁市,仙葫,,14,12,17,7,8,44,,60,57,7,7,5,3,0.5,0.5
2025-09-11T0000,1406A,108.2397,22.8467,南宁市,区农职院,,20,20,17,8,9,40,,69,53,13,11,8,6,0.3,0.2
2025-09-11T0000,1407A,108.3275,22.735,南宁市,英华嘉园,,16,16,18,8,8,37,,56,49,10,8,3,2,0.4,0.4
2025-09-11T0000,3401A,108.4834,22.7618,南宁市,红星社区,,15,13,17,10,9,40,,59,54,8,7,3,3,0.4,0.4
2025-09-11T0000,4221A,108.2177,22.7774,南宁市,乐贤路16号,,18,18,22,8,10,24,,61,43,25,16,7,5,0.7,0.6
2025-09-11T0000,2331A,118.0966,26.6761,南平市,茫荡山,,,,10,,8,,,76,63,,,,2,,
2025-09-11T0000,2332A,118.1681,26.6369,南平市,南平市监测站,,11,7,15,3,11,34,,78,55,8,11,4,6,0.4,0.5
2025-09-11T0000,2333A,118.1825,26.6489,南平市,南平铝业有限公司,,15,15,18,3,8,35,,80,58,10,10,4,6,0.5,0.5
2025-09-11T0000,2334A,118.1756,26.6272,南平市,南平七中,,8,6,16,3,8,21,,80,51,10,8,3,4,0.4,0.5
2025-09-11T0000,1168A,120.9098,31.9663,南通市,狼山街道,,23,23,21,14,9,63,,121,90,21,12,4,3,0.7,0.6
2025-09-11T0000,1169A,120.86,32.0005,南通市,虹桥,,27,21,19,12,10,85,,123,103,18,10,4,3,0.7,0.6
2025-09-11T0000,1170A,120.87,32.02,南通市,城中,,28,28,25,10,9,82,,117,97,19,13,2,2,0.4,0.4
2025-09-11T0000,1171A,120.94,31.93,南通市,星湖花园,,21,20,19,11,10,66,,108,86,17,11,3,2,0.4,0.4
2025-09-11T0000,1172A,120.81,32.0417,南通市,紫琅学院,,26,20,23,7,6,81,,118,93,16,14,3,4,0.7,0.7
2025-09-11T0000,3291A,121.067,32.062,南通市,通州监测站,,32,17,15,9,6,101,,130,112,6,6,1,1,0.5,0.5
2025-09-11T0000,3432A,120.9348,31.9883,南通市,环境教育馆,,27,27,25,15,11,56,,129,88,29,13,4,4,0.4,0.3
2025-09-11T0000,2404A,112.5224,33.0122,南阳市,瓦房庄,,18,13,32,3,11,56,,69,61,5,7,7,7,0.6,0.6
2025-09-11T0000,2405A,112.5003,32.9735,南阳市,汉画馆,,16,7,28,3,16,49,,64,55,7,10,7,8,0.7,0.7
2025-09-11T0000,2406A,112.5573,33.027,南阳市,气象站,,17,7,21,3,12,54,,70,62,4,6,4,6,0.6,0.6
2025-09-11T0000,2407A,112.5481,32.9689,南阳市,理工学院,,18,11,30,7,7,56,,70,62,6,8,8,8,0.7,0.7
2025-09-11T0000,4008A,112.5234,32.9922,南阳市,卧龙区政府,,17,,27,8,17,53,,66,58,10,11,6,6,0.7,0.7
2025-09-11T0000,1234A,121.8358,29.911,宁波市,区环保大楼,,35,35,26,12,12,80,,117,87,29,27,7,6,0.5,0.5
2025-09-11T0000,1235A,121.56,29.82,宁波市,万里学院,,27,22,18,11,13,85,,131,103,16,15,7,7,0.5,0.6
2025-09-11T0000,1236A,121.713,29.9572,宁波市,龙赛医院,,34,34,25,9,8,92,,124,100,18,21,9,6,0.4,0.4
2025-09-11T0000,1239A,121.633,29.7733,宁波市,钱湖水厂,,19,19,19,12,15,57,,119,84,14,11,6,6,0.6,0.6
2025-09-11T0000,1240A,121.5856,29.8635,宁波市,太古小学,,26,26,21,8,9,77,,120,90,16,15,4,3,0.6,0.6
2025-09-11T0000,1241A,121.524,29.8674,宁波市,市环境监测中心,,25,21,18,8,8,79,,126,96,19,17,7,6,0.6,0.6
2025-09-11T0000,2871A,121.6147,29.9017,宁波市,万里国际学校,,33,33,22,12,10,63,,128,90,31,20,6,5,0.6,0.6
2025-09-11T0000,3710A,121.5594,29.8975,宁波市,白沙活动中心,,23,23,15,11,9,60,,135,96,36,20,10,7,0.6,0.5
2025-09-11T0000,2339A,119.5001,26.6946,宁德市,金涵水库,,,,10,,6,,,48,28,,5,,1,,0.4
2025-09-11T0000,2341A,119.5388,26.6612,宁德市,宁德市监测站,,12,10,16,8,10,25,,85,52,18,12,3,4,0.5,0.5
2025-09-11T0000,3209A,119.5231,26.6562,宁德市,宁德一中,,14,14,18,6,15,33,,81,54,7,8,4,5,0.4,0.4
2025-09-11T0000,2618A,98.8601,25.8567,怒江傈僳族自治州,州监测站,,32,32,29,20,17,16,,67,42,14,9,6,6,0.5,0.5
2025-09-11T0000,2619A,98.8546,25.8417,怒江傈僳族自治州,泸水一中,,29,24,27,20,15,3,,55,28,17,11,4,4,0.6,0.5
2025-09-11T0000,1888A,101.6891,26.571,攀枝花市,弄弄坪,,35,35,48,15,25,29,,96,62,22,19,7,17,0.7,0.9
2025-09-11T0000,1889A,101.5769,26.5928,攀枝花市,河门口,,27,27,42,11,21,38,,91,60,15,14,14,16,1.0,1.1
2025-09-11T0000,1890A,101.7169,26.585,攀枝花市,炳草岗,,46,46,51,22,26,24,,96,61,36,25,13,21,0.8,0.9
2025-09-11T0000,1891A,101.7369,26.5008,攀枝花市,仁和,,24,24,34,15,21,31,,81,50,13,15,8,14,0.6,0.8
2025-09-11T0000,2835A,101.7227,26.567,攀枝花市,四十中小,,37,37,36,22,23,40,,96,65,16,19,16,23,0.9,1.1
2025-09-11T0000,1604A,122.0303,41.1489,盘锦市,开发区,,43,34,22,30,11,75,,135,,27,18,8,9,0.6,0.5
2025-09-11T0000,1605A,122.0485,41.0883,盘锦市,兴隆台,,32,32,24,21,12,59,,141,94,44,28,7,7,0.5,0.4
2025-09-11T0000,1606A,121.8297,41.1028,盘锦市,新生街道,,,,17,,7,,,135,,,16,,5,,0.4
2025-09-11T0000,1832A,113.3257,33.742,平顶山市,新华旅馆,,22,20,44,15,14,54,,74,56,16,15,4,5,0.5,0.5
2025-09-11T0000,1833A,113.2919,33.737,平顶山市,规划设计院,,22,18,32,15,21,50,,70,55,16,15,4,5,0.7,0.7
2025-09-11T0000,1834A,113.182,33.774,平顶山市,平顶山工学院,,15,11,31,9,19,48,,76,61,20,15,5,6,0.5,0.5
2025-09-11T0000,3204A,113.3025,33.73,平顶山市,规划局,,22,22,34,8,14,56,,78,61,15,13,3,5,0.7,0.6
2025-09-11T0000,3594A,112.8867,33.9116,平顶山市,石龙区,,17,14,43,10,24,52,,86,73,13,14,4,5,0.6,0.6
2025-09-11T0000,2656A,106.6692,35.5461,平凉市,聚贤嘉苑,,25,25,41,14,23,68,,81,68,12,13,21,19,0.8,0.8
2025-09-11T0000,2657A,106.7021,35.5307,平凉市,博物馆,,43,43,49,13,18,54,,82,60,16,16,10,10,0.6,0.6
2025-09-11T0000,2347A,114.0997,27.5002,萍乡市,武功山,,10,6,7,3,4,30,,71,55,3,3,11,11,0.4,0.4
2025-09-11T0000,2348A,113.8385,27.6434,萍乡市,中医院,,17,14,16,6,7,53,,86,69,16,13,4,4,1.3,0.7
2025-09-11T0000,2349A,113.8493,27.6253,萍乡市,市政府车库,,27,20,14,3,12,45,,84,70,17,7,11,11,2.7,0.8
2025-09-11T0000,2350A,113.8676,27.6435,萍乡市,市环保局,,17,17,19,10,11,48,,82,70,16,10,8,10,0.7,0.8
2025-09-11T0000,2351A,113.866,27.6198,萍乡市,安源区政府,,18,15,18,10,11,55,,82,68,8,8,9,12,0.5,0.5
2025-09-11T0000,2319A,119.0141,25.4325,莆田市,荔城区仓后路,,18,18,31,8,15,30,,122,48,10,13,7,7,0.6,0.6
2025-09-11T0000,2320A,119.0015,25.4553,莆田市,莆田市监测站,,15,9,26,3,9,45,,124,57,5,10,6,6,0.4,0.5
2025-09-11T0000,2321A,119.1119,25.4561,莆田市,涵江区六中,,13,13,30,6,16,34,,141,59,14,15,6,6,0.4,0.4
2025-09-11T0000,2322A,119.1013,25.3215,莆田市,秀屿区政府,,15,11,28,7,17,46,,156,73,10,16,5,7,0.4,0.4
2025-09-11T0000,2323A,118.981,25.4792,莆田市,东圳水库,,,,18,,11,,,109,66,,7,,4,,0.6
2025-09-11T0000,2392A,115.0312,35.7636,濮阳市,环保局,颗粒物(PM10),52,54,37,27,19,58,,120,92,27,13,4,5,0.7,0.6
2025-09-11T0000,2394A,115.0574,35.7609,濮阳市,油田运输公司,颗粒物(PM10),56,61,41,25,18,58,,127,99,25,12,4,4,0.8,0.8
2025-09-11T0000,3021A,115,35.7668,濮阳市,濮水河管理处,,50,49,39,35,18,15,,111,54,35,17,4,4,0.6,0.6
2025-09-11T0000,4216A,115.0924,35.7686,濮阳市,任丘路479号,颗粒物(PM10),65,80,49,39,20,49,,121,92,27,13,5,5,0.7,0.6
2025-09-11T0000,2601A,100.98,22.7633,普洱市,市环保局,,28,28,22,19,16,15,,43,34,5,5,6,6,0.5,0.6
2025-09-11T0000,2602A,100.9817,22.8322,普洱市,普洱第二中学,,26,26,26,7,12,14,,49,35,6,7,6,6,0.5,0.5
2025-09-11T0000,2262A,131.0518,45.8751,七台河市,新一中,,10,6,11,3,6,7,,60,21,12,13,10,9,1.0,0.9
2025-09-11T0000,3345A,131.0577,45.7879,七台河市,中波台,,12,11,20,3,6,1,,41,13,23,22,8,7,0.7,0.6
2025-09-11T0000,3637A,131.0176,45.7761,七台河市,人民广场,,28,28,23,14,11,12,,57,22,22,18,12,11,0.6,0.6
2025-09-11T0000,3684A,130.8781,45.8222,七台河市,新建矿广场,,20,,19,14,11,5,,51,20,20,17,11,11,0.2,0.3
2025-09-11T0000,1779A,123.9305,47.3636,齐齐哈尔市,安居小区,,35,35,28,15,11,4,,39,14,32,15,3,4,0.7,0.5
2025-09-11T0000,1780A,123.9488,47.3386,齐齐哈尔市,中心广场,,42,42,15,17,3,5,,42,24,40,14,5,5,0.6,0.4
2025-09-11T0000,1781A,123.9483,47.3227,齐齐哈尔市,农牧车辆厂,,46,46,24,21,8,2,,43,18,29,14,6,4,1.0,0.5
2025-09-11T0000,1783A,123.945,47.2988,齐齐哈尔市,市环境监测站,,19,19,16,11,6,29,,43,22,13,12,5,6,0.3,0.3
2025-09-11T0000,3662A,123.6333,47.2075,齐齐哈尔市,富区青少年活动中心,,25,25,18,14,5,29,,46,36,11,7,4,4,0.3,0.3
2025-09-11T0000,2591A,107.9783,26.5747,黔东南苗族侗族自治州,市环境监测站,,19,,10,13,13,19,,47,24,13,9,2,2,0.6,0.4
2025-09-11T0000,2881A,107.8908,26.5311,黔东南苗族侗族自治州,凯里学院,,10,,3,7,6,14,,57,41,17,9,6,4,0.5,0.3
2025-09-11T0000,2593A,107.5228,26.2403,黔南布依族苗族自治州,小围寨,,9,9,3,3,1,18,,47,30,5,4,1,2,0.3,0.4
2025-09-11T0000,3538A,107.5175,26.2978,黔南布依族苗族自治州,沙坝,,22,22,7,3,1,18,,46,28,6,6,3,3,0.1,0.3
2025-09-11T0000,2589A,104.9022,25.0925,黔西南布依族苗族自治州,场坝街,,13,13,15,3,6,41,,68,46,4,6,5,5,0.4,0.4
2025-09-11T0000,2590A,104.8811,25.0992,黔西南布依族苗族自治州,坪东大道,,16,16,19,3,7,42,,65,42,2,6,2,2,0.5,0.5
2025-09-11T0000,2502A,108.6236,21.9667,钦州市,市环保站,,17,17,12,3,4,28,,55,46,14,11,4,3,0.4,0.4
2025-09-11T0000,2503A,108.6549,21.9481,钦州市,沙埠小学,,16,16,18,8,7,18,,56,41,19,11,4,2,0.5,0.5
2025-09-11T0000,2504A,108.5989,21.7431,钦州市,港区一小,,39,39,21,6,5,28,,51,42,17,13,4,4,0.6,0.7
2025-09-11T0000,3404A,108.5959,21.9633,钦州市,北职校,,33,33,17,11,7,32,,53,42,9,11,3,4,0.5,0.6
2025-09-11T0000,1043A,119.7493,40.0116,秦皇岛市,第一关,二氧化氮,56,57,39,20,19,20,,161,73,111,48,6,6,0.6,0.4
2025-09-11T0000,1044A,119.5897,39.9499,秦皇岛市,监测站,颗粒物(PM10),53,56,43,18,11,26,,162,100,90,31,7,7,0.7,0.5
2025-09-11T0000,1046A,119.5251,39.9041,秦皇岛市,建设大厦,颗粒物(PM10),69,88,45,21,9,6,,157,88,76,26,6,6,0.8,0.5
2025-09-11T0000,3132A,119.610547,39.943889,秦皇岛市,文明里,颗粒物(PM10),61,72,41,25,13,38,,157,112,79,27,8,8,0.6,0.4
2025-09-11T0000,4198A,119.5090,39.8253,秦皇岛市,北戴河轮滑馆,颗粒物(PM10),52,53,40,19,13,77,,166,139,12,9,2,3,0.5,0.5
2025-09-11T0000,1307A,120.6659,36.2403,青岛市,仰口,,35,20,37,9,21,112,,140,125,10,9,11,11,0.6,0.7
2025-09-11T0000,1310A,120.4134,36.0658,青岛市,市南区东部子站,,42,19,42,9,24,133,,178,148,2,11,7,8,0.3,0.4
2025-09-11T0000,1311A,120.3664,36.1032,青岛市,四方区子站,,35,34,63,14,29,112,,168,142,3,13,4,5,0.2,0.4
2025-09-11T0000,1312A,120.2994,36.054,青岛市,市南区西部子站,,34,17,48,7,24,107,,154,122,17,31,6,7,0.5,0.7
2025-09-11T0000,1313A,120.4581,36.0858,青岛市,崂山区子站,,36,19,40,7,22,113,,171,146,6,9,8,9,0.2,0.3
2025-09-11T0000,1315A,120.3999,36.3083,青岛市,城阳区子站,,32,27,49,12,22,102,,194,140,14,20,3,4,0.4,0.5
2025-09-11T0000,1966A,120.0405,35.8735,青岛市,黄岛区4号,,,,,,,,,,,,,,,,
2025-09-11T0000,3362A,120.5014,36.4034,青岛市,即墨2号,,38,26,45,13,23,119,,164,153,9,12,4,4,0.2,0.4
2025-09-11T0000,3642A,120.3503,36.0736,青岛市,市北区南部,,35,25,44,7,23,112,,150,133,4,13,5,6,0.6,0.8
2025-09-11T0000,3643A,120.3948,36.1805,青岛市,李沧区北部,,29,22,45,19,28,92,,156,126,15,22,5,6,0.3,0.5
2025-09-11T0000,4290A,120.1969,35.9546,青岛市,珠江路669号,,39,19,37,12,24,124,,158,138,3,13,6,7,0.3,0.5
2025-09-11T0000,1702A,113.0426,23.691,清远市,环保大楼,,26,26,22,9,11,28,,69,33,11,16,14,18,0.5,0.6
2025-09-11T0000,1703A,113.0208,23.7106,清远市,凤城街办,,18,18,21,10,11,27,,70,31,15,18,16,8,0.4,0.5
2025-09-11T0000,3025A,113.0477,23.6344,清远市,技师学院,,,18,24,10,11,18,,73,,22,19,13,9,,0.4
2025-09-11T0000,3318A,112.9903,23.7403,清远市,清新太和,,20,20,22,8,10,14,,75,25,16,17,4,4,0.5,0.5
2025-09-11T0000,3455A,113.076,23.7198,清远市,清城东城,,14,14,19,3,12,24,,67,32,14,14,14,8,0.7,0.7
2025-09-11T0000,2661A,107.6325,35.7357,庆阳市,庆阳五中,,24,24,28,14,13,63,,106,64,4,7,7,7,0.4,0.4
2025-09-11T0000,2662A,107.6364,35.7067,庆阳市,市环保局,,33,27,21,23,18,68,,104,68,5,7,3,3,0.6,0.6
2025-09-11T0000,1916A,103.7897,25.5035,曲靖市,环境监测站,,,32,25,10,13,,,86,70,9,12,5,6,0.4,0.5
2025-09-11T0000,1917A,103.8,25.5364,曲靖市,烟厂办公区,,24,24,22,12,14,47,,86,65,7,8,4,4,0.7,0.7
2025-09-11T0000,3376A,103.7947,25.462,曲靖市,南苑二区,,17,11,20,10,13,52,,88,66,5,8,4,4,0.6,0.7
2025-09-11T0000,3377A,103.7444,25.5261,曲靖市,曲靖师范学院,,31,31,20,14,14,42,,92,66,10,9,1,2,0.4,0.4
2025-09-11T0000,1264A,118.8692,28.9398,衢州市,环保大楼,,15,15,18,8,10,34,,91,58,14,10,4,4,0.3,0.3
2025-09-11T0000,1265A,118.8709,28.9666,衢州市,实验学校,,18,18,17,8,9,28,,93,59,24,12,4,4,0.3,0.3
2025-09-11T0000,1266A,118.8621,28.9808,衢州市,衢州学院,,18,18,15,11,9,34,,87,52,22,14,4,4,0.3,0.3
2025-09-11T0000,1611A,118.5819,24.9117,泉州市,涂山街,,15,10,33,10,16,47,,129,62,11,21,2,6,0.4,0.4
2025-09-11T0000,1612A,118.5972,24.8978,泉州市,津头埔,,15,10,30,7,15,45,,128,66,10,16,3,6,0.4,0.4
2025-09-11T0000,1613A,118.6663,24.9424,泉州市,万安,,17,17,31,8,15,39,,118,57,15,19,2,4,0.4,0.5
2025-09-11T0000,1614A,118.6117,24.9604,泉州市,清源山,,,,28,,12,,,121,80,,14,,3,,0.3
2025-09-11T0000,3529A,118.6333,24.9264,泉州市,城华南路,,16,13,29,6,15,51,,118,64,6,13,2,5,0.3,0.4
2025-09-11T0000,2626A,88.8876,29.2718,日喀则市,日喀则监测站,,24,14,6,3,1,74,,97,81,9,7,12,12,0.3,0.3
2025-09-11T0000,3726A,88.8781,29.2426,日喀则市,林业技术推广中心,,23,9,6,3,0,71,,100,82,3,3,6,6,0.4,0.4
2025-09-11T0000,1659A,119.471,35.4209,日照市,监测站,,30,17,33,12,18,96,,132,114,8,28,5,8,0.5,0.7
2025-09-11T0000,1660A,119.523,35.4216,日照市,市政府广场,,40,14,30,12,16,127,,145,131,4,24,5,5,0.6,0.7
2025-09-11T0000,1661A,119.5587,35.4044,日照市,港务局,,42,22,31,21,28,133,,146,133,2,20,3,4,0.6,0.7
2025-09-11T0000,3507A,119.5328,35.4625,日照市,职业技术学院,,33,29,30,9,13,105,,146,118,5,12,4,5,0.6,0.7
2025-09-11T0000,3604A,119.3266,35.1044,日照市,岚山环保分局,,36,14,31,3,9,114,,138,114,10,14,8,10,0.5,0.7
2025-09-11T0000,1835A,111.1922,34.7752,三门峡市,市政府,,50,46,37,35,22,68,,91,79,10,10,6,7,0.5,0.4
2025-09-11T0000,1836A,111.1587,34.7942,三门峡市,开发区,颗粒物(PM10),56,62,48,38,27,60,,84,73,16,14,4,6,0.5,0.5
2025-09-11T0000,1838A,111.143,34.7955,三门峡市,风景区,,37,37,40,24,21,68,,91,81,9,10,4,5,0.6,0.6
2025-09-11T0000,3039A,111.1911,34.7829,三门峡市,三门峡市第一小学,,43,43,40,30,22,68,,86,78,7,8,5,7,0.6,0.6
2025-09-11T0000,3598A,111.1,34.7167,三门峡市,富达温泉假日酒店,,43,34,34,30,24,70,,83,77,9,10,4,6,0.7,0.6
2025-09-11T0000,2324A,117.6211,26.2625,三明市,三钢,,10,8,18,6,14,32,,63,46,10,15,1,11,0.4,1
2025-09-11T0000,2325A,117.635,26.2714,三明市,三明二中,,11,,28,3,12,35,,63,46,4,10,2,6,0.5,0.7
2025-09-11T0000,2326A,117.6028,26.2378,三明市,三元区政府,,14,9,17,3,9,43,,70,52,5,11,2,5,0.2,0.3
2025-09-11T0000,2327A,117.7275,26.3108,三明市,洋溪,,,,14,,7,,,82,57,,9,,5,,0.9
2025-09-11T0000,1876A,109.5078,18.2489,三亚市,河东子站,,17,17,21,11,10,36,,47,42,7,11,2,2,0.5,0.6
2025-09-11T0000,1877A,109.4964,18.2681,三亚市,河西子站,,20,20,17,8,7,38,,44,40,4,9,3,3,0.5,0.5
2025-09-11T0000,3540A,109.7348,18.3443,三亚市,君悦子站,,15,,9,3,4,45,,58,51,2,6,3,3,0.4,0.4
2025-09-11T0000,2624A,91.7608,29.2313,山南市,山南监测站,,22,6,6,3,4,69,,72,70,5,5,3,3,0.2,0.2
2025-09-11T0000,2625A,91.7706,29.2436,山南市,山南人民医院,,22,9,8,6,5,70,,72,71,4,4,3,3,0.3,0.3
2025-09-11T0000,1674A,116.6794,23.3667,汕头市,金平子站,,13,13,22,6,9,28,,73,39,16,14,2,2,0.5,0.6
2025-09-11T0000,1675A,116.7244,23.3633,汕头市,龙湖子站,,11,6,16,3,6,34,,67,39,8,9,7,7,0.6,0.6
2025-09-11T0000,1676A,116.7258,23.2775,汕头市,濠江子站,,16,16,23,11,9,29,,70,41,9,11,5,6,0.7,0.7
2025-09-11T0000,1677A,116.7519,23.4714,汕头市,澄海子站,,28,28,22,7,10,29,,82,37,15,12,5,5,0.7,0.7
2025-09-11T0000,1678A,116.6092,23.2539,汕头市,潮阳子站,,12,12,16,6,8,38,,69,44,4,4,5,5,0.5,0.5
2025-09-11T0000,3444A,116.454,23.2684,汕头市,潮南峡山,,21,21,18,10,11,26,,75,36,9,8,6,6,0.6,0.6
2025-09-11T0000,3624A,116.4069,23.2533,汕头市,潮南子站,,19,19,21,12,14,31,,61,38,7,8,4,4,0.8,0.7
2025-09-11T0000,1693A,115.3653,22.775,汕尾市,市环保局,,13,6,13,3,6,40,,57,51,8,8,3,3,0.4,0.4
2025-09-11T0000,1694A,115.3706,22.7898,汕尾市,市政府,,13,6,11,3,3,40,,55,50,7,7,4,4,0.4,0.4
2025-09-11T0000,1695A,115.3622,22.7925,汕尾市,新城中学,,13,7,14,6,6,40,,58,52,8,7,5,5,0.4,0.4
2025-09-11T0000,2645A,109.9154,33.8715,商洛市,监测站,,32,32,21,11,9,16,,65,42,27,14,4,5,0.6,0.5
2025-09-11T0000,3045A,109.9643,33.8471,商洛市,商州区中学,,26,26,20,13,11,13,,57,33,28,17,8,7,0.5,0.4
2025-09-11T0000,2408A,115.6702,34.4285,商丘市,环境监测站,颗粒物(PM10),53,55,35,21,13,51,,118,78,24,16,4,3,0.5,0.6
2025-09-11T0000,2409A,115.6458,34.4045,商丘市,粮食局,,48,48,30,12,8,71,,117,89,15,13,5,5,0.3,0.4
2025-09-11T0000,2410A,115.6293,34.3948,商丘市,睢阳区环保局,,44,44,36,17,15,75,,114,90,10,9,5,5,0.3,0.4
2025-09-11T0000,3171A,115.6071,34.4465,商丘市,梁园区档案局,,48,48,31,22,16,67,,115,86,20,14,7,6,0.5,0.5
2025-09-11T0000,1141A,121.4,31.238,上海市,普陀,,33,29,26,13,10,103,,117,108,13,16,5,6,0.5,0.5
2025-09-11T0000,1142A,121.478,31.2036,上海市,十五厂,,35,28,26,12,12,109,,121,114,10,14,8,8,0.8,0.8
2025-09-11T0000,1143A,121.467,31.3008,上海市,虹口,,34,34,25,17,13,92,,106,101,13,13,6,6,0.2,0.3
2025-09-11T0000,1147A,121.425,31.2261,上海市,静安监测站,,36,28,25,12,12,115,,124,116,12,15,4,4,0.4,0.4
2025-09-11T0000,1148A,121.703,31.1907,上海市,浦东川沙,,41,41,25,15,10,81,,108,96,16,14,7,7,0.6,0.6
2025-09-11T0000,1149A,121.533,31.2284,上海市,浦东新区监测站,,,,22,,13,105,,118,114,12,13,5,4,0.5,0.7
2025-09-11T0000,1150A,121.577,31.2071,上海市,浦东张江,,34,32,25,19,11,106,,128,117,20,18,6,6,0.7,0.7
2025-09-11T0000,3265A,121.4316,31.3322,上海市,宝山庙行,,34,34,27,14,11,87,,113,101,22,17,8,8,0.5,0.4
2025-09-11T0000,3266A,121.8791,31.4662,上海市,崇明上实东滩,,25,20,18,12,10,78,,124,95,4,5,4,4,0.4,0.3
2025-09-11T0000,3268A,121.3162,31.2838,上海市,嘉定南翔,,29,29,25,13,13,81,,108,94,22,22,4,4,0.3,0.3
2025-09-11T0000,3269A,121.3359,30.7456,上海市,金山新城,,,34,24,16,15,55,,116,89,11,19,5,4,,0.8
2025-09-11T0000,3270A,121.4996,31.0739,上海市,闵行浦江,,31,31,26,14,10,96,,123,111,12,12,4,4,1.1,1
2025-09-11T0000,3271A,121.2886,31.1663,上海市,青浦徐泾,,33,30,23,15,12,103,,126,111,14,17,7,7,0.6,0.6
