timepoint,stationcode,longitude,latitude,area,positionname,primarypollutant,aqi,pm10,pm10_24h,pm2_5,pm2_5_24h,o3,o3_24h,o3_8h,o3_8h_24h,no2,no2_24h,so2,so2_24h,co,co_24h
2025-09-11T1500,2566A,102.1879,31.914,阿坝藏族羌族自治州,州农科所,,16,16,19,7,7,51,,37,37,9,8,2,3,0.4,0.3
2025-09-11T1500,2568A,102.2502,31.8896,阿坝藏族羌族自治州,马师校,,17,8,15,6,8,53,,34,34,5,7,8,8,0.5,0.6
2025-09-11T1500,3994A,102.2165,31.9024,阿坝藏族羌族自治州,马尔康中学西区,,19,13,19,13,12,57,,38,38,3,5,9,9,0.5,0.5
2025-09-11T1500,2695A,80.292,41.1694,阿克苏地区,电视台,颗粒物(PM10),66,81,106,36,36,108,,69,69,3,11,5,5,0.7,0.8
2025-09-11T1500,2696A,80.2613,41.1551,阿克苏地区,艺术中心,颗粒物(PM10),80,109,106,33,41,109,,66,66,1,17,5,4,0.4,0.5
2025-09-11T1500,2204A,105.6467,38.8363,阿拉善盟,西城区西花园,颗粒物(PM10),81,111,48,32,21,82,,55,55,13,15,15,10,1.2,0.9
2025-09-11T1500,2205A,105.6985,38.8411,阿拉善盟,蒙二幼,颗粒物(PM10),119,187,53,42,19,140,,101,101,7,6,13,9,0.6,0.4
2025-09-11T1500,2206A,105.724,38.8516,阿拉善盟,环保局新楼,颗粒物(PM10),66,82,45,34,20,140,,105,105,8,5,12,9,0.7,0.5
2025-09-11T1500,2708A,88.1264,47.8517,阿勒泰地区,市站,,28,28,27,8,7,66,,53,52,12,12,3,3,0.3,0.5
2025-09-11T1500,2630A,80.1161,32.5,阿里地区,阿里监测站,,36,6,3,3,3,115,,80,80,4,12,4,5,0.2,0.3
2025-09-11T1500,3192A,80.0903,32.5028,阿里地区,阿里藏医院,,38,13,15,3,2,120,,,,4,6,6,6,0.1,0.1
2025-09-11T1500,2642A,109.0318,32.6537,安康市,香溪洞,,14,8,18,6,8,43,,46,44,11,8,6,6,0.6,0.5
2025-09-11T1500,2644A,109.0072,32.6975,安康市,汉滨区检察院,,18,18,30,10,16,37,,33,33,9,10,3,4,0.7,0.6
2025-09-11T1500,4054A,109.0325,32.6913,安康市,市邮政管理局,,14,12,24,9,11,44,,42,42,11,11,4,5,0.8,0.7
2025-09-11T1500,2291A,117.0809,30.5177,安庆市,环科院,,33,19,16,10,6,105,,72,72,3,9,6,8,0.6,0.7
2025-09-11T1500,2292A,117.0331,30.5119,安庆市,马山宾馆,,30,13,16,7,4,94,,63,63,7,13,4,5,0.7,0.9
2025-09-11T1500,2294A,116.9896,30.6145,安庆市,安庆大学,,34,15,20,7,6,107,,77,77,6,12,5,5,0.4,0.5
2025-09-11T1500,3173A,117.0598,30.5351,安庆市,市人大,,32,11,17,7,5,102,,73,73,5,14,5,7,0.5,0.6
2025-09-11T1500,3122A,105.9606,26.2611,安顺市,伍家关,,20,11,13,8,7,64,,60,56,2,3,6,6,0.5,0.5
2025-09-11T1500,3123A,105.9408,26.2431,安顺市,凤凰山,,20,14,15,8,10,63,,61,57,3,4,6,7,0.4,0.4
2025-09-11T1500,3124A,105.9439,26.2564,安顺市,金钟山,,20,10,12,9,8,62,,60,56,2,3,6,6,0.5,0.6
2025-09-11T1500,3125A,105.8983,26.2481,安顺市,娄家坡,,19,13,13,12,9,60,,61,56,2,3,5,5,0.5,0.5
2025-09-11T1500,1818A,114.4839,36.0621,安阳市,棉研所,,,,,,,,,,,,,,,,
2025-09-11T1500,1819A,114.3551,36.1017,安阳市,红庙街,,35,34,39,24,15,106,,77,77,10,16,5,5,0.3,0.3
2025-09-11T1500,1820A,114.361,36.0681,安阳市,银杏小区,,36,36,40,23,21,102,,78,78,14,18,7,7,0.5,0.5
2025-09-11T1500,3141A,114.3922,36.0878,安阳市,信访局,,49,49,45,28,19,104,,78,78,12,17,6,6,0.6,0.6
2025-09-11T1500,3669A,114.4705,36.0637,安阳市,左辅环卫站,颗粒物(PM10),59,67,48,32,27,94,,69,69,14,21,6,6,0.5,0.7
2025-09-11T1500,3703A,114.2917,36.0949,安阳市,安钢职工学校,,,42,36,16,20,93,,73,73,8,14,4,7,,0.5
2025-09-11T1500,1748A,123.044,41.1196,鞍山市,深沟寺,臭氧1小时,58,46,35,29,19,166,,144,144,10,12,11,8,1.0,0.9
2025-09-11T1500,1749A,123.011,41.0931,鞍山市,太阳城,,50,45,38,24,21,158,,161,161,17,12,10,8,0.8,0.8
2025-09-11T1500,1750A,123.0485,41.1442,鞍山市,太平,颗粒物(PM10),55,59,49,30,23,163,,143,143,12,16,12,9,0.9,1
2025-09-11T1500,1751A,122.9642,41.0971,鞍山市,铁西三道街,颗粒物(PM10),56,62,58,28,27,159,,140,140,13,29,11,8,0.8,1
2025-09-11T1500,1753A,123.022,41.0821,鞍山市,明达新区,,48,48,39,26,21,148,,136,136,11,14,11,9,0.8,0.9
2025-09-11T1500,1754A,123.1289,41.0228,鞍山市,千山,,,,25,,17,,,88,,,4,,4,,0.5
2025-09-11T1500,4201A,122.9446,41.0826,鞍山市,兴盛南路290号,臭氧1小时,57,62,62,26,24,165,,140,140,14,38,12,9,0.8,1
2025-09-11T1500,2195A,107.4212,40.761,巴彦淖尔市,附二中,颗粒物(PM10),59,67,78,34,31,59,,41,41,18,26,12,14,0.6,0.7
2025-09-11T1500,2196A,107.37,40.7372,巴彦淖尔市,市环保大楼,颗粒物(PM10),73,95,82,22,28,57,,30,30,22,30,11,11,0.6,0.7
2025-09-11T1500,1956A,86.1472,41.7538,巴音郭楞蒙古自治州,孔雀公园,,48,48,53,18,22,102,,99,87,2,8,5,5,0.2,0.3
2025-09-11T1500,1957A,86.1972,41.7166,巴音郭楞蒙古自治州,棉纺厂,颗粒物(PM10),57,63,66,12,15,111,,100,100,4,6,4,4,0.2,0.2
2025-09-11T1500,1958A,86.2357,41.7173,巴音郭楞蒙古自治州,经济开发区,,50,50,45,14,13,108,,101,101,4,3,5,5,0.2,0.2
2025-09-11T1500,2914A,106.7677,31.8794,巴中市,苏山坪,,13,13,13,8,7,27,,30,27,4,3,2,3,0.4,0.5
2025-09-11T1500,3181A,106.7768,31.8526,巴中市,市五中,,17,17,19,9,10,28,,23,23,9,8,7,6,0.7,0.6
2025-09-11T1500,3183A,106.7418,31.8654,巴中市,圣泉水务公司,,13,13,14,7,13,25,,19,19,6,7,6,6,0.6,0.6
2025-09-11T1500,3616A,106.7616,31.8344,巴中市,市中心医院,,16,16,20,8,7,27,,22,22,10,13,7,7,0.6,0.6
2025-09-11T1500,2235A,122.7911,45.6077,白城市,洮北区环保局,,39,22,21,9,9,122,,85,85,5,5,4,4,0.4,0.3
2025-09-11T1500,2236A,122.8738,45.5725,白城市,市环保局,,42,31,22,16,9,133,,87,87,4,15,4,4,0.5,0.4
2025-09-11T1500,2231A,126.4219,41.9171,白山市,喜丰,,32,31,44,8,15,102,,61,61,4,15,7,7,0.6,0.7
2025-09-11T1500,2232A,126.4077,41.9419,白山市,环保局,,34,33,26,18,17,107,,77,77,7,12,6,7,0.6,0.5
2025-09-11T1500,2647A,104.1724,36.5446,白银市,第三小学,,42,42,47,17,19,112,,79,79,10,15,15,23,0.5,0.7
2025-09-11T1500,2648A,104.1465,36.5482,白银市,动力公司,,37,36,46,18,20,118,,80,80,6,15,18,15,0.5,0.6
2025-09-11T1500,2512A,106.6103,23.9011,百色市,市监测站,,28,25,39,14,20,87,,58,58,7,15,9,11,0.4,0.7
2025-09-11T1500,2513A,106.6538,23.8859,百色市,市中心血站,,30,30,41,11,21,78,,57,57,9,19,7,9,0.5,0.8
2025-09-11T1500,3406A,106.6085,23.8798,百色市,祈福高中,颗粒物(PM10),52,53,44,14,25,82,,51,51,9,19,13,9,0.5,0.7
2025-09-11T1500,2270A,117.396,32.939,蚌埠市,工人疗养院,,30,19,31,7,12,94,,64,64,2,11,4,5,0.3,0.4
2025-09-11T1500,2271A,117.3605,32.9427,蚌埠市,百货大楼,,28,12,25,11,11,87,,59,59,8,15,7,7,0.4,0.6
2025-09-11T1500,2273A,117.4185,32.8911,蚌埠市,蚌埠学院,,26,24,24,13,13,81,,67,60,16,10,7,6,0.3,0.4
2025-09-11T1500,2274A,117.3533,32.9673,蚌埠市,淮上区政府,,28,17,27,10,13,88,,73,70,9,10,5,6,0.4,0.5
2025-09-11T1500,2275A,117.3145,32.8977,蚌埠市,高新区,,25,17,24,10,12,80,,66,58,15,13,7,6,0.4,0.5
2025-09-11T1500,3715A,117.3092,32.9314,蚌埠市,蚌埠田家炳中学,,27,21,26,7,11,86,,65,60,8,14,4,6,0.3,0.4
2025-09-11T1500,1585A,109.8756,40.6532,包头市,市环境监测站,,35,31,38,22,15,111,,68,66,12,21,8,9,0.5,0.5
2025-09-11T1500,1587A,109.9991,40.5842,包头市,包头八中,,,39,45,20,21,116,,77,71,,19,5,11,0.5,0.6
2025-09-11T1500,1588A,109.8538,40.6821,包头市,青山宾馆,,40,40,37,26,23,106,,68,65,19,23,8,8,0.7,0.7
2025-09-11T1500,1589A,109.8642,40.6288,包头市,惠龙物流,,37,37,38,20,16,117,,71,69,9,16,7,9,0.6,0.5
2025-09-11T1500,1590A,110.0377,40.5546,包头市,东河鸿龙湾,,42,42,43,14,19,125,,84,84,8,20,8,16,0.7,1
2025-09-11T1500,3283A,109.9154,40.5685,包头市,滨河大厦,,40,40,37,16,16,128,,80,80,8,17,5,7,0.6,0.6
2025-09-11T1500,3419A,109.9447,40.6261,包头市,包头市委党校,,48,48,38,21,15,123,,81,74,11,19,8,12,0.7,0.7
2025-09-11T1500,3683A,109.8331,40.6576,包头市,昆区政府,,44,44,41,25,21,117,,79,69,13,18,8,9,0.7,0.7
2025-09-11T1500,1930A,107.185,34.3063,宝鸡市,庙沟村,,16,13,28,9,17,51,,50,43,11,13,4,4,0.6,0.6
2025-09-11T1500,1931A,107.0708,34.3017,宝鸡市,竹园沟,,17,17,29,10,22,51,,43,43,11,11,8,8,0.5,0.5
2025-09-11T1500,1932A,107.1906,34.3672,宝鸡市,三陆医院,,14,11,36,7,24,42,,58,40,11,13,6,6,0.8,0.8
2025-09-11T1500,1933A,107.1431,34.3547,宝鸡市,监测站,,21,21,37,11,24,44,,61,43,12,12,4,4,0.8,0.7
2025-09-11T1500,1934A,107.1186,34.3739,宝鸡市,技工学校,,20,19,36,14,26,41,,54,38,10,13,6,6,0.6,0.6
2025-09-11T1500,1936A,107.2058,34.3497,宝鸡市,文理学院,,17,17,34,11,25,44,,63,44,11,11,7,7,0.7,0.7
2025-09-11T1500,1937A,107.2386,34.3622,宝鸡市,三迪小学,,18,17,33,12,34,43,,58,40,13,15,5,5,0.7,0.7
2025-09-11T1500,4308A,107.3898,34.3601,宝鸡市,陈仓区北开路21号,,16,,32,7,21,50,,54,43,6,11,5,5,0.5,0.5
2025-09-11T1500,1051A,115.493,38.8632,保定市,游泳馆,臭氧1小时,59,46,55,28,28,167,,132,132,9,22,2,3,0.3,0.3
2025-09-11T1500,1052A,115.5213,38.8959,保定市,华电二区,,,45,61,16,27,164,,136,136,,21,2,3,0.0,0.2
2025-09-11T1500,1053A,115.4713,38.9108,保定市,接待中心,,47,45,54,24,31,148,,123,123,2,17,3,4,0.2,0.5
2025-09-11T1500,1054A,115.4612,38.8416,保定市,地表水厂,颗粒物(PM10),53,56,71,18,21,159,,124,124,10,23,6,7,0.3,0.4
2025-09-11T1500,3581A,115.31981,38.95208,保定市,满城区生态环境分局,颗粒物(PM10),51,51,72,24,33,156,,120,120,8,23,1,2,0.3,0.4
2025-09-11T1500,3582A,115.47694,38.76408,保定市,清苑区第二中学,颗粒物(PM10),60,70,78,28,28,160,,131,131,2,18,2,3,0.4,0.4
2025-09-11T1500,3583A,115.62909,39.02311,保定市,徐水物探局,臭氧1小时,63,62,80,30,49,170,,143,143,10,32,4,4,0.2,0.5
2025-09-11T1500,4004A,115.4202,38.8656,保定市,双鹰农机,,50,49,60,13,27,159,,126,126,6,21,4,4,0.3,0.3
2025-09-11T1500,4034A,115.5150,38.8590,保定市,植保所站,,,57,70,21,34,166,,127,127,,29,7,7,0.5,0.6
2025-09-11T1500,2594A,99.1678,25.1081,保山市,市环境监测站,,20,,19,12,20,61,,51,51,4,7,7,7,0.3,0.4
2025-09-11T1500,2595A,99.1711,25.1328,保山市,市环保局,,21,9,19,6,10,66,,58,58,2,4,6,6,0.5,0.4
2025-09-11T1500,1866A,109.2262,21.588,北海市,牛尾岭水库,,15,9,14,6,6,47,,39,39,2,5,3,6,0.5,0.5
2025-09-11T1500,1867A,109.1436,21.4086,北海市,海滩公园,,20,18,21,3,3,62,,50,50,3,5,3,4,0.6,0.5
2025-09-11T1500,1868A,109.0981,21.4661,北海市,新市环保局,,19,17,15,7,8,60,,45,45,4,8,4,4,0.5,0.5
2025-09-11T1500,1869A,109.1778,21.5233,北海市,北海工业园,,18,12,19,3,8,56,,42,42,2,9,4,5,0.4,0.5
2025-09-11T1500,3400A,109.1911,21.4415,北海市,龙潭自来水厂,,20,10,14,8,6,62,,50,50,3,6,4,4,0.5,0.5
2025-09-11T1500,1001A,116.3621,39.8784,北京市,万寿西宫,臭氧1小时,60,28,60,15,38,168,,113,113,15,22,3,3,0.4,0.8
2025-09-11T1500,1002A,116.2202,40.2915,北京市,定陵,臭氧1小时,69,19,51,12,34,175,,122,122,3,5,5,4,0.4,0.5
2025-09-11T1500,1003A,116.4174,39.9289,北京市,东四,臭氧1小时,72,36,71,19,40,177,,121,121,8,25,4,4,0.5,0.7
2025-09-11T1500,1004A,116.4072,39.8863,北京市,天坛,臭氧1小时,62,33,52,17,35,169,,110,110,8,19,4,4,0.5,0.6
2025-09-11T1500,1005A,116.462,39.9365,北京市,农展馆,臭氧1小时,53,29,56,16,37,162,,105,105,8,28,3,3,0.4,0.6
2025-09-11T1500,1006A,116.3392,39.9295,北京市,官园,臭氧1小时,54,29,61,13,38,163,,118,118,6,20,4,4,0.5,0.6
2025-09-11T1500,1007A,116.2878,39.9611,北京市,海淀万柳,,49,32,60,16,36,154,,100,100,8,35,4,4,0.5,0.7
2025-09-11T1500,1008A,116.6636,40.135,北京市,顺义新城,,,,,,,,,,,,,,,,
2025-09-11T1500,1009A,116.6275,40.3275,北京市,怀柔镇,臭氧1小时,65,32,52,16,34,172,,123,123,11,12,2,1,0.7,0.8
2025-09-11T1500,1010A,116.2296,40.217,北京市,昌平镇,,50,26,61,16,45,160,,100,100,10,16,4,4,0.6,0.7
2025-09-11T1500,1011A,116.3966,39.9821,北京市,奥体中心,,46,27,56,12,33,146,,98,98,6,29,4,4,0.5,0.6
2025-09-11T1500,3281A,115.9718,40.4529,北京市,延庆夏都,,48,31,53,17,34,152,,117,117,8,10,3,2,0.5,0.5
2025-09-11T1500,3418A,116.8336,40.4095,北京市,密云新城,,50,41,44,24,28,160,,112,112,6,7,3,3,0.5,0.5
2025-09-11T1500,3671A,116.088,39.9726,北京市,门头沟三家店,,46,23,57,11,35,145,,101,101,6,24,4,3,0.5,0.8
2025-09-11T1500,3672A,116.1541,39.8204,北京市,丰台云岗,,50,33,63,16,40,159,,103,103,8,22,1,1,0.5,0.6
2025-09-11T1500,3673A,116.6804,39.9081,北京市,通州东关,臭氧1小时,74,37,78,20,41,179,,113,113,7,20,4,3,0.5,0.6
2025-09-11T1500,3674A,115.9577,39.7603,北京市,房山燕山,,44,32,57,17,35,140,,108,108,8,13,2,1,0.4,0.5
2025-09-11T1500,3675A,116.4672,39.7733,北京市,大兴旧宫,臭氧1小时,53,30,56,14,31,162,,112,112,6,16,3,3,0.5,0.7
2025-09-11T1500,3694A,115.986,40.4563,北京市,延庆石河营,,45,29,54,15,32,143,,106,106,5,6,2,1,0.5,0.4
2025-09-11T1500,3695A,116.6151,40.3053,北京市,怀柔新城,臭氧1小时,60,29,47,17,33,168,,118,118,9,8,4,4,0.6,0.7
2025-09-11T1500,3696A,116.2545,39.8768,北京市,丰台小屯,,47,33,63,16,38,148,,100,100,6,26,2,2,0.6,0.7
2025-09-11T1500,3697A,116.84,40.3844,北京市,密云镇,臭氧1小时,59,43,48,31,31,167,,109,109,8,21,5,3,0.5,0.6
2025-09-11T1500,4182A,116.1942,39.9158,北京市,八角北路9号,臭氧1小时,64,35,71,15,41,171,,108,108,8,33,3,4,0.5,0.7
2025-09-11T1500,4194A,117.0790,40.1518,北京市,洳河巡河路,,,,73,,44,,,122,122,2,8,,4,,0.7
2025-09-11T1500,1761A,123.8275,41.3064,本溪市,大峪,,46,45,52,26,24,145,,108,108,4,21,6,7,0.7,1
2025-09-11T1500,1762A,123.7567,41.3325,本溪市,溪湖,颗粒物(PM10),51,51,67,24,32,128,,100,100,11,21,7,7,1.1,1.5
2025-09-11T1500,1763A,123.7169,41.3094,本溪市,彩屯,细颗粒物(PM2.5),65,,52,47,37,126,,92,92,16,30,8,8,1.1,1.5
2025-09-11T1500,1764A,123.7669,41.2864,本溪市,东明,颗粒物(PM10),55,59,60,36,30,136,,116,116,8,26,7,7,0.8,1.2
2025-09-11T1500,1765A,123.7992,41.2664,本溪市,新立屯,颗粒物(PM10),53,56,42,27,22,138,,122,122,7,23,6,6,0.6,0.9
2025-09-11T1500,1766A,123.8142,41.3472,本溪市,威宁,颗粒物(PM10),52,54,67,22,27,137,,97,97,6,16,6,6,0.5,0.9
2025-09-11T1500,2587A,105.2864,27.3125,毕节市,八中,,25,,14,8,20,77,,52,52,3,7,6,6,0.4,0.5
2025-09-11T1500,2588A,105.31,27.2944,毕节市,师专,,23,,29,10,18,73,,50,50,6,9,7,8,0.5,0.6
2025-09-11T1500,4263A,105.3688,27.3598,毕节市,工业大道,,24,11,24,7,17,74,,53,53,6,9,7,7,0.6,0.7
2025-09-11T1500,1629A,118.0018,37.3617,滨州市,第二水厂,,,34,73,,40,136,,116,116,11,33,7,9,0.5,0.8
2025-09-11T1500,1630A,117.9776,37.393,滨州市,北中新校,,45,27,65,17,37,144,,124,124,14,35,7,8,0.5,0.7
2025-09-11T1500,3514A,117.9378,37.3956,滨州市,中海酒店,,49,34,65,14,35,155,,131,131,11,29,7,6,0.6,0.9
2025-09-11T1500,3515A,117.9378,37.3553,滨州市,开发区一中,,48,46,82,19,42,153,,139,139,14,33,8,9,0.7,1
2025-09-11T1500,3516A,118.0917,37.694,滨州市,金海六路,,45,32,70,7,38,144,,123,123,7,22,6,7,0.2,0.4
2025-09-11T1500,4028A,117.9956,37.3753,滨州市,滨州市西街道办事处,,44,39,68,17,37,138,,120,120,13,30,5,7,0.5,0.8
2025-09-11T1500,2311A,115.8072,33.8399,亳州市,污水处理厂,,29,,17,18,16,92,,74,74,4,10,4,11,0.2,0.3
2025-09-11T1500,2312A,115.7789,33.8518,亳州市,三国揽胜宫,,31,,24,15,18,97,,78,78,4,9,4,10,0.3,0.5
2025-09-11T1500,3332A,115.7633,33.8034,亳州市,亳州学院,,30,,15,3,7,96,,77,77,5,8,4,7,0.3,0.4
2025-09-11T1500,2693A,82.0485,44.8556,博尔塔拉蒙古自治州,市党校,,35,35,36,16,17,98,,61,61,7,16,6,5,0.2,0.3
2025-09-11T1500,2694A,82.0806,44.8969,博尔塔拉蒙古自治州,市环保局,,39,39,44,13,15,100,,57,57,7,20,8,9,0.4,0.5
2025-09-11T1500,1071A,116.8842,38.2991,沧州市,沧县城建局,臭氧1小时,102,50,56,27,29,203,,157,157,9,30,7,5,0.6,0.6
2025-09-11T1500,1072A,116.8584,38.3254,沧州市,电视转播站,臭氧1小时,93,89,57,36,32,194,,148,148,8,21,7,4,0.5,0.5
2025-09-11T1500,1073A,116.8709,38.3228,沧州市,市环保局,,,70,61,33,32,198,,183,183,9,23,,6,0.5,0.4
2025-09-11T1500,3324A,116.8136,38.3004,沧州市,河北水利电力学院,臭氧1小时,101,58,60,14,30,202,,155,155,6,24,11,8,0.5,0.5
2025-09-11T1500,2622A,97.1806,31.1273,昌都市,昌都监测站,,21,,10,3,4,65,,54,54,2,3,4,4,0.1,0.1
2025-09-11T1500,3719A,97.1714,31.1406,昌都市,昌都会议中心,,,,,,,,,,,,,,,,
2025-09-11T1500,2690A,88.1236,43.8886,昌吉回族自治州,天山天池,,20,12,14,3,4,62,,50,50,12,9,6,6,0.4,0.4
2025-09-11T1500,2692A,87.2717,44.0297,昌吉回族自治州,新区政务中心,,39,39,32,14,10,123,,68,68,9,16,12,7,0.4,0.3
2025-09-11T1500,3613A,87.3095,44.0142,昌吉回族自治州,亚心广场,颗粒物(PM10),56,61,46,14,11,124,,66,66,11,22,13,8,0.5,0.4
2025-09-11T1500,1120A,125.2863,43.9027,长春市,客车厂,,37,31,41,18,19,118,,96,96,7,41,4,4,0.4,0.5
2025-09-11T1500,1121A,125.2841,43.8463,长春市,邮电学院,,38,36,29,7,13,119,,91,91,7,24,5,5,0.5,0.5
2025-09-11T1500,1122A,125.3716,43.8772,长春市,劳动公园,,40,40,45,18,21,119,,94,94,8,31,8,8,0.2,0.3
2025-09-11T1500,1123A,125.3297,43.8805,长春市,园林处,,42,42,31,14,27,117,,91,91,6,26,4,4,0.6,0.6
2025-09-11T1500,1124A,125.4605,43.79,长春市,净月潭,,34,33,16,18,9,107,,81,81,4,7,4,4,0.4,0.3
2025-09-11T1500,1125A,125.7194,43.515,长春市,甩湾子,,,,,,,,,,,,,,,,
2025-09-11T1500,1126A,125.3863,43.8447,长春市,经开区环卫处,,39,39,49,10,14,106,,83,83,8,30,4,4,0.6,0.6
2025-09-11T1500,1127A,125.245,43.7783,长春市,高新区管委会,,40,40,25,12,16,115,,88,88,5,23,5,5,0.5,0.4
2025-09-11T1500,1128A,125.1761,43.8325,长春市,岱山公园,,38,38,39,18,19,116,,94,94,11,41,4,4,0.5,0.5
2025-09-11T1500,4281A,125.3346,43.9164,长春市,北亚泰大街1068号,,45,45,42,15,19,115,,91,91,10,36,8,8,0.5,0.5
2025-09-11T1500,1335A,113.0833,28.2325,长沙市,经开区环保局,,35,32,34,11,20,112,,86,86,7,14,6,5,0.5,0.5
2025-09-11T1500,1336A,112.8872,28.2189,长沙市,高开区环保局,,31,27,40,8,18,98,,76,76,5,10,5,5,0.3,0.4
2025-09-11T1500,1337A,113.0792,28.2053,长沙市,马坡岭,,37,27,35,11,17,116,,86,86,3,12,6,5,0.5,0.5
2025-09-11T1500,1338A,112.9394,28.19,长沙市,湖南师范大学,,36,35,35,8,18,115,,85,85,3,9,5,4,0.6,0.7
2025-09-11T1500,1339A,113.0178,28.1322,长沙市,雨花区环保局,,32,28,30,14,14,101,,81,81,1,9,7,7,0.5,0.5
2025-09-11T1500,1340A,112.9792,28.2597,长沙市,伍家岭,,34,25,35,10,19,106,,81,81,4,10,3,2,0.3,0.4
2025-09-11T1500,1341A,113.0014,28.1944,长沙市,火车新站,,36,29,35,14,18,114,,83,83,4,9,7,6,0.7,0.6
2025-09-11T1500,1342A,112.9844,28.1178,长沙市,天心区环保局,,34,28,29,8,14,106,,84,84,5,12,5,4,0.3,0.3
2025-09-11T1500,1343A,112.8908,28.1308,长沙市,湖南中医药大学,,46,32,36,32,23,101,,80,80,1,9,4,4,0.1,0.2
2025-09-11T1500,1344A,112.9581,28.3611,长沙市,沙坪,,38,,42,18,21,120,,87,87,6,11,4,3,0.4,0.5
2025-09-11T1500,1727A,113.1147,36.1547,长治市,清华站,,30,12,23,3,11,96,,69,69,5,14,7,8,0.4,0.7
2025-09-11T1500,1730A,113.0886,36.2125,长治市,审计局,,30,12,23,3,12,94,,71,71,6,13,5,6,0.5,0.8
2025-09-11T1500,1731A,113.0844,36.1856,长治市,长治八中,,29,,25,14,21,92,,66,66,2,10,8,8,0.6,0.9
2025-09-11T1500,2845A,113.1569,36.1911,长治市,德盛苑,,31,9,23,3,11,99,,65,65,2,8,7,7,0.6,0.9
2025-09-11T1500,3568A,113.06,36.0464,长治市,向阳小学,,33,27,37,9,18,105,,81,81,6,14,4,4,0.4,0.7
2025-09-11T1500,3569A,112.8792,36.3144,长治市,屯留一中,,36,,24,25,20,75,,63,59,9,7,9,8,0.6,0.8
2025-09-11T1500,4189A,113.1131,36.19948,长治市,英华南巷50号,,28,18,26,7,21,87,,65,65,6,14,7,8,1.1,0.8
2025-09-11T1500,4190A,113.2367,36.3344,长治市,学府街1号,,32,18,33,3,18,101,,80,80,6,10,1,3,0.3,0.6
2025-09-11T1500,1854A,111.6975,28.9703,常德市,市二中,,35,,18,24,15,97,,71,71,4,8,4,4,0.5,0.5
2025-09-11T1500,1857A,111.7158,29.1456,常德市,白鹤山,,,,,,,,,,,,,,,,
2025-09-11T1500,3138A,111.7153,29.0289,常德市,武陵区永安,,33,26,20,16,12,103,,69,69,4,6,4,4,0.8,0.8
2025-09-11T1500,3139A,111.6892,28.9881,常德市,鼎城区玉霞,,33,27,18,20,12,103,,76,76,3,6,6,5,0.5,0.6
2025-09-11T1500,3140A,111.6625,29.0531,常德市,武陵区长庚,,32,19,18,18,13,102,,68,68,5,7,5,5,0.7,0.8
2025-09-11T1500,1196A,119.9633,31.762,常州市,市监测站,臭氧1小时,82,30,32,18,18,185,,141,141,9,14,13,14,0.5,0.5
2025-09-11T1500,1200A,119.9468,31.7069,常州市,武进监测站,臭氧1小时,73,35,35,13,16,178,,137,137,19,17,10,12,0.5,0.7
2025-09-11T1500,1201A,119.9255,31.9087,常州市,安家,臭氧1小时,68,29,37,14,17,174,,133,133,10,20,12,11,0.6,0.8
2025-09-11T1500,3002A,119.9805,31.8174,常州市,行政中心,臭氧1小时,69,35,38,15,16,175,,140,140,11,17,2,3,0.5,0.6
2025-09-11T1500,3003A,120.0522,31.7748,常州市,经开区,臭氧1小时,63,36,43,12,14,170,,136,136,15,19,4,5,0.6,0.8
2025-09-11T1500,3010A,119.9025,31.7964,常州市,钟楼,臭氧1小时,67,30,32,21,15,173,,133,133,14,17,7,8,0.5,0.6
2025-09-11T1500,3429A,119.8598,31.7066,常州市,武进经发区,臭氧1小时,101,38,43,20,19,201,,146,146,9,13,,9,0.6,0.7
2025-09-11T1500,3430A,119.5826,31.7245,常州市,金坛城区,臭氧1小时,102,25,30,20,18,203,,141,141,14,16,9,8,0.5,0.6
2025-09-11T1500,2220A,120.4318,41.5881,朝阳市,西梁,颗粒物(PM10),54,58,42,28,25,140,,113,113,10,21,6,6,0.7,0.7
2025-09-11T1500,2221A,120.4521,41.5646,朝阳市,河畔小区,,49,49,38,29,21,154,,119,119,5,15,6,8,0.7,0.7
2025-09-11T1500,2222A,120.4176,41.5648,朝阳市,八里堡,颗粒物(PM10),64,77,49,26,23,148,,112,112,12,22,8,9,0.7,0.8
2025-09-11T1500,2223A,120.3806,41.5969,朝阳市,农业园区,,47,44,36,28,23,149,,119,119,5,16,4,5,0.5,0.6
2025-09-11T1500,1705A,116.6367,23.6719,潮州市,西园路,,37,29,18,9,9,118,,72,72,8,8,4,3,0.4,0.3
2025-09-11T1500,3026A,116.6183,23.6608,潮州市,市政府,,50,50,23,17,8,121,,74,74,8,8,7,8,0.5,0.5
2025-09-11T1500,4036A,116.6461,23.6761,潮州市,金山,,36,29,22,6,5,113,,71,71,6,6,6,6,0.5,0.5
2025-09-11T1500,2472A,113.0073,25.9061,郴州市,马头岭,,22,13,16,3,7,70,,54,54,5,8,5,5,0.2,0.2
2025-09-11T1500,2473A,113.0116,25.8226,郴州市,市职中,,18,,10,3,7,56,,42,42,4,7,3,4,0.4,0.5
2025-09-11T1500,2475A,113.0383,25.8071,郴州市,市审计局,,20,6,10,3,6,61,,46,46,6,7,5,6,0.4,0.4
2025-09-11T1500,2476A,113.0348,25.7759,郴州市,市环保局,,21,14,13,3,6,65,,49,49,3,6,4,4,0.2,0.3
2025-09-11T1500,4252A,113.0138,25.8011,郴州市,好美居路49号,,21,13,10,6,6,66,,53,53,3,6,4,4,0.3,0.3
2025-09-11T1500,1431A,103.9728,30.7236,成都市,金泉两河,,,12,26,8,14,60,,58,58,,14,2,2,0.5,0.5
2025-09-11T1500,1432A,104.176,30.6872,成都市,十里店,,21,6,32,3,20,66,,72,67,12,15,2,2,0.5,0.6
2025-09-11T1500,1433A,104.079,30.5706,成都市,三瓦窑,,23,8,29,3,19,72,,75,68,14,19,2,2,0.5,0.6
2025-09-11T1500,1434A,104.1114,30.63,成都市,沙河铺,,20,6,34,3,19,62,,66,61,4,5,1,1,0.6,0.7
2025-09-11T1500,1437A,104.0786,30.6531,成都市,君平街,,22,7,36,3,18,68,,75,72,11,12,1,1,0.6,0.7
2025-09-11T1500,1438A,103.613,31.0283,成都市,灵岩寺,,,,,,,,,,,,,,,,
2025-09-11T1500,2880A,104.0239,30.65639,成都市,大石西路,,19,12,35,3,22,60,,59,59,13,17,1,2,0.6,0.7
2025-09-11T1500,3136A,104.2725,30.5589,成都市,龙泉驿区区政府,,20,6,22,3,13,62,,78,65,19,19,4,5,0.1,0.6
2025-09-11T1500,3357A,104.0106,30.6931,成都市,金博路,,,,27,,15,,,50,,,17,,6,,0.6
2025-09-11T1500,3359A,104.0578,30.5225,成都市,华阳,,22,9,27,7,23,69,,69,64,13,18,3,2,0.6,0.7
2025-09-11T1500,3488A,104.3853,30.7453,成都市,青白江技师分院,,16,10,34,7,25,50,,52,43,16,20,2,3,0.6,0.6
2025-09-11T1500,3489A,104.0789,30.4072,成都市,科学城,,22,11,31,8,22,68,,70,67,13,15,4,4,0.7,0.7
2025-09-11T1500,4011A,103.8506,30.6947,成都市,光华大道三段,,23,10,27,3,15,73,,60,60,10,15,2,2,0.6,0.6
2025-09-11T1500,4224A,104.2433,30.5353,成都市,鲸龙路1057号,,19,11,34,10,24,58,,71,56,19,23,4,4,0.5,0.6
2025-09-11T1500,1062A,117.9531,40.9081,承德市,铁路,颗粒物(PM10),51,51,49,26,25,131,,90,90,6,16,2,1,0.4,0.5
2025-09-11T1500,1063A,117.9392,40.9763,承德市,中国银行,,44,41,43,17,20,138,,90,90,3,11,2,2,0.4,0.4
2025-09-11T1500,1064A,117.9503,40.928,承德市,开发区,,49,49,47,25,24,137,,105,105,9,16,4,3,0.4,0.5
2025-09-11T1500,1066A,117.9268,41.0026,承德市,离宫,,42,38,37,20,10,133,,89,89,3,7,5,4,0.4,0.4
2025-09-11T1500,4274A,117.7994,40.9605,承德市,滨河大街98号,,44,39,34,26,21,139,,93,93,4,7,6,3,0.4,0.3
2025-09-11T1500,2314A,117.47,30.6618,池州市,池州学院,,,21,13,8,5,122,,79,79,,8,6,5,0.6,0.7
2025-09-11T1500,3237A,117.4918,30.6617,池州市,展览馆,,42,21,11,8,3,133,,74,74,6,8,6,4,0.7,0.7
2025-09-11T1500,3333A,117.5627,30.695,池州市,第八中学,,45,25,15,12,6,141,,75,75,8,6,7,6,0.7,0.7
2025-09-11T1500,3334A,117.5038,30.6243,池州市,第十二中学,,44,28,18,13,5,139,,72,72,9,11,7,4,0.8,0.9
2025-09-11T1500,1744A,118.9233,42.2816,赤峰市,松山一中,,45,45,36,12,17,130,,122,122,9,16,7,10,0.5,0.6
2025-09-11T1500,1745A,118.9576,42.2728,赤峰市,哈达街,,42,42,42,19,21,129,,119,119,14,20,11,15,0.5,0.6
2025-09-11T1500,1746A,118.8788,42.2554,赤峰市,天义路,,40,24,20,23,23,125,,118,118,10,14,6,9,0.5,0.5
2025-09-11T1500,3058A,119.2658,42.0353,赤峰市,银河街,颗粒物(PM10),59,67,54,13,27,103,,96,96,4,10,7,14,0.6,0.8
2025-09-11T1500,3286A,118.9359,42.3147,赤峰市,桥北物流园区,,45,45,43,18,23,123,,110,110,10,24,8,13,0.6,0.8
2025-09-11T1500,2521A,107.3476,22.4136,崇左市,市环保局江州分局,,29,29,24,8,7,47,,51,51,8,11,3,7,0.6,0.7
2025-09-11T1500,4256A,107.3750,22.3736,崇左市,石景林东路7号,,,,17,9,8,51,,56,56,5,11,4,4,0.4,0.5
2025-09-11T1500,2298A,118.3093,32.3153,滁州市,老年大学,臭氧1小时,88,53,42,30,23,190,,107,107,9,11,7,7,0.5,0.5
2025-09-11T1500,2299A,118.3244,32.2786,滁州市,人大宾馆,臭氧1小时,93,38,32,24,25,194,,111,111,10,18,7,6,0.5,0.5
2025-09-11T1500,3207A,118.3118,32.3038,滁州市,市政府原办公楼,臭氧1小时,74,46,37,37,33,179,,109,109,23,18,10,8,0.7,0.6
2025-09-11T1500,3331A,118.3267,32.2634,滁州市,图书馆,臭氧1小时,75,31,30,17,20,180,,108,108,9,14,13,12,0.6,0.6
2025-09-11T1500,2605A,101.5482,25.0441,楚雄彝族自治州,州环境监测站,,13,7,8,3,5,41,,37,37,1,2,7,7,0.6,0.6
2025-09-11T1500,2606A,101.538,25.0492,楚雄彝族自治州,市经济开发区,,14,8,12,3,7,42,,37,37,4,6,7,6,0.6,0.6
2025-09-11T1500,2548A,107.5277,31.2827,达州市,达州职业技术学院,,14,14,28,3,2,41,,25,25,2,9,7,7,0.4,0.4
2025-09-11T1500,2549A,107.5086,31.2186,达州市,市环境监测站,,29,29,26,3,0,64,,35,35,12,20,6,9,0.4,0.4
2025-09-11T1500,2550A,107.4988,31.2132,达州市,凤凰小区,,22,7,7,3,3,68,,39,39,8,18,6,8,0.5,0.5
2025-09-11T1500,2551A,107.5082,31.1986,达州市,达县机关宾馆,,21,7,17,3,4,67,,40,40,10,19,5,8,0.5,0.4
2025-09-11T1500,2552A,107.4644,31.2124,达州市,市政中心,,22,18,26,3,1,70,,35,35,5,14,4,7,0.3,0.3
2025-09-11T1500,2614A,100.1542,25.7054,大理白族自治州,大理市环境监测站,,29,,11,20,17,51,,46,46,8,7,4,4,0.6,0.6
2025-09-11T1500,2615A,100.2171,25.5811,大理白族自治州,大理古城,,20,13,17,12,9,63,,42,42,4,7,6,6,0.7,0.8
2025-09-11T1500,1109A,121.612,38.9741,大连市,甘井子,,39,22,42,3,26,122,,104,104,19,26,8,8,0.4,0.6
2025-09-11T1500,1110A,121.565,38.9511,大连市,周水子,,40,22,44,3,30,125,,92,92,9,21,8,9,0.3,0.5
2025-09-11T1500,1111A,121.5637,38.8845,大连市,星海三站,,37,22,43,3,30,116,,89,89,16,19,6,6,0.2,0.4
2025-09-11T1500,1112A,121.6302,38.9117,大连市,青泥洼桥,,37,11,34,6,23,118,,93,93,12,16,9,9,0.3,0.5
2025-09-11T1500,1113A,121.6251,38.8638,大连市,傅家庄,,27,18,31,6,21,86,,82,82,19,13,10,10,0.4,0.5
2025-09-11T1500,1114A,121.5213,38.8661,大连市,七贤岭,,41,24,36,6,19,131,,96,96,11,14,8,5,0.2,0.5
2025-09-11T1500,1115A,121.2529,38.8061,大连市,旅顺,,41,12,32,6,23,129,,93,93,20,19,6,7,0.2,0.4
2025-09-11T1500,1116A,121.7485,39.1311,大连市,金州,,,6,40,,25,130,,112,112,11,19,9,10,0.2,0.3
2025-09-11T1500,1117A,121.7811,39.0496,大连市,开发区,,34,27,44,3,29,108,,80,80,12,26,8,8,0.3,0.5
2025-09-11T1500,1118A,121.9762,39.0631,大连市,双D港,,34,15,30,8,20,106,,88,88,14,13,8,11,0.4,0.5
2025-09-11T1500,1789A,124.81117,46.03138,大庆市,大同区,,45,45,26,6,7,92,,61,61,10,15,8,8,0.7,0.7
2025-09-11T1500,1790A,125.129,46.533,大庆市,龙凤区,,26,18,27,9,9,81,,59,59,12,22,6,6,0.7,0.7
2025-09-11T1500,1791A,124.902,46.408,大庆市,红岗区,,31,30,29,12,10,98,,69,69,6,17,5,5,0.4,0.5
2025-09-11T1500,1792A,125.153,46.586,大庆市,萨尔图区,,28,28,27,8,8,77,,56,56,8,21,10,8,0.5,0.6
2025-09-11T1500,1793A,124.9042,46.6215,大庆市,让胡路区,,30,16,25,8,12,95,,64,64,5,20,7,8,0.2,0.4
2025-09-11T1500,3481A,125.141,46.634,大庆市,萨区政府监测点,,29,26,23,3,4,91,,72,72,6,14,8,8,0.4,0.3
2025-09-11T1500,1721A,113.3819,40.1097,大同市,果树场,,35,33,51,14,23,111,,99,99,7,19,5,5,0.4,0.5
2025-09-11T1500,1723A,113.2994,40.0758,大同市,云冈宾馆,,38,29,73,14,25,120,,109,109,8,27,5,8,0.7,0.8
2025-09-11T1500,1724A,113.3444,40.0917,大同市,大同大学,,39,28,54,12,24,124,,114,114,8,21,7,10,0.6,0.7
2025-09-11T1500,1725A,113.2661,40.1269,大同市,安家小村,,40,40,70,14,26,126,,113,113,6,22,4,7,0.4,0.7
2025-09-11T1500,1726A,113.2711,40.0844,大同市,教育学院,,38,38,76,16,30,121,,110,110,7,33,6,9,0.6,0.7
2025-09-11T1500,3282A,113.3397,40.0597,大同市,大同市卫生学校,,38,31,62,11,27,120,,107,107,8,26,8,10,0.5,0.7
2025-09-11T1500,3565A,113.1367,40.1122,大同市,云冈站,,49,49,75,11,28,121,,105,105,8,15,5,8,0.7,0.7
2025-09-11T1500,3566A,113.1186,40.2556,大同市,图书馆,颗粒物(PM10),59,67,73,20,26,129,,104,104,8,16,7,10,0.8,0.8
2025-09-11T1500,3567A,113.5931,40.0461,大同市,区一中,,43,42,52,12,25,135,,115,115,6,13,5,4,0.6,0.5
2025-09-11T1500,4199A,113.2798,40.0997,大同市,魏都大道141号,,44,44,69,13,29,124,,111,111,6,30,3,6,0.5,0.7
2025-09-11T1500,2269A,124.1069,50.4097,大兴安岭地区,科技局,,24,24,19,3,8,46,,27,27,3,4,5,4,0.2,0.2
2025-09-11T1500,3663A,124.1164,50.4278,大兴安岭地区,红旗社区,,15,9,11,3,5,45,,28,28,8,5,4,4,0.2,0.2
2025-09-11T1500,1600A,124.3303,40.0625,丹东市,江湾东路,,45,36,48,19,26,142,,108,108,5,12,7,9,0.7,0.8
2025-09-11T1500,1601A,124.4256,40.1503,丹东市,临江后街,,43,39,63,17,27,135,,113,113,6,13,6,7,0.8,0.9
2025-09-11T1500,1602A,124.3933,40.1461,丹东市,元宝山,,41,29,42,18,21,129,,100,100,8,12,6,6,0.7,0.9
2025-09-11T1500,1603A,124.3633,40.1092,丹东市,民主桥,,43,37,48,17,30,137,,107,107,7,16,7,8,0.7,0.8
2025-09-11T1500,3541A,109.5726,19.5167,儋州市,第一中学子站,,13,13,16,8,5,39,,29,29,2,4,6,6,0.5,0.6
2025-09-11T1500,3542A,109.5567,19.5187,儋州市,东坡学校子站,,14,8,14,7,7,43,,31,31,3,5,7,7,0.4,0.5
2025-09-11T1500,2616A,98.5842,24.428,德宏傣族景颇族自治州,德宏州监测站,,28,28,31,16,18,86,,56,56,7,11,9,19,0.5,0.5
2025-09-11T1500,3677A,98.5881,24.4368,德宏傣族景颇族自治州,芒市人民政府综合楼,,,,26,,8,,,57,,,4,,7,,0.4
2025-09-11T1500,1901A,104.4239,31.1208,德阳市,东山公园,,17,,11,8,13,52,,55,50,13,12,4,4,0.6,0.7
2025-09-11T1500,1902A,104.3826,31.1317,德阳市,西小区,,19,7,21,6,16,58,,60,50,12,14,3,2,0.6,0.7
2025-09-11T1500,1904A,104.3553,31.1091,德阳市,耐火材料厂,,18,10,25,6,18,57,,54,49,13,13,4,4,0.7,0.7
2025-09-11T1500,3639A,104.4019,31.1244,德阳市,市教育局,,17,10,24,6,15,52,,61,49,12,10,3,3,0.7,0.7
2025-09-11T1500,1622A,116.3032,37.4674,德州市,儿童乐园,臭氧1小时,92,73,64,39,35,193,,159,159,11,18,13,11,0.8,0.7
2025-09-11T1500,1624A,116.2991,37.4451,德州市,监理站,臭氧1小时,88,70,62,36,33,190,,160,160,14,23,16,15,0.6,0.6
2025-09-11T1500,3066A,116.2721,37.4379,德州市,九衢泉纯净水厂,颗粒物(PM10),58,66,71,34,36,165,,148,148,14,34,9,7,0.7,0.7
2025-09-11T1500,3371A,116.3728,37.4403,德州市,开发区人民医院,臭氧1小时,73,66,61,31,31,178,,145,145,8,23,12,11,1.1,1.1
2025-09-11T1500,3511A,116.5652,37.3319,德州市,陵城艺术中心,臭氧1小时,88,51,65,22,31,190,,159,159,15,24,16,14,0.7,0.7
2025-09-11T1500,4292A,116.3525,37.4209,德州市,新河东路,臭氧1小时,74,66,67,36,35,179,,41,,12,35,12,10,1.1,0.9
2025-09-11T1500,2621A,99.7056,27.8317,迪庆藏族自治州,迪庆州站,,,13,14,9,11,53,,46,46,4,5,7,7,,0.3
2025-09-11T1500,3180A,99.7136,27.8094,迪庆藏族自治州,质量技术监督局,,15,11,15,7,9,48,,42,42,8,7,7,7,0.5,0.5
2025-09-11T1500,4257A,104.6092,35.5962,定西市,将台街,,31,20,24,9,16,97,,65,65,6,13,9,7,0.4,0.3
2025-09-11T1500,4309A,104.6159,35.5701,定西市,正龙路62号,,33,33,30,14,16,89,,62,62,5,9,6,5,0.2,0.2
2025-09-11T1500,1389A,113.7547,23.0494,东莞市,莞城梨川,臭氧1小时,94,,21,24,18,195,,111,111,14,28,4,6,0.1,0.2
2025-09-11T1500,1390A,113.7944,23.0128,东莞市,东城石井,臭氧1小时,106,35,36,26,19,212,,121,121,19,24,5,5,0.5,0.6
2025-09-11T1500,1391A,113.7383,22.9658,东莞市,南城西平,臭氧1小时,79,,26,19,16,183,,101,101,17,32,4,4,0.4,0.5
2025-09-11T1500,3319A,113.7338,23.0381,东莞市,万江金泰,臭氧1小时,98,32,22,26,15,198,,109,109,15,27,5,5,0.7,0.7
2025-09-11T1500,3626A,113.7533,23.0202,东莞市,南城元岭,臭氧1小时,100,32,28,23,19,200,,110,110,17,28,4,5,0.4,0.5
2025-09-11T1500,3627A,113.7875,23.0457,东莞市,东城主山,臭氧1小时,102,35,34,19,21,204,,112,112,17,32,6,8,0.5,0.5
2025-09-11T1500,1666A,118.6614,37.4309,东营市,市环保局,,40,27,45,3,18,126,,116,116,14,20,7,11,0.3,0.5
2025-09-11T1500,3036A,118.6904,37.4338,东营市,开发区管委会,,42,33,54,9,20,134,,123,123,13,20,7,11,0.1,0.4
2025-09-11T1500,3365A,118.5719,37.565,东营市,垦利区民丰路,,42,36,52,3,18,133,,113,113,14,18,5,6,0.6,0.9
2025-09-11T1500,3498A,118.5055,37.8612,东营市,河口城区,,48,31,50,3,17,153,,133,133,9,14,7,7,0.6,0.9
2025-09-11T1500,3646A,118.4978,37.4623,东营市,胜利站,,41,37,58,7,20,130,,104,104,18,26,8,8,0.4,0.8
2025-09-11T1500,3734A,118.35,37.26,东营市,理想之城,,41,31,49,9,23,131,,114,114,21,27,9,9,0.5,0.7
2025-09-11T1500,1591A,110.0023,39.8129,鄂尔多斯市,综合楼,,31,31,42,12,14,95,,86,86,10,15,4,2,0.5,0.8
2025-09-11T1500,1592A,109.9486,39.8261,鄂尔多斯市,巴音孟克林场办事处,,32,27,48,12,16,102,,81,81,7,13,5,6,0.3,0.4
2025-09-11T1500,1593A,109.7736,39.5986,鄂尔多斯市,康泽苑,,26,24,39,9,12,82,,70,70,9,12,7,7,0.4,0.4
2025-09-11T1500,1594A,109.8119,39.5989,鄂尔多斯市,华泰汽车城,,25,17,33,12,16,77,,70,70,8,13,5,5,0.5,0.5
2025-09-11T1500,1595A,109.9734,39.7884,鄂尔多斯市,奥林花园,,34,34,49,14,18,90,,72,72,8,17,7,7,0.6,0.7
2025-09-11T1500,2436A,114.8938,30.3994,鄂州市,市政府,,45,30,21,8,4,141,,94,94,8,13,8,7,0.6,0.5
2025-09-11T1500,2437A,114.8989,30.3714,鄂州市,赵家坝,,40,30,26,12,3,126,,87,87,10,11,8,9,0.8,0.6
2025-09-11T1500,3654A,114.8094,30.4089,鄂州市,精准医疗中心,,37,15,21,8,7,116,,86,86,9,20,6,9,0.5,0.8
2025-09-11T1500,2454A,109.4978,30.2981,恩施土家族苗族自治州,湖北民院,,16,,16,11,7,51,,31,31,9,10,6,6,0.6,0.5
2025-09-11T1500,2455A,109.4707,30.2798,恩施土家族苗族自治州,州电力总公司,,22,,9,15,7,50,,31,31,5,11,5,5,0.5,0.5
2025-09-11T1500,3549A,109.5061,30.3772,恩施土家族苗族自治州,龙凤新区,,,5,12,,4,59,,45,45,4,5,6,6,0.5,0.5
2025-09-11T1500,2499A,108.3411,21.6158,防城港市,沙万,,14,11,25,8,9,42,,32,32,8,18,3,4,0.6,0.5
2025-09-11T1500,2500A,108.3514,21.7731,防城港市,防城档案局,,16,12,17,8,10,50,,32,32,6,10,3,2,0.4,0.5
2025-09-11T1500,2501A,108.3506,21.6414,防城港市,大海花园,,15,,21,9,8,48,,30,30,5,12,4,6,0.8,0.6
2025-09-11T1500,1371A,113.1294,23.0067,佛山市,湾梁,,43,24,21,15,12,136,,74,74,14,34,6,6,0.6,0.7
2025-09-11T1500,1372A,113.1083,23.0478,佛山市,华材职中,,41,19,17,10,10,131,,87,87,6,26,4,4,0.4,0.5
2025-09-11T1500,1373A,113.144,23.0453,佛山市,南海气象局,,49,25,24,13,11,154,,83,83,10,24,6,5,0.6,0.7
2025-09-11T1500,1374A,113.2881,22.8094,佛山市,顺德苏岗,,39,27,24,12,9,122,,62,62,13,29,5,8,0.6,0.7
2025-09-11T1500,1376A,112.8383,22.8678,佛山市,高明孔堂,,35,,20,11,8,112,,72,72,7,17,2,2,0.4,0.5
2025-09-11T1500,1377A,112.8836,23.1588,佛山市,三水监测站,,40,,26,20,14,128,,74,74,6,28,5,6,0.5,0.6
2025-09-11T1500,1378A,112.867,23.185,佛山市,三水云东海,,47,,32,17,16,150,,80,80,10,24,3,2,0.7,0.7
2025-09-11T1500,3625A,113.2544,22.7642,佛山市,容桂街道办,,48,22,16,19,13,153,,98,98,16,32,6,7,0.7,0.8
2025-09-11T1500,1280A,119.3903,26.0543,福州市,鼓山,,,,17,,8,,,78,,,7,,1,,0.2
2025-09-11T1500,1282A,119.2681,26.0504,福州市,师大,,41,25,16,14,7,130,,86,86,7,9,6,5,0.3,0.3
2025-09-11T1500,1283A,119.2984,26.1028,福州市,五四北路,,44,23,14,22,10,138,,101,101,8,12,5,5,0.3,0.2
2025-09-11T1500,1284A,119.2648,26.0768,福州市,杨桥西路,,45,,16,31,9,136,,88,88,4,6,4,4,0.3,0.2
2025-09-11T1500,1285A,119.317,26.0746,福州市,紫阳,,40,40,21,21,9,123,,78,78,19,14,6,5,0.4,0.3
2025-09-11T1500,3048A,119.5799,26.0936,福州市,九龙,,40,21,21,10,7,126,,91,91,4,8,4,4,0.5,0.3
2025-09-11T1500,3526A,119.5189,25.9664,福州市,吴航,,40,29,21,16,12,128,,93,93,3,11,6,5,0.4,0.3
2025-09-11T1500,1755A,123.7977,41.8491,抚顺市,望花区,颗粒物(PM10),57,63,52,27,24,161,,118,118,11,26,9,9,0.8,1
2025-09-11T1500,1756A,123.9161,41.8822,抚顺市,顺城区,臭氧1小时,52,51,41,25,19,161,,130,130,13,26,6,7,0.8,0.9
2025-09-11T1500,1757A,124.0436,41.8611,抚顺市,东洲区,,50,50,37,30,21,155,,123,123,5,10,8,7,0.4,0.4
2025-09-11T1500,1758A,123.9247,41.8642,抚顺市,新抚区,颗粒物(PM10),55,60,51,27,22,154,,114,114,12,23,7,7,1.0,1.1
2025-09-11T1500,1759A,124.0972,41.8961,抚顺市,大伙房水库,,49,47,32,28,20,154,,112,112,9,16,9,9,0.8,0.7
2025-09-11T1500,1760A,123.7086,41.8391,抚顺市,沈抚新城,臭氧1小时,70,55,48,31,29,176,,129,129,14,30,8,8,0.8,1.1
2025-09-11T1500,2376A,116.2127,28.0814,抚州市,桐源党溪,,26,26,26,3,10,75,,55,55,2,4,5,6,0.5,0.6
2025-09-11T1500,2377A,116.3544,27.9831,抚州市,市站,,25,18,19,3,9,79,,58,58,2,5,2,5,0.6,0.7
2025-09-11T1500,2378A,116.3565,27.963,抚州市,血防站,,24,15,23,6,9,76,,55,55,2,5,4,4,0.5,0.5
2025-09-11T1500,2379A,116.3564,28.0007,抚州市,采茶剧团,,24,15,21,3,10,75,,56,56,2,2,5,6,0.5,0.5
2025-09-11T1500,2380A,116.385,27.9647,抚州市,医学分院,,24,17,24,3,10,76,,60,60,2,5,5,5,0.6,0.6
2025-09-11T1500,2207A,121.6094,41.998,阜新市,工业园区,臭氧1小时,110,136,64,38,33,219,,141,141,9,28,7,13,0.7,1.1
2025-09-11T1500,2208A,121.6697,42.0279,阜新市,长青街,颗粒物(PM10),79,107,56,39,31,175,,142,142,9,22,9,13,0.7,1.2
2025-09-11T1500,2209A,121.6673,42.0705,阜新市,农业园区,颗粒物(PM10),75,99,48,29,18,178,,144,144,12,14,5,15,0.8,0.8
2025-09-11T1500,2210A,121.6717,42.0224,阜新市,东苑,颗粒物(PM10),88,126,73,34,26,170,,129,129,10,25,8,18,0.5,1.3
2025-09-11T1500,2211A,121.6506,42.0498,阜新市,玉龙新城,颗粒物(PM10),73,95,51,34,27,174,,130,130,9,27,11,16,0.7,1.4
2025-09-11T1500,2301A,115.8277,32.8929,阜阳市,市监测站,,46,,29,32,19,53,,55,52,13,12,4,4,0.6,0.4
2025-09-11T1500,2303A,115.8554,32.8605,阜阳市,开发区,,25,22,28,17,13,58,,59,54,14,13,6,7,0.5,0.4
2025-09-11T1500,2875A,115.784,32.8892,阜阳市,阜阳职业技术学院,,41,41,30,22,9,55,,60,54,12,10,6,6,0.6,0.5
2025-09-11T1500,3468A,115.7901,32.8613,阜阳市,市规划展馆,,42,33,32,29,20,57,,64,55,15,12,3,4,0.7,0.5
2025-09-11T1500,3469A,115.836,32.9183,阜阳市,枣园社区,,37,37,34,19,22,61,,56,53,12,13,4,5,0.6,0.5
2025-09-11T1500,2669A,102.9099,34.9841,甘南藏族自治州,州政府,,29,18,34,13,18,91,,61,61,2,12,7,6,0.2,0.3
2025-09-11T1500,3380A,102.8914,34.9617,甘南藏族自治州,甘肃民族师范学院,,34,21,42,6,18,108,,75,75,5,15,4,4,0.1,0.3
2025-09-11T1500,2570A,101.9603,30.0475,甘孜藏族自治州,水桥子,,21,8,10,3,4,67,,29,29,6,18,6,6,0.4,0.5
2025-09-11T1500,3065A,101.9533,29.9972,甘孜藏族自治州,州环保局,,22,10,11,7,5,68,,38,38,8,17,4,4,0.6,0.6
2025-09-11T1500,3414A,115.8347,28.932,赣江新区,桑海产业园,,38,19,12,8,11,119,,75,75,6,13,8,6,0.5,0.3
2025-09-11T1500,2362A,114.9017,25.9149,赣州市,通天岩,,20,18,14,6,7,62,,58,58,3,3,16,16,0.5,0.6
2025-09-11T1500,2363A,114.9367,25.8664,赣州市,地委,,23,12,16,3,7,72,,63,63,6,8,5,6,0.4,0.4
2025-09-11T1500,2364A,114.9461,25.8481,赣州市,气象台,,20,12,15,7,5,64,,58,58,4,4,6,7,0.4,0.4
2025-09-11T1500,2365A,114.9322,25.8333,赣州市,市图书馆,,20,,10,3,9,61,,53,53,6,7,6,5,0.5,0.5
2025-09-11T1500,2366A,114.8905,25.8471,赣州市,华坚鞋城,,22,15,17,8,7,68,,59,59,6,9,4,5,0.4,0.5
2025-09-11T1500,3109A,115.0093,25.8613,赣州市,赣县区卫计委,,22,22,11,13,10,57,,53,53,4,5,6,6,0.4,0.4
2025-09-11T1500,2683A,106.2319,36.1417,固原市,马园,,,,,,,,,,,,,,,,
2025-09-11T1500,2684A,106.2792,36.0022,固原市,监测站,,26,6,16,3,11,82,,59,59,6,8,8,7,0.2,0.2
2025-09-11T1500,2685A,106.2375,36.0211,固原市,新区,,24,15,19,3,13,75,,54,54,6,8,7,8,0.5,0.4
2025-09-11T1500,3522A,106.2177,35.9959,固原市,原州区十五小,,24,10,20,6,14,76,,56,56,6,6,10,10,0.5,0.4
2025-09-11T1500,2543A,106.6308,30.5278,广安市,小平旧居,,,,,,,,,,,,,,,,
2025-09-11T1500,2544A,106.6303,30.4576,广安市,市委,,28,19,24,9,18,88,,68,68,5,9,5,7,0.5,0.5
2025-09-11T1500,2545A,106.6271,30.4663,广安市,友谊中学,,30,15,19,8,12,93,,80,78,6,9,5,4,0.8,0.9
2025-09-11T1500,2547A,106.6388,30.4551,广安市,广电花园,,27,18,22,6,11,86,,69,69,5,9,4,4,0.5,0.6
2025-09-11T1500,2902A,106.6351,30.4865,广安市,北辰小学,,30,19,21,8,11,93,,76,76,4,6,7,6,0.5,0.6
2025-09-11T1500,2523A,105.8945,32.4535,广元市,黑石坡,,13,,15,9,9,7,,2,2,17,15,9,10,0.3,0.3
2025-09-11T1500,2524A,105.821,32.4444,广元市,老城,,12,12,13,7,6,26,,16,16,16,21,8,6,0.8,0.8
2025-09-11T1500,2526A,105.8628,32.4287,广元市,监测站,,15,15,12,8,10,19,,15,13,19,18,9,7,0.8,0.7
2025-09-11T1500,3617A,105.8047,32.4166,广元市,经开区,,7,6,16,3,6,22,,11,11,13,18,5,5,0.7,0.7
2025-09-11T1500,1345A,113.2347,23.1423,广州市,广雅中学,臭氧1小时,55,23,28,13,17,164,,90,90,13,35,2,3,0.6,0.5
2025-09-11T1500,1346A,113.2612,23.105,广州市,市五中,臭氧1小时,74,24,27,12,15,179,,98,98,13,36,5,6,0.2,0.4
2025-09-11T1500,1348A,113.3478,23.0916,广州市,广东商学院,臭氧1小时,93,30,30,22,18,194,,112,112,12,33,4,5,0.2,0.3
2025-09-11T1500,1349A,113.4332,23.1047,广州市,市八十六中,,,22,23,12,16,181,,102,102,21,42,,4,0.4,0.6
2025-09-11T1500,1350A,113.3505,22.9483,广州市,番禺中学,,44,22,25,12,16,140,,90,90,9,31,5,6,0.6,0.8
2025-09-11T1500,1351A,113.2146,23.3916,广州市,花都师范,臭氧1小时,102,39,31,31,18,203,,98,98,17,34,5,5,0.6,0.7
2025-09-11T1500,1352A,113.2597,23.1331,广州市,市监测站,,47,20,29,9,15,150,,86,86,10,32,5,6,0.4,0.4
2025-09-11T1500,1353A,113.5618,23.312,广州市,九龙镇镇龙,臭氧1小时,78,36,19,22,11,182,,95,95,14,14,7,7,0.4,0.4
2025-09-11T1500,1354A,113.2765,23.1544,广州市,麓湖,,40,22,25,14,13,128,,70,70,10,30,3,3,0.3,0.4
2025-09-11T1500,1355A,113.443,23.3035,广州市,帽峰山森林公园,臭氧1小时,92,28,11,3,7,193,,90,90,12,12,4,4,0.7,0.6
2025-09-11T1500,2846A,113.3221,23.1322,广州市,体育西,臭氧1小时,78,42,31,18,19,182,,94,94,13,37,4,6,0.4,0.6
2025-09-11T1500,3298A,113.5717,23.5491,广州市,从化街口,,43,27,19,26,12,135,,68,68,8,13,8,7,0.6,0.6
2025-09-11T1500,3299A,113.3472,23.3692,广州市,白云竹料,臭氧1小时,92,58,29,30,13,193,,94,94,18,24,4,4,0.4,0.4
2025-09-11T1500,3300A,113.2981,23.237,广州市,白云嘉禾,臭氧1小时,83,47,30,27,16,186,,93,93,19,34,3,4,0.4,0.4
2025-09-11T1500,3301A,113.4256,23.1716,广州市,黄埔科学城,臭氧1小时,102,29,25,20,14,204,,108,108,13,25,5,5,0.5,0.6
2025-09-11T1500,3302A,113.3942,23.0483,广州市,番禺大学城,臭氧1小时,70,32,30,13,18,176,,108,108,13,35,9,11,0.4,0.6
2025-09-11T1500,3303A,113.4922,22.8168,广州市,南沙黄阁,,38,23,21,14,11,120,,73,73,5,24,5,5,0.3,0.5
2025-09-11T1500,3304A,113.5342,22.7896,广州市,南沙街,,28,10,17,3,8,87,,68,68,5,19,5,5,0.3,0.4
2025-09-11T1500,3443A,113.2902,23.5544,广州市,花都梯面,臭氧1小时,64,32,21,20,9,171,,87,87,14,17,5,5,0.6,0.6
2025-09-11T1500,3445A,113.7858,23.7478,广州市,从化良口,,32,20,13,18,7,100,,54,54,5,9,5,4,0.4,0.4
2025-09-11T1500,3446A,113.8051,23.2614,广州市,增城荔城,,48,,13,26,9,152,,79,79,7,9,8,8,0.5,0.5
2025-09-11T1500,2505A,109.568,23.1478,贵港市,德智高中,,,,,,,,,,,,,,,,
2025-09-11T1500,2506A,109.6047,23.0666,贵港市,江南子站,,27,22,31,17,16,84,,45,45,4,14,6,6,0.7,0.6
2025-09-11T1500,2508A,109.5669,23.1065,贵港市,荷城子站,,21,12,20,3,8,67,,42,42,6,14,3,5,0.5,0.6
2025-09-11T1500,3405A,109.5886,23.1172,贵港市,新世纪学校,,27,27,23,13,12,85,,47,47,7,13,3,2,0.5,0.5
2025-09-11T1500,4260A,109.5933,23.0951,贵港市,中山路155-3号,,28,20,30,18,14,87,,48,48,4,14,4,6,0.6,0.6
2025-09-11T1500,1439A,106.6899,26.5998,贵阳市,马鞍山,,21,17,15,7,10,67,,54,54,5,7,4,3,0.2,0.3
2025-09-11T1500,1441A,106.6243,26.6266,贵阳市,鉴湖路,,24,24,24,3,6,56,,50,50,9,9,10,8,0.4,0.4
2025-09-11T1500,1442A,106.7487,26.6343,贵阳市,燕子冲,,22,,11,12,13,69,,56,56,7,12,7,5,0.2,0.4
2025-09-11T1500,1443A,106.6555,26.4365,贵阳市,碧云窝,,19,19,21,3,3,60,,52,52,2,6,5,5,0.3,0.3
2025-09-11T1500,1445A,106.7109,26.6027,贵阳市,红边门,,22,22,20,9,12,64,,52,52,6,11,10,4,0.3,0.4
2025-09-11T1500,1446A,106.7164,26.5699,贵阳市,新华路,,20,14,19,3,5,62,,51,51,7,14,33,10,0.3,0.3
2025-09-11T1500,1447A,106.674,26.5424,贵阳市,太慈桥,,14,12,11,3,4,43,,32,32,7,11,5,4,0.0,0.1
2025-09-11T1500,1552A,106.805,26.3003,贵阳市,桐木岭,,31,31,23,16,14,56,,60,57,5,5,6,20,1.0,1
2025-09-11T1500,4230A,106.6882,26.5695,贵阳市,花果园大街66号,,19,,5,9,9,60,,48,48,6,9,4,4,0.1,0.2
2025-09-11T1500,4231A,106.6873,26.5169,贵阳市,漓江路57号,,22,12,16,7,6,68,,55,55,3,9,5,5,0.3,0.4
2025-09-11T1500,1862A,110.4144,25.3167,桂林市,电子科大尧山校区,,,,,,,,,,,,,,,,
2025-09-11T1500,1864A,110.3089,25.2708,桂林市,龙隐路小学,,18,16,23,3,9,56,,40,40,4,10,4,6,0.3,0.3
2025-09-11T1500,1865A,110.2869,25.2178,桂林市,八中,,18,11,24,3,7,55,,40,40,4,11,6,8,0.2,0.3
2025-09-11T1500,3531A,110.296,25.1253,桂林市,旅游学院,,17,6,15,3,7,52,,37,37,3,11,6,5,0.3,0.4
2025-09-11T1500,4222A,110.1835,25.2444,桂林市,环湖路276号,,,17,30,9,11,60,,47,47,7,14,5,14,,0.3
2025-09-11T1500,4301A,110.2803,25.2773,桂林市,信义路13号,,18,11,24,3,10,55,,40,40,3,14,5,7,0.3,0.4
2025-09-11T1500,2674A,100.2561,34.4714,果洛藏族自治州,玛沁县大武镇,,30,25,27,17,14,93,,84,84,2,3,12,15,0.3,0.3
2025-09-11T1500,1129A,126.5422,45.755,哈尔滨市,岭北,,35,11,21,3,12,111,,81,81,8,24,8,9,0.6,0.5
2025-09-11T1500,1130A,126.561,45.8167,哈尔滨市,松北商大,,28,14,34,3,10,89,,64,64,5,26,5,6,0.3,0.4
2025-09-11T1500,1131A,126.979,45.5419,哈尔滨市,阿城会宁,,28,21,32,3,11,89,,62,62,5,20,8,8,0.6,0.8
2025-09-11T1500,1132A,126.599,45.7222,哈尔滨市,南岗学府路,,31,31,36,3,10,92,,63,63,9,27,8,10,0.3,0.4
2025-09-11T1500,1133A,126.689,45.7733,哈尔滨市,太平宏伟公园,,,24,43,15,14,93,,67,67,,26,8,9,0.3,0.5
2025-09-11T1500,1134A,126.635,45.7667,哈尔滨市,道外承德广场,,27,23,36,8,11,86,,59,59,12,25,8,8,0.2,0.6
2025-09-11T1500,1135A,126.685,45.7319,哈尔滨市,香坊红旗大街,,28,14,36,6,13,89,,63,63,16,30,7,8,0.4,0.5
2025-09-11T1500,1136A,126.6411,45.7258,哈尔滨市,动力和平路,,29,24,35,14,19,91,,66,66,10,29,6,6,0.4,0.5
2025-09-11T1500,1137A,126.593,45.7478,哈尔滨市,道里建国路,,29,24,28,14,11,90,,62,62,13,35,9,11,0.9,2
2025-09-11T1500,1138A,126.615,45.61,哈尔滨市,平房东轻厂,,28,20,30,9,12,88,,69,69,6,27,9,10,0.3,0.4
2025-09-11T1500,1139A,126.595,45.9855,哈尔滨市,呼兰师专,,,18,36,,0,89,,59,59,10,26,7,8,0.7,0.9
2025-09-11T1500,1140A,126.6206,45.6842,哈尔滨市,省农科院,颗粒物(PM10),53,56,69,11,14,79,,57,57,12,31,8,8,0.6,0.6
2025-09-11T1500,2688A,93.5128,42.8172,哈密市,地区监测站,,35,25,59,21,19,111,,85,85,2,22,3,5,0.1,0.3
2025-09-11T1500,2689A,93.4961,42.8328,哈密市,哈密师范学校,,36,28,67,10,24,114,,75,75,4,27,7,5,0.1,0.3
2025-09-11T1500,2671A,100.9048,36.9639,海北藏族自治州,海晏县西海镇,,34,32,40,16,22,108,,77,77,2,8,8,12,0.4,0.5
2025-09-11T1500,3867A,102.0738,36.5056,海东市,平安区公安北苑,,44,42,42,16,25,140,,82,82,2,12,12,15,0.6,0.8
2025-09-11T1500,1409A,110.576,19.9507,海口市,东寨港,,,,,,,,,,,,,,,,
2025-09-11T1500,1410A,110.3232,20.0574,海口市,海南大学,,16,11,11,6,6,50,,46,46,2,4,3,3,0.3,0.3
2025-09-11T1500,1411A,110.283,20.0053,海口市,秀英海南医院,,17,14,18,7,7,54,,39,39,4,15,6,6,0.3,0.3
2025-09-11T1500,1412A,110.338,19.9969,海口市,海南师范大学,,18,12,15,7,7,55,,43,43,3,8,4,4,0.3,0.4
2025-09-11T1500,1413A,110.33,20.0356,海口市,龙华路环保局宿舍,,16,11,14,7,8,49,,41,41,4,9,6,6,0.3,0.3
2025-09-11T1500,3539A,110.5111,19.9736,海口市,桂林洋子站,,12,7,18,3,8,38,,35,35,4,7,5,4,0.2,0.2
2025-09-11T1500,2673A,100.6188,36.2866,海南藏族自治州,共和县恰卜恰镇,,38,16,41,14,20,119,,88,88,2,13,8,11,0.6,0.5
2025-09-11T1500,2676A,97.3731,37.3753,海西蒙古族藏族自治州,德令哈市,,37,25,41,9,17,117,,91,91,2,3,5,9,0.3,0.4
2025-09-11T1500,1048A,114.5302,36.6116,邯郸市,东污水处理厂,细颗粒物(PM2.5),57,40,43,40,28,111,,78,78,8,15,8,7,0.4,0.4
2025-09-11T1500,1049A,114.4918,36.5713,邯郸市,矿院,细颗粒物(PM2.5),55,49,34,39,27,120,,84,84,6,13,7,6,0.4,0.4
2025-09-11T1500,1050A,114.484,36.6133,邯郸市,丛台公园,颗粒物(PM10),51,51,35,27,20,117,,92,92,11,14,11,10,0.5,0.4
2025-09-11T1500,3458A,114.7895,36.5593,邯郸市,香泉濮院小区,颗粒物(PM10),51,52,60,21,17,109,,75,75,8,14,4,5,0.5,0.4
2025-09-11T1500,3579A,114.50634,36.77178,邯郸市,永年区实验高中,,49,49,45,27,24,123,,90,90,9,18,6,5,0.8,0.7
2025-09-11T1500,3580A,114.20016,36.44293,邯郸市,峰峰矿区临水派出所,,39,27,42,14,19,124,,82,82,9,15,7,7,0.6,0.5
2025-09-11T1500,2634A,106.9893,33.1842,汉中市,汉川机床厂子校,,37,37,14,3,5,48,,52,48,5,6,3,3,0.4,0.5
2025-09-11T1500,2635A,107.0154,33.0706,汉中市,市监测站,,13,9,11,3,6,39,,41,37,5,6,6,6,0.6,0.6
2025-09-11T1500,2636A,107.0089,33.1138,汉中市,鑫源开发区,,14,7,9,3,5,43,,36,36,7,7,6,6,0.5,0.5
2025-09-11T1500,2637A,107.007,33.0323,汉中市,南郑大河坎水厂,,12,7,13,3,7,36,,36,34,6,8,5,5,0.6,0.5
2025-09-11T1500,1223A,120.2072,30.2111,杭州市,滨江,臭氧1小时,70,59,36,29,17,176,,114,114,21,24,8,8,0.6,0.6
2025-09-11T1500,1224A,120.0633,30.2747,杭州市,西溪,,47,37,23,31,16,149,,91,91,15,17,2,2,0.5,0.5
2025-09-11T1500,1226A,120.3417,30.3150,杭州市,下沙,臭氧1小时,55,32,22,18,11,164,,126,126,9,12,6,6,0.4,0.4
2025-09-11T1500,1227A,120.1269,30.2456,杭州市,卧龙桥,臭氧1小时,57,48,30,30,16,165,,102,102,11,12,9,8,0.6,0.6
2025-09-11T1500,1228A,120.1903,30.2692,杭州市,浙江农大,颗粒物(PM10),63,76,39,35,21,142,,97,97,24,32,6,6,0.7,0.7
2025-09-11T1500,1230A,120.1197,30.3119,杭州市,和睦小学,臭氧1小时,53,43,26,22,17,162,,112,112,11,18,6,6,0.6,0.6
2025-09-11T1500,1231A,120.3019,30.4183,杭州市,临平镇,,,35,33,14,15,150,,125,125,8,18,6,6,,0.5
2025-09-11T1500,1232A,120.2753,30.1839,杭州市,城厢镇,,,57,35,41,21,172,,121,121,,22,5,8,0.6,0.7
2025-09-11T1500,1233A,120.0883,30.1808,杭州市,云栖,臭氧1小时,62,53,30,34,13,169,,103,103,16,18,6,6,0.7,0.7
2025-09-11T1500,3557A,119.9464,30.0494,杭州市,镇二中,细颗粒物(PM2.5),62,60,34,44,23,160,,106,106,20,20,5,5,0.7,0.7
2025-09-11T1500,3558A,119.7183,30.2367,杭州市,市府大楼,细颗粒物(PM2.5),54,56,26,38,20,158,,88,88,14,14,9,8,0.5,0.5
2025-09-11T1500,3656A,120.1556,30.2864,杭州市,消防大队,细颗粒物(PM2.5),53,48,29,37,18,153,,105,105,13,17,8,9,0.7,0.7
2025-09-11T1500,1270A,117.1959,31.7848,合肥市,明珠广场,,44,39,24,19,14,140,,93,93,13,17,8,7,0.6,0.7
2025-09-11T1500,1271A,117.3072,31.8764,合肥市,三里街,,35,31,27,17,14,109,,78,78,8,16,6,6,0.6,0.7
2025-09-11T1500,1272A,117.2588,31.8707,合肥市,琥珀山庄,,39,36,31,14,17,124,,94,94,7,15,8,8,0.6,0.7
2025-09-11T1500,1273A,117.1604,31.9052,合肥市,董铺水库,,33,29,28,12,14,103,,79,79,5,12,4,4,0.3,0.4
2025-09-11T1500,1274A,117.25,31.8571,合肥市,长江中路,,39,36,31,16,13,123,,89,89,8,14,6,6,0.6,0.7
2025-09-11T1500,1275A,117.266,31.9436,合肥市,庐阳区,,42,41,34,19,14,133,,91,91,16,21,8,7,0.6,0.6
2025-09-11T1500,1276A,117.3453,31.8616,合肥市,瑶海区,,37,34,30,15,12,116,,87,87,12,21,7,7,0.6,0.7
2025-09-11T1500,1277A,117.3027,31.7964,合肥市,包河区,,42,39,29,19,14,133,,95,95,9,32,8,9,0.6,0.7
2025-09-11T1500,1278A,117.2776,31.7385,合肥市,滨湖新区,,45,31,24,24,19,141,,103,103,6,11,6,6,0.6,0.7
2025-09-11T1500,1279A,117.1318,31.8403,合肥市,高新区,,41,31,28,17,16,129,,90,90,12,17,6,6,0.6,0.7
2025-09-11T1500,3464A,117.3803,31.9147,合肥市,高教基地,,32,29,25,16,12,102,,80,80,10,13,7,7,0.7,0.6
2025-09-11T1500,3614A,79.924,37.0877,和田地区,地区环保局,颗粒物(PM10),170,290,346,85,104,109,,72,72,4,14,2,4,0.6,0.7
2025-09-11T1500,3615A,79.9131,37.113,和田地区,市环保局,颗粒物(PM10),133,215,297,61,82,111,,65,65,12,34,1,6,0.4,0.4
2025-09-11T1500,2516A,108.2011,24.715,河池市,东仁乐园,,,,,,,,,,,,,,,,
2025-09-11T1500,2517A,108.0497,24.6947,河池市,市环保站,,34,34,18,8,8,47,,42,42,5,8,4,5,0.6,0.6
2025-09-11T1500,2518A,108.0983,24.6989,河池市,市疾控中心,,17,8,17,6,9,53,,44,44,6,11,6,7,0.5,0.6
2025-09-11T1500,1696A,114.6778,23.7569,河源市,源西,,26,8,14,7,7,81,,48,48,7,16,5,5,0.6,0.6
2025-09-11T1500,1697A,114.6944,23.7586,河源市,东埔,,24,16,15,8,7,76,,51,51,6,11,4,4,0.7,0.8
2025-09-11T1500,1698A,114.6892,23.7233,河源市,老城,,30,17,20,11,8,96,,61,61,3,8,5,5,0.6,0.7
2025-09-11T1500,1718A,115.4208,35.2464,菏泽市,气象局,,33,21,47,16,23,105,,82,82,6,15,3,4,0.3,0.4
2025-09-11T1500,3374A,115.5564,35.0891,菏泽市,定陶老年大学,,30,7,46,3,20,93,,68,68,5,17,4,5,0.1,0.3
2025-09-11T1500,4184A,115.4797,35.24401,菏泽市,永昌路1号,,,,51,,27,100,,74,74,5,16,7,8,0.3,0.3
2025-09-11T1500,4193A,115.4715,35.2800,菏泽市,长城路999号,,33,17,49,7,21,104,,79,79,10,21,6,10,0.2,0.3
2025-09-11T1500,2514A,111.5264,24.4172,贺州市,环保小区,,20,13,13,3,8,62,,42,42,4,8,12,13,0.4,0.4
2025-09-11T1500,2515A,111.5608,24.4078,贺州市,政协大楼,,25,11,18,3,11,78,,61,61,4,8,11,11,0.7,0.5
2025-09-11T1500,3534A,111.4744,24.4553,贺州市,西湾,,19,14,17,3,7,59,,42,42,5,10,10,11,0.3,0.5
2025-09-11T1500,2385A,114.17,35.9019,鹤壁市,市监测站,,29,29,30,12,18,90,,79,79,7,11,6,6,0.3,0.5
2025-09-11T1500,2386A,114.2956,35.7511,鹤壁市,市交警支队,,39,30,29,27,24,87,,72,72,10,20,3,3,0.6,0.7
2025-09-11T1500,2387A,114.2878,35.7306,鹤壁市,迎宾馆,,38,36,35,26,20,82,,68,68,11,21,3,4,0.6,0.6
2025-09-11T1500,3474A,114.2617,35.6822,鹤壁市,大新区,,31,31,30,12,14,84,,70,70,7,13,5,5,0.6,0.6
2025-09-11T1500,3596A,114.1572,35.9603,鹤壁市,南山宾馆,,29,6,15,3,20,92,,85,85,9,11,3,4,0.6,0.7
2025-09-11T1500,2244A,130.2537,47.3416,鹤岗市,哈啤分公司,颗粒物(PM10),94,137,35,3,8,61,,44,44,4,5,10,11,0.2,0.2
2025-09-11T1500,2245A,130.2684,47.3086,鹤岗市,斯达机电,,21,11,17,11,8,65,,46,46,4,7,12,12,0.3,0.3
2025-09-11T1500,2246A,130.3114,47.3388,鹤岗市,东山纸板厂,,26,26,20,18,14,64,,47,47,7,10,11,12,0.2,0.5
2025-09-11T1500,2247A,130.1097,47.3382,鹤岗市,五号水库,,19,,9,8,6,59,,47,47,6,7,6,6,0.3,0.3
2025-09-11T1500,2263A,127.4833,50.2524,黑河市,交通局,,29,,22,20,13,51,,36,36,7,12,6,7,0.3,0.4
2025-09-11T1500,2264A,127.5144,50.2341,黑河市,环保局,,28,28,32,12,13,55,,37,37,7,15,3,5,0.3,0.6
2025-09-11T1500,2265A,127.5291,50.2472,黑河市,大黑河岛,,,,,5,7,42,,28,28,2,2,17,20,,
2025-09-11T1500,1074A,115.6838,37.7541,衡水市,电机北厂,"颗粒物(PM10),臭氧1小时",52,53,66,27,28,161,,123,123,7,16,4,7,0.4,0.4
2025-09-11T1500,1075A,115.6303,37.7316,衡水市,市监测站,,,,70,,26,,,119,119,,19,,8,,0.5
2025-09-11T1500,3188A,115.6683,37.7217,衡水市,市城管局,细颗粒物(PM2.5),55,55,65,39,29,161,,135,135,6,17,10,10,0.5,0.4
2025-09-11T1500,3459A,115.5989,37.5491,衡水市,地表水厂,颗粒物(PM10),59,67,72,31,30,159,,113,113,8,30,4,4,0.4,0.3
2025-09-11T1500,2456A,112.5003,26.9167,衡阳市,原169医院,,,19,28,7,13,75,,63,63,,13,5,8,0.4,0.6
2025-09-11T1500,2457A,112.6194,26.9258,衡阳市,衡阳化工总厂,,22,22,26,6,11,70,,62,62,4,7,3,5,0.8,0.8
2025-09-11T1500,2458A,112.6211,26.8956,衡阳市,珠晖区环保局,,22,12,23,12,14,70,,62,62,2,10,6,8,0.5,0.6
2025-09-11T1500,2459A,112.6197,26.8733,衡阳市,市委党校,,21,,16,11,11,67,,63,63,2,8,3,5,0.3,0.4
2025-09-11T1500,2460A,112.6006,26.8919,衡阳市,市监测站,,22,21,24,10,14,68,,62,62,3,8,4,4,0.5,0.7
2025-09-11T1500,2461A,112.5664,26.9056,衡阳市,真空机电公司,,21,,20,11,14,66,,58,58,2,8,4,7,0.7,0.9
2025-09-11T1500,3399A,112.6703,26.882,衡阳市,师范学院,,21,12,24,6,11,67,,59,59,3,8,3,4,0.7,0.8
2025-09-11T1500,2608A,103.3772,23.3993,红河哈尼族彝族自治州,污水处理厂,,12,11,17,6,15,37,,32,32,4,9,8,8,0.2,0.3
2025-09-11T1500,2609A,103.3861,23.35,红河哈尼族彝族自治州,监测站,,14,14,20,6,11,40,,34,34,2,6,10,13,0.2,0.2
2025-09-11T1500,3038A,103.3758,23.368,红河哈尼族彝族自治州,州图书馆,,14,,14,6,17,42,,37,37,4,8,2,2,0.2,0.3
2025-09-11T1500,1090A,111.6507,40.7517,呼和浩特市,呼市一监,,39,36,46,22,20,123,,82,82,8,20,9,8,0.5,0.4
2025-09-11T1500,1091A,111.6572,40.8033,呼和浩特市,小召,,40,31,51,28,23,116,,87,85,13,24,7,7,0.6,0.6
2025-09-11T1500,1094A,111.7516,40.8369,呼和浩特市,如意水处理厂,,46,46,58,22,22,123,,92,92,7,30,8,8,0.5,0.4
2025-09-11T1500,1095A,111.7276,40.8062,呼和浩特市,二十九中,,39,37,49,22,20,122,,92,83,12,21,8,8,0.6,0.5
2025-09-11T1500,1096A,111.5512,40.7866,呼和浩特市,工大金川校区,,39,39,61,20,21,120,,89,89,10,31,6,8,0.6,0.6
2025-09-11T1500,1097A,111.717,40.7612,呼和浩特市,化肥厂生活区,,46,46,56,24,21,126,,81,81,11,26,9,7,0.5,0.4
2025-09-11T1500,3698A,111.5968,40.8178,呼和浩特市,红旗小学,,38,27,51,22,21,121,,84,84,10,35,6,6,0.4,0.4
2025-09-11T1500,3699A,111.6518,40.8389,呼和浩特市,海东办,,40,39,61,21,21,126,,81,81,10,31,7,8,0.5,0.5
2025-09-11T1500,2192A,119.7594,49.2261,呼伦贝尔市,区环保局,,20,16,25,14,17,63,,52,52,11,13,4,5,0.6,0.5
2025-09-11T1500,3061A,119.7512,49.1577,呼伦贝尔市,国华电力东,,28,22,15,13,9,88,,66,66,5,7,6,7,0.3,0.2
2025-09-11T1500,1250A,120.0751,30.8669,湖州市,城西水厂,,47,43,31,25,16,148,,121,121,12,15,7,7,0.4,0.4
2025-09-11T1500,2873A,120.0830,30.8929,湖州市,仁皇山新区,,46,42,32,22,17,145,,114,114,12,17,5,4,0.5,0.4
2025-09-11T1500,2907A,120.1844,30.8596,湖州市,吴兴区站,,,36,32,24,16,154,,119,119,,13,8,8,0.6,0.6
2025-09-11T1500,3562A,120.4148,30.8538,湖州市,南浔区站,,48,35,34,23,18,153,,119,119,8,12,7,7,0.8,0.8
2025-09-11T1500,1607A,120.9049,40.7211,葫芦岛市,龙港区,臭氧1小时,60,55,43,16,23,168,,147,147,5,14,5,6,0.6,0.7
2025-09-11T1500,1608A,120.8392,40.7514,葫芦岛市,化工街,臭氧1小时,59,58,47,22,24,167,,132,132,11,33,7,8,0.6,0.7
2025-09-11T1500,1609A,120.8341,40.7073,葫芦岛市,新区,臭氧1小时,53,48,42,26,32,162,,126,126,6,21,4,5,0.7,0.8
2025-09-11T1500,1610A,120.8695,40.7677,葫芦岛市,东城区,臭氧1小时,60,50,52,25,39,168,,124,124,10,36,4,11,0.8,0.8
2025-09-11T1500,2482A,109.5981,27.5721,怀化市,林科所,,,14,20,3,4,55,,41,41,11,6,3,4,,0.8
2025-09-11T1500,2483A,109.9453,27.5444,怀化市,河西地税局,,17,6,17,3,10,53,,39,39,4,10,4,4,0.2,0.3
2025-09-11T1500,2484A,109.9781,27.5342,怀化市,市四医院,,36,,29,25,18,51,,38,38,2,7,6,7,0.8,0.4
2025-09-11T1500,2485A,109.9972,27.5578,怀化市,监测楼,,18,8,25,3,15,57,,44,44,2,9,4,6,0.0,0.1
2025-09-11T1500,2486A,110.0394,27.583,怀化市,市委党校,,16,8,21,3,15,49,,34,34,4,9,4,7,0.2,0.4
2025-09-11T1500,1210A,119.036,33.5981,淮安市,钵池山,,26,22,22,13,15,82,,86,86,10,15,7,7,0.6,0.5
2025-09-11T1500,1211A,119.007,33.575,淮安市,北京南路,,28,27,27,15,13,87,,89,89,8,9,6,7,0.7,0.6
2025-09-11T1500,1212A,118.989,33.6067,淮安市,市监测站,,29,29,27,9,14,88,,92,92,13,15,10,10,0.4,0.3
2025-09-11T1500,1213A,119.135,33.5039,淮安市,楚州区监测站,,29,29,34,12,13,86,,83,83,13,15,8,8,0.5,0.5
2025-09-11T1500,3426A,118.8755,33.2894,淮安市,新华书店,,27,27,26,18,14,75,,76,76,13,12,7,7,0.6,0.6
2025-09-11T1500,4206A,119.0288,33.6319,淮安市,承德北路606号,,36,36,36,13,15,67,,80,80,17,15,7,7,0.4,0.4
2025-09-11T1500,2282A,116.8004,33.975,淮北市,监测站,,36,,28,3,14,113,,87,87,6,10,7,7,0.7,0.8
2025-09-11T1500,2283A,116.8091,33.9007,淮北市,烈山区政府,,35,,34,24,8,109,,89,89,3,7,7,8,0.3,0.4
2025-09-11T1500,3330A,116.8873,33.9836,淮北市,杜集区检察院,,36,11,25,7,13,115,,89,89,2,3,9,9,0.4,0.5
2025-09-11T1500,4017A,116.7923,33.9535,淮北市,市博物馆,,,,26,2,15,115,,96,96,5,7,7,7,0.3,0.4
2025-09-11T1500,2277A,116.8305,32.7727,淮南市,潘集区政府,,26,,26,18,13,66,,61,61,16,11,3,4,0.4,0.4
2025-09-11T1500,2279A,116.8569,32.5951,淮南市,谢家集区政府,,31,27,24,12,16,97,,68,68,6,9,7,8,0.4,0.4
2025-09-11T1500,2280A,116.8281,32.633,淮南市,八公山区政府,,37,37,33,25,20,79,,66,66,9,11,7,7,0.4,0.4
2025-09-11T1500,2281A,116.6325,32.6201,淮南市,焦岗湖风景区管理处,,,,,,,,,,,,,,,,
2025-09-11T1500,2894A,117.0566,32.6531,淮南市,经济技术开发区消防队,,30,30,24,3,5,92,,69,69,12,14,9,8,0.4,0.3
2025-09-11T1500,3329A,117.0108,32.5893,淮南市,山南新区,,34,34,30,10,7,103,,74,74,8,11,5,5,0.4,0.5
2025-09-11T1500,4209A,117.0031,32.6445,淮南市,国庆中路369号,,43,43,37,21,25,100,,68,68,9,10,5,5,0.4,0.4
2025-09-11T1500,2446A,114.9028,30.4742,黄冈市,职工中心,,42,26,20,16,12,134,,91,91,9,12,7,6,0.6,0.7
2025-09-11T1500,2929A,114.8858,30.4519,黄冈市,红卫路,,44,26,25,17,11,140,,98,98,10,13,7,6,0.5,0.5
2025-09-11T1500,3398A,114.9136,30.4445,黄冈市,市林业局,,45,29,19,13,7,141,,93,93,9,12,8,6,0.5,0.4
2025-09-11T1500,2672A,102.0199,35.5102,黄南藏族自治州,同仁县隆务镇,,33,33,30,10,13,103,,83,83,3,3,10,9,0.4,0.2
2025-09-11T1500,2295A,118.2903,29.6963,黄山市,延安路89号,,24,20,19,3,6,74,,5,,2,7,3,3,0.1,0.4
2025-09-11T1500,2297A,118.1371,30.2756,黄山市,黄山区政府5号楼,,20,13,16,3,6,63,,50,50,1,3,4,4,0.3,0.4
2025-09-11T1500,4210A,118.3354,29.7203,黄山市,滨江东路7-2号,,21,19,22,9,5,67,,58,58,2,6,2,2,0.3,0.4
2025-09-11T1500,2423A,115.0601,30.2313,黄石市,沈家营,,48,48,36,8,5,99,,80,80,3,17,7,6,0.5,0.6
2025-09-11T1500,2426A,114.8988,30.2019,黄石市,铁山,,26,26,21,7,5,80,,72,72,7,7,9,5,0.7,0.6
2025-09-11T1500,2427A,115.0307,30.2092,黄石市,团城山,,30,16,20,9,4,95,,77,77,3,7,7,7,0.6,0.6
2025-09-11T1500,3149A,115.0235,30.1578,黄石市,笔架山北路,,,16,16,3,1,75,,68,68,2,5,6,7,,0.5
2025-09-11T1500,4185A,115.0780,30.21118,黄石市,磁湖东路29号,,43,43,34,7,5,109,,79,79,9,12,8,9,0.5,0.5
2025-09-11T1500,1392A,114.4183,23.0528,惠州市,河南岸金山湖子站,,40,29,22,28,14,113,,69,69,8,15,8,8,0.5,0.5
2025-09-11T1500,1393A,114.4053,23.0822,惠州市,下埔横江三路子站,,35,17,22,7,11,112,,73,73,4,13,6,7,0.5,0.5
2025-09-11T1500,1394A,114.4103,23.1142,惠州市,江北云山西路子站,,37,14,21,9,12,117,,70,70,6,20,8,10,0.5,0.6
2025-09-11T1500,1395A,114.4645,22.7833,惠州市,惠阳区承修路船湖子站,,37,15,26,9,12,118,,68,68,10,17,7,8,0.5,0.6
2025-09-11T1500,1396A,114.5317,22.7422,惠州市,大亚湾管委会子站,,30,10,17,7,9,95,,6,,7,15,8,8,0.4,0.5
2025-09-11T1500,3314A,114.4338,22.8134,惠州市,惠阳秋长,,41,22,24,12,10,129,,76,76,8,18,6,9,0.5,0.5
2025-09-11T1500,3452A,114.6517,22.775,惠州市,大亚湾霞涌,,25,24,13,6,6,80,,53,53,8,10,7,7,0.3,0.5
2025-09-11T1500,2240A,130.9762,45.3001,鸡西市,环保局,,28,14,20,3,11,88,,60,60,7,21,11,7,0.6,0.7
2025-09-11T1500,2243A,130.9429,45.3039,鸡西市,第一中学,,25,11,19,3,8,79,,60,60,2,15,8,9,0.6,0.7
2025-09-11T1500,3707A,131.0207,45.3073,鸡西市,欧美日汽修厂,,28,21,30,3,12,87,,63,63,6,18,8,9,0.7,0.8
2025-09-11T1500,3709A,130.9967,45.3106,鸡西市,市政设施管理处,,30,24,28,7,10,93,,62,62,9,22,8,8,0.7,0.9
2025-09-11T1500,2367A,114.9754,27.0803,吉安市,红声器材厂,,22,11,20,8,8,68,,64,64,1,4,8,8,0.3,0.2
2025-09-11T1500,2368A,114.9658,27.0999,吉安市,市森林工业局,,21,13,19,3,8,66,,59,59,1,5,6,7,0.4,0.4
2025-09-11T1500,2369A,114.99,27.1312,吉安市,市环境监测站,,23,12,15,6,7,72,,68,68,1,3,11,16,0.4,0.4
2025-09-11T1500,2370A,115.0093,27.0968,吉安市,青原区法院,,21,16,20,3,7,66,,59,59,3,7,7,9,0.6,0.7
2025-09-11T1500,1772A,126.54,43.8622,吉林市,哈达湾,,33,21,21,11,10,104,,78,78,7,18,8,8,0.4,0.3
2025-09-11T1500,1773A,126.5844,43.8358,吉林市,东局子,,32,17,19,15,14,102,,,,4,17,6,6,0.8,0.6
2025-09-11T1500,1774A,126.5052,43.8245,吉林市,电力学院,,29,15,24,13,14,92,,67,67,6,19,6,6,0.5,0.5
2025-09-11T1500,1775A,126.6133,43.8972,吉林市,江北,,,37,26,,9,106,,81,81,,14,5,6,,0.4
2025-09-11T1500,1776A,126.555,43.8306,吉林市,江南公园,,33,31,20,23,11,97,,72,72,6,15,4,3,0.4,0.4
2025-09-11T1500,1778A,126.7061,43.7133,吉林市,丰满,,43,24,12,13,7,137,,104,104,3,3,6,6,0.9,0.7
2025-09-11T1500,2868A,126.4739,43.953,吉林市,九站,,38,38,36,12,16,112,,82,82,8,28,6,16,0.5,0.4
2025-09-11T1500,1299A,116.9862,36.6114,济南市,科干所,,33,29,46,7,24,103,,94,94,9,16,8,7,0.5,0.6
2025-09-11T1500,1300A,116.9376,36.665,济南市,农科所,,22,20,52,7,24,68,,71,71,15,30,9,9,0.5,0.7
2025-09-11T1500,1301A,117.1265,36.6734,济南市,开发区,,32,22,51,12,25,100,,89,89,18,27,9,9,0.7,0.8
2025-09-11T1500,1303A,117.0624,36.6868,济南市,省种子仓库,,35,29,58,7,24,109,,97,97,11,23,6,6,0.6,0.7
2025-09-11T1500,1304A,116.9489,36.6447,济南市,机床二厂,,31,29,61,15,27,97,,90,90,14,32,10,10,0.5,0.6
2025-09-11T1500,1305A,117.0495,36.663,济南市,市监测站,,32,24,50,12,23,102,,92,90,11,19,11,10,0.7,0.8
2025-09-11T1500,1306A,116.7675,36.5484,济南市,长清党校,,33,29,52,3,27,103,,86,86,13,25,10,8,0.5,0.7
2025-09-11T1500,1616A,117.6795,36.229,济南市,技术学院,,36,29,40,14,21,115,,90,90,12,20,15,13,1.1,0.8
2025-09-11T1500,1961A,117.532,36.6868,济南市,东山小学,,37,37,51,12,22,105,,88,88,13,22,10,9,0.8,0.7
2025-09-11T1500,3059A,117.7161,36.2049,济南市,泰兴公司,,35,29,43,14,21,111,,86,86,10,25,13,12,0.9,0.8
2025-09-11T1500,3064A,117.6867,36.2171,济南市,莱芜战役纪念馆,,35,29,45,19,26,111,,85,85,15,24,12,10,1.1,0.8
2025-09-11T1500,3494A,117.1673,36.9782,济南市,济阳区政府,,39,39,74,15,30,118,,102,102,16,32,14,10,0.5,0.5
2025-09-11T1500,3495A,117.1171,36.63,济南市,锦屏中学,,30,24,47,3,19,96,,83,83,10,22,11,10,0.9,0.9
2025-09-11T1500,3682A,116.9814,36.6819,济南市,济南四建,,33,24,52,10,27,105,,101,101,16,24,6,6,0.6,0.7
2025-09-11T1500,1653A,116.6251,35.4302,济宁市,火炬城,,31,24,45,9,22,98,,84,84,6,11,6,7,0.2,0.3
2025-09-11T1500,1655A,116.5491,35.4042,济宁市,电化厂,,33,33,47,14,24,103,,92,92,8,14,3,5,0.4,0.5
2025-09-11T1500,3500A,116.5814,35.3707,济宁市,北湖一中,,32,32,44,15,21,93,,80,80,6,11,5,7,0.3,0.4
2025-09-11T1500,3501A,116.8249,35.5593,济宁市,服务中心,,30,28,46,3,11,94,,85,85,5,12,4,6,0.2,0.3
2025-09-11T1500,3678A,116.5907,35.4054,济宁市,市第七中学,,33,33,58,3,15,96,,82,82,7,13,6,7,0.3,0.4
2025-09-11T1500,2255A,130.2751,46.8028,佳木斯市,佳纺,,17,6,16,3,7,52,,36,36,3,14,5,6,0.4,0.5
2025-09-11T1500,2256A,130.3995,46.8307,佳木斯市,发电厂,,17,13,18,3,8,52,,34,34,7,14,7,7,0.4,0.5
2025-09-11T1500,2257A,130.3258,46.7975,佳木斯市,环保局,,,,18,3,8,48,,34,34,,19,8,8,0.4,0.5
2025-09-11T1500,2258A,130.3648,46.8032,佳木斯市,十一中,,15,9,23,7,12,45,,31,31,5,19,8,8,0.3,0.6
2025-09-11T1500,2259A,130.3794,46.7588,佳木斯市,四丰,,7,6,4,3,3,20,,16,12,5,10,1,45,0.2,0.2
2025-09-11T1500,1252A,120.7436,30.778,嘉兴市,清河小学,,49,36,35,13,12,154,,121,121,8,13,7,6,0.3,0.4
2025-09-11T1500,1253A,120.726,30.7478,嘉兴市,嘉兴学院,臭氧1小时,58,29,29,15,14,166,,131,131,10,13,5,4,0.7,0.6
2025-09-11T1500,2872A,120.7846,30.7525,嘉兴市,南湖区残联,臭氧1小时,55,30,31,19,17,164,,127,127,9,15,6,6,0.6,0.6
2025-09-11T1500,3407A,120.6916,30.7739,嘉兴市,秀洲住建,臭氧1小时,68,34,33,18,16,174,,139,139,8,14,7,6,0.6,0.6
2025-09-11T1500,1945A,98.2908,39.7711,嘉峪关市,气象局,颗粒物(PM10),60,70,59,12,14,130,,96,96,8,22,8,6,0.5,0.5
2025-09-11T1500,2884A,98.2672,39.7978,嘉峪关市,酒钢宾馆,颗粒物(PM10),64,78,70,14,18,141,,107,107,5,22,15,21,0.5,0.8
2025-09-11T1500,3248A,98.2643,39.7724,嘉峪关市,雄关区,,,64,59,15,20,126,,94,94,11,24,,11,0.5,0.4
2025-09-11T1500,1383A,113.1064,22.6058,江门市,北街,,32,18,28,8,17,101,,67,67,5,24,4,4,0.4,0.6
2025-09-11T1500,1384A,113.0731,22.5835,江门市,西区,,32,11,20,3,10,100,,65,65,6,24,8,8,0.5,0.6
2025-09-11T1500,1385A,113.0219,22.5311,江门市,圭峰西,,37,37,24,12,13,101,,65,65,5,14,4,4,0.5,0.6
2025-09-11T1500,1386A,113.0828,22.5947,江门市,东湖,,29,15,25,11,14,91,,56,56,8,21,6,6,0.5,0.7
2025-09-11T1500,3311A,113.1075,22.5647,江门市,江海富民,,32,27,43,13,19,101,,68,68,12,18,4,5,0.5,0.5
2025-09-11T1500,3449A,113.05,22.4667,江门市,新会银湖,,33,24,22,9,12,105,,59,59,5,15,3,3,0.6,0.6
2025-09-11T1500,1830A,113.1992,35.2590,焦作市,影视城,,,,28,,14,,,96,,,7,,8,,0.7
2025-09-11T1500,3335A,113.3137,35.2641,焦作市,马村街道办,,32,18,33,7,17,100,,98,97,7,11,3,4,0.5,0.5
2025-09-11T1500,3336A,113.2465,35.2373,焦作市,焦作技师学院,,32,18,33,3,11,102,,97,95,8,12,6,6,0.4,0.5
2025-09-11T1500,3477A,113.1656,35.2539,焦作市,中站许衡医院,,34,,35,17,22,107,,106,105,5,8,4,5,0.3,0.4
2025-09-11T1500,3981A,113.2449,35.1803,焦作市,原李万街道办,,35,27,40,3,12,109,,108,108,11,12,7,8,0.4,0.4
2025-09-11T1500,4264A,113.2340,35.2190,焦作市,新安路1731号,,35,27,33,8,14,111,,107,105,8,8,3,4,0.3,0.3
2025-09-11T1500,4295A,113.2722,35.2121,焦作市,人民路3066号,,,,49,3,9,105,,103,103,9,5,1,2,0.3,0.3
2025-09-11T1500,1708A,116.3701,23.5345,揭阳市,新兴,,42,42,28,22,15,115,,75,75,7,17,6,8,0.5,0.5
2025-09-11T1500,1709A,116.3264,23.5443,揭阳市,西马,,36,30,30,21,13,114,,66,66,4,18,2,3,0.4,0.6
2025-09-11T1500,1710A,116.3611,23.5626,揭阳市,东兴,,35,31,26,13,10,109,,78,78,5,17,6,7,0.6,0.7
2025-09-11T1500,1711A,116.4151,23.5294,揭阳市,渔湖,颗粒物(PM10),56,62,29,6,13,122,,76,76,9,20,5,8,0.5,0.6
2025-09-11T1500,3320A,116.403,23.5699,揭阳市,曲溪,,39,21,24,16,11,122,,88,88,5,12,4,4,0.5,0.5
2025-09-11T1500,1944A,102.1692,38.5167,金昌市,天庆家园,颗粒物(PM10),60,70,70,36,25,106,,79,79,6,15,7,4,0.2,0.2
2025-09-11T1500,4022A,102.1647,38.5371,金昌市,金川区人防中心,颗粒物(PM10),58,66,68,25,23,105,,77,77,8,10,9,9,0.4,0.5
2025-09-11T1500,4239A,102.1930,38.5319,金昌市,长春路96号,颗粒物(PM10),64,77,72,19,21,95,,71,71,3,12,4,6,0.7,0.6
2025-09-11T1500,1262A,119.647,29.077,金华市,十五中,,41,23,22,11,16,131,,97,97,6,12,2,2,0.5,0.5
2025-09-11T1500,1263A,119.686,29.1029,金华市,监测站,,38,21,19,11,11,121,,90,90,6,14,3,3,0.5,0.6
2025-09-11T1500,3659A,119.656,29.1131,金华市,气象局,,38,23,20,8,9,121,,89,89,5,17,3,2,0.4,0.5
2025-09-11T1500,1767A,121.1115,41.0879,锦州市,南山,臭氧1小时,68,58,38,21,29,174,,131,131,8,23,7,10,0.7,0.7
2025-09-11T1500,1768A,121.0604,40.8428,锦州市,开发区,颗粒物(PM10),65,80,69,26,28,152,,123,123,14,43,6,13,0.7,0.9
2025-09-11T1500,1769A,121.1836,41.1119,锦州市,百股街道,,,57,43,19,25,174,,136,136,6,24,,56,0.6,0.7
2025-09-11T1500,1770A,121.1178,41.1222,锦州市,天安街道,臭氧1小时,78,50,45,21,30,182,,146,146,9,26,10,26,0.8,0.8
2025-09-11T1500,1771A,121.1303,41.1386,锦州市,北湖公园,臭氧1小时,58,43,44,19,30,166,,139,139,7,17,7,8,0.8,0.7
2025-09-11T1500,2160A,112.85,35.5051,晋城市,自来水公司,,30,27,23,3,11,94,,87,87,12,12,3,8,0.5,0.6
2025-09-11T1500,2161A,112.8318,35.4936,晋城市,白云商贸,,31,19,24,3,10,98,,89,89,11,12,2,2,0.4,0.5
2025-09-11T1500,2162A,112.8508,35.4887,晋城市,市环保局,,27,15,26,3,10,86,,80,80,8,8,2,3,0.3,0.4
2025-09-11T1500,2163A,112.8676,35.4897,晋城市,技术学院,,28,14,21,3,7,87,,81,81,11,10,3,3,0.4,0.5
2025-09-11T1500,2165A,112.8453,35.546,晋城市,白马寺,,35,15,14,11,15,112,,95,95,1,3,6,6,0.2,0.4
2025-09-11T1500,3620A,112.8271,35.4828,晋城市,泽州一中,,33,14,17,3,8,103,,95,95,8,8,2,2,0.4,0.5
2025-09-11T1500,2173A,112.7249,37.7067,晋中市,南都小区,,34,26,45,17,23,108,,104,104,5,14,5,5,0.4,0.5
2025-09-11T1500,2174A,112.6991,37.6982,晋中市,榆次区政府,,32,24,43,12,21,100,,95,95,6,17,6,6,0.7,0.7
2025-09-11T1500,2865A,112.7195,37.6828,晋中市,榆次三中,,34,19,42,12,16,106,,95,95,2,16,6,6,0.2,0.3
2025-09-11T1500,4200A,112.7478,37.6954,晋中市,迎宾街26号,,35,22,38,9,14,110,,102,102,6,18,4,5,0.5,0.5
2025-09-11T1500,2439A,112.2014,31.0481,荆门市,竹园小学,,25,16,22,12,19,80,,56,56,4,13,2,1,0.5,0.7
2025-09-11T1500,2440A,112.1969,30.9891,荆门市,掇刀,,25,15,18,14,20,78,,55,55,2,9,2,1,0.4,0.6
2025-09-11T1500,2441A,112.2213,31.0386,荆门市,石化一小,,30,,25,21,29,78,,57,57,5,13,7,5,0.4,0.5
2025-09-11T1500,3012A,112.1849,31.0362,荆门市,西山林语,,24,17,21,9,14,74,,50,50,5,9,1,2,0.3,0.5
2025-09-11T1500,3547A,112.1632,31.0138,荆门市,龙泉中学南校,,26,14,15,3,10,81,,55,55,9,12,2,2,0.4,0.7
2025-09-11T1500,1844A,112.2494,30.3197,荆州市,市图书馆,,28,14,18,7,14,89,,66,66,6,12,3,3,0.5,0.6
2025-09-11T1500,1845A,112.2008,30.3544,荆州市,市委党校,,25,,19,13,13,77,,57,57,7,11,5,6,0.6,0.6
2025-09-11T1500,3194A,112.2747,30.3122,荆州市,管委会,,27,11,18,6,14,86,,64,64,4,9,1,1,0.5,0.6
2025-09-11T1500,4268A,112.1722,30.3366,荆州市,学苑路85号,,27,,20,15,17,85,,67,67,10,15,4,4,0.5,0.5
2025-09-11T1500,2342A,117.3102,29.3867,景德镇市,王港中学,,,,,,,,,,,,,,,,
2025-09-11T1500,2343A,117.2117,29.2933,景德镇市,老干部活动中心,,,15,13,13,8,94,,67,67,6,8,,7,0.3,0.6
2025-09-11T1500,2344A,117.1894,29.2789,景德镇市,兽医站,,29,21,22,12,6,92,,70,70,5,6,7,5,0.6,0.7
2025-09-11T1500,2346A,117.2461,29.2956,景德镇市,陶研所,,33,17,17,15,9,104,,70,70,9,6,10,5,0.6,0.6
2025-09-11T1500,4289A,117.1542,29.2566,景德镇市,青少年活动中心,,28,28,13,9,8,89,,66,66,8,6,11,3,0.6,0.7
2025-09-11T1500,1803A,115.9872,29.6815,九江市,十里,,34,8,11,8,11,107,,77,77,4,13,5,5,0.5,0.5
2025-09-11T1500,1804A,115.9584,29.7046,九江市,茅山头,,33,8,22,3,13,104,,76,76,6,13,4,4,0.5,0.5
2025-09-11T1500,1805A,115.9877,29.7295,九江市,西园,,43,12,12,3,6,135,,86,86,11,19,6,5,0.7,0.7
2025-09-11T1500,1808A,115.9114,29.6038,九江市,综合工业园,,29,11,13,3,5,90,,68,68,8,24,5,6,0.8,0.7
2025-09-11T1500,1809A,116.0721,29.7535,九江市,石化总厂,,31,13,13,3,10,98,,81,81,10,14,5,5,0.5,0.5
2025-09-11T1500,1810A,115.9773,29.5698,九江市,庐山气象台,,,,,,,,,,,,,,,,
2025-09-11T1500,3190A,116.0254,29.6994,九江市,外国语学校,,27,9,11,6,10,85,,70,70,8,15,4,7,0.6,0.7
2025-09-11T1500,4253A,116.0102,29.6594,九江市,莲花大道8号,,25,,10,8,6,78,,62,62,2,5,4,4,0.5,0.5
2025-09-11T1500,4240A,98.4958,39.7339,酒泉市,玉门东路5号,颗粒物(PM10),57,63,69,13,30,113,,82,82,4,19,25,11,0.3,0.4
2025-09-11T1500,4241A,98.5099,39.7506,酒泉市,北大街108号,颗粒物(PM10),51,51,63,20,22,107,,86,86,2,16,11,21,0.2,0.4
2025-09-11T1500,2698A,76.0072,39.4467,喀什地区,巡警大队,颗粒物(PM10),86,121,210,37,62,130,,59,59,11,41,6,6,0.3,0.5
2025-09-11T1500,2699A,75.9755,39.4694,喀什地区,吾办,颗粒物(PM10),85,120,193,37,63,122,,53,53,16,40,6,6,0.2,0.5
2025-09-11T1500,4027A,75.9483,39.4689,喀什地区,老干局,颗粒物(PM10),91,132,154,23,41,123,,56,56,12,29,5,4,0.2,0.3
2025-09-11T1500,1824A,114.3389,34.7781,开封市,肿瘤医院,,31,16,43,10,19,99,,76,76,8,19,3,5,0.6,0.6
2025-09-11T1500,1826A,114.2885,34.7965,开封市,世纪星幼儿园,,34,14,38,8,22,106,,86,86,7,17,4,5,0.6,0.7
2025-09-11T1500,3147A,114.3438,34.8106,开封市,龙亭公园,,30,12,39,7,15,95,,72,72,6,14,5,5,0.6,0.7
2025-09-11T1500,3210A,114.3644,34.7964,开封市,汴京公园,,32,15,44,8,22,101,,72,72,5,15,5,6,0.7,0.7
2025-09-11T1500,3473A,114.2485,34.8306,开封市,技师学院,,29,18,41,15,21,92,,70,70,5,16,6,6,0.7,0.8
2025-09-11T1500,3592A,114.4644,34.7556,开封市,祥符区生态环境局,,28,16,41,7,18,87,,66,66,7,26,3,4,0.5,0.6
2025-09-11T1500,1951A,84.895,45.6094,克拉玛依市,长征新村,,24,19,25,8,11,75,,53,45,8,16,3,3,0.3,0.3
2025-09-11T1500,1952A,84.8988,45.5893,克拉玛依市,南林小区,,,,32,,9,,,51,,,18,,6,,0.9
2025-09-11T1500,1954A,84.905,44.3396,克拉玛依市,独山子区,,28,17,45,3,16,87,,72,72,10,18,4,7,0.3,0.4
2025-09-11T1500,1955A,85.6979,46.098,克拉玛依市,乌尔禾区商贸楼,,25,16,25,8,7,80,,53,53,10,15,3,3,0.1,0.1
2025-09-11T1500,3612A,85.1045,45.6899,克拉玛依市,白碱滩区新站,,48,36,40,33,20,92,,77,77,3,6,5,9,0.1,0.3
2025-09-11T1500,2697A,76.1454,39.7142,克孜勒苏柯尔克孜自治州,市人民政府,颗粒物(PM10),147,244,155,107,65,117,,105,103,6,13,6,13,0.1,0.1
2025-09-11T1500,3665A,76.1658,39.7157,克孜勒苏柯尔克孜自治州,克州文化中心,颗粒物(PM10),145,240,160,102,54,110,,100,99,3,11,8,19,0.2,0.2
2025-09-11T1500,1450A,102.8204,24.8886,昆明市,呈贡新区,,24,12,10,8,8,76,,54,54,6,13,3,3,0.3,0.4
2025-09-11T1500,1451A,102.6251,24.9608,昆明市,西山森林公园,,,,,,,,,,,,,,,,
2025-09-11T1500,1452A,102.7252,25.0902,昆明市,龙泉镇,,,,17,7,7,61,,34,34,6,13,1,1,0.3,0.4
2025-09-11T1500,1453A,102.7266,25.0375,昆明市,东风东路,,20,7,12,6,8,63,,45,45,8,11,3,3,0.3,0.3
2025-09-11T1500,1454A,102.6742,25.0669,昆明市,金鼎山,,20,,16,3,6,61,,38,38,3,9,2,3,0.3,0.3
2025-09-11T1500,1455A,102.6644,25.0401,昆明市,碧鸡广场,,19,9,16,3,10,58,,37,37,6,14,8,9,0.4,0.4
2025-09-11T1500,3179A,102.7494,25.0119,昆明市,官渡区博物馆,,20,,12,6,8,64,,44,44,6,9,2,2,0.2,0.3
2025-09-11T1500,3375A,102.8017,24.8336,昆明市,青年创业园,,20,18,16,10,9,64,,50,50,4,7,2,3,0.6,0.7
2025-09-11T1500,3550A,102.7997,24.9786,昆明市,昆明学院,,21,9,15,6,8,67,,41,41,6,15,6,7,0.3,0.4
2025-09-11T1500,3551A,102.5967,24.6736,昆明市,晋宁区生态环境分局,,21,14,18,3,8,67,,54,54,4,8,2,2,0.3,0.3
2025-09-11T1500,3552A,102.6678,24.9856,昆明市,云天化总部,,18,6,11,3,7,57,,39,39,4,8,5,4,0.4,0.5
2025-09-11T1500,1456A,91.1319,29.6514,拉萨市,八廓街,,37,11,11,10,8,116,,85,85,5,7,6,6,0.3,0.3
2025-09-11T1500,1457A,91.1221,29.6747,拉萨市,市环保局,,37,9,11,7,8,117,,81,81,8,10,7,7,0.4,0.4
2025-09-11T1500,1458A,91.0874,29.6475,拉萨市,区监测站,,35,10,10,6,7,109,,77,77,7,12,4,4,0.2,0.3
2025-09-11T1500,1459A,91.1774,29.6541,拉萨市,西藏大学,,35,9,10,7,7,112,,82,82,8,10,6,7,0.4,0.3
2025-09-11T1500,1460A,90.9798,29.6588,拉萨市,区辐射站,,31,9,12,6,7,98,,69,69,7,13,5,5,0.3,0.3
2025-09-11T1500,1461A,91.0834,29.6292,拉萨市,拉萨火车站,,34,10,11,9,7,106,,77,77,6,9,6,5,0.4,0.4
2025-09-11T1500,2520A,109.2203,23.7256,来宾市,来宾技工学校,,22,16,21,9,8,70,,51,51,3,7,8,8,0.5,0.7
2025-09-11T1500,3535A,109.1781,23.7297,来宾市,兴宾区政府,,22,12,16,12,8,69,,53,53,5,8,7,9,0.6,0.6
2025-09-11T1500,4002A,109.2416,23.7461,来宾市,中南小学,,23,17,18,9,6,72,,50,50,3,10,9,10,0.5,0.6
2025-09-11T1500,1477A,104.1373,35.9454,兰州市,榆中兰大校区,,,,,,,,,,,,,,,,
2025-09-11T1500,1479A,103.831,36.0464,兰州市,铁路设计院,细颗粒物(PM2.5),54,53,50,38,24,154,,86,86,24,34,22,16,0.6,0.7
2025-09-11T1500,3241A,103.7439,36.0842,兰州市,百合公园,,42,41,53,18,22,132,,71,71,2,27,16,10,0.5,0.6
2025-09-11T1500,3242A,103.9611,35.998,兰州市,和平,,50,47,49,21,22,158,,86,86,7,16,14,14,0.5,0.7
2025-09-11T1500,4236A,103.6293,36.0938,兰州市,庄浪东路808号,臭氧1小时,64,64,65,22,29,171,,83,83,20,47,28,26,0.7,0.5
2025-09-11T1500,4237A,103.7251,36.1043,兰州市,安宁西路88号,臭氧1小时,52,42,58,17,26,161,,88,88,7,23,16,13,0.4,0.4
2025-09-11T1500,4238A,103.8470,36.0676,兰州市,北滨河东路1号,,50,39,44,25,25,160,,87,87,9,24,20,16,0.4,0.6
2025-09-11T1500,3245A,103.6633,36.533,兰州新区,新区管委会,,46,38,43,22,25,145,,93,93,5,14,6,9,0.2,0.3
2025-09-11T1500,3246A,103.6975,36.4789,兰州新区,舟曲中学,,40,29,49,15,21,126,,77,77,8,25,14,12,0.3,0.4
2025-09-11T1500,1067A,116.6708,39.5111,廊坊市,药材公司,臭氧1小时,64,58,76,37,43,171,,128,128,14,30,7,8,0.4,0.5
2025-09-11T1500,1068A,116.7214,39.5589,廊坊市,开发区,臭氧1小时,78,70,75,28,34,182,,127,127,12,25,4,3,0.4,0.5
2025-09-11T1500,1070A,116.7244,39.5269,廊坊市,北华航天学院,臭氧1小时,88,66,61,22,39,190,,138,138,6,27,6,6,0.4,0.5
2025-09-11T1500,2919A,116.7022,39.5453,廊坊市,河北工业大学,臭氧1小时,77,55,60,30,37,181,,146,146,8,27,5,4,0.4,0.4
2025-09-11T1500,2535A,103.7723,29.5462,乐山市,花湖湾,,,15,32,11,24,65,,77,53,,16,5,4,0.3,0.4
2025-09-11T1500,2536A,103.7627,29.5844,乐山市,牛耳桥,,23,12,32,10,24,72,,71,59,9,16,5,6,0.5,0.6
2025-09-11T1500,2537A,103.7508,29.6006,乐山市,市第三水厂,,23,11,33,10,22,73,,67,60,8,14,4,4,0.5,0.6
2025-09-11T1500,2538A,103.7571,29.5664,乐山市,市监测站,,23,14,33,11,24,73,,70,62,7,12,7,8,0.7,0.8
2025-09-11T1500,3361A,103.7311,29.5628,乐山市,理工大学,,23,12,31,10,23,72,,70,59,8,15,1,5,0.6,0.7
2025-09-11T1500,2598A,100.2143,26.8576,丽江市,西南郊,,19,8,15,3,9,60,,45,45,2,7,6,7,0.5,1.1
2025-09-11T1500,2599A,100.2497,26.8802,丽江市,丽江古城,,22,22,25,6,14,59,,43,43,8,11,11,10,0.4,0.5
2025-09-11T1500,2600A,100.2203,26.8906,丽江市,市中心,,19,18,16,11,14,60,,44,44,8,12,10,11,0.5,0.5
2025-09-11T1500,1267A,119.914,28.4514,丽水市,监测站大楼,,29,12,13,6,5,90,,73,73,8,12,4,4,0.3,0.5
2025-09-11T1500,1268A,119.93,28.4586,丽水市,莲都小学,,29,17,16,6,6,91,,68,68,4,10,3,4,0.3,0.3
2025-09-11T1500,1269A,119.879,28.4231,丽水市,余庄前,,26,12,17,6,8,82,,62,62,3,11,5,5,0.4,0.4
2025-09-11T1500,1173A,119.176,34.5885,连云港市,市环境监测站,,30,24,21,3,7,96,,101,101,7,8,5,7,0.5,0.5
2025-09-11T1500,3000A,119.3581,34.6972,连云港市,德源药业,,28,24,25,7,7,87,,90,90,11,15,4,4,0.6,0.5
2025-09-11T1500,3007A,119.178,34.844,连云港市,新城一中,,29,23,24,3,7,91,,99,99,14,18,4,4,0.4,0.4
2025-09-11T1500,3008A,119.3608,34.7519,连云港市,胡沟管理处,,25,22,24,3,5,78,,82,82,22,21,7,7,0.6,0.8
2025-09-11T1500,3009A,119.1478,34.5911,连云港市,矿山设计院,,29,19,22,9,9,92,,98,98,9,10,6,8,0.6,0.6
2025-09-11T1500,3434A,119.2413,34.6539,连云港市,工贸学校,,30,18,20,8,9,96,,102,102,4,5,7,8,0.9,0.9
2025-09-11T1500,3664A,119.4172,34.7341,连云港市,连云街道,,32,12,16,3,7,102,,105,105,4,4,4,5,0.4,0.4
2025-09-11T1500,2571A,102.3431,27.8099,凉山彝族自治州,青龙寺,,21,14,25,7,11,65,,39,39,3,10,7,5,0.5,0.7
2025-09-11T1500,2572A,102.2721,27.8415,凉山彝族自治州,邛海宾馆,,21,21,26,13,17,67,,48,48,4,18,13,12,0.5,0.7
2025-09-11T1500,2573A,102.2625,27.898,凉山彝族自治州,西昌市政府,,20,20,29,8,22,60,,38,38,7,17,16,14,0.5,0.7
2025-09-11T1500,2574A,102.2685,27.8851,凉山彝族自治州,凉山州政府,,36,,33,25,25,62,,42,42,6,20,11,12,0.3,0.7
2025-09-11T1500,4229A,102.2342,27.8859,凉山彝族自治州,凯乐南路30号,,19,17,27,7,16,58,,37,37,9,24,18,11,1.0,0.8
2025-09-11T1500,2212A,123.2,41.1953,辽阳市,宏伟区,颗粒物(PM10),56,62,46,25,20,156,,126,126,9,15,4,3,0.7,0.8
2025-09-11T1500,2213A,123.1683,41.2495,辽阳市,新华园,臭氧1小时,63,71,53,30,27,170,,143,143,12,24,6,5,0.7,0.8
2025-09-11T1500,2214A,123.2354,41.2639,辽阳市,滨河路,颗粒物(PM10),60,70,50,29,22,165,,130,130,7,22,7,6,0.7,0.8
2025-09-11T1500,2215A,123.149,41.2991,辽阳市,铁西工业园,臭氧1小时,63,70,56,26,27,170,,132,132,11,20,8,4,0.8,0.9
2025-09-11T1500,2227A,125.1358,42.8845,辽源市,环保局,,39,27,38,11,10,124,,80,80,2,17,9,10,0.5,0.5
2025-09-11T1500,3239A,125.0764,42.9078,辽源市,银鹰制药,,37,22,27,16,16,118,,81,81,7,23,75,30,0.4,0.5
2025-09-11T1500,1625A,115.9848,36.4372,聊城市,区政府,,33,31,55,16,26,104,,85,85,13,23,10,12,0.5,0.7
2025-09-11T1500,2878A,116.0072,36.4343,聊城市,聊大东校,,39,39,63,17,30,105,,84,84,12,26,10,12,0.6,0.8
2025-09-11T1500,3200A,115.9819,36.4978,聊城市,监控中心,,34,34,59,12,25,106,,90,90,11,27,10,11,0.6,0.8
2025-09-11T1500,3513A,116.0445,36.4361,聊城市,九州社区,,,38,66,12,31,92,,74,74,,23,8,7,0.5,0.5
2025-09-11T1500,4018A,116.0567,36.4608,聊城市,星美广场,,37,37,65,17,31,101,,81,81,7,21,6,7,0.5,0.7
2025-09-11T1500,2632A,94.3681,29.6376,林芝市,林芝监测站,,19,6,8,3,5,59,,44,44,6,7,5,4,0.6,0.6
2025-09-11T1500,2633A,94.3616,29.6616,林芝市,林芝人民医院,,,,8,,3,,,28,,,6,,6,,0.5
2025-09-11T1500,2603A,100.0781,23.8982,临沧市,市环保局,,25,,16,17,16,45,,30,30,6,7,7,5,0.6,0.6
2025-09-11T1500,2604A,100.0894,23.8822,临沧市,市气象局,,20,,13,14,14,38,,26,26,9,9,9,9,0.5,0.5
2025-09-11T1500,1733A,111.5531,36.0783,临汾市,临钢医院,,22,15,35,3,10,70,,62,62,7,16,5,5,0.6,0.7
2025-09-11T1500,1734A,111.5028,36.0714,临汾市,技工学校,,20,,35,9,22,64,,59,59,6,15,4,5,0.5,0.7
2025-09-11T1500,1736A,111.5018,36.0855,临汾市,市委,,22,6,44,3,12,70,,64,64,8,18,4,4,0.6,0.8
2025-09-11T1500,3018A,111.505,36.1014,临汾市,唐尧大酒店,,21,16,46,3,12,67,,62,62,8,16,5,6,0.6,0.8
2025-09-11T1500,4244A,111.4879,36.0530,临汾市,启星学校,,23,9,36,8,22,71,,66,66,6,17,3,4,0.6,0.7
2025-09-11T1500,4271A,103.2464,35.6123,临夏回族自治州,滨河东路1号,,31,31,56,12,24,77,,51,51,3,16,9,8,0.2,0.3
2025-09-11T1500,4310A,103.2093,35.5995,临夏回族自治州,新华街21号,颗粒物(PM10),56,61,54,9,27,102,,64,64,5,17,6,7,0.3,0.4
2025-09-11T1500,1618A,118.3429,35.0532,临沂市,沂河小区,,31,31,34,15,17,97,,81,81,14,15,9,9,0.4,0.4
2025-09-11T1500,1619A,118.295,35.0583,临沂市,鲁南制药厂,,32,27,28,12,14,102,,88,88,12,12,9,9,0.6,0.6
2025-09-11T1500,1620A,118.2794,34.9976,临沂市,新光毛纺厂,,30,22,26,16,16,96,,88,88,14,16,7,8,0.4,0.4
2025-09-11T1500,1621A,118.3956,35.0888,临沂市,河东保险公司,,31,31,30,11,11,84,,74,74,12,17,6,7,0.3,0.3
2025-09-11T1500,3370A,118.3564,35.0215,临沂市,十里堡居委,,32,22,29,9,12,100,,85,85,15,18,8,10,0.4,0.3
2025-09-11T1500,3496A,118.3604,35.1084,临沂市,南坊新区,,30,27,33,7,9,96,,82,82,12,17,8,9,0.5,0.4
2025-09-11T1500,3860A,118.3920,35.0300,临沂市,皇山花园小区,,30,24,31,8,13,94,,82,82,15,17,10,10,0.3,0.3
2025-09-11T1500,1870A,109.4856,24.3895,柳州市,柳东小学,,25,19,16,6,8,77,,55,55,4,7,4,4,0.3,0.3
2025-09-11T1500,1871A,109.4157,24.3277,柳州市,环保监测站,,25,,19,17,16,69,,46,46,3,8,7,7,0.5,0.5
2025-09-11T1500,1872A,109.389,24.341,柳州市,河西水厂,,21,6,19,3,10,67,,48,48,4,8,4,5,0.5,0.5
2025-09-11T1500,1873A,109.4311,24.2921,柳州市,市四中,,24,24,20,9,12,72,,47,47,6,12,6,7,0.2,0.3
2025-09-11T1500,1874A,109.4006,24.3631,柳州市,市九中,,22,19,21,3,10,69,,49,49,4,8,3,3,0.5,0.6
2025-09-11T1500,1875A,109.4958,24.3134,柳州市,古亭山,,22,17,17,13,10,68,,49,49,3,8,5,6,0.4,0.5
2025-09-11T1500,3402A,109.5422,24.3996,柳州市,市二中,,22,17,16,7,7,70,,52,52,5,9,7,10,0.6,0.6
2025-09-11T1500,2307A,116.5079,31.737,六安市,监测大楼,,30,15,17,13,14,94,,63,63,3,7,5,4,0.7,0.7
2025-09-11T1500,2308A,116.4738,31.7643,六安市,皖西学院,,31,23,22,13,14,97,,67,67,2,5,3,3,0.4,0.4
2025-09-11T1500,2309A,116.4996,31.7905,六安市,朝阳厂,,29,19,16,12,14,92,,65,65,7,12,6,6,0.5,0.5
2025-09-11T1500,2310A,116.5567,31.7886,六安市,开发区,,30,,10,17,15,96,,66,66,2,8,2,2,0.5,0.5
2025-09-11T1500,2576A,104.8,26.5892,六盘水市,窑上,颗粒物(PM10),70,90,37,23,22,79,,45,45,3,4,1,3,0.4,0.4
2025-09-11T1500,2577A,104.83,26.5917,六盘水市,黄土坡,,24,22,18,13,12,76,,55,53,8,9,2,2,0.4,0.4
2025-09-11T1500,2578A,104.89,26.5939,六盘水市,水钢,,25,22,31,9,25,77,,56,56,4,5,3,3,0.2,0.3
2025-09-11T1500,2579A,104.8475,26.5894,六盘水市,民中,,24,12,15,9,8,76,,56,53,6,7,2,2,0.3,0.3
2025-09-11T1500,2580A,104.9544,26.5506,六盘水市,双水,,23,,14,16,11,69,,52,47,5,6,3,3,0.0,0.1
2025-09-11T1500,2335A,117.0189,25.1181,龙岩市,龙岩师专,,,,,,,,,,,,,,,,
2025-09-11T1500,2336A,117.0217,25.1033,龙岩市,龙岩市监测站,,24,22,13,6,8,74,,56,56,4,8,4,6,0.5,0.5
2025-09-11T1500,2337A,117.0258,25.0661,龙岩市,闽西职业技术学院,,22,14,14,6,5,68,,54,54,2,7,3,6,0.4,0.5
2025-09-11T1500,2338A,117.0196,25.0306,龙岩市,龙岩学院,,21,13,11,10,8,65,,51,51,2,6,6,5,0.5,0.5
2025-09-11T1500,2665A,105.0822,33.3261,陇南市,汉王镇固水子,,,,,,,,,,,,,,,,
2025-09-11T1500,2885A,104.9339,33.3826,陇南市,滨江中学,,20,,34,11,12,63,,46,46,5,5,5,4,0.7,0.7
2025-09-11T1500,3247A,104.955,33.371,陇南市,市总工会,,33,33,31,7,8,58,,50,50,9,6,7,6,0.5,0.5
2025-09-11T1500,2487A,111.9589,27.8901,娄底市,电视发射台,,37,37,42,15,16,84,,55,55,5,5,5,4,0.4,0.3
2025-09-11T1500,2488A,111.9975,27.725,娄底市,市监测站,,22,21,33,10,21,70,,59,59,4,10,5,5,0.5,0.7
2025-09-11T1500,2489A,112.0194,27.7314,娄底市,市委党校,,23,,27,14,22,72,,61,61,6,8,3,2,0.3,0.5
2025-09-11T1500,2490A,111.9561,27.7569,娄底市,涟钢,,31,31,37,17,22,78,,55,55,10,12,6,5,0.9,1.3
2025-09-11T1500,2491A,111.9892,27.7044,娄底市,市政府,,24,16,30,3,20,76,,63,63,3,6,7,6,0.7,0.9
2025-09-11T1500,1893A,105.4324,28.9634,泸州市,九狮山,颗粒物(PM10),52,53,73,25,30,90,,54,54,4,14,6,6,0.3,0.5
2025-09-11T1500,1894A,105.4427,28.9063,泸州市,小市上码头,,49,44,60,34,38,68,,49,49,6,25,5,5,0.5,0.6
2025-09-11T1500,1895A,105.4241,28.8573,泸州市,兰田宪桥,,48,48,72,30,41,62,,30,30,39,21,5,6,0.7,0.8
2025-09-11T1500,1896A,105.4379,28.8833,泸州市,市环监站,,42,37,68,29,46,86,,60,60,8,24,6,5,0.6,0.6
2025-09-11T1500,4272A,105.3689,28.7783,泸州市,纳溪中医医院,,39,39,53,24,42,99,,50,50,11,30,2,2,0.6,0.7
2025-09-11T1500,2183A,111.1406,37.5211,吕梁市,环保局,,39,32,51,27,22,78,,62,62,11,27,1,3,0.8,0.7
2025-09-11T1500,2185A,111.1297,37.5136,吕梁市,自来水公司,,33,32,52,23,20,73,,55,55,9,23,2,6,0.7,0.6
2025-09-11T1500,2867A,111.1283,37.51,吕梁市,马茂庄小学,,41,41,57,17,19,77,,59,59,16,31,4,6,0.7,0.7
2025-09-11T1500,1812A,112.3931,34.6516,洛阳市,市委党校,,28,10,23,3,14,87,,87,87,10,14,5,5,0.4,0.5
2025-09-11T1500,1815A,112.494,34.6886,洛阳市,河南林校,,30,20,29,8,15,95,,94,94,14,17,6,6,0.5,0.6
2025-09-11T1500,1816A,112.3844,34.623,洛阳市,开发区管委会,,32,10,20,8,15,100,,98,98,6,9,3,4,0.5,0.6
2025-09-11T1500,1817A,112.4267,34.6258,洛阳市,市委新办公区,,28,,20,10,20,88,,86,86,8,11,6,7,0.4,0.4
2025-09-11T1500,3340A,112.6005,34.6326,洛阳市,伊滨,,29,16,23,7,17,92,,88,88,12,17,5,5,0.5,0.6
2025-09-11T1500,3341A,112.4951,34.6332,洛阳市,中移产业园,,28,11,25,10,19,89,,87,87,12,15,6,7,0.6,0.7
2025-09-11T1500,3593A,112.5736,34.8993,洛阳市,吉利监测站,,31,27,27,10,18,99,,96,96,10,12,4,4,0.4,0.5
2025-09-11T1500,3635A,112.3677,34.662,洛阳市,河科大西苑校区,,30,11,21,3,10,96,,94,94,14,15,7,7,0.4,0.5
2025-09-11T1500,3636A,112.4388,34.6781,洛阳市,英才小学,,29,,23,11,16,90,,88,88,9,13,6,6,0.5,0.5
2025-09-11T1500,4214A,112.4600,34.6949,洛阳市,春都路1号院,,,,23,10,13,82,,81,81,,18,8,8,,0.4
2025-09-11T1500,2399A,114.051,33.5699,漯河市,三五一五工厂,,18,,19,7,16,57,,50,50,9,12,5,5,0.7,0.7
2025-09-11T1500,2400A,114.0055,33.5698,漯河市,漯河大学,,16,6,22,3,15,51,,49,49,9,12,5,5,0.6,0.6
2025-09-11T1500,2401A,114.0138,33.5828,漯河市,市水利局,,16,6,20,3,13,51,,49,49,9,12,5,5,0.7,0.7
2025-09-11T1500,2402A,114.0261,33.5698,漯河市,市广电局,,19,,19,3,17,58,,54,53,7,10,3,3,0.6,0.6
2025-09-11T1500,3478A,113.9749,33.5664,漯河市,市图书馆,,17,6,18,3,12,52,,51,51,9,11,5,5,0.5,0.5
2025-09-11T1500,4250A,114.0892,33.5882,漯河市,韶山路11号,,20,6,20,3,12,61,,49,49,8,14,4,4,0.6,0.6
2025-09-11T1500,1798A,118.5092,31.6837,马鞍山市,湖东路四小,,46,38,35,17,17,147,,108,108,9,16,7,8,0.5,0.5
2025-09-11T1500,1799A,118.5024,31.6449,马鞍山市,开发区,,49,36,34,22,16,154,,116,116,9,16,6,9,0.4,0.7
2025-09-11T1500,1802A,118.6245,31.7241,马鞍山市,濮塘,,46,31,29,16,19,147,,110,110,6,10,8,8,0.8,0.8
2025-09-11T1500,3633A,118.4918,31.6809,马鞍山市,雨山,,46,33,33,17,17,145,,106,106,10,17,10,11,0.4,0.4
2025-09-11T1500,4191A,118.5274,31.72227,马鞍山市,慈湖高新区,,47,33,34,18,17,149,,107,107,11,17,5,5,0.4,0.4
2025-09-11T1500,1686A,111.0286,21.4688,茂名市,电白南海,,20,17,23,14,13,58,,46,46,4,11,3,4,0.9,0.9
2025-09-11T1500,1687A,110.9294,21.6533,茂名市,茂石化七小,,19,12,14,3,7,60,,44,44,6,10,5,6,0.4,0.5
2025-09-11T1500,1688A,110.9107,21.6687,茂名市,健康路,,21,7,7,7,9,67,,49,49,6,10,4,5,0.5,0.5
2025-09-11T1500,1689A,110.8592,21.6828,茂名市,高岭,,,,21,,4,,,28,,,16,,12,,0.7
2025-09-11T1500,3450A,111.01,21.5165,茂名市,电白水东,,20,14,12,3,6,62,,45,45,4,9,5,7,0.6,0.8
2025-09-11T1500,2539A,104.0308,30.0478,眉山市,黑龙滩水库,,22,8,22,3,14,70,,69,67,6,8,1,2,0.3,0.3
2025-09-11T1500,2540A,103.8416,30.0874,眉山市,气象局,,30,30,39,14,17,74,,58,56,13,15,9,9,0.4,0.3
2025-09-11T1500,3137A,103.8578,30.0744,眉山市,市委党校,,22,14,26,7,13,69,,59,57,14,15,10,9,0.7,0.6
2025-09-11T1500,3148A,103.8291,30.0564,眉山市,区人社局,,24,15,42,7,14,75,,62,62,9,11,10,10,0.9,0.9
2025-09-11T1500,1690A,116.1231,24.3284,梅州市,梅江月梅,,19,6,17,3,7,60,,47,47,6,12,8,9,0.4,0.5
2025-09-11T1500,1691A,116.0797,24.2719,梅州市,梅县新城,,23,23,14,9,6,62,,47,47,3,8,6,6,0.6,0.7
2025-09-11T1500,1692A,116.1248,24.2654,梅州市,环境监控中心,,20,20,16,8,10,59,,41,41,4,9,4,4,0.5,0.5
2025-09-11T1500,3315A,116.1233,24.2991,梅州市,梅龙,,20,7,10,6,8,64,,44,44,4,8,8,8,0.6,0.7
2025-09-11T1500,1878A,104.7778,31.4741,绵阳市,富乐山,,18,9,17,7,12,55,,43,43,5,12,8,8,0.6,0.7
2025-09-11T1500,1880A,104.6697,31.4668,绵阳市,高新区自来水公司,,16,8,21,3,8,50,,40,40,9,17,9,9,0.5,0.6
2025-09-11T1500,1881A,104.7287,31.5075,绵阳市,三水厂,,19,13,20,9,12,59,,37,37,5,17,10,10,0.5,0.6
2025-09-11T1500,3491A,104.69,31.5322,绵阳市,西科大附属小学,,17,13,24,8,13,53,,41,41,16,19,7,7,0.6,0.6
2025-09-11T1500,3492A,104.5648,31.5343,绵阳市,安州区旅游局,,17,6,12,3,7,54,,50,42,13,13,7,9,0.7,0.7
2025-09-11T1500,4226A,104.7651,31.4531,绵阳市,绵阳市气象局,,,,18,,14,51,,43,43,7,14,10,9,0.4,0.5
2025-09-11T1500,1784A,129.61,44.561,牡丹江市,环保大楼,,27,16,20,6,13,86,,60,60,6,15,4,4,0.2,0.3
2025-09-11T1500,1785A,129.6115,44.5782,牡丹江市,文化广场,,28,26,29,14,20,88,,59,59,8,19,6,6,0.3,0.4
2025-09-11T1500,1786A,129.5904,44.5963,牡丹江市,第一医院,,32,32,32,16,24,96,,62,62,9,21,7,8,0.2,0.3
2025-09-11T1500,1787A,129.6364,44.6075,牡丹江市,机车工厂,,29,15,31,12,16,91,,59,59,6,16,6,7,0.3,0.4
2025-09-11T1500,1788A,129.6386,44.5462,牡丹江市,第一中学,,27,16,21,8,16,84,,59,59,4,13,3,3,0.2,0.3
2025-09-11T1500,2531A,105.0703,29.61,内江市,市监测站,,19,19,24,12,24,54,,35,34,10,11,4,4,0.8,0.8
2025-09-11T1500,2532A,105.0717,29.5947,内江市,东兴区政府,,20,20,26,3,18,42,,36,28,16,13,5,6,0.6,0.6
2025-09-11T1500,2533A,105.0653,29.5817,内江市,内江二中,,22,19,30,15,27,50,,40,31,12,13,2,3,0.7,0.7
2025-09-11T1500,2534A,105.0406,29.5822,内江市,内江日报社,,20,,30,14,26,56,,33,30,10,14,6,6,0.5,0.6
2025-09-11T1500,2628A,92.0657,31.4846,那曲市,那曲监测站,,28,17,22,8,9,87,,80,80,15,13,5,5,0.4,0.4
2025-09-11T1500,4243A,92.0515,31.4787,那曲市,那曲市委宣传部,,32,9,12,3,7,102,,91,91,4,7,5,4,0.3,0.3
2025-09-11T1500,1290A,115.8931,28.6843,南昌市,省外办,,32,,20,22,16,85,,56,56,1,5,4,5,0.7,0.8
2025-09-11T1500,1291A,115.8886,28.7003,南昌市,省林业公司,,34,14,14,14,12,106,,74,74,2,8,3,3,0.6,0.6
2025-09-11T1500,1292A,115.8126,28.7442,南昌市,林科所,,31,12,11,9,8,99,,76,76,2,13,5,5,0.3,0.5
2025-09-11T1500,1294A,115.8518,28.687,南昌市,建工学校,,30,10,18,3,2,94,,74,74,9,15,6,7,0.7,0.8
2025-09-11T1500,1295A,115.8921,28.6424,南昌市,象湖,,33,,16,12,11,104,,78,78,7,13,7,8,0.6,0.8
2025-09-11T1500,1296A,115.7423,28.7996,南昌市,武术学校,,20,17,16,14,12,61,,46,46,6,8,10,9,0.6,0.6
2025-09-11T1500,3046A,115.9084,28.6062,南昌市,机电学校,,34,18,25,12,11,108,,80,80,8,14,5,6,0.4,0.5
2025-09-11T1500,3690A,115.9721,28.7031,南昌市,外国语学校,,33,24,19,12,9,104,,86,86,6,10,7,7,0.4,0.4
2025-09-11T1500,4192A,115.9316,28.68677,南昌市,南京东路235号,,35,27,24,18,11,112,,80,80,9,11,9,10,0.8,0.8
2025-09-11T1500,1905A,106.056,30.8064,南充市,西山风景区,,,,,,,,,,,,,,,,
2025-09-11T1500,1906A,106.0789,30.8023,南充市,南充市委,,28,28,28,17,18,53,,32,32,6,12,3,3,0.5,0.5
2025-09-11T1500,1907A,106.1031,30.8217,南充市,南充炼油厂,,30,30,30,13,15,54,,36,36,4,8,5,5,0.2,0.2
2025-09-11T1500,4227A,106.1083,30.7884,南充市,梨树横街98号,,24,24,24,13,15,69,,43,43,4,10,3,2,0.2,0.3
2025-09-11T1500,4304A,106.1172,30.843,南充市,清泉寺北路188号,,22,22,23,14,18,58,,36,36,4,7,4,4,0.2,0.3
2025-09-11T1500,4305A,106.067,30.7616,南充市,同庆路1号,,20,19,17,12,13,61,,38,38,9,15,5,5,0.3,0.4
2025-09-11T1500,1151A,118.8086,32.1065,南京市,迈皋桥,臭氧1小时,70,35,28,24,17,176,,119,119,2,9,3,4,0.7,0.7
2025-09-11T1500,1152A,118.7538,32.0551,南京市,草场门,臭氧1小时,72,51,38,24,17,177,,117,117,13,15,4,4,0.7,0.7
2025-09-11T1500,1153A,118.7794,32.0745,南京市,山西路,臭氧1小时,75,48,38,17,11,180,,125,125,9,12,3,4,0.6,0.6
2025-09-11T1500,1154A,118.7752,32.0023,南京市,中华门,臭氧1小时,54,39,29,17,16,163,,118,118,7,12,4,4,0.5,0.6
2025-09-11T1500,1155A,118.8109,32.0309,南京市,瑞金路,臭氧1小时,58,36,31,19,16,166,,122,122,2,10,6,6,0.5,0.4
2025-09-11T1500,1156A,118.7997,32.0754,南京市,玄武湖,臭氧1小时,63,46,34,15,10,170,,117,117,9,10,4,4,0.4,0.4
2025-09-11T1500,1157A,118.6414,32.0931,南京市,浦口,臭氧1小时,54,45,34,18,13,163,,119,119,12,17,6,7,0.5,0.5
2025-09-11T1500,1158A,118.7356,31.9996,南京市,奥体中心,臭氧1小时,63,44,41,19,18,170,,129,129,11,16,6,7,0.4,0.5
2025-09-11T1500,1159A,118.9125,32.1028,南京市,仙林大学城,臭氧1小时,75,51,39,17,13,180,,126,126,7,10,8,8,0.6,0.7
2025-09-11T1500,3422A,118.8436,31.9198,南京市,江宁彩虹桥,,49,24,31,17,18,154,,122,122,14,19,4,5,0.5,0.6
2025-09-11T1500,3427A,118.8554,32.3578,南京市,六合雄州,,47,33,37,7,14,148,,109,109,14,15,8,6,0.9,0.7
2025-09-11T1500,4249A,118.8708,31.3402,南京市,汶溪路181号,,44,25,21,12,15,139,,112,112,9,12,5,5,0.6,0.7
2025-09-11T1500,4312A,119.019,31.6512,南京市,中山西路1号,,43,29,28,21,17,137,,102,102,11,16,4,4,0.4,0.5
2025-09-11T1500,1401A,108.3103,22.7881,南宁市,二十一中,,22,14,15,8,8,68,,49,49,5,7,4,5,0.4,0.5
2025-09-11T1500,1402A,108.3141,22.8528,南宁市,北湖,,23,18,17,16,11,73,,57,57,4,5,2,3,0.4,0.5
2025-09-11T1500,1403A,108.3206,22.8225,南宁市,市监测站,,22,16,14,7,6,68,,49,49,4,5,4,4,0.4,0.5
2025-09-11T1500,1404A,108.3829,22.8037,南宁市,大自然花园,,21,17,13,7,7,65,,48,48,3,5,5,5,0.5,0.5
2025-09-11T1500,1405A,108.4394,22.7904,南宁市,仙葫,,20,14,16,6,7,64,,50,50,3,6,4,4,0.4,0.5
2025-09-11T1500,1406A,108.2397,22.8467,南宁市,区农职院,,19,12,17,8,7,60,,49,49,9,11,5,6,0.1,0.2
2025-09-11T1500,1407A,108.3275,22.735,南宁市,英华嘉园,,20,,15,11,8,61,,45,45,5,9,1,2,0.4,0.4
2025-09-11T1500,3401A,108.4834,22.7618,南宁市,红星社区,,22,,15,11,10,69,,54,54,4,7,2,3,0.4,0.4
2025-09-11T1500,4221A,108.2177,22.7774,南宁市,乐贤路16号,,33,33,20,15,11,52,,44,44,7,14,3,5,0.5,0.6
2025-09-11T1500,2331A,118.0966,26.6761,南平市,茫荡山,,,,10,,5,,,57,,,,,2,,
2025-09-11T1500,2332A,118.1681,26.6369,南平市,南平市监测站,,19,7,12,3,8,60,,51,51,3,7,4,5,0.4,0.4
2025-09-11T1500,2333A,118.1825,26.6489,南平市,南平铝业有限公司,,19,,13,8,6,59,,52,52,2,7,4,5,0.3,0.5
2025-09-11T1500,2334A,118.1756,26.6272,南平市,南平七中,,20,12,13,6,6,63,,52,52,2,5,3,3,0.3,0.4
2025-09-11T1500,1168A,120.9098,31.9663,南通市,狼山街道,,39,25,25,6,11,122,,108,108,7,13,4,4,0.5,0.6
2025-09-11T1500,1169A,120.86,32.0005,南通市,虹桥,,41,21,23,14,12,130,,116,116,12,13,4,4,0.8,0.7
2025-09-11T1500,1170A,120.87,32.02,南通市,城中,,40,27,30,8,10,128,,110,110,10,15,4,2,0.6,0.5
2025-09-11T1500,1171A,120.94,31.93,南通市,星湖花园,,34,20,22,10,11,108,,96,96,7,11,2,3,0.3,0.4
2025-09-11T1500,1172A,120.81,32.0417,南通市,紫琅学院,,39,29,26,7,8,123,,108,108,9,15,4,4,0.6,0.7
2025-09-11T1500,3291A,121.067,32.062,南通市,通州监测站,,44,19,18,7,8,140,,119,119,5,6,2,2,0.8,0.6
2025-09-11T1500,3432A,120.9348,31.9883,南通市,环境教育馆,,42,27,30,7,12,134,,115,115,5,20,3,5,0.3,0.4
2025-09-11T1500,2404A,112.5224,33.0122,南阳市,瓦房庄,,21,12,14,6,6,66,,61,61,6,6,7,7,0.5,0.5
2025-09-11T1500,2405A,112.5003,32.9735,南阳市,汉画馆,,18,11,10,8,7,57,,52,52,8,8,8,8,0.6,0.7
2025-09-11T1500,2406A,112.5573,33.027,南阳市,气象站,,21,6,7,3,3,65,,60,60,4,4,4,4,0.6,0.6
2025-09-11T1500,2407A,112.5481,32.9689,南阳市,理工学院,,20,8,12,8,7,64,,59,59,6,6,8,8,0.6,0.7
2025-09-11T1500,4008A,112.5234,32.9922,南阳市,卧龙区政府,,20,,6,6,7,62,,56,56,8,9,6,6,0.7,0.7
2025-09-11T1500,1234A,121.8358,29.911,宁波市,区环保大楼,臭氧1小时,82,46,36,20,15,185,,125,125,33,31,10,8,0.6,0.5
2025-09-11T1500,1235A,121.56,29.82,宁波市,万里学院,臭氧1小时,58,33,26,20,14,166,,142,142,7,15,7,8,0.7,0.6
2025-09-11T1500,1236A,121.713,29.9572,宁波市,龙赛医院,,50,43,37,14,11,158,,118,118,14,21,5,8,0.4,0.4
2025-09-11T1500,1239A,121.633,29.7733,宁波市,钱湖水厂,,50,32,21,17,13,157,,124,124,5,8,6,6,0.6,0.6
2025-09-11T1500,1240A,121.5856,29.8635,宁波市,太古小学,臭氧1小时,73,48,35,26,13,178,,125,125,22,18,5,4,0.7,0.6
2025-09-11T1500,1241A,121.524,29.8674,宁波市,市环境监测中心,臭氧1小时,100,37,27,19,11,200,,128,128,24,22,9,8,0.8,0.7
2025-09-11T1500,2871A,121.6147,29.9017,宁波市,万里国际学校,臭氧1小时,101,43,33,22,14,202,,126,126,21,24,8,7,0.7,0.6
2025-09-11T1500,3710A,121.5594,29.8975,宁波市,白沙活动中心,臭氧1小时,105,40,27,20,13,210,,134,134,25,24,11,10,0.6,0.6
2025-09-11T1500,2339A,119.5001,26.6946,宁德市,金涵水库,,,,8,,3,,,31,,,3,,1,,0.4
2025-09-11T1500,2341A,119.5388,26.6612,宁德市,宁德市监测站,,38,18,15,10,9,120,,73,73,5,10,4,3,0.5,0.5
2025-09-11T1500,3209A,119.5231,26.6562,宁德市,宁德一中,,38,18,15,3,8,120,,75,75,4,6,6,5,0.4,0.4
2025-09-11T1500,2618A,98.8601,25.8567,怒江傈僳族自治州,州监测站,,22,22,23,6,13,68,,47,47,6,8,6,6,0.4,0.4
2025-09-11T1500,2619A,98.8546,25.8417,怒江傈僳族自治州,泸水一中,,20,16,21,8,12,62,,33,33,7,10,5,4,0.5,0.5
2025-09-11T1500,1888A,101.6891,26.571,攀枝花市,弄弄坪,,25,25,46,10,22,58,,42,42,11,21,5,17,0.6,0.9
2025-09-11T1500,1889A,101.5769,26.5928,攀枝花市,河门口,,28,22,33,12,14,89,,49,49,10,12,19,15,1.2,0.9
2025-09-11T1500,1890A,101.7169,26.585,攀枝花市,炳草岗,,23,23,47,10,23,63,,37,37,6,24,6,22,0.6,0.9
2025-09-11T1500,1891A,101.7369,26.5008,攀枝花市,仁和,,18,15,24,9,15,56,,35,35,8,13,8,9,0.5,0.7
2025-09-11T1500,2835A,101.7227,26.567,攀枝花市,四十中小,,32,32,38,17,22,64,,41,41,5,18,10,42,0.8,1.1
2025-09-11T1500,1604A,122.0303,41.1489,盘锦市,开发区,臭氧1小时,58,48,36,23,28,166,,138,138,12,18,10,9,0.6,0.6
2025-09-11T1500,1605A,122.0485,41.0883,盘锦市,兴隆台,臭氧1小时,63,44,38,15,22,170,,136,136,17,31,7,8,0.4,0.5
2025-09-11T1500,1606A,121.8297,41.1028,盘锦市,新生街道,臭氧1小时,53,42,31,12,19,162,,137,137,46,27,7,5,0.5,0.6
2025-09-11T1500,1832A,113.3257,33.742,平顶山市,新华旅馆,,25,9,18,8,12,78,,67,67,6,12,4,4,0.4,0.5
2025-09-11T1500,1833A,113.2919,33.737,平顶山市,规划设计院,,24,7,15,3,10,76,,64,64,8,14,4,4,0.6,0.7
2025-09-11T1500,1834A,113.182,33.774,平顶山市,平顶山工学院,,26,11,13,3,8,83,,72,72,10,15,5,5,0.4,0.5
2025-09-11T1500,3204A,113.3025,33.73,平顶山市,规划局,,25,,15,9,9,80,,72,72,8,12,4,3,0.5,0.6
2025-09-11T1500,3594A,112.8867,33.9116,平顶山市,石龙区,,28,6,15,6,10,87,,73,73,10,9,4,4,0.5,0.6
2025-09-11T1500,2656A,106.6692,35.5461,平凉市,聚贤嘉苑,,31,31,30,11,19,63,,60,46,9,12,21,20,0.9,0.8
2025-09-11T1500,2657A,106.7021,35.5307,平凉市,博物馆,,33,33,40,12,14,61,,60,47,9,13,9,9,0.7,0.6
2025-09-11T1500,2347A,114.0997,27.5002,萍乡市,武功山,,21,,8,6,4,67,,41,41,4,3,13,11,0.5,0.4
2025-09-11T1500,2348A,113.8385,27.6434,萍乡市,中医院,,24,7,16,6,11,74,,66,66,6,10,3,6,0.5,0.7
2025-09-11T1500,2349A,113.8493,27.6253,萍乡市,市政府车库,,24,,16,8,15,75,,59,59,2,7,10,12,0.3,1
2025-09-11T1500,2350A,113.8676,27.6435,萍乡市,市环保局,,23,7,21,3,15,73,,62,62,3,7,5,9,0.2,0.5
2025-09-11T1500,2351A,113.866,27.6198,萍乡市,安源区政府,,24,12,20,11,15,74,,57,57,2,8,9,13,0.2,0.6
2025-09-11T1500,2319A,119.0141,25.4325,莆田市,荔城区仓后路,,35,31,24,14,11,109,,96,96,7,10,7,7,0.6,0.6
2025-09-11T1500,2320A,119.0015,25.4553,莆田市,莆田市监测站,,39,33,18,13,6,123,,97,97,8,7,6,6,0.5,0.4
2025-09-11T1500,2321A,119.1119,25.4561,莆田市,涵江区六中,,35,16,20,8,10,111,,99,99,5,10,5,5,0.4,0.4
2025-09-11T1500,2322A,119.1013,25.3215,莆田市,秀屿区政府,,34,16,21,12,12,106,,92,92,6,11,5,6,0.4,0.4
2025-09-11T1500,2323A,118.981,25.4792,莆田市,东圳水库,,,,13,,5,,,75,,,5,,4,,0.7
2025-09-11T1500,2392A,115.0312,35.7636,濮阳市,环保局,,49,34,50,34,30,70,,60,60,17,18,6,6,0.8,0.7
2025-09-11T1500,2394A,115.0574,35.7609,濮阳市,油田运输公司,颗粒物(PM10),52,53,60,28,30,80,,62,62,13,18,5,6,0.9,0.8
2025-09-11T1500,3021A,115,35.7668,濮阳市,濮水河管理处,,45,45,50,23,26,42,,48,41,14,21,4,4,0.7,0.6
2025-09-11T1500,4216A,115.0924,35.7686,濮阳市,任丘路479号,细颗粒物(PM2.5),57,58,66,40,33,73,,61,61,14,20,6,8,0.8,0.7
2025-09-11T1500,2601A,100.98,22.7633,普洱市,市环保局,,14,14,22,8,17,39,,32,32,2,4,6,6,0.4,0.5
2025-09-11T1500,2602A,100.9817,22.8322,普洱市,普洱第二中学,,,24,25,3,10,42,,32,32,,8,6,6,,0.5
2025-09-11T1500,2262A,131.0518,45.8751,七台河市,新一中,,26,11,8,6,6,81,,58,58,6,10,10,10,0.5,0.9
2025-09-11T1500,3345A,131.0577,45.7879,七台河市,中波台,,17,15,13,3,6,52,,41,41,10,21,7,7,0.5,0.7
2025-09-11T1500,3637A,131.0176,45.7761,七台河市,人民广场,,24,9,24,3,11,74,,54,54,6,18,12,11,0.4,0.6
2025-09-11T1500,3684A,130.8781,45.8222,七台河市,新建矿广场,,22,22,14,11,10,65,,48,48,7,14,7,10,0.4,0.3
2025-09-11T1500,1779A,123.9305,47.3636,齐齐哈尔市,安居小区,,28,28,33,16,11,53,,48,48,13,18,4,4,0.4,0.6
2025-09-11T1500,1780A,123.9488,47.3386,齐齐哈尔市,中心广场,,32,32,22,3,5,61,,56,56,14,17,5,5,0.4,0.4
2025-09-11T1500,1781A,123.9483,47.3227,齐齐哈尔市,农牧车辆厂,,41,41,31,8,10,55,,54,54,14,18,4,4,0.4,0.5
2025-09-11T1500,1783A,123.945,47.2988,齐齐哈尔市,市环境监测站,,27,27,19,3,5,59,,56,56,13,15,6,6,0.3,0.3
2025-09-11T1500,3662A,123.6333,47.2075,齐齐哈尔市,富区青少年活动中心,,35,35,28,7,6,49,,54,54,14,10,5,4,0.4,0.3
2025-09-11T1500,2591A,107.9783,26.5747,黔东南苗族侗族自治州,市环境监测站,,19,,12,13,13,54,,43,43,2,11,2,2,0.4,0.6
2025-09-11T1500,2881A,107.8908,26.5311,黔东南苗族侗族自治州,凯里学院,,19,,6,6,7,60,,40,40,6,10,6,6,0.4,0.4
2025-09-11T1500,2593A,107.5228,26.2403,黔南布依族苗族自治州,小围寨,,16,6,7,3,2,51,,44,44,2,4,1,1,0.3,0.3
2025-09-11T1500,3538A,107.5175,26.2978,黔南布依族苗族自治州,沙坝,,20,7,12,3,3,61,,53,53,2,6,3,3,0.3,0.2
2025-09-11T1500,2589A,104.9022,25.0925,黔西南布依族苗族自治州,场坝街,,16,11,14,6,6,49,,40,40,5,5,3,5,0.3,0.4
2025-09-11T1500,2590A,104.8811,25.0992,黔西南布依族苗族自治州,坪东大道,,15,9,18,3,8,46,,40,40,4,4,3,2,0.6,0.5
2025-09-11T1500,2502A,108.6236,21.9667,钦州市,市环保站,,17,7,13,3,5,54,,39,39,6,10,4,3,0.4,0.4
2025-09-11T1500,2503A,108.6549,21.9481,钦州市,沙埠小学,,22,22,17,11,8,48,,39,39,4,9,1,2,0.5,0.5
2025-09-11T1500,2504A,108.5989,21.7431,钦州市,港区一小,,16,16,24,10,8,25,,25,25,26,17,4,4,0.7,0.8
2025-09-11T1500,3404A,108.5959,21.9633,钦州市,北职校,,16,16,16,7,9,51,,40,40,6,10,4,4,0.4,0.5
2025-09-11T1500,1043A,119.7493,40.0116,秦皇岛市,第一关,,49,40,57,17,23,154,,127,127,3,57,5,6,0.3,0.5
2025-09-11T1500,1044A,119.5897,39.9499,秦皇岛市,监测站,,46,45,51,13,14,145,,119,119,7,35,6,7,0.3,0.6
2025-09-11T1500,1046A,119.5251,39.9041,秦皇岛市,建设大厦,,42,35,68,9,12,134,,114,114,1,30,6,8,0.3,0.6
2025-09-11T1500,3132A,119.610547,39.943889,秦皇岛市,文明里,,42,32,58,7,17,133,,114,114,8,32,7,8,0.2,0.4
2025-09-11T1500,4198A,119.5090,39.8253,秦皇岛市,北戴河轮滑馆,,43,43,57,10,20,131,,107,107,3,17,2,3,0.6,0.7
2025-09-11T1500,1307A,120.6659,36.2403,青岛市,仰口,,34,20,23,9,11,107,,96,96,8,9,11,11,0.6,0.6
2025-09-11T1500,1310A,120.4134,36.0658,青岛市,市南区东部子站,,44,22,20,14,12,138,,126,126,2,3,7,7,0.3,0.3
2025-09-11T1500,1311A,120.3664,36.1032,青岛市,四方区子站,,43,27,37,9,14,135,,117,117,1,4,7,4,0.2,0.2
2025-09-11T1500,1312A,120.2994,36.054,青岛市,市南区西部子站,,39,24,22,3,11,124,,114,114,10,15,6,6,0.5,0.5
2025-09-11T1500,1313A,120.4581,36.0858,青岛市,崂山区子站,,43,24,18,12,8,136,,117,117,2,4,8,8,0.2,0.2
2025-09-11T1500,1315A,120.3999,36.3083,青岛市,城阳区子站,,35,19,36,7,14,112,,96,96,12,21,4,4,0.3,0.4
2025-09-11T1500,1966A,120.0405,35.8735,青岛市,黄岛区4号,,,,,,,,,,,,,,,,
2025-09-11T1500,3362A,120.5014,36.4034,青岛市,即墨2号,,40,19,25,9,12,125,,116,116,4,8,4,4,0.2,0.2
2025-09-11T1500,3642A,120.3503,36.0736,青岛市,市北区南部,,39,,24,17,10,123,,108,108,6,5,6,6,0.6,0.6
2025-09-11T1500,3643A,120.3948,36.1805,青岛市,李沧区北部,,36,14,23,9,15,113,,98,98,9,13,5,5,0.3,0.3
2025-09-11T1500,4290A,120.1969,35.9546,青岛市,珠江路669号,,35,17,19,10,12,112,,110,110,8,5,7,6,0.3,0.3
2025-09-11T1500,1702A,113.0426,23.691,清远市,环保大楼,,,62,25,34,12,166,,79,79,12,12,,19,0.6,0.5
2025-09-11T1500,1703A,113.0208,23.7106,清远市,凤城街办,细颗粒物(PM2.5),60,44,19,43,12,167,,81,81,15,15,8,9,0.5,0.5
2025-09-11T1500,3025A,113.0477,23.6344,清远市,技师学院,臭氧1小时,60,35,25,21,14,168,,79,79,10,18,8,10,0.4,0.4
2025-09-11T1500,3318A,112.9903,23.7403,清远市,清新太和,臭氧1小时,54,42,23,27,14,163,,82,82,12,15,6,4,0.5,0.5
2025-09-11T1500,3455A,113.076,23.7198,清远市,清城东城,细颗粒物(PM2.5),58,45,18,41,11,159,,87,87,10,12,8,9,0.6,0.7
2025-09-11T1500,2661A,107.6325,35.7357,庆阳市,庆阳五中,,19,19,19,9,11,39,,58,44,8,6,7,7,0.5,0.4
2025-09-11T1500,2662A,107.6364,35.7067,庆阳市,市环保局,,21,21,18,13,19,44,,61,47,6,6,3,2,0.7,0.6
2025-09-11T1500,1916A,103.7897,25.5035,曲靖市,环境监测站,,23,12,20,3,8,71,,50,50,6,9,4,5,0.4,0.4
2025-09-11T1500,1917A,103.8,25.5364,曲靖市,烟厂办公区,,22,7,16,3,10,68,,48,48,3,6,3,4,0.3,0.5
2025-09-11T1500,3376A,103.7947,25.462,曲靖市,南苑二区,,21,9,13,3,7,65,,47,47,3,6,4,4,0.5,0.6
2025-09-11T1500,3377A,103.7444,25.5261,曲靖市,曲靖师范学院,,24,,12,7,8,76,,52,52,6,6,3,1,0.4,0.3
2025-09-11T1500,1264A,118.8692,28.9398,衢州市,环保大楼,,35,20,21,10,12,110,,75,75,4,12,4,4,0.3,0.3
2025-09-11T1500,1265A,118.8709,28.9666,衢州市,实验学校,,34,12,17,9,11,108,,76,76,4,13,6,5,0.3,0.3
2025-09-11T1500,1266A,118.8621,28.9808,衢州市,衢州学院,,31,12,17,7,10,99,,76,76,8,14,4,4,0.3,0.3
2025-09-11T1500,1611A,118.5819,24.9117,泉州市,涂山街,,46,28,24,17,15,146,,124,124,10,13,2,2,0.5,0.5
2025-09-11T1500,1612A,118.5972,24.8978,泉州市,津头埔,,43,27,24,18,15,136,,120,120,9,11,4,3,0.4,0.4
2025-09-11T1500,1613A,118.6663,24.9424,泉州市,万安,,37,28,27,19,15,116,,115,115,7,13,2,2,0.4,0.5
2025-09-11T1500,1614A,118.6117,24.9604,泉州市,清源山,,,,23,,11,,,91,,,4,,2,,0.4
2025-09-11T1500,3529A,118.6333,24.9264,泉州市,城华南路,,38,28,24,15,13,119,,119,119,9,10,3,3,0.4,0.4
2025-09-11T1500,2626A,88.8876,29.2718,日喀则市,日喀则监测站,,37,6,5,3,1,116,,105,105,2,6,12,12,0.2,0.3
2025-09-11T1500,3726A,88.8781,29.2426,日喀则市,林业技术推广中心,,,,7,,1,,,94,,,3,,6,,0.4
2025-09-11T1500,1659A,119.471,35.4209,日照市,监测站,,35,14,21,12,13,110,,97,97,6,25,7,6,0.5,0.6
2025-09-11T1500,1660A,119.523,35.4216,日照市,市政府广场,,35,14,15,7,6,111,,115,113,6,5,5,5,0.6,0.6
2025-09-11T1500,1661A,119.5587,35.4044,日照市,港务局,,36,,16,19,19,114,,115,114,3,4,3,3,0.6,0.6
2025-09-11T1500,3507A,119.5328,35.4625,日照市,职业技术学院,,34,19,19,3,7,108,,107,107,4,6,4,5,0.6,0.6
2025-09-11T1500,3604A,119.3266,35.1044,日照市,岚山环保分局,,32,14,21,3,3,100,,108,108,8,10,7,7,0.5,0.5
2025-09-11T1500,1835A,111.1922,34.7752,三门峡市,市政府,,30,,24,6,16,94,,78,78,9,9,6,6,0.3,0.4
2025-09-11T1500,1836A,111.1587,34.7942,三门峡市,开发区,,27,,27,3,19,85,,70,70,12,13,4,5,0.3,0.5
2025-09-11T1500,1838A,111.143,34.7955,三门峡市,风景区,,28,7,21,3,14,88,,75,75,9,8,4,4,0.4,0.6
2025-09-11T1500,3039A,111.1911,34.7829,三门峡市,三门峡市第一小学,,29,6,24,3,14,90,,75,75,5,7,6,5,0.4,0.5
2025-09-11T1500,3598A,111.1,34.7167,三门峡市,富达温泉假日酒店,,28,6,22,3,15,89,,68,68,5,12,5,6,0.2,0.6
2025-09-11T1500,2324A,117.6211,26.2625,三明市,三钢,,36,30,13,12,11,113,,71,71,8,10,9,5,1.2,1
2025-09-11T1500,2325A,117.635,26.2714,三明市,三明二中,,37,37,20,3,6,110,,65,65,7,6,10,4,1.4,0.8
2025-09-11T1500,2326A,117.6028,26.2378,三明市,三元区政府,,34,15,11,3,4,106,,71,71,5,8,6,4,0.3,0.4
2025-09-11T1500,2327A,117.7275,26.3108,三明市,洋溪,,,,12,,6,,,54,,,7,,8,,0.9
2025-09-11T1500,1876A,109.5078,18.2489,三亚市,河东子站,,,12,16,6,10,42,,38,38,,8,3,2,0.4,0.5
2025-09-11T1500,1877A,109.4964,18.2681,三亚市,河西子站,,14,9,17,6,7,42,,36,36,3,6,3,3,0.5,0.5
2025-09-11T1500,3540A,109.7348,18.3443,三亚市,君悦子站,,15,,1,3,5,47,,42,42,2,4,3,3,0.3,0.4
2025-09-11T1500,2624A,91.7608,29.2313,山南市,山南监测站,,27,6,5,3,2,86,,67,63,4,7,3,3,0.2,0.2
2025-09-11T1500,2625A,91.7706,29.2436,山南市,山南人民医院,,27,6,8,3,4,85,,69,62,2,6,3,3,0.3,0.3
2025-09-11T1500,1674A,116.6794,23.3667,汕头市,金平子站,,29,26,22,11,10,92,,77,77,9,15,3,3,0.4,0.6
2025-09-11T1500,1675A,116.7244,23.3633,汕头市,龙湖子站,,25,17,20,9,7,80,,68,68,3,10,7,9,0.6,0.7
2025-09-11T1500,1676A,116.7258,23.2775,汕头市,濠江子站,,26,20,22,9,8,82,,66,66,5,9,6,7,0.6,0.7
2025-09-11T1500,1677A,116.7519,23.4714,汕头市,澄海子站,,24,14,25,12,11,76,,68,68,3,14,3,7,0.6,0.7
2025-09-11T1500,1678A,116.6092,23.2539,汕头市,潮阳子站,,20,19,22,13,9,64,,70,70,11,6,12,6,1.1,0.6
2025-09-11T1500,3444A,116.454,23.2684,汕头市,潮南峡山,,,16,23,9,14,82,,83,83,6,9,,7,0.5,0.6
2025-09-11T1500,3624A,116.4069,23.2533,汕头市,潮南子站,,,14,17,11,16,88,,77,77,7,9,,5,0.6,0.7
2025-09-11T1500,1693A,115.3653,22.775,汕尾市,市环保局,,19,12,11,6,5,60,,47,47,5,7,3,3,0.4,0.4
2025-09-11T1500,1694A,115.3706,22.7898,汕尾市,市政府,,20,10,11,3,4,62,,45,45,4,7,4,4,0.4,0.4
2025-09-11T1500,1695A,115.3622,22.7925,汕尾市,新城中学,,19,10,15,3,6,59,,45,45,6,7,5,5,0.4,0.4
2025-09-11T1500,2645A,109.9154,33.8715,商洛市,监测站,,12,,20,7,10,36,,32,32,9,16,3,4,0.6,0.6
2025-09-11T1500,3045A,109.9643,33.8471,商洛市,商州区中学,,25,,20,17,9,26,,24,24,18,20,4,5,0.6,0.5
2025-09-11T1500,2408A,115.6702,34.4285,商丘市,环境监测站,,34,11,33,9,14,108,,83,83,3,12,3,3,0.4,0.5
2025-09-11T1500,2409A,115.6458,34.4045,商丘市,粮食局,,33,13,30,3,8,104,,83,83,6,11,3,4,0.2,0.3
2025-09-11T1500,2410A,115.6293,34.3948,商丘市,睢阳区环保局,,,,37,10,14,104,,84,84,4,8,4,4,0.2,0.3
2025-09-11T1500,3171A,115.6071,34.4465,商丘市,梁园区档案局,,33,,30,11,16,105,,86,86,2,12,5,5,0.4,0.5
2025-09-11T1500,1141A,121.4,31.238,上海市,普陀,,47,36,32,16,14,150,,131,131,19,18,5,5,0.5,0.5
2025-09-11T1500,1142A,121.478,31.2036,上海市,十五厂,,47,34,31,13,14,148,,134,134,8,12,9,8,0.7,0.8
2025-09-11T1500,1143A,121.467,31.3008,上海市,虹口,,41,33,33,21,16,131,,118,118,11,13,6,7,0.2,0.2
2025-09-11T1500,1147A,121.425,31.2261,上海市,静安监测站,,,71,33,9,14,154,,139,139,14,17,4,4,,0.4
2025-09-11T1500,1148A,121.703,31.1907,上海市,浦东川沙,,36,25,30,12,13,115,,105,105,7,13,7,7,0.6,0.6
2025-09-11T1500,1149A,121.533,31.2284,上海市,浦东新区监测站,,43,26,29,19,24,136,,124,124,8,12,5,5,0.6,0.6
2025-09-11T1500,1150A,121.577,31.2071,上海市,浦东张江,,,26,31,12,14,136,,129,129,,20,6,6,0.6,0.7
2025-09-11T1500,3265A,121.4316,31.3322,上海市,宝山庙行,,37,35,32,16,14,117,,113,113,17,19,9,9,0.5,0.5
2025-09-11T1500,3266A,121.8791,31.4662,上海市,崇明上实东滩,,38,17,21,9,13,120,,115,115,4,5,4,4,0.4,0.4
2025-09-11T1500,3268A,121.3162,31.2838,上海市,嘉定南翔,,44,36,33,20,16,139,,123,123,15,22,5,5,0.3,0.3
2025-09-11T1500,3269A,121.3359,30.7456,上海市,金山新城,,47,26,31,14,15,148,,95,95,6,14,5,5,0.7,0.8
2025-09-11T1500,3270A,121.4996,31.0739,上海市,闵行浦江,,49,28,31,12,13,155,,134,134,7,12,5,4,1.0,1.1
2025-09-11T1500,3271A,121.2886,31.1663,上海市,青浦徐泾,,,28,29,11,13,181,,151,151,,14,7,8,0.6,0.6
2025-09-11T1500,3272A,121.2186,31.0378,上海市,松江图书馆,臭氧1小时,73,21,27,14,15,178,,144,144,12,20,5,5,0.5,0.6
2025-09-11T1500,3273A,121.3902,31.2059,上海市,长宁仙霞,,46,36,32,11,15,147,,128,128,13,17,7,8,0.5,0.5
2025-09-11T1500,3274A,121.7965,31.0507,上海市,浦东惠南,,45,32,36,11,12,142,,130,130,8,13,6,6,0.7,0.8
2025-09-11T1500,3544A,121.4891,30.925,上海市,奉贤南桥新城,,50,28,37,14,19,157,,137,137,8,14,6,6,0.6,0.6
2025-09-11T1500,4183A,121.4174,31.16637,上海市,冠生园路458号,,43,25,28,13,15,136,,121,121,12,16,4,4,0.6,0.6
2025-09-11T1500,4205A,121.5419,31.2683,上海市,宁武路151号,,40,36,35,14,16,127,,114,114,18,23,5,4,0.4,0.5
2025-09-11T1500,2381A,118.005,28.4572,上饶市,百草园,,,,,,,,,,,,,,,,
2025-09-11T1500,2382A,117.9756,28.4436,上饶市,市监测站,,27,17,24,7,11,85,,82,82,2,8,4,6,0.2,0.3
2025-09-11T1500,2383A,117.9519,28.4628,上饶市,凤凰光学,,27,20,27,6,15,84,,78,78,2,11,6,10,0.1,0.3
2025-09-11T1500,3685A,117.897,28.4315,上饶市,双创科技城,,28,15,22,3,12,87,,77,77,6,16,7,9,0.3,0.4
2025-09-11T1500,4211A,118.1904,28.4448,上饶市,裕丰大道,,28,16,22,3,8,89,,81,81,5,11,3,2,0.4,0.5
2025-09-11T1500,1669A,113.5824,24.7733,韶关市,市八中,,48,48,22,25,10,102,,64,64,5,9,7,10,0.5,0.7
2025-09-11T1500,1671A,113.5917,24.7972,韶关市,园林处,,33,16,16,14,9,105,,63,63,6,12,7,11,0.5,0.7
