timepoint,stationcode,longitude,latitude,area,positionname,primarypollutant,aqi,pm10,pm10_24h,pm2_5,pm2_5_24h,o3,o3_24h,o3_8h,o3_8h_24h,no2,no2_24h,so2,so2_24h,co,co_24h
2025-09-11T1700,2566A,102.1879,31.914,阿坝藏族羌族自治州,州农科所,,16,11,17,3,7,50,,44,44,3,8,1,2,0.3,0.3
2025-09-11T1700,2568A,102.2502,31.8896,阿坝藏族羌族自治州,马师校,,20,20,15,10,8,47,,43,43,5,7,8,8,0.5,0.6
2025-09-11T1700,3994A,102.2165,31.9024,阿坝藏族羌族自治州,马尔康中学西区,,17,17,19,9,12,52,,46,46,2,5,8,9,0.5,0.5
2025-09-11T1700,2695A,80.292,41.1694,阿克苏地区,电视台,颗粒物(PM10),131,211,114,42,37,106,,83,83,3,11,6,5,0.6,0.8
2025-09-11T1700,2696A,80.2613,41.1551,阿克苏地区,艺术中心,颗粒物(PM10),106,162,113,37,42,111,,82,82,2,17,,4,0.3,0.5
2025-09-11T1700,2204A,105.6467,38.8363,阿拉善盟,西城区西花园,颗粒物(PM10),91,132,55,45,23,72,,65,65,14,15,12,10,1.2,1
2025-09-11T1700,2205A,105.6985,38.8411,阿拉善盟,蒙二幼,颗粒物(PM10),88,125,60,55,22,120,,117,117,10,7,11,9,0.6,0.4
2025-09-11T1700,2206A,105.724,38.8516,阿拉善盟,环保局新楼,颗粒物(PM10),88,125,53,44,22,124,,117,117,9,5,10,9,0.7,0.5
2025-09-11T1700,2708A,88.1264,47.8517,阿勒泰地区,市站,,21,18,27,14,8,65,,55,55,15,12,3,3,0.4,0.5
2025-09-11T1700,2630A,80.1161,32.5,阿里地区,阿里监测站,,,6,3,3,3,112,,97,97,,12,4,5,0.2,0.3
2025-09-11T1700,3192A,80.0903,32.5028,阿里地区,阿里藏医院,,37,17,16,3,3,117,,,,6,6,6,6,0.1,0.1
2025-09-11T1700,2642A,109.0318,32.6537,安康市,香溪洞,,14,,16,3,7,44,,46,44,6,8,6,6,0.5,0.5
2025-09-11T1700,2644A,109.0072,32.6975,安康市,汉滨区检察院,,12,,28,8,15,32,,38,38,12,10,3,4,0.6,0.6
2025-09-11T1700,4054A,109.0325,32.6913,安康市,市邮政管理局,,14,,22,8,10,44,,45,45,10,11,4,5,0.7,0.7
2025-09-11T1700,2291A,117.0809,30.5177,安庆市,环科院,,32,12,17,8,6,101,,89,89,6,9,6,8,0.6,0.7
2025-09-11T1700,2292A,117.0331,30.5119,安庆市,马山宾馆,,30,14,16,10,5,94,,80,80,2,13,4,5,0.7,0.9
2025-09-11T1700,2294A,116.9896,30.6145,安庆市,安庆大学,,34,12,20,8,7,107,,99,99,5,11,4,5,0.6,0.5
2025-09-11T1700,3173A,117.0598,30.5351,安庆市,市人大,,31,12,17,9,6,98,,91,91,6,14,8,7,0.5,0.6
2025-09-11T1700,3122A,105.9606,26.2611,安顺市,伍家关,,21,11,12,6,7,66,,60,60,2,3,6,6,0.4,0.5
2025-09-11T1700,3123A,105.9408,26.2431,安顺市,凤凰山,,21,13,14,8,9,66,,61,60,3,4,6,6,0.4,0.4
2025-09-11T1700,3124A,105.9439,26.2564,安顺市,金钟山,,21,10,11,9,8,65,,60,59,2,3,6,6,0.5,0.6
2025-09-11T1700,3125A,105.8983,26.2481,安顺市,娄家坡,,20,16,12,13,8,62,,61,57,2,2,5,5,0.5,0.5
2025-09-11T1700,1818A,114.4839,36.0621,安阳市,棉研所,,,,,,,,,,,,,,,,
2025-09-11T1700,1819A,114.3551,36.1017,安阳市,红庙街,,41,41,40,22,16,94,,86,86,12,16,5,6,0.3,0.3
2025-09-11T1700,1820A,114.361,36.0681,安阳市,银杏小区,,34,34,40,22,23,98,,86,86,13,18,6,7,0.5,0.5
2025-09-11T1700,3141A,114.3922,36.0878,安阳市,信访局,,37,37,44,23,20,97,,88,88,15,18,5,6,0.6,0.6
2025-09-11T1700,3669A,114.4705,36.0637,安阳市,左辅环卫站,颗粒物(PM10),53,55,51,22,28,92,,75,75,14,21,6,6,0.4,0.6
2025-09-11T1700,3703A,114.2917,36.0949,安阳市,安钢职工学校,,30,28,36,21,20,91,,80,80,11,14,6,6,0.4,0.5
2025-09-11T1700,1748A,123.044,41.1196,鞍山市,深沟寺,,45,44,36,26,20,142,,160,160,12,12,10,8,1.1,1
2025-09-11T1700,1749A,123.011,41.0931,鞍山市,太阳城,,43,42,40,21,22,136,,161,157,20,13,9,8,0.8,0.8
2025-09-11T1700,1750A,123.0485,41.1442,鞍山市,太平,颗粒物(PM10),51,52,51,24,24,145,,159,159,12,16,11,9,0.9,1
2025-09-11T1700,1751A,122.9642,41.0971,鞍山市,铁西三道街,颗粒物(PM10),54,58,60,25,28,136,,154,154,16,29,8,8,0.8,1
2025-09-11T1700,1753A,123.022,41.0821,鞍山市,明达新区,,46,46,40,24,22,131,,145,145,13,14,10,9,1.0,0.9
2025-09-11T1700,1754A,123.1289,41.0228,鞍山市,千山,,,,25,,18,,,84,,,4,,4,,0.5
2025-09-11T1700,4201A,122.9446,41.0826,鞍山市,兴盛南路290号,颗粒物(PM10),54,58,65,24,25,139,,160,160,18,38,9,9,0.8,1
2025-09-11T1700,2195A,107.4212,40.761,巴彦淖尔市,附二中,颗粒物(PM10),52,54,79,22,32,105,,57,57,8,27,9,14,0.4,0.6
2025-09-11T1700,2196A,107.37,40.7372,巴彦淖尔市,市环保大楼,,49,49,83,24,28,93,,50,50,9,30,9,11,0.4,0.7
2025-09-11T1700,1956A,86.1472,41.7538,巴音郭楞蒙古自治州,孔雀公园,颗粒物(PM10),55,59,51,17,21,106,,99,90,2,8,5,5,0.2,0.2
2025-09-11T1700,1957A,86.1972,41.7166,巴音郭楞蒙古自治州,棉纺厂,颗粒物(PM10),57,64,63,12,14,114,,106,106,2,6,4,4,0.1,0.2
2025-09-11T1700,1958A,86.2357,41.7173,巴音郭楞蒙古自治州,经济开发区,颗粒物(PM10),54,58,43,14,12,107,,104,104,1,3,5,5,0.2,0.2
2025-09-11T1700,2914A,106.7677,31.8794,巴中市,苏山坪,,13,13,13,8,7,17,,30,26,4,4,3,3,0.4,0.5
2025-09-11T1700,3181A,106.7768,31.8526,巴中市,市五中,,18,18,19,9,10,16,,24,24,12,9,6,6,0.6,0.6
2025-09-11T1700,3183A,106.7418,31.8654,巴中市,圣泉水务公司,,11,11,14,6,13,22,,22,22,6,8,6,6,0.6,0.6
2025-09-11T1700,3616A,106.7616,31.8344,巴中市,市中心医院,,15,15,19,3,7,17,,25,25,12,13,7,7,0.6,0.6
2025-09-11T1700,2235A,122.7911,45.6077,白城市,洮北区环保局,,35,29,22,9,10,109,,102,102,8,6,6,4,0.6,0.3
2025-09-11T1700,2236A,122.8738,45.5725,白城市,市环保局,,36,36,25,22,10,110,,107,107,7,15,3,4,0.6,0.4
2025-09-11T1700,2231A,126.4219,41.9171,白山市,喜丰,,36,36,45,10,15,100,,84,84,4,15,6,7,0.5,0.7
2025-09-11T1700,2232A,126.4077,41.9419,白山市,环保局,,34,33,27,19,17,106,,93,93,9,11,7,7,0.6,0.5
2025-09-11T1700,2647A,104.1724,36.5446,白银市,第三小学,颗粒物(PM10),83,116,51,18,19,106,,92,92,7,15,5,22,0.2,0.7
2025-09-11T1700,2648A,104.1465,36.5482,白银市,动力公司,颗粒物(PM10),72,94,48,12,19,103,,98,98,5,15,7,15,0.4,0.6
2025-09-11T1700,2512A,106.6103,23.9011,百色市,市监测站,,33,33,38,12,19,77,,71,71,6,14,6,10,0.4,0.7
2025-09-11T1700,2513A,106.6538,23.8859,百色市,市中心血站,,23,22,40,11,20,73,,66,66,12,19,6,9,0.5,0.8
2025-09-11T1700,3406A,106.6085,23.8798,百色市,祈福高中,,28,28,43,14,24,71,,64,64,9,18,5,9,0.5,0.7
2025-09-11T1700,2270A,117.396,32.939,蚌埠市,工人疗养院,,30,26,31,7,12,95,,78,78,6,11,4,5,0.4,0.4
2025-09-11T1700,2271A,117.3605,32.9427,蚌埠市,百货大楼,,28,14,24,10,12,87,,72,72,12,15,7,7,0.5,0.5
2025-09-11T1700,2273A,117.4185,32.8911,蚌埠市,蚌埠学院,,29,22,24,7,14,91,,72,72,15,11,6,6,0.3,0.4
2025-09-11T1700,2274A,117.3533,32.9673,蚌埠市,淮上区政府,,28,24,27,10,13,88,,77,77,12,10,6,6,0.4,0.5
2025-09-11T1700,2275A,117.3145,32.8977,蚌埠市,高新区,,27,22,25,9,12,85,,67,67,24,14,8,6,0.4,0.5
2025-09-11T1700,3715A,117.3092,32.9314,蚌埠市,蚌埠田家炳中学,,31,15,26,3,11,97,,71,71,7,14,5,6,0.3,0.4
2025-09-11T1700,1585A,109.8756,40.6532,包头市,市环境监测站,,,42,36,23,15,99,,81,81,20,20,5,8,,0.5
2025-09-11T1700,1587A,109.9991,40.5842,包头市,包头八中,,,51,43,17,21,104,,85,85,17,19,5,10,,0.6
2025-09-11T1700,1588A,109.8538,40.6821,包头市,青山宾馆,,35,34,37,24,23,97,,78,78,17,23,4,8,0.7,0.7
2025-09-11T1700,1589A,109.8642,40.6288,包头市,惠龙物流,,40,40,37,20,16,108,,86,86,12,15,4,8,0.5,0.5
2025-09-11T1700,1590A,110.0377,40.5546,包头市,东河鸿龙湾,,48,48,42,15,18,105,,95,95,22,20,6,15,0.6,0.9
2025-09-11T1700,3283A,109.9154,40.5685,包头市,滨河大厦,,40,40,36,23,16,115,,95,95,10,16,4,7,0.5,0.5
2025-09-11T1700,3419A,109.9447,40.6261,包头市,包头市委党校,,35,18,36,16,15,112,,89,89,12,18,5,11,0.6,0.7
2025-09-11T1700,3683A,109.8331,40.6576,包头市,昆区政府,,43,43,41,22,22,114,,86,86,14,18,5,8,0.7,0.7
2025-09-11T1700,1930A,107.185,34.3063,宝鸡市,庙沟村,,18,13,24,8,15,55,,50,46,12,12,5,4,0.6,0.6
2025-09-11T1700,1931A,107.0708,34.3017,宝鸡市,竹园沟,,15,10,26,7,19,46,,45,45,10,11,8,8,0.5,0.5
2025-09-11T1700,1932A,107.1906,34.3672,宝鸡市,三陆医院,,16,10,33,6,21,50,,58,41,15,13,6,6,0.8,0.8
2025-09-11T1700,1933A,107.1431,34.3547,宝鸡市,监测站,,16,14,34,11,22,50,,61,44,13,12,4,4,0.8,0.7
2025-09-11T1700,1934A,107.1186,34.3739,宝鸡市,技工学校,,17,17,32,10,24,46,,54,40,13,13,6,6,0.7,0.6
2025-09-11T1700,1936A,107.2058,34.3497,宝鸡市,文理学院,,19,17,31,13,23,50,,63,45,14,12,7,7,0.7,0.7
2025-09-11T1700,1937A,107.2386,34.3622,宝鸡市,三迪小学,,16,15,30,11,31,50,,58,42,15,15,5,5,0.7,0.7
2025-09-11T1700,4308A,107.3898,34.3601,宝鸡市,陈仓区北开路21号,,15,,29,7,20,48,,54,48,12,11,6,5,0.5,0.5
2025-09-11T1700,1051A,115.493,38.8632,保定市,游泳馆,,49,49,55,20,28,154,,155,155,8,22,3,3,0.3,0.3
2025-09-11T1700,1052A,115.5213,38.8959,保定市,华电二区,,,47,60,20,27,152,,157,156,,23,2,3,0.1,0.2
2025-09-11T1700,1053A,115.4713,38.9108,保定市,接待中心,,48,48,54,21,31,139,,138,138,5,17,3,4,0.2,0.5
2025-09-11T1700,1054A,115.4612,38.8416,保定市,地表水厂,颗粒物(PM10),51,51,70,15,21,140,,146,146,14,22,6,7,0.3,0.4
2025-09-11T1700,3581A,115.31981,38.95208,保定市,满城区生态环境分局,颗粒物(PM10),52,53,72,24,33,158,,146,146,9,23,1,2,0.3,0.3
2025-09-11T1700,3582A,115.47694,38.76408,保定市,清苑区第二中学,颗粒物(PM10),61,71,78,18,27,136,,150,150,4,17,2,3,0.4,0.4
2025-09-11T1700,3583A,115.62909,39.02311,保定市,徐水物探局,颗粒物(PM10),51,51,79,28,48,156,,161,161,12,31,3,4,0.2,0.5
2025-09-11T1700,4004A,115.4202,38.8656,保定市,双鹰农机,颗粒物(PM10),53,55,60,22,27,149,,148,148,7,21,4,4,0.3,0.3
2025-09-11T1700,4034A,115.5150,38.8590,保定市,植保所站,,,69,70,32,33,150,,153,153,13,29,,7,0.5,0.6
2025-09-11T1700,2594A,99.1678,25.1081,保山市,市环境监测站,,22,,18,15,19,63,,62,62,4,7,6,7,0.3,0.4
2025-09-11T1700,2595A,99.1711,25.1328,保山市,市环保局,,21,19,18,3,10,66,,67,67,3,4,6,6,0.4,0.4
2025-09-11T1700,1866A,109.2262,21.588,北海市,牛尾岭水库,,18,18,14,3,7,45,,46,46,3,5,6,6,0.5,0.5
2025-09-11T1700,1867A,109.1436,21.4086,北海市,海滩公园,,19,16,20,3,3,58,,57,57,3,5,3,4,0.6,0.5
2025-09-11T1700,1868A,109.0981,21.4661,北海市,新市环保局,,49,,15,34,10,57,,54,54,4,8,4,4,0.5,0.5
2025-09-11T1700,1869A,109.1778,21.5233,北海市,北海工业园,,23,23,19,3,8,54,,53,53,3,8,3,5,0.4,0.4
2025-09-11T1700,3400A,109.1911,21.4415,北海市,龙潭自来水厂,,19,10,13,6,7,59,,57,57,4,6,4,4,0.4,0.5
2025-09-11T1700,1001A,116.3621,39.8784,北京市,万寿西宫,臭氧1小时,63,33,58,17,37,170,,145,145,16,22,3,3,0.4,0.7
2025-09-11T1700,1002A,116.2202,40.2915,北京市,定陵,臭氧1小时,73,24,50,15,33,178,,153,153,4,5,5,4,0.4,0.5
2025-09-11T1700,1003A,116.4174,39.9289,北京市,东四,臭氧1小时,72,35,69,18,39,177,,158,158,9,24,4,4,0.5,0.6
2025-09-11T1700,1004A,116.4072,39.8863,北京市,天坛,,50,32,51,15,34,158,,145,145,9,18,5,4,0.5,0.6
2025-09-11T1700,1005A,116.462,39.9365,北京市,农展馆,臭氧1小时,52,30,55,15,36,161,,140,140,9,27,3,3,0.4,0.6
2025-09-11T1700,1006A,116.3392,39.9295,北京市,官园,臭氧1小时,62,34,60,15,37,169,,148,148,7,20,4,4,0.5,0.6
2025-09-11T1700,1007A,116.2878,39.9611,北京市,海淀万柳,,47,34,59,16,35,150,,136,136,9,35,4,4,0.5,0.7
2025-09-11T1700,1008A,116.6636,40.135,北京市,顺义新城,,,,,,,,,,,,,,,,
2025-09-11T1700,1009A,116.6275,40.3275,北京市,怀柔镇,臭氧1小时,72,36,51,18,33,177,,150,150,15,12,2,1,0.7,0.8
2025-09-11T1700,1010A,116.2296,40.217,北京市,昌平镇,,50,31,60,18,44,159,,131,131,12,16,3,4,0.6,0.7
2025-09-11T1700,1011A,116.3966,39.9821,北京市,奥体中心,,49,30,55,14,32,156,,132,132,7,28,4,4,0.5,0.6
2025-09-11T1700,3281A,115.9718,40.4529,北京市,延庆夏都,,48,27,51,14,32,152,,134,134,8,10,3,2,0.4,0.5
2025-09-11T1700,3418A,116.8336,40.4095,北京市,密云新城,臭氧1小时,67,49,45,23,28,173,,144,144,9,7,4,3,0.5,0.5
2025-09-11T1700,3671A,116.088,39.9726,北京市,门头沟三家店,,49,29,55,14,33,156,,139,139,8,23,4,3,0.6,0.8
2025-09-11T1700,3672A,116.1541,39.8204,北京市,丰台云岗,,50,37,62,18,39,159,,137,137,9,22,1,1,0.5,0.6
2025-09-11T1700,3673A,116.6804,39.9081,北京市,通州东关,臭氧1小时,59,37,74,17,40,167,,148,148,8,20,4,3,0.5,0.6
2025-09-11T1700,3674A,115.9577,39.7603,北京市,房山燕山,,48,44,56,23,35,152,,132,132,10,13,2,1,0.4,0.5
2025-09-11T1700,3675A,116.4672,39.7733,北京市,大兴旧宫,臭氧1小时,52,34,54,14,30,161,,144,144,8,16,3,3,0.5,0.7
2025-09-11T1700,3694A,115.986,40.4563,北京市,延庆石河营,,46,30,52,13,31,146,,125,125,4,6,2,1,0.5,0.4
2025-09-11T1700,3695A,116.6151,40.3053,北京市,怀柔新城,臭氧1小时,68,34,46,18,32,174,,147,147,12,8,4,4,0.6,0.7
2025-09-11T1700,3696A,116.2545,39.8768,北京市,丰台小屯,,46,34,62,16,38,146,,131,131,7,26,2,2,0.6,0.7
2025-09-11T1700,3697A,116.84,40.3844,北京市,密云镇,臭氧1小时,79,51,49,30,32,183,,148,148,9,21,4,3,0.5,0.6
2025-09-11T1700,4182A,116.1942,39.9158,北京市,八角北路9号,臭氧1小时,59,39,70,17,40,167,,144,144,9,33,3,4,0.5,0.7
2025-09-11T1700,4194A,117.0790,40.1518,北京市,洳河巡河路,,,,76,,46,,,128,,2,8,,4,,0.7
2025-09-11T1700,1761A,123.8275,41.3064,本溪市,大峪,,48,48,52,25,24,139,,136,136,5,20,6,6,0.7,1
2025-09-11T1700,1762A,123.7567,41.3325,本溪市,溪湖,,50,50,68,24,32,128,,124,124,12,21,6,6,1.0,1.5
2025-09-11T1700,1763A,123.7169,41.3094,本溪市,彩屯,细颗粒物(PM2.5),72,,53,52,42,110,,114,114,27,31,12,8,2.3,1.6
2025-09-11T1700,1764A,123.7669,41.2864,本溪市,东明,颗粒物(PM10),51,51,60,26,30,134,,130,130,10,26,7,7,0.8,1.2
2025-09-11T1700,1765A,123.7992,41.2664,本溪市,新立屯,颗粒物(PM10),51,51,42,24,22,129,,133,133,8,22,6,6,0.6,0.9
2025-09-11T1700,1766A,123.8142,41.3472,本溪市,威宁,颗粒物(PM10),53,55,66,24,27,130,,123,123,7,16,5,5,0.5,0.8
2025-09-11T1700,2587A,105.2864,27.3125,毕节市,八中,,25,13,14,9,20,77,,66,66,4,7,6,6,0.4,0.5
2025-09-11T1700,2588A,105.31,27.2944,毕节市,师专,,24,10,28,10,18,74,,63,63,9,9,8,8,0.5,0.6
2025-09-11T1700,4263A,105.3688,27.3598,毕节市,工业大道,,23,12,23,8,16,71,,64,64,9,9,7,7,0.6,0.7
2025-09-11T1700,1629A,118.0018,37.3617,滨州市,第二水厂,,39,34,71,27,40,109,,132,132,16,34,6,9,0.4,0.8
2025-09-11T1700,1630A,117.9776,37.393,滨州市,北中新校,,39,36,64,17,36,124,,145,145,18,36,6,8,0.4,0.7
2025-09-11T1700,3514A,117.9378,37.3956,滨州市,中海酒店,,41,31,63,22,35,129,,149,149,12,30,5,6,0.5,0.9
2025-09-11T1700,3515A,117.9378,37.3553,滨州市,开发区一中,,41,41,80,22,41,121,,154,154,16,34,6,9,0.6,1
2025-09-11T1700,3516A,118.0917,37.694,滨州市,金海六路,,39,32,67,7,36,124,,143,143,9,22,5,7,0.2,0.4
2025-09-11T1700,4028A,117.9956,37.3753,滨州市,滨州市西街道办事处,,36,36,66,19,37,111,,135,135,18,30,5,7,0.4,0.7
2025-09-11T1700,2311A,115.8072,33.8399,亳州市,污水处理厂,,30,,16,10,16,94,,82,82,4,9,3,11,0.2,0.3
2025-09-11T1700,2312A,115.7789,33.8518,亳州市,三国揽胜宫,,31,,23,19,18,98,,86,86,4,9,4,10,0.3,0.5
2025-09-11T1700,3332A,115.7633,33.8034,亳州市,亳州学院,,,,14,,7,98,,86,86,6,8,,7,0.3,0.4
2025-09-11T1700,2693A,82.0485,44.8556,博尔塔拉蒙古自治州,市党校,,32,32,36,18,17,101,,77,77,7,16,5,5,0.1,0.3
2025-09-11T1700,2694A,82.0806,44.8969,博尔塔拉蒙古自治州,市环保局,,42,42,44,18,15,101,,76,76,7,20,7,9,0.3,0.5
2025-09-11T1700,1071A,116.8842,38.2991,沧州市,沧县城建局,臭氧1小时,93,75,58,30,31,194,,189,189,14,30,7,5,0.6,0.6
2025-09-11T1700,1072A,116.8584,38.3254,沧州市,电视转播站,臭氧1小时,88,71,60,39,33,190,,178,178,10,21,6,4,0.5,0.5
2025-09-11T1700,1073A,116.8709,38.3228,沧州市,市环保局,臭氧1小时,85,85,65,40,33,188,,185,185,11,24,10,7,0.5,0.5
2025-09-11T1700,3324A,116.8136,38.3004,沧州市,河北水利电力学院,臭氧1小时,92,66,60,27,31,193,,188,188,12,25,10,8,0.5,0.5
2025-09-11T1700,2622A,97.1806,31.1273,昌都市,昌都监测站,,22,6,5,3,4,68,,62,62,2,3,4,4,0.1,0.1
2025-09-11T1700,3719A,97.1714,31.1406,昌都市,昌都会议中心,,,,,,,,,,,,,,,,
2025-09-11T1700,2690A,88.1236,43.8886,昌吉回族自治州,天山天池,,23,22,14,8,4,71,,56,56,14,9,6,6,0.5,0.4
2025-09-11T1700,2692A,87.2717,44.0297,昌吉回族自治州,新区政务中心,,50,50,33,10,11,107,,86,86,6,16,8,8,0.2,0.3
2025-09-11T1700,3613A,87.3095,44.0142,昌吉回族自治州,亚心广场,颗粒物(PM10),69,88,49,9,11,108,,86,86,9,22,8,8,0.3,0.4
2025-09-11T1700,1120A,125.2863,43.9027,长春市,客车厂,,37,36,42,19,19,118,,112,112,8,40,4,4,0.5,0.5
2025-09-11T1700,1121A,125.2841,43.8463,长春市,邮电学院,,39,39,31,13,13,116,,108,108,9,24,5,5,0.5,0.5
2025-09-11T1700,1122A,125.3716,43.8772,长春市,劳动公园,,43,43,46,20,22,121,,112,112,9,31,8,8,0.3,0.3
2025-09-11T1700,1123A,125.3297,43.8805,长春市,园林处,,38,33,33,17,28,119,,109,109,7,26,4,4,0.7,0.6
2025-09-11T1700,1124A,125.4605,43.79,长春市,净月潭,,33,30,18,20,11,105,,97,97,5,7,4,4,0.5,0.4
2025-09-11T1700,1125A,125.7194,43.515,长春市,甩湾子,,,,,,,,,,,,,,,,
2025-09-11T1700,1126A,125.3863,43.8447,长春市,经开区环卫处,,47,47,51,11,14,109,,100,100,10,31,4,4,0.6,0.6
2025-09-11T1700,1127A,125.245,43.7783,长春市,高新区管委会,,35,34,27,12,16,111,,103,103,6,23,4,5,0.5,0.5
2025-09-11T1700,1128A,125.1761,43.8325,长春市,岱山公园,,40,40,41,22,20,109,,104,104,16,42,3,4,0.5,0.5
2025-09-11T1700,4281A,125.3346,43.9164,长春市,北亚泰大街1068号,,39,39,44,19,20,116,,108,108,11,36,7,8,0.6,0.5
2025-09-11T1700,1335A,113.0833,28.2325,长沙市,经开区环保局,,27,24,34,6,19,86,,97,96,8,14,5,5,0.3,0.5
2025-09-11T1700,1336A,112.8872,28.2189,长沙市,高开区环保局,,31,26,39,8,17,97,,93,93,8,10,5,5,0.3,0.4
2025-09-11T1700,1337A,113.0792,28.2053,长沙市,马坡岭,,30,21,34,8,17,95,,103,103,2,11,5,5,0.4,0.5
2025-09-11T1700,1338A,112.9394,28.19,长沙市,湖南师范大学,,32,29,36,7,18,102,,101,101,4,9,5,4,0.5,0.7
2025-09-11T1700,1339A,113.0178,28.1322,长沙市,雨花区环保局,,30,21,30,12,14,93,,94,94,2,9,6,7,0.4,0.5
2025-09-11T1700,1340A,112.9792,28.2597,长沙市,伍家岭,,33,25,35,11,18,105,,99,99,5,10,3,2,0.4,0.4
2025-09-11T1700,1341A,113.0014,28.1944,长沙市,火车新站,,31,22,34,12,18,97,,98,98,2,9,6,7,0.5,0.6
2025-09-11T1700,1342A,112.9844,28.1178,长沙市,天心区环保局,,29,24,29,7,14,92,,96,96,4,12,4,4,0.2,0.3
2025-09-11T1700,1343A,112.8908,28.1308,长沙市,湖南中医药大学,,32,21,36,21,24,101,,96,96,2,9,7,4,0.2,0.2
2025-09-11T1700,1344A,112.9581,28.3611,长沙市,沙坪,,39,,42,15,21,122,,110,110,7,11,4,3,0.4,0.5
2025-09-11T1700,1727A,113.1147,36.1547,长治市,清华站,,30,10,21,3,11,93,,79,79,9,13,7,8,0.4,0.7
2025-09-11T1700,1730A,113.0886,36.2125,长治市,审计局,,30,11,21,7,12,94,,82,82,9,12,6,6,0.5,0.8
2025-09-11T1700,1731A,113.0844,36.1856,长治市,长治八中,,30,12,24,12,20,93,,78,78,3,10,7,8,0.6,0.9
2025-09-11T1700,2845A,113.1569,36.1911,长治市,德盛苑,,,12,21,3,10,84,,75,75,3,8,7,7,,0.8
2025-09-11T1700,3568A,113.06,36.0464,长治市,向阳小学,,43,43,37,20,18,94,,87,87,11,14,4,4,0.5,0.7
2025-09-11T1700,3569A,112.8792,36.3144,长治市,屯留一中,,30,,22,19,20,95,,70,70,8,8,8,8,0.5,0.7
2025-09-11T1700,4189A,113.1131,36.19948,长治市,英华南巷50号,,27,,24,7,19,86,,75,75,10,13,7,8,0.8,0.9
2025-09-11T1700,4190A,113.2367,36.3344,长治市,学府街1号,,31,13,31,3,17,97,,89,89,5,10,1,3,0.3,0.6
2025-09-11T1700,1854A,111.6975,28.9703,常德市,市二中,,36,24,19,17,16,114,,85,85,5,8,4,4,0.5,0.5
2025-09-11T1700,1857A,111.7158,29.1456,常德市,白鹤山,,,,,,,,,,,,,,,,
2025-09-11T1700,3138A,111.7153,29.0289,常德市,武陵区永安,,35,22,20,16,13,109,,85,85,4,6,4,4,0.7,0.8
2025-09-11T1700,3139A,111.6892,28.9881,常德市,鼎城区玉霞,,34,26,19,21,13,108,,90,90,3,5,5,5,0.5,0.6
2025-09-11T1700,3140A,111.6625,29.0531,常德市,武陵区长庚,,34,,18,16,13,106,,82,82,5,7,5,5,0.7,0.8
2025-09-11T1700,1196A,119.9633,31.762,常州市,市监测站,臭氧1小时,67,27,31,13,18,173,,164,164,9,14,13,13,0.4,0.5
2025-09-11T1700,1200A,119.9468,31.7069,常州市,武进监测站,臭氧1小时,57,35,36,12,16,165,,159,159,23,17,10,12,0.4,0.7
2025-09-11T1700,1201A,119.9255,31.9087,常州市,安家,臭氧1小时,62,30,36,12,16,169,,156,156,13,20,12,11,0.6,0.7
2025-09-11T1700,3002A,119.9805,31.8174,常州市,行政中心,臭氧1小时,62,37,38,15,16,169,,159,159,12,17,3,3,0.5,0.6
2025-09-11T1700,3003A,120.0522,31.7748,常州市,经开区,臭氧1小时,57,38,42,11,14,165,,157,157,18,20,5,5,0.6,0.7
2025-09-11T1700,3010A,119.9025,31.7964,常州市,钟楼,臭氧1小时,54,26,33,14,15,163,,154,154,15,17,7,8,0.5,0.5
2025-09-11T1700,3429A,119.8598,31.7066,常州市,武进经发区,,,35,43,21,19,186,,171,171,,13,9,9,0.5,0.7
2025-09-11T1700,3430A,119.5826,31.7245,常州市,金坛城区,臭氧1小时,105,28,30,21,18,209,,172,172,16,17,9,8,0.6,0.6
2025-09-11T1700,2220A,120.4318,41.5881,朝阳市,西梁,颗粒物(PM10),55,60,46,31,27,158,,132,132,11,21,6,7,0.8,0.7
2025-09-11T1700,2221A,120.4521,41.5646,朝阳市,河畔小区,臭氧1小时,65,55,40,29,23,172,,144,144,7,15,6,8,0.7,0.7
2025-09-11T1700,2222A,120.4176,41.5648,朝阳市,八里堡,颗粒物(PM10),72,93,54,30,25,168,,140,140,12,22,7,9,0.7,0.8
2025-09-11T1700,2223A,120.3806,41.5969,朝阳市,农业园区,,50,48,38,32,25,159,,146,146,8,16,5,5,0.6,0.6
2025-09-11T1700,1705A,116.6367,23.6719,潮州市,西园路,,34,25,18,11,8,106,,93,93,8,8,4,3,0.4,0.4
2025-09-11T1700,3026A,116.6183,23.6608,潮州市,市政府,,31,26,23,12,9,98,,94,94,13,9,6,8,0.5,0.5
2025-09-11T1700,4036A,116.6461,23.6761,潮州市,金山,,33,31,22,3,5,105,,92,92,6,6,6,6,0.5,0.5
2025-09-11T1700,2472A,113.0073,25.9061,郴州市,马头岭,,21,19,16,3,7,66,,63,63,7,8,5,5,0.2,0.2
2025-09-11T1700,2473A,113.0116,25.8226,郴州市,市职中,,19,7,10,6,7,59,,50,50,4,7,4,4,0.4,0.5
2025-09-11T1700,2475A,113.0383,25.8071,郴州市,市审计局,,20,,9,3,6,61,,54,54,7,8,5,6,0.4,0.4
2025-09-11T1700,2476A,113.0348,25.7759,郴州市,市环保局,,20,11,13,3,6,64,,57,57,4,6,4,4,0.2,0.3
2025-09-11T1700,4252A,113.0138,25.8011,郴州市,好美居路49号,,21,16,10,3,6,65,,60,60,7,6,5,4,0.3,0.3
2025-09-11T1700,1431A,103.9728,30.7236,成都市,金泉两河,,17,11,24,3,12,52,,58,57,11,13,2,2,0.5,0.5
2025-09-11T1700,1432A,104.176,30.6872,成都市,十里店,,20,,29,9,19,62,,72,66,12,15,2,2,0.5,0.5
2025-09-11T1700,1433A,104.079,30.5706,成都市,三瓦窑,,,,27,,18,,,82,,,18,,2,,0.6
2025-09-11T1700,1434A,104.1114,30.63,成都市,沙河铺,,19,19,31,11,17,58,,66,61,11,5,1,1,0.5,0.7
2025-09-11T1700,1437A,104.0786,30.6531,成都市,君平街,,21,,32,11,17,66,,75,71,12,12,1,1,0.6,0.7
2025-09-11T1700,1438A,103.613,31.0283,成都市,灵岩寺,,,,,,,,,,,,,,,,
2025-09-11T1700,2880A,104.0239,30.65639,成都市,大石西路,,22,22,32,10,20,57,,59,59,13,16,1,2,0.6,0.7
2025-09-11T1700,3136A,104.2725,30.5589,成都市,龙泉驿区区政府,,19,7,20,3,11,58,,78,63,15,18,4,5,0,0.5
2025-09-11T1700,3357A,104.0106,30.6931,成都市,金博路,,18,16,24,10,14,55,,51,,11,16,6,6,0.4,0.6
2025-09-11T1700,3359A,104.0578,30.5225,成都市,华阳,,19,7,22,7,21,60,,69,64,14,17,3,2,0.6,0.7
2025-09-11T1700,3488A,104.3853,30.7453,成都市,青白江技师分院,,15,,31,7,24,46,,52,43,14,20,2,3,0.6,0.6
2025-09-11T1700,3489A,104.0789,30.4072,成都市,科学城,,21,9,28,7,20,65,,70,66,11,15,4,4,0.7,0.7
2025-09-11T1700,4011A,103.8506,30.6947,成都市,光华大道三段,,17,15,25,6,14,53,,62,62,12,15,2,2,0.6,0.6
2025-09-11T1700,4224A,104.2433,30.5353,成都市,鲸龙路1057号,,16,6,32,3,23,51,,71,55,18,23,4,4,0.5,0.6
2025-09-11T1700,1062A,117.9531,40.9081,承德市,铁路,细颗粒物(PM2.5),63,63,51,45,27,140,,119,119,9,16,1,1,0.4,0.5
2025-09-11T1700,1063A,117.9392,40.9763,承德市,中国银行,颗粒物(PM10),53,56,45,33,21,145,,122,122,6,11,1,2,0.4,0.4
2025-09-11T1700,1064A,117.9503,40.928,承德市,开发区,颗粒物(PM10),60,69,49,24,25,148,,125,125,10,16,4,3,0.5,0.5
2025-09-11T1700,1066A,117.9268,41.0026,承德市,离宫,颗粒物(PM10),57,63,39,31,12,136,,118,118,5,7,4,4,0.4,0.4
2025-09-11T1700,4274A,117.7994,40.9605,承德市,滨河大街98号,颗粒物(PM10),56,61,35,32,22,143,,124,124,3,7,1,3,0.3,0.3
2025-09-11T1700,2314A,117.47,30.6618,池州市,池州学院,,,11,14,3,5,92,,95,94,,8,5,5,0.5,0.7
2025-09-11T1700,3237A,117.4918,30.6617,池州市,展览馆,,29,10,12,3,4,91,,98,98,5,8,5,4,0.5,0.7
2025-09-11T1700,3333A,117.5627,30.695,池州市,第八中学,,27,11,16,6,7,84,,96,96,4,6,5,6,0.5,0.7
2025-09-11T1700,3334A,117.5038,30.6243,池州市,第十二中学,,28,8,19,3,6,88,,95,95,8,12,4,4,0.6,0.9
2025-09-11T1700,1744A,118.9233,42.2816,赤峰市,松山一中,,43,35,37,15,17,135,,131,131,8,15,7,9,0.5,0.6
2025-09-11T1700,1745A,118.9576,42.2728,赤峰市,哈达街,,45,45,43,14,21,129,,125,125,13,18,11,13,0.5,0.6
2025-09-11T1700,1746A,118.8788,42.2554,赤峰市,天义路,,48,,21,33,24,127,,124,124,10,14,6,9,0.5,0.5
2025-09-11T1700,3058A,119.2658,42.0353,赤峰市,银河街,颗粒物(PM10),55,60,58,16,27,106,,103,103,5,10,7,14,0.7,0.8
2025-09-11T1700,3286A,118.9359,42.3147,赤峰市,桥北物流园区,,38,34,44,24,24,120,,121,121,15,23,9,12,0.7,0.8
2025-09-11T1700,2521A,107.3476,22.4136,崇左市,市环保局江州分局,,10,,23,6,7,30,,56,56,18,12,1,7,0.6,0.7
2025-09-11T1700,4256A,107.3750,22.3736,崇左市,石景林东路7号,,,,16,6,8,38,,61,58,,12,,4,0.4,0.5
2025-09-11T1700,2298A,118.3093,32.3153,滁州市,老年大学,,44,44,43,20,24,117,,131,131,4,11,6,7,0.4,0.5
2025-09-11T1700,2299A,118.3244,32.2786,滁州市,人大宾馆,,41,37,33,17,25,129,,137,137,14,18,7,6,0.6,0.5
2025-09-11T1700,3207A,118.3118,32.3038,滁州市,市政府原办公楼,,48,43,38,33,33,112,,130,130,15,18,7,8,0.6,0.6
2025-09-11T1700,3331A,118.3267,32.2634,滁州市,图书馆,,44,31,30,20,21,138,,136,136,9,14,12,12,0.6,0.6
2025-09-11T1700,2605A,101.5482,25.0441,楚雄彝族自治州,州环境监测站,,13,6,7,3,5,41,,39,39,1,2,7,7,0.6,0.6
2025-09-11T1700,2606A,101.538,25.0492,楚雄彝族自治州,市经济开发区,,14,7,12,3,7,43,,40,40,3,6,7,6,0.6,0.7
2025-09-11T1700,2548A,107.5277,31.2827,达州市,达州职业技术学院,,22,22,29,3,2,39,,34,34,4,9,7,7,0.4,0.4
2025-09-11T1700,2549A,107.5086,31.2186,达州市,市环境监测站,,20,20,27,3,0,62,,51,51,11,20,6,9,0.4,0.4
2025-09-11T1700,2550A,107.4988,31.2132,达州市,凤凰小区,,,5,7,,3,64,,54,54,11,18,5,8,0.4,0.5
2025-09-11T1700,2551A,107.5082,31.1986,达州市,达县机关宾馆,,21,12,18,3,4,66,,56,56,11,19,4,8,0.4,0.4
2025-09-11T1700,2552A,107.4644,31.2124,达州市,市政中心,,21,21,26,3,1,59,,49,49,10,14,3,7,0.3,0.3
2025-09-11T1700,2614A,100.1542,25.7054,大理白族自治州,大理市环境监测站,,16,11,11,10,17,51,,49,49,8,8,4,4,0.6,0.6
2025-09-11T1700,2615A,100.2171,25.5811,大理白族自治州,大理古城,,22,15,17,15,9,58,,53,53,4,7,6,6,0.7,0.8
2025-09-11T1700,1109A,121.612,38.9741,大连市,甘井子,,39,25,40,3,24,124,,115,115,16,25,7,8,0.4,0.6
2025-09-11T1700,1110A,121.565,38.9511,大连市,周水子,,38,23,41,6,28,121,,111,111,14,20,9,9,0.3,0.5
2025-09-11T1700,1111A,121.5637,38.8845,大连市,星海三站,,39,22,40,6,28,122,,105,105,19,19,6,6,0.3,0.4
2025-09-11T1700,1112A,121.6302,38.9117,大连市,青泥洼桥,,40,13,31,7,21,126,,108,108,13,17,9,9,0.3,0.5
2025-09-11T1700,1113A,121.6251,38.8638,大连市,傅家庄,,36,18,29,7,18,115,,97,97,11,13,9,10,0.4,0.5
2025-09-11T1700,1114A,121.5213,38.8661,大连市,七贤岭,,41,25,34,8,18,129,,114,114,16,15,7,5,0.3,0.5
2025-09-11T1700,1115A,121.2529,38.8061,大连市,旅顺,,43,11,29,8,21,136,,114,114,18,20,7,7,0.3,0.4
2025-09-11T1700,1116A,121.7485,39.1311,大连市,金州,,37,8,39,3,24,118,,124,124,16,19,9,10,0.2,0.3
2025-09-11T1700,1117A,121.7811,39.0496,大连市,开发区,,32,26,42,3,27,101,,93,93,19,27,8,8,0.3,0.4
2025-09-11T1700,1118A,121.9762,39.0631,大连市,双D港,,39,19,27,8,18,124,,101,101,10,13,7,10,0.4,0.5
2025-09-11T1700,1789A,124.81117,46.03138,大庆市,大同区,,37,37,28,11,7,86,,77,77,16,16,9,8,0.8,0.7
2025-09-11T1700,1790A,125.129,46.533,大庆市,龙凤区,,27,27,28,8,9,85,,72,72,17,23,7,6,0.7,0.7
2025-09-11T1700,1791A,124.902,46.408,大庆市,红岗区,,32,31,30,18,10,100,,85,85,8,17,6,5,0.5,0.5
2025-09-11T1700,1792A,125.153,46.586,大庆市,萨尔图区,,45,45,29,8,9,85,,70,70,12,21,10,9,0.6,0.6
2025-09-11T1700,1793A,124.9042,46.6215,大庆市,让胡路区,,30,28,26,10,12,93,,80,80,12,21,9,8,0.3,0.4
2025-09-11T1700,3481A,125.141,46.634,大庆市,萨区政府监测点,,31,26,24,3,4,98,,82,82,12,14,9,8,0.5,0.3
2025-09-11T1700,1721A,113.3819,40.1097,大同市,果树场,,32,25,50,7,22,100,,106,106,8,19,4,5,0.3,0.5
2025-09-11T1700,1723A,113.2994,40.0758,大同市,云冈宾馆,,36,28,70,13,25,113,,118,118,8,27,6,8,0.6,0.8
2025-09-11T1700,1724A,113.3444,40.0917,大同市,大同大学,,36,16,52,14,24,115,,120,120,8,21,8,10,0.6,0.7
2025-09-11T1700,1725A,113.2661,40.1269,大同市,安家小村,颗粒物(PM10),54,57,70,9,25,114,,125,125,15,22,4,7,0.4,0.7
2025-09-11T1700,1726A,113.2711,40.0844,大同市,教育学院,,37,35,74,15,29,117,,121,121,8,33,7,9,0.6,0.7
2025-09-11T1700,3282A,113.3397,40.0597,大同市,大同市卫生学校,,35,24,60,14,26,112,,115,115,8,26,8,10,0.5,0.7
2025-09-11T1700,3565A,113.1367,40.1122,大同市,云冈站,,43,43,72,11,28,109,,115,115,12,15,4,8,0.6,0.7
2025-09-11T1700,3566A,113.1186,40.2556,大同市,图书馆,颗粒物(PM10),51,52,71,16,25,104,,117,117,8,16,11,10,0.8,0.8
2025-09-11T1700,3567A,113.5931,40.0461,大同市,区一中,,37,16,49,13,24,118,,128,128,14,13,4,3,0.6,0.5
2025-09-11T1700,4199A,113.2798,40.0997,大同市,魏都大道141号,,41,41,67,13,29,120,,124,124,6,30,4,6,0.5,0.7
2025-09-11T1700,2269A,124.1069,50.4097,大兴安岭地区,科技局,,18,18,19,7,8,48,,37,37,2,4,4,4,0.2,0.2
2025-09-11T1700,3663A,124.1164,50.4278,大兴安岭地区,红旗社区,,15,,11,3,5,48,,38,38,7,6,4,4,0.2,0.2
2025-09-11T1700,1600A,124.3303,40.0625,丹东市,江湾东路,,42,36,48,22,26,133,,127,127,12,12,8,9,0.7,0.8
2025-09-11T1700,1601A,124.4256,40.1503,丹东市,临江后街,,43,40,63,16,27,136,,134,134,12,13,6,7,0.8,0.9
2025-09-11T1700,1602A,124.3933,40.1461,丹东市,元宝山,,39,29,43,16,21,124,,120,120,9,12,7,6,0.7,0.9
2025-09-11T1700,1603A,124.3633,40.1092,丹东市,民主桥,,44,37,48,17,30,138,,128,128,9,16,9,8,0.7,0.8
2025-09-11T1700,3541A,109.5726,19.5167,儋州市,第一中学子站,,14,14,16,8,6,35,,34,34,3,4,5,6,0.5,0.6
2025-09-11T1700,3542A,109.5567,19.5187,儋州市,东坡学校子站,,13,,13,6,7,39,,37,37,4,5,7,7,0.4,0.5
2025-09-11T1700,2616A,98.5842,24.428,德宏傣族景颇族自治州,德宏州监测站,,28,28,32,10,18,56,,67,67,7,11,6,19,0.5,0.5
2025-09-11T1700,3677A,98.5881,24.4368,德宏傣族景颇族自治州,芒市人民政府综合楼,,,,,,,,,,,,,,,,
2025-09-11T1700,1901A,104.4239,31.1208,德阳市,东山公园,,20,9,10,6,12,62,,55,54,4,12,4,4,0.6,0.7
2025-09-11T1700,1902A,104.3826,31.1317,德阳市,西小区,,19,,18,3,14,59,,60,55,8,12,3,2,0.6,0.6
2025-09-11T1700,1904A,104.3553,31.1091,德阳市,耐火材料厂,,18,10,22,7,16,56,,54,53,10,13,4,4,0.7,0.7
2025-09-11T1700,3639A,104.4019,31.1244,德阳市,市教育局,,19,8,21,3,13,60,,61,53,4,9,2,3,0.6,0.7
2025-09-11T1700,1622A,116.3032,37.4674,德州市,儿童乐园,臭氧1小时,60,63,66,31,36,168,,176,176,13,18,10,11,0.7,0.7
2025-09-11T1700,1624A,116.2991,37.4451,德州市,监理站,臭氧1小时,62,58,64,31,34,169,,176,176,17,23,15,15,0.5,0.6
2025-09-11T1700,3066A,116.2721,37.4379,德州市,九衢泉纯净水厂,颗粒物(PM10),58,66,72,29,38,135,,156,156,28,35,6,7,0.6,0.7
2025-09-11T1700,3371A,116.3728,37.4403,德州市,开发区人民医院,颗粒物(PM10),54,58,63,29,32,159,,161,161,12,24,10,11,1.1,1.1
2025-09-11T1700,3511A,116.5652,37.3319,德州市,陵城艺术中心,臭氧1小时,69,68,65,31,31,175,,180,180,21,24,13,14,0.7,0.7
2025-09-11T1700,4292A,116.3525,37.4209,德州市,新河东路,颗粒物(PM10),60,70,69,34,36,156,,169,167,19,36,10,10,0.7,0.9
2025-09-11T1700,2621A,99.7056,27.8317,迪庆藏族自治州,迪庆州站,,17,11,14,11,11,52,,50,50,4,5,7,7,0.4,0.3
2025-09-11T1700,3180A,99.7136,27.8094,迪庆藏族自治州,质量技术监督局,,21,21,15,3,9,48,,47,47,7,7,7,7,0.4,0.5
2025-09-11T1700,4257A,104.6092,35.5962,定西市,将台街,,34,30,25,19,16,106,,86,86,7,13,9,8,0.4,0.3
2025-09-11T1700,4309A,104.6159,35.5701,定西市,正龙路62号,,39,39,30,13,16,98,,78,78,4,9,6,5,0.2,0.2
2025-09-11T1700,1389A,113.7547,23.0494,东莞市,莞城梨川,,,,23,21,20,176,,151,151,14,29,4,6,,0.2
2025-09-11T1700,1390A,113.7944,23.0128,东莞市,东城石井,,47,30,35,22,19,150,,156,156,14,24,5,5,0.5,0.6
2025-09-11T1700,1391A,113.7383,22.9658,东莞市,南城西平,,32,,26,10,16,100,,126,126,13,32,5,4,0.3,0.5
2025-09-11T1700,3319A,113.7338,23.0381,东莞市,万江金泰,,46,16,23,11,16,146,,146,146,11,27,5,5,0.6,0.7
2025-09-11T1700,3626A,113.7533,23.0202,东莞市,南城元岭,,48,17,29,15,20,152,,150,150,15,28,5,5,0.4,0.5
2025-09-11T1700,3627A,113.7875,23.0457,东莞市,东城主山,臭氧1小时,95,35,36,18,22,196,,156,156,16,33,7,8,0.4,0.5
2025-09-11T1700,1666A,118.6614,37.4309,东营市,市环保局,,38,29,41,3,15,119,,125,125,16,20,9,11,0.3,0.5
2025-09-11T1700,3036A,118.6904,37.4338,东营市,开发区管委会,,40,38,51,9,18,128,,133,133,18,20,8,11,0.2,0.3
2025-09-11T1700,3365A,118.5719,37.565,东营市,垦利区民丰路,,36,29,49,3,16,114,,123,123,16,18,6,6,0.6,0.8
2025-09-11T1700,3498A,118.5055,37.8612,东营市,河口城区,,44,36,48,3,16,138,,148,148,11,14,6,7,0.6,0.9
2025-09-11T1700,3646A,118.4978,37.4623,东营市,胜利站,,36,30,54,3,18,114,,118,118,24,26,7,8,0.4,0.8
2025-09-11T1700,3734A,118.35,37.26,东营市,理想之城,,30,29,46,14,21,94,,120,119,32,28,5,9,0.4,0.7
2025-09-11T1700,1591A,110.0023,39.8129,鄂尔多斯市,综合楼,,27,27,40,14,14,75,,87,85,24,16,6,3,0.6,0.8
2025-09-11T1700,1592A,109.9486,39.8261,鄂尔多斯市,巴音孟克林场办事处,,29,29,45,12,16,82,,90,90,15,14,5,6,0.3,0.4
2025-09-11T1700,1593A,109.7736,39.5986,鄂尔多斯市,康泽苑,,27,27,37,3,12,66,,76,76,10,12,6,7,0.4,0.4
2025-09-11T1700,1594A,109.8119,39.5989,鄂尔多斯市,华泰汽车城,,24,24,32,12,16,69,,75,75,11,13,5,5,0.6,0.5
2025-09-11T1700,1595A,109.9734,39.7884,鄂尔多斯市,奥林花园,,41,41,47,17,17,61,,79,79,25,18,6,7,0.6,0.7
2025-09-11T1700,2436A,114.8938,30.3994,鄂州市,市政府,,36,23,22,6,4,113,,113,113,10,13,7,7,0.6,0.6
2025-09-11T1700,2437A,114.8989,30.3714,鄂州市,赵家坝,,35,29,27,7,3,110,,101,101,11,11,7,9,0.8,0.6
2025-09-11T1700,3654A,114.8094,30.4089,鄂州市,精准医疗中心,,33,21,21,12,8,104,,104,104,17,20,5,8,0.5,0.8
2025-09-11T1700,2454A,109.4978,30.2981,恩施土家族苗族自治州,湖北民院,,19,14,15,3,7,60,,41,41,9,10,6,6,0.6,0.5
2025-09-11T1700,2455A,109.4707,30.2798,恩施土家族苗族自治州,州电力总公司,,28,28,12,7,7,56,,41,41,6,11,5,5,0.5,0.5
2025-09-11T1700,3549A,109.5061,30.3772,恩施土家族苗族自治州,龙凤新区,,19,,11,10,4,58,,52,52,4,5,6,6,0.5,0.5
2025-09-11T1700,2499A,108.3411,21.6158,防城港市,沙万,,14,,23,8,9,42,,36,36,5,17,3,4,0.4,0.5
2025-09-11T1700,2500A,108.3514,21.7731,防城港市,防城档案局,,13,,16,7,10,40,,37,37,4,10,3,2,0.4,0.5
2025-09-11T1700,2501A,108.3506,21.6414,防城港市,大海花园,,14,8,19,3,9,44,,37,37,2,11,4,6,0.5,0.6
2025-09-11T1700,1371A,113.1294,23.0067,佛山市,湾梁,,50,29,23,19,13,159,,109,109,17,34,6,6,0.7,0.7
2025-09-11T1700,1372A,113.1083,23.0478,佛山市,华材职中,臭氧1小时,58,24,18,12,11,166,,122,122,9,25,4,4,0.4,0.5
2025-09-11T1700,1373A,113.144,23.0453,佛山市,南海气象局,臭氧1小时,78,33,27,14,11,182,,121,121,13,24,6,5,0.6,0.7
2025-09-11T1700,1374A,113.2881,22.8094,佛山市,顺德苏岗,,28,28,25,7,10,85,,84,84,14,29,5,8,0.5,0.7
2025-09-11T1700,1376A,112.8383,22.8678,佛山市,高明孔堂,,47,16,21,14,9,150,,103,103,9,17,2,2,0.4,0.5
2025-09-11T1700,1377A,112.8836,23.1588,佛山市,三水监测站,,38,,27,19,15,119,,102,102,11,27,5,6,0.5,0.6
2025-09-11T1700,1378A,112.867,23.185,佛山市,三水云东海,,43,25,33,14,17,137,,113,113,10,22,2,2,0.6,0.7
2025-09-11T1700,3625A,113.2544,22.7642,佛山市,容桂街道办,,35,12,17,12,13,111,,122,122,14,32,6,7,0.6,0.8
2025-09-11T1700,1280A,119.3903,26.0543,福州市,鼓山,,,,17,,8,,,77,,,7,,1,,0.3
2025-09-11T1700,1282A,119.2681,26.0504,福州市,师大,,40,36,17,20,7,126,,112,112,8,9,6,5,0.4,0.3
2025-09-11T1700,1283A,119.2984,26.1028,福州市,五四北路,,40,35,13,24,10,126,,117,117,12,12,6,5,0.4,0.2
2025-09-11T1700,1284A,119.2648,26.0768,福州市,杨桥西路,,50,,16,35,10,132,,116,116,6,7,5,4,0.4,0.3
2025-09-11T1700,1285A,119.317,26.0746,福州市,紫阳,,41,41,21,20,10,111,,98,98,13,15,5,5,0.5,0.3
2025-09-11T1700,3048A,119.5799,26.0936,福州市,九龙,,37,34,21,17,6,116,,111,111,4,8,4,4,0.4,0.3
2025-09-11T1700,3526A,119.5189,25.9664,福州市,吴航,,36,22,20,13,11,113,,106,106,3,11,5,5,0.3,0.3
2025-09-11T1700,1755A,123.7977,41.8491,抚顺市,望花区,,46,46,54,26,26,131,,143,143,26,27,8,9,0.8,1
2025-09-11T1700,1756A,123.9161,41.8822,抚顺市,顺城区,颗粒物(PM10),54,57,44,26,20,151,,148,148,18,26,6,6,0.8,0.9
2025-09-11T1700,1757A,124.0436,41.8611,抚顺市,东洲区,颗粒物(PM10),57,63,38,30,23,135,,143,143,13,10,8,7,0.4,0.4
2025-09-11T1700,1758A,123.9247,41.8642,抚顺市,新抚区,颗粒物(PM10),59,68,54,29,24,141,,142,142,19,24,7,7,1.0,1.1
2025-09-11T1700,1759A,124.0972,41.8961,抚顺市,大伙房水库,,45,40,33,28,22,144,,137,137,11,16,9,9,0.7,0.7
2025-09-11T1700,1760A,123.7086,41.8391,抚顺市,沈抚新城,颗粒物(PM10),52,54,50,28,31,154,,156,156,18,30,7,8,0.8,1.1
2025-09-11T1700,2376A,116.2127,28.0814,抚州市,桐源党溪,,19,19,27,3,10,53,,63,63,2,3,5,6,0.4,0.5
2025-09-11T1700,2377A,116.3544,27.9831,抚州市,市站,,18,18,19,3,9,56,,65,65,3,5,3,5,0.6,0.7
2025-09-11T1700,2378A,116.3565,27.963,抚州市,血防站,,20,20,23,6,9,56,,63,63,4,5,4,4,0.6,0.5
2025-09-11T1700,2379A,116.3564,28.0007,抚州市,采茶剧团,,19,19,21,3,10,56,,63,63,2,2,4,6,0.5,0.5
2025-09-11T1700,2380A,116.385,27.9647,抚州市,医学分院,,22,22,23,3,9,58,,66,66,4,5,4,5,0.6,0.6
2025-09-11T1700,2207A,121.6094,41.998,阜新市,工业园区,臭氧1小时,105,103,70,29,34,209,,176,176,9,28,7,12,0.6,1.1
2025-09-11T1700,2208A,121.6697,42.0279,阜新市,长青街,臭氧1小时,73,82,60,33,32,178,,162,162,9,22,10,13,0.6,1.2
2025-09-11T1700,2209A,121.6673,42.0705,阜新市,农业园区,臭氧1小时,75,79,53,24,20,180,,166,166,11,14,5,14,0.7,0.8
2025-09-11T1700,2210A,121.6717,42.0224,阜新市,东苑,颗粒物(PM10),76,101,79,31,28,171,,158,158,11,25,10,18,0.5,1.3
2025-09-11T1700,2211A,121.6506,42.0498,阜新市,玉龙新城,臭氧1小时,72,74,55,28,27,177,,160,160,8,26,11,15,0.7,1.4
2025-09-11T1700,2301A,115.8277,32.8929,阜阳市,市监测站,,24,,27,13,19,76,,58,58,8,11,4,4,0.3,0.4
2025-09-11T1700,2303A,115.8554,32.8605,阜阳市,开发区,,25,,28,10,12,79,,60,60,8,13,6,7,0.3,0.4
2025-09-11T1700,2875A,115.784,32.8892,阜阳市,阜阳职业技术学院,,25,,29,14,10,79,,60,59,7,10,6,6,0.4,0.5
2025-09-11T1700,3468A,115.7901,32.8613,阜阳市,市规划展馆,,,,31,2,19,82,,64,61,11,12,3,4,0.4,0.5
2025-09-11T1700,3469A,115.836,32.9183,阜阳市,枣园社区,,26,,32,3,21,81,,59,59,8,12,4,5,0.3,0.5
2025-09-11T1700,2669A,102.9099,34.9841,甘南藏族自治州,州政府,,29,20,33,13,18,91,,82,82,2,11,7,6,0.2,0.3
2025-09-11T1700,3380A,102.8914,34.9617,甘南藏族自治州,甘肃民族师范学院,,34,23,43,16,18,108,,103,103,4,15,4,4,0.1,0.2
2025-09-11T1700,2570A,101.9603,30.0475,甘孜藏族自治州,水桥子,,20,8,10,3,4,64,,43,43,5,18,7,6,0.4,0.5
2025-09-11T1700,3065A,101.9533,29.9972,甘孜藏族自治州,州环保局,,22,10,11,3,5,68,,52,52,6,17,4,4,0.6,0.6
2025-09-11T1700,3414A,115.8347,28.932,赣江新区,桑海产业园,,30,7,11,3,11,93,,89,89,7,13,8,6,0.5,0.4
2025-09-11T1700,2362A,114.9017,25.9149,赣州市,通天岩,,17,6,14,3,7,54,,60,60,2,3,16,16,1.0,0.6
2025-09-11T1700,2363A,114.9367,25.8664,赣州市,地委,,20,12,15,6,7,62,,68,68,7,8,5,6,0.5,0.4
2025-09-11T1700,2364A,114.9461,25.8481,赣州市,气象台,,19,19,15,3,5,59,,62,62,4,4,4,7,0.5,0.4
2025-09-11T1700,2365A,114.9322,25.8333,赣州市,市图书馆,,18,14,10,12,9,55,,58,58,8,7,4,5,0.5,0.5
2025-09-11T1700,2366A,114.8905,25.8471,赣州市,华坚鞋城,,20,16,16,7,7,63,,66,66,7,8,4,5,0.4,0.5
2025-09-11T1700,3109A,115.0093,25.8613,赣州市,赣县区卫计委,,19,19,11,3,9,56,,58,58,4,5,6,6,0.4,0.4
2025-09-11T1700,2683A,106.2319,36.1417,固原市,马园,,,,,,,,,,,,,,,,
2025-09-11T1700,2684A,106.2792,36.0022,固原市,监测站,,27,12,14,3,10,84,,71,71,6,8,8,7,0.2,0.2
2025-09-11T1700,2685A,106.2375,36.0211,固原市,新区,,25,21,18,3,12,77,,65,65,6,8,8,8,0.5,0.4
2025-09-11T1700,3522A,106.2177,35.9959,固原市,原州区十五小,,25,9,19,3,13,79,,66,66,6,6,10,10,0.5,0.4
2025-09-11T1700,2543A,106.6308,30.5278,广安市,小平旧居,,,,,,,,,,,,,,,,
2025-09-11T1700,2544A,106.6303,30.4576,广安市,市委,细颗粒物(PM2.5),53,,23,37,18,77,,79,79,7,9,6,7,0.5,0.5
2025-09-11T1700,2545A,106.6271,30.4663,广安市,友谊中学,,27,23,20,10,12,85,,88,88,7,9,4,4,0.9,0.9
2025-09-11T1700,2547A,106.6388,30.4551,广安市,广电花园,,25,15,22,8,11,79,,80,80,8,9,4,4,0.6,0.6
2025-09-11T1700,2902A,106.6351,30.4865,广安市,北辰小学,,28,19,20,10,11,87,,87,87,4,6,7,6,0.6,0.6
2025-09-11T1700,2523A,105.8945,32.4535,广元市,黑石坡,,12,,13,8,9,5,,4,4,15,15,9,10,0.4,0.3
2025-09-11T1700,2524A,105.821,32.4444,广元市,老城,,13,13,12,7,6,22,,20,20,20,21,6,6,0.7,0.8
2025-09-11T1700,2526A,105.8628,32.4287,广元市,监测站,,13,13,12,9,10,23,,16,16,18,18,8,7,0.8,0.8
2025-09-11T1700,3617A,105.8047,32.4166,广元市,经开区,,9,7,14,3,6,19,,16,16,17,18,5,5,0.7,0.7
2025-09-11T1700,1345A,113.2347,23.1423,广州市,广雅中学,臭氧1小时,82,27,29,16,18,185,,131,131,17,35,2,3,0.6,0.5
2025-09-11T1700,1346A,113.2612,23.105,广州市,市五中,臭氧1小时,87,26,28,14,16,189,,142,142,15,37,4,6,0.3,0.4
2025-09-11T1700,1348A,113.3478,23.0916,广州市,广东商学院,臭氧1小时,55,19,31,13,19,164,,150,150,12,32,4,5,0.2,0.4
2025-09-11T1700,1349A,113.4332,23.1047,广州市,市八十六中,,,19,24,7,16,148,,136,136,,43,4,4,0.3,0.6
2025-09-11T1700,1350A,113.3505,22.9483,广州市,番禺中学,,45,20,26,11,16,143,,121,121,11,30,5,6,0.6,0.8
2025-09-11T1700,1351A,113.2146,23.3916,广州市,花都师范,臭氧1小时,115,38,33,29,20,229,,150,150,22,34,4,5,0.6,0.7
2025-09-11T1700,1352A,113.2597,23.1331,广州市,市监测站,臭氧1小时,69,28,30,12,15,175,,127,127,13,32,5,6,0.5,0.5
2025-09-11T1700,1353A,113.5618,23.312,广州市,九龙镇镇龙,臭氧1小时,116,36,21,23,13,232,,146,146,19,15,9,7,0.5,0.4
2025-09-11T1700,1354A,113.2765,23.1544,广州市,麓湖,,45,26,26,16,14,142,,102,102,13,30,3,3,0.3,0.4
2025-09-11T1700,1355A,113.443,23.3035,广州市,帽峰山森林公园,臭氧1小时,115,35,14,21,7,230,,144,144,15,13,6,4,0.7,0.6
2025-09-11T1700,2846A,113.3221,23.1322,广州市,体育西,臭氧1小时,64,30,33,15,20,171,,137,137,16,37,5,6,0.4,0.6
2025-09-11T1700,3298A,113.5717,23.5491,广州市,从化街口,,,28,20,21,13,147,,103,103,9,13,,7,0.6,0.6
2025-09-11T1700,3299A,113.3472,23.3692,广州市,白云竹料,,,55,32,30,15,183,,139,139,21,24,,4,0.5,0.4
2025-09-11T1700,3300A,113.2981,23.237,广州市,白云嘉禾,臭氧1小时,94,39,32,21,18,195,,137,137,19,34,4,4,0.4,0.5
2025-09-11T1700,3301A,113.4256,23.1716,广州市,黄埔科学城,,50,22,27,14,16,160,,146,146,13,25,5,5,0.5,0.6
2025-09-11T1700,3302A,113.3942,23.0483,广州市,番禺大学城,,46,23,31,8,18,146,,142,142,12,35,10,12,0.4,0.6
2025-09-11T1700,3303A,113.4922,22.8168,广州市,南沙黄阁,,28,12,21,8,11,89,,93,93,5,23,5,5,0.3,0.4
2025-09-11T1700,3304A,113.5342,22.7896,广州市,南沙街,,22,7,17,3,8,70,,80,80,6,19,4,5,0.3,0.4
2025-09-11T1700,3443A,113.2902,23.5544,广州市,花都梯面,臭氧1小时,104,40,23,25,11,207,,132,132,15,17,5,5,0.6,0.6
2025-09-11T1700,3445A,113.7858,23.7478,广州市,从化良口,,37,24,14,20,8,117,,80,80,6,9,4,4,0.5,0.4
2025-09-11T1700,3446A,113.8051,23.2614,广州市,增城荔城,臭氧1小时,95,42,15,40,11,196,,120,120,9,9,8,8,0.5,0.5
2025-09-11T1700,2505A,109.568,23.1478,贵港市,德智高中,,,,,,,,,,,,,,,,
2025-09-11T1700,2506A,109.6047,23.0666,贵港市,江南子站,,22,22,32,14,17,61,,59,59,3,14,4,6,0.5,0.6
2025-09-11T1700,2508A,109.5669,23.1065,贵港市,荷城子站,,20,19,20,7,8,63,,56,56,6,14,3,5,0.5,0.6
2025-09-11T1700,3405A,109.5886,23.1172,贵港市,新世纪学校,,25,22,23,12,13,80,,64,64,8,13,5,2,0.5,0.5
2025-09-11T1700,4260A,109.5933,23.0951,贵港市,中山路155-3号,,28,28,29,18,15,72,,64,64,4,14,3,6,0.5,0.6
2025-09-11T1700,1439A,106.6899,26.5998,贵阳市,马鞍山,,20,14,14,9,10,62,,61,61,7,7,4,3,0.2,0.2
2025-09-11T1700,1441A,106.6243,26.6266,贵阳市,鉴湖路,,27,27,23,7,6,53,,54,54,11,9,8,8,0.4,0.4
2025-09-11T1700,1442A,106.7487,26.6343,贵阳市,燕子冲,,20,,12,12,13,64,,64,64,8,11,5,5,0.2,0.4
2025-09-11T1700,1443A,106.6555,26.4365,贵阳市,碧云窝,,22,22,21,7,4,58,,58,58,4,5,6,5,0.2,0.3
2025-09-11T1700,1445A,106.7109,26.6027,贵阳市,红边门,,22,22,19,14,12,58,,59,59,9,9,6,5,0.3,0.4
2025-09-11T1700,1446A,106.7164,26.5699,贵阳市,新华路,,19,19,19,3,5,57,,58,58,11,13,24,12,0.2,0.3
2025-09-11T1700,1447A,106.674,26.5424,贵阳市,太慈桥,,13,9,11,3,4,39,,38,38,7,11,5,4,0.0,0.1
2025-09-11T1700,1552A,106.805,26.3003,贵阳市,桐木岭,,26,26,23,9,14,58,,60,57,6,5,4,19,1.0,1
2025-09-11T1700,4230A,106.6882,26.5695,贵阳市,花果园大街66号,,,,5,11,10,56,,55,55,9,9,4,4,0.2,0.2
2025-09-11T1700,4231A,106.6873,26.5169,贵阳市,漓江路57号,,20,14,16,7,7,63,,63,63,5,9,6,5,0.3,0.4
2025-09-11T1700,1862A,110.4144,25.3167,桂林市,电子科大尧山校区,,,,,,,,,,,,,,,,
2025-09-11T1700,1864A,110.3089,25.2708,桂林市,龙隐路小学,,18,14,23,3,9,57,,50,50,5,10,4,6,0.2,0.3
2025-09-11T1700,1865A,110.2869,25.2178,桂林市,八中,,27,27,24,3,7,58,,50,50,4,11,6,8,0.2,0.3
2025-09-11T1700,3531A,110.296,25.1253,桂林市,旅游学院,,18,12,16,3,7,55,,48,48,2,11,5,5,0.3,0.4
2025-09-11T1700,4222A,110.1835,25.2444,桂林市,环湖路276号,,19,14,30,7,11,59,,54,54,6,14,5,15,0.3,0.3
2025-09-11T1700,4301A,110.2803,25.2773,桂林市,信义路13号,,18,9,23,3,10,57,,50,50,4,14,4,7,0.3,0.4
2025-09-11T1700,2674A,100.2561,34.4714,果洛藏族自治州,玛沁县大武镇,,28,20,27,7,14,89,,91,91,3,3,14,15,0.3,0.3
2025-09-11T1700,1129A,126.5422,45.755,哈尔滨市,岭北,,34,10,22,3,12,106,,99,99,9,24,6,9,0.6,0.5
2025-09-11T1700,1130A,126.561,45.8167,哈尔滨市,松北商大,,27,13,34,3,10,84,,77,77,7,26,6,6,0.3,0.4
2025-09-11T1700,1131A,126.979,45.5419,哈尔滨市,阿城会宁,,24,20,33,3,11,76,,77,77,6,20,7,8,0.6,0.8
2025-09-11T1700,1132A,126.599,45.7222,哈尔滨市,南岗学府路,,33,33,38,3,10,82,,79,79,10,27,8,10,0.3,0.4
2025-09-11T1700,1133A,126.689,45.7733,哈尔滨市,太平宏伟公园,,,22,45,13,15,86,,79,79,,28,8,9,0.3,0.5
2025-09-11T1700,1134A,126.635,45.7667,哈尔滨市,道外承德广场,,34,34,36,7,11,80,,74,74,10,26,7,8,0.3,0.6
2025-09-11T1700,1135A,126.685,45.7319,哈尔滨市,香坊红旗大街,,31,31,38,3,13,83,,77,77,14,31,6,8,0.4,0.5
2025-09-11T1700,1136A,126.6411,45.7258,哈尔滨市,动力和平路,,25,23,37,13,19,80,,79,79,12,29,5,6,0.5,0.5
2025-09-11T1700,1137A,126.593,45.7478,哈尔滨市,道里建国路,,25,15,29,9,11,78,,76,76,19,35,8,11,1.2,2.1
2025-09-11T1700,1138A,126.615,45.61,哈尔滨市,平房东轻厂,,,,31,10,13,82,,80,80,7,27,8,10,0.3,0.4
2025-09-11T1700,1139A,126.595,45.9855,哈尔滨市,呼兰师专,,,28,35,,0,82,,73,73,13,27,7,8,0.7,0.9
2025-09-11T1700,1140A,126.6206,45.6842,哈尔滨市,省农科院,颗粒物(PM10),55,60,69,12,14,64,,68,68,19,31,9,8,0.5,0.6
2025-09-11T1700,2688A,93.5128,42.8172,哈密市,地区监测站,,43,43,58,12,18,115,,94,94,5,22,3,5,0.2,0.3
2025-09-11T1700,2689A,93.4961,42.8328,哈密市,哈密师范学校,,38,24,66,8,23,121,,96,96,4,27,7,5,0.1,0.3
2025-09-11T1700,2671A,100.9048,36.9639,海北藏族自治州,海晏县西海镇,,34,25,39,22,22,108,,96,96,2,7,8,12,0.4,0.5
2025-09-11T1700,3867A,102.0738,36.5056,海东市,平安区公安北苑,,42,42,43,19,25,129,,108,108,9,12,11,15,0.7,0.8
2025-09-11T1700,1409A,110.576,19.9507,海口市,东寨港,,,,,,,,,,,,,,,,
2025-09-11T1700,1410A,110.3232,20.0574,海口市,海南大学,,15,11,12,6,7,47,,47,47,4,3,3,3,0.3,0.3
2025-09-11T1700,1411A,110.283,20.0053,海口市,秀英海南医院,,15,15,18,6,8,44,,46,46,5,14,6,6,0.3,0.3
2025-09-11T1700,1412A,110.338,19.9969,海口市,海南师范大学,,14,13,15,3,7,44,,48,48,4,7,4,4,0.3,0.4
2025-09-11T1700,1413A,110.33,20.0356,海口市,龙华路环保局宿舍,,14,12,14,6,8,43,,45,45,4,9,6,6,0.2,0.3
2025-09-11T1700,3539A,110.5111,19.9736,海口市,桂林洋子站,,14,9,18,3,8,44,,40,40,5,7,5,4,0.2,0.2
2025-09-11T1700,2673A,100.6188,36.2866,海南藏族自治州,共和县恰卜恰镇,,40,30,43,14,19,125,,109,109,2,12,9,11,0.4,0.5
2025-09-11T1700,2676A,97.3731,37.3753,海西蒙古族藏族自治州,德令哈市,,,56,41,3,15,114,,100,100,1,3,,8,0.3,0.4
2025-09-11T1700,1048A,114.5302,36.6116,邯郸市,东污水处理厂,细颗粒物(PM2.5),52,48,43,36,30,114,,94,94,8,15,7,7,0.4,0.4
2025-09-11T1700,1049A,114.4918,36.5713,邯郸市,矿院,细颗粒物(PM2.5),55,,36,39,30,118,,101,101,6,13,5,6,0.4,0.4
2025-09-11T1700,1050A,114.484,36.6133,邯郸市,丛台公园,,45,37,37,31,22,117,,104,104,12,14,9,10,0.4,0.4
2025-09-11T1700,3458A,114.7895,36.5593,邯郸市,香泉濮院小区,,34,,57,20,19,108,,92,92,9,14,4,5,0.5,0.4
2025-09-11T1700,3579A,114.50634,36.77178,邯郸市,永年区实验高中,,46,46,46,25,24,122,,110,110,8,18,5,5,0.8,0.7
2025-09-11T1700,3580A,114.20016,36.44293,邯郸市,峰峰矿区临水派出所,,37,32,42,12,19,117,,104,104,7,15,6,7,0.5,0.5
2025-09-11T1700,2634A,106.9893,33.1842,汉中市,汉川机床厂子校,,22,22,14,3,4,52,,52,48,5,5,3,3,0.4,0.5
2025-09-11T1700,2635A,107.0154,33.0706,汉中市,市监测站,,14,11,10,3,6,42,,41,38,5,6,6,6,0.6,0.6
2025-09-11T1700,2636A,107.0089,33.1138,汉中市,鑫源开发区,,13,6,9,3,4,41,,38,38,7,7,6,6,0.5,0.5
2025-09-11T1700,2637A,107.007,33.0323,汉中市,南郑大河坎水厂,,14,8,13,3,7,42,,36,36,5,7,6,5,0.6,0.6
2025-09-11T1700,1223A,120.2072,30.2111,杭州市,滨江,臭氧1小时,83,48,38,26,18,186,,143,143,21,24,8,8,0.6,0.6
2025-09-11T1700,1224A,120.0633,30.2747,杭州市,西溪,,49,39,25,27,18,154,,120,120,15,17,2,2,0.5,0.5
2025-09-11T1700,1226A,120.3417,30.3150,杭州市,下沙,,49,30,24,15,12,155,,143,143,12,12,6,6,0.4,0.4
2025-09-11T1700,1227A,120.1269,30.2456,杭州市,卧龙桥,臭氧1小时,65,46,32,30,18,172,,132,132,10,12,9,8,0.6,0.6
2025-09-11T1700,1228A,120.1903,30.2692,杭州市,浙江农大,颗粒物(PM10),54,58,42,29,22,137,,116,116,27,31,6,6,0.7,0.7
2025-09-11T1700,1230A,120.1197,30.3119,杭州市,和睦小学,臭氧1小时,55,40,28,24,17,164,,134,134,13,17,6,6,0.5,0.6
2025-09-11T1700,1231A,120.3019,30.4183,杭州市,临平镇,,48,31,34,12,15,152,,131,131,9,17,6,6,0.5,0.5
2025-09-11T1700,1232A,120.2753,30.1839,杭州市,城厢镇,,,55,37,36,23,183,,142,142,,21,5,8,0.6,0.6
2025-09-11T1700,1233A,120.0883,30.1808,杭州市,云栖,臭氧1小时,78,56,33,49,17,182,,140,140,18,18,7,6,0.7,0.7
2025-09-11T1700,3557A,119.9464,30.0494,杭州市,镇二中,臭氧1小时,63,70,37,43,25,170,,140,140,25,21,5,5,0.7,0.7
2025-09-11T1700,3558A,119.7183,30.2367,杭州市,市府大楼,臭氧1小时,69,54,29,34,22,175,,116,116,14,14,9,8,0.5,0.5
2025-09-11T1700,3656A,120.1556,30.2864,杭州市,消防大队,,48,46,31,28,19,152,,124,124,13,17,8,9,0.7,0.7
2025-09-11T1700,1270A,117.1959,31.7848,合肥市,明珠广场,,39,36,24,19,14,123,,112,112,15,16,7,7,0.6,0.6
2025-09-11T1700,1271A,117.3072,31.8764,合肥市,三里街,,36,34,28,19,14,115,,96,96,9,16,6,6,0.6,0.7
2025-09-11T1700,1272A,117.2588,31.8707,合肥市,琥珀山庄,,42,39,32,21,17,132,,113,113,11,15,8,8,0.7,0.7
2025-09-11T1700,1273A,117.1604,31.9052,合肥市,董铺水库,,35,29,29,17,14,109,,93,93,7,12,4,4,0.3,0.4
2025-09-11T1700,1274A,117.25,31.8571,合肥市,长江中路,,41,39,31,21,13,130,,108,108,11,14,7,7,0.6,0.6
2025-09-11T1700,1275A,117.266,31.9436,合肥市,庐阳区,,40,39,35,17,14,126,,110,110,15,20,7,7,0.6,0.6
2025-09-11T1700,1276A,117.3453,31.8616,合肥市,瑶海区,,38,36,31,15,12,121,,106,106,14,20,7,7,0.6,0.7
2025-09-11T1700,1277A,117.3027,31.7964,合肥市,包河区,,40,39,30,19,14,128,,113,113,11,32,9,9,0.6,0.7
2025-09-11T1700,1278A,117.2776,31.7385,合肥市,滨湖新区,,42,29,25,27,19,134,,122,122,6,10,5,6,0.6,0.7
2025-09-11T1700,1279A,117.1318,31.8403,合肥市,高新区,,38,34,29,18,16,120,,107,107,16,17,6,6,0.6,0.6
2025-09-11T1700,3464A,117.3803,31.9147,合肥市,高教基地,,36,29,25,18,12,113,,96,96,8,12,7,7,0.6,0.6
2025-09-11T1700,3614A,79.924,37.0877,和田地区,地区环保局,颗粒物(PM10),196,342,350,89,104,96,,83,83,2,14,2,4,0.5,0.7
2025-09-11T1700,3615A,79.9131,37.113,和田地区,市环保局,颗粒物(PM10),188,326,297,68,81,101,,82,82,7,34,2,6,0.5,0.4
2025-09-11T1700,2516A,108.2011,24.715,河池市,东仁乐园,,,,,,,,,,,,,,,,
2025-09-11T1700,2517A,108.0497,24.6947,河池市,市环保站,,18,14,18,7,8,56,,47,47,5,8,5,5,0.6,0.6
2025-09-11T1700,2518A,108.0983,24.6989,河池市,市疾控中心,,20,8,17,6,9,61,,51,51,5,12,6,7,0.5,0.6
2025-09-11T1700,1696A,114.6778,23.7569,河源市,源西,,31,17,14,10,7,97,,68,68,7,16,4,5,0.6,0.6
2025-09-11T1700,1697A,114.6944,23.7586,河源市,东埔,,30,20,15,10,7,93,,68,68,9,11,4,4,0.7,0.8
2025-09-11T1700,1698A,114.6892,23.7233,河源市,老城,,32,21,20,12,8,102,,81,81,5,8,5,5,0.6,0.7
2025-09-11T1700,1718A,115.4208,35.2464,菏泽市,气象局,,30,24,46,9,23,95,,93,93,10,15,3,4,0.3,0.4
2025-09-11T1700,3374A,115.5564,35.0891,菏泽市,定陶老年大学,,28,14,44,3,20,89,,81,81,9,17,4,5,0.1,0.3
2025-09-11T1700,4184A,115.4797,35.24401,菏泽市,永昌路1号,,38,38,51,13,27,92,,86,86,8,16,7,8,0.2,0.3
2025-09-11T1700,4193A,115.4715,35.2800,菏泽市,长城路999号,,28,24,47,9,21,89,,92,92,16,21,9,9,0.2,0.3
2025-09-11T1700,2514A,111.5264,24.4172,贺州市,环保小区,,,,13,13,8,71,,56,56,,9,,13,0.3,0.4
2025-09-11T1700,2515A,111.5608,24.4078,贺州市,政协大楼,,25,13,18,9,11,78,,67,67,6,8,11,11,0.7,0.5
2025-09-11T1700,3534A,111.4744,24.4553,贺州市,西湾,,21,16,17,9,8,67,,55,55,8,10,10,11,0.3,0.5
2025-09-11T1700,2385A,114.17,35.9019,鹤壁市,市监测站,,42,38,30,29,18,87,,86,86,11,11,6,6,0.4,0.5
2025-09-11T1700,2386A,114.2956,35.7511,鹤壁市,市交警支队,,39,32,30,27,24,93,,82,82,11,21,3,3,0.6,0.7
2025-09-11T1700,2387A,114.2878,35.7306,鹤壁市,迎宾馆,,33,23,34,23,22,90,,76,76,11,21,2,4,0.5,0.6
2025-09-11T1700,3474A,114.2617,35.6822,鹤壁市,大新区,,28,26,30,13,15,87,,76,76,8,13,4,5,0.5,0.6
2025-09-11T1700,3596A,114.1572,35.9603,鹤壁市,南山宾馆,,,,15,,20,,,89,89,,11,,4,,0.7
2025-09-11T1700,2244A,130.2537,47.3416,鹤岗市,哈啤分公司,,23,,33,7,8,72,,55,55,8,5,12,11,0.2,0.2
2025-09-11T1700,2245A,130.2684,47.3086,鹤岗市,斯达机电,,25,19,17,7,8,78,,58,58,6,7,12,12,0.3,0.3
2025-09-11T1700,2246A,130.3114,47.3388,鹤岗市,东山纸板厂,,22,22,20,11,14,66,,58,58,18,11,11,11,0.3,0.5
2025-09-11T1700,2247A,130.1097,47.3382,鹤岗市,五号水库,,20,9,9,6,6,64,,56,56,8,7,6,6,0.4,0.3
2025-09-11T1700,2263A,127.4833,50.2524,黑河市,交通局,,28,28,22,15,13,39,,43,43,15,12,6,7,0.4,0.4
2025-09-11T1700,2264A,127.5144,50.2341,黑河市,环保局,,18,18,33,7,13,44,,46,46,12,15,4,5,0.3,0.6
2025-09-11T1700,2265A,127.5291,50.2472,黑河市,大黑河岛,,,,,5,7,27,,33,33,2,2,18,20,,
2025-09-11T1700,1074A,115.6838,37.7541,衡水市,电机北厂,颗粒物(PM10),54,57,66,14,28,153,,145,145,8,16,3,6,0.4,0.4
2025-09-11T1700,1075A,115.6303,37.7316,衡水市,市监测站,颗粒物(PM10),60,69,69,25,26,142,,136,136,15,19,9,9,1.3,0.6
2025-09-11T1700,3188A,115.6683,37.7217,衡水市,市城管局,,,62,67,30,30,154,,149,149,7,17,9,10,,0.4
2025-09-11T1700,3459A,115.5989,37.5491,衡水市,地表水厂,颗粒物(PM10),52,53,73,22,30,136,,139,139,12,30,4,4,0.3,0.3
2025-09-11T1700,2456A,112.5003,26.9167,衡阳市,原169医院,,21,17,27,7,13,65,,71,71,5,14,5,8,0.5,0.6
2025-09-11T1700,2457A,112.6194,26.9258,衡阳市,衡阳化工总厂,,26,18,25,12,11,81,,71,71,6,7,6,5,0.8,0.8
2025-09-11T1700,2458A,112.6211,26.8956,衡阳市,珠晖区环保局,,21,17,23,10,14,65,,70,70,4,10,6,8,0.5,0.6
2025-09-11T1700,2459A,112.6197,26.8733,衡阳市,市委党校,,20,,16,10,12,62,,67,67,3,7,5,5,0.3,0.4
2025-09-11T1700,2460A,112.6006,26.8919,衡阳市,市监测站,,35,35,26,12,14,65,,69,69,4,8,3,4,0.5,0.7
2025-09-11T1700,2461A,112.5664,26.9056,衡阳市,真空机电公司,,19,18,20,12,13,60,,65,65,1,8,4,7,0.8,0.9
2025-09-11T1700,3399A,112.6703,26.882,衡阳市,师范学院,,,,25,,11,,,61,,,8,,4,,0.8
2025-09-11T1700,2608A,103.3772,23.3993,红河哈尼族彝族自治州,污水处理厂,,16,16,17,6,14,33,,35,34,5,8,8,8,0.3,0.3
2025-09-11T1700,2609A,103.3861,23.35,红河哈尼族彝族自治州,监测站,,24,24,20,14,12,37,,38,38,1,6,12,13,0.2,0.2
2025-09-11T1700,3038A,103.3758,23.368,红河哈尼族彝族自治州,州图书馆,,12,,13,3,16,38,,40,40,4,7,1,2,0.2,0.3
2025-09-11T1700,1090A,111.6507,40.7517,呼和浩特市,呼市一监,,40,34,45,18,20,127,,104,104,8,20,8,8,0.5,0.4
2025-09-11T1700,1091A,111.6572,40.8033,呼和浩特市,小召,,38,31,49,23,23,120,,98,98,15,24,6,7,0.6,0.6
2025-09-11T1700,1094A,111.7516,40.8369,呼和浩特市,如意水处理厂,,40,38,57,18,23,128,,109,109,8,30,8,7,0.5,0.4
2025-09-11T1700,1095A,111.7276,40.8062,呼和浩特市,二十九中,,42,34,48,20,21,132,,103,103,8,20,7,8,0.6,0.5
2025-09-11T1700,1096A,111.5512,40.7866,呼和浩特市,工大金川校区,,39,38,59,16,21,122,,101,101,14,30,6,7,0.6,0.6
2025-09-11T1700,1097A,111.717,40.7612,呼和浩特市,化肥厂生活区,,45,45,56,21,21,130,,107,107,14,26,8,7,0.5,0.5
2025-09-11T1700,3698A,111.5968,40.8178,呼和浩特市,红旗小学,,39,27,49,18,22,124,,104,104,13,35,4,6,0.4,0.4
2025-09-11T1700,3699A,111.6518,40.8389,呼和浩特市,海东办,,41,39,59,17,21,130,,104,104,12,31,6,7,0.4,0.5
2025-09-11T1700,2192A,119.7594,49.2261,呼伦贝尔市,区环保局,,32,32,25,13,17,79,,64,64,8,13,5,5,0.6,0.5
2025-09-11T1700,3061A,119.7512,49.1577,呼伦贝尔市,国华电力东,,35,24,15,15,10,109,,81,81,7,7,6,7,0.3,0.2
2025-09-11T1700,1250A,120.0751,30.8669,湖州市,城西水厂,臭氧1小时,52,39,32,22,17,161,,138,138,12,15,7,7,0.4,0.4
2025-09-11T1700,2873A,120.0830,30.8929,湖州市,仁皇山新区,,50,39,33,21,18,159,,134,134,11,16,4,4,0.5,0.4
2025-09-11T1700,2907A,120.1844,30.8596,湖州市,吴兴区站,,,36,33,23,17,163,,139,139,10,13,8,8,,0.6
2025-09-11T1700,3562A,120.4148,30.8538,湖州市,南浔区站,,50,34,35,20,19,158,,141,141,8,12,7,7,0.8,0.8
2025-09-11T1700,1607A,120.9049,40.7211,葫芦岛市,龙港区,臭氧1小时,67,40,45,14,23,173,,156,156,5,13,7,6,0.6,0.7
2025-09-11T1700,1608A,120.8392,40.7514,葫芦岛市,化工街,,46,44,49,22,25,146,,143,143,10,34,8,8,0.6,0.7
2025-09-11T1700,1609A,120.8341,40.7073,葫芦岛市,新区,,47,40,43,19,33,149,,144,144,6,21,6,5,0.6,0.8
2025-09-11T1700,1610A,120.8695,40.7677,葫芦岛市,东城区,,49,49,54,20,40,152,,145,145,16,37,6,11,0.7,0.8
2025-09-11T1700,2482A,109.5981,27.5721,怀化市,林科所,,17,14,20,3,4,52,,52,52,6,6,13,5,0.7,0.8
2025-09-11T1700,2483A,109.9453,27.5444,怀化市,河西地税局,,17,8,17,3,10,52,,50,50,5,10,4,4,0.2,0.3
2025-09-11T1700,2484A,109.9781,27.5342,怀化市,市四医院,,17,14,28,3,17,54,,48,48,2,7,5,7,0.8,0.4
2025-09-11T1700,2485A,109.9972,27.5578,怀化市,监测楼,,19,12,24,3,14,59,,53,53,2,9,4,6,0,0.1
2025-09-11T1700,2486A,110.0394,27.583,怀化市,市委党校,,15,7,20,3,13,48,,44,44,4,9,3,7,0.2,0.3
2025-09-11T1700,1210A,119.036,33.5981,淮安市,钵池山,,19,17,22,13,15,58,,88,87,14,16,6,7,0.6,0.5
2025-09-11T1700,1211A,119.007,33.575,淮安市,北京南路,,20,19,27,14,13,63,,90,90,12,10,6,7,0.7,0.7
2025-09-11T1700,1212A,118.989,33.6067,淮安市,市监测站,,29,29,27,9,14,64,,93,92,19,16,9,10,0.4,0.4
2025-09-11T1700,1213A,119.135,33.5039,淮安市,楚州区监测站,,37,37,35,11,13,69,,89,89,17,15,8,8,0.6,0.5
2025-09-11T1700,3426A,118.8755,33.2894,淮安市,新华书店,,29,26,27,20,15,62,,79,77,24,13,8,7,0.8,0.6
2025-09-11T1700,4206A,119.0288,33.6319,淮安市,承德北路606号,,36,36,37,11,15,36,,82,79,38,17,6,7,0.4,0.4
2025-09-11T1700,2282A,116.8004,33.975,淮北市,监测站,,35,,26,3,13,112,,98,98,5,10,7,7,0.7,0.8
2025-09-11T1700,2283A,116.8091,33.9007,淮北市,烈山区政府,,,,32,48,10,100,,94,94,4,7,,8,0.3,0.4
2025-09-11T1700,3330A,116.8873,33.9836,淮北市,杜集区检察院,,36,7,24,3,12,114,,99,99,2,3,8,9,0.4,0.5
2025-09-11T1700,4017A,116.7923,33.9535,淮北市,市博物馆,,36,7,24,3,13,115,,104,104,4,7,6,7,0.3,0.4
2025-09-11T1700,2277A,116.8305,32.7727,淮南市,潘集区政府,,30,22,25,17,14,96,,70,70,6,11,2,4,0.2,0.4
2025-09-11T1700,2279A,116.8569,32.5951,淮南市,谢家集区政府,,20,,24,12,16,63,,72,72,8,9,6,8,0.3,0.4
2025-09-11T1700,2280A,116.8281,32.633,淮南市,八公山区政府,,23,23,32,13,20,72,,69,69,9,11,8,7,0.3,0.4
2025-09-11T1700,2281A,116.6325,32.6201,淮南市,焦岗湖风景区管理处,,,,,,,,,,,,,,,,
2025-09-11T1700,2894A,117.0566,32.6531,淮南市,经济技术开发区消防队,,25,21,24,8,5,77,,75,75,11,14,8,8,0.2,0.3
2025-09-11T1700,3329A,117.0108,32.5893,淮南市,山南新区,,30,,26,14,7,94,,86,86,10,11,5,5,0.5,0.5
2025-09-11T1700,4209A,117.0031,32.6445,淮南市,国庆中路369号,,34,34,37,14,25,76,,74,74,10,10,5,5,0.3,0.4
2025-09-11T1700,2446A,114.9028,30.4742,黄冈市,职工中心,,34,31,21,18,13,108,,110,110,14,13,6,6,0.7,0.7
2025-09-11T1700,2929A,114.8858,30.4519,黄冈市,红卫路,,34,34,26,17,12,107,,111,110,13,13,7,6,0.5,0.5
2025-09-11T1700,3398A,114.9136,30.4445,黄冈市,市林业局,,32,23,20,12,8,102,,111,111,12,13,8,6,0.5,0.4
2025-09-11T1700,2672A,102.0199,35.5102,黄南藏族自治州,同仁县隆务镇,,33,27,29,8,12,104,,96,96,1,2,9,9,0.3,0.3
2025-09-11T1700,2295A,118.2903,29.6963,黄山市,延安路89号,,24,24,19,3,6,57,,75,75,4,6,3,3,0.2,0.3
2025-09-11T1700,2297A,118.1371,30.2756,黄山市,黄山区政府5号楼,,17,11,17,3,6,54,,61,61,2,3,4,4,0.3,0.4
2025-09-11T1700,4210A,118.3354,29.7203,黄山市,滨江东路7-2号,,26,26,22,6,5,58,,67,67,5,6,2,2,0.3,0.4
2025-09-11T1700,2423A,115.0601,30.2313,黄石市,沈家营,颗粒物(PM10),51,52,38,8,5,90,,99,99,2,16,6,6,0.4,0.6
2025-09-11T1700,2426A,114.8988,30.2019,黄石市,铁山,,,32,21,,4,66,,81,81,5,7,4,5,0.7,0.6
2025-09-11T1700,2427A,115.0307,30.2092,黄石市,团城山,,30,23,20,8,5,94,,92,92,4,6,7,7,0.6,0.6
2025-09-11T1700,3149A,115.0235,30.1578,黄石市,笔架山北路,,22,22,17,3,1,68,,81,81,2,5,6,7,0.4,0.5
2025-09-11T1700,4185A,115.0780,30.21118,黄石市,磁湖东路29号,,46,46,34,9,5,112,,98,98,2,11,7,9,0.4,0.5
2025-09-11T1700,1392A,114.4183,23.0528,惠州市,河南岸金山湖子站,,40,28,23,28,15,118,,93,93,8,15,8,8,0.4,0.5
2025-09-11T1700,1393A,114.4053,23.0822,惠州市,下埔横江三路子站,,40,21,23,9,11,125,,97,97,6,13,6,7,0.5,0.5
2025-09-11T1700,1394A,114.4103,23.1142,惠州市,江北云山西路子站,,42,17,21,10,12,134,,97,97,8,19,8,10,0.4,0.6
2025-09-11T1700,1395A,114.4645,22.7833,惠州市,惠阳区承修路船湖子站,,28,11,26,6,12,88,,88,88,8,17,7,8,0.4,0.6
2025-09-11T1700,1396A,114.5317,22.7422,惠州市,大亚湾管委会子站,,23,10,17,6,9,71,,88,85,6,15,8,8,0.4,0.5
2025-09-11T1700,3314A,114.4338,22.8134,惠州市,惠阳秋长,,32,19,25,7,10,100,,99,99,8,19,6,9,0.5,0.5
2025-09-11T1700,3452A,114.6517,22.775,惠州市,大亚湾霞涌,,24,12,12,6,5,76,,66,66,9,10,7,7,0.4,0.5
2025-09-11T1700,2240A,130.9762,45.3001,鸡西市,环保局,,21,18,21,3,12,67,,71,71,13,21,7,7,0.6,0.7
2025-09-11T1700,2243A,130.9429,45.3039,鸡西市,第一中学,,27,27,19,7,8,65,,71,71,14,15,9,9,0.7,0.7
2025-09-11T1700,3707A,131.0207,45.3073,鸡西市,欧美日汽修厂,,23,19,30,8,12,73,,79,79,8,17,8,9,0.7,0.8
2025-09-11T1700,3709A,130.9967,45.3106,鸡西市,市政设施管理处,,23,20,26,8,10,72,,76,76,14,22,8,8,0.7,0.9
2025-09-11T1700,2367A,114.9754,27.0803,吉安市,红声器材厂,,23,16,19,6,8,71,,69,69,3,4,8,8,0.3,0.2
2025-09-11T1700,2368A,114.9658,27.0999,吉安市,市森林工业局,,21,15,19,9,8,66,,68,68,1,5,7,7,0.4,0.4
2025-09-11T1700,2369A,114.99,27.1312,吉安市,市环境监测站,,23,11,16,3,7,73,,77,77,1,3,10,16,0.5,0.4
2025-09-11T1700,2370A,115.0093,27.0968,吉安市,青原区法院,,22,18,19,3,6,69,,69,69,3,7,7,9,0.7,0.7
2025-09-11T1700,1772A,126.54,43.8622,吉林市,哈达湾,,33,28,22,13,11,105,,94,94,8,18,7,8,0.4,0.3
2025-09-11T1700,1773A,126.5844,43.8358,吉林市,东局子,,31,21,19,21,15,99,,,,8,17,6,6,0.9,0.7
2025-09-11T1700,1774A,126.5052,43.8245,吉林市,电力学院,,33,33,27,20,15,90,,83,83,14,19,6,6,0.6,0.5
2025-09-11T1700,1775A,126.6133,43.8972,吉林市,江北,,,,26,34,12,90,,96,96,8,13,,5,0.3,0.4
2025-09-11T1700,1776A,126.555,43.8306,吉林市,江南公园,,37,37,21,24,11,98,,88,88,8,15,3,3,0.4,0.4
2025-09-11T1700,1778A,126.7061,43.7133,吉林市,丰满,,38,30,14,16,8,120,,117,117,3,3,6,6,0.9,0.7
2025-09-11T1700,2868A,126.4739,43.953,吉林市,九站,,41,41,38,15,17,98,,99,99,13,28,4,16,0.5,0.5
2025-09-11T1700,1299A,116.9862,36.6114,济南市,科干所,,34,34,44,17,24,91,,96,96,21,17,8,7,0.6,0.6
2025-09-11T1700,1300A,116.9376,36.665,济南市,农科所,,34,34,51,15,23,68,,77,77,22,30,9,9,0.5,0.7
2025-09-11T1700,1301A,117.1265,36.6734,济南市,开发区,颗粒物(PM10),53,56,50,22,25,106,,99,99,28,27,10,9,0.8,0.8
2025-09-11T1700,1303A,117.0624,36.6868,济南市,省种子仓库,,44,44,57,17,23,108,,105,105,18,23,7,6,0.6,0.7
2025-09-11T1700,1304A,116.9489,36.6447,济南市,机床二厂,,,,60,,26,89,,95,95,,33,11,10,0.5,0.6
2025-09-11T1700,1305A,117.0495,36.663,济南市,市监测站,,39,39,49,12,23,103,,96,96,17,20,11,10,0.7,0.8
2025-09-11T1700,1306A,116.7675,36.5484,济南市,长清党校,,42,42,51,20,27,90,,94,94,20,26,8,8,0.5,0.6
2025-09-11T1700,1616A,117.6795,36.229,济南市,技术学院,,36,36,40,19,21,111,,102,102,20,21,13,13,0.9,0.9
2025-09-11T1700,1961A,117.532,36.6868,济南市,东山小学,,42,42,49,7,21,78,,93,91,23,22,9,9,0.7,0.7
2025-09-11T1700,3059A,117.7161,36.2049,济南市,泰兴公司,,41,41,43,19,21,110,,100,100,15,26,13,12,0.8,0.8
2025-09-11T1700,3064A,117.6867,36.2171,济南市,莱芜战役纪念馆,,46,46,44,22,26,104,,97,97,23,24,10,10,0.9,0.9
2025-09-11T1700,3494A,117.1673,36.9782,济南市,济阳区政府,颗粒物(PM10),58,66,75,20,30,108,,111,111,26,33,10,10,0.6,0.6
2025-09-11T1700,3495A,117.1171,36.63,济南市,锦屏中学,,34,34,45,10,18,76,,88,88,21,22,11,10,1.0,0.9
2025-09-11T1700,3682A,116.9814,36.6819,济南市,济南四建,,41,41,51,15,25,96,,104,104,22,24,7,6,0.6,0.7
2025-09-11T1700,1653A,116.6251,35.4302,济宁市,火炬城,,30,,43,14,21,95,,92,92,8,12,5,7,0.1,0.3
2025-09-11T1700,1655A,116.5491,35.4042,济宁市,电化厂,,,,47,,24,,,109,,,14,,5,,0.5
2025-09-11T1700,3500A,116.5814,35.3707,济宁市,北湖一中,,29,19,42,15,21,91,,88,88,5,11,4,7,0.2,0.4
2025-09-11T1700,3501A,116.8249,35.5593,济宁市,服务中心,,28,24,45,3,10,89,,93,93,7,12,4,6,0.2,0.2
2025-09-11T1700,3678A,116.5907,35.4054,济宁市,市第七中学,,28,16,56,3,14,89,,91,91,9,13,4,7,0.2,0.4
2025-09-11T1700,2255A,130.2751,46.8028,佳木斯市,佳纺,,15,6,17,3,7,47,,45,45,8,13,5,6,0.5,0.5
2025-09-11T1700,2256A,130.3995,46.8307,佳木斯市,发电厂,,25,25,19,6,9,45,,44,44,12,14,8,7,0.4,0.5
2025-09-11T1700,2257A,130.3258,46.7975,佳木斯市,环保局,,14,13,18,3,8,43,,40,40,6,19,8,8,0.4,0.5
2025-09-11T1700,2258A,130.3648,46.8032,佳木斯市,十一中,,13,10,23,3,12,40,,39,39,8,18,8,8,0.4,0.5
2025-09-11T1700,2259A,130.3794,46.7588,佳木斯市,四丰,,8,6,4,3,3,23,,16,15,5,10,1,45,0.2,0.2
2025-09-11T1700,1252A,120.7436,30.778,嘉兴市,清河小学,,45,33,35,16,13,144,,138,138,12,12,7,6,0.3,0.4
2025-09-11T1700,1253A,120.726,30.7478,嘉兴市,嘉兴学院,,50,27,30,13,14,158,,150,150,14,13,6,4,0.7,0.6
2025-09-11T1700,2872A,120.7846,30.7525,嘉兴市,南湖区残联,,48,27,32,16,17,151,,146,146,14,15,7,6,0.5,0.6
2025-09-11T1700,3407A,120.6916,30.7739,嘉兴市,秀洲住建,臭氧1小时,64,32,33,16,16,171,,160,160,12,13,8,6,0.5,0.6
2025-09-11T1700,1945A,98.2908,39.7711,嘉峪关市,气象局,颗粒物(PM10),65,80,61,17,14,123,,111,111,10,23,6,7,0.5,0.5
2025-09-11T1700,2884A,98.2672,39.7978,嘉峪关市,酒钢宾馆,颗粒物(PM10),71,92,72,22,19,134,,119,119,7,21,17,20,0.5,0.8
2025-09-11T1700,3248A,98.2643,39.7724,嘉峪关市,雄关区,,,73,61,17,20,118,,107,107,12,24,,11,0.4,0.5
2025-09-11T1700,1383A,113.1064,22.6058,江门市,北街,,30,21,29,8,17,96,,87,87,5,24,4,4,0.4,0.6
2025-09-11T1700,1384A,113.0731,22.5835,江门市,西区,,31,19,20,3,10,98,,84,84,6,24,8,8,0.5,0.6
2025-09-11T1700,1385A,113.0219,22.5311,江门市,圭峰西,,35,28,25,9,14,110,,88,88,6,14,4,4,0.6,0.6
2025-09-11T1700,1386A,113.0828,22.5947,江门市,东湖,,27,12,26,10,14,86,,73,73,7,21,5,6,0.5,0.7
2025-09-11T1700,3311A,113.1075,22.5647,江门市,江海富民,,32,19,43,8,19,102,,92,92,11,17,4,5,0.5,0.5
2025-09-11T1700,3449A,113.05,22.4667,江门市,新会银湖,,26,24,23,6,12,81,,79,79,6,14,3,3,0.6,0.6
2025-09-11T1700,1830A,113.1992,35.2590,焦作市,影视城,,,,27,,13,,,98,,,7,,8,,0.7
2025-09-11T1700,3335A,113.3137,35.2641,焦作市,马村街道办,,30,16,31,7,15,93,,98,96,6,10,3,4,0.3,0.5
2025-09-11T1700,3336A,113.2465,35.2373,焦作市,焦作技师学院,,29,8,29,3,10,90,,97,94,9,12,6,6,0.4,0.5
2025-09-11T1700,3477A,113.1656,35.2539,焦作市,中站许衡医院,,35,24,34,24,21,108,,107,107,4,8,4,4,0.3,0.4
2025-09-11T1700,3981A,113.2449,35.1803,焦作市,原李万街道办,,30,21,38,3,10,94,,108,105,12,12,7,8,0.3,0.4
2025-09-11T1700,4264A,113.2340,35.2190,焦作市,新安路1731号,,30,24,32,8,13,95,,107,102,9,8,4,4,0.3,0.3
2025-09-11T1700,4295A,113.2722,35.2121,焦作市,人民路3066号,,27,13,46,3,8,84,,103,99,9,5,2,2,0.3,0.3
2025-09-11T1700,1708A,116.3701,23.5345,揭阳市,新兴,,37,37,29,24,15,93,,95,95,9,17,6,8,0.5,0.6
2025-09-11T1700,1709A,116.3264,23.5443,揭阳市,西马,,32,32,31,17,14,62,,86,86,12,18,2,3,0.4,0.6
2025-09-11T1700,1710A,116.3611,23.5626,揭阳市,东兴,,29,29,27,14,10,83,,93,92,8,18,6,7,0.7,0.7
2025-09-11T1700,1711A,116.4151,23.5294,揭阳市,渔湖,颗粒物(PM10),58,65,32,9,13,107,,97,97,14,20,6,8,0.5,0.6
2025-09-11T1700,3320A,116.403,23.5699,揭阳市,曲溪,,35,35,27,19,13,109,,110,110,8,12,3,4,0.5,0.5
2025-09-11T1700,1944A,102.1692,38.5167,金昌市,天庆家园,颗粒物(PM10),69,88,71,28,25,110,,100,100,6,15,5,4,0.2,0.2
2025-09-11T1700,4022A,102.1647,38.5371,金昌市,金川区人防中心,颗粒物(PM10),67,84,69,30,23,103,,98,98,9,10,9,10,0.4,0.5
2025-09-11T1700,4239A,102.1930,38.5319,金昌市,长春路96号,颗粒物(PM10),72,93,72,24,21,101,,92,92,3,12,4,6,0.7,0.6
2025-09-11T1700,1262A,119.647,29.077,金华市,十五中,,45,25,22,12,15,142,,117,117,8,12,2,2,0.5,0.5
2025-09-11T1700,1263A,119.686,29.1029,金华市,监测站,,47,27,20,14,11,149,,116,116,10,14,2,3,0.5,0.6
2025-09-11T1700,3659A,119.656,29.1131,金华市,气象局,,45,30,20,14,9,143,,106,106,9,17,2,2,0.4,0.5
2025-09-11T1700,1767A,121.1115,41.0879,锦州市,南山,颗粒物(PM10),53,56,40,31,30,157,,159,159,9,23,10,10,0.7,0.7
2025-09-11T1700,1768A,121.0604,40.8428,锦州市,开发区,颗粒物(PM10),52,53,72,21,28,154,,142,142,18,44,8,13,0.6,0.9
2025-09-11T1700,1769A,121.1836,41.1119,锦州市,百股街道,,,48,44,27,27,160,,161,161,7,24,,62,,0.7
2025-09-11T1700,1770A,121.1178,41.1222,锦州市,天安街道,臭氧1小时,57,54,47,27,32,165,,171,171,11,26,12,26,0.8,0.8
2025-09-11T1700,1771A,121.1303,41.1386,锦州市,北湖公园,,50,50,46,21,31,152,,161,160,8,17,9,8,0.8,0.8
2025-09-11T1700,2160A,112.85,35.5051,晋城市,自来水公司,,28,28,23,7,10,86,,90,90,13,12,3,8,0.4,0.5
2025-09-11T1700,2161A,112.8318,35.4936,晋城市,白云商贸,,,15,22,,10,87,,93,93,14,12,2,2,0.3,0.5
2025-09-11T1700,2162A,112.8508,35.4887,晋城市,市环保局,,24,15,25,3,9,76,,83,83,12,8,3,3,0.3,0.4
2025-09-11T1700,2163A,112.8676,35.4897,晋城市,技术学院,,25,14,20,3,6,78,,84,84,15,11,3,3,0.4,0.5
2025-09-11T1700,2165A,112.8453,35.546,晋城市,白马寺,,31,18,13,3,14,99,,99,99,4,3,6,6,0.3,0.4
2025-09-11T1700,3620A,112.8271,35.4828,晋城市,泽州一中,,29,6,16,3,6,90,,98,98,14,9,2,2,0.5,0.5
2025-09-11T1700,2173A,112.7249,37.7067,晋中市,南都小区,,34,31,44,22,24,106,,109,109,8,15,5,6,0.5,0.5
2025-09-11T1700,2174A,112.6991,37.6982,晋中市,榆次区政府,,31,24,42,14,21,97,,102,102,10,18,5,6,0.7,0.7
2025-09-11T1700,2865A,112.7195,37.6828,晋中市,榆次三中,,32,29,42,17,16,101,,107,107,5,16,5,6,0.3,0.3
2025-09-11T1700,4200A,112.7478,37.6954,晋中市,迎宾街26号,,34,31,38,12,15,106,,111,110,8,17,4,5,0.5,0.5
2025-09-11T1700,2439A,112.2014,31.0481,荆门市,竹园小学,,27,21,21,13,18,85,,72,72,5,12,1,1,0.5,0.6
2025-09-11T1700,2440A,112.1969,30.9891,荆门市,掇刀,,27,24,17,14,19,85,,69,69,4,8,1,1,0.6,0.6
2025-09-11T1700,2441A,112.2213,31.0386,荆门市,石化一小,,30,,23,21,28,86,,72,72,7,13,7,5,0.5,0.5
2025-09-11T1700,3012A,112.1849,31.0362,荆门市,西山林语,,25,21,20,10,13,78,,65,65,5,9,1,2,0.3,0.5
2025-09-11T1700,3547A,112.1632,31.0138,荆门市,龙泉中学南校,,,,15,11,10,83,,70,70,11,12,2,2,0.4,0.6
2025-09-11T1700,1844A,112.2494,30.3197,荆州市,市图书馆,,,,18,,14,86,,80,80,8,11,4,3,,0.6
2025-09-11T1700,1845A,112.2008,30.3544,荆州市,市委党校,,25,14,18,13,14,77,,68,68,7,11,5,6,0.5,0.6
2025-09-11T1700,3194A,112.2747,30.3122,荆州市,管委会,,26,15,18,10,13,82,,78,78,5,9,1,1,0.5,0.6
2025-09-11T1700,4268A,112.1722,30.3366,荆州市,学苑路85号,,28,,18,13,16,87,,79,79,11,14,4,4,0.4,0.5
2025-09-11T1700,2342A,117.3102,29.3867,景德镇市,王港中学,,,,,,,,,,,,,,,,
2025-09-11T1700,2343A,117.2117,29.2933,景德镇市,老干部活动中心,,,,14,16,8,95,,85,85,,9,12,8,0.3,0.6
2025-09-11T1700,2344A,117.1894,29.2789,景德镇市,兽医站,,29,19,22,11,7,91,,84,84,7,6,8,5,0.6,0.7
2025-09-11T1700,2346A,117.2461,29.2956,景德镇市,陶研所,,32,25,17,9,9,101,,88,88,7,7,8,5,0.6,0.6
2025-09-11T1700,4289A,117.1542,29.2566,景德镇市,青少年活动中心,,28,23,14,13,8,88,,80,80,6,6,9,4,0.6,0.7
2025-09-11T1700,1803A,115.9872,29.6815,九江市,十里,,30,,10,16,12,94,,90,90,4,13,4,5,0.5,0.5
2025-09-11T1700,1804A,115.9584,29.7046,九江市,茅山头,,39,,17,27,14,100,,93,93,6,13,4,4,0.5,0.5
2025-09-11T1700,1805A,115.9877,29.7295,九江市,西园,,32,10,12,8,6,100,,99,99,9,20,4,5,0.6,0.7
2025-09-11T1700,1808A,115.9114,29.6038,九江市,综合工业园,,29,8,14,8,5,90,,80,80,11,23,5,6,0.8,0.7
2025-09-11T1700,1809A,116.0721,29.7535,九江市,石化总厂,,32,,14,22,10,92,,90,90,6,14,5,5,0.5,0.5
2025-09-11T1700,1810A,115.9773,29.5698,九江市,庐山气象台,,,,,,,,,,,,,,,,
2025-09-11T1700,3190A,116.0254,29.6994,九江市,外国语学校,,25,8,11,7,9,80,,81,81,8,15,4,7,0.7,0.7
2025-09-11T1700,4253A,116.0102,29.6594,九江市,莲花大道8号,,21,,10,8,6,66,,71,71,2,5,4,4,0.5,0.5
2025-09-11T1700,4240A,98.4958,39.7339,酒泉市,玉门东路5号,颗粒物(PM10),68,85,72,18,30,121,,103,103,11,20,11,13,0.3,0.4
2025-09-11T1700,4241A,98.5099,39.7506,酒泉市,北大街108号,颗粒物(PM10),67,83,64,22,23,121,,106,106,2,16,39,23,0.3,0.4
2025-09-11T1700,2698A,76.0072,39.4467,喀什地区,巡警大队,颗粒物(PM10),75,100,188,37,57,139,,87,87,7,41,6,6,0.2,0.5
2025-09-11T1700,2699A,75.9755,39.4694,喀什地区,吾办,颗粒物(PM10),75,99,170,54,58,133,,82,82,12,40,6,6,0.2,0.5
2025-09-11T1700,4027A,75.9483,39.4689,喀什地区,老干局,颗粒物(PM10),71,92,135,22,37,140,,84,84,8,30,6,4,0.2,0.3
2025-09-11T1700,1824A,114.3389,34.7781,开封市,肿瘤医院,,29,13,40,13,18,91,,86,86,10,19,3,5,0.5,0.6
2025-09-11T1700,1826A,114.2885,34.7965,开封市,世纪星幼儿园,,31,16,36,8,21,99,,97,97,10,16,4,4,0.6,0.7
2025-09-11T1700,3147A,114.3438,34.8106,开封市,龙亭公园,,29,6,36,3,14,92,,82,82,6,14,5,5,0.6,0.7
2025-09-11T1700,3210A,114.3644,34.7964,开封市,汴京公园,,29,,40,8,21,90,,84,84,7,15,5,6,0.7,0.7
2025-09-11T1700,3473A,114.2485,34.8306,开封市,技师学院,,28,,39,11,21,89,,81,81,6,16,6,6,0.7,0.8
2025-09-11T1700,3592A,114.4644,34.7556,开封市,祥符区生态环境局,,25,16,39,6,18,77,,75,75,13,26,3,3,0.6,0.6
2025-09-11T1700,1951A,84.895,45.6094,克拉玛依市,长征新村,,26,26,26,13,11,66,,53,52,15,17,3,3,0.3,0.3
2025-09-11T1700,1952A,84.8988,45.5893,克拉玛依市,南林小区,,,,34,,9,,,47,,,20,,6,,0.9
2025-09-11T1700,1954A,84.905,44.3396,克拉玛依市,独山子区,,29,,42,6,15,90,,84,84,14,18,5,7,0.2,0.4
2025-09-11T1700,1955A,85.6979,46.098,克拉玛依市,乌尔禾区商贸楼,,26,14,25,3,7,83,,67,67,10,16,2,3,0.1,0.1
2025-09-11T1700,3612A,85.1045,45.6899,克拉玛依市,白碱滩区新站,颗粒物(PM10),53,56,41,28,21,70,,80,79,13,7,5,8,0.2,0.3
2025-09-11T1700,2697A,76.1454,39.7142,克孜勒苏柯尔克孜自治州,市人民政府,颗粒物(PM10),90,130,147,63,62,127,,109,109,5,13,6,13,0.0,0.1
2025-09-11T1700,3665A,76.1658,39.7157,克孜勒苏柯尔克孜自治州,克州文化中心,"颗粒物(PM10),细颗粒物(PM2.5)",77,104,153,56,53,119,,103,103,2,11,8,19,0.1,0.2
2025-09-11T1700,1450A,102.8204,24.8886,昆明市,呈贡新区,,24,9,10,6,7,74,,64,64,6,13,3,3,0.3,0.4
2025-09-11T1700,1451A,102.6251,24.9608,昆明市,西山森林公园,,,,,,,,,,,,,,,,
2025-09-11T1700,1452A,102.7252,25.0902,昆明市,龙泉镇,,22,9,17,7,7,70,,47,47,8,13,2,1,0.4,0.4
2025-09-11T1700,1453A,102.7266,25.0375,昆明市,东风东路,,22,10,12,10,8,69,,55,55,10,11,3,3,0.3,0.3
2025-09-11T1700,1454A,102.6742,25.0669,昆明市,金鼎山,,22,20,15,7,6,69,,50,50,6,9,2,3,0.3,0.3
2025-09-11T1700,1455A,102.6644,25.0401,昆明市,碧鸡广场,,20,8,16,3,10,63,,48,48,8,14,8,9,0.4,0.4
2025-09-11T1700,3179A,102.7494,25.0119,昆明市,官渡区博物馆,,21,14,11,6,7,66,,54,54,7,9,2,2,0.2,0.3
2025-09-11T1700,3375A,102.8017,24.8336,昆明市,青年创业园,,20,9,16,3,9,64,,59,59,3,7,3,3,0.6,0.7
2025-09-11T1700,3550A,102.7997,24.9786,昆明市,昆明学院,,20,6,14,3,8,61,,51,51,6,15,6,7,0.3,0.4
2025-09-11T1700,3551A,102.5967,24.6736,昆明市,晋宁区生态环境分局,,22,13,18,3,7,70,,62,62,4,8,2,2,0.3,0.3
2025-09-11T1700,3552A,102.6678,24.9856,昆明市,云天化总部,,19,6,10,3,7,59,,48,48,7,8,5,4,0.4,0.5
2025-09-11T1700,1456A,91.1319,29.6514,拉萨市,八廓街,,32,,11,11,8,100,,94,94,10,7,6,6,0.4,0.3
2025-09-11T1700,1457A,91.1221,29.6747,拉萨市,市环保局,,29,8,11,8,8,91,,91,91,13,10,7,7,0.4,0.4
2025-09-11T1700,1458A,91.0874,29.6475,拉萨市,区监测站,,30,9,10,6,7,95,,87,87,15,12,4,4,0.3,0.3
2025-09-11T1700,1459A,91.1774,29.6541,拉萨市,西藏大学,,,,10,8,7,94,,91,91,,10,,7,0.4,0.3
2025-09-11T1700,1460A,90.9798,29.6588,拉萨市,区辐射站,,30,8,12,3,7,96,,82,82,10,13,4,5,0.3,0.3
2025-09-11T1700,1461A,91.0834,29.6292,拉萨市,拉萨火车站,,32,8,11,3,7,102,,85,85,6,9,4,5,0.4,0.4
2025-09-11T1700,2520A,109.2203,23.7256,来宾市,来宾技工学校,,24,,20,10,8,76,,66,66,3,7,7,8,0.5,0.7
2025-09-11T1700,3535A,109.1781,23.7297,来宾市,兴宾区政府,,26,12,16,9,8,82,,66,66,4,8,7,9,0.6,0.6
2025-09-11T1700,4002A,109.2416,23.7461,来宾市,中南小学,,25,21,18,9,7,80,,64,64,3,9,10,10,0.5,0.6
2025-09-11T1700,1477A,104.1373,35.9454,兰州市,榆中兰大校区,,,,,,,,,,,,,,,,
2025-09-11T1700,1479A,103.831,36.0464,兰州市,铁路设计院,,49,48,49,25,24,156,,127,127,26,33,14,16,0.6,0.7
2025-09-11T1700,3241A,103.7439,36.0842,兰州市,百合公园,,47,42,52,14,21,148,,107,107,9,27,11,11,0.5,0.6
2025-09-11T1700,3242A,103.9611,35.998,兰州市,和平,,48,48,48,12,20,150,,120,120,7,16,10,13,0.5,0.6
2025-09-11T1700,4236A,103.6293,36.0938,兰州市,庄浪东路808号,颗粒物(PM10),54,58,65,20,28,143,,118,118,15,47,18,26,0.3,0.5
2025-09-11T1700,4237A,103.7251,36.1043,兰州市,安宁西路88号,臭氧1小时,70,55,57,26,26,176,,126,126,15,23,10,14,0.4,0.4
2025-09-11T1700,4238A,103.8470,36.0676,兰州市,北滨河东路1号,臭氧1小时,64,40,43,25,24,171,,126,126,12,24,13,17,0.3,0.6
2025-09-11T1700,3245A,103.6633,36.533,兰州新区,新区管委会,颗粒物(PM10),60,70,44,22,25,132,,119,119,5,14,6,8,0.2,0.3
2025-09-11T1700,3246A,103.6975,36.4789,兰州新区,舟曲中学,颗粒物(PM10),51,52,49,16,21,119,,102,102,9,25,9,11,0.2,0.4
2025-09-11T1700,1067A,116.6708,39.5111,廊坊市,药材公司,颗粒物(PM10),57,63,75,34,42,160,,159,159,21,30,8,8,0.5,0.5
2025-09-11T1700,1068A,116.7214,39.5589,廊坊市,开发区,臭氧1小时,80,74,75,36,35,184,,164,164,15,25,4,3,0.5,0.5
2025-09-11T1700,1070A,116.7244,39.5269,廊坊市,北华航天学院,臭氧1小时,85,81,62,28,38,188,,172,172,8,26,7,6,0.5,0.5
2025-09-11T1700,2919A,116.7022,39.5453,廊坊市,河北工业大学,臭氧1小时,83,70,60,32,37,186,,167,167,12,27,6,5,0.4,0.4
2025-09-11T1700,2535A,103.7723,29.5462,乐山市,花湖湾,,22,10,29,8,22,69,,77,55,8,16,4,4,0.4,0.4
2025-09-11T1700,2536A,103.7627,29.5844,乐山市,牛耳桥,,24,9,30,7,22,75,,71,63,9,16,6,6,0.6,0.6
2025-09-11T1700,2537A,103.7508,29.6006,乐山市,市第三水厂,,24,9,30,7,21,76,,67,65,8,14,4,4,0.5,0.6
2025-09-11T1700,2538A,103.7571,29.5664,乐山市,市监测站,,,,31,,23,77,,70,65,,12,6,7,,0.8
2025-09-11T1700,3361A,103.7311,29.5628,乐山市,理工大学,,24,8,29,7,21,76,,70,65,6,15,3,4,0.6,0.6
2025-09-11T1700,2598A,100.2143,26.8576,丽江市,西南郊,,19,9,15,3,8,60,,53,53,4,7,6,6,0.6,1
2025-09-11T1700,2599A,100.2497,26.8802,丽江市,丽江古城,,22,22,25,8,13,59,,52,52,10,11,10,10,0.4,0.5
2025-09-11T1700,2600A,100.2203,26.8906,丽江市,市中心,,20,18,16,11,13,61,,53,53,9,12,11,11,0.5,0.5
2025-09-11T1700,1267A,119.914,28.4514,丽水市,监测站大楼,,25,19,13,6,5,80,,82,82,10,12,4,4,0.3,0.5
2025-09-11T1700,1268A,119.93,28.4586,丽水市,莲都小学,,27,16,15,7,6,84,,82,82,5,10,3,4,0.3,0.3
2025-09-11T1700,1269A,119.879,28.4231,丽水市,余庄前,,25,14,17,9,8,77,,76,76,6,11,5,5,0.4,0.4
2025-09-11T1700,1173A,119.176,34.5885,连云港市,市环境监测站,,32,27,22,3,6,102,,103,103,7,8,5,7,0.5,0.5
2025-09-11T1700,3000A,119.3581,34.6972,连云港市,德源药业,,29,22,25,7,7,90,,90,90,16,15,4,4,0.5,0.5
2025-09-11T1700,3007A,119.178,34.844,连云港市,新城一中,,34,24,24,7,7,106,,99,99,10,18,3,4,0.4,0.4
2025-09-11T1700,3008A,119.3608,34.7519,连云港市,胡沟管理处,,22,22,24,3,5,70,,82,79,39,23,8,7,0.6,0.8
2025-09-11T1700,3009A,119.1478,34.5911,连云港市,矿山设计院,,30,24,23,7,9,96,,99,99,9,10,6,8,0.6,0.6
2025-09-11T1700,3434A,119.2413,34.6539,连云港市,工贸学校,,34,19,19,10,9,106,,102,102,4,5,7,8,0.9,0.9
2025-09-11T1700,3664A,119.4172,34.7341,连云港市,连云街道,,36,17,16,6,7,114,,105,105,3,4,4,4,0.4,0.4
2025-09-11T1700,2571A,102.3431,27.8099,凉山彝族自治州,青龙寺,,20,11,25,6,11,64,,55,55,2,10,5,5,0.5,0.6
2025-09-11T1700,2572A,102.2721,27.8415,凉山彝族自治州,邛海宾馆,,23,19,25,12,16,73,,62,62,5,17,11,12,0.5,0.7
2025-09-11T1700,2573A,102.2625,27.898,凉山彝族自治州,西昌市政府,,20,17,28,6,21,64,,51,51,8,17,20,14,0.6,0.7
2025-09-11T1700,2574A,102.2685,27.8851,凉山彝族自治州,凉山州政府,,35,,32,24,25,70,,54,54,6,20,13,12,0.3,0.7
2025-09-11T1700,4229A,102.2342,27.8859,凉山彝族自治州,凯乐南路30号,,20,18,26,7,16,62,,54,54,8,24,17,11,1.2,0.8
2025-09-11T1700,2212A,123.2,41.1953,辽阳市,宏伟区,颗粒物(PM10),58,65,48,21,21,134,,142,142,15,14,4,3,0.7,0.8
2025-09-11T1700,2213A,123.1683,41.2495,辽阳市,新华园,颗粒物(PM10),55,60,55,26,28,146,,161,161,18,24,4,4,0.7,0.8
2025-09-11T1700,2214A,123.2354,41.2639,辽阳市,滨河路,颗粒物(PM10),54,57,52,26,23,140,,152,152,13,22,7,5,0.6,0.7
2025-09-11T1700,2215A,123.149,41.2991,辽阳市,铁西工业园,颗粒物(PM10),57,63,58,22,28,148,,156,156,13,20,6,4,0.8,0.9
2025-09-11T1700,2227A,125.1358,42.8845,辽源市,环保局,,43,43,39,10,10,127,,106,106,5,16,8,10,0.6,0.5
2025-09-11T1700,3239A,125.0764,42.9078,辽源市,银鹰制药,,39,28,27,19,17,123,,105,105,14,23,67,32,0.5,0.5
2025-09-11T1700,1625A,115.9848,36.4372,聊城市,区政府,,32,30,53,13,25,102,,96,96,11,23,9,12,0.5,0.7
2025-09-11T1700,2878A,116.0072,36.4343,聊城市,聊大东校,,36,36,61,12,29,103,,98,98,14,26,11,12,0.6,0.8
2025-09-11T1700,3200A,115.9819,36.4978,聊城市,监控中心,,44,44,57,17,25,101,,101,101,17,27,10,11,0.6,0.8
2025-09-11T1700,3513A,116.0445,36.4361,聊城市,九州社区,,,36,65,17,30,94,,86,86,8,24,7,8,,0.5
2025-09-11T1700,4018A,116.0567,36.4608,聊城市,星美广场,,38,38,64,13,30,98,,94,94,9,21,5,7,0.5,0.7
2025-09-11T1700,2632A,94.3681,29.6376,林芝市,林芝监测站,,,7,7,3,5,53,,49,49,,7,3,4,,0.6
2025-09-11T1700,2633A,94.3616,29.6616,林芝市,林芝人民医院,,,,,,,,,,,,,,,,
2025-09-11T1700,2603A,100.0781,23.8982,临沧市,市环保局,,23,22,17,16,17,51,,42,42,5,7,8,5,0.5,0.6
2025-09-11T1700,2604A,100.0894,23.8822,临沧市,市气象局,,14,14,14,9,15,38,,34,34,6,9,9,9,0.5,0.6
2025-09-11T1700,1733A,111.5531,36.0783,临汾市,临钢医院,,,12,32,,10,63,,64,64,9,16,5,5,0.6,0.7
2025-09-11T1700,1734A,111.5028,36.0714,临汾市,技工学校,,20,,31,9,21,61,,62,62,8,14,4,5,0.5,0.7
2025-09-11T1700,1736A,111.5018,36.0855,临汾市,市委,,,28,40,,11,67,,67,67,11,17,3,4,0.6,0.8
2025-09-11T1700,3018A,111.505,36.1014,临汾市,唐尧大酒店,,26,26,43,3,11,64,,66,66,10,16,5,6,0.6,0.8
2025-09-11T1700,4244A,111.4879,36.0530,临汾市,启星学校,,22,13,33,10,21,68,,68,68,8,17,3,4,0.6,0.7
2025-09-11T1700,4271A,103.2464,35.6123,临夏回族自治州,滨河东路1号,,,30,55,15,24,68,,62,62,,17,9,9,0.3,0.3
2025-09-11T1700,4310A,103.2093,35.5995,临夏回族自治州,新华街21号,,32,32,54,15,27,102,,83,83,6,17,7,7,0.3,0.4
2025-09-11T1700,1618A,118.3429,35.0532,临沂市,沂河小区,,24,22,33,11,17,74,,85,85,14,15,8,9,0.3,0.4
2025-09-11T1700,1619A,118.295,35.0583,临沂市,鲁南制药厂,,25,,27,13,14,80,,91,91,13,13,8,9,0.6,0.6
2025-09-11T1700,1620A,118.2794,34.9976,临沂市,新光毛纺厂,,26,,25,15,16,82,,91,91,17,17,7,8,0.4,0.4
2025-09-11T1700,1621A,118.3956,35.0888,临沂市,河东保险公司,,22,17,29,3,10,70,,82,82,12,17,6,7,0.4,0.3
2025-09-11T1700,3370A,118.3564,35.0215,临沂市,十里堡居委,,25,22,29,3,12,77,,90,88,16,19,7,10,0.3,0.3
2025-09-11T1700,3496A,118.3604,35.1084,临沂市,南坊新区,,27,24,32,3,8,84,,91,91,11,17,8,9,0.4,0.4
2025-09-11T1700,3860A,118.3920,35.0300,临沂市,皇山花园小区,,23,17,30,6,12,71,,88,86,15,18,9,10,0.3,0.3
2025-09-11T1700,1870A,109.4856,24.3895,柳州市,柳东小学,,25,15,16,6,8,78,,67,67,4,7,4,4,0.3,0.3
2025-09-11T1700,1871A,109.4157,24.3277,柳州市,环保监测站,,24,23,18,15,14,74,,59,59,3,8,6,7,0.5,0.5
2025-09-11T1700,1872A,109.389,24.341,柳州市,河西水厂,,24,11,19,3,9,75,,62,62,4,8,4,5,0.6,0.5
2025-09-11T1700,1873A,109.4311,24.2921,柳州市,市四中,,24,18,20,10,12,76,,61,61,6,12,6,7,0.2,0.2
2025-09-11T1700,1874A,109.4006,24.3631,柳州市,市九中,,,20,21,9,9,75,,61,61,,8,3,3,0.5,0.6
2025-09-11T1700,1875A,109.4958,24.3134,柳州市,古亭山,,23,19,17,14,10,71,,61,61,3,8,5,6,0.5,0.5
2025-09-11T1700,3402A,109.5422,24.3996,柳州市,市二中,,34,34,17,8,7,78,,65,65,5,9,9,10,0.6,0.6
2025-09-11T1700,2307A,116.5079,31.737,六安市,监测大楼,,31,24,17,13,13,97,,77,77,4,6,4,4,0.7,0.7
2025-09-11T1700,2308A,116.4738,31.7643,六安市,皖西学院,,35,35,21,14,13,98,,80,80,2,4,3,3,0.4,0.4
2025-09-11T1700,2309A,116.4996,31.7905,六安市,朝阳厂,,30,21,16,13,13,93,,75,75,8,11,6,6,0.5,0.5
2025-09-11T1700,2310A,116.5567,31.7886,六安市,开发区,,32,18,11,12,15,100,,81,81,3,7,2,2,0.5,0.5
2025-09-11T1700,2576A,104.8,26.5892,六盘水市,窑上,,41,41,37,26,21,69,,62,62,4,4,3,3,0.4,0.3
2025-09-11T1700,2577A,104.83,26.5917,六盘水市,黄土坡,,24,16,17,3,11,75,,63,63,8,9,3,2,0.4,0.4
2025-09-11T1700,2578A,104.89,26.5939,六盘水市,水钢,,24,20,30,8,23,76,,67,67,4,5,3,3,0.1,0.2
2025-09-11T1700,2579A,104.8475,26.5894,六盘水市,民中,,24,13,14,3,8,74,,63,63,6,6,2,2,0.3,0.3
2025-09-11T1700,2580A,104.9544,26.5506,六盘水市,双水,,23,14,13,12,10,71,,56,56,5,6,3,3,0.0,0.1
2025-09-11T1700,2335A,117.0189,25.1181,龙岩市,龙岩师专,,,,,,,,,,,,,,,,
2025-09-11T1700,2336A,117.0217,25.1033,龙岩市,龙岩市监测站,,20,9,12,3,8,62,,66,66,4,8,5,6,0.5,0.5
2025-09-11T1700,2337A,117.0258,25.0661,龙岩市,闽西职业技术学院,,17,17,14,3,5,54,,64,64,8,8,3,6,0.4,0.5
2025-09-11T1700,2338A,117.0196,25.0306,龙岩市,龙岩学院,,17,14,11,3,7,54,,61,61,4,6,5,5,0.5,0.5
2025-09-11T1700,2665A,105.0822,33.3261,陇南市,汉王镇固水子,,,,,,,,,,,,,,,,
2025-09-11T1700,2885A,104.9339,33.3826,陇南市,滨江中学,,24,,32,11,13,74,,56,56,3,5,4,4,0.6,0.7
2025-09-11T1700,3247A,104.955,33.371,陇南市,市总工会,,32,32,32,7,7,74,,57,57,6,6,7,7,0.4,0.5
2025-09-11T1700,2487A,111.9589,27.8901,娄底市,电视发射台,,32,32,42,12,16,70,,66,66,5,5,5,4,0.2,0.3
2025-09-11T1700,2488A,111.9975,27.725,娄底市,市监测站,,23,23,33,15,20,63,,67,67,8,10,5,5,0.5,0.6
2025-09-11T1700,2489A,112.0194,27.7314,娄底市,市委党校,,21,15,26,11,21,67,,70,70,5,8,3,3,0.4,0.5
2025-09-11T1700,2490A,111.9561,27.7569,娄底市,涟钢,,18,16,37,3,21,56,,61,61,15,12,6,5,0.8,1.2
2025-09-11T1700,2491A,111.9892,27.7044,娄底市,市政府,,22,16,29,3,17,69,,72,72,4,6,6,6,0.7,0.8
2025-09-11T1700,1893A,105.4324,28.9634,泸州市,九狮山,,42,42,74,9,29,90,,76,76,8,14,6,6,0.3,0.5
2025-09-11T1700,1894A,105.4427,28.9063,泸州市,小市上码头,,33,33,60,21,39,60,,60,60,6,24,4,5,0.5,0.6
2025-09-11T1700,1895A,105.4241,28.8573,泸州市,兰田宪桥,,38,38,72,23,41,63,,46,46,40,24,5,6,0.7,0.8
2025-09-11T1700,1896A,105.4379,28.8833,泸州市,市环监站,,35,31,68,24,46,82,,75,75,8,23,5,5,0.5,0.6
2025-09-11T1700,4272A,105.3689,28.7783,泸州市,纳溪中医医院,,33,33,53,22,41,83,,71,71,8,29,2,2,0.6,0.7
2025-09-11T1700,2183A,111.1406,37.5211,吕梁市,环保局,,21,17,49,13,21,67,,75,75,24,28,2,3,0.7,0.7
2025-09-11T1700,2185A,111.1297,37.5136,吕梁市,自来水公司,,26,26,52,12,20,68,,68,68,18,24,3,6,0.7,0.6
2025-09-11T1700,2867A,111.1283,37.51,吕梁市,马茂庄小学,,24,17,55,14,18,76,,73,73,20,31,4,6,0.7,0.7
2025-09-11T1700,1812A,112.3931,34.6516,洛阳市,市委党校,,30,9,18,9,11,95,,88,88,9,13,5,5,0.3,0.4
2025-09-11T1700,1815A,112.494,34.6886,洛阳市,河南林校,,32,20,26,13,14,101,,97,97,14,17,6,6,0.5,0.5
2025-09-11T1700,1816A,112.3844,34.623,洛阳市,开发区管委会,,35,,17,9,13,110,,103,103,5,8,3,4,0.4,0.6
2025-09-11T1700,1817A,112.4267,34.6258,洛阳市,市委新办公区,,31,12,18,10,18,97,,91,91,6,10,6,7,0.4,0.4
2025-09-11T1700,3340A,112.6005,34.6326,洛阳市,伊滨,,31,,20,11,15,97,,92,92,12,16,5,5,0.5,0.6
2025-09-11T1700,3341A,112.4951,34.6332,洛阳市,中移产业园,,30,13,22,13,18,96,,91,91,10,14,7,6,0.6,0.7
2025-09-11T1700,3593A,112.5736,34.8993,洛阳市,吉利监测站,,31,17,25,11,17,98,,98,98,9,11,4,4,0.4,0.5
2025-09-11T1700,3635A,112.3677,34.662,洛阳市,河科大西苑校区,,33,9,18,3,9,103,,98,98,13,15,6,7,0.4,0.5
2025-09-11T1700,3636A,112.4388,34.6781,洛阳市,英才小学,,31,,19,11,15,98,,92,92,10,12,6,6,0.4,0.5
2025-09-11T1700,4214A,112.4600,34.6949,洛阳市,春都路1号院,,28,14,21,9,12,88,,83,83,12,15,8,8,0.3,0.4
2025-09-11T1700,2399A,114.051,33.5699,漯河市,三五一五工厂,,,,18,5,15,77,,56,56,6,12,5,5,0.6,0.7
2025-09-11T1700,2400A,114.0055,33.5698,漯河市,漯河大学,,25,6,20,3,14,78,,56,56,6,11,5,5,0.5,0.5
2025-09-11T1700,2401A,114.0138,33.5828,漯河市,市水利局,,25,6,18,3,12,77,,55,55,6,11,5,5,0.6,0.6
2025-09-11T1700,2402A,114.0261,33.5698,漯河市,市广电局,,26,6,17,3,16,83,,60,60,4,10,3,3,0.5,0.6
2025-09-11T1700,3478A,113.9749,33.5664,漯河市,市图书馆,,25,,16,3,11,78,,57,57,6,10,5,5,0.4,0.5
2025-09-11T1700,4250A,114.0892,33.5882,漯河市,韶山路11号,,25,6,19,6,11,77,,56,56,6,14,4,4,0.5,0.6
2025-09-11T1700,1798A,118.5092,31.6837,马鞍山市,湖东路四小,,50,28,36,22,18,160,,131,131,10,16,6,8,0.5,0.5
2025-09-11T1700,1799A,118.5024,31.6449,马鞍山市,开发区,臭氧1小时,52,28,35,23,18,161,,134,134,13,16,6,9,0.4,0.7
2025-09-11T1700,1802A,118.6245,31.7241,马鞍山市,濮塘,,50,31,30,29,20,158,,132,132,6,10,8,8,0.8,0.8
2025-09-11T1700,3633A,118.4918,31.6809,马鞍山市,雨山,,49,,35,20,18,156,,129,129,11,17,9,11,0.5,0.4
2025-09-11T1700,4191A,118.5274,31.72227,马鞍山市,慈湖高新区,臭氧1小时,52,39,35,20,18,161,,130,130,11,17,4,5,0.4,0.4
2025-09-11T1700,1686A,111.0286,21.4688,茂名市,电白南海,,24,24,23,9,13,47,,54,54,5,10,3,4,0.8,0.9
2025-09-11T1700,1687A,110.9294,21.6533,茂名市,茂石化七小,,19,19,15,9,7,54,,54,54,6,10,5,6,0.5,0.5
2025-09-11T1700,1688A,110.9107,21.6687,茂名市,健康路,,20,12,8,9,9,62,,59,59,8,10,4,5,0.6,0.5
2025-09-11T1700,1689A,110.8592,21.6828,茂名市,高岭,,,,21,,4,,,30,,,14,,12,,0.7
2025-09-11T1700,3450A,111.01,21.5165,茂名市,电白水东,,18,12,12,3,6,56,,54,54,5,8,4,7,0.6,0.8
2025-09-11T1700,2539A,104.0308,30.0478,眉山市,黑龙滩水库,,22,6,20,3,13,69,,69,69,5,8,1,2,0.3,0.3
2025-09-11T1700,2540A,103.8416,30.0874,眉山市,气象局,,29,29,38,12,15,63,,60,60,20,16,8,9,0.4,0.3
2025-09-11T1700,3137A,103.8578,30.0744,眉山市,市委党校,,20,19,24,3,12,62,,61,61,19,16,8,8,0.7,0.6
2025-09-11T1700,3148A,103.8291,30.0564,眉山市,区人社局,,32,32,40,7,13,66,,64,64,17,12,8,10,1.0,0.9
2025-09-11T1700,1690A,116.1231,24.3284,梅州市,梅江月梅,,19,11,16,3,7,60,,58,58,7,12,8,9,0.5,0.5
2025-09-11T1700,1691A,116.0797,24.2719,梅州市,梅县新城,,19,12,14,6,5,60,,58,58,4,8,6,6,0.6,0.7
2025-09-11T1700,1692A,116.1248,24.2654,梅州市,环境监控中心,,24,24,16,3,10,58,,52,52,6,9,3,4,0.5,0.5
2025-09-11T1700,3315A,116.1233,24.2991,梅州市,梅龙,,20,12,10,3,8,61,,55,55,4,8,7,8,0.6,0.6
2025-09-11T1700,1878A,104.7778,31.4741,绵阳市,富乐山,,15,6,15,6,11,48,,46,46,5,12,8,8,0.6,0.7
2025-09-11T1700,1880A,104.6697,31.4668,绵阳市,高新区自来水公司,,16,6,20,3,8,50,,45,45,8,17,9,9,0.5,0.6
2025-09-11T1700,1881A,104.7287,31.5075,绵阳市,三水厂,,18,6,19,6,12,55,,46,46,5,17,10,10,0.5,0.6
2025-09-11T1700,3491A,104.69,31.5322,绵阳市,西科大附属小学,,17,7,22,3,13,54,,48,48,10,19,7,7,0.5,0.6
2025-09-11T1700,3492A,104.5648,31.5343,绵阳市,安州区旅游局,,17,6,11,3,6,54,,50,47,9,13,7,9,0.6,0.7
2025-09-11T1700,4226A,104.7651,31.4531,绵阳市,绵阳市气象局,,15,6,17,3,13,45,,44,44,7,14,9,9,0.4,0.5
2025-09-11T1700,1784A,129.61,44.561,牡丹江市,环保大楼,,25,,20,17,13,72,,75,75,14,15,4,4,0.2,0.3
2025-09-11T1700,1785A,129.6115,44.5782,牡丹江市,文化广场,,38,31,29,26,20,65,,72,72,21,19,6,6,0.3,0.4
2025-09-11T1700,1786A,129.5904,44.5963,牡丹江市,第一医院,,32,25,33,22,24,74,,78,78,20,21,7,8,0.2,0.3
2025-09-11T1700,1787A,129.6364,44.6075,牡丹江市,机车工厂,,28,28,31,17,16,70,,75,75,16,16,6,7,0.3,0.4
2025-09-11T1700,1788A,129.6386,44.5462,牡丹江市,第一中学,,24,24,21,10,16,62,,72,72,21,14,4,3,0.2,0.3
2025-09-11T1700,2531A,105.0703,29.61,内江市,市监测站,,,24,23,12,24,68,,45,45,8,10,,4,0.8,0.8
2025-09-11T1700,2532A,105.0717,29.5947,内江市,东兴区政府,,19,13,26,7,18,58,,37,37,12,13,5,6,0.5,0.6
2025-09-11T1700,2533A,105.0653,29.5817,内江市,内江二中,,20,,29,13,27,64,,41,41,11,13,1,3,0.7,0.7
2025-09-11T1700,2534A,105.0406,29.5822,内江市,内江日报社,,20,,28,9,25,64,,41,41,12,14,6,6,0.5,0.6
2025-09-11T1700,2628A,92.0657,31.4846,那曲市,那曲监测站,,29,14,22,3,9,92,,87,87,6,13,4,5,0.4,0.4
2025-09-11T1700,4243A,92.0515,31.4787,那曲市,那曲市委宣传部,,32,15,12,6,7,101,,97,97,5,7,4,4,0.2,0.3
2025-09-11T1700,1290A,115.8931,28.6843,南昌市,省外办,,20,20,20,12,16,50,,64,64,4,5,4,5,0.7,0.8
2025-09-11T1700,1291A,115.8886,28.7003,南昌市,省林业公司,,22,17,14,12,12,68,,83,83,6,8,2,3,0.6,0.6
2025-09-11T1700,1292A,115.8126,28.7442,南昌市,林科所,,26,7,10,7,7,82,,89,89,6,12,4,5,0.4,0.4
2025-09-11T1700,1294A,115.8518,28.687,南昌市,建工学校,,37,37,19,3,2,69,,84,84,12,15,6,7,0.7,0.8
2025-09-11T1700,1295A,115.8921,28.6424,南昌市,象湖,,22,,16,9,10,68,,90,90,10,13,6,8,0.6,0.8
2025-09-11T1700,1296A,115.7423,28.7996,南昌市,武术学校,,24,18,15,10,12,74,,59,59,7,8,9,9,0.5,0.6
2025-09-11T1700,3046A,115.9084,28.6062,南昌市,机电学校,,21,17,24,9,11,66,,95,95,11,14,5,6,0.4,0.5
2025-09-11T1700,3690A,115.9721,28.7031,南昌市,外国语学校,,22,11,18,8,9,69,,93,90,11,9,3,6,0.3,0.4
2025-09-11T1700,4192A,115.9316,28.68677,南昌市,南京东路235号,,26,26,24,9,10,78,,91,91,9,11,9,10,0.7,0.8
2025-09-11T1700,1905A,106.056,30.8064,南充市,西山风景区,,,,,,,,,,,,,,,,
2025-09-11T1700,1906A,106.0789,30.8023,南充市,南充市委,,27,27,29,17,19,40,,41,41,8,12,3,3,0.5,0.5
2025-09-11T1700,1907A,106.1031,30.8217,南充市,南充炼油厂,,37,37,30,17,16,44,,45,45,4,8,5,5,0.2,0.2
2025-09-11T1700,4227A,106.1083,30.7884,南充市,梨树横街98号,,30,30,25,9,16,55,,54,54,7,9,2,2,0.3,0.3
2025-09-11T1700,4304A,106.1172,30.843,南充市,清泉寺北路188号,,23,20,24,16,18,47,,47,47,4,7,4,4,0.2,0.3
2025-09-11T1700,4305A,106.067,30.7616,南充市,同庆路1号,,29,29,18,17,14,42,,48,48,9,15,4,5,0.3,0.4
2025-09-11T1700,1151A,118.8086,32.1065,南京市,迈皋桥,臭氧1小时,75,32,29,14,17,180,,145,145,4,9,4,4,0.7,0.7
2025-09-11T1700,1152A,118.7538,32.0551,南京市,草场门,臭氧1小时,79,56,40,22,18,183,,145,145,16,15,4,4,0.6,0.7
2025-09-11T1700,1153A,118.7794,32.0745,南京市,山西路,臭氧1小时,79,44,39,17,12,183,,150,150,1,13,3,4,0.5,0.6
2025-09-11T1700,1154A,118.7752,32.0023,南京市,中华门,臭氧1小时,72,31,29,22,16,177,,142,142,11,12,3,4,0.6,0.6
2025-09-11T1700,1155A,118.8109,32.0309,南京市,瑞金路,臭氧1小时,67,36,32,19,17,173,,140,140,4,11,6,6,0.4,0.4
2025-09-11T1700,1156A,118.7997,32.0754,南京市,玄武湖,臭氧1小时,60,40,34,12,10,168,,140,140,12,10,3,4,0.4,0.4
2025-09-11T1700,1157A,118.6414,32.0931,南京市,浦口,臭氧1小时,68,45,36,23,15,174,,138,138,16,17,6,7,0.5,0.5
2025-09-11T1700,1158A,118.7356,31.9996,南京市,奥体中心,臭氧1小时,89,50,42,24,18,191,,154,154,15,16,6,7,0.5,0.5
2025-09-11T1700,1159A,118.9125,32.1028,南京市,仙林大学城,臭氧1小时,74,41,39,14,13,179,,149,149,11,10,8,8,0.7,0.7
2025-09-11T1700,3422A,118.8436,31.9198,南京市,江宁彩虹桥,臭氧1小时,87,30,31,19,18,189,,147,147,19,19,4,5,0.6,0.6
2025-09-11T1700,3427A,118.8554,32.3578,南京市,六合雄州,颗粒物(PM10),51,51,38,22,14,102,,121,121,15,15,6,6,0.7,0.7
2025-09-11T1700,4249A,118.8708,31.3402,南京市,汶溪路181号,臭氧1小时,53,30,24,24,16,162,,130,130,10,12,4,5,0.7,0.7
2025-09-11T1700,4312A,119.019,31.6512,南京市,中山西路1号,,42,24,28,15,18,134,,119,119,12,16,4,4,0.4,0.5
2025-09-11T1700,1401A,108.3103,22.7881,南宁市,二十一中,,40,40,16,8,8,42,,52,52,13,7,4,5,0.4,0.5
2025-09-11T1700,1402A,108.3141,22.8528,南宁市,北湖,,16,,18,10,11,49,,64,64,9,6,3,3,0.4,0.5
2025-09-11T1700,1403A,108.3206,22.8225,南宁市,市监测站,,21,21,15,6,6,43,,52,52,12,6,3,4,0.4,0.5
2025-09-11T1700,1404A,108.3829,22.8037,南宁市,大自然花园,,28,28,14,7,7,54,,56,56,6,5,4,5,0.5,0.5
2025-09-11T1700,1405A,108.4394,22.7904,南宁市,仙葫,,17,15,16,3,6,53,,58,58,5,6,4,4,0.5,0.5
2025-09-11T1700,1406A,108.2397,22.8467,南宁市,区农职院,,13,8,17,6,7,41,,53,53,10,11,6,6,0.1,0.2
2025-09-11T1700,1407A,108.3275,22.735,南宁市,英华嘉园,,15,9,16,8,8,48,,52,52,8,9,1,2,0.3,0.4
2025-09-11T1700,3401A,108.4834,22.7618,南宁市,红星社区,,17,17,16,11,10,54,,61,60,6,7,2,3,0.3,0.4
2025-09-11T1700,4221A,108.2177,22.7774,南宁市,乐贤路16号,,,,19,9,11,43,,51,51,7,14,3,5,0.5,0.6
2025-09-11T1700,2331A,118.0966,26.6761,南平市,茫荡山,,,,10,,5,,,55,,,,,2,,
2025-09-11T1700,2332A,118.1681,26.6369,南平市,南平市监测站,,22,6,11,3,7,69,,63,63,3,6,4,4,0.3,0.4
2025-09-11T1700,2333A,118.1825,26.6489,南平市,南平铝业有限公司,,22,,12,3,6,68,,63,63,3,7,4,4,0.3,0.5
2025-09-11T1700,2334A,118.1756,26.6272,南平市,南平七中,,23,10,12,7,6,72,,64,64,2,5,3,3,0.3,0.4
2025-09-11T1700,1168A,120.9098,31.9663,南通市,狼山街道,,,14,25,10,11,122,,119,119,8,13,,4,0.5,0.6
2025-09-11T1700,1169A,120.86,32.0005,南通市,虹桥,,39,22,23,14,12,124,,124,124,15,14,4,4,0.7,0.7
2025-09-11T1700,1170A,120.87,32.02,南通市,城中,,38,30,30,7,10,119,,119,119,14,15,3,3,0.5,0.5
2025-09-11T1700,1171A,120.94,31.93,南通市,星湖花园,,35,17,21,11,11,109,,105,105,7,11,3,3,0.3,0.4
2025-09-11T1700,1172A,120.81,32.0417,南通市,紫琅学院,,37,30,27,3,8,116,,114,114,12,15,4,4,0.7,0.7
2025-09-11T1700,3291A,121.067,32.062,南通市,通州监测站,,40,12,17,7,8,128,,127,127,6,6,3,2,0.8,0.6
2025-09-11T1700,3432A,120.9348,31.9883,南通市,环境教育馆,,40,19,29,9,12,128,,126,126,6,19,3,4,0.3,0.4
2025-09-11T1700,2404A,112.5224,33.0122,南阳市,瓦房庄,,25,15,13,7,6,79,,66,66,5,6,7,7,0.4,0.5
2025-09-11T1700,2405A,112.5003,32.9735,南阳市,汉画馆,,23,9,9,6,6,72,,58,58,8,8,8,8,0.6,0.7
2025-09-11T1700,2406A,112.5573,33.027,南阳市,气象站,,,9,7,3,2,78,,66,66,,4,4,4,0.6,0.6
2025-09-11T1700,2407A,112.5481,32.9689,南阳市,理工学院,,25,9,10,7,7,78,,66,66,5,6,8,8,0.6,0.7
2025-09-11T1700,4008A,112.5234,32.9922,南阳市,卧龙区政府,,24,6,4,3,6,75,,61,61,8,9,6,6,0.6,0.7
2025-09-11T1700,1234A,121.8358,29.911,宁波市,区环保大楼,,49,41,38,18,15,154,,149,149,41,32,8,8,0.5,0.5
2025-09-11T1700,1235A,121.56,29.82,宁波市,万里学院,臭氧1小时,62,35,27,20,15,169,,164,164,11,15,7,8,0.6,0.6
2025-09-11T1700,1236A,121.713,29.9572,宁波市,龙赛医院,,49,40,38,13,11,154,,140,140,13,21,4,8,0.4,0.4
2025-09-11T1700,1239A,121.633,29.7733,宁波市,钱湖水厂,臭氧1小时,60,31,22,17,14,168,,143,143,4,8,6,6,0.6,0.6
2025-09-11T1700,1240A,121.5856,29.8635,宁波市,太古小学,臭氧1小时,77,50,38,25,15,181,,151,151,19,19,4,5,0.7,0.7
2025-09-11T1700,1241A,121.524,29.8674,宁波市,市环境监测中心,臭氧1小时,93,37,28,18,12,194,,158,158,22,23,9,8,0.7,0.7
2025-09-11T1700,2871A,121.6147,29.9017,宁波市,万里国际学校,臭氧1小时,75,44,35,22,15,180,,158,158,27,25,8,8,0.7,0.6
2025-09-11T1700,3710A,121.5594,29.8975,宁波市,白沙活动中心,臭氧1小时,82,35,28,17,13,185,,164,164,22,25,9,10,0.6,0.6
2025-09-11T1700,2339A,119.5001,26.6946,宁德市,金涵水库,,,,9,,4,,,32,,,3,,1,,0.4
2025-09-11T1700,2341A,119.5388,26.6612,宁德市,宁德市监测站,,34,,15,10,9,107,,94,94,8,10,4,3,0.6,0.5
2025-09-11T1700,3209A,119.5231,26.6562,宁德市,宁德一中,,35,25,15,6,8,112,,96,96,6,6,5,5,0.5,0.4
2025-09-11T1700,2618A,98.8601,25.8567,怒江傈僳族自治州,州监测站,,25,18,23,12,13,77,,65,65,6,8,7,6,0.4,0.4
2025-09-11T1700,2619A,98.8546,25.8417,怒江傈僳族自治州,泸水一中,,20,19,20,3,11,62,,49,49,12,10,5,4,0.6,0.5
2025-09-11T1700,1888A,101.6891,26.571,攀枝花市,弄弄坪,,18,13,44,6,20,56,,57,57,7,21,3,16,0.6,0.9
2025-09-11T1700,1889A,101.5769,26.5928,攀枝花市,河门口,,24,18,31,9,13,75,,65,65,8,12,12,15,0.9,0.9
2025-09-11T1700,1890A,101.7169,26.585,攀枝花市,炳草岗,,23,23,46,7,22,58,,52,52,8,24,5,21,0.6,0.8
2025-09-11T1700,1891A,101.7369,26.5008,攀枝花市,仁和,,16,9,22,3,13,50,,45,45,6,12,7,9,0.5,0.7
2025-09-11T1700,2835A,101.7227,26.567,攀枝花市,四十中小,,29,29,37,15,21,58,,52,52,6,17,9,41,0.8,1.1
2025-09-11T1700,1604A,122.0303,41.1489,盘锦市,开发区,,49,38,38,18,30,154,,156,156,17,19,10,9,0.6,0.6
2025-09-11T1700,1605A,122.0485,41.0883,盘锦市,兴隆台,臭氧1小时,55,45,41,19,22,164,,159,159,20,31,8,8,0.4,0.5
2025-09-11T1700,1606A,121.8297,41.1028,盘锦市,新生街道,,42,42,33,10,20,127,,150,150,65,31,7,6,0.5,0.6
2025-09-11T1700,1832A,113.3257,33.742,平顶山市,新华旅馆,,25,,15,17,12,80,,72,72,7,12,4,4,0.4,0.5
2025-09-11T1700,1833A,113.2919,33.737,平顶山市,规划设计院,,25,9,13,3,8,80,,70,70,6,14,3,4,0.6,0.7
2025-09-11T1700,1834A,113.182,33.774,平顶山市,平顶山工学院,,27,9,11,3,6,86,,78,78,10,14,5,5,0.4,0.5
2025-09-11T1700,3204A,113.3025,33.73,平顶山市,规划局,,,,13,,8,82,,75,75,8,11,,3,0.5,0.6
2025-09-11T1700,3594A,112.8867,33.9116,平顶山市,石龙区,,28,6,12,3,8,88,,80,80,9,9,4,4,0.5,0.5
2025-09-11T1700,2656A,106.6692,35.5461,平凉市,聚贤嘉苑,,28,28,30,8,18,70,,60,54,6,12,21,21,0.8,0.8
2025-09-11T1700,2657A,106.7021,35.5307,平凉市,博物馆,,30,30,39,13,13,76,,60,56,5,13,9,9,0.6,0.6
2025-09-11T1700,2347A,114.0997,27.5002,萍乡市,武功山,,18,,8,12,4,56,,50,50,3,3,12,11,0.4,0.4
2025-09-11T1700,2348A,113.8385,27.6434,萍乡市,中医院,,22,13,16,13,12,68,,74,74,7,10,2,6,0.6,0.7
2025-09-11T1700,2349A,113.8493,27.6253,萍乡市,市政府车库,,21,14,16,10,15,67,,71,71,2,7,10,12,0.3,1
2025-09-11T1700,2350A,113.8676,27.6435,萍乡市,市环保局,,,8,21,,15,66,,71,71,8,8,5,9,0.5,0.5
2025-09-11T1700,2351A,113.866,27.6198,萍乡市,安源区政府,,26,26,21,9,15,64,,66,66,1,8,9,13,0.2,0.6
2025-09-11T1700,2319A,119.0141,25.4325,莆田市,荔城区仓后路,,36,36,23,16,10,108,,114,114,9,9,7,7,0.5,0.6
2025-09-11T1700,2320A,119.0015,25.4553,莆田市,莆田市监测站,,34,21,18,13,6,106,,112,112,9,7,6,6,0.5,0.4
2025-09-11T1700,2321A,119.1119,25.4561,莆田市,涵江区六中,,32,26,19,9,9,101,,112,112,6,10,5,5,0.4,0.4
2025-09-11T1700,2322A,119.1013,25.3215,莆田市,秀屿区政府,,29,21,20,12,12,90,,106,106,6,11,5,6,0.3,0.4
2025-09-11T1700,2323A,118.981,25.4792,莆田市,东圳水库,,,,13,,4,,,73,,,5,,4,,0.7
2025-09-11T1700,2392A,115.0312,35.7636,濮阳市,环保局,,28,20,48,16,31,89,,69,69,15,19,4,6,0.6,0.7
2025-09-11T1700,2394A,115.0574,35.7609,濮阳市,油田运输公司,,33,29,60,23,31,90,,71,71,13,19,4,6,0.7,0.8
2025-09-11T1700,3021A,115,35.7668,濮阳市,濮水河管理处,,29,29,50,14,27,46,,48,43,10,21,4,4,0.5,0.6
2025-09-11T1700,4216A,115.0924,35.7686,濮阳市,任丘路479号,,32,32,66,14,33,82,,69,69,15,20,6,8,0.6,0.7
2025-09-11T1700,2601A,100.98,22.7633,普洱市,市环保局,,18,18,21,7,18,41,,35,35,3,4,7,6,0.4,0.5
2025-09-11T1700,2602A,100.9817,22.8322,普洱市,普洱第二中学,,,14,24,9,10,43,,37,37,,8,6,6,0.3,0.5
2025-09-11T1700,2262A,131.0518,45.8751,七台河市,新一中,,27,27,8,12,7,84,,71,71,12,11,11,10,0.5,0.9
2025-09-11T1700,3345A,131.0577,45.7879,七台河市,中波台,,50,50,16,6,6,38,,46,45,37,22,7,7,0.6,0.7
2025-09-11T1700,3637A,131.0176,45.7761,七台河市,人民广场,,24,17,24,9,11,76,,64,64,12,18,12,12,0.5,0.6
2025-09-11T1700,3684A,130.8781,45.8222,七台河市,新建矿广场,,29,29,15,3,10,55,,57,57,31,15,9,10,0.5,0.3
2025-09-11T1700,1779A,123.9305,47.3636,齐齐哈尔市,安居小区,,25,25,33,17,11,24,,48,47,37,21,4,4,0.6,0.6
2025-09-11T1700,1780A,123.9488,47.3386,齐齐哈尔市,中心广场,,21,21,24,7,6,44,,58,58,24,19,5,5,0.5,0.4
2025-09-11T1700,1781A,123.9483,47.3227,齐齐哈尔市,农牧车辆厂,,36,36,32,14,11,26,,56,52,34,20,4,4,0.4,0.5
2025-09-11T1700,1783A,123.945,47.2988,齐齐哈尔市,市环境监测站,,25,25,20,12,6,34,,57,57,21,16,5,6,0.4,0.3
2025-09-11T1700,3662A,123.6333,47.2075,齐齐哈尔市,富区青少年活动中心,,44,44,32,7,6,53,,58,58,8,11,5,4,0.3,0.3
2025-09-11T1700,2591A,107.9783,26.5747,黔东南苗族侗族自治州,市环境监测站,,19,,11,13,13,53,,52,52,2,10,2,2,0.4,0.6
2025-09-11T1700,2881A,107.8908,26.5311,黔东南苗族侗族自治州,凯里学院,,19,,6,6,7,60,,54,54,6,10,6,6,0.4,0.4
2025-09-11T1700,2593A,107.5228,26.2403,黔南布依族苗族自治州,小围寨,,17,6,7,3,2,54,,49,49,2,4,1,1,0.3,0.3
2025-09-11T1700,3538A,107.5175,26.2978,黔南布依族苗族自治州,沙坝,,16,9,12,3,4,49,,58,57,3,5,3,3,0.1,0.2
2025-09-11T1700,2589A,104.9022,25.0925,黔西南布依族苗族自治州,场坝街,,,14,15,3,6,,,44,44,5,5,5,5,0.3,0.4
2025-09-11T1700,2590A,104.8811,25.0992,黔西南布依族苗族自治州,坪东大道,,14,11,18,6,8,44,,43,43,5,4,2,2,0.5,0.5
2025-09-11T1700,2502A,108.6236,21.9667,钦州市,市环保站,,19,17,13,7,5,58,,48,48,12,10,4,3,0.6,0.4
2025-09-11T1700,2503A,108.6549,21.9481,钦州市,沙埠小学,,21,,16,12,8,65,,48,48,6,9,2,2,0.6,0.5
2025-09-11T1700,2504A,108.5989,21.7431,钦州市,港区一小,,16,16,24,10,8,48,,32,32,16,18,4,4,0.8,0.7
2025-09-11T1700,3404A,108.5959,21.9633,钦州市,北职校,,19,11,15,7,8,59,,48,48,7,9,4,3,0.6,0.5
2025-09-11T1700,1043A,119.7493,40.0116,秦皇岛市,第一关,,50,50,57,19,22,140,,145,145,3,57,5,6,0.3,0.5
2025-09-11T1700,1044A,119.5897,39.9499,秦皇岛市,监测站,,42,42,51,11,14,134,,141,141,7,35,5,6,0.3,0.6
2025-09-11T1700,1046A,119.5251,39.9041,秦皇岛市,建设大厦,,40,29,67,3,12,126,,134,134,1,30,6,8,0.3,0.6
2025-09-11T1700,3132A,119.610547,39.943889,秦皇岛市,文明里,,49,49,58,7,17,126,,134,134,9,32,7,8,0.2,0.4
2025-09-11T1700,4198A,119.5090,39.8253,秦皇岛市,北戴河轮滑馆,颗粒物(PM10),51,51,57,10,20,133,,129,129,5,17,2,3,0.6,0.7
2025-09-11T1700,1307A,120.6659,36.2403,青岛市,仰口,,34,30,21,13,10,106,,103,103,6,9,11,11,0.7,0.6
2025-09-11T1700,1310A,120.4134,36.0658,青岛市,市南区东部子站,,43,27,19,12,11,136,,132,132,4,3,7,7,0.3,0.3
2025-09-11T1700,1311A,120.3664,36.1032,青岛市,四方区子站,,43,31,34,14,13,137,,127,127,2,4,6,4,0.2,0.2
2025-09-11T1700,1312A,120.2994,36.054,青岛市,市南区西部子站,,39,24,21,12,11,122,,120,120,17,14,6,6,0.6,0.5
2025-09-11T1700,1313A,120.4581,36.0858,青岛市,崂山区子站,,45,29,17,9,7,142,,126,126,2,4,8,8,0.2,0.2
2025-09-11T1700,1315A,120.3999,36.3083,青岛市,城阳区子站,,43,24,33,12,14,136,,115,115,12,21,4,4,0.3,0.4
2025-09-11T1700,1966A,120.0405,35.8735,青岛市,黄岛区4号,,,,,,,,,,,,,,,,
2025-09-11T1700,3362A,120.5014,36.4034,青岛市,即墨2号,,43,21,24,11,11,136,,125,125,5,8,4,4,0.2,0.2
2025-09-11T1700,3642A,120.3503,36.0736,青岛市,市北区南部,,40,30,23,9,9,125,,116,116,6,5,5,6,0.6,0.6
2025-09-11T1700,3643A,120.3948,36.1805,青岛市,李沧区北部,,38,27,22,14,15,120,,108,108,9,13,6,5,0.3,0.3
2025-09-11T1700,4290A,120.1969,35.9546,青岛市,珠江路669号,,40,29,19,17,11,128,,117,117,8,6,7,6,0.3,0.3
2025-09-11T1700,1702A,113.0426,23.691,清远市,环保大楼,臭氧1小时,74,54,29,32,14,179,,119,119,15,12,11,20,0.6,0.6
2025-09-11T1700,1703A,113.0208,23.7106,清远市,凤城街办,臭氧1小时,82,40,22,31,15,185,,123,123,14,15,7,9,0.5,0.5
2025-09-11T1700,3025A,113.0477,23.6344,清远市,技师学院,臭氧1小时,82,29,27,18,15,185,,122,122,12,18,7,10,0.4,0.4
2025-09-11T1700,3318A,112.9903,23.7403,清远市,清新太和,臭氧1小时,68,37,26,24,16,174,,123,123,18,16,4,4,0.5,0.5
2025-09-11T1700,3455A,113.076,23.7198,清远市,清城东城,臭氧1小时,78,46,22,44,14,182,,133,133,14,12,8,9,0.6,0.7
2025-09-11T1700,2661A,107.6325,35.7357,庆阳市,庆阳五中,,20,20,19,6,10,42,,58,42,9,6,7,7,0.5,0.5
2025-09-11T1700,2662A,107.6364,35.7067,庆阳市,市环保局,,16,16,18,10,17,49,,61,46,7,6,3,2,0.7,0.6
2025-09-11T1700,1916A,103.7897,25.5035,曲靖市,环境监测站,,27,13,19,6,7,84,,65,65,5,8,4,5,0.4,0.4
2025-09-11T1700,1917A,103.8,25.5364,曲靖市,烟厂办公区,,22,12,16,3,10,70,,57,57,3,6,3,4,0.3,0.5
2025-09-11T1700,3376A,103.7947,25.462,曲靖市,南苑二区,,22,8,13,3,7,68,,56,56,3,6,3,4,0.5,0.6
2025-09-11T1700,3377A,103.7444,25.5261,曲靖市,曲靖师范学院,,24,14,12,7,8,74,,62,62,4,6,1,1,0.3,0.3
2025-09-11T1700,1264A,118.8692,28.9398,衢州市,环保大楼,,28,20,21,10,11,87,,91,91,10,12,4,4,0.3,0.3
2025-09-11T1700,1265A,118.8709,28.9666,衢州市,实验学校,,28,13,17,8,11,89,,90,90,10,13,4,5,0.3,0.3
2025-09-11T1700,1266A,118.8621,28.9808,衢州市,衢州学院,,25,14,17,8,10,80,,89,89,15,14,4,4,0.3,0.3
2025-09-11T1700,1611A,118.5819,24.9117,泉州市,涂山街,,40,32,23,16,15,126,,144,144,12,13,5,2,0.5,0.5
2025-09-11T1700,1612A,118.5972,24.8978,泉州市,津头埔,,38,27,24,19,15,121,,139,139,12,11,8,4,0.4,0.4
2025-09-11T1700,1613A,118.6663,24.9424,泉州市,万安,,32,17,26,14,14,102,,132,132,6,13,2,2,0.4,0.4
2025-09-11T1700,1614A,118.6117,24.9604,泉州市,清源山,,,,21,,11,,,93,,,3,,2,,0.4
2025-09-11T1700,3529A,118.6333,24.9264,泉州市,城华南路,,33,26,24,17,13,104,,131,127,17,10,5,3,0.4,0.4
2025-09-11T1700,2626A,88.8876,29.2718,日喀则市,日喀则监测站,,35,6,5,3,1,110,,108,108,2,5,13,12,0.2,0.3
2025-09-11T1700,3726A,88.8781,29.2426,日喀则市,林业技术推广中心,,,,7,,1,,,93,,,3,,6,,0.4
2025-09-11T1700,1659A,119.471,35.4209,日照市,监测站,,35,19,20,10,13,110,,110,110,8,24,6,6,0.5,0.6
2025-09-11T1700,1660A,119.523,35.4216,日照市,市政府广场,,36,14,15,3,6,115,,115,114,7,6,5,5,0.6,0.6
2025-09-11T1700,1661A,119.5587,35.4044,日照市,港务局,,37,22,16,14,18,118,,115,115,5,4,3,3,0.7,0.6
2025-09-11T1700,3507A,119.5328,35.4625,日照市,职业技术学院,,35,24,19,12,7,110,,110,110,6,6,4,5,0.6,0.6
2025-09-11T1700,3604A,119.3266,35.1044,日照市,岚山环保分局,,34,14,20,3,3,106,,108,106,10,10,7,7,0.5,0.5
2025-09-11T1700,1835A,111.1922,34.7752,三门峡市,市政府,,31,7,21,7,15,99,,86,86,8,9,6,6,0.4,0.4
2025-09-11T1700,1836A,111.1587,34.7942,三门峡市,开发区,,26,6,24,3,17,83,,76,76,13,12,4,5,0.3,0.5
2025-09-11T1700,1838A,111.143,34.7955,三门峡市,风景区,,30,6,18,3,12,93,,81,81,6,8,5,4,0.5,0.6
2025-09-11T1700,3039A,111.1911,34.7829,三门峡市,三门峡市第一小学,,28,20,22,3,12,88,,82,82,6,6,6,5,0.4,0.5
2025-09-11T1700,3598A,111.1,34.7167,三门峡市,富达温泉假日酒店,,26,6,19,3,13,82,,75,75,9,12,5,6,0.2,0.6
2025-09-11T1700,2324A,117.6211,26.2625,三明市,三钢,,36,20,15,20,12,115,,94,94,8,10,6,4,0.9,0.8
2025-09-11T1700,2325A,117.635,26.2714,三明市,三明二中,,33,32,19,3,6,105,,86,86,8,6,7,4,1.2,0.8
2025-09-11T1700,2326A,117.6028,26.2378,三明市,三元区政府,,32,23,11,3,4,101,,89,89,6,8,3,4,0.3,0.4
2025-09-11T1700,2327A,117.7275,26.3108,三明市,洋溪,,,,12,,5,,,53,,,7,,8,,0.9
2025-09-11T1700,1876A,109.5078,18.2489,三亚市,河东子站,,,8,16,6,10,42,,42,42,6,8,3,2,,0.5
2025-09-11T1700,1877A,109.4964,18.2681,三亚市,河西子站,,12,8,17,3,7,38,,40,40,6,7,4,3,0.4,0.5
2025-09-11T1700,3540A,109.7348,18.3443,三亚市,君悦子站,,15,,1,3,5,45,,46,46,4,4,3,3,0.3,0.4
2025-09-11T1700,2624A,91.7608,29.2313,山南市,山南监测站,,30,6,5,3,2,94,,72,72,2,7,3,3,0.2,0.2
2025-09-11T1700,2625A,91.7706,29.2436,山南市,山南人民医院,,30,6,8,3,4,94,,71,71,1,6,3,3,0.3,0.3
2025-09-11T1700,1674A,116.6794,23.3667,汕头市,金平子站,,26,18,21,10,10,82,,90,90,8,14,2,3,0.4,0.6
2025-09-11T1700,1675A,116.7244,23.3633,汕头市,龙湖子站,,29,20,20,10,7,90,,84,84,7,9,7,9,0.6,0.7
2025-09-11T1700,1676A,116.7258,23.2775,汕头市,濠江子站,,30,30,23,13,9,83,,80,80,7,9,6,7,0.6,0.7
2025-09-11T1700,1677A,116.7519,23.4714,汕头市,澄海子站,,28,24,24,11,12,87,,82,82,4,14,3,7,0.6,0.7
2025-09-11T1700,1678A,116.6092,23.2539,汕头市,潮阳子站,,23,23,22,12,10,71,,78,78,10,7,11,7,0.8,0.6
2025-09-11T1700,3444A,116.454,23.2684,汕头市,潮南峡山,,,19,24,11,15,81,,96,96,,10,8,7,0.5,0.6
2025-09-11T1700,3624A,116.4069,23.2533,汕头市,潮南子站,,25,13,17,10,16,77,,90,90,8,10,5,5,0.6,0.7
2025-09-11T1700,1693A,115.3653,22.775,汕尾市,市环保局,,20,15,11,3,5,62,,55,55,5,8,3,3,0.4,0.4
2025-09-11T1700,1694A,115.3706,22.7898,汕尾市,市政府,,20,6,10,3,4,64,,55,55,4,7,4,4,0.4,0.4
2025-09-11T1700,1695A,115.3622,22.7925,汕尾市,新城中学,,20,19,14,3,6,62,,56,56,5,8,5,5,0.4,0.4
2025-09-11T1700,2645A,109.9154,33.8715,商洛市,监测站,,13,,19,7,10,39,,36,36,11,16,3,4,0.7,0.6
2025-09-11T1700,3045A,109.9643,33.8471,商洛市,商州区中学,,16,,18,11,9,36,,30,30,13,20,4,5,0.6,0.5
2025-09-11T1700,2408A,115.6702,34.4285,商丘市,环境监测站,,34,6,31,6,13,106,,96,96,4,11,2,3,0.4,0.5
2025-09-11T1700,2409A,115.6458,34.4045,商丘市,粮食局,,33,8,28,3,8,105,,94,94,6,11,3,4,0.2,0.3
2025-09-11T1700,2410A,115.6293,34.3948,商丘市,睢阳区环保局,,33,28,37,7,14,104,,94,94,4,8,4,4,0.3,0.3
2025-09-11T1700,3171A,115.6071,34.4465,商丘市,梁园区档案局,,31,,27,12,16,99,,94,94,5,12,4,5,0.4,0.5
2025-09-11T1700,1141A,121.4,31.238,上海市,普陀,,45,39,33,18,14,143,,141,141,20,18,5,5,0.5,0.5
2025-09-11T1700,1142A,121.478,31.2036,上海市,十五厂,,43,34,31,18,14,136,,142,142,14,12,9,8,0.7,0.8
2025-09-11T1700,1143A,121.467,31.3008,上海市,虹口,,36,32,33,18,16,115,,125,125,16,13,6,7,0.1,0.2
2025-09-11T1700,1147A,121.425,31.2261,上海市,静安监测站,颗粒物(PM10),61,71,36,15,14,144,,148,148,20,17,4,4,0.6,0.4
2025-09-11T1700,1148A,121.703,31.1907,上海市,浦东川沙,,33,22,30,12,13,104,,109,109,10,13,7,7,0.6,0.6
2025-09-11T1700,1149A,121.533,31.2284,上海市,浦东新区监测站,,39,26,29,19,24,123,,130,130,14,12,5,5,0.6,0.6
2025-09-11T1700,1150A,121.577,31.2071,上海市,浦东张江,,,27,30,15,15,123,,133,133,,20,,6,0.6,0.7
2025-09-11T1700,3265A,121.4316,31.3322,上海市,宝山庙行,,35,33,33,14,14,112,,118,118,22,20,9,9,0.5,0.5
2025-09-11T1700,3266A,121.8791,31.4662,上海市,崇明上实东滩,,35,16,20,8,12,109,,119,119,3,4,4,4,0.4,0.4
2025-09-11T1700,3268A,121.3162,31.2838,上海市,嘉定南翔,,40,36,33,19,16,126,,133,133,23,23,5,5,0.3,0.3
2025-09-11T1700,3269A,121.3359,30.7456,上海市,金山新城,,46,26,32,15,15,147,,118,118,6,13,6,5,0.7,0.8
2025-09-11T1700,3270A,121.4996,31.0739,上海市,闵行浦江,,45,33,31,14,13,143,,145,145,10,11,4,4,1.1,1.1
2025-09-11T1700,3271A,121.2886,31.1663,上海市,青浦徐泾,,,36,30,10,13,166,,164,164,15,14,,8,0.5,0.6
2025-09-11T1700,3272A,121.2186,31.0378,上海市,松江图书馆,臭氧1小时,55,28,27,17,15,164,,160,160,13,19,4,5,0.6,0.6
2025-09-11T1700,3273A,121.3902,31.2059,上海市,长宁仙霞,,42,39,33,11,15,132,,137,137,19,16,7,8,0.5,0.5
2025-09-11T1700,3274A,121.7965,31.0507,上海市,浦东惠南,,40,23,36,10,13,128,,137,137,9,13,6,6,0.7,0.8
2025-09-11T1700,3544A,121.4891,30.925,上海市,奉贤南桥新城,,46,30,38,10,19,145,,148,148,12,14,6,6,0.6,0.6
2025-09-11T1700,4183A,121.4174,31.16637,上海市,冠生园路458号,,42,28,28,18,15,132,,131,131,16,15,4,4,0.6,0.6
2025-09-11T1700,4205A,121.5419,31.2683,上海市,宁武路151号,,36,36,35,21,16,111,,120,120,27,23,5,4,0.5,0.5
2025-09-11T1700,2381A,118.005,28.4572,上饶市,百草园,,,,,,,,,,,,,,,,
2025-09-11T1700,2382A,117.9756,28.4436,上饶市,市监测站,,21,18,24,8,10,66,,89,89,5,8,11,6,0.2,0.3
2025-09-11T1700,2383A,117.9519,28.4628,上饶市,凤凰光学,,20,20,27,11,14,63,,86,86,7,11,10,10,0.2,0.2
2025-09-11T1700,3685A,117.897,28.4315,上饶市,双创科技城,,19,18,22,13,11,59,,85,85,14,16,8,9,0.3,0.4
2025-09-11T1700,4211A,118.1904,28.4448,上饶市,裕丰大道,,22,22,22,6,8,67,,87,85,11,11,4,3,0.5,0.5
