timepoint,stationcode,longitude,latitude,area,positionname,primarypollutant,aqi,pm10,pm10_24h,pm2_5,pm2_5_24h,o3,o3_24h,o3_8h,o3_8h_24h,no2,no2_24h,so2,so2_24h,co,co_24h
2025-09-11T2300,2566A,102.1879,31.914,阿坝藏族羌族自治州,州农科所,,7,7,17,3,7,18,,46,32,6,7,3,2,0.2,0.3
2025-09-11T2300,2568A,102.2502,31.8896,阿坝藏族羌族自治州,马师校,,30,30,16,18,10,8,,46,27,5,7,8,8,0.6,0.6
2025-09-11T2300,3994A,102.2165,31.9024,阿坝藏族羌族自治州,马尔康中学西区,,23,23,19,15,12,11,,50,37,5,5,9,9,0.6,0.5
2025-09-11T2300,2695A,80.292,41.1694,阿克苏地区,电视台,颗粒物(PM10),226,368,160,120,49,44,,100,83,28,12,4,5,1.0,0.8
2025-09-11T2300,2696A,80.2613,41.1551,阿克苏地区,艺术中心,颗粒物(PM10),177,303,140,131,52,4,,108,91,70,19,4,4,1.0,0.5
2025-09-11T2300,2204A,105.6467,38.8363,阿拉善盟,西城区西花园,,43,40,58,30,24,62,,71,66,10,15,10,10,1.0,1
2025-09-11T2300,2205A,105.6985,38.8411,阿拉善盟,蒙二幼,颗粒物(PM10),51,52,69,29,26,92,,122,111,9,8,8,9,0.7,0.5
2025-09-11T2300,2206A,105.724,38.8516,阿拉善盟,环保局新楼,颗粒物(PM10),52,54,57,25,24,94,,125,116,6,6,8,9,0.6,0.5
2025-09-11T2300,2708A,88.1264,47.8517,阿勒泰地区,市站,,19,17,23,3,6,27,,64,50,38,16,3,3,0.5,0.4
2025-09-11T2300,2630A,80.1161,32.5,阿里地区,阿里监测站,,,,3,,3,73,,112,104,24,15,4,4,0.4,0.3
2025-09-11T2300,3192A,80.0903,32.5028,阿里地区,阿里藏医院,,37,11,15,3,3,116,,120,118,3,6,6,6,0.1,0.1
2025-09-11T2300,2642A,109.0318,32.6537,安康市,香溪洞,,10,9,13,3,7,32,,46,39,12,9,6,6,0.6,0.6
2025-09-11T2300,2644A,109.0072,32.6975,安康市,汉滨区检察院,,19,19,23,7,11,10,,39,30,21,11,4,4,0.7,0.6
2025-09-11T2300,4054A,109.0325,32.6913,安康市,市邮政管理局,,15,15,18,8,9,25,,47,34,17,13,5,5,0.8,0.7
2025-09-11T2300,2291A,117.0809,30.5177,安庆市,环科院,,17,17,18,6,7,48,,96,79,11,9,11,10,0.8,0.8
2025-09-11T2300,2292A,117.0331,30.5119,安庆市,马山宾馆,,13,12,17,6,6,41,,88,71,17,12,5,5,1.0,0.9
2025-09-11T2300,2294A,116.9896,30.6145,安庆市,安庆大学,,16,16,20,6,7,47,,105,83,22,13,8,5,0.8,0.6
2025-09-11T2300,3173A,117.0598,30.5351,安庆市,市人大,,16,14,18,8,7,51,,98,78,13,12,9,8,0.8,0.7
2025-09-11T2300,3122A,105.9606,26.2611,安顺市,伍家关,,22,22,13,7,7,49,,62,59,4,3,6,6,0.5,0.5
2025-09-11T2300,3123A,105.9408,26.2431,安顺市,凤凰山,,18,13,13,11,10,55,,62,59,4,4,6,6,0.4,0.4
2025-09-11T2300,3124A,105.9439,26.2564,安顺市,金钟山,,17,14,10,9,8,52,,61,58,4,3,6,6,0.6,0.5
2025-09-11T2300,3125A,105.8983,26.2481,安顺市,娄家坡,,18,13,13,8,10,55,,61,57,2,2,5,5,0.5,0.5
2025-09-11T2300,1818A,114.4839,36.0621,安阳市,棉研所,,,,,,,,,,,,,,,,
2025-09-11T2300,1819A,114.3551,36.1017,安阳市,红庙街,,31,31,40,10,16,63,,94,85,18,17,4,6,0.3,0.3
2025-09-11T2300,1820A,114.361,36.0681,安阳市,银杏小区,,28,28,40,14,23,65,,93,85,17,18,6,7,0.5,0.5
2025-09-11T2300,3141A,114.3922,36.0878,安阳市,信访局,,32,32,43,15,20,52,,97,89,27,20,5,6,0.5,0.6
2025-09-11T2300,3669A,114.4705,36.0637,安阳市,左辅环卫站,,32,32,50,19,27,36,,94,84,22,20,5,6,0.3,0.5
2025-09-11T2300,3703A,114.2917,36.0949,安阳市,安钢职工学校,,32,32,36,16,21,64,,90,76,13,14,4,6,0.5,0.5
2025-09-11T2300,1748A,123.044,41.1196,鞍山市,深沟寺,,42,42,39,24,23,89,,160,121,8,10,7,8,0.8,1
2025-09-11T2300,1749A,123.011,41.0931,鞍山市,太阳城,,36,36,42,19,23,108,,161,124,8,11,7,8,0.6,0.8
2025-09-11T2300,1750A,123.0485,41.1442,鞍山市,太平,颗粒物(PM10),51,52,53,29,26,107,,159,123,8,12,7,9,0.7,0.9
2025-09-11T2300,1751A,122.9642,41.0971,鞍山市,铁西三道街,颗粒物(PM10),57,63,66,28,30,89,,154,118,20,26,6,8,0.7,1
2025-09-11T2300,1753A,123.022,41.0821,鞍山市,明达新区,,39,39,43,20,24,112,,145,122,8,11,8,9,0.6,0.9
2025-09-11T2300,1754A,123.1289,41.0228,鞍山市,千山,,,,27,,20,,,81,,,4,,4,,0.5
2025-09-11T2300,4201A,122.9446,41.0826,鞍山市,兴盛南路290号,颗粒物(PM10),53,56,69,25,27,94,,160,116,19,34,9,10,0.9,1
2025-09-11T2300,2195A,107.4212,40.761,巴彦淖尔市,附二中,,36,36,73,22,31,84,,89,89,9,24,8,12,0.5,0.6
2025-09-11T2300,2196A,107.37,40.7372,巴彦淖尔市,市环保大楼,,41,41,78,21,28,84,,85,85,5,27,8,10,0.4,0.6
2025-09-11T2300,1956A,86.1472,41.7538,巴音郭楞蒙古自治州,孔雀公园,颗粒物(PM10),97,144,56,36,21,1,,99,70,83,14,6,6,1.0,0.3
2025-09-11T2300,1957A,86.1972,41.7166,巴音郭楞蒙古自治州,棉纺厂,颗粒物(PM10),116,182,68,42,16,24,,109,79,64,12,5,4,0.8,0.2
2025-09-11T2300,1958A,86.2357,41.7173,巴音郭楞蒙古自治州,经济开发区,颗粒物(PM10),64,77,46,24,12,54,,104,79,23,6,4,4,0.3,0.2
2025-09-11T2300,2914A,106.7677,31.8794,巴中市,苏山坪,,10,6,12,3,7,32,,30,24,4,4,2,3,0.3,0.4
2025-09-11T2300,3181A,106.7768,31.8526,巴中市,市五中,,15,15,18,7,9,8,,24,14,12,10,6,6,0.6,0.6
2025-09-11T2300,3183A,106.7418,31.8654,巴中市,圣泉水务公司,,8,8,12,3,9,16,,23,18,9,7,6,6,0.6,0.6
2025-09-11T2300,3616A,106.7616,31.8344,巴中市,市中心医院,,15,15,18,8,7,3,,25,11,16,13,7,7,0.6,0.6
2025-09-11T2300,2235A,122.7911,45.6077,白城市,洮北区环保局,,50,50,26,19,13,109,,114,110,9,4,5,5,0.7,0.4
2025-09-11T2300,2236A,122.8738,45.5725,白城市,市环保局,颗粒物(PM10),53,56,29,34,14,125,,119,114,4,8,3,4,0.7,0.5
2025-09-11T2300,2231A,126.4219,41.9171,白山市,喜丰,颗粒物(PM10),61,72,50,23,18,5,,93,55,32,17,6,7,0.7,0.7
2025-09-11T2300,2232A,126.4077,41.9419,白山市,环保局,,43,43,32,18,18,26,,97,62,9,12,5,7,0.6,0.6
2025-09-11T2300,2647A,104.1724,36.5446,白银市,第三小学,颗粒物(PM10),54,57,49,27,19,48,,103,82,39,16,8,22,0.7,0.7
2025-09-11T2300,2648A,104.1465,36.5482,白银市,动力公司,颗粒物(PM10),60,69,46,31,19,36,,106,84,41,15,9,15,0.7,0.6
2025-09-11T2300,2512A,106.6103,23.9011,百色市,市监测站,,12,12,30,8,15,31,,76,53,8,12,10,10,0.4,0.6
2025-09-11T2300,2513A,106.6538,23.8859,百色市,市中心血站,,16,16,34,6,14,34,,71,53,12,16,11,9,0.5,0.7
2025-09-11T2300,3406A,106.6085,23.8798,百色市,祈福高中,,20,20,37,14,19,25,,68,47,15,15,15,10,0.6,0.7
2025-09-11T2300,2270A,117.396,32.939,蚌埠市,工人疗养院,,16,16,29,3,11,50,,88,73,10,11,4,5,0.3,0.4
2025-09-11T2300,2271A,117.3605,32.9427,蚌埠市,百货大楼,,19,19,22,8,12,47,,80,71,13,15,6,7,0.5,0.5
2025-09-11T2300,2273A,117.4185,32.8911,蚌埠市,蚌埠学院,,19,14,24,13,14,44,,77,68,16,13,6,6,0.4,0.4
2025-09-11T2300,2274A,117.3533,32.9673,蚌埠市,淮上区政府,,20,14,25,14,13,57,,83,75,8,10,5,6,0.3,0.5
2025-09-11T2300,2275A,117.3145,32.8977,蚌埠市,高新区,,19,14,26,13,12,35,,76,69,30,16,6,7,0.5,0.5
2025-09-11T2300,3715A,117.3092,32.9314,蚌埠市,蚌埠田家炳中学,,17,13,24,7,11,54,,84,77,9,13,4,6,0.3,0.4
2025-09-11T2300,1585A,109.8756,40.6532,包头市,市环境监测站,,26,26,29,18,14,19,,90,72,50,20,4,7,0.4,0.5
2025-09-11T2300,1587A,109.9991,40.5842,包头市,包头八中,,,25,33,19,20,,,96,,75,23,8,8,0.7,0.6
2025-09-11T2300,1588A,109.8538,40.6821,包头市,青山宾馆,,35,26,28,12,20,0,,86,57,69,27,3,6,0.6,0.7
2025-09-11T2300,1589A,109.8642,40.6288,包头市,惠龙物流,,33,33,30,20,16,36,,96,75,36,17,5,7,0.5,0.6
2025-09-11T2300,1590A,110.0377,40.5546,包头市,东河鸿龙湾,,32,24,31,22,14,23,,104,73,50,21,9,8,0.9,0.8
2025-09-11T2300,3283A,109.9154,40.5685,包头市,滨河大厦,,22,22,27,14,14,28,,105,83,44,17,5,5,0.6,0.6
2025-09-11T2300,3419A,109.9447,40.6261,包头市,包头市委党校,,23,18,27,16,14,32,,100,77,41,19,7,9,0.9,0.7
2025-09-11T2300,3683A,109.8331,40.6576,包头市,昆区政府,,21,21,33,14,20,39,,96,79,42,20,5,7,0.7,0.7
2025-09-11T2300,1930A,107.185,34.3063,宝鸡市,庙沟村,,16,9,17,6,11,50,,50,48,11,12,4,4,0.6,0.6
2025-09-11T2300,1931A,107.0708,34.3017,宝鸡市,竹园沟,,17,10,20,7,14,52,,48,48,8,11,8,8,0.5,0.5
2025-09-11T2300,1932A,107.1906,34.3672,宝鸡市,三陆医院,,17,15,24,10,14,54,,58,48,9,12,6,6,0.8,0.8
2025-09-11T2300,1933A,107.1431,34.3547,宝鸡市,监测站,,16,12,25,10,16,50,,61,50,11,11,4,4,0.8,0.8
2025-09-11T2300,1934A,107.1186,34.3739,宝鸡市,技工学校,,19,,23,13,18,48,,54,45,12,13,6,6,0.7,0.7
2025-09-11T2300,1936A,107.2058,34.3497,宝鸡市,文理学院,,18,12,23,10,17,56,,63,52,10,11,7,7,0.7,0.7
2025-09-11T2300,1937A,107.2386,34.3622,宝鸡市,三迪小学,,25,,23,17,23,50,,58,47,15,15,5,5,0.7,0.7
2025-09-11T2300,4308A,107.3898,34.3601,宝鸡市,陈仓区北开路21号,,18,,19,12,15,46,,54,47,14,11,6,5,0.6,0.5
2025-09-11T2300,1051A,115.493,38.8632,保定市,游泳馆,颗粒物(PM10),51,52,54,28,27,101,,157,130,12,21,4,3,0.3,0.3
2025-09-11T2300,1052A,115.5213,38.8959,保定市,华电二区,颗粒物(PM10),54,58,55,31,26,107,,157,133,16,26,4,3,0.2,0.2
2025-09-11T2300,1053A,115.4713,38.9108,保定市,接待中心,颗粒物(PM10),77,104,56,32,30,92,,140,118,8,16,3,3,0.2,0.4
2025-09-11T2300,1054A,115.4612,38.8416,保定市,地表水厂,颗粒物(PM10),55,60,65,24,20,91,,147,118,18,21,6,6,0.4,0.3
2025-09-11T2300,3581A,115.31981,38.95208,保定市,满城区生态环境分局,颗粒物(PM10),65,80,68,34,31,68,,152,119,28,22,2,2,0.3,0.3
2025-09-11T2300,3582A,115.47694,38.76408,保定市,清苑区第二中学,颗粒物(PM10),60,70,77,34,27,76,,150,110,18,16,2,3,0.4,0.4
2025-09-11T2300,3583A,115.62909,39.02311,保定市,徐水物探局,颗粒物(PM10),60,69,73,38,44,59,,161,118,45,30,5,4,0.3,0.4
2025-09-11T2300,4004A,115.4202,38.8656,保定市,双鹰农机,颗粒物(PM10),65,80,60,31,26,78,,149,115,20,21,4,4,0.3,0.3
2025-09-11T2300,4034A,115.5150,38.8590,保定市,植保所站,颗粒物(PM10),55,59,67,36,34,100,,155,135,21,27,12,7,0.6,0.6
2025-09-11T2300,2594A,99.1678,25.1081,保山市,市环境监测站,,33,,17,23,18,34,,64,51,7,6,6,6,0.4,0.4
2025-09-11T2300,2595A,99.1711,25.1328,保山市,市环保局,,24,24,17,16,10,40,,69,56,5,4,7,6,0.4,0.4
2025-09-11T2300,1866A,109.2262,21.588,北海市,牛尾岭水库,,9,,14,3,7,27,,47,38,5,5,1,7,0.5,0.6
2025-09-11T2300,1867A,109.1436,21.4086,北海市,海滩公园,,13,13,20,3,3,41,,60,56,4,5,4,4,0.5,0.5
2025-09-11T2300,1868A,109.0981,21.4661,北海市,新市环保局,,15,11,14,3,9,45,,59,56,6,7,3,4,0.5,0.5
2025-09-11T2300,1869A,109.1778,21.5233,北海市,北海工业园,,,,18,2,8,39,,56,50,7,7,3,4,0.4,0.4
2025-09-11T2300,3400A,109.1911,21.4415,北海市,龙潭自来水厂,,15,9,13,3,7,46,,60,55,4,5,4,4,0.4,0.5
2025-09-11T2300,1001A,116.3621,39.8784,北京市,万寿西宫,颗粒物(PM10),52,54,55,24,33,113,,162,151,21,23,3,3,0.5,0.6
2025-09-11T2300,1002A,116.2202,40.2915,北京市,定陵,,34,34,47,20,31,79,,163,120,3,5,4,4,0.5,0.5
2025-09-11T2300,1003A,116.4174,39.9289,北京市,东四,颗粒物(PM10),54,57,66,25,36,122,,171,158,17,23,4,4,0.5,0.6
2025-09-11T2300,1004A,116.4072,39.8863,北京市,天坛,,44,44,47,23,31,70,,155,123,19,18,3,4,0.6,0.6
2025-09-11T2300,1005A,116.462,39.9365,北京市,农展馆,,48,48,51,24,33,114,,156,144,15,26,3,3,0.5,0.6
2025-09-11T2300,1006A,116.3392,39.9295,北京市,官园,颗粒物(PM10),53,55,56,25,32,119,,162,153,17,18,4,4,0.5,0.6
2025-09-11T2300,1007A,116.2878,39.9611,北京市,海淀万柳,颗粒物(PM10),54,58,57,28,32,82,,148,131,28,33,4,4,0.6,0.7
2025-09-11T2300,1008A,116.6636,40.135,北京市,顺义新城,,,,,,,,,,,,,,,,
2025-09-11T2300,1009A,116.6275,40.3275,北京市,怀柔镇,颗粒物(PM10),51,52,52,27,32,85,,164,134,21,15,1,2,0.8,0.8
2025-09-11T2300,1010A,116.2296,40.217,北京市,昌平镇,,48,48,58,28,43,97,,149,129,14,17,2,3,0.6,0.7
2025-09-11T2300,1011A,116.3966,39.9821,北京市,奥体中心,,48,48,50,22,28,124,,148,144,11,25,4,4,0.5,0.6
2025-09-11T2300,3281A,115.9718,40.4529,北京市,延庆夏都,颗粒物(PM10),54,57,47,29,29,109,,148,139,10,10,3,2,0.5,0.5
2025-09-11T2300,3418A,116.8336,40.4095,北京市,密云新城,颗粒物(PM10),60,69,50,40,30,99,,157,132,7,9,3,3,0.5,0.5
2025-09-11T2300,3671A,116.088,39.9726,北京市,门头沟三家店,,44,44,51,22,31,43,,145,105,27,20,3,3,0.6,0.7
2025-09-11T2300,3672A,116.1541,39.8204,北京市,丰台云岗,颗粒物(PM10),64,77,60,30,35,47,,150,112,48,24,1,1,0.6,0.6
2025-09-11T2300,3673A,116.6804,39.9081,北京市,通州东关,颗粒物(PM10),69,87,71,39,38,20,,163,112,105,29,4,4,0.7,0.6
2025-09-11T2300,3674A,115.9577,39.7603,北京市,房山燕山,颗粒物(PM10),55,60,55,28,34,77,,139,118,10,13,2,2,0.5,0.5
2025-09-11T2300,3675A,116.4672,39.7733,北京市,大兴旧宫,颗粒物(PM10),56,62,53,27,28,57,,153,116,20,17,2,3,0.7,0.7
2025-09-11T2300,3694A,115.986,40.4563,北京市,延庆石河营,颗粒物(PM10),56,62,49,31,28,96,,139,130,7,6,2,1,0.4,0.4
2025-09-11T2300,3695A,116.6151,40.3053,北京市,怀柔新城,,50,50,47,27,32,81,,160,128,10,9,4,4,0.7,0.7
2025-09-11T2300,3696A,116.2545,39.8768,北京市,丰台小屯,颗粒物(PM10),56,62,59,28,33,75,,140,112,26,27,2,2,0.7,0.7
2025-09-11T2300,3697A,116.84,40.3844,北京市,密云镇,颗粒物(PM10),60,70,52,39,33,87,,167,142,23,18,4,4,0.6,0.6
2025-09-11T2300,4182A,116.1942,39.9158,北京市,八角北路9号,颗粒物(PM10),66,82,68,33,37,77,,160,128,36,32,2,3,0.6,0.6
2025-09-11T2300,4194A,117.0790,40.1518,北京市,洳河巡河路,细颗粒物(PM2.5),92,107,85,68,52,122,,128,,13,9,1,4,0.9,0.7
2025-09-11T2300,1761A,123.8275,41.3064,本溪市,大峪,,40,40,49,16,23,86,,140,120,7,14,6,6,0.6,0.8
2025-09-11T2300,1762A,123.7567,41.3325,本溪市,溪湖,,49,49,62,27,29,102,,126,114,22,18,9,7,1.4,1.4
2025-09-11T2300,1763A,123.7169,41.3094,本溪市,彩屯,细颗粒物(PM2.5),62,48,52,44,51,89,,114,96,31,28,12,10,2.2,1.9
2025-09-11T2300,1764A,123.7669,41.2864,本溪市,东明,,43,43,57,15,27,127,,131,126,10,20,6,6,0.7,1
2025-09-11T2300,1765A,123.7992,41.2664,本溪市,新立屯,,43,36,41,21,22,135,,133,126,6,15,6,6,0.6,0.7
2025-09-11T2300,1766A,123.8142,41.3472,本溪市,威宁,颗粒物(PM10),52,53,61,25,25,64,,130,97,14,13,5,5,0.4,0.7
2025-09-11T2300,2587A,105.2864,27.3125,毕节市,八中,,28,25,17,19,19,42,,72,63,13,9,6,6,0.5,0.5
2025-09-11T2300,2588A,105.31,27.2944,毕节市,师专,,21,21,18,14,16,42,,72,64,14,10,6,8,0.6,0.5
2025-09-11T2300,4263A,105.3688,27.3598,毕节市,工业大道,,21,21,21,13,15,48,,69,61,8,10,7,7,0.6,0.7
2025-09-11T2300,1629A,118.0018,37.3617,滨州市,第二水厂,颗粒物(PM10),54,58,67,29,38,32,,132,77,44,37,7,8,0.7,0.8
2025-09-11T2300,1630A,117.9776,37.393,滨州市,北中新校,颗粒物(PM10),52,53,59,29,33,38,,145,87,46,37,6,8,0.7,0.7
2025-09-11T2300,3514A,117.9378,37.3956,滨州市,中海酒店,,44,44,56,19,31,56,,149,97,26,29,4,6,0.6,0.8
2025-09-11T2300,3515A,117.9378,37.3553,滨州市,开发区一中,颗粒物(PM10),57,63,73,27,38,38,,154,86,40,34,5,8,0.7,0.9
2025-09-11T2300,3516A,118.0917,37.694,滨州市,金海六路,,39,39,58,22,30,64,,143,91,19,22,7,7,0.3,0.4
2025-09-11T2300,4028A,117.9956,37.3753,滨州市,滨州市西街道办事处,,48,48,62,27,34,36,,135,76,39,33,5,7,0.6,0.7
2025-09-11T2300,2311A,115.8072,33.8399,亳州市,污水处理厂,,25,,9,11,13,80,,91,89,7,8,7,8,0.2,0.3
2025-09-11T2300,2312A,115.7789,33.8518,亳州市,三国揽胜宫,,26,13,16,12,15,83,,96,94,6,7,6,7,0.4,0.4
2025-09-11T2300,3332A,115.7633,33.8034,亳州市,亳州学院,,33,,11,23,9,87,,97,95,2,8,7,7,0.3,0.4
2025-09-11T2300,2693A,82.0485,44.8556,博尔塔拉蒙古自治州,市党校,,39,39,35,6,18,60,,90,80,10,13,3,5,0,0.2
2025-09-11T2300,2694A,82.0806,44.8969,博尔塔拉蒙古自治州,市环保局,,,,45,,18,,,92,88,20,16,5,8,0.2,0.4
2025-09-11T2300,1071A,116.8842,38.2991,沧州市,沧县城建局,颗粒物(PM10),57,63,64,35,34,81,,194,142,29,32,4,5,0.5,0.6
2025-09-11T2300,1072A,116.8584,38.3254,沧州市,电视转播站,颗粒物(PM10),58,66,62,36,36,105,,183,149,16,20,4,4,0.5,0.5
2025-09-11T2300,1073A,116.8709,38.3228,沧州市,市环保局,颗粒物(PM10),67,83,70,38,35,87,,186,142,22,25,6,7,0.4,0.5
2025-09-11T2300,3324A,116.8136,38.3004,沧州市,河北水利电力学院,颗粒物(PM10),62,73,64,37,34,80,,190,141,37,27,7,8,0.5,0.5
2025-09-11T2300,2622A,97.1806,31.1273,昌都市,昌都监测站,,33,33,8,12,6,11,,66,44,20,6,4,4,0.2,0.2
2025-09-11T2300,3719A,97.1714,31.1406,昌都市,昌都会议中心,,,,,,,,,,,,,,,,
2025-09-11T2300,2690A,88.1236,43.8886,昌吉回族自治州,天山天池,,15,13,14,3,5,48,,63,59,7,9,6,6,0.4,0.4
2025-09-11T2300,2692A,87.2717,44.0297,昌吉回族自治州,新区政务中心,,31,31,36,13,10,62,,97,83,16,16,8,8,0.3,0.3
2025-09-11T2300,3613A,87.3095,44.0142,昌吉回族自治州,亚心广场,,,,54,9,10,72,,106,93,17,22,8,8,0.4,0.4
2025-09-11T2300,1120A,125.2863,43.9027,长春市,客车厂,颗粒物(PM10),51,52,39,27,18,107,,116,108,11,26,4,4,0.5,0.5
2025-09-11T2300,1121A,125.2841,43.8463,长春市,邮电学院,颗粒物(PM10),52,53,36,26,15,93,,112,102,14,19,5,5,0.6,0.5
2025-09-11T2300,1122A,125.3716,43.8772,长春市,劳动公园,颗粒物(PM10),53,55,45,29,20,93,,117,102,12,24,8,8,0.2,0.3
2025-09-11T2300,1123A,125.3297,43.8805,长春市,园林处,,46,46,35,28,23,90,,114,101,11,21,4,4,0.7,0.7
2025-09-11T2300,1124A,125.4605,43.79,长春市,净月潭,,46,39,24,32,15,76,,101,85,6,7,4,4,0.5,0.4
2025-09-11T2300,1125A,125.7194,43.515,长春市,甩湾子,,,,,,,,,,,,,,,,
2025-09-11T2300,1126A,125.3863,43.8447,长春市,经开区环卫处,,44,44,45,20,13,82,,105,91,13,23,4,4,0.7,0.6
2025-09-11T2300,1127A,125.245,43.7783,长春市,高新区管委会,,41,41,30,26,12,85,,107,91,6,16,5,5,0.6,0.5
2025-09-11T2300,1128A,125.1761,43.8325,长春市,岱山公园,细颗粒物(PM2.5),55,53,44,39,23,83,,106,86,23,32,3,4,0.5,0.5
2025-09-11T2300,4281A,125.3346,43.9164,长春市,北亚泰大街1068号,,,,43,36,20,82,,112,98,16,28,7,8,0.6,0.5
2025-09-11T2300,1335A,113.0833,28.2325,长沙市,经开区环保局,,30,30,32,9,18,46,,98,65,18,16,5,5,0.4,0.4
2025-09-11T2300,1336A,112.8872,28.2189,长沙市,高开区环保局,,29,29,36,8,15,53,,97,83,13,9,5,5,0.2,0.4
2025-09-11T2300,1337A,113.0792,28.2053,长沙市,马坡岭,,35,35,32,14,16,52,,106,74,12,12,6,5,0.5,0.5
2025-09-11T2300,1338A,112.9394,28.19,长沙市,湖南师范大学,,18,15,34,12,16,40,,104,82,23,10,4,4,0.6,0.6
2025-09-11T2300,1339A,113.0178,28.1322,长沙市,雨花区环保局,,30,30,27,12,13,39,,99,77,15,8,7,7,0.5,0.5
2025-09-11T2300,1340A,112.9792,28.2597,长沙市,伍家岭,,29,29,33,9,18,46,,102,78,14,10,3,3,0.3,0.4
2025-09-11T2300,1341A,113.0014,28.1944,长沙市,火车新站,,31,31,32,17,17,48,,102,77,13,10,6,7,0.5,0.6
2025-09-11T2300,1342A,112.9844,28.1178,长沙市,天心区环保局,,22,22,27,15,13,42,,101,78,17,12,4,4,0.2,0.3
2025-09-11T2300,1343A,112.8908,28.1308,长沙市,湖南中医药大学,,32,32,33,21,22,33,,99,71,23,9,4,4,0.1,0.2
2025-09-11T2300,1344A,112.9581,28.3611,长沙市,沙坪,,21,21,39,11,19,35,,116,72,18,12,3,3,0.4,0.5
2025-09-11T2300,1727A,113.1147,36.1547,长治市,清华站,,26,17,19,3,10,83,,84,83,8,12,8,8,0.5,0.7
2025-09-11T2300,1730A,113.0886,36.2125,长治市,审计局,,29,13,18,9,10,91,,94,94,8,10,5,6,0.5,0.7
2025-09-11T2300,1731A,113.0844,36.1856,长治市,长治八中,,23,16,19,12,19,73,,89,86,6,8,8,8,0.5,0.8
2025-09-11T2300,2845A,113.1569,36.1911,长治市,德盛苑,,,18,20,3,9,,,86,,5,6,7,7,0.5,0.8
2025-09-11T2300,3568A,113.06,36.0464,长治市,向阳小学,,40,40,34,8,15,43,,90,72,15,12,4,4,0.8,0.7
2025-09-11T2300,3569A,112.8792,36.3144,长治市,屯留一中,,23,23,23,13,20,55,,78,70,16,12,9,9,0.7,0.6
2025-09-11T2300,4189A,113.1131,36.19948,长治市,英华南巷50号,,25,18,20,7,14,79,,85,84,10,12,7,7,0.6,0.8
2025-09-11T2300,4190A,113.2367,36.3344,长治市,学府街1号,,24,20,25,7,15,75,,97,94,15,8,1,2,0.4,0.5
2025-09-11T2300,1854A,111.6975,28.9703,常德市,市二中,,24,24,21,11,18,52,,93,80,8,8,4,4,0.4,0.5
2025-09-11T2300,1857A,111.7158,29.1456,常德市,白鹤山,,,,,,,,,,,,,,,,
2025-09-11T2300,3138A,111.7153,29.0289,常德市,武陵区永安,,20,20,23,11,14,48,,94,80,15,6,5,4,0.7,0.8
2025-09-11T2300,3139A,111.6892,28.9881,常德市,鼎城区玉霞,,21,21,22,12,15,49,,94,80,7,6,4,5,0.5,0.6
2025-09-11T2300,3140A,111.6625,29.0531,常德市,武陵区长庚,,27,27,21,14,16,53,,97,84,14,8,6,5,0.7,0.8
2025-09-11T2300,1196A,119.9633,31.762,常州市,市监测站,,34,34,33,21,18,66,,171,124,26,15,14,14,0.5,0.5
2025-09-11T2300,1200A,119.9468,31.7069,常州市,武进监测站,,39,39,37,13,15,72,,164,122,25,19,10,11,0.5,0.6
2025-09-11T2300,1201A,119.9255,31.9087,常州市,安家,,30,30,36,15,16,62,,161,108,29,21,12,11,0.6,0.7
2025-09-11T2300,3002A,119.9805,31.8174,常州市,行政中心,,34,34,37,17,16,69,,161,124,27,19,3,3,0.5,0.6
2025-09-11T2300,3003A,120.0522,31.7748,常州市,经开区,,39,39,42,16,14,64,,163,120,29,21,5,5,0.7,0.7
2025-09-11T2300,3010A,119.9025,31.7964,常州市,钟楼,,31,31,31,10,14,77,,161,126,24,18,8,8,0.5,0.5
2025-09-11T2300,3429A,119.8598,31.7066,常州市,武进经发区,,,36,42,19,20,,,180,152,24,15,9,9,0.6,0.7
2025-09-11T2300,3430A,119.5826,31.7245,常州市,金坛城区,,33,33,30,22,20,79,,194,166,30,18,9,9,0.6,0.6
2025-09-11T2300,2220A,120.4318,41.5881,朝阳市,西梁,,42,37,48,29,30,111,,146,140,11,17,6,7,0.6,0.7
2025-09-11T2300,2221A,120.4521,41.5646,朝阳市,河畔小区,,39,31,43,24,26,122,,160,154,6,12,7,7,0.6,0.7
2025-09-11T2300,2222A,120.4176,41.5648,朝阳市,八里堡,,37,32,54,25,26,117,,154,146,9,16,7,8,0.6,0.7
2025-09-11T2300,2223A,120.3806,41.5969,朝阳市,农业园区,,49,45,42,34,29,80,,152,135,27,14,5,6,0.6,0.6
2025-09-11T2300,1705A,116.6367,23.6719,潮州市,西园路,,36,36,22,13,8,44,,96,72,16,8,6,4,0.4,0.4
2025-09-11T2300,3026A,116.6183,23.6608,潮州市,市政府,,30,30,25,15,11,37,,96,68,18,10,9,8,0.7,0.5
2025-09-11T2300,4036A,116.6461,23.6761,潮州市,金山,,26,26,22,8,6,36,,96,67,16,7,8,6,0.6,0.5
2025-09-11T2300,2472A,113.0073,25.9061,郴州市,马头岭,,21,21,17,11,7,42,,65,53,11,8,5,5,0.3,0.2
2025-09-11T2300,2473A,113.0116,25.8226,郴州市,市职中,,18,18,10,8,7,47,,53,49,7,6,4,4,0.5,0.5
2025-09-11T2300,2475A,113.0383,25.8071,郴州市,市审计局,,15,12,9,10,5,48,,57,49,10,7,5,6,0.5,0.4
2025-09-11T2300,2476A,113.0348,25.7759,郴州市,市环保局,,20,17,13,12,6,64,,60,56,5,5,5,4,0.3,0.2
2025-09-11T2300,4252A,113.0138,25.8011,郴州市,好美居路49号,,17,11,10,9,6,54,,62,54,8,6,5,4,0.4,0.3
2025-09-11T2300,1431A,103.9728,30.7236,成都市,金泉两河,,19,19,18,7,7,27,,58,41,18,13,2,2,0.5,0.5
2025-09-11T2300,1432A,104.176,30.6872,成都市,十里店,,12,12,21,3,13,36,,72,48,19,14,2,2,0.5,0.5
2025-09-11T2300,1433A,104.079,30.5706,成都市,三瓦窑,,,,20,,13,,,73,,,16,,2,,0.6
2025-09-11T2300,1434A,104.1114,30.63,成都市,沙河铺,,22,22,24,15,13,33,,66,43,12,6,1,1,0.6,0.6
2025-09-11T2300,1437A,104.0786,30.6531,成都市,君平街,,22,19,24,15,13,40,,75,53,15,12,1,1,0.6,0.7
2025-09-11T2300,1438A,103.613,31.0283,成都市,灵岩寺,,,,,,,,,,,,,,,,
2025-09-11T2300,2880A,104.0239,30.65639,成都市,大石西路,,28,,26,19,16,33,,59,42,20,16,1,2,0.6,0.6
2025-09-11T2300,3136A,104.2725,30.5589,成都市,龙泉驿区区政府,,12,9,12,3,7,37,,78,49,19,17,5,5,0.3,0.4
2025-09-11T2300,3357A,104.0106,30.6931,成都市,金博路,,12,12,19,7,10,21,,51,34,24,16,6,6,0.5,0.5
2025-09-11T2300,3359A,104.0578,30.5225,成都市,华阳,,18,,16,12,16,40,,69,44,17,16,3,3,0.6,0.7
2025-09-11T2300,3488A,104.3853,30.7453,成都市,青白江技师分院,,23,23,22,3,17,25,,52,38,19,18,2,3,0.6,0.6
2025-09-11T2300,3489A,104.0789,30.4072,成都市,科学城,,15,11,20,8,15,45,,70,54,13,13,4,4,0.7,0.7
2025-09-11T2300,4011A,103.8506,30.6947,成都市,光华大道三段,,23,,20,16,11,36,,62,43,15,14,1,2,0.6,0.6
2025-09-11T2300,4224A,104.2433,30.5353,成都市,鲸龙路1057号,,13,10,20,9,16,34,,71,42,19,20,4,4,0.5,0.6
2025-09-11T2300,1062A,117.9531,40.9081,承德市,铁路,"颗粒物(PM10),细颗粒物(PM2.5)",54,57,56,38,30,57,,134,106,24,20,1,1,0.5,0.5
2025-09-11T2300,1063A,117.9392,40.9763,承德市,中国银行,颗粒物(PM10),53,55,51,33,26,37,,140,108,17,11,3,2,0.5,0.5
2025-09-11T2300,1064A,117.9503,40.928,承德市,开发区,"颗粒物(PM10),细颗粒物(PM2.5)",52,53,54,36,28,71,,144,125,19,16,3,3,0.6,0.5
2025-09-11T2300,1066A,117.9268,41.0026,承德市,离宫,,42,42,44,18,15,36,,122,87,8,7,4,4,0.4,0.4
2025-09-11T2300,4274A,117.7994,40.9605,承德市,滨河大街98号,,48,48,41,32,25,34,,132,88,14,8,3,3,0.3,0.3
2025-09-11T2300,2314A,117.47,30.6618,池州市,池州学院,,15,11,15,3,6,47,,100,74,6,8,5,5,0.6,0.7
2025-09-11T2300,3237A,117.4918,30.6617,池州市,展览馆,,14,10,13,3,5,42,,101,73,7,8,5,5,0.7,0.7
2025-09-11T2300,3333A,117.5627,30.695,池州市,第八中学,,11,11,17,3,8,34,,101,70,5,6,5,6,0.6,0.8
2025-09-11T2300,3334A,117.5038,30.6243,池州市,第十二中学,,16,16,20,3,6,28,,98,66,21,12,4,4,0.8,0.9
2025-09-11T2300,1744A,118.9233,42.2816,赤峰市,松山一中,,45,35,37,17,19,144,,132,132,9,12,6,8,0.5,0.6
2025-09-11T2300,1745A,118.9576,42.2728,赤峰市,哈达街,,43,36,44,21,22,136,,126,120,15,17,12,12,0.5,0.5
2025-09-11T2300,1746A,118.8788,42.2554,赤峰市,天义路,,42,,22,25,25,133,,125,125,8,13,6,8,0.5,0.5
2025-09-11T2300,3058A,119.2658,42.0353,赤峰市,银河街,"颗粒物(PM10),细颗粒物(PM2.5)",57,63,62,40,29,103,,107,106,7,8,12,14,0.8,0.8
2025-09-11T2300,3286A,118.9359,42.3147,赤峰市,桥北物流园区,,42,27,43,19,25,132,,121,118,9,18,7,10,0.7,0.8
2025-09-11T2300,2521A,107.3476,22.4136,崇左市,市环保局江州分局,,22,22,24,3,6,14,,56,23,14,13,3,5,0.7,0.7
2025-09-11T2300,4256A,107.3750,22.3736,崇左市,石景林东路7号,,10,6,16,3,8,7,,61,25,20,14,4,4,0.4,0.5
2025-09-11T2300,2298A,118.3093,32.3153,滁州市,老年大学,,41,41,43,22,24,62,,137,94,10,11,6,7,0.3,0.4
2025-09-11T2300,2299A,118.3244,32.2786,滁州市,人大宾馆,,38,33,33,26,23,56,,141,99,21,17,6,6,0.4,0.5
2025-09-11T2300,3207A,118.3118,32.3038,滁州市,市政府原办公楼,,43,37,38,30,33,58,,133,91,16,18,7,8,0.5,0.6
2025-09-11T2300,3331A,118.3267,32.2634,滁州市,图书馆,,33,33,31,23,21,56,,140,99,20,13,14,12,0.4,0.5
2025-09-11T2300,2605A,101.5482,25.0441,楚雄彝族自治州,州环境监测站,,10,8,7,6,4,32,,40,37,2,2,7,7,0.7,0.6
2025-09-11T2300,2606A,101.538,25.0492,楚雄彝族自治州,市经济开发区,,18,17,10,12,6,33,,42,38,6,6,7,7,0.7,0.7
2025-09-11T2300,2548A,107.5277,31.2827,达州市,达州职业技术学院,,22,22,30,8,3,11,,36,20,10,9,7,7,0.4,0.4
2025-09-11T2300,2549A,107.5086,31.2186,达州市,市环境监测站,,,15,27,3,1,9,,55,36,23,19,,9,,0.5
2025-09-11T2300,2550A,107.4988,31.2132,达州市,凤凰小区,,19,19,9,3,4,15,,60,38,20,17,11,8,0.5,0.5
2025-09-11T2300,2551A,107.5082,31.1986,达州市,达县机关宾馆,,17,17,19,6,4,9,,60,29,25,20,10,8,0.4,0.5
2025-09-11T2300,2552A,107.4644,31.2124,达州市,市政中心,,24,24,28,3,1,21,,54,36,9,14,6,7,0.3,0.3
2025-09-11T2300,2614A,100.1542,25.7054,大理白族自治州,大理市环境监测站,,19,,11,13,16,48,,50,49,6,7,4,4,0.6,0.6
2025-09-11T2300,2615A,100.2171,25.5811,大理白族自治州,大理古城,,13,13,15,9,9,34,,57,44,9,7,6,6,0.8,0.8
2025-09-11T2300,1109A,121.612,38.9741,大连市,甘井子,,45,39,32,21,16,143,,126,126,13,22,6,8,0.5,0.5
2025-09-11T2300,1110A,121.565,38.9511,大连市,周水子,,40,32,34,23,20,128,,120,120,10,19,8,8,0.4,0.4
2025-09-11T2300,1111A,121.5637,38.8845,大连市,星海三站,,45,34,33,21,19,143,,128,128,10,18,4,5,0.3,0.3
2025-09-11T2300,1112A,121.6302,38.9117,大连市,青泥洼桥,,41,35,24,26,15,131,,120,120,9,16,8,9,0.5,0.4
2025-09-11T2300,1113A,121.6251,38.8638,大连市,傅家庄,,43,26,23,21,12,137,,125,125,6,12,8,10,0.6,0.5
2025-09-11T2300,1114A,121.5213,38.8661,大连市,七贤岭,,47,31,29,22,16,149,,133,133,6,13,4,5,0.5,0.5
2025-09-11T2300,1115A,121.2529,38.8061,大连市,旅顺,,45,45,23,15,17,134,,131,131,5,17,6,7,0.4,0.3
2025-09-11T2300,1116A,121.7485,39.1311,大连市,金州,,47,44,28,19,15,150,,125,119,8,17,9,10,0.3,0.3
2025-09-11T2300,1117A,121.7811,39.0496,大连市,开发区,,43,38,37,30,21,135,,111,111,15,26,6,8,0.4,0.4
2025-09-11T2300,1118A,121.9762,39.0631,大连市,双D港,,39,,23,27,15,115,,105,102,4,11,6,9,0.4,0.4
2025-09-11T2300,1789A,124.81117,46.03138,大庆市,大同区,,40,40,36,20,10,94,,93,93,9,16,10,9,1.0,0.7
2025-09-11T2300,1790A,125.129,46.533,大庆市,龙凤区,,36,36,28,15,10,62,,76,73,20,20,6,6,0.8,0.7
2025-09-11T2300,1791A,124.902,46.408,大庆市,红岗区,,37,37,29,19,11,92,,94,93,8,13,5,5,0.7,0.5
2025-09-11T2300,1792A,125.153,46.586,大庆市,萨尔图区,,33,33,30,13,9,57,,74,71,19,18,11,9,0.6,0.6
2025-09-11T2300,1793A,124.9042,46.6215,大庆市,让胡路区,,26,26,25,13,10,80,,86,84,9,18,8,8,0.4,0.4
2025-09-11T2300,3481A,125.141,46.634,大庆市,萨区政府监测点,,31,31,26,3,5,67,,87,83,9,13,8,9,0.4,0.4
2025-09-11T2300,1721A,113.3819,40.1097,大同市,果树场,,41,41,46,24,23,75,,107,80,12,16,5,5,0.5,0.5
2025-09-11T2300,1723A,113.2994,40.0758,大同市,云冈宾馆,,46,46,62,23,25,76,,119,94,18,22,5,7,0.8,0.8
2025-09-11T2300,1724A,113.3444,40.0917,大同市,大同大学,,46,46,48,23,24,78,,121,96,16,17,8,9,0.7,0.7
2025-09-11T2300,1725A,113.2661,40.1269,大同市,安家小村,,31,26,61,10,23,99,,125,102,9,20,4,7,0.5,0.7
2025-09-11T2300,1726A,113.2711,40.0844,大同市,教育学院,,48,48,66,25,27,76,,121,95,18,27,7,9,0.7,0.7
2025-09-11T2300,3282A,113.3397,40.0597,大同市,大同市卫生学校,颗粒物(PM10),55,60,56,26,25,60,,116,89,29,22,8,10,0.8,0.8
2025-09-11T2300,3565A,113.1367,40.1122,大同市,云冈站,,32,19,62,3,26,102,,116,100,4,14,4,8,0.5,0.7
2025-09-11T2300,3566A,113.1186,40.2556,大同市,图书馆,,39,39,64,14,24,92,,117,103,7,13,3,10,0.6,0.8
2025-09-11T2300,3567A,113.5931,40.0461,大同市,区一中,,38,38,44,25,24,66,,128,102,16,12,3,3,0.6,0.6
2025-09-11T2300,4199A,113.2798,40.0997,大同市,魏都大道141号,,47,47,60,27,28,79,,124,99,15,25,3,5,0.6,0.7
2025-09-11T2300,2269A,124.1069,50.4097,大兴安岭地区,科技局,,15,13,15,3,7,48,,46,46,3,2,4,4,0.2,0.2
2025-09-11T2300,3663A,124.1164,50.4278,大兴安岭地区,红旗社区,,15,,7,3,4,48,,46,46,8,5,4,4,0.2,0.2
2025-09-11T2300,1600A,124.3303,40.0625,丹东市,江湾东路,颗粒物(PM10),74,97,54,48,30,24,,130,82,29,15,7,9,1.3,0.9
2025-09-11T2300,1601A,124.4256,40.1503,丹东市,临江后街,颗粒物(PM10),67,84,66,36,29,27,,136,86,25,15,6,6,1.0,0.9
2025-09-11T2300,1602A,124.3933,40.1461,丹东市,元宝山,颗粒物(PM10),65,80,51,37,26,35,,121,89,24,14,7,6,1.1,0.9
2025-09-11T2300,1603A,124.3633,40.1092,丹东市,民主桥,颗粒物(PM10),58,65,52,37,31,29,,129,78,34,19,7,7,0.9,0.8
2025-09-11T2300,3541A,109.5726,19.5167,儋州市,第一中学子站,,13,13,16,3,6,18,,35,28,4,4,7,6,0.4,0.6
2025-09-11T2300,3542A,109.5567,19.5187,儋州市,东坡学校子站,,10,10,12,3,6,21,,38,29,3,5,9,8,0.4,0.5
2025-09-11T2300,2616A,98.5842,24.428,德宏傣族景颇族自治州,德宏州监测站,颗粒物(PM10),53,55,31,28,16,19,,71,42,16,12,14,17,0.7,0.6
2025-09-11T2300,3677A,98.5881,24.4368,德宏傣族景颇族自治州,芒市人民政府综合楼,,,,,,,,,,,,,,,,
2025-09-11T2300,1901A,104.4239,31.1208,德阳市,东山公园,,11,8,9,6,9,35,,59,50,6,10,4,4,0.6,0.6
2025-09-11T2300,1902A,104.3826,31.1317,德阳市,西小区,,12,7,11,6,10,37,,61,50,9,11,3,2,0.5,0.6
2025-09-11T2300,1904A,104.3553,31.1091,德阳市,耐火材料厂,,11,7,16,3,12,34,,58,48,10,12,4,4,0.6,0.7
2025-09-11T2300,3639A,104.4019,31.1244,德阳市,市教育局,,10,9,15,3,9,31,,61,45,8,8,3,3,0.6,0.7
2025-09-11T2300,1622A,116.3032,37.4674,德州市,儿童乐园,颗粒物(PM10),54,58,63,29,34,78,,176,119,26,19,16,12,0.6,0.7
2025-09-11T2300,1624A,116.2991,37.4451,德州市,监理站,,48,48,61,17,31,65,,176,110,39,24,15,15,0.4,0.6
2025-09-11T2300,3066A,116.2721,37.4379,德州市,九衢泉纯净水厂,,46,46,66,24,35,18,,156,78,66,35,6,7,0.5,0.7
2025-09-11T2300,3371A,116.3728,37.4403,德州市,开发区人民医院,,44,44,60,17,31,83,,161,113,14,21,10,11,0.9,1.1
2025-09-11T2300,3511A,116.5652,37.3319,德州市,陵城艺术中心,颗粒物(PM10),51,51,65,24,30,72,,180,110,31,27,9,14,0.6,0.7
2025-09-11T2300,4292A,116.3525,37.4209,德州市,新河东路,,48,48,65,19,34,69,,169,106,24,31,9,10,0.7,0.9
2025-09-11T2300,2621A,99.7056,27.8317,迪庆藏族自治州,迪庆州站,,17,17,14,11,11,37,,52,46,5,5,7,7,0.5,0.3
2025-09-11T2300,3180A,99.7136,27.8094,迪庆藏族自治州,质量技术监督局,,14,14,14,6,8,40,,48,44,5,7,6,7,0.4,0.5
2025-09-11T2300,4257A,104.6092,35.5962,定西市,将台街,,34,34,27,23,17,87,,97,96,10,12,6,8,0.2,0.3
2025-09-11T2300,4309A,104.6159,35.5701,定西市,正龙路62号,,45,45,33,21,16,71,,89,86,8,8,5,5,0.2,0.2
2025-09-11T2300,1389A,113.7547,23.0494,东莞市,莞城梨川,,12,,25,8,21,33,,159,85,20,25,6,6,0.4,0.2
2025-09-11T2300,1390A,113.7944,23.0128,东莞市,东城石井,,17,15,35,6,19,13,,160,71,33,27,6,6,0.5,0.6
2025-09-11T2300,1391A,113.7383,22.9658,东莞市,南城西平,,13,13,25,3,15,35,,126,64,23,32,4,4,0.3,0.5
2025-09-11T2300,3319A,113.7338,23.0381,东莞市,万江金泰,,,,27,,18,,,73,,,25,,5,,0.7
2025-09-11T2300,3626A,113.7533,23.0202,东莞市,南城元岭,,11,,26,3,19,33,,155,81,22,28,5,5,0.3,0.5
2025-09-11T2300,3627A,113.7875,23.0457,东莞市,东城主山,,13,12,32,6,19,31,,167,89,25,30,8,8,0.4,0.5
2025-09-11T2300,1666A,118.6614,37.4309,东营市,市环保局,,36,36,37,12,12,70,,125,95,25,21,15,11,0.5,0.5
2025-09-11T2300,3036A,118.6904,37.4338,东营市,开发区管委会,,30,30,45,12,14,87,,133,108,23,20,16,10,0.6,0.4
2025-09-11T2300,3365A,118.5719,37.565,东营市,垦利区民丰路,,39,39,41,9,12,60,,123,92,27,20,6,6,0.7,0.8
2025-09-11T2300,3498A,118.5055,37.8612,东营市,河口城区,,46,46,44,20,13,65,,148,108,27,16,7,7,0.8,0.9
2025-09-11T2300,3646A,118.4978,37.4623,东营市,胜利站,,41,41,47,9,14,56,,119,91,36,27,6,7,0.5,0.7
2025-09-11T2300,3734A,118.35,37.26,东营市,理想之城,,31,31,41,14,18,38,,120,71,54,32,5,8,0.5,0.6
2025-09-11T2300,1591A,110.0023,39.8129,鄂尔多斯市,综合楼,,22,12,33,7,13,68,,87,81,29,17,5,4,0.7,0.7
2025-09-11T2300,1592A,109.9486,39.8261,鄂尔多斯市,巴音孟克林场办事处,,19,17,36,7,15,59,,92,80,29,15,6,6,0.5,0.4
2025-09-11T2300,1593A,109.7736,39.5986,鄂尔多斯市,康泽苑,,22,22,33,3,10,58,,80,72,13,11,6,6,0.3,0.4
2025-09-11T2300,1594A,109.8119,39.5989,鄂尔多斯市,华泰汽车城,,18,17,28,12,16,47,,77,69,20,12,4,5,0.4,0.5
2025-09-11T2300,1595A,109.9734,39.7884,鄂尔多斯市,奥林花园,,22,22,40,9,16,46,,79,65,24,19,5,7,0.7,0.7
2025-09-11T2300,2436A,114.8938,30.3994,鄂州市,市政府,,18,13,23,3,4,56,,116,76,10,13,6,7,0.6,0.6
2025-09-11T2300,2437A,114.8989,30.3714,鄂州市,赵家坝,,29,29,29,3,4,54,,104,73,7,12,6,8,0.6,0.7
2025-09-11T2300,3654A,114.8094,30.4089,鄂州市,精准医疗中心,,35,35,22,10,8,28,,107,63,31,20,10,9,0.7,0.7
2025-09-11T2300,2454A,109.4978,30.2981,恩施土家族苗族自治州,湖北民院,,17,17,16,3,6,21,,50,43,8,10,5,6,0.6,0.6
2025-09-11T2300,2455A,109.4707,30.2798,恩施土家族苗族自治州,州电力总公司,,14,14,13,6,8,10,,51,44,13,11,5,5,0.5,0.5
2025-09-11T2300,3549A,109.5061,30.3772,恩施土家族苗族自治州,龙凤新区,,16,15,10,11,8,21,,54,40,5,5,6,6,0.6,0.5
2025-09-11T2300,2499A,108.3411,21.6158,防城港市,沙万,,26,26,20,10,9,12,,39,29,24,15,3,4,0.5,0.5
2025-09-11T2300,2500A,108.3514,21.7731,防城港市,防城档案局,,18,18,15,8,9,25,,42,35,8,10,5,2,0.5,0.5
2025-09-11T2300,2501A,108.3506,21.6414,防城港市,大海花园,,18,,18,12,10,26,,45,39,11,9,4,5,0.3,0.6
2025-09-11T2300,1371A,113.1294,23.0067,佛山市,湾梁,,14,14,23,9,13,24,,132,104,22,28,6,6,0.7,0.7
2025-09-11T2300,1372A,113.1083,23.0478,佛山市,华材职中,,18,17,20,12,11,27,,150,109,19,20,4,4,0.5,0.5
2025-09-11T2300,1373A,113.144,23.0453,佛山市,南海气象局,,20,15,26,14,13,31,,144,105,14,21,6,6,0.6,0.7
2025-09-11T2300,1374A,113.2881,22.8094,佛山市,顺德苏岗,,32,32,24,3,10,23,,93,53,16,25,5,8,0.6,0.7
2025-09-11T2300,1376A,112.8383,22.8678,佛山市,高明孔堂,,15,13,22,10,10,36,,119,89,10,16,2,2,0.3,0.5
2025-09-11T2300,1377A,112.8836,23.1588,佛山市,三水监测站,,25,,25,17,17,26,,119,93,21,25,6,6,0.3,0.6
2025-09-11T2300,1378A,112.867,23.185,佛山市,三水云东海,,18,18,34,10,17,35,,129,88,21,20,3,2,0.6,0.7
2025-09-11T2300,3625A,113.2544,22.7642,佛山市,容桂街道办,,10,7,17,7,13,32,,128,64,19,27,6,6,0.7,0.7
2025-09-11T2300,1280A,119.3903,26.0543,福州市,鼓山,,,,19,,9,,,78,,,7,,1,,0.3
2025-09-11T2300,1282A,119.2681,26.0504,福州市,师大,,36,33,23,25,12,85,,122,103,13,10,6,6,0.4,0.3
2025-09-11T2300,1283A,119.2984,26.1028,福州市,五四北路,,27,27,18,18,12,69,,127,99,14,12,4,5,0.3,0.3
2025-09-11T2300,1284A,119.2648,26.0768,福州市,杨桥西路,,28,26,22,19,15,88,,128,106,7,7,5,4,0.3,0.3
2025-09-11T2300,1285A,119.317,26.0746,福州市,紫阳,,26,24,25,18,12,76,,109,91,12,15,4,5,0.4,0.3
2025-09-11T2300,3048A,119.5799,26.0936,福州市,九龙,,26,16,20,10,8,83,,120,103,6,8,3,4,0.3,0.3
2025-09-11T2300,3526A,119.5189,25.9664,福州市,吴航,,26,26,22,17,13,62,,114,91,8,10,4,5,0.3,0.3
2025-09-11T2300,1755A,123.7977,41.8491,抚顺市,望花区,,47,47,55,29,26,101,,145,118,15,21,8,9,1.3,1
2025-09-11T2300,1756A,123.9161,41.8822,抚顺市,顺城区,,48,48,45,31,22,89,,152,119,20,19,9,7,1.1,0.9
2025-09-11T2300,1757A,124.0436,41.8611,抚顺市,东洲区,,42,42,44,27,24,100,,144,114,6,8,12,7,0.3,0.4
2025-09-11T2300,1758A,123.9247,41.8642,抚顺市,新抚区,细颗粒物(PM2.5),54,53,54,38,26,46,,142,98,24,20,6,7,1.3,1.1
2025-09-11T2300,1759A,124.0972,41.8961,抚顺市,大伙房水库,,36,35,35,25,23,110,,143,122,7,12,8,8,0.6,0.7
2025-09-11T2300,1760A,123.7086,41.8391,抚顺市,沈抚新城,颗粒物(PM10),51,51,52,30,31,88,,158,120,20,27,6,9,1.0,1.1
2025-09-11T2300,2376A,116.2127,28.0814,抚州市,桐源党溪,,32,32,27,11,9,27,,63,36,1,3,6,6,0.5,0.5
2025-09-11T2300,2377A,116.3544,27.9831,抚州市,市站,,24,24,19,9,7,35,,66,49,9,5,7,5,0.7,0.7
2025-09-11T2300,2378A,116.3565,27.963,抚州市,血防站,,27,27,21,10,8,26,,64,48,15,6,4,4,0.5,0.5
2025-09-11T2300,2379A,116.3564,28.0007,抚州市,采茶剧团,,28,28,21,14,9,33,,64,45,3,3,9,6,0.5,0.5
2025-09-11T2300,2380A,116.385,27.9647,抚州市,医学分院,,25,25,23,10,9,21,,67,47,19,5,10,5,0.6,0.6
2025-09-11T2300,2207A,121.6094,41.998,阜新市,工业园区,,36,30,71,16,33,115,,188,162,15,23,13,11,0.6,1.1
2025-09-11T2300,2208A,121.6697,42.0279,阜新市,长青街,,35,21,61,14,31,110,,171,146,11,18,11,13,0.4,1.2
2025-09-11T2300,2209A,121.6673,42.0705,阜新市,农业园区,,35,28,55,7,20,111,,174,150,14,14,9,12,0.6,0.8
2025-09-11T2300,2210A,121.6717,42.0224,阜新市,东苑,,34,22,79,12,27,106,,165,141,12,20,9,17,0.4,1.2
2025-09-11T2300,2211A,121.6506,42.0498,阜新市,玉龙新城,,33,32,54,12,26,105,,169,146,14,20,14,15,0.6,1.3
2025-09-11T2300,2301A,115.8277,32.8929,阜阳市,市监测站,,26,11,24,8,17,82,,79,79,8,10,4,4,0.2,0.4
2025-09-11T2300,2303A,115.8554,32.8605,阜阳市,开发区,,24,,23,7,12,74,,78,78,6,11,6,7,0.3,0.4
2025-09-11T2300,2875A,115.784,32.8892,阜阳市,阜阳职业技术学院,,26,,25,7,11,83,,80,80,7,10,6,6,0.3,0.5
2025-09-11T2300,3468A,115.7901,32.8613,阜阳市,市规划展馆,,29,6,27,3,18,91,,86,86,12,12,3,4,0.3,0.5
2025-09-11T2300,3469A,115.836,32.9183,阜阳市,枣园社区,,25,12,26,9,19,77,,80,80,11,11,5,5,0.3,0.5
2025-09-11T2300,2669A,102.9099,34.9841,甘南藏族自治州,州政府,,39,39,33,19,18,74,,88,78,11,12,5,6,0.2,0.2
2025-09-11T2300,3380A,102.8914,34.9617,甘南藏族自治州,甘肃民族师范学院,,36,36,43,23,18,87,,105,89,11,17,4,4,0.1,0.2
2025-09-11T2300,2570A,101.9603,30.0475,甘孜藏族自治州,水桥子,,20,20,12,3,4,12,,50,36,33,20,6,6,0.8,0.6
2025-09-11T2300,3065A,101.9533,29.9972,甘孜藏族自治州,州环保局,,10,,9,3,5,32,,58,42,19,16,4,4,0.6,0.6
2025-09-11T2300,3414A,115.8347,28.932,赣江新区,桑海产业园,,19,19,11,8,10,28,,91,51,24,15,6,6,0.5,0.4
2025-09-11T2300,2362A,114.9017,25.9149,赣州市,通天岩,,14,14,13,3,6,39,,60,45,3,3,15,16,0.9,0.6
2025-09-11T2300,2363A,114.9367,25.8664,赣州市,地委,,19,19,14,8,7,50,,69,56,7,8,5,6,0.4,0.4
2025-09-11T2300,2364A,114.9461,25.8481,赣州市,气象台,,17,17,15,3,5,47,,63,52,4,4,5,6,0.4,0.4
2025-09-11T2300,2365A,114.9322,25.8333,赣州市,市图书馆,,15,,10,10,8,40,,58,46,7,8,5,5,0.6,0.5
2025-09-11T2300,2366A,114.8905,25.8471,赣州市,华坚鞋城,,17,17,15,10,8,38,,66,51,9,8,5,5,0.4,0.4
2025-09-11T2300,3109A,115.0093,25.8613,赣州市,赣县区卫计委,,18,,10,12,8,17,,58,42,15,5,6,6,0.4,0.4
2025-09-11T2300,2683A,106.2319,36.1417,固原市,马园,,,,,,,,,,,,,,,,
2025-09-11T2300,2684A,106.2792,36.0022,固原市,监测站,,20,13,14,3,7,63,,79,75,9,9,8,8,0.4,0.2
2025-09-11T2300,2685A,106.2375,36.0211,固原市,新区,,18,18,16,3,8,54,,74,67,9,8,6,7,0.4,0.4
2025-09-11T2300,3522A,106.2177,35.9959,固原市,原州区十五小,,13,12,14,6,10,40,,74,64,20,9,10,10,0.4,0.4
2025-09-11T2300,2543A,106.6308,30.5278,广安市,小平旧居,,,,,,,,,,,,,,,,
2025-09-11T2300,2544A,106.6303,30.4576,广安市,市委,,35,,20,24,17,46,,83,67,5,7,5,7,0.5,0.5
2025-09-11T2300,2545A,106.6271,30.4663,广安市,友谊中学,,22,22,19,15,11,56,,91,76,7,7,4,4,0.9,0.9
2025-09-11T2300,2547A,106.6388,30.4551,广安市,广电花园,,19,18,20,13,10,45,,83,66,6,7,4,4,0.6,0.6
2025-09-11T2300,2902A,106.6351,30.4865,广安市,北辰小学,,25,20,20,17,12,57,,90,77,5,6,6,6,0.6,0.6
2025-09-11T2300,2523A,105.8945,32.4535,广元市,黑石坡,,13,9,10,8,8,0,,4,3,26,18,12,10,0.4,0.4
2025-09-11T2300,2524A,105.821,32.4444,广元市,老城,,15,13,13,6,6,9,,22,18,29,21,11,7,0.9,0.8
2025-09-11T2300,2526A,105.8628,32.4287,广元市,监测站,,19,13,12,13,9,10,,19,16,23,18,8,7,0.9,0.8
2025-09-11T2300,3617A,105.8047,32.4166,广元市,经开区,,12,7,9,3,4,5,,18,13,23,18,6,5,0.8,0.7
2025-09-11T2300,1345A,113.2347,23.1423,广州市,广雅中学,,23,23,28,9,16,30,,152,105,22,30,4,4,0.5,0.6
2025-09-11T2300,1346A,113.2612,23.105,广州市,市五中,,16,16,28,7,15,29,,159,108,27,31,6,6,0.3,0.3
2025-09-11T2300,1348A,113.3478,23.0916,广州市,广东商学院,,15,15,28,8,17,25,,161,94,25,27,4,5,0.2,0.3
2025-09-11T2300,1349A,113.4332,23.1047,广州市,市八十六中,,21,17,24,6,14,19,,148,91,41,42,4,4,0.4,0.5
2025-09-11T2300,1350A,113.3505,22.9483,广州市,番禺中学,,14,14,26,7,16,32,,128,84,16,27,5,6,0.6,0.7
2025-09-11T2300,1351A,113.2146,23.3916,广州市,花都师范,,20,20,34,10,22,46,,193,151,26,30,5,5,0.7,0.7
2025-09-11T2300,1352A,113.2597,23.1331,广州市,市监测站,,,20,30,7,14,27,,147,112,,28,9,7,0.4,0.5
2025-09-11T2300,1353A,113.5618,23.312,广州市,九龙镇镇龙,,21,20,26,9,16,6,,186,124,41,20,8,7,0.4,0.4
2025-09-11T2300,1354A,113.2765,23.1544,广州市,麓湖,,16,16,25,7,14,29,,123,89,21,25,6,3,0.3,0.4
2025-09-11T2300,1355A,113.443,23.3035,广州市,帽峰山森林公园,,23,23,19,3,8,22,,169,120,32,17,6,5,0.6,0.6
2025-09-11T2300,2846A,113.3221,23.1322,广州市,体育西,,20,20,31,9,17,19,,154,98,30,32,5,5,0.4,0.5
2025-09-11T2300,3298A,113.5717,23.5491,广州市,从化街口,,,15,26,8,17,,,125,116,28,15,9,8,0.6,0.6
2025-09-11T2300,3299A,113.3472,23.3692,广州市,白云竹料,,,27,39,9,18,,,174,156,38,26,4,4,0.5,0.5
2025-09-11T2300,3300A,113.2981,23.237,广州市,白云嘉禾,,30,30,35,16,19,16,,163,111,40,33,5,4,0.4,0.5
2025-09-11T2300,3301A,113.4256,23.1716,广州市,黄埔科学城,,,16,27,7,16,20,,164,87,26,24,5,5,,0.6
2025-09-11T2300,3302A,113.3942,23.0483,广州市,番禺大学城,,18,18,33,8,16,20,,150,80,29,31,9,11,0.4,0.5
2025-09-11T2300,3303A,113.4922,22.8168,广州市,南沙黄阁,,19,19,22,3,11,29,,98,62,27,21,5,5,0.4,0.4
2025-09-11T2300,3304A,113.5342,22.7896,广州市,南沙街,,16,16,18,6,8,36,,82,54,17,18,5,5,0.4,0.4
2025-09-11T2300,3443A,113.2902,23.5544,广州市,花都梯面,,29,29,30,19,15,41,,156,109,30,19,5,5,0.6,0.6
2025-09-11T2300,3445A,113.7858,23.7478,广州市,从化良口,,25,25,18,17,11,72,,86,72,10,9,4,4,0.5,0.4
2025-09-11T2300,3446A,113.8051,23.2614,广州市,增城荔城,,17,15,21,8,16,16,,156,118,34,12,9,8,0.5,0.5
2025-09-11T2300,2505A,109.568,23.1478,贵港市,德智高中,,,,,,,,,,,,,,,,
2025-09-11T2300,2506A,109.6047,23.0666,贵港市,江南子站,,22,22,30,15,18,12,,60,33,17,14,4,6,0.6,0.6
2025-09-11T2300,2508A,109.5669,23.1065,贵港市,荷城子站,,10,6,19,3,8,29,,56,39,8,14,2,4,0.5,0.6
2025-09-11T2300,3405A,109.5886,23.1172,贵港市,新世纪学校,,10,7,18,7,11,29,,66,46,8,12,1,2,0.4,0.5
2025-09-11T2300,4260A,109.5933,23.0951,贵港市,中山路155-3号,,19,16,28,13,15,26,,66,41,11,14,3,6,0.6,0.7
2025-09-11T2300,1439A,106.6899,26.5998,贵阳市,马鞍山,,17,14,14,9,10,52,,62,57,5,6,4,4,0.2,0.2
2025-09-11T2300,1441A,106.6243,26.6266,贵阳市,鉴湖路,,19,19,23,3,6,47,,54,49,11,9,6,8,0.4,0.4
2025-09-11T2300,1442A,106.7487,26.6343,贵阳市,燕子冲,,18,,10,12,13,49,,64,57,11,9,5,5,0.3,0.3
2025-09-11T2300,1443A,106.6555,26.4365,贵阳市,碧云窝,,24,24,23,9,5,47,,59,53,8,5,7,5,0.2,0.3
2025-09-11T2300,1445A,106.7109,26.6027,贵阳市,红边门,,20,19,19,14,12,43,,59,50,12,9,1,4,0.4,0.4
2025-09-11T2300,1446A,106.7164,26.5699,贵阳市,新华路,,19,19,19,9,5,45,,59,50,15,13,6,11,0.3,0.3
2025-09-11T2300,1447A,106.674,26.5424,贵阳市,太慈桥,,14,14,11,7,4,28,,39,34,11,9,5,5,0.1,0
2025-09-11T2300,1552A,106.805,26.3003,贵阳市,桐木岭,,28,28,24,14,14,56,,60,59,4,4,3,14,1.0,1
2025-09-11T2300,4230A,106.6882,26.5695,贵阳市,花果园大街66号,,15,,5,10,10,48,,56,51,8,8,4,4,0.2,0.2
2025-09-11T2300,4231A,106.6873,26.5169,贵阳市,漓江路57号,,15,12,16,9,7,47,,64,56,11,8,5,5,0.4,0.4
2025-09-11T2300,1862A,110.4144,25.3167,桂林市,电子科大尧山校区,,,,,,,,,,,,,,,,
2025-09-11T2300,1864A,110.3089,25.2708,桂林市,龙隐路小学,,30,26,23,21,9,21,,53,39,15,9,4,5,0.3,0.3
2025-09-11T2300,1865A,110.2869,25.2178,桂林市,八中,,25,25,23,14,9,15,,53,36,18,9,8,7,0.4,0.3
2025-09-11T2300,3531A,110.296,25.1253,桂林市,旅游学院,,35,31,17,24,8,11,,52,36,21,10,29,7,0.4,0.3
2025-09-11T2300,4222A,110.1835,25.2444,桂林市,环湖路276号,,31,31,28,14,11,15,,56,45,31,14,7,10,0.4,0.3
2025-09-11T2300,4301A,110.2803,25.2773,桂林市,信义路13号,,28,28,22,3,7,23,,54,40,20,11,11,6,0.4,0.4
2025-09-11T2300,2674A,100.2561,34.4714,果洛藏族自治州,玛沁县大武镇,,35,28,25,24,15,65,,93,82,2,3,16,14,0.0,1.7
2025-09-11T2300,1129A,126.5422,45.755,哈尔滨市,岭北,,30,28,21,14,11,96,,104,98,13,22,6,9,0.8,0.5
2025-09-11T2300,1130A,126.561,45.8167,哈尔滨市,松北商大,,31,31,28,8,10,76,,82,75,10,19,7,6,0.5,0.4
2025-09-11T2300,1131A,126.979,45.5419,哈尔滨市,阿城会宁,,31,31,33,9,9,68,,80,60,8,16,7,8,0.7,0.7
2025-09-11T2300,1132A,126.599,45.7222,哈尔滨市,南岗学府路,,40,40,39,15,10,77,,82,71,17,25,9,11,0.5,0.4
2025-09-11T2300,1133A,126.689,45.7733,哈尔滨市,太平宏伟公园,,40,40,46,14,14,73,,83,72,14,25,10,9,0.5,0.5
2025-09-11T2300,1134A,126.635,45.7667,哈尔滨市,道外承德广场,,44,44,37,7,12,70,,78,69,14,24,8,8,0.5,0.5
2025-09-11T2300,1135A,126.685,45.7319,哈尔滨市,香坊红旗大街,,29,29,39,14,12,74,,81,67,19,30,7,9,0.7,0.5
2025-09-11T2300,1136A,126.6411,45.7258,哈尔滨市,动力和平路,,46,46,37,15,17,71,,82,71,16,27,7,6,0.5,0.5
2025-09-11T2300,1137A,126.593,45.7478,哈尔滨市,道里建国路,,37,37,29,8,12,76,,78,68,17,32,9,12,1.0,2.3
2025-09-11T2300,1138A,126.615,45.61,哈尔滨市,平房东轻厂,,26,26,25,7,12,75,,82,74,9,17,8,9,0.4,0.4
2025-09-11T2300,1139A,126.595,45.9855,哈尔滨市,呼兰师专,,,32,36,,0,54,,79,65,25,24,8,9,0.9,0.9
2025-09-11T2300,1140A,126.6206,45.6842,哈尔滨市,省农科院,,35,35,63,11,12,51,,68,46,33,30,6,8,0.7,0.6
2025-09-11T2300,2688A,93.5128,42.8172,哈密市,地区监测站,颗粒物(PM10),76,102,57,44,18,34,,112,89,68,21,3,4,0.9,0.3
2025-09-11T2300,2689A,93.4961,42.8328,哈密市,哈密师范学校,颗粒物(PM10),107,163,67,72,22,13,,109,78,90,29,5,5,1.5,0.4
2025-09-11T2300,2671A,100.9048,36.9639,海北藏族自治州,海晏县西海镇,,29,29,34,19,22,48,,106,88,14,7,9,10,0.4,0.4
2025-09-11T2300,3867A,102.0738,36.5056,海东市,平安区公安北苑,,33,33,39,10,21,82,,122,107,14,10,12,13,0.7,0.7
2025-09-11T2300,1409A,110.576,19.9507,海口市,东寨港,,,,,,,,,,,,,,,,
2025-09-11T2300,1410A,110.3232,20.0574,海口市,海南大学,,12,12,13,7,8,31,,48,40,5,4,3,3,0.3,0.3
2025-09-11T2300,1411A,110.283,20.0053,海口市,秀英海南医院,,20,20,19,7,8,27,,46,33,7,11,6,6,0.3,0.3
2025-09-11T2300,1412A,110.338,19.9969,海口市,海南师范大学,,22,22,16,7,7,30,,48,38,6,6,4,4,0.3,0.3
2025-09-11T2300,1413A,110.33,20.0356,海口市,龙华路环保局宿舍,,17,17,15,7,8,31,,46,38,5,6,6,6,0.3,0.3
2025-09-11T2300,3539A,110.5111,19.9736,海口市,桂林洋子站,,25,25,20,9,10,20,,40,34,9,7,5,4,0.3,0.2
2025-09-11T2300,2673A,100.6188,36.2866,海南藏族自治州,共和县恰卜恰镇,,38,38,35,10,16,87,,118,113,11,7,14,11,0.5,0.5
2025-09-11T2300,2676A,97.3731,37.3753,海西蒙古族藏族自治州,德令哈市,,,33,40,17,14,,,111,109,2,3,7,8,0.3,0.4
2025-09-11T2300,1048A,114.5302,36.6116,邯郸市,东污水处理厂,,31,30,43,21,31,98,,104,102,6,15,6,7,0.3,0.4
2025-09-11T2300,1049A,114.4918,36.5713,邯郸市,矿院,,35,,36,24,31,84,,106,99,13,14,5,6,0.5,0.5
2025-09-11T2300,1050A,114.484,36.6133,邯郸市,丛台公园,,30,25,38,14,24,96,,109,105,13,15,10,11,0.4,0.4
2025-09-11T2300,3458A,114.7895,36.5593,邯郸市,香泉濮院小区,颗粒物(PM10),52,54,57,14,20,86,,104,100,12,14,5,6,0.3,0.5
2025-09-11T2300,3579A,114.50634,36.77178,邯郸市,永年区实验高中,,31,31,46,16,24,93,,115,105,10,19,7,6,1.3,0.8
2025-09-11T2300,3580A,114.20016,36.44293,邯郸市,峰峰矿区临水派出所,,37,30,41,12,19,116,,116,115,9,14,6,8,0.5,0.6
2025-09-11T2300,2634A,106.9893,33.1842,汉中市,汉川机床厂子校,,31,31,18,3,2,24,,52,42,5,5,3,3,0.4,0.4
2025-09-11T2300,2635A,107.0154,33.0706,汉中市,市监测站,,20,20,10,11,7,21,,41,31,11,6,6,6,0.6,0.6
2025-09-11T2300,2636A,107.0089,33.1138,汉中市,鑫源开发区,,16,15,8,11,4,9,,38,27,17,9,6,6,0.6,0.5
2025-09-11T2300,2637A,107.007,33.0323,汉中市,南郑大河坎水厂,,18,18,10,6,6,26,,37,34,9,7,5,5,0.5,0.6
2025-09-11T2300,1223A,120.2072,30.2111,杭州市,滨江,颗粒物(PM10),55,60,42,29,20,113,,163,145,28,24,9,8,0.6,0.6
2025-09-11T2300,1224A,120.0633,30.2747,杭州市,西溪,,32,32,29,16,19,74,,137,121,16,16,2,2,0.5,0.5
2025-09-11T2300,1226A,120.3417,30.3150,杭州市,下沙,,44,32,27,16,13,140,,152,134,18,14,7,7,0.4,0.4
2025-09-11T2300,1227A,120.1269,30.2456,杭州市,卧龙桥,,31,31,34,16,20,30,,151,118,12,12,8,8,0.6,0.6
2025-09-11T2300,1228A,120.1903,30.2692,杭州市,浙江农大,,46,46,46,24,23,89,,127,110,32,30,6,6,0.7,0.7
2025-09-11T2300,1230A,120.1197,30.3119,杭州市,和睦小学,,29,29,30,16,17,88,,151,128,25,16,6,6,0.5,0.6
2025-09-11T2300,1231A,120.3019,30.4183,杭州市,临平镇,,50,50,37,13,15,110,,144,130,29,19,6,6,0.6,0.5
2025-09-11T2300,1232A,120.2753,30.1839,杭州市,城厢镇,,,49,43,42,27,123,,158,142,,21,7,7,0.7,0.6
2025-09-11T2300,1233A,120.0883,30.1808,杭州市,云栖,,36,36,39,3,19,41,,158,116,21,19,6,6,0.7,0.7
2025-09-11T2300,3557A,119.9464,30.0494,杭州市,镇二中,,47,47,46,30,31,101,,160,144,19,20,6,5,0.7,0.7
2025-09-11T2300,3558A,119.7183,30.2367,杭州市,市府大楼,,46,46,36,32,26,79,,150,134,18,15,8,8,0.5,0.5
2025-09-11T2300,3656A,120.1556,30.2864,杭州市,消防大队,,31,31,34,18,20,93,,138,121,22,17,9,9,0.6,0.7
2025-09-11T2300,1270A,117.1959,31.7848,合肥市,明珠广场,,39,39,30,22,16,114,,126,119,18,16,7,7,0.6,0.7
2025-09-11T2300,1271A,117.3072,31.8764,合肥市,三里街,,35,31,32,24,18,99,,112,109,18,15,6,6,0.7,0.7
2025-09-11T2300,1272A,117.2588,31.8707,合肥市,琥珀山庄,,39,39,37,26,20,98,,124,116,18,15,8,8,0.8,0.7
2025-09-11T2300,1273A,117.1604,31.9052,合肥市,董铺水库,,44,44,33,29,17,90,,105,101,16,11,4,4,0.4,0.4
2025-09-11T2300,1274A,117.25,31.8571,合肥市,长江中路,,44,44,37,19,16,101,,121,116,19,14,7,7,0.7,0.6
2025-09-11T2300,1275A,117.266,31.9436,合肥市,庐阳区,,44,44,40,22,17,73,,125,114,32,20,6,7,0.6,0.6
2025-09-11T2300,1276A,117.3453,31.8616,合肥市,瑶海区,,39,39,37,22,16,94,,119,110,29,20,7,7,0.7,0.7
2025-09-11T2300,1277A,117.3027,31.7964,合肥市,包河区,,46,46,34,24,17,74,,123,114,53,28,10,9,0.7,0.7
2025-09-11T2300,1278A,117.2776,31.7385,合肥市,滨湖新区,,,41,30,29,22,,,135,131,14,9,5,6,,0.7
2025-09-11T2300,1279A,117.1318,31.8403,合肥市,高新区,,39,36,33,27,18,116,,124,120,17,16,6,6,0.7,0.6
2025-09-11T2300,3464A,117.3803,31.9147,合肥市,高教基地,,40,31,30,28,15,66,,112,105,15,12,6,7,0.7,0.7
2025-09-11T2300,3614A,79.924,37.0877,和田地区,地区环保局,颗粒物(PM10),198,346,352,99,102,58,,96,80,27,14,4,4,1.0,0.7
2025-09-11T2300,3615A,79.9131,37.113,和田地区,市环保局,颗粒物(PM10),246,382,321,87,87,20,,103,76,65,31,4,6,1.1,0.4
2025-09-11T2300,2516A,108.2011,24.715,河池市,东仁乐园,,,,,,,,,,,,,,,,
2025-09-11T2300,2517A,108.0497,24.6947,河池市,市环保站,,11,9,17,7,7,34,,49,43,8,7,5,5,0.5,0.6
2025-09-11T2300,2518A,108.0983,24.6989,河池市,市疾控中心,,19,19,15,8,8,33,,53,42,16,11,10,7,0.5,0.6
2025-09-11T2300,1696A,114.6778,23.7569,河源市,源西,,16,7,17,3,9,50,,72,56,8,16,5,4,0.6,0.7
2025-09-11T2300,1697A,114.6944,23.7586,河源市,东埔,,16,16,16,10,8,46,,74,60,10,12,5,5,0.7,0.8
2025-09-11T2300,1698A,114.6892,23.7233,河源市,老城,,18,18,21,3,10,52,,86,65,9,9,6,5,0.6,0.7
2025-09-11T2300,1718A,115.4208,35.2464,菏泽市,气象局,,30,13,34,12,19,95,,102,99,8,12,4,4,0.3,0.4
2025-09-11T2300,3374A,115.5564,35.0891,菏泽市,定陶老年大学,,,14,32,3,15,,,91,,5,12,4,5,0.1,0.2
2025-09-11T2300,4184A,115.4797,35.24401,菏泽市,永昌路1号,,,17,38,8,22,,,97,96,6,13,7,8,0.2,0.3
2025-09-11T2300,4193A,115.4715,35.2800,菏泽市,长城路999号,,28,9,33,6,17,88,,98,95,12,18,12,9,0.1,0.3
2025-09-11T2300,2514A,111.5264,24.4172,贺州市,环保小区,,35,35,15,21,9,24,,61,53,15,10,16,14,0.8,0.5
2025-09-11T2300,2515A,111.5608,24.4078,贺州市,政协大楼,,33,33,22,17,12,25,,70,48,14,10,14,12,0.8,0.6
2025-09-11T2300,3534A,111.4744,24.4553,贺州市,西湾,,36,36,20,21,9,12,,61,42,25,14,12,11,0.5,0.5
2025-09-11T2300,2385A,114.17,35.9019,鹤壁市,市监测站,,25,22,29,14,17,78,,90,82,8,12,5,6,0.3,0.4
2025-09-11T2300,2386A,114.2956,35.7511,鹤壁市,市交警支队,,29,29,30,16,24,51,,87,76,23,19,2,3,0.6,0.7
2025-09-11T2300,2387A,114.2878,35.7306,鹤壁市,迎宾馆,,33,33,36,21,23,52,,83,76,19,19,6,4,0.5,0.6
2025-09-11T2300,3474A,114.2617,35.6822,鹤壁市,大新区,,27,27,32,8,14,54,,81,68,16,11,5,5,0.5,0.6
2025-09-11T2300,3596A,114.1572,35.9603,鹤壁市,南山宾馆,,29,,12,20,20,87,,93,87,9,10,3,4,0.7,0.7
2025-09-11T2300,2244A,130.2537,47.3416,鹤岗市,哈啤分公司,,28,28,33,12,8,41,,57,51,14,8,11,11,0.3,0.2
2025-09-11T2300,2245A,130.2684,47.3086,鹤岗市,斯达机电,,21,21,17,11,9,44,,66,63,8,7,11,11,0.3,0.3
2025-09-11T2300,2246A,130.3114,47.3388,鹤岗市,东山纸板厂,,43,43,28,24,16,28,,58,33,17,14,13,12,0.5,0.6
2025-09-11T2300,2247A,130.1097,47.3382,鹤岗市,五号水库,,8,8,10,3,5,16,,56,33,13,8,6,6,0.3,0.3
2025-09-11T2300,2263A,127.4833,50.2524,黑河市,交通局,,23,23,22,7,13,12,,43,26,20,13,6,6,0.6,0.4
2025-09-11T2300,2264A,127.5144,50.2341,黑河市,环保局,,18,18,26,9,10,20,,47,34,13,13,4,5,0.5,0.5
2025-09-11T2300,2265A,127.5291,50.2472,黑河市,大黑河岛,,,,,8,8,17,,35,26,2,2,19,19,,0.3
2025-09-11T2300,1074A,115.6838,37.7541,衡水市,电机北厂,,48,48,67,24,29,78,,148,114,15,16,4,5,0.4,0.4
2025-09-11T2300,1075A,115.6303,37.7316,衡水市,市监测站,,,61,67,28,27,72,,138,103,19,18,9,9,,0.8
2025-09-11T2300,3188A,115.6683,37.7217,衡水市,市城管局,颗粒物(PM10),59,68,67,31,31,64,,151,111,28,18,8,10,0.4,0.4
2025-09-11T2300,3459A,115.5989,37.5491,衡水市,地表水厂,颗粒物(PM10),58,66,70,29,31,66,,140,93,26,29,4,4,0.3,0.3
2025-09-11T2300,2456A,112.5003,26.9167,衡阳市,原169医院,,34,34,25,16,12,38,,71,48,9,13,8,8,0.6,0.6
2025-09-11T2300,2457A,112.6194,26.9258,衡阳市,衡阳化工总厂,,28,28,24,14,12,43,,74,59,8,8,12,6,0.9,0.8
2025-09-11T2300,2458A,112.6211,26.8956,衡阳市,珠晖区环保局,,27,27,21,12,13,41,,70,55,11,9,19,9,0.7,0.6
2025-09-11T2300,2459A,112.6197,26.8733,衡阳市,市委党校,,28,28,16,14,12,30,,67,51,21,8,11,6,0.5,0.4
2025-09-11T2300,2460A,112.6006,26.8919,衡阳市,市监测站,,31,31,24,17,12,39,,70,56,11,7,10,5,0.7,0.7
2025-09-11T2300,2461A,112.5664,26.9056,衡阳市,真空机电公司,,28,28,19,14,13,33,,66,48,13,8,11,8,0.8,0.9
2025-09-11T2300,3399A,112.6703,26.882,衡阳市,师范学院,,30,30,26,16,10,34,,68,,10,8,6,4,0.9,0.8
2025-09-11T2300,2608A,103.3772,23.3993,红河哈尼族彝族自治州,污水处理厂,,29,,15,20,12,24,,36,30,9,7,12,9,0.3,0.3
2025-09-11T2300,2609A,103.3861,23.35,红河哈尼族彝族自治州,监测站,,27,27,21,10,12,29,,39,32,4,4,10,11,0.2,0.2
2025-09-11T2300,3038A,103.3758,23.368,红河哈尼族彝族自治州,州图书馆,,26,,11,18,16,32,,41,36,6,6,2,2,0.3,0.2
2025-09-11T2300,1090A,111.6507,40.7517,呼和浩特市,呼市一监,,26,14,31,10,16,82,,115,107,10,13,6,8,0.3,0.4
2025-09-11T2300,1091A,111.6572,40.8033,呼和浩特市,小召,,30,14,37,12,20,93,,108,104,10,18,5,6,0.4,0.6
2025-09-11T2300,1094A,111.7516,40.8369,呼和浩特市,如意水处理厂,,29,20,43,11,18,92,,116,110,10,20,6,7,0.4,0.4
2025-09-11T2300,1095A,111.7276,40.8062,呼和浩特市,二十九中,,31,23,37,11,18,98,,118,114,7,14,6,7,0.5,0.5
2025-09-11T2300,1096A,111.5512,40.7866,呼和浩特市,工大金川校区,,22,21,46,8,16,69,,112,103,24,19,6,7,0.5,0.5
2025-09-11T2300,1097A,111.717,40.7612,呼和浩特市,化肥厂生活区,,31,22,42,10,18,97,,118,110,9,20,5,7,0.3,0.4
2025-09-11T2300,3698A,111.5968,40.8178,呼和浩特市,红旗小学,,30,17,37,12,18,93,,112,106,10,22,4,6,0.2,0.3
2025-09-11T2300,3699A,111.6518,40.8389,呼和浩特市,海东办,,30,22,45,12,17,96,,114,110,10,21,5,7,0.4,0.4
2025-09-11T2300,2192A,119.7594,49.2261,呼伦贝尔市,区环保局,,36,36,25,23,16,44,,68,59,6,12,4,5,0.5,0.5
2025-09-11T2300,3061A,119.7512,49.1577,呼伦贝尔市,国华电力东,,25,25,18,15,10,52,,84,78,5,6,5,6,0.2,0.2
2025-09-11T2300,1250A,120.0751,30.8669,湖州市,城西水厂,,49,49,36,27,20,80,,154,137,43,17,8,7,0.5,0.4
2025-09-11T2300,2873A,120.0830,30.8929,湖州市,仁皇山新区,,35,35,36,20,20,97,,151,137,24,16,6,5,0.5,0.4
2025-09-11T2300,2907A,120.1844,30.8596,湖州市,吴兴区站,,36,36,36,15,19,93,,157,147,19,13,9,8,0.6,0.6
2025-09-11T2300,3562A,120.4148,30.8538,湖州市,南浔区站,,37,37,36,20,20,86,,148,125,18,12,10,7,0.7,0.8
2025-09-11T2300,1607A,120.9049,40.7211,葫芦岛市,龙港区,,40,10,41,3,21,127,,159,151,6,12,8,6,0.5,0.7
2025-09-11T2300,1608A,120.8392,40.7514,葫芦岛市,化工街,,26,19,46,9,25,83,,147,127,33,32,7,8,0.5,0.7
2025-09-11T2300,1609A,120.8341,40.7073,葫芦岛市,新区,,37,14,39,3,31,117,,149,140,10,20,6,5,0.5,0.7
2025-09-11T2300,1610A,120.8695,40.7677,葫芦岛市,东城区,,34,18,51,10,36,107,,148,136,22,32,7,11,0.6,0.8
2025-09-11T2300,2482A,109.5981,27.5721,怀化市,林科所,,12,12,19,3,5,38,,54,44,9,7,4,5,1.0,0.8
2025-09-11T2300,2483A,109.9453,27.5444,怀化市,河西地税局,,18,16,17,12,10,19,,51,34,11,10,3,4,0.3,0.3
2025-09-11T2300,2484A,109.9781,27.5342,怀化市,市四医院,,24,24,28,8,14,25,,50,41,13,7,7,7,0.1,0.4
2025-09-11T2300,2485A,109.9972,27.5578,怀化市,监测楼,,17,17,22,9,12,39,,56,50,10,8,4,6,0.0,0.1
2025-09-11T2300,2486A,110.0394,27.583,怀化市,市委党校,,26,26,19,10,11,7,,46,37,31,9,4,5,0.3,0.3
2025-09-11T2300,1210A,119.036,33.5981,淮安市,钵池山,,,,24,,15,66,,88,66,,16,,7,0.6,0.6
2025-09-11T2300,1211A,119.007,33.575,淮安市,北京南路,,30,22,26,21,14,66,,90,70,14,11,6,7,0.6,0.7
2025-09-11T2300,1212A,118.989,33.6067,淮安市,市监测站,,32,29,28,22,15,71,,93,72,17,17,9,10,0.5,0.4
2025-09-11T2300,1213A,119.135,33.5039,淮安市,楚州区监测站,,29,29,35,12,13,66,,89,76,18,15,7,8,0.6,0.6
2025-09-11T2300,3426A,118.8755,33.2894,淮安市,新华书店,,23,18,26,10,16,71,,79,62,10,13,6,7,0.6,0.6
2025-09-11T2300,4206A,119.0288,33.6319,淮安市,承德北路606号,,36,36,36,14,14,48,,82,53,29,19,6,7,0.4,0.4
2025-09-11T2300,2282A,116.8004,33.975,淮北市,监测站,,35,11,19,3,12,110,,109,107,5,9,7,7,0.8,0.8
2025-09-11T2300,2283A,116.8091,33.9007,淮北市,烈山区政府,,,,27,,10,,,98,95,4,6,8,8,0.4,0.4
2025-09-11T2300,3330A,116.8873,33.9836,淮北市,杜集区检察院,,36,,20,8,11,114,,111,110,2,2,8,8,0.5,0.5
2025-09-11T2300,4017A,116.7923,33.9535,淮北市,市博物馆,,36,9,22,3,10,114,,113,112,6,7,6,7,0.4,0.4
2025-09-11T2300,2277A,116.8305,32.7727,淮南市,潘集区政府,,20,12,24,10,16,62,,82,81,10,10,2,3,0.2,0.4
2025-09-11T2300,2279A,116.8569,32.5951,淮南市,谢家集区政府,,25,,23,17,16,65,,85,75,8,8,6,7,0.3,0.4
2025-09-11T2300,2280A,116.8281,32.633,淮南市,八公山区政府,,26,,30,18,20,49,,78,71,10,10,7,7,0.3,0.4
2025-09-11T2300,2281A,116.6325,32.6201,淮南市,焦岗湖风景区管理处,,,,,,,,,,,,,,,,
2025-09-11T2300,2894A,117.0566,32.6531,淮南市,经济技术开发区消防队,,18,18,23,8,6,44,,82,71,16,12,8,8,0.3,0.3
2025-09-11T2300,3329A,117.0108,32.5893,淮南市,山南新区,,22,11,24,3,8,70,,98,90,12,10,4,5,0.4,0.4
2025-09-11T2300,4209A,117.0031,32.6445,淮南市,国庆中路369号,,26,24,36,18,23,53,,86,77,12,10,5,5,0.4,0.4
2025-09-11T2300,2446A,114.9028,30.4742,黄冈市,职工中心,,20,20,23,9,14,53,,116,80,13,14,10,7,0.6,0.7
2025-09-11T2300,2929A,114.8858,30.4519,黄冈市,红卫路,,18,18,26,10,14,47,,116,73,15,15,7,7,0.5,0.6
2025-09-11T2300,3398A,114.9136,30.4445,黄冈市,市林业局,,20,20,21,7,8,48,,117,80,13,14,7,7,0.4,0.5
2025-09-11T2300,2672A,102.0199,35.5102,黄南藏族自治州,同仁县隆务镇,,28,28,26,9,10,86,,104,100,1,2,9,9,0.3,0.3
2025-09-11T2300,2295A,118.2903,29.6963,黄山市,延安路89号,,23,23,21,6,6,16,,75,39,11,7,3,3,0.3,0.3
2025-09-11T2300,2297A,118.1371,30.2756,黄山市,黄山区政府5号楼,,18,18,18,7,6,20,,61,45,4,3,4,4,0.4,0.4
2025-09-11T2300,4210A,118.3354,29.7203,黄山市,滨江东路7-2号,,23,23,23,9,6,22,,67,42,7,6,2,2,0.4,0.4
2025-09-11T2300,2423A,115.0601,30.2313,黄石市,沈家营,,30,30,38,3,5,36,,99,61,4,12,6,6,0.3,0.6
2025-09-11T2300,2426A,114.8988,30.2019,黄石市,铁山,,16,16,23,3,4,26,,82,49,9,8,4,5,0.7,0.6
2025-09-11T2300,2427A,115.0307,30.2092,黄石市,团城山,,20,20,21,3,5,46,,92,62,4,6,7,7,0.4,0.6
2025-09-11T2300,3149A,115.0235,30.1578,黄石市,笔架山北路,,13,13,18,3,1,40,,81,55,1,6,6,7,0.3,0.4
2025-09-11T2300,4185A,115.0780,30.21118,黄石市,磁湖东路29号,,24,24,34,3,5,51,,100,74,2,10,6,9,0.3,0.5
2025-09-11T2300,1392A,114.4183,23.0528,惠州市,河南岸金山湖子站,,14,14,22,3,15,33,,103,71,14,13,8,8,0.5,0.5
2025-09-11T2300,1393A,114.4053,23.0822,惠州市,下埔横江三路子站,,14,14,23,8,11,38,,106,76,13,12,6,7,0.5,0.5
2025-09-11T2300,1394A,114.4103,23.1142,惠州市,江北云山西路子站,,13,10,20,3,11,41,,112,82,15,15,8,10,0.5,0.6
2025-09-11T2300,1395A,114.4645,22.7833,惠州市,惠阳区承修路船湖子站,,17,6,24,3,11,52,,92,66,7,15,7,8,0.5,0.5
2025-09-11T2300,1396A,114.5317,22.7422,惠州市,大亚湾管委会子站,,17,12,16,3,8,54,,88,62,8,12,8,8,0.4,0.4
2025-09-11T2300,3314A,114.4338,22.8134,惠州市,惠阳秋长,,16,12,21,3,10,51,,103,75,8,14,5,8,0.5,0.5
2025-09-11T2300,3452A,114.6517,22.775,惠州市,大亚湾霞涌,,22,,12,3,5,68,,74,72,8,10,7,7,0.5,0.4
2025-09-11T2300,2240A,130.9762,45.3001,鸡西市,环保局,,26,26,22,13,10,36,,74,52,17,17,7,7,0.6,0.7
2025-09-11T2300,2243A,130.9429,45.3039,鸡西市,第一中学,,23,23,20,9,9,36,,72,50,18,13,9,9,0.7,0.7
2025-09-11T2300,3707A,131.0207,45.3073,鸡西市,欧美日汽修厂,,21,21,27,12,10,29,,79,53,15,14,10,9,0.8,0.8
2025-09-11T2300,3709A,130.9967,45.3106,鸡西市,市政设施管理处,,28,28,25,12,10,30,,79,52,22,19,9,8,0.8,0.9
2025-09-11T2300,2367A,114.9754,27.0803,吉安市,红声器材厂,,20,20,21,11,8,39,,71,56,5,5,8,8,0.3,0.3
2025-09-11T2300,2368A,114.9658,27.0999,吉安市,市森林工业局,,22,22,19,10,8,29,,69,49,10,6,7,7,0.5,0.4
2025-09-11T2300,2369A,114.99,27.1312,吉安市,市环境监测站,,23,23,17,13,7,41,,78,55,5,3,10,16,0.4,0.4
2025-09-11T2300,2370A,115.0093,27.0968,吉安市,青原区法院,,24,24,20,9,7,38,,71,55,4,7,7,9,0.7,0.7
2025-09-11T2300,1772A,126.54,43.8622,吉林市,哈达湾,,39,39,24,18,11,65,,98,85,18,14,7,8,0.5,0.3
2025-09-11T2300,1773A,126.5844,43.8358,吉林市,东局子,,30,30,20,18,16,69,,98,82,12,12,6,6,0.9,0.8
2025-09-11T2300,1774A,126.5052,43.8245,吉林市,电力学院,颗粒物(PM10),56,61,30,23,15,31,,86,61,28,16,6,6,0.7,0.5
2025-09-11T2300,1775A,126.6133,43.8972,吉林市,江北,,,28,24,,14,72,,99,77,8,10,5,5,0.5,0.4
2025-09-11T2300,1776A,126.555,43.8306,吉林市,江南公园,,35,35,24,18,13,65,,92,81,11,13,2,3,0.5,0.4
2025-09-11T2300,1778A,126.7061,43.7133,吉林市,丰满,,26,24,17,18,10,53,,122,92,4,3,6,6,1.0,0.8
2025-09-11T2300,2868A,126.4739,43.953,吉林市,九站,,43,43,37,15,17,83,,101,81,9,20,4,14,0.5,0.5
2025-09-11T2300,1299A,116.9862,36.6114,济南市,科干所,,46,46,43,24,23,47,,96,69,32,21,7,7,0.6,0.6
2025-09-11T2300,1300A,116.9376,36.665,济南市,农科所,颗粒物(PM10),52,54,50,22,22,42,,77,58,38,32,9,9,0.6,0.6
2025-09-11T2300,1301A,117.1265,36.6734,济南市,开发区,,39,39,45,27,23,79,,99,78,18,28,9,9,0.8,0.8
2025-09-11T2300,1303A,117.0624,36.6868,济南市,省种子仓库,颗粒物(PM10),57,63,54,27,21,53,,105,83,36,24,6,6,0.7,0.7
2025-09-11T2300,1304A,116.9489,36.6447,济南市,机床二厂,颗粒物(PM10),55,59,59,27,26,38,,95,72,40,37,10,10,0.5,0.6
2025-09-11T2300,1305A,117.0495,36.663,济南市,市监测站,颗粒物(PM10),56,61,45,32,21,47,,98,78,32,21,11,11,0.8,0.7
2025-09-11T2300,1306A,116.7675,36.5484,济南市,长清党校,,42,42,48,27,26,49,,94,67,27,27,7,8,0.6,0.6
2025-09-11T2300,1616A,117.6795,36.229,济南市,技术学院,,28,14,34,3,18,89,,108,100,11,17,12,13,0.6,0.8
2025-09-11T2300,1961A,117.532,36.6868,济南市,东山小学,颗粒物(PM10),51,51,42,22,17,47,,93,62,38,24,7,8,0.6,0.7
2025-09-11T2300,3059A,117.7161,36.2049,济南市,泰兴公司,,27,17,37,9,18,84,,103,93,10,20,10,12,0.5,0.8
2025-09-11T2300,3064A,117.6867,36.2171,济南市,莱芜战役纪念馆,,28,14,37,9,21,87,,103,96,16,20,9,10,0.6,0.9
2025-09-11T2300,3494A,117.1673,36.9782,济南市,济阳区政府,颗粒物(PM10),55,59,71,29,28,65,,113,82,27,36,15,11,0.4,0.5
2025-09-11T2300,3495A,117.1171,36.63,济南市,锦屏中学,,39,39,41,20,17,67,,88,70,16,21,10,11,1.0,0.9
2025-09-11T2300,3682A,116.9814,36.6819,济南市,济南四建,,,48,48,22,24,,,104,81,28,26,6,6,0.7,0.7
2025-09-11T2300,1653A,116.6251,35.4302,济宁市,火炬城,,25,20,36,3,16,79,,96,88,10,11,8,7,0.2,0.3
2025-09-11T2300,1655A,116.5491,35.4042,济宁市,电化厂,,,,45,,22,,,83,,,13,,6,,0.5
2025-09-11T2300,3500A,116.5814,35.3707,济宁市,北湖一中,,26,13,34,9,18,82,,92,87,6,9,4,6,0.2,0.3
2025-09-11T2300,3501A,116.8249,35.5593,济宁市,服务中心,,26,17,34,3,5,83,,93,84,6,10,4,5,0.1,0.2
2025-09-11T2300,3678A,116.5907,35.4054,济宁市,市第七中学,,27,17,46,3,11,86,,93,87,5,11,4,7,0.2,0.3
2025-09-11T2300,2255A,130.2751,46.8028,佳木斯市,佳纺,颗粒物(PM10),70,90,34,19,9,34,,45,21,20,16,6,6,0.5,0.5
2025-09-11T2300,2256A,130.3995,46.8307,佳木斯市,发电厂,颗粒物(PM10),57,63,26,17,10,12,,44,20,31,17,8,8,0.5,0.5
2025-09-11T2300,2257A,130.3258,46.7975,佳木斯市,环保局,,36,36,20,14,8,52,,42,26,11,21,8,8,0.5,0.5
2025-09-11T2300,2258A,130.3648,46.8032,佳木斯市,十一中,,35,35,22,11,11,5,,40,16,42,21,9,8,0.5,0.5
2025-09-11T2300,2259A,130.3794,46.7588,佳木斯市,四丰,,13,10,5,9,3,20,,19,18,12,11,1,40,0.3,0.2
2025-09-11T2300,1252A,120.7436,30.778,嘉兴市,清河小学,,39,39,37,15,14,83,,143,118,19,13,6,6,0.3,0.4
2025-09-11T2300,1253A,120.726,30.7478,嘉兴市,嘉兴学院,,31,31,32,18,16,99,,154,135,17,13,4,5,0.5,0.6
2025-09-11T2300,2872A,120.7846,30.7525,嘉兴市,南湖区残联,,34,34,33,19,18,95,,151,126,18,15,6,6,0.6,0.6
2025-09-11T2300,3407A,120.6916,30.7739,嘉兴市,秀洲住建,,34,34,34,16,17,102,,164,139,18,14,6,7,0.6,0.6
2025-09-11T2300,1945A,98.2908,39.7711,嘉峪关市,气象局,颗粒物(PM10),60,70,66,19,16,93,,116,104,11,21,3,6,0.4,0.5
2025-09-11T2300,2884A,98.2672,39.7978,嘉峪关市,酒钢宾馆,颗粒物(PM10),62,73,78,29,20,100,,124,116,10,18,11,19,0.5,0.7
2025-09-11T2300,3248A,98.2643,39.7724,嘉峪关市,雄关区,颗粒物(PM10),56,62,64,27,22,88,,112,102,16,22,10,11,0.3,0.5
2025-09-11T2300,1383A,113.1064,22.6058,江门市,北街,,12,10,24,3,13,36,,92,62,10,17,4,4,0.5,0.5
2025-09-11T2300,1384A,113.0731,22.5835,江门市,西区,,14,14,19,8,8,33,,88,60,15,18,8,8,0.4,0.6
2025-09-11T2300,1385A,113.0219,22.5311,江门市,圭峰西,,9,9,24,3,11,26,,92,62,13,11,3,4,0.5,0.6
2025-09-11T2300,1386A,113.0828,22.5947,江门市,东湖,,11,11,21,6,13,32,,78,55,12,17,6,6,0.5,0.6
2025-09-11T2300,3311A,113.1075,22.5647,江门市,江海富民,,29,29,38,15,17,33,,92,62,16,16,5,5,0.5,0.5
2025-09-11T2300,3449A,113.05,22.4667,江门市,新会银湖,,19,19,22,7,11,27,,81,52,8,11,2,3,0.4,0.6
2025-09-11T2300,1830A,113.1992,35.2590,焦作市,影视城,,,,23,,11,,,110,,,6,,8,,0.7
2025-09-11T2300,3335A,113.3137,35.2641,焦作市,马村街道办,,26,18,25,14,11,83,,98,83,9,9,2,3,0.2,0.4
2025-09-11T2300,3336A,113.2465,35.2373,焦作市,焦作技师学院,,25,20,25,12,6,80,,97,81,10,10,7,6,0.5,0.5
2025-09-11T2300,3477A,113.1656,35.2539,焦作市,中站许衡医院,,27,27,29,13,18,73,,107,91,10,5,4,4,0.4,0.4
2025-09-11T2300,3981A,113.2449,35.1803,焦作市,原李万街道办,,39,39,33,7,7,85,,108,88,12,12,8,8,0.4,0.4
2025-09-11T2300,4264A,113.2340,35.2190,焦作市,新安路1731号,,28,23,27,14,11,88,,107,88,11,8,4,4,0.3,0.3
2025-09-11T2300,4295A,113.2722,35.2121,焦作市,人民路3066号,,45,45,43,7,6,88,,103,86,8,6,2,2,0.3,0.3
2025-09-11T2300,1708A,116.3701,23.5345,揭阳市,新兴,,28,28,30,17,17,24,,96,59,23,18,6,8,0.8,0.6
2025-09-11T2300,1709A,116.3264,23.5443,揭阳市,西马,,44,44,33,22,16,15,,86,44,24,18,3,3,0.7,0.6
2025-09-11T2300,1710A,116.3611,23.5626,揭阳市,东兴,,50,50,31,17,12,3,,93,43,38,19,10,7,1.0,0.7
2025-09-11T2300,1711A,116.4151,23.5294,揭阳市,渔湖,,20,20,35,14,13,39,,98,73,11,18,6,9,0.6,0.6
2025-09-11T2300,3320A,116.403,23.5699,揭阳市,曲溪,,27,27,29,12,14,45,,110,70,12,13,3,4,0.5,0.5
2025-09-11T2300,1944A,102.1692,38.5167,金昌市,天庆家园,颗粒物(PM10),75,100,84,36,31,71,,104,81,17,19,23,5,0.2,0.3
2025-09-11T2300,4022A,102.1647,38.5371,金昌市,金川区人防中心,颗粒物(PM10),76,101,77,35,27,75,,101,82,13,12,21,11,0.5,0.5
2025-09-11T2300,4239A,102.1930,38.5319,金昌市,长春路96号,颗粒物(PM10),81,112,85,30,24,63,,95,79,17,15,22,7,0.8,0.7
2025-09-11T2300,1262A,119.647,29.077,金华市,十五中,,28,28,24,16,14,83,,133,117,18,13,2,2,0.5,0.5
2025-09-11T2300,1263A,119.686,29.1029,金华市,监测站,,,,24,25,12,37,,122,94,,13,2,3,0.5,0.6
2025-09-11T2300,3659A,119.656,29.1131,金华市,气象局,,31,31,22,6,8,56,,119,99,21,16,2,2,0.5,0.5
2025-09-11T2300,1767A,121.1115,41.0879,锦州市,南山,,28,27,41,19,31,85,,161,130,22,22,5,11,0.6,0.7
2025-09-11T2300,1768A,121.0604,40.8428,锦州市,开发区,,32,32,71,9,27,95,,143,126,30,41,9,13,0.5,0.8
2025-09-11T2300,1769A,121.1836,41.1119,锦州市,百股街道,,,21,43,14,25,115,,163,136,10,20,,87,0.5,0.7
2025-09-11T2300,1770A,121.1178,41.1222,锦州市,天安街道,,40,40,47,27,32,95,,172,138,27,24,8,27,0.7,0.8
2025-09-11T2300,1771A,121.1303,41.1386,锦州市,北湖公园,,40,37,47,28,31,94,,161,131,20,16,5,9,0.6,0.8
2025-09-11T2300,2160A,112.85,35.5051,晋城市,自来水公司,,27,20,22,12,8,86,,90,86,10,11,3,3,0.5,0.5
2025-09-11T2300,2161A,112.8318,35.4936,晋城市,白云商贸,,28,18,17,3,3,89,,94,90,9,11,2,2,0.4,0.4
2025-09-11T2300,2162A,112.8508,35.4887,晋城市,市环保局,,25,10,18,9,5,80,,84,81,7,8,2,3,0.3,0.4
2025-09-11T2300,2163A,112.8676,35.4897,晋城市,技术学院,,25,19,17,3,3,79,,85,82,8,10,3,3,0.4,0.4
2025-09-11T2300,2165A,112.8453,35.546,晋城市,白马寺,,32,16,12,8,12,100,,102,96,3,3,6,6,0.3,0.3
2025-09-11T2300,3620A,112.8271,35.4828,晋城市,泽州一中,,30,8,11,3,2,93,,98,94,8,8,2,2,0.4,0.5
2025-09-11T2300,2173A,112.7249,37.7067,晋中市,南都小区,,30,29,42,16,24,93,,109,101,11,14,5,5,0.4,0.5
2025-09-11T2300,2174A,112.6991,37.6982,晋中市,榆次区政府,,27,17,37,13,20,84,,102,94,14,16,6,6,0.5,0.7
2025-09-11T2300,2865A,112.7195,37.6828,晋中市,榆次三中,,23,17,36,9,15,73,,107,94,17,15,7,6,0.1,0.3
2025-09-11T2300,4200A,112.7478,37.6954,晋中市,迎宾街26号,,22,17,32,9,14,70,,111,100,27,15,4,4,0.3,0.4
2025-09-11T2300,2439A,112.2014,31.0481,荆门市,竹园小学,,,77,23,18,16,43,,79,66,11,12,,1,0.6,0.7
2025-09-11T2300,2440A,112.1969,30.9891,荆门市,掇刀,,30,30,20,18,16,44,,79,67,12,9,1,1,0.6,0.6
2025-09-11T2300,2441A,112.2213,31.0386,荆门市,石化一小,,,,26,,26,,,81,77,11,13,4,5,0.5,0.5
2025-09-11T2300,3012A,112.1849,31.0362,荆门市,西山林语,,30,30,19,14,11,48,,72,63,8,9,1,2,0.4,0.5
2025-09-11T2300,3547A,112.1632,31.0138,荆门市,龙泉中学南校,,29,29,16,15,11,50,,78,66,12,13,2,2,0.6,0.6
2025-09-11T2300,1844A,112.2494,30.3197,荆州市,市图书馆,,,32,21,16,13,,,84,72,16,11,4,4,0.6,0.6
2025-09-11T2300,1845A,112.2008,30.3544,荆州市,市委党校,,25,23,18,17,14,54,,73,64,17,12,6,6,0.5,0.6
2025-09-11T2300,3194A,112.2747,30.3122,荆州市,管委会,,31,31,20,21,15,53,,81,67,15,10,2,1,0.6,0.6
2025-09-11T2300,4268A,112.1722,30.3366,荆州市,学苑路85号,,30,27,16,21,15,24,,87,60,45,18,4,4,0.5,0.5
2025-09-11T2300,2342A,117.3102,29.3867,景德镇市,王港中学,,,,,,,,,,,,,,,,
2025-09-11T2300,2343A,117.2117,29.2933,景德镇市,老干部活动中心,,,,15,12,10,,,88,,,9,,8,,0.5
2025-09-11T2300,2344A,117.1894,29.2789,景德镇市,兽医站,,20,20,22,8,7,52,,86,68,4,6,4,5,0.6,0.6
2025-09-11T2300,2346A,117.2461,29.2956,景德镇市,陶研所,,18,15,18,12,10,49,,90,71,6,7,4,6,0.5,0.6
2025-09-11T2300,4289A,117.1542,29.2566,景德镇市,青少年活动中心,,14,12,16,8,10,44,,83,66,9,7,3,5,0.8,0.7
2025-09-11T2300,1803A,115.9872,29.6815,九江市,十里,,18,18,11,10,12,51,,93,72,16,14,4,4,0.5,0.5
2025-09-11T2300,1804A,115.9584,29.7046,九江市,茅山头,,18,,18,12,14,54,,97,78,7,12,3,4,0.4,0.5
2025-09-11T2300,1805A,115.9877,29.7295,九江市,西园,,20,11,12,3,6,62,,104,77,13,20,4,6,0.6,0.7
2025-09-11T2300,1808A,115.9114,29.6038,九江市,综合工业园,,27,13,15,6,5,28,,85,70,54,24,5,6,0.7,0.7
2025-09-11T2300,1809A,116.0721,29.7535,九江市,石化总厂,,32,31,16,22,12,38,,90,71,24,14,7,5,0.6,0.5
2025-09-11T2300,1810A,115.9773,29.5698,九江市,庐山气象台,,,,,,,,,,,,,,,,
2025-09-11T2300,3190A,116.0254,29.6994,九江市,外国语学校,,24,24,12,16,9,50,,82,66,17,13,5,6,0.7,0.7
2025-09-11T2300,4253A,116.0102,29.6594,九江市,莲花大道8号,,12,10,11,7,7,36,,74,51,7,6,4,4,0.5,0.5
2025-09-11T2300,4240A,98.4958,39.7339,酒泉市,玉门东路5号,颗粒物(PM10),69,88,76,40,30,82,,114,103,11,17,10,17,0.3,0.3
2025-09-11T2300,4241A,98.5099,39.7506,酒泉市,北大街108号,颗粒物(PM10),80,110,72,33,24,43,,110,94,29,14,38,20,0.7,0.4
2025-09-11T2300,2698A,76.0072,39.4467,喀什地区,巡警大队,颗粒物(PM10),106,162,170,54,51,34,,133,115,83,42,7,6,0.9,0.5
2025-09-11T2300,2699A,75.9755,39.4694,喀什地区,吾办,颗粒物(PM10),100,150,150,65,52,23,,121,104,66,40,6,6,1.0,0.5
2025-09-11T2300,4027A,75.9483,39.4689,喀什地区,老干局,颗粒物(PM10),103,155,121,49,32,44,,126,112,60,30,4,4,0.7,0.3
2025-09-11T2300,1824A,114.3389,34.7781,开封市,肿瘤医院,,25,10,30,6,16,80,,94,91,10,16,3,4,0.5,0.6
2025-09-11T2300,1826A,114.2885,34.7965,开封市,世纪星幼儿园,,28,14,28,8,17,89,,100,97,12,14,4,4,0.6,0.7
2025-09-11T2300,3147A,114.3438,34.8106,开封市,龙亭公园,,24,12,27,3,11,75,,90,87,9,12,5,5,0.6,0.7
2025-09-11T2300,3210A,114.3644,34.7964,开封市,汴京公园,,25,12,30,8,17,80,,93,90,8,12,5,5,0.7,0.7
2025-09-11T2300,3473A,114.2485,34.8306,开封市,技师学院,,22,15,30,14,18,70,,88,83,10,13,6,6,0.7,0.8
2025-09-11T2300,3592A,114.4644,34.7556,开封市,祥符区生态环境局,,24,13,31,3,14,74,,84,82,8,19,3,3,0.5,0.6
2025-09-11T2300,1951A,84.895,45.6094,克拉玛依市,长征新村,,29,29,24,10,10,67,,65,54,5,17,3,3,0.2,0.3
2025-09-11T2300,1952A,84.8988,45.5893,克拉玛依市,南林小区,颗粒物(PM10),52,53,34,26,12,54,,58,48,7,16,6,6,0.7,0.8
2025-09-11T2300,1954A,84.905,44.3396,克拉玛依市,独山子区,颗粒物(PM10),51,52,35,14,13,56,,92,78,29,18,5,6,0.5,0.4
2025-09-11T2300,1955A,85.6979,46.098,克拉玛依市,乌尔禾区商贸楼,,16,11,18,11,5,44,,76,71,10,11,2,3,0.1,0.1
2025-09-11T2300,3612A,85.1045,45.6899,克拉玛依市,白碱滩区新站,,49,49,41,18,22,78,,82,70,2,7,5,7,0.1,0.2
2025-09-11T2300,2697A,76.1454,39.7142,克孜勒苏柯尔克孜自治州,市人民政府,颗粒物(PM10),73,96,125,39,57,77,,124,116,39,12,6,13,0.2,0.1
2025-09-11T2300,3665A,76.1658,39.7157,克孜勒苏柯尔克孜自治州,克州文化中心,颗粒物(PM10),74,97,133,31,46,81,,116,112,31,11,7,19,0.2,0.2
2025-09-11T2300,1450A,102.8204,24.8886,昆明市,呈贡新区,,25,17,10,17,8,26,,69,54,27,12,3,3,0.5,0.4
2025-09-11T2300,1451A,102.6251,24.9608,昆明市,西山森林公园,,,,,,,,,,,,,,,,
2025-09-11T2300,1452A,102.7252,25.0902,昆明市,龙泉镇,,41,41,17,11,8,4,,56,36,32,15,2,2,0.6,0.4
2025-09-11T2300,1453A,102.7266,25.0375,昆明市,东风东路,,22,20,12,15,8,34,,61,53,15,12,3,3,0.4,0.3
2025-09-11T2300,1454A,102.6742,25.0669,昆明市,金鼎山,,22,22,19,11,7,21,,55,38,19,12,5,3,0.4,0.3
2025-09-11T2300,1455A,102.6644,25.0401,昆明市,碧鸡广场,,19,19,18,12,10,26,,52,37,18,16,10,9,0.5,0.5
2025-09-11T2300,3179A,102.7494,25.0119,昆明市,官渡区博物馆,,22,22,12,3,6,36,,60,49,12,10,1,2,0.4,0.3
2025-09-11T2300,3375A,102.8017,24.8336,昆明市,青年创业园,,17,17,16,10,8,26,,64,49,18,7,3,3,0.3,0.6
2025-09-11T2300,3550A,102.7997,24.9786,昆明市,昆明学院,,15,15,12,8,7,38,,59,50,11,12,7,7,0.5,0.4
2025-09-11T2300,3551A,102.5967,24.6736,昆明市,晋宁区生态环境分局,,15,15,17,3,7,44,,66,57,5,7,1,2,0.4,0.3
2025-09-11T2300,3552A,102.6678,24.9856,昆明市,云天化总部,,,,10,8,7,30,,52,44,17,9,6,5,,0.5
2025-09-11T2300,1456A,91.1319,29.6514,拉萨市,八廓街,,29,14,11,9,8,92,,104,97,10,7,6,6,0.4,0.4
2025-09-11T2300,1457A,91.1221,29.6747,拉萨市,市环保局,,28,14,12,8,8,87,,100,91,13,11,7,7,0.4,0.4
2025-09-11T2300,1458A,91.0874,29.6475,拉萨市,区监测站,,28,9,10,8,7,88,,97,93,15,13,4,4,0.3,0.3
2025-09-11T2300,1459A,91.1774,29.6541,拉萨市,西藏大学,,28,8,10,8,8,87,,103,95,12,11,6,7,0.2,0.3
2025-09-11T2300,1460A,90.9798,29.6588,拉萨市,区辐射站,,27,10,11,9,7,86,,93,91,12,12,5,4,0.3,0.3
2025-09-11T2300,1461A,91.0834,29.6292,拉萨市,拉萨火车站,,27,11,10,9,7,84,,97,93,19,10,5,5,0.5,0.4
2025-09-11T2300,2520A,109.2203,23.7256,来宾市,来宾技工学校,,24,24,23,6,9,28,,69,53,9,7,28,10,0.5,0.7
2025-09-11T2300,3535A,109.1781,23.7297,来宾市,兴宾区政府,,18,17,17,12,10,25,,72,54,15,8,7,9,0.6,0.6
2025-09-11T2300,4002A,109.2416,23.7461,来宾市,中南小学,,21,21,19,6,7,32,,72,58,7,8,15,10,0.5,0.6
2025-09-11T2300,1477A,104.1373,35.9454,兰州市,榆中兰大校区,,,,,,,,,,,,,,,,
2025-09-11T2300,1479A,103.831,36.0464,兰州市,铁路设计院,,42,42,47,19,23,73,,130,107,30,28,9,17,0.5,0.7
2025-09-11T2300,3241A,103.7439,36.0842,兰州市,百合公园,,45,45,51,22,20,59,,124,107,31,19,4,12,0.2,0.5
2025-09-11T2300,3242A,103.9611,35.998,兰州市,和平,,30,30,48,14,21,88,,139,120,10,15,8,12,0.3,0.6
2025-09-11T2300,4236A,103.6293,36.0938,兰州市,庄浪东路808号,颗粒物(PM10),51,52,61,26,27,62,,136,104,36,35,15,27,0.2,0.4
2025-09-11T2300,4237A,103.7251,36.1043,兰州市,安宁西路88号,,45,45,55,22,25,76,,146,123,27,20,4,13,0.3,0.4
2025-09-11T2300,4238A,103.8470,36.0676,兰州市,北滨河东路1号,,45,45,42,31,24,71,,146,121,35,24,8,17,0.4,0.6
2025-09-11T2300,3245A,103.6633,36.533,兰州新区,新区管委会,,44,44,45,22,25,87,,130,115,14,12,5,8,0.2,0.3
2025-09-11T2300,3246A,103.6975,36.4789,兰州新区,舟曲中学,,38,38,50,13,20,83,,114,103,15,20,8,11,0.2,0.3
2025-09-11T2300,1067A,116.6708,39.5111,廊坊市,药材公司,颗粒物(PM10),65,80,77,41,42,81,,166,127,38,31,6,8,0.4,0.5
2025-09-11T2300,1068A,116.7214,39.5589,廊坊市,开发区,颗粒物(PM10),58,65,78,36,35,68,,175,130,19,24,1,3,0.6,0.5
2025-09-11T2300,1070A,116.7244,39.5269,廊坊市,北华航天学院,颗粒物(PM10),60,69,65,42,36,60,,182,146,35,24,4,6,0.6,0.5
2025-09-11T2300,2919A,116.7022,39.5453,廊坊市,河北工业大学,"颗粒物(PM10),细颗粒物(PM2.5)",57,64,62,40,37,116,,178,157,20,23,4,5,0.4,0.4
2025-09-11T2300,2535A,103.7723,29.5462,乐山市,花湖湾,,25,20,21,17,16,45,,77,65,16,13,5,4,0.4,0.4
2025-09-11T2300,2536A,103.7627,29.5844,乐山市,牛耳桥,,21,21,21,14,14,38,,71,65,21,13,6,6,0.7,0.6
2025-09-11T2300,2537A,103.7508,29.6006,乐山市,市第三水厂,,23,20,20,16,15,43,,71,65,20,12,6,4,0.6,0.5
2025-09-11T2300,2538A,103.7571,29.5664,乐山市,市监测站,,24,24,23,13,16,45,,73,69,16,10,7,7,0.8,0.8
2025-09-11T2300,3361A,103.7311,29.5628,乐山市,理工大学,,22,16,20,15,16,40,,73,68,18,11,8,4,0.7,0.6
2025-09-11T2300,2598A,100.2143,26.8576,丽江市,西南郊,,21,21,14,9,7,13,,57,43,21,7,7,6,0.7,0.8
2025-09-11T2300,2599A,100.2497,26.8802,丽江市,丽江古城,,21,21,22,9,9,33,,58,49,12,11,10,10,0.5,0.5
2025-09-11T2300,2600A,100.2203,26.8906,丽江市,市中心,,16,14,15,11,12,31,,59,46,12,11,10,10,0.5,0.5
2025-09-11T2300,1267A,119.914,28.4514,丽水市,监测站大楼,,15,,16,10,6,46,,90,80,10,12,5,4,0.4,0.5
2025-09-11T2300,1268A,119.93,28.4586,丽水市,莲都小学,,24,18,18,8,7,74,,93,89,8,10,3,4,0.3,0.3
2025-09-11T2300,1269A,119.879,28.4231,丽水市,余庄前,,14,14,18,8,10,25,,82,67,17,11,5,5,0.4,0.4
2025-09-11T2300,1173A,119.176,34.5885,连云港市,市环境监测站,,37,6,19,3,6,117,,110,110,5,7,5,7,0.5,0.5
2025-09-11T2300,3000A,119.3581,34.6972,连云港市,德源药业,,32,7,21,3,7,102,,90,89,10,16,4,4,0.4,0.5
2025-09-11T2300,3007A,119.178,34.844,连云港市,新城一中,,35,21,23,6,7,112,,105,105,13,18,2,4,0.4,0.4
2025-09-11T2300,3008A,119.3608,34.7519,连云港市,胡沟管理处,,28,7,21,3,5,89,,86,86,28,23,6,7,0.7,0.8
2025-09-11T2300,3009A,119.1478,34.5911,连云港市,矿山设计院,,36,6,20,3,8,113,,106,106,7,9,6,7,0.5,0.6
2025-09-11T2300,3434A,119.2413,34.6539,连云港市,工贸学校,,36,11,18,6,9,114,,109,109,2,4,6,7,0.8,0.9
2025-09-11T2300,3664A,119.4172,34.7341,连云港市,连云街道,,39,8,17,3,7,123,,118,118,5,4,4,4,0.3,0.4
2025-09-11T2300,2571A,102.3431,27.8099,凉山彝族自治州,青龙寺,,24,24,23,7,9,27,,60,41,8,10,3,5,0.4,0.6
2025-09-11T2300,2572A,102.2721,27.8415,凉山彝族自治州,邛海宾馆,,19,18,24,13,15,24,,70,53,19,16,8,11,0.5,0.7
2025-09-11T2300,2573A,102.2625,27.898,凉山彝族自治州,西昌市政府,,,20,25,11,17,38,,60,52,,17,13,15,0.6,0.7
2025-09-11T2300,2574A,102.2685,27.8851,凉山彝族自治州,凉山州政府,,32,31,29,22,24,37,,64,56,9,17,10,12,0.7,0.6
2025-09-11T2300,4229A,102.2342,27.8859,凉山彝族自治州,凯乐南路30号,,25,21,23,17,14,42,,59,56,13,20,11,12,0.8,0.8
2025-09-11T2300,2212A,123.2,41.1953,辽阳市,宏伟区,,37,29,47,20,22,118,,142,126,4,9,3,3,0.6,0.7
2025-09-11T2300,2213A,123.1683,41.2495,辽阳市,新华园,,38,29,52,24,27,119,,161,130,7,16,3,4,0.5,0.7
2025-09-11T2300,2214A,123.2354,41.2639,辽阳市,滨河路,,41,41,49,20,24,102,,152,116,11,15,5,5,0.5,0.6
2025-09-11T2300,2215A,123.149,41.2991,辽阳市,铁西工业园,,35,29,60,21,27,112,,158,126,8,17,4,5,0.6,0.9
2025-09-11T2300,2227A,125.1358,42.8845,辽源市,环保局,颗粒物(PM10),51,52,42,24,12,81,,122,109,6,12,9,10,0.6,0.6
2025-09-11T2300,3239A,125.0764,42.9078,辽源市,银鹰制药,,44,44,30,24,19,65,,117,94,23,19,106,44,0.5,0.5
2025-09-11T2300,1625A,115.9848,36.4372,聊城市,区政府,,30,30,49,13,24,76,,100,84,14,23,9,12,0.5,0.7
2025-09-11T2300,2878A,116.0072,36.4343,聊城市,聊大东校,,29,29,56,18,27,74,,101,85,17,26,8,12,0.6,0.8
2025-09-11T2300,3200A,115.9819,36.4978,聊城市,监控中心,,38,38,54,19,23,62,,102,83,25,26,8,11,0.6,0.8
2025-09-11T2300,3513A,116.0445,36.4361,聊城市,九州社区,,31,31,60,13,27,71,,88,78,11,23,7,8,0.5,0.6
2025-09-11T2300,4018A,116.0567,36.4608,聊城市,星美广场,,29,29,57,16,26,82,,97,87,8,19,5,7,0.5,0.7
2025-09-11T2300,2632A,94.3681,29.6376,林芝市,林芝监测站,,14,7,6,3,4,44,,56,52,3,5,4,4,0.5,0.5
2025-09-11T2300,2633A,94.3616,29.6616,林芝市,林芝人民医院,,12,12,7,6,4,25,,49,41,4,5,4,5,0.6,0.6
2025-09-11T2300,2603A,100.0781,23.8982,临沧市,市环保局,,39,,17,27,16,16,,48,36,9,7,5,5,0.7,0.6
2025-09-11T2300,2604A,100.0894,23.8822,临沧市,市气象局,,28,,14,19,14,12,,38,29,12,9,9,8,0.6,0.6
2025-09-11T2300,1733A,111.5531,36.0783,临汾市,临钢医院,,28,28,20,3,5,69,,65,61,8,11,5,5,0.5,0.6
2025-09-11T2300,1734A,111.5028,36.0714,临汾市,技工学校,,25,,18,17,15,67,,64,62,8,11,4,4,0.5,0.5
2025-09-11T2300,1736A,111.5018,36.0855,临汾市,市委,,24,20,27,3,7,75,,70,68,8,13,4,4,0.6,0.7
2025-09-11T2300,3018A,111.505,36.1014,临汾市,唐尧大酒店,,33,33,31,3,6,70,,67,64,8,12,6,5,0.6,0.7
2025-09-11T2300,4244A,111.4879,36.0530,临汾市,启星学校,,22,11,22,11,17,68,,71,69,9,12,3,3,0.5,0.6
2025-09-11T2300,4271A,103.2464,35.6123,临夏回族自治州,滨河东路1号,颗粒物(PM10),51,52,51,21,20,52,,67,52,19,17,7,8,0.4,0.3
2025-09-11T2300,4310A,103.2093,35.5995,临夏回族自治州,新华街21号,,44,44,52,28,25,68,,91,79,14,16,5,6,0.4,0.4
2025-09-11T2300,1618A,118.3429,35.0532,临沂市,沂河小区,,34,,29,13,16,106,,86,84,12,16,8,9,0.4,0.4
2025-09-11T2300,1619A,118.295,35.0583,临沂市,鲁南制药厂,,35,,22,8,13,109,,92,88,8,12,7,9,0.5,0.6
2025-09-11T2300,1620A,118.2794,34.9976,临沂市,新光毛纺厂,,33,,20,6,16,104,,91,88,8,16,6,8,0.3,0.4
2025-09-11T2300,1621A,118.3956,35.0888,临沂市,河东保险公司,,29,14,26,6,9,90,,82,76,13,18,5,6,0.3,0.3
2025-09-11T2300,3370A,118.3564,35.0215,临沂市,十里堡居委,,35,,24,9,11,110,,90,87,15,19,6,9,0.3,0.3
2025-09-11T2300,3496A,118.3604,35.1084,临沂市,南坊新区,,34,17,29,3,7,108,,91,88,11,17,8,9,0.4,0.5
2025-09-11T2300,3860A,118.3920,35.0300,临沂市,皇山花园小区,,34,6,25,3,12,107,,88,83,7,18,9,10,0.2,0.3
2025-09-11T2300,1870A,109.4856,24.3895,柳州市,柳东小学,,17,17,16,10,8,48,,80,73,7,7,4,4,0.3,0.3
2025-09-11T2300,1871A,109.4157,24.3277,柳州市,环保监测站,,16,16,19,3,10,41,,70,64,5,7,6,6,0.5,0.5
2025-09-11T2300,1872A,109.389,24.341,柳州市,河西水厂,,21,21,19,8,9,37,,70,64,10,8,4,5,0.5,0.5
2025-09-11T2300,1873A,109.4311,24.2921,柳州市,市四中,,16,12,18,11,11,41,,72,65,9,10,6,7,0.2,0.2
2025-09-11T2300,1874A,109.4006,24.3631,柳州市,市九中,,,23,20,15,9,,,72,70,8,8,3,3,0.5,0.6
2025-09-11T2300,1875A,109.4958,24.3134,柳州市,古亭山,,13,13,17,8,9,31,,71,61,18,8,6,6,0.5,0.5
2025-09-11T2300,3402A,109.5422,24.3996,柳州市,市二中,,18,18,17,8,8,45,,77,72,13,8,12,12,0.6,0.6
2025-09-11T2300,2307A,116.5079,31.737,六安市,监测大楼,,31,31,19,17,13,71,,90,87,5,5,4,4,0.7,0.7
2025-09-11T2300,2308A,116.4738,31.7643,六安市,皖西学院,,41,41,25,18,14,79,,93,91,4,3,3,3,0.4,0.4
2025-09-11T2300,2309A,116.4996,31.7905,六安市,朝阳厂,,28,22,18,19,13,70,,86,83,11,9,6,6,0.5,0.5
2025-09-11T2300,2310A,116.5567,31.7886,六安市,开发区,,34,34,14,21,14,67,,91,84,7,7,2,2,0.5,0.5
2025-09-11T2300,2576A,104.8,26.5892,六盘水市,窑上,,41,41,43,25,19,45,,68,54,6,4,3,3,0.3,0.4
2025-09-11T2300,2577A,104.83,26.5917,六盘水市,黄土坡,,17,13,15,3,8,52,,70,64,6,8,3,2,0.3,0.4
2025-09-11T2300,2578A,104.89,26.5939,六盘水市,水钢,,23,23,26,16,18,50,,72,66,4,4,3,3,0.1,0.2
2025-09-11T2300,2579A,104.8475,26.5894,六盘水市,民中,,17,15,14,3,6,52,,71,65,5,6,3,2,0.3,0.3
2025-09-11T2300,2580A,104.9544,26.5506,六盘水市,双水,,19,19,13,3,10,49,,66,62,5,6,2,3,0.0,0.1
2025-09-11T2300,2335A,117.0189,25.1181,龙岩市,龙岩师专,,,,,,,,,,,,,,,,
2025-09-11T2300,2336A,117.0217,25.1033,龙岩市,龙岩市监测站,,20,16,13,14,9,11,,69,38,26,10,6,5,0.6,0.5
2025-09-11T2300,2337A,117.0258,25.0661,龙岩市,闽西职业技术学院,,21,21,13,8,5,9,,64,25,16,10,4,4,0.5,0.5
2025-09-11T2300,2338A,117.0196,25.0306,龙岩市,龙岩学院,,33,,11,23,8,11,,63,32,14,6,6,5,0.6,0.5
2025-09-11T2300,2665A,105.0822,33.3261,陇南市,汉王镇固水子,,,,,,,,,,,,,,,,
2025-09-11T2300,2885A,104.9339,33.3826,陇南市,滨江中学,,,30,27,12,12,24,,63,53,,6,5,4,,0.7
2025-09-11T2300,3247A,104.955,33.371,陇南市,市总工会,,32,32,31,8,6,29,,61,53,10,7,6,7,0.4,0.5
2025-09-11T2300,2487A,111.9589,27.8901,娄底市,电视发射台,,26,26,40,11,15,21,,66,41,6,5,4,4,0.2,0.3
2025-09-11T2300,2488A,111.9975,27.725,娄底市,市监测站,,25,23,32,17,18,39,,68,49,11,11,4,5,0.6,0.6
2025-09-11T2300,2489A,112.0194,27.7314,娄底市,市委党校,颗粒物(PM10),60,70,31,22,20,15,,71,38,30,12,3,3,0.6,0.5
2025-09-11T2300,2490A,111.9561,27.7569,娄底市,涟钢,,44,44,34,26,19,26,,62,34,15,14,2,5,0.8,1
2025-09-11T2300,2491A,111.9892,27.7044,娄底市,市政府,,45,38,27,31,17,19,,72,45,13,7,6,6,0.8,0.8
2025-09-11T2300,1893A,105.4324,28.9634,泸州市,九狮山,,42,42,72,11,27,45,,86,67,7,13,6,7,0.3,0.4
2025-09-11T2300,1894A,105.4427,28.9063,泸州市,小市上码头,,34,34,63,21,40,34,,64,51,9,21,4,5,0.5,0.6
2025-09-11T2300,1895A,105.4241,28.8573,泸州市,兰田宪桥,,36,35,69,25,40,41,,57,53,27,27,4,6,0.6,0.8
2025-09-11T2300,1896A,105.4379,28.8833,泸州市,市环监站,,35,33,69,24,48,49,,81,66,8,19,4,5,0.5,0.6
2025-09-11T2300,4272A,105.3689,28.7783,泸州市,纳溪中医医院,,31,31,50,20,40,49,,88,72,16,20,2,2,0.6,0.7
2025-09-11T2300,2183A,111.1406,37.5211,吕梁市,环保局,,16,16,44,8,20,30,,75,56,31,29,3,3,0.7,0.7
2025-09-11T2300,2185A,111.1297,37.5136,吕梁市,自来水公司,,18,16,47,12,18,40,,68,57,22,26,3,5,0.6,0.6
2025-09-11T2300,2867A,111.1283,37.51,吕梁市,马茂庄小学,,17,15,52,3,18,35,,73,62,34,32,3,6,0.6,0.7
2025-09-11T2300,1812A,112.3931,34.6516,洛阳市,市委党校,,27,11,10,10,9,85,,90,84,7,10,5,5,0.3,0.4
2025-09-11T2300,1815A,112.494,34.6886,洛阳市,河南林校,,29,22,22,15,12,91,,98,92,13,14,6,6,0.4,0.5
2025-09-11T2300,1816A,112.3844,34.623,洛阳市,开发区管委会,,31,15,12,11,10,97,,104,99,5,6,3,3,0.4,0.5
2025-09-11T2300,1817A,112.4267,34.6258,洛阳市,市委新办公区,,27,17,14,16,15,84,,91,86,5,8,6,7,0.4,0.4
2025-09-11T2300,3340A,112.6005,34.6326,洛阳市,伊滨,,27,,15,11,12,85,,93,89,10,13,4,5,0.5,0.5
2025-09-11T2300,3341A,112.4951,34.6332,洛阳市,中移产业园,,25,15,16,10,14,80,,92,87,8,11,6,6,0.5,0.6
2025-09-11T2300,3593A,112.5736,34.8993,洛阳市,吉利监测站,,31,13,20,9,14,98,,98,94,5,9,4,4,0.4,0.5
2025-09-11T2300,3635A,112.3677,34.662,洛阳市,河科大西苑校区,,30,15,13,8,7,95,,99,95,9,13,7,7,0.4,0.4
2025-09-11T2300,3636A,112.4388,34.6781,洛阳市,英才小学,,28,17,13,17,13,87,,93,89,7,10,6,6,0.4,0.5
2025-09-11T2300,4214A,112.4600,34.6949,洛阳市,春都路1号院,,25,17,17,6,9,80,,84,80,11,12,8,8,0.3,0.3
2025-09-11T2300,2399A,114.051,33.5699,漯河市,三五一五工厂,,28,,12,6,11,88,,82,82,6,9,5,5,0.4,0.6
2025-09-11T2300,2400A,114.0055,33.5698,漯河市,漯河大学,,29,6,15,3,10,91,,85,85,4,9,4,5,0.3,0.5
2025-09-11T2300,2401A,114.0138,33.5828,漯河市,市水利局,,28,6,11,3,8,89,,82,82,6,9,5,5,0.4,0.6
2025-09-11T2300,2402A,114.0261,33.5698,漯河市,市广电局,,30,,11,3,11,96,,90,90,3,7,2,3,0.4,0.6
2025-09-11T2300,3478A,113.9749,33.5664,漯河市,市图书馆,,28,6,10,3,7,88,,84,84,7,9,4,5,0.3,0.5
2025-09-11T2300,4250A,114.0892,33.5882,漯河市,韶山路11号,,28,7,12,3,8,87,,82,82,6,10,4,4,0.3,0.5
2025-09-11T2300,1798A,118.5092,31.6837,马鞍山市,湖东路四小,,46,46,39,29,21,137,,144,137,17,17,11,7,0.6,0.5
2025-09-11T2300,1799A,118.5024,31.6449,马鞍山市,开发区,,43,43,39,27,20,127,,148,141,20,16,14,8,0.5,0.6
2025-09-11T2300,1802A,118.6245,31.7241,马鞍山市,濮塘,,49,35,33,25,21,156,,158,158,11,10,9,8,0.8,0.8
2025-09-11T2300,3633A,118.4918,31.6809,马鞍山市,雨山,,42,42,36,27,20,134,,142,136,18,17,20,11,0.5,0.4
2025-09-11T2300,4191A,118.5274,31.72227,马鞍山市,慈湖高新区,,43,42,38,24,19,137,,146,144,18,16,6,5,0.4,0.4
2025-09-11T2300,1686A,111.0286,21.4688,茂名市,电白南海,,17,17,24,9,14,34,,55,43,6,9,3,4,0.8,0.9
2025-09-11T2300,1687A,110.9294,21.6533,茂名市,茂石化七小,,22,22,16,3,8,28,,55,43,11,9,6,5,0.5,0.5
2025-09-11T2300,1688A,110.9107,21.6687,茂名市,健康路,,17,17,10,9,9,34,,61,50,9,9,6,5,0.5,0.5
2025-09-11T2300,1689A,110.8592,21.6828,茂名市,高岭,,27,27,22,3,4,24,,56,40,18,13,6,10,0.7,0.7
2025-09-11T2300,3450A,111.01,21.5165,茂名市,电白水东,,12,6,13,3,5,37,,56,48,7,8,4,6,0.7,0.8
2025-09-11T2300,2539A,104.0308,30.0478,眉山市,黑龙滩水库,,16,12,15,11,10,41,,69,57,10,7,1,2,0.3,0.3
2025-09-11T2300,2540A,103.8416,30.0874,眉山市,气象局,,28,28,31,7,11,31,,62,49,20,16,8,8,0.4,0.3
2025-09-11T2300,3137A,103.8578,30.0744,眉山市,市委党校,,,36,20,7,8,,,63,54,21,16,8,8,0.7,0.6
2025-09-11T2300,3148A,103.8291,30.0564,眉山市,区人社局,,27,27,32,3,8,38,,65,55,16,13,7,8,0.9,0.9
2025-09-11T2300,1690A,116.1231,24.3284,梅州市,梅江月梅,,21,21,15,12,7,64,,61,58,10,12,9,9,0.6,0.5
2025-09-11T2300,1691A,116.0797,24.2719,梅州市,梅县新城,,16,16,16,3,6,44,,62,49,9,8,13,7,0.5,0.6
2025-09-11T2300,1692A,116.1248,24.2654,梅州市,环境监控中心,,22,22,18,10,10,21,,57,42,23,10,4,4,0.6,0.5
2025-09-11T2300,3315A,116.1233,24.2991,梅州市,梅龙,,20,19,13,14,9,53,,59,54,12,8,11,8,0.7,0.7
2025-09-11T2300,1878A,104.7778,31.4741,绵阳市,富乐山,,10,7,11,3,10,31,,49,37,4,9,7,8,0.6,0.7
2025-09-11T2300,1880A,104.6697,31.4668,绵阳市,高新区自来水公司,,9,6,13,3,6,26,,46,38,9,13,8,9,0.5,0.6
2025-09-11T2300,1881A,104.7287,31.5075,绵阳市,三水厂,,9,6,13,3,10,28,,50,40,6,13,10,10,0.5,0.6
2025-09-11T2300,3491A,104.69,31.5322,绵阳市,西科大附属小学,,8,6,17,3,10,21,,52,43,16,16,7,7,0.2,0.6
2025-09-11T2300,3492A,104.5648,31.5343,绵阳市,安州区旅游局,,7,6,8,3,3,21,,52,40,11,11,7,7,0.6,0.7
2025-09-11T2300,4226A,104.7651,31.4531,绵阳市,绵阳市气象局,,9,8,12,3,9,27,,44,34,6,10,11,8,0.4,0.5
2025-09-11T2300,1784A,129.61,44.561,牡丹江市,环保大楼,,40,40,19,12,12,3,,77,42,38,16,6,4,0.5,0.3
2025-09-11T2300,1785A,129.6115,44.5782,牡丹江市,文化广场,,40,35,31,28,20,17,,75,42,31,21,6,6,0.5,0.4
2025-09-11T2300,1786A,129.5904,44.5963,牡丹江市,第一医院,,42,30,31,29,22,27,,80,46,21,20,8,8,0.2,0.2
2025-09-11T2300,1787A,129.6364,44.6075,牡丹江市,机车工厂,,46,46,36,26,17,8,,78,41,26,17,7,7,0.4,0.4
2025-09-11T2300,1788A,129.6386,44.5462,牡丹江市,第一中学,,42,42,24,14,14,0,,72,26,33,17,4,3,0.3,0.3
2025-09-11T2300,2531A,105.0703,29.61,内江市,市监测站,,14,14,22,3,19,25,,55,51,6,9,3,4,0.3,0.7
2025-09-11T2300,2532A,105.0717,29.5947,内江市,东兴区政府,,22,22,23,3,13,29,,46,43,8,12,5,5,0.5,0.6
2025-09-11T2300,2533A,105.0653,29.5817,内江市,内江二中,,15,15,22,3,21,28,,49,44,9,13,2,3,0.6,0.7
2025-09-11T2300,2534A,105.0406,29.5822,内江市,内江日报社,,10,10,22,3,20,31,,51,45,10,13,5,6,0.5,0.6
2025-09-11T2300,2628A,92.0657,31.4846,那曲市,那曲监测站,细颗粒物(PM2.5),87,113,24,64,12,18,,90,65,58,17,9,5,1.2,0.5
2025-09-11T2300,4243A,92.0515,31.4787,那曲市,那曲市委宣传部,,42,42,15,21,8,37,,100,76,34,10,5,4,0.7,0.3
2025-09-11T2300,1290A,115.8931,28.6843,南昌市,省外办,,35,34,21,24,16,19,,66,38,13,7,6,5,0.9,0.8
2025-09-11T2300,1291A,115.8886,28.7003,南昌市,省林业公司,,31,31,14,17,13,21,,85,51,21,11,3,3,0.8,0.7
2025-09-11T2300,1292A,115.8126,28.7442,南昌市,林科所,,18,9,9,3,6,20,,91,43,35,16,5,5,0.4,0.4
2025-09-11T2300,1294A,115.8518,28.687,南昌市,建工学校,,37,37,21,3,2,18,,85,50,37,18,6,7,0.9,0.8
2025-09-11T2300,1295A,115.8921,28.6424,南昌市,象湖,,23,23,15,12,10,37,,92,52,21,15,9,8,0.7,0.7
2025-09-11T2300,1296A,115.7423,28.7996,南昌市,武术学校,,21,21,14,14,12,8,,62,34,6,8,8,9,0.5,0.6
2025-09-11T2300,3046A,115.9084,28.6062,南昌市,机电学校,,46,46,24,29,11,34,,95,48,23,17,14,6,0.5,0.5
2025-09-11T2300,3690A,115.9721,28.7031,南昌市,外国语学校,,29,22,20,20,8,31,,93,40,19,16,6,6,0.4,0.4
2025-09-11T2300,4192A,115.9316,28.68677,南昌市,南京东路235号,,29,29,24,14,11,39,,93,54,18,14,11,10,0.9,0.8
2025-09-11T2300,1905A,106.056,30.8064,南充市,西山风景区,,,,,,,,,,,,,,,,
2025-09-11T2300,1906A,106.0789,30.8023,南充市,南充市委,,14,14,28,8,18,12,,45,28,10,11,3,3,0.4,0.5
2025-09-11T2300,1907A,106.1031,30.8217,南充市,南充炼油厂,,18,18,30,3,16,17,,48,32,4,6,5,5,0.2,0.2
2025-09-11T2300,4227A,106.1083,30.7884,南充市,梨树横街98号,,23,16,25,16,17,18,,59,38,7,8,2,2,0.2,0.3
2025-09-11T2300,4304A,106.1172,30.843,南充市,清泉寺北路188号,,13,13,22,9,17,18,,51,34,5,6,4,4,0.3,0.3
2025-09-11T2300,4305A,106.067,30.7616,南充市,同庆路1号,,8,,17,3,13,15,,50,29,9,12,4,5,0.3,0.4
2025-09-11T2300,1151A,118.8086,32.1065,南京市,迈皋桥,,28,28,30,17,18,83,,163,138,12,10,3,4,0.6,0.7
2025-09-11T2300,1152A,118.7538,32.0551,南京市,草场门,,44,44,43,19,19,77,,173,149,20,16,4,4,0.7,0.7
2025-09-11T2300,1153A,118.7794,32.0745,南京市,山西路,,41,41,42,9,13,95,,174,154,16,12,4,4,0.6,0.6
2025-09-11T2300,1154A,118.7752,32.0023,南京市,中华门,,31,31,33,12,18,87,,163,147,16,12,4,4,0.5,0.6
2025-09-11T2300,1155A,118.8109,32.0309,南京市,瑞金路,,36,36,35,22,18,74,,161,140,7,10,6,6,0.4,0.4
2025-09-11T2300,1156A,118.7997,32.0754,南京市,玄武湖,,38,38,36,9,12,92,,162,141,10,10,3,4,0.4,0.4
2025-09-11T2300,1157A,118.6414,32.0931,南京市,浦口,,40,40,39,17,16,84,,160,144,24,18,7,7,0.6,0.5
2025-09-11T2300,1158A,118.7356,31.9996,南京市,奥体中心,,,41,43,22,21,108,,176,163,,16,6,7,,0.5
2025-09-11T2300,1159A,118.9125,32.1028,南京市,仙林大学城,,36,36,41,9,13,83,,164,137,12,11,8,8,0.6,0.7
2025-09-11T2300,3422A,118.8436,31.9198,南京市,江宁彩虹桥,,44,44,33,22,20,84,,162,146,24,20,5,5,0.6,0.6
2025-09-11T2300,3427A,118.8554,32.3578,南京市,六合雄州,,44,44,39,17,15,52,,122,77,16,15,6,6,0.6,0.7
2025-09-11T2300,4249A,118.8708,31.3402,南京市,汶溪路181号,,48,37,29,33,19,123,,149,146,17,12,5,5,0.7,0.7
2025-09-11T2300,4312A,119.019,31.6512,南京市,中山西路1号,,37,31,29,22,19,118,,136,134,20,16,4,4,0.4,0.5
2025-09-11T2300,1401A,108.3103,22.7881,南宁市,二十一中,,17,17,14,3,7,6,,52,25,30,11,4,4,0.5,0.4
2025-09-11T2300,1402A,108.3141,22.8528,南宁市,北湖,,23,23,18,12,11,5,,64,28,27,10,3,2,0.5,0.5
2025-09-11T2300,1403A,108.3206,22.8225,南宁市,市监测站,,20,20,16,8,6,4,,53,22,28,11,4,4,0.5,0.4
2025-09-11T2300,1404A,108.3829,22.8037,南宁市,大自然花园,,17,17,12,6,7,5,,56,27,21,8,4,4,0.6,0.5
2025-09-11T2300,1405A,108.4394,22.7904,南宁市,仙葫,,10,9,15,3,6,16,,58,38,20,7,5,4,0.5,0.5
2025-09-11T2300,1406A,108.2397,22.8467,南宁市,区农职院,,25,25,15,14,7,1,,53,22,29,13,12,6,0.1,0.1
2025-09-11T2300,1407A,108.3275,22.735,南宁市,英华嘉园,,18,18,16,12,8,7,,53,26,24,11,1,1,0.4,0.3
2025-09-11T2300,3401A,108.4834,22.7618,南宁市,红星社区,,10,10,14,3,10,27,,61,42,15,7,3,2,0.3,0.3
2025-09-11T2300,4221A,108.2177,22.7774,南宁市,乐贤路16号,,24,24,17,3,9,0,,51,20,28,16,5,4,0.8,0.6
2025-09-11T2300,2331A,118.0966,26.6761,南平市,茫荡山,,,,9,,4,,,49,,,,,2,,
2025-09-11T2300,2332A,118.1681,26.6369,南平市,南平市监测站,,11,9,10,3,6,14,,63,40,21,9,4,4,0.6,0.4
2025-09-11T2300,2333A,118.1825,26.6489,南平市,南平铝业有限公司,,15,15,12,3,5,19,,63,38,24,11,8,5,0.6,0.5
2025-09-11T2300,2334A,118.1756,26.6272,南平市,南平七中,,16,16,12,3,6,14,,66,41,18,7,4,3,0.5,0.4
2025-09-11T2300,1168A,120.9098,31.9663,南通市,狼山街道,,24,17,22,12,10,75,,119,101,14,13,3,4,0.6,0.6
2025-09-11T2300,1169A,120.86,32.0005,南通市,虹桥,,29,20,21,7,11,91,,124,104,11,14,2,4,0.7,0.7
2025-09-11T2300,1170A,120.87,32.02,南通市,城中,,28,20,28,7,10,87,,119,99,11,15,2,3,0.4,0.5
2025-09-11T2300,1171A,120.94,31.93,南通市,星湖花园,,23,15,19,11,11,71,,105,86,13,11,3,3,0.3,0.4
2025-09-11T2300,1172A,120.81,32.0417,南通市,紫琅学院,,26,14,25,3,7,82,,114,94,13,15,3,4,0.6,0.7
2025-09-11T2300,3291A,121.067,32.062,南通市,通州监测站,,28,14,17,9,9,87,,128,108,8,7,2,2,0.6,0.6
2025-09-11T2300,3432A,120.9348,31.9883,南通市,环境教育馆,,24,24,27,8,11,65,,126,99,20,17,3,4,0.3,0.3
2025-09-11T2300,2404A,112.5224,33.0122,南阳市,瓦房庄,,27,12,12,7,6,84,,80,80,3,5,7,7,0.4,0.5
2025-09-11T2300,2405A,112.5003,32.9735,南阳市,汉画馆,,25,10,8,3,6,80,,74,74,4,7,7,8,0.5,0.6
2025-09-11T2300,2406A,112.5573,33.027,南阳市,气象站,,28,,6,3,1,88,,81,81,4,4,4,4,0.5,0.6
2025-09-11T2300,2407A,112.5481,32.9689,南阳市,理工学院,,27,13,9,6,7,84,,80,80,3,6,8,8,0.5,0.6
2025-09-11T2300,4008A,112.5234,32.9922,南阳市,卧龙区政府,,,6,2,3,5,,,75,75,6,8,6,6,0.5,0.7
2025-09-11T2300,1234A,121.8358,29.911,宁波市,区环保大楼,,38,32,39,14,16,119,,158,136,14,28,5,8,0.4,0.5
2025-09-11T2300,1235A,121.56,29.82,宁波市,万里学院,,31,31,30,18,18,96,,164,134,12,14,7,8,0.6,0.6
2025-09-11T2300,1236A,121.713,29.9572,宁波市,龙赛医院,,35,32,42,14,13,112,,149,128,11,20,5,7,0.4,0.4
2025-09-11T2300,1239A,121.633,29.7733,宁波市,钱湖水厂,,28,25,25,14,15,88,,152,128,6,6,6,6,0.6,0.6
2025-09-11T2300,1240A,121.5856,29.8635,宁波市,太古小学,,34,34,41,14,17,96,,162,135,10,18,2,4,0.6,0.7
2025-09-11T2300,1241A,121.524,29.8674,宁波市,市环境监测中心,,32,32,32,15,14,93,,169,138,11,22,7,9,0.6,0.7
2025-09-11T2300,2871A,121.6147,29.9017,宁波市,万里国际学校,,36,36,38,16,16,113,,175,148,8,21,4,8,0.5,0.6
2025-09-11T2300,3710A,121.5594,29.8975,宁波市,白沙活动中心,,33,28,32,14,15,103,,178,144,14,23,7,10,0.5,0.6
2025-09-11T2300,2339A,119.5001,26.6946,宁德市,金涵水库,,,,13,,6,,,42,,,3,,1,,0.4
2025-09-11T2300,2341A,119.5388,26.6612,宁德市,宁德市监测站,,19,14,17,12,9,60,,101,90,7,9,3,3,0.5,0.5
2025-09-11T2300,3209A,119.5231,26.6562,宁德市,宁德一中,,30,,17,21,8,51,,104,92,6,6,4,5,0.4,0.4
2025-09-11T2300,2618A,98.8601,25.8567,怒江傈僳族自治州,州监测站,,28,28,23,18,13,19,,67,50,13,8,6,6,0.5,0.4
2025-09-11T2300,2619A,98.8546,25.8417,怒江傈僳族自治州,泸水一中,,23,,19,16,11,10,,53,35,15,10,4,4,0.6,0.5
2025-09-11T2300,1888A,101.6891,26.571,攀枝花市,弄弄坪,,32,32,41,14,17,17,,58,40,18,21,2,14,0.7,0.8
2025-09-11T2300,1889A,101.5769,26.5928,攀枝花市,河门口,,27,27,26,11,12,35,,68,52,12,14,11,18,0.7,1.1
2025-09-11T2300,1890A,101.7169,26.585,攀枝花市,炳草岗,,30,30,42,13,18,5,,59,36,34,24,6,19,0.9,0.8
2025-09-11T2300,1891A,101.7369,26.5008,攀枝花市,仁和,,21,21,20,12,11,10,,51,30,12,12,7,8,0.7,0.6
2025-09-11T2300,2835A,101.7227,26.567,攀枝花市,四十中小,,24,24,34,11,18,6,,60,40,38,18,12,40,1.2,1.1
2025-09-11T2300,1604A,122.0303,41.1489,盘锦市,开发区,,30,28,37,12,29,94,,158,,15,18,8,10,0.5,0.6
2025-09-11T2300,1605A,122.0485,41.0883,盘锦市,兴隆台,,29,29,40,13,22,87,,159,130,30,26,8,8,0.3,0.4
2025-09-11T2300,1606A,121.8297,41.1028,盘锦市,新生街道,,26,22,31,6,17,81,,150,119,17,29,5,6,0.4,0.5
2025-09-11T2300,1832A,113.3257,33.742,平顶山市,新华旅馆,,28,12,11,10,13,88,,86,86,6,9,4,4,0.3,0.4
2025-09-11T2300,1833A,113.2919,33.737,平顶山市,规划设计院,,28,10,9,6,6,89,,86,86,6,10,4,4,0.4,0.6
2025-09-11T2300,1834A,113.182,33.774,平顶山市,平顶山工学院,,28,10,8,7,4,89,,89,89,8,12,5,5,0.3,0.4
2025-09-11T2300,3204A,113.3025,33.73,平顶山市,规划局,,29,7,10,6,6,90,,86,86,6,9,4,3,0.4,0.5
2025-09-11T2300,3594A,112.8867,33.9116,平顶山市,石龙区,,28,9,8,9,6,88,,89,88,8,9,4,4,0.4,0.5
2025-09-11T2300,2656A,106.6692,35.5461,平凉市,聚贤嘉苑,,29,29,28,16,17,58,,66,64,13,12,20,21,0.8,0.8
2025-09-11T2300,2657A,106.7021,35.5307,平凉市,博物馆,,34,34,36,13,12,22,,64,56,45,15,8,8,0.7,0.6
2025-09-11T2300,2347A,114.0997,27.5002,萍乡市,武功山,,7,7,7,3,4,15,,52,33,3,3,10,11,0.4,0.4
2025-09-11T2300,2348A,113.8385,27.6434,萍乡市,中医院,,42,30,18,29,13,28,,76,53,17,10,42,9,0.9,0.7
2025-09-11T2300,2349A,113.8493,27.6253,萍乡市,市政府车库,,28,27,18,19,16,14,,74,46,24,9,22,14,2.6,1.2
2025-09-11T2300,2350A,113.8676,27.6435,萍乡市,市环保局,,30,25,21,21,15,16,,74,49,22,8,43,12,0.5,0.4
2025-09-11T2300,2351A,113.866,27.6198,萍乡市,安源区政府,,21,21,23,8,17,19,,70,48,24,10,15,13,0.6,0.7
2025-09-11T2300,2319A,119.0141,25.4325,莆田市,荔城区仓后路,,29,29,27,18,13,55,,114,82,18,11,9,8,0.6,0.6
2025-09-11T2300,2320A,119.0015,25.4553,莆田市,莆田市监测站,,33,32,23,23,11,43,,113,78,14,9,6,6,0.5,0.5
2025-09-11T2300,2321A,119.1119,25.4561,莆田市,涵江区六中,,33,31,23,23,11,54,,114,82,28,11,8,6,0.4,0.4
2025-09-11T2300,2322A,119.1013,25.3215,莆田市,秀屿区政府,,28,14,23,9,15,87,,106,91,12,10,8,6,0.4,0.4
2025-09-11T2300,2323A,118.981,25.4792,莆田市,东圳水库,,,,18,,7,,,74,,,6,,5,,0.7
2025-09-11T2300,2392A,115.0312,35.7636,濮阳市,环保局,,23,,43,15,31,71,,72,68,13,20,4,6,0.5,0.7
2025-09-11T2300,2394A,115.0574,35.7609,濮阳市,油田运输公司,,31,31,55,16,29,79,,80,79,12,19,3,6,0.7,0.8
2025-09-11T2300,3021A,115,35.7668,濮阳市,濮水河管理处,,24,24,44,15,25,45,,48,36,16,19,4,4,0.6,0.6
2025-09-11T2300,4216A,115.0924,35.7686,濮阳市,任丘路479号,,30,30,60,19,32,74,,72,70,10,20,4,8,0.7,0.8
2025-09-11T2300,2601A,100.98,22.7633,普洱市,市环保局,,40,,21,28,17,25,,37,32,2,4,6,6,0.5,0.5
2025-09-11T2300,2602A,100.9817,22.8322,普洱市,普洱第二中学,,27,27,23,16,11,25,,40,35,4,7,6,6,0.4,0.4
2025-09-11T2300,2262A,131.0518,45.8751,七台河市,新一中,,17,17,12,8,7,41,,74,64,20,11,10,10,1.2,0.9
2025-09-11T2300,3345A,131.0577,45.7879,七台河市,中波台,,13,8,21,8,6,39,,47,44,15,19,7,7,0.6,0.6
2025-09-11T2300,3637A,131.0176,45.7761,七台河市,人民广场,,22,12,22,3,8,70,,75,74,6,13,11,12,0.5,0.5
2025-09-11T2300,3684A,130.8781,45.8222,七台河市,新建矿广场,,19,14,20,13,11,40,,57,48,18,15,13,10,0.8,0.5
2025-09-11T2300,1779A,123.9305,47.3636,齐齐哈尔市,安居小区,,28,28,25,12,6,65,,48,45,8,18,5,4,0.5,0.5
2025-09-11T2300,1780A,123.9488,47.3386,齐齐哈尔市,中心广场,,25,25,21,9,6,70,,58,58,7,15,6,5,0.4,0.4
2025-09-11T2300,1781A,123.9483,47.3227,齐齐哈尔市,农牧车辆厂,,27,27,27,6,10,62,,56,48,6,16,4,4,0.4,0.5
2025-09-11T2300,1783A,123.945,47.2988,齐齐哈尔市,市环境监测站,,21,18,18,10,5,67,,57,53,7,12,5,6,0.4,0.3
2025-09-11T2300,3662A,123.6333,47.2075,齐齐哈尔市,富区青少年活动中心,,21,21,25,12,6,50,,58,55,6,9,5,5,0.4,0.3
2025-09-11T2300,2591A,107.9783,26.5747,黔东南苗族侗族自治州,市环境监测站,,19,,11,13,13,42,,53,48,4,6,2,2,0.4,0.5
2025-09-11T2300,2881A,107.8908,26.5311,黔东南苗族侗族自治州,凯里学院,,,,5,3,6,,,59,56,6,9,6,6,0.4,0.4
2025-09-11T2300,2593A,107.5228,26.2403,黔南布依族苗族自治州,小围寨,,12,9,8,3,3,37,,52,46,4,4,3,2,0.3,0.3
2025-09-11T2300,3538A,107.5175,26.2978,黔南布依族苗族自治州,沙坝,,14,14,12,7,5,35,,58,46,4,5,3,3,0.1,0.2
2025-09-11T2300,2589A,104.9022,25.0925,黔西南布依族苗族自治州,场坝街,,14,14,15,3,6,41,,46,43,5,5,6,5,0.4,0.4
2025-09-11T2300,2590A,104.8811,25.0992,黔西南布依族苗族自治州,坪东大道,,37,37,21,8,9,32,,46,38,8,5,2,2,0.6,0.5
2025-09-11T2300,2502A,108.6236,21.9667,钦州市,市环保站,,31,31,16,17,7,26,,56,45,28,12,5,3,0.7,0.5
2025-09-11T2300,2503A,108.6549,21.9481,钦州市,沙埠小学,颗粒物(PM10),53,56,21,20,11,4,,56,39,45,13,6,3,1.0,0.6
2025-09-11T2300,2504A,108.5989,21.7431,钦州市,港区一小,,42,42,27,10,10,2,,33,23,57,25,6,4,0.8,0.7
2025-09-11T2300,3404A,108.5959,21.9633,钦州市,北职校,,40,40,17,12,10,4,,55,33,41,12,4,3,0.8,0.6
2025-09-11T2300,1043A,119.7493,40.0116,秦皇岛市,第一关,,49,42,56,18,23,9,,148,108,98,46,6,6,0.3,0.4
2025-09-11T2300,1044A,119.5897,39.9499,秦皇岛市,监测站,,48,43,47,11,13,7,,142,115,95,31,6,6,0.6,0.5
2025-09-11T2300,1046A,119.5251,39.9041,秦皇岛市,建设大厦,,49,49,63,14,13,24,,138,106,73,24,5,8,0.4,0.5
2025-09-11T2300,3132A,119.610547,39.943889,秦皇岛市,文明里,,42,42,54,11,15,45,,135,116,60,28,6,8,0.3,0.4
2025-09-11T2300,4198A,119.5090,39.8253,秦皇岛市,北戴河轮滑馆,,43,37,53,12,19,136,,132,131,6,16,3,2,0.5,0.7
2025-09-11T2300,1307A,120.6659,36.2403,青岛市,仰口,,35,31,21,17,9,111,,111,111,5,8,11,11,0.8,0.6
2025-09-11T2300,1310A,120.4134,36.0658,青岛市,市南区东部子站,,46,34,20,17,11,146,,146,146,4,3,7,7,0.3,0.3
2025-09-11T2300,1311A,120.3664,36.1032,青岛市,四方区子站,,44,44,31,19,12,132,,138,138,3,4,5,5,0.3,0.2
2025-09-11T2300,1312A,120.2994,36.054,青岛市,市南区西部子站,,47,34,21,12,9,149,,136,136,8,10,6,6,0.6,0.5
2025-09-11T2300,1313A,120.4581,36.0858,青岛市,崂山区子站,,44,27,18,14,7,138,,142,142,2,3,8,8,0.2,0.2
2025-09-11T2300,1315A,120.3999,36.3083,青岛市,城阳区子站,,41,41,33,20,13,110,,120,119,16,21,4,4,0.5,0.4
2025-09-11T2300,1966A,120.0405,35.8735,青岛市,黄岛区4号,,,,,,,,,,,,,,,,
2025-09-11T2300,3362A,120.5014,36.4034,青岛市,即墨2号,,40,38,23,22,12,127,,130,128,7,8,4,4,0.3,0.2
2025-09-11T2300,3642A,120.3503,36.0736,青岛市,市北区南部,,39,38,22,17,10,122,,129,129,7,6,6,6,0.7,0.6
2025-09-11T2300,3643A,120.3948,36.1805,青岛市,李沧区北部,,39,39,22,19,14,80,,114,108,24,14,5,5,0.4,0.3
2025-09-11T2300,4290A,120.1969,35.9546,青岛市,珠江路669号,,41,29,19,17,11,131,,128,128,6,7,7,6,0.4,0.3
2025-09-11T2300,1702A,113.0426,23.691,清远市,环保大楼,,47,47,38,19,18,106,,160,149,18,14,8,13,0.7,0.6
2025-09-11T2300,1703A,113.0208,23.7106,清远市,凤城街办,,34,29,27,18,19,108,,161,149,20,16,7,9,0.5,0.5
2025-09-11T2300,3025A,113.0477,23.6344,清远市,技师学院,,24,20,30,12,17,76,,166,148,19,18,7,10,0.4,0.4
2025-09-11T2300,3318A,112.9903,23.7403,清远市,清新太和,,39,25,31,15,19,122,,153,144,14,16,3,4,0.5,0.5
2025-09-11T2300,3455A,113.076,23.7198,清远市,清城东城,,36,28,28,13,18,113,,152,140,14,13,7,8,0.6,0.7
2025-09-11T2300,2661A,107.6325,35.7357,庆阳市,庆阳五中,,19,19,17,7,8,50,,58,44,5,6,7,7,0.5,0.5
2025-09-11T2300,2662A,107.6364,35.7067,庆阳市,市环保局,,18,13,16,12,14,54,,61,49,5,6,3,3,0.6,0.6
2025-09-11T2300,1916A,103.7897,25.5035,曲靖市,环境监测站,,23,23,18,8,7,40,,75,64,11,8,5,5,0.4,0.4
2025-09-11T2300,1917A,103.8,25.5364,曲靖市,烟厂办公区,,25,22,16,17,10,43,,66,60,10,6,4,4,0.5,0.4
2025-09-11T2300,3376A,103.7947,25.462,曲靖市,南苑二区,,19,19,13,11,7,42,,64,57,10,6,4,4,0.6,0.6
2025-09-11T2300,3377A,103.7444,25.5261,曲靖市,曲靖师范学院,,22,22,13,12,8,44,,69,63,11,6,2,2,0.4,0.3
2025-09-11T2300,1264A,118.8692,28.9398,衢州市,环保大楼,,21,21,21,10,11,23,,93,53,22,13,4,4,0.3,0.3
2025-09-11T2300,1265A,118.8709,28.9666,衢州市,实验学校,,19,16,17,7,11,12,,93,56,37,13,6,5,0.3,0.3
2025-09-11T2300,1266A,118.8621,28.9808,衢州市,衢州学院,,20,15,17,8,10,10,,91,54,40,15,4,4,0.3,0.3
2025-09-11T2300,1611A,118.5819,24.9117,泉州市,涂山街,,22,19,27,15,17,41,,145,96,23,14,4,3,0.5,0.5
2025-09-11T2300,1612A,118.5972,24.8978,泉州市,津头埔,,,,28,,17,,,140,101,18,12,4,4,0.4,0.4
2025-09-11T2300,1613A,118.6663,24.9424,泉州市,万安,,21,18,28,13,16,66,,132,98,11,11,2,2,0.4,0.5
2025-09-11T2300,1614A,118.6117,24.9604,泉州市,清源山,,,,24,,13,,,100,,,5,,2,,0.4
2025-09-11T2300,3529A,118.6333,24.9264,泉州市,城华南路,,28,28,26,18,15,54,,131,84,13,12,3,3,0.4,0.4
2025-09-11T2300,2626A,88.8876,29.2718,日喀则市,日喀则监测站,,28,15,5,3,1,87,,111,100,7,4,12,12,0.3,0.2
2025-09-11T2300,3726A,88.8781,29.2426,日喀则市,林业技术推广中心,,24,10,7,3,1,74,,,,2,2,5,9,0.1,0.3
2025-09-11T2300,1659A,119.471,35.4209,日照市,监测站,,28,19,18,13,13,87,,110,102,22,25,7,6,0.5,0.6
2025-09-11T2300,1660A,119.523,35.4216,日照市,市政府广场,,38,22,14,3,6,119,,118,118,7,6,4,5,0.6,0.6
2025-09-11T2300,1661A,119.5587,35.4044,日照市,港务局,,39,17,14,15,17,122,,121,121,2,4,3,3,0.5,0.6
2025-09-11T2300,3507A,119.5328,35.4625,日照市,职业技术学院,,38,12,18,3,7,119,,114,114,2,5,4,5,0.6,0.6
2025-09-11T2300,3604A,119.3266,35.1044,日照市,岚山环保分局,,38,12,18,3,3,121,,109,109,4,10,6,7,0.5,0.5
2025-09-11T2300,1835A,111.1922,34.7752,三门峡市,市政府,,26,13,13,6,10,83,,97,93,12,9,6,6,0.3,0.4
2025-09-11T2300,1836A,111.1587,34.7942,三门峡市,开发区,,25,9,12,6,10,77,,86,84,14,12,4,4,0.3,0.4
2025-09-11T2300,1838A,111.143,34.7955,三门峡市,风景区,,25,7,8,3,6,78,,93,91,13,7,4,4,0.5,0.6
2025-09-11T2300,3039A,111.1911,34.7829,三门峡市,三门峡市第一小学,,26,11,14,3,6,83,,94,92,6,6,6,6,0.4,0.5
2025-09-11T2300,3598A,111.1,34.7167,三门峡市,富达温泉假日酒店,,25,13,12,3,7,80,,88,85,9,11,5,6,0.2,0.4
2025-09-11T2300,2324A,117.6211,26.2625,三明市,三钢,,14,14,16,3,12,27,,100,69,16,10,12,5,0.5,0.9
2025-09-11T2300,2325A,117.635,26.2714,三明市,三明二中,,13,,18,9,6,27,,90,64,10,8,2,4,0.8,0.8
2025-09-11T2300,2326A,117.6028,26.2378,三明市,三元区政府,,,20,12,11,5,,,92,72,9,8,2,4,0.5,0.5
2025-09-11T2300,2327A,117.7275,26.3108,三明市,洋溪,,,,12,,6,,,51,,,7,,8,,0.9
2025-09-11T2300,1876A,109.5078,18.2489,三亚市,河东子站,,32,32,17,8,10,25,,43,40,7,7,2,2,0.5,0.5
2025-09-11T2300,1877A,109.4964,18.2681,三亚市,河西子站,,15,15,15,8,7,23,,42,36,11,6,3,3,0.5,0.5
2025-09-11T2300,3540A,109.7348,18.3443,三亚市,君悦子站,,12,6,1,3,4,37,,47,43,3,4,3,3,0.3,0.4
2025-09-11T2300,2624A,91.7608,29.2313,山南市,山南监测站,,28,6,4,3,2,88,,92,92,3,7,3,3,0.3,0.2
2025-09-11T2300,2625A,91.7706,29.2436,山南市,山南人民医院,,27,8,7,6,4,85,,92,92,2,6,3,3,0.3,0.3
2025-09-11T2300,1674A,116.6794,23.3667,汕头市,金平子站,,20,,23,6,10,64,,93,75,6,14,2,3,0.5,0.6
2025-09-11T2300,1675A,116.7244,23.3633,汕头市,龙湖子站,,18,15,20,3,8,56,,86,72,11,10,7,9,0.6,0.6
2025-09-11T2300,1676A,116.7258,23.2775,汕头市,濠江子站,,16,,21,10,9,49,,82,67,11,9,5,7,0.6,0.7
2025-09-11T2300,1677A,116.7519,23.4714,汕头市,澄海子站,,20,,22,12,13,61,,85,71,6,12,3,6,0.6,0.7
2025-09-11T2300,1678A,116.6092,23.2539,汕头市,潮阳子站,,18,13,23,3,10,57,,79,64,7,8,5,7,0.5,0.6
2025-09-11T2300,3444A,116.454,23.2684,汕头市,潮南峡山,,26,26,26,16,17,44,,97,66,9,9,6,7,0.5,0.6
2025-09-11T2300,3624A,116.4069,23.2533,汕头市,潮南子站,,,8,15,6,16,,,90,66,7,9,4,5,,0.7
2025-09-11T2300,1693A,115.3653,22.775,汕尾市,市环保局,,17,11,11,3,5,52,,63,62,10,8,3,3,0.4,0.4
2025-09-11T2300,1694A,115.3706,22.7898,汕尾市,市政府,,16,13,10,11,5,51,,64,62,10,7,4,4,0.4,0.4
2025-09-11T2300,1695A,115.3622,22.7925,汕尾市,新城中学,,16,16,14,9,6,46,,64,62,10,7,5,5,0.5,0.4
2025-09-11T2300,2645A,109.9154,33.8715,商洛市,监测站,,19,,15,6,9,60,,40,40,6,15,3,4,0.6,0.7
2025-09-11T2300,3045A,109.9643,33.8471,商洛市,商州区中学,,19,19,16,9,9,19,,32,24,30,22,12,7,0.6,0.6
2025-09-11T2300,2408A,115.6702,34.4285,商丘市,环境监测站,,31,6,20,3,12,97,,104,101,3,7,3,3,0.4,0.5
2025-09-11T2300,2409A,115.6458,34.4045,商丘市,粮食局,,29,6,18,3,5,92,,102,99,6,8,4,4,0.2,0.2
2025-09-11T2300,2410A,115.6293,34.3948,商丘市,睢阳区环保局,,30,12,24,3,12,94,,102,100,4,6,4,4,0.2,0.3
2025-09-11T2300,3171A,115.6071,34.4465,商丘市,梁园区档案局,,,,23,,15,,,79,,,9,,5,,0.4
2025-09-11T2300,1141A,121.4,31.238,上海市,普陀,,28,25,32,10,13,87,,142,107,14,19,5,5,0.5,0.5
2025-09-11T2300,1142A,121.478,31.2036,上海市,十五厂,,32,32,30,10,14,78,,142,103,18,13,8,8,0.8,0.8
2025-09-11T2300,1143A,121.467,31.3008,上海市,虹口,,25,21,30,6,14,79,,125,94,12,14,5,6,0.2,0.2
2025-09-11T2300,1147A,121.425,31.2261,上海市,静安监测站,,35,35,39,10,13,90,,148,112,15,17,4,4,0.7,0.5
2025-09-11T2300,1148A,121.703,31.1907,上海市,浦东川沙,,34,34,28,11,12,55,,109,83,33,13,7,7,0.7,0.6
2025-09-11T2300,1149A,121.533,31.2284,上海市,浦东新区监测站,,29,29,27,16,23,82,,130,102,13,13,4,5,0.6,0.6
2025-09-11T2300,1150A,121.577,31.2071,上海市,浦东张江,,,31,29,11,13,,,133,,19,20,6,6,0.7,0.7
2025-09-11T2300,3265A,121.4316,31.3322,上海市,宝山庙行,,27,27,31,9,13,85,,118,92,15,22,8,9,0.4,0.5
2025-09-11T2300,3266A,121.8791,31.4662,上海市,崇明上实东滩,,26,26,21,15,13,72,,119,97,3,4,4,4,0.4,0.4
2025-09-11T2300,3268A,121.3162,31.2838,上海市,嘉定南翔,,24,23,32,11,15,76,,133,93,20,24,4,5,0.2,0.3
2025-09-11T2300,3269A,121.3359,30.7456,上海市,金山新城,,42,27,32,15,16,132,,137,127,6,14,5,5,0.7,0.8
2025-09-11T2300,3270A,121.4996,31.0739,上海市,闵行浦江,,30,30,30,11,12,78,,145,108,14,12,5,4,1.3,1.1
2025-09-11T2300,3271A,121.2886,31.1663,上海市,青浦徐泾,,30,30,30,6,11,81,,166,129,13,14,7,8,0.6,0.6
2025-09-11T2300,3272A,121.2186,31.0378,上海市,松江图书馆,,26,24,27,7,15,81,,164,124,20,20,4,5,0.6,0.6
2025-09-11T2300,3273A,121.3902,31.2059,上海市,长宁仙霞,,26,26,31,10,12,79,,138,101,15,17,7,8,0.5,0.5
2025-09-11T2300,3274A,121.7965,31.0507,上海市,浦东惠南,,40,40,33,9,12,67,,137,99,20,14,6,6,0.8,0.8
2025-09-11T2300,3544A,121.4891,30.925,上海市,奉贤南桥新城,,27,26,35,14,18,84,,149,120,22,14,5,6,0.6,0.6
2025-09-11T2300,4183A,121.4174,31.16637,上海市,冠生园路458号,,,25,27,,14,72,,131,103,18,16,4,4,,0.6
2025-09-11T2300,4205A,121.5419,31.2683,上海市,宁武路151号,,26,26,32,12,16,76,,120,94,19,22,4,4,0.5,0.5
2025-09-11T2300,2381A,118.005,28.4572,上饶市,百草园,,,,,,,,,,,,,,,,
2025-09-11T2300,2382A,117.9756,28.4436,上饶市,市监测站,,23,23,22,9,10,49,,89,60,10,8,6,6,0.3,0.3
2025-09-11T2300,2383A,117.9519,28.4628,上饶市,凤凰光学,,25,25,25,11,13,44,,86,55,11,10,14,10,0.2,0.2
2025-09-11T2300,3685A,117.897,28.4315,上饶市,双创科技城,,19,19,20,8,11,43,,85,57,16,15,8,8,0.4,0.4
2025-09-11T2300,4211A,118.1904,28.4448,上饶市,裕丰大道,,23,23,21,16,9,34,,87,54,11,12,6,4,0.5,0.5
2025-09-11T2300,1669A,113.5824,24.7733,韶关市,市八中,,24,24,28,12,13,58,,96,85,15,10,13,11,0.7,0.7
