timepoint,stationcode,longitude,latitude,area,positionname,primarypollutant,aqi,pm10,pm10_24h,pm2_5,pm2_5_24h,o3,o3_24h,o3_8h,o3_8h_24h,no2,no2_24h,so2,so2_24h,co,co_24h
2023-08-23T13:00:00,1001A,116.3621,39.8784,北京市,万寿西宫,,41,19,17,4,6,129,129,79,79,9,19,2,2,0.2,0.3
2023-08-23T13:00:00,1002A,116.2202,40.2915,北京市,定陵,,29,8,12,4,3,107,91,74,74,6,8,3,3,0.3,0.3
2023-08-23T13:00:00,1003A,116.4174,39.9289,北京市,东四,,38,17,19,6,6,122,120,82,76,10,18,2,2,0.3,0.4
2023-08-23T13:00:00,1004A,116.4072,39.8863,北京市,天坛,,39,21,17,6,6,123,122,71,71,8,20,3,3,0.4,0.3
2023-08-23T13:00:00,1005A,116.462,39.9365,北京市,农展馆,,34,20,18,7,6,115,106,80,58,4,24,4,3,0.2,0.3
2023-08-23T13:00:00,1006A,116.3392,39.9295,北京市,官园,,41,17,18,5,6,130,130,82,82,8,20,5,4,0.4,0.4
2023-08-23T13:00:00,1007A,116.2878,39.9611,北京市,海淀万柳,,37,15,19,6,6,118,118,66,66,11,30,3,3,0.3,0.3
2023-08-23T13:00:00,1008A,116.6636,40.135,北京市,顺义新城,,43,15,21,5,6,135,135,68,68,12,24,1,2,0.1,0.2
2023-08-23T13:00:00,1009A,116.6275,40.3275,北京市,怀柔镇,,40,16,12,8,6,126,126,74,74,10,10,3,3,0.2,0.2
2023-08-23T13:00:00,1010A,116.2296,40.217,北京市,昌平镇,,32,9,12,6,5,112,101,76,76,6,12,3,3,0.2,0.2
2023-08-23T13:00:00,1011A,116.3966,39.9821,北京市,奥体中心,,27,27,20,11,5,90,86,55,54,20,29,3,3,0.2,0.2
2023-08-23T13:00:00,1012A,116.184,39.9136,北京市,古城,,42,28,18,11,6,133,133,90,69,17,21,3,3,0.3,0.2
2023-08-23T13:00:00,1015A,117.1444,39.1661,天津市,勤俭道,臭氧1小时,103,23,28,6,9,206,206,104,104,11,34,7,7,0.5,0.5
2023-08-23T13:00:00,1017A,117.237,39.1082,天津市,大直沽八号路,,49,16,30,5,10,157,154,98,98,9,36,4,4,0.4,0.5
2023-08-23T13:00:00,1018A,117.202,39.0927,天津市,前进道,,50,17,24,7,9,157,157,96,96,10,35,6,6,0.3,0.6
2023-08-23T13:00:00,1019A,117.1837,39.2133,天津市,淮河道,臭氧1小时,75,15,25,6,10,180,180,95,95,11,41,4,4,0.5,0.6
2023-08-23T13:00:00,1021A,117.307,39.0877,天津市,跃进路,臭氧1小时,68,21,29,6,11,174,174,98,98,12,41,6,6,0.5,0.5
2023-08-23T13:00:00,1023A,117.707,39.0343,天津市,第四大街,臭氧1小时,60,18,18,5,5,168,168,101,101,10,36,8,7,0.5,0.6
2023-08-23T13:00:00,1024A,117.457,38.8394,天津市,永明路,臭氧1小时,70,16,22,5,7,176,176,110,110,6,30,7,7,0.4,0.4
2023-08-23T13:00:00,1026A,117.764,39.1587,天津市,汉北路,臭氧1小时,95,30,23,10,9,196,196,95,95,18,34,15,7,0.6,0.7
2023-08-23T13:00:00,1027A,117.157,38.9194,天津市,团泊洼,臭氧1小时,68,64,27,35,13,188,174,111,111,22,35,18,8,0.6,0.6
2023-08-23T13:00:00,1029A,114.4422,38.0444,石家庄市,职工医院,臭氧1小时,70,36,38,24,23,176,176,103,103,9,15,6,4,0.3,0.3
2023-08-23T13:00:00,1030A,114.6063,38.0266,石家庄市,高新区,,,,,,,,,,,,,,,,
2023-08-23T13:00:00,1031A,114.4898,38.1328,石家庄市,西北水源,臭氧1小时,73,33,36,16,16,178,178,103,103,12,16,3,2,0.5,0.4
2023-08-23T13:00:00,1032A,114.4586,38.0058,石家庄市,西南高教,臭氧1小时,69,40,36,17,14,175,175,104,104,10,16,3,3,0.4,0.4
2023-08-23T13:00:00,1033A,114.5331,38.0178,石家庄市,世纪公园,臭氧1小时,57,39,39,14,18,165,165,102,102,12,18,5,4,0.3,0.3
2023-08-23T13:00:00,1034A,114.509,38.0457,石家庄市,人民会堂,,,,41,,11,182,182,112,112,10,16,5,5,0.6,0.4
2023-08-23T13:00:00,1035A,114.3524,37.8911,石家庄市,封龙山,,,,37,,15,150,150,127,114,,13,,3,0.8,0.6
2023-08-23T13:00:00,1037A,118.131,39.6363,唐山市,雷达站,臭氧1小时,87,38,60,15,17,189,189,86,86,17,33,6,4,0.7,0.5
2023-08-23T13:00:00,1038A,118.1725,39.6334,唐山市,物资局,臭氧1小时,57,38,64,12,18,167,165,74,72,10,30,7,8,0.6,0.6
2023-08-23T13:00:00,1040A,118.1705,39.6506,唐山市,十二中,,,29,58,14,22,173,173,86,82,19,36,,5,0.7,0.6
2023-08-23T13:00:00,1041A,118.1869,39.622,唐山市,小山,臭氧1小时,63,33,67,11,13,172,170,74,74,6,27,4,3,0.6,0.6
2023-08-23T13:00:00,1042A,119.5134,39.8207,秦皇岛市,北戴河环保局,臭氧1小时,82,64,54,5,6,185,185,117,117,18,29,12,7,0.9,0.4
2023-08-23T13:00:00,1043A,119.7493,40.0116,秦皇岛市,第一关,,,,38,,10,170,170,76,76,18,44,6,3,0.7,0.3
2023-08-23T13:00:00,1044A,119.5897,39.9499,秦皇岛市,监测站,臭氧1小时,55,54,48,17,15,164,164,80,80,21,34,12,7,1.5,0.6
2023-08-23T13:00:00,1046A,119.5251,39.9041,秦皇岛市,建设大厦,臭氧1小时,54,32,62,10,15,163,163,69,69,13,35,7,5,1.1,0.5
2023-08-23T13:00:00,1048A,114.5302,36.6116,邯郸市,东污水处理厂,,,25,39,27,24,174,174,106,90,,17,8,11,0.7,1.1
2023-08-23T13:00:00,1049A,114.4918,36.5713,邯郸市,矿院,,,36,38,22,20,169,169,95,95,,23,4,11,0.5,0.9
2023-08-23T13:00:00,1050A,114.484,36.6133,邯郸市,丛台公园,臭氧1小时,75,24,39,18,16,180,180,102,96,8,13,11,13,0.4,0.8
2023-08-23T13:00:00,1051A,115.493,38.8632,保定市,游泳馆,,50,37,29,16,13,158,158,96,93,10,20,8,7,0.1,0.1
2023-08-23T13:00:00,1052A,115.5213,38.8959,保定市,华电二区,,49,27,30,6,10,154,154,87,87,7,19,9,7,0.2,0.2
2023-08-23T13:00:00,1053A,115.4713,38.9108,保定市,接待中心,,48,39,30,14,9,152,152,92,92,7,14,7,7,0.6,0.5
2023-08-23T13:00:00,1054A,115.4612,38.8416,保定市,地表水厂,,48,34,41,12,15,151,151,94,89,8,22,8,8,0.2,0.1
2023-08-23T13:00:00,1056A,115.5086,38.8639,保定市,监测站,臭氧1小时,52,33,32,12,11,161,161,93,93,7,20,8,5,0.2,0.2
2023-08-23T13:00:00,1057A,114.8883,40.8336,张家口市,人民公园,,30,10,12,2,3,116,96,63,63,4,8,2,2,0.1,0.1
2023-08-23T13:00:00,1059A,114.8687,40.8042,张家口市,五金库,,29,6,16,2,4,115,92,65,65,5,8,4,4,0.2,0.2
2023-08-23T13:00:00,1060A,114.8902,40.762,张家口市,世纪豪园,,30,10,15,18,21,115,95,66,66,5,12,2,2,0,0
2023-08-23T13:00:00,1061A,114.8916,40.8661,张家口市,北泵房,,31,3,13,2,6,118,99,67,67,2,5,7,6,0.2,0.2
2023-08-23T13:00:00,1062A,117.9531,40.9081,承德市,铁路,,33,14,20,5,8,105,104,39,39,20,27,9,9,0.3,0.3
2023-08-23T13:00:00,1063A,117.9392,40.9763,承德市,中国银行,,39,8,21,2,6,122,122,55,55,8,20,8,9,0.2,0.3
2023-08-23T13:00:00,1064A,117.9503,40.928,承德市,开发区,,39,25,25,6,11,122,122,58,58,11,21,6,7,0.3,0.3
2023-08-23T13:00:00,1065A,117.8051,40.9655,承德市,文化中心,,29,14,28,2,7,103,91,42,42,22,30,14,7,0.3,0.3
2023-08-23T13:00:00,1066A,117.9268,41.0026,承德市,离宫,,37,8,18,6,14,116,116,55,55,8,15,2,2,0.3,0.3
2023-08-23T13:00:00,1067A,116.6708,39.5111,廊坊市,药材公司,,46,27,34,6,8,146,146,97,97,10,20,2,1,0.2,0.2
2023-08-23T13:00:00,1068A,116.7214,39.5589,廊坊市,开发区,,,,20,,9,156,156,90,90,8,15,2,1,0.2,0.2
2023-08-23T13:00:00,1070A,116.7244,39.5269,廊坊市,北华航天学院,,49,45,29,9,8,154,154,102,102,7,20,3,2,0.3,0.3
2023-08-23T13:00:00,1071A,116.8842,38.2991,沧州市,沧县城建局,臭氧1小时,87,36,35,13,12,189,189,100,100,15,40,8,6,0.4,0.4
2023-08-23T13:00:00,1072A,116.8584,38.3254,沧州市,电视转播站,臭氧1小时,78,37,33,9,12,182,182,90,90,16,41,8,8,0.4,0.4
2023-08-23T13:00:00,1073A,116.8709,38.3228,沧州市,市环保局,,,35,40,25,17,184,184,84,84,26,53,,3,,0.3
2023-08-23T13:00:00,1074A,115.6838,37.7541,衡水市,电机北厂,,49,22,35,2,12,161,155,89,89,3,22,9,9,0.2,0.3
2023-08-23T13:00:00,1075A,115.6303,37.7316,衡水市,市监测站,,50,22,35,4,8,161,159,94,94,8,20,7,6,0.3,0.3
2023-08-23T13:00:00,1077A,114.4704,37.0886,邢台市,达活泉,臭氧1小时,89,59,48,29,16,191,191,112,112,6,9,10,7,0.5,0.4
2023-08-23T13:00:00,1078A,114.5062,37.0349,邢台市,邢师高专,臭氧1小时,77,53,51,28,21,181,181,106,106,10,19,12,8,0.5,0.4
2023-08-23T13:00:00,1079A,114.5237,37.0851,邢台市,路桥公司,臭氧1小时,68,43,44,28,20,179,174,100,100,8,14,9,8,0.5,0.6
2023-08-23T13:00:00,1080A,114.4725,37.0719,邢台市,市环保局,臭氧1小时,85,61,52,26,20,188,188,109,109,8,11,11,7,0.5,0.5
2023-08-23T13:00:00,1081A,112.522,37.8873,太原市,尖草坪,"颗粒物(PM10),臭氧1小时",57,64,41,31,14,165,165,91,91,19,25,8,7,0.8,0.6
2023-08-23T13:00:00,1083A,112.434,38.0108,太原市,上兰,,,,,,,,,,,,,,,,
2023-08-23T13:00:00,1084A,112.469,37.7124,太原市,晋源,,49,49,48,31,15,178,156,83,80,17,24,4,3,0.7,0.6
2023-08-23T13:00:00,1085A,112.5583,37.7394,太原市,小店,臭氧1小时,55,58,48,23,15,164,164,83,83,17,36,7,9,0.6,0.7
2023-08-23T13:00:00,1086A,112.5369,37.8692,太原市,桃园,臭氧1小时,55,55,39,35,16,164,164,79,79,16,30,7,7,0.7,0.7
2023-08-23T13:00:00,1087A,112.57,37.8195,太原市,坞城,臭氧1小时,60,60,40,27,15,171,168,85,85,14,31,8,10,0.6,0.7
2023-08-23T13:00:00,1088A,112.549,37.9854,太原市,南寨,颗粒物(PM10),53,56,49,27,17,159,136,67,67,35,32,21,5,1.6,0.6
2023-08-23T13:00:00,1090A,111.6507,40.7517,呼和浩特市,呼市一监,,27,27,16,9,7,116,53,59,56,21,17,6,6,0.5,0.5
2023-08-23T13:00:00,1091A,111.6572,40.8033,呼和浩特市,小召,,27,27,19,8,6,120,57,66,56,24,20,4,5,0.6,0.5
2023-08-23T13:00:00,1094A,111.7516,40.8369,呼和浩特市,如意水处理厂,,19,19,21,6,5,119,60,57,53,20,23,6,6,0.4,0.4
2023-08-23T13:00:00,1095A,111.7276,40.8062,呼和浩特市,二十九中,,20,19,23,9,7,123,61,59,56,23,23,7,6,0.5,0.5
2023-08-23T13:00:00,1096A,111.5512,40.7866,呼和浩特市,工大金川校区,,23,14,21,4,4,123,71,80,58,12,19,3,4,0.3,0.4
2023-08-23T13:00:00,1097A,111.717,40.7612,呼和浩特市,化肥厂生活区,,28,28,26,7,6,118,63,63,63,21,18,7,7,0.4,0.4
2023-08-23T13:00:00,1098A,123.6836,41.9339,沈阳市,森林路,,,,,,,,,,,,,,,,
2023-08-23T13:00:00,1099A,123.505,41.7406,沈阳市,浑南东路,,,23,31,7,12,132,127,62,62,14,31,,8,,0.9
2023-08-23T13:00:00,1100A,123.4231,41.6989,沈阳市,新秀街,,33,23,25,9,10,124,103,52,52,13,35,6,7,0.6,0.9
2023-08-23T13:00:00,1102A,123.5903,41.8411,沈阳市,东陵路,,29,11,28,7,10,110,92,44,44,8,19,6,7,0.3,0.5
2023-08-23T13:00:00,1103A,123.4264,41.8467,沈阳市,陵东街,,34,22,27,7,13,108,107,50,50,17,21,7,6,0.5,0.8
2023-08-23T13:00:00,1104A,123.4114,41.7653,沈阳市,文化路,,39,26,34,16,16,122,122,53,53,22,36,8,7,0.6,0.7
2023-08-23T13:00:00,1105A,123.4678,41.7867,沈阳市,小河沿,,38,19,28,7,14,120,120,50,50,21,31,7,5,0.6,0.8
2023-08-23T13:00:00,1106A,123.4017,41.7972,沈阳市,太原街,,39,34,39,10,18,123,123,50,50,15,41,9,7,0.6,0.8
2023-08-23T13:00:00,1108A,123.3783,41.9228,沈阳市,京沈街,,35,17,36,12,12,112,111,57,57,11,28,8,8,0.5,0.7
2023-08-23T13:00:00,1109A,121.612,38.9741,大连市,甘井子,,37,13,19,6,13,158,117,93,85,10,14,4,6,1.1,1.2
2023-08-23T13:00:00,1110A,121.565,38.9511,大连市,周水子,,36,13,17,6,12,146,115,82,77,12,23,5,5,0.4,0.5
2023-08-23T13:00:00,1111A,121.5637,38.8845,大连市,星海三站,,39,17,27,5,12,162,124,98,87,11,16,10,9,0.3,0.5
2023-08-23T13:00:00,1112A,121.6302,38.9117,大连市,青泥洼桥,,36,14,26,8,13,151,114,94,78,13,17,5,7,0.6,0.9
2023-08-23T13:00:00,1113A,121.6251,38.8638,大连市,傅家庄,,,12,21,5,13,162,122,88,88,,14,10,10,0.6,0.9
2023-08-23T13:00:00,1114A,121.5213,38.8661,大连市,七贤岭,,44,24,26,6,12,174,138,118,100,10,12,7,7,0.4,0.4
2023-08-23T13:00:00,1115A,121.2529,38.8061,大连市,旅顺,,,12,16,6,11,156,126,117,96,8,11,,5,,0.4
2023-08-23T13:00:00,1116A,121.7485,39.1311,大连市,金州,,38,14,22,8,16,146,121,82,82,13,15,10,12,0.7,0.8
2023-08-23T13:00:00,1117A,121.7811,39.0496,大连市,开发区,,38,24,28,8,16,173,119,99,88,12,15,10,11,0.7,0.9
2023-08-23T13:00:00,1118A,121.9762,39.0631,大连市,双D港,,44,19,28,7,17,175,140,103,96,19,15,11,10,0.6,0.6
2023-08-23T13:00:00,1119A,125.3325,43.9166,长春市,食品厂,,25,16,29,6,11,99,80,45,45,12,38,4,4,0.3,0.5
2023-08-23T13:00:00,1120A,125.2863,43.9027,长春市,客车厂,,25,9,25,5,11,101,80,46,46,10,34,4,4,0.3,0.5
2023-08-23T13:00:00,1121A,125.2841,43.8463,长春市,邮电学院,,28,14,25,7,8,105,89,48,48,6,27,5,5,0.3,0.4
2023-08-23T13:00:00,1122A,125.3716,43.8772,长春市,劳动公园,,29,22,26,7,7,109,92,46,46,10,28,6,6,0.2,0.4
2023-08-23T13:00:00,1123A,125.3297,43.8805,长春市,园林处,,26,10,25,4,6,87,83,47,47,8,35,4,4,0.3,0.5
2023-08-23T13:00:00,1124A,125.4605,43.79,长春市,净月潭,,27,8,15,4,5,115,86,42,42,7,11,5,5,0.3,0.3
2023-08-23T13:00:00,1125A,125.7194,43.515,长春市,甩湾子,,,,,,,,,,,,,,,,
2023-08-23T13:00:00,1126A,125.3863,43.8447,长春市,经开区环卫处,,28,19,29,5,8,103,88,38,38,13,31,5,4,0.3,0.4
2023-08-23T13:00:00,1127A,125.245,43.7783,长春市,高新区管委会,,27,11,21,6,7,101,84,40,40,5,26,3,4,0.3,0.4
2023-08-23T13:00:00,1128A,125.1761,43.8325,长春市,岱山公园,,25,8,28,5,8,99,78,46,46,4,31,3,4,0.2,0.4
2023-08-23T13:00:00,1129A,126.5422,45.755,哈尔滨市,岭北,,27,0,7,3,4,110,85,76,67,5,8,15,16,0.2,0.1
2023-08-23T13:00:00,1130A,126.561,45.8167,哈尔滨市,松北商大,,20,10,16,2,5,81,64,45,45,4,10,6,6,0.4,0.4
2023-08-23T13:00:00,1131A,126.979,45.5419,哈尔滨市,阿城会宁,,23,17,19,8,9,107,73,53,53,7,9,5,4,0.5,0.5
2023-08-23T13:00:00,1132A,126.599,45.7222,哈尔滨市,南岗学府路,,22,18,22,5,6,95,70,47,47,3,9,5,5,0.5,0.5
2023-08-23T13:00:00,1133A,126.689,45.7733,哈尔滨市,太平宏伟公园,,23,13,16,5,4,93,71,47,47,6,16,7,8,0.4,0.4
2023-08-23T13:00:00,1134A,126.635,45.7667,哈尔滨市,道外承德广场,,23,6,15,4,2,93,71,52,46,9,20,6,6,0.3,0.2
2023-08-23T13:00:00,1135A,126.685,45.7319,哈尔滨市,香坊红旗大街,,23,14,21,1,8,96,72,45,45,8,26,8,8,0.5,0.6
2023-08-23T13:00:00,1136A,126.6411,45.7258,哈尔滨市,动力和平路,,,16,19,,,95,70,44,44,9,20,6,7,0.3,0.4
2023-08-23T13:00:00,1137A,126.593,45.7478,哈尔滨市,道里建国路,,,20,21,7,12,87,67,46,44,,38,4,5,0.3,0.4
2023-08-23T13:00:00,1138A,126.615,45.61,哈尔滨市,平房东轻厂,,21,10,14,8,5,98,66,44,44,4,13,6,6,0.2,0.2
2023-08-23T13:00:00,1139A,126.595,45.9855,哈尔滨市,呼兰师专,,20,2,12,5,3,78,61,53,47,7,11,6,6,0.4,0.4
2023-08-23T13:00:00,1140A,126.6206,45.6842,哈尔滨市,省农科院,,23,21,21,4,4,100,73,49,49,5,21,7,10,0.3,0.4
2023-08-23T13:00:00,1141A,121.4,31.238,上海市,普陀,,34,10,33,13,26,192,108,87,87,18,24,5,5,0.8,0.9
2023-08-23T13:00:00,1142A,121.478,31.2036,上海市,十五厂,,37,10,32,6,27,201,118,99,99,14,23,9,11,0.5,0.7
2023-08-23T13:00:00,1143A,121.467,31.3008,上海市,虹口,,35,4,33,9,25,186,109,83,83,13,29,5,7,0.5,0.8
2023-08-23T13:00:00,1144A,121.412,31.1654,上海市,徐汇上师大,,39,12,39,25,30,188,124,97,97,15,26,5,5,0.9,0.9
2023-08-23T13:00:00,1145A,121.536,31.2659,上海市,杨浦四漂,,38,5,30,12,26,226,120,97,97,12,20,5,7,0.8,0.9
2023-08-23T13:00:00,1147A,121.425,31.2261,上海市,静安监测站,,,10,31,17,26,195,120,99,99,16,23,,3,0.7,0.8
2023-08-23T13:00:00,1148A,121.703,31.1907,上海市,浦东川沙,,42,11,32,11,29,202,133,95,95,12,24,6,7,0.6,0.8
2023-08-23T13:00:00,1149A,121.533,31.2284,上海市,浦东新区监测站,,35,8,33,8,25,222,112,94,94,14,20,5,7,0.6,0.9
2023-08-23T13:00:00,1150A,121.577,31.2071,上海市,浦东张江,,36,9,33,13,27,209,114,86,86,14,21,6,6,0.7,1
2023-08-23T13:00:00,1151A,118.8086,32.1065,南京市,迈皋桥,,46,35,33,17,22,146,146,98,98,7,18,4,4,0.4,0.5
2023-08-23T13:00:00,1152A,118.7538,32.0551,南京市,草场门,,,,37,,24,154,154,98,98,10,24,2,4,0.5,0.8
2023-08-23T13:00:00,1153A,118.7794,32.0745,南京市,山西路,臭氧1小时,57,46,42,14,21,165,165,119,119,7,17,4,4,0.2,0.4
2023-08-23T13:00:00,1154A,118.7752,32.0023,南京市,中华门,,,,32,,22,155,155,105,105,,24,4,8,0.7,1
2023-08-23T13:00:00,1155A,118.8109,32.0309,南京市,瑞金路,,48,34,37,14,24,153,153,107,107,7,20,6,8,0.3,0.4
2023-08-23T13:00:00,1156A,118.7997,32.0754,南京市,玄武湖,,48,39,33,16,20,153,153,104,104,6,19,5,7,0.3,0.6
2023-08-23T13:00:00,1157A,118.6414,32.0931,南京市,浦口,臭氧1小时,80,53,33,22,20,184,184,132,132,15,11,6,5,0.9,0.6
2023-08-23T13:00:00,1158A,118.7356,31.9996,南京市,奥体中心,臭氧1小时,59,41,35,22,25,167,167,116,116,7,16,8,8,0.5,0.6
2023-08-23T13:00:00,1159A,118.9125,32.1028,南京市,仙林大学城,,50,29,34,17,20,160,160,115,115,4,17,8,9,0.6,0.7
2023-08-23T13:00:00,1160A,120.561,31.2472,苏州市,上方山,,33,31,34,18,19,106,105,58,58,13,15,6,12,0.5,0.7
2023-08-23T13:00:00,1162A,120.591,31.3019,苏州市,彩香,,41,8,34,6,25,131,131,93,93,4,22,6,8,0.7,1
2023-08-23T13:00:00,1163A,120.596,31.3264,苏州市,轧钢厂,,41,9,38,5,26,131,130,91,91,6,24,9,10,0.7,1
2023-08-23T13:00:00,1164A,120.613,31.2703,苏州市,吴中区,,41,6,35,4,25,135,131,97,97,5,18,9,11,0.5,0.9
2023-08-23T13:00:00,1165A,120.543,31.2994,苏州市,苏州新区,,41,8,36,3,26,131,129,90,90,3,19,8,8,0.7,1
2023-08-23T13:00:00,1166A,120.669,31.3097,苏州市,苏州工业园区,,42,6,35,3,29,133,133,92,92,1,17,7,8,0.5,0.8
2023-08-23T13:00:00,1167A,120.641,31.3708,苏州市,相城区,,42,14,27,5,26,133,133,92,92,5,16,7,8,0.6,1
2023-08-23T13:00:00,1168A,120.9098,31.9663,南通市,狼山街道,,41,22,15,6,6,129,129,92,92,9,13,8,8,0.5,0.6
2023-08-23T13:00:00,1169A,120.86,32.0005,南通市,虹桥,,39,27,21,11,16,125,123,91,91,6,13,5,5,0.5,0.7
2023-08-23T13:00:00,1170A,120.87,32.02,南通市,城中,,38,19,20,6,12,125,119,87,87,4,11,6,6,0.6,0.8
2023-08-23T13:00:00,1171A,120.94,31.93,南通市,星湖花园,,40,23,17,5,10,143,125,91,91,6,19,5,5,0.5,0.7
2023-08-23T13:00:00,1172A,120.81,32.0417,南通市,紫琅学院,,38,28,16,9,9,121,121,85,85,5,12,5,5,0.6,0.7
2023-08-23T13:00:00,1173A,119.176,34.5885,连云港市,市环境监测站,,41,29,46,9,26,186,129,120,120,6,15,8,8,0.4,0.7
2023-08-23T13:00:00,1177A,117.179,34.2761,徐州市,黄河新村,臭氧1小时,92,61,94,32,40,206,193,121,121,10,24,9,14,0.3,0.5
2023-08-23T13:00:00,1178A,117.1918,34.2384,徐州市,淮塔,臭氧1小时,72,54,82,23,37,206,177,116,116,10,18,8,11,0.3,0.6
2023-08-23T13:00:00,1180A,117.256,34.2153,徐州市,新城区,,,,82,,33,199,178,111,111,13,17,6,10,,0.5
2023-08-23T13:00:00,1181A,117.244,34.2911,徐州市,桃园路,,,48,94,34,38,200,181,106,106,8,32,,12,0.5,0.6
2023-08-23T13:00:00,1182A,117.2933,34.2778,徐州市,农科院,臭氧1小时,77,48,80,22,37,194,181,107,107,6,29,7,8,0.4,0.5
2023-08-23T13:00:00,1186A,119.389,32.3761,扬州市,邗江监测站,,46,46,33,18,24,128,128,94,94,6,8,2,2,0.7,0.8
2023-08-23T13:00:00,1188A,120.269,31.4867,无锡市,雪浪,,43,36,25,14,16,135,135,90,90,9,10,4,5,0.6,0.7
2023-08-23T13:00:00,1189A,120.275,31.6219,无锡市,黄巷,,40,32,32,19,22,130,127,81,81,14,43,6,6,0.8,1
2023-08-23T13:00:00,1190A,120.294,31.56,无锡市,曹张,,38,26,29,19,22,120,120,78,78,11,30,6,7,0.8,0.9
2023-08-23T13:00:00,1191A,120.242,31.5031,无锡市,漆塘,,44,29,25,14,18,138,138,85,85,15,21,4,5,0.4,0.6
2023-08-23T13:00:00,1192A,120.3489,31.5863,无锡市,东亭,,39,24,29,22,23,122,122,87,87,15,30,6,5,0.8,0.9
2023-08-23T13:00:00,1193A,120.354,31.5475,无锡市,旺庄,,40,19,28,14,21,128,128,92,92,5,19,9,9,0.9,1.1
2023-08-23T13:00:00,1194A,120.245,31.5631,无锡市,荣巷,,41,29,23,17,16,130,130,83,83,6,16,9,9,0.6,0.8
2023-08-23T13:00:00,1195A,120.299,31.6817,无锡市,堰桥,,36,29,26,14,18,116,115,80,80,8,25,6,6,1.0,1.2
2023-08-23T13:00:00,1196A,119.9633,31.762,常州市,市监测站,,40,17,34,10,22,128,126,86,86,7,23,7,7,0.3,0.6
2023-08-23T13:00:00,1200A,119.9468,31.7069,常州市,武进监测站,,43,20,36,8,19,136,136,88,88,1,17,5,8,0.4,0.7
2023-08-23T13:00:00,1201A,119.9255,31.9087,常州市,安家,,42,17,27,12,24,134,134,94,94,5,21,7,7,0.5,0.7
2023-08-23T13:00:00,1203A,119.6707,32.1875,镇江市,新区办事处,,48,31,26,14,20,152,152,93,93,12,31,6,5,0.5,0.6
2023-08-23T13:00:00,1204A,119.4974,32.1968,镇江市,职教中心,,48,30,25,21,19,152,152,107,107,5,14,3,3,0.5,0.7
2023-08-23T13:00:00,1205A,119.4303,32.1328,镇江市,丹徒区监测站,臭氧1小时,58,44,30,15,25,166,166,104,104,5,19,2,3,0.6,0.7
2023-08-23T13:00:00,1206A,119.905,32.4878,泰州市,公园路,,50,34,22,24,20,159,159,108,108,6,9,6,6,0.8,0.8
2023-08-23T13:00:00,1207A,119.9189,32.4625,泰州市,莲花,,48,37,25,19,17,151,151,105,105,5,8,6,4,0.5,0.6
2023-08-23T13:00:00,1209A,119.888,32.4639,泰州市,留学生创业园,,48,40,26,17,17,153,153,102,102,6,11,6,11,0.6,0.7
2023-08-23T13:00:00,1210A,119.036,33.5981,淮安市,钵池山,,49,48,35,19,25,155,155,106,106,12,16,7,6,0.7,1.1
2023-08-23T13:00:00,1211A,119.007,33.575,淮安市,北京南路,臭氧1小时,64,51,37,18,26,174,171,134,134,15,16,11,8,0.6,0.7
2023-08-23T13:00:00,1212A,118.989,33.6067,淮安市,市监测站,臭氧1小时,73,53,45,27,27,178,178,133,133,11,20,8,7,1.0,1
2023-08-23T13:00:00,1213A,119.135,33.5039,淮安市,楚州区监测站,,50,49,42,17,25,160,160,120,120,10,15,9,8,0.8,0.9
2023-08-23T13:00:00,1214A,119.0186,33.6297,淮安市,淮阴区监测站,臭氧1小时,63,51,43,25,30,170,170,120,120,8,15,8,7,0.8,0.8
2023-08-23T13:00:00,1215A,120.118,33.4022,盐城市,盐城电厂,,47,41,24,22,15,150,148,112,112,3,4,7,6,0.6,0.6
2023-08-23T13:00:00,1216A,120.156,33.3942,盐城市,市监测站,,,38,19,14,13,170,170,120,120,4,6,,6,0.7,0.6
2023-08-23T13:00:00,1218A,120.2144,33.38,盐城市,开发区管委会,臭氧1小时,52,38,19,8,14,161,161,112,112,6,8,7,6,0.4,0.5
2023-08-23T13:00:00,1220A,118.293,33.9528,宿迁市,宿迁学院,臭氧1小时,84,70,53,44,40,187,187,142,133,9,18,12,12,0.6,0.7
2023-08-23T13:00:00,1221A,118.2442,33.9592,宿迁市,宿迁中学,臭氧1小时,85,71,54,35,37,198,188,144,144,6,15,6,7,0.5,0.6
2023-08-23T13:00:00,1223A,120.2072,30.2111,杭州市,滨江,,43,26,20,15,11,137,137,76,76,9,14,6,6,0.7,0.7
2023-08-23T13:00:00,1224A,120.0633,30.2747,杭州市,西溪,,44,26,21,11,12,139,139,68,68,4,14,4,4,0.7,0.7
2023-08-23T13:00:00,1226A,120.3461,30.3153,杭州市,下沙,,50,30,24,19,10,159,159,95,95,5,22,3,3,0.6,0.6
2023-08-23T13:00:00,1227A,120.1269,30.2456,杭州市,卧龙桥,,48,25,19,16,10,153,153,69,69,8,12,5,5,0.6,0.5
2023-08-23T13:00:00,1228A,120.1903,30.2692,杭州市,浙江农大,,45,32,22,16,11,142,142,77,77,10,15,7,7,0.5,0.5
2023-08-23T13:00:00,1230A,120.1197,30.3119,杭州市,和睦小学,,49,27,21,14,12,155,155,84,84,12,19,6,6,0.8,0.8
2023-08-23T13:00:00,1231A,120.3019,30.4183,杭州市,临平镇,,50,43,22,22,10,160,160,102,102,5,13,4,4,0.8,0.7
2023-08-23T13:00:00,1232A,120.2697,30.1819,杭州市,城厢镇,,47,27,20,14,15,150,150,80,80,10,18,5,5,0.6,0.6
2023-08-23T13:00:00,1233A,120.0883,30.1808,杭州市,云栖,,44,24,20,10,8,139,139,68,68,4,10,7,6,0.8,0.7
2023-08-23T13:00:00,1234A,121.8358,29.911,宁波市,区环保大楼,,31,25,22,18,16,120,98,61,61,40,37,15,4,0.9,0.8
2023-08-23T13:00:00,1235A,121.56,29.82,宁波市,万里学院,,39,27,22,20,14,124,124,67,67,13,26,4,4,0.8,0.7
2023-08-23T13:00:00,1236A,121.713,29.9572,宁波市,龙赛医院,颗粒物(PM10),52,54,30,21,14,162,103,79,62,27,31,7,6,0.9,0.8
2023-08-23T13:00:00,1239A,121.633,29.7733,宁波市,钱湖水厂,,34,34,25,22,14,109,107,58,58,17,14,5,5,0.9,0.8
2023-08-23T13:00:00,1240A,121.5856,29.8635,宁波市,太古小学,,36,17,19,14,12,114,114,74,74,8,22,5,5,0.9,0.8
2023-08-23T13:00:00,1241A,121.524,29.8674,宁波市,市环境监测中心,,39,16,19,12,11,124,123,78,78,4,20,6,5,0.5,0.6
2023-08-23T13:00:00,1242A,120.634,28.0089,温州市,瓯海,,37,31,28,24,17,118,118,39,39,18,32,6,6,0.6,0.7
2023-08-23T13:00:00,1243A,120.6748,27.9939,温州市,南浦,,47,40,23,23,14,148,148,44,44,20,32,5,5,0.5,0.6
2023-08-23T13:00:00,1244A,120.76,27.9747,温州市,龙湾,,39,30,23,13,11,122,122,45,45,13,37,6,6,0.5,0.7
2023-08-23T13:00:00,1245A,120.6709,28.0167,温州市,市站,,38,36,20,20,14,120,120,35,35,17,29,5,5,0.5,0.6
2023-08-23T13:00:00,1247A,120.6053,29.9928,绍兴市,城东开发委,,50,48,21,35,14,136,136,57,57,15,18,5,5,0.6,0.6
2023-08-23T13:00:00,1250A,120.0751,30.8669,湖州市,城西水厂,,47,16,29,9,22,150,150,77,77,8,27,2,6,0.6,0.7
2023-08-23T13:00:00,1252A,120.7436,30.778,嘉兴市,清河小学,,47,22,28,12,15,172,149,85,85,9,22,5,5,0.9,0.9
2023-08-23T13:00:00,1253A,120.726,30.7478,嘉兴市,嘉兴学院,臭氧1小时,62,25,24,18,23,169,169,84,84,11,23,3,4,0.7,0.7
2023-08-23T13:00:00,1255A,121.273,28.6459,台州市,黄岩环保大楼,,35,35,20,24,13,136,91,43,43,14,13,4,4,0.5,0.7
2023-08-23T13:00:00,1256A,121.419,28.6542,台州市,台州环保大楼,,26,21,26,12,14,127,81,42,42,10,17,5,5,0.4,0.5
2023-08-23T13:00:00,1257A,121.377,28.5773,台州市,路桥田洋王,,,26,23,15,13,137,86,39,39,,17,2,3,0.4,0.4
2023-08-23T13:00:00,1258A,122.122,30.0203,舟山市,定海檀枫,,30,10,26,5,13,96,96,57,57,6,23,5,6,0.5,0.6
2023-08-23T13:00:00,1259A,122.3094,29.9558,舟山市,普陀东港,,33,5,26,3,15,116,105,52,51,7,20,4,4,0.6,0.6
2023-08-23T13:00:00,1260A,122.19,29.9944,舟山市,临城新区,,34,8,25,4,13,107,107,59,59,6,24,5,6,0.6,0.7
2023-08-23T13:00:00,1262A,119.647,29.077,金华市,十五中,,42,27,18,9,8,133,133,77,77,8,17,2,3,0.5,0.5
2023-08-23T13:00:00,1263A,119.686,29.1029,金华市,监测站,,39,22,16,19,10,123,123,72,72,11,17,3,5,0.6,0.6
2023-08-23T13:00:00,1264A,118.8692,28.9398,衢州市,环保大楼,,35,20,11,13,8,110,110,62,62,6,11,2,2,0.6,0.5
2023-08-23T13:00:00,1265A,118.8709,28.9666,衢州市,实验学校,,30,15,14,14,7,96,96,62,62,5,12,4,2,0.4,0.6
2023-08-23T13:00:00,1266A,118.8621,28.9808,衢州市,衢州学院,,35,14,10,10,5,111,111,63,63,8,15,2,2,0.4,0.4
2023-08-23T13:00:00,1267A,119.914,28.4514,丽水市,监测站大楼,,24,21,20,4,8,84,74,42,42,5,15,5,5,0.4,0.4
2023-08-23T13:00:00,1268A,119.93,28.4586,丽水市,莲都小学,,25,5,20,3,8,84,79,44,44,6,13,5,5,0.5,0.5
2023-08-23T13:00:00,1269A,119.879,28.4231,丽水市,余庄前,,25,5,20,4,10,85,78,38,38,7,13,5,5,0.4,0.3
2023-08-23T13:00:00,1270A,117.1959,31.7848,合肥市,明珠广场,,,66,43,27,27,182,181,144,144,12,18,,6,0.5,0.6
2023-08-23T13:00:00,1271A,117.3072,31.8764,合肥市,三里街,颗粒物(PM10),52,53,41,17,28,149,149,125,125,8,18,4,5,0.3,0.4
2023-08-23T13:00:00,1272A,117.2588,31.8707,合肥市,琥珀山庄,臭氧1小时,59,53,41,19,26,167,167,141,141,5,11,5,5,0.4,0.5
2023-08-23T13:00:00,1273A,117.1604,31.9052,合肥市,董铺水库,,,58,45,17,23,166,164,112,112,,20,5,4,0.5,0.5
2023-08-23T13:00:00,1274A,117.25,31.8571,合肥市,长江中路,颗粒物(PM10),54,58,49,25,27,160,160,140,140,7,10,7,7,0.4,0.5
2023-08-23T13:00:00,1275A,117.266,31.9436,合肥市,庐阳区,颗粒物(PM10),54,58,51,27,32,156,156,117,117,8,21,5,6,0.4,0.5
2023-08-23T13:00:00,1276A,117.336,31.8586,合肥市,瑶海区,颗粒物(PM10),53,56,47,15,25,145,145,115,115,5,14,4,5,0.5,0.8
2023-08-23T13:00:00,1277A,117.3027,31.7964,合肥市,包河区,颗粒物(PM10),52,53,49,22,27,158,158,104,104,9,51,5,6,0.4,0.5
2023-08-23T13:00:00,1278A,117.2776,31.7385,合肥市,滨湖新区,,50,36,40,29,24,164,160,125,125,6,18,5,5,0.4,0.7
2023-08-23T13:00:00,1279A,117.1318,31.8403,合肥市,高新区,臭氧1小时,62,63,45,21,29,169,169,123,123,9,24,8,8,0.5,0.6
2023-08-23T13:00:00,1280A,119.3903,26.0543,福州市,鼓山,,,,,,,,,,,,,,,,
2023-08-23T13:00:00,1282A,119.2681,26.0504,福州市,师大,,41,31,16,8,4,129,129,64,64,6,11,4,4,0.3,0.3
2023-08-23T13:00:00,1283A,119.2984,26.1028,福州市,五四北路,,38,17,17,6,7,139,121,61,61,7,14,3,2,0.3,0.3
2023-08-23T13:00:00,1284A,119.2648,26.0768,福州市,杨桥西路,,39,35,20,16,6,123,123,56,56,8,14,3,3,0.3,0.3
2023-08-23T13:00:00,1285A,119.317,26.0746,福州市,紫阳,,38,38,17,8,6,118,116,57,57,6,14,3,3,0.4,0.4
2023-08-23T13:00:00,1286A,118.1608,24.8169,厦门市,溪东,,,,,,,,,,,,,,,,
2023-08-23T13:00:00,1287A,118.1514,24.4767,厦门市,洪文,,32,32,29,11,10,89,55,24,22,14,23,2,2,0.3,0.3
2023-08-23T13:00:00,1288A,118.0661,24.4444,厦门市,鼓浪屿,,38,38,30,24,17,62,40,19,19,17,28,2,2,0.5,0.4
2023-08-23T13:00:00,1290A,115.8931,28.6843,南昌市,省外办,,45,36,27,27,16,142,142,103,103,8,14,4,4,0.7,0.7
2023-08-23T13:00:00,1291A,115.8886,28.7003,南昌市,省林业公司,,,22,21,19,13,138,138,100,100,2,16,7,6,,0.7
2023-08-23T13:00:00,1292A,115.8126,28.7442,南昌市,林科所,,46,19,13,14,10,147,147,120,120,6,9,6,6,0.7,0.6
2023-08-23T13:00:00,1294A,115.8518,28.687,南昌市,建工学校,臭氧1小时,59,40,23,10,9,167,167,130,130,1,8,9,8,0.7,0.7
2023-08-23T13:00:00,1295A,115.8921,28.6424,南昌市,象湖,,47,25,16,17,16,150,150,113,113,4,12,5,6,0.6,0.7
2023-08-23T13:00:00,1296A,115.7423,28.7996,南昌市,武术学校,,43,20,18,9,12,137,137,77,77,6,5,5,7,0.4,0.4
2023-08-23T13:00:00,1298A,115.9314,28.6842,南昌市,省站,,45,25,24,17,13,141,141,103,103,2,11,6,7,0.6,0.7
2023-08-23T13:00:00,1299A,116.9862,36.6114,济南市,科干所,,,,33,,13,213,213,137,137,,26,9,9,0.4,0.4
2023-08-23T13:00:00,1300A,116.9376,36.665,济南市,农科所,臭氧1小时,101,59,39,15,12,202,202,110,110,24,40,13,10,0.5,0.4
2023-08-23T13:00:00,1301A,117.1265,36.6734,济南市,开发区,臭氧1小时,84,49,36,10,11,187,187,132,132,15,31,9,6,0.6,0.5
2023-08-23T13:00:00,1303A,117.0624,36.6868,济南市,省种子仓库,臭氧1小时,73,48,42,9,11,178,178,117,117,11,34,10,7,0.5,0.5
2023-08-23T13:00:00,1304A,116.9489,36.6447,济南市,机床二厂,臭氧1小时,110,63,46,7,11,219,219,113,113,29,40,10,7,0.7,0.6
2023-08-23T13:00:00,1305A,117.0495,36.663,济南市,市监测站,臭氧1小时,78,46,34,12,11,182,182,132,132,21,33,6,5,0.4,0.4
2023-08-23T13:00:00,1306A,116.7675,36.5484,济南市,长清党校,,50,27,38,10,14,170,159,112,112,13,26,7,7,0.2,0.3
2023-08-23T13:00:00,1307A,120.6659,36.2403,青岛市,仰口,,34,34,34,17,19,98,92,92,77,6,6,6,7,0.4,0.4
2023-08-23T13:00:00,1310A,120.4134,36.0658,青岛市,市南区东部子站,,50,44,37,14,17,163,159,116,116,16,25,7,7,0.5,0.6
2023-08-23T13:00:00,1311A,120.3664,36.1032,青岛市,四方区子站,,45,44,45,12,16,164,141,112,112,24,24,6,7,0.4,0.6
2023-08-23T13:00:00,1312A,120.2994,36.054,青岛市,市南区西部子站,,,46,53,15,28,152,152,120,120,,15,,52,,0.8
2023-08-23T13:00:00,1313A,120.4581,36.0858,青岛市,崂山区子站,,45,36,39,14,19,142,142,113,111,9,18,8,8,0.4,0.4
2023-08-23T13:00:00,1314A,120.1983,35.9608,青岛市,黄岛区子站,,50,41,49,15,22,159,159,102,102,20,34,7,7,0.6,0.7
2023-08-23T13:00:00,1315A,120.3999,36.3083,青岛市,城阳区子站,,45,41,42,10,16,152,143,115,110,13,18,6,6,0.4,0.6
2023-08-23T13:00:00,1316A,113.69031,34.76122,郑州市,烟厂,臭氧1小时,68,66,48,23,20,216,174,132,109,10,22,2,3,0.5,0.6
2023-08-23T13:00:00,1317A,113.65724,34.77134,郑州市,郑纺机,,,70,48,,15,226,178,133,113,9,19,2,3,0.8,0.9
2023-08-23T13:00:00,1318A,113.67526,34.80246,郑州市,银行学校,臭氧1小时,80,39,40,22,18,198,184,129,108,11,18,3,3,0.6,0.6
2023-08-23T13:00:00,1319A,113.56746,34.81334,郑州市,供水公司,臭氧1小时,83,68,49,23,19,214,186,126,100,14,25,2,2,0.7,0.7
2023-08-23T13:00:00,1320A,113.7329,34.7178,郑州市,经开区管委,颗粒物(PM10),56,62,48,26,23,206,161,123,95,6,15,3,4,0.6,0.6
2023-08-23T13:00:00,1321A,113.73961,34.77172,郑州市,四十七中,,,,,,,,,,,,,,,,
2023-08-23T13:00:00,1322A,113.60532,34.74838,郑州市,市监测站,,,75,62,27,28,242,176,134,107,16,24,1,2,,0.6
2023-08-23T13:00:00,1323A,113.64164,34.7525,郑州市,河医大,臭氧1小时,59,59,54,24,21,207,167,112,97,5,19,4,4,0.6,0.7
2023-08-23T13:00:00,1324A,113.51488,34.91089,郑州市,岗李水库,,,,,,,,,,,,,,,,
2023-08-23T13:00:00,1325A,114.3677,30.5584,武汉市,东湖梨园,臭氧1小时,73,34,26,24,17,178,178,110,110,10,16,8,8,0.8,0.9
2023-08-23T13:00:00,1326A,114.2529,30.558,武汉市,汉阳月湖,臭氧1小时,64,38,27,24,14,171,171,96,96,12,23,7,6,0.5,0.5
2023-08-23T13:00:00,1327A,114.282,30.6189,武汉市,汉口花桥,臭氧1小时,64,42,31,24,19,171,171,110,110,13,17,7,5,0.5,0.6
2023-08-23T13:00:00,1328A,114.3025,30.5332,武汉市,武昌紫阳,臭氧1小时,80,38,28,24,16,184,184,110,110,11,17,9,9,0.6,0.7
2023-08-23T13:00:00,1329A,114.3646,30.6217,武汉市,青山钢花,,,35,32,22,20,176,176,143,143,9,24,9,8,,0.7
2023-08-23T13:00:00,1330A,114.1566,30.4825,武汉市,沌口新区,臭氧1小时,65,33,30,21,19,172,172,106,106,8,20,7,7,0.6,0.6
2023-08-23T13:00:00,1331A,114.3014,30.5944,武汉市,汉口江滩,臭氧1小时,70,30,29,19,16,176,176,110,110,5,15,8,7,0.3,0.5
2023-08-23T13:00:00,1333A,114.135,30.6319,武汉市,吴家山,臭氧1小时,82,34,31,17,16,185,185,112,112,11,20,8,7,0.4,0.7
2023-08-23T13:00:00,1334A,113.8454,30.2917,武汉市,沉湖七壕,,40,26,25,16,14,137,128,79,79,11,18,7,7,0.8,0.8
2023-08-23T13:00:00,1335A,113.0833,28.2325,长沙市,经开区环保局,,40,28,25,16,18,128,128,83,71,4,13,5,6,0.4,0.4
2023-08-23T13:00:00,1336A,112.8872,28.2189,长沙市,高开区环保局,,42,21,23,27,16,134,134,106,88,5,15,6,6,0.7,0.7
2023-08-23T13:00:00,1337A,113.0792,28.2053,长沙市,马坡岭,,41,31,31,24,17,134,129,95,74,5,16,5,5,0.7,0.7
2023-08-23T13:00:00,1338A,112.9394,28.19,长沙市,湖南师范大学,,42,25,24,22,22,132,132,92,82,6,11,4,3,0.5,0.4
2023-08-23T13:00:00,1339A,113.0178,28.1322,长沙市,雨花区环保局,,38,27,26,15,16,126,120,88,68,3,16,6,6,0.4,0.4
2023-08-23T13:00:00,1340A,112.9792,28.2597,长沙市,伍家岭,,46,39,31,12,18,145,145,74,67,7,19,3,3,0.5,0.5
2023-08-23T13:00:00,1341A,113.0014,28.1944,长沙市,火车新站,,37,24,20,17,17,120,117,95,71,5,11,5,5,0.6,0.6
2023-08-23T13:00:00,1342A,112.9844,28.1178,长沙市,天心区环保局,,41,24,23,23,18,130,130,100,74,8,17,3,3,0.5,0.6
2023-08-23T13:00:00,1343A,112.8908,28.1308,长沙市,湖南中医药大学,,45,33,34,23,12,142,142,69,69,4,21,3,2,0.7,0.7
2023-08-23T13:00:00,1344A,112.9581,28.3611,长沙市,沙坪,,,,,20,15,137,137,86,86,4,6,7,6,0.6,0.6
2023-08-23T13:00:00,1345A,113.2347,23.1423,广州市,广雅中学,,30,29,25,16,13,159,94,48,48,21,24,5,5,0.8,0.8
2023-08-23T13:00:00,1346A,113.2612,23.105,广州市,市五中,,40,30,26,22,15,178,125,58,58,15,21,5,5,0.7,0.6
2023-08-23T13:00:00,1348A,113.3478,23.0916,广州市,广东商学院,,34,34,31,19,14,142,69,38,38,22,26,3,3,0.6,0.6
2023-08-23T13:00:00,1349A,113.4332,23.1047,广州市,市八十六中,,30,30,27,20,12,134,47,74,63,23,25,4,4,0.6,0.6
2023-08-23T13:00:00,1350A,113.3505,22.9483,广州市,番禺中学,,26,21,23,12,10,153,81,57,57,10,19,5,5,0.6,0.6
2023-08-23T13:00:00,1351A,113.2146,23.3916,广州市,花都师范,,,42,38,25,22,218,72,29,29,,32,9,7,0.4,0.5
2023-08-23T13:00:00,1352A,113.2597,23.1331,广州市,市监测站,,42,42,24,22,13,166,85,49,49,27,26,6,6,0.7,0.7
2023-08-23T13:00:00,1353A,113.5618,23.312,广州市,九龙镇镇龙,,15,12,37,8,18,112,47,23,23,18,34,5,6,0.4,0.5
2023-08-23T13:00:00,1354A,113.2765,23.1544,广州市,麓湖,,,33,23,20,14,146,46,30,30,26,24,,5,0.6,0.6
2023-08-23T13:00:00,1355A,113.443,23.3035,广州市,帽峰山森林公园,,9,9,22,5,13,177,11,25,24,10,22,7,8,0.3,0.5
2023-08-23T13:00:00,1356A,114.1063,22.5545,深圳市,通心岭子站,,20,9,14,5,6,72,62,33,33,9,19,4,4,0.5,0.5
2023-08-23T13:00:00,1357A,114.117,22.5625,深圳市,洪湖,,,,38,6,10,73,66,31,31,6,21,5,5,0.5,0.6
2023-08-23T13:00:00,1358A,113.987,22.5417,深圳市,华侨城,,28,14,16,19,8,53,53,32,32,16,19,8,6,0.6,0.6
2023-08-23T13:00:00,1359A,113.9181,22.5171,深圳市,南海子站,,,,,,,,,,,,,,,,
2023-08-23T13:00:00,1360A,114.2458,22.5689,深圳市,盐田,,20,19,23,14,11,64,56,26,26,27,34,4,5,0.6,0.6
2023-08-23T13:00:00,1361A,114.2283,22.7244,深圳市,龙岗,,27,27,20,10,8,85,59,33,33,11,18,7,7,0.6,0.7
2023-08-23T13:00:00,1363A,114.494,22.5422,深圳市,南澳,,16,11,16,3,6,58,51,33,33,5,10,10,9,0.7,0.7
2023-08-23T13:00:00,1364A,114.41,22.6342,深圳市,葵涌,,14,14,17,4,4,70,42,42,34,9,18,4,4,0.6,0.6
2023-08-23T13:00:00,1365A,114.297,22.5978,深圳市,梅沙,,21,21,20,10,10,60,60,36,36,9,13,5,5,0.5,0.4
2023-08-23T13:00:00,1366A,114.0678,22.738,深圳市,观澜,,25,23,30,10,9,83,78,34,34,16,31,8,8,0.5,0.6
2023-08-23T13:00:00,1367A,113.5814,22.2618,珠海市,吉大,,18,11,10,11,6,67,55,49,45,7,8,5,5,0.5,0.5
2023-08-23T13:00:00,1368A,113.4881,22.2335,珠海市,前山,,15,9,12,7,6,60,45,43,38,2,8,7,7,0.2,0.3
2023-08-23T13:00:00,1369A,113.628,22.4251,珠海市,唐家,,21,12,12,10,6,73,67,44,44,2,4,4,4,0.3,0.3
2023-08-23T13:00:00,1370A,113.299,22.2281,珠海市,斗门,,20,9,12,3,10,62,62,44,44,3,6,5,6,0.4,0.4
2023-08-23T13:00:00,1371A,113.1294,23.0067,佛山市,湾梁,,43,22,12,14,9,156,135,61,61,9,15,5,5,0.5,0.5
2023-08-23T13:00:00,1372A,113.1083,23.0478,佛山市,华材职中,,33,14,16,7,11,136,103,50,50,14,16,6,6,0.3,0.3
2023-08-23T13:00:00,1373A,113.144,23.0453,佛山市,南海气象局,,38,28,23,11,10,120,119,45,45,15,17,5,5,0.5,0.5
2023-08-23T13:00:00,1374A,113.2881,22.8094,佛山市,顺德苏岗,,,,8,17,10,120,87,54,54,14,12,6,6,0.7,0.7
2023-08-23T13:00:00,1376A,112.8383,22.8678,佛山市,高明孔堂,,27,20,20,8,8,121,85,44,44,6,11,5,5,0.3,0.4
2023-08-23T13:00:00,1377A,112.8836,23.1588,佛山市,三水监测站,,35,19,23,14,13,138,109,45,45,11,24,5,4,0.5,0.6
2023-08-23T13:00:00,1378A,112.867,23.185,佛山市,三水云东海,,36,20,23,10,12,135,114,46,46,9,21,6,6,0.4,0.5
2023-08-23T13:00:00,1379A,113.3769,22.5211,中山市,华柏园,,21,16,15,4,8,87,67,46,46,8,10,4,4,0.4,0.4
2023-08-23T13:00:00,1380A,113.3881,22.5497,中山市,张溪,,27,27,21,3,1,86,70,50,50,9,8,3,3,0.3,0.4
2023-08-23T13:00:00,1381A,113.4075,22.5111,中山市,紫马岭,,23,22,16,9,9,86,71,43,43,5,7,4,4,0.3,0.3
2023-08-23T13:00:00,1382A,113.4411,22.4853,中山市,长江旅游区,,,,,,,,,,,,,,,,
2023-08-23T13:00:00,1383A,113.1064,22.6058,江门市,北街,,25,24,19,7,9,118,80,45,45,5,10,5,6,0.3,0.3
2023-08-23T13:00:00,1384A,113.0731,22.5835,江门市,西区,,31,8,18,7,9,106,98,52,52,9,13,5,7,0.4,0.4
2023-08-23T13:00:00,1385A,113.0219,22.5311,江门市,圭峰西,,31,31,24,15,8,98,94,52,52,8,12,4,3,0.3,0.3
2023-08-23T13:00:00,1386A,113.0828,22.5947,江门市,东湖,,33,17,21,7,10,123,104,53,53,6,10,7,8,0.4,0.5
2023-08-23T13:00:00,1389A,113.7547,23.0494,东莞市,莞城梨川,,34,19,22,11,9,107,107,54,54,11,23,9,9,0.6,0.6
2023-08-23T13:00:00,1390A,113.7944,23.0128,东莞市,东城石井,,29,13,21,8,10,99,90,43,43,7,19,6,6,0.6,0.7
2023-08-23T13:00:00,1391A,113.7383,22.9658,东莞市,南城西平,,25,16,20,10,9,89,80,41,41,9,19,6,5,0.6,0.6
2023-08-23T13:00:00,1392A,114.4183,23.0528,惠州市,河南岸金山湖子站,,33,27,26,8,10,123,105,50,50,10,18,4,4,0.4,0.4
2023-08-23T13:00:00,1393A,114.4053,23.0822,惠州市,下埔横江三路子站,,30,28,27,15,12,138,93,48,48,9,17,4,4,0.4,0.4
2023-08-23T13:00:00,1394A,114.4103,23.1142,惠州市,江北云山西路子站,,29,20,24,14,13,152,92,47,47,5,18,4,5,0.4,0.5
2023-08-23T13:00:00,1395A,114.4645,22.7833,惠州市,惠阳区承修路船湖子站,,19,15,20,6,8,73,58,31,31,5,12,4,4,0.5,0.5
2023-08-23T13:00:00,1396A,114.5317,22.7422,惠州市,大亚湾管委会子站,,23,17,19,8,8,74,72,56,53,9,13,4,4,0.7,0.7
2023-08-23T13:00:00,1397A,112.4267,23.0706,肇庆市,睦岗子站,,31,20,22,16,14,108,98,46,40,7,15,27,13,0.3,0.4
2023-08-23T13:00:00,1398A,112.4645,23.0475,肇庆市,城中子站,,28,15,20,10,14,100,88,41,40,8,21,10,12,0.4,0.5
2023-08-23T13:00:00,1399A,112.5544,23.1522,肇庆市,坑口子站,,29,26,22,13,14,101,90,38,38,11,17,7,7,0.2,0.2
2023-08-23T13:00:00,1400A,112.4753,23.1,肇庆市,七星岩子站,,,,,,,,,,,,,,,,
2023-08-23T13:00:00,1401A,108.3103,22.7881,南宁市,二十一中,,50,50,31,22,16,105,84,48,48,16,17,4,5,0.8,0.7
2023-08-23T13:00:00,1402A,108.3141,22.8528,南宁市,北湖,,,,,,,,,,,,,,,,
2023-08-23T13:00:00,1403A,108.3206,22.8225,南宁市,市监测站,颗粒物(PM10),57,64,31,23,19,104,74,49,49,20,21,7,7,0.7,0.6
2023-08-23T13:00:00,1404A,108.3829,22.8037,南宁市,大自然花园,,40,37,29,28,20,120,80,48,45,10,13,5,6,0.7,0.7
2023-08-23T13:00:00,1405A,108.4394,22.7904,南宁市,仙葫,,40,39,34,28,24,111,86,47,47,15,18,6,6,0.6,0.6
2023-08-23T13:00:00,1406A,108.2397,22.8467,南宁市,区农职院,,,42,45,,18,112,112,55,55,,21,9,10,0,0.1
2023-08-23T13:00:00,1407A,108.3275,22.735,南宁市,英华嘉园,,43,43,33,27,19,108,71,35,35,18,22,5,6,0.5,0.6
2023-08-23T13:00:00,1408A,108.2257,22.7757,南宁市,沙井镇街道办,,36,36,36,25,18,93,93,42,42,15,23,7,5,0.7,0.7
2023-08-23T13:00:00,1409A,110.576,19.9507,海口市,东寨港,,,,,,,,,,,,,,,,
2023-08-23T13:00:00,1410A,110.3232,20.0574,海口市,海南大学,,,,16,,8,104,104,54,54,6,12,7,6,,0.4
2023-08-23T13:00:00,1411A,110.283,20.0053,海口市,秀英海南医院,,,,,,,,,,,,,,,,
2023-08-23T13:00:00,1412A,110.338,19.9969,海口市,海南师范大学,,30,21,16,9,8,94,94,48,48,8,11,8,7,0.4,0.4
2023-08-23T13:00:00,1413A,110.33,20.0356,海口市,龙华路环保局宿舍,,32,19,17,10,10,101,101,53,53,6,11,7,6,0.3,0.4
2023-08-23T13:00:00,1414A,106.3787,29.8279,重庆市,缙云山,,50,30,36,10,13,228,160,134,112,12,12,10,12,0.3,0.4
2023-08-23T13:00:00,1416A,106.4213,29.8253,重庆市,天生,颗粒物(PM10),52,54,49,24,32,216,159,74,74,12,30,6,6,0.5,0.7
2023-08-23T13:00:00,1417A,106.6263,29.7228,重庆市,两路,臭氧1小时,52,30,36,27,25,188,161,85,85,21,46,7,9,0.9,1.1
2023-08-23T13:00:00,1418A,106.2953,29.5983,重庆市,虎溪,,,34,54,27,37,232,138,65,65,,55,5,5,,0.8
2023-08-23T13:00:00,1419A,106.5777,29.5102,重庆市,南坪,,39,37,45,19,22,182,123,79,73,10,23,7,7,0.6,0.7
2023-08-23T13:00:00,1420A,106.6556,29.6277,重庆市,唐家沱,臭氧1小时,59,37,46,24,30,188,167,72,72,10,37,8,8,0.6,0.7
2023-08-23T13:00:00,1421A,106.6349,29.4906,重庆市,茶园,,44,34,62,16,22,179,139,68,68,10,53,5,6,0.6,0.8
2023-08-23T13:00:00,1422A,106.3754,29.4572,重庆市,白市驿,,43,29,48,20,30,192,135,104,72,10,22,6,8,0.7,0.9
2023-08-23T13:00:00,1425A,106.6205,29.7166,重庆市,空港,臭氧1小时,53,32,40,11,22,195,162,100,100,6,33,9,12,0.7,0.9
2023-08-23T13:00:00,1426A,106.4782,29.4875,重庆市,新山村,臭氧1小时,69,33,53,11,26,196,175,81,81,16,59,8,10,0.5,0.7
2023-08-23T13:00:00,1427A,106.5616,29.6453,重庆市,礼嘉,,45,28,58,13,27,206,141,66,66,15,63,10,10,0.7,1
2023-08-23T13:00:00,1428A,106.4522,29.7091,重庆市,蔡家,,45,35,60,13,32,197,141,67,66,12,27,7,7,0.7,0.9
2023-08-23T13:00:00,1429A,106.5093,29.3917,重庆市,鱼新街,,42,27,49,21,29,179,133,62,62,14,36,6,9,0.8,1
2023-08-23T13:00:00,1431A,103.9728,30.7236,成都市,金泉两河,细颗粒物(PM2.5),118,130,59,89,38,208,110,74,74,8,17,4,5,0.4,0.6
2023-08-23T13:00:00,1432A,104.176,30.6872,成都市,十里店,细颗粒物(PM2.5),82,90,47,60,29,183,107,94,59,7,19,3,4,0.5,0.5
2023-08-23T13:00:00,1433A,104.079,30.5706,成都市,三瓦窑,颗粒物(PM10),58,66,48,28,28,155,135,111,68,10,21,2,3,0.4,0.5
2023-08-23T13:00:00,1434A,104.1114,30.63,成都市,沙河铺,细颗粒物(PM2.5),88,117,46,65,28,154,116,80,63,12,18,3,3,0.6,0.6
2023-08-23T13:00:00,1437A,104.0786,30.6531,成都市,君平街,细颗粒物(PM2.5),77,97,59,56,40,188,128,106,72,11,20,3,5,0.6,0.7
2023-08-23T13:00:00,1438A,103.613,31.0283,成都市,灵岩寺,,32,32,32,22,21,162,86,91,63,4,6,9,15,0.7,0.7
2023-08-23T13:00:00,1439A,106.6899,26.5998,贵阳市,马鞍山,,30,22,23,5,9,123,95,52,52,12,10,4,4,0.6,0.6
2023-08-23T13:00:00,1440A,106.6971,26.5694,贵阳市,市环保站,,26,24,22,14,16,151,81,57,51,20,18,4,3,0.3,0.2
2023-08-23T13:00:00,1441A,106.6243,26.6266,贵阳市,鉴湖路,,30,27,26,5,11,127,95,66,58,15,12,4,4,0.4,0.5
2023-08-23T13:00:00,1442A,106.7487,26.6343,贵阳市,燕子冲,,,,20,7,16,127,100,48,48,7,13,5,5,0.6,0.6
2023-08-23T13:00:00,1443A,106.6555,26.4365,贵阳市,碧云窝,,30,17,25,5,11,172,94,65,65,5,7,4,5,0.7,0.6
2023-08-23T13:00:00,1444A,106.694,26.5161,贵阳市,中院村,,27,19,27,12,14,144,86,44,44,7,16,5,5,0.3,0.4
2023-08-23T13:00:00,1445A,106.7109,26.6027,贵阳市,红边门,,28,24,26,17,20,141,89,68,54,17,16,5,5,0.7,0.6
2023-08-23T13:00:00,1446A,106.7164,26.5699,贵阳市,新华路,,29,14,25,9,17,149,92,66,59,8,11,7,7,0.4,0.4
2023-08-23T13:00:00,1447A,106.674,26.5424,贵阳市,太慈桥,,30,7,18,2,10,151,93,48,48,9,14,4,3,0.4,0.4
2023-08-23T13:00:00,1450A,102.8204,24.8886,昆明市,呈贡新区,,36,36,31,24,18,123,78,63,57,10,16,6,6,0.9,0.9
2023-08-23T13:00:00,1451A,102.6251,24.9608,昆明市,西山森林公园,,27,16,17,18,11,126,86,70,70,11,10,8,8,1.0,0.9
2023-08-23T13:00:00,1452A,102.7252,25.0902,昆明市,龙泉镇,,25,20,26,14,15,117,77,40,40,12,29,18,10,0.7,0.7
2023-08-23T13:00:00,1453A,102.7266,25.0375,昆明市,东风东路,,,25,35,18,21,138,84,53,53,14,25,7,48,,0.6
2023-08-23T13:00:00,1454A,102.6742,25.0669,昆明市,金鼎山,,26,24,40,15,16,121,81,49,49,20,35,7,40,0.6,0.6
2023-08-23T13:00:00,1455A,102.6644,25.0401,昆明市,碧鸡广场,,28,28,32,17,20,138,75,50,50,17,27,6,11,0.7,0.7
2023-08-23T13:00:00,1456A,91.1319,29.6514,拉萨市,八廓街,,40,19,20,10,11,125,125,98,98,7,16,7,7,0.2,0.2
2023-08-23T13:00:00,1457A,91.1221,29.6747,拉萨市,市环保局,,36,5,15,7,8,120,114,95,95,9,15,3,6,0.2,0.2
2023-08-23T13:00:00,1458A,91.0874,29.6475,拉萨市,区监测站,,36,5,14,7,7,115,113,93,93,8,20,8,8,0.3,0.3
2023-08-23T13:00:00,1459A,91.1774,29.6541,拉萨市,西藏大学,,39,11,14,5,10,124,124,96,96,8,14,8,8,0.2,0.3
2023-08-23T13:00:00,1460A,90.9798,29.6588,拉萨市,区辐射站,,34,11,16,6,8,113,106,95,95,8,16,9,10,0.2,0.3
2023-08-23T13:00:00,1461A,91.0834,29.6292,拉萨市,拉萨火车站,,35,8,19,5,8,112,111,90,90,7,17,6,7,0.2,0.3
2023-08-23T13:00:00,1462A,108.882,34.2749,西安市,高压开关厂,,42,42,47,14,17,230,75,100,68,32,24,7,8,0.6,0.5
2023-08-23T13:00:00,1463A,108.993,34.2629,西安市,兴庆小区,,38,38,47,13,17,250,86,99,70,26,19,6,6,0.7,0.8
2023-08-23T13:00:00,1464A,109.06,34.2572,西安市,纺织城,,42,42,52,20,21,263,90,93,57,29,34,3,4,0.6,0.6
2023-08-23T13:00:00,1465A,108.9356,34.2173,西安市,小寨,,,36,46,13,16,233,97,90,71,,18,7,7,0.4,0.4
2023-08-23T13:00:00,1466A,108.954,34.2713,西安市,市人民体育场,,,46,47,19,20,235,91,98,70,,20,6,7,0.4,0.6
2023-08-23T13:00:00,1467A,108.8922,34.2322,西安市,高新西区,,36,36,43,16,19,226,84,93,68,27,20,8,8,0.6,0.5
2023-08-23T13:00:00,1468A,108.935,34.3474,西安市,经开区,,27,17,41,10,16,231,84,90,66,11,17,3,3,0.4,0.4
2023-08-23T13:00:00,1469A,108.906,34.1546,西安市,长安区,,46,46,48,18,19,219,96,98,69,22,20,5,5,0.5,0.5
2023-08-23T13:00:00,1471A,109.2186,34.3731,西安市,临潼区,颗粒物(PM10),57,64,49,24,20,200,61,90,64,39,21,5,5,0.6,0.4
2023-08-23T13:00:00,1472A,108.869,34.378,西安市,草滩,,24,24,38,5,8,228,72,105,69,32,27,12,11,0.5,0.5
2023-08-23T13:00:00,1473A,108.985,34.1978,西安市,曲江文化产业集团,,46,46,49,13,18,226,94,91,66,25,26,5,5,0.6,0.6
2023-08-23T13:00:00,1474A,109.051,34.3213,西安市,广运潭,,39,39,48,18,20,254,70,94,48,28,24,7,7,0.6,0.5
2023-08-23T13:00:00,1476A,103.631,36.1031,兰州市,兰炼宾馆,,42,39,43,16,26,174,134,107,107,9,15,6,8,0.2,0.3
2023-08-23T13:00:00,1477A,104.1373,35.9454,兰州市,榆中兰大校区,,,,,,,,,,,,,,,,
2023-08-23T13:00:00,1478A,103.8412,36.0726,兰州市,生物制品所,颗粒物(PM10),54,57,54,21,25,147,130,96,96,14,25,5,8,0.5,0.5
2023-08-23T13:00:00,1479A,103.831,36.0464,兰州市,铁路设计院,,43,42,34,24,21,148,137,94,94,16,31,7,10,0.4,0.7
2023-08-23T13:00:00,1483A,101.524,36.6867,西宁市,第五水厂,,,,,,,,,,,,,,,,
2023-08-23T13:00:00,1484A,105.9512,38.6016,银川市,贺兰山马莲口,,,19,27,7,10,136,107,109,90,7,6,,11,0.2,0.2
2023-08-23T13:00:00,1488A,106.2328,38.4975,银川市,贺兰山东路,,40,34,52,5,15,155,126,102,102,9,20,7,10,0.4,0.5
2023-08-23T13:00:00,1489A,106.1358,38.5036,银川市,学院路,,41,34,51,6,13,152,131,100,100,6,13,8,16,0.4,0.7
2023-08-23T13:00:00,1490A,87.5801,43.8303,乌鲁木齐市,监测站,,48,48,72,12,17,157,88,36,36,20,52,7,6,0.7,0.9
2023-08-23T13:00:00,1491A,87.6046,43.768,乌鲁木齐市,收费所,,41,41,58,13,19,161,95,32,32,20,50,5,6,0.3,0.4
2023-08-23T13:00:00,1492A,87.4754,43.9469,乌鲁木齐市,新疆农科院农场,细颗粒物(PM2.5),63,44,121,45,34,130,83,34,34,16,46,6,5,0.8,0.8
2023-08-23T13:00:00,1493A,87.5525,43.8711,乌鲁木齐市,铁路局,,50,50,54,12,17,162,90,49,49,18,49,8,6,0.5,0.6
2023-08-23T13:00:00,1494A,87.6432,43.831,乌鲁木齐市,三十一中学,颗粒物(PM10),51,52,53,14,17,149,81,64,64,18,38,6,7,0.6,0.8
2023-08-23T13:00:00,1496A,87.7216,44.1747,乌鲁木齐市,米东区环保局,,48,48,60,20,18,166,83,44,44,5,25,10,10,0.3,0.4
2023-08-23T13:00:00,1508A,112.9433,27.8614,湘潭市,板塘,,45,45,32,24,19,140,140,65,65,10,19,6,6,0.7,0.7
2023-08-23T13:00:00,1511A,112.9118,27.8403,湘潭市,市监测站,,45,32,28,27,16,141,141,79,67,11,16,11,6,1.0,0.7
2023-08-23T13:00:00,1512A,112.8937,27.8728,湘潭市,江麓,,43,36,35,14,12,136,136,63,63,9,19,3,3,0.0,0.1
2023-08-23T13:00:00,1513A,112.9227,27.8159,湘潭市,岳塘,,,,29,17,14,132,116,60,60,23,16,25,6,1.3,0.4
2023-08-23T13:00:00,1514A,112.9074,27.9119,湘潭市,科大,,48,48,41,31,18,145,145,61,61,7,20,5,6,0.5,0.6
2023-08-23T13:00:00,1515A,113.135,27.8244,株洲市,天台山庄,,42,30,28,24,14,141,132,72,72,5,12,5,5,0.5,0.5
2023-08-23T13:00:00,1518A,113.095,27.8867,株洲市,株冶医院,,40,32,33,19,17,136,128,59,59,5,17,4,4,0.7,0.7
2023-08-23T13:00:00,1519A,113.167,27.8667,株洲市,市四中,,39,26,30,15,16,141,124,68,68,4,12,6,6,0.5,0.5
2023-08-23T13:00:00,1520A,113.143,27.8381,株洲市,火车站,,40,29,30,22,13,143,126,69,69,4,10,7,7,0.5,0.5
2023-08-23T13:00:00,1524A,113.13,27.8528,株洲市,市监测站,,43,30,30,23,16,143,136,77,77,5,11,7,7,0.8,0.8
2023-08-23T13:00:00,1552A,106.805,26.3003,贵阳市,桐木岭,,,,,,,,,,,,,,,,
2023-08-23T13:00:00,1559A,113.251,27.8336,株洲市,大京风景区,,39,33,26,22,14,132,123,53,53,3,4,5,6,0.4,0.5
2023-08-23T13:00:00,1562A,113.0048,27.9153,湘潭市,昭山,,43,34,32,18,16,140,135,67,67,6,24,4,5,0.7,0.7
2023-08-23T13:00:00,1564A,112.4876,27.9164,湘潭市,韶山,,46,35,33,13,12,146,146,83,83,7,7,7,7,0.3,0.3
2023-08-23T13:00:00,1585A,109.8756,40.6532,包头市,市环境监测站,,24,24,25,13,8,152,75,70,57,17,16,12,10,0.6,0.5
2023-08-23T13:00:00,1587A,109.9991,40.5842,包头市,包头八中,,35,35,32,13,8,158,69,62,54,21,22,25,15,0.8,0.7
2023-08-23T13:00:00,1588A,109.8538,40.6821,包头市,青山宾馆,,31,31,22,12,7,150,67,70,59,22,14,10,6,0.8,0.6
2023-08-23T13:00:00,1589A,109.8642,40.6288,包头市,惠龙物流,,43,43,25,11,7,154,74,71,57,18,17,15,11,0.5,0.4
2023-08-23T13:00:00,1590A,110.0377,40.5546,包头市,东河鸿龙湾,,29,29,29,10,9,153,70,68,54,15,18,18,15,0.9,0.9
2023-08-23T13:00:00,1591A,110.0023,39.8129,鄂尔多斯市,综合楼,,19,9,59,5,12,142,42,67,39,13,46,57,22,0.4,0.9
2023-08-23T13:00:00,1592A,109.9486,39.8261,鄂尔多斯市,巴音孟克林场办事处,,25,19,55,7,17,160,80,55,55,11,38,32,27,0.4,0.5
2023-08-23T13:00:00,1593A,109.7736,39.5986,鄂尔多斯市,康泽苑,,19,17,41,6,11,142,59,42,42,22,35,21,12,0.4,0.5
2023-08-23T13:00:00,1594A,109.8119,39.5989,鄂尔多斯市,华泰汽车城,,27,27,45,7,15,141,59,36,36,19,45,13,8,0.9,1
2023-08-23T13:00:00,1595A,109.9734,39.7884,鄂尔多斯市,奥林花园,,23,17,48,7,11,141,71,62,50,9,37,13,13,0.5,0.6
2023-08-23T13:00:00,1597A,122.2703,40.7094,营口市,大庆路,,35,19,32,10,7,119,109,62,62,6,17,4,5,0.5,0.7
2023-08-23T13:00:00,1598A,122.2150,40.6511,营口市,镜湖西路,,30,22,21,7,10,109,96,63,63,9,20,7,7,0.5,0.5
2023-08-23T13:00:00,1599A,122.1658,40.6789,营口市,西炮台,,33,20,26,8,7,116,104,70,70,8,23,5,6,0.4,0.5
2023-08-23T13:00:00,1600A,124.3303,40.0625,丹东市,江湾东路,,38,33,24,18,15,121,121,85,85,8,14,5,8,0.7,0.7
2023-08-23T13:00:00,1601A,124.4256,40.1503,丹东市,临江后街,,34,9,34,21,25,106,106,69,69,5,11,5,6,0.6,0.8
2023-08-23T13:00:00,1602A,124.3933,40.1461,丹东市,元宝山,,31,26,26,18,15,97,97,66,66,4,12,6,6,0.4,0.6
2023-08-23T13:00:00,1603A,124.3633,40.1092,丹东市,民主桥,,36,29,21,17,13,114,114,79,79,7,13,6,6,0.6,0.7
2023-08-23T13:00:00,1604A,122.0303,41.1489,盘锦市,开发区,,45,39,31,3,13,172,142,86,86,12,35,7,7,0.5,0.6
2023-08-23T13:00:00,1605A,122.0485,41.0883,盘锦市,兴隆台,,42,19,25,11,8,147,134,80,80,17,38,6,6,0.4,0.5
2023-08-23T13:00:00,1606A,121.8297,41.1028,盘锦市,新生街道,,,,14,5,7,130,109,70,70,16,31,5,6,0.4,0.5
2023-08-23T13:00:00,1607A,120.9092,40.7136,葫芦岛市,龙港区,,43,21,35,5,16,137,137,70,70,2,22,13,29,0.4,0.4
2023-08-23T13:00:00,1608A,120.8392,40.7514,葫芦岛市,化工街,,41,19,36,11,13,129,129,64,64,5,31,16,22,0.4,0.4
2023-08-23T13:00:00,1609A,120.8341,40.7073,葫芦岛市,新区,,44,44,39,12,21,112,112,58,58,5,41,16,15,0.4,0.5
2023-08-23T13:00:00,1610A,120.8695,40.7677,葫芦岛市,东城区,,43,34,37,6,10,136,136,60,60,13,34,16,27,0.4,0.5
2023-08-23T13:00:00,1611A,118.5819,24.9117,泉州市,涂山街,,25,25,30,13,12,153,62,61,57,18,14,5,4,0.7,0.7
2023-08-23T13:00:00,1612A,118.5972,24.8978,泉州市,津头埔,,26,20,28,18,18,146,61,58,56,23,19,4,4,0.7,0.6
2023-08-23T13:00:00,1613A,118.6663,24.9424,泉州市,万安,细颗粒物(PM2.5),52,48,30,36,17,147,115,60,60,16,20,2,2,0.7,0.6
2023-08-23T13:00:00,1614A,118.6117,24.9604,泉州市,清源山,,,,,,,,,,,,,,,,
2023-08-23T13:00:00,1616A,117.6795,36.229,济南市,技术学院,臭氧1小时,65,24,42,9,17,179,172,114,114,7,22,8,8,0.6,0.8
2023-08-23T13:00:00,1618A,118.3429,35.0532,临沂市,沂河小区,臭氧1小时,68,48,60,14,26,175,174,133,133,11,16,9,7,0.4,0.5
2023-08-23T13:00:00,1619A,118.295,35.0583,临沂市,鲁南制药厂,臭氧1小时,63,34,59,9,21,190,170,145,145,5,12,6,6,0.3,0.4
2023-08-23T13:00:00,1620A,118.2794,34.9976,临沂市,新光毛纺厂,,50,27,51,10,25,175,157,131,131,10,18,7,8,0.6,0.6
2023-08-23T13:00:00,1621A,118.3956,35.0888,临沂市,河东保险公司,臭氧1小时,67,39,50,14,24,173,173,118,118,8,16,8,5,0.7,0.7
2023-08-23T13:00:00,1622A,116.3032,37.4674,德州市,儿童乐园,臭氧1小时,84,29,38,9,10,196,187,133,133,9,25,11,11,0.6,0.5
2023-08-23T13:00:00,1624A,116.2991,37.4451,德州市,监理站,臭氧1小时,80,29,30,9,8,186,184,126,126,16,29,11,11,0.5,0.5
2023-08-23T13:00:00,1625A,115.9848,36.4372,聊城市,区政府,,50,14,38,6,16,179,160,104,104,5,16,4,5,0.2,0.3
2023-08-23T13:00:00,1628A,118.0062,37.3803,滨州市,市环保局,,43,31,42,5,12,169,136,102,102,5,22,11,11,0.2,0.4
2023-08-23T13:00:00,1629A,118.0018,37.3617,滨州市,第二水厂,,44,31,39,7,14,181,140,98,98,3,21,10,12,0.5,0.6
2023-08-23T13:00:00,1630A,117.9776,37.393,滨州市,北中新校,,47,38,44,8,13,179,150,103,103,6,22,11,7,0.2,0.4
2023-08-23T13:00:00,1631A,118.0414,36.8103,淄博市,人民公园,臭氧1小时,85,48,64,14,23,188,188,136,136,13,38,11,17,0.4,0.6
2023-08-23T13:00:00,1633A,117.8525,36.4847,淄博市,双山,,49,44,46,11,18,190,154,90,90,8,22,8,9,0.2,0.3
2023-08-23T13:00:00,1634A,117.9592,36.6331,淄博市,气象站,,,,63,,29,180,144,77,77,9,35,8,15,0.3,0.4
2023-08-23T13:00:00,1635A,118.3092,36.8194,淄博市,莆田园,臭氧1小时,78,39,68,19,27,208,182,114,114,10,32,21,20,0.6,1.7
2023-08-23T13:00:00,1637A,117.558,34.8438,枣庄市,市中区政府,臭氧1小时,106,80,81,34,31,211,211,134,134,16,27,17,17,0.4,0.4
2023-08-23T13:00:00,1638A,117.2852,34.7837,枣庄市,薛城环保局,臭氧1小时,92,83,88,38,33,193,193,116,116,13,39,11,14,0.6,0.6
2023-08-23T13:00:00,1639A,117.5852,34.7745,枣庄市,峄城区政府,臭氧1小时,103,66,80,29,27,206,206,128,128,13,29,11,12,0.6,0.6
2023-08-23T13:00:00,1640A,117.7276,34.5578,枣庄市,台儿庄区环保局,臭氧1小时,72,58,70,29,33,218,177,105,105,12,24,9,9,0.6,0.7
2023-08-23T13:00:00,1641A,117.4518,35.0992,枣庄市,山亭区环保局,臭氧1小时,75,53,62,29,29,180,180,126,126,12,16,9,8,0.3,0.3
2023-08-23T13:00:00,1642A,121.2514,37.5639,烟台市,开发区,,,,,,,,,,,,,,,,
2023-08-23T13:00:00,1643A,121.3719,37.5433,烟台市,轴承厂,,42,24,35,11,20,166,133,102,98,7,12,8,7,0.4,0.6
2023-08-23T13:00:00,1644A,121.3181,37.5436,烟台市,西郊化工站,,43,17,29,5,17,175,135,101,97,8,14,10,9,0.4,0.5
2023-08-23T13:00:00,1645A,121.4478,37.4822,烟台市,莱山环保局,,42,12,31,5,13,176,133,112,102,4,9,8,8,0.5,0.7
2023-08-23T13:00:00,1646A,121.2611,37.4967,烟台市,福山环保局,,,,,,,,,,,,,,,,
2023-08-23T13:00:00,1650A,119.1437,36.7023,潍坊市,环保局,,38,14,44,3,20,170,119,124,102,5,13,9,11,0.2,0.5
2023-08-23T13:00:00,1653A,116.6251,35.4302,济宁市,火炬城,臭氧1小时,58,38,52,14,24,166,166,109,109,4,13,10,10,0.5,0.7
2023-08-23T13:00:00,1655A,116.5491,35.4042,济宁市,电化厂,,49,40,59,14,27,169,154,95,95,10,15,10,8,0.5,0.7
2023-08-23T13:00:00,1656A,117.1437,36.1937,泰安市,监测站,臭氧1小时,82,34,52,16,21,185,185,122,122,6,13,12,10,0.6,0.5
2023-08-23T13:00:00,1657A,117.0885,36.2017,泰安市,人口学校,臭氧1小时,73,27,34,12,16,182,178,128,128,9,13,12,9,0.5,0.4
2023-08-23T13:00:00,1658A,117.1089,36.1758,泰安市,电力学校,臭氧1小时,92,29,44,18,20,193,193,124,124,7,19,14,8,0.4,0.3
2023-08-23T13:00:00,1659A,119.471,35.4209,日照市,监测站,,34,24,45,5,20,126,107,97,97,8,23,5,6,0.4,0.6
2023-08-23T13:00:00,1660A,119.523,35.4216,日照市,市政府广场,,41,31,40,1,15,170,129,121,121,5,15,4,5,0.4,0.6
2023-08-23T13:00:00,1661A,119.5587,35.4044,日照市,港务局,,43,34,40,8,18,189,135,127,124,6,13,8,8,0.3,0.7
2023-08-23T13:00:00,1662A,122.1214,37.4236,威海市,华夏技校,,40,29,30,7,19,145,125,126,115,14,13,12,10,0.4,0.5
2023-08-23T13:00:00,1663A,122.0508,37.5236,威海市,山大分校,,39,17,29,10,15,173,124,149,123,2,3,9,9,0.4,0.7
2023-08-23T13:00:00,1664A,122.1067,37.5072,威海市,市监测站,,39,17,30,15,20,155,124,128,116,5,7,10,9,0.5,0.8
2023-08-23T13:00:00,1666A,118.6614,37.4309,东营市,市环保局,,39,14,30,2,10,150,124,104,104,3,8,6,8,0.4,0.5
2023-08-23T13:00:00,1669A,113.5824,24.7733,韶关市,市八中,,36,28,25,20,11,113,113,60,60,7,10,15,14,0.7,0.6
2023-08-23T13:00:00,1671A,113.5917,24.7972,韶关市,园林处,,35,32,27,19,14,111,111,56,56,5,6,10,12,0.7,0.6
2023-08-23T13:00:00,1672A,113.6735,24.7791,韶关市,韶关学院,颗粒物(PM10),55,60,27,20,12,99,99,48,48,10,9,14,10,1.2,0.5
2023-08-23T13:00:00,1673A,113.5971,24.6863,韶关市,曲江监测站,,35,33,27,23,12,110,110,54,54,10,11,13,12,0.7,0.6
2023-08-23T13:00:00,1674A,116.6794,23.3667,汕头市,金平子站,,22,22,16,7,7,81,61,44,42,14,15,7,5,0.9,0.6
2023-08-23T13:00:00,1675A,116.7244,23.3633,汕头市,龙湖子站,,,24,17,0,5,86,67,52,47,11,12,,5,0.4,0.6
2023-08-23T13:00:00,1676A,116.7258,23.2775,汕头市,濠江子站,,23,23,18,7,8,75,65,41,40,6,13,9,9,0.4,0.5
2023-08-23T13:00:00,1677A,116.7519,23.4714,汕头市,澄海子站,,25,25,27,12,12,106,72,50,47,9,18,4,6,0.7,0.8
2023-08-23T13:00:00,1678A,116.6092,23.2539,汕头市,潮阳子站,,22,18,18,5,7,77,68,48,48,5,7,8,8,0.6,0.6
2023-08-23T13:00:00,1680A,110.3539,21.2706,湛江市,湛江影剧院,,28,25,24,12,12,113,89,58,58,7,12,8,12,0.5,0.6
2023-08-23T13:00:00,1681A,110.3928,21.2228,湛江市,市环境监测站,,28,21,21,12,12,108,89,53,53,9,12,10,10,0.4,0.5
2023-08-23T13:00:00,1682A,110.4019,21.1997,湛江市,环保局宿舍,,26,17,20,16,10,99,81,55,55,11,12,10,9,0.4,0.5
2023-08-23T13:00:00,1683A,110.4111,21.2028,湛江市,霞山游泳场,,28,15,23,8,9,97,88,56,56,14,13,7,7,0.5,0.5
2023-08-23T13:00:00,1684A,110.3316,21.2679,湛江市,麻章区环保局,,26,26,27,11,15,119,72,47,47,5,13,6,9,0.5,0.6
2023-08-23T13:00:00,1685A,110.4558,21.2567,湛江市,坡头区环保局,,32,20,15,14,11,102,102,61,61,8,10,9,8,0.4,0.4
2023-08-23T13:00:00,1686A,111.0286,21.4688,茂名市,电白南海,,19,17,17,5,10,78,60,56,46,4,7,4,5,0.6,0.6
2023-08-23T13:00:00,1687A,110.9294,21.6533,茂名市,茂石化七小,,23,19,21,9,12,91,73,47,47,5,9,5,7,0.4,0.5
2023-08-23T13:00:00,1688A,110.9107,21.6687,茂名市,健康路,,,,,,,,,,,,,,,,
2023-08-23T13:00:00,1689A,110.8592,21.6828,茂名市,高岭,,,,19,,14,101,78,46,46,3,7,7,5,0.4,0.6
2023-08-23T13:00:00,1690A,116.1231,24.3284,梅州市,梅江月梅,,25,13,19,8,8,79,79,43,43,5,16,1,2,0.6,0.7
2023-08-23T13:00:00,1691A,116.0797,24.2719,梅州市,梅县新城,,23,20,17,10,7,72,72,48,48,4,11,5,4,0.6,0.6
2023-08-23T13:00:00,1692A,116.1248,24.2654,梅州市,环境监控中心,,23,16,18,10,8,73,73,46,46,5,14,7,7,0.4,0.5
2023-08-23T13:00:00,1693A,115.3653,22.775,汕尾市,市环保局,,19,9,14,8,6,70,59,45,44,5,6,3,3,0.7,0.6
2023-08-23T13:00:00,1694A,115.3706,22.7898,汕尾市,市政府,,43,12,12,30,24,76,61,49,45,4,5,5,4,0.6,0.6
2023-08-23T13:00:00,1695A,115.3622,22.7925,汕尾市,新城中学,,,44,17,10,7,71,50,42,38,4,5,,6,0.5,0.6
2023-08-23T13:00:00,1696A,114.6778,23.7569,河源市,源西,,32,15,26,12,14,100,100,45,45,6,12,4,4,0.6,0.6
2023-08-23T13:00:00,1697A,114.6944,23.7586,河源市,东埔,,31,17,30,11,12,106,97,48,48,7,11,5,5,0.5,0.5
2023-08-23T13:00:00,1698A,114.6892,23.7233,河源市,老城,,33,20,33,13,11,109,105,50,50,8,12,4,4,0.5,0.5
2023-08-23T13:00:00,1699A,111.9797,21.8593,阳江市,鸳鸯湖,,18,11,12,6,7,61,55,44,41,7,5,4,4,0.6,0.5
2023-08-23T13:00:00,1701A,111.9491,21.8658,阳江市,马南垌,,32,12,15,22,7,71,49,48,40,8,6,5,4,0.5,0.5
2023-08-23T13:00:00,1702A,113.0426,23.691,清远市,环保大楼,,36,31,25,25,25,108,108,57,42,7,20,6,7,0.6,0.6
2023-08-23T13:00:00,1703A,113.0208,23.7106,清远市,凤城街办,,30,28,34,19,18,94,94,51,39,6,16,6,6,0.5,0.6
2023-08-23T13:00:00,1705A,116.6367,23.6719,潮州市,西园路,,29,26,31,5,17,113,90,33,33,7,16,2,3,0.2,0.3
2023-08-23T13:00:00,1706A,116.6447,23.6706,潮州市,档案局,,30,26,31,11,15,120,95,40,40,6,16,4,6,0.6,0.7
2023-08-23T13:00:00,1708A,116.3701,23.5345,揭阳市,新兴,,41,41,30,14,13,81,78,44,44,5,12,5,6,0.6,0.8
2023-08-23T13:00:00,1709A,116.3264,23.5443,揭阳市,西马,,,,28,,14,71,71,39,39,6,12,5,6,0.6,0.7
2023-08-23T13:00:00,1710A,116.3611,23.5626,揭阳市,东兴,,27,27,29,11,13,86,86,48,48,8,15,2,4,0.7,0.8
2023-08-23T13:00:00,1711A,116.4151,23.5294,揭阳市,渔湖,,41,41,37,7,11,86,82,43,43,2,11,3,5,0.6,0.6
2023-08-23T13:00:00,1712A,112.0392,22.9169,云浮市,新市府,,21,17,14,10,8,80,66,39,39,4,4,6,6,0.6,0.6
2023-08-23T13:00:00,1714A,112.0539,22.9539,云浮市,牧羊,,39,39,27,18,13,91,70,36,36,16,19,17,11,0.5,0.5
2023-08-23T13:00:00,1715A,102.575,24.3711,玉溪市,东风水库,,16,12,24,7,13,87,49,21,20,7,14,4,5,0.8,1
2023-08-23T13:00:00,1718A,115.4208,35.2464,菏泽市,气象局,臭氧1小时,77,83,74,25,23,181,181,128,128,4,7,3,5,0.4,0.5
2023-08-23T13:00:00,1719A,115.4747,35.2375,菏泽市,市政协,臭氧1小时,82,77,74,33,26,187,185,134,134,4,12,7,6,0.5,0.5
2023-08-23T13:00:00,1721A,113.3819,40.1097,大同市,果树场,,,,,,,,,,,,,,,,
2023-08-23T13:00:00,1723A,113.2994,40.0758,大同市,云冈宾馆,,40,25,37,2,9,129,127,71,71,8,19,8,10,0.5,0.7
2023-08-23T13:00:00,1724A,113.3444,40.0917,大同市,大同大学,,40,23,34,9,11,140,126,76,76,6,17,7,11,0.3,0.5
2023-08-23T13:00:00,1725A,113.2661,40.1269,大同市,安家小村,,38,29,40,3,9,134,120,71,71,10,16,12,12,0.4,0.5
2023-08-23T13:00:00,1726A,113.2711,40.0844,大同市,教育学院,,39,26,43,17,11,134,124,70,70,15,22,6,9,0.4,0.7
2023-08-23T13:00:00,1727A,113.1147,36.1547,长治市,清华站,,,49,31,22,13,197,162,93,68,6,17,9,9,,0.9
2023-08-23T13:00:00,1728A,113.1031,36.1989,长治市,监测站,臭氧1小时,60,48,32,24,17,211,168,68,67,12,23,5,6,0.9,1
2023-08-23T13:00:00,1730A,113.0886,36.2125,长治市,审计局,颗粒物(PM10),51,52,27,24,19,196,158,80,61,8,18,7,8,0.9,1
2023-08-23T13:00:00,1731A,113.0844,36.1856,长治市,长治八中,颗粒物(PM10),53,56,37,22,15,228,160,78,59,9,20,9,12,0.9,0.9
2023-08-23T13:00:00,1733A,111.5531,36.0783,临汾市,临钢医院,颗粒物(PM10),58,65,67,18,17,195,130,69,69,15,21,12,10,1.3,1.1
2023-08-23T13:00:00,1734A,111.5028,36.0714,临汾市,技工学校,颗粒物(PM10),63,75,56,14,20,207,125,82,82,25,20,14,11,1.3,1
2023-08-23T13:00:00,1736A,111.5018,36.0855,临汾市,市委,,,74,61,25,17,183,116,73,73,23,21,,9,1.0,0.7
2023-08-23T13:00:00,1738A,113.5758,37.8572,阳泉市,市中心,,,,32,,15,142,116,54,54,32,35,22,14,0.9,0.8
2023-08-23T13:00:00,1739A,113.4894,37.8731,阳泉市,赛鱼,,40,35,36,11,12,142,126,53,53,27,36,13,8,0.8,0.6
2023-08-23T13:00:00,1740A,113.5819,37.8486,阳泉市,南庄,颗粒物(PM10),58,66,47,19,15,143,128,60,60,29,29,23,17,0.8,0.7
2023-08-23T13:00:00,1742A,113.5614,37.8703,阳泉市,平坦,,43,43,39,24,13,145,119,58,58,33,40,20,10,0.7,0.5
2023-08-23T13:00:00,1743A,113.5158,37.8392,阳泉市,大阳泉,,50,50,29,18,17,142,114,124,84,29,19,17,11,0.8,0.6
2023-08-23T13:00:00,1744A,118.9233,42.2816,赤峰市,松山一中,,35,6,16,3,5,111,111,58,58,13,22,10,11,0.2,0.3
2023-08-23T13:00:00,1745A,118.9576,42.2728,赤峰市,哈达街,,35,7,13,4,5,110,110,60,60,14,21,14,15,0.0,0.1
2023-08-23T13:00:00,1746A,118.8788,42.2554,赤峰市,天义路,,38,5,11,4,7,119,119,70,70,11,17,9,12,0.2,0.2
2023-08-23T13:00:00,1748A,123.044,41.1196,鞍山市,深沟寺,,35,24,26,11,10,110,109,59,59,10,16,7,5,0.8,0.9
2023-08-23T13:00:00,1749A,123.011,41.0931,鞍山市,太阳城,,35,20,28,10,14,113,112,59,59,13,22,11,9,0.9,1.2
2023-08-23T13:00:00,1750A,123.0485,41.1442,鞍山市,太平,,35,17,30,7,15,116,109,60,60,11,25,10,10,0.6,1
2023-08-23T13:00:00,1751A,122.9642,41.0971,鞍山市,铁西三道街,,40,40,60,7,25,124,107,47,47,16,34,16,13,0.8,1.7
2023-08-23T13:00:00,1752A,122.9341,41.0833,鞍山市,铁西工业园区,,38,38,57,11,18,123,98,45,45,25,31,24,14,1.4,1.5
2023-08-23T13:00:00,1753A,123.022,41.0821,鞍山市,明达新区,,,,,,,,,,,,,,,,
2023-08-23T13:00:00,1754A,123.1289,41.0228,鞍山市,千山,,,,,,,,,,,,,,,,
2023-08-23T13:00:00,1755A,123.7977,41.8491,抚顺市,望花区,,31,19,28,5,17,158,97,46,46,8,20,5,5,0.4,0.5
2023-08-23T13:00:00,1756A,123.9161,41.8822,抚顺市,顺城区,,33,7,27,5,13,144,104,46,46,6,15,5,4,0.4,0.4
2023-08-23T13:00:00,1757A,124.0436,41.8611,抚顺市,东洲区,,29,15,27,3,13,150,92,45,45,5,13,5,6,0.3,0.4
2023-08-23T13:00:00,1758A,123.9247,41.8642,抚顺市,新抚区,,35,15,25,6,13,143,111,47,47,8,16,7,5,0.4,0.5
2023-08-23T13:00:00,1759A,124.0972,41.8961,抚顺市,大伙房水库,,29,4,22,3,8,135,91,44,44,2,10,5,5,0.3,0.4
2023-08-23T13:00:00,1760A,123.7086,41.8391,抚顺市,沈抚新城,,28,9,25,4,11,135,87,41,41,7,19,6,7,0.4,0.6
2023-08-23T13:00:00,1761A,123.8275,41.3064,本溪市,大峪,,28,7,36,7,15,135,87,38,38,9,21,5,5,0.4,0.6
2023-08-23T13:00:00,1762A,123.7567,41.3325,本溪市,溪湖,,27,17,35,2,15,115,86,41,41,5,25,7,7,0.5,0.8
2023-08-23T13:00:00,1763A,123.7169,41.3094,本溪市,彩屯,,26,7,30,3,18,126,81,36,36,16,24,7,7,0.6,0.8
2023-08-23T13:00:00,1764A,123.7669,41.2864,本溪市,东明,,,12,38,15,20,146,90,46,46,,27,9,7,0.5,0.8
2023-08-23T13:00:00,1765A,123.7992,41.2664,本溪市,新立屯,,37,37,35,14,18,126,88,44,44,2,25,8,8,0.7,0.8
2023-08-23T13:00:00,1766A,123.8142,41.3472,本溪市,威宁,,,,36,3,22,121,73,25,25,8,24,6,6,0.4,0.7
2023-08-23T13:00:00,1767A,121.1115,41.0879,锦州市,南山,,,30,26,2,6,106,106,55,55,9,20,,6,0.5,0.7
2023-08-23T13:00:00,1768A,121.0533,40.8434,锦州市,开发区,,34,23,49,11,22,106,106,49,49,4,28,12,18,0.7,0.9
2023-08-23T13:00:00,1769A,121.1836,41.1119,锦州市,百股街道,,35,20,21,7,7,112,112,53,53,8,19,17,11,0.6,0.6
2023-08-23T13:00:00,1770A,121.1178,41.1222,锦州市,天安街道,,34,25,31,11,9,107,107,53,53,13,27,12,8,0.5,0.6
2023-08-23T13:00:00,1771A,121.1303,41.1386,锦州市,北湖公园,颗粒物(PM10),54,57,21,5,6,114,114,63,63,12,22,14,9,0.4,0.5
2023-08-23T13:00:00,1772A,126.54,43.8622,吉林市,哈达湾,,24,10,20,3,9,102,75,43,43,7,13,6,6,0.4,0.5
2023-08-23T13:00:00,1773A,126.5844,43.8358,吉林市,东局子,,27,11,21,6,10,108,84,48,48,9,18,6,6,0.5,0.7
2023-08-23T13:00:00,1774A,126.5052,43.8245,吉林市,电力学院,,25,11,21,5,5,107,80,46,46,4,11,8,8,0.6,0.6
2023-08-23T13:00:00,1775A,126.6133,43.8972,吉林市,江北,,27,11,27,2,12,104,84,52,52,10,13,11,8,0.6,0.7
2023-08-23T13:00:00,1776A,126.555,43.8306,吉林市,江南公园,,26,16,21,5,11,108,82,46,46,8,15,4,4,0.6,0.7
2023-08-23T13:00:00,1778A,126.7061,43.7133,吉林市,丰满,,,,,,,,,,,,,,,,
2023-08-23T13:00:00,1779A,123.9305,47.3636,齐齐哈尔市,安居小区,,26,26,18,2,13,75,66,49,49,6,8,5,5,0.3,0.3
2023-08-23T13:00:00,1780A,123.9488,47.3386,齐齐哈尔市,中心广场,,21,12,15,5,7,68,66,50,50,5,9,4,4,0.3,0.3
2023-08-23T13:00:00,1781A,123.9483,47.3227,齐齐哈尔市,农牧车辆厂,,22,22,21,2,3,68,66,50,50,5,9,7,7,0.2,0.3
2023-08-23T13:00:00,1783A,123.945,47.2988,齐齐哈尔市,市环境监测站,,22,7,14,7,6,68,68,53,53,3,8,7,8,0.1,0.2
2023-08-23T13:00:00,1784A,129.61,44.561,牡丹江市,环保大楼,,20,19,15,11,6,74,64,40,40,10,13,6,5,0.4,0.5
2023-08-23T13:00:00,1785A,129.6115,44.5782,牡丹江市,文化广场,,32,17,22,22,14,71,55,34,34,11,17,7,6,0.5,0.6
2023-08-23T13:00:00,1786A,129.5904,44.5963,牡丹江市,第一医院,,16,16,18,6,10,70,51,36,36,6,11,5,5,0.3,0.5
2023-08-23T13:00:00,1787A,129.6364,44.6075,牡丹江市,机车工厂,,23,23,20,6,6,64,56,34,34,2,12,2,3,0.4,0.6
2023-08-23T13:00:00,1788A,129.6386,44.5462,牡丹江市,第一中学,,32,32,25,21,8,76,60,41,41,11,13,6,5,0.3,0.4
2023-08-23T13:00:00,1789A,124.81117,46.03138,大庆市,大同区,,21,18,15,6,8,79,66,50,50,5,8,5,6,0.2,0.2
2023-08-23T13:00:00,1790A,125.129,46.533,大庆市,龙凤区,,,16,18,8,8,77,76,54,54,5,10,3,4,,0.2
2023-08-23T13:00:00,1791A,124.902,46.408,大庆市,红岗区,,,,,,,,,,,,,,,,
2023-08-23T13:00:00,1792A,125.153,46.586,大庆市,萨尔图区,,,20,16,3,6,70,67,52,52,6,10,5,5,,0.4
2023-08-23T13:00:00,1793A,124.9042,46.6215,大庆市,让胡路区,,22,7,10,3,6,70,68,52,52,5,8,5,5,0.2,0.3
2023-08-23T13:00:00,1794A,118.3606,31.3519,芜湖市,监测站,,48,15,30,9,19,151,151,99,99,11,31,5,7,0.6,1
2023-08-23T13:00:00,1795A,118.3714,31.4134,芜湖市,科创中心,臭氧1小时,53,37,37,14,22,162,162,100,100,10,35,6,10,0.6,1.1
2023-08-23T13:00:00,1796A,118.3673,31.3131,芜湖市,四水厂,,49,22,26,13,18,156,156,101,101,8,26,3,4,0.6,1
2023-08-23T13:00:00,1798A,118.5092,31.6837,马鞍山市,湖东路四小,臭氧1小时,58,20,34,9,30,166,166,111,111,12,22,7,9,0.6,1
2023-08-23T13:00:00,1799A,118.5024,31.6449,马鞍山市,开发区,臭氧1小时,62,38,40,14,23,169,169,114,114,5,17,6,7,0.6,1
2023-08-23T13:00:00,1800A,118.5228,31.7231,马鞍山市,慈湖,臭氧1小时,72,31,55,18,31,177,177,105,105,11,30,8,9,0.6,0.9
2023-08-23T13:00:00,1802A,118.6245,31.7241,马鞍山市,濮塘,臭氧1小时,59,29,20,19,21,167,167,95,95,2,4,4,3,0.7,1
2023-08-23T13:00:00,1803A,115.9872,29.6815,九江市,十里,,45,42,27,27,16,144,144,83,83,9,15,9,9,0.6,0.7
2023-08-23T13:00:00,1804A,115.9584,29.7046,九江市,茅山头,,45,33,26,24,21,142,142,92,92,11,20,9,10,0.9,0.9
2023-08-23T13:00:00,1805A,115.9877,29.7295,九江市,西园,,49,39,26,25,13,155,155,108,98,6,18,9,9,0.6,0.7
2023-08-23T13:00:00,1806A,116.0172,29.6547,九江市,五七二七厂,,44,34,24,27,13,138,138,90,90,6,7,9,8,0.7,0.6
2023-08-23T13:00:00,1808A,115.9114,29.6038,九江市,综合工业园,,48,40,24,28,16,152,152,106,79,13,23,11,11,0.8,0.8
2023-08-23T13:00:00,1809A,116.0721,29.7535,九江市,石化总厂,,45,45,25,26,16,138,138,95,95,10,16,10,11,0.8,0.8
2023-08-23T13:00:00,1810A,115.9773,29.5698,九江市,庐山气象台,,42,38,25,29,22,134,131,130,123,31,17,7,9,1.0,0.7
2023-08-23T13:00:00,1812A,112.3931,34.6516,洛阳市,市委党校,臭氧1小时,69,55,49,35,29,202,175,126,103,8,13,9,8,0.7,0.6
2023-08-23T13:00:00,1814A,112.4657,34.6871,洛阳市,豫西宾馆,臭氧1小时,89,56,53,30,28,218,191,124,117,12,14,6,4,0.5,0.9
2023-08-23T13:00:00,1815A,112.494,34.6886,洛阳市,河南林校,臭氧1小时,69,46,46,28,25,214,175,121,111,15,19,6,6,0.8,0.8
2023-08-23T13:00:00,1816A,112.3844,34.623,洛阳市,开发区管委会,,,56,52,26,25,223,185,132,116,12,14,10,9,,0.5
2023-08-23T13:00:00,1817A,112.4267,34.6258,洛阳市,市委新办公区,,,53,54,,29,200,174,125,111,11,17,7,7,0.7,0.7
2023-08-23T13:00:00,1818A,114.4839,36.0621,安阳市,棉研所,,,,,,,,,,,,,,,,
2023-08-23T13:00:00,1819A,114.3551,36.1017,安阳市,红庙街,臭氧1小时,98,61,58,24,25,198,198,100,95,7,13,26,16,1.4,1.3
2023-08-23T13:00:00,1820A,114.361,36.0681,安阳市,银杏小区,,,57,58,,12,206,200,115,93,7,12,16,9,1.2,1.1
2023-08-23T13:00:00,1824A,114.3389,34.7781,开封市,肿瘤医院,颗粒物(PM10),60,70,53,17,22,183,152,117,114,2,10,5,6,0.5,0.6
2023-08-23T13:00:00,1826A,114.2885,34.7965,开封市,世纪星幼儿园,,,63,53,,27,174,96,72,72,10,17,7,8,0.7,0.6
2023-08-23T13:00:00,1828A,113.227,35.2125,焦作市,市环保局,,,25,44,17,24,217,158,94,93,7,16,,9,0.5,0.6
2023-08-23T13:00:00,1830A,113.1992,35.2590,焦作市,影视城,,,,,,,,,,,,,,,,
2023-08-23T13:00:00,1832A,113.3257,33.742,平顶山市,新华旅馆,臭氧1小时,58,42,68,25,33,189,166,96,96,8,30,3,3,0.5,0.7
2023-08-23T13:00:00,1833A,113.2919,33.737,平顶山市,规划设计院,"颗粒物(PM10),臭氧1小时",53,56,69,27,41,197,162,98,96,7,19,8,8,0.7,0.9
2023-08-23T13:00:00,1834A,113.182,33.774,平顶山市,平顶山工学院,臭氧1小时,59,52,67,24,32,210,167,101,97,10,18,5,7,0.6,0.7
2023-08-23T13:00:00,1835A,111.1922,34.7752,三门峡市,市政府,颗粒物(PM10),57,63,57,33,27,188,127,114,96,12,18,6,6,0.8,0.7
2023-08-23T13:00:00,1836A,111.1587,34.7942,三门峡市,开发区,颗粒物(PM10),62,73,68,32,27,192,130,106,100,12,16,8,6,0.8,0.7
2023-08-23T13:00:00,1838A,111.143,34.7955,三门峡市,风景区,,,,,,,,,,,,,,,,
2023-08-23T13:00:00,1840A,111.2992,30.6981,宜昌市,白龙岗,颗粒物(PM10),52,53,41,19,15,158,156,79,79,13,19,4,5,0.3,0.4
2023-08-23T13:00:00,1841A,111.3549,30.6465,宜昌市,伍家岗,臭氧1小时,58,42,38,22,18,166,166,87,87,16,18,4,3,0.6,0.6
2023-08-23T13:00:00,1842A,111.2628,30.6961,宜昌市,点军区,,47,44,39,19,18,165,148,83,83,16,14,6,6,0.7,0.6
2023-08-23T13:00:00,1843A,111.3275,30.7819,宜昌市,夷陵区,,,23,34,19,13,166,166,73,73,14,18,,4,0.6,0.5
2023-08-23T13:00:00,1844A,112.2494,30.3197,荆州市,市图书馆,臭氧1小时,54,38,43,17,22,163,163,98,98,13,16,10,9,0.6,0.7
2023-08-23T13:00:00,1845A,112.2008,30.3544,荆州市,市委党校,臭氧1小时,69,44,43,32,26,175,175,106,106,11,18,9,8,0.7,0.8
2023-08-23T13:00:00,1847A,113.1094,29.3578,岳阳市,南湖风景区,臭氧1小时,63,28,27,14,17,170,170,102,102,6,15,6,7,1.0,1
2023-08-23T13:00:00,1848A,113.1493,29.4251,岳阳市,城陵矶,臭氧1小时,64,34,26,18,18,171,171,104,104,16,27,11,9,1.0,0.9
2023-08-23T13:00:00,1849A,113.1497,29.3575,岳阳市,开发区,,46,26,29,15,19,147,147,88,88,4,16,6,8,0.6,0.7
2023-08-23T13:00:00,1850A,113.2621,29.4758,岳阳市,云溪区,,45,28,25,16,17,141,141,90,90,5,10,8,7,0.7,0.7
2023-08-23T13:00:00,1851A,112.9943,29.4402,岳阳市,君山区,,47,23,31,7,24,159,148,97,97,9,23,9,9,0.6,0.6
2023-08-23T13:00:00,1852A,113.2117,29.355,岳阳市,金凤水库,,44,16,21,6,14,141,139,99,99,2,8,3,3,0.5,0.5
2023-08-23T13:00:00,1854A,111.6975,28.9703,常德市,市二中,,42,38,34,16,23,135,133,78,78,2,14,4,4,0.6,0.6
2023-08-23T13:00:00,1857A,111.7158,29.1456,常德市,白鹤山,,40,15,17,9,8,131,128,108,108,2,3,6,7,0.4,0.4
2023-08-23T13:00:00,1858A,110.5319,29.1217,张家界市,永定新区,,37,29,31,20,20,120,118,68,68,5,11,6,6,0.5,0.4
2023-08-23T13:00:00,1859A,110.4697,29.1242,张家界市,电业局,,40,40,28,21,18,123,121,69,69,4,10,3,3,0.4,0.4
2023-08-23T13:00:00,1860A,110.5594,29.3547,张家界市,未央路,,41,41,28,16,14,116,116,60,60,3,8,3,3,0.3,0.2
2023-08-23T13:00:00,1861A,110.4417,29.315,张家界市,袁家界,,39,39,25,20,14,122,115,85,85,4,5,7,7,0.7,0.7
2023-08-23T13:00:00,1862A,110.4144,25.3167,桂林市,电子科大尧山校区,,21,9,40,10,18,72,66,37,37,6,6,4,4,0.5,0.6
2023-08-23T13:00:00,1863A,110.2819,25.2697,桂林市,监测站,,25,11,40,17,20,74,60,34,34,14,18,6,13,0.6,0.7
2023-08-23T13:00:00,1864A,110.3089,25.2708,桂林市,龙隐路小学,,22,8,35,15,19,68,62,30,30,10,16,6,15,0.6,0.7
2023-08-23T13:00:00,1865A,110.2869,25.2178,桂林市,八中,,13,4,36,6,20,67,41,30,30,21,18,3,4,0.7,0.7
2023-08-23T13:00:00,1866A,109.2262,21.588,北海市,牛尾岭水库,,13,8,12,6,6,62,41,29,29,5,9,4,5,0.4,0.4
2023-08-23T13:00:00,1867A,109.1436,21.4086,北海市,海滩公园,,20,20,13,2,3,65,58,52,45,3,5,3,3,0.5,0.5
2023-08-23T13:00:00,1868A,109.0981,21.4661,北海市,新市环保局,,18,18,11,2,4,68,57,53,47,2,4,3,4,0.3,0.3
2023-08-23T13:00:00,1869A,109.1778,21.5233,北海市,北海工业园,,24,24,18,7,8,70,53,45,45,3,8,4,4,0.5,0.5
2023-08-23T13:00:00,1870A,109.4856,24.3895,柳州市,柳东小学,,15,7,19,5,14,105,45,44,43,7,7,6,7,0.4,0.4
2023-08-23T13:00:00,1871A,109.4157,24.3277,柳州市,环保监测站,,15,8,19,10,17,92,41,44,44,11,12,4,5,0.4,0.5
2023-08-23T13:00:00,1872A,109.389,24.341,柳州市,河西水厂,,12,12,25,7,16,92,37,40,40,17,13,5,6,0.9,0.8
2023-08-23T13:00:00,1873A,109.4311,24.2921,柳州市,市四中,,29,29,23,9,13,102,44,48,47,15,13,7,7,0.8,0.8
2023-08-23T13:00:00,1874A,109.4006,24.3631,柳州市,市九中,,,12,23,,12,95,40,43,43,11,10,6,8,0.9,0.9
2023-08-23T13:00:00,1875A,109.4958,24.3134,柳州市,古亭山,,15,12,20,5,12,107,45,42,41,12,11,5,5,0.5,0.6
2023-08-23T13:00:00,1876A,109.5078,18.2489,三亚市,河东子站,,20,12,17,5,7,61,61,48,48,4,10,3,3,0.3,0.4
2023-08-23T13:00:00,1877A,109.4964,18.2681,三亚市,河西子站,,20,2,15,5,7,63,63,47,47,2,9,3,2,0.3,0.3
2023-08-23T13:00:00,1878A,104.7778,31.4741,绵阳市,富乐山,,32,24,42,18,25,176,100,85,85,5,10,4,4,0.4,0.7
2023-08-23T13:00:00,1879A,104.7563,31.4535,绵阳市,市人大,,30,22,43,18,27,170,96,78,78,7,17,7,10,0.3,0.6
2023-08-23T13:00:00,1880A,104.6697,31.4668,绵阳市,高新区自来水公司,,32,3,49,5,30,187,100,85,85,7,17,6,7,0.5,0.7
2023-08-23T13:00:00,1881A,104.7287,31.5075,绵阳市,三水厂,,32,28,57,18,32,186,102,74,74,6,28,6,7,0.4,0.6
2023-08-23T13:00:00,1882A,104.563,28.793,宜宾市,石马中学,,45,24,56,18,31,168,142,60,60,6,21,8,8,0.6,0.7
2023-08-23T13:00:00,1883A,104.6201,28.7728,宜宾市,市委,,41,38,56,23,33,183,129,52,52,9,23,6,6,0.7,0.7
2023-08-23T13:00:00,1884A,104.6055,28.793,宜宾市,宜宾四中,,43,38,60,28,37,171,136,58,58,7,26,11,11,0.6,0.7
2023-08-23T13:00:00,1885A,104.639,28.7562,宜宾市,市政府,颗粒物(PM10),51,51,57,28,32,178,133,63,63,17,30,8,8,0.8,0.9
2023-08-23T13:00:00,1886A,104.5742,28.7199,宜宾市,黄金嘴,细颗粒物(PM2.5),52,48,46,36,29,165,143,72,72,11,21,8,6,0.7,0.6
2023-08-23T13:00:00,1888A,101.6891,26.571,攀枝花市,弄弄坪,,38,34,33,26,14,103,63,45,45,17,18,11,9,0.7,0.8
2023-08-23T13:00:00,1889A,101.5769,26.5928,攀枝花市,河门口,,26,26,26,13,12,106,78,52,52,16,17,14,9,0.8,0.7
2023-08-23T13:00:00,1890A,101.7169,26.585,攀枝花市,炳草岗,,47,47,36,22,17,114,69,44,44,16,21,14,16,0.8,0.9
2023-08-23T13:00:00,1891A,101.7369,26.5008,攀枝花市,仁和,颗粒物(PM10),53,55,35,30,20,125,66,36,33,22,23,20,22,1.4,1.7
2023-08-23T13:00:00,1893A,105.4324,28.9634,泸州市,九狮山,,35,35,38,18,22,146,105,51,51,15,18,5,5,0.5,0.5
2023-08-23T13:00:00,1894A,105.4427,28.9063,泸州市,小市上码头,,,75,56,53,39,190,139,82,72,,16,3,4,0.7,0.8
2023-08-23T13:00:00,1895A,105.4241,28.8573,泸州市,兰田宪桥,细颗粒物(PM2.5),68,69,60,49,45,187,135,73,73,5,15,8,6,0.6,0.7
2023-08-23T13:00:00,1896A,105.4379,28.8833,泸州市,市环监站,细颗粒物(PM2.5),64,61,57,46,35,180,144,75,69,8,19,5,5,0.8,0.8
2023-08-23T13:00:00,1901A,104.4239,31.1208,德阳市,东山公园,,37,37,55,19,25,198,96,90,67,2,11,1,4,0.4,0.6
2023-08-23T13:00:00,1902A,104.3826,31.1317,德阳市,西小区,,45,45,52,20,28,213,103,84,69,3,18,3,2,0.4,0.6
2023-08-23T13:00:00,1904A,104.3553,31.1091,德阳市,耐火材料厂,颗粒物(PM10),51,52,63,15,30,219,98,70,70,9,18,3,2,0.4,0.7
2023-08-23T13:00:00,1905A,106.056,30.8064,南充市,西山风景区,,28,28,45,13,29,141,88,117,65,5,9,2,5,0.5,0.6
2023-08-23T13:00:00,1906A,106.0789,30.8023,南充市,南充市委,,30,25,52,21,30,139,86,51,51,10,21,7,10,0.4,0.5
2023-08-23T13:00:00,1907A,106.1031,30.8217,南充市,南充炼油厂,,27,24,71,15,36,141,85,58,58,8,17,8,9,0.5,0.5
2023-08-23T13:00:00,1908A,106.1064,30.7856,南充市,高坪区监测站,,28,28,57,18,39,126,83,57,57,9,20,7,8,0.3,0.5
2023-08-23T13:00:00,1909A,106.0642,30.7636,南充市,嘉陵区环保局,,32,26,58,22,34,137,84,49,49,12,28,5,8,0.3,0.5
2023-08-23T13:00:00,1910A,106.1087,30.8388,南充市,市环境监测站,,36,26,57,25,36,143,80,62,58,7,17,6,8,0.4,0.5
2023-08-23T13:00:00,1911A,106.9222,27.6869,遵义市,丁字口,,30,9,22,7,13,123,94,84,70,8,12,5,5,0.5,0.6
2023-08-23T13:00:00,1912A,106.9242,27.7019,遵义市,凤凰山,,30,20,27,11,20,128,96,99,77,4,7,6,7,0.5,0.6
2023-08-23T13:00:00,1913A,106.8906,27.6486,遵义市,忠庄,,31,13,26,10,13,137,99,89,76,5,11,2,2,0.5,0.5
2023-08-23T13:00:00,1914A,106.9231,27.6506,遵义市,舟水桥,,30,9,20,8,12,126,94,71,65,2,7,2,2,0.6,0.6
2023-08-23T13:00:00,1915A,106.9178,27.72,遵义市,干田坝,,31,11,24,5,13,129,97,85,66,4,11,5,6,0.5,0.6
2023-08-23T13:00:00,1916A,103.7897,25.5035,曲靖市,环境监测站,,37,37,24,10,12,109,101,60,58,12,16,6,2,0.7,0.7
2023-08-23T13:00:00,1917A,103.8,25.5364,曲靖市,烟厂办公区,,38,37,28,25,14,119,119,60,60,11,15,3,4,0.7,0.9
2023-08-23T13:00:00,1918A,108.7197,34.3956,咸阳市,气象站,,,,,,,,,,,,,,,,
2023-08-23T13:00:00,1919A,108.673,34.3155,咸阳市,实验中学,,47,47,36,15,15,181,57,94,63,20,12,5,5,0.6,0.5
2023-08-23T13:00:00,1920A,108.7233,34.3617,咸阳市,师范学院,,36,36,39,12,13,196,61,101,66,20,16,5,5,0.7,0.6
2023-08-23T13:00:00,1922A,109.0656,35.0994,铜川市,党校,,36,36,57,15,26,120,89,44,44,24,26,11,8,0.7,0.7
2023-08-23T13:00:00,1923A,109.0697,35.0697,铜川市,王益区政府,,36,36,44,18,23,127,86,46,46,25,28,9,7,0.4,0.4
2023-08-23T13:00:00,1924A,108.9344,34.9058,铜川市,新区管委会,,29,29,43,13,16,145,90,64,64,16,20,5,6,0.5,0.5
2023-08-23T13:00:00,1926A,109.4131,36.6275,延安市,枣园,,26,20,26,11,10,135,81,42,42,21,28,6,6,0.7,0.7
2023-08-23T13:00:00,1927A,109.4761,36.6028,延安市,延大医附院,,35,35,31,11,9,131,79,37,37,18,29,4,4,0.4,0.4
2023-08-23T13:00:00,1929A,109.5056,36.6106,延安市,百米大道,,34,34,38,13,13,128,94,45,45,19,37,4,3,0.5,0.6
2023-08-23T13:00:00,1930A,107.185,34.3063,宝鸡市,庙沟村,,20,6,20,6,11,128,63,96,51,8,8,4,4,0.3,0.3
2023-08-23T13:00:00,1931A,107.0708,34.3017,宝鸡市,竹园沟,,,,23,11,12,148,106,98,56,5,8,5,5,0.4,0.5
2023-08-23T13:00:00,1932A,107.1906,34.3672,宝鸡市,三陆医院,,26,21,27,0,10,144,81,100,42,17,21,4,5,0.5,0.5
2023-08-23T13:00:00,1933A,107.1431,34.3547,宝鸡市,监测站,,26,8,27,7,13,145,82,99,44,13,21,6,6,0.4,0.4
2023-08-23T13:00:00,1934A,107.1186,34.3739,宝鸡市,技工学校,,28,8,25,5,11,146,88,103,56,8,17,6,6,0.4,0.4
2023-08-23T13:00:00,1935A,107.3906,34.3528,宝鸡市,陈仓区环保局家属楼,,,,31,13,12,170,59,117,46,31,17,8,8,0.4,0.6
2023-08-23T13:00:00,1936A,107.2058,34.3497,宝鸡市,文理学院,,26,10,28,5,8,151,82,110,43,11,16,4,4,0.5,0.5
2023-08-23T13:00:00,1937A,107.2386,34.3622,宝鸡市,三迪小学,,25,25,29,13,14,154,77,117,45,17,17,5,6,0.5,0.5
2023-08-23T13:00:00,1938A,109.5293,34.5101,渭南市,农科所,,44,44,53,19,24,158,34,74,39,43,28,5,5,0.4,0.4
2023-08-23T13:00:00,1939A,109.4974,34.4877,渭南市,日报社,颗粒物(PM10),51,51,52,19,25,177,52,70,46,39,33,4,5,0.5,0.4
2023-08-23T13:00:00,1940A,109.4636,34.493,渭南市,体育馆,,46,46,49,15,18,194,59,73,44,35,32,3,4,0.5,0.5
2023-08-23T13:00:00,1941A,109.4259,34.5023,渭南市,高新一小,,47,47,55,12,18,183,68,71,47,29,27,5,5,0.5,0.5
2023-08-23T13:00:00,1943A,102.1725,38.5339,金昌市,新川苑,,45,45,51,4,10,141,133,124,91,6,13,8,9,0.5,0.5
2023-08-23T13:00:00,1944A,102.1692,38.5167,金昌市,天庆家园,,41,36,45,8,12,144,129,131,101,8,13,10,10,0.4,0.5
2023-08-23T13:00:00,1945A,98.2908,39.7711,嘉峪关市,气象局,颗粒物(PM10),60,70,68,22,17,131,130,94,85,5,20,3,8,0.3,0.4
2023-08-23T13:00:00,1947A,106.3394,38.817,石嘴山市,沙湖旅游区,,42,41,56,10,14,148,132,108,108,4,13,2,12,0.5,0.8
2023-08-23T13:00:00,1948A,106.3668,39.0145,石嘴山市,大武口朝阳西街,颗粒物(PM10),57,63,64,18,18,149,124,104,104,22,20,99,23,1.0,0.6
2023-08-23T13:00:00,1949A,106.7704,39.2282,石嘴山市,惠农南大街,颗粒物(PM10),54,57,74,21,17,151,135,109,109,24,28,27,27,0.8,0.7
2023-08-23T13:00:00,1950A,106.7099,39.1325,石嘴山市,红果子镇惠新街,,43,43,59,12,13,150,130,116,116,13,21,14,21,0.6,0.5
2023-08-23T13:00:00,1951A,84.895,45.6094,克拉玛依市,长征新村,,34,34,27,4,6,129,90,94,74,14,16,10,10,0.2,0.2
2023-08-23T13:00:00,1952A,84.8988,45.5893,克拉玛依市,南林小区,,45,45,34,15,10,124,89,84,46,19,29,8,8,0.1,0.3
2023-08-23T13:00:00,1954A,84.905,44.3396,克拉玛依市,独山子区,,32,9,23,7,12,140,100,100,88,6,13,7,9,0.3,0.4
2023-08-23T13:00:00,1955A,85.6979,46.098,克拉玛依市,乌尔禾区商贸楼,,29,5,21,20,8,109,88,46,46,4,17,7,8,0.3,0.4
2023-08-23T13:00:00,1956A,86.1472,41.7538,巴音郭楞州,孔雀公园,,50,50,57,10,15,146,117,126,122,8,17,6,7,0.2,0.3
2023-08-23T13:00:00,1957A,86.1972,41.7166,巴音郭楞州,棉纺厂,,45,45,66,13,24,145,114,118,116,10,18,4,5,0.3,0.4
2023-08-23T13:00:00,1958A,86.2357,41.7173,巴音郭楞州,经济开发区,,38,20,63,11,21,144,119,124,122,8,10,6,8,0.2,0.2
2023-08-23T13:00:00,1961A,117.532,36.6868,济南市,东山小学,臭氧1小时,78,66,43,10,12,182,182,118,118,13,27,9,7,0.6,0.5
2023-08-23T13:00:00,1966A,120.0405,35.8735,青岛市,黄岛区4号,,,27,48,7,22,181,144,114,114,11,23,,3,0.4,0.5
2023-08-23T13:00:00,1982A,122.0693,37.2174,威海市,文登开发区,,45,39,37,14,17,146,142,119,114,5,8,7,7,0.7,0.9
2023-08-23T13:00:00,2031A,113.1817,27.9958,株洲市,云田中学,,37,24,31,20,14,145,118,66,66,5,10,5,4,0.8,0.7
2023-08-23T13:00:00,2054A,114.1099,32.1059,信阳市,平桥分局,,48,26,31,19,18,151,151,90,90,2,12,2,2,0.9,1
2023-08-23T13:00:00,2064A,113.9956,32.1271,信阳市,南湾水厂,,47,31,39,13,17,150,150,96,96,4,7,3,2,0.5,0.8
2023-08-23T13:00:00,2065A,114.0775,32.1195,信阳市,市酿酒公司,,48,35,39,19,21,152,152,90,90,6,20,3,2,0.4,0.5
2023-08-23T13:00:00,2066A,114.0609,32.1399,信阳市,审计局,臭氧1小时,52,42,35,25,24,161,161,93,93,3,15,5,3,0.5,0.6
2023-08-23T13:00:00,2067A,114.6613,33.6128,周口市,市环境监测站,臭氧1小时,60,55,58,30,34,170,168,96,96,7,20,7,7,0.4,0.4
2023-08-23T13:00:00,2068A,114.6758,33.6347,周口市,周口师范,,,,21,29,28,163,161,93,86,5,16,3,3,0.5,0.7
2023-08-23T13:00:00,2069A,114.6546,33.5979,周口市,市运管处,颗粒物(PM10),57,64,65,27,32,173,162,89,89,7,26,5,6,0.5,0.6
2023-08-23T13:00:00,2070A,114.6369,33.6406,周口市,川汇区环保局,颗粒物(PM10),60,69,55,24,25,159,159,86,86,7,22,4,4,0.7,0.9
2023-08-23T13:00:00,2075A,117.6336,24.4674,漳州市,九湖,,,,,,,,,,,,,,,,
2023-08-23T13:00:00,2160A,112.85,35.5051,晋城市,自来水公司,,49,48,54,19,20,220,154,105,83,9,14,10,11,1.0,1.3
2023-08-23T13:00:00,2161A,112.8318,35.4936,晋城市,白云商贸,颗粒物(PM10),56,61,57,24,18,205,148,95,81,16,23,10,12,1.0,1.4
2023-08-23T13:00:00,2162A,112.8508,35.4887,晋城市,市环保局,,47,47,61,27,22,210,142,104,76,13,23,10,11,0.9,1.2
2023-08-23T13:00:00,2163A,112.8676,35.4897,晋城市,技术学院,,47,43,45,27,20,218,150,107,75,11,21,9,11,1.0,1.1
2023-08-23T13:00:00,2165A,112.8453,35.546,晋城市,白马寺,,,,,,,,,,,,,,,,
2023-08-23T13:00:00,2166A,112.4397,39.3522,朔州市,平朔,,46,46,56,19,15,124,101,61,61,13,24,13,9,0.7,0.4
2023-08-23T13:00:00,2167A,112.4575,39.3617,朔州市,朔唯,颗粒物(PM10),53,56,71,26,18,128,111,55,55,14,26,14,12,0.6,0.5
2023-08-23T13:00:00,2168A,112.4258,39.3197,朔州市,区政府,,47,47,55,15,14,125,112,62,62,13,24,8,10,0.6,0.5
2023-08-23T13:00:00,2169A,112.4072,39.3278,朔州市,市环保局,颗粒物(PM10),51,52,55,14,14,132,117,70,70,15,24,13,13,0.6,0.4
2023-08-23T13:00:00,2170A,112.4272,39.3681,朔州市,市二中,颗粒物(PM10),53,55,73,22,20,130,97,49,49,17,31,16,13,0.5,0.5
2023-08-23T13:00:00,2171A,112.7532,37.6945,晋中市,锦纶小区,臭氧1小时,73,44,40,14,9,178,178,101,100,14,22,12,10,0.6,0.4
2023-08-23T13:00:00,2173A,112.7249,37.7067,晋中市,南都小区,臭氧1小时,70,48,43,15,15,176,176,104,104,13,20,8,7,0.5,0.4
2023-08-23T13:00:00,2174A,112.6991,37.6982,晋中市,榆次区政府,臭氧1小时,68,53,42,20,15,174,174,99,99,14,25,10,8,0.6,0.4
2023-08-23T13:00:00,2175A,110.9956,35.0147,运城市,运城中学,颗粒物(PM10),55,60,60,36,26,165,97,104,87,12,14,8,5,0.8,0.6
2023-08-23T13:00:00,2178A,110.9686,35.0303,运城市,地区技校,颗粒物(PM10),58,65,65,27,26,152,90,74,74,12,21,8,5,0.9,0.8
2023-08-23T13:00:00,2179A,111.0414,35.1147,运城市,空港新区,,,,72,,31,206,105,94,70,17,24,7,7,0.8,1.2
2023-08-23T13:00:00,2181A,112.7383,38.4519,忻州市,开发区,,37,34,36,9,15,130,118,76,66,16,18,16,21,0.6,0.6
2023-08-23T13:00:00,2182A,112.7003,38.4928,忻州市,会展中心,,,,33,,16,125,123,73,73,14,18,13,13,0.5,0.6
2023-08-23T13:00:00,2183A,111.1406,37.5211,吕梁市,环保局,颗粒物(PM10),56,62,74,19,24,156,141,87,87,7,34,4,5,0.5,0.6
2023-08-23T13:00:00,2185A,111.1297,37.5136,吕梁市,自来水公司,,47,47,72,15,20,156,144,81,81,7,33,4,6,0.5,0.6
2023-08-23T13:00:00,2187A,106.8174,39.6973,乌海市,市林业局,,41,25,45,6,13,131,131,94,85,9,13,11,10,0.4,0.6
2023-08-23T13:00:00,2188A,106.7907,39.6667,乌海市,中海勃湾学校,,43,17,34,10,11,136,136,106,106,10,11,12,9,0.3,0.3
2023-08-23T13:00:00,2191A,122.2532,43.6801,通辽市,艺术职业学校,,33,13,22,4,6,103,103,65,65,10,18,6,5,0.2,0.2
2023-08-23T13:00:00,2192A,119.7594,49.2261,呼伦贝尔市,区环保局,,,,,,,,,,,,,,,,
2023-08-23T13:00:00,2195A,107.4212,40.761,巴彦淖尔市,附二中,,35,35,53,9,13,120,90,76,69,4,10,6,7,0.4,0.4
2023-08-23T13:00:00,2196A,107.37,40.7372,巴彦淖尔市,市环保大楼,,36,36,45,12,14,121,93,85,58,5,10,4,4,0.4,0.4
2023-08-23T13:00:00,2197A,113.1306,40.9923,乌兰察布市,集宁新区,,29,20,22,13,10,127,91,76,75,6,7,12,11,0.2,0.2
2023-08-23T13:00:00,2200A,122.0392,46.0656,兴安盟,胜华新制药厂,,21,16,20,7,12,66,66,51,51,4,9,2,2,0.2,0.3
2023-08-23T13:00:00,2201A,121.9504,46.0741,兴安盟,科右前旗环保局,,21,10,16,14,14,67,67,54,54,3,6,4,3,0.4,0.4
2023-08-23T13:00:00,2202A,116.1042,43.9317,锡林郭勒盟,市环保监测站,,25,7,21,6,8,85,77,50,50,3,15,9,9,0.2,0.2
2023-08-23T13:00:00,2203A,116.0781,43.9311,锡林郭勒盟,市政府,,26,16,14,8,4,89,83,57,57,4,16,11,11,0.2,0.3
2023-08-23T13:00:00,2204A,105.6467,38.8363,阿拉善盟,西城区西花园,,41,23,51,16,15,142,131,117,109,6,10,6,6,0.4,0.4
2023-08-23T13:00:00,2205A,105.6985,38.8411,阿拉善盟,蒙二幼,,42,20,44,10,13,139,132,114,114,3,6,6,5,0.4,0.4
2023-08-23T13:00:00,2206A,105.724,38.8516,阿拉善盟,环保局新楼,颗粒物(PM10),91,132,42,7,10,134,128,119,119,5,6,7,8,0.5,0.5
2023-08-23T13:00:00,2207A,121.6094,41.998,阜新市,工业园区,,33,25,38,7,8,110,104,53,53,7,24,8,9,0.5,0.7
2023-08-23T13:00:00,2208A,121.6697,42.0279,阜新市,长青街,,31,21,41,7,14,102,99,46,46,10,24,10,8,0.3,1.8
2023-08-23T13:00:00,2209A,121.6673,42.0705,阜新市,农业园区,,31,28,22,5,7,99,99,58,58,8,16,9,10,0.4,0.9
2023-08-23T13:00:00,2210A,121.6717,42.0224,阜新市,东苑,,30,29,48,14,16,99,93,45,45,8,22,8,8,0.2,2.5
2023-08-23T13:00:00,2211A,121.6506,42.0498,阜新市,玉龙新城,,29,19,35,7,10,92,92,42,42,2,18,8,7,0.4,0.7
2023-08-23T13:00:00,2212A,123.2,41.1953,辽阳市,宏伟区,,35,25,36,12,16,119,109,59,59,10,19,24,17,0.6,0.6
2023-08-23T13:00:00,2213A,123.1683,41.2495,辽阳市,新华园,,30,30,41,11,17,109,96,50,50,10,22,14,29,0.5,0.6
2023-08-23T13:00:00,2214A,123.2354,41.2639,辽阳市,滨河路,,31,25,42,12,17,111,97,51,51,11,19,24,15,0.6,0.7
2023-08-23T13:00:00,2215A,123.149,41.2991,辽阳市,铁西工业园,,30,12,36,15,19,118,96,47,47,8,25,10,17,0.6,0.7
2023-08-23T13:00:00,2216A,123.8139,42.3022,铁岭市,汇工街西,,33,22,26,10,10,113,104,54,54,8,18,11,24,0.3,0.4
2023-08-23T13:00:00,2217A,123.8649,42.2923,铁岭市,水上乐园,,30,13,20,0,6,101,93,52,52,11,15,3,2,0.4,0.5
2023-08-23T13:00:00,2218A,123.8486,42.2867,铁岭市,银州路东段,,26,11,17,4,5,103,81,46,46,16,19,7,7,0.3,0.4
2023-08-23T13:00:00,2219A,123.7153,42.2217,铁岭市,金沙江路北,,30,8,20,2,4,103,93,57,57,10,18,5,6,0.3,0.6
2023-08-23T13:00:00,2220A,120.4318,41.5881,朝阳市,西梁,,,26,32,7,10,133,133,58,58,7,26,,11,0.5,0.5
2023-08-23T13:00:00,2221A,120.4521,41.5646,朝阳市,河畔小区,,42,20,21,5,4,132,132,63,63,5,15,9,8,0.4,0.5
2023-08-23T13:00:00,2222A,120.4176,41.5648,朝阳市,八里堡,,41,19,30,5,8,130,130,58,58,7,25,8,8,0.6,0.6
2023-08-23T13:00:00,2223A,120.3806,41.5969,朝阳市,农业园区,,40,33,27,10,5,128,128,45,45,10,26,9,6,0.7,0.6
2023-08-23T13:00:00,2225A,124.4002,43.1713,四平市,一商场,,,,27,,14,98,89,66,66,7,21,,6,0.2,0.3
2023-08-23T13:00:00,2226A,124.388,43.193,四平市,境园,,28,11,27,4,6,96,88,51,51,2,15,4,4,0.2,0.4
2023-08-23T13:00:00,2227A,125.1358,42.8845,辽源市,环保局,,29,13,20,9,12,121,90,42,42,8,12,40,20,0.4,0.5
2023-08-23T13:00:00,2229A,125.9358,41.7173,通化市,光明,,28,22,20,9,7,89,89,50,50,7,14,7,8,0.5,0.5
2023-08-23T13:00:00,2230A,125.9446,41.7325,通化市,铁路,,28,11,15,9,8,88,88,54,54,4,14,5,5,0.6,0.7
2023-08-23T13:00:00,2231A,126.4219,41.9171,白山市,喜丰,,42,42,32,12,8,92,88,45,45,9,15,9,8,0.6,0.6
2023-08-23T13:00:00,2232A,126.4077,41.9419,白山市,环保局,,29,25,27,10,6,92,92,48,48,6,12,7,7,0.5,0.7
2023-08-23T13:00:00,2233A,124.8006,45.1214,松原市,江南,,20,13,18,5,6,76,63,36,36,5,10,6,5,0.3,0.3
2023-08-23T13:00:00,2234A,124.7965,45.1722,松原市,江北,,22,9,12,4,6,78,70,43,43,4,9,4,4,0.3,0.3
2023-08-23T13:00:00,2235A,122.7911,45.6077,白城市,洮北区环保局,,22,8,10,2,5,78,70,50,50,6,7,6,8,0.1,0.1
2023-08-23T13:00:00,2236A,122.8738,45.5725,白城市,市环保局,,24,8,15,2,2,84,75,58,58,3,8,6,7,0.2,0.2
2023-08-23T13:00:00,2237A,129.47,42.8883,延边朝鲜族自治州,妇幼医院,,15,15,12,4,4,71,44,67,49,11,10,8,8,0.6,0.6
2023-08-23T13:00:00,2238A,129.5055,42.9108,延边朝鲜族自治州,延边医院,,16,16,15,8,8,85,46,78,58,28,17,8,7,0.8,0.7
2023-08-23T13:00:00,2239A,129.3964,42.8881,延边朝鲜族自治州,朝阳川镇医院,,17,9,14,2,4,77,52,77,54,5,9,7,7,0.6,0.6
2023-08-23T13:00:00,2240A,130.9762,45.3001,鸡西市,环保局,,38,38,38,16,15,71,71,32,32,16,24,6,6,0.5,0.6
2023-08-23T13:00:00,2243A,130.9429,45.3039,鸡西市,第一中学,,,,,,,,,,,,,,,,
2023-08-23T13:00:00,2244A,130.2537,47.3416,鹤岗市,哈啤分公司,,22,16,18,14,11,96,68,46,46,8,12,13,13,0.2,0.3
2023-08-23T13:00:00,2245A,130.2684,47.3086,鹤岗市,斯达机电,,20,15,18,6,9,87,62,49,49,7,14,9,9,0.3,0.4
2023-08-23T13:00:00,2246A,130.3114,47.3388,鹤岗市,东山纸板厂,,20,17,21,6,13,94,63,40,40,10,16,13,13,0.3,0.5
2023-08-23T13:00:00,2247A,130.1097,47.3382,鹤岗市,五号水库,,22,4,9,7,10,96,70,47,47,3,6,11,11,0.2,0.2
2023-08-23T13:00:00,2248A,131.1511,46.6937,双鸭山市,双合村,,28,24,34,10,11,90,88,45,45,7,13,8,9,0.1,0.4
2023-08-23T13:00:00,2249A,131.1652,46.6191,双鸭山市,南小市,,,39,27,25,11,100,94,51,51,,13,9,6,0.4,0.3
2023-08-23T13:00:00,2250A,131.1524,46.6554,双鸭山市,环保局,,28,28,23,8,11,86,86,50,45,13,16,13,10,0.5,0.6
2023-08-23T13:00:00,2251A,131.12,46.5656,双鸭山市,苗圃,,25,8,10,14,10,103,78,55,55,3,3,3,3,0.4,0.4
2023-08-23T13:00:00,2252A,128.5159,47.4311,伊春市,环保局,,23,21,20,2,9,105,72,44,44,4,6,6,5,0.2,0.3
2023-08-23T13:00:00,2253A,128.9102,47.7412,伊春市,电力嘉园,,23,20,15,14,9,101,72,46,46,5,9,5,5,0.4,0.5
2023-08-23T13:00:00,2254A,129.5029,48.471,伊春市,汤旺河国家公园,,28,20,29,19,17,94,73,52,52,2,2,10,13,0.6,1
2023-08-23T13:00:00,2255A,130.2751,46.8028,佳木斯市,佳纺,,22,17,23,7,11,99,68,64,58,1,7,4,4,0.4,0.5
2023-08-23T13:00:00,2256A,130.3995,46.8307,佳木斯市,发电厂,,23,22,21,8,13,100,73,62,62,3,9,4,4,0.2,0.4
2023-08-23T13:00:00,2257A,130.3258,46.7975,佳木斯市,环保局,,22,14,21,2,11,95,70,82,64,2,6,3,4,0.4,0.5
2023-08-23T13:00:00,2258A,130.3648,46.8032,佳木斯市,十一中,,21,18,23,2,12,92,66,68,63,8,13,6,6,0.4,0.5
2023-08-23T13:00:00,2259A,130.3794,46.7588,佳木斯市,四丰,,26,10,16,4,9,120,81,92,77,4,4,1,1,0.3,0.4
2023-08-23T13:00:00,2262A,131.0518,45.8751,七台河市,新一中,,27,14,17,7,8,108,85,62,62,3,6,6,7,0.6,0.8
2023-08-23T13:00:00,2263A,127.4833,50.2524,黑河市,交通局,,17,5,7,3,6,73,53,48,40,6,10,4,4,0.5,0.5
2023-08-23T13:00:00,2264A,127.5144,50.2341,黑河市,环保局,,17,14,13,4,8,74,54,55,43,3,7,2,2,0.3,0.4
2023-08-23T13:00:00,2265A,127.5291,50.2472,黑河市,大黑河岛,,24,16,7,8,8,88,75,68,56,2,2,2,1,0.3,0.3
2023-08-23T13:00:00,2266A,126.9785,46.6365,绥化市,人和东街,,24,14,17,3,7,92,76,54,54,5,11,4,4,0.2,0.3
2023-08-23T13:00:00,2267A,126.964,46.6528,绥化市,党政办公中心,,24,9,12,6,6,88,75,56,53,5,8,5,5,0.2,0.3
2023-08-23T13:00:00,2269A,124.1069,50.4097,大兴安岭地区,科技局,,16,8,11,9,10,77,50,72,57,2,3,3,2,0.3,0.3
2023-08-23T13:00:00,2270A,117.396,32.939,蚌埠市,工人疗养院,臭氧1小时,93,66,49,32,26,194,194,139,139,6,17,5,5,0.5,0.5
2023-08-23T13:00:00,2271A,117.3605,32.9427,蚌埠市,百货大楼,臭氧1小时,104,73,62,31,29,207,207,139,139,6,20,8,9,0.5,0.5
2023-08-23T13:00:00,2273A,117.4185,32.8911,蚌埠市,蚌埠学院,臭氧1小时,94,66,47,30,31,195,195,121,121,11,14,10,6,0.5,0.5
2023-08-23T13:00:00,2274A,117.3533,32.9673,蚌埠市,淮上区政府,臭氧1小时,102,78,64,34,38,203,203,110,110,10,30,8,14,0.5,0.6
2023-08-23T13:00:00,2275A,117.3145,32.8977,蚌埠市,高新区,臭氧1小时,104,70,51,36,27,208,208,134,134,9,12,7,5,0.4,0.4
2023-08-23T13:00:00,2277A,116.8305,32.7727,淮南市,潘集区政府,臭氧1小时,103,54,52,33,30,206,206,131,131,9,17,10,10,0.5,0.4
2023-08-23T13:00:00,2278A,117.0067,32.6524,淮南市,师范学院,臭氧1小时,100,73,58,33,33,200,200,150,150,9,13,12,8,0.6,0.5
2023-08-23T13:00:00,2279A,116.8569,32.5951,淮南市,谢家集区政府,臭氧1小时,84,45,38,17,17,187,187,138,138,8,14,8,11,0.4,0.4
2023-08-23T13:00:00,2280A,116.8281,32.633,淮南市,八公山区政府,臭氧1小时,93,55,50,31,33,194,194,143,143,7,10,7,6,0.5,0.4
2023-08-23T13:00:00,2281A,116.6325,32.6201,淮南市,焦岗湖风景区管理处,,44,37,38,22,22,139,139,102,102,3,16,4,4,0.3,0.3
2023-08-23T13:00:00,2282A,116.8004,33.975,淮北市,监测站,臭氧1小时,57,23,62,18,28,172,165,131,131,8,15,6,5,0.6,0.8
2023-08-23T13:00:00,2283A,116.8091,33.9007,淮北市,烈山区政府,臭氧1小时,102,52,77,26,32,204,204,143,143,6,12,,6,0.5,0.5
2023-08-23T13:00:00,2285A,117.8177,30.9412,铜陵市,市第四中学,,50,41,38,26,23,157,157,76,76,6,19,9,8,0.7,0.7
2023-08-23T13:00:00,2286A,117.8059,30.9273,铜陵市,市公路局,臭氧1小时,63,48,43,33,27,170,170,81,81,9,19,7,8,0.7,1
2023-08-23T13:00:00,2287A,117.7807,30.9413,铜陵市,市新民污水厂,,,38,39,17,17,183,183,92,92,14,20,9,6,,0.6
2023-08-23T13:00:00,2288A,117.7439,30.8792,铜陵市,市第九中学,,50,50,55,22,21,147,147,67,67,13,23,7,4,0.8,0.8
2023-08-23T13:00:00,2289A,117.846,30.9413,铜陵市,车站新区,臭氧1小时,65,33,36,20,24,172,172,74,74,8,19,7,4,0.7,0.7
2023-08-23T13:00:00,2290A,117.8483,30.97,铜陵市,市职教基地,臭氧1小时,55,32,31,14,13,164,164,75,75,10,16,9,5,1.3,1.1
2023-08-23T13:00:00,2291A,117.0809,30.5177,安庆市,环科院,,45,30,27,17,20,144,144,91,91,7,16,6,6,0.6,0.8
2023-08-23T13:00:00,2292A,117.0331,30.5119,安庆市,马山宾馆,,46,35,31,16,25,145,145,99,99,8,15,4,5,0.7,1
2023-08-23T13:00:00,2294A,116.9896,30.6145,安庆市,安庆大学,,42,26,27,16,20,134,133,87,87,5,12,5,4,0.6,0.6
2023-08-23T13:00:00,2295A,118.2903,29.6963,黄山市,延安路89号,,40,34,23,5,5,128,128,73,73,2,4,7,6,0.5,0.5
2023-08-23T13:00:00,2296A,118.327,29.7178,黄山市,黄山东路89号,,39,27,13,3,5,124,124,72,72,3,5,7,6,0.6,0.5
2023-08-23T13:00:00,2297A,118.1371,30.2756,黄山市,黄山区政府5号楼,,38,38,24,14,9,117,117,84,84,5,6,6,6,0.4,0.4
2023-08-23T13:00:00,2298A,118.3093,32.3153,滁州市,老年大学,臭氧1小时,59,36,34,22,21,167,167,119,119,9,11,10,10,0.3,0.4
2023-08-23T13:00:00,2299A,118.3244,32.2786,滁州市,人大宾馆,臭氧1小时,58,38,34,21,27,166,166,128,128,9,10,7,7,0.4,0.5
2023-08-23T13:00:00,2301A,115.8277,32.8929,阜阳市,市监测站,臭氧1小时,74,57,45,23,20,179,179,135,135,7,17,7,8,0.5,0.5
2023-08-23T13:00:00,2303A,115.8554,32.8605,阜阳市,开发区,臭氧1小时,72,57,53,30,33,178,177,122,122,8,17,8,8,0.5,0.5
2023-08-23T13:00:00,2307A,116.5079,31.737,六安市,监测大楼,臭氧1小时,58,50,30,11,12,166,166,104,104,3,10,4,4,0.4,0.4
2023-08-23T13:00:00,2308A,116.4738,31.7643,六安市,皖西学院,臭氧1小时,65,54,38,18,13,174,172,111,111,5,10,6,6,0.4,0.4
2023-08-23T13:00:00,2309A,116.4996,31.7905,六安市,朝阳厂,臭氧1小时,75,45,29,18,18,180,180,111,111,4,12,8,8,0.5,0.5
2023-08-23T13:00:00,2310A,116.5567,31.7886,六安市,开发区,臭氧1小时,62,56,50,27,24,169,169,100,100,5,22,8,7,0.5,0.6
2023-08-23T13:00:00,2311A,115.8072,33.8399,亳州市,污水处理厂,臭氧1小时,64,50,64,29,29,178,171,111,111,4,12,10,13,0.5,0.6
2023-08-23T13:00:00,2312A,115.7789,33.8518,亳州市,三国揽胜宫,颗粒物(PM10),58,66,64,29,26,171,165,120,120,5,12,10,11,0.3,0.4
2023-08-23T13:00:00,2314A,117.47,30.6618,池州市,池州学院,臭氧1小时,57,38,29,28,21,165,165,90,90,7,10,7,5,0.6,0.7
2023-08-23T13:00:00,2316A,118.7581,30.9454,宣城市,鳌峰子站,,35,16,19,9,12,111,110,80,80,16,14,5,4,0.4,0.6
2023-08-23T13:00:00,2317A,118.7385,30.9743,宣城市,敬亭山子站,,31,13,19,8,14,99,97,68,68,10,15,7,7,0.4,0.6
2023-08-23T13:00:00,2318A,118.7173,30.9427,宣城市,开发区子站,,33,21,19,10,12,108,105,72,72,13,14,5,5,0.4,0.5
2023-08-23T13:00:00,2319A,119.0141,25.4325,莆田市,荔城区仓后路,,45,45,37,15,22,145,142,75,75,12,12,9,9,0.4,0.5
2023-08-23T13:00:00,2320A,119.0015,25.4553,莆田市,莆田市监测站,,43,43,32,29,15,144,131,72,72,11,8,9,9,0.6,0.6
2023-08-23T13:00:00,2321A,119.1119,25.4561,莆田市,涵江区六中,,46,46,27,31,14,133,125,67,67,9,13,12,8,0.7,0.6
2023-08-23T13:00:00,2322A,119.1013,25.3215,莆田市,秀屿区政府,,45,45,27,24,13,118,106,58,58,6,11,9,9,0.7,0.7
2023-08-23T13:00:00,2323A,118.981,25.4792,莆田市,东圳水库,,,,,,,,,,,,,,,,
2023-08-23T13:00:00,2324A,117.6211,26.2625,三明市,三钢,,,26,24,17,13,89,89,42,42,,17,9,11,0.3,0.6
2023-08-23T13:00:00,2325A,117.635,26.2714,三明市,三明二中,,29,19,25,14,12,92,90,45,45,8,15,5,4,0.3,0.5
2023-08-23T13:00:00,2326A,117.6028,26.2378,三明市,三元区政府,,29,14,23,13,12,92,90,44,44,5,14,11,10,0.6,0.7
2023-08-23T13:00:00,2327A,117.7275,26.3108,三明市,洋溪,,,,,,,,,,,,,,,,
2023-08-23T13:00:00,2331A,118.0966,26.6761,南平市,茫荡山,,,,,,,,,,,,,,,,
2023-08-23T13:00:00,2332A,118.1681,26.6369,南平市,南平市监测站,,28,24,17,18,7,90,88,44,44,3,6,5,5,0.6,0.5
2023-08-23T13:00:00,2333A,118.1825,26.6489,南平市,南平铝业有限公司,,29,12,17,20,9,90,87,45,45,5,9,3,4,0.5,0.5
2023-08-23T13:00:00,2334A,118.1756,26.6272,南平市,南平七中,,28,23,15,14,7,94,87,45,45,3,4,4,4,0.6,0.5
2023-08-23T13:00:00,2335A,117.0189,25.1181,龙岩市,龙岩师专,,,,,,,,,,,,,,,,
2023-08-23T13:00:00,2336A,117.0217,25.1033,龙岩市,龙岩市监测站,,33,33,20,18,10,75,74,31,31,14,15,1,3,0.5,0.4
2023-08-23T13:00:00,2337A,117.0258,25.0661,龙岩市,闽西职业技术学院,,36,36,18,15,7,80,69,37,37,12,11,3,3,0.5,0.4
2023-08-23T13:00:00,2338A,117.0196,25.0306,龙岩市,龙岩学院,,27,27,18,13,7,79,77,34,34,13,9,6,4,0.3,0.3
2023-08-23T13:00:00,2339A,119.5001,26.6946,宁德市,金涵水库,,,,,,,,,,,,,,,,
2023-08-23T13:00:00,2341A,119.5388,26.6612,宁德市,宁德市监测站,,40,40,20,17,10,122,110,49,49,10,13,10,4,1.2,0.6
2023-08-23T13:00:00,2342A,117.3102,29.3867,景德镇市,王港中学,,25,13,10,10,6,80,80,48,48,3,3,16,6,0.5,0.6
2023-08-23T13:00:00,2343A,117.2117,29.2933,景德镇市,老干部活动中心,,31,18,15,7,14,99,99,63,63,4,8,4,4,0.5,0.5
2023-08-23T13:00:00,2344A,117.1894,29.2789,景德镇市,兽医站,,32,9,19,3,13,102,102,67,67,5,7,7,7,0.5,0.5
2023-08-23T13:00:00,2345A,117.1547,29.2617,景德镇市,台达陶瓷,,33,2,5,4,11,104,104,68,68,4,8,36,12,0.3,0.3
2023-08-23T13:00:00,2346A,117.2461,29.2956,景德镇市,陶研所,,30,20,25,2,5,95,95,64,64,4,6,4,6,0.4,0.4
2023-08-23T13:00:00,2347A,114.0997,27.5002,萍乡市,武功山,,27,7,11,15,10,99,86,55,55,3,4,12,13,0.7,0.7
2023-08-23T13:00:00,2348A,113.8385,27.6434,萍乡市,中医院,,39,30,32,18,23,123,123,63,63,4,12,7,16,0.5,0.7
2023-08-23T13:00:00,2349A,113.8493,27.6253,萍乡市,市政府车库,,40,21,26,20,24,128,128,66,66,7,14,10,14,0.7,0.5
2023-08-23T13:00:00,2350A,113.8676,27.6435,萍乡市,市环保局,,,41,29,,20,123,123,59,59,3,13,4,12,0.3,0.4
2023-08-23T13:00:00,2351A,113.866,27.6198,萍乡市,安源区政府,,39,17,34,18,22,123,123,59,59,6,13,7,13,0.6,0.6
2023-08-23T13:00:00,2352A,115.0861,27.9317,新余市,北岗,,42,32,16,18,10,132,132,65,65,2,6,8,8,0.7,0.7
2023-08-23T13:00:00,2353A,114.9886,27.8431,新余市,飞宇,,44,44,35,22,18,126,126,70,70,5,9,4,9,0.4,0.5
2023-08-23T13:00:00,2354A,114.9231,27.8246,新余市,第二水厂,颗粒物(PM10),54,57,35,18,14,147,147,86,86,5,12,8,9,0.5,0.5
2023-08-23T13:00:00,2355A,114.9308,27.8036,新余市,市气象局,,43,38,31,26,16,136,136,71,71,3,7,6,6,0.6,0.9
2023-08-23T13:00:00,2357A,116.9822,28.1136,鹰潭市,龙虎山,,28,24,14,16,9,88,88,60,60,1,3,4,3,0.6,0.4
2023-08-23T13:00:00,2358A,117.0564,28.2642,鹰潭市,新监测站,,35,32,21,16,10,112,112,66,66,2,6,4,8,0.4,0.4
2023-08-23T13:00:00,2359A,117.0311,28.2475,鹰潭市,财苑宾馆,,31,18,23,8,8,99,99,59,59,2,7,2,7,0.4,0.4
2023-08-23T13:00:00,2360A,117.0222,28.2264,鹰潭市,体育馆,,45,45,27,8,10,106,106,61,61,2,9,3,2,0.6,0.6
2023-08-23T13:00:00,2361A,117.0017,28.2131,鹰潭市,三川水表,,33,25,27,12,11,103,103,63,63,1,6,1,2,0.6,0.5
2023-08-23T13:00:00,2362A,114.9017,25.9149,赣州市,通天岩,,,,,,,,,,,,,,,,
2023-08-23T13:00:00,2363A,114.9367,25.8664,赣州市,地委,,48,48,34,27,16,106,106,44,44,5,10,9,7,1.1,1.1
2023-08-23T13:00:00,2364A,114.9461,25.8481,赣州市,气象台,,41,36,27,19,14,130,130,47,47,10,17,6,8,0.6,0.6
2023-08-23T13:00:00,2365A,114.9322,25.8333,赣州市,市图书馆,颗粒物(PM10),51,51,33,27,14,116,116,42,42,9,17,6,6,1.1,1
2023-08-23T13:00:00,2366A,114.8905,25.8471,赣州市,华坚鞋城,,49,49,35,26,13,107,107,45,45,5,13,13,10,0.5,0.6
2023-08-23T13:00:00,2367A,114.9754,27.0803,吉安市,红声器材厂,,40,32,26,22,13,126,126,60,60,5,11,26,19,0.8,0.7
2023-08-23T13:00:00,2368A,114.9658,27.0999,吉安市,市森林工业局,,38,33,25,23,14,120,120,57,57,4,9,7,7,0.7,0.6
2023-08-23T13:00:00,2369A,114.99,27.1312,吉安市,市环境监测站,,34,34,25,16,10,106,106,48,48,6,11,8,7,0.7,0.7
2023-08-23T13:00:00,2370A,115.0093,27.0968,吉安市,青原区法院,,40,37,24,28,14,124,124,58,58,8,11,14,14,0.6,0.5
2023-08-23T13:00:00,2371A,114.3408,27.8064,宜春市,槟榔水业,,37,31,29,18,18,121,118,63,63,12,16,5,3,0.4,0.4
2023-08-23T13:00:00,2373A,114.3956,27.7844,宜春市,市石油公司,,44,39,37,22,18,140,140,71,71,8,12,5,5,0.8,0.9
2023-08-23T13:00:00,2374A,114.3703,27.7914,宜春市,市气象局,,44,42,33,30,20,139,139,71,71,10,12,6,5,1.0,1
2023-08-23T13:00:00,2375A,114.4013,27.8074,宜春市,市广电局,,45,38,32,22,17,143,143,70,70,7,12,6,6,0.8,0.8
2023-08-23T13:00:00,2376A,116.2127,28.0814,抚州市,桐源党溪,细颗粒物(PM2.5),57,24,22,40,13,101,97,69,53,3,3,2,3,0.6,0.9
2023-08-23T13:00:00,2377A,116.3544,27.9831,抚州市,市站,,35,28,24,16,14,112,112,74,74,3,5,1,8,0.6,0.9
2023-08-23T13:00:00,2378A,116.3565,27.963,抚州市,血防站,,38,34,32,17,12,121,121,75,75,2,4,7,6,1.1,1.1
2023-08-23T13:00:00,2379A,116.3564,28.0007,抚州市,采茶剧团,,34,25,25,13,14,107,107,70,67,2,5,5,6,0.8,0.8
2023-08-23T13:00:00,2380A,116.385,27.9647,抚州市,医学分院,,36,36,32,14,13,113,113,72,72,5,8,6,6,0.9,0.9
2023-08-23T13:00:00,2381A,118.005,28.4572,上饶市,百草园,,24,8,17,2,8,74,74,50,50,4,8,4,3,0.8,0.7
2023-08-23T13:00:00,2382A,117.9756,28.4436,上饶市,市监测站,,29,13,18,7,8,92,92,62,62,3,7,6,5,0.5,0.5
2023-08-23T13:00:00,2383A,117.9519,28.4628,上饶市,凤凰光学,,28,10,24,7,11,89,89,57,57,2,8,19,23,0.6,0.6
2023-08-23T13:00:00,2385A,114.17,35.9019,鹤壁市,市监测站,臭氧1小时,65,30,59,17,30,235,172,118,88,16,20,16,8,0.8,0.7
2023-08-23T13:00:00,2386A,114.2956,35.7511,鹤壁市,市交警支队,臭氧1小时,63,33,43,6,20,201,170,88,88,15,19,13,6,1.1,0.8
2023-08-23T13:00:00,2387A,114.2878,35.7306,鹤壁市,迎宾馆,臭氧1小时,68,27,42,4,18,207,174,97,97,15,19,17,9,1.0,0.9
2023-08-23T13:00:00,2389A,113.836,35.311,新乡市,环保西院,臭氧1小时,70,46,46,24,19,185,176,100,100,11,14,12,8,0.8,0.8
2023-08-23T13:00:00,2390A,113.884,35.272,新乡市,开发区,臭氧1小时,58,27,32,17,17,183,166,116,103,12,13,11,7,0.6,0.8
2023-08-23T13:00:00,2391A,113.883,35.303,新乡市,环保东院,臭氧1小时,63,50,49,19,19,178,170,102,100,11,16,12,7,0.6,0.7
2023-08-23T13:00:00,2392A,115.0312,35.7636,濮阳市,环保局,臭氧1小时,73,70,49,35,24,185,178,121,118,11,14,6,7,0.8,0.7
2023-08-23T13:00:00,2394A,115.0574,35.7609,濮阳市,油田运输公司,臭氧1小时,62,69,57,31,25,169,169,120,118,9,14,8,8,0.8,0.7
2023-08-23T13:00:00,2395A,115.0866,35.7754,濮阳市,油田物探公司,臭氧1小时,68,72,60,30,26,174,174,124,118,9,13,6,6,0.7,0.7
2023-08-23T13:00:00,2396A,113.8276,34.0159,许昌市,监测站,颗粒物(PM10),56,62,59,24,31,186,152,99,99,8,18,3,4,0.3,0.5
2023-08-23T13:00:00,2398A,113.7906,33.9953,许昌市,开发区,,48,43,58,23,28,184,151,86,86,4,21,2,3,0.4,0.6
2023-08-23T13:00:00,2399A,114.051,33.5699,漯河市,三五一五工厂,颗粒物(PM10),51,51,56,24,30,177,158,104,104,2,20,8,9,0.5,0.6
2023-08-23T13:00:00,2400A,114.0055,33.5698,漯河市,漯河大学,臭氧1小时,58,49,54,23,34,201,166,118,118,2,19,10,10,0.4,0.6
2023-08-23T13:00:00,2401A,114.0138,33.5828,漯河市,市水利局,臭氧1小时,52,44,53,27,32,184,161,100,100,3,18,7,8,0.7,0.9
2023-08-23T13:00:00,2402A,114.0261,33.5698,漯河市,市广电局,臭氧1小时,54,49,55,27,33,194,163,123,123,2,16,7,7,0.5,0.6
2023-08-23T13:00:00,2404A,112.5224,33.0122,南阳市,瓦房庄,,50,44,44,26,24,164,160,118,118,24,21,7,6,0.7,0.7
2023-08-23T13:00:00,2405A,112.5003,32.9735,南阳市,汉画馆,,,41,40,21,22,172,156,124,124,,15,7,8,0.5,0.7
2023-08-23T13:00:00,2406A,112.5573,33.027,南阳市,气象站,臭氧1小时,52,44,44,21,24,183,161,111,111,6,12,6,6,0.5,0.6
2023-08-23T13:00:00,2407A,112.5481,32.9689,南阳市,理工学院,臭氧1小时,63,45,43,21,20,174,170,124,124,10,15,8,8,0.5,0.6
2023-08-23T13:00:00,2408A,115.6702,34.4285,商丘市,环境监测站,臭氧1小时,63,63,76,33,30,170,170,100,100,6,20,8,8,0.6,0.6
2023-08-23T13:00:00,2409A,115.6458,34.4045,商丘市,粮食局,臭氧1小时,65,63,71,30,29,173,172,113,113,4,18,3,2,0.5,0.6
2023-08-23T13:00:00,2410A,115.6293,34.3948,商丘市,睢阳区环保局,臭氧1小时,70,55,83,28,27,176,176,114,114,7,26,7,7,0.5,0.6
2023-08-23T13:00:00,2420A,114.0189,32.9656,驻马店市,市一纸厂,,45,41,49,17,22,165,142,104,104,3,17,6,6,0.3,0.7
2023-08-23T13:00:00,2421A,114.0114,33.015,驻马店市,市彩印厂,,49,49,53,23,26,172,146,110,110,4,13,9,9,0.4,0.6
2023-08-23T13:00:00,2422A,113.9976,32.9771,驻马店市,天方二分厂,,46,32,46,20,28,172,146,106,106,2,13,5,5,0.5,0.8
2023-08-23T13:00:00,2423A,115.0601,30.2313,黄石市,沈家营,臭氧1小时,55,48,48,17,15,164,164,93,93,7,16,8,7,0.3,0.6
2023-08-23T13:00:00,2424A,115.0817,30.2006,黄石市,陈家湾,,50,41,43,19,18,157,157,95,95,8,7,10,7,0.6,0.6
2023-08-23T13:00:00,2426A,114.8988,30.2019,黄石市,铁山,臭氧1小时,78,36,26,23,15,182,182,107,107,7,13,4,6,0.7,0.8
2023-08-23T13:00:00,2427A,115.0307,30.2092,黄石市,团城山,臭氧1小时,72,42,38,16,12,177,177,112,112,7,11,9,7,0.9,0.7
2023-08-23T13:00:00,2428A,111.0419,32.395,十堰市,武当山,,36,36,28,24,14,134,106,96,90,8,6,10,9,0.7,0.6
2023-08-23T13:00:00,2429A,110.78,32.6494,十堰市,滨河新村,,41,41,54,18,23,147,118,66,66,9,18,7,8,0.8,0.7
2023-08-23T13:00:00,2430A,110.7258,32.6389,十堰市,刘家沟,颗粒物(PM10),57,64,52,26,24,171,110,71,71,8,9,7,7,0.7,0.6
2023-08-23T13:00:00,2431A,110.8839,32.5714,十堰市,铁二处,颗粒物(PM10),51,51,46,14,15,158,152,82,82,4,6,6,5,0.6,0.6
2023-08-23T13:00:00,2432A,112.155,32.0197,襄阳市,襄城运动路,颗粒物(PM10),51,51,46,15,19,176,139,90,90,9,16,5,6,0.7,0.8
2023-08-23T13:00:00,2433A,112.1392,32.0564,襄阳市,樊城新华路,,45,45,46,14,22,167,139,91,91,5,14,6,6,0.8,0.9
2023-08-23T13:00:00,2434A,112.1825,32.1142,襄阳市,高新管委会,,50,46,49,35,26,165,146,86,86,8,19,6,7,0.8,0.8
2023-08-23T13:00:00,2435A,112.2106,32.0903,襄阳市,襄州航空路,,49,49,44,26,20,166,145,94,94,6,12,8,7,0.7,0.7
2023-08-23T13:00:00,2436A,114.8938,30.3994,鄂州市,市政府,,49,49,32,15,13,153,153,90,90,5,15,4,3,0.5,0.6
2023-08-23T13:00:00,2437A,114.8989,30.3714,鄂州市,赵家坝,,50,50,37,10,12,153,145,89,89,7,16,4,4,0.3,0.4
2023-08-23T13:00:00,2439A,112.2014,31.0481,荆门市,竹园小学,臭氧1小时,60,49,49,20,29,169,168,120,95,8,16,14,13,0.5,0.7
2023-08-23T13:00:00,2440A,112.1969,30.9891,荆门市,掇刀,,49,41,46,23,23,160,156,112,106,7,14,8,11,0.6,0.7
2023-08-23T13:00:00,2441A,112.2213,31.0386,荆门市,石化一小,,50,25,45,26,24,167,157,126,99,6,16,12,12,0.5,0.7
2023-08-23T13:00:00,2443A,113.9153,30.9285,孝感市,文化路,,48,38,28,16,17,152,152,105,105,4,11,6,7,0.6,0.7
2023-08-23T13:00:00,2444A,113.942,30.9075,孝感市,东城区,臭氧1小时,52,40,43,17,16,161,161,99,99,4,12,7,7,0.6,0.7
2023-08-23T13:00:00,2446A,114.9028,30.4742,黄冈市,职工中心,,50,36,33,18,13,159,159,106,106,2,2,8,9,0.6,0.6
2023-08-23T13:00:00,2447A,114.3175,29.8142,咸宁市,森林公园,,35,19,22,12,11,153,111,115,91,4,4,5,5,0.7,0.7
2023-08-23T13:00:00,2448A,114.3107,29.8454,咸宁市,市发改委,,41,34,28,13,15,170,130,90,90,2,5,7,6,0.5,0.5
2023-08-23T13:00:00,2449A,114.2936,29.8566,咸宁市,咸安区政府,,37,28,23,22,16,161,117,92,82,4,8,7,7,0.5,0.5
2023-08-23T13:00:00,2451A,113.3583,31.7275,随州市,市委党校,,44,39,47,17,28,140,140,73,73,2,14,6,10,0.7,0.9
2023-08-23T13:00:00,2452A,113.3833,31.6908,随州市,市林业局,,45,35,39,19,27,145,144,85,71,2,12,5,5,0.6,0.8
2023-08-23T13:00:00,2453A,113.3983,31.7308,随州市,市立交桥水厂,,45,28,39,17,25,144,144,78,78,4,19,8,9,0.4,0.7
2023-08-23T13:00:00,2454A,109.4978,30.2981,恩施土家族苗族自治州,湖北民院,,,,,,,,,,,,,,,,
2023-08-23T13:00:00,2455A,109.4707,30.2798,恩施土家族苗族自治州,州电力总公司,,40,40,36,26,24,123,111,51,51,8,15,8,8,0.7,0.8
2023-08-23T13:00:00,2456A,112.5003,26.9167,衡阳市,原169医院,,37,33,25,18,12,117,117,40,40,5,12,4,7,0.6,0.5
2023-08-23T13:00:00,2457A,112.6194,26.9258,衡阳市,衡阳化工总厂,,,,25,,12,126,126,64,64,4,9,10,10,0.6,0.7
2023-08-23T13:00:00,2458A,112.6211,26.8956,衡阳市,珠晖区环保局,,,37,24,,,123,123,61,61,5,10,6,7,0.5,0.7
2023-08-23T13:00:00,2459A,112.6197,26.8733,衡阳市,市委党校,,40,26,24,17,12,126,126,66,66,5,9,7,9,0.6,0.7
2023-08-23T13:00:00,2460A,112.6006,26.8919,衡阳市,市监测站,,41,33,27,20,16,131,131,64,64,6,12,7,11,0.7,0.8
2023-08-23T13:00:00,2461A,112.5664,26.9056,衡阳市,真空机电公司,,,50,31,,14,145,145,56,56,8,16,7,11,0.9,0.9
2023-08-23T13:00:00,2462A,111.5239,27.3033,邵阳市,市水土所,,41,33,29,25,23,130,130,56,56,5,5,9,7,0.6,0.6
2023-08-23T13:00:00,2463A,111.4733,27.2317,邵阳市,市一中,颗粒物(PM10),51,52,52,26,24,155,155,78,78,4,14,3,5,0.3,0.4
2023-08-23T13:00:00,2464A,111.5283,27.2442,邵阳市,市化工厂,,46,35,36,22,23,147,147,77,77,6,15,5,7,0.5,0.5
2023-08-23T13:00:00,2465A,111.4503,27.2537,邵阳市,市罐头厂,,49,49,37,26,24,148,148,79,79,5,11,5,7,0.5,0.5
2023-08-23T13:00:00,2466A,111.4328,27.2272,邵阳市,市环保局,颗粒物(PM10),54,58,40,22,23,151,151,68,68,5,11,6,5,0.5,0.5
2023-08-23T13:00:00,2467A,112.4067,28.6428,益阳市,甘溪港,,35,26,33,8,6,112,112,60,60,4,8,5,5,0.6,0.6
2023-08-23T13:00:00,2468A,112.3458,28.5808,益阳市,市环保局,,44,24,28,10,17,139,139,104,90,7,11,6,5,0.8,0.8
2023-08-23T13:00:00,2469A,112.3437,28.5531,益阳市,市特殊教育学校,,43,24,34,16,20,137,137,91,91,6,14,4,4,0.8,0.8
2023-08-23T13:00:00,2470A,112.3347,28.6047,益阳市,资阳区政务中心,,43,14,24,3,16,137,136,84,84,4,10,4,3,0.8,0.9
2023-08-23T13:00:00,2471A,112.3744,28.5819,益阳市,赫山环保分局,,42,14,32,15,17,133,133,89,89,4,13,6,6,0.8,0.9
2023-08-23T13:00:00,2472A,113.0073,25.9061,郴州市,马头岭,,35,20,20,14,5,112,112,45,45,10,15,6,4,0.4,0.5
2023-08-23T13:00:00,2473A,113.0116,25.8226,郴州市,市职中,,36,14,21,10,10,114,114,46,46,11,17,7,6,0.7,0.7
2023-08-23T13:00:00,2474A,113.0161,25.8001,郴州市,兴隆步行街,,42,42,22,11,8,99,99,43,43,12,18,6,8,0.5,0.5
2023-08-23T13:00:00,2475A,113.0383,25.8071,郴州市,市审计局,,30,16,19,10,9,96,96,41,41,15,20,5,7,0.5,0.5
2023-08-23T13:00:00,2476A,113.0348,25.7759,郴州市,市环保局,,26,20,18,12,11,82,82,34,34,12,18,5,6,0.5,0.6
2023-08-23T13:00:00,2477A,111.6217,26.2081,永州市,零陵南津渡,,34,12,25,15,16,107,107,58,58,4,7,9,8,0.5,0.5
2023-08-23T13:00:00,2478A,111.6156,26.4214,永州市,市环境监测站,,34,21,30,20,22,108,108,56,56,4,9,7,11,0.4,0.5
2023-08-23T13:00:00,2479A,111.6236,26.2331,永州市,零陵区环保局,,34,24,28,18,19,108,108,60,60,8,21,10,10,0.5,0.5
