timepoint,stationcode,longitude,latitude,area,positionname,primarypollutant,aqi,pm10,pm10_24h,pm2_5,pm2_5_24h,o3,o3_24h,o3_8h,o3_8h_24h,no2,no2_24h,so2,so2_24h,co,co_24h
2025-11-16T2300,2566A,102.1879,31.914,阿坝藏族羌族自治州,州农科所,,,,,,,,,,,,,,,,
2025-11-16T2300,2568A,102.2502,31.8896,阿坝藏族羌族自治州,马师校,,35,35,16,20,14,5,5,52,28,37,15,6,6,0.5,0.5
2025-11-16T2300,3994A,102.2165,31.9024,阿坝藏族羌族自治州,马尔康中学西区,,45,45,14,7,10,18,18,64,46,30,11,5,5,0.5,0.4
2025-11-16T2300,2695A,80.292,41.1694,阿克苏地区,电视台,颗粒物(PM10),202,351,211,77,58,48,48,77,70,29,32,7,7,0.6,0.6
2025-11-16T2300,2696A,80.2613,41.1551,阿克苏地区,艺术中心,颗粒物(PM10),185,320,197,65,71,65,65,86,81,17,31,5,5,0.6,0.8
2025-11-16T2300,2204A,105.6467,38.8363,阿拉善盟,西城区西花园,,,,,,,,,,,,,,,,
2025-11-16T2300,2205A,105.6985,38.8411,阿拉善盟,蒙二幼,,18,8,40,3,7,55,55,74,56,4,5,6,7,0.6,0.6
2025-11-16T2300,2206A,105.724,38.8516,阿拉善盟,环保局新楼,,18,7,28,3,7,55,55,76,58,3,3,8,8,0.6,0.6
2025-11-16T2300,2708A,88.1264,47.8517,阿勒泰地区,市站,,23,10,15,3,6,72,72,57,45,11,35,4,5,0.3,0.4
2025-11-16T2300,2630A,80.1161,32.5,阿里地区,阿里监测站,,15,6,4,3,3,45,45,84,66,26,14,9,7,0.6,0.4
2025-11-16T2300,3192A,80.0903,32.5028,阿里地区,阿里藏医院,,34,34,16,17,10,37,37,84,74,28,12,14,11,0.6,0.4
2025-11-16T2300,2642A,109.0318,32.6537,安康市,香溪洞,,,,,,,,,,,,,,,,
2025-11-16T2300,2644A,109.0072,32.6975,安康市,汉滨区检察院,,29,29,44,15,26,56,56,22,22,16,22,6,6,0.5,0.5
2025-11-16T2300,4054A,109.0325,32.6913,安康市,市邮政管理局,,31,31,46,18,27,58,58,21,21,11,19,3,4,0.5,0.6
2025-11-16T2300,2291A,117.0809,30.5177,安庆市,环科院,细颗粒物(PM2.5),125,113,102,95,73,115,115,147,133,23,47,8,9,0.9,1
2025-11-16T2300,2292A,117.0331,30.5119,安庆市,马山宾馆,细颗粒物(PM2.5),115,107,92,87,70,122,122,148,130,24,48,7,8,0.9,1.1
2025-11-16T2300,2294A,116.9896,30.6145,安庆市,安庆大学,细颗粒物(PM2.5),107,110,88,80,59,106,106,166,139,19,28,7,9,0.8,0.8
2025-11-16T2300,3173A,117.0598,30.5351,安庆市,市人大,细颗粒物(PM2.5),115,100,98,87,75,112,112,150,127,28,45,8,10,0.7,1
2025-11-16T2300,3122A,105.9606,26.2611,安顺市,伍家关,,27,27,31,17,22,66,66,94,85,7,12,13,18,0.3,0.4
2025-11-16T2300,3123A,105.9408,26.2431,安顺市,凤凰山,,29,29,30,18,16,59,59,88,80,10,14,15,18,0.4,0.5
2025-11-16T2300,3124A,105.9439,26.2564,安顺市,金钟山,,30,26,26,21,19,66,66,95,87,8,7,16,16,0.5,0.6
2025-11-16T2300,3125A,105.8983,26.2481,安顺市,娄家坡,,25,20,29,16,22,77,77,85,81,7,11,6,15,0.4,0.5
2025-11-16T2300,1818A,114.4839,36.0621,安阳市,棉研所,,,,,,,,,,,,,,,,
2025-11-16T2300,1819A,114.3551,36.1017,安阳市,红庙街,颗粒物(PM10),62,73,111,20,53,38,38,59,50,20,33,1,3,0.4,0.6
2025-11-16T2300,1820A,114.361,36.0681,安阳市,银杏小区,颗粒物(PM10),64,77,112,13,54,41,41,60,51,16,31,3,5,0.2,0.5
2025-11-16T2300,3141A,114.3922,36.0878,安阳市,信访局,颗粒物(PM10),60,70,109,22,59,42,42,63,54,18,28,3,5,0.2,0.5
2025-11-16T2300,3669A,114.4705,36.0637,安阳市,左辅环卫站,颗粒物(PM10),78,106,166,11,72,44,44,63,52,16,28,1,3,0.3,0.5
2025-11-16T2300,3703A,114.2917,36.0949,安阳市,安钢职工学校,颗粒物(PM10),65,80,114,15,53,39,39,58,46,19,31,3,4,0.3,0.7
2025-11-16T2300,1748A,123.044,41.1196,鞍山市,深沟寺,,37,37,53,7,30,33,33,78,41,17,20,11,10,0.7,0.7
2025-11-16T2300,1749A,123.011,41.0931,鞍山市,太阳城,,46,46,58,10,32,32,32,79,35,20,20,25,19,1.4,1.1
2025-11-16T2300,1750A,123.0485,41.1442,鞍山市,太平,,46,46,61,9,32,35,35,77,40,14,17,9,11,0.5,0.7
2025-11-16T2300,1751A,122.9642,41.0971,鞍山市,铁西三道街,,39,39,58,6,29,36,36,64,40,15,23,9,18,0.4,1.3
2025-11-16T2300,1753A,123.022,41.0821,鞍山市,明达新区,,34,34,51,6,30,35,35,82,37,14,16,18,16,1.1,1
2025-11-16T2300,1754A,123.1289,41.0228,鞍山市,千山,,,,43,,24,,,62,,,13,,5,,0.4
2025-11-16T2300,4201A,122.9446,41.0826,鞍山市,兴盛南路290号,,42,42,58,10,30,33,33,75,36,21,26,8,11,0.5,0.7
2025-11-16T2300,2195A,107.4212,40.761,巴彦淖尔市,附二中,,26,26,34,17,17,33,33,50,41,14,5,3,3,0.4,0.3
2025-11-16T2300,2196A,107.37,40.7372,巴彦淖尔市,市环保大楼,,30,25,28,21,20,42,42,51,45,11,6,7,7,0.6,0.5
2025-11-16T2300,1956A,86.1472,41.7538,巴音郭楞蒙古自治州,孔雀公园,,41,41,68,15,26,69,69,77,76,12,25,7,8,0.1,0.3
2025-11-16T2300,1957A,86.1972,41.7166,巴音郭楞蒙古自治州,棉纺厂,颗粒物(PM10),56,62,82,9,20,63,63,74,70,14,28,5,8,0.4,0.5
2025-11-16T2300,1958A,86.2357,41.7173,巴音郭楞蒙古自治州,经济开发区,,37,37,55,13,19,62,62,78,74,9,14,5,8,0.4,0.5
2025-11-16T2300,2914A,106.7677,31.8794,巴中市,苏山坪,,,,,,,,,,,,,,,,
2025-11-16T2300,3181A,106.7768,31.8526,巴中市,市五中,,32,32,31,20,18,13,13,18,10,11,15,8,8,0.5,0.6
2025-11-16T2300,3183A,106.7418,31.8654,巴中市,圣泉水务公司,,26,26,30,18,20,13,13,20,11,18,18,8,9,0.6,0.7
2025-11-16T2300,3616A,106.7616,31.8344,巴中市,市中心医院,,39,39,30,23,18,0,0,22,8,21,15,4,4,0.8,0.7
2025-11-16T2300,2235A,122.7911,45.6077,白城市,洮北区环保局,,43,43,43,14,11,40,40,45,39,5,4,5,4,0.2,0.2
2025-11-16T2300,2236A,122.8738,45.5725,白城市,市环保局,,36,36,38,21,12,33,33,40,33,4,5,4,3,0.3,0.2
2025-11-16T2300,2231A,126.4219,41.9171,白山市,喜丰,颗粒物(PM10),61,71,48,8,20,46,46,91,47,6,14,7,8,0.3,0.6
2025-11-16T2300,2232A,126.4077,41.9419,白山市,环保局,颗粒物(PM10),52,54,36,13,23,40,40,70,47,7,14,8,8,0.4,0.6
2025-11-16T2300,2647A,104.1724,36.5446,白银市,第三小学,,40,40,57,7,13,60,60,74,66,8,9,27,10,0.1,0.1
2025-11-16T2300,2648A,104.1465,36.5482,白银市,动力公司,,36,36,49,7,12,59,59,74,67,7,8,3,6,0.3,0.4
2025-11-16T2300,2512A,106.6103,23.9011,百色市,市监测站,,48,48,29,25,17,12,12,70,52,44,15,6,6,0.6,0.5
2025-11-16T2300,2513A,106.6538,23.8859,百色市,市中心血站,细颗粒物(PM2.5),80,95,44,59,27,4,4,77,50,61,30,8,7,1.0,0.6
2025-11-16T2300,3406A,106.6085,23.8798,百色市,祈福高中,颗粒物(PM10),61,72,48,33,24,7,7,66,42,33,20,5,6,0.7,0.5
2025-11-16T2300,2270A,117.396,32.939,蚌埠市,工人疗养院,颗粒物(PM10),108,166,145,61,84,48,48,154,112,27,36,6,7,0.6,0.7
2025-11-16T2300,2271A,117.3605,32.9427,蚌埠市,百货大楼,颗粒物(PM10),111,172,134,65,84,48,48,156,115,27,44,9,11,0.7,0.8
2025-11-16T2300,2273A,117.4185,32.8911,蚌埠市,蚌埠学院,细颗粒物(PM2.5),113,156,137,85,88,50,50,147,94,28,39,6,8,0.7,0.8
2025-11-16T2300,2274A,117.3533,32.9673,蚌埠市,淮上区政府,颗粒物(PM10),102,153,136,56,89,53,53,154,114,30,51,8,10,0.5,0.7
2025-11-16T2300,2275A,117.3145,32.8977,蚌埠市,高新区,细颗粒物(PM2.5),108,161,125,81,87,48,48,149,120,32,34,7,9,0.7,0.8
2025-11-16T2300,3715A,117.3092,32.9314,蚌埠市,蚌埠田家炳中学,颗粒物(PM10),112,174,143,67,90,52,52,156,121,26,35,6,13,0.6,0.7
2025-11-16T2300,1585A,109.8756,40.6532,包头市,市环境监测站,,15,15,22,8,6,43,43,51,48,8,6,7,6,0.6,0.5
2025-11-16T2300,1587A,109.9991,40.5842,包头市,包头八中,,14,9,24,3,4,44,44,52,49,7,5,2,3,0.4,0.4
2025-11-16T2300,1588A,109.8538,40.6821,包头市,青山宾馆,,12,8,18,3,3,38,38,52,47,11,7,7,6,0.7,0.6
2025-11-16T2300,1589A,109.8642,40.6288,包头市,惠龙物流,,15,,16,10,6,46,46,56,52,8,5,9,6,0.6,0.4
2025-11-16T2300,1590A,110.0377,40.5546,包头市,东河鸿龙湾,,13,11,11,3,4,41,41,48,44,10,8,1,2,0.5,0.4
2025-11-16T2300,3283A,109.9154,40.5685,包头市,滨河大厦,,15,6,12,3,6,45,45,54,50,7,6,8,6,0.7,0.5
2025-11-16T2300,3419A,109.9447,40.6261,包头市,包头市委党校,,22,22,15,3,4,42,42,55,50,8,4,5,5,0.3,0.3
2025-11-16T2300,3683A,109.8331,40.6576,包头市,昆区政府,,13,8,15,7,4,40,40,52,47,13,8,10,9,0.4,0.3
2025-11-16T2300,1930A,107.185,34.3063,宝鸡市,庙沟村,,,,,,,,,,,,,,,,
2025-11-16T2300,1931A,107.0708,34.3017,宝鸡市,竹园沟,,40,40,50,20,18,57,57,67,66,12,14,7,8,0.3,0.3
2025-11-16T2300,1932A,107.1906,34.3672,宝鸡市,三陆医院,,35,35,67,15,25,57,57,57,57,16,39,5,9,0.4,0.6
2025-11-16T2300,1933A,107.1431,34.3547,宝鸡市,监测站,,41,41,62,20,25,58,58,58,58,16,26,5,6,0.3,0.4
2025-11-16T2300,1934A,107.1186,34.3739,宝鸡市,技工学校,,,52,64,22,27,60,60,57,57,,23,5,7,0.3,0.4
2025-11-16T2300,1936A,107.2058,34.3497,宝鸡市,文理学院,,41,41,61,17,25,60,60,63,63,12,26,5,6,0.2,0.4
2025-11-16T2300,1937A,107.2386,34.3622,宝鸡市,三迪小学,,36,36,66,17,28,61,61,58,58,17,38,4,7,0.4,0.5
2025-11-16T2300,4308A,107.3898,34.3601,宝鸡市,陈仓区北开路21号,,37,37,75,19,29,56,56,62,62,12,30,5,12,0.2,0.3
2025-11-16T2300,1051A,115.493,38.8632,保定市,游泳馆,,44,44,70,6,31,50,50,62,54,2,22,3,4,0.5,0.6
2025-11-16T2300,1052A,115.5213,38.8959,保定市,华电二区,,31,31,58,13,42,53,53,66,58,10,27,1,2,0.3,0.5
2025-11-16T2300,1053A,115.4713,38.9108,保定市,接待中心,,34,34,64,3,33,50,50,62,54,7,21,2,2,0.2,0.4
2025-11-16T2300,1054A,115.4612,38.8416,保定市,地表水厂,,49,49,79,3,28,47,47,62,51,12,29,2,4,0.1,0.2
2025-11-16T2300,3581A,115.31981,38.95208,保定市,满城区生态环境分局,,27,27,67,3,23,55,55,69,59,2,16,3,3,0.4,0.4
2025-11-16T2300,3582A,115.47694,38.76408,保定市,清苑区第二中学,,35,35,98,3,33,52,52,65,56,2,28,2,4,0.2,0.3
2025-11-16T2300,3583A,115.62909,39.02311,保定市,徐水物探局,,,,96,8,40,45,45,64,48,2,25,2,5,0.2,0.5
2025-11-16T2300,4004A,115.4202,38.8656,保定市,双鹰农机,,30,30,79,17,39,55,55,69,59,3,22,2,2,0.3,0.5
2025-11-16T2300,4034A,115.5150,38.8590,保定市,植保所站,,48,48,80,17,42,46,46,61,51,2,29,2,2,0.2,0.7
2025-11-16T2300,2594A,99.1678,25.1081,保山市,市环境监测站,,30,21,19,21,16,50,50,83,67,6,7,1,2,0.4,0.4
2025-11-16T2300,2595A,99.1711,25.1328,保山市,市环保局,,25,17,21,17,20,61,61,87,75,3,6,6,6,0.4,0.4
2025-11-16T2300,1866A,109.2262,21.588,北海市,牛尾岭水库,,45,,33,31,35,65,65,104,92,9,11,12,6,0.3,0.3
2025-11-16T2300,1867A,109.1436,21.4086,北海市,海滩公园,,41,41,53,17,32,121,121,155,143,8,14,5,9,0.6,0.7
2025-11-16T2300,1868A,109.0981,21.4661,北海市,新市环保局,,41,41,56,24,38,111,111,151,142,12,18,5,7,0.5,0.6
2025-11-16T2300,1869A,109.1778,21.5233,北海市,北海工业园,,47,47,59,27,38,100,100,144,135,13,18,5,10,0.2,0.3
2025-11-16T2300,3400A,109.1911,21.4415,北海市,龙潭自来水厂,,41,41,55,19,42,106,106,151,137,7,12,5,9,0.5,0.6
2025-11-16T2300,1001A,116.3621,39.8784,北京市,万寿西宫,,16,12,28,3,9,50,50,60,50,7,17,2,2,0.3,0.3
2025-11-16T2300,1002A,116.2202,40.2915,北京市,定陵,,,,,,,,,,,,,,,,
2025-11-16T2300,1003A,116.4174,39.9289,北京市,东四,,22,22,32,3,8,45,45,55,46,8,15,2,2,0.3,0.4
2025-11-16T2300,1004A,116.4072,39.8863,北京市,天坛,,21,21,31,3,9,48,48,58,48,2,11,3,3,0.1,0.2
2025-11-16T2300,1005A,116.462,39.9365,北京市,农展馆,,15,11,25,3,7,46,46,56,47,4,12,3,3,0.1,0.2
2025-11-16T2300,1006A,116.3392,39.9295,北京市,官园,,15,13,26,3,7,45,45,54,46,3,11,2,2,0.3,0.3
2025-11-16T2300,1007A,116.2878,39.9611,北京市,海淀万柳,,14,12,23,3,6,42,42,51,43,8,15,3,3,0.2,0.3
2025-11-16T2300,1008A,116.6636,40.135,北京市,顺义新城,,16,16,28,3,7,45,45,55,46,4,11,4,4,0.3,0.3
2025-11-16T2300,1009A,116.6275,40.3275,北京市,怀柔镇,,15,10,18,3,6,47,47,56,47,2,5,4,4,0.5,0.6
2025-11-16T2300,1010A,116.2296,40.217,北京市,昌平镇,,22,22,27,3,6,46,46,49,46,2,6,4,4,0.1,0.2
2025-11-16T2300,1011A,116.3966,39.9821,北京市,奥体中心,,14,14,25,3,7,42,42,52,44,8,16,4,4,0.4,0.3
2025-11-16T2300,3281A,115.9718,40.4529,北京市,延庆夏都,,15,15,20,3,4,48,48,59,49,2,4,2,2,0.3,0.3
2025-11-16T2300,3418A,116.8336,40.4095,北京市,密云新城,,15,10,16,3,4,46,46,58,47,2,4,2,2,0.4,0.4
2025-11-16T2300,3671A,116.088,39.9726,北京市,门头沟三家店,,22,22,28,3,6,47,47,56,47,2,4,1,1,0.3,0.3
2025-11-16T2300,3672A,116.1541,39.8204,北京市,丰台云岗,,16,14,30,3,6,49,49,56,49,1,7,1,2,0.2,0.2
2025-11-16T2300,3673A,116.6804,39.9081,北京市,通州东关,,16,16,37,3,11,44,44,51,44,3,16,3,4,0.5,0.4
2025-11-16T2300,3674A,115.9577,39.7603,北京市,房山燕山,,15,14,24,3,7,47,47,56,48,2,5,3,3,0.1,0.1
2025-11-16T2300,3675A,116.4672,39.7733,北京市,大兴旧宫,,15,13,35,3,11,48,48,58,50,4,15,2,2,0.3,0.3
2025-11-16T2300,3694A,115.986,40.4563,北京市,延庆石河营,,15,13,18,3,4,45,45,53,46,7,8,2,2,0.3,0.3
2025-11-16T2300,3695A,116.6151,40.3053,北京市,怀柔新城,,16,10,16,3,6,49,49,62,51,2,4,3,3,0.2,0.2
2025-11-16T2300,3696A,116.2545,39.8768,北京市,丰台小屯,,19,19,31,3,9,43,43,50,44,3,9,3,3,0.3,0.3
2025-11-16T2300,3697A,116.84,40.3844,北京市,密云镇,,15,13,22,3,5,45,45,57,47,7,9,1,2,0.2,0.3
2025-11-16T2300,4182A,116.1942,39.9158,北京市,八角北路9号,,21,21,31,3,8,38,38,46,38,6,12,3,3,0,0.1
2025-11-16T2300,4194A,117.0790,40.1518,北京市,洳河巡河路,,14,14,21,3,6,44,44,53,44,2,5,4,4,0.2,0.2
2025-11-16T2300,1761A,123.8275,41.3064,本溪市,大峪,,47,47,44,3,21,39,39,85,45,8,12,9,10,0.5,0.6
2025-11-16T2300,1762A,123.7567,41.3325,本溪市,溪湖,颗粒物(PM10),51,52,56,6,22,42,42,76,46,8,15,8,9,0.5,0.6
2025-11-16T2300,1763A,123.7169,41.3094,本溪市,彩屯,颗粒物(PM10),52,54,52,6,24,41,41,66,47,6,15,7,9,0.5,0.9
2025-11-16T2300,1764A,123.7669,41.2864,本溪市,东明,颗粒物(PM10),67,83,60,3,20,42,42,83,47,6,12,8,8,0.4,0.4
2025-11-16T2300,1765A,123.7992,41.2664,本溪市,新立屯,颗粒物(PM10),66,82,58,3,20,43,43,87,49,6,12,7,8,0.4,0.4
2025-11-16T2300,1766A,123.8142,41.3472,本溪市,威宁,颗粒物(PM10),82,113,76,3,17,40,40,77,44,9,13,5,6,0.5,0.6
2025-11-16T2300,2587A,105.2864,27.3125,毕节市,八中,细颗粒物(PM2.5),87,106,50,64,45,47,47,72,59,8,11,8,9,0.7,0.7
2025-11-16T2300,2588A,105.31,27.2944,毕节市,师专,细颗粒物(PM2.5),78,79,56,57,41,48,48,75,63,10,12,10,10,0.7,0.7
2025-11-16T2300,4263A,105.3688,27.3598,毕节市,工业大道,细颗粒物(PM2.5),72,74,56,52,41,41,41,81,66,5,9,9,11,0.7,0.7
2025-11-16T2300,1629A,118.0018,37.3617,滨州市,第二水厂,,27,27,117,3,56,36,36,54,42,15,27,6,10,0,0.3
2025-11-16T2300,1630A,117.9776,37.393,滨州市,北中新校,,22,22,110,3,49,36,36,58,42,3,22,3,8,0,0.2
2025-11-16T2300,3514A,117.9378,37.3956,滨州市,中海酒店,,19,19,98,3,54,37,37,67,47,14,33,3,7,0.2,0.4
2025-11-16T2300,3515A,117.9378,37.3553,滨州市,开发区一中,,34,34,124,3,59,39,39,62,49,10,24,3,7,0.4,0.7
2025-11-16T2300,3516A,118.0917,37.694,滨州市,金海六路,,34,34,106,3,46,46,46,66,54,11,39,4,6,0.1,0.3
2025-11-16T2300,4028A,117.9956,37.3753,滨州市,滨州市西街道办事处,,24,24,113,3,58,39,39,59,46,16,26,5,8,0.1,0.4
2025-11-16T2300,2311A,115.8072,33.8399,亳州市,污水处理厂,颗粒物(PM10),84,118,159,31,99,37,37,118,72,26,36,5,10,0.5,0.9
2025-11-16T2300,2312A,115.7789,33.8518,亳州市,三国揽胜宫,颗粒物(PM10),82,114,163,31,102,35,35,114,70,25,32,4,7,0.4,0.8
2025-11-16T2300,3332A,115.7633,33.8034,亳州市,亳州学院,颗粒物(PM10),77,103,144,31,97,42,42,125,79,25,30,3,6,0.4,0.8
2025-11-16T2300,2693A,82.0485,44.8556,博尔塔拉蒙古自治州,市党校,,29,29,46,6,11,18,18,30,21,18,15,5,4,0.3,0.3
2025-11-16T2300,2694A,82.0806,44.8969,博尔塔拉蒙古自治州,市环保局,,50,50,42,15,14,27,27,34,27,19,14,2,2,0.3,0.3
2025-11-16T2300,1071A,116.8842,38.2991,沧州市,沧县城建局,,34,34,111,16,63,39,39,58,43,14,20,3,4,0.1,0.3
2025-11-16T2300,1072A,116.8584,38.3254,沧州市,电视转播站,,38,38,101,7,54,36,36,56,42,10,17,6,7,0.4,0.5
2025-11-16T2300,1073A,116.8709,38.3228,沧州市,市环保局,,40,40,105,24,66,35,35,57,43,6,8,3,3,0.2,0.4
2025-11-16T2300,3324A,116.8136,38.3004,沧州市,河北水利电力学院,,27,27,108,13,49,33,33,53,42,12,20,3,4,0.3,0.3
2025-11-16T2300,2622A,97.1806,31.1273,昌都市,昌都监测站,,48,48,26,26,15,40,40,76,60,25,14,2,2,0.9,0.5
2025-11-16T2300,3719A,97.1714,31.1406,昌都市,昌都会议中心,,20,20,17,11,8,63,63,81,78,3,4,4,4,0.5,0.4
2025-11-16T2300,2690A,88.1236,43.8886,昌吉回族自治州,天山天池,,,,,,,,,,,,,,,,
2025-11-16T2300,2692A,87.2717,44.0297,昌吉回族自治州,新区政务中心,颗粒物(PM10),66,81,55,30,22,1,1,32,18,48,37,7,7,0.7,0.7
2025-11-16T2300,3613A,87.3095,44.0142,昌吉回族自治州,亚心广场,颗粒物(PM10),69,88,55,41,21,1,1,36,20,49,32,10,8,1.0,0.8
2025-11-16T2300,1120A,125.2863,43.9027,长春市,客车厂,颗粒物(PM10),56,61,66,9,31,39,39,52,44,9,13,6,6,0.3,0.3
2025-11-16T2300,1121A,125.2841,43.8463,长春市,邮电学院,,40,40,68,12,32,36,36,50,39,10,17,6,8,0.3,0.4
2025-11-16T2300,1122A,125.3716,43.8772,长春市,劳动公园,,47,47,73,3,26,37,37,49,39,8,17,8,9,0.1,0.2
2025-11-16T2300,1123A,125.3297,43.8805,长春市,园林处,,48,48,66,12,31,34,34,44,36,10,15,5,6,0.3,0.4
2025-11-16T2300,1124A,125.4605,43.79,长春市,净月潭,,43,43,67,3,24,34,34,49,40,8,13,5,6,0.3,0.4
2025-11-16T2300,1125A,125.7194,43.515,长春市,甩湾子,,35,35,44,7,26,38,38,48,43,5,9,4,5,0.2,0.4
2025-11-16T2300,1126A,125.3863,43.8447,长春市,经开区环卫处,,36,36,66,7,30,33,33,46,37,13,18,7,7,0.3,0.4
2025-11-16T2300,1127A,125.245,43.7783,长春市,高新区管委会,,33,33,63,6,29,42,42,53,46,6,13,4,5,0.1,0.3
2025-11-16T2300,1128A,125.1761,43.8325,长春市,岱山公园,,40,40,67,3,24,34,34,47,36,4,12,6,6,0.3,0.4
2025-11-16T2300,4281A,125.3346,43.9164,长春市,北亚泰大街1068号,,39,39,63,14,30,30,30,44,32,12,16,6,7,0.2,0.3
2025-11-16T2300,1335A,113.0833,28.2325,长沙市,经开区环保局,细颗粒物(PM2.5),78,75,61,57,41,67,67,120,104,55,33,8,9,0.6,0.5
2025-11-16T2300,1336A,112.8872,28.2189,长沙市,高开区环保局,细颗粒物(PM2.5),83,80,81,61,62,74,74,132,114,40,47,8,8,0.5,0.7
2025-11-16T2300,1337A,113.0792,28.2053,长沙市,马坡岭,细颗粒物(PM2.5),94,104,81,70,50,19,19,125,71,90,46,7,7,0.6,0.6
2025-11-16T2300,1338A,112.9394,28.19,长沙市,湖南师范大学,颗粒物(PM10),64,78,73,42,43,96,96,127,116,28,37,6,5,0.7,0.8
2025-11-16T2300,1339A,113.0178,28.1322,长沙市,雨花区环保局,细颗粒物(PM2.5),89,92,79,66,52,85,85,125,105,38,46,10,9,0.8,0.7
2025-11-16T2300,1340A,112.9792,28.2597,长沙市,伍家岭,颗粒物(PM10),67,84,89,43,53,69,69,106,92,42,40,6,5,0.5,0.6
2025-11-16T2300,1341A,113.0014,28.1944,长沙市,火车新站,颗粒物(PM10),71,91,86,51,57,89,89,123,108,36,50,12,11,0.5,0.7
2025-11-16T2300,1342A,112.9844,28.1178,长沙市,天心区环保局,细颗粒物(PM2.5),77,88,75,56,48,89,89,132,114,38,46,8,8,0.6,0.6
2025-11-16T2300,1343A,112.8908,28.1308,长沙市,湖南中医药大学,细颗粒物(PM2.5),88,97,75,65,48,34,34,119,84,70,42,7,6,0.8,0.7
2025-11-16T2300,1344A,112.9581,28.3611,长沙市,沙坪,,,,,,,,,,,,,,,,
2025-11-16T2300,1727A,113.1147,36.1547,长治市,清华站,,32,32,54,3,21,65,65,73,68,9,26,6,9,0.3,0.6
2025-11-16T2300,1730A,113.0886,36.2125,长治市,审计局,,21,21,52,3,22,61,61,70,64,13,34,8,11,0.2,0.5
2025-11-16T2300,1731A,113.0844,36.1856,长治市,长治八中,,39,39,69,9,28,58,58,67,62,10,26,9,12,0.3,0.6
2025-11-16T2300,2845A,113.1569,36.1911,长治市,德盛苑,,37,37,48,9,21,58,58,72,63,14,20,9,12,0.6,0.7
2025-11-16T2300,3568A,113.06,36.0464,长治市,向阳小学,颗粒物(PM10),53,55,70,8,29,64,64,74,68,14,27,7,12,0.1,0.4
2025-11-16T2300,3569A,112.8792,36.3144,长治市,屯留一中,,40,40,52,3,23,62,62,72,63,10,26,6,11,0.7,0.9
2025-11-16T2300,4189A,113.1131,36.19948,长治市,英华南巷50号,,28,28,58,7,23,62,62,72,65,11,27,7,10,0.4,0.8
2025-11-16T2300,4190A,113.2367,36.3344,长治市,学府街1号,,23,23,58,3,26,64,64,74,67,8,34,4,15,0.3,0.9
2025-11-16T2300,1854A,111.6975,28.9703,常德市,市二中,细颗粒物(PM2.5),72,85,76,52,51,121,121,124,111,12,23,10,8,0.4,0.5
2025-11-16T2300,1857A,111.7158,29.1456,常德市,白鹤山,,,,,,,,,,,,,,,,
2025-11-16T2300,3138A,111.7153,29.0289,常德市,武陵区永安,细颗粒物(PM2.5),77,82,82,56,53,133,133,138,130,9,21,11,8,0.6,0.7
2025-11-16T2300,3139A,111.6892,28.9881,常德市,鼎城区玉霞,细颗粒物(PM2.5),97,94,85,72,56,135,135,131,125,9,20,11,8,0.8,0.7
2025-11-16T2300,3140A,111.6625,29.0531,常德市,武陵区长庚,细颗粒物(PM2.5),99,91,84,74,56,92,92,137,127,21,21,6,6,0.8,0.8
2025-11-16T2300,1196A,119.9633,31.762,常州市,市监测站,颗粒物(PM10),57,63,87,32,46,88,88,154,114,19,42,6,8,0.4,0.6
2025-11-16T2300,1200A,119.9468,31.7069,常州市,武进监测站,颗粒物(PM10),55,60,87,27,36,92,92,151,118,19,34,10,12,0.5,0.5
2025-11-16T2300,1201A,119.9255,31.9087,常州市,安家,颗粒物(PM10),62,74,97,29,50,78,78,144,105,24,48,18,13,0.4,0.5
2025-11-16T2300,3002A,119.9805,31.8174,常州市,行政中心,颗粒物(PM10),58,65,88,35,52,97,97,153,118,15,46,8,8,0.4,0.6
2025-11-16T2300,3003A,120.0522,31.7748,常州市,经开区,颗粒物(PM10),51,51,99,28,51,84,84,139,95,12,45,8,9,0.8,0.8
2025-11-16T2300,3010A,119.9025,31.7964,常州市,钟楼,颗粒物(PM10),55,60,80,26,44,96,96,147,114,19,38,10,11,0.6,0.7
2025-11-16T2300,3429A,119.8598,31.7066,常州市,武进经发区,颗粒物(PM10),53,55,71,28,40,87,87,139,97,26,46,10,10,0.9,0.9
2025-11-16T2300,3430A,119.5826,31.7245,常州市,金坛城区,细颗粒物(PM2.5),58,59,55,41,37,84,84,144,119,21,24,7,9,0.8,0.7
2025-11-16T2300,2220A,120.4318,41.5881,朝阳市,西梁,颗粒物(PM10),52,53,64,3,4,40,40,60,43,6,10,3,3,0.4,0.4
2025-11-16T2300,2221A,120.4521,41.5646,朝阳市,河畔小区,颗粒物(PM10),53,55,64,3,5,42,42,62,43,8,13,5,4,0.3,0.3
2025-11-16T2300,2222A,120.4176,41.5648,朝阳市,八里堡,,48,48,72,6,9,43,43,61,44,5,11,8,7,0.3,0.3
2025-11-16T2300,2223A,120.3806,41.5969,朝阳市,农业园区,,49,49,54,6,8,45,45,66,48,6,7,7,6,0.4,0.4
2025-11-16T2300,1705A,116.6367,23.6719,潮州市,西园路,,,,,,,,,,,,,,,,
2025-11-16T2300,3026A,116.6183,23.6608,潮州市,市政府,颗粒物(PM10),56,62,51,31,26,66,66,122,98,22,12,6,6,0.5,0.4
2025-11-16T2300,4036A,116.6461,23.6761,潮州市,金山,,47,47,44,25,27,40,40,119,84,17,10,3,4,0.5,0.5
2025-11-16T2300,2472A,113.0073,25.9061,郴州市,马头岭,,,,,,,,,,,,,,,,
2025-11-16T2300,2473A,113.0116,25.8226,郴州市,市职中,细颗粒物(PM2.5),65,61,48,47,36,4,4,98,50,40,23,4,12,0.7,0.6
2025-11-16T2300,2475A,113.0383,25.8071,郴州市,市审计局,细颗粒物(PM2.5),62,67,52,44,38,8,8,101,57,42,25,3,12,0.6,0.5
2025-11-16T2300,2476A,113.0348,25.7759,郴州市,市环保局,细颗粒物(PM2.5),93,80,62,69,41,9,9,99,56,50,29,4,10,0.6,0.5
2025-11-16T2300,4252A,113.0138,25.8011,郴州市,好美居路49号,细颗粒物(PM2.5),84,80,48,62,37,1,1,104,54,56,30,3,11,0.7,0.6
2025-11-16T2300,1431A,103.9728,30.7236,成都市,金泉两河,,43,43,48,24,32,29,29,18,16,20,33,3,3,0.6,0.7
2025-11-16T2300,1432A,104.176,30.6872,成都市,十里店,细颗粒物(PM2.5),68,68,67,49,49,24,24,16,11,25,35,3,3,0.6,0.6
2025-11-16T2300,1433A,104.079,30.5706,成都市,三瓦窑,颗粒物(PM10),64,77,65,36,36,20,20,23,19,32,36,4,3,0.6,0.6
2025-11-16T2300,1434A,104.1114,30.63,成都市,沙河铺,细颗粒物(PM2.5),75,62,67,55,53,15,15,13,11,34,38,1,2,0.6,0.5
2025-11-16T2300,1437A,104.0786,30.6531,成都市,君平街,细颗粒物(PM2.5),54,56,59,38,41,20,20,24,14,27,31,6,4,0.8,0.7
2025-11-16T2300,1438A,103.613,31.0283,成都市,灵岩寺,,,,,,,,,,,,,,,,
2025-11-16T2300,2880A,104.0239,30.65639,成都市,大石西路,细颗粒物(PM2.5),65,54,51,47,39,25,25,16,13,27,33,3,2,0.7,0.7
2025-11-16T2300,3136A,104.2725,30.5589,成都市,龙泉驿区区政府,,34,34,34,22,26,15,15,34,22,33,24,5,6,0.5,0.5
2025-11-16T2300,3357A,104.0106,30.6931,成都市,金博路,,38,38,47,19,30,24,24,16,11,23,35,5,5,0.6,0.6
2025-11-16T2300,3359A,104.0578,30.5225,成都市,华阳,细颗粒物(PM2.5),52,41,49,36,37,15,15,20,18,35,35,5,4,0.5,0.5
2025-11-16T2300,3488A,104.3880,30.7467,成都市,青石路225号,细颗粒物(PM2.5),60,67,48,43,30,15,15,33,19,27,21,5,5,0.9,0.8
2025-11-16T2300,3489A,104.0789,30.4072,成都市,科学城,,45,45,46,31,34,22,22,33,28,31,27,5,5,0.6,0.5
2025-11-16T2300,4011A,103.8506,30.6947,成都市,光华大道三段,细颗粒物(PM2.5),54,55,60,38,41,32,32,33,23,19,26,1,1,0.7,0.8
2025-11-16T2300,4224A,104.2433,30.5353,成都市,鲸龙路1057号,,48,48,49,33,36,17,17,35,20,32,28,5,5,0.7,0.7
2025-11-16T2300,1062A,117.9531,40.9081,承德市,铁路,,39,39,39,3,9,46,46,58,49,3,8,1,2,0.2,0.3
2025-11-16T2300,1063A,117.9392,40.9763,承德市,中国银行,,40,40,41,3,7,43,43,54,46,3,7,2,2,0.2,0.3
2025-11-16T2300,1064A,117.9503,40.928,承德市,开发区,,41,41,48,15,17,48,48,59,51,1,6,1,2,0.0,0.1
2025-11-16T2300,1066A,117.9268,41.0026,承德市,离宫,,,,,,,,,,,,,,,,
2025-11-16T2300,4274A,117.7994,40.9605,承德市,滨河大街98号,,20,20,26,3,7,43,43,56,46,2,3,3,3,0.2,0.2
2025-11-16T2300,2314A,117.47,30.6618,池州市,池州学院,细颗粒物(PM2.5),124,118,84,94,62,75,75,129,105,48,36,11,9,1.3,1
2025-11-16T2300,3237A,117.4918,30.6617,池州市,展览馆,细颗粒物(PM2.5),105,109,76,79,52,56,56,128,96,41,34,8,8,1.3,1.2
2025-11-16T2300,3333A,117.5627,30.695,池州市,第八中学,细颗粒物(PM2.5),89,102,87,66,56,67,67,127,100,50,44,11,12,1.5,0.9
2025-11-16T2300,3334A,117.5038,30.6243,池州市,第十二中学,细颗粒物(PM2.5),88,90,72,65,48,84,84,132,104,36,43,8,8,1.4,1.2
2025-11-16T2300,1744A,118.9233,42.2816,赤峰市,松山一中,,18,18,48,3,3,48,48,65,48,5,6,5,5,0.3,0.3
2025-11-16T2300,1745A,118.9576,42.2728,赤峰市,哈达街,,25,25,49,8,7,42,42,58,41,8,9,5,5,0.3,0.3
2025-11-16T2300,1746A,118.8788,42.2554,赤峰市,天义路,,18,18,28,10,9,42,42,58,41,3,4,8,7,0.4,0.2
2025-11-16T2300,3058A,119.2658,42.0353,赤峰市,银河街,,37,37,52,11,8,46,46,64,48,1,2,7,6,0.3,0.3
2025-11-16T2300,3286A,118.9359,42.3147,赤峰市,桥北物流园区,,19,19,36,3,6,43,43,59,42,4,6,8,7,0.2,0.2
2025-11-16T2300,2521A,107.3476,22.4136,崇左市,市环保局江州分局,颗粒物(PM10),72,93,49,50,25,0,0,75,49,36,19,4,5,0.9,0.7
2025-11-16T2300,4256A,107.3750,22.3736,崇左市,石景林东路7号,细颗粒物(PM2.5),57,55,41,40,27,22,22,98,67,31,18,6,7,0.7,0.6
2025-11-16T2300,2298A,118.3093,32.3153,滁州市,老年大学,细颗粒物(PM2.5),165,179,89,125,64,81,81,150,125,18,29,12,13,0.7,0.5
2025-11-16T2300,2299A,118.3244,32.2786,滁州市,人大宾馆,细颗粒物(PM2.5),172,186,96,130,63,84,84,153,136,21,31,6,8,0.7,0.5
2025-11-16T2300,3207A,118.3118,32.3038,滁州市,市政府原办公楼,细颗粒物(PM2.5),159,188,100,121,66,86,86,154,132,20,34,6,7,0.9,0.8
2025-11-16T2300,3331A,118.3267,32.2634,滁州市,图书馆,细颗粒物(PM2.5),158,155,94,120,60,88,88,164,144,26,33,8,10,0.7,0.6
2025-11-16T2300,2605A,101.5482,25.0441,楚雄彝族自治州,州环境监测站,,30,27,22,21,17,4,4,56,45,34,13,7,11,0.7,0.6
2025-11-16T2300,2606A,101.538,25.0492,楚雄彝族自治州,市经济开发区,,42,42,23,27,17,10,10,54,45,39,15,10,11,0.9,0.7
2025-11-16T2300,2548A,107.5277,31.2827,达州市,达州职业技术学院,,,,,,,,,,,,,,,,
2025-11-16T2300,2549A,107.5086,31.2186,达州市,市环境监测站,,38,38,46,19,25,1,1,2,1,25,19,8,7,0.6,0.7
2025-11-16T2300,2550A,107.4988,31.2132,达州市,凤凰小区,,34,34,47,22,28,6,6,4,4,25,21,8,7,0.5,0.6
2025-11-16T2300,2551A,107.5082,31.1986,达州市,达县机关宾馆,,34,34,48,20,29,2,2,4,3,23,19,8,6,0.6,0.6
2025-11-16T2300,2552A,107.4644,31.2124,达州市,市政中心,颗粒物(PM10),56,61,67,29,31,3,3,4,3,25,22,9,7,0.8,0.7
2025-11-16T2300,2614A,100.1542,25.7054,大理白族自治州,大理市环境监测站,,25,,14,17,18,66,66,66,66,7,8,6,6,0.4,0.4
2025-11-16T2300,2615A,100.2171,25.5811,大理白族自治州,大理古城,,28,22,19,19,14,51,51,79,65,16,13,8,7,0.3,0.3
2025-11-16T2300,1109A,121.612,38.9741,大连市,甘井子,,35,35,107,3,61,53,53,73,56,15,25,6,9,0.3,0.4
2025-11-16T2300,1110A,121.565,38.9511,大连市,周水子,,29,29,98,3,57,70,70,94,75,11,20,5,6,0.2,0.5
2025-11-16T2300,1111A,121.5637,38.8845,大连市,星海三站,,39,39,97,7,58,51,51,81,54,8,13,6,7,0.2,0.4
2025-11-16T2300,1112A,121.6302,38.9117,大连市,青泥洼桥,,17,16,88,3,58,52,52,82,54,12,19,10,11,0.2,0.7
2025-11-16T2300,1113A,121.6251,38.8638,大连市,傅家庄,,26,26,98,3,54,50,50,64,54,9,15,9,11,0.2,0.5
2025-11-16T2300,1114A,121.5213,38.8661,大连市,七贤岭,,34,34,106,3,56,56,56,78,62,6,15,6,8,0.3,0.5
2025-11-16T2300,1115A,121.2529,38.8061,大连市,旅顺,,18,17,85,3,52,57,57,82,64,3,11,6,8,0.2,0.4
2025-11-16T2300,1116A,121.7485,39.1311,大连市,金州,,18,18,96,3,64,54,54,66,54,8,34,4,9,0.1,0.5
2025-11-16T2300,1117A,121.7811,39.0496,大连市,开发区,,34,34,103,3,60,50,50,66,52,6,19,10,11,0.1,0.4
2025-11-16T2300,1118A,121.9762,39.0631,大连市,双D港,颗粒物(PM10),51,51,92,3,54,56,56,80,59,7,17,9,12,0.3,0.7
2025-11-16T2300,1789A,124.81117,46.03138,大庆市,大同区,,34,34,81,8,28,44,44,52,37,8,15,9,10,0.4,0.5
2025-11-16T2300,1790A,125.129,46.533,大庆市,龙凤区,,25,25,47,11,26,44,44,40,34,7,15,4,6,0.3,0.4
2025-11-16T2300,1791A,124.902,46.408,大庆市,红岗区,,28,28,45,12,20,48,48,43,37,6,12,5,5,0.3,0.5
2025-11-16T2300,1792A,125.153,46.586,大庆市,萨尔图区,,23,23,41,12,22,49,49,40,37,10,16,7,7,0.3,0.4
2025-11-16T2300,1793A,124.9042,46.6215,大庆市,让胡路区,,29,26,46,20,33,48,48,45,40,4,7,6,7,0.3,0.4
2025-11-16T2300,3481A,125.141,46.634,大庆市,萨区政府监测点,,31,31,40,9,9,50,50,43,39,2,9,9,9,0.2,0.3
2025-11-16T2300,1721A,113.3819,40.1097,大同市,果树场,,15,6,21,3,8,47,47,55,47,9,10,7,8,0.3,0.3
2025-11-16T2300,1723A,113.2994,40.0758,大同市,云冈宾馆,,15,13,21,3,6,45,45,52,47,2,5,3,4,0.4,0.4
2025-11-16T2300,1724A,113.3444,40.0917,大同市,大同大学,,21,21,24,3,7,48,48,56,48,8,12,4,5,0.3,0.4
2025-11-16T2300,1725A,113.2661,40.1269,大同市,安家小村,,18,18,18,3,5,45,45,46,42,4,7,5,6,0.1,0.2
2025-11-16T2300,1726A,113.2711,40.0844,大同市,教育学院,,20,20,25,14,9,46,46,53,47,6,8,2,4,0.5,0.5
2025-11-16T2300,3282A,113.3397,40.0597,大同市,大同市卫生学校,,24,24,23,6,7,47,47,53,47,6,9,2,4,0.3,0.3
2025-11-16T2300,3565A,113.1367,40.1122,大同市,云冈站,,16,16,20,3,4,34,34,52,44,7,4,7,4,0.5,0.3
2025-11-16T2300,3566A,113.1186,40.2556,大同市,图书馆,,15,15,29,6,7,40,40,57,48,12,6,8,8,0.7,0.4
2025-11-16T2300,3567A,113.5931,40.0461,大同市,区一中,,17,13,25,3,5,54,54,60,55,6,9,3,6,0.3,0.3
2025-11-16T2300,4199A,113.2798,40.0997,大同市,魏都大道141号,,22,22,26,8,9,48,48,54,48,5,8,2,3,0.4,0.3
2025-11-16T2300,2269A,124.1069,50.4097,大兴安岭地区,科技局,,20,17,21,12,16,62,62,57,57,2,6,5,6,0.2,0.2
2025-11-16T2300,3663A,124.1164,50.4278,大兴安岭地区,红旗社区,,21,6,6,3,3,67,67,62,62,2,4,4,4,0.3,0.3
2025-11-16T2300,1600A,124.3303,40.0625,丹东市,江湾东路,,33,33,52,6,23,47,47,83,52,9,15,7,8,0.3,0.6
2025-11-16T2300,1601A,124.4256,40.1503,丹东市,临江后街,,42,42,50,3,17,48,48,81,53,6,14,5,8,0.5,0.7
2025-11-16T2300,1602A,124.3933,40.1461,丹东市,元宝山,,31,31,46,8,18,45,45,82,51,8,14,8,11,0.4,0.7
2025-11-16T2300,1603A,124.3633,40.1092,丹东市,民主桥,,37,37,54,3,21,44,44,76,45,6,16,6,7,0.6,0.5
2025-11-16T2300,3541A,109.5726,19.5167,儋州市,第一中学子站,,46,46,36,18,15,79,79,74,71,2,3,7,6,0.4,0.4
2025-11-16T2300,3542A,109.5567,19.5187,儋州市,东坡学校子站,,40,40,34,15,14,91,91,87,81,6,8,3,2,0.4,0.4
2025-11-16T2300,2616A,98.5842,24.428,德宏傣族景颇族自治州,德宏州监测站,,39,36,31,27,22,32,32,75,57,23,20,8,9,0.7,0.6
2025-11-16T2300,3677A,98.5881,24.4368,德宏傣族景颇族自治州,芒市人民政府综合楼,,28,28,34,16,18,38,38,68,56,13,14,6,7,0.7,0.7
2025-11-16T2300,1901A,104.4239,31.1208,德阳市,东山公园,细颗粒物(PM2.5),53,45,31,37,26,21,21,38,29,20,15,1,1,0.8,0.8
2025-11-16T2300,1902A,104.3826,31.1317,德阳市,西小区,颗粒物(PM10),53,55,48,36,29,24,24,36,30,22,18,1,2,0.5,0.6
2025-11-16T2300,1904A,104.3553,31.1091,德阳市,耐火材料厂,颗粒物(PM10),51,51,50,23,32,24,24,32,30,24,26,3,3,0.6,0.7
2025-11-16T2300,3639A,104.4019,31.1244,德阳市,市教育局,,48,48,37,29,25,14,14,32,24,26,18,2,2,0.6,0.6
2025-11-16T2300,1622A,116.3032,37.4674,德州市,儿童乐园,颗粒物(PM10),51,51,153,7,71,39,39,58,48,20,27,8,11,0.4,0.7
2025-11-16T2300,1624A,116.2991,37.4451,德州市,监理站,,34,34,136,3,67,44,44,66,56,26,29,14,14,0.4,0.6
2025-11-16T2300,3066A,116.2721,37.4379,德州市,九衢泉纯净水厂,,31,31,144,14,62,35,35,58,48,22,29,10,12,0.4,0.8
2025-11-16T2300,3371A,116.3728,37.4403,德州市,开发区人民医院,,41,41,142,3,64,40,40,72,60,32,29,11,15,0.7,0.8
2025-11-16T2300,3511A,116.5652,37.3319,德州市,陵城艺术中心,,27,27,142,3,68,38,38,58,47,24,36,8,12,0.5,0.8
2025-11-16T2300,4292A,116.3525,37.4209,德州市,新河东路,,31,31,142,7,67,28,28,57,47,36,41,6,10,0.6,0.9
2025-11-16T2300,2621A,99.7056,27.8317,迪庆藏族自治州,迪庆州站,,40,40,31,28,21,54,54,93,77,23,13,6,6,0.8,0.6
2025-11-16T2300,3180A,99.7136,27.8094,迪庆藏族自治州,质量技术监督局,,22,22,32,12,18,69,69,96,89,20,17,7,7,0.8,0.6
2025-11-16T2300,4257A,104.6092,35.5962,定西市,将台街,颗粒物(PM10),53,55,79,25,31,72,72,82,80,2,14,6,11,0.3,0.4
2025-11-16T2300,4309A,104.6159,35.5701,定西市,正龙路62号,颗粒物(PM10),61,71,91,34,33,70,70,82,78,9,15,5,6,0.2,0.4
2025-11-16T2300,1389A,113.7547,23.0494,东莞市,莞城梨川,颗粒物(PM10),70,89,61,46,35,14,14,137,94,98,43,3,4,0.9,0.6
2025-11-16T2300,1390A,113.7944,23.0128,东莞市,东城石井,,50,50,44,32,28,54,54,125,102,28,27,6,8,0.7,0.7
2025-11-16T2300,1391A,113.7383,22.9658,东莞市,南城西平,颗粒物(PM10),57,63,61,35,33,94,94,144,123,34,43,8,9,0.7,0.7
2025-11-16T2300,3319A,113.7338,23.0381,东莞市,万江金泰,,,,57,,32,,,129,,,32,,7,,0.8
2025-11-16T2300,3626A,113.7533,23.0202,东莞市,南城元岭,颗粒物(PM10),59,68,57,34,32,31,31,142,101,66,29,7,8,0.9,0.7
2025-11-16T2300,3627A,113.7875,23.0457,东莞市,东城主山,,,98,66,54,37,,,147,,115,38,13,9,1.1,0.7
2025-11-16T2300,1666A,118.6614,37.4309,东营市,市环保局,,24,24,98,3,50,51,51,64,54,12,34,4,10,0.5,0.8
2025-11-16T2300,3036A,118.6904,37.4338,东营市,开发区管委会,,29,29,103,3,57,53,53,66,56,12,39,7,13,0.6,0.7
2025-11-16T2300,3365A,118.5719,37.565,东营市,垦利区民丰路,,27,27,98,3,54,50,50,64,55,8,27,1,5,0.4,0.7
2025-11-16T2300,3498A,118.5055,37.8612,东营市,河口城区,,19,19,113,3,53,57,57,68,61,9,29,4,8,0.2,0.6
2025-11-16T2300,3646A,118.4978,37.4623,东营市,胜利站,,31,31,108,3,52,50,50,61,52,16,37,8,14,0.1,0.6
2025-11-16T2300,3734A,118.35,37.26,东营市,理想之城,,31,31,108,7,57,47,47,58,49,16,43,2,6,0.3,0.7
2025-11-16T2300,1591A,110.0023,39.8129,鄂尔多斯市,综合楼,,19,19,30,3,3,38,38,51,39,12,12,7,8,0.4,0.4
2025-11-16T2300,1592A,109.9486,39.8261,鄂尔多斯市,巴音孟克林场办事处,,27,27,34,3,7,32,32,54,46,18,10,6,6,0.6,0.5
2025-11-16T2300,1593A,109.7736,39.5986,鄂尔多斯市,康泽苑,,22,22,29,7,10,48,48,60,54,8,6,2,3,0.3,0.2
2025-11-16T2300,1594A,109.8119,39.5989,鄂尔多斯市,华泰汽车城,,17,17,31,7,9,45,45,58,52,8,7,5,6,0.1,0.2
2025-11-16T2300,1595A,109.9734,39.7884,鄂尔多斯市,奥林花园,,27,27,41,3,5,38,38,53,47,17,13,6,6,0.5,0.4
2025-11-16T2300,2436A,114.8938,30.3994,鄂州市,市政府,细颗粒物(PM2.5),119,134,103,90,74,2,2,119,76,98,53,11,14,1.1,1
2025-11-16T2300,2437A,114.8989,30.3714,鄂州市,赵家坝,细颗粒物(PM2.5),110,102,93,83,68,51,51,135,102,49,37,10,14,0.8,0.8
2025-11-16T2300,3654A,114.8094,30.4089,鄂州市,精准医疗中心,细颗粒物(PM2.5),124,120,104,94,78,13,13,143,106,121,58,8,11,1.1,1.2
2025-11-16T2300,2454A,109.4978,30.2981,恩施土家族苗族自治州,湖北民院,细颗粒物(PM2.5),107,,36,80,50,13,13,58,38,22,16,7,7,0.9,0.6
2025-11-16T2300,2455A,109.4707,30.2798,恩施土家族苗族自治州,州电力总公司,细颗粒物(PM2.5),124,110,68,94,54,4,4,52,31,41,23,6,6,0.9,0.6
2025-11-16T2300,3549A,109.5061,30.3772,恩施土家族苗族自治州,龙凤新区,细颗粒物(PM2.5),115,110,65,87,49,2,2,44,21,19,13,7,6,0.5,0.4
2025-11-16T2300,2499A,108.3411,21.6158,防城港市,沙万,,50,47,49,35,33,64,64,106,91,14,13,7,8,0.5,0.5
2025-11-16T2300,2500A,108.3514,21.7731,防城港市,防城档案局,颗粒物(PM10),54,57,64,35,35,43,43,91,65,20,16,8,9,0.6,0.6
2025-11-16T2300,2501A,108.3506,21.6414,防城港市,大海花园,细颗粒物(PM2.5),58,47,116,41,32,61,61,114,96,16,12,10,8,0.6,0.5
2025-11-16T2300,1371A,113.1294,23.0067,佛山市,湾梁,颗粒物(PM10),57,63,58,34,31,34,34,126,91,61,52,7,7,0.8,0.6
2025-11-16T2300,1372A,113.1083,23.0478,佛山市,华材职中,颗粒物(PM10),71,92,62,46,37,7,7,134,83,103,53,6,7,1.2,0.8
2025-11-16T2300,1373A,113.144,23.0453,佛山市,南海气象局,颗粒物(PM10),61,72,54,35,31,44,44,130,109,59,45,9,9,1.2,0.9
2025-11-16T2300,1374A,113.2881,22.8094,佛山市,顺德苏岗,"颗粒物(PM10),细颗粒物(PM2.5)",55,59,62,39,33,76,76,190,141,37,38,8,9,0.7,0.6
2025-11-16T2300,1376A,112.8383,22.8678,佛山市,高明孔堂,,50,50,66,29,40,86,86,178,139,16,36,4,6,0.4,0.5
2025-11-16T2300,1377A,112.8836,23.1588,佛山市,三水监测站,颗粒物(PM10),60,70,62,36,34,37,37,125,87,72,53,10,11,0.9,0.8
2025-11-16T2300,1378A,112.867,23.185,佛山市,三水云东海,颗粒物(PM10),62,74,56,42,35,0,0,126,81,100,41,4,7,0.7,0.6
2025-11-16T2300,3625A,113.2544,22.7642,佛山市,容桂街道办,细颗粒物(PM2.5),94,110,68,70,37,59,59,178,139,91,42,7,8,1.0,0.7
2025-11-16T2300,1280A,119.3903,26.0543,福州市,鼓山,,,,28,,11,,,93,,,9,,2,,0.5
2025-11-16T2300,1282A,119.2681,26.0504,福州市,师大,,50,50,40,24,16,32,32,110,76,33,15,6,7,0.5,0.4
2025-11-16T2300,1283A,119.2984,26.1028,福州市,五四北路,,30,30,34,14,15,60,60,107,81,20,17,5,4,0.4,0.4
2025-11-16T2300,1284A,119.2648,26.0768,福州市,杨桥西路,,44,44,38,25,16,40,40,111,72,28,17,4,4,0.3,0.3
2025-11-16T2300,1285A,119.317,26.0746,福州市,紫阳,,47,47,52,21,18,51,51,96,58,28,23,7,7,0.4,0.4
2025-11-16T2300,3048A,119.5799,26.0936,福州市,九龙,,21,21,26,3,5,54,54,102,78,16,9,4,4,0.3,0.3
2025-11-16T2300,3526A,119.5189,25.9664,福州市,吴航,,29,22,28,8,12,90,90,100,95,6,14,6,6,0.3,0.4
2025-11-16T2300,1755A,123.7977,41.8491,抚顺市,望花区,颗粒物(PM10),74,97,87,9,22,35,35,61,43,10,14,2,6,0.6,0.6
2025-11-16T2300,1756A,123.9161,41.8822,抚顺市,顺城区,颗粒物(PM10),66,82,72,6,25,35,35,58,44,12,17,7,7,0.4,0.6
2025-11-16T2300,1757A,124.0436,41.8611,抚顺市,东洲区,颗粒物(PM10),68,85,69,7,21,38,38,70,46,9,11,7,7,0.5,0.6
2025-11-16T2300,1758A,123.9247,41.8642,抚顺市,新抚区,,,100,67,6,19,,,61,45,9,12,7,8,,0.6
2025-11-16T2300,1759A,124.0972,41.8961,抚顺市,大伙房水库,颗粒物(PM10),67,84,64,7,20,36,36,67,46,14,14,10,10,0.5,0.6
2025-11-16T2300,1760A,123.7086,41.8391,抚顺市,沈抚新城,颗粒物(PM10),73,96,79,3,22,40,40,65,46,10,13,5,6,0.3,0.4
2025-11-16T2300,2376A,116.2127,28.0814,抚州市,桐源党溪,,,,,,,,,,,,,,,,
2025-11-16T2300,2377A,116.3544,27.9831,抚州市,市站,细颗粒物(PM2.5),74,80,72,54,47,107,107,135,125,17,25,32,17,0.9,0.9
2025-11-16T2300,2378A,116.3565,27.963,抚州市,血防站,细颗粒物(PM2.5),82,78,68,60,43,126,126,139,133,16,28,8,9,0.6,0.5
2025-11-16T2300,2379A,116.3564,28.0007,抚州市,采茶剧团,细颗粒物(PM2.5),97,98,77,72,53,87,87,135,121,27,21,152,21,0.9,0.8
2025-11-16T2300,2380A,116.385,27.9647,抚州市,医学分院,细颗粒物(PM2.5),72,87,74,52,43,114,114,141,131,15,25,9,8,0.9,0.8
2025-11-16T2300,2207A,121.6094,41.998,阜新市,工业园区,颗粒物(PM10),56,62,80,3,22,35,35,53,43,15,18,9,9,0.3,0.4
2025-11-16T2300,2208A,121.6697,42.0279,阜新市,长青街,,45,45,76,3,25,36,36,53,43,8,16,7,8,0.2,0.4
2025-11-16T2300,2209A,121.6673,42.0705,阜新市,农业园区,颗粒物(PM10),54,57,56,3,5,36,36,58,43,10,9,4,4,0.3,0.3
2025-11-16T2300,2210A,121.6717,42.0224,阜新市,东苑,颗粒物(PM10),60,70,88,7,21,41,41,57,47,10,16,3,4,0.4,0.5
2025-11-16T2300,2211A,121.6506,42.0498,阜新市,玉龙新城,颗粒物(PM10),54,58,73,3,18,38,38,54,45,9,17,6,8,0.3,0.4
2025-11-16T2300,2301A,115.8277,32.8929,阜阳市,市监测站,颗粒物(PM10),130,210,132,97,89,50,50,118,81,31,51,6,6,0.6,0.7
2025-11-16T2300,2303A,115.8554,32.8605,阜阳市,开发区,细颗粒物(PM2.5),155,213,149,118,75,58,58,122,95,27,43,6,5,0.5,0.5
2025-11-16T2300,2875A,115.784,32.8892,阜阳市,阜阳职业技术学院,细颗粒物(PM2.5),117,158,116,88,77,62,62,125,97,26,29,8,8,0.7,0.6
2025-11-16T2300,3468A,115.7901,32.8613,阜阳市,市规划展馆,颗粒物(PM10),129,208,126,76,71,56,56,137,106,26,24,8,8,0.7,0.7
2025-11-16T2300,3469A,115.836,32.9183,阜阳市,枣园社区,颗粒物(PM10),122,194,123,70,77,60,60,121,93,29,51,6,6,0.7,0.7
2025-11-16T2300,2669A,102.9099,34.9841,甘南藏族自治州,州政府,颗粒物(PM10),66,82,53,41,29,77,77,82,80,16,26,4,5,0.5,0.6
2025-11-16T2300,3380A,102.8914,34.9617,甘南藏族自治州,甘肃民族师范学院,颗粒物(PM10),63,75,58,32,23,70,70,74,72,13,26,6,8,0.6,0.6
2025-11-16T2300,2570A,101.9603,30.0475,甘孜藏族自治州,水桥子,,16,8,11,8,5,49,49,65,59,13,16,8,8,0.4,0.4
2025-11-16T2300,3065A,101.9533,29.9972,甘孜藏族自治州,州环保局,,14,11,10,7,5,43,43,64,55,17,12,5,5,0.4,0.3
2025-11-16T2300,3414A,115.8347,28.932,赣江新区,桑海产业园,细颗粒物(PM2.5),77,100,68,56,37,8,8,149,105,98,41,10,10,0.8,0.7
2025-11-16T2300,2362A,114.9017,25.9149,赣州市,通天岩,,31,31,37,14,21,38,38,122,68,5,8,41,42,0.6,0.7
2025-11-16T2300,2363A,114.9367,25.8664,赣州市,地委,颗粒物(PM10),52,53,45,30,27,60,60,121,94,32,19,6,6,0.5,0.5
2025-11-16T2300,2364A,114.9461,25.8481,赣州市,气象台,颗粒物(PM10),56,62,49,26,23,53,53,114,85,35,26,7,7,0.6,0.6
2025-11-16T2300,2365A,114.9322,25.8333,赣州市,市图书馆,细颗粒物(PM2.5),54,53,50,38,27,46,46,113,94,38,26,5,6,0.8,0.7
2025-11-16T2300,2366A,114.8905,25.8471,赣州市,华坚鞋城,,49,49,48,21,24,78,78,88,77,21,26,4,6,0.5,0.4
2025-11-16T2300,3109A,115.0093,25.8613,赣州市,赣县区卫计委,,42,42,44,25,33,12,12,106,52,47,29,7,7,0.6,0.5
2025-11-16T2300,2683A,106.2319,36.1417,固原市,马园,,,,,,,,,,,,,,,,
2025-11-16T2300,2684A,106.2792,36.0022,固原市,监测站,颗粒物(PM10),63,75,71,3,14,44,44,67,55,24,14,10,7,0.9,0.7
2025-11-16T2300,2685A,106.2375,36.0211,固原市,新区,颗粒物(PM10),64,78,68,23,17,45,45,68,56,23,16,11,9,0.4,0.2
2025-11-16T2300,3522A,106.2177,35.9959,固原市,原州区十五小,颗粒物(PM10),67,83,77,25,21,47,47,64,55,19,12,11,7,0.4,0.5
2025-11-16T2300,2543A,106.6308,30.5278,广安市,小平旧居,,,,,,,,,,,,,,,,
2025-11-16T2300,2544A,106.6303,30.4576,广安市,市委,,43,41,37,30,29,13,13,19,17,13,14,3,3,0.6,0.6
2025-11-16T2300,2545A,106.6271,30.4663,广安市,友谊中学,,48,46,38,33,28,16,16,21,19,13,13,6,6,0.6,0.5
2025-11-16T2300,2547A,106.6388,30.4551,广安市,广电花园,,48,,29,33,29,11,11,17,14,12,13,2,2,0.6,0.6
2025-11-16T2300,2902A,106.6351,30.4865,广安市,北辰小学,,46,37,34,32,25,17,17,20,19,9,10,8,7,0.6,0.6
2025-11-16T2300,2523A,105.8945,32.4535,广元市,黑石坡,,,,,,,,,,,,,,,,
2025-11-16T2300,2524A,105.821,32.4444,广元市,老城,,34,34,30,15,21,72,72,62,62,10,22,4,7,0.5,0.7
2025-11-16T2300,2526A,105.8628,32.4287,广元市,监测站,,36,36,35,16,24,72,72,54,54,6,22,3,6,0.7,1
2025-11-16T2300,3617A,105.8047,32.4166,广元市,经开区,,40,40,42,14,26,66,66,50,50,10,23,3,11,0.4,0.7
2025-11-16T2300,1345A,113.2347,23.1423,广州市,广雅中学,细颗粒物(PM2.5),84,102,56,62,33,2,2,118,76,120,55,7,8,1.0,0.5
2025-11-16T2300,1346A,113.2612,23.105,广州市,市五中,细颗粒物(PM2.5),83,90,48,61,32,8,8,129,84,105,49,7,7,1.2,0.7
2025-11-16T2300,1348A,113.3478,23.0916,广州市,广东商学院,颗粒物(PM10),72,94,57,50,34,1,1,119,66,97,52,4,6,0.7,0.3
2025-11-16T2300,1349A,113.4332,23.1047,广州市,市八十六中,颗粒物(PM10),70,90,48,46,31,1,1,117,67,95,55,6,7,0.8,0.5
2025-11-16T2300,1350A,113.3505,22.9483,广州市,番禺中学,细颗粒物(PM2.5),89,109,71,66,41,35,35,155,103,61,45,6,9,1.0,0.6
2025-11-16T2300,1351A,113.2146,23.3916,广州市,花都师范,颗粒物(PM10),66,82,48,42,27,31,31,113,82,71,35,7,9,0.9,0.6
2025-11-16T2300,1352A,113.2597,23.1331,广州市,市监测站,细颗粒物(PM2.5),68,74,55,49,31,19,19,122,83,84,42,7,8,0.9,0.6
2025-11-16T2300,1353A,113.5618,23.312,广州市,九龙镇镇龙,颗粒物(PM10),68,85,57,44,32,2,2,95,50,57,32,5,6,0.8,0.6
2025-11-16T2300,1354A,113.2765,23.1544,广州市,麓湖,,46,45,38,32,27,13,13,114,72,90,44,6,6,1.0,0.5
2025-11-16T2300,1355A,113.443,23.3035,广州市,帽峰山森林公园,,,,,,,,,,,,,,,,
2025-11-16T2300,2846A,113.3221,23.1322,广州市,体育西,细颗粒物(PM2.5),70,74,51,51,35,3,3,115,77,94,44,6,8,1.1,0.7
2025-11-16T2300,3298A,113.5717,23.5491,广州市,从化街口,细颗粒物(PM2.5),70,77,49,51,33,0,0,98,54,62,33,6,8,0.9,0.7
2025-11-16T2300,3299A,113.3472,23.3692,广州市,白云竹料,细颗粒物(PM2.5),75,94,54,55,32,5,5,127,58,70,36,4,5,0.9,0.7
2025-11-16T2300,3300A,113.2981,23.237,广州市,白云嘉禾,颗粒物(PM10),54,57,54,32,30,57,57,127,83,48,42,8,8,0.7,0.7
2025-11-16T2300,3301A,113.4256,23.1716,广州市,黄埔科学城,颗粒物(PM10),52,54,42,30,26,40,40,123,82,38,26,4,6,0.6,0.5
2025-11-16T2300,3302A,113.3942,23.0483,广州市,番禺大学城,颗粒物(PM10),66,82,62,43,33,15,15,138,100,73,46,10,11,0.7,0.5
2025-11-16T2300,3303A,113.4922,22.8168,广州市,南沙黄阁,颗粒物(PM10),64,77,62,35,33,74,74,164,107,54,46,8,9,0.9,0.8
2025-11-16T2300,3304A,113.5342,22.7896,广州市,南沙街,颗粒物(PM10),51,51,56,33,31,112,112,175,143,23,33,7,8,0.5,0.5
2025-11-16T2300,3443A,113.2902,23.5544,广州市,花都梯面,,,34,31,21,21,,,108,66,47,23,3,8,,0.4
2025-11-16T2300,3445A,113.7858,23.7478,广州市,从化良口,,21,21,21,13,15,42,42,90,64,19,14,6,7,0.6,0.5
2025-11-16T2300,3446A,113.8051,23.2614,广州市,增城荔城,,36,36,34,24,26,49,49,100,65,19,18,8,8,0.6,0.6
2025-11-16T2300,2505A,109.568,23.1478,贵港市,德智高中,,,,,,,,,,,,,,,,
2025-11-16T2300,2506A,109.6047,23.0666,贵港市,江南子站,细颗粒物(PM2.5),94,100,96,70,58,53,53,122,102,39,35,9,9,1.0,0.9
2025-11-16T2300,2508A,109.5669,23.1065,贵港市,荷城子站,细颗粒物(PM2.5),62,66,59,44,36,66,66,113,92,25,22,7,8,0.8,0.7
2025-11-16T2300,3405A,109.5886,23.1172,贵港市,新世纪学校,细颗粒物(PM2.5),67,73,62,48,40,58,58,120,93,22,16,7,9,0.7,0.5
2025-11-16T2300,4260A,109.5933,23.0951,贵港市,中山路155-3号,细颗粒物(PM2.5),67,74,69,48,44,79,79,126,110,22,26,9,9,0.8,0.8
2025-11-16T2300,1439A,106.6899,26.5998,贵阳市,马鞍山,,35,31,40,24,25,26,26,81,61,20,14,4,5,0.4,0.5
2025-11-16T2300,1441A,106.6243,26.6266,贵阳市,鉴湖路,,36,36,48,9,18,58,58,79,70,16,22,14,9,0.4,0.5
2025-11-16T2300,1442A,106.7487,26.6343,贵阳市,燕子冲,,32,24,36,22,32,36,36,95,69,21,16,5,5,0.3,0.3
2025-11-16T2300,1443A,106.6555,26.4365,贵阳市,碧云窝,颗粒物(PM10),53,56,50,29,24,36,36,81,68,15,14,4,4,0.5,0.4
2025-11-16T2300,1445A,106.7109,26.6027,贵阳市,红边门,"颗粒物(PM10),细颗粒物(PM2.5)",58,66,50,41,33,8,8,79,58,55,25,25,10,1.5,0.8
2025-11-16T2300,1446A,106.7164,26.5699,贵阳市,新华路,颗粒物(PM10),57,63,55,27,29,6,6,90,63,56,34,13,32,0.8,0.5
2025-11-16T2300,1447A,106.674,26.5424,贵阳市,太慈桥,,34,34,37,14,23,22,22,84,68,29,18,4,4,0.1,0.2
2025-11-16T2300,1552A,106.805,26.3003,贵阳市,桐木岭,,31,31,34,19,20,83,83,87,81,3,5,14,16,0.5,0.6
2025-11-16T2300,4230A,106.6882,26.5695,贵阳市,花果园大街66号,,34,34,45,17,22,57,57,78,67,18,25,12,7,0.8,0.9
2025-11-16T2300,4231A,106.6873,26.5169,贵阳市,漓江路57号,,39,,46,27,34,43,43,83,60,14,20,13,15,0.5,0.6
2025-11-16T2300,1862A,110.4144,25.3167,桂林市,电子科大尧山校区,,,,,,,,,,,,,,,,
2025-11-16T2300,1864A,110.3089,25.2708,桂林市,龙隐路小学,"颗粒物(PM10),细颗粒物(PM2.5)",53,56,44,37,36,60,60,116,76,21,14,11,7,0.5,0.5
2025-11-16T2300,1865A,110.2869,25.2178,桂林市,八中,细颗粒物(PM2.5),79,80,52,58,39,24,24,118,62,41,19,8,8,0.5,0.2
2025-11-16T2300,3531A,110.296,25.1253,桂林市,旅游学院,细颗粒物(PM2.5),55,56,53,39,32,38,38,127,69,37,37,7,7,0.4,0.4
2025-11-16T2300,4222A,110.1835,25.2444,桂林市,环湖路276号,细颗粒物(PM2.5),62,68,52,44,37,23,23,121,71,30,22,17,19,0.5,0.4
2025-11-16T2300,4301A,110.2803,25.2773,桂林市,信义路13号,颗粒物(PM10),52,54,47,32,27,82,82,123,74,19,19,10,9,0.6,0.7
2025-11-16T2300,2674A,100.2561,34.4714,果洛藏族自治州,玛沁县大武镇,,30,30,38,9,7,90,90,87,87,1,6,11,16,0.2,0.4
2025-11-16T2300,1129A,126.5422,45.755,哈尔滨市,岭北,,,,,,,,,,,,,,,,
2025-11-16T2300,1130A,126.561,45.8167,哈尔滨市,松北商大,细颗粒物(PM2.5),64,74,86,46,47,22,22,54,41,16,19,8,7,0.6,0.6
2025-11-16T2300,1131A,126.979,45.5419,哈尔滨市,阿城会宁,颗粒物(PM10),56,62,85,19,51,31,31,57,38,14,19,7,7,0.5,0.6
2025-11-16T2300,1132A,126.599,45.7222,哈尔滨市,南岗学府路,颗粒物(PM10),63,76,101,40,44,16,16,49,32,19,17,10,11,0.5,0.5
2025-11-16T2300,1133A,126.689,45.7733,哈尔滨市,太平宏伟公园,颗粒物(PM10),57,63,91,36,44,34,34,63,,7,11,7,8,0.6,0.6
2025-11-16T2300,1134A,126.635,45.7667,哈尔滨市,道外承德广场,颗粒物(PM10),76,102,108,35,39,29,29,57,44,12,17,8,9,0.6,0.5
2025-11-16T2300,1135A,126.685,45.7319,哈尔滨市,香坊红旗大街,颗粒物(PM10),70,90,117,45,43,28,28,54,41,17,20,7,9,0.6,0.6
2025-11-16T2300,1136A,126.6411,45.7258,哈尔滨市,动力和平路,颗粒物(PM10),67,84,100,41,41,26,26,57,41,17,19,8,9,0.5,0.5
2025-11-16T2300,1137A,126.593,45.7478,哈尔滨市,道里建国路,颗粒物(PM10),66,82,87,43,49,27,27,54,43,15,18,10,13,0.5,0.3
2025-11-16T2300,1138A,126.615,45.61,哈尔滨市,平房东轻厂,颗粒物(PM10),56,62,83,22,46,24,24,48,31,17,24,7,9,0.4,0.5
2025-11-16T2300,1139A,126.595,45.9855,哈尔滨市,呼兰师专,细颗粒物(PM2.5),89,95,96,66,67,24,24,46,38,17,20,8,9,0.6,0.6
2025-11-16T2300,1140A,126.6206,45.6842,哈尔滨市,省农科院,颗粒物(PM10),60,70,109,32,48,25,25,51,38,22,29,6,8,0.5,0.6
2025-11-16T2300,2688A,93.5128,42.8172,哈密市,地区监测站,,16,15,35,3,8,49,49,57,55,6,11,3,2,0.2,0.2
2025-11-16T2300,2689A,93.4961,42.8328,哈密市,哈密师范学校,,16,11,31,6,7,49,49,55,53,7,12,4,4,0.2,0.2
2025-11-16T2300,2671A,100.9048,36.9639,海北藏族自治州,海晏县西海镇,,43,43,26,22,10,90,90,94,93,2,3,9,10,0.3,0.3
2025-11-16T2300,3867A,102.0738,36.5056,海东市,平安区公安北苑,颗粒物(PM10),62,74,82,19,28,67,67,83,77,9,11,12,15,0.5,0.6
2025-11-16T2300,1409A,110.576,19.9507,海口市,东寨港,,,,,,,,,,,,,,,,
2025-11-16T2300,1410A,110.3232,20.0574,海口市,海南大学,,42,42,43,18,19,112,112,116,114,5,6,6,6,0.3,0.4
2025-11-16T2300,1411A,110.283,20.0053,海口市,秀英海南医院,,40,40,45,16,17,101,101,110,107,7,6,7,7,0.2,0.2
2025-11-16T2300,1412A,110.338,19.9969,海口市,海南师范大学,,39,39,44,18,18,106,106,115,113,7,6,4,5,0.4,0.4
2025-11-16T2300,1413A,110.33,20.0356,海口市,龙华路环保局宿舍,,41,41,43,18,19,112,112,119,115,8,8,7,7,0.3,0.4
2025-11-16T2300,3539A,110.5111,19.9736,海口市,桂林洋子站,,33,31,42,13,20,104,104,110,108,5,5,7,7,0.3,0.3
2025-11-16T2300,2673A,100.6188,36.2866,海南藏族自治州,共和县恰卜恰镇,,36,36,39,8,9,100,100,100,99,1,9,8,10,0.5,0.4
2025-11-16T2300,2676A,97.3731,37.3753,海西蒙古族藏族自治州,德令哈市,,38,38,20,14,11,86,86,91,89,4,5,12,17,0.5,0.5
2025-11-16T2300,1048A,114.5302,36.6116,邯郸市,东污水处理厂,颗粒物(PM10),60,70,93,34,63,25,25,56,42,28,35,4,6,0.3,0.6
2025-11-16T2300,1049A,114.4918,36.5713,邯郸市,矿院,颗粒物(PM10),65,79,92,34,64,29,29,59,49,28,36,3,4,0.3,0.5
2025-11-16T2300,1050A,114.484,36.6133,邯郸市,丛台公园,颗粒物(PM10),53,55,93,24,58,39,39,63,55,24,34,3,8,0.3,0.7
2025-11-16T2300,3458A,114.7895,36.5593,邯郸市,香泉濮院小区,颗粒物(PM10),70,89,134,26,74,32,32,60,47,23,29,7,8,0,0.4
2025-11-16T2300,3579A,114.50634,36.77178,邯郸市,永年区实验高中,颗粒物(PM10),56,61,88,16,36,33,33,55,42,28,37,9,8,0.4,0.7
2025-11-16T2300,3580A,114.20016,36.44293,邯郸市,峰峰矿区临水派出所,颗粒物(PM10),57,64,73,19,46,49,49,65,57,19,28,3,12,0.5,0.7
2025-11-16T2300,2634A,106.9893,33.1842,汉中市,汉川机床厂子校,,,,,,,,,,,,,,,,
2025-11-16T2300,2635A,107.0154,33.0706,汉中市,市监测站,,25,25,55,11,35,50,50,33,33,11,23,3,5,0.4,0.7
2025-11-16T2300,2636A,107.0089,33.1138,汉中市,鑫源开发区,,25,25,54,16,33,52,52,28,28,13,29,4,6,0.3,0.5
2025-11-16T2300,2637A,107.007,33.0323,汉中市,南郑大河坎水厂,,24,24,54,15,36,54,54,35,35,12,23,2,3,0.4,0.8
2025-11-16T2300,1223A,120.2072,30.2111,杭州市,滨江,细颗粒物(PM2.5),102,152,88,76,42,14,14,112,74,107,53,8,8,0.7,0.5
2025-11-16T2300,1224A,120.0633,30.2747,杭州市,西溪,细颗粒物(PM2.5),75,76,68,55,39,2,2,115,56,49,37,7,8,0.9,0.8
2025-11-16T2300,1226A,120.3417,30.3150,杭州市,下沙,颗粒物(PM10),66,81,66,46,43,3,3,120,49,122,67,5,6,0.6,0.5
2025-11-16T2300,1227A,120.1269,30.2456,杭州市,卧龙桥,细颗粒物(PM2.5),83,85,56,61,35,11,11,118,54,36,27,9,10,0.6,0.4
2025-11-16T2300,1228A,120.1903,30.2692,杭州市,浙江农大,细颗粒物(PM2.5),124,149,70,94,45,2,2,116,54,94,57,9,8,1.1,0.9
2025-11-16T2300,1230A,120.1197,30.3119,杭州市,和睦小学,细颗粒物(PM2.5),87,116,76,64,49,71,71,137,96,61,45,9,9,0.9,0.9
2025-11-16T2300,1231A,120.3019,30.4183,杭州市,临平镇,细颗粒物(PM2.5),175,164,94,132,66,52,52,131,91,54,44,8,7,0.8,0.6
2025-11-16T2300,1232A,120.2753,30.1839,杭州市,城厢镇,细颗粒物(PM2.5),95,92,74,71,50,24,24,126,70,103,55,10,8,0.8,0.6
2025-11-16T2300,1233A,120.0883,30.1808,杭州市,云栖,细颗粒物(PM2.5),87,96,66,64,40,42,42,112,80,38,33,6,6,0.7,0.6
2025-11-16T2300,3557A,119.9464,30.0494,杭州市,镇二中,细颗粒物(PM2.5),124,136,82,94,57,17,17,115,64,59,45,5,6,1.1,0.9
2025-11-16T2300,3558A,119.7183,30.2367,杭州市,市府大楼,细颗粒物(PM2.5),132,190,86,100,51,22,22,140,93,53,32,9,10,1.3,0.9
2025-11-16T2300,3656A,120.1556,30.2864,杭州市,消防大队,细颗粒物(PM2.5),137,134,82,104,57,54,54,129,96,74,44,9,9,0.7,0.6
2025-11-16T2300,1270A,117.1959,31.7848,合肥市,明珠广场,"颗粒物(PM10),细颗粒物(PM2.5)",73,95,109,53,69,140,140,130,130,23,62,8,9,0.7,0.8
2025-11-16T2300,1271A,117.3072,31.8764,合肥市,三里街,细颗粒物(PM2.5),83,90,120,61,72,101,101,118,104,43,65,8,8,0.7,0.9
2025-11-16T2300,1272A,117.2588,31.8707,合肥市,琥珀山庄,细颗粒物(PM2.5),78,95,109,57,67,132,132,128,117,29,42,8,7,0.7,0.9
2025-11-16T2300,1273A,117.1604,31.9052,合肥市,董铺水库,,,,,,,,,,,,,,,,
2025-11-16T2300,1274A,117.25,31.8571,合肥市,长江中路,细颗粒物(PM2.5),88,100,117,65,79,130,130,148,138,24,36,8,8,0.7,0.8
2025-11-16T2300,1275A,117.266,31.9436,合肥市,庐阳区,细颗粒物(PM2.5),85,110,132,63,78,128,128,129,118,30,70,6,7,0.9,1
2025-11-16T2300,1276A,117.3453,31.8616,合肥市,瑶海区,细颗粒物(PM2.5),80,95,121,59,71,126,126,123,121,29,65,6,6,0.5,0.7
2025-11-16T2300,1277A,117.3027,31.7964,合肥市,包河区,细颗粒物(PM2.5),85,95,117,63,73,104,104,100,68,61,95,9,10,0.7,0.9
2025-11-16T2300,1278A,117.2776,31.7385,合肥市,滨湖新区,细颗粒物(PM2.5),85,97,121,63,82,127,127,139,128,28,39,6,7,0.7,0.8
2025-11-16T2300,1279A,117.1318,31.8403,合肥市,高新区,细颗粒物(PM2.5),85,92,107,63,68,132,132,131,125,30,46,6,7,0.8,0.9
2025-11-16T2300,3464A,117.3803,31.9147,合肥市,高教基地,细颗粒物(PM2.5),83,95,105,61,62,127,127,133,125,22,38,10,7,0.6,0.7
2025-11-16T2300,3614A,79.924,37.0877,和田地区,地区环保局,细颗粒物(PM2.5),172,224,139,130,57,20,20,92,64,71,27,19,12,2.1,0.8
2025-11-16T2300,3615A,79.9131,37.113,和田地区,市环保局,颗粒物(PM10),155,260,159,103,68,17,17,94,59,80,48,14,7,4.6,2.1
2025-11-16T2300,2516A,108.2011,24.715,河池市,东仁乐园,,,,,,,,,,,,,,,,
2025-11-16T2300,2517A,108.0497,24.6947,河池市,市环保站,细颗粒物(PM2.5),54,50,32,38,21,6,6,84,53,40,19,6,6,0.7,0.5
2025-11-16T2300,2518A,108.0983,24.6989,河池市,市疾控中心,颗粒物(PM10),53,56,40,34,25,2,2,80,41,45,26,5,5,0.7,0.7
2025-11-16T2300,1696A,114.6778,23.7569,河源市,源西,,,,,,,,,,,,,,,,
2025-11-16T2300,1697A,114.6944,23.7586,河源市,东埔,,39,39,34,26,24,26,26,102,63,44,22,5,7,0.8,0.7
2025-11-16T2300,1698A,114.6892,23.7233,河源市,老城,,38,38,37,20,24,27,27,97,64,30,18,6,6,0.7,0.7
2025-11-16T2300,1718A,115.4208,35.2464,菏泽市,气象局,颗粒物(PM10),59,67,184,19,109,45,45,78,56,19,29,3,5,0.3,0.6
2025-11-16T2300,3374A,115.5564,35.0891,菏泽市,定陶老年大学,颗粒物(PM10),60,70,170,12,99,37,37,73,48,26,36,4,5,0,0.3
2025-11-16T2300,4184A,115.4797,35.24401,菏泽市,永昌路1号,颗粒物(PM10),60,69,172,18,99,47,47,81,58,22,29,3,4,0.3,0.5
2025-11-16T2300,4193A,115.4715,35.2800,菏泽市,长城路999号,颗粒物(PM10),61,72,173,6,92,39,39,70,50,23,31,1,3,0.5,0.7
2025-11-16T2300,2514A,111.5264,24.4172,贺州市,环保小区,细颗粒物(PM2.5),84,76,51,62,37,21,21,117,68,29,18,3,4,1.0,0.8
2025-11-16T2300,2515A,111.5608,24.4078,贺州市,政协大楼,细颗粒物(PM2.5),70,73,48,51,30,5,5,108,56,52,22,6,7,0.8,0.7
2025-11-16T2300,3534A,111.4744,24.4553,贺州市,西湾,细颗粒物(PM2.5),67,51,50,48,32,29,29,106,,26,17,5,6,0.9,0.7
2025-11-16T2300,2385A,114.17,35.9019,鹤壁市,市监测站,颗粒物(PM10),56,61,87,22,48,40,40,59,47,21,25,4,4,0.2,0.5
2025-11-16T2300,2386A,114.2956,35.7511,鹤壁市,市交警支队,颗粒物(PM10),52,54,122,19,60,45,45,61,49,22,39,3,4,0.2,0.5
2025-11-16T2300,2387A,114.2878,35.7306,鹤壁市,迎宾馆,颗粒物(PM10),65,80,136,24,61,48,48,63,51,16,34,3,6,0.3,0.6
2025-11-16T2300,3474A,114.2617,35.6822,鹤壁市,大新区,颗粒物(PM10),52,54,107,7,50,51,51,67,54,20,39,4,6,0.2,0.5
2025-11-16T2300,3596A,114.1572,35.9603,鹤壁市,南山宾馆,颗粒物(PM10),65,80,101,34,46,47,47,68,53,17,21,2,5,0.3,0.5
2025-11-16T2300,2244A,130.2537,47.3416,鹤岗市,哈啤分公司,细颗粒物(PM2.5),70,61,39,51,30,0,0,29,2,28,17,14,14,0.9,0.7
2025-11-16T2300,2245A,130.2684,47.3086,鹤岗市,斯达机电,颗粒物(PM10),72,93,43,38,19,35,35,33,21,22,17,17,15,0.9,0.7
2025-11-16T2300,2246A,130.3114,47.3388,鹤岗市,东山纸板厂,颗粒物(PM10),65,80,61,39,20,8,8,32,10,25,19,15,14,1.6,0.9
2025-11-16T2300,2247A,130.1097,47.3382,鹤岗市,五号水库,,,,,,,,,,,,,,,,
2025-11-16T2300,2263A,127.4833,50.2524,黑河市,交通局,,23,12,18,7,16,73,73,64,64,4,8,5,4,0.3,0.4
2025-11-16T2300,2264A,127.5144,50.2341,黑河市,环保局,,49,49,27,20,16,54,54,53,53,18,9,16,5,0.5,0.4
2025-11-16T2300,2265A,127.5291,50.2472,黑河市,大黑河岛,,,,,,,,,,,,,,,,
2025-11-16T2300,1074A,115.6838,37.7541,衡水市,电机北厂,,,52,129,15,72,27,27,53,38,,23,5,6,0.2,0.4
2025-11-16T2300,1075A,115.6303,37.7316,衡水市,市监测站,,26,26,105,16,66,35,35,55,44,19,26,8,8,0.2,0.4
2025-11-16T2300,3188A,115.6683,37.7217,衡水市,市城管局,,33,33,125,18,67,27,27,50,38,23,27,4,6,0.4,0.4
2025-11-16T2300,3459A,115.5989,37.5491,衡水市,地表水厂,,44,44,122,9,71,33,33,57,44,17,26,5,6,0.3,0.5
2025-11-16T2300,2456A,112.5003,26.9167,衡阳市,原169医院,,,,,,,,,,,,,,,,
2025-11-16T2300,2457A,112.6194,26.9258,衡阳市,衡阳化工总厂,细颗粒物(PM2.5),69,74,65,50,46,61,61,135,105,30,31,11,12,1.0,0.9
2025-11-16T2300,2458A,112.6211,26.8956,衡阳市,珠晖区环保局,细颗粒物(PM2.5),77,77,67,56,49,39,39,126,88,60,40,12,13,1.3,1.2
2025-11-16T2300,2459A,112.6197,26.8733,衡阳市,市委党校,颗粒物(PM10),55,59,63,34,40,91,91,139,118,26,28,9,9,0.8,1
2025-11-16T2300,2460A,112.6006,26.8919,衡阳市,市监测站,细颗粒物(PM2.5),78,81,78,57,51,50,50,124,89,39,35,8,10,1.2,1.1
2025-11-16T2300,2461A,112.5664,26.9056,衡阳市,真空机电公司,细颗粒物(PM2.5),97,101,66,72,47,28,28,132,92,60,29,16,15,1.5,1.1
2025-11-16T2300,3399A,112.6703,26.882,衡阳市,师范学院,细颗粒物(PM2.5),62,68,66,44,41,92,92,138,103,20,29,11,12,1.0,1
2025-11-16T2300,2608A,103.3772,23.3993,红河哈尼族彝族自治州,污水处理厂,,35,35,35,22,30,72,72,83,74,8,11,5,11,0.3,0.3
2025-11-16T2300,2609A,103.3861,23.35,红河哈尼族彝族自治州,监测站,,43,36,35,30,24,74,74,87,76,5,8,8,9,0.1,0.1
2025-11-16T2300,3038A,103.3758,23.368,红河哈尼族彝族自治州,州图书馆,,24,23,26,14,16,76,76,81,76,5,9,5,9,0.4,0.4
2025-11-16T2300,1090A,111.6507,40.7517,呼和浩特市,呼市一监,,17,12,13,3,2,52,52,55,54,2,3,1,2,0.3,0.3
2025-11-16T2300,1091A,111.6572,40.8033,呼和浩特市,小召,,,,16,,3,,,53,,,8,,5,,0.4
2025-11-16T2300,1094A,111.7516,40.8369,呼和浩特市,如意水处理厂,,15,10,11,3,2,48,48,50,49,2,3,6,6,0.2,0.2
2025-11-16T2300,1095A,111.7276,40.8062,呼和浩特市,二十九中,,16,12,18,3,2,50,50,52,51,4,5,7,8,0.6,0.5
2025-11-16T2300,1096A,111.5512,40.7866,呼和浩特市,工大金川校区,,18,18,16,3,2,50,50,53,51,3,5,5,5,0.3,0.3
2025-11-16T2300,1097A,111.717,40.7612,呼和浩特市,化肥厂生活区,,16,16,16,3,2,48,48,53,50,6,6,2,2,0.2,0.2
2025-11-16T2300,3698A,111.5968,40.8178,呼和浩特市,红旗小学,,16,9,7,3,2,49,49,55,52,3,3,6,6,0.3,0.3
2025-11-16T2300,3699A,111.6518,40.8389,呼和浩特市,海东办,,15,12,10,3,2,47,47,54,52,8,5,3,3,0.0,0
2025-11-16T2300,3061A,119.7512,49.1577,呼伦贝尔市,国华电力东,,25,25,27,17,15,54,54,50,47,8,11,7,8,0.4,0.4
2025-11-16T2300,4279A,119.7569,49.2222,呼伦贝尔市,伊敏大街东7号,,26,22,24,18,21,49,49,50,47,7,5,5,5,0.3,0.3
2025-11-16T2300,1250A,120.0751,30.8669,湖州市,城西水厂,颗粒物(PM10),73,96,71,44,33,12,12,146,92,114,59,8,9,0.7,0.5
2025-11-16T2300,2873A,120.0830,30.8929,湖州市,仁皇山新区,细颗粒物(PM2.5),72,81,68,52,45,44,44,142,110,81,42,7,7,0.4,0.3
2025-11-16T2300,2907A,120.1844,30.8596,湖州市,吴兴区站,细颗粒物(PM2.5),95,120,98,71,52,104,104,148,130,64,43,8,9,0.8,0.7
2025-11-16T2300,3562A,120.4148,30.8538,湖州市,南浔区站,细颗粒物(PM2.5),129,160,101,98,53,100,100,152,131,40,44,5,6,0.8,0.6
2025-11-16T2300,1607A,120.9049,40.7211,葫芦岛市,龙港区,颗粒物(PM10),64,78,88,3,32,44,44,60,46,15,25,7,9,0.3,0.5
2025-11-16T2300,1608A,120.8392,40.7514,葫芦岛市,化工街,颗粒物(PM10),67,83,99,34,34,30,30,50,34,22,31,14,12,0.3,0.5
2025-11-16T2300,1609A,120.8341,40.7073,葫芦岛市,新区,颗粒物(PM10),59,67,67,3,29,36,36,56,43,19,27,6,8,0.5,0.6
2025-11-16T2300,1610A,120.8695,40.7677,葫芦岛市,东城区,颗粒物(PM10),62,74,76,3,29,42,42,59,43,13,20,5,11,0.5,0.7
2025-11-16T2300,2482A,109.5981,27.5721,怀化市,林科所,,,,,,,,,,,,,,,,
2025-11-16T2300,2483A,109.9453,27.5444,怀化市,河西地税局,细颗粒物(PM2.5),53,50,48,37,35,7,7,92,53,34,21,3,4,0.4,0.4
2025-11-16T2300,2484A,109.9781,27.5342,怀化市,市四医院,细颗粒物(PM2.5),80,89,62,59,41,12,12,107,70,36,24,11,11,0.8,0.6
2025-11-16T2300,2485A,109.9972,27.5578,怀化市,监测楼,细颗粒物(PM2.5),70,82,57,51,36,1,1,100,57,35,21,3,4,0.3,0.2
2025-11-16T2300,2486A,110.0394,27.583,怀化市,市委党校,细颗粒物(PM2.5),92,73,61,68,43,3,3,96,55,39,21,12,11,0.4,0.3
2025-11-16T2300,1210A,119.036,33.5981,淮安市,钵池山,,50,44,98,35,76,52,52,134,94,24,38,8,11,0.3,0.7
2025-11-16T2300,1211A,119.007,33.575,淮安市,北京南路,,48,48,101,25,77,51,51,132,93,11,31,9,13,0.5,0.8
2025-11-16T2300,1212A,118.989,33.6067,淮安市,市监测站,,44,44,103,7,74,57,57,142,100,18,34,7,10,0.5,1
2025-11-16T2300,1213A,119.135,33.5039,淮安市,楚州区监测站,,39,39,97,9,71,60,60,137,101,16,34,8,10,0.3,0.7
2025-11-16T2300,3426A,118.8755,33.2894,淮安市,新华书店,颗粒物(PM10),54,58,130,7,69,52,52,136,99,16,40,8,11,0.4,0.9
2025-11-16T2300,4206A,119.0288,33.6319,淮安市,承德北路606号,,49,41,125,34,78,50,50,129,88,16,36,7,11,0.4,0.7
2025-11-16T2300,2282A,116.8004,33.975,淮北市,监测站,颗粒物(PM10),83,115,160,16,102,54,54,146,91,25,35,13,13,0.3,0.8
2025-11-16T2300,2283A,116.8091,33.9007,淮北市,烈山区政府,颗粒物(PM10),80,109,153,25,115,45,45,150,92,25,41,8,13,0.4,0.8
2025-11-16T2300,3330A,116.8873,33.9836,淮北市,杜集区检察院,颗粒物(PM10),74,98,145,16,101,58,58,152,93,20,32,5,8,0.3,0.8
2025-11-16T2300,4017A,116.7923,33.9535,淮北市,市博物馆,颗粒物(PM10),76,101,155,22,110,52,52,147,92,24,31,18,14,0.3,0.7
2025-11-16T2300,2277A,116.8305,32.7727,淮南市,潘集区政府,颗粒物(PM10),135,219,148,102,97,54,54,141,102,25,27,7,8,0.9,0.8
2025-11-16T2300,2279A,116.8569,32.5951,淮南市,谢家集区政府,颗粒物(PM10),148,245,122,105,74,68,68,151,110,34,34,9,11,0.9,0.8
2025-11-16T2300,2280A,116.8281,32.633,淮南市,八公山区政府,细颗粒物(PM2.5),149,244,133,114,78,60,60,145,108,27,23,9,10,0.9,0.7
2025-11-16T2300,2281A,116.6325,32.6201,淮南市,焦岗湖风景区管理处,,,,,,,,,,,,,,,,
2025-11-16T2300,2894A,117.0566,32.6531,淮南市,经济技术开发区消防队,细颗粒物(PM2.5),139,226,135,106,80,66,66,136,103,31,37,10,11,0.7,0.6
2025-11-16T2300,3329A,117.0108,32.5893,淮南市,山南新区,颗粒物(PM10),158,265,134,110,88,77,77,155,135,35,32,5,7,0.7,0.7
2025-11-16T2300,4209A,117.0031,32.6445,淮南市,国庆中路369号,细颗粒物(PM2.5),176,208,118,133,80,66,66,142,112,31,30,20,20,1.0,0.9
2025-11-16T2300,2446A,114.9028,30.4742,黄冈市,职工中心,细颗粒物(PM2.5),94,86,73,70,56,77,77,157,126,32,27,7,7,0.7,0.6
2025-11-16T2300,2929A,114.8858,30.4519,黄冈市,红卫路,细颗粒物(PM2.5),115,,68,87,61,57,57,154,123,40,26,8,8,0.9,0.7
2025-11-16T2300,3398A,114.9136,30.4445,黄冈市,市林业局,细颗粒物(PM2.5),90,100,80,67,58,73,73,157,125,33,29,4,4,0.8,0.7
2025-11-16T2300,2672A,102.0199,35.5102,黄南藏族自治州,同仁县隆务镇,颗粒物(PM10),62,73,44,28,12,71,71,76,74,4,5,12,10,0.4,0.3
2025-11-16T2300,2295A,118.2903,29.6963,黄山市,延安路89号,细颗粒物(PM2.5),72,70,52,52,37,22,22,134,80,28,15,4,4,0.6,0.6
2025-11-16T2300,2297A,118.1371,30.2756,黄山市,黄山区政府5号楼,细颗粒物(PM2.5),102,85,56,76,40,27,27,98,57,7,9,5,5,0.7,0.6
2025-11-16T2300,4210A,118.3354,29.7203,黄山市,滨江东路7-2号,细颗粒物(PM2.5),90,75,60,67,48,36,36,105,65,19,18,4,4,0.7,0.5
2025-11-16T2300,2423A,115.0601,30.2313,黄石市,沈家营,细颗粒物(PM2.5),83,89,96,61,60,29,29,135,98,57,29,8,14,1.0,0.9
2025-11-16T2300,2426A,114.8988,30.2019,黄石市,铁山,颗粒物(PM10),57,63,75,35,50,63,63,128,99,30,31,6,11,0.7,0.6
2025-11-16T2300,2427A,115.0307,30.2092,黄石市,团城山,细颗粒物(PM2.5),70,87,95,51,62,80,80,132,113,31,32,8,11,0.9,0.9
2025-11-16T2300,3149A,115.0235,30.1578,黄石市,笔架山北路,颗粒物(PM10),68,85,122,48,65,73,73,138,119,23,21,9,13,0.8,0.9
2025-11-16T2300,4185A,115.0780,30.21118,黄石市,磁湖东路29号,细颗粒物(PM2.5),74,81,99,54,66,32,32,106,71,61,47,9,14,0.7,0.8
2025-11-16T2300,1392A,114.4183,23.0528,惠州市,河南岸金山湖子站,颗粒物(PM10),55,60,52,28,30,70,70,99,70,26,25,6,7,0.7,0.7
2025-11-16T2300,1393A,114.4053,23.0822,惠州市,下埔横江三路子站,颗粒物(PM10),63,75,57,36,29,85,85,110,79,23,17,8,8,0.9,0.9
2025-11-16T2300,1394A,114.4103,23.1142,惠州市,江北云山西路子站,颗粒物(PM10),67,83,51,40,26,81,81,117,94,34,21,9,7,0.6,0.5
2025-11-16T2300,1395A,114.4645,22.7833,惠州市,惠阳区承修路船湖子站,,45,45,54,17,25,97,97,143,127,16,21,5,6,0.5,0.5
2025-11-16T2300,1396A,114.5317,22.7422,惠州市,大亚湾管委会子站,颗粒物(PM10),52,53,51,17,23,91,91,146,121,17,18,11,12,0.4,0.5
2025-11-16T2300,3314A,114.4338,22.8134,惠州市,惠阳秋长,,41,41,52,17,28,102,102,145,132,15,21,9,10,0.5,0.6
2025-11-16T2300,3452A,114.6517,22.775,惠州市,大亚湾霞涌,,46,46,45,19,19,37,37,129,92,37,17,10,11,0.6,0.6
2025-11-16T2300,2240A,130.9762,45.3001,鸡西市,环保局,细颗粒物(PM2.5),54,56,64,38,48,50,50,44,44,7,27,6,8,0.7,1
2025-11-16T2300,2243A,130.9429,45.3039,鸡西市,第一中学,"颗粒物(PM10),细颗粒物(PM2.5)",69,88,55,50,44,51,51,49,49,7,23,5,7,0.6,0.7
2025-11-16T2300,3707A,131.0207,45.3073,鸡西市,欧美日汽修厂,颗粒物(PM10),73,96,81,52,56,49,49,43,43,8,27,7,14,0.7,1.1
2025-11-16T2300,3709A,130.9967,45.3106,鸡西市,市政设施管理处,细颗粒物(PM2.5),69,58,70,50,50,53,53,47,47,8,29,8,12,0.5,0.9
2025-11-16T2300,2367A,114.9754,27.0803,吉安市,红声器材厂,细颗粒物(PM2.5),70,79,63,51,38,23,23,145,95,50,27,6,8,0.7,0.6
2025-11-16T2300,2368A,114.9658,27.0999,吉安市,市森林工业局,细颗粒物(PM2.5),65,78,60,47,37,43,43,134,98,43,24,9,10,0.6,0.6
2025-11-16T2300,2369A,114.99,27.1312,吉安市,市环境监测站,细颗粒物(PM2.5),67,76,56,48,35,23,23,141,99,58,21,15,16,0.8,0.7
2025-11-16T2300,2370A,115.0093,27.0968,吉安市,青原区法院,细颗粒物(PM2.5),77,84,67,56,42,21,21,138,87,51,37,9,10,0.8,0.7
2025-11-16T2300,1772A,126.54,43.8622,吉林市,哈达湾,,41,41,62,13,45,35,35,51,40,6,12,7,8,0.3,0.4
2025-11-16T2300,1773A,126.5844,43.8358,吉林市,东局子,,46,46,43,6,29,40,40,43,,8,13,6,7,0.5,0.7
2025-11-16T2300,1774A,126.5052,43.8245,吉林市,电力学院,,26,26,51,14,46,36,36,52,43,6,13,6,8,0.4,0.5
2025-11-16T2300,1775A,126.6133,43.8972,吉林市,江北,,34,34,53,7,33,36,36,49,40,6,12,5,5,0.5,0.5
2025-11-16T2300,1776A,126.555,43.8306,吉林市,江南公园,,29,29,47,10,38,35,35,54,40,7,11,5,5,0.3,0.4
2025-11-16T2300,1778A,126.7061,43.7133,吉林市,丰满,,27,27,35,3,30,33,33,55,37,3,8,8,8,0.3,0.5
2025-11-16T2300,2868A,126.4739,43.953,吉林市,九站,,31,31,49,12,39,32,32,52,37,10,16,2,4,0.3,0.4
2025-11-16T2300,1299A,116.9862,36.6114,济南市,科干所,,36,36,108,3,42,44,44,118,50,13,19,6,9,0.3,0.5
2025-11-16T2300,1300A,116.9376,36.665,济南市,农科所,,49,49,120,3,43,35,35,96,44,23,31,7,9,0.6,0.7
2025-11-16T2300,1301A,117.1265,36.6734,济南市,开发区,,42,42,109,12,49,39,39,111,45,20,21,3,5,0.5,0.7
2025-11-16T2300,1303A,117.0624,36.6868,济南市,省种子仓库,颗粒物(PM10),53,56,122,3,51,47,47,112,49,17,25,6,8,0.3,0.6
2025-11-16T2300,1304A,116.9489,36.6447,济南市,机床二厂,颗粒物(PM10),51,51,129,3,58,34,34,100,43,23,25,7,10,0.1,0.4
2025-11-16T2300,1305A,117.0495,36.663,济南市,市监测站,,46,46,113,3,51,43,43,115,47,18,23,3,4,0.2,0.4
2025-11-16T2300,1306A,116.7675,36.5484,济南市,长清党校,,46,46,138,3,52,38,38,106,49,21,31,6,8,0.4,0.7
2025-11-16T2300,1616A,117.6795,36.229,济南市,技术学院,颗粒物(PM10),52,53,147,7,81,45,45,58,49,22,51,11,13,0.4,0.9
2025-11-16T2300,1961A,117.532,36.6868,济南市,东山小学,,46,46,124,7,59,43,43,110,47,18,24,8,11,0.4,0.6
2025-11-16T2300,3059A,117.7161,36.2049,济南市,泰兴公司,颗粒物(PM10),56,61,142,7,81,45,45,61,52,18,41,5,8,0.2,0.7
2025-11-16T2300,3064A,117.6867,36.2171,济南市,莱芜战役纪念馆,颗粒物(PM10),54,58,145,9,89,46,46,61,50,23,49,9,13,0.4,0.8
2025-11-16T2300,3494A,117.1673,36.9782,济南市,济阳区政府,,34,34,115,3,47,36,36,57,44,16,30,5,7,0.3,0.6
2025-11-16T2300,3495A,117.1171,36.63,济南市,锦屏中学,,46,46,101,3,43,42,42,114,50,20,20,1,4,0.4,0.6
2025-11-16T2300,3682A,116.9814,36.6819,济南市,济南四建,,44,44,112,7,48,30,30,104,43,24,21,6,7,0.4,0.7
2025-11-16T2300,1653A,116.6251,35.4302,济宁市,火炬城,颗粒物(PM10),52,53,161,14,130,48,48,88,57,14,27,8,8,0,0.5
2025-11-16T2300,1655A,116.5491,35.4042,济宁市,电化厂,颗粒物(PM10),64,77,204,17,115,43,43,79,54,22,37,6,8,0,0.6
2025-11-16T2300,3500A,116.5814,35.3707,济宁市,北湖一中,颗粒物(PM10),51,51,146,15,125,45,45,86,55,14,28,6,8,0.1,0.6
2025-11-16T2300,3501A,116.8249,35.5593,济宁市,服务中心,颗粒物(PM10),58,65,170,6,99,43,43,79,49,14,31,8,8,0,0.5
2025-11-16T2300,3678A,116.5907,35.4054,济宁市,市第七中学,颗粒物(PM10),60,69,153,12,114,49,49,93,59,23,38,11,13,0.4,0.8
2025-11-16T2300,2255A,130.2751,46.8028,佳木斯市,佳纺,细颗粒物(PM2.5),142,125,80,108,52,44,44,38,38,13,23,4,6,0.8,0.8
2025-11-16T2300,2256A,130.3995,46.8307,佳木斯市,发电厂,细颗粒物(PM2.5),119,101,58,90,38,,,32,32,15,16,8,8,0.6,0.5
2025-11-16T2300,2257A,130.3258,46.7975,佳木斯市,环保局,细颗粒物(PM2.5),115,99,68,87,49,38,38,34,34,15,22,3,5,0.5,0.5
2025-11-16T2300,2258A,130.3648,46.8032,佳木斯市,十一中,细颗粒物(PM2.5),112,98,63,84,46,45,45,40,40,14,17,6,7,0.6,0.6
2025-11-16T2300,2259A,130.3794,46.7588,佳木斯市,四丰,,,,,,,,,,,,,,,,
2025-11-16T2300,1252A,120.7436,30.778,嘉兴市,清河小学,颗粒物(PM10),67,84,59,43,32,27,27,132,86,71,40,9,9,0.4,0.4
2025-11-16T2300,1253A,120.726,30.7478,嘉兴市,嘉兴学院,颗粒物(PM10),61,72,58,42,29,35,35,141,102,58,35,6,7,0.6,0.4
2025-11-16T2300,2872A,120.7846,30.7525,嘉兴市,南湖区残联,细颗粒物(PM2.5),65,65,51,47,30,27,27,156,103,75,32,7,7,0.7,0.6
2025-11-16T2300,3407A,120.6916,30.7739,嘉兴市,秀洲住建,细颗粒物(PM2.5),65,73,61,47,39,0,0,143,65,90,50,6,7,0.6,0.4
2025-11-16T2300,1945A,98.2908,39.7711,嘉峪关市,气象局,,29,29,31,12,12,52,52,69,59,7,7,1,3,0.3,0.4
2025-11-16T2300,2884A,98.2672,39.7978,嘉峪关市,酒钢宾馆,,31,31,35,12,11,36,36,63,54,20,10,17,15,0.9,0.4
2025-11-16T2300,3248A,98.2643,39.7724,嘉峪关市,雄关区,,36,36,33,24,20,50,50,60,56,9,14,11,12,0.4,0.4
2025-11-16T2300,1383A,113.1064,22.6058,江门市,北街,细颗粒物(PM2.5),73,85,67,53,43,95,95,219,180,34,33,6,8,0.7,0.6
2025-11-16T2300,1384A,113.0731,22.5835,江门市,西区,颗粒物(PM10),82,113,74,44,39,64,64,203,152,60,39,6,7,0.7,0.6
2025-11-16T2300,1385A,113.0219,22.5311,江门市,圭峰西,细颗粒物(PM2.5),67,73,65,48,43,129,129,210,192,36,32,5,6,0.7,0.6
2025-11-16T2300,1386A,113.0828,22.5947,江门市,东湖,细颗粒物(PM2.5),87,84,69,64,40,67,67,192,150,50,33,8,9,0.8,0.6
2025-11-16T2300,3311A,113.1075,22.5647,江门市,江海富民,颗粒物(PM10),78,105,82,49,37,82,82,209,171,37,35,9,11,0.5,0.4
2025-11-16T2300,3449A,113.05,22.4667,江门市,新会银湖,细颗粒物(PM2.5),52,44,70,36,48,62,62,185,138,20,28,5,6,0.7,0.7
2025-11-16T2300,1830A,113.1992,35.2590,焦作市,影视城,,,,71,,30,,,78,,,27,,8,,0.6
2025-11-16T2300,3335A,113.3137,35.2641,焦作市,马村街道办,颗粒物(PM10),66,81,101,22,46,46,46,63,49,16,23,6,8,0.3,0.2
2025-11-16T2300,3336A,113.2465,35.2373,焦作市,焦作技师学院,颗粒物(PM10),64,78,105,19,42,31,31,66,50,20,32,6,8,0.5,0.9
2025-11-16T2300,3477A,113.1656,35.2539,焦作市,中站许衡医院,颗粒物(PM10),68,85,81,32,41,46,46,78,54,16,21,3,7,0.3,0.5
2025-11-16T2300,3981A,113.2449,35.1803,焦作市,原李万街道办,颗粒物(PM10),67,83,107,14,42,43,43,57,48,21,35,5,10,0.3,0.5
2025-11-16T2300,4264A,113.2340,35.2190,焦作市,新安路1731号,颗粒物(PM10),66,81,107,20,49,46,46,71,55,20,29,8,10,0.8,1
2025-11-16T2300,4295A,113.2722,35.2121,焦作市,人民路3066号,颗粒物(PM10),64,77,103,16,42,36,36,62,47,20,32,5,7,0.3,0.5
2025-11-16T2300,1708A,116.3701,23.5345,揭阳市,新兴,,50,50,57,32,33,72,72,134,97,25,23,9,10,0.7,0.7
2025-11-16T2300,1709A,116.3264,23.5443,揭阳市,西马,细颗粒物(PM2.5),57,54,62,40,34,61,61,139,102,26,24,7,7,0.8,0.8
2025-11-16T2300,1710A,116.3611,23.5626,揭阳市,东兴,,42,42,59,20,27,80,80,130,93,16,25,8,10,0.4,0.5
2025-11-16T2300,1711A,116.4151,23.5294,揭阳市,渔湖,,45,45,57,20,25,76,76,131,95,22,26,8,9,0.5,0.6
2025-11-16T2300,3320A,116.403,23.5699,揭阳市,曲溪,,47,47,56,25,29,66,66,141,102,30,20,8,7,0.6,0.6
2025-11-16T2300,1944A,102.1692,38.5167,金昌市,天庆家园,,19,19,54,3,14,55,55,62,60,4,9,3,4,0.5,0.6
2025-11-16T2300,4022A,102.1647,38.5371,金昌市,金川区人防中心,,27,27,53,3,16,50,50,65,60,3,7,3,4,0.6,0.7
2025-11-16T2300,4239A,102.1930,38.5319,金昌市,长春路96号,,16,15,48,3,14,50,50,65,60,3,7,3,10,0.5,0.6
2025-11-16T2300,1262A,119.647,29.077,金华市,十五中,细颗粒物(PM2.5),103,124,84,77,52,18,18,130,68,65,50,3,4,0.7,0.7
2025-11-16T2300,1263A,119.686,29.1029,金华市,监测站,细颗粒物(PM2.5),103,127,90,77,50,0,0,117,54,87,60,2,3,0.8,0.6
2025-11-16T2300,3659A,119.656,29.1131,金华市,气象局,细颗粒物(PM2.5),119,136,92,90,57,8,8,100,47,94,64,5,5,0.9,0.7
2025-11-16T2300,1767A,121.1115,41.0879,锦州市,南山,颗粒物(PM10),60,69,70,3,31,45,45,62,49,10,19,8,9,0.5,0.7
2025-11-16T2300,1768A,121.0604,40.8428,锦州市,开发区,颗粒物(PM10),76,101,90,10,43,34,34,54,28,21,33,13,21,0.5,0.7
2025-11-16T2300,1769A,121.1836,41.1119,锦州市,百股街道,颗粒物(PM10),64,78,78,7,37,43,43,58,48,8,18,8,11,0.5,0.7
2025-11-16T2300,1770A,121.1178,41.1222,锦州市,天安街道,颗粒物(PM10),58,65,71,9,34,42,42,62,48,9,14,9,10,0.6,0.7
2025-11-16T2300,1771A,121.1303,41.1386,锦州市,北湖公园,颗粒物(PM10),58,66,70,3,27,44,44,57,48,8,16,6,9,0.4,0.6
2025-11-16T2300,2160A,112.85,35.5051,晋城市,自来水公司,,49,49,92,7,37,56,56,66,56,17,37,8,11,0.5,1.1
2025-11-16T2300,2161A,112.8318,35.4936,晋城市,白云商贸,颗粒物(PM10),61,71,77,3,17,57,57,72,60,19,27,2,5,0.4,0.9
2025-11-16T2300,2162A,112.8508,35.4887,晋城市,市环保局,颗粒物(PM10),54,57,95,12,33,60,60,72,62,14,32,5,8,0.4,1
2025-11-16T2300,2163A,112.8676,35.4897,晋城市,技术学院,颗粒物(PM10),53,55,88,3,32,53,53,65,55,18,39,6,9,0.4,0.9
2025-11-16T2300,2165A,112.8453,35.546,晋城市,白马寺,颗粒物(PM10),52,53,66,19,38,62,62,80,68,13,20,9,15,0.0,0.5
2025-11-16T2300,3620A,112.8271,35.4828,晋城市,泽州一中,颗粒物(PM10),54,58,75,3,26,61,61,80,67,22,28,4,5,0.2,0.6
2025-11-16T2300,2173A,112.7249,37.7067,晋中市,南都小区,,46,46,65,24,23,43,43,69,52,15,24,7,7,0.3,0.4
2025-11-16T2300,2174A,112.6991,37.6982,晋中市,榆次区政府,,46,46,70,16,20,42,42,69,51,14,23,6,8,0.1,0.2
2025-11-16T2300,2865A,112.7195,37.6828,晋中市,榆次三中,颗粒物(PM10),51,51,70,7,13,42,42,71,52,13,20,7,7,0.2,0.3
2025-11-16T2300,4200A,112.7478,37.6954,晋中市,迎宾街26号,,46,46,68,7,16,46,46,73,56,17,21,8,8,0.2,0.3
2025-11-16T2300,2439A,112.2014,31.0481,荆门市,竹园小学,细颗粒物(PM2.5),98,113,141,73,83,63,63,111,86,26,35,1,1,0.4,0.6
2025-11-16T2300,2440A,112.1969,30.9891,荆门市,掇刀,细颗粒物(PM2.5),102,105,128,76,90,73,73,134,106,22,30,3,1,0.5,0.7
2025-11-16T2300,2441A,112.2213,31.0386,荆门市,石化一小,细颗粒物(PM2.5),90,122,164,67,97,56,56,111,84,25,39,1,7,0.7,1.2
2025-11-16T2300,3012A,112.1849,31.0362,荆门市,西山林语,细颗粒物(PM2.5),97,110,112,72,76,68,68,116,94,22,20,7,6,0.8,0.8
2025-11-16T2300,3547A,112.1632,31.0138,荆门市,龙泉中学南校,颗粒物(PM10),85,120,109,58,64,71,71,116,97,28,26,9,8,0.7,0.9
2025-11-16T2300,1844A,112.2494,30.3197,荆州市,市图书馆,细颗粒物(PM2.5),112,116,111,84,81,68,68,159,135,27,42,9,12,0.9,1.1
2025-11-16T2300,1845A,112.2008,30.3544,荆州市,市委党校,细颗粒物(PM2.5),115,119,121,87,80,58,58,140,118,29,42,8,11,0.8,0.9
2025-11-16T2300,3194A,112.2747,30.3122,荆州市,管委会,细颗粒物(PM2.5),114,107,121,86,85,65,65,140,114,22,41,10,12,0.8,0.9
2025-11-16T2300,4268A,112.1722,30.3366,荆州市,学苑路85号,细颗粒物(PM2.5),130,,103,99,104,62,62,165,135,34,40,10,12,0.7,0.8
2025-11-16T2300,2342A,117.3102,29.3867,景德镇市,王港中学,,,,,,,,,,,,,,,,
2025-11-16T2300,2343A,117.2117,29.2933,景德镇市,老干部活动中心,,50,50,43,34,32,37,37,115,75,20,13,4,7,0.8,0.7
2025-11-16T2300,2344A,117.1894,29.2789,景德镇市,兽医站,颗粒物(PM10),54,57,52,31,28,55,55,128,91,18,18,7,8,0.4,0.5
2025-11-16T2300,2346A,117.2461,29.2956,景德镇市,陶研所,,48,47,41,33,35,25,25,116,66,19,14,3,4,0.4,0.5
2025-11-16T2300,4289A,117.1542,29.2566,景德镇市,青少年活动中心,颗粒物(PM10),61,71,52,42,35,46,46,127,72,23,27,4,8,0.8,0.8
2025-11-16T2300,1803A,115.9872,29.6815,九江市,十里,细颗粒物(PM2.5),82,83,74,60,54,49,49,115,70,63,51,6,6,1.1,1.2
2025-11-16T2300,1804A,115.9584,29.7046,九江市,茅山头,细颗粒物(PM2.5),100,112,73,75,51,71,71,125,81,56,55,7,6,1.2,0.9
2025-11-16T2300,1805A,115.9877,29.7295,九江市,西园,细颗粒物(PM2.5),97,95,74,72,53,110,110,132,118,47,73,7,8,0.9,0.9
2025-11-16T2300,1808A,115.9114,29.6038,九江市,综合工业园,细颗粒物(PM2.5),70,60,51,51,39,30,30,100,60,100,56,4,4,0.6,0.5
2025-11-16T2300,1809A,116.0721,29.7535,九江市,石化总厂,细颗粒物(PM2.5),137,127,110,104,78,56,56,133,100,64,54,7,9,1.1,1.1
2025-11-16T2300,1810A,115.9773,29.5698,九江市,庐山气象台,,,,,,,,,,,,,,,,
2025-11-16T2300,3190A,116.0254,29.6994,九江市,外国语学校,细颗粒物(PM2.5),87,96,74,64,55,104,104,116,111,36,61,10,7,0.8,0.9
2025-11-16T2300,4253A,116.0102,29.6594,九江市,莲花大道8号,细颗粒物(PM2.5),70,58,63,51,43,116,116,98,93,17,26,9,8,0.6,0.6
2025-11-16T2300,4240A,98.4958,39.7339,酒泉市,玉门东路5号,,35,24,36,24,16,60,60,71,64,5,5,6,8,0.4,0.3
2025-11-16T2300,4241A,98.5099,39.7506,酒泉市,北大街108号,,28,,28,19,17,49,49,60,54,2,3,7,9,0.2,0.2
2025-11-16T2300,2698A,76.0072,39.4467,喀什地区,巡警大队,颗粒物(PM10),176,301,244,102,95,8,8,87,59,102,66,19,10,2.3,1.8
2025-11-16T2300,2699A,75.9755,39.4694,喀什地区,吾办,细颗粒物(PM2.5),178,243,219,134,96,8,8,81,58,102,65,20,13,2.6,1.9
2025-11-16T2300,4027A,75.9483,39.4689,喀什地区,老干局,颗粒物(PM10),307,425,233,190,86,8,8,82,57,118,65,19,8,6.0,2.6
2025-11-16T2300,1824A,114.3389,34.7781,开封市,肿瘤医院,颗粒物(PM10),62,74,150,15,73,56,56,78,58,17,43,10,11,0.3,0.7
2025-11-16T2300,1826A,114.2885,34.7965,开封市,世纪星幼儿园,颗粒物(PM10),64,78,141,11,84,53,53,76,58,21,41,8,10,0.5,0.8
2025-11-16T2300,3147A,114.3438,34.8106,开封市,龙亭公园,颗粒物(PM10),62,73,145,8,69,52,52,74,55,20,41,9,10,0.5,0.9
2025-11-16T2300,3210A,114.3644,34.7964,开封市,汴京公园,颗粒物(PM10),71,92,163,10,76,53,53,72,54,19,44,9,10,0.4,0.7
2025-11-16T2300,3473A,114.2485,34.8306,开封市,技师学院,颗粒物(PM10),52,54,132,17,85,46,46,73,54,20,36,8,10,0.6,1
2025-11-16T2300,3592A,114.4644,34.7556,开封市,祥符区生态环境局,颗粒物(PM10),57,64,149,10,70,48,48,78,53,25,52,6,11,0.5,0.8
2025-11-16T2300,1951A,84.895,45.6094,克拉玛依市,长征新村,,34,34,24,13,8,47,47,44,43,12,10,5,6,0.2,0.1
2025-11-16T2300,1952A,84.8988,45.5893,克拉玛依市,南林小区,,15,14,19,3,5,46,46,45,45,7,5,5,6,0.5,0.4
2025-11-16T2300,1954A,84.905,44.3396,克拉玛依市,独山子区,,28,28,38,11,15,37,37,43,41,16,13,7,6,0.4,0.2
2025-11-16T2300,1955A,85.6979,46.098,克拉玛依市,乌尔禾区商贸楼,,20,20,18,7,6,39,39,47,44,15,20,5,5,0.3,0.3
2025-11-16T2300,3612A,85.1045,45.6899,克拉玛依市,白碱滩区新站,,19,11,12,3,8,59,59,57,57,4,8,4,4,0.3,0.3
2025-11-16T2300,2697A,76.1454,39.7142,克孜勒苏柯尔克孜自治州,市人民政府,颗粒物(PM10),91,132,154,57,74,49,49,93,82,39,19,10,15,0,0.3
2025-11-16T2300,3665A,76.1658,39.7157,克孜勒苏柯尔克孜自治州,克州文化中心,颗粒物(PM10),111,172,137,63,60,41,41,95,82,52,18,9,13,0.7,0.5
2025-11-16T2300,1450A,102.8204,24.8886,昆明市,呈贡新区,,28,25,31,19,33,43,43,96,82,43,26,8,4,0.5,0.5
2025-11-16T2300,1451A,102.6251,24.9608,昆明市,西山森林公园,,,,,,,,,,,,,,,,
2025-11-16T2300,1452A,102.7252,25.0902,昆明市,龙泉镇,,32,32,30,17,18,26,26,85,66,27,18,3,4,0.6,0.5
2025-11-16T2300,1453A,102.7266,25.0375,昆明市,东风东路,,24,19,31,16,19,76,76,91,84,13,22,3,3,0.4,0.5
2025-11-16T2300,1454A,102.6742,25.0669,昆明市,金鼎山,,48,48,46,23,22,44,44,87,70,28,25,3,3,0.7,0.5
2025-11-16T2300,1455A,102.6644,25.0401,昆明市,碧鸡广场,,49,49,36,26,20,35,35,82,64,35,27,4,4,0.7,0.5
2025-11-16T2300,3179A,102.7494,25.0119,昆明市,官渡区博物馆,,23,18,32,16,21,66,66,88,80,15,25,4,4,0.4,0.4
2025-11-16T2300,3375A,102.8017,24.8336,昆明市,青年创业园,,26,26,28,15,18,26,26,93,74,38,19,7,3,0.9,0.8
2025-11-16T2300,3550A,102.7997,24.9786,昆明市,昆明学院,,39,39,48,22,26,48,48,94,84,32,24,2,2,0.8,0.7
2025-11-16T2300,3551A,102.5967,24.6736,昆明市,晋宁区生态环境分局,颗粒物(PM10),51,51,34,29,23,45,45,95,79,26,21,2,2,0.7,0.6
2025-11-16T2300,3552A,102.6678,24.9856,昆明市,云天化总部,,23,13,25,8,16,72,72,90,85,13,20,5,6,0.5,0.6
2025-11-16T2300,1456A,91.1319,29.6514,拉萨市,八廓街,,26,,14,11,9,81,81,104,98,15,14,5,6,0.3,0.2
2025-11-16T2300,1457A,91.1221,29.6747,拉萨市,市环保局,,30,26,20,21,10,48,48,98,90,30,18,6,7,1.1,0.6
2025-11-16T2300,1458A,91.0874,29.6475,拉萨市,区监测站,,24,11,12,9,8,76,76,104,100,27,24,3,5,0.3,0.4
2025-11-16T2300,1459A,91.1774,29.6541,拉萨市,西藏大学,,19,17,12,10,6,60,60,99,93,34,16,4,5,0.6,0.3
2025-11-16T2300,1460A,90.9798,29.6588,拉萨市,区辐射站,,26,14,22,8,12,83,83,90,89,17,23,4,5,0.4,0.4
2025-11-16T2300,1461A,91.0834,29.6292,拉萨市,拉萨火车站,,28,7,18,7,10,88,88,99,98,8,25,4,5,0.4,0.7
2025-11-16T2300,2520A,109.2203,23.7256,来宾市,来宾技工学校,颗粒物(PM10),67,83,55,42,36,13,13,109,66,44,18,10,12,0.7,0.7
2025-11-16T2300,3535A,109.1781,23.7297,来宾市,兴宾区政府,,47,47,38,32,26,56,56,114,95,11,8,10,11,0.5,0.5
2025-11-16T2300,4002A,109.2416,23.7461,来宾市,中南小学,细颗粒物(PM2.5),73,64,59,53,43,17,17,108,54,50,29,9,11,0.8,1
2025-11-16T2300,1477A,104.1373,35.9454,兰州市,榆中兰大校区,,,,,,,,,,,,,,,,
2025-11-16T2300,1479A,103.831,36.0464,兰州市,铁路设计院,,,,,,,,,,,,,,,,
2025-11-16T2300,3241A,103.7439,36.0842,兰州市,百合公园,颗粒物(PM10),53,55,72,19,28,61,61,71,69,3,19,8,10,0.3,0.5
2025-11-16T2300,3242A,103.9611,35.998,兰州市,和平,颗粒物(PM10),53,56,83,14,27,61,61,76,71,6,15,2,7,0.1,0.3
2025-11-16T2300,4236A,103.6293,36.0938,兰州市,庄浪东路808号,颗粒物(PM10),52,54,80,26,32,67,67,72,72,11,26,10,12,0.3,0.4
2025-11-16T2300,4237A,103.7251,36.1043,兰州市,安宁西路88号,颗粒物(PM10),54,57,84,32,32,67,67,81,78,7,20,6,7,0.3,0.4
2025-11-16T2300,4238A,103.8470,36.0676,兰州市,北滨河东路1号,颗粒物(PM10),51,52,79,31,30,67,67,84,78,10,29,13,11,0.4,0.4
2025-11-16T2300,3245A,103.6633,36.533,兰州新区,新区管委会,,42,42,64,22,26,62,62,80,71,6,9,18,10,0.3,0.3
2025-11-16T2300,3246A,103.6975,36.4789,兰州新区,舟曲中学,,32,32,65,6,15,68,68,85,75,2,8,3,9,0.3,0.2
2025-11-16T2300,1067A,116.6708,39.5111,廊坊市,药材公司,,,20,72,,20,46,46,58,50,9,23,1,3,0.3,0.4
2025-11-16T2300,1068A,116.7214,39.5589,廊坊市,开发区,,18,18,67,3,18,43,43,58,48,16,24,3,3,0.3,0.3
2025-11-16T2300,1070A,116.7244,39.5269,廊坊市,北华航天学院,,24,24,72,3,18,48,48,57,50,10,23,1,3,0.2,0.3
2025-11-16T2300,2919A,116.7022,39.5453,廊坊市,河北工业大学,,22,22,68,6,20,47,47,56,49,4,20,1,4,0.2,0.3
2025-11-16T2300,2535A,103.7723,29.5462,乐山市,花湖湾,,,,,,,,,,,,,,,,
2025-11-16T2300,2536A,103.7627,29.5844,乐山市,牛耳桥,细颗粒物(PM2.5),60,54,42,43,35,3,3,42,26,41,23,6,6,0.7,0.6
2025-11-16T2300,2537A,103.7508,29.6006,乐山市,市第三水厂,细颗粒物(PM2.5),64,63,51,46,33,4,4,46,33,39,22,6,6,0.8,0.7
2025-11-16T2300,2538A,103.7571,29.5664,乐山市,市监测站,细颗粒物(PM2.5),57,50,40,40,31,4,4,45,34,36,18,6,6,0.7,0.6
2025-11-16T2300,3361A,103.7311,29.5628,乐山市,理工大学,细颗粒物(PM2.5),53,46,36,37,30,11,11,50,36,30,17,7,7,0.7,0.6
2025-11-16T2300,2598A,100.2143,26.8576,丽江市,西南郊,,49,49,29,25,17,60,60,88,74,15,12,6,6,0.9,0.7
2025-11-16T2300,2599A,100.2497,26.8802,丽江市,丽江古城,,39,39,34,22,18,73,73,91,85,15,14,10,10,0.1,0
2025-11-16T2300,2600A,100.2203,26.8906,丽江市,市中心,,25,25,22,16,13,80,80,92,86,13,16,12,11,0.5,0.4
2025-11-16T2300,1267A,119.914,28.4514,丽水市,监测站大楼,细颗粒物(PM2.5),57,59,48,40,29,4,4,79,37,46,33,5,7,0.4,0.5
2025-11-16T2300,1268A,119.93,28.4586,丽水市,莲都小学,,34,34,48,16,22,30,30,81,52,31,33,4,5,0.3,0.4
2025-11-16T2300,1269A,119.879,28.4231,丽水市,余庄前,细颗粒物(PM2.5),58,57,63,41,30,1,1,80,34,18,20,3,3,0.4,0.4
2025-11-16T2300,1173A,119.176,34.5885,连云港市,市环境监测站,颗粒物(PM10),56,61,125,7,73,48,48,111,70,18,22,17,12,1.0,0.9
2025-11-16T2300,3000A,119.3581,34.6972,连云港市,德源药业,颗粒物(PM10),103,156,126,3,65,54,54,101,64,11,32,6,7,0.4,0.7
2025-11-16T2300,3007A,119.178,34.844,连云港市,新城一中,颗粒物(PM10),56,62,124,10,79,34,34,101,52,32,28,13,10,0.6,0.8
2025-11-16T2300,3008A,119.3608,34.7519,连云港市,胡沟管理处,,39,39,103,3,57,57,57,110,68,16,27,8,10,0.2,0.6
2025-11-16T2300,3009A,119.1478,34.5911,连云港市,矿山设计院,颗粒物(PM10),54,58,132,9,72,54,54,115,71,10,14,6,5,0.7,0.7
2025-11-16T2300,3434A,119.2413,34.6539,连云港市,工贸学校,,27,27,118,6,73,39,39,127,62,12,26,11,13,0.6,0.9
2025-11-16T2300,3664A,119.4172,34.7341,连云港市,连云街道,,18,17,105,3,59,56,56,124,67,23,34,7,9,0.1,0.6
2025-11-16T2300,2571A,102.3431,27.8099,凉山彝族自治州,青龙寺,,,,,,,,,,,,,,,,
2025-11-16T2300,2572A,102.2721,27.8415,凉山彝族自治州,邛海宾馆,,27,27,26,18,17,46,46,83,72,17,12,6,7,0.5,0.5
2025-11-16T2300,2573A,102.2625,27.898,凉山彝族自治州,西昌市政府,,34,34,34,20,17,54,54,68,65,10,14,8,10,0.7,0.7
2025-11-16T2300,2574A,102.2685,27.8851,凉山彝族自治州,凉山州政府,,33,33,30,16,19,45,45,73,67,12,11,9,10,0.7,0.6
2025-11-16T2300,4229A,102.2342,27.8859,凉山彝族自治州,凯乐南路30号,,35,35,32,20,18,47,47,78,74,16,23,7,10,0.6,0.9
2025-11-16T2300,2212A,123.2,41.1953,辽阳市,宏伟区,颗粒物(PM10),59,67,63,9,27,35,35,78,42,8,10,6,7,0.4,0.5
2025-11-16T2300,2213A,123.1683,41.2495,辽阳市,新华园,颗粒物(PM10),61,71,69,6,24,30,30,69,38,11,14,4,5,0.5,0.4
2025-11-16T2300,2214A,123.2354,41.2639,辽阳市,滨河路,颗粒物(PM10),65,79,74,11,26,34,34,71,40,6,10,3,2,0.3,0.4
2025-11-16T2300,2215A,123.149,41.2991,辽阳市,铁西工业园,颗粒物(PM10),61,72,72,20,33,26,26,67,38,16,13,6,8,0.3,0.4
2025-11-16T2300,2227A,125.1358,42.8845,辽源市,环保局,颗粒物(PM10),67,83,90,3,22,43,43,55,48,6,15,2,3,0.5,0.7
2025-11-16T2300,3239A,125.0764,42.9078,辽源市,银鹰制药,颗粒物(PM10),76,102,72,9,32,41,41,55,46,7,18,4,4,0.4,0.5
2025-11-16T2300,1625A,115.9848,36.4372,聊城市,区政府,,47,47,157,7,85,42,42,55,47,18,29,6,9,0.3,0.8
2025-11-16T2300,2878A,116.0072,36.4343,聊城市,聊大东校,颗粒物(PM10),56,61,159,6,85,50,50,61,54,12,29,5,9,0.4,0.9
2025-11-16T2300,3200A,115.9819,36.4978,聊城市,监控中心,,45,45,153,7,88,45,45,62,52,8,24,6,10,0.4,0.8
2025-11-16T2300,3513A,116.0445,36.4361,聊城市,九州社区,颗粒物(PM10),57,64,158,3,83,47,47,60,50,9,21,5,5,0.3,0.7
2025-11-16T2300,4018A,116.0567,36.4608,聊城市,星美广场,颗粒物(PM10),68,85,169,12,89,43,43,56,43,11,24,1,5,0.2,0.6
2025-11-16T2300,2632A,94.3681,29.6376,林芝市,林芝监测站,,25,8,10,6,6,77,77,81,80,2,5,2,3,0.2,0.3
2025-11-16T2300,2633A,94.3616,29.6616,林芝市,林芝人民医院,,20,14,14,3,5,64,64,74,72,4,7,1,2,0.4,0.4
2025-11-16T2300,2603A,100.0781,23.8982,临沧市,市环保局,细颗粒物(PM2.5),62,,21,44,28,29,29,66,45,7,6,5,5,0.6,0.5
2025-11-16T2300,2604A,100.0894,23.8822,临沧市,市气象局,,28,28,21,18,12,28,28,66,48,13,9,2,3,0.5,0.5
2025-11-16T2300,1733A,111.5531,36.0783,临汾市,临钢医院,,38,38,81,8,26,42,42,63,53,15,19,4,6,0.3,0.6
2025-11-16T2300,1734A,111.5028,36.0714,临汾市,技工学校,,29,29,78,7,34,47,47,63,54,15,27,5,7,0.2,0.4
2025-11-16T2300,1736A,111.5018,36.0855,临汾市,市委,,,32,86,,24,47,47,66,56,13,25,2,4,0.3,0.6
2025-11-16T2300,3018A,111.505,36.1014,临汾市,唐尧大酒店,,50,50,89,3,24,48,48,68,58,14,26,3,4,0.4,0.7
2025-11-16T2300,4244A,111.4879,36.0530,临汾市,启星学校,,26,26,79,3,35,48,48,70,59,19,32,5,5,0.3,0.6
2025-11-16T2300,4271A,103.2464,35.6123,临夏回族自治州,滨河东路1号,颗粒物(PM10),60,70,115,17,37,53,53,68,61,5,15,3,4,0.3,0.6
2025-11-16T2300,4310A,103.2093,35.5995,临夏回族自治州,新华街21号,颗粒物(PM10),62,74,104,20,35,54,54,76,67,13,13,8,11,0.3,0.6
2025-11-16T2300,1618A,118.3429,35.0532,临沂市,沂河小区,颗粒物(PM10),51,51,173,18,126,44,44,99,55,26,50,7,15,0.3,0.8
2025-11-16T2300,1619A,118.295,35.0583,临沂市,鲁南制药厂,颗粒物(PM10),53,56,195,13,121,47,47,98,58,24,62,8,17,0.1,0.7
2025-11-16T2300,1620A,118.2794,34.9976,临沂市,新光毛纺厂,颗粒物(PM10),62,73,180,21,122,38,38,98,50,26,63,7,18,0.3,0.9
2025-11-16T2300,1621A,118.3956,35.0888,临沂市,河东保险公司,,46,46,193,3,126,51,51,102,60,24,64,7,12,0.2,0.7
2025-11-16T2300,3370A,118.3564,35.0215,临沂市,十里堡居委,颗粒物(PM10),56,61,173,3,95,48,48,103,60,24,56,8,16,0.4,1
2025-11-16T2300,3496A,118.3604,35.1084,临沂市,南坊新区,,48,48,160,3,108,43,43,93,57,29,55,9,14,0.3,0.8
2025-11-16T2300,3860A,118.3920,35.0300,临沂市,皇山花园小区,颗粒物(PM10),59,68,182,12,97,53,53,108,60,15,42,8,17,0.2,0.9
2025-11-16T2300,1870A,109.4856,24.3895,柳州市,柳东小学,,48,43,43,33,31,78,78,128,120,23,11,9,15,0.5,0.4
2025-11-16T2300,1871A,109.4157,24.3277,柳州市,环保监测站,细颗粒物(PM2.5),58,61,60,41,22,9,9,117,76,62,25,9,12,1.1,0.8
2025-11-16T2300,1872A,109.389,24.341,柳州市,河西水厂,颗粒物(PM10),85,119,75,60,43,6,6,124,78,80,32,19,14,1.1,0.7
2025-11-16T2300,1873A,109.4311,24.2921,柳州市,市四中,细颗粒物(PM2.5),67,82,61,48,35,5,5,117,65,63,29,10,12,1.4,0.9
2025-11-16T2300,1874A,109.4006,24.3631,柳州市,市九中,细颗粒物(PM2.5),88,119,66,65,40,12,12,120,74,64,29,6,8,1.0,0.7
2025-11-16T2300,1875A,109.4958,24.3134,柳州市,古亭山,,32,32,41,21,26,16,16,118,68,57,27,8,10,0.6,0.5
2025-11-16T2300,3402A,109.5422,24.3996,柳州市,市二中,颗粒物(PM10),62,73,48,40,29,13,13,130,87,46,22,8,10,0.7,0.5
2025-11-16T2300,2307A,116.5079,31.737,六安市,监测大楼,细颗粒物(PM2.5),108,104,77,81,59,118,118,130,125,26,28,6,5,0.6,0.6
2025-11-16T2300,2308A,116.4738,31.7643,六安市,皖西学院,细颗粒物(PM2.5),127,129,91,96,62,101,101,128,113,32,26,5,4,0.5,0.5
2025-11-16T2300,2309A,116.4996,31.7905,六安市,朝阳厂,细颗粒物(PM2.5),108,110,84,81,61,104,104,124,112,33,30,6,5,0.6,0.6
2025-11-16T2300,2310A,116.5567,31.7886,六安市,开发区,细颗粒物(PM2.5),122,147,115,92,77,85,85,120,93,41,49,4,3,0.6,0.7
2025-11-16T2300,2576A,104.8,26.5892,六盘水市,窑上,,,,38,29,28,17,17,85,53,3,5,5,5,0.4,0.4
2025-11-16T2300,2577A,104.83,26.5917,六盘水市,黄土坡,,38,36,36,26,24,70,70,80,77,9,12,2,4,0.4,0.5
2025-11-16T2300,2578A,104.89,26.5939,六盘水市,水钢,,38,37,41,26,28,70,70,88,84,6,7,6,6,0.3,0.3
2025-11-16T2300,2579A,104.8475,26.5894,六盘水市,民中,,36,36,31,24,22,68,68,83,79,10,9,3,4,0.5,0.4
2025-11-16T2300,2580A,104.9544,26.5506,六盘水市,双水,,31,31,39,18,23,68,68,84,80,7,8,3,3,0.3,0.3
2025-11-16T2300,2335A,117.0189,25.1181,龙岩市,龙岩师专,,,,,,,,,,,,,,,,
2025-11-16T2300,2336A,117.0217,25.1033,龙岩市,龙岩市监测站,,38,38,33,26,21,30,30,109,68,34,18,30,16,0.6,0.5
2025-11-16T2300,2337A,117.0258,25.0661,龙岩市,闽西职业技术学院,,47,47,45,20,20,24,24,111,60,37,23,13,12,0.4,0.5
2025-11-16T2300,2338A,117.0196,25.0306,龙岩市,龙岩学院,,38,35,35,26,25,37,37,109,68,19,16,8,9,0.5,0.5
2025-11-16T2300,2665A,105.0822,33.3261,陇南市,汉王镇固水子,,,,,,,,,,,,,,,,
2025-11-16T2300,2885A,104.9339,33.3826,陇南市,滨江中学,颗粒物(PM10),65,80,54,33,25,63,63,40,40,7,19,7,7,0.6,0.7
2025-11-16T2300,3247A,104.955,33.371,陇南市,市总工会,颗粒物(PM10),65,79,49,25,25,67,67,46,46,7,18,8,7,0.5,0.7
2025-11-16T2300,2487A,111.9589,27.8901,娄底市,电视发射台,,,,,,,,,,,,,,,,
2025-11-16T2300,2488A,111.9975,27.725,娄底市,市监测站,细颗粒物(PM2.5),67,71,79,48,52,129,129,134,117,12,31,12,24,0.8,1.3
2025-11-16T2300,2489A,112.0194,27.7314,娄底市,市委党校,细颗粒物(PM2.5),89,96,77,66,50,91,91,115,97,25,26,5,10,0.8,1.1
2025-11-16T2300,2490A,111.9561,27.7569,娄底市,涟钢,细颗粒物(PM2.5),72,76,74,52,48,92,92,112,99,14,21,7,16,1.0,1.3
2025-11-16T2300,2491A,111.9892,27.7044,娄底市,市政府,细颗粒物(PM2.5),144,144,75,110,60,27,27,121,71,34,22,10,12,1.2,1.1
2025-11-16T2300,1893A,105.4324,28.9634,泸州市,九狮山,,,,,,,,,,,,,,,,
2025-11-16T2300,1894A,105.4427,28.9063,泸州市,小市上码头,颗粒物(PM10),53,55,50,34,37,12,12,34,30,21,22,8,9,0.7,0.6
2025-11-16T2300,1895A,105.4241,28.8573,泸州市,兰田宪桥,"颗粒物(PM10),细颗粒物(PM2.5)",52,54,53,36,35,16,16,32,28,18,23,7,8,0.6,0.7
2025-11-16T2300,1896A,105.4379,28.8833,泸州市,市环监站,颗粒物(PM10),52,53,49,35,34,11,11,30,26,24,26,6,8,0.7,0.6
2025-11-16T2300,4272A,105.3689,28.7783,泸州市,纳溪中医医院,,49,39,48,34,35,27,27,32,32,17,26,5,7,0.7,0.7
2025-11-16T2300,2183A,111.1406,37.5211,吕梁市,环保局,,33,33,72,10,19,41,41,59,46,7,22,2,3,0.3,0.4
2025-11-16T2300,2185A,111.1297,37.5136,吕梁市,自来水公司,,29,29,76,8,16,42,42,60,46,12,23,3,2,0.3,0.4
2025-11-16T2300,2867A,111.1283,37.51,吕梁市,马茂庄小学,,28,28,91,13,18,43,43,60,46,9,26,3,3,0.3,0.5
2025-11-16T2300,1812A,112.3931,34.6516,洛阳市,市委党校,颗粒物(PM10),53,56,91,22,54,49,49,80,61,19,43,6,9,0.4,0.8
2025-11-16T2300,1815A,112.494,34.6886,洛阳市,河南林校,颗粒物(PM10),52,54,98,28,51,57,57,82,62,15,41,5,9,0.3,0.6
2025-11-16T2300,1816A,112.3844,34.623,洛阳市,开发区管委会,,49,49,88,19,50,52,52,86,64,17,33,2,8,0.4,0.6
2025-11-16T2300,1817A,112.4267,34.6258,洛阳市,市委新办公区,颗粒物(PM10),52,53,92,19,42,56,56,84,62,17,34,6,9,0.5,0.7
2025-11-16T2300,3340A,112.6005,34.6326,洛阳市,伊滨,颗粒物(PM10),58,66,108,14,49,55,55,86,65,15,40,6,10,0.2,0.5
2025-11-16T2300,3341A,112.4951,34.6332,洛阳市,中移产业园,颗粒物(PM10),54,57,98,16,49,53,53,86,62,17,40,4,9,0.2,0.4
2025-11-16T2300,3593A,112.5736,34.8993,洛阳市,吉利监测站,,39,39,79,9,36,57,57,82,62,14,30,5,8,0.3,0.5
2025-11-16T2300,3635A,112.3677,34.662,洛阳市,河科大西苑校区,颗粒物(PM10),51,52,93,20,49,51,51,84,64,18,40,6,11,0.3,0.7
2025-11-16T2300,3636A,112.4388,34.6781,洛阳市,英才小学,颗粒物(PM10),55,59,102,27,60,52,52,78,57,17,47,5,11,0.2,0.7
2025-11-16T2300,4214A,112.4600,34.6949,洛阳市,春都路1号院,,34,34,106,17,42,52,52,75,56,14,41,6,11,0.3,0.7
2025-11-16T2300,2399A,114.051,33.5699,漯河市,三五一五工厂,颗粒物(PM10),87,124,199,33,115,44,44,91,74,20,44,7,9,0.2,0.7
2025-11-16T2300,2400A,114.0055,33.5698,漯河市,漯河大学,颗粒物(PM10),99,147,175,17,107,47,47,95,77,20,43,7,8,0.4,0.7
2025-11-16T2300,2401A,114.0138,33.5828,漯河市,市水利局,颗粒物(PM10),87,124,176,22,104,46,46,91,74,20,41,8,9,0.1,0.7
2025-11-16T2300,2402A,114.0261,33.5698,漯河市,市广电局,颗粒物(PM10),91,132,188,12,103,48,48,95,78,16,45,6,7,0.3,0.7
2025-11-16T2300,3478A,113.9749,33.5664,漯河市,市图书馆,颗粒物(PM10),88,126,199,21,114,44,44,85,70,19,38,5,7,0.4,0.7
2025-11-16T2300,4250A,114.0892,33.5882,漯河市,韶山路11号,颗粒物(PM10),84,118,196,38,114,40,40,85,69,23,48,8,10,0.3,0.6
2025-11-16T2300,1798A,118.5092,31.6837,马鞍山市,湖东路四小,细颗粒物(PM2.5),77,80,80,56,49,123,123,124,121,27,42,7,16,0.7,1.2
2025-11-16T2300,1799A,118.5024,31.6449,马鞍山市,开发区,细颗粒物(PM2.5),67,78,87,48,47,125,125,130,129,25,42,6,14,0.7,1.1
2025-11-16T2300,1802A,118.6245,31.7241,马鞍山市,濮塘,,,,,,,,,,,,,,,,
2025-11-16T2300,3633A,118.4918,31.6809,马鞍山市,雨山,细颗粒物(PM2.5),62,70,79,44,43,131,131,128,126,23,39,8,17,0.7,1.2
2025-11-16T2300,4191A,118.5274,31.72227,马鞍山市,慈湖高新区,细颗粒物(PM2.5),77,100,92,56,51,128,128,135,129,23,40,6,13,0.6,1
2025-11-16T2300,1686A,111.0286,21.4688,茂名市,电白南海,颗粒物(PM10),53,56,73,24,33,120,120,140,132,12,18,8,12,0.6,0.7
2025-11-16T2300,1687A,110.9294,21.6533,茂名市,茂石化七小,颗粒物(PM10),52,53,58,22,30,112,112,139,127,15,15,9,13,0.6,0.7
2025-11-16T2300,1688A,110.9107,21.6687,茂名市,健康路,颗粒物(PM10),51,51,53,14,26,123,123,147,137,15,16,8,14,0.6,0.8
2025-11-16T2300,1689A,110.8592,21.6828,茂名市,高岭,颗粒物(PM10),56,61,70,14,28,108,108,138,125,21,22,7,15,0.7,0.7
2025-11-16T2300,3450A,111.01,21.5165,茂名市,电白水东,颗粒物(PM10),51,51,62,19,30,111,111,134,122,12,17,8,11,0.6,0.6
2025-11-16T2300,2539A,104.0308,30.0478,眉山市,黑龙滩水库,,,,,,,,,,,,,,,,
2025-11-16T2300,2540A,103.8416,30.0874,眉山市,气象局,"颗粒物(PM10),细颗粒物(PM2.5)",58,65,57,41,36,7,7,38,23,41,27,9,9,0.6,0.6
2025-11-16T2300,3137A,103.8578,30.0744,眉山市,市委党校,颗粒物(PM10),54,58,43,34,28,5,5,39,27,37,21,6,6,0.7,0.7
2025-11-16T2300,3148A,103.8291,30.0564,眉山市,区人社局,颗粒物(PM10),56,62,56,39,33,4,4,39,24,39,25,9,8,0.9,0.9
2025-11-16T2300,1690A,116.1231,24.3284,梅州市,梅江月梅,,50,50,40,19,23,32,32,111,65,33,25,6,6,0.7,0.7
2025-11-16T2300,1691A,116.0797,24.2719,梅州市,梅县新城,,50,50,49,31,28,18,18,117,53,37,28,7,8,0.8,0.8
2025-11-16T2300,1692A,116.1248,24.2654,梅州市,环境监控中心,颗粒物(PM10),57,64,47,38,29,5,5,114,56,62,29,22,19,0.8,0.5
2025-11-16T2300,3315A,116.1233,24.2991,梅州市,梅龙,,48,44,40,33,24,42,42,106,69,22,16,8,9,1.0,0.8
2025-11-16T2300,1878A,104.7778,31.4741,绵阳市,富乐山,,30,29,25,21,19,47,47,34,31,8,13,9,9,0.6,0.6
2025-11-16T2300,1880A,104.6697,31.4668,绵阳市,高新区自来水公司,,32,26,29,22,21,36,36,28,24,10,18,9,8,0.5,0.6
2025-11-16T2300,1881A,104.7287,31.5075,绵阳市,三水厂,,39,38,29,27,23,37,37,31,24,10,18,8,8,0.6,0.7
2025-11-16T2300,3491A,104.69,31.5322,绵阳市,西科大附属小学,,31,31,33,19,20,30,30,30,24,17,21,5,6,0.6,0.6
2025-11-16T2300,3492A,104.5648,31.5343,绵阳市,安州区旅游局,,25,24,24,17,22,33,33,35,26,9,12,11,11,0.6,0.6
2025-11-16T2300,4226A,104.7651,31.4531,绵阳市,绵阳市气象局,,18,18,25,9,16,46,46,31,30,7,16,9,9,0.5,0.5
2025-11-16T2300,1784A,129.61,44.561,牡丹江市,环保大楼,颗粒物(PM10),85,120,105,52,81,43,43,42,42,13,34,5,8,0.4,0.8
2025-11-16T2300,1785A,129.6115,44.5782,牡丹江市,文化广场,颗粒物(PM10),80,109,106,56,82,42,42,42,42,13,37,7,10,0.4,0.9
2025-11-16T2300,1786A,129.5904,44.5963,牡丹江市,第一医院,颗粒物(PM10),79,107,107,41,91,42,42,44,44,8,31,3,6,0.4,0.7
2025-11-16T2300,1787A,129.6364,44.6075,牡丹江市,机车工厂,颗粒物(PM10),67,84,107,42,72,38,38,40,40,16,34,5,13,0.4,0.7
2025-11-16T2300,1788A,129.6386,44.5462,牡丹江市,第一中学,颗粒物(PM10),77,104,102,48,81,38,38,37,37,11,30,3,5,0.5,0.8
2025-11-16T2300,2531A,105.0703,29.61,内江市,市监测站,,42,42,36,29,26,39,39,53,47,14,12,3,3,0.7,0.6
2025-11-16T2300,2532A,105.0717,29.5947,内江市,东兴区政府,,32,31,29,22,22,25,25,39,36,19,17,7,7,0.5,0.4
2025-11-16T2300,2533A,105.0653,29.5817,内江市,内江二中,,49,49,39,33,30,23,23,38,34,22,20,4,4,0.7,0.7
2025-11-16T2300,2534A,105.0406,29.5822,内江市,内江日报社,,43,37,35,30,29,31,31,37,34,18,22,5,4,0.5,0.5
2025-11-16T2300,2628A,92.0657,31.4846,那曲市,那曲监测站,细颗粒物(PM2.5),72,74,45,52,28,38,38,95,82,47,25,12,10,2.4,1.3
2025-11-16T2300,4243A,92.0515,31.4787,那曲市,那曲市委宣传部,,38,38,22,10,14,66,66,89,84,5,16,5,8,0.4,0.9
2025-11-16T2300,1290A,115.8931,28.6843,南昌市,省外办,细颗粒物(PM2.5),92,75,70,68,52,87,87,140,104,33,43,10,8,1.2,1.3
2025-11-16T2300,1291A,115.8886,28.7003,南昌市,省林业公司,细颗粒物(PM2.5),83,83,74,61,47,83,83,146,109,42,49,7,6,1.0,1
2025-11-16T2300,1292A,115.8126,28.7442,南昌市,林科所,细颗粒物(PM2.5),52,51,50,36,32,118,118,150,124,17,29,7,6,0.8,0.8
2025-11-16T2300,1294A,115.8518,28.687,南昌市,建工学校,细颗粒物(PM2.5),77,72,79,56,47,115,115,146,126,28,54,14,11,0.7,0.7
2025-11-16T2300,1295A,115.8921,28.6424,南昌市,象湖,细颗粒物(PM2.5),83,71,78,61,49,104,104,158,128,29,47,13,11,0.9,1
2025-11-16T2300,1296A,115.7423,28.7996,南昌市,武术学校,,,,,,,,,,,,,,,,
2025-11-16T2300,3046A,115.9084,28.6062,南昌市,机电学校,细颗粒物(PM2.5),94,98,94,70,59,90,90,164,124,37,49,11,10,0.7,0.8
2025-11-16T2300,3690A,115.9721,28.7031,南昌市,外国语学校,细颗粒物(PM2.5),97,95,76,72,53,86,86,154,122,54,47,14,13,0.8,0.8
2025-11-16T2300,4192A,115.9316,28.68677,南昌市,南京东路235号,细颗粒物(PM2.5),95,104,81,71,53,91,91,168,124,41,46,11,9,0.9,0.9
2025-11-16T2300,1905A,106.056,30.8064,南充市,西山风景区,,,,,,,,,,,,,,,,
2025-11-16T2300,1906A,106.0789,30.8023,南充市,南充市委,,40,38,40,28,31,9,9,20,15,21,19,3,4,0.5,0.5
2025-11-16T2300,1907A,106.1031,30.8217,南充市,南充炼油厂,,45,37,46,31,31,15,15,21,18,11,10,5,6,0.6,0.6
2025-11-16T2300,4227A,106.1083,30.7884,南充市,梨树横街98号,,37,37,38,18,25,16,16,22,20,14,13,4,4,0.4,0.4
2025-11-16T2300,4304A,106.1172,30.843,南充市,清泉寺北路188号,,38,38,34,19,20,17,17,22,20,10,11,7,7,0.5,0.5
2025-11-16T2300,4305A,106.067,30.7616,南充市,同庆路1号,,45,,32,31,26,13,13,19,15,15,16,6,6,0.5,0.5
2025-11-16T2300,1151A,118.8086,32.1065,南京市,迈皋桥,细颗粒物(PM2.5),92,103,65,68,42,90,90,164,128,28,28,4,5,0.6,0.6
2025-11-16T2300,1152A,118.7538,32.0551,南京市,草场门,细颗粒物(PM2.5),83,105,81,61,45,89,89,142,131,29,42,4,7,0.7,0.8
2025-11-16T2300,1153A,118.7794,32.0745,南京市,山西路,细颗粒物(PM2.5),100,132,84,75,44,97,97,161,142,27,32,5,5,0.6,0.7
2025-11-16T2300,1154A,118.7752,32.0023,南京市,中华门,颗粒物(PM10),81,112,82,53,50,102,102,153,133,21,29,4,4,0.5,0.6
2025-11-16T2300,1155A,118.8109,32.0309,南京市,瑞金路,细颗粒物(PM2.5),79,95,78,58,47,100,100,162,145,14,28,4,4,0.7,0.9
2025-11-16T2300,1156A,118.7997,32.0754,南京市,玄武湖,细颗粒物(PM2.5),99,89,65,74,45,86,86,152,133,30,29,4,4,0.7,0.7
2025-11-16T2300,1157A,118.6414,32.0931,南京市,浦口,细颗粒物(PM2.5),149,122,80,114,54,95,95,132,122,28,30,11,10,1.1,0.6
2025-11-16T2300,1158A,118.7356,31.9996,南京市,奥体中心,细颗粒物(PM2.5),85,109,85,63,50,105,105,151,141,30,39,6,8,0.5,0.6
2025-11-16T2300,1159A,118.9125,32.1028,南京市,仙林大学城,细颗粒物(PM2.5),85,92,75,63,45,87,87,132,119,24,29,5,7,0.7,0.7
2025-11-16T2300,3422A,118.8436,31.9198,南京市,江宁彩虹桥,颗粒物(PM10),64,78,65,44,43,119,119,161,146,27,31,4,5,0.6,0.7
2025-11-16T2300,3427A,118.8554,32.3578,南京市,六合雄州,细颗粒物(PM2.5),149,158,101,114,62,74,74,154,121,19,35,7,8,0.9,0.7
2025-11-16T2300,4249A,118.8708,31.3402,南京市,汶溪路181号,细颗粒物(PM2.5),63,68,61,45,46,107,107,144,122,30,29,5,6,0.6,0.6
2025-11-16T2300,4312A,119.019,31.6512,南京市,中山西路1号,颗粒物(PM10),62,73,63,43,35,94,94,132,113,23,26,4,4,0.7,0.7
2025-11-16T2300,1401A,108.3103,22.7881,南宁市,二十一中,细颗粒物(PM2.5),88,107,76,65,46,1,1,89,58,91,49,6,11,1.5,1
2025-11-16T2300,1402A,108.3141,22.8528,南宁市,北湖,细颗粒物(PM2.5),109,130,82,82,51,12,12,100,74,71,47,11,16,1.2,0.9
2025-11-16T2300,1403A,108.3206,22.8225,南宁市,市监测站,细颗粒物(PM2.5),102,105,94,76,52,14,14,82,60,77,53,11,14,1.1,0.8
2025-11-16T2300,1404A,108.3829,22.8037,南宁市,大自然花园,颗粒物(PM10),71,92,70,49,41,20,20,82,50,50,45,6,8,0.8,0.7
2025-11-16T2300,1405A,108.4394,22.7904,南宁市,仙葫,,,,,,,,,,,,,,,,
2025-11-16T2300,1406A,108.2397,22.8467,南宁市,区农职院,细颗粒物(PM2.5),87,84,66,64,39,23,23,94,66,38,31,20,19,0.7,0.7
2025-11-16T2300,1407A,108.3275,22.735,南宁市,英华嘉园,细颗粒物(PM2.5),84,85,76,62,48,10,10,85,56,59,38,4,8,0.9,0.6
2025-11-16T2300,3401A,108.4834,22.7618,南宁市,红星社区,细颗粒物(PM2.5),80,77,50,59,35,16,16,103,64,45,30,4,6,0.9,0.7
2025-11-16T2300,4221A,108.2177,22.7774,南宁市,乐贤路16号,颗粒物(PM10),79,108,70,55,40,0,0,93,56,63,35,5,9,0.8,0.6
2025-11-16T2300,2331A,118.0966,26.6761,南平市,茫荡山,,,,31,,,,,126,,,,,1,,0.3
2025-11-16T2300,2332A,118.1681,26.6369,南平市,南平市监测站,,39,33,36,27,28,17,17,94,57,34,20,4,6,0.8,0.8
2025-11-16T2300,2333A,118.1825,26.6489,南平市,南平铝业有限公司,,40,40,39,25,27,8,8,89,48,41,28,4,7,0.6,0.7
2025-11-16T2300,2334A,118.1756,26.6272,南平市,南平七中,,32,24,38,22,27,34,34,94,66,14,14,4,6,0.5,0.6
2025-11-16T2300,1168A,120.9098,31.9663,南通市,狼山街道,,30,30,39,9,17,80,80,107,86,13,28,2,3,0.6,0.6
2025-11-16T2300,1169A,120.86,32.0005,南通市,虹桥,,26,20,39,12,26,83,83,119,98,11,30,4,5,0.5,0.6
2025-11-16T2300,1170A,120.87,32.02,南通市,城中,,27,27,52,14,23,78,78,114,,14,32,5,6,0.3,0.4
2025-11-16T2300,1171A,120.94,31.93,南通市,星湖花园,,25,25,47,13,22,73,73,107,82,13,30,4,5,0.3,0.4
2025-11-16T2300,1172A,120.81,32.0417,南通市,紫琅学院,,30,30,54,12,25,70,70,91,62,14,40,3,5,0.4,0.6
2025-11-16T2300,3291A,121.067,32.062,南通市,通州监测站,,26,12,30,9,20,82,82,107,86,10,22,2,4,0.5,0.5
2025-11-16T2300,3432A,120.9348,31.9883,南通市,环境教育馆,,23,22,40,7,25,72,72,112,85,17,35,3,5,0.3,0.5
2025-11-16T2300,2404A,112.5224,33.0122,南阳市,瓦房庄,颗粒物(PM10),100,150,143,52,88,57,57,92,82,19,36,7,8,0.4,0.8
2025-11-16T2300,2405A,112.5003,32.9735,南阳市,汉画馆,颗粒物(PM10),103,156,147,52,89,56,56,78,72,20,40,7,7,0.5,0.9
2025-11-16T2300,2406A,112.5573,33.027,南阳市,气象站,颗粒物(PM10),104,157,164,36,77,54,54,92,80,24,38,9,10,0.4,0.7
2025-11-16T2300,2407A,112.5481,32.9689,南阳市,理工学院,颗粒物(PM10),97,144,160,36,76,54,54,83,75,20,46,6,7,0.5,0.8
2025-11-16T2300,4008A,112.5234,32.9922,南阳市,卧龙区政府,颗粒物(PM10),81,111,151,53,91,53,53,83,73,20,42,6,7,0.5,0.9
2025-11-16T2300,1234A,121.8358,29.911,宁波市,区环保大楼,,50,50,38,17,14,16,16,77,35,51,47,5,7,0.7,0.7
2025-11-16T2300,1235A,121.56,29.82,宁波市,万里学院,细颗粒物(PM2.5),102,97,52,76,30,4,4,97,70,72,39,7,7,0.9,0.7
2025-11-16T2300,1236A,121.713,29.9572,宁波市,龙赛医院,颗粒物(PM10),97,143,62,71,25,2,2,132,50,78,48,6,6,1.0,0.8
2025-11-16T2300,1239A,121.633,29.7733,宁波市,钱湖水厂,细颗粒物(PM2.5),65,77,35,47,20,32,32,89,71,27,14,6,6,0.6,0.4
2025-11-16T2300,1240A,121.5856,29.8635,宁波市,太古小学,颗粒物(PM10),66,82,53,30,25,1,1,96,56,55,38,4,4,1.1,0.8
2025-11-16T2300,1241A,121.524,29.8674,宁波市,市环境监测中心,颗粒物(PM10),61,72,48,37,24,28,28,90,60,45,38,9,8,0.7,0.6
2025-11-16T2300,2871A,121.6147,29.9017,宁波市,万里国际学校,细颗粒物(PM2.5),60,67,44,43,25,2,2,111,60,69,41,5,5,0.9,0.7
2025-11-16T2300,3710A,121.5594,29.8975,宁波市,白沙活动中心,细颗粒物(PM2.5),60,58,47,43,24,17,17,101,57,53,45,5,6,0.6,0.6
2025-11-16T2300,2339A,119.5001,26.6946,宁德市,金涵水库,,,,25,,11,,,57,,,9,,2,,0.7
2025-11-16T2300,2341A,119.5388,26.6612,宁德市,宁德市监测站,,20,16,28,14,16,50,50,103,73,10,12,6,6,0.4,0.4
2025-11-16T2300,3209A,119.5231,26.6562,宁德市,宁德一中,,23,23,29,14,19,40,40,98,64,12,10,6,7,0.4,0.4
2025-11-16T2300,2618A,98.8601,25.8567,怒江傈僳族自治州,州监测站,,33,31,27,23,19,38,38,72,60,13,9,5,6,0.4,0.3
2025-11-16T2300,2619A,98.8546,25.8417,怒江傈僳族自治州,泸水一中,,18,16,24,12,16,24,24,54,39,16,15,7,6,0.6,0.5
2025-11-16T2300,1888A,101.6891,26.571,攀枝花市,弄弄坪,颗粒物(PM10),52,54,38,25,22,3,3,73,52,49,25,4,11,0.9,1
2025-11-16T2300,1889A,101.5769,26.5928,攀枝花市,河门口,,28,28,36,16,20,38,38,74,61,11,16,11,17,0.7,1
2025-11-16T2300,1890A,101.7169,26.585,攀枝花市,炳草岗,颗粒物(PM10),60,70,51,26,26,2,2,74,42,57,31,6,9,1.0,1.1
2025-11-16T2300,1891A,101.7369,26.5008,攀枝花市,仁和,,35,35,31,20,19,21,21,67,45,15,15,6,10,0.6,0.9
2025-11-16T2300,2835A,101.7227,26.567,攀枝花市,四十中小,,48,48,49,24,25,10,10,68,39,52,35,66,17,1.3,1.3
2025-11-16T2300,1604A,122.0303,41.1489,盘锦市,开发区,颗粒物(PM10),52,53,59,3,31,40,40,61,42,10,16,1,4,0,0.2
2025-11-16T2300,1605A,122.0485,41.0883,盘锦市,兴隆台,颗粒物(PM10),56,62,57,6,31,28,28,60,39,16,15,5,6,0.4,0.5
2025-11-16T2300,1606A,121.8297,41.1028,盘锦市,新生街道,颗粒物(PM10),57,63,65,3,42,13,13,52,34,41,27,8,7,0.3,0.3
2025-11-16T2300,1832A,113.3257,33.742,平顶山市,新华旅馆,颗粒物(PM10),78,105,148,22,87,45,45,97,70,20,35,7,9,0.4,0.8
2025-11-16T2300,1833A,113.2919,33.737,平顶山市,规划设计院,颗粒物(PM10),70,90,151,24,80,48,48,97,73,17,30,6,8,0.1,0.6
2025-11-16T2300,1834A,113.182,33.774,平顶山市,平顶山工学院,颗粒物(PM10),79,108,154,17,87,51,51,98,70,19,30,7,9,0.2,0.6
2025-11-16T2300,3204A,113.3025,33.73,平顶山市,规划局,颗粒物(PM10),89,127,162,24,84,48,48,99,74,17,34,7,9,0.4,0.9
2025-11-16T2300,3594A,112.8867,33.9116,平顶山市,石龙区,颗粒物(PM10),64,77,134,27,56,57,57,112,74,27,44,6,9,0.4,0.7
2025-11-16T2300,2656A,106.6692,35.5461,平凉市,聚贤嘉苑,颗粒物(PM10),65,80,74,26,26,62,62,70,67,9,13,11,7,0.5,0.4
2025-11-16T2300,2657A,106.7021,35.5307,平凉市,博物馆,颗粒物(PM10),62,74,70,26,25,61,61,69,66,9,12,5,5,0.3,0.3
2025-11-16T2300,2347A,114.0997,27.5002,萍乡市,武功山,,,,,,,,,,,,,,,,
2025-11-16T2300,2348A,113.8385,27.6434,萍乡市,中医院,细颗粒物(PM2.5),102,114,70,76,40,5,5,133,66,69,38,6,9,1.1,0.9
2025-11-16T2300,2349A,113.8493,27.6253,萍乡市,市政府车库,细颗粒物(PM2.5),105,81,61,79,46,30,30,124,71,36,32,7,12,0.8,1
2025-11-16T2300,2350A,113.8676,27.6435,萍乡市,市环保局,细颗粒物(PM2.5),70,65,54,51,35,45,45,134,92,44,27,14,16,0.6,0.6
2025-11-16T2300,2351A,113.866,27.6198,萍乡市,安源区政府,细颗粒物(PM2.5),102,90,58,76,49,18,18,125,75,47,34,8,13,1.0,1
2025-11-16T2300,2319A,119.0141,25.4325,莆田市,荔城区仓后路,,28,28,30,12,10,63,63,100,82,15,8,4,4,0.5,0.4
2025-11-16T2300,2320A,119.0015,25.4553,莆田市,莆田市监测站,,21,10,24,7,8,65,65,101,81,7,7,3,4,0.4,0.4
2025-11-16T2300,2321A,119.1119,25.4561,莆田市,涵江区六中,,26,23,29,3,10,82,82,99,87,6,8,3,3,0.3,0.4
2025-11-16T2300,2322A,119.1013,25.3215,莆田市,秀屿区政府,,27,20,31,3,12,86,86,102,84,7,12,4,5,0.4,0.5
2025-11-16T2300,2323A,118.981,25.4792,莆田市,东圳水库,,,,20,,13,,,98,,,5,,4,,0.9
2025-11-16T2300,2392A,115.0312,35.7636,濮阳市,环保局,颗粒物(PM10),62,74,123,12,75,47,47,63,53,29,43,9,9,0.4,0.7
2025-11-16T2300,2394A,115.0574,35.7609,濮阳市,油田运输公司,颗粒物(PM10),57,64,148,10,81,45,45,66,54,11,26,10,11,0.6,0.9
2025-11-16T2300,3021A,115,35.7668,濮阳市,濮水河管理处,颗粒物(PM10),57,63,134,10,70,46,46,65,53,22,25,8,8,0.2,0.4
2025-11-16T2300,4216A,115.0924,35.7686,濮阳市,任丘路479号,颗粒物(PM10),61,71,158,14,85,40,40,61,49,23,32,10,10,0.4,0.8
2025-11-16T2300,2601A,100.98,22.7633,普洱市,市环保局,,38,37,32,26,18,35,35,83,61,8,7,4,4,0.4,0.4
2025-11-16T2300,2602A,100.9817,22.8322,普洱市,普洱第二中学,,36,31,28,25,16,25,25,84,59,19,12,4,4,0.4,0.3
2025-11-16T2300,2262A,131.0518,45.8751,七台河市,新一中,,,,,,,,,,,,,,,,
2025-11-16T2300,3345A,131.0577,45.7879,七台河市,中波台,颗粒物(PM10),66,81,55,47,42,40,40,27,27,16,22,7,8,0.6,0.6
2025-11-16T2300,3637A,131.0176,45.7761,七台河市,人民广场,颗粒物(PM10),74,97,64,50,48,39,39,25,24,16,27,7,8,0.6,0.7
2025-11-16T2300,3684A,130.8781,45.8222,七台河市,新建矿广场,颗粒物(PM10),65,80,69,42,48,42,42,27,27,7,25,5,11,0.1,0.6
2025-11-16T2300,1779A,123.9305,47.3636,齐齐哈尔市,安居小区,,24,24,45,14,27,49,49,35,35,7,16,2,4,0.4,0.6
2025-11-16T2300,1780A,123.9488,47.3386,齐齐哈尔市,中心广场,,16,12,38,7,21,51,51,38,38,8,19,4,6,0.3,0.5
2025-11-16T2300,1781A,123.9483,47.3227,齐齐哈尔市,农牧车辆厂,,16,9,45,7,21,50,50,39,39,4,16,4,5,0.4,0.5
2025-11-16T2300,1783A,123.945,47.2988,齐齐哈尔市,市环境监测站,,22,22,50,6,26,52,52,41,41,5,18,5,6,0.4,0.5
2025-11-16T2300,3662A,123.6333,47.2075,齐齐哈尔市,富区青少年活动中心,,19,19,54,3,25,46,46,40,39,8,18,5,6,0.4,0.6
2025-11-16T2300,2591A,107.9783,26.5747,黔东南苗族侗族自治州,市环境监测站,细颗粒物(PM2.5),65,52,38,47,31,5,5,82,51,45,23,4,4,0.9,0.6
2025-11-16T2300,2881A,107.8908,26.5311,黔东南苗族侗族自治州,凯里学院,,34,34,32,23,25,22,22,84,59,22,15,3,4,0.4,0.4
2025-11-16T2300,2593A,107.5228,26.2403,黔南布依族苗族自治州,小围寨,细颗粒物(PM2.5),58,58,30,41,22,8,8,74,50,26,9,5,5,0.4,0.4
2025-11-16T2300,3538A,107.5175,26.2978,黔南布依族苗族自治州,沙坝,细颗粒物(PM2.5),67,58,30,48,22,3,3,72,44,32,13,5,4,0.8,0.6
2025-11-16T2300,2589A,104.9022,25.0925,黔西南布依族苗族自治州,场坝街,细颗粒物(PM2.5),62,60,39,44,26,48,48,71,66,10,10,2,6,0.6,0.5
2025-11-16T2300,2590A,104.8811,25.0992,黔西南布依族苗族自治州,坪东大道,细颗粒物(PM2.5),64,,37,46,27,16,16,70,57,22,11,3,3,0.7,0.5
2025-11-16T2300,2502A,108.6236,21.9667,钦州市,市环保站,"颗粒物(PM10),细颗粒物(PM2.5)",58,66,70,41,39,74,74,112,91,16,20,4,6,0.8,1.2
2025-11-16T2300,2503A,108.6549,21.9481,钦州市,沙埠小学,颗粒物(PM10),99,148,80,58,48,6,6,124,79,70,24,5,7,0.9,0.8
2025-11-16T2300,2504A,108.5989,21.7431,钦州市,港区一小,细颗粒物(PM2.5),67,72,71,48,40,55,55,110,94,38,27,6,8,0.7,0.8
2025-11-16T2300,3404A,108.5959,21.9633,钦州市,北职校,细颗粒物(PM2.5),63,70,65,45,43,54,54,102,74,18,17,6,8,0.9,0.9
2025-11-16T2300,1043A,119.7493,40.0116,秦皇岛市,第一关,,28,28,69,16,51,46,46,64,49,18,37,3,6,0,0.4
2025-11-16T2300,1044A,119.5897,39.9499,秦皇岛市,监测站,,48,48,75,13,39,49,49,69,53,17,42,4,9,0.5,0.8
2025-11-16T2300,1046A,119.5251,39.9041,秦皇岛市,建设大厦,,50,50,79,19,41,46,46,63,49,16,35,3,7,0.2,0.6
2025-11-16T2300,3132A,119.610547,39.943889,秦皇岛市,文明里,,42,42,74,18,40,48,48,63,49,5,35,6,10,0,0.3
2025-11-16T2300,4198A,119.5090,39.8253,秦皇岛市,北戴河轮滑馆,,45,45,76,10,43,47,47,61,50,3,32,2,4,0.0,0.6
2025-11-16T2300,1307A,120.6659,36.2403,青岛市,仰口,,,,,,,,,,,,,,,,
2025-11-16T2300,1310A,120.4134,36.0658,青岛市,市南区东部子站,,41,41,121,9,49,57,57,109,66,19,23,7,10,0.5,0.7
2025-11-16T2300,1311A,120.3664,36.1032,青岛市,四方区子站,,44,44,127,9,63,63,63,113,68,4,19,3,7,0.2,0.6
2025-11-16T2300,1312A,120.2994,36.054,青岛市,市南区西部子站,,41,41,118,10,52,52,52,94,62,17,31,7,9,0.3,0.8
2025-11-16T2300,1313A,120.4581,36.0858,青岛市,崂山区子站,,22,22,112,7,44,60,60,109,68,12,22,8,11,0.4,0.7
2025-11-16T2300,1315A,120.3999,36.3083,青岛市,城阳区子站,,29,29,102,7,44,62,62,111,71,10,23,5,7,0.4,0.7
2025-11-16T2300,3362A,120.5014,36.4034,青岛市,即墨2号,,28,28,104,3,63,54,54,106,61,10,32,3,7,0.3,0.7
2025-11-16T2300,3642A,120.3503,36.0736,青岛市,市北区南部,,38,38,94,9,47,46,46,103,59,24,28,6,6,0.2,0.6
2025-11-16T2300,3643A,120.3948,36.1805,青岛市,李沧区北部,,39,39,120,9,61,47,47,94,60,20,30,6,9,0.4,0.7
2025-11-16T2300,4290A,120.1969,35.9546,青岛市,珠江路669号,,44,44,120,7,57,56,56,110,58,12,22,9,12,0.2,0.6
2025-11-16T2300,4291A,120.0424,35.8656,青岛市,黄岛区人民政府广场,,31,31,110,3,54,62,62,104,72,12,33,5,8,0.5,1
2025-11-16T2300,1702A,113.0426,23.691,清远市,环保大楼,,,,,,,,,,,,,,,,
2025-11-16T2300,1703A,113.0208,23.7106,清远市,凤城街办,,32,32,36,19,24,60,60,108,77,29,27,7,9,0.7,0.6
2025-11-16T2300,3025A,113.0477,23.6344,清远市,技师学院,颗粒物(PM10),56,62,42,33,24,22,22,114,66,56,32,6,8,0.8,0.7
2025-11-16T2300,3318A,112.9903,23.7403,清远市,清新太和,,28,19,32,12,20,88,88,125,108,10,18,10,10,0.4,0.5
2025-11-16T2300,3455A,113.076,23.7198,清远市,清城东城,,37,37,34,19,19,42,42,109,75,27,19,6,8,0.6,0.6
2025-11-16T2300,2661A,107.6325,35.7357,庆阳市,庆阳五中,,50,50,73,14,19,55,55,66,61,6,11,4,5,0.3,0.3
2025-11-16T2300,2662A,107.6364,35.7067,庆阳市,市环保局,颗粒物(PM10),52,53,72,10,15,59,59,71,65,8,11,2,3,0.2,0.2
2025-11-16T2300,1916A,103.7897,25.5035,曲靖市,环境监测站,,42,42,28,16,13,72,72,94,87,11,9,3,3,0.6,0.6
2025-11-16T2300,1917A,103.8,25.5364,曲靖市,烟厂办公区,,33,33,24,22,14,71,71,92,88,11,8,4,4,0.4,0.4
2025-11-16T2300,3376A,103.7947,25.462,曲靖市,南苑二区,,26,24,21,18,14,70,70,92,89,10,7,4,4,0.5,0.5
2025-11-16T2300,3377A,103.7444,25.5261,曲靖市,曲靖师范学院,,49,49,26,22,18,64,64,98,86,14,9,3,2,0.3,0.3
