timepoint,stationcode,longitude,latitude,area,positionname,primarypollutant,aqi,pm10,pm10_24h,pm2_5,pm2_5_24h,o3,o3_24h,o3_8h,o3_8h_24h,no2,no2_24h,so2,so2_24h,co,co_24h
2025-09-12T2100,2566A,102.1879,31.914,阿坝藏族羌族自治州,州农科所,,25,25,17,8,10,48,,68,64,5,7,3,2,0.1,0.2
2025-09-12T2100,2568A,102.2502,31.8896,阿坝藏族羌族自治州,马师校,,39,34,18,27,16,29,,70,64,14,7,8,8,0.5,0.5
2025-09-12T2100,3994A,102.2165,31.9024,阿坝藏族羌族自治州,马尔康中学西区,,50,50,31,20,14,44,,80,76,7,4,9,9,0.5,0.6
2025-09-12T2100,2695A,80.292,41.1694,阿克苏地区,电视台,,,,282,,76,87,,98,98,25,14,6,5,,0.8
2025-09-12T2100,2696A,80.2613,41.1551,阿克苏地区,艺术中心,颗粒物(PM10),127,203,246,83,90,64,,100,100,33,22,4,4,0.5,0.5
2025-09-12T2100,2204A,105.6467,38.8363,阿拉善盟,西城区西花园,颗粒物(PM10),76,102,46,36,21,65,,71,71,19,13,10,10,0.8,0.9
2025-09-12T2100,2205A,105.6985,38.8411,阿拉善盟,蒙二幼,颗粒物(PM10),72,94,57,42,23,98,,117,115,25,8,10,8,0.7,0.5
2025-09-12T2100,2206A,105.724,38.8516,阿拉善盟,环保局新楼,颗粒物(PM10),65,80,58,28,23,112,,117,117,13,7,10,8,0.5,0.5
2025-09-12T2100,2708A,88.1264,47.8517,阿勒泰地区,市站,,34,34,12,13,4,54,,69,68,24,12,3,3,0.4,0.3
2025-09-12T2100,2630A,80.1161,32.5,阿里地区,阿里监测站,,,,3,,2,,,115,115,4,16,4,5,,0.3
2025-09-12T2100,3192A,80.0903,32.5028,阿里地区,阿里藏医院,,38,11,14,3,4,119,,123,123,1,7,7,7,0.1,0.2
2025-09-12T2100,2642A,109.0318,32.6537,安康市,香溪洞,,18,6,5,3,3,56,,56,56,4,7,6,6,0.5,0.6
2025-09-12T2100,2644A,109.0072,32.6975,安康市,汉滨区检察院,,12,12,9,6,6,24,,55,52,14,11,4,3,0.8,0.7
2025-09-12T2100,4054A,109.0325,32.6913,安康市,市邮政管理局,,14,14,9,3,6,25,,55,50,16,12,6,5,0.9,0.8
2025-09-12T2100,2291A,117.0809,30.5177,安庆市,环科院,,22,22,20,14,9,25,,91,73,33,14,5,7,0.7,0.7
2025-09-12T2100,2292A,117.0331,30.5119,安庆市,马山宾馆,,22,22,17,15,13,41,,75,62,17,17,4,4,0.7,0.8
2025-09-12T2100,2294A,116.9896,30.6145,安庆市,安庆大学,,26,23,25,18,13,45,,100,82,14,19,4,5,0.5,0.5
2025-09-12T2100,3173A,117.0598,30.5351,安庆市,市人大,,,20,18,17,11,,,92,83,16,12,5,6,0.6,0.6
2025-09-12T2100,3122A,105.9606,26.2611,安顺市,伍家关,,22,22,13,7,7,41,,53,53,5,3,11,6,0.5,0.5
2025-09-12T2100,3123A,105.9408,26.2431,安顺市,凤凰山,,26,,12,18,11,41,,51,51,8,4,9,7,0.5,0.4
2025-09-12T2100,3124A,105.9439,26.2564,安顺市,金钟山,,19,15,12,13,9,45,,55,54,5,3,9,6,0.6,0.5
2025-09-12T2100,3125A,105.8983,26.2481,安顺市,娄家坡,,19,,12,13,9,40,,50,48,5,2,7,5,0.5,0.5
2025-09-12T2100,1818A,114.4839,36.0621,安阳市,棉研所,,,,,,,,,,,,,,,,
2025-09-12T2100,1819A,114.3551,36.1017,安阳市,红庙街,,41,41,32,20,14,80,,122,118,24,16,5,5,0.4,0.3
2025-09-12T2100,1820A,114.361,36.0681,安阳市,银杏小区,,41,41,34,19,16,78,,125,118,31,16,7,7,0.5,0.5
2025-09-12T2100,3141A,114.3922,36.0878,安阳市,信访局,,38,38,28,16,14,103,,132,127,18,13,6,6,0.6,0.5
2025-09-12T2100,3669A,114.4705,36.0637,安阳市,左辅环卫站,,47,47,37,19,17,87,,129,122,26,15,6,6,0.4,0.3
2025-09-12T2100,3703A,114.2917,36.0949,安阳市,安钢职工学校,,31,31,36,12,19,90,,123,119,14,12,4,5,0.4,0.6
2025-09-12T2100,1748A,123.044,41.1196,鞍山市,深沟寺,,48,46,32,33,18,56,,121,103,30,10,7,7,1.2,0.8
2025-09-12T2100,1749A,123.011,41.0931,鞍山市,太阳城,,43,43,32,25,17,93,,124,111,16,12,8,7,0.8,0.7
2025-09-12T2100,1750A,123.0485,41.1442,鞍山市,太平,颗粒物(PM10),61,72,41,34,20,64,,128,106,32,15,9,8,1.0,0.8
2025-09-12T2100,1751A,122.9642,41.0971,鞍山市,铁西三道街,颗粒物(PM10),66,81,49,35,21,62,,131,113,50,24,8,7,1.2,0.9
2025-09-12T2100,1753A,123.022,41.0821,鞍山市,明达新区,颗粒物(PM10),52,53,34,25,15,68,,117,105,24,11,8,8,1.0,0.7
2025-09-12T2100,1754A,123.1289,41.0228,鞍山市,千山,,,,25,,18,,,80,,,3,,4,,0.4
2025-09-12T2100,4201A,122.9446,41.0826,鞍山市,兴盛南路290号,颗粒物(PM10),92,134,55,36,21,39,,138,114,74,29,10,10,1.0,1
2025-09-12T2100,2195A,107.4212,40.761,巴彦淖尔市,附二中,颗粒物(PM10),54,58,51,32,25,111,,145,141,10,14,10,12,0.6,0.6
2025-09-12T2100,2196A,107.37,40.7372,巴彦淖尔市,市环保大楼,颗粒物(PM10),60,70,51,28,20,114,,141,137,13,11,10,10,0.6,0.6
2025-09-12T2100,1956A,86.1472,41.7538,巴音郭楞蒙古自治州,孔雀公园,颗粒物(PM10),97,143,59,48,20,65,,96,94,24,15,5,6,0.4,0.3
2025-09-12T2100,1957A,86.1972,41.7166,巴音郭楞蒙古自治州,棉纺厂,颗粒物(PM10),107,163,72,49,15,74,,109,106,19,11,4,5,0.2,0.2
2025-09-12T2100,1958A,86.2357,41.7173,巴音郭楞蒙古自治州,经济开发区,颗粒物(PM10),93,136,50,36,11,73,,102,99,13,5,5,5,0.2,0.2
2025-09-12T2100,2914A,106.7677,31.8794,巴中市,苏山坪,,13,13,8,3,4,28,,39,38,4,4,3,3,0.5,0.4
2025-09-12T2100,3181A,106.7768,31.8526,巴中市,市五中,,12,12,14,3,5,32,,42,39,10,7,7,6,0.6,0.6
2025-09-12T2100,3183A,106.7418,31.8654,巴中市,圣泉水务公司,,,11,8,,2,41,,46,43,9,5,6,6,0.7,0.6
2025-09-12T2100,3616A,106.7616,31.8344,巴中市,市中心医院,,12,11,15,3,6,37,,40,39,8,8,7,7,0.5,0.5
2025-09-12T2100,2235A,122.7911,45.6077,白城市,洮北区环保局,,30,30,30,10,15,43,,62,57,14,6,3,5,0.3,0.4
2025-09-12T2100,2236A,122.8738,45.5725,白城市,市环保局,,34,34,28,21,17,31,,72,54,17,5,5,4,0.4,0.5
2025-09-12T2100,2231A,126.4219,41.9171,白山市,喜丰,,41,41,50,18,19,11,,94,68,28,19,4,6,0.7,0.7
2025-09-12T2100,2232A,126.4077,41.9419,白山市,环保局,颗粒物(PM10),51,51,38,27,20,28,,100,75,17,13,6,7,0.9,0.7
2025-09-12T2100,2647A,104.1724,36.5446,白银市,第三小学,颗粒物(PM10),80,109,39,34,18,38,,105,93,61,20,9,12,0.6,0.5
2025-09-12T2100,2648A,104.1465,36.5482,白银市,动力公司,颗粒物(PM10),69,88,39,28,15,17,,100,82,60,16,7,12,0.5,0.5
2025-09-12T2100,2512A,106.6103,23.9011,百色市,市监测站,,26,26,25,14,13,45,,60,58,10,12,12,12,0.5,0.5
2025-09-12T2100,2513A,106.6538,23.8859,百色市,市中心血站,,18,18,21,10,11,44,,61,60,14,13,14,9,0.6,0.6
2025-09-12T2100,3406A,106.6085,23.8798,百色市,祈福高中,,24,24,30,14,15,43,,59,57,12,16,9,11,0.6,0.7
2025-09-12T2100,2270A,117.396,32.939,蚌埠市,工人疗养院,,22,20,28,8,10,70,,58,58,7,13,4,5,0.5,0.4
2025-09-12T2100,2271A,117.3605,32.9427,蚌埠市,百货大楼,,22,,22,15,13,70,,60,60,8,14,6,6,0.6,0.6
2025-09-12T2100,2273A,117.4185,32.8911,蚌埠市,蚌埠学院,,26,,17,18,14,74,,60,60,5,10,6,6,0.5,0.4
2025-09-12T2100,2274A,117.3533,32.9673,蚌埠市,淮上区政府,,24,17,25,10,14,76,,62,62,7,13,5,6,0.6,0.5
2025-09-12T2100,2275A,117.3145,32.8977,蚌埠市,高新区,,23,,21,15,12,71,,59,59,10,14,5,6,0.6,0.5
2025-09-12T2100,3715A,117.3092,32.9314,蚌埠市,蚌埠田家炳中学,,24,14,20,9,11,74,,62,62,6,11,4,4,0.5,0.4
2025-09-12T2100,1585A,109.8756,40.6532,包头市,市环境监测站,颗粒物(PM10),53,55,28,21,14,58,,118,108,50,28,7,8,0.5,0.5
2025-09-12T2100,1587A,109.9991,40.5842,包头市,包头八中,,48,48,29,24,17,89,,113,111,26,27,14,10,0.9,0.7
2025-09-12T2100,1588A,109.8538,40.6821,包头市,青山宾馆,,41,41,23,24,16,40,,119,108,68,32,6,6,0.8,0.7
2025-09-12T2100,1589A,109.8642,40.6288,包头市,惠龙物流,,46,46,27,17,15,68,,118,113,36,20,10,7,0.7,0.5
2025-09-12T2100,1590A,110.0377,40.5546,包头市,东河鸿龙湾,颗粒物(PM10),54,57,26,27,13,92,,121,117,30,22,26,11,1.0,0.7
2025-09-12T2100,3283A,109.9154,40.5685,包头市,滨河大厦,,41,41,24,22,14,81,,127,123,33,21,31,9,0.6,0.5
2025-09-12T2100,3419A,109.9447,40.6261,包头市,包头市委党校,,47,47,25,25,14,70,,126,118,46,26,10,10,0.8,0.7
2025-09-12T2100,3683A,109.8331,40.6576,包头市,昆区政府,,45,45,27,22,18,84,,124,121,33,22,11,8,0.8,0.7
2025-09-12T2100,1930A,107.185,34.3063,宝鸡市,庙沟村,,20,20,11,8,5,57,,74,70,9,8,4,4,0.5,0.5
2025-09-12T2100,1931A,107.0708,34.3017,宝鸡市,竹园沟,,24,24,14,9,6,39,,75,70,8,8,8,8,0.4,0.4
2025-09-12T2100,1932A,107.1906,34.3672,宝鸡市,三陆医院,,20,16,13,12,6,36,,89,79,39,11,6,6,0.8,0.7
2025-09-12T2100,1933A,107.1431,34.3547,宝鸡市,监测站,,25,25,16,9,7,20,,83,69,23,10,4,4,0.7,0.7
2025-09-12T2100,1934A,107.1186,34.3739,宝鸡市,技工学校,,33,33,14,13,8,42,,63,,18,12,8,6,0.6,0.6
2025-09-12T2100,1936A,107.2058,34.3497,宝鸡市,文理学院,,27,27,13,9,8,25,,90,79,29,10,8,7,0.7,0.6
2025-09-12T2100,1937A,107.2386,34.3622,宝鸡市,三迪小学,,27,27,16,11,11,52,,90,80,26,13,5,5,0.6,0.6
2025-09-12T2100,4308A,107.3898,34.3601,宝鸡市,陈仓区北开路21号,,19,19,11,3,9,57,,95,86,14,8,6,6,0.6,0.5
2025-09-12T2100,1051A,115.493,38.8632,保定市,游泳馆,,,,51,,29,,,91,,,19,,5,,0.5
2025-09-12T2100,1052A,115.5213,38.8959,保定市,华电二区,,49,49,50,31,26,75,,119,114,24,15,3,3,0.2,0.3
2025-09-12T2100,1053A,115.4713,38.9108,保定市,接待中心,颗粒物(PM10),53,56,54,23,28,86,,109,108,17,12,5,5,0.3,0.3
2025-09-12T2100,1054A,115.4612,38.8416,保定市,地表水厂,颗粒物(PM10),72,93,62,21,21,58,,113,108,46,24,6,8,0.4,0.5
2025-09-12T2100,3581A,115.31981,38.95208,保定市,满城区生态环境分局,颗粒物(PM10),54,58,59,27,30,91,,120,118,20,20,2,2,0.3,0.3
2025-09-12T2100,3582A,115.47694,38.76408,保定市,清苑区第二中学,颗粒物(PM10),93,135,65,33,25,43,,114,106,54,18,4,3,0.5,0.4
2025-09-12T2100,3583A,115.62909,39.02311,保定市,徐水物探局,颗粒物(PM10),56,61,57,24,33,95,,118,117,19,24,7,7,0.4,0.5
2025-09-12T2100,4004A,115.4202,38.8656,保定市,双鹰农机,颗粒物(PM10),62,74,56,35,30,68,,116,112,34,20,5,5,0.3,0.4
2025-09-12T2100,4034A,115.5150,38.8590,保定市,植保所站,颗粒物(PM10),66,82,58,31,28,59,,119,113,51,21,6,8,0.3,0.6
2025-09-12T2100,2594A,99.1678,25.1081,保山市,市环境监测站,细颗粒物(PM2.5),55,,15,39,19,34,,49,45,12,7,7,6,0.5,0.4
2025-09-12T2100,2595A,99.1711,25.1328,保山市,市环保局,,23,23,15,9,10,30,,52,46,6,5,8,7,0.3,0.4
2025-09-12T2100,1866A,109.2262,21.588,北海市,牛尾岭水库,,,,4,,6,,,,,,5,,1,,0.5
2025-09-12T2100,1867A,109.1436,21.4086,北海市,海滩公园,,11,,18,3,4,34,,52,43,7,4,4,4,0.5,0.5
2025-09-12T2100,1868A,109.0981,21.4661,北海市,新市环保局,,12,12,11,7,9,30,,45,37,11,6,4,4,0.5,0.5
2025-09-12T2100,1869A,109.1778,21.5233,北海市,北海工业园,,22,17,15,15,7,20,,45,37,11,6,4,4,0.4,0.4
2025-09-12T2100,3400A,109.1911,21.4415,北海市,龙潭自来水厂,,11,11,10,3,5,25,,51,40,8,5,4,4,0.4,0.4
2025-09-12T2100,1001A,116.3621,39.8784,北京市,万寿西宫,,42,42,65,21,38,111,,141,140,26,32,4,3,0.6,0.5
2025-09-12T2100,1002A,116.2202,40.2915,北京市,定陵,,49,48,53,34,36,77,,136,130,3,4,4,4,0.6,0.6
2025-09-12T2100,1003A,116.4174,39.9289,北京市,东四,,39,36,72,18,40,123,,153,152,18,32,4,4,0.6,0.6
2025-09-12T2100,1004A,116.4072,39.8863,北京市,天坛,,26,26,55,15,36,55,,127,116,19,27,3,4,0.6,0.6
2025-09-12T2100,1005A,116.462,39.9365,北京市,农展馆,,38,38,69,20,45,102,,137,137,16,28,3,3,0.6,0.6
2025-09-12T2100,1006A,116.3392,39.9295,北京市,官园,颗粒物(PM10),51,51,70,25,37,119,,150,148,22,27,4,4,0.6,0.6
2025-09-12T2100,1007A,116.2878,39.9611,北京市,海淀万柳,,41,41,70,21,41,88,,130,127,28,38,3,4,0.7,0.7
2025-09-12T2100,1008A,116.6636,40.135,北京市,顺义新城,,,,,,,,,,,,,,,,
2025-09-12T2100,1009A,116.6275,40.3275,北京市,怀柔镇,细颗粒物(PM2.5),70,79,62,51,37,87,,145,140,15,15,1,1,1.0,0.8
2025-09-12T2100,1010A,116.2296,40.217,北京市,昌平镇,颗粒物(PM10),56,62,60,36,39,92,,147,142,19,24,3,3,0.8,0.7
2025-09-12T2100,1011A,116.3966,39.9821,北京市,奥体中心,,39,39,63,22,35,101,,123,122,27,32,4,4,0.6,0.6
2025-09-12T2100,3281A,115.9718,40.4529,北京市,延庆夏都,细颗粒物(PM2.5),70,82,58,51,35,117,,137,137,22,12,3,3,0.8,0.6
2025-09-12T2100,3418A,116.8336,40.4095,北京市,密云新城,细颗粒物(PM2.5),70,80,60,51,40,54,,136,125,13,7,3,3,0.8,0.6
2025-09-12T2100,3671A,116.088,39.9726,北京市,门头沟三家店,,49,49,58,24,35,38,,125,110,35,24,3,3,0.7,0.6
2025-09-12T2100,3672A,116.1541,39.8204,北京市,丰台云岗,颗粒物(PM10),53,55,53,22,35,43,,119,110,53,31,2,2,0.5,0.6
2025-09-12T2100,3673A,116.6804,39.9081,北京市,通州东关,颗粒物(PM10),70,89,93,49,50,64,,132,125,60,36,3,4,0.7,0.8
2025-09-12T2100,3674A,115.9577,39.7603,北京市,房山燕山,,44,44,56,23,33,90,,115,110,7,13,2,2,0.4,0.5
2025-09-12T2100,3675A,116.4672,39.7733,北京市,大兴旧宫,,22,22,56,11,32,40,,117,106,12,18,2,3,0.6,0.6
2025-09-12T2100,3694A,115.986,40.4563,北京市,延庆石河营,细颗粒物(PM2.5),77,89,62,56,34,96,,121,119,11,7,2,2,0.6,0.5
2025-09-12T2100,3695A,116.6151,40.3053,北京市,怀柔新城,细颗粒物(PM2.5),65,69,57,47,37,86,,138,133,11,9,4,4,0.9,0.7
2025-09-12T2100,3696A,116.2545,39.8768,北京市,丰台小屯,颗粒物(PM10),51,51,73,27,40,62,,115,111,40,34,2,2,0.8,0.7
2025-09-12T2100,3697A,116.84,40.3844,北京市,密云镇,细颗粒物(PM2.5),73,85,64,53,41,126,,140,140,13,19,4,4,0.8,0.7
2025-09-12T2100,4182A,116.1942,39.9158,北京市,八角北路9号,颗粒物(PM10),52,54,74,22,38,60,,138,130,26,30,2,2,0.6,0.6
2025-09-12T2100,4194A,117.0790,40.1518,北京市,洳河巡河路,细颗粒物(PM2.5),85,95,83,63,51,127,,142,142,17,12,2,2,1.0,1
2025-09-12T2100,1761A,123.8275,41.3064,本溪市,大峪,颗粒物(PM10),55,59,44,18,19,24,,115,81,43,15,6,6,0.6,0.6
2025-09-12T2100,1762A,123.7567,41.3325,本溪市,溪湖,颗粒物(PM10),59,67,47,26,21,24,,108,80,39,18,5,10,0.9,1.5
2025-09-12T2100,1763A,123.7169,41.3094,本溪市,彩屯,颗粒物(PM10),58,66,46,40,29,24,,96,60,33,25,6,9,0.7,1.4
2025-09-12T2100,1764A,123.7669,41.2864,本溪市,东明,颗粒物(PM10),60,69,50,33,19,33,,123,82,42,14,8,7,0.9,0.7
2025-09-12T2100,1765A,123.7992,41.2664,本溪市,新立屯,,33,33,43,16,19,31,,121,70,42,13,6,6,0.6,0.5
2025-09-12T2100,1766A,123.8142,41.3472,本溪市,威宁,颗粒物(PM10),63,76,56,29,22,18,,109,71,37,17,6,5,0.6,0.5
2025-09-12T2100,2587A,105.2864,27.3125,毕节市,八中,,25,,14,17,19,19,,43,38,16,12,5,6,0.6,0.6
2025-09-12T2100,2588A,105.31,27.2944,毕节市,师专,,12,8,15,8,13,22,,41,36,15,13,6,7,0.7,0.6
2025-09-12T2100,4263A,105.3688,27.3598,毕节市,工业大道,,14,14,19,8,12,22,,46,38,12,10,6,6,0.7,0.7
2025-09-12T2100,1629A,118.0018,37.3617,滨州市,第二水厂,,,39,57,,39,62,,112,99,32,31,5,7,0.6,0.7
2025-09-12T2100,1630A,117.9776,37.393,滨州市,北中新校,,44,44,48,17,28,82,,115,102,21,28,6,8,0.4,0.5
2025-09-12T2100,3514A,117.9378,37.3956,滨州市,中海酒店,,46,46,49,24,28,50,,109,91,26,25,4,6,0.6,0.6
2025-09-12T2100,3515A,117.9378,37.3553,滨州市,开发区一中,颗粒物(PM10),56,61,61,31,33,56,,123,104,35,28,6,10,0.6,0.7
2025-09-12T2100,3516A,118.0917,37.694,滨州市,金海六路,,46,46,48,19,28,82,,124,112,33,27,4,7,0.2,0.3
2025-09-12T2100,4028A,117.9956,37.3753,滨州市,滨州市西街道办事处,,39,39,49,24,31,72,,115,101,23,26,5,7,0.4,0.5
2025-09-12T2100,2311A,115.8072,33.8399,亳州市,污水处理厂,,20,,6,14,7,44,,85,66,20,8,3,3,0.4,0.3
2025-09-12T2100,2312A,115.7789,33.8518,亳州市,三国揽胜宫,,20,20,8,11,9,45,,88,68,12,7,4,4,0.5,0.4
2025-09-12T2100,3332A,115.7633,33.8034,亳州市,亳州学院,,16,12,7,3,12,50,,94,72,12,5,5,5,0.4,0.3
2025-09-12T2100,2693A,82.0485,44.8556,博尔塔拉蒙古自治州,市党校,,28,28,34,17,18,78,,81,81,10,8,3,4,0.1,0.1
2025-09-12T2100,2694A,82.0806,44.8969,博尔塔拉蒙古自治州,市环保局,,44,44,41,22,17,71,,85,85,20,10,7,5,0.2,0.2
2025-09-12T2100,1071A,116.8842,38.2991,沧州市,沧县城建局,颗粒物(PM10),63,75,50,36,27,106,,156,152,30,17,7,5,0.7,0.5
2025-09-12T2100,1072A,116.8584,38.3254,沧州市,电视转播站,,,72,51,34,31,96,,134,132,,14,5,4,0.6,0.5
2025-09-12T2100,1073A,116.8709,38.3228,沧州市,市环保局,颗粒物(PM10),64,78,60,31,29,101,,145,142,23,14,8,8,0.5,0.4
2025-09-12T2100,3324A,116.8136,38.3004,沧州市,河北水利电力学院,颗粒物(PM10),67,83,53,42,30,90,,148,142,35,19,10,9,0.6,0.5
2025-09-12T2100,2622A,97.1806,31.1273,昌都市,昌都监测站,,,,14,13,6,,,86,86,20,7,4,4,0.4,0.2
2025-09-12T2100,3719A,97.1714,31.1406,昌都市,昌都会议中心,,,,,,,,,,,,,,,,
2025-09-12T2100,2690A,88.1236,43.8886,昌吉回族自治州,天山天池,,25,25,14,3,4,53,,63,63,8,9,6,6,0.4,0.4
2025-09-12T2100,2692A,87.2717,44.0297,昌吉回族自治州,新区政务中心,,29,17,26,14,10,91,,100,100,16,13,9,8,0.4,0.3
2025-09-12T2100,3613A,87.3095,44.0142,昌吉回族自治州,亚心广场,,34,34,32,3,8,94,,106,106,17,14,8,8,0.5,0.4
2025-09-12T2100,1120A,125.2863,43.9027,长春市,客车厂,,36,28,43,22,22,9,,120,72,72,21,4,5,0.9,0.5
2025-09-12T2100,1121A,125.2841,43.8463,长春市,邮电学院,,33,,43,23,23,17,,124,83,29,13,4,5,0.6,0.5
2025-09-12T2100,1122A,125.3716,43.8772,长春市,劳动公园,,41,41,52,21,22,32,,125,91,39,15,7,8,0.6,0.4
2025-09-12T2100,1123A,125.3297,43.8805,长春市,园林处,,35,30,38,24,23,55,,123,93,32,16,4,5,0.7,0.7
2025-09-12T2100,1124A,125.4605,43.79,长春市,净月潭,,18,15,37,12,22,34,,121,94,6,7,4,4,0.3,0.5
2025-09-12T2100,1125A,125.7194,43.515,长春市,甩湾子,,24,22,36,15,18,75,,112,112,13,10,3,4,0.3,0.4
2025-09-12T2100,1126A,125.3863,43.8447,长春市,经开区环卫处,,27,27,41,15,18,56,,123,95,27,15,4,5,0.6,0.6
2025-09-12T2100,1127A,125.245,43.7783,长春市,高新区管委会,,29,,36,20,22,25,,126,90,37,11,5,6,0.4,0.5
2025-09-12T2100,1128A,125.1761,43.8325,长春市,岱山公园,,29,28,42,20,26,26,,119,72,55,24,3,4,0.4,0.5
2025-09-12T2100,4281A,125.3346,43.9164,长春市,北亚泰大街1068号,,44,44,45,25,26,24,,118,79,57,19,8,8,0.8,0.6
2025-09-12T2100,1335A,113.0833,28.2325,长沙市,经开区环保局,,46,46,28,24,14,36,,85,73,32,14,5,6,0.5,0.4
2025-09-12T2100,1336A,112.8872,28.2189,长沙市,高开区环保局,,42,42,29,16,10,50,,72,66,10,10,4,7,0.3,0.3
2025-09-12T2100,1337A,113.0792,28.2053,长沙市,马坡岭,,26,26,30,16,12,50,,95,84,23,12,6,6,0.5,0.5
2025-09-12T2100,1338A,112.9394,28.19,长沙市,湖南师范大学,,35,25,26,24,13,51,,76,69,17,14,4,6,0.6,0.5
2025-09-12T2100,1339A,113.0178,28.1322,长沙市,雨花区环保局,,23,23,30,12,12,62,,80,76,10,9,7,8,0.4,0.5
2025-09-12T2100,1340A,112.9792,28.2597,长沙市,伍家岭,,,,27,,12,,,76,64,17,13,2,4,0.3,0.4
2025-09-12T2100,1341A,113.0014,28.1944,长沙市,火车新站,,30,30,27,19,13,55,,79,73,16,9,6,7,0.6,0.5
2025-09-12T2100,1342A,112.9844,28.1178,长沙市,天心区环保局,,26,26,23,16,12,56,,79,73,14,12,4,6,0.2,0.2
2025-09-12T2100,1343A,112.8908,28.1308,长沙市,湖南中医药大学,,50,50,30,18,16,32,,73,63,27,13,4,6,0.2,0.2
2025-09-12T2100,1344A,112.9581,28.3611,长沙市,沙坪,,26,26,23,18,12,63,,88,76,11,15,4,4,0.4,0.4
2025-09-12T2100,1727A,113.1147,36.1547,长治市,清华站,,39,39,20,22,10,87,,107,104,14,11,12,10,1.3,0.7
2025-09-12T2100,1730A,113.0886,36.2125,长治市,审计局,,45,33,18,31,12,81,,112,108,20,12,7,7,1.2,0.8
2025-09-12T2100,1731A,113.0844,36.1856,长治市,长治八中,,40,34,20,28,15,74,,109,105,16,7,9,10,1.2,0.8
2025-09-12T2100,2845A,113.1569,36.1911,长治市,德盛苑,,29,20,20,17,8,90,,108,107,5,6,8,9,0.9,0.7
2025-09-12T2100,3568A,113.06,36.0464,长治市,向阳小学,颗粒物(PM10),64,77,47,33,20,78,,114,110,18,12,6,6,1.4,0.9
2025-09-12T2100,3569A,112.8792,36.3144,长治市,屯留一中,,48,48,31,32,23,75,,116,110,17,16,11,13,1.3,0.9
2025-09-12T2100,4189A,113.1131,36.19948,长治市,英华南巷50号,,49,39,23,34,14,68,,103,99,20,11,9,9,1.3,0.9
2025-09-12T2100,4190A,113.2367,36.3344,长治市,学府街1号,,,41,22,32,13,,,104,102,16,9,1,4,1.0,0.7
2025-09-12T2100,1854A,111.6975,28.9703,常德市,市二中,,26,25,25,18,14,66,,87,84,6,7,4,5,0.4,0.5
2025-09-12T2100,1857A,111.7158,29.1456,常德市,白鹤山,,,,,,,,,,,,,,,,
2025-09-12T2100,3138A,111.7153,29.0289,常德市,武陵区永安,,27,27,26,12,12,63,,82,80,5,6,4,5,0.6,0.7
2025-09-12T2100,3139A,111.6892,28.9881,常德市,鼎城区玉霞,,26,26,25,14,14,64,,85,82,5,5,1,4,0.4,0.5
2025-09-12T2100,3140A,111.6625,29.0531,常德市,武陵区长庚,,21,20,22,12,15,67,,85,84,7,9,5,6,0.7,0.7
2025-09-12T2100,1196A,119.9633,31.762,常州市,市监测站,,33,27,41,23,19,51,,131,96,22,18,17,15,0.6,0.6
2025-09-12T2100,1200A,119.9468,31.7069,常州市,武进监测站,,,,35,,17,58,,132,96,16,18,11,9,,0.6
2025-09-12T2100,1201A,119.9255,31.9087,常州市,安家,,39,39,35,16,17,14,,128,85,69,22,10,11,0.7,0.7
2025-09-12T2100,3002A,119.9805,31.8174,常州市,行政中心,,33,33,32,20,18,57,,122,92,22,19,3,3,0.7,0.6
2025-09-12T2100,3003A,120.0522,31.7748,常州市,经开区,,,37,44,15,18,46,,134,98,,21,6,6,,0.9
2025-09-12T2100,3010A,119.9025,31.7964,常州市,钟楼,,50,50,42,22,15,46,,122,89,37,20,8,8,0.6,0.6
2025-09-12T2100,3429A,119.8598,31.7066,常州市,武进经发区,,38,38,42,23,23,52,,132,92,19,18,10,9,0.7,0.7
2025-09-12T2100,3430A,119.5826,31.7245,常州市,金坛城区,,29,29,32,18,19,71,,126,100,15,18,8,9,0.7,0.6
2025-09-12T2100,2220A,120.4318,41.5881,朝阳市,西梁,,33,33,38,23,27,103,,115,112,12,12,6,6,0.6,0.8
2025-09-12T2100,2221A,120.4521,41.5646,朝阳市,河畔小区,,36,27,35,17,21,114,,126,124,8,7,6,7,0.5,0.7
2025-09-12T2100,2222A,120.4176,41.5648,朝阳市,八里堡,,40,,41,28,27,95,,120,114,17,13,7,8,0.6,0.7
2025-09-12T2100,2223A,120.3806,41.5969,朝阳市,农业园区,,33,33,39,20,29,38,,124,105,14,14,4,5,0.5,0.7
2025-09-12T2100,1705A,116.6367,23.6719,潮州市,西园路,,28,28,28,12,16,28,,99,79,25,12,9,6,1.0,0.5
2025-09-12T2100,3026A,116.6183,23.6608,潮州市,市政府,,15,,34,10,14,28,,93,76,14,14,10,13,0.6,0.6
2025-09-12T2100,4036A,116.6461,23.6761,潮州市,金山,,12,12,29,3,11,27,,104,80,22,11,9,7,1.1,0.6
2025-09-12T2100,2472A,113.0073,25.9061,郴州市,马头岭,,20,20,23,7,8,8,,76,37,16,10,4,5,0.2,0.3
2025-09-12T2100,2473A,113.0116,25.8226,郴州市,市职中,,18,18,17,12,11,0,,75,31,19,7,3,4,0.3,0.4
2025-09-12T2100,2475A,113.0383,25.8071,郴州市,市审计局,,18,18,14,8,10,6,,77,36,14,8,5,6,0.5,0.4
2025-09-12T2100,2476A,113.0348,25.7759,郴州市,市环保局,,18,18,17,10,11,10,,83,40,15,6,4,4,0.3,0.3
2025-09-12T2100,4252A,113.0138,25.8011,郴州市,好美居路49号,,18,18,17,9,10,4,,80,39,23,8,5,5,0.5,0.4
2025-09-12T2100,1431A,103.9728,30.7236,成都市,金泉两河,,30,30,16,3,4,22,,71,66,24,12,2,3,0.7,0.5
2025-09-12T2100,1432A,104.176,30.6872,成都市,十里店,,32,32,17,19,6,55,,86,86,30,14,2,2,0.7,0.5
2025-09-12T2100,1433A,104.079,30.5706,成都市,三瓦窑,,26,26,17,17,8,17,,90,82,50,19,3,3,0.8,0.5
2025-09-12T2100,1434A,104.1114,30.63,成都市,沙河铺,,34,34,21,17,6,36,,71,70,19,9,1,1,0.9,0.7
2025-09-12T2100,1437A,104.0786,30.6531,成都市,君平街,,38,38,22,12,10,47,,90,89,24,13,2,2,0.7,0.6
2025-09-12T2100,1438A,103.613,31.0283,成都市,灵岩寺,,,,,,,,,,,,,,,,
2025-09-12T2100,2880A,104.0239,30.65639,成都市,大石西路,,33,30,21,23,11,32,,74,72,27,16,2,2,0.8,0.6
2025-09-12T2100,3136A,104.2725,30.5589,成都市,龙泉驿区区政府,,12,12,8,3,1,36,,71,66,16,16,4,5,0.2,0.3
2025-09-12T2100,3357A,104.0106,30.6931,成都市,金博路,,20,,11,14,6,33,,76,73,28,15,6,6,0.6,0.4
2025-09-12T2100,3359A,104.0578,30.5225,成都市,华阳,,32,24,15,22,11,44,,82,80,25,16,1,2,0.7,0.6
2025-09-12T2100,3488A,104.3853,30.7453,成都市,青白江技师分院,,23,23,15,13,6,4,,58,46,43,17,2,2,0.6,0.6
2025-09-12T2100,3489A,104.0789,30.4072,成都市,科学城,,25,25,16,13,9,48,,91,88,21,13,4,4,0.8,0.7
2025-09-12T2100,4011A,103.8506,30.6947,成都市,光华大道三段,,30,30,18,8,7,20,,71,66,41,15,2,2,1.0,0.6
2025-09-12T2100,4224A,104.2433,30.5353,成都市,鲸龙路1057号,,,33,13,20,9,,,72,70,39,18,4,4,0.7,0.5
2025-09-12T2100,1062A,117.9531,40.9081,承德市,铁路,细颗粒物(PM2.5),78,101,72,57,42,110,,128,124,22,22,2,2,1.0,0.6
2025-09-12T2100,1063A,117.9392,40.9763,承德市,中国银行,颗粒物(PM10),70,90,66,47,37,72,,137,122,33,16,2,2,0.9,0.6
2025-09-12T2100,1064A,117.9503,40.928,承德市,开发区,颗粒物(PM10),71,92,66,49,39,109,,138,132,21,18,5,4,1.0,0.7
2025-09-12T2100,1066A,117.9268,41.0026,承德市,离宫,颗粒物(PM10),58,66,59,32,21,41,,106,84,9,9,5,5,0.7,0.5
2025-09-12T2100,4274A,117.7994,40.9605,承德市,滨河大街98号,细颗粒物(PM2.5),55,53,57,39,36,19,,107,79,8,12,3,5,0.6,0.7
2025-09-12T2100,2314A,117.47,30.6618,池州市,池州学院,,34,34,22,18,9,43,,80,71,11,8,6,6,0.5,0.5
2025-09-12T2100,3237A,117.4918,30.6617,池州市,展览馆,,32,32,21,15,7,44,,80,71,13,9,5,5,0.6,0.6
2025-09-12T2100,3333A,117.5627,30.695,池州市,第八中学,,30,30,18,14,8,38,,79,70,18,7,6,6,0.7,0.6
2025-09-12T2100,3334A,117.5038,30.6243,池州市,第十二中学,,28,28,22,19,9,40,,76,62,16,14,4,4,0.7,0.8
2025-09-12T2100,1744A,118.9233,42.2816,赤峰市,松山一中,,47,47,30,29,12,71,,96,92,29,20,8,7,0.7,0.6
2025-09-12T2100,1745A,118.9576,42.2728,赤峰市,哈达街,颗粒物(PM10),52,53,29,33,14,94,,95,95,20,20,12,12,0.6,0.5
2025-09-12T2100,1746A,118.8788,42.2554,赤峰市,天义路,,46,32,16,32,18,83,,98,90,21,14,10,7,0.5,0.4
2025-09-12T2100,3058A,119.2658,42.0353,赤峰市,银河街,细颗粒物(PM2.5),67,67,61,48,39,76,,108,96,15,12,14,17,1.0,0.9
2025-09-12T2100,3286A,118.9359,42.3147,赤峰市,桥北物流园区,细颗粒物(PM2.5),64,72,34,46,20,50,,89,61,34,23,7,13,0.8,0.7
2025-09-12T2100,2521A,107.3476,22.4136,崇左市,市环保局江州分局,,14,14,25,7,10,33,,76,64,10,12,1,2,0.7,0.9
2025-09-12T2100,4256A,107.3750,22.3736,崇左市,石景林东路7号,,10,,19,3,7,29,,77,66,12,13,4,4,0.4,0.6
2025-09-12T2100,2298A,118.3093,32.3153,滁州市,老年大学,,28,22,34,19,23,48,,94,63,4,10,5,6,0.3,0.4
2025-09-12T2100,2299A,118.3244,32.2786,滁州市,人大宾馆,,23,,22,16,24,59,,97,70,8,12,4,6,0.4,0.5
2025-09-12T2100,3207A,118.3118,32.3038,滁州市,市政府原办公楼,,40,,30,28,34,53,,94,65,6,14,5,7,0.5,0.6
2025-09-12T2100,3331A,118.3267,32.2634,滁州市,图书馆,,23,20,27,16,23,60,,97,70,2,10,10,11,0.4,0.5
2025-09-12T2100,2605A,101.5482,25.0441,楚雄彝族自治州,州环境监测站,,,6,7,3,5,25,,30,28,3,2,7,7,,0.6
2025-09-12T2100,2606A,101.538,25.0492,楚雄彝族自治州,市经济开发区,,18,17,11,12,5,24,,31,29,8,5,7,7,0.8,0.7
2025-09-12T2100,2548A,107.5277,31.2827,达州市,达州职业技术学院,,34,34,22,3,9,4,,13,12,18,9,7,7,0.5,0.4
2025-09-12T2100,2549A,107.5086,31.2186,达州市,市环境监测站,,28,28,19,3,1,21,,30,30,26,18,7,9,0.5,0.5
2025-09-12T2100,2550A,107.4988,31.2132,达州市,凤凰小区,,22,22,14,3,2,21,,32,32,22,15,5,8,0.7,0.5
2025-09-12T2100,2551A,107.5082,31.1986,达州市,达县机关宾馆,,17,17,12,3,4,15,,32,31,32,19,5,8,0.7,0.5
2025-09-12T2100,2552A,107.4644,31.2124,达州市,市政中心,,30,30,23,3,0,21,,27,27,18,14,3,6,0.4,0.3
2025-09-12T2100,2614A,100.1542,25.7054,大理白族自治州,大理市环境监测站,,16,,11,11,13,46,,48,48,11,7,4,4,0.6,0.6
2025-09-12T2100,2615A,100.2171,25.5811,大理白族自治州,大理古城,,,,15,,9,,,60,53,16,7,5,6,0.9,0.8
2025-09-12T2100,1109A,121.612,38.9741,大连市,甘井子,,25,21,33,8,19,78,,120,99,28,16,8,8,0.2,0.4
2025-09-12T2100,1110A,121.565,38.9511,大连市,周水子,,30,30,39,13,20,77,,103,88,17,17,5,7,0.3,0.4
2025-09-12T2100,1111A,121.5637,38.8845,大连市,星海三站,,29,24,29,6,16,92,,122,103,12,12,5,5,0.2,0.3
2025-09-12T2100,1112A,121.6302,38.9117,大连市,青泥洼桥,,20,17,29,8,19,61,,117,92,16,12,8,8,0.4,0.5
2025-09-12T2100,1113A,121.6251,38.8638,大连市,傅家庄,,29,19,27,6,16,90,,123,99,8,8,9,9,0.4,0.5
2025-09-12T2100,1114A,121.5213,38.8661,大连市,七贤岭,,31,23,29,8,16,98,,131,108,9,9,4,5,0.3,0.5
2025-09-12T2100,1115A,121.2529,38.8061,大连市,旅顺,,31,14,31,3,13,99,,132,107,12,7,7,7,0.2,0.3
2025-09-12T2100,1116A,121.7485,39.1311,大连市,金州,,27,15,30,7,13,85,,125,106,15,9,9,9,0.2,0.3
2025-09-12T2100,1117A,121.7811,39.0496,大连市,开发区,,28,28,38,12,22,71,,116,96,23,14,6,6,0.4,0.4
2025-09-12T2100,1118A,121.9762,39.0631,大连市,双D港,,27,16,30,7,20,85,,120,98,4,6,6,6,0.4,0.4
2025-09-12T2100,1789A,124.81117,46.03138,大庆市,大同区,,34,34,38,13,18,41,,104,50,16,9,10,9,0.8,0.8
2025-09-12T2100,1790A,125.129,46.533,大庆市,龙凤区,,33,33,37,8,17,24,,95,49,31,14,6,7,0.7,0.9
2025-09-12T2100,1791A,124.902,46.408,大庆市,红岗区,,27,27,36,12,19,48,,102,55,13,10,7,6,0.5,0.6
2025-09-12T2100,1792A,125.153,46.586,大庆市,萨尔图区,,,41,43,18,19,,,90,47,31,12,9,9,0.5,0.7
2025-09-12T2100,1793A,124.9042,46.6215,大庆市,让胡路区,,35,35,33,17,16,25,,101,47,31,11,6,6,0.4,0.4
2025-09-12T2100,3481A,125.141,46.634,大庆市,萨区政府监测点,,27,27,39,9,13,54,,106,57,13,9,8,8,0.4,0.5
2025-09-12T2100,1721A,113.3819,40.1097,大同市,果树场,,40,40,29,11,16,52,,91,83,16,19,4,5,0.4,0.5
2025-09-12T2100,1723A,113.2994,40.0758,大同市,云冈宾馆,,50,50,31,23,14,56,,105,100,34,16,4,6,0.9,0.9
2025-09-12T2100,1724A,113.3444,40.0917,大同市,大同大学,,41,41,29,23,17,57,,109,103,29,20,6,7,0.6,0.8
2025-09-12T2100,1725A,113.2661,40.1269,大同市,安家小村,,45,45,29,20,12,56,,112,106,36,17,4,5,0.6,0.8
2025-09-12T2100,1726A,113.2711,40.0844,大同市,教育学院,颗粒物(PM10),54,57,33,29,17,51,,108,103,40,19,6,7,0.9,0.8
2025-09-12T2100,3282A,113.3397,40.0597,大同市,大同市卫生学校,,,58,27,29,15,,,103,103,42,17,9,8,0.8,0.8
2025-09-12T2100,3565A,113.1367,40.1122,大同市,云冈站,,48,44,28,33,16,46,,108,100,22,11,4,5,0.6,0.6
2025-09-12T2100,3566A,113.1186,40.2556,大同市,图书馆,,47,47,28,20,16,42,,110,99,19,10,4,5,0.5,0.5
2025-09-12T2100,3567A,113.5931,40.0461,大同市,区一中,,38,33,30,26,17,99,,109,109,11,14,4,4,0.6,0.6
2025-09-12T2100,4199A,113.2798,40.0997,大同市,魏都大道141号,,38,38,29,25,17,68,,108,103,23,17,2,4,0.6,0.8
2025-09-12T2100,2269A,124.1069,50.4097,大兴安岭地区,科技局,,23,23,19,12,8,22,,42,32,4,4,5,5,0.3,0.3
2025-09-12T2100,3663A,124.1164,50.4278,大兴安岭地区,红旗社区,,8,7,6,3,4,24,,46,33,2,5,4,4,0.2,0.2
2025-09-12T2100,1600A,124.3303,40.0625,丹东市,江湾东路,颗粒物(PM10),70,90,54,34,28,32,,92,76,31,17,9,7,1.2,0.9
2025-09-12T2100,1601A,124.4256,40.1503,丹东市,临江后街,颗粒物(PM10),67,84,64,21,25,38,,90,72,24,18,6,7,0.9,0.9
2025-09-12T2100,1602A,124.3933,40.1461,丹东市,元宝山,颗粒物(PM10),60,69,51,22,24,44,,83,70,21,16,6,7,0.8,0.9
2025-09-12T2100,1603A,124.3633,40.1092,丹东市,民主桥,颗粒物(PM10),63,75,50,26,23,24,,90,64,44,25,9,8,0.9,0.8
2025-09-12T2100,3541A,109.5726,19.5167,儋州市,第一中学子站,,15,15,14,3,6,32,,37,37,2,3,6,7,0.3,0.4
2025-09-12T2100,3542A,109.5567,19.5187,儋州市,东坡学校子站,,20,20,10,6,5,33,,40,40,4,4,2,7,0.3,0.4
2025-09-12T2100,2616A,98.5842,24.428,德宏傣族景颇族自治州,德宏州监测站,,21,21,24,14,15,25,,46,41,10,10,6,10,0.8,0.6
2025-09-12T2100,3677A,98.5881,24.4368,德宏傣族景颇族自治州,芒市人民政府综合楼,,30,30,26,7,10,14,,41,34,9,9,5,11,0.6,0.6
2025-09-12T2100,1901A,104.4239,31.1208,德阳市,东山公园,,15,8,8,7,6,48,,68,67,7,7,4,4,0.7,0.6
2025-09-12T2100,1902A,104.3826,31.1317,德阳市,西小区,,17,17,11,9,6,32,,70,68,29,13,1,2,0.8,0.6
2025-09-12T2100,1904A,104.3553,31.1091,德阳市,耐火材料厂,,,32,14,10,6,,,69,69,,13,,5,,0.7
2025-09-12T2100,3639A,104.4019,31.1244,德阳市,市教育局,,19,19,13,8,6,11,,68,62,36,11,3,3,0.8,0.7
2025-09-12T2100,1622A,116.3032,37.4674,德州市,儿童乐园,颗粒物(PM10),57,63,44,24,23,97,,130,122,28,18,11,12,0.7,0.6
2025-09-12T2100,1624A,116.2991,37.4451,德州市,监理站,颗粒物(PM10),53,56,39,24,17,119,,136,132,20,20,30,15,0.5,0.4
2025-09-12T2100,3066A,116.2721,37.4379,德州市,九衢泉纯净水厂,颗粒物(PM10),53,56,43,24,22,103,,126,121,21,29,14,8,0.6,0.5
2025-09-12T2100,3371A,116.3728,37.4403,德州市,开发区人民医院,颗粒物(PM10),53,56,42,24,19,86,,126,117,19,13,11,10,0.8,0.9
2025-09-12T2100,3511A,116.5652,37.3319,德州市,陵城艺术中心,颗粒物(PM10),58,66,52,22,22,99,,144,135,27,26,12,12,0.8,0.6
2025-09-12T2100,4292A,116.3525,37.4209,德州市,新河东路,颗粒物(PM10),56,61,44,27,21,82,,131,119,27,21,10,10,0.9,0.8
2025-09-12T2100,2621A,99.7056,27.8317,迪庆藏族自治州,迪庆州站,,18,16,16,12,11,44,,55,53,9,6,7,7,0.5,0.5
2025-09-12T2100,3180A,99.7136,27.8094,迪庆藏族自治州,质量技术监督局,,15,15,14,3,7,38,,58,54,14,8,8,7,0.5,0.4
2025-09-12T2100,4257A,104.6092,35.5962,定西市,将台街,颗粒物(PM10),55,59,28,22,17,81,,133,123,26,14,7,8,0.4,0.3
2025-09-12T2100,4309A,104.6159,35.5701,定西市,正龙路62号,颗粒物(PM10),51,52,36,29,20,84,,118,114,11,8,5,6,0.4,0.4
2025-09-12T2100,1389A,113.7547,23.0494,东莞市,莞城梨川,,13,6,11,3,8,33,,149,132,26,22,5,5,0.4,0.4
2025-09-12T2100,1390A,113.7944,23.0128,东莞市,东城石井,,20,20,22,10,11,18,,140,119,32,24,5,5,0.5,0.5
2025-09-12T2100,1391A,113.7383,22.9658,东莞市,南城西平,,18,18,17,3,10,33,,132,106,22,27,4,4,0.3,0.4
2025-09-12T2100,3319A,113.7338,23.0381,东莞市,万江金泰,,,,16,,10,,,158,158,,21,,6,,0.6
2025-09-12T2100,3626A,113.7533,23.0202,东莞市,南城元岭,,13,13,17,8,11,32,,145,125,26,24,5,5,0.3,0.4
2025-09-12T2100,3627A,113.7875,23.0457,东莞市,东城主山,,20,18,21,10,10,30,,146,127,39,28,8,7,0.4,0.4
2025-09-12T2100,1666A,118.6614,37.4309,东营市,市环保局,,23,22,30,14,12,71,,133,122,21,20,10,11,0.4,0.4
2025-09-12T2100,3036A,118.6904,37.4338,东营市,开发区管委会,,,,41,,17,,,98,,,20,,13,,0.5
2025-09-12T2100,3365A,118.5719,37.565,东营市,垦利区民丰路,,39,39,38,17,14,71,,119,114,21,23,4,4,0.7,0.7
2025-09-12T2100,3498A,118.5055,37.8612,东营市,河口城区,,40,34,36,24,13,126,,139,139,14,18,6,6,0.7,0.7
2025-09-12T2100,3646A,118.4978,37.4623,东营市,胜利站,,28,26,39,19,16,80,,129,123,23,27,6,7,0.5,0.5
2025-09-12T2100,3734A,118.35,37.26,东营市,理想之城,,24,24,32,12,16,63,,128,118,30,36,4,6,0.4,0.5
2025-09-12T2100,1591A,110.0023,39.8129,鄂尔多斯市,综合楼,,46,46,28,17,12,85,,113,111,21,16,5,5,0.5,0.5
2025-09-12T2100,1592A,109.9486,39.8261,鄂尔多斯市,巴音孟克林场办事处,颗粒物(PM10),54,58,29,22,12,97,,118,118,18,14,6,6,0.3,0.4
2025-09-12T2100,1593A,109.7736,39.5986,鄂尔多斯市,康泽苑,,46,46,35,19,13,78,,107,103,17,13,7,6,0.4,0.4
2025-09-12T2100,1594A,109.8119,39.5989,鄂尔多斯市,华泰汽车城,,36,36,29,22,18,77,,108,104,20,13,5,5,0.5,0.5
2025-09-12T2100,1595A,109.9734,39.7884,鄂尔多斯市,奥林花园,颗粒物(PM10),52,53,31,17,13,71,,107,104,26,15,6,6,0.6,0.6
2025-09-12T2100,2436A,114.8938,30.3994,鄂州市,市政府,,12,12,27,3,5,33,,63,62,11,17,5,7,0.4,0.6
2025-09-12T2100,2437A,114.8989,30.3714,鄂州市,赵家坝,,27,27,34,3,6,43,,82,81,8,14,6,8,0.6,0.9
2025-09-12T2100,3654A,114.8094,30.4089,鄂州市,精准医疗中心,,16,16,29,3,8,50,,71,71,10,23,4,8,0.9,0.8
2025-09-12T2100,2454A,109.4978,30.2981,恩施土家族苗族自治州,湖北民院,,18,15,19,12,7,26,,42,38,13,10,6,6,0.5,0.6
2025-09-12T2100,2455A,109.4707,30.2798,恩施土家族苗族自治州,州电力总公司,,19,18,17,13,8,23,,35,31,10,10,5,5,0.5,0.5
2025-09-12T2100,3549A,109.5061,30.3772,恩施土家族苗族自治州,龙凤新区,,19,16,18,13,6,18,,40,31,16,7,7,6,0.6,0.6
2025-09-12T2100,2499A,108.3411,21.6158,防城港市,沙万,,26,26,20,9,9,21,,52,48,36,12,4,4,0.5,0.5
2025-09-12T2100,2500A,108.3514,21.7731,防城港市,防城档案局,,,25,21,18,8,33,,56,54,14,10,3,3,,0.5
2025-09-12T2100,2501A,108.3506,21.6414,防城港市,大海花园,,32,32,14,10,7,17,,56,50,34,9,8,7,0.3,0.3
2025-09-12T2100,1371A,113.1294,23.0067,佛山市,湾梁,,19,19,20,9,10,56,,146,133,21,20,6,6,0.6,0.6
2025-09-12T2100,1372A,113.1083,23.0478,佛山市,华材职中,,23,17,20,16,11,65,,156,146,14,15,4,4,0.4,0.4
2025-09-12T2100,1373A,113.144,23.0453,佛山市,南海气象局,,29,29,20,14,11,61,,130,121,17,13,7,6,0.6,0.6
2025-09-12T2100,1374A,113.2881,22.8094,佛山市,顺德苏岗,,28,28,20,9,7,30,,85,74,24,16,6,5,0.6,0.6
2025-09-12T2100,1376A,112.8383,22.8678,佛山市,高明孔堂,,28,28,16,10,9,74,,110,108,11,10,3,3,0.3,0.3
2025-09-12T2100,1377A,112.8836,23.1588,佛山市,三水监测站,,34,34,18,12,12,49,,111,107,41,19,6,7,0.4,0.3
2025-09-12T2100,1378A,112.867,23.185,佛山市,三水云东海,,,35,23,17,12,,,119,119,27,18,2,4,0.4,0.6
2025-09-12T2100,3625A,113.2544,22.7642,佛山市,容桂街道办,,13,12,14,9,11,36,,103,88,21,20,7,7,0.7,0.7
2025-09-12T2100,1280A,119.3903,26.0543,福州市,鼓山,,,,27,,15,,,94,,,9,,1,,0.3
2025-09-12T2100,1282A,119.2681,26.0504,福州市,师大,,42,42,35,22,20,117,,130,130,15,12,8,6,0.3,0.4
2025-09-12T2100,1283A,119.2984,26.1028,福州市,五四北路,,48,48,30,21,17,120,,117,117,14,12,6,4,0.3,0.3
2025-09-12T2100,1284A,119.2648,26.0768,福州市,杨桥西路,,43,43,32,26,22,119,,124,124,10,7,5,5,0.3,0.3
2025-09-12T2100,1285A,119.317,26.0746,福州市,紫阳,,44,44,36,21,19,111,,108,108,11,15,5,4,0.4,0.4
2025-09-12T2100,3048A,119.5799,26.0936,福州市,九龙,,32,32,25,17,14,63,,117,102,14,8,4,4,0.7,0.3
2025-09-12T2100,3526A,119.5189,25.9664,福州市,吴航,,35,31,25,18,16,111,,121,118,10,7,6,5,0.3,0.3
2025-09-12T2100,1755A,123.7977,41.8491,抚顺市,望花区,颗粒物(PM10),56,62,51,36,25,43,,128,103,35,23,17,12,0.7,0.9
2025-09-12T2100,1756A,123.9161,41.8822,抚顺市,顺城区,细颗粒物(PM2.5),72,73,48,52,26,27,,140,105,60,27,8,8,0.9,0.9
2025-09-12T2100,1757A,124.0436,41.8611,抚顺市,东洲区,,36,36,39,21,21,51,,133,104,14,10,6,10,0.3,0.3
2025-09-12T2100,1758A,123.9247,41.8642,抚顺市,新抚区,颗粒物(PM10),56,61,51,23,24,36,,136,97,34,24,7,7,1.0,1
2025-09-12T2100,1759A,124.0972,41.8961,抚顺市,大伙房水库,,32,24,31,22,18,39,,133,105,30,10,8,9,0.7,0.6
2025-09-12T2100,1760A,123.7086,41.8391,抚顺市,沈抚新城,颗粒物(PM10),55,60,43,31,21,45,,152,124,37,22,7,9,0.9,0.9
2025-09-12T2100,2376A,116.2127,28.0814,抚州市,桐源党溪,,28,28,25,17,10,38,,61,48,2,2,5,6,0.5,0.6
2025-09-12T2100,2377A,116.3544,27.9831,抚州市,市站,,,22,21,12,7,,,71,69,4,6,2,5,0.5,0.7
2025-09-12T2100,2378A,116.3565,27.963,抚州市,血防站,,29,29,23,14,10,62,,68,64,5,6,4,4,0.5,0.5
2025-09-12T2100,2379A,116.3564,28.0007,抚州市,采茶剧团,,29,29,23,19,9,60,,67,64,2,3,5,5,0.5,0.5
2025-09-12T2100,2380A,116.385,27.9647,抚州市,医学分院,,35,35,25,17,10,62,,69,66,4,7,3,4,0.6,0.6
2025-09-12T2100,2207A,121.6094,41.998,阜新市,工业园区,,38,38,39,25,19,98,,137,127,18,13,10,12,0.5,0.6
2025-09-12T2100,2208A,121.6697,42.0279,阜新市,长青街,,35,29,32,24,21,109,,133,126,13,10,13,12,0.5,0.6
2025-09-12T2100,2209A,121.6673,42.0705,阜新市,农业园区,,35,29,37,24,16,106,,132,126,15,12,8,8,0.6,0.7
2025-09-12T2100,2210A,121.6717,42.0224,阜新市,东苑,,37,37,41,19,16,100,,128,120,18,13,10,9,0.6,0.5
2025-09-12T2100,2211A,121.6506,42.0498,阜新市,玉龙新城,,41,41,36,24,17,94,,128,118,17,11,13,14,0.6,0.6
2025-09-12T2100,2301A,115.8277,32.8929,阜阳市,市监测站,,34,34,13,15,8,61,,73,70,12,9,4,4,0.4,0.3
2025-09-12T2100,2303A,115.8554,32.8605,阜阳市,开发区,,20,19,6,6,5,62,,74,71,11,8,6,6,0.3,0.3
2025-09-12T2100,2875A,115.784,32.8892,阜阳市,阜阳职业技术学院,,29,29,9,3,5,58,,78,74,15,8,6,6,0.4,0.4
2025-09-12T2100,3468A,115.7901,32.8613,阜阳市,市规划展馆,,25,21,11,17,7,55,,79,75,11,10,3,3,0.4,0.4
2025-09-12T2100,3469A,115.836,32.9183,阜阳市,枣园社区,,,18,10,14,7,70,,80,78,10,9,,5,0.3,0.3
2025-09-12T2100,2669A,102.9099,34.9841,甘南藏族自治州,州政府,颗粒物(PM10),88,125,38,27,17,2,,92,75,70,14,6,6,0.4,0.3
2025-09-12T2100,3380A,102.8914,34.9617,甘南藏族自治州,甘肃民族师范学院,颗粒物(PM10),98,146,42,39,19,6,,105,82,70,18,5,4,0.3,0.2
2025-09-12T2100,2570A,101.9603,30.0475,甘孜藏族自治州,水桥子,,18,,8,12,4,39,,56,54,20,18,6,6,0.3,0.4
2025-09-12T2100,3065A,101.9533,29.9972,甘孜藏族自治州,州环保局,,22,22,7,8,4,44,,62,58,18,14,4,4,0.7,0.6
2025-09-12T2100,3414A,115.8347,28.932,赣江新区,桑海产业园,,22,22,21,10,11,35,,86,73,25,19,6,7,0.4,0.5
2025-09-12T2100,2362A,114.9017,25.9149,赣州市,通天岩,,27,27,20,14,9,61,,98,82,5,4,16,16,0.5,0.5
2025-09-12T2100,2363A,114.9367,25.8664,赣州市,地委,,27,27,19,13,11,68,,112,97,14,9,5,7,0.5,0.5
2025-09-12T2100,2364A,114.9461,25.8481,赣州市,气象台,,32,32,22,12,9,65,,102,90,10,5,6,8,0.5,0.5
2025-09-12T2100,2365A,114.9322,25.8333,赣州市,市图书馆,,29,29,18,13,11,62,,97,85,13,9,5,7,0.6,0.6
2025-09-12T2100,2366A,114.8905,25.8471,赣州市,华坚鞋城,,29,29,23,19,11,59,,99,85,10,10,5,6,0.4,0.4
2025-09-12T2100,3109A,115.0093,25.8613,赣州市,赣县区卫计委,颗粒物(PM10),55,60,30,15,15,56,,93,80,13,9,7,7,0.4,0.4
2025-09-12T2100,2683A,106.2319,36.1417,固原市,马园,,,,,,,,,,,,,,,,
2025-09-12T2100,2684A,106.2792,36.0022,固原市,监测站,,46,46,40,8,15,85,,114,107,11,11,7,8,0.4,0.4
2025-09-12T2100,2685A,106.2375,36.0211,固原市,新区,,35,35,42,14,14,79,,107,100,13,8,6,6,0.4,0.3
2025-09-12T2100,3522A,106.2177,35.9959,固原市,原州区十五小,,,50,45,16,16,,,109,107,12,9,10,10,,0.3
2025-09-12T2100,2543A,106.6308,30.5278,广安市,小平旧居,,,,,,,,,,,,,,,,
2025-09-12T2100,2544A,106.6303,30.4576,广安市,市委,,17,15,10,7,14,54,,42,42,9,8,6,5,0.5,0.5
2025-09-12T2100,2545A,106.6271,30.4663,广安市,友谊中学,,20,14,15,10,9,61,,53,53,9,8,4,4,0.6,0.8
2025-09-12T2100,2547A,106.6388,30.4551,广安市,广电花园,,,17,14,6,8,44,,41,41,,8,4,4,0.6,0.6
2025-09-12T2100,2902A,106.6351,30.4865,广安市,北辰小学,,16,9,10,6,9,50,,50,50,6,6,6,6,0.6,0.6
2025-09-12T2100,2523A,105.8945,32.4535,广元市,黑石坡,,36,,9,25,8,31,,57,54,5,9,8,9,0.3,0.4
2025-09-12T2100,2524A,105.821,32.4444,广元市,老城,,,19,12,8,6,43,,71,66,,17,18,7,0.7,0.8
2025-09-12T2100,2526A,105.8628,32.4287,广元市,监测站,,18,,12,12,7,35,,66,60,8,13,7,6,0.7,0.8
2025-09-12T2100,3617A,105.8047,32.4166,广元市,经开区,,15,15,9,3,4,39,,63,60,7,14,6,5,0.7,0.7
2025-09-12T2100,1345A,113.2347,23.1423,广州市,广雅中学,,,24,22,12,10,,,138,138,25,20,4,4,0.6,0.5
2025-09-12T2100,1346A,113.2612,23.105,广州市,市五中,,23,23,18,12,9,47,,129,116,25,19,5,6,0.2,0.2
2025-09-12T2100,1348A,113.3478,23.0916,广州市,广东商学院,,18,18,15,6,8,29,,114,98,24,20,4,4,0.1,0.2
2025-09-12T2100,1349A,113.4332,23.1047,广州市,市八十六中,,23,18,16,8,7,19,,104,89,46,31,4,4,0.5,0.5
2025-09-12T2100,1350A,113.3505,22.9483,广州市,番禺中学,,20,20,15,9,8,30,,101,87,23,14,5,5,0.6,0.6
2025-09-12T2100,1351A,113.2146,23.3916,广州市,花都师范,,49,49,27,24,16,102,,174,168,41,22,5,6,0.7,0.6
2025-09-12T2100,1352A,113.2597,23.1331,广州市,市监测站,,26,26,22,13,10,51,,120,110,20,17,6,7,0.5,0.4
2025-09-12T2100,1353A,113.5618,23.312,广州市,九龙镇镇龙,,26,26,28,14,15,49,,163,154,42,25,8,8,0.4,0.4
2025-09-12T2100,1354A,113.2765,23.1544,广州市,麓湖,,23,23,20,12,11,50,,101,92,21,20,3,4,0.2,0.3
2025-09-12T2100,1355A,113.443,23.3035,广州市,帽峰山森林公园,,21,15,14,6,6,36,,124,117,42,16,11,5,0.7,0.6
2025-09-12T2100,2846A,113.3221,23.1322,广州市,体育西,,24,24,19,13,9,34,,116,103,29,20,4,5,0.4,0.4
2025-09-12T2100,3298A,113.5717,23.5491,广州市,从化街口,颗粒物(PM10),56,62,25,36,14,84,,144,140,28,20,8,8,0.8,0.7
2025-09-12T2100,3299A,113.3472,23.3692,广州市,白云竹料,,23,23,35,12,18,47,,151,139,43,30,4,4,0.5,0.5
2025-09-12T2100,3300A,113.2981,23.237,广州市,白云嘉禾,,26,26,25,11,13,39,,140,126,40,28,4,4,0.4,0.4
2025-09-12T2100,3301A,113.4256,23.1716,广州市,黄埔科学城,,29,29,20,12,10,24,,118,102,33,19,5,4,0.5,0.5
2025-09-12T2100,3302A,113.3942,23.0483,广州市,番禺大学城,,12,7,19,6,8,29,,103,91,23,19,4,6,0.3,0.4
2025-09-12T2100,3303A,113.4922,22.8168,广州市,南沙黄阁,,11,9,21,3,7,34,,82,73,16,18,5,5,0.3,0.3
2025-09-12T2100,3304A,113.5342,22.7896,广州市,南沙街,,17,17,15,7,6,29,,72,65,18,14,5,5,0.3,0.4
2025-09-12T2100,3443A,113.2902,23.5544,广州市,花都梯面,,,47,31,24,16,52,,132,114,39,20,5,5,,0.6
2025-09-12T2100,3445A,113.7858,23.7478,广州市,从化良口,,,25,24,16,16,,,110,109,13,11,4,4,0.6,0.5
2025-09-12T2100,3446A,113.8051,23.2614,广州市,增城荔城,,29,29,23,18,13,74,,186,172,24,21,9,9,0.6,0.5
2025-09-12T2100,2505A,109.568,23.1478,贵港市,德智高中,,,,,,,,,,,,,,,,
2025-09-12T2100,2506A,109.6047,23.0666,贵港市,江南子站,,46,46,26,16,14,29,,50,47,26,13,4,5,0.6,0.6
2025-09-12T2100,2508A,109.5669,23.1065,贵港市,荷城子站,,48,48,17,12,7,15,,52,45,37,13,3,4,0.7,0.5
2025-09-12T2100,3405A,109.5886,23.1172,贵港市,新世纪学校,,39,39,20,17,14,26,,56,49,27,13,3,2,0.6,0.5
2025-09-12T2100,4260A,109.5933,23.0951,贵港市,中山路155-3号,,28,28,24,13,13,36,,58,54,24,11,3,5,0.7,0.6
2025-09-12T2100,1439A,106.6899,26.5998,贵阳市,马鞍山,,22,22,12,12,10,38,,49,48,10,6,3,4,0.2,0.2
2025-09-12T2100,1441A,106.6243,26.6266,贵阳市,鉴湖路,,31,31,24,9,6,33,,42,41,16,11,7,7,0.4,0.4
2025-09-12T2100,1442A,106.7487,26.6343,贵阳市,燕子冲,,20,,10,14,12,34,,49,47,12,10,4,6,0.3,0.3
2025-09-12T2100,1443A,106.6555,26.4365,贵阳市,碧云窝,,31,31,23,9,6,32,,47,45,13,5,7,5,0.4,0.2
2025-09-12T2100,1445A,106.7109,26.6027,贵阳市,红边门,,22,22,19,14,12,32,,45,43,11,10,3,3,0.3,0.3
2025-09-12T2100,1446A,106.7164,26.5699,贵阳市,新华路,,12,12,18,3,7,35,,46,44,12,12,10,8,0.3,0.3
2025-09-12T2100,1447A,106.674,26.5424,贵阳市,太慈桥,,13,12,13,9,6,22,,34,30,11,9,4,4,0.0,0
2025-09-12T2100,1552A,106.805,26.3003,贵阳市,桐木岭,,26,26,25,12,13,41,,53,47,3,4,3,3,1.0,1
2025-09-12T2100,4230A,106.6882,26.5695,贵阳市,花果园大街66号,,25,,4,17,9,30,,44,42,14,8,4,4,0.2,0.2
2025-09-12T2100,4231A,106.6873,26.5169,贵阳市,漓江路57号,,29,29,14,12,7,31,,50,46,13,7,5,5,0.4,0.3
2025-09-12T2100,1862A,110.4144,25.3167,桂林市,电子科大尧山校区,,,,,,,,,,,,,,,,
2025-09-12T2100,1864A,110.3089,25.2708,桂林市,龙隐路小学,,26,,18,18,8,24,,53,45,14,8,4,4,0.3,0.3
2025-09-12T2100,1865A,110.2869,25.2178,桂林市,八中,,19,17,17,13,7,23,,54,47,17,8,5,6,0.4,0.3
2025-09-12T2100,3531A,110.296,25.1253,桂林市,旅游学院,,25,19,13,17,6,34,,52,47,6,8,4,5,0.3,0.3
2025-09-12T2100,4222A,110.1835,25.2444,桂林市,环湖路276号,,22,22,19,12,11,40,,56,53,10,12,5,7,0.3,0.3
2025-09-12T2100,4301A,110.2803,25.2773,桂林市,信义路13号,,23,23,17,3,7,31,,56,48,12,9,5,6,0.4,0.4
2025-09-12T2100,2674A,100.2561,34.4714,果洛藏族自治州,玛沁县大武镇,,,66,31,29,16,64,,101,97,7,4,21,18,,0
2025-09-12T2100,1129A,126.5422,45.755,哈尔滨市,岭北,,21,19,33,9,20,67,,120,100,11,12,6,6,0.7,0.9
2025-09-12T2100,1130A,126.561,45.8167,哈尔滨市,松北商大,,23,23,40,15,21,29,,98,72,22,10,6,6,0.5,0.5
2025-09-12T2100,1131A,126.979,45.5419,哈尔滨市,阿城会宁,"颗粒物(PM10),细颗粒物(PM2.5)",58,65,48,41,23,34,,113,86,14,8,6,7,0.6,0.7
2025-09-12T2100,1132A,126.599,45.7222,哈尔滨市,南岗学府路,,44,44,51,14,18,51,,101,85,19,12,8,9,0.5,0.5
2025-09-12T2100,1133A,126.689,45.7733,哈尔滨市,太平宏伟公园,,33,31,47,23,20,55,,101,88,12,10,8,9,0.5,0.5
2025-09-12T2100,1134A,126.635,45.7667,哈尔滨市,道外承德广场,,40,40,56,16,16,50,,95,80,15,13,7,8,0.4,0.5
2025-09-12T2100,1135A,126.685,45.7319,哈尔滨市,香坊红旗大街,,50,48,46,35,26,58,,101,89,21,19,6,7,0.7,0.7
2025-09-12T2100,1136A,126.6411,45.7258,哈尔滨市,动力和平路,,32,32,51,20,32,56,,104,89,18,13,4,5,0.5,0.6
2025-09-12T2100,1137A,126.593,45.7478,哈尔滨市,道里建国路,,35,,42,24,24,42,,97,79,25,17,6,8,0.5,0.7
2025-09-12T2100,1138A,126.615,45.61,哈尔滨市,平房东轻厂,,47,47,45,23,20,27,,96,74,44,13,10,9,0.5,0.5
2025-09-12T2100,1139A,126.595,45.9855,哈尔滨市,呼兰师专,,,31,39,,1,23,,98,63,31,12,8,8,0.7,0.9
2025-09-12T2100,1140A,126.6206,45.6842,哈尔滨市,省农科院,颗粒物(PM10),51,52,72,21,21,49,,88,72,23,20,5,6,0.7,0.8
2025-09-12T2100,2688A,93.5128,42.8172,哈密市,地区监测站,颗粒物(PM10),82,113,64,28,21,47,,96,91,53,24,3,3,0.6,0.3
2025-09-12T2100,2689A,93.4961,42.8328,哈密市,哈密师范学校,颗粒物(PM10),78,106,66,23,23,59,,98,94,31,29,4,6,0.4,0.3
2025-09-12T2100,2671A,100.9048,36.9639,海北藏族自治州,海晏县西海镇,,41,41,22,19,15,78,,104,100,8,5,10,10,0.4,0.4
2025-09-12T2100,3867A,102.0738,36.5056,海东市,平安区公安北苑,颗粒物(PM10),55,59,34,31,16,62,,109,100,8,9,7,11,0.6,0.7
2025-09-12T2100,1409A,110.576,19.9507,海口市,东寨港,,,,,,,,,,,,,,,,
2025-09-12T2100,1410A,110.3232,20.0574,海口市,海南大学,,11,11,10,6,6,34,,48,46,3,3,3,3,0.3,0.3
2025-09-12T2100,1411A,110.283,20.0053,海口市,秀英海南医院,,11,11,15,3,7,32,,49,45,5,9,6,6,0.2,0.3
2025-09-12T2100,1412A,110.338,19.9969,海口市,海南师范大学,,13,13,14,3,6,33,,51,47,4,5,4,4,0.3,0.3
2025-09-12T2100,1413A,110.33,20.0356,海口市,龙华路环保局宿舍,,13,13,11,6,6,33,,49,46,5,5,6,6,0.1,0.1
2025-09-12T2100,3539A,110.5111,19.9736,海口市,桂林洋子站,,12,11,15,8,7,28,,43,41,5,7,8,5,0.2,0.2
2025-09-12T2100,2673A,100.6188,36.2866,海南藏族自治州,共和县恰卜恰镇,颗粒物(PM10),69,87,36,13,14,34,,115,104,36,7,17,12,0.5,0.4
2025-09-12T2100,2676A,97.3731,37.3753,海西蒙古族藏族自治州,德令哈市,,,64,49,27,21,102,,109,109,4,3,7,8,,0.4
2025-09-12T2100,1048A,114.5302,36.6116,邯郸市,东污水处理厂,颗粒物(PM10),51,52,26,27,23,94,,136,129,22,12,6,7,0.4,0.3
2025-09-12T2100,1049A,114.4918,36.5713,邯郸市,矿院,,45,34,25,31,24,103,,141,137,17,13,5,6,0.4,0.3
2025-09-12T2100,1050A,114.484,36.6133,邯郸市,丛台公园,,46,46,21,24,16,116,,145,143,15,11,9,10,0.4,0.3
2025-09-12T2100,3458A,114.7895,36.5593,邯郸市,香泉濮院小区,颗粒物(PM10),64,78,38,17,12,101,,134,128,17,12,4,5,0.5,0.3
2025-09-12T2100,3579A,114.50634,36.77178,邯郸市,永年区实验高中,颗粒物(PM10),54,57,34,25,16,72,,129,120,31,15,4,5,0.7,0.7
2025-09-12T2100,3580A,114.20016,36.44293,邯郸市,峰峰矿区临水派出所,,39,32,32,17,16,122,,143,141,16,12,5,6,0.3,0.3
2025-09-12T2100,2634A,106.9893,33.1842,汉中市,汉川机床厂子校,,35,35,22,18,4,46,,83,78,7,7,4,4,0.4,0.5
2025-09-12T2100,2635A,107.0154,33.0706,汉中市,市监测站,,15,9,9,3,5,46,,74,68,8,6,6,6,0.7,0.6
2025-09-12T2100,2636A,107.0089,33.1138,汉中市,鑫源开发区,,13,13,14,7,5,36,,78,72,13,10,6,6,0.5,0.5
2025-09-12T2100,2637A,107.007,33.0323,汉中市,南郑大河坎水厂,,18,18,9,8,4,20,,65,57,22,8,6,6,0.6,0.6
2025-09-12T2100,1223A,120.2072,30.2111,杭州市,滨江,,25,22,40,17,24,47,,117,84,26,23,7,8,0.6,0.5
2025-09-12T2100,1224A,120.0633,30.2747,杭州市,西溪,,25,25,32,12,19,9,,90,42,19,19,6,3,0.5,0.5
2025-09-12T2100,1226A,120.3417,30.3150,杭州市,下沙,,26,26,34,12,19,22,,122,68,34,20,5,7,0.4,0.5
2025-09-12T2100,1227A,120.1269,30.2456,杭州市,卧龙桥,,18,18,32,9,19,13,,94,45,9,11,7,8,0.6,0.6
2025-09-12T2100,1228A,120.1903,30.2692,杭州市,浙江农大,,25,21,43,17,24,16,,87,51,37,33,5,6,0.8,0.7
2025-09-12T2100,1230A,120.1197,30.3119,杭州市,和睦小学,,26,26,32,17,19,26,,104,56,28,20,5,6,0.7,0.6
2025-09-12T2100,1231A,120.3019,30.4183,杭州市,临平镇,,33,33,43,13,18,5,,136,67,50,25,6,6,0.7,0.6
2025-09-12T2100,1232A,120.2753,30.1839,杭州市,城厢镇,,18,18,41,11,25,28,,106,78,8,8,3,4,0.6,0.6
2025-09-12T2100,1233A,120.0883,30.1808,杭州市,云栖,,,16,34,,22,19,,102,61,21,20,4,5,0.7,0.7
2025-09-12T2100,3557A,119.9464,30.0494,杭州市,镇二中,,49,49,38,34,26,16,,83,52,29,22,4,5,0.7,0.7
2025-09-12T2100,3558A,119.7183,30.2367,杭州市,市府大楼,,29,29,36,9,20,36,,74,56,10,12,8,8,0.3,0.4
2025-09-12T2100,3656A,120.1556,30.2864,杭州市,消防大队,,25,25,35,13,22,33,,104,67,22,19,7,8,0.7,0.7
2025-09-12T2100,1270A,117.1959,31.7848,合肥市,明珠广场,,,7,25,7,15,,,62,50,12,16,6,7,0.5,0.6
2025-09-12T2100,1271A,117.3072,31.8764,合肥市,三里街,,20,9,26,3,15,64,,58,58,8,16,6,6,0.5,0.6
2025-09-12T2100,1272A,117.2588,31.8707,合肥市,琥珀山庄,,21,12,26,9,18,65,,64,60,9,12,8,8,0.6,0.7
2025-09-12T2100,1273A,117.1604,31.9052,合肥市,董铺水库,,19,9,27,3,18,60,,61,55,2,7,4,4,0.2,0.3
2025-09-12T2100,1274A,117.25,31.8571,合肥市,长江中路,,21,12,27,3,13,66,,67,60,5,9,6,6,0.5,0.6
2025-09-12T2100,1275A,117.266,31.9436,合肥市,庐阳区,,21,14,30,12,16,66,,65,65,8,15,5,6,0.5,0.6
2025-09-12T2100,1276A,117.3453,31.8616,合肥市,瑶海区,,20,9,28,3,13,63,,65,61,14,17,7,7,0.6,0.7
2025-09-12T2100,1277A,117.3027,31.7964,合肥市,包河区,,19,12,27,3,14,60,,66,57,15,21,8,9,0.5,0.7
2025-09-12T2100,1278A,117.2776,31.7385,合肥市,滨湖新区,,20,,23,9,19,63,,72,54,11,12,4,5,0.6,0.7
2025-09-12T2100,1279A,117.1318,31.8403,合肥市,高新区,,20,9,24,9,15,63,,70,58,12,13,5,6,0.6,0.7
2025-09-12T2100,3464A,117.3803,31.9147,合肥市,高教基地,,20,,26,9,19,63,,65,61,8,13,6,7,0.5,0.6
2025-09-12T2100,3614A,79.924,37.0877,和田地区,地区环保局,颗粒物(PM10),150,249,297,76,92,80,,106,105,22,12,4,5,0.7,0.7
2025-09-12T2100,3615A,79.9131,37.113,和田地区,市环保局,颗粒物(PM10),138,226,279,60,78,48,,110,104,61,30,3,4,0.2,0.4
2025-09-12T2100,2516A,108.2011,24.715,河池市,东仁乐园,,,,,,,,,,,,,,,,
2025-09-12T2100,2517A,108.0497,24.6947,河池市,市环保站,,20,20,14,8,6,8,,51,41,18,8,5,6,0.6,0.5
2025-09-12T2100,2518A,108.0983,24.6989,河池市,市疾控中心,,19,19,13,8,6,8,,49,40,26,12,7,8,0.6,0.5
2025-09-12T2100,1696A,114.6778,23.7569,河源市,源西,,20,20,16,9,10,59,,74,62,12,12,5,5,0.6,0.6
2025-09-12T2100,1697A,114.6944,23.7586,河源市,东埔,,19,18,17,10,9,58,,71,66,11,10,4,5,0.8,0.7
2025-09-12T2100,1698A,114.6892,23.7233,河源市,老城,,27,27,22,3,10,64,,79,69,11,8,5,6,0.7,0.7
2025-09-12T2100,1718A,115.4208,35.2464,菏泽市,气象局,颗粒物(PM10),59,67,29,38,17,73,,121,113,36,11,2,2,0.5,0.3
2025-09-12T2100,3374A,115.5564,35.0891,菏泽市,定陶老年大学,颗粒物(PM10),62,73,22,39,10,56,,102,96,27,9,4,5,0.5,0.2
2025-09-12T2100,4184A,115.4797,35.24401,菏泽市,永昌路1号,颗粒物(PM10),55,59,26,36,18,96,,118,114,16,8,9,7,0.4,0.2
2025-09-12T2100,4193A,115.4715,35.2800,菏泽市,长城路999号,颗粒物(PM10),58,66,25,34,14,70,,118,109,33,15,11,11,0.4,0.2
2025-09-12T2100,2514A,111.5264,24.4172,贺州市,环保小区,,19,19,20,10,14,45,,63,59,8,11,12,14,0.8,0.8
2025-09-12T2100,2515A,111.5608,24.4078,贺州市,政协大楼,,,,21,,13,33,,76,65,19,11,9,13,0.6,0.7
2025-09-12T2100,3534A,111.4744,24.4553,贺州市,西湾,,22,15,23,15,11,37,,55,53,11,13,12,11,0.4,0.4
2025-09-12T2100,2385A,114.17,35.9019,鹤壁市,市监测站,,44,44,35,27,24,73,,127,118,16,12,8,7,0.6,0.5
2025-09-12T2100,2386A,114.2956,35.7511,鹤壁市,市交警支队,,,62,26,25,19,,,116,108,,19,,3,,0.6
2025-09-12T2100,2387A,114.2878,35.7306,鹤壁市,迎宾馆,颗粒物(PM10),52,54,33,30,16,48,,118,105,45,13,2,3,0.8,0.5
2025-09-12T2100,3474A,114.2617,35.6822,鹤壁市,大新区,,24,24,27,9,8,38,,115,101,37,10,5,5,0.6,0.5
2025-09-12T2100,3596A,114.1572,35.9603,鹤壁市,南山宾馆,,50,50,33,31,27,98,,136,132,22,13,10,5,0.6,0.7
2025-09-12T2100,2244A,130.2537,47.3416,鹤岗市,哈啤分公司,,38,38,26,22,15,57,,57,57,9,13,12,12,0.4,0.3
2025-09-12T2100,2245A,130.2684,47.3086,鹤岗市,斯达机电,,40,40,22,16,10,67,,67,67,12,11,12,12,0.5,0.4
2025-09-12T2100,2246A,130.3114,47.3388,鹤岗市,东山纸板厂,,47,47,28,26,16,57,,52,47,16,16,13,12,1.2,0.6
2025-09-12T2100,2247A,130.1097,47.3382,鹤岗市,五号水库,,,,7,,6,,,33,,,11,,6,,0.3
2025-09-12T2100,2263A,127.4833,50.2524,黑河市,交通局,,24,24,19,13,8,37,,55,44,7,11,7,6,0.5,0.5
2025-09-12T2100,2264A,127.5144,50.2341,黑河市,环保局,颗粒物(PM10),73,95,30,16,9,39,,63,52,9,9,4,4,0.6,0.5
2025-09-12T2100,2265A,127.5291,50.2472,黑河市,大黑河岛,,,,,12,7,40,,50,47,2,2,19,19,0.4,0.3
2025-09-12T2100,1074A,115.6838,37.7541,衡水市,电机北厂,颗粒物(PM10),58,65,42,38,19,90,,111,108,20,11,6,6,0.4,0.4
2025-09-12T2100,1075A,115.6303,37.7316,衡水市,市监测站,颗粒物(PM10),57,64,45,24,18,67,,111,107,30,13,8,9,0.7,0.5
2025-09-12T2100,3188A,115.6683,37.7217,衡水市,市城管局,颗粒物(PM10),75,99,49,31,23,60,,119,113,46,15,9,10,0.8,0.6
2025-09-12T2100,3459A,115.5989,37.5491,衡水市,地表水厂,颗粒物(PM10),63,75,52,27,22,50,,113,100,42,28,3,4,0.4,0.3
2025-09-12T2100,2456A,112.5003,26.9167,衡阳市,原169医院,,31,31,22,16,10,46,,69,60,11,9,5,6,0.6,0.6
2025-09-12T2100,2457A,112.6194,26.9258,衡阳市,衡阳化工总厂,,43,36,26,30,16,43,,69,59,10,9,4,11,0.9,0.9
2025-09-12T2100,2458A,112.6211,26.8956,衡阳市,珠晖区环保局,,38,38,24,16,12,42,,69,60,10,9,8,17,0.8,0.7
2025-09-12T2100,2459A,112.6197,26.8733,衡阳市,市委党校,,38,38,21,16,12,42,,68,60,10,9,7,8,0.6,0.5
2025-09-12T2100,2460A,112.6006,26.8919,衡阳市,市监测站,,35,29,25,24,15,43,,69,58,10,10,4,12,0.8,0.8
2025-09-12T2100,2461A,112.5664,26.9056,衡阳市,真空机电公司,,37,37,21,15,12,42,,65,55,8,8,5,11,0.9,0.9
2025-09-12T2100,3399A,112.6703,26.882,衡阳市,师范学院,,48,,25,33,14,42,,68,59,9,9,3,6,0.9,0.8
2025-09-12T2100,2608A,103.3772,23.3993,红河哈尼族彝族自治州,污水处理厂,,20,20,14,13,11,25,,34,32,7,6,8,8,0.3,0.3
2025-09-12T2100,2609A,103.3861,23.35,红河哈尼族彝族自治州,监测站,,17,17,18,7,10,29,,36,34,2,2,10,11,0.1,0.2
2025-09-12T2100,3038A,103.3758,23.368,红河哈尼族彝族自治州,州图书馆,,32,,8,22,12,32,,38,36,5,5,2,2,0.2,0.2
2025-09-12T2100,1090A,111.6507,40.7517,呼和浩特市,呼市一监,"颗粒物(PM10),细颗粒物(PM2.5)",54,58,18,38,13,58,,110,103,25,12,7,7,0.6,0.3
2025-09-12T2100,1091A,111.6572,40.8033,呼和浩特市,小召,颗粒物(PM10),54,58,20,24,14,77,,105,102,32,18,6,5,0.6,0.5
2025-09-12T2100,1094A,111.7516,40.8369,呼和浩特市,如意水处理厂,,44,44,22,23,12,43,,114,105,54,16,6,7,0.6,0.4
2025-09-12T2100,1095A,111.7276,40.8062,呼和浩特市,二十九中,颗粒物(PM10),52,53,24,26,12,44,,117,108,55,14,7,7,1.0,0.6
2025-09-12T2100,1096A,111.5512,40.7866,呼和浩特市,工大金川校区,颗粒物(PM10),60,70,29,14,11,20,,105,89,69,22,6,6,0.7,0.5
2025-09-12T2100,1097A,111.717,40.7612,呼和浩特市,化肥厂生活区,颗粒物(PM10),55,60,23,32,12,39,,117,105,57,16,6,6,0.8,0.4
2025-09-12T2100,3698A,111.5968,40.8178,呼和浩特市,红旗小学,,34,34,21,16,12,45,,110,98,42,21,5,5,0.3,0.3
2025-09-12T2100,3699A,111.6518,40.8389,呼和浩特市,海东办,颗粒物(PM10),56,61,24,21,12,40,,116,107,60,19,6,6,0.7,0.4
2025-09-12T2100,2192A,119.7594,49.2261,呼伦贝尔市,区环保局,,30,30,29,16,17,40,,57,49,10,8,5,5,0.5,0.5
2025-09-12T2100,3061A,119.7512,49.1577,呼伦贝尔市,国华电力东,,25,25,18,13,11,36,,62,54,9,6,5,5,0.2,0.2
2025-09-12T2100,1250A,120.0751,30.8669,湖州市,城西水厂,,24,18,37,11,23,18,,120,56,47,31,7,7,0.2,0.4
2025-09-12T2100,2873A,120.0830,30.8929,湖州市,仁皇山新区,,22,20,35,7,19,11,,112,52,44,25,4,5,0.4,0.5
2025-09-12T2100,2907A,120.1844,30.8596,湖州市,吴兴区站,,25,25,37,14,23,19,,132,66,33,22,8,8,0.6,0.6
2025-09-12T2100,3562A,120.4148,30.8538,湖州市,南浔区站,,,20,34,14,26,41,,124,80,22,15,6,7,,0.8
2025-09-12T2100,1607A,120.9049,40.7211,葫芦岛市,龙港区,,46,,32,32,22,79,,136,123,14,7,6,6,0.6,0.6
2025-09-12T2100,1608A,120.8392,40.7514,葫芦岛市,化工街,颗粒物(PM10),52,53,32,31,18,49,,123,110,56,21,7,7,0.7,0.6
2025-09-12T2100,1609A,120.8341,40.7073,葫芦岛市,新区,,50,49,32,35,25,56,,129,114,46,13,4,5,0.8,0.7
2025-09-12T2100,1610A,120.8695,40.7677,葫芦岛市,东城区,细颗粒物(PM2.5),60,53,38,43,25,50,,129,114,60,21,5,6,0.8,0.7
2025-09-12T2100,2482A,109.5981,27.5721,怀化市,林科所,,19,19,15,8,4,23,,48,36,11,7,4,4,0.7,0.7
2025-09-12T2100,2483A,109.9453,27.5444,怀化市,河西地税局,,29,29,15,20,10,8,,41,29,13,7,4,5,0.3,0.3
2025-09-12T2100,2484A,109.9781,27.5342,怀化市,市四医院,,39,39,20,17,10,7,,48,34,24,7,6,7,0.7,0.5
2025-09-12T2100,2485A,109.9972,27.5578,怀化市,监测楼,,35,29,20,24,10,21,,54,42,18,7,4,5,0.1,0.1
2025-09-12T2100,2486A,110.0394,27.583,怀化市,市委党校,,19,19,16,12,11,24,,46,38,8,10,4,5,0.3,0.3
2025-09-12T2100,1210A,119.036,33.5981,淮安市,钵池山,,20,,17,14,14,58,,71,71,9,14,6,6,0.8,0.7
2025-09-12T2100,1211A,119.007,33.575,淮安市,北京南路,,22,,20,15,19,52,,68,68,9,13,6,6,0.7,0.8
2025-09-12T2100,1212A,118.989,33.6067,淮安市,市监测站,,17,7,24,7,18,53,,74,74,14,16,9,9,0.5,0.5
2025-09-12T2100,1213A,119.135,33.5039,淮安市,楚州区监测站,,23,,33,16,14,64,,86,86,8,14,7,7,0.5,0.7
2025-09-12T2100,3426A,118.8755,33.2894,淮安市,新华书店,,24,,23,10,16,74,,100,93,7,10,6,6,0.6,0.7
2025-09-12T2100,4206A,119.0288,33.6319,淮安市,承德北路606号,,23,,30,16,14,54,,66,66,9,16,6,6,0.4,0.5
2025-09-12T2100,2282A,116.8004,33.975,淮北市,监测站,,25,,9,7,4,78,,101,83,10,9,7,7,0.9,0.9
2025-09-12T2100,2283A,116.8091,33.9007,淮北市,烈山区政府,,25,13,10,3,1,77,,100,84,10,7,7,7,0.5,0.4
2025-09-12T2100,3330A,116.8873,33.9836,淮北市,杜集区检察院,,25,21,7,17,8,73,,102,79,1,3,8,8,0.7,0.6
2025-09-12T2100,4017A,116.7923,33.9535,淮北市,市博物馆,,25,15,12,13,6,80,,105,84,11,10,6,6,0.5,0.5
2025-09-12T2100,2277A,116.8305,32.7727,淮南市,潘集区政府,,27,18,16,10,12,86,,76,76,4,10,2,2,0.3,0.3
2025-09-12T2100,2279A,116.8569,32.5951,淮南市,谢家集区政府,,23,9,18,9,14,71,,64,64,2,8,6,6,0.2,0.3
2025-09-12T2100,2280A,116.8281,32.633,淮南市,八公山区政府,,23,18,23,12,18,71,,65,65,4,8,6,6,0.2,0.3
2025-09-12T2100,2281A,116.6325,32.6201,淮南市,焦岗湖风景区管理处,,,,,,,,,,,,,,,,
2025-09-12T2100,2894A,117.0566,32.6531,淮南市,经济技术开发区消防队,,21,16,21,7,7,66,,59,59,7,12,7,8,0.2,0.3
2025-09-12T2100,3329A,117.0108,32.5893,淮南市,山南新区,,26,26,21,8,12,70,,64,64,8,12,4,4,0.3,0.4
2025-09-12T2100,4209A,117.0031,32.6445,淮南市,国庆中路369号,,25,20,33,17,22,72,,61,61,5,10,5,5,0.3,0.4
2025-09-12T2100,2446A,114.9028,30.4742,黄冈市,职工中心,,15,10,20,9,13,45,,66,66,10,16,5,7,0.5,0.6
2025-09-12T2100,2929A,114.8858,30.4519,黄冈市,红卫路,,13,13,24,6,13,40,,68,68,11,18,4,7,0.4,0.5
2025-09-12T2100,3398A,114.9136,30.4445,黄冈市,市林业局,,14,13,23,3,12,42,,73,72,11,18,4,7,0.4,0.5
2025-09-12T2100,2672A,102.0199,35.5102,黄南藏族自治州,同仁县隆务镇,颗粒物(PM10),53,56,26,12,10,69,,96,93,11,4,9,9,0.3,0.3
2025-09-12T2100,2295A,118.2903,29.6963,黄山市,延安路89号,,27,27,24,3,7,15,,60,45,11,7,4,3,0.5,0.4
2025-09-12T2100,2297A,118.1371,30.2756,黄山市,黄山区政府5号楼,,29,29,20,13,8,25,,60,51,5,2,4,4,0.4,0.4
2025-09-12T2100,4210A,118.3354,29.7203,黄山市,滨江东路7-2号,,30,30,25,10,6,14,,59,40,10,7,2,2,0.4,0.4
2025-09-12T2100,2423A,115.0601,30.2313,黄石市,沈家营,,49,49,56,12,12,39,,85,84,12,23,7,6,0.9,0.8
2025-09-12T2100,2426A,114.8988,30.2019,黄石市,铁山,,39,39,28,6,10,33,,78,73,13,13,5,6,0.2,0.4
2025-09-12T2100,2427A,115.0307,30.2092,黄石市,团城山,,46,46,35,10,10,33,,83,82,15,19,8,8,1.1,0.8
2025-09-12T2100,3149A,115.0235,30.1578,黄石市,笔架山北路,,28,28,31,9,7,43,,77,75,14,14,9,10,1.2,0.7
2025-09-12T2100,4185A,115.0780,30.21118,黄石市,磁湖东路29号,颗粒物(PM10),51,51,62,16,13,43,,86,84,20,31,9,11,0.8,0.8
2025-09-12T2100,1392A,114.4183,23.0528,惠州市,河南岸金山湖子站,,,16,18,6,11,,,84,76,12,10,,8,0.4,0.5
2025-09-12T2100,1393A,114.4053,23.0822,惠州市,下埔横江三路子站,,17,17,17,11,8,38,,89,75,14,11,6,6,0.5,0.5
2025-09-12T2100,1394A,114.4103,23.1142,惠州市,江北云山西路子站,,20,20,18,8,9,34,,102,86,24,16,9,8,0.6,0.5
2025-09-12T2100,1395A,114.4645,22.7833,惠州市,惠阳区承修路船湖子站,,14,8,13,3,7,43,,62,54,9,11,7,8,0.5,0.5
2025-09-12T2100,1396A,114.5317,22.7422,惠州市,大亚湾管委会子站,,16,12,16,3,7,50,,58,55,8,11,8,8,0.4,0.4
2025-09-12T2100,3314A,114.4338,22.8134,惠州市,惠阳秋长,,,14,18,3,8,,,73,65,13,13,10,8,0.4,0.5
2025-09-12T2100,3452A,114.6517,22.775,惠州市,大亚湾霞涌,,22,,12,6,7,68,,66,66,8,10,7,7,0.4,0.4
2025-09-12T2100,2240A,130.9762,45.3001,鸡西市,环保局,颗粒物(PM10),61,72,37,30,16,8,,96,69,57,22,7,7,1.2,0.7
2025-09-12T2100,2243A,130.9429,45.3039,鸡西市,第一中学,,47,47,33,22,13,60,,98,88,20,13,10,9,0.8,0.7
2025-09-12T2100,3707A,131.0207,45.3073,鸡西市,欧美日汽修厂,颗粒物(PM10),81,112,52,32,17,12,,94,64,39,19,9,9,1.0,0.9
2025-09-12T2100,3709A,130.9967,45.3106,鸡西市,市政设施管理处,颗粒物(PM10),76,102,48,50,21,16,,106,72,46,24,8,8,1.0,0.9
2025-09-12T2100,2367A,114.9754,27.0803,吉安市,红声器材厂,,27,27,25,9,11,55,,94,76,8,7,8,8,0.3,0.4
2025-09-12T2100,2368A,114.9658,27.0999,吉安市,市森林工业局,,21,21,25,10,11,46,,93,73,9,9,7,7,0.3,0.4
2025-09-12T2100,2369A,114.99,27.1312,吉安市,市环境监测站,,21,21,22,9,10,57,,104,84,4,5,10,12,0.4,0.5
2025-09-12T2100,2370A,115.0093,27.0968,吉安市,青原区法院,,20,20,28,8,12,52,,98,78,7,7,11,9,0.3,0.5
2025-09-12T2100,1772A,126.54,43.8622,吉林市,哈达湾,,48,48,34,21,19,103,,120,119,16,10,8,7,0.5,0.4
2025-09-12T2100,1773A,126.5844,43.8358,吉林市,东局子,颗粒物(PM10),55,60,43,28,21,91,,113,110,21,12,6,6,0.9,0.8
2025-09-12T2100,1774A,126.5052,43.8245,吉林市,电力学院,颗粒物(PM10),62,73,41,32,22,87,,108,106,18,13,7,7,0.8,0.7
2025-09-12T2100,1775A,126.6133,43.8972,吉林市,江北,,41,41,33,28,20,87,,107,101,20,11,7,6,1.0,0.5
2025-09-12T2100,1776A,126.555,43.8306,吉林市,江南公园,,44,44,34,21,20,97,,112,109,14,7,3,3,0.5,0.4
2025-09-12T2100,1778A,126.7061,43.7133,吉林市,丰满,,40,30,24,21,19,125,,138,133,6,4,6,6,1.0,1
2025-09-12T2100,2868A,126.4739,43.953,吉林市,九站,,40,40,36,22,18,74,,115,102,23,12,4,4,0.4,0.5
2025-09-12T2100,1299A,116.9862,36.6114,济南市,科干所,颗粒物(PM10),54,58,53,34,28,118,,126,126,23,28,10,11,0.7,0.7
2025-09-12T2100,1300A,116.9376,36.665,济南市,农科所,颗粒物(PM10),56,61,52,24,24,107,,125,122,29,28,11,11,0.7,0.6
2025-09-12T2100,1301A,117.1265,36.6734,济南市,开发区,颗粒物(PM10),58,66,58,37,31,105,,126,123,32,30,10,12,0.8,0.8
2025-09-12T2100,1303A,117.0624,36.6868,济南市,省种子仓库,颗粒物(PM10),63,75,68,34,31,108,,131,127,30,26,7,11,0.8,0.7
2025-09-12T2100,1304A,116.9489,36.6447,济南市,机床二厂,颗粒物(PM10),59,68,61,39,30,109,,126,123,26,29,13,14,0.4,0.5
2025-09-12T2100,1305A,117.0495,36.663,济南市,市监测站,颗粒物(PM10),59,68,60,39,33,107,,120,118,27,27,4,10,0.9,0.8
2025-09-12T2100,1306A,116.7675,36.5484,济南市,长清党校,颗粒物(PM10),58,66,59,32,27,106,,123,122,24,32,9,9,0.7,0.7
2025-09-12T2100,1616A,117.6795,36.229,济南市,技术学院,,20,19,14,7,12,61,,88,81,26,17,9,10,0.6,0.6
2025-09-12T2100,1961A,117.532,36.6868,济南市,东山小学,颗粒物(PM10),61,71,52,22,22,63,,129,120,37,31,8,9,0.7,0.6
2025-09-12T2100,3059A,117.7161,36.2049,济南市,泰兴公司,,25,22,19,7,11,15,,79,66,50,19,10,10,0.5,0.6
2025-09-12T2100,3064A,117.6867,36.2171,济南市,莱芜战役纪念馆,,27,27,20,15,13,48,,78,72,31,20,7,8,0.6,0.6
2025-09-12T2100,3494A,117.1673,36.9782,济南市,济阳区政府,颗粒物(PM10),70,90,64,46,29,84,,140,131,44,27,10,12,0.6,0.4
2025-09-12T2100,3495A,117.1171,36.63,济南市,锦屏中学,颗粒物(PM10),55,59,50,27,23,74,,124,119,28,25,11,13,1.0,1
2025-09-12T2100,3682A,116.9814,36.6819,济南市,济南四建,颗粒物(PM10),56,61,53,34,29,108,,127,123,21,25,8,9,0.8,0.7
2025-09-12T2100,1653A,116.6251,35.4302,济宁市,火炬城,,22,22,17,9,5,58,,87,83,13,7,4,5,0.4,0.2
2025-09-12T2100,1655A,116.5491,35.4042,济宁市,电化厂,,32,32,19,17,7,41,,91,83,29,10,3,2,0.5,0.3
2025-09-12T2100,3500A,116.5814,35.3707,济宁市,北湖一中,,20,19,14,14,6,51,,83,79,15,6,3,4,0.5,0.3
2025-09-12T2100,3501A,116.8249,35.5593,济宁市,服务中心,,21,21,16,7,1,46,,82,77,17,9,4,4,0.5,0.2
2025-09-12T2100,3678A,116.5907,35.4054,济宁市,市第七中学,,29,29,19,12,2,56,,85,82,17,8,4,4,0.6,0.3
2025-09-12T2100,2255A,130.2751,46.8028,佳木斯市,佳纺,,46,46,36,20,13,99,,93,93,6,16,6,6,0.7,0.6
2025-09-12T2100,2256A,130.3995,46.8307,佳木斯市,发电厂,,41,41,32,23,14,95,,89,89,8,13,7,7,0.6,0.5
2025-09-12T2100,2257A,130.3258,46.7975,佳木斯市,环保局,,40,40,22,24,13,98,,93,93,7,12,7,8,0.7,0.6
2025-09-12T2100,2258A,130.3648,46.8032,佳木斯市,十一中,,44,44,24,28,14,97,,85,85,9,15,8,8,0.6,0.5
2025-09-12T2100,2259A,130.3794,46.7588,佳木斯市,四丰,,22,22,12,6,7,3,,15,6,6,11,1,26,0.4,0.4
2025-09-12T2100,1252A,120.7436,30.778,嘉兴市,清河小学,,35,35,43,18,19,46,,149,110,28,18,6,6,0.6,0.4
2025-09-12T2100,1253A,120.726,30.7478,嘉兴市,嘉兴学院,,34,34,42,23,24,28,,165,110,44,19,4,5,0.6,0.5
2025-09-12T2100,2872A,120.7846,30.7525,嘉兴市,南湖区残联,,33,28,39,23,25,41,,160,116,36,18,5,6,0.8,0.7
2025-09-12T2100,3407A,120.6916,30.7739,嘉兴市,秀洲住建,,,32,39,14,21,,,165,105,71,23,6,7,0.7,0.7
2025-09-12T2100,1945A,98.2908,39.7711,嘉峪关市,气象局,颗粒物(PM10),113,175,94,36,23,87,,122,119,37,11,11,10,0.7,0.5
2025-09-12T2100,2884A,98.2672,39.7978,嘉峪关市,酒钢宾馆,颗粒物(PM10),180,310,110,46,32,111,,124,124,19,9,19,21,0.4,0.5
2025-09-12T2100,3248A,98.2643,39.7724,嘉峪关市,雄关区,颗粒物(PM10),97,143,86,27,26,97,,116,116,27,17,14,15,0.6,0.5
2025-09-12T2100,1383A,113.1064,22.6058,江门市,北街,,16,,19,3,10,51,,114,96,7,10,4,4,0.4,0.4
2025-09-12T2100,1384A,113.0731,22.5835,江门市,西区,,30,30,19,3,8,46,,96,84,12,15,8,8,0.5,0.5
2025-09-12T2100,1385A,113.0219,22.5311,江门市,圭峰西,,15,,16,8,8,46,,93,82,12,6,7,4,0.5,0.5
2025-09-12T2100,1386A,113.0828,22.5947,江门市,东湖,,17,17,19,7,10,41,,87,77,12,14,6,6,0.5,0.5
2025-09-12T2100,3311A,113.1075,22.5647,江门市,江海富民,,28,28,23,9,10,46,,99,88,15,16,5,5,0.4,0.4
2025-09-12T2100,3449A,113.05,22.4667,江门市,新会银湖,,12,11,20,8,10,34,,89,77,13,11,3,3,0.4,0.5
2025-09-12T2100,1830A,113.1992,35.2590,焦作市,影视城,,,,29,,16,,,87,,,9,,9,,0.7
2025-09-12T2100,3335A,113.3137,35.2641,焦作市,马村街道办,细颗粒物(PM2.5),59,54,28,42,26,78,,113,109,10,9,3,3,0.6,0.4
2025-09-12T2100,3336A,113.2465,35.2373,焦作市,焦作技师学院,,,67,37,39,19,,,113,113,13,11,6,7,0.6,0.5
2025-09-12T2100,3477A,113.1656,35.2539,焦作市,中站许衡医院,"颗粒物(PM10),细颗粒物(PM2.5)",57,63,34,40,27,89,,118,114,17,10,6,7,0.8,0.6
2025-09-12T2100,3981A,113.2449,35.1803,焦作市,原李万街道办,颗粒物(PM10),51,52,41,24,15,77,,122,115,28,14,9,9,0.5,0.5
2025-09-12T2100,4264A,113.2340,35.2190,焦作市,新安路1731号,颗粒物(PM10),59,68,35,31,20,96,,124,122,15,10,5,5,0.5,0.4
2025-09-12T2100,4295A,113.2722,35.2121,焦作市,人民路3066号,颗粒物(PM10),51,52,46,17,12,88,,121,117,20,13,2,3,0.5,0.3
2025-09-12T2100,1708A,116.3701,23.5345,揭阳市,新兴,,26,,29,18,16,37,,86,73,12,13,5,5,0.5,0.6
2025-09-12T2100,1709A,116.3264,23.5443,揭阳市,西马,,22,22,31,11,16,47,,81,75,8,12,3,3,0.4,0.5
2025-09-12T2100,1710A,116.3611,23.5626,揭阳市,东兴,,20,14,31,14,15,40,,82,73,9,16,6,6,0.6,0.7
2025-09-12T2100,1711A,116.4151,23.5294,揭阳市,渔湖,,16,,29,11,15,42,,94,77,6,9,5,6,0.5,0.6
2025-09-12T2100,3320A,116.403,23.5699,揭阳市,曲溪,,32,32,29,11,13,44,,98,78,12,12,10,5,0.4,0.5
2025-09-12T2100,1944A,102.1692,38.5167,金昌市,天庆家园,,,,82,,28,,,98,98,,14,,4,,0.2
2025-09-12T2100,4022A,102.1647,38.5371,金昌市,金川区人防中心,颗粒物(PM10),68,85,83,32,29,69,,95,92,10,14,9,10,0.6,0.4
2025-09-12T2100,4239A,102.1930,38.5319,金昌市,长春路96号,颗粒物(PM10),71,92,85,26,29,75,,93,92,11,11,5,7,0.7,0.7
2025-09-12T2100,1262A,119.647,29.077,金华市,十五中,,21,21,26,12,16,52,,114,89,14,14,4,3,0.5,0.5
2025-09-12T2100,1263A,119.686,29.1029,金华市,监测站,,,21,29,9,18,36,,100,77,11,14,,4,0.5,0.6
2025-09-12T2100,3659A,119.656,29.1131,金华市,气象局,,19,19,25,7,7,39,,102,80,23,17,3,3,0.5,0.5
2025-09-12T2100,1767A,121.1115,41.0879,锦州市,南山,颗粒物(PM10),51,51,35,35,26,43,,128,106,61,19,13,9,0.9,0.6
2025-09-12T2100,1768A,121.0604,40.8428,锦州市,开发区,颗粒物(PM10),67,84,47,25,19,60,,128,103,66,28,57,12,1.2,0.7
2025-09-12T2100,1769A,121.1836,41.1119,锦州市,百股街道,,25,22,33,17,19,54,,131,106,32,13,10,8,0.7,0.6
2025-09-12T2100,1770A,121.1178,41.1222,锦州市,天安街道,细颗粒物(PM2.5),64,55,41,46,26,82,,137,121,36,18,12,11,0.9,0.7
2025-09-12T2100,1771A,121.1303,41.1386,锦州市,北湖公园,,40,39,39,28,20,83,,126,115,25,14,9,8,0.9,0.7
2025-09-12T2100,2160A,112.85,35.5051,晋城市,自来水公司,细颗粒物(PM2.5),67,65,34,48,22,91,,100,100,13,14,3,3,1.0,0.8
2025-09-12T2100,2161A,112.8318,35.4936,晋城市,白云商贸,细颗粒物(PM2.5),67,70,41,48,18,90,,103,103,15,14,3,3,0.9,0.7
2025-09-12T2100,2162A,112.8508,35.4887,晋城市,市环保局,颗粒物(PM10),73,95,38,36,18,83,,95,95,11,10,3,3,0.7,0.5
2025-09-12T2100,2163A,112.8676,35.4897,晋城市,技术学院,细颗粒物(PM2.5),52,52,31,36,15,87,,99,99,12,12,4,4,0.9,0.7
2025-09-12T2100,2165A,112.8453,35.546,晋城市,白马寺,细颗粒物(PM2.5),88,,25,65,23,107,,114,114,6,8,7,7,0.9,0.7
2025-09-12T2100,3620A,112.8271,35.4828,晋城市,泽州一中,,,,32,,15,90,,104,104,13,12,,3,,0.7
2025-09-12T2100,2173A,112.7249,37.7067,晋中市,南都小区,,,,35,,22,,,123,123,,14,6,6,0.5,0.5
2025-09-12T2100,2174A,112.6991,37.6982,晋中市,榆次区政府,颗粒物(PM10),53,56,28,30,20,70,,113,111,35,16,7,6,0.6,0.6
2025-09-12T2100,2865A,112.7195,37.6828,晋中市,榆次三中,颗粒物(PM10),56,61,25,27,12,79,,120,117,22,13,7,6,0.8,0.1
2025-09-12T2100,4200A,112.7478,37.6954,晋中市,迎宾街26号,颗粒物(PM10),51,51,23,19,12,91,,122,121,21,14,6,4,0.8,0.4
2025-09-12T2100,2439A,112.2014,31.0481,荆门市,竹园小学,,24,19,14,9,7,75,,86,80,9,8,3,7,0.3,0.3
2025-09-12T2100,2440A,112.1969,30.9891,荆门市,掇刀,,24,21,12,10,9,74,,85,80,8,6,1,1,0.4,0.4
2025-09-12T2100,2441A,112.2213,31.0386,荆门市,石化一小,,24,24,11,3,6,65,,76,72,9,9,4,5,0.3,0.3
2025-09-12T2100,3012A,112.1849,31.0362,荆门市,西山林语,,25,24,12,7,8,79,,86,83,4,5,2,1,0.2,0.2
2025-09-12T2100,3547A,112.1632,31.0138,荆门市,龙泉中学南校,,,,9,,5,,,90,87,10,9,2,2,0.3,0.4
2025-09-12T2100,1844A,112.2494,30.3197,荆州市,市图书馆,,21,21,15,9,9,66,,69,69,12,10,4,4,0.4,0.5
2025-09-12T2100,1845A,112.2008,30.3544,荆州市,市委党校,,20,20,16,6,10,61,,66,65,10,12,6,6,0.4,0.5
2025-09-12T2100,3194A,112.2747,30.3122,荆州市,管委会,,22,22,18,14,11,62,,64,64,10,10,1,2,0.4,0.5
2025-09-12T2100,4268A,112.1722,30.3366,荆州市,学苑路85号,,,,24,18,12,69,,75,74,11,19,4,4,,0.4
2025-09-12T2100,2342A,117.3102,29.3867,景德镇市,王港中学,,,,,,,,,,,,,,,,
2025-09-12T2100,2343A,117.2117,29.2933,景德镇市,老干部活动中心,,34,34,16,21,12,15,,80,62,40,12,8,8,0.4,0.3
2025-09-12T2100,2344A,117.1894,29.2789,景德镇市,兽医站,,37,37,24,19,8,40,,80,67,10,7,5,6,0.7,0.6
2025-09-12T2100,2346A,117.2461,29.2956,景德镇市,陶研所,,26,26,18,14,13,36,,72,55,9,8,4,6,0.6,0.6
2025-09-12T2100,4289A,117.1542,29.2566,景德镇市,青少年活动中心,,27,27,23,17,11,53,,74,68,17,12,18,13,0.8,0.7
2025-09-12T2100,1803A,115.9872,29.6815,九江市,十里,,42,32,14,29,15,22,,91,66,40,20,7,6,0.6,0.6
2025-09-12T2100,1804A,115.9584,29.7046,九江市,茅山头,,34,34,20,12,12,26,,85,61,25,13,3,3,0.5,0.5
2025-09-12T2100,1805A,115.9877,29.7295,九江市,西园,,35,35,19,21,11,32,,90,70,43,29,12,9,0.8,0.7
2025-09-12T2100,1808A,115.9114,29.6038,九江市,综合工业园,,30,30,19,11,9,18,,88,60,55,23,6,6,0.8,0.7
2025-09-12T2100,1809A,116.0721,29.7535,九江市,石化总厂,,32,32,24,15,13,35,,98,72,32,19,7,6,1.3,0.6
2025-09-12T2100,1810A,115.9773,29.5698,九江市,庐山气象台,,,,,,,,,,,,3,,6,,0.6
2025-09-12T2100,3190A,116.0254,29.6994,九江市,外国语学校,,30,24,15,21,15,27,,88,68,35,16,4,4,0.8,0.7
2025-09-12T2100,4253A,116.0102,29.6594,九江市,莲花大道8号,,30,30,17,6,10,24,,84,58,7,10,5,5,0.5,0.5
2025-09-12T2100,4240A,98.4958,39.7339,酒泉市,玉门东路5号,颗粒物(PM10),86,122,100,43,35,75,,116,111,37,14,16,13,0.6,0.3
2025-09-12T2100,4241A,98.5099,39.7506,酒泉市,北大街108号,颗粒物(PM10),98,146,105,38,32,33,,111,100,50,15,19,18,0.7,0.4
2025-09-12T2100,2698A,76.0072,39.4467,喀什地区,巡警大队,颗粒物(PM10),98,145,228,52,75,114,,120,120,20,36,5,7,0.3,0.5
2025-09-12T2100,2699A,75.9755,39.4694,喀什地区,吾办,颗粒物(PM10),109,167,220,77,88,105,,107,107,21,36,6,6,0.4,0.5
2025-09-12T2100,4027A,75.9483,39.4689,喀什地区,老干局,颗粒物(PM10),86,122,186,39,53,101,,111,111,16,29,5,4,0.3,0.4
2025-09-12T2100,1824A,114.3389,34.7781,开封市,肿瘤医院,颗粒物(PM10),52,53,24,29,12,45,,100,94,40,11,4,3,0.9,0.6
2025-09-12T2100,1826A,114.2885,34.7965,开封市,世纪星幼儿园,颗粒物(PM10),53,56,21,23,14,54,,104,99,38,13,4,4,1.0,0.7
2025-09-12T2100,3147A,114.3438,34.8106,开封市,龙亭公园,颗粒物(PM10),57,64,22,21,9,45,,97,91,40,9,9,5,1.2,0.7
2025-09-12T2100,3210A,114.3644,34.7964,开封市,汴京公园,颗粒物(PM10),52,54,23,31,15,53,,101,96,30,8,5,5,1.1,0.7
2025-09-12T2100,3473A,114.2485,34.8306,开封市,技师学院,,28,24,19,19,12,71,,94,93,16,7,6,6,0.8,0.7
2025-09-12T2100,3592A,114.4644,34.7556,开封市,祥符区生态环境局,颗粒物(PM10),55,59,23,31,14,26,,95,87,59,12,4,3,0.9,0.6
2025-09-12T2100,1951A,84.895,45.6094,克拉玛依市,长征新村,,21,21,16,13,7,62,,80,80,19,5,3,3,0.2,0.1
2025-09-12T2100,1952A,84.8988,45.5893,克拉玛依市,南林小区,,42,42,23,11,9,30,,78,74,48,9,8,6,0.3,0.2
2025-09-12T2100,1954A,84.905,44.3396,克拉玛依市,独山子区,,37,37,39,6,10,75,,84,84,13,12,10,5,0.3,0.3
2025-09-12T2100,1955A,85.6979,46.098,克拉玛依市,乌尔禾区商贸楼,,26,26,17,3,6,72,,80,80,11,3,3,2,0.1,0.1
2025-09-12T2100,3612A,85.1045,45.6899,克拉玛依市,白碱滩区新站,颗粒物(PM10),55,59,41,16,11,65,,92,91,18,4,5,5,0.2,0.1
2025-09-12T2100,2697A,76.1454,39.7142,克孜勒苏柯尔克孜自治州,市人民政府,颗粒物(PM10),112,174,179,63,67,116,,120,120,9,12,8,13,0.2,0.1
2025-09-12T2100,3665A,76.1658,39.7157,克孜勒苏柯尔克孜自治州,克州文化中心,颗粒物(PM10),102,153,192,64,68,101,,110,110,17,13,9,19,0.3,0.2
2025-09-12T2100,1450A,102.8204,24.8886,昆明市,呈贡新区,,12,12,10,7,9,30,,40,,15,12,3,3,0.4,0.4
2025-09-12T2100,1451A,102.6251,24.9608,昆明市,西山森林公园,,,,,,,,,,,,,,,,
2025-09-12T2100,1452A,102.7252,25.0902,昆明市,龙泉镇,,31,31,17,6,6,28,,39,38,15,15,2,3,0.4,0.4
2025-09-12T2100,1453A,102.7266,25.0375,昆明市,东风东路,,25,25,15,12,8,28,,42,40,17,13,4,4,0.3,0.4
2025-09-12T2100,1454A,102.6742,25.0669,昆明市,金鼎山,,23,23,24,9,6,22,,39,36,15,12,2,4,0.3,0.3
2025-09-12T2100,1455A,102.6644,25.0401,昆明市,碧鸡广场,,23,23,17,13,7,20,,37,35,21,16,8,9,0.5,0.5
2025-09-12T2100,3179A,102.7494,25.0119,昆明市,官渡区博物馆,,13,13,12,7,6,28,,45,43,15,9,3,2,0.3,0.3
2025-09-12T2100,3375A,102.8017,24.8336,昆明市,青年创业园,,30,30,14,6,5,19,,50,46,18,8,1,2,0.3,0.3
2025-09-12T2100,3550A,102.7997,24.9786,昆明市,昆明学院,,12,12,11,7,5,30,,44,42,11,9,7,6,0.4,0.4
2025-09-12T2100,3551A,102.5967,24.6736,昆明市,晋宁区生态环境分局,,19,19,15,7,6,36,,50,48,9,7,1,2,0.4,0.4
2025-09-12T2100,3552A,102.6678,24.9856,昆明市,云天化总部,,12,6,12,3,7,37,,42,42,9,10,5,6,0.5,0.6
2025-09-12T2100,1456A,91.1319,29.6514,拉萨市,八廓街,,,14,11,6,8,,,107,106,18,9,7,6,0.3,0.3
2025-09-12T2100,1457A,91.1221,29.6747,拉萨市,市环保局,,23,23,12,7,6,63,,108,102,24,12,8,7,0.6,0.4
2025-09-12T2100,1458A,91.0874,29.6475,拉萨市,区监测站,,22,12,9,6,6,69,,107,101,36,14,5,4,0.4,0.3
2025-09-12T2100,1459A,91.1774,29.6541,拉萨市,西藏大学,,26,14,8,8,6,81,,103,100,23,11,6,7,0.2,0.2
2025-09-12T2100,1460A,90.9798,29.6588,拉萨市,区辐射站,,21,21,21,7,9,57,,92,85,39,17,6,6,0.4,0.3
2025-09-12T2100,1461A,91.0834,29.6292,拉萨市,拉萨火车站,,23,13,10,7,6,72,,105,100,29,11,6,5,0.5,0.4
2025-09-12T2100,2520A,109.2203,23.7256,来宾市,来宾技工学校,,22,22,24,7,8,9,,58,43,24,10,8,12,0.7,0.6
2025-09-12T2100,3535A,109.1781,23.7297,来宾市,兴宾区政府,,10,10,18,3,10,31,,66,51,6,9,7,7,0.6,0.6
2025-09-12T2100,4002A,109.2416,23.7461,来宾市,中南小学,,,,21,,9,,,60,52,18,10,10,12,,0.6
2025-09-12T2100,1477A,104.1373,35.9454,兰州市,榆中兰大校区,,,,,,,,,,,,,,,,
2025-09-12T2100,1479A,103.831,36.0464,兰州市,铁路设计院,颗粒物(PM10),59,67,44,39,23,5,,114,81,103,34,9,10,0.9,0.6
2025-09-12T2100,3241A,103.7439,36.0842,兰州市,百合公园,颗粒物(PM10),56,61,45,25,16,31,,108,92,51,17,4,6,0.1,0.4
2025-09-12T2100,3242A,103.9611,35.998,兰州市,和平,颗粒物(PM10),60,70,42,29,18,62,,123,106,11,13,7,10,0.3,0.4
2025-09-12T2100,4236A,103.6293,36.0938,兰州市,庄浪东路808号,颗粒物(PM10),57,63,49,32,22,15,,96,72,93,27,13,14,0.5,0.2
2025-09-12T2100,4237A,103.7251,36.1043,兰州市,安宁西路88号,颗粒物(PM10),71,91,44,40,22,44,,125,109,49,16,4,7,0.4,0.3
2025-09-12T2100,4238A,103.8470,36.0676,兰州市,北滨河东路1号,颗粒物(PM10),68,86,41,40,24,2,,127,98,100,33,8,9,0.7,0.4
2025-09-12T2100,3245A,103.6633,36.533,兰州新区,新区管委会,,,43,31,23,20,,,120,120,18,9,10,9,0.2,0.2
2025-09-12T2100,3246A,103.6975,36.4789,兰州新区,舟曲中学,,46,46,31,18,14,85,,108,106,24,10,25,16,0.4,0.3
2025-09-12T2100,1067A,116.6708,39.5111,廊坊市,药材公司,颗粒物(PM10),58,65,79,38,45,92,,143,136,28,28,5,6,0.4,0.5
2025-09-12T2100,1068A,116.7214,39.5589,廊坊市,开发区,颗粒物(PM10),70,89,83,48,41,97,,125,119,20,20,2,2,0.5,0.5
2025-09-12T2100,1070A,116.7244,39.5269,廊坊市,北华航天学院,颗粒物(PM10),71,92,69,49,45,104,,143,140,22,23,5,5,0.5,0.5
2025-09-12T2100,2919A,116.7022,39.5453,廊坊市,河北工业大学,细颗粒物(PM2.5),69,65,64,50,41,110,,146,144,24,20,4,4,0.5,0.4
2025-09-12T2100,2535A,103.7723,29.5462,乐山市,花湖湾,,10,10,10,7,8,25,,42,26,13,12,5,4,0.4,0.4
2025-09-12T2100,2536A,103.7627,29.5844,乐山市,牛耳桥,,15,15,11,8,7,6,,43,24,28,16,6,6,0.7,0.7
2025-09-12T2100,2537A,103.7508,29.6006,乐山市,市第三水厂,,19,19,13,10,9,4,,43,28,37,16,3,4,0.8,0.6
2025-09-12T2100,2538A,103.7571,29.5664,乐山市,市监测站,,14,14,13,7,7,17,,46,30,22,10,5,5,0.7,0.7
2025-09-12T2100,3361A,103.7311,29.5628,乐山市,理工大学,,16,16,10,7,7,9,,45,24,23,11,4,4,0.8,0.6
2025-09-12T2100,2598A,100.2143,26.8576,丽江市,西南郊,,18,13,15,3,7,56,,48,48,6,9,6,7,0.6,0.6
2025-09-12T2100,2599A,100.2497,26.8802,丽江市,丽江古城,,20,20,22,3,9,56,,53,53,9,11,10,10,0.4,0.5
2025-09-12T2100,2600A,100.2203,26.8906,丽江市,市中心,,13,,13,9,10,40,,47,47,22,13,9,10,0.6,0.5
2025-09-12T2100,1267A,119.914,28.4514,丽水市,监测站大楼,,12,,20,8,10,38,,91,68,12,11,5,5,0.4,0.4
2025-09-12T2100,1268A,119.93,28.4586,丽水市,莲都小学,,18,18,21,9,8,37,,88,69,15,12,4,3,0.3,0.3
2025-09-12T2100,1269A,119.879,28.4231,丽水市,余庄前,,22,22,21,9,11,4,,80,40,16,12,5,5,0.5,0.5
2025-09-12T2100,1173A,119.176,34.5885,连云港市,市环境监测站,,23,7,8,3,3,72,,106,70,15,13,5,5,0.6,0.6
2025-09-12T2100,3000A,119.3581,34.6972,连云港市,德源药业,,21,7,5,3,3,65,,100,76,20,12,4,4,1.0,0.6
2025-09-12T2100,3007A,119.178,34.844,连云港市,新城一中,,20,16,16,7,4,64,,117,73,16,12,4,3,0.7,0.5
2025-09-12T2100,3008A,119.3608,34.7519,连云港市,胡沟管理处,,24,7,7,3,2,76,,113,86,11,11,6,5,1.0,0.7
2025-09-12T2100,3009A,119.1478,34.5911,连云港市,矿山设计院,,21,6,7,3,5,66,,103,67,14,13,7,6,0.7,0.6
2025-09-12T2100,3434A,119.2413,34.6539,连云港市,工贸学校,,21,,9,8,6,67,,110,77,15,8,6,6,0.8,0.8
2025-09-12T2100,3664A,119.4172,34.7341,连云港市,连云街道,,21,7,9,3,4,66,,113,87,28,10,5,4,0.5,0.4
2025-09-12T2100,2571A,102.3431,27.8099,凉山彝族自治州,青龙寺,,10,10,15,3,4,16,,36,33,4,5,3,3,0.5,0.5
2025-09-12T2100,2572A,102.2721,27.8415,凉山彝族自治州,邛海宾馆,,13,13,15,6,10,32,,44,40,8,13,7,8,0.5,0.6
2025-09-12T2100,2573A,102.2625,27.898,凉山彝族自治州,西昌市政府,,15,15,21,8,12,35,,41,37,13,13,29,18,0.6,0.7
2025-09-12T2100,2574A,102.2685,27.8851,凉山彝族自治州,凉山州政府,,14,13,18,9,14,42,,47,45,10,13,10,8,1.0,1
2025-09-12T2100,4229A,102.2342,27.8859,凉山彝族自治州,凯乐南路30号,,29,,17,20,11,29,,37,36,17,17,6,7,0.8,0.8
2025-09-12T2100,2212A,123.2,41.1953,辽阳市,宏伟区,颗粒物(PM10),55,59,40,25,16,62,,112,94,16,10,3,3,0.6,0.6
2025-09-12T2100,2213A,123.1683,41.2495,辽阳市,新华园,颗粒物(PM10),60,70,37,32,19,37,,130,113,56,15,7,4,0.8,0.5
2025-09-12T2100,2214A,123.2354,41.2639,辽阳市,滨河路,,45,45,37,18,21,25,,115,78,40,16,6,6,0.6,0.5
2025-09-12T2100,2215A,123.149,41.2991,辽阳市,铁西工业园,颗粒物(PM10),57,64,43,35,19,60,,130,103,22,14,3,4,0.6,0.6
2025-09-12T2100,2227A,125.1358,42.8845,辽源市,环保局,颗粒物(PM10),60,70,46,28,15,48,,127,110,35,12,10,10,0.8,0.6
2025-09-12T2100,3239A,125.0764,42.9078,辽源市,银鹰制药,颗粒物(PM10),54,58,35,27,20,14,,128,104,83,27,69,46,0.7,0.5
2025-09-12T2100,1625A,115.9848,36.4372,聊城市,区政府,,44,44,36,20,18,107,,131,128,15,15,11,11,0.6,0.6
2025-09-12T2100,2878A,116.0072,36.4343,聊城市,聊大东校,,48,48,39,23,21,110,,132,130,17,16,11,11,0.7,0.7
2025-09-12T2100,3200A,115.9819,36.4978,聊城市,监控中心,颗粒物(PM10),51,51,47,19,19,85,,132,125,32,19,9,10,0.7,0.6
2025-09-12T2100,3513A,116.0445,36.4361,聊城市,九州社区,颗粒物(PM10),51,52,47,23,21,100,,121,118,11,12,4,6,0.6,0.6
2025-09-12T2100,4018A,116.0567,36.4608,聊城市,星美广场,,46,46,47,22,21,102,,130,126,15,13,5,7,0.5,0.6
2025-09-12T2100,2632A,94.3681,29.6376,林芝市,林芝监测站,,17,17,8,8,4,40,,68,66,10,6,4,4,0.5,0.5
2025-09-12T2100,2633A,94.3616,29.6616,林芝市,林芝人民医院,,20,11,11,3,4,63,,64,64,4,3,6,5,0.6,0.6
2025-09-12T2100,2603A,100.0781,23.8982,临沧市,市环保局,,50,,17,35,20,12,,30,25,10,8,4,5,0.8,0.7
2025-09-12T2100,2604A,100.0894,23.8822,临沧市,市气象局,,,14,15,14,15,,,25,23,15,10,7,8,0.7,0.6
2025-09-12T2100,1733A,111.5531,36.0783,临汾市,临钢医院,颗粒物(PM10),61,72,24,22,6,79,,107,105,18,9,7,6,1.0,0.7
2025-09-12T2100,1734A,111.5028,36.0714,临汾市,技工学校,细颗粒物(PM2.5),54,50,23,38,19,72,,103,100,18,9,7,5,0.9,0.6
2025-09-12T2100,1736A,111.5018,36.0855,临汾市,市委,颗粒物(PM10),62,73,33,27,8,79,,106,103,18,11,6,5,1.1,0.7
2025-09-12T2100,3018A,111.505,36.1014,临汾市,唐尧大酒店,颗粒物(PM10),56,61,38,28,11,80,,106,103,18,11,7,6,1.1,0.7
2025-09-12T2100,4244A,111.4879,36.0530,临汾市,启星学校,颗粒物(PM10),54,57,26,37,17,61,,108,102,32,10,4,4,1.0,0.7
2025-09-12T2100,4271A,103.2464,35.6123,临夏回族自治州,滨河东路1号,颗粒物(PM10),74,98,37,39,18,4,,76,59,54,17,8,8,0.5,0.3
2025-09-12T2100,4310A,103.2093,35.5995,临夏回族自治州,新华街21号,颗粒物(PM10),70,90,44,36,20,18,,86,74,53,14,7,6,0.6,0.3
2025-09-12T2100,1618A,118.3429,35.0532,临沂市,沂河小区,,26,7,6,6,9,81,,98,82,11,11,7,8,0.3,0.4
2025-09-12T2100,1619A,118.295,35.0583,临沂市,鲁南制药厂,,,,2,12,7,,,102,84,13,10,8,8,0.3,0.5
2025-09-12T2100,1620A,118.2794,34.9976,临沂市,新光毛纺厂,,22,,1,3,5,70,,100,81,21,13,7,6,0.4,0.4
2025-09-12T2100,1621A,118.3956,35.0888,临沂市,河东保险公司,,25,6,6,3,1,78,,96,81,12,12,6,5,0.3,0.3
2025-09-12T2100,3370A,118.3564,35.0215,临沂市,十里堡居委,,,0,2,,2,85,,102,85,13,13,6,6,0.3,0.3
2025-09-12T2100,3496A,118.3604,35.1084,临沂市,南坊新区,,25,7,7,3,1,79,,99,84,18,15,8,8,0.5,0.5
2025-09-12T2100,3860A,118.3920,35.0300,临沂市,皇山花园小区,,26,6,2,3,2,82,,99,82,11,11,9,9,0.2,0.2
2025-09-12T2100,1870A,109.4856,24.3895,柳州市,柳东小学,,14,14,18,9,9,41,,76,70,12,8,4,4,0.4,0.3
2025-09-12T2100,1871A,109.4157,24.3277,柳州市,环保监测站,,12,6,18,3,9,38,,66,60,8,6,6,7,0.6,0.6
2025-09-12T2100,1872A,109.389,24.341,柳州市,河西水厂,,28,28,21,13,10,26,,65,57,20,9,4,5,0.6,0.6
2025-09-12T2100,1873A,109.4311,24.2921,柳州市,市四中,,20,20,20,12,10,33,,69,61,16,10,7,7,0.4,0.2
2025-09-12T2100,1874A,109.4006,24.3631,柳州市,市九中,,,,24,19,20,,,68,63,,9,,2,,0.6
2025-09-12T2100,1875A,109.4958,24.3134,柳州市,古亭山,,12,,20,8,8,31,,69,62,18,11,5,6,0.4,0.5
2025-09-12T2100,3402A,109.5422,24.3996,柳州市,市二中,,14,,16,8,8,43,,77,72,12,10,8,13,0.6,0.6
2025-09-12T2100,2307A,116.5079,31.737,六安市,监测大楼,,19,,14,9,13,58,,55,55,3,5,4,4,0.2,0.5
2025-09-12T2100,2308A,116.4738,31.7643,六安市,皖西学院,,19,,15,7,11,59,,58,58,2,3,2,3,0.3,0.3
2025-09-12T2100,2309A,116.4996,31.7905,六安市,朝阳厂,,18,,12,9,12,56,,54,54,6,8,5,5,0.4,0.4
2025-09-12T2100,2310A,116.5567,31.7886,六安市,开发区,,18,,11,7,11,57,,55,55,5,6,2,2,0.3,0.4
2025-09-12T2100,2576A,104.8,26.5892,六盘水市,窑上,,,26,30,19,19,,,55,55,4,6,1,1,0.3,0.3
2025-09-12T2100,2577A,104.83,26.5917,六盘水市,黄土坡,,23,,14,16,9,35,,54,53,19,9,3,3,0.2,0.2
2025-09-12T2100,2578A,104.89,26.5939,六盘水市,水钢,,25,,30,17,17,28,,44,41,31,10,7,7,1.0,0.4
2025-09-12T2100,2579A,104.8475,26.5894,六盘水市,民中,,14,12,15,7,7,42,,53,53,19,7,2,2,0.3,0.3
2025-09-12T2100,2580A,104.9544,26.5506,六盘水市,双水,,13,12,15,7,10,41,,50,50,15,7,4,3,0.4,0.1
2025-09-12T2100,2335A,117.0189,25.1181,龙岩市,龙岩师专,,,,,,,,,,,,,,,,
2025-09-12T2100,2336A,117.0217,25.1033,龙岩市,龙岩市监测站,,14,6,22,3,14,44,,79,64,14,14,10,9,0.5,0.6
2025-09-12T2100,2337A,117.0258,25.0661,龙岩市,闽西职业技术学院,,17,13,30,10,13,5,,75,51,33,14,5,11,0.6,0.6
2025-09-12T2100,2338A,117.0196,25.0306,龙岩市,龙岩学院,,18,,20,12,13,33,,72,56,8,8,6,5,0.5,0.5
2025-09-12T2100,2665A,105.0822,33.3261,陇南市,汉王镇固水子,,,,,,,,,,,,,,,,
2025-09-12T2100,2885A,104.9339,33.3826,陇南市,滨江中学,颗粒物(PM10),51,52,29,29,13,65,,83,82,5,8,6,6,0.6,0.6
2025-09-12T2100,3247A,104.955,33.371,陇南市,市总工会,,,44,35,16,6,72,,86,86,,8,7,7,,0.4
2025-09-12T2100,2487A,111.9589,27.8901,娄底市,电视发射台,,23,23,26,13,8,26,,60,48,6,6,4,5,0.2,0.2
2025-09-12T2100,2488A,111.9975,27.725,娄底市,市监测站,,26,23,25,18,13,53,,68,65,13,9,8,6,0.6,0.5
2025-09-12T2100,2489A,112.0194,27.7314,娄底市,市委党校,,,56,29,22,15,,,70,64,21,12,8,6,0.5,0.4
2025-09-12T2100,2490A,111.9561,27.7569,娄底市,涟钢,,26,26,35,6,17,31,,55,50,28,16,2,7,0.7,0.8
2025-09-12T2100,2491A,111.9892,27.7044,娄底市,市政府,,38,,19,26,14,33,,72,65,16,6,7,7,1.0,0.7
2025-09-12T2100,1893A,105.4324,28.9634,泸州市,九狮山,,25,25,24,7,6,16,,37,36,17,10,5,6,0.4,0.4
2025-09-12T2100,1894A,105.4427,28.9063,泸州市,小市上码头,,9,8,10,6,5,24,,32,30,12,10,4,4,0.5,0.5
2025-09-12T2100,1895A,105.4241,28.8573,泸州市,兰田宪桥,,13,13,13,3,5,10,,36,31,14,18,4,4,0.6,0.6
2025-09-12T2100,1896A,105.4379,28.8833,泸州市,市环监站,,,9,11,3,8,26,,38,34,,11,4,4,0.6,0.5
2025-09-12T2100,4272A,105.3689,28.7783,泸州市,纳溪中医医院,,17,17,12,6,7,25,,39,31,16,15,2,2,0.6,0.6
2025-09-12T2100,2183A,111.1406,37.5211,吕梁市,环保局,,48,48,16,33,9,29,,102,90,46,22,3,3,0.8,0.7
2025-09-12T2100,2185A,111.1297,37.5136,吕梁市,自来水公司,,43,41,20,30,8,49,,93,83,22,19,4,3,0.7,0.6
2025-09-12T2100,2867A,111.1283,37.51,吕梁市,马茂庄小学,,45,45,20,21,8,41,,102,91,40,23,4,4,0.7,0.7
2025-09-12T2100,1812A,112.3931,34.6516,洛阳市,市委党校,颗粒物(PM10),52,54,22,22,14,31,,97,90,41,10,5,5,0.9,0.4
2025-09-12T2100,1815A,112.494,34.6886,洛阳市,河南林校,颗粒物(PM10),56,62,31,22,18,65,,112,106,34,15,6,6,0.7,0.5
2025-09-12T2100,1816A,112.3844,34.623,洛阳市,开发区管委会,,30,24,18,21,14,42,,103,88,9,6,3,3,0.6,0.5
2025-09-12T2100,1817A,112.4267,34.6258,洛阳市,市委新办公区,,29,28,21,20,19,35,,102,92,33,8,6,6,0.7,0.5
2025-09-12T2100,3340A,112.6005,34.6326,洛阳市,伊滨,,48,48,23,24,18,63,,114,110,22,13,5,5,0.7,0.6
2025-09-12T2100,3341A,112.4951,34.6332,洛阳市,中移产业园,,39,39,24,24,17,80,,112,111,30,12,6,6,0.7,0.6
2025-09-12T2100,3593A,112.5736,34.8993,洛阳市,吉利监测站,,48,42,29,33,22,69,,92,88,29,9,4,4,0.6,0.5
2025-09-12T2100,3635A,112.3677,34.662,洛阳市,河科大西苑校区,,37,37,21,12,10,24,,99,89,45,13,7,7,0.8,0.5
2025-09-12T2100,3636A,112.4388,34.6781,洛阳市,英才小学,,35,34,22,24,20,70,,107,103,30,10,6,6,0.7,0.5
2025-09-12T2100,4214A,112.4600,34.6949,洛阳市,春都路1号院,,48,48,23,17,11,33,,94,87,37,15,8,8,0.7,0.4
2025-09-12T2100,2399A,114.051,33.5699,漯河市,三五一五工厂,,34,34,21,21,10,40,,82,77,29,9,6,5,0.7,0.5
2025-09-12T2100,2400A,114.0055,33.5698,漯河市,漯河大学,,42,40,9,29,10,38,,86,79,32,8,5,5,0.7,0.4
2025-09-12T2100,2401A,114.0138,33.5828,漯河市,市水利局,,41,41,14,24,10,43,,83,76,22,10,5,5,0.8,0.5
2025-09-12T2100,2402A,114.0261,33.5698,漯河市,市广电局,,49,49,15,27,12,50,,90,85,23,8,3,3,0.8,0.5
2025-09-12T2100,3478A,113.9749,33.5664,漯河市,市图书馆,,34,34,13,20,8,62,,87,84,14,10,4,5,0.5,0.4
2025-09-12T2100,4250A,114.0892,33.5882,漯河市,韶山路11号,,35,34,13,24,10,63,,83,80,15,7,5,4,0.6,0.3
2025-09-12T2100,1798A,118.5092,31.6837,马鞍山市,湖东路四小,,25,25,40,15,22,38,,113,82,23,16,11,8,1.9,0.8
2025-09-12T2100,1799A,118.5024,31.6449,马鞍山市,开发区,,27,27,42,11,20,53,,117,87,9,17,6,8,0.5,0.7
2025-09-12T2100,1802A,118.6245,31.7241,马鞍山市,濮塘,,32,23,31,22,21,48,,116,79,10,11,8,9,0.9,0.9
2025-09-12T2100,3633A,118.4918,31.6809,马鞍山市,雨山,,17,17,38,10,19,46,,107,77,15,19,18,15,0.6,0.8
2025-09-12T2100,4191A,118.5274,31.72227,马鞍山市,慈湖高新区,,29,29,39,15,21,43,,102,70,19,20,7,7,0.5,0.5
2025-09-12T2100,1686A,111.0286,21.4688,茂名市,电白南海,,,9,19,,12,,,49,49,10,7,3,4,0.3,0.6
2025-09-12T2100,1687A,110.9294,21.6533,茂名市,茂石化七小,,14,14,15,9,8,43,,57,53,9,8,5,7,0.5,0.5
2025-09-12T2100,1688A,110.9107,21.6687,茂名市,健康路,,15,7,11,7,7,48,,63,59,8,8,4,5,0.5,0.5
2025-09-12T2100,1689A,110.8592,21.6828,茂名市,高岭,,24,24,23,3,4,36,,64,53,15,12,6,9,0.6,0.6
2025-09-12T2100,3450A,111.01,21.5165,茂名市,电白水东,,17,7,10,3,5,52,,54,54,6,8,5,6,0.6,0.7
2025-09-12T2100,2539A,104.0308,30.0478,眉山市,黑龙滩水库,,19,13,11,13,8,33,,76,67,3,8,3,2,0.2,0.3
2025-09-12T2100,2540A,103.8416,30.0874,眉山市,气象局,,38,38,28,9,9,17,,68,58,35,17,8,8,0.4,0.3
2025-09-12T2100,3137A,103.8578,30.0744,眉山市,市委党校,,24,24,17,3,4,10,,55,44,38,19,8,9,0.8,0.6
2025-09-12T2100,3148A,103.8291,30.0564,眉山市,区人社局,,,42,31,7,4,,,56,48,,13,7,8,1.3,0.9
2025-09-12T2100,1690A,116.1231,24.3284,梅州市,梅江月梅,,17,17,20,3,9,33,,70,54,14,12,9,8,0.5,0.5
2025-09-12T2100,1691A,116.0797,24.2719,梅州市,梅县新城,,24,24,21,3,11,28,,59,49,14,11,7,8,0.6,0.5
2025-09-12T2100,1692A,116.1248,24.2654,梅州市,环境监控中心,,,,23,,11,,,57,46,22,14,4,5,0.6,0.6
2025-09-12T2100,3315A,116.1233,24.2991,梅州市,梅龙,,22,22,17,13,11,39,,62,51,14,9,12,9,0.7,0.7
2025-09-12T2100,1878A,104.7778,31.4741,绵阳市,富乐山,,14,14,10,3,4,19,,45,42,9,6,7,8,0.6,0.6
2025-09-12T2100,1880A,104.6697,31.4668,绵阳市,高新区自来水公司,,20,20,10,3,2,25,,61,58,23,12,9,9,0.6,0.5
2025-09-12T2100,1881A,104.7287,31.5075,绵阳市,三水厂,,18,18,8,10,6,16,,56,52,30,11,10,10,0.6,0.5
2025-09-12T2100,3491A,104.69,31.5322,绵阳市,西科大附属小学,,21,21,15,11,8,26,,73,68,33,16,8,7,0.5,0.3
2025-09-12T2100,3492A,104.5648,31.5343,绵阳市,安州区旅游局,,11,6,8,3,2,33,,66,63,21,11,9,8,0.8,0.6
2025-09-12T2100,4226A,104.7651,31.4531,绵阳市,绵阳市气象局,,17,17,11,3,4,30,,50,49,19,7,8,8,0.5,0.5
2025-09-12T2100,1784A,129.61,44.561,牡丹江市,环保大楼,,36,36,32,15,14,66,,103,83,10,16,5,5,0.3,0.3
2025-09-12T2100,1785A,129.6115,44.5782,牡丹江市,文化广场,,37,37,32,25,24,63,,100,80,14,20,6,6,0.5,0.5
2025-09-12T2100,1786A,129.5904,44.5963,牡丹江市,第一医院,,44,44,35,20,24,72,,105,88,11,17,8,8,0.4,0.3
2025-09-12T2100,1787A,129.6364,44.6075,牡丹江市,机车工厂,,38,38,45,15,15,65,,102,77,11,19,5,7,0.5,0.4
2025-09-12T2100,1788A,129.6386,44.5462,牡丹江市,第一中学,,38,,31,26,15,69,,98,82,10,17,4,4,0.3,0.3
2025-09-12T2100,2531A,105.0703,29.61,内江市,市监测站,,11,8,14,3,6,33,,44,44,18,10,3,3,0.4,0.4
2025-09-12T2100,2532A,105.0717,29.5947,内江市,东兴区政府,,,11,9,6,1,33,,43,43,,9,6,5,0.6,0.5
2025-09-12T2100,2533A,105.0653,29.5817,内江市,内江二中,,23,21,11,16,6,36,,46,46,18,11,2,2,0.8,0.7
2025-09-12T2100,2534A,105.0406,29.5822,内江市,内江日报社,,13,12,10,9,4,34,,46,46,22,12,6,6,0.7,0.5
2025-09-12T2100,2628A,92.0657,31.4846,那曲市,那曲监测站,颗粒物(PM10),52,54,44,22,18,61,,95,91,38,22,13,5,0.6,0.5
2025-09-12T2100,4243A,92.0515,31.4787,那曲市,那曲市委宣传部,,,72,35,32,18,,,108,108,30,15,10,5,0.8,0.5
2025-09-12T2100,1290A,115.8931,28.6843,南昌市,省外办,,35,32,26,24,19,44,,71,63,12,9,5,7,0.9,0.8
2025-09-12T2100,1291A,115.8886,28.7003,南昌市,省林业公司,,31,31,25,14,15,51,,94,82,11,15,3,5,0.7,0.7
2025-09-12T2100,1292A,115.8126,28.7442,南昌市,林科所,,20,19,19,12,10,24,,96,71,40,22,5,6,0.6,0.5
2025-09-12T2100,1294A,115.8518,28.687,南昌市,建工学校,,44,44,30,3,2,55,,93,82,24,27,8,9,0.8,0.8
2025-09-12T2100,1295A,115.8921,28.6424,南昌市,象湖,,32,22,20,22,11,52,,101,92,26,18,9,11,0.9,0.7
2025-09-12T2100,1296A,115.7423,28.7996,南昌市,武术学校,,15,15,16,8,12,14,,72,38,8,7,9,10,0.1,0.7
2025-09-12T2100,3046A,115.9084,28.6062,南昌市,机电学校,,47,47,31,24,14,52,,102,91,28,20,7,9,0.6,0.5
2025-09-12T2100,3690A,115.9721,28.7031,南昌市,外国语学校,,35,35,28,16,13,58,,93,81,16,16,6,9,0.4,0.4
2025-09-12T2100,4192A,115.9316,28.68677,南昌市,南京东路235号,,35,35,31,23,14,60,,102,90,21,16,10,13,0.9,0.8
2025-09-12T2100,1905A,106.056,30.8064,南充市,西山风景区,,,,,,,,,,,,,,,,
2025-09-12T2100,1906A,106.0789,30.8023,南充市,南充市委,,14,10,9,6,5,42,,52,52,15,9,3,3,0.4,0.4
2025-09-12T2100,1907A,106.1031,30.8217,南充市,南充炼油厂,,21,21,16,9,5,32,,50,49,8,6,5,5,0.2,0.2
2025-09-12T2100,4227A,106.1083,30.7884,南充市,梨树横街98号,,,11,9,3,9,,,60,60,10,6,2,2,0.3,0.2
2025-09-12T2100,4304A,106.1172,30.843,南充市,清泉寺北路188号,,17,17,11,9,5,37,,52,51,6,5,4,4,0.3,0.2
2025-09-12T2100,4305A,106.067,30.7616,南充市,同庆路1号,,18,10,6,3,4,55,,59,59,9,7,4,4,0.3,0.3
2025-09-12T2100,1151A,118.8086,32.1065,南京市,迈皋桥,,,15,25,9,15,,,109,79,,11,4,4,0.6,0.6
2025-09-12T2100,1152A,118.7538,32.0551,南京市,草场门,,20,19,33,14,16,46,,104,70,11,17,3,5,0.6,0.7
2025-09-12T2100,1153A,118.7794,32.0745,南京市,山西路,,24,24,35,7,12,50,,114,79,13,14,4,4,0.5,0.6
2025-09-12T2100,1154A,118.7752,32.0023,南京市,中华门,,18,17,25,12,13,42,,101,66,1,14,4,4,0.5,0.6
2025-09-12T2100,1155A,118.8109,32.0309,南京市,瑞金路,,14,12,28,9,16,44,,102,69,2,11,7,6,0.5,0.4
2025-09-12T2100,1156A,118.7997,32.0754,南京市,玄武湖,,29,29,33,3,9,45,,106,72,10,10,4,4,0.3,0.4
2025-09-12T2100,1157A,118.6414,32.0931,南京市,浦口,,23,23,34,10,14,46,,99,66,10,18,5,7,0,0.4
2025-09-12T2100,1158A,118.7356,31.9996,南京市,奥体中心,,18,18,33,9,17,54,,114,77,8,14,5,7,0.5,0.5
2025-09-12T2100,1159A,118.9125,32.1028,南京市,仙林大学城,,27,27,36,7,10,35,,114,78,23,14,13,9,1.4,0.7
2025-09-12T2100,3422A,118.8436,31.9198,南京市,江宁彩虹桥,,,,36,22,17,,,121,91,16,22,5,5,0.6,0.7
2025-09-12T2100,3427A,118.8554,32.3578,南京市,六合雄州,,26,26,35,13,15,39,,105,73,13,16,6,6,0.7,0.7
2025-09-12T2100,4249A,118.8708,31.3402,南京市,汶溪路181号,,32,26,28,22,22,63,,112,92,16,13,7,6,0.9,0.7
2025-09-12T2100,4312A,119.019,31.6512,南京市,中山西路1号,,19,19,26,11,16,34,,107,83,24,17,3,4,0.6,0.5
2025-09-12T2100,1401A,108.3103,22.7881,南宁市,二十一中,,20,16,22,8,9,64,,52,52,10,16,6,5,0.4,0.5
2025-09-12T2100,1402A,108.3141,22.8528,南宁市,北湖,,21,17,20,10,10,66,,63,62,8,16,3,4,0.5,0.5
2025-09-12T2100,1403A,108.3206,22.8225,南宁市,市监测站,,19,18,21,11,9,58,,53,52,9,14,4,4,0.4,0.5
2025-09-12T2100,1404A,108.3829,22.8037,南宁市,大自然花园,,24,24,19,10,8,67,,63,63,8,10,6,4,0.5,0.5
2025-09-12T2100,1405A,108.4394,22.7904,南宁市,仙葫,,21,17,18,9,9,65,,67,67,6,10,5,5,0.6,0.5
2025-09-12T2100,1406A,108.2397,22.8467,南宁市,区农职院,,20,20,23,11,9,57,,57,50,16,18,7,9,0.7,0.3
2025-09-12T2100,1407A,108.3275,22.735,南宁市,英华嘉园,,23,23,24,14,14,45,,48,47,23,16,3,2,0.4,0.4
2025-09-12T2100,3401A,108.4834,22.7618,南宁市,红星社区,,20,20,18,13,8,57,,63,63,15,12,4,3,0.4,0.4
2025-09-12T2100,4221A,108.2177,22.7774,南宁市,乐贤路16号,,28,28,26,14,11,32,,41,35,21,16,5,6,0.5,0.6
2025-09-12T2100,2331A,118.0966,26.6761,南平市,茫荡山,,,,11,,9,,,66,,,,,2,,
2025-09-12T2100,2332A,118.1681,26.6369,南平市,南平市监测站,,26,26,18,14,12,37,,84,73,16,14,4,5,0.6,0.5
2025-09-12T2100,2333A,118.1825,26.6489,南平市,南平铝业有限公司,,24,24,20,7,12,47,,89,77,26,16,4,6,0.8,0.6
2025-09-12T2100,2334A,118.1756,26.6272,南平市,南平七中,,15,15,22,10,10,40,,86,75,12,11,3,4,0.6,0.5
2025-09-12T2100,1168A,120.9098,31.9663,南通市,狼山街道,,29,29,26,19,16,52,,161,124,29,20,8,5,1.5,0.7
2025-09-12T2100,1169A,120.86,32.0005,南通市,虹桥,,31,31,26,19,17,63,,170,133,32,20,3,4,0.8,0.7
2025-09-12T2100,1170A,120.87,32.02,南通市,城中,,34,34,32,21,16,60,,157,123,36,19,3,3,0.6,0.5
2025-09-12T2100,1171A,120.94,31.93,南通市,星湖花园,,,24,24,19,16,,,144,124,35,18,5,4,0.4,0.4
2025-09-12T2100,1172A,120.81,32.0417,南通市,紫琅学院,,40,40,28,25,14,45,,142,109,43,25,5,4,1.3,0.8
2025-09-12T2100,3291A,121.067,32.062,南通市,通州监测站,,35,34,26,24,15,68,,167,131,33,14,4,2,1.5,0.8
2025-09-12T2100,3432A,120.9348,31.9883,南通市,环境教育馆,,44,44,35,20,16,71,,174,142,25,21,8,5,1.1,0.4
2025-09-12T2100,2404A,112.5224,33.0122,南阳市,瓦房庄,,39,39,20,16,7,69,,91,85,12,5,7,7,0.5,0.4
2025-09-12T2100,2405A,112.5003,32.9735,南阳市,汉画馆,,36,36,16,17,6,58,,84,77,21,7,8,8,0.6,0.5
2025-09-12T2100,2406A,112.5573,33.027,南阳市,气象站,,31,31,10,19,6,69,,96,90,14,5,5,4,0.7,0.6
2025-09-12T2100,2407A,112.5481,32.9689,南阳市,理工学院,,39,39,18,10,6,61,,92,84,23,6,9,8,0.6,0.5
2025-09-12T2100,4008A,112.5234,32.9922,南阳市,卧龙区政府,,,40,17,14,10,,,88,85,,8,,6,,0.5
2025-09-12T2100,1234A,121.8358,29.911,宁波市,区环保大楼,,,,31,6,12,77,,109,89,11,17,4,5,0.5,0.5
2025-09-12T2100,1235A,121.56,29.82,宁波市,万里学院,,27,19,27,9,15,86,,117,111,10,9,6,7,0.6,0.6
2025-09-12T2100,1236A,121.713,29.9572,宁波市,龙赛医院,,24,,30,12,13,74,,113,98,10,16,4,6,0.3,0.4
2025-09-12T2100,1239A,121.633,29.7733,宁波市,钱湖水厂,,27,12,20,6,12,86,,106,102,4,4,5,6,0.5,0.6
2025-09-12T2100,1240A,121.5856,29.8635,宁波市,太古小学,,25,,27,11,15,78,,118,109,8,8,2,2,0.6,0.6
2025-09-12T2100,1241A,121.524,29.8674,宁波市,市环境监测中心,,23,23,29,16,15,72,,116,106,11,10,5,7,0.6,0.6
2025-09-12T2100,2871A,121.6147,29.9017,宁波市,万里国际学校,,26,23,29,13,16,83,,122,109,8,8,4,4,0.5,0.5
2025-09-12T2100,3710A,121.5594,29.8975,宁波市,白沙活动中心,,25,18,23,10,11,80,,123,112,12,12,6,7,0.4,0.5
2025-09-12T2100,2339A,119.5001,26.6946,宁德市,金涵水库,,,,20,,12,,,46,,,2,,1,,0.4
2025-09-12T2100,2341A,119.5388,26.6612,宁德市,宁德市监测站,,18,,22,12,14,41,,121,93,9,8,4,4,0.7,0.6
2025-09-12T2100,3209A,119.5231,26.6562,宁德市,宁德一中,,19,19,23,12,17,36,,124,94,8,7,4,4,0.5,0.5
2025-09-12T2100,2618A,98.8601,25.8567,怒江傈僳族自治州,州监测站,,32,32,25,16,15,50,,66,65,10,9,7,6,0.5,0.4
2025-09-12T2100,2619A,98.8546,25.8417,怒江傈僳族自治州,泸水一中,,11,10,20,7,13,34,,54,53,13,11,5,4,0.5,0.5
2025-09-12T2100,1888A,101.6891,26.571,攀枝花市,弄弄坪,,36,36,42,13,18,26,,25,25,13,23,5,7,0.6,0.8
2025-09-12T2100,1889A,101.5769,26.5928,攀枝花市,河门口,,33,33,33,16,15,10,,28,28,17,15,19,11,0.8,0.8
2025-09-12T2100,1890A,101.7169,26.585,攀枝花市,炳草岗,,19,19,44,12,16,20,,22,22,18,29,4,10,0.6,0.8
2025-09-12T2100,1891A,101.7369,26.5008,攀枝花市,仁和,,37,37,28,22,16,22,,32,29,17,18,11,12,0.8,0.7
2025-09-12T2100,2835A,101.7227,26.567,攀枝花市,四十中小,,24,24,28,13,15,32,,36,36,7,23,9,21,0.7,0.8
2025-09-12T2100,1604A,122.0303,41.1489,盘锦市,开发区,细颗粒物(PM2.5),55,40,28,39,22,67,,125,104,36,14,9,9,0.8,0.6
2025-09-12T2100,1605A,122.0485,41.0883,盘锦市,兴隆台,,43,43,33,21,19,45,,130,100,67,25,7,8,0.5,0.4
2025-09-12T2100,1606A,121.8297,41.1028,盘锦市,新生街道,,35,29,27,24,18,49,,125,99,40,14,4,5,0.5,0.5
2025-09-12T2100,1832A,113.3257,33.742,平顶山市,新华旅馆,颗粒物(PM10),53,56,23,17,11,52,,89,82,19,7,5,4,0.5,0.3
2025-09-12T2100,1833A,113.2919,33.737,平顶山市,规划设计院,颗粒物(PM10),54,58,21,36,15,50,,85,77,26,9,4,4,0.9,0.5
2025-09-12T2100,1834A,113.182,33.774,平顶山市,平顶山工学院,,44,44,20,27,12,70,,89,83,16,9,6,6,0.5,0.4
2025-09-12T2100,3204A,113.3025,33.73,平顶山市,规划局,颗粒物(PM10),52,53,22,23,11,51,,88,81,25,9,5,4,0.7,0.5
2025-09-12T2100,3594A,112.8867,33.9116,平顶山市,石龙区,,,,21,,17,,,94,92,28,9,,5,0.6,0.5
2025-09-12T2100,2656A,106.6692,35.5461,平凉市,聚贤嘉苑,,43,43,34,21,16,55,,88,84,8,15,10,18,0.8,0.8
2025-09-12T2100,2657A,106.7021,35.5307,平凉市,博物馆,颗粒物(PM10),59,68,40,17,12,42,,89,82,21,17,9,9,1.1,0.7
2025-09-12T2100,2347A,114.0997,27.5002,萍乡市,武功山,,9,9,8,3,4,21,,53,43,5,3,12,11,0.6,0.4
2025-09-12T2100,2348A,113.8385,27.6434,萍乡市,中医院,,,33,27,16,16,37,,75,66,,15,,17,0.9,0.6
2025-09-12T2100,2349A,113.8493,27.6253,萍乡市,市政府车库,,36,,25,25,20,41,,76,68,6,12,10,19,0.5,1
2025-09-12T2100,2350A,113.8676,27.6435,萍乡市,市环保局,,29,28,26,20,17,35,,73,67,20,14,7,21,0.7,0.4
2025-09-12T2100,2351A,113.866,27.6198,萍乡市,安源区政府,,32,32,27,18,16,43,,75,69,11,16,9,19,0.3,0.7
2025-09-12T2100,2319A,119.0141,25.4325,莆田市,荔城区仓后路,,34,34,37,17,21,48,,148,127,27,17,10,8,0.6,0.6
2025-09-12T2100,2320A,119.0015,25.4553,莆田市,莆田市监测站,,29,28,34,20,21,53,,151,131,23,13,8,7,0.5,0.5
2025-09-12T2100,2321A,119.1119,25.4561,莆田市,涵江区六中,,25,25,34,8,19,52,,156,127,19,16,8,6,0.4,0.5
2025-09-12T2100,2322A,119.1013,25.3215,莆田市,秀屿区政府,,19,15,27,8,14,60,,145,112,21,12,15,8,0.4,0.4
2025-09-12T2100,2323A,118.981,25.4792,莆田市,东圳水库,,,,30,,16,,,88,,,9,,5,,0.8
2025-09-12T2100,2392A,115.0312,35.7636,濮阳市,环保局,,39,39,24,25,21,91,,116,112,18,11,5,5,0.7,0.6
2025-09-12T2100,2394A,115.0574,35.7609,濮阳市,油田运输公司,,48,48,34,19,19,96,,122,119,16,10,5,4,0.8,0.7
2025-09-12T2100,3021A,115,35.7668,濮阳市,濮水河管理处,,31,31,30,16,14,50,,100,88,17,13,4,4,0.5,0.5
2025-09-12T2100,4216A,115.0924,35.7686,濮阳市,任丘路479号,颗粒物(PM10),55,60,39,26,20,65,,113,106,28,12,6,6,0.8,0.7
2025-09-12T2100,2601A,100.98,22.7633,普洱市,市环保局,,30,30,21,18,15,6,,31,27,15,4,7,7,0.7,0.5
2025-09-12T2100,2602A,100.9817,22.8322,普洱市,普洱第二中学,,28,23,22,19,16,16,,33,28,6,5,6,6,0.4,0.4
2025-09-12T2100,2262A,131.0518,45.8751,七台河市,新一中,,43,43,25,23,13,74,,102,92,21,12,10,10,0.8,0.9
2025-09-12T2100,3345A,131.0577,45.7879,七台河市,中波台,,49,49,41,10,8,38,,68,57,35,18,8,7,1.0,0.7
2025-09-12T2100,3637A,131.0176,45.7761,七台河市,人民广场,颗粒物(PM10),60,69,32,32,14,34,,87,68,38,12,11,12,1.0,0.6
2025-09-12T2100,3684A,130.8781,45.8222,七台河市,新建矿广场,,34,34,31,13,9,35,,80,67,24,17,12,10,0.9,0.6
2025-09-12T2100,1779A,123.9305,47.3636,齐齐哈尔市,安居小区,颗粒物(PM10),56,61,27,24,12,17,,57,50,46,11,5,5,0.9,0.5
2025-09-12T2100,1780A,123.9488,47.3386,齐齐哈尔市,中心广场,,35,35,20,9,5,26,,60,54,44,12,6,5,0.6,0.5
2025-09-12T2100,1781A,123.9483,47.3227,齐齐哈尔市,农牧车辆厂,,39,39,27,14,8,24,,58,51,36,11,4,4,0.5,0.4
2025-09-12T2100,1783A,123.945,47.2988,齐齐哈尔市,市环境监测站,,24,24,19,8,9,29,,61,55,25,10,6,6,0.4,0.4
2025-09-12T2100,3662A,123.6333,47.2075,齐齐哈尔市,富区青少年活动中心,,,146,35,,15,31,,55,50,15,12,5,5,0.5,0.5
2025-09-12T2100,2591A,107.9783,26.5747,黔东南苗族侗族自治州,市环境监测站,,,,7,14,13,,,42,42,3,2,3,2,0.4,0.4
2025-09-12T2100,2881A,107.8908,26.5311,黔东南苗族侗族自治州,凯里学院,,14,,5,7,6,44,,49,45,5,6,6,6,0.3,0.4
2025-09-12T2100,2593A,107.5228,26.2403,黔南布依族苗族自治州,小围寨,,10,6,7,3,2,32,,41,40,2,3,1,2,0.3,0.3
2025-09-12T2100,3538A,107.5175,26.2978,黔南布依族苗族自治州,沙坝,,17,17,12,3,4,34,,46,44,4,4,4,4,0.3,0.3
2025-09-12T2100,2589A,104.9022,25.0925,黔西南布依族苗族自治州,场坝街,,31,31,16,10,6,42,,44,44,6,5,5,5,0.4,0.3
2025-09-12T2100,2590A,104.8811,25.0992,黔西南布依族苗族自治州,坪东大道,,31,31,21,16,7,42,,43,43,5,5,2,2,0.6,0.5
2025-09-12T2100,2502A,108.6236,21.9667,钦州市,市环保站,,12,9,15,3,6,36,,65,59,13,13,2,3,0.4,0.5
2025-09-12T2100,2503A,108.6549,21.9481,钦州市,沙埠小学,,21,21,24,11,12,19,,63,54,20,13,3,2,0.5,0.6
2025-09-12T2100,2504A,108.5989,21.7431,钦州市,港区一小,,30,30,28,8,10,22,,58,50,22,22,4,5,0.4,0.6
2025-09-12T2100,3404A,108.5959,21.9633,钦州市,北职校,,29,29,22,8,9,21,,74,66,21,16,6,4,0.4,0.5
2025-09-12T2100,1043A,119.7493,40.0116,秦皇岛市,第一关,颗粒物(PM10),57,63,41,32,20,7,,147,96,99,46,7,6,0.4,0.3
2025-09-12T2100,1044A,119.5897,39.9499,秦皇岛市,监测站,颗粒物(PM10),54,57,47,15,12,20,,143,116,81,41,6,7,0.5,0.4
2025-09-12T2100,1046A,119.5251,39.9041,秦皇岛市,建设大厦,颗粒物(PM10),65,80,56,21,10,19,,140,108,67,34,10,8,0.4,0.4
2025-09-12T2100,3132A,119.610547,39.943889,秦皇岛市,文明里,颗粒物(PM10),72,94,47,28,10,72,,143,127,41,31,8,8,0.4,0.3
2025-09-12T2100,4198A,119.5090,39.8253,秦皇岛市,北戴河轮滑馆,颗粒物(PM10),53,55,47,18,14,94,,140,130,16,17,2,3,0.4,0.4
2025-09-12T2100,1307A,120.6659,36.2403,青岛市,仰口,,25,6,15,3,6,79,,91,90,6,6,10,10,0.6,0.7
2025-09-12T2100,1310A,120.4134,36.0658,青岛市,市南区东部子站,,26,,12,9,8,83,,113,88,11,12,6,6,0.2,0.2
2025-09-12T2100,1311A,120.3664,36.1032,青岛市,四方区子站,,23,9,19,3,10,73,,99,83,7,11,2,3,0.2,0.2
2025-09-12T2100,1312A,120.2994,36.054,青岛市,市南区西部子站,,24,,14,3,7,75,,112,87,16,18,5,6,0.5,0.5
2025-09-12T2100,1313A,120.4581,36.0858,青岛市,崂山区子站,,28,6,10,3,4,89,,102,88,5,10,8,8,0.2,0.2
2025-09-12T2100,1315A,120.3999,36.3083,青岛市,城阳区子站,,27,,17,3,9,84,,95,93,7,15,3,3,0.3,0.4
2025-09-12T2100,1966A,120.0405,35.8735,青岛市,黄岛区4号,,,,,,,,,,,,,,,,
2025-09-12T2100,3362A,120.5014,36.4034,青岛市,即墨2号,,27,,21,6,15,86,,98,95,5,11,3,4,0.2,0.2
2025-09-12T2100,3642A,120.3503,36.0736,青岛市,市北区南部,,21,9,20,3,7,66,,94,75,15,16,6,6,0.7,0.7
2025-09-12T2100,3643A,120.3948,36.1805,青岛市,李沧区北部,,23,,11,3,11,73,,93,80,5,13,5,5,0.2,0.3
2025-09-12T2100,4290A,120.1969,35.9546,青岛市,珠江路669号,,17,,10,3,8,54,,107,69,31,25,6,6,0.3,0.3
2025-09-12T2100,1702A,113.0426,23.691,清远市,环保大楼,,29,29,32,12,17,68,,112,107,17,16,8,12,0.7,0.6
2025-09-12T2100,1703A,113.0208,23.7106,清远市,凤城街办,,22,22,22,12,14,55,,103,95,20,19,9,11,0.5,0.5
2025-09-12T2100,3025A,113.0477,23.6344,清远市,技师学院,,32,32,26,18,15,85,,123,117,33,19,8,10,0.5,0.4
2025-09-12T2100,3318A,112.9903,23.7403,清远市,清新太和,,,18,21,8,11,70,,83,81,,16,9,6,0.5,0.5
2025-09-12T2100,3455A,113.076,23.7198,清远市,清城东城,,21,19,26,10,15,65,,114,106,12,15,8,8,0.5,0.6
2025-09-12T2100,2661A,107.6325,35.7357,庆阳市,庆阳五中,,25,25,18,11,7,75,,76,76,15,7,8,7,0.5,0.5
2025-09-12T2100,2662A,107.6364,35.7067,庆阳市,市环保局,,32,32,18,14,11,82,,78,78,10,6,4,4,0.5,0.6
2025-09-12T2100,1916A,103.7897,25.5035,曲靖市,环境监测站,,22,22,20,3,8,37,,71,70,18,9,4,4,0.5,0.4
2025-09-12T2100,1917A,103.8,25.5364,曲靖市,烟厂办公区,,16,16,18,3,9,39,,50,50,10,7,4,4,0.5,0.4
2025-09-12T2100,3376A,103.7947,25.462,曲靖市,南苑二区,,16,16,15,7,9,36,,47,47,11,6,4,4,0.6,0.6
2025-09-12T2100,3377A,103.7444,25.5261,曲靖市,曲靖师范学院,,24,24,14,12,8,36,,54,53,13,7,1,1,0.4,0.3
2025-09-12T2100,1264A,118.8692,28.9398,衢州市,环保大楼,,24,24,22,12,11,42,,76,63,17,12,4,4,0.3,0.4
2025-09-12T2100,1265A,118.8709,28.9666,衢州市,实验学校,,25,25,19,10,10,43,,82,67,19,14,6,5,0.3,0.3
2025-09-12T2100,1266A,118.8621,28.9808,衢州市,衢州学院,,21,21,19,12,10,39,,82,64,19,19,4,4,0.3,0.3
2025-09-12T2100,1611A,118.5819,24.9117,泉州市,涂山街,,31,31,38,11,21,41,,165,126,22,19,5,5,0.5,0.6
2025-09-12T2100,1612A,118.5972,24.8978,泉州市,津头埔,,24,24,35,6,21,43,,164,125,16,16,5,5,0.4,0.5
2025-09-12T2100,1613A,118.6663,24.9424,泉州市,万安,,27,27,37,8,21,49,,158,122,20,17,5,3,0.5,0.5
2025-09-12T2100,1614A,118.6117,24.9604,泉州市,清源山,,,,29,,16,,,98,,,8,,2,,0.4
2025-09-12T2100,3529A,118.6333,24.9264,泉州市,城华南路,,17,17,34,7,22,47,,152,115,17,15,6,4,0.4,0.4
2025-09-12T2100,2626A,88.8876,29.2718,日喀则市,日喀则监测站,,28,8,5,3,1,89,,104,101,5,4,11,11,0.2,0.2
2025-09-12T2100,3726A,88.8781,29.2426,日喀则市,林业技术推广中心,,,8,4,3,0,,,102,101,3,3,5,5,0.2,0.1
2025-09-12T2100,1659A,119.471,35.4209,日照市,监测站,,,,6,3,6,,,93,82,17,16,6,6,0.5,0.6
2025-09-12T2100,1660A,119.523,35.4216,日照市,市政府广场,,22,9,6,3,3,68,,105,84,12,12,5,5,0.6,0.7
2025-09-12T2100,1661A,119.5587,35.4044,日照市,港务局,,23,,8,13,13,73,,110,88,8,9,3,3,0.6,0.6
2025-09-12T2100,3507A,119.5328,35.4625,日照市,职业技术学院,,24,6,6,3,3,74,,103,87,9,9,5,5,0.6,0.7
2025-09-12T2100,3604A,119.3266,35.1044,日照市,岚山环保分局,,24,,10,6,5,74,,114,74,15,14,8,12,0.6,1.3
2025-09-12T2100,1835A,111.1922,34.7752,三门峡市,市政府,,26,26,17,14,8,65,,100,94,14,9,7,6,0.4,0.3
2025-09-12T2100,1836A,111.1587,34.7942,三门峡市,开发区,,23,23,14,15,10,46,,95,87,24,11,5,5,0.4,0.3
2025-09-12T2100,1838A,111.143,34.7955,三门峡市,风景区,,18,,17,12,11,51,,107,99,6,7,4,5,0.4,0.5
2025-09-12T2100,3039A,111.1911,34.7829,三门峡市,三门峡市第一小学,,30,30,22,19,11,60,,97,91,12,7,7,6,0.5,0.4
2025-09-12T2100,3598A,111.1,34.7167,三门峡市,富达温泉假日酒店,,28,28,16,14,9,35,,100,88,29,9,5,5,0.4,0.3
2025-09-12T2100,2324A,117.6211,26.2625,三明市,三钢,,,,21,,11,,,73,58,22,14,2,7,0.5,1.3
2025-09-12T2100,2325A,117.635,26.2714,三明市,三明二中,,14,12,24,3,11,10,,71,50,27,11,3,4,0.8,0.8
2025-09-12T2100,2326A,117.6028,26.2378,三明市,三元区政府,,19,19,23,10,11,29,,80,59,16,11,1,3,0.4,0.5
2025-09-12T2100,2327A,117.7275,26.3108,三明市,洋溪,,,,19,,11,,,51,,,10,,5,,1.1
2025-09-12T2100,1876A,109.5078,18.2489,三亚市,河东子站,,16,16,13,6,6,29,,40,37,5,7,2,2,0.5,0.6
2025-09-12T2100,1877A,109.4964,18.2681,三亚市,河西子站,,20,20,15,7,7,28,,44,39,7,7,4,4,0.5,0.5
2025-09-12T2100,3540A,109.7348,18.3443,三亚市,君悦子站,,12,,2,3,4,37,,46,42,3,5,3,3,0.3,0.4
2025-09-12T2100,2624A,91.7608,29.2313,山南市,山南监测站,,29,8,7,6,4,90,,100,100,8,7,3,3,0.3,0.3
2025-09-12T2100,2625A,91.7706,29.2436,山南市,山南人民医院,,29,13,9,8,6,92,,101,101,5,5,3,3,0.3,0.3
2025-09-12T2100,1674A,116.6794,23.3667,汕头市,金平子站,,,,20,7,9,66,,81,68,8,12,3,4,0.6,0.6
2025-09-12T2100,1675A,116.7244,23.3633,汕头市,龙湖子站,,16,7,15,3,7,51,,77,67,17,9,9,8,0.8,0.6
2025-09-12T2100,1676A,116.7258,23.2775,汕头市,濠江子站,,18,,17,6,9,57,,74,66,15,8,6,6,0.6,0.7
2025-09-12T2100,1677A,116.7519,23.4714,汕头市,澄海子站,,32,32,23,7,12,41,,95,68,18,11,5,5,0.8,0.7
2025-09-12T2100,1678A,116.6092,23.2539,汕头市,潮阳子站,,20,9,16,6,8,63,,65,64,2,4,6,6,0.4,0.6
2025-09-12T2100,3444A,116.454,23.2684,汕头市,潮南峡山,,18,18,24,8,16,48,,82,69,7,9,6,6,0.4,0.5
2025-09-12T2100,3624A,116.4069,23.2533,汕头市,潮南子站,,14,12,32,3,17,43,,77,60,5,10,4,5,0.5,0.6
2025-09-12T2100,1693A,115.3653,22.775,汕尾市,市环保局,,19,,12,3,6,58,,63,62,8,7,3,3,0.4,0.4
2025-09-12T2100,1694A,115.3706,22.7898,汕尾市,市政府,,20,16,13,3,8,64,,63,63,5,8,4,4,0.4,0.4
2025-09-12T2100,1695A,115.3622,22.7925,汕尾市,新城中学,,21,,13,6,8,65,,63,63,5,8,5,5,0.4,0.5
2025-09-12T2100,2645A,109.9154,33.8715,商洛市,监测站,,20,20,10,7,7,32,,81,71,22,9,4,5,0.6,0.6
2025-09-12T2100,3045A,109.9643,33.8471,商洛市,商州区中学,,,32,18,,6,22,,79,62,22,14,12,8,0.5,0.4
2025-09-12T2100,2408A,115.6702,34.4285,商丘市,环境监测站,,,54,13,18,8,,,88,79,22,8,3,3,0.7,0.5
2025-09-12T2100,2409A,115.6458,34.4045,商丘市,粮食局,,40,40,12,20,5,52,,87,75,23,10,3,4,0.5,0.2
2025-09-12T2100,2410A,115.6293,34.3948,商丘市,睢阳区环保局,颗粒物(PM10),54,57,14,21,9,35,,87,73,24,7,3,4,0.5,0.3
2025-09-12T2100,3171A,115.6071,34.4465,商丘市,梁园区档案局,,35,35,10,22,10,40,,81,74,33,8,4,4,0.8,0.6
2025-09-12T2100,1141A,121.4,31.238,上海市,普陀,,,,34,,17,,,147,140,,15,,6,,0.5
2025-09-12T2100,1142A,121.478,31.2036,上海市,十五厂,颗粒物(PM10),66,82,42,40,20,117,,158,149,29,18,9,9,0.9,0.8
2025-09-12T2100,1143A,121.467,31.3008,上海市,虹口,颗粒物(PM10),57,64,35,30,17,115,,136,124,19,13,6,6,0.4,0.2
2025-09-12T2100,1147A,121.425,31.2261,上海市,静安监测站,,49,48,39,34,18,128,,154,145,21,16,4,4,0.8,0.8
2025-09-12T2100,1148A,121.703,31.1907,上海市,浦东川沙,,,48,35,7,16,,,140,140,17,16,7,7,,0.7
2025-09-12T2100,1149A,121.533,31.2284,上海市,浦东新区监测站,,,65,34,35,18,122,,165,156,23,14,,5,0.9,0.7
2025-09-12T2100,1150A,121.577,31.2071,上海市,浦东张江,颗粒物(PM10),55,60,44,24,17,120,,169,157,31,18,6,6,0.8,0.7
2025-09-12T2100,3265A,121.4316,31.3322,上海市,宝山庙行,颗粒物(PM10),58,65,37,28,16,116,,146,130,22,15,8,8,0.5,0.4
2025-09-12T2100,3266A,121.8791,31.4662,上海市,崇明上实东滩,,36,36,27,19,16,105,,164,147,13,9,5,5,0.4,0.4
2025-09-12T2100,3268A,121.3162,31.2838,上海市,嘉定南翔,,,58,36,,16,86,,134,119,40,20,4,4,,0.3
2025-09-12T2100,3269A,121.3359,30.7456,上海市,金山新城,,43,32,35,20,19,137,,164,159,10,9,4,4,0.8,0.8
2025-09-12T2100,3270A,121.4996,31.0739,上海市,闵行浦江,颗粒物(PM10),58,66,38,39,17,107,,158,150,28,16,4,5,1.0,1.1
2025-09-12T2100,3271A,121.2886,31.1663,上海市,青浦徐泾,,43,43,35,28,16,88,,143,129,33,13,6,7,0.7,0.6
2025-09-12T2100,3272A,121.2186,31.0378,上海市,松江图书馆,,38,29,32,26,20,104,,152,139,22,18,4,5,0.7,0.6
2025-09-12T2100,3273A,121.3902,31.2059,上海市,长宁仙霞,,46,45,37,32,16,106,,134,125,22,17,7,7,0.6,0.6
