timepoint,stationcode,longitude,latitude,area,positionname,primarypollutant,aqi,pm10,pm10_24h,pm2_5,pm2_5_24h,o3,o3_24h,o3_8h,o3_8h_24h,no2,no2_24h,so2,so2_24h,co,co_24h
2025-03-10T0900,2566A,102.1879,31.914,阿坝藏族羌族自治州,州农科所,颗粒物(PM10),57,64,27,18,11,40,,53,50,21,8,10,9,0.2,0
2025-03-10T0900,2568A,102.2502,31.8896,阿坝藏族羌族自治州,马师校,,28,,14,19,13,28,,40,37,22,13,5,5,0.5,0.4
2025-03-10T0900,3994A,102.2165,31.9024,阿坝藏族羌族自治州,马尔康中学西区,,14,13,17,6,11,42,,47,46,11,10,5,5,0.4,0.3
2025-03-10T0900,2695A,80.292,41.1694,阿克苏地区,电视台,颗粒物(PM10),82,114,145,49,44,16,,32,32,46,27,4,6,1.5,0.8
2025-03-10T0900,2696A,80.2613,41.1551,阿克苏地区,艺术中心,颗粒物(PM10),95,140,124,47,42,4,,30,30,60,35,5,5,1.7,0.9
2025-03-10T0900,2204A,105.6467,38.8363,阿拉善盟,西城区西花园,颗粒物(PM10),74,97,252,14,41,93,,100,99,16,11,12,11,0.7,0.7
2025-03-10T0900,2205A,105.6985,38.8411,阿拉善盟,蒙二幼,颗粒物(PM10),81,112,261,27,52,89,,94,92,14,11,6,7,0.7,0.6
2025-03-10T0900,2206A,105.724,38.8516,阿拉善盟,环保局新楼,,,77,222,23,50,,,103,102,8,5,10,8,1.1,1
2025-03-10T0900,2708A,88.1264,47.8517,阿勒泰地区,市站,,22,,7,10,5,69,,73,73,4,16,2,2,0.4,0.4
2025-03-10T0900,2630A,80.1161,32.5,阿里地区,阿里监测站,,25,6,9,3,5,79,,72,71,3,6,7,7,0.4,0.5
2025-03-10T0900,3192A,80.0903,32.5028,阿里地区,阿里藏医院,,29,8,11,3,6,91,,85,85,2,3,5,7,0.3,0.4
2025-03-10T0900,2642A,109.0318,32.6537,安康市,香溪洞,颗粒物(PM10),53,56,61,34,36,35,,50,48,8,11,10,11,0.7,0.7
2025-03-10T0900,2644A,109.0072,32.6975,安康市,汉滨区检察院,颗粒物(PM10),60,69,69,36,34,26,,33,32,28,25,14,8,0.6,0.5
2025-03-10T0900,4054A,109.0325,32.6913,安康市,市邮政管理局,颗粒物(PM10),64,77,76,45,39,31,,33,33,23,24,13,11,0.8,0.7
2025-03-10T0900,2291A,117.0809,30.5177,安庆市,环科院,细颗粒物(PM2.5),99,90,99,74,80,12,,6,6,46,62,9,12,0.9,1.1
2025-03-10T0900,2292A,117.0331,30.5119,安庆市,马山宾馆,细颗粒物(PM2.5),92,,92,68,82,8,,4,4,43,58,5,8,0.8,1.1
2025-03-10T0900,2294A,116.9896,30.6145,安庆市,安庆大学,细颗粒物(PM2.5),110,110,122,83,89,17,,16,16,42,55,10,10,0.7,0.7
2025-03-10T0900,3173A,117.0598,30.5351,安庆市,市人大,细颗粒物(PM2.5),93,85,106,69,86,13,,5,5,41,57,10,11,0.9,1.2
2025-03-10T0900,3122A,105.9606,26.2611,安顺市,伍家关,,13,13,21,9,16,13,,32,29,24,14,31,15,0.9,0.6
2025-03-10T0900,3123A,105.9408,26.2431,安顺市,凤凰山,,18,16,21,12,17,15,,28,25,22,17,32,23,0.9,0.8
2025-03-10T0900,3124A,105.9439,26.2564,安顺市,金钟山,,20,16,19,14,19,16,,30,28,19,12,27,19,0.8,0.6
2025-03-10T0900,3125A,105.8983,26.2481,安顺市,娄家坡,,16,14,20,11,18,18,,28,26,15,13,12,17,0.8,0.8
2025-03-10T0900,1818A,114.4839,36.0621,安阳市,棉研所,,,,,,,,,,,,,,,,
2025-03-10T0900,1819A,114.3551,36.1017,安阳市,红庙街,细颗粒物(PM2.5),140,135,94,107,81,58,,87,80,32,19,6,6,0.5,0.4
2025-03-10T0900,1820A,114.361,36.0681,安阳市,银杏小区,细颗粒物(PM2.5),142,,78,108,75,57,,89,82,31,21,2,3,0.7,0.6
2025-03-10T0900,3141A,114.3922,36.0878,安阳市,信访局,细颗粒物(PM2.5),139,114,93,106,88,58,,93,85,32,21,1,2,0.7,0.6
2025-03-10T0900,3669A,114.4705,36.0637,安阳市,左辅环卫站,细颗粒物(PM2.5),134,128,117,102,88,68,,86,83,30,23,3,3,0.6,0.6
2025-03-10T0900,3703A,114.2917,36.0949,安阳市,安钢职工学校,细颗粒物(PM2.5),153,128,91,117,89,59,,84,78,34,23,2,3,0.7,0.6
2025-03-10T0900,1748A,123.044,41.1196,鞍山市,深沟寺,细颗粒物(PM2.5),69,65,85,50,70,112,,127,124,12,13,8,10,0.8,0.8
2025-03-10T0900,1749A,123.011,41.0931,鞍山市,太阳城,细颗粒物(PM2.5),65,75,94,47,65,116,,129,126,14,14,4,7,0.8,0.8
2025-03-10T0900,1750A,123.0485,41.1442,鞍山市,太平,细颗粒物(PM2.5),62,68,99,44,66,115,,126,123,19,20,7,9,0.6,0.8
2025-03-10T0900,1751A,122.9642,41.0971,鞍山市,铁西三道街,细颗粒物(PM2.5),74,92,107,54,71,104,,110,110,30,36,7,15,1.0,0.9
2025-03-10T0900,1753A,123.022,41.0821,鞍山市,明达新区,细颗粒物(PM2.5),67,62,84,48,65,112,,130,127,15,14,5,7,0.6,0.7
2025-03-10T0900,1754A,123.1289,41.0228,鞍山市,千山,,,,89,,56,,,89,,,11,,5,,0.6
2025-03-10T0900,4201A,122.9446,41.0826,鞍山市,兴盛南路290号,细颗粒物(PM2.5),77,87,112,56,72,104,,115,112,24,24,10,12,0.8,0.9
2025-03-10T0900,2195A,107.4212,40.761,巴彦淖尔市,附二中,颗粒物(PM10),147,244,191,34,38,35,,47,43,25,18,41,10,0.7,0.6
2025-03-10T0900,2196A,107.37,40.7372,巴彦淖尔市,市环保大楼,颗粒物(PM10),127,203,174,37,38,37,,48,46,32,18,9,7,0.4,0.3
2025-03-10T0900,1956A,86.1472,41.7538,巴音郭楞蒙古自治州,孔雀公园,颗粒物(PM10),63,75,190,19,42,44,,51,51,37,36,5,6,0.5,0.6
2025-03-10T0900,1957A,86.1972,41.7166,巴音郭楞蒙古自治州,棉纺厂,颗粒物(PM10),81,112,228,8,34,58,,58,58,27,33,3,4,0.3,0.4
2025-03-10T0900,1958A,86.2357,41.7173,巴音郭楞蒙古自治州,经济开发区,颗粒物(PM10),105,160,207,3,31,83,,85,85,5,18,5,5,0.2,0.3
2025-03-10T0900,2914A,106.7677,31.8794,巴中市,苏山坪,,50,44,50,35,38,38,,45,43,8,12,5,5,0.4,0.4
2025-03-10T0900,3181A,106.7768,31.8526,巴中市,市五中,细颗粒物(PM2.5),55,53,51,39,38,4,,10,8,21,20,5,5,0.7,0.5
2025-03-10T0900,3183A,106.7418,31.8654,巴中市,圣泉水务公司,,46,46,45,32,32,4,,3,3,22,27,7,7,0.8,0.7
2025-03-10T0900,3616A,106.7616,31.8344,巴中市,市中心医院,,50,44,47,35,39,3,,3,3,21,23,6,6,0.7,0.6
2025-03-10T0900,2235A,122.7911,45.6077,白城市,洮北区环保局,颗粒物(PM10),113,176,225,68,85,99,,109,106,17,17,6,7,1.0,1
2025-03-10T0900,2236A,122.8738,45.5725,白城市,市环保局,颗粒物(PM10),118,185,256,83,95,107,,119,116,12,12,9,10,0.7,0.8
2025-03-10T0900,2231A,126.4219,41.9171,白山市,喜丰,颗粒物(PM10),70,90,71,50,33,78,,42,42,41,32,14,10,1.0,0.9
2025-03-10T0900,2232A,126.4077,41.9419,白山市,环保局,细颗粒物(PM2.5),87,97,70,64,39,39,,26,26,43,24,14,8,1.4,0.9
2025-03-10T0900,2647A,104.1724,36.5446,白银市,第三小学,细颗粒物(PM2.5),84,114,108,62,39,32,,38,36,45,23,339,114,2.1,1
2025-03-10T0900,2648A,104.1465,36.5482,白银市,动力公司,颗粒物(PM10),69,87,109,41,41,34,,46,43,33,19,25,57,1.1,0.7
2025-03-10T0900,2512A,106.6103,23.9011,百色市,市监测站,,30,30,50,20,41,13,,26,22,23,19,16,13,1.3,1
2025-03-10T0900,2513A,106.6538,23.8859,百色市,市中心血站,,40,31,47,28,48,9,,24,20,23,18,14,13,1.3,1
2025-03-10T0900,3406A,106.6085,23.8798,百色市,祈福高中,,,,57,,41,,,51,,,21,,11,,1.0
2025-03-10T0900,2270A,117.396,32.939,蚌埠市,工人疗养院,细颗粒物(PM2.5),99,118,86,74,60,40,,41,39,38,30,12,6,0.6,0.6
2025-03-10T0900,2271A,117.3605,32.9427,蚌埠市,百货大楼,细颗粒物(PM2.5),93,108,84,69,58,42,,28,27,38,40,6,6,0.6,0.5
2025-03-10T0900,2273A,117.4185,32.8911,蚌埠市,蚌埠学院,细颗粒物(PM2.5),92,83,73,68,60,41,,46,44,28,27,3,4,0.5,0.5
2025-03-10T0900,2274A,117.3533,32.9673,蚌埠市,淮上区政府,细颗粒物(PM2.5),109,112,83,82,66,31,,45,41,45,30,9,6,0.7,0.7
2025-03-10T0900,2275A,117.3145,32.8977,蚌埠市,高新区,,,,75,,62,48,,51,49,27,31,,8,0.4,0.5
2025-03-10T0900,3715A,117.3092,32.9314,蚌埠市,蚌埠田家炳中学,细颗粒物(PM2.5),93,102,84,69,62,53,,45,44,31,34,6,6,0.6,0.6
2025-03-10T0900,1585A,109.8756,40.6532,包头市,市环境监测站,颗粒物(PM10),115,179,148,45,40,13,,13,13,67,48,31,18,2.4,1.4
2025-03-10T0900,1587A,109.9991,40.5842,包头市,包头八中,颗粒物(PM10),123,196,159,72,52,11,,15,15,70,45,44,20,2.8,1
2025-03-10T0900,1588A,109.8538,40.6821,包头市,青山宾馆,细颗粒物(PM2.5),123,161,131,93,49,,,7,7,68,46,,13,2.4,0.9
2025-03-10T0900,1589A,109.8642,40.6288,包头市,惠龙物流,颗粒物(PM10),108,166,148,44,38,20,,13,13,62,44,32,16,2.1,1
2025-03-10T0900,1590A,110.0377,40.5546,包头市,东河鸿龙湾,颗粒物(PM10),123,196,145,46,37,19,,9,8,49,38,23,12,1.3,0.9
2025-03-10T0900,3283A,109.9154,40.5685,包头市,滨河大厦,颗粒物(PM10),109,167,130,51,41,11,,10,7,58,36,26,12,2.0,0.9
2025-03-10T0900,3419A,109.9447,40.6261,包头市,包头市委党校,颗粒物(PM10),109,168,136,60,38,13,,20,20,66,41,32,16,3.2,1.5
2025-03-10T0900,3683A,109.8331,40.6576,包头市,昆区政府,颗粒物(PM10),111,171,150,57,48,11,,6,6,65,51,33,20,2.2,1.3
2025-03-10T0900,1930A,107.185,34.3063,宝鸡市,庙沟村,细颗粒物(PM2.5),57,48,60,40,45,56,,72,70,15,15,6,7,0.4,0.4
2025-03-10T0900,1931A,107.0708,34.3017,宝鸡市,竹园沟,细颗粒物(PM2.5),55,53,56,39,39,33,,38,37,22,21,6,7,0.6,0.6
2025-03-10T0900,1932A,107.1906,34.3672,宝鸡市,三陆医院,"颗粒物(PM10),细颗粒物(PM2.5)",80,110,85,59,54,11,,10,9,45,41,10,7,1.1,0.7
2025-03-10T0900,1933A,107.1431,34.3547,宝鸡市,监测站,细颗粒物(PM2.5),63,71,77,45,49,18,,28,26,34,25,8,8,1.0,0.7
2025-03-10T0900,1934A,107.1186,34.3739,宝鸡市,技工学校,细颗粒物(PM2.5),70,68,76,51,48,28,,36,33,24,24,17,10,0.9,0.7
2025-03-10T0900,1935A,107.3906,34.3528,宝鸡市,陈仓区环保局家属楼,细颗粒物(PM2.5),89,91,83,66,55,10,,10,10,51,43,9,8,0.9,0.7
2025-03-10T0900,1936A,107.2058,34.3497,宝鸡市,文理学院,细颗粒物(PM2.5),64,74,75,46,49,18,,31,28,36,26,7,6,0.7,0.5
2025-03-10T0900,1937A,107.2386,34.3622,宝鸡市,三迪小学,细颗粒物(PM2.5),84,79,74,62,53,11,,23,20,47,31,8,8,1.1,0.7
2025-03-10T0900,1051A,115.493,38.8632,保定市,游泳馆,细颗粒物(PM2.5),138,132,120,105,89,80,,98,93,27,23,9,8,0.5,0.4
2025-03-10T0900,1052A,115.5213,38.8959,保定市,华电二区,细颗粒物(PM2.5),158,,101,120,91,82,,95,92,18,20,9,10,0.9,0.8
2025-03-10T0900,1053A,115.4713,38.9108,保定市,接待中心,细颗粒物(PM2.5),149,134,115,114,97,77,,98,93,24,21,8,8,0.8,0.7
2025-03-10T0900,1054A,115.4612,38.8416,保定市,地表水厂,细颗粒物(PM2.5),147,133,123,112,88,71,,91,86,29,23,7,6,0.8,0.7
2025-03-10T0900,3581A,115.31981,38.95208,保定市,满城区生态环境分局,细颗粒物(PM2.5),163,153,129,124,95,58,,84,77,36,25,11,13,0.9,0.7
2025-03-10T0900,3582A,115.47694,38.76408,保定市,清苑区第二中学,细颗粒物(PM2.5),134,126,118,102,82,61,,82,78,37,29,8,9,0.6,0.5
2025-03-10T0900,3583A,115.62909,39.02311,保定市,徐水物探局,细颗粒物(PM2.5),147,124,112,112,87,58,,89,83,39,24,9,9,0.5,0.4
2025-03-10T0900,4004A,115.4202,38.8656,保定市,双鹰农机,细颗粒物(PM2.5),142,112,107,108,82,68,,88,84,34,28,2,3,0.9,0.8
2025-03-10T0900,4034A,115.5150,38.8590,保定市,植保所站,细颗粒物(PM2.5),162,124,112,123,92,63,,83,79,36,30,6,6,0.9,0.7
2025-03-10T0900,2594A,99.1678,25.1081,保山市,市环境监测站,细颗粒物(PM2.5),60,,61,43,39,63,,74,72,17,13,5,4,0.6,0.5
2025-03-10T0900,2595A,99.1711,25.1328,保山市,市环保局,细颗粒物(PM2.5),57,55,65,40,39,70,,90,87,14,9,5,6,0.7,0.7
2025-03-10T0900,1866A,109.2262,21.588,北海市,牛尾岭水库,,,,36,49,33,4,,6,5,,,6,6,0.9,0.9
2025-03-10T0900,1867A,109.1436,21.4086,北海市,海滩公园,颗粒物(PM10),57,63,45,39,30,28,,25,25,25,18,8,8,0.9,0.9
2025-03-10T0900,1868A,109.0981,21.4661,北海市,新市环保局,细颗粒物(PM2.5),64,56,41,46,34,11,,15,14,20,17,5,5,0.9,0.9
2025-03-10T0900,1869A,109.1778,21.5233,北海市,北海工业园,细颗粒物(PM2.5),68,70,52,49,37,9,,12,11,26,19,10,10,0.9,0.9
2025-03-10T0900,3400A,109.1911,21.4415,北海市,龙潭自来水厂,细颗粒物(PM2.5),79,,40,58,42,12,,12,11,21,16,7,8,1.0,0.9
2025-03-10T0900,1001A,116.3621,39.8784,北京市,万寿西宫,细颗粒物(PM2.5),139,141,137,106,101,78,,108,100,35,27,3,3,1.0,0.9
2025-03-10T0900,1002A,116.2202,40.2915,北京市,定陵,,,,,,,,,,,,,,,,
2025-03-10T0900,1003A,116.4174,39.9289,北京市,东四,细颗粒物(PM2.5),143,137,134,109,104,81,,103,96,28,23,7,7,0.8,0.7
2025-03-10T0900,1004A,116.4072,39.8863,北京市,天坛,细颗粒物(PM2.5),137,135,134,104,101,74,,88,81,30,27,4,4,0.9,0.9
2025-03-10T0900,1005A,116.462,39.9365,北京市,农展馆,细颗粒物(PM2.5),135,131,133,103,100,80,,107,100,36,28,7,7,0.9,0.8
2025-03-10T0900,1006A,116.3392,39.9295,北京市,官园,细颗粒物(PM2.5),144,138,137,110,106,71,,86,82,26,24,7,7,0.9,0.8
2025-03-10T0900,1007A,116.2878,39.9611,北京市,海淀万柳,细颗粒物(PM2.5),156,154,136,119,105,50,,78,75,45,28,3,3,1.1,1
2025-03-10T0900,1008A,116.6636,40.135,北京市,顺义新城,细颗粒物(PM2.5),122,140,138,92,97,74,,94,88,36,29,5,5,0.6,0.6
2025-03-10T0900,1009A,116.6275,40.3275,北京市,怀柔镇,细颗粒物(PM2.5),129,129,125,98,97,69,,84,79,36,33,3,4,0.9,0.8
2025-03-10T0900,1010A,116.2296,40.217,北京市,昌平镇,细颗粒物(PM2.5),134,152,160,102,104,74,,81,78,25,28,2,2,0.8,0.9
2025-03-10T0900,1011A,116.3966,39.9821,北京市,奥体中心,细颗粒物(PM2.5),142,144,141,108,103,82,,103,98,30,29,4,4,1.0,0.9
2025-03-10T0900,3281A,115.9718,40.4529,北京市,延庆夏都,细颗粒物(PM2.5),125,129,127,95,97,67,,73,72,22,20,5,6,0.8,0.7
2025-03-10T0900,3418A,116.8336,40.4095,北京市,密云新城,细颗粒物(PM2.5),129,129,127,98,95,67,,106,99,26,17,4,5,0.8,0.7
2025-03-10T0900,3671A,116.088,39.9726,北京市,门头沟三家店,细颗粒物(PM2.5),134,141,140,102,102,38,,60,53,37,31,4,5,0.6,0.6
2025-03-10T0900,3672A,116.1541,39.8204,北京市,丰台云岗,细颗粒物(PM2.5),139,148,142,106,102,68,,97,90,32,26,5,6,0.9,0.8
2025-03-10T0900,3673A,116.6804,39.9081,北京市,通州东关,细颗粒物(PM2.5),123,120,130,93,97,67,,100,93,53,40,6,7,0.6,0.6
2025-03-10T0900,3674A,115.9577,39.7603,北京市,房山燕山,细颗粒物(PM2.5),143,136,130,109,102,56,,72,66,27,23,3,3,0.7,0.6
2025-03-10T0900,3675A,116.4672,39.7733,北京市,大兴旧宫,细颗粒物(PM2.5),122,123,134,92,95,69,,87,82,26,22,1,1,0.6,0.6
2025-03-10T0900,3694A,115.986,40.4563,北京市,延庆石河营,细颗粒物(PM2.5),130,138,128,99,96,63,,67,63,23,19,4,5,0.9,0.8
2025-03-10T0900,3695A,116.6151,40.3053,北京市,怀柔新城,细颗粒物(PM2.5),134,128,127,102,102,73,,88,83,21,25,4,5,0.8,0.8
2025-03-10T0900,3696A,116.2545,39.8768,北京市,丰台小屯,细颗粒物(PM2.5),139,142,139,106,100,77,,85,81,30,33,2,2,0.6,0.6
2025-03-10T0900,3697A,116.84,40.3844,北京市,密云镇,细颗粒物(PM2.5),122,127,130,92,94,97,,112,108,18,18,7,5,0.7,0.7
2025-03-10T0900,4182A,116.1942,39.9158,北京市,八角北路9号,细颗粒物(PM2.5),144,146,144,110,101,60,,88,82,45,29,2,2,0.7,0.6
2025-03-10T0900,4194A,117.0790,40.1518,北京市,洳河巡河路,细颗粒物(PM2.5),120,118,117,91,96,95,,109,106,23,20,4,4,0.6,0.6
2025-03-10T0900,1761A,123.8275,41.3064,本溪市,大峪,,,71,80,55,59,,,133,132,14,14,10,11,0.7,0.7
2025-03-10T0900,1762A,123.7567,41.3325,本溪市,溪湖,细颗粒物(PM2.5),94,95,94,70,65,107,,118,115,18,19,14,13,1.1,1
2025-03-10T0900,1763A,123.7169,41.3094,本溪市,彩屯,细颗粒物(PM2.5),114,127,116,86,76,90,,92,91,29,30,21,25,2.3,2.7
2025-03-10T0900,1764A,123.7669,41.2864,本溪市,东明,细颗粒物(PM2.5),85,75,73,63,63,101,,114,112,18,17,7,7,0.8,0.7
2025-03-10T0900,1765A,123.7992,41.2664,本溪市,新立屯,细颗粒物(PM2.5),89,67,64,66,66,119,,132,130,16,17,5,6,0.7,0.7
2025-03-10T0900,1766A,123.8142,41.3472,本溪市,威宁,细颗粒物(PM2.5),79,93,88,58,59,112,,124,122,13,13,5,5,0.6,0.7
2025-03-10T0900,2587A,105.2864,27.3125,毕节市,八中,,29,26,24,20,15,21,,41,37,18,11,7,8,0.8,0.7
2025-03-10T0900,2588A,105.31,27.2944,毕节市,师专,,26,26,22,18,15,25,,40,38,18,12,7,6,0.8,0.7
2025-03-10T0900,4263A,105.3688,27.3598,毕节市,工业大道,,29,22,19,20,14,31,,45,43,16,11,8,8,0.6,0.5
2025-03-10T0900,1629A,118.0018,37.3617,滨州市,第二水厂,细颗粒物(PM2.5),138,151,110,105,75,49,,50,48,41,24,10,10,0.8,0.5
2025-03-10T0900,1630A,117.9776,37.393,滨州市,北中新校,细颗粒物(PM2.5),128,149,111,97,74,60,,64,61,50,33,14,10,1.1,0.8
2025-03-10T0900,3514A,117.9378,37.3956,滨州市,中海酒店,细颗粒物(PM2.5),132,129,97,100,78,79,,90,86,37,24,13,10,0.9,0.6
2025-03-10T0900,3515A,117.9378,37.3553,滨州市,开发区一中,细颗粒物(PM2.5),140,151,109,107,73,46,,58,52,56,37,13,10,1.0,0.6
2025-03-10T0900,3516A,118.0917,37.694,滨州市,金海六路,细颗粒物(PM2.5),119,129,105,90,73,61,,65,64,33,27,13,16,1.2,1
2025-03-10T0900,4028A,117.9956,37.3753,滨州市,滨州市西街道办事处,细颗粒物(PM2.5),156,161,111,119,86,50,,52,51,46,26,10,8,1.2,0.9
2025-03-10T0900,2311A,115.8072,33.8399,亳州市,污水处理厂,细颗粒物(PM2.5),80,94,83,59,55,41,,56,52,27,23,6,7,0.7,0.6
2025-03-10T0900,2312A,115.7789,33.8518,亳州市,三国揽胜宫,细颗粒物(PM2.5),82,111,101,60,54,37,,56,51,28,19,6,6,0.4,0.4
2025-03-10T0900,3332A,115.7633,33.8034,亳州市,亳州学院,细颗粒物(PM2.5),92,105,89,68,63,49,,63,59,30,24,6,5,0.5,0.5
2025-03-10T0900,2693A,82.0485,44.8556,博尔塔拉蒙古自治州,市党校,,29,22,26,20,14,55,,59,58,11,12,4,5,1.2,1.3
2025-03-10T0900,2694A,82.0806,44.8969,博尔塔拉蒙古自治州,市环保局,,27,27,33,12,16,78,,77,77,11,17,2,2,0.3,0.6
2025-03-10T0900,1071A,116.8842,38.2991,沧州市,沧县城建局,细颗粒物(PM2.5),97,89,96,72,72,75,,93,88,22,18,4,4,0.7,0.7
2025-03-10T0900,1072A,116.8584,38.3254,沧州市,电视转播站,细颗粒物(PM2.5),107,103,92,80,74,76,,91,87,20,17,3,5,0.6,0.6
2025-03-10T0900,1073A,116.8709,38.3228,沧州市,市环保局,细颗粒物(PM2.5),105,92,89,79,70,69,,84,81,21,18,8,8,,0.6
2025-03-10T0900,3324A,116.8136,38.3004,沧州市,河北水利电力学院,细颗粒物(PM2.5),95,102,101,71,71,69,,83,80,21,19,10,9,0.7,0.6
2025-03-10T0900,2622A,97.1806,31.1273,昌都市,昌都监测站,,23,22,14,16,11,36,,54,51,19,9,7,6,0.7,0.5
2025-03-10T0900,3719A,97.1714,31.1406,昌都市,昌都会议中心,,22,18,9,15,8,51,,70,66,13,4,2,2,0.5,0.4
2025-03-10T0900,2690A,88.1236,43.8886,昌吉回族自治州,天山天池,,,8,9,,13,83,,83,83,3,4,5,6,0.3,0.4
2025-03-10T0900,2692A,87.2717,44.0297,昌吉回族自治州,新区政务中心,颗粒物(PM10),67,84,76,12,27,73,,81,78,6,21,4,7,0.3,0.7
2025-03-10T0900,3613A,87.3095,44.0142,昌吉回族自治州,亚心广场,颗粒物(PM10),51,51,86,7,38,70,,79,76,10,29,5,8,0.2,0.6
2025-03-10T0900,1119A,125.3325,43.9166,长春市,食品厂,细颗粒物(PM2.5),103,97,89,77,72,129,,127,127,16,18,9,10,0.6,0.6
2025-03-10T0900,1120A,125.2863,43.9027,长春市,客车厂,细颗粒物(PM2.5),109,90,86,82,80,118,,121,121,23,21,8,8,0.7,0.7
2025-03-10T0900,1121A,125.2841,43.8463,长春市,邮电学院,细颗粒物(PM2.5),102,102,92,76,76,132,,119,119,18,33,8,24,0.8,0.8
2025-03-10T0900,1122A,125.3716,43.8772,长春市,劳动公园,细颗粒物(PM2.5),103,,77,77,68,128,,123,123,21,20,7,8,0.2,0.2
2025-03-10T0900,1123A,125.3297,43.8805,长春市,园林处,细颗粒物(PM2.5),104,99,82,78,77,132,,129,129,13,14,8,9,0.7,0.6
2025-03-10T0900,1124A,125.4605,43.79,长春市,净月潭,细颗粒物(PM2.5),97,81,68,72,61,128,,120,120,11,10,7,8,0.6,0.6
2025-03-10T0900,1125A,125.7194,43.515,长春市,甩湾子,,,,,,,,,,,,,,,,
2025-03-10T0900,1126A,125.3863,43.8447,长春市,经开区环卫处,细颗粒物(PM2.5),102,76,79,76,68,119,,117,117,14,13,7,8,0.6,0.6
2025-03-10T0900,1127A,125.245,43.7783,长春市,高新区管委会,细颗粒物(PM2.5),103,77,76,77,73,125,,123,123,14,16,10,10,0.7,0.6
2025-03-10T0900,1128A,125.1761,43.8325,长春市,岱山公园,细颗粒物(PM2.5),98,83,91,73,80,130,,130,130,21,25,7,8,0.6,0.6
2025-03-10T0900,1335A,113.0833,28.2325,长沙市,经开区环保局,细颗粒物(PM2.5),63,,56,45,53,25,,21,21,42,35,4,4,0.8,0.6
2025-03-10T0900,1336A,112.8872,28.2189,长沙市,高开区环保局,细颗粒物(PM2.5),60,,58,43,53,30,,33,32,21,21,4,4,0.9,0.7
2025-03-10T0900,1337A,113.0792,28.2053,长沙市,马坡岭,细颗粒物(PM2.5),55,42,60,39,48,24,,20,19,29,27,4,4,0.8,0.7
2025-03-10T0900,1338A,112.9394,28.19,长沙市,湖南师范大学,细颗粒物(PM2.5),60,46,65,43,47,29,,30,30,15,22,4,4,0.9,0.8
2025-03-10T0900,1339A,113.0178,28.1322,长沙市,雨花区环保局,细颗粒物(PM2.5),68,55,61,49,52,13,,29,29,32,25,15,6,0.8,0.6
2025-03-10T0900,1340A,112.9792,28.2597,长沙市,伍家岭,细颗粒物(PM2.5),59,48,64,42,47,31,,28,27,24,26,3,3,0.8,0.6
2025-03-10T0900,1341A,113.0014,28.1944,长沙市,火车新站,细颗粒物(PM2.5),64,,59,46,53,32,,35,35,26,29,5,5,1.2,0.9
2025-03-10T0900,1342A,112.9844,28.1178,长沙市,天心区环保局,细颗粒物(PM2.5),57,46,60,40,45,16,,31,30,38,36,3,2,1.4,1
2025-03-10T0900,1343A,112.8908,28.1308,长沙市,湖南中医药大学,细颗粒物(PM2.5),68,54,59,49,48,23,,27,27,16,24,7,3,0.8,0.6
2025-03-10T0900,1344A,112.9581,28.3611,长沙市,沙坪,,49,49,59,30,39,24,,27,27,27,20,5,6,1.0,0.9
2025-03-10T0900,1727A,113.1147,36.1547,长治市,清华站,细颗粒物(PM2.5),107,80,67,80,55,23,,86,76,66,21,10,10,1.3,0.9
2025-03-10T0900,1730A,113.0886,36.2125,长治市,审计局,细颗粒物(PM2.5),128,,68,97,66,46,,93,84,48,21,7,7,1.0,0.8
2025-03-10T0900,1731A,113.0844,36.1856,长治市,长治八中,细颗粒物(PM2.5),112,126,86,84,67,50,,90,83,40,18,8,8,0.7,0.6
2025-03-10T0900,2845A,113.1569,36.1911,长治市,德盛苑,细颗粒物(PM2.5),107,89,68,80,56,73,,109,104,28,16,6,5,1.1,0.7
2025-03-10T0900,3568A,113.06,36.0464,长治市,向阳小学,细颗粒物(PM2.5),100,109,91,75,63,47,,96,89,37,12,11,8,0.9,0.6
2025-03-10T0900,3569A,112.8792,36.3144,长治市,屯留一中,细颗粒物(PM2.5),99,92,76,74,61,39,,57,49,45,29,8,8,0.6,0.5
2025-03-10T0900,4189A,113.1131,36.19948,长治市,英华南巷50号,细颗粒物(PM2.5),128,,72,97,60,53,,100,91,42,19,9,9,1.0,0.7
2025-03-10T0900,4190A,113.2367,36.3344,长治市,学府街1号,细颗粒物(PM2.5),120,128,87,91,67,57,,74,69,48,25,9,5,2.1,0.9
2025-03-10T0900,1854A,111.6975,28.9703,常德市,市二中,颗粒物(PM10),63,75,61,39,40,16,,38,34,25,14,7,6,0.7,0.6
2025-03-10T0900,1857A,111.7158,29.1456,常德市,白鹤山,,,,,,,,,,,,,,,,
2025-03-10T0900,3138A,111.7153,29.0289,常德市,武陵区永安,细颗粒物(PM2.5),62,68,65,44,41,17,,35,31,20,12,9,5,0.8,0.7
2025-03-10T0900,3139A,111.6892,28.9881,常德市,鼎城区玉霞,颗粒物(PM10),59,68,60,35,36,17,,30,26,25,18,6,4,0.7,0.6
2025-03-10T0900,3140A,111.6625,29.0531,常德市,武陵区长庚,颗粒物(PM10),66,82,65,39,39,32,,36,34,15,12,7,5,0.7,0.6
2025-03-10T0900,1196A,119.9633,31.762,常州市,市监测站,"颗粒物(PM10),细颗粒物(PM2.5)",67,84,66,48,36,30,,50,46,43,42,10,10,0.6,0.6
2025-03-10T0900,1200A,119.9468,31.7069,常州市,武进监测站,颗粒物(PM10),57,63,52,36,30,34,,56,50,43,27,4,3,0.6,0.5
2025-03-10T0900,1201A,119.9255,31.9087,常州市,安家,颗粒物(PM10),60,70,60,42,36,34,,43,42,37,29,7,7,0.6,0.6
2025-03-10T0900,3002A,119.9805,31.8174,常州市,行政中心,细颗粒物(PM2.5),57,62,54,40,36,38,,49,46,35,30,10,10,0.3,0.4
2025-03-10T0900,3003A,120.0522,31.7748,常州市,经开区,颗粒物(PM10),60,69,65,38,34,37,,54,50,42,34,8,7,0.4,0.4
2025-03-10T0900,3010A,119.9025,31.7964,常州市,钟楼,细颗粒物(PM2.5),67,73,59,48,35,34,,54,49,36,28,8,8,0.5,0.5
2025-03-10T0900,3429A,119.8598,31.7066,常州市,武进经发区,颗粒物(PM10),52,54,50,35,34,39,,58,53,44,31,7,7,0.8,0.6
2025-03-10T0900,3430A,119.5826,31.7245,常州市,金坛城区,颗粒物(PM10),54,58,54,33,34,61,,71,68,20,18,8,7,0.6,0.5
2025-03-10T0900,2220A,120.4318,41.5881,朝阳市,西梁,细颗粒物(PM2.5),132,111,119,100,97,105,,120,117,29,18,12,11,1.2,1
2025-03-10T0900,2221A,120.4521,41.5646,朝阳市,河畔小区,细颗粒物(PM2.5),117,,89,88,93,116,,131,128,26,19,10,9,1.1,1
2025-03-10T0900,2222A,120.4176,41.5648,朝阳市,八里堡,细颗粒物(PM2.5),119,,91,90,88,99,,111,108,30,21,12,10,1.1,0.9
2025-03-10T0900,2223A,120.3806,41.5969,朝阳市,农业园区,细颗粒物(PM2.5),132,,95,100,102,124,,127,125,22,23,11,11,1.2,1.1
2025-03-10T0900,1705A,116.6367,23.6719,潮州市,西园路,细颗粒物(PM2.5),65,60,49,47,34,35,,49,43,23,17,12,7,0.4,0.3
2025-03-10T0900,3026A,116.6183,23.6608,潮州市,市政府,细颗粒物(PM2.5),69,55,47,50,31,25,,48,42,39,23,18,9,0.7,0.4
2025-03-10T0900,4036A,116.6461,23.6761,潮州市,金山,细颗粒物(PM2.5),59,59,46,42,32,27,,46,40,22,18,9,8,0.8,0.6
2025-03-10T0900,2472A,113.0073,25.9061,郴州市,马头岭,,39,39,52,22,24,28,,31,30,24,21,8,13,0.7,0.6
2025-03-10T0900,2473A,113.0116,25.8226,郴州市,市职中,细颗粒物(PM2.5),54,46,49,38,39,22,,24,23,19,20,6,15,0.7,0.7
2025-03-10T0900,2475A,113.0383,25.8071,郴州市,市审计局,,50,44,51,35,40,22,,26,25,19,21,4,20,0.7,0.8
2025-03-10T0900,2476A,113.0348,25.7759,郴州市,市环保局,细颗粒物(PM2.5),72,66,60,52,49,22,,22,21,16,21,19,22,0.7,0.7
2025-03-10T0900,4252A,113.0138,25.8011,郴州市,好美居路49号,细颗粒物(PM2.5),58,58,57,41,43,19,,24,23,23,22,6,17,0.7,0.7
2025-03-10T0900,1431A,103.9728,30.7236,成都市,金泉两河,"颗粒物(PM10),细颗粒物(PM2.5)",65,80,59,47,27,2,,1,1,43,36,2,2,1.0,0.7
2025-03-10T0900,1432A,104.176,30.6872,成都市,十里店,细颗粒物(PM2.5),60,66,51,43,34,6,,34,30,53,38,3,2,0.9,0.6
2025-03-10T0900,1433A,104.079,30.5706,成都市,三瓦窑,细颗粒物(PM2.5),67,81,63,48,38,5,,13,13,60,50,4,4,1.1,0.8
2025-03-10T0900,1434A,104.1114,30.63,成都市,沙河铺,细颗粒物(PM2.5),65,60,54,47,44,9,,24,24,32,31,5,5,0.9,0.8
2025-03-10T0900,1437A,104.0786,30.6531,成都市,君平街,细颗粒物(PM2.5),80,70,57,59,41,11,,18,18,60,48,6,6,1.0,0.8
2025-03-10T0900,1438A,103.613,31.0283,成都市,灵岩寺,,,,,,,,,,,,,,,,
2025-03-10T0900,2880A,104.0239,30.65639,成都市,大石西路,细颗粒物(PM2.5),78,76,62,57,39,4,,3,3,58,47,5,5,1.4,0.9
2025-03-10T0900,3136A,104.2725,30.5589,成都市,龙泉驿区区政府,,44,44,43,29,33,22,,41,37,28,21,4,4,0.8,0.6
2025-03-10T0900,3357A,104.0106,30.6931,成都市,金博路,细颗粒物(PM2.5),67,80,51,48,30,2,,3,2,45,40,6,6,1.1,0.8
2025-03-10T0900,3359A,104.0578,30.5225,成都市,华阳,细颗粒物(PM2.5),64,66,59,46,43,9,,10,10,47,46,6,5,1.0,0.8
2025-03-10T0900,3488A,104.3853,30.7453,成都市,青白江技师分院,细颗粒物(PM2.5),65,50,44,47,32,27,,41,38,37,25,5,5,0.5,0.5
2025-03-10T0900,3489A,104.0789,30.4072,成都市,科学城,细颗粒物(PM2.5),57,48,46,40,36,13,,23,22,39,34,4,4,0.7,0.5
2025-03-10T0900,4011A,103.8506,30.6947,成都市,光华大道三段,细颗粒物(PM2.5),64,74,56,46,32,5,,5,5,37,36,5,4,1.2,0.8
2025-03-10T0900,4224A,104.2433,30.5353,成都市,鲸龙路1057号,"颗粒物(PM10),细颗粒物(PM2.5)",55,60,51,39,35,8,,41,36,54,28,4,4,1.1,0.7
2025-03-10T0900,1062A,117.9531,40.9081,承德市,铁路,细颗粒物(PM2.5),112,125,102,84,67,62,,115,107,68,27,7,7,0.8,0.6
2025-03-10T0900,1063A,117.9392,40.9763,承德市,中国银行,细颗粒物(PM2.5),114,146,104,86,66,42,,98,88,53,22,4,4,1.0,0.6
2025-03-10T0900,1064A,117.9503,40.928,承德市,开发区,细颗粒物(PM2.5),122,159,100,92,62,39,,117,106,80,27,7,6,1.2,0.7
2025-03-10T0900,1065A,117.8051,40.9655,承德市,文化中心,细颗粒物(PM2.5),138,163,107,105,68,34,,86,74,72,24,6,5,,0.5
2025-03-10T0900,1066A,117.9268,41.0026,承德市,离宫,细颗粒物(PM2.5),112,90,92,84,72,,,104,102,22,17,6,6,0.6,0.5
2025-03-10T0900,2314A,117.47,30.6618,池州市,池州学院,细颗粒物(PM2.5),53,50,80,37,61,46,,20,20,24,36,5,5,0.6,0.8
2025-03-10T0900,3237A,117.4918,30.6617,池州市,展览馆,细颗粒物(PM2.5),59,44,76,42,64,45,,22,22,22,33,5,5,0.8,0.9
2025-03-10T0900,3333A,117.5627,30.695,池州市,第八中学,,42,40,73,29,58,42,,16,16,19,32,4,5,0.9,0.9
2025-03-10T0900,3334A,117.5038,30.6243,池州市,第十二中学,,48,41,67,33,59,20,,12,12,30,35,5,6,1.2,1.1
2025-03-10T0900,1744A,118.9233,42.2816,赤峰市,松山一中,细颗粒物(PM2.5),97,96,87,72,54,97,,110,106,40,26,15,12,1.0,0.9
2025-03-10T0900,1745A,118.9576,42.2728,赤峰市,哈达街,细颗粒物(PM2.5),89,96,88,66,64,80,,98,92,46,26,16,12,1.0,0.8
2025-03-10T0900,1746A,118.8788,42.2554,赤峰市,天义路,细颗粒物(PM2.5),135,,80,103,71,90,,102,100,27,18,10,8,0.5,0.3
2025-03-10T0900,3058A,119.2658,42.0353,赤峰市,银河街,细颗粒物(PM2.5),114,124,145,86,71,97,,96,96,32,25,25,23,0.9,0.8
2025-03-10T0900,3286A,118.9359,42.3147,赤峰市,桥北物流园区,细颗粒物(PM2.5),127,,82,96,79,94,,105,102,24,19,9,9,1.0,0.9
2025-03-10T0900,2521A,107.3476,22.4136,崇左市,市环保局江州分局,颗粒物(PM10),58,66,50,38,36,16,,13,13,14,17,4,6,0.8,0.9
2025-03-10T0900,4256A,107.3750,22.3736,崇左市,石景林东路7号,细颗粒物(PM2.5),60,60,44,43,41,17,,14,14,19,21,4,5,0.7,0.7
2025-03-10T0900,2298A,118.3093,32.3153,滁州市,老年大学,细颗粒物(PM2.5),65,70,65,47,49,65,,70,69,26,26,6,6,0.5,0.6
2025-03-10T0900,2299A,118.3244,32.2786,滁州市,人大宾馆,细颗粒物(PM2.5),75,61,60,55,50,64,,70,68,28,29,8,8,0.5,0.5
2025-03-10T0900,3207A,118.3118,32.3038,滁州市,市政府原办公楼,细颗粒物(PM2.5),63,65,56,45,45,67,,75,73,20,24,4,6,0.3,0.4
2025-03-10T0900,3331A,118.3267,32.2634,滁州市,图书馆,细颗粒物(PM2.5),64,66,65,46,40,69,,69,68,22,29,6,6,0.4,0.4
2025-03-10T0900,2605A,101.5482,25.0441,楚雄彝族自治州,州环境监测站,细颗粒物(PM2.5),63,52,54,45,42,25,,32,31,35,24,9,8,0.9,0.7
2025-03-10T0900,2606A,101.538,25.0492,楚雄彝族自治州,市经济开发区,细颗粒物(PM2.5),63,57,58,45,43,21,,36,35,37,22,9,8,0.8,0.7
2025-03-10T0900,2548A,107.5277,31.2827,达州市,达州职业技术学院,,44,44,53,25,32,7,,5,5,13,20,5,6,0.5,0.4
2025-03-10T0900,2549A,107.5086,31.2186,达州市,市环境监测站,,50,50,57,27,31,2,,2,2,25,33,6,5,0.8,0.7
2025-03-10T0900,2550A,107.4988,31.2132,达州市,凤凰小区,,46,46,54,29,33,6,,5,5,24,31,7,6,0.6,0.5
2025-03-10T0900,2551A,107.5082,31.1986,达州市,达县机关宾馆,颗粒物(PM10),60,70,51,29,32,4,,3,3,26,26,6,5,1.0,0.7
2025-03-10T0900,2552A,107.4644,31.2124,达州市,市政中心,颗粒物(PM10),58,66,71,29,36,3,,2,2,28,35,3,3,0.9,0.7
2025-03-10T0900,2614A,100.1542,25.7054,大理白族自治州,大理市环境监测站,,50,45,50,35,37,90,,92,90,11,9,8,7,0.7,0.7
2025-03-10T0900,2615A,100.2171,25.5811,大理白族自治州,大理古城,,43,39,46,30,37,87,,107,104,18,8,8,7,0.6,0.6
2025-03-10T0900,1109A,121.612,38.9741,大连市,甘井子,细颗粒物(PM2.5),119,103,90,90,82,123,,119,119,26,27,7,6,0.7,0.8
2025-03-10T0900,1110A,121.565,38.9511,大连市,周水子,细颗粒物(PM2.5),145,112,97,111,100,112,,111,111,29,25,9,8,0.6,0.6
2025-03-10T0900,1111A,121.5637,38.8845,大连市,星海三站,细颗粒物(PM2.5),133,109,101,101,92,117,,117,117,16,19,8,7,1.1,1.1
2025-03-10T0900,1112A,121.6302,38.9117,大连市,青泥洼桥,细颗粒物(PM2.5),122,108,106,92,94,128,,121,121,13,19,8,9,0.7,0.9
2025-03-10T0900,1113A,121.6251,38.8638,大连市,傅家庄,细颗粒物(PM2.5),127,106,87,96,80,122,,114,114,20,21,7,6,0.8,0.8
2025-03-10T0900,1114A,121.5213,38.8661,大连市,七贤岭,细颗粒物(PM2.5),124,116,105,94,87,109,,111,111,22,23,9,8,0.6,0.7
2025-03-10T0900,1115A,121.2529,38.8061,大连市,旅顺,细颗粒物(PM2.5),139,112,102,106,98,98,,106,105,27,21,5,5,0.7,0.8
2025-03-10T0900,1116A,121.7485,39.1311,大连市,金州,细颗粒物(PM2.5),119,116,112,90,93,134,,122,122,18,24,7,8,0.7,0.7
2025-03-10T0900,1117A,121.7811,39.0496,大连市,开发区,细颗粒物(PM2.5),122,111,99,92,85,117,,86,86,18,26,7,7,1.3,1.3
2025-03-10T0900,1118A,121.9762,39.0631,大连市,双D港,细颗粒物(PM2.5),150,,72,115,110,99,,76,76,22,16,7,8,0.8,0.8
2025-03-10T0900,1789A,124.81117,46.03138,大庆市,大同区,颗粒物(PM10),131,212,208,77,82,101,,101,100,19,20,7,8,1.1,1.1
2025-03-10T0900,1790A,125.129,46.533,大庆市,龙凤区,颗粒物(PM10),126,202,160,91,76,97,,98,97,18,17,9,12,0.8,0.8
2025-03-10T0900,1791A,124.902,46.408,大庆市,红岗区,颗粒物(PM10),108,165,160,67,77,106,,104,103,15,16,7,8,0.7,0.7
2025-03-10T0900,1792A,125.153,46.586,大庆市,萨尔图区,细颗粒物(PM2.5),128,203,184,97,86,90,,96,94,34,23,10,10,0.6,0.7
2025-03-10T0900,1793A,124.9042,46.6215,大庆市,让胡路区,细颗粒物(PM2.5),129,174,158,98,83,94,,104,102,19,17,9,9,0.9,0.9
2025-03-10T0900,3481A,125.141,46.634,大庆市,萨区政府监测点,细颗粒物(PM2.5),128,189,179,97,91,104,,105,104,25,20,11,11,0.8,0.8
2025-03-10T0900,1721A,113.3819,40.1097,大同市,果树场,细颗粒物(PM2.5),123,142,94,93,52,13,,39,32,65,25,16,12,1.7,0.8
2025-03-10T0900,1723A,113.2994,40.0758,大同市,云冈宾馆,细颗粒物(PM2.5),103,143,112,77,55,20,,36,29,56,34,13,14,2.1,0.9
2025-03-10T0900,1724A,113.3444,40.0917,大同市,大同大学,细颗粒物(PM2.5),82,112,98,60,52,19,,49,41,57,29,18,14,1.4,0.9
2025-03-10T0900,1725A,113.2661,40.1269,大同市,安家小村,细颗粒物(PM2.5),94,132,118,70,54,35,,50,47,48,30,22,15,2.7,0.9
2025-03-10T0900,1726A,113.2711,40.0844,大同市,教育学院,"颗粒物(PM10),细颗粒物(PM2.5)",100,150,115,75,56,20,,31,25,58,35,20,15,1.9,0.8
2025-03-10T0900,3282A,113.3397,40.0597,大同市,大同市卫生学校,颗粒物(PM10),92,134,113,60,53,17,,43,37,60,31,14,13,1.4,0.8
2025-03-10T0900,3565A,113.1367,40.1122,大同市,云冈站,颗粒物(PM10),76,102,118,51,54,15,,15,12,38,29,30,24,0.9,0.8
2025-03-10T0900,3566A,113.1186,40.2556,大同市,图书馆,细颗粒物(PM2.5),114,94,108,86,56,27,,33,31,36,28,27,17,1.3,0.8
2025-03-10T0900,3567A,113.5931,40.0461,大同市,区一中,颗粒物(PM10),119,188,124,74,40,56,,56,54,33,22,35,21,1.2,0.7
2025-03-10T0900,4199A,113.2798,40.0997,大同市,魏都大道141号,颗粒物(PM10),98,146,121,66,54,24,,32,25,52,31,21,17,2.7,1.1
2025-03-10T0900,2269A,124.1069,50.4097,大兴安岭地区,科技局,颗粒物(PM10),124,198,105,85,55,85,,94,92,22,16,7,7,0.9,0.7
2025-03-10T0900,3663A,124.1164,50.4278,大兴安岭地区,红旗社区,颗粒物(PM10),131,212,92,74,58,89,,91,88,20,18,7,8,0.8,0.6
2025-03-10T0900,1600A,124.3303,40.0625,丹东市,江湾东路,细颗粒物(PM2.5),99,82,80,74,66,109,,108,108,14,12,8,12,0.7,0.7
2025-03-10T0900,1601A,124.4256,40.1503,丹东市,临江后街,细颗粒物(PM2.5),98,88,81,73,62,110,,108,108,20,15,8,9,1.3,1.1
2025-03-10T0900,1602A,124.3933,40.1461,丹东市,元宝山,细颗粒物(PM2.5),95,87,80,71,62,104,,102,102,20,18,6,8,0.8,0.7
2025-03-10T0900,1603A,124.3633,40.1092,丹东市,民主桥,细颗粒物(PM2.5),95,86,82,71,63,105,,100,100,13,13,6,8,1.0,1
2025-03-10T0900,3541A,109.5726,19.5167,儋州市,第一中学子站,,24,19,24,12,13,74,,76,76,4,4,3,3,0.6,0.6
2025-03-10T0900,3542A,109.5567,19.5187,儋州市,东坡学校子站,,23,18,30,12,12,72,,76,76,6,6,3,4,0.6,0.6
2025-03-10T0900,2616A,98.5842,24.428,德宏傣族景颇族自治州,德宏州监测站,细颗粒物(PM2.5),75,74,76,55,56,14,,35,28,40,25,8,8,1.0,0.8
2025-03-10T0900,3677A,98.5881,24.4368,德宏傣族景颇族自治州,芒市人民政府综合楼,"颗粒物(PM10),细颗粒物(PM2.5)",60,70,95,43,56,43,,59,56,23,17,8,8,0.7,0.6
2025-03-10T0900,1901A,104.4239,31.1208,德阳市,东山公园,细颗粒物(PM2.5),59,45,32,42,29,32,,42,41,22,15,3,2,0.8,0.7
2025-03-10T0900,1902A,104.3826,31.1317,德阳市,西小区,细颗粒物(PM2.5),65,70,41,47,31,4,,21,16,50,27,5,4,1.0,0.6
2025-03-10T0900,1904A,104.3553,31.1091,德阳市,耐火材料厂,细颗粒物(PM2.5),68,70,46,49,35,7,,17,15,45,32,7,6,0.7,0.5
2025-03-10T0900,3639A,104.4019,31.1244,德阳市,市教育局,细颗粒物(PM2.5),57,49,32,40,27,4,,21,18,54,29,5,4,1.1,0.7
2025-03-10T0900,1622A,116.3032,37.4674,德州市,儿童乐园,细颗粒物(PM2.5),119,132,106,90,72,76,,99,94,30,23,12,8,1.0,0.9
2025-03-10T0900,1624A,116.2991,37.4451,德州市,监理站,细颗粒物(PM2.5),119,117,95,90,70,70,,97,91,30,30,19,14,0.9,0.8
2025-03-10T0900,3066A,116.2721,37.4379,德州市,九衢泉纯净水厂,细颗粒物(PM2.5),100,114,99,75,63,68,,94,87,28,23,13,10,0.9,0.8
2025-03-10T0900,3371A,116.3728,37.4403,德州市,开发区人民医院,细颗粒物(PM2.5),113,127,102,85,65,71,,82,79,21,20,14,12,1.0,0.7
2025-03-10T0900,3372A,116.3572,37.4094,德州市,太阳城中学,细颗粒物(PM2.5),119,124,102,90,69,74,,78,76,22,22,11,8,0.7,0.7
2025-03-10T0900,3511A,116.5652,37.3319,德州市,陵城艺术中心,细颗粒物(PM2.5),119,117,97,90,69,72,,85,82,26,23,12,10,0.7,0.7
2025-03-10T0900,2621A,99.7056,27.8317,迪庆藏族自治州,迪庆州站,颗粒物(PM10),54,58,45,34,25,58,,65,63,21,14,8,8,0.8,0.5
2025-03-10T0900,3180A,99.7136,27.8094,迪庆藏族自治州,质量技术监督局,,48,43,37,33,30,50,,68,64,30,14,8,8,0.9,0.7
2025-03-10T0900,4257A,104.6092,35.5962,定西市,将台街,,50,50,52,33,27,55,,66,64,19,15,11,10,0.4,0.5
2025-03-10T0900,4309A,104.6159,35.5701,定西市,正龙路62号,,46,45,54,32,31,66,,75,73,10,8,4,7,0.4,0.5
2025-03-10T0900,1389A,113.7547,23.0494,东莞市,莞城梨川,颗粒物(PM10),56,62,87,36,55,51,,16,16,48,53,6,7,0.7,0.8
2025-03-10T0900,1390A,113.7944,23.0128,东莞市,东城石井,,49,49,63,27,39,46,,20,20,47,31,7,7,0.7,0.7
2025-03-10T0900,1391A,113.7383,22.9658,东莞市,南城西平,颗粒物(PM10),58,66,72,33,41,30,,15,14,68,55,10,11,0.7,0.7
2025-03-10T0900,3319A,113.7338,23.0381,东莞市,万江金泰,颗粒物(PM10),56,62,78,35,48,54,,14,14,48,51,8,7,1.1,1.1
2025-03-10T0900,3626A,113.7533,23.0202,东莞市,南城元岭,颗粒物(PM10),54,57,79,28,47,45,,22,22,52,48,6,6,0.8,0.8
2025-03-10T0900,3627A,113.7875,23.0457,东莞市,东城主山,颗粒物(PM10),51,51,87,26,47,49,,16,16,56,49,9,8,0.7,0.8
2025-03-10T0900,1666A,118.6614,37.4309,东营市,市环保局,细颗粒物(PM2.5),94,112,98,70,64,68,,81,77,24,24,5,7,1.5,1
2025-03-10T0900,3036A,118.6904,37.4338,东营市,开发区管委会,细颗粒物(PM2.5),113,109,101,85,76,72,,88,84,26,27,5,6,1.1,0.9
2025-03-10T0900,3365A,118.5719,37.565,东营市,垦利区民丰路,细颗粒物(PM2.5),100,110,94,75,65,65,,86,80,34,28,2,2,1.1,0.9
2025-03-10T0900,3498A,118.5055,37.8612,东营市,河口城区,细颗粒物(PM2.5),123,134,112,93,71,70,,87,83,28,25,7,6,1.3,1
2025-03-10T0900,3646A,118.4978,37.4623,东营市,胜利站,细颗粒物(PM2.5),110,130,117,83,68,55,,83,77,42,30,8,10,1.2,0.9
2025-03-10T0900,3734A,118.35,37.26,东营市,理想之城,细颗粒物(PM2.5),110,114,105,83,70,58,,77,72,30,26,6,7,1.0,0.8
2025-03-10T0900,1591A,110.0023,39.8129,鄂尔多斯市,综合楼,颗粒物(PM10),79,107,166,53,39,46,,54,52,38,29,14,19,0.8,0.6
2025-03-10T0900,1592A,109.9486,39.8261,鄂尔多斯市,巴音孟克林场办事处,颗粒物(PM10),85,119,161,56,40,44,,66,60,40,24,13,12,0.9,0.5
2025-03-10T0900,1593A,109.7736,39.5986,鄂尔多斯市,康泽苑,颗粒物(PM10),113,175,137,36,36,16,,37,31,40,20,10,8,0.7,0.4
2025-03-10T0900,1594A,109.8119,39.5989,鄂尔多斯市,华泰汽车城,颗粒物(PM10),114,178,141,46,40,12,,11,9,43,32,10,8,0.8,0.6
2025-03-10T0900,1595A,109.9734,39.7884,鄂尔多斯市,奥林花园,颗粒物(PM10),89,127,153,58,39,39,,28,28,40,42,11,15,1.1,0.8
2025-03-10T0900,2436A,114.8938,30.3994,鄂州市,市政府,细颗粒物(PM2.5),99,86,87,74,78,37,,18,18,29,39,5,5,0.9,0.9
2025-03-10T0900,2437A,114.8989,30.3714,鄂州市,赵家坝,细颗粒物(PM2.5),104,114,92,78,75,22,,17,17,38,36,2,2,1.5,1.2
2025-03-10T0900,3654A,114.8094,30.4089,鄂州市,精准医疗中心,细颗粒物(PM2.5),103,93,97,77,82,29,,11,11,30,49,4,6,0.9,1.1
2025-03-10T0900,2454A,109.4978,30.2981,恩施土家族苗族自治州,湖北民院,细颗粒物(PM2.5),54,44,48,38,36,6,,8,6,19,26,3,3,0.4,0.3
2025-03-10T0900,2455A,109.4707,30.2798,恩施土家族苗族自治州,州电力总公司,颗粒物(PM10),51,51,48,34,34,6,,11,11,23,25,5,5,0.5,0.5
2025-03-10T0900,3549A,109.5061,30.3772,恩施土家族苗族自治州,龙凤新区,,38,34,43,26,31,10,,12,11,14,15,7,6,0.9,0.8
2025-03-10T0900,2499A,108.3411,21.6158,防城港市,沙万,,50,50,30,33,24,19,,22,21,21,16,7,7,0.8,0.8
2025-03-10T0900,2500A,108.3514,21.7731,防城港市,防城档案局,,,,31,,22,,,28,,,16,,6,,0.5
2025-03-10T0900,2501A,108.3506,21.6414,防城港市,大海花园,细颗粒物(PM2.5),62,,27,44,29,24,,31,30,16,11,4,5,1.0,0.9
2025-03-10T0900,1371A,113.1294,23.0067,佛山市,湾梁,颗粒物(PM10),113,175,104,63,48,9,,7,6,111,68,10,8,1.3,0.9
2025-03-10T0900,1372A,113.1083,23.0478,佛山市,华材职中,颗粒物(PM10),114,178,111,69,54,6,,4,4,108,76,8,7,1.5,1
2025-03-10T0900,1373A,113.144,23.0453,佛山市,南海气象局,颗粒物(PM10),94,138,80,65,47,6,,4,3,75,52,8,7,1.3,0.9
2025-03-10T0900,1374A,113.2881,22.8094,佛山市,顺德苏岗,颗粒物(PM10),64,77,88,39,54,9,,4,3,71,57,5,6,1.0,0.9
2025-03-10T0900,1376A,112.8383,22.8678,佛山市,高明孔堂,细颗粒物(PM2.5),94,118,91,70,63,14,,13,10,64,45,14,9,1.1,0.8
2025-03-10T0900,1377A,112.8836,23.1588,佛山市,三水监测站,颗粒物(PM10),101,151,108,70,64,3,,2,2,79,71,11,6,1.1,0.9
2025-03-10T0900,1378A,112.867,23.185,佛山市,三水云东海,细颗粒物(PM2.5),127,118,82,96,57,3,,0,0,66,56,11,6,1.0,0.8
2025-03-10T0900,3625A,113.2544,22.7642,佛山市,容桂街道办,细颗粒物(PM2.5),92,122,96,68,60,4,,4,4,101,72,8,8,1.3,1
2025-03-10T0900,1280A,119.3903,26.0543,福州市,鼓山,,,,29,,14,,,106,,,8,,2,,0.4
2025-03-10T0900,1282A,119.2681,26.0504,福州市,师大,,38,38,33,16,15,66,,69,69,17,14,5,4,0.4,0.3
2025-03-10T0900,1283A,119.2984,26.1028,福州市,五四北路,,34,34,30,13,15,53,,59,58,26,20,4,5,0.5,0.5
2025-03-10T0900,1284A,119.2648,26.0768,福州市,杨桥西路,,32,32,34,14,16,60,,60,60,23,18,4,5,0.4,0.4
2025-03-10T0900,1285A,119.317,26.0746,福州市,紫阳,,39,39,34,16,16,44,,59,57,36,26,4,4,0.6,0.5
2025-03-10T0900,3048A,119.5799,26.0936,福州市,九龙,,28,28,26,10,12,77,,75,74,15,12,6,5,0.6,0.4
2025-03-10T0900,3526A,119.5189,25.9664,福州市,吴航,,32,32,26,16,15,54,,52,49,33,20,4,4,0.5,0.3
2025-03-10T0900,1755A,123.7977,41.8491,抚顺市,望花区,细颗粒物(PM2.5),108,113,106,81,73,111,,126,123,21,16,14,12,1.0,0.8
2025-03-10T0900,1756A,123.9161,41.8822,抚顺市,顺城区,细颗粒物(PM2.5),97,99,96,72,64,114,,130,128,24,18,8,9,0.8,0.8
2025-03-10T0900,1757A,124.0436,41.8611,抚顺市,东洲区,细颗粒物(PM2.5),93,94,92,69,62,125,,133,131,19,17,6,7,1.0,0.8
2025-03-10T0900,1758A,123.9247,41.8642,抚顺市,新抚区,细颗粒物(PM2.5),104,98,97,78,70,114,,126,125,20,17,6,7,0.8,0.9
2025-03-10T0900,1759A,124.0972,41.8961,抚顺市,大伙房水库,细颗粒物(PM2.5),102,85,82,76,64,117,,123,122,9,11,7,8,0.9,0.8
2025-03-10T0900,1760A,123.7086,41.8391,抚顺市,沈抚新城,细颗粒物(PM2.5),109,114,102,82,75,113,,121,119,20,19,8,8,1.2,1.1
2025-03-10T0900,2376A,116.2127,28.0814,抚州市,桐源党溪,,41,41,55,19,34,23,,29,28,3,6,5,12,0.6,0.5
2025-03-10T0900,2377A,116.3544,27.9831,抚州市,市站,,26,26,48,18,30,26,,31,30,24,29,13,16,0.7,0.6
2025-03-10T0900,2378A,116.3565,27.963,抚州市,血防站,,31,31,50,17,32,24,,28,27,20,22,10,8,0.9,0.8
2025-03-10T0900,2379A,116.3564,28.0007,抚州市,采茶剧团,,32,25,47,22,34,21,,26,25,15,15,7,10,1.1,1.1
2025-03-10T0900,2380A,116.385,27.9647,抚州市,医学分院,,28,28,47,16,28,21,,24,23,15,17,10,7,0.9,0.8
2025-03-10T0900,2207A,121.6094,41.998,阜新市,工业园区,细颗粒物(PM2.5),145,,238,111,129,111,,114,111,18,19,15,12,1.2,1
2025-03-10T0900,2208A,121.6697,42.0279,阜新市,长青街,细颗粒物(PM2.5),117,104,165,88,115,110,,115,112,21,21,10,10,0.8,0.9
2025-03-10T0900,2209A,121.6673,42.0705,阜新市,农业园区,细颗粒物(PM2.5),125,115,194,95,114,113,,117,114,12,12,15,14,1.0,1
2025-03-10T0900,2210A,121.6717,42.0224,阜新市,东苑,,,90,192,75,103,98,,110,106,22,19,,13,0.9,0.9
2025-03-10T0900,2211A,121.6506,42.0498,阜新市,玉龙新城,细颗粒物(PM2.5),124,101,195,94,121,107,,111,108,21,20,15,14,0.9,0.9
2025-03-10T0900,2301A,115.8277,32.8929,阜阳市,市监测站,细颗粒物(PM2.5),156,164,106,119,86,22,,31,27,46,30,9,8,0.8,0.7
2025-03-10T0900,2303A,115.8554,32.8605,阜阳市,开发区,细颗粒物(PM2.5),112,145,120,84,79,48,,22,22,43,34,8,7,0.7,0.7
2025-03-10T0900,2875A,115.784,32.8892,阜阳市,阜阳职业技术学院,细颗粒物(PM2.5),117,119,104,88,80,53,,33,33,30,25,8,7,0.7,0.7
2025-03-10T0900,3468A,115.7901,32.8613,阜阳市,市规划展馆,细颗粒物(PM2.5),118,122,108,89,83,42,,44,41,34,25,10,9,0.8,0.7
2025-03-10T0900,3469A,115.836,32.9183,阜阳市,枣园社区,细颗粒物(PM2.5),128,129,110,97,83,43,,28,27,42,31,13,8,0.7,0.6
2025-03-10T0900,2669A,102.9099,34.9841,甘南藏族自治州,州政府,细颗粒物(PM2.5),103,143,66,77,30,15,,18,16,38,28,9,8,1.5,0.7
2025-03-10T0900,3380A,102.8914,34.9617,甘南藏族自治州,甘肃民族师范学院,细颗粒物(PM2.5),95,128,62,71,25,15,,14,14,28,26,11,9,0.9,0.5
2025-03-10T0900,2570A,101.9603,30.0475,甘孜藏族自治州,水桥子,,27,27,17,9,10,18,,22,22,43,23,3,3,0.7,0.5
2025-03-10T0900,3065A,101.9533,29.9972,甘孜藏族自治州,州环保局,,36,36,16,9,7,61,,63,63,18,16,4,4,0.3,0.3
2025-03-10T0900,3414A,115.8347,28.932,赣江新区,桑海产业园,细颗粒物(PM2.5),69,63,60,50,46,17,,27,27,38,36,8,8,0.5,0.4
2025-03-10T0900,2362A,114.9017,25.9149,赣州市,通天岩,,46,46,29,13,6,35,,11,11,9,6,11,10,0.4,0.3
2025-03-10T0900,2363A,114.9367,25.8664,赣州市,地委,,47,47,40,32,25,40,,45,43,10,17,10,12,0.7,0.7
2025-03-10T0900,2364A,114.9461,25.8481,赣州市,气象台,颗粒物(PM10),53,56,48,30,23,44,,49,47,18,24,9,9,0.7,0.7
2025-03-10T0900,2365A,114.9322,25.8333,赣州市,市图书馆,细颗粒物(PM2.5),57,59,45,40,27,36,,47,44,22,25,4,4,0.7,0.7
2025-03-10T0900,2366A,114.8905,25.8471,赣州市,华坚鞋城,颗粒物(PM10),53,56,39,33,23,38,,46,44,13,14,7,6,0.5,0.5
2025-03-10T0900,3109A,115.0093,25.8613,赣州市,赣县区卫计委,,40,40,41,24,27,26,,18,18,19,23,4,4,0.5,0.4
2025-03-10T0900,2683A,106.2319,36.1417,固原市,马园,颗粒物(PM10),59,68,71,39,31,41,,60,57,35,24,6,6,0.7,0.5
2025-03-10T0900,2684A,106.2792,36.0022,固原市,监测站,细颗粒物(PM2.5),62,52,80,44,33,66,,71,70,22,18,11,9,0.8,0.7
2025-03-10T0900,2685A,106.2375,36.0211,固原市,新区,细颗粒物(PM2.5),69,58,74,50,31,52,,71,68,26,13,6,8,0.8,0.5
2025-03-10T0900,3522A,106.2177,35.9959,固原市,原州区十五小,,29,29,78,14,29,80,,65,65,10,16,7,7,0.4,0.4
2025-03-10T0900,2543A,106.6308,30.5278,广安市,小平旧居,,,,,,,,,,,,,,,,
2025-03-10T0900,2544A,106.6303,30.4576,广安市,市委,细颗粒物(PM2.5),75,63,62,55,51,24,,34,32,16,16,3,3,0.5,0.5
2025-03-10T0900,2545A,106.6271,30.4663,广安市,友谊中学,细颗粒物(PM2.5),77,67,66,56,53,16,,27,24,22,20,3,2,0.7,0.6
2025-03-10T0900,2547A,106.6388,30.4551,广安市,广电花园,细颗粒物(PM2.5),72,59,61,52,50,10,,26,23,26,23,4,3,0.6,0.6
2025-03-10T0900,2902A,106.6351,30.4865,广安市,北辰小学,细颗粒物(PM2.5),74,66,66,54,51,18,,27,25,18,17,6,6,0.6,0.5
2025-03-10T0900,2523A,105.8945,32.4535,广元市,黑石坡,细颗粒物(PM2.5),54,40,38,38,28,22,,31,29,15,11,12,11,0.8,0.6
2025-03-10T0900,2524A,105.821,32.4444,广元市,老城,,38,38,44,26,25,5,,17,13,33,22,3,2,0.9,0.7
2025-03-10T0900,2526A,105.8628,32.4287,广元市,监测站,颗粒物(PM10),51,51,36,33,29,8,,19,16,31,19,9,6,0.9,0.6
2025-03-10T0900,3617A,105.8047,32.4166,广元市,经开区,,48,47,38,33,33,6,,14,13,38,27,3,4,0.9,0.8
2025-03-10T0900,1345A,113.2347,23.1423,广州市,广雅中学,颗粒物(PM10),89,127,90,62,53,5,,4,4,81,67,6,6,1.2,1
2025-03-10T0900,1346A,113.2612,23.105,广州市,市五中,细颗粒物(PM2.5),75,98,76,55,43,4,,4,4,94,61,7,5,1.4,1
2025-03-10T0900,1348A,113.3478,23.0916,广州市,广东商学院,细颗粒物(PM2.5),87,120,86,64,54,4,,3,3,81,61,5,5,1.0,0.8
2025-03-10T0900,1349A,113.4332,23.1047,广州市,市八十六中,颗粒物(PM10),77,104,86,47,46,6,,4,4,78,73,6,6,0.8,0.6
2025-03-10T0900,1350A,113.3505,22.9483,广州市,番禺中学,细颗粒物(PM2.5),65,72,76,47,50,12,,5,5,85,64,10,9,1.0,0.8
2025-03-10T0900,1351A,113.2146,23.3916,广州市,花都师范,细颗粒物(PM2.5),73,90,74,53,46,7,,3,3,69,54,6,7,1.3,0.9
2025-03-10T0900,1352A,113.2597,23.1331,广州市,市监测站,颗粒物(PM10),80,110,70,58,40,4,,4,4,90,66,8,8,1.4,0.9
2025-03-10T0900,1353A,113.5618,23.312,广州市,九龙镇镇龙,细颗粒物(PM2.5),57,56,57,40,40,9,,4,4,43,40,5,5,0.8,0.7
2025-03-10T0900,1354A,113.2765,23.1544,广州市,麓湖,细颗粒物(PM2.5),72,81,60,52,39,14,,11,11,80,59,4,4,1.2,0.8
2025-03-10T0900,1355A,113.443,23.3035,广州市,帽峰山森林公园,细颗粒物(PM2.5),52,45,43,36,32,43,,70,67,18,21,5,6,0.7,0.7
2025-03-10T0900,2846A,113.3221,23.1322,广州市,体育西,细颗粒物(PM2.5),83,98,77,61,49,5,,3,3,91,64,8,7,1.3,0.9
2025-03-10T0900,3298A,113.5717,23.5491,广州市,从化街口,细颗粒物(PM2.5),59,60,62,42,44,9,,3,3,37,33,8,10,0.9,0.8
2025-03-10T0900,3299A,113.3472,23.3692,广州市,白云竹料,细颗粒物(PM2.5),73,78,79,53,46,18,,9,9,42,49,9,9,1.0,0.9
2025-03-10T0900,3300A,113.2981,23.237,广州市,白云嘉禾,细颗粒物(PM2.5),77,96,84,56,47,7,,6,6,67,60,4,4,1.0,0.7
2025-03-10T0900,3301A,113.4256,23.1716,广州市,黄埔科学城,细颗粒物(PM2.5),73,79,60,53,39,12,,5,5,55,42,8,5,0.8,0.7
2025-03-10T0900,3302A,113.3942,23.0483,广州市,番禺大学城,颗粒物(PM10),87,124,93,46,43,2,,1,1,93,67,7,6,0.9,0.6
2025-03-10T0900,3303A,113.4922,22.8168,广州市,南沙黄阁,颗粒物(PM10),64,78,64,43,36,10,,23,20,76,45,6,6,0.7,0.6
2025-03-10T0900,3304A,113.5342,22.7896,广州市,南沙街,颗粒物(PM10),57,64,57,36,32,48,,33,31,49,42,8,7,0.6,0.6
2025-03-10T0900,3443A,113.2902,23.5544,广州市,花都梯面,细颗粒物(PM2.5),70,68,41,51,32,7,,3,3,38,27,7,7,0.9,0.7
2025-03-10T0900,3445A,113.7858,23.7478,广州市,从化良口,,35,30,27,24,24,16,,12,11,13,14,6,6,0.7,0.7
2025-03-10T0900,3446A,113.8051,23.2614,广州市,增城荔城,细颗粒物(PM2.5),54,56,49,38,34,40,,26,26,23,23,9,7,0.7,0.7
2025-03-10T0900,2505A,109.568,23.1478,贵港市,德智高中,,,,,,,,,,,,,,,,
2025-03-10T0900,2506A,109.6047,23.0666,贵港市,江南子站,细颗粒物(PM2.5),54,51,49,38,39,5,,3,3,24,28,6,5,0.6,0.7
2025-03-10T0900,2507A,109.6014,23.0948,贵港市,贵城子站,,42,36,46,29,35,10,,6,6,21,24,6,6,1.0,0.9
2025-03-10T0900,2508A,109.5669,23.1065,贵港市,荷城子站,颗粒物(PM10),51,51,40,31,28,9,,9,9,23,23,8,7,0.8,0.7
2025-03-10T0900,3405A,109.5886,23.1172,贵港市,新世纪学校,,46,44,44,32,34,8,,8,8,20,22,2,3,0.5,0.5
2025-03-10T0900,1439A,106.6899,26.5998,贵阳市,马鞍山,,18,17,14,12,8,10,,25,24,25,14,3,4,0.8,0.7
2025-03-10T0900,1441A,106.6243,26.6266,贵阳市,鉴湖路,,20,19,26,14,10,19,,27,26,21,19,11,10,0.6,0.6
2025-03-10T0900,1442A,106.7487,26.6343,贵阳市,燕子冲,,25,17,18,17,16,13,,38,35,28,15,8,7,0.7,0.5
2025-03-10T0900,1443A,106.6555,26.4365,贵阳市,碧云窝,,22,22,32,9,13,13,,32,29,22,22,10,11,0.7,0.6
2025-03-10T0900,1445A,106.7109,26.6027,贵阳市,红边门,,,,24,,18,,,28,,,24,,8,,0.8
2025-03-10T0900,1446A,106.7164,26.5699,贵阳市,新华路,,27,27,24,14,14,9,,36,32,33,17,12,10,0.7,0.6
2025-03-10T0900,1447A,106.674,26.5424,贵阳市,太慈桥,,18,17,23,12,12,15,,29,27,24,21,7,6,0.6,0.5
2025-03-10T0900,1552A,106.805,26.3003,贵阳市,桐木岭,,18,18,24,7,14,37,,26,26,3,7,10,17,0.3,0.4
2025-03-10T0900,4230A,106.6882,26.5695,贵阳市,花果园大街66号,,32,,16,22,18,11,,25,24,20,19,4,5,0.8,0.7
2025-03-10T0900,4231A,106.6873,26.5169,贵阳市,漓江路57号,,24,24,23,14,14,16,,26,24,23,21,18,13,0.8,0.6
2025-03-10T0900,1862A,110.4144,25.3167,桂林市,电子科大尧山校区,,,,,,,,,,,,,,,,
2025-03-10T0900,1864A,110.3089,25.2708,桂林市,龙隐路小学,,23,20,19,16,21,26,,27,27,19,21,7,7,0.9,0.8
2025-03-10T0900,1865A,110.2869,25.2178,桂林市,八中,,19,18,21,13,18,17,,19,19,28,28,6,6,0.7,0.6
2025-03-10T0900,3531A,110.296,25.1253,桂林市,旅游学院,,13,12,13,9,12,24,,17,17,17,22,6,6,0.8,0.8
2025-03-10T0900,4222A,110.1835,25.2444,桂林市,环湖路276号,,11,9,15,7,17,25,,27,27,22,22,8,8,1.0,0.9
2025-03-10T0900,4301A,110.2803,25.2773,桂林市,信义路13号,,25,23,19,17,18,22,,26,26,24,23,6,6,1.0,0.9
2025-03-10T0900,2674A,100.2561,34.4714,果洛藏族自治州,玛沁县大武镇,,34,34,40,12,15,57,,50,50,5,5,13,12,0.6,0.5
2025-03-10T0900,1129A,126.5422,45.755,哈尔滨市,岭北,颗粒物(PM10),146,241,115,86,75,116,,116,116,28,24,18,19,0.9,0.9
2025-03-10T0900,1130A,126.561,45.8167,哈尔滨市,松北商大,颗粒物(PM10),155,259,118,85,71,121,,115,115,20,20,7,9,0.8,0.7
2025-03-10T0900,1131A,126.979,45.5419,哈尔滨市,阿城会宁,颗粒物(PM10),164,277,97,80,59,128,,111,111,15,14,10,14,0.6,0.6
2025-03-10T0900,1132A,126.599,45.7222,哈尔滨市,南岗学府路,颗粒物(PM10),128,205,138,73,69,113,,112,112,22,23,9,10,0.9,0.9
2025-03-10T0900,1133A,126.689,45.7733,哈尔滨市,太平宏伟公园,颗粒物(PM10),150,250,133,85,70,114,,110,110,22,23,9,11,0.7,0.7
2025-03-10T0900,1134A,126.635,45.7667,哈尔滨市,道外承德广场,细颗粒物(PM2.5),119,142,145,90,80,106,,107,107,19,21,8,13,1.1,0.7
2025-03-10T0900,1135A,126.685,45.7319,哈尔滨市,香坊红旗大街,颗粒物(PM10),167,283,145,88,70,110,,107,107,23,22,11,15,1.1,1
2025-03-10T0900,1136A,126.6411,45.7258,哈尔滨市,动力和平路,颗粒物(PM10),129,208,123,88,80,115,,111,111,21,21,9,12,1.0,0.8
2025-03-10T0900,1137A,126.593,45.7478,哈尔滨市,道里建国路,颗粒物(PM10),135,220,129,91,80,107,,105,105,23,25,15,21,0.7,0.8
2025-03-10T0900,1138A,126.615,45.61,哈尔滨市,平房东轻厂,颗粒物(PM10),127,204,121,80,68,118,,111,111,11,11,8,9,0.7,0.7
2025-03-10T0900,1139A,126.595,45.9855,哈尔滨市,呼兰师专,颗粒物(PM10),328,442,142,108,85,110,,100,100,22,27,12,15,0.7,0.6
2025-03-10T0900,1140A,126.6206,45.6842,哈尔滨市,省农科院,颗粒物(PM10),152,254,148,86,76,112,,105,105,19,27,10,13,0.8,0.8
2025-03-10T0900,2688A,93.5128,42.8172,哈密市,地区监测站,颗粒物(PM10),154,257,237,39,54,23,,39,39,53,32,4,4,0.5,0.5
2025-03-10T0900,2689A,93.4961,42.8328,哈密市,哈密师范学校,颗粒物(PM10),116,181,176,45,51,20,,33,33,51,37,6,6,1.2,0.7
2025-03-10T0900,2671A,100.9048,36.9639,海北藏族自治州,海晏县西海镇,,36,36,34,15,12,50,,64,61,11,4,8,9,0.4,0.3
2025-03-10T0900,3867A,102.0738,36.5056,海东市,平安区公安北苑,颗粒物(PM10),69,88,74,45,41,27,,49,43,13,6,19,18,1.5,1.2
2025-03-10T0900,1409A,110.576,19.9507,海口市,东寨港,,,39,36,19,16,5,,70,57,,5,,4,0.5,0.8
2025-03-10T0900,1410A,110.3232,20.0574,海口市,海南大学,颗粒物(PM10),51,52,44,20,19,90,,104,103,14,11,3,3,0.4,0.4
2025-03-10T0900,1411A,110.283,20.0053,海口市,秀英海南医院,,45,45,45,16,18,79,,95,93,14,10,4,4,0.4,0.4
2025-03-10T0900,1412A,110.338,19.9969,海口市,海南师范大学,,42,42,45,17,18,88,,104,102,11,8,3,3,0.4,0.4
2025-03-10T0900,1413A,110.33,20.0356,海口市,龙华路环保局宿舍,,39,39,43,16,18,87,,101,100,12,10,4,4,0.4,0.4
2025-03-10T0900,3539A,110.5111,19.9736,海口市,桂林洋子站,,38,38,40,16,16,75,,83,82,7,9,3,3,0.3,0.3
2025-03-10T0900,2673A,100.6188,36.2866,海南藏族自治州,共和县恰卜恰镇,,40,40,33,16,12,37,,42,42,32,16,7,7,0.7,0.5
2025-03-10T0900,2676A,97.3731,37.3753,海西蒙古族藏族自治州,德令哈市,,39,39,53,21,19,94,,94,94,2,4,16,15,0.4,0.5
2025-03-10T0900,1048A,114.5302,36.6116,邯郸市,东污水处理厂,细颗粒物(PM2.5),119,102,90,90,74,67,,84,79,19,15,2,1,0.6,0.6
2025-03-10T0900,1049A,114.4918,36.5713,邯郸市,矿院,细颗粒物(PM2.5),122,116,106,92,71,63,,82,77,20,15,2,2,0.6,0.6
2025-03-10T0900,1050A,114.484,36.6133,邯郸市,丛台公园,细颗粒物(PM2.5),120,113,87,91,72,64,,86,80,22,17,1,2,0.6,0.5
2025-03-10T0900,3458A,114.7895,36.5593,邯郸市,香泉濮院小区,细颗粒物(PM2.5),92,89,91,68,66,70,,89,84,14,11,4,2,0.6,0.6
2025-03-10T0900,3579A,114.50634,36.77178,邯郸市,永年区实验高中,细颗粒物(PM2.5),119,127,102,90,64,75,,97,92,18,12,3,3,1.2,1
2025-03-10T0900,3580A,114.20016,36.44293,邯郸市,峰峰矿区临水派出所,细颗粒物(PM2.5),127,109,87,96,74,66,,93,89,21,11,11,8,1.5,1.1
2025-03-10T0900,2634A,106.9893,33.1842,汉中市,汉川机床厂子校,,38,,43,26,31,38,,44,44,14,9,9,7,0.8,0.8
2025-03-10T0900,2635A,107.0154,33.0706,汉中市,市监测站,,45,43,62,31,42,23,,22,22,29,23,5,7,1.2,1
2025-03-10T0900,2636A,107.0089,33.1138,汉中市,鑫源开发区,"颗粒物(PM10),细颗粒物(PM2.5)",54,58,61,38,39,10,,22,21,36,29,8,11,1.0,0.9
2025-03-10T0900,2637A,107.007,33.0323,汉中市,南郑大河坎水厂,颗粒物(PM10),51,52,64,32,40,12,,21,21,37,25,5,8,1.2,0.9
2025-03-10T0900,1223A,120.2072,30.2111,杭州市,滨江,细颗粒物(PM2.5),68,74,62,49,32,10,,23,19,48,36,7,7,0.7,0.5
2025-03-10T0900,1224A,120.0633,30.2747,杭州市,西溪,颗粒物(PM10),78,106,75,48,42,13,,18,15,33,25,6,7,0.6,0.5
2025-03-10T0900,1226A,120.3461,30.3153,杭州市,下沙,细颗粒物(PM2.5),107,118,65,80,40,20,,6,5,47,45,5,5,0.5,0.4
2025-03-10T0900,1227A,120.1269,30.2456,杭州市,卧龙桥,颗粒物(PM10),69,88,60,48,39,13,,18,16,39,29,6,6,0.9,0.6
2025-03-10T0900,1228A,120.1903,30.2692,杭州市,浙江农大,细颗粒物(PM2.5),67,64,49,48,33,20,,24,22,36,30,8,9,0.6,0.4
2025-03-10T0900,1230A,120.1197,30.3119,杭州市,和睦小学,细颗粒物(PM2.5),78,93,66,57,42,20,,36,31,40,33,7,7,0.7,0.5
2025-03-10T0900,1231A,120.3019,30.4183,杭州市,临平镇,细颗粒物(PM2.5),107,91,51,80,38,14,,21,16,49,31,6,5,0.6,0.4
2025-03-10T0900,1232A,120.2697,30.1819,杭州市,城厢镇,细颗粒物(PM2.5),90,105,73,67,46,12,,20,17,62,49,8,8,0.7,0.5
2025-03-10T0900,1233A,120.0883,30.1808,杭州市,云栖,细颗粒物(PM2.5),94,92,65,70,45,8,,10,9,43,34,7,8,0.7,0.5
2025-03-10T0900,3557A,119.9464,30.0494,杭州市,镇二中,细颗粒物(PM2.5),72,68,60,52,52,7,,8,8,43,49,6,7,0.9,0.6
2025-03-10T0900,3558A,119.7183,30.2367,杭州市,市府大楼,细颗粒物(PM2.5),88,103,85,65,57,21,,25,23,39,38,7,8,0.7,0.6
2025-03-10T0900,3656A,120.1556,30.2864,杭州市,消防大队,细颗粒物(PM2.5),103,101,69,77,48,20,,34,28,41,34,6,7,0.7,0.5
2025-03-10T0900,1270A,117.1959,31.7848,合肥市,明珠广场,细颗粒物(PM2.5),113,114,93,85,69,40,,49,47,33,29,7,7,0.8,0.7
2025-03-10T0900,1271A,117.3072,31.8764,合肥市,三里街,细颗粒物(PM2.5),89,102,96,66,60,38,,37,34,35,40,7,7,0.8,0.7
2025-03-10T0900,1272A,117.2588,31.8707,合肥市,琥珀山庄,细颗粒物(PM2.5),103,92,86,77,67,42,,50,47,35,34,4,4,0.6,0.5
2025-03-10T0900,1273A,117.1604,31.9052,合肥市,董铺水库,颗粒物(PM10),67,83,91,46,50,50,,62,58,30,26,4,4,0.5,0.5
2025-03-10T0900,1274A,117.25,31.8571,合肥市,长江中路,细颗粒物(PM2.5),103,107,92,77,68,44,,54,50,36,35,9,10,0.8,0.7
2025-03-10T0900,1275A,117.266,31.9436,合肥市,庐阳区,细颗粒物(PM2.5),85,95,90,63,59,50,,48,45,40,42,7,7,0.5,0.4
2025-03-10T0900,1276A,117.336,31.8586,合肥市,瑶海区,细颗粒物(PM2.5),82,100,92,60,58,41,,38,36,37,39,8,7,0.6,0.5
2025-03-10T0900,1277A,117.3027,31.7964,合肥市,包河区,细颗粒物(PM2.5),92,95,89,68,62,43,,55,51,27,24,5,6,0.7,0.6
2025-03-10T0900,1278A,117.2776,31.7385,合肥市,滨湖新区,细颗粒物(PM2.5),110,97,94,83,72,48,,50,50,24,27,7,7,0.6,0.5
2025-03-10T0900,1279A,117.1318,31.8403,合肥市,高新区,细颗粒物(PM2.5),118,114,100,89,71,38,,50,48,41,33,4,4,0.7,0.6
2025-03-10T0900,3464A,117.3803,31.9147,合肥市,高教基地,细颗粒物(PM2.5),92,93,82,68,60,45,,45,45,36,30,9,9,0.5,0.5
2025-03-10T0900,3614A,79.924,37.0877,和田地区,地区环保局,颗粒物(PM10),137,223,214,51,47,50,,68,66,4,3,1,2,0.7,0.6
2025-03-10T0900,3615A,79.9131,37.113,和田地区,市环保局,颗粒物(PM10),134,218,213,43,44,55,,77,75,32,15,3,2,1.4,0.8
2025-03-10T0900,2516A,108.2011,24.715,河池市,东仁乐园,,16,16,39,3,25,21,,22,22,10,15,6,6,0.9,0.9
2025-03-10T0900,2517A,108.0497,24.6947,河池市,市环保站,,17,17,36,3,28,22,,26,25,11,12,8,8,0.8,0.8
2025-03-10T0900,2518A,108.0983,24.6989,河池市,市疾控中心,,13,13,30,8,27,14,,23,23,14,12,6,6,0.8,0.8
2025-03-10T0900,1696A,114.6778,23.7569,河源市,源西,,46,46,32,28,21,5,,3,3,38,28,5,5,0.6,0.4
2025-03-10T0900,1697A,114.6944,23.7586,河源市,东埔,,44,44,38,27,23,6,,2,2,42,33,4,4,1.0,0.7
2025-03-10T0900,1698A,114.6892,23.7233,河源市,老城,,46,37,31,32,25,7,,7,6,34,21,4,4,1.2,0.8
2025-03-10T0900,1718A,115.4208,35.2464,菏泽市,气象局,细颗粒物(PM2.5),107,115,104,80,78,73,,81,79,29,25,6,4,0.7,0.6
2025-03-10T0900,3374A,115.5564,35.0891,菏泽市,定陶老年大学,细颗粒物(PM2.5),94,100,94,70,70,66,,77,74,29,27,5,5,0.6,0.6
2025-03-10T0900,4184A,115.4797,35.24401,菏泽市,永昌路1号,细颗粒物(PM2.5),112,113,105,84,79,68,,86,82,29,24,9,7,0.6,0.6
2025-03-10T0900,4193A,115.4715,35.2800,菏泽市,长城路999号,细颗粒物(PM2.5),99,111,96,74,64,67,,80,77,42,38,10,7,0.7,0.6
2025-03-10T0900,2514A,111.5264,24.4172,贺州市,环保小区,,45,45,42,27,25,18,,31,30,15,19,7,7,1.1,1
2025-03-10T0900,2515A,111.5608,24.4078,贺州市,政协大楼,,42,42,42,26,26,10,,10,10,21,25,6,6,1.1,0.9
2025-03-10T0900,3534A,111.4744,24.4553,贺州市,西湾,,35,28,30,24,27,14,,10,9,13,15,6,6,0.9,0.8
2025-03-10T0900,2385A,114.17,35.9019,鹤壁市,市监测站,细颗粒物(PM2.5),132,144,105,100,73,49,,90,79,42,28,2,4,0.9,0.8
2025-03-10T0900,2386A,114.2956,35.7511,鹤壁市,市交警支队,细颗粒物(PM2.5),140,141,110,107,78,50,,78,71,30,20,6,6,0.6,0.5
2025-03-10T0900,2387A,114.2878,35.7306,鹤壁市,迎宾馆,细颗粒物(PM2.5),139,142,119,106,75,52,,78,72,26,26,8,7,0.8,0.7
2025-03-10T0900,3474A,114.2617,35.6822,鹤壁市,大新区,细颗粒物(PM2.5),147,,83,112,87,43,,52,51,35,30,4,5,0.8,0.7
2025-03-10T0900,3596A,114.1572,35.9603,鹤壁市,南山宾馆,细颗粒物(PM2.5),169,149,109,128,92,57,,94,84,26,19,5,5,0.6,0.5
2025-03-10T0900,2244A,130.2537,47.3416,鹤岗市,哈啤分公司,细颗粒物(PM2.5),57,53,43,40,29,58,,61,60,25,18,21,18,1.1,0.9
2025-03-10T0900,2245A,130.2684,47.3086,鹤岗市,斯达机电,细颗粒物(PM2.5),63,57,52,45,35,64,,66,65,19,14,21,16,0.8,0.6
2025-03-10T0900,2246A,130.3114,47.3388,鹤岗市,东山纸板厂,细颗粒物(PM2.5),69,67,54,50,41,50,,38,38,34,25,21,18,1.9,1.1
2025-03-10T0900,2247A,130.1097,47.3382,鹤岗市,五号水库,,,,,,,,,,,,,,,,
2025-03-10T0900,2263A,127.4833,50.2524,黑河市,交通局,颗粒物(PM10),75,99,39,42,21,84,,84,84,22,11,6,7,0.8,0.5
2025-03-10T0900,2264A,127.5144,50.2341,黑河市,环保局,颗粒物(PM10),78,106,37,53,20,96,,94,94,14,8,6,6,0.8,0.5
2025-03-10T0900,2265A,127.5291,50.2472,黑河市,大黑河岛,,,,,,,,,,,,,,,,
2025-03-10T0900,1074A,115.6838,37.7541,衡水市,电机北厂,细颗粒物(PM2.5),87,96,101,64,73,82,,100,96,16,15,7,5,0.6,0.5
2025-03-10T0900,1075A,115.6303,37.7316,衡水市,市监测站,细颗粒物(PM2.5),74,81,90,54,68,76,,97,92,21,17,10,11,0.6,0.6
2025-03-10T0900,3188A,115.6683,37.7217,衡水市,市城管局,细颗粒物(PM2.5),80,89,87,59,69,73,,94,89,21,18,7,4,0.6,0.5
2025-03-10T0900,3459A,115.5989,37.5491,衡水市,地表水厂,细颗粒物(PM2.5),97,72,84,72,74,75,,88,84,21,20,9,8,0.5,0.6
2025-03-10T0900,2456A,112.5003,26.9167,衡阳市,原169医院,,28,26,32,19,22,29,,33,33,18,22,8,10,0.6,0.5
2025-03-10T0900,2457A,112.6194,26.9258,衡阳市,衡阳化工总厂,,35,28,37,24,39,14,,27,25,22,14,3,5,0.8,0.6
2025-03-10T0900,2458A,112.6211,26.8956,衡阳市,珠晖区环保局,,38,,36,26,38,16,,26,24,24,18,5,6,0.8,0.7
2025-03-10T0900,2459A,112.6197,26.8733,衡阳市,市委党校,,32,22,37,22,32,29,,32,30,16,15,9,9,1.0,0.9
2025-03-10T0900,2460A,112.6006,26.8919,衡阳市,市监测站,,28,22,46,19,35,22,,28,26,21,19,6,8,0.9,0.8
2025-03-10T0900,2461A,112.5664,26.9056,衡阳市,真空机电公司,,35,,40,24,36,23,,35,34,25,18,4,6,0.8,0.7
2025-03-10T0900,3399A,112.6703,26.882,衡阳市,师范学院,,33,27,39,23,30,28,,31,30,17,16,6,7,0.7,0.7
2025-03-10T0900,2608A,103.3772,23.3993,红河哈尼族彝族自治州,污水处理厂,细颗粒物(PM2.5),59,,38,42,36,47,,67,64,12,6,9,6,0.5,0.5
2025-03-10T0900,2609A,103.3861,23.35,红河哈尼族彝族自治州,监测站,颗粒物(PM10),56,62,42,37,28,46,,60,58,15,7,65,10,0.6,0.5
2025-03-10T0900,3038A,103.3758,23.368,红河哈尼族彝族自治州,州图书馆,细颗粒物(PM2.5),53,,28,37,29,48,,64,61,14,7,19,7,0.5,0.4
2025-03-10T0900,1090A,111.6507,40.7517,呼和浩特市,呼市一监,颗粒物(PM10),101,151,123,65,58,20,,34,29,47,28,13,12,1.4,1
2025-03-10T0900,1091A,111.6572,40.8033,呼和浩特市,小召,颗粒物(PM10),104,158,137,51,54,35,,35,34,40,31,8,13,0.9,0.8
2025-03-10T0900,1094A,111.7516,40.8369,呼和浩特市,如意水处理厂,颗粒物(PM10),96,142,122,46,52,22,,19,19,54,47,11,10,0.9,0.8
2025-03-10T0900,1095A,111.7276,40.8062,呼和浩特市,二十九中,颗粒物(PM10),102,154,127,51,55,19,,24,22,55,36,10,8,1.4,1.1
2025-03-10T0900,1096A,111.5512,40.7866,呼和浩特市,工大金川校区,颗粒物(PM10),96,141,132,51,53,44,,21,20,37,39,12,11,0.9,0.8
2025-03-10T0900,1097A,111.717,40.7612,呼和浩特市,化肥厂生活区,颗粒物(PM10),112,174,138,69,59,17,,31,25,54,34,10,10,1.1,0.7
2025-03-10T0900,3698A,111.5968,40.8178,呼和浩特市,红旗小学,颗粒物(PM10),104,158,131,50,53,28,,20,20,53,52,10,9,1.0,0.8
2025-03-10T0900,3699A,111.6518,40.8389,呼和浩特市,海东办,颗粒物(PM10),106,161,130,53,54,14,,6,6,61,47,11,12,1.2,0.8
2025-03-10T0900,2192A,119.7594,49.2261,呼伦贝尔市,区环保局,,,37,81,26,31,,,80,78,,12,,7,,0.5
2025-03-10T0900,3061A,119.7512,49.1577,呼伦贝尔市,国华电力东,,42,42,71,18,25,82,,83,82,6,7,4,5,0.6,0.6
2025-03-10T0900,1250A,120.0751,30.8669,湖州市,城西水厂,细颗粒物(PM2.5),68,74,51,49,32,23,,53,47,45,29,7,7,0.4,0.3
2025-03-10T0900,2873A,120.0875,30.8955,湖州市,仁皇山新区,颗粒物(PM10),61,71,50,42,31,31,,54,50,36,25,4,4,0.6,0.4
2025-03-10T0900,2907A,120.1844,30.8596,湖州市,吴兴区站,颗粒物(PM10),58,65,49,40,32,29,,52,48,36,22,6,6,0.5,0.3
2025-03-10T0900,3562A,120.4148,30.8538,湖州市,南浔区站,颗粒物(PM10),52,54,46,29,28,49,,63,60,27,22,3,4,0.5,0.4
2025-03-10T0900,1607A,120.9092,40.7136,葫芦岛市,龙港区,细颗粒物(PM2.5),129,105,126,98,120,109,,109,109,15,23,7,9,0.9,1
2025-03-10T0900,1608A,120.8392,40.7514,葫芦岛市,化工街,细颗粒物(PM2.5),128,122,142,97,118,91,,90,90,26,30,12,12,0.8,0.8
2025-03-10T0900,1609A,120.8341,40.7073,葫芦岛市,新区,细颗粒物(PM2.5),128,,118,97,122,106,,113,111,26,28,8,10,1.0,1.1
2025-03-10T0900,1610A,120.8695,40.7677,葫芦岛市,东城区,细颗粒物(PM2.5),133,,89,101,125,87,,94,94,36,35,11,10,1.1,1.1
2025-03-10T0900,2482A,109.5981,27.5721,怀化市,林科所,,32,27,32,22,22,30,,29,29,16,14,4,5,1.0,1
2025-03-10T0900,2483A,109.9453,27.5444,怀化市,河西地税局,,40,31,44,28,35,32,,21,21,12,21,7,7,0.6,0.7
2025-03-10T0900,2484A,109.9781,27.5342,怀化市,市四医院,细颗粒物(PM2.5),53,50,57,37,38,13,,20,19,26,25,2,4,0.8,0.8
2025-03-10T0900,2485A,109.9972,27.5578,怀化市,监测楼,,42,41,45,29,30,23,,26,26,21,22,6,7,0.2,0.7
2025-03-10T0900,2486A,110.0394,27.583,怀化市,市委党校,,39,,41,27,34,29,,27,27,20,19,5,7,0.7,0.7
2025-03-10T0900,1210A,119.036,33.5981,淮安市,钵池山,细颗粒物(PM2.5),67,61,56,48,55,43,,56,52,27,17,8,7,0.7,0.6
2025-03-10T0900,1211A,119.007,33.575,淮安市,北京南路,细颗粒物(PM2.5),67,53,51,48,51,49,,54,50,25,19,9,8,0.7,0.5
2025-03-10T0900,1212A,118.989,33.6067,淮安市,市监测站,细颗粒物(PM2.5),67,61,51,48,50,53,,66,62,26,17,9,8,0.9,0.6
2025-03-10T0900,1213A,119.135,33.5039,淮安市,楚州区监测站,细颗粒物(PM2.5),67,61,57,48,54,38,,45,41,34,24,7,7,0.5,0.4
2025-03-10T0900,3426A,118.8755,33.2894,淮安市,新华书店,细颗粒物(PM2.5),70,62,57,51,50,45,,48,45,23,20,9,9,0.9,0.7
2025-03-10T0900,4206A,119.0288,33.6319,淮安市,承德北路606号,,,,67,52,55,,,51,47,37,23,,6,0.9,0.7
2025-03-10T0900,2282A,116.8004,33.975,淮北市,监测站,细颗粒物(PM2.5),102,105,95,76,68,51,,73,67,24,18,6,6,0.8,0.8
2025-03-10T0900,2283A,116.8091,33.9007,淮北市,烈山区政府,细颗粒物(PM2.5),107,107,86,80,67,58,,77,71,29,26,5,4,0.7,0.7
2025-03-10T0900,3330A,116.8873,33.9836,淮北市,杜集区检察院,细颗粒物(PM2.5),103,94,83,77,67,54,,77,71,28,20,6,5,0.7,0.8
2025-03-10T0900,4017A,116.7923,33.9535,淮北市,市博物馆,细颗粒物(PM2.5),113,97,89,85,69,53,,70,64,26,20,8,8,0.9,0.8
2025-03-10T0900,2277A,116.8305,32.7727,淮南市,潘集区政府,细颗粒物(PM2.5),113,126,113,85,84,31,,27,24,41,38,11,7,0.6,0.6
2025-03-10T0900,2279A,116.8569,32.5951,淮南市,谢家集区政府,细颗粒物(PM2.5),90,96,92,67,68,44,,54,52,26,22,8,7,0.4,0.5
2025-03-10T0900,2280A,116.8281,32.633,淮南市,八公山区政府,细颗粒物(PM2.5),84,94,90,62,61,53,,56,54,23,20,4,5,0.4,0.5
2025-03-10T0900,2281A,116.6325,32.6201,淮南市,焦岗湖风景区管理处,细颗粒物(PM2.5),74,77,81,54,54,30,,25,24,18,19,5,5,0.2,0.2
2025-03-10T0900,2894A,117.0566,32.6531,淮南市,经济技术开发区消防队,细颗粒物(PM2.5),90,96,92,67,66,51,,41,41,29,29,8,6,0.5,0.5
2025-03-10T0900,3329A,117.0108,32.5893,淮南市,山南新区,细颗粒物(PM2.5),68,71,79,49,56,58,,60,59,18,21,8,7,0.6,0.5
2025-03-10T0900,4209A,117.0031,32.6445,淮南市,国庆中路369号,细颗粒物(PM2.5),95,126,91,71,69,62,,61,60,28,31,8,7,0.5,0.5
2025-03-10T0900,2446A,114.9028,30.4742,黄冈市,职工中心,细颗粒物(PM2.5),93,84,86,69,70,26,,7,7,40,50,8,8,1.0,1
2025-03-10T0900,2929A,114.8858,30.4519,黄冈市,红卫路,细颗粒物(PM2.5),87,78,97,64,74,43,,12,12,30,48,9,10,0.9,1
2025-03-10T0900,3398A,114.9136,30.4445,黄冈市,市林业局,细颗粒物(PM2.5),113,92,96,85,77,29,,4,4,37,49,17,13,1.0,1
2025-03-10T0900,2672A,102.0199,35.5102,黄南藏族自治州,同仁县隆务镇,颗粒物(PM10),68,86,39,24,15,41,,58,56,22,4,21,13,0.7,0.3
2025-03-10T0900,2295A,118.2903,29.6963,黄山市,延安路89号,细颗粒物(PM2.5),70,,63,51,56,60,,27,27,7,18,4,4,0.7,0.8
2025-03-10T0900,2297A,118.1371,30.2756,黄山市,黄山区政府5号楼,,,58,55,41,39,23,,18,17,10,13,7,7,,0.7
2025-03-10T0900,4210A,118.3354,29.7203,黄山市,滨江东路7-2号,细颗粒物(PM2.5),73,67,81,53,61,49,,30,30,18,24,4,5,0.6,0.6
2025-03-10T0900,2423A,115.0601,30.2313,黄石市,沈家营,细颗粒物(PM2.5),122,119,92,92,66,26,,22,22,29,39,19,11,1.1,1
2025-03-10T0900,2426A,114.8988,30.2019,黄石市,铁山,细颗粒物(PM2.5),120,95,78,91,84,21,,12,12,29,24,14,15,1.0,0.7
2025-03-10T0900,2427A,115.0307,30.2092,黄石市,团城山,细颗粒物(PM2.5),134,114,91,102,75,23,,25,22,38,33,26,14,1.2,0.9
2025-03-10T0900,3149A,115.0235,30.1578,黄石市,笔架山北路,细颗粒物(PM2.5),137,112,85,104,81,21,,21,21,29,29,9,8,1.2,1
2025-03-10T0900,4185A,115.0780,30.21118,黄石市,磁湖东路29号,细颗粒物(PM2.5),143,133,99,109,81,38,,33,33,22,33,12,8,1.3,1.1
2025-03-10T0900,1392A,114.4183,23.0528,惠州市,河南岸金山湖子站,颗粒物(PM10),54,57,55,32,24,53,,66,63,29,20,10,9,0.7,0.6
2025-03-10T0900,1393A,114.4053,23.0822,惠州市,下埔横江三路子站,颗粒物(PM10),56,62,46,33,26,60,,69,66,30,22,10,10,0.6,0.6
2025-03-10T0900,1394A,114.4103,23.1142,惠州市,江北云山西路子站,颗粒物(PM10),58,65,44,35,26,58,,60,56,36,24,10,9,0.6,0.6
2025-03-10T0900,1395A,114.4645,22.7833,惠州市,惠阳区承修路船湖子站,颗粒物(PM10),56,62,49,26,22,77,,68,65,24,24,9,9,0.6,0.6
2025-03-10T0900,1396A,114.5317,22.7422,惠州市,大亚湾管委会子站,颗粒物(PM10),53,55,42,24,18,82,,81,78,24,20,7,7,0.6,0.6
2025-03-10T0900,3314A,114.4338,22.8134,惠州市,惠阳秋长,,,,48,,21,,,111,,,20,,7,,0.6
2025-03-10T0900,3452A,114.6517,22.775,惠州市,大亚湾霞涌,,50,50,39,25,22,80,,87,84,20,18,8,8,0.6,0.6
2025-03-10T0900,2240A,130.9762,45.3001,鸡西市,环保局,细颗粒物(PM2.5),87,82,60,64,47,39,,32,29,43,21,15,8,0.9,0.6
2025-03-10T0900,2243A,130.9429,45.3039,鸡西市,第一中学,颗粒物(PM10),57,63,52,37,42,99,,58,58,15,18,8,8,0.3,0.4
2025-03-10T0900,3707A,131.0207,45.3073,鸡西市,欧美日汽修厂,细颗粒物(PM2.5),122,121,91,92,68,49,,29,28,25,19,14,20,0.5,0.9
2025-03-10T0900,3709A,130.9967,45.3106,鸡西市,市政设施管理处,细颗粒物(PM2.5),108,99,66,81,51,34,,27,25,34,22,16,8,0.6,0.6
2025-03-10T0900,2367A,114.9754,27.0803,吉安市,红声器材厂,,39,39,46,26,28,30,,38,36,23,19,10,15,1.0,0.7
2025-03-10T0900,2368A,114.9658,27.0999,吉安市,市森林工业局,,45,31,39,31,31,31,,40,38,30,23,9,14,0.6,0.4
2025-03-10T0900,2369A,114.99,27.1312,吉安市,市环境监测站,,43,38,40,30,33,27,,38,36,23,19,9,13,0.7,0.4
2025-03-10T0900,2370A,115.0093,27.0968,吉安市,青原区法院,,40,34,42,28,31,32,,37,35,27,25,10,13,0.8,0.5
2025-03-10T0900,1772A,126.54,43.8622,吉林市,哈达湾,细颗粒物(PM2.5),92,103,89,68,52,136,,131,131,15,15,8,9,0.9,0.8
2025-03-10T0900,1773A,126.5844,43.8358,吉林市,东局子,细颗粒物(PM2.5),83,112,71,61,49,132,,128,128,17,16,6,7,0.6,0.5
2025-03-10T0900,1774A,126.5052,43.8245,吉林市,电力学院,细颗粒物(PM2.5),89,111,75,66,56,134,,126,126,14,15,3,4,0.4,0.4
2025-03-10T0900,1775A,126.6133,43.8972,吉林市,江北,细颗粒物(PM2.5),90,109,77,67,51,131,,126,126,15,13,8,9,0.8,0.7
2025-03-10T0900,1776A,126.555,43.8306,吉林市,江南公园,细颗粒物(PM2.5),95,104,78,71,58,130,,124,124,17,18,6,7,0.5,0.5
2025-03-10T0900,1778A,126.7061,43.7133,吉林市,丰满,细颗粒物(PM2.5),97,106,69,72,56,156,,149,149,14,13,6,7,0.8,0.7
2025-03-10T0900,2868A,126.4739,43.953,吉林市,九站,细颗粒物(PM2.5),87,99,86,64,52,132,,130,130,20,19,8,8,0.7,0.6
2025-03-10T0900,1299A,116.9862,36.6114,济南市,科干所,细颗粒物(PM2.5),77,92,76,56,48,108,,118,115,23,21,7,6,0.6,0.5
2025-03-10T0900,1300A,116.9376,36.665,济南市,农科所,细颗粒物(PM2.5),83,105,86,61,50,100,,113,109,22,17,9,8,0.8,0.8
2025-03-10T0900,1301A,117.1265,36.6734,济南市,开发区,细颗粒物(PM2.5),108,85,75,81,67,116,,113,111,15,15,8,7,0.6,0.6
2025-03-10T0900,1303A,117.0624,36.6868,济南市,省种子仓库,细颗粒物(PM2.5),92,97,82,68,56,115,,122,118,18,17,5,4,0.7,0.7
2025-03-10T0900,1304A,116.9489,36.6447,济南市,机床二厂,细颗粒物(PM2.5),104,98,85,78,59,92,,102,99,21,19,11,10,0.8,0.8
2025-03-10T0900,1305A,117.0495,36.663,济南市,市监测站,细颗粒物(PM2.5),95,85,75,71,56,105,,112,109,25,20,8,8,0.6,0.5
2025-03-10T0900,1306A,116.7675,36.5484,济南市,长清党校,细颗粒物(PM2.5),85,103,90,63,60,102,,115,110,22,25,7,6,0.7,0.7
2025-03-10T0900,1616A,117.6795,36.229,济南市,技术学院,细颗粒物(PM2.5),128,127,100,97,80,65,,81,76,52,36,12,9,1.3,0.9
2025-03-10T0900,1961A,117.532,36.6868,济南市,东山小学,细颗粒物(PM2.5),89,103,95,66,62,108,,113,111,22,23,8,8,0.8,0.8
2025-03-10T0900,3059A,117.7161,36.2049,济南市,泰兴公司,细颗粒物(PM2.5),147,139,114,112,90,62,,68,63,50,35,13,8,1.2,0.8
2025-03-10T0900,3064A,117.6867,36.2171,济南市,莱芜战役纪念馆,细颗粒物(PM2.5),119,141,111,90,76,66,,86,80,46,31,8,5,1.2,0.9
2025-03-10T0900,3494A,117.1673,36.9782,济南市,济阳区政府,细颗粒物(PM2.5),108,125,102,81,64,64,,75,72,28,27,12,11,0.6,0.5
2025-03-10T0900,3495A,117.1171,36.63,济南市,锦屏中学,细颗粒物(PM2.5),83,78,72,61,56,116,,112,111,19,18,9,9,0.5,0.5
2025-03-10T0900,3682A,116.9814,36.6819,济南市,济南四建,细颗粒物(PM2.5),80,83,71,59,54,105,,115,111,22,19,6,5,0.4,0.4
2025-03-10T0900,1653A,116.6251,35.4302,济宁市,火炬城,细颗粒物(PM2.5),138,,78,105,85,60,,71,67,16,15,10,10,1.0,0.8
2025-03-10T0900,1655A,116.5491,35.4042,济宁市,电化厂,细颗粒物(PM2.5),128,127,104,97,82,61,,77,72,18,15,10,10,1.1,1
2025-03-10T0900,3500A,116.5814,35.3707,济宁市,北湖一中,细颗粒物(PM2.5),113,99,79,85,69,60,,72,67,25,22,8,9,1.0,0.8
2025-03-10T0900,3501A,116.8249,35.5593,济宁市,服务中心,细颗粒物(PM2.5),114,136,106,86,67,51,,72,66,43,26,10,7,0.8,0.7
2025-03-10T0900,3678A,116.5907,35.4054,济宁市,市第七中学,细颗粒物(PM2.5),117,99,78,88,72,66,,77,72,27,25,4,5,,0.8
2025-03-10T0900,2255A,130.2751,46.8028,佳木斯市,佳纺,细颗粒物(PM2.5),62,54,56,44,40,70,,44,44,29,28,7,5,0.5,0.5
2025-03-10T0900,2256A,130.3995,46.8307,佳木斯市,发电厂,细颗粒物(PM2.5),55,49,50,39,40,62,,61,61,33,24,5,4,0.7,0.7
2025-03-10T0900,2257A,130.3258,46.7975,佳木斯市,环保局,细颗粒物(PM2.5),74,73,56,54,40,89,,40,40,15,27,5,4,0.4,0.5
2025-03-10T0900,2258A,130.3648,46.8032,佳木斯市,十一中,细颗粒物(PM2.5),74,56,50,54,43,59,,46,46,38,31,9,7,0.8,0.6
2025-03-10T0900,2259A,130.3794,46.7588,佳木斯市,四丰,细颗粒物(PM2.5),54,50,51,38,25,90,,64,64,7,11,1,1,0.7,0.7
2025-03-10T0900,1252A,120.7436,30.778,嘉兴市,清河小学,,28,26,25,19,20,48,,60,57,24,17,3,4,0.9,0.6
2025-03-10T0900,1253A,120.726,30.7478,嘉兴市,嘉兴学院,,38,38,39,22,20,48,,63,59,34,23,7,7,0.4,0.4
2025-03-10T0900,2872A,120.7846,30.7525,嘉兴市,南湖区残联,,34,34,36,20,20,59,,72,69,27,18,8,8,0.4,0.4
2025-03-10T0900,3407A,120.6916,30.7739,嘉兴市,秀洲住建,,45,45,37,18,22,50,,71,66,32,21,5,5,0,0.1
2025-03-10T0900,1945A,98.2908,39.7711,嘉峪关市,气象局,颗粒物(PM10),112,173,364,36,72,69,,76,75,12,13,2,6,0.1,0.2
2025-03-10T0900,2884A,98.2672,39.7978,嘉峪关市,酒钢宾馆,颗粒物(PM10),113,175,369,36,67,73,,69,69,7,11,3,9,0.5,0.5
2025-03-10T0900,3248A,98.2643,39.7724,嘉峪关市,雄关区,颗粒物(PM10),100,149,281,31,58,71,,71,71,15,16,4,5,0.2,0.4
2025-03-10T0900,1383A,113.1064,22.6058,江门市,北街,,,72,68,52,45,,,22,18,64,47,4,5,1.1,0.7
2025-03-10T0900,1384A,113.0731,22.5835,江门市,西区,颗粒物(PM10),67,83,81,45,46,9,,15,13,79,53,8,8,1.8,0.8
2025-03-10T0900,1385A,113.0219,22.5311,江门市,圭峰西,细颗粒物(PM2.5),57,51,65,40,45,30,,33,29,48,41,5,6,1.0,0.7
2025-03-10T0900,1386A,113.0828,22.5947,江门市,东湖,颗粒物(PM10),70,89,75,41,46,10,,18,15,72,45,8,9,1.3,0.7
2025-03-10T0900,3311A,113.1075,22.5647,江门市,江海富民,颗粒物(PM10),73,96,92,48,48,21,,25,21,63,43,8,8,1.0,0.5
2025-03-10T0900,3449A,113.05,22.4667,江门市,新会银湖,细颗粒物(PM2.5),79,61,66,58,50,19,,8,8,58,44,2,4,0.8,0.7
2025-03-10T0900,1830A,113.1992,35.2590,焦作市,影视城,,,,111,,62,,,,,,12,,8,,0.4
2025-03-10T0900,3169A,113.2725,35.2067,焦作市,太极体育中心,细颗粒物(PM2.5),150,158,128,115,90,43,,76,69,46,27,10,9,1.0,0.8
2025-03-10T0900,3335A,113.3137,35.2641,焦作市,马村街道办,细颗粒物(PM2.5),129,124,112,98,91,58,,77,72,32,23,7,8,0.9,0.8
2025-03-10T0900,3336A,113.2465,35.2373,焦作市,焦作技师学院,细颗粒物(PM2.5),119,137,113,90,79,68,,84,80,41,31,8,6,1.2,0.9
2025-03-10T0900,3477A,113.1656,35.2539,焦作市,中站许衡医院,细颗粒物(PM2.5),123,144,108,93,84,50,,99,89,60,25,19,8,1.2,0.8
2025-03-10T0900,3981A,113.2449,35.1803,焦作市,原李万街道办,细颗粒物(PM2.5),168,177,126,127,84,33,,73,64,46,24,13,12,0.7,0.5
2025-03-10T0900,4264A,113.2340,35.2190,焦作市,新安路1731号,细颗粒物(PM2.5),129,127,120,98,87,60,,78,73,33,24,9,8,1.0,0.8
2025-03-10T0900,1708A,116.3701,23.5345,揭阳市,新兴,颗粒物(PM10),62,73,47,40,30,44,,62,57,34,24,7,7,0.9,0.7
2025-03-10T0900,1709A,116.3264,23.5443,揭阳市,西马,细颗粒物(PM2.5),67,66,49,48,29,40,,63,57,33,18,9,10,0.8,0.6
2025-03-10T0900,1710A,116.3611,23.5626,揭阳市,东兴,颗粒物(PM10),60,69,52,40,28,30,,56,50,39,21,7,9,0.8,0.7
2025-03-10T0900,1711A,116.4151,23.5294,揭阳市,渔湖,颗粒物(PM10),51,51,45,26,24,45,,66,61,30,18,6,7,0.6,0.7
2025-03-10T0900,3320A,116.403,23.5699,揭阳市,曲溪,颗粒物(PM10),56,61,51,28,27,30,,55,48,40,24,20,8,0.7,0.5
2025-03-10T0900,1944A,102.1692,38.5167,金昌市,天庆家园,颗粒物(PM10),101,151,221,60,66,41,,66,62,32,16,16,14,1.5,0.9
2025-03-10T0900,4022A,102.1647,38.5371,金昌市,金川区人防中心,颗粒物(PM10),110,170,273,62,64,42,,71,67,32,15,27,23,0.8,0.6
2025-03-10T0900,4239A,102.1930,38.5319,金昌市,长春路96号,细颗粒物(PM2.5),88,115,140,65,71,26,,53,48,40,19,32,65,1.2,0.6
2025-03-10T0900,1262A,119.647,29.077,金华市,十五中,细颗粒物(PM2.5),114,98,95,86,63,16,,23,22,50,56,5,6,0.9,0.7
2025-03-10T0900,1263A,119.686,29.1029,金华市,监测站,细颗粒物(PM2.5),115,102,106,87,72,11,,14,14,51,60,4,6,0.7,0.6
2025-03-10T0900,3659A,119.656,29.1131,金华市,气象局,细颗粒物(PM2.5),112,99,101,84,68,7,,6,6,55,62,5,5,0.7,0.5
2025-03-10T0900,1767A,121.1115,41.0879,锦州市,南山,细颗粒物(PM2.5),138,,122,105,133,95,,95,95,26,29,13,14,0.9,0.9
2025-03-10T0900,1768A,121.0533,40.8434,锦州市,开发区,细颗粒物(PM2.5),125,,134,95,117,106,,105,105,22,31,9,10,0.9,0.9
2025-03-10T0900,1769A,121.1836,41.1119,锦州市,百股街道,细颗粒物(PM2.5),122,93,122,92,116,98,,100,100,25,28,10,12,1.2,1.2
2025-03-10T0900,1770A,121.1178,41.1222,锦州市,天安街道,细颗粒物(PM2.5),144,,122,110,143,,,100,100,28,28,13,14,1.1,1.1
2025-03-10T0900,1771A,121.1303,41.1386,锦州市,北湖公园,细颗粒物(PM2.5),133,,127,101,130,89,,94,93,31,32,12,13,1.1,1.1
2025-03-10T0900,2160A,112.85,35.5051,晋城市,自来水公司,细颗粒物(PM2.5),117,136,100,88,63,47,,64,61,40,26,6,6,1.4,0.7
2025-03-10T0900,2161A,112.8318,35.4936,晋城市,白云商贸,颗粒物(PM10),105,159,108,,62,58,,68,63,37,26,6,6,1.4,0.7
2025-03-10T0900,2162A,112.8508,35.4887,晋城市,市环保局,细颗粒物(PM2.5),107,148,108,80,61,39,,58,53,45,27,6,5,1.1,0.5
2025-03-10T0900,2163A,112.8676,35.4897,晋城市,技术学院,颗粒物(PM10),99,148,101,68,53,30,,46,40,54,32,8,7,1.5,0.9
2025-03-10T0900,2165A,112.8453,35.546,晋城市,白马寺,细颗粒物(PM2.5),110,113,94,83,64,73,,114,109,30,13,5,5,1.2,0.8
2025-03-10T0900,3620A,112.8271,35.4828,晋城市,泽州一中,细颗粒物(PM2.5),134,138,104,102,73,35,,70,62,51,25,6,8,1.4,0.8
2025-03-10T0900,2173A,112.7249,37.7067,晋中市,南都小区,细颗粒物(PM2.5),88,115,97,65,55,53,,79,75,33,19,6,8,0.9,0.7
2025-03-10T0900,2174A,112.6991,37.6982,晋中市,榆次区政府,,,119,98,67,53,57,,80,76,38,23,,8,0.4,0.4
2025-03-10T0900,2865A,112.7195,37.6828,晋中市,榆次三中,"颗粒物(PM10),细颗粒物(PM2.5)",89,127,102,66,57,35,,63,57,38,26,4,7,0.3,0.2
2025-03-10T0900,4200A,112.7478,37.6954,晋中市,迎宾街26号,细颗粒物(PM2.5),89,124,98,66,58,34,,71,64,35,21,2,5,0.4,0.5
2025-03-10T0900,2439A,112.2014,31.0481,荆门市,竹园小学,细颗粒物(PM2.5),102,83,73,76,57,43,,58,55,17,19,6,5,0.5,0.4
2025-03-10T0900,2440A,112.1969,30.9891,荆门市,掇刀,细颗粒物(PM2.5),90,87,74,67,56,43,,62,58,26,23,6,5,0.4,0.4
2025-03-10T0900,2441A,112.2213,31.0386,荆门市,石化一小,细颗粒物(PM2.5),120,104,72,91,57,20,,51,46,57,27,11,10,0.5,0.3
2025-03-10T0900,3012A,112.1849,31.0362,荆门市,西山林语,细颗粒物(PM2.5),84,66,60,62,50,47,,48,46,16,18,4,5,0.3,0.3
2025-03-10T0900,3547A,112.1632,31.0138,荆门市,龙泉中学南校,细颗粒物(PM2.5),72,72,66,52,50,40,,44,43,16,17,1,7,0.5,0.5
2025-03-10T0900,1844A,112.2494,30.3197,荆州市,市图书馆,细颗粒物(PM2.5),57,45,44,40,44,51,,51,50,18,28,3,3,0.8,0.7
2025-03-10T0900,1845A,112.2008,30.3544,荆州市,市委党校,细颗粒物(PM2.5),68,60,50,49,46,48,,51,50,23,21,10,6,0.7,0.6
2025-03-10T0900,3194A,112.2747,30.3122,荆州市,管委会,细颗粒物(PM2.5),68,53,49,49,46,56,,55,55,22,26,14,9,0.8,0.7
2025-03-10T0900,4268A,112.1722,30.3366,荆州市,学苑路85号,细颗粒物(PM2.5),74,57,43,54,42,48,,49,48,25,17,12,7,0.7,0.6
2025-03-10T0900,2342A,117.3102,29.3867,景德镇市,王港中学,,,,,,,,,,,,,,,,
2025-03-10T0900,2343A,117.2117,29.2933,景德镇市,老干部活动中心,,,,46,,40,,,,,,16,,4,,0.4
2025-03-10T0900,2344A,117.1894,29.2789,景德镇市,兽医站,,45,45,56,31,31,21,,45,43,26,17,3,4,0.7,0.6
2025-03-10T0900,2345A,117.1547,29.2617,景德镇市,台达陶瓷,颗粒物(PM10),55,60,55,37,36,24,,32,31,29,27,35,36,0.7,0.6
2025-03-10T0900,2346A,117.2461,29.2956,景德镇市,陶研所,细颗粒物(PM2.5),60,,45,43,45,25,,28,28,29,24,4,5,0.7,0.6
2025-03-10T0900,1803A,115.9872,29.6815,九江市,十里,细颗粒物(PM2.5),72,70,82,52,58,35,,16,16,25,46,2,5,0.8,1.1
2025-03-10T0900,1804A,115.9584,29.7046,九江市,茅山头,细颗粒物(PM2.5),64,61,77,46,57,31,,24,24,38,46,7,8,0.5,0.8
2025-03-10T0900,1805A,115.9877,29.7295,九江市,西园,细颗粒物(PM2.5),75,59,74,55,61,37,,38,38,40,50,10,11,1.0,1
2025-03-10T0900,1808A,115.9114,29.6038,九江市,综合工业园,细颗粒物(PM2.5),87,,77,64,79,29,,20,20,42,64,7,9,1.0,1.1
2025-03-10T0900,1809A,116.0721,29.7535,九江市,石化总厂,细颗粒物(PM2.5),77,72,76,56,68,25,,21,21,26,43,9,8,0.8,0.9
2025-03-10T0900,1810A,115.9773,29.5698,九江市,庐山气象台,,26,,18,18,18,71,,65,65,5,6,6,7,0.9,0.8
2025-03-10T0900,3190A,116.0254,29.6994,九江市,外国语学校,细颗粒物(PM2.5),80,84,83,59,61,17,,17,17,44,54,15,11,0.7,0.8
2025-03-10T0900,4253A,116.0102,29.6594,九江市,莲花大道8号,细颗粒物(PM2.5),95,,84,71,82,16,,11,10,22,35,6,9,0.8,1
2025-03-10T0900,4240A,98.4958,39.7339,酒泉市,玉门东路5号,颗粒物(PM10),133,215,425,49,71,69,,71,71,9,11,10,9,0.3,0.4
2025-03-10T0900,4241A,98.5099,39.7506,酒泉市,北大街108号,颗粒物(PM10),136,222,416,44,67,53,,57,56,19,13,10,10,0.4,0.4
2025-03-10T0900,2698A,76.0072,39.4467,喀什地区,巡警大队,颗粒物(PM10),69,87,116,30,33,7,,20,18,74,51,7,6,1.9,1.2
2025-03-10T0900,2699A,75.9755,39.4694,喀什地区,吾办,颗粒物(PM10),74,98,130,39,45,3,,8,8,75,54,8,7,2.4,1.4
2025-03-10T0900,4027A,75.9483,39.4689,喀什地区,老干局,颗粒物(PM10),91,132,139,55,45,8,,10,10,63,53,6,6,2.4,1.8
2025-03-10T0900,1824A,114.3389,34.7781,开封市,肿瘤医院,细颗粒物(PM2.5),149,128,95,114,88,48,,68,64,34,25,5,6,1.0,0.9
2025-03-10T0900,1826A,114.2885,34.7965,开封市,世纪星幼儿园,细颗粒物(PM2.5),149,124,90,114,85,60,,88,82,34,25,7,7,1.1,1
2025-03-10T0900,3147A,114.3438,34.8106,开封市,龙亭公园,细颗粒物(PM2.5),150,142,97,115,94,58,,80,75,35,30,2,3,0.7,0.7
2025-03-10T0900,3210A,114.3644,34.7964,开封市,汴京公园,细颗粒物(PM2.5),153,148,110,117,87,53,,66,61,38,31,5,5,0.9,0.9
2025-03-10T0900,3473A,114.2485,34.8306,开封市,技师学院,细颗粒物(PM2.5),133,108,88,101,87,65,,90,84,24,20,11,11,1.1,1
2025-03-10T0900,3592A,114.4644,34.7556,开封市,祥符区生态环境局,细颗粒物(PM2.5),134,144,114,102,89,45,,60,55,34,29,4,4,0.8,0.7
2025-03-10T0900,1951A,84.895,45.6094,克拉玛依市,长征新村,,46,46,25,8,9,75,,110,108,2,18,6,8,0.2,0.2
2025-03-10T0900,1952A,84.8988,45.5893,克拉玛依市,南林小区,,29,29,23,8,7,78,,82,81,2,10,3,3,0.3,0.3
2025-03-10T0900,1954A,84.905,44.3396,克拉玛依市,独山子区,颗粒物(PM10),67,83,60,10,40,69,,80,77,10,13,5,8,0.2,0.4
2025-03-10T0900,1955A,85.6979,46.098,克拉玛依市,乌尔禾区商贸楼,颗粒物(PM10),78,106,40,7,9,76,,79,78,4,7,4,5,0.3,0.3
2025-03-10T0900,3612A,85.1045,45.6899,克拉玛依市,白碱滩区新站,,26,26,40,16,8,78,,80,79,2,5,7,9,0.4,0.3
2025-03-10T0900,2697A,76.1454,39.7142,克孜勒苏柯尔克孜自治州,市人民政府,,29,19,77,6,18,91,,98,98,3,5,4,5,0.3,0.3
2025-03-10T0900,3665A,76.1658,39.7157,克孜勒苏柯尔克孜自治州,克州文化中心,,31,13,81,6,18,98,,101,100,2,6,4,5,0.3,0.4
2025-03-10T0900,1450A,102.8204,24.8886,昆明市,呈贡新区,,42,42,51,29,34,40,,49,48,24,19,7,6,0.8,0.7
2025-03-10T0900,1451A,102.6251,24.9608,昆明市,西山森林公园,,,,,,,,,,,,,,,,
2025-03-10T0900,1452A,102.7252,25.0902,昆明市,龙泉镇,颗粒物(PM10),57,63,58,36,36,6,,5,5,46,39,7,7,1.1,0.7
2025-03-10T0900,1453A,102.7266,25.0375,昆明市,东风东路,细颗粒物(PM2.5),64,58,56,46,42,1,,32,25,46,26,8,8,1.0,0.7
2025-03-10T0900,1454A,102.6742,25.0669,昆明市,金鼎山,细颗粒物(PM2.5),58,63,68,41,49,8,,18,18,52,35,1,3,1.2,0.8
2025-03-10T0900,1455A,102.6644,25.0401,昆明市,碧鸡广场,细颗粒物(PM2.5),54,56,56,38,43,8,,18,17,58,39,8,7,0.9,0.5
2025-03-10T0900,3179A,102.7494,25.0119,昆明市,官渡区博物馆,细颗粒物(PM2.5),65,71,54,47,36,4,,37,29,54,23,9,8,1.7,0.8
2025-03-10T0900,3375A,102.8017,24.8336,昆明市,青年创业园,,44,44,48,30,32,43,,60,58,15,14,7,9,0.7,0.6
2025-03-10T0900,3550A,102.7997,24.9786,昆明市,昆明学院,细颗粒物(PM2.5),65,69,54,47,37,8,,47,40,48,17,6,5,1.1,0.6
2025-03-10T0900,3551A,102.5967,24.6736,昆明市,晋宁区生态环境分局,,42,,30,29,32,43,,53,51,8,8,4,5,0.8,0.7
2025-03-10T0900,3552A,102.6678,24.9856,昆明市,云天化总部,细颗粒物(PM2.5),53,54,52,37,36,14,,11,11,53,32,8,7,0.9,0.7
2025-03-10T0900,1456A,91.1319,29.6514,拉萨市,八廓街,,19,13,15,7,9,60,,65,64,18,14,5,6,0.6,0.6
2025-03-10T0900,1457A,91.1221,29.6747,拉萨市,市环保局,,27,27,20,15,10,39,,44,44,28,20,6,5,0.5,0.4
2025-03-10T0900,1458A,91.0874,29.6475,拉萨市,区监测站,,19,19,15,3,8,40,,40,40,38,24,6,5,0.9,0.8
2025-03-10T0900,1459A,91.1774,29.6541,拉萨市,西藏大学,,16,8,13,6,7,50,,63,60,20,11,3,4,0.6,0.5
2025-03-10T0900,1460A,90.9798,29.6588,拉萨市,区辐射站,,25,24,21,17,11,29,,52,49,38,19,8,7,0.5,0.4
2025-03-10T0900,1461A,91.0834,29.6292,拉萨市,拉萨火车站,,15,15,13,9,7,40,,48,44,28,15,6,6,0.5,0.4
2025-03-10T0900,2520A,109.2203,23.7256,来宾市,来宾技工学校,,20,,31,14,29,15,,13,13,18,20,5,6,0.9,0.9
2025-03-10T0900,3535A,109.1781,23.7297,来宾市,兴宾区政府,,32,28,33,22,29,15,,14,14,15,16,5,5,0.9,0.9
2025-03-10T0900,4002A,109.2416,23.7461,来宾市,中南小学,,23,21,32,16,30,17,,15,15,17,20,6,6,1.0,1
2025-03-10T0900,1477A,104.1373,35.9454,兰州市,榆中兰大校区,,,,,,,,,,,,,,,,
2025-03-10T0900,1479A,103.831,36.0464,兰州市,铁路设计院,颗粒物(PM10),74,98,116,52,49,14,,12,12,58,50,23,11,2.1,1
2025-03-10T0900,3241A,103.7439,36.0842,兰州市,百合公园,颗粒物(PM10),88,125,127,44,42,12,,10,10,54,39,11,8,1.4,0.9
2025-03-10T0900,3242A,103.9611,35.998,兰州市,和平,颗粒物(PM10),81,111,102,44,43,30,,42,39,44,27,16,10,1.1,0.6
2025-03-10T0900,4236A,103.6293,36.0938,兰州市,庄浪东路808号,颗粒物(PM10),95,140,133,50,51,16,,30,28,73,43,17,12,1.3,0.7
2025-03-10T0900,4237A,103.7251,36.1043,兰州市,安宁西路88号,颗粒物(PM10),96,141,141,62,50,11,,16,15,53,32,9,10,0.8,0.6
2025-03-10T0900,4238A,103.8470,36.0676,兰州市,北滨河东路1号,颗粒物(PM10),83,115,115,39,42,11,,8,8,57,45,12,11,1.0,0.6
2025-03-10T0900,3245A,103.6633,36.533,兰州新区,新区管委会,颗粒物(PM10),77,104,108,43,42,27,,39,38,24,13,15,22,0.9,0.5
2025-03-10T0900,3246A,103.6975,36.4789,兰州新区,舟曲中学,颗粒物(PM10),99,148,158,50,47,18,,21,21,49,26,8,17,0.7,0.5
2025-03-10T0900,1067A,116.6708,39.5111,廊坊市,药材公司,细颗粒物(PM2.5),114,111,117,86,92,,,91,89,,24,4,4,0.6,0.6
2025-03-10T0900,1068A,116.7214,39.5589,廊坊市,开发区,细颗粒物(PM2.5),124,123,126,94,97,67,,99,93,34,26,3,4,0.6,0.6
2025-03-10T0900,1070A,116.7244,39.5269,廊坊市,北华航天学院,细颗粒物(PM2.5),114,115,112,86,87,64,,95,89,36,27,4,4,0.6,0.6
2025-03-10T0900,2919A,116.7022,39.5453,廊坊市,河北工业大学,细颗粒物(PM2.5),115,113,115,87,91,71,,100,95,30,24,6,7,0.6,0.6
2025-03-10T0900,2535A,103.7723,29.5462,乐山市,花湖湾,细颗粒物(PM2.5),68,54,55,49,46,9,,10,10,24,26,5,4,0.6,0.5
2025-03-10T0900,2536A,103.7627,29.5844,乐山市,牛耳桥,细颗粒物(PM2.5),55,48,53,39,41,4,,2,2,24,28,6,6,0.8,0.6
2025-03-10T0900,2537A,103.7508,29.6006,乐山市,市第三水厂,,43,41,42,30,33,5,,7,5,18,22,4,3,0.9,0.6
2025-03-10T0900,2538A,103.7571,29.5664,乐山市,市监测站,,46,40,42,32,32,3,,3,3,25,24,4,4,1.2,0.9
2025-03-10T0900,3361A,103.7311,29.5628,乐山市,理工大学,,48,45,49,33,35,6,,6,5,25,28,6,6,0.8,0.5
2025-03-10T0900,2598A,100.2143,26.8576,丽江市,西南郊,,49,49,36,32,24,86,,108,105,20,6,5,5,1.1,0.9
2025-03-10T0900,2599A,100.2497,26.8802,丽江市,丽江古城,,48,48,39,31,26,81,,92,90,18,13,8,8,0.7,0.6
2025-03-10T0900,2600A,100.2203,26.8906,丽江市,市中心,,43,36,30,30,24,64,,91,87,34,10,6,6,0.8,0.7
2025-03-10T0900,1267A,119.914,28.4514,丽水市,监测站大楼,,39,,45,27,34,57,,65,62,20,20,3,4,0.3,0.3
2025-03-10T0900,1268A,119.93,28.4586,丽水市,莲都小学,,46,40,52,32,31,54,,66,65,25,20,4,4,0.4,0.3
2025-03-10T0900,1269A,119.879,28.4231,丽水市,余庄前,,50,49,54,35,36,42,,45,44,25,22,4,5,0.4,0.4
2025-03-10T0900,1173A,119.176,34.5885,连云港市,市环境监测站,细颗粒物(PM2.5),64,70,84,46,62,82,,98,94,16,17,8,8,0.4,0.5
2025-03-10T0900,3000A,119.3581,34.6972,连云港市,德源药业,细颗粒物(PM2.5),64,53,83,46,65,79,,93,91,16,19,7,8,0.6,0.7
2025-03-10T0900,3007A,119.178,34.844,连云港市,新城一中,细颗粒物(PM2.5),75,75,102,55,86,64,,55,52,56,45,7,8,0.7,0.7
2025-03-10T0900,3008A,119.3608,34.7519,连云港市,胡沟管理处,细颗粒物(PM2.5),58,46,62,41,48,87,,95,92,17,29,9,11,0.6,0.6
2025-03-10T0900,3009A,119.1478,34.5911,连云港市,矿山设计院,细颗粒物(PM2.5),73,73,89,53,64,79,,96,92,17,17,7,7,0.4,0.5
2025-03-10T0900,3434A,119.2413,34.6539,连云港市,工贸学校,细颗粒物(PM2.5),79,72,86,58,70,79,,101,96,12,16,8,8,0.8,0.8
2025-03-10T0900,3664A,119.4172,34.7341,连云港市,连云街道,细颗粒物(PM2.5),72,69,86,52,66,60,,92,84,40,21,10,7,0.7,0.7
2025-03-10T0900,2571A,102.3431,27.8099,凉山彝族自治州,青龙寺,颗粒物(PM10),52,53,47,18,14,54,,81,78,12,11,6,7,1.0,0.8
2025-03-10T0900,2572A,102.2721,27.8415,凉山彝族自治州,邛海宾馆,细颗粒物(PM2.5),57,49,44,40,29,41,,76,69,39,17,14,14,1.3,0.9
2025-03-10T0900,2573A,102.2625,27.898,凉山彝族自治州,西昌市政府,细颗粒物(PM2.5),52,48,42,36,30,39,,78,72,37,14,24,16,1.3,0.8
2025-03-10T0900,2574A,102.2685,27.8851,凉山彝族自治州,凉山州政府,,49,49,41,32,27,23,,68,60,51,17,19,18,1.2,0.7
2025-03-10T0900,4229A,102.2342,27.8859,凉山彝族自治州,凯乐南路30号,,,,48,,30,,,28,25,51,28,12,13,0.7,0.7
2025-03-10T0900,2212A,123.2,41.1953,辽阳市,宏伟区,,,,70,70,67,,,131,130,20,14,,10,0.8,0.8
2025-03-10T0900,2213A,123.1683,41.2495,辽阳市,新华园,细颗粒物(PM2.5),97,82,80,72,71,104,,116,114,21,20,9,10,0.8,0.8
2025-03-10T0900,2214A,123.2354,41.2639,辽阳市,滨河路,细颗粒物(PM2.5),97,,60,72,69,106,,118,116,18,17,7,15,0.7,0.7
2025-03-10T0900,2215A,123.149,41.2991,辽阳市,铁西工业园,细颗粒物(PM2.5),95,82,92,71,72,106,,120,117,23,22,9,11,0.7,0.7
2025-03-10T0900,2227A,125.1358,42.8845,辽源市,环保局,细颗粒物(PM2.5),64,59,54,46,38,137,,136,136,19,20,5,6,0.9,0.9
2025-03-10T0900,3239A,125.0764,42.9078,辽源市,银鹰制药,颗粒物(PM10),64,78,61,44,43,145,,145,145,14,14,6,7,0.9,0.9
2025-03-10T0900,1625A,115.9848,36.4372,聊城市,区政府,细颗粒物(PM2.5),113,128,101,85,69,72,,89,84,20,15,15,13,0.9,0.7
2025-03-10T0900,2878A,116.0072,36.4343,聊城市,聊大东校,细颗粒物(PM2.5),130,136,107,99,72,71,,86,81,22,21,10,9,1.0,1.1
2025-03-10T0900,3200A,115.9819,36.4978,聊城市,监控中心,细颗粒物(PM2.5),125,127,106,95,74,76,,93,88,22,18,14,13,0.9,0.9
2025-03-10T0900,3513A,116.0445,36.4361,聊城市,九州社区,细颗粒物(PM2.5),112,110,95,84,67,79,,90,86,15,13,11,10,0.7,0.7
2025-03-10T0900,4018A,116.0567,36.4608,聊城市,星美广场,细颗粒物(PM2.5),107,116,101,80,63,77,,91,86,23,19,15,14,0.8,0.8
2025-03-10T0900,2632A,94.3681,29.6376,林芝市,林芝监测站,,20,20,12,11,7,55,,89,85,19,5,7,7,0.5,0.4
2025-03-10T0900,2633A,94.3616,29.6616,林芝市,林芝人民医院,,26,26,14,14,7,50,,77,74,22,4,6,6,0.5,0.3
2025-03-10T0900,2603A,100.0781,23.8982,临沧市,市环保局,,,64,69,42,46,,,52,50,30,17,11,13,1.0,0.7
2025-03-10T0900,2604A,100.0894,23.8822,临沧市,市气象局,细颗粒物(PM2.5),67,78,62,48,44,30,,51,47,36,20,15,15,0.9,0.7
2025-03-10T0900,1733A,111.5531,36.0783,临汾市,临钢医院,细颗粒物(PM2.5),94,117,103,70,51,51,,50,50,25,22,8,8,0.8,0.7
2025-03-10T0900,1734A,111.5028,36.0714,临汾市,技工学校,细颗粒物(PM2.5),109,111,94,82,60,45,,56,54,29,21,8,9,0.8,0.7
2025-03-10T0900,1736A,111.5018,36.0855,临汾市,市委,细颗粒物(PM2.5),93,123,103,69,55,44,,60,56,27,18,7,8,0.9,0.8
2025-03-10T0900,3018A,111.505,36.1014,临汾市,唐尧大酒店,细颗粒物(PM2.5),97,120,96,72,56,37,,57,52,32,27,7,8,0.8,0.7
2025-03-10T0900,4244A,111.4879,36.0530,临汾市,启星学校,细颗粒物(PM2.5),89,100,80,66,60,36,,50,47,30,18,4,5,0.8,0.7
2025-03-10T0900,4271A,103.2464,35.6123,临夏回族自治州,滨河东路1号,颗粒物(PM10),70,90,76,17,14,22,,27,24,28,29,4,5,1.3,1
2025-03-10T0900,4310A,103.2093,35.5995,临夏回族自治州,新华街21号,颗粒物(PM10),62,73,59,23,21,18,,26,24,38,25,10,11,1.8,1.1
2025-03-10T0900,1618A,118.3429,35.0532,临沂市,沂河小区,细颗粒物(PM2.5),125,114,109,95,92,60,,73,69,18,16,10,12,0.8,0.7
2025-03-10T0900,1619A,118.295,35.0583,临沂市,鲁南制药厂,细颗粒物(PM2.5),114,132,113,86,85,51,,76,71,38,34,8,11,0.5,0.5
2025-03-10T0900,1620A,118.2794,34.9976,临沂市,新光毛纺厂,细颗粒物(PM2.5),144,127,99,110,86,63,,71,69,23,26,9,10,0.7,0.7
2025-03-10T0900,1621A,118.3956,35.0888,临沂市,河东保险公司,细颗粒物(PM2.5),110,122,108,83,83,42,,53,48,51,35,4,6,0.9,0.8
2025-03-10T0900,3370A,118.3564,35.0215,临沂市,十里堡居委,细颗粒物(PM2.5),110,100,95,83,76,63,,78,74,22,22,7,10,0.7,0.7
2025-03-10T0900,3496A,118.3604,35.1084,临沂市,南坊新区,细颗粒物(PM2.5),107,100,101,80,85,60,,70,66,28,22,4,7,0.6,0.6
2025-03-10T0900,3860A,118.3920,35.0300,临沂市,皇山花园小区,细颗粒物(PM2.5),102,97,101,76,79,57,,66,62,30,23,4,9,0.6,0.5
2025-03-10T0900,1870A,109.4856,24.3895,柳州市,柳东小学,,15,,15,10,14,17,,16,16,12,14,10,10,0.7,0.6
2025-03-10T0900,1871A,109.4157,24.3277,柳州市,环保监测站,,19,16,22,13,18,12,,15,15,20,18,10,9,0.8,0.7
2025-03-10T0900,1872A,109.389,24.341,柳州市,河西水厂,,22,22,33,7,21,12,,12,12,17,21,6,3,0.8,0.8
2025-03-10T0900,1873A,109.4311,24.2921,柳州市,市四中,,18,,21,12,18,17,,19,19,15,18,7,8,0.7,0.7
2025-03-10T0900,1874A,109.4006,24.3631,柳州市,市九中,,20,20,22,13,18,13,,14,14,16,16,6,7,0.9,0.8
2025-03-10T0900,1875A,109.4958,24.3134,柳州市,古亭山,,16,,17,11,15,14,,16,16,11,14,6,7,0.6,0.5
2025-03-10T0900,3402A,109.5422,24.3996,柳州市,市二中,,12,12,18,8,15,14,,13,12,12,15,9,12,0.6,0.5
2025-03-10T0900,2307A,116.5079,31.737,六安市,监测大楼,细颗粒物(PM2.5),153,143,109,117,92,30,,47,42,54,36,6,6,1.1,0.8
2025-03-10T0900,2308A,116.4738,31.7643,六安市,皖西学院,细颗粒物(PM2.5),138,127,113,105,89,30,,40,36,45,32,5,5,0.7,0.6
2025-03-10T0900,2309A,116.4996,31.7905,六安市,朝阳厂,细颗粒物(PM2.5),144,139,111,110,87,35,,36,32,44,36,5,4,0.9,0.8
2025-03-10T0900,2310A,116.5567,31.7886,六安市,开发区,细颗粒物(PM2.5),140,205,130,107,86,24,,42,37,54,33,6,5,1.0,0.8
2025-03-10T0900,2576A,104.8,26.5892,六盘水市,窑上,,18,16,48,12,33,17,,19,19,13,17,4,5,0.8,0.9
2025-03-10T0900,2577A,104.83,26.5917,六盘水市,黄土坡,,20,20,38,7,25,14,,21,21,26,23,9,10,1.1,1.1
2025-03-10T0900,2578A,104.89,26.5939,六盘水市,水钢,,31,31,39,21,31,25,,26,26,12,14,6,7,0.6,0.7
2025-03-10T0900,2579A,104.8475,26.5894,六盘水市,民中,,13,10,32,9,23,18,,21,21,17,21,8,9,0.8,0.9
2025-03-10T0900,2580A,104.9544,26.5506,六盘水市,双水,,9,6,23,3,17,27,,32,32,13,14,8,9,0.6,0.6
2025-03-10T0900,2335A,117.0189,25.1181,龙岩市,龙岩师专,,,,,,,,,,,,,,,,
2025-03-10T0900,2336A,117.0217,25.1033,龙岩市,龙岩市监测站,细颗粒物(PM2.5),67,51,48,48,34,25,,26,26,30,30,12,12,1.0,0.8
2025-03-10T0900,2337A,117.0258,25.0661,龙岩市,闽西职业技术学院,颗粒物(PM10),60,70,54,38,33,24,,59,53,36,26,23,20,0.7,0.6
2025-03-10T0900,2338A,117.0196,25.0306,龙岩市,龙岩学院,细颗粒物(PM2.5),52,38,42,36,32,42,,40,40,16,16,14,9,0.7,0.8
2025-03-10T0900,2665A,105.0822,33.3261,陇南市,汉王镇固水子,,,,,,,,,,,,,,,,
2025-03-10T0900,2885A,104.9339,33.3826,陇南市,滨江中学,,47,47,46,22,23,35,,48,46,24,9,9,6,0.9,0.6
2025-03-10T0900,3247A,104.955,33.371,陇南市,市总工会,,41,41,36,16,16,36,,52,50,19,5,8,8,0.5,0.4
2025-03-10T0900,2487A,111.9589,27.8901,娄底市,电视发射台,细颗粒物(PM2.5),59,44,42,42,36,35,,30,30,11,11,8,6,0.8,0.7
2025-03-10T0900,2488A,111.9975,27.725,娄底市,市监测站,细颗粒物(PM2.5),58,50,59,41,46,22,,32,32,28,24,6,7,0.9,0.8
2025-03-10T0900,2489A,112.0194,27.7314,娄底市,市委党校,细颗粒物(PM2.5),59,49,55,42,40,36,,35,35,18,17,3,4,0.8,0.8
2025-03-10T0900,2490A,111.9561,27.7569,娄底市,涟钢,细颗粒物(PM2.5),53,50,62,37,42,27,,30,28,22,17,8,8,1.0,1.2
2025-03-10T0900,2491A,111.9892,27.7044,娄底市,市政府,细颗粒物(PM2.5),55,,49,39,34,28,,32,31,8,10,6,7,0.6,0.6
2025-03-10T0900,1893A,105.4324,28.9634,泸州市,九狮山,,,,,,,,,,,,,,,,
2025-03-10T0900,1894A,105.4427,28.9063,泸州市,小市上码头,细颗粒物(PM2.5),102,136,121,76,66,14,,25,23,31,31,8,9,0.7,0.6
2025-03-10T0900,1895A,105.4241,28.8573,泸州市,兰田宪桥,细颗粒物(PM2.5),105,116,105,79,70,14,,9,9,28,35,9,6,0.7,0.7
2025-03-10T0900,1896A,105.4379,28.8833,泸州市,市环监站,细颗粒物(PM2.5),99,103,89,74,61,9,,14,13,35,40,11,8,0.5,0.5
2025-03-10T0900,4272A,105.3689,28.7783,泸州市,纳溪中医医院,细颗粒物(PM2.5),94,72,83,70,70,3,,4,4,26,31,6,6,0.8,0.6
2025-03-10T0900,2183A,111.1406,37.5211,吕梁市,环保局,颗粒物(PM10),97,144,103,49,45,11,,13,12,45,41,10,9,0.7,0.5
2025-03-10T0900,2185A,111.1297,37.5136,吕梁市,自来水公司,颗粒物(PM10),98,146,110,62,48,15,,10,8,37,37,8,7,0.8,0.7
2025-03-10T0900,2867A,111.1283,37.51,吕梁市,马茂庄小学,颗粒物(PM10),101,152,116,56,46,15,,6,6,41,44,9,10,0.8,0.7
2025-03-10T0900,1812A,112.3931,34.6516,洛阳市,市委党校,细颗粒物(PM2.5),119,129,105,90,78,22,,16,13,42,37,9,4,1.3,1
2025-03-10T0900,1815A,112.494,34.6886,洛阳市,河南林校,细颗粒物(PM2.5),145,128,100,111,99,16,,33,29,45,33,5,5,1.2,0.8
2025-03-10T0900,1816A,112.3844,34.623,洛阳市,开发区管委会,细颗粒物(PM2.5),125,130,119,95,89,36,,60,53,28,21,,8,1.0,0.8
2025-03-10T0900,1817A,112.4267,34.6258,洛阳市,市委新办公区,细颗粒物(PM2.5),119,132,120,90,76,38,,56,53,33,31,4,5,0.8,0.7
2025-03-10T0900,3340A,112.6005,34.6326,洛阳市,伊滨,细颗粒物(PM2.5),130,132,122,99,99,16,,31,27,46,35,5,5,1.1,0.9
2025-03-10T0900,3341A,112.4951,34.6332,洛阳市,中移产业园,细颗粒物(PM2.5),145,134,106,111,104,25,,34,31,47,39,8,6,1.3,1
2025-03-10T0900,3593A,112.5736,34.8993,洛阳市,吉利监测站,细颗粒物(PM2.5),172,135,116,130,108,48,,40,39,33,31,5,6,1.2,0.8
2025-03-10T0900,3635A,112.3677,34.662,洛阳市,河科大西苑校区,细颗粒物(PM2.5),120,122,107,91,81,25,,22,20,37,34,19,10,0.9,0.7
2025-03-10T0900,3636A,112.4388,34.6781,洛阳市,英才小学,细颗粒物(PM2.5),107,138,122,80,73,21,,31,30,43,40,9,8,0.9,0.6
2025-03-10T0900,4214A,112.4600,34.6949,洛阳市,春都路1号院,细颗粒物(PM2.5),120,128,106,91,77,25,,38,36,48,39,7,7,1.0,0.7
2025-03-10T0900,2399A,114.051,33.5699,漯河市,三五一五工厂,细颗粒物(PM2.5),170,147,115,129,102,34,,52,46,36,21,5,5,0.8,0.7
2025-03-10T0900,2400A,114.0055,33.5698,漯河市,漯河大学,细颗粒物(PM2.5),134,143,119,102,87,39,,52,46,39,25,18,12,0.8,0.7
2025-03-10T0900,2401A,114.0138,33.5828,漯河市,市水利局,细颗粒物(PM2.5),140,129,111,107,89,39,,52,46,33,21,10,6,0.7,0.6
2025-03-10T0900,2402A,114.0261,33.5698,漯河市,市广电局,细颗粒物(PM2.5),144,132,107,110,87,35,,49,43,33,23,7,5,0.8,0.7
2025-03-10T0900,3478A,113.9749,33.5664,漯河市,市图书馆,细颗粒物(PM2.5),162,155,123,123,93,35,,46,41,40,27,31,8,1.0,0.8
2025-03-10T0900,4250A,114.0892,33.5882,漯河市,韶山路11号,细颗粒物(PM2.5),166,166,129,126,95,35,,51,46,38,28,7,5,0.8,0.7
2025-03-10T0900,1798A,118.5092,31.6837,马鞍山市,湖东路四小,细颗粒物(PM2.5),80,74,57,59,40,53,,67,63,27,22,10,7,0.6,0.5
2025-03-10T0900,1799A,118.5024,31.6449,马鞍山市,开发区,细颗粒物(PM2.5),80,82,65,59,47,60,,58,56,23,25,7,7,0.5,0.5
2025-03-10T0900,1802A,118.6245,31.7241,马鞍山市,濮塘,细颗粒物(PM2.5),85,,53,63,44,66,,72,70,12,12,11,10,0.6,0.6
2025-03-10T0900,3633A,118.4918,31.6809,马鞍山市,雨山,细颗粒物(PM2.5),75,84,65,55,39,52,,66,63,32,29,10,9,0.6,0.5
2025-03-10T0900,4191A,118.5274,31.72227,马鞍山市,慈湖高新区,细颗粒物(PM2.5),80,73,57,59,45,56,,66,64,26,24,8,6,0.5,0.4
2025-03-10T0900,1686A,111.0286,21.4688,茂名市,电白南海,细颗粒物(PM2.5),64,66,50,46,29,82,,63,63,16,14,4,3,0.9,0.7
2025-03-10T0900,1687A,110.9294,21.6533,茂名市,茂石化七小,颗粒物(PM10),57,63,51,39,28,57,,65,62,24,15,12,7,0.6,0.4
2025-03-10T0900,1688A,110.9107,21.6687,茂名市,健康路,颗粒物(PM10),56,61,49,31,28,59,,66,63,26,17,20,10,0.8,0.5
2025-03-10T0900,1689A,110.8592,21.6828,茂名市,高岭,颗粒物(PM10),70,90,66,41,30,43,,44,43,38,20,14,11,0.7,0.5
2025-03-10T0900,3450A,111.01,21.5165,茂名市,电白水东,颗粒物(PM10),54,58,39,29,20,65,,65,63,21,12,8,5,0.9,0.7
2025-03-10T0900,2539A,104.0308,30.0478,眉山市,黑龙滩水库,细颗粒物(PM2.5),54,45,43,38,37,29,,36,36,5,3,3,3,0.6,0.6
2025-03-10T0900,2540A,103.8416,30.0874,眉山市,气象局,细颗粒物(PM2.5),79,73,67,58,52,6,,5,5,26,26,6,6,0.9,0.7
2025-03-10T0900,3137A,103.8578,30.0744,眉山市,市委党校,细颗粒物(PM2.5),70,61,53,51,46,6,,4,4,37,33,7,7,1.0,0.7
2025-03-10T0900,3148A,103.8291,30.0564,眉山市,区人社局,细颗粒物(PM2.5),67,,49,48,46,4,,4,3,41,39,7,4,1.1,0.7
2025-03-10T0900,1690A,116.1231,24.3284,梅州市,梅江月梅,细颗粒物(PM2.5),62,,44,44,35,31,,32,32,28,20,21,12,0.7,0.7
2025-03-10T0900,1691A,116.0797,24.2719,梅州市,梅县新城,细颗粒物(PM2.5),59,50,46,42,33,12,,18,16,41,33,7,7,0.9,0.6
2025-03-10T0900,1692A,116.1248,24.2654,梅州市,环境监控中心,细颗粒物(PM2.5),60,64,45,43,32,42,,37,37,38,28,15,9,0.8,0.7
2025-03-10T0900,3315A,116.1233,24.2991,梅州市,梅龙,颗粒物(PM10),54,58,49,34,34,54,,36,36,23,27,18,8,0.8,0.9
2025-03-10T0900,1878A,104.7778,31.4741,绵阳市,富乐山,细颗粒物(PM2.5),53,40,25,37,22,22,,28,26,13,12,2,2,0.7,0.6
2025-03-10T0900,1880A,104.6697,31.4668,绵阳市,高新区自来水公司,细颗粒物(PM2.5),64,60,34,46,24,6,,26,24,40,23,6,4,1.1,0.8
2025-03-10T0900,1881A,104.7287,31.5075,绵阳市,三水厂,细颗粒物(PM2.5),55,58,31,39,23,3,,29,25,33,17,10,6,0.9,0.6
2025-03-10T0900,3491A,104.69,31.5322,绵阳市,西科大附属小学,,44,44,27,27,18,8,,10,10,33,29,7,6,0.7,0.6
2025-03-10T0900,3492A,104.5648,31.5343,绵阳市,安州区旅游局,,49,43,28,34,22,10,,18,15,29,23,6,6,0.6,0.4
2025-03-10T0900,4226A,104.7651,31.4531,绵阳市,绵阳市气象局,细颗粒物(PM2.5),64,68,31,46,23,13,,28,25,27,16,8,6,0.6,0.5
2025-03-10T0900,1784A,129.61,44.561,牡丹江市,环保大楼,颗粒物(PM10),53,55,76,29,51,103,,70,70,13,27,6,7,0.3,0.5
2025-03-10T0900,1785A,129.6115,44.5782,牡丹江市,文化广场,颗粒物(PM10),53,55,81,26,55,102,,65,65,18,41,10,13,0.5,1
2025-03-10T0900,1786A,129.5904,44.5963,牡丹江市,第一医院,颗粒物(PM10),70,89,75,34,52,101,,58,58,15,29,9,12,0.4,0.6
2025-03-10T0900,1787A,129.6364,44.6075,牡丹江市,机车工厂,,43,43,104,20,61,99,,30,30,13,34,8,31,0.4,0.7
2025-03-10T0900,1788A,129.6386,44.5462,牡丹江市,第一中学,,50,50,61,22,40,113,,69,69,11,31,7,8,0.4,0.5
2025-03-10T0900,2531A,105.0703,29.61,内江市,市监测站,细颗粒物(PM2.5),80,73,48,59,51,13,,18,15,33,23,8,5,1.0,0.9
2025-03-10T0900,2532A,105.0717,29.5947,内江市,东兴区政府,细颗粒物(PM2.5),69,55,52,50,43,10,,34,30,33,20,5,4,1.0,0.8
2025-03-10T0900,2533A,105.0653,29.5817,内江市,内江二中,细颗粒物(PM2.5),82,78,60,60,48,20,,31,28,29,23,4,4,0.8,0.8
2025-03-10T0900,2534A,105.0406,29.5822,内江市,内江日报社,细颗粒物(PM2.5),85,84,60,63,49,15,,14,11,39,33,8,7,0.9,0.6
2025-03-10T0900,2628A,92.0657,31.4846,那曲市,那曲监测站,细颗粒物(PM2.5),77,72,43,56,35,26,,29,29,34,21,18,10,1.6,1.5
2025-03-10T0900,3128A,92.0506,31.4797,那曲市,那曲会议中心,细颗粒物(PM2.5),83,97,33,61,20,15,,28,25,40,13,19,7,1.8,1
2025-03-10T0900,1290A,115.8931,28.6843,南昌市,省外办,细颗粒物(PM2.5),85,65,68,63,59,24,,34,31,34,38,4,4,0.7,0.7
2025-03-10T0900,1291A,115.8886,28.7003,南昌市,省林业公司,细颗粒物(PM2.5),79,,56,58,50,19,,32,30,35,30,6,7,0.4,0.5
2025-03-10T0900,1292A,115.8126,28.7442,南昌市,林科所,细颗粒物(PM2.5),62,53,60,44,45,16,,29,28,44,42,4,4,0.6,0.6
2025-03-10T0900,1294A,115.8518,28.687,南昌市,建工学校,细颗粒物(PM2.5),94,77,74,70,62,27,,36,34,35,31,9,9,0.7,0.6
2025-03-10T0900,1295A,115.8921,28.6424,南昌市,象湖,细颗粒物(PM2.5),77,,60,56,53,16,,27,24,36,32,6,7,0.7,0.6
2025-03-10T0900,1296A,115.7423,28.7996,南昌市,武术学校,,35,35,40,24,32,30,,26,26,11,14,1,2,0.5,0.5
2025-03-10T0900,3046A,115.9084,28.6062,南昌市,机电学校,细颗粒物(PM2.5),85,72,80,63,58,14,,22,21,35,37,23,17,0.7,0.7
2025-03-10T0900,3690A,115.9721,28.7031,南昌市,外国语学校,细颗粒物(PM2.5),74,75,64,54,46,21,,40,37,26,22,3,4,0.6,0.5
2025-03-10T0900,4192A,115.9316,28.68677,南昌市,南京东路235号,细颗粒物(PM2.5),84,70,74,62,53,19,,39,35,46,34,3,4,0.7,0.7
2025-03-10T0900,1905A,106.056,30.8064,南充市,西山风景区,细颗粒物(PM2.5),74,55,48,54,45,4,,15,13,24,20,2,2,0.7,0.6
2025-03-10T0900,1906A,106.0789,30.8023,南充市,南充市委,细颗粒物(PM2.5),72,70,58,52,45,6,,3,3,32,31,4,4,0.9,0.7
2025-03-10T0900,1907A,106.1031,30.8217,南充市,南充炼油厂,细颗粒物(PM2.5),73,76,67,53,51,4,,16,14,26,26,5,4,0.5,0.5
2025-03-10T0900,1909A,106.0642,30.7636,南充市,嘉陵区环保局,细颗粒物(PM2.5),70,70,68,51,44,9,,4,4,29,32,3,3,0.8,0.7
2025-03-10T0900,1910A,106.1087,30.8388,南充市,市环境监测站,,,,63,,50,,,47,,,22,,6,,0.6
2025-03-10T0900,4227A,106.1083,30.7884,南充市,梨树横街98号,细颗粒物(PM2.5),67,64,66,48,51,9,,14,12,28,28,6,5,0.5,0.5
2025-03-10T0900,1151A,118.8086,32.1065,南京市,迈皋桥,,50,50,44,34,30,62,,76,72,22,18,4,4,0.3,0.2
2025-03-10T0900,1152A,118.7538,32.0551,南京市,草场门,,49,46,45,34,32,49,,58,55,19,19,5,5,0.6,0.7
2025-03-10T0900,1153A,118.7794,32.0745,南京市,山西路,颗粒物(PM10),51,51,46,34,32,59,,70,67,10,9,4,4,0.5,0.5
2025-03-10T0900,1154A,118.7752,32.0023,南京市,中华门,颗粒物(PM10),51,51,46,34,28,61,,68,65,26,25,4,4,0.4,0.4
2025-03-10T0900,1155A,118.8109,32.0309,南京市,瑞金路,,,,46,31,30,62,,73,70,13,15,6,6,0.5,0.6
2025-03-10T0900,1156A,118.7997,32.0754,南京市,玄武湖,细颗粒物(PM2.5),53,45,50,37,29,61,,70,68,17,13,4,4,0.4,0.4
2025-03-10T0900,1157A,118.6414,32.0931,南京市,浦口,颗粒物(PM10),53,55,59,35,33,63,,74,71,22,22,6,6,0.4,0.4
2025-03-10T0900,1158A,118.7356,31.9996,南京市,奥体中心,颗粒物(PM10),55,60,54,34,33,63,,73,70,25,24,8,7,0.3,0.3
2025-03-10T0900,1159A,118.9125,32.1028,南京市,仙林大学城,细颗粒物(PM2.5),62,56,46,44,32,48,,67,63,20,16,8,8,0.6,0.6
2025-03-10T0900,3422A,118.8436,31.9198,南京市,江宁彩虹桥,,,,59,,29,,,93,,,14,,5,,0.4
2025-03-10T0900,3423A,119.0138,31.6494,南京市,溧水永阳,,44,44,41,17,34,56,,68,65,19,18,6,5,0.4,0.4
2025-03-10T0900,3427A,118.8554,32.3578,南京市,六合雄州,,,,57,,29,,,86,,,21,,6,,0.7
2025-03-10T0900,4249A,118.8708,31.3402,南京市,汶溪路181号,,32,32,52,16,37,53,,64,61,13,14,5,5,0.3,0.2
2025-03-10T0900,1401A,108.3103,22.7881,南宁市,二十一中,,44,44,30,30,26,7,,13,12,31,29,4,4,1.0,0.9
2025-03-10T0900,1402A,108.3141,22.8528,南宁市,北湖,颗粒物(PM10),55,59,32,35,23,5,,7,7,34,31,15,8,1.0,0.8
2025-03-10T0900,1403A,108.3206,22.8225,南宁市,市监测站,,45,42,29,31,24,4,,12,10,33,30,9,6,1.2,1.1
2025-03-10T0900,1404A,108.3829,22.8037,南宁市,大自然花园,,40,38,30,28,25,11,,19,17,23,19,6,5,1.0,0.9
2025-03-10T0900,1405A,108.4394,22.7904,南宁市,仙葫,,40,28,24,28,23,9,,12,10,22,20,4,3,0.7,0.7
2025-03-10T0900,1406A,108.2397,22.8467,南宁市,区农职院,颗粒物(PM10),55,60,35,35,25,3,,5,5,25,28,15,9,1.0,0.8
2025-03-10T0900,1407A,108.3275,22.735,南宁市,英华嘉园,,33,30,25,23,22,9,,15,14,22,21,6,6,0.8,0.8
2025-03-10T0900,3401A,108.4834,22.7618,南宁市,红星社区,,46,42,26,32,23,9,,16,14,16,14,8,7,0.9,0.9
2025-03-10T0900,4221A,108.2177,22.7774,南宁市,乐贤路16号,颗粒物(PM10),55,60,34,34,25,7,,7,7,24,35,10,8,1.0,0.9
2025-03-10T0900,2331A,118.0966,26.6761,南平市,茫荡山,,,,,,,,,,,,,,,,
2025-03-10T0900,2332A,118.1681,26.6369,南平市,南平市监测站,,35,30,32,24,25,53,,40,40,23,24,6,6,0.9,0.9
2025-03-10T0900,2333A,118.1825,26.6489,南平市,南平铝业有限公司,,30,30,32,19,19,55,,29,29,19,27,6,8,0.9,0.8
2025-03-10T0900,2334A,118.1756,26.6272,南平市,南平七中,,33,33,31,22,20,42,,48,48,26,18,4,4,0.8,0.6
2025-03-10T0900,1168A,120.9098,31.9663,南通市,狼山街道,,36,36,35,19,20,72,,75,74,22,14,6,6,0.4,0.4
2025-03-10T0900,1169A,120.86,32.0005,南通市,虹桥,,47,47,39,24,24,43,,70,66,48,22,5,5,0.1,0
2025-03-10T0900,1170A,120.87,32.02,南通市,城中,颗粒物(PM10),53,55,40,24,21,58,,69,67,30,16,5,5,0.5,0.4
2025-03-10T0900,1171A,120.94,31.93,南通市,星湖花园,,36,36,30,18,19,61,,73,71,30,18,5,5,0.4,0.3
2025-03-10T0900,1172A,120.81,32.0417,南通市,紫琅学院,,39,39,32,13,18,59,,72,69,27,16,3,3,0.5,0.5
2025-03-10T0900,3291A,121.067,32.062,南通市,通州监测站,,39,39,36,19,22,75,,81,80,17,12,3,3,0.5,0.5
2025-03-10T0900,3432A,120.9348,31.9883,南通市,环境教育馆,,40,39,34,28,22,62,,65,63,24,13,4,4,0.2,0.1
2025-03-10T0900,2404A,112.5224,33.0122,南阳市,瓦房庄,细颗粒物(PM2.5),107,104,86,80,64,49,,47,46,24,20,7,5,0.8,0.7
2025-03-10T0900,2405A,112.5003,32.9735,南阳市,汉画馆,细颗粒物(PM2.5),107,94,81,80,64,43,,37,37,29,27,5,4,0.7,0.6
2025-03-10T0900,2406A,112.5573,33.027,南阳市,气象站,细颗粒物(PM2.5),113,112,91,85,62,45,,53,50,29,19,10,6,0.7,0.6
2025-03-10T0900,2407A,112.5481,32.9689,南阳市,理工学院,细颗粒物(PM2.5),110,112,89,83,67,39,,38,35,30,24,7,4,0.8,0.7
2025-03-10T0900,4008A,112.5234,32.9922,南阳市,卧龙区政府,细颗粒物(PM2.5),112,107,87,84,68,43,,48,48,28,22,8,7,0.8,0.7
2025-03-10T0900,1234A,121.8358,29.911,宁波市,区环保大楼,,35,28,32,12,14,22,,51,46,69,37,7,7,0.6,0.4
2025-03-10T0900,1235A,121.56,29.82,宁波市,万里学院,,22,22,28,15,17,64,,66,66,25,20,6,6,0.5,0.4
2025-03-10T0900,1236A,121.713,29.9572,宁波市,龙赛医院,,,36,36,,23,9,,47,41,,32,,8,0.8,0.6
2025-03-10T0900,1239A,121.633,29.7733,宁波市,钱湖水厂,,22,20,22,15,14,64,,64,64,23,17,6,6,0.7,0.6
2025-03-10T0900,1240A,121.5856,29.8635,宁波市,太古小学,,22,22,31,12,17,64,,68,66,28,21,8,8,0.7,0.6
2025-03-10T0900,1241A,121.524,29.8674,宁波市,市环境监测中心,,,,19,13,20,60,,66,64,38,29,7,7,0.6,0.4
2025-03-10T0900,2871A,121.6147,29.9017,宁波市,万里国际学校,,23,18,28,16,15,54,,71,67,30,21,6,7,0.6,0.4
2025-03-10T0900,3710A,121.5594,29.8975,宁波市,白沙活动中心,,33,33,43,14,19,71,,70,68,16,15,5,6,0.4,0.5
2025-03-10T0900,2339A,119.5001,26.6946,宁德市,金涵水库,,,,,,,,,,,,,,,,
2025-03-10T0900,2341A,119.5388,26.6612,宁德市,宁德市监测站,,26,25,32,18,22,54,,64,61,15,13,4,5,0.6,0.5
2025-03-10T0900,3209A,119.5231,26.6562,宁德市,宁德一中,,28,28,30,16,21,53,,62,60,18,12,4,5,0.5,0.4
2025-03-10T0900,2618A,98.8601,25.8567,怒江傈僳族自治州,州监测站,,,40,43,26,30,63,,74,72,6,6,5,5,,0.6
2025-03-10T0900,2619A,98.8546,25.8417,怒江傈僳族自治州,泸水一中,颗粒物(PM10),58,65,44,39,32,22,,58,53,26,14,6,6,0.6,0.5
2025-03-10T0900,1888A,101.6891,26.571,攀枝花市,弄弄坪,颗粒物(PM10),74,97,84,52,47,34,,50,47,50,39,53,50,3.0,2.4
2025-03-10T0900,1889A,101.5769,26.5928,攀枝花市,河门口,细颗粒物(PM2.5),70,76,61,51,46,31,,43,41,36,22,14,11,0.9,0.8
2025-03-10T0900,1890A,101.7169,26.585,攀枝花市,炳草岗,颗粒物(PM10),72,93,68,43,38,13,,12,12,63,47,15,13,2.4,1.6
2025-03-10T0900,1891A,101.7369,26.5008,攀枝花市,仁和,颗粒物(PM10),56,61,55,37,36,35,,55,51,39,21,8,8,0.8,0.7
2025-03-10T0900,2835A,101.7227,26.567,攀枝花市,四十中小,颗粒物(PM10),71,91,78,49,44,7,,31,27,77,46,24,25,3.2,2.1
2025-03-10T0900,1604A,122.0303,41.1489,盘锦市,开发区,细颗粒物(PM2.5),99,77,80,74,86,117,,119,117,16,16,12,13,0.7,0.7
2025-03-10T0900,1605A,122.0485,41.0883,盘锦市,兴隆台,细颗粒物(PM2.5),92,,80,68,84,112,,113,111,17,19,7,7,0.7,0.8
2025-03-10T0900,1606A,121.8297,41.1028,盘锦市,新生街道,细颗粒物(PM2.5),102,,70,76,92,107,,106,104,19,19,10,10,0.8,0.9
2025-03-10T0900,1832A,113.3257,33.742,平顶山市,新华旅馆,细颗粒物(PM2.5),103,105,108,77,72,52,,53,53,32,32,5,5,0.5,0.5
2025-03-10T0900,1833A,113.2919,33.737,平顶山市,规划设计院,细颗粒物(PM2.5),98,104,110,73,77,59,,68,68,29,24,3,5,0.6,0.6
2025-03-10T0900,1834A,113.182,33.774,平顶山市,平顶山工学院,细颗粒物(PM2.5),85,77,99,63,70,70,,71,71,12,13,6,6,0.7,0.7
2025-03-10T0900,3204A,113.3025,33.73,平顶山市,规划局,细颗粒物(PM2.5),113,102,99,85,85,52,,63,63,32,26,4,6,0.9,0.9
2025-03-10T0900,3594A,112.8867,33.9116,平顶山市,石龙区,细颗粒物(PM2.5),99,106,108,74,69,41,,52,49,38,26,6,6,0.6,0.6
2025-03-10T0900,2656A,106.6692,35.5461,平凉市,聚贤嘉苑,颗粒物(PM10),68,85,75,41,34,27,,62,54,42,24,18,13,0.5,0.3
2025-03-10T0900,2657A,106.7021,35.5307,平凉市,博物馆,颗粒物(PM10),72,93,82,51,38,33,,51,48,39,29,16,13,1.1,0.9
2025-03-10T0900,2347A,114.0997,27.5002,萍乡市,武功山,,8,,15,3,19,24,,28,27,8,9,6,6,0.8,0.8
2025-03-10T0900,2348A,113.8385,27.6434,萍乡市,中医院,,35,28,51,24,38,18,,44,39,37,21,8,7,1.2,0.9
2025-03-10T0900,2349A,113.8493,27.6253,萍乡市,市政府车库,,26,19,42,18,32,21,,44,40,31,20,4,5,1.0,0.7
2025-03-10T0900,2350A,113.8676,27.6435,萍乡市,市环保局,,46,,45,32,35,16,,42,38,42,23,3,5,1.0,0.6
2025-03-10T0900,2351A,113.866,27.6198,萍乡市,安源区政府,,28,,45,19,38,20,,40,37,24,19,4,4,1.1,0.9
2025-03-10T0900,2319A,119.0141,25.4325,莆田市,荔城区仓后路,颗粒物(PM10),52,54,39,30,20,40,,53,49,29,19,4,3,0.8,0.6
2025-03-10T0900,2320A,119.0015,25.4553,莆田市,莆田市监测站,,29,20,31,20,16,75,,84,81,11,10,3,3,0.6,0.5
2025-03-10T0900,2321A,119.1119,25.4561,莆田市,涵江区六中,,22,19,32,15,17,55,,69,66,27,17,3,3,0.4,0.3
2025-03-10T0900,2322A,119.1013,25.3215,莆田市,秀屿区政府,,44,44,33,27,21,57,,62,58,24,18,5,5,0.6,0.5
2025-03-10T0900,2323A,118.981,25.4792,莆田市,东圳水库,,,,,,,,,,,,,,,,
2025-03-10T0900,2392A,115.0312,35.7636,濮阳市,环保局,细颗粒物(PM2.5),94,,74,70,71,66,,84,78,18,13,5,5,0.7,0.7
2025-03-10T0900,2394A,115.0574,35.7609,濮阳市,油田运输公司,细颗粒物(PM2.5),97,100,100,72,69,72,,86,81,20,17,5,5,0.9,0.9
2025-03-10T0900,3021A,115,35.7668,濮阳市,濮水河管理处,细颗粒物(PM2.5),97,110,101,72,62,78,,92,87,20,18,8,6,0.9,0.8
2025-03-10T0900,4216A,115.0924,35.7686,濮阳市,任丘路479号,细颗粒物(PM2.5),92,105,100,68,69,71,,85,81,30,29,5,6,0.7,0.6
2025-03-10T0900,2601A,100.98,22.7633,普洱市,市环保局,,41,41,49,10,21,21,,58,51,17,8,4,4,0.8,0.7
2025-03-10T0900,2602A,100.9817,22.8322,普洱市,普洱第二中学,,46,46,45,25,24,16,,31,30,22,14,6,6,0.8,0.5
2025-03-10T0900,2262A,131.0518,45.8751,七台河市,新一中,细颗粒物(PM2.5),52,,41,36,30,113,,82,82,13,13,14,12,0.8,0.8
2025-03-10T0900,3345A,131.0577,45.7879,七台河市,中波台,颗粒物(PM10),54,58,48,28,33,99,,89,89,16,17,7,8,0.4,0.5
2025-03-10T0900,3637A,131.0176,45.7761,七台河市,人民广场,颗粒物(PM10),62,73,58,34,38,95,,91,91,16,20,9,10,0.7,0.7
2025-03-10T0900,3684A,130.8781,45.8222,七台河市,新建矿广场,颗粒物(PM10),62,73,59,25,35,92,,79,79,16,23,5,6,0.5,0.5
2025-03-10T0900,1779A,123.9305,47.3636,齐齐哈尔市,安居小区,细颗粒物(PM2.5),156,164,188,119,91,81,,104,100,23,21,14,13,0.7,0.7
2025-03-10T0900,1780A,123.9488,47.3386,齐齐哈尔市,中心广场,颗粒物(PM10),124,198,209,68,81,82,,102,98,20,21,8,8,0.8,0.8
2025-03-10T0900,1781A,123.9483,47.3227,齐齐哈尔市,农牧车辆厂,颗粒物(PM10),103,156,170,58,60,86,,107,104,22,18,7,7,0.4,0.5
2025-03-10T0900,1783A,123.945,47.2988,齐齐哈尔市,市环境监测站,颗粒物(PM10),126,201,191,64,72,86,,103,100,16,16,5,6,0.7,0.7
2025-03-10T0900,3662A,123.6333,47.2075,齐齐哈尔市,富区青少年活动中心,颗粒物(PM10),138,225,213,49,59,70,,94,90,23,13,22,9,1.4,0.7
2025-03-10T0900,2591A,107.9783,26.5747,黔东南苗族侗族自治州,市环境监测站,,29,28,23,20,17,14,,28,26,22,13,3,3,0.8,0.6
2025-03-10T0900,2881A,107.8908,26.5311,黔东南苗族侗族自治州,凯里学院,,20,,14,14,16,19,,27,26,16,9,2,2,0.8,0.8
2025-03-10T0900,2593A,107.5228,26.2403,黔南布依族苗族自治州,小围寨,,9,6,7,3,7,27,,18,18,5,11,5,5,0.4,0.4
2025-03-10T0900,3538A,107.5175,26.2978,黔南布依族苗族自治州,沙坝,,8,7,11,3,9,16,,13,13,13,14,4,4,0.5,0.5
2025-03-10T0900,2589A,104.9022,25.0925,黔西南布依族苗族自治州,场坝街,,15,15,45,3,32,26,,31,31,9,9,2,3,0.5,0.4
2025-03-10T0900,2590A,104.8811,25.0992,黔西南布依族苗族自治州,坪东大道,,15,15,37,3,31,20,,27,26,13,12,2,2,0.4,0.4
2025-03-10T0900,2502A,108.6236,21.9667,钦州市,市环保站,颗粒物(PM10),63,75,45,34,26,9,,9,8,21,22,8,8,1.3,1.4
2025-03-10T0900,2503A,108.6549,21.9481,钦州市,沙埠小学,细颗粒物(PM2.5),53,50,37,37,29,10,,15,14,21,21,6,5,1.0,1
2025-03-10T0900,2504A,108.5989,21.7431,钦州市,港区一小,颗粒物(PM10),58,66,43,36,26,8,,10,8,31,30,10,8,1.1,1
2025-03-10T0900,3404A,108.5959,21.9633,钦州市,北职校,细颗粒物(PM2.5),70,52,32,51,32,8,,12,12,27,20,10,7,2.1,1.1
2025-03-10T0900,1043A,119.7493,40.0116,秦皇岛市,第一关,细颗粒物(PM2.5),147,113,139,112,129,96,,96,93,21,34,4,5,0.6,0.7
2025-03-10T0900,1044A,119.5897,39.9499,秦皇岛市,监测站,细颗粒物(PM2.5),100,112,145,75,115,84,,100,94,34,37,3,4,0.7,0.8
2025-03-10T0900,1046A,119.5251,39.9041,秦皇岛市,建设大厦,细颗粒物(PM2.5),113,113,135,85,110,74,,92,87,38,42,6,5,0.8,0.9
