timepoint,stationcode,longitude,latitude,area,positionname,primarypollutant,aqi,pm10,pm10_24h,pm2_5,pm2_5_24h,o3,o3_24h,o3_8h,o3_8h_24h,no2,no2_24h,so2,so2_24h,co,co_24h
2023-03-03T20:00:00,1001A,116.3621,39.8784,北京市,万寿西宫,颗粒物(PM10),76,101,91,50,43,73,62,67,67,34,51,3,3,0.4,0.5
2023-03-03T20:00:00,1002A,116.2202,40.2915,北京市,定陵,,35,35,55,15,22,102,69,94,92,7,10,1,2,0.2,0.3
2023-03-03T20:00:00,1003A,116.4174,39.9289,北京市,东四,颗粒物(PM10),74,98,94,43,38,83,78,78,78,32,52,3,4,0.4,0.5
2023-03-03T20:00:00,1004A,116.4072,39.8863,北京市,天坛,颗粒物(PM10),71,92,80,48,40,78,63,70,70,37,47,2,2,0.3,0.5
2023-03-03T20:00:00,1005A,116.462,39.9365,北京市,农展馆,颗粒物(PM10),77,103,96,46,38,75,65,69,69,43,55,2,3,0.4,0.5
2023-03-03T20:00:00,1006A,116.3392,39.9295,北京市,官园,颗粒物(PM10),75,99,91,51,39,91,72,81,81,43,60,4,5,0.3,0.6
2023-03-03T20:00:00,1007A,116.2878,39.9611,北京市,海淀万柳,颗粒物(PM10),77,103,101,47,41,65,35,50,50,59,61,1,2,0.5,0.6
2023-03-03T20:00:00,1008A,116.6636,40.135,北京市,顺义新城,颗粒物(PM10),60,70,81,31,32,100,28,86,81,79,43,1,2,0.4,0.4
2023-03-03T20:00:00,1009A,116.6275,40.3275,北京市,怀柔镇,颗粒物(PM10),67,84,76,32,27,85,24,72,64,66,26,2,2,0.8,0.4
2023-03-03T20:00:00,1010A,116.2296,40.217,北京市,昌平镇,颗粒物(PM10),65,80,68,31,28,103,22,92,84,72,29,1,2,0.9,0.4
2023-03-03T20:00:00,1011A,116.3966,39.9821,北京市,奥体中心,颗粒物(PM10),74,98,87,47,39,84,60,67,67,39,49,3,4,0.4,0.5
2023-03-03T20:00:00,1012A,116.184,39.9136,北京市,古城,颗粒物(PM10),75,99,94,40,38,97,64,76,76,37,48,1,2,0.5,0.7
2023-03-03T20:00:00,1015A,117.1444,39.1661,天津市,勤俭道,颗粒物(PM10),76,101,153,55,84,100,7,74,70,107,45,6,9,0.9,0.7
2023-03-03T20:00:00,1017A,117.237,39.1082,天津市,大直沽八号路,颗粒物(PM10),77,104,162,52,90,91,26,74,72,79,47,6,9,0.9,0.8
2023-03-03T20:00:00,1018A,117.202,39.0927,天津市,前进道,颗粒物(PM10),71,92,156,49,88,94,23,77,73,88,49,4,7,0.8,0.7
2023-03-03T20:00:00,1019A,117.1837,39.2133,天津市,淮河道,颗粒物(PM10),92,133,185,57,83,98,28,78,75,92,49,7,9,0.7,0.7
2023-03-03T20:00:00,1021A,117.307,39.0877,天津市,跃进路,颗粒物(PM10),86,121,160,59,90,95,13,68,63,90,48,12,11,0.6,0.7
2023-03-03T20:00:00,1023A,117.707,39.0343,天津市,第四大街,颗粒物(PM10),70,90,170,44,90,76,15,64,40,93,59,8,10,0.5,1.1
2023-03-03T20:00:00,1024A,117.457,38.8394,天津市,永明路,"颗粒物(PM10),细颗粒物(PM2.5)",83,115,141,61,83,83,4,71,58,109,51,7,10,0.9,0.7
2023-03-03T20:00:00,1026A,117.764,39.1587,天津市,汉北路,颗粒物(PM10),87,123,159,57,85,74,2,60,40,120,62,12,11,0.8,0.9
2023-03-03T20:00:00,1027A,117.157,38.9194,天津市,团泊洼,颗粒物(PM10),84,117,151,60,85,82,18,68,65,69,46,8,8,0.8,0.9
2023-03-03T20:00:00,1029A,114.4422,38.0444,石家庄市,职工医院,颗粒物(PM10),54,57,92,28,41,114,53,106,100,48,45,5,11,0.3,0.5
2023-03-03T20:00:00,1030A,114.6063,38.0266,石家庄市,高新区,颗粒物(PM10),68,85,88,24,39,107,50,98,95,55,46,5,10,0.3,0.6
2023-03-03T20:00:00,1031A,114.4898,38.1328,石家庄市,西北水源,颗粒物(PM10),54,57,95,33,44,108,56,101,97,48,47,3,7,0.4,0.6
2023-03-03T20:00:00,1032A,114.4586,38.0058,石家庄市,西南高教,颗粒物(PM10),70,90,106,23,40,110,30,101,94,72,51,7,12,0.5,0.7
2023-03-03T20:00:00,1033A,114.5331,38.0178,石家庄市,世纪公园,颗粒物(PM10),58,66,83,25,46,104,46,97,94,61,48,5,9,0.5,0.6
2023-03-03T20:00:00,1034A,114.509,38.0457,石家庄市,人民会堂,颗粒物(PM10),67,84,93,7,36,110,47,100,96,61,48,6,11,0.4,0.6
2023-03-03T20:00:00,1035A,114.3524,37.8911,石家庄市,封龙山,,38,38,65,20,31,101,95,97,97,20,19,8,11,0.3,0.3
2023-03-03T20:00:00,1037A,118.131,39.6363,唐山市,雷达站,细颗粒物(PM2.5),163,204,147,124,81,61,4,46,37,119,83,14,9,1.5,0.8
2023-03-03T20:00:00,1038A,118.1725,39.6334,唐山市,物资局,细颗粒物(PM2.5),155,212,141,118,72,52,4,41,34,125,93,14,9,1.4,1.1
2023-03-03T20:00:00,1040A,118.1705,39.6506,唐山市,十二中,细颗粒物(PM2.5),165,225,149,125,82,60,5,47,38,117,89,14,9,1.3,0.9
2023-03-03T20:00:00,1041A,118.1869,39.622,唐山市,小山,细颗粒物(PM2.5),179,216,155,135,82,58,4,44,36,123,93,15,11,1.4,1.1
2023-03-03T20:00:00,1042A,119.5134,39.8207,秦皇岛市,北戴河环保局,细颗粒物(PM2.5),113,112,103,85,56,61,28,48,43,46,46,3,15,0.8,1.1
2023-03-03T20:00:00,1043A,119.7493,40.0116,秦皇岛市,第一关,细颗粒物(PM2.5),217,213,108,167,59,56,4,50,37,82,55,4,12,1.1,0.8
2023-03-03T20:00:00,1044A,119.5897,39.9499,秦皇岛市,监测站,细颗粒物(PM2.5),173,191,106,131,58,64,10,52,38,88,68,6,16,1.0,0.9
2023-03-03T20:00:00,1046A,119.5251,39.9041,秦皇岛市,建设大厦,颗粒物(PM10),103,156,104,74,43,73,4,54,44,95,62,6,19,1.0,1
2023-03-03T20:00:00,1048A,114.5302,36.6116,邯郸市,东污水处理厂,颗粒物(PM10),65,79,103,45,49,106,34,89,83,79,50,9,16,0.5,0.9
2023-03-03T20:00:00,1049A,114.4918,36.5713,邯郸市,矿院,颗粒物(PM10),73,95,104,41,54,107,53,96,91,46,46,9,13,0.5,0.9
2023-03-03T20:00:00,1050A,114.484,36.6133,邯郸市,丛台公园,颗粒物(PM10),60,70,75,24,39,109,59,98,93,46,33,9,19,0.5,1
2023-03-03T20:00:00,1051A,115.493,38.8632,保定市,游泳馆,颗粒物(PM10),69,87,93,24,51,104,61,86,86,44,45,5,9,0.6,0.7
2023-03-03T20:00:00,1052A,115.5213,38.8959,保定市,华电二区,颗粒物(PM10),66,81,95,37,51,98,60,80,80,37,43,10,10,0.7,0.9
2023-03-03T20:00:00,1053A,115.4713,38.9108,保定市,接待中心,颗粒物(PM10),56,61,93,28,41,92,63,80,80,33,44,7,10,0.3,0.5
2023-03-03T20:00:00,1054A,115.4612,38.8416,保定市,地表水厂,颗粒物(PM10),78,105,134,35,49,84,46,74,73,59,61,9,13,0.3,0.6
2023-03-03T20:00:00,1056A,115.5086,38.8639,保定市,监测站,颗粒物(PM10),75,100,108,42,54,109,51,83,83,57,51,6,10,1.2,0.6
2023-03-03T20:00:00,1057A,114.8883,40.8336,张家口市,人民公园,,39,39,47,17,15,98,75,89,88,17,18,6,7,0.5,0.5
2023-03-03T20:00:00,1059A,114.8687,40.8042,张家口市,五金库,,32,27,39,22,19,90,64,78,78,22,21,4,5,0.2,0.3
2023-03-03T20:00:00,1060A,114.8902,40.762,张家口市,世纪豪园,,48,48,45,23,20,94,67,85,84,25,17,8,6,0.7,0.7
2023-03-03T20:00:00,1061A,114.8916,40.8661,张家口市,北泵房,,38,38,48,26,21,103,71,94,88,16,20,12,12,0.1,0.4
2023-03-03T20:00:00,1062A,117.9531,40.9081,承德市,铁路,颗粒物(PM10),69,88,60,43,30,72,14,56,46,56,40,15,15,0.9,0.7
2023-03-03T20:00:00,1063A,117.9392,40.9763,承德市,中国银行,颗粒物(PM10),60,69,62,28,31,79,12,64,54,56,40,8,10,0.7,0.7
2023-03-03T20:00:00,1064A,117.9503,40.928,承德市,开发区,颗粒物(PM10),61,72,62,28,30,75,19,61,55,49,39,10,14,0.6,0.8
2023-03-03T20:00:00,1065A,117.8051,40.9655,承德市,文化中心,颗粒物(PM10),79,108,85,32,32,81,8,58,54,66,42,16,15,1.0,0.8
2023-03-03T20:00:00,1066A,117.9268,41.0026,承德市,离宫,,44,44,50,25,24,71,33,63,59,33,24,12,12,0.4,0.4
2023-03-03T20:00:00,1067A,116.6708,39.5111,廊坊市,药材公司,细颗粒物(PM2.5),80,104,119,59,52,95,65,75,75,46,54,5,7,0.6,0.8
2023-03-03T20:00:00,1068A,116.7214,39.5589,廊坊市,开发区,细颗粒物(PM2.5),92,125,109,68,46,85,45,69,69,82,66,12,14,0.7,0.7
2023-03-03T20:00:00,1070A,116.7244,39.5269,廊坊市,北华航天学院,颗粒物(PM10),83,115,125,54,56,86,65,70,70,59,64,6,8,0.6,0.7
2023-03-03T20:00:00,1071A,116.8842,38.2991,沧州市,沧县城建局,细颗粒物(PM2.5),127,166,151,96,76,101,30,85,77,99,48,12,14,1.5,0.8
2023-03-03T20:00:00,1072A,116.8584,38.3254,沧州市,电视转播站,,,123,121,52,64,103,,94,92,80,43,15,15,0.9,0.7
2023-03-03T20:00:00,1073A,116.8709,38.3228,沧州市,市环保局,颗粒物(PM10),90,129,119,48,63,101,11,89,75,119,52,6,9,1.1,0.6
2023-03-03T20:00:00,1074A,115.6838,37.7541,衡水市,电机北厂,颗粒物(PM10),70,90,124,40,63,107,28,91,87,72,30,5,8,1.0,0.6
2023-03-03T20:00:00,1075A,115.6303,37.7316,衡水市,市监测站,颗粒物(PM10),79,108,123,52,68,105,15,91,85,92,31,5,9,1.2,0.7
2023-03-03T20:00:00,1077A,114.4704,37.0886,邢台市,达活泉,颗粒物(PM10),70,90,108,45,55,96,54,85,85,41,39,12,14,0.6,1.1
2023-03-03T20:00:00,1078A,114.5062,37.0349,邢台市,邢师高专,颗粒物(PM10),71,92,105,34,53,97,32,80,77,64,50,9,8,0.6,0.8
2023-03-03T20:00:00,1079A,114.5237,37.0851,邢台市,路桥公司,颗粒物(PM10),63,76,105,20,48,97,50,85,84,39,49,8,10,0.3,0.8
2023-03-03T20:00:00,1080A,114.4725,37.0719,邢台市,市环保局,颗粒物(PM10),72,94,108,36,46,97,61,86,86,39,41,8,10,0.5,0.8
2023-03-03T20:00:00,1081A,112.522,37.8873,太原市,尖草坪,颗粒物(PM10),57,63,101,22,37,111,91,91,91,21,54,6,13,0.3,0.5
2023-03-03T20:00:00,1083A,112.434,38.0108,太原市,上兰,,,,,,,,,,,,,,,,
2023-03-03T20:00:00,1084A,112.469,37.7124,太原市,晋源,颗粒物(PM10),51,51,114,19,52,106,96,94,94,20,59,7,14,0.3,0.8
2023-03-03T20:00:00,1085A,112.5583,37.7394,太原市,小店,颗粒物(PM10),52,54,138,19,59,113,90,97,97,26,63,7,19,0.2,0.8
2023-03-03T20:00:00,1086A,112.5369,37.8692,太原市,桃园,颗粒物(PM10),53,56,94,24,37,108,87,90,90,23,58,5,14,0.4,0.6
2023-03-03T20:00:00,1087A,112.57,37.8195,太原市,坞城,颗粒物(PM10),56,62,112,22,51,106,90,92,92,27,62,8,19,0.4,0.7
2023-03-03T20:00:00,1088A,112.549,37.9854,太原市,南寨,颗粒物(PM10),55,59,99,32,37,110,62,89,89,36,52,3,9,0.2,0.5
2023-03-03T20:00:00,1090A,111.6507,40.7517,呼和浩特市,呼市一监,颗粒物(PM10),82,114,99,40,55,97,62,81,81,32,43,15,17,0.7,0.9
2023-03-03T20:00:00,1091A,111.6572,40.8033,呼和浩特市,小召,颗粒物(PM10),78,105,89,44,42,94,53,78,78,54,60,21,19,1.0,0.8
2023-03-03T20:00:00,1094A,111.7516,40.8369,呼和浩特市,如意水处理厂,颗粒物(PM10),71,91,82,37,38,96,58,83,82,47,54,19,17,1.1,0.7
2023-03-03T20:00:00,1095A,111.7276,40.8062,呼和浩特市,二十九中,颗粒物(PM10),75,99,89,40,44,95,49,80,78,52,55,20,15,0.9,0.8
2023-03-03T20:00:00,1096A,111.5512,40.7866,呼和浩特市,工大金川校区,颗粒物(PM10),104,157,92,55,39,98,35,76,75,54,44,18,20,1.0,0.8
2023-03-03T20:00:00,1097A,111.717,40.7612,呼和浩特市,化肥厂生活区,颗粒物(PM10),89,128,116,49,51,97,39,87,80,58,44,18,18,0.9,0.8
2023-03-03T20:00:00,1098A,123.6836,41.9339,沈阳市,森林路,,,,,,,,,,,,,,,,
2023-03-03T20:00:00,1099A,123.505,41.7406,沈阳市,浑南东路,细颗粒物(PM2.5),67,79,94,48,49,83,46,70,67,49,47,16,22,0.8,1.4
2023-03-03T20:00:00,1100A,123.4231,41.6989,沈阳市,新秀街,颗粒物(PM10),70,89,94,39,35,86,5,68,56,97,47,19,28,1.0,1.2
2023-03-03T20:00:00,1102A,123.5903,41.8411,沈阳市,东陵路,细颗粒物(PM2.5),59,56,64,42,34,87,48,76,73,41,37,14,19,0.8,1
2023-03-03T20:00:00,1103A,123.4264,41.8467,沈阳市,陵东街,细颗粒物(PM2.5),118,156,89,89,39,78,8,59,51,100,53,17,20,1.4,1.1
2023-03-03T20:00:00,1104A,123.4114,41.7653,沈阳市,文化路,细颗粒物(PM2.5),94,117,96,70,45,82,18,67,60,84,44,26,21,1.0,1.1
2023-03-03T20:00:00,1105A,123.4678,41.7867,沈阳市,小河沿,细颗粒物(PM2.5),78,95,88,57,44,90,29,72,68,77,44,19,21,0.8,1.2
2023-03-03T20:00:00,1106A,123.4017,41.7972,沈阳市,太原街,细颗粒物(PM2.5),90,96,89,67,49,71,23,53,47,77,54,18,28,1.0,1
2023-03-03T20:00:00,1108A,123.3783,41.9228,沈阳市,京沈街,细颗粒物(PM2.5),65,60,64,47,42,68,66,64,64,36,45,12,23,0.6,0.9
2023-03-03T20:00:00,1109A,121.612,38.9741,大连市,甘井子,颗粒物(PM10),70,90,106,44,52,80,59,70,63,38,43,7,12,0.6,0.5
2023-03-03T20:00:00,1110A,121.565,38.9511,大连市,周水子,颗粒物(PM10),81,111,134,46,51,81,56,71,62,42,43,5,11,1.2,1
2023-03-03T20:00:00,1111A,121.5637,38.8845,大连市,星海三站,细颗粒物(PM2.5),68,84,83,49,44,76,55,68,61,37,38,10,11,0.9,0.9
2023-03-03T20:00:00,1112A,121.6302,38.9117,大连市,青泥洼桥,颗粒物(PM10),68,86,92,47,47,89,66,77,70,32,36,8,13,0.9,0.8
2023-03-03T20:00:00,1113A,121.6251,38.8638,大连市,傅家庄,颗粒物(PM10),69,88,79,41,39,80,76,73,73,21,27,12,9,0.7,0.7
2023-03-03T20:00:00,1114A,121.5213,38.8661,大连市,七贤岭,细颗粒物(PM2.5),70,87,82,51,47,97,72,82,69,29,33,15,11,0.7,0.7
2023-03-03T20:00:00,1115A,121.2529,38.8061,大连市,旅顺,细颗粒物(PM2.5),78,87,82,57,54,123,74,92,88,17,26,9,14,0.8,0.8
2023-03-03T20:00:00,1116A,121.7485,39.1311,大连市,金州,细颗粒物(PM2.5),72,87,92,52,50,94,80,82,78,23,33,10,46,0.8,0.8
2023-03-03T20:00:00,1117A,121.7811,39.0496,大连市,开发区,颗粒物(PM10),62,73,64,43,42,75,56,63,62,29,47,6,7,0.7,0.9
2023-03-03T20:00:00,1118A,121.9762,39.0631,大连市,双D港,,,59,55,33,34,86,69,77,77,,34,5,10,,0.9
2023-03-03T20:00:00,1119A,125.3325,43.9166,长春市,食品厂,颗粒物(PM10),66,82,102,33,40,91,13,68,64,83,41,6,8,1.0,0.7
2023-03-03T20:00:00,1120A,125.2863,43.9027,长春市,客车厂,颗粒物(PM10),73,96,97,48,42,89,14,65,59,93,41,12,11,1.0,0.7
2023-03-03T20:00:00,1121A,125.2841,43.8463,长春市,邮电学院,细颗粒物(PM2.5),74,64,95,54,41,107,12,86,79,90,41,34,18,0.6,0.6
2023-03-03T20:00:00,1122A,125.3716,43.8772,长春市,劳动公园,细颗粒物(PM2.5),68,66,90,49,33,101,40,81,80,60,40,16,16,0.7,0.8
2023-03-03T20:00:00,1123A,125.3297,43.8805,长春市,园林处,细颗粒物(PM2.5),54,50,91,38,35,86,49,71,71,48,41,7,6,0.5,0.7
2023-03-03T20:00:00,1124A,125.4605,43.79,长春市,净月潭,颗粒物(PM10),63,76,75,39,40,97,62,83,82,23,18,5,5,0.5,0.5
2023-03-03T20:00:00,1125A,125.7194,43.515,长春市,甩湾子,,,,,,,,,,,,,,,,
2023-03-03T20:00:00,1126A,125.3863,43.8447,长春市,经开区环卫处,颗粒物(PM10),51,51,90,34,31,100,44,80,79,45,34,10,13,0.5,0.7
2023-03-03T20:00:00,1127A,125.245,43.7783,长春市,高新区管委会,细颗粒物(PM2.5),77,67,88,56,41,102,15,83,73,77,30,13,10,0.7,0.7
2023-03-03T20:00:00,1128A,125.1761,43.8325,长春市,岱山公园,细颗粒物(PM2.5),149,111,90,114,41,94,19,82,70,92,32,15,7,1.1,0.8
2023-03-03T20:00:00,1129A,126.5422,45.755,哈尔滨市,岭北,,47,47,83,26,25,95,60,86,84,30,23,20,20,1.1,0.6
2023-03-03T20:00:00,1130A,126.561,45.8167,哈尔滨市,松北商大,细颗粒物(PM2.5),78,35,65,57,29,88,26,76,58,67,43,14,10,0.7,0.6
2023-03-03T20:00:00,1131A,126.979,45.5419,哈尔滨市,阿城会宁,细颗粒物(PM2.5),75,61,91,55,33,94,23,88,78,52,29,10,16,1.0,0.7
2023-03-03T20:00:00,1132A,126.599,45.7222,哈尔滨市,南岗学府路,细颗粒物(PM2.5),57,47,65,40,22,84,13,78,65,82,32,45,15,0.7,0.5
2023-03-03T20:00:00,1133A,126.689,45.7733,哈尔滨市,太平宏伟公园,,,,68,,26,101,,90,90,64,33,9,9,0.8,0.7
2023-03-03T20:00:00,1134A,126.635,45.7667,哈尔滨市,道外承德广场,细颗粒物(PM2.5),77,32,65,56,28,81,32,69,64,74,46,8,16,0.5,0.5
2023-03-03T20:00:00,1135A,126.685,45.7319,哈尔滨市,香坊红旗大街,细颗粒物(PM2.5),60,63,65,43,32,86,35,75,68,65,36,20,8,0.9,0.7
2023-03-03T20:00:00,1136A,126.6411,45.7258,哈尔滨市,动力和平路,细颗粒物(PM2.5),59,48,58,42,26,89,29,76,68,67,31,11,13,0.8,0.6
2023-03-03T20:00:00,1137A,126.593,45.7478,哈尔滨市,道里建国路,颗粒物(PM10),52,54,58,34,26,89,33,78,70,67,33,25,17,0.8,0.5
2023-03-03T20:00:00,1138A,126.615,45.61,哈尔滨市,平房东轻厂,细颗粒物(PM2.5),62,45,85,44,32,85,59,80,78,39,41,9,11,1.3,1
2023-03-03T20:00:00,1139A,126.595,45.9855,哈尔滨市,呼兰师专,,40,29,69,28,33,89,56,84,80,37,25,14,15,0.4,0.5
2023-03-03T20:00:00,1140A,126.6206,45.6842,哈尔滨市,省农科院,颗粒物(PM10),58,66,66,30,25,92,22,83,68,75,35,13,14,0.6,0.5
2023-03-03T20:00:00,1141A,121.4,31.238,上海市,普陀,,45,45,35,16,12,79,55,76,71,50,36,5,5,0.6,0.6
2023-03-03T20:00:00,1142A,121.478,31.2036,上海市,十五厂,颗粒物(PM10),60,70,37,22,16,75,47,70,63,56,41,6,6,0.6,0.5
2023-03-03T20:00:00,1143A,121.467,31.3008,上海市,虹口,,44,44,36,15,16,79,52,71,67,37,28,5,6,0.6,0.6
2023-03-03T20:00:00,1144A,121.412,31.1654,上海市,徐汇上师大,颗粒物(PM10),58,65,37,18,12,78,50,70,67,57,44,7,8,0.6,0.5
2023-03-03T20:00:00,1145A,121.536,31.2659,上海市,杨浦四漂,,46,46,39,18,15,80,49,70,65,52,48,7,7,0.5,0.5
2023-03-03T20:00:00,1147A,121.425,31.2261,上海市,静安监测站,,45,45,37,16,11,78,58,76,70,53,39,8,8,0.4,0.5
2023-03-03T20:00:00,1148A,121.703,31.1907,上海市,浦东川沙,,45,45,40,16,16,89,61,76,74,31,40,5,5,0.4,0.4
2023-03-03T20:00:00,1149A,121.533,31.2284,上海市,浦东新区监测站,,,40,36,22,16,73,,63,63,37,36,5,5,0.5,0.7
2023-03-03T20:00:00,1150A,121.577,31.2071,上海市,浦东张江,,47,47,36,13,9,85,70,78,76,32,41,4,4,0.6,0.6
2023-03-03T20:00:00,1151A,118.8086,32.1065,南京市,迈皋桥,颗粒物(PM10),66,81,82,41,37,125,94,116,114,32,34,6,6,0.4,0.4
2023-03-03T20:00:00,1152A,118.7538,32.0551,南京市,草场门,颗粒物(PM10),59,68,85,34,36,112,86,100,100,46,50,7,8,0.4,0.4
2023-03-03T20:00:00,1153A,118.7794,32.0745,南京市,山西路,颗粒物(PM10),60,70,82,31,40,122,110,116,116,22,29,3,5,0.4,0.4
2023-03-03T20:00:00,1154A,118.7752,32.0023,南京市,中华门,颗粒物(PM10),56,61,84,29,39,119,89,107,106,34,42,8,9,0.6,0.7
2023-03-03T20:00:00,1155A,118.8109,32.0309,南京市,瑞金路,颗粒物(PM10),60,69,73,36,38,113,68,105,100,53,48,8,8,0.5,0.5
2023-03-03T20:00:00,1156A,118.7997,32.0754,南京市,玄武湖,颗粒物(PM10),60,70,76,38,40,113,93,107,106,30,33,3,3,0.4,0.4
2023-03-03T20:00:00,1157A,118.6414,32.0931,南京市,浦口,颗粒物(PM10),71,91,90,41,39,108,56,96,92,74,50,4,4,0.4,0.4
2023-03-03T20:00:00,1158A,118.7356,31.9996,南京市,奥体中心,颗粒物(PM10),65,79,90,39,43,115,85,105,104,48,52,5,6,0.4,0.5
2023-03-03T20:00:00,1159A,118.9125,32.1028,南京市,仙林大学城,颗粒物(PM10),62,73,73,31,38,126,90,116,115,35,38,7,7,0.5,0.5
2023-03-03T20:00:00,1160A,120.561,31.2472,苏州市,上方山,,40,40,47,22,27,109,61,94,92,36,34,7,7,0.5,0.5
2023-03-03T20:00:00,1162A,120.591,31.3019,苏州市,彩香,,29,29,43,11,17,122,81,104,103,33,34,7,6,0.4,0.5
2023-03-03T20:00:00,1163A,120.596,31.3264,苏州市,轧钢厂,,33,33,45,10,16,114,73,97,94,27,29,7,6,0.6,0.6
2023-03-03T20:00:00,1164A,120.613,31.2703,苏州市,吴中区,,27,27,41,10,17,120,64,100,96,47,41,8,7,0.5,0.5
2023-03-03T20:00:00,1165A,120.543,31.2994,苏州市,苏州新区,,34,34,40,18,18,116,66,98,96,41,36,6,6,0.6,0.6
2023-03-03T20:00:00,1166A,120.669,31.3097,苏州市,苏州工业园区,,26,26,41,11,17,112,66,91,89,40,34,8,8,0.5,0.5
2023-03-03T20:00:00,1167A,120.641,31.3708,苏州市,相城区,,33,33,44,12,16,108,53,86,82,47,39,5,6,0.6,0.6
2023-03-03T20:00:00,1168A,120.9098,31.9663,南通市,狼山街道,颗粒物(PM10),53,55,38,15,18,91,50,83,72,47,34,6,6,0.4,0.4
2023-03-03T20:00:00,1169A,120.86,32.0005,南通市,虹桥,颗粒物(PM10),54,57,43,28,19,80,37,76,62,64,43,8,8,0.5,0.4
2023-03-03T20:00:00,1170A,120.87,32.02,南通市,城中,颗粒物(PM10),54,57,41,22,18,78,39,71,59,56,37,8,8,0.3,0.3
2023-03-03T20:00:00,1171A,120.94,31.93,南通市,星湖花园,颗粒物(PM10),53,55,40,17,15,88,54,80,65,45,36,6,6,0.4,0.5
2023-03-03T20:00:00,1172A,120.81,32.0417,南通市,紫琅学院,颗粒物(PM10),52,54,45,24,17,74,17,66,58,80,47,8,8,0.7,0.4
2023-03-03T20:00:00,1173A,119.176,34.5885,连云港市,市环境监测站,细颗粒物(PM2.5),85,105,86,63,47,134,89,118,117,46,36,11,12,0.5,0.4
2023-03-03T20:00:00,1177A,117.179,34.2761,徐州市,黄河新村,细颗粒物(PM2.5),109,134,106,82,59,145,83,128,125,51,33,14,14,1.1,0.8
2023-03-03T20:00:00,1178A,117.1918,34.2384,徐州市,淮塔,细颗粒物(PM2.5),98,135,115,73,57,154,84,134,130,58,42,11,12,0.7,0.7
2023-03-03T20:00:00,1180A,117.256,34.2153,徐州市,新城区,细颗粒物(PM2.5),87,120,110,64,59,148,91,123,119,39,38,12,11,0.8,0.9
2023-03-03T20:00:00,1181A,117.244,34.2911,徐州市,桃园路,颗粒物(PM10),82,114,112,56,55,140,97,126,125,29,27,10,9,0.6,0.8
2023-03-03T20:00:00,1182A,117.2933,34.2778,徐州市,农科院,颗粒物(PM10),81,112,102,56,47,151,94,128,126,35,33,9,10,0.8,0.8
2023-03-03T20:00:00,1186A,119.389,32.3761,扬州市,邗江监测站,颗粒物(PM10),58,66,74,28,36,117,57,102,98,57,47,3,5,0.3,0.5
2023-03-03T20:00:00,1188A,120.269,31.4867,无锡市,雪浪,,,58,49,31,18,117,,94,94,33,33,7,8,0.8,0.7
2023-03-03T20:00:00,1189A,120.275,31.6219,无锡市,黄巷,,,66,55,34,18,87,,78,77,83,52,7,8,0.7,0.9
2023-03-03T20:00:00,1190A,120.294,31.56,无锡市,曹张,颗粒物(PM10),52,53,47,22,17,83,75,75,74,48,43,7,7,0.9,0.8
2023-03-03T20:00:00,1191A,120.242,31.5031,无锡市,漆塘,颗粒物(PM10),53,56,46,34,19,114,65,89,88,33,32,8,10,0.6,0.5
2023-03-03T20:00:00,1192A,120.3489,31.5863,无锡市,东亭,颗粒物(PM10),58,66,50,34,19,79,16,67,56,96,54,9,9,0.7,0.6
2023-03-03T20:00:00,1193A,120.354,31.5475,无锡市,旺庄,颗粒物(PM10),56,61,50,24,19,79,42,67,61,76,54,5,6,0.8,0.7
2023-03-03T20:00:00,1194A,120.245,31.5631,无锡市,荣巷,颗粒物(PM10),52,53,47,27,18,105,72,89,89,30,34,9,11,0.6,0.6
2023-03-03T20:00:00,1195A,120.299,31.6817,无锡市,堰桥,颗粒物(PM10),60,70,53,24,18,95,10,77,61,106,57,7,9,0.8,0.8
2023-03-03T20:00:00,1196A,119.9633,31.762,常州市,市监测站,颗粒物(PM10),58,66,49,37,30,97,38,87,78,76,45,5,6,0.6,0.6
2023-03-03T20:00:00,1200A,119.9468,31.7069,常州市,武进监测站,颗粒物(PM10),54,58,45,34,24,103,66,90,84,45,34,6,8,0.5,0.5
2023-03-03T20:00:00,1201A,119.9255,31.9087,常州市,安家,颗粒物(PM10),52,54,50,34,31,84,31,75,65,71,51,7,9,0.6,0.7
2023-03-03T20:00:00,1203A,119.6707,32.1875,镇江市,新区办事处,颗粒物(PM10),60,69,72,28,32,109,47,93,84,61,50,4,4,0.6,0.7
2023-03-03T20:00:00,1204A,119.4974,32.1968,镇江市,职教中心,颗粒物(PM10),56,62,63,30,33,109,60,95,91,43,41,5,7,0.5,0.6
2023-03-03T20:00:00,1205A,119.4303,32.1328,镇江市,丹徒区监测站,,,,72,,36,109,,101,98,,40,,7,,0.5
2023-03-03T20:00:00,1206A,119.905,32.4878,泰州市,公园路,细颗粒物(PM2.5),67,80,59,48,31,102,43,93,84,51,31,11,8,1.1,0.9
2023-03-03T20:00:00,1207A,119.9189,32.4625,泰州市,莲花,细颗粒物(PM2.5),70,88,58,51,32,100,40,90,81,60,36,14,10,1.0,0.9
2023-03-03T20:00:00,1209A,119.888,32.4639,泰州市,留学生创业园,颗粒物(PM10),72,93,62,38,27,97,41,88,81,57,36,12,10,0.9,0.6
2023-03-03T20:00:00,1210A,119.036,33.5981,淮安市,钵池山,颗粒物(PM10),56,61,68,38,39,123,86,109,109,46,36,10,8,0.8,0.7
2023-03-03T20:00:00,1211A,119.007,33.575,淮安市,北京南路,颗粒物(PM10),58,66,68,39,38,116,95,106,106,35,39,10,11,0.6,0.7
2023-03-03T20:00:00,1212A,118.989,33.6067,淮安市,市监测站,颗粒物(PM10),67,83,73,41,39,121,93,110,110,44,39,9,10,0.7,0.8
2023-03-03T20:00:00,1213A,119.135,33.5039,淮安市,楚州区监测站,颗粒物(PM10),72,93,79,44,36,117,74,103,101,51,51,21,10,0.7,0.6
2023-03-03T20:00:00,1214A,119.0186,33.6297,淮安市,淮阴区监测站,颗粒物(PM10),64,78,83,39,43,117,56,102,99,73,35,10,11,0.7,0.7
2023-03-03T20:00:00,1215A,120.118,33.4022,盐城市,盐城电厂,颗粒物(PM10),54,58,50,33,23,117,86,110,108,29,22,8,10,0.6,0.7
2023-03-03T20:00:00,1216A,120.156,33.3942,盐城市,市监测站,,,58,44,29,23,112,,106,106,45,24,9,10,,0.6
2023-03-03T20:00:00,1218A,120.2144,33.38,盐城市,开发区管委会,,,68,58,24,22,115,68,106,102,,24,4,7,0.6,0.6
2023-03-03T20:00:00,1220A,118.293,33.9528,宿迁市,宿迁学院,细颗粒物(PM2.5),79,89,96,58,52,140,70,117,110,64,35,14,10,1.4,0.6
2023-03-03T20:00:00,1221A,118.2442,33.9592,宿迁市,宿迁中学,"颗粒物(PM10),细颗粒物(PM2.5)",68,86,97,49,48,133,96,117,117,35,31,6,7,0.6,0.5
2023-03-03T20:00:00,1223A,120.2072,30.2111,杭州市,滨江,颗粒物(PM10),65,80,83,44,47,119,64,104,102,75,48,10,10,0.8,0.7
2023-03-03T20:00:00,1224A,120.0633,30.2747,杭州市,西溪,"颗粒物(PM10),细颗粒物(PM2.5)",70,90,91,51,54,120,90,106,106,46,46,6,6,0.7,1
2023-03-03T20:00:00,1226A,120.3461,30.3153,杭州市,下沙,颗粒物(PM10),54,57,80,29,44,119,93,112,111,45,45,7,8,0.6,0.7
2023-03-03T20:00:00,1227A,120.1269,30.2456,杭州市,卧龙桥,细颗粒物(PM2.5),69,82,77,50,49,113,54,100,96,61,44,9,7,0.6,0.5
2023-03-03T20:00:00,1228A,120.1903,30.2692,杭州市,浙江农大,颗粒物(PM10),54,58,82,34,47,133,93,119,119,53,46,7,7,0.4,0.5
2023-03-03T20:00:00,1230A,120.1197,30.3119,杭州市,和睦小学,"颗粒物(PM10),细颗粒物(PM2.5)",65,79,88,47,52,119,89,107,106,56,52,6,6,0.5,0.5
2023-03-03T20:00:00,1231A,120.3019,30.4183,杭州市,临平镇,颗粒物(PM10),58,65,72,33,36,138,116,127,127,36,33,8,8,0.6,0.5
2023-03-03T20:00:00,1232A,120.2697,30.1819,杭州市,城厢镇,颗粒物(PM10),67,84,93,44,56,115,76,104,101,66,63,6,7,0.5,0.6
2023-03-03T20:00:00,1233A,120.0883,30.1808,杭州市,云栖,细颗粒物(PM2.5),72,83,81,52,49,125,61,104,99,48,41,6,6,0.6,0.6
2023-03-03T20:00:00,1234A,121.8358,29.911,宁波市,区环保大楼,,29,25,25,10,11,99,92,95,95,22,35,5,6,0.4,0.5
2023-03-03T20:00:00,1235A,121.56,29.82,宁波市,万里学院,,29,27,63,12,32,118,90,107,105,20,39,6,8,0.4,0.5
2023-03-03T20:00:00,1236A,121.713,29.9572,宁波市,龙赛医院,,38,38,48,14,19,87,87,80,80,22,42,5,8,0.3,0.4
2023-03-03T20:00:00,1239A,121.633,29.7733,宁波市,钱湖水厂,,29,22,28,14,18,111,92,104,103,9,13,6,6,0.5,0.6
2023-03-03T20:00:00,1240A,121.5856,29.8635,宁波市,太古小学,,26,26,52,13,24,111,81,99,96,16,35,6,7,0.5,0.6
2023-03-03T20:00:00,1241A,121.524,29.8674,宁波市,市环境监测中心,,38,38,51,11,14,104,76,92,90,28,41,6,8,0.3,0.5
2023-03-03T20:00:00,1242A,120.634,28.0089,温州市,瓯海,,44,44,82,20,47,134,80,119,115,38,47,7,8,0.4,0.5
2023-03-03T20:00:00,1243A,120.6748,27.9939,温州市,南浦,,46,46,74,23,46,133,82,112,110,32,33,6,7,0.4,0.5
2023-03-03T20:00:00,1244A,120.76,27.9747,温州市,龙湾,,35,35,71,14,36,131,67,115,111,54,46,8,8,0.4,0.5
2023-03-03T20:00:00,1245A,120.6709,28.0167,温州市,市站,颗粒物(PM10),54,58,84,24,47,120,84,98,98,35,45,6,7,0.3,0.4
2023-03-03T20:00:00,1247A,120.6053,29.9928,绍兴市,城东开发委,颗粒物(PM10),58,66,84,29,50,157,64,123,117,45,39,7,6,0.6,0.7
2023-03-03T20:00:00,1250A,120.0751,30.8669,湖州市,城西水厂,,44,44,57,28,43,139,95,124,122,36,40,7,7,0.5,0.5
2023-03-03T20:00:00,1252A,120.7436,30.778,嘉兴市,清河小学,颗粒物(PM10),55,59,44,26,17,120,62,97,88,67,43,9,8,0.5,0.5
2023-03-03T20:00:00,1253A,120.726,30.7478,嘉兴市,嘉兴学院,,48,48,49,15,19,134,91,119,109,38,35,10,7,0.5,0.4
2023-03-03T20:00:00,1255A,121.273,28.6459,台州市,黄岩环保大楼,,42,42,56,18,27,139,88,114,113,25,26,8,8,0.4,0.5
2023-03-03T20:00:00,1256A,121.419,28.6542,台州市,台州环保大楼,,47,47,50,18,21,116,86,111,104,21,21,6,5,0.3,0.5
2023-03-03T20:00:00,1257A,121.377,28.5773,台州市,路桥田洋王,,45,45,57,20,27,134,92,116,114,18,25,11,10,0.3,0.4
2023-03-03T20:00:00,1258A,122.122,30.0203,舟山市,定海檀枫,,28,28,26,7,9,97,89,87,87,22,22,5,5,0.4,0.5
2023-03-03T20:00:00,1259A,122.3094,29.9558,舟山市,普陀东港,,29,26,23,9,9,96,90,89,89,13,14,5,5,0.3,0.3
2023-03-03T20:00:00,1260A,122.19,29.9944,舟山市,临城新区,,29,29,24,14,10,101,89,91,91,25,22,5,5,0.4,0.4
2023-03-03T20:00:00,1262A,119.647,29.077,金华市,十五中,细颗粒物(PM2.5),119,100,93,90,67,164,89,141,136,68,47,13,9,0.9,0.7
2023-03-03T20:00:00,1263A,119.686,29.1029,金华市,监测站,细颗粒物(PM2.5),114,102,87,86,67,175,95,148,143,69,54,15,13,0.9,0.7
2023-03-03T20:00:00,1264A,118.8692,28.9398,衢州市,环保大楼,细颗粒物(PM2.5),120,135,106,91,74,122,44,109,103,86,39,12,13,0.9,0.7
2023-03-03T20:00:00,1265A,118.8709,28.9666,衢州市,实验学校,细颗粒物(PM2.5),102,116,104,76,68,147,78,134,130,67,41,19,18,0.7,0.5
2023-03-03T20:00:00,1266A,118.8621,28.9808,衢州市,衢州学院,细颗粒物(PM2.5),114,145,108,86,70,133,32,119,108,,41,8,11,1.0,0.6
2023-03-03T20:00:00,1267A,119.914,28.4514,丽水市,监测站大楼,细颗粒物(PM2.5),77,77,61,56,38,146,133,137,137,28,23,10,9,0.6,0.4
2023-03-03T20:00:00,1268A,119.93,28.4586,丽水市,莲都小学,细颗粒物(PM2.5),78,94,72,57,37,155,144,148,148,34,29,10,8,0.5,0.4
2023-03-03T20:00:00,1269A,119.879,28.4231,丽水市,余庄前,颗粒物(PM10),55,59,63,37,38,148,91,129,126,25,23,9,9,0.4,0.4
2023-03-03T20:00:00,1270A,117.1959,31.7848,合肥市,明珠广场,颗粒物(PM10),74,97,94,44,43,128,61,115,107,72,50,11,11,0.9,0.8
2023-03-03T20:00:00,1271A,117.3072,31.8764,合肥市,三里街,颗粒物(PM10),67,83,108,36,46,116,53,107,96,82,68,8,10,1.0,0.9
2023-03-03T20:00:00,1272A,117.2588,31.8707,合肥市,琥珀山庄,颗粒物(PM10),63,75,94,36,43,123,77,115,109,60,54,5,8,0.7,0.7
2023-03-03T20:00:00,1273A,117.1604,31.9052,合肥市,董铺水库,颗粒物(PM10),69,88,103,31,44,120,93,108,106,36,40,6,6,0.5,0.5
2023-03-03T20:00:00,1274A,117.25,31.8571,合肥市,长江中路,细颗粒物(PM2.5),77,88,93,56,55,118,73,108,103,62,44,11,13,1.2,1
2023-03-03T20:00:00,1275A,117.266,31.9436,合肥市,庐阳区,颗粒物(PM10),58,66,103,27,45,115,76,103,99,55,57,8,12,0.7,0.7
2023-03-03T20:00:00,1276A,117.336,31.8586,合肥市,瑶海区,"二氧化氮,颗粒物(PM10)",63,75,124,32,53,121,13,107,94,125,74,8,10,0.8,0.7
2023-03-03T20:00:00,1277A,117.3027,31.7964,合肥市,包河区,颗粒物(PM10),71,92,94,46,52,135,77,122,115,56,56,7,11,1.0,1
2023-03-03T20:00:00,1278A,117.2776,31.7385,合肥市,滨湖新区,颗粒物(PM10),69,88,94,35,43,140,109,130,127,28,26,9,12,0.6,0.6
2023-03-03T20:00:00,1279A,117.1318,31.8403,合肥市,高新区,颗粒物(PM10),69,88,90,39,46,125,93,117,115,46,43,8,10,0.8,0.8
2023-03-03T20:00:00,1280A,119.3903,26.0543,福州市,鼓山,,,,,,,,,,,,,,,,
2023-03-03T20:00:00,1282A,119.2681,26.0504,福州市,师大,,46,46,56,15,28,138,98,130,115,23,22,5,6,0.5,0.6
2023-03-03T20:00:00,1283A,119.2984,26.1028,福州市,五四北路,,49,49,52,16,29,138,105,128,114,20,22,3,5,0.4,0.5
2023-03-03T20:00:00,1284A,119.2648,26.0768,福州市,杨桥西路,,48,48,57,14,27,136,95,125,111,20,18,3,5,0.5,0.6
2023-03-03T20:00:00,1285A,119.317,26.0746,福州市,紫阳,颗粒物(PM10),51,51,55,17,26,134,86,132,108,31,20,4,5,0.5,0.5
2023-03-03T20:00:00,1286A,118.1608,24.8169,厦门市,溪东,,,,,,,,,,,,,,,,
2023-03-03T20:00:00,1287A,118.1514,24.4767,厦门市,洪文,,50,50,62,23,28,143,104,124,123,29,29,6,5,0.4,0.3
2023-03-03T20:00:00,1288A,118.0661,24.4444,厦门市,鼓浪屿,,45,45,60,22,31,174,129,144,144,24,27,6,5,0.2,0.3
2023-03-03T20:00:00,1290A,115.8931,28.6843,南昌市,省外办,细颗粒物(PM2.5),92,104,116,68,71,115,97,95,92,25,37,16,16,0.6,0.7
2023-03-03T20:00:00,1291A,115.8886,28.7003,南昌市,省林业公司,细颗粒物(PM2.5),94,95,106,70,74,111,91,87,87,42,55,12,13,0.5,0.7
2023-03-03T20:00:00,1292A,115.8126,28.7442,南昌市,林科所,细颗粒物(PM2.5),85,112,109,63,68,122,58,110,80,67,42,16,13,0.6,0.7
2023-03-03T20:00:00,1294A,115.8518,28.687,南昌市,建工学校,细颗粒物(PM2.5),85,102,115,63,68,117,81,110,92,38,34,14,11,0.8,0.8
2023-03-03T20:00:00,1295A,115.8921,28.6424,南昌市,象湖,细颗粒物(PM2.5),99,93,96,74,74,109,82,94,94,35,37,18,13,0.8,0.9
2023-03-03T20:00:00,1296A,115.7423,28.7996,南昌市,武术学校,细颗粒物(PM2.5),78,96,76,57,51,112,73,92,85,14,15,6,7,0.5,0.5
2023-03-03T20:00:00,1298A,115.9314,28.6842,南昌市,省站,细颗粒物(PM2.5),94,125,121,70,69,113,91,98,91,33,35,17,15,0.6,0.7
2023-03-03T20:00:00,1299A,116.9862,36.6114,济南市,科干所,颗粒物(PM10),91,132,116,61,52,140,136,137,137,26,24,14,12,0.8,0.8
2023-03-03T20:00:00,1300A,116.9376,36.665,济南市,农科所,细颗粒物(PM2.5),104,154,122,78,52,129,75,124,116,59,29,13,9,1.0,0.7
2023-03-03T20:00:00,1301A,117.1265,36.6734,济南市,开发区,细颗粒物(PM2.5),98,129,108,73,52,138,109,131,128,31,13,15,14,0.7,0.6
2023-03-03T20:00:00,1303A,117.0624,36.6868,济南市,省种子仓库,细颗粒物(PM2.5),100,141,116,75,60,143,97,135,130,50,19,17,13,0.8,0.5
2023-03-03T20:00:00,1304A,116.9489,36.6447,济南市,机床二厂,细颗粒物(PM2.5),119,168,125,90,59,131,89,126,120,52,22,35,14,1.1,0.7
2023-03-03T20:00:00,1305A,117.0495,36.663,济南市,市监测站,细颗粒物(PM2.5),94,132,115,70,62,142,115,137,129,39,29,14,11,0.8,0.7
2023-03-03T20:00:00,1306A,116.7675,36.5484,济南市,长清党校,细颗粒物(PM2.5),98,144,126,73,60,137,124,131,131,41,29,19,15,0.7,0.5
2023-03-03T20:00:00,1307A,120.6659,36.2403,青岛市,仰口,细颗粒物(PM2.5),100,124,95,75,44,116,106,106,106,33,24,9,7,1.1,0.8
2023-03-03T20:00:00,1310A,120.4134,36.0658,青岛市,市南区东部子站,细颗粒物(PM2.5),83,110,66,61,31,91,77,81,70,48,36,11,10,0.9,0.7
2023-03-03T20:00:00,1311A,120.3664,36.1032,青岛市,四方区子站,细颗粒物(PM2.5),83,107,76,61,35,76,68,72,62,54,45,8,9,0.9,0.8
2023-03-03T20:00:00,1312A,120.2994,36.054,青岛市,市南区西部子站,细颗粒物(PM2.5),74,95,72,54,30,100,84,80,70,39,39,9,11,0.8,0.7
2023-03-03T20:00:00,1313A,120.4581,36.0858,青岛市,崂山区子站,细颗粒物(PM2.5),94,124,66,70,28,93,83,77,75,41,31,9,8,0.6,0.4
2023-03-03T20:00:00,1314A,120.1983,35.9608,青岛市,黄岛区子站,细颗粒物(PM2.5),92,102,73,68,39,94,87,85,78,44,38,6,8,0.6,0.6
2023-03-03T20:00:00,1315A,120.3999,36.3083,青岛市,城阳区子站,颗粒物(PM10),96,141,96,59,37,79,74,74,74,53,42,8,10,0.8,0.7
2023-03-03T20:00:00,1316A,113.69031,34.76122,郑州市,烟厂,颗粒物(PM10),78,105,128,25,58,127,79,110,109,40,40,7,10,0.5,0.7
2023-03-03T20:00:00,1317A,113.65724,34.77134,郑州市,郑纺机,颗粒物(PM10),79,108,125,24,56,117,81,108,107,39,48,5,8,0.4,0.5
2023-03-03T20:00:00,1318A,113.67526,34.80246,郑州市,银行学校,颗粒物(PM10),77,104,120,30,60,122,82,109,109,38,40,8,11,0.4,0.5
2023-03-03T20:00:00,1319A,113.56746,34.81334,郑州市,供水公司,颗粒物(PM10),69,88,118,22,60,125,85,112,112,21,40,7,11,0.3,0.5
2023-03-03T20:00:00,1320A,113.7329,34.7178,郑州市,经开区管委,颗粒物(PM10),79,107,118,24,58,124,83,112,111,37,46,10,12,0.4,0.5
2023-03-03T20:00:00,1321A,113.73961,34.77172,郑州市,四十七中,颗粒物(PM10),78,105,119,28,59,111,70,104,91,40,36,6,8,0.4,0.6
2023-03-03T20:00:00,1322A,113.60532,34.74838,郑州市,市监测站,颗粒物(PM10),79,108,139,26,66,116,46,98,94,70,49,9,12,0.6,0.7
2023-03-03T20:00:00,1323A,113.64164,34.7525,郑州市,河医大,颗粒物(PM10),82,114,126,25,58,120,77,108,107,34,39,6,9,0.5,0.6
2023-03-03T20:00:00,1324A,113.51488,34.91089,郑州市,岗李水库,,,,,,,,,,,,,,,,
2023-03-03T20:00:00,1325A,114.3677,30.5584,武汉市,东湖梨园,细颗粒物(PM2.5),85,92,101,63,73,135,91,118,118,63,69,10,12,1.0,0.8
2023-03-03T20:00:00,1326A,114.2529,30.558,武汉市,汉阳月湖,细颗粒物(PM2.5),107,111,108,80,76,117,38,98,93,107,96,8,10,1.1,1.1
2023-03-03T20:00:00,1327A,114.282,30.6189,武汉市,汉口花桥,细颗粒物(PM2.5),99,115,107,74,65,115,26,99,91,120,77,10,10,1.7,1
2023-03-03T20:00:00,1328A,114.3025,30.5332,武汉市,武昌紫阳,细颗粒物(PM2.5),124,109,95,94,75,123,34,107,100,117,82,13,14,1.1,1.1
2023-03-03T20:00:00,1329A,114.3646,30.6217,武汉市,青山钢花,细颗粒物(PM2.5),119,130,121,90,82,111,12,103,90,127,66,10,14,1.6,1.1
2023-03-03T20:00:00,1330A,114.1566,30.4825,武汉市,沌口新区,细颗粒物(PM2.5),100,98,102,75,82,140,27,113,102,133,92,10,17,0.8,0.9
2023-03-03T20:00:00,1331A,114.3014,30.5944,武汉市,汉口江滩,细颗粒物(PM2.5),117,108,110,88,80,113,30,95,90,132,89,10,12,1.3,0.9
2023-03-03T20:00:00,1333A,114.135,30.6319,武汉市,吴家山,细颗粒物(PM2.5),95,109,131,71,76,132,22,108,100,141,100,8,10,1.2,1.2
2023-03-03T20:00:00,1334A,113.8454,30.2917,武汉市,沉湖七壕,颗粒物(PM10),83,116,89,50,40,158,117,137,137,42,38,13,16,1.0,0.9
2023-03-03T20:00:00,1335A,113.0833,28.2325,长沙市,经开区环保局,细颗粒物(PM2.5),149,147,156,114,121,119,72,103,99,44,37,4,6,1.0,0.8
2023-03-03T20:00:00,1336A,112.8872,28.2189,长沙市,高开区环保局,细颗粒物(PM2.5),152,155,163,116,105,141,89,105,105,30,37,14,9,1.6,0.8
2023-03-03T20:00:00,1337A,113.0792,28.2053,长沙市,马坡岭,细颗粒物(PM2.5),140,138,158,107,118,118,69,106,102,46,45,8,10,0.8,0.7
2023-03-03T20:00:00,1338A,112.9394,28.19,长沙市,湖南师范大学,细颗粒物(PM2.5),168,132,146,127,123,125,75,91,91,29,29,9,6,1.2,0.8
2023-03-03T20:00:00,1339A,113.0178,28.1322,长沙市,雨花区环保局,细颗粒物(PM2.5),152,127,143,116,115,126,84,107,107,31,38,7,7,0.7,0.7
2023-03-03T20:00:00,1340A,112.9792,28.2597,长沙市,伍家岭,细颗粒物(PM2.5),202,153,160,152,118,135,61,111,106,59,40,14,8,1.9,1
2023-03-03T20:00:00,1341A,113.0014,28.1944,长沙市,火车新站,细颗粒物(PM2.5),192,154,144,144,119,120,70,99,98,42,35,14,10,1.6,0.8
2023-03-03T20:00:00,1342A,112.9844,28.1178,长沙市,天心区环保局,细颗粒物(PM2.5),149,158,153,114,114,140,85,112,112,39,37,8,5,0.9,0.7
2023-03-03T20:00:00,1343A,112.8908,28.1308,长沙市,湖南中医药大学,细颗粒物(PM2.5),162,147,144,123,112,134,64,104,104,47,35,12,7,2.0,1.1
2023-03-03T20:00:00,1344A,112.9581,28.3611,长沙市,沙坪,细颗粒物(PM2.5),135,120,138,103,109,147,79,104,104,32,26,6,8,1.2,1
2023-03-03T20:00:00,1345A,113.2347,23.1423,广州市,广雅中学,细颗粒物(PM2.5),100,139,105,75,57,219,182,195,195,71,48,7,6,1.0,0.8
2023-03-03T20:00:00,1346A,113.2612,23.105,广州市,市五中,细颗粒物(PM2.5),113,124,97,85,67,232,186,208,208,55,40,9,9,0.9,0.8
2023-03-03T20:00:00,1348A,113.3478,23.0916,广州市,广东商学院,"颗粒物(PM10),细颗粒物(PM2.5)",94,137,104,70,54,226,136,190,190,117,62,7,7,0.8,0.7
2023-03-03T20:00:00,1349A,113.4332,23.1047,广州市,市八十六中,细颗粒物(PM2.5),108,149,132,81,68,239,126,197,197,73,61,10,10,0.8,0.8
2023-03-03T20:00:00,1350A,113.3505,22.9483,广州市,番禺中学,"颗粒物(PM10),细颗粒物(PM2.5)",75,99,92,55,53,215,141,200,197,52,40,9,8,0.9,0.8
2023-03-03T20:00:00,1351A,113.2146,23.3916,广州市,花都师范,细颗粒物(PM2.5),115,141,117,87,70,254,222,218,218,40,58,10,9,1.0,1
2023-03-03T20:00:00,1352A,113.2597,23.1331,广州市,市监测站,细颗粒物(PM2.5),94,114,90,70,56,219,185,196,196,57,43,9,8,0.9,0.8
2023-03-03T20:00:00,1353A,113.5618,23.312,广州市,九龙镇镇龙,颗粒物(PM10),99,147,115,73,63,214,83,181,174,129,64,6,6,1.0,0.9
2023-03-03T20:00:00,1354A,113.2765,23.1544,广州市,麓湖,细颗粒物(PM2.5),77,97,86,56,53,240,148,198,198,64,42,8,8,0.8,0.7
2023-03-03T20:00:00,1355A,113.443,23.3035,广州市,帽峰山森林公园,臭氧1小时,85,86,88,45,52,220,188,202,202,37,36,7,7,0.8,0.8
2023-03-03T20:00:00,1356A,114.1063,22.5545,深圳市,通心岭子站,颗粒物(PM10),56,61,63,32,36,122,111,112,112,21,18,5,5,0.7,0.6
2023-03-03T20:00:00,1357A,114.117,22.5625,深圳市,洪湖,颗粒物(PM10),67,83,85,42,42,160,134,149,148,36,22,10,10,0.7,0.6
2023-03-03T20:00:00,1358A,113.987,22.5417,深圳市,华侨城,颗粒物(PM10),60,69,70,38,39,161,112,139,132,49,29,6,7,0.7,0.7
2023-03-03T20:00:00,1359A,113.9181,22.5171,深圳市,南海子站,颗粒物(PM10),81,112,81,54,38,148,113,130,112,43,30,7,6,0.9,0.7
2023-03-03T20:00:00,1360A,114.2458,22.5689,深圳市,盐田,,49,49,61,27,35,151,132,134,134,25,34,7,8,0.7,0.7
2023-03-03T20:00:00,1361A,114.2283,22.7244,深圳市,龙岗,颗粒物(PM10),63,75,79,37,42,202,135,168,167,28,15,5,5,0.7,0.7
2023-03-03T20:00:00,1363A,114.494,22.5422,深圳市,南澳,,39,39,55,20,31,167,123,154,152,20,16,4,6,0.6,0.6
2023-03-03T20:00:00,1364A,114.41,22.6342,深圳市,葵涌,,50,50,60,29,33,172,154,158,158,19,18,6,7,0.6,0.6
2023-03-03T20:00:00,1365A,114.297,22.5978,深圳市,梅沙,,50,50,65,19,31,178,156,166,166,12,14,6,6,0.7,0.8
2023-03-03T20:00:00,1366A,114.0678,22.738,深圳市,观澜,颗粒物(PM10),77,104,105,44,52,200,77,159,147,79,37,7,6,0.8,0.7
2023-03-03T20:00:00,1367A,113.5814,22.2618,珠海市,吉大,,,55,68,19,28,178,148,153,153,17,24,,5,0.5,0.6
2023-03-03T20:00:00,1368A,113.4881,22.2335,珠海市,前山,,47,47,63,18,31,157,127,142,141,36,32,5,6,0.5,0.5
2023-03-03T20:00:00,1369A,113.628,22.4251,珠海市,唐家,颗粒物(PM10),51,51,61,18,36,173,142,160,160,23,25,5,5,0.3,0.4
2023-03-03T20:00:00,1370A,113.299,22.2281,珠海市,斗门,颗粒物(PM10),52,53,65,24,33,173,148,158,158,24,25,5,6,0.4,0.4
2023-03-03T20:00:00,1371A,113.1294,23.0067,佛山市,湾梁,臭氧1小时,104,107,104,45,46,241,207,213,213,38,40,5,5,0.8,0.7
2023-03-03T20:00:00,1372A,113.1083,23.0478,佛山市,华材职中,臭氧1小时,105,100,92,55,50,251,209,215,215,37,39,6,7,0.5,0.5
2023-03-03T20:00:00,1373A,113.144,23.0453,佛山市,南海气象局,臭氧1小时,75,77,84,51,51,208,180,182,182,43,47,4,4,0.9,0.8
2023-03-03T20:00:00,1374A,113.2881,22.8094,佛山市,顺德苏岗,颗粒物(PM10),73,95,76,46,45,187,126,166,166,44,33,10,10,0.8,0.7
2023-03-03T20:00:00,1376A,112.8383,22.8678,佛山市,高明孔堂,颗粒物(PM10),67,84,78,41,46,214,170,194,194,24,24,6,6,0.7,0.6
2023-03-03T20:00:00,1377A,112.8836,23.1588,佛山市,三水监测站,颗粒物(PM10),95,139,108,65,63,237,170,199,199,53,63,8,7,0.8,0.7
2023-03-03T20:00:00,1378A,112.867,23.185,佛山市,三水云东海,颗粒物(PM10),71,92,90,50,61,228,151,189,189,45,48,6,7,0.6,0.6
2023-03-03T20:00:00,1379A,113.3769,22.5211,中山市,华柏园,颗粒物(PM10),63,75,66,36,40,184,135,158,158,34,23,8,8,0.7,0.6
2023-03-03T20:00:00,1380A,113.3881,22.5497,中山市,张溪,细颗粒物(PM2.5),57,60,72,40,43,180,131,155,155,41,32,6,6,0.6,0.5
2023-03-03T20:00:00,1381A,113.4075,22.5111,中山市,紫马岭,颗粒物(PM10),66,81,63,34,38,184,126,154,154,34,21,7,7,0.5,0.5
2023-03-03T20:00:00,1382A,113.4411,22.4853,中山市,长江旅游区,颗粒物(PM10),54,58,56,29,37,180,120,152,152,28,21,11,11,0.4,0.4
2023-03-03T20:00:00,1383A,113.1064,22.6058,江门市,北街,颗粒物(PM10),63,76,74,26,40,246,142,194,194,30,30,9,9,0.6,0.6
2023-03-03T20:00:00,1384A,113.0731,22.5835,江门市,西区,颗粒物(PM10),72,94,85,33,45,236,142,194,193,38,31,8,8,0.6,0.6
2023-03-03T20:00:00,1385A,113.0219,22.5311,江门市,圭峰西,颗粒物(PM10),55,60,71,34,48,196,160,177,177,31,30,6,7,0.6,0.6
2023-03-03T20:00:00,1386A,113.0828,22.5947,江门市,东湖,颗粒物(PM10),65,80,83,29,43,252,152,204,202,30,27,8,8,0.6,0.6
2023-03-03T20:00:00,1389A,113.7547,23.0494,东莞市,莞城梨川,"颗粒物(PM10),细颗粒物(PM2.5)",75,99,95,55,54,272,140,229,226,62,38,12,11,1.0,0.9
2023-03-03T20:00:00,1390A,113.7944,23.0128,东莞市,东城石井,颗粒物(PM10),70,90,87,49,52,270,140,223,220,50,35,13,11,0.8,0.8
2023-03-03T20:00:00,1391A,113.7383,22.9658,东莞市,南城西平,颗粒物(PM10),66,82,98,42,50,260,115,202,197,59,48,12,10,0.5,0.6
2023-03-03T20:00:00,1392A,114.4183,23.0528,惠州市,河南岸金山湖子站,颗粒物(PM10),78,105,91,44,55,152,128,146,146,36,26,6,7,0.6,0.6
2023-03-03T20:00:00,1393A,114.4053,23.0822,惠州市,下埔横江三路子站,颗粒物(PM10),73,96,87,39,53,177,142,166,165,39,26,7,7,0.6,0.6
2023-03-03T20:00:00,1394A,114.4103,23.1142,惠州市,江北云山西路子站,颗粒物(PM10),70,90,86,47,60,178,133,166,166,40,24,7,8,0.6,0.6
2023-03-03T20:00:00,1395A,114.4645,22.7833,惠州市,惠阳区承修路船湖子站,颗粒物(PM10),58,66,79,30,49,180,131,157,157,32,30,6,7,0.7,0.8
2023-03-03T20:00:00,1396A,114.5317,22.7422,惠州市,大亚湾管委会子站,颗粒物(PM10),51,52,88,31,44,129,97,114,114,29,39,6,6,0.5,0.8
2023-03-03T20:00:00,1397A,112.4267,23.0706,肇庆市,睦岗子站,"颗粒物(PM10),细颗粒物(PM2.5)",70,90,90,51,56,191,136,173,171,44,65,15,18,0.7,0.7
2023-03-03T20:00:00,1398A,112.4645,23.0475,肇庆市,城中子站,细颗粒物(PM2.5),92,110,99,68,63,185,162,166,166,30,43,11,20,0.8,0.7
2023-03-03T20:00:00,1399A,112.5544,23.1522,肇庆市,坑口子站,细颗粒物(PM2.5),77,84,78,56,57,196,147,177,177,32,33,10,12,0.6,0.6
2023-03-03T20:00:00,1400A,112.4753,23.1,肇庆市,七星岩子站,,,,,,,,,,,,,,,,
2023-03-03T20:00:00,1401A,108.3103,22.7881,南宁市,二十一中,细颗粒物(PM2.5),119,107,82,90,56,159,62,149,133,29,20,10,10,1.1,0.9
2023-03-03T20:00:00,1402A,108.3141,22.8528,南宁市,北湖,细颗粒物(PM2.5),109,108,92,82,58,146,42,137,117,29,30,14,12,1.0,0.9
2023-03-03T20:00:00,1403A,108.3206,22.8225,南宁市,市监测站,细颗粒物(PM2.5),117,110,86,88,58,150,43,137,120,47,37,13,10,1.0,0.8
2023-03-03T20:00:00,1404A,108.3829,22.8037,南宁市,大自然花园,细颗粒物(PM2.5),137,112,84,104,62,141,68,130,115,28,27,8,8,1.3,1
2023-03-03T20:00:00,1405A,108.4394,22.7904,南宁市,仙葫,细颗粒物(PM2.5),104,108,93,78,62,153,79,143,124,19,33,12,9,1.2,0.9
2023-03-03T20:00:00,1406A,108.2397,22.8467,南宁市,区农职院,细颗粒物(PM2.5),99,85,83,74,52,148,68,139,123,21,32,7,11,1.0,0.9
2023-03-03T20:00:00,1407A,108.3275,22.735,南宁市,英华嘉园,细颗粒物(PM2.5),139,110,94,106,62,148,74,137,124,27,39,8,8,1.2,1
2023-03-03T20:00:00,1408A,108.2257,22.7757,南宁市,沙井镇街道办,细颗粒物(PM2.5),119,93,106,90,61,148,63,137,122,30,50,6,9,1.0,0.9
2023-03-03T20:00:00,1409A,110.576,19.9507,海口市,东寨港,,,,,,,,,,,,,,,,
2023-03-03T20:00:00,1410A,110.3232,20.0574,海口市,海南大学,颗粒物(PM10),54,57,55,32,32,135,111,132,120,10,9,5,5,0.6,0.6
2023-03-03T20:00:00,1411A,110.283,20.0053,海口市,秀英海南医院,颗粒物(PM10),59,67,60,26,30,130,109,128,115,8,9,4,4,0.7,0.7
2023-03-03T20:00:00,1412A,110.338,19.9969,海口市,海南师范大学,颗粒物(PM10),58,66,55,29,31,130,109,130,119,9,9,3,4,0.6,0.6
2023-03-03T20:00:00,1413A,110.33,20.0356,海口市,龙华路环保局宿舍,颗粒物(PM10),56,61,56,25,28,128,110,126,117,6,8,5,6,0.7,0.7
2023-03-03T20:00:00,1414A,106.3787,29.8279,重庆市,缙云山,细颗粒物(PM2.5),70,77,59,51,37,78,73,72,72,30,21,5,6,0.7,0.7
2023-03-03T20:00:00,1416A,106.4213,29.8253,重庆市,天生,细颗粒物(PM2.5),83,100,81,61,64,94,42,75,75,52,33,6,9,0.9,0.8
2023-03-03T20:00:00,1417A,106.6263,29.7228,重庆市,两路,细颗粒物(PM2.5),93,117,81,69,55,80,12,58,53,98,42,8,9,1.4,1
2023-03-03T20:00:00,1418A,106.2953,29.5983,重庆市,虎溪,细颗粒物(PM2.5),83,90,74,61,64,84,23,74,70,70,37,6,7,1.0,0.5
2023-03-03T20:00:00,1419A,106.5777,29.5102,重庆市,南坪,细颗粒物(PM2.5),97,99,95,72,68,85,67,67,67,32,37,7,9,0.6,0.7
2023-03-03T20:00:00,1420A,106.6556,29.6277,重庆市,唐家沱,细颗粒物(PM2.5),85,118,88,63,61,80,16,55,55,95,50,8,7,1.0,1
2023-03-03T20:00:00,1421A,106.6349,29.4906,重庆市,茶园,细颗粒物(PM2.5),95,86,96,71,71,101,33,77,76,63,42,5,7,0.7,0.7
2023-03-03T20:00:00,1422A,106.3754,29.4572,重庆市,白市驿,颗粒物(PM10),108,166,85,55,62,79,75,65,65,29,43,7,9,0.7,0.9
2023-03-03T20:00:00,1425A,106.6205,29.7166,重庆市,空港,细颗粒物(PM2.5),107,90,79,80,60,91,20,67,62,93,43,7,9,1.2,0.9
2023-03-03T20:00:00,1426A,106.4782,29.4875,重庆市,新山村,细颗粒物(PM2.5),113,122,108,85,76,79,13,48,48,97,59,14,10,0.9,0.8
2023-03-03T20:00:00,1427A,106.5616,29.6453,重庆市,礼嘉,细颗粒物(PM2.5),109,105,92,82,59,69,46,58,57,70,48,10,11,1.0,0.9
2023-03-03T20:00:00,1428A,106.4522,29.7091,重庆市,蔡家,细颗粒物(PM2.5),75,89,83,55,55,84,38,69,67,40,28,5,6,0.9,0.9
2023-03-03T20:00:00,1429A,106.5093,29.3917,重庆市,鱼新街,细颗粒物(PM2.5),104,118,105,78,78,86,15,58,58,86,43,10,14,1.3,1
2023-03-03T20:00:00,1431A,103.9728,30.7236,成都市,金泉两河,颗粒物(PM10),68,86,96,47,64,128,60,105,105,46,33,1,2,0.7,0.6
2023-03-03T20:00:00,1432A,104.176,30.6872,成都市,十里店,细颗粒物(PM2.5),79,93,110,58,73,123,98,100,100,33,40,3,4,0.7,0.8
2023-03-03T20:00:00,1433A,104.079,30.5706,成都市,三瓦窑,细颗粒物(PM2.5),75,92,108,55,69,130,88,109,109,52,41,1,2,0.6,0.6
2023-03-03T20:00:00,1434A,104.1114,30.63,成都市,沙河铺,细颗粒物(PM2.5),100,114,105,75,73,126,74,100,100,39,33,4,5,0.6,0.7
2023-03-03T20:00:00,1437A,104.0786,30.6531,成都市,君平街,细颗粒物(PM2.5),98,110,112,73,79,126,91,109,109,50,40,4,4,0.4,0.5
2023-03-03T20:00:00,1438A,103.613,31.0283,成都市,灵岩寺,"颗粒物(PM10),细颗粒物(PM2.5)",59,68,73,42,46,146,146,120,120,18,19,6,9,0.4,0.5
2023-03-03T20:00:00,1439A,106.6899,26.5998,贵阳市,马鞍山,,22,14,29,14,24,83,70,67,67,16,17,5,5,0.8,0.8
2023-03-03T20:00:00,1440A,106.6971,26.5694,贵阳市,市环保站,,35,31,36,24,28,83,71,70,66,32,25,10,6,0.6,0.5
2023-03-03T20:00:00,1441A,106.6243,26.6266,贵阳市,鉴湖路,,31,31,34,14,22,80,70,70,70,21,18,6,5,0.4,0.8
2023-03-03T20:00:00,1442A,106.7487,26.6343,贵阳市,燕子冲,,45,41,41,31,42,76,62,64,62,19,18,5,5,0.5,0.6
2023-03-03T20:00:00,1443A,106.6555,26.4365,贵阳市,碧云窝,,46,46,50,29,32,77,59,70,62,32,25,29,11,0.9,0.8
2023-03-03T20:00:00,1444A,106.694,26.5161,贵阳市,中院村,颗粒物(PM10),52,53,52,28,33,80,46,69,60,47,28,21,13,0.6,0.8
2023-03-03T20:00:00,1445A,106.7109,26.6027,贵阳市,红边门,,34,34,37,22,32,92,77,76,73,29,21,16,11,0.7,0.7
2023-03-03T20:00:00,1446A,106.7164,26.5699,贵阳市,新华路,,45,39,40,31,34,78,59,70,64,31,17,12,6,0.6,0.6
2023-03-03T20:00:00,1447A,106.674,26.5424,贵阳市,太慈桥,,39,39,44,24,25,78,56,68,64,39,24,5,4,0.6,0.6
2023-03-03T20:00:00,1450A,102.8204,24.8886,昆明市,呈贡新区,细颗粒物(PM2.5),65,45,62,47,51,107,55,99,59,18,21,7,9,0.7,0.9
2023-03-03T20:00:00,1451A,102.6251,24.9608,昆明市,西山森林公园,颗粒物(PM10),55,59,58,37,42,124,59,121,80,24,18,6,7,1.1,1.1
2023-03-03T20:00:00,1452A,102.7252,25.0902,昆明市,龙泉镇,细颗粒物(PM2.5),77,74,70,56,49,108,59,93,85,24,38,6,7,0.8,0.9
2023-03-03T20:00:00,1453A,102.7266,25.0375,昆明市,东风东路,细颗粒物(PM2.5),64,72,67,46,50,104,47,74,70,33,28,5,8,1.0,0.9
2023-03-03T20:00:00,1454A,102.6742,25.0669,昆明市,金鼎山,细颗粒物(PM2.5),73,82,76,53,55,118,56,85,85,28,36,3,7,0.9,0.8
2023-03-03T20:00:00,1455A,102.6644,25.0401,昆明市,碧鸡广场,细颗粒物(PM2.5),69,74,71,50,51,106,51,81,80,39,36,4,6,0.8,0.7
2023-03-03T20:00:00,1456A,91.1319,29.6514,拉萨市,八廓街,,29,20,17,18,7,104,90,96,96,12,13,10,4,0.3,0.4
2023-03-03T20:00:00,1457A,91.1221,29.6747,拉萨市,市环保局,,32,17,18,5,9,110,101,103,103,13,16,3,5,0.4,0.5
2023-03-03T20:00:00,1458A,91.0874,29.6475,拉萨市,区监测站,,32,14,15,6,7,112,102,106,106,11,12,6,6,0.2,0.2
2023-03-03T20:00:00,1459A,91.1774,29.6541,拉萨市,西藏大学,,32,16,13,6,6,109,102,103,103,14,12,4,3,0.4,0.5
2023-03-03T20:00:00,1460A,90.9798,29.6588,拉萨市,区辐射站,,37,15,19,5,10,119,118,108,108,4,18,7,7,0.5,0.6
2023-03-03T20:00:00,1461A,91.0834,29.6292,拉萨市,拉萨火车站,,31,21,18,11,8,106,98,99,99,18,15,6,5,0.3,0.4
2023-03-03T20:00:00,1462A,108.882,34.2749,西安市,高压开关厂,颗粒物(PM10),64,78,148,38,61,118,46,105,102,78,58,7,11,0.7,0.7
2023-03-03T20:00:00,1463A,108.993,34.2629,西安市,兴庆小区,颗粒物(PM10),63,75,118,31,52,118,72,101,101,54,54,7,8,4.8,0.6
2023-03-03T20:00:00,1464A,109.06,34.2572,西安市,纺织城,颗粒物(PM10),82,114,141,31,51,112,16,90,84,104,60,5,6,0.7,0.7
2023-03-03T20:00:00,1465A,108.9356,34.2173,西安市,小寨,颗粒物(PM10),69,88,134,31,51,115,35,97,95,87,59,8,9,0.5,0.4
2023-03-03T20:00:00,1466A,108.954,34.2713,西安市,市人民体育场,颗粒物(PM10),68,85,122,29,53,111,56,97,96,55,56,6,8,0.4,0.5
2023-03-03T20:00:00,1467A,108.8922,34.2322,西安市,高新西区,颗粒物(PM10),59,67,116,29,50,123,54,109,106,71,50,9,10,0.7,0.6
2023-03-03T20:00:00,1468A,108.935,34.3474,西安市,经开区,颗粒物(PM10),66,81,135,32,61,114,77,99,99,45,51,6,9,0.5,0.6
2023-03-03T20:00:00,1469A,108.906,34.1546,西安市,长安区,颗粒物(PM10),72,93,140,29,54,119,65,104,103,46,51,8,9,0.5,0.7
2023-03-03T20:00:00,1471A,109.2186,34.3731,西安市,临潼区,颗粒物(PM10),59,68,113,23,37,116,103,106,106,26,31,9,10,0.3,0.4
2023-03-03T20:00:00,1472A,108.869,34.378,西安市,草滩,颗粒物(PM10),76,102,165,24,45,93,12,74,70,103,61,9,15,0.3,0.2
2023-03-03T20:00:00,1473A,108.985,34.1978,西安市,曲江文化产业集团,颗粒物(PM10),63,76,140,30,53,121,59,101,101,68,58,6,7,0.5,0.5
2023-03-03T20:00:00,1474A,109.051,34.3213,西安市,广运潭,细颗粒物(PM2.5),79,102,131,58,59,112,25,94,88,77,58,6,8,0.5,0.9
2023-03-03T20:00:00,1476A,103.631,36.1031,兰州市,兰炼宾馆,颗粒物(PM10),67,84,65,38,34,101,51,92,90,65,29,10,21,0.6,0.5
2023-03-03T20:00:00,1477A,104.1373,35.9454,兰州市,榆中兰大校区,,,,,,,,,,,,,,,,
2023-03-03T20:00:00,1478A,103.8412,36.0726,兰州市,生物制品所,颗粒物(PM10),72,94,73,36,38,107,24,84,80,80,43,10,9,1.1,0.9
2023-03-03T20:00:00,1479A,103.831,36.0464,兰州市,铁路设计院,细颗粒物(PM2.5),63,73,63,45,44,115,24,81,75,89,46,8,14,1.1,1
2023-03-03T20:00:00,1483A,101.524,36.6867,西宁市,第五水厂,,,,,,,,,,,,,,,,
2023-03-03T20:00:00,1484A,105.9512,38.6016,银川市,贺兰山马莲口,颗粒物(PM10),51,51,56,14,13,107,98,107,102,7,9,8,9,0.1,0.1
2023-03-03T20:00:00,1488A,106.2328,38.4975,银川市,贺兰山东路,颗粒物(PM10),76,102,105,29,28,102,59,92,91,53,40,2,4,0.6,0.6
2023-03-03T20:00:00,1489A,106.1358,38.5036,银川市,学院路,颗粒物(PM10),69,87,90,23,24,101,64,93,93,38,37,4,7,0.6,0.6
2023-03-03T20:00:00,1490A,87.5801,43.8303,乌鲁木齐市,监测站,细颗粒物(PM2.5),149,191,211,114,156,75,24,57,56,115,96,10,7,2.1,1.8
2023-03-03T20:00:00,1491A,87.6046,43.768,乌鲁木齐市,收费所,细颗粒物(PM2.5),175,286,260,132,144,85,13,85,34,162,95,12,7,1.8,1.5
2023-03-03T20:00:00,1492A,87.4754,43.9469,乌鲁木齐市,新疆农科院农场,细颗粒物(PM2.5),195,138,128,146,163,104,93,87,87,37,60,9,10,1.4,1.4
2023-03-03T20:00:00,1493A,87.5525,43.8711,乌鲁木齐市,铁路局,细颗粒物(PM2.5),163,160,181,124,155,126,54,89,89,,72,8,7,1.2,1.5
2023-03-03T20:00:00,1494A,87.6432,43.831,乌鲁木齐市,三十一中学,细颗粒物(PM2.5),205,221,217,155,167,83,44,58,58,89,67,10,9,1.5,1.5
2023-03-03T20:00:00,1496A,87.7216,44.1747,乌鲁木齐市,米东区环保局,细颗粒物(PM2.5),212,183,212,162,183,136,130,104,104,31,52,10,10,1.6,1.7
2023-03-03T20:00:00,1508A,112.9433,27.8614,湘潭市,板塘,细颗粒物(PM2.5),138,114,128,105,119,120,65,92,88,29,28,7,8,0.9,0.9
2023-03-03T20:00:00,1511A,112.9118,27.8403,湘潭市,市监测站,,,,123,,114,116,71,97,92,38,32,6,9,1.0,0.8
2023-03-03T20:00:00,1512A,112.8937,27.8728,湘潭市,江麓,细颗粒物(PM2.5),129,104,136,98,120,128,98,120,118,18,22,7,11,0.8,0.8
2023-03-03T20:00:00,1513A,112.9227,27.8159,湘潭市,岳塘,细颗粒物(PM2.5),134,107,137,102,117,123,92,104,103,15,29,6,9,0.7,0.8
2023-03-03T20:00:00,1514A,112.9074,27.9119,湘潭市,科大,细颗粒物(PM2.5),137,116,145,104,122,114,76,101,100,32,33,6,8,1.1,1.1
2023-03-03T20:00:00,1515A,113.135,27.8244,株洲市,天台山庄,细颗粒物(PM2.5),127,114,132,96,108,124,83,114,102,37,37,5,8,1.0,1
2023-03-03T20:00:00,1518A,113.095,27.8867,株洲市,株冶医院,细颗粒物(PM2.5),140,129,138,107,108,116,83,111,100,32,44,4,7,1.0,1
2023-03-03T20:00:00,1519A,113.167,27.8667,株洲市,市四中,细颗粒物(PM2.5),145,122,133,111,110,109,77,91,91,29,37,8,10,1.1,1.1
2023-03-03T20:00:00,1520A,113.143,27.8381,株洲市,火车站,细颗粒物(PM2.5),132,114,132,100,111,112,92,99,99,27,38,5,8,0.9,1
2023-03-03T20:00:00,1524A,113.13,27.8528,株洲市,市监测站,细颗粒物(PM2.5),142,112,135,108,119,117,86,110,96,28,38,4,11,0.9,1
2023-03-03T20:00:00,1552A,106.805,26.3003,贵阳市,桐木岭,,,,,,,,,,,,,,,,
2023-03-03T20:00:00,1559A,113.251,27.8336,株洲市,大京风景区,细颗粒物(PM2.5),129,112,94,98,92,110,35,88,85,8,14,4,5,1.0,0.8
2023-03-03T20:00:00,1562A,113.0048,27.9153,湘潭市,昭山,细颗粒物(PM2.5),144,110,141,110,121,102,53,86,85,47,51,3,4,1.1,1.1
2023-03-03T20:00:00,1564A,112.4876,27.9164,湘潭市,韶山,细颗粒物(PM2.5),80,72,87,59,70,148,69,128,109,18,20,5,7,0.8,0.8
2023-03-03T20:00:00,1585A,109.8756,40.6532,包头市,市环境监测站,颗粒物(PM10),55,59,60,20,23,100,42,85,84,60,44,10,19,0.6,0.9
2023-03-03T20:00:00,1587A,109.9991,40.5842,包头市,包头八中,颗粒物(PM10),60,70,77,24,28,105,25,88,80,76,61,4,20,0.7,1
2023-03-03T20:00:00,1588A,109.8538,40.6821,包头市,青山宾馆,颗粒物(PM10),55,60,59,20,26,96,32,79,76,72,45,6,17,0.6,1.1
2023-03-03T20:00:00,1589A,109.8642,40.6288,包头市,惠龙物流,,27,17,61,13,29,101,48,90,87,54,59,8,22,0.7,1.2
2023-03-03T20:00:00,1590A,110.0377,40.5546,包头市,东河鸿龙湾,颗粒物(PM10),58,65,74,15,29,101,55,92,88,37,46,9,15,0.7,1.1
2023-03-03T20:00:00,1591A,110.0023,39.8129,鄂尔多斯市,综合楼,颗粒物(PM10),51,51,51,14,11,104,81,99,97,23,17,7,7,0.5,0.5
2023-03-03T20:00:00,1592A,109.9486,39.8261,鄂尔多斯市,巴音孟克林场办事处,颗粒物(PM10),53,56,47,17,15,105,77,102,97,22,15,7,8,0.2,0.3
2023-03-03T20:00:00,1593A,109.7736,39.5986,鄂尔多斯市,康泽苑,,31,31,39,12,10,98,76,93,91,25,18,8,9,0.7,0.6
2023-03-03T20:00:00,1594A,109.8119,39.5989,鄂尔多斯市,华泰汽车城,,46,46,41,17,16,104,78,99,96,21,19,7,8,0.4,0.4
2023-03-03T20:00:00,1595A,109.9734,39.7884,鄂尔多斯市,奥林花园,颗粒物(PM10),56,61,56,14,16,106,90,102,99,16,22,5,8,0.3,0.4
2023-03-03T20:00:00,1597A,122.2703,40.7094,营口市,大庆路,细颗粒物(PM2.5),158,156,93,120,69,96,43,84,78,76,42,11,17,1.2,1.3
2023-03-03T20:00:00,1598A,122.2150,40.6511,营口市,镜湖西路,细颗粒物(PM2.5),152,217,140,116,68,104,69,95,93,58,36,11,14,1.2,1
2023-03-03T20:00:00,1599A,122.1658,40.6789,营口市,西炮台,细颗粒物(PM2.5),150,200,113,115,57,105,31,94,85,111,44,21,18,1.1,0.9
2023-03-03T20:00:00,1600A,124.3303,40.0625,丹东市,江湾东路,细颗粒物(PM2.5),128,178,76,97,37,105,49,95,85,58,19,34,17,1.4,0.8
2023-03-03T20:00:00,1601A,124.4256,40.1503,丹东市,临江后街,细颗粒物(PM2.5),110,149,62,83,30,107,60,99,94,33,16,20,15,1.6,0.7
2023-03-03T20:00:00,1602A,124.3933,40.1461,丹东市,元宝山,颗粒物(PM10),71,92,61,51,29,98,84,88,88,23,19,16,16,0.9,0.8
2023-03-03T20:00:00,1603A,124.3633,40.1092,丹东市,民主桥,细颗粒物(PM2.5),176,250,69,133,30,103,14,91,79,85,25,15,13,2.0,0.8
2023-03-03T20:00:00,1604A,122.0303,41.1489,盘锦市,开发区,细颗粒物(PM2.5),275,192,93,225,70,102,22,90,76,111,43,18,13,2.6,1
2023-03-03T20:00:00,1605A,122.0485,41.0883,盘锦市,兴隆台,细颗粒物(PM2.5),182,168,89,137,59,103,14,80,69,119,46,17,14,1.1,0.9
2023-03-03T20:00:00,1606A,121.8297,41.1028,盘锦市,新生街道,细颗粒物(PM2.5),148,128,84,113,61,112,39,96,89,101,48,13,12,0.9,0.8
2023-03-03T20:00:00,1607A,120.9092,40.7136,葫芦岛市,龙港区,细颗粒物(PM2.5),200,154,126,150,79,86,17,68,63,68,48,28,85,1.9,1.1
2023-03-03T20:00:00,1608A,120.8392,40.7514,葫芦岛市,化工街,细颗粒物(PM2.5),192,222,156,144,82,76,15,62,59,104,75,21,32,1.6,1.3
2023-03-03T20:00:00,1609A,120.8341,40.7073,葫芦岛市,新区,细颗粒物(PM2.5),137,121,121,104,77,85,17,64,60,83,67,12,52,1.3,1.2
2023-03-03T20:00:00,1610A,120.8695,40.7677,葫芦岛市,东城区,细颗粒物(PM2.5),229,172,137,179,98,84,16,60,54,84,67,21,28,2.0,1.5
2023-03-03T20:00:00,1611A,118.5819,24.9117,泉州市,涂山街,颗粒物(PM10),52,53,53,22,27,157,118,143,141,24,20,10,10,0.5,0.5
2023-03-03T20:00:00,1612A,118.5972,24.8978,泉州市,津头埔,颗粒物(PM10),51,52,53,24,27,154,107,141,132,31,25,9,10,0.5,0.5
2023-03-03T20:00:00,1613A,118.6663,24.9424,泉州市,万安,颗粒物(PM10),51,51,52,25,30,165,127,148,147,21,20,8,9,0.5,0.5
2023-03-03T20:00:00,1614A,118.6117,24.9604,泉州市,清源山,,,,,,,,,,,,,,,,
2023-03-03T20:00:00,1616A,117.6795,36.229,济南市,技术学院,细颗粒物(PM2.5),103,151,118,77,59,157,133,146,146,44,44,17,14,1.0,0.9
2023-03-03T20:00:00,1618A,118.3429,35.0532,临沂市,沂河小区,细颗粒物(PM2.5),85,110,118,63,62,141,102,124,124,34,42,12,22,0.4,0.4
2023-03-03T20:00:00,1619A,118.295,35.0583,临沂市,鲁南制药厂,颗粒物(PM10),78,105,109,54,59,154,115,136,136,40,44,14,20,0.5,0.4
2023-03-03T20:00:00,1620A,118.2794,34.9976,临沂市,新光毛纺厂,颗粒物(PM10),84,117,118,60,62,148,99,129,128,46,45,15,21,0.6,0.5
2023-03-03T20:00:00,1621A,118.3956,35.0888,临沂市,河东保险公司,细颗粒物(PM2.5),80,100,110,59,70,153,115,135,135,36,43,13,23,0.7,0.7
2023-03-03T20:00:00,1622A,116.3032,37.4674,德州市,儿童乐园,细颗粒物(PM2.5),98,141,129,73,70,117,84,104,104,52,33,12,11,0.8,0.7
2023-03-03T20:00:00,1624A,116.2991,37.4451,德州市,监理站,颗粒物(PM10),95,139,137,63,75,114,83,101,100,67,38,10,12,0.7,0.7
2023-03-03T20:00:00,1625A,115.9848,36.4372,聊城市,区政府,细颗粒物(PM2.5),127,185,145,96,79,125,55,112,108,77,31,14,14,1.1,0.8
2023-03-03T20:00:00,1628A,118.0062,37.3803,滨州市,市环保局,细颗粒物(PM2.5),125,179,136,95,66,125,54,113,105,74,45,15,13,1.2,0.7
2023-03-03T20:00:00,1629A,118.0018,37.3617,滨州市,第二水厂,颗粒物(PM10),111,171,142,78,64,129,75,118,113,55,63,12,12,0.9,0.7
2023-03-03T20:00:00,1630A,117.9776,37.393,滨州市,北中新校,细颗粒物(PM2.5),104,152,126,78,57,126,51,115,98,89,46,10,14,1.1,0.7
2023-03-03T20:00:00,1631A,118.0414,36.8103,淄博市,人民公园,细颗粒物(PM2.5),115,163,119,87,65,137,69,126,119,78,37,19,16,1.0,0.7
2023-03-03T20:00:00,1633A,117.8525,36.4847,淄博市,双山,细颗粒物(PM2.5),120,138,107,91,58,145,92,132,130,51,30,20,18,1.0,0.8
2023-03-03T20:00:00,1634A,117.9592,36.6331,淄博市,气象站,细颗粒物(PM2.5),110,160,124,83,51,149,98,136,133,58,32,21,18,0.8,0.6
2023-03-03T20:00:00,1635A,118.3092,36.8194,淄博市,莆田园,颗粒物(PM10),103,156,125,75,55,143,107,131,128,42,27,17,18,1.2,1.3
2023-03-03T20:00:00,1637A,117.558,34.8438,枣庄市,市中区政府,细颗粒物(PM2.5),89,122,125,66,60,150,100,132,132,44,51,10,14,0.8,0.8
2023-03-03T20:00:00,1638A,117.2852,34.7837,枣庄市,薛城环保局,细颗粒物(PM2.5),110,132,115,83,63,155,101,129,129,60,52,15,17,0.9,0.9
2023-03-03T20:00:00,1639A,117.5852,34.7745,枣庄市,峄城区政府,颗粒物(PM10),96,141,121,68,52,144,77,127,123,51,45,13,16,0.7,0.5
2023-03-03T20:00:00,1640A,117.7276,34.5578,枣庄市,台儿庄区环保局,颗粒物(PM10),89,127,109,58,53,137,47,123,111,91,55,11,11,1.1,1
2023-03-03T20:00:00,1641A,117.4518,35.0992,枣庄市,山亭区环保局,细颗粒物(PM2.5),104,134,107,78,53,152,109,136,136,54,34,14,17,0.9,0.8
2023-03-03T20:00:00,1642A,121.2514,37.5639,烟台市,开发区,细颗粒物(PM2.5),83,107,88,61,41,123,68,106,103,60,42,12,12,0.9,0.7
2023-03-03T20:00:00,1643A,121.3719,37.5433,烟台市,轴承厂,细颗粒物(PM2.5),82,95,81,60,46,145,99,128,127,28,26,8,8,0.7,0.6
2023-03-03T20:00:00,1644A,121.3181,37.5436,烟台市,西郊化工站,颗粒物(PM10),76,102,90,48,40,143,103,129,127,29,25,9,9,1.0,1
2023-03-03T20:00:00,1645A,121.4478,37.4822,烟台市,莱山环保局,细颗粒物(PM2.5),78,97,84,57,40,140,60,119,114,45,24,10,12,1.4,1
2023-03-03T20:00:00,1646A,121.2611,37.4967,烟台市,福山环保局,颗粒物(PM10),95,139,97,68,40,127,60,116,108,61,37,10,10,1.2,1
2023-03-03T20:00:00,1650A,119.1437,36.7023,潍坊市,环保局,细颗粒物(PM2.5),119,163,114,90,60,124,86,114,112,61,48,11,10,0.9,0.8
2023-03-03T20:00:00,1653A,116.6251,35.4302,济宁市,火炬城,,,104,87,70,60,169,130,149,149,29,33,10,12,,0.8
2023-03-03T20:00:00,1655A,116.5491,35.4042,济宁市,电化厂,细颗粒物(PM2.5),100,126,101,75,68,160,103,142,141,46,25,7,12,0.7,0.7
2023-03-03T20:00:00,1656A,117.1437,36.1937,泰安市,监测站,细颗粒物(PM2.5),127,146,113,96,74,139,82,128,124,57,28,7,8,1.1,0.8
2023-03-03T20:00:00,1657A,117.0885,36.2017,泰安市,人口学校,细颗粒物(PM2.5),118,139,111,89,61,156,120,149,142,35,24,12,13,,1
2023-03-03T20:00:00,1658A,117.1089,36.1758,泰安市,电力学校,细颗粒物(PM2.5),142,168,112,108,69,142,65,131,124,79,35,20,17,1.3,0.8
2023-03-03T20:00:00,1659A,119.471,35.4209,日照市,监测站,细颗粒物(PM2.5),92,122,109,68,53,111,59,102,98,79,56,12,16,0.9,1
2023-03-03T20:00:00,1660A,119.523,35.4216,日照市,市政府广场,颗粒物(PM10),90,129,110,63,55,91,59,76,71,69,55,8,13,0.8,1.1
2023-03-03T20:00:00,1661A,119.5587,35.4044,日照市,港务局,颗粒物(PM10),86,122,117,63,52,92,84,75,75,60,70,10,16,0.6,0.9
2023-03-03T20:00:00,1662A,122.1214,37.4236,威海市,华夏技校,颗粒物(PM10),65,80,67,44,30,130,50,107,97,60,22,5,3,0.6,0.4
2023-03-03T20:00:00,1663A,122.0508,37.5236,威海市,山大分校,颗粒物(PM10),70,90,77,46,29,135,98,118,116,33,19,6,5,0.6,0.3
2023-03-03T20:00:00,1664A,122.1067,37.5072,威海市,市监测站,颗粒物(PM10),70,90,71,49,31,144,58,129,113,59,28,7,6,1.0,0.6
2023-03-03T20:00:00,1666A,118.6614,37.4309,东营市,市环保局,细颗粒物(PM2.5),100,144,131,75,61,145,96,129,126,50,50,18,19,0.9,0.9
2023-03-03T20:00:00,1669A,113.5824,24.7733,韶关市,市八中,细颗粒物(PM2.5),78,67,70,57,45,142,101,121,118,14,26,15,19,0.7,0.6
2023-03-03T20:00:00,1671A,113.5917,24.7972,韶关市,园林处,细颗粒物(PM2.5),75,69,66,55,47,135,100,117,115,10,21,14,21,0.8,0.8
2023-03-03T20:00:00,1672A,113.6735,24.7791,韶关市,韶关学院,细颗粒物(PM2.5),82,60,73,60,54,154,98,128,123,16,28,17,19,0.7,0.8
2023-03-03T20:00:00,1673A,113.5971,24.6863,韶关市,曲江监测站,细颗粒物(PM2.5),87,70,70,64,49,156,106,137,132,16,34,14,15,0.7,0.7
2023-03-03T20:00:00,1674A,116.6794,23.3667,汕头市,金平子站,,36,36,53,15,26,151,110,139,136,18,20,11,14,0.6,0.6
2023-03-03T20:00:00,1675A,116.7244,23.3633,汕头市,龙湖子站,,42,42,56,18,22,153,113,140,136,17,21,3,5,0.5,0.5
2023-03-03T20:00:00,1676A,116.7258,23.2775,汕头市,濠江子站,,35,29,45,17,20,149,112,136,131,16,17,9,11,0.6,0.5
2023-03-03T20:00:00,1677A,116.7519,23.4714,汕头市,澄海子站,,35,34,53,15,28,154,111,144,139,18,23,4,10,0.6,0.6
2023-03-03T20:00:00,1678A,116.6092,23.2539,汕头市,潮阳子站,,40,40,49,9,15,126,107,118,118,13,17,6,7,0.5,0.6
2023-03-03T20:00:00,1680A,110.3539,21.2706,湛江市,湛江影剧院,颗粒物(PM10),54,57,60,27,33,147,113,143,126,14,11,6,6,0.6,0.6
2023-03-03T20:00:00,1681A,110.3928,21.2228,湛江市,市环境监测站,颗粒物(PM10),56,62,60,24,36,145,116,138,125,10,11,6,7,0.5,0.6
2023-03-03T20:00:00,1682A,110.4019,21.1997,湛江市,环保局宿舍,颗粒物(PM10),54,58,57,28,37,157,123,148,132,9,10,5,5,0.5,0.6
2023-03-03T20:00:00,1683A,110.4111,21.2028,湛江市,霞山游泳场,颗粒物(PM10),52,53,59,26,37,164,129,150,136,8,11,4,4,0.5,0.5
2023-03-03T20:00:00,1684A,110.3316,21.2679,湛江市,麻章区环保局,颗粒物(PM10),56,61,62,35,38,153,113,149,129,16,13,6,6,0.5,0.5
2023-03-03T20:00:00,1685A,110.4558,21.2567,湛江市,坡头区环保局,颗粒物(PM10),55,60,57,30,38,152,123,143,132,8,10,7,7,0.6,0.6
2023-03-03T20:00:00,1686A,111.0286,21.4688,茂名市,电白南海,,,,81,,40,166,,153,137,,16,,9,,0.6
2023-03-03T20:00:00,1687A,110.9294,21.6533,茂名市,茂石化七小,颗粒物(PM10),68,85,76,41,45,150,127,140,137,14,14,7,9,0.6,0.6
2023-03-03T20:00:00,1688A,110.9107,21.6687,茂名市,健康路,颗粒物(PM10),62,73,70,33,38,148,124,142,136,15,14,8,8,0.6,0.6
2023-03-03T20:00:00,1689A,110.8592,21.6828,茂名市,高岭,颗粒物(PM10),70,90,80,46,49,149,117,144,137,17,18,10,13,0.6,0.7
2023-03-03T20:00:00,1690A,116.1231,24.3284,梅州市,梅江月梅,细颗粒物(PM2.5),59,65,65,42,50,149,115,138,137,22,18,8,9,0.6,0.6
2023-03-03T20:00:00,1691A,116.0797,24.2719,梅州市,梅县新城,细颗粒物(PM2.5),98,105,85,73,60,143,52,132,119,69,35,7,11,1.1,0.8
2023-03-03T20:00:00,1692A,116.1248,24.2654,梅州市,环境监控中心,细颗粒物(PM2.5),84,84,76,62,58,146,85,132,127,48,26,8,11,0.8,0.8
2023-03-03T20:00:00,1693A,115.3653,22.775,汕尾市,市环保局,,37,37,60,18,32,154,114,137,136,15,16,8,11,0.4,0.6
2023-03-03T20:00:00,1694A,115.3706,22.7898,汕尾市,市政府,,40,31,73,15,38,155,127,143,142,15,19,9,11,0.3,0.4
2023-03-03T20:00:00,1695A,115.3622,22.7925,汕尾市,新城中学,,41,41,72,20,37,152,120,136,136,14,17,8,9,0.4,0.5
2023-03-03T20:00:00,1696A,114.6778,23.7569,河源市,源西,细颗粒物(PM2.5),83,100,81,61,44,168,84,157,144,54,24,6,7,1.0,0.8
2023-03-03T20:00:00,1697A,114.6944,23.7586,河源市,东埔,细颗粒物(PM2.5),92,107,91,68,60,173,121,159,157,33,26,6,7,1.1,0.8
2023-03-03T20:00:00,1698A,114.6892,23.7233,河源市,老城,细颗粒物(PM2.5),93,105,103,69,56,178,120,160,157,19,27,5,6,0.9,0.8
2023-03-03T20:00:00,1699A,111.9797,21.8593,阳江市,鸳鸯湖,,50,32,57,27,43,163,159,150,150,8,14,8,8,0.6,0.7
2023-03-03T20:00:00,1701A,111.9491,21.8658,阳江市,马南垌,颗粒物(PM10),60,70,78,26,38,163,157,149,149,12,18,6,7,0.5,0.6
2023-03-03T20:00:00,1702A,113.0426,23.691,清远市,环保大楼,细颗粒物(PM2.5),132,120,91,100,78,244,198,210,210,40,38,10,10,1.0,0.9
2023-03-03T20:00:00,1703A,113.0208,23.7106,清远市,凤城街办,细颗粒物(PM2.5),110,130,97,83,65,196,166,174,174,34,32,11,10,0.8,0.7
2023-03-03T20:00:00,1705A,116.6367,23.6719,潮州市,西园路,细颗粒物(PM2.5),64,66,66,46,44,157,130,142,142,25,19,5,5,0.4,0.4
2023-03-03T20:00:00,1706A,116.6447,23.6706,潮州市,档案局,颗粒物(PM10),56,62,66,38,40,175,123,150,150,26,21,10,11,0.4,0.4
2023-03-03T20:00:00,1708A,116.3701,23.5345,揭阳市,新兴,颗粒物(PM10),53,56,69,24,39,171,113,141,141,17,23,8,15,0.5,0.6
2023-03-03T20:00:00,1709A,116.3264,23.5443,揭阳市,西马,颗粒物(PM10),58,66,78,22,40,183,118,152,150,19,24,9,14,0.5,0.6
2023-03-03T20:00:00,1710A,116.3611,23.5626,揭阳市,东兴,颗粒物(PM10),62,74,75,23,36,200,123,166,165,29,28,9,15,1.0,0.7
2023-03-03T20:00:00,1711A,116.4151,23.5294,揭阳市,渔湖,颗粒物(PM10),58,65,69,33,41,185,111,149,147,23,25,12,17,0.7,0.6
2023-03-03T20:00:00,1712A,112.0392,22.9169,云浮市,新市府,细颗粒物(PM2.5),80,79,62,59,51,157,125,142,142,31,18,13,4,1.0,0.8
2023-03-03T20:00:00,1714A,112.0539,22.9539,云浮市,牧羊,细颗粒物(PM2.5),100,94,89,75,59,160,112,146,145,39,35,18,12,0.8,0.8
2023-03-03T20:00:00,1715A,102.575,24.3711,玉溪市,东风水库,细颗粒物(PM2.5),64,58,64,46,52,121,68,105,101,12,16,8,9,1.0,1
2023-03-03T20:00:00,1718A,115.4208,35.2464,菏泽市,气象局,颗粒物(PM10),106,161,146,69,80,142,117,130,130,36,34,12,21,0.6,0.6
2023-03-03T20:00:00,1719A,115.4747,35.2375,菏泽市,市政协,颗粒物(PM10),92,133,138,53,73,155,140,144,144,44,36,10,17,0.8,0.7
2023-03-03T20:00:00,1721A,113.3819,40.1097,大同市,果树场,,,,,,,,,,,,,,,,
2023-03-03T20:00:00,1723A,113.2994,40.0758,大同市,云冈宾馆,颗粒物(PM10),54,57,92,8,35,106,53,92,91,55,48,16,26,0.3,1
2023-03-03T20:00:00,1724A,113.3444,40.0917,大同市,大同大学,,38,38,66,21,28,100,54,93,91,53,33,10,31,0.8,1
2023-03-03T20:00:00,1725A,113.2661,40.1269,大同市,安家小村,,50,50,104,22,39,101,86,90,90,9,34,5,23,0.3,1.7
2023-03-03T20:00:00,1726A,113.2711,40.0844,大同市,教育学院,,47,47,90,19,34,91,58,82,80,36,45,17,27,0.3,1.2
2023-03-03T20:00:00,1727A,113.1147,36.1547,长治市,清华站,颗粒物(PM10),63,75,92,17,45,118,77,104,102,25,34,6,14,0.6,1
2023-03-03T20:00:00,1728A,113.1031,36.1989,长治市,监测站,颗粒物(PM10),60,70,81,17,44,112,76,100,98,22,28,3,11,0.7,1.3
2023-03-03T20:00:00,1730A,113.0886,36.2125,长治市,审计局,颗粒物(PM10),56,62,79,17,45,113,79,102,101,20,30,6,13,0.2,0.8
2023-03-03T20:00:00,1731A,113.0844,36.1856,长治市,长治八中,颗粒物(PM10),68,86,100,26,41,115,76,102,100,17,25,4,12,0.5,1
2023-03-03T20:00:00,1733A,111.5531,36.0783,临汾市,临钢医院,颗粒物(PM10),70,89,124,27,52,104,52,87,87,35,40,2,9,0.4,1
2023-03-03T20:00:00,1734A,111.5028,36.0714,临汾市,技工学校,颗粒物(PM10),71,91,124,34,54,106,80,92,92,27,50,3,11,0.3,1
2023-03-03T20:00:00,1736A,111.5018,36.0855,临汾市,市委,颗粒物(PM10),70,90,126,29,51,112,84,97,97,25,51,3,7,0.5,1.2
2023-03-03T20:00:00,1738A,113.5758,37.8572,阳泉市,市中心,颗粒物(PM10),55,59,81,23,30,99,56,90,88,43,49,9,18,0.7,0.7
2023-03-03T20:00:00,1739A,113.4894,37.8731,阳泉市,赛鱼,颗粒物(PM10),61,71,88,21,33,99,14,87,76,86,59,9,20,0.6,0.7
2023-03-03T20:00:00,1740A,113.5819,37.8486,阳泉市,南庄,颗粒物(PM10),64,77,86,31,34,101,68,93,92,34,45,11,22,0.6,0.9
2023-03-03T20:00:00,1742A,113.5614,37.8703,阳泉市,平坦,颗粒物(PM10),55,60,83,20,31,103,50,95,92,61,55,11,19,0.7,0.6
2023-03-03T20:00:00,1743A,113.5158,37.8392,阳泉市,大阳泉,,44,44,61,30,30,101,81,93,93,31,32,12,16,0.4,0.6
2023-03-03T20:00:00,1744A,118.9233,42.2816,赤峰市,松山一中,颗粒物(PM10),61,72,61,28,21,86,34,73,68,59,41,15,14,1.0,0.9
2023-03-03T20:00:00,1745A,118.9576,42.2728,赤峰市,哈达街,颗粒物(PM10),76,102,59,47,19,80,35,69,59,56,38,20,22,0.8,0.8
2023-03-03T20:00:00,1746A,118.8788,42.2554,赤峰市,天义路,颗粒物(PM10),60,69,56,22,14,87,27,72,67,66,36,21,16,0.8,0.8
2023-03-03T20:00:00,1748A,123.044,41.1196,鞍山市,深沟寺,细颗粒物(PM2.5),95,110,72,71,31,98,55,85,83,46,25,22,17,1.1,0.8
2023-03-03T20:00:00,1749A,123.011,41.0931,鞍山市,太阳城,细颗粒物(PM2.5),112,155,75,84,32,97,41,86,78,63,31,19,16,1.5,1.1
2023-03-03T20:00:00,1750A,123.0485,41.1442,鞍山市,太平,细颗粒物(PM2.5),169,222,92,128,41,86,20,74,67,95,37,24,23,2.3,1.1
2023-03-03T20:00:00,1751A,122.9642,41.0971,鞍山市,铁西三道街,细颗粒物(PM2.5),179,246,96,135,39,89,24,75,64,85,46,25,18,1.8,1.4
2023-03-03T20:00:00,1752A,122.9341,41.0833,鞍山市,铁西工业园区,细颗粒物(PM2.5),244,319,106,194,47,81,20,68,59,99,52,28,22,2.0,1.3
2023-03-03T20:00:00,1753A,123.022,41.0821,鞍山市,明达新区,细颗粒物(PM2.5),105,117,73,79,31,100,46,90,79,55,31,16,14,1.4,1
2023-03-03T20:00:00,1754A,123.1289,41.0228,鞍山市,千山,,,,,,,,,,,,,,,,
2023-03-03T20:00:00,1755A,123.7977,41.8491,抚顺市,望花区,细颗粒物(PM2.5),103,83,92,77,54,86,36,72,68,54,47,12,22,1.3,1.6
2023-03-03T20:00:00,1756A,123.9161,41.8822,抚顺市,顺城区,细颗粒物(PM2.5),113,139,86,85,42,112,9,97,78,76,44,16,18,1.4,1.2
2023-03-03T20:00:00,1757A,124.0436,41.8611,抚顺市,东洲区,细颗粒物(PM2.5),80,91,87,59,43,134,84,111,107,25,25,20,21,1.0,1.1
2023-03-03T20:00:00,1758A,123.9247,41.8642,抚顺市,新抚区,,,140,92,100,50,93,7,81,65,98,43,15,14,1.5,1.2
2023-03-03T20:00:00,1759A,124.0972,41.8961,抚顺市,大伙房水库,细颗粒物(PM2.5),152,127,76,116,42,137,65,125,120,60,20,16,11,1.4,0.9
2023-03-03T20:00:00,1760A,123.7086,41.8391,抚顺市,沈抚新城,细颗粒物(PM2.5),94,92,89,70,48,91,33,84,76,61,42,15,22,1.0,1.2
2023-03-03T20:00:00,1761A,123.8275,41.3064,本溪市,大峪,颗粒物(PM10),51,52,63,30,26,82,58,72,72,25,30,9,12,1.0,1.1
2023-03-03T20:00:00,1762A,123.7567,41.3325,本溪市,溪湖,细颗粒物(PM2.5),107,103,83,80,41,89,17,77,70,72,52,26,45,1.4,2.2
2023-03-03T20:00:00,1763A,123.7169,41.3094,本溪市,彩屯,细颗粒物(PM2.5),87,108,97,64,53,85,31,61,60,53,52,18,50,1.3,2.3
2023-03-03T20:00:00,1764A,123.7669,41.2864,本溪市,东明,细颗粒物(PM2.5),79,97,68,58,29,80,9,64,57,94,48,12,21,1.5,1.1
2023-03-03T20:00:00,1765A,123.7992,41.2664,本溪市,新立屯,颗粒物(PM10),52,53,64,32,31,81,15,65,44,70,41,9,16,0.8,1.1
2023-03-03T20:00:00,1766A,123.8142,41.3472,本溪市,威宁,颗粒物(PM10),77,103,71,51,29,83,10,72,59,76,36,9,9,1.3,0.9
2023-03-03T20:00:00,1767A,121.1115,41.0879,锦州市,南山,细颗粒物(PM2.5),196,164,131,147,86,111,56,93,92,79,63,15,22,1.0,1.2
2023-03-03T20:00:00,1768A,121.0533,40.8434,锦州市,开发区,细颗粒物(PM2.5),148,125,126,113,86,84,,68,68,,64,10,22,1.0,1.1
2023-03-03T20:00:00,1769A,121.1836,41.1119,锦州市,百股街道,细颗粒物(PM2.5),216,204,156,166,84,105,29,85,78,104,68,18,31,1.7,1.4
2023-03-03T20:00:00,1770A,121.1178,41.1222,锦州市,天安街道,细颗粒物(PM2.5),195,166,148,146,89,101,75,87,87,59,65,16,29,1.5,1.6
2023-03-03T20:00:00,1771A,121.1303,41.1386,锦州市,北湖公园,细颗粒物(PM2.5),168,148,134,127,84,101,69,86,86,65,59,17,29,1.3,1.4
2023-03-03T20:00:00,1772A,126.54,43.8622,吉林市,哈达湾,颗粒物(PM10),52,54,69,25,26,98,83,87,87,19,24,7,11,0.5,0.8
2023-03-03T20:00:00,1773A,126.5844,43.8358,吉林市,东局子,细颗粒物(PM2.5),87,122,68,64,30,95,50,80,78,45,29,12,12,1.2,0.9
2023-03-03T20:00:00,1774A,126.5052,43.8245,吉林市,电力学院,颗粒物(PM10),60,69,80,38,33,102,72,89,86,31,25,10,13,0.8,1.1
2023-03-03T20:00:00,1775A,126.6133,43.8972,吉林市,江北,,39,39,82,25,32,96,90,90,90,11,23,8,17,0.6,1
2023-03-03T20:00:00,1776A,126.555,43.8306,吉林市,江南公园,颗粒物(PM10),63,76,71,42,32,90,54,79,76,49,31,13,10,0.8,0.9
2023-03-03T20:00:00,1778A,126.7061,43.7133,吉林市,丰满,,,,,,,,,,,,,,,,
2023-03-03T20:00:00,1779A,123.9305,47.3636,齐齐哈尔市,安居小区,,46,46,37,30,24,100,88,90,90,15,18,7,6,0.5,0.5
2023-03-03T20:00:00,1780A,123.9488,47.3386,齐齐哈尔市,中心广场,,44,44,36,18,14,88,70,79,73,22,24,5,6,0.4,0.4
2023-03-03T20:00:00,1781A,123.9483,47.3227,齐齐哈尔市,农牧车辆厂,,36,36,36,10,12,79,73,75,75,15,25,5,6,0.4,0.4
2023-03-03T20:00:00,1783A,123.945,47.2988,齐齐哈尔市,市环境监测站,,40,40,34,24,26,90,79,83,83,14,20,8,8,0.3,0.3
2023-03-03T20:00:00,1784A,129.61,44.561,牡丹江市,环保大楼,,41,41,34,21,19,92,63,88,83,28,15,4,5,0.4,0.3
2023-03-03T20:00:00,1785A,129.6115,44.5782,牡丹江市,文化广场,,42,35,40,29,24,87,62,81,78,31,22,3,4,0.5,0.4
2023-03-03T20:00:00,1786A,129.5904,44.5963,牡丹江市,第一医院,,43,41,41,30,27,94,78,88,82,14,19,3,4,0.3,0.4
2023-03-03T20:00:00,1787A,129.6364,44.6075,牡丹江市,机车工厂,颗粒物(PM10),82,113,58,30,29,91,42,84,80,35,25,4,3,0.6,0.4
2023-03-03T20:00:00,1788A,129.6386,44.5462,牡丹江市,第一中学,,43,42,36,30,21,92,26,89,79,50,17,4,4,0.6,0.3
2023-03-03T20:00:00,1789A,124.81117,46.03138,大庆市,大同区,细颗粒物(PM2.5),64,65,63,46,37,97,55,84,79,32,31,12,8,0.9,0.8
2023-03-03T20:00:00,1790A,125.129,46.533,大庆市,龙凤区,细颗粒物(PM2.5),52,51,53,36,29,86,67,82,77,20,25,12,12,0.6,0.6
2023-03-03T20:00:00,1791A,124.902,46.408,大庆市,红岗区,细颗粒物(PM2.5),55,44,43,39,27,101,70,96,92,30,26,12,10,0.5,0.6
2023-03-03T20:00:00,1792A,125.153,46.586,大庆市,萨尔图区,,38,37,40,26,24,83,71,78,75,19,20,8,8,0.5,0.4
2023-03-03T20:00:00,1793A,124.9042,46.6215,大庆市,让胡路区,,42,28,39,29,20,95,79,91,89,27,31,6,6,0.4,0.6
2023-03-03T20:00:00,1794A,118.3606,31.3519,芜湖市,监测站,细颗粒物(PM2.5),75,90,98,55,61,139,85,120,120,83,49,9,12,0.7,0.7
2023-03-03T20:00:00,1795A,118.3714,31.4134,芜湖市,科创中心,细颗粒物(PM2.5),98,113,110,73,74,131,22,110,101,132,62,7,9,0.6,0.8
2023-03-03T20:00:00,1796A,118.3673,31.3131,芜湖市,四水厂,细颗粒物(PM2.5),77,99,105,56,62,141,100,127,127,58,40,10,11,0.5,0.6
2023-03-03T20:00:00,1798A,118.5092,31.6837,马鞍山市,湖东路四小,细颗粒物(PM2.5),82,100,72,60,55,128,75,114,111,68,41,10,11,1.0,0.8
2023-03-03T20:00:00,1799A,118.5024,31.6449,马鞍山市,开发区,细颗粒物(PM2.5),89,99,94,66,57,126,63,115,111,75,59,9,11,0.7,0.9
2023-03-03T20:00:00,1800A,118.5228,31.7231,马鞍山市,慈湖,细颗粒物(PM2.5),87,82,85,64,55,121,89,110,110,53,42,10,15,1.0,0.7
2023-03-03T20:00:00,1802A,118.6245,31.7241,马鞍山市,濮塘,细颗粒物(PM2.5),62,58,81,44,42,121,114,113,113,17,25,5,7,0.8,0.9
2023-03-03T20:00:00,1803A,115.9872,29.6815,九江市,十里,细颗粒物(PM2.5),82,95,90,60,52,110,52,96,76,68,52,9,12,0.9,0.9
2023-03-03T20:00:00,1804A,115.9584,29.7046,九江市,茅山头,细颗粒物(PM2.5),80,80,86,59,56,104,75,103,77,45,48,12,13,0.6,0.7
2023-03-03T20:00:00,1805A,115.9877,29.7295,九江市,西园,细颗粒物(PM2.5),78,76,80,57,55,106,59,93,62,55,57,9,11,0.7,0.8
2023-03-03T20:00:00,1806A,116.0172,29.6547,九江市,五七二七厂,细颗粒物(PM2.5),68,77,75,49,69,118,74,102,84,32,35,8,13,0.6,0.9
2023-03-03T20:00:00,1808A,115.9114,29.6038,九江市,综合工业园,,,,74,,59,126,,98,98,63,49,,13,,1.2
2023-03-03T20:00:00,1809A,116.0721,29.7535,九江市,石化总厂,细颗粒物(PM2.5),72,88,86,52,51,104,70,90,90,51,54,13,14,0.8,0.9
2023-03-03T20:00:00,1810A,115.9773,29.5698,九江市,庐山气象台,细颗粒物(PM2.5),74,70,41,54,32,133,133,117,117,19,16,8,7,0.5,0.2
2023-03-03T20:00:00,1812A,112.3931,34.6516,洛阳市,市委党校,,,133,123,36,49,108,,97,97,51,32,7,10,0.8,0.7
2023-03-03T20:00:00,1814A,112.4657,34.6871,洛阳市,豫西宾馆,颗粒物(PM10),85,120,134,42,61,117,91,103,103,34,45,7,8,0.6,0.8
2023-03-03T20:00:00,1815A,112.494,34.6886,洛阳市,河南林校,颗粒物(PM10),94,138,126,44,60,117,91,105,105,27,44,6,6,0.6,0.7
2023-03-03T20:00:00,1816A,112.3844,34.623,洛阳市,开发区管委会,颗粒物(PM10),79,108,114,38,56,115,82,107,107,37,31,7,8,0.4,0.4
2023-03-03T20:00:00,1817A,112.4267,34.6258,洛阳市,市委新办公区,颗粒物(PM10),81,111,112,46,61,115,82,106,106,39,29,5,7,0.5,0.5
2023-03-03T20:00:00,1818A,114.4839,36.0621,安阳市,棉研所,,,,,,,,,,,,,,,,
2023-03-03T20:00:00,1819A,114.3551,36.1017,安阳市,红庙街,颗粒物(PM10),77,103,121,54,76,125,86,114,114,50,48,18,16,0.8,0.9
2023-03-03T20:00:00,1820A,114.361,36.0681,安阳市,银杏小区,颗粒物(PM10),78,106,116,46,70,128,86,114,114,51,45,22,22,0.6,0.8
2023-03-03T20:00:00,1824A,114.3389,34.7781,开封市,肿瘤医院,颗粒物(PM10),114,178,131,68,79,133,82,117,117,45,37,7,8,0.5,0.5
2023-03-03T20:00:00,1826A,114.2885,34.7965,开封市,世纪星幼儿园,颗粒物(PM10),96,142,131,57,77,129,84,113,113,43,36,11,13,1.0,0.9
2023-03-03T20:00:00,1828A,113.227,35.2125,焦作市,市环保局,颗粒物(PM10),85,120,121,40,59,117,103,107,107,17,36,6,10,0.5,0.7
2023-03-03T20:00:00,1830A,113.1992,35.2590,焦作市,影视城,,,,,,,,,,,,,,,,
2023-03-03T20:00:00,1832A,113.3257,33.742,平顶山市,新华旅馆,颗粒物(PM10),94,138,123,44,63,141,109,125,125,29,39,6,8,0.8,0.8
2023-03-03T20:00:00,1833A,113.2919,33.737,平顶山市,规划设计院,颗粒物(PM10),82,113,128,51,65,143,112,127,127,26,36,5,7,0.6,0.6
2023-03-03T20:00:00,1834A,113.182,33.774,平顶山市,平顶山工学院,颗粒物(PM10),85,120,135,44,61,146,101,126,123,22,28,4,7,0.5,0.6
2023-03-03T20:00:00,1835A,111.1922,34.7752,三门峡市,市政府,颗粒物(PM10),78,106,116,45,51,112,46,85,85,71,58,8,14,0.8,0.7
2023-03-03T20:00:00,1836A,111.1587,34.7942,三门峡市,开发区,颗粒物(PM10),87,123,134,41,53,113,87,92,92,32,50,7,15,0.4,0.7
2023-03-03T20:00:00,1838A,111.143,34.7955,三门峡市,风景区,,,,,,,,,,,,,,,,
2023-03-03T20:00:00,1840A,111.2992,30.6981,宜昌市,白龙岗,,,,109,,69,126,59,107,107,51,44,8,8,0.7,0.8
2023-03-03T20:00:00,1841A,111.3549,30.6465,宜昌市,伍家岗,颗粒物(PM10),77,103,126,48,75,129,49,110,108,70,53,8,8,0.9,0.8
2023-03-03T20:00:00,1842A,111.2628,30.6961,宜昌市,点军区,,,93,119,31,77,115,,100,100,27,35,5,5,0.7,0.8
2023-03-03T20:00:00,1843A,111.3275,30.7819,宜昌市,夷陵区,颗粒物(PM10),57,63,89,29,60,121,42,106,98,52,37,6,7,0.6,0.6
2023-03-03T20:00:00,1844A,112.2494,30.3197,荆州市,市图书馆,细颗粒物(PM2.5),132,123,139,100,125,171,122,155,154,36,60,11,10,0.7,0.9
2023-03-03T20:00:00,1845A,112.2008,30.3544,荆州市,市委党校,细颗粒物(PM2.5),128,121,142,97,127,163,115,151,151,40,50,9,10,0.8,1
2023-03-03T20:00:00,1847A,113.1094,29.3578,岳阳市,南湖风景区,细颗粒物(PM2.5),105,95,97,79,74,164,129,136,136,35,44,9,9,0.6,0.6
2023-03-03T20:00:00,1848A,113.1493,29.4251,岳阳市,城陵矶,细颗粒物(PM2.5),92,102,112,68,71,154,137,131,131,27,54,9,10,0.8,0.8
2023-03-03T20:00:00,1849A,113.1497,29.3575,岳阳市,开发区,细颗粒物(PM2.5),137,107,104,104,93,164,126,136,136,26,43,10,11,0.9,0.9
2023-03-03T20:00:00,1850A,113.2621,29.4758,岳阳市,云溪区,细颗粒物(PM2.5),84,101,100,62,61,152,102,119,119,41,41,6,7,0.7,0.7
2023-03-03T20:00:00,1851A,112.9943,29.4402,岳阳市,君山区,细颗粒物(PM2.5),104,109,114,78,88,164,126,140,140,22,43,8,9,0.8,0.9
2023-03-03T20:00:00,1852A,113.2117,29.355,岳阳市,金凤水库,细颗粒物(PM2.5),85,112,109,63,68,156,130,128,128,17,29,5,6,1.0,0.9
2023-03-03T20:00:00,1854A,111.6975,28.9703,常德市,市二中,颗粒物(PM10),71,91,122,51,82,137,112,124,124,22,28,9,8,0.5,0.6
2023-03-03T20:00:00,1857A,111.7158,29.1456,常德市,白鹤山,颗粒物(PM10),55,60,109,26,57,149,104,127,126,16,14,5,8,0.6,0.8
2023-03-03T20:00:00,1858A,110.5319,29.1217,张家界市,永定新区,颗粒物(PM10),73,96,109,43,72,122,95,108,108,15,28,4,4,0.5,0.6
2023-03-03T20:00:00,1859A,110.4697,29.1242,张家界市,电业局,颗粒物(PM10),64,77,101,44,68,119,50,100,95,47,34,5,5,0.9,0.8
2023-03-03T20:00:00,1860A,110.5594,29.3547,张家界市,未央路,颗粒物(PM10),66,82,77,47,50,113,46,105,97,36,19,5,5,0.6,0.6
2023-03-03T20:00:00,1861A,110.4417,29.315,张家界市,袁家界,,49,30,66,34,41,131,90,106,102,19,18,7,7,0.5,0.5
2023-03-03T20:00:00,1862A,110.4144,25.3167,桂林市,电子科大尧山校区,细颗粒物(PM2.5),94,77,77,70,61,131,65,129,88,13,14,3,5,1.1,1
2023-03-03T20:00:00,1863A,110.2819,25.2697,桂林市,监测站,细颗粒物(PM2.5),149,107,102,114,93,122,83,122,92,25,19,5,7,1.0,0.8
2023-03-03T20:00:00,1864A,110.3089,25.2708,桂林市,龙隐路小学,细颗粒物(PM2.5),143,95,93,109,90,119,80,116,91,22,17,15,17,1.0,0.8
2023-03-03T20:00:00,1865A,110.2869,25.2178,桂林市,八中,细颗粒物(PM2.5),138,86,86,105,90,118,73,116,89,30,25,11,11,0.8,0.5
2023-03-03T20:00:00,1866A,109.2262,21.588,北海市,牛尾岭水库,,,73,55,44,37,322,123,154,153,14,12,11,30,,0.6
2023-03-03T20:00:00,1867A,109.1436,21.4086,北海市,海滩公园,颗粒物(PM10),54,58,59,29,31,159,147,155,154,7,9,5,7,0.7,0.7
2023-03-03T20:00:00,1868A,109.0981,21.4661,北海市,新市环保局,"颗粒物(PM10),细颗粒物(PM2.5)",55,60,53,39,34,152,129,142,139,24,13,3,5,0.6,0.6
2023-03-03T20:00:00,1869A,109.1778,21.5233,北海市,北海工业园,细颗粒物(PM2.5),70,64,64,51,41,155,128,148,144,18,12,11,9,0.8,0.7
2023-03-03T20:00:00,1870A,109.4856,24.3895,柳州市,柳东小学,,,93,104,,103,123,41,110,60,29,22,12,14,1.4,1.2
2023-03-03T20:00:00,1871A,109.4157,24.3277,柳州市,环保监测站,细颗粒物(PM2.5),95,91,101,71,79,86,47,64,60,35,39,10,10,1.3,1.1
2023-03-03T20:00:00,1872A,109.389,24.341,柳州市,河西水厂,细颗粒物(PM2.5),99,84,137,74,99,60,50,51,51,25,47,7,13,1.2,1.5
2023-03-03T20:00:00,1873A,109.4311,24.2921,柳州市,市四中,细颗粒物(PM2.5),85,76,93,63,72,97,55,85,70,28,31,10,13,1.1,1
2023-03-03T20:00:00,1874A,109.4006,24.3631,柳州市,市九中,细颗粒物(PM2.5),84,82,111,62,77,88,54,66,50,27,41,14,14,1.1,1.2
2023-03-03T20:00:00,1875A,109.4958,24.3134,柳州市,古亭山,,,73,80,62,67,82,51,73,68,,34,6,7,1.0,0.8
2023-03-03T20:00:00,1876A,109.5078,18.2489,三亚市,河东子站,颗粒物(PM10),51,51,50,30,29,137,104,131,115,7,8,2,2,0.5,0.5
2023-03-03T20:00:00,1877A,109.4964,18.2681,三亚市,河西子站,颗粒物(PM10),52,54,47,26,28,143,106,132,118,6,7,3,3,0.4,0.4
2023-03-03T20:00:00,1878A,104.7778,31.4741,绵阳市,富乐山,细颗粒物(PM2.5),62,72,78,44,49,136,110,119,119,11,25,2,3,0.4,0.6
2023-03-03T20:00:00,1879A,104.7563,31.4535,绵阳市,市人大,细颗粒物(PM2.5),69,70,86,50,53,123,79,107,107,43,35,9,8,0.6,0.6
2023-03-03T20:00:00,1880A,104.6697,31.4668,绵阳市,高新区自来水公司,,,,,,,,,,,,,,,,
2023-03-03T20:00:00,1881A,104.7287,31.5075,绵阳市,三水厂,颗粒物(PM10),66,81,95,43,58,131,63,105,105,58,33,4,4,0.6,0.6
2023-03-03T20:00:00,1882A,104.563,28.793,宜宾市,石马中学,,41,41,74,28,50,108,71,96,96,43,24,7,7,0.8,0.7
2023-03-03T20:00:00,1883A,104.6201,28.7728,宜宾市,市委,细颗粒物(PM2.5),57,53,84,40,62,117,93,106,106,28,26,14,10,0.6,0.6
2023-03-03T20:00:00,1884A,104.6055,28.793,宜宾市,宜宾四中,细颗粒物(PM2.5),57,55,84,40,63,115,74,104,103,49,28,9,10,0.6,0.6
2023-03-03T20:00:00,1885A,104.639,28.7562,宜宾市,市政府,细颗粒物(PM2.5),59,53,78,42,61,114,86,103,103,48,29,8,8,0.7,0.6
2023-03-03T20:00:00,1886A,104.5742,28.7199,宜宾市,黄金嘴,,49,46,74,34,54,114,91,102,102,35,30,8,8,0.5,0.5
2023-03-03T20:00:00,1888A,101.6891,26.571,攀枝花市,弄弄坪,,49,49,71,30,36,136,99,120,120,26,35,9,25,0.8,1.6
2023-03-03T20:00:00,1889A,101.5769,26.5928,攀枝花市,河门口,颗粒物(PM10),51,51,52,28,29,147,111,127,127,24,29,28,24,1.1,1.3
2023-03-03T20:00:00,1890A,101.7169,26.585,攀枝花市,炳草岗,,32,32,61,21,28,132,92,115,115,31,43,9,12,0.8,1
2023-03-03T20:00:00,1891A,101.7369,26.5008,攀枝花市,仁和,颗粒物(PM10),56,61,42,31,26,151,62,125,122,42,20,15,12,1.2,0.8
2023-03-03T20:00:00,1893A,105.4324,28.9634,泸州市,九狮山,细颗粒物(PM2.5),52,47,82,36,57,94,55,84,82,21,21,9,13,0.5,0.4
2023-03-03T20:00:00,1894A,105.4427,28.9063,泸州市,小市上码头,,46,40,96,32,72,95,71,85,85,30,24,7,10,0.6,0.6
2023-03-03T20:00:00,1895A,105.4241,28.8573,泸州市,兰田宪桥,,,,,,,,,,,,,,,,
2023-03-03T20:00:00,1896A,105.4379,28.8833,泸州市,市环监站,,41,41,93,24,66,89,38,80,76,53,22,4,7,0.8,0.7
2023-03-03T20:00:00,1901A,104.4239,31.1208,德阳市,东山公园,细颗粒物(PM2.5),99,105,113,74,82,151,123,128,128,34,35,3,6,0.5,0.7
2023-03-03T20:00:00,1902A,104.3826,31.1317,德阳市,西小区,细颗粒物(PM2.5),108,113,109,81,84,141,59,108,108,79,41,3,5,0.8,0.8
2023-03-03T20:00:00,1904A,104.3553,31.1091,德阳市,耐火材料厂,细颗粒物(PM2.5),99,144,115,74,81,148,55,112,111,81,36,2,5,0.6,0.6
2023-03-03T20:00:00,1905A,106.056,30.8064,南充市,西山风景区,,,,,,,,,,,,,,,,
2023-03-03T20:00:00,1906A,106.0789,30.8023,南充市,南充市委,颗粒物(PM10),74,97,79,48,49,103,80,91,91,32,31,11,14,0.6,0.7
2023-03-03T20:00:00,1907A,106.1031,30.8217,南充市,南充炼油厂,"颗粒物(PM10),细颗粒物(PM2.5)",74,97,77,54,47,107,71,93,93,38,24,9,12,0.6,0.7
2023-03-03T20:00:00,1908A,106.1064,30.7856,南充市,高坪区监测站,细颗粒物(PM2.5),80,95,77,59,54,100,72,88,88,33,28,9,19,0.6,0.7
2023-03-03T20:00:00,1909A,106.0642,30.7636,南充市,嘉陵区环保局,"颗粒物(PM10),细颗粒物(PM2.5)",73,95,76,53,50,103,76,91,91,34,31,9,17,0.6,0.7
2023-03-03T20:00:00,1910A,106.1087,30.8388,南充市,市环境监测站,"颗粒物(PM10),细颗粒物(PM2.5)",74,98,79,54,53,105,54,89,88,61,33,9,14,0.8,0.7
2023-03-03T20:00:00,1911A,106.9222,27.6869,遵义市,丁字口,,39,33,52,27,41,88,47,73,73,35,25,42,16,1.0,0.8
2023-03-03T20:00:00,1912A,106.9242,27.7019,遵义市,凤凰山,,39,34,47,27,32,91,79,85,85,19,20,5,4,0.6,0.8
2023-03-03T20:00:00,1913A,106.8906,27.6486,遵义市,忠庄,,49,49,60,33,42,84,63,69,69,20,20,6,4,0.8,0.8
2023-03-03T20:00:00,1914A,106.9231,27.6506,遵义市,舟水桥,细颗粒物(PM2.5),55,44,56,39,41,89,44,78,69,35,15,55,9,0.8,0.8
2023-03-03T20:00:00,1915A,106.9178,27.72,遵义市,干田坝,,39,39,48,27,38,96,53,80,80,32,20,8,8,0.7,0.7
2023-03-03T20:00:00,1916A,103.7897,25.5035,曲靖市,环境监测站,颗粒物(PM10),63,76,41,42,24,108,48,73,73,25,17,9,8,1.0,1.3
2023-03-03T20:00:00,1917A,103.8,25.5364,曲靖市,烟厂办公区,颗粒物(PM10),53,55,44,28,23,101,69,79,79,20,18,3,5,0.9,1
2023-03-03T20:00:00,1918A,108.7197,34.3956,咸阳市,气象站,颗粒物(PM10),71,92,151,35,70,112,64,93,93,48,48,9,12,0.3,0.5
2023-03-03T20:00:00,1919A,108.673,34.3155,咸阳市,实验中学,颗粒物(PM10),60,69,162,30,75,114,87,100,100,38,56,6,10,0.1,0.4
2023-03-03T20:00:00,1920A,108.7233,34.3617,咸阳市,师范学院,颗粒物(PM10),74,98,155,31,76,107,76,92,90,41,50,6,8,0.4,0.7
2023-03-03T20:00:00,1922A,109.0656,35.0994,铜川市,党校,颗粒物(PM10),104,157,143,69,49,108,16,101,88,78,54,11,14,0.5,0.7
2023-03-03T20:00:00,1923A,109.0697,35.0697,铜川市,王益区政府,颗粒物(PM10),92,133,133,62,48,108,23,103,93,62,40,7,6,0.9,0.6
2023-03-03T20:00:00,1924A,108.9344,34.9058,铜川市,新区管委会,细颗粒物(PM2.5),103,115,113,77,47,120,28,108,99,78,30,17,10,1.0,0.6
2023-03-03T20:00:00,1926A,109.4131,36.6275,延安市,枣园,颗粒物(PM10),77,104,80,50,24,116,33,107,101,59,34,6,6,0.9,0.7
2023-03-03T20:00:00,1927A,109.4761,36.6028,延安市,延大医附院,细颗粒物(PM2.5),103,93,71,77,31,104,11,94,86,87,40,9,7,1.2,0.7
2023-03-03T20:00:00,1929A,109.5056,36.6106,延安市,百米大道,颗粒物(PM10),76,101,88,40,31,106,21,96,90,78,46,4,5,0.7,0.7
2023-03-03T20:00:00,1930A,107.185,34.3063,宝鸡市,庙沟村,,36,36,64,18,29,102,73,92,92,17,23,4,4,0.5,0.6
2023-03-03T20:00:00,1931A,107.0708,34.3017,宝鸡市,竹园沟,细颗粒物(PM2.5),60,49,68,43,38,113,54,100,96,36,20,6,8,0.5,0.5
2023-03-03T20:00:00,1932A,107.1906,34.3672,宝鸡市,三陆医院,细颗粒物(PM2.5),64,75,128,46,61,109,31,96,90,73,46,6,9,0.6,0.7
2023-03-03T20:00:00,1933A,107.1431,34.3547,宝鸡市,监测站,细颗粒物(PM2.5),70,77,106,51,52,108,49,94,92,46,44,4,6,0.6,0.7
2023-03-03T20:00:00,1934A,107.1186,34.3739,宝鸡市,技工学校,颗粒物(PM10),60,69,101,24,44,106,57,98,94,48,40,6,7,0.6,0.7
2023-03-03T20:00:00,1935A,107.3906,34.3528,宝鸡市,陈仓区环保局家属楼,细颗粒物(PM2.5),75,87,134,55,65,113,56,94,94,51,46,5,27,0.6,0.8
2023-03-03T20:00:00,1936A,107.2058,34.3497,宝鸡市,文理学院,颗粒物(PM10),74,97,112,41,50,111,15,97,91,87,44,8,10,0.9,0.6
2023-03-03T20:00:00,1937A,107.2386,34.3622,宝鸡市,三迪小学,细颗粒物(PM2.5),69,72,121,50,56,111,26,94,89,91,51,10,12,0.8,0.7
2023-03-03T20:00:00,1938A,109.5293,34.5101,渭南市,农科所,颗粒物(PM10),75,100,142,39,51,111,77,96,96,35,55,7,10,0.5,0.7
2023-03-03T20:00:00,1939A,109.4974,34.4877,渭南市,日报社,颗粒物(PM10),71,92,128,34,46,108,67,94,94,54,51,6,7,0.4,0.6
2023-03-03T20:00:00,1940A,109.4636,34.493,渭南市,体育馆,颗粒物(PM10),75,100,136,41,54,116,79,101,101,46,58,9,9,0.5,0.6
2023-03-03T20:00:00,1941A,109.4259,34.5023,渭南市,高新一小,颗粒物(PM10),77,104,139,42,56,113,78,97,97,36,53,8,10,0.4,0.5
2023-03-03T20:00:00,1943A,102.1725,38.5339,金昌市,新川苑,颗粒物(PM10),63,76,87,15,19,118,69,103,100,38,22,12,16,0.8,0.8
2023-03-03T20:00:00,1944A,102.1692,38.5167,金昌市,天庆家园,颗粒物(PM10),67,83,76,26,22,116,56,105,98,48,26,15,20,1.0,0.9
2023-03-03T20:00:00,1945A,98.2908,39.7711,嘉峪关市,气象局,颗粒物(PM10),63,75,57,27,20,100,60,91,89,46,30,3,6,0.2,0.3
2023-03-03T20:00:00,1947A,106.3394,38.817,石嘴山市,沙湖旅游区,颗粒物(PM10),71,92,130,32,38,108,83,101,98,18,24,8,13,0.3,0.6
2023-03-03T20:00:00,1948A,106.3668,39.0145,石嘴山市,大武口朝阳西街,颗粒物(PM10),68,86,102,28,32,103,68,92,91,40,26,13,13,0.4,0.6
2023-03-03T20:00:00,1949A,106.7704,39.2282,石嘴山市,惠农南大街,颗粒物(PM10),66,81,115,28,39,100,50,90,87,52,42,13,39,0.6,0.9
2023-03-03T20:00:00,1950A,106.7099,39.1325,石嘴山市,红果子镇惠新街,颗粒物(PM10),78,105,106,36,41,104,76,91,91,22,34,13,22,0.5,0.7
2023-03-03T20:00:00,1951A,84.895,45.6094,克拉玛依市,长征新村,颗粒物(PM10),53,55,57,34,34,66,60,57,57,28,24,6,5,0.5,0.4
2023-03-03T20:00:00,1952A,84.8988,45.5893,克拉玛依市,南林小区,颗粒物(PM10),51,51,57,32,36,71,69,62,62,25,24,3,4,0.4,0.3
2023-03-03T20:00:00,1954A,84.905,44.3396,克拉玛依市,独山子区,细颗粒物(PM2.5),166,171,143,126,96,97,36,72,65,52,42,5,5,1.0,1
2023-03-03T20:00:00,1955A,85.6979,46.098,克拉玛依市,乌尔禾区商贸楼,,44,44,34,23,28,89,86,80,80,11,8,7,6,0.4,0.4
2023-03-03T20:00:00,1956A,86.1472,41.7538,巴音郭楞州,孔雀公园,颗粒物(PM10),147,244,241,43,66,108,95,100,100,18,51,3,4,0.3,0.7
2023-03-03T20:00:00,1957A,86.1972,41.7166,巴音郭楞州,棉纺厂,颗粒物(PM10),236,375,337,87,83,105,70,93,93,19,43,,3,0.4,0.6
2023-03-03T20:00:00,1958A,86.2357,41.7173,巴音郭楞州,经济开发区,颗粒物(PM10),285,409,261,61,58,102,90,94,94,17,26,5,5,0.4,0.5
2023-03-03T20:00:00,1961A,117.532,36.6868,济南市,东山小学,细颗粒物(PM2.5),95,129,115,71,52,150,112,139,138,42,26,11,9,0.8,0.6
2023-03-03T20:00:00,1966A,120.0405,35.8735,青岛市,黄岛区4号,细颗粒物(PM2.5),85,97,72,63,39,94,94,74,74,49,50,8,10,0.7,0.8
2023-03-03T20:00:00,1982A,122.0693,37.2174,威海市,文登开发区,细颗粒物(PM2.5),64,73,58,46,26,103,83,88,88,28,22,5,5,0.9,0.6
2023-03-03T20:00:00,2031A,113.1817,27.9958,株洲市,云田中学,细颗粒物(PM2.5),147,114,134,112,113,133,82,95,91,28,38,7,9,1.1,1
2023-03-03T20:00:00,2054A,114.1099,32.1059,信阳市,平桥分局,颗粒物(PM10),98,146,110,72,69,154,116,147,144,35,40,12,12,0.8,0.7
2023-03-03T20:00:00,2064A,113.9956,32.1271,信阳市,南湾水厂,细颗粒物(PM2.5),107,125,115,80,73,165,149,156,155,15,18,12,10,0.6,0.6
2023-03-03T20:00:00,2065A,114.0775,32.1195,信阳市,市酿酒公司,细颗粒物(PM2.5),107,108,101,80,76,162,121,152,149,36,44,12,11,0.8,0.8
2023-03-03T20:00:00,2066A,114.0609,32.1399,信阳市,审计局,细颗粒物(PM2.5),120,136,112,91,88,155,110,146,137,40,44,11,11,0.9,0.8
2023-03-03T20:00:00,2067A,114.6613,33.6128,周口市,市环境监测站,颗粒物(PM10),103,155,113,56,72,139,96,124,122,40,26,8,10,0.7,0.6
2023-03-03T20:00:00,2068A,114.6758,33.6347,周口市,周口师范,颗粒物(PM10),83,116,115,56,70,145,104,130,129,43,30,9,9,0.5,0.5
2023-03-03T20:00:00,2069A,114.6546,33.5979,周口市,市运管处,颗粒物(PM10),78,105,120,53,74,148,115,134,134,36,32,9,10,0.5,0.5
2023-03-03T20:00:00,2070A,114.6369,33.6406,周口市,川汇区环保局,颗粒物(PM10),91,131,108,61,72,142,89,125,123,50,26,6,7,0.7,0.6
2023-03-03T20:00:00,2075A,117.6336,24.4674,漳州市,九湖,,,,,,,,,,,,,,,,
2023-03-03T20:00:00,2160A,112.85,35.5051,晋城市,自来水公司,颗粒物(PM10),78,105,117,34,52,121,105,113,113,26,46,11,16,0.6,1.2
2023-03-03T20:00:00,2161A,112.8318,35.4936,晋城市,白云商贸,颗粒物(PM10),82,114,119,31,46,115,96,106,106,22,38,8,10,0.7,1.4
2023-03-03T20:00:00,2162A,112.8508,35.4887,晋城市,市环保局,颗粒物(PM10),80,109,112,41,54,124,96,115,114,23,42,9,14,0.7,1.2
2023-03-03T20:00:00,2163A,112.8676,35.4897,晋城市,技术学院,颗粒物(PM10),81,111,101,34,51,121,100,113,113,27,49,8,12,0.5,0.9
2023-03-03T20:00:00,2165A,112.8453,35.546,晋城市,白马寺,,,,,,,,,,,,,,,,
2023-03-03T20:00:00,2166A,112.4397,39.3522,朔州市,平朔,细颗粒物(PM2.5),85,107,103,63,37,94,57,84,83,36,38,9,14,0.7,0.7
2023-03-03T20:00:00,2167A,112.4575,39.3617,朔州市,朔唯,细颗粒物(PM2.5),70,88,126,51,51,101,59,89,89,37,50,14,20,0.4,0.5
2023-03-03T20:00:00,2168A,112.4258,39.3197,朔州市,区政府,颗粒物(PM10),64,77,94,35,31,101,58,97,89,33,32,5,11,0.7,0.6
2023-03-03T20:00:00,2169A,112.4072,39.3278,朔州市,市环保局,颗粒物(PM10),77,104,103,35,40,96,54,85,82,31,32,5,10,0.5,0.6
2023-03-03T20:00:00,2170A,112.4272,39.3681,朔州市,市二中,,,85,106,52,32,96,44,89,83,43,42,27,14,,0.6
2023-03-03T20:00:00,2171A,112.7532,37.6945,晋中市,锦纶小区,颗粒物(PM10),75,100,108,28,42,114,76,97,97,32,44,7,14,0.4,0.6
2023-03-03T20:00:00,2173A,112.7249,37.7067,晋中市,南都小区,颗粒物(PM10),73,95,114,32,42,156,76,105,105,29,47,10,24,0.4,0.7
2023-03-03T20:00:00,2174A,112.6991,37.6982,晋中市,榆次区政府,颗粒物(PM10),64,78,112,24,38,109,79,94,94,28,49,12,18,0.3,0.7
2023-03-03T20:00:00,2175A,110.9956,35.0147,运城市,运城中学,颗粒物(PM10),93,136,142,45,62,118,91,103,103,26,37,9,13,0.6,0.5
2023-03-03T20:00:00,2178A,110.9686,35.0303,运城市,地区技校,颗粒物(PM10),93,135,148,43,56,122,98,113,113,32,37,7,9,0.6,0.9
2023-03-03T20:00:00,2179A,111.0414,35.1147,运城市,空港新区,颗粒物(PM10),105,159,146,68,69,143,48,120,117,88,42,10,12,1.0,0.7
2023-03-03T20:00:00,2181A,112.7383,38.4519,忻州市,开发区,,48,48,71,21,29,101,74,90,90,25,36,5,10,0.3,0.4
2023-03-03T20:00:00,2182A,112.7003,38.4928,忻州市,会展中心,颗粒物(PM10),54,57,78,19,36,94,63,82,82,31,43,4,7,0.3,0.6
2023-03-03T20:00:00,2183A,111.1406,37.5211,吕梁市,环保局,颗粒物(PM10),77,103,102,20,20,97,7,80,76,83,51,10,10,0.7,0.6
2023-03-03T20:00:00,2185A,111.1297,37.5136,吕梁市,自来水公司,颗粒物(PM10),68,85,106,29,22,95,51,81,81,38,44,12,14,0.7,0.6
2023-03-03T20:00:00,2187A,106.8174,39.6973,乌海市,市林业局,颗粒物(PM10),68,85,74,31,26,109,82,104,102,22,15,8,9,0.6,0.6
2023-03-03T20:00:00,2188A,106.7907,39.6667,乌海市,中海勃湾学校,颗粒物(PM10),63,76,76,39,25,110,74,106,102,29,19,9,15,0.2,0.5
2023-03-03T20:00:00,2191A,122.2532,43.6801,通辽市,艺术职业学校,"颗粒物(PM10),细颗粒物(PM2.5)",65,79,40,47,22,107,63,99,89,29,18,10,8,0.7,0.4
2023-03-03T20:00:00,2192A,119.7594,49.2261,呼伦贝尔市,区环保局,颗粒物(PM10),67,83,40,43,26,88,4,78,64,76,28,6,5,1.6,0.6
2023-03-03T20:00:00,2195A,107.4212,40.761,巴彦淖尔市,附二中,颗粒物(PM10),53,55,85,18,21,95,27,89,82,62,17,4,6,0.9,0.5
2023-03-03T20:00:00,2196A,107.37,40.7372,巴彦淖尔市,市环保大楼,颗粒物(PM10),59,68,81,14,25,102,67,96,94,30,17,5,5,0.5,0.4
2023-03-03T20:00:00,2197A,113.1306,40.9923,乌兰察布市,集宁新区,颗粒物(PM10),51,51,51,23,26,91,71,88,85,26,19,9,10,0.6,0.6
2023-03-03T20:00:00,2200A,122.0392,46.0656,兴安盟,胜华新制药厂,,35,35,30,19,18,93,82,86,86,10,14,4,4,0.5,0.5
2023-03-03T20:00:00,2201A,121.9504,46.0741,兴安盟,科右前旗环保局,颗粒物(PM10),54,57,34,34,23,89,69,87,82,15,19,2,3,0.4,0.6
2023-03-03T20:00:00,2202A,116.1042,43.9317,锡林郭勒盟,市环保监测站,,33,33,22,5,7,80,46,69,66,16,10,6,6,0.3,0.3
2023-03-03T20:00:00,2203A,116.0781,43.9311,锡林郭勒盟,市政府,,24,24,25,4,6,83,39,70,67,27,11,6,7,0.3,0.2
2023-03-03T20:00:00,2204A,105.6467,38.8363,阿拉善盟,西城区西花园,颗粒物(PM10),73,96,93,31,24,104,86,101,100,21,14,9,8,0.6,0.5
2023-03-03T20:00:00,2205A,105.6985,38.8411,阿拉善盟,蒙二幼,颗粒物(PM10),74,98,91,29,28,103,81,102,100,23,13,10,8,0.6,0.4
2023-03-03T20:00:00,2206A,105.724,38.8516,阿拉善盟,环保局新楼,颗粒物(PM10),61,71,65,32,27,104,90,102,99,9,6,8,10,0.4,0.4
2023-03-03T20:00:00,2207A,121.6094,41.998,阜新市,工业园区,细颗粒物(PM2.5),114,124,158,86,58,115,45,105,100,72,47,33,21,1.4,1.1
2023-03-03T20:00:00,2208A,121.6697,42.0279,阜新市,长青街,细颗粒物(PM2.5),94,102,131,70,57,108,81,97,97,24,41,19,22,0.9,1.2
2023-03-03T20:00:00,2209A,121.6673,42.0705,阜新市,农业园区,细颗粒物(PM2.5),110,66,95,83,51,97,75,87,87,25,30,37,38,0.8,0.8
2023-03-03T20:00:00,2210A,121.6717,42.0224,阜新市,东苑,细颗粒物(PM2.5),120,82,149,91,65,107,59,94,93,46,42,25,26,1.1,1.2
2023-03-03T20:00:00,2211A,121.6506,42.0498,阜新市,玉龙新城,细颗粒物(PM2.5),114,73,111,86,49,106,31,95,90,64,41,25,20,0.8,1
2023-03-03T20:00:00,2212A,123.2,41.1953,辽阳市,宏伟区,颗粒物(PM10),61,71,61,41,26,92,52,83,77,41,23,21,18,1.2,0.9
2023-03-03T20:00:00,2213A,123.1683,41.2495,辽阳市,新华园,细颗粒物(PM2.5),104,94,65,78,34,101,29,90,79,72,32,33,20,1.7,1.2
2023-03-03T20:00:00,2214A,123.2354,41.2639,辽阳市,滨河路,细颗粒物(PM2.5),105,112,65,79,42,85,35,77,66,57,30,21,13,1.1,0.7
2023-03-03T20:00:00,2215A,123.149,41.2991,辽阳市,铁西工业园,细颗粒物(PM2.5),168,125,83,127,63,92,17,78,62,76,41,31,18,1.4,1.2
2023-03-03T20:00:00,2216A,123.8139,42.3022,铁岭市,汇工街西,细颗粒物(PM2.5),120,105,80,91,57,108,11,92,83,99,38,17,17,1.0,0.8
2023-03-03T20:00:00,2217A,123.8649,42.2923,铁岭市,水上乐园,细颗粒物(PM2.5),63,60,72,45,44,102,32,80,76,81,43,11,15,0.6,0.8
2023-03-03T20:00:00,2218A,123.8486,42.2867,铁岭市,银州路东段,颗粒物(PM10),59,68,96,41,46,92,70,81,81,35,40,9,12,0.6,0.8
2023-03-03T20:00:00,2219A,123.7153,42.2217,铁岭市,金沙江路北,细颗粒物(PM2.5),70,71,76,51,48,89,62,84,83,50,44,8,15,0.6,0.7
2023-03-03T20:00:00,2220A,120.4318,41.5881,朝阳市,西梁,细颗粒物(PM2.5),210,148,85,160,57,103,44,88,86,61,34,18,15,1.3,1.8
2023-03-03T20:00:00,2221A,120.4521,41.5646,朝阳市,河畔小区,细颗粒物(PM2.5),99,91,77,74,40,116,93,104,104,41,33,11,12,0.9,1.1
2023-03-03T20:00:00,2222A,120.4176,41.5648,朝阳市,八里堡,细颗粒物(PM2.5),148,121,81,113,46,115,87,102,102,45,39,20,24,1.2,1.1
2023-03-03T20:00:00,2223A,120.3806,41.5969,朝阳市,农业园区,细颗粒物(PM2.5),145,131,80,111,45,105,60,91,91,59,39,20,18,1.1,0.8
2023-03-03T20:00:00,2225A,124.4002,43.1713,四平市,一商场,"颗粒物(PM10),细颗粒物(PM2.5)",77,103,93,56,38,95,20,81,69,80,30,11,9,1.2,0.6
2023-03-03T20:00:00,2226A,124.388,43.193,四平市,境园,细颗粒物(PM2.5),79,106,90,58,30,102,22,88,79,67,25,9,6,1.4,0.6
2023-03-03T20:00:00,2227A,125.1358,42.8845,辽源市,环保局,"颗粒物(PM10),细颗粒物(PM2.5)",60,70,38,43,24,98,24,92,82,69,19,13,12,1.4,0.7
2023-03-03T20:00:00,2229A,125.9358,41.7173,通化市,光明,颗粒物(PM10),53,56,29,21,11,94,27,88,70,47,15,14,12,0.7,0.2
2023-03-03T20:00:00,2230A,125.9446,41.7325,通化市,铁路,,35,35,28,23,13,100,56,92,82,24,19,15,10,0.5,0.2
2023-03-03T20:00:00,2231A,126.4219,41.9171,白山市,喜丰,颗粒物(PM10),51,52,54,13,14,88,45,81,74,40,27,14,13,0.6,0.6
2023-03-03T20:00:00,2232A,126.4077,41.9419,白山市,环保局,颗粒物(PM10),66,81,63,39,25,85,7,76,65,82,32,21,19,1.5,1.1
2023-03-03T20:00:00,2233A,124.8006,45.1214,松原市,江南,细颗粒物(PM2.5),79,66,130,58,37,81,6,73,60,89,31,16,10,1.0,0.7
2023-03-03T20:00:00,2234A,124.7965,45.1722,松原市,江北,细颗粒物(PM2.5),54,30,105,38,27,88,31,83,76,55,29,6,6,0.8,0.7
2023-03-03T20:00:00,2235A,122.7911,45.6077,白城市,洮北区环保局,细颗粒物(PM2.5),69,69,44,50,28,98,70,91,85,24,19,8,5,0.6,0.4
2023-03-03T20:00:00,2236A,122.8738,45.5725,白城市,市环保局,颗粒物(PM10),59,68,48,16,16,97,18,87,67,74,24,11,6,0.5,0.4
2023-03-03T20:00:00,2237A,129.47,42.8883,延边朝鲜族自治州,妇幼医院,细颗粒物(PM2.5),90,69,47,67,21,99,53,90,82,38,22,20,14,1.2,0.7
2023-03-03T20:00:00,2238A,129.5055,42.9108,延边朝鲜族自治州,延边医院,,40,38,49,28,26,99,77,91,90,24,28,10,15,0.7,0.8
2023-03-03T20:00:00,2239A,129.3964,42.8881,延边朝鲜族自治州,朝阳川镇医院,细颗粒物(PM2.5),58,59,50,41,19,102,70,97,92,18,15,15,9,0.7,0.7
2023-03-03T20:00:00,2240A,130.9762,45.3001,鸡西市,环保局,,31,31,31,12,18,80,34,78,66,53,24,5,22,0.5,0.3
2023-03-03T20:00:00,2243A,130.9429,45.3039,鸡西市,第一中学,,23,18,26,13,13,83,72,82,80,10,11,7,5,0.2,0.3
2023-03-03T20:00:00,2244A,130.2537,47.3416,鹤岗市,哈啤分公司,,43,43,28,27,22,88,64,86,79,16,10,12,11,0.6,0.3
2023-03-03T20:00:00,2245A,130.2684,47.3086,鹤岗市,斯达机电,,40,40,30,23,21,85,51,83,75,30,11,15,9,0.3,0.3
2023-03-03T20:00:00,2246A,130.3114,47.3388,鹤岗市,东山纸板厂,颗粒物(PM10),118,186,69,33,26,86,20,84,64,30,11,11,10,0.5,0.4
2023-03-03T20:00:00,2247A,130.1097,47.3382,鹤岗市,五号水库,,23,23,23,16,16,92,51,90,81,9,5,6,7,0.1,0.2
2023-03-03T20:00:00,2248A,131.1511,46.6937,双鸭山市,双合村,,39,39,26,15,17,90,72,86,82,17,9,13,11,0.5,0.3
2023-03-03T20:00:00,2249A,131.1652,46.6191,双鸭山市,南小市,,29,27,33,20,18,98,83,94,90,12,8,10,7,0.4,0.4
2023-03-03T20:00:00,2250A,131.1524,46.6554,双鸭山市,环保局,,50,40,32,35,23,100,79,97,89,19,11,13,10,0.3,0.2
2023-03-03T20:00:00,2251A,131.12,46.5656,双鸭山市,苗圃,细颗粒物(PM2.5),52,36,36,36,31,104,99,102,102,7,9,4,7,0.1,0.3
2023-03-03T20:00:00,2252A,128.5159,47.4311,伊春市,环保局,,30,30,26,7,23,86,68,81,79,23,15,6,6,0.6,0.5
2023-03-03T20:00:00,2253A,128.9102,47.7412,伊春市,电力嘉园,,33,33,32,21,22,90,80,88,88,11,9,6,5,0.4,0.4
2023-03-03T20:00:00,2254A,129.5029,48.471,伊春市,汤旺河国家公园,,24,24,30,15,19,85,65,82,77,2,4,5,6,0,0.2
2023-03-03T20:00:00,2255A,130.2751,46.8028,佳木斯市,佳纺,,46,46,36,30,25,86,68,82,74,16,18,5,5,0.5,0.5
2023-03-03T20:00:00,2256A,130.3995,46.8307,佳木斯市,发电厂,,31,31,25,18,18,91,55,88,76,31,13,4,2,0.6,0.4
2023-03-03T20:00:00,2257A,130.3258,46.7975,佳木斯市,环保局,,28,28,29,18,21,85,44,81,68,37,18,8,5,0.8,0.5
2023-03-03T20:00:00,2258A,130.3648,46.8032,佳木斯市,十一中,,33,32,30,23,22,84,54,79,69,35,22,6,7,0.6,0.5
2023-03-03T20:00:00,2259A,130.3794,46.7588,佳木斯市,四丰,,40,26,23,15,16,146,128,141,137,12,10,1,1,0.4,0.3
2023-03-03T20:00:00,2262A,131.0518,45.8751,七台河市,新一中,,30,30,25,20,17,101,66,92,89,25,10,7,6,0.7,0.4
2023-03-03T20:00:00,2263A,127.4833,50.2524,黑河市,交通局,,48,48,22,30,13,83,56,77,72,36,14,14,6,0.8,0.5
2023-03-03T20:00:00,2264A,127.5144,50.2341,黑河市,环保局,,25,25,28,16,20,91,76,85,85,18,15,13,6,0.4,0.4
2023-03-03T20:00:00,2265A,127.5291,50.2472,黑河市,大黑河岛,细颗粒物(PM2.5),80,48,15,59,14,94,70,86,85,10,4,20,6,0.6,0.4
2023-03-03T20:00:00,2266A,126.9785,46.6365,绥化市,人和东街,颗粒物(PM10),57,63,50,38,32,103,69,94,90,26,22,30,4,0.5,0.5
2023-03-03T20:00:00,2267A,126.964,46.6528,绥化市,党政办公中心,细颗粒物(PM2.5),54,47,49,38,36,102,76,93,91,20,18,12,3,0.3,0.3
2023-03-03T20:00:00,2269A,124.1069,50.4097,大兴安岭地区,科技局,,26,20,16,18,16,91,83,88,88,5,6,6,7,0.3,0.2
2023-03-03T20:00:00,2270A,117.396,32.939,蚌埠市,工人疗养院,细颗粒物(PM2.5),84,88,79,62,46,137,102,125,124,44,31,11,12,0.6,0.4
2023-03-03T20:00:00,2271A,117.3605,32.9427,蚌埠市,百货大楼,颗粒物(PM10),85,120,98,62,50,135,92,125,121,54,33,7,5,0.8,0.5
2023-03-03T20:00:00,2273A,117.4185,32.8911,蚌埠市,蚌埠学院,颗粒物(PM10),81,112,89,56,40,142,95,125,123,43,34,10,9,0.5,0.5
2023-03-03T20:00:00,2274A,117.3533,32.9673,蚌埠市,淮上区政府,颗粒物(PM10),80,110,95,56,45,138,93,124,121,48,30,7,7,0.7,0.6
2023-03-03T20:00:00,2275A,117.3145,32.8977,蚌埠市,高新区,颗粒物(PM10),92,134,95,66,49,133,78,117,112,59,32,14,11,1.0,0.6
2023-03-03T20:00:00,2277A,116.8305,32.7727,淮南市,潘集区政府,细颗粒物(PM2.5),124,141,124,94,76,150,105,125,125,33,36,10,14,0.6,0.6
2023-03-03T20:00:00,2278A,117.0067,32.6524,淮南市,师范学院,细颗粒物(PM2.5),99,131,109,74,61,148,78,131,128,72,28,11,15,0.9,0.6
2023-03-03T20:00:00,2279A,116.8569,32.5951,淮南市,谢家集区政府,颗粒物(PM10),84,117,118,58,65,155,121,137,137,36,39,10,18,0.5,0.6
2023-03-03T20:00:00,2280A,116.8281,32.633,淮南市,八公山区政府,细颗粒物(PM2.5),84,107,106,62,60,148,110,128,128,34,31,8,12,0.4,0.5
2023-03-03T20:00:00,2281A,116.6325,32.6201,淮南市,焦岗湖风景区管理处,细颗粒物(PM2.5),99,122,107,74,68,152,83,132,131,58,43,8,8,0.8,0.7
2023-03-03T20:00:00,2282A,116.8004,33.975,淮北市,监测站,细颗粒物(PM2.5),128,141,117,97,67,150,110,133,133,40,31,9,10,0.9,0.7
2023-03-03T20:00:00,2283A,116.8091,33.9007,淮北市,烈山区政府,细颗粒物(PM2.5),144,161,123,110,69,152,125,136,136,37,41,10,12,0.8,0.7
2023-03-03T20:00:00,2284A,116.7856,33.9477,淮北市,职业技术学院,细颗粒物(PM2.5),129,148,114,98,70,150,105,132,132,45,38,10,11,0.9,0.7
2023-03-03T20:00:00,2285A,117.8177,30.9412,铜陵市,市第四中学,细颗粒物(PM2.5),123,141,94,93,55,110,7,77,73,108,57,20,19,1.8,0.8
2023-03-03T20:00:00,2286A,117.8059,30.9273,铜陵市,市公路局,细颗粒物(PM2.5),120,140,98,91,62,100,12,74,66,90,49,18,17,1.7,1.2
2023-03-03T20:00:00,2287A,117.7807,30.9413,铜陵市,市新民污水厂,细颗粒物(PM2.5),95,131,102,71,55,114,8,74,67,97,63,12,16,1.5,0.9
2023-03-03T20:00:00,2288A,117.7439,30.8792,铜陵市,市第九中学,颗粒物(PM10),76,101,116,53,64,130,40,70,68,70,75,17,16,0.7,0.9
2023-03-03T20:00:00,2289A,117.846,30.9413,铜陵市,车站新区,细颗粒物(PM2.5),95,105,81,71,48,113,42,87,87,72,53,15,11,1.2,0.6
2023-03-03T20:00:00,2290A,117.8483,30.97,铜陵市,市职教基地,颗粒物(PM10),70,89,76,48,40,123,49,102,95,53,29,10,5,0.7,0.3
2023-03-03T20:00:00,2291A,117.0809,30.5177,安庆市,环科院,细颗粒物(PM2.5),102,105,93,76,63,130,53,108,102,76,40,9,12,0.8,0.7
2023-03-03T20:00:00,2292A,117.0331,30.5119,安庆市,马山宾馆,细颗粒物(PM2.5),103,106,95,77,60,124,65,107,105,62,37,10,11,0.8,0.8
2023-03-03T20:00:00,2294A,116.9896,30.6145,安庆市,安庆大学,颗粒物(PM10),86,121,101,62,57,133,72,110,107,63,48,11,12,0.9,1
2023-03-03T20:00:00,2295A,118.2903,29.6963,黄山市,延安路89号,细颗粒物(PM2.5),95,78,48,71,41,139,57,125,116,32,18,6,6,0.6,0.4
2023-03-03T20:00:00,2296A,118.327,29.7178,黄山市,黄山东路89号,细颗粒物(PM2.5),74,74,55,54,40,132,24,120,98,61,25,7,5,0.8,0.5
2023-03-03T20:00:00,2297A,118.1371,30.2756,黄山市,黄山区政府5号楼,细颗粒物(PM2.5),78,89,66,57,41,135,74,123,118,22,18,7,7,0.7,0.5
2023-03-03T20:00:00,2298A,118.3093,32.3153,滁州市,老年大学,细颗粒物(PM2.5),69,79,84,50,51,124,89,110,109,46,52,15,10,0.9,0.6
2023-03-03T20:00:00,2299A,118.3244,32.2786,滁州市,人大宾馆,细颗粒物(PM2.5),77,100,93,56,51,119,74,107,104,63,53,15,10,0.9,0.7
2023-03-03T20:00:00,2301A,115.8277,32.8929,阜阳市,市监测站,细颗粒物(PM2.5),117,146,109,88,72,157,66,144,132,77,32,8,9,1.1,0.7
2023-03-03T20:00:00,2303A,115.8554,32.8605,阜阳市,开发区,颗粒物(PM10),122,194,134,83,69,160,92,143,140,58,31,10,11,0.8,0.6
2023-03-03T20:00:00,2307A,116.5079,31.737,六安市,监测大楼,细颗粒物(PM2.5),135,80,85,103,58,158,116,140,140,30,27,9,8,0.4,0.4
2023-03-03T20:00:00,2308A,116.4738,31.7643,六安市,皖西学院,"颗粒物(PM10),细颗粒物(PM2.5)",72,93,90,52,52,155,115,139,139,30,29,7,6,0.4,0.5
2023-03-03T20:00:00,2309A,116.4996,31.7905,六安市,朝阳厂,细颗粒物(PM2.5),80,72,81,59,57,158,116,143,143,23,18,7,8,0.5,0.5
2023-03-03T20:00:00,2310A,116.5567,31.7886,六安市,开发区,颗粒物(PM10),84,118,114,59,62,159,75,140,134,64,33,32,13,0.5,0.5
2023-03-03T20:00:00,2311A,115.8072,33.8399,亳州市,污水处理厂,颗粒物(PM10),97,143,106,69,58,134,77,119,115,45,22,8,9,0.7,0.6
2023-03-03T20:00:00,2312A,115.7789,33.8518,亳州市,三国揽胜宫,颗粒物(PM10),95,139,111,60,56,158,77,148,138,54,22,6,8,0.9,0.6
2023-03-03T20:00:00,2314A,117.47,30.6618,池州市,池州学院,细颗粒物(PM2.5),99,106,88,74,63,139,99,119,119,37,26,9,7,0.9,0.7
2023-03-03T20:00:00,2316A,118.7581,30.9454,宣城市,鳌峰子站,细颗粒物(PM2.5),83,90,91,61,57,121,104,110,110,26,30,7,9,0.5,0.6
2023-03-03T20:00:00,2317A,118.7385,30.9743,宣城市,敬亭山子站,细颗粒物(PM2.5),73,79,88,53,53,135,126,121,121,13,30,10,12,0.5,0.6
2023-03-03T20:00:00,2318A,118.7173,30.9427,宣城市,开发区子站,细颗粒物(PM2.5),79,93,91,58,56,121,111,112,112,25,32,6,8,0.6,0.7
2023-03-03T20:00:00,2319A,119.0141,25.4325,莆田市,荔城区仓后路,,45,45,50,19,23,139,92,134,118,23,14,8,8,0.9,0.6
2023-03-03T20:00:00,2320A,119.0015,25.4553,莆田市,莆田市监测站,,48,48,51,20,23,142,89,136,120,27,16,9,8,0.8,0.6
2023-03-03T20:00:00,2321A,119.1119,25.4561,莆田市,涵江区六中,颗粒物(PM10),51,51,53,20,26,148,101,142,120,19,15,8,8,0.5,0.5
2023-03-03T20:00:00,2322A,119.1013,25.3215,莆田市,秀屿区政府,,35,34,49,15,24,141,109,138,121,15,17,5,6,0.5,0.5
2023-03-03T20:00:00,2323A,118.981,25.4792,莆田市,东圳水库,,,,,,,,,,,,,,,,
2023-03-03T20:00:00,2324A,117.6211,26.2625,三明市,三钢,,,,,,,,,,,,,,,,
2023-03-03T20:00:00,2325A,117.635,26.2714,三明市,三明二中,细颗粒物(PM2.5),60,63,60,43,44,144,110,125,125,21,28,4,8,0.6,0.6
2023-03-03T20:00:00,2326A,117.6028,26.2378,三明市,三元区政府,细颗粒物(PM2.5),67,63,68,48,54,144,102,122,121,23,28,11,10,1.1,0.9
2023-03-03T20:00:00,2327A,117.7275,26.3108,三明市,洋溪,,,,,,,,,,,,,,,,
2023-03-03T20:00:00,2331A,118.0966,26.6761,南平市,茫荡山,,,,,,,,,,,,,,,,
2023-03-03T20:00:00,2332A,118.1681,26.6369,南平市,南平市监测站,细颗粒物(PM2.5),67,73,57,48,37,148,62,134,116,52,22,4,5,1.2,0.6
2023-03-03T20:00:00,2333A,118.1825,26.6489,南平市,南平铝业有限公司,细颗粒物(PM2.5),70,81,61,51,39,145,86,130,111,34,23,9,8,0.9,0.4
2023-03-03T20:00:00,2334A,118.1756,26.6272,南平市,南平七中,颗粒物(PM10),66,81,56,37,34,149,73,137,123,40,19,6,5,0.9,0.6
2023-03-03T20:00:00,2335A,117.0189,25.1181,龙岩市,龙岩师专,,,,,,,,,,,,,,,,
2023-03-03T20:00:00,2336A,117.0217,25.1033,龙岩市,龙岩市监测站,颗粒物(PM10),68,86,64,40,45,144,96,127,124,28,32,8,12,0.7,0.7
2023-03-03T20:00:00,2337A,117.0258,25.0661,龙岩市,闽西职业技术学院,颗粒物(PM10),58,65,68,38,44,130,101,117,117,17,30,8,16,0.6,0.6
2023-03-03T20:00:00,2338A,117.0196,25.0306,龙岩市,龙岩学院,细颗粒物(PM2.5),55,57,61,39,45,131,103,118,118,13,19,6,8,0.5,0.5
2023-03-03T20:00:00,2339A,119.5001,26.6946,宁德市,金涵水库,,,,,,,,,,,,,,,,
2023-03-03T20:00:00,2341A,119.5388,26.6612,宁德市,宁德市监测站,,36,36,46,17,28,136,104,120,119,16,17,2,3,0.5,0.6
2023-03-03T20:00:00,2342A,117.3102,29.3867,景德镇市,王港中学,细颗粒物(PM2.5),58,54,43,41,26,118,50,101,95,15,12,3,3,0.2,0.2
2023-03-03T20:00:00,2343A,117.2117,29.2933,景德镇市,老干部活动中心,细颗粒物(PM2.5),90,113,78,67,37,95,35,78,73,44,38,31,10,1.0,0.7
2023-03-03T20:00:00,2344A,117.1894,29.2789,景德镇市,兽医站,细颗粒物(PM2.5),73,78,60,53,37,118,43,98,93,58,36,56,11,0.7,0.5
2023-03-03T20:00:00,2345A,117.1547,29.2617,景德镇市,台达陶瓷,细颗粒物(PM2.5),75,96,68,55,36,100,33,88,82,75,43,73,21,1.3,1.1
2023-03-03T20:00:00,2346A,117.2461,29.2956,景德镇市,陶研所,颗粒物(PM10),82,113,70,55,33,108,30,86,80,51,37,20,9,1.3,0.9
2023-03-03T20:00:00,2347A,114.0997,27.5002,萍乡市,武功山,细颗粒物(PM2.5),73,53,47,53,44,100,55,89,88,16,17,9,8,0.9,0.8
2023-03-03T20:00:00,2348A,113.8385,27.6434,萍乡市,中医院,细颗粒物(PM2.5),143,149,117,109,80,103,34,102,58,56,32,36,28,2.0,1.2
2023-03-03T20:00:00,2349A,113.8493,27.6253,萍乡市,市政府车库,细颗粒物(PM2.5),142,134,103,108,83,120,31,112,68,53,29,26,25,1.9,1.2
2023-03-03T20:00:00,2350A,113.8676,27.6435,萍乡市,市环保局,细颗粒物(PM2.5),115,124,115,87,75,130,31,120,61,59,30,41,31,1.9,1.1
2023-03-03T20:00:00,2351A,113.866,27.6198,萍乡市,安源区政府,细颗粒物(PM2.5),93,124,115,69,74,116,57,104,65,31,32,18,22,1.5,1.2
2023-03-03T20:00:00,2352A,115.0861,27.9317,新余市,北岗,细颗粒物(PM2.5),69,76,75,50,57,89,43,68,63,41,36,13,40,0.8,0.7
2023-03-03T20:00:00,2353A,114.9886,27.8431,新余市,飞宇,细颗粒物(PM2.5),70,87,90,51,53,100,30,79,58,42,35,6,27,0.9,0.8
2023-03-03T20:00:00,2354A,114.9231,27.8246,新余市,第二水厂,细颗粒物(PM2.5),74,89,99,54,56,101,41,78,59,36,35,9,21,0.6,0.6
2023-03-03T20:00:00,2355A,114.9308,27.8036,新余市,市气象局,细颗粒物(PM2.5),88,80,103,65,62,104,39,85,53,33,36,8,22,0.9,0.8
2023-03-03T20:00:00,2357A,116.9822,28.1136,鹰潭市,龙虎山,"颗粒物(PM10),细颗粒物(PM2.5)",58,65,65,41,45,142,98,129,125,14,7,8,11,0.8,0.7
2023-03-03T20:00:00,2358A,117.0564,28.2642,鹰潭市,新监测站,细颗粒物(PM2.5),75,98,74,55,56,138,92,125,121,40,28,13,20,0.4,0.5
2023-03-03T20:00:00,2359A,117.0311,28.2475,鹰潭市,财苑宾馆,细颗粒物(PM2.5),79,90,75,58,55,145,91,133,118,35,27,10,23,0.5,0.5
2023-03-03T20:00:00,2360A,117.0222,28.2264,鹰潭市,体育馆,细颗粒物(PM2.5),99,86,81,74,61,172,93,126,122,38,36,10,28,0.4,0.3
2023-03-03T20:00:00,2361A,117.0017,28.2131,鹰潭市,三川水表,细颗粒物(PM2.5),94,93,84,70,64,135,57,122,113,69,44,9,21,0.6,0.5
2023-03-03T20:00:00,2362A,114.9017,25.9149,赣州市,通天岩,细颗粒物(PM2.5),70,75,71,51,46,140,100,117,116,18,18,10,12,1.1,1
2023-03-03T20:00:00,2363A,114.9367,25.8664,赣州市,地委,细颗粒物(PM2.5),70,86,89,51,52,127,105,121,118,18,25,12,12,0.8,1
2023-03-03T20:00:00,2364A,114.9461,25.8481,赣州市,气象台,细颗粒物(PM2.5),73,75,77,53,52,120,96,112,110,22,31,14,22,0.8,0.8
2023-03-03T20:00:00,2365A,114.9322,25.8333,赣州市,市图书馆,细颗粒物(PM2.5),74,76,85,54,51,132,103,116,114,19,25,10,21,1.2,1.2
