timepoint,stationcode,longitude,latitude,area,positionname,primarypollutant,aqi,pm10,pm10_24h,pm2_5,pm2_5_24h,o3,o3_24h,o3_8h,o3_8h_24h,no2,no2_24h,so2,so2_24h,co,co_24h
2025-12-19T1200,2566A,102.1879,31.914,阿坝藏族羌族自治州,州农科所,,,,,,,,,,,,,,,,
2025-12-19T1200,2568A,102.2502,31.8896,阿坝藏族羌族自治州,马师校,,18,18,22,8,17,43,43,28,28,8,16,4,4,0.5,0.6
2025-12-19T1200,3994A,102.2165,31.9024,阿坝藏族羌族自治州,马尔康中学西区,,15,,9,7,13,46,46,34,34,7,13,5,5,0.5,0.6
2025-12-19T1200,2695A,80.292,41.1694,阿克苏地区,电视台,颗粒物(PM10),137,224,200,62,67,13,13,25,18,44,35,7,9,0.8,0.6
2025-12-19T1200,2696A,80.2613,41.1551,阿克苏地区,艺术中心,颗粒物(PM10),122,193,201,72,81,10,10,14,13,48,50,5,4,1.3,1.2
2025-12-19T1200,2204A,105.6467,38.8363,阿拉善盟,西城区西花园,,,,,,,,,,,,,,,,
2025-12-19T1200,2205A,105.6985,38.8411,阿拉善盟,蒙二幼,,26,14,49,3,17,83,83,83,82,6,8,10,11,0.6,0.7
2025-12-19T1200,2206A,105.724,38.8516,阿拉善盟,环保局新楼,,24,9,38,3,17,76,76,78,78,4,7,8,10,0.5,0.7
2025-12-19T1200,2708A,88.1264,47.8517,阿勒泰地区,市站,,25,25,22,13,15,31,31,31,31,38,45,5,4,0.6,0.4
2025-12-19T1200,2630A,80.1161,32.5,阿里地区,阿里监测站,,19,,3,3,3,58,58,59,58,10,9,9,10,0.4,0.4
2025-12-19T1200,3192A,80.0903,32.5028,阿里地区,阿里藏医院,,26,26,16,13,9,59,59,52,49,15,10,23,11,0.7,0.6
2025-12-19T1200,2642A,109.0318,32.6537,安康市,香溪洞,,,,,,,,,,,,,,,,
2025-12-19T1200,2644A,109.0072,32.6975,安康市,汉滨区检察院,细颗粒物(PM2.5),69,76,71,50,46,8,8,6,6,26,30,6,4,0.8,0.8
2025-12-19T1200,4054A,109.0325,32.6913,安康市,市邮政管理局,细颗粒物(PM2.5),89,93,81,66,53,4,4,3,3,31,30,6,6,1.2,1.1
2025-12-19T1200,2291A,117.0809,30.5177,安庆市,环科院,细颗粒物(PM2.5),150,146,174,115,140,70,70,23,23,34,66,10,7,1.0,1
2025-12-19T1200,2292A,117.0331,30.5119,安庆市,马山宾馆,细颗粒物(PM2.5),149,155,167,114,134,85,85,30,30,40,68,12,7,0.9,1
2025-12-19T1200,2294A,116.9896,30.6145,安庆市,安庆大学,细颗粒物(PM2.5),104,124,163,78,122,107,107,32,32,20,44,10,7,0.7,0.9
2025-12-19T1200,3173A,117.0598,30.5351,安庆市,市人大,细颗粒物(PM2.5),138,150,177,105,138,85,85,24,24,36,68,24,10,0.8,0.9
2025-12-19T1200,3122A,105.9606,26.2611,安顺市,伍家关,,,,32,,28,43,43,43,,8,7,12,11,0.6,0.7
2025-12-19T1200,3123A,105.9408,26.2431,安顺市,凤凰山,,30,26,34,21,27,49,49,50,46,10,11,11,10,0.4,0.5
2025-12-19T1200,3124A,105.9439,26.2564,安顺市,金钟山,,,,36,,27,,,50,47,10,9,,13,0.6,0.6
2025-12-19T1200,3125A,105.8983,26.2481,安顺市,娄家坡,,29,25,33,20,26,48,48,49,46,9,9,12,10,0.6,0.6
2025-12-19T1200,1818A,114.4839,36.0621,安阳市,棉研所,,,,,,,,,,,,,,,,
2025-12-19T1200,1819A,114.3551,36.1017,安阳市,红庙街,细颗粒物(PM2.5),214,178,175,164,150,12,12,7,7,47,47,2,3,1.6,1.4
2025-12-19T1200,1820A,114.361,36.0681,安阳市,银杏小区,细颗粒物(PM2.5),200,211,185,150,157,12,12,7,7,46,44,1,3,1.7,1.2
2025-12-19T1200,3141A,114.3922,36.0878,安阳市,信访局,细颗粒物(PM2.5),156,212,178,119,150,16,16,9,9,44,43,1,3,1.5,1.1
2025-12-19T1200,3669A,114.4705,36.0637,安阳市,左辅环卫站,细颗粒物(PM2.5),137,188,181,104,132,23,23,13,13,36,35,3,2,1.2,1.1
2025-12-19T1200,3703A,114.2917,36.0949,安阳市,安钢职工学校,细颗粒物(PM2.5),188,218,187,141,158,14,14,7,7,48,51,2,3,2.2,1.4
2025-12-19T1200,1748A,123.044,41.1196,鞍山市,深沟寺,细颗粒物(PM2.5),83,73,45,61,30,77,77,83,83,23,12,10,9,1.0,0.7
2025-12-19T1200,1749A,123.011,41.0931,鞍山市,太阳城,细颗粒物(PM2.5),75,72,46,55,30,70,70,78,77,26,15,10,11,0.9,0.8
2025-12-19T1200,1750A,123.0485,41.1442,鞍山市,太平,细颗粒物(PM2.5),74,89,52,54,29,67,67,79,77,28,15,11,9,0.9,0.7
2025-12-19T1200,1751A,122.9642,41.0971,鞍山市,铁西三道街,细颗粒物(PM2.5),85,98,60,63,34,67,67,68,68,29,23,12,15,0.6,0.5
2025-12-19T1200,1753A,123.022,41.0821,鞍山市,明达新区,细颗粒物(PM2.5),93,92,46,69,30,74,74,85,84,24,13,13,12,0.7,0.3
2025-12-19T1200,1754A,123.1289,41.0228,鞍山市,千山,,,,37,,28,,,70,,,16,,4,,0.4
2025-12-19T1200,4201A,122.9446,41.0826,鞍山市,兴盛南路290号,细颗粒物(PM2.5),83,87,60,61,33,75,75,74,74,33,25,13,13,0.6,0.6
2025-12-19T1200,2195A,107.4212,40.761,巴彦淖尔市,附二中,,46,46,102,29,49,47,47,53,46,13,24,6,8,0.3,0.6
2025-12-19T1200,2196A,107.37,40.7372,巴彦淖尔市,市环保大楼,,46,46,98,20,39,46,46,59,47,14,24,4,6,0.5,0.6
2025-12-19T1200,1956A,86.1472,41.7538,巴音郭楞蒙古自治州,孔雀公园,颗粒物(PM10),114,177,173,37,48,,,9,1,82,57,12,11,,0.9
2025-12-19T1200,1957A,86.1972,41.7166,巴音郭楞蒙古自治州,棉纺厂,颗粒物(PM10),92,134,184,28,33,7,7,21,21,76,41,11,7,1.3,0.8
2025-12-19T1200,1958A,86.2357,41.7173,巴音郭楞蒙古自治州,经济开发区,颗粒物(PM10),61,72,129,11,28,36,36,40,37,35,21,6,7,0.4,0.6
2025-12-19T1200,2914A,106.7677,31.8794,巴中市,苏山坪,,,,,,,,,,,,,,,,
2025-12-19T1200,3181A,106.7768,31.8526,巴中市,市五中,细颗粒物(PM2.5),90,89,98,67,74,3,3,1,1,32,29,6,6,1.4,1.2
2025-12-19T1200,3183A,106.7418,31.8654,巴中市,圣泉水务公司,细颗粒物(PM2.5),82,74,84,60,68,6,6,10,8,28,32,5,5,0.8,0.8
2025-12-19T1200,3616A,106.7616,31.8344,巴中市,市中心医院,细颗粒物(PM2.5),99,87,94,74,80,4,4,2,2,28,30,6,6,1.3,1.4
2025-12-19T1200,2235A,122.7911,45.6077,白城市,洮北区环保局,细颗粒物(PM2.5),117,112,114,88,100,38,38,20,20,18,31,8,9,0.6,0.8
2025-12-19T1200,2236A,122.8738,45.5725,白城市,市环保局,细颗粒物(PM2.5),103,122,125,77,94,36,36,19,19,17,30,5,7,0.6,0.7
2025-12-19T1200,2231A,126.4219,41.9171,白山市,喜丰,,,15,33,7,17,,,75,,8,9,10,11,0.7,0.7
2025-12-19T1200,2232A,126.4077,41.9419,白山市,环保局,,25,17,32,7,26,80,80,57,57,8,22,11,12,0.8,1.1
2025-12-19T1200,2647A,104.1724,36.5446,白银市,第三小学,颗粒物(PM10),51,52,77,15,34,67,67,62,48,20,36,32,25,1.0,1
2025-12-19T1200,2648A,104.1465,36.5482,白银市,动力公司,,,,84,16,40,73,73,62,52,15,28,12,20,0.5,0.8
2025-12-19T1200,2512A,106.6103,23.9011,百色市,市监测站,细颗粒物(PM2.5),79,74,55,58,40,36,36,12,12,20,20,18,8,1.0,0.8
2025-12-19T1200,2513A,106.6538,23.8859,百色市,市中心血站,细颗粒物(PM2.5),99,86,74,74,57,28,28,8,8,28,32,15,10,1.0,0.9
2025-12-19T1200,3406A,106.6085,23.8798,百色市,祈福高中,细颗粒物(PM2.5),89,68,64,66,41,28,28,8,8,30,28,16,7,1.0,0.8
2025-12-19T1200,2270A,117.396,32.939,蚌埠市,工人疗养院,细颗粒物(PM2.5),129,138,149,98,104,86,86,92,87,,23,8,7,,0.8
2025-12-19T1200,2271A,117.3605,32.9427,蚌埠市,百货大楼,细颗粒物(PM2.5),122,132,130,92,98,84,84,95,87,36,28,9,7,0.9,0.9
2025-12-19T1200,2273A,117.4185,32.8911,蚌埠市,蚌埠学院,细颗粒物(PM2.5),115,117,134,87,102,88,88,85,85,31,27,9,6,0.8,0.8
2025-12-19T1200,2274A,117.3533,32.9673,蚌埠市,淮上区政府,细颗粒物(PM2.5),134,134,138,102,104,93,93,97,90,26,23,9,7,0.8,0.8
2025-12-19T1200,2275A,117.3145,32.8977,蚌埠市,高新区,细颗粒物(PM2.5),143,136,140,109,110,83,83,82,76,27,27,12,11,0.9,0.9
2025-12-19T1200,3715A,117.3092,32.9314,蚌埠市,蚌埠田家炳中学,细颗粒物(PM2.5),152,154,147,116,112,81,81,83,75,35,31,7,9,0.9,0.9
2025-12-19T1200,1585A,109.8756,40.6532,包头市,市环境监测站,颗粒物(PM10),51,52,84,11,43,66,66,58,58,16,47,8,16,0.7,1.3
2025-12-19T1200,1587A,109.9991,40.5842,包头市,包头八中,颗粒物(PM10),60,69,90,8,57,64,64,55,55,9,45,4,13,0.3,0.8
2025-12-19T1200,1588A,109.8538,40.6821,包头市,青山宾馆,,32,32,78,7,53,68,68,57,57,13,49,6,12,0.5,1.1
2025-12-19T1200,1589A,109.8642,40.6288,包头市,惠龙物流,,34,34,83,14,43,66,66,61,61,14,45,6,15,0.6,1.1
2025-12-19T1200,1590A,110.0377,40.5546,包头市,东河鸿龙湾,,40,40,72,3,44,59,59,52,52,10,45,8,11,0.5,1
2025-12-19T1200,3283A,109.9154,40.5685,包头市,滨河大厦,,49,49,73,16,39,60,60,56,56,10,39,10,13,0.5,0.9
2025-12-19T1200,3419A,109.9447,40.6261,包头市,包头市委党校,颗粒物(PM10),52,54,82,7,41,64,64,56,56,10,45,6,14,0.4,0.9
2025-12-19T1200,3683A,109.8331,40.6576,包头市,昆区政府,,38,38,87,8,54,64,64,60,60,15,50,5,14,0.6,1.1
2025-12-19T1200,1930A,107.185,34.3063,宝鸡市,庙沟村,,,,,,,,,,,,,,,,
2025-12-19T1200,1931A,107.0708,34.3017,宝鸡市,竹园沟,颗粒物(PM10),51,52,85,33,73,68,68,35,32,14,26,8,8,0.4,0.6
2025-12-19T1200,1932A,107.1906,34.3672,宝鸡市,三陆医院,细颗粒物(PM2.5),69,85,132,50,104,29,29,9,9,42,58,7,8,0.9,1
2025-12-19T1200,1933A,107.1431,34.3547,宝鸡市,监测站,细颗粒物(PM2.5),73,89,115,53,95,29,29,14,14,38,42,6,7,0.7,0.9
2025-12-19T1200,1934A,107.1186,34.3739,宝鸡市,技工学校,颗粒物(PM10),80,110,125,53,93,52,52,19,19,20,43,10,9,0.6,1.1
2025-12-19T1200,1936A,107.2058,34.3497,宝鸡市,文理学院,细颗粒物(PM2.5),70,66,114,51,93,39,39,,,33,49,6,7,0.7,0.8
2025-12-19T1200,1937A,107.2386,34.3622,宝鸡市,三迪小学,细颗粒物(PM2.5),74,78,132,54,106,45,45,10,10,30,63,7,7,0.6,1
2025-12-19T1200,4308A,107.3898,34.3601,宝鸡市,陈仓区北开路21号,颗粒物(PM10),72,94,145,50,113,44,44,42,42,31,47,16,52,0.6,1
2025-12-19T1200,1051A,115.493,38.8632,保定市,游泳馆,细颗粒物(PM2.5),239,191,176,189,170,23,23,12,12,52,58,6,6,0.8,0.8
2025-12-19T1200,1052A,115.5213,38.8959,保定市,华电二区,细颗粒物(PM2.5),237,189,166,187,169,21,21,8,8,31,44,3,2,1.1,1.1
2025-12-19T1200,1053A,115.4713,38.9108,保定市,接待中心,细颗粒物(PM2.5),241,200,186,191,171,25,25,10,10,42,58,3,3,1.2,1.2
2025-12-19T1200,1054A,115.4612,38.8416,保定市,地表水厂,细颗粒物(PM2.5),236,221,199,186,170,24,24,15,15,49,55,2,2,1.0,1
2025-12-19T1200,3581A,115.31981,38.95208,保定市,满城区生态环境分局,细颗粒物(PM2.5),243,222,207,193,162,36,36,16,16,52,65,6,5,1.1,1.1
2025-12-19T1200,3582A,115.47694,38.76408,保定市,清苑区第二中学,细颗粒物(PM2.5),236,246,211,186,155,24,24,9,9,44,52,5,4,1.2,1.2
2025-12-19T1200,3583A,115.62909,39.02311,保定市,徐水物探局,细颗粒物(PM2.5),233,233,212,183,163,23,23,4,4,37,54,8,8,1.2,1.3
2025-12-19T1200,4004A,115.4202,38.8656,保定市,双鹰农机,细颗粒物(PM2.5),230,244,220,180,162,28,28,16,16,51,59,3,2,1.1,1
2025-12-19T1200,4034A,115.5150,38.8590,保定市,植保所站,细颗粒物(PM2.5),233,211,192,183,174,21,21,10,10,44,57,3,2,1.3,1.2
2025-12-19T1200,2594A,99.1678,25.1081,保山市,市环境监测站,,36,36,23,15,17,57,57,27,26,14,10,8,6,0.4,0.4
2025-12-19T1200,2595A,99.1711,25.1328,保山市,市环保局,,46,46,28,27,18,56,56,36,33,16,7,4,4,0.5,0.5
2025-12-19T1200,1866A,109.2262,21.588,北海市,牛尾岭水库,细颗粒物(PM2.5),57,51,41,40,35,111,111,60,60,12,16,11,10,0.5,0.5
2025-12-19T1200,1867A,109.1436,21.4086,北海市,海滩公园,颗粒物(PM10),51,51,52,27,30,139,139,101,88,13,17,14,11,0.7,0.8
2025-12-19T1200,1868A,109.0981,21.4661,北海市,新市环保局,,44,44,52,24,34,126,126,96,86,13,19,14,14,0.6,0.6
2025-12-19T1200,1869A,109.1778,21.5233,北海市,北海工业园,颗粒物(PM10),54,58,56,27,36,119,119,83,83,12,18,9,15,0.6,0.7
2025-12-19T1200,3400A,109.1911,21.4415,北海市,龙潭自来水厂,细颗粒物(PM2.5),52,46,46,36,34,134,134,76,72,10,14,13,9,0.8,0.8
2025-12-19T1200,1001A,116.3621,39.8784,北京市,万寿西宫,细颗粒物(PM2.5),223,223,218,173,166,51,51,27,27,31,62,3,2,1.3,1.3
2025-12-19T1200,1002A,116.2202,40.2915,北京市,定陵,,,,,,,,,,,,,,,,
2025-12-19T1200,1003A,116.4174,39.9289,北京市,东四,细颗粒物(PM2.5),223,219,208,173,161,47,47,27,27,49,71,5,4,1.3,1.3
2025-12-19T1200,1004A,116.4072,39.8863,北京市,天坛,细颗粒物(PM2.5),222,219,209,172,161,52,52,26,26,34,62,2,1,1.2,1.3
2025-12-19T1200,1005A,116.462,39.9365,北京市,农展馆,细颗粒物(PM2.5),218,216,207,168,159,50,50,27,27,29,53,5,4,1.3,1.3
2025-12-19T1200,1006A,116.3392,39.9295,北京市,官园,细颗粒物(PM2.5),215,203,203,165,160,42,42,19,19,38,62,3,3,1.3,1.4
2025-12-19T1200,1007A,116.2878,39.9611,北京市,海淀万柳,细颗粒物(PM2.5),213,180,187,163,157,27,27,13,13,51,60,4,3,1.2,1.1
2025-12-19T1200,1008A,116.6636,40.135,北京市,顺义新城,细颗粒物(PM2.5),222,217,214,172,165,56,56,15,15,17,52,4,4,1.1,1.2
2025-12-19T1200,1009A,116.6275,40.3275,北京市,怀柔镇,细颗粒物(PM2.5),213,193,196,163,162,55,55,30,30,27,44,6,6,1.2,1.2
2025-12-19T1200,1010A,116.2296,40.217,北京市,昌平镇,细颗粒物(PM2.5),203,183,196,153,154,22,22,9,9,43,56,4,5,1.1,1.1
2025-12-19T1200,1011A,116.3966,39.9821,北京市,奥体中心,细颗粒物(PM2.5),218,198,196,168,158,43,43,15,15,43,72,4,3,1.6,1.6
2025-12-19T1200,3281A,115.9718,40.4529,北京市,延庆夏都,细颗粒物(PM2.5),178,171,185,134,143,33,33,20,17,29,35,3,2,1.2,1.2
2025-12-19T1200,3418A,116.8336,40.4095,北京市,密云新城,细颗粒物(PM2.5),219,224,206,169,155,59,59,21,21,19,43,3,3,1.1,1.2
2025-12-19T1200,3671A,116.088,39.9726,北京市,门头沟三家店,细颗粒物(PM2.5),75,71,198,55,151,50,50,16,16,12,44,5,4,0.6,1.2
2025-12-19T1200,3672A,116.1541,39.8204,北京市,丰台云岗,细颗粒物(PM2.5),165,154,203,125,156,33,33,17,17,38,51,7,5,1.0,1.2
2025-12-19T1200,3673A,116.6804,39.9081,北京市,通州东关,,,,218,,168,,,12,,,54,,4,,1.2
2025-12-19T1200,3674A,115.9577,39.7603,北京市,房山燕山,细颗粒物(PM2.5),227,202,204,177,163,57,57,19,19,28,45,3,2,1.1,1.1
2025-12-19T1200,3675A,116.4672,39.7733,北京市,大兴旧宫,细颗粒物(PM2.5),224,231,216,174,161,50,50,18,18,29,52,5,4,1.3,1.3
2025-12-19T1200,3694A,115.986,40.4563,北京市,延庆石河营,细颗粒物(PM2.5),169,160,175,128,140,35,35,24,21,27,33,3,3,1.2,1.2
2025-12-19T1200,3695A,116.6151,40.3053,北京市,怀柔新城,细颗粒物(PM2.5),229,208,200,179,168,54,54,33,33,18,33,3,3,1.2,1.1
2025-12-19T1200,3696A,116.2545,39.8768,北京市,丰台小屯,细颗粒物(PM2.5),190,174,210,143,159,40,40,23,23,33,57,4,3,1.1,1.2
2025-12-19T1200,3697A,116.84,40.3844,北京市,密云镇,细颗粒物(PM2.5),228,203,192,178,162,51,51,14,14,22,50,4,3,1.1,1.2
2025-12-19T1200,4182A,116.1942,39.9158,北京市,八角北路9号,细颗粒物(PM2.5),156,144,201,119,150,39,39,20,20,29,51,5,2,0.9,1.1
2025-12-19T1200,4194A,117.0790,40.1518,北京市,洳河巡河路,细颗粒物(PM2.5),260,249,234,210,192,46,46,17,17,28,39,1,1,1.1,1.1
2025-12-19T1200,1761A,123.8275,41.3064,本溪市,大峪,细颗粒物(PM2.5),53,51,36,37,22,78,78,77,74,14,11,9,10,0.7,0.8
2025-12-19T1200,1762A,123.7567,41.3325,本溪市,溪湖,,40,40,49,26,26,65,65,62,61,17,18,12,14,0.7,1.1
2025-12-19T1200,1763A,123.7169,41.3094,本溪市,彩屯,细颗粒物(PM2.5),55,56,52,39,31,37,37,50,43,42,30,24,18,2.8,2.8
2025-12-19T1200,1764A,123.7669,41.2864,本溪市,东明,,40,33,40,28,26,70,70,72,71,18,13,8,9,0.4,0.5
2025-12-19T1200,1765A,123.7992,41.2664,本溪市,新立屯,,39,35,36,27,24,59,59,64,60,20,13,7,8,0.4,0.5
2025-12-19T1200,1766A,123.8142,41.3472,本溪市,威宁,,40,37,42,28,25,73,73,74,71,9,7,10,11,0.8,0.8
2025-12-19T1200,2587A,105.2864,27.3125,毕节市,八中,细颗粒物(PM2.5),79,76,111,58,89,37,37,12,12,23,22,15,12,1.2,1.1
2025-12-19T1200,2588A,105.31,27.2944,毕节市,师专,细颗粒物(PM2.5),83,78,125,61,92,31,31,8,8,28,34,13,12,1.1,1.3
2025-12-19T1200,4263A,105.3688,27.3598,毕节市,工业大道,细颗粒物(PM2.5),72,58,113,52,84,36,36,8,8,18,25,15,12,1.0,1.2
2025-12-19T1200,1629A,118.0018,37.3617,滨州市,第二水厂,细颗粒物(PM2.5),144,158,111,110,73,54,54,24,24,42,48,15,11,0.8,0.6
2025-12-19T1200,1630A,117.9776,37.393,滨州市,北中新校,细颗粒物(PM2.5),140,153,105,107,72,40,40,21,21,52,49,14,9,0.9,0.7
2025-12-19T1200,3514A,117.9378,37.3956,滨州市,中海酒店,细颗粒物(PM2.5),163,151,103,124,78,48,48,31,31,48,45,17,12,1.1,0.9
2025-12-19T1200,3515A,117.9378,37.3553,滨州市,开发区一中,细颗粒物(PM2.5),168,161,113,127,79,44,44,20,20,40,45,21,15,1.1,0.9
2025-12-19T1200,3516A,118.0917,37.694,滨州市,金海六路,细颗粒物(PM2.5),128,149,110,97,69,52,52,33,33,45,40,20,15,1.0,0.7
2025-12-19T1200,4028A,117.9956,37.3753,滨州市,滨州市西街道办事处,细颗粒物(PM2.5),156,156,109,119,81,54,54,22,22,42,46,,10,1.0,0.8
2025-12-19T1200,2311A,115.8072,33.8399,亳州市,污水处理厂,细颗粒物(PM2.5),158,137,154,120,124,81,81,48,44,33,34,6,6,0.9,0.8
2025-12-19T1200,2312A,115.7789,33.8518,亳州市,三国揽胜宫,,,,171,,105,75,75,50,48,24,34,7,7,,0.8
2025-12-19T1200,3332A,115.7633,33.8034,亳州市,亳州学院,细颗粒物(PM2.5),143,142,156,109,122,81,81,50,49,29,29,5,4,0.8,0.8
2025-12-19T1200,2693A,82.0485,44.8556,博尔塔拉蒙古自治州,市党校,,30,30,33,7,10,50,50,46,46,5,8,4,4,0.1,0.1
2025-12-19T1200,2694A,82.0806,44.8969,博尔塔拉蒙古自治州,市环保局,,42,42,45,19,19,44,44,40,40,17,17,8,10,0.4,0.4
2025-12-19T1200,1071A,116.8842,38.2991,沧州市,沧县城建局,细颗粒物(PM2.5),273,231,191,223,166,14,14,10,10,63,58,6,6,1.8,1.5
2025-12-19T1200,1072A,116.8584,38.3254,沧州市,电视转播站,细颗粒物(PM2.5),260,234,195,210,168,3,3,1,1,61,55,5,3,1.6,1.4
2025-12-19T1200,1073A,116.8709,38.3228,沧州市,市环保局,细颗粒物(PM2.5),252,242,200,202,169,6,6,4,4,53,47,3,3,1.6,1.3
2025-12-19T1200,3324A,116.8136,38.3004,沧州市,河北水利电力学院,细颗粒物(PM2.5),246,261,211,196,152,10,10,7,7,60,56,11,11,1.5,1.2
2025-12-19T1200,2622A,97.1806,31.1273,昌都市,昌都监测站,,50,50,43,23,16,39,39,30,30,21,22,5,4,1.0,1
2025-12-19T1200,3719A,97.1714,31.1406,昌都市,昌都会议中心,,23,23,19,14,11,37,37,30,30,13,8,2,2,0.5,0.4
2025-12-19T1200,2690A,88.1236,43.8886,昌吉回族自治州,天山天池,,,,,,,,,,,,,,,,
2025-12-19T1200,2692A,87.2717,44.0297,昌吉回族自治州,新区政务中心,细颗粒物(PM2.5),69,62,44,50,30,27,27,41,28,31,31,6,6,0.8,0.6
2025-12-19T1200,3613A,87.3095,44.0142,昌吉回族自治州,亚心广场,细颗粒物(PM2.5),92,73,45,68,34,35,35,54,40,21,19,6,7,0.7,0.5
2025-12-19T1200,1120A,125.2863,43.9027,长春市,客车厂,颗粒物(PM10),93,135,61,65,49,62,62,66,62,20,19,10,12,0.6,0.5
2025-12-19T1200,1121A,125.2841,43.8463,长春市,邮电学院,颗粒物(PM10),98,146,65,61,45,61,61,61,58,19,17,10,12,0.6,0.6
2025-12-19T1200,1122A,125.3716,43.8772,长春市,劳动公园,,,134,60,65,36,64,64,67,66,19,18,9,11,,0.1
2025-12-19T1200,1123A,125.3297,43.8805,长春市,园林处,颗粒物(PM10),90,129,55,62,40,60,60,63,61,18,15,8,9,0.4,0.3
2025-12-19T1200,1124A,125.4605,43.79,长春市,净月潭,颗粒物(PM10),83,116,48,48,37,68,68,68,68,16,12,7,8,0.6,0.5
2025-12-19T1200,1125A,125.7194,43.515,长春市,甩湾子,,49,49,46,33,30,58,58,67,63,10,8,6,6,0.8,0.7
2025-12-19T1200,1126A,125.3863,43.8447,长春市,经开区环卫处,颗粒物(PM10),88,126,52,52,34,60,60,63,61,21,20,8,10,0.7,0.6
2025-12-19T1200,1127A,125.245,43.7783,长春市,高新区管委会,细颗粒物(PM2.5),90,125,63,67,47,63,63,63,63,20,20,7,7,0.4,0.3
2025-12-19T1200,1128A,125.1761,43.8325,长春市,岱山公园,细颗粒物(PM2.5),97,131,72,72,52,59,59,57,56,15,26,9,11,0.5,0.5
2025-12-19T1200,4281A,125.3346,43.9164,长春市,北亚泰大街1068号,颗粒物(PM10),100,150,63,67,41,56,56,59,56,22,21,9,10,0.6,0.5
2025-12-19T1200,1335A,113.0833,28.2325,长沙市,经开区环保局,细颗粒物(PM2.5),87,89,120,64,85,90,90,66,63,19,23,10,8,1.0,1
2025-12-19T1200,1336A,112.8872,28.2189,长沙市,高开区环保局,细颗粒物(PM2.5),102,110,125,76,91,78,78,63,63,20,21,15,11,1.3,1
2025-12-19T1200,1337A,113.0792,28.2053,长沙市,马坡岭,细颗粒物(PM2.5),87,104,128,64,85,94,94,58,58,16,22,10,9,0.9,0.9
2025-12-19T1200,1338A,112.9394,28.19,长沙市,湖南师范大学,细颗粒物(PM2.5),90,122,130,67,80,92,92,65,65,28,30,13,8,1.1,1.1
2025-12-19T1200,1339A,113.0178,28.1322,长沙市,雨花区环保局,颗粒物(PM10),75,100,113,45,76,90,90,56,54,14,22,14,12,1.0,1
2025-12-19T1200,1340A,112.9792,28.2597,长沙市,伍家岭,细颗粒物(PM2.5),102,120,134,76,82,,,27,25,30,35,11,8,1.1,1.1
2025-12-19T1200,1341A,113.0014,28.1944,长沙市,火车新站,,,107,132,63,87,96,96,43,43,,47,,11,0.9,0.9
2025-12-19T1200,1342A,112.9844,28.1178,长沙市,天心区环保局,细颗粒物(PM2.5),85,95,122,63,90,96,96,62,62,24,37,12,10,0.8,0.9
2025-12-19T1200,1343A,112.8908,28.1308,长沙市,湖南中医药大学,,,120,138,,97,85,85,46,46,26,35,16,11,1.4,1.1
2025-12-19T1200,1344A,112.9581,28.3611,长沙市,沙坪,,,,,,,,,,,,,,,,
2025-12-19T1200,1727A,113.1147,36.1547,长治市,清华站,细颗粒物(PM2.5),117,88,65,88,56,62,62,26,26,34,38,19,14,1.3,1
2025-12-19T1200,1730A,113.0886,36.2125,长治市,审计局,细颗粒物(PM2.5),140,112,81,107,67,42,42,13,11,50,48,21,14,1.5,1.1
2025-12-19T1200,1731A,113.0844,36.1856,长治市,长治八中,细颗粒物(PM2.5),143,123,85,109,72,54,54,15,15,28,35,21,13,1.6,1.1
2025-12-19T1200,2845A,113.1569,36.1911,长治市,德盛苑,细颗粒物(PM2.5),144,,60,110,59,48,48,49,48,43,21,19,12,1.5,0.9
2025-12-19T1200,3568A,113.06,36.0464,长治市,向阳小学,细颗粒物(PM2.5),138,126,94,105,59,65,65,50,40,40,36,20,15,1.6,1
2025-12-19T1200,3569A,112.8792,36.3144,长治市,屯留一中,细颗粒物(PM2.5),128,107,84,97,70,49,49,16,16,44,47,36,23,1.6,1.2
2025-12-19T1200,4189A,113.1131,36.19948,长治市,英华南巷50号,细颗粒物(PM2.5),138,117,81,105,76,49,49,14,14,33,40,17,11,1.6,1.2
2025-12-19T1200,4190A,113.2367,36.3344,长治市,学府街1号,细颗粒物(PM2.5),198,,104,148,88,41,41,20,20,58,61,36,24,3.5,2.2
2025-12-19T1200,1854A,111.6975,28.9703,常德市,市二中,细颗粒物(PM2.5),59,56,86,42,58,90,90,60,60,15,22,8,7,0.7,0.7
2025-12-19T1200,1857A,111.7158,29.1456,常德市,白鹤山,,,,,,,,,,,,,,,,
2025-12-19T1200,3138A,111.7153,29.0289,常德市,武陵区永安,细颗粒物(PM2.5),64,71,96,46,59,81,81,60,60,18,24,5,5,0.7,0.8
2025-12-19T1200,3139A,111.6892,28.9881,常德市,鼎城区玉霞,细颗粒物(PM2.5),64,76,92,46,62,78,78,45,45,18,28,8,8,0.6,0.7
2025-12-19T1200,3140A,111.6625,29.0531,常德市,武陵区长庚,细颗粒物(PM2.5),62,71,95,44,58,72,72,45,45,16,28,5,6,0.6,0.8
2025-12-19T1200,1196A,119.9633,31.762,常州市,市监测站,细颗粒物(PM2.5),117,134,84,88,47,78,78,48,48,45,40,8,6,1.0,0.8
2025-12-19T1200,1200A,119.9468,31.7069,常州市,武进监测站,细颗粒物(PM2.5),98,129,77,73,43,76,76,52,52,42,29,10,9,0.6,0.5
2025-12-19T1200,1201A,119.9255,31.9087,常州市,安家,细颗粒物(PM2.5),93,107,92,69,49,76,76,42,42,48,52,12,10,0.8,0.7
2025-12-19T1200,3002A,119.9805,31.8174,常州市,行政中心,细颗粒物(PM2.5),105,117,85,79,47,90,90,59,59,37,39,7,8,0.6,0.8
2025-12-19T1200,3003A,120.0522,31.7748,常州市,经开区,细颗粒物(PM2.5),108,148,96,81,48,88,88,48,48,43,45,32,10,2.3,1
2025-12-19T1200,3010A,119.9025,31.7964,常州市,钟楼,细颗粒物(PM2.5),98,122,80,73,46,78,78,53,53,44,31,8,7,0.7,0.6
2025-12-19T1200,3429A,119.8598,31.7066,常州市,武进经发区,细颗粒物(PM2.5),114,118,76,86,50,83,83,45,45,46,36,11,11,0.8,0.6
2025-12-19T1200,3430A,119.5826,31.7245,常州市,金坛城区,细颗粒物(PM2.5),129,136,92,98,62,66,66,28,28,44,32,15,9,1.7,1.1
2025-12-19T1200,2220A,120.4318,41.5881,朝阳市,西梁,细颗粒物(PM2.5),203,165,106,153,94,67,67,49,44,25,30,12,14,1.4,1.2
2025-12-19T1200,2221A,120.4521,41.5646,朝阳市,河畔小区,细颗粒物(PM2.5),208,,73,158,90,60,60,57,52,25,24,10,11,1.3,0.9
2025-12-19T1200,2222A,120.4176,41.5648,朝阳市,八里堡,细颗粒物(PM2.5),204,,79,154,86,57,57,46,43,32,34,13,11,1.5,1.2
2025-12-19T1200,2223A,120.3806,41.5969,朝阳市,农业园区,细颗粒物(PM2.5),196,,89,147,115,74,74,48,46,20,37,11,14,1.2,1.3
2025-12-19T1200,1705A,116.6367,23.6719,潮州市,西园路,,,,,,,,,,,,,,,,
2025-12-19T1200,3026A,116.6183,23.6608,潮州市,市政府,,28,27,62,19,45,64,64,59,58,8,18,5,11,0.7,0.8
2025-12-19T1200,4036A,116.6461,23.6761,潮州市,金山,,32,26,60,22,42,56,56,55,55,7,17,2,5,0.8,0.9
2025-12-19T1200,2472A,113.0073,25.9061,郴州市,马头岭,,,,,,,,,,,,,,,,
2025-12-19T1200,2473A,113.0116,25.8226,郴州市,市职中,颗粒物(PM10),53,56,77,35,57,56,56,14,14,21,28,8,6,0.8,0.9
2025-12-19T1200,2475A,113.0383,25.8071,郴州市,市审计局,,50,50,80,27,58,58,58,16,16,29,33,4,6,0.7,1
2025-12-19T1200,2476A,113.0348,25.7759,郴州市,市环保局,颗粒物(PM10),56,62,95,29,58,57,57,13,13,32,43,5,6,0.7,1
2025-12-19T1200,4252A,113.0138,25.8011,郴州市,好美居路49号,,40,40,75,28,62,66,66,24,24,25,38,3,5,0.4,0.7
2025-12-19T1200,1431A,103.9728,30.7236,成都市,金泉两河,细颗粒物(PM2.5),172,184,163,130,126,6,6,9,4,54,50,4,3,1.1,1
2025-12-19T1200,1432A,104.176,30.6872,成都市,十里店,细颗粒物(PM2.5),200,209,151,150,107,5,5,5,4,61,55,4,4,1.2,1
2025-12-19T1200,1433A,104.079,30.5706,成都市,三瓦窑,细颗粒物(PM2.5),133,153,150,101,98,12,12,6,5,64,59,4,4,1.2,1
2025-12-19T1200,1434A,104.1114,30.63,成都市,沙河铺,细颗粒物(PM2.5),203,171,148,153,125,5,5,6,2,74,58,5,4,1.1,0.9
2025-12-19T1200,1437A,104.0786,30.6531,成都市,君平街,细颗粒物(PM2.5),213,209,163,163,119,6,6,9,4,63,54,5,4,1.2,1
2025-12-19T1200,1438A,103.613,31.0283,成都市,灵岩寺,,,,,,,,,,,,,,,,
2025-12-19T1200,2880A,104.0239,30.65639,成都市,大石西路,细颗粒物(PM2.5),169,181,144,128,110,3,3,3,1,60,56,5,5,1.2,1
2025-12-19T1200,3136A,104.2725,30.5589,成都市,龙泉驿区区政府,细颗粒物(PM2.5),122,144,108,92,78,4,4,25,18,46,22,6,6,1.1,0.9
2025-12-19T1200,3357A,104.0106,30.6931,成都市,金博路,细颗粒物(PM2.5),158,172,148,120,108,4,4,1,1,64,57,5,5,0.9,0.8
2025-12-19T1200,3359A,104.0578,30.5225,成都市,华阳,细颗粒物(PM2.5),134,156,134,102,93,9,9,7,3,60,51,3,3,1.4,1.1
2025-12-19T1200,3488A,104.3880,30.7467,成都市,青石路225号,细颗粒物(PM2.5),145,123,118,111,97,5,5,14,9,49,43,5,5,1.1,0.9
2025-12-19T1200,3489A,104.0789,30.4072,成都市,科学城,细颗粒物(PM2.5),152,157,139,116,106,9,9,14,9,51,34,6,6,0.9,0.7
2025-12-19T1200,4011A,103.8506,30.6947,成都市,光华大道三段,细颗粒物(PM2.5),201,190,164,151,128,6,6,9,5,55,46,3,3,1.1,1
2025-12-19T1200,4224A,104.2433,30.5353,成都市,鲸龙路1057号,细颗粒物(PM2.5),138,139,126,105,96,10,10,9,6,49,48,6,6,1.0,0.9
2025-12-19T1200,1062A,117.9531,40.9081,承德市,铁路,细颗粒物(PM2.5),207,218,146,157,105,25,25,6,6,54,56,10,7,1.6,1.5
2025-12-19T1200,1063A,117.9392,40.9763,承德市,中国银行,细颗粒物(PM2.5),222,221,123,172,90,45,45,11,11,35,42,14,4,1.4,1.1
2025-12-19T1200,1064A,117.9503,40.928,承德市,开发区,细颗粒物(PM2.5),200,222,136,150,87,28,28,9,9,54,53,15,9,1.5,1.2
2025-12-19T1200,1066A,117.9268,41.0026,承德市,离宫,,,,,,,,,,,,,,,,
2025-12-19T1200,4274A,117.7994,40.9605,承德市,滨河大街98号,细颗粒物(PM2.5),188,,102,141,103,58,58,19,19,36,47,10,5,1.1,1.2
2025-12-19T1200,2314A,117.47,30.6618,池州市,池州学院,细颗粒物(PM2.5),137,133,136,104,114,94,94,44,44,28,34,13,6,1.1,1
2025-12-19T1200,3237A,117.4918,30.6617,池州市,展览馆,,,126,142,,99,98,98,28,28,28,37,10,4,1.1,1.2
2025-12-19T1200,3333A,117.5627,30.695,池州市,第八中学,细颗粒物(PM2.5),125,135,151,95,111,88,88,40,40,45,49,11,6,1.3,1.3
2025-12-19T1200,3334A,117.5038,30.6243,池州市,第十二中学,细颗粒物(PM2.5),134,132,140,102,114,101,101,27,27,27,46,10,5,1.2,1.3
2025-12-19T1200,1744A,118.9233,42.2816,赤峰市,松山一中,颗粒物(PM10),76,102,104,19,75,70,70,54,52,12,33,4,11,0.4,1.2
2025-12-19T1200,1745A,118.9576,42.2728,赤峰市,哈达街,颗粒物(PM10),71,92,102,19,68,76,76,62,60,15,35,8,12,0.1,0.8
2025-12-19T1200,1746A,118.8788,42.2554,赤峰市,天义路,颗粒物(PM10),75,100,82,14,82,76,76,66,62,15,30,5,7,0.3,0.9
2025-12-19T1200,3058A,119.2658,42.0353,赤峰市,银河街,细颗粒物(PM2.5),117,134,144,88,100,69,69,68,56,21,30,12,17,0.8,1.2
2025-12-19T1200,3286A,118.9359,42.3147,赤峰市,桥北物流园区,颗粒物(PM10),128,205,106,8,86,68,68,59,50,,35,5,13,0.5,1.3
2025-12-19T1200,2521A,107.3476,22.4136,崇左市,市环保局江州分局,颗粒物(PM10),54,57,58,36,36,33,33,13,13,20,25,6,7,0.6,0.6
2025-12-19T1200,4256A,107.3750,22.3736,崇左市,石景林东路7号,颗粒物(PM10),56,61,45,37,32,36,36,14,14,26,22,7,7,0.8,0.7
2025-12-19T1200,2298A,118.3093,32.3153,滁州市,老年大学,细颗粒物(PM2.5),155,144,139,118,104,61,61,25,25,53,58,13,12,1.1,1
2025-12-19T1200,2299A,118.3244,32.2786,滁州市,人大宾馆,细颗粒物(PM2.5),168,151,146,127,117,57,57,26,26,49,53,11,8,1.4,1.2
2025-12-19T1200,3207A,118.3118,32.3038,滁州市,市政府原办公楼,细颗粒物(PM2.5),153,151,140,117,105,60,60,34,34,54,52,10,8,0.9,0.9
2025-12-19T1200,3331A,118.3267,32.2634,滁州市,图书馆,细颗粒物(PM2.5),144,147,138,110,98,53,53,32,32,53,48,13,11,1.1,0.9
2025-12-19T1200,2605A,101.5482,25.0441,楚雄彝族自治州,州环境监测站,,29,29,21,19,14,35,35,7,7,17,16,8,8,0.7,0.6
2025-12-19T1200,2606A,101.538,25.0492,楚雄彝族自治州,市经济开发区,,30,24,19,21,15,41,41,8,8,16,16,9,8,0.5,0.6
2025-12-19T1200,2548A,107.5277,31.2827,达州市,达州职业技术学院,,,,,,,,,,,,,,,,
2025-12-19T1200,2549A,107.5086,31.2186,达州市,市环境监测站,细颗粒物(PM2.5),107,112,110,80,85,6,6,6,5,38,38,8,7,0.7,0.7
2025-12-19T1200,2550A,107.4988,31.2132,达州市,凤凰小区,细颗粒物(PM2.5),110,105,116,83,87,,,8,7,32,36,8,7,,0.8
2025-12-19T1200,2551A,107.5082,31.1986,达州市,达县机关宾馆,细颗粒物(PM2.5),94,119,115,70,86,4,4,6,4,42,42,6,4,1.0,0.9
2025-12-19T1200,2552A,107.4644,31.2124,达州市,市政中心,细颗粒物(PM2.5),117,135,127,88,86,8,8,7,7,42,42,10,7,1.0,1
2025-12-19T1200,2614A,100.1542,25.7054,大理白族自治州,大理市环境监测站,,50,,29,35,24,54,54,52,46,9,12,6,6,0.5,0.4
2025-12-19T1200,2615A,100.2171,25.5811,大理白族自治州,大理古城,,,,24,,13,58,58,41,37,,15,8,8,0.7,0.7
2025-12-19T1200,1109A,121.612,38.9741,大连市,甘井子,"颗粒物(PM10),细颗粒物(PM2.5)",59,67,55,42,32,78,78,80,76,27,23,11,9,0.1,0.1
2025-12-19T1200,1110A,121.565,38.9511,大连市,周水子,,,73,55,46,30,,,80,75,21,20,10,11,0.5,0.5
2025-12-19T1200,1111A,121.5637,38.8845,大连市,星海三站,颗粒物(PM10),55,59,48,34,29,82,82,83,79,20,17,7,5,0.2,0.2
2025-12-19T1200,1112A,121.6302,38.9117,大连市,青泥洼桥,颗粒物(PM10),54,58,45,32,30,78,78,81,78,17,15,8,8,0.7,0.6
2025-12-19T1200,1113A,121.6251,38.8638,大连市,傅家庄,颗粒物(PM10),53,56,51,25,25,73,73,75,74,16,13,10,9,0.3,0.3
2025-12-19T1200,1114A,121.5213,38.8661,大连市,七贤岭,颗粒物(PM10),55,59,52,36,29,80,80,80,77,24,20,22,16,0.5,0.4
2025-12-19T1200,1115A,121.2529,38.8061,大连市,旅顺,颗粒物(PM10),75,100,60,42,31,74,74,81,76,19,13,6,7,0.4,0.3
2025-12-19T1200,1116A,121.7485,39.1311,大连市,金州,细颗粒物(PM2.5),62,68,46,44,31,77,77,81,76,23,16,11,10,0.4,0.3
2025-12-19T1200,1117A,121.7811,39.0496,大连市,开发区,颗粒物(PM10),58,65,52,34,28,69,69,76,73,22,15,6,8,0.4,0.3
2025-12-19T1200,1118A,121.9762,39.0631,大连市,双D港,,50,50,46,27,27,85,85,86,86,18,15,12,11,0.3,0.3
2025-12-19T1200,1789A,124.81117,46.03138,大庆市,大同区,细颗粒物(PM2.5),118,133,112,89,78,42,42,50,48,15,22,8,10,1.0,1
2025-12-19T1200,1790A,125.129,46.533,大庆市,龙凤区,,,,101,,64,36,36,47,45,12,18,5,7,0.9,0.8
2025-12-19T1200,1791A,124.902,46.408,大庆市,红岗区,细颗粒物(PM2.5),102,105,94,76,64,40,40,46,44,19,27,8,9,1.0,1
2025-12-19T1200,1792A,125.153,46.586,大庆市,萨尔图区,细颗粒物(PM2.5),105,117,124,79,79,34,34,47,44,19,25,9,11,0.9,0.9
2025-12-19T1200,1793A,124.9042,46.6215,大庆市,让胡路区,细颗粒物(PM2.5),135,134,108,103,77,44,44,46,45,16,28,9,12,1.1,1.1
2025-12-19T1200,3481A,125.141,46.634,大庆市,萨区政府监测点,细颗粒物(PM2.5),110,102,112,83,72,35,35,48,46,22,24,10,11,0.9,0.9
2025-12-19T1200,1721A,113.3819,40.1097,大同市,果树场,,50,48,100,35,82,59,59,29,29,24,58,14,16,0.5,1.4
2025-12-19T1200,1723A,113.2994,40.0758,大同市,云冈宾馆,,22,,126,12,86,68,68,30,30,16,66,4,15,0.3,1.5
2025-12-19T1200,1724A,113.3444,40.0917,大同市,大同大学,,47,47,108,17,68,74,74,29,29,14,63,4,12,0.4,1.2
2025-12-19T1200,1725A,113.2661,40.1269,大同市,安家小村,,43,43,136,8,81,71,71,32,32,15,68,5,21,0.3,1.8
2025-12-19T1200,1726A,113.2711,40.0844,大同市,教育学院,,39,39,142,13,89,64,64,26,26,16,67,4,17,0.5,1.5
2025-12-19T1200,3282A,113.3397,40.0597,大同市,大同市卫生学校,,,46,114,12,71,68,68,21,21,14,65,,12,,1.1
2025-12-19T1200,3565A,113.1367,40.1122,大同市,云冈站,,42,42,121,16,85,68,68,32,32,18,62,4,16,0.4,1.2
2025-12-19T1200,3566A,113.1186,40.2556,大同市,图书馆,颗粒物(PM10),58,66,105,18,70,69,69,46,46,5,40,3,13,0.2,1.2
2025-12-19T1200,3567A,113.5931,40.0461,大同市,区一中,颗粒物(PM10),62,74,123,39,82,59,59,28,28,25,52,20,24,0.7,1
2025-12-19T1200,4199A,113.2798,40.0997,大同市,魏都大道141号,,48,48,152,9,86,71,71,35,35,13,65,3,17,0.4,1.6
2025-12-19T1200,2269A,124.1069,50.4097,大兴安岭地区,科技局,颗粒物(PM10),95,140,55,26,27,46,46,44,44,5,13,6,8,0.2,0.3
2025-12-19T1200,3663A,124.1164,50.4278,大兴安岭地区,红旗社区,,19,19,29,12,19,59,59,58,58,4,16,5,8,0.3,0.4
2025-12-19T1200,1600A,124.3303,40.0625,丹东市,江湾东路,,39,36,47,27,28,58,58,61,61,12,12,7,10,0.6,0.7
2025-12-19T1200,1601A,124.4256,40.1503,丹东市,临江后街,,34,34,56,15,28,60,60,63,63,12,24,5,10,0.4,0.8
2025-12-19T1200,1602A,124.3933,40.1461,丹东市,元宝山,,36,35,47,25,29,53,53,63,61,21,18,12,12,0.8,0.8
2025-12-19T1200,1603A,124.3633,40.1092,丹东市,民主桥,,40,40,64,22,32,52,52,59,58,16,21,7,11,0.6,0.9
2025-12-19T1200,3541A,109.5726,19.5167,儋州市,第一中学子站,,30,30,49,17,20,62,62,69,61,3,4,3,3,0.4,0.5
2025-12-19T1200,3542A,109.5567,19.5187,儋州市,东坡学校子站,,46,46,44,15,19,69,69,79,70,3,5,5,6,0.5,0.5
2025-12-19T1200,2616A,98.5842,24.428,德宏傣族景颇族自治州,德宏州监测站,细颗粒物(PM2.5),60,56,40,43,32,38,38,11,11,23,22,11,7,0.7,0.7
2025-12-19T1200,3677A,98.5881,24.4368,德宏傣族景颇族自治州,芒市人民政府综合楼,细颗粒物(PM2.5),64,69,42,46,26,35,35,15,13,22,15,9,8,0.7,0.6
2025-12-19T1200,1901A,104.4239,31.1208,德阳市,东山公园,细颗粒物(PM2.5),143,132,126,109,107,13,13,31,29,39,24,2,2,1.0,0.9
2025-12-19T1200,1902A,104.3826,31.1317,德阳市,西小区,细颗粒物(PM2.5),180,167,164,136,123,9,9,10,10,49,45,4,4,1.2,1.1
2025-12-19T1200,1904A,104.3553,31.1091,德阳市,耐火材料厂,细颗粒物(PM2.5),175,164,148,132,129,7,7,4,4,54,46,4,4,1.2,1.1
2025-12-19T1200,3639A,104.4019,31.1244,德阳市,市教育局,细颗粒物(PM2.5),147,143,126,112,110,14,14,9,9,49,49,2,2,1.0,0.9
2025-12-19T1200,1622A,116.3032,37.4674,德州市,儿童乐园,细颗粒物(PM2.5),250,241,189,200,141,4,4,2,2,52,48,10,12,1.9,1.6
2025-12-19T1200,1624A,116.2991,37.4451,德州市,监理站,细颗粒物(PM2.5),245,239,187,195,143,12,12,10,10,56,52,11,13,1.6,1.3
2025-12-19T1200,3066A,116.2721,37.4379,德州市,九衢泉纯净水厂,,,,177,,118,,,59,,,56,,16,,1.1
2025-12-19T1200,3371A,116.3728,37.4403,德州市,开发区人民医院,细颗粒物(PM2.5),245,251,180,195,127,9,9,18,8,60,54,10,13,1.6,1.3
2025-12-19T1200,3511A,116.5652,37.3319,德州市,陵城艺术中心,细颗粒物(PM2.5),250,259,152,200,114,9,9,41,14,74,51,14,12,1.4,1.1
2025-12-19T1200,4292A,116.3525,37.4209,德州市,新河东路,细颗粒物(PM2.5),250,246,179,200,132,7,7,11,5,68,62,12,14,1.6,1.2
2025-12-19T1200,2621A,99.7056,27.8317,迪庆藏族自治州,迪庆州站,,39,39,28,25,17,61,61,39,39,14,13,5,5,0.4,0.3
2025-12-19T1200,3180A,99.7136,27.8094,迪庆藏族自治州,质量技术监督局,"颗粒物(PM10),细颗粒物(PM2.5)",54,58,32,38,22,62,62,37,37,18,17,8,8,0.7,0.6
2025-12-19T1200,4257A,104.6092,35.5962,定西市,将台街,细颗粒物(PM2.5),73,90,78,53,49,44,44,15,15,22,29,12,11,0.5,0.7
2025-12-19T1200,4309A,104.6159,35.5701,定西市,正龙路62号,颗粒物(PM10),69,87,88,46,59,43,43,22,22,24,15,13,7,0.9,0.8
2025-12-19T1200,1389A,113.7547,23.0494,东莞市,莞城梨川,细颗粒物(PM2.5),53,51,79,37,43,103,103,50,50,23,40,5,6,0.6,0.7
2025-12-19T1200,1390A,113.7944,23.0128,东莞市,东城石井,,50,45,64,35,38,88,88,53,53,36,38,8,8,0.7,0.7
2025-12-19T1200,1391A,113.7383,22.9658,东莞市,南城西平,,49,45,71,34,41,92,92,52,52,32,53,7,8,0.8,0.8
2025-12-19T1200,3319A,113.7338,23.0381,东莞市,万江金泰,细颗粒物(PM2.5),62,58,86,44,47,103,103,50,50,24,47,6,6,0.8,0.8
2025-12-19T1200,3626A,113.7533,23.0202,东莞市,南城元岭,细颗粒物(PM2.5),53,46,76,37,45,102,102,62,62,29,46,7,8,0.7,0.7
2025-12-19T1200,3627A,113.7875,23.0457,东莞市,东城主山,细颗粒物(PM2.5),52,48,78,36,44,104,104,54,53,24,45,6,7,0.6,0.5
2025-12-19T1200,1666A,118.6614,37.4309,东营市,市环保局,细颗粒物(PM2.5),128,146,104,97,69,51,51,32,29,42,39,15,36,1.0,0.9
2025-12-19T1200,3036A,118.6904,37.4338,东营市,开发区管委会,细颗粒物(PM2.5),125,149,109,95,68,50,50,43,36,46,34,18,22,0.9,0.8
2025-12-19T1200,3365A,118.5719,37.565,东营市,垦利区民丰路,细颗粒物(PM2.5),119,132,96,90,64,63,63,42,38,47,38,11,11,1.1,0.9
2025-12-19T1200,3498A,118.5055,37.8612,东营市,河口城区,细颗粒物(PM2.5),132,151,110,100,65,64,64,44,41,39,39,8,11,1.2,1
2025-12-19T1200,3646A,118.4978,37.4623,东营市,胜利站,细颗粒物(PM2.5),134,139,96,102,67,51,51,37,33,55,41,19,13,1.6,1
2025-12-19T1200,3734A,118.35,37.26,东营市,理想之城,细颗粒物(PM2.5),134,,102,102,68,49,49,24,24,44,46,12,9,1.1,1
2025-12-19T1200,1591A,110.0023,39.8129,鄂尔多斯市,综合楼,,46,46,65,19,30,52,52,64,54,22,26,8,9,0.5,0.6
2025-12-19T1200,1592A,109.9486,39.8261,鄂尔多斯市,巴音孟克林场办事处,颗粒物(PM10),57,63,79,14,28,55,55,64,54,24,25,6,12,0.2,0.3
2025-12-19T1200,1593A,109.7736,39.5986,鄂尔多斯市,康泽苑,颗粒物(PM10),53,56,81,17,31,67,67,67,64,9,18,6,10,0.3,0.5
2025-12-19T1200,1594A,109.8119,39.5989,鄂尔多斯市,华泰汽车城,颗粒物(PM10),56,61,82,19,30,67,67,69,64,11,23,3,7,0.3,0.5
2025-12-19T1200,1595A,109.9734,39.7884,鄂尔多斯市,奥林花园,颗粒物(PM10),58,66,88,17,27,48,48,59,51,26,29,9,9,0.5,0.6
2025-12-19T1200,2436A,114.8938,30.3994,鄂州市,市政府,细颗粒物(PM2.5),112,102,139,84,125,87,87,80,77,27,29,9,8,0.8,0.9
2025-12-19T1200,2437A,114.8989,30.3714,鄂州市,赵家坝,细颗粒物(PM2.5),117,125,151,88,124,88,88,75,72,19,20,11,9,1.2,1.3
2025-12-19T1200,3654A,114.8094,30.4089,鄂州市,精准医疗中心,细颗粒物(PM2.5),135,132,156,103,134,90,90,67,67,34,38,33,26,2.4,2.5
2025-12-19T1200,2454A,109.4978,30.2981,恩施土家族苗族自治州,湖北民院,细颗粒物(PM2.5),122,,80,92,75,12,12,8,5,2,2,6,6,1.2,0.9
2025-12-19T1200,2455A,109.4707,30.2798,恩施土家族苗族自治州,州电力总公司,细颗粒物(PM2.5),110,100,92,83,75,10,10,3,3,31,31,6,6,1.0,0.9
2025-12-19T1200,3549A,109.5061,30.3772,恩施土家族苗族自治州,龙凤新区,细颗粒物(PM2.5),103,102,81,77,58,21,21,9,7,16,12,6,6,0.8,0.7
2025-12-19T1200,2499A,108.3411,21.6158,防城港市,沙万,颗粒物(PM10),55,59,75,37,38,84,84,58,58,29,34,16,10,0.9,0.8
2025-12-19T1200,2500A,108.3514,21.7731,防城港市,防城档案局,颗粒物(PM10),65,80,96,44,42,91,91,28,28,24,27,11,5,1.2,0.8
2025-12-19T1200,2501A,108.3506,21.6414,防城港市,大海花园,颗粒物(PM10),58,65,62,35,39,96,96,55,55,21,28,14,12,0.7,0.8
2025-12-19T1200,1371A,113.1294,23.0067,佛山市,湾梁,细颗粒物(PM2.5),73,80,77,53,44,56,56,22,22,73,68,8,7,1.0,0.9
2025-12-19T1200,1372A,113.1083,23.0478,佛山市,华材职中,细颗粒物(PM2.5),80,63,96,59,60,90,90,28,28,51,81,8,8,0.9,1
2025-12-19T1200,1373A,113.144,23.0453,佛山市,南海气象局,细颗粒物(PM2.5),69,70,83,50,40,85,85,24,24,53,75,8,8,0.8,0.8
2025-12-19T1200,1374A,113.2881,22.8094,佛山市,顺德苏岗,细颗粒物(PM2.5),79,83,67,58,42,77,77,32,32,61,53,10,8,0.9,0.8
2025-12-19T1200,1376A,112.8383,22.8678,佛山市,高明孔堂,细颗粒物(PM2.5),94,80,68,70,46,132,132,61,61,50,36,5,6,0.8,0.7
2025-12-19T1200,1377A,112.8836,23.1588,佛山市,三水监测站,细颗粒物(PM2.5),82,75,95,60,57,81,81,25,25,67,72,6,14,0.8,0.9
2025-12-19T1200,1378A,112.867,23.185,佛山市,三水云东海,细颗粒物(PM2.5),98,97,81,73,56,79,79,20,20,78,59,8,6,0.8,0.8
2025-12-19T1200,3625A,113.2544,22.7642,佛山市,容桂街道办,细颗粒物(PM2.5),79,83,76,58,45,79,79,33,33,62,60,9,8,0.9,0.8
2025-12-19T1200,1280A,119.3903,26.0543,福州市,鼓山,,,,52,,19,,,104,,,10,,2,,0.4
2025-12-19T1200,1282A,119.2681,26.0504,福州市,师大,颗粒物(PM10),54,58,69,28,29,71,71,68,64,31,29,8,9,0.6,0.6
2025-12-19T1200,1283A,119.2984,26.1028,福州市,五四北路,,,,64,,28,58,58,64,55,,24,6,6,0.6,0.6
2025-12-19T1200,1284A,119.2648,26.0768,福州市,杨桥西路,颗粒物(PM10),54,57,64,31,31,72,72,58,58,20,20,6,6,0.6,0.6
2025-12-19T1200,1285A,119.317,26.0746,福州市,紫阳,颗粒物(PM10),69,87,73,44,31,56,56,71,55,42,25,8,8,0.7,0.6
2025-12-19T1200,3048A,119.5799,26.0936,福州市,九龙,,32,32,55,20,23,95,95,90,83,13,21,4,7,0.4,0.5
2025-12-19T1200,3526A,119.5189,25.9664,福州市,吴航,,,73,51,39,24,65,65,68,47,,25,,8,0.8,0.7
2025-12-19T1200,1755A,123.7977,41.8491,抚顺市,望花区,细颗粒物(PM2.5),54,50,51,38,30,59,59,61,58,27,21,13,15,0.6,0.7
2025-12-19T1200,1756A,123.9161,41.8822,抚顺市,顺城区,,42,33,42,29,26,59,59,69,65,24,18,11,11,0.9,0.7
2025-12-19T1200,1757A,124.0436,41.8611,抚顺市,东洲区,,26,25,39,18,24,54,54,61,59,21,15,12,12,0.7,0.7
2025-12-19T1200,1758A,123.9247,41.8642,抚顺市,新抚区,,28,28,43,19,20,60,60,64,63,22,20,14,13,1.1,1
2025-12-19T1200,1759A,124.0972,41.8961,抚顺市,大伙房水库,,23,18,33,16,23,68,68,70,68,7,8,13,12,0.7,0.7
2025-12-19T1200,1760A,123.7086,41.8391,抚顺市,沈抚新城,,,43,49,33,31,60,60,75,70,,17,,11,0.5,0.7
2025-12-19T1200,2376A,116.2127,28.0814,抚州市,桐源党溪,,,,,,,,,,,,,,,,
2025-12-19T1200,2377A,116.3544,27.9831,抚州市,市站,颗粒物(PM10),63,75,136,42,92,62,62,22,22,27,44,8,7,0.7,1.1
2025-12-19T1200,2378A,116.3565,27.963,抚州市,血防站,颗粒物(PM10),61,71,122,43,91,62,62,18,18,30,43,4,6,1.0,1.3
2025-12-19T1200,2379A,116.3564,28.0007,抚州市,采茶剧团,细颗粒物(PM2.5),64,74,136,46,99,64,64,21,21,26,35,5,5,1.2,1.5
2025-12-19T1200,2380A,116.385,27.9647,抚州市,医学分院,颗粒物(PM10),56,62,132,36,89,74,74,34,34,21,34,4,4,1.2,1.6
2025-12-19T1200,2207A,121.6094,41.998,阜新市,工业园区,细颗粒物(PM2.5),147,,76,112,79,30,30,54,38,38,26,19,16,1.1,0.8
2025-12-19T1200,2208A,121.6697,42.0279,阜新市,长青街,细颗粒物(PM2.5),160,,80,122,77,32,32,57,42,37,27,23,15,1.2,0.8
2025-12-19T1200,2209A,121.6673,42.0705,阜新市,农业园区,细颗粒物(PM2.5),140,127,95,107,75,34,34,54,42,38,27,17,12,1.0,0.7
2025-12-19T1200,2210A,121.6717,42.0224,阜新市,东苑,细颗粒物(PM2.5),142,,69,108,72,32,32,55,41,36,27,22,16,1.3,0.9
2025-12-19T1200,2211A,121.6506,42.0498,阜新市,玉龙新城,细颗粒物(PM2.5),142,110,84,108,78,30,30,55,40,46,33,20,17,1.0,0.7
2025-12-19T1200,2301A,115.8277,32.8929,阜阳市,市监测站,细颗粒物(PM2.5),94,110,160,70,117,91,91,39,39,22,37,8,5,0.7,0.8
2025-12-19T1200,2303A,115.8554,32.8605,阜阳市,开发区,细颗粒物(PM2.5),100,83,138,75,104,89,89,55,54,22,28,8,6,0.7,0.8
2025-12-19T1200,2875A,115.784,32.8892,阜阳市,阜阳职业技术学院,细颗粒物(PM2.5),89,74,127,66,102,102,102,76,76,18,23,9,8,1.0,1.1
2025-12-19T1200,3468A,115.7901,32.8613,阜阳市,市规划展馆,细颗粒物(PM2.5),99,120,164,74,127,93,93,51,51,18,29,8,7,0.8,0.9
2025-12-19T1200,3469A,115.836,32.9183,阜阳市,枣园社区,细颗粒物(PM2.5),103,110,162,77,119,95,95,39,39,20,40,4,4,0.6,0.7
2025-12-19T1200,2669A,102.9099,34.9841,甘南藏族自治州,州政府,,46,46,73,15,38,34,34,9,9,23,35,13,15,0.7,1.3
2025-12-19T1200,3380A,102.8914,34.9617,甘南藏族自治州,甘肃民族师范学院,颗粒物(PM10),59,67,84,32,27,21,21,5,5,36,44,10,10,1.0,0.9
2025-12-19T1200,2570A,101.9603,30.0475,甘孜藏族自治州,水桥子,,,,25,,8,,,43,,,27,,7,,0.6
2025-12-19T1200,3065A,101.9533,29.9972,甘孜藏族自治州,州环保局,,32,32,18,3,5,44,44,62,52,31,12,6,6,0.6,0.5
2025-12-19T1200,3414A,115.8347,28.932,赣江新区,桑海产业园,细颗粒物(PM2.5),139,151,177,106,118,85,85,30,30,46,52,14,10,1.0,1.1
2025-12-19T1200,2362A,114.9017,25.9149,赣州市,通天岩,细颗粒物(PM2.5),58,56,50,41,30,87,87,42,42,20,9,20,17,2.2,2
2025-12-19T1200,2363A,114.9367,25.8664,赣州市,地委,颗粒物(PM10),59,67,73,41,42,69,69,26,26,31,35,13,11,1.1,1
2025-12-19T1200,2364A,114.9461,25.8481,赣州市,气象台,颗粒物(PM10),63,75,88,40,39,78,78,24,24,43,55,12,10,0.9,1
2025-12-19T1200,2365A,114.9322,25.8333,赣州市,市图书馆,细颗粒物(PM2.5),69,85,83,50,44,57,57,19,19,42,52,19,10,0.8,0.8
2025-12-19T1200,2366A,114.8905,25.8471,赣州市,华坚鞋城,颗粒物(PM10),66,82,95,42,47,60,60,20,20,40,54,12,9,0.6,0.6
2025-12-19T1200,3109A,115.0093,25.8613,赣州市,赣县区卫计委,,,,64,,45,62,62,21,21,28,37,,7,0.7,0.6
2025-12-19T1200,2683A,106.2319,36.1417,固原市,马园,,,,,,,,,,,,,,,,
2025-12-19T1200,2684A,106.2792,36.0022,固原市,监测站,,42,42,75,13,29,76,76,57,53,8,18,4,5,0.3,0.5
2025-12-19T1200,2685A,106.2375,36.0211,固原市,新区,,,42,80,8,29,,,54,41,10,21,5,4,0.3,0.5
2025-12-19T1200,3522A,106.2177,35.9959,固原市,原州区十五小,,38,38,53,11,26,71,71,60,59,11,15,7,7,0.4,0.5
2025-12-19T1200,2543A,106.6308,30.5278,广安市,小平旧居,,,,,,,,,,,,,,,,
2025-12-19T1200,2544A,106.6303,30.4576,广安市,市委,细颗粒物(PM2.5),162,162,126,123,106,6,6,11,7,32,33,4,3,1.2,1.1
2025-12-19T1200,2545A,106.6271,30.4663,广安市,友谊中学,细颗粒物(PM2.5),147,153,119,112,96,12,12,19,13,31,27,4,3,1.1,0.9
2025-12-19T1200,2547A,106.6388,30.4551,广安市,广电花园,细颗粒物(PM2.5),173,134,101,131,103,9,9,10,8,26,32,,3,1.0,1
2025-12-19T1200,2902A,106.6351,30.4865,广安市,北辰小学,细颗粒物(PM2.5),152,159,116,116,96,11,11,13,8,28,19,17,20,1.2,1
2025-12-19T1200,2523A,105.8945,32.4535,广元市,黑石坡,,,,,,,,,,,,,,,,
2025-12-19T1200,2524A,105.821,32.4444,广元市,老城,细颗粒物(PM2.5),125,152,120,95,88,9,9,8,8,49,46,27,16,2.1,1.5
2025-12-19T1200,2526A,105.8628,32.4287,广元市,监测站,细颗粒物(PM2.5),113,104,102,85,78,9,9,7,7,47,42,10,9,1.7,1.7
2025-12-19T1200,3617A,105.8047,32.4166,广元市,经开区,细颗粒物(PM2.5),139,141,124,106,80,5,5,2,2,48,52,11,20,1.4,1.5
2025-12-19T1200,1345A,113.2347,23.1423,广州市,广雅中学,颗粒物(PM10),60,70,86,42,46,88,88,33,33,39,77,6,7,0.8,0.8
2025-12-19T1200,1346A,113.2612,23.105,广州市,市五中,细颗粒物(PM2.5),68,74,81,49,47,87,87,51,51,62,73,8,8,0.8,0.8
2025-12-19T1200,1348A,113.3478,23.0916,广州市,广东商学院,细颗粒物(PM2.5),85,75,75,63,47,59,59,24,24,60,70,6,6,0.9,0.7
2025-12-19T1200,1349A,113.4332,23.1047,广州市,市八十六中,细颗粒物(PM2.5),55,57,66,39,35,77,77,20,20,45,80,8,8,1.2,1
2025-12-19T1200,1350A,113.3505,22.9483,广州市,番禺中学,细颗粒物(PM2.5),73,81,75,53,41,99,99,43,43,55,53,8,7,0.9,0.8
2025-12-19T1200,1351A,113.2146,23.3916,广州市,花都师范,细颗粒物(PM2.5),58,63,74,41,41,101,101,28,28,32,62,6,7,0.5,0.6
2025-12-19T1200,1352A,113.2597,23.1331,广州市,市监测站,细颗粒物(PM2.5),67,67,71,48,42,86,86,40,40,49,68,4,6,0.8,0.8
2025-12-19T1200,1353A,113.5618,23.312,广州市,九龙镇镇龙,,50,48,66,35,37,78,78,25,25,18,47,6,5,0.5,0.6
2025-12-19T1200,1354A,113.2765,23.1544,广州市,麓湖,细颗粒物(PM2.5),70,58,57,51,39,89,89,28,28,39,71,8,8,0.4,0.4
2025-12-19T1200,1355A,113.443,23.3035,广州市,帽峰山森林公园,,,,,,,,,,,,,,,,
2025-12-19T1200,2846A,113.3221,23.1322,广州市,体育西,细颗粒物(PM2.5),64,74,74,46,42,75,75,38,38,52,68,6,6,0.8,0.8
2025-12-19T1200,3298A,113.5717,23.5491,广州市,从化街口,细颗粒物(PM2.5),63,58,60,45,40,77,77,21,21,17,42,8,8,0.7,0.8
2025-12-19T1200,3299A,113.3472,23.3692,广州市,白云竹料,细颗粒物(PM2.5),57,60,77,40,43,100,100,30,30,25,54,3,4,0.6,0.7
2025-12-19T1200,3300A,113.2981,23.237,广州市,白云嘉禾,,49,49,84,34,44,91,91,28,28,28,72,6,8,0.7,0.8
2025-12-19T1200,3301A,113.4256,23.1716,广州市,黄埔科学城,细颗粒物(PM2.5),82,78,65,60,37,84,84,33,33,34,58,4,5,0.9,0.9
2025-12-19T1200,3302A,113.3942,23.0483,广州市,番禺大学城,颗粒物(PM10),79,107,91,48,45,83,83,36,36,48,53,19,14,1.0,0.6
2025-12-19T1200,3303A,113.4922,22.8168,广州市,南沙黄阁,,49,43,66,34,42,110,110,39,39,36,54,7,8,0.9,0.9
2025-12-19T1200,3304A,113.5342,22.7896,广州市,南沙街,颗粒物(PM10),53,56,65,31,39,116,116,43,43,28,44,6,7,0.6,0.6
2025-12-19T1200,3443A,113.2902,23.5544,广州市,花都梯面,颗粒物(PM10),56,62,50,37,30,92,92,23,23,29,36,6,6,0.6,0.5
2025-12-19T1200,3445A,113.7858,23.7478,广州市,从化良口,,39,33,30,27,22,39,39,19,19,19,23,7,7,0.6,0.6
2025-12-19T1200,3446A,113.8051,23.2614,广州市,增城荔城,细颗粒物(PM2.5),54,48,50,38,34,55,55,42,40,17,24,7,8,0.6,0.6
2025-12-19T1200,2505A,109.568,23.1478,贵港市,德智高中,,,,,,,,,,,,,,,,
2025-12-19T1200,2506A,109.6047,23.0666,贵港市,江南子站,细颗粒物(PM2.5),82,95,102,60,60,99,99,37,37,22,41,15,11,0.8,1
2025-12-19T1200,2508A,109.5669,23.1065,贵港市,荷城子站,细颗粒物(PM2.5),79,90,76,58,50,83,83,42,42,27,35,20,9,1.2,1.1
2025-12-19T1200,3405A,109.5886,23.1172,贵港市,新世纪学校,细颗粒物(PM2.5),75,92,79,55,50,100,100,40,40,19,30,18,7,0.9,0.8
2025-12-19T1200,4260A,109.5933,23.0951,贵港市,中山路155-3号,细颗粒物(PM2.5),88,97,77,65,50,92,92,49,49,33,36,23,12,1.7,0.9
2025-12-19T1200,1439A,106.6899,26.5998,贵阳市,马鞍山,,27,27,32,17,20,41,41,47,42,18,15,9,9,0.5,0.6
2025-12-19T1200,1441A,106.6243,26.6266,贵阳市,鉴湖路,,31,31,36,9,16,50,50,48,44,12,14,5,6,0.3,0.5
2025-12-19T1200,1442A,106.7487,26.6343,贵阳市,燕子冲,,49,,35,34,32,50,50,52,48,14,14,10,10,0.3,0.3
2025-12-19T1200,1443A,106.6555,26.4365,贵阳市,碧云窝,,31,31,42,17,23,50,50,50,47,10,11,10,8,0.3,0.5
2025-12-19T1200,1445A,106.7109,26.6027,贵阳市,红边门,,,36,40,27,28,,,46,40,21,19,18,11,,0.3
2025-12-19T1200,1446A,106.7164,26.5699,贵阳市,新华路,,44,44,47,29,28,42,42,46,40,21,18,11,12,0.5,0.5
2025-12-19T1200,1447A,106.674,26.5424,贵阳市,太慈桥,,34,34,37,17,23,44,44,48,45,18,17,10,10,0.1,0.2
2025-12-19T1200,1552A,106.805,26.3003,贵阳市,桐木岭,,44,44,44,27,31,60,60,64,61,2,2,10,7,0.7,0.8
2025-12-19T1200,4230A,106.6882,26.5695,贵阳市,花果园大街66号,,30,,27,21,26,46,46,48,43,17,18,6,7,0.5,0.6
2025-12-19T1200,4231A,106.6873,26.5169,贵阳市,漓江路57号,,,34,30,24,26,50,50,48,46,,16,10,13,0.5,0.6
2025-12-19T1200,1862A,110.4144,25.3167,桂林市,电子科大尧山校区,,,,,,,,,,,,,,,,
2025-12-19T1200,1864A,110.3089,25.2708,桂林市,龙隐路小学,细颗粒物(PM2.5),94,91,78,70,61,58,58,32,32,22,28,7,6,0.7,0.7
2025-12-19T1200,1865A,110.2869,25.2178,桂林市,八中,细颗粒物(PM2.5),104,94,85,78,64,47,47,14,14,35,37,8,7,0.6,0.6
2025-12-19T1200,3531A,110.296,25.1253,桂林市,旅游学院,,,61,72,,53,61,61,17,17,16,30,5,4,0.5,0.6
2025-12-19T1200,4222A,110.1835,25.2444,桂林市,环湖路276号,细颗粒物(PM2.5),79,90,95,58,57,23,23,7,7,47,46,7,7,0.5,0.5
2025-12-19T1200,4301A,110.2803,25.2773,桂林市,信义路13号,细颗粒物(PM2.5),82,86,82,60,53,50,50,27,27,30,36,5,5,1.0,1
2025-12-19T1200,2674A,100.2561,34.4714,果洛藏族自治州,玛沁县大武镇,,43,43,40,6,11,46,46,23,23,11,8,26,16,0.5,0.4
2025-12-19T1200,1129A,126.5422,45.755,哈尔滨市,岭北,,,,,,,,,,,,,,,,
2025-12-19T1200,1130A,126.561,45.8167,哈尔滨市,松北商大,,48,48,72,29,41,44,44,68,60,24,30,12,13,0.7,0.8
2025-12-19T1200,1131A,126.979,45.5419,哈尔滨市,阿城会宁,,,,42,,27,,,49,,,16,,8,,0.6
2025-12-19T1200,1132A,126.599,45.7222,哈尔滨市,南岗学府路,颗粒物(PM10),53,56,58,25,32,44,44,59,53,18,24,12,12,0.5,0.5
2025-12-19T1200,1133A,126.689,45.7733,哈尔滨市,太平宏伟公园,颗粒物(PM10),106,162,81,,49,43,43,61,56,26,32,14,15,,0.7
2025-12-19T1200,1134A,126.635,45.7667,哈尔滨市,道外承德广场,颗粒物(PM10),60,70,82,33,47,46,46,59,53,21,34,12,24,0.3,0.5
2025-12-19T1200,1135A,126.685,45.7319,哈尔滨市,香坊红旗大街,,,,,,,,,,,,,,,,
2025-12-19T1200,1136A,126.6411,45.7258,哈尔滨市,动力和平路,,50,50,66,35,44,47,47,61,53,23,28,14,17,1.1,0.9
2025-12-19T1200,1137A,126.593,45.7478,哈尔滨市,道里建国路,,50,50,60,34,43,44,44,54,49,17,27,19,23,0.1,0.6
2025-12-19T1200,1138A,126.615,45.61,哈尔滨市,平房东轻厂,,47,47,46,29,36,53,53,62,58,16,17,12,10,0.3,0.4
2025-12-19T1200,1139A,126.595,45.9855,哈尔滨市,呼兰师专,,,49,68,,52,36,36,52,49,22,28,18,15,0.7,0.8
2025-12-19T1200,1140A,126.6206,45.6842,哈尔滨市,省农科院,颗粒物(PM10),52,53,70,27,40,48,48,46,43,19,36,19,19,0.5,0.6
2025-12-19T1200,2688A,93.5128,42.8172,哈密市,地区监测站,颗粒物(PM10),79,107,112,47,56,39,39,25,25,20,39,7,5,0.2,0.6
2025-12-19T1200,2689A,93.4961,42.8328,哈密市,哈密师范学校,颗粒物(PM10),74,98,120,31,47,51,51,34,34,24,43,14,11,0.6,1
2025-12-19T1200,2671A,100.9048,36.9639,海北藏族自治州,海晏县西海镇,颗粒物(PM10),55,59,24,30,16,42,42,48,40,24,7,20,9,0.8,0.4
2025-12-19T1200,3867A,102.0738,36.5056,海东市,平安区公安北苑,颗粒物(PM10),55,59,70,17,32,69,69,46,46,9,30,24,33,0.6,1
2025-12-19T1200,1409A,110.576,19.9507,海口市,东寨港,,,,,,,,,,,,,,,,
2025-12-19T1200,1410A,110.3232,20.0574,海口市,海南大学,,,43,41,19,19,,,97,91,8,9,6,6,0.5,0.4
2025-12-19T1200,1411A,110.283,20.0053,海口市,秀英海南医院,,43,43,48,21,19,88,88,94,86,8,8,7,7,0.4,0.4
2025-12-19T1200,1412A,110.338,19.9969,海口市,海南师范大学,,43,43,43,19,18,91,91,98,90,9,10,6,6,0.5,0.5
2025-12-19T1200,1413A,110.33,20.0356,海口市,龙华路环保局宿舍,,41,41,42,21,19,95,95,98,92,10,10,7,8,0.5,0.4
2025-12-19T1200,3539A,110.5111,19.9736,海口市,桂林洋子站,,34,34,42,19,20,91,91,90,84,6,8,7,7,0.3,0.4
2025-12-19T1200,2673A,100.6188,36.2866,海南藏族自治州,共和县恰卜恰镇,"颗粒物(PM10),细颗粒物(PM2.5)",54,58,42,38,17,41,41,22,17,17,26,14,11,0.6,0.6
2025-12-19T1200,2676A,97.3731,37.3753,海西蒙古族藏族自治州,德令哈市,,46,46,26,13,8,43,43,60,49,23,10,15,13,0.8,0.5
2025-12-19T1200,1048A,114.5302,36.6116,邯郸市,东污水处理厂,细颗粒物(PM2.5),211,206,181,161,157,16,16,12,12,39,46,2,3,1.7,1.4
2025-12-19T1200,1049A,114.4918,36.5713,邯郸市,矿院,细颗粒物(PM2.5),274,,202,224,189,11,11,5,5,40,49,1,2,1.7,1.3
2025-12-19T1200,1050A,114.484,36.6133,邯郸市,丛台公园,细颗粒物(PM2.5),247,230,223,197,180,17,17,10,10,36,46,5,6,1.8,1.3
2025-12-19T1200,3458A,114.7895,36.5593,邯郸市,香泉濮院小区,细颗粒物(PM2.5),178,205,173,134,123,25,25,12,12,30,32,6,7,1.4,1.3
2025-12-19T1200,3579A,114.50634,36.77178,邯郸市,永年区实验高中,细颗粒物(PM2.5),175,180,182,132,117,16,16,10,10,42,57,1,3,1.7,1.4
2025-12-19T1200,3580A,114.20016,36.44293,邯郸市,峰峰矿区临水派出所,细颗粒物(PM2.5),230,,140,180,179,22,22,17,17,40,42,28,10,4.5,1.9
2025-12-19T1200,2634A,106.9893,33.1842,汉中市,汉川机床厂子校,,,,,,,,,,,,,,,,
2025-12-19T1200,2635A,107.0154,33.0706,汉中市,市监测站,细颗粒物(PM2.5),94,87,79,70,67,31,31,27,19,27,29,4,5,1.0,1
2025-12-19T1200,2636A,107.0089,33.1138,汉中市,鑫源开发区,,,,99,,67,22,22,6,6,,35,4,5,0.9,1
2025-12-19T1200,2637A,107.007,33.0323,汉中市,南郑大河坎水厂,细颗粒物(PM2.5),92,95,90,68,68,31,31,22,17,27,27,5,5,1.1,1.1
2025-12-19T1200,1223A,120.2072,30.2111,杭州市,滨江,颗粒物(PM10),72,94,134,43,66,80,80,31,31,35,64,10,9,0.9,1
2025-12-19T1200,1224A,120.0633,30.2747,杭州市,西溪,,,97,126,45,66,71,71,13,13,,46,9,8,1.0,1
2025-12-19T1200,1226A,120.3417,30.3150,杭州市,下沙,细颗粒物(PM2.5),84,90,121,62,80,88,88,35,35,36,67,10,9,0.8,0.9
2025-12-19T1200,1227A,120.1269,30.2456,杭州市,卧龙桥,细颗粒物(PM2.5),99,115,118,74,83,76,76,22,22,39,38,10,9,0.8,0.8
2025-12-19T1200,1228A,120.1903,30.2692,杭州市,浙江农大,细颗粒物(PM2.5),93,96,118,69,82,89,89,35,35,42,67,4,3,0.9,1
2025-12-19T1200,1230A,120.1197,30.3119,杭州市,和睦小学,细颗粒物(PM2.5),114,140,145,86,88,71,71,25,25,46,62,6,6,1.0,1
2025-12-19T1200,1231A,120.3019,30.4183,杭州市,临平镇,细颗粒物(PM2.5),90,110,108,67,70,94,94,26,26,28,56,8,8,0.9,0.8
2025-12-19T1200,1232A,120.2753,30.1839,杭州市,城厢镇,细颗粒物(PM2.5),90,114,142,67,94,76,76,23,23,46,68,10,10,0.7,0.9
2025-12-19T1200,1233A,120.0883,30.1808,杭州市,云栖,细颗粒物(PM2.5),107,142,136,80,90,76,76,19,19,55,47,6,5,0.9,0.8
2025-12-19T1200,3557A,119.9464,30.0494,杭州市,镇二中,细颗粒物(PM2.5),103,96,141,77,92,85,85,26,26,41,69,8,7,1.1,1.3
2025-12-19T1200,3558A,119.7183,30.2367,杭州市,市府大楼,细颗粒物(PM2.5),98,105,173,73,110,95,95,50,50,28,39,12,11,0.9,1
2025-12-19T1200,3656A,120.1556,30.2864,杭州市,消防大队,细颗粒物(PM2.5),129,136,140,98,98,72,72,28,28,44,59,7,6,1.1,1
2025-12-19T1200,1270A,117.1959,31.7848,合肥市,明珠广场,细颗粒物(PM2.5),134,139,158,102,121,75,75,79,65,38,36,11,8,1.1,1.1
2025-12-19T1200,1271A,117.3072,31.8764,合肥市,三里街,细颗粒物(PM2.5),138,156,167,105,120,65,65,51,51,50,57,9,7,1.2,1.2
2025-12-19T1200,1272A,117.2588,31.8707,合肥市,琥珀山庄,细颗粒物(PM2.5),140,144,155,107,119,82,82,72,70,36,34,10,8,1.1,1.1
2025-12-19T1200,1273A,117.1604,31.9052,合肥市,董铺水库,,,,,,,,,,,,,,,,
2025-12-19T1200,1274A,117.25,31.8571,合肥市,长江中路,细颗粒物(PM2.5),142,151,160,108,121,75,75,80,71,42,33,10,8,1.1,1
2025-12-19T1200,1275A,117.266,31.9436,合肥市,庐阳区,细颗粒物(PM2.5),132,144,165,100,113,86,86,81,73,42,43,9,11,1.0,1
2025-12-19T1200,1276A,117.3453,31.8616,合肥市,瑶海区,细颗粒物(PM2.5),138,158,169,105,122,78,78,71,70,45,43,9,7,1.2,1.1
2025-12-19T1200,1277A,117.3027,31.7964,合肥市,包河区,细颗粒物(PM2.5),128,136,155,97,121,92,92,79,77,30,34,12,9,1.1,1.1
2025-12-19T1200,1278A,117.2776,31.7385,合肥市,滨湖新区,细颗粒物(PM2.5),140,141,164,107,128,89,89,80,75,31,32,10,7,1.2,1.2
2025-12-19T1200,1279A,117.1318,31.8403,合肥市,高新区,细颗粒物(PM2.5),128,136,150,97,114,84,84,91,80,37,36,9,6,1.0,1.1
2025-12-19T1200,3464A,117.3803,31.9147,合肥市,高教基地,细颗粒物(PM2.5),148,151,164,113,127,90,90,84,82,31,33,11,9,1.0,1
2025-12-19T1200,3614A,79.924,37.0877,和田地区,地区环保局,细颗粒物(PM2.5),228,329,196,178,76,28,28,41,35,78,49,12,7,3.2,0.8
2025-12-19T1200,3615A,79.9131,37.113,和田地区,市环保局,颗粒物(PM10),194,338,208,121,71,22,22,18,13,68,63,8,7,3.7,3.1
2025-12-19T1200,2516A,108.2011,24.715,河池市,东仁乐园,,,,,,,,,,,,,,,,
2025-12-19T1200,2517A,108.0497,24.6947,河池市,市环保站,颗粒物(PM10),69,88,56,48,40,61,61,19,19,24,22,6,4,0.9,0.8
2025-12-19T1200,2518A,108.0983,24.6989,河池市,市疾控中心,颗粒物(PM10),73,96,60,52,42,57,57,10,10,30,31,10,7,1.0,0.8
2025-12-19T1200,1696A,114.6778,23.7569,河源市,源西,,,,,,,,,,,,,,,,
2025-12-19T1200,1697A,114.6944,23.7586,河源市,东埔,细颗粒物(PM2.5),55,42,51,39,33,54,54,30,25,25,33,6,6,0.6,0.7
2025-12-19T1200,1698A,114.6892,23.7233,河源市,老城,,46,45,50,32,28,42,42,25,24,28,25,6,7,0.8,0.7
2025-12-19T1200,1718A,115.4208,35.2464,菏泽市,气象局,细颗粒物(PM2.5),190,188,185,143,139,70,70,54,50,28,29,5,4,0.9,0.8
2025-12-19T1200,3374A,115.5564,35.0891,菏泽市,定陶老年大学,细颗粒物(PM2.5),180,178,170,136,130,61,61,44,44,30,36,4,4,0.8,0.7
2025-12-19T1200,4184A,115.4797,35.24401,菏泽市,永昌路1号,细颗粒物(PM2.5),186,182,177,140,135,72,72,59,59,36,38,8,7,1.0,0.9
2025-12-19T1200,4193A,115.4715,35.2800,菏泽市,长城路999号,细颗粒物(PM2.5),188,179,173,141,130,61,61,61,61,29,27,3,3,1.2,1.1
2025-12-19T1200,2514A,111.5264,24.4172,贺州市,环保小区,细颗粒物(PM2.5),52,40,67,36,52,69,69,25,25,17,28,6,7,0.8,0.9
2025-12-19T1200,2515A,111.5608,24.4078,贺州市,政协大楼,,38,36,61,26,40,77,77,30,30,14,30,8,9,0.7,0.8
2025-12-19T1200,3534A,111.4744,24.4553,贺州市,西湾,颗粒物(PM10),51,51,62,31,46,54,54,16,16,26,30,6,7,0.7,0.9
2025-12-19T1200,2385A,114.17,35.9019,鹤壁市,市监测站,细颗粒物(PM2.5),169,193,187,128,153,11,11,12,3,39,42,3,4,2.6,1.8
2025-12-19T1200,2386A,114.2956,35.7511,鹤壁市,市交警支队,细颗粒物(PM2.5),190,212,209,143,163,9,9,7,3,51,52,2,5,2.1,1.4
2025-12-19T1200,2387A,114.2878,35.7306,鹤壁市,迎宾馆,细颗粒物(PM2.5),189,200,201,142,162,11,11,12,3,40,41,10,9,2.2,1.5
2025-12-19T1200,3474A,114.2617,35.6822,鹤壁市,大新区,细颗粒物(PM2.5),198,182,198,148,164,16,16,16,8,40,49,5,7,2.3,1.5
2025-12-19T1200,3596A,114.1572,35.9603,鹤壁市,南山宾馆,细颗粒物(PM2.5),122,161,183,92,142,14,14,9,5,38,44,4,6,2.4,1.8
2025-12-19T1200,2244A,130.2537,47.3416,鹤岗市,哈啤分公司,,42,30,45,29,47,51,51,48,48,11,34,7,8,0.8,0.9
2025-12-19T1200,2245A,130.2684,47.3086,鹤岗市,斯达机电,,,,59,,35,,,48,,,23,,11,,0.8
2025-12-19T1200,2246A,130.3114,47.3388,鹤岗市,东山纸板厂,,48,,65,33,37,50,50,49,49,12,26,10,10,1.0,1.2
2025-12-19T1200,2247A,130.1097,47.3382,鹤岗市,五号水库,,,,,,,,,,,,,,,,
2025-12-19T1200,2263A,127.4833,50.2524,黑河市,交通局,,25,25,43,17,29,51,51,44,44,23,27,6,10,0.4,0.5
2025-12-19T1200,2264A,127.5144,50.2341,黑河市,环保局,颗粒物(PM10),58,66,42,20,25,60,60,47,47,10,25,9,11,0.4,0.5
2025-12-19T1200,2265A,127.5291,50.2472,黑河市,大黑河岛,,,,,,,,,,,,,,,,
2025-12-19T1200,1074A,115.6838,37.7541,衡水市,电机北厂,细颗粒物(PM2.5),238,240,214,188,175,2,2,1,1,50,46,7,6,1.3,1.3
2025-12-19T1200,1075A,115.6303,37.7316,衡水市,市监测站,细颗粒物(PM2.5),243,211,197,193,174,6,6,4,4,47,45,4,4,1.4,1.3
2025-12-19T1200,3188A,115.6683,37.7217,衡水市,市城管局,细颗粒物(PM2.5),230,240,205,180,171,7,7,16,15,53,47,7,7,1.4,1.3
2025-12-19T1200,3459A,115.5989,37.5491,衡水市,地表水厂,细颗粒物(PM2.5),255,235,203,205,183,11,11,9,9,40,39,4,5,1.2,1.2
2025-12-19T1200,2456A,112.5003,26.9167,衡阳市,原169医院,,,,,,,,,,,,,,,,
2025-12-19T1200,2457A,112.6194,26.9258,衡阳市,衡阳化工总厂,细颗粒物(PM2.5),94,110,126,70,101,77,77,24,24,23,40,21,12,1.1,1.2
2025-12-19T1200,2458A,112.6211,26.8956,衡阳市,珠晖区环保局,细颗粒物(PM2.5),102,101,118,76,103,72,72,25,25,22,46,16,9,1.3,1.4
2025-12-19T1200,2459A,112.6197,26.8733,衡阳市,市委党校,细颗粒物(PM2.5),89,94,123,66,153,67,67,25,25,23,36,19,11,1.3,1.4
2025-12-19T1200,2460A,112.6006,26.8919,衡阳市,市监测站,,,129,159,71,98,72,72,19,19,27,48,,10,,1.4
2025-12-19T1200,2461A,112.5664,26.9056,衡阳市,真空机电公司,细颗粒物(PM2.5),93,93,145,69,113,69,69,22,22,31,55,21,13,1.5,1.7
2025-12-19T1200,3399A,112.6703,26.882,衡阳市,师范学院,细颗粒物(PM2.5),82,87,136,60,91,74,74,26,26,20,33,16,7,1.3,1.3
2025-12-19T1200,2608A,103.3772,23.3993,红河哈尼族彝族自治州,污水处理厂,,22,21,21,15,17,59,59,40,40,8,9,13,8,0.3,0.3
2025-12-19T1200,2609A,103.3861,23.35,红河哈尼族彝族自治州,监测站,,26,19,20,18,19,62,62,54,52,5,5,10,8,0.2,0.2
2025-12-19T1200,3038A,103.3758,23.368,红河哈尼族彝族自治州,州图书馆,,19,16,12,12,7,59,59,46,44,7,7,24,10,0.3,0.3
2025-12-19T1200,1090A,111.6507,40.7517,呼和浩特市,呼市一监,,22,22,70,3,50,61,61,44,44,9,49,4,12,0.2,0.7
2025-12-19T1200,1091A,111.6572,40.8033,呼和浩特市,小召,,31,31,78,3,50,60,60,47,47,11,53,5,16,0.3,0.9
2025-12-19T1200,1094A,111.7516,40.8369,呼和浩特市,如意水处理厂,,,17,70,3,48,,,52,52,15,49,8,14,,0.9
2025-12-19T1200,1095A,111.7276,40.8062,呼和浩特市,二十九中,,27,27,79,3,46,63,63,51,51,7,47,8,18,0.3,0.7
2025-12-19T1200,1096A,111.5512,40.7866,呼和浩特市,工大金川校区,,34,34,76,3,51,59,59,45,45,14,51,6,15,0.2,0.7
2025-12-19T1200,1097A,111.717,40.7612,呼和浩特市,化肥厂生活区,,20,16,69,3,48,64,64,48,48,16,54,5,12,0.2,0.7
2025-12-19T1200,3698A,111.5968,40.8178,呼和浩特市,红旗小学,,29,29,86,3,47,63,63,54,54,7,51,4,14,0.2,0.8
2025-12-19T1200,3699A,111.6518,40.8389,呼和浩特市,海东办,,22,22,69,3,44,67,67,58,58,13,48,4,12,0.3,0.8
2025-12-19T1200,3061A,119.7512,49.1577,呼伦贝尔市,国华电力东,颗粒物(PM10),65,80,24,16,13,61,61,64,57,25,29,7,8,0.7,0.7
2025-12-19T1200,4279A,119.7569,49.2222,呼伦贝尔市,伊敏大街东7号,,33,33,26,18,13,48,48,55,48,8,11,8,8,0.2,0.3
2025-12-19T1200,1250A,120.0751,30.8669,湖州市,城西水厂,细颗粒物(PM2.5),115,146,112,87,66,88,88,31,31,52,56,11,10,0.9,0.7
2025-12-19T1200,2873A,120.0830,30.8929,湖州市,仁皇山新区,细颗粒物(PM2.5),153,147,107,117,74,86,86,28,28,49,59,11,9,1.0,0.8
2025-12-19T1200,2907A,120.1844,30.8596,湖州市,吴兴区站,细颗粒物(PM2.5),117,148,102,88,56,79,79,22,22,54,51,10,8,1.0,0.7
2025-12-19T1200,3562A,120.4148,30.8538,湖州市,南浔区站,细颗粒物(PM2.5),98,110,74,73,43,100,100,39,39,41,43,7,6,1.0,0.8
2025-12-19T1200,1607A,120.9049,40.7211,葫芦岛市,龙港区,细颗粒物(PM2.5),148,117,75,113,66,52,52,59,50,34,21,17,14,1.1,0.8
2025-12-19T1200,1608A,120.8392,40.7514,葫芦岛市,化工街,细颗粒物(PM2.5),140,146,100,107,70,24,24,42,26,59,34,23,21,1.1,0.8
2025-12-19T1200,1609A,120.8341,40.7073,葫芦岛市,新区,细颗粒物(PM2.5),158,,71,120,69,34,34,53,38,54,29,15,11,1.3,0.9
2025-12-19T1200,1610A,120.8695,40.7677,葫芦岛市,东城区,细颗粒物(PM2.5),159,,74,121,74,29,29,51,32,61,34,16,13,1.4,1.1
2025-12-19T1200,2482A,109.5981,27.5721,怀化市,林科所,,,,,,,,,,,,,,,,
2025-12-19T1200,2483A,109.9453,27.5444,怀化市,河西地税局,,49,42,64,34,48,70,70,31,31,13,26,7,7,0.6,0.6
2025-12-19T1200,2484A,109.9781,27.5342,怀化市,市四医院,细颗粒物(PM2.5),102,107,98,76,62,60,60,18,18,45,44,14,12,0.7,0.7
2025-12-19T1200,2485A,109.9972,27.5578,怀化市,监测楼,,,,86,,56,,,2,2,,30,,4,,0.5
2025-12-19T1200,2486A,110.0394,27.583,怀化市,市委党校,细颗粒物(PM2.5),74,61,91,54,67,64,64,22,22,22,31,4,6,0.4,0.5
2025-12-19T1200,1210A,119.036,33.5981,淮安市,钵池山,细颗粒物(PM2.5),94,92,95,70,66,79,79,39,39,31,39,9,8,0.9,0.9
2025-12-19T1200,1211A,119.007,33.575,淮安市,北京南路,细颗粒物(PM2.5),102,100,97,76,69,72,72,29,29,33,39,12,9,0.9,0.8
2025-12-19T1200,1212A,118.989,33.6067,淮安市,市监测站,细颗粒物(PM2.5),113,102,90,85,72,71,71,34,34,38,38,13,11,1.4,1.1
2025-12-19T1200,1213A,119.135,33.5039,淮安市,楚州区监测站,细颗粒物(PM2.5),102,90,98,76,77,73,73,17,17,25,45,12,10,1.0,0.9
2025-12-19T1200,3426A,118.8755,33.2894,淮安市,新华书店,细颗粒物(PM2.5),108,110,108,81,74,80,80,33,33,34,48,14,11,1.1,0.8
2025-12-19T1200,4206A,119.0288,33.6319,淮安市,承德北路606号,细颗粒物(PM2.5),99,119,110,74,70,71,71,42,42,34,36,12,9,0.9,0.9
2025-12-19T1200,2282A,116.8004,33.975,淮北市,监测站,细颗粒物(PM2.5),144,167,168,110,114,76,76,57,57,36,37,10,10,0.9,0.9
2025-12-19T1200,2283A,116.8091,33.9007,淮北市,烈山区政府,细颗粒物(PM2.5),144,133,154,110,120,72,72,54,54,38,37,14,13,0.7,0.8
2025-12-19T1200,3330A,116.8873,33.9836,淮北市,杜集区检察院,细颗粒物(PM2.5),150,135,141,115,112,83,83,72,72,32,26,11,9,1.0,1
2025-12-19T1200,4017A,116.7923,33.9535,淮北市,市博物馆,细颗粒物(PM2.5),163,160,165,124,122,71,71,54,54,36,36,13,13,1.0,1
2025-12-19T1200,2277A,116.8305,32.7727,淮南市,潘集区政府,细颗粒物(PM2.5),120,118,170,91,130,70,70,58,58,27,31,10,8,0.7,0.8
2025-12-19T1200,2279A,116.8569,32.5951,淮南市,谢家集区政府,细颗粒物(PM2.5),109,113,158,82,110,67,67,55,55,33,47,9,10,0.7,0.8
2025-12-19T1200,2280A,116.8281,32.633,淮南市,八公山区政府,细颗粒物(PM2.5),103,104,152,77,110,75,75,70,70,23,29,6,7,0.7,0.8
2025-12-19T1200,2281A,116.6325,32.6201,淮南市,焦岗湖风景区管理处,,,,,,,,,,,,,,,,
2025-12-19T1200,2894A,117.0566,32.6531,淮南市,经济技术开发区消防队,细颗粒物(PM2.5),128,138,167,97,130,68,68,47,47,35,34,9,7,0.7,0.8
2025-12-19T1200,3329A,117.0108,32.5893,淮南市,山南新区,细颗粒物(PM2.5),123,123,172,93,121,75,75,65,65,33,32,6,5,0.8,0.9
2025-12-19T1200,4209A,117.0031,32.6445,淮南市,国庆中路369号,细颗粒物(PM2.5),119,102,144,90,119,67,67,65,65,33,32,,17,0.7,0.8
2025-12-19T1200,2446A,114.9028,30.4742,黄冈市,职工中心,细颗粒物(PM2.5),97,108,133,72,91,102,102,90,89,30,26,10,9,1.1,1.1
2025-12-19T1200,2929A,114.8858,30.4519,黄冈市,红卫路,细颗粒物(PM2.5),97,106,131,72,105,95,95,86,83,26,24,10,8,0.8,0.8
2025-12-19T1200,3398A,114.9136,30.4445,黄冈市,市林业局,细颗粒物(PM2.5),103,98,133,77,111,97,97,85,81,29,28,8,6,0.9,1
2025-12-19T1200,2672A,102.0199,35.5102,黄南藏族自治州,同仁县隆务镇,细颗粒物(PM2.5),98,73,42,73,24,47,47,39,34,20,10,17,13,0.8,0.6
2025-12-19T1200,2295A,118.2903,29.6963,黄山市,延安路89号,细颗粒物(PM2.5),93,91,83,69,66,64,64,23,23,26,24,5,4,0.8,0.7
2025-12-19T1200,2297A,118.1371,30.2756,黄山市,黄山区政府5号楼,细颗粒物(PM2.5),63,68,75,45,56,74,74,25,25,15,20,6,6,0.7,0.7
2025-12-19T1200,4210A,118.3354,29.7203,黄山市,滨江东路7-2号,细颗粒物(PM2.5),87,80,102,64,76,97,97,24,24,19,31,4,4,0.7,0.8
2025-12-19T1200,2423A,115.0601,30.2313,黄石市,沈家营,细颗粒物(PM2.5),100,77,167,75,104,87,87,,,28,30,6,8,0.9,1.4
2025-12-19T1200,2426A,114.8988,30.2019,黄石市,铁山,细颗粒物(PM2.5),109,85,120,82,124,93,93,76,75,35,31,8,7,0.7,1
2025-12-19T1200,2427A,115.0307,30.2092,黄石市,团城山,细颗粒物(PM2.5),114,134,157,86,121,85,85,56,55,31,32,8,8,1.0,1.2
2025-12-19T1200,3149A,115.0235,30.1578,黄石市,笔架山北路,细颗粒物(PM2.5),100,139,198,75,119,89,89,70,70,26,26,15,17,1.2,1.3
2025-12-19T1200,4185A,115.0780,30.21118,黄石市,磁湖东路29号,细颗粒物(PM2.5),142,140,162,108,129,,,49,49,28,34,14,13,1.4,1.4
2025-12-19T1200,1392A,114.4183,23.0528,惠州市,河南岸金山湖子站,,39,33,60,27,35,70,70,65,65,20,24,4,4,0.7,0.7
2025-12-19T1200,1393A,114.4053,23.0822,惠州市,下埔横江三路子站,,38,33,62,26,36,82,82,80,80,12,21,6,7,0.8,0.8
2025-12-19T1200,1394A,114.4103,23.1142,惠州市,江北云山西路子站,,29,26,59,20,34,87,87,86,80,16,24,6,8,0.6,0.7
2025-12-19T1200,1395A,114.4645,22.7833,惠州市,惠阳区承修路船湖子站,,39,36,63,27,32,91,91,77,70,15,18,6,6,0.6,0.7
2025-12-19T1200,1396A,114.5317,22.7422,惠州市,大亚湾管委会子站,,30,27,61,21,32,89,89,79,67,14,19,5,6,0.5,0.6
2025-12-19T1200,3314A,114.4338,22.8134,惠州市,惠阳秋长,,50,46,56,35,35,104,104,76,75,18,22,11,11,0.5,0.6
2025-12-19T1200,3452A,114.6517,22.775,惠州市,大亚湾霞涌,,34,34,50,23,28,89,89,73,73,13,18,3,5,0.5,0.6
2025-12-19T1200,2240A,130.9762,45.3001,鸡西市,环保局,细颗粒物(PM2.5),69,70,95,50,57,30,30,27,27,20,27,8,10,0.5,0.6
2025-12-19T1200,2243A,130.9429,45.3039,鸡西市,第一中学,细颗粒物(PM2.5),65,58,76,47,52,22,22,30,27,28,25,6,6,0.6,0.5
2025-12-19T1200,3707A,131.0207,45.3073,鸡西市,欧美日汽修厂,细颗粒物(PM2.5),68,75,111,49,71,34,34,26,26,18,28,10,11,0.0,0.4
2025-12-19T1200,3709A,130.9967,45.3106,鸡西市,市政设施管理处,"颗粒物(PM10),细颗粒物(PM2.5)",65,79,114,47,71,31,31,22,22,22,36,11,15,0.5,0.7
2025-12-19T1200,2367A,114.9754,27.0803,吉安市,红声器材厂,细颗粒物(PM2.5),79,92,102,58,58,73,73,25,25,38,44,9,8,1.0,1
2025-12-19T1200,2368A,114.9658,27.0999,吉安市,市森林工业局,细颗粒物(PM2.5),82,96,103,60,66,55,55,19,19,32,42,10,11,0.6,0.7
2025-12-19T1200,2369A,114.99,27.1312,吉安市,市环境监测站,细颗粒物(PM2.5),75,88,100,55,65,81,81,19,19,32,47,16,16,0.8,0.8
2025-12-19T1200,2370A,115.0093,27.0968,吉安市,青原区法院,颗粒物(PM10),70,89,93,50,59,71,71,18,18,37,46,11,10,0.8,0.9
2025-12-19T1200,1772A,126.54,43.8622,吉林市,哈达湾,,30,30,39,20,25,73,73,74,73,11,14,7,7,1.0,1
2025-12-19T1200,1773A,126.5844,43.8358,吉林市,东局子,,25,24,33,17,21,64,64,68,66,9,9,17,15,0.7,0.7
2025-12-19T1200,1774A,126.5052,43.8245,吉林市,电力学院,,30,30,33,18,26,73,73,75,73,14,16,10,12,0.4,0.5
2025-12-19T1200,1775A,126.6133,43.8972,吉林市,江北,,34,34,37,22,26,67,67,73,70,10,9,8,7,0.8,0.9
2025-12-19T1200,1776A,126.555,43.8306,吉林市,江南公园,,38,31,38,26,32,65,65,67,66,11,15,8,8,0.5,0.5
2025-12-19T1200,1778A,126.7061,43.7133,吉林市,丰满,,29,,23,20,25,60,60,60,59,8,8,5,6,0.7,0.6
2025-12-19T1200,2868A,126.4739,43.953,吉林市,九站,,45,45,48,22,31,70,70,72,71,14,19,8,11,0.6,0.7
2025-12-19T1200,1299A,116.9862,36.6114,济南市,科干所,细颗粒物(PM2.5),147,180,108,112,63,28,28,103,78,67,23,11,7,1.3,0.9
2025-12-19T1200,1300A,116.9376,36.665,济南市,农科所,细颗粒物(PM2.5),185,190,113,139,78,37,37,87,63,57,30,5,4,1.3,0.8
2025-12-19T1200,1301A,117.1265,36.6734,济南市,开发区,细颗粒物(PM2.5),170,171,95,129,68,33,33,79,44,52,27,7,5,1.2,0.8
2025-12-19T1200,1303A,117.0624,36.6868,济南市,省种子仓库,细颗粒物(PM2.5),185,195,118,139,76,33,33,72,31,52,37,9,6,1.1,0.8
2025-12-19T1200,1304A,116.9489,36.6447,济南市,机床二厂,细颗粒物(PM2.5),199,193,113,149,81,40,40,91,73,41,26,,10,1.1,0.8
2025-12-19T1200,1305A,117.0495,36.663,济南市,市监测站,细颗粒物(PM2.5),182,186,102,137,70,26,26,92,52,54,21,,4,1.2,0.7
2025-12-19T1200,1306A,116.7675,36.5484,济南市,长清党校,细颗粒物(PM2.5),168,181,126,127,84,32,32,80,60,40,20,8,7,1.4,0.8
2025-12-19T1200,1616A,117.6795,36.229,济南市,技术学院,细颗粒物(PM2.5),147,153,107,112,78,87,87,64,64,38,39,15,9,1.3,0.9
2025-12-19T1200,1961A,117.532,36.6868,济南市,东山小学,细颗粒物(PM2.5),150,164,109,115,73,67,67,85,82,33,22,8,9,1.1,0.9
2025-12-19T1200,3059A,117.7161,36.2049,济南市,泰兴公司,细颗粒物(PM2.5),140,144,120,107,91,105,105,48,43,30,46,13,9,0.8,0.8
2025-12-19T1200,3064A,117.6867,36.2171,济南市,莱芜战役纪念馆,细颗粒物(PM2.5),152,156,116,116,87,100,100,65,65,32,38,15,11,1.0,0.6
2025-12-19T1200,3494A,117.1673,36.9782,济南市,济阳区政府,细颗粒物(PM2.5),192,188,118,144,78,40,40,57,39,44,38,9,8,1.0,0.7
2025-12-19T1200,3495A,117.1171,36.63,济南市,锦屏中学,细颗粒物(PM2.5),129,147,88,98,60,32,32,102,68,59,23,4,4,1.2,0.9
2025-12-19T1200,3682A,116.9814,36.6819,济南市,济南四建,细颗粒物(PM2.5),168,178,104,127,73,22,22,87,59,54,19,8,6,1.5,1
2025-12-19T1200,1653A,116.6251,35.4302,济宁市,火炬城,细颗粒物(PM2.5),178,,128,134,112,74,74,54,50,25,25,9,7,0.9,0.8
2025-12-19T1200,1655A,116.5491,35.4042,济宁市,电化厂,细颗粒物(PM2.5),149,191,169,114,110,72,72,54,54,34,30,9,8,0.7,0.6
2025-12-19T1200,3500A,116.5814,35.3707,济宁市,北湖一中,细颗粒物(PM2.5),165,,118,125,108,66,66,54,54,28,24,10,8,1.0,0.8
2025-12-19T1200,3501A,116.8249,35.5593,济宁市,服务中心,细颗粒物(PM2.5),158,165,143,120,93,66,66,53,50,29,23,16,12,0.6,0.5
2025-12-19T1200,3678A,116.5907,35.4054,济宁市,市第七中学,细颗粒物(PM2.5),149,,119,114,98,75,75,55,55,30,31,12,10,1.0,0.9
2025-12-19T1200,2255A,130.2751,46.8028,佳木斯市,佳纺,颗粒物(PM10),51,51,88,34,65,35,35,28,28,15,36,1,4,0.7,0.9
2025-12-19T1200,2256A,130.3995,46.8307,佳木斯市,发电厂,,,,,,,,,,,,,,,,
2025-12-19T1200,2257A,130.3258,46.7975,佳木斯市,环保局,,46,45,79,32,61,38,38,33,33,15,37,2,4,0.4,0.7
2025-12-19T1200,2258A,130.3648,46.8032,佳木斯市,十一中,,,,,,,,,,,,,,,,
2025-12-19T1200,2259A,130.3794,46.7588,佳木斯市,四丰,,,,,,,,,,,,,,,,
2025-12-19T1200,1252A,120.7436,30.778,嘉兴市,清河小学,颗粒物(PM10),74,97,54,49,30,92,92,61,61,36,29,8,6,0.3,0.2
2025-12-19T1200,1253A,120.726,30.7478,嘉兴市,嘉兴学院,颗粒物(PM10),81,112,59,59,28,94,94,73,68,40,29,9,8,0.5,0.3
2025-12-19T1200,2872A,120.7846,30.7525,嘉兴市,南湖区残联,细颗粒物(PM2.5),77,88,46,56,27,99,99,73,72,31,25,6,5,0.3,0.2
2025-12-19T1200,3407A,120.6916,30.7739,嘉兴市,秀洲住建,,,96,57,59,32,,,70,56,27,27,,7,0.5,0.3
2025-12-19T1200,1945A,98.2908,39.7711,嘉峪关市,气象局,颗粒物(PM10),57,63,88,29,25,60,60,53,53,13,20,39,16,1.0,0.8
2025-12-19T1200,2884A,98.2672,39.7978,嘉峪关市,酒钢宾馆,颗粒物(PM10),53,56,116,29,32,63,63,46,46,11,28,59,35,1.1,0.9
2025-12-19T1200,3248A,98.2643,39.7724,嘉峪关市,雄关区,,50,50,75,35,28,64,64,46,46,20,36,28,24,0.5,0.7
2025-12-19T1200,1383A,113.1064,22.6058,江门市,北街,细颗粒物(PM2.5),104,86,68,78,48,84,84,54,48,58,42,13,10,0.7,0.6
2025-12-19T1200,1384A,113.0731,22.5835,江门市,西区,细颗粒物(PM2.5),84,74,75,62,44,91,91,52,49,50,48,10,9,0.6,0.6
2025-12-19T1200,1385A,113.0219,22.5311,江门市,圭峰西,细颗粒物(PM2.5),102,87,63,76,47,90,90,58,58,60,36,8,7,0.7,0.6
2025-12-19T1200,1386A,113.0828,22.5947,江门市,东湖,颗粒物(PM10),78,106,79,53,41,84,84,49,43,56,44,9,8,0.5,0.5
2025-12-19T1200,3311A,113.1075,22.5647,江门市,江海富民,细颗粒物(PM2.5),85,102,87,63,42,99,99,63,59,46,43,7,9,0.5,0.5
2025-12-19T1200,3449A,113.05,22.4667,江门市,新会银湖,细颗粒物(PM2.5),79,59,68,58,50,95,95,43,43,30,38,7,7,0.5,0.5
2025-12-19T1200,1830A,113.1992,35.2590,焦作市,影视城,,,,134,,89,,,73,,,34,,7,,0.7
2025-12-19T1200,3335A,113.3137,35.2641,焦作市,马村街道办,细颗粒物(PM2.5),224,227,166,174,130,43,43,33,25,39,35,7,9,1.3,1.1
2025-12-19T1200,3336A,113.2465,35.2373,焦作市,焦作技师学院,细颗粒物(PM2.5),243,242,169,193,129,49,49,21,21,34,44,9,12,1.2,1.1
2025-12-19T1200,3477A,113.1656,35.2539,焦作市,中站许衡医院,细颗粒物(PM2.5),213,197,145,163,119,51,51,52,42,41,38,9,12,1.5,1.2
2025-12-19T1200,3981A,113.2449,35.1803,焦作市,原李万街道办,细颗粒物(PM2.5),178,166,168,134,135,46,46,21,21,37,44,11,11,1.2,1.2
2025-12-19T1200,4264A,113.2340,35.2190,焦作市,新安路1731号,细颗粒物(PM2.5),227,226,172,177,135,45,45,25,25,35,45,8,11,1.4,1.3
2025-12-19T1200,4295A,113.2722,35.2121,焦作市,人民路3066号,细颗粒物(PM2.5),206,220,179,156,116,43,43,28,28,34,45,6,9,1.1,1.1
2025-12-19T1200,1708A,116.3701,23.5345,揭阳市,新兴,细颗粒物(PM2.5),92,86,68,68,54,46,46,56,43,52,30,10,8,0.9,0.7
2025-12-19T1200,1709A,116.3264,23.5443,揭阳市,西马,细颗粒物(PM2.5),89,91,74,66,50,36,36,52,39,48,28,5,7,0.9,0.7
2025-12-19T1200,1710A,116.3611,23.5626,揭阳市,东兴,细颗粒物(PM2.5),90,72,69,67,48,47,47,48,35,44,30,10,10,1.2,0.8
2025-12-19T1200,1711A,116.4151,23.5294,揭阳市,渔湖,,46,33,65,32,34,64,64,60,48,17,25,5,6,0.6,0.8
2025-12-19T1200,3320A,116.403,23.5699,揭阳市,曲溪,,50,39,65,35,38,62,62,60,44,16,24,4,7,0.5,0.6
2025-12-19T1200,1944A,102.1692,38.5167,金昌市,天庆家园,,44,44,120,12,26,68,68,53,53,7,14,4,8,0.4,0.5
2025-12-19T1200,4022A,102.1647,38.5371,金昌市,金川区人防中心,颗粒物(PM10),59,67,118,13,32,78,78,55,55,3,10,5,10,0.3,0.5
2025-12-19T1200,4239A,102.1930,38.5319,金昌市,长春路96号,,50,50,106,15,28,74,74,59,59,8,11,11,32,0.5,0.6
2025-12-19T1200,1262A,119.647,29.077,金华市,十五中,细颗粒物(PM2.5),150,168,194,115,129,85,85,32,32,74,86,6,5,1.1,1.3
2025-12-19T1200,1263A,119.686,29.1029,金华市,监测站,,,,,,,,,,,,,,,,
2025-12-19T1200,3659A,119.656,29.1131,金华市,气象局,颗粒物(PM10),111,172,204,79,85,56,56,16,16,76,92,8,7,1.3,1.3
2025-12-19T1200,1767A,121.1115,41.0879,锦州市,南山,细颗粒物(PM2.5),156,,73,119,81,38,38,49,32,49,40,12,13,1.1,0.9
2025-12-19T1200,1768A,121.0604,40.8428,锦州市,开发区,细颗粒物(PM2.5),130,103,74,99,69,23,23,51,35,63,44,22,11,1.1,0.8
2025-12-19T1200,1769A,121.1836,41.1119,锦州市,百股街道,细颗粒物(PM2.5),149,120,74,114,71,39,39,55,40,44,30,10,10,1.1,0.8
2025-12-19T1200,1770A,121.1178,41.1222,锦州市,天安街道,细颗粒物(PM2.5),156,,76,119,79,39,39,53,35,38,31,15,14,1.5,1.1
2025-12-19T1200,1771A,121.1303,41.1386,锦州市,北湖公园,细颗粒物(PM2.5),160,,83,122,77,34,34,47,31,41,32,18,15,1.3,1
2025-12-19T1200,2160A,112.85,35.5051,晋城市,自来水公司,细颗粒物(PM2.5),100,102,121,75,90,69,69,22,22,22,40,11,7,1.3,1.3
2025-12-19T1200,2161A,112.8318,35.4936,晋城市,白云商贸,细颗粒物(PM2.5),89,105,135,66,82,71,71,26,25,16,30,8,5,1.3,1.2
2025-12-19T1200,2162A,112.8508,35.4887,晋城市,市环保局,细颗粒物(PM2.5),83,107,126,61,76,75,75,22,22,16,36,10,7,1.5,1.5
2025-12-19T1200,2163A,112.8676,35.4897,晋城市,技术学院,细颗粒物(PM2.5),89,98,120,66,74,71,71,22,22,24,47,13,9,1.6,1.2
2025-12-19T1200,2165A,112.8453,35.546,晋城市,白马寺,细颗粒物(PM2.5),99,82,110,74,82,80,80,88,74,16,18,13,11,1.2,1
2025-12-19T1200,3620A,112.8271,35.4828,晋城市,泽州一中,细颗粒物(PM2.5),100,115,127,75,94,82,82,43,43,32,41,8,6,1.2,1
2025-12-19T1200,2173A,112.7249,37.7067,晋中市,南都小区,细颗粒物(PM2.5),128,166,115,97,66,24,24,12,12,67,62,25,22,1.8,1.3
2025-12-19T1200,2174A,112.6991,37.6982,晋中市,榆次区政府,颗粒物(PM10),112,173,118,,78,23,23,7,7,64,62,31,29,1.8,1.1
2025-12-19T1200,2865A,112.7195,37.6828,晋中市,榆次三中,细颗粒物(PM2.5),178,207,115,134,69,31,31,13,13,68,57,35,18,4.2,1.5
2025-12-19T1200,4200A,112.7478,37.6954,晋中市,迎宾街26号,细颗粒物(PM2.5),156,180,104,119,69,28,28,17,17,65,51,31,17,2.9,1
2025-12-19T1200,2439A,112.2014,31.0481,荆门市,竹园小学,细颗粒物(PM2.5),147,156,148,112,108,67,67,59,47,31,31,1,3,0.6,0.5
2025-12-19T1200,2440A,112.1969,30.9891,荆门市,掇刀,细颗粒物(PM2.5),128,146,149,97,105,84,84,50,49,23,28,5,5,0.8,0.7
2025-12-19T1200,2441A,112.2213,31.0386,荆门市,石化一小,细颗粒物(PM2.5),138,183,163,105,112,72,72,52,47,28,34,4,9,0.9,0.9
2025-12-19T1200,3012A,112.1849,31.0362,荆门市,西山林语,细颗粒物(PM2.5),137,147,134,104,101,66,66,64,54,30,24,5,6,1.1,0.9
2025-12-19T1200,3547A,112.1632,31.0138,荆门市,龙泉中学南校,细颗粒物(PM2.5),145,150,152,111,109,76,76,64,60,27,24,8,9,0.4,0.3
2025-12-19T1200,1844A,112.2494,30.3197,荆州市,市图书馆,细颗粒物(PM2.5),110,84,100,83,97,79,79,68,64,19,20,7,8,0.9,0.9
2025-12-19T1200,1845A,112.2008,30.3544,荆州市,市委党校,细颗粒物(PM2.5),137,,107,104,99,62,62,59,48,26,26,4,5,1.0,0.9
2025-12-19T1200,3194A,112.2747,30.3122,荆州市,管委会,细颗粒物(PM2.5),113,91,102,85,100,62,62,63,58,24,21,6,8,1.0,1
2025-12-19T1200,4268A,112.1722,30.3366,荆州市,学苑路85号,细颗粒物(PM2.5),132,118,108,100,88,74,74,71,61,22,20,5,5,1.0,0.9
2025-12-19T1200,2342A,117.3102,29.3867,景德镇市,王港中学,,,,,,,,,,,,,,,,
2025-12-19T1200,2343A,117.2117,29.2933,景德镇市,老干部活动中心,细颗粒物(PM2.5),68,65,85,49,68,74,74,25,25,23,42,9,14,0.9,1
2025-12-19T1200,2344A,117.1894,29.2789,景德镇市,兽医站,细颗粒物(PM2.5),63,69,90,45,58,69,69,24,24,21,41,8,15,0.9,1.1
2025-12-19T1200,2346A,117.2461,29.2956,景德镇市,陶研所,,50,48,73,35,60,102,102,24,24,6,33,4,5,0.8,0.9
2025-12-19T1200,4289A,117.1542,29.2566,景德镇市,青少年活动中心,颗粒物(PM10),61,72,97,38,58,79,79,27,27,24,47,7,18,0.8,1
2025-12-19T1200,1803A,115.9872,29.6815,九江市,十里,细颗粒物(PM2.5),108,118,134,81,101,90,90,29,29,,64,10,7,1.3,1.5
2025-12-19T1200,1804A,115.9584,29.7046,九江市,茅山头,细颗粒物(PM2.5),89,105,145,66,106,103,103,34,34,25,53,10,6,1.1,1.4
2025-12-19T1200,1805A,115.9877,29.7295,九江市,西园,细颗粒物(PM2.5),124,124,145,94,109,92,92,39,39,59,70,8,6,1.0,1.1
2025-12-19T1200,1808A,115.9114,29.6038,九江市,综合工业园,,,95,136,75,116,106,106,73,73,,49,8,5,0.9,0.8
2025-12-19T1200,1809A,116.0721,29.7535,九江市,石化总厂,细颗粒物(PM2.5),113,152,161,85,125,114,114,86,86,25,31,17,12,1.0,1
2025-12-19T1200,1810A,115.9773,29.5698,九江市,庐山气象台,,,,,,,,,,,,,,,,
2025-12-19T1200,3190A,116.0254,29.6994,九江市,外国语学校,细颗粒物(PM2.5),124,125,133,94,98,92,92,44,44,40,46,13,10,1.0,0.9
2025-12-19T1200,4253A,116.0102,29.6594,九江市,莲花大道8号,细颗粒物(PM2.5),147,131,129,112,102,74,74,50,43,48,29,9,5,1.0,0.9
2025-12-19T1200,4240A,98.4958,39.7339,酒泉市,玉门东路5号,,48,48,105,21,28,71,71,59,59,4,15,9,11,0.3,0.5
2025-12-19T1200,4241A,98.5099,39.7506,酒泉市,北大街108号,,46,46,96,22,26,63,63,52,52,11,21,7,10,0.4,0.5
2025-12-19T1200,2698A,76.0072,39.4467,喀什地区,巡警大队,颗粒物(PM10),147,244,244,104,105,36,36,26,26,58,68,10,11,1.1,1.7
2025-12-19T1200,2699A,75.9755,39.4694,喀什地区,吾办,颗粒物(PM10),137,224,230,83,98,38,38,23,23,45,61,9,11,1.5,1.9
2025-12-19T1200,4027A,75.9483,39.4689,喀什地区,老干局,颗粒物(PM10),143,235,259,76,91,33,33,22,22,52,61,9,11,1.4,2.1
2025-12-19T1200,1824A,114.3389,34.7781,开封市,肿瘤医院,细颗粒物(PM2.5),180,184,170,136,139,53,53,28,26,41,34,4,4,1.1,1.1
2025-12-19T1200,1826A,114.2885,34.7965,开封市,世纪星幼儿园,细颗粒物(PM2.5),229,,166,179,162,61,61,28,26,38,34,5,3,1.0,1
2025-12-19T1200,3147A,114.3438,34.8106,开封市,龙亭公园,细颗粒物(PM2.5),207,183,174,157,158,60,60,29,28,37,36,5,3,0.9,0.9
2025-12-19T1200,3210A,114.3644,34.7964,开封市,汴京公园,细颗粒物(PM2.5),204,202,189,154,152,52,52,24,24,47,42,6,4,0.9,1
2025-12-19T1200,3473A,114.2485,34.8306,开封市,技师学院,细颗粒物(PM2.5),203,173,162,153,154,60,60,32,30,32,29,7,5,1.1,1.1
2025-12-19T1200,3592A,114.4644,34.7556,开封市,祥符区生态环境局,细颗粒物(PM2.5),192,190,198,144,152,58,58,30,30,32,41,4,3,0.9,0.9
2025-12-19T1200,1951A,84.895,45.6094,克拉玛依市,长征新村,细颗粒物(PM2.5),58,54,77,41,52,47,47,54,50,20,26,4,5,0.5,0.5
2025-12-19T1200,1952A,84.8988,45.5893,克拉玛依市,南林小区,颗粒物(PM10),54,58,82,32,45,50,50,49,49,14,20,3,3,0.6,0.7
2025-12-19T1200,1954A,84.905,44.3396,克拉玛依市,独山子区,,22,16,25,15,17,42,42,54,48,25,19,6,6,0.4,0.4
2025-12-19T1200,1955A,85.6979,46.098,克拉玛依市,乌尔禾区商贸楼,,16,16,29,9,23,34,34,51,50,26,15,4,5,0.2,0.4
2025-12-19T1200,3612A,85.1045,45.6899,克拉玛依市,白碱滩区新站,,43,43,77,24,44,46,46,28,28,10,22,5,7,0.4,0.5
2025-12-19T1200,2697A,76.1454,39.7142,克孜勒苏柯尔克孜自治州,市人民政府,颗粒物(PM10),129,207,208,71,84,44,44,61,50,22,26,6,8,0.5,0.5
2025-12-19T1200,3665A,76.1658,39.7157,克孜勒苏柯尔克孜自治州,克州文化中心,颗粒物(PM10),137,223,205,81,77,18,18,64,50,50,31,9,11,1.5,1.2
2025-12-19T1200,1450A,102.8204,24.8886,昆明市,呈贡新区,,22,22,18,14,10,61,61,38,38,10,20,4,5,0.3,0.3
2025-12-19T1200,1451A,102.6251,24.9608,昆明市,西山森林公园,,,,,,,,,,,,,,,,
2025-12-19T1200,1452A,102.7252,25.0902,昆明市,龙泉镇,,36,,36,25,17,44,44,11,11,20,26,3,2,0.5,0.5
2025-12-19T1200,1453A,102.7266,25.0375,昆明市,东风东路,,39,38,27,27,23,55,55,30,30,16,20,4,6,0.6,0.5
2025-12-19T1200,1454A,102.6742,25.0669,昆明市,金鼎山,,42,40,41,29,22,48,48,15,15,17,26,4,4,0.8,0.8
2025-12-19T1200,1455A,102.6644,25.0401,昆明市,碧鸡广场,,48,47,31,33,23,48,48,19,19,20,28,4,4,0.8,0.5
2025-12-19T1200,3179A,102.7494,25.0119,昆明市,官渡区博物馆,,32,26,41,22,22,58,58,14,14,13,28,4,4,0.5,0.8
2025-12-19T1200,3375A,102.8017,24.8336,昆明市,青年创业园,,20,12,8,7,5,62,62,26,26,6,18,1,8,0.3,0.5
2025-12-19T1200,3550A,102.7997,24.9786,昆明市,昆明学院,,,,19,,11,61,61,26,26,11,18,2,2,,0.6
2025-12-19T1200,3551A,102.5967,24.6736,昆明市,晋宁区生态环境分局,,21,13,19,9,12,65,65,37,37,4,10,3,2,0.3,0.4
2025-12-19T1200,3552A,102.6678,24.9856,昆明市,云天化总部,,27,27,26,18,15,65,65,22,22,10,26,6,6,0.4,0.4
2025-12-19T1200,1456A,91.1319,29.6514,拉萨市,八廓街,,42,42,28,24,19,59,59,42,42,13,26,30,15,0.5,0.7
2025-12-19T1200,1457A,91.1221,29.6747,拉萨市,市环保局,,,35,46,20,31,50,50,22,22,22,30,,11,0.7,1.4
2025-12-19T1200,1458A,91.0874,29.6475,拉萨市,区监测站,,28,28,22,11,14,53,53,30,30,17,39,22,11,1.2,1.4
2025-12-19T1200,1459A,91.1774,29.6541,拉萨市,西藏大学,,27,27,26,18,18,58,58,43,43,13,25,34,14,0.2,0.4
2025-12-19T1200,1460A,90.9798,29.6588,拉萨市,区辐射站,细颗粒物(PM2.5),84,92,55,62,38,45,45,18,18,31,46,13,10,0.9,1.1
2025-12-19T1200,1461A,91.0834,29.6292,拉萨市,拉萨火车站,,39,39,40,23,21,49,49,19,19,27,43,18,8,0.7,0.9
2025-12-19T1200,2520A,109.2203,23.7256,来宾市,来宾技工学校,细颗粒物(PM2.5),123,146,83,93,56,72,72,19,19,39,32,39,14,1.1,0.9
2025-12-19T1200,3535A,109.1781,23.7297,来宾市,兴宾区政府,细颗粒物(PM2.5),80,76,72,59,52,89,89,33,33,28,17,17,11,0.9,0.9
2025-12-19T1200,4002A,109.2416,23.7461,来宾市,中南小学,细颗粒物(PM2.5),109,124,74,82,46,76,76,14,14,39,35,25,7,1.1,0.9
2025-12-19T1200,1477A,104.1373,35.9454,兰州市,榆中兰大校区,,,,,,,,,,,,,,,,
2025-12-19T1200,1479A,103.831,36.0464,兰州市,铁路设计院,,,,,,,,,,,,,,,,
2025-12-19T1200,3241A,103.7439,36.0842,兰州市,百合公园,,,,128,,81,16,16,6,6,61,96,,19,,1.6
2025-12-19T1200,3242A,103.9611,35.998,兰州市,和平,颗粒物(PM10),80,110,124,58,78,23,23,28,21,25,49,21,15,1.4,1.4
2025-12-19T1200,4236A,103.6293,36.0938,兰州市,庄浪东路808号,颗粒物(PM10),64,78,116,38,68,44,44,28,25,46,77,20,21,1.0,1.3
2025-12-19T1200,4237A,103.7251,36.1043,兰州市,安宁西路88号,颗粒物(PM10),83,115,139,37,70,29,29,15,15,66,99,17,18,1.3,1.6
2025-12-19T1200,4238A,103.8470,36.0676,兰州市,北滨河东路1号,颗粒物(PM10),63,75,105,41,58,43,43,10,10,37,79,26,16,1.6,1.6
2025-12-19T1200,3245A,103.6633,36.533,兰州新区,新区管委会,,40,,81,28,41,73,73,34,31,12,30,16,20,0.4,0.7
2025-12-19T1200,3246A,103.6975,36.4789,兰州新区,舟曲中学,颗粒物(PM10),53,55,90,10,33,82,82,69,57,12,28,12,14,0.3,0.5
2025-12-19T1200,1067A,116.6708,39.5111,廊坊市,药材公司,细颗粒物(PM2.5),259,258,260,209,200,46,46,13,13,37,54,3,3,1.3,1.2
2025-12-19T1200,1068A,116.7214,39.5589,廊坊市,开发区,细颗粒物(PM2.5),254,246,223,204,194,46,46,11,11,42,58,2,2,1.1,1.1
2025-12-19T1200,1070A,116.7244,39.5269,廊坊市,北华航天学院,细颗粒物(PM2.5),258,263,247,208,198,44,44,12,12,36,52,2,2,1.2,1.1
2025-12-19T1200,2919A,116.7022,39.5453,廊坊市,河北工业大学,细颗粒物(PM2.5),252,294,265,202,192,42,42,11,11,39,54,4,4,1.2,1.1
2025-12-19T1200,2535A,103.7723,29.5462,乐山市,花湖湾,,,,,,,,,,,,,,,,
2025-12-19T1200,2536A,103.7627,29.5844,乐山市,牛耳桥,细颗粒物(PM2.5),138,157,144,105,103,3,3,1,1,45,40,8,7,1.4,1.1
2025-12-19T1200,2537A,103.7508,29.6006,乐山市,市第三水厂,细颗粒物(PM2.5),158,149,144,120,118,8,8,2,2,50,48,7,6,1.3,1.1
2025-12-19T1200,2538A,103.7571,29.5664,乐山市,市监测站,细颗粒物(PM2.5),160,148,149,122,120,6,6,2,1,36,38,8,7,1.3,1.2
2025-12-19T1200,3361A,103.7311,29.5628,乐山市,理工大学,细颗粒物(PM2.5),158,144,139,120,113,6,6,1,1,38,36,6,5,1.4,1.1
2025-12-19T1200,2598A,100.2143,26.8576,丽江市,西南郊,,,,,,,,,,,,,,,,
2025-12-19T1200,2599A,100.2497,26.8802,丽江市,丽江古城,,24,24,25,15,10,64,64,62,59,10,12,8,8,0.4,0.4
2025-12-19T1200,2600A,100.2203,26.8906,丽江市,市中心,,27,27,20,3,10,61,61,50,42,10,16,6,6,0.3,0.4
2025-12-19T1200,1267A,119.914,28.4514,丽水市,监测站大楼,细颗粒物(PM2.5),69,74,75,50,49,67,67,25,25,36,37,8,7,0.6,0.7
2025-12-19T1200,1268A,119.93,28.4586,丽水市,莲都小学,颗粒物(PM10),65,79,75,44,36,68,68,25,25,33,37,7,6,0.6,0.6
2025-12-19T1200,1269A,119.879,28.4231,丽水市,余庄前,细颗粒物(PM2.5),67,76,72,48,51,59,59,18,18,44,27,6,5,0.6,0.5
2025-12-19T1200,1173A,119.176,34.5885,连云港市,市环境监测站,细颗粒物(PM2.5),113,110,83,85,59,58,58,29,29,34,23,12,10,0.6,0.5
2025-12-19T1200,3000A,119.3581,34.6972,连云港市,德源药业,细颗粒物(PM2.5),98,112,88,73,54,67,67,33,33,36,31,8,6,0.8,0.6
2025-12-19T1200,3007A,119.178,34.844,连云港市,新城一中,细颗粒物(PM2.5),135,122,95,103,70,70,70,38,38,36,42,13,11,1.1,0.9
2025-12-19T1200,3008A,119.3608,34.7519,连云港市,胡沟管理处,细颗粒物(PM2.5),107,114,89,80,57,25,25,61,54,54,26,7,8,0.6,0.6
2025-12-19T1200,3009A,119.1478,34.5911,连云港市,矿山设计院,细颗粒物(PM2.5),107,124,92,80,57,63,63,34,34,33,25,13,10,1.1,0.9
2025-12-19T1200,3434A,119.2413,34.6539,连云港市,工贸学校,细颗粒物(PM2.5),115,121,91,87,66,74,74,63,63,29,26,,12,0.9,0.5
2025-12-19T1200,3664A,119.4172,34.7341,连云港市,连云街道,细颗粒物(PM2.5),102,110,85,76,56,30,30,72,68,60,29,10,8,0.7,0.6
2025-12-19T1200,2571A,102.3431,27.8099,凉山彝族自治州,青龙寺,,,,,,,,,,,,,,,,
2025-12-19T1200,2572A,102.2721,27.8415,凉山彝族自治州,邛海宾馆,细颗粒物(PM2.5),72,73,68,52,40,51,51,33,28,21,22,50,16,1.6,0.9
2025-12-19T1200,2573A,102.2625,27.898,凉山彝族自治州,西昌市政府,细颗粒物(PM2.5),82,71,50,60,39,39,39,33,20,29,19,22,11,1.2,0.9
2025-12-19T1200,2574A,102.2685,27.8851,凉山彝族自治州,凉山州政府,细颗粒物(PM2.5),63,74,65,45,41,45,45,22,16,21,24,24,13,1.2,1
2025-12-19T1200,4229A,102.2342,27.8859,凉山彝族自治州,凯乐南路30号,细颗粒物(PM2.5),68,74,75,49,50,43,43,10,10,32,38,21,12,1.3,1.2
2025-12-19T1200,2212A,123.2,41.1953,辽阳市,宏伟区,,50,50,40,34,31,82,82,80,80,14,10,6,7,0.5,0.5
2025-12-19T1200,2213A,123.1683,41.2495,辽阳市,新华园,细颗粒物(PM2.5),63,68,45,45,29,76,76,75,75,23,13,9,9,0.6,0.5
2025-12-19T1200,2214A,123.2354,41.2639,辽阳市,滨河路,细颗粒物(PM2.5),59,64,44,42,30,69,69,63,63,17,14,10,9,0.7,0.6
2025-12-19T1200,2215A,123.149,41.2991,辽阳市,铁西工业园,细颗粒物(PM2.5),80,73,49,59,32,56,56,64,63,32,13,14,10,1.3,0.7
2025-12-19T1200,2227A,125.1358,42.8845,辽源市,环保局,颗粒物(PM10),55,60,61,20,21,75,75,68,68,9,14,5,7,0.6,0.7
2025-12-19T1200,3239A,125.0764,42.9078,辽源市,银鹰制药,,38,37,39,26,27,79,79,74,74,11,20,5,7,0.5,0.6
2025-12-19T1200,1625A,115.9848,36.4372,聊城市,区政府,细颗粒物(PM2.5),152,128,136,116,104,19,19,50,26,44,37,10,12,1.4,1.1
2025-12-19T1200,2878A,116.0072,36.4343,聊城市,聊大东校,细颗粒物(PM2.5),149,139,149,114,105,21,21,55,30,42,36,8,9,1.5,1.2
2025-12-19T1200,3200A,115.9819,36.4978,聊城市,监控中心,细颗粒物(PM2.5),192,,135,144,108,19,19,54,26,29,24,9,11,1.4,1.2
2025-12-19T1200,3513A,116.0445,36.4361,聊城市,九州社区,细颗粒物(PM2.5),140,136,143,107,98,34,34,62,37,30,26,3,3,1.3,1
2025-12-19T1200,4018A,116.0567,36.4608,聊城市,星美广场,细颗粒物(PM2.5),163,146,144,124,100,24,24,62,34,28,23,3,4,1.2,0.9
2025-12-19T1200,2632A,94.3681,29.6376,林芝市,林芝监测站,,16,16,29,3,14,48,48,38,38,10,22,6,5,0.3,0.6
2025-12-19T1200,2633A,94.3616,29.6616,林芝市,林芝人民医院,,,,,,,,,,,,,,,,
2025-12-19T1200,2603A,100.0781,23.8982,临沧市,市环保局,,45,34,25,31,36,39,39,14,14,10,8,6,6,0.5,0.5
2025-12-19T1200,2604A,100.0894,23.8822,临沧市,市气象局,,25,23,27,17,19,40,40,16,16,8,10,6,5,0.4,0.5
2025-12-19T1200,1733A,111.5531,36.0783,临汾市,临钢医院,细颗粒物(PM2.5),185,229,133,139,86,32,32,10,10,44,43,18,8,2.3,1.3
2025-12-19T1200,1734A,111.5028,36.0714,临汾市,技工学校,细颗粒物(PM2.5),162,207,141,123,86,27,27,6,6,45,48,17,8,2.0,1.2
2025-12-19T1200,1736A,111.5018,36.0855,临汾市,市委,细颗粒物(PM2.5),193,208,150,145,98,29,29,7,7,49,51,20,11,2.3,1.5
2025-12-19T1200,3018A,111.505,36.1014,临汾市,唐尧大酒店,细颗粒物(PM2.5),160,175,141,122,88,23,23,5,5,48,50,11,5,1.6,1
2025-12-19T1200,4244A,111.4879,36.0530,临汾市,启星学校,细颗粒物(PM2.5),169,190,134,128,86,30,30,9,9,54,60,19,9,2.6,1.7
2025-12-19T1200,4271A,103.2464,35.6123,临夏回族自治州,滨河东路1号,颗粒物(PM10),114,178,150,76,78,18,18,6,6,38,36,9,8,1.4,1.7
2025-12-19T1200,4310A,103.2093,35.5995,临夏回族自治州,新华街21号,细颗粒物(PM2.5),134,186,137,102,82,29,29,9,9,30,41,17,13,1.5,1.8
2025-12-19T1200,1618A,118.3429,35.0532,临沂市,沂河小区,细颗粒物(PM2.5),201,197,134,151,110,52,52,31,24,65,44,26,17,1.1,0.9
2025-12-19T1200,1619A,118.295,35.0583,临沂市,鲁南制药厂,细颗粒物(PM2.5),186,197,134,140,103,55,55,32,26,63,47,26,19,1.2,1
2025-12-19T1200,1620A,118.2794,34.9976,临沂市,新光毛纺厂,细颗粒物(PM2.5),196,185,137,147,107,55,55,24,20,60,43,28,20,1.3,1.2
2025-12-19T1200,1621A,118.3956,35.0888,临沂市,河东保险公司,细颗粒物(PM2.5),183,193,148,138,100,56,56,26,20,48,40,23,12,1.0,0.9
2025-12-19T1200,3370A,118.3564,35.0215,临沂市,十里堡居委,细颗粒物(PM2.5),160,178,124,122,79,49,49,29,23,63,45,22,19,1.2,0.9
2025-12-19T1200,3496A,118.3604,35.1084,临沂市,南坊新区,细颗粒物(PM2.5),178,180,130,134,97,52,52,32,25,55,41,20,15,1.4,1.2
2025-12-19T1200,3860A,118.3920,35.0300,临沂市,皇山花园小区,细颗粒物(PM2.5),173,175,132,131,75,59,59,29,28,50,38,22,18,1.3,1.1
2025-12-19T1200,1870A,109.4856,24.3895,柳州市,柳东小学,细颗粒物(PM2.5),98,93,75,73,56,75,75,28,28,32,32,20,20,0.7,0.7
2025-12-19T1200,1871A,109.4157,24.3277,柳州市,环保监测站,细颗粒物(PM2.5),93,116,87,69,63,82,82,20,20,34,43,14,12,1.0,1.1
2025-12-19T1200,1872A,109.389,24.341,柳州市,河西水厂,细颗粒物(PM2.5),95,138,127,71,64,78,78,20,20,40,46,19,18,0.9,0.9
2025-12-19T1200,1873A,109.4311,24.2921,柳州市,市四中,细颗粒物(PM2.5),97,103,88,72,55,76,76,22,22,39,47,15,12,1.0,1.1
2025-12-19T1200,1874A,109.4006,24.3631,柳州市,市九中,细颗粒物(PM2.5),103,113,101,77,61,81,81,22,22,36,38,17,16,1.1,1.2
2025-12-19T1200,1875A,109.4958,24.3134,柳州市,古亭山,细颗粒物(PM2.5),92,91,66,68,44,65,65,16,16,40,40,15,10,1.1,0.9
2025-12-19T1200,3402A,109.5422,24.3996,柳州市,市二中,细颗粒物(PM2.5),73,89,81,53,60,83,83,25,25,26,38,22,24,0.8,0.7
2025-12-19T1200,2307A,116.5079,31.737,六安市,监测大楼,细颗粒物(PM2.5),103,98,127,77,111,28,28,54,38,59,38,5,4,0.8,0.8
2025-12-19T1200,2308A,116.4738,31.7643,六安市,皖西学院,细颗粒物(PM2.5),104,110,139,78,113,43,43,30,29,48,39,3,3,0.8,0.8
2025-12-19T1200,2309A,116.4996,31.7905,六安市,朝阳厂,细颗粒物(PM2.5),98,106,125,73,106,34,34,45,30,56,39,4,4,0.9,0.8
2025-12-19T1200,2310A,116.5567,31.7886,六安市,开发区,细颗粒物(PM2.5),92,90,154,68,107,49,49,52,49,48,38,4,3,0.5,0.7
2025-12-19T1200,2576A,104.8,26.5892,六盘水市,窑上,,42,37,47,29,35,69,69,25,25,4,7,4,3,0.3,0.4
2025-12-19T1200,2577A,104.83,26.5917,六盘水市,黄土坡,,48,37,57,33,39,52,52,18,18,18,22,11,8,0.6,0.8
2025-12-19T1200,2578A,104.89,26.5939,六盘水市,水钢,颗粒物(PM10),52,53,50,31,40,53,53,44,42,11,13,6,4,0.4,0.5
2025-12-19T1200,2579A,104.8475,26.5894,六盘水市,民中,,49,49,48,31,37,47,47,29,25,18,20,8,5,0.6,0.7
2025-12-19T1200,2580A,104.9544,26.5506,六盘水市,双水,,46,46,50,25,38,48,48,46,40,10,12,4,4,0.3,0.4
2025-12-19T1200,2335A,117.0189,25.1181,龙岩市,龙岩师专,,,,,,,,,,,,,,,,
2025-12-19T1200,2336A,117.0217,25.1033,龙岩市,龙岩市监测站,细颗粒物(PM2.5),68,,43,49,32,18,18,22,22,37,33,10,21,1.1,0.7
2025-12-19T1200,2337A,117.0258,25.0661,龙岩市,闽西职业技术学院,细颗粒物(PM2.5),73,,47,53,34,19,19,21,14,34,29,8,12,1.1,0.7
2025-12-19T1200,2338A,117.0196,25.0306,龙岩市,龙岩学院,细颗粒物(PM2.5),72,52,40,52,31,14,14,20,12,34,21,8,8,0.7,0.6
2025-12-19T1200,2665A,105.0822,33.3261,陇南市,汉王镇固水子,,,,,,,,,,,,,,,,
2025-12-19T1200,2885A,104.9339,33.3826,陇南市,滨江中学,细颗粒物(PM2.5),57,60,72,40,43,30,30,16,16,26,27,10,10,0.8,0.9
2025-12-19T1200,3247A,104.955,33.371,陇南市,市总工会,"颗粒物(PM10),细颗粒物(PM2.5)",72,93,86,52,48,27,27,21,16,26,21,7,6,1.0,0.8
2025-12-19T1200,2487A,111.9589,27.8901,娄底市,电视发射台,,,,,,,,,,,,,,,,
2025-12-19T1200,2488A,111.9975,27.725,娄底市,市监测站,细颗粒物(PM2.5),142,155,130,108,94,87,87,24,24,35,52,14,9,1.1,1.2
2025-12-19T1200,2489A,112.0194,27.7314,娄底市,市委党校,细颗粒物(PM2.5),145,157,130,111,92,68,68,25,25,54,46,14,9,1.2,1
2025-12-19T1200,2490A,111.9561,27.7569,娄底市,涟钢,细颗粒物(PM2.5),199,220,146,149,104,46,46,22,22,72,33,60,16,2.8,0.9
2025-12-19T1200,2491A,111.9892,27.7044,娄底市,市政府,细颗粒物(PM2.5),139,111,120,106,86,,,18,14,,24,14,9,1.0,1.1
2025-12-19T1200,1893A,105.4324,28.9634,泸州市,九狮山,,,,,,,,,,,,,,,,
2025-12-19T1200,1894A,105.4427,28.9063,泸州市,小市上码头,细颗粒物(PM2.5),107,113,113,80,86,46,46,18,18,35,49,10,10,0.8,0.9
2025-12-19T1200,1895A,105.4241,28.8573,泸州市,兰田宪桥,细颗粒物(PM2.5),113,129,132,85,89,30,30,17,17,31,35,8,8,1.1,1
2025-12-19T1200,1896A,105.4379,28.8833,泸州市,市环监站,细颗粒物(PM2.5),107,113,114,80,86,,,20,18,22,40,10,10,0.8,0.9
2025-12-19T1200,4272A,105.3689,28.7783,泸州市,纳溪中医医院,细颗粒物(PM2.5),114,103,96,86,87,22,22,7,7,31,28,8,8,1.0,1
2025-12-19T1200,2183A,111.1406,37.5211,吕梁市,环保局,颗粒物(PM10),67,83,83,23,40,38,38,9,9,27,54,9,9,0.6,0.9
2025-12-19T1200,2185A,111.1297,37.5136,吕梁市,自来水公司,颗粒物(PM10),68,86,89,25,44,39,39,9,9,26,52,8,11,0.6,1
2025-12-19T1200,2867A,111.1283,37.51,吕梁市,马茂庄小学,颗粒物(PM10),72,94,97,29,43,40,40,8,8,19,53,8,10,0.5,1
2025-12-19T1200,1812A,112.3931,34.6516,洛阳市,市委党校,细颗粒物(PM2.5),132,136,176,100,146,76,76,41,41,31,55,15,12,1.1,1.3
2025-12-19T1200,1815A,112.494,34.6886,洛阳市,河南林校,细颗粒物(PM2.5),189,181,176,142,153,32,32,17,17,53,61,11,9,1.3,1.2
2025-12-19T1200,1816A,112.3844,34.623,洛阳市,开发区管委会,细颗粒物(PM2.5),149,153,199,114,156,72,72,33,33,18,40,12,10,0.9,1.1
2025-12-19T1200,1817A,112.4267,34.6258,洛阳市,市委新办公区,细颗粒物(PM2.5),138,156,205,105,146,79,79,38,38,28,53,15,11,1.1,1.3
2025-12-19T1200,3340A,112.6005,34.6326,洛阳市,伊滨,细颗粒物(PM2.5),168,173,204,127,152,68,68,33,33,20,39,14,9,1.2,1.2
2025-12-19T1200,3341A,112.4951,34.6332,洛阳市,中移产业园,细颗粒物(PM2.5),163,148,175,124,144,64,64,35,35,40,59,13,12,1.1,1.2
2025-12-19T1200,3593A,112.5736,34.8993,洛阳市,吉利监测站,细颗粒物(PM2.5),155,,145,118,132,69,69,30,30,28,50,12,9,1.0,1.1
2025-12-19T1200,3635A,112.3677,34.662,洛阳市,河科大西苑校区,细颗粒物(PM2.5),122,131,180,92,133,79,79,36,36,30,58,15,13,1.1,1.4
2025-12-19T1200,3636A,112.4388,34.6781,洛阳市,英才小学,细颗粒物(PM2.5),149,152,187,114,148,70,70,21,21,32,69,15,15,1.4,1.7
2025-12-19T1200,4214A,112.4600,34.6949,洛阳市,春都路1号院,细颗粒物(PM2.5),165,213,202,125,126,32,32,10,10,54,64,11,11,1.5,1.5
2025-12-19T1200,2399A,114.051,33.5699,漯河市,三五一五工厂,细颗粒物(PM2.5),196,192,188,147,144,92,92,47,47,15,30,11,7,1.1,1.2
2025-12-19T1200,2400A,114.0055,33.5698,漯河市,漯河大学,细颗粒物(PM2.5),185,173,158,139,130,94,94,58,58,17,29,10,7,0.8,0.8
2025-12-19T1200,2401A,114.0138,33.5828,漯河市,市水利局,细颗粒物(PM2.5),180,168,161,136,130,79,79,42,42,20,29,10,8,1.0,1
2025-12-19T1200,2402A,114.0261,33.5698,漯河市,市广电局,细颗粒物(PM2.5),190,178,164,143,136,96,96,45,45,15,32,11,7,0.9,1
2025-12-19T1200,3478A,113.9749,33.5664,漯河市,市图书馆,细颗粒物(PM2.5),199,198,185,149,141,80,80,58,58,19,28,8,6,0.9,0.9
2025-12-19T1200,4250A,114.0892,33.5882,漯河市,韶山路11号,细颗粒物(PM2.5),183,183,175,138,136,88,88,50,50,18,27,12,9,0.7,0.8
2025-12-19T1200,1798A,118.5092,31.6837,马鞍山市,湖东路四小,细颗粒物(PM2.5),127,126,147,96,107,49,49,41,34,52,43,11,7,1.4,1
2025-12-19T1200,1799A,118.5024,31.6449,马鞍山市,开发区,细颗粒物(PM2.5),117,133,157,88,102,45,45,24,24,56,54,15,7,1.5,0.9
2025-12-19T1200,1802A,118.6245,31.7241,马鞍山市,濮塘,,,,,,,,,,,,,,,,
2025-12-19T1200,3633A,118.4918,31.6809,马鞍山市,雨山,细颗粒物(PM2.5),132,153,160,100,108,43,43,40,34,65,46,16,9,1.7,1
2025-12-19T1200,4191A,118.5274,31.72227,马鞍山市,慈湖高新区,细颗粒物(PM2.5),119,146,156,90,110,51,51,37,32,53,50,10,8,1.1,0.8
2025-12-19T1200,1686A,111.0286,21.4688,茂名市,电白南海,颗粒物(PM10),58,66,66,29,35,124,124,91,91,15,19,10,13,0.8,0.8
2025-12-19T1200,1687A,110.9294,21.6533,茂名市,茂石化七小,颗粒物(PM10),52,53,67,27,37,124,124,99,99,17,24,8,19,0.5,0.6
2025-12-19T1200,1688A,110.9107,21.6687,茂名市,健康路,,45,44,60,19,35,142,142,109,109,18,23,10,19,0.8,0.9
2025-12-19T1200,1689A,110.8592,21.6828,茂名市,高岭,颗粒物(PM10),59,68,81,29,36,138,138,79,79,19,28,26,18,0.5,0.6
2025-12-19T1200,3450A,111.01,21.5165,茂名市,电白水东,颗粒物(PM10),51,51,54,24,30,109,109,93,93,13,17,9,11,0.9,0.9
2025-12-19T1200,2539A,104.0308,30.0478,眉山市,黑龙滩水库,,,,,,,,,,,,,,,,
2025-12-19T1200,2540A,103.8416,30.0874,眉山市,气象局,细颗粒物(PM2.5),185,167,143,139,119,13,13,9,6,38,39,11,10,1.0,1
2025-12-19T1200,3137A,103.8578,30.0744,眉山市,市委党校,细颗粒物(PM2.5),168,158,136,127,112,6,6,6,4,42,40,8,8,1.0,0.9
2025-12-19T1200,3148A,103.8291,30.0564,眉山市,区人社局,细颗粒物(PM2.5),170,148,138,129,116,6,6,7,2,43,39,9,8,1.3,1.3
2025-12-19T1200,1690A,116.1231,24.3284,梅州市,梅江月梅,,50,38,46,35,29,49,49,24,24,24,30,5,6,0.7,0.6
2025-12-19T1200,1691A,116.0797,24.2719,梅州市,梅县新城,细颗粒物(PM2.5),64,,54,46,39,43,43,25,24,27,35,7,8,0.7,0.7
2025-12-19T1200,1692A,116.1248,24.2654,梅州市,环境监控中心,细颗粒物(PM2.5),59,,55,42,38,50,50,20,20,20,43,6,9,0.5,0.5
2025-12-19T1200,3315A,116.1233,24.2991,梅州市,梅龙,,46,34,47,32,29,48,48,,,20,32,7,9,0.8,0.8
2025-12-19T1200,1878A,104.7778,31.4741,绵阳市,富乐山,细颗粒物(PM2.5),162,150,132,123,110,2,2,8,6,48,33,11,10,1.1,0.9
2025-12-19T1200,1880A,104.6697,31.4668,绵阳市,高新区自来水公司,细颗粒物(PM2.5),170,183,171,129,121,5,5,3,2,50,50,8,8,2.2,1.8
2025-12-19T1200,1881A,104.7287,31.5075,绵阳市,三水厂,细颗粒物(PM2.5),193,208,177,145,129,2,2,2,2,48,47,7,7,1.1,0.9
2025-12-19T1200,3491A,104.69,31.5322,绵阳市,西科大附属小学,细颗粒物(PM2.5),159,186,179,121,127,,,3,2,39,46,,8,0.9,0.8
2025-12-19T1200,3492A,104.5648,31.5343,绵阳市,安州区旅游局,细颗粒物(PM2.5),168,143,134,127,126,11,11,11,11,43,35,13,12,1.2,1
2025-12-19T1200,4226A,104.7651,31.4531,绵阳市,绵阳市气象局,细颗粒物(PM2.5),142,180,152,108,106,3,3,3,3,48,44,6,5,1.2,1
2025-12-19T1200,1784A,129.61,44.561,牡丹江市,环保大楼,,,106,96,57,56,11,11,10,9,48,44,47,15,,0.8
2025-12-19T1200,1785A,129.6115,44.5782,牡丹江市,文化广场,颗粒物(PM10),96,141,115,63,63,10,10,8,8,54,47,48,20,1.2,1
2025-12-19T1200,1786A,129.5904,44.5963,牡丹江市,第一医院,,,,,,,,,,,,,,,,
2025-12-19T1200,1787A,129.6364,44.6075,牡丹江市,机车工厂,细颗粒物(PM2.5),89,119,114,66,60,11,11,8,8,48,45,176,55,0.8,0.7
2025-12-19T1200,1788A,129.6386,44.5462,牡丹江市,第一中学,细颗粒物(PM2.5),89,105,80,66,58,10,10,7,7,46,42,65,13,1.0,1.2
2025-12-19T1200,2531A,105.0703,29.61,内江市,市监测站,细颗粒物(PM2.5),135,117,98,103,89,20,20,20,20,31,32,7,6,0.9,1
2025-12-19T1200,2532A,105.0717,29.5947,内江市,东兴区政府,,,,100,,81,,,4,4,44,48,5,4,0.9,0.9
2025-12-19T1200,2533A,105.0653,29.5817,内江市,内江二中,细颗粒物(PM2.5),139,145,115,106,85,7,7,3,3,50,50,5,5,1.2,1.1
2025-12-19T1200,2534A,105.0406,29.5822,内江市,内江日报社,细颗粒物(PM2.5),124,122,97,94,82,5,5,4,4,44,52,3,3,0.9,0.8
2025-12-19T1200,2628A,92.0657,31.4846,那曲市,那曲监测站,细颗粒物(PM2.5),309,364,90,259,57,47,47,28,28,79,39,28,17,3.0,2.1
2025-12-19T1200,4243A,92.0515,31.4787,那曲市,那曲市委宣传部,细颗粒物(PM2.5),82,93,47,60,30,36,36,20,19,46,22,13,8,1.7,1.3
2025-12-19T1200,1290A,115.8931,28.6843,南昌市,省外办,细颗粒物(PM2.5),203,194,191,153,154,90,90,41,41,57,55,15,11,1.7,1.8
2025-12-19T1200,1291A,115.8886,28.7003,南昌市,省林业公司,细颗粒物(PM2.5),199,188,179,149,139,91,91,28,28,69,74,12,7,1.3,1.4
2025-12-19T1200,1292A,115.8126,28.7442,南昌市,林科所,细颗粒物(PM2.5),128,146,170,97,119,104,104,39,39,36,65,16,9,0.7,0.8
2025-12-19T1200,1294A,115.8518,28.687,南昌市,建工学校,细颗粒物(PM2.5),208,225,194,158,134,87,87,20,20,58,79,20,14,1.4,1.4
2025-12-19T1200,1295A,115.8921,28.6424,南昌市,象湖,细颗粒物(PM2.5),221,213,170,171,144,93,93,28,28,56,71,16,11,1.3,1.4
2025-12-19T1200,1296A,115.7423,28.7996,南昌市,武术学校,,,,,,,,,,,,,,,,
2025-12-19T1200,3046A,115.9084,28.6062,南昌市,机电学校,细颗粒物(PM2.5),213,217,218,163,159,95,95,27,27,51,61,14,8,1.0,1.1
2025-12-19T1200,3690A,115.9721,28.7031,南昌市,外国语学校,细颗粒物(PM2.5),211,225,190,161,140,93,93,43,43,54,44,20,15,1.2,1.1
2025-12-19T1200,4192A,115.9316,28.68677,南昌市,南京东路235号,颗粒物(PM10),133,215,197,,154,,,35,35,64,63,12,13,1.2,1.3
2025-12-19T1200,1905A,106.056,30.8064,南充市,西山风景区,,,,,,,,,,,,,,,,
2025-12-19T1200,1906A,106.0789,30.8023,南充市,南充市委,细颗粒物(PM2.5),115,107,103,87,80,13,13,13,9,31,33,5,5,0.8,0.8
2025-12-19T1200,1907A,106.1031,30.8217,南充市,南充炼油厂,细颗粒物(PM2.5),127,116,111,96,89,12,12,16,10,34,27,9,7,0.8,0.7
2025-12-19T1200,4227A,106.1083,30.7884,南充市,梨树横街98号,细颗粒物(PM2.5),104,114,107,78,78,16,16,27,16,,26,8,7,,0.8
2025-12-19T1200,4304A,106.1172,30.843,南充市,清泉寺北路188号,细颗粒物(PM2.5),107,104,97,80,78,16,16,34,24,31,24,6,6,0.8,0.8
2025-12-19T1200,4305A,106.067,30.7616,南充市,同庆路1号,细颗粒物(PM2.5),104,101,102,78,77,22,22,13,13,30,35,8,7,0.7,0.8
2025-12-19T1200,1151A,118.8086,32.1065,南京市,迈皋桥,细颗粒物(PM2.5),77,101,111,56,69,83,83,62,62,32,27,4,3,0.4,0.4
2025-12-19T1200,1152A,118.7538,32.0551,南京市,草场门,细颗粒物(PM2.5),94,110,113,70,71,49,49,33,30,47,40,8,6,0.5,0.6
2025-12-19T1200,1153A,118.7794,32.0745,南京市,山西路,细颗粒物(PM2.5),94,112,121,70,76,72,72,54,48,55,40,4,4,0.6,0.5
2025-12-19T1200,1154A,118.7752,32.0023,南京市,中华门,细颗粒物(PM2.5),89,110,109,66,70,45,45,27,22,39,29,4,4,0.7,0.6
2025-12-19T1200,1155A,118.8109,32.0309,南京市,瑞金路,细颗粒物(PM2.5),98,110,112,73,71,54,54,24,24,55,49,4,4,0.6,0.6
2025-12-19T1200,1156A,118.7997,32.0754,南京市,玄武湖,细颗粒物(PM2.5),88,109,111,65,73,68,68,52,48,28,26,4,4,0.8,0.7
2025-12-19T1200,1157A,118.6414,32.0931,南京市,浦口,细颗粒物(PM2.5),117,140,145,88,92,39,39,38,36,60,44,17,9,1.3,0.6
2025-12-19T1200,1158A,118.7356,31.9996,南京市,奥体中心,,,113,119,70,78,52,52,33,32,,46,8,7,0.6,0.6
2025-12-19T1200,1159A,118.9125,32.1028,南京市,仙林大学城,细颗粒物(PM2.5),89,92,101,66,68,72,72,38,38,36,32,10,8,0.9,0.8
2025-12-19T1200,3422A,118.8436,31.9198,南京市,江宁彩虹桥,细颗粒物(PM2.5),94,116,111,70,65,66,66,33,31,45,30,4,4,0.9,0.8
2025-12-19T1200,3427A,118.8554,32.3578,南京市,六合雄州,细颗粒物(PM2.5),92,102,109,68,66,82,82,30,30,40,42,10,8,0.8,0.6
2025-12-19T1200,4249A,118.8708,31.3402,南京市,汶溪路181号,细颗粒物(PM2.5),123,117,127,93,97,83,83,45,45,35,44,14,8,0.8,0.8
2025-12-19T1200,4312A,119.019,31.6512,南京市,中山西路1号,细颗粒物(PM2.5),99,75,94,74,84,69,69,21,21,35,41,4,4,0.7,0.7
2025-12-19T1200,1401A,108.3103,22.7881,南宁市,二十一中,颗粒物(PM10),57,64,61,38,46,75,75,29,29,22,34,6,5,0.8,0.8
2025-12-19T1200,1402A,108.3141,22.8528,南宁市,北湖,细颗粒物(PM2.5),65,64,71,47,54,85,85,24,24,30,51,12,11,0.8,1
2025-12-19T1200,1403A,108.3206,22.8225,南宁市,市监测站,细颗粒物(PM2.5),58,53,67,41,48,91,91,40,40,21,34,8,9,0.7,0.7
2025-12-19T1200,1404A,108.3829,22.8037,南宁市,大自然花园,细颗粒物(PM2.5),52,47,63,36,42,105,105,48,48,16,29,8,7,0.7,0.8
2025-12-19T1200,1405A,108.4394,22.7904,南宁市,仙葫,,,,,,,,,,,,,,,,
2025-12-19T1200,1406A,108.2397,22.8467,南宁市,区农职院,,,,70,,46,,,16,16,,40,,10,,0.8
2025-12-19T1200,1407A,108.3275,22.735,南宁市,英华嘉园,,,69,76,39,50,,,13,13,25,52,,4,0.6,0.7
2025-12-19T1200,3401A,108.4834,22.7618,南宁市,红星社区,细颗粒物(PM2.5),52,51,64,36,46,105,105,24,24,11,35,7,5,0.7,0.8
2025-12-19T1200,4221A,108.2177,22.7774,南宁市,乐贤路16号,,,51,83,34,45,89,89,15,15,,52,7,6,0.6,0.7
2025-12-19T1200,2331A,118.0966,26.6761,南平市,茫荡山,,,,47,,,,,74,,,,,2,,
2025-12-19T1200,2332A,118.1681,26.6369,南平市,南平市监测站,"颗粒物(PM10),细颗粒物(PM2.5)",54,57,61,38,45,55,55,24,24,20,28,8,7,0.8,1
2025-12-19T1200,2333A,118.1825,26.6489,南平市,南平铝业有限公司,颗粒物(PM10),59,68,65,41,45,53,53,24,24,24,34,10,8,0.8,0.9
2025-12-19T1200,2334A,118.1756,26.6272,南平市,南平七中,颗粒物(PM10),65,80,60,43,42,49,49,25,24,26,25,12,8,0.9,0.9
2025-12-19T1200,1168A,120.9098,31.9663,南通市,狼山街道,颗粒物(PM10),61,71,58,35,29,84,84,31,31,30,45,4,4,0.7,0.6
2025-12-19T1200,1169A,120.86,32.0005,南通市,虹桥,细颗粒物(PM2.5),58,56,49,41,30,79,79,59,59,43,39,6,5,0.7,0.6
2025-12-19T1200,1170A,120.87,32.02,南通市,城中,,,75,59,37,29,,,55,55,37,39,8,8,1.0,0.8
2025-12-19T1200,1171A,120.94,31.93,南通市,星湖花园,颗粒物(PM10),61,71,54,41,30,83,83,49,49,28,39,5,6,0.6,0.6
2025-12-19T1200,1172A,120.81,32.0417,南通市,紫琅学院,颗粒物(PM10),64,77,62,38,27,73,73,36,36,46,49,6,5,0.4,0.4
2025-12-19T1200,3291A,121.067,32.062,南通市,通州监测站,,,63,46,36,30,,,55,55,38,32,11,4,0.7,0.6
2025-12-19T1200,3432A,120.9348,31.9883,南通市,环境教育馆,颗粒物(PM10),59,68,51,40,31,91,91,58,58,40,39,7,6,0.5,0.4
2025-12-19T1200,2404A,112.5224,33.0122,南阳市,瓦房庄,细颗粒物(PM2.5),178,154,152,134,130,56,56,60,47,27,26,10,11,1.2,1.1
2025-12-19T1200,2405A,112.5003,32.9735,南阳市,汉画馆,细颗粒物(PM2.5),159,160,166,121,126,57,57,41,27,25,35,10,8,1.3,1.3
2025-12-19T1200,2406A,112.5573,33.027,南阳市,气象站,细颗粒物(PM2.5),144,163,174,110,118,70,70,68,54,22,25,10,11,1.2,1.1
2025-12-19T1200,2407A,112.5481,32.9689,南阳市,理工学院,细颗粒物(PM2.5),134,146,153,102,111,60,60,48,36,23,30,8,8,1.0,1
2025-12-19T1200,4008A,112.5234,32.9922,南阳市,卧龙区政府,细颗粒物(PM2.5),160,171,180,122,125,51,51,48,35,29,33,8,8,1.1,1
2025-12-19T1200,1234A,121.8358,29.911,宁波市,区环保大楼,,,31,26,13,15,,,75,69,18,31,6,5,,0.5
2025-12-19T1200,1235A,121.56,29.82,宁波市,万里学院,,30,30,37,15,17,96,96,66,66,12,30,6,6,0.6,0.6
2025-12-19T1200,1236A,121.713,29.9572,宁波市,龙赛医院,,30,30,29,14,13,88,88,71,68,15,25,4,3,0.3,0.3
2025-12-19T1200,1239A,121.633,29.7733,宁波市,钱湖水厂,,29,23,19,12,12,90,90,74,74,13,15,8,6,0.3,0.3
2025-12-19T1200,1240A,121.5856,29.8635,宁波市,太古小学,,32,32,28,19,16,84,84,67,67,14,19,3,3,0.2,0.2
2025-12-19T1200,1241A,121.524,29.8674,宁波市,市环境监测中心,,34,34,38,14,18,88,88,62,62,10,27,6,6,0.7,0.6
2025-12-19T1200,2871A,121.6147,29.9017,宁波市,万里国际学校,,30,30,34,16,14,92,92,79,79,16,20,4,4,0.7,0.6
2025-12-19T1200,3710A,121.5594,29.8975,宁波市,白沙活动中心,,32,32,42,11,15,93,93,67,67,16,28,5,5,0.5,0.5
2025-12-19T1200,2339A,119.5001,26.6946,宁德市,金涵水库,,,,45,,27,,,66,,,13,,3,,0.6
2025-12-19T1200,2341A,119.5388,26.6612,宁德市,宁德市监测站,颗粒物(PM10),60,70,58,40,34,64,64,41,40,36,31,6,7,0.7,0.8
2025-12-19T1200,3209A,119.5231,26.6562,宁德市,宁德一中,细颗粒物(PM2.5),64,71,56,46,39,60,60,48,42,39,25,7,8,0.7,0.7
2025-12-19T1200,2618A,98.8601,25.8567,怒江傈僳族自治州,州监测站,,28,28,32,19,22,44,44,32,32,9,12,8,8,0.4,0.5
2025-12-19T1200,2619A,98.8546,25.8417,怒江傈僳族自治州,泸水一中,细颗粒物(PM2.5),54,39,29,38,21,35,35,13,13,12,18,6,5,0.3,0.5
2025-12-19T1200,1888A,101.6891,26.571,攀枝花市,弄弄坪,细颗粒物(PM2.5),109,129,69,82,50,27,27,14,10,47,28,54,14,4.3,1.5
2025-12-19T1200,1889A,101.5769,26.5928,攀枝花市,河门口,细颗粒物(PM2.5),79,85,74,58,48,28,28,10,10,20,24,15,20,1.2,1.7
2025-12-19T1200,1890A,101.7169,26.585,攀枝花市,炳草岗,颗粒物(PM10),82,114,85,59,61,24,24,5,5,41,44,21,14,2.0,1.3
2025-12-19T1200,1891A,101.7369,26.5008,攀枝花市,仁和,细颗粒物(PM2.5),73,76,69,53,46,34,34,10,10,27,23,27,15,3.0,1.3
2025-12-19T1200,2835A,101.7227,26.567,攀枝花市,四十中小,细颗粒物(PM2.5),95,104,90,71,58,18,18,6,6,41,46,24,17,2.1,1.5
2025-12-19T1200,1604A,122.0303,41.1489,盘锦市,开发区,,,,36,54,41,,,70,69,16,17,10,9,,0.9
2025-12-19T1200,1605A,122.0485,41.0883,盘锦市,兴隆台,细颗粒物(PM2.5),64,,41,46,37,63,63,66,65,20,23,9,11,0.6,0.7
2025-12-19T1200,1606A,121.8297,41.1028,盘锦市,新生街道,细颗粒物(PM2.5),63,,38,45,35,66,66,66,66,22,23,12,12,0.5,0.5
2025-12-19T1200,1832A,113.3257,33.742,平顶山市,新华旅馆,细颗粒物(PM2.5),155,166,154,118,111,75,75,75,59,30,26,11,9,1.0,0.9
2025-12-19T1200,1833A,113.2919,33.737,平顶山市,规划设计院,细颗粒物(PM2.5),173,194,188,131,120,72,72,76,52,36,29,10,8,0.9,0.8
2025-12-19T1200,1834A,113.182,33.774,平顶山市,平顶山工学院,细颗粒物(PM2.5),178,181,160,134,119,75,75,76,57,23,21,8,8,0.8,0.7
2025-12-19T1200,3204A,113.3025,33.73,平顶山市,规划局,细颗粒物(PM2.5),168,188,165,127,115,73,73,79,58,35,27,10,9,1.0,0.8
2025-12-19T1200,3594A,112.8867,33.9116,平顶山市,石龙区,细颗粒物(PM2.5),135,123,159,103,115,87,87,36,36,29,42,8,7,0.8,0.8
2025-12-19T1200,2656A,106.6692,35.5461,平凉市,聚贤嘉苑,,31,31,73,15,39,79,79,55,49,8,34,4,7,0.2,0.5
2025-12-19T1200,2657A,106.7021,35.5307,平凉市,博物馆,,43,43,73,20,42,81,81,61,55,8,31,9,13,0.2,0.6
2025-12-19T1200,2347A,114.0997,27.5002,萍乡市,武功山,,,,,,,,,,,,,,,,
2025-12-19T1200,2348A,113.8385,27.6434,萍乡市,中医院,颗粒物(PM10),87,123,132,63,80,88,88,32,32,34,41,16,14,2.1,1.7
2025-12-19T1200,2349A,113.8493,27.6253,萍乡市,市政府车库,细颗粒物(PM2.5),105,132,120,79,81,80,80,30,30,41,43,22,14,5.2,2.4
2025-12-19T1200,2350A,113.8676,27.6435,萍乡市,市环保局,细颗粒物(PM2.5),98,108,109,73,75,86,86,40,40,32,37,23,24,1.2,1.1
2025-12-19T1200,2351A,113.866,27.6198,萍乡市,安源区政府,细颗粒物(PM2.5),134,134,138,102,102,78,78,27,27,42,37,24,15,4.5,2.2
2025-12-19T1200,2319A,119.0141,25.4325,莆田市,荔城区仓后路,细颗粒物(PM2.5),74,70,54,54,28,55,55,73,53,20,15,4,3,0.8,0.6
2025-12-19T1200,2320A,119.0015,25.4553,莆田市,莆田市监测站,细颗粒物(PM2.5),62,,43,44,23,49,49,86,67,22,12,4,4,0.7,0.5
2025-12-19T1200,2321A,119.1119,25.4561,莆田市,涵江区六中,,,60,51,39,25,50,50,70,57,,16,4,4,0.6,0.6
2025-12-19T1200,2322A,119.1013,25.3215,莆田市,秀屿区政府,颗粒物(PM10),55,59,54,33,30,67,67,67,58,20,20,4,4,0.6,0.5
2025-12-19T1200,2323A,118.981,25.4792,莆田市,东圳水库,,,,36,,18,,,116,,,9,,5,,1.1
2025-12-19T1200,2392A,115.0312,35.7636,濮阳市,环保局,细颗粒物(PM2.5),178,,124,134,120,18,18,34,16,28,26,6,7,2.1,1.8
2025-12-19T1200,2394A,115.0574,35.7609,濮阳市,油田运输公司,细颗粒物(PM2.5),172,173,169,130,121,17,17,33,14,36,36,6,8,1.8,1.5
2025-12-19T1200,3021A,115,35.7668,濮阳市,濮水河管理处,细颗粒物(PM2.5),200,174,163,150,141,15,15,32,12,25,22,8,9,1.4,1.1
2025-12-19T1200,4216A,115.0924,35.7686,濮阳市,任丘路479号,细颗粒物(PM2.5),196,175,166,147,125,12,12,28,11,33,34,4,5,1.6,1.4
2025-12-19T1200,2601A,100.98,22.7633,普洱市,市环保局,,37,37,34,7,11,54,54,30,30,6,9,4,4,0.4,0.4
2025-12-19T1200,2602A,100.9817,22.8322,普洱市,普洱第二中学,,30,30,29,14,17,53,53,28,28,6,14,5,5,0.2,0.3
2025-12-19T1200,2262A,131.0518,45.8751,七台河市,新一中,,,,,,,,,,,,,,,,
2025-12-19T1200,3345A,131.0577,45.7879,七台河市,中波台,颗粒物(PM10),62,73,75,24,47,56,56,40,40,11,20,9,8,0.2,0.3
2025-12-19T1200,3637A,131.0176,45.7761,七台河市,人民广场,,43,43,83,21,53,57,57,46,43,17,28,9,8,0.5,0.7
2025-12-19T1200,3684A,130.8781,45.8222,七台河市,新建矿广场,颗粒物(PM10),54,58,92,19,46,42,42,19,,24,39,14,16,0.7,0.7
2025-12-19T1200,1779A,123.9305,47.3636,齐齐哈尔市,安居小区,细颗粒物(PM2.5),78,79,113,57,88,33,33,17,17,19,31,15,14,0.8,0.9
2025-12-19T1200,1780A,123.9488,47.3386,齐齐哈尔市,中心广场,细颗粒物(PM2.5),94,91,132,70,100,29,29,17,14,13,24,7,8,0.9,1.1
2025-12-19T1200,1781A,123.9483,47.3227,齐齐哈尔市,农牧车辆厂,,,88,123,58,86,22,22,13,10,17,28,,7,0.8,1
2025-12-19T1200,1783A,123.945,47.2988,齐齐哈尔市,市环境监测站,细颗粒物(PM2.5),95,93,128,71,95,32,32,19,18,20,31,6,7,0.8,0.9
2025-12-19T1200,3662A,123.6333,47.2075,齐齐哈尔市,富区青少年活动中心,细颗粒物(PM2.5),153,136,137,117,120,24,24,17,17,27,31,9,7,1.2,1.2
2025-12-19T1200,2591A,107.9783,26.5747,黔东南苗族侗族自治州,市环境监测站,,35,27,33,24,27,59,59,62,52,8,9,4,4,0.5,0.5
2025-12-19T1200,2881A,107.8908,26.5311,黔东南苗族侗族自治州,凯里学院,,29,27,32,20,25,65,65,68,62,5,6,3,4,0.4,0.5
2025-12-19T1200,2593A,107.5228,26.2403,黔南布依族苗族自治州,小围寨,,35,27,28,24,25,55,55,55,54,5,5,6,6,0.5,0.5
2025-12-19T1200,3538A,107.5175,26.2978,黔南布依族苗族自治州,沙坝,,34,34,30,19,24,53,53,53,51,8,8,5,5,0.7,0.7
