timepoint,stationcode,longitude,latitude,area,positionname,primarypollutant,aqi,pm10,pm10_24h,pm2_5,pm2_5_24h,o3,o3_24h,o3_8h,o3_8h_24h,no2,no2_24h,so2,so2_24h,co,co_24h
2023-03-08T08:00:00,1001A,116.3621,39.8784,北京市,万寿西宫,细颗粒物(PM2.5),122,132,246,92,180,171,25,86,57,64,66,3,7,1.2,1.5
2023-03-08T08:00:00,1002A,116.2202,40.2915,北京市,定陵,,34,34,161,11,113,155,65,87,73,6,24,3,6,0.1,0.9
2023-03-08T08:00:00,1003A,116.4174,39.9289,北京市,东四,细颗粒物(PM2.5),109,137,265,82,180,175,37,83,59,58,68,2,9,1.0,1.6
2023-03-08T08:00:00,1004A,116.4072,39.8863,北京市,天坛,细颗粒物(PM2.5),125,139,248,95,183,169,16,67,39,58,64,1,5,1.0,1.5
2023-03-08T08:00:00,1005A,116.462,39.9365,北京市,农展馆,细颗粒物(PM2.5),144,165,269,110,187,169,27,65,37,68,77,1,8,1.0,1.5
2023-03-08T08:00:00,1006A,116.3392,39.9295,北京市,官园,细颗粒物(PM2.5),69,83,252,50,178,169,32,99,60,56,68,4,10,0.7,1.4
2023-03-08T08:00:00,1007A,116.2878,39.9611,北京市,海淀万柳,颗粒物(PM10),60,69,250,35,174,138,10,28,12,69,82,3,5,0.7,1.4
2023-03-08T08:00:00,1008A,116.6636,40.135,北京市,顺义新城,颗粒物(PM10),55,60,250,27,170,162,65,94,81,14,48,1,10,0.2,1.4
2023-03-08T08:00:00,1009A,116.6275,40.3275,北京市,怀柔镇,,35,35,240,9,142,148,50,76,67,21,42,3,7,0.3,1.3
2023-03-08T08:00:00,1010A,116.2296,40.217,北京市,昌平镇,,34,34,186,11,129,155,66,96,68,10,44,3,5,0.1,1.1
2023-03-08T08:00:00,1011A,116.3966,39.9821,北京市,奥体中心,细颗粒物(PM2.5),88,103,252,65,185,150,12,44,24,72,75,2,8,0.9,1.4
2023-03-08T08:00:00,1012A,116.184,39.9136,北京市,古城,颗粒物(PM10),65,79,239,41,157,177,19,80,48,61,57,2,7,1.1,1.6
2023-03-08T08:00:00,1015A,117.1444,39.1661,天津市,勤俭道,细颗粒物(PM2.5),108,145,241,81,161,207,28,45,43,66,64,11,20,1.1,1.5
2023-03-08T08:00:00,1017A,117.237,39.1082,天津市,大直沽八号路,"颗粒物(PM10),细颗粒物(PM2.5)",77,104,264,56,179,198,31,44,42,58,72,10,15,0.9,1.5
2023-03-08T08:00:00,1018A,117.202,39.0927,天津市,前进道,颗粒物(PM10),74,97,232,53,159,201,46,51,51,48,66,7,13,0.9,1.5
2023-03-08T08:00:00,1019A,117.1837,39.2133,天津市,淮河道,颗粒物(PM10),120,190,314,90,178,215,36,47,46,58,74,12,21,1.5,1.8
2023-03-08T08:00:00,1021A,117.307,39.0877,天津市,跃进路,颗粒物(PM10),76,101,266,55,188,206,31,43,42,54,74,11,15,0.4,1.2
2023-03-08T08:00:00,1023A,117.707,39.0343,天津市,第四大街,颗粒物(PM10),71,91,294,43,198,129,22,57,52,58,107,7,14,0.7,1.6
2023-03-08T08:00:00,1024A,117.457,38.8394,天津市,永明路,颗粒物(PM10),76,102,250,54,182,160,46,42,42,42,82,12,13,0.8,1.5
2023-03-08T08:00:00,1026A,117.764,39.1587,天津市,汉北路,颗粒物(PM10),81,111,251,49,194,110,38,68,63,40,67,9,12,0.6,1.4
2023-03-08T08:00:00,1027A,117.157,38.9194,天津市,团泊洼,颗粒物(PM10),66,82,218,42,147,183,51,28,28,31,67,9,13,0.9,1.5
2023-03-08T08:00:00,1029A,114.4422,38.0444,石家庄市,职工医院,颗粒物(PM10),121,191,147,51,82,168,14,47,30,63,42,8,12,0.5,0.6
2023-03-08T08:00:00,1030A,114.6063,38.0266,石家庄市,高新区,颗粒物(PM10),91,132,140,48,70,183,46,66,49,39,35,6,12,0.5,0.8
2023-03-08T08:00:00,1031A,114.4898,38.1328,石家庄市,西北水源,颗粒物(PM10),118,186,145,43,66,172,46,56,52,36,36,3,8,0.3,0.7
2023-03-08T08:00:00,1032A,114.4586,38.0058,石家庄市,西南高教,颗粒物(PM10),140,229,172,37,75,163,30,41,35,50,43,9,15,0.8,0.9
2023-03-08T08:00:00,1033A,114.5331,38.0178,石家庄市,世纪公园,颗粒物(PM10),93,135,138,44,71,165,34,52,34,47,45,6,12,0.6,0.9
2023-03-08T08:00:00,1034A,114.509,38.0457,石家庄市,人民会堂,颗粒物(PM10),106,162,142,46,72,174,37,56,42,46,39,6,14,0.5,0.8
2023-03-08T08:00:00,1035A,114.3524,37.8911,石家庄市,封龙山,颗粒物(PM10),179,307,138,40,40,181,79,93,89,24,29,10,14,0.4,0.5
2023-03-08T08:00:00,1037A,118.131,39.6363,唐山市,雷达站,颗粒物(PM10),90,130,243,41,169,182,47,48,48,33,62,9,20,1.0,2.2
2023-03-08T08:00:00,1038A,118.1725,39.6334,唐山市,物资局,颗粒物(PM10),104,158,225,70,153,176,35,40,39,68,79,8,21,1.5,2.2
2023-03-08T08:00:00,1040A,118.1705,39.6506,唐山市,十二中,颗粒物(PM10),100,149,237,72,172,184,41,39,39,62,95,10,22,1.0,2.2
2023-03-08T08:00:00,1041A,118.1869,39.622,唐山市,小山,颗粒物(PM10),101,151,246,57,168,194,29,32,32,75,78,8,20,1.1,2.2
2023-03-08T08:00:00,1042A,119.5134,39.8207,秦皇岛市,北戴河环保局,颗粒物(PM10),52,53,59,20,46,121,69,86,68,17,28,3,2,0.2,0.6
2023-03-08T08:00:00,1043A,119.7493,40.0116,秦皇岛市,第一关,颗粒物(PM10),58,66,100,11,72,103,53,52,52,17,39,3,2,0.3,0.7
2023-03-08T08:00:00,1044A,119.5897,39.9499,秦皇岛市,监测站,颗粒物(PM10),51,52,95,10,71,107,62,56,56,32,53,5,5,0.3,0.7
2023-03-08T08:00:00,1046A,119.5251,39.9041,秦皇岛市,建设大厦,颗粒物(PM10),53,55,103,12,58,105,65,55,55,24,51,5,5,0.2,0.7
2023-03-08T08:00:00,1048A,114.5302,36.6116,邯郸市,东污水处理厂,颗粒物(PM10),108,165,164,35,97,191,74,81,48,12,44,9,27,0.5,1.6
2023-03-08T08:00:00,1049A,114.4918,36.5713,邯郸市,矿院,颗粒物(PM10),112,174,169,44,98,184,76,75,41,13,44,6,28,0.4,1.7
2023-03-08T08:00:00,1050A,114.484,36.6133,邯郸市,丛台公园,颗粒物(PM10),104,158,146,31,89,190,72,61,37,10,42,10,32,0.2,1.6
2023-03-08T08:00:00,1051A,115.493,38.8632,保定市,游泳馆,细颗粒物(PM2.5),246,226,185,196,138,181,81,73,70,45,38,25,23,1.5,0.9
2023-03-08T08:00:00,1052A,115.5213,38.8959,保定市,华电二区,细颗粒物(PM2.5),256,247,189,206,138,170,54,59,58,65,44,14,13,1.4,0.9
2023-03-08T08:00:00,1053A,115.4713,38.9108,保定市,接待中心,细颗粒物(PM2.5),259,253,194,209,133,160,69,62,62,53,41,15,13,1.4,1
2023-03-08T08:00:00,1054A,115.4612,38.8416,保定市,地表水厂,细颗粒物(PM2.5),228,281,219,178,130,158,73,73,54,50,57,18,15,1.7,1.1
2023-03-08T08:00:00,1056A,115.5086,38.8639,保定市,监测站,,29,0,90,0,64,180,22,64,43,58,47,4,8,1.0,0.6
2023-03-08T08:00:00,1057A,114.8883,40.8336,张家口市,人民公园,颗粒物(PM10),59,67,74,29,19,104,48,61,54,14,14,6,7,0.3,0.3
2023-03-08T08:00:00,1059A,114.8687,40.8042,张家口市,五金库,颗粒物(PM10),59,68,71,17,24,103,48,62,57,14,15,4,9,0.1,0.2
2023-03-08T08:00:00,1060A,114.8902,40.762,张家口市,世纪豪园,颗粒物(PM10),64,78,80,26,29,103,49,69,59,14,17,9,9,0.6,0.7
2023-03-08T08:00:00,1061A,114.8916,40.8661,张家口市,北泵房,颗粒物(PM10),54,58,71,22,28,116,57,58,57,10,14,10,11,0.1,0.2
2023-03-08T08:00:00,1062A,117.9531,40.9081,承德市,铁路,,,66,108,35,60,149,19,45,36,53,49,,13,0.7,0.8
2023-03-08T08:00:00,1063A,117.9392,40.9763,承德市,中国银行,颗粒物(PM10),61,72,108,28,67,143,24,42,32,36,40,8,11,0.5,0.8
2023-03-08T08:00:00,1064A,117.9503,40.928,承德市,开发区,颗粒物(PM10),62,73,105,32,60,153,10,32,27,62,55,11,13,0.7,0.9
2023-03-08T08:00:00,1065A,117.8051,40.9655,承德市,文化中心,颗粒物(PM10),70,90,136,30,73,144,16,50,34,48,40,9,17,0.6,0.9
2023-03-08T08:00:00,1066A,117.9268,41.0026,承德市,离宫,,28,28,90,19,54,158,52,69,60,13,17,10,14,0.3,0.6
2023-03-08T08:00:00,1067A,116.6708,39.5111,廊坊市,药材公司,细颗粒物(PM2.5),220,283,292,170,189,187,47,100,83,63,71,11,13,1.8,1.7
2023-03-08T08:00:00,1068A,116.7214,39.5589,廊坊市,开发区,细颗粒物(PM2.5),261,296,296,211,209,192,56,95,74,77,83,17,20,1.7,1.8
2023-03-08T08:00:00,1070A,116.7244,39.5269,廊坊市,北华航天学院,细颗粒物(PM2.5),242,282,304,192,221,186,54,82,73,61,77,14,14,1.8,1.7
2023-03-08T08:00:00,1071A,116.8842,38.2991,沧州市,沧县城建局,细颗粒物(PM2.5),117,171,182,88,111,212,82,113,80,25,46,12,15,0.7,1.1
2023-03-08T08:00:00,1072A,116.8584,38.3254,沧州市,电视转播站,颗粒物(PM10),94,138,157,53,94,213,77,122,78,28,41,8,16,0.6,0.8
2023-03-08T08:00:00,1073A,116.8709,38.3228,沧州市,市环保局,细颗粒物(PM2.5),94,121,161,70,95,209,84,116,82,27,47,6,12,0.5,0.8
2023-03-08T08:00:00,1074A,115.6838,37.7541,衡水市,电机北厂,细颗粒物(PM2.5),264,337,189,214,107,207,67,121,77,49,30,10,10,1.5,0.6
2023-03-08T08:00:00,1075A,115.6303,37.7316,衡水市,市监测站,细颗粒物(PM2.5),262,349,196,212,109,206,70,107,72,39,25,12,12,1.6,0.9
2023-03-08T08:00:00,1077A,114.4704,37.0886,邢台市,达活泉,颗粒物(PM10),139,228,155,56,83,188,61,75,65,13,30,8,20,0.4,1.4
2023-03-08T08:00:00,1078A,114.5062,37.0349,邢台市,邢师高专,颗粒物(PM10),132,213,140,45,73,190,53,34,34,21,48,9,17,1.2,1.4
2023-03-08T08:00:00,1079A,114.5237,37.0851,邢台市,路桥公司,颗粒物(PM10),124,197,144,30,74,187,57,78,68,14,28,8,19,0.2,1
2023-03-08T08:00:00,1080A,114.4725,37.0719,邢台市,市环保局,颗粒物(PM10),154,257,161,44,70,192,62,81,76,16,28,8,16,0.3,1.1
2023-03-08T08:00:00,1081A,112.522,37.8873,太原市,尖草坪,颗粒物(PM10),220,364,156,90,50,119,19,55,47,61,48,7,17,0.6,0.6
2023-03-08T08:00:00,1083A,112.434,38.0108,太原市,上兰,,,,,,,,,,,,,,,,
2023-03-08T08:00:00,1084A,112.469,37.7124,太原市,晋源,颗粒物(PM10),149,248,128,75,47,117,14,79,31,71,50,6,13,0.6,0.6
2023-03-08T08:00:00,1085A,112.5583,37.7394,太原市,小店,颗粒物(PM10),174,297,151,81,52,119,6,29,23,75,59,9,10,1.4,0.6
2023-03-08T08:00:00,1086A,112.5369,37.8692,太原市,桃园,颗粒物(PM10),192,334,148,88,49,119,14,64,53,70,46,6,19,0.6,0.7
2023-03-08T08:00:00,1087A,112.57,37.8195,太原市,坞城,颗粒物(PM10),198,345,147,88,50,120,7,43,34,76,58,9,16,0.9,0.7
2023-03-08T08:00:00,1088A,112.549,37.9854,太原市,南寨,颗粒物(PM10),132,214,117,46,36,118,5,4,4,68,61,6,12,0.2,0.6
2023-03-08T08:00:00,1090A,111.6507,40.7517,呼和浩特市,呼市一监,颗粒物(PM10),78,105,102,49,38,97,7,58,32,51,32,11,14,0.9,0.6
2023-03-08T08:00:00,1091A,111.6572,40.8033,呼和浩特市,小召,颗粒物(PM10),63,75,101,28,32,110,16,63,42,48,33,14,18,0.7,0.6
2023-03-08T08:00:00,1094A,111.7516,40.8369,呼和浩特市,如意水处理厂,颗粒物(PM10),65,80,86,24,31,118,8,54,26,58,35,14,16,0.7,0.6
2023-03-08T08:00:00,1095A,111.7276,40.8062,呼和浩特市,二十九中,颗粒物(PM10),61,71,101,26,34,120,7,60,33,55,29,11,13,0.7,0.6
2023-03-08T08:00:00,1096A,111.5512,40.7866,呼和浩特市,工大金川校区,颗粒物(PM10),56,61,96,27,34,112,8,61,38,53,28,16,13,0.7,0.6
2023-03-08T08:00:00,1097A,111.717,40.7612,呼和浩特市,化肥厂生活区,颗粒物(PM10),84,117,101,45,36,108,9,56,25,43,31,14,15,0.9,0.6
2023-03-08T08:00:00,1098A,123.6836,41.9339,沈阳市,森林路,,,,,,,,,,,,,,,,
2023-03-08T08:00:00,1099A,123.505,41.7406,沈阳市,浑南东路,细颗粒物(PM2.5),67,80,87,48,54,116,33,93,60,37,28,13,19,0.9,0.8
2023-03-08T08:00:00,1100A,123.4231,41.6989,沈阳市,新秀街,颗粒物(PM10),58,66,85,32,44,108,34,76,58,31,25,15,16,0.9,0.8
2023-03-08T08:00:00,1102A,123.5903,41.8411,沈阳市,东陵路,细颗粒物(PM2.5),69,64,88,50,57,109,26,68,43,34,30,12,16,0.8,0.9
2023-03-08T08:00:00,1103A,123.4264,41.8467,沈阳市,陵东街,颗粒物(PM10),55,59,81,33,49,122,36,95,57,28,28,10,14,0.8,0.9
2023-03-08T08:00:00,1104A,123.4114,41.7653,沈阳市,文化路,细颗粒物(PM2.5),62,72,92,44,60,121,35,90,59,31,26,11,14,0.7,0.7
2023-03-08T08:00:00,1105A,123.4678,41.7867,沈阳市,小河沿,颗粒物(PM10),61,71,84,42,52,114,35,91,58,34,29,11,15,0.8,0.8
2023-03-08T08:00:00,1106A,123.4017,41.7972,沈阳市,太原街,细颗粒物(PM2.5),64,76,99,46,64,111,30,82,53,31,33,8,18,0.6,0.7
2023-03-08T08:00:00,1108A,123.3783,41.9228,沈阳市,京沈街,细颗粒物(PM2.5),53,49,103,37,63,112,41,86,54,24,28,10,13,0.8,0.8
2023-03-08T08:00:00,1109A,121.612,38.9741,大连市,甘井子,细颗粒物(PM2.5),60,64,53,43,28,123,106,102,102,27,20,4,3,0.6,0.5
2023-03-08T08:00:00,1110A,121.565,38.9511,大连市,周水子,细颗粒物(PM2.5),74,87,66,54,40,112,100,100,99,32,28,2,2,0.7,0.5
2023-03-08T08:00:00,1111A,121.5637,38.8845,大连市,星海三站,细颗粒物(PM2.5),77,69,60,56,44,115,103,88,88,25,31,1,4,0.6,0.7
2023-03-08T08:00:00,1112A,121.6302,38.9117,大连市,青泥洼桥,细颗粒物(PM2.5),72,68,51,52,39,122,115,112,112,19,23,5,7,1.0,0.9
2023-03-08T08:00:00,1113A,121.6251,38.8638,大连市,傅家庄,细颗粒物(PM2.5),63,67,53,45,32,123,110,102,102,18,14,23,13,0.8,0.7
2023-03-08T08:00:00,1114A,121.5213,38.8661,大连市,七贤岭,细颗粒物(PM2.5),88,74,58,65,46,133,114,90,90,23,20,5,6,0.7,0.6
2023-03-08T08:00:00,1115A,121.2529,38.8061,大连市,旅顺,细颗粒物(PM2.5),98,81,50,73,44,120,68,73,70,40,24,9,7,1.0,0.6
2023-03-08T08:00:00,1116A,121.7485,39.1311,大连市,金州,细颗粒物(PM2.5),67,72,52,48,41,140,100,112,110,17,21,8,8,0.8,0.8
2023-03-08T08:00:00,1117A,121.7811,39.0496,大连市,开发区,细颗粒物(PM2.5),53,42,40,37,32,117,109,113,112,16,15,5,5,0.6,0.5
2023-03-08T08:00:00,1118A,121.9762,39.0631,大连市,双D港,,46,36,38,32,28,136,125,132,131,12,10,4,5,0.7,0.7
2023-03-08T08:00:00,1119A,125.3325,43.9166,长春市,食品厂,细颗粒物(PM2.5),54,37,160,38,62,127,44,38,35,24,29,5,6,0.5,0.6
2023-03-08T08:00:00,1120A,125.2863,43.9027,长春市,客车厂,,35,28,170,24,66,120,36,46,33,34,29,6,9,0.5,0.7
2023-03-08T08:00:00,1121A,125.2841,43.8463,长春市,邮电学院,,35,29,157,24,54,138,50,52,43,32,32,9,11,0.6,0.7
2023-03-08T08:00:00,1122A,125.3716,43.8772,长春市,劳动公园,,32,26,140,22,52,140,42,42,40,31,28,10,11,0.8,0.8
2023-03-08T08:00:00,1123A,125.3297,43.8805,长春市,园林处,,32,27,123,22,52,125,45,49,44,32,31,7,8,0.5,0.6
2023-03-08T08:00:00,1124A,125.4605,43.79,长春市,净月潭,,,,,,,,,,,,,,,,
2023-03-08T08:00:00,1125A,125.7194,43.515,长春市,甩湾子,,,,,,,,,,,,,,,,
2023-03-08T08:00:00,1126A,125.3863,43.8447,长春市,经开区环卫处,,32,20,145,22,53,130,43,43,42,28,28,9,10,0.5,0.7
2023-03-08T08:00:00,1127A,125.245,43.7783,长春市,高新区管委会,细颗粒物(PM2.5),52,50,135,36,60,136,15,40,26,52,26,14,10,0.9,0.7
2023-03-08T08:00:00,1128A,125.1761,43.8325,长春市,岱山公园,细颗粒物(PM2.5),54,46,149,38,56,131,18,31,26,51,31,7,5,1.1,0.7
2023-03-08T08:00:00,1129A,126.5422,45.755,哈尔滨市,岭北,,20,15,63,14,45,107,43,55,48,16,21,24,28,0.7,1
2023-03-08T08:00:00,1130A,126.561,45.8167,哈尔滨市,松北商大,,34,34,58,12,40,89,39,46,42,24,30,5,8,0.5,0.7
2023-03-08T08:00:00,1131A,126.979,45.5419,哈尔滨市,阿城会宁,,29,29,66,13,47,108,52,64,57,20,22,8,9,0.6,0.8
2023-03-08T08:00:00,1132A,126.599,45.7222,哈尔滨市,南岗学府路,,24,24,81,10,47,98,35,56,49,38,27,24,25,0.4,0.5
2023-03-08T08:00:00,1133A,126.689,45.7733,哈尔滨市,太平宏伟公园,,18,15,74,7,46,105,55,52,50,21,28,7,10,0.4,0.6
2023-03-08T08:00:00,1134A,126.635,45.7667,哈尔滨市,道外承德广场,,22,22,54,9,29,89,47,60,55,27,24,20,16,0.5,0.7
2023-03-08T08:00:00,1135A,126.685,45.7319,哈尔滨市,香坊红旗大街,,16,2,68,7,51,94,50,68,58,28,27,24,25,0.6,0.8
2023-03-08T08:00:00,1136A,126.6411,45.7258,哈尔滨市,动力和平路,,18,18,66,9,50,96,45,64,55,28,26,23,19,0.5,0.6
2023-03-08T08:00:00,1137A,126.593,45.7478,哈尔滨市,道里建国路,,23,4,63,16,49,97,38,57,50,30,29,25,18,0.5,0.8
2023-03-08T08:00:00,1138A,126.615,45.61,哈尔滨市,平房东轻厂,,48,36,72,33,55,113,22,49,36,33,24,11,11,1.2,1
2023-03-08T08:00:00,1139A,126.595,45.9855,哈尔滨市,呼兰师专,,25,19,55,17,36,80,46,50,42,16,26,13,14,0.4,0.5
2023-03-08T08:00:00,1140A,126.6206,45.6842,哈尔滨市,省农科院,,20,15,77,14,48,100,41,68,58,27,21,25,17,0.8,0.7
2023-03-08T08:00:00,1141A,121.4,31.238,上海市,普陀,颗粒物(PM10),65,80,84,36,37,164,47,91,73,67,47,8,11,0.9,0.8
2023-03-08T08:00:00,1142A,121.478,31.2036,上海市,十五厂,颗粒物(PM10),64,77,79,38,38,137,31,73,57,65,49,7,8,0.7,0.6
2023-03-08T08:00:00,1143A,121.467,31.3008,上海市,虹口,颗粒物(PM10),70,90,80,44,41,147,30,87,66,70,43,17,8,1.1,0.8
2023-03-08T08:00:00,1144A,121.412,31.1654,上海市,徐汇上师大,颗粒物(PM10),68,85,78,38,36,154,12,80,50,89,54,11,15,0.6,0.4
2023-03-08T08:00:00,1145A,121.536,31.2659,上海市,杨浦四漂,颗粒物(PM10),74,97,83,42,36,143,22,80,55,79,53,8,8,0.8,0.7
2023-03-08T08:00:00,1147A,121.425,31.2261,上海市,静安监测站,颗粒物(PM10),64,78,86,41,37,154,40,84,65,72,53,11,12,0.8,0.7
2023-03-08T08:00:00,1148A,121.703,31.1907,上海市,浦东川沙,颗粒物(PM10),66,81,80,38,40,149,44,75,68,49,39,5,5,0.5,0.4
2023-03-08T08:00:00,1149A,121.533,31.2284,上海市,浦东新区监测站,颗粒物(PM10),64,77,81,33,36,127,46,85,67,41,33,6,7,0.9,0.7
2023-03-08T08:00:00,1150A,121.577,31.2071,上海市,浦东张江,颗粒物(PM10),61,72,70,31,28,162,42,98,79,57,35,5,5,0.9,0.8
2023-03-08T08:00:00,1151A,118.8086,32.1065,南京市,迈皋桥,颗粒物(PM10),81,112,77,51,36,157,27,84,55,74,41,10,8,0.8,0.4
2023-03-08T08:00:00,1152A,118.7538,32.0551,南京市,草场门,颗粒物(PM10),72,94,79,48,37,140,17,16,10,107,84,15,12,0.8,0.6
2023-03-08T08:00:00,1153A,118.7794,32.0745,南京市,山西路,颗粒物(PM10),81,112,78,53,38,155,20,54,36,83,50,8,7,0.9,0.5
2023-03-08T08:00:00,1154A,118.7752,32.0023,南京市,中华门,颗粒物(PM10),70,90,65,48,31,146,9,19,12,93,69,13,10,1.1,0.9
2023-03-08T08:00:00,1155A,118.8109,32.0309,南京市,瑞金路,颗粒物(PM10),80,109,90,53,37,144,18,11,11,83,68,14,10,0.7,0.6
2023-03-08T08:00:00,1156A,118.7997,32.0754,南京市,玄武湖,细颗粒物(PM2.5),80,96,75,59,39,142,30,67,48,76,45,7,5,0.6,0.4
2023-03-08T08:00:00,1157A,118.6414,32.0931,南京市,浦口,颗粒物(PM10),73,95,85,41,36,135,37,79,61,72,54,14,14,0.8,0.8
2023-03-08T08:00:00,1158A,118.7356,31.9996,南京市,奥体中心,颗粒物(PM10),74,97,80,44,36,146,9,9,7,96,74,7,7,1.1,0.6
2023-03-08T08:00:00,1159A,118.9125,32.1028,南京市,仙林大学城,细颗粒物(PM2.5),73,92,74,53,36,146,43,66,60,67,48,13,9,0.8,0.6
2023-03-08T08:00:00,1160A,120.561,31.2472,苏州市,上方山,细颗粒物(PM2.5),74,83,93,54,58,199,4,37,15,68,55,8,10,0.8,0.7
2023-03-08T08:00:00,1162A,120.591,31.3019,苏州市,彩香,颗粒物(PM10),79,108,95,57,48,211,12,66,39,66,45,9,7,1.0,0.7
2023-03-08T08:00:00,1163A,120.596,31.3264,苏州市,轧钢厂,颗粒物(PM10),84,118,98,58,48,192,12,62,38,65,46,9,9,0.9,0.7
2023-03-08T08:00:00,1164A,120.613,31.2703,苏州市,吴中区,颗粒物(PM10),77,103,91,54,47,185,8,57,28,75,60,12,10,0.7,0.6
2023-03-08T08:00:00,1165A,120.543,31.2994,苏州市,苏州新区,细颗粒物(PM2.5),92,114,90,68,52,206,4,57,24,70,49,8,8,0.8,0.7
2023-03-08T08:00:00,1166A,120.669,31.3097,苏州市,苏州工业园区,颗粒物(PM10),75,100,92,51,45,176,17,62,44,61,50,10,10,0.6,0.6
2023-03-08T08:00:00,1167A,120.641,31.3708,苏州市,相城区,细颗粒物(PM2.5),82,96,98,60,51,170,4,62,26,66,53,8,8,0.8,0.7
2023-03-08T08:00:00,1168A,120.9098,31.9663,南通市,狼山街道,细颗粒物(PM2.5),78,80,97,57,53,179,12,8,6,75,73,8,8,0.6,0.5
2023-03-08T08:00:00,1169A,120.86,32.0005,南通市,虹桥,"颗粒物(PM10),细颗粒物(PM2.5)",73,95,103,53,51,174,36,60,41,70,68,14,10,0.8,0.6
2023-03-08T08:00:00,1170A,120.87,32.02,南通市,城中,细颗粒物(PM2.5),74,94,98,54,49,161,35,62,41,72,68,15,11,0.7,0.5
2023-03-08T08:00:00,1171A,120.94,31.93,南通市,星湖花园,颗粒物(PM10),72,94,99,44,48,156,6,24,12,82,81,9,9,0.8,0.7
2023-03-08T08:00:00,1172A,120.81,32.0417,南通市,紫琅学院,颗粒物(PM10),77,103,107,46,47,160,20,62,32,87,78,15,11,0.8,0.5
2023-03-08T08:00:00,1173A,119.176,34.5885,连云港市,市环境监测站,细颗粒物(PM2.5),98,127,105,73,64,167,29,104,62,64,36,19,15,0.6,0.4
2023-03-08T08:00:00,1177A,117.179,34.2761,徐州市,黄河新村,细颗粒物(PM2.5),80,105,105,59,57,159,57,70,69,49,43,17,17,1.2,1.1
2023-03-08T08:00:00,1178A,117.1918,34.2384,徐州市,淮塔,细颗粒物(PM2.5),79,92,100,58,51,169,98,90,90,28,40,15,14,0.8,0.7
2023-03-08T08:00:00,1180A,117.256,34.2153,徐州市,新城区,细颗粒物(PM2.5),99,112,114,74,61,172,21,50,32,69,47,13,14,1.1,0.9
2023-03-08T08:00:00,1181A,117.244,34.2911,徐州市,桃园路,颗粒物(PM10),89,127,107,56,54,156,49,70,67,57,35,13,14,1.2,0.9
2023-03-08T08:00:00,1182A,117.2933,34.2778,徐州市,农科院,颗粒物(PM10),79,107,101,56,47,170,43,102,74,51,26,13,13,1.3,1
2023-03-08T08:00:00,1186A,119.389,32.3761,扬州市,邗江监测站,细颗粒物(PM2.5),149,180,122,114,79,160,22,100,63,98,55,12,10,1.1,0.7
2023-03-08T08:00:00,1188A,120.269,31.4867,无锡市,雪浪,颗粒物(PM10),69,88,88,44,47,188,6,44,20,77,51,10,9,1.2,1
2023-03-08T08:00:00,1189A,120.275,31.6219,无锡市,黄巷,颗粒物(PM10),91,132,100,51,42,175,12,16,14,102,86,12,10,1.0,0.7
2023-03-08T08:00:00,1190A,120.294,31.56,无锡市,曹张,颗粒物(PM10),86,122,101,58,49,178,4,34,7,96,72,10,9,1.3,1
2023-03-08T08:00:00,1191A,120.242,31.5031,无锡市,漆塘,颗粒物(PM10),64,78,83,44,46,175,17,59,37,54,46,9,10,1.0,0.8
2023-03-08T08:00:00,1192A,120.3489,31.5863,无锡市,东亭,颗粒物(PM10),78,105,91,48,42,162,5,34,8,95,81,11,11,1.1,0.7
2023-03-08T08:00:00,1193A,120.354,31.5475,无锡市,旺庄,颗粒物(PM10),79,107,96,48,45,167,2,34,8,82,66,13,10,1.0,0.8
2023-03-08T08:00:00,1194A,120.245,31.5631,无锡市,荣巷,颗粒物(PM10),79,107,85,48,45,202,13,52,38,57,47,12,12,1.2,0.7
2023-03-08T08:00:00,1195A,120.299,31.6817,无锡市,堰桥,颗粒物(PM10),82,114,93,56,44,162,9,39,19,86,73,12,11,1.3,1
2023-03-08T08:00:00,1196A,119.9633,31.762,常州市,市监测站,颗粒物(PM10),96,142,102,71,57,160,17,96,51,78,53,11,8,0.8,0.6
2023-03-08T08:00:00,1200A,119.9468,31.7069,常州市,武进监测站,颗粒物(PM10),90,130,95,59,53,153,29,101,60,59,39,30,12,0.9,0.7
2023-03-08T08:00:00,1201A,119.9255,31.9087,常州市,安家,细颗粒物(PM2.5),119,144,103,90,65,156,8,96,38,104,65,11,10,1.3,0.7
2023-03-08T08:00:00,1203A,119.6707,32.1875,镇江市,新区办事处,细颗粒物(PM2.5),97,132,109,72,56,179,45,99,78,67,47,9,6,1.1,0.7
2023-03-08T08:00:00,1204A,119.4974,32.1968,镇江市,职教中心,细颗粒物(PM2.5),150,174,114,115,72,180,26,110,68,78,49,18,13,1.1,0.8
2023-03-08T08:00:00,1205A,119.4303,32.1328,镇江市,丹徒区监测站,细颗粒物(PM2.5),163,196,143,124,89,179,5,56,40,94,56,10,12,1.0,0.7
2023-03-08T08:00:00,1206A,119.905,32.4878,泰州市,公园路,细颗粒物(PM2.5),104,151,126,78,76,174,20,31,26,86,66,12,12,1.4,1
2023-03-08T08:00:00,1207A,119.9189,32.4625,泰州市,莲花,细颗粒物(PM2.5),107,151,130,80,78,183,14,22,19,100,74,14,14,1.2,0.9
2023-03-08T08:00:00,1209A,119.888,32.4639,泰州市,留学生创业园,细颗粒物(PM2.5),119,180,141,90,68,166,20,26,22,108,78,16,14,1.3,0.8
2023-03-08T08:00:00,1210A,119.036,33.5981,淮安市,钵池山,细颗粒物(PM2.5),85,83,81,63,50,176,53,70,62,52,33,16,13,0.8,0.7
2023-03-08T08:00:00,1211A,119.007,33.575,淮安市,北京南路,细颗粒物(PM2.5),83,100,85,61,53,168,40,53,42,59,41,21,16,0.8,0.8
2023-03-08T08:00:00,1212A,118.989,33.6067,淮安市,市监测站,颗粒物(PM10),76,102,93,53,52,172,62,61,61,50,42,18,20,1.0,1.3
2023-03-08T08:00:00,1213A,119.135,33.5039,淮安市,楚州区监测站,细颗粒物(PM2.5),85,100,93,63,57,178,19,61,38,66,43,14,12,0.9,0.8
2023-03-08T08:00:00,1214A,119.0186,33.6297,淮安市,淮阴区监测站,细颗粒物(PM2.5),92,110,100,68,52,165,46,64,61,58,37,23,16,2.0,1
2023-03-08T08:00:00,1215A,120.118,33.4022,盐城市,盐城电厂,细颗粒物(PM2.5),104,149,117,78,63,182,41,66,50,87,53,27,18,1.1,0.9
2023-03-08T08:00:00,1216A,120.156,33.3942,盐城市,市监测站,细颗粒物(PM2.5),122,153,115,92,71,184,43,63,50,78,48,34,20,1.1,0.9
2023-03-08T08:00:00,1218A,120.2144,33.38,盐城市,开发区管委会,细颗粒物(PM2.5),123,167,129,93,70,175,37,56,47,77,41,22,12,1.2,0.9
2023-03-08T08:00:00,1220A,118.293,33.9528,宿迁市,宿迁学院,细颗粒物(PM2.5),103,120,100,77,53,160,61,69,61,42,43,15,12,0.6,0.5
2023-03-08T08:00:00,1221A,118.2442,33.9592,宿迁市,宿迁中学,细颗粒物(PM2.5),95,116,110,71,64,155,55,74,62,34,32,11,10,0.7,0.6
2023-03-08T08:00:00,1223A,120.2072,30.2111,杭州市,滨江,颗粒物(PM10),58,65,100,32,46,158,53,24,24,49,64,10,10,1.1,0.8
2023-03-08T08:00:00,1224A,120.0633,30.2747,杭州市,西溪,"颗粒物(PM10),细颗粒物(PM2.5)",72,94,86,52,45,162,6,5,4,44,46,6,7,0.8,0.7
2023-03-08T08:00:00,1226A,120.3461,30.3153,杭州市,下沙,颗粒物(PM10),71,91,107,45,55,157,48,15,15,56,76,9,9,0.9,0.6
2023-03-08T08:00:00,1227A,120.1269,30.2456,杭州市,卧龙桥,细颗粒物(PM2.5),73,81,74,53,44,151,10,29,13,52,51,6,7,0.6,0.5
2023-03-08T08:00:00,1228A,120.1903,30.2692,杭州市,浙江农大,颗粒物(PM10),64,77,96,43,51,164,20,16,16,70,68,7,7,1.0,0.8
2023-03-08T08:00:00,1230A,120.1197,30.3119,杭州市,和睦小学,颗粒物(PM10),92,133,101,66,55,155,6,3,3,101,91,8,8,0.8,0.6
2023-03-08T08:00:00,1231A,120.3019,30.4183,杭州市,临平镇,颗粒物(PM10),83,116,107,52,48,166,12,37,10,86,63,10,9,1.0,0.7
2023-03-08T08:00:00,1232A,120.2697,30.1819,杭州市,城厢镇,颗粒物(PM10),73,96,115,44,61,173,34,20,20,78,93,7,9,0.8,0.7
2023-03-08T08:00:00,1233A,120.0883,30.1808,杭州市,云栖,细颗粒物(PM2.5),69,75,78,50,44,156,9,49,20,44,45,6,6,0.8,0.7
2023-03-08T08:00:00,1234A,121.8358,29.911,宁波市,区环保大楼,,40,40,45,22,22,148,40,106,94,71,31,6,6,0.7,0.5
2023-03-08T08:00:00,1235A,121.56,29.82,宁波市,万里学院,颗粒物(PM10),51,52,55,28,28,165,60,83,77,47,26,9,7,0.4,0.3
2023-03-08T08:00:00,1236A,121.713,29.9572,宁波市,龙赛医院,颗粒物(PM10),54,57,56,25,24,152,39,98,84,72,30,12,9,0.6,0.4
2023-03-08T08:00:00,1239A,121.633,29.7733,宁波市,钱湖水厂,,30,30,39,21,22,163,93,98,96,6,8,6,6,0.5,0.5
2023-03-08T08:00:00,1240A,121.5856,29.8635,宁波市,太古小学,细颗粒物(PM2.5),55,53,56,39,31,146,41,96,67,58,20,11,8,0.7,0.6
2023-03-08T08:00:00,1241A,121.524,29.8674,宁波市,市环境监测中心,颗粒物(PM10),54,57,61,21,23,147,60,82,69,41,29,8,7,0.6,0.5
2023-03-08T08:00:00,1242A,120.634,28.0089,温州市,瓯海,颗粒物(PM10),95,139,90,66,42,151,9,4,4,67,57,9,8,0.8,0.6
2023-03-08T08:00:00,1243A,120.6748,27.9939,温州市,南浦,细颗粒物(PM2.5),92,117,77,68,38,148,14,16,13,64,49,9,7,0.7,0.5
2023-03-08T08:00:00,1244A,120.76,27.9747,温州市,龙湾,颗粒物(PM10),83,115,89,52,35,128,13,5,5,71,68,9,9,0.7,0.6
2023-03-08T08:00:00,1245A,120.6709,28.0167,温州市,市站,颗粒物(PM10),82,114,84,58,36,140,18,42,20,61,52,8,7,0.7,0.5
2023-03-08T08:00:00,1247A,120.6053,29.9928,绍兴市,城东开发委,颗粒物(PM10),57,64,79,34,42,168,59,35,35,44,51,6,6,0.8,0.7
2023-03-08T08:00:00,1250A,120.0751,30.8669,湖州市,城西水厂,细颗粒物(PM2.5),90,116,91,67,55,142,7,26,9,94,71,9,10,0.8,0.7
2023-03-08T08:00:00,1252A,120.7436,30.778,嘉兴市,清河小学,颗粒物(PM10),88,125,92,63,40,192,13,47,19,89,59,10,9,0.8,0.6
2023-03-08T08:00:00,1253A,120.726,30.7478,嘉兴市,嘉兴学院,细颗粒物(PM2.5),98,114,85,73,45,218,15,61,42,74,38,8,8,0.8,0.6
2023-03-08T08:00:00,1255A,121.273,28.6459,台州市,黄岩环保大楼,颗粒物(PM10),54,57,51,28,23,145,38,102,45,42,26,9,9,0.6,0.4
2023-03-08T08:00:00,1256A,121.419,28.6542,台州市,台州环保大楼,细颗粒物(PM2.5),70,74,74,51,40,113,10,78,50,62,25,5,5,0.8,0.4
2023-03-08T08:00:00,1257A,121.377,28.5773,台州市,路桥田洋王,颗粒物(PM10),66,81,72,38,35,143,9,71,37,58,29,13,15,0.8,0.6
2023-03-08T08:00:00,1258A,122.122,30.0203,舟山市,定海檀枫,,44,44,50,19,23,115,50,99,74,45,27,5,5,0.6,0.5
2023-03-08T08:00:00,1259A,122.3094,29.9558,舟山市,普陀东港,,38,35,48,26,24,113,65,108,88,33,22,6,5,0.4,0.4
2023-03-08T08:00:00,1260A,122.19,29.9944,舟山市,临城新区,,31,31,44,19,20,134,74,114,90,39,26,8,6,0.5,0.5
2023-03-08T08:00:00,1262A,119.647,29.077,金华市,十五中,细颗粒物(PM2.5),65,68,82,47,42,162,68,105,79,43,42,7,8,0.6,0.6
2023-03-08T08:00:00,1263A,119.686,29.1029,金华市,监测站,颗粒物(PM10),76,102,85,55,43,174,10,58,14,91,68,9,8,1.0,0.8
2023-03-08T08:00:00,1264A,118.8692,28.9398,衢州市,环保大楼,颗粒物(PM10),58,65,81,14,31,161,9,8,8,67,56,8,13,0.8,0.7
2023-03-08T08:00:00,1265A,118.8709,28.9666,衢州市,实验学校,颗粒物(PM10),64,78,77,45,41,157,6,3,3,69,61,4,13,0.7,0.5
2023-03-08T08:00:00,1266A,118.8621,28.9808,衢州市,衢州学院,颗粒物(PM10),71,91,76,45,40,141,3,2,2,71,62,8,12,0.8,0.5
2023-03-08T08:00:00,1267A,119.914,28.4514,丽水市,监测站大楼,颗粒物(PM10),53,56,65,36,34,145,18,96,50,48,26,21,10,0.5,0.4
2023-03-08T08:00:00,1268A,119.93,28.4586,丽水市,莲都小学,颗粒物(PM10),66,82,75,36,32,148,37,56,41,42,32,8,8,0.4,0.4
2023-03-08T08:00:00,1269A,119.879,28.4231,丽水市,余庄前,细颗粒物(PM2.5),73,74,60,53,32,154,11,69,31,37,25,9,10,0.5,0.4
2023-03-08T08:00:00,1270A,117.1959,31.7848,合肥市,明珠广场,细颗粒物(PM2.5),92,107,113,68,52,133,3,2,2,82,72,8,8,1.4,0.9
2023-03-08T08:00:00,1271A,117.3072,31.8764,合肥市,三里街,颗粒物(PM10),102,153,106,66,44,133,4,5,4,92,73,11,9,1.7,1.1
2023-03-08T08:00:00,1272A,117.2588,31.8707,合肥市,琥珀山庄,,,100,92,,42,142,10,6,6,80,73,5,5,1.1,0.6
2023-03-08T08:00:00,1273A,117.1604,31.9052,合肥市,董铺水库,颗粒物(PM10),80,110,92,48,38,127,6,31,9,66,51,5,6,0.5,0.5
2023-03-08T08:00:00,1274A,117.25,31.8571,合肥市,长江中路,细颗粒物(PM2.5),85,107,100,63,51,135,4,2,2,85,67,13,13,1.7,1.3
2023-03-08T08:00:00,1275A,117.266,31.9436,合肥市,庐阳区,颗粒物(PM10),91,132,107,63,47,128,7,5,5,96,76,13,12,1.2,0.8
2023-03-08T08:00:00,1276A,117.336,31.8586,合肥市,瑶海区,颗粒物(PM10),125,200,121,85,46,144,5,25,16,91,64,15,10,1.5,0.8
2023-03-08T08:00:00,1277A,117.3027,31.7964,合肥市,包河区,细颗粒物(PM2.5),89,110,98,66,50,152,4,6,4,75,65,14,13,1.3,1.2
2023-03-08T08:00:00,1278A,117.2776,31.7385,合肥市,滨湖新区,细颗粒物(PM2.5),77,90,81,56,41,148,13,54,34,66,37,9,10,0.8,0.7
2023-03-08T08:00:00,1279A,117.1318,31.8403,合肥市,高新区,细颗粒物(PM2.5),85,97,86,63,44,126,6,18,7,90,67,11,11,1.2,0.8
2023-03-08T08:00:00,1280A,119.3903,26.0543,福州市,鼓山,,,,,,,,,,,,,,,,
2023-03-08T08:00:00,1282A,119.2681,26.0504,福州市,师大,,44,44,51,25,21,144,52,59,55,25,23,5,6,0.5,0.5
2023-03-08T08:00:00,1283A,119.2984,26.1028,福州市,五四北路,,40,40,46,21,22,142,49,49,49,28,25,2,3,0.5,0.5
2023-03-08T08:00:00,1284A,119.2648,26.0768,福州市,杨桥西路,颗粒物(PM10),51,52,51,27,23,137,40,48,44,31,25,5,4,0.5,0.5
2023-03-08T08:00:00,1285A,119.317,26.0746,福州市,紫阳,,42,42,55,22,24,134,45,44,44,29,29,2,4,0.5,0.5
2023-03-08T08:00:00,1286A,118.1608,24.8169,厦门市,溪东,,,,,,,,,,,,,,,,
2023-03-08T08:00:00,1287A,118.1514,24.4767,厦门市,洪文,细颗粒物(PM2.5),97,99,62,72,34,135,21,54,35,69,43,10,5,0.5,0.4
2023-03-08T08:00:00,1288A,118.0661,24.4444,厦门市,鼓浪屿,细颗粒物(PM2.5),79,93,65,58,35,142,29,77,42,64,53,12,8,0.6,0.4
2023-03-08T08:00:00,1290A,115.8931,28.6843,南昌市,省外办,细颗粒物(PM2.5),97,116,130,72,69,163,15,11,11,71,77,12,17,0.5,0.9
2023-03-08T08:00:00,1291A,115.8886,28.7003,南昌市,省林业公司,细颗粒物(PM2.5),92,97,119,68,62,166,14,13,12,76,80,16,16,0.4,0.5
2023-03-08T08:00:00,1292A,115.8126,28.7442,南昌市,林科所,颗粒物(PM10),81,112,93,56,54,166,5,24,15,80,66,13,18,0.6,0.6
2023-03-08T08:00:00,1294A,115.8518,28.687,南昌市,建工学校,,,136,126,65,56,155,,7,7,,72,,16,,1
2023-03-08T08:00:00,1295A,115.8921,28.6424,南昌市,象湖,细颗粒物(PM2.5),94,122,129,70,64,158,3,2,2,93,84,10,13,1.1,1.3
2023-03-08T08:00:00,1296A,115.7423,28.7996,南昌市,武术学校,颗粒物(PM10),57,64,57,38,34,176,23,48,36,13,14,8,11,0.4,0.3
2023-03-08T08:00:00,1298A,115.9314,28.6842,南昌市,省站,颗粒物(PM10),93,135,131,62,62,171,21,7,7,60,66,11,16,0.8,0.9
2023-03-08T08:00:00,1299A,116.9862,36.6114,济南市,科干所,颗粒物(PM10),115,180,128,83,62,181,60,181,131,61,21,15,13,1.2,0.9
2023-03-08T08:00:00,1300A,116.9376,36.665,济南市,农科所,细颗粒物(PM2.5),119,166,133,90,66,169,42,153,104,59,36,11,11,1.0,0.7
2023-03-08T08:00:00,1301A,117.1265,36.6734,济南市,开发区,颗粒物(PM10),107,164,116,77,58,174,70,173,132,42,24,20,15,1.0,0.7
2023-03-08T08:00:00,1303A,117.0624,36.6868,济南市,省种子仓库,细颗粒物(PM2.5),122,173,128,92,71,183,55,176,128,63,33,19,15,0.9,0.7
2023-03-08T08:00:00,1304A,116.9489,36.6447,济南市,机床二厂,细颗粒物(PM2.5),123,193,135,93,70,171,39,158,106,73,27,17,14,1.2,0.8
2023-03-08T08:00:00,1305A,117.0495,36.663,济南市,市监测站,细颗粒物(PM2.5),117,178,128,88,73,184,62,183,135,56,32,17,13,0.9,0.7
2023-03-08T08:00:00,1306A,116.7675,36.5484,济南市,长清党校,细颗粒物(PM2.5),123,176,132,93,71,177,70,158,117,43,22,20,16,0.9,0.6
2023-03-08T08:00:00,1307A,120.6659,36.2403,青岛市,仰口,细颗粒物(PM2.5),119,136,93,90,54,152,76,141,121,32,24,4,5,0.6,0.5
2023-03-08T08:00:00,1310A,120.4134,36.0658,青岛市,市南区东部子站,细颗粒物(PM2.5),125,151,135,95,79,146,62,112,85,50,47,10,12,0.9,0.8
2023-03-08T08:00:00,1311A,120.3664,36.1032,青岛市,四方区子站,细颗粒物(PM2.5),134,168,155,102,90,143,25,96,66,81,55,16,12,1.5,1
2023-03-08T08:00:00,1312A,120.2994,36.054,青岛市,市南区西部子站,细颗粒物(PM2.5),119,132,111,90,69,160,73,120,90,43,44,11,11,0.8,0.7
2023-03-08T08:00:00,1313A,120.4581,36.0858,青岛市,崂山区子站,细颗粒物(PM2.5),119,151,131,90,74,128,61,113,86,44,38,9,9,0.6,0.5
2023-03-08T08:00:00,1314A,120.1983,35.9608,青岛市,黄岛区子站,细颗粒物(PM2.5),129,149,135,98,82,127,59,121,86,55,44,9,8,0.7,0.6
2023-03-08T08:00:00,1315A,120.3999,36.3083,青岛市,城阳区子站,颗粒物(PM10),108,166,158,66,69,176,12,105,71,127,67,14,13,1.6,1.1
2023-03-08T08:00:00,1316A,113.69031,34.76122,郑州市,烟厂,颗粒物(PM10),81,111,122,54,73,191,67,108,64,46,38,16,15,0.9,0.9
2023-03-08T08:00:00,1317A,113.65724,34.77134,郑州市,郑纺机,颗粒物(PM10),80,109,124,52,73,181,67,65,47,42,44,14,13,0.9,0.9
2023-03-08T08:00:00,1318A,113.67526,34.80246,郑州市,银行学校,颗粒物(PM10),83,115,126,48,78,192,88,82,61,33,45,15,16,0.7,0.8
2023-03-08T08:00:00,1319A,113.56746,34.81334,郑州市,供水公司,细颗粒物(PM2.5),72,91,117,52,71,184,80,94,57,29,35,21,16,0.6,0.7
2023-03-08T08:00:00,1320A,113.7329,34.7178,郑州市,经开区管委,颗粒物(PM10),77,103,120,51,69,186,71,105,65,45,43,16,16,0.7,0.7
2023-03-08T08:00:00,1321A,113.73961,34.77172,郑州市,四十七中,颗粒物(PM10),77,104,124,52,75,169,59,93,54,51,43,14,13,0.8,0.8
2023-03-08T08:00:00,1322A,113.60532,34.74838,郑州市,市监测站,细颗粒物(PM2.5),90,113,141,67,88,188,45,101,53,69,51,20,18,0.8,0.8
2023-03-08T08:00:00,1323A,113.64164,34.7525,郑州市,河医大,颗粒物(PM10),79,107,117,54,73,184,54,97,45,52,43,16,14,0.9,0.9
2023-03-08T08:00:00,1324A,113.51488,34.91089,郑州市,岗李水库,,,,,,,,,,,,,,,,
2023-03-08T08:00:00,1325A,114.3677,30.5584,武汉市,东湖梨园,细颗粒物(PM2.5),92,113,102,68,62,71,60,54,42,47,71,8,17,0.9,0.9
2023-03-08T08:00:00,1326A,114.2529,30.558,武汉市,汉阳月湖,颗粒物(PM10),110,169,147,75,71,45,45,16,16,54,107,9,14,1.0,1.4
2023-03-08T08:00:00,1327A,114.282,30.6189,武汉市,汉口花桥,颗粒物(PM10),94,138,137,63,73,37,37,9,9,56,107,8,17,1.2,1.6
2023-03-08T08:00:00,1328A,114.3025,30.5332,武汉市,武昌紫阳,细颗粒物(PM2.5),109,153,111,82,71,47,32,16,16,73,101,12,21,1.2,1.4
2023-03-08T08:00:00,1329A,114.3646,30.6217,武汉市,青山钢花,细颗粒物(PM2.5),107,141,156,80,86,53,35,13,13,62,98,9,19,1.3,1.6
2023-03-08T08:00:00,1330A,114.1566,30.4825,武汉市,沌口新区,颗粒物(PM10),113,176,133,81,73,123,32,16,16,55,95,10,22,1.1,1.3
2023-03-08T08:00:00,1331A,114.3014,30.5944,武汉市,汉口江滩,细颗粒物(PM2.5),103,101,129,77,73,70,40,13,13,62,104,10,17,1.1,1.3
2023-03-08T08:00:00,1333A,114.135,30.6319,武汉市,吴家山,"颗粒物(PM10),细颗粒物(PM2.5)",95,140,163,71,75,40,24,18,18,75,119,9,16,1.1,1.6
2023-03-08T08:00:00,1334A,113.8454,30.2917,武汉市,沉湖七壕,细颗粒物(PM2.5),72,74,83,52,47,114,54,35,35,29,50,11,12,1.0,1
2023-03-08T08:00:00,1335A,113.0833,28.2325,长沙市,经开区环保局,细颗粒物(PM2.5),97,51,78,72,69,147,55,59,57,22,40,2,7,0.7,0.8
2023-03-08T08:00:00,1336A,112.8872,28.2189,长沙市,高开区环保局,细颗粒物(PM2.5),83,52,83,61,60,145,76,74,74,13,29,6,10,0.7,0.7
2023-03-08T08:00:00,1337A,113.0792,28.2053,长沙市,马坡岭,细颗粒物(PM2.5),79,56,85,58,58,157,36,54,51,27,47,5,10,0.6,0.6
2023-03-08T08:00:00,1338A,112.9394,28.19,长沙市,湖南师范大学,细颗粒物(PM2.5),92,57,84,68,65,128,52,51,51,17,29,4,7,0.7,0.7
2023-03-08T08:00:00,1339A,113.0178,28.1322,长沙市,雨花区环保局,细颗粒物(PM2.5),83,45,83,61,60,146,59,50,50,17,46,4,9,0.5,0.8
2023-03-08T08:00:00,1340A,112.9792,28.2597,长沙市,伍家岭,细颗粒物(PM2.5),92,48,95,68,68,151,47,67,63,34,49,4,8,1.0,1.1
2023-03-08T08:00:00,1341A,113.0014,28.1944,长沙市,火车新站,细颗粒物(PM2.5),69,47,90,50,63,131,50,54,53,24,52,6,10,0.8,1.1
2023-03-08T08:00:00,1342A,112.9844,28.1178,长沙市,天心区环保局,细颗粒物(PM2.5),88,66,91,65,67,123,57,53,53,23,43,3,6,0.4,0.7
2023-03-08T08:00:00,1343A,112.8908,28.1308,长沙市,湖南中医药大学,细颗粒物(PM2.5),90,44,90,67,63,144,32,61,53,38,46,2,6,0.8,0.9
2023-03-08T08:00:00,1344A,112.9581,28.3611,长沙市,沙坪,细颗粒物(PM2.5),80,79,82,59,55,142,54,87,73,10,22,5,9,1.0,1
2023-03-08T08:00:00,1345A,113.2347,23.1423,广州市,广雅中学,颗粒物(PM10),60,70,72,34,32,165,22,33,24,79,59,7,6,0.6,0.6
2023-03-08T08:00:00,1346A,113.2612,23.105,广州市,市五中,颗粒物(PM10),60,70,70,41,35,168,46,35,23,55,55,11,10,0.6,0.6
2023-03-08T08:00:00,1348A,113.3478,23.0916,广州市,广东商学院,颗粒物(PM10),66,81,72,36,31,143,6,26,12,90,65,6,8,0.6,0.5
2023-03-08T08:00:00,1349A,113.4332,23.1047,广州市,市八十六中,颗粒物(PM10),86,122,77,43,29,155,1,37,17,92,63,9,8,0.8,0.5
2023-03-08T08:00:00,1350A,113.3505,22.9483,广州市,番禺中学,颗粒物(PM10),51,52,57,27,17,165,35,55,45,69,49,8,9,0.8,0.7
2023-03-08T08:00:00,1351A,113.2146,23.3916,广州市,花都师范,颗粒物(PM10),75,99,93,43,36,170,5,4,3,106,76,11,9,1.1,1
2023-03-08T08:00:00,1352A,113.2597,23.1331,广州市,市监测站,颗粒物(PM10),59,67,68,35,30,155,31,37,19,66,57,8,8,0.4,0.5
2023-03-08T08:00:00,1353A,113.5618,23.312,广州市,九龙镇镇龙,颗粒物(PM10),69,88,98,40,39,194,3,1,1,70,75,5,6,0.6,0.6
2023-03-08T08:00:00,1354A,113.2765,23.1544,广州市,麓湖,颗粒物(PM10),56,62,64,28,28,162,4,23,6,85,60,7,8,0.6,0.6
2023-03-08T08:00:00,1355A,113.443,23.3035,广州市,帽峰山森林公园,颗粒物(PM10),53,55,57,26,23,175,16,55,36,72,50,7,8,0.6,0.6
2023-03-08T08:00:00,1356A,114.1063,22.5545,深圳市,通心岭子站,,,,,,,,,,,,,,,,
2023-03-08T08:00:00,1357A,114.117,22.5625,深圳市,洪湖,颗粒物(PM10),64,77,58,28,20,145,5,87,26,72,37,8,8,0.8,0.5
2023-03-08T08:00:00,1358A,113.987,22.5417,深圳市,华侨城,颗粒物(PM10),62,73,45,34,21,132,17,85,55,36,28,4,4,0.7,0.5
2023-03-08T08:00:00,1359A,113.9181,22.5171,深圳市,南海子站,颗粒物(PM10),61,71,53,39,24,133,27,99,66,47,35,4,6,0.8,0.6
2023-03-08T08:00:00,1360A,114.2458,22.5689,深圳市,盐田,,37,37,34,19,17,138,16,98,37,49,37,7,7,0.6,0.5
2023-03-08T08:00:00,1361A,114.2283,22.7244,深圳市,龙岗,颗粒物(PM10),74,98,52,48,22,147,18,102,50,71,28,4,4,0.9,0.5
2023-03-08T08:00:00,1363A,114.494,22.5422,深圳市,南澳,,22,22,29,10,14,137,36,71,51,16,15,5,6,0.5,0.4
2023-03-08T08:00:00,1364A,114.41,22.6342,深圳市,葵涌,,29,29,34,14,18,143,10,57,34,23,22,5,6,0.5,0.5
2023-03-08T08:00:00,1365A,114.297,22.5978,深圳市,梅沙,,38,38,34,18,15,153,45,98,78,17,7,4,5,0.6,0.5
2023-03-08T08:00:00,1366A,114.0678,22.738,深圳市,观澜,颗粒物(PM10),81,112,69,51,28,133,9,32,26,63,44,6,6,0.8,0.6
2023-03-08T08:00:00,1367A,113.5814,22.2618,珠海市,吉大,,42,34,40,29,23,151,49,112,82,21,22,4,5,0.5,0.3
2023-03-08T08:00:00,1368A,113.4881,22.2335,珠海市,前山,颗粒物(PM10),62,73,58,22,22,129,6,92,33,78,42,4,5,0.8,0.5
2023-03-08T08:00:00,1369A,113.628,22.4251,珠海市,唐家,,36,36,38,21,19,149,23,66,40,32,25,3,5,0.3,0.3
2023-03-08T08:00:00,1370A,113.299,22.2281,珠海市,斗门,颗粒物(PM10),56,61,46,30,22,137,48,98,71,32,20,4,4,0.5,0.3
2023-03-08T08:00:00,1371A,113.1294,23.0067,佛山市,湾梁,颗粒物(PM10),62,73,62,28,28,208,9,87,69,88,41,6,5,0.7,0.6
2023-03-08T08:00:00,1372A,113.1083,23.0478,佛山市,华材职中,细颗粒物(PM2.5),59,53,54,42,24,206,52,98,89,43,33,6,7,0.4,0.3
2023-03-08T08:00:00,1373A,113.144,23.0453,佛山市,南海气象局,,46,45,57,32,27,184,25,75,60,61,43,3,3,0.6,0.5
2023-03-08T08:00:00,1374A,113.2881,22.8094,佛山市,顺德苏岗,颗粒物(PM10),68,86,52,36,23,152,2,54,23,80,50,9,9,0.9,0.7
2023-03-08T08:00:00,1376A,112.8383,22.8678,佛山市,高明孔堂,,32,26,52,22,27,143,44,78,63,21,23,5,6,0.5,0.5
2023-03-08T08:00:00,1377A,112.8836,23.1588,佛山市,三水监测站,颗粒物(PM10),68,85,76,34,33,169,15,25,16,73,63,9,8,0.7,0.6
2023-03-08T08:00:00,1378A,112.867,23.185,佛山市,三水云东海,颗粒物(PM10),56,62,65,36,32,173,9,44,22,54,51,6,7,0.6,0.6
2023-03-08T08:00:00,1379A,113.3769,22.5211,中山市,华柏园,,44,44,43,24,19,132,35,114,78,43,25,7,8,0.6,0.5
2023-03-08T08:00:00,1380A,113.3881,22.5497,中山市,张溪,颗粒物(PM10),59,67,52,29,22,122,15,95,58,64,33,5,5,0.5,0.4
2023-03-08T08:00:00,1381A,113.4075,22.5111,中山市,紫马岭,颗粒物(PM10),60,70,40,22,17,124,14,78,54,35,22,8,6,0.6,0.4
2023-03-08T08:00:00,1382A,113.4411,22.4853,中山市,长江旅游区,,25,7,27,17,17,122,21,64,41,6,14,9,11,0.3,0.3
2023-03-08T08:00:00,1383A,113.1064,22.6058,江门市,北街,,50,50,50,32,25,146,61,88,74,31,26,7,8,0.6,0.5
2023-03-08T08:00:00,1384A,113.0731,22.5835,江门市,西区,颗粒物(PM10),51,51,60,32,33,149,21,100,74,70,32,7,6,0.8,0.4
2023-03-08T08:00:00,1385A,113.0219,22.5311,江门市,圭峰西,,42,39,51,29,30,144,69,97,85,22,26,5,6,0.8,0.5
2023-03-08T08:00:00,1386A,113.0828,22.5947,江门市,东湖,颗粒物(PM10),54,57,62,35,35,154,33,98,79,53,28,4,5,0.7,0.5
2023-03-08T08:00:00,1389A,113.7547,23.0494,东莞市,莞城梨川,颗粒物(PM10),73,96,63,49,27,180,24,64,53,69,46,16,11,0.6,0.4
2023-03-08T08:00:00,1390A,113.7944,23.0128,东莞市,东城石井,颗粒物(PM10),58,66,55,32,25,175,18,50,41,52,38,10,10,0.7,0.6
2023-03-08T08:00:00,1391A,113.7383,22.9658,东莞市,南城西平,颗粒物(PM10),75,100,71,39,29,149,7,13,7,92,62,10,10,0.5,0.4
2023-03-08T08:00:00,1392A,114.4183,23.0528,惠州市,河南岸金山湖子站,,50,50,68,23,27,173,64,44,44,25,32,6,6,0.5,0.4
2023-03-08T08:00:00,1393A,114.4053,23.0822,惠州市,下埔横江三路子站,颗粒物(PM10),54,57,62,27,28,182,59,90,55,35,31,13,8,0.5,0.5
2023-03-08T08:00:00,1394A,114.4103,23.1142,惠州市,江北云山西路子站,细颗粒物(PM2.5),59,64,63,42,35,186,11,100,43,62,32,9,9,0.6,0.5
2023-03-08T08:00:00,1395A,114.4645,22.7833,惠州市,惠阳区承修路船湖子站,颗粒物(PM10),58,65,57,39,27,134,16,88,39,58,36,6,6,0.8,0.6
2023-03-08T08:00:00,1396A,114.5317,22.7422,惠州市,大亚湾管委会子站,,44,44,69,29,26,128,3,55,18,57,44,6,6,1.0,0.7
2023-03-08T08:00:00,1397A,112.4267,23.0706,肇庆市,睦岗子站,颗粒物(PM10),56,62,56,32,25,140,6,74,30,51,39,21,16,0.7,0.5
2023-03-08T08:00:00,1398A,112.4645,23.0475,肇庆市,城中子站,颗粒物(PM10),59,67,57,35,26,137,21,71,50,52,34,25,17,0.6,0.5
2023-03-08T08:00:00,1399A,112.5544,23.1522,肇庆市,坑口子站,,33,33,46,18,25,147,31,65,49,27,28,9,12,0.3,0.3
2023-03-08T08:00:00,1400A,112.4753,23.1,肇庆市,七星岩子站,,,,,,,,,,,,,,,,
2023-03-08T08:00:00,1401A,108.3103,22.7881,南宁市,二十一中,,47,47,53,21,27,138,75,92,83,13,14,8,9,0.7,0.8
2023-03-08T08:00:00,1402A,108.3141,22.8528,南宁市,北湖,颗粒物(PM10),53,55,59,22,29,130,71,92,81,13,13,8,9,0.6,0.7
2023-03-08T08:00:00,1403A,108.3206,22.8225,南宁市,市监测站,,46,46,59,24,29,127,71,80,77,19,26,8,10,0.6,0.7
2023-03-08T08:00:00,1404A,108.3829,22.8037,南宁市,大自然花园,,47,47,53,21,26,118,68,83,75,13,13,6,7,0.7,0.8
2023-03-08T08:00:00,1405A,108.4394,22.7904,南宁市,仙葫,,48,48,52,22,28,133,64,92,81,17,13,8,9,0.6,0.7
2023-03-08T08:00:00,1406A,108.2397,22.8467,南宁市,区农职院,颗粒物(PM10),54,58,55,24,28,129,67,83,76,25,25,9,9,0.6,0.7
2023-03-08T08:00:00,1407A,108.3275,22.735,南宁市,英华嘉园,,49,49,55,22,29,116,57,70,62,23,24,7,9,0.7,0.7
2023-03-08T08:00:00,1408A,108.2257,22.7757,南宁市,沙井镇街道办,颗粒物(PM10),52,54,60,32,32,125,55,68,63,33,28,8,8,0.9,0.9
2023-03-08T08:00:00,1409A,110.576,19.9507,海口市,东寨港,,,21,28,18,12,60,6,22,11,,,5,5,0.6,0.6
2023-03-08T08:00:00,1410A,110.3232,20.0574,海口市,海南大学,,32,32,38,14,14,111,63,74,68,10,8,6,7,0.5,0.5
2023-03-08T08:00:00,1411A,110.283,20.0053,海口市,秀英海南医院,,37,37,40,16,13,103,41,67,61,27,11,14,5,0.7,0.6
2023-03-08T08:00:00,1412A,110.338,19.9969,海口市,海南师范大学,,37,37,41,15,14,105,56,67,62,15,9,8,5,0.5,0.5
2023-03-08T08:00:00,1413A,110.33,20.0356,海口市,龙华路环保局宿舍,,35,35,38,14,15,102,52,70,62,17,9,8,7,0.6,0.6
2023-03-08T08:00:00,1414A,106.3787,29.8279,重庆市,缙云山,颗粒物(PM10),60,70,61,39,42,84,67,84,73,15,22,12,9,0.2,0.4
2023-03-08T08:00:00,1416A,106.4213,29.8253,重庆市,天生,颗粒物(PM10),76,101,78,55,58,86,2,2,2,32,39,7,7,1.1,1
2023-03-08T08:00:00,1417A,106.6263,29.7228,重庆市,两路,细颗粒物(PM2.5),70,87,76,51,52,69,4,17,12,57,45,9,9,1.5,1.1
2023-03-08T08:00:00,1418A,106.2953,29.5983,重庆市,虎溪,细颗粒物(PM2.5),79,69,73,58,62,91,4,4,4,33,45,5,5,1.3,1.2
2023-03-08T08:00:00,1419A,106.5777,29.5102,重庆市,南坪,细颗粒物(PM2.5),103,93,87,77,64,79,24,23,20,18,33,9,9,1.1,1
2023-03-08T08:00:00,1420A,106.6556,29.6277,重庆市,唐家沱,颗粒物(PM10),61,71,72,42,52,65,1,1,1,31,44,6,7,1.2,1.1
2023-03-08T08:00:00,1421A,106.6349,29.4906,重庆市,茶园,细颗粒物(PM2.5),94,90,87,70,60,64,5,5,5,39,47,6,6,1.2,0.9
2023-03-08T08:00:00,1422A,106.3754,29.4572,重庆市,白市驿,细颗粒物(PM2.5),107,101,76,80,62,65,7,20,16,60,51,27,9,1.8,1.2
2023-03-08T08:00:00,1425A,106.6205,29.7166,重庆市,空港,细颗粒物(PM2.5),82,86,70,60,58,78,4,30,17,60,40,8,9,1.3,1
2023-03-08T08:00:00,1426A,106.4782,29.4875,重庆市,新山村,细颗粒物(PM2.5),113,125,98,85,66,47,5,5,5,62,70,12,8,1.3,1.1
2023-03-08T08:00:00,1427A,106.5616,29.6453,重庆市,礼嘉,颗粒物(PM10),73,96,91,48,56,55,4,5,4,53,59,9,10,1.4,1.3
2023-03-08T08:00:00,1428A,106.4522,29.7091,重庆市,蔡家,"颗粒物(PM10),细颗粒物(PM2.5)",80,109,81,59,56,92,7,9,8,29,30,6,6,1.3,1.1
2023-03-08T08:00:00,1429A,106.5093,29.3917,重庆市,鱼新街,细颗粒物(PM2.5),93,115,91,69,67,71,5,4,4,39,48,45,11,1.4,1.2
2023-03-08T08:00:00,1431A,103.9728,30.7236,成都市,金泉两河,细颗粒物(PM2.5),94,112,91,70,64,89,0,8,4,37,36,1,1,0.9,0.8
2023-03-08T08:00:00,1432A,104.176,30.6872,成都市,十里店,细颗粒物(PM2.5),139,127,103,106,74,89,6,22,15,53,48,3,3,0.9,0.8
2023-03-08T08:00:00,1433A,104.079,30.5706,成都市,三瓦窑,细颗粒物(PM2.5),124,124,104,94,73,73,1,5,4,50,55,3,2,1.1,0.8
2023-03-08T08:00:00,1434A,104.1114,30.63,成都市,沙河铺,细颗粒物(PM2.5),133,130,94,101,75,85,2,7,4,39,43,4,5,1.0,0.9
2023-03-08T08:00:00,1437A,104.0786,30.6531,成都市,君平街,细颗粒物(PM2.5),149,131,111,114,86,100,6,29,17,51,49,4,4,1.0,0.8
2023-03-08T08:00:00,1438A,103.613,31.0283,成都市,灵岩寺,,,9,58,8,41,89,63,72,65,13,19,,9,0.5,0.7
2023-03-08T08:00:00,1439A,106.6899,26.5998,贵阳市,马鞍山,,25,22,30,17,26,45,34,37,35,12,23,4,5,1.1,1.1
2023-03-08T08:00:00,1440A,106.6971,26.5694,贵阳市,市环保站,,,,,,,,,,,,,,,,
2023-03-08T08:00:00,1441A,106.6243,26.6266,贵阳市,鉴湖路,,46,46,38,31,26,73,60,60,60,16,21,3,4,0.5,0.6
2023-03-08T08:00:00,1442A,106.7487,26.6343,贵阳市,燕子冲,,49,34,43,34,41,48,34,36,34,19,24,5,6,0.7,0.7
2023-03-08T08:00:00,1443A,106.6555,26.4365,贵阳市,碧云窝,,29,29,38,19,27,65,54,48,48,14,31,5,8,0.5,0.6
2023-03-08T08:00:00,1444A,106.694,26.5161,贵阳市,中院村,,39,39,42,24,32,44,12,43,35,46,32,16,13,1.1,0.8
2023-03-08T08:00:00,1445A,106.7109,26.6027,贵阳市,红边门,细颗粒物(PM2.5),73,53,38,53,35,61,45,50,48,35,28,11,11,0.8,0.9
2023-03-08T08:00:00,1446A,106.7164,26.5699,贵阳市,新华路,,35,29,33,24,30,51,48,46,42,23,24,5,5,0.8,0.9
2023-03-08T08:00:00,1447A,106.674,26.5424,贵阳市,太慈桥,,24,24,38,12,26,46,16,34,28,31,30,2,3,0.6,0.7
2023-03-08T08:00:00,1450A,102.8204,24.8886,昆明市,呈贡新区,细颗粒物(PM2.5),78,66,61,57,47,143,50,111,99,54,18,6,6,0.9,0.7
2023-03-08T08:00:00,1451A,102.6251,24.9608,昆明市,西山森林公园,细颗粒物(PM2.5),60,60,53,43,40,142,132,123,123,9,10,8,8,1.1,0.9
2023-03-08T08:00:00,1452A,102.7252,25.0902,昆明市,龙泉镇,颗粒物(PM10),71,92,75,50,46,141,18,88,63,83,41,9,9,0.9,0.7
2023-03-08T08:00:00,1453A,102.7266,25.0375,昆明市,东风东路,细颗粒物(PM2.5),74,72,62,54,46,131,42,106,98,66,22,6,8,0.9,0.8
2023-03-08T08:00:00,1454A,102.6742,25.0669,昆明市,金鼎山,细颗粒物(PM2.5),83,76,66,61,50,132,53,95,88,62,28,6,6,0.9,0.7
2023-03-08T08:00:00,1455A,102.6644,25.0401,昆明市,碧鸡广场,细颗粒物(PM2.5),70,75,68,51,43,136,51,73,66,69,37,5,6,0.8,0.7
2023-03-08T08:00:00,1456A,91.1319,29.6514,拉萨市,八廓街,,22,13,26,5,11,105,70,77,74,16,17,7,8,0.2,0.2
2023-03-08T08:00:00,1457A,91.1221,29.6747,拉萨市,市环保局,,20,13,20,4,7,119,64,84,76,19,13,4,4,0.4,0.4
2023-03-08T08:00:00,1458A,91.0874,29.6475,拉萨市,区监测站,,22,11,15,1,4,112,68,88,80,10,12,6,6,0.1,0.1
2023-03-08T08:00:00,1459A,91.1774,29.6541,拉萨市,西藏大学,,20,10,16,2,6,109,63,84,78,15,10,3,4,0.6,0.5
2023-03-08T08:00:00,1460A,90.9798,29.6588,拉萨市,区辐射站,,14,12,27,5,12,119,44,94,64,27,15,7,7,0.5,0.5
2023-03-08T08:00:00,1461A,91.0834,29.6292,拉萨市,拉萨火车站,,22,12,20,4,5,114,68,99,84,11,10,5,5,0.6,0.4
2023-03-08T08:00:00,1462A,108.882,34.2749,西安市,高压开关厂,细颗粒物(PM2.5),103,130,188,77,102,130,20,37,30,70,88,18,15,0.7,1
2023-03-08T08:00:00,1463A,108.993,34.2629,西安市,兴庆小区,颗粒物(PM10),77,103,149,48,97,98,10,39,24,84,103,7,9,0.7,1
2023-03-08T08:00:00,1464A,109.06,34.2572,西安市,纺织城,颗粒物(PM10),78,106,168,54,93,93,8,9,8,75,100,5,7,0.8,1
2023-03-08T08:00:00,1465A,108.9356,34.2173,西安市,小寨,颗粒物(PM10),82,114,161,58,91,134,8,7,6,88,97,12,11,0.7,0.7
2023-03-08T08:00:00,1466A,108.954,34.2713,西安市,市人民体育场,细颗粒物(PM2.5),99,117,157,74,103,120,14,10,10,71,102,11,9,0.8,1
2023-03-08T08:00:00,1467A,108.8922,34.2322,西安市,高新西区,细颗粒物(PM2.5),89,106,152,66,97,117,23,25,24,68,83,16,13,0.8,0.9
2023-03-08T08:00:00,1468A,108.935,34.3474,西安市,经开区,细颗粒物(PM2.5),109,144,155,82,102,90,20,62,44,73,92,14,10,0.6,0.8
2023-03-08T08:00:00,1469A,108.906,34.1546,西安市,长安区,颗粒物(PM10),92,133,139,42,73,160,6,5,4,73,71,8,10,0.5,0.6
2023-03-08T08:00:00,1471A,109.2186,34.3731,西安市,临潼区,颗粒物(PM10),66,81,136,40,80,159,51,159,119,63,50,13,16,0.8,0.8
2023-03-08T08:00:00,1472A,108.869,34.378,西安市,草滩,颗粒物(PM10),118,185,163,84,65,105,8,8,8,84,95,34,17,0.3,0.4
2023-03-08T08:00:00,1473A,108.985,34.1978,西安市,曲江文化产业集团,颗粒物(PM10),86,122,151,50,84,152,12,9,8,82,91,10,9,0.8,0.9
2023-03-08T08:00:00,1474A,109.051,34.3213,西安市,广运潭,细颗粒物(PM2.5),82,100,148,60,90,99,11,9,9,77,96,7,9,0.5,0.7
2023-03-08T08:00:00,1476A,103.631,36.1031,兰州市,兰炼宾馆,颗粒物(PM10),99,148,125,70,62,77,5,5,5,63,74,51,54,1.4,1.2
2023-03-08T08:00:00,1477A,104.1373,35.9454,兰州市,榆中兰大校区,,,,,,,,,,,,,,,,
2023-03-08T08:00:00,1478A,103.8412,36.0726,兰州市,生物制品所,颗粒物(PM10),97,143,120,63,56,65,5,6,5,64,76,12,21,1.9,1.3
2023-03-08T08:00:00,1479A,103.831,36.0464,兰州市,铁路设计院,颗粒物(PM10),89,128,114,63,64,78,8,8,7,72,80,22,31,2.6,1.6
2023-03-08T08:00:00,1483A,101.524,36.6867,西宁市,第五水厂,,,,,,,,,,,,,,,,
2023-03-08T08:00:00,1484A,105.9512,38.6016,银川市,贺兰山马莲口,颗粒物(PM10),65,80,49,23,15,109,74,96,82,17,12,16,10,0.2,0.2
2023-03-08T08:00:00,1488A,106.2328,38.4975,银川市,贺兰山东路,颗粒物(PM10),74,98,95,32,26,100,27,52,37,47,36,11,14,0.5,0.5
2023-03-08T08:00:00,1489A,106.1358,38.5036,银川市,学院路,颗粒物(PM10),75,100,87,33,24,99,11,40,26,62,40,15,16,1.0,0.8
2023-03-08T08:00:00,1490A,87.5801,43.8303,乌鲁木齐市,监测站,,50,50,99,20,53,98,36,12,10,53,62,8,10,1.1,1.4
2023-03-08T08:00:00,1491A,87.6046,43.768,乌鲁木齐市,收费所,颗粒物(PM10),91,132,127,24,49,101,97,70,70,25,46,7,6,0.3,0.6
2023-03-08T08:00:00,1492A,87.4754,43.9469,乌鲁木齐市,新疆农科院农场,,,,,,,,,,,,,,,,
2023-03-08T08:00:00,1493A,87.5525,43.8711,乌鲁木齐市,铁路局,颗粒物(PM10),52,54,100,28,65,109,2,3,2,86,69,5,7,1.1,1.1
2023-03-08T08:00:00,1494A,87.6432,43.831,乌鲁木齐市,三十一中学,,44,44,91,19,48,106,82,67,67,8,25,18,10,0.5,0.8
2023-03-08T08:00:00,1496A,87.7216,44.1747,乌鲁木齐市,米东区环保局,细颗粒物(PM2.5),140,221,150,107,82,172,50,125,98,54,44,8,12,1.2,1.1
2023-03-08T08:00:00,1508A,112.9433,27.8614,湘潭市,板塘,细颗粒物(PM2.5),127,90,88,96,72,142,25,36,34,28,35,10,14,0.9,1
2023-03-08T08:00:00,1511A,112.9118,27.8403,湘潭市,市监测站,细颗粒物(PM2.5),133,81,86,101,70,139,23,43,41,52,54,8,14,0.9,0.9
2023-03-08T08:00:00,1512A,112.8937,27.8728,湘潭市,江麓,细颗粒物(PM2.5),113,97,105,85,71,158,39,52,51,30,38,8,11,0.8,0.8
2023-03-08T08:00:00,1513A,112.9227,27.8159,湘潭市,岳塘,细颗粒物(PM2.5),124,93,94,94,70,136,30,49,46,31,37,5,6,1.1,0.9
2023-03-08T08:00:00,1514A,112.9074,27.9119,湘潭市,科大,细颗粒物(PM2.5),99,76,101,74,69,150,34,45,43,22,41,5,9,0.9,1
2023-03-08T08:00:00,1515A,113.135,27.8244,株洲市,天台山庄,细颗粒物(PM2.5),138,83,96,105,80,159,25,38,36,48,56,4,10,1.0,1.3
2023-03-08T08:00:00,1518A,113.095,27.8867,株洲市,株冶医院,细颗粒物(PM2.5),138,88,97,105,76,147,19,35,30,50,51,4,9,0.8,0.8
2023-03-08T08:00:00,1519A,113.167,27.8667,株洲市,市四中,细颗粒物(PM2.5),144,75,85,110,80,149,20,21,21,44,50,8,13,1.3,1.2
2023-03-08T08:00:00,1520A,113.143,27.8381,株洲市,火车站,细颗粒物(PM2.5),142,92,97,108,80,153,20,39,33,45,48,3,9,0.9,1.1
2023-03-08T08:00:00,1524A,113.13,27.8528,株洲市,市监测站,细颗粒物(PM2.5),150,90,98,115,85,150,24,38,35,46,53,6,11,1.0,1.3
2023-03-08T08:00:00,1552A,106.805,26.3003,贵阳市,桐木岭,,,,,,,,,,,,,,,,
2023-03-08T08:00:00,1559A,113.251,27.8336,株洲市,大京风景区,细颗粒物(PM2.5),105,75,74,79,63,162,23,37,25,23,18,4,7,1.0,0.8
2023-03-08T08:00:00,1562A,113.0048,27.9153,湘潭市,昭山,细颗粒物(PM2.5),127,75,87,96,65,141,13,33,30,50,48,2,6,0.6,0.5
2023-03-08T08:00:00,1564A,112.4876,27.9164,湘潭市,韶山,颗粒物(PM10),55,60,75,23,36,141,46,69,57,15,19,5,8,0.7,0.7
2023-03-08T08:00:00,1585A,109.8756,40.6532,包头市,市环境监测站,颗粒物(PM10),61,71,95,27,30,110,6,57,24,62,36,14,16,1.0,0.8
2023-03-08T08:00:00,1587A,109.9991,40.5842,包头市,包头八中,颗粒物(PM10),74,97,106,48,29,111,3,41,17,67,38,22,10,1.9,0.8
2023-03-08T08:00:00,1588A,109.8538,40.6821,包头市,青山宾馆,颗粒物(PM10),52,54,92,28,32,106,6,38,20,63,38,12,14,1.0,0.8
2023-03-08T08:00:00,1589A,109.8642,40.6288,包头市,惠龙物流,颗粒物(PM10),65,80,74,39,23,99,8,56,23,62,44,9,11,0.8,0.8
2023-03-08T08:00:00,1590A,110.0377,40.5546,包头市,东河鸿龙湾,颗粒物(PM10),69,87,100,20,22,105,9,48,17,61,32,11,11,0.7,0.8
2023-03-08T08:00:00,1591A,110.0023,39.8129,鄂尔多斯市,综合楼,颗粒物(PM10),70,90,205,19,35,97,38,77,62,50,22,11,9,0.9,0.5
2023-03-08T08:00:00,1592A,109.9486,39.8261,鄂尔多斯市,巴音孟克林场办事处,颗粒物(PM10),64,78,188,14,35,86,79,66,65,19,16,7,10,0.4,0.4
2023-03-08T08:00:00,1593A,109.7736,39.5986,鄂尔多斯市,康泽苑,颗粒物(PM10),74,97,190,24,38,100,30,69,53,36,17,10,10,0.5,0.4
2023-03-08T08:00:00,1594A,109.8119,39.5989,鄂尔多斯市,华泰汽车城,颗粒物(PM10),79,107,191,29,43,102,16,69,38,35,19,8,8,0.7,0.5
2023-03-08T08:00:00,1595A,109.9734,39.7884,鄂尔多斯市,奥林花园,颗粒物(PM10),74,97,224,22,36,101,25,77,36,59,29,8,9,0.6,0.4
2023-03-08T08:00:00,1597A,122.2703,40.7094,营口市,大庆路,颗粒物(PM10),59,68,97,29,64,119,45,71,54,32,33,8,8,0.7,1
2023-03-08T08:00:00,1598A,122.2150,40.6511,营口市,镜湖西路,,43,43,96,25,58,132,48,84,67,25,26,9,8,0.7,0.8
2023-03-08T08:00:00,1599A,122.1658,40.6789,营口市,西炮台,颗粒物(PM10),51,52,92,27,58,134,46,71,62,31,26,9,6,0.6,0.8
2023-03-08T08:00:00,1600A,124.3303,40.0625,丹东市,江湾东路,细颗粒物(PM2.5),99,110,88,74,56,139,72,99,94,41,16,14,16,0.8,0.7
2023-03-08T08:00:00,1601A,124.4256,40.1503,丹东市,临江后街,细颗粒物(PM2.5),88,110,87,65,49,138,57,94,88,51,15,11,11,1.0,0.8
2023-03-08T08:00:00,1602A,124.3933,40.1461,丹东市,元宝山,细颗粒物(PM2.5),97,112,81,72,52,132,59,80,76,39,16,14,13,1.1,0.9
2023-03-08T08:00:00,1603A,124.3633,40.1092,丹东市,民主桥,细颗粒物(PM2.5),84,101,82,62,47,133,64,98,91,51,17,15,13,0.9,0.8
2023-03-08T08:00:00,1604A,122.0303,41.1489,盘锦市,开发区,,50,50,78,18,52,136,59,86,67,16,19,7,7,0.5,0.7
2023-03-08T08:00:00,1605A,122.0485,41.0883,盘锦市,兴隆台,,48,48,82,18,53,130,56,84,64,20,19,9,9,0.4,0.6
2023-03-08T08:00:00,1606A,121.8297,41.1028,盘锦市,新生街道,,48,48,64,19,52,132,53,53,52,25,30,10,10,0.5,0.6
2023-03-08T08:00:00,1607A,120.9092,40.7136,葫芦岛市,龙港区,颗粒物(PM10),67,83,104,30,81,134,50,35,35,24,30,19,23,0.5,0.9
2023-03-08T08:00:00,1608A,120.8392,40.7514,葫芦岛市,化工街,颗粒物(PM10),69,88,124,17,79,126,66,60,60,20,37,9,12,1.0,1.2
2023-03-08T08:00:00,1609A,120.8341,40.7073,葫芦岛市,新区,颗粒物(PM10),53,55,104,11,82,128,65,52,52,18,36,14,18,0.4,1
2023-03-08T08:00:00,1610A,120.8695,40.7677,葫芦岛市,东城区,,46,46,115,9,83,124,63,59,59,15,39,11,17,0.5,1.1
2023-03-08T08:00:00,1611A,118.5819,24.9117,泉州市,涂山街,颗粒物(PM10),64,77,76,39,33,146,45,41,35,35,33,14,11,0.7,0.7
2023-03-08T08:00:00,1612A,118.5972,24.8978,泉州市,津头埔,颗粒物(PM10),63,75,71,40,33,147,44,47,39,38,36,11,9,0.7,0.6
2023-03-08T08:00:00,1613A,118.6663,24.9424,泉州市,万安,颗粒物(PM10),61,71,65,42,36,156,31,48,44,46,36,10,10,0.7,0.5
2023-03-08T08:00:00,1614A,118.6117,24.9604,泉州市,清源山,,,,,,,,,,,,,,,,
2023-03-08T08:00:00,1616A,117.6795,36.229,济南市,技术学院,颗粒物(PM10),112,173,130,82,67,182,17,56,43,91,50,19,17,2.0,1.2
2023-03-08T08:00:00,1618A,118.3429,35.0532,临沂市,沂河小区,细颗粒物(PM2.5),127,163,128,96,76,154,28,47,42,68,49,32,24,0.7,0.5
2023-03-08T08:00:00,1619A,118.295,35.0583,临沂市,鲁南制药厂,细颗粒物(PM2.5),112,153,123,84,69,171,33,66,53,74,53,32,26,0.9,0.6
2023-03-08T08:00:00,1620A,118.2794,34.9976,临沂市,新光毛纺厂,细颗粒物(PM2.5),115,149,137,87,80,157,31,54,47,68,54,30,32,0.7,0.6
2023-03-08T08:00:00,1621A,118.3956,35.0888,临沂市,河东保险公司,细颗粒物(PM2.5),119,132,118,90,72,169,50,63,57,63,50,33,24,1.0,0.8
2023-03-08T08:00:00,1622A,116.3032,37.4674,德州市,儿童乐园,细颗粒物(PM2.5),247,293,158,197,98,190,46,130,85,53,35,9,14,1.4,0.9
2023-03-08T08:00:00,1624A,116.2991,37.4451,德州市,监理站,细颗粒物(PM2.5),267,329,188,217,113,176,46,120,79,48,26,14,19,1.3,0.8
2023-03-08T08:00:00,1625A,115.9848,36.4372,聊城市,区政府,颗粒物(PM10),120,189,167,68,93,179,55,116,79,36,27,16,18,0.5,0.6
2023-03-08T08:00:00,1628A,118.0062,37.3803,滨州市,市环保局,细颗粒物(PM2.5),176,227,182,133,101,183,45,73,69,52,47,12,16,1.0,0.9
2023-03-08T08:00:00,1629A,118.0018,37.3617,滨州市,第二水厂,细颗粒物(PM2.5),172,234,184,130,99,186,50,49,49,56,60,11,14,1.0,0.9
2023-03-08T08:00:00,1630A,117.9776,37.393,滨州市,北中新校,细颗粒物(PM2.5),168,217,172,127,88,185,35,100,72,66,52,6,10,0.9,0.9
2023-03-08T08:00:00,1631A,118.0414,36.8103,淄博市,人民公园,细颗粒物(PM2.5),117,136,130,88,80,178,78,119,108,53,38,29,21,0.7,0.8
2023-03-08T08:00:00,1633A,117.8525,36.4847,淄博市,双山,细颗粒物(PM2.5),98,119,103,73,59,173,87,152,125,42,26,24,18,1.2,0.8
2023-03-08T08:00:00,1634A,117.9592,36.6331,淄博市,气象站,"颗粒物(PM10),细颗粒物(PM2.5)",92,134,120,68,59,173,81,150,129,47,29,24,20,0.8,0.5
2023-03-08T08:00:00,1635A,118.3092,36.8194,淄博市,莆田园,细颗粒物(PM2.5),107,161,119,80,59,172,40,128,111,74,30,17,20,1.1,1.4
2023-03-08T08:00:00,1637A,117.558,34.8438,枣庄市,市中区政府,细颗粒物(PM2.5),100,134,127,75,66,168,25,72,30,84,63,15,15,1.4,1.2
2023-03-08T08:00:00,1638A,117.2852,34.7837,枣庄市,薛城环保局,细颗粒物(PM2.5),104,110,111,78,64,174,61,94,78,37,35,23,20,0.9,0.8
2023-03-08T08:00:00,1639A,117.5852,34.7745,枣庄市,峄城区政府,细颗粒物(PM2.5),83,102,121,61,56,171,74,93,68,32,39,16,16,0.8,0.7
2023-03-08T08:00:00,1640A,117.7276,34.5578,枣庄市,台儿庄区环保局,细颗粒物(PM2.5),117,163,121,88,62,166,9,13,9,83,63,17,16,1.1,0.9
2023-03-08T08:00:00,1641A,117.4518,35.0992,枣庄市,山亭区环保局,细颗粒物(PM2.5),92,112,99,68,51,177,61,122,94,44,34,15,13,1.1,0.8
2023-03-08T08:00:00,1642A,121.2514,37.5639,烟台市,开发区,细颗粒物(PM2.5),64,34,115,46,81,150,49,119,86,32,45,10,15,0.6,0.7
2023-03-08T08:00:00,1643A,121.3719,37.5433,烟台市,轴承厂,细颗粒物(PM2.5),90,80,112,67,85,188,47,157,106,47,32,5,8,0.7,0.8
2023-03-08T08:00:00,1644A,121.3181,37.5436,烟台市,西郊化工站,细颗粒物(PM2.5),89,97,133,66,85,183,32,164,104,61,39,9,12,0.6,0.7
2023-03-08T08:00:00,1645A,121.4478,37.4822,烟台市,莱山环保局,细颗粒物(PM2.5),78,88,121,57,82,180,62,160,116,37,33,9,12,1.1,1.2
2023-03-08T08:00:00,1646A,121.2611,37.4967,烟台市,福山环保局,细颗粒物(PM2.5),89,105,146,66,82,178,27,110,80,66,42,9,12,1.2,1.1
2023-03-08T08:00:00,1650A,119.1437,36.7023,潍坊市,环保局,细颗粒物(PM2.5),103,149,141,77,78,183,15,92,77,93,50,9,12,1.2,0.9
2023-03-08T08:00:00,1653A,116.6251,35.4302,济宁市,火炬城,细颗粒物(PM2.5),92,90,95,68,63,174,30,97,72,46,28,10,14,1.2,0.9
2023-03-08T08:00:00,1655A,116.5491,35.4042,济宁市,电化厂,细颗粒物(PM2.5),113,136,122,85,74,173,32,67,57,47,32,11,14,1.0,0.8
2023-03-08T08:00:00,1656A,117.1437,36.1937,泰安市,监测站,细颗粒物(PM2.5),125,149,135,95,88,172,26,127,78,68,32,10,11,1.4,1
2023-03-08T08:00:00,1657A,117.0885,36.2017,泰安市,人口学校,细颗粒物(PM2.5),99,127,126,74,78,194,66,159,101,54,28,14,15,0.6,0.6
2023-03-08T08:00:00,1658A,117.1089,36.1758,泰安市,电力学校,细颗粒物(PM2.5),103,151,138,77,76,179,14,105,29,91,56,18,18,1.1,0.9
2023-03-08T08:00:00,1659A,119.471,35.4209,日照市,监测站,细颗粒物(PM2.5),127,163,173,96,97,86,9,15,7,96,103,35,18,1.5,1.3
2023-03-08T08:00:00,1660A,119.523,35.4216,日照市,市政府广场,细颗粒物(PM2.5),117,139,157,88,92,109,32,63,45,72,62,40,18,1.8,1.3
2023-03-08T08:00:00,1661A,119.5587,35.4044,日照市,港务局,细颗粒物(PM2.5),127,168,171,96,93,110,11,21,14,109,90,37,17,1.6,1
2023-03-08T08:00:00,1662A,122.1214,37.4236,威海市,华夏技校,细颗粒物(PM2.5),132,124,109,100,76,183,62,167,113,50,40,4,6,0.7,0.7
2023-03-08T08:00:00,1663A,122.0508,37.5236,威海市,山大分校,细颗粒物(PM2.5),123,147,110,93,65,202,55,180,119,57,31,4,6,0.6,0.5
2023-03-08T08:00:00,1664A,122.1067,37.5072,威海市,市监测站,细颗粒物(PM2.5),129,132,89,98,57,207,46,181,123,63,34,6,7,1.0,0.7
2023-03-08T08:00:00,1666A,118.6614,37.4309,东营市,市环保局,细颗粒物(PM2.5),147,171,166,112,97,234,27,88,52,57,57,14,20,1.3,1.2
2023-03-08T08:00:00,1669A,113.5824,24.7733,韶关市,市八中,颗粒物(PM10),61,71,66,38,32,174,19,39,28,54,40,15,18,0.7,0.6
2023-03-08T08:00:00,1671A,113.5917,24.7972,韶关市,园林处,细颗粒物(PM2.5),60,65,65,43,37,161,11,19,10,54,44,33,19,1.0,0.8
2023-03-08T08:00:00,1672A,113.6735,24.7791,韶关市,韶关学院,细颗粒物(PM2.5),63,58,65,45,36,188,22,65,34,43,32,15,21,0.6,0.7
2023-03-08T08:00:00,1673A,113.5971,24.6863,韶关市,曲江监测站,颗粒物(PM10),59,67,63,35,31,182,51,60,55,49,39,12,13,0.7,0.6
2023-03-08T08:00:00,1674A,116.6794,23.3667,汕头市,金平子站,细颗粒物(PM2.5),97,89,51,72,32,134,8,67,43,64,32,36,19,1.1,0.7
2023-03-08T08:00:00,1675A,116.7244,23.3633,汕头市,龙湖子站,细颗粒物(PM2.5),63,57,47,45,25,136,36,86,65,54,28,16,7,0.9,0.6
2023-03-08T08:00:00,1676A,116.7258,23.2775,汕头市,濠江子站,细颗粒物(PM2.5),77,66,46,56,29,130,30,98,63,55,26,18,13,1.3,0.7
2023-03-08T08:00:00,1677A,116.7519,23.4714,汕头市,澄海子站,,49,49,48,33,31,138,53,79,60,33,29,15,10,0.7,0.6
2023-03-08T08:00:00,1678A,116.6092,23.2539,汕头市,潮阳子站,颗粒物(PM10),56,61,51,38,24,122,34,60,51,47,25,9,8,1.1,0.7
2023-03-08T08:00:00,1680A,110.3539,21.2706,湛江市,湛江影剧院,,43,43,44,14,18,121,81,98,89,10,9,5,6,0.5,0.5
2023-03-08T08:00:00,1681A,110.3928,21.2228,湛江市,市环境监测站,,38,38,41,18,19,127,82,95,91,11,9,6,7,0.4,0.5
2023-03-08T08:00:00,1682A,110.4019,21.1997,湛江市,环保局宿舍,,33,33,39,17,19,132,83,102,94,10,7,5,5,0.4,0.4
2023-03-08T08:00:00,1683A,110.4111,21.2028,湛江市,霞山游泳场,,34,34,40,15,19,136,89,102,96,9,9,3,4,0.4,0.4
2023-03-08T08:00:00,1684A,110.3316,21.2679,湛江市,麻章区环保局,,34,34,52,13,21,126,85,102,93,11,12,5,6,0.4,0.4
2023-03-08T08:00:00,1685A,110.4558,21.2567,湛江市,坡头区环保局,,40,40,38,16,19,126,88,99,95,10,9,6,7,0.5,0.5
2023-03-08T08:00:00,1686A,111.0286,21.4688,茂名市,电白南海,颗粒物(PM10),57,63,48,24,18,130,32,99,76,22,13,8,7,0.6,0.4
2023-03-08T08:00:00,1687A,110.9294,21.6533,茂名市,茂石化七小,,34,34,47,22,24,120,59,75,70,20,12,8,9,0.7,0.5
2023-03-08T08:00:00,1688A,110.9107,21.6687,茂名市,健康路,,34,34,43,15,16,116,76,86,81,16,13,8,8,0.6,0.5
2023-03-08T08:00:00,1689A,110.8592,21.6828,茂名市,高岭,,46,46,48,29,26,117,84,85,80,17,16,14,13,0.6,0.5
2023-03-08T08:00:00,1690A,116.1231,24.3284,梅州市,梅江月梅,颗粒物(PM10),64,78,60,31,29,176,18,47,27,56,38,10,11,0.6,0.5
2023-03-08T08:00:00,1691A,116.0797,24.2719,梅州市,梅县新城,颗粒物(PM10),53,56,62,32,32,172,10,69,22,57,44,7,10,0.7,0.6
2023-03-08T08:00:00,1692A,116.1248,24.2654,梅州市,环境监控中心,细颗粒物(PM2.5),67,62,62,48,33,183,28,24,18,56,51,17,12,0.7,0.6
2023-03-08T08:00:00,1693A,115.3653,22.775,汕尾市,市环保局,,41,41,41,28,22,140,54,81,64,27,16,10,10,0.6,0.5
2023-03-08T08:00:00,1694A,115.3706,22.7898,汕尾市,市政府,,45,45,45,24,26,145,32,86,65,45,21,10,10,0.6,0.4
2023-03-08T08:00:00,1695A,115.3622,22.7925,汕尾市,新城中学,颗粒物(PM10),52,53,55,29,24,138,45,83,66,30,17,8,8,0.6,0.4
2023-03-08T08:00:00,1696A,114.6778,23.7569,河源市,源西,颗粒物(PM10),57,64,73,30,30,178,16,12,12,57,52,8,8,0.7,0.7
2023-03-08T08:00:00,1697A,114.6944,23.7586,河源市,东埔,,,,77,,31,179,10,76,35,58,34,5,7,0.8,0.6
2023-03-08T08:00:00,1698A,114.6892,23.7233,河源市,老城,颗粒物(PM10),83,115,95,33,32,178,17,63,37,57,34,5,6,0.7,0.7
2023-03-08T08:00:00,1699A,111.9797,21.8593,阳江市,鸳鸯湖,,40,31,41,28,21,122,38,87,59,42,17,7,7,0.7,0.6
2023-03-08T08:00:00,1701A,111.9491,21.8658,阳江市,马南垌,,48,48,48,25,19,119,12,61,46,41,20,5,5,1.0,0.6
2023-03-08T08:00:00,1702A,113.0426,23.691,清远市,环保大楼,细颗粒物(PM2.5),72,82,79,52,46,205,46,78,57,60,47,17,10,0.7,0.7
2023-03-08T08:00:00,1703A,113.0208,23.7106,清远市,凤城街办,颗粒物(PM10),72,93,93,46,42,158,30,64,44,49,39,12,10,0.8,0.7
2023-03-08T08:00:00,1705A,116.6367,23.6719,潮州市,西园路,,50,34,53,35,35,126,43,63,54,19,20,5,6,0.3,0.4
2023-03-08T08:00:00,1706A,116.6447,23.6706,潮州市,档案局,,38,38,49,20,31,141,45,59,51,14,18,8,11,0.5,0.5
2023-03-08T08:00:00,1708A,116.3701,23.5345,揭阳市,新兴,细颗粒物(PM2.5),67,71,61,48,34,159,16,58,26,49,31,12,13,1.0,0.7
2023-03-08T08:00:00,1709A,116.3264,23.5443,揭阳市,西马,细颗粒物(PM2.5),84,80,64,62,34,161,20,58,22,49,31,19,13,0.8,0.6
2023-03-08T08:00:00,1710A,116.3611,23.5626,揭阳市,东兴,细颗粒物(PM2.5),69,65,70,50,39,182,18,48,24,62,41,13,16,0.9,0.8
2023-03-08T08:00:00,1711A,116.4151,23.5294,揭阳市,渔湖,细颗粒物(PM2.5),69,84,71,50,42,172,14,17,7,55,42,12,17,0.8,0.8
2023-03-08T08:00:00,1712A,112.0392,22.9169,云浮市,新市府,,28,28,34,16,20,128,25,52,38,15,11,2,3,0.6,0.6
2023-03-08T08:00:00,1714A,112.0539,22.9539,云浮市,牧羊,颗粒物(PM10),53,56,58,30,29,108,7,48,25,42,32,8,8,0.5,0.6
2023-03-08T08:00:00,1715A,102.575,24.3711,玉溪市,东风水库,细颗粒物(PM2.5),79,70,68,58,53,130,41,95,62,21,15,9,10,1.2,1
2023-03-08T08:00:00,1718A,115.4208,35.2464,菏泽市,气象局,细颗粒物(PM2.5),104,135,156,78,86,184,36,99,67,55,35,9,17,0.7,0.7
2023-03-08T08:00:00,1719A,115.4747,35.2375,菏泽市,市政协,颗粒物(PM10),97,144,141,70,78,196,38,104,76,54,32,8,18,0.8,0.7
2023-03-08T08:00:00,1721A,113.3819,40.1097,大同市,果树场,,,,,,,,,,,,,,,,
2023-03-08T08:00:00,1723A,113.2994,40.0758,大同市,云冈宾馆,颗粒物(PM10),74,98,104,23,27,112,20,66,26,47,33,21,19,1.2,0.6
2023-03-08T08:00:00,1724A,113.3444,40.0917,大同市,大同大学,颗粒物(PM10),63,75,88,21,27,108,36,71,50,35,26,34,21,0.8,0.6
2023-03-08T08:00:00,1725A,113.2661,40.1269,大同市,安家小村,颗粒物(PM10),82,113,132,42,41,104,13,64,36,39,22,24,17,2.9,0.9
2023-03-08T08:00:00,1726A,113.2711,40.0844,大同市,教育学院,,,121,104,44,29,100,10,72,33,69,33,28,18,2.2,0.7
2023-03-08T08:00:00,1727A,113.1147,36.1547,长治市,清华站,颗粒物(PM10),86,122,90,56,46,120,39,50,44,54,47,16,12,0.9,0.6
2023-03-08T08:00:00,1728A,113.1031,36.1989,长治市,监测站,颗粒物(PM10),93,136,85,66,46,109,26,25,24,54,42,16,10,1.4,0.8
2023-03-08T08:00:00,1730A,113.0886,36.2125,长治市,审计局,细颗粒物(PM2.5),94,121,82,70,49,110,35,52,48,55,41,26,13,1.5,0.8
2023-03-08T08:00:00,1731A,113.0844,36.1856,长治市,长治八中,颗粒物(PM10),109,168,102,66,46,106,23,26,22,46,37,20,11,1.5,0.7
2023-03-08T08:00:00,1733A,111.5531,36.0783,临汾市,临钢医院,颗粒物(PM10),147,243,177,94,75,144,7,10,7,62,53,10,20,1.8,1.4
2023-03-08T08:00:00,1734A,111.5028,36.0714,临汾市,技工学校,细颗粒物(PM2.5),149,205,185,114,77,146,14,20,13,68,59,18,22,2.0,1.3
2023-03-08T08:00:00,1736A,111.5018,36.0855,临汾市,市委,细颗粒物(PM2.5),133,194,145,101,73,160,18,16,15,63,56,11,18,2.1,1.6
2023-03-08T08:00:00,1738A,113.5758,37.8572,阳泉市,市中心,颗粒物(PM10),170,290,125,56,31,111,11,25,18,74,52,18,18,0.8,0.7
2023-03-08T08:00:00,1739A,113.4894,37.8731,阳泉市,赛鱼,颗粒物(PM10),160,270,114,61,35,110,13,18,16,73,60,25,18,0.8,0.7
2023-03-08T08:00:00,1740A,113.5819,37.8486,阳泉市,南庄,颗粒物(PM10),164,277,124,59,39,114,48,65,48,41,37,14,16,0.7,0.7
2023-03-08T08:00:00,1742A,113.5614,37.8703,阳泉市,平坦,颗粒物(PM10),157,263,118,61,36,114,20,29,20,72,58,20,19,0.8,0.8
2023-03-08T08:00:00,1743A,113.5158,37.8392,阳泉市,大阳泉,颗粒物(PM10),140,229,88,67,32,115,41,60,51,47,35,14,11,0.5,0.5
2023-03-08T08:00:00,1744A,118.9233,42.2816,赤峰市,松山一中,,43,43,88,10,22,120,24,75,59,46,28,13,12,0.8,0.5
2023-03-08T08:00:00,1745A,118.9576,42.2728,赤峰市,哈达街,,43,43,84,13,24,119,21,76,62,48,28,18,15,0.7,0.5
2023-03-08T08:00:00,1746A,118.8788,42.2554,赤峰市,天义路,,47,47,71,7,18,123,17,76,54,46,23,18,13,0.9,0.6
2023-03-08T08:00:00,1748A,123.044,41.1196,鞍山市,深沟寺,颗粒物(PM10),58,65,88,40,56,139,34,64,53,31,21,13,11,0.9,0.8
2023-03-08T08:00:00,1749A,123.011,41.0931,鞍山市,太阳城,颗粒物(PM10),58,66,92,36,54,130,36,63,56,31,25,11,14,0.9,1.2
2023-03-08T08:00:00,1750A,123.0485,41.1442,鞍山市,太平,颗粒物(PM10),59,68,97,40,55,106,31,67,53,39,29,14,13,1.0,0.7
2023-03-08T08:00:00,1751A,122.9642,41.0971,鞍山市,铁西三道街,一氧化碳,81,82,102,44,57,117,14,87,44,57,36,41,16,8.1,2.1
2023-03-08T08:00:00,1752A,122.9341,41.0833,鞍山市,铁西工业园区,颗粒物(PM10),61,71,92,42,56,122,18,77,41,54,31,55,19,2.4,1.4
2023-03-08T08:00:00,1753A,123.022,41.0821,鞍山市,明达新区,颗粒物(PM10),59,68,88,38,54,145,33,63,55,39,29,11,12,0.8,0.9
2023-03-08T08:00:00,1754A,123.1289,41.0228,鞍山市,千山,,,,,,,,,,,,,,,,
2023-03-08T08:00:00,1755A,123.7977,41.8491,抚顺市,望花区,细颗粒物(PM2.5),87,84,105,64,63,106,45,88,60,26,25,12,15,0.7,0.8
2023-03-08T08:00:00,1756A,123.9161,41.8822,抚顺市,顺城区,颗粒物(PM10),59,68,102,39,52,131,64,107,74,31,27,7,9,0.6,0.7
2023-03-08T08:00:00,1757A,124.0436,41.8611,抚顺市,东洲区,颗粒物(PM10),70,89,100,50,56,121,73,102,82,17,21,4,5,0.4,0.6
2023-03-08T08:00:00,1758A,123.9247,41.8642,抚顺市,新抚区,颗粒物(PM10),63,76,103,41,61,109,64,94,65,24,25,9,11,0.5,0.8
2023-03-08T08:00:00,1759A,124.0972,41.8961,抚顺市,大伙房水库,颗粒物(PM10),63,76,96,43,54,132,88,96,87,13,22,7,8,0.4,0.6
2023-03-08T08:00:00,1760A,123.7086,41.8391,抚顺市,沈抚新城,细颗粒物(PM2.5),73,81,102,53,60,116,45,80,57,21,24,9,12,0.6,0.7
2023-03-08T08:00:00,1761A,123.8275,41.3064,本溪市,大峪,细颗粒物(PM2.5),128,144,93,97,53,109,32,90,48,47,27,7,6,1.0,0.8
2023-03-08T08:00:00,1762A,123.7567,41.3325,本溪市,溪湖,细颗粒物(PM2.5),133,146,110,101,68,113,30,55,44,46,42,15,28,1.3,1.7
2023-03-08T08:00:00,1763A,123.7169,41.3094,本溪市,彩屯,细颗粒物(PM2.5),109,133,119,82,67,101,35,79,49,44,42,15,31,1.1,2
2023-03-08T08:00:00,1764A,123.7669,41.2864,本溪市,东明,细颗粒物(PM2.5),132,116,84,100,59,116,32,107,51,58,32,12,11,1.4,1
2023-03-08T08:00:00,1765A,123.7992,41.2664,本溪市,新立屯,细颗粒物(PM2.5),144,126,89,110,57,116,18,102,32,57,31,8,8,1.2,0.7
2023-03-08T08:00:00,1766A,123.8142,41.3472,本溪市,威宁,细颗粒物(PM2.5),127,161,111,96,58,110,14,28,18,54,32,7,7,1.0,0.9
2023-03-08T08:00:00,1767A,121.1115,41.0879,锦州市,南山,颗粒物(PM10),58,65,125,22,90,154,60,68,67,36,36,9,16,0.4,0.7
2023-03-08T08:00:00,1768A,121.0533,40.8434,锦州市,开发区,颗粒物(PM10),63,75,108,20,74,135,62,90,67,25,39,12,26,0.7,0.9
2023-03-08T08:00:00,1769A,121.1836,41.1119,锦州市,百股街道,颗粒物(PM10),66,82,109,42,91,155,60,76,64,27,34,15,28,0.9,1
2023-03-08T08:00:00,1770A,121.1178,41.1222,锦州市,天安街道,颗粒物(PM10),59,67,130,22,88,150,56,66,64,30,36,12,18,0.4,1
2023-03-08T08:00:00,1771A,121.1303,41.1386,锦州市,北湖公园,颗粒物(PM10),56,62,120,28,85,152,62,71,68,25,34,13,18,0.8,1.1
2023-03-08T08:00:00,1772A,126.54,43.8622,吉林市,哈达湾,,48,48,99,28,47,145,63,59,59,21,20,18,9,0.6,0.7
2023-03-08T08:00:00,1773A,126.5844,43.8358,吉林市,东局子,,48,48,102,27,51,141,46,54,52,26,18,12,11,0.6,0.7
2023-03-08T08:00:00,1774A,126.5052,43.8245,吉林市,电力学院,,45,42,100,31,54,150,64,60,60,16,18,8,10,0.5,0.7
2023-03-08T08:00:00,1775A,126.6133,43.8972,吉林市,江北,,32,32,98,22,53,136,71,61,61,9,20,7,11,0.6,0.7
2023-03-08T08:00:00,1776A,126.555,43.8306,吉林市,江南公园,细颗粒物(PM2.5),53,53,96,37,55,142,46,57,54,31,21,10,8,0.6,0.7
2023-03-08T08:00:00,1778A,126.7061,43.7133,吉林市,丰满,,,,,,,,,,,,,,,,
2023-03-08T08:00:00,1779A,123.9305,47.3636,齐齐哈尔市,安居小区,细颗粒物(PM2.5),57,30,27,40,17,90,60,67,54,14,9,5,5,0.4,0.3
2023-03-08T08:00:00,1780A,123.9488,47.3386,齐齐哈尔市,中心广场,,23,23,25,11,7,84,53,70,64,22,11,5,5,0.4,0.2
2023-03-08T08:00:00,1781A,123.9483,47.3227,齐齐哈尔市,农牧车辆厂,,36,24,28,25,11,81,52,64,54,22,13,5,5,0.5,0.3
2023-03-08T08:00:00,1783A,123.945,47.2988,齐齐哈尔市,市环境监测站,,34,34,28,19,15,86,51,69,60,29,13,10,7,0.6,0.3
2023-03-08T08:00:00,1784A,129.61,44.561,牡丹江市,环保大楼,,26,16,88,18,54,121,62,98,79,18,23,5,5,0.3,0.5
2023-03-08T08:00:00,1785A,129.6115,44.5782,牡丹江市,文化广场,,31,31,102,21,55,109,43,93,71,32,29,4,7,0.5,0.7
2023-03-08T08:00:00,1786A,129.5904,44.5963,牡丹江市,第一医院,,45,31,108,31,63,117,52,94,75,27,27,6,6,0.4,0.6
2023-03-08T08:00:00,1787A,129.6364,44.6075,牡丹江市,机车工厂,,45,45,107,23,56,115,51,91,71,24,31,2,2,0.4,0.7
2023-03-08T08:00:00,1788A,129.6386,44.5462,牡丹江市,第一中学,,40,21,84,28,50,122,59,96,78,17,21,4,4,0.4,0.6
2023-03-08T08:00:00,1789A,124.81117,46.03138,大庆市,大同区,,27,27,32,12,19,58,41,56,50,16,13,3,5,0.4,0.4
2023-03-08T08:00:00,1790A,125.129,46.533,大庆市,龙凤区,,23,13,26,16,16,68,46,52,48,22,16,6,5,0.6,0.6
2023-03-08T08:00:00,1791A,124.902,46.408,大庆市,红岗区,,26,18,30,18,17,75,42,53,45,22,17,9,9,0.5,0.4
2023-03-08T08:00:00,1792A,125.153,46.586,大庆市,萨尔图区,,16,14,18,9,14,64,49,48,48,17,13,7,7,0.6,0.4
2023-03-08T08:00:00,1793A,124.9042,46.6215,大庆市,让胡路区,,15,15,22,8,15,87,38,59,52,25,12,5,4,0.2,0.2
2023-03-08T08:00:00,1794A,118.3606,31.3519,芜湖市,监测站,,,119,73,71,43,147,5,62,15,112,74,14,11,0.8,0.6
2023-03-08T08:00:00,1795A,118.3714,31.4134,芜湖市,科创中心,细颗粒物(PM2.5),98,114,96,73,55,124,5,2,2,77,86,10,9,1.0,0.8
2023-03-08T08:00:00,1796A,118.3673,31.3131,芜湖市,四水厂,细颗粒物(PM2.5),79,98,81,58,44,150,6,63,31,91,55,11,10,0.9,0.6
2023-03-08T08:00:00,1798A,118.5092,31.6837,马鞍山市,湖东路四小,细颗粒物(PM2.5),108,99,73,81,45,131,19,68,45,80,49,16,13,1.8,1.4
2023-03-08T08:00:00,1799A,118.5024,31.6449,马鞍山市,开发区,颗粒物(PM10),107,163,113,76,48,134,12,34,25,89,69,16,14,1.5,1.2
2023-03-08T08:00:00,1800A,118.5228,31.7231,马鞍山市,慈湖,,,156,95,91,50,129,8,17,15,93,60,18,13,1.7,0.9
2023-03-08T08:00:00,1802A,118.6245,31.7241,马鞍山市,濮塘,颗粒物(PM10),66,82,66,45,38,140,71,99,78,28,21,14,10,1.4,1
2023-03-08T08:00:00,1803A,115.9872,29.6815,九江市,十里,颗粒物(PM10),88,126,95,63,47,148,6,8,5,84,71,12,12,1.3,1
2023-03-08T08:00:00,1804A,115.9584,29.7046,九江市,茅山头,细颗粒物(PM2.5),89,105,88,66,47,130,31,12,12,56,64,15,13,0.9,0.8
2023-03-08T08:00:00,1805A,115.9877,29.7295,九江市,西园,细颗粒物(PM2.5),92,90,77,68,49,123,39,17,17,55,78,17,13,1.2,0.9
2023-03-08T08:00:00,1806A,116.0172,29.6547,九江市,五七二七厂,细颗粒物(PM2.5),77,90,62,56,34,161,52,114,80,48,23,10,11,0.7,0.5
2023-03-08T08:00:00,1808A,115.9114,29.6038,九江市,综合工业园,,,110,83,61,52,152,7,72,24,95,70,15,14,1.3,0.9
2023-03-08T08:00:00,1809A,116.0721,29.7535,九江市,石化总厂,细颗粒物(PM2.5),89,111,88,66,41,139,5,31,12,92,63,22,25,1.1,0.8
2023-03-08T08:00:00,1810A,115.9773,29.5698,九江市,庐山气象台,细颗粒物(PM2.5),52,51,42,36,33,150,136,148,139,20,20,12,12,1.0,1
2023-03-08T08:00:00,1812A,112.3931,34.6516,洛阳市,市委党校,"颗粒物(PM10),细颗粒物(PM2.5)",89,127,114,66,57,165,52,94,82,51,40,12,12,0.7,0.7
2023-03-08T08:00:00,1814A,112.4657,34.6871,洛阳市,豫西宾馆,细颗粒物(PM2.5),99,117,117,74,61,175,42,78,65,56,45,8,13,1.2,0.9
2023-03-08T08:00:00,1815A,112.494,34.6886,洛阳市,河南林校,细颗粒物(PM2.5),93,120,107,69,60,178,45,67,58,46,41,9,13,0.8,0.9
2023-03-08T08:00:00,1816A,112.3844,34.623,洛阳市,开发区管委会,细颗粒物(PM2.5),79,97,88,58,51,168,48,73,67,44,32,10,10,0.6,0.5
2023-03-08T08:00:00,1817A,112.4267,34.6258,洛阳市,市委新办公区,细颗粒物(PM2.5),79,82,87,58,58,164,65,70,69,32,31,6,10,0.5,0.5
2023-03-08T08:00:00,1818A,114.4839,36.0621,安阳市,棉研所,,,,,,,,,,,,,,,,
2023-03-08T08:00:00,1819A,114.3551,36.1017,安阳市,红庙街,颗粒物(PM10),96,141,146,60,92,201,35,66,53,68,50,29,26,2.0,1.5
2023-03-08T08:00:00,1820A,114.361,36.0681,安阳市,银杏小区,"颗粒物(PM10),细颗粒物(PM2.5)",90,129,133,67,102,202,30,76,60,64,39,18,21,1.8,1.3
2023-03-08T08:00:00,1824A,114.3389,34.7781,开封市,肿瘤医院,细颗粒物(PM2.5),108,142,135,81,87,213,17,66,34,76,37,12,10,0.9,0.8
2023-03-08T08:00:00,1826A,114.2885,34.7965,开封市,世纪星幼儿园,细颗粒物(PM2.5),90,127,139,67,95,205,47,72,45,58,36,16,15,0.9,0.8
2023-03-08T08:00:00,1828A,113.227,35.2125,焦作市,市环保局,颗粒物(PM10),88,126,134,57,65,164,95,38,38,25,61,15,14,1.2,1.1
2023-03-08T08:00:00,1830A,113.1992,35.2590,焦作市,影视城,,,,,,,,,,,,,,,,
2023-03-08T08:00:00,1832A,113.3257,33.742,平顶山市,新华旅馆,颗粒物(PM10),86,121,110,58,59,182,70,97,92,48,38,9,10,1.0,1
2023-03-08T08:00:00,1833A,113.2919,33.737,平顶山市,规划设计院,细颗粒物(PM2.5),92,119,104,68,67,179,46,77,70,44,33,7,8,0.9,0.8
2023-03-08T08:00:00,1834A,113.182,33.774,平顶山市,平顶山工学院,颗粒物(PM10),84,118,106,51,53,181,66,117,100,28,15,9,8,0.7,0.6
2023-03-08T08:00:00,1835A,111.1922,34.7752,三门峡市,市政府,细颗粒物(PM2.5),122,122,104,92,71,155,6,4,4,78,71,14,18,1.2,1
2023-03-08T08:00:00,1836A,111.1587,34.7942,三门峡市,开发区,细颗粒物(PM2.5),104,147,120,78,68,170,12,64,26,60,41,5,12,1.0,0.9
2023-03-08T08:00:00,1838A,111.143,34.7955,三门峡市,风景区,,,,,,,,,,,,,,,,
2023-03-08T08:00:00,1840A,111.2992,30.6981,宜昌市,白龙岗,,44,44,41,27,29,101,2,30,21,34,30,12,12,0.9,0.7
2023-03-08T08:00:00,1841A,111.3549,30.6465,宜昌市,伍家岗,颗粒物(PM10),51,52,47,34,34,118,6,25,13,27,36,8,8,1.1,0.9
2023-03-08T08:00:00,1842A,111.2628,30.6961,宜昌市,点军区,,46,46,44,24,26,101,2,27,18,19,25,4,5,0.7,0.7
2023-03-08T08:00:00,1843A,111.3275,30.7819,宜昌市,夷陵区,细颗粒物(PM2.5),64,52,46,46,35,104,7,19,13,22,26,5,6,0.7,0.6
2023-03-08T08:00:00,1844A,112.2494,30.3197,荆州市,市图书馆,细颗粒物(PM2.5),59,48,66,42,50,134,25,70,40,34,30,6,7,0.9,0.8
2023-03-08T08:00:00,1845A,112.2008,30.3544,荆州市,市委党校,细颗粒物(PM2.5),59,61,68,42,51,128,22,78,40,34,29,6,7,0.9,0.8
2023-03-08T08:00:00,1847A,113.1094,29.3578,岳阳市,南湖风景区,细颗粒物(PM2.5),72,80,90,52,58,140,75,62,62,18,47,4,10,0.5,0.6
2023-03-08T08:00:00,1848A,113.1493,29.4251,岳阳市,城陵矶,细颗粒物(PM2.5),74,74,86,54,54,141,77,29,29,13,58,2,8,0.9,1
2023-03-08T08:00:00,1849A,113.1497,29.3575,岳阳市,开发区,细颗粒物(PM2.5),75,66,80,55,61,144,50,20,20,26,44,6,12,0.9,0.9
2023-03-08T08:00:00,1850A,113.2621,29.4758,岳阳市,云溪区,细颗粒物(PM2.5),83,79,80,61,55,152,49,53,52,17,27,7,8,1.0,0.8
2023-03-08T08:00:00,1851A,112.9943,29.4402,岳阳市,君山区,细颗粒物(PM2.5),68,56,70,49,56,141,70,55,55,11,28,7,8,0.8,0.8
2023-03-08T08:00:00,1852A,113.2117,29.355,岳阳市,金凤水库,细颗粒物(PM2.5),82,80,90,60,51,144,11,48,16,35,33,2,7,0.9,0.8
2023-03-08T08:00:00,1854A,111.6975,28.9703,常德市,市二中,,43,34,56,30,46,127,59,88,76,12,14,8,6,0.9,0.8
2023-03-08T08:00:00,1857A,111.7158,29.1456,常德市,白鹤山,,42,34,52,29,42,139,54,95,87,7,11,3,6,0.8,0.9
2023-03-08T08:00:00,1858A,110.5319,29.1217,张家界市,永定新区,,43,40,50,30,34,103,14,36,27,14,13,3,3,0.5,0.5
2023-03-08T08:00:00,1859A,110.4697,29.1242,张家界市,电业局,颗粒物(PM10),54,57,46,32,35,106,10,33,28,30,19,5,5,0.9,0.7
2023-03-08T08:00:00,1860A,110.5594,29.3547,张家界市,未央路,,33,31,33,23,28,118,13,25,18,11,13,5,6,0.7,0.6
2023-03-08T08:00:00,1861A,110.4417,29.315,张家界市,袁家界,,28,20,29,19,26,112,55,86,78,9,11,7,7,0.8,0.8
2023-03-08T08:00:00,1862A,110.4144,25.3167,桂林市,电子科大尧山校区,细颗粒物(PM2.5),98,75,77,73,53,134,29,50,39,13,15,4,10,0.7,0.7
2023-03-08T08:00:00,1863A,110.2819,25.2697,桂林市,监测站,细颗粒物(PM2.5),133,120,108,101,73,118,2,42,19,56,48,53,29,1.0,0.9
2023-03-08T08:00:00,1864A,110.3089,25.2708,桂林市,龙隐路小学,细颗粒物(PM2.5),110,121,92,83,66,124,4,31,20,56,41,28,20,1.0,0.9
2023-03-08T08:00:00,1865A,110.2869,25.2178,桂林市,八中,细颗粒物(PM2.5),98,99,97,73,67,119,2,29,14,55,46,11,10,1.0,0.7
2023-03-08T08:00:00,1866A,109.2262,21.588,北海市,牛尾岭水库,,34,34,38,14,20,125,58,73,55,10,10,12,12,0.4,0.5
2023-03-08T08:00:00,1867A,109.1436,21.4086,北海市,海滩公园,,38,38,44,12,15,141,85,100,88,5,6,6,7,0.5,0.5
2023-03-08T08:00:00,1868A,109.0981,21.4661,北海市,新市环保局,,33,33,36,14,16,123,78,98,86,12,10,5,4,0.5,0.4
2023-03-08T08:00:00,1869A,109.1778,21.5233,北海市,北海工业园,,49,49,50,24,22,127,36,95,72,24,10,10,6,0.5,0.5
2023-03-08T08:00:00,1870A,109.4856,24.3895,柳州市,柳东小学,细颗粒物(PM2.5),103,96,99,77,92,139,45,93,60,25,26,29,23,1.1,1.2
2023-03-08T08:00:00,1871A,109.4157,24.3277,柳州市,环保监测站,细颗粒物(PM2.5),132,137,112,100,71,127,5,31,15,55,47,18,13,1.2,1
2023-03-08T08:00:00,1872A,109.389,24.341,柳州市,河西水厂,细颗粒物(PM2.5),128,149,124,97,78,129,5,22,12,46,39,21,13,1.5,1.2
2023-03-08T08:00:00,1873A,109.4311,24.2921,柳州市,市四中,细颗粒物(PM2.5),80,102,95,59,54,137,4,19,11,60,47,14,13,1.2,1
2023-03-08T08:00:00,1874A,109.4006,24.3631,柳州市,市九中,细颗粒物(PM2.5),149,192,118,114,68,125,4,41,22,57,42,22,17,1.6,1.2
2023-03-08T08:00:00,1875A,109.4958,24.3134,柳州市,古亭山,细颗粒物(PM2.5),60,68,72,43,40,138,9,52,27,63,40,8,7,0.7,0.7
2023-03-08T08:00:00,1876A,109.5078,18.2489,三亚市,河东子站,,28,28,31,9,13,109,71,69,69,9,7,2,2,0.4,0.4
2023-03-08T08:00:00,1877A,109.4964,18.2681,三亚市,河西子站,,26,26,30,11,13,109,58,69,67,12,6,3,3,0.4,0.4
2023-03-08T08:00:00,1878A,104.7778,31.4741,绵阳市,富乐山,"颗粒物(PM10),细颗粒物(PM2.5)",57,64,49,40,36,117,19,48,35,11,14,4,6,0.7,0.6
2023-03-08T08:00:00,1879A,104.7563,31.4535,绵阳市,市人大,细颗粒物(PM2.5),82,69,53,60,41,106,14,54,40,28,24,11,9,0.9,0.7
2023-03-08T08:00:00,1880A,104.6697,31.4668,绵阳市,高新区自来水公司,颗粒物(PM10),59,68,56,40,47,108,3,42,28,34,32,7,5,0.8,0.6
2023-03-08T08:00:00,1881A,104.7287,31.5075,绵阳市,三水厂,"颗粒物(PM10),细颗粒物(PM2.5)",57,63,55,40,34,108,1,61,32,36,30,6,4,0.9,0.6
2023-03-08T08:00:00,1882A,104.563,28.793,宜宾市,石马中学,颗粒物(PM10),63,75,106,44,70,112,24,13,13,32,37,6,10,0.9,0.9
2023-03-08T08:00:00,1883A,104.6201,28.7728,宜宾市,市委,细颗粒物(PM2.5),113,98,121,85,107,124,27,23,23,43,39,11,15,1.0,1
2023-03-08T08:00:00,1884A,104.6055,28.793,宜宾市,宜宾四中,细颗粒物(PM2.5),112,94,126,84,109,123,62,30,30,26,42,16,13,0.8,0.9
2023-03-08T08:00:00,1885A,104.639,28.7562,宜宾市,市政府,细颗粒物(PM2.5),102,91,120,76,102,121,38,51,49,38,40,8,14,0.8,0.9
2023-03-08T08:00:00,1886A,104.5742,28.7199,宜宾市,黄金嘴,细颗粒物(PM2.5),94,81,112,70,95,121,19,43,39,53,41,10,16,0.9,0.9
2023-03-08T08:00:00,1888A,101.6891,26.571,攀枝花市,弄弄坪,细颗粒物(PM2.5),102,84,71,76,48,125,23,83,60,46,33,18,26,1.5,1.8
2023-03-08T08:00:00,1889A,101.5769,26.5928,攀枝花市,河门口,颗粒物(PM10),51,51,46,29,29,139,20,96,59,43,19,12,12,1.1,0.7
2023-03-08T08:00:00,1890A,101.7169,26.585,攀枝花市,炳草岗,,,130,78,53,34,131,4,80,29,,36,28,20,2.0,1.4
2023-03-08T08:00:00,1891A,101.7369,26.5008,攀枝花市,仁和,,49,49,46,28,30,144,37,61,50,27,18,9,8,0.8,0.8
2023-03-08T08:00:00,1893A,105.4324,28.9634,泸州市,九狮山,颗粒物(PM10),74,97,89,53,61,114,4,14,4,21,28,9,10,0.6,0.5
2023-03-08T08:00:00,1894A,105.4427,28.9063,泸州市,小市上码头,细颗粒物(PM2.5),92,112,114,68,85,110,14,51,19,39,36,15,13,1.3,1
2023-03-08T08:00:00,1895A,105.4241,28.8573,泸州市,兰田宪桥,细颗粒物(PM2.5),89,103,105,66,83,114,27,26,22,22,33,12,11,0.7,0.8
2023-03-08T08:00:00,1896A,105.4379,28.8833,泸州市,市环监站,细颗粒物(PM2.5),92,107,109,68,78,107,21,24,23,36,36,10,11,0.8,0.8
2023-03-08T08:00:00,1901A,104.4239,31.1208,德阳市,东山公园,细颗粒物(PM2.5),156,110,75,119,71,110,13,52,23,57,33,5,5,1.0,1.3
2023-03-08T08:00:00,1902A,104.3826,31.1317,德阳市,西小区,细颗粒物(PM2.5),162,109,83,123,79,108,3,22,15,64,38,3,3,1.0,0.8
2023-03-08T08:00:00,1904A,104.3553,31.1091,德阳市,耐火材料厂,细颗粒物(PM2.5),147,132,89,112,76,110,4,6,3,59,38,4,3,1.0,0.7
2023-03-08T08:00:00,1905A,106.056,30.8064,南充市,西山风景区,,,,,,,,,,,,,,,,
2023-03-08T08:00:00,1906A,106.0789,30.8023,南充市,南充市委,细颗粒物(PM2.5),73,77,77,53,51,54,3,3,3,24,29,16,11,1.3,0.8
2023-03-08T08:00:00,1907A,106.1031,30.8217,南充市,南充炼油厂,细颗粒物(PM2.5),64,65,76,46,50,59,1,1,1,21,28,10,10,0.9,0.6
2023-03-08T08:00:00,1908A,106.1064,30.7856,南充市,高坪区监测站,细颗粒物(PM2.5),110,113,81,83,61,56,4,2,2,29,31,76,14,1.1,0.9
2023-03-08T08:00:00,1909A,106.0642,30.7636,南充市,嘉陵区环保局,细颗粒物(PM2.5),73,94,79,53,52,57,4,3,3,25,33,50,14,0.9,0.8
2023-03-08T08:00:00,1910A,106.1087,30.8388,南充市,市环境监测站,细颗粒物(PM2.5),65,68,79,47,56,53,1,3,2,27,34,9,10,0.9,0.8
2023-03-08T08:00:00,1911A,106.9222,27.6869,遵义市,丁字口,细颗粒物(PM2.5),52,47,58,36,47,46,12,12,12,40,37,27,26,1.1,1
2023-03-08T08:00:00,1912A,106.9242,27.7019,遵义市,凤凰山,,40,40,60,26,40,71,55,39,39,18,30,5,8,0.8,1
2023-03-08T08:00:00,1913A,106.8906,27.6486,遵义市,忠庄,,45,41,73,31,50,47,43,20,20,19,28,3,6,0.9,1.1
2023-03-08T08:00:00,1914A,106.9231,27.6506,遵义市,舟水桥,颗粒物(PM10),59,68,71,33,51,49,5,8,6,25,28,16,24,1.1,1
2023-03-08T08:00:00,1915A,106.9178,27.72,遵义市,干田坝,细颗粒物(PM2.5),55,34,57,39,47,63,15,12,12,38,33,9,12,0.9,1.1
2023-03-08T08:00:00,1916A,103.7897,25.5035,曲靖市,环境监测站,细颗粒物(PM2.5),83,102,73,61,45,145,30,75,54,30,18,13,10,1.6,1
2023-03-08T08:00:00,1917A,103.8,25.5364,曲靖市,烟厂办公区,颗粒物(PM10),69,87,75,41,41,153,37,84,61,29,20,9,6,1.5,0.8
2023-03-08T08:00:00,1918A,108.7197,34.3956,咸阳市,气象站,细颗粒物(PM2.5),78,99,132,57,101,151,14,76,40,70,67,10,13,0.6,0.7
2023-03-08T08:00:00,1919A,108.673,34.3155,咸阳市,实验中学,细颗粒物(PM2.5),120,151,177,91,116,151,10,22,17,67,83,9,9,0.8,0.8
2023-03-08T08:00:00,1920A,108.7233,34.3617,咸阳市,师范学院,细颗粒物(PM2.5),97,128,165,72,105,129,23,56,37,54,72,6,9,1.1,0.9
2023-03-08T08:00:00,1922A,109.0656,35.0994,铜川市,党校,颗粒物(PM10),71,91,126,11,40,154,23,14,14,57,79,14,20,0.5,1
2023-03-08T08:00:00,1923A,109.0697,35.0697,铜川市,王益区政府,颗粒物(PM10),79,108,126,25,69,144,10,10,10,45,61,10,14,0.7,1
2023-03-08T08:00:00,1924A,108.9344,34.9058,铜川市,新区管委会,颗粒物(PM10),68,86,113,29,66,169,34,76,69,48,39,8,13,0.4,0.6
2023-03-08T08:00:00,1926A,109.4131,36.6275,延安市,枣园,颗粒物(PM10),59,67,73,19,22,114,6,8,7,38,38,5,5,0.5,0.4
2023-03-08T08:00:00,1927A,109.4761,36.6028,延安市,延大医附院,颗粒物(PM10),55,60,65,15,27,103,5,4,4,36,41,6,7,1.7,1.2
2023-03-08T08:00:00,1929A,109.5056,36.6106,延安市,百米大道,颗粒物(PM10),70,90,87,27,28,103,5,4,4,45,49,5,4,0.8,0.7
2023-03-08T08:00:00,1930A,107.185,34.3063,宝鸡市,庙沟村,,42,42,58,21,34,124,66,80,72,22,26,4,6,0.2,0.3
2023-03-08T08:00:00,1931A,107.0708,34.3017,宝鸡市,竹园沟,,32,32,49,21,32,139,64,77,75,23,27,7,8,0.6,0.6
2023-03-08T08:00:00,1932A,107.1906,34.3672,宝鸡市,三陆医院,颗粒物(PM10),55,60,106,20,72,135,21,33,28,55,56,10,14,0.6,0.7
2023-03-08T08:00:00,1933A,107.1431,34.3547,宝鸡市,监测站,颗粒物(PM10),56,62,77,30,48,133,10,32,26,59,52,10,7,0.9,0.6
2023-03-08T08:00:00,1934A,107.1186,34.3739,宝鸡市,技工学校,颗粒物(PM10),59,67,89,35,54,130,8,46,36,58,44,7,10,1.1,0.7
2023-03-08T08:00:00,1935A,107.3906,34.3528,宝鸡市,陈仓区环保局家属楼,细颗粒物(PM2.5),83,112,137,61,91,140,27,36,34,55,59,134,47,1.2,1
2023-03-08T08:00:00,1936A,107.2058,34.3497,宝鸡市,文理学院,颗粒物(PM10),59,68,93,27,54,135,18,32,30,57,57,13,12,0.7,0.7
2023-03-08T08:00:00,1937A,107.2386,34.3622,宝鸡市,三迪小学,颗粒物(PM10),65,80,110,29,63,133,9,21,18,68,69,15,15,0.7,0.7
2023-03-08T08:00:00,1938A,109.5293,34.5101,渭南市,农科所,细颗粒物(PM2.5),107,144,159,80,90,141,5,76,38,111,68,9,15,1.3,1.1
2023-03-08T08:00:00,1939A,109.4974,34.4877,渭南市,日报社,细颗粒物(PM2.5),108,134,157,81,101,142,43,82,59,64,60,8,14,0.8,1.1
2023-03-08T08:00:00,1940A,109.4636,34.493,渭南市,体育馆,细颗粒物(PM2.5),118,122,157,89,106,163,7,86,58,103,63,9,15,0.9,1
2023-03-08T08:00:00,1941A,109.4259,34.5023,渭南市,高新一小,细颗粒物(PM2.5),134,163,173,102,118,157,3,48,21,88,66,10,17,1.0,1
2023-03-08T08:00:00,1943A,102.1725,38.5339,金昌市,新川苑,颗粒物(PM10),58,65,79,12,22,99,65,82,79,23,21,9,32,0.4,0.6
2023-03-08T08:00:00,1944A,102.1692,38.5167,金昌市,天庆家园,颗粒物(PM10),58,65,68,24,25,103,59,77,74,33,26,18,37,0.7,0.6
2023-03-08T08:00:00,1945A,98.2908,39.7711,嘉峪关市,气象局,颗粒物(PM10),65,80,77,19,20,158,79,81,81,13,20,3,5,0.3,0.3
2023-03-08T08:00:00,1947A,106.3394,38.817,石嘴山市,沙湖旅游区,颗粒物(PM10),91,131,126,35,30,108,25,65,47,34,22,31,18,0.6,0.6
2023-03-08T08:00:00,1948A,106.3668,39.0145,石嘴山市,大武口朝阳西街,颗粒物(PM10),82,113,110,41,32,103,22,89,49,54,25,17,24,1.5,0.7
2023-03-08T08:00:00,1949A,106.7704,39.2282,石嘴山市,惠农南大街,颗粒物(PM10),93,136,160,32,34,103,22,52,18,36,40,14,22,0.8,0.8
2023-03-08T08:00:00,1950A,106.7099,39.1325,石嘴山市,红果子镇惠新街,颗粒物(PM10),93,136,145,62,46,103,9,57,30,38,24,26,20,2.3,0.9
2023-03-08T08:00:00,1951A,84.895,45.6094,克拉玛依市,长征新村,,38,38,75,16,32,118,68,82,75,17,26,6,6,0.4,0.6
2023-03-08T08:00:00,1952A,84.8988,45.5893,克拉玛依市,南林小区,,45,45,75,29,41,118,51,84,68,25,27,4,4,0.4,0.4
2023-03-08T08:00:00,1954A,84.905,44.3396,克拉玛依市,独山子区,颗粒物(PM10),73,95,101,43,51,124,64,82,67,10,26,5,8,0.9,0.9
2023-03-08T08:00:00,1955A,85.6979,46.098,克拉玛依市,乌尔禾区商贸楼,,28,19,57,19,40,116,37,62,47,22,18,9,9,0.8,0.7
2023-03-08T08:00:00,1956A,86.1472,41.7538,巴音郭楞州,孔雀公园,颗粒物(PM10),108,165,244,44,59,116,3,2,2,57,47,2,5,0.5,0.7
2023-03-08T08:00:00,1957A,86.1972,41.7166,巴音郭楞州,棉纺厂,颗粒物(PM10),117,183,301,34,65,109,4,9,8,58,49,2,4,0.7,0.7
2023-03-08T08:00:00,1958A,86.2357,41.7173,巴音郭楞州,经济开发区,颗粒物(PM10),95,140,247,25,48,111,55,55,51,11,21,4,6,0.2,0.3
2023-03-08T08:00:00,1961A,117.532,36.6868,济南市,东山小学,颗粒物(PM10),95,139,110,66,52,183,55,163,128,70,27,10,11,1.0,0.8
2023-03-08T08:00:00,1966A,120.0405,35.8735,青岛市,黄岛区4号,细颗粒物(PM2.5),125,129,113,95,79,134,46,112,79,75,54,9,9,0.9,0.8
2023-03-08T08:00:00,1982A,122.0693,37.2174,威海市,文登开发区,细颗粒物(PM2.5),147,161,145,112,94,186,56,109,100,68,39,7,7,0.9,0.8
2023-03-08T08:00:00,2031A,113.1817,27.9958,株洲市,云田中学,细颗粒物(PM2.5),142,78,84,108,78,155,28,73,36,30,35,6,11,1.1,0.9
2023-03-08T08:00:00,2054A,114.1099,32.1059,信阳市,平桥分局,细颗粒物(PM2.5),92,110,67,68,50,146,72,122,109,46,22,21,14,1.1,0.9
2023-03-08T08:00:00,2064A,113.9956,32.1271,信阳市,南湾水厂,细颗粒物(PM2.5),77,98,74,56,48,156,120,135,133,14,12,15,13,0.9,0.8
2023-03-08T08:00:00,2065A,114.0775,32.1195,信阳市,市酿酒公司,细颗粒物(PM2.5),100,101,62,75,51,152,75,120,101,42,22,16,13,1.1,0.8
2023-03-08T08:00:00,2066A,114.0609,32.1399,信阳市,审计局,细颗粒物(PM2.5),94,108,65,70,55,155,61,130,71,52,31,15,12,1.2,0.8
2023-03-08T08:00:00,2067A,114.6613,33.6128,周口市,市环境监测站,细颗粒物(PM2.5),73,77,85,53,45,151,68,90,82,28,22,10,10,0.8,0.7
2023-03-08T08:00:00,2068A,114.6758,33.6347,周口市,周口师范,细颗粒物(PM2.5),83,83,76,61,45,154,66,92,86,35,24,11,11,0.8,0.6
2023-03-08T08:00:00,2069A,114.6546,33.5979,周口市,市运管处,,,83,83,64,51,156,,91,89,36,26,9,10,0.7,0.6
2023-03-08T08:00:00,2070A,114.6369,33.6406,周口市,川汇区环保局,细颗粒物(PM2.5),98,94,81,73,48,150,65,88,79,27,21,7,7,0.8,0.7
2023-03-08T08:00:00,2075A,117.6336,24.4674,漳州市,九湖,,,,,,,,,,,,,,,,
2023-03-08T08:00:00,2160A,112.85,35.5051,晋城市,自来水公司,细颗粒物(PM2.5),83,103,97,61,41,141,96,77,77,39,52,22,20,1.3,1.5
2023-03-08T08:00:00,2161A,112.8318,35.4936,晋城市,白云商贸,颗粒物(PM10),86,122,97,56,38,129,98,73,73,23,34,20,13,1.4,1.3
2023-03-08T08:00:00,2162A,112.8508,35.4887,晋城市,市环保局,颗粒物(PM10),94,137,94,66,45,138,102,72,72,28,45,22,18,1.4,1.5
2023-03-08T08:00:00,2163A,112.8676,35.4897,晋城市,技术学院,颗粒物(PM10),90,129,92,66,46,130,84,76,76,44,45,19,15,0.9,1.2
2023-03-08T08:00:00,2165A,112.8453,35.546,晋城市,白马寺,,,,,,,,,,,,,,,,
2023-03-08T08:00:00,2166A,112.4397,39.3522,朔州市,平朔,颗粒物(PM10),92,134,133,48,30,103,11,56,31,55,22,18,10,1.0,0.5
2023-03-08T08:00:00,2167A,112.4575,39.3617,朔州市,朔唯,颗粒物(PM10),157,263,152,106,43,111,5,41,14,67,31,30,16,0.7,0.5
2023-03-08T08:00:00,2168A,112.4258,39.3197,朔州市,区政府,细颗粒物(PM2.5),92,129,124,68,25,113,20,76,47,50,15,11,6,0.7,0.3
2023-03-08T08:00:00,2169A,112.4072,39.3278,朔州市,市环保局,颗粒物(PM10),90,130,134,37,35,99,15,65,41,50,20,13,8,0.9,0.5
2023-03-08T08:00:00,2170A,112.4272,39.3681,朔州市,市二中,颗粒物(PM10),93,136,126,42,31,102,12,56,31,55,23,10,10,0.5,0.4
2023-03-08T08:00:00,2171A,112.7532,37.6945,晋中市,锦纶小区,颗粒物(PM10),129,207,119,54,42,121,6,2,2,53,49,14,16,0.7,0.5
2023-03-08T08:00:00,2173A,112.7249,37.7067,晋中市,南都小区,颗粒物(PM10),139,228,124,56,39,120,4,4,4,63,50,16,18,0.9,0.6
2023-03-08T08:00:00,2174A,112.6991,37.6982,晋中市,榆次区政府,颗粒物(PM10),118,186,120,50,35,119,5,4,4,64,52,18,18,0.9,0.5
2023-03-08T08:00:00,2175A,110.9956,35.0147,运城市,运城中学,细颗粒物(PM2.5),140,168,156,107,90,177,39,82,56,54,38,34,32,1.1,1.5
2023-03-08T08:00:00,2178A,110.9686,35.0303,运城市,地区技校,细颗粒物(PM2.5),172,178,170,130,106,199,23,59,47,67,49,14,28,0.2,1
2023-03-08T08:00:00,2179A,111.0414,35.1147,运城市,空港新区,细颗粒物(PM2.5),175,203,191,132,120,207,15,70,38,81,64,21,37,1.2,1.8
2023-03-08T08:00:00,2181A,112.7383,38.4519,忻州市,开发区,颗粒物(PM10),145,240,146,64,40,114,22,80,57,41,24,4,6,0.5,0.5
2023-03-08T08:00:00,2182A,112.7003,38.4928,忻州市,会展中心,颗粒物(PM10),152,254,152,62,38,104,29,79,52,34,27,3,6,0.5,0.5
2023-03-08T08:00:00,2183A,111.1406,37.5211,吕梁市,环保局,颗粒物(PM10),172,293,138,38,28,107,4,2,2,61,57,15,14,1.0,0.7
2023-03-08T08:00:00,2185A,111.1297,37.5136,吕梁市,自来水公司,颗粒物(PM10),146,241,136,44,31,104,4,4,3,48,49,15,15,0.7,0.7
2023-03-08T08:00:00,2187A,106.8174,39.6973,乌海市,市林业局,颗粒物(PM10),111,172,143,70,43,107,37,65,56,44,20,90,31,2.2,1
2023-03-08T08:00:00,2188A,106.7907,39.6667,乌海市,中海勃湾学校,颗粒物(PM10),110,170,145,70,42,113,24,88,42,60,25,67,26,2.2,0.7
2023-03-08T08:00:00,2191A,122.2532,43.6801,通辽市,艺术职业学校,"颗粒物(PM10),细颗粒物(PM2.5)",64,78,108,46,37,108,52,70,64,27,22,9,9,0.5,0.4
2023-03-08T08:00:00,2192A,119.7594,49.2261,呼伦贝尔市,区环保局,,35,33,38,24,22,91,57,70,62,22,14,4,6,0.5,0.4
2023-03-08T08:00:00,2195A,107.4212,40.761,巴彦淖尔市,附二中,,,,213,,42,94,,60,60,16,20,3,4,0.5,0.5
2023-03-08T08:00:00,2196A,107.37,40.7372,巴彦淖尔市,市环保大楼,颗粒物(PM10),65,79,190,29,43,105,56,50,50,22,21,4,4,0.5,0.5
2023-03-08T08:00:00,2197A,113.1306,40.9923,乌兰察布市,集宁新区,颗粒物(PM10),58,65,57,20,21,105,16,66,53,41,14,11,10,0.7,0.5
2023-03-08T08:00:00,2200A,122.0392,46.0656,兴安盟,胜华新制药厂,细颗粒物(PM2.5),170,139,83,129,68,100,20,30,28,33,22,5,5,1.4,0.9
2023-03-08T08:00:00,2201A,121.9504,46.0741,兴安盟,科右前旗环保局,细颗粒物(PM2.5),132,142,84,100,69,98,12,25,22,48,30,5,4,1.7,0.9
2023-03-08T08:00:00,2202A,116.1042,43.9317,锡林郭勒盟,市环保监测站,,22,22,50,4,10,89,36,57,53,14,4,8,8,0.2,0.2
2023-03-08T08:00:00,2203A,116.0781,43.9311,锡林郭勒盟,市政府,,27,27,64,2,9,88,44,58,53,15,7,6,8,0.2,0.2
2023-03-08T08:00:00,2204A,105.6467,38.8363,阿拉善盟,西城区西花园,颗粒物(PM10),52,53,62,26,23,103,89,93,93,14,12,9,9,0.5,0.5
2023-03-08T08:00:00,2205A,105.6985,38.8411,阿拉善盟,蒙二幼,颗粒物(PM10),62,74,61,21,28,101,92,98,96,14,7,9,8,0.6,0.5
2023-03-08T08:00:00,2206A,105.724,38.8516,阿拉善盟,环保局新楼,,46,46,55,23,28,109,104,109,106,7,6,10,9,0.3,0.3
2023-03-08T08:00:00,2207A,121.6094,41.998,阜新市,工业园区,颗粒物(PM10),68,85,188,35,88,137,53,73,66,36,34,11,18,0.8,1
2023-03-08T08:00:00,2208A,121.6697,42.0279,阜新市,长青街,颗粒物(PM10),53,55,133,23,72,138,52,68,62,26,25,14,17,0.8,1.1
2023-03-08T08:00:00,2209A,121.6673,42.0705,阜新市,农业园区,,49,49,143,31,77,121,51,63,60,19,20,13,15,0.7,0.9
2023-03-08T08:00:00,2210A,121.6717,42.0224,阜新市,东苑,颗粒物(PM10),70,89,164,28,68,131,43,66,60,32,27,16,18,0.8,0.9
2023-03-08T08:00:00,2211A,121.6506,42.0498,阜新市,玉龙新城,颗粒物(PM10),52,54,139,25,74,132,44,70,59,26,24,11,17,0.6,0.7
2023-03-08T08:00:00,2212A,123.2,41.1953,辽阳市,宏伟区,细颗粒物(PM2.5),65,57,72,47,51,184,28,70,55,32,16,16,11,0.7,0.7
2023-03-08T08:00:00,2213A,123.1683,41.2495,辽阳市,新华园,细颗粒物(PM2.5),62,60,78,44,57,119,37,91,66,30,16,12,9,0.7,0.7
2023-03-08T08:00:00,2214A,123.2354,41.2639,辽阳市,滨河路,细颗粒物(PM2.5),73,63,71,53,64,102,25,66,43,40,28,10,7,0.6,0.5
2023-03-08T08:00:00,2215A,123.149,41.2991,辽阳市,铁西工业园,细颗粒物(PM2.5),67,69,86,48,66,100,25,59,40,35,29,8,9,0.7,0.6
2023-03-08T08:00:00,2216A,123.8139,42.3022,铁岭市,汇工街西,细颗粒物(PM2.5),87,73,120,64,61,124,25,75,46,38,26,11,15,0.7,0.8
2023-03-08T08:00:00,2217A,123.8649,42.2923,铁岭市,水上乐园,细颗粒物(PM2.5),67,74,91,48,50,136,20,80,40,51,28,9,10,0.9,0.9
2023-03-08T08:00:00,2218A,123.8486,42.2867,铁岭市,银州路东段,细颗粒物(PM2.5),78,96,100,57,65,136,24,83,46,42,27,8,9,0.5,0.6
2023-03-08T08:00:00,2219A,123.7153,42.2217,铁岭市,金沙江路北,细颗粒物(PM2.5),62,66,100,44,57,127,35,77,51,34,26,3,8,0.9,0.9
2023-03-08T08:00:00,2220A,120.4318,41.5881,朝阳市,西梁,,27,27,129,9,50,147,66,76,72,14,17,12,14,0.6,0.8
2023-03-08T08:00:00,2221A,120.4521,41.5646,朝阳市,河畔小区,,25,21,108,7,47,172,77,83,82,13,16,9,9,0.5,0.8
2023-03-08T08:00:00,2222A,120.4176,41.5648,朝阳市,八里堡,,25,22,127,4,46,155,77,83,80,9,16,13,20,0.7,1.1
2023-03-08T08:00:00,2223A,120.3806,41.5969,朝阳市,农业园区,,31,31,120,14,45,160,55,74,62,32,23,14,14,0.7,0.9
2023-03-08T08:00:00,2225A,124.4002,43.1713,四平市,一商场,细颗粒物(PM2.5),63,66,165,45,59,145,48,47,47,33,24,10,9,0.6,0.6
2023-03-08T08:00:00,2226A,124.388,43.193,四平市,境园,颗粒物(PM10),60,70,161,40,50,148,38,47,41,32,21,9,5,0.5,0.5
2023-03-08T08:00:00,2227A,125.1358,42.8845,辽源市,环保局,细颗粒物(PM2.5),59,58,62,42,45,137,33,67,38,38,21,12,12,0.8,0.7
2023-03-08T08:00:00,2229A,125.9358,41.7173,通化市,光明,颗粒物(PM10),62,73,64,37,32,161,66,161,99,28,24,12,14,0.3,0.4
2023-03-08T08:00:00,2230A,125.9446,41.7325,通化市,铁路,颗粒物(PM10),51,52,62,27,34,156,79,156,91,19,26,9,13,0.3,0.4
2023-03-08T08:00:00,2231A,126.4219,41.9171,白山市,喜丰,颗粒物(PM10),76,102,88,42,35,136,54,133,100,32,20,12,12,0.8,0.8
2023-03-08T08:00:00,2232A,126.4077,41.9419,白山市,环保局,颗粒物(PM10),78,106,83,52,44,113,39,84,67,44,29,13,15,1.4,1.4
2023-03-08T08:00:00,2233A,124.8006,45.1214,松原市,江南,,29,22,83,20,47,92,37,60,51,19,16,7,10,0.5,0.5
2023-03-08T08:00:00,2234A,124.7965,45.1722,松原市,江北,,25,22,74,17,44,102,42,58,50,21,17,3,5,0.6,0.7
2023-03-08T08:00:00,2235A,122.7911,45.6077,白城市,洮北区环保局,细颗粒物(PM2.5),149,111,68,114,52,100,48,67,56,27,19,6,5,0.7,0.4
2023-03-08T08:00:00,2236A,122.8738,45.5725,白城市,市环保局,颗粒物(PM10),97,143,74,57,35,96,14,66,50,57,19,10,8,0.8,0.4
2023-03-08T08:00:00,2237A,129.47,42.8883,延边朝鲜族自治州,妇幼医院,细颗粒物(PM2.5),84,64,87,62,50,120,71,92,86,22,33,10,11,0.9,0.9
2023-03-08T08:00:00,2238A,129.5055,42.9108,延边朝鲜族自治州,延边医院,细颗粒物(PM2.5),89,69,86,66,56,125,72,78,77,20,27,8,12,0.8,0.9
2023-03-08T08:00:00,2239A,129.3964,42.8881,延边朝鲜族自治州,朝阳川镇医院,细颗粒物(PM2.5),75,61,92,55,59,127,76,100,91,17,31,8,16,0.6,0.6
2023-03-08T08:00:00,2240A,130.9762,45.3001,鸡西市,环保局,,22,9,74,6,53,94,68,66,66,16,23,4,8,0.2,0.6
2023-03-08T08:00:00,2243A,130.9429,45.3039,鸡西市,第一中学,,22,13,87,5,55,100,69,63,63,11,18,4,8,0.3,0.5
2023-03-08T08:00:00,2244A,130.2537,47.3416,鹤岗市,哈啤分公司,,23,17,22,12,14,80,72,79,74,8,9,10,10,0.3,0.2
2023-03-08T08:00:00,2245A,130.2684,47.3086,鹤岗市,斯达机电,,32,22,20,22,13,79,64,78,74,16,9,10,10,0.3,0.2
2023-03-08T08:00:00,2246A,130.3114,47.3388,鹤岗市,东山纸板厂,,25,25,23,16,12,78,64,76,66,15,6,12,9,0.3,0.1
2023-03-08T08:00:00,2247A,130.1097,47.3382,鹤岗市,五号水库,,22,14,16,10,13,85,70,85,70,5,6,5,11,0.2,0.2
2023-03-08T08:00:00,2248A,131.1511,46.6937,双鸭山市,双合村,,24,16,26,9,18,84,76,79,75,10,11,12,14,0.3,0.4
2023-03-08T08:00:00,2249A,131.1652,46.6191,双鸭山市,南小市,,39,39,22,21,11,92,37,84,71,39,9,15,7,0.7,0.3
2023-03-08T08:00:00,2250A,131.1524,46.6554,双鸭山市,环保局,,25,18,30,17,23,91,69,87,78,21,13,9,12,0.2,0.3
2023-03-08T08:00:00,2251A,131.12,46.5656,双鸭山市,苗圃,细颗粒物(PM2.5),57,33,28,40,26,104,56,88,79,22,12,3,4,0.3,0.1
2023-03-08T08:00:00,2252A,128.5159,47.4311,伊春市,环保局,,14,12,16,9,7,80,38,80,60,27,17,6,6,0.6,0.5
2023-03-08T08:00:00,2253A,128.9102,47.7412,伊春市,电力嘉园,,20,20,21,9,14,57,22,56,44,29,8,6,5,0.5,0.4
2023-03-08T08:00:00,2254A,129.5029,48.471,伊春市,汤旺河国家公园,,,,,,,,,,,,,,,,
2023-03-08T08:00:00,2255A,130.2751,46.8028,佳木斯市,佳纺,,29,25,23,20,13,131,51,80,63,31,15,8,3,0.7,0.4
2023-03-08T08:00:00,2256A,130.3995,46.8307,佳木斯市,发电厂,,21,9,23,6,10,81,67,80,74,16,11,3,7,0.4,0.3
2023-03-08T08:00:00,2257A,130.3258,46.7975,佳木斯市,环保局,,28,24,22,14,11,77,26,76,53,55,22,5,4,0.7,0.4
2023-03-08T08:00:00,2258A,130.3648,46.8032,佳木斯市,十一中,,25,18,20,17,12,78,58,77,66,28,17,7,7,0.5,0.4
2023-03-08T08:00:00,2259A,130.3794,46.7588,佳木斯市,四丰,,29,20,16,10,10,107,90,106,97,17,16,1,1,0.3,0.3
2023-03-08T08:00:00,2262A,131.0518,45.8751,七台河市,新一中,,28,8,24,6,16,101,89,88,88,7,12,5,7,0.4,0.6
2023-03-08T08:00:00,2263A,127.4833,50.2524,黑河市,交通局,,16,9,20,9,13,81,51,58,56,14,14,4,7,0.4,0.4
2023-03-08T08:00:00,2264A,127.5144,50.2341,黑河市,环保局,,20,10,18,14,15,84,47,70,66,26,15,5,6,0.5,0.4
2023-03-08T08:00:00,2265A,127.5291,50.2472,黑河市,大黑河岛,,19,5,15,8,10,84,58,59,59,3,5,11,5,0.3,0.3
2023-03-08T08:00:00,2266A,126.9785,46.6365,绥化市,人和东街,,30,30,28,20,16,79,62,78,71,19,14,4,4,0.5,0.5
2023-03-08T08:00:00,2267A,126.964,46.6528,绥化市,党政办公中心,,35,31,24,24,18,79,62,76,71,17,13,5,3,0.3,0.3
2023-03-08T08:00:00,2269A,124.1069,50.4097,大兴安岭地区,科技局,,19,4,15,13,12,86,54,66,58,5,6,6,7,0.2,0.2
2023-03-08T08:00:00,2270A,117.396,32.939,蚌埠市,工人疗养院,细颗粒物(PM2.5),98,120,80,73,45,146,44,78,60,61,38,13,14,0.8,0.6
2023-03-08T08:00:00,2271A,117.3605,32.9427,蚌埠市,百货大楼,颗粒物(PM10),95,140,94,62,44,145,54,66,57,53,37,9,8,0.8,0.7
2023-03-08T08:00:00,2273A,117.4185,32.8911,蚌埠市,蚌埠学院,细颗粒物(PM2.5),83,105,89,61,41,147,50,59,52,44,32,16,12,0.9,0.7
2023-03-08T08:00:00,2274A,117.3533,32.9673,蚌埠市,淮上区政府,细颗粒物(PM2.5),85,107,87,63,41,147,64,73,66,37,26,17,10,0.7,0.6
2023-03-08T08:00:00,2275A,117.3145,32.8977,蚌埠市,高新区,细颗粒物(PM2.5),94,122,98,70,51,137,16,40,28,70,44,8,10,0.9,0.7
2023-03-08T08:00:00,2277A,116.8305,32.7727,淮南市,潘集区政府,细颗粒物(PM2.5),92,93,88,68,52,153,50,77,65,37,25,15,11,0.5,0.5
2023-03-08T08:00:00,2278A,117.0067,32.6524,淮南市,师范学院,颗粒物(PM10),72,93,75,46,44,140,61,96,79,39,20,18,14,0.7,0.5
2023-03-08T08:00:00,2279A,116.8569,32.5951,淮南市,谢家集区政府,细颗粒物(PM2.5),79,81,68,58,43,150,47,88,71,27,19,10,12,0.5,0.5
2023-03-08T08:00:00,2280A,116.8281,32.633,淮南市,八公山区政府,颗粒物(PM10),69,87,72,49,35,147,64,101,85,24,18,12,10,0.4,0.3
2023-03-08T08:00:00,2281A,116.6325,32.6201,淮南市,焦岗湖风景区管理处,细颗粒物(PM2.5),82,70,64,60,41,145,19,64,32,49,29,4,6,0.7,0.7
2023-03-08T08:00:00,2282A,116.8004,33.975,淮北市,监测站,细颗粒物(PM2.5),94,86,99,70,59,177,65,98,91,32,23,12,12,0.8,0.6
2023-03-08T08:00:00,2283A,116.8091,33.9007,淮北市,烈山区政府,细颗粒物(PM2.5),98,98,99,73,61,169,41,59,53,49,39,20,15,1.0,0.7
2023-03-08T08:00:00,2284A,116.7856,33.9477,淮北市,职业技术学院,细颗粒物(PM2.5),105,111,103,79,66,165,51,97,86,46,26,16,14,1.1,0.8
2023-03-08T08:00:00,2285A,117.8177,30.9412,铜陵市,市第四中学,颗粒物(PM10),77,103,88,51,43,130,5,7,7,83,60,24,18,1.9,0.9
2023-03-08T08:00:00,2286A,117.8059,30.9273,铜陵市,市公路局,颗粒物(PM10),73,96,83,44,42,121,56,19,19,45,50,27,16,1.5,1.1
2023-03-08T08:00:00,2287A,117.7807,30.9413,铜陵市,市新民污水厂,颗粒物(PM10),78,105,85,47,39,133,3,3,2,86,75,18,12,2.4,1
2023-03-08T08:00:00,2288A,117.7439,30.8792,铜陵市,市第九中学,颗粒物(PM10),81,112,106,48,43,113,26,20,20,68,84,14,14,2.1,1.2
2023-03-08T08:00:00,2289A,117.846,30.9413,铜陵市,车站新区,颗粒物(PM10),63,75,69,42,33,121,35,39,24,59,54,15,14,1.1,0.8
2023-03-08T08:00:00,2290A,117.8483,30.97,铜陵市,市职教基地,颗粒物(PM10),72,93,76,45,38,140,12,18,8,51,42,9,9,1.0,0.6
2023-03-08T08:00:00,2291A,117.0809,30.5177,安庆市,环科院,细颗粒物(PM2.5),69,72,75,50,51,116,16,2,2,78,72,12,12,0.6,0.6
2023-03-08T08:00:00,2292A,117.0331,30.5119,安庆市,马山宾馆,细颗粒物(PM2.5),74,75,77,54,48,124,16,75,22,74,62,10,12,0.8,0.8
2023-03-08T08:00:00,2294A,116.9896,30.6145,安庆市,安庆大学,颗粒物(PM10),89,128,90,62,49,129,5,7,6,80,64,12,16,0.9,1.1
2023-03-08T08:00:00,2295A,118.2903,29.6963,黄山市,延安路89号,,38,33,39,26,29,142,10,46,26,26,20,5,6,0.4,0.4
2023-03-08T08:00:00,2296A,118.327,29.7178,黄山市,黄山东路89号,,48,43,48,33,32,137,7,28,18,24,25,4,6,0.5,0.6
2023-03-08T08:00:00,2297A,118.1371,30.2756,黄山市,黄山区政府5号楼,颗粒物(PM10),58,65,68,35,40,136,23,40,31,17,14,6,7,0.7,0.7
2023-03-08T08:00:00,2298A,118.3093,32.3153,滁州市,老年大学,细颗粒物(PM2.5),95,104,87,71,54,154,8,95,36,64,42,12,16,1.2,1
2023-03-08T08:00:00,2299A,118.3244,32.2786,滁州市,人大宾馆,细颗粒物(PM2.5),97,122,100,72,60,151,15,77,60,82,50,10,14,1.0,0.7
2023-03-08T08:00:00,2301A,115.8277,32.8929,阜阳市,市监测站,"颗粒物(PM10),细颗粒物(PM2.5)",69,87,65,50,38,152,95,114,109,24,20,10,8,0.8,0.6
2023-03-08T08:00:00,2303A,115.8554,32.8605,阜阳市,开发区,颗粒物(PM10),78,105,83,45,41,153,77,101,96,34,28,11,10,0.6,0.5
2023-03-08T08:00:00,2307A,116.5079,31.737,六安市,监测大楼,,,58,49,35,32,127,42,87,79,63,31,,8,0.5,0.3
2023-03-08T08:00:00,2308A,116.4738,31.7643,六安市,皖西学院,颗粒物(PM10),61,72,55,39,26,134,44,92,66,39,24,5,5,0.5,0.4
2023-03-08T08:00:00,2309A,116.4996,31.7905,六安市,朝阳厂,细颗粒物(PM2.5),62,71,52,44,31,132,24,105,68,60,29,7,7,0.8,0.6
2023-03-08T08:00:00,2310A,116.5567,31.7886,六安市,开发区,颗粒物(PM10),74,98,71,41,34,127,14,78,40,46,27,9,8,0.7,0.5
2023-03-08T08:00:00,2311A,115.8072,33.8399,亳州市,污水处理厂,"颗粒物(PM10),细颗粒物(PM2.5)",78,105,79,57,44,167,57,106,89,32,21,10,16,0.9,0.7
2023-03-08T08:00:00,2312A,115.7789,33.8518,亳州市,三国揽胜宫,细颗粒物(PM2.5),83,95,82,61,49,168,62,106,89,20,10,8,13,0.8,0.6
2023-03-08T08:00:00,2314A,117.47,30.6618,池州市,池州学院,细颗粒物(PM2.5),78,78,73,57,45,124,30,52,34,44,40,6,9,0.9,0.9
2023-03-08T08:00:00,2316A,118.7581,30.9454,宣城市,鳌峰子站,细颗粒物(PM2.5),64,75,66,46,38,116,43,65,62,43,37,10,8,0.6,0.6
2023-03-08T08:00:00,2317A,118.7385,30.9743,宣城市,敬亭山子站,颗粒物(PM10),60,70,61,40,33,127,24,74,52,59,30,16,14,0.8,0.5
2023-03-08T08:00:00,2318A,118.7173,30.9427,宣城市,开发区子站,细颗粒物(PM2.5),63,70,66,45,39,116,18,35,31,75,51,8,11,0.7,0.5
2023-03-08T08:00:00,2319A,119.0141,25.4325,莆田市,荔城区仓后路,颗粒物(PM10),52,53,52,30,22,143,44,54,50,27,19,9,8,0.8,0.7
2023-03-08T08:00:00,2320A,119.0015,25.4553,莆田市,莆田市监测站,,30,27,40,21,19,148,52,55,54,14,12,6,7,0.5,0.5
2023-03-08T08:00:00,2321A,119.1119,25.4561,莆田市,涵江区六中,,36,36,48,24,26,138,48,47,47,29,22,8,7,0.5,0.5
2023-03-08T08:00:00,2322A,119.1013,25.3215,莆田市,秀屿区政府,细颗粒物(PM2.5),75,74,54,55,30,139,31,39,32,41,23,14,7,0.8,0.6
2023-03-08T08:00:00,2323A,118.981,25.4792,莆田市,东圳水库,,,,,,,,,,,,,,,,
2023-03-08T08:00:00,2324A,117.6211,26.2625,三明市,三钢,细颗粒物(PM2.5),72,80,61,52,36,175,10,54,31,59,38,13,12,1.3,0.8
2023-03-08T08:00:00,2325A,117.635,26.2714,三明市,三明二中,,42,41,50,29,29,167,23,38,32,52,41,5,7,1.0,0.8
2023-03-08T08:00:00,2326A,117.6028,26.2378,三明市,三元区政府,细颗粒物(PM2.5),74,72,72,54,41,161,26,39,28,46,46,12,15,0.9,1.3
2023-03-08T08:00:00,2327A,117.7275,26.3108,三明市,洋溪,,,,,,,,,,,,,,,,
2023-03-08T08:00:00,2331A,118.0966,26.6761,南平市,茫荡山,,,,,,,,,,,,,,,,
2023-03-08T08:00:00,2332A,118.1681,26.6369,南平市,南平市监测站,,48,48,54,28,31,151,40,52,44,23,23,4,4,0.7,0.7
2023-03-08T08:00:00,2333A,118.1825,26.6489,南平市,南平铝业有限公司,,44,44,51,29,32,151,37,46,39,28,30,7,10,0.6,0.6
2023-03-08T08:00:00,2334A,118.1756,26.6272,南平市,南平七中,,42,41,51,29,29,154,33,54,43,24,23,4,5,0.6,0.6
2023-03-08T08:00:00,2335A,117.0189,25.1181,龙岩市,龙岩师专,,,,,,,,,,,,,,,,
2023-03-08T08:00:00,2336A,117.0217,25.1033,龙岩市,龙岩市监测站,"颗粒物(PM10),细颗粒物(PM2.5)",57,63,57,40,35,180,25,59,42,51,33,19,18,0.9,0.6
2023-03-08T08:00:00,2337A,117.0258,25.0661,龙岩市,闽西职业技术学院,颗粒物(PM10),69,87,69,37,32,167,13,70,39,70,39,28,20,0.6,0.5
2023-03-08T08:00:00,2338A,117.0196,25.0306,龙岩市,龙岩学院,,46,42,49,32,27,170,63,87,73,18,19,7,9,0.3,0.3
2023-03-08T08:00:00,2339A,119.5001,26.6946,宁德市,金涵水库,,,,,,,,,,,,,,,,
2023-03-08T08:00:00,2341A,119.5388,26.6612,宁德市,宁德市监测站,,26,20,40,18,21,138,35,66,53,28,17,3,4,0.8,0.7
2023-03-08T08:00:00,2342A,117.3102,29.3867,景德镇市,王港中学,,48,48,51,25,28,164,17,28,23,12,17,5,4,0.5,0.6
2023-03-08T08:00:00,2343A,117.2117,29.2933,景德镇市,老干部活动中心,细颗粒物(PM2.5),70,68,80,51,43,151,13,16,16,43,38,8,10,0.7,0.6
2023-03-08T08:00:00,2344A,117.1894,29.2789,景德镇市,兽医站,细颗粒物(PM2.5),60,56,66,43,39,161,35,28,28,26,34,7,9,0.8,0.7
2023-03-08T08:00:00,2345A,117.1547,29.2617,景德镇市,台达陶瓷,颗粒物(PM10),52,54,89,30,44,143,33,28,28,44,48,7,16,0.8,0.9
2023-03-08T08:00:00,2346A,117.2461,29.2956,景德镇市,陶研所,颗粒物(PM10),56,62,68,38,34,149,14,19,16,36,32,7,9,0.7,0.7
2023-03-08T08:00:00,2347A,114.0997,27.5002,萍乡市,武功山,,46,26,37,32,31,142,53,75,65,13,14,16,17,0.7,0.5
2023-03-08T08:00:00,2348A,113.8385,27.6434,萍乡市,中医院,细颗粒物(PM2.5),73,65,80,53,49,156,56,41,41,26,35,16,20,1.2,1.2
2023-03-08T08:00:00,2349A,113.8493,27.6253,萍乡市,市政府车库,细颗粒物(PM2.5),74,66,84,54,55,160,45,54,52,22,28,9,16,1.2,1
2023-03-08T08:00:00,2350A,113.8676,27.6435,萍乡市,市环保局,细颗粒物(PM2.5),69,60,84,50,53,147,43,44,44,32,30,20,24,1.1,0.9
2023-03-08T08:00:00,2351A,113.866,27.6198,萍乡市,安源区政府,细颗粒物(PM2.5),78,69,81,57,55,151,38,48,47,31,29,15,21,1.0,0.9
2023-03-08T08:00:00,2352A,115.0861,27.9317,新余市,北岗,,,,,,,,,,,,,,,,
2023-03-08T08:00:00,2353A,114.9886,27.8431,新余市,飞宇,颗粒物(PM10),70,89,99,2,39,138,68,37,37,6,30,6,24,0.6,1
2023-03-08T08:00:00,2354A,114.9231,27.8246,新余市,第二水厂,颗粒物(PM10),68,85,104,40,45,145,73,43,43,23,52,10,22,0.4,0.8
2023-03-08T08:00:00,2355A,114.9308,27.8036,新余市,市气象局,细颗粒物(PM2.5),69,78,110,50,56,139,74,58,58,19,36,11,29,0.8,1.2
2023-03-08T08:00:00,2357A,116.9822,28.1136,鹰潭市,龙虎山,,45,45,47,26,29,172,57,98,74,2,2,4,5,0.8,0.7
2023-03-08T08:00:00,2358A,117.0564,28.2642,鹰潭市,新监测站,细颗粒物(PM2.5),85,88,72,63,39,172,172,85,68,62,36,54,32,1.3,0.6
2023-03-08T08:00:00,2359A,117.0311,28.2475,鹰潭市,财苑宾馆,颗粒物(PM10),66,82,80,44,38,161,18,84,46,65,42,24,34,0.7,0.6
2023-03-08T08:00:00,2360A,117.0222,28.2264,鹰潭市,体育馆,细颗粒物(PM2.5),55,57,74,39,39,168,57,86,72,30,40,11,25,0.3,0.5
2023-03-08T08:00:00,2361A,117.0017,28.2131,鹰潭市,三川水表,颗粒物(PM10),54,57,68,29,35,163,46,77,48,17,26,5,8,0.6,0.5
2023-03-08T08:00:00,2362A,114.9017,25.9149,赣州市,通天岩,细颗粒物(PM2.5),73,88,76,53,38,220,19,65,43,46,34,21,15,1.1,1
2023-03-08T08:00:00,2363A,114.9367,25.8664,赣州市,地委,细颗粒物(PM2.5),69,76,94,50,44,217,19,28,27,52,43,22,21,1.0,1
2023-03-08T08:00:00,2364A,114.9461,25.8481,赣州市,气象台,细颗粒物(PM2.5),57,60,68,40,40,210,25,38,35,70,47,29,23,0.9,0.9
2023-03-08T08:00:00,2365A,114.9322,25.8333,赣州市,市图书馆,颗粒物(PM10),66,81,86,45,42,200,8,22,19,71,53,39,23,1.2,1.2
2023-03-08T08:00:00,2366A,114.8905,25.8471,赣州市,华坚鞋城,细颗粒物(PM2.5),82,100,96,60,45,215,31,34,32,46,51,42,26,1.1,1
2023-03-08T08:00:00,2367A,114.9754,27.0803,吉安市,红声器材厂,细颗粒物(PM2.5),68,76,67,49,38,176,48,126,94,43,25,22,22,0.6,0.6
2023-03-08T08:00:00,2368A,114.9658,27.0999,吉安市,市森林工业局,细颗粒物(PM2.5),72,75,67,52,42,179,54,118,92,44,31,19,18,0.3,0.4
2023-03-08T08:00:00,2369A,114.99,27.1312,吉安市,市环境监测站,细颗粒物(PM2.5),69,73,68,50,39,190,64,133,102,37,27,25,22,0.7,0.6
2023-03-08T08:00:00,2370A,115.0093,27.0968,吉安市,青原区法院,细颗粒物(PM2.5),65,72,67,47,37,182,52,119,101,43,28,22,18,0.5,0.4
2023-03-08T08:00:00,2371A,114.3408,27.8064,宜春市,槟榔水业,细颗粒物(PM2.5),73,81,79,53,46,102,45,31,31,18,26,27,29,0.8,0.7
2023-03-08T08:00:00,2373A,114.3956,27.7844,宜春市,市石油公司,细颗粒物(PM2.5),74,94,78,54,46,159,59,72,70,30,37,6,8,1.0,0.9
2023-03-08T08:00:00,2374A,114.3703,27.7914,宜春市,市气象局,细颗粒物(PM2.5),79,93,78,58,45,164,67,88,67,25,33,11,13,0.9,0.7
2023-03-08T08:00:00,2375A,114.4013,27.8074,宜春市,市广电局,细颗粒物(PM2.5),85,86,81,63,53,165,88,90,82,25,38,22,16,1.2,1.7
2023-03-08T08:00:00,2376A,116.2127,28.0814,抚州市,桐源党溪,颗粒物(PM10),56,61,56,37,34,165,14,18,14,26,16,4,6,1.3,0.9
2023-03-08T08:00:00,2377A,116.3544,27.9831,抚州市,市站,颗粒物(PM10),53,56,72,34,40,161,73,70,70,30,34,8,8,0.8,0.9
