timepoint,stationcode,longitude,latitude,area,positionname,primarypollutant,aqi,pm10,pm10_24h,pm2_5,pm2_5_24h,o3,o3_24h,o3_8h,o3_8h_24h,no2,no2_24h,so2,so2_24h,co,co_24h
2026-01-30T1500,2568A,102.2503,31.8896,阿坝藏族羌族自治州,马师校,,37,37,31,15,14,93,,64,64,4,12,4,4,0.5,0.6
2026-01-30T1500,3994A,102.2174,31.9016,阿坝藏族羌族自治州,马尔康中学西区,,38,38,28,13,13,89,,64,64,4,10,7,7,0.6,0.7
2026-01-30T1500,2695A,80.2899,41.1684,阿克苏地区,电视台,颗粒物(PM10),134,218,241,61,60,76,,49,49,10,17,,10,,0.7
2026-01-30T1500,2696A,80.2592,41.1541,阿克苏地区,艺术中心,细颗粒物(PM2.5),133,214,237,101,96,79,,50,50,14,25,6,5,0.5,0.7
2026-01-30T1500,2205A,105.699,38.8409,阿拉善盟,蒙二幼,颗粒物(PM10),126,201,136,46,40,76,,66,66,7,16,10,13,0.5,0.7
2026-01-30T1500,2206A,105.7198,38.8508,阿拉善盟,环保局新楼,颗粒物(PM10),117,184,123,56,38,69,,61,61,7,16,7,11,0.4,0.6
2026-01-30T1500,2708A,88.1266,47.8515,阿勒泰地区,市站,,25,25,39,3,23,66,,45,44,31,41,15,4,0.3,0.5
2026-01-30T1500,4166A,88.1198,47.7931,阿勒泰地区,阿勒泰路33号,,28,24,33,9,20,87,,54,54,9,31,27,8,0.3,0.5
2026-01-30T1500,2630A,80.1171,32.4999,阿里地区,阿里监测站,,25,,3,3,3,79,,71,71,3,6,7,9,0.2,0.3
2026-01-30T1500,3192A,80.0906,32.5029,阿里地区,阿里藏医院,,25,6,11,3,5,80,,67,67,2,5,9,12,0.6,0.7
2026-01-30T1500,2644A,109.0088,32.6974,安康市,汉滨区检察院,,38,27,23,26,23,65,,58,50,15,11,7,6,1.1,1.1
2026-01-30T1500,4054A,109.0324,32.6913,安康市,市邮政管理局,,32,32,31,22,21,69,,57,51,17,17,4,4,0.8,0.8
2026-01-30T1500,2291A,117.0806,30.5181,安庆市,环科院,,20,13,39,7,24,63,,58,58,10,13,5,5,0.5,0.5
2026-01-30T1500,2292A,117.0331,30.5118,安庆市,马山宾馆,,19,12,39,10,28,60,,53,53,19,19,4,4,0.6,0.6
2026-01-30T1500,2294A,116.9897,30.6146,安庆市,安庆大学,,22,10,34,3,19,68,,63,63,14,19,3,3,0.5,0.6
2026-01-30T1500,3173A,117.0598,30.5351,安庆市,市人大,,20,16,39,9,26,61,,57,57,14,16,4,4,0.6,0.5
2026-01-30T1500,3123A,105.9408,26.2431,安顺市,凤凰山,,36,30,28,25,24,67,,64,64,14,11,20,11,0.8,0.7
2026-01-30T1500,3124A,105.9443,26.2567,安顺市,金钟山,,24,24,26,3,19,65,,62,62,12,10,18,11,0.8,0.7
2026-01-30T1500,3125A,105.8983,26.248,安顺市,娄家坡,,30,24,24,21,24,72,,65,65,12,11,14,16,0.8,0.8
2026-01-30T1500,1819A,114.3552,36.1017,安阳市,红庙街,细颗粒物(PM2.5),120,101,90,91,74,74,,49,49,21,29,1,2,1.0,0.9
2026-01-30T1500,1820A,114.361,36.0681,安阳市,银杏小区,细颗粒物(PM2.5),128,112,90,97,82,79,,53,53,17,26,3,3,0.8,0.8
2026-01-30T1500,3141A,114.3921,36.0879,安阳市,信访局,细颗粒物(PM2.5),123,98,89,93,77,86,,56,56,11,21,4,4,0.8,0.7
2026-01-30T1500,3669A,114.4706,36.0634,安阳市,左辅环卫站,细颗粒物(PM2.5),137,126,99,104,78,78,,55,55,19,28,5,3,0.7,0.6
2026-01-30T1500,4117A,114.2918,36.0769,安阳市,钢三路198号,细颗粒物(PM2.5),139,141,124,106,93,65,,43,43,20,26,4,4,0.9,0.8
2026-01-30T1500,1748A,123.0441,41.1201,鞍山市,深沟寺,,34,34,43,14,24,74,,55,55,14,29,10,10,0.6,0.9
2026-01-30T1500,1749A,123.011,41.0931,鞍山市,太阳城,,34,34,49,16,30,72,,50,50,15,32,13,16,0.6,1
2026-01-30T1500,1750A,123.0483,41.1445,鞍山市,太平,,31,31,67,13,34,70,,45,45,13,33,12,11,0.3,0.7
2026-01-30T1500,1751A,122.964,41.0968,鞍山市,铁西三道街,,43,43,83,24,45,64,,44,44,27,47,20,18,1.3,1.3
2026-01-30T1500,1753A,123.0219,41.0822,鞍山市,明达新区,,31,31,49,15,29,73,,52,52,17,33,10,15,0.6,1.1
2026-01-30T1500,4201A,122.944647,41.082639,鞍山市,兴盛南路290号,,49,49,102,19,50,62,,47,47,29,53,14,18,0.4,1.7
2026-01-30T1500,2195A,107.4206,40.7609,巴彦淖尔市,附二中,,48,48,85,22,43,74,,43,43,8,30,10,13,0.3,0.7
2026-01-30T1500,2196A,107.37,40.7372,巴彦淖尔市,市环保大楼,颗粒物(PM10),60,70,88,27,43,71,,44,44,12,32,10,10,0.5,0.8
2026-01-30T1500,1956A,86.1476,41.7529,巴音郭楞蒙古自治州,孔雀公园,,,42,71,,29,54,,55,46,,15,8,7,0.5,0.5
2026-01-30T1500,1957A,86.1971,41.7166,巴音郭楞蒙古自治州,棉纺厂,,49,49,94,16,36,68,,34,34,7,28,/,/,/,/
2026-01-30T1500,1958A,86.236,41.7172,巴音郭楞蒙古自治州,经济开发区,,22,22,61,8,20,67,,49,49,2,5,5,4,0.4,0.4
2026-01-30T1500,3181A,106.776805,31.852614,巴中市,市五中,,,21,25,11,13,63,,30,30,12,18,,5,0.9,1
2026-01-30T1500,3183A,106.7419,31.8654,巴中市,圣泉水务公司,,26,26,25,9,12,65,,36,36,16,27,1,3,0.7,0.9
2026-01-30T1500,3616A,106.7617,31.8343,巴中市,市中心医院,,21,16,17,12,14,66,,33,33,12,21,5,5,0.8,0.9
2026-01-30T1500,2235A,122.7909,45.608,白城市,洮北区环保局,,24,18,46,9,34,74,,59,59,9,23,4,6,0.2,0.5
2026-01-30T1500,2236A,122.8741,45.5725,白城市,市环保局,,24,14,49,13,27,76,,54,54,5,24,3,6,0.2,0.4
2026-01-30T1500,2231A,126.4219,41.9172,白山市,喜丰,,36,36,53,12,29,77,,56,56,7,30,11,15,0.6,0.8
2026-01-30T1500,2232A,126.4082,41.9416,白山市,环保局,,49,49,47,16,34,72,,52,52,12,23,13,13,0.6,0.8
2026-01-30T1500,2647A,104.1727,36.5448,白银市,第三小学,颗粒物(PM10),148,245,144,72,52,63,,52,52,17,18,7,12,0.7,0.7
2026-01-30T1500,2648A,104.1467,36.5482,白银市,动力公司,颗粒物(PM10),146,241,136,75,49,70,,58,58,12,14,6,6,0.5,0.7
2026-01-30T1500,2512A,106.6102,23.901,百色市,市监测站,细颗粒物(PM2.5),52,41,49,36,36,48,,27,27,11,20,8,13,0.7,0.7
2026-01-30T1500,2513A,106.6524,23.8842,百色市,市中心血站,颗粒物(PM10),55,59,58,28,41,53,,32,32,8,21,8,15,0.9,1
2026-01-30T1500,4133A,106.6273,23.8798,百色市,龙景西路,颗粒物(PM10),80,110,69,27,38,60,,24,24,14,24,11,14,0.6,0.7
2026-01-30T1500,2270A,117.396,32.9389,蚌埠市,工人疗养院,,50,50,52,28,31,74,,75,70,14,16,3,3,0.4,0.4
2026-01-30T1500,2271A,117.3606,32.9428,蚌埠市,百货大楼,颗粒物(PM10),51,51,52,29,31,69,,73,65,13,15,5,5,0.5,0.4
2026-01-30T1500,2273A,117.4183,32.8909,蚌埠市,蚌埠学院,,34,34,41,23,31,67,,62,62,22,26,4,4,0.4,0.4
2026-01-30T1500,2274A,117.3534,32.9672,蚌埠市,淮上区政府,,48,48,49,31,37,73,,77,71,14,15,4,4,0.4,0.4
2026-01-30T1500,2275A,117.3143,32.8977,蚌埠市,高新区,,49,46,43,34,32,68,,73,68,14,13,5,5,0.4,0.4
2026-01-30T1500,3715A,117.3091,32.9314,蚌埠市,蚌埠田家炳中学,颗粒物(PM10),52,54,51,31,33,71,,75,70,14,14,3,3,0.4,0.4
2026-01-30T1500,1585A,109.8761,40.6533,包头市,市环境监测站,,43,43,84,13,41,79,,59,59,10,57,5,13,0.4,1.1
2026-01-30T1500,1587A,109.9992,40.5843,包头市,包头八中,颗粒物(PM10),53,56,95,20,47,80,,55,55,11,53,6,11,0.4,1
2026-01-30T1500,1589A,109.8641,40.6288,包头市,惠龙物流,颗粒物(PM10),52,54,93,16,43,85,,60,60,11,59,8,18,0.5,1.3
2026-01-30T1500,1590A,110.0376,40.5546,包头市,东河鸿龙湾,颗粒物(PM10),51,52,85,19,45,79,,52,52,12,64,9,14,0.6,1.1
2026-01-30T1500,3283A,109.9154,40.5684,包头市,滨河大厦,,44,44,86,19,50,75,,47,47,15,60,9,12,0.7,1.1
2026-01-30T1500,3419A,109.9449,40.6259,包头市,包头市委党校,,34,34,69,23,37,81,,58,58,10,58,8,16,0.5,1.1
2026-01-30T1500,3683A,109.8332,40.6577,包头市,昆区政府,,42,42,80,18,43,81,,58,58,12,63,7,17,0.5,1.4
2026-01-30T1500,1931A,107.0802,34.3129,宝鸡市,竹园沟,细颗粒物(PM2.5),64,,66,46,59,35,,26,25,15,22,6,6,0.9,1
2026-01-30T1500,1933A,107.1429,34.3549,宝鸡市,监测站,细颗粒物(PM2.5),78,,65,57,72,35,,27,23,18,24,5,4,0.8,0.8
2026-01-30T1500,1934A,107.1172,34.3759,宝鸡市,技工学校,细颗粒物(PM2.5),67,51,59,48,61,40,,29,27,17,23,3,2,0.9,1
2026-01-30T1500,1936A,107.2025,34.3518,宝鸡市,文理学院,细颗粒物(PM2.5),68,50,65,49,66,40,,30,26,19,24,4,3,0.9,0.9
2026-01-30T1500,1937A,107.2396,34.3626,宝鸡市,三迪小学,细颗粒物(PM2.5),77,63,67,56,73,39,,31,29,24,26,3,2,1.0,1
2026-01-30T1500,4155A,107.1721,34.3558,宝鸡市,滨河北路,细颗粒物(PM2.5),64,51,79,46,62,38,,28,24,10,16,5,4,1.0,1
2026-01-30T1500,4308A,107.3898,34.3601,宝鸡市,陈仓区北开路21号,细颗粒物(PM2.5),102,,75,76,76,33,,28,28,26,28,7,5,1.2,1
2026-01-30T1500,1051A,115.4803,38.8568,保定市,游泳馆,细颗粒物(PM2.5),122,92,100,92,85,65,,42,42,21,38,4,4,0.6,0.6
2026-01-30T1500,1052A,115.509,38.8895,保定市,华电二区,细颗粒物(PM2.5),109,91,89,82,76,61,,37,37,18,30,3,3,0.8,0.9
2026-01-30T1500,1053A,115.4588,38.9037,保定市,接待中心,细颗粒物(PM2.5),107,91,104,80,80,59,,42,42,13,25,2,2,0.4,0.4
2026-01-30T1500,1054A,115.4484,38.8344,保定市,地表水厂,细颗粒物(PM2.5),93,100,116,69,76,64,,37,37,18,42,6,5,0.5,0.6
2026-01-30T1500,3581A,115.3136,38.9511,保定市,满城区生态环境分局,细颗粒物(PM2.5),109,134,124,82,84,55,,27,27,20,39,4,3,0.8,0.7
2026-01-30T1500,3582A,115.4709,38.7628,保定市,清苑区第二中学,细颗粒物(PM2.5),103,104,124,77,82,63,,34,34,17,45,8,6,0.6,0.7
2026-01-30T1500,3583A,115.6231,39.0223,保定市,徐水物探局,细颗粒物(PM2.5),119,129,131,90,86,54,,18,,22,43,,4,,0.8
2026-01-30T1500,4004A,115.4199,38.8665,保定市,双鹰农机,细颗粒物(PM2.5),99,120,127,74,81,72,,45,45,14,33,7,6,0.6,0.7
2026-01-30T1500,4034A,115.515,38.8589,保定市,植保所站,细颗粒物(PM2.5),110,104,108,83,81,62,,35,35,20,43,3,2,0.7,0.7
2026-01-30T1500,2594A,99.1589,25.1137,保山市,市环境监测站,,30,24,29,10,16,95,,66,66,6,9,4,4,0.2,0.3
2026-01-30T1500,2595A,99.1616,25.1381,保山市,市环保局,,33,33,34,14,17,94,,67,67,4,6,3,4,0.4,0.5
2026-01-30T1500,1867A,109.1435,21.4085,北海市,海滩公园,,39,39,41,15,18,122,,97,97,8,9,6,7,1.2,0.9
2026-01-30T1500,1868A,109.0983,21.466,北海市,新市环保局,,35,26,37,11,17,112,,91,91,13,12,7,7,0.7,0.7
2026-01-30T1500,1869A,109.1775,21.5232,北海市,北海工业园,,40,40,42,13,22,104,,78,78,6,11,6,6,0.5,0.6
2026-01-30T1500,3400A,109.1844,21.4396,北海市,龙潭自来水厂,,33,29,39,8,19,103,,89,89,4,7,3,3,0.6,0.7
2026-01-30T1500,1001A,116.3611,39.8786,北京市,万寿西宫,细颗粒物(PM2.5),110,112,113,83,79,62,,37,37,21,44,3,3,0.7,0.8
2026-01-30T1500,1003A,116.4174,39.9289,北京市,东四,细颗粒物(PM2.5),104,114,110,78,72,55,,30,30,21,38,5,5,0.7,0.7
2026-01-30T1500,1004A,116.4073,39.8858,北京市,天坛,细颗粒物(PM2.5),104,111,102,78,73,62,,34,34,22,43,3,2,0.7,0.8
2026-01-30T1500,1005A,116.4622,39.9364,北京市,农展馆,细颗粒物(PM2.5),104,111,108,78,77,65,,31,31,17,36,5,5,0.8,0.8
2026-01-30T1500,1006A,116.3399,39.9293,北京市,官园,细颗粒物(PM2.5),112,115,112,84,79,53,,31,31,28,42,3,4,0.7,0.8
2026-01-30T1500,1007A,116.2879,39.9613,北京市,海淀万柳,细颗粒物(PM2.5),117,134,109,88,75,4,,5,5,66,55,4,3,1.1,0.8
2026-01-30T1500,1008A,116.6635,40.1349,北京市,顺义新城,细颗粒物(PM2.5),128,146,119,97,72,36,,20,20,45,53,7,6,0.9,1
2026-01-30T1500,1009A,116.6275,40.327,北京市,怀柔镇,细颗粒物(PM2.5),114,123,84,86,57,20,,21,20,49,33,5,5,1.0,0.8
2026-01-30T1500,1010A,116.2295,40.217,北京市,昌平镇,细颗粒物(PM2.5),125,138,105,95,70,10,,11,10,64,46,3,3,1.1,0.9
2026-01-30T1500,1011A,116.3968,39.982,北京市,奥体中心,细颗粒物(PM2.5),125,136,110,95,71,10,,14,14,74,63,5,5,1.0,1.1
2026-01-30T1500,3418A,116.8336,40.4095,北京市,密云新城,细颗粒物(PM2.5),123,139,92,93,56,35,,30,30,38,32,5,3,1.0,0.8
2026-01-30T1500,3671A,116.0879,39.9725,北京市,门头沟三家店,细颗粒物(PM2.5),119,131,108,90,70,49,,20,20,26,44,3,3,0.8,0.9
2026-01-30T1500,3672A,116.1507,39.8246,北京市,丰台云岗,细颗粒物(PM2.5),103,137,128,77,79,39,,24,24,35,50,4,4,0.8,0.9
2026-01-30T1500,3674A,115.9578,39.7602,北京市,房山燕山,细颗粒物(PM2.5),132,131,129,100,92,43,,20,20,2,33,5,5,0.8,0.8
2026-01-30T1500,3675A,116.4669,39.7734,北京市,大兴旧宫,细颗粒物(PM2.5),98,111,112,73,65,69,,38,38,22,49,6,4,0.8,0.8
2026-01-30T1500,3694A,115.9859,40.4562,北京市,延庆石河营,细颗粒物(PM2.5),120,124,94,91,67,28,,26,26,50,41,4,4,0.9,0.9
2026-01-30T1500,3695A,116.6151,40.3052,北京市,怀柔新城,细颗粒物(PM2.5),120,127,88,91,64,21,,24,22,47,27,5,5,1.0,0.7
2026-01-30T1500,3696A,116.2542,39.8764,北京市,丰台小屯,细颗粒物(PM2.5),118,126,120,89,80,41,,21,21,31,53,4,4,0.7,0.8
2026-01-30T1500,3697A,116.8399,40.3843,北京市,密云镇,细颗粒物(PM2.5),125,143,86,95,57,36,,19,19,39,44,5,3,0.9,0.7
2026-01-30T1500,4057A,115.9423,40.4431,北京市,延庆百泉,细颗粒物(PM2.5),109,113,96,82,67,31,,26,26,47,37,3,2,0.8,0.8
2026-01-30T1500,4058A,116.6598,39.9164,北京市,通州新华,细颗粒物(PM2.5),114,134,120,86,74,34,,14,14,50,57,5,4,0.9,0.9
2026-01-30T1500,4182A,116.1942,39.9158,北京市,石景山八角,细颗粒物(PM2.5),112,129,130,84,78,41,,23,23,30,50,3,3,0.7,0.8
2026-01-30T1500,4194A,117.078628,40.151726,北京市,平谷新城,细颗粒物(PM2.5),133,141,114,101,89,47,,28,28,31,30,7,5,1.1,0.9
2026-01-30T1500,1761A,123.8274146,41.31234549,本溪市,大峪,颗粒物(PM10),58,66,76,40,50,64,,38,38,26,34,12,8,1.4,1.6
2026-01-30T1500,1763A,123.7169,41.3094,本溪市,彩屯,,40,40,93,20,52,76,,43,43,14,38,8,8,0.7,1.3
2026-01-30T1500,1764A,123.7672166,41.28649327,本溪市,东明,细颗粒物(PM2.5),70,60,84,51,69,65,,36,36,25,48,12,9,1.3,1.8
2026-01-30T1500,1765A,123.799345,41.266614,本溪市,新立屯,,,77,69,45,58,,,22,,34,48,,11,,2.9
2026-01-30T1500,1766A,123.829144,41.336777,本溪市,威宁,细颗粒物(PM2.5),67,81,87,48,54,57,,31,31,26,43,11,7,1.2,1.5
2026-01-30T1500,2587A,105.287,27.3133,毕节市,八中,,31,31,19,19,19,50,,53,46,10,11,8,8,0.9,0.9
2026-01-30T1500,2588A,105.3079,27.2987,毕节市,师专,,28,28,22,19,17,50,,59,48,15,12,7,7,0.8,0.8
2026-01-30T1500,4263A,105.3688,27.3598,毕节市,工业大道,,42,41,26,29,23,53,,57,50,14,13,9,9,/,/
2026-01-30T1500,1629A,117.9961,37.3604,滨州市,第二水厂,颗粒物(PM10),56,61,40,27,24,61,,55,55,26,17,16,11,0.4,0.9
2026-01-30T1500,1630A,117.9789,37.3931,滨州市,北中新校,颗粒物(PM10),58,66,44,35,21,67,,59,59,25,19,12,7,0.6,0.4
2026-01-30T1500,3514A,117.9379,37.3959,滨州市,中海酒店,颗粒物(PM10),58,66,38,38,21,59,,54,54,26,18,14,9,0.7,0.6
2026-01-30T1500,3515A,117.9381509,37.35547456,滨州市,开发区一中,,,80,50,39,22,64,,57,57,26,15,,12,0.7,0.6
2026-01-30T1500,3516A,118.0914,37.6938,滨州市,金海六路,,41,41,36,17,18,91,,72,72,25,24,11,8,0.6,0.5
2026-01-30T1500,4028A,117.9955,37.3752,滨州市,滨州市西街道办事处,细颗粒物(PM2.5),64,58,37,46,26,68,,61,61,22,17,15,11,0.6,0.5
2026-01-30T1500,2311A,115.8071,33.8399,亳州市,污水处理厂,细颗粒物(PM2.5),87,85,73,64,51,45,,62,46,18,17,3,4,0.5,0.5
2026-01-30T1500,2312A,115.7789,33.8519,亳州市,三国揽胜宫,细颗粒物(PM2.5),90,103,88,67,54,43,,57,43,20,19,3,4,0.6,0.5
2026-01-30T1500,3332A,115.7631,33.803,亳州市,亳州学院,细颗粒物(PM2.5),93,93,79,69,56,45,,63,47,18,16,2,3,0.6,0.6
2026-01-30T1500,2693A,82.0482,44.8553,博尔塔拉蒙古自治州,市党校,细颗粒物(PM2.5),166,198,158,126,102,94,,91,80,32,27,11,6,1.2,1
2026-01-30T1500,2694A,82.0805,44.8966,博尔塔拉蒙古自治州,市环保局,细颗粒物(PM2.5),198,207,175,148,124,98,,87,82,26,29,9,8,1.2,1.2
2026-01-30T1500,1071A,116.8733,38.2922,沧州市,沧县城建局,颗粒物(PM10),52,54,67,31,42,80,,60,60,18,35,5,5,0.3,0.3
2026-01-30T1500,1072A,116.8462,38.3189,沧州市,电视转播站,细颗粒物(PM2.5),55,44,63,39,50,81,,62,62,20,29,5,4,0.5,0.5
2026-01-30T1500,1073A,116.8588,38.3161,沧州市,市环保局,颗粒物(PM10),57,63,67,35,42,67,,49,49,17,30,8,7,0.5,0.5
2026-01-30T1500,3324A,116.8011,38.294,沧州市,河北水利电力学院,细颗粒物(PM2.5),60,63,58,43,48,70,,56,56,15,23,5,4,0.4,0.4
2026-01-30T1500,2622A,97.1813,31.1289,昌都市,昌都监测站,,,,39,,11,86,,71,71,3,14,3,3,0.2,0.7
2026-01-30T1500,3719A,97.1707,31.1428,昌都市,昌都会议中心,,24,6,14,3,9,74,,64,64,2,4,5,5,0.1,0.2
2026-01-30T1500,2692A,87.2722,44.0298,昌吉回族自治州,新区政务中心,细颗粒物(PM2.5),99,90,179,74,131,44,,47,47,32,41,8,8,1.3,1.6
2026-01-30T1500,3613A,87.3069,44.0093,昌吉回族自治州,亚心广场,细颗粒物(PM2.5),124,110,170,94,133,48,,47,46,17,26,7,7,1.2,1.4
2026-01-30T1500,4164A,87.2057,43.9289,昌吉回族自治州,财政所,细颗粒物(PM2.5),102,82,117,76,96,40,,32,32,31,55,6,6,1.2,1.4
2026-01-30T1500,1120A,125.2874,43.9024,长春市,客车厂,颗粒物(PM10),60,70,66,42,50,65,,44,44,28,49,10,10,0.5,0.7
2026-01-30T1500,1121A,125.2943,43.8508,长春市,邮电学院,颗粒物(PM10),54,57,70,37,50,63,,43,43,26,42,14,11,0.6,0.8
2026-01-30T1500,1122A,125.3648,43.8745,长春市,劳动公园,颗粒物(PM10),56,62,76,32,50,67,,47,47,22,37,8,7,0.9,1.2
2026-01-30T1500,1123A,125.3233,43.8781,长春市,园林处,细颗粒物(PM2.5),60,64,72,43,54,62,,41,41,27,39,13,16,0.6,0.7
2026-01-30T1500,1124A,125.4604,43.7904,长春市,净月潭,颗粒物(PM10),59,68,58,39,46,60,,53,53,26,23,9,6,0.5,0.6
2026-01-30T1500,1126A,125.38,43.8422,长春市,经开区环卫处,颗粒物(PM10),60,69,73,36,52,61,,38,38,30,46,7,8,0.6,0.8
2026-01-30T1500,1127A,125.234,43.7761,长春市,高新区管委会,颗粒物(PM10),51,52,79,34,58,78,,52,52,18,43,8,8,0.4,0.8
2026-01-30T1500,1128A,125.1695,43.83,长春市,岱山公园,细颗粒物(PM2.5),58,64,88,41,61,77,,55,55,14,49,6,8,0.4,0.8
2026-01-30T1500,4281A,125.334645,43.916281,长春市,北亚泰大街1068号,颗粒物(PM10),66,81,75,44,56,62,,39,39,26,54,11,10,0.5,0.7
2026-01-30T1500,1335A,113.082,28.2421,长沙市,经开区环保局,,24,24,42,16,28,22,,22,21,23,24,2,3,0.6,0.7
2026-01-30T1500,1336A,112.8873,28.2202,长沙市,高开区环保局,,40,30,48,28,32,28,,30,29,20,22,4,4,0.7,0.8
2026-01-30T1500,1337A,113.0785,28.2012,长沙市,马坡岭,,29,29,50,20,30,27,,27,27,21,21,4,4,0.8,0.9
2026-01-30T1500,1338A,112.9448,28.1894,长沙市,湖南师范大学,,30,29,53,21,28,30,,32,31,18,20,3,3,0.8,0.9
2026-01-30T1500,1339A,113.0177,28.1322,长沙市,雨花区环保局,,26,25,46,18,27,22,,24,24,21,23,7,7,0.7,0.8
2026-01-30T1500,1340A,112.9795,28.2593,长沙市,伍家岭,,38,32,54,26,33,24,,28,25,22,23,4,4,0.8,0.8
2026-01-30T1500,1341A,113.002,28.1944,长沙市,火车新站,,30,29,52,21,31,29,,29,28,19,22,1,1,0.9,1
2026-01-30T1500,1342A,112.9846,28.1177,长沙市,天心区环保局,,35,26,46,24,28,28,,30,29,23,24,4,4,0.7,0.7
2026-01-30T1500,1343A,112.8906,28.1307,长沙市,湖南中医药大学,,29,29,49,20,28,30,,33,30,21,23,5,5,0.8,0.9
2026-01-30T1500,1727A,113.1146,36.1547,长治市,清华站,细颗粒物(PM2.5),113,86,127,85,124,81,,66,65,22,24,7,8,0.9,1.3
2026-01-30T1500,1730A,113.0887,36.2126,长治市,审计局,细颗粒物(PM2.5),134,,132,102,127,70,,61,60,33,28,8,7,0.8,1
2026-01-30T1500,1731A,113.0845,36.1856,长治市,长治八中,细颗粒物(PM2.5),142,,152,108,142,74,,60,60,16,17,8,7,0.9,1.2
2026-01-30T1500,2845A,113.1561,36.1912,长治市,德盛苑,细颗粒物(PM2.5),130,,117,99,128,79,,66,66,20,19,6,6,1.0,1.4
2026-01-30T1500,3568A,113.0603,36.0464,长治市,向阳小学,细颗粒物(PM2.5),130,113,165,99,134,81,,68,68,31,31,6,8,0.9,1.6
2026-01-30T1500,3569A,112.8788,36.315,长治市,屯留一中,细颗粒物(PM2.5),163,,159,124,147,80,,62,62,23,28,11,5,1.2,1.6
2026-01-30T1500,4189A,113.113092,36.199482,长治市,英华南巷50号,细颗粒物(PM2.5),133,,132,101,126,78,,65,64,21,22,7,6,1.1,1.4
2026-01-30T1500,4190A,113.23666,36.33435,长治市,学府街1号,细颗粒物(PM2.5),125,95,150,95,126,80,,62,62,21,27,5,6,1.0,1.3
2026-01-30T1500,1854A,111.696,28.9725,常德市,市二中,细颗粒物(PM2.5),77,65,44,56,36,45,,41,41,19,21,4,4,1.0,1.1
2026-01-30T1500,3138A,111.7152,29.0288,常德市,武陵区永安,细颗粒物(PM2.5),78,65,50,57,39,44,,41,40,21,23,4,4,0.9,1
2026-01-30T1500,3139A,111.6891,28.9881,常德市,鼎城区玉霞,细颗粒物(PM2.5),74,63,36,54,38,47,,43,42,17,26,6,6,1.1,0.9
2026-01-30T1500,3140A,111.6651,29.0526,常德市,武陵区长庚,细颗粒物(PM2.5),87,64,44,64,38,44,,40,39,18,19,4,4,0.7,0.8
2026-01-30T1500,1196A,119.9524,31.7586,常州市,市监测站,,25,25,48,15,23,66,,80,65,20,21,5,6,0.3,0.3
2026-01-30T1500,1200A,119.9351,31.703,常州市,武进监测站,,,24,44,22,25,60,,75,63,,22,7,12,,0.3
2026-01-30T1500,3002A,119.9701,31.813,常州市,行政中心,,33,33,42,12,23,60,,80,66,26,22,4,4,0.5,0.6
2026-01-30T1500,3003A,120.0434,31.7726,常州市,经开区,,26,26,55,10,21,67,,79,64,20,21,10,9,0.4,0.5
2026-01-30T1500,3010A,119.8919,31.7892,常州市,钟楼,,28,28,45,14,21,61,,79,67,20,18,6,6,0.6,0.6
2026-01-30T1500,3429A,119.8595,31.706,常州市,武进经发区,,28,22,45,19,28,62,,75,63,22,23,4,5,0.7,0.8
2026-01-30T1500,3430A,119.5812,31.7256,常州市,金坛城区,,32,28,49,22,28,66,,79,66,18,22,6,6,0.4,0.5
2026-01-30T1500,4089A,119.9551,31.863,常州市,崇义南街5-H号,,23,15,40,10,24,71,,83,68,14,19,3,4,0.4,0.6
2026-01-30T1500,2220A,120.4318,41.588,朝阳市,西梁,,27,27,70,16,45,79,,44,44,11,38,8,11,0.4,1.2
2026-01-30T1500,2221A,120.452,41.565,朝阳市,河畔小区,,27,27,45,12,25,79,,50,50,9,31,9,11,0.5,0.9
2026-01-30T1500,2222A,120.4176,41.5648,朝阳市,八里堡,,29,,56,20,36,77,,44,44,10,37,8,9,0.4,1
2026-01-30T1500,3026A,116.6179,23.6608,潮州市,市政府,,37,37,52,14,23,75,,63,63,4,12,2,5,0.4,0.4
2026-01-30T1500,4036A,116.646,23.676,潮州市,金山,,33,33,43,17,22,74,,50,50,7,14,2,4,0.5,0.5
2026-01-30T1500,2473A,113.0116,25.8228,郴州市,市职中,,20,20,56,10,44,17,,8,8,17,21,3,8,0.6,0.8
2026-01-30T1500,2475A,113.0381,25.8074,郴州市,市审计局,,20,20,60,10,42,17,,11,8,16,23,3,7,/,/
2026-01-30T1500,2476A,113.0348,25.7757,郴州市,市环保局,,25,25,66,10,43,16,,12,8,20,28,3,9,0.7,0.8
2026-01-30T1500,4252A,113.0138,25.8011,郴州市,好美居路49号,,23,23,49,12,38,26,,,,12,21,3,12,/,/
2026-01-30T1500,1431A,103.9727,30.7242,成都市,金泉两河,细颗粒物(PM2.5),63,65,73,45,39,73,,30,30,22,36,2,2,0.4,0.7
2026-01-30T1500,1432A,104.1423,30.6765,成都市,十里店,,,,82,,43,,,33,,,37,,3,,0.7
2026-01-30T1500,1433A,104.0594,30.5765,成都市,三瓦窑,颗粒物(PM10),68,86,69,42,39,86,,35,35,18,34,3,4,0.7,0.8
2026-01-30T1500,1434A,104.1122,30.6306,成都市,沙河铺,,,92,69,49,39,79,,34,34,19,37,,4,0.7,0.7
2026-01-30T1500,2880A,104.0219,30.6561,成都市,大石西路,,,71,74,29,38,72,,31,31,,30,4,4,0.4,0.6
2026-01-30T1500,3136A,104.2724,30.559,成都市,龙泉驿区区政府,"颗粒物(PM10),细颗粒物(PM2.5)",53,56,51,37,31,85,,44,44,13,25,6,6,0.8,0.7
2026-01-30T1500,3357A,104.0028,30.6891,成都市,金博路,颗粒物(PM10),61,72,66,29,36,77,,27,27,18,38,5,4,0.7,0.8
2026-01-30T1500,3359A,104.056,30.5228,成都市,华阳,颗粒物(PM10),57,63,65,39,36,84,,38,38,18,36,3,2,0.7,0.8
2026-01-30T1500,3488A,104.387954,30.746684,成都市,青石路225号,颗粒物(PM10),61,72,55,34,36,82,,36,36,14,33,5,3,0.7,0.8
2026-01-30T1500,3489A,104.0788,30.4054,成都市,科学城,细颗粒物(PM2.5),64,65,78,46,40,58,,21,21,17,29,6,6,0.7,0.9
2026-01-30T1500,4011A,103.8505,30.6946,成都市,光华大道三段,,,,103,,49,,,50,14,,40,,3,,0.8
2026-01-30T1500,4144A,104.3257,30.6406,成都市,八角井街185号,颗粒物(PM10),67,83,72,36,38,71,,34,34,16,30,3,3,0.7,0.9
2026-01-30T1500,4224A,104.2433276,30.53529463,成都市,鲸龙路1057号,颗粒物(PM10),53,56,67,34,36,82,,38,38,16,32,5,5,0.6,0.8
2026-01-30T1500,1062A,117.9531,40.908,承德市,铁路,颗粒物(PM10),55,60,55,30,27,52,,27,27,19,36,6,5,0.6,0.8
2026-01-30T1500,1063A,117.9397,40.9763,承德市,中国银行,细颗粒物(PM2.5),69,69,42,50,22,58,,41,41,17,25,23,4,1.3,0.6
2026-01-30T1500,4073A,117.9462,40.95,承德市,杏林街1号,颗粒物(PM10),54,57,46,36,28,59,,40,40,14,29,10,5,0.8,0.6
2026-01-30T1500,4274A,117.7994,40.9605,承德市,滨河大街98号,细颗粒物(PM2.5),117,105,50,88,28,50,,32,32,33,33,68,12,2.4,0.7
2026-01-30T1500,2314A,117.4698,30.6617,池州市,池州学院,,19,11,37,10,27,58,,56,56,26,32,2,4,0.9,0.9
2026-01-30T1500,3237A,117.4918,30.6617,池州市,展览馆,,18,13,42,12,30,57,,55,55,24,31,2,2,0.7,0.6
2026-01-30T1500,3333A,117.5626,30.695,池州市,第八中学,,20,16,42,14,27,58,,53,53,26,30,3,3,0.7,0.6
2026-01-30T1500,3334A,117.5037,30.6242,池州市,第十二中学,,18,11,37,10,26,56,,52,52,30,30,2,2,0.8,0.8
2026-01-30T1500,1744A,118.9229,42.2816,赤峰市,松山一中,细颗粒物(PM2.5),78,75,48,57,30,51,,28,28,38,39,37,14,1.5,1.1
2026-01-30T1500,1745A,118.9588,42.2733,赤峰市,哈达街,颗粒物(PM10),65,79,54,40,28,53,,34,34,36,31,41,19,1.2,0.9
2026-01-30T1500,1746A,118.8792,42.2551,赤峰市,天义路,细颗粒物(PM2.5),64,,31,46,21,53,,34,34,31,28,23,11,1.1,0.9
2026-01-30T1500,3058A,119.2656,42.0356,赤峰市,银河街,颗粒物(PM10),72,94,81,42,40,81,,43,43,11,20,30,27,1.3,1.5
2026-01-30T1500,3286A,118.9359,42.3146,赤峰市,桥北物流园区,细颗粒物(PM2.5),93,,40,69,25,64,,40,40,18,28,27,12,1.3,0.8
2026-01-30T1500,2521A,107.3473,22.4137,崇左市,市环保局江州分局,颗粒物(PM10),53,55,54,34,36,78,,55,55,12,18,6,5,0.7,0.7
2026-01-30T1500,4256A,107.375,22.3736,崇左市,石景林东路7号,颗粒物(PM10),54,57,46,35,39,81,,54,54,20,21,8,8,0.6,0.6
2026-01-30T1500,3207A,118.31131,32.3033,滁州市,市政府原办公楼,,38,34,42,26,31,68,,80,74,16,17,3,4,0.3,0.3
2026-01-30T1500,3331A,118.3268,32.2633,滁州市,图书馆,,32,29,36,22,24,71,,78,73,10,14,6,6,0.4,0.4
2026-01-30T1500,4101A,118.3196,32.3335,滁州市,银山路666号,,39,30,39,27,36,75,,86,,8,12,3,5,0.4,0.4
2026-01-30T1500,4102A,118.3426,32.2979,滁州市,黄山路555号,,45,38,53,31,33,73,,82,78,13,15,4,4,0.2,0.3
2026-01-30T1500,2606A,101.5379,25.0492,楚雄彝族自治州,市经济开发区,,26,17,23,3,14,81,,57,57,4,11,2,3,0.6,0.6
2026-01-30T1500,4153A,101.5536,25.0343,楚雄彝族自治州,团结路562号,,26,18,20,3,11,81,,61,58,2,7,4,4,0.3,0.4
2026-01-30T1500,2549A,107.5087,31.2186,达州市,市环境监测站,,20,20,19,6,2,39,,34,31,20,19,22,12,0.6,0.6
2026-01-30T1500,2550A,107.4988,31.2132,达州市,凤凰小区,,29,29,13,8,6,42,,40,39,19,17,21,11,0.2,0.3
2026-01-30T1500,2551A,107.5081,31.1987,达州市,达县机关宾馆,,25,22,17,17,10,23,,25,25,35,30,11,8,0.9,1
2026-01-30T1500,2552A,107.4644,31.2124,达州市,市政中心,,22,22,22,6,3,43,,39,36,21,22,13,12,0.7,0.6
2026-01-30T1500,2614A,100.2168,25.5818,大理白族自治州,大理市环境监测站,,24,22,24,8,15,74,,58,58,6,7,6,6,0.4,0.4
2026-01-30T1500,2615A,100.1542,25.7055,大理白族自治州,大理古城,,,,20,14,14,70,,76,62,4,6,8,8,0.5,0.5
2026-01-30T1500,1109A,121.6119,38.974,大连市,甘井子,,32,32,43,18,27,83,,68,68,12,21,8,9,0.4,0.5
2026-01-30T1500,1110A,121.565,38.9509,大连市,周水子,颗粒物(PM10),76,102,53,21,27,72,,60,60,16,25,13,8,0.5,0.5
2026-01-30T1500,1111A,121.5637,38.8849,大连市,星海三站,,27,27,35,15,27,74,,61,61,14,21,9,11,0.6,0.7
2026-01-30T1500,1112A,121.6301,38.9117,大连市,青泥洼桥,,27,27,40,16,24,76,,66,66,12,19,10,11,0.4,0.4
2026-01-30T1500,1113A,121.6248,38.8643,大连市,傅家庄,,,,35,15,23,67,,61,61,11,16,6,8,0.7,0.7
2026-01-30T1500,1114A,121.5117,38.8636,大连市,七贤岭,,28,28,37,11,24,76,,68,68,11,15,9,10,0.6,0.7
2026-01-30T1500,1116A,121.7507,39.1339,大连市,金州,,30,30,42,21,31,82,,69,69,14,21,8,14,0.5,0.5
2026-01-30T1500,1117A,121.7811,39.0495,大连市,开发区,,30,29,31,21,22,80,,75,75,11,13,7,7,0.6,0.6
2026-01-30T1500,1118A,121.9762,39.0631,大连市,双D港,,27,24,41,14,23,84,,72,72,10,16,8,11,0.5,0.6
2026-01-30T1500,4082A,121.2548,38.8188,大连市,旅顺,,24,23,36,12,27,76,,64,64,8,15,8,9,0.5,0.5
2026-01-30T1500,1789A,124.8085,46.0381,大庆市,大同区,,21,15,37,8,20,66,,57,57,4,18,5,5,0.5,0.6
2026-01-30T1500,1790A,125.1166,46.5255,大庆市,龙凤区,,32,32,48,18,22,61,,53,53,16,22,10,9,0.4,0.5
2026-01-30T1500,1791A,124.8894,46.4007,大庆市,红岗区,,20,16,29,14,15,55,,49,49,8,16,5,5,0.5,0.6
2026-01-30T1500,1792A,125.1391,46.578,大庆市,萨尔图区,,37,37,39,11,18,57,,60,60,16,24,8,8,0.4,0.6
2026-01-30T1500,1793A,124.9026,46.6217,大庆市,让胡路区,,24,23,28,12,16,76,,71,71,8,13,7,7,0.4,0.4
2026-01-30T1500,3481A,125.127,46.6277,大庆市,萨区政府监测点,,25,25,32,3,13,64,,56,56,10,18,9,8,0.5,0.6
2026-01-30T1500,1723A,113.2926,40.0759,大同市,云冈宾馆,颗粒物(PM10),100,149,70,73,30,39,,26,22,45,34,20,13,0.9,0.8
2026-01-30T1500,1724A,113.3437,40.0921,大同市,大同大学,细颗粒物(PM2.5),100,119,62,75,30,47,,35,25,36,29,17,10,0.9,0.8
2026-01-30T1500,1725A,113.2637,40.129,大同市,安家小村,"颗粒物(PM10),细颗粒物(PM2.5)",93,136,89,69,42,34,,20,20,43,46,27,17,0.8,0.9
2026-01-30T1500,3282A,113.3399,40.0586,大同市,大同市卫生学校,细颗粒物(PM2.5),102,130,56,76,30,52,,40,28,39,30,15,8,0.8,0.5
2026-01-30T1500,3565A,113.1371,40.1122,大同市,云冈站,颗粒物(PM10),101,151,83,68,35,34,,15,15,46,42,22,17,0.8,0.9
2026-01-30T1500,3566A,113.1186,40.2556,大同市,图书馆,细颗粒物(PM2.5),82,111,59,60,34,58,,32,32,28,23,9,15,0.7,0.8
2026-01-30T1500,3567A,113.5931,40.0459,大同市,区一中,细颗粒物(PM2.5),110,140,69,83,39,51,,48,44,30,20,48,16,0.7,0.5
2026-01-30T1500,4199A,113.2798248,40.09972476,大同市,魏都大道141号,细颗粒物(PM2.5),97,138,86,72,39,41,,26,26,47,44,21,12,0.9,1
2026-01-30T1500,2269A,124.1068,50.4091,大兴安岭地区,科技局,,21,16,15,6,6,66,,66,65,2,2,4,3,0.2,0.2
2026-01-30T1500,3663A,124.117,50.4279,大兴安岭地区,红旗社区,,23,7,3,3,5,73,,74,73,3,2,4,4,0.3,0.2
2026-01-30T1500,1600A,124.33,40.0625,丹东市,江湾东路,,30,30,28,15,13,73,,64,64,10,14,8,6,0.4,0.5
2026-01-30T1500,1601A,124.4242,40.1513,丹东市,临江后街,,24,18,25,8,14,75,,67,67,7,10,6,7,0.3,0.4
2026-01-30T1500,1602A,124.3935,40.1461,丹东市,元宝山,,24,18,24,8,13,74,,64,64,4,12,6,9,0.4,0.5
2026-01-30T1500,1603A,124.3634,40.1093,丹东市,民主桥,,23,19,28,10,14,72,,63,63,12,15,9,9,0.5,0.6
2026-01-30T1500,3541A,109.5726195,19.51688767,儋州市,第一中学子站,,21,16,25,7,11,67,,62,62,2,4,4,4,0.5,0.6
2026-01-30T1500,3542A,109.5567,19.5187,儋州市,东坡学校子站,,,,24,3,9,83,,74,74,,3,,3,0.8,0.5
2026-01-30T1500,2616A,98.5611,24.4273,德宏傣族景颇族自治州,德宏州监测站,,45,40,54,31,39,105,,47,47,12,25,8,7,0.6,0.7
2026-01-30T1500,3677A,98.5887,24.4366,德宏傣族景颇族自治州,芒市人民政府综合楼,颗粒物(PM10),54,57,57,26,24,94,,42,42,10,15,5,4,0.6,0.7
2026-01-30T1500,1901A,104.424,31.1209,德阳市,东山公园,细颗粒物(PM2.5),64,61,39,46,28,73,,42,42,9,16,1,1,0.7,0.7
2026-01-30T1500,1902A,104.3827,31.1318,德阳市,西小区,细颗粒物(PM2.5),64,69,56,46,32,77,,36,36,12,26,3,3,0.8,0.9
2026-01-30T1500,1904A,104.3553,31.1091,德阳市,耐火材料厂,细颗粒物(PM2.5),70,58,53,51,36,68,,32,32,14,30,1,1,0.8,0.9
2026-01-30T1500,4145A,104.4144,31.1495,德阳市,市林业局,细颗粒物(PM2.5),64,72,43,46,29,73,,34,34,11,31,3,4,0.8,0.9
2026-01-30T1500,1622A,116.3034,37.4675,德州市,儿童乐园,细颗粒物(PM2.5),82,92,76,60,47,77,,61,61,31,28,14,16,1.0,0.9
2026-01-30T1500,1624A,116.2992,37.4449,德州市,监理站,颗粒物(PM10),73,95,72,47,40,78,,66,66,35,28,11,13,0.8,0.7
2026-01-30T1500,3066A,116.2722,37.438,德州市,九衢泉纯净水厂,细颗粒物(PM2.5),74,83,64,54,41,77,,59,59,32,27,9,11,1.1,1
2026-01-30T1500,3371A,116.3693,37.44,德州市,开发区人民医院,,,90,70,57,38,76,,64,64,24,32,17,15,,0.6
2026-01-30T1500,3511A,116.5687,37.3331,德州市,陵城艺术中心,细颗粒物(PM2.5),70,78,62,51,38,67,,49,49,26,27,15,17,0.6,0.6
2026-01-30T1500,4292A,116.352738,37.420875,德州市,新河东路,细颗粒物(PM2.5),73,56,53,53,39,76,,59,59,28,21,18,15,0.9,0.7
2026-01-30T1500,2621A,99.7054,27.8319,迪庆藏族自治州,迪庆州站,,26,12,27,6,16,83,,83,83,6,7,5,5,0.4,0.4
2026-01-30T1500,3180A,99.7122,27.8129,迪庆藏族自治州,质量技术监督局,,28,18,22,11,14,88,,89,89,4,5,5,5,0.4,0.4
2026-01-30T1500,4257A,104.6092,35.5962,定西市,将台街,颗粒物(PM10),84,117,131,42,52,89,,57,57,4,19,9,8,0.3,0.6
2026-01-30T1500,4309A,104.6159,35.5701,定西市,正龙路62号,,,132,125,36,48,86,,41,,,14,5,4,0.4,0.8
2026-01-30T1500,1390A,113.7943,23.0132,东莞市,东城石井,,25,21,45,17,29,40,,48,48,49,34,5,6,0.7,0.7
2026-01-30T1500,1391A,113.7384,22.9659,东莞市,南城西平,,,16,42,14,28,,,39,39,42,42,6,5,0.8,0.7
2026-01-30T1500,3319A,113.7283,23.041,东莞市,万江金泰,,,20,46,16,27,49,,56,49,,29,4,4,1.0,0.9
2026-01-30T1500,4129A,113.8666,23.1062,东莞市,裕兴路,,23,20,53,16,28,39,,43,41,35,30,4,5,0.9,0.9
2026-01-30T1500,4130A,114.0076,22.9739,东莞市,教育路1号,,20,,44,12,28,58,,58,44,40,37,4,4,0.5,0.7
2026-01-30T1500,4131A,113.7981,22.8124,东莞市,长怡路1号,,25,25,48,15,26,47,,36,36,33,41,6,6,0.8,0.9
2026-01-30T1500,1666A,118.6612,37.4313,东营市,市环保局,,34,34,29,15,12,87,,77,77,20,20,11,8,0.6,0.6
2026-01-30T1500,3036A,118.6903,37.4337,东营市,开发区管委会,,44,44,34,16,13,85,,75,75,13,10,10,8,0.4,0.4
2026-01-30T1500,3365A,118.5721,37.5654,东营市,垦利区民丰路,,31,31,28,17,14,92,,76,76,16,17,12,8,0.5,0.5
2026-01-30T1500,3498A,118.5063,37.8606,东营市,河口城区,,44,44,36,13,15,91,,77,77,19,22,7,6,0.6,0.6
2026-01-30T1500,3646A,118.4979,37.4623,东营市,胜利站,,33,33,31,19,16,77,,67,67,22,20,11,8,0.5,0.5
2026-01-30T1500,3734A,118.5753,37.4405,东营市,理想之城,,36,36,29,15,8,83,,73,73,22,21,9,5,0.5,0.4
2026-01-30T1500,1591A,110.0024,39.8127,鄂尔多斯市,综合楼,颗粒物(PM10),56,61,112,22,34,82,,44,44,13,53,10,13,0.4,0.6
2026-01-30T1500,1592A,109.9485,39.8259,鄂尔多斯市,巴音孟克林场办事处,颗粒物(PM10),53,56,86,19,32,83,,56,56,11,40,9,12,0.4,0.6
2026-01-30T1500,1593A,109.7734,39.5987,鄂尔多斯市,康泽苑,颗粒物(PM10),51,51,85,20,36,85,,42,42,10,36,5,5,0.4,0.7
2026-01-30T1500,1594A,109.8121,39.5987,鄂尔多斯市,华泰汽车城,颗粒物(PM10),53,56,80,27,32,81,,37,37,13,41,8,7,0.4,0.6
2026-01-30T1500,1595A,109.9734,39.7884,鄂尔多斯市,奥林花园,颗粒物(PM10),54,58,98,24,32,80,,42,42,14,50,7,10,0.5,0.7
2026-01-30T1500,2436A,114.894,30.3989,鄂州市,市政府,,21,21,34,11,21,31,,35,34,33,26,4,4,0.4,0.5
2026-01-30T1500,2437A,114.8986,30.3714,鄂州市,赵家坝,,19,19,34,9,19,50,,48,48,7,14,7,7,0.6,0.7
2026-01-30T1500,3654A,114.8093,30.4091,鄂州市,精准医疗中心,,17,14,37,7,21,52,,51,51,9,15,5,10,0.3,0.5
2026-01-30T1500,2454A,109.4978,30.2979,恩施土家族苗族自治州,湖北民院,,23,23,21,16,11,42,,48,34,13,11,6,6,1.0,0.9
2026-01-30T1500,3549A,109.5061,30.3771,恩施土家族苗族自治州,龙凤新区,,26,,15,18,10,49,,40,36,7,7,7,7,0.8,0.8
2026-01-30T1500,2499A,108.3411,21.6159,防城港市,沙万,,50,50,68,24,27,86,,72,72,21,30,8,7,1.4,1
2026-01-30T1500,2500A,108.3515,21.7733,防城港市,防城档案局,,40,40,47,23,32,107,,80,80,6,13,6,6,0.6,0.8
2026-01-30T1500,2501A,108.3506,21.6414,防城港市,大海花园,颗粒物(PM10),53,55,46,30,25,101,,89,89,14,19,12,8,0.8,0.7
2026-01-30T1500,1371A,113.1293,23.0065,佛山市,湾梁,,25,24,48,15,22,80,,51,51,24,41,/,/,/,/
2026-01-30T1500,1372A,113.1082,23.0477,佛山市,华材职中,,45,,50,31,38,92,,60,60,21,36,6,6,0.7,0.7
2026-01-30T1500,1373A,113.1439,23.045,佛山市,南海气象局,,33,27,44,23,31,78,,51,51,28,42,/,/,/,/
2026-01-30T1500,1374A,113.2879,22.8094,佛山市,顺德苏岗,,19,15,42,13,22,55,,44,40,35,35,/,/,1.0,1
2026-01-30T1500,1376A,112.8384,22.8678,佛山市,高明孔堂,,36,32,45,25,27,90,,72,72,32,27,/,/,/,/
2026-01-30T1500,1377A,112.8835,23.1584,佛山市,三水监测站,,44,44,76,28,43,90,,51,51,37,68,3,4,0.4,0.6
2026-01-30T1500,1378A,112.8668,23.185,佛山市,三水云东海,,49,49,68,25,40,108,,58,58,36,57,/,/,/,/
2026-01-30T1500,3625A,113.2568,22.7629,佛山市,容桂街道办,,19,14,36,13,23,54,,43,38,32,35,/,/,/,/
2026-01-30T1500,1282A,119.2681,26.0506,福州市,师大,,24,24,30,12,9,49,,58,44,25,18,2,3,0.4,0.4
2026-01-30T1500,1283A,119.2983,26.1028,福州市,五四北路,,23,23,27,8,8,61,,60,43,15,15,4,5,0.4,0.6
2026-01-30T1500,1284A,119.2648,26.0769,福州市,杨桥西路,,20,20,28,12,9,50,,60,43,21,17,4,4,/,/
2026-01-30T1500,3048A,119.5799,26.0937,福州市,九龙,,20,18,24,10,8,62,,58,52,13,16,4,5,0.4,0.4
2026-01-30T1500,3526A,119.5188,25.9666,福州市,吴航,,36,36,25,21,12,24,,57,31,43,22,4,5,0.7,0.5
2026-01-30T1500,4104A,119.3106,26.0648,福州市,路通桥巷6号,,23,23,29,12,12,60,,61,42,15,15,/,/,/,/
2026-01-30T1500,1755A,123.7974,41.8494,抚顺市,望花区,细颗粒物(PM2.5),87,82,124,64,81,46,,34,34,49,54,16,9,1.7,1.4
2026-01-30T1500,1756A,123.9161,41.8827,抚顺市,顺城区,细颗粒物(PM2.5),68,69,98,49,81,58,,41,41,42,55,19,13,1.4,1.3
2026-01-30T1500,1757A,124.0437,41.8615,抚顺市,东洲区,颗粒物(PM10),69,87,99,37,72,66,,46,46,29,37,5,6,0.8,1
2026-01-30T1500,1758A,123.9246,41.8638,抚顺市,新抚区,颗粒物(PM10),70,89,103,48,78,61,,41,41,38,52,14,9,1.2,1.1
2026-01-30T1500,1759A,124.0972,41.8961,抚顺市,大伙房水库,颗粒物(PM10),61,72,65,43,52,69,,50,50,25,36,14,12,1.0,0.9
2026-01-30T1500,1760A,123.708,41.8386,抚顺市,沈抚新城,细颗粒物(PM2.5),112,106,103,84,75,37,,32,32,,56,17,8,,1.2
2026-01-30T1500,2377A,116.3544,27.9833,抚州市,市站,,19,19,58,3,42,40,,37,37,19,20,6,7,0.9,1.1
2026-01-30T1500,2378A,116.3562,27.9631,抚州市,血防站,,25,25,59,10,44,33,,30,30,26,30,4,6,1.3,1.6
2026-01-30T1500,2379A,116.3561,28.0007,抚州市,采茶剧团,,19,19,57,10,36,32,,29,29,13,17,4,6,1.0,1.1
2026-01-30T1500,2380A,116.3854,27.9648,抚州市,医学分院,,25,25,63,12,41,37,,33,33,17,22,3,5,1.0,1.2
2026-01-30T1500,2207A,121.6095,41.9978,阜新市,工业园区,,33,33,88,13,34,79,,50,50,8,33,9,15,0.4,0.8
2026-01-30T1500,2208A,121.6567,42.0188,阜新市,长青街,,27,27,44,10,30,74,,53,53,15,30,11,10,0.3,0.7
2026-01-30T1500,2209A,121.6672,42.07,阜新市,农业园区,颗粒物(PM10),51,52,32,13,12,65,,56,56,14,12,10,8,0.4,0.4
2026-01-30T1500,2211A,121.6343,42.0455,阜新市,玉龙新城,,44,44,62,9,29,72,,47,47,12,40,8,9,0.4,0.8
2026-01-30T1500,2301A,115.8276,32.8929,阜阳市,市监测站,颗粒物(PM10),55,59,54,38,35,68,,67,65,12,14,3,4,0.5,0.4
2026-01-30T1500,2303A,115.8551,32.8606,阜阳市,开发区,细颗粒物(PM2.5),59,,39,42,37,65,,67,63,14,16,4,4,0.3,0.3
2026-01-30T1500,2875A,115.783962,32.889217,阜阳市,阜阳职业技术学院,细颗粒物(PM2.5),52,44,43,36,34,73,,74,71,10,11,6,6,0.4,0.3
2026-01-30T1500,3468A,115.79,32.8614,阜阳市,市规划展馆,细颗粒物(PM2.5),55,51,47,39,34,72,,74,72,11,13,4,4,0.5,0.5
2026-01-30T1500,3469A,115.835101,32.918568,阜阳市,枣园社区,细颗粒物(PM2.5),59,57,53,42,37,65,,67,62,14,15,4,4,0.5,0.4
2026-01-30T1500,2669A,102.9097,34.9841,甘南藏族自治州,州政府,细颗粒物(PM2.5),84,,68,62,44,78,,58,58,8,16,8,6,0.6,0.7
2026-01-30T1500,3380A,102.8915,34.9618,甘南藏族自治州,甘肃民族师范学院,颗粒物(PM10),62,73,82,40,38,85,,58,58,13,26,7,9,0.4,0.6
2026-01-30T1500,2570A,101.96,30.048,甘孜藏族自治州,水桥子,,,,15,,6,,,81,,,6,,6,,1.1
2026-01-30T1500,3065A,101.9534,29.9976,甘孜藏族自治州,州环保局,,25,11,13,3,7,79,,68,68,9,11,6,6,0.9,0.9
2026-01-30T1500,2363A,114.9368,25.8663,赣州市,地委,颗粒物(PM10),79,107,83,49,36,72,,52,52,16,34,8,10,1.0,1
2026-01-30T1500,2364A,114.946,25.8483,赣州市,气象台,细颗粒物(PM2.5),70,60,65,51,41,73,,49,49,19,47,7,10,0.5,0.6
2026-01-30T1500,2365A,114.932,25.8332,赣州市,市图书馆,细颗粒物(PM2.5),69,66,60,50,39,65,,43,43,16,40,4,6,1.0,1.1
2026-01-30T1500,2366A,114.8905,25.8472,赣州市,华坚鞋城,细颗粒物(PM2.5),70,58,58,51,38,66,,45,45,16,41,6,9,0.7,0.7
2026-01-30T1500,3109A,115.0094,25.8614,赣州市,赣县区卫计委,细颗粒物(PM2.5),69,57,62,50,44,73,,44,44,13,33,8,8,0.8,0.9
2026-01-30T1500,2684A,106.2753,36.0057,固原市,监测站,颗粒物(PM10),113,176,135,44,49,82,,79,79,8,19,6,6,0.5,0.8
2026-01-30T1500,2685A,106.2384,36.0189,固原市,新区,颗粒物(PM10),122,194,132,46,52,81,,79,79,6,22,7,7,0.4,0.7
2026-01-30T1500,2544A,106.6307,30.4577,广安市,市委,,25,21,36,17,19,39,,34,32,15,14,5,5,0.9,0.9
2026-01-30T1500,2545A,106.6266,30.4662,广安市,友谊中学,,22,20,32,15,16,42,,39,36,17,14,6,6,0.9,0.9
2026-01-30T1500,2547A,106.6386,30.4551,广安市,广电花园,,,,30,,23,30,,34,29,14,13,5,5,0.8,0.8
2026-01-30T1500,2902A,106.6347,30.4868,广安市,北辰小学,,22,19,29,15,19,42,,36,36,7,6,4,5,0.9,0.8
2026-01-30T1500,2524A,105.8211,32.4444,广元市,老城,细颗粒物(PM2.5),52,44,25,36,14,62,,58,56,21,19,3,2,0.8,0.8
2026-01-30T1500,2526A,105.8629,32.429,广元市,监测站,,46,46,30,31,14,63,,58,57,14,17,4,5,2.5,1
2026-01-30T1500,3617A,105.8047,32.4167,广元市,经开区,颗粒物(PM10),53,56,24,36,17,50,,51,49,23,17,1,1,0.8,0.9
2026-01-30T1500,1345A,113.2346,23.1423,广州市,广雅中学,,,50,51,27,28,61,,50,50,,42,3,2,0.7,0.6
2026-01-30T1500,1346A,113.2611,23.105,广州市,市五中,,35,35,48,20,25,72,,55,55,33,40,6,6,/,/
2026-01-30T1500,1348A,113.3477,23.0916,广州市,广东商学院,,40,34,48,28,31,51,,41,41,42,55,6,5,0.9,0.9
2026-01-30T1500,1349A,113.4332,23.105,广州市,市八十六中,,29,28,39,20,24,62,,46,46,43,56,9,8,/,/
2026-01-30T1500,1350A,113.3506,22.9488,广州市,番禺中学,,30,30,53,11,23,56,,48,48,33,36,2,3,0.8,0.8
2026-01-30T1500,1351A,113.2147,23.3918,广州市,花都师范,,29,21,60,11,34,91,,72,72,25,52,5,5,0.6,0.7
2026-01-30T1500,1352A,113.2599,23.1329,广州市,市监测站,,45,45,51,31,29,66,,52,52,32,39,4,3,/,/
2026-01-30T1500,1353A,113.5618,23.3119,广州市,九龙镇镇龙,,23,20,53,16,34,57,,57,57,24,28,4,5,0.6,0.7
2026-01-30T1500,1354A,113.2764,23.1544,广州市,麓湖,,46,44,43,32,28,75,,58,58,36,45,9,8,0.8,0.6
2026-01-30T1500,2846A,113.3209,23.1323,广州市,体育西,颗粒物(PM10),52,53,50,32,28,63,,50,50,39,44,7,6,1.0,0.8
2026-01-30T1500,3298A,113.5718,23.5493,广州市,从化街口,,25,10,50,7,33,80,,64,64,11,30,6,9,0.6,0.7
2026-01-30T1500,3299A,113.3463,23.369,广州市,白云竹料,,28,15,70,8,38,87,,74,74,19,40,2,3,0.5,0.6
2026-01-30T1500,3300A,113.2981,23.2365,广州市,白云嘉禾,,50,50,50,31,29,71,,66,66,41,54,5,5,/,/
2026-01-30T1500,3301A,113.4256,23.1716,广州市,黄埔科学城,,35,34,49,24,32,66,,56,56,44,53,2,3,0.5,0.5
2026-01-30T1500,3302A,113.3942,23.0485,广州市,番禺大学城,,43,43,66,17,27,62,,46,46,36,46,7,8,0.6,0.6
2026-01-30T1500,3303A,113.4923,22.8169,广州市,南沙黄阁,,18,16,36,8,24,55,,40,39,30,39,4,5,/,/
2026-01-30T1500,3304A,113.534,22.7893,广州市,南沙街,,17,12,40,10,24,49,,42,42,34,41,5,5,0.9,0.8
2026-01-30T1500,3443A,113.2905,23.5541,广州市,花都梯面,,29,15,57,13,35,90,,64,64,15,42,4,4,/,/
2026-01-30T1500,3445A,113.786,23.7479,广州市,从化良口,,28,10,28,9,22,89,,65,65,7,20,7,7,/,/
2026-01-30T1500,3446A,113.805,23.2614,广州市,增城荔城,,,,40,17,26,59,,60,57,20,21,5,7,0.8,0.8
2026-01-30T1500,2506A,109.604387,23.066791,贵港市,江南子站,,36,36,65,16,31,107,,76,76,2,14,6,12,0.5,0.7
2026-01-30T1500,2508A,109.5669,23.1065,贵港市,荷城子站,,34,34,51,12,27,96,,70,70,10,24,7,8,0.7,0.9
2026-01-30T1500,3405A,109.5886,23.1172,贵港市,新世纪学校,,36,36,55,21,34,107,,81,81,10,19,/,/,0.4,0.6
2026-01-30T1500,4260A,109.5933,23.095,贵港市,中山路155-3号,,35,35,49,23,31,111,,85,85,8,18,/,/,0.5,0.7
2026-01-30T1500,1439A,106.6863,26.6035,贵阳市,马鞍山,,38,29,31,26,24,36,,,,14,13,3,5,/,/
2026-01-30T1500,1441A,106.6241,26.6266,贵阳市,鉴湖路,细颗粒物(PM2.5),52,41,32,36,19,43,,47,46,20,14,3,2,0.8,0.7
2026-01-30T1500,1442A,106.7468,26.6344,贵阳市,燕子冲,,49,44,26,34,20,37,,32,32,17,14,7,8,0.8,0.6
2026-01-30T1500,1443A,106.6556,26.4362,贵阳市,碧云窝,颗粒物(PM10),51,51,41,25,20,36,,34,33,23,16,18,15,/,/
2026-01-30T1500,1445A,106.6963,26.6063,贵阳市,红边门,,48,44,33,33,22,31,,28,26,22,21,8,11,/,/
2026-01-30T1500,1446A,106.7162383,26.56964667,贵阳市,新华路,"颗粒物(PM10),细颗粒物(PM2.5)",52,53,38,36,21,34,,31,30,24,22,8,7,0.9,0.7
2026-01-30T1500,1447A,106.6742,26.542,贵阳市,太慈桥,,45,41,30,31,18,35,,38,36,22,18,3,3,/,/
2026-01-30T1500,4230A,106.688212,26.56952,贵阳市,花果园大街66号,,44,44,27,30,22,30,,30,29,20,18,2,2,/,/
2026-01-30T1500,4231A,106.687268,26.516892,贵阳市,漓江路57号,,48,48,34,29,22,35,,31,29,23,20,8,8,0.9,0.8
2026-01-30T1500,1864A,110.3091,25.2705,桂林市,龙隐路小学,,14,14,55,3,42,32,,32,26,14,22,6,9,0.7,0.8
2026-01-30T1500,1865A,110.2849361,25.22909545,桂林市,八中,,9,7,53,3,26,27,,29,21,17,26,3,8,0.9,1
2026-01-30T1500,3531A,110.296,25.1254,桂林市,旅游学院,,16,16,60,3,42,33,,28,25,14,27,4,7,0.6,0.7
2026-01-30T1500,4222A,110.1835,25.2444,桂林市,环湖路276号,,10,9,57,7,43,27,,29,24,16,25,8,18,0.9,1
2026-01-30T1500,4301A,110.2803,25.2773,桂林市,信义路13号,,11,6,50,3,34,31,,32,25,17,25,4,11,1.1,1.2
2026-01-30T1500,2674A,100.2262,34.4854,果洛藏族自治州,玛沁县大武镇,,38,38,65,13,16,96,,74,72,2,4,13,18,0.2,0.5
2026-01-30T1500,1130A,126.5557,45.8109,哈尔滨市,松北商大,,46,37,36,32,26,65,,48,48,16,24,8,10,0.6,0.6
2026-01-30T1500,1132A,126.6162,45.719,哈尔滨市,南岗学府路,,50,50,49,24,27,62,,45,44,16,17,13,10,0.6,0.7
2026-01-30T1500,1133A,126.6894,45.7733,哈尔滨市,太平宏伟公园,,45,45,34,30,18,70,,56,56,10,14,16,18,0.4,0.6
2026-01-30T1500,1134A,126.6361,45.7672,哈尔滨市,道外承德广场,,48,48,44,27,20,68,,54,54,14,19,8,9,0.3,0.6
2026-01-30T1500,1136A,126.644,45.7261,哈尔滨市,动力和平路,,42,42,42,24,26,61,,45,45,17,23,12,13,0.7,0.8
2026-01-30T1500,1137A,126.5933,45.7479,哈尔滨市,道里建国路,,38,38,35,24,22,63,,48,48,20,24,7,6,0.7,0.8
2026-01-30T1500,1138A,126.6127,45.6119,哈尔滨市,平房东轻厂,,35,30,45,24,31,61,,46,46,14,36,8,12,0.5,0.7
2026-01-30T1500,1139A,126.5875,45.9827,哈尔滨市,呼兰师专,,36,32,49,25,31,60,,50,50,11,22,11,12,0.6,0.7
2026-01-30T1500,1140A,126.6299,45.6799,哈尔滨市,省农科院,,42,38,55,29,42,63,,44,44,12,32,11,12,0.6,0.9
2026-01-30T1500,4282A,126.6769,45.7379,哈尔滨市,华山路1号,,48,48,42,23,22,52,,43,43,22,26,16,19,0.5,0.5
2026-01-30T1500,4283A,126.9717,45.5356,哈尔滨市,解放大街52号,,,31,61,22,44,,,34,,15,24,7,7,0.5,0.8
2026-01-30T1500,2688A,93.5124,42.8176,哈密市,地区监测站,颗粒物(PM10),87,124,115,41,47,71,,38,38,11,23,14,10,0.0,0.3
2026-01-30T1500,2689A,93.5014,42.8312,哈密市,哈密师范学校,,,,,,,,,,,,,,,,
2026-01-30T1500,2671A,100.9016,36.9464,海北藏族自治州,海晏县西海镇,颗粒物(PM10),76,101,104,52,53,78,,68,68,12,12,14,10,0.8,0.8
2026-01-30T1500,3867A,102.074,36.5056,海东市,平安区公安局北苑,细颗粒物(PM2.5),89,121,138,66,65,64,,48,48,9,14,18,19,0.9,0.8
2026-01-30T1500,4163A,102.0984,36.5119,海东市,滨河路,颗粒物(PM10),83,115,133,58,61,73,,52,52,16,24,14,21,0.6,0.7
2026-01-30T1500,1410A,110.3189,20.0596,海口市,海南大学,,32,25,34,15,14,101,,88,88,6,8,5,5,0.4,0.5
2026-01-30T1500,1411A,110.2827,20.0051,海口市,秀英海南医院,,30,28,35,11,14,96,,83,83,7,9,7,7,0.3,0.4
2026-01-30T1500,1412A,110.3391,19.9979,海口市,海南师范大学,,,24,33,10,13,103,,88,88,,31,5,6,0.5,0.5
2026-01-30T1500,1413A,110.3303,20.0359,海口市,龙华路环保局宿舍,,35,30,34,14,17,109,,94,94,7,8,/,/,0.7,0.6
2026-01-30T1500,3539A,110.5111,19.9737,海口市,桂林洋子站,,32,30,33,14,13,101,,86,86,7,7,/,/,/,/
2026-01-30T1500,4134A,110.1952,20.0451,海口市,长滨二路9号,,31,26,31,14,14,99,,86,86,5,8,/,/,/,/
2026-01-30T1500,2673A,100.6158,36.2985,海南藏族自治州,共和县恰卜恰镇,细颗粒物(PM2.5),60,59,80,43,49,97,,60,60,2,21,12,11,0.4,0.6
2026-01-30T1500,2676A,97.373,37.376,海西蒙古族藏族自治州,德令哈市,颗粒物(PM10),64,78,109,25,28,97,,91,86,15,4,14,14,1.9,0.6
2026-01-30T1500,1049A,114.492,36.5712,邯郸市,矿院,细颗粒物(PM2.5),118,101,80,89,67,76,,59,59,12,19,2,2,0.7,0.7
2026-01-30T1500,1050A,114.4839,36.6136,邯郸市,丛台公园,细颗粒物(PM2.5),120,108,86,91,71,80,,57,57,17,26,4,2,0.7,0.7
2026-01-30T1500,3458A,114.7893,36.5592,邯郸市,香泉濮院小区,细颗粒物(PM2.5),93,89,88,69,61,74,,46,46,16,28,4,3,0.7,0.7
2026-01-30T1500,3580A,114.1998,36.4439,邯郸市,峰峰矿区临水派出所,细颗粒物(PM2.5),117,89,79,88,68,86,,62,62,4,9,4,3,1.0,0.7
2026-01-30T1500,4068A,114.5209,36.7697,邯郸市,建安街268号,细颗粒物(PM2.5),109,87,78,82,70,72,,50,50,27,30,4,2,0.7,0.5
2026-01-30T1500,4069A,114.5488,36.6177,邯郸市,丛台东路558号,细颗粒物(PM2.5),117,100,80,88,75,87,,52,52,11,25,2,2,0.8,0.8
2026-01-30T1500,2635A,107.0155,33.0707,汉中市,市监测站,,36,31,24,25,20,70,,60,60,15,16,5,5,0.8,0.9
2026-01-30T1500,2636A,107.0083,33.114,汉中市,鑫源开发区,,49,36,24,34,20,74,,66,66,13,14,4,4,0.6,0.6
2026-01-30T1500,2637A,107.0072,33.0323,汉中市,南郑大河坎水厂,,,24,37,18,25,67,,57,57,,20,,5,0.8,1
2026-01-30T1500,1223A,120.2073,30.2111,杭州市,滨江,,,,60,,30,,,60,,,31,,7,,0.4
2026-01-30T1500,1224A,120.0625,30.2737,杭州市,西溪,,30,30,55,3,19,45,,60,54,34,26,8,9,1.1,1
2026-01-30T1500,1226A,120.3417,30.315,杭州市,下沙,,34,34,48,11,21,51,,67,55,32,26,7,8,0.8,0.7
2026-01-30T1500,1227A,120.1252,30.2465,杭州市,卧龙桥,,23,23,47,9,22,45,,59,54,28,22,8,9,0.3,0.2
2026-01-30T1500,1228A,120.1902,30.2691,杭州市,浙江农大,,23,20,52,8,20,41,,65,53,46,33,5,6,0.8,0.7
2026-01-30T1500,1230A,120.1195,30.3121,杭州市,和睦小学,,19,19,50,9,22,50,,64,57,26,21,3,4,0.8,0.7
2026-01-30T1500,1231A,120.3076,30.4146,杭州市,临平镇,,23,23,45,14,21,58,,75,57,19,13,6,6,0.8,0.6
2026-01-30T1500,1232A,120.2753,30.1839,杭州市,城厢镇,,37,37,61,9,24,54,,54,50,31,34,7,8,0.4,0.4
2026-01-30T1500,1233A,120.0883,30.1808,杭州市,云栖,,23,23,47,3,18,51,,,,30,34,4,5,0.7,0.6
2026-01-30T1500,3557A,119.9463,30.0496,杭州市,镇二中,,22,12,36,8,24,34,,54,43,43,33,4,5,0.6,0.7
2026-01-30T1500,3558A,119.7184,30.2367,杭州市,市府大楼,,15,12,38,6,25,46,,53,53,24,22,10,10,0.6,0.5
2026-01-30T1500,3656A,120.1554,30.2863,杭州市,消防大队,,32,32,52,10,24,44,,57,49,32,26,5,6,0.5,0.4
2026-01-30T1500,1270A,117.1957,31.7845,合肥市,明珠广场,,20,,33,14,22,59,,65,64,20,25,5,5,0.6,0.6
2026-01-30T1500,1271A,117.307,31.8765,合肥市,三里街,,32,24,32,22,22,61,,64,62,24,30,4,5,0.6,0.6
2026-01-30T1500,1272A,117.2587,31.8703,合肥市,琥珀山庄,,36,,36,25,25,71,,72,72,16,22,7,7,0.8,0.7
2026-01-30T1500,1275A,117.2593,31.9376,合肥市,庐阳区,,32,29,34,22,17,70,,71,70,26,32,3,3,0.8,0.7
2026-01-30T1500,1276A,117.345251,31.861615,合肥市,瑶海区,,28,22,33,19,18,67,,70,69,25,31,3,4,0.5,0.5
2026-01-30T1500,1277A,117.3033,31.7967,合肥市,包河区,,30,24,35,21,18,47,,53,46,42,49,5,6,0.7,0.7
2026-01-30T1500,1278A,117.278,31.7392,合肥市,滨湖新区,,25,17,32,17,20,60,,65,63,25,24,2,3,0.6,0.6
2026-01-30T1500,1279A,117.1324,31.8395,合肥市,高新区,,22,17,36,14,19,68,,71,71,26,31,3,3,0.6,0.7
2026-01-30T1500,3464A,117.3802,31.9148,合肥市,高教基地,,36,27,32,25,18,73,,72,72,16,24,7,7,0.5,0.6
2026-01-30T1500,4098A,117.2518,31.8404,合肥市,中国科学技术大学,,25,19,30,17,16,70,,72,71,15,18,7,7,0.7,0.7
2026-01-30T1500,3614A,79.9241,37.0878,和田地区,地区环保局,颗粒物(PM10),279,405,330,106,85,67,,53,53,9,23,1,4,0.0,0.4
2026-01-30T1500,3615A,79.9132,37.1137,和田地区,市环保局,颗粒物(PM10),305,424,335,76,71,68,,51,51,1,19,1,3,0.2,0.8
2026-01-30T1500,2517A,108.0496,24.6957,河池市,市环保站,,,8,44,,38,33,,33,33,10,16,2,3,0.9,0.9
2026-01-30T1500,4302A,108.0901,24.6945,河池市,上任中路54号,,13,13,40,3,31,32,,31,31,9,20,4,5,1.1,1
2026-01-30T1500,1697A,114.6962,23.7538,河源市,东埔,,30,,39,21,31,64,,54,54,20,32,5,5,0.8,0.8
2026-01-30T1500,1698A,114.6895,23.7232,河源市,老城,,37,37,38,19,29,64,,55,55,12,23,5,6,0.9,1
2026-01-30T1500,3374A,115.5562,35.089,菏泽市,定陶老年大学,细颗粒物(PM2.5),162,139,122,123,87,42,,28,28,20,27,5,6,1.7,1.2
2026-01-30T1500,4114A,115.4239,35.2593,菏泽市,黄河路600号,细颗粒物(PM2.5),147,127,118,112,84,42,,34,34,23,28,3,3,0.8,0.7
2026-01-30T1500,4115A,115.5025,35.2727,菏泽市,菏泽市人社局,细颗粒物(PM2.5),149,129,117,114,85,39,,30,30,21,26,7,8,0.8,0.8
2026-01-30T1500,4184A,115.479691,35.244011,菏泽市,永昌路1号,细颗粒物(PM2.5),142,130,121,108,87,40,,33,33,24,27,3,4,0.5,0.4
2026-01-30T1500,4193A,115.471542,35.280012,菏泽市,长城路999号,细颗粒物(PM2.5),134,122,113,102,79,36,,29,29,25,30,18,18,0.9,0.8
2026-01-30T1500,2514A,111.5264,24.4178,贺州市,环保小区,颗粒物(PM10),75,99,74,54,44,60,,87,56,15,23,5,6,0.9,0.8
2026-01-30T1500,2515A,111.561,24.4074,贺州市,政协大楼,,,87,65,62,42,63,,94,63,3,41,,13,,0.8
2026-01-30T1500,3534A,111.4744,24.455,贺州市,西湾,细颗粒物(PM2.5),83,97,71,61,48,44,,84,40,18,28,7,9,1.0,0.8
2026-01-30T1500,2385A,114.17,35.9019,鹤壁市,市监测站,细颗粒物(PM2.5),137,133,118,104,87,60,,42,42,18,19,3,2,1.1,1
2026-01-30T1500,2386A,114.2953,35.7512,鹤壁市,市交警支队,细颗粒物(PM2.5),120,121,119,91,87,60,,39,39,27,27,5,5,0.9,0.9
2026-01-30T1500,2387A,114.2877,35.7302,鹤壁市,迎宾馆,细颗粒物(PM2.5),137,113,116,104,88,65,,42,42,25,26,4,4,1.0,1.1
2026-01-30T1500,3474A,114.2616,35.6824,鹤壁市,大新区,细颗粒物(PM2.5),158,120,122,120,81,65,,50,50,25,22,6,7,1.0,1
2026-01-30T1500,3596A,114.1573,35.9607,鹤壁市,南山宾馆,细颗粒物(PM2.5),135,125,114,103,88,67,,50,50,19,21,4,3,1.0,0.9
2026-01-30T1500,2244A,130.2537,47.3416,鹤岗市,哈啤分公司,,29,29,25,6,12,79,,76,76,3,5,5,6,0.5,0.5
2026-01-30T1500,2245A,130.2683,47.3087,鹤岗市,斯达机电,,24,23,22,10,8,74,,71,71,6,6,4,4,0.5,0.5
2026-01-30T1500,2246A,130.3114,47.3388,鹤岗市,东山纸板厂,,24,23,20,12,9,76,,73,73,5,5,6,6,0.3,0.4
2026-01-30T1500,2263A,127.4832,50.2524,黑河市,交通局,,23,17,13,8,13,71,,73,72,10,5,5,4,0.3,0.3
2026-01-30T1500,2264A,127.5146,50.2339,黑河市,环保局,,22,9,12,7,8,68,,69,68,9,8,4,4,0.3,0.3
2026-01-30T1500,1074A,115.6839,37.754,衡水市,电机北厂,细颗粒物(PM2.5),78,86,82,57,57,63,,46,46,26,40,9,8,0.6,0.6
2026-01-30T1500,1075A,115.6303,37.7318,衡水市,市监测站,细颗粒物(PM2.5),72,84,74,52,55,71,,55,55,21,32,13,10,0.6,0.6
2026-01-30T1500,3188A,115.6684,37.7216,衡水市,市城管局,细颗粒物(PM2.5),69,78,76,50,51,67,,50,50,30,32,13,11,0.7,0.7
2026-01-30T1500,3459A,115.599,37.5491,衡水市,地表水厂,细颗粒物(PM2.5),82,66,63,60,57,85,,52,52,9,26,9,6,0.5,0.5
2026-01-30T1500,2457A,112.6209,26.9268,衡阳市,衡阳化工总厂,,11,10,42,6,31,24,,25,25,20,15,7,8,1.1,1.1
2026-01-30T1500,2458A,112.621,26.8957,衡阳市,珠晖区环保局,,14,14,40,6,29,22,,24,22,23,21,4,4,1.2,1.2
2026-01-30T1500,2459A,112.628,26.8654,衡阳市,市委党校,,15,15,39,8,26,25,,25,25,13,11,7,9,1.3,1.2
2026-01-30T1500,2460A,112.6007,26.8977,衡阳市,市监测站,,40,,55,28,30,26,,26,26,18,17,5,6,1.2,1.2
2026-01-30T1500,2461A,112.5658,26.9013,衡阳市,真空机电公司,,17,17,51,7,34,28,,29,29,19,19,5,6,1.2,1.2
2026-01-30T1500,3399A,112.6703,26.8817,衡阳市,师范学院,,18,18,45,12,22,30,,29,29,19,19,2,3,1.1,1
2026-01-30T1500,3038A,103.3757,23.3679,红河哈尼族彝族自治州,州图书馆,,32,30,33,22,25,83,,68,68,5,7,6,6,0.4,0.5
2026-01-30T1500,4154A,103.401,23.3561,红河哈尼族彝族自治州,蒙自市朝阳路,,27,,23,16,23,85,,73,73,2,6,6,6,0.3,0.3
2026-01-30T1500,1090A,111.6506,40.7517,呼和浩特市,呼市一监,细颗粒物(PM2.5),60,58,36,43,19,52,,45,37,18,24,9,10,0.7,0.6
2026-01-30T1500,1094A,111.7516,40.8369,呼和浩特市,如意水处理厂,细颗粒物(PM2.5),74,87,39,54,21,54,,37,37,21,38,11,12,0.5,0.4
2026-01-30T1500,1095A,111.727798,40.806187,呼和浩特市,二十九中,细颗粒物(PM2.5),72,58,36,52,19,50,,38,37,17,24,13,14,0.7,0.5
2026-01-30T1500,1097A,111.717,40.7617,呼和浩特市,化肥厂生活区,细颗粒物(PM2.5),72,89,45,52,20,51,,48,42,20,24,6,10,0.5,0.5
2026-01-30T1500,3699A,111.6519,40.8389,呼和浩特市,海东办,细颗粒物(PM2.5),68,66,36,49,17,50,,32,32,22,36,7,7,0.7,0.7
2026-01-30T1500,4275A,111.591512,40.827312,呼和浩特市,成吉思汗西街8号,,,61,38,46,18,47,,34,34,26,46,10,9,,0.6
2026-01-30T1500,4276A,111.6597,40.8077,呼和浩特市,公园东路75号,细颗粒物(PM2.5),72,70,34,52,19,47,,43,43,25,30,9,8,0.7,0.6
2026-01-30T1500,4277A,111.5427,40.7846,呼和浩特市,金海路35号,颗粒物(PM10),54,57,39,30,18,47,,31,31,23,47,10,11,0.7,0.7
2026-01-30T1500,3061A,119.7511,49.1576,呼伦贝尔市,国华电力东,,22,,30,15,18,68,,64,64,19,21,6,5,0.3,0.3
2026-01-30T1500,4279A,119.7569,49.2222,呼伦贝尔市,伊敏大街东7号,,29,,31,20,25,65,,53,44,9,18,7,6,0.4,0.5
2026-01-30T1500,1250A,120.075,30.867,湖州市,城西水厂,,26,17,41,13,21,81,,82,81,19,19,4,5,0.4,0.3
2026-01-30T1500,2873A,120.083,30.8929,湖州市,仁皇山新区,,24,15,41,12,21,75,,80,79,24,24,5,5,0.7,0.5
2026-01-30T1500,2907A,120.1846,30.8592,湖州市,吴兴区站,,25,25,42,14,20,70,,73,70,21,18,4,4,0.5,0.4
2026-01-30T1500,3562A,120.4146,30.8538,湖州市,南浔区站,,22,22,46,15,23,66,,73,71,23,17,6,6,0.4,0.4
2026-01-30T1500,1607A,120.904878,40.721091,葫芦岛市,龙港区,,50,44,80,35,56,75,,45,45,11,46,12,31,0.5,1.2
2026-01-30T1500,1608A,120.8382,40.7521,葫芦岛市,化工街,,39,31,83,27,52,67,,38,38,14,53,17,36,0.3,0.9
2026-01-30T1500,1609A,120.8339,40.7078,葫芦岛市,新区,,31,31,58,20,44,76,,45,45,10,53,12,22,0.4,1
2026-01-30T1500,1610A,120.8697,40.7679,葫芦岛市,东城区,,44,44,79,28,58,71,,41,41,17,50,18,44,0.6,1.3
2026-01-30T1500,2483A,109.9297,27.5383,怀化市,河西地税局,,33,,12,23,10,44,,42,42,16,15,3,2,/,/
2026-01-30T1500,2484A,109.9783,27.5342,怀化市,市四医院,,16,16,15,10,7,34,,36,36,12,11,6,6,0.7,0.8
2026-01-30T1500,2485A,109.9971,27.5579,怀化市,监测楼,,13,,13,9,7,36,,38,38,16,16,2,2,0.4,0.4
2026-01-30T1500,1210A,119.0566,33.5991,淮安市,钵池山,,27,27,44,15,26,66,,66,64,8,10,6,6,0.3,0.3
2026-01-30T1500,1211A,119.0083,33.578,淮安市,北京南路,,29,29,47,14,27,64,,66,62,8,10,6,6,0.4,0.4
2026-01-30T1500,1212A,118.9938,33.6083,淮安市,市监测站,,26,19,36,18,28,69,,68,65,10,13,8,8,0.6,0.6
2026-01-30T1500,1213A,119.135,33.5038,淮安市,楚州区监测站,,22,22,42,14,27,66,,66,64,6,10,7,8,0.4,0.4
2026-01-30T1500,3426A,118.8757,33.2897,淮安市,新华书店,,21,21,44,12,30,60,,59,58,8,11,7,7,0.4,0.4
2026-01-30T1500,4092A,119.119691,33.550006,淮安市,枚皋中路89号,,28,28,49,14,28,74,,74,72,6,8,8,8,0.7,0.7
2026-01-30T1500,4206A,119.028838,33.631911,淮安市,承德北路606号,,31,31,54,15,29,65,,63,62,5,8,5,6,0.4,0.5
2026-01-30T1500,2282A,116.8005,33.9749,淮北市,监测站,,,70,79,46,50,61,,68,57,,13,4,4,0.5,0.5
2026-01-30T1500,2283A,116.8094,33.9008,淮北市,烈山区政府,颗粒物(PM10),55,59,65,36,41,67,,68,63,11,10,1,3,0.3,0.3
2026-01-30T1500,4017A,116.7926,33.9534,淮北市,市博物馆,细颗粒物(PM2.5),63,66,76,45,50,64,,69,61,8,8,1,2,0.6,0.6
2026-01-30T1500,4100A,116.8322,33.9884,淮北市,杜集区第一实验学校,细颗粒物(PM2.5),67,72,78,48,51,64,,67,58,13,10,3,4,0.4,0.5
2026-01-30T1500,2277A,116.8304,32.7726,淮南市,潘集区政府,颗粒物(PM10),53,55,49,34,28,68,,69,65,11,12,4,4,0.4,0.4
2026-01-30T1500,2279A,116.8569,32.5949,淮南市,谢家集区政府,,39,,34,27,24,63,,70,63,16,15,5,6,0.4,0.5
2026-01-30T1500,2280A,116.8279,32.6333,淮南市,八公山区政府,,43,41,39,30,30,68,,72,66,14,15,4,5,0.5,0.5
2026-01-30T1500,2894A,117.0561,32.6536,淮南市,经济技术开发区消防队,,43,35,48,30,28,63,,66,62,16,17,3,4,0.3,0.3
2026-01-30T1500,3329A,117.011,32.5891,淮南市,山南新区,,40,39,33,28,26,68,,74,70,16,17,6,6,0.3,0.4
2026-01-30T1500,4209A,117.003137,32.644456,淮南市,国庆中路369号,颗粒物(PM10),52,54,42,29,28,59,,62,58,14,14,7,8,0.3,0.3
2026-01-30T1500,2446A,114.9021,30.474,黄冈市,职工中心,,,21,36,10,28,49,,48,48,15,17,,6,0.5,0.7
2026-01-30T1500,2929A,114.8858,30.4519,黄冈市,红卫路,,19,19,32,12,22,54,,52,52,14,14,4,4,0.4,0.6
2026-01-30T1500,3398A,114.9134,30.4446,黄冈市,市林业局,,20,15,30,14,24,47,,46,46,14,16,3,4,0.4,0.5
2026-01-30T1500,2672A,102.02,35.5101,黄南藏族自治州,同仁县隆务镇,细颗粒物(PM2.5),69,68,94,50,49,81,,68,68,5,5,8,8,0.5,0.7
2026-01-30T1500,2295A,118.2905,29.6965,黄山市,延安路89号,,14,14,48,3,37,34,,17,17,17,18,4,4,0.7,0.8
2026-01-30T1500,2297A,118.1369,30.2755,黄山市,黄山区政府5号楼,,19,6,38,3,22,60,,40,40,16,16,2,2,0.6,0.7
2026-01-30T1500,4210A,118.335445,29.720283,黄山市,滨江东路7-2号,,21,21,60,8,36,40,,21,21,14,18,/,/,/,/
2026-01-30T1500,2423A,115.0547,30.2332,黄石市,沈家营,,22,22,38,8,18,41,,39,39,11,14,5,6,0.7,0.8
2026-01-30T1500,2426A,114.899,30.211,黄石市,铁山,,28,28,31,9,21,42,,42,42,13,16,5,5,1.4,0.9
2026-01-30T1500,2427A,115.0259,30.2108,黄石市,团城山,,23,23,34,16,25,35,,33,33,16,17,6,6,0.7,0.7
2026-01-30T1500,3149A,115.0174,30.1591,黄石市,笔架山北路,,29,29,41,12,22,39,,34,34,15,19,7,7,0.6,0.7
2026-01-30T1500,4185A,115.078022,30.21118,黄石市,磁湖东路29号,,26,,34,18,25,38,,34,34,7,12,6,6,0.7,0.9
2026-01-30T1500,1392A,114.4181,23.0528,惠州市,河南岸金山湖子站,,,18,44,14,27,52,,58,43,,25,2,4,0.8,0.8
2026-01-30T1500,1393A,114.4055,23.0824,惠州市,下埔横江三路子站,,22,15,45,13,28,68,,65,55,13,21,5,6,0.7,0.8
2026-01-30T1500,1395A,114.4645,22.7832,惠州市,惠阳区承修路船湖子站,,35,35,44,22,30,59,,64,46,21,22,6,6,0.7,0.7
2026-01-30T1500,1396A,114.5316,22.7423,惠州市,大亚湾管委会子站,,30,30,47,18,25,65,,66,49,17,22,5,6,0.6,0.6
2026-01-30T1500,3314A,114.4334,22.8134,惠州市,惠阳秋长,,34,34,43,19,24,69,,71,59,21,23,/,/,/,/
2026-01-30T1500,3452A,114.6521,22.7755,惠州市,大亚湾霞涌,,22,21,40,15,23,67,,72,59,16,18,/,/,/,/
2026-01-30T1500,4300A,114.4089,23.1147,惠州市,文华一路1号,,20,15,40,12,26,63,,67,54,15,21,/,/,/,/
2026-01-30T1500,2240A,130.9618,45.2926,鸡西市,环保局,,23,20,20,13,13,71,,66,66,5,7,6,6,0.2,0.2
2026-01-30T1500,2243A,130.9294,45.2959,鸡西市,第一中学,,22,20,17,10,13,70,,67,67,6,6,2,2,0.3,0.3
2026-01-30T1500,3707A,131.0069,45.2988,鸡西市,欧美日汽修厂,,28,28,29,15,14,68,,63,62,5,7,7,6,0.3,0.4
2026-01-30T1500,2367A,114.9753,27.0803,吉安市,红声器材厂,细颗粒物(PM2.5),78,69,66,57,51,29,,22,22,23,30,8,11,0.5,0.5
2026-01-30T1500,2369A,114.9903,27.1313,吉安市,市环境监测站,细颗粒物(PM2.5),79,62,59,58,50,30,,24,24,23,30,6,9,/,/
2026-01-30T1500,2370A,115.009527,27.096792,吉安市,青原区法院,,,,60,,39,26,,19,19,24,30,9,13,0.8,1
2026-01-30T1500,1772A,126.54,43.8622,吉林市,哈达湾,,31,31,52,12,42,85,,64,64,6,24,6,8,0.7,0.9
2026-01-30T1500,1773A,126.5843,43.8358,吉林市,东局子,,24,15,45,12,40,76,,52,52,9,24,4,5,0.7,0.9
2026-01-30T1500,1774A,126.5051,43.8243,吉林市,电力学院,,27,15,72,12,60,86,,64,64,6,31,5,8,0.5,1.1
2026-01-30T1500,1775A,126.6133,43.8971,吉林市,江北,,,,61,13,48,80,,56,56,9,26,8,8,0.5,1.2
2026-01-30T1500,1776A,126.5549,43.8304,吉林市,江南公园,,25,18,55,12,47,79,,55,55,6,27,6,7,0.3,0.6
2026-01-30T1500,2868A,126.4737,43.953,吉林市,九站,,33,31,62,23,52,81,,54,54,12,41,4,8,0.6,0.9
2026-01-30T1500,1299A,116.9866,36.6118,济南市,科干所,细颗粒物(PM2.5),98,129,106,73,62,37,,37,31,38,33,13,10,0.8,0.7
2026-01-30T1500,1300A,116.9379,36.6652,济南市,农科所,细颗粒物(PM2.5),119,120,95,90,60,42,,30,29,35,37,13,13,1.0,0.8
2026-01-30T1500,1301A,117.1265,36.6736,济南市,开发区,细颗粒物(PM2.5),120,122,97,91,65,37,,37,31,48,42,8,7,1.0,0.9
2026-01-30T1500,1303A,117.0616,36.6865,济南市,省种子仓库,细颗粒物(PM2.5),115,129,101,87,57,45,,31,31,38,40,12,10,0.8,0.6
2026-01-30T1500,1304A,116.9495185,36.644937,济南市,机床二厂,细颗粒物(PM2.5),125,122,98,95,66,43,,30,30,34,37,12,10,0.6,0.7
2026-01-30T1500,1305A,117.0496,36.6629,济南市,市监测站,细颗粒物(PM2.5),118,125,101,89,65,39,,31,30,38,37,10,8,1.0,0.8
2026-01-30T1500,1306A,116.7674,36.5458,济南市,长清党校,细颗粒物(PM2.5),138,117,102,105,63,38,,27,27,33,39,11,11,1.0,0.9
2026-01-30T1500,1961A,117.5323,36.6865,济南市,东山小学,细颗粒物(PM2.5),158,,102,120,58,38,,,,46,30,11,7,0.7,0.5
2026-01-30T1500,3059A,117.7181,36.205,济南市,泰兴公司,细颗粒物(PM2.5),113,134,123,85,88,80,,66,66,26,32,8,5,1.8,1
2026-01-30T1500,3064A,117.6861,36.2172,济南市,莱芜战役纪念馆,细颗粒物(PM2.5),105,129,122,79,82,74,,63,63,26,28,14,8,1.5,0.9
2026-01-30T1500,3494A,117.1673,36.9782,济南市,济阳区政府,细颗粒物(PM2.5),115,127,70,87,41,65,,49,48,25,21,12,8,0.9,0.7
2026-01-30T1500,3495A,117.1168,36.6299,济南市,锦屏中学,细颗粒物(PM2.5),110,117,97,83,66,38,,41,34,43,35,8,6,0.6,0.5
2026-01-30T1500,4108A,117.7107,36.2385,济南市,山财大街5号,细颗粒物(PM2.5),93,129,111,69,73,75,,66,66,40,42,13,9,1.6,1
2026-01-30T1500,4109A,116.9744,36.6889,济南市,无影山路12号,,,,85,,56,41,,33,29,,36,12,12,1.1,0.9
2026-01-30T1500,1653A,116.6229,35.4288,济宁市,火炬城,细颗粒物(PM2.5),128,119,123,97,99,53,,42,42,22,24,2,3,0.7,0.7
2026-01-30T1500,3500A,116.5808,35.3703,济宁市,北湖一中,细颗粒物(PM2.5),120,120,115,91,94,57,,46,46,23,25,2,3,0.7,0.7
2026-01-30T1500,3501A,116.8251,35.5592,济宁市,服务中心,,,142,146,,100,46,,46,46,19,19,2,4,0.7,0.7
2026-01-30T1500,3678A,116.5907,35.4054,济宁市,市第七中学,细颗粒物(PM2.5),143,120,119,109,102,55,,49,49,27,27,7,7,0.6,0.7
2026-01-30T1500,4111A,116.6075,35.4566,济宁市,任和路,细颗粒物(PM2.5),133,155,148,101,97,46,,44,44,31,30,5,6,0.8,0.8
2026-01-30T1500,4112A,116.5648,35.3921,济宁市,文体南路1号,细颗粒物(PM2.5),127,127,139,96,98,50,,47,47,30,27,2,3,0.7,0.7
2026-01-30T1500,2255A,130.2749,46.8028,佳木斯市,佳纺,,33,33,39,13,26,63,,62,62,11,13,5,7,0.6,0.6
2026-01-30T1500,2257A,130.3258,46.7975,佳木斯市,环保局,,28,19,25,19,20,66,,63,63,10,12,6,6,0.2,0.3
2026-01-30T1500,4285A,130.363,46.806,佳木斯市,顺和街,,35,,26,24,23,58,,57,56,17,15,9,8,0.4,0.4
2026-01-30T1500,4286A,130.3952,46.8268,佳木斯市,长安路196号,,,,30,,24,67,,68,68,10,13,,5,0.6,0.6
2026-01-30T1500,1252A,120.7439,30.778,嘉兴市,清河小学,,29,25,45,20,23,66,,73,65,23,20,5,5,0.4,0.3
2026-01-30T1500,1253A,120.7261,30.7477,嘉兴市,嘉兴学院,,29,29,48,16,22,66,,74,68,24,20,4,5,0.4,0.4
2026-01-30T1500,2872A,120.7845,30.7524,嘉兴市,南湖区残联,,23,21,40,13,24,71,,78,72,23,21,3,4,0.4,0.3
2026-01-30T1500,3407A,120.6915,30.7741,嘉兴市,秀洲住建,颗粒物(PM10),59,68,51,13,24,68,,75,67,26,23,5,6,0.4,0.3
2026-01-30T1500,1945A,98.291,39.7705,嘉峪关市,气象局,颗粒物(PM10),175,300,375,63,74,76,,47,47,7,17,15,17,0.6,0.7
2026-01-30T1500,2884A,98.2672,39.7978,嘉峪关市,酒钢宾馆,颗粒物(PM10),172,293,385,66,77,78,,49,49,7,15,11,22,0.8,0.7
2026-01-30T1500,3248A,98.2644,39.7723,嘉峪关市,雄关区,颗粒物(PM10),153,256,313,72,67,76,,47,47,10,21,15,17,0.5,0.6
2026-01-30T1500,1383A,113.1063,22.6058,江门市,北街,,,27,42,18,26,61,,52,52,,34,/,/,/,/
2026-01-30T1500,1384A,113.073,22.5835,江门市,西区,,24,24,44,14,26,74,,57,57,27,32,/,/,/,/
2026-01-30T1500,1385A,113.0218,22.531,江门市,圭峰西,,24,,40,14,24,76,,61,55,23,27,/,/,/,/
2026-01-30T1500,1386A,113.0826,22.5947,江门市,东湖,,23,20,42,14,27,73,,56,56,27,30,7,9,0.5,0.6
2026-01-30T1500,3311A,113.1077,22.5647,江门市,江海富民,,38,38,56,20,27,66,,54,54,34,34,/,/,0.5,0.5
2026-01-30T1500,3449A,113.0496,22.4669,江门市,新会银湖,,29,20,38,20,27,53,,44,44,29,33,6,7,0.7,0.6
2026-01-30T1500,3335A,113.3137,35.2643,焦作市,马村街道办,细颗粒物(PM2.5),165,140,179,125,138,48,,38,38,25,24,2,3,1.1,1.2
2026-01-30T1500,3336A,113.2464,35.2374,焦作市,焦作技师学院,细颗粒物(PM2.5),156,142,187,119,129,49,,42,40,23,22,5,6,1.2,1.4
2026-01-30T1500,3477A,113.1656,35.2536,焦作市,中站许衡医院,细颗粒物(PM2.5),225,193,180,175,136,39,,38,33,34,28,5,4,1.4,1.3
2026-01-30T1500,3981A,113.2456,35.18,焦作市,原李万街道办,细颗粒物(PM2.5),153,135,174,117,120,53,,46,42,19,19,3,4,0.9,1
2026-01-30T1500,4264A,113.234,35.219,焦作市,新安路1731号,颗粒物(PM10),111,172,202,,141,53,,44,42,18,22,6,6,1.1,1.3
2026-01-30T1500,4295A,113.2722,35.2121,焦作市,人民路3066号,细颗粒物(PM2.5),152,144,188,116,121,53,,44,42,20,21,4,6,1.1,1.2
2026-01-30T1500,1708A,116.3701,23.5345,揭阳市,新兴,,,,55,38,26,77,,51,51,23,25,9,10,0.7,0.7
2026-01-30T1500,1709A,116.3261,23.5442,揭阳市,西马,,49,47,56,34,26,83,,51,51,17,22,6,6,0.6,0.6
2026-01-30T1500,1710A,116.361,23.5627,揭阳市,东兴,颗粒物(PM10),56,61,61,37,32,82,,47,47,21,24,9,9,/,/
2026-01-30T1500,1711A,116.4151,23.5295,揭阳市,渔湖,颗粒物(PM10),51,52,51,26,23,93,,64,64,15,21,9,8,/,/
2026-01-30T1500,3320A,116.4028,23.5699,揭阳市,曲溪,颗粒物(PM10),54,58,57,25,24,93,,59,59,10,20,5,8,0.5,0.6
2026-01-30T1500,1944A,102.1691,38.5166,金昌市,天庆家园,颗粒物(PM10),176,302,317,73,74,73,,57,57,5,9,6,20,0.6,0.7
2026-01-30T1500,4022A,102.1648,38.5369,金昌市,金川区人防中心,颗粒物(PM10),192,333,328,75,77,76,,63,60,4,7,7,12,0.4,0.5
2026-01-30T1500,4239A,102.193042,38.531887,金昌市,长春路96号,颗粒物(PM10),179,308,310,64,63,60,,57,52,5,7,6,11,0.5,0.6
2026-01-30T1500,1262A,119.6478,29.0773,金华市,十五中,,50,50,50,23,21,54,,53,53,36,44,4,4,0.2,0.2
2026-01-30T1500,1263A,119.6859,29.1032,金华市,监测站,颗粒物(PM10),54,58,52,27,21,34,,39,39,39,46,3,3,0.2,0.2
2026-01-30T1500,3659A,119.656,29.1132,金华市,气象局,颗粒物(PM10),51,52,44,26,18,36,,44,43,37,43,3,4,0.5,0.5
2026-01-30T1500,1767A,121.1114,41.0879,锦州市,南山,,50,50,64,21,52,69,,44,44,23,43,23,23,0.6,1.1
2026-01-30T1500,1768A,121.060361,40.842794,锦州市,开发区,,36,36,88,15,60,77,,50,50,12,52,11,46,0.4,1
2026-01-30T1500,1769A,121.1836,41.1118,锦州市,百股街道,颗粒物(PM10),62,73,61,27,49,75,,47,47,22,38,21,22,0.6,1
2026-01-30T1500,1770A,121.1176,41.1224,锦州市,天安街道,,,,71,27,50,70,,49,49,,42,22,22,0.8,1.2
2026-01-30T1500,1771A,121.1303,41.1385,锦州市,北湖公园,颗粒物(PM10),56,62,64,32,42,64,,46,46,25,30,26,21,0.7,0.9
2026-01-30T1500,2160A,112.8496,35.5051,晋城市,自来水公司,细颗粒物(PM2.5),115,,123,87,80,88,,72,72,12,15,4,4,0.9,1
2026-01-30T1500,2162A,112.8509,35.4886,晋城市,市环保局,细颗粒物(PM2.5),112,105,123,84,89,85,,68,68,14,16,3,3,1.0,1
2026-01-30T1500,3620A,112.8258,35.4804,晋城市,泽州一中,细颗粒物(PM2.5),120,99,120,91,86,91,,76,76,12,11,2,2,0.6,0.6
2026-01-30T1500,4078A,112.8246,35.5152,晋城市,前书院路,细颗粒物(PM2.5),92,107,132,68,77,86,,74,74,13,16,4,4,0.7,0.8
2026-01-30T1500,4079A,112.8864,35.4773,晋城市,祥云街666号,细颗粒物(PM2.5),117,95,117,88,90,84,,69,64,16,18,4,4,0.7,0.7
2026-01-30T1500,2174A,112.6992,37.6984,晋中市,榆次区政府,细颗粒物(PM2.5),239,217,176,189,143,54,,29,25,32,34,8,9,1.4,1.2
2026-01-30T1500,2865A,112.7195,37.683,晋中市,榆次三中,细颗粒物(PM2.5),222,210,183,172,147,56,,29,26,33,33,9,11,1.5,1.3
2026-01-30T1500,4080A,112.7375,37.7215,晋中市,广安街188号,细颗粒物(PM2.5),227,234,199,177,144,57,,27,26,38,42,11,8,1.2,1.1
2026-01-30T1500,4200A,112.7478,37.6954,晋中市,迎宾街26号,细颗粒物(PM2.5),241,202,180,191,155,58,,32,28,34,37,10,10,1.5,1.2
2026-01-30T1500,2439A,112.2012,31.048,荆门市,竹园小学,细颗粒物(PM2.5),113,102,82,85,72,37,,34,30,24,25,1,1,0.5,0.8
2026-01-30T1500,2440A,112.1968,30.9892,荆门市,掇刀,细颗粒物(PM2.5),105,100,80,79,68,39,,37,34,20,21,1,3,0.6,0.7
2026-01-30T1500,3012A,112.1849,31.0361,荆门市,西山林语,细颗粒物(PM2.5),104,96,78,78,67,38,,36,34,23,22,2,2,0.9,0.9
2026-01-30T1500,3547A,112.1631,31.0134,荆门市,龙泉中学南校,细颗粒物(PM2.5),100,105,79,75,71,45,,40,39,15,12,2,2,0.8,0.8
2026-01-30T1500,4124A,112.2213,31.0654,荆门市,新台西路6号,细颗粒物(PM2.5),120,,83,91,79,38,,34,31,22,23,7,7,0.8,0.9
2026-01-30T1500,1844A,112.2493,30.3198,荆州市,市图书馆,细颗粒物(PM2.5),113,,57,85,60,27,,33,32,24,21,5,5,0.9,1
2026-01-30T1500,1845A,112.2009,30.3543,荆州市,市委党校,细颗粒物(PM2.5),113,,65,85,68,25,,30,29,26,25,5,6,0.9,0.9
2026-01-30T1500,3194A,112.2749,30.3124,荆州市,管委会,细颗粒物(PM2.5),112,,59,84,64,30,,31,30,22,21,5,5,1.0,1.1
2026-01-30T1500,4268A,112.1722,30.3366,荆州市,学苑路85号,细颗粒物(PM2.5),102,,56,76,58,37,,38,38,19,18,4,6,1.0,1.1
2026-01-30T1500,2343A,117.2114,29.2931,景德镇市,老干部活动中心,,14,14,39,3,27,16,,31,23,16,16,4,4,0.5,0.6
2026-01-30T1500,2344A,117.1893,29.2789,景德镇市,兽医站,,28,28,45,7,21,18,,37,29,18,16,4,3,0.4,0.5
2026-01-30T1500,2346A,117.246,29.2958,景德镇市,陶研所,,10,10,35,3,26,21,,30,24,15,16,3,3,0.6,0.7
2026-01-30T1500,4289A,117.154766,29.256967,景德镇市,青少年活动中心,,23,16,42,16,24,18,,32,28,20,18,6,3,/,/
2026-01-30T1500,1803A,115.9873,29.6816,九江市,十里,,23,,42,16,37,72,,57,57,19,24,4,5,0.8,0.9
2026-01-30T1500,1804A,115.9583,29.7047,九江市,茅山头,,25,,44,17,31,59,,46,46,18,23,4,4,0.5,0.6
2026-01-30T1500,1805A,115.9877,29.7295,九江市,西园,,20,13,48,3,31,63,,49,49,24,33,3,4,0.5,0.6
2026-01-30T1500,1808A,115.9112,29.6038,九江市,综合工业园,,18,,54,9,48,56,,33,33,23,38,2,3,0.6,0.6
2026-01-30T1500,3190A,116.0254,29.6995,九江市,外国语学校,,16,8,40,3,32,49,,36,36,24,27,4,5,0.6,0.6
2026-01-30T1500,4253A,116.010205,29.659402,九江市,莲花大道8号,,15,12,50,3,33,47,,38,38,22,22,2,4,0.6,0.7
2026-01-30T1500,4240A,98.495752,39.733935,酒泉市,玉门东路5号,颗粒物(PM10),194,337,420,49,64,74,,48,45,4,9,12,11,0.4,0.4
2026-01-30T1500,4241A,98.5099,39.7506,酒泉市,北大街108号,颗粒物(PM10),189,327,396,63,63,69,,44,44,4,11,11,11,0.3,0.4
2026-01-30T1500,2698A,76.0071,39.466,喀什地区,巡警大队,颗粒物(PM10),236,375,305,104,96,58,,33,33,13,37,5,6,0.5,1
2026-01-30T1500,2699A,75.9756,39.4693,喀什地区,吾办,颗粒物(PM10),187,324,286,98,101,67,,35,35,12,40,11,14,0.5,1.3
2026-01-30T1500,4027A,75.9485,39.4688,喀什地区,老干局,颗粒物(PM10),194,337,322,77,90,62,,35,31,9,33,4,6,0.3,1.2
2026-01-30T1500,1824A,114.3389,34.778,开封市,肿瘤医院,细颗粒物(PM2.5),144,,99,110,87,44,,32,32,28,29,9,8,1.0,0.9
2026-01-30T1500,1826A,114.2884,34.7966,开封市,世纪星幼儿园,细颗粒物(PM2.5),140,,93,107,87,35,,26,26,34,32,5,5,0.9,0.8
2026-01-30T1500,3147A,114.3434,34.8101,开封市,龙亭公园,细颗粒物(PM2.5),139,,90,106,76,40,,30,30,27,28,6,6,1.2,1
2026-01-30T1500,3210A,114.3645,34.7955,开封市,汴京公园,细颗粒物(PM2.5),130,117,95,99,81,39,,30,30,24,24,4,4,0.9,0.9
2026-01-30T1500,3473A,114.2485,34.8306,开封市,技师学院,细颗粒物(PM2.5),132,,90,100,79,44,,31,31,25,27,6,6,0.9,0.8
2026-01-30T1500,3592A,114.4518,34.7503,开封市,祥符区生态环境局,细颗粒物(PM2.5),118,165,121,89,78,44,,32,32,20,27,3,4,1.0,0.8
2026-01-30T1500,1951A,84.886,45.6029,克拉玛依市,长征新村,"颗粒物(PM10),细颗粒物(PM2.5)",87,124,127,64,81,65,,34,34,28,42,6,6,0.9,1.1
2026-01-30T1500,1952A,84.8894,45.5827,克拉玛依市,南林小区,细颗粒物(PM2.5),109,124,130,82,90,65,,34,34,14,32,4,5,0.8,1.2
2026-01-30T1500,1954A,84.896,44.3328,克拉玛依市,独山子区,细颗粒物(PM2.5),293,370,356,243,214,77,,56,56,58,79,3,3,1.6,1.7
2026-01-30T1500,1955A,85.6888,46.0909,克拉玛依市,乌尔禾区商贸楼,,,,116,,79,75,,60,55,31,36,,7,0.7,0.8
2026-01-30T1500,3612A,85.1045,45.6895,克拉玛依市,白碱滩区新站,细颗粒物(PM2.5),100,124,124,75,80,54,,42,38,30,35,10,9,0.9,1
2026-01-30T1500,2697A,76.1457,39.7143,克孜勒苏柯尔克孜自治州,市人民政府,颗粒物(PM10),186,321,296,84,86,75,,59,56,6,14,4,4,0.2,0.3
2026-01-30T1500,3665A,76.1654,39.7157,克孜勒苏柯尔克孜自治州,克州文化中心,颗粒物(PM10),191,332,301,77,77,57,,54,46,8,15,3,3,0.4,0.8
2026-01-30T1500,1450A,102.8203,24.889,昆明市,呈贡新区,,29,29,36,15,21,90,,76,76,5,18,5,5,0.1,0.2
2026-01-30T1500,1452A,102.7253,25.0904,昆明市,龙泉镇,,28,8,34,7,19,89,,60,60,7,20,3,3,0.3,0.4
2026-01-30T1500,1453A,102.7267,25.0378,昆明市,东风东路,,29,19,31,12,16,91,,76,76,9,16,6,6,0.2,0.2
2026-01-30T1500,1454A,102.6744,25.0671,昆明市,金鼎山,,28,17,39,3,19,89,,69,69,6,21,4,4,0.4,0.4
2026-01-30T1500,1455A,102.6643,25.0401,昆明市,碧鸡广场,,29,20,37,7,18,90,,73,73,8,24,4,5,0.3,0.4
2026-01-30T1500,3179A,102.7491,25.012,昆明市,官渡区博物馆,,31,24,34,7,19,98,,73,73,7,17,3,4,0.4,0.6
2026-01-30T1500,3375A,102.8016,24.8336,昆明市,青年创业园,,,18,35,,23,92,,82,82,,12,7,7,0.3,0.4
2026-01-30T1500,3550A,102.8,24.9787,昆明市,昆明学院,,31,23,37,14,23,97,,70,70,7,13,4,4,0.4,0.5
2026-01-30T1500,3551A,102.5969,24.6738,昆明市,晋宁区生态环境分局,,29,11,36,3,24,90,,78,78,2,12,1,3,0.2,0.4
2026-01-30T1500,3552A,102.6673,24.9861,昆明市,云天化总部,,29,19,28,3,16,92,,73,73,8,13,6,7,0.3,0.4
2026-01-30T1500,1456A,91.132,29.6515,拉萨市,八廓街,,,10,19,6,9,98,,90,88,4,9,,7,0.5,0.6
2026-01-30T1500,1457A,91.1221,29.6748,拉萨市,市环保局,,29,9,23,8,9,90,,86,86,6,10,7,8,0.5,0.6
2026-01-30T1500,1458A,91.0874,29.6476,拉萨市,区监测站,,30,6,16,3,8,93,,87,80,5,10,4,4,0.8,0.7
2026-01-30T1500,1459A,91.1774,29.6541,拉萨市,西藏大学,,28,6,18,3,7,89,,84,84,7,12,3,4,0.4,0.5
2026-01-30T1500,1460A,90.9798,29.6586,拉萨市,区辐射站,,30,7,24,3,9,94,,82,82,5,13,2,3,0.4,0.5
2026-01-30T1500,1461A,91.0831,29.6292,拉萨市,拉萨火车站,,29,6,16,3,8,91,,85,73,4,9,4,4,0.2,0.2
2026-01-30T1500,2520A,109.2203,23.7252,来宾市,来宾技工学校,颗粒物(PM10),76,101,61,48,37,28,,74,64,13,16,12,12,1.0,0.7
2026-01-30T1500,3535A,109.1781,23.7293,来宾市,兴宾区政府,颗粒物(PM10),55,60,60,36,38,28,,75,69,14,14,6,6,1.1,0.7
2026-01-30T1500,4002A,109.2312,23.7428,来宾市,中南小学,颗粒物(PM10),67,84,64,41,41,28,,58,49,13,21,6,7,1.2,0.9
2026-01-30T1500,1479A,103.8309,36.0467,兰州市,铁路设计院,,,,,,,,,,,,,,,,
2026-01-30T1500,3241A,103.7439,36.0841,兰州市,百合公园,颗粒物(PM10),115,180,149,70,61,68,,40,40,9,31,10,7,0.4,0.8
2026-01-30T1500,3242A,103.9613,35.9985,兰州市,和平,颗粒物(PM10),118,186,152,60,55,82,,65,56,9,17,10,10,1.0,1
2026-01-30T1500,4236A,103.629272,36.093822,兰州市,庄浪东路808号,颗粒物(PM10),126,202,158,68,57,70,,50,50,18,29,14,10,0.6,0.6
2026-01-30T1500,4237A,103.7251,36.104344,兰州市,安宁西路88号,颗粒物(PM10),131,211,168,,52,69,,48,48,10,27,9,8,0.4,0.6
2026-01-30T1500,4238A,103.846982,36.067567,兰州市,北滨河东路1号,颗粒物(PM10),116,181,152,40,53,78,,43,43,13,37,7,8,0.6,1
2026-01-30T1500,1067A,116.6712,39.5109,廊坊市,药材公司,细颗粒物(PM2.5),78,78,105,57,79,80,,50,50,19,44,8,4,0.6,0.7
2026-01-30T1500,1068A,116.7215,39.5592,廊坊市,开发区,细颗粒物(PM2.5),75,90,105,55,76,78,,54,54,24,39,9,4,0.8,0.8
2026-01-30T1500,1070A,116.7246,39.5273,廊坊市,北华航天学院,细颗粒物(PM2.5),72,87,107,52,75,79,,52,52,23,43,8,4,0.7,0.7
2026-01-30T1500,2919A,116.7022,39.5454,廊坊市,河北工业大学,细颗粒物(PM2.5),85,76,107,63,74,79,,58,58,17,30,8,4,0.7,0.7
2026-01-30T1500,2536A,103.7629,29.5844,乐山市,牛耳桥,,35,35,116,19,61,63,,33,33,20,31,6,7,0.9,1
2026-01-30T1500,2537A,103.7501,29.6002,乐山市,市第三水厂,,29,,107,20,62,70,,39,39,19,32,8,8,0.9,1
2026-01-30T1500,2538A,103.7571,29.5664,乐山市,市监测站,,35,35,124,18,65,63,,33,33,14,28,7,6,0.7,0.8
2026-01-30T1500,3361A,103.7313,29.563,乐山市,理工大学,,32,32,115,19,74,67,,36,36,10,27,4,14,0.8,1.2
2026-01-30T1500,2599A,100.2497,26.8802,丽江市,丽江古城,,28,24,28,16,16,87,,79,79,8,11,10,10,0.5,0.5
2026-01-30T1500,2600A,100.2203,26.8906,丽江市,市中心,,28,15,21,15,13,88,,80,80,9,10,5,5,0.3,0.3
2026-01-30T1500,1267A,119.9141,28.4513,丽水市,监测站大楼,,28,14,32,3,9,87,,81,81,8,12,4,4,0.4,0.3
2026-01-30T1500,1268A,119.93,28.4589,丽水市,莲都小学,,29,10,26,3,7,92,,86,86,8,13,/,/,/,/
2026-01-30T1500,1269A,119.8794,28.4232,丽水市,余庄前,,26,8,23,3,7,82,,81,81,9,11,4,4,0.3,0.3
2026-01-30T1500,1173A,119.1759,34.5885,连云港市,市环境监测站,,29,29,48,9,31,76,,75,70,7,11,10,9,0.3,0.3
2026-01-30T1500,3000A,119.3577,34.6971,连云港市,德源药业,,29,29,55,12,29,76,,74,71,10,12,6,6,0.6,0.6
2026-01-30T1500,3007A,119.178,34.8442,连云港市,新城一中,,36,36,61,12,37,83,,81,79,20,21,9,9,0.6,0.8
2026-01-30T1500,3008A,119.3607,34.7519,连云港市,胡沟管理处,,27,27,47,14,28,70,,78,72,17,9,9,7,0.6,0.7
2026-01-30T1500,3009A,119.1478,34.5913,连云港市,矿山设计院,,27,27,54,7,30,79,,77,73,9,11,7,7,0.5,0.6
2026-01-30T1500,3434A,119.2414,34.6539,连云港市,工贸学校,,26,19,51,9,31,82,,79,76,14,16,10,10,0.3,0.4
2026-01-30T1500,3664A,119.4171,34.734,连云港市,连云街道,,25,25,53,11,30,79,,71,70,14,22,4,3,0.4,0.5
2026-01-30T1500,2573A,102.2629,27.8981,凉山彝族自治州,西昌市政府,,35,35,37,20,22,97,,66,66,9,10,7,8,0.6,0.5
2026-01-30T1500,2574A,102.2686,27.885,凉山彝族自治州,凉山州政府,,33,33,37,21,20,89,,61,61,9,10,9,10,0.6,0.6
2026-01-30T1500,4229A,102.2342,27.8859,凉山彝族自治州,凯乐南路30号,,40,40,44,19,16,94,,65,65,12,10,9,10,0.7,0.6
2026-01-30T1500,2212A,123.1978,41.2036,辽阳市,宏伟区,,23,23,61,10,35,73,,54,54,6,25,5,12,0.3,0.8
2026-01-30T1500,2213A,123.1684,41.2497,辽阳市,新华园,,24,21,80,11,44,76,,51,51,10,38,3,9,0.5,1.2
2026-01-30T1500,2214A,123.2355,41.2663,辽阳市,滨河路,,23,12,61,12,37,73,,49,49,8,37,5,8,0.5,0.9
2026-01-30T1500,4083A,123.153,41.2874,辽阳市,铁西路150号,,31,31,78,10,53,61,,5,,11,41,8,13,0.3,1.6
2026-01-30T1500,2227A,125.1359,42.8845,辽源市,环保局,,32,32,74,10,55,77,,53,53,8,41,4,5,0.5,1.1
2026-01-30T1500,4085A,125.0998,42.9134,辽源市,安宁大街333号,,34,34,77,14,63,78,,51,51,8,31,8,6,0.4,1
2026-01-30T1500,1625A,115.9789,36.4372,聊城市,区政府,细颗粒物(PM2.5),93,102,85,69,52,49,,46,37,31,27,15,15,0.8,0.8
2026-01-30T1500,3200A,115.9772,36.4986,聊城市,监控中心,细颗粒物(PM2.5),85,94,72,63,53,66,,46,46,25,27,8,8,0.8,0.7
2026-01-30T1500,3513A,116.0443,36.436,聊城市,九州社区,,,107,87,70,54,58,,56,46,21,15,9,8,,0.7
2026-01-30T1500,4018A,116.0564,36.4609,聊城市,星美广场,细颗粒物(PM2.5),102,109,88,76,50,78,,50,50,18,18,8,7,0.8,0.8
2026-01-30T1500,4113A,116.0091,36.4495,聊城市,利民路,细颗粒物(PM2.5),92,93,80,68,51,48,,44,36,31,26,13,12,0.9,0.8
2026-01-30T1500,2632A,94.3683,29.6373,林芝市,林芝监测站,,30,7,12,3,8,95,,82,80,2,2,5,5,0.4,0.4
2026-01-30T1500,2633A,94.3616,29.6634,林芝市,林芝人民医院,,,6,18,3,9,98,,86,,,3,,7,0.3,0.3
2026-01-30T1500,2603A,100.0779,23.8981,临沧市,市环保局,,30,29,38,12,25,96,,52,52,4,17,7,8,0.4,0.5
2026-01-30T1500,2604A,100.0894,23.882,临沧市,市气象局,,,32,48,,27,93,,47,47,4,13,10,10,0.2,0.4
2026-01-30T1500,1733A,111.5552,36.0791,临汾市,临钢医院,细颗粒物(PM2.5),144,128,170,110,123,71,,41,41,22,24,5,5,1.5,1.4
2026-01-30T1500,1734A,111.4984,36.0734,临汾市,技工学校,细颗粒物(PM2.5),188,,152,141,145,73,,44,44,25,28,4,4,2.0,1.6
2026-01-30T1500,1736A,111.5017,36.0857,临汾市,市委,细颗粒物(PM2.5),168,150,183,127,128,72,,47,47,19,22,6,6,1.6,1.3
2026-01-30T1500,3018A,111.5048,36.1015,临汾市,唐尧大酒店,细颗粒物(PM2.5),145,129,157,111,118,76,,47,47,19,23,2,2,1.8,1.6
2026-01-30T1500,4244A,111.4879,36.053,临汾市,启星学校,细颗粒物(PM2.5),139,110,140,106,109,75,,41,41,22,28,5,5,1.5,1.2
2026-01-30T1500,4271A,103.2464,35.6123,临夏回族自治州,滨河东路1号,颗粒物(PM10),101,151,141,66,62,67,,50,50,12,13,6,6,0.6,0.6
2026-01-30T1500,4310A,103.207136,35.599807,临夏回族自治州,新华街21号,颗粒物(PM10),99,148,152,66,59,59,,47,45,13,14,7,6,0.7,0.6
2026-01-30T1500,1618A,118.3429,35.0532,临沂市,沂河小区,,36,36,92,9,57,74,,48,48,11,26,10,12,0.5,0.9
2026-01-30T1500,1619A,118.2962,35.0568,临沂市,鲁南制药厂,,29,27,87,20,67,69,,47,47,14,30,12,13,0.2,1
2026-01-30T1500,1620A,118.2793,34.9976,临沂市,新光毛纺厂,,33,31,77,23,59,75,,51,51,13,27,9,11,0.3,0.7
2026-01-30T1500,1621A,118.3955,35.0889,临沂市,河东保险公司,,25,22,90,10,59,80,,49,49,15,33,13,11,0.6,1
2026-01-30T1500,3370A,118.3563,35.0215,临沂市,十里堡居委,,25,24,83,8,65,78,,50,50,12,30,9,12,0.3,0.7
2026-01-30T1500,3496A,118.359,35.1067,临沂市,南坊新区,,34,34,89,10,60,77,,49,49,18,33,10,12,0.5,0.9
2026-01-30T1500,3860A,118.3915,35.0297,临沂市,皇山花园小区,,27,27,87,9,70,81,,52,52,12,31,11,14,0.3,0.9
2026-01-30T1500,1870A,109.4854,24.3898,柳州市,柳东小学,,25,25,65,3,39,28,,64,29,10,17,8,11,1.0,0.9
2026-01-30T1500,1871A,109.4109,24.3304,柳州市,环保监测站,,11,8,74,3,45,24,,58,27,18,33,4,6,1.1,1.1
2026-01-30T1500,1872A,109.3886,24.3408,柳州市,河西水厂,,21,6,80,3,56,21,,54,25,15,32,7,8,2.1,1.4
2026-01-30T1500,1873A,109.4263,24.2951,柳州市,市四中,,11,7,88,3,63,25,,54,22,14,37,5,9,1.1,1.3
2026-01-30T1500,1874A,109.396,24.3658,柳州市,市九中,,13,7,74,3,42,20,,51,23,19,34,9,11,1.3,1
2026-01-30T1500,1875A,109.4912,24.3164,柳州市,古亭山,,8,6,58,3,42,25,,64,21,11,26,6,8,0.7,0.6
2026-01-30T1500,3402A,109.5422,24.3994,柳州市,市二中,,10,6,78,3,55,25,,25,25,14,41,8,13,1.0,1
2026-01-30T1500,2307A,116.5078,31.7369,六安市,监测大楼,,19,9,35,3,20,60,,63,62,20,24,2,2,0.4,0.4
2026-01-30T1500,2308A,116.4738,31.7642,六安市,皖西学院,,21,,42,3,26,66,,69,68,18,24,4,4,0.4,0.4
2026-01-30T1500,2309A,116.4997,31.7904,六安市,朝阳厂,,20,8,33,3,20,63,,68,66,18,22,5,5,0.4,0.4
2026-01-30T1500,2310A,116.5566,31.7885,六安市,开发区,,,,,,,,,32,,,,,,,
2026-01-30T1500,2577A,104.8293,26.592,六盘水市,黄土坡,细颗粒物(PM2.5),68,76,39,49,27,39,,56,50,30,19,12,9,1.6,0.9
2026-01-30T1500,2579A,104.8481,26.5898,六盘水市,民中,颗粒物(PM10),55,59,41,38,26,42,,54,42,24,18,7,5,1.4,0.8
2026-01-30T1500,2580A,104.9541,26.5506,六盘水市,双水,细颗粒物(PM2.5),58,58,36,41,23,38,,59,51,21,13,18,6,1.2,0.9
2026-01-30T1500,4151A,104.8899,26.5685,六盘水市,钟山大道中段564号,颗粒物(PM10),60,70,48,40,27,41,,52,49,16,13,11,7,1.3,1
2026-01-30T1500,2336A,117.022,25.1031,龙岩市,龙岩市监测站,,21,18,29,7,24,65,,63,61,16,21,7,9,0.7,0.7
2026-01-30T1500,2337A,117.0257,25.0662,龙岩市,闽西职业技术学院,,22,22,29,7,21,63,,58,58,12,18,4,7,0.7,0.7
2026-01-30T1500,2338A,117.0195,25.0306,龙岩市,龙岩学院,,20,15,30,14,23,59,,54,54,11,15,5,6,/,/
2026-01-30T1500,2885A,104.9344,33.3827,陇南市,滨江中学,颗粒物(PM10),82,114,84,58,42,77,,64,64,10,20,4,5,0.8,1.1
2026-01-30T1500,3247A,104.9551,33.3709,陇南市,市总工会,,,,76,,39,75,,63,63,10,19,2,7,0.9,1
2026-01-30T1500,2488A,111.9984,27.7346,娄底市,市监测站,,26,18,30,18,20,32,,35,32,17,18,6,7,0.8,0.8
2026-01-30T1500,2491A,111.9888,27.7035,娄底市,市政府,,19,19,15,13,17,24,,27,24,30,23,3,4,0.6,0.9
2026-01-30T1500,4127A,111.9812,27.7591,娄底市,涟钢职大,,24,24,32,10,17,28,,32,28,18,16,3,3,0.7,0.7
2026-01-30T1500,4128A,112.0303,27.7457,娄底市,娄底体校,,25,,30,17,17,26,,32,28,15,15,2,1,0.7,0.8
2026-01-30T1500,1894A,105.4427,28.9063,泸州市,小市上码头,,32,30,56,22,44,34,,27,23,8,11,5,5,1.0,1
2026-01-30T1500,1895A,105.4241,28.8573,泸州市,兰田宪桥,,34,34,61,20,39,36,,27,24,13,15,6,7,0.8,0.8
2026-01-30T1500,1896A,105.4378,28.8833,泸州市,市环监站,,,,65,,45,23,,28,20,18,19,9,10,,1
2026-01-30T1500,4272A,105.3689,28.7783,泸州市,纳溪中医医院,,43,41,58,30,52,28,,20,16,11,13,7,8,0.9,0.9
2026-01-30T1500,2183A,111.1447,37.5212,吕梁市,环保局,细颗粒物(PM2.5),80,80,189,59,139,67,,39,39,20,45,4,9,0.7,1.2
2026-01-30T1500,2185A,111.1285,37.5338,吕梁市,自来水公司,细颗粒物(PM2.5),80,85,196,59,135,62,,37,37,18,40,3,9,0.9,1.4
2026-01-30T1500,2867A,111.1225,37.5093,吕梁市,马茂庄小学,细颗粒物(PM2.5),77,88,217,56,136,64,,37,37,25,45,3,10,0.6,1.2
2026-01-30T1500,1812A,112.3934,34.6517,洛阳市,市委党校,细颗粒物(PM2.5),135,103,142,103,134,53,,44,43,25,29,7,7,1.0,1.2
2026-01-30T1500,1815A,112.494,34.6883,洛阳市,河南林校,细颗粒物(PM2.5),124,101,141,94,126,54,,40,40,22,29,7,7,0.9,1.1
2026-01-30T1500,1816A,112.3843,34.623,洛阳市,开发区管委会,细颗粒物(PM2.5),139,119,171,106,137,45,,46,44,26,26,8,8,1.0,1.1
2026-01-30T1500,1817A,112.4263,34.6249,洛阳市,市委新办公区,细颗粒物(PM2.5),152,,170,116,145,48,,39,39,28,32,8,7,0.8,0.9
2026-01-30T1500,3340A,112.6005,34.6323,洛阳市,伊滨,细颗粒物(PM2.5),123,111,160,93,122,51,,38,38,21,27,7,7,0.8,1
2026-01-30T1500,3341A,112.495,34.6338,洛阳市,中移产业园,细颗粒物(PM2.5),133,101,141,101,117,44,,33,33,26,31,7,7,1.0,1.1
2026-01-30T1500,3593A,112.5736,34.8993,洛阳市,吉利监测站,细颗粒物(PM2.5),152,,156,116,143,49,,39,39,22,26,7,7,1.0,1.1
2026-01-30T1500,3635A,112.3678,34.6623,洛阳市,河科大西苑校区,细颗粒物(PM2.5),124,111,152,94,116,51,,48,43,29,31,7,7,1.0,1.1
2026-01-30T1500,3636A,112.4387,34.678,洛阳市,英才小学,细颗粒物(PM2.5),130,107,151,99,128,65,,47,47,23,32,7,7,0.9,1.1
2026-01-30T1500,4214A,112.460027,34.694929,洛阳市,春都路1号院,细颗粒物(PM2.5),130,118,169,99,113,51,,38,36,15,26,,6,0.8,1
2026-01-30T1500,2399A,114.051,33.5721,漯河市,三五一五工厂,细颗粒物(PM2.5),127,113,141,96,106,22,,19,19,23,26,4,4,0.8,0.8
2026-01-30T1500,2400A,114.0055,33.5698,漯河市,漯河大学,细颗粒物(PM2.5),133,,114,101,100,23,,19,19,22,26,4,4,0.8,0.8
2026-01-30T1500,2401A,114.0134,33.5826,漯河市,市水利局,细颗粒物(PM2.5),132,,145,100,122,19,,,,24,29,4,4,1.5,1.3
2026-01-30T1500,2402A,114.0261,33.5697,漯河市,市广电局,细颗粒物(PM2.5),133,103,120,101,107,22,,18,18,18,22,5,5,0.6,0.6
2026-01-30T1500,3478A,113.9691,33.568,漯河市,市图书馆,细颗粒物(PM2.5),119,112,144,90,109,26,,20,20,19,23,5,5,1.1,1.1
2026-01-30T1500,4250A,114.089259,33.588274,漯河市,韶山路11号,细颗粒物(PM2.5),130,116,145,99,113,19,,16,16,25,29,5,6,0.7,0.8
2026-01-30T1500,1798A,118.5084,31.6838,马鞍山市,湖东路四小,,32,22,37,22,24,66,,72,71,17,21,2,2,0.5,0.5
2026-01-30T1500,1799A,118.5019,31.6449,马鞍山市,开发区,,29,26,39,20,22,69,,75,73,17,22,3,3,0.4,0.5
2026-01-30T1500,3633A,118.4914,31.681,马鞍山市,雨山,,30,24,40,21,22,68,,74,73,16,20,2,2,0.8,0.8
2026-01-30T1500,4191A,118.527362,31.722269,马鞍山市,慈湖高新区,,33,27,39,23,23,70,,76,75,17,20,3,3,0.5,0.6
2026-01-30T1500,1686A,111.0285,21.469,茂名市,电白南海,,,51,44,29,21,114,,79,79,,6,10,11,,0.8
2026-01-30T1500,1687A,110.9294,21.6533,茂名市,茂石化七小,,48,48,39,12,17,113,,84,84,14,13,6,6,0.5,0.5
2026-01-30T1500,1688A,110.9108,21.6688,茂名市,健康路,,39,24,32,9,16,124,,93,93,10,13,8,9,0.6,0.7
2026-01-30T1500,1689A,110.8592,21.6826,茂名市,高岭,,41,41,60,12,23,121,,75,75,9,16,25,16,/,/
2026-01-30T1500,3450A,111.0101,21.5165,茂名市,电白水东,,36,36,35,17,20,110,,82,82,25,15,9,8,/,/
2026-01-30T1500,2540A,103.8414,30.0871,眉山市,气象局,,48,48,122,30,61,73,,35,35,22,30,13,14,0.7,0.7
2026-01-30T1500,3148A,103.829,30.0563,眉山市,区人社局,,45,45,109,30,60,64,,31,31,21,30,7,9,0.7,0.9
2026-01-30T1500,4148A,103.8836,30.0695,眉山市,眉职院,,,58,132,33,60,73,,36,36,,28,1,2,,0.9
2026-01-30T1500,1690A,116.1248,24.3307,梅州市,梅江月梅,,20,13,34,12,28,61,,57,57,10,18,/,/,/,/
2026-01-30T1500,1691A,116.0798,24.2719,梅州市,梅县新城,,32,25,39,22,29,54,,53,53,20,25,7,8,0.5,0.6
2026-01-30T1500,3315A,116.1234,24.2994,梅州市,梅龙,,22,17,38,15,29,53,,54,53,12,18,8,9,0.6,0.7
2026-01-30T1500,1878A,104.7775,31.4741,绵阳市,富乐山,颗粒物(PM10),55,60,32,36,22,66,,52,52,11,12,8,8,0.6,0.6
2026-01-30T1500,1880A,104.6698,31.4668,绵阳市,高新区自来水公司,颗粒物(PM10),59,68,38,41,21,62,,44,44,13,20,8,8,0.7,0.8
2026-01-30T1500,3491A,104.6899,31.5324,绵阳市,西科大附属小学,细颗粒物(PM2.5),69,75,41,50,24,62,,38,38,15,25,8,8,0.6,0.7
2026-01-30T1500,3492A,104.5647,31.5343,绵阳市,安州区旅游局,细颗粒物(PM2.5),55,45,37,39,22,44,,35,35,17,18,8,9,1.1,1
2026-01-30T1500,4146A,104.7092,31.4972,绵阳市,科技城新区公安局,颗粒物(PM10),57,64,39,38,19,68,,48,48,18,25,4,5,0.8,0.8
2026-01-30T1500,4226A,104.765114,31.453094,绵阳市,绵阳市气象局,,,,27,,19,63,,44,44,11,17,8,7,0.8,0.7
2026-01-30T1500,1784A,129.61,44.561,牡丹江市,环保大楼,,33,33,36,10,20,72,,61,61,7,14,2,3,0.2,0.3
2026-01-30T1500,1787A,129.6364,44.6075,牡丹江市,机车工厂,,,41,42,10,21,69,,61,61,,16,7,7,0.3,0.4
2026-01-30T1500,1788A,129.6386,44.5462,牡丹江市,第一中学,,23,19,28,8,17,72,,64,64,7,13,3,4,0.2,0.3
2026-01-30T1500,4287A,129.5992,44.5964,牡丹江市,东晓云街98号,,28,28,39,7,20,72,,58,58,8,16,3,4,0.2,0.3
2026-01-30T1500,2531A,105.0703,29.61,内江市,市监测站,,19,9,43,8,32,59,,36,36,15,18,4,6,0.8,0.9
2026-01-30T1500,2533A,105.0657,29.5807,内江市,内江二中,,21,21,50,8,29,54,,31,31,13,20,7,6,0.6,0.6
2026-01-30T1500,2534A,105.0407,29.5828,内江市,内江日报社,,19,19,40,8,30,59,,34,34,15,22,4,5,0.8,0.8
2026-01-30T1500,4147A,105.0433,29.6105,内江市,玉峰路西段888号,,19,19,42,8,31,53,,28,28,18,23,3,3,0.7,0.8
2026-01-30T1500,2628A,92.0653,31.4846,那曲市,那曲监测站,,26,18,20,12,26,82,,72,72,4,11,4,6,0.6,0.8
2026-01-30T1500,4243A,92.0515,31.4787,那曲市,那曲市委宣传部,,,6,15,,7,87,,78,78,,4,5,3,0.3,0.4
2026-01-30T1500,1291A,115.8887,28.7006,南昌市,省林业公司,,12,,41,3,35,26,,31,29,23,31,3,3,0.7,0.4
2026-01-30T1500,1292A,115.813,28.7443,南昌市,林科所,,12,,40,3,27,20,,32,27,24,23,3,4,0.7,0.7
2026-01-30T1500,1294A,115.8518,28.687,南昌市,建工学校,,16,7,53,3,32,16,,27,23,31,36,6,7,1.1,0.9
2026-01-30T1500,1295A,115.8926,28.6425,南昌市,象湖,,10,9,52,3,40,19,,26,24,20,25,7,8,1.0,0.8
2026-01-30T1500,3046A,115.9084,28.6062,南昌市,机电学校,,12,12,57,3,40,22,,29,28,24,30,4,4,0.7,0.6
2026-01-30T1500,3690A,115.9718,28.7032,南昌市,外国语学校,,14,14,57,3,42,21,,26,25,26,30,11,12,0.8,0.8
2026-01-30T1500,4106A,115.7923,28.6873,南昌市,工业二路,,12,12,54,3,31,30,,39,36,18,21,3,4,0.8,0.7
2026-01-30T1500,4192A,115.931587,28.686774,南昌市,南京东路235号,,15,15,54,6,41,22,,29,27,23,25,5,6,0.6,0.6
2026-01-30T1500,1906A,106.0791,30.8022,南充市,南充市委,,18,17,23,12,15,43,,28,28,20,20,4,4,0.7,0.7
2026-01-30T1500,1907A,106.1038,30.8215,南充市,南充炼油厂,,26,26,30,10,14,49,,34,34,14,12,5,5,0.7,0.7
2026-01-30T1500,4227A,106.108336,30.788436,南充市,梨树横街98号,,19,19,22,12,16,47,,37,37,21,15,10,5,0.6,0.7
2026-01-30T1500,4304A,106.1172,30.843,南充市,清泉寺北路188号,,20,,17,10,13,62,,43,43,9,10,6,6,0.5,0.5
2026-01-30T1500,4305A,106.067,30.7616,南充市,同庆路1号,,24,24,24,10,15,46,,29,29,21,25,7,6,0.7,0.8
2026-01-30T1500,1151A,118.8033,32.1085,南京市,迈皋桥,,28,22,35,19,24,67,,71,64,23,24,6,6,0.3,0.4
2026-01-30T1500,1152A,118.7487,32.057,南京市,草场门,,45,34,35,31,22,64,,45,45,22,26,4,2,0.6,0.7
2026-01-30T1500,1154A,118.770105,32.004342,南京市,中华门,,36,36,34,21,19,70,,78,71,13,14,3,4,0.4,0.5
2026-01-30T1500,1155A,118.8059,32.0329,南京市,瑞金路,,45,31,34,31,20,78,,86,79,8,11,4,4,0.9,0.8
2026-01-30T1500,1156A,118.7946,32.0774,南京市,玄武湖,,32,30,38,22,22,58,,67,57,36,35,4,4,0.4,0.5
2026-01-30T1500,1157A,118.6415,32.0964,南京市,浦口,,39,39,46,21,22,69,,71,67,18,25,4,4,0.3,0.4
2026-01-30T1500,1158A,118.730129,32.000956,南京市,奥体中心,,32,32,39,21,19,76,,81,74,11,15,4,4,0.4,0.4
2026-01-30T1500,1159A,118.9072,32.1047,南京市,仙林大学城,,34,34,40,16,21,71,,77,70,14,19,5,5,0.4,0.5
2026-01-30T1500,3422A,118.8443,31.919,南京市,江宁彩虹桥,,,24,41,,22,71,,84,77,19,23,3,4,0.7,0.7
2026-01-30T1500,3427A,118.8497,32.3599,南京市,六合雄州,,,23,41,22,25,71,,79,72,10,13,,9,,0.5
2026-01-30T1500,4086A,118.7641,32.0841,南京市,新模范马路66号,,34,34,41,20,23,88,,96,87,2,5,4,4,0.7,0.7
2026-01-30T1500,4249A,118.8707617,31.34017673,南京市,汶溪路181号,,20,17,38,11,12,64,,70,68,25,23,4,5,1.0,0.7
2026-01-30T1500,4312A,119.019,31.6512,南京市,中山西路1号,,20,19,32,12,14,62,,67,63,17,22,3,2,0.7,0.7
2026-01-30T1500,1401A,108.3098,22.788,南宁市,二十一中,,41,41,41,21,24,79,,62,60,11,15,4,4,0.5,0.6
2026-01-30T1500,1402A,108.3135,22.8529,南宁市,北湖,,40,40,45,26,29,91,,64,61,11,17,2,2,0.7,0.8
2026-01-30T1500,1403A,108.3205,22.8222,南宁市,市监测站,,42,42,42,22,25,87,,65,62,11,15,5,6,0.6,0.7
2026-01-30T1500,1404A,108.3828,22.8038,南宁市,大自然花园,,43,43,48,23,22,99,,73,73,5,10,5,6,0.6,0.6
2026-01-30T1500,1406A,108.2397,22.8462,南宁市,区农职院,,,,45,,23,90,,65,65,13,19,4,7,,0.6
2026-01-30T1500,1407A,108.3285,22.7356,南宁市,英华嘉园,颗粒物(PM10),51,51,48,22,25,81,,59,59,12,21,2,3,0.5,0.5
2026-01-30T1500,3401A,108.4829,22.762,南宁市,红星社区,,31,31,44,19,22,98,,76,76,8,14,4,5,0.7,0.7
2026-01-30T1500,4132A,108.2927,23.1477,南宁市,起凤路9号,,44,44,42,29,27,96,,78,77,14,14,3,3,0.4,0.4
2026-01-30T1500,4221A,108.2177,22.7774,南宁市,乐贤路16号,,41,41,43,25,23,86,,60,60,11,20,2,2,0.7,0.7
2026-01-30T1500,2332A,118.1682,26.6371,南平市,南平市监测站,,,9,23,3,13,81,,68,68,,6,3,4,0.6,0.5
2026-01-30T1500,2334A,118.1757,26.6276,南平市,南平七中,,26,20,25,6,15,82,,67,67,6,7,2,2,0.3,0.4
2026-01-30T1500,1168A,120.9056,31.9669,南通市,狼山街道,,22,14,42,3,22,68,,84,74,11,12,2,3,0.3,0.4
2026-01-30T1500,1170A,120.8635,32.0231,南通市,城中,,21,19,46,10,23,66,,79,70,12,16,4,4,0.6,0.7
2026-01-30T1500,1171A,120.9376,31.9301,南通市,星湖花园,,23,16,42,3,22,72,,84,76,14,16,3,4,0.4,0.5
2026-01-30T1500,1172A,120.8053,32.046,南通市,紫琅学院,,,,48,,19,66,,80,70,13,16,8,3,,0.5
2026-01-30T1500,3291A,121.0631,32.0644,南通市,通州监测站,,25,14,39,9,21,80,,89,84,12,16,3,3,0.3,0.4
2026-01-30T1500,3432A,120.9348,31.9874,南通市,环境教育馆,,22,19,42,3,23,70,,83,75,9,12,3,4,0.4,0.5
2026-01-30T1500,4091A,120.8692,31.9885,南通市,洪江路,,21,15,36,3,23,66,,80,71,12,15,4,4,0.4,0.4
2026-01-30T1500,2404A,112.5338,33.0086,南阳市,瓦房庄,颗粒物(PM10),55,60,96,37,78,75,,60,60,10,17,3,3,0.7,0.9
2026-01-30T1500,2405A,112.5002,32.9734,南阳市,汉画馆,细颗粒物(PM2.5),89,,100,66,101,77,,61,61,12,21,6,6,0.7,0.9
2026-01-30T1500,2406A,112.5778,33.0144,南阳市,气象站,"颗粒物(PM10),细颗粒物(PM2.5)",57,64,111,40,88,74,,59,59,10,19,4,4,0.7,1
2026-01-30T1500,2407A,112.548,32.9687,南阳市,理工学院,,,58,94,34,79,72,,58,58,,22,4,4,0.6,0.8
2026-01-30T1500,4008A,112.5233,32.9921,南阳市,卧龙区政府,细颗粒物(PM2.5),62,60,115,44,87,72,,58,58,13,21,4,5,0.7,0.9
2026-01-30T1500,1234A,121.8352,29.9111,宁波市,区环保大楼,,20,,53,14,21,58,,64,47,30,33,5,6,0.3,0.5
2026-01-30T1500,1235A,121.5595,29.8208,宁波市,万里学院,,38,38,76,15,24,41,,56,20,46,47,2,3,0.8,0.7
2026-01-30T1500,1236A,121.713,29.9564,宁波市,龙赛医院,,20,13,52,3,19,62,,74,55,29,30,2,4,0.5,0.5
2026-01-30T1500,1240A,121.5855,29.8635,宁波市,太古小学,,17,16,49,7,21,54,,75,33,31,27,2,2,0.5,0.4
2026-01-30T1500,1241A,121.5239,29.8673,宁波市,市环境监测中心,,33,33,48,8,22,53,,64,20,27,33,6,6,0.5,0.5
2026-01-30T1500,2871A,121.6156,29.9015,宁波市,万里国际学校,,29,29,46,3,24,61,,64,24,26,36,2,3,0.3,0.3
2026-01-30T1500,3710A,121.5593,29.8976,宁波市,白沙活动中心,,35,35,42,14,23,50,,63,28,32,31,4,4,0.3,0.3
2026-01-30T1500,4095A,121.8962,29.7529,宁波市,中科路88号,,24,8,41,3,19,76,,82,74,18,21,5,5,0.4,0.3
2026-01-30T1500,2341A,119.5387,26.6611,宁德市,宁德市监测站,,49,49,34,28,18,22,,31,22,37,25,3,4,0.7,0.6
2026-01-30T1500,3209A,119.5231,26.6562,宁德市,宁德一中,细颗粒物(PM2.5),53,47,33,37,20,21,,37,27,38,18,3,3,0.6,0.5
2026-01-30T1500,2618A,98.859,25.8541,怒江傈僳族自治州,州监测站,,34,34,42,18,28,90,,53,53,6,14,6,6,0.3,0.4
2026-01-30T1500,2619A,98.8607,25.8168,怒江傈僳族自治州,泸水一中,,45,45,37,13,27,82,,44,44,9,21,4,4,0.4,0.6
2026-01-30T1500,1888A,101.6891,26.571,攀枝花市,弄弄坪,,28,25,74,12,23,87,,45,45,11,38,11,69,0.9,2.6
2026-01-30T1500,1889A,101.577,26.5914,攀枝花市,河门口,,30,30,47,16,20,86,,47,47,6,23,9,18,0.5,0.7
2026-01-30T1500,1891A,101.7365,26.4986,攀枝花市,仁和,,29,26,37,16,25,91,,58,58,8,19,8,8,0.5,0.6
2026-01-30T1500,2835A,101.7222,26.567,攀枝花市,四十中小,,36,36,45,12,15,88,,45,45,13,28,10,14,0.6,0.8
2026-01-30T1500,1604A,122.0303,41.1489,盘锦市,开发区,颗粒物(PM10),57,64,50,29,38,75,,65,65,20,28,6,6,1.0,1.2
2026-01-30T1500,1605A,122.0486,41.0883,盘锦市,兴隆台,,45,45,57,24,40,70,,50,50,21,38,8,8,0.4,0.8
2026-01-30T1500,1606A,121.8297,41.1026,盘锦市,新生街道,,26,26,55,15,40,76,,58,58,17,39,10,7,0.3,0.7
2026-01-30T1500,1832A,113.3257,33.7423,平顶山市,新华旅馆,细颗粒物(PM2.5),114,109,128,86,97,62,,44,44,18,25,5,5,0.7,0.9
2026-01-30T1500,1833A,113.2917,33.737,平顶山市,规划设计院,细颗粒物(PM2.5),99,95,130,74,94,66,,44,44,11,20,5,5,0.7,0.8
2026-01-30T1500,1834A,113.182,33.7738,平顶山市,平顶山工学院,细颗粒物(PM2.5),128,106,122,97,98,47,,35,35,17,22,6,6,0.8,0.8
2026-01-30T1500,3594A,112.8736,33.9068,平顶山市,石龙区,细颗粒物(PM2.5),148,113,125,113,110,57,,49,49,14,18,7,5,1.1,1.1
2026-01-30T1500,4116A,113.284,33.7139,平顶山市,姚电大道23号,细颗粒物(PM2.5),108,103,136,81,103,68,,44,44,16,25,6,6,0.7,0.8
2026-01-30T1500,2656A,106.6633,35.5338,平凉市,聚贤嘉苑,颗粒物(PM10),95,140,141,35,51,87,,65,65,6,22,8,9,0.6,0.9
2026-01-30T1500,2657A,106.7021,35.5307,平凉市,博物馆,颗粒物(PM10),98,146,144,48,68,83,,63,63,8,25,9,12,0.4,0.7
2026-01-30T1500,2348A,113.8384,27.6436,萍乡市,中医院,,30,30,75,13,46,19,,12,12,23,29,4,6,1.0,1.1
2026-01-30T1500,2350A,113.8677,27.6438,萍乡市,市环保局,,20,,57,14,44,22,,13,13,21,24,8,11,0.9,1
2026-01-30T1500,2351A,113.8663,27.6202,萍乡市,安源区政府,颗粒物(PM10),55,59,90,3,44,20,,12,12,12,20,3,6,0.6,1
2026-01-30T1500,4107A,113.8686,27.6668,萍乡市,联洪村委会,,27,27,64,18,44,17,,15,15,27,26,3,5,1.1,0.9
2026-01-30T1500,2319A,119.0142,25.4324,莆田市,荔城区仓后路,,40,40,32,20,10,50,,66,50,24,13,/,/,/,/
2026-01-30T1500,2320A,119.0016,25.4553,莆田市,莆田市监测站,,19,16,24,10,6,59,,72,59,10,8,3,3,0.4,0.4
2026-01-30T1500,2321A,119.112,25.4561,莆田市,涵江区六中,,37,37,29,20,9,54,,67,49,20,12,/,/,0.6,0.5
2026-01-30T1500,2322A,119.1014,25.3215,莆田市,秀屿区政府,,29,27,30,20,13,70,,65,58,13,12,2,2,0.4,0.5
2026-01-30T1500,2392A,115.0312,35.7636,濮阳市,环保局,细颗粒物(PM2.5),117,92,83,88,61,36,,30,30,24,25,6,5,1.5,1.1
2026-01-30T1500,3021A,115,35.7667,濮阳市,濮水河管理处,细颗粒物(PM2.5),129,112,95,98,67,42,,29,29,23,26,6,5,1.0,0.9
2026-01-30T1500,4118A,115.0552,35.7816,濮阳市,中原东路68号,细颗粒物(PM2.5),115,119,103,87,60,42,,29,29,26,31,5,4,1.2,1
2026-01-30T1500,4216A,115.0923632,35.76857718,濮阳市,任丘路479号,细颗粒物(PM2.5),124,118,99,94,65,38,,26,26,29,33,5,5,1.0,0.8
2026-01-30T1500,2601A,100.9801,22.7634,普洱市,市环保局,,40,40,71,13,25,97,,62,62,5,11,5,4,0.4,0.5
2026-01-30T1500,2602A,100.9763,22.8237,普洱市,普洱第二中学,,38,38,56,16,30,97,,59,59,4,22,5,5,0.1,0.3
2026-01-30T1500,3345A,131.0413,45.7795,七台河市,中波台,,22,17,37,8,20,70,,62,62,2,9,6,8,0.4,0.4
2026-01-30T1500,3637A,131.0136,45.7688,七台河市,人民广场,,,18,39,11,18,70,,64,64,,18,6,6,,0.5
2026-01-30T1500,3684A,130.8639,45.8144,七台河市,新建矿广场,,39,39,41,14,20,65,,58,58,8,11,4,6,0.4,0.4
2026-01-30T1500,1779A,123.9307,47.3641,齐齐哈尔市,安居小区,,23,11,24,3,7,72,,64,64,6,11,6,6,0.3,0.3
2026-01-30T1500,1780A,123.9497,47.3389,齐齐哈尔市,中心广场,,22,9,17,3,7,68,,62,62,9,11,4,4,0.4,0.5
2026-01-30T1500,1781A,123.9483,47.3229,齐齐哈尔市,农牧车辆厂,,21,14,22,6,6,65,,60,60,7,8,4,5,0.2,0.3
2026-01-30T1500,1783A,123.9442,47.2994,齐齐哈尔市,市环境监测站,,22,19,27,3,8,69,,65,65,8,10,3,4,0.4,0.5
2026-01-30T1500,3662A,123.6341,47.2079,齐齐哈尔市,富区青少年活动中心,,23,23,33,7,11,73,,67,67,6,11,3,5,0.3,0.4
2026-01-30T1500,2591A,107.9765,26.5724,黔东南苗族侗族自治州,市环境监测站,,19,,22,13,19,44,,33,33,8,10,4,5,0.8,0.9
2026-01-30T1500,2881A,107.8909,26.531,黔东南苗族侗族自治州,凯里学院,,20,,17,14,17,40,,31,31,16,14,3,3,0.8,0.9
2026-01-30T1500,2593A,107.5223,26.2371,黔南布依族苗族自治州,小围寨,,12,,18,8,18,18,,25,24,8,7,4,5,1.1,0.9
2026-01-30T1500,3538A,107.5175,26.2977,黔南布依族苗族自治州,沙坝,,19,19,26,13,20,25,,32,30,10,9,5,5,1.0,0.9
2026-01-30T1500,2589A,104.9022,25.0943,黔西南布依族苗族自治州,场坝街,,50,,35,35,35,38,,38,33,18,13,3,4,0.9,0.8
2026-01-30T1500,2590A,104.8812,25.0994,黔西南布依族苗族自治州,坪东大道,,,53,45,37,37,36,,35,34,,17,,5,1.1,0.9
2026-01-30T1500,2502A,108.6238,21.9667,钦州市,市环保站,颗粒物(PM10),52,53,50,18,22,112,,80,80,10,14,6,3,0.5,0.5
2026-01-30T1500,2503A,108.655,21.9481,钦州市,沙埠小学,颗粒物(PM10),53,55,48,15,18,122,,87,87,12,13,7,4,0.4,0.4
2026-01-30T1500,2504A,108.5989,21.7435,钦州市,港区一小,颗粒物(PM10),57,64,52,21,19,105,,82,82,14,18,1,3,0.5,0.6
2026-01-30T1500,3404A,108.5959,21.9634,钦州市,北职校,,45,45,44,14,20,110,,80,80,10,15,5,3,0.6,0.6
2026-01-30T1500,1046A,119.5247,39.9346,秦皇岛市,建设大厦,颗粒物(PM10),56,62,88,38,57,57,,28,28,18,42,9,10,0.5,0.9
2026-01-30T1500,3132A,119.5979,39.938,秦皇岛市,文明里,细颗粒物(PM2.5),62,58,78,44,50,60,,32,32,22,48,13,14,0.4,0.6
2026-01-30T1500,4066A,119.7458,39.9952,秦皇岛市,南园路157号,细颗粒物(PM2.5),60,53,66,43,46,63,,43,43,20,53,10,13,0.5,0.7
2026-01-30T1500,4067A,119.5131,39.8858,秦皇岛市,翠岛大街1号,颗粒物(PM10),54,57,69,33,45,63,,34,34,23,52,10,12,0.5,0.6
2026-01-30T1500,4198A,119.509013,39.825305,秦皇岛市,北戴河轮滑馆,细颗粒物(PM2.5),52,52,72,36,46,66,,35,35,18,48,8,8,0.4,0.7
2026-01-30T1500,1310A,120.404,36.0625,青岛市,市南区东部子站,,29,29,38,10,20,82,,67,65,7,15,9,8,0.4,0.5
2026-01-30T1500,1311A,120.362344,36.10282,青岛市,四方区子站,颗粒物(PM10),53,56,52,18,27,72,,66,57,19,17,7,5,0.8,0.8
2026-01-30T1500,1312A,120.294373,36.054183,青岛市,市南区西部子站,,24,22,34,10,22,76,,61,58,16,18,5,5,0.4,0.5
2026-01-30T1500,1313A,120.4581,36.0858,青岛市,崂山区子站,,27,24,30,8,16,84,,73,70,10,15,9,9,0.4,0.4
2026-01-30T1500,1315A,120.3945,36.3083,青岛市,城阳区子站,,41,41,39,18,24,79,,71,71,19,20,8,7,0.6,0.6
2026-01-30T1500,3642A,120.3454,36.0735,青岛市,市北区南部,,36,36,42,10,21,72,,62,54,13,18,3,3,0.4,0.5
2026-01-30T1500,3643A,120.3897,36.18,青岛市,李沧区北部,,39,39,42,19,29,72,,65,65,22,13,10,8,0.6,0.5
2026-01-30T1500,4110A,120.5222,36.4089,青岛市,盟旺路653号,,36,36,41,11,19,83,,71,71,7,17,2,2,0.4,0.7
2026-01-30T1500,4290A,120.196923,35.954556,青岛市,珠江路669号,,25,17,36,10,24,79,,55,55,13,25,6,6,0.3,0.4
2026-01-30T1500,4291A,120.0424,35.8656,青岛市,黄岛区人民政府广场,,28,24,43,8,22,87,,66,66,13,19,8,8,0.7,0.7
2026-01-30T1500,1703A,113.0218,23.7086,清远市,凤城街办,,48,44,72,32,51,151,,99,99,20,40,/,/,/,/
2026-01-30T1500,3025A,113.0479,23.6343,清远市,技师学院,,48,32,83,18,48,151,,88,88,20,53,5,7,0.5,0.7
2026-01-30T1500,3318A,112.9898,23.7403,清远市,清新太和,臭氧1小时(O3_1h),75,50,64,33,40,180,,102,102,22,35,8,9,0.5,0.7
2026-01-30T1500,3455A,113.076,23.72,清远市,清城东城,臭氧1小时(O3_1h),58,43,69,26,42,166,,110,110,20,38,/,/,/,/
2026-01-30T1500,2661A,107.6325,35.7357,庆阳市,庆阳五中,颗粒物(PM10),74,97,109,42,76,83,,65,65,11,18,5,4,0.4,0.8
2026-01-30T1500,2662A,107.6361,35.7067,庆阳市,市环保局,颗粒物(PM10),77,104,106,43,68,84,,65,65,11,16,4,4,0.5,0.7
2026-01-30T1500,1916A,103.7897,25.5036,曲靖市,环境监测站,,36,14,33,10,16,114,,84,84,7,11,4,4,0.3,0.4
2026-01-30T1500,1917A,103.8013,25.5357,曲靖市,烟厂办公区,,34,26,34,7,14,106,,77,77,6,10,4,4,0.2,0.3
2026-01-30T1500,3376A,103.7926,25.4651,曲靖市,南苑二区,,31,22,30,11,14,98,,76,76,3,6,3,4,0.2,0.3
2026-01-30T1500,3377A,103.7442,25.5259,曲靖市,曲靖师范学院,,34,9,42,8,23,107,,70,70,5,16,4,5,0.2,0.3
2026-01-30T1500,1264A,118.8694,28.94,衢州市,环保大楼,,50,50,48,26,28,44,,41,41,22,27,/,/,/,/
2026-01-30T1500,1266A,118.8622,28.9809,衢州市,衢州学院,,43,43,42,23,24,40,,48,48,20,22,4,4,0.4,0.4
2026-01-30T1500,4097A,118.9646,28.9832,衢州市,衢州三中,,50,50,47,31,27,34,,35,35,25,25,5,5,0.4,0.6
2026-01-30T1500,1611A,118.5818,24.9116,泉州市,涂山街,,28,,35,19,16,57,,59,47,11,13,3,3,0.5,0.5
2026-01-30T1500,1612A,118.597,24.8976,泉州市,津头埔,,29,,37,20,16,53,,56,44,13,14,2,3,0.4,0.4
2026-01-30T1500,1613A,118.6669,24.9422,泉州市,万安,,26,21,38,18,13,46,,56,44,19,16,2,3,0.6,0.6
2026-01-30T1500,4105A,118.6355,24.9148,泉州市,霞新路6号,,26,22,34,18,15,58,,47,42,10,18,/,/,0.5,0.5
2026-01-30T1500,2626A,88.8873,29.2723,日喀则市,日喀则监测站,,,,16,11,4,94,,86,83,1,3,,7,0.2,0.3
2026-01-30T1500,3726A,88.8775,29.2425,日喀则市,林业技术推广中心,,27,6,22,3,5,84,,83,83,4,5,4,5,0.3,0.3
2026-01-30T1500,1659A,119.4711,35.421,日照市,监测站,,27,27,65,11,42,85,,60,60,8,26,8,8,0.6,0.7
2026-01-30T1500,1660A,119.523,35.4216,日照市,市政府广场,,31,31,57,11,35,89,,70,70,10,21,8,7,0.3,0.4
2026-01-30T1500,1661A,119.5511,35.4113,日照市,港务局,,31,31,60,10,34,87,,70,70,11,22,7,6,0.5,0.6
2026-01-30T1500,3507A,119.5326,35.4627,日照市,职业技术学院,,29,29,57,9,36,88,,67,67,11,25,7,7,0.6,0.8
2026-01-30T1500,3604A,119.3267,35.1043,日照市,岚山环保分局,,34,34,72,9,36,84,,77,77,13,19,9,8,0.6,0.7
2026-01-30T1500,1835A,111.1922,34.7752,三门峡市,市政府,,,65,103,,130,73,,66,66,18,21,7,7,0.9,1.1
2026-01-30T1500,1836A,111.1588,34.794,三门峡市,开发区,细颗粒物(PM2.5),108,95,153,81,125,71,,63,63,19,25,5,5,0.8,1
2026-01-30T1500,3039A,111.1911,34.7829,三门峡市,三门峡市第一小学,细颗粒物(PM2.5),98,,115,73,119,71,,64,64,17,22,6,5,0.8,1
2026-01-30T1500,3598A,111.1031,34.719,三门峡市,富达温泉假日酒店,细颗粒物(PM2.5),128,,124,97,119,65,,63,63,26,29,4,4,0.9,1
2026-01-30T1500,2324A,117.621,26.2626,三明市,三钢,,27,,29,16,21,85,,56,56,8,12,7,7,0.8,0.6
2026-01-30T1500,2325A,117.6352,26.2714,三明市,三明二中,,30,30,24,13,17,83,,53,53,9,13,3,4,0.7,0.7
2026-01-30T1500,2326A,117.6028,26.2377,三明市,三元区政府,,25,21,26,17,19,76,,56,56,19,15,15,7,1.5,0.8
2026-01-30T1500,1877A,109.4962,18.2682,三亚市,河西子站,,30,29,33,9,14,93,,81,81,7,7,3,3,0.3,0.4
2026-01-30T1500,3540A,109.7348,18.3443,三亚市,君悦子站,颗粒物(PM10),62,74,47,12,16,91,,,,4,9,4,4,0.3,0.5
2026-01-30T1500,4135A,109.1714,18.3739,三亚市,城东小学站,,26,26,22,7,13,69,,53,53,8,9,/,/,/,/
2026-01-30T1500,2624A,91.7592,29.234,山南市,山南监测站,,31,15,18,3,5,99,,72,72,1,5,4,5,0.4,0.5
2026-01-30T1500,2625A,91.7701,29.2436,山南市,山南人民医院,,28,15,22,3,9,89,,76,68,1,5,7,8,0.5,0.5
2026-01-30T1500,1674A,116.6795,23.3666,汕头市,金平子站,,39,39,41,20,17,85,,69,69,20,15,5,5,0.7,0.7
2026-01-30T1500,1675A,116.7248,23.3632,汕头市,龙湖子站,,36,36,39,20,16,86,,69,69,12,13,10,10,/,/
2026-01-30T1500,1676A,116.7257,23.2774,汕头市,濠江子站,,37,37,38,24,15,88,,75,75,20,14,8,7,/,/
2026-01-30T1500,1677A,116.7518,23.4712,汕头市,澄海子站,,34,34,47,21,19,82,,63,63,14,15,7,9,0.6,0.6
2026-01-30T1500,1678A,116.6088,23.2539,汕头市,潮阳子站,,34,34,36,22,17,89,,72,72,12,11,6,6,0.5,0.5
2026-01-30T1500,3444A,116.4539,23.2684,汕头市,潮南峡山,颗粒物(PM10),55,59,47,34,22,113,,72,72,22,15,10,8,0.6,0.6
2026-01-30T1500,3624A,116.4069,23.2533,汕头市,潮南子站,颗粒物(PM10),61,72,57,31,21,97,,61,61,27,18,10,8,/,/
2026-01-30T1500,1693A,115.3653,22.7751,汕尾市,市环保局,,44,44,40,19,18,89,,76,76,12,13,7,7,0.6,0.7
2026-01-30T1500,1695A,115.362,22.7926,汕尾市,新城中学,,37,37,38,16,18,78,,74,74,12,13,5,6,0.5,0.6
2026-01-30T1500,2645A,109.9155,33.8714,商洛市,监测站,,50,35,38,35,32,60,,52,52,14,20,4,11,0.8,0.9
2026-01-30T1500,3045A,109.9647,33.8486,商洛市,商州区中学,,,,28,,33,,,78,44,,23,,6,,1.1
2026-01-30T1500,2408A,115.6701,34.4283,商丘市,环境监测站,细颗粒物(PM2.5),172,197,115,130,85,26,,25,17,,23,3,2,0.8,0.8
2026-01-30T1500,2409A,115.6458,34.4047,商丘市,粮食局,细颗粒物(PM2.5),159,124,104,121,92,26,,25,17,29,24,2,2,0.8,0.7
2026-01-30T1500,3171A,115.6069,34.4465,商丘市,梁园区档案局,细颗粒物(PM2.5),139,116,94,106,86,24,,20,15,28,23,3,2,0.8,0.7
2026-01-30T1500,4119A,115.6701,34.3767,商丘市,北海东路185号,细颗粒物(PM2.5),128,137,120,97,85,30,,30,22,26,22,2,2,0.8,0.7
2026-01-30T1500,4120A,115.6172,34.3704,商丘市,中山大街3号,细颗粒物(PM2.5),147,141,123,112,90,31,,32,22,28,24,5,5,0.7,0.7
2026-01-30T1500,1141A,121.401,31.2382,上海市,普陀,,22,11,45,10,22,70,,84,69,18,21,5,5,0.4,0.4
2026-01-30T1500,1142A,121.4774,31.2043,上海市,十五厂,,23,11,46,9,20,72,,86,73,24,28,6,6,0.5,0.6
2026-01-30T1500,1143A,121.4673,31.3011,上海市,虹口,,21,13,48,10,21,67,,75,66,14,19,7,6,0.0,0.1
2026-01-30T1500,1147A,121.4253,31.226,上海市,静安监测站,,25,10,42,8,22,77,,88,75,17,20,6,6,0.6,0.7
2026-01-30T1500,1148A,121.7029,31.1905,上海市,浦东川沙,,26,13,46,9,25,81,,81,76,8,16,6,7,0.5,0.6
2026-01-30T1500,1149A,121.5339,31.229,上海市,浦东新区监测站,,21,12,44,7,24,67,,81,72,9,9,5,5,0.4,0.5
2026-01-30T1500,1150A,121.5776,31.2038,上海市,浦东张江,,25,13,48,9,25,78,,88,77,14,17,6,6,0.3,0.3
2026-01-30T1500,3265A,121.4242,31.3303,上海市,宝山庙行,,21,11,48,8,21,65,,70,62,14,19,7,8,0.3,0.4
2026-01-30T1500,3266A,121.8789,31.4662,上海市,崇明上实东滩,,27,14,44,9,24,84,,92,86,3,5,4,4,0,0
2026-01-30T1500,3268A,121.316,31.2839,上海市,嘉定南翔,,23,10,43,3,17,73,,81,67,13,19,2,3,0.4,0.4
2026-01-30T1500,3269A,121.3357,30.7455,上海市,金山新城,,28,22,42,19,26,74,,87,72,19,19,7,8,0.6,0.6
2026-01-30T1500,3270A,121.4996,31.0741,上海市,闵行浦江,,24,10,45,8,23,76,,80,73,10,16,5,6,0.4,0.5
2026-01-30T1500,3271A,121.2886,31.1663,上海市,青浦徐泾,,23,10,43,9,24,71,,91,72,24,23,4,4,0.3,0.4
2026-01-30T1500,3272A,121.2193,31.0382,上海市,松江图书馆,,22,10,44,8,23,69,,80,70,22,23,5,6,0.4,0.4
2026-01-30T1500,3273A,121.3904,31.206,上海市,长宁仙霞,,23,,43,10,18,72,,86,70,10,13,6,6,0,0
2026-01-30T1500,3274A,121.7964,31.0507,上海市,浦东惠南,,25,,46,17,21,78,,82,79,13,19,3,4,0.5,0.6
2026-01-30T1500,3544A,121.4891,30.925,上海市,奉贤南桥新城,,24,16,46,14,27,76,,78,74,14,16,3,3,0.6,0.5
2026-01-30T1500,4183A,121.417401,31.16637,上海市,冠生园路458号,,23,9,43,8,25,71,,84,70,21,21,5,4,0.3,0.3
2026-01-30T1500,4205A,121.541914,31.268301,上海市,宁武路151号,,21,15,52,6,22,66,,77,63,24,29,5,5,0.3,0.4
2026-01-30T1500,2382A,117.9758,28.4439,上饶市,市监测站,细颗粒物(PM2.5),55,50,61,39,42,49,,50,50,23,25,8,9,/,/
2026-01-30T1500,2383A,117.9521,28.4637,上饶市,凤凰光学,颗粒物(PM10),51,52,60,33,29,36,,39,39,27,33,14,12,1.0,0.8
2026-01-30T1500,3685A,117.897,28.4316,上饶市,双创科技城,细颗粒物(PM2.5),62,57,57,44,30,47,,48,48,28,35,6,7,1.0,0.9
2026-01-30T1500,4211A,118.190438,28.444845,上饶市,裕丰大道,颗粒物(PM10),51,52,59,22,26,51,,51,51,30,32,11,12,0.6,0.7
2026-01-30T1500,1669A,113.5821,24.7733,韶关市,市八中,,50,50,76,32,47,156,,90,90,19,46,12,13,0.6,1
2026-01-30T1500,1671A,113.5916,24.7973,韶关市,园林处,,,,56,,49,162,,90,90,16,42,11,13,/,/
2026-01-30T1500,1673A,113.5971,24.6864,韶关市,曲江监测站,,,39,66,28,43,138,,82,82,,44,10,14,,0.9
2026-01-30T1500,2809A,113.6668,24.7756,韶关市,大学路288号,,50,50,51,29,36,154,,88,88,16,31,8,9,/,/
2026-01-30T1500,3622A,113.5556,24.8082,韶关市,碧湖山庄,臭氧1小时(O3_1h),54,53,77,34,53,163,,96,96,17,30,10,9,0.8,1
2026-01-30T1500,2464A,111.5277,27.2442,邵阳市,市化工厂,,19,,43,13,33,30,,30,30,12,14,4,62,0.8,0.9
2026-01-30T1500,2466A,111.4327,27.2276,邵阳市,市环保局,,16,16,34,10,28,36,,35,35,18,17,6,7,1.0,1.1
2026-01-30T1500,4218A,111.446,27.2472,邵阳市,北塔二期4-26地块,,15,14,28,10,31,34,,32,32,11,12,5,5,1.0,1.1
2026-01-30T1500,4219A,111.4739,27.2282,邵阳市,邵水西路287号,,16,,37,11,30,37,,36,36,11,14,8,7,1.3,1.2
2026-01-30T1500,1247A,120.6053,29.9927,绍兴市,城东开发委,,20,10,42,3,19,64,,62,45,24,28,7,8,0.5,0.5
2026-01-30T1500,2921A,120.5482,30.0003,绍兴市,树下王站,,21,13,38,3,20,67,,64,51,18,23,6,6,0.3,0.3
2026-01-30T1500,3408A,120.5685,29.936,绍兴市,绍兴中专,,18,10,37,3,16,57,,64,50,21,18,6,6,0.6,0.5
2026-01-30T1500,3409A,120.4905,30.086,绍兴市,柯桥区政府,,24,11,41,7,22,74,,59,56,27,40,4,5,0.7,0.6
2026-01-30T1500,3410A,120.8751,30.0249,绍兴市,重华小学,,21,9,41,7,22,65,,72,49,28,29,6,6,0.3,0.3
2026-01-30T1500,3411A,120.837,30.0137,绍兴市,上虞中学,,20,12,41,7,20,64,,,,26,25,7,8,0.6,0.5
2026-01-30T1500,3560A,120.4715,30.0414,绍兴市,柯桥妇保,,24,10,41,3,20,76,,62,54,17,29,5,6,0.5,0.4
2026-01-30T1500,3658A,120.6156,30.0762,绍兴市,袍江中学,,24,10,48,7,25,76,,57,54,15,33,6,6,0.5,0.4
2026-01-30T1500,1356A,114.0948,22.5506,深圳市,通心岭子站,,25,25,37,17,23,67,,72,53,17,16,6,6,0.6,0.7
2026-01-30T1500,1357A,114.1153,22.5713,深圳市,洪湖,,29,29,40,16,22,60,,64,50,25,24,4,5,0.9,1
2026-01-30T1500,1358A,113.9823,22.5398,深圳市,华侨城,,31,31,36,18,21,60,,69,51,27,23,/,/,/,/
2026-01-30T1500,1359A,113.9181,22.517,深圳市,南海子站,,37,37,42,23,25,65,,72,43,24,26,6,6,0.9,0.9
2026-01-30T1500,1360A,114.2345,22.565,深圳市,盐田,,36,36,37,17,19,57,,54,54,33,34,7,8,0.6,0.7
2026-01-30T1500,1363A,114.4911,22.5381,深圳市,南澳,,38,38,33,17,16,88,,91,81,10,10,/,/,/,/
2026-01-30T1500,1364A,114.41,22.6346,深圳市,葵涌,,25,25,38,14,23,59,,70,48,18,17,7,8,0.7,0.7
2026-01-30T1500,1365A,114.2967,22.5978,深圳市,梅沙,,22,22,33,10,18,69,,73,65,20,16,/,/,/,/
2026-01-30T1500,1366A,114.0563,22.7353,深圳市,观澜,,41,41,48,25,25,65,,72,52,29,29,8,8,0.9,0.8
2026-01-30T1500,3305A,114.0614,22.556,深圳市,莲花,,33,33,38,23,24,56,,64,51,33,23,/,/,/,/
2026-01-30T1500,3306A,114.0144,22.6163,深圳市,民治,,30,30,42,21,26,59,,63,49,30,27,/,/,/,/
2026-01-30T1500,3307A,114.1756,22.6421,深圳市,横岗,,40,40,46,27,30,61,,72,54,25,24,/,/,/,/
2026-01-30T1500,3447A,114.344,22.7115,深圳市,坪山,,33,33,41,22,25,58,,66,46,27,24,8,8,0.9,0.9
2026-01-30T1500,3623A,113.8952,22.586,深圳市,西乡,,40,40,41,25,23,63,,70,46,28,30,5,6,0.8,0.7
2026-01-30T1500,4220A,114.214113,22.713717,深圳市,黄阁路,,,25,37,16,22,,,69,49,21,21,6,6,1.0,1
2026-01-30T1500,1099A,123.5058,41.7084,沈阳市,浑南东路,细颗粒物(PM2.5),100,86,96,75,82,41,,29,29,68,68,20,12,0.9,1.2
2026-01-30T1500,1100A,123.4238,41.6992,沈阳市,新秀街,,,96,81,58,52,46,,28,28,51,61,16,10,,1.4
2026-01-30T1500,1102A,123.5903,41.8412,沈阳市,东陵路,,,,89,,76,34,,27,27,63,54,20,9,,1.3
2026-01-30T1500,1103A,123.4267,41.8466,沈阳市,陵东街,颗粒物(PM10),56,61,87,15,60,66,,37,37,11,40,12,11,0.6,1.3
2026-01-30T1500,1104A,123.4116,41.7654,沈阳市,文化路,,47,47,91,28,58,49,,22,22,38,51,20,16,0.7,1.2
