timepoint,stationcode,longitude,latitude,area,positionname,primarypollutant,aqi,pm10,pm10_24h,pm2_5,pm2_5_24h,o3,o3_24h,o3_8h,o3_8h_24h,no2,no2_24h,so2,so2_24h,co,co_24h
2026-01-30T1000,2568A,102.2503,31.8896,阿坝藏族羌族自治州,马师校,,36,36,23,22,14,46,,39,39,10,12,4,4,0.6,0.5
2026-01-30T1000,3994A,102.2174,31.9016,阿坝藏族羌族自治州,马尔康中学西区,,23,23,20,14,12,52,,43,43,10,10,6,7,0.7,0.7
2026-01-30T1000,2695A,80.2899,41.1684,阿克苏地区,电视台,颗粒物(PM10),146,241,246,57,60,39,,44,44,17,18,11,10,0.9,0.8
2026-01-30T1000,2696A,80.2592,41.1541,阿克苏地区,艺术中心,颗粒物(PM10),141,231,234,96,89,39,,44,44,29,25,5,5,0.7,0.7
2026-01-30T1000,2205A,105.699,38.8409,阿拉善盟,蒙二幼,颗粒物(PM10),87,124,133,31,40,56,,56,54,19,18,12,13,0.7,0.7
2026-01-30T1000,2206A,105.7198,38.8508,阿拉善盟,环保局新楼,颗粒物(PM10),75,100,111,36,36,53,,50,50,18,18,11,11,0.6,0.6
2026-01-30T1000,2708A,88.1266,47.8515,阿勒泰地区,市站,,29,29,42,19,27,21,,45,43,55,42,3,4,0.5,0.5
2026-01-30T1000,4166A,88.1198,47.7931,阿勒泰地区,阿勒泰路33号,,27,25,38,8,23,29,,54,52,54,30,6,6,0.5,0.6
2026-01-30T1000,2630A,80.1171,32.4999,阿里地区,阿里监测站,,22,,3,10,4,68,,64,64,4,5,6,8,0.3,0.4
2026-01-30T1000,3192A,80.0906,32.5029,阿里地区,阿里藏医院,,20,13,13,7,6,61,,56,56,6,6,14,12,0.7,0.7
2026-01-30T1000,2644A,109.0088,32.6974,安康市,汉滨区检察院,,49,,20,34,18,25,,58,45,24,10,6,6,1.2,1.1
2026-01-30T1000,4054A,109.0324,32.6913,安康市,市邮政管理局,,44,44,28,30,18,33,,57,48,28,17,5,4,1.0,0.9
2026-01-30T1000,2291A,117.0806,30.5181,安庆市,环科院,,18,12,56,3,34,55,,48,48,9,15,5,6,0.5,0.5
2026-01-30T1000,2292A,117.0331,30.5118,安庆市,马山宾馆,,16,,56,7,40,50,,44,44,18,21,4,5,0.6,0.6
2026-01-30T1000,2294A,116.9897,30.6146,安庆市,安庆大学,,20,,51,3,31,61,,52,52,12,22,3,3,0.5,0.6
2026-01-30T1000,3173A,117.0598,30.5351,安庆市,市人大,,17,10,57,6,38,53,,48,48,13,18,4,5,0.6,0.6
2026-01-30T1000,3123A,105.9408,26.2431,安顺市,凤凰山,,25,20,31,17,26,58,,64,64,12,10,11,10,0.8,0.6
2026-01-30T1000,3124A,105.9443,26.2567,安顺市,金钟山,,22,19,29,15,22,56,,62,62,12,10,11,11,0.8,0.6
2026-01-30T1000,3125A,105.8983,26.248,安顺市,娄家坡,,23,17,26,16,27,65,,63,63,12,10,16,14,0.8,0.7
2026-01-30T1000,1819A,114.3552,36.1017,安阳市,红庙街,细颗粒物(PM2.5),92,,97,68,77,46,,26,26,19,32,2,2,0.7,0.8
2026-01-30T1000,1820A,114.361,36.0681,安阳市,银杏小区,细颗粒物(PM2.5),107,,99,80,85,47,,28,28,21,29,3,3,0.7,0.8
2026-01-30T1000,3141A,114.3921,36.0879,安阳市,信访局,细颗粒物(PM2.5),99,,100,74,80,46,,30,30,19,24,5,4,0.7,0.7
2026-01-30T1000,3669A,114.4706,36.0634,安阳市,左辅环卫站,细颗粒物(PM2.5),114,102,106,86,79,30,,24,24,25,30,4,3,0.6,0.6
2026-01-30T1000,4117A,114.2918,36.0769,安阳市,钢三路198号,细颗粒物(PM2.5),122,116,133,92,95,37,,27,27,20,29,4,4,0.7,0.8
2026-01-30T1000,1748A,123.0441,41.1201,鞍山市,深沟寺,,37,37,43,23,23,49,,39,38,31,27,12,8,0.9,0.8
2026-01-30T1000,1749A,123.011,41.0931,鞍山市,太阳城,,46,46,47,30,27,38,,26,25,40,28,32,14,1.4,0.9
2026-01-30T1000,1750A,123.0483,41.1445,鞍山市,太平,颗粒物(PM10),54,58,64,30,33,37,,19,19,37,31,14,10,0.7,0.7
2026-01-30T1000,1751A,122.964,41.0968,鞍山市,铁西三道街,细颗粒物(PM2.5),75,97,80,55,43,30,,15,15,57,44,33,15,1.7,1.1
2026-01-30T1000,1753A,123.0219,41.0822,鞍山市,明达新区,,48,48,45,29,27,43,,27,27,38,30,27,12,1.4,0.9
2026-01-30T1000,4201A,122.944647,41.082639,鞍山市,兴盛南路290号,,,101,98,57,48,28,,8,8,,51,33,17,2.0,1.6
2026-01-30T1000,2195A,107.4206,40.7609,巴彦淖尔市,附二中,颗粒物(PM10),75,99,88,52,44,25,,27,27,28,31,11,13,0.9,0.7
2026-01-30T1000,2196A,107.37,40.7372,巴彦淖尔市,市环保大楼,颗粒物(PM10),70,89,90,43,41,34,,22,22,21,33,7,10,0.8,0.8
2026-01-30T1000,1956A,86.1476,41.7529,巴音郭楞蒙古自治州,孔雀公园,颗粒物(PM10),56,62,83,31,32,41,,55,51,18,13,7,7,0.5,0.5
2026-01-30T1000,1957A,86.1971,41.7166,巴音郭楞蒙古自治州,棉纺厂,颗粒物(PM10),70,89,107,39,37,22,,28,22,43,25,/,/,/,/
2026-01-30T1000,1958A,86.236,41.7172,巴音郭楞蒙古自治州,经济开发区,,48,48,71,19,23,38,,48,43,12,6,4,4,0.5,0.5
2026-01-30T1000,3181A,106.776805,31.852614,巴中市,市五中,,23,22,34,16,19,7,,8,8,26,19,5,5,1.2,1
2026-01-30T1000,3183A,106.7419,31.8654,巴中市,圣泉水务公司,,26,26,36,16,19,10,,6,6,41,28,3,5,1.1,1
2026-01-30T1000,3616A,106.7617,31.8343,巴中市,市中心医院,,26,19,26,18,20,6,,2,2,22,23,5,5,1.2,1
2026-01-30T1000,2235A,122.7909,45.608,白城市,洮北区环保局,,49,42,45,34,32,53,,51,49,21,22,9,6,0.8,0.4
2026-01-30T1000,2236A,122.8741,45.5725,白城市,市环保局,颗粒物(PM10),58,66,48,40,25,47,,42,38,18,23,7,6,0.5,0.3
2026-01-30T1000,2231A,126.4219,41.9172,白山市,喜丰,颗粒物(PM10),60,69,57,35,30,48,,35,35,25,30,15,16,0.9,0.8
2026-01-30T1000,2232A,126.4082,41.9416,白山市,环保局,细颗粒物(PM2.5),60,49,47,43,34,40,,30,30,26,23,18,10,0.9,0.8
2026-01-30T1000,2647A,104.1727,36.5448,白银市,第三小学,颗粒物(PM10),128,205,145,68,50,37,,38,38,28,18,101,10,0.8,0.7
2026-01-30T1000,2648A,104.1467,36.5482,白银市,动力公司,颗粒物(PM10),117,183,143,56,47,,,34,32,,15,77,6,,0.8
2026-01-30T1000,2512A,106.6102,23.901,百色市,市监测站,,,64,49,,34,6,,23,17,29,18,9,12,0.9,0.7
2026-01-30T1000,2513A,106.6524,23.8842,百色市,市中心血站,"颗粒物(PM10),细颗粒物(PM2.5)",58,65,53,41,37,8,,25,18,32,18,9,13,1.2,0.9
2026-01-30T1000,4133A,106.6273,23.8798,百色市,龙景西路,细颗粒物(PM2.5),65,67,65,47,35,2,,19,12,29,21,9,13,0.7,0.6
2026-01-30T1000,2270A,117.396,32.9389,蚌埠市,工人疗养院,细颗粒物(PM2.5),62,59,56,44,32,70,,75,73,16,19,3,4,0.5,0.4
2026-01-30T1000,2271A,117.3606,32.9428,蚌埠市,百货大楼,细颗粒物(PM2.5),63,57,56,45,32,64,,73,70,15,17,5,6,0.5,0.5
2026-01-30T1000,2273A,117.4183,32.8909,蚌埠市,蚌埠学院,细颗粒物(PM2.5),63,48,44,45,33,65,,62,58,25,28,3,4,0.5,0.4
2026-01-30T1000,2274A,117.3534,32.9672,蚌埠市,淮上区政府,细颗粒物(PM2.5),69,,52,50,38,68,,77,75,15,16,3,4,0.5,0.4
2026-01-30T1000,2275A,117.3143,32.8977,蚌埠市,高新区,,,51,46,,32,68,,73,71,13,15,5,6,0.5,0.4
2026-01-30T1000,3715A,117.3091,32.9314,蚌埠市,蚌埠田家炳中学,细颗粒物(PM2.5),68,58,55,49,35,68,,75,74,15,17,3,4,0.4,0.4
2026-01-30T1000,1585A,109.8761,40.6533,包头市,市环境监测站,颗粒物(PM10),68,86,94,31,47,57,,14,14,18,66,8,16,0.5,1.3
2026-01-30T1000,1587A,109.9992,40.5843,包头市,包头八中,颗粒物(PM10),73,96,117,33,56,39,,12,12,29,62,9,13,0.8,1.1
2026-01-30T1000,1589A,109.8641,40.6288,包头市,惠龙物流,颗粒物(PM10),62,73,96,25,52,55,,15,15,23,69,11,19,0.7,1.5
2026-01-30T1000,1590A,110.0376,40.5546,包头市,东河鸿龙湾,颗粒物(PM10),66,81,95,31,51,40,,15,15,32,72,13,15,0.8,1.2
2026-01-30T1000,3283A,109.9154,40.5684,包头市,滨河大厦,颗粒物(PM10),74,97,96,49,58,27,,7,7,44,67,12,14,1.1,1.2
2026-01-30T1000,3419A,109.9449,40.6259,包头市,包头市委党校,颗粒物(PM10),60,70,83,10,43,57,,14,14,18,68,12,17,0.7,1.3
2026-01-30T1000,3683A,109.8332,40.6577,包头市,昆区政府,颗粒物(PM10),65,80,91,24,49,55,,16,16,21,73,10,19,0.7,1.6
2026-01-30T1000,1931A,107.0802,34.3129,宝鸡市,竹园沟,细颗粒物(PM2.5),80,,94,59,69,19,,26,24,27,23,6,6,1.0,1
2026-01-30T1000,1933A,107.1429,34.3549,宝鸡市,监测站,细颗粒物(PM2.5),103,,93,77,84,19,,27,25,27,25,4,4,0.8,0.8
2026-01-30T1000,1934A,107.1172,34.3759,宝鸡市,技工学校,细颗粒物(PM2.5),82,71,87,60,74,21,,29,26,25,24,2,3,1.0,1.1
2026-01-30T1000,1936A,107.2025,34.3518,宝鸡市,文理学院,细颗粒物(PM2.5),94,,93,70,78,22,,30,27,25,24,3,3,0.9,0.9
2026-01-30T1000,1937A,107.2396,34.3626,宝鸡市,三迪小学,细颗粒物(PM2.5),103,,97,77,89,26,,31,30,25,27,2,3,1.0,1
2026-01-30T1000,4155A,107.1721,34.3558,宝鸡市,滨河北路,细颗粒物(PM2.5),87,69,111,64,74,18,,28,25,20,16,4,4,1.1,1
2026-01-30T1000,4308A,107.3898,34.3601,宝鸡市,陈仓区北开路21号,,,,106,,85,,,27,27,23,30,,5,1.1,0.9
2026-01-30T1000,1051A,115.4803,38.8568,保定市,游泳馆,细颗粒物(PM2.5),114,92,97,86,79,34,,22,20,35,39,4,4,0.6,0.6
2026-01-30T1000,1052A,115.509,38.8895,保定市,华电二区,细颗粒物(PM2.5),92,75,87,68,72,38,,17,14,23,30,6,3,0.9,0.9
2026-01-30T1000,1053A,115.4588,38.9037,保定市,接待中心,细颗粒物(PM2.5),110,116,100,83,74,31,,28,26,23,25,2,2,0.5,0.4
2026-01-30T1000,1054A,115.4484,38.8344,保定市,地表水厂,细颗粒物(PM2.5),100,112,113,75,72,24,,12,12,39,43,5,5,0.6,0.6
2026-01-30T1000,3581A,115.3136,38.9511,保定市,满城区生态环境分局,,,124,119,,82,10,,5,4,34,39,,4,0.8,0.7
2026-01-30T1000,3582A,115.4709,38.7628,保定市,清苑区第二中学,细颗粒物(PM2.5),107,117,120,80,77,10,,8,8,48,46,5,6,0.8,0.7
2026-01-30T1000,3583A,115.6231,39.0223,保定市,徐水物探局,细颗粒物(PM2.5),112,132,125,84,79,,,17,17,32,40,3,4,0.8,0.8
2026-01-30T1000,4004A,115.4199,38.8665,保定市,双鹰农机,细颗粒物(PM2.5),114,135,122,86,76,29,,21,20,35,33,7,6,0.8,0.7
2026-01-30T1000,4034A,115.515,38.8589,保定市,植保所站,细颗粒物(PM2.5),99,102,103,74,76,25,,12,8,44,43,2,2,0.8,0.7
2026-01-30T1000,2594A,99.1589,25.1137,保山市,市环境监测站,,42,42,30,27,16,30,,54,48,26,9,4,4,0.7,0.3
2026-01-30T1000,2595A,99.1616,25.1381,保山市,市环保局,,,39,36,,19,30,,59,51,21,7,4,4,0.8,0.5
2026-01-30T1000,1867A,109.1435,21.4085,北海市,海滩公园,,42,42,41,21,17,81,,83,83,12,9,8,7,0.7,0.8
2026-01-30T1000,1868A,109.0983,21.466,北海市,新市环保局,,41,41,38,24,17,76,,85,82,17,12,8,6,0.7,0.7
2026-01-30T1000,1869A,109.1775,21.5232,北海市,北海工业园,颗粒物(PM10),59,68,42,24,21,58,,75,67,26,11,8,6,0.7,0.6
2026-01-30T1000,3400A,109.1844,21.4396,北海市,龙潭自来水厂,,39,39,41,22,18,77,,77,76,8,7,2,3,0.7,0.7
2026-01-30T1000,1001A,116.3611,39.8786,北京市,万寿西宫,细颗粒物(PM2.5),104,110,106,78,73,19,,10,8,46,45,2,3,0.9,0.8
2026-01-30T1000,1003A,116.4174,39.9289,北京市,东四,细颗粒物(PM2.5),99,110,104,74,66,16,,10,8,42,38,5,6,0.7,0.7
2026-01-30T1000,1004A,116.4073,39.8858,北京市,天坛,细颗粒物(PM2.5),99,99,96,74,67,18,,6,5,48,42,2,3,0.8,0.8
2026-01-30T1000,1005A,116.4622,39.9364,北京市,农展馆,细颗粒物(PM2.5),100,103,102,75,72,18,,15,9,38,34,4,5,0.8,0.9
2026-01-30T1000,1006A,116.3399,39.9293,北京市,官园,细颗粒物(PM2.5),103,108,106,77,73,18,,13,10,42,43,3,4,0.7,0.8
2026-01-30T1000,1007A,116.2879,39.9613,北京市,海淀万柳,细颗粒物(PM2.5),90,104,101,67,70,4,,5,2,64,50,4,4,1.0,0.8
2026-01-30T1000,1008A,116.6635,40.1349,北京市,顺义新城,细颗粒物(PM2.5),127,154,106,96,63,11,,4,4,54,49,6,6,1.4,0.9
2026-01-30T1000,1009A,116.6275,40.327,北京市,怀柔镇,细颗粒物(PM2.5),83,86,78,61,51,25,,21,19,33,30,5,5,0.8,0.8
2026-01-30T1000,1010A,116.2295,40.217,北京市,昌平镇,细颗粒物(PM2.5),100,105,98,75,64,10,,11,9,50,40,3,3,0.9,0.8
2026-01-30T1000,1011A,116.3968,39.982,北京市,奥体中心,细颗粒物(PM2.5),104,118,100,78,65,3,,11,4,84,59,5,5,1.4,1
2026-01-30T1000,3418A,116.8336,40.4095,北京市,密云新城,细颗粒物(PM2.5),62,67,86,44,51,18,,27,27,31,28,3,3,0.8,0.7
2026-01-30T1000,3671A,116.0879,39.9725,北京市,门头沟三家店,细颗粒物(PM2.5),90,100,100,67,62,10,,3,3,49,43,3,4,0.9,0.9
2026-01-30T1000,3672A,116.1507,39.8246,北京市,丰台云岗,细颗粒物(PM2.5),104,118,117,78,74,10,,4,4,50,50,4,4,0.9,0.9
2026-01-30T1000,3674A,115.9578,39.7602,北京市,房山燕山,细颗粒物(PM2.5),124,127,120,94,87,7,,7,5,55,32,5,5,0.9,0.8
2026-01-30T1000,3675A,116.4669,39.7734,北京市,大兴旧宫,细颗粒物(PM2.5),103,121,104,77,59,22,,6,6,45,48,3,4,0.8,0.8
2026-01-30T1000,3694A,115.9859,40.4562,北京市,延庆石河营,细颗粒物(PM2.5),110,108,91,83,63,27,,22,22,34,39,4,4,0.9,0.9
2026-01-30T1000,3695A,116.6151,40.3052,北京市,怀柔新城,细颗粒物(PM2.5),95,87,82,71,57,22,,24,22,22,22,4,5,0.8,0.7
2026-01-30T1000,3696A,116.2542,39.8764,北京市,丰台小屯,细颗粒物(PM2.5),107,114,112,80,73,8,,2,2,51,53,4,4,0.8,0.8
2026-01-30T1000,3697A,116.8399,40.3843,北京市,密云镇,细颗粒物(PM2.5),72,78,82,52,52,6,,3,3,51,39,3,3,0.8,0.7
2026-01-30T1000,4057A,115.9423,40.4431,北京市,延庆百泉,细颗粒物(PM2.5),110,113,94,83,65,25,,23,23,35,35,2,3,0.8,0.8
2026-01-30T1000,4058A,116.6598,39.9164,北京市,通州新华,细颗粒物(PM2.5),133,150,108,101,64,7,,4,2,62,50,4,5,1.2,0.8
2026-01-30T1000,4182A,116.1942,39.9158,北京市,石景山八角,细颗粒物(PM2.5),105,127,124,79,72,12,,6,6,54,49,3,4,0.9,0.8
2026-01-30T1000,4194A,117.078628,40.151726,北京市,平谷新城,细颗粒物(PM2.5),138,135,101,105,82,16,,16,14,42,27,5,5,1.3,0.9
2026-01-30T1000,1761A,123.8274146,41.31234549,本溪市,大峪,细颗粒物(PM2.5),93,100,65,69,42,28,,21,20,33,32,9,8,1.8,1.3
2026-01-30T1000,1763A,123.7169,41.3094,本溪市,彩屯,细颗粒物(PM2.5),147,160,89,112,49,20,,22,17,51,37,10,8,3.1,1.2
2026-01-30T1000,1764A,123.7672166,41.28649327,本溪市,东明,细颗粒物(PM2.5),183,141,68,138,58,22,,11,11,50,45,8,8,3.6,1.3
2026-01-30T1000,1765A,123.799345,41.266614,本溪市,新立屯,细颗粒物(PM2.5),147,,54,112,40,25,,15,15,45,49,13,10,4.2,2.3
2026-01-30T1000,1766A,123.829144,41.336777,本溪市,威宁,,,,77,,48,21,,8,8,,41,6,6,1.4,1.3
2026-01-30T1000,2587A,105.287,27.3133,毕节市,八中,,36,36,24,21,22,43,,53,49,12,13,8,10,0.9,0.9
2026-01-30T1000,2588A,105.3079,27.2987,毕节市,师专,,26,25,26,18,20,45,,59,54,16,14,8,10,0.8,0.8
2026-01-30T1000,4263A,105.3688,27.3598,毕节市,工业大道,,28,27,29,19,27,48,,57,53,14,13,9,10,/,/
2026-01-30T1000,1629A,117.9961,37.3604,滨州市,第二水厂,,44,44,39,27,24,49,,47,46,18,16,16,9,0.9,0.9
2026-01-30T1000,1630A,117.9789,37.3931,滨州市,北中新校,颗粒物(PM10),52,53,44,21,20,50,,52,50,22,18,11,6,0.5,0.4
2026-01-30T1000,3514A,117.9379,37.3959,滨州市,中海酒店,,48,48,36,20,20,47,,48,48,19,17,14,8,0.7,0.5
2026-01-30T1000,3515A,117.9381509,37.35547456,滨州市,开发区一中,颗粒物(PM10),62,73,47,20,21,51,,51,49,17,14,17,10,0.6,0.5
2026-01-30T1000,3516A,118.0914,37.6938,滨州市,金海六路,,44,44,36,18,18,61,,62,60,25,24,18,8,0.6,0.5
2026-01-30T1000,4028A,117.9955,37.3752,滨州市,滨州市西街道办事处,颗粒物(PM10),52,53,36,29,24,54,,53,52,18,16,15,10,0.6,0.5
2026-01-30T1000,2311A,115.8071,33.8399,亳州市,污水处理厂,细颗粒物(PM2.5),94,89,72,70,50,45,,62,55,18,17,4,4,0.6,0.4
2026-01-30T1000,2312A,115.7789,33.8519,亳州市,三国揽胜宫,细颗粒物(PM2.5),98,105,85,73,51,42,,57,52,20,19,3,4,0.6,0.5
2026-01-30T1000,3332A,115.7631,33.803,亳州市,亳州学院,细颗粒物(PM2.5),100,98,76,75,53,44,,63,57,18,15,2,3,0.7,0.6
2026-01-30T1000,2693A,82.0482,44.8553,博尔塔拉蒙古自治州,市党校,细颗粒物(PM2.5),133,169,191,101,92,71,,91,84,30,26,3,6,1.1,1
2026-01-30T1000,2694A,82.0805,44.8966,博尔塔拉蒙古自治州,市环保局,细颗粒物(PM2.5),196,189,159,147,104,72,,87,81,30,28,6,7,1.3,1.1
2026-01-30T1000,1071A,116.8733,38.2922,沧州市,沧县城建局,颗粒物(PM10),55,60,71,33,45,51,,34,34,29,35,7,5,0.3,0.4
2026-01-30T1000,1072A,116.8462,38.3189,沧州市,电视转播站,细颗粒物(PM2.5),60,58,66,43,52,54,,45,45,26,29,8,3,0.5,0.5
2026-01-30T1000,1073A,116.8588,38.3161,沧州市,市环保局,颗粒物(PM10),54,58,68,35,45,43,,30,30,26,30,11,7,0.6,0.6
2026-01-30T1000,3324A,116.8011,38.294,沧州市,河北水利电力学院,,,46,60,40,50,,,49,47,21,23,8,4,0.4,0.4
2026-01-30T1000,2622A,97.1813,31.1289,昌都市,昌都监测站,,28,28,42,10,12,62,,55,55,10,16,3,3,0.7,0.7
2026-01-30T1000,3719A,97.1707,31.1428,昌都市,昌都会议中心,,19,11,16,9,9,60,,53,53,3,4,4,5,0.2,0.1
2026-01-30T1000,2692A,87.2722,44.0298,昌吉回族自治州,新区政务中心,细颗粒物(PM2.5),158,130,181,120,128,45,,42,42,27,47,8,9,1.5,1.6
2026-01-30T1000,3613A,87.3069,44.0093,昌吉回族自治州,亚心广场,细颗粒物(PM2.5),178,173,170,134,129,43,,44,40,18,33,7,8,1.5,1.4
2026-01-30T1000,4164A,87.2057,43.9289,昌吉回族自治州,财政所,细颗粒物(PM2.5),90,76,123,67,97,42,,14,14,30,56,5,6,1.1,1.5
2026-01-30T1000,1120A,125.2874,43.9024,长春市,客车厂,细颗粒物(PM2.5),89,82,62,66,49,34,,17,17,47,48,10,10,0.8,0.7
2026-01-30T1000,1121A,125.2943,43.8508,长春市,邮电学院,细颗粒物(PM2.5),110,86,62,83,46,34,,19,19,44,39,13,10,1.0,0.7
2026-01-30T1000,1122A,125.3648,43.8745,长春市,劳动公园,细颗粒物(PM2.5),82,87,70,60,48,41,,21,21,35,35,11,6,1.4,1.2
2026-01-30T1000,1123A,125.3233,43.8781,长春市,园林处,细颗粒物(PM2.5),119,108,64,90,51,27,,18,18,48,36,27,15,1.0,0.6
2026-01-30T1000,1124A,125.4604,43.7904,长春市,净月潭,细颗粒物(PM2.5),93,76,59,69,46,45,,43,43,26,25,10,6,0.8,0.6
2026-01-30T1000,1126A,125.38,43.8422,长春市,经开区环卫处,细颗粒物(PM2.5),97,84,69,72,49,27,,10,10,45,44,7,9,1.1,0.8
2026-01-30T1000,1127A,125.234,43.7761,长春市,高新区管委会,细颗粒物(PM2.5),79,83,76,58,56,43,,19,19,35,44,16,7,0.8,0.8
2026-01-30T1000,1128A,125.1695,43.83,长春市,岱山公园,,,91,85,66,61,44,,9,9,,50,10,8,,0.8
2026-01-30T1000,4281A,125.334645,43.916281,长春市,北亚泰大街1068号,细颗粒物(PM2.5),118,112,70,89,54,23,,10,10,,54,13,10,1.0,0.7
2026-01-30T1000,1335A,113.082,28.2421,长沙市,经开区环保局,,15,10,54,10,35,21,,21,21,22,24,2,3,0.6,0.7
2026-01-30T1000,1336A,112.8873,28.2202,长沙市,高开区环保局,,23,19,60,16,36,29,,30,30,20,24,4,4,0.8,0.8
2026-01-30T1000,1337A,113.0785,28.2012,长沙市,马坡岭,,19,19,62,13,35,26,,26,26,20,22,3,4,0.9,0.9
2026-01-30T1000,1338A,112.9448,28.1894,长沙市,湖南师范大学,,20,20,62,12,32,32,,32,32,16,22,3,3,0.9,0.9
2026-01-30T1000,1339A,113.0177,28.1322,长沙市,雨花区环保局,,16,15,58,11,31,24,,24,24,19,24,7,7,0.8,0.8
2026-01-30T1000,1340A,112.9795,28.2593,长沙市,伍家岭,,28,23,66,19,36,25,,28,28,22,23,4,4,0.9,0.8
2026-01-30T1000,1341A,113.002,28.1944,长沙市,火车新站,,25,22,62,17,35,27,,29,29,19,24,1,1,1.0,1
2026-01-30T1000,1342A,112.9846,28.1177,长沙市,天心区环保局,,18,18,56,12,34,29,,30,30,22,25,4,5,0.7,0.7
2026-01-30T1000,1343A,112.8906,28.1307,长沙市,湖南中医药大学,,23,23,58,13,31,29,,33,33,22,24,5,5,0.9,0.9
2026-01-30T1000,1727A,113.1146,36.1547,长治市,清华站,细颗粒物(PM2.5),168,,140,127,135,52,,66,61,24,25,8,8,1.7,1.3
2026-01-30T1000,1730A,113.0887,36.2126,长治市,审计局,细颗粒物(PM2.5),198,,146,148,137,42,,61,55,34,29,7,6,1.2,1.1
2026-01-30T1000,1731A,113.0845,36.1856,长治市,长治八中,细颗粒物(PM2.5),200,155,166,150,153,42,,57,52,19,18,8,7,1.4,1.3
2026-01-30T1000,2845A,113.1561,36.1912,长治市,德盛苑,细颗粒物(PM2.5),166,,133,126,141,54,,57,54,17,20,7,6,2.1,1.4
2026-01-30T1000,3568A,113.0603,36.0464,长治市,向阳小学,细颗粒物(PM2.5),165,144,179,125,144,57,,54,53,28,33,10,8,1.6,1.7
2026-01-30T1000,3569A,112.8788,36.315,长治市,屯留一中,细颗粒物(PM2.5),211,,173,161,158,48,,55,49,29,32,5,6,1.4,2
2026-01-30T1000,4189A,113.113092,36.199482,长治市,英华南巷50号,细颗粒物(PM2.5),169,,147,128,137,48,,65,59,24,24,6,5,1.9,1.5
2026-01-30T1000,4190A,113.23666,36.33435,长治市,学府街1号,细颗粒物(PM2.5),137,108,166,104,139,52,,47,47,27,29,9,7,1.3,1.4
2026-01-30T1000,1854A,111.696,28.9725,常德市,市二中,细颗粒物(PM2.5),89,71,45,66,35,39,,41,38,22,22,4,4,1.1,1.1
2026-01-30T1000,3138A,111.7152,29.0288,常德市,武陵区永安,细颗粒物(PM2.5),98,124,51,73,36,38,,41,37,24,23,4,4,1.0,1.1
2026-01-30T1000,3139A,111.6891,28.9881,常德市,鼎城区玉霞,细颗粒物(PM2.5),94,,41,70,37,39,,43,40,28,27,6,6,0.9,0.9
2026-01-30T1000,3140A,111.6651,29.0526,常德市,武陵区长庚,细颗粒物(PM2.5),92,71,43,68,34,37,,40,36,20,19,3,4,0.8,0.8
2026-01-30T1000,1196A,119.9524,31.7586,常州市,市监测站,,39,39,50,21,23,61,,80,77,27,22,5,6,0.4,0.3
2026-01-30T1000,1200A,119.9351,31.703,常州市,武进监测站,,36,36,47,20,25,60,,75,74,27,24,11,13,0.5,0.3
2026-01-30T1000,3002A,119.9701,31.813,常州市,行政中心,,25,22,47,17,23,65,,80,79,23,21,3,5,0.7,0.5
2026-01-30T1000,3003A,120.0434,31.7726,常州市,经开区,,42,42,56,18,20,60,,79,75,28,22,9,9,0.6,0.5
2026-01-30T1000,3010A,119.8919,31.7892,常州市,钟楼,,32,32,47,16,20,68,,79,78,18,19,6,7,0.7,0.6
2026-01-30T1000,3429A,119.8595,31.706,常州市,武进经发区,,38,31,50,26,29,58,,75,74,29,25,4,6,0.9,0.8
2026-01-30T1000,3430A,119.5812,31.7256,常州市,金坛城区,,40,38,51,28,28,72,,79,79,20,22,6,6,0.5,0.4
2026-01-30T1000,4089A,119.9551,31.863,常州市,崇义南街5-H号,,26,18,45,18,23,60,,83,79,26,20,3,5,0.7,0.6
2026-01-30T1000,2220A,120.4318,41.588,朝阳市,西梁,细颗粒物(PM2.5),82,79,72,60,45,26,,8,8,36,39,12,12,1.2,1.2
2026-01-30T1000,2221A,120.452,41.565,朝阳市,河畔小区,细颗粒物(PM2.5),70,79,46,51,26,34,,15,15,25,32,14,11,1.2,0.9
2026-01-30T1000,2222A,120.4176,41.5648,朝阳市,八里堡,细颗粒物(PM2.5),80,85,59,59,39,23,,11,11,35,38,13,10,1.3,1
2026-01-30T1000,3026A,116.6179,23.6608,潮州市,市政府,颗粒物(PM10),51,52,50,25,24,58,,58,54,12,12,3,6,0.5,0.5
2026-01-30T1000,4036A,116.646,23.676,潮州市,金山,,45,45,45,26,22,39,,42,38,12,15,2,4,0.6,0.5
2026-01-30T1000,2473A,113.0116,25.8228,郴州市,市职中,细颗粒物(PM2.5),78,80,62,57,49,4,,8,6,18,22,4,9,0.7,0.8
2026-01-30T1000,2475A,113.0381,25.8074,郴州市,市审计局,细颗粒物(PM2.5),78,86,64,57,47,4,,11,6,20,24,1,8,/,/
2026-01-30T1000,2476A,113.0348,25.7757,郴州市,市环保局,细颗粒物(PM2.5),92,92,73,68,48,5,,12,9,26,28,4,12,0.8,0.9
2026-01-30T1000,4252A,113.0138,25.8011,郴州市,好美居路49号,,,,55,,42,,,,,,23,,14,/,/
2026-01-30T1000,1431A,103.9727,30.7242,成都市,金泉两河,颗粒物(PM10),59,67,101,26,44,16,,17,14,40,35,2,2,0.6,0.7
2026-01-30T1000,1432A,104.1423,30.6765,成都市,十里店,,,,109,,51,,,33,15,,39,,3,,0.8
2026-01-30T1000,1433A,104.0594,30.5765,成都市,三瓦窑,,42,30,83,29,41,8,,20,19,52,35,4,4,1.1,0.9
2026-01-30T1000,1434A,104.1122,30.6306,成都市,沙河铺,,26,26,97,10,49,13,,22,19,48,40,4,4,0.8,0.8
2026-01-30T1000,2880A,104.0219,30.6561,成都市,大石西路,,19,19,102,13,46,18,,19,17,35,29,4,4,0.6,0.6
2026-01-30T1000,3136A,104.2724,30.559,成都市,龙泉驿区区政府,,,36,74,22,38,,,25,25,31,27,6,6,0.9,0.6
2026-01-30T1000,3357A,104.0028,30.6891,成都市,金博路,,29,29,91,15,42,8,,14,10,43,37,5,4,1.0,0.8
2026-01-30T1000,3359A,104.056,30.5228,成都市,华阳,,39,39,87,24,43,13,,11,10,44,39,3,3,1.0,0.8
2026-01-30T1000,3488A,104.387954,30.746684,成都市,青石路225号,,49,,79,34,45,10,,3,3,37,35,4,3,1.0,0.9
2026-01-30T1000,3489A,104.0788,30.4054,成都市,科学城,,43,43,103,25,49,5,,4,3,29,29,6,6,1.0,0.9
2026-01-30T1000,4011A,103.8505,30.6946,成都市,光华大道三段,,,,128,,56,,,50,4,,37,,3,,0.8
2026-01-30T1000,4144A,104.3257,30.6406,成都市,八角井街185号,,36,36,96,22,47,11,,10,10,39,33,4,3,1.1,0.9
2026-01-30T1000,4224A,104.2433276,30.53529463,成都市,鲸龙路1057号,,34,34,91,20,43,22,,10,10,33,33,5,5,0.8,0.8
2026-01-30T1000,1062A,117.9531,40.908,承德市,铁路,颗粒物(PM10),57,63,57,26,29,10,,4,4,40,35,4,6,1.0,0.8
2026-01-30T1000,1063A,117.9397,40.9763,承德市,中国银行,,31,31,43,8,21,32,,16,16,19,25,4,3,0.6,0.6
2026-01-30T1000,4073A,117.9462,40.95,承德市,杏林街1号,,,,41,75,27,,,7,7,28,27,5,4,0.8,0.7
2026-01-30T1000,4274A,117.7994,40.9605,承德市,滨河大街98号,,50,50,58,3,22,20,,13,13,36,32,7,11,0.8,0.6
2026-01-30T1000,2314A,117.4698,30.6617,池州市,池州学院,,18,10,50,9,36,55,,46,46,21,32,2,4,0.9,0.9
2026-01-30T1000,3237A,117.4918,30.6617,池州市,展览馆,,18,13,55,12,38,54,,44,44,20,30,1,2,0.7,0.7
2026-01-30T1000,3333A,117.5626,30.695,池州市,第八中学,,19,18,54,13,35,51,,42,42,24,29,3,3,0.7,0.6
2026-01-30T1000,3334A,117.5037,30.6242,池州市,第十二中学,,16,12,51,10,35,50,,42,42,25,29,3,2,0.9,0.8
2026-01-30T1000,1744A,118.9229,42.2816,赤峰市,松山一中,细颗粒物(PM2.5),63,59,43,45,23,18,,11,11,46,35,18,9,1.3,1
2026-01-30T1000,1745A,118.9588,42.2733,赤峰市,哈达街,细颗粒物(PM2.5),60,61,48,43,23,19,,17,17,40,28,20,14,1.3,0.8
2026-01-30T1000,1746A,118.8792,42.2551,赤峰市,天义路,,48,48,28,26,18,16,,14,12,39,26,18,9,1.3,0.8
2026-01-30T1000,3058A,119.2656,42.0356,赤峰市,银河街,,,178,71,,34,20,,18,13,35,20,70,22,2.6,1.4
2026-01-30T1000,3286A,118.9359,42.3146,赤峰市,桥北物流园区,细颗粒物(PM2.5),53,39,34,37,22,35,,21,21,30,26,10,8,0.9,0.7
2026-01-30T1000,2521A,107.3473,22.4137,崇左市,市环保局江州分局,细颗粒物(PM2.5),62,56,58,44,40,42,,28,28,20,18,8,5,0.8,0.8
2026-01-30T1000,4256A,107.375,22.3736,崇左市,石景林东路7号,细颗粒物(PM2.5),80,91,50,59,42,34,,43,39,37,21,10,8,0.8,0.6
2026-01-30T1000,3207A,118.31131,32.3033,滁州市,市政府原办公楼,,24,24,48,16,33,69,,80,78,16,21,4,4,0.3,0.4
2026-01-30T1000,3331A,118.3268,32.2633,滁州市,图书馆,,21,15,43,10,24,65,,78,77,15,18,6,7,0.5,0.5
2026-01-30T1000,4101A,118.3196,32.3335,滁州市,银山路666号,,,,46,,37,,,86,,,16,,6,,0.4
2026-01-30T1000,4102A,118.3426,32.2979,滁州市,黄山路555号,,36,36,58,17,33,74,,82,82,8,19,3,6,0.3,0.4
2026-01-30T1000,2606A,101.5379,25.0492,楚雄彝族自治州,市经济开发区,,32,32,23,16,15,30,,45,36,21,11,3,3,0.7,0.6
2026-01-30T1000,4153A,101.5536,25.0343,楚雄彝族自治州,团结路562号,,33,33,19,16,11,29,,61,49,27,7,6,4,0.7,0.4
2026-01-30T1000,2549A,107.5087,31.2186,达州市,市环境监测站,,29,29,27,3,8,26,,34,33,28,22,14,10,0.7,0.7
2026-01-30T1000,2550A,107.4988,31.2132,达州市,凤凰小区,,12,9,20,3,12,36,,40,40,19,20,12,9,0.3,0.3
2026-01-30T1000,2551A,107.5081,31.1987,达州市,达县机关宾馆,,27,27,24,3,15,18,,23,23,40,32,10,6,1.0,1
2026-01-30T1000,2552A,107.4644,31.2124,达州市,市政中心,,23,23,27,3,6,29,,39,38,32,24,11,10,0.7,0.6
2026-01-30T1000,2614A,100.2168,25.5818,大理白族自治州,大理市环境监测站,,32,32,22,18,15,48,,58,54,12,7,6,6,0.5,0.5
2026-01-30T1000,2615A,100.1542,25.7055,大理白族自治州,大理古城,,,17,29,12,12,54,,76,69,17,5,,8,0.6,0.4
2026-01-30T1000,1109A,121.6119,38.974,大连市,甘井子,,33,33,44,18,27,68,,54,54,17,22,10,10,0.3,0.5
2026-01-30T1000,1110A,121.565,38.9509,大连市,周水子,,37,37,41,16,27,60,,47,45,20,25,6,7,0.4,0.5
2026-01-30T1000,1111A,121.5637,38.8849,大连市,星海三站,,31,31,34,14,28,58,,48,46,21,21,10,11,0.6,0.7
2026-01-30T1000,1112A,121.6301,38.9117,大连市,青泥洼桥,,30,30,41,18,25,63,,56,56,18,20,10,12,0.4,0.4
2026-01-30T1000,1113A,121.6248,38.8643,大连市,傅家庄,,28,28,34,13,24,61,,53,53,13,18,6,9,0.7,0.7
2026-01-30T1000,1114A,121.5117,38.8636,大连市,七贤岭,,40,40,37,24,25,61,,59,57,18,15,11,10,0.7,0.7
2026-01-30T1000,1116A,121.7507,39.1339,大连市,金州,,40,40,42,27,31,64,,61,56,22,21,13,14,0.5,0.5
2026-01-30T1000,1117A,121.7811,39.0495,大连市,开发区,,34,34,29,21,22,68,,65,64,16,13,7,7,0.6,0.6
2026-01-30T1000,1118A,121.9762,39.0631,大连市,双D港,颗粒物(PM10),51,51,41,30,23,63,,60,60,20,16,12,11,0.8,0.6
2026-01-30T1000,4082A,121.2548,38.8188,大连市,旅顺,,42,40,35,29,28,59,,51,49,16,16,11,9,0.5,0.6
2026-01-30T1000,1789A,124.8085,46.0381,大庆市,大同区,,41,41,37,21,20,55,,45,45,7,18,5,6,0.6,0.6
2026-01-30T1000,1790A,125.1166,46.5255,大庆市,龙凤区,,41,41,45,13,21,50,,46,45,22,22,10,9,0.5,0.5
2026-01-30T1000,1791A,124.8894,46.4007,大庆市,红岗区,,19,19,30,3,15,47,,42,42,11,16,6,5,0.5,0.6
2026-01-30T1000,1792A,125.1391,46.578,大庆市,萨尔图区,,30,30,36,7,17,47,,51,50,25,23,10,8,0.6,0.6
2026-01-30T1000,1793A,124.9026,46.6217,大庆市,让胡路区,,30,30,28,16,16,67,,67,67,14,13,9,7,0.5,0.4
2026-01-30T1000,3481A,125.127,46.6277,大庆市,萨区政府监测点,,20,20,32,3,12,60,,46,46,11,18,9,8,0.5,0.6
2026-01-30T1000,1723A,113.2926,40.0759,大同市,云冈宾馆,颗粒物(PM10),73,95,59,25,25,12,,26,18,46,30,13,11,2.2,0.7
2026-01-30T1000,1724A,113.3437,40.0921,大同市,大同大学,颗粒物(PM10),69,87,54,28,24,16,,35,25,43,24,12,9,1.9,0.7
2026-01-30T1000,1725A,113.2637,40.129,大同市,安家小村,颗粒物(PM10),71,92,80,39,36,10,,6,6,45,41,21,14,2.1,0.9
2026-01-30T1000,3282A,113.3399,40.0586,大同市,大同市卫生学校,颗粒物(PM10),64,78,48,31,23,11,,40,28,52,25,12,7,1.1,0.5
2026-01-30T1000,3565A,113.1371,40.1122,大同市,云冈站,,,97,69,39,28,7,,2,2,39,37,21,15,,0.9
2026-01-30T1000,3566A,113.1186,40.2556,大同市,图书馆,细颗粒物(PM2.5),68,70,51,49,26,20,,22,19,30,20,16,8,1.2,0.7
2026-01-30T1000,3567A,113.5931,40.0459,大同市,区一中,颗粒物(PM10),80,110,61,36,31,46,,48,47,19,16,14,11,0.6,0.4
2026-01-30T1000,4199A,113.2798248,40.09972476,大同市,魏都大道141号,颗粒物(PM10),87,124,77,43,32,16,,13,11,55,39,14,10,2.1,1
2026-01-30T1000,2269A,124.1068,50.4091,大兴安岭地区,科技局,,20,15,15,3,7,64,,66,65,2,2,3,3,0.2,0.1
2026-01-30T1000,3663A,124.117,50.4279,大兴安岭地区,红旗社区,,23,,2,6,5,72,,74,74,2,2,4,4,0.3,0.2
2026-01-30T1000,1600A,124.33,40.0625,丹东市,江湾东路,,28,28,28,15,14,62,,56,56,13,14,7,6,0.6,0.5
2026-01-30T1000,1601A,124.4242,40.1513,丹东市,临江后街,,26,26,26,17,14,64,,61,59,10,11,9,7,0.5,0.4
2026-01-30T1000,1602A,124.3935,40.1461,丹东市,元宝山,,22,22,24,12,14,66,,52,51,6,12,9,9,0.5,0.5
2026-01-30T1000,1603A,124.3634,40.1093,丹东市,民主桥,,29,29,29,17,15,59,,53,51,18,16,14,9,0.7,0.6
2026-01-30T1000,3541A,109.5726195,19.51688767,儋州市,第一中学子站,,28,28,26,15,11,59,,60,59,4,4,4,4,0.6,0.6
2026-01-30T1000,3542A,109.5567,19.5187,儋州市,东坡学校子站,,31,31,25,11,9,73,,72,70,3,3,3,4,0.5,0.5
2026-01-30T1000,2616A,98.5611,24.4273,德宏傣族景颇族自治州,德宏州监测站,细颗粒物(PM2.5),70,68,54,51,38,13,,13,10,30,25,8,7,0.9,0.7
2026-01-30T1000,3677A,98.5887,24.4366,德宏傣族景颇族自治州,芒市人民政府综合楼,颗粒物(PM10),52,54,57,35,23,9,,16,16,27,15,5,4,1.0,0.7
2026-01-30T1000,1901A,104.424,31.1209,德阳市,东山公园,,32,27,62,22,36,6,,37,30,42,17,3,1,1.0,0.7
2026-01-30T1000,1902A,104.3827,31.1318,德阳市,西小区,颗粒物(PM10),53,55,82,33,41,8,,16,10,35,29,3,4,1.0,0.9
2026-01-30T1000,1904A,104.3553,31.1091,德阳市,耐火材料厂,颗粒物(PM10),66,81,70,46,39,5,,12,8,44,33,3,2,1.1,0.9
2026-01-30T1000,4145A,104.4144,31.1495,德阳市,市林业局,,45,45,62,24,37,5,,13,8,44,32,4,4,1.4,0.9
2026-01-30T1000,1622A,116.3034,37.4675,德州市,儿童乐园,,,44,76,,47,,,44,44,26,27,,15,0.8,0.9
2026-01-30T1000,1624A,116.2992,37.4449,德州市,监理站,,46,46,74,21,42,58,,54,54,27,27,11,13,0.6,0.7
2026-01-30T1000,3066A,116.2722,37.438,德州市,九衢泉纯净水厂,,46,46,66,25,42,53,,49,49,25,26,8,10,1.0,1
2026-01-30T1000,3371A,116.3693,37.44,德州市,开发区人民医院,颗粒物(PM10),52,53,72,27,38,57,,52,52,31,32,14,14,0.5,0.6
2026-01-30T1000,3511A,116.5687,37.3331,德州市,陵城艺术中心,,46,46,66,27,40,39,,36,36,26,28,15,16,0.6,0.6
2026-01-30T1000,4292A,116.352738,37.420875,德州市,新河东路,,33,31,58,23,40,52,,47,47,19,21,15,14,0.6,0.7
2026-01-30T1000,2621A,99.7054,27.8319,迪庆藏族自治州,迪庆州站,,35,,28,24,18,83,,79,77,10,7,5,5,0.4,0.4
2026-01-30T1000,3180A,99.7122,27.8129,迪庆藏族自治州,质量技术监督局,,27,21,24,16,15,85,,88,87,9,6,5,5,0.4,0.4
2026-01-30T1000,4257A,104.6092,35.5962,定西市,将台街,颗粒物(PM10),88,126,114,52,50,31,,24,21,29,20,8,8,0.7,0.6
2026-01-30T1000,4309A,104.6159,35.5701,定西市,正龙路62号,,,150,109,64,48,,,41,39,20,14,9,4,1.0,0.8
2026-01-30T1000,1390A,113.7943,23.0132,东莞市,东城石井,细颗粒物(PM2.5),55,49,50,39,32,44,,48,44,34,31,5,6,0.8,0.7
2026-01-30T1000,1391A,113.7384,22.9659,东莞市,南城西平,,49,39,47,34,31,38,,24,22,33,40,5,5,0.8,0.7
2026-01-30T1000,3319A,113.7283,23.041,东莞市,万江金泰,,42,42,50,26,29,48,,56,49,26,27,4,4,1.0,0.9
2026-01-30T1000,4129A,113.8666,23.1062,东莞市,裕兴路,,49,41,59,34,30,38,,43,42,25,28,5,5,1.0,0.9
2026-01-30T1000,4130A,114.0076,22.9739,东莞市,教育路1号,,46,,51,32,30,38,,58,48,39,32,4,4,0.8,0.7
2026-01-30T1000,4131A,113.7981,22.8124,东莞市,长怡路1号,,46,42,52,32,27,37,,36,32,31,38,6,6,0.9,0.8
2026-01-30T1000,1666A,118.6612,37.4313,东营市,市环保局,,39,39,29,17,13,71,,73,70,21,20,12,7,0.6,0.5
2026-01-30T1000,3036A,118.6903,37.4337,东营市,开发区管委会,,37,37,33,18,13,69,,71,69,12,10,10,7,0.4,0.4
2026-01-30T1000,3365A,118.5721,37.5654,东营市,垦利区民丰路,,39,36,28,27,13,72,,62,61,17,16,10,7,0.6,0.5
2026-01-30T1000,3498A,118.5063,37.8606,东营市,河口城区,,41,41,35,17,14,70,,67,65,23,23,7,6,0.7,0.6
2026-01-30T1000,3646A,118.4979,37.4623,东营市,胜利站,,35,35,29,24,16,61,,59,59,23,19,11,7,0.6,0.5
2026-01-30T1000,3734A,118.5753,37.4405,东营市,理想之城,,26,24,29,18,8,68,,65,65,21,20,9,4,0.5,0.4
2026-01-30T1000,1591A,110.0024,39.8127,鄂尔多斯市,综合楼,颗粒物(PM10),84,117,126,56,33,36,,13,13,36,56,12,13,0.8,0.6
2026-01-30T1000,1592A,109.9485,39.8259,鄂尔多斯市,巴音孟克林场办事处,颗粒物(PM10),79,107,96,56,32,42,,25,25,28,44,10,12,0.8,0.6
2026-01-30T1000,1593A,109.7734,39.5987,鄂尔多斯市,康泽苑,颗粒物(PM10),76,102,83,52,30,16,,13,13,36,38,3,5,1.1,0.7
2026-01-30T1000,1594A,109.8121,39.5987,鄂尔多斯市,华泰汽车城,颗粒物(PM10),67,83,79,24,27,7,,5,5,35,43,5,7,0.8,0.6
2026-01-30T1000,1595A,109.9734,39.7884,鄂尔多斯市,奥林花园,颗粒物(PM10),79,107,102,53,32,22,,4,4,42,53,8,10,0.8,0.6
2026-01-30T1000,2436A,114.894,30.3989,鄂州市,市政府,颗粒物(PM10),52,53,41,13,27,24,,32,31,39,27,5,5,0.5,0.6
2026-01-30T1000,2437A,114.8986,30.3714,鄂州市,赵家坝,,19,15,45,13,26,46,,39,39,11,18,7,8,0.6,0.8
2026-01-30T1000,3654A,114.8093,30.4091,鄂州市,精准医疗中心,,22,22,47,7,28,51,,44,44,10,19,24,10,0.5,0.5
2026-01-30T1000,2454A,109.4978,30.2979,恩施土家族苗族自治州,湖北民院,,19,19,26,13,15,22,,48,40,16,11,5,6,0.9,1
2026-01-30T1000,3549A,109.5061,30.3771,恩施土家族苗族自治州,龙凤新区,,22,17,20,15,13,21,,40,34,7,8,7,7,0.8,0.8
2026-01-30T1000,2499A,108.3411,21.6159,防城港市,沙万,颗粒物(PM10),64,77,69,24,27,54,,63,60,31,31,5,8,0.9,1
2026-01-30T1000,2500A,108.3515,21.7733,防城港市,防城档案局,,46,41,49,32,31,68,,73,68,12,14,6,5,0.7,0.8
2026-01-30T1000,2501A,108.3506,21.6414,防城港市,大海花园,细颗粒物(PM2.5),52,47,46,36,26,71,,80,75,16,19,6,8,0.6,0.7
2026-01-30T1000,1371A,113.1293,23.0065,佛山市,湾梁,颗粒物(PM10),56,61,53,29,23,36,,33,31,42,40,/,/,/,/
2026-01-30T1000,1372A,113.1082,23.0477,佛山市,华材职中,细颗粒物(PM2.5),67,58,55,48,40,37,,34,32,45,35,6,6,0.8,0.7
2026-01-30T1000,1373A,113.1439,23.045,佛山市,南海气象局,颗粒物(PM10),51,51,47,32,32,42,,25,24,40,41,/,/,/,/
2026-01-30T1000,1374A,113.2879,22.8094,佛山市,顺德苏岗,颗粒物(PM10),57,64,48,36,24,33,,44,40,40,33,/,/,1.1,1
2026-01-30T1000,1376A,112.8384,22.8678,佛山市,高明孔堂,"颗粒物(PM10),细颗粒物(PM2.5)",54,57,46,38,27,35,,48,40,48,25,/,/,/,/
2026-01-30T1000,1377A,112.8835,23.1584,佛山市,三水监测站,细颗粒物(PM2.5),73,92,78,53,45,20,,15,13,77,65,6,4,0.7,0.7
2026-01-30T1000,1378A,112.8668,23.185,佛山市,三水云东海,细颗粒物(PM2.5),77,94,74,56,43,18,,13,8,81,57,/,/,/,/
2026-01-30T1000,3625A,113.2568,22.7629,佛山市,容桂街道办,细颗粒物(PM2.5),52,36,42,36,23,33,,43,40,38,32,/,/,/,/
2026-01-30T1000,1282A,119.2681,26.0506,福州市,师大,,18,18,36,8,10,42,,58,52,21,17,2,3,0.5,0.5
2026-01-30T1000,1283A,119.2983,26.1028,福州市,五四北路,,18,18,32,8,9,32,,60,52,24,14,4,5,0.7,0.7
2026-01-30T1000,1284A,119.2648,26.0769,福州市,杨桥西路,,16,16,33,11,9,37,,60,54,25,14,3,5,/,/
2026-01-30T1000,3048A,119.5799,26.0937,福州市,九龙,,17,17,31,8,11,43,,58,53,18,17,4,6,0.5,0.5
2026-01-30T1000,3526A,119.5188,25.9666,福州市,吴航,,23,23,26,14,11,35,,57,47,31,17,4,5,0.7,0.5
2026-01-30T1000,4104A,119.3106,26.0648,福州市,路通桥巷6号,,21,21,32,12,13,36,,61,53,23,14,/,/,/,/
2026-01-30T1000,1755A,123.7974,41.8494,抚顺市,望花区,细颗粒物(PM2.5),132,114,127,100,79,26,,10,10,46,51,6,7,1.6,1.3
2026-01-30T1000,1756A,123.9161,41.8827,抚顺市,顺城区,细颗粒物(PM2.5),108,88,94,81,78,33,,14,14,44,53,14,10,1.2,1.3
2026-01-30T1000,1757A,124.0437,41.8615,抚顺市,东洲区,细颗粒物(PM2.5),87,66,98,64,71,39,,28,28,27,37,6,6,0.9,1
2026-01-30T1000,1758A,123.9246,41.8638,抚顺市,新抚区,细颗粒物(PM2.5),108,98,101,81,75,33,,12,12,36,51,12,6,1.0,1
2026-01-30T1000,1759A,124.0972,41.8961,抚顺市,大伙房水库,细颗粒物(PM2.5),74,62,68,54,54,41,,16,16,23,37,14,10,0.8,0.9
2026-01-30T1000,1760A,123.708,41.8386,抚顺市,沈抚新城,细颗粒物(PM2.5),148,157,95,113,67,25,,12,12,48,52,8,7,2.1,1.2
2026-01-30T1000,2377A,116.3544,27.9833,抚州市,市站,细颗粒物(PM2.5),58,51,64,41,47,33,,29,29,19,22,5,8,1.0,1.1
2026-01-30T1000,2378A,116.3562,27.9631,抚州市,血防站,细颗粒物(PM2.5),67,52,66,48,49,25,,22,22,28,33,4,7,1.4,1.6
2026-01-30T1000,2379A,116.3561,28.0007,抚州市,采茶剧团,细颗粒物(PM2.5),53,48,63,37,40,24,,20,20,15,19,4,7,1.0,1.2
2026-01-30T1000,2380A,116.3854,27.9648,抚州市,医学分院,细颗粒物(PM2.5),62,59,69,44,45,27,,25,25,19,23,6,5,1.1,1.2
2026-01-30T1000,2207A,121.6095,41.9978,阜新市,工业园区,颗粒物(PM10),73,96,87,37,31,42,,12,12,27,32,14,14,0.6,0.8
2026-01-30T1000,2208A,121.6567,42.0188,阜新市,长青街,颗粒物(PM10),51,51,41,25,28,31,,22,22,41,28,15,9,0.9,0.7
2026-01-30T1000,2209A,121.6672,42.07,阜新市,农业园区,颗粒物(PM10),51,52,28,27,8,46,,56,53,23,9,14,7,0.6,0.3
2026-01-30T1000,2211A,121.6343,42.0455,阜新市,玉龙新城,颗粒物(PM10),65,79,60,33,27,33,,10,10,37,38,21,8,0.8,0.8
2026-01-30T1000,2301A,115.8276,32.8929,阜阳市,市监测站,细颗粒物(PM2.5),52,44,63,36,40,63,,66,66,13,16,4,4,0.5,0.5
2026-01-30T1000,2303A,115.8551,32.8606,阜阳市,开发区,细颗粒物(PM2.5),58,,46,41,39,60,,67,66,16,18,4,4,0.3,0.3
2026-01-30T1000,2875A,115.783962,32.889217,阜阳市,阜阳职业技术学院,细颗粒物(PM2.5),63,,50,45,37,67,,74,73,11,13,6,6,0.4,0.4
2026-01-30T1000,3468A,115.79,32.8614,阜阳市,市规划展馆,细颗粒物(PM2.5),52,41,58,36,40,68,,74,74,12,15,4,5,0.5,0.5
2026-01-30T1000,3469A,115.835101,32.918568,阜阳市,枣园社区,细颗粒物(PM2.5),60,43,61,43,41,62,,67,66,14,16,5,5,0.5,0.4
2026-01-30T1000,2669A,102.9097,34.9841,甘南藏族自治州,州政府,颗粒物(PM10),66,82,78,46,45,45,,45,45,16,15,4,7,0.7,0.7
2026-01-30T1000,3380A,102.8915,34.9618,甘南藏族自治州,甘肃民族师范学院,颗粒物(PM10),70,89,95,40,40,42,,50,50,30,25,13,8,0.6,0.6
2026-01-30T1000,2570A,101.96,30.048,甘孜藏族自治州,水桥子,,16,6,24,3,7,51,,60,57,17,8,6,6,1.2,1
2026-01-30T1000,3065A,101.9534,29.9976,甘孜藏族自治州,州环保局,,19,13,19,3,7,60,,67,65,18,12,6,6,1.0,0.9
2026-01-30T1000,2363A,114.9368,25.8663,赣州市,地委,,,,64,40,31,38,,24,23,20,34,8,11,0.9,1
2026-01-30T1000,2364A,114.946,25.8483,赣州市,气象台,细颗粒物(PM2.5),60,57,63,43,36,35,,15,15,29,48,7,10,0.5,0.6
2026-01-30T1000,2365A,114.932,25.8332,赣州市,市图书馆,细颗粒物(PM2.5),68,62,57,49,34,34,,18,17,22,41,4,6,0.9,1
2026-01-30T1000,2366A,114.8905,25.8472,赣州市,华坚鞋城,细颗粒物(PM2.5),69,64,56,50,33,32,,26,21,20,43,8,9,0.6,0.8
2026-01-30T1000,3109A,115.0094,25.8614,赣州市,赣县区卫计委,细颗粒物(PM2.5),83,90,62,61,40,24,,22,20,57,33,8,8,0.9,0.9
2026-01-30T1000,2684A,106.2753,36.0057,固原市,监测站,颗粒物(PM10),73,96,137,35,55,79,,64,64,14,20,6,6,0.6,0.9
2026-01-30T1000,2685A,106.2384,36.0189,固原市,新区,颗粒物(PM10),72,93,137,39,58,78,,56,56,12,24,6,6,0.6,0.8
2026-01-30T1000,2544A,106.6307,30.4577,广安市,市委,,23,23,53,8,32,26,,34,33,22,16,5,6,1.0,0.9
2026-01-30T1000,2545A,106.6266,30.4662,广安市,友谊中学,,19,19,44,8,24,30,,39,38,21,14,6,6,0.9,0.9
2026-01-30T1000,2547A,106.6386,30.4551,广安市,广电花园,,16,16,45,6,36,24,,34,33,20,14,5,5,0.9,0.8
2026-01-30T1000,2902A,106.6347,30.4868,广安市,北辰小学,,21,21,44,9,30,27,,36,35,14,8,5,6,1.0,0.8
2026-01-30T1000,2524A,105.8211,32.4444,广元市,老城,,48,41,29,33,14,51,,58,57,25,20,3,2,0.9,0.9
2026-01-30T1000,2526A,105.8629,32.429,广元市,监测站,,47,47,32,32,16,44,,58,57,26,21,5,6,1.0,1
2026-01-30T1000,3617A,105.8047,32.4167,广元市,经开区,,,44,30,33,21,,,51,50,23,19,1,2,0.9,1
2026-01-30T1000,1345A,113.2346,23.1423,广州市,广雅中学,,46,46,57,28,31,45,,27,27,34,39,2,3,0.6,0.6
2026-01-30T1000,1346A,113.2611,23.105,广州市,市五中,,40,40,51,22,27,59,,32,32,31,38,6,7,/,/
2026-01-30T1000,1348A,113.3477,23.0916,广州市,广东商学院,,39,34,51,27,32,45,,23,23,40,51,5,6,0.8,0.9
2026-01-30T1000,1349A,113.4332,23.105,广州市,市八十六中,,22,22,43,14,27,42,,37,37,43,53,8,8,/,/
2026-01-30T1000,1350A,113.3506,22.9488,广州市,番禺中学,颗粒物(PM10),51,51,57,22,26,40,,35,35,34,34,3,3,0.8,0.8
2026-01-30T1000,1351A,113.2147,23.3918,广州市,花都师范,,39,39,68,21,40,50,,32,32,50,54,6,6,0.7,0.8
2026-01-30T1000,1352A,113.2599,23.1329,广州市,市监测站,,41,41,57,25,31,50,,29,29,32,38,4,4,/,/
2026-01-30T1000,1353A,113.5618,23.3119,广州市,九龙镇镇龙,,28,23,61,19,38,54,,47,47,20,27,4,5,0.6,0.7
2026-01-30T1000,1354A,113.2764,23.1544,广州市,麓湖,,30,30,48,21,30,63,,25,25,26,43,8,9,0.6,0.6
2026-01-30T1000,2846A,113.3209,23.1323,广州市,体育西,,34,34,55,20,31,58,,31,31,28,42,5,6,0.8,0.8
2026-01-30T1000,3298A,113.5718,23.5493,广州市,从化街口,,43,42,55,30,35,47,,54,54,18,29,9,9,0.7,0.7
2026-01-30T1000,3299A,113.3463,23.369,广州市,白云竹料,,26,26,79,16,43,68,,49,49,23,41,3,3,0.5,0.6
2026-01-30T1000,3300A,113.2981,23.2365,广州市,白云嘉禾,,26,26,56,17,32,73,,36,36,23,53,5,5,/,/
2026-01-30T1000,3301A,113.4256,23.1716,广州市,黄埔科学城,,33,31,55,23,36,56,,46,46,28,52,2,3,0.5,0.5
2026-01-30T1000,3302A,113.3942,23.0485,广州市,番禺大学城,颗粒物(PM10),53,55,68,24,29,39,,36,36,48,43,7,8,0.7,0.6
2026-01-30T1000,3303A,113.4923,22.8169,广州市,南沙黄阁,,38,27,42,26,27,33,,40,32,45,36,5,5,/,/
2026-01-30T1000,3304A,113.534,22.7893,广州市,南沙街,,42,42,46,27,26,42,,39,34,38,38,5,5,0.9,0.8
2026-01-30T1000,3443A,113.2905,23.5541,广州市,花都梯面,,,,63,,38,,,12,9,49,41,5,4,/,/
2026-01-30T1000,3445A,113.786,23.7479,广州市,从化良口,,26,20,31,18,25,60,,39,39,13,20,7,8,/,/
2026-01-30T1000,3446A,113.805,23.2614,广州市,增城荔城,,25,25,43,15,30,56,,60,58,15,20,5,7,0.8,0.8
2026-01-30T1000,2506A,109.604387,23.066791,贵港市,江南子站,细颗粒物(PM2.5),64,75,68,46,33,40,,64,54,31,15,19,11,0.8,0.7
2026-01-30T1000,2508A,109.5669,23.1065,贵港市,荷城子站,颗粒物(PM10),54,58,56,37,30,43,,51,51,35,25,18,8,1.2,0.9
2026-01-30T1000,3405A,109.5886,23.1172,贵港市,新世纪学校,颗粒物(PM10),51,51,59,29,38,58,,59,59,24,18,/,/,0.6,0.6
2026-01-30T1000,4260A,109.5933,23.095,贵港市,中山路155-3号,,45,44,54,31,35,65,,66,64,22,19,/,/,0.9,0.7
2026-01-30T1000,1439A,106.6863,26.6035,贵阳市,马鞍山,,,,34,,28,,,,,,12,,6,/,/
2026-01-30T1000,1441A,106.6241,26.6266,贵阳市,鉴湖路,,29,29,35,16,21,45,,46,46,15,13,2,3,0.7,0.6
2026-01-30T1000,1442A,106.7468,26.6344,贵阳市,燕子冲,,22,22,28,13,22,30,,32,32,16,13,8,8,0.8,0.5
2026-01-30T1000,1443A,106.6556,26.4362,贵阳市,碧云窝,,46,46,41,19,22,31,,33,33,18,13,14,14,/,/
2026-01-30T1000,1445A,106.6963,26.6063,贵阳市,红边门,,29,29,34,15,23,22,,28,28,21,20,11,11,/,/
2026-01-30T1000,1446A,106.7162383,26.56964667,贵阳市,新华路,,34,34,39,17,22,28,,31,31,21,20,5,8,0.7,0.7
2026-01-30T1000,1447A,106.6742,26.542,贵阳市,太慈桥,,32,24,32,22,19,32,,38,38,25,16,3,3,/,/
2026-01-30T1000,4230A,106.688212,26.56952,贵阳市,花果园大街66号,,28,24,27,19,24,26,,30,30,22,17,2,2,/,/
2026-01-30T1000,4231A,106.687268,26.516892,贵阳市,漓江路57号,,39,39,35,27,22,27,,31,31,23,18,7,8,0.9,0.7
2026-01-30T1000,1864A,110.3091,25.2705,桂林市,龙隐路小学,,26,18,61,18,52,22,,32,29,14,24,6,10,0.8,0.7
2026-01-30T1000,1865A,110.2849361,25.22909545,桂林市,八中,,21,21,63,9,32,19,,29,26,18,28,2,9,1.0,0.9
2026-01-30T1000,3531A,110.296,25.1254,桂林市,旅游学院,,27,27,72,13,51,19,,28,26,22,28,4,8,0.8,0.7
2026-01-30T1000,4222A,110.1835,25.2444,桂林市,环湖路276号,,28,27,70,19,53,20,,29,28,18,27,8,23,1.0,1
2026-01-30T1000,4301A,110.2803,25.2773,桂林市,信义路13号,,19,19,61,13,42,22,,32,29,17,26,4,13,1.2,1.1
2026-01-30T1000,2674A,100.2262,34.4854,果洛藏族自治州,玛沁县大武镇,颗粒物(PM10),83,115,61,19,15,50,,74,66,17,3,21,17,0.9,0.5
2026-01-30T1000,1130A,126.5557,45.8109,哈尔滨市,松北商大,,40,40,42,27,32,38,,38,35,22,26,11,15,0.7,0.6
2026-01-30T1000,1132A,126.6162,45.719,哈尔滨市,南岗学府路,颗粒物(PM10),62,73,47,40,26,29,,45,41,29,16,16,9,0.9,0.7
2026-01-30T1000,1133A,126.6894,45.7733,哈尔滨市,太平宏伟公园,,40,40,39,13,23,48,,50,47,20,15,34,19,0.7,0.6
2026-01-30T1000,1134A,126.6361,45.7672,哈尔滨市,道外承德广场,,44,44,49,20,24,46,,49,45,22,20,23,10,0.7,0.6
2026-01-30T1000,1136A,126.644,45.7261,哈尔滨市,动力和平路,细颗粒物(PM2.5),65,68,40,47,24,32,,41,37,34,22,25,12,1.1,0.8
2026-01-30T1000,1137A,126.5933,45.7479,哈尔滨市,道里建国路,,39,33,39,27,26,38,,44,41,27,24,9,5,0.9,0.8
2026-01-30T1000,1138A,126.6127,45.6119,哈尔滨市,平房东轻厂,颗粒物(PM10),53,55,48,32,35,38,,31,30,24,37,14,12,0.8,0.7
2026-01-30T1000,1139A,126.5875,45.9827,哈尔滨市,呼兰师专,颗粒物(PM10),57,63,56,39,36,46,,38,38,17,22,14,12,0.8,0.7
2026-01-30T1000,1140A,126.6299,45.6799,哈尔滨市,省农科院,细颗粒物(PM2.5),78,84,57,57,45,33,,28,28,30,32,16,12,0.9,0.9
2026-01-30T1000,4282A,126.6769,45.7379,哈尔滨市,华山路1号,颗粒物(PM10),64,78,41,33,24,34,,41,39,38,25,33,20,0.8,0.5
2026-01-30T1000,4283A,126.9717,45.5356,哈尔滨市,解放大街52号,,,56,67,44,49,,,34,,17,25,10,7,0.9,0.8
2026-01-30T1000,2688A,93.5124,42.8176,哈密市,地区监测站,颗粒物(PM10),71,91,119,39,49,10,,28,21,41,22,9,11,1.1,0.2
2026-01-30T1000,2689A,93.5014,42.8312,哈密市,哈密师范学校,,,,,,,,,39,,,,,,,
2026-01-30T1000,2671A,100.9016,36.9464,海北藏族自治州,海晏县西海镇,细颗粒物(PM2.5),74,74,114,54,52,59,,52,52,16,12,6,10,0.9,0.8
2026-01-30T1000,3867A,102.074,36.5056,海东市,平安区公安局北苑,颗粒物(PM10),110,169,134,67,64,40,,45,42,20,14,19,19,0.9,0.9
2026-01-30T1000,4163A,102.0984,36.5119,海东市,滨河路,颗粒物(PM10),110,170,131,66,61,42,,47,44,30,24,20,21,0.8,0.7
2026-01-30T1000,1410A,110.3189,20.0596,海口市,海南大学,,34,34,33,14,13,82,,73,72,9,8,5,5,0.5,0.4
2026-01-30T1000,1411A,110.2827,20.0051,海口市,秀英海南医院,,33,33,35,16,13,78,,73,72,10,9,7,7,0.4,0.4
2026-01-30T1000,1412A,110.3391,19.9979,海口市,海南师范大学,,32,32,34,14,13,81,,74,72,18,22,6,6,0.5,0.5
2026-01-30T1000,1413A,110.3303,20.0359,海口市,龙华路环保局宿舍,,32,32,34,16,16,87,,78,77,10,8,/,/,0.7,0.6
2026-01-30T1000,3539A,110.5111,19.9737,海口市,桂林洋子站,,33,33,33,15,13,82,,72,70,9,7,/,/,/,/
2026-01-30T1000,4134A,110.1952,20.0451,海口市,长滨二路9号,,31,31,30,14,13,78,,67,67,8,8,/,/,/,/
2026-01-30T1000,2673A,100.6158,36.2985,海南藏族自治州,共和县恰卜恰镇,"颗粒物(PM10),细颗粒物(PM2.5)",74,98,101,54,57,24,,41,40,36,21,14,12,0.8,0.6
2026-01-30T1000,2676A,97.373,37.376,海西蒙古族藏族自治州,德令哈市,颗粒物(PM10),53,55,136,22,30,73,,91,85,9,4,13,15,0.5,0.5
2026-01-30T1000,1049A,114.492,36.5712,邯郸市,矿院,细颗粒物(PM2.5),82,74,83,60,69,50,,36,36,11,20,2,2,0.6,0.6
2026-01-30T1000,1050A,114.4839,36.6136,邯郸市,丛台公园,细颗粒物(PM2.5),99,80,87,74,72,44,,32,32,19,27,2,2,0.7,0.7
2026-01-30T1000,3458A,114.7893,36.5592,邯郸市,香泉濮院小区,,,97,90,64,58,,,17,16,22,29,4,2,0.7,0.7
2026-01-30T1000,3580A,114.1998,36.4439,邯郸市,峰峰矿区临水派出所,细颗粒物(PM2.5),79,61,87,58,72,48,,43,43,5,12,4,3,0.6,0.7
2026-01-30T1000,4068A,114.5209,36.7697,邯郸市,建安街268号,细颗粒物(PM2.5),108,83,80,81,70,28,,22,22,26,32,2,2,0.6,0.5
2026-01-30T1000,4069A,114.5488,36.6177,邯郸市,丛台东路558号,细颗粒物(PM2.5),113,,84,85,76,27,,16,16,24,27,3,2,0.8,0.7
2026-01-30T1000,2635A,107.0155,33.0707,汉中市,市监测站,,32,24,31,22,24,57,,58,58,18,15,5,5,0.8,0.9
2026-01-30T1000,2636A,107.0083,33.114,汉中市,鑫源开发区,,,,30,,23,60,,60,60,13,14,,4,0.7,0.6
2026-01-30T1000,2637A,107.0072,33.0323,汉中市,南郑大河坎水厂,,32,29,48,22,30,57,,54,54,15,19,5,5,0.8,1
2026-01-30T1000,1223A,120.2073,30.2111,杭州市,滨江,,43,43,58,23,29,65,,54,54,25,31,6,7,0.4,0.4
2026-01-30T1000,1224A,120.0625,30.2737,杭州市,西溪,,48,48,58,13,22,70,,60,60,21,26,8,9,1.0,0.9
2026-01-30T1000,1226A,120.3417,30.315,杭州市,下沙,,44,44,49,21,22,58,,67,67,31,24,7,8,0.7,0.6
2026-01-30T1000,1227A,120.1252,30.2465,杭州市,卧龙桥,,40,40,49,19,23,70,,59,59,15,23,8,9,0.2,0.2
2026-01-30T1000,1228A,120.1902,30.2691,杭州市,浙江农大,,41,41,54,16,22,69,,65,65,30,32,5,6,0.6,0.7
2026-01-30T1000,1230A,120.1195,30.3121,杭州市,和睦小学,,47,47,54,22,24,63,,64,64,22,22,3,5,0.7,0.7
2026-01-30T1000,1231A,120.3076,30.4146,杭州市,临平镇,颗粒物(PM10),52,54,46,26,20,52,,75,71,22,11,6,6,0.6,0.5
2026-01-30T1000,1232A,120.2753,30.1839,杭州市,城厢镇,颗粒物(PM10),55,59,65,27,26,45,,54,52,44,34,7,9,0.4,0.4
2026-01-30T1000,1233A,120.0883,30.1808,杭州市,云栖,,,,49,,21,,,62,,,34,,5,,0.7
2026-01-30T1000,3557A,119.9463,30.0496,杭州市,镇二中,,,,38,,26,,,54,54,29,31,4,5,0.7,0.7
2026-01-30T1000,3558A,119.7184,30.2367,杭州市,市府大楼,,38,36,45,26,31,58,,46,46,18,25,10,10,0.5,0.5
2026-01-30T1000,3656A,120.1554,30.2863,杭州市,消防大队,,47,47,55,21,25,56,,57,57,28,25,6,7,0.4,0.4
2026-01-30T1000,1270A,117.1957,31.7845,合肥市,明珠广场,,22,22,49,12,30,69,,64,64,16,28,5,6,0.6,0.6
2026-01-30T1000,1271A,117.307,31.8765,合肥市,三里街,,20,12,46,7,29,64,,63,63,24,32,4,5,0.6,0.7
2026-01-30T1000,1272A,117.2587,31.8703,合肥市,琥珀山庄,,24,17,52,16,34,75,,71,71,14,26,6,7,0.7,0.7
2026-01-30T1000,1275A,117.2593,31.9376,合肥市,庐阳区,,22,14,49,7,25,69,,70,70,29,35,2,4,0.7,0.8
2026-01-30T1000,1276A,117.345251,31.861615,合肥市,瑶海区,,23,,48,11,25,72,,69,69,20,35,4,4,0.4,0.5
2026-01-30T1000,1277A,117.3033,31.7967,合肥市,包河区,,21,14,50,11,25,52,,53,53,41,48,5,6,0.6,0.7
2026-01-30T1000,1278A,117.278,31.7392,合肥市,滨湖新区,,22,,47,10,29,69,,64,64,20,24,2,3,0.5,0.6
2026-01-30T1000,1279A,117.1324,31.8395,合肥市,高新区,,24,12,52,9,28,75,,70,70,22,34,3,4,0.6,0.7
2026-01-30T1000,3464A,117.3802,31.9148,合肥市,高教基地,,24,9,45,9,24,75,,69,69,16,29,7,8,0.4,0.6
2026-01-30T1000,4098A,117.2518,31.8404,合肥市,中国科学技术大学,,24,12,46,10,24,74,,70,70,13,21,7,8,0.6,0.7
2026-01-30T1000,3614A,79.9241,37.0878,和田地区,地区环保局,颗粒物(PM10),194,337,312,77,87,44,,38,38,15,29,4,6,0.1,0.6
2026-01-30T1000,3615A,79.9132,37.1137,和田地区,市环保局,颗粒物(PM10),219,363,339,64,82,42,,34,34,14,34,3,6,0.4,1.9
2026-01-30T1000,2517A,108.0496,24.6957,河池市,市环保站,,,0,58,,45,36,,25,24,9,19,2,4,0.8,0.9
2026-01-30T1000,4302A,108.0901,24.6945,河池市,上任中路54号,,18,,56,12,45,34,,14,14,7,23,4,6,1.0,1
2026-01-30T1000,1697A,114.6962,23.7538,河源市,东埔,,29,21,42,20,32,40,,40,40,25,32,5,5,0.8,0.8
2026-01-30T1000,1698A,114.6895,23.7232,河源市,老城,,28,,40,19,30,42,,42,42,16,24,6,6,1.0,1
2026-01-30T1000,3374A,115.5562,35.089,菏泽市,定陶老年大学,细颗粒物(PM2.5),113,112,122,85,84,22,,21,20,26,28,6,6,1.2,1.2
2026-01-30T1000,4114A,115.4239,35.2593,菏泽市,黄河路600号,细颗粒物(PM2.5),110,105,142,83,99,31,,24,24,24,33,4,3,0.7,0.8
2026-01-30T1000,4115A,115.5025,35.2727,菏泽市,菏泽市人社局,细颗粒物(PM2.5),107,106,139,80,100,27,,20,20,22,30,8,9,0.8,0.9
2026-01-30T1000,4184A,115.479691,35.244011,菏泽市,永昌路1号,细颗粒物(PM2.5),114,117,145,86,102,,,22,22,23,30,4,5,0.4,0.5
2026-01-30T1000,4193A,115.471542,35.280012,菏泽市,长城路999号,细颗粒物(PM2.5),99,96,135,74,94,26,,18,18,25,35,17,18,0.8,0.9
2026-01-30T1000,2514A,111.5264,24.4178,贺州市,环保小区,细颗粒物(PM2.5),75,86,70,55,41,45,,87,74,34,26,8,5,1.2,0.7
2026-01-30T1000,2515A,111.561,24.4074,贺州市,政协大楼,颗粒物(PM10),59,68,61,33,40,62,,94,81,50,42,16,13,0.8,0.8
2026-01-30T1000,3534A,111.4744,24.455,贺州市,西湾,细颗粒物(PM2.5),85,71,67,63,44,30,,84,68,29,31,10,9,1.1,0.8
2026-01-30T1000,2385A,114.17,35.9019,鹤壁市,市监测站,细颗粒物(PM2.5),117,109,128,88,95,28,,27,27,17,23,2,3,1.4,1
2026-01-30T1000,2386A,114.2953,35.7512,鹤壁市,市交警支队,细颗粒物(PM2.5),108,102,132,81,94,27,,24,24,20,30,4,5,1.0,0.9
2026-01-30T1000,2387A,114.2877,35.7302,鹤壁市,迎宾馆,细颗粒物(PM2.5),109,99,130,82,94,31,,25,25,19,28,5,4,1.2,1.1
2026-01-30T1000,3474A,114.2616,35.6824,鹤壁市,大新区,细颗粒物(PM2.5),80,97,130,59,85,43,,33,33,16,25,7,6,1.0,1
2026-01-30T1000,3596A,114.1573,35.9607,鹤壁市,南山宾馆,细颗粒物(PM2.5),109,102,124,82,94,35,,34,34,18,24,3,3,1.2,0.9
2026-01-30T1000,2244A,130.2537,47.3416,鹤岗市,哈啤分公司,,24,20,24,12,11,74,,73,73,5,5,6,6,0.5,0.5
2026-01-30T1000,2245A,130.2683,47.3087,鹤岗市,斯达机电,,23,23,22,7,8,69,,70,69,8,6,4,4,0.5,0.5
2026-01-30T1000,2246A,130.3114,47.3388,鹤岗市,东山纸板厂,,23,14,19,11,8,71,,70,70,6,5,5,6,0.3,0.4
2026-01-30T1000,2263A,127.4832,50.2524,黑河市,交通局,,26,,13,18,13,72,,73,72,8,5,5,4,0.3,0.3
2026-01-30T1000,2264A,127.5146,50.2339,黑河市,环保局,,21,7,13,3,9,67,,69,68,9,8,4,4,0.3,0.3
2026-01-30T1000,1074A,115.6839,37.754,衡水市,电机北厂,细颗粒物(PM2.5),64,66,80,46,58,44,,25,25,24,41,10,7,0.5,0.6
2026-01-30T1000,1075A,115.6303,37.7318,衡水市,市监测站,颗粒物(PM10),58,66,72,33,54,52,,44,43,24,34,14,9,0.5,0.6
2026-01-30T1000,3188A,115.6684,37.7216,衡水市,市城管局,颗粒物(PM10),62,73,77,41,53,46,,37,37,26,33,16,9,0.6,0.7
2026-01-30T1000,3459A,115.599,37.5491,衡水市,地表水厂,细颗粒物(PM2.5),79,62,65,58,56,30,,29,26,27,27,9,5,0.5,0.5
2026-01-30T1000,2457A,112.6209,26.9268,衡阳市,衡阳化工总厂,,12,12,53,3,39,25,,25,25,13,14,6,8,1.0,1.1
2026-01-30T1000,2458A,112.621,26.8957,衡阳市,珠晖区环保局,,11,10,51,3,36,21,,24,23,22,21,4,5,1.1,1.2
2026-01-30T1000,2459A,112.628,26.8654,衡阳市,市委党校,,12,7,48,3,34,25,,25,25,10,11,8,12,1.2,1.3
2026-01-30T1000,2460A,112.6007,26.8977,衡阳市,市监测站,,12,11,67,8,35,26,,25,25,14,18,5,7,1.1,1.2
2026-01-30T1000,2461A,112.5658,26.9013,衡阳市,真空机电公司,,16,16,64,3,43,30,,26,26,14,20,5,8,1.1,1.2
2026-01-30T1000,3399A,112.6703,26.8817,衡阳市,师范学院,,13,,55,9,25,30,,27,27,14,20,2,3,1.0,1
2026-01-30T1000,3038A,103.3757,23.3679,红河哈尼族彝族自治州,州图书馆,,50,36,32,35,27,69,,68,62,10,7,7,6,0.5,0.5
2026-01-30T1000,4154A,103.401,23.3561,红河哈尼族彝族自治州,蒙自市朝阳路,,41,41,23,27,24,64,,67,62,12,6,6,7,0.3,0.3
2026-01-30T1000,1090A,111.6506,40.7517,呼和浩特市,呼市一监,颗粒物(PM10),56,61,31,25,15,18,,45,36,42,23,13,10,0.8,0.5
2026-01-30T1000,1094A,111.7516,40.8369,呼和浩特市,如意水处理厂,颗粒物(PM10),52,53,30,28,15,21,,21,19,54,37,12,11,0.8,0.3
2026-01-30T1000,1095A,111.727798,40.806187,呼和浩特市,二十九中,颗粒物(PM10),51,51,29,23,14,25,,38,33,35,22,17,13,0.8,0.5
2026-01-30T1000,1097A,111.717,40.7617,呼和浩特市,化肥厂生活区,,50,50,37,19,15,34,,48,41,29,22,25,9,0.7,0.4
2026-01-30T1000,3699A,111.6519,40.8389,呼和浩特市,海东办,,44,44,28,19,13,15,,14,8,48,36,7,6,0.9,0.6
2026-01-30T1000,4275A,111.591512,40.827312,呼和浩特市,成吉思汗西街8号,,,,31,,12,,,10,10,48,43,8,8,0.8,0.6
2026-01-30T1000,4276A,111.6597,40.8077,呼和浩特市,公园东路75号,颗粒物(PM10),52,53,27,25,13,36,,38,36,38,28,9,7,0.9,0.5
2026-01-30T1000,4277A,111.5427,40.7846,呼和浩特市,金海路35号,,50,50,34,18,14,30,,12,10,37,46,9,8,0.8,0.7
2026-01-30T1000,3061A,119.7511,49.1576,呼伦贝尔市,国华电力东,,26,25,32,18,19,64,,54,54,18,21,6,5,0.3,0.3
2026-01-30T1000,4279A,119.7569,49.2222,呼伦贝尔市,伊敏大街东7号,,41,41,33,24,24,30,,53,43,32,19,6,6,0.7,0.5
2026-01-30T1000,1250A,120.075,30.867,湖州市,城西水厂,,35,35,42,24,20,82,,81,81,20,19,4,5,0.3,0.3
2026-01-30T1000,2873A,120.083,30.8929,湖州市,仁皇山新区,,35,35,42,23,21,82,,78,78,21,24,5,6,0.5,0.5
2026-01-30T1000,2907A,120.1846,30.8592,湖州市,吴兴区站,,39,39,43,22,19,75,,73,73,19,17,4,4,0.4,0.3
2026-01-30T1000,3562A,120.4146,30.8538,湖州市,南浔区站,,44,44,46,26,22,73,,71,71,18,17,6,6,0.4,0.4
2026-01-30T1000,1607A,120.904878,40.721091,葫芦岛市,龙港区,颗粒物(PM10),119,188,79,87,56,32,,11,11,60,46,172,30,2.0,1.2
2026-01-30T1000,1608A,120.8382,40.7521,葫芦岛市,化工街,细颗粒物(PM2.5),92,132,82,68,51,19,,9,9,67,52,54,33,1.5,0.9
2026-01-30T1000,1609A,120.8339,40.7078,葫芦岛市,新区,细颗粒物(PM2.5),75,80,63,55,46,30,,8,8,54,54,65,21,1.6,1
2026-01-30T1000,1610A,120.8697,40.7679,葫芦岛市,东城区,颗粒物(PM10),151,252,78,98,59,19,,10,10,72,50,84,40,2.4,1.2
2026-01-30T1000,2483A,109.9297,27.5383,怀化市,河西地税局,,16,,36,11,22,41,,40,40,16,15,3,2,/,/
2026-01-30T1000,2484A,109.9783,27.5342,怀化市,市四医院,,13,7,36,3,18,40,,34,34,10,12,7,5,0.7,0.8
2026-01-30T1000,2485A,109.9971,27.5579,怀化市,监测楼,,13,10,35,3,19,40,,36,36,14,18,2,3,0.3,0.4
2026-01-30T1000,1210A,119.0566,33.5991,淮安市,钵池山,,39,39,48,22,30,64,,66,66,10,11,7,6,0.4,0.3
2026-01-30T1000,1211A,119.0083,33.578,淮安市,北京南路,,41,41,53,22,30,62,,66,66,11,10,7,6,0.6,0.4
2026-01-30T1000,1212A,118.9938,33.6083,淮安市,市监测站,,36,34,40,25,32,66,,68,68,13,13,8,8,0.7,0.6
2026-01-30T1000,1213A,119.135,33.5038,淮安市,楚州区监测站,,34,34,48,21,32,66,,66,66,7,10,8,8,0.5,0.5
2026-01-30T1000,3426A,118.8757,33.2897,淮安市,新华书店,,46,46,48,28,33,56,,58,58,13,12,7,7,0.5,0.5
2026-01-30T1000,4092A,119.119691,33.550006,淮安市,枚皋中路89号,颗粒物(PM10),54,57,53,22,33,72,,74,74,7,9,8,8,0.8,0.7
2026-01-30T1000,4206A,119.028838,33.631911,淮安市,承德北路606号,,46,46,60,24,33,61,,63,63,8,8,6,6,0.6,0.5
2026-01-30T1000,2282A,116.8005,33.9749,淮北市,监测站,细颗粒物(PM2.5),78,102,81,57,53,54,,68,62,18,15,4,4,0.6,0.5
2026-01-30T1000,2283A,116.8094,33.9008,淮北市,烈山区政府,细颗粒物(PM2.5),68,80,70,49,46,58,,68,63,10,12,3,3,0.4,0.4
2026-01-30T1000,4017A,116.7926,33.9534,淮北市,市博物馆,细颗粒物(PM2.5),78,98,80,57,54,62,,69,65,7,10,1,3,0.7,0.6
2026-01-30T1000,4100A,116.8322,33.9884,淮北市,杜集区第一实验学校,细颗粒物(PM2.5),78,94,82,57,54,56,,67,62,13,12,3,4,0.5,0.5
2026-01-30T1000,2277A,116.8304,32.7726,淮南市,潘集区政府,细颗粒物(PM2.5),53,41,61,37,33,65,,69,68,10,16,4,5,0.4,0.4
2026-01-30T1000,2279A,116.8569,32.5949,淮南市,谢家集区政府,,46,,44,32,29,57,,70,67,16,17,5,6,0.5,0.5
2026-01-30T1000,2280A,116.8279,32.6333,淮南市,八公山区政府,细颗粒物(PM2.5),58,,49,41,35,61,,72,70,15,16,5,6,0.5,0.5
2026-01-30T1000,2894A,117.0561,32.6536,淮南市,经济技术开发区消防队,细颗粒物(PM2.5),52,40,55,36,30,62,,66,64,17,20,3,4,0.4,0.3
2026-01-30T1000,3329A,117.011,32.5891,淮南市,山南新区,,43,,41,30,29,67,,74,72,15,20,6,7,0.4,0.4
2026-01-30T1000,4209A,117.003137,32.644456,淮南市,国庆中路369号,,49,,48,34,29,56,,62,60,14,18,8,8,0.4,0.3
2026-01-30T1000,2446A,114.9021,30.474,黄冈市,职工中心,,19,18,42,13,32,49,,42,42,12,19,5,6,0.6,0.8
2026-01-30T1000,2929A,114.8858,30.4519,黄冈市,红卫路,,16,13,37,11,27,50,,47,47,13,15,4,5,0.5,0.5
2026-01-30T1000,3398A,114.9134,30.4446,黄冈市,市林业局,,15,11,38,6,29,48,,40,40,13,18,4,4,0.4,0.5
2026-01-30T1000,2672A,102.02,35.5101,黄南藏族自治州,同仁县隆务镇,颗粒物(PM10),73,96,101,43,53,61,,58,58,4,6,7,9,0.7,0.7
2026-01-30T1000,2295A,118.2905,29.6965,黄山市,延安路89号,细颗粒物(PM2.5),62,51,55,44,44,5,,9,7,22,18,4,4,0.8,0.8
2026-01-30T1000,2297A,118.1369,30.2755,黄山市,黄山区政府5号楼,,13,13,47,3,28,34,,34,34,17,15,2,2,0.6,0.7
2026-01-30T1000,4210A,118.335445,29.720283,黄山市,滨江东路7-2号,颗粒物(PM10),60,69,70,39,41,9,,16,13,26,17,/,/,/,/
2026-01-30T1000,2423A,115.0547,30.2332,黄石市,沈家营,,19,19,51,8,26,40,,34,34,11,18,5,6,0.7,0.8
2026-01-30T1000,2426A,114.899,30.211,黄石市,铁山,,30,30,37,16,28,43,,34,34,15,16,5,6,1.1,0.9
2026-01-30T1000,2427A,115.0259,30.2108,黄石市,团城山,,20,16,44,14,33,34,,27,27,14,20,6,6,0.8,0.8
2026-01-30T1000,3149A,115.0174,30.1591,黄石市,笔架山北路,,23,23,58,12,32,34,,29,29,20,20,7,7,0.8,0.7
2026-01-30T1000,4185A,115.078022,30.21118,黄石市,磁湖东路29号,,19,13,45,13,30,36,,29,29,5,18,6,7,0.8,1.1
2026-01-30T1000,1392A,114.4181,23.0528,惠州市,河南岸金山湖子站,,48,44,49,33,30,32,,58,48,37,25,3,4,0.9,0.8
2026-01-30T1000,1393A,114.4055,23.0824,惠州市,下埔横江三路子站,,46,42,50,32,30,47,,65,57,22,21,6,7,0.9,0.8
2026-01-30T1000,1395A,114.4645,22.7832,惠州市,惠阳区承修路船湖子站,颗粒物(PM10),51,51,44,35,30,39,,64,55,26,21,6,6,0.8,0.7
2026-01-30T1000,1396A,114.5316,22.7423,惠州市,大亚湾管委会子站,颗粒物(PM10),57,64,46,39,25,35,,66,58,26,21,6,7,0.7,0.6
2026-01-30T1000,3314A,114.4334,22.8134,惠州市,惠阳秋长,,48,48,45,31,26,59,,71,64,19,23,/,/,/,/
2026-01-30T1000,3452A,114.6521,22.7755,惠州市,大亚湾霞涌,,48,42,41,33,24,52,,72,61,19,18,/,/,/,/
2026-01-30T1000,4300A,114.4089,23.1147,惠州市,文华一路1号,,43,38,43,30,27,49,,67,58,23,21,/,/,/,/
2026-01-30T1000,2240A,130.9618,45.2926,鸡西市,环保局,,25,25,18,10,14,62,,66,64,11,7,6,6,0.3,0.2
2026-01-30T1000,2243A,130.9294,45.2959,鸡西市,第一中学,,20,20,16,10,14,64,,67,66,8,6,3,2,0.3,0.3
2026-01-30T1000,3707A,131.0069,45.2988,鸡西市,欧美日汽修厂,,37,37,26,11,13,60,,63,61,8,7,7,6,0.3,0.4
2026-01-30T1000,2367A,114.9753,27.0803,吉安市,红声器材厂,细颗粒物(PM2.5),65,62,64,47,45,21,,8,8,24,30,12,11,0.5,0.6
2026-01-30T1000,2369A,114.9903,27.1313,吉安市,市环境监测站,细颗粒物(PM2.5),77,59,57,56,45,22,,10,10,28,29,9,10,/,/
2026-01-30T1000,2370A,115.009527,27.096792,吉安市,青原区法院,,,58,58,38,36,,,7,7,32,29,18,13,1.1,1
2026-01-30T1000,1772A,126.54,43.8622,吉林市,哈达湾,细颗粒物(PM2.5),68,57,52,49,42,50,,44,43,30,24,9,7,1.1,0.9
2026-01-30T1000,1773A,126.5843,43.8358,吉林市,东局子,细颗粒物(PM2.5),62,52,47,44,41,36,,42,40,35,24,8,6,1.0,0.9
2026-01-30T1000,1774A,126.5051,43.8243,吉林市,电力学院,细颗粒物(PM2.5),74,62,75,54,62,51,,38,38,29,32,10,8,1.0,1.1
2026-01-30T1000,1775A,126.6133,43.8971,吉林市,江北,细颗粒物(PM2.5),57,49,61,40,51,44,,42,42,28,26,9,7,1.3,1.2
2026-01-30T1000,1776A,126.5549,43.8304,吉林市,江南公园,细颗粒物(PM2.5),77,64,56,56,49,38,,30,30,34,27,9,9,0.8,0.6
2026-01-30T1000,2868A,126.4737,43.953,吉林市,九站,细颗粒物(PM2.5),84,79,62,62,54,37,,15,15,38,41,7,8,1.0,0.9
2026-01-30T1000,1299A,116.9866,36.6118,济南市,科干所,细颗粒物(PM2.5),83,105,116,61,70,27,,37,30,36,34,9,10,0.7,0.7
2026-01-30T1000,1300A,116.9379,36.6652,济南市,农科所,颗粒物(PM10),75,100,106,53,69,21,,30,27,44,39,14,14,0.9,0.8
2026-01-30T1000,1301A,117.1265,36.6736,济南市,开发区,细颗粒物(PM2.5),85,105,104,63,74,28,,37,34,44,41,6,7,0.9,0.9
2026-01-30T1000,1303A,117.0616,36.6865,济南市,省种子仓库,颗粒物(PM10),80,110,109,54,66,24,,31,30,46,40,11,10,0.7,0.7
2026-01-30T1000,1304A,116.9495185,36.644937,济南市,机床二厂,,,,110,,75,23,,26,24,42,39,,10,0.8,0.8
2026-01-30T1000,1305A,117.0496,36.6629,济南市,市监测站,细颗粒物(PM2.5),82,107,111,60,75,24,,31,28,40,38,8,9,0.8,0.8
2026-01-30T1000,1306A,116.7674,36.5458,济南市,长清党校,细颗粒物(PM2.5),85,98,118,63,70,22,,25,21,41,42,11,12,0.9,1
2026-01-30T1000,1961A,117.5323,36.6865,济南市,东山小学,,,120,109,73,65,,,,,32,29,10,7,0.7,0.5
2026-01-30T1000,3059A,117.7181,36.205,济南市,泰兴公司,细颗粒物(PM2.5),85,88,137,63,99,55,,57,56,27,34,5,4,0.8,0.9
2026-01-30T1000,3064A,117.6861,36.2172,济南市,莱芜战役纪念馆,细颗粒物(PM2.5),73,92,137,53,93,50,,58,56,26,31,9,8,0.7,0.8
2026-01-30T1000,3494A,117.1673,36.9782,济南市,济阳区政府,颗粒物(PM10),67,83,64,42,38,36,,49,44,28,19,17,7,0.8,0.6
2026-01-30T1000,3495A,117.1168,36.6299,济南市,锦屏中学,细颗粒物(PM2.5),97,98,107,72,75,29,,41,36,36,36,6,7,0.5,0.5
2026-01-30T1000,4108A,117.7107,36.2385,济南市,山财大街5号,"颗粒物(PM10),细颗粒物(PM2.5)",63,75,125,45,83,52,,52,52,35,44,10,8,0.9,1
2026-01-30T1000,4109A,116.9744,36.6889,济南市,无影山路12号,颗粒物(PM10),73,95,95,52,65,25,,33,30,45,37,14,13,1.0,0.9
2026-01-30T1000,1653A,116.6229,35.4288,济宁市,火炬城,细颗粒物(PM2.5),113,112,122,85,97,34,,32,28,26,26,2,3,0.7,0.7
2026-01-30T1000,3500A,116.5808,35.3703,济宁市,北湖一中,细颗粒物(PM2.5),114,107,109,86,88,34,,38,34,27,25,2,4,0.7,0.7
2026-01-30T1000,3501A,116.8251,35.5592,济宁市,服务中心,细颗粒物(PM2.5),118,130,152,89,99,34,,32,30,19,21,4,4,0.6,0.7
2026-01-30T1000,3678A,116.5907,35.4054,济宁市,市第七中学,细颗粒物(PM2.5),119,106,115,90,95,41,,40,36,27,27,7,7,0.6,0.7
2026-01-30T1000,4111A,116.6075,35.4566,济宁市,任和路,细颗粒物(PM2.5),114,,143,86,92,32,,26,23,31,30,,6,0.8,0.8
2026-01-30T1000,4112A,116.5648,35.3921,济宁市,文体南路1号,细颗粒物(PM2.5),119,141,134,90,92,38,,39,36,29,27,2,3,0.7,0.7
2026-01-30T1000,2255A,130.2749,46.8028,佳木斯市,佳纺,,36,36,41,18,29,61,,57,57,8,13,5,8,0.6,0.6
2026-01-30T1000,2257A,130.3258,46.7975,佳木斯市,环保局,,33,27,29,23,21,61,,59,58,12,13,7,6,0.3,0.4
2026-01-30T1000,4285A,130.363,46.806,佳木斯市,顺和街,,27,27,28,12,24,54,,57,55,16,15,9,8,0.5,0.4
2026-01-30T1000,4286A,130.3952,46.8268,佳木斯市,长安路196号,,26,25,30,18,23,68,,65,65,10,13,6,5,0.5,0.6
2026-01-30T1000,1252A,120.7439,30.778,嘉兴市,清河小学,,44,44,46,27,22,65,,73,73,25,18,6,5,0.4,0.2
2026-01-30T1000,1253A,120.7261,30.7477,嘉兴市,嘉兴学院,,48,48,49,25,20,70,,74,73,21,17,4,5,0.4,0.5
2026-01-30T1000,2872A,120.7845,30.7524,嘉兴市,南湖区残联,,39,39,41,26,23,70,,78,76,23,20,4,5,0.3,0.3
2026-01-30T1000,3407A,120.6915,30.7741,嘉兴市,秀洲住建,颗粒物(PM10),51,52,47,30,22,64,,75,74,32,21,6,6,0.3,0.3
2026-01-30T1000,1945A,98.291,39.7705,嘉峪关市,气象局,颗粒物(PM10),162,273,394,58,78,11,,46,34,45,18,16,20,1.2,0.7
2026-01-30T1000,2884A,98.2672,39.7978,嘉峪关市,酒钢宾馆,颗粒物(PM10),184,317,413,66,83,22,,46,38,33,16,18,26,0.9,0.7
2026-01-30T1000,3248A,98.2644,39.7723,嘉峪关市,雄关区,颗粒物(PM10),136,221,334,43,73,14,,33,26,39,22,20,19,0.9,0.6
2026-01-30T1000,1383A,113.1063,22.6058,江门市,北街,细颗粒物(PM2.5),60,46,42,43,27,33,,50,42,52,32,/,/,/,/
2026-01-30T1000,1384A,113.073,22.5835,江门市,西区,细颗粒物(PM2.5),54,52,46,38,27,44,,55,47,41,30,/,/,/,/
2026-01-30T1000,1385A,113.0218,22.531,江门市,圭峰西,细颗粒物(PM2.5),52,47,42,36,23,46,,61,51,35,24,/,/,/,/
2026-01-30T1000,1386A,113.0826,22.5947,江门市,东湖,细颗粒物(PM2.5),67,64,43,48,27,42,,54,46,40,28,12,9,0.6,0.6
2026-01-30T1000,3311A,113.1077,22.5647,江门市,江海富民,细颗粒物(PM2.5),57,60,61,40,27,43,,53,46,41,31,/,/,0.6,0.6
2026-01-30T1000,3449A,113.0496,22.4669,江门市,新会银湖,细颗粒物(PM2.5),53,47,39,37,26,36,,31,28,41,30,8,7,0.6,0.5
2026-01-30T1000,3335A,113.3137,35.2643,焦作市,马村街道办,细颗粒物(PM2.5),133,114,195,101,148,39,,38,36,20,25,4,2,1.0,1.2
2026-01-30T1000,3336A,113.2464,35.2374,焦作市,焦作技师学院,细颗粒物(PM2.5),134,138,203,102,139,40,,42,39,16,23,7,5,1.3,1.4
2026-01-30T1000,3477A,113.1656,35.2536,焦作市,中站许衡医院,细颗粒物(PM2.5),160,124,192,122,141,36,,38,38,21,28,5,4,1.3,1.3
2026-01-30T1000,3981A,113.2456,35.18,焦作市,原李万街道办,细颗粒物(PM2.5),110,129,192,83,132,38,,46,42,17,20,4,4,0.9,1
2026-01-30T1000,4264A,113.234,35.219,焦作市,新安路1731号,细颗粒物(PM2.5),140,147,210,107,148,41,,44,43,19,23,6,6,1.2,1.3
2026-01-30T1000,4295A,113.2722,35.2121,焦作市,人民路3066号,细颗粒物(PM2.5),118,141,207,89,131,36,,44,40,18,22,5,6,1.1,1.3
2026-01-30T1000,1708A,116.3701,23.5345,揭阳市,新兴,颗粒物(PM10),61,71,49,39,23,38,,50,43,33,23,12,11,0.9,0.7
2026-01-30T1000,1709A,116.3261,23.5442,揭阳市,西马,颗粒物(PM10),65,79,52,40,24,28,,46,38,40,21,8,6,0.7,0.6
2026-01-30T1000,1710A,116.361,23.5627,揭阳市,东兴,颗粒物(PM10),93,136,55,40,31,30,,44,35,36,22,9,10,/,/
2026-01-30T1000,1711A,116.4151,23.5295,揭阳市,渔湖,颗粒物(PM10),57,63,48,36,22,49,,56,49,30,20,12,8,/,/
2026-01-30T1000,3320A,116.4028,23.5699,揭阳市,曲溪,颗粒物(PM10),61,72,54,32,23,45,,55,47,30,19,11,10,0.7,0.6
2026-01-30T1000,1944A,102.1691,38.5166,金昌市,天庆家园,颗粒物(PM10),276,403,279,90,70,43,,54,50,17,10,11,18,0.9,0.7
2026-01-30T1000,4022A,102.1648,38.5369,金昌市,金川区人防中心,颗粒物(PM10),298,418,290,111,74,34,,63,54,24,8,11,16,0.8,0.5
2026-01-30T1000,4239A,102.193042,38.531887,金昌市,长春路96号,颗粒物(PM10),256,389,287,74,59,43,,57,50,12,9,8,14,0.7,0.6
2026-01-30T1000,1262A,119.6478,29.0773,金华市,十五中,颗粒物(PM10),52,53,53,24,24,57,,50,50,39,44,4,4,0.3,0.3
2026-01-30T1000,1263A,119.6859,29.1032,金华市,监测站,颗粒物(PM10),52,53,56,21,24,41,,35,35,39,46,3,3,0.2,0.2
2026-01-30T1000,3659A,119.656,29.1132,金华市,气象局,,44,44,48,20,19,48,,39,39,34,44,4,4,0.5,0.5
2026-01-30T1000,1767A,121.1114,41.0879,锦州市,南山,细颗粒物(PM2.5),73,70,62,53,51,21,,18,17,54,41,28,21,1.4,1.1
2026-01-30T1000,1768A,121.060361,40.842794,锦州市,开发区,细颗粒物(PM2.5),92,120,94,68,64,35,,13,13,44,55,71,47,1.1,1
2026-01-30T1000,1769A,121.1836,41.1118,锦州市,百股街道,细颗粒物(PM2.5),102,,57,76,47,28,,16,16,49,36,36,15,1.2,1
2026-01-30T1000,1770A,121.1176,41.1224,锦州市,天安街道,细颗粒物(PM2.5),80,84,67,59,49,26,,27,24,48,38,28,19,1.5,1.2
2026-01-30T1000,1771A,121.1303,41.1385,锦州市,北湖公园,细颗粒物(PM2.5),88,104,59,65,40,31,,37,34,39,27,28,18,1.1,0.9
2026-01-30T1000,2160A,112.8496,35.5051,晋城市,自来水公司,细颗粒物(PM2.5),73,81,138,53,86,65,,67,65,15,17,4,4,1.0,1
2026-01-30T1000,2162A,112.8509,35.4886,晋城市,市环保局,细颗粒物(PM2.5),87,92,139,64,96,60,,66,63,17,18,3,3,1.1,1
2026-01-30T1000,3620A,112.8258,35.4804,晋城市,泽州一中,细颗粒物(PM2.5),102,77,133,76,89,70,,74,71,12,12,2,2,0.7,0.7
2026-01-30T1000,4078A,112.8246,35.5152,晋城市,前书院路,,,94,144,68,81,,,61,61,15,17,4,4,0.8,0.8
2026-01-30T1000,4079A,112.8864,35.4773,晋城市,祥云街666号,细颗粒物(PM2.5),110,97,134,83,99,57,,69,64,20,20,4,4,0.9,0.8
2026-01-30T1000,2174A,112.6992,37.6984,晋中市,榆次区政府,细颗粒物(PM2.5),254,259,169,204,132,9,,29,22,38,34,12,8,1.8,1.1
2026-01-30T1000,2865A,112.7195,37.683,晋中市,榆次三中,细颗粒物(PM2.5),261,249,175,211,138,10,,29,22,40,33,20,10,1.8,1.2
2026-01-30T1000,4080A,112.7375,37.7215,晋中市,广安街188号,细颗粒物(PM2.5),230,277,186,180,134,10,,27,21,48,42,9,8,1.4,1
2026-01-30T1000,4200A,112.7478,37.6954,晋中市,迎宾街26号,细颗粒物(PM2.5),244,249,171,194,143,13,,32,25,40,36,20,9,1.5,1.1
2026-01-30T1000,2439A,112.2012,31.048,荆门市,竹园小学,细颗粒物(PM2.5),114,93,85,86,68,27,,34,33,26,25,1,2,0.7,0.9
2026-01-30T1000,2440A,112.1968,30.9892,荆门市,掇刀,细颗粒物(PM2.5),105,89,81,79,65,31,,37,37,21,21,3,3,0.7,0.7
2026-01-30T1000,3012A,112.1849,31.0361,荆门市,西山林语,细颗粒物(PM2.5),104,91,81,78,64,31,,36,36,22,22,2,2,0.9,1
2026-01-30T1000,3547A,112.1631,31.0134,荆门市,龙泉中学南校,细颗粒物(PM2.5),127,105,82,96,68,36,,40,40,15,11,2,2,0.8,0.7
2026-01-30T1000,4124A,112.2213,31.0654,荆门市,新台西路6号,细颗粒物(PM2.5),122,96,83,92,74,28,,34,34,24,23,7,7,0.8,0.9
2026-01-30T1000,1844A,112.2493,30.3198,荆州市,市图书馆,细颗粒物(PM2.5),98,,57,73,56,30,,33,33,22,20,5,5,1.0,1
2026-01-30T1000,1845A,112.2009,30.3543,荆州市,市委党校,细颗粒物(PM2.5),118,,63,89,63,29,,29,29,23,25,6,6,0.9,1
2026-01-30T1000,3194A,112.2749,30.3124,荆州市,管委会,细颗粒物(PM2.5),107,,57,80,60,28,,31,31,23,21,5,5,1.0,1.1
2026-01-30T1000,4268A,112.1722,30.3366,荆州市,学苑路85号,细颗粒物(PM2.5),97,,55,72,52,38,,37,37,18,18,7,6,1.1,1.1
2026-01-30T1000,2343A,117.2114,29.2931,景德镇市,老干部活动中心,,48,33,42,33,29,24,,31,30,17,16,5,4,0.5,0.6
2026-01-30T1000,2344A,117.1893,29.2789,景德镇市,兽医站,,42,42,47,26,21,33,,37,36,16,15,3,3,0.4,0.5
2026-01-30T1000,2346A,117.246,29.2958,景德镇市,陶研所,,,38,36,25,28,,,29,29,14,14,3,3,0.6,0.7
2026-01-30T1000,4289A,117.154766,29.256967,景德镇市,青少年活动中心,,42,42,44,29,24,35,,32,32,18,16,3,3,/,/
2026-01-30T1000,1803A,115.9873,29.6816,九江市,十里,,25,,60,17,47,52,,42,41,20,28,4,6,0.8,1
2026-01-30T1000,1804A,115.9583,29.7047,九江市,茅山头,,21,21,62,12,41,44,,32,31,19,28,4,5,0.5,0.7
2026-01-30T1000,1805A,115.9877,29.7295,九江市,西园,,26,26,66,3,47,49,,35,34,26,36,3,4,0.5,0.7
2026-01-30T1000,1808A,115.9112,29.6038,九江市,综合工业园,,24,24,74,15,65,29,,26,23,33,42,2,4,0.6,0.7
2026-01-30T1000,3190A,116.0254,29.6995,九江市,外国语学校,,19,19,60,8,44,31,,28,28,25,28,5,5,0.6,0.7
2026-01-30T1000,4253A,116.010205,29.659402,九江市,莲花大道8号,,14,14,67,6,50,30,,31,30,23,25,3,5,0.6,0.8
2026-01-30T1000,4240A,98.495752,39.733935,酒泉市,玉门东路5号,颗粒物(PM10),187,324,450,54,68,22,,48,37,24,9,9,12,0.7,0.4
2026-01-30T1000,4241A,98.5099,39.7506,酒泉市,北大街108号,颗粒物(PM10),191,332,422,45,66,23,,44,35,28,12,9,12,0.7,0.4
2026-01-30T1000,2698A,76.0071,39.466,喀什地区,巡警大队,颗粒物(PM10),161,272,315,88,102,8,,33,27,76,39,7,7,1.6,1.2
2026-01-30T1000,2699A,75.9756,39.4693,喀什地区,吾办,颗粒物(PM10),159,267,295,89,109,4,,30,26,64,43,9,15,2.8,1.5
2026-01-30T1000,4027A,75.9485,39.4688,喀什地区,老干局,颗粒物(PM10),172,293,339,89,100,11,,35,33,41,34,3,6,1.8,1.5
2026-01-30T1000,1824A,114.3389,34.778,开封市,肿瘤医院,细颗粒物(PM2.5),108,,124,81,98,25,,21,21,27,31,8,9,0.9,1
2026-01-30T1000,1826A,114.2884,34.7966,开封市,世纪星幼儿园,细颗粒物(PM2.5),108,86,114,81,101,21,,19,19,30,33,5,5,0.8,0.8
2026-01-30T1000,3147A,114.3434,34.8101,开封市,龙亭公园,细颗粒物(PM2.5),95,83,112,71,88,23,,20,20,26,30,6,6,1.1,1.1
2026-01-30T1000,3210A,114.3645,34.7955,开封市,汴京公园,细颗粒物(PM2.5),98,88,117,73,95,23,,19,19,21,27,4,4,0.9,0.9
2026-01-30T1000,3473A,114.2485,34.8306,开封市,技师学院,细颗粒物(PM2.5),99,79,109,74,89,25,,20,20,25,29,6,6,0.8,0.8
2026-01-30T1000,3592A,114.4518,34.7503,开封市,祥符区生态环境局,"颗粒物(PM10),细颗粒物(PM2.5)",104,157,147,78,96,,,16,16,23,32,4,4,0.7,0.8
2026-01-30T1000,1951A,84.886,45.6029,克拉玛依市,长征新村,细颗粒物(PM2.5),88,106,134,65,87,8,,29,26,68,38,5,6,1.5,1.1
2026-01-30T1000,1952A,84.8894,45.5827,克拉玛依市,南林小区,细颗粒物(PM2.5),123,131,134,93,94,6,,17,17,45,32,4,5,1.7,1.3
2026-01-30T1000,1954A,84.896,44.3328,克拉玛依市,独山子区,细颗粒物(PM2.5),308,416,307,258,182,45,,54,51,80,77,3,3,1.8,1.6
2026-01-30T1000,1955A,85.6888,46.0909,克拉玛依市,乌尔禾区商贸楼,细颗粒物(PM2.5),79,99,119,58,83,50,,60,57,38,34,6,7,0.7,0.9
2026-01-30T1000,3612A,85.1045,45.6895,克拉玛依市,白碱滩区新站,细颗粒物(PM2.5),94,119,127,70,85,38,,42,40,34,32,8,9,1.3,1
2026-01-30T1000,2697A,76.1457,39.7143,克孜勒苏柯尔克孜自治州,市人民政府,颗粒物(PM10),161,271,292,76,88,46,,59,58,14,15,3,4,0.4,0.4
2026-01-30T1000,3665A,76.1654,39.7157,克孜勒苏柯尔克孜自治州,克州文化中心,颗粒物(PM10),154,258,306,64,81,52,,54,52,19,14,2,3,0.8,0.8
2026-01-30T1000,1450A,102.8203,24.889,昆明市,呈贡新区,,39,36,41,27,20,61,,60,60,18,19,6,4,0.4,0.2
2026-01-30T1000,1452A,102.7253,25.0904,昆明市,龙泉镇,颗粒物(PM10),56,62,36,26,19,47,,42,33,30,20,5,3,0.6,0.4
2026-01-30T1000,1453A,102.7267,25.0378,昆明市,东风东路,,32,32,31,17,16,65,,60,60,20,16,8,6,0.3,0.2
2026-01-30T1000,1454A,102.6744,25.0671,昆明市,金鼎山,,38,38,41,19,20,56,,37,37,22,21,6,4,0.5,0.4
2026-01-30T1000,1455A,102.6643,25.0401,昆明市,碧鸡广场,,41,41,38,18,18,59,,43,43,22,24,6,5,0.4,0.4
2026-01-30T1000,3179A,102.7491,25.012,昆明市,官渡区博物馆,,47,47,38,32,20,65,,50,49,21,17,6,4,0.8,0.6
2026-01-30T1000,3375A,102.8016,24.8336,昆明市,青年创业园,,35,34,34,24,22,77,,68,68,6,11,9,7,0.5,0.4
2026-01-30T1000,3550A,102.8,24.9787,昆明市,昆明学院,"颗粒物(PM10),细颗粒物(PM2.5)",54,58,37,38,22,45,,68,57,33,13,5,4,0.8,0.5
2026-01-30T1000,3551A,102.5969,24.6738,昆明市,晋宁区生态环境分局,,42,31,37,29,25,69,,57,57,17,12,3,3,0.5,0.4
2026-01-30T1000,3552A,102.6673,24.9861,昆明市,云天化总部,,34,34,29,18,18,64,,68,61,22,13,7,7,0.5,0.4
2026-01-30T1000,1456A,91.132,29.6515,拉萨市,八廓街,,23,17,19,9,9,73,,90,85,19,9,7,7,0.6,0.6
2026-01-30T1000,1457A,91.1221,29.6748,拉萨市,市环保局,,25,16,25,10,8,77,,83,82,16,10,7,8,0.6,0.6
2026-01-30T1000,1458A,91.0874,29.6476,拉萨市,区监测站,,20,12,17,8,8,49,,87,76,40,10,4,4,1.2,0.7
2026-01-30T1000,1459A,91.1774,29.6541,拉萨市,西藏大学,,23,11,19,6,8,72,,81,78,24,13,4,5,0.7,0.5
2026-01-30T1000,1460A,90.9798,29.6586,拉萨市,区辐射站,,27,27,25,8,10,71,,80,73,25,14,5,3,0.6,0.5
2026-01-30T1000,1461A,91.0831,29.6292,拉萨市,拉萨火车站,,19,16,15,13,8,52,,85,72,38,9,4,4,0.4,0.3
2026-01-30T1000,2520A,109.2203,23.7252,来宾市,来宾技工学校,颗粒物(PM10),54,58,66,30,41,64,,74,69,15,17,11,12,0.7,0.7
2026-01-30T1000,3535A,109.1781,23.7293,来宾市,兴宾区政府,,49,49,70,31,44,56,,73,70,19,14,6,7,0.8,0.7
2026-01-30T1000,4002A,109.2312,23.7428,来宾市,中南小学,颗粒物(PM10),56,62,69,37,44,37,,58,48,36,22,8,7,1.0,0.9
2026-01-30T1000,1479A,103.8309,36.0467,兰州市,铁路设计院,,,,,,,,,,,,,,,,
2026-01-30T1000,3241A,103.7439,36.0841,兰州市,百合公园,颗粒物(PM10),98,146,143,62,60,10,,16,12,56,35,12,6,1.6,0.9
2026-01-30T1000,3242A,103.9613,35.9985,兰州市,和平,颗粒物(PM10),105,159,141,68,54,41,,65,57,29,17,13,9,1.4,0.9
2026-01-30T1000,4236A,103.629272,36.093822,兰州市,庄浪东路808号,颗粒物(PM10),121,191,148,56,57,36,,40,35,45,31,12,10,0.9,0.7
2026-01-30T1000,4237A,103.7251,36.104344,兰州市,安宁西路88号,颗粒物(PM10),116,181,161,53,52,34,,28,25,38,31,11,8,0.8,0.7
2026-01-30T1000,4238A,103.846982,36.067567,兰州市,北滨河东路1号,颗粒物(PM10),87,124,148,44,56,15,,11,10,45,38,10,8,1.4,1
2026-01-30T1000,1067A,116.6712,39.5109,廊坊市,药材公司,细颗粒物(PM2.5),114,112,101,86,75,30,,16,16,41,44,5,4,0.7,0.7
2026-01-30T1000,1068A,116.7215,39.5592,廊坊市,开发区,细颗粒物(PM2.5),94,102,102,70,73,44,,31,31,34,38,4,4,0.7,0.8
2026-01-30T1000,1070A,116.7246,39.5273,廊坊市,北华航天学院,细颗粒物(PM2.5),107,112,102,80,73,33,,29,29,46,41,4,4,0.7,0.7
2026-01-30T1000,2919A,116.7022,39.5454,廊坊市,河北工业大学,细颗粒物(PM2.5),100,109,106,75,72,47,,35,35,26,30,3,3,0.7,0.7
2026-01-30T1000,2536A,103.7629,29.5844,乐山市,牛耳桥,颗粒物(PM10),58,66,134,38,72,21,,24,18,31,34,14,8,1.0,1
2026-01-30T1000,2537A,103.7501,29.6002,乐山市,市第三水厂,细颗粒物(PM2.5),59,59,130,42,73,26,,30,26,30,34,12,9,1.1,1.1
2026-01-30T1000,2538A,103.7571,29.5664,乐山市,市监测站,颗粒物(PM10),63,75,143,43,76,19,,18,12,27,30,11,7,0.9,0.9
2026-01-30T1000,3361A,103.7313,29.563,乐山市,理工大学,,,78,134,51,84,,,12,7,28,29,194,16,1.3,1.2
2026-01-30T1000,2599A,100.2497,26.8802,丽江市,丽江古城,,37,37,27,22,14,70,,70,70,18,11,10,10,0.6,0.5
2026-01-30T1000,2600A,100.2203,26.8906,丽江市,市中心,,31,31,22,11,13,67,,77,73,22,10,6,5,0.5,0.3
2026-01-30T1000,1267A,119.9141,28.4513,丽水市,监测站大楼,,24,12,38,8,12,76,,71,71,12,13,4,4,0.4,0.3
2026-01-30T1000,1268A,119.93,28.4589,丽水市,莲都小学,,26,20,32,3,11,82,,79,79,10,14,/,/,/,/
2026-01-30T1000,1269A,119.8794,28.4232,丽水市,余庄前,,25,15,28,3,11,80,,75,75,10,12,4,4,0.3,0.3
2026-01-30T1000,1173A,119.1759,34.5885,连云港市,市环境监测站,,21,17,53,9,35,67,,75,72,13,11,9,9,0.3,0.3
2026-01-30T1000,3000A,119.3577,34.6971,连云港市,德源药业,,34,34,60,7,33,67,,74,72,13,14,6,6,0.6,0.6
2026-01-30T1000,3007A,119.178,34.8442,连云港市,新城一中,,41,41,68,8,45,77,,81,80,18,24,8,10,0.6,0.9
2026-01-30T1000,3008A,119.3607,34.7519,连云港市,胡沟管理处,,23,14,54,3,33,72,,78,76,8,12,7,7,0.6,0.7
2026-01-30T1000,3009A,119.1478,34.5913,连云港市,矿山设计院,,24,24,59,7,33,71,,77,74,12,11,9,7,0.5,0.6
2026-01-30T1000,3434A,119.2414,34.6539,连云港市,工贸学校,,24,14,59,8,35,75,,79,77,16,17,10,10,0.3,0.4
2026-01-30T1000,3664A,119.4171,34.734,连云港市,连云街道,,20,16,60,7,35,61,,71,69,25,27,4,4,0.4,0.6
2026-01-30T1000,2573A,102.2629,27.8981,凉山彝族自治州,西昌市政府,,40,36,37,28,21,43,,61,51,20,10,5,9,0.7,0.5
2026-01-30T1000,2574A,102.2686,27.885,凉山彝族自治州,凉山州政府,,42,42,36,28,18,39,,57,49,22,10,10,10,0.9,0.5
2026-01-30T1000,4229A,102.2342,27.8859,凉山彝族自治州,凯乐南路30号,,47,47,45,20,16,47,,61,53,15,10,8,11,0.8,0.6
2026-01-30T1000,2212A,123.1978,41.2036,辽阳市,宏伟区,,49,46,62,34,36,46,,17,17,18,25,11,12,0.6,0.8
2026-01-30T1000,2213A,123.1684,41.2497,辽阳市,新华园,细颗粒物(PM2.5),113,142,81,85,44,32,,13,13,46,37,9,9,1.5,1.1
2026-01-30T1000,2214A,123.2355,41.2663,辽阳市,滨河路,,,83,60,53,35,29,,11,11,35,38,,8,1.3,0.9
2026-01-30T1000,4083A,123.153,41.2874,辽阳市,铁西路150号,,,53,77,33,53,,,5,5,30,39,15,13,1.2,1.6
2026-01-30T1000,2227A,125.1359,42.8845,辽源市,环保局,细颗粒物(PM2.5),140,114,77,107,58,32,,16,16,38,42,10,6,1.7,1.2
2026-01-30T1000,4085A,125.0998,42.9134,辽源市,安宁大街333号,细颗粒物(PM2.5),144,138,80,110,66,28,,11,11,38,31,9,6,1.6,1
2026-01-30T1000,1625A,115.9789,36.4372,聊城市,区政府,细颗粒物(PM2.5),63,74,90,45,55,31,,46,41,32,26,16,14,0.8,0.8
2026-01-30T1000,3200A,115.9772,36.4986,聊城市,监控中心,细颗粒物(PM2.5),64,61,75,46,57,37,,46,43,30,27,8,8,0.7,0.7
2026-01-30T1000,3513A,116.0443,36.436,聊城市,九州社区,细颗粒物(PM2.5),67,79,92,48,58,40,,56,51,21,15,10,7,0.7,0.7
2026-01-30T1000,4018A,116.0564,36.4609,聊城市,星美广场,,,81,92,44,53,,,49,45,23,18,9,6,0.8,0.8
2026-01-30T1000,4113A,116.0091,36.4495,聊城市,利民路,颗粒物(PM10),59,67,85,40,55,30,,44,39,29,25,14,12,0.9,0.8
2026-01-30T1000,2632A,94.3683,29.6373,林芝市,林芝监测站,,21,8,14,3,9,67,,82,79,8,2,5,5,0.5,0.4
2026-01-30T1000,2633A,94.3616,29.6634,林芝市,林芝人民医院,,,16,18,16,9,,,86,83,9,2,7,7,0.5,0.3
2026-01-30T1000,2603A,100.0779,23.8981,临沧市,市环保局,颗粒物(PM10),52,54,38,28,26,21,,30,24,20,16,8,8,0.6,0.5
2026-01-30T1000,2604A,100.0894,23.882,临沧市,市气象局,颗粒物(PM10),57,64,48,32,26,17,,26,20,19,13,8,10,0.5,0.4
2026-01-30T1000,1733A,111.5552,36.0791,临汾市,临钢医院,细颗粒物(PM2.5),185,188,169,139,114,27,,31,30,30,23,5,5,1.6,1.3
2026-01-30T1000,1734A,111.4984,36.0734,临汾市,技工学校,细颗粒物(PM2.5),215,172,152,165,133,24,,32,30,30,28,4,3,2.0,1.4
2026-01-30T1000,1736A,111.5017,36.0857,临汾市,市委,细颗粒物(PM2.5),212,219,184,162,120,25,,34,32,25,22,6,6,1.6,1.2
2026-01-30T1000,3018A,111.5048,36.1015,临汾市,唐尧大酒店,细颗粒物(PM2.5),186,200,158,140,109,34,,35,35,24,22,2,2,1.9,1.5
2026-01-30T1000,4244A,111.4879,36.053,临汾市,启星学校,细颗粒物(PM2.5),180,166,141,136,99,20,,31,27,31,27,5,5,1.5,1.1
2026-01-30T1000,4271A,103.2464,35.6123,临夏回族自治州,滨河东路1号,颗粒物(PM10),95,139,161,56,65,41,,50,48,14,16,5,6,0.7,0.8
2026-01-30T1000,4310A,103.207136,35.599807,临夏回族自治州,新华街21号,颗粒物(PM10),101,152,164,50,66,34,,47,44,17,16,6,7,0.7,0.7
2026-01-30T1000,1618A,118.3429,35.0532,临沂市,沂河小区,"颗粒物(PM10),细颗粒物(PM2.5)",68,85,100,49,65,32,,32,28,31,29,11,12,0.8,1
2026-01-30T1000,1619A,118.2962,35.0568,临沂市,鲁南制药厂,,,83,91,55,71,28,,36,32,,32,11,13,0.9,1
2026-01-30T1000,1620A,118.2793,34.9976,临沂市,新光毛纺厂,细颗粒物(PM2.5),73,73,82,53,64,37,,37,33,30,28,10,11,0.6,0.7
2026-01-30T1000,1621A,118.3955,35.0889,临沂市,河东保险公司,细颗粒物(PM2.5),80,90,98,59,65,29,,29,26,38,36,10,12,0.8,1
2026-01-30T1000,3370A,118.3563,35.0215,临沂市,十里堡居委,细颗粒物(PM2.5),74,90,92,54,72,32,,35,29,36,31,11,12,0.7,0.8
2026-01-30T1000,3496A,118.359,35.1067,临沂市,南坊新区,细颗粒物(PM2.5),73,88,96,53,67,27,,34,30,40,36,10,11,0.7,0.9
2026-01-30T1000,3860A,118.3915,35.0297,临沂市,皇山花园小区,细颗粒物(PM2.5),84,92,97,62,78,32,,33,27,37,34,14,14,0.8,0.9
2026-01-30T1000,1870A,109.4854,24.3898,柳州市,柳东小学,细颗粒物(PM2.5),79,78,68,58,46,33,,64,52,20,20,14,13,1.0,0.9
2026-01-30T1000,1871A,109.4109,24.3304,柳州市,环保监测站,细颗粒物(PM2.5),65,73,77,47,54,16,,58,54,47,35,7,7,1.2,1.1
2026-01-30T1000,1872A,109.3886,24.3408,柳州市,河西水厂,细颗粒物(PM2.5),74,71,95,54,64,12,,54,54,45,34,7,8,1.3,1.1
2026-01-30T1000,1873A,109.4263,24.2951,柳州市,市四中,细颗粒物(PM2.5),77,75,102,56,73,9,,54,49,56,38,9,9,1.3,1.2
2026-01-30T1000,1874A,109.396,24.3658,柳州市,市九中,,,,85,,51,,,51,51,,36,,11,,1
2026-01-30T1000,1875A,109.4912,24.3164,柳州市,古亭山,细颗粒物(PM2.5),114,86,63,86,48,12,,64,50,50,28,15,8,0.9,0.6
2026-01-30T1000,3402A,109.5422,24.3994,柳州市,市二中,细颗粒物(PM2.5),83,71,82,61,64,31,,19,19,27,45,15,14,1.0,1
2026-01-30T1000,2307A,116.5078,31.7369,六安市,监测大楼,,20,19,55,9,34,62,,62,62,20,28,2,3,0.3,0.4
2026-01-30T1000,2308A,116.4738,31.7642,六安市,皖西学院,,,20,66,12,41,69,,68,68,15,29,3,4,,0.4
2026-01-30T1000,2309A,116.4997,31.7904,六安市,朝阳厂,,22,14,53,9,33,68,,67,67,14,27,2,5,0.3,0.5
2026-01-30T1000,2310A,116.5566,31.7885,六安市,开发区,,,,109,,80,,,32,,,36,,4,,0.8
2026-01-30T1000,2577A,104.8293,26.592,六盘水市,黄土坡,,28,,36,19,26,51,,56,56,17,18,8,10,1.3,0.8
2026-01-30T1000,2579A,104.8481,26.5898,六盘水市,民中,,30,30,39,18,25,35,,54,52,31,16,3,5,0.8,0.7
2026-01-30T1000,2580A,104.9541,26.5506,六盘水市,双水,,19,19,37,9,24,55,,59,59,9,12,3,5,0.9,0.8
2026-01-30T1000,4151A,104.8899,26.5685,六盘水市,钟山大道中段564号,,30,30,45,12,26,48,,52,52,14,12,5,7,0.9,0.9
2026-01-30T1000,2336A,117.022,25.1031,龙岩市,龙岩市监测站,,18,14,35,12,29,56,,63,59,19,21,7,9,0.7,0.7
2026-01-30T1000,2337A,117.0257,25.0662,龙岩市,闽西职业技术学院,,18,13,35,9,25,55,,58,54,16,18,4,8,0.8,0.8
2026-01-30T1000,2338A,117.0195,25.0306,龙岩市,龙岩学院,,17,12,36,3,23,53,,53,50,19,16,5,7,/,/
2026-01-30T1000,2885A,104.9344,33.3827,陇南市,滨江中学,细颗粒物(PM2.5),75,91,75,55,37,55,,61,59,18,21,4,5,1.0,1.1
2026-01-30T1000,3247A,104.9551,33.3709,陇南市,市总工会,颗粒物(PM10),79,108,63,52,34,54,,58,56,16,20,7,8,1.0,1
2026-01-30T1000,2488A,111.9984,27.7346,娄底市,市监测站,,11,11,44,3,29,29,,35,35,19,19,5,7,0.8,0.8
2026-01-30T1000,2491A,111.9888,27.7035,娄底市,市政府,,14,6,15,3,20,24,,27,27,28,21,3,5,0.5,1.1
2026-01-30T1000,4127A,111.9812,27.7591,娄底市,涟钢职大,,20,14,46,14,25,28,,32,32,18,16,3,3,0.7,0.7
2026-01-30T1000,4128A,112.0303,27.7457,娄底市,娄底体校,,19,19,44,3,26,28,,32,32,13,15,2,2,0.6,0.7
2026-01-30T1000,1894A,105.4427,28.9063,泸州市,小市上码头,,45,41,73,31,55,13,,27,24,16,15,5,5,1.0,1.1
2026-01-30T1000,1895A,105.4241,28.8573,泸州市,兰田宪桥,,41,41,79,24,51,14,,27,23,20,17,7,7,0.8,0.9
2026-01-30T1000,1896A,105.4378,28.8833,泸州市,市环监站,,46,46,80,32,53,12,,28,24,22,22,9,10,1.0,1.1
2026-01-30T1000,4272A,105.3689,28.7783,泸州市,纳溪中医医院,细颗粒物(PM2.5),59,65,76,42,66,14,,20,17,13,15,7,8,0.9,1
2026-01-30T1000,2183A,111.1447,37.5212,吕梁市,环保局,细颗粒物(PM2.5),210,208,191,160,132,25,,18,16,39,48,7,11,1.3,1.2
2026-01-30T1000,2185A,111.1285,37.5338,吕梁市,自来水公司,细颗粒物(PM2.5),202,213,198,152,130,18,,22,18,42,42,6,11,1.5,1.5
2026-01-30T1000,2867A,111.1225,37.5093,吕梁市,马茂庄小学,细颗粒物(PM2.5),204,219,230,154,135,20,,21,16,43,47,7,13,1.2,1.3
2026-01-30T1000,1812A,112.3934,34.6517,洛阳市,市委党校,细颗粒物(PM2.5),138,,168,105,150,34,,44,42,28,33,7,7,1.1,1.2
2026-01-30T1000,1815A,112.494,34.6883,洛阳市,河南林校,细颗粒物(PM2.5),139,108,168,106,146,33,,36,36,27,32,7,7,1.1,1.2
2026-01-30T1000,1816A,112.3843,34.623,洛阳市,开发区管委会,细颗粒物(PM2.5),139,122,204,106,157,42,,46,46,22,30,7,8,1.0,1.2
2026-01-30T1000,1817A,112.4263,34.6249,洛阳市,市委新办公区,细颗粒物(PM2.5),148,124,202,113,165,34,,38,38,31,35,8,7,0.9,1
2026-01-30T1000,3340A,112.6005,34.6323,洛阳市,伊滨,细颗粒物(PM2.5),123,112,193,93,140,34,,37,37,22,31,7,7,0.9,1
2026-01-30T1000,3341A,112.495,34.6338,洛阳市,中移产业园,细颗粒物(PM2.5),127,105,167,96,135,28,,31,31,28,35,6,7,1.1,1.2
2026-01-30T1000,3593A,112.5736,34.8993,洛阳市,吉利监测站,细颗粒物(PM2.5),153,125,186,117,160,34,,39,36,23,29,7,7,1.1,1.2
2026-01-30T1000,3635A,112.3678,34.6623,洛阳市,河科大西苑校区,细颗粒物(PM2.5),127,114,181,96,131,37,,48,46,32,34,7,7,1.0,1.1
2026-01-30T1000,3636A,112.4387,34.678,洛阳市,英才小学,细颗粒物(PM2.5),135,111,180,103,145,39,,43,43,30,34,7,7,1.0,1.2
2026-01-30T1000,4214A,112.460027,34.694929,洛阳市,春都路1号院,细颗粒物(PM2.5),102,126,194,76,125,,,38,38,24,29,7,6,,1
2026-01-30T1000,2399A,114.051,33.5721,漯河市,三五一五工厂,细颗粒物(PM2.5),105,108,153,79,113,18,,17,17,22,26,4,4,0.8,0.8
2026-01-30T1000,2400A,114.0055,33.5698,漯河市,漯河大学,细颗粒物(PM2.5),112,86,127,84,104,18,,16,16,21,27,4,5,0.7,0.8
2026-01-30T1000,2401A,114.0134,33.5826,漯河市,市水利局,,,,171,,138,,,,,,30,,4,,1.2
2026-01-30T1000,2402A,114.0261,33.5697,漯河市,市广电局,细颗粒物(PM2.5),107,93,135,80,114,16,,15,15,18,22,5,5,0.5,0.6
2026-01-30T1000,3478A,113.9691,33.568,漯河市,市图书馆,细颗粒物(PM2.5),120,111,154,91,114,18,,17,17,20,23,5,5,1.0,1.1
2026-01-30T1000,4250A,114.089259,33.588274,漯河市,韶山路11号,细颗粒物(PM2.5),118,106,150,89,115,,,14,14,26,29,6,7,0.7,0.8
2026-01-30T1000,1798A,118.5084,31.6838,马鞍山市,湖东路四小,,24,18,45,16,26,75,,72,72,16,22,2,3,0.4,0.4
2026-01-30T1000,1799A,118.5019,31.6449,马鞍山市,开发区,,25,,48,15,25,77,,74,74,15,23,3,4,0.4,0.4
2026-01-30T1000,3633A,118.4914,31.681,马鞍山市,雨山,,24,20,48,16,25,76,,74,74,15,22,2,3,0.8,0.8
2026-01-30T1000,4191A,118.527362,31.722269,马鞍山市,慈湖高新区,,25,19,43,15,25,79,,76,76,15,22,3,4,0.5,0.6
2026-01-30T1000,1686A,111.0285,21.469,茂名市,电白南海,,46,46,48,25,20,58,,61,54,11,7,14,11,0.9,0.8
2026-01-30T1000,1687A,110.9294,21.6533,茂名市,茂石化七小,颗粒物(PM10),59,68,44,21,17,63,,75,70,20,13,5,6,0.6,0.6
2026-01-30T1000,1688A,110.9108,21.6688,茂名市,健康路,,46,46,37,19,17,75,,84,77,18,12,9,8,0.8,0.8
2026-01-30T1000,1689A,110.8592,21.6826,茂名市,高岭,颗粒物(PM10),68,85,70,35,23,52,,63,52,24,17,21,17,/,/
2026-01-30T1000,3450A,111.0101,21.5165,茂名市,电白水东,,36,36,40,19,22,65,,71,66,22,12,9,8,/,/
2026-01-30T1000,2540A,103.8414,30.0871,眉山市,气象局,细颗粒物(PM2.5),87,97,147,64,73,10,,12,8,36,34,15,15,0.9,0.7
2026-01-30T1000,3148A,103.829,30.0563,眉山市,区人社局,细颗粒物(PM2.5),63,73,136,45,70,12,,11,10,36,34,9,10,0.9,1
2026-01-30T1000,4148A,103.8836,30.0695,眉山市,眉职院,颗粒物(PM10),60,70,152,41,68,16,,9,8,24,30,2,2,0.9,0.9
2026-01-30T1000,1690A,116.1248,24.3307,梅州市,梅江月梅,,20,20,40,13,30,57,,54,52,14,18,/,/,/,/
2026-01-30T1000,1691A,116.0798,24.2719,梅州市,梅县新城,,26,24,44,18,32,51,,51,51,21,25,7,8,0.6,0.6
2026-01-30T1000,3315A,116.1234,24.2994,梅州市,梅龙,,28,22,43,19,31,46,,54,52,17,18,7,9,0.7,0.7
2026-01-30T1000,1878A,104.7775,31.4741,绵阳市,富乐山,,32,,52,22,30,43,,37,36,13,13,8,8,0.7,0.6
2026-01-30T1000,1880A,104.6698,31.4668,绵阳市,高新区自来水公司,,46,46,55,30,26,37,,34,31,26,22,8,8,1.0,0.9
2026-01-30T1000,3491A,104.6899,31.5324,绵阳市,西科大附属小学,,41,41,51,22,27,28,,23,22,30,26,8,8,0.8,0.7
2026-01-30T1000,3492A,104.5647,31.5343,绵阳市,安州区旅游局,,31,31,58,20,27,29,,30,29,21,19,8,10,1.1,1
2026-01-30T1000,4146A,104.7092,31.4972,绵阳市,科技城新区公安局,,35,30,63,24,23,34,,34,32,36,26,6,6,0.8,0.8
2026-01-30T1000,4226A,104.765114,31.453094,绵阳市,绵阳市气象局,,27,27,45,12,26,36,,32,30,21,18,7,7,0.8,0.7
2026-01-30T1000,1784A,129.61,44.561,牡丹江市,环保大楼,,42,42,36,26,20,56,,54,52,16,14,5,3,0.4,0.3
2026-01-30T1000,1787A,129.6364,44.6075,牡丹江市,机车工厂,,,47,39,19,21,,,49,46,18,16,7,7,0.5,0.4
2026-01-30T1000,1788A,129.6386,44.5462,牡丹江市,第一中学,,29,29,29,19,18,61,,57,57,11,13,4,4,0.3,0.3
2026-01-30T1000,4287A,129.5992,44.5964,牡丹江市,东晓云街98号,,44,44,40,29,24,49,,49,42,24,16,6,4,0.4,0.3
2026-01-30T1000,2531A,105.0703,29.61,内江市,市监测站,,33,33,51,22,39,25,,31,28,21,18,4,6,0.9,0.9
2026-01-30T1000,2533A,105.0657,29.5807,内江市,内江二中,,41,41,57,19,35,20,,24,22,22,21,6,6,0.6,0.6
2026-01-30T1000,2534A,105.0407,29.5828,内江市,内江日报社,,31,31,44,20,38,23,,27,25,20,24,4,6,0.8,0.8
2026-01-30T1000,4147A,105.0433,29.6105,内江市,玉峰路西段888号,,36,36,48,21,38,11,,20,17,27,23,3,4,0.8,0.8
2026-01-30T1000,2628A,92.0653,31.4846,那曲市,那曲监测站,,32,29,21,22,23,58,,54,54,13,12,5,7,0.6,0.8
2026-01-30T1000,4243A,92.0515,31.4787,那曲市,那曲市委宣传部,,23,22,14,8,6,73,,63,63,7,4,3,3,0.4,0.4
2026-01-30T1000,1291A,115.8887,28.7006,南昌市,省林业公司,,18,12,49,12,43,30,,31,31,20,32,3,4,0.4,0.4
2026-01-30T1000,1292A,115.813,28.7443,南昌市,林科所,,10,,53,3,34,31,,31,31,16,25,3,4,0.6,0.7
2026-01-30T1000,1294A,115.8518,28.687,南昌市,建工学校,,13,13,61,9,41,27,,27,27,24,37,7,7,0.9,0.9
2026-01-30T1000,1295A,115.8926,28.6425,南昌市,象湖,,30,30,57,12,49,24,,26,26,19,26,8,8,0.8,0.9
2026-01-30T1000,3046A,115.9084,28.6062,南昌市,机电学校,,25,25,71,15,50,30,,28,28,20,32,4,5,0.5,0.6
2026-01-30T1000,3690A,115.9718,28.7032,南昌市,外国语学校,,27,27,64,13,50,27,,26,26,22,30,12,12,0.8,0.8
2026-01-30T1000,4106A,115.7923,28.6873,南昌市,工业二路,,20,20,67,6,40,40,,38,38,13,23,3,4,0.6,0.7
2026-01-30T1000,4192A,115.931587,28.686774,南昌市,南京东路235号,,,25,62,20,46,,,28,28,15,25,5,6,0.5,0.6
2026-01-30T1000,1906A,106.0791,30.8022,南充市,南充市委,,18,18,42,12,26,17,,23,21,26,20,4,4,0.8,0.7
2026-01-30T1000,1907A,106.1038,30.8215,南充市,南充炼油厂,,21,21,48,9,28,26,,29,28,14,14,5,5,0.8,0.8
2026-01-30T1000,4227A,106.108336,30.788436,南充市,梨树横街98号,,27,27,41,18,28,24,,33,31,21,16,5,5,0.9,0.8
2026-01-30T1000,4304A,106.1172,30.843,南充市,清泉寺北路188号,,15,13,33,10,26,31,,36,34,12,11,6,6,0.6,0.6
2026-01-30T1000,4305A,106.067,30.7616,南充市,同庆路1号,,23,23,44,11,29,19,,26,23,28,28,6,6,0.8,0.8
2026-01-30T1000,1151A,118.8033,32.1085,南京市,迈皋桥,,20,16,37,14,23,59,,71,69,27,24,5,6,0.3,0.4
2026-01-30T1000,1152A,118.7487,32.057,南京市,草场门,,20,,38,14,22,37,,44,43,30,26,2,2,0.6,0.7
2026-01-30T1000,1154A,118.770105,32.004342,南京市,中华门,,24,7,40,3,18,74,,78,78,13,15,3,4,0.4,0.5
2026-01-30T1000,1155A,118.8059,32.0329,南京市,瑞金路,,25,,39,6,19,78,,86,86,10,12,4,4,0.9,0.8
2026-01-30T1000,1156A,118.7946,32.0774,南京市,玄武湖,,23,23,41,13,22,54,,67,64,34,34,4,4,0.5,0.5
2026-01-30T1000,1157A,118.6415,32.0964,南京市,浦口,,22,22,50,9,20,63,,71,71,19,26,4,5,0.4,0.3
2026-01-30T1000,1158A,118.730129,32.000956,南京市,奥体中心,,23,14,45,6,19,73,,81,81,16,16,3,4,0.4,0.4
2026-01-30T1000,1159A,118.9072,32.1047,南京市,仙林大学城,,20,19,44,12,19,62,,77,75,23,20,4,6,0.5,0.5
2026-01-30T1000,3422A,118.8443,31.919,南京市,江宁彩虹桥,,25,21,47,12,23,79,,84,84,23,25,3,4,0.6,0.7
2026-01-30T1000,3427A,118.8497,32.3599,南京市,六合雄州,,27,27,44,15,25,73,,79,78,10,17,10,9,0.5,0.5
2026-01-30T1000,4086A,118.7641,32.0841,南京市,新模范马路66号,,26,17,45,8,22,83,,96,94,5,6,4,4,0.7,0.7
2026-01-30T1000,4249A,118.8707617,31.34017673,南京市,汶溪路181号,,23,18,45,6,14,71,,66,66,22,24,4,5,0.7,0.6
2026-01-30T1000,4312A,119.019,31.6512,南京市,中山西路1号,,36,36,37,12,15,62,,67,67,22,22,3,2,0.8,0.7
2026-01-30T1000,1401A,108.3098,22.788,南宁市,二十一中,,43,41,41,30,25,50,,62,57,16,16,3,4,0.6,0.6
2026-01-30T1000,1402A,108.3135,22.8529,南宁市,北湖,,50,50,49,34,31,50,,64,55,23,21,2,3,0.8,0.8
2026-01-30T1000,1403A,108.3205,22.8222,南宁市,市监测站,,45,37,43,31,25,48,,65,59,20,17,6,6,0.7,0.7
2026-01-30T1000,1404A,108.3828,22.8038,南宁市,大自然花园,,44,44,48,26,22,60,,72,69,13,10,6,6,0.6,0.6
2026-01-30T1000,1406A,108.2397,22.8462,南宁市,区农职院,,48,48,48,25,26,51,,63,57,23,22,8,8,0.7,0.6
2026-01-30T1000,1407A,108.3285,22.7356,南宁市,英华嘉园,细颗粒物(PM2.5),53,51,47,37,25,43,,58,52,22,23,3,3,0.6,0.5
2026-01-30T1000,3401A,108.4829,22.762,南宁市,红星社区,,39,34,44,27,23,64,,67,64,17,15,4,5,0.8,0.7
2026-01-30T1000,4132A,108.2927,23.1477,南宁市,起凤路9号,颗粒物(PM10),51,52,43,34,28,58,,78,73,18,14,3,3,0.4,0.4
2026-01-30T1000,4221A,108.2177,22.7774,南宁市,乐贤路16号,颗粒物(PM10),53,55,43,30,23,38,,52,45,28,21,3,3,0.8,0.7
2026-01-30T1000,2332A,118.1682,26.6371,南平市,南平市监测站,,22,22,24,14,15,59,,62,59,9,5,6,4,0.6,0.5
2026-01-30T1000,2334A,118.1757,26.6276,南平市,南平七中,,24,24,28,13,16,58,,60,56,11,7,4,2,0.5,0.5
2026-01-30T1000,1168A,120.9056,31.9669,南通市,狼山街道,,48,44,48,33,24,78,,84,82,12,12,3,3,0.5,0.4
2026-01-30T1000,1170A,120.8635,32.0231,南通市,城中,颗粒物(PM10),52,54,51,34,23,70,,79,77,19,17,4,4,0.7,0.6
2026-01-30T1000,1171A,120.9376,31.9301,南通市,星湖花园,,50,50,47,35,24,77,,84,82,18,16,4,4,0.8,0.5
2026-01-30T1000,1172A,120.8053,32.046,南通市,紫琅学院,颗粒物(PM10),51,52,51,27,19,72,,80,78,19,16,3,3,0.5,0.5
2026-01-30T1000,3291A,121.0631,32.0644,南通市,通州监测站,,44,44,43,29,22,86,,89,88,15,17,2,3,0.5,0.5
2026-01-30T1000,3432A,120.9348,31.9874,南通市,环境教育馆,,49,48,47,34,25,77,,83,80,12,12,3,4,0.5,0.5
2026-01-30T1000,4091A,120.8692,31.9885,南通市,洪江路,,48,47,40,33,25,74,,80,78,16,16,3,4,0.5,0.4
2026-01-30T1000,2404A,112.5338,33.0086,南阳市,瓦房庄,细颗粒物(PM2.5),84,91,102,62,84,54,,50,50,14,19,3,3,0.9,0.9
2026-01-30T1000,2405A,112.5002,32.9734,南阳市,汉画馆,细颗粒物(PM2.5),123,93,106,93,102,53,,50,50,18,23,6,6,0.9,0.9
2026-01-30T1000,2406A,112.5778,33.0144,南阳市,气象站,,,,119,,93,,,48,48,16,21,4,4,0.8,1
2026-01-30T1000,2407A,112.548,32.9687,南阳市,理工学院,细颗粒物(PM2.5),97,85,100,72,83,50,,47,47,19,23,4,4,0.7,0.9
2026-01-30T1000,4008A,112.5233,32.9921,南阳市,卧龙区政府,细颗粒物(PM2.5),105,96,126,79,90,51,,47,47,17,23,5,5,0.8,0.9
2026-01-30T1000,1234A,121.8352,29.9111,宁波市,区环保大楼,颗粒物(PM10),56,62,51,27,19,63,,64,59,29,29,6,6,0.8,0.5
2026-01-30T1000,1235A,121.5595,29.8208,宁波市,万里学院,颗粒物(PM10),66,82,71,30,22,14,,56,43,78,41,3,3,0.9,0.6
2026-01-30T1000,1236A,121.713,29.9564,宁波市,龙赛医院,颗粒物(PM10),56,62,50,26,17,61,,74,69,36,27,4,5,0.5,0.5
2026-01-30T1000,1240A,121.5855,29.8635,宁波市,太古小学,颗粒物(PM10),60,70,46,35,19,20,,75,61,61,27,3,2,0.7,0.5
2026-01-30T1000,1241A,121.5239,29.8673,宁波市,市环境监测中心,颗粒物(PM10),54,57,48,35,20,9,,64,51,67,30,6,6,0.9,0.5
2026-01-30T1000,2871A,121.6156,29.9015,宁波市,万里国际学校,颗粒物(PM10),54,58,44,35,21,11,,64,47,73,31,4,3,0.5,0.2
2026-01-30T1000,3710A,121.5593,29.8976,宁波市,白沙活动中心,,49,49,41,32,21,11,,63,48,63,30,4,4,0.4,0.2
2026-01-30T1000,4095A,121.8962,29.7529,宁波市,中科路88号,,47,47,40,24,17,76,,82,81,22,20,5,5,0.3,0.3
2026-01-30T1000,2341A,119.5387,26.6611,宁德市,宁德市监测站,,36,34,35,25,18,19,,31,26,29,23,4,4,0.8,0.6
2026-01-30T1000,3209A,119.5231,26.6562,宁德市,宁德一中,,39,36,33,27,19,26,,37,33,20,15,2,4,0.5,0.5
2026-01-30T1000,2618A,98.859,25.8541,怒江傈僳族自治州,州监测站,细颗粒物(PM2.5),55,52,41,39,27,32,,33,31,14,14,6,6,0.4,0.4
2026-01-30T1000,2619A,98.8607,25.8168,怒江傈僳族自治州,泸水一中,,39,34,37,27,26,15,,26,23,26,21,4,8,0.6,0.6
2026-01-30T1000,1888A,101.6891,26.571,攀枝花市,弄弄坪,颗粒物(PM10),93,136,84,42,31,13,,16,10,60,42,166,75,5.2,3
2026-01-30T1000,1889A,101.577,26.5914,攀枝花市,河门口,颗粒物(PM10),57,63,48,30,21,19,,19,16,38,23,26,18,1.1,0.7
2026-01-30T1000,1891A,101.7365,26.4986,攀枝花市,仁和,颗粒物(PM10),53,55,45,36,32,26,,39,34,34,24,9,15,0.8,1.3
2026-01-30T1000,2835A,101.7222,26.567,攀枝花市,四十中小,,46,46,55,24,21,8,,40,30,63,32,29,16,2.0,1
2026-01-30T1000,1604A,122.0303,41.1489,盘锦市,开发区,,,18,50,16,37,,,25,25,20,27,,6,1.0,1.1
2026-01-30T1000,1605A,122.0486,41.0883,盘锦市,兴隆台,颗粒物(PM10),51,51,55,22,40,53,,20,20,23,36,7,8,0.5,0.8
2026-01-30T1000,1606A,121.8297,41.1026,盘锦市,新生街道,细颗粒物(PM2.5),54,,55,38,39,59,,20,20,26,40,10,18,0.6,0.7
2026-01-30T1000,1832A,113.3257,33.7423,平顶山市,新华旅馆,细颗粒物(PM2.5),109,111,151,82,113,30,,29,28,24,28,5,5,0.9,1
2026-01-30T1000,1833A,113.2917,33.737,平顶山市,规划设计院,细颗粒物(PM2.5),108,99,159,81,111,35,,30,30,16,22,5,5,0.7,0.8
2026-01-30T1000,1834A,113.182,33.7738,平顶山市,平顶山工学院,细颗粒物(PM2.5),107,92,147,80,116,32,,34,33,18,24,6,6,0.7,0.9
2026-01-30T1000,3594A,112.8736,33.9068,平顶山市,石龙区,细颗粒物(PM2.5),134,,143,102,118,47,,48,47,12,20,5,5,1.1,1.1
2026-01-30T1000,4116A,113.284,33.7139,平顶山市,姚电大道23号,细颗粒物(PM2.5),118,108,164,89,120,37,,31,31,21,28,5,6,0.8,0.8
2026-01-30T1000,2656A,106.6633,35.5338,平凉市,聚贤嘉苑,颗粒物(PM10),88,126,155,46,60,40,,50,47,26,25,9,9,0.9,0.9
2026-01-30T1000,2657A,106.7021,35.5307,平凉市,博物馆,颗粒物(PM10),91,131,156,62,74,40,,55,51,30,28,10,13,0.8,0.8
2026-01-30T1000,2348A,113.8384,27.6436,萍乡市,中医院,,41,41,83,23,51,8,,8,6,28,28,5,7,1.2,1
2026-01-30T1000,2350A,113.8677,27.6438,萍乡市,市环保局,,38,38,68,17,52,10,,10,8,23,23,8,13,1.0,1
2026-01-30T1000,2351A,113.8663,27.6202,萍乡市,安源区政府,,,,88,16,52,11,,7,7,14,23,3,8,0.7,1.1
2026-01-30T1000,4107A,113.8686,27.6668,萍乡市,联洪村委会,,42,42,72,25,49,13,,13,12,30,24,6,5,1.4,0.8
2026-01-30T1000,2319A,119.0142,25.4324,莆田市,荔城区仓后路,,23,23,37,12,10,45,,66,59,18,11,/,/,/,/
2026-01-30T1000,2320A,119.0016,25.4553,莆田市,莆田市监测站,,17,9,29,3,8,53,,72,67,15,8,3,3,0.4,0.4
2026-01-30T1000,2321A,119.112,25.4561,莆田市,涵江区六中,,18,18,31,8,8,43,,67,60,22,10,/,/,0.5,0.5
2026-01-30T1000,2322A,119.1014,25.3215,莆田市,秀屿区政府,,36,36,36,23,14,40,,65,56,23,11,2,2,0.6,0.5
2026-01-30T1000,2392A,115.0312,35.7636,濮阳市,环保局,细颗粒物(PM2.5),89,66,89,66,63,28,,19,19,19,27,5,5,1.3,1
2026-01-30T1000,3021A,115,35.7667,濮阳市,濮水河管理处,细颗粒物(PM2.5),85,84,103,63,70,26,,15,15,22,27,5,5,0.9,0.9
2026-01-30T1000,4118A,115.0552,35.7816,濮阳市,中原东路68号,细颗粒物(PM2.5),84,91,110,62,63,25,,16,16,26,32,4,4,1.1,1
2026-01-30T1000,4216A,115.0923632,35.76857718,濮阳市,任丘路479号,细颗粒物(PM2.5),89,90,107,66,68,21,,16,16,31,34,5,5,0.9,0.8
2026-01-30T1000,2601A,100.9801,22.7634,普洱市,市环保局,颗粒物(PM10),57,64,71,33,27,22,,33,29,28,11,4,4,0.6,0.5
2026-01-30T1000,2602A,100.9763,22.8237,普洱市,普洱第二中学,颗粒物(PM10),60,69,57,30,28,18,,10,10,30,23,5,5,0.4,0.3
2026-01-30T1000,3345A,131.0413,45.7795,七台河市,中波台,,35,35,38,19,20,55,,56,54,12,9,13,9,0.5,0.4
2026-01-30T1000,3637A,131.0136,45.7688,七台河市,人民广场,,,40,42,10,18,,,61,58,18,17,8,7,0.5,0.5
2026-01-30T1000,3684A,130.8639,45.8144,七台河市,新建矿广场,,36,36,42,19,19,56,,54,52,11,11,11,6,0.4,0.4
2026-01-30T1000,1779A,123.9307,47.3641,齐齐哈尔市,安居小区,,26,26,25,3,8,62,,57,57,11,12,7,6,0.3,0.3
2026-01-30T1000,1780A,123.9497,47.3389,齐齐哈尔市,中心广场,,20,19,18,14,7,59,,61,60,15,11,5,5,0.5,0.5
2026-01-30T1000,1781A,123.9483,47.3229,齐齐哈尔市,农牧车辆厂,,29,29,23,3,7,57,,59,58,12,8,5,5,0.3,0.3
2026-01-30T1000,1783A,123.9442,47.2994,齐齐哈尔市,市环境监测站,,36,36,27,8,8,63,,64,63,11,10,5,4,0.5,0.5
2026-01-30T1000,3662A,123.6341,47.2079,齐齐哈尔市,富区青少年活动中心,,40,40,34,11,11,65,,61,60,11,12,5,5,0.4,0.4
2026-01-30T1000,2591A,107.9765,26.5724,黔东南苗族侗族自治州,市环境监测站,,15,,38,10,29,25,,33,31,11,12,4,5,0.9,0.9
2026-01-30T1000,2881A,107.8909,26.531,黔东南苗族侗族自治州,凯里学院,,12,,26,8,24,26,,30,28,14,13,2,3,0.9,0.8
2026-01-30T1000,2593A,107.5223,26.2371,黔南布依族苗族自治州,小围寨,,12,,26,8,23,27,,24,24,5,7,5,5,1.0,0.8
2026-01-30T1000,3538A,107.5175,26.2977,黔南布依族苗族自治州,沙坝,,12,12,34,6,26,34,,31,31,9,9,6,4,1.0,0.8
2026-01-30T1000,2589A,104.9022,25.0943,黔西南布依族苗族自治州,场坝街,,45,,31,31,33,26,,38,38,15,11,4,4,0.8,0.7
2026-01-30T1000,2590A,104.8812,25.0994,黔西南布依族苗族自治州,坪东大道,颗粒物(PM10),51,52,43,33,37,28,,29,29,13,16,5,5,0.9,0.8
2026-01-30T1000,2502A,108.6238,21.9667,钦州市,市环保站,颗粒物(PM10),57,63,51,24,22,65,,70,66,16,14,4,3,0.6,0.5
2026-01-30T1000,2503A,108.655,21.9481,钦州市,沙埠小学,颗粒物(PM10),54,57,49,23,19,73,,72,69,14,13,5,4,0.4,0.3
2026-01-30T1000,2504A,108.5989,21.7435,钦州市,港区一小,颗粒物(PM10),55,59,53,26,18,66,,73,69,19,18,2,2,0.6,0.6
2026-01-30T1000,3404A,108.5959,21.9634,钦州市,北职校,,48,48,44,19,21,65,,68,64,16,15,4,3,0.7,0.6
2026-01-30T1000,1046A,119.5247,39.9346,秦皇岛市,建设大厦,细颗粒物(PM2.5),90,123,85,67,54,12,,6,6,47,40,10,11,1.1,0.8
2026-01-30T1000,3132A,119.5979,39.938,秦皇岛市,文明里,"颗粒物(PM10),细颗粒物(PM2.5)",65,80,77,47,48,24,,9,9,50,46,21,14,0.6,0.6
2026-01-30T1000,4066A,119.7458,39.9952,秦皇岛市,南园路157号,,,,66,,46,18,,6,6,66,52,21,13,,0.7
2026-01-30T1000,4067A,119.5131,39.8858,秦皇岛市,翠岛大街1号,细颗粒物(PM2.5),64,73,67,46,43,18,,17,16,63,49,12,13,0.8,0.6
2026-01-30T1000,4198A,119.509013,39.825305,秦皇岛市,北戴河轮滑馆,细颗粒物(PM2.5),65,77,72,47,45,14,,6,6,56,46,7,9,0.8,0.7
2026-01-30T1000,1310A,120.404,36.0625,青岛市,市南区东部子站,,36,36,43,14,26,45,,67,61,32,15,8,8,0.6,0.5
2026-01-30T1000,1311A,120.362344,36.10282,青岛市,四方区子站,颗粒物(PM10),51,51,60,22,38,46,,66,59,25,21,6,5,0.8,0.8
2026-01-30T1000,1312A,120.294373,36.054183,青岛市,市南区西部子站,,31,31,40,18,30,51,,61,56,24,19,6,4,0.6,0.6
2026-01-30T1000,1313A,120.4581,36.0858,青岛市,崂山区子站,,29,29,35,12,20,54,,73,67,28,16,10,9,0.5,0.4
2026-01-30T1000,1315A,120.3945,36.3083,青岛市,城阳区子站,,34,34,46,20,30,66,,66,64,20,20,8,7,0.6,0.6
2026-01-30T1000,3642A,120.3454,36.0735,青岛市,市北区南部,,33,33,49,17,28,38,,62,55,34,19,3,2,0.6,0.5
2026-01-30T1000,3643A,120.3897,36.18,青岛市,李沧区北部,,,51,51,,39,55,,64,59,14,16,,8,0.5,0.6
2026-01-30T1000,4110A,120.5222,36.4089,青岛市,盟旺路653号,,38,38,46,17,26,71,,61,61,12,18,4,2,0.7,0.7
2026-01-30T1000,4290A,120.196923,35.954556,青岛市,珠江路669号,,39,39,41,24,30,37,,45,38,41,24,9,5,0.4,0.4
2026-01-30T1000,4291A,120.0424,35.8656,青岛市,黄岛区人民政府广场,,36,36,50,15,30,52,,66,58,31,21,8,7,0.8,0.8
2026-01-30T1000,1703A,113.0218,23.7086,清远市,凤城街办,细颗粒物(PM2.5),62,62,71,44,51,58,,60,52,43,39,/,/,/,/
2026-01-30T1000,3025A,113.0479,23.6343,清远市,技师学院,颗粒物(PM10),64,78,86,45,51,54,,29,26,46,52,11,7,0.7,0.7
2026-01-30T1000,3318A,112.9898,23.7403,清远市,清新太和,"颗粒物(PM10),细颗粒物(PM2.5)",64,77,62,46,40,54,,55,42,47,34,10,9,0.8,0.7
2026-01-30T1000,3455A,113.076,23.72,清远市,清城东城,颗粒物(PM10),56,61,68,38,42,74,,59,56,28,39,/,/,/,/
2026-01-30T1000,2661A,107.6325,35.7357,庆阳市,庆阳五中,,,,129,,85,53,,45,44,,21,6,4,0.7,0.9
2026-01-30T1000,2662A,107.6361,35.7067,庆阳市,市环保局,颗粒物(PM10),84,118,119,59,76,58,,47,47,16,18,3,4,0.7,0.8
2026-01-30T1000,1916A,103.7897,25.5036,曲靖市,环境监测站,,39,39,34,27,16,59,,65,60,22,11,5,4,0.6,0.4
2026-01-30T1000,1917A,103.8013,25.5357,曲靖市,烟厂办公区,,47,47,35,18,14,59,,66,60,18,10,3,4,0.5,0.3
2026-01-30T1000,3376A,103.7926,25.4651,曲靖市,南苑二区,,41,41,30,23,14,55,,66,61,16,6,4,4,0.5,0.3
2026-01-30T1000,3377A,103.7442,25.5259,曲靖市,曲靖师范学院,颗粒物(PM10),57,63,43,27,23,48,,52,44,28,16,6,4,0.5,0.3
2026-01-30T1000,1264A,118.8694,28.94,衢州市,环保大楼,,42,42,55,20,35,45,,34,30,25,28,/,/,/,/
2026-01-30T1000,1266A,118.8622,28.9809,衢州市,衢州学院,,32,32,50,15,32,57,,43,42,12,23,4,5,0.3,0.5
2026-01-30T1000,4097A,118.9646,28.9832,衢州市,衢州三中,,35,35,56,18,33,51,,30,29,16,26,5,5,0.5,0.7
2026-01-30T1000,1611A,118.5818,24.9116,泉州市,涂山街,,26,24,41,18,16,46,,59,52,13,12,3,3,0.5,0.5
2026-01-30T1000,1612A,118.597,24.8976,泉州市,津头埔,,29,29,41,19,16,41,,56,50,15,13,3,3,0.5,0.4
2026-01-30T1000,1613A,118.6669,24.9422,泉州市,万安,,34,34,44,14,13,36,,56,47,26,15,2,3,0.6,0.6
2026-01-30T1000,4105A,118.6355,24.9148,泉州市,霞新路6号,,34,34,36,20,14,34,,47,38,20,18,/,/,0.5,0.5
2026-01-30T1000,2626A,88.8873,29.2723,日喀则市,日喀则监测站,,23,16,18,8,4,71,,86,82,8,4,5,8,0.4,0.3
2026-01-30T1000,3726A,88.8775,29.2425,日喀则市,林业技术推广中心,,26,8,26,3,7,82,,82,82,4,5,4,6,0.3,0.3
2026-01-30T1000,1659A,119.4711,35.421,日照市,监测站,颗粒物(PM10),52,53,80,22,54,38,,29,29,36,32,9,9,0.8,0.9
2026-01-30T1000,1660A,119.523,35.4216,日照市,市政府广场,,39,39,70,14,47,51,,51,49,31,27,9,8,0.4,0.6
2026-01-30T1000,1661A,119.5511,35.4113,日照市,港务局,,41,41,72,13,46,53,,45,45,29,28,8,7,0.6,0.8
2026-01-30T1000,3507A,119.5326,35.4627,日照市,职业技术学院,,36,36,70,16,47,49,,42,42,32,29,10,8,0.8,0.9
2026-01-30T1000,3604A,119.3267,35.1043,日照市,岚山环保分局,,44,44,87,3,44,72,,74,72,16,23,8,12,0.6,0.9
2026-01-30T1000,1835A,111.1922,34.7752,三门峡市,市政府,细颗粒物(PM2.5),139,109,121,106,141,64,,61,61,20,24,7,6,1.0,1.1
2026-01-30T1000,1836A,111.1588,34.794,三门峡市,开发区,细颗粒物(PM2.5),137,,176,104,138,61,,58,58,,27,6,5,1.0,1
2026-01-30T1000,3039A,111.1911,34.7829,三门峡市,三门峡市第一小学,细颗粒物(PM2.5),134,105,134,102,134,60,,59,59,19,24,5,5,1.0,1
2026-01-30T1000,3598A,111.1031,34.719,三门峡市,富达温泉假日酒店,细颗粒物(PM2.5),138,116,146,105,128,66,,57,57,18,32,4,4,0.8,1
2026-01-30T1000,2324A,117.621,26.2626,三明市,三钢,,35,26,32,24,22,42,,53,46,14,12,7,7,0.7,0.7
2026-01-30T1000,2325A,117.6352,26.2714,三明市,三明二中,,26,,27,18,19,42,,50,44,17,14,5,4,0.8,0.8
2026-01-30T1000,2326A,117.6028,26.2377,三明市,三元区政府,,30,23,29,21,20,44,,52,45,17,15,8,7,0.8,0.8
2026-01-30T1000,1877A,109.4962,18.2682,三亚市,河西子站,,39,39,33,14,14,67,,72,67,13,6,1,3,0.4,0.3
2026-01-30T1000,3540A,109.7348,18.3443,三亚市,君悦子站,,,,37,,16,,,,,,8,,4,,0.5
2026-01-30T1000,4135A,109.1714,18.3739,三亚市,城东小学站,,26,26,21,16,15,40,,36,36,8,10,/,/,/,/
2026-01-30T1000,2624A,91.7592,29.234,山南市,山南监测站,,32,32,14,16,5,59,,72,62,12,6,5,5,0.6,0.5
2026-01-30T1000,2625A,91.7701,29.2436,山南市,山南人民医院,颗粒物(PM10),56,61,18,38,9,39,,76,65,28,5,8,8,0.9,0.5
2026-01-30T1000,1674A,116.6795,23.3666,汕头市,金平子站,,42,42,41,20,17,58,,62,56,22,15,7,6,0.8,0.7
2026-01-30T1000,1675A,116.7248,23.3632,汕头市,龙湖子站,,34,34,39,16,16,63,,60,56,14,13,10,10,/,/
2026-01-30T1000,1676A,116.7257,23.2774,汕头市,濠江子站,,30,30,38,12,14,70,,66,65,13,14,7,7,/,/
2026-01-30T1000,1677A,116.7518,23.4712,汕头市,澄海子站,颗粒物(PM10),57,63,47,27,19,52,,54,49,22,15,10,9,0.7,0.6
2026-01-30T1000,1678A,116.6088,23.2539,汕头市,潮阳子站,,40,40,36,22,17,62,,66,61,15,11,7,6,0.5,0.5
2026-01-30T1000,3444A,116.4539,23.2684,汕头市,潮南峡山,颗粒物(PM10),59,67,41,35,19,50,,65,57,24,13,11,7,0.7,0.6
2026-01-30T1000,3624A,116.4069,23.2533,汕头市,潮南子站,颗粒物(PM10),63,76,48,32,19,42,,57,50,26,17,9,7,/,/
2026-01-30T1000,1693A,115.3653,22.7751,汕尾市,市环保局,,40,40,40,19,20,60,,75,69,20,13,7,8,0.7,0.7
2026-01-30T1000,1695A,115.362,22.7926,汕尾市,新城中学,,43,43,38,16,20,61,,73,66,18,14,6,6,0.6,0.6
2026-01-30T1000,2645A,109.9155,33.8714,商洛市,监测站,细颗粒物(PM2.5),68,,43,49,31,46,,51,51,15,21,4,13,0.9,0.9
2026-01-30T1000,3045A,109.9647,33.8486,商洛市,商州区中学,细颗粒物(PM2.5),67,,29,48,32,39,,40,40,16,23,4,10,1.2,1.1
2026-01-30T1000,2408A,115.6701,34.4283,商丘市,环境监测站,细颗粒物(PM2.5),127,,93,96,77,13,,25,21,28,20,2,2,1.0,0.8
2026-01-30T1000,2409A,115.6458,34.4047,商丘市,粮食局,细颗粒物(PM2.5),134,105,94,102,79,14,,25,22,29,21,2,2,0.7,0.7
2026-01-30T1000,3171A,115.6069,34.4465,商丘市,梁园区档案局,细颗粒物(PM2.5),123,94,87,93,78,11,,20,17,26,20,3,2,0.8,0.6
2026-01-30T1000,4119A,115.6701,34.3767,商丘市,北海东路185号,细颗粒物(PM2.5),127,133,108,96,74,18,,30,28,24,19,2,2,0.8,0.7
2026-01-30T1000,4120A,115.6172,34.3704,商丘市,中山大街3号,细颗粒物(PM2.5),137,128,112,104,78,19,,32,29,28,21,4,5,0.8,0.6
2026-01-30T1000,1141A,121.401,31.2382,上海市,普陀,,45,45,48,26,21,71,,84,80,25,21,5,5,0.5,0.4
2026-01-30T1000,1142A,121.4774,31.2043,上海市,十五厂,,47,47,49,23,19,73,,86,81,31,28,6,7,0.7,0.6
2026-01-30T1000,1143A,121.4673,31.3011,上海市,虹口,颗粒物(PM10),55,59,50,23,20,64,,75,72,23,19,6,6,0.2,0.1
2026-01-30T1000,1147A,121.4253,31.226,上海市,静安监测站,,43,43,46,26,22,74,,88,84,28,20,6,6,0.8,0.5
2026-01-30T1000,1148A,121.7029,31.1905,上海市,浦东川沙,颗粒物(PM10),54,57,50,35,25,76,,81,78,18,17,7,7,0.7,0.6
2026-01-30T1000,1149A,121.5339,31.229,上海市,浦东新区监测站,颗粒物(PM10),51,51,46,31,23,75,,81,80,10,8,5,5,0.7,0.5
2026-01-30T1000,1150A,121.5776,31.2038,上海市,浦东张江,颗粒物(PM10),54,57,50,32,24,79,,88,84,20,17,6,6,0.4,0.4
2026-01-30T1000,3265A,121.4242,31.3303,上海市,宝山庙行,颗粒物(PM10),53,56,50,24,20,57,,70,66,26,18,8,8,0.5,0.4
2026-01-30T1000,3266A,121.8789,31.4662,上海市,崇明上实东滩,,50,50,47,31,25,88,,92,89,5,5,4,4,0,0
2026-01-30T1000,3268A,121.316,31.2839,上海市,嘉定南翔,,48,48,46,22,16,68,,81,77,26,19,3,3,0.6,0.4
2026-01-30T1000,3269A,121.3357,30.7455,上海市,金山新城,,43,41,43,30,24,64,,87,80,30,19,7,8,0.7,0.5
2026-01-30T1000,3270A,121.4996,31.0741,上海市,闵行浦江,,43,43,47,27,23,66,,80,76,22,16,5,6,0.6,0.5
2026-01-30T1000,3271A,121.2886,31.1663,上海市,青浦徐泾,,36,36,47,23,23,68,,91,84,31,22,4,4,0.5,0.4
2026-01-30T1000,3272A,121.2193,31.0382,上海市,松江图书馆,,33,33,47,23,22,67,,80,76,32,22,5,6,0.4,0.3
2026-01-30T1000,3273A,121.3904,31.206,上海市,长宁仙霞,,36,36,47,19,17,72,,86,81,16,12,6,6,0,0
2026-01-30T1000,3274A,121.7964,31.0507,上海市,浦东惠南,颗粒物(PM10),51,51,50,25,20,74,,82,78,22,19,4,4,0.7,0.5
2026-01-30T1000,3544A,121.4891,30.925,上海市,奉贤南桥新城,,42,41,48,29,25,65,,78,74,25,16,3,3,0.6,0.5
2026-01-30T1000,4183A,121.417401,31.16637,上海市,冠生园路458号,,42,42,45,29,24,68,,84,77,27,22,4,4,0.4,0.3
2026-01-30T1000,4205A,121.541914,31.268301,上海市,宁武路151号,颗粒物(PM10),54,58,58,30,22,66,,77,75,32,28,5,5,0.5,0.4
2026-01-30T1000,2382A,117.9758,28.4439,上饶市,市监测站,,50,50,70,27,47,50,,42,42,21,25,5,8,/,/
2026-01-30T1000,2383A,117.9521,28.4637,上饶市,凤凰光学,颗粒物(PM10),53,56,69,19,39,35,,29,29,30,33,14,12,0.8,0.9
2026-01-30T1000,3685A,117.897,28.4316,上饶市,双创科技城,颗粒物(PM10),51,52,64,19,37,46,,43,43,33,35,6,7,0.8,0.9
2026-01-30T1000,4211A,118.190438,28.444845,上饶市,裕丰大道,,43,43,66,20,35,47,,39,39,30,33,13,12,0.8,0.8
2026-01-30T1000,1669A,113.5821,24.7733,韶关市,市八中,细颗粒物(PM2.5),82,85,69,60,43,46,,18,18,38,44,13,12,1.1,1
2026-01-30T1000,1671A,113.5916,24.7973,韶关市,园林处,细颗粒物(PM2.5),79,60,50,58,43,44,,20,20,34,40,13,12,/,/
2026-01-30T1000,1673A,113.5971,24.6864,韶关市,曲江监测站,细颗粒物(PM2.5),79,84,64,58,41,53,,20,20,40,43,19,15,0.9,1
2026-01-30T1000,2809A,113.6668,24.7756,韶关市,大学路288号,细颗粒物(PM2.5),73,62,47,53,33,47,,15,15,34,30,22,8,/,/
2026-01-30T1000,3622A,113.5556,24.8082,韶关市,碧湖山庄,细颗粒物(PM2.5),74,89,70,54,46,46,,32,31,28,29,12,8,1.0,0.9
2026-01-30T1000,2464A,111.5277,27.2442,邵阳市,市化工厂,,,8,58,6,43,27,,22,22,12,15,,,0.8,1
2026-01-30T1000,2466A,111.4327,27.2276,邵阳市,市环保局,,12,10,44,8,36,32,,28,28,16,18,7,7,1.0,1.2
2026-01-30T1000,4218A,111.446,27.2472,邵阳市,北塔二期4-26地块,,16,,38,11,40,29,,26,26,10,13,6,6,1.0,1.1
2026-01-30T1000,4219A,111.4739,27.2282,邵阳市,邵水西路287号,,12,8,45,3,38,37,,29,29,12,15,7,7,1.0,1.2
2026-01-30T1000,1247A,120.6053,29.9927,绍兴市,城东开发委,颗粒物(PM10),52,54,41,26,18,35,,62,55,46,24,8,8,0.6,0.5
2026-01-30T1000,2921A,120.5482,30.0003,绍兴市,树下王站,,48,48,37,30,19,43,,64,58,35,21,6,6,0.3,0.3
2026-01-30T1000,3408A,120.5685,29.936,绍兴市,绍兴中专,,41,41,36,20,16,52,,64,61,16,15,6,7,0.5,0.5
2026-01-30T1000,3409A,120.4905,30.086,绍兴市,柯桥区政府,,47,47,43,29,23,39,,59,56,54,39,5,5,0.8,0.6
2026-01-30T1000,3410A,120.8751,30.0249,绍兴市,重华小学,颗粒物(PM10),56,61,38,32,20,42,,72,65,47,27,7,7,0.4,0.3
2026-01-30T1000,3411A,120.837,30.0137,绍兴市,上虞中学,,,,36,,17,,,,,,21,,8,,0.5
2026-01-30T1000,3560A,120.4715,30.0414,绍兴市,柯桥妇保,颗粒物(PM10),54,58,41,31,20,46,,62,57,36,27,6,6,0.5,0.4
2026-01-30T1000,3658A,120.6156,30.0762,绍兴市,袍江中学,颗粒物(PM10),53,56,51,32,26,44,,57,56,41,33,6,6,0.5,0.3
2026-01-30T1000,1356A,114.0948,22.5506,深圳市,通心岭子站,细颗粒物(PM2.5),54,53,35,38,21,48,,72,59,23,13,6,6,0.8,0.7
2026-01-30T1000,1357A,114.1153,22.5713,深圳市,洪湖,颗粒物(PM10),53,56,38,35,21,48,,64,54,27,20,5,5,1.0,1
2026-01-30T1000,1358A,113.9823,22.5398,深圳市,华侨城,,43,43,34,28,20,51,,69,58,27,20,/,/,/,/
2026-01-30T1000,1359A,113.9181,22.517,深圳市,南海子站,颗粒物(PM10),53,56,37,32,22,32,,72,58,44,22,6,6,1.0,0.9
2026-01-30T1000,1360A,114.2345,22.565,深圳市,盐田,,45,45,34,19,19,57,,52,47,30,32,8,8,0.6,0.7
2026-01-30T1000,1363A,114.4911,22.5381,深圳市,南澳,,42,42,33,23,17,72,,91,84,12,10,/,/,/,/
