timepoint,stationcode,longitude,latitude,area,positionname,primarypollutant,aqi,pm10,pm10_24h,pm2_5,pm2_5_24h,o3,o3_24h,o3_8h,o3_8h_24h,no2,no2_24h,so2,so2_24h,co,co_24h
2025-08-15T2100,2566A,102.1879,31.914,阿坝藏族羌族自治州,州农科所,,22,22,15,9,9,56,,74,74,6,6,15,16,0,0.2
2025-08-15T2100,2568A,102.2502,31.8896,阿坝藏族羌族自治州,马师校,,35,35,15,20,15,47,,83,81,12,6,7,7,0.6,0.6
2025-08-15T2100,3994A,102.2165,31.9024,阿坝藏族羌族自治州,马尔康中学西区,,24,24,15,15,12,64,,89,89,8,4,8,8,0.5,0.6
2025-08-15T2100,2695A,80.292,41.1694,阿克苏地区,电视台,,,23,45,19,23,101,,100,85,4,5,,3,0.4,0.6
2025-08-15T2100,2696A,80.2613,41.1551,阿克苏地区,艺术中心,,34,,45,19,29,106,,99,92,4,8,4,4,0.5,0.5
2025-08-15T2100,2204A,105.6467,38.8363,阿拉善盟,西城区西花园,,46,23,29,17,14,146,,144,144,9,13,8,9,0.8,0.8
2025-08-15T2100,2205A,105.6985,38.8411,阿拉善盟,蒙二幼,,43,40,33,18,14,136,,138,138,4,5,11,11,0.6,0.6
2025-08-15T2100,2206A,105.724,38.8516,阿拉善盟,环保局新楼,,45,28,28,14,13,143,,140,140,5,5,10,10,0.5,0.5
2025-08-15T2100,2708A,88.1264,47.8517,阿勒泰地区,市站,,27,18,25,17,6,86,,90,88,11,17,2,3,0.3,0.3
2025-08-15T2100,2630A,80.1161,32.5,阿里地区,阿里监测站,,,,8,3,3,101,,109,107,,8,7,7,0.2,0.2
2025-08-15T2100,3192A,80.0903,32.5028,阿里地区,阿里藏医院,,,,,,,,,,,,,,,,
2025-08-15T2100,2642A,109.0318,32.6537,安康市,香溪洞,,15,13,17,7,10,47,,82,63,4,4,6,7,0.4,0.4
2025-08-15T2100,2644A,109.0072,32.6975,安康市,汉滨区检察院,,12,,16,7,11,37,,69,56,5,6,4,8,0.4,0.5
2025-08-15T2100,4054A,109.0325,32.6913,安康市,市邮政管理局,,16,13,20,11,12,37,,64,51,5,7,4,7,0.5,0.5
2025-08-15T2100,2291A,117.0809,30.5177,安庆市,环科院,,25,18,18,6,7,80,,102,92,19,13,5,6,0.5,0.6
2025-08-15T2100,2292A,117.0331,30.5119,安庆市,马山宾馆,,22,10,20,8,5,68,,83,77,15,13,4,6,0.4,0.6
2025-08-15T2100,2294A,116.9896,30.6145,安庆市,安庆大学,,20,,24,9,7,63,,,,14,17,3,3,0.5,0.5
2025-08-15T2100,3173A,117.0598,30.5351,安庆市,市人大,,,21,18,9,6,,,102,100,29,14,4,4,0.5,0.6
2025-08-15T2100,3122A,105.9606,26.2611,安顺市,伍家关,,,,16,6,13,71,,80,73,5,8,4,5,0.6,0.6
2025-08-15T2100,3123A,105.9408,26.2431,安顺市,凤凰山,,22,10,18,3,10,68,,77,72,4,7,2,5,0.5,0.5
2025-08-15T2100,3124A,105.9439,26.2564,安顺市,金钟山,,22,11,18,8,14,70,,81,74,4,7,5,7,0.4,0.5
2025-08-15T2100,3125A,105.8983,26.2481,安顺市,娄家坡,,20,6,16,3,12,64,,75,68,3,7,6,12,0.5,0.6
2025-08-15T2100,1818A,114.4839,36.0621,安阳市,棉研所,,,,,,,,,,,,,,,,
2025-08-15T2100,1819A,114.3551,36.1017,安阳市,红庙街,,18,18,35,3,17,39,,92,69,13,9,4,6,0.3,0.4
2025-08-15T2100,1820A,114.361,36.0681,安阳市,银杏小区,,19,19,38,3,24,56,,100,78,10,11,5,6,0.3,0.4
2025-08-15T2100,3141A,114.3922,36.0878,安阳市,信访局,,20,19,39,3,19,61,,103,82,8,8,4,6,0.6,0.7
2025-08-15T2100,3669A,114.4705,36.0637,安阳市,左辅环卫站,,18,11,41,3,29,56,,94,79,8,11,7,8,0.5,0.7
2025-08-15T2100,3703A,114.2917,36.0949,安阳市,安钢职工学校,,14,12,37,3,23,43,,91,69,8,9,3,6,0.5,0.7
2025-08-15T2100,1748A,123.044,41.1196,鞍山市,深沟寺,,24,19,27,9,16,76,,114,94,5,6,6,7,0.6,0.8
2025-08-15T2100,1749A,123.011,41.0931,鞍山市,太阳城,,24,14,27,8,16,74,,113,92,7,8,5,6,0.6,0.8
2025-08-15T2100,1750A,123.0485,41.1442,鞍山市,太平,,24,18,34,9,17,74,,114,93,7,9,5,6,0.6,0.8
2025-08-15T2100,1751A,122.9642,41.0971,鞍山市,铁西三道街,,31,31,37,14,19,62,,113,92,18,15,11,6,1.5,0.9
2025-08-15T2100,1753A,123.022,41.0821,鞍山市,明达新区,,23,18,30,8,16,71,,104,87,7,8,9,8,0.6,0.8
2025-08-15T2100,1754A,123.1289,41.0228,鞍山市,千山,,,,,,,,,,,,,,,,
2025-08-15T2100,4201A,122.9446,41.0826,鞍山市,兴盛南路290号,,26,26,33,9,16,67,,114,92,11,19,8,9,0.7,1
2025-08-15T2100,2195A,107.4212,40.761,巴彦淖尔市,附二中,,27,27,39,18,16,58,,150,133,35,12,7,8,0.7,0.7
2025-08-15T2100,2196A,107.37,40.7372,巴彦淖尔市,市环保大楼,,27,27,41,11,16,70,,150,130,30,10,7,7,0.4,0.5
2025-08-15T2100,1956A,86.1472,41.7538,巴音郭楞蒙古自治州,孔雀公园,,,,38,,17,,,117,115,14,6,4,4,0.3,0.2
2025-08-15T2100,1957A,86.1972,41.7166,巴音郭楞蒙古自治州,棉纺厂,,46,46,55,9,9,98,,115,114,10,4,4,4,0.2,0.2
2025-08-15T2100,1958A,86.2357,41.7173,巴音郭楞蒙古自治州,经济开发区,,38,38,53,9,6,105,,119,117,10,4,4,4,0.3,0.3
2025-08-15T2100,2914A,106.7677,31.8794,巴中市,苏山坪,,21,21,19,12,13,55,,83,73,6,6,4,4,0.4,0.4
2025-08-15T2100,3181A,106.7768,31.8526,巴中市,市五中,,,27,30,14,17,,,80,77,11,13,6,6,0.4,0.5
2025-08-15T2100,3183A,106.7418,31.8654,巴中市,圣泉水务公司,,19,16,21,10,14,60,,87,81,5,8,6,5,0.5,0.5
2025-08-15T2100,3616A,106.7616,31.8344,巴中市,市中心医院,,21,21,25,3,13,55,,82,74,9,11,6,6,0.4,0.3
2025-08-15T2100,2235A,122.7911,45.6077,白城市,洮北区环保局,,31,,18,20,18,98,,111,106,2,4,4,4,0.3,0.4
2025-08-15T2100,2236A,122.8738,45.5725,白城市,市环保局,,30,17,22,7,13,94,,114,108,3,3,2,3,0.5,0.5
2025-08-15T2100,2231A,126.4219,41.9171,白山市,喜丰,,30,30,57,14,16,50,,97,86,14,15,7,7,0.6,0.6
2025-08-15T2100,2232A,126.4077,41.9419,白山市,环保局,,42,42,30,15,14,41,,102,87,13,11,6,5,0.7,0.6
2025-08-15T2100,2647A,104.1724,36.5446,白银市,第三小学,,29,29,24,13,10,87,,119,112,23,13,5,19,0.4,0.4
2025-08-15T2100,2648A,104.1465,36.5482,白银市,动力公司,,,29,20,18,10,,,121,118,19,12,7,16,0.4,0.5
2025-08-15T2100,2512A,106.6103,23.9011,百色市,市监测站,,15,15,16,7,8,31,,56,53,9,10,5,6,0.5,0.5
2025-08-15T2100,2513A,106.6538,23.8859,百色市,市中心血站,,12,9,18,8,11,36,,60,56,16,14,3,7,0.6,0.6
2025-08-15T2100,3406A,106.6085,23.8798,百色市,祈福高中,,12,12,19,7,9,35,,56,53,17,14,4,5,0.6,0.7
2025-08-15T2100,2270A,117.396,32.939,蚌埠市,工人疗养院,,38,38,32,10,8,74,,113,100,12,14,3,4,0.3,0.3
2025-08-15T2100,2271A,117.3605,32.9427,蚌埠市,百货大楼,,25,21,23,10,11,79,,101,94,16,16,6,6,0.5,0.4
2025-08-15T2100,2273A,117.4185,32.8911,蚌埠市,蚌埠学院,,24,24,22,12,11,66,,112,99,16,10,6,7,0.4,0.4
2025-08-15T2100,2274A,117.3533,32.9673,蚌埠市,淮上区政府,,31,31,28,10,12,88,,110,100,18,15,5,6,0.5,0.5
2025-08-15T2100,2275A,117.3145,32.8977,蚌埠市,高新区,,24,24,27,14,11,64,,106,88,20,12,10,7,0.6,0.6
2025-08-15T2100,3715A,117.3092,32.9314,蚌埠市,蚌埠田家炳中学,,33,33,33,14,10,85,,112,101,10,11,12,9,0.4,0.3
2025-08-15T2100,1585A,109.8756,40.6532,包头市,市环境监测站,颗粒物(PM10),57,64,44,12,16,134,,150,144,10,16,4,8,0.4,0.7
2025-08-15T2100,1587A,109.9991,40.5842,包头市,包头八中,颗粒物(PM10),71,92,54,6,24,125,,139,132,9,19,4,15,0.4,0.6
2025-08-15T2100,1588A,109.8538,40.6821,包头市,青山宾馆,颗粒物(PM10),62,73,42,3,20,130,,150,143,13,20,2,7,0.5,0.8
2025-08-15T2100,1589A,109.8642,40.6288,包头市,惠龙物流,颗粒物(PM10),64,77,46,20,18,123,,140,134,8,12,5,10,0.4,0.7
2025-08-15T2100,1590A,110.0377,40.5546,包头市,东河鸿龙湾,颗粒物(PM10),61,72,48,22,18,136,,147,140,8,17,3,12,0.4,0.6
2025-08-15T2100,3283A,109.9154,40.5685,包头市,滨河大厦,颗粒物(PM10),52,53,40,18,18,128,,144,136,9,15,2,6,0.3,0.6
2025-08-15T2100,3419A,109.9447,40.6261,包头市,包头市委党校,颗粒物(PM10),55,60,40,16,21,132,,150,143,9,17,4,13,0.3,0.6
2025-08-15T2100,3683A,109.8331,40.6576,包头市,昆区政府,颗粒物(PM10),64,78,47,6,21,129,,148,142,9,15,3,8,0.4,0.7
2025-08-15T2100,1930A,107.185,34.3063,宝鸡市,庙沟村,,18,,31,12,17,54,,110,97,10,10,4,4,0.3,0.4
2025-08-15T2100,1931A,107.0708,34.3017,宝鸡市,竹园沟,,19,16,32,11,20,59,,118,104,8,10,7,7,0.3,0.3
2025-08-15T2100,1932A,107.1906,34.3672,宝鸡市,三陆医院,,17,12,39,9,22,53,,108,96,12,17,7,8,0.5,0.6
2025-08-15T2100,1933A,107.1431,34.3547,宝鸡市,监测站,,20,19,41,14,25,56,,114,100,10,10,8,8,0.5,0.6
2025-08-15T2100,1934A,107.1186,34.3739,宝鸡市,技工学校,,17,,33,10,23,52,,112,99,11,11,5,6,0.5,0.6
2025-08-15T2100,1936A,107.2058,34.3497,宝鸡市,文理学院,,,11,39,11,22,57,,113,99,9,13,,7,,0.6
2025-08-15T2100,1937A,107.2386,34.3622,宝鸡市,三迪小学,,,,42,10,23,55,,110,95,13,17,4,5,0.4,0.5
2025-08-15T2100,4308A,107.3898,34.3601,宝鸡市,陈仓区北开路21号,,18,,26,9,17,56,,103,88,13,13,5,6,0.4,0.5
2025-08-15T2100,1051A,115.493,38.8632,保定市,游泳馆,,20,20,41,3,24,60,,108,83,16,16,3,3,0,0.1
2025-08-15T2100,1052A,115.5213,38.8959,保定市,华电二区,,26,26,41,9,25,66,,120,91,14,15,1,2,0.5,0.6
2025-08-15T2100,1053A,115.4713,38.9108,保定市,接待中心,,22,15,41,3,21,69,,121,94,18,16,2,2,0,0
2025-08-15T2100,1054A,115.4612,38.8416,保定市,地表水厂,,19,13,43,3,19,58,,112,85,16,10,3,3,0.2,0.4
2025-08-15T2100,3581A,115.31981,38.95208,保定市,满城区生态环境分局,,18,12,48,3,27,56,,115,84,17,17,2,2,0.0,0.2
2025-08-15T2100,3582A,115.47694,38.76408,保定市,清苑区第二中学,,32,32,52,10,26,51,,109,82,23,12,2,2,0.2,0.4
2025-08-15T2100,3583A,115.62909,39.02311,保定市,徐水物探局,,,23,41,,12,,,119,94,14,12,6,7,0,0.4
2025-08-15T2100,4004A,115.4202,38.8656,保定市,双鹰农机,,21,21,39,9,24,59,,120,86,15,11,3,4,0.2,0.3
2025-08-15T2100,4034A,115.5150,38.8590,保定市,植保所站,,22,16,38,6,20,69,,129,99,10,10,3,3,0.0,0.3
2025-08-15T2100,2594A,99.1678,25.1081,保山市,市环境监测站,,43,33,19,30,14,60,,101,98,9,7,6,6,0.6,0.5
2025-08-15T2100,2595A,99.1711,25.1328,保山市,市环保局,,,,19,,11,,,100,100,5,5,6,6,,0.5
2025-08-15T2100,1866A,109.2262,21.588,北海市,牛尾岭水库,,,,9,3,6,,,51,51,6,6,2,26,0.4,0.9
2025-08-15T2100,1867A,109.1436,21.4086,北海市,海滩公园,,28,28,21,3,5,25,,50,42,15,9,4,4,0.6,0.5
2025-08-15T2100,1868A,109.0981,21.4661,北海市,新市环保局,,20,20,15,12,11,21,,53,42,23,12,13,4,0.4,0.4
2025-08-15T2100,1869A,109.1778,21.5233,北海市,北海工业园,,14,14,19,7,10,23,,52,40,13,11,6,7,0.5,0.5
2025-08-15T2100,3400A,109.1911,21.4415,北海市,龙潭自来水厂,,20,20,16,10,9,18,,52,41,18,9,9,8,0.5,0.5
2025-08-15T2100,1001A,116.3621,39.8784,北京市,万寿西宫,,47,47,38,30,25,75,,142,125,7,7,3,3,0.6,0.6
2025-08-15T2100,1002A,116.2202,40.2915,北京市,定陵,细颗粒物(PM2.5),53,47,39,37,28,75,,144,133,5,7,2,2,0.6,0.5
2025-08-15T2100,1003A,116.4174,39.9289,北京市,东四,,42,42,41,24,29,84,,154,136,16,19,5,5,0.6,0.7
2025-08-15T2100,1004A,116.4072,39.8863,北京市,天坛,,43,34,38,30,27,43,,131,102,5,10,3,3,0.6,0.6
2025-08-15T2100,1005A,116.462,39.9365,北京市,农展馆,,35,34,37,24,22,78,,146,129,15,18,3,3,0.7,0.7
2025-08-15T2100,1006A,116.3392,39.9295,北京市,官园,,49,43,40,34,30,81,,153,134,11,13,5,4,0.5,0.6
2025-08-15T2100,1007A,116.2878,39.9611,北京市,海淀万柳,,42,42,39,29,28,77,,139,123,15,20,3,3,0.4,0.4
2025-08-15T2100,1008A,116.6636,40.135,北京市,顺义新城,,,,,,,,,,,,,,,,
2025-08-15T2100,1009A,116.6275,40.3275,北京市,怀柔镇,,39,33,38,27,28,87,,138,126,15,12,2,2,0.7,0.7
2025-08-15T2100,1010A,116.2296,40.217,北京市,昌平镇,细颗粒物(PM2.5),64,58,42,46,30,93,,139,134,16,17,4,4,0.8,0.7
2025-08-15T2100,1011A,116.3966,39.9821,北京市,奥体中心,,33,33,37,22,24,84,,138,126,9,18,4,4,0.6,0.6
2025-08-15T2100,3281A,115.9718,40.4529,北京市,延庆夏都,细颗粒物(PM2.5),57,59,40,40,28,108,,132,132,11,6,3,3,0.7,0.6
2025-08-15T2100,3418A,116.8336,40.4095,北京市,密云新城,,48,47,40,33,27,84,,122,114,8,8,1,1,0.6,0.6
2025-08-15T2100,3671A,116.088,39.9726,北京市,门头沟三家店,细颗粒物(PM2.5),59,58,44,42,29,70,,135,122,15,18,2,3,0.8,0.7
2025-08-15T2100,3672A,116.1541,39.8204,北京市,丰台云岗,细颗粒物(PM2.5),53,44,44,37,34,56,,120,102,12,13,3,3,0.6,0.6
2025-08-15T2100,3673A,116.6804,39.9081,北京市,通州东关,,36,36,41,25,30,67,,130,114,16,15,6,6,0.6,0.7
2025-08-15T2100,3674A,115.9577,39.7603,北京市,房山燕山,,50,50,60,35,31,77,,123,112,11,13,3,3,0.6,0.6
2025-08-15T2100,3675A,116.4672,39.7733,北京市,大兴旧宫,,31,31,40,18,26,69,,133,117,10,16,2,2,0.6,0.7
2025-08-15T2100,3694A,115.986,40.4563,北京市,延庆石河营,细颗粒物(PM2.5),63,57,40,45,27,97,,121,120,10,6,3,2,0.7,0.6
2025-08-15T2100,3695A,116.6151,40.3053,北京市,怀柔新城,,42,34,40,29,29,80,,122,112,10,8,2,2,0.7,0.7
2025-08-15T2100,3696A,116.2545,39.8768,北京市,丰台小屯,,50,47,41,35,31,52,,127,106,21,12,2,2,0.7,0.7
2025-08-15T2100,3697A,116.84,40.3844,北京市,密云镇,细颗粒物(PM2.5),52,52,38,36,31,92,,130,127,10,10,4,4,0.7,0.7
2025-08-15T2100,4182A,116.1942,39.9158,北京市,八角北路9号,,44,44,44,28,29,70,,142,123,11,16,1,1,0.4,0.5
2025-08-15T2100,4194A,117.0790,40.1518,北京市,洳河巡河路,,35,33,43,24,29,97,,131,126,10,8,2,3,0.6,0.8
2025-08-15T2100,1761A,123.8275,41.3064,本溪市,大峪,,28,13,34,8,16,87,,118,105,1,15,5,5,0.2,0.4
2025-08-15T2100,1762A,123.7567,41.3325,本溪市,溪湖,,28,28,49,8,17,70,,107,93,9,12,8,8,0.9,1.1
2025-08-15T2100,1763A,123.7169,41.3094,本溪市,彩屯,,37,37,40,19,21,44,,97,80,31,22,16,11,2.3,1.5
2025-08-15T2100,1764A,123.7669,41.2864,本溪市,东明,,24,19,40,13,18,76,,109,95,9,20,4,5,0.7,0.8
2025-08-15T2100,1765A,123.7992,41.2664,本溪市,新立屯,,26,14,31,6,15,81,,110,95,4,16,4,4,0.7,0.9
2025-08-15T2100,1766A,123.8142,41.3472,本溪市,威宁,,20,14,37,7,19,62,,101,86,4,12,9,9,0.4,0.6
2025-08-15T2100,2587A,105.2864,27.3125,毕节市,八中,,25,,23,17,20,51,,79,67,6,6,4,4,0.5,0.5
2025-08-15T2100,2588A,105.31,27.2944,毕节市,师专,,,18,22,,13,58,,89,71,10,6,4,4,0.9,0.8
2025-08-15T2100,4263A,105.3688,27.3598,毕节市,工业大道,,40,38,24,28,17,51,,98,69,17,9,6,6,0.7,0.7
2025-08-15T2100,1629A,118.0018,37.3617,滨州市,第二水厂,,25,19,36,7,22,77,,152,134,7,22,2,4,0.6,0.7
2025-08-15T2100,1630A,117.9776,37.393,滨州市,北中新校,,28,24,36,19,21,72,,156,138,12,23,4,7,0.4,0.6
2025-08-15T2100,3514A,117.9378,37.3956,滨州市,中海酒店,,22,19,35,14,22,68,,162,144,8,14,1,5,0.4,0.6
2025-08-15T2100,3515A,117.9378,37.3553,滨州市,开发区一中,,32,24,45,22,22,73,,168,148,14,22,4,8,0.5,0.6
2025-08-15T2100,3516A,118.0917,37.694,滨州市,金海六路,,24,6,29,3,15,75,,141,129,6,16,1,5,0.2,0.4
2025-08-15T2100,4028A,117.9956,37.3753,滨州市,滨州市西街道办事处,,28,22,29,19,21,74,,166,146,10,21,1,3,0.3,0.5
2025-08-15T2100,2311A,115.8072,33.8399,亳州市,污水处理厂,,25,20,15,12,10,78,,118,106,12,9,3,4,0.7,0.6
2025-08-15T2100,2312A,115.7789,33.8518,亳州市,三国揽胜宫,,28,22,24,11,6,87,,122,113,9,7,2,4,0.6,0.6
2025-08-15T2100,3332A,115.7633,33.8034,亳州市,亳州学院,,30,21,17,8,9,93,,117,113,8,7,1,2,0.5,0.5
2025-08-15T2100,2693A,82.0485,44.8556,博尔塔拉蒙古自治州,市党校,,26,23,32,14,15,81,,92,91,10,8,3,4,0.4,0.3
2025-08-15T2100,2694A,82.0806,44.8969,博尔塔拉蒙古自治州,市环保局,,32,32,41,10,19,77,,92,91,7,8,4,4,0.4,0.4
2025-08-15T2100,1071A,116.8842,38.2991,沧州市,沧县城建局,,19,18,55,10,31,58,,112,99,16,17,2,4,0.0,0.4
2025-08-15T2100,1072A,116.8584,38.3254,沧州市,电视转播站,,20,20,62,3,30,61,,99,90,11,14,3,3,0.1,0.4
2025-08-15T2100,1073A,116.8709,38.3228,沧州市,市环保局,,19,14,57,9,32,59,,109,95,9,12,2,4,0.2,0.4
2025-08-15T2100,3324A,116.8136,38.3004,沧州市,河北水利电力学院,,25,,43,3,37,78,,118,108,7,12,2,4,0.1,0.4
2025-08-15T2100,2622A,97.1806,31.1273,昌都市,昌都监测站,,,91,17,17,9,,,113,113,12,4,5,4,0.3,0.4
2025-08-15T2100,3719A,97.1714,31.1406,昌都市,昌都会议中心,,36,13,10,9,6,115,,120,120,3,4,3,3,0.2,0.2
2025-08-15T2100,2690A,88.1236,43.8886,昌吉回族自治州,天山天池,,29,22,20,11,7,92,,113,111,6,7,4,4,0.6,0.6
2025-08-15T2100,2692A,87.2717,44.0297,昌吉回族自治州,新区政务中心,颗粒物(PM10),96,142,43,17,12,101,,115,115,6,18,7,10,0.3,0.5
2025-08-15T2100,3613A,87.3095,44.0142,昌吉回族自治州,亚心广场,颗粒物(PM10),68,85,48,9,11,92,,112,111,9,24,7,10,0.2,0.4
2025-08-15T2100,1120A,125.2863,43.9027,长春市,客车厂,,36,34,43,25,21,113,,135,133,13,16,3,4,0.5,0.5
2025-08-15T2100,1121A,125.2841,43.8463,长春市,邮电学院,,36,18,37,17,17,113,,140,137,10,14,4,5,0.6,0.6
2025-08-15T2100,1122A,125.3716,43.8772,长春市,劳动公园,,36,36,49,16,20,115,,137,136,12,16,7,8,0.4,0.5
2025-08-15T2100,1123A,125.3297,43.8805,长春市,园林处,,36,28,39,18,17,115,,134,133,8,12,4,5,0.6,0.6
2025-08-15T2100,1124A,125.4605,43.79,长春市,净月潭,,32,31,31,16,14,101,,116,107,7,7,4,4,0.4,0.4
2025-08-15T2100,1125A,125.7194,43.515,长春市,甩湾子,,,,30,,18,,,79,,,12,,3,,0.7
2025-08-15T2100,1126A,125.3863,43.8447,长春市,经开区环卫处,,34,31,45,15,17,106,,127,127,11,19,3,4,0.6,0.6
2025-08-15T2100,1127A,125.245,43.7783,长春市,高新区管委会,,35,21,39,10,20,110,,134,131,5,13,3,4,0.5,0.6
2025-08-15T2100,1128A,125.1761,43.8325,长春市,岱山公园,,31,31,45,20,22,90,,130,125,27,21,3,4,0.5,0.5
2025-08-15T2100,4281A,125.3346,43.9164,长春市,北亚泰大街1068号,,36,26,47,20,22,115,,132,131,13,19,6,7,0.6,0.7
2025-08-15T2100,1335A,113.0833,28.2325,长沙市,经开区环保局,,30,,14,21,3,39,,62,60,28,10,5,7,0.4,0.3
2025-08-15T2100,1336A,112.8872,28.2189,长沙市,高开区环保局,,25,25,16,3,2,48,,68,65,16,4,3,4,0.3,0.2
2025-08-15T2100,1337A,113.0792,28.2053,长沙市,马坡岭,,27,27,15,16,5,38,,68,64,29,6,4,4,0.5,0.3
2025-08-15T2100,1338A,112.9394,28.19,长沙市,湖南师范大学,,22,22,18,8,4,44,,66,61,18,11,3,4,0.1,0.1
2025-08-15T2100,1339A,113.0178,28.1322,长沙市,雨花区环保局,,18,18,13,8,5,44,,60,57,12,3,5,5,0.5,0.4
2025-08-15T2100,1340A,112.9792,28.2597,长沙市,伍家岭,,,,14,,2,,,65,64,24,8,4,2,0.3,0.2
2025-08-15T2100,1341A,113.0014,28.1944,长沙市,火车新站,,22,22,16,12,3,41,,61,57,15,5,5,6,0.4,0.3
2025-08-15T2100,1342A,112.9844,28.1178,长沙市,天心区环保局,,19,19,12,9,4,39,,63,58,29,8,3,3,0.3,0.2
2025-08-15T2100,1343A,112.8908,28.1308,长沙市,湖南中医药大学,,31,31,17,16,8,7,,63,50,43,8,3,3,0.6,0.4
2025-08-15T2100,1344A,112.9581,28.3611,长沙市,沙坪,,18,17,9,12,6,37,,73,64,12,9,4,4,0.4,0.2
2025-08-15T2100,1727A,113.1147,36.1547,长治市,清华站,,26,16,22,7,9,82,,89,86,4,8,6,7,0.5,0.7
2025-08-15T2100,1730A,113.0886,36.2125,长治市,审计局,,24,17,22,9,11,76,,92,89,6,9,5,5,0.6,0.7
2025-08-15T2100,1731A,113.0844,36.1856,长治市,长治八中,,27,,22,15,18,85,,95,93,4,7,7,8,0.6,0.8
2025-08-15T2100,2845A,113.1569,36.1911,长治市,德盛苑,,22,18,23,7,10,70,,90,84,7,7,7,7,0.8,0.7
2025-08-15T2100,3568A,113.06,36.0464,长治市,向阳小学,颗粒物(PM10),57,63,58,20,20,89,,91,90,1,5,4,3,0.5,0.5
2025-08-15T2100,3569A,112.8792,36.3144,长治市,屯留一中,,38,28,35,26,24,70,,82,76,14,12,8,7,0.6,0.4
2025-08-15T2100,4189A,113.1131,36.19948,长治市,英华南巷50号,,,17,27,9,13,74,,92,85,,8,7,7,0.6,0.9
2025-08-15T2100,4190A,113.2367,36.3344,长治市,学府街1号,,26,20,30,18,24,65,,81,74,8,13,3,5,0.6,0.7
2025-08-15T2100,1854A,111.6975,28.9703,常德市,市二中,,13,10,14,9,7,36,,69,62,17,7,24,5,0.4,0.4
2025-08-15T2100,1857A,111.7158,29.1456,常德市,白鹤山,,,,,,,,,,,,,,,,
2025-08-15T2100,3138A,111.7153,29.0289,常德市,武陵区永安,,14,14,15,8,6,44,,72,65,9,4,4,3,0.2,0.3
2025-08-15T2100,3139A,111.6892,28.9881,常德市,鼎城区玉霞,,16,15,14,11,8,40,,69,62,15,6,9,4,0.3,0.3
2025-08-15T2100,3140A,111.6625,29.0531,常德市,武陵区长庚,,16,12,13,8,8,50,,72,66,7,5,7,5,0.4,0.5
2025-08-15T2100,1196A,119.9633,31.762,常州市,市监测站,,33,,19,15,10,104,,110,110,12,11,8,9,0.3,0.4
2025-08-15T2100,1200A,119.9468,31.7069,常州市,武进监测站,,,32,17,11,6,,,115,115,8,6,7,8,0.9,0.8
2025-08-15T2100,1201A,119.9255,31.9087,常州市,安家,,27,16,19,13,7,84,,100,99,16,9,9,8,1.1,0.8
2025-08-15T2100,3002A,119.9805,31.8174,常州市,行政中心,,32,,11,10,8,101,,101,101,14,12,8,8,0.6,0.6
2025-08-15T2100,3003A,120.0522,31.7748,常州市,经开区,,30,30,24,13,6,96,,103,103,18,12,4,5,0.7,0.7
2025-08-15T2100,3010A,119.9025,31.7964,常州市,钟楼,,33,14,21,12,6,105,,111,111,11,9,6,6,0.4,0.3
2025-08-15T2100,3429A,119.8598,31.7066,常州市,武进经发区,,32,32,22,15,10,95,,112,111,12,7,7,8,0.7,0.7
2025-08-15T2100,3430A,119.5826,31.7245,常州市,金坛城区,,42,42,24,18,11,112,,127,125,10,10,9,8,0.5,0.3
2025-08-15T2100,2220A,120.4318,41.5881,朝阳市,西梁,,42,42,40,26,23,92,,131,119,10,13,4,7,0.6,0.9
2025-08-15T2100,2221A,120.4521,41.5646,朝阳市,河畔小区,,,17,33,17,20,,,137,130,6,9,5,6,0.6,0.8
2025-08-15T2100,2222A,120.4176,41.5648,朝阳市,八里堡,,32,26,43,22,23,97,,135,124,10,15,5,7,0.6,0.9
2025-08-15T2100,2223A,120.3806,41.5969,朝阳市,农业园区,,35,25,33,24,27,80,,140,126,17,11,6,7,0.7,0.7
2025-08-15T2100,1705A,116.6367,23.6719,潮州市,西园路,,44,44,21,8,6,45,,69,69,12,7,6,3,0.4,0.3
2025-08-15T2100,3026A,116.6183,23.6608,潮州市,市政府,,26,26,31,18,38,42,,66,66,12,11,9,9,0.4,0.3
2025-08-15T2100,4036A,116.6461,23.6761,潮州市,金山,,32,32,23,12,13,47,,72,72,10,5,7,5,0.5,0.5
2025-08-15T2100,2472A,113.0073,25.9061,郴州市,马头岭,,14,14,14,3,5,3,,36,24,13,7,6,5,0.3,0.2
2025-08-15T2100,2473A,113.0116,25.8226,郴州市,市职中,,,,8,,4,,,34,,,4,,4,,0.3
2025-08-15T2100,2475A,113.0383,25.8071,郴州市,市审计局,,,,8,,4,,,36,,,5,,6,,0.3
2025-08-15T2100,2476A,113.0348,25.7759,郴州市,市环保局,,,,8,,2,,,35,,,8,,2,,0.2
2025-08-15T2100,4252A,113.0138,25.8011,郴州市,好美居路49号,,7,7,8,3,5,17,,36,31,12,4,6,6,0.4,0.3
2025-08-15T2100,1431A,103.9728,30.7236,成都市,金泉两河,细颗粒物(PM2.5),54,39,43,38,26,138,,180,172,16,19,2,4,0.7,0.7
2025-08-15T2100,1432A,104.176,30.6872,成都市,十里店,颗粒物(PM10),51,51,53,29,30,117,,179,163,12,21,5,6,0.6,0.7
2025-08-15T2100,1433A,104.079,30.5706,成都市,三瓦窑,,39,39,40,26,21,119,,176,164,17,31,2,3,0.5,0.5
2025-08-15T2100,1434A,104.1114,30.63,成都市,沙河铺,,30,28,40,20,24,94,,142,129,21,17,3,3,0.6,0.6
2025-08-15T2100,1437A,104.0786,30.6531,成都市,君平街,,40,38,47,24,27,128,,172,165,6,14,7,8,0.7,0.7
2025-08-15T2100,1438A,103.613,31.0283,成都市,灵岩寺,,,,,,,,,,,,,,,,
2025-08-15T2100,2880A,104.0239,30.65639,成都市,大石西路,,36,36,43,3,26,112,,155,149,17,21,3,4,0.6,0.7
2025-08-15T2100,3136A,104.2725,30.5589,成都市,龙泉驿区区政府,,37,22,38,12,22,116,,156,145,10,16,5,5,0.5,0.6
2025-08-15T2100,3357A,104.0106,30.6931,成都市,金博路,,41,31,40,19,25,129,,168,159,19,23,4,5,0.7,0.7
2025-08-15T2100,3359A,104.0578,30.5225,成都市,华阳,,39,31,31,22,21,122,,161,152,13,17,3,4,0.6,0.6
2025-08-15T2100,3488A,104.3853,30.7453,成都市,青白江技师分院,,41,41,53,9,32,102,,140,136,11,26,5,7,0.6,0.7
2025-08-15T2100,3489A,104.0789,30.4072,成都市,科学城,,39,36,33,27,21,120,,161,159,6,12,3,3,0.5,0.5
2025-08-15T2100,4011A,103.8506,30.6947,成都市,光华大道三段,,48,48,47,28,25,146,,203,191,14,17,5,6,0.6,0.7
2025-08-15T2100,4224A,104.2433,30.5353,成都市,鲸龙路1057号,,37,27,41,19,27,117,,154,146,8,20,3,4,0.5,0.6
2025-08-15T2100,1062A,117.9531,40.9081,承德市,铁路,细颗粒物(PM2.5),62,62,40,44,23,105,,120,115,21,16,2,2,0.6,0.5
2025-08-15T2100,1063A,117.9392,40.9763,承德市,中国银行,细颗粒物(PM2.5),68,52,40,49,28,68,,131,113,12,10,3,2,0.8,0.5
2025-08-15T2100,1064A,117.9503,40.928,承德市,开发区,颗粒物(PM10),56,62,41,35,19,114,,129,124,11,12,3,3,0.7,0.6
2025-08-15T2100,1066A,117.9268,41.0026,承德市,离宫,颗粒物(PM10),54,57,34,24,14,67,,108,71,6,6,3,3,0.6,0.5
2025-08-15T2100,4274A,117.7994,40.9605,承德市,滨河大街98号,细颗粒物(PM2.5),68,49,30,49,23,50,,119,91,9,6,1,1,0.5,0.5
2025-08-15T2100,2314A,117.47,30.6618,池州市,池州学院,,31,31,20,14,8,72,,119,113,14,13,5,6,0.5,0.5
2025-08-15T2100,3237A,117.4918,30.6617,池州市,展览馆,,39,39,19,17,8,55,,125,116,22,11,5,5,0.6,0.7
2025-08-15T2100,3333A,117.5627,30.695,池州市,第八中学,,32,32,17,14,7,78,,133,125,20,10,6,6,0.5,0.6
2025-08-15T2100,3334A,117.5038,30.6243,池州市,第十二中学,,41,41,21,27,9,46,,119,102,30,18,3,4,0.8,0.7
2025-08-15T2100,1744A,118.9233,42.2816,赤峰市,松山一中,,42,29,19,8,10,132,,111,111,9,15,5,5,0.5,0.6
2025-08-15T2100,1745A,118.9576,42.2728,赤峰市,哈达街,,37,30,23,17,12,116,,99,99,14,16,10,11,0.5,0.6
2025-08-15T2100,1746A,118.8788,42.2554,赤峰市,天义路,,40,,14,15,15,127,,108,104,7,13,8,11,0.3,0.4
2025-08-15T2100,3058A,119.2658,42.0353,赤峰市,银河街,细颗粒物(PM2.5),62,56,31,44,22,101,,104,104,19,12,53,13,0.9,0.7
2025-08-15T2100,3286A,118.9359,42.3147,赤峰市,桥北物流园区,,,,23,,20,,,89,83,11,16,9,10,,0.5
2025-08-15T2100,2521A,107.3476,22.4136,崇左市,市环保局江州分局,,18,15,17,7,9,56,,72,69,7,7,6,7,0.6,0.6
2025-08-15T2100,4256A,107.3750,22.3736,崇左市,石景林东路7号,,19,8,13,6,10,60,,73,71,6,7,4,4,0.3,0.4
2025-08-15T2100,2298A,118.3093,32.3153,滁州市,老年大学,,34,33,29,13,11,108,,150,144,14,13,5,6,0.3,0.3
2025-08-15T2100,2299A,118.3244,32.2786,滁州市,人大宾馆,,36,19,15,14,10,115,,156,153,10,6,4,5,0.4,0.3
2025-08-15T2100,3207A,118.3118,32.3038,滁州市,市政府原办公楼,,38,33,24,26,19,108,,153,149,15,9,6,6,0.4,0.3
2025-08-15T2100,3331A,118.3267,32.2634,滁州市,图书馆,,34,20,18,18,16,106,,150,147,13,7,10,10,0.3,0.2
2025-08-15T2100,2605A,101.5482,25.0441,楚雄彝族自治州,州环境监测站,,24,21,26,13,17,74,,95,91,9,16,5,6,0.5,0.6
2025-08-15T2100,2606A,101.538,25.0492,楚雄彝族自治州,市经济开发区,,30,30,32,16,17,71,,92,88,12,16,7,8,0.7,0.7
2025-08-15T2100,2548A,107.5277,31.2827,达州市,达州职业技术学院,,32,32,43,3,16,13,,79,59,21,18,7,9,0.5,0.6
2025-08-15T2100,2549A,107.5086,31.2186,达州市,市环境监测站,,23,23,36,3,12,29,,60,51,18,27,5,8,0.3,0.4
2025-08-15T2100,2550A,107.4988,31.2132,达州市,凤凰小区,,14,14,27,3,13,31,,68,60,16,20,1,4,0.3,0.3
2025-08-15T2100,2551A,107.5082,31.1986,达州市,达县机关宾馆,,27,27,33,12,16,20,,72,60,16,20,4,6,0.3,0.4
2025-08-15T2100,2552A,107.4644,31.2124,达州市,市政中心,,27,27,32,7,12,32,,73,61,15,17,3,5,0.2,0.3
2025-08-15T2100,2614A,100.1542,25.7054,大理白族自治州,大理市环境监测站,,39,39,24,19,20,60,,85,84,14,18,5,5,0.6,0.5
2025-08-15T2100,2615A,100.2171,25.5811,大理白族自治州,大理古城,,34,34,23,23,13,48,,87,82,23,11,6,6,0.7,0.6
2025-08-15T2100,1109A,121.612,38.9741,大连市,甘井子,,23,14,14,8,11,71,,118,92,16,13,9,9,0.3,0.4
2025-08-15T2100,1110A,121.565,38.9511,大连市,周水子,,19,19,17,13,12,60,,112,81,14,11,8,9,0.3,0.3
2025-08-15T2100,1111A,121.5637,38.8845,大连市,星海三站,,22,12,16,7,10,68,,113,92,11,10,4,5,0.3,0.4
2025-08-15T2100,1112A,121.6302,38.9117,大连市,青泥洼桥,,30,15,16,9,10,94,,115,94,12,9,6,7,0.4,0.5
2025-08-15T2100,1113A,121.6251,38.8638,大连市,傅家庄,,20,10,13,3,9,63,,109,89,7,6,6,6,0.0,0.1
2025-08-15T2100,1114A,121.5213,38.8661,大连市,七贤岭,,23,14,15,8,11,73,,123,96,12,6,10,10,0.4,0.4
2025-08-15T2100,1115A,121.2529,38.8061,大连市,旅顺,,23,14,17,7,11,72,,98,82,2,5,3,2,0.2,0.3
2025-08-15T2100,1116A,121.7485,39.1311,大连市,金州,,19,17,14,13,11,56,,117,90,16,11,8,8,0.2,0.3
2025-08-15T2100,1117A,121.7811,39.0496,大连市,开发区,,19,19,19,13,12,56,,110,87,26,15,9,7,0.5,0.5
2025-08-15T2100,1118A,121.9762,39.0631,大连市,双D港,,22,,12,15,11,39,,112,93,7,6,6,7,0.5,0.5
2025-08-15T2100,1789A,124.81117,46.03138,大庆市,大同区,,36,36,33,16,14,103,,118,114,8,9,9,8,0.7,0.7
2025-08-15T2100,1790A,125.129,46.533,大庆市,龙凤区,,28,23,23,15,11,89,,112,102,9,12,7,7,0.6,0.6
2025-08-15T2100,1791A,124.902,46.408,大庆市,红岗区,,38,38,32,24,15,76,,118,106,17,10,8,8,0.7,0.6
2025-08-15T2100,1792A,125.153,46.586,大庆市,萨尔图区,,29,23,35,6,13,90,,103,98,5,12,7,7,0.5,0.5
2025-08-15T2100,1793A,124.9042,46.6215,大庆市,让胡路区,,30,28,30,20,15,95,,113,102,7,14,5,6,0.3,0.3
2025-08-15T2100,3481A,125.141,46.634,大庆市,萨区政府监测点,,29,24,33,7,10,92,,116,107,6,10,7,8,0.3,0.3
2025-08-15T2100,1721A,113.3819,40.1097,大同市,果树场,,47,47,41,22,29,43,,124,98,30,20,8,8,0.6,0.7
2025-08-15T2100,1723A,113.2994,40.0758,大同市,云冈宾馆,,43,43,53,25,30,77,,139,116,20,18,8,6,0.6,0.8
2025-08-15T2100,1724A,113.3444,40.0917,大同市,大同大学,,40,40,45,23,29,76,,139,117,17,17,8,8,0.6,0.7
2025-08-15T2100,1725A,113.2661,40.1269,大同市,安家小村,颗粒物(PM10),54,58,51,24,25,74,,151,125,23,16,11,10,0.9,0.9
2025-08-15T2100,1726A,113.2711,40.0844,大同市,教育学院,,50,50,52,28,29,75,,139,115,15,17,11,10,0.5,0.7
2025-08-15T2100,3282A,113.3397,40.0597,大同市,大同市卫生学校,,,53,48,26,29,,,127,112,23,18,7,7,0.6,0.8
2025-08-15T2100,3565A,113.1367,40.1122,大同市,云冈站,,,62,64,34,37,,,140,122,13,15,6,6,0.8,0.5
2025-08-15T2100,3566A,113.1186,40.2556,大同市,图书馆,颗粒物(PM10),52,53,61,34,32,74,,147,122,16,13,7,6,0.8,0.9
2025-08-15T2100,3567A,113.5931,40.0461,大同市,区一中,,23,22,38,14,25,72,,136,114,23,10,9,9,0.6,0.6
2025-08-15T2100,4199A,113.2798,40.0997,大同市,魏都大道141号,颗粒物(PM10),58,65,50,29,30,79,,141,118,14,17,9,7,0.6,0.8
2025-08-15T2100,2269A,124.1069,50.4097,大兴安岭地区,科技局,,19,19,18,11,10,29,,42,39,3,3,5,4,0.3,0.3
2025-08-15T2100,3663A,124.1164,50.4278,大兴安岭地区,红旗社区,,9,,5,3,6,28,,44,40,1,4,4,4,0.2,0.3
2025-08-15T2100,1600A,124.3303,40.0625,丹东市,江湾东路,,21,11,19,8,14,65,,85,75,6,10,7,8,0.6,0.7
2025-08-15T2100,1601A,124.4256,40.1503,丹东市,临江后街,颗粒物(PM10),53,55,41,30,27,48,,86,74,12,11,8,8,1.0,0.9
2025-08-15T2100,1602A,124.3933,40.1461,丹东市,元宝山,,20,14,22,8,13,64,,79,72,7,9,4,4,0.7,0.7
2025-08-15T2100,1603A,124.3633,40.1092,丹东市,民主桥,,19,14,22,8,14,60,,84,76,6,9,3,4,0.6,0.7
2025-08-15T2100,3541A,109.5726,19.5167,儋州市,第一中学子站,,22,22,14,11,7,31,,38,34,7,5,7,6,0.5,0.5
2025-08-15T2100,3542A,109.5567,19.5187,儋州市,东坡学校子站,,25,25,12,12,7,30,,41,36,5,3,9,8,0.6,0.6
2025-08-15T2100,2616A,98.5842,24.428,德宏傣族景颇族自治州,德宏州监测站,,,55,29,26,13,,,89,89,13,7,9,10,0.8,0.7
2025-08-15T2100,3677A,98.5881,24.4368,德宏傣族景颇族自治州,芒市人民政府综合楼,,32,32,27,19,10,35,,78,74,11,7,8,8,0.6,0.6
2025-08-15T2100,1901A,104.4239,31.1208,德阳市,东山公园,,30,30,48,21,28,96,,149,137,5,11,2,9,0.8,0.9
2025-08-15T2100,1902A,104.3826,31.1317,德阳市,西小区,,33,33,44,23,27,100,,163,149,12,17,2,3,0.9,1
2025-08-15T2100,1904A,104.3553,31.1091,德阳市,耐火材料厂,,40,36,48,28,26,96,,152,137,12,21,1,3,0.6,0.7
2025-08-15T2100,3639A,104.4019,31.1244,德阳市,市教育局,,33,33,46,22,26,98,,149,136,4,14,4,7,0.9,0.9
2025-08-15T2100,1622A,116.3032,37.4674,德州市,儿童乐园,,21,7,42,3,27,66,,120,109,9,13,8,12,0.5,0.7
2025-08-15T2100,1624A,116.2991,37.4451,德州市,监理站,,20,12,43,3,24,64,,124,112,11,12,12,15,0.2,0.4
2025-08-15T2100,3066A,116.2721,37.4379,德州市,九衢泉纯净水厂,,18,12,47,7,32,56,,105,94,14,19,8,9,0.6,0.8
2025-08-15T2100,3371A,116.3728,37.4403,德州市,开发区人民医院,,22,9,40,3,25,68,,118,107,13,17,9,13,0.7,0.9
2025-08-15T2100,3511A,116.5652,37.3319,德州市,陵城艺术中心,,21,9,35,3,15,66,,126,105,9,13,9,6,1.0,1.2
2025-08-15T2100,4292A,116.3525,37.4209,德州市,新河东路,,21,9,42,3,28,67,,114,99,12,16,10,11,0.7,0.9
2025-08-15T2100,2621A,99.7056,27.8317,迪庆藏族自治州,迪庆州站,,37,37,18,21,13,37,,71,64,26,8,7,7,0.8,0.5
2025-08-15T2100,3180A,99.7136,27.8094,迪庆藏族自治州,质量技术监督局,,22,21,16,15,8,38,,73,64,26,12,7,7,0.7,0.6
2025-08-15T2100,4257A,104.6092,35.5962,定西市,将台街,,39,31,32,27,18,98,,120,117,15,15,8,9,0.4,0.4
2025-08-15T2100,4309A,104.6159,35.5701,定西市,正龙路62号,,40,38,34,28,18,93,,113,110,7,9,4,6,0.3,0.3
2025-08-15T2100,1389A,113.7547,23.0494,东莞市,莞城梨川,,28,28,14,17,8,42,,60,57,29,11,7,7,0.5,0.3
2025-08-15T2100,1390A,113.7944,23.0128,东莞市,东城石井,,22,22,14,10,6,12,,54,46,19,13,2,2,0.6,0.6
2025-08-15T2100,1391A,113.7383,22.9658,东莞市,南城西平,,48,45,14,33,7,23,,48,43,29,20,6,5,0.5,0.5
2025-08-15T2100,3319A,113.7338,23.0381,东莞市,万江金泰,,,36,13,,7,,,58,55,23,12,4,4,,0.7
2025-08-15T2100,3626A,113.7533,23.0202,东莞市,南城元岭,,21,21,11,10,5,34,,58,54,20,13,6,6,0.6,0.5
2025-08-15T2100,3627A,113.7875,23.0457,东莞市,东城主山,,37,37,17,16,8,20,,53,47,31,15,5,4,0.3,0.3
2025-08-15T2100,1666A,118.6614,37.4309,东营市,市环保局,,26,6,22,3,11,81,,113,104,9,15,5,13,0.1,0.3
2025-08-15T2100,3036A,118.6904,37.4338,东营市,开发区管委会,,26,8,24,3,7,82,,111,103,7,14,5,7,0.2,0.3
2025-08-15T2100,3365A,118.5719,37.565,东营市,垦利区民丰路,,21,7,24,7,10,65,,115,104,11,14,9,10,0.6,0.7
2025-08-15T2100,3498A,118.5055,37.8612,东营市,河口城区,,26,7,21,3,9,82,,143,130,9,14,4,5,0.8,0.9
2025-08-15T2100,3646A,118.4978,37.4623,东营市,胜利站,,23,22,29,3,11,72,,119,109,12,20,3,4,0.4,0.5
2025-08-15T2100,3734A,118.35,37.26,东营市,理想之城,,,12,22,7,13,67,,117,108,,21,1,4,,0.5
2025-08-15T2100,1591A,110.0023,39.8129,鄂尔多斯市,综合楼,颗粒物(PM10),58,66,48,14,17,100,,115,112,15,17,6,8,0.6,0.7
2025-08-15T2100,1592A,109.9486,39.8261,鄂尔多斯市,巴音孟克林场办事处,颗粒物(PM10),64,78,53,19,17,114,,127,124,13,12,2,5,0.3,0.5
2025-08-15T2100,1593A,109.7736,39.5986,鄂尔多斯市,康泽苑,,39,39,44,12,15,95,,123,119,15,12,4,5,0.4,0.4
2025-08-15T2100,1594A,109.8119,39.5989,鄂尔多斯市,华泰汽车城,,34,34,41,19,20,94,,113,110,12,12,4,6,0.6,0.4
2025-08-15T2100,1595A,109.9734,39.7884,鄂尔多斯市,奥林花园,,,51,50,,20,105,,115,113,17,17,6,8,0.6,0.7
2025-08-15T2100,2436A,114.8938,30.3994,鄂州市,市政府,,22,19,20,7,5,70,,112,104,13,14,7,7,0.3,0.4
2025-08-15T2100,2437A,114.8989,30.3714,鄂州市,赵家坝,,22,22,24,7,4,64,,106,97,14,8,6,7,0.6,0.6
2025-08-15T2100,3654A,114.8094,30.4089,鄂州市,精准医疗中心,,46,46,25,3,4,63,,110,100,14,16,17,13,1.1,1.1
2025-08-15T2100,2454A,109.4978,30.2981,恩施土家族苗族自治州,湖北民院,,11,11,18,3,9,23,,122,45,13,10,4,5,0.5,0.4
2025-08-15T2100,2455A,109.4707,30.2798,恩施土家族苗族自治州,州电力总公司,,7,6,16,3,12,19,,46,37,13,7,3,3,0.5,0.1
2025-08-15T2100,3549A,109.5061,30.3772,恩施土家族苗族自治州,龙凤新区,,16,16,16,3,7,26,,54,42,11,4,4,4,0.3,0.3
2025-08-15T2100,2499A,108.3411,21.6158,防城港市,沙万,,19,15,12,13,13,25,,66,54,22,13,4,4,0.6,0.5
2025-08-15T2100,2500A,108.3514,21.7731,防城港市,防城档案局,,15,10,14,10,10,24,,57,53,12,10,3,3,0.3,0.4
2025-08-15T2100,2501A,108.3506,21.6414,防城港市,大海花园,,13,13,12,8,10,18,,70,58,26,10,7,5,1.0,0.6
2025-08-15T2100,1371A,113.1294,23.0067,佛山市,湾梁,,21,19,10,9,8,2,,40,29,41,23,6,6,0.5,0.4
2025-08-15T2100,1372A,113.1083,23.0478,佛山市,华材职中,,27,27,9,8,6,4,,49,37,32,13,3,3,0.6,0.4
2025-08-15T2100,1373A,113.144,23.0453,佛山市,南海气象局,,19,19,12,9,7,4,,41,29,33,16,4,4,0.7,0.6
2025-08-15T2100,1374A,113.2881,22.8094,佛山市,顺德苏岗,,26,26,12,12,5,12,,28,26,27,16,5,5,0.5,0.4
2025-08-15T2100,1376A,112.8383,22.8678,佛山市,高明孔堂,,21,21,9,6,5,11,,54,42,17,12,5,6,0.6,0.6
2025-08-15T2100,1377A,112.8836,23.1588,佛山市,三水监测站,,22,22,9,9,8,16,,49,40,38,18,5,3,0.6,0.5
2025-08-15T2100,1378A,112.867,23.185,佛山市,三水云东海,,,25,16,11,6,,,46,41,30,23,1,1,0.6,0.7
2025-08-15T2100,3625A,113.2544,22.7642,佛山市,容桂街道办,,25,19,7,17,8,22,,33,29,25,18,6,5,0.6,0.6
2025-08-15T2100,1280A,119.3903,26.0543,福州市,鼓山,,,,,,,,,,,,,,,,
2025-08-15T2100,1282A,119.2681,26.0504,福州市,师大,,15,15,10,3,0,28,,31,31,3,3,5,4,0.1,0.1
2025-08-15T2100,1283A,119.2984,26.1028,福州市,五四北路,,16,16,12,3,2,28,,33,32,8,7,4,4,0.2,0.2
2025-08-15T2100,1284A,119.2648,26.0768,福州市,杨桥西路,,10,9,11,3,2,29,,35,34,5,4,4,3,0.2,0.2
2025-08-15T2100,1285A,119.317,26.0746,福州市,紫阳,,14,14,11,3,0,28,,31,31,5,3,4,4,0.1,0.1
2025-08-15T2100,3048A,119.5799,26.0936,福州市,九龙,,15,15,14,3,2,43,,46,46,4,3,4,4,0.1,0.1
2025-08-15T2100,3526A,119.5189,25.9664,福州市,吴航,,15,15,12,3,4,40,,42,42,1,2,5,6,0.2,0.2
2025-08-15T2100,1755A,123.7977,41.8491,抚顺市,望花区,,25,25,50,12,23,79,,124,107,12,24,6,11,0.5,0.9
2025-08-15T2100,1756A,123.9161,41.8822,抚顺市,顺城区,,31,31,44,11,18,86,,132,113,9,24,5,5,0.6,0.9
2025-08-15T2100,1757A,124.0436,41.8611,抚顺市,东洲区,,30,30,33,13,19,83,,126,108,4,7,5,6,0.5,0.7
2025-08-15T2100,1758A,123.9247,41.8642,抚顺市,新抚区,,27,27,47,12,20,78,,128,109,10,18,7,6,0.6,0.8
2025-08-15T2100,1759A,124.0972,41.8961,抚顺市,大伙房水库,,27,26,28,12,19,86,,126,110,6,12,8,8,0.4,0.6
2025-08-15T2100,1760A,123.7086,41.8391,抚顺市,沈抚新城,,26,26,41,8,22,75,,127,106,14,20,6,7,0.8,0.9
2025-08-15T2100,2376A,116.2127,28.0814,抚州市,桐源党溪,,28,28,20,9,7,32,,45,42,10,7,4,4,0.5,0.5
2025-08-15T2100,2377A,116.3544,27.9831,抚州市,市站,,,,15,14,5,,,57,57,8,3,2,2,0.4,0.3
2025-08-15T2100,2378A,116.3565,27.963,抚州市,血防站,,30,30,17,13,6,67,,56,56,9,5,7,6,0.3,0.3
2025-08-15T2100,2379A,116.3564,28.0007,抚州市,采茶剧团,,32,32,16,22,6,68,,56,56,4,2,6,3,0.3,0.2
2025-08-15T2100,2380A,116.385,27.9647,抚州市,医学分院,,45,45,22,16,6,63,,58,58,9,3,4,4,0.5,0.4
2025-08-15T2100,2207A,121.6094,41.998,阜新市,工业园区,,35,20,44,11,22,110,,150,136,8,11,5,8,0.5,0.6
2025-08-15T2100,2208A,121.6697,42.0279,阜新市,长青街,,32,25,43,13,22,102,,142,130,8,9,10,10,0.5,0.6
2025-08-15T2100,2209A,121.6673,42.0705,阜新市,农业园区,,34,20,48,9,21,106,,143,132,7,8,4,5,0.5,0.7
2025-08-15T2100,2210A,121.6717,42.0224,阜新市,东苑,,32,23,54,17,23,100,,145,130,11,11,14,16,0.4,0.5
2025-08-15T2100,2211A,121.6506,42.0498,阜新市,玉龙新城,,32,24,41,12,18,102,,140,129,7,9,9,10,0.6,0.7
2025-08-15T2100,2301A,115.8277,32.8929,阜阳市,市监测站,,28,28,29,11,14,57,,93,81,18,16,4,4,0.5,0.5
2025-08-15T2100,2303A,115.8554,32.8605,阜阳市,开发区,,42,42,28,6,12,69,,98,87,15,14,6,6,0.3,0.3
2025-08-15T2100,2875A,115.784,32.8892,阜阳市,阜阳职业技术学院,,25,10,26,9,11,78,,100,89,10,11,4,4,0.4,0.3
2025-08-15T2100,3468A,115.7901,32.8613,阜阳市,市规划展馆,,25,25,29,7,10,62,,92,81,13,10,2,2,0.3,0.4
2025-08-15T2100,3469A,115.836,32.9183,阜阳市,枣园社区,,22,22,30,11,12,62,,102,89,12,15,3,3,0.3,0.4
2025-08-15T2100,2669A,102.9099,34.9841,甘南藏族自治州,州政府,颗粒物(PM10),54,58,32,20,15,56,,111,106,31,19,4,4,0.4,0.3
2025-08-15T2100,3380A,102.8914,34.9617,甘南藏族自治州,甘肃民族师范学院,颗粒物(PM10),88,125,43,23,15,20,,122,110,63,20,4,4,0.3,0.2
2025-08-15T2100,2570A,101.9603,30.0475,甘孜藏族自治州,水桥子,,27,13,16,3,7,84,,99,96,14,18,6,6,0.5,0.4
2025-08-15T2100,3065A,101.9533,29.9972,甘孜藏族自治州,州环保局,,,,18,,4,79,,102,96,,19,4,4,,0.5
2025-08-15T2100,3414A,115.8347,28.932,赣江新区,桑海产业园,,31,31,13,11,3,43,,85,77,24,10,3,4,0.3,0.2
2025-08-15T2100,2362A,114.9017,25.9149,赣州市,通天岩,,15,15,13,8,10,16,,39,31,4,3,14,14,0.7,0.6
2025-08-15T2100,2363A,114.9367,25.8664,赣州市,地委,,22,22,12,8,5,33,,49,47,21,7,6,6,0.7,0.4
2025-08-15T2100,2364A,114.9461,25.8481,赣州市,气象台,,26,26,14,3,4,27,,46,43,18,6,9,8,0.4,0.4
2025-08-15T2100,2365A,114.9322,25.8333,赣州市,市图书馆,,30,30,11,15,6,22,,44,41,21,6,4,4,0.5,0.4
2025-08-15T2100,2366A,114.8905,25.8471,赣州市,华坚鞋城,,19,18,14,13,5,40,,48,47,17,10,4,5,0.3,0.3
2025-08-15T2100,3109A,115.0093,25.8613,赣州市,赣县区卫计委,,,28,10,21,6,24,,43,40,12,4,,6,,0.3
2025-08-15T2100,2683A,106.2319,36.1417,固原市,马园,,,,,,,,,,,,,,,,
2025-08-15T2100,2684A,106.2792,36.0022,固原市,监测站,,40,40,31,7,11,84,,114,108,8,8,6,6,0.3,0.3
2025-08-15T2100,2685A,106.2375,36.0211,固原市,新区,,26,24,32,15,22,82,,109,104,10,9,7,7,0.5,0.5
2025-08-15T2100,3522A,106.2177,35.9959,固原市,原州区十五小,,29,19,32,12,18,90,,111,107,7,7,8,8,0.3,0.4
2025-08-15T2100,2543A,106.6308,30.5278,广安市,小平旧居,,,,,,,,,,,,,,,,
2025-08-15T2100,2544A,106.6303,30.4576,广安市,市委,,20,15,32,9,20,62,,85,70,11,13,5,5,0.3,0.4
2025-08-15T2100,2545A,106.6271,30.4663,广安市,友谊中学,,21,18,29,11,19,65,,86,73,9,12,1,2,0.4,0.5
2025-08-15T2100,2547A,106.6388,30.4551,广安市,广电花园,,,18,43,9,20,,,79,67,8,11,3,3,0.4,0.5
2025-08-15T2100,2902A,106.6351,30.4865,广安市,北辰小学,,19,17,44,12,22,59,,80,69,8,9,10,7,0.6,0.7
2025-08-15T2100,2523A,105.8945,32.4535,广元市,黑石坡,,24,24,30,16,16,70,,77,74,6,12,8,9,0.2,0.4
2025-08-15T2100,2524A,105.821,32.4444,广元市,老城,,29,12,13,9,7,90,,98,95,6,18,1,2,0.5,0.6
2025-08-15T2100,2526A,105.8628,32.4287,广元市,监测站,,26,11,19,7,11,82,,88,86,6,12,4,6,0.7,0.8
2025-08-15T2100,3617A,105.8047,32.4166,广元市,经开区,,26,18,27,10,15,82,,85,81,4,18,4,4,0.5,0.7
2025-08-15T2100,1345A,113.2347,23.1423,广州市,广雅中学,,,46,15,24,7,,,59,47,52,22,3,3,0.6,0.4
2025-08-15T2100,1346A,113.2612,23.105,广州市,市五中,,36,36,18,20,8,12,,57,41,43,24,5,5,0.5,0.4
2025-08-15T2100,1348A,113.3478,23.0916,广州市,广东商学院,,,,12,,8,,,35,,,21,,4,,0.4
2025-08-15T2100,1349A,113.4332,23.1047,广州市,市八十六中,,25,25,12,16,6,2,,47,27,50,29,3,4,0.5,0.4
2025-08-15T2100,1350A,113.3505,22.9483,广州市,番禺中学,,30,29,12,21,6,6,,50,37,40,14,6,6,0.6,0.4
2025-08-15T2100,1351A,113.2146,23.3916,广州市,花都师范,,22,22,12,11,5,44,,63,56,34,25,4,4,0.6,0.5
2025-08-15T2100,1352A,113.2597,23.1331,广州市,市监测站,,27,27,13,14,9,4,,59,42,41,19,5,5,0.5,0.3
2025-08-15T2100,1353A,113.5618,23.312,广州市,九龙镇镇龙,,24,24,9,9,4,15,,53,44,26,13,6,6,0.5,0.4
2025-08-15T2100,1354A,113.2765,23.1544,广州市,麓湖,,22,22,12,8,5,4,,56,36,27,21,3,3,0.5,0.5
2025-08-15T2100,1355A,113.443,23.3035,广州市,帽峰山森林公园,,14,14,5,8,7,19,,63,49,10,8,8,9,0.5,0.4
2025-08-15T2100,2846A,113.3221,23.1322,广州市,体育西,,43,42,18,30,10,8,,60,45,47,26,3,3,0.8,0.5
2025-08-15T2100,3298A,113.5717,23.5491,广州市,从化街口,,23,23,8,12,5,13,,39,32,19,10,7,7,0.6,0.5
2025-08-15T2100,3299A,113.3472,23.3692,广州市,白云竹料,,28,28,10,14,5,24,,58,50,34,18,4,4,0.6,0.5
2025-08-15T2100,3300A,113.2981,23.237,广州市,白云嘉禾,,25,23,10,17,7,4,,60,40,45,23,4,4,0.7,0.4
2025-08-15T2100,3301A,113.4256,23.1716,广州市,黄埔科学城,,24,24,12,12,7,10,,64,47,25,16,5,4,0.5,0.4
2025-08-15T2100,3302A,113.3942,23.0483,广州市,番禺大学城,,27,27,14,14,6,12,,55,35,38,21,7,8,0.4,0.4
2025-08-15T2100,3303A,113.4922,22.8168,广州市,南沙黄阁,,19,19,18,7,7,17,,45,40,32,16,5,4,0.6,0.4
2025-08-15T2100,3304A,113.5342,22.7896,广州市,南沙街,,20,20,12,7,5,29,,46,42,19,13,5,5,0.5,0.5
2025-08-15T2100,3443A,113.2902,23.5544,广州市,花都梯面,,,19,10,9,3,,,55,47,21,9,6,5,0.4,0.4
2025-08-15T2100,3445A,113.7858,23.7478,广州市,从化良口,,9,9,6,3,4,11,,30,27,10,5,4,4,0.5,0.4
2025-08-15T2100,3446A,113.8051,23.2614,广州市,增城荔城,,17,17,10,11,6,33,,56,55,10,7,7,7,0.4,0.3
2025-08-15T2100,2505A,109.568,23.1478,贵港市,德智高中,,,,,,,,,,,,,,,,
2025-08-15T2100,2506A,109.6047,23.0666,贵港市,江南子站,,18,17,24,12,18,23,,40,32,16,13,10,9,0.9,0.6
2025-08-15T2100,2508A,109.5669,23.1065,贵港市,荷城子站,,11,6,14,3,8,33,,42,37,8,10,6,7,0.4,0.6
2025-08-15T2100,3405A,109.5886,23.1172,贵港市,新世纪学校,,10,7,15,7,13,30,,42,37,10,11,3,6,0.5,0.7
2025-08-15T2100,4260A,109.5933,23.0951,贵港市,中山路155-3号,,19,19,25,9,14,33,,46,40,11,11,3,5,0.4,0.6
2025-08-15T2100,1439A,106.6899,26.5998,贵阳市,马鞍山,,,5,12,,3,57,,43,43,10,9,4,4,0.2,0.2
2025-08-15T2100,1441A,106.6243,26.6266,贵阳市,鉴湖路,,19,19,26,3,6,43,,41,39,7,8,3,3,0.3,0.3
2025-08-15T2100,1442A,106.7487,26.6343,贵阳市,燕子冲,,17,,11,7,13,52,,47,46,13,12,2,3,0.1,0.1
2025-08-15T2100,1443A,106.6555,26.4365,贵阳市,碧云窝,,18,12,25,3,7,56,,54,53,6,9,4,4,0.2,0.2
2025-08-15T2100,1445A,106.7109,26.6027,贵阳市,红边门,,14,9,15,7,11,43,,48,43,18,13,3,3,0.3,0.3
2025-08-15T2100,1446A,106.7164,26.5699,贵阳市,新华路,,15,9,13,9,12,48,,52,47,16,13,1,2,0.1,0.2
2025-08-15T2100,1447A,106.674,26.5424,贵阳市,太慈桥,,16,6,11,3,5,50,,47,44,9,11,4,4,0.1,0.1
2025-08-15T2100,1552A,106.805,26.3003,贵阳市,桐木岭,,,19,27,9,16,,,56,,7,6,4,3,0.8,0.9
2025-08-15T2100,4230A,106.6882,26.5695,贵阳市,花果园大街66号,,15,,5,3,11,48,,52,46,11,11,3,3,0.3,0.4
2025-08-15T2100,4231A,106.6873,26.5169,贵阳市,漓江路57号,,,7,13,3,7,,,52,49,8,10,3,3,0.4,0.4
2025-08-15T2100,1862A,110.4144,25.3167,桂林市,电子科大尧山校区,,,,,,,,,,,,,,,,
2025-08-15T2100,1864A,110.3089,25.2708,桂林市,龙隐路小学,,25,25,12,16,6,36,,52,50,11,7,15,5,0.3,0.3
2025-08-15T2100,1865A,110.2869,25.2178,桂林市,八中,,24,24,11,9,8,35,,53,50,15,10,15,7,0.7,0.6
2025-08-15T2100,3531A,110.296,25.1253,桂林市,旅游学院,,17,17,4,9,3,38,,52,50,11,4,7,3,0.4,0.3
2025-08-15T2100,4222A,110.1835,25.2444,桂林市,环湖路276号,,19,19,10,9,6,35,,51,48,8,4,14,6,0.4,0.3
2025-08-15T2100,4301A,110.2803,25.2773,桂林市,信义路13号,,25,24,13,17,8,35,,56,52,17,9,14,6,0.7,0.7
2025-08-15T2100,2674A,100.2561,34.4714,果洛藏族自治州,玛沁县大武镇,,38,38,31,22,11,94,,121,119,8,8,14,13,0.2,0.2
2025-08-15T2100,1129A,126.5422,45.755,哈尔滨市,岭北,,40,28,29,23,20,125,,151,145,10,13,9,11,0.9,0.9
2025-08-15T2100,1130A,126.561,45.8167,哈尔滨市,松北商大,,47,47,33,21,14,88,,126,115,10,11,5,6,0.6,0.5
2025-08-15T2100,1131A,126.979,45.5419,哈尔滨市,阿城会宁,,42,42,32,25,18,96,,129,110,9,9,6,6,0.6,0.6
2025-08-15T2100,1132A,126.599,45.7222,哈尔滨市,南岗学府路,颗粒物(PM10),54,57,39,22,14,107,,134,127,12,12,7,6,0.8,0.7
2025-08-15T2100,1133A,126.689,45.7733,哈尔滨市,太平宏伟公园,颗粒物(PM10),51,51,39,14,13,99,,130,122,10,12,7,7,0.7,0.6
2025-08-15T2100,1134A,126.635,45.7667,哈尔滨市,道外承德广场,颗粒物(PM10),56,62,49,20,15,93,,131,120,14,16,7,8,0.6,0.5
2025-08-15T2100,1135A,126.685,45.7319,哈尔滨市,香坊红旗大街,细颗粒物(PM2.5),60,46,34,43,26,98,,130,122,16,18,9,9,0.7,0.6
2025-08-15T2100,1136A,126.6411,45.7258,哈尔滨市,动力和平路,,,46,40,,11,112,,138,132,12,15,6,6,0.6,0.7
2025-08-15T2100,1137A,126.593,45.7478,哈尔滨市,道里建国路,,47,47,41,24,20,108,,143,133,12,14,8,9,0.3,0.4
2025-08-15T2100,1138A,126.615,45.61,哈尔滨市,平房东轻厂,,43,43,38,21,14,98,,123,117,15,13,7,7,0.6,0.5
2025-08-15T2100,1139A,126.595,45.9855,哈尔滨市,呼兰师专,,32,17,30,9,20,102,,129,124,8,10,8,7,0.6,0.6
2025-08-15T2100,1140A,126.6206,45.6842,哈尔滨市,省农科院,颗粒物(PM10),51,52,55,25,22,100,,122,115,15,21,10,10,0.6,0.5
2025-08-15T2100,2688A,93.5128,42.8172,哈密市,地区监测站,,50,50,50,11,28,86,,112,108,27,20,3,3,0.3,0.2
2025-08-15T2100,2689A,93.4961,42.8328,哈密市,哈密师范学校,颗粒物(PM10),64,78,52,16,16,69,,104,99,38,21,4,5,0.5,0.4
2025-08-15T2100,2671A,100.9048,36.9639,海北藏族自治州,海晏县西海镇,,41,20,19,13,12,130,,139,139,3,5,7,7,0.3,0.4
2025-08-15T2100,3867A,102.0738,36.5056,海东市,平安区公安北苑,细颗粒物(PM2.5),52,40,32,36,14,113,,140,138,19,8,14,13,0.7,0.6
2025-08-15T2100,1409A,110.576,19.9507,海口市,东寨港,,9,,10,6,8,25,,39,36,3,3,7,4,0.3,0.3
2025-08-15T2100,1410A,110.3232,20.0574,海口市,海南大学,,11,11,17,6,8,32,,50,47,3,4,3,3,0.2,0.3
2025-08-15T2100,1411A,110.283,20.0053,海口市,秀英海南医院,,,,19,5,8,30,,46,43,4,10,6,6,0.3,0.3
2025-08-15T2100,1412A,110.338,19.9969,海口市,海南师范大学,,14,14,17,3,8,29,,48,45,5,6,4,4,0.3,0.4
2025-08-15T2100,1413A,110.33,20.0356,海口市,龙华路环保局宿舍,,16,16,18,7,9,32,,49,46,4,6,5,5,0.3,0.3
2025-08-15T2100,3539A,110.5111,19.9736,海口市,桂林洋子站,,17,17,18,6,7,28,,42,40,4,6,5,5,0.2,0.2
2025-08-15T2100,2673A,100.6188,36.2866,海南藏族自治州,共和县恰卜恰镇,颗粒物(PM10),54,57,28,3,11,97,,138,134,20,10,14,13,0.6,0.5
2025-08-15T2100,2676A,97.3731,37.3753,海西蒙古族藏族自治州,德令哈市,,40,36,30,21,12,127,,134,133,1,2,10,14,0.4,0.4
2025-08-15T2100,1048A,114.5302,36.6116,邯郸市,东污水处理厂,,28,28,39,16,30,36,,94,68,20,9,5,6,0.4,0.5
2025-08-15T2100,1049A,114.4918,36.5713,邯郸市,矿院,,24,24,32,3,22,41,,92,70,17,9,3,4,0.4,0.5
2025-08-15T2100,1050A,114.484,36.6133,邯郸市,丛台公园,,16,16,35,7,26,50,,99,79,16,10,5,4,0.5,0.5
2025-08-15T2100,3458A,114.7895,36.5593,邯郸市,香泉濮院小区,,,9,42,,10,34,,88,,15,9,2,5,0.2,0.4
2025-08-15T2100,3579A,114.50634,36.77178,邯郸市,永年区实验高中,,42,42,48,22,31,50,,109,82,15,11,3,3,0.6,0.4
2025-08-15T2100,3580A,114.20016,36.44293,邯郸市,峰峰矿区临水派出所,,,19,34,,13,59,,110,82,10,6,4,3,0.1,0.3
2025-08-15T2100,2634A,106.9893,33.1842,汉中市,汉川机床厂子校,,20,,28,9,15,62,,85,76,7,13,3,3,0.5,0.6
2025-08-15T2100,2635A,107.0154,33.0706,汉中市,市监测站,,19,14,38,7,24,58,,81,74,5,11,5,6,0.5,0.6
2025-08-15T2100,2636A,107.0089,33.1138,汉中市,鑫源开发区,,17,9,37,8,22,53,,80,70,5,16,6,6,0.4,0.5
2025-08-15T2100,2637A,107.007,33.0323,汉中市,南郑大河坎水厂,,18,15,33,8,20,56,,77,69,5,11,6,6,0.4,0.5
2025-08-15T2100,1223A,120.2072,30.2111,杭州市,滨江,,28,28,15,7,9,71,,91,91,22,11,7,8,0.4,0.4
2025-08-15T2100,1224A,120.0633,30.2747,杭州市,西溪,,25,,13,17,7,79,,94,92,15,9,11,10,0.4,0.3
2025-08-15T2100,1226A,120.3417,30.3150,杭州市,下沙,,20,20,15,7,6,47,,96,91,25,14,6,6,0.3,0.2
2025-08-15T2100,1227A,120.1269,30.2456,杭州市,卧龙桥,,24,24,16,15,8,70,,97,94,16,7,8,7,0.5,0.4
2025-08-15T2100,1228A,120.1903,30.2692,杭州市,浙江农大,,29,29,17,12,7,59,,86,84,21,8,6,6,0.4,0.3
2025-08-15T2100,1230A,120.1197,30.3119,杭州市,和睦小学,,28,28,15,9,7,71,,98,95,20,9,6,6,0.4,0.3
2025-08-15T2100,1231A,120.3019,30.4183,杭州市,临平镇,,34,34,22,3,9,58,,102,97,12,8,6,6,0.3,0.2
2025-08-15T2100,1232A,120.2753,30.1839,杭州市,城厢镇,,39,39,28,16,8,57,,88,87,27,9,8,7,0.4,0.3
2025-08-15T2100,1233A,120.0883,30.1808,杭州市,云栖,,30,22,17,8,8,95,,102,101,19,14,9,9,0.7,0.6
2025-08-15T2100,3557A,119.9464,30.0494,杭州市,镇二中,颗粒物(PM10),68,86,17,35,9,71,,83,82,27,12,5,4,0.4,0.3
2025-08-15T2100,3558A,119.7183,30.2367,杭州市,市府大楼,,31,21,17,11,10,98,,96,96,13,12,8,8,0.3,0.3
2025-08-15T2100,3656A,120.1556,30.2864,杭州市,消防大队,,26,26,23,14,9,67,,94,92,21,9,6,7,0.6,0.5
2025-08-15T2100,1270A,117.1959,31.7848,合肥市,明珠广场,,,9,18,7,9,,,107,94,14,14,6,7,0.5,0.5
2025-08-15T2100,1271A,117.3072,31.8764,合肥市,三里街,,22,22,21,3,10,53,,94,76,18,16,6,7,0.4,0.5
2025-08-15T2100,1272A,117.2588,31.8707,合肥市,琥珀山庄,,21,19,27,14,11,66,,117,94,12,13,8,9,0.5,0.5
2025-08-15T2100,1273A,117.1604,31.9052,合肥市,董铺水库,,15,12,24,3,16,48,,93,80,12,10,6,5,0.3,0.2
2025-08-15T2100,1274A,117.25,31.8571,合肥市,长江中路,,24,24,28,8,10,70,,110,89,12,14,7,7,0.4,0.4
2025-08-15T2100,1275A,117.266,31.9436,合肥市,庐阳区,,29,29,30,7,10,55,,118,95,21,20,6,7,0.5,0.5
2025-08-15T2100,1276A,117.3453,31.8616,合肥市,瑶海区,,18,14,24,3,8,55,,99,81,16,18,6,6,0.5,0.5
2025-08-15T2100,1277A,117.3027,31.7964,合肥市,包河区,,22,14,20,9,10,68,,99,83,10,11,6,6,0.5,0.5
2025-08-15T2100,1278A,117.2776,31.7385,合肥市,滨湖新区,,23,14,21,14,13,71,,97,82,9,8,8,8,0.4,0.4
2025-08-15T2100,1279A,117.1318,31.8403,合肥市,高新区,,24,19,20,11,8,74,,107,96,12,14,5,6,0.4,0.4
2025-08-15T2100,3464A,117.3803,31.9147,合肥市,高教基地,,16,14,19,10,11,51,,103,84,13,12,6,5,0.5,0.5
2025-08-15T2100,3614A,79.924,37.0877,和田地区,地区环保局,细颗粒物(PM2.5),500,,612,1589,229,114,,96,95,5,9,1,2,0.3,0.3
2025-08-15T2100,3615A,79.9131,37.113,和田地区,市环保局,"颗粒物(PM10),细颗粒物(PM2.5)",500,6568,778,966,147,,,88,85,6,18,1,1,0.0,0.2
2025-08-15T2100,2516A,108.2011,24.715,河池市,东仁乐园,,,,,,,,,,,,,,,,
2025-08-15T2100,2517A,108.0497,24.6947,河池市,市环保站,,11,6,11,3,6,34,,52,45,14,10,4,4,0.6,0.5
2025-08-15T2100,2518A,108.0983,24.6989,河池市,市疾控中心,,10,9,10,6,8,21,,42,38,20,12,5,6,0.6,0.6
2025-08-15T2100,1696A,114.6778,23.7569,河源市,源西,,14,14,16,3,4,3,,39,31,14,7,4,4,0.7,0.7
2025-08-15T2100,1697A,114.6944,23.7586,河源市,东埔,,15,13,13,7,7,9,,50,42,30,13,4,4,0.6,0.5
2025-08-15T2100,1698A,114.6892,23.7233,河源市,老城,,14,14,15,3,6,11,,48,41,20,10,4,4,0.7,0.6
2025-08-15T2100,1718A,115.4208,35.2464,菏泽市,气象局,,27,27,34,16,20,57,,121,110,10,9,2,3,0.3,0.4
2025-08-15T2100,3374A,115.5564,35.0891,菏泽市,定陶老年大学,,36,36,30,19,15,74,,110,101,14,10,4,6,0.4,0.4
2025-08-15T2100,4184A,115.4797,35.24401,菏泽市,永昌路1号,,29,29,36,16,22,67,,120,108,14,14,6,8,0.1,0.1
2025-08-15T2100,4193A,115.4715,35.2800,菏泽市,长城路999号,,19,19,33,6,15,59,,127,112,12,13,8,8,0.3,0.4
2025-08-15T2100,2514A,111.5264,24.4172,贺州市,环保小区,,22,22,11,11,7,50,,64,64,13,7,12,11,0.9,0.8
2025-08-15T2100,2515A,111.5608,24.4078,贺州市,政协大楼,,,,12,,6,,,69,69,12,6,10,11,0.7,0.6
2025-08-15T2100,3534A,111.4744,24.4553,贺州市,西湾,,18,18,10,12,5,49,,65,65,19,9,9,9,0.7,0.7
2025-08-15T2100,2385A,114.17,35.9019,鹤壁市,市监测站,,15,14,32,9,24,48,,103,82,8,9,3,4,0.3,0.4
2025-08-15T2100,2386A,114.2956,35.7511,鹤壁市,市交警支队,,33,,36,23,30,52,,96,82,16,16,8,8,0.6,0.5
2025-08-15T2100,2387A,114.2878,35.7306,鹤壁市,迎宾馆,,17,17,46,11,29,52,,99,85,6,8,3,4,0.5,0.7
2025-08-15T2100,3474A,114.2617,35.6822,鹤壁市,大新区,,,,37,3,21,,,98,89,3,7,7,8,0.4,0.6
2025-08-15T2100,3596A,114.1572,35.9603,鹤壁市,南山宾馆,,,17,32,13,19,,,108,89,7,9,4,4,0.4,0.5
2025-08-15T2100,2244A,130.2537,47.3416,鹤岗市,哈啤分公司,,,0,17,,9,89,,99,98,2,8,8,11,0.5,0.7
2025-08-15T2100,2245A,130.2684,47.3086,鹤岗市,斯达机电,,29,25,31,10,11,92,,102,102,7,9,11,12,0.5,0.5
2025-08-15T2100,2246A,130.3114,47.3388,鹤岗市,东山纸板厂,,30,29,30,14,13,94,,103,102,6,17,13,13,0.7,0.6
2025-08-15T2100,2247A,130.1097,47.3382,鹤岗市,五号水库,,25,13,8,3,4,80,,85,77,7,9,7,8,0.2,0.2
2025-08-15T2100,2263A,127.4833,50.2524,黑河市,交通局,,22,22,17,10,9,24,,40,34,8,10,4,4,0.3,0.3
2025-08-15T2100,2264A,127.5144,50.2341,黑河市,环保局,,23,,17,16,10,25,,46,37,10,8,4,4,0.2,0.2
2025-08-15T2100,2265A,127.5291,50.2472,黑河市,大黑河岛,,,,,,,14,,37,21,8,5,21,22,,
2025-08-15T2100,1074A,115.6838,37.7541,衡水市,电机北厂,,25,25,46,16,28,71,,110,99,10,9,5,7,0.2,0.3
2025-08-15T2100,1075A,115.6303,37.7316,衡水市,市监测站,,44,44,49,17,24,66,,106,94,9,10,7,8,0.6,0.6
2025-08-15T2100,3188A,115.6683,37.7217,衡水市,市城管局,,50,50,49,30,29,76,,111,102,8,10,3,2,0.9,0.9
2025-08-15T2100,3459A,115.5989,37.5491,衡水市,地表水厂,,,82,55,18,23,,,105,102,6,13,7,8,0.3,0.3
2025-08-15T2100,2456A,112.5003,26.9167,衡阳市,原169医院,,20,19,11,14,5,36,,64,59,4,3,2,4,0.5,0.5
2025-08-15T2100,2457A,112.6194,26.9258,衡阳市,衡阳化工总厂,,37,37,15,16,5,29,,54,46,15,5,8,5,0.7,0.6
2025-08-15T2100,2458A,112.6211,26.8956,衡阳市,珠晖区环保局,,26,26,11,10,9,29,,55,49,18,8,7,6,0.6,0.5
2025-08-15T2100,2459A,112.6197,26.8733,衡阳市,市委党校,,20,20,8,8,5,41,,56,53,10,7,10,9,0.3,0.2
2025-08-15T2100,2460A,112.6006,26.8919,衡阳市,市监测站,,31,31,11,21,5,36,,56,52,13,7,4,5,0.5,0.5
2025-08-15T2100,2461A,112.5664,26.9056,衡阳市,真空机电公司,,22,22,11,10,10,33,,58,53,14,4,7,5,0.7,0.6
2025-08-15T2100,3399A,112.6703,26.882,衡阳市,师范学院,,19,18,15,13,4,34,,51,46,12,6,11,8,0.8,0.6
2025-08-15T2100,2608A,103.3772,23.3993,红河哈尼族彝族自治州,污水处理厂,,40,,35,28,26,69,,84,81,6,14,8,14,0.3,0.4
2025-08-15T2100,2609A,103.3861,23.35,红河哈尼族彝族自治州,监测站,,32,32,40,19,21,59,,82,79,5,12,9,22,0.2,0.3
2025-08-15T2100,3038A,103.3758,23.368,红河哈尼族彝族自治州,州图书馆,,36,,35,25,24,63,,84,80,6,11,2,18,0.3,0.4
2025-08-15T2100,1090A,111.6507,40.7517,呼和浩特市,呼市一监,,40,14,32,6,18,126,,114,112,6,14,2,3,0.4,0.3
2025-08-15T2100,1091A,111.6572,40.8033,呼和浩特市,小召,,42,14,34,7,22,132,,123,123,9,19,8,9,0.5,0.6
2025-08-15T2100,1094A,111.7516,40.8369,呼和浩特市,如意水处理厂,,42,10,38,3,18,133,,133,132,7,21,5,5,0.3,0.5
2025-08-15T2100,1095A,111.7276,40.8062,呼和浩特市,二十九中,,43,33,37,6,20,137,,135,135,6,16,6,6,0.4,0.6
2025-08-15T2100,1096A,111.5512,40.7866,呼和浩特市,工大金川校区,,42,18,32,6,16,132,,97,,6,26,4,6,0.3,0.6
2025-08-15T2100,1097A,111.717,40.7612,呼和浩特市,化肥厂生活区,,42,20,38,7,18,134,,130,129,8,17,5,6,0.4,0.5
2025-08-15T2100,3698A,111.5968,40.8178,呼和浩特市,红旗小学,,43,14,35,6,17,136,,131,131,10,26,3,5,0.3,0.4
2025-08-15T2100,3699A,111.6518,40.8389,呼和浩特市,海东办,,45,12,36,3,18,143,,139,139,8,19,5,5,0.4,0.5
2025-08-15T2100,2192A,119.7594,49.2261,呼伦贝尔市,区环保局,,43,43,29,23,17,1,,38,34,45,21,5,5,0.3,0.4
2025-08-15T2100,3061A,119.7512,49.1577,呼伦贝尔市,国华电力东,,27,27,20,15,8,26,,51,48,24,10,8,8,0.7,0.6
2025-08-15T2100,1250A,120.0751,30.8669,湖州市,城西水厂,,25,25,22,12,11,72,,118,113,13,8,8,7,0.4,0.3
2025-08-15T2100,2873A,120.0830,30.8929,湖州市,仁皇山新区,,26,26,22,10,10,70,,111,107,12,10,5,4,0.4,0.4
2025-08-15T2100,2907A,120.1844,30.8596,湖州市,吴兴区站,,23,23,23,10,10,59,,108,102,14,10,7,7,0.6,0.5
2025-08-15T2100,3562A,120.4148,30.8538,湖州市,南浔区站,,20,20,20,11,9,50,,93,87,13,8,7,5,0.5,0.6
2025-08-15T2100,1607A,120.9049,40.7211,葫芦岛市,龙港区,,28,14,41,3,20,89,,136,127,4,6,4,4,0.5,0.6
2025-08-15T2100,1608A,120.8392,40.7514,葫芦岛市,化工街,,28,17,24,9,17,89,,127,119,9,9,6,6,0.3,0.2
2025-08-15T2100,1609A,120.8341,40.7073,葫芦岛市,新区,,29,20,29,8,21,91,,129,123,4,5,3,4,0.6,0.7
2025-08-15T2100,1610A,120.8695,40.7677,葫芦岛市,东城区,,30,17,28,13,22,95,,138,131,8,8,3,3,0.6,0.7
2025-08-15T2100,2482A,109.5981,27.5721,怀化市,林科所,,17,17,13,3,3,16,,32,28,5,4,4,5,0.7,0.5
2025-08-15T2100,2483A,109.9453,27.5444,怀化市,河西地税局,,11,11,13,3,7,16,,43,40,13,6,3,3,0.2,0.1
2025-08-15T2100,2484A,109.9781,27.5342,怀化市,市四医院,,16,16,15,8,14,33,,52,49,8,4,4,3,0.4,0.4
2025-08-15T2100,2485A,109.9972,27.5578,怀化市,监测楼,,17,17,15,11,8,23,,42,39,12,6,4,4,0.3,0.3
2025-08-15T2100,2486A,110.0394,27.583,怀化市,市委党校,,26,26,13,8,7,16,,36,32,12,4,7,6,0.2,0.1
2025-08-15T2100,1210A,119.036,33.5981,淮安市,钵池山,,38,27,22,14,12,120,,138,136,12,13,9,8,0.6,0.6
2025-08-15T2100,1211A,119.007,33.575,淮安市,北京南路,,40,31,26,14,11,127,,128,128,13,12,7,7,0.7,0.7
2025-08-15T2100,1212A,118.989,33.6067,淮安市,市监测站,,42,29,28,22,15,134,,131,131,12,12,9,9,0.6,0.5
2025-08-15T2100,1213A,119.135,33.5039,淮安市,楚州区监测站,,44,44,33,14,11,91,,122,116,21,13,7,7,0.3,0.3
2025-08-15T2100,3426A,118.8755,33.2894,淮安市,新华书店,,40,32,27,15,13,126,,147,147,15,13,6,6,0.6,0.6
2025-08-15T2100,4206A,119.0288,33.6319,淮安市,承德北路606号,,35,34,30,15,13,111,,127,126,18,11,6,6,0.3,0.3
2025-08-15T2100,2282A,116.8004,33.975,淮北市,监测站,,35,25,31,19,16,112,,143,136,16,10,8,7,0.6,0.6
2025-08-15T2100,2283A,116.8091,33.9007,淮北市,烈山区政府,颗粒物(PM10),54,58,44,7,12,104,,144,135,11,7,7,7,0.5,0.5
2025-08-15T2100,3330A,116.8873,33.9836,淮北市,杜集区检察院,,34,34,29,12,13,104,,126,123,10,7,7,7,0.6,0.6
2025-08-15T2100,4017A,116.7923,33.9535,淮北市,市博物馆,,41,41,31,11,14,113,,146,138,12,9,8,8,0.5,0.5
2025-08-15T2100,2277A,116.8305,32.7727,淮南市,潘集区政府,,33,33,28,11,13,60,,110,91,17,10,1,1,0.2,0.3
2025-08-15T2100,2279A,116.8569,32.5951,淮南市,谢家集区政府,,28,23,28,9,8,89,,104,96,8,9,6,8,0.2,0.2
2025-08-15T2100,2280A,116.8281,32.633,淮南市,八公山区政府,,29,24,21,13,11,90,,100,96,9,8,8,8,0.4,0.3
2025-08-15T2100,2281A,116.6325,32.6201,淮南市,焦岗湖风景区管理处,,,,,,,,,,,,,,,,
2025-08-15T2100,2894A,117.0566,32.6531,淮南市,经济技术开发区消防队,,,38,26,3,4,,,110,100,35,13,8,8,0.2,0.2
2025-08-15T2100,3329A,117.0108,32.5893,淮南市,山南新区,,24,11,12,3,6,75,,106,96,11,7,4,5,0.5,0.4
2025-08-15T2100,4209A,117.0031,32.6445,淮南市,国庆中路369号,,33,33,29,18,11,100,,103,96,11,10,4,4,0.4,0.4
2025-08-15T2100,2446A,114.9028,30.4742,黄冈市,职工中心,,27,20,18,10,10,84,,122,116,9,7,8,8,0.3,0.3
2025-08-15T2100,2929A,114.8858,30.4519,黄冈市,红卫路,,22,22,20,13,12,67,,112,103,19,11,10,10,0.4,0.3
2025-08-15T2100,3398A,114.9136,30.4445,黄冈市,市林业局,,25,25,22,11,9,67,,116,106,21,11,9,9,0.5,0.4
2025-08-15T2100,2672A,102.0199,35.5102,黄南藏族自治州,同仁县隆务镇,,,,23,,7,,,127,127,1,2,9,9,,0.2
2025-08-15T2100,2295A,118.2903,29.6963,黄山市,延安路89号,,24,24,17,3,6,36,,57,52,5,6,4,4,0.3,0.3
2025-08-15T2100,2297A,118.1371,30.2756,黄山市,黄山区政府5号楼,,13,11,15,9,5,22,,54,48,7,3,4,4,0.6,0.4
2025-08-15T2100,4210A,118.3354,29.7203,黄山市,滨江东路7-2号,,23,23,17,3,6,30,,56,54,17,5,2,2,0.3,0.3
2025-08-15T2100,2423A,115.0601,30.2313,黄石市,沈家营,,32,32,32,3,6,47,,97,83,18,14,8,8,0.5,0.5
2025-08-15T2100,2426A,114.8988,30.2019,黄石市,铁山,,25,25,17,3,3,51,,82,80,15,7,5,5,0.4,0.4
2025-08-15T2100,2427A,115.0307,30.2092,黄石市,团城山,,21,20,22,3,2,66,,106,100,5,9,11,11,0.4,0.3
2025-08-15T2100,3149A,115.0235,30.1578,黄石市,笔架山北路,,19,19,15,3,3,55,,89,85,7,6,7,9,0.4,0.4
2025-08-15T2100,4185A,115.0780,30.21118,黄石市,磁湖东路29号,,32,32,27,6,8,58,,93,86,4,7,13,13,0.5,0.6
2025-08-15T2100,1392A,114.4183,23.0528,惠州市,河南岸金山湖子站,,,13,11,8,5,,,46,46,11,8,7,7,0.5,0.5
2025-08-15T2100,1393A,114.4053,23.0822,惠州市,下埔横江三路子站,,18,18,12,10,6,34,,48,46,10,7,4,6,0.4,0.4
2025-08-15T2100,1394A,114.4103,23.1142,惠州市,江北云山西路子站,,15,15,11,7,5,30,,51,48,18,10,7,8,0.6,0.5
2025-08-15T2100,1395A,114.4645,22.7833,惠州市,惠阳区承修路船湖子站,,27,27,14,11,6,54,,55,55,8,7,7,6,0.5,0.5
2025-08-15T2100,1396A,114.5317,22.7422,惠州市,大亚湾管委会子站,,22,22,12,10,5,61,,59,59,12,8,8,7,0.5,0.5
2025-08-15T2100,3314A,114.4338,22.8134,惠州市,惠阳秋长,,19,19,10,8,6,52,,61,61,16,8,8,8,0.4,0.4
2025-08-15T2100,3452A,114.6517,22.775,惠州市,大亚湾霞涌,,23,12,12,9,4,72,,66,66,8,6,6,5,0.7,0.6
2025-08-15T2100,2240A,130.9762,45.3001,鸡西市,环保局,,,39,29,12,12,,,57,,14,19,7,6,0.3,0.4
2025-08-15T2100,2243A,130.9429,45.3039,鸡西市,第一中学,,49,49,24,14,10,85,,104,100,13,13,10,12,0.5,0.4
2025-08-15T2100,3707A,131.0207,45.3073,鸡西市,欧美日汽修厂,,28,15,29,14,12,88,,105,98,13,19,9,9,0.5,0.6
2025-08-15T2100,3709A,130.9967,45.3106,鸡西市,市政设施管理处,,40,40,35,15,12,91,,109,103,15,22,7,7,0.6,0.6
2025-08-15T2100,2367A,114.9754,27.0803,吉安市,红声器材厂,,18,18,14,3,4,52,,51,51,5,2,8,9,0.5,0.4
2025-08-15T2100,2368A,114.9658,27.0999,吉安市,市森林工业局,,21,21,11,9,3,50,,49,49,6,3,7,8,0.1,0.3
2025-08-15T2100,2369A,114.99,27.1312,吉安市,市环境监测站,,15,10,14,10,5,44,,56,55,9,2,11,12,0.5,0.4
2025-08-15T2100,2370A,115.0093,27.0968,吉安市,青原区法院,,20,20,10,7,4,40,,48,48,15,5,9,8,0.6,0.5
2025-08-15T2100,1772A,126.54,43.8622,吉林市,哈达湾,,,43,28,29,16,,,123,101,24,15,7,7,0.7,0.6
2025-08-15T2100,1773A,126.5844,43.8358,吉林市,东局子,,39,34,27,27,17,40,,111,83,25,12,5,5,1.1,0.7
2025-08-15T2100,1774A,126.5052,43.8245,吉林市,电力学院,细颗粒物(PM2.5),52,47,37,36,19,41,,116,87,24,17,6,6,0.8,0.7
2025-08-15T2100,1775A,126.6133,43.8972,吉林市,江北,,33,30,25,23,16,34,,114,82,16,8,4,4,1.1,0.8
2025-08-15T2100,1776A,126.555,43.8306,吉林市,江南公园,,49,49,29,21,16,38,,123,95,34,13,2,2,0.7,0.4
2025-08-15T2100,1778A,126.7061,43.7133,吉林市,丰满,,26,22,19,18,17,79,,141,121,4,5,5,5,0.9,0.8
2025-08-15T2100,2868A,126.4739,43.953,吉林市,九站,,44,44,36,27,16,112,,128,106,11,16,3,4,0.5,0.5
2025-08-15T2100,1299A,116.9862,36.6114,济南市,科干所,,22,17,18,15,15,37,,102,82,17,11,5,5,0.5,0.5
2025-08-15T2100,1300A,116.9376,36.665,济南市,农科所,,16,15,21,10,11,15,,100,75,32,17,7,8,0.5,0.4
2025-08-15T2100,1301A,117.1265,36.6734,济南市,开发区,,22,,23,15,15,59,,117,98,16,14,6,7,0.5,0.6
2025-08-15T2100,1303A,117.0624,36.6868,济南市,省种子仓库,,18,14,27,12,10,36,,118,91,32,18,4,4,0.7,0.6
2025-08-15T2100,1304A,116.9489,36.6447,济南市,机床二厂,,15,15,20,3,9,44,,109,85,23,15,8,9,0.4,0.4
2025-08-15T2100,1305A,117.0495,36.663,济南市,市监测站,,18,17,22,12,13,37,,107,81,29,17,9,9,0.6,0.7
2025-08-15T2100,1306A,116.7675,36.5484,济南市,长清党校,,20,12,23,10,17,63,,103,90,18,16,4,5,0.5,0.6
2025-08-15T2100,1616A,117.6795,36.229,济南市,技术学院,,24,,19,12,13,75,,122,110,14,12,6,7,0.6,0.6
2025-08-15T2100,1961A,117.532,36.6868,济南市,东山小学,,17,17,23,10,13,53,,116,98,14,14,6,7,0.2,0.5
2025-08-15T2100,3059A,117.7161,36.2049,济南市,泰兴公司,,24,9,22,7,12,76,,116,108,7,15,9,10,0.3,0.4
2025-08-15T2100,3064A,117.6867,36.2171,济南市,莱芜战役纪念馆,,23,17,20,7,14,73,,114,105,13,14,6,8,0.6,0.6
2025-08-15T2100,3494A,117.1673,36.9782,济南市,济阳区政府,,21,7,35,7,14,65,,124,102,18,18,4,7,0.2,0.6
2025-08-15T2100,3495A,117.1171,36.63,济南市,锦屏中学,,,12,19,10,10,,,56,,12,11,7,7,0.7,0.7
2025-08-15T2100,3682A,116.9814,36.6819,济南市,济南四建,,18,12,25,12,14,31,,110,85,32,17,5,5,0.6,0.5
2025-08-15T2100,1653A,116.6251,35.4302,济宁市,火炬城,颗粒物(PM10),51,52,36,19,14,106,,114,112,10,9,4,4,0.8,0.6
2025-08-15T2100,1655A,116.5491,35.4042,济宁市,电化厂,,38,38,32,17,16,118,,130,127,6,8,1,4,0.9,0.8
2025-08-15T2100,3500A,116.5814,35.3707,济宁市,北湖一中,,36,36,33,17,15,110,,129,124,6,8,2,4,0.3,0.3
2025-08-15T2100,3501A,116.8249,35.5593,济宁市,服务中心,,29,28,31,12,11,90,,113,106,9,15,2,3,0.6,0.6
2025-08-15T2100,3678A,116.5907,35.4054,济宁市,市第七中学,,,34,33,14,10,,,108,106,,8,4,5,0.4,0.4
2025-08-15T2100,2255A,130.2751,46.8028,佳木斯市,佳纺,,43,43,19,17,9,74,,96,87,12,14,9,9,0.5,0.4
2025-08-15T2100,2256A,130.3995,46.8307,佳木斯市,发电厂,,32,32,22,17,11,80,,100,95,11,13,6,7,0.6,0.6
2025-08-15T2100,2257A,130.3258,46.7975,佳木斯市,环保局,,39,39,23,19,13,81,,98,93,14,14,8,8,0.6,0.5
2025-08-15T2100,2258A,130.3648,46.8032,佳木斯市,十一中,,37,37,22,19,11,90,,95,92,14,15,8,8,0.6,0.6
2025-08-15T2100,2259A,130.3794,46.7588,佳木斯市,四丰,,,,,,,6,,8,7,18,13,1,24,1.8,1.7
2025-08-15T2100,1252A,120.7436,30.778,嘉兴市,清河小学,,23,23,18,7,5,37,,92,86,18,9,7,6,0.6,0.6
2025-08-15T2100,1253A,120.726,30.7478,嘉兴市,嘉兴学院,,18,18,18,9,8,33,,84,79,14,7,4,4,0.5,0.4
2025-08-15T2100,2872A,120.7846,30.7525,嘉兴市,南湖区残联,,26,26,17,10,8,38,,92,85,18,10,7,7,0.5,0.5
2025-08-15T2100,3407A,120.6916,30.7739,嘉兴市,秀洲住建,,21,21,15,9,8,42,,92,87,13,7,7,6,0.8,0.8
2025-08-15T2100,1945A,98.2908,39.7711,嘉峪关市,气象局,,,36,34,,9,113,,130,126,21,15,10,10,,0.8
2025-08-15T2100,2884A,98.2672,39.7978,嘉峪关市,酒钢宾馆,,41,39,44,9,12,129,,143,142,15,17,13,16,0.6,1.1
2025-08-15T2100,3248A,98.2643,39.7724,嘉峪关市,雄关区,,34,32,34,11,14,107,,122,119,19,17,12,10,0.6,0.5
2025-08-15T2100,1383A,113.1064,22.6058,江门市,北街,,19,19,13,3,6,4,,40,30,31,15,3,3,0.5,0.4
2025-08-15T2100,1384A,113.0731,22.5835,江门市,西区,,29,29,12,3,7,22,,42,35,19,12,7,6,0.4,0.4
2025-08-15T2100,1385A,113.0219,22.5311,江门市,圭峰西,,17,17,13,6,5,13,,40,32,18,8,4,3,0.5,0.5
2025-08-15T2100,1386A,113.0828,22.5947,江门市,东湖,,16,16,11,7,5,16,,36,29,17,12,8,7,0.4,0.4
2025-08-15T2100,3311A,113.1075,22.5647,江门市,江海富民,,27,27,20,10,8,21,,44,35,18,13,9,9,0.4,0.3
2025-08-15T2100,3449A,113.05,22.4667,江门市,新会银湖,,12,10,13,8,7,8,,32,25,17,11,1,2,0.4,0.4
2025-08-15T2100,1830A,113.1992,35.2590,焦作市,影视城,,,,11,,9,,,,,,7,,9,,0.5
2025-08-15T2100,3335A,113.3137,35.2641,焦作市,马村街道办,,48,48,39,21,20,99,,125,122,11,12,3,6,0.4,0.4
2025-08-15T2100,3336A,113.2465,35.2373,焦作市,焦作技师学院,,,,38,,14,,,134,133,20,7,6,7,0.6,0.4
2025-08-15T2100,3477A,113.1656,35.2539,焦作市,中站许衡医院,颗粒物(PM10),52,53,36,28,22,109,,133,129,15,12,4,5,0.6,0.5
2025-08-15T2100,3981A,113.2449,35.1803,焦作市,原李万街道办,,45,45,35,17,17,108,,131,128,12,13,8,9,0.2,0.3
2025-08-15T2100,4264A,113.2340,35.2190,焦作市,新安路1731号,,45,45,39,15,16,116,,137,134,8,10,4,5,0.8,0.8
2025-08-15T2100,4295A,113.2722,35.2121,焦作市,人民路3066号,,45,45,42,24,23,104,,132,127,11,10,2,5,0.4,0.5
2025-08-15T2100,1708A,116.3701,23.5345,揭阳市,新兴,,27,27,26,10,11,50,,92,84,13,12,7,8,0.4,0.5
2025-08-15T2100,1709A,116.3264,23.5443,揭阳市,西马,,36,36,24,8,10,57,,92,87,8,9,2,4,0.6,0.6
2025-08-15T2100,1710A,116.3611,23.5626,揭阳市,东兴,,27,27,28,10,9,53,,87,82,10,12,4,5,0.5,0.5
2025-08-15T2100,1711A,116.4151,23.5294,揭阳市,渔湖,,22,19,28,15,10,43,,78,74,9,14,5,7,0.4,0.5
2025-08-15T2100,3320A,116.403,23.5699,揭阳市,曲溪,,31,31,22,16,9,47,,96,88,11,11,9,5,0.4,0.4
2025-08-15T2100,1944A,102.1692,38.5167,金昌市,天庆家园,,46,46,61,13,17,98,,122,118,17,23,9,29,0.4,0.7
2025-08-15T2100,4022A,102.1647,38.5371,金昌市,金川区人防中心,,49,44,44,34,19,88,,120,116,20,16,7,11,0.7,0.6
2025-08-15T2100,4239A,102.1930,38.5319,金昌市,长春路96号,颗粒物(PM10),57,63,49,17,15,95,,115,114,11,15,6,12,0.3,0.3
2025-08-15T2100,1262A,119.647,29.077,金华市,十五中,,22,22,16,9,6,42,,76,72,15,11,3,4,0.2,0.2
2025-08-15T2100,1263A,119.686,29.1029,金华市,监测站,,24,24,16,10,7,35,,82,72,18,11,3,4,0.3,0.3
2025-08-15T2100,3659A,119.656,29.1131,金华市,气象局,,28,28,16,6,6,38,,80,73,12,10,2,2,0.3,0.3
2025-08-15T2100,1767A,121.1115,41.0879,锦州市,南山,,31,,31,12,22,99,,125,120,7,9,4,7,0.5,0.6
2025-08-15T2100,1768A,121.0604,40.8428,锦州市,开发区,,27,26,44,8,16,86,,124,117,12,12,4,4,0.6,0.7
2025-08-15T2100,1769A,121.1836,41.1119,锦州市,百股街道,,33,14,30,3,15,103,,129,123,5,6,8,8,0.6,0.7
2025-08-15T2100,1770A,121.1178,41.1222,锦州市,天安街道,,42,,37,29,34,98,,129,122,11,12,5,8,0.7,0.7
2025-08-15T2100,1771A,121.1303,41.1386,锦州市,北湖公园,,30,25,34,12,20,96,,125,116,8,8,5,6,0.6,0.7
2025-08-15T2100,2160A,112.85,35.5051,晋城市,自来水公司,,50,50,33,17,14,111,,115,115,9,10,2,2,0.5,0.4
2025-08-15T2100,2161A,112.8318,35.4936,晋城市,白云商贸,,32,29,30,14,9,100,,106,106,11,8,3,3,0.5,0.5
2025-08-15T2100,2162A,112.8508,35.4887,晋城市,市环保局,,30,25,20,17,13,96,,101,101,8,7,4,4,0.5,0.5
2025-08-15T2100,2163A,112.8676,35.4897,晋城市,技术学院,,44,44,24,14,9,99,,101,101,9,10,2,3,0.6,0.5
2025-08-15T2100,2165A,112.8453,35.546,晋城市,白马寺,,,,14,,14,,,100,,,4,,6,,0.5
2025-08-15T2100,3620A,112.8271,35.4828,晋城市,泽州一中,,,,30,,9,105,,111,111,8,6,4,5,,0.5
2025-08-15T2100,2173A,112.7249,37.7067,晋中市,南都小区,,,39,52,24,29,,,94,88,10,10,4,4,0.9,0.7
2025-08-15T2100,2174A,112.6991,37.6982,晋中市,榆次区政府,,36,,43,25,27,55,,89,78,9,11,5,5,0.6,0.7
2025-08-15T2100,2865A,112.7195,37.6828,晋中市,榆次三中,,20,,41,14,26,55,,97,86,11,11,6,6,0.7,0.8
2025-08-15T2100,4200A,112.7478,37.6954,晋中市,迎宾街26号,,19,14,39,7,26,59,,100,88,10,10,6,6,0.6,0.7
2025-08-15T2100,2439A,112.2014,31.0481,荆门市,竹园小学,,23,23,27,7,15,62,,80,77,12,9,1,10,0.5,0.8
2025-08-15T2100,2440A,112.1969,30.9891,荆门市,掇刀,,25,25,24,8,16,59,,80,76,14,11,1,2,0.4,0.5
2025-08-15T2100,2441A,112.2213,31.0386,荆门市,石化一小,,19,15,30,3,19,60,,78,74,14,11,7,6,0.5,0.6
2025-08-15T2100,3012A,112.1849,31.0362,荆门市,西山林语,,20,11,23,8,14,62,,75,73,4,4,8,9,0.4,0.4
2025-08-15T2100,3547A,112.1632,31.0138,荆门市,龙泉中学南校,,,22,25,9,12,65,,82,78,6,6,,4,0.6,0.7
2025-08-15T2100,1844A,112.2494,30.3197,荆州市,市图书馆,,20,10,18,3,12,62,,70,68,9,8,4,3,0.4,0.5
2025-08-15T2100,1845A,112.2008,30.3544,荆州市,市委党校,,19,14,18,3,10,58,,73,69,19,12,5,6,0.3,0.4
2025-08-15T2100,3194A,112.2747,30.3122,荆州市,管委会,,18,17,17,3,10,55,,68,65,17,10,6,4,0.4,0.4
2025-08-15T2100,4268A,112.1722,30.3366,荆州市,学苑路85号,,17,,17,10,12,53,,74,69,22,14,6,7,0.4,0.5
2025-08-15T2100,2342A,117.3102,29.3867,景德镇市,王港中学,,,,,,,,,,,,,,,,
2025-08-15T2100,2343A,117.2117,29.2933,景德镇市,老干部活动中心,,20,20,9,6,2,32,,51,47,10,7,6,6,0.5,0.4
2025-08-15T2100,2344A,117.1894,29.2789,景德镇市,兽医站,,27,27,17,7,6,32,,53,49,8,4,4,5,0.6,0.6
2025-08-15T2100,2346A,117.2461,29.2956,景德镇市,陶研所,,15,15,12,10,6,29,,55,48,7,4,5,5,0.8,0.6
2025-08-15T2100,4289A,117.1542,29.2566,景德镇市,青少年活动中心,,40,40,19,18,11,20,,46,42,31,19,16,22,0.6,0.6
2025-08-15T2100,1803A,115.9872,29.6815,九江市,十里,,22,,11,15,11,54,,71,62,9,10,4,5,0.4,0.4
2025-08-15T2100,1804A,115.9584,29.7046,九江市,茅山头,,18,14,16,12,10,47,,68,58,5,11,4,5,0.5,0.5
2025-08-15T2100,1805A,115.9877,29.7295,九江市,西园,,17,11,12,6,7,54,,77,66,15,17,6,7,0.5,0.5
2025-08-15T2100,1808A,115.9114,29.6038,九江市,综合工业园,,31,31,11,11,5,30,,74,60,59,17,7,7,0.7,0.5
2025-08-15T2100,1809A,116.0721,29.7535,九江市,石化总厂,,30,,18,21,10,40,,71,63,25,12,6,5,0.4,0.4
2025-08-15T2100,1810A,115.9773,29.5698,九江市,庐山气象台,,19,6,6,3,1,60,,66,64,2,3,6,7,1.2,0.8
2025-08-15T2100,3190A,116.0254,29.6994,九江市,外国语学校,,18,13,13,10,9,56,,68,59,5,8,6,8,0.5,0.6
2025-08-15T2100,4253A,116.0102,29.6594,九江市,莲花大道8号,,18,6,7,3,6,57,,68,61,2,5,4,5,0.4,0.4
2025-08-15T2100,4240A,98.4958,39.7339,酒泉市,玉门东路5号,颗粒物(PM10),58,66,47,32,24,103,,126,123,17,14,26,14,1.0,0.4
2025-08-15T2100,4241A,98.5099,39.7506,酒泉市,北大街108号,颗粒物(PM10),58,66,41,16,19,87,,116,113,17,14,10,10,0.4,0.3
2025-08-15T2100,2698A,76.0072,39.4467,喀什地区,巡警大队,颗粒物(PM10),66,81,132,30,42,103,,110,93,18,25,4,4,0.5,0.6
2025-08-15T2100,2699A,75.9755,39.4694,喀什地区,吾办,细颗粒物(PM2.5),72,90,139,52,55,99,,111,92,18,19,8,6,0.3,0.3
2025-08-15T2100,4027A,75.9483,39.4689,喀什地区,老干局,颗粒物(PM10),66,82,116,25,31,107,,114,94,12,16,8,8,0.6,0.6
2025-08-15T2100,1824A,114.3389,34.7781,开封市,肿瘤医院,,28,28,36,14,20,81,,117,108,21,15,3,3,0.4,0.5
2025-08-15T2100,1826A,114.2885,34.7965,开封市,世纪星幼儿园,,27,22,34,3,18,84,,120,111,15,10,3,4,0.5,0.6
2025-08-15T2100,3147A,114.3438,34.8106,开封市,龙亭公园,,26,23,35,17,14,81,,111,105,12,10,3,3,0.7,0.8
2025-08-15T2100,3210A,114.3644,34.7964,开封市,汴京公园,,29,26,41,11,19,90,,122,114,12,10,3,3,0.6,0.7
2025-08-15T2100,3473A,114.2485,34.8306,开封市,技师学院,,27,26,33,13,20,86,,115,108,6,9,5,5,0.8,1
2025-08-15T2100,3592A,114.4644,34.7556,开封市,祥符区生态环境局,,34,34,33,13,20,46,,100,86,43,23,5,6,0.6,0.7
2025-08-15T2100,1951A,84.895,45.6094,克拉玛依市,长征新村,,28,20,30,8,9,87,,91,91,6,9,3,4,0.2,0.2
2025-08-15T2100,1952A,84.8988,45.5893,克拉玛依市,南林小区,,29,15,27,12,12,92,,96,96,4,10,4,5,0.2,0.1
2025-08-15T2100,1954A,84.905,44.3396,克拉玛依市,独山子区,,24,22,37,16,15,75,,92,87,8,10,9,11,0.4,0.4
2025-08-15T2100,1955A,85.6979,46.098,克拉玛依市,乌尔禾区商贸楼,,22,22,24,3,6,58,,93,89,24,12,6,6,0.4,0.3
2025-08-15T2100,3612A,85.1045,45.6899,克拉玛依市,白碱滩区新站,,30,22,36,10,15,94,,101,101,7,7,9,9,0.4,0.4
2025-08-15T2100,2697A,76.1454,39.7142,克孜勒苏柯尔克孜自治州,市人民政府,,,,97,,39,,,111,92,11,15,5,13,0.3,0.2
2025-08-15T2100,3665A,76.1658,39.7157,克孜勒苏柯尔克孜自治州,克州文化中心,颗粒物(PM10),54,58,87,27,38,120,,120,103,5,7,5,7,0.4,0.4
2025-08-15T2100,1450A,102.8204,24.8886,昆明市,呈贡新区,,29,,23,11,23,90,,122,114,6,22,2,4,0.4,0.6
2025-08-15T2100,1451A,102.6251,24.9608,昆明市,西山森林公园,,,,,,,,,,,,,,,,
2025-08-15T2100,1452A,102.7252,25.0902,昆明市,龙泉镇,,40,40,28,14,15,84,,120,113,11,20,2,2,0.4,0.4
2025-08-15T2100,1453A,102.7266,25.0375,昆明市,东风东路,,25,21,31,12,21,78,,125,113,18,17,4,4,0.4,0.4
2025-08-15T2100,1454A,102.6742,25.0669,昆明市,金鼎山,,27,22,32,7,16,84,,123,115,11,13,2,2,0.4,0.4
2025-08-15T2100,1455A,102.6644,25.0401,昆明市,碧鸡广场,,25,23,29,13,17,78,,119,110,18,20,7,8,0.5,0.6
2025-08-15T2100,3179A,102.7494,25.0119,昆明市,官渡区博物馆,,26,15,30,13,18,82,,122,111,14,23,2,2,0.5,0.6
2025-08-15T2100,3375A,102.8017,24.8336,昆明市,青年创业园,,24,23,32,14,24,75,,123,110,11,22,3,2,0.5,0.6
2025-08-15T2100,3550A,102.7997,24.9786,昆明市,昆明学院,,,10,38,8,25,,,129,119,9,27,8,7,0.3,0.5
2025-08-15T2100,3551A,102.5967,24.6736,昆明市,晋宁区生态环境分局,,26,25,35,12,20,82,,130,114,8,14,1,4,0.6,0.6
2025-08-15T2100,3552A,102.6678,24.9856,昆明市,云天化总部,,29,16,25,13,15,92,,125,118,10,22,3,6,0.3,0.4
2025-08-15T2100,1456A,91.1319,29.6514,拉萨市,八廓街,,37,14,16,7,9,116,,139,136,15,10,6,7,0.3,0.2
2025-08-15T2100,1457A,91.1221,29.6747,拉萨市,市环保局,,35,13,17,3,10,112,,143,137,17,11,7,8,0.5,0.4
2025-08-15T2100,1458A,91.0874,29.6475,拉萨市,区监测站,,36,9,12,7,9,114,,136,132,23,12,3,5,0.4,0.3
2025-08-15T2100,1459A,91.1774,29.6541,拉萨市,西藏大学,,39,9,13,7,8,122,,137,135,10,10,5,7,0.1,0.2
2025-08-15T2100,1460A,90.9798,29.6588,拉萨市,区辐射站,,32,23,16,3,9,100,,125,121,23,13,4,6,0.4,0.3
2025-08-15T2100,1461A,91.0834,29.6292,拉萨市,拉萨火车站,,40,7,12,6,7,126,,134,133,5,8,5,6,0.1,0.2
2025-08-15T2100,2520A,109.2203,23.7256,来宾市,来宾技工学校,,20,20,15,7,8,30,,50,46,8,7,7,7,0.5,0.5
2025-08-15T2100,3535A,109.1781,23.7297,来宾市,兴宾区政府,,12,8,12,3,9,36,,56,52,8,7,6,6,0.6,0.5
2025-08-15T2100,4002A,109.2416,23.7461,来宾市,中南小学,,9,9,14,3,8,28,,55,49,7,4,7,7,0.5,0.5
2025-08-15T2100,1477A,104.1373,35.9454,兰州市,榆中兰大校区,,,,,,,,,,,,,,,,
2025-08-15T2100,1479A,103.831,36.0464,兰州市,铁路设计院,二氧化氮,68,63,47,33,23,26,,150,133,136,47,10,12,1.0,0.5
2025-08-15T2100,3241A,103.7439,36.0842,兰州市,百合公园,颗粒物(PM10),71,92,45,50,18,128,,92,61,27,37,2,16,0.4,0.5
2025-08-15T2100,3242A,103.9611,35.998,兰州市,和平,,46,46,35,22,14,71,,150,138,12,13,6,10,0.3,0.4
2025-08-15T2100,4236A,103.6293,36.0938,兰州市,庄浪东路808号,颗粒物(PM10),53,56,42,24,18,105,,179,170,64,28,14,19,0.4,0.3
2025-08-15T2100,4237A,103.7251,36.1043,兰州市,安宁西路88号,颗粒物(PM10),68,85,52,38,23,139,,191,189,40,18,8,13,0.6,0.3
2025-08-15T2100,4238A,103.8470,36.0676,兰州市,北滨河东路1号,二氧化氮,81,86,42,34,21,2,,166,148,161,44,11,11,2.0,0.5
2025-08-15T2100,3245A,103.6633,36.533,兰州新区,新区管委会,,37,37,22,20,15,108,,143,140,19,10,2,9,0.3,0.3
2025-08-15T2100,3246A,103.6975,36.4789,兰州新区,舟曲中学,,43,27,19,10,8,136,,142,142,13,11,8,12,0.4,0.3
2025-08-15T2100,1067A,116.6708,39.5111,廊坊市,药材公司,,22,22,36,14,23,58,,125,100,12,12,3,3,0.5,0.5
2025-08-15T2100,1068A,116.7214,39.5589,廊坊市,开发区,,38,34,44,26,24,58,,130,105,15,16,3,3,0.3,0.4
2025-08-15T2100,1070A,116.7244,39.5269,廊坊市,北华航天学院,颗粒物(PM10),58,65,53,19,27,63,,130,106,12,12,4,4,0.4,0.5
2025-08-15T2100,2919A,116.7022,39.5453,廊坊市,河北工业大学,,43,43,47,16,22,69,,135,112,10,12,4,4,0.4,0.5
2025-08-15T2100,2535A,103.7723,29.5462,乐山市,花湖湾,细颗粒物(PM2.5),79,72,39,58,30,94,,143,134,11,15,3,3,0.6,0.6
2025-08-15T2100,2536A,103.7627,29.5844,乐山市,牛耳桥,颗粒物(PM10),55,59,40,35,25,99,,150,140,13,18,6,5,0.5,0.6
2025-08-15T2100,2537A,103.7508,29.6006,乐山市,市第三水厂,,,50,42,27,33,103,,145,137,,22,2,3,0.7,0.8
2025-08-15T2100,2538A,103.7571,29.5664,乐山市,市监测站,细颗粒物(PM2.5),75,69,43,55,27,93,,135,126,13,15,8,7,0.9,0.9
2025-08-15T2100,3361A,103.7311,29.5628,乐山市,理工大学,细颗粒物(PM2.5),129,,40,98,31,91,,151,138,14,15,10,8,0.9,0.9
2025-08-15T2100,2598A,100.2143,26.8576,丽江市,西南郊,,30,30,23,19,13,57,,94,90,18,11,6,7,1.0,0.9
2025-08-15T2100,2599A,100.2497,26.8802,丽江市,丽江古城,,43,43,26,19,13,42,,86,80,20,13,10,10,0.6,0.5
2025-08-15T2100,2600A,100.2203,26.8906,丽江市,市中心,,30,26,20,21,14,53,,96,86,19,13,12,11,0.6,0.5
2025-08-15T2100,1267A,119.914,28.4514,丽水市,监测站大楼,,13,12,12,8,4,40,,60,59,7,7,4,4,0.3,0.3
2025-08-15T2100,1268A,119.93,28.4586,丽水市,莲都小学,,14,14,12,8,3,42,,61,59,6,5,3,3,0.3,0.3
2025-08-15T2100,1269A,119.879,28.4231,丽水市,余庄前,,16,16,10,10,4,39,,61,59,7,5,5,4,0.3,0.3
2025-08-15T2100,1173A,119.176,34.5885,连云港市,市环境监测站,,33,31,25,19,8,104,,126,122,10,8,2,2,0.5,0.4
2025-08-15T2100,3000A,119.3581,34.6972,连云港市,德源药业,,26,24,26,14,8,81,,126,113,16,14,4,4,0.6,0.6
2025-08-15T2100,3007A,119.178,34.844,连云港市,新城一中,,26,26,21,9,8,73,,142,120,29,13,3,4,1.1,1
2025-08-15T2100,3008A,119.3608,34.7519,连云港市,胡沟管理处,,31,17,23,9,8,97,,122,113,10,20,7,9,0.5,0.6
2025-08-15T2100,3009A,119.1478,34.5911,连云港市,矿山设计院,,31,31,26,19,11,92,,117,112,11,8,5,4,0.7,0.7
2025-08-15T2100,3434A,119.2413,34.6539,连云港市,工贸学校,,34,22,24,12,13,108,,122,120,5,6,6,5,0.8,0.8
2025-08-15T2100,3664A,119.4172,34.7341,连云港市,连云街道,,31,24,28,9,11,98,,144,129,12,10,3,3,0.8,0.7
2025-08-15T2100,2571A,102.3431,27.8099,凉山彝族自治州,青龙寺,,28,28,22,8,8,52,,99,90,11,7,3,2,0.5,0.5
2025-08-15T2100,2572A,102.2721,27.8415,凉山彝族自治州,邛海宾馆,,23,23,24,14,13,62,,105,96,14,12,4,7,0.5,0.5
2025-08-15T2100,2573A,102.2625,27.898,凉山彝族自治州,西昌市政府,,23,23,25,13,17,50,,99,88,4,8,3,5,0.4,0.4
2025-08-15T2100,2574A,102.2685,27.8851,凉山彝族自治州,凉山州政府,,33,32,29,23,17,58,,107,96,12,14,8,9,0.6,0.6
2025-08-15T2100,4229A,102.2342,27.8859,凉山彝族自治州,凯乐南路30号,,38,38,37,12,12,64,,98,90,17,19,8,9,0.6,0.5
2025-08-15T2100,2212A,123.2,41.1953,辽阳市,宏伟区,,25,17,28,3,14,77,,107,94,4,7,2,3,0.6,0.7
2025-08-15T2100,2213A,123.1683,41.2495,辽阳市,新华园,,23,12,35,7,16,71,,119,98,7,9,4,4,0.5,0.6
2025-08-15T2100,2214A,123.2354,41.2639,辽阳市,滨河路,,21,16,29,10,17,67,,95,82,9,11,4,4,0.4,0.6
2025-08-15T2100,2215A,123.149,41.2991,辽阳市,铁西工业园,,22,22,41,3,14,68,,122,97,7,10,2,3,0.6,0.8
2025-08-15T2100,2227A,125.1358,42.8845,辽源市,环保局,,32,32,38,8,14,100,,138,128,3,12,8,8,0.5,0.6
2025-08-15T2100,3239A,125.0764,42.9078,辽源市,银鹰制药,,33,30,33,23,20,98,,142,131,10,17,8,9,0.6,0.6
2025-08-15T2100,1625A,115.9848,36.4372,聊城市,区政府,,41,41,36,16,22,55,,116,104,13,9,5,7,0.8,0.8
2025-08-15T2100,2878A,116.0072,36.4343,聊城市,聊大东校,,44,44,40,22,23,64,,125,114,16,14,7,8,0.4,0.5
2025-08-15T2100,3200A,115.9819,36.4978,聊城市,监控中心,,45,45,42,12,20,50,,116,97,16,10,6,6,0.7,0.7
2025-08-15T2100,3513A,116.0445,36.4361,聊城市,九州社区,,35,35,44,18,24,42,,121,107,22,10,5,5,0.3,0.3
2025-08-15T2100,4018A,116.0567,36.4608,聊城市,星美广场,,27,27,40,9,22,48,,129,115,21,10,3,6,0.5,0.7
2025-08-15T2100,2632A,94.3681,29.6376,林芝市,林芝监测站,,26,8,8,8,5,82,,100,97,2,2,6,6,0.3,0.3
2025-08-15T2100,2633A,94.3616,29.6616,林芝市,林芝人民医院,,27,11,10,7,5,85,,101,98,1,2,7,6,0.3,0.3
2025-08-15T2100,2603A,100.0781,23.8982,临沧市,市环保局,,42,,21,29,14,73,,82,82,7,7,8,7,0.5,0.6
2025-08-15T2100,2604A,100.0894,23.8822,临沧市,市气象局,,,,19,20,13,,,70,70,6,7,8,7,0.3,0.4
2025-08-15T2100,1733A,111.5531,36.0783,临汾市,临钢医院,,19,9,29,7,8,60,,96,92,8,10,8,8,0.6,0.6
2025-08-15T2100,1734A,111.5028,36.0714,临汾市,技工学校,,38,,26,26,20,60,,97,92,7,8,6,7,0.4,0.5
2025-08-15T2100,1736A,111.5018,36.0855,临汾市,市委,,,25,35,8,10,,,111,110,7,9,5,6,0.7,0.7
2025-08-15T2100,3018A,111.505,36.1014,临汾市,唐尧大酒店,,41,41,44,13,10,62,,101,96,8,9,4,4,0.6,0.6
2025-08-15T2100,4244A,111.4879,36.0530,临汾市,启星学校,,22,17,27,15,21,60,,102,94,7,8,5,6,0.6,0.6
2025-08-15T2100,4271A,103.2464,35.6123,临夏回族自治州,滨河东路1号,,50,50,48,31,27,18,,96,87,78,20,7,7,0.6,0.4
2025-08-15T2100,4310A,103.2093,35.5995,临夏回族自治州,新华街21号,,,,41,19,23,,,104,104,23,16,6,5,0.4,0.3
2025-08-15T2100,1618A,118.3429,35.0532,临沂市,沂河小区,,44,44,40,27,20,95,,121,118,16,18,7,8,0.6,0.6
2025-08-15T2100,1619A,118.295,35.0583,临沂市,鲁南制药厂,,34,29,32,18,19,107,,122,122,13,17,7,9,0.3,0.6
2025-08-15T2100,1620A,118.2794,34.9976,临沂市,新光毛纺厂,,41,41,30,22,18,93,,127,124,15,15,6,7,0.4,0.5
2025-08-15T2100,1621A,118.3956,35.0888,临沂市,河东保险公司,,39,39,35,20,16,78,,111,106,17,17,5,6,0.3,0.4
2025-08-15T2100,3370A,118.3564,35.0215,临沂市,十里堡居委,,45,41,34,31,20,95,,122,119,21,19,8,9,0.6,0.6
2025-08-15T2100,3496A,118.3604,35.1084,临沂市,南坊新区,,41,41,42,24,16,83,,123,117,18,19,7,8,0.6,0.6
2025-08-15T2100,3860A,118.3920,35.0300,临沂市,皇山花园小区,,46,46,40,22,16,94,,123,118,13,20,8,9,0.6,0.6
2025-08-15T2100,1870A,109.4856,24.3895,柳州市,柳东小学,,10,10,12,3,6,31,,51,45,9,7,5,5,0.4,0.4
2025-08-15T2100,1871A,109.4157,24.3277,柳州市,环保监测站,,16,16,12,3,5,23,,51,43,20,8,14,7,0.5,0.4
2025-08-15T2100,1872A,109.389,24.341,柳州市,河西水厂,,16,16,15,8,7,28,,53,46,16,10,16,5,0.4,0.4
2025-08-15T2100,1873A,109.4311,24.2921,柳州市,市四中,,19,19,14,7,7,21,,51,44,25,11,8,7,0.8,0.6
2025-08-15T2100,1874A,109.4006,24.3631,柳州市,市九中,,16,16,16,3,14,30,,53,47,14,8,5,4,0.4,0.5
2025-08-15T2100,1875A,109.4958,24.3134,柳州市,古亭山,,,,16,,5,,,49,45,8,10,5,5,0.6,0.6
2025-08-15T2100,3402A,109.5422,24.3996,柳州市,市二中,,12,12,11,3,6,33,,52,47,11,8,5,6,0.6,0.6
2025-08-15T2100,2307A,116.5079,31.737,六安市,监测大楼,,22,22,13,15,9,56,,71,67,7,6,3,3,0.3,0.3
2025-08-15T2100,2308A,116.4738,31.7643,六安市,皖西学院,,24,19,17,9,9,75,,92,89,6,6,3,3,0.2,0.3
2025-08-15T2100,2309A,116.4996,31.7905,六安市,朝阳厂,,22,14,17,11,9,68,,82,79,11,10,6,6,0.3,0.4
2025-08-15T2100,2310A,116.5567,31.7886,六安市,开发区,,20,,11,11,11,64,,77,73,9,8,3,3,0.3,0.4
2025-08-15T2100,2576A,104.8,26.5892,六盘水市,窑上,,36,36,31,3,9,47,,110,86,14,7,4,4,0.8,0.5
2025-08-15T2100,2577A,104.83,26.5917,六盘水市,黄土坡,,16,16,23,9,12,50,,109,85,26,11,18,12,1.0,0.5
2025-08-15T2100,2578A,104.89,26.5939,六盘水市,水钢,,22,,25,11,15,70,,101,81,5,14,9,14,0.4,0.6
2025-08-15T2100,2579A,104.8475,26.5894,六盘水市,民中,,18,18,22,9,10,54,,107,84,20,11,12,9,1.1,0.5
2025-08-15T2100,2580A,104.9544,26.5506,六盘水市,双水,,15,12,23,3,12,48,,101,80,15,11,6,7,0.2,0.2
2025-08-15T2100,2335A,117.0189,25.1181,龙岩市,龙岩师专,,,,,,,,,,,,,,,,
2025-08-15T2100,2336A,117.0217,25.1033,龙岩市,龙岩市监测站,,,,23,3,12,28,,57,51,11,9,6,6,0.6,0.6
2025-08-15T2100,2337A,117.0258,25.0661,龙岩市,闽西职业技术学院,,10,10,21,6,8,24,,56,49,12,6,10,8,0.4,0.4
2025-08-15T2100,2338A,117.0196,25.0306,龙岩市,龙岩学院,,8,6,18,3,7,22,,57,51,8,7,8,9,0.3,0.4
2025-08-15T2100,2665A,105.0822,33.3261,陇南市,汉王镇固水子,,,,,,,,,,,,,,,,
2025-08-15T2100,2885A,104.9339,33.3826,陇南市,滨江中学,颗粒物(PM10),58,66,39,26,14,102,,119,116,3,4,7,8,0.6,0.6
2025-08-15T2100,3247A,104.955,33.371,陇南市,市总工会,,,,39,,14,,,132,130,4,6,6,5,0.5,0.6
2025-08-15T2100,2487A,111.9589,27.8901,娄底市,电视发射台,,13,13,11,3,3,28,,58,50,5,5,3,4,0.1,0.2
2025-08-15T2100,2488A,111.9975,27.725,娄底市,市监测站,,15,,17,10,7,45,,60,57,10,7,4,4,0.5,0.4
2025-08-15T2100,2489A,112.0194,27.7314,娄底市,市委党校,,19,16,10,13,6,56,,66,65,7,6,6,4,0.3,0.2
2025-08-15T2100,2490A,111.9561,27.7569,娄底市,涟钢,,24,24,19,8,8,28,,46,44,29,21,12,14,0.4,1.1
2025-08-15T2100,2491A,111.9892,27.7044,娄底市,市政府,,23,,9,16,5,44,,63,60,8,5,5,5,0.6,0.4
2025-08-15T2100,1893A,105.4324,28.9634,泸州市,九狮山,,46,,56,32,42,75,,111,101,13,12,5,6,0.3,0.4
2025-08-15T2100,1894A,105.4427,28.9063,泸州市,小市上码头,,20,20,44,13,28,58,,76,66,11,15,3,4,0.3,0.4
2025-08-15T2100,1895A,105.4241,28.8573,泸州市,兰田宪桥,,24,24,53,14,34,55,,112,90,14,15,7,8,0.3,0.4
2025-08-15T2100,1896A,105.4379,28.8833,泸州市,市环监站,,,,49,,35,,,108,98,21,17,7,8,0.6,0.6
2025-08-15T2100,4272A,105.3689,28.7783,泸州市,纳溪中医医院,,20,16,44,14,30,56,,130,102,21,24,7,8,0.7,0.7
2025-08-15T2100,2183A,111.1406,37.5211,吕梁市,环保局,,17,,38,10,19,51,,65,54,33,20,3,4,0.6,0.7
2025-08-15T2100,2185A,111.1297,37.5136,吕梁市,自来水公司,,18,11,44,8,18,57,,58,54,17,21,2,3,0.5,0.7
2025-08-15T2100,2867A,111.1283,37.51,吕梁市,马茂庄小学,,21,12,59,3,20,41,,62,48,41,34,2,4,0.5,0.7
2025-08-15T2100,1812A,112.3931,34.6516,洛阳市,市委党校,,30,27,32,14,18,94,,113,107,8,12,6,7,0.5,0.5
2025-08-15T2100,1815A,112.494,34.6886,洛阳市,河南林校,,34,34,39,14,18,90,,133,121,12,16,6,7,0.6,0.5
2025-08-15T2100,1816A,112.3844,34.623,洛阳市,开发区管委会,,32,28,28,18,18,102,,125,117,9,10,9,7,0.6,0.6
2025-08-15T2100,1817A,112.4267,34.6258,洛阳市,市委新办公区,,31,27,29,15,18,99,,116,109,10,14,8,9,0.5,0.5
2025-08-15T2100,3340A,112.6005,34.6326,洛阳市,伊滨,,29,20,25,14,16,90,,111,100,9,14,7,8,0.5,0.5
2025-08-15T2100,3341A,112.4951,34.6332,洛阳市,中移产业园,,31,27,36,15,19,97,,119,110,11,17,7,8,0.8,0.9
2025-08-15T2100,3593A,112.5736,34.8993,洛阳市,吉利监测站,,28,28,29,16,17,75,,132,123,23,10,5,7,0.4,0.4
2025-08-15T2100,3635A,112.3677,34.662,洛阳市,河科大西苑校区,,31,28,31,10,13,99,,118,113,13,16,10,9,0.6,0.6
2025-08-15T2100,3636A,112.4388,34.6781,洛阳市,英才小学,,32,32,39,12,16,96,,118,110,10,15,7,8,0.7,0.7
2025-08-15T2100,4214A,112.4600,34.6949,洛阳市,春都路1号院,,42,42,34,10,13,77,,110,100,12,11,6,7,0.6,0.6
2025-08-15T2100,2399A,114.051,33.5699,漯河市,三五一五工厂,,32,32,27,13,19,50,,93,80,25,11,6,6,0.5,0.6
2025-08-15T2100,2400A,114.0055,33.5698,漯河市,漯河大学,,24,18,30,7,16,75,,103,92,10,9,4,5,0.3,0.5
2025-08-15T2100,2401A,114.0138,33.5828,漯河市,市水利局,,27,27,31,9,18,66,,94,84,11,8,4,5,0.4,0.5
2025-08-15T2100,2402A,114.0261,33.5698,漯河市,市广电局,,22,17,26,8,19,69,,104,92,11,8,2,4,0.4,0.4
2025-08-15T2100,3478A,113.9749,33.5664,漯河市,市图书馆,,22,21,31,13,18,70,,108,93,10,8,4,4,0.2,0.3
2025-08-15T2100,4250A,114.0892,33.5882,漯河市,韶山路11号,,29,29,28,9,17,55,,100,88,20,13,3,5,0.4,0.6
2025-08-15T2100,1798A,118.5092,31.6837,马鞍山市,湖东路四小,,35,29,30,11,10,110,,114,111,15,10,6,7,0.4,0.4
2025-08-15T2100,1799A,118.5024,31.6449,马鞍山市,开发区,,45,45,29,19,9,111,,107,104,16,12,8,9,0.5,0.5
2025-08-15T2100,1802A,118.6245,31.7241,马鞍山市,濮塘,,36,28,22,20,12,114,,103,103,7,7,7,7,0.6,0.6
2025-08-15T2100,3633A,118.4918,31.6809,马鞍山市,雨山,,45,45,27,16,13,111,,108,108,14,11,6,8,0.5,0.5
2025-08-15T2100,4191A,118.5274,31.72227,马鞍山市,慈湖高新区,,40,40,28,13,12,105,,112,106,17,14,7,9,0.3,0.3
2025-08-15T2100,1686A,111.0286,21.4688,茂名市,电白南海,,,24,17,14,9,,,49,30,15,8,4,3,0.2,0.5
2025-08-15T2100,1687A,110.9294,21.6533,茂名市,茂石化七小,,22,22,13,14,7,22,,39,32,8,6,5,5,0.5,0.4
2025-08-15T2100,1688A,110.9107,21.6687,茂名市,健康路,,17,17,9,7,6,24,,45,36,12,8,8,5,0.4,0.4
2025-08-15T2100,1689A,110.8592,21.6828,茂名市,高岭,,27,27,22,3,4,26,,44,36,19,13,10,8,0.5,0.4
2025-08-15T2100,3450A,111.01,21.5165,茂名市,电白水东,,,14,11,,12,27,,48,34,12,11,7,4,0.6,0.6
2025-08-15T2100,2539A,104.0308,30.0478,眉山市,黑龙滩水库,,37,,15,15,15,117,,138,136,5,12,3,3,0.4,0.4
2025-08-15T2100,2540A,103.8416,30.0874,眉山市,气象局,,40,40,48,17,22,124,,165,156,10,25,9,11,0.5,0.6
2025-08-15T2100,3137A,103.8578,30.0744,眉山市,市委党校,,37,27,38,17,18,117,,154,146,11,21,7,10,0.4,0.4
2025-08-15T2100,3148A,103.8291,30.0564,眉山市,区人社局,,46,46,53,17,17,115,,164,152,15,22,6,9,1.0,0.9
2025-08-15T2100,1690A,116.1231,24.3284,梅州市,梅江月梅,,16,,16,7,5,49,,45,44,11,8,9,9,0.5,0.5
2025-08-15T2100,1691A,116.0797,24.2719,梅州市,梅县新城,,15,6,15,3,7,46,,52,47,6,7,6,7,0.3,0.4
2025-08-15T2100,1692A,116.1248,24.2654,梅州市,环境监控中心,,13,11,15,3,6,41,,51,45,8,7,3,4,0.5,0.5
2025-08-15T2100,3315A,116.1233,24.2991,梅州市,梅龙,,15,,12,7,9,48,,48,46,5,5,7,7,0.6,0.5
2025-08-15T2100,1878A,104.7778,31.4741,绵阳市,富乐山,,28,27,36,16,21,88,,112,106,8,10,8,8,0.6,0.6
2025-08-15T2100,1880A,104.6697,31.4668,绵阳市,高新区自来水公司,,34,34,46,14,18,75,,117,110,14,24,7,7,0.4,0.4
2025-08-15T2100,1881A,104.7287,31.5075,绵阳市,三水厂,,32,32,41,14,26,77,,124,116,15,20,7,8,0.4,0.5
2025-08-15T2100,3491A,104.69,31.5322,绵阳市,西科大附属小学,,38,38,47,22,24,83,,127,120,17,22,8,8,0.5,0.5
2025-08-15T2100,3492A,104.5648,31.5343,绵阳市,安州区旅游局,,31,25,37,17,20,97,,122,118,8,13,10,10,0.4,0.5
2025-08-15T2100,4226A,104.7651,31.4531,绵阳市,绵阳市气象局,,31,31,37,19,22,92,,114,110,6,12,6,6,0.3,0.5
2025-08-15T2100,1784A,129.61,44.561,牡丹江市,环保大楼,,33,33,22,21,11,60,,117,101,24,17,4,3,0.4,0.3
2025-08-15T2100,1785A,129.6115,44.5782,牡丹江市,文化广场,,32,32,21,16,17,63,,113,97,24,21,6,5,0.5,0.5
2025-08-15T2100,1786A,129.5904,44.5963,牡丹江市,第一医院,,28,28,20,16,18,73,,115,102,23,19,8,8,0.3,0.2
2025-08-15T2100,1787A,129.6364,44.6075,牡丹江市,机车工厂,,25,25,33,13,12,67,,109,100,19,17,6,6,0.5,0.4
2025-08-15T2100,1788A,129.6386,44.5462,牡丹江市,第一中学,颗粒物(PM10),59,68,32,14,10,58,,113,91,31,18,6,6,0.3,0.3
2025-08-15T2100,2531A,105.0703,29.61,内江市,市监测站,,32,32,26,17,25,69,,118,100,11,12,3,3,0.7,0.7
2025-08-15T2100,2532A,105.0717,29.5947,内江市,东兴区政府,,36,36,29,14,19,65,,113,96,19,15,5,8,0.7,0.8
2025-08-15T2100,2533A,105.0653,29.5817,内江市,内江二中,,39,31,35,27,28,63,,115,100,20,16,3,3,0.7,0.7
2025-08-15T2100,2534A,105.0406,29.5822,内江市,内江日报社,,32,,26,22,23,70,,121,100,14,13,7,8,0.6,0.5
2025-08-15T2100,2628A,92.0657,31.4846,那曲市,那曲监测站,,32,28,20,7,11,101,,121,119,18,11,11,9,0.4,0.3
2025-08-15T2100,4243A,92.0515,31.4787,那曲市,那曲市委宣传部,,40,40,17,14,8,114,,132,130,11,6,7,5,0.5,0.2
2025-08-15T2100,1290A,115.8931,28.6843,南昌市,省外办,,31,31,15,17,10,54,,62,61,9,6,5,4,0.4,0.3
2025-08-15T2100,1291A,115.8886,28.7003,南昌市,省林业公司,,44,44,10,22,7,37,,65,59,14,4,3,2,0.5,0.4
2025-08-15T2100,1292A,115.8126,28.7442,南昌市,林科所,,15,7,7,3,1,47,,63,61,13,11,8,9,0.5,0.5
2025-08-15T2100,1294A,115.8518,28.687,南昌市,建工学校,,42,29,14,29,18,51,,62,60,20,11,6,5,0.5,0.4
2025-08-15T2100,1295A,115.8921,28.6424,南昌市,象湖,,20,15,11,9,4,62,,68,68,13,9,8,8,0.4,0.3
2025-08-15T2100,1296A,115.7423,28.7996,南昌市,武术学校,,13,10,12,9,11,34,,66,52,5,4,9,10,0.4,0.4
2025-08-15T2100,3046A,115.9084,28.6062,南昌市,机电学校,,29,29,15,17,7,60,,66,66,16,8,6,6,0.5,0.5
2025-08-15T2100,3690A,115.9721,28.7031,南昌市,外国语学校,,26,26,14,10,7,57,,68,68,9,7,6,7,0.3,0.3
2025-08-15T2100,4192A,115.9316,28.68677,南昌市,南京东路235号,,21,21,16,11,3,55,,66,64,13,9,5,5,0.6,0.5
2025-08-15T2100,1905A,106.056,30.8064,南充市,西山风景区,,,,,,,,,,,,,,,,
2025-08-15T2100,1906A,106.0789,30.8023,南充市,南充市委,,22,22,37,15,22,57,,79,72,10,15,4,4,0.4,0.5
2025-08-15T2100,1907A,106.1031,30.8217,南充市,南充炼油厂,,48,48,47,27,27,48,,76,69,12,12,5,5,0.4,0.4
2025-08-15T2100,4227A,106.1083,30.7884,南充市,梨树横街98号,,20,20,34,3,24,64,,89,82,13,16,4,3,0.2,0.3
2025-08-15T2100,4304A,106.1172,30.843,南充市,清泉寺北路188号,细颗粒物(PM2.5),55,,42,39,28,52,,83,76,12,12,4,4,0.4,0.4
2025-08-15T2100,4305A,106.067,30.7616,南充市,同庆路1号,,39,39,45,14,26,53,,86,75,15,17,5,5,0.3,0.4
2025-08-15T2100,1151A,118.8086,32.1065,南京市,迈皋桥,,38,30,19,17,9,121,,135,134,2,11,4,4,0.7,0.6
2025-08-15T2100,1152A,118.7538,32.0551,南京市,草场门,,34,34,26,22,13,107,,122,119,14,12,9,9,0.6,0.6
2025-08-15T2100,1153A,118.7794,32.0745,南京市,山西路,,39,29,27,14,5,123,,134,133,8,3,3,4,0.4,0.4
2025-08-15T2100,1154A,118.7752,32.0023,南京市,中华门,,33,27,19,12,7,105,,114,114,10,7,4,4,0.6,0.6
2025-08-15T2100,1155A,118.8109,32.0309,南京市,瑞金路,,36,27,19,22,9,115,,129,127,2,2,7,7,0.3,0.3
2025-08-15T2100,1156A,118.7997,32.0754,南京市,玄武湖,,35,24,21,11,4,112,,121,120,12,9,7,7,0.5,0.4
2025-08-15T2100,1157A,118.6414,32.0931,南京市,浦口,,37,35,25,17,8,117,,136,134,15,14,5,5,0.5,0.4
2025-08-15T2100,1158A,118.7356,31.9996,南京市,奥体中心,,36,34,25,14,11,114,,120,119,13,11,6,6,0.4,0.4
2025-08-15T2100,1159A,118.9125,32.1028,南京市,仙林大学城,,41,41,26,14,5,111,,118,117,8,7,7,8,0.6,0.5
2025-08-15T2100,3422A,118.8436,31.9198,南京市,江宁彩虹桥,,,37,20,22,9,,,114,114,9,12,4,4,0.3,0.4
2025-08-15T2100,3427A,118.8554,32.3578,南京市,六合雄州,,30,28,21,16,9,96,,118,116,19,17,5,4,0.6,0.6
2025-08-15T2100,4249A,118.8708,31.3402,南京市,汶溪路181号,,36,10,17,10,10,115,,100,100,9,10,6,6,0.3,0.4
2025-08-15T2100,4312A,119.019,31.6512,南京市,中山西路1号,,30,27,21,17,11,94,,105,105,20,14,4,4,0.4,0.4
2025-08-15T2100,1401A,108.3103,22.7881,南宁市,二十一中,,12,,16,8,12,31,,59,53,7,8,3,3,0.5,0.5
2025-08-15T2100,1402A,108.3141,22.8528,南宁市,北湖,,12,9,17,8,14,26,,58,51,12,10,3,3,0.4,0.4
2025-08-15T2100,1403A,108.3206,22.8225,南宁市,市监测站,,15,,15,10,14,28,,56,49,12,10,2,3,0.4,0.4
2025-08-15T2100,1404A,108.3829,22.8037,南宁市,大自然花园,,19,19,15,8,12,34,,56,50,6,7,4,4,0.5,0.5
2025-08-15T2100,1405A,108.4394,22.7904,南宁市,仙葫,,11,7,14,7,10,34,,53,47,6,8,3,4,0.3,0.4
2025-08-15T2100,1406A,108.2397,22.8467,南宁市,区农职院,,26,,17,18,13,30,,63,56,14,12,4,4,0.3,0.4
2025-08-15T2100,1407A,108.3275,22.735,南宁市,英华嘉园,,18,,18,12,15,34,,53,49,6,10,1,1,0.4,0.4
2025-08-15T2100,3401A,108.4834,22.7618,南宁市,红星社区,,16,16,18,11,12,31,,57,50,7,8,2,2,0.4,0.4
2025-08-15T2100,4221A,108.2177,22.7774,南宁市,乐贤路16号,,15,13,25,10,15,31,,57,52,15,15,5,5,0.5,0.5
2025-08-15T2100,2331A,118.0966,26.6761,南平市,茫荡山,,,,,,,,,,,,,,,,
2025-08-15T2100,2332A,118.1681,26.6369,南平市,南平市监测站,,10,7,8,3,7,31,,50,43,3,5,4,4,0.3,0.4
2025-08-15T2100,2333A,118.1825,26.6489,南平市,南平铝业有限公司,,9,6,11,3,4,28,,50,42,4,7,5,5,0.4,0.5
2025-08-15T2100,2334A,118.1756,26.6272,南平市,南平七中,,10,,10,3,6,31,,50,43,2,4,3,4,0.4,0.5
2025-08-15T2100,1168A,120.9098,31.9663,南通市,狼山街道,,19,19,15,3,4,21,,110,96,27,19,4,5,0.5,0.4
2025-08-15T2100,1169A,120.86,32.0005,南通市,虹桥,,17,17,13,6,6,31,,116,104,24,17,3,4,0.6,0.5
2025-08-15T2100,1170A,120.87,32.02,南通市,城中,,26,26,18,6,4,31,,110,98,24,17,4,6,0.2,0.2
2025-08-15T2100,1171A,120.94,31.93,南通市,星湖花园,,15,13,9,8,6,23,,111,96,29,17,4,4,0.5,0.4
2025-08-15T2100,1172A,120.81,32.0417,南通市,紫琅学院,,13,13,11,3,3,37,,109,100,22,18,4,5,0.5,0.5
2025-08-15T2100,3291A,121.067,32.062,南通市,通州监测站,,12,7,8,3,3,37,,111,88,9,11,1,2,0.5,0.5
2025-08-15T2100,3432A,120.9348,31.9883,南通市,环境教育馆,,22,22,20,3,2,29,,114,101,20,13,4,4,0.2,0.2
2025-08-15T2100,2404A,112.5224,33.0122,南阳市,瓦房庄,,38,38,34,13,16,54,,97,82,20,8,8,6,0.4,0.5
2025-08-15T2100,2405A,112.5003,32.9735,南阳市,汉画馆,,27,27,30,6,10,68,,94,85,11,8,7,7,0.6,0.7
2025-08-15T2100,2406A,112.5573,33.027,南阳市,气象站,,,20,28,3,11,,,106,98,13,8,8,8,0.3,0.4
2025-08-15T2100,2407A,112.5481,32.9689,南阳市,理工学院,,24,24,29,3,9,63,,98,86,13,7,8,8,0.5,0.6
2025-08-15T2100,4008A,112.5234,32.9922,南阳市,卧龙区政府,,21,14,27,10,16,66,,98,86,13,9,6,6,0.6,0.7
2025-08-15T2100,1234A,121.8358,29.911,宁波市,区环保大楼,,15,15,19,3,2,35,,34,34,9,6,4,4,0.5,0.5
2025-08-15T2100,1235A,121.56,29.82,宁波市,万里学院,,17,17,14,11,7,33,,50,44,6,5,5,5,0.3,0.3
2025-08-15T2100,1236A,121.713,29.9572,宁波市,龙赛医院,,17,17,13,6,6,27,,43,35,7,6,3,3,0.3,0.3
2025-08-15T2100,1239A,121.633,29.7733,宁波市,钱湖水厂,,13,13,11,6,5,37,,48,43,6,5,5,4,0.3,0.3
2025-08-15T2100,1240A,121.5856,29.8635,宁波市,太古小学,,19,19,12,3,4,29,,48,41,4,3,2,2,0.5,0.5
2025-08-15T2100,1241A,121.524,29.8674,宁波市,市环境监测中心,,14,14,11,7,3,29,,46,39,7,7,7,7,0.4,0.4
2025-08-15T2100,2871A,121.6147,29.9017,宁波市,万里国际学校,,13,13,11,3,4,30,,52,43,5,4,3,3,0.4,0.4
2025-08-15T2100,3710A,121.5594,29.8975,宁波市,白沙活动中心,,14,14,11,3,4,32,,53,45,6,6,5,5,0.4,0.4
2025-08-15T2100,2339A,119.5001,26.6946,宁德市,金涵水库,,,,,,,,,,,,,,,,
2025-08-15T2100,2341A,119.5388,26.6612,宁德市,宁德市监测站,,16,16,17,3,5,34,,34,34,7,10,2,2,0.4,0.5
2025-08-15T2100,3209A,119.5231,26.6562,宁德市,宁德一中,,16,16,12,6,6,33,,35,35,5,8,3,4,0.3,0.4
2025-08-15T2100,2618A,98.8601,25.8567,怒江傈僳族自治州,州监测站,,34,34,24,19,10,39,,60,59,12,7,7,6,0.5,0.5
2025-08-15T2100,2619A,98.8546,25.8417,怒江傈僳族自治州,泸水一中,,,15,20,,8,24,,43,42,17,10,4,5,0.5,0.4
2025-08-15T2100,1888A,101.6891,26.571,攀枝花市,弄弄坪,,40,40,50,17,24,92,,101,101,13,18,10,12,0.8,0.9
2025-08-15T2100,1889A,101.5769,26.5928,攀枝花市,河门口,,40,40,41,22,22,74,,95,95,8,15,7,9,0.6,1
2025-08-15T2100,1890A,101.7169,26.585,攀枝花市,炳草岗,,41,41,52,20,27,79,,100,100,19,27,8,8,0.7,0.9
2025-08-15T2100,1891A,101.7369,26.5008,攀枝花市,仁和,颗粒物(PM10),52,53,39,30,24,66,,103,103,16,13,8,10,0.8,0.9
2025-08-15T2100,2835A,101.7227,26.567,攀枝花市,四十中小,,39,39,41,20,24,89,,101,101,18,25,12,12,1.0,1.1
2025-08-15T2100,1604A,122.0303,41.1489,盘锦市,开发区,颗粒物(PM10),54,58,28,18,20,96,,138,130,12,10,6,5,0.4,0.1
2025-08-15T2100,1605A,122.0485,41.0883,盘锦市,兴隆台,,36,20,27,11,14,113,,134,132,11,9,5,5,0.4,0.5
2025-08-15T2100,1606A,121.8297,41.1028,盘锦市,新生街道,,42,13,23,10,14,134,,160,158,8,9,4,4,0.6,0.6
2025-08-15T2100,1832A,113.3257,33.742,平顶山市,新华旅馆,,45,32,40,31,22,72,,109,103,14,11,6,5,0.6,0.6
2025-08-15T2100,1833A,113.2919,33.737,平顶山市,规划设计院,,28,28,31,16,19,68,,110,102,14,12,4,4,0.8,0.8
2025-08-15T2100,1834A,113.182,33.774,平顶山市,平顶山工学院,,30,30,26,14,16,90,,121,114,12,10,7,5,0.5,0.5
2025-08-15T2100,3204A,113.3025,33.73,平顶山市,规划局,,31,31,34,3,11,71,,115,108,15,11,4,4,0.4,0.5
2025-08-15T2100,3594A,112.8867,33.9116,平顶山市,石龙区,颗粒物(PM10),51,51,37,18,20,81,,116,109,17,12,8,8,0.6,0.6
2025-08-15T2100,2656A,106.6692,35.5461,平凉市,聚贤嘉苑,,39,39,48,13,17,85,,102,99,8,17,5,10,0.4,0.5
2025-08-15T2100,2657A,106.7021,35.5307,平凉市,博物馆,,37,37,49,14,17,81,,100,97,9,15,8,9,0.3,0.6
2025-08-15T2100,2347A,114.0997,27.5002,萍乡市,武功山,,8,6,3,3,3,25,,39,34,4,2,6,6,0.6,0.5
2025-08-15T2100,2348A,113.8385,27.6434,萍乡市,中医院,,18,18,10,9,5,37,,48,46,13,7,11,10,0.7,0.5
2025-08-15T2100,2349A,113.8493,27.6253,萍乡市,市政府车库,,9,,4,6,4,27,,42,40,9,4,9,9,0.3,0.3
2025-08-15T2100,2350A,113.8676,27.6435,萍乡市,市环保局,,,18,11,,8,36,,48,46,10,3,17,16,0.4,0.3
2025-08-15T2100,2351A,113.866,27.6198,萍乡市,安源区政府,,29,29,11,13,6,27,,41,39,10,4,12,12,0.4,0.5
2025-08-15T2100,2319A,119.0141,25.4325,莆田市,荔城区仓后路,,18,18,13,3,2,26,,37,34,5,3,6,6,0.5,0.5
2025-08-15T2100,2320A,119.0015,25.4553,莆田市,莆田市监测站,,10,10,12,3,2,30,,37,35,5,5,4,4,0.4,0.4
2025-08-15T2100,2321A,119.1119,25.4561,莆田市,涵江区六中,,17,17,14,3,1,32,,38,36,4,4,4,4,0.4,0.4
2025-08-15T2100,2322A,119.1013,25.3215,莆田市,秀屿区政府,,18,18,15,3,2,31,,37,36,7,7,4,5,0.3,0.4
2025-08-15T2100,2323A,118.981,25.4792,莆田市,东圳水库,,,,,,,,,,,,,,,,
2025-08-15T2100,2392A,115.0312,35.7636,濮阳市,环保局,,,,38,6,24,62,,104,91,7,10,2,5,0.3,0.4
2025-08-15T2100,2394A,115.0574,35.7609,濮阳市,油田运输公司,,38,,41,26,25,64,,103,91,5,10,1,4,0.5,0.7
2025-08-15T2100,3021A,115,35.7668,濮阳市,濮水河管理处,,,,42,,28,,,80,,,10,,4,,0.5
2025-08-15T2100,4216A,115.0924,35.7686,濮阳市,任丘路479号,,20,10,53,3,28,64,,95,83,4,10,1,4,0.5,0.6
2025-08-15T2100,2601A,100.98,22.7633,普洱市,市环保局,,38,38,32,13,15,56,,69,69,7,8,6,6,0.6,0.6
2025-08-15T2100,2602A,100.9817,22.8322,普洱市,普洱第二中学,,31,31,32,10,10,27,,71,65,24,11,6,6,0.7,0.5
2025-08-15T2100,2262A,131.0518,45.8751,七台河市,新一中,,36,29,15,10,8,115,,115,115,12,12,11,10,0.8,0.7
2025-08-15T2100,3345A,131.0577,45.7879,七台河市,中波台,,27,18,30,3,7,84,,82,82,13,11,9,7,0.4,0.4
2025-08-15T2100,3637A,131.0176,45.7761,七台河市,人民广场,,30,28,18,19,12,93,,90,90,9,10,12,10,0.4,0.4
2025-08-15T2100,3684A,130.8781,45.8222,七台河市,新建矿广场,,29,,19,9,9,91,,89,84,10,14,11,10,0.4,0.4
2025-08-15T2100,1779A,123.9305,47.3636,齐齐哈尔市,安居小区,,28,,24,19,7,70,,66,57,7,13,4,5,0.4,0.4
2025-08-15T2100,1780A,123.9488,47.3386,齐齐哈尔市,中心广场,,29,15,25,3,4,91,,80,70,6,13,5,6,0.4,0.5
2025-08-15T2100,1781A,123.9483,47.3227,齐齐哈尔市,农牧车辆厂,,27,27,32,14,11,86,,80,70,5,12,6,7,0.3,0.4
2025-08-15T2100,1783A,123.945,47.2988,齐齐哈尔市,市环境监测站,,27,16,20,7,6,86,,80,72,6,11,6,7,0.3,0.3
2025-08-15T2100,3662A,123.6333,47.2075,齐齐哈尔市,富区青少年活动中心,,25,15,35,3,14,80,,70,64,3,10,4,9,0.4,0.7
2025-08-15T2100,2591A,107.9783,26.5747,黔东南苗族侗族自治州,市环境监测站,,16,,13,11,11,44,,48,45,9,5,2,2,0.2,0.2
2025-08-15T2100,2881A,107.8908,26.5311,黔东南苗族侗族自治州,凯里学院,,,,7,5,8,44,,51,51,12,10,3,3,0.5,0.4
2025-08-15T2100,2593A,107.5228,26.2403,黔南布依族苗族自治州,小围寨,,14,6,9,3,6,43,,40,40,4,6,1,2,0.2,0.3
2025-08-15T2100,3538A,107.5175,26.2978,黔南布依族苗族自治州,沙坝,,12,7,14,3,2,37,,35,35,4,8,3,4,0.2,0.3
2025-08-15T2100,2589A,104.9022,25.0925,黔西南布依族苗族自治州,场坝街,,14,14,20,7,10,37,,70,59,15,12,3,4,0.4,0.4
2025-08-15T2100,2590A,104.8811,25.0992,黔西南布依族苗族自治州,坪东大道,,26,26,27,7,16,36,,68,56,11,13,2,3,0.5,0.5
2025-08-15T2100,2502A,108.6236,21.9667,钦州市,市环保站,,12,7,7,3,4,36,,64,55,10,9,3,3,0.7,0.6
2025-08-15T2100,2503A,108.6549,21.9481,钦州市,沙埠小学,,11,,13,3,9,35,,64,54,7,8,3,3,0.3,0.4
2025-08-15T2100,2504A,108.5989,21.7431,钦州市,港区一小,,13,13,18,6,9,26,,52,41,19,17,2,4,0.4,0.5
2025-08-15T2100,3404A,108.5959,21.9633,钦州市,北职校,,12,12,14,3,7,31,,62,56,10,8,3,2,0.4,0.4
2025-08-15T2100,1043A,119.7493,40.0116,秦皇岛市,第一关,,35,32,33,18,14,112,,115,110,4,27,4,4,0.4,0.3
2025-08-15T2100,1044A,119.5897,39.9499,秦皇岛市,监测站,,47,47,43,14,12,128,,122,122,8,25,5,5,0.7,0.4
2025-08-15T2100,1046A,119.5251,39.9041,秦皇岛市,建设大厦,,42,42,43,7,10,120,,120,120,5,19,7,6,0.8,0.4
2025-08-15T2100,3132A,119.610547,39.943889,秦皇岛市,文明里,,40,36,37,19,16,126,,118,118,7,22,6,5,0.5,0.3
2025-08-15T2100,4198A,119.5090,39.8253,秦皇岛市,北戴河轮滑馆,,49,49,42,24,17,127,,122,122,5,11,3,2,0.7,0.4
2025-08-15T2100,1307A,120.6659,36.2403,青岛市,仰口,,19,19,16,8,8,49,,62,61,4,4,9,9,0.8,0.7
2025-08-15T2100,1310A,120.4134,36.0658,青岛市,市南区东部子站,,20,17,16,7,6,63,,60,59,4,4,5,6,0.0,0.1
2025-08-15T2100,1311A,120.3664,36.1032,青岛市,四方区子站,,23,22,15,9,8,73,,75,75,1,3,4,4,0.2,0.2
2025-08-15T2100,1312A,120.2994,36.054,青岛市,市南区西部子站,,18,12,13,3,4,55,,53,53,10,10,4,4,0.5,0.5
2025-08-15T2100,1313A,120.4581,36.0858,青岛市,崂山区子站,,21,17,21,3,4,65,,58,58,5,6,7,7,0.2,0.2
2025-08-15T2100,1315A,120.3999,36.3083,青岛市,城阳区子站,,19,19,20,10,8,58,,75,72,12,12,5,5,0.4,0.5
2025-08-15T2100,1966A,120.0405,35.8735,青岛市,黄岛区4号,,25,12,15,3,2,80,,89,89,1,3,4,4,0.4,0.4
2025-08-15T2100,3362A,120.5014,36.4034,青岛市,即墨2号,,30,30,16,3,6,54,,83,76,10,5,3,5,0.2,0.2
2025-08-15T2100,3642A,120.3503,36.0736,青岛市,市北区南部,,21,21,14,3,4,61,,73,72,8,10,6,6,0.6,0.6
2025-08-15T2100,3643A,120.3948,36.1805,青岛市,李沧区北部,,,14,15,9,8,62,,72,72,6,12,,5,0.3,0.3
2025-08-15T2100,4290A,120.1969,35.9546,青岛市,珠江路669号,,25,17,13,3,6,80,,80,80,2,7,5,5,0.4,0.5
2025-08-15T2100,1702A,113.0426,23.691,清远市,环保大楼,,15,11,7,10,3,25,,55,46,14,11,7,7,0.8,0.7
2025-08-15T2100,1703A,113.0208,23.7106,清远市,凤城街办,,,13,7,3,4,,,52,45,14,12,6,6,0.5,0.5
2025-08-15T2100,3025A,113.0477,23.6344,清远市,技师学院,,19,19,9,9,4,18,,51,40,21,14,7,8,0.4,0.4
2025-08-15T2100,3318A,112.9903,23.7403,清远市,清新太和,,15,15,9,3,3,32,,58,46,10,10,6,6,0.4,0.4
2025-08-15T2100,3455A,113.076,23.7198,清远市,清城东城,,14,14,8,3,3,16,,46,34,9,8,6,6,0.5,0.5
2025-08-15T2100,2661A,107.6325,35.7357,庆阳市,庆阳五中,,21,16,29,10,14,67,,80,80,8,5,7,7,0.5,0.6
2025-08-15T2100,2662A,107.6364,35.7067,庆阳市,市环保局,,,19,30,8,14,,,107,90,,4,4,5,0.9,0.9
2025-08-15T2100,1916A,103.7897,25.5035,曲靖市,环境监测站,,24,24,41,6,18,54,,116,96,12,15,3,13,0.6,0.9
2025-08-15T2100,1917A,103.8,25.5364,曲靖市,烟厂办公区,,22,11,38,6,20,70,,118,102,7,12,3,13,0.7,1
2025-08-15T2100,3376A,103.7947,25.462,曲靖市,南苑二区,,20,7,30,7,18,62,,118,100,9,12,4,8,0.6,0.9
2025-08-15T2100,3377A,103.7444,25.5261,曲靖市,曲靖师范学院,,22,22,31,6,20,64,,124,107,9,12,5,12,0.3,0.5
2025-08-15T2100,1264A,118.8692,28.9398,衢州市,环保大楼,,32,32,16,16,7,43,,74,72,22,9,3,3,0.3,0.2
2025-08-15T2100,1265A,118.8709,28.9666,衢州市,实验学校,,29,29,16,9,5,40,,75,72,21,9,2,2,0.3,0.2
2025-08-15T2100,1266A,118.8621,28.9808,衢州市,衢州学院,,26,26,15,12,6,35,,74,69,25,10,3,3,0.3,0.3
2025-08-15T2100,1611A,118.5819,24.9117,泉州市,涂山街,,16,16,20,8,8,24,,45,39,8,8,3,3,0.4,0.4
2025-08-15T2100,1612A,118.5972,24.8978,泉州市,津头埔,,21,21,24,7,7,21,,47,40,8,6,3,3,0.4,0.4
2025-08-15T2100,1613A,118.6663,24.9424,泉州市,万安,,23,23,21,8,8,20,,42,36,9,9,3,2,0.4,0.4
2025-08-15T2100,1614A,118.6117,24.9604,泉州市,清源山,,,,,,,,,,,,,,,,
2025-08-15T2100,3529A,118.6333,24.9264,泉州市,城华南路,,15,15,16,7,8,22,,45,38,9,7,3,3,0.3,0.3
2025-08-15T2100,2626A,88.8876,29.2718,日喀则市,日喀则监测站,,35,9,10,3,3,109,,131,128,20,7,11,10,0.3,0.3
2025-08-15T2100,3726A,88.8781,29.2426,日喀则市,林业技术推广中心,,35,13,10,3,2,110,,125,124,3,3,6,5,0.2,0.2
2025-08-15T2100,1659A,119.471,35.4209,日照市,监测站,,27,27,19,12,11,73,,116,109,21,15,6,5,0.5,0.4
2025-08-15T2100,1660A,119.523,35.4216,日照市,市政府广场,,26,22,19,3,4,83,,121,117,8,6,6,6,0.7,0.6
2025-08-15T2100,1661A,119.5587,35.4044,日照市,港务局,,27,22,18,12,10,86,,118,114,10,9,8,8,0.6,0.6
2025-08-15T2100,3507A,119.5328,35.4625,日照市,职业技术学院,,26,19,18,3,6,83,,122,117,7,4,4,5,0.5,0.6
2025-08-15T2100,3604A,119.3266,35.1044,日照市,岚山环保分局,,29,29,25,3,5,80,,131,120,15,12,7,8,0.6,0.6
2025-08-15T2100,1835A,111.1922,34.7752,三门峡市,市政府,,23,13,38,12,20,72,,101,99,6,9,4,6,0.4,0.5
2025-08-15T2100,1836A,111.1587,34.7942,三门峡市,开发区,,24,11,35,11,21,75,,101,100,9,12,2,4,0.4,0.5
2025-08-15T2100,1838A,111.143,34.7955,三门峡市,风景区,,24,6,32,3,19,76,,106,104,6,8,3,4,0.3,0.5
2025-08-15T2100,3039A,111.1911,34.7829,三门峡市,三门峡市第一小学,,24,7,36,7,18,74,,100,98,5,8,5,3,0.4,0.5
2025-08-15T2100,3598A,111.1,34.7167,三门峡市,富达温泉假日酒店,,29,29,37,9,24,63,,100,96,13,6,4,3,0.3,0.3
2025-08-15T2100,2324A,117.6211,26.2625,三明市,三钢,,,11,17,11,8,,,53,49,4,9,2,2,0.4,0.5
2025-08-15T2100,2325A,117.635,26.2714,三明市,三明二中,,10,,14,3,7,29,,48,43,1,5,2,2,0.3,0.4
2025-08-15T2100,2326A,117.6028,26.2378,三明市,三元区政府,,11,6,21,3,10,34,,55,48,3,7,1,2,0.3,0.5
2025-08-15T2100,2327A,117.7275,26.3108,三明市,洋溪,,,,,,,,,,,,,,,,
2025-08-15T2100,1876A,109.5078,18.2489,三亚市,河东子站,,26,26,11,8,6,39,,47,44,2,2,3,3,0.5,0.5
2025-08-15T2100,1877A,109.4964,18.2681,三亚市,河西子站,,21,21,12,3,2,40,,43,43,6,4,2,2,0.4,0.4
2025-08-15T2100,3540A,109.7348,18.3443,三亚市,君悦子站,,15,15,15,3,4,48,,65,61,3,6,1,1,0.4,0.4
2025-08-15T2100,2624A,91.7608,29.2313,山南市,山南监测站,,39,9,11,3,4,124,,127,127,3,5,2,2,0.2,0.3
2025-08-15T2100,2625A,91.7706,29.2436,山南市,山南人民医院,,39,15,14,9,6,123,,126,126,4,5,4,3,0.3,0.3
2025-08-15T2100,1674A,116.6794,23.3667,汕头市,金平子站,,15,10,20,10,7,45,,88,78,7,8,2,2,0.6,0.6
2025-08-15T2100,1675A,116.7244,23.3633,汕头市,龙湖子站,,17,17,18,3,8,43,,76,72,4,8,6,7,0.6,0.6
2025-08-15T2100,1676A,116.7258,23.2775,汕头市,濠江子站,,19,19,23,3,7,42,,74,72,2,5,5,5,0.5,0.5
2025-08-15T2100,1677A,116.7519,23.4714,汕头市,澄海子站,,13,11,22,8,9,40,,76,72,7,9,2,6,0.5,0.5
2025-08-15T2100,1678A,116.6092,23.2539,汕头市,潮阳子站,,21,21,19,3,7,45,,77,73,2,6,4,5,0.4,0.5
2025-08-15T2100,3444A,116.454,23.2684,汕头市,潮南峡山,,31,31,18,10,8,42,,82,75,6,8,6,6,0.5,0.6
2025-08-15T2100,3624A,116.4069,23.2533,汕头市,潮南子站,,28,28,24,8,9,39,,80,72,7,9,4,4,0.5,0.6
2025-08-15T2100,1693A,115.3653,22.775,汕尾市,市环保局,,24,12,14,8,5,74,,78,78,6,5,3,3,0.4,0.4
2025-08-15T2100,1694A,115.3706,22.7898,汕尾市,市政府,,29,29,15,6,7,72,,80,80,10,7,4,4,0.5,0.5
2025-08-15T2100,1695A,115.3622,22.7925,汕尾市,新城中学,,31,31,18,8,6,74,,79,79,8,6,4,4,0.4,0.4
2025-08-15T2100,2645A,109.9154,33.8715,商洛市,监测站,,33,33,30,12,13,34,,73,57,9,9,4,7,0.6,0.6
2025-08-15T2100,3045A,109.9643,33.8471,商洛市,商州区中学,,,40,26,17,17,,,67,51,41,15,4,7,0.6,0.5
2025-08-15T2100,2408A,115.6702,34.4285,商丘市,环境监测站,,32,32,35,18,17,93,,115,105,9,10,1,1,0.5,0.6
2025-08-15T2100,2409A,115.6458,34.4045,商丘市,粮食局,,40,40,31,16,11,97,,114,105,8,8,2,3,0.5,0.6
2025-08-15T2100,2410A,115.6293,34.3948,商丘市,睢阳区环保局,,43,43,33,17,14,94,,106,99,8,8,2,3,0.3,0.4
2025-08-15T2100,3171A,115.6071,34.4465,商丘市,梁园区档案局,,31,30,27,17,14,98,,112,109,10,11,2,3,0.5,0.5
2025-08-15T2100,1141A,121.4,31.238,上海市,普陀,,21,21,18,3,5,33,,79,71,18,12,5,5,0.3,0.3
2025-08-15T2100,1142A,121.478,31.2036,上海市,十五厂,,28,28,19,10,7,26,,68,59,16,9,8,8,0.6,0.5
2025-08-15T2100,1143A,121.467,31.3008,上海市,虹口,,21,21,16,8,7,28,,66,59,12,7,4,5,0.3,0.3
2025-08-15T2100,1147A,121.425,31.2261,上海市,静安监测站,,21,21,19,9,6,24,,56,50,17,11,3,4,0.6,0.5
2025-08-15T2100,1148A,121.703,31.1907,上海市,浦东川沙,,23,23,19,6,5,27,,65,49,16,11,5,6,0.4,0.5
2025-08-15T2100,1149A,121.533,31.2284,上海市,浦东新区监测站,,22,22,16,8,6,29,,69,60,11,6,8,8,0.3,0.6
2025-08-15T2100,1150A,121.577,31.2071,上海市,浦东张江,,20,20,17,3,7,37,,78,68,12,9,6,6,0.5,0.5
2025-08-15T2100,3265A,121.4316,31.3322,上海市,宝山庙行,,21,21,16,8,5,28,,58,54,14,9,9,8,0.3,0.3
2025-08-15T2100,3266A,121.8791,31.4662,上海市,崇明上实东滩,,,12,12,6,6,,,42,40,9,10,4,4,0.4,0.4
2025-08-15T2100,3268A,121.3162,31.2838,上海市,嘉定南翔,,22,22,17,8,7,29,,79,69,17,10,4,4,0.2,0.2
2025-08-15T2100,3269A,121.3359,30.7456,上海市,金山新城,,18,18,15,3,6,31,,77,61,8,7,4,4,0.5,0.5
2025-08-15T2100,3270A,121.4996,31.0739,上海市,闵行浦江,,,,15,,4,20,,68,56,,7,5,4,,0.7
2025-08-15T2100,3271A,121.2886,31.1663,上海市,青浦徐泾,,,21,16,10,7,34,,83,72,,9,,7,0.5,0.5
2025-08-15T2100,3272A,121.2186,31.0378,上海市,松江图书馆,,20,20,13,9,6,39,,87,74,15,11,7,8,0.5,0.5
2025-08-15T2100,3273A,121.3902,31.2059,上海市,长宁仙霞,,21,21,17,6,5,27,,74,64,17,12,6,7,0.4,0.4
2025-08-15T2100,3274A,121.7965,31.0507,上海市,浦东惠南,,17,17,14,10,11,33,,53,48,9,8,10,10,0.5,0.5
2025-08-15T2100,3544A,121.4891,30.925,上海市,奉贤南桥新城,,18,17,17,12,8,38,,66,55,7,5,3,4,0.6,0.6
2025-08-15T2100,4183A,121.4174,31.16637,上海市,冠生园路458号,,22,22,17,7,5,27,,76,64,22,14,4,4,0.6,0.6
2025-08-15T2100,4205A,121.5419,31.2683,上海市,宁武路151号,,35,35,27,11,9,24,,60,52,16,13,3,3,0.5,0.5
2025-08-15T2100,2381A,118.005,28.4572,上饶市,百草园,,,,,,,,,,,,,,,,
2025-08-15T2100,2382A,117.9756,28.4436,上饶市,市监测站,,,16,14,7,5,,,57,57,9,5,6,6,0.4,0.3
2025-08-15T2100,2383A,117.9519,28.4628,上饶市,凤凰光学,,23,19,16,16,7,57,,56,56,18,8,5,8,1.0,1
2025-08-15T2100,3685A,117.897,28.4315,上饶市,双创科技城,,23,16,15,7,7,71,,62,62,9,6,7,11,0.3,0.3
2025-08-15T2100,4211A,118.1904,28.4448,上饶市,裕丰大道,,21,9,7,6,6,65,,57,57,12,7,16,13,0.4,0.3
2025-08-15T2100,1669A,113.5824,24.7733,韶关市,市八中,,26,26,12,10,5,24,,44,37,14,10,8,11,0.6,0.7
2025-08-15T2100,1671A,113.5917,24.7972,韶关市,园林处,,21,21,9,13,4,27,,39,34,12,8,10,10,0.4,0.5
2025-08-15T2100,1673A,113.5971,24.6863,韶关市,曲江监测站,,23,23,9,8,4,9,,47,33,27,14,8,8,0.6,0.6
2025-08-15T2100,2809A,113.6668,24.7756,韶关市,大学路288号,,18,18,18,3,5,16,,38,32,11,8,9,10,0.9,0.6
2025-08-15T2100,3622A,113.5556,24.8082,韶关市,碧湖山庄,,20,20,9,8,4,27,,40,34,16,9,9,10,0.6,0.6
2025-08-15T2100,2462A,111.5239,27.3033,邵阳市,市水土所,,,,,,,,,,,,,,,,
2025-08-15T2100,2464A,111.5283,27.2442,邵阳市,市化工厂,,18,18,14,9,6,19,,54,44,23,10,8,7,0.6,0.6
2025-08-15T2100,2466A,111.4328,27.2272,邵阳市,市环保局,,13,13,13,7,5,29,,56,48,14,7,5,5,0.6,0.5
2025-08-15T2100,4218A,111.4460,27.2472,邵阳市,北塔二期4-26地块,,7,6,14,3,7,18,,48,40,14,8,5,5,0.4,0.3
