timepoint,stationcode,longitude,latitude,area,positionname,primarypollutant,aqi,pm10,pm10_24h,pm2_5,pm2_5_24h,o3,o3_24h,o3_8h,o3_8h_24h,no2,no2_24h,so2,so2_24h,co,co_24h
2025-08-15T0000,2566A,102.1879,31.914,阿坝藏族羌族自治州,州农科所,,17,17,19,9,12,41,,72,65,4,5,15,15,0,0.1
2025-08-15T0000,2568A,102.2502,31.8896,阿坝藏族羌族自治州,马师校,,35,,16,24,16,29,,60,51,7,6,7,7,0.6,0.6
2025-08-15T0000,3994A,102.2165,31.9024,阿坝藏族羌族自治州,马尔康中学西区,,23,21,13,16,12,39,,79,69,3,3,8,8,0.6,0.5
2025-08-15T0000,2695A,80.292,41.1694,阿克苏地区,电视台,颗粒物(PM10),57,63,60,36,25,92,,112,106,7,6,2,3,0.6,0.6
2025-08-15T0000,2696A,80.2613,41.1551,阿克苏地区,艺术中心,细颗粒物(PM2.5),53,51,64,37,25,86,,110,101,11,6,3,4,0.5,0.5
2025-08-15T0000,2204A,105.6467,38.8363,阿拉善盟,西城区西花园,,47,30,33,16,14,148,,143,143,8,12,9,9,0.8,0.7
2025-08-15T0000,2205A,105.6985,38.8411,阿拉善盟,蒙二幼,,41,29,35,16,13,131,,132,132,4,5,10,10,0.6,0.6
2025-08-15T0000,2206A,105.724,38.8516,阿拉善盟,环保局新楼,,43,30,31,14,12,137,,136,136,5,6,9,10,0.6,0.5
2025-08-15T0000,2708A,88.1264,47.8517,阿勒泰地区,市站,颗粒物(PM10),51,51,21,3,5,17,,85,60,43,17,3,3,0.4,0.4
2025-08-15T0000,2630A,80.1161,32.5,阿里地区,阿里监测站,,34,6,6,3,3,107,,111,108,9,5,7,7,0.3,0.2
2025-08-15T0000,3192A,80.0903,32.5028,阿里地区,阿里藏医院,,,,,,,,,,,,,,,,
2025-08-15T0000,2642A,109.0318,32.6537,安康市,香溪洞,,24,14,20,7,12,74,,96,80,5,4,8,7,0.4,0.4
2025-08-15T0000,2644A,109.0072,32.6975,安康市,汉滨区检察院,,22,18,18,13,12,69,,93,77,6,5,30,8,0.6,0.4
2025-08-15T0000,4054A,109.0325,32.6913,安康市,市邮政管理局,,20,12,20,9,13,64,,88,69,3,6,4,8,0.4,0.5
2025-08-15T0000,2291A,117.0809,30.5177,安庆市,环科院,,19,19,26,6,17,40,,117,75,13,5,7,5,0.6,0.7
2025-08-15T0000,2292A,117.0331,30.5119,安庆市,马山宾馆,,18,18,25,6,16,37,,108,71,14,5,6,5,0.6,0.7
2025-08-15T0000,2294A,116.9896,30.6145,安庆市,安庆大学,,20,20,24,6,14,32,,95,74,25,7,4,3,0.4,0.5
2025-08-15T0000,3173A,117.0598,30.5351,安庆市,市人大,,18,18,26,6,15,35,,116,74,20,8,4,9,0.5,0.7
2025-08-15T0000,3122A,105.9606,26.2611,安顺市,伍家关,,,,27,16,16,80,,152,116,7,16,8,8,0.6,0.6
2025-08-15T0000,3123A,105.9408,26.2431,安顺市,凤凰山,,25,24,30,15,24,79,,139,111,6,16,8,7,0.6,0.6
2025-08-15T0000,3124A,105.9439,26.2564,安顺市,金钟山,,28,26,28,19,20,80,,143,114,6,10,10,10,0.6,0.6
2025-08-15T0000,3125A,105.8983,26.2481,安顺市,娄家坡,,26,22,27,18,20,67,,134,105,14,11,26,12,0.7,0.6
2025-08-15T0000,1818A,114.4839,36.0621,安阳市,棉研所,,,,,,,,,,,,,,,,
2025-08-15T0000,1819A,114.3551,36.1017,安阳市,红庙街,,36,29,42,25,18,98,,139,118,9,12,6,6,0.4,0.4
2025-08-15T0000,1820A,114.361,36.0681,安阳市,银杏小区,,46,40,43,32,28,99,,143,121,12,15,6,6,0.5,0.5
2025-08-15T0000,3141A,114.3922,36.0878,安阳市,信访局,,45,45,42,31,25,99,,152,132,12,10,5,6,0.7,0.7
2025-08-15T0000,3669A,114.4705,36.0637,安阳市,左辅环卫站,细颗粒物(PM2.5),59,46,43,42,30,77,,142,115,15,11,8,6,0.7,0.6
2025-08-15T0000,3703A,114.2917,36.0949,安阳市,安钢职工学校,,42,31,44,29,25,102,,138,118,5,9,4,5,0.7,0.6
2025-08-15T0000,1748A,123.044,41.1196,鞍山市,深沟寺,,34,34,36,19,23,86,,153,120,8,11,7,9,0.9,1.1
2025-08-15T0000,1749A,123.011,41.0931,鞍山市,太阳城,,34,34,41,19,23,101,,158,122,8,12,6,9,0.8,1.1
2025-08-15T0000,1750A,123.0485,41.1442,鞍山市,太平,,48,48,49,24,27,89,,150,119,10,14,6,10,0.9,1.1
2025-08-15T0000,1751A,122.9642,41.0971,鞍山市,铁西三道街,,41,41,53,22,29,96,,151,116,12,19,6,10,0.9,1.2
2025-08-15T0000,1753A,123.022,41.0821,鞍山市,明达新区,,35,35,43,18,24,101,,142,110,8,15,8,11,0.8,1.1
2025-08-15T0000,1754A,123.1289,41.0228,鞍山市,千山,,,,,,,,,,,,,,,,
2025-08-15T0000,4201A,122.9446,41.0826,鞍山市,兴盛南路290号,,37,37,47,17,25,77,,153,108,33,20,12,12,1.5,1.3
2025-08-15T0000,2195A,107.4212,40.761,巴彦淖尔市,附二中,,30,30,42,10,12,95,,182,148,10,13,7,10,0.6,0.6
2025-08-15T0000,2196A,107.37,40.7372,巴彦淖尔市,市环保大楼,,35,35,34,10,12,89,,174,144,11,11,7,9,0.5,0.5
2025-08-15T0000,1956A,86.1472,41.7538,巴音郭楞蒙古自治州,孔雀公园,颗粒物(PM10),52,54,47,11,16,100,,116,103,17,17,7,5,0.3,0.3
2025-08-15T0000,1957A,86.1972,41.7166,巴音郭楞蒙古自治州,棉纺厂,,35,33,55,8,10,109,,113,110,4,11,4,5,0.2,0.2
2025-08-15T0000,1958A,86.2357,41.7173,巴音郭楞蒙古自治州,经济开发区,,37,37,34,6,7,112,,114,113,5,8,4,4,0.1,0.1
2025-08-15T0000,2914A,106.7677,31.8794,巴中市,苏山坪,,31,20,23,15,15,97,,122,118,6,6,4,5,0.4,0.4
2025-08-15T0000,3181A,106.7768,31.8526,巴中市,市五中,,44,44,55,22,19,51,,129,98,20,13,6,6,0.5,0.5
2025-08-15T0000,3183A,106.7418,31.8654,巴中市,圣泉水务公司,,33,33,27,22,18,49,,134,94,17,10,5,5,0.6,0.6
2025-08-15T0000,3616A,106.7616,31.8344,巴中市,市中心医院,,41,41,30,22,22,45,,130,96,24,16,6,6,0.5,0.4
2025-08-15T0000,2235A,122.7911,45.6077,白城市,洮北区环保局,,19,15,13,7,8,58,,84,67,2,4,3,4,0.3,0.2
2025-08-15T0000,2236A,122.8738,45.5725,白城市,市环保局,,20,12,9,7,6,61,,84,69,3,3,4,3,0.4,0.3
2025-08-15T0000,2231A,126.4219,41.9171,白山市,喜丰,颗粒物(PM10),73,96,33,20,11,3,,111,45,27,13,6,6,0.6,0.6
2025-08-15T0000,2232A,126.4077,41.9419,白山市,环保局,,32,27,24,22,14,17,,116,53,12,11,4,5,0.6,0.6
2025-08-15T0000,2647A,104.1724,36.5446,白银市,第三小学,,30,30,35,9,17,91,,128,117,17,17,21,14,0.4,0.5
2025-08-15T0000,2648A,104.1465,36.5482,白银市,动力公司,,32,18,31,8,14,100,,126,118,14,16,20,11,0.4,0.5
2025-08-15T0000,2512A,106.6103,23.9011,百色市,市监测站,,13,13,23,9,12,30,,74,50,11,9,4,4,0.5,0.5
2025-08-15T0000,2513A,106.6538,23.8859,百色市,市中心血站,,18,16,33,12,20,24,,80,51,19,18,2,4,0.6,0.7
2025-08-15T0000,3406A,106.6085,23.8798,百色市,祈福高中,,18,14,32,12,15,30,,73,51,13,13,4,4,0.6,0.6
2025-08-15T0000,2270A,117.396,32.939,蚌埠市,工人疗养院,,32,32,34,7,13,43,,108,84,34,10,5,4,0.3,0.4
2025-08-15T0000,2271A,117.3605,32.9427,蚌埠市,百货大楼,,24,24,27,11,15,58,,98,79,22,13,6,6,0.4,0.5
2025-08-15T0000,2273A,117.4185,32.8911,蚌埠市,蚌埠学院,,23,17,25,10,14,71,,105,83,10,15,6,8,0.4,0.5
2025-08-15T0000,2274A,117.3533,32.9673,蚌埠市,淮上区政府,,29,29,29,13,16,63,,119,99,26,11,6,5,0.4,0.5
2025-08-15T0000,2275A,117.3145,32.8977,蚌埠市,高新区,,31,31,28,9,15,71,,101,84,10,11,6,6,0.5,0.6
2025-08-15T0000,3715A,117.3092,32.9314,蚌埠市,蚌埠田家炳中学,,30,30,33,10,15,82,,111,93,8,9,8,8,0.2,0.4
2025-08-15T0000,1585A,109.8756,40.6532,包头市,市环境监测站,颗粒物(PM10),55,59,43,12,15,106,,168,149,20,31,9,10,0.7,0.7
2025-08-15T0000,1587A,109.9991,40.5842,包头市,包头八中,颗粒物(PM10),54,57,62,20,23,100,,160,142,25,29,29,15,0.6,0.8
2025-08-15T0000,1588A,109.8538,40.6821,包头市,青山宾馆,颗粒物(PM10),51,51,35,24,18,106,,167,150,26,30,7,8,0.7,0.7
2025-08-15T0000,1589A,109.8642,40.6288,包头市,惠龙物流,颗粒物(PM10),54,57,45,18,18,101,,160,142,17,26,8,11,0.6,0.7
2025-08-15T0000,1590A,110.0377,40.5546,包头市,东河鸿龙湾,,50,50,50,20,27,104,,156,148,26,29,10,15,0.6,0.5
2025-08-15T0000,3283A,109.9154,40.5685,包头市,滨河大厦,,47,47,42,21,19,97,,169,149,23,26,6,8,0.5,0.6
2025-08-15T0000,3419A,109.9447,40.6261,包头市,包头市委党校,,48,48,37,15,20,109,,169,151,21,28,17,14,0.6,0.7
2025-08-15T0000,3683A,109.8331,40.6576,包头市,昆区政府,颗粒物(PM10),53,55,47,26,20,102,,163,146,23,26,7,10,0.6,0.7
2025-08-15T0000,1930A,107.185,34.3063,宝鸡市,庙沟村,,37,33,34,18,16,116,,171,145,14,10,4,4,0.4,0.4
2025-08-15T0000,1931A,107.0708,34.3017,宝鸡市,竹园沟,,35,30,36,24,20,81,,174,138,11,11,7,8,0.3,0.3
2025-08-15T0000,1932A,107.1906,34.3672,宝鸡市,三陆医院,,38,38,48,22,27,110,,175,157,12,21,8,10,0.6,0.6
2025-08-15T0000,1933A,107.1431,34.3547,宝鸡市,监测站,,40,40,48,28,24,94,,176,155,9,12,8,9,0.6,0.6
2025-08-15T0000,1934A,107.1186,34.3739,宝鸡市,技工学校,,38,,49,26,24,112,,174,158,12,12,6,7,0.6,0.6
2025-08-15T0000,1936A,107.2058,34.3497,宝鸡市,文理学院,,40,40,47,24,25,117,,182,165,10,14,8,9,0.6,0.6
2025-08-15T0000,1937A,107.2386,34.3622,宝鸡市,三迪小学,,38,34,63,26,30,108,,177,156,15,16,5,7,0.5,0.5
2025-08-15T0000,4308A,107.3898,34.3601,宝鸡市,陈仓区北开路21号,,41,41,43,24,23,101,,174,152,14,17,6,25,0.5,0.5
2025-08-15T0000,1051A,115.493,38.8632,保定市,游泳馆,颗粒物(PM10),51,52,44,35,27,54,,141,106,22,18,3,3,0.0,0
2025-08-15T0000,1052A,115.5213,38.8959,保定市,华电二区,,48,48,55,33,28,53,,165,116,22,21,4,3,0.7,0.6
2025-08-15T0000,1053A,115.4713,38.9108,保定市,接待中心,颗粒物(PM10),51,51,43,29,30,53,,163,117,27,20,2,2,0,0.2
2025-08-15T0000,1054A,115.4612,38.8416,保定市,地表水厂,颗粒物(PM10),54,58,69,27,25,63,,156,111,18,12,2,3,0.5,0.5
2025-08-15T0000,3581A,115.31981,38.95208,保定市,满城区生态环境分局,颗粒物(PM10),57,63,56,34,28,50,,159,114,27,21,2,3,0.2,0.2
2025-08-15T0000,3582A,115.47694,38.76408,保定市,清苑区第二中学,颗粒物(PM10),64,78,59,43,30,41,,147,99,42,17,3,2,0.7,0.6
2025-08-15T0000,3583A,115.62909,39.02311,保定市,徐水物探局,,43,43,51,3,15,77,,166,116,15,19,6,6,0.5,0.5
2025-08-15T0000,4004A,115.4202,38.8656,保定市,双鹰农机,颗粒物(PM10),52,53,46,29,22,63,,164,119,19,14,4,4,0.3,0.3
2025-08-15T0000,4034A,115.5150,38.8590,保定市,植保所站,,48,48,44,21,22,69,,166,122,16,17,5,3,0.4,0.4
2025-08-15T0000,2594A,99.1678,25.1081,保山市,市环境监测站,,26,18,16,18,17,16,,66,36,7,8,5,6,0.5,0.5
2025-08-15T0000,2595A,99.1711,25.1328,保山市,市环保局,,16,16,17,9,9,22,,68,39,4,5,6,6,0.4,0.4
2025-08-15T0000,1866A,109.2262,21.588,北海市,牛尾岭水库,,16,,12,8,6,51,,64,62,4,8,2,3,0.4,0.4
2025-08-15T0000,1867A,109.1436,21.4086,北海市,海滩公园,,18,13,21,3,5,56,,90,85,13,6,6,3,0.8,0.6
2025-08-15T0000,1868A,109.0981,21.4661,北海市,新市环保局,,28,,17,19,11,64,,84,82,13,12,4,4,0.4,0.4
2025-08-15T0000,1869A,109.1778,21.5233,北海市,北海工业园,,19,,18,10,10,59,,81,79,10,8,8,3,0.5,0.5
2025-08-15T0000,3400A,109.1911,21.4415,北海市,龙潭自来水厂,,18,15,14,7,8,56,,86,82,13,6,10,7,0.5,0.5
2025-08-15T0000,1001A,116.3621,39.8784,北京市,万寿西宫,,35,28,30,14,15,112,,144,120,1,18,2,3,0.5,0.5
2025-08-15T0000,1002A,116.2202,40.2915,北京市,定陵,,37,27,24,17,11,117,,110,110,3,3,2,2,0.5,0.4
2025-08-15T0000,1003A,116.4174,39.9289,北京市,东四,,37,27,29,18,15,116,,149,132,13,27,4,5,0.6,0.6
2025-08-15T0000,1004A,116.4072,39.8863,北京市,天坛,,35,23,28,17,15,111,,137,119,6,19,2,3,0.5,0.5
2025-08-15T0000,1005A,116.462,39.9365,北京市,农展馆,,31,22,15,7,8,99,,140,120,14,26,2,3,0.5,0.5
2025-08-15T0000,1006A,116.3392,39.9295,北京市,官园,,40,39,33,28,16,111,,146,128,10,19,4,4,0.5,0.5
2025-08-15T0000,1007A,116.2878,39.9611,北京市,海淀万柳,,42,41,31,29,15,94,,120,113,16,31,3,3,0.4,0.4
2025-08-15T0000,1008A,116.6636,40.135,北京市,顺义新城,,,,,,,,,,,,,,,,
2025-08-15T0000,1009A,116.6275,40.3275,北京市,怀柔镇,,39,26,20,21,12,122,,131,130,8,12,3,2,0.6,0.5
2025-08-15T0000,1010A,116.2296,40.217,北京市,昌平镇,,35,33,24,23,14,112,,124,124,9,13,4,4,0.6,0.6
2025-08-15T0000,1011A,116.3966,39.9821,北京市,奥体中心,,33,29,26,17,12,103,,137,126,13,20,4,4,0.5,0.5
2025-08-15T0000,3281A,115.9718,40.4529,北京市,延庆夏都,,40,26,30,17,16,125,,122,122,3,6,3,3,0.5,0.5
2025-08-15T0000,3418A,116.8336,40.4095,北京市,密云新城,,31,24,18,18,10,98,,105,105,5,6,1,1,0.5,0.4
2025-08-15T0000,3671A,116.088,39.9726,北京市,门头沟三家店,,36,30,32,25,18,110,,117,116,13,20,3,3,0.7,0.6
2025-08-15T0000,3672A,116.1541,39.8204,北京市,丰台云岗,,30,29,39,20,21,96,,138,116,7,19,3,3,0.5,0.5
2025-08-15T0000,3673A,116.6804,39.9081,北京市,通州东关,,32,26,34,17,16,102,,136,114,10,26,6,6,0.6,0.6
2025-08-15T0000,3674A,115.9577,39.7603,北京市,房山燕山,颗粒物(PM10),52,53,38,28,27,83,,135,117,13,13,3,3,0.5,0.5
2025-08-15T0000,3675A,116.4672,39.7733,北京市,大兴旧宫,,34,16,27,11,14,106,,134,115,9,24,1,2,0.6,0.6
2025-08-15T0000,3694A,115.986,40.4563,北京市,延庆石河营,,37,26,30,19,18,118,,118,118,4,6,3,3,0.5,0.5
2025-08-15T0000,3695A,116.6151,40.3053,北京市,怀柔新城,,31,28,26,21,14,99,,119,116,6,7,2,4,0.6,0.5
2025-08-15T0000,3696A,116.2545,39.8768,北京市,丰台小屯,,30,25,32,19,18,96,,125,112,6,21,2,2,0.6,0.6
2025-08-15T0000,3697A,116.84,40.3844,北京市,密云镇,,37,26,21,19,13,116,,116,116,6,12,4,4,0.6,0.6
2025-08-15T0000,4182A,116.1942,39.9158,北京市,八角北路9号,,38,27,38,20,17,119,,140,129,3,28,1,2,0.4,0.4
2025-08-15T0000,4194A,117.0790,40.1518,北京市,洳河巡河路,,46,43,35,32,19,111,,130,114,5,8,2,3,0.8,0.6
2025-08-15T0000,1761A,123.8275,41.3064,本溪市,大峪,,43,43,32,16,16,19,,131,66,32,17,5,6,0.4,0.5
2025-08-15T0000,1762A,123.7567,41.3325,本溪市,溪湖,颗粒物(PM10),59,68,41,22,18,19,,132,69,24,13,6,8,1.2,1.5
2025-08-15T0000,1763A,123.7169,41.3094,本溪市,彩屯,,43,43,32,23,19,27,,122,56,21,17,8,9,0.9,1
2025-08-15T0000,1764A,123.7669,41.2864,本溪市,东明,颗粒物(PM10),51,51,39,18,18,12,,126,73,46,22,4,6,0.9,1
2025-08-15T0000,1765A,123.7992,41.2664,本溪市,新立屯,,35,35,27,18,14,13,,118,40,48,24,4,5,1.0,0.9
2025-08-15T0000,1766A,123.8142,41.3472,本溪市,威宁,,32,32,38,21,20,5,,118,43,26,16,8,9,0.6,0.8
2025-08-15T0000,2587A,105.2864,27.3125,毕节市,八中,,35,31,24,24,19,60,,114,95,10,8,4,5,0.6,0.5
2025-08-15T0000,2588A,105.31,27.2944,毕节市,师专,,28,26,24,12,13,87,,128,108,7,10,4,5,0.8,0.7
2025-08-15T0000,4263A,105.3688,27.3598,毕节市,工业大道,,26,25,29,17,16,83,,134,110,9,13,7,6,0.6,0.6
2025-08-15T0000,1629A,118.0018,37.3617,滨州市,第二水厂,颗粒物(PM10),51,51,74,22,44,37,,184,117,37,26,5,4,0.9,0.8
2025-08-15T0000,1630A,117.9776,37.393,滨州市,北中新校,,48,48,65,24,45,47,,187,130,36,24,8,7,0.8,0.8
2025-08-15T0000,3514A,117.9378,37.3956,滨州市,中海酒店,,44,44,62,24,40,60,,196,141,23,18,4,4,0.8,0.7
2025-08-15T0000,3515A,117.9378,37.3553,滨州市,开发区一中,颗粒物(PM10),53,56,75,29,45,58,,204,134,30,24,7,6,0.8,0.6
2025-08-15T0000,3516A,118.0917,37.694,滨州市,金海六路,,49,49,64,24,39,74,,198,136,24,19,7,5,0.5,0.5
2025-08-15T0000,4028A,117.9956,37.3753,滨州市,滨州市西街道办事处,,49,41,61,34,47,39,,204,132,33,24,4,2,0.7,0.6
2025-08-15T0000,2311A,115.8072,33.8399,亳州市,污水处理厂,,15,8,8,7,7,46,,93,75,12,9,4,4,0.6,0.6
2025-08-15T0000,2312A,115.7789,33.8518,亳州市,三国揽胜宫,,20,20,17,3,5,60,,97,84,10,7,6,4,0.6,0.6
2025-08-15T0000,3332A,115.7633,33.8034,亳州市,亳州学院,,20,9,9,9,7,62,,92,82,8,5,3,3,0.5,0.4
2025-08-15T0000,2693A,82.0485,44.8556,博尔塔拉蒙古自治州,市党校,颗粒物(PM10),55,59,30,8,18,54,,95,84,21,8,5,4,0.4,0.3
2025-08-15T0000,2694A,82.0806,44.8969,博尔塔拉蒙古自治州,市环保局,细颗粒物(PM2.5),70,80,43,51,17,52,,90,83,19,8,5,2,0.7,0.4
2025-08-15T0000,1071A,116.8842,38.2991,沧州市,沧县城建局,颗粒物(PM10),69,88,63,43,38,114,,163,152,35,18,4,3,0.6,0.5
2025-08-15T0000,1072A,116.8584,38.3254,沧州市,电视转播站,细颗粒物(PM2.5),70,82,72,51,40,126,,151,147,27,14,2,2,0.5,0.5
2025-08-15T0000,1073A,116.8709,38.3228,沧州市,市环保局,细颗粒物(PM2.5),68,83,68,49,37,116,,162,151,24,11,3,3,0.6,0.5
2025-08-15T0000,3324A,116.8136,38.3004,沧州市,河北水利电力学院,细颗粒物(PM2.5),84,70,52,62,41,148,,169,167,18,10,2,3,0.5,0.5
2025-08-15T0000,2622A,97.1806,31.1273,昌都市,昌都监测站,,24,12,17,9,11,76,,111,101,3,5,4,4,0.4,0.4
2025-08-15T0000,3719A,97.1714,31.1406,昌都市,昌都会议中心,,27,9,21,6,10,85,,109,104,2,4,3,3,0.1,0.2
2025-08-15T0000,2690A,88.1236,43.8886,昌吉回族自治州,天山天池,,22,22,22,11,7,60,,110,95,6,7,4,4,0.6,0.5
2025-08-15T0000,2692A,87.2717,44.0297,昌吉回族自治州,新区政务中心,,38,38,30,11,9,32,,118,90,40,20,8,11,0.5,0.4
2025-08-15T0000,3613A,87.3095,44.0142,昌吉回族自治州,亚心广场,颗粒物(PM10),54,58,42,19,8,36,,108,81,54,24,8,10,0.6,0.4
2025-08-15T0000,1120A,125.2863,43.9027,长春市,客车厂,,45,45,27,22,14,83,,108,88,24,17,5,4,0.5,0.4
2025-08-15T0000,1121A,125.2841,43.8463,长春市,邮电学院,,29,29,28,11,12,67,,111,82,18,15,5,5,0.6,0.5
2025-08-15T0000,1122A,125.3716,43.8772,长春市,劳动公园,颗粒物(PM10),51,52,31,21,14,72,,108,86,26,15,8,7,0.4,0.3
2025-08-15T0000,1123A,125.3297,43.8805,长春市,园林处,,40,40,23,14,10,93,,106,91,16,12,5,4,0.6,0.5
2025-08-15T0000,1124A,125.4605,43.79,长春市,净月潭,,24,24,19,10,9,56,,98,68,7,7,4,4,0.3,0.3
2025-08-15T0000,1125A,125.7194,43.515,长春市,甩湾子,,22,22,20,14,13,36,,89,59,17,12,3,4,0.5,0.5
2025-08-15T0000,1126A,125.3863,43.8447,长春市,经开区环卫处,,49,49,30,15,11,63,,102,85,31,16,4,4,0.5,0.5
2025-08-15T0000,1127A,125.245,43.7783,长春市,高新区管委会,,44,44,25,15,13,63,,107,77,18,12,3,3,0.5,0.5
2025-08-15T0000,1128A,125.1761,43.8325,长春市,岱山公园,颗粒物(PM10),51,52,28,21,13,65,,106,67,32,23,4,3,0.4,0.3
2025-08-15T0000,4281A,125.3346,43.9164,长春市,北亚泰大街1068号,,45,45,28,21,14,86,,105,87,25,17,8,7,0.7,0.5
2025-08-15T0000,1335A,113.0833,28.2325,长沙市,经开区环保局,,13,11,24,3,10,39,,69,49,7,8,8,4,0.3,0.4
2025-08-15T0000,1336A,112.8872,28.2189,长沙市,高开区环保局,,15,15,28,3,10,38,,79,49,2,6,3,3,0.2,0.3
2025-08-15T0000,1337A,113.0792,28.2053,长沙市,马坡岭,,14,12,26,3,14,43,,65,,6,8,4,4,0.2,0.4
2025-08-15T0000,1338A,112.9394,28.19,长沙市,湖南师范大学,,16,16,29,3,14,42,,86,53,8,7,3,2,0.2,0.5
2025-08-15T0000,1339A,113.0178,28.1322,长沙市,雨花区环保局,,11,11,26,6,11,35,,78,49,5,6,5,5,0.4,0.5
2025-08-15T0000,1340A,112.9792,28.2597,长沙市,伍家岭,,12,12,26,3,10,37,,77,42,7,8,2,2,0.2,0.3
2025-08-15T0000,1341A,113.0014,28.1944,长沙市,火车新站,,16,16,27,3,11,38,,81,48,4,6,5,5,0.3,0.4
2025-08-15T0000,1342A,112.9844,28.1178,长沙市,天心区环保局,,12,9,25,3,14,38,,84,53,9,9,2,2,0.2,0.4
2025-08-15T0000,1343A,112.8908,28.1308,长沙市,湖南中医药大学,,18,15,28,12,19,33,,78,43,6,7,3,2,0.4,0.6
2025-08-15T0000,1344A,112.9581,28.3611,长沙市,沙坪,,11,9,28,3,16,34,,78,50,10,8,3,3,0.3,0.4
2025-08-15T0000,1727A,113.1147,36.1547,长治市,清华站,,23,19,39,12,21,71,,141,83,11,12,7,8,0.6,1.1
2025-08-15T0000,1730A,113.0886,36.2125,长治市,审计局,,26,14,37,12,20,82,,140,79,10,13,5,6,0.7,1
2025-08-15T0000,1731A,113.0844,36.1856,长治市,长治八中,,25,,37,17,31,78,,143,85,8,11,8,8,0.7,1
2025-08-15T0000,2845A,113.1569,36.1911,长治市,德盛苑,,25,22,34,9,20,80,,131,97,6,7,7,7,0.7,0.9
2025-08-15T0000,3568A,113.06,36.0464,长治市,向阳小学,,39,39,69,12,29,65,,134,89,13,7,3,4,0.5,0.8
2025-08-15T0000,3569A,112.8792,36.3144,长治市,屯留一中,,46,46,54,22,36,66,,152,85,16,20,7,8,0.3,0.5
2025-08-15T0000,4189A,113.1131,36.19948,长治市,英华南巷50号,,27,15,41,7,23,85,,134,87,6,12,7,7,0.8,1.1
2025-08-15T0000,4190A,113.2367,36.3344,长治市,学府街1号,,43,32,38,30,29,94,,136,120,12,13,3,4,0.7,0.8
2025-08-15T0000,1854A,111.6975,28.9703,常德市,市二中,,16,12,18,3,12,51,,90,69,7,8,3,4,0.5,0.5
2025-08-15T0000,1857A,111.7158,29.1456,常德市,白鹤山,,,,,,,,,,,,,,,,
2025-08-15T0000,3138A,111.7153,29.0289,常德市,武陵区永安,,22,12,19,8,10,68,,89,76,3,4,3,3,0.4,0.4
2025-08-15T0000,3139A,111.6892,28.9881,常德市,鼎城区玉霞,,,12,18,11,12,,,89,76,5,7,4,4,0.4,0.5
2025-08-15T0000,3140A,111.6625,29.0531,常德市,武陵区长庚,,20,18,16,13,9,61,,69,69,6,6,4,4,0.6,0.6
2025-08-15T0000,1196A,119.9633,31.762,常州市,市监测站,,19,19,14,10,9,37,,98,79,16,11,10,8,0.7,0.4
2025-08-15T0000,1200A,119.9468,31.7069,常州市,武进监测站,,18,18,19,3,6,39,,100,84,10,5,8,8,0.8,0.8
2025-08-15T0000,1201A,119.9255,31.9087,常州市,安家,,21,21,20,6,6,39,,97,80,12,9,7,8,0.7,0.8
2025-08-15T0000,3002A,119.9805,31.8174,常州市,行政中心,,16,16,22,3,8,30,,92,73,20,13,8,6,0.4,0.6
2025-08-15T0000,3003A,120.0522,31.7748,常州市,经开区,,30,30,26,6,7,24,,96,71,24,12,4,3,0.6,0.6
2025-08-15T0000,3010A,119.9025,31.7964,常州市,钟楼,,32,32,20,3,5,43,,98,83,13,9,6,6,0.4,0.3
2025-08-15T0000,3429A,119.8598,31.7066,常州市,武进经发区,,25,25,20,8,8,36,,99,82,9,6,7,7,0.7,0.7
2025-08-15T0000,3430A,119.5826,31.7245,常州市,金坛城区,,18,18,18,7,7,46,,104,90,11,8,7,8,0.3,0.3
2025-08-15T0000,2220A,120.4318,41.5881,朝阳市,西梁,,34,22,30,15,17,107,,124,120,20,16,14,7,1.5,0.8
2025-08-15T0000,2221A,120.4521,41.5646,朝阳市,河畔小区,,40,16,27,10,11,126,,136,133,8,12,6,7,0.7,0.8
2025-08-15T0000,2222A,120.4176,41.5648,朝阳市,八里堡,,35,,32,16,14,110,,126,120,20,18,10,8,1.1,0.8
2025-08-15T0000,2223A,120.3806,41.5969,朝阳市,农业园区,,36,13,26,13,13,113,,121,114,7,12,5,7,0.6,0.7
2025-08-15T0000,1705A,116.6367,23.6719,潮州市,西园路,,20,20,11,3,7,14,,40,27,6,8,2,3,0.3,0.3
2025-08-15T0000,3026A,116.6183,23.6608,潮州市,市政府,,,,18,,6,,,36,24,12,9,8,8,0.5,0.3
2025-08-15T0000,4036A,116.6461,23.6761,潮州市,金山,,18,15,9,12,12,9,,40,23,6,7,4,5,0.5,0.5
2025-08-15T0000,2472A,113.0073,25.9061,郴州市,马头岭,,11,9,26,3,14,34,,44,37,8,9,5,5,0.2,0.3
2025-08-15T0000,2473A,113.0116,25.8226,郴州市,市职中,,13,12,21,7,18,39,,43,37,4,8,4,4,0.4,0.5
2025-08-15T0000,2475A,113.0383,25.8071,郴州市,市审计局,,13,6,19,3,16,41,,50,44,5,6,4,5,0.3,0.4
2025-08-15T0000,2476A,113.0348,25.7759,郴州市,市环保局,,11,11,24,3,17,35,,41,38,8,8,3,4,0.3,0.4
2025-08-15T0000,4252A,113.0138,25.8011,郴州市,好美居路49号,,15,15,22,3,15,40,,44,39,5,7,5,5,0.3,0.5
2025-08-15T0000,1431A,103.9728,30.7236,成都市,金泉两河,,33,33,41,18,21,70,,182,145,35,20,3,4,0.7,0.7
2025-08-15T0000,1432A,104.176,30.6872,成都市,十里店,,45,45,55,20,29,100,,191,157,24,22,5,8,0.7,0.7
2025-08-15T0000,1433A,104.079,30.5706,成都市,三瓦窑,,37,37,51,18,28,50,,193,130,48,40,2,4,0.7,0.6
2025-08-15T0000,1434A,104.1114,30.63,成都市,沙河铺,,31,31,49,19,28,99,,146,103,14,19,3,6,0.5,0.7
2025-08-15T0000,1437A,104.0786,30.6531,成都市,君平街,,44,44,55,18,32,85,,193,155,25,18,7,9,0.6,0.5
2025-08-15T0000,1438A,103.613,31.0283,成都市,灵岩寺,,,,,,,,,,,,,,,,
2025-08-15T0000,2880A,104.0239,30.65639,成都市,大石西路,,36,36,46,20,30,67,,160,125,32,23,4,5,0.7,0.7
2025-08-15T0000,3136A,104.2725,30.5589,成都市,龙泉驿区区政府,,36,36,36,22,19,97,,157,115,16,17,4,5,0.6,0.6
2025-08-15T0000,3357A,104.0106,30.6931,成都市,金博路,,40,40,40,26,22,52,,151,88,46,27,5,6,0.8,0.7
2025-08-15T0000,3359A,104.0578,30.5225,成都市,华阳,,32,29,47,22,30,88,,178,136,27,28,4,4,0.7,0.7
2025-08-15T0000,3488A,104.3853,30.7453,成都市,青白江技师分院,颗粒物(PM10),52,54,43,25,25,46,,156,108,46,27,5,6,0.7,0.7
2025-08-15T0000,3489A,104.0789,30.4072,成都市,科学城,,36,36,45,21,27,37,,161,107,40,19,4,4,0.6,0.6
2025-08-15T0000,4011A,103.8506,30.6947,成都市,光华大道三段,,43,43,38,21,20,96,,171,140,23,17,6,6,0.7,0.6
2025-08-15T0000,4224A,104.2433,30.5353,成都市,鲸龙路1057号,,42,42,42,26,24,57,,167,118,47,27,3,5,0.6,0.8
2025-08-15T0000,1062A,117.9531,40.9081,承德市,铁路,,28,25,27,15,12,89,,102,92,19,16,2,3,0.4,0.4
2025-08-15T0000,1063A,117.9392,40.9763,承德市,中国银行,,38,33,28,26,13,30,,112,84,10,9,3,2,0.5,0.4
2025-08-15T0000,1064A,117.9503,40.928,承德市,开发区,,33,33,31,12,13,103,,114,109,13,13,2,3,0.5,0.5
2025-08-15T0000,1066A,117.9268,41.0026,承德市,离宫,,31,31,25,13,11,16,,95,39,6,6,3,3,0.3,0.4
2025-08-15T0000,4274A,117.7994,40.9605,承德市,滨河大街98号,,31,,21,13,12,98,,120,115,7,8,2,2,0.4,0.4
2025-08-15T0000,2314A,117.47,30.6618,池州市,池州学院,,16,16,24,7,14,34,,76,61,12,18,5,8,0.6,0.7
2025-08-15T0000,3237A,117.4918,30.6617,池州市,展览馆,,12,12,19,6,12,31,,74,57,12,14,5,4,0.7,0.8
2025-08-15T0000,3333A,117.5627,30.695,池州市,第八中学,,13,13,19,3,11,30,,74,56,11,11,5,5,0.7,0.6
2025-08-15T0000,3334A,117.5038,30.6243,池州市,第十二中学,,15,15,16,3,8,15,,76,52,28,11,3,3,0.7,0.9
2025-08-15T0000,1744A,118.9233,42.2816,赤峰市,松山一中,,37,27,18,18,7,118,,114,114,10,18,5,5,0.7,0.6
2025-08-15T0000,1745A,118.9576,42.2728,赤峰市,哈达街,,35,28,20,19,9,110,,105,105,12,15,10,10,0.6,0.5
2025-08-15T0000,1746A,118.8788,42.2554,赤峰市,天义路,,33,,15,23,11,104,,107,107,12,14,15,11,0.5,0.4
2025-08-15T0000,3058A,119.2658,42.0353,赤峰市,银河街,,35,30,30,23,15,110,,113,106,8,13,7,10,0.8,0.7
2025-08-15T0000,3286A,118.9359,42.3147,赤峰市,桥北物流园区,,35,28,19,24,12,101,,102,102,13,17,10,9,0.5,0.4
2025-08-15T0000,2521A,107.3476,22.4136,崇左市,市环保局江州分局,,22,22,29,11,15,44,,98,70,11,10,6,7,0.5,0.6
2025-08-15T0000,4256A,107.3750,22.3736,崇左市,石景林东路7号,,19,17,25,13,16,52,,107,81,12,11,4,5,0.4,0.4
2025-08-15T0000,2298A,118.3093,32.3153,滁州市,老年大学,,27,27,31,8,16,83,,102,93,9,11,5,6,0.2,0.3
2025-08-15T0000,2299A,118.3244,32.2786,滁州市,人大宾馆,,28,18,18,8,16,87,,107,96,4,7,4,4,0.2,0.3
2025-08-15T0000,3207A,118.3118,32.3038,滁州市,市政府原办公楼,,30,27,27,21,22,83,,104,96,8,7,6,5,0.2,0.3
2025-08-15T0000,3331A,118.3267,32.2634,滁州市,图书馆,,35,,26,24,21,72,,106,96,12,8,9,10,0.2,0.3
2025-08-15T0000,2605A,101.5482,25.0441,楚雄彝族自治州,州环境监测站,,22,22,23,12,18,12,,69,54,33,15,4,5,0.6,0.7
2025-08-15T0000,2606A,101.538,25.0492,楚雄彝族自治州,市经济开发区,,28,28,28,16,17,12,,65,50,30,15,7,7,0.7,0.8
2025-08-15T0000,2548A,107.5277,31.2827,达州市,达州职业技术学院,,43,43,41,15,12,22,,107,56,27,20,7,8,0.5,0.6
2025-08-15T0000,2549A,107.5086,31.2186,达州市,市环境监测站,,30,30,38,9,12,22,,88,,33,29,6,7,0.4,0.5
2025-08-15T0000,2550A,107.4988,31.2132,达州市,凤凰小区,,31,31,29,19,12,23,,99,62,33,20,2,3,0.4,0.3
2025-08-15T0000,2551A,107.5082,31.1986,达州市,达县机关宾馆,,46,46,32,19,11,13,,100,59,33,19,5,5,0.4,0.4
2025-08-15T0000,2552A,107.4644,31.2124,达州市,市政中心,,39,39,37,22,12,15,,98,64,41,19,3,4,0.4,0.3
2025-08-15T0000,2614A,100.1542,25.7054,大理白族自治州,大理市环境监测站,,36,,17,25,20,23,,75,44,21,17,5,5,0.4,0.5
2025-08-15T0000,2615A,100.2171,25.5811,大理白族自治州,大理古城,,26,20,16,18,12,27,,74,,15,9,5,6,0.6,0.6
2025-08-15T0000,1109A,121.612,38.9741,大连市,甘井子,,31,14,21,11,15,97,,132,112,9,14,9,9,0.5,0.4
2025-08-15T0000,1110A,121.565,38.9511,大连市,周水子,,31,18,20,13,15,97,,126,106,4,13,11,12,0.3,0.3
2025-08-15T0000,1111A,121.5637,38.8845,大连市,星海三站,,32,20,20,14,15,100,,123,108,8,11,5,5,0.4,0.4
2025-08-15T0000,1112A,121.6302,38.9117,大连市,青泥洼桥,,32,15,21,13,14,101,,132,110,7,10,7,7,0.5,0.5
2025-08-15T0000,1113A,121.6251,38.8638,大连市,傅家庄,,30,14,15,10,14,93,,122,104,5,5,6,6,0.2,0.2
2025-08-15T0000,1114A,121.5213,38.8661,大连市,七贤岭,,35,15,17,13,13,109,,140,119,2,5,9,9,0.5,0.5
2025-08-15T0000,1115A,121.2529,38.8061,大连市,旅顺,,30,17,16,12,16,95,,141,113,4,4,2,2,0.3,0.3
2025-08-15T0000,1116A,121.7485,39.1311,大连市,金州,,30,12,20,12,16,94,,131,106,9,11,8,8,0.3,0.3
2025-08-15T0000,1117A,121.7811,39.0496,大连市,开发区,,28,21,21,19,19,77,,118,99,14,19,8,8,0.6,0.5
2025-08-15T0000,1118A,121.9762,39.0631,大连市,双D港,,25,,16,17,14,53,,113,65,5,7,6,9,0.4,0.4
2025-08-15T0000,1789A,124.81117,46.03138,大庆市,大同区,,20,,17,7,5,62,,82,70,6,8,8,8,0.6,0.6
2025-08-15T0000,1790A,125.129,46.533,大庆市,龙凤区,,14,8,20,6,8,42,,73,52,15,13,8,8,0.5,0.5
2025-08-15T0000,1791A,124.902,46.408,大庆市,红岗区,,28,28,20,12,10,54,,81,66,10,10,9,8,0.5,0.5
2025-08-15T0000,1792A,125.153,46.586,大庆市,萨尔图区,,20,20,28,10,7,50,,68,55,12,12,9,7,0.4,0.4
2025-08-15T0000,1793A,124.9042,46.6215,大庆市,让胡路区,,27,27,26,13,15,46,,72,55,17,13,5,6,0.2,0.2
2025-08-15T0000,3481A,125.141,46.634,大庆市,萨区政府监测点,,20,19,23,3,4,61,,78,70,11,10,8,7,0.2,0.2
2025-08-15T0000,1721A,113.3819,40.1097,大同市,果树场,,45,39,35,31,18,66,,125,84,14,24,7,8,0.7,0.6
2025-08-15T0000,1723A,113.2994,40.0758,大同市,云冈宾馆,颗粒物(PM10),60,69,50,33,22,74,,140,106,24,21,6,6,0.8,0.7
2025-08-15T0000,1724A,113.3444,40.0917,大同市,大同大学,,48,48,41,25,21,68,,141,107,28,21,8,8,0.7,0.6
2025-08-15T0000,1725A,113.2661,40.1269,大同市,安家小村,颗粒物(PM10),53,56,52,25,20,58,,153,109,30,22,8,10,1.1,0.8
2025-08-15T0000,1726A,113.2711,40.0844,大同市,教育学院,颗粒物(PM10),55,60,51,33,24,69,,141,104,25,22,10,10,0.7,0.6
2025-08-15T0000,3282A,113.3397,40.0597,大同市,大同市卫生学校,颗粒物(PM10),55,59,42,31,21,61,,130,95,31,22,7,8,0.8,0.7
2025-08-15T0000,3565A,113.1367,40.1122,大同市,云冈站,颗粒物(PM10),62,73,60,35,26,75,,134,101,18,16,6,5,0.5,0.5
2025-08-15T0000,3566A,113.1186,40.2556,大同市,图书馆,颗粒物(PM10),56,62,46,34,22,78,,138,103,18,12,8,5,1.1,0.9
2025-08-15T0000,3567A,113.5931,40.0461,大同市,区一中,,43,32,35,30,20,62,,134,97,8,10,8,11,0.6,0.5
2025-08-15T0000,4199A,113.2798,40.0997,大同市,魏都大道141号,细颗粒物(PM2.5),57,51,50,40,23,63,,144,106,26,20,6,7,0.8,0.7
2025-08-15T0000,2269A,124.1069,50.4097,大兴安岭地区,科技局,,28,28,19,14,10,7,,46,29,6,3,6,5,0.3,0.3
2025-08-15T0000,3663A,124.1164,50.4278,大兴安岭地区,红旗社区,,14,14,8,7,5,9,,48,30,6,4,4,4,0.3,0.3
2025-08-15T0000,1600A,124.3303,40.0625,丹东市,江湾东路,,23,21,19,16,13,32,,114,70,12,15,7,8,0.8,0.7
2025-08-15T0000,1601A,124.4256,40.1503,丹东市,临江后街,颗粒物(PM10),52,54,22,29,11,33,,110,69,20,12,8,7,1.3,0.7
2025-08-15T0000,1602A,124.3933,40.1461,丹东市,元宝山,,32,32,18,18,10,37,,96,64,12,10,4,4,0.8,0.6
2025-08-15T0000,1603A,124.3633,40.1092,丹东市,民主桥,,28,28,18,17,12,37,,115,80,19,13,3,3,0.7,0.6
2025-08-15T0000,3541A,109.5726,19.5167,儋州市,第一中学子站,,11,11,16,3,7,33,,44,40,6,5,8,7,0.4,0.5
2025-08-15T0000,3542A,109.5567,19.5187,儋州市,东坡学校子站,,11,6,15,3,7,34,,50,44,3,2,10,7,0.6,0.5
2025-08-15T0000,2616A,98.5842,24.428,德宏傣族景颇族自治州,德宏州监测站,,20,19,29,14,10,42,,71,57,8,7,8,11,0.7,0.7
2025-08-15T0000,3677A,98.5881,24.4368,德宏傣族景颇族自治州,芒市人民政府综合楼,,18,18,29,3,11,34,,61,45,7,7,7,11,0.6,0.5
2025-08-15T0000,1901A,104.4239,31.1208,德阳市,东山公园,,47,47,39,23,21,91,,145,136,15,11,2,3,0.9,0.8
2025-08-15T0000,1902A,104.3826,31.1317,德阳市,西小区,细颗粒物(PM2.5),53,52,41,37,21,60,,150,123,26,18,2,4,1.1,0.9
2025-08-15T0000,1904A,104.3553,31.1091,德阳市,耐火材料厂,颗粒物(PM10),52,53,46,31,25,70,,146,118,24,18,2,4,0.7,0.6
2025-08-15T0000,3639A,104.4019,31.1244,德阳市,市教育局,颗粒物(PM10),51,51,42,28,23,65,,144,119,28,13,5,7,1.0,0.9
2025-08-15T0000,1622A,116.3032,37.4674,德州市,儿童乐园,颗粒物(PM10),56,61,47,34,30,123,,194,179,16,11,13,10,0.7,0.7
2025-08-15T0000,1624A,116.2991,37.4451,德州市,监理站,,48,48,46,31,27,115,,190,175,15,11,15,12,0.4,0.3
2025-08-15T0000,3066A,116.2721,37.4379,德州市,九衢泉纯净水厂,细颗粒物(PM2.5),58,63,50,41,32,89,,166,148,28,16,5,6,0.8,0.8
2025-08-15T0000,3371A,116.3728,37.4403,德州市,开发区人民医院,,41,41,50,27,31,113,,182,166,14,20,12,12,0.9,0.9
2025-08-15T0000,3511A,116.5652,37.3319,德州市,陵城艺术中心,,44,44,68,19,35,113,,219,190,17,33,2,10,1.3,1.4
2025-08-15T0000,4292A,116.3525,37.4209,德州市,新河东路,,,41,51,,36,108,,181,162,16,23,10,10,0.9,1
2025-08-15T0000,2621A,99.7056,27.8317,迪庆藏族自治州,迪庆州站,,29,,17,20,14,52,,70,57,8,8,6,6,0.5,0.5
2025-08-15T0000,3180A,99.7136,27.8094,迪庆藏族自治州,质量技术监督局,,16,16,17,3,11,50,,72,63,13,12,7,8,0.6,0.6
2025-08-15T0000,4257A,104.6092,35.5962,定西市,将台街,,47,47,29,23,14,53,,124,94,28,15,8,8,0.4,0.5
2025-08-15T0000,4309A,104.6159,35.5701,定西市,正龙路62号,颗粒物(PM10),51,52,35,24,20,64,,116,88,14,9,6,5,0.2,0.2
2025-08-15T0000,1389A,113.7547,23.0494,东莞市,莞城梨川,,14,6,34,3,17,42,,44,38,10,27,6,9,0.3,0.5
2025-08-15T0000,1390A,113.7944,23.0128,东莞市,东城石井,,12,6,30,3,15,38,,38,30,10,28,2,3,0.6,0.6
2025-08-15T0000,1391A,113.7383,22.9658,东莞市,南城西平,,16,10,28,3,12,22,,36,32,31,28,5,6,0.5,0.7
2025-08-15T0000,3319A,113.7338,23.0381,东莞市,万江金泰,,14,6,32,3,16,42,,43,38,10,28,4,6,0.8,0.9
2025-08-15T0000,3626A,113.7533,23.0202,东莞市,南城元岭,,14,6,27,3,14,44,,42,36,11,28,5,6,0.5,0.7
2025-08-15T0000,3627A,113.7875,23.0457,东莞市,东城主山,,10,8,35,3,15,32,,38,31,14,28,4,6,0.3,0.4
2025-08-15T0000,1666A,118.6614,37.4309,东营市,市环保局,,24,24,43,7,28,40,,170,115,22,19,12,12,0.4,0.5
2025-08-15T0000,3036A,118.6904,37.4338,东营市,开发区管委会,,,19,49,,28,46,,174,118,21,19,8,8,0.3,0.4
2025-08-15T0000,3365A,118.5719,37.565,东营市,垦利区民丰路,,24,24,48,14,27,52,,178,120,18,17,10,11,0.8,0.9
2025-08-15T0000,3498A,118.5055,37.8612,东营市,河口城区,,33,22,41,10,23,104,,177,147,11,14,3,6,1.0,1
2025-08-15T0000,3646A,118.4978,37.4623,东营市,胜利站,,34,34,51,12,28,50,,179,114,22,24,4,5,0.6,0.7
2025-08-15T0000,3734A,118.35,37.26,东营市,理想之城,,27,27,48,17,28,30,,171,103,35,24,2,6,0.5,0.6
2025-08-15T0000,1591A,110.0023,39.8129,鄂尔多斯市,综合楼,颗粒物(PM10),53,56,44,17,16,111,,150,131,21,17,11,10,0.7,0.6
2025-08-15T0000,1592A,109.9486,39.8261,鄂尔多斯市,巴音孟克林场办事处,颗粒物(PM10),60,70,51,22,14,115,,163,142,19,16,7,6,0.5,0.5
2025-08-15T0000,1593A,109.7736,39.5986,鄂尔多斯市,康泽苑,颗粒物(PM10),51,51,49,19,14,91,,150,129,23,17,4,4,0.4,0.4
2025-08-15T0000,1594A,109.8119,39.5989,鄂尔多斯市,华泰汽车城,颗粒物(PM10),53,56,47,24,17,90,,143,125,24,20,7,6,0.4,0.5
2025-08-15T0000,1595A,109.9734,39.7884,鄂尔多斯市,奥林花园,颗粒物(PM10),58,66,49,22,18,85,,151,125,33,24,8,8,0.7,0.6
2025-08-15T0000,2436A,114.8938,30.3994,鄂州市,市政府,,20,16,19,3,4,62,,94,71,16,12,6,4,0.4,0.4
2025-08-15T0000,2437A,114.8989,30.3714,鄂州市,赵家坝,,31,31,19,8,4,53,,85,60,12,13,7,6,0.6,0.6
2025-08-15T0000,3654A,114.8094,30.4089,鄂州市,精准医疗中心,,20,20,20,6,4,56,,89,69,16,11,11,6,1.6,0.7
2025-08-15T0000,2454A,109.4978,30.2981,恩施土家族苗族自治州,湖北民院,,32,19,18,19,10,102,,84,72,10,10,5,5,0.4,0.5
2025-08-15T0000,2455A,109.4707,30.2798,恩施土家族苗族自治州,州电力总公司,细颗粒物(PM2.5),52,36,18,36,9,50,,74,59,6,9,3,3,0.1,0.4
2025-08-15T0000,3549A,109.5061,30.3772,恩施土家族苗族自治州,龙凤新区,,21,18,14,13,7,65,,84,66,2,4,4,4,0.3,0.3
2025-08-15T0000,2499A,108.3411,21.6158,防城港市,沙万,,22,21,34,15,18,69,,88,86,17,20,4,5,1.0,0.5
2025-08-15T0000,2500A,108.3514,21.7731,防城港市,防城档案局,,22,13,31,10,15,70,,73,73,6,11,3,3,0.2,0.4
2025-08-15T0000,2501A,108.3506,21.6414,防城港市,大海花园,,29,,31,20,16,75,,101,98,14,14,5,9,0.9,0.5
2025-08-15T0000,1371A,113.1294,23.0067,佛山市,湾梁,,13,,28,8,20,39,,47,38,20,30,5,8,0.4,0.5
2025-08-15T0000,1372A,113.1083,23.0478,佛山市,华材职中,,14,,30,7,21,42,,52,38,11,24,3,5,0.4,0.5
2025-08-15T0000,1373A,113.144,23.0453,佛山市,南海气象局,,12,,29,8,20,35,,45,33,15,24,4,7,0.7,0.7
2025-08-15T0000,1374A,113.2881,22.8094,佛山市,顺德苏岗,,13,6,25,3,11,39,,39,39,15,20,5,5,0.4,0.5
2025-08-15T0000,1376A,112.8383,22.8678,佛山市,高明孔堂,,16,,26,8,14,51,,61,47,11,15,6,8,0.6,0.7
2025-08-15T0000,1377A,112.8836,23.1588,佛山市,三水监测站,,10,,29,6,16,27,,61,35,19,30,3,4,0.5,0.5
2025-08-15T0000,1378A,112.867,23.185,佛山市,三水云东海,,13,9,31,3,20,29,,65,34,26,31,2,5,0.7,0.7
2025-08-15T0000,3625A,113.2544,22.7642,佛山市,容桂街道办,,14,,17,3,16,42,,43,43,11,22,5,7,0.6,0.7
2025-08-15T0000,1280A,119.3903,26.0543,福州市,鼓山,,,,,,,,,,,,,,,,
2025-08-15T0000,1282A,119.2681,26.0504,福州市,师大,,6,6,21,3,5,18,,59,29,2,6,4,5,0.1,0.2
2025-08-15T0000,1283A,119.2984,26.1028,福州市,五四北路,,6,6,14,3,4,19,,54,28,6,7,4,4,0.2,0.2
2025-08-15T0000,1284A,119.2648,26.0768,福州市,杨桥西路,,12,12,18,3,4,19,,62,28,5,6,4,3,0.2,0.2
2025-08-15T0000,1285A,119.317,26.0746,福州市,紫阳,,8,8,19,3,4,21,,54,29,2,6,4,4,0.1,0.1
2025-08-15T0000,3048A,119.5799,26.0936,福州市,九龙,,12,12,22,3,4,22,,49,34,3,4,4,4,0.1,0.1
2025-08-15T0000,3526A,119.5189,25.9664,福州市,吴航,,12,12,22,3,7,24,,52,33,1,3,5,5,0.2,0.2
2025-08-15T0000,1755A,123.7977,41.8491,抚顺市,望花区,细颗粒物(PM2.5),68,,42,49,22,74,,152,107,32,20,14,13,1.1,0.8
2025-08-15T0000,1756A,123.9161,41.8822,抚顺市,顺城区,,46,46,47,21,23,7,,145,77,55,25,6,8,0.9,1.2
2025-08-15T0000,1757A,124.0436,41.8611,抚顺市,东洲区,,23,23,32,16,20,62,,138,97,6,10,11,10,0.7,1
2025-08-15T0000,1758A,123.9247,41.8642,抚顺市,新抚区,颗粒物(PM10),54,57,46,26,21,14,,146,84,36,18,6,7,0.9,1
2025-08-15T0000,1759A,124.0972,41.8961,抚顺市,大伙房水库,,26,21,30,18,17,35,,135,90,18,13,7,10,0.6,0.9
2025-08-15T0000,1760A,123.7086,41.8391,抚顺市,沈抚新城,,45,45,37,30,21,62,,147,90,31,24,11,10,0.9,0.9
2025-08-15T0000,2376A,116.2127,28.0814,抚州市,桐源党溪,,20,20,25,8,10,2,,49,27,20,6,4,5,0.6,0.6
2025-08-15T0000,2377A,116.3544,27.9831,抚州市,市站,,18,18,19,7,6,34,,55,43,3,4,1,3,0.3,0.3
2025-08-15T0000,2378A,116.3565,27.963,抚州市,血防站,,24,24,20,9,7,29,,53,40,6,5,13,7,0.3,0.3
2025-08-15T0000,2379A,116.3564,28.0007,抚州市,采茶剧团,,16,16,20,3,7,29,,50,38,2,3,3,5,0.2,0.2
2025-08-15T0000,2380A,116.385,27.9647,抚州市,医学分院,,21,21,23,8,7,30,,53,39,2,3,5,5,0.4,0.4
2025-08-15T0000,2207A,121.6094,41.998,阜新市,工业园区,,32,32,29,15,11,86,,127,114,17,18,7,7,0.7,0.6
2025-08-15T0000,2208A,121.6697,42.0279,阜新市,长青街,,43,43,34,26,18,99,,121,111,14,15,17,8,0.7,0.6
2025-08-15T0000,2209A,121.6673,42.0705,阜新市,农业园区,颗粒物(PM10),51,52,29,22,10,110,,117,114,9,10,6,6,0.7,0.6
2025-08-15T0000,2210A,121.6717,42.0224,阜新市,东苑,,50,50,37,26,16,109,,121,114,15,18,21,16,0.7,0.5
2025-08-15T0000,2211A,121.6506,42.0498,阜新市,玉龙新城,,37,37,27,19,11,85,,117,105,13,17,10,9,0.8,0.6
2025-08-15T0000,2301A,115.8277,32.8929,阜阳市,市监测站,,40,40,35,19,21,54,,115,89,17,20,3,3,0.5,0.6
2025-08-15T0000,2303A,115.8554,32.8605,阜阳市,开发区,,,,38,,26,39,,123,,17,17,5,5,,0.4
2025-08-15T0000,2875A,115.784,32.8892,阜阳市,阜阳职业技术学院,,24,24,36,9,17,68,,133,104,13,16,5,5,0.3,0.4
2025-08-15T0000,3468A,115.7901,32.8613,阜阳市,市规划展馆,,28,28,40,12,22,61,,131,100,10,12,2,2,0.4,0.5
2025-08-15T0000,3469A,115.836,32.9183,阜阳市,枣园社区,,32,32,39,14,27,51,,118,90,15,19,2,3,0.5,0.5
2025-08-15T0000,2669A,102.9099,34.9841,甘南藏族自治州,州政府,,39,39,33,24,17,16,,97,62,32,16,4,4,0.3,0.3
2025-08-15T0000,3380A,102.8914,34.9617,甘南藏族自治州,甘肃民族师范学院,颗粒物(PM10),74,98,47,21,19,1,,109,62,49,17,4,4,0.3,0.2
2025-08-15T0000,2570A,101.9603,30.0475,甘孜藏族自治州,水桥子,,31,31,23,19,10,24,,86,69,41,20,6,6,0.5,0.5
2025-08-15T0000,3065A,101.9533,29.9972,甘孜藏族自治州,州环保局,,35,35,21,3,5,17,,96,64,37,19,3,4,0.5,0.5
2025-08-15T0000,3414A,115.8347,28.932,赣江新区,桑海产业园,,14,14,18,7,7,27,,77,48,21,8,4,5,0.2,0.4
2025-08-15T0000,2362A,114.9017,25.9149,赣州市,通天岩,,11,9,17,6,14,33,,46,43,3,4,14,15,0.6,0.7
2025-08-15T0000,2363A,114.9367,25.8664,赣州市,地委,,12,11,20,3,11,37,,48,45,6,6,5,6,0.4,0.6
2025-08-15T0000,2364A,114.9461,25.8481,赣州市,气象台,,11,10,18,3,7,35,,46,42,5,5,4,8,0.4,0.5
2025-08-15T0000,2365A,114.9322,25.8333,赣州市,市图书馆,,10,,14,3,11,31,,44,40,6,5,4,4,0.4,0.5
2025-08-15T0000,2366A,114.8905,25.8471,赣州市,华坚鞋城,,10,9,18,3,17,29,,42,41,12,11,4,5,0.3,0.4
2025-08-15T0000,3109A,115.0093,25.8613,赣州市,赣县区卫计委,,11,8,10,7,7,35,,44,41,4,4,5,5,0.3,0.3
2025-08-15T0000,2683A,106.2319,36.1417,固原市,马园,,,,,,,,,,,,,,,,
2025-08-15T0000,2684A,106.2792,36.0022,固原市,监测站,,36,35,26,9,10,114,,130,120,12,11,6,6,0.4,0.3
2025-08-15T0000,2685A,106.2375,36.0211,固原市,新区,,36,35,30,22,13,113,,122,118,11,11,7,7,0.5,0.4
2025-08-15T0000,3522A,106.2177,35.9959,固原市,原州区十五小,,39,39,31,18,14,118,,125,125,8,7,8,8,0.4,0.3
2025-08-15T0000,2543A,106.6308,30.5278,广安市,小平旧居,,,,,,,,,,,,,,,,
2025-08-15T0000,2544A,106.6303,30.4576,广安市,市委,,37,37,30,25,20,56,,130,102,20,14,6,5,0.5,0.4
2025-08-15T0000,2545A,106.6271,30.4663,广安市,友谊中学,,35,35,27,21,15,65,,136,119,15,13,3,5,0.5,0.7
2025-08-15T0000,2547A,106.6388,30.4551,广安市,广电花园,颗粒物(PM10),53,56,40,24,16,46,,124,97,15,11,3,3,0.6,0.5
2025-08-15T0000,2902A,106.6351,30.4865,广安市,北辰小学,,37,37,36,23,16,69,,130,102,12,10,7,6,0.7,0.7
2025-08-15T0000,2523A,105.8945,32.4535,广元市,黑石坡,,50,35,32,35,17,32,,120,66,22,16,8,9,0.4,0.4
2025-08-15T0000,2524A,105.821,32.4444,广元市,老城,,18,18,14,8,6,28,,150,66,35,25,3,5,0.6,0.7
2025-08-15T0000,2526A,105.8628,32.4287,广元市,监测站,,28,28,20,17,10,47,,133,78,16,15,6,6,0.8,0.9
2025-08-15T0000,3617A,105.8047,32.4166,广元市,经开区,,32,32,38,21,22,22,,133,64,36,26,4,10,0.7,0.8
2025-08-15T0000,1345A,113.2347,23.1423,广州市,广雅中学,,12,8,34,3,19,36,,42,31,19,34,2,4,0.3,0.4
2025-08-15T0000,1346A,113.2612,23.105,广州市,市五中,,11,6,36,3,19,34,,45,32,19,29,4,6,0.3,0.4
2025-08-15T0000,1348A,113.3478,23.0916,广州市,广东商学院,,12,6,34,3,18,38,,51,30,17,29,3,5,0.4,0.5
2025-08-15T0000,1349A,113.4332,23.1047,广州市,市八十六中,,23,7,28,3,16,11,,25,23,45,41,2,4,0.3,0.4
2025-08-15T0000,1350A,113.3505,22.9483,广州市,番禺中学,,14,6,30,3,17,44,,43,37,10,22,5,6,0.4,0.5
2025-08-15T0000,1351A,113.2146,23.3916,广州市,花都师范,,13,6,24,3,14,39,,59,38,22,20,4,6,0.5,0.6
2025-08-15T0000,1352A,113.2597,23.1331,广州市,市监测站,,12,6,33,3,19,37,,44,29,14,28,5,7,0.3,0.3
2025-08-15T0000,1353A,113.5618,23.312,广州市,九龙镇镇龙,,14,6,29,3,17,42,,44,44,13,25,6,7,0.5,0.5
2025-08-15T0000,1354A,113.2765,23.1544,广州市,麓湖,,13,6,28,3,25,39,,40,30,15,29,3,4,0.4,0.5
2025-08-15T0000,1355A,113.443,23.3035,广州市,帽峰山森林公园,,15,,18,9,10,48,,52,52,9,15,10,11,0.4,0.5
2025-08-15T0000,2846A,113.3221,23.1322,广州市,体育西,,13,6,37,3,20,40,,46,31,19,32,2,4,0.4,0.6
2025-08-15T0000,3298A,113.5717,23.5491,广州市,从化街口,,16,6,25,3,15,51,,53,49,8,18,7,8,0.5,0.6
2025-08-15T0000,3299A,113.3472,23.3692,广州市,白云竹料,,11,6,29,3,17,34,,44,35,21,30,4,5,0.5,0.6
2025-08-15T0000,3300A,113.2981,23.237,广州市,白云嘉禾,,13,6,32,3,19,29,,47,32,26,29,4,6,0.4,0.5
2025-08-15T0000,3301A,113.4256,23.1716,广州市,黄埔科学城,,16,10,32,7,19,20,,42,,31,25,4,6,0.5,0.5
2025-08-15T0000,3302A,113.3942,23.0483,广州市,番禺大学城,,15,8,25,3,23,46,,43,33,13,32,8,10,0.3,0.5
2025-08-15T0000,3303A,113.4922,22.8168,广州市,南沙黄阁,,15,,27,3,14,46,,41,41,13,26,4,8,0.3,0.4
2025-08-15T0000,3304A,113.5342,22.7896,广州市,南沙街,,16,8,26,3,13,50,,42,42,8,21,6,7,0.4,0.5
2025-08-15T0000,3443A,113.2902,23.5544,广州市,花都梯面,,16,6,18,3,11,51,,54,49,11,19,5,6,0.4,0.5
2025-08-15T0000,3445A,113.7858,23.7478,广州市,从化良口,,15,6,17,3,11,45,,52,52,10,8,4,4,0.4,0.6
2025-08-15T0000,3446A,113.8051,23.2614,广州市,增城荔城,,16,6,24,3,16,49,,41,40,7,16,6,7,0.3,0.4
2025-08-15T0000,2505A,109.568,23.1478,贵港市,德智高中,,,,,,,,,,,,,,,,
2025-08-15T0000,2506A,109.6047,23.0666,贵港市,江南子站,,46,46,36,25,22,36,,95,48,16,15,9,8,0.6,0.6
2025-08-15T0000,2508A,109.5669,23.1065,贵港市,荷城子站,,20,19,28,14,17,49,,101,55,8,12,7,7,0.6,0.6
2025-08-15T0000,3405A,109.5886,23.1172,贵港市,新世纪学校,,32,27,31,22,21,45,,97,58,17,16,14,7,1.5,0.7
2025-08-15T0000,4260A,109.5933,23.0951,贵港市,中山路155-3号,,28,28,40,15,22,52,,106,61,10,13,4,4,0.5,0.6
2025-08-15T0000,1439A,106.6899,26.5998,贵阳市,马鞍山,,19,19,22,7,7,35,,95,70,12,10,4,4,0.3,0.3
2025-08-15T0000,1441A,106.6243,26.6266,贵阳市,鉴湖路,,29,29,38,7,13,45,,87,70,10,13,5,7,0.3,0.3
2025-08-15T0000,1442A,106.7487,26.6343,贵阳市,燕子冲,,20,17,23,14,20,55,,98,81,11,13,2,3,0.2,0.2
2025-08-15T0000,1443A,106.6555,26.4365,贵阳市,碧云窝,,27,27,41,9,17,63,,109,86,10,14,4,5,0.2,0.3
2025-08-15T0000,1445A,106.7109,26.6027,贵阳市,红边门,,20,17,28,12,18,62,,98,82,9,15,1,2,0.3,0.4
2025-08-15T0000,1446A,106.7164,26.5699,贵阳市,新华路,,20,17,28,14,19,62,,86,77,10,15,2,8,0.3,0.2
2025-08-15T0000,1447A,106.674,26.5424,贵阳市,太慈桥,,21,17,23,9,13,67,,103,91,11,14,4,4,0.2,0.2
2025-08-15T0000,1552A,106.805,26.3003,贵阳市,桐木岭,,32,31,30,22,17,52,,91,76,7,7,3,4,0.9,0.9
2025-08-15T0000,4230A,106.6882,26.5695,贵阳市,花果园大街66号,,23,,18,16,22,67,,98,87,9,14,4,4,0.4,0.4
2025-08-15T0000,4231A,106.6873,26.5169,贵阳市,漓江路57号,,21,9,27,9,17,66,,107,91,7,15,3,4,0.5,0.5
2025-08-15T0000,1862A,110.4144,25.3167,桂林市,电子科大尧山校区,,,,,,,,,,,,,,,,
2025-08-15T0000,1864A,110.3089,25.2708,桂林市,龙隐路小学,,16,16,26,9,20,40,,76,51,6,7,4,5,0.3,0.3
2025-08-15T0000,1865A,110.2869,25.2178,桂林市,八中,,18,16,27,12,17,39,,79,52,6,9,6,6,0.6,0.7
2025-08-15T0000,3531A,110.296,25.1253,桂林市,旅游学院,,12,7,23,3,19,37,,82,53,6,8,5,4,0.3,0.5
2025-08-15T0000,4222A,110.1835,25.2444,桂林市,环湖路276号,,14,14,29,9,19,37,,72,48,5,6,5,17,0.3,0.4
2025-08-15T0000,4301A,110.2803,25.2773,桂林市,信义路13号,,,16,31,,19,41,,82,50,6,9,8,6,0.7,0.7
2025-08-15T0000,2674A,100.2561,34.4714,果洛藏族自治州,玛沁县大武镇,,39,39,29,19,14,56,,126,97,13,6,17,15,0.2,0.2
2025-08-15T0000,1129A,126.5422,45.755,哈尔滨市,岭北,,30,9,8,3,5,95,,100,97,10,8,11,11,0.7,0.6
2025-08-15T0000,1130A,126.561,45.8167,哈尔滨市,松北商大,,,18,14,3,5,,,75,62,7,8,5,6,0.4,0.4
2025-08-15T0000,1131A,126.979,45.5419,哈尔滨市,阿城会宁,,20,13,14,6,9,64,,92,75,13,8,7,6,0.5,0.5
2025-08-15T0000,1132A,126.599,45.7222,哈尔滨市,南岗学府路,,24,24,20,6,4,69,,83,74,11,9,6,6,0.6,0.6
2025-08-15T0000,1133A,126.689,45.7733,哈尔滨市,太平宏伟公园,,,,21,6,8,73,,83,76,10,9,7,7,0.5,0.4
2025-08-15T0000,1134A,126.635,45.7667,哈尔滨市,道外承德广场,,30,30,28,9,9,63,,81,67,14,16,8,8,0.4,0.3
2025-08-15T0000,1135A,126.685,45.7319,哈尔滨市,香坊红旗大街,,19,14,15,9,1,58,,82,65,20,15,9,8,0.5,0.5
2025-08-15T0000,1136A,126.6411,45.7258,哈尔滨市,动力和平路,,23,22,16,7,2,72,,89,78,13,10,6,6,0.4,0.5
2025-08-15T0000,1137A,126.593,45.7478,哈尔滨市,道里建国路,,,23,16,7,10,69,,86,72,12,12,7,7,,0.2
2025-08-15T0000,1138A,126.615,45.61,哈尔滨市,平房东轻厂,,17,16,20,3,8,54,,76,59,21,14,7,8,0.4,0.4
2025-08-15T0000,1139A,126.595,45.9855,哈尔滨市,呼兰师专,,19,11,17,3,2,60,,83,62,8,7,6,8,0.5,0.5
2025-08-15T0000,1140A,126.6206,45.6842,哈尔滨市,省农科院,,24,24,29,3,7,51,,71,53,21,17,9,8,0.4,0.4
2025-08-15T0000,2688A,93.5128,42.8172,哈密市,地区监测站,,,81,59,,27,72,,122,98,26,18,,4,0.3,0.2
2025-08-15T0000,2689A,93.4961,42.8328,哈密市,哈密师范学校,颗粒物(PM10),51,52,52,23,18,62,,114,84,36,21,4,5,0.5,0.2
2025-08-15T0000,2671A,100.9048,36.9639,海北藏族自治州,海晏县西海镇,,24,24,23,14,15,64,,125,92,9,5,5,10,0.8,0.4
2025-08-15T0000,3867A,102.0738,36.5056,海东市,平安区公安北苑,,32,29,32,7,11,100,,131,122,3,7,14,9,0.5,0.6
2025-08-15T0000,1409A,110.576,19.9507,海口市,东寨港,,23,18,18,16,9,29,,60,38,5,5,5,4,0.4,0.4
2025-08-15T0000,1410A,110.3232,20.0574,海口市,海南大学,,20,20,15,10,8,50,,70,60,5,8,3,3,0.4,0.4
2025-08-15T0000,1411A,110.283,20.0053,海口市,秀英海南医院,,23,23,20,12,8,27,,62,48,19,10,6,6,0.3,0.2
2025-08-15T0000,1412A,110.338,19.9969,海口市,海南师范大学,,23,23,18,11,8,44,,70,54,6,10,4,4,0.3,0.3
2025-08-15T0000,1413A,110.33,20.0356,海口市,龙华路环保局宿舍,,22,22,19,10,7,48,,69,57,6,8,5,5,0.4,0.4
2025-08-15T0000,3539A,110.5111,19.9736,海口市,桂林洋子站,,29,29,20,13,8,34,,69,43,11,11,5,5,0.3,0.3
2025-08-15T0000,2673A,100.6188,36.2866,海南藏族自治州,共和县恰卜恰镇,颗粒物(PM10),59,67,32,9,10,30,,138,123,76,9,19,14,0.6,0.4
2025-08-15T0000,2676A,97.3731,37.3753,海西蒙古族藏族自治州,德令哈市,,39,29,35,20,13,122,,144,138,3,3,13,14,0.2,0.4
2025-08-15T0000,1048A,114.5302,36.6116,邯郸市,东污水处理厂,细颗粒物(PM2.5),54,47,37,38,25,109,,147,133,7,10,5,7,0.5,0.4
2025-08-15T0000,1049A,114.4918,36.5713,邯郸市,矿院,,42,41,28,29,12,104,,149,129,10,9,3,7,0.5,0.5
2025-08-15T0000,1050A,114.484,36.6133,邯郸市,丛台公园,,47,47,33,31,24,110,,153,135,9,11,4,4,0.5,0.4
2025-08-15T0000,3458A,114.7895,36.5593,邯郸市,香泉濮院小区,颗粒物(PM10),58,65,49,19,8,105,,143,127,9,10,2,3,0.6,0.4
2025-08-15T0000,3579A,114.50634,36.77178,邯郸市,永年区实验高中,颗粒物(PM10),55,60,65,32,40,101,,155,133,12,15,3,4,0.4,0.5
2025-08-15T0000,3580A,114.20016,36.44293,邯郸市,峰峰矿区临水派出所,,39,39,48,8,9,114,,174,140,7,5,2,4,0.3,0.4
2025-08-15T0000,2634A,106.9893,33.1842,汉中市,汉川机床厂子校,,26,22,29,18,15,72,,122,106,14,12,3,3,0.6,0.5
2025-08-15T0000,2635A,107.0154,33.0706,汉中市,市监测站,,46,44,37,32,21,50,,113,91,9,11,6,6,0.7,0.6
2025-08-15T0000,2636A,107.0089,33.1138,汉中市,鑫源开发区,,26,24,31,18,15,67,,114,89,10,11,6,6,0.5,0.5
2025-08-15T0000,2637A,107.007,33.0323,汉中市,南郑大河坎水厂,,42,41,34,29,18,33,,108,77,15,11,6,7,0.5,0.5
2025-08-15T0000,1223A,120.2072,30.2111,杭州市,滨江,,15,15,14,10,7,29,,64,50,10,10,7,7,0.3,0.3
2025-08-15T0000,1224A,120.0633,30.2747,杭州市,西溪,,15,15,13,7,7,37,,72,58,9,8,10,12,0.3,0.3
2025-08-15T0000,1226A,120.3417,30.3150,杭州市,下沙,,16,16,15,7,6,26,,72,50,14,13,6,6,0.2,0.2
2025-08-15T0000,1227A,120.1269,30.2456,杭州市,卧龙桥,,16,16,14,7,7,28,,68,51,8,5,7,7,0.4,0.4
2025-08-15T0000,1228A,120.1903,30.2692,杭州市,浙江农大,,10,7,14,6,6,29,,62,48,6,7,6,6,0.3,0.3
2025-08-15T0000,1230A,120.1197,30.3119,杭州市,和睦小学,,16,16,14,7,7,33,,74,57,8,8,6,6,0.3,0.3
2025-08-15T0000,1231A,120.3019,30.4183,杭州市,临平镇,,20,20,20,13,10,23,,79,55,7,9,6,6,0.2,0.2
2025-08-15T0000,1232A,120.2753,30.1839,杭州市,城厢镇,,35,35,38,7,6,29,,64,50,5,5,7,6,0.3,0.4
2025-08-15T0000,1233A,120.0883,30.1808,杭州市,云栖,,17,17,15,10,7,40,,74,49,10,13,9,9,0.5,0.6
2025-08-15T0000,3557A,119.9464,30.0494,杭州市,镇二中,,12,12,18,7,10,34,,71,46,8,10,4,4,0.3,0.3
2025-08-15T0000,3558A,119.7183,30.2367,杭州市,市府大楼,,31,31,18,17,9,27,,86,65,21,11,8,8,0.3,0.3
2025-08-15T0000,3656A,120.1556,30.2864,杭州市,消防大队,,31,31,33,8,8,34,,72,55,7,8,6,7,0.5,0.4
2025-08-15T0000,1270A,117.1959,31.7848,合肥市,明珠广场,,18,14,22,7,15,57,,103,81,14,13,8,6,0.5,0.6
2025-08-15T0000,1271A,117.3072,31.8764,合肥市,三里街,,19,19,23,7,14,45,,93,69,21,12,8,6,0.4,0.5
2025-08-15T0000,1272A,117.2588,31.8707,合肥市,琥珀山庄,,29,29,28,8,14,56,,108,82,22,12,10,8,0.5,0.6
2025-08-15T0000,1273A,117.1604,31.9052,合肥市,董铺水库,,27,27,28,7,19,47,,84,64,14,7,5,5,0.2,0.3
2025-08-15T0000,1274A,117.25,31.8571,合肥市,长江中路,,27,27,28,11,14,54,,103,79,20,12,8,7,0.4,0.5
2025-08-15T0000,1275A,117.266,31.9436,合肥市,庐阳区,,34,34,31,9,13,47,,110,74,27,16,8,6,0.5,0.6
2025-08-15T0000,1276A,117.3453,31.8616,合肥市,瑶海区,,29,29,27,10,13,44,,102,68,26,15,8,6,0.6,0.7
2025-08-15T0000,1277A,117.3027,31.7964,合肥市,包河区,,19,14,26,7,15,59,,95,75,13,20,7,6,0.5,0.6
2025-08-15T0000,1278A,117.2776,31.7385,合肥市,滨湖新区,,20,19,25,14,19,53,,119,80,11,9,8,8,0.4,0.6
2025-08-15T0000,1279A,117.1318,31.8403,合肥市,高新区,,19,14,25,8,15,58,,102,79,15,14,7,6,0.4,0.6
2025-08-15T0000,3464A,117.3803,31.9147,合肥市,高教基地,,22,22,23,12,10,43,,98,64,21,10,5,5,0.6,0.6
2025-08-15T0000,3614A,79.924,37.0877,和田地区,地区环保局,颗粒物(PM10),322,437,546,140,144,,,110,104,46,8,4,2,0.5,0.3
2025-08-15T0000,3615A,79.9131,37.113,和田地区,市环保局,颗粒物(PM10),200,349,463,118,130,36,,106,79,51,17,2,1,0.5,0.1
2025-08-15T0000,2516A,108.2011,24.715,河池市,东仁乐园,,,,,,,,,,,,,,,,
2025-08-15T0000,2517A,108.0497,24.6947,河池市,市环保站,,30,30,26,13,14,24,,72,39,12,11,4,4,0.6,0.6
2025-08-15T0000,2518A,108.0983,24.6989,河池市,市疾控中心,,37,37,27,19,16,7,,70,38,24,15,5,6,0.7,0.6
2025-08-15T0000,1696A,114.6778,23.7569,河源市,源西,,34,34,13,3,6,19,,51,28,6,4,4,5,0.6,0.7
2025-08-15T0000,1697A,114.6944,23.7586,河源市,东埔,,13,9,13,6,11,14,,59,35,25,9,5,4,0.5,0.5
2025-08-15T0000,1698A,114.6892,23.7233,河源市,老城,,12,12,14,3,5,12,,60,31,21,6,4,5,0.5,0.5
2025-08-15T0000,1718A,115.4208,35.2464,菏泽市,气象局,,27,27,34,18,22,65,,123,100,14,12,9,3,0.4,0.4
2025-08-15T0000,3374A,115.5564,35.0891,菏泽市,定陶老年大学,,31,31,29,14,17,50,,104,82,13,12,10,6,0.5,0.4
2025-08-15T0000,4184A,115.4797,35.24401,菏泽市,永昌路1号,,32,30,37,22,24,56,,113,90,19,18,17,8,0.2,0.3
2025-08-15T0000,4193A,115.4715,35.2800,菏泽市,长城路999号,,28,28,36,17,18,52,,124,97,24,17,10,6,0.5,0.5
2025-08-15T0000,2514A,111.5264,24.4172,贺州市,环保小区,,14,,30,7,19,42,,66,38,6,12,12,12,0.8,0.9
2025-08-15T0000,2515A,111.5608,24.4078,贺州市,政协大楼,,13,10,26,3,17,41,,66,25,5,11,12,12,0.7,0.8
2025-08-15T0000,3534A,111.4744,24.4553,贺州市,西湾,,12,12,32,7,19,38,,58,31,10,11,10,10,0.7,0.8
2025-08-15T0000,2385A,114.17,35.9019,鹤壁市,市监测站,,31,31,35,20,21,98,,132,109,10,8,3,6,0.3,0.3
2025-08-15T0000,2386A,114.2956,35.7511,鹤壁市,市交警支队,细颗粒物(PM2.5),53,,32,37,26,94,,124,100,17,17,6,8,0.4,0.7
2025-08-15T0000,2387A,114.2878,35.7306,鹤壁市,迎宾馆,,42,41,41,29,24,90,,127,105,12,14,3,4,0.7,0.7
2025-08-15T0000,3474A,114.2617,35.6822,鹤壁市,大新区,,25,24,39,17,20,58,,114,82,19,11,7,8,0.6,0.5
2025-08-15T0000,3596A,114.1572,35.9603,鹤壁市,南山宾馆,,42,31,38,29,21,96,,141,117,11,9,4,4,0.5,0.5
2025-08-15T0000,2244A,130.2537,47.3416,鹤岗市,哈啤分公司,,22,22,21,7,7,60,,91,69,6,6,11,11,0.6,0.7
2025-08-15T0000,2245A,130.2684,47.3086,鹤岗市,斯达机电,,41,41,27,21,9,56,,88,74,16,9,12,12,0.4,0.5
2025-08-15T0000,2246A,130.3114,47.3388,鹤岗市,东山纸板厂,颗粒物(PM10),62,74,26,16,12,18,,94,56,22,14,13,13,0.7,0.7
2025-08-15T0000,2247A,130.1097,47.3382,鹤岗市,五号水库,,10,10,9,3,5,16,,86,47,9,10,8,8,0.2,0.2
2025-08-15T0000,2263A,127.4833,50.2524,黑河市,交通局,,16,16,18,9,8,33,,54,39,8,11,4,4,0.3,0.2
2025-08-15T0000,2264A,127.5144,50.2341,黑河市,环保局,,15,15,18,8,11,34,,60,40,8,9,4,5,0.2,0.3
2025-08-15T0000,2265A,127.5291,50.2472,黑河市,大黑河岛,,,,,,,35,,47,37,3,6,21,22,,
2025-08-15T0000,1074A,115.6838,37.7541,衡水市,电机北厂,颗粒物(PM10),51,52,50,34,26,124,,162,151,14,14,7,7,0.6,0.5
2025-08-15T0000,1075A,115.6303,37.7316,衡水市,市监测站,颗粒物(PM10),57,63,46,24,22,94,,159,140,20,14,7,8,0.7,0.6
2025-08-15T0000,3188A,115.6683,37.7217,衡水市,市城管局,,,53,46,21,26,111,,169,,19,12,,10,0.5,0.4
2025-08-15T0000,3459A,115.5989,37.5491,衡水市,地表水厂,颗粒物(PM10),56,62,56,24,20,109,,161,125,13,18,8,9,0.4,0.4
2025-08-15T0000,2456A,112.5003,26.9167,衡阳市,原169医院,,14,6,22,3,10,44,,80,56,3,3,5,2,0.4,0.6
2025-08-15T0000,2457A,112.6194,26.9258,衡阳市,衡阳化工总厂,,14,9,24,3,14,42,,76,52,4,6,8,4,0.6,0.8
2025-08-15T0000,2458A,112.6211,26.8956,衡阳市,珠晖区环保局,,13,,23,9,16,36,,73,46,8,10,6,6,0.5,0.7
2025-08-15T0000,2459A,112.6197,26.8733,衡阳市,市委党校,,14,6,15,3,13,43,,80,50,6,7,8,9,0.2,0.4
2025-08-15T0000,2460A,112.6006,26.8919,衡阳市,市监测站,,13,,23,3,15,40,,75,50,6,8,5,5,0.5,0.6
2025-08-15T0000,2461A,112.5664,26.9056,衡阳市,真空机电公司,,16,,22,11,18,40,,72,52,4,4,5,4,0.6,0.8
2025-08-15T0000,3399A,112.6703,26.882,衡阳市,师范学院,,14,6,23,3,13,42,,77,49,4,6,8,8,0.6,0.8
2025-08-15T0000,2608A,103.3772,23.3993,红河哈尼族彝族自治州,污水处理厂,,40,40,38,26,20,53,,,,15,12,9,10,0.4,0.3
2025-08-15T0000,2609A,103.3861,23.35,红河哈尼族彝族自治州,监测站,,38,38,37,20,18,54,,104,74,11,8,10,12,0.2,0.2
2025-08-15T0000,3038A,103.3758,23.368,红河哈尼族彝族自治州,州图书馆,,42,31,28,29,20,64,,104,77,8,8,2,6,0.3,0.3
2025-08-15T0000,1090A,111.6507,40.7517,呼和浩特市,呼市一监,颗粒物(PM10),54,58,41,30,19,54,,149,112,30,19,3,4,0.3,0.3
2025-08-15T0000,1091A,111.6572,40.8033,呼和浩特市,小召,颗粒物(PM10),56,61,43,27,19,57,,161,131,52,26,9,10,0.6,0.6
2025-08-15T0000,1094A,111.7516,40.8369,呼和浩特市,如意水处理厂,颗粒物(PM10),53,55,45,21,18,64,,167,110,48,36,6,7,0.5,0.5
2025-08-15T0000,1095A,111.7276,40.8062,呼和浩特市,二十九中,颗粒物(PM10),55,59,45,27,20,44,,171,128,63,25,7,7,0.6,0.6
2025-08-15T0000,1096A,111.5512,40.7866,呼和浩特市,工大金川校区,颗粒物(PM10),59,68,48,31,21,48,,149,109,66,32,6,7,0.7,0.6
2025-08-15T0000,1097A,111.717,40.7612,呼和浩特市,化肥厂生活区,,50,50,43,20,18,69,,163,126,30,23,6,7,0.5,0.7
2025-08-15T0000,3698A,111.5968,40.8178,呼和浩特市,红旗小学,颗粒物(PM10),56,61,48,21,19,32,,169,122,91,32,5,6,0.5,0.4
2025-08-15T0000,3699A,111.6518,40.8389,呼和浩特市,海东办,颗粒物(PM10),56,61,52,24,19,92,,171,131,31,34,6,7,0.5,0.6
2025-08-15T0000,2192A,119.7594,49.2261,呼伦贝尔市,区环保局,,26,23,21,18,16,27,,66,56,24,9,5,5,0.5,0.5
2025-08-15T0000,3061A,119.7512,49.1577,呼伦贝尔市,国华电力东,,19,19,17,8,8,37,,75,59,6,5,9,8,0.6,0.5
2025-08-15T0000,1250A,120.0751,30.8669,湖州市,城西水厂,,21,21,24,10,10,31,,100,73,8,6,6,7,0.3,0.3
2025-08-15T0000,2873A,120.0830,30.8929,湖州市,仁皇山新区,,22,22,22,10,9,20,,93,64,12,9,5,5,0.4,0.4
2025-08-15T0000,2907A,120.1844,30.8596,湖州市,吴兴区站,,25,25,23,10,9,15,,91,60,13,9,7,7,0.5,0.5
2025-08-15T0000,3562A,120.4148,30.8538,湖州市,南浔区站,,22,22,20,11,8,18,,86,56,10,7,5,5,0.7,0.7
2025-08-15T0000,1607A,120.9049,40.7211,葫芦岛市,龙港区,颗粒物(PM10),60,70,58,35,34,143,,147,140,5,17,4,23,0.6,0.9
2025-08-15T0000,1608A,120.8392,40.7514,葫芦岛市,化工街,,41,27,44,24,29,131,,,,7,15,4,14,0.2,0.6
2025-08-15T0000,1609A,120.8341,40.7073,葫芦岛市,新区,,48,34,38,33,32,136,,151,137,3,16,3,7,0.7,0.9
2025-08-15T0000,1610A,120.8695,40.7677,葫芦岛市,东城区,,49,37,37,34,32,126,,142,128,6,19,3,8,0.7,0.9
2025-08-15T0000,2482A,109.5981,27.5721,怀化市,林科所,,18,18,21,3,4,23,,59,51,4,3,4,4,0.7,0.7
2025-08-15T0000,2483A,109.9453,27.5444,怀化市,河西地税局,,,14,17,6,10,20,,54,,11,5,,2,0.2,0.2
2025-08-15T0000,2484A,109.9781,27.5342,怀化市,市四医院,,29,,19,20,15,46,,63,55,4,2,3,3,0.4,0.4
2025-08-15T0000,2485A,109.9972,27.5578,怀化市,监测楼,,13,12,18,7,13,40,,58,50,8,5,4,3,0.3,0.3
2025-08-15T0000,2486A,110.0394,27.583,怀化市,市委党校,,12,12,15,6,9,26,,52,42,12,3,7,6,0.2,0.2
2025-08-15T0000,1210A,119.036,33.5981,淮安市,钵池山,,18,17,23,12,17,31,,94,63,20,12,8,8,0.5,0.6
2025-08-15T0000,1211A,119.007,33.575,淮安市,北京南路,,27,27,30,10,13,44,,95,65,10,12,7,6,0.5,0.7
2025-08-15T0000,1212A,118.989,33.6067,淮安市,市监测站,,22,22,31,12,22,49,,100,71,9,10,8,8,0.5,0.6
2025-08-15T0000,1213A,119.135,33.5039,淮安市,楚州区监测站,,24,24,36,12,15,39,,90,59,10,11,7,7,0.2,0.4
2025-08-15T0000,3426A,118.8755,33.2894,淮安市,新华书店,,17,17,24,7,14,41,,110,76,10,12,5,6,0.5,0.5
2025-08-15T0000,4206A,119.0288,33.6319,淮安市,承德北路606号,,27,27,38,11,18,40,,89,59,9,12,5,5,0.2,0.4
2025-08-15T0000,2282A,116.8004,33.975,淮北市,监测站,,28,28,21,12,11,67,,97,84,11,11,7,7,0.7,0.8
2025-08-15T0000,2283A,116.8091,33.9007,淮北市,烈山区政府,,35,35,26,12,8,66,,95,91,7,6,7,7,0.5,0.5
2025-08-15T0000,3330A,116.8873,33.9836,淮北市,杜集区检察院,,31,31,22,14,15,64,,93,84,10,8,7,8,0.6,0.6
2025-08-15T0000,4017A,116.7923,33.9535,淮北市,市博物馆,,24,24,19,16,12,72,,100,90,10,9,8,8,0.6,0.6
2025-08-15T0000,2277A,116.8305,32.7727,淮南市,潘集区政府,,24,24,32,15,14,62,,101,65,11,12,2,2,0.2,0.3
2025-08-15T0000,2279A,116.8569,32.5951,淮南市,谢家集区政府,,23,22,29,8,11,71,,95,76,8,10,11,7,0.3,0.3
2025-08-15T0000,2280A,116.8281,32.633,淮南市,八公山区政府,,22,21,24,10,16,70,,101,74,8,9,8,8,0.3,0.4
2025-08-15T0000,2281A,116.6325,32.6201,淮南市,焦岗湖风景区管理处,,,,,,,,,,,,,,,,
2025-08-15T0000,2894A,117.0566,32.6531,淮南市,经济技术开发区消防队,,27,27,22,3,6,69,,104,84,14,12,8,8,0.2,0.3
2025-08-15T0000,3329A,117.0108,32.5893,淮南市,山南新区,,23,9,19,3,9,71,,100,87,10,7,4,4,0.4,0.5
2025-08-15T0000,4209A,117.0031,32.6445,淮南市,国庆中路369号,,49,49,33,11,14,72,,97,87,12,10,3,3,0.4,0.5
2025-08-15T0000,2446A,114.9028,30.4742,黄冈市,职工中心,,22,21,20,12,13,69,,102,82,6,6,6,6,0.4,0.3
2025-08-15T0000,2929A,114.8858,30.4519,黄冈市,红卫路,,20,18,20,14,13,53,,100,73,14,9,9,8,0.4,0.3
2025-08-15T0000,3398A,114.9136,30.4445,黄冈市,市林业局,,23,23,21,9,10,53,,105,74,16,8,7,7,0.4,0.3
2025-08-15T0000,2672A,102.0199,35.5102,黄南藏族自治州,同仁县隆务镇,,25,22,29,9,11,77,,118,101,4,3,9,9,0.2,0.2
2025-08-15T0000,2295A,118.2903,29.6963,黄山市,延安路89号,,20,20,17,12,7,35,,64,60,8,6,4,4,0.3,0.3
2025-08-15T0000,2297A,118.1371,30.2756,黄山市,黄山区政府5号楼,,15,15,17,10,8,38,,52,42,4,3,5,4,0.4,0.4
2025-08-15T0000,4210A,118.3354,29.7203,黄山市,滨江东路7-2号,,14,12,16,6,6,42,,59,54,6,5,2,2,0.3,0.3
2025-08-15T0000,2423A,115.0601,30.2313,黄石市,沈家营,,42,42,32,11,5,47,,82,58,19,10,7,7,0.6,0.4
2025-08-15T0000,2426A,114.8988,30.2019,黄石市,铁山,,25,25,26,3,6,56,,80,64,12,10,5,5,0.4,0.3
2025-08-15T0000,2427A,115.0307,30.2092,黄石市,团城山,,32,32,21,3,3,78,,93,74,4,7,15,8,0.5,0.5
2025-08-15T0000,3149A,115.0235,30.1578,黄石市,笔架山北路,,29,29,19,8,3,65,,92,70,6,5,9,8,0.4,0.4
2025-08-15T0000,4185A,115.0780,30.21118,黄石市,磁湖东路29号,,29,29,31,6,8,66,,81,58,1,8,11,10,0.5,0.6
2025-08-15T0000,1392A,114.4183,23.0528,惠州市,河南岸金山湖子站,,9,9,20,3,9,25,,44,36,9,16,7,7,0.5,0.5
2025-08-15T0000,1393A,114.4053,23.0822,惠州市,下埔横江三路子站,,14,14,21,8,13,26,,48,38,8,16,4,5,0.4,0.4
2025-08-15T0000,1394A,114.4103,23.1142,惠州市,江北云山西路子站,,10,10,22,3,11,29,,50,40,9,17,7,8,0.5,0.5
2025-08-15T0000,1395A,114.4645,22.7833,惠州市,惠阳区承修路船湖子站,,11,11,18,3,10,32,,52,41,5,12,6,6,0.4,0.6
2025-08-15T0000,1396A,114.5317,22.7422,惠州市,大亚湾管委会子站,,22,22,17,8,7,34,,54,42,7,12,7,7,0.5,0.5
2025-08-15T0000,3314A,114.4338,22.8134,惠州市,惠阳秋长,,11,,17,3,10,35,,53,44,5,14,8,10,0.4,0.4
2025-08-15T0000,3452A,114.6517,22.775,惠州市,大亚湾霞涌,,13,8,17,3,7,41,,61,49,6,13,5,5,0.6,0.7
2025-08-15T0000,2240A,130.9762,45.3001,鸡西市,环保局,,36,36,19,14,7,36,,90,48,25,14,6,6,0.4,0.3
2025-08-15T0000,2243A,130.9429,45.3039,鸡西市,第一中学,,18,18,12,9,7,36,,87,66,34,7,11,10,0.4,0.4
2025-08-15T0000,3707A,131.0207,45.3073,鸡西市,欧美日汽修厂,颗粒物(PM10),57,63,24,10,11,6,,90,42,29,16,9,9,0.6,0.5
2025-08-15T0000,3709A,130.9967,45.3106,鸡西市,市政设施管理处,颗粒物(PM10),58,65,26,28,11,4,,92,36,41,20,7,6,0.6,0.5
2025-08-15T0000,2367A,114.9754,27.0803,吉安市,红声器材厂,,16,16,25,3,11,33,,61,48,3,6,8,9,0.4,0.5
2025-08-15T0000,2368A,114.9658,27.0999,吉安市,市森林工业局,,10,9,22,3,10,31,,50,39,3,5,11,8,0.3,0.4
2025-08-15T0000,2369A,114.99,27.1312,吉安市,市环境监测站,,11,11,24,6,11,35,,57,45,2,5,10,11,0.4,0.7
2025-08-15T0000,2370A,115.0093,27.0968,吉安市,青原区法院,,11,8,22,3,11,35,,50,42,4,10,7,8,0.5,0.6
2025-08-15T0000,1772A,126.54,43.8622,吉林市,哈达湾,,25,25,19,13,12,46,,101,77,19,8,7,6,0.5,0.5
2025-08-15T0000,1773A,126.5844,43.8358,吉林市,东局子,,30,30,21,12,13,50,,90,65,13,10,5,5,0.6,0.6
2025-08-15T0000,1774A,126.5052,43.8245,吉林市,电力学院,,37,37,24,17,14,32,,98,50,20,11,6,6,0.6,0.6
2025-08-15T0000,1775A,126.6133,43.8972,吉林市,江北,,19,19,22,11,12,46,,94,68,8,8,4,4,0.7,0.5
2025-08-15T0000,1776A,126.555,43.8306,吉林市,江南公园,,22,22,21,9,12,46,,102,71,13,8,2,2,0.3,0.3
2025-08-15T0000,1778A,126.7061,43.7133,吉林市,丰满,,21,19,18,14,16,65,,121,81,4,5,5,5,0.7,0.8
2025-08-15T0000,2868A,126.4739,43.953,吉林市,九站,,20,19,22,14,12,36,,101,81,27,14,6,3,0.4,0.4
2025-08-15T0000,1299A,116.9862,36.6114,济南市,科干所,,25,,36,17,27,68,,164,114,10,14,6,6,0.6,0.6
2025-08-15T0000,1300A,116.9376,36.665,济南市,农科所,,21,12,42,12,24,65,,166,110,14,20,8,8,0.5,0.5
2025-08-15T0000,1301A,117.1265,36.6734,济南市,开发区,,25,17,37,17,27,71,,179,115,9,16,8,8,0.7,0.7
2025-08-15T0000,1303A,117.0624,36.6868,济南市,省种子仓库,,31,31,45,7,22,72,,188,118,19,17,4,5,0.7,0.7
2025-08-15T0000,1304A,116.9489,36.6447,济南市,机床二厂,,22,15,45,12,22,70,,174,116,13,20,10,10,0.5,0.5
2025-08-15T0000,1305A,117.0495,36.663,济南市,市监测站,,25,,39,17,22,77,,173,112,12,20,9,10,0.7,0.7
2025-08-15T0000,1306A,116.7675,36.5484,济南市,长清党校,,25,24,35,17,25,52,,168,99,28,18,5,5,0.7,0.7
2025-08-15T0000,1616A,117.6795,36.229,济南市,技术学院,,,,36,12,24,,,145,77,14,19,7,8,0.6,0.9
2025-08-15T0000,1961A,117.532,36.6868,济南市,东山小学,,20,10,46,3,29,64,,183,100,10,18,7,7,0.5,0.6
2025-08-15T0000,3059A,117.7161,36.2049,济南市,泰兴公司,,14,14,33,7,23,44,,138,65,18,20,8,10,0.3,0.6
2025-08-15T0000,3064A,117.6867,36.2171,济南市,莱芜战役纪念馆,,15,14,34,10,26,44,,137,65,17,18,6,8,0.7,0.9
2025-08-15T0000,3494A,117.1673,36.9782,济南市,济阳区政府,,49,49,68,29,33,65,,198,131,28,27,6,8,0.8,0.6
2025-08-15T0000,3495A,117.1171,36.63,济南市,锦屏中学,,21,20,33,10,20,66,,165,106,11,11,8,8,0.8,0.8
2025-08-15T0000,3682A,116.9814,36.6819,济南市,济南四建,,25,17,38,17,25,76,,188,,8,15,5,6,0.5,0.7
2025-08-15T0000,1653A,116.6251,35.4302,济宁市,火炬城,,26,26,35,3,16,30,,101,45,18,12,5,8,0.5,0.6
2025-08-15T0000,1655A,116.5491,35.4042,济宁市,电化厂,,23,23,33,9,17,44,,117,59,16,12,2,5,0.6,0.8
2025-08-15T0000,3500A,116.5814,35.3707,济宁市,北湖一中,,23,23,32,6,15,34,,111,47,16,13,3,5,0.2,0.4
2025-08-15T0000,3501A,116.8249,35.5593,济宁市,服务中心,,20,20,32,3,12,32,,108,44,20,17,3,4,0.5,0.6
2025-08-15T0000,3678A,116.5907,35.4054,济宁市,市第七中学,,21,21,33,3,12,31,,101,48,18,12,5,10,0.3,0.5
2025-08-15T0000,2255A,130.2751,46.8028,佳木斯市,佳纺,,19,19,17,8,9,44,,79,63,18,11,9,9,0.4,0.4
2025-08-15T0000,2256A,130.3995,46.8307,佳木斯市,发电厂,,18,17,18,11,10,55,,83,76,19,11,6,6,0.5,0.6
2025-08-15T0000,2257A,130.3258,46.7975,佳木斯市,环保局,,20,15,16,8,9,62,,82,72,17,11,8,8,0.4,0.5
2025-08-15T0000,2258A,130.3648,46.8032,佳木斯市,十一中,,20,20,19,9,9,48,,80,74,23,12,8,8,0.5,0.5
2025-08-15T0000,2259A,130.3794,46.7588,佳木斯市,四丰,,,,,,,5,,7,6,28,9,1,1,1.7,1.7
2025-08-15T0000,1252A,120.7436,30.778,嘉兴市,清河小学,,22,22,19,7,7,18,,88,49,9,8,6,6,0.6,0.6
2025-08-15T0000,1253A,120.726,30.7478,嘉兴市,嘉兴学院,,23,23,21,8,7,17,,83,46,8,5,4,4,0.4,0.5
2025-08-15T0000,2872A,120.7846,30.7525,嘉兴市,南湖区残联,,19,19,19,8,8,17,,84,44,11,9,5,6,0.4,0.4
2025-08-15T0000,3407A,120.6916,30.7739,嘉兴市,秀洲住建,,17,17,19,9,8,21,,86,50,7,6,5,5,0.7,0.8
2025-08-15T0000,1945A,98.2908,39.7711,嘉峪关市,气象局,颗粒物(PM10),73,95,28,24,8,78,,149,124,36,11,8,19,0.9,0.8
2025-08-15T0000,2884A,98.2672,39.7978,嘉峪关市,酒钢宾馆,颗粒物(PM10),81,112,41,24,12,75,,161,133,51,15,12,37,0.7,0.9
2025-08-15T0000,3248A,98.2643,39.7724,嘉峪关市,雄关区,颗粒物(PM10),61,72,30,21,15,87,,139,118,33,16,8,14,0.5,0.5
2025-08-15T0000,1383A,113.1064,22.6058,江门市,北街,,15,6,18,3,12,46,,53,53,15,13,3,3,0.4,0.5
2025-08-15T0000,1384A,113.0731,22.5835,江门市,西区,,16,,25,11,12,48,,57,53,12,13,6,7,0.3,0.5
2025-08-15T0000,1385A,113.0219,22.5311,江门市,圭峰西,,18,,20,12,12,48,,59,54,8,7,3,4,0.6,0.5
2025-08-15T0000,1386A,113.0828,22.5947,江门市,东湖,,13,12,17,3,12,41,,49,48,12,12,7,7,0.4,0.4
2025-08-15T0000,3311A,113.1075,22.5647,江门市,江海富民,,17,17,29,8,14,51,,59,57,10,10,9,9,0.4,0.3
2025-08-15T0000,3449A,113.05,22.4667,江门市,新会银湖,,13,,17,6,13,40,,49,44,9,11,2,2,0.4,0.4
2025-08-15T0000,1830A,113.1992,35.2590,焦作市,影视城,,,,36,,12,,,,,,8,,7,,0.6
2025-08-15T0000,3335A,113.3137,35.2641,焦作市,马村街道办,,30,30,43,13,20,52,,123,82,20,12,7,6,0.4,0.5
2025-08-15T0000,3336A,113.2465,35.2373,焦作市,焦作技师学院,,40,40,37,14,16,61,,126,86,9,6,12,6,0.4,0.4
2025-08-15T0000,3477A,113.1656,35.2539,焦作市,中站许衡医院,,35,,37,24,24,77,,129,94,12,13,4,5,0.4,0.5
2025-08-15T0000,3981A,113.2449,35.1803,焦作市,原李万街道办,,33,33,36,9,14,70,,120,87,13,14,9,8,0.2,0.3
2025-08-15T0000,4264A,113.2340,35.2190,焦作市,新安路1731号,,30,30,39,7,16,70,,128,90,13,10,7,6,0.8,0.8
2025-08-15T0000,4295A,113.2722,35.2121,焦作市,人民路3066号,,34,34,45,11,20,65,,122,,11,10,10,4,0.5,0.5
2025-08-15T0000,1708A,116.3701,23.5345,揭阳市,新兴,,19,19,11,7,9,18,,43,30,15,8,8,5,0.5,0.3
2025-08-15T0000,1709A,116.3264,23.5443,揭阳市,西马,,19,19,12,7,6,21,,45,32,9,5,6,2,0.6,0.6
2025-08-15T0000,1710A,116.3611,23.5626,揭阳市,东兴,,19,19,11,7,6,10,,42,28,19,8,5,3,0.6,0.5
2025-08-15T0000,1711A,116.4151,23.5294,揭阳市,渔湖,,15,,11,10,8,14,,40,24,16,9,7,5,0.5,0.4
2025-08-15T0000,3320A,116.403,23.5699,揭阳市,曲溪,,20,20,11,6,7,14,,42,29,17,6,11,2,0.4,0.4
2025-08-15T0000,1944A,102.1692,38.5167,金昌市,天庆家园,,,56,58,19,24,48,,117,93,28,20,,31,0.9,0.7
2025-08-15T0000,4022A,102.1647,38.5371,金昌市,金川区人防中心,,47,47,44,22,22,32,,115,90,34,14,6,14,0.9,0.5
2025-08-15T0000,4239A,102.1930,38.5319,金昌市,长春路96号,颗粒物(PM10),58,66,52,17,16,49,,113,91,26,15,13,16,0.4,0.4
2025-08-15T0000,1262A,119.647,29.077,金华市,十五中,,12,12,14,6,6,29,,61,45,11,9,4,3,0.2,0.2
2025-08-15T0000,1263A,119.686,29.1029,金华市,监测站,,12,12,15,6,8,26,,63,44,10,10,4,4,0.3,0.3
2025-08-15T0000,3659A,119.656,29.1131,金华市,气象局,,12,12,14,3,4,23,,60,42,12,10,2,2,0.3,0.1
2025-08-15T0000,1767A,121.1115,41.0879,锦州市,南山,,40,,32,28,23,108,,139,119,14,11,9,6,0.7,0.7
2025-08-15T0000,1768A,121.0604,40.8428,锦州市,开发区,颗粒物(PM10),55,59,50,21,22,129,,143,129,16,16,4,9,0.7,1
2025-08-15T0000,1769A,121.1836,41.1119,锦州市,百股街道,,40,32,31,19,14,125,,146,133,8,10,8,14,0.7,0.8
2025-08-15T0000,1770A,121.1178,41.1222,锦州市,天安街道,,42,38,36,29,24,113,,143,124,15,19,12,7,0.8,0.8
2025-08-15T0000,1771A,121.1303,41.1386,锦州市,北湖公园,,35,28,34,24,19,108,,132,119,11,11,9,6,0.8,0.8
2025-08-15T0000,2160A,112.85,35.5051,晋城市,自来水公司,,,20,39,3,18,,,109,94,8,10,2,2,0.4,0.5
2025-08-15T0000,2161A,112.8318,35.4936,晋城市,白云商贸,,25,17,36,3,11,78,,113,96,7,7,3,3,0.4,0.5
2025-08-15T0000,2162A,112.8508,35.4887,晋城市,市环保局,,24,10,31,7,17,76,,110,94,5,7,4,4,0.4,0.5
2025-08-15T0000,2163A,112.8676,35.4897,晋城市,技术学院,,24,18,29,3,12,74,,105,91,6,8,3,3,0.5,0.5
2025-08-15T0000,2165A,112.8453,35.546,晋城市,白马寺,,28,14,27,3,21,89,,125,107,3,4,6,6,0.5,0.6
2025-08-15T0000,3620A,112.8271,35.4828,晋城市,泽州一中,,26,6,28,3,13,83,,118,101,6,7,4,5,0.5,0.6
2025-08-15T0000,2173A,112.7249,37.7067,晋中市,南都小区,颗粒物(PM10),57,64,63,36,37,107,,154,125,12,10,4,5,0.9,0.7
2025-08-15T0000,2174A,112.6991,37.6982,晋中市,榆次区政府,颗粒物(PM10),52,53,57,34,35,107,,158,127,11,10,5,6,0.8,0.8
2025-08-15T0000,2865A,112.7195,37.6828,晋中市,榆次三中,"颗粒物(PM10),细颗粒物(PM2.5)",52,53,59,36,33,96,,163,124,12,8,5,6,0.9,0.8
2025-08-15T0000,4200A,112.7478,37.6954,晋中市,迎宾街26号,颗粒物(PM10),54,58,55,34,32,104,,174,134,13,9,6,7,0.8,0.7
2025-08-15T0000,2439A,112.2014,31.0481,荆门市,竹园小学,,,,27,,14,58,,97,84,7,4,,2,1.0,0.5
2025-08-15T0000,2440A,112.1969,30.9891,荆门市,掇刀,,27,27,26,15,13,64,,100,83,10,12,1,1,0.6,0.6
2025-08-15T0000,2441A,112.2213,31.0386,荆门市,石化一小,,26,26,30,13,22,53,,98,84,12,12,2,5,0.7,0.6
2025-08-15T0000,3012A,112.1849,31.0362,荆门市,西山林语,,32,32,25,19,11,68,,96,81,2,3,8,8,0.7,0.5
2025-08-15T0000,3547A,112.1632,31.0138,荆门市,龙泉中学南校,,33,33,25,15,13,69,,98,83,4,9,3,3,0.8,0.7
2025-08-15T0000,1844A,112.2494,30.3197,荆州市,市图书馆,,19,19,15,13,11,57,,89,78,5,6,3,3,0.6,0.6
2025-08-15T0000,1845A,112.2008,30.3544,荆州市,市委党校,,24,24,17,8,8,50,,82,70,11,10,5,6,0.5,0.5
2025-08-15T0000,3194A,112.2747,30.3122,荆州市,管委会,,17,,16,9,15,54,,79,64,8,9,3,3,0.6,0.5
2025-08-15T0000,4268A,112.1722,30.3366,荆州市,学苑路85号,,22,22,16,15,13,54,,85,73,10,10,7,6,0.5,0.5
2025-08-15T0000,2342A,117.3102,29.3867,景德镇市,王港中学,,,,,,,,,,,,,,,,
2025-08-15T0000,2343A,117.2117,29.2933,景德镇市,老干部活动中心,,17,,12,3,4,54,,56,50,7,7,6,6,0.4,0.4
2025-08-15T0000,2344A,117.1894,29.2789,景德镇市,兽医站,,25,25,18,9,7,56,,58,54,4,4,4,4,0.7,0.7
2025-08-15T0000,2346A,117.2461,29.2956,景德镇市,陶研所,,19,11,13,3,5,60,,58,51,1,4,5,5,0.6,0.6
2025-08-15T0000,4289A,117.1542,29.2566,景德镇市,青少年活动中心,,42,42,22,24,9,15,,52,27,54,18,92,26,1.3,0.6
2025-08-15T0000,1803A,115.9872,29.6815,九江市,十里,,33,,20,23,22,32,,72,49,18,9,10,4,0.6,0.6
2025-08-15T0000,1804A,115.9584,29.7046,九江市,茅山头,,13,11,28,9,17,14,,69,40,25,6,5,4,0.6,0.7
2025-08-15T0000,1805A,115.9877,29.7295,九江市,西园,,29,23,23,20,15,24,,87,50,39,16,7,6,0.7,0.8
2025-08-15T0000,1808A,115.9114,29.6038,九江市,综合工业园,,16,16,23,6,17,36,,73,45,30,18,6,7,0.5,0.7
2025-08-15T0000,1809A,116.0721,29.7535,九江市,石化总厂,颗粒物(PM10),52,54,29,9,24,10,,80,46,56,18,8,5,0.6,0.6
2025-08-15T0000,1810A,115.9773,29.5698,九江市,庐山气象台,,15,10,7,3,2,47,,68,62,4,3,6,6,0.7,0.8
2025-08-15T0000,3190A,116.0254,29.6994,九江市,外国语学校,,32,32,18,16,19,25,,71,47,18,10,11,7,0.7,0.7
2025-08-15T0000,4253A,116.0102,29.6594,九江市,莲花大道8号,,16,16,30,10,16,34,,65,45,2,3,5,4,0.4,0.6
2025-08-15T0000,4240A,98.4958,39.7339,酒泉市,玉门东路5号,颗粒物(PM10),54,58,35,36,21,55,,149,111,40,13,12,12,0.6,0.4
2025-08-15T0000,4241A,98.5099,39.7506,酒泉市,北大街108号,颗粒物(PM10),54,58,34,29,16,27,,137,100,48,12,17,14,0.8,0.5
2025-08-15T0000,2698A,76.0072,39.4467,喀什地区,巡警大队,颗粒物(PM10),154,257,286,81,89,60,,109,82,48,44,5,6,0.9,0.8
2025-08-15T0000,2699A,75.9755,39.4694,喀什地区,吾办,颗粒物(PM10),156,262,315,118,125,78,,113,91,27,38,5,9,0.4,0.2
2025-08-15T0000,4027A,75.9483,39.4689,喀什地区,老干局,颗粒物(PM10),127,204,223,56,76,73,,114,91,29,32,11,8,0.6,0.2
2025-08-15T0000,1824A,114.3389,34.7781,开封市,肿瘤医院,,24,24,32,16,17,72,,96,94,19,16,7,3,0.5,0.5
2025-08-15T0000,1826A,114.2885,34.7965,开封市,世纪星幼儿园,,29,29,30,16,20,78,,98,96,14,12,7,4,0.6,0.6
2025-08-15T0000,3147A,114.3438,34.8106,开封市,龙亭公园,,23,23,31,12,13,64,,91,88,17,13,4,4,0.8,0.8
2025-08-15T0000,3210A,114.3644,34.7964,开封市,汴京公园,,33,33,36,21,16,64,,100,96,22,11,4,4,0.7,0.7
2025-08-15T0000,3473A,114.2485,34.8306,开封市,技师学院,,32,29,30,22,20,67,,96,91,16,11,6,6,1.0,0.9
2025-08-15T0000,3592A,114.4644,34.7556,开封市,祥符区生态环境局,,30,30,28,20,18,47,,82,75,35,23,5,5,0.7,0.6
2025-08-15T0000,1951A,84.895,45.6094,克拉玛依市,长征新村,,34,34,18,12,10,66,,91,86,20,6,4,4,0.4,0.3
2025-08-15T0000,1952A,84.8988,45.5893,克拉玛依市,南林小区,颗粒物(PM10),54,58,20,29,7,22,,90,71,19,4,4,5,0.2,0.1
2025-08-15T0000,1954A,84.905,44.3396,克拉玛依市,独山子区,,46,46,33,14,9,86,,105,88,10,12,10,10,0.4,0.4
2025-08-15T0000,1955A,85.6979,46.098,克拉玛依市,乌尔禾区商贸楼,,24,24,24,3,6,62,,89,78,9,7,6,6,0.3,0.2
2025-08-15T0000,3612A,85.1045,45.6899,克拉玛依市,白碱滩区新站,,40,40,28,12,15,74,,100,96,12,5,9,13,0.4,0.4
2025-08-15T0000,2697A,76.1454,39.7142,克孜勒苏柯尔克孜自治州,市人民政府,颗粒物(PM10),120,190,245,66,100,83,,109,92,22,19,7,11,0.2,0.1
2025-08-15T0000,3665A,76.1658,39.7157,克孜勒苏柯尔克孜自治州,克州文化中心,颗粒物(PM10),107,164,234,64,92,105,,115,104,8,14,7,15,0.4,0.4
2025-08-15T0000,1450A,102.8204,24.8886,昆明市,呈贡新区,细颗粒物(PM2.5),54,,25,38,29,17,,119,89,57,23,5,4,0.9,0.6
2025-08-15T0000,1451A,102.6251,24.9608,昆明市,西山森林公园,,,,,,,,,,,,,,,,
2025-08-15T0000,1452A,102.7252,25.0902,昆明市,龙泉镇,颗粒物(PM10),51,52,30,18,17,1,,103,58,65,20,2,2,0.6,0.5
2025-08-15T0000,1453A,102.7266,25.0375,昆明市,东风东路,,43,43,41,25,22,61,,108,79,20,23,4,4,0.5,0.5
2025-08-15T0000,1454A,102.6742,25.0669,昆明市,金鼎山,,37,37,40,24,17,40,,98,66,22,17,2,1,0.5,0.4
2025-08-15T0000,1455A,102.6644,25.0401,昆明市,碧鸡广场,,46,46,38,30,18,29,,94,61,31,22,7,7,0.6,0.6
2025-08-15T0000,3179A,102.7494,25.0119,昆明市,官渡区博物馆,,41,41,40,22,19,30,,106,71,33,33,1,2,0.8,0.7
2025-08-15T0000,3375A,102.8017,24.8336,昆明市,青年创业园,,,,39,,28,,,120,86,51,28,3,3,0.6,0.6
2025-08-15T0000,3550A,102.7997,24.9786,昆明市,昆明学院,细颗粒物(PM2.5),62,61,50,44,33,20,,113,72,50,31,6,7,0.7,0.5
2025-08-15T0000,3551A,102.5967,24.6736,昆明市,晋宁区生态环境分局,颗粒物(PM10),77,103,28,24,15,49,,114,89,26,13,3,4,0.6,0.5
2025-08-15T0000,3552A,102.6678,24.9856,昆明市,云天化总部,,31,31,39,18,23,12,,102,64,59,28,5,5,0.5,0.7
2025-08-15T0000,1456A,91.1319,29.6514,拉萨市,八廓街,,35,11,16,6,9,110,,150,137,16,10,6,5,0.2,0.2
2025-08-15T0000,1457A,91.1221,29.6747,拉萨市,市环保局,,39,18,16,12,8,122,,151,132,12,12,7,7,0.4,0.3
2025-08-15T0000,1458A,91.0874,29.6475,拉萨市,区监测站,,39,8,12,7,7,122,,140,134,13,12,4,4,0.3,0.3
2025-08-15T0000,1459A,91.1774,29.6541,拉萨市,西藏大学,,35,8,13,7,7,111,,145,133,13,11,5,5,0.2,0.2
2025-08-15T0000,1460A,90.9798,29.6588,拉萨市,区辐射站,,36,17,18,9,8,114,,132,124,11,14,6,5,0.3,0.3
2025-08-15T0000,1461A,91.0834,29.6292,拉萨市,拉萨火车站,,40,8,12,7,7,128,,141,137,6,8,5,5,0.1,0.2
2025-08-15T0000,2520A,109.2203,23.7256,来宾市,来宾技工学校,,15,15,28,9,17,44,,104,63,10,10,8,7,0.5,0.6
2025-08-15T0000,3535A,109.1781,23.7297,来宾市,兴宾区政府,,13,13,23,3,15,35,,101,63,15,8,6,5,0.4,0.5
2025-08-15T0000,4002A,109.2416,23.7461,来宾市,中南小学,,18,11,31,9,21,57,,115,66,5,10,5,7,0.4,0.7
2025-08-15T0000,1477A,104.1373,35.9454,兰州市,榆中兰大校区,,,,,,,,,,,,,,,,
2025-08-15T0000,1479A,103.831,36.0464,兰州市,铁路设计院,,37,37,47,16,20,82,,128,82,34,36,9,11,0.4,0.5
2025-08-15T0000,3241A,103.7439,36.0842,兰州市,百合公园,,37,37,46,13,19,93,,126,88,13,27,6,8,0,0.5
2025-08-15T0000,3242A,103.9611,35.998,兰州市,和平,,30,25,31,14,13,94,,132,99,10,12,8,9,0.2,0.3
2025-08-15T0000,4236A,103.6293,36.0938,兰州市,庄浪东路808号,,42,42,44,17,18,105,,132,91,18,27,11,21,0.2,0.4
2025-08-15T0000,4237A,103.7251,36.1043,兰州市,安宁西路88号,,39,39,48,20,19,114,,150,106,7,18,7,12,0.2,0.4
2025-08-15T0000,4238A,103.8470,36.0676,兰州市,北滨河东路1号,,38,30,40,26,24,91,,139,90,35,36,8,11,0.3,0.5
2025-08-15T0000,3245A,103.6633,36.533,兰州新区,新区管委会,,37,21,24,17,16,117,,137,130,8,12,12,15,0.2,0.4
2025-08-15T0000,3246A,103.6975,36.4789,兰州新区,舟曲中学,,38,16,40,3,14,121,,135,132,8,26,10,14,0.3,0.4
2025-08-15T0000,1067A,116.6708,39.5111,廊坊市,药材公司,,37,21,36,10,18,116,,142,117,8,25,3,4,0.4,0.4
2025-08-15T0000,1068A,116.7214,39.5589,廊坊市,开发区,,33,13,34,9,17,105,,129,106,13,26,3,3,0.3,0.3
2025-08-15T0000,1070A,116.7244,39.5269,廊坊市,北华航天学院,,35,25,51,13,22,112,,138,116,8,22,3,4,0.4,0.4
2025-08-15T0000,2919A,116.7022,39.5453,廊坊市,河北工业大学,,37,23,47,6,17,116,,149,116,9,28,3,4,0.4,0.4
2025-08-15T0000,2535A,103.7723,29.5462,乐山市,花湖湾,,45,38,41,31,28,67,,139,119,21,17,3,4,0.5,0.9
2025-08-15T0000,2536A,103.7627,29.5844,乐山市,牛耳桥,,48,48,39,28,26,43,,140,105,29,18,4,6,0.6,0.8
2025-08-15T0000,2537A,103.7508,29.6006,乐山市,市第三水厂,细颗粒物(PM2.5),99,,41,74,41,38,,140,104,33,22,2,3,0.9,0.7
2025-08-15T0000,2538A,103.7571,29.5664,乐山市,市监测站,,39,39,46,25,23,67,,127,102,16,16,6,9,0.8,1.1
2025-08-15T0000,3361A,103.7311,29.5628,乐山市,理工大学,,40,40,43,27,25,51,,130,99,23,18,6,9,0.8,1
2025-08-15T0000,2598A,100.2143,26.8576,丽江市,西南郊,,22,20,25,15,13,54,,91,76,12,11,7,7,0.9,0.9
2025-08-15T0000,2599A,100.2497,26.8802,丽江市,丽江古城,,32,32,30,14,13,29,,81,66,16,13,10,10,0.6,0.5
2025-08-15T0000,2600A,100.2203,26.8906,丽江市,市中心,,,,23,,12,,,75,,,14,,5,,0.5
2025-08-15T0000,1267A,119.914,28.4514,丽水市,监测站大楼,,8,8,11,3,3,13,,45,28,8,6,3,3,0.3,0.3
2025-08-15T0000,1268A,119.93,28.4586,丽水市,莲都小学,,12,12,11,3,3,16,,47,31,7,4,3,3,0.3,0.3
2025-08-15T0000,1269A,119.879,28.4231,丽水市,余庄前,,9,9,10,3,4,3,,46,19,8,5,4,4,0.3,0.3
2025-08-15T0000,1173A,119.176,34.5885,连云港市,市环境监测站,,20,17,14,3,4,63,,93,80,6,9,3,3,0.4,0.5
2025-08-15T0000,3000A,119.3581,34.6972,连云港市,德源药业,,17,14,16,3,5,52,,79,68,12,19,4,4,0.5,0.6
2025-08-15T0000,3007A,119.178,34.844,连云港市,新城一中,,23,15,18,3,7,72,,83,81,6,20,3,4,0.8,0.9
2025-08-15T0000,3008A,119.3608,34.7519,连云港市,胡沟管理处,,21,9,11,3,4,67,,76,69,7,24,6,8,0.6,0.7
2025-08-15T0000,3009A,119.1478,34.5911,连云港市,矿山设计院,,22,22,14,7,8,62,,87,76,6,6,4,4,0.7,0.5
2025-08-15T0000,3434A,119.2413,34.6539,连云港市,工贸学校,,21,21,15,9,9,61,,86,77,7,6,6,5,0.8,0.8
2025-08-15T0000,3664A,119.4172,34.7341,连云港市,连云街道,,28,28,22,9,9,62,,85,80,12,10,3,3,0.7,0.7
2025-08-15T0000,2571A,102.3431,27.8099,凉山彝族自治州,青龙寺,,24,24,29,7,10,54,,83,70,4,8,1,5,0.4,0.6
2025-08-15T0000,2572A,102.2721,27.8415,凉山彝族自治州,邛海宾馆,,25,25,31,13,17,50,,91,73,17,17,7,9,0.5,0.6
2025-08-15T0000,2573A,102.2625,27.898,凉山彝族自治州,西昌市政府,,19,19,28,7,25,54,,91,77,5,10,3,6,0.3,0.5
2025-08-15T0000,2574A,102.2685,27.8851,凉山彝族自治州,凉山州政府,,29,29,34,18,22,56,,96,82,11,16,8,9,0.7,0.6
2025-08-15T0000,4229A,102.2342,27.8859,凉山彝族自治州,凯乐南路30号,,33,33,37,10,12,53,,89,75,13,22,8,11,0.5,0.7
2025-08-15T0000,2212A,123.2,41.1953,辽阳市,宏伟区,,35,35,39,21,16,106,,162,134,10,13,4,5,1.0,0.9
2025-08-15T0000,2213A,123.1683,41.2495,辽阳市,新华园,,44,44,46,22,22,100,,161,119,18,18,8,8,0.9,1
2025-08-15T0000,2214A,123.2354,41.2639,辽阳市,滨河路,,49,49,43,25,20,84,,155,100,13,18,5,6,0.8,0.8
2025-08-15T0000,2215A,123.149,41.2991,辽阳市,铁西工业园,颗粒物(PM10),51,51,54,21,25,88,,150,100,18,21,5,7,1.0,1.3
2025-08-15T0000,2227A,125.1358,42.8845,辽源市,环保局,,45,45,31,12,12,21,,121,81,24,9,9,8,0.6,0.5
2025-08-15T0000,3239A,125.0764,42.9078,辽源市,银鹰制药,,34,34,23,21,14,42,,125,81,24,16,9,9,0.6,0.5
2025-08-15T0000,1625A,115.9848,36.4372,聊城市,区政府,,36,34,35,25,24,79,,170,132,13,9,8,7,0.9,0.8
2025-08-15T0000,2878A,116.0072,36.4343,聊城市,聊大东校,,48,48,41,25,25,86,,182,139,19,18,10,9,0.6,0.6
2025-08-15T0000,3200A,115.9819,36.4978,聊城市,监控中心,,,,31,,13,,,89,,,15,,7,,0.7
2025-08-15T0000,3513A,116.0445,36.4361,聊城市,九州社区,,,,35,,18,,,,,,14,,5,,0.7
2025-08-15T0000,4018A,116.0567,36.4608,聊城市,星美广场,,,,38,,22,,,83,,,15,,3,,0.6
2025-08-15T0000,2632A,94.3681,29.6376,林芝市,林芝监测站,,17,11,8,3,5,54,,76,67,1,2,6,6,0.3,0.3
2025-08-15T0000,2633A,94.3616,29.6616,林芝市,林芝人民医院,,16,9,11,3,5,51,,78,66,1,2,7,7,0.3,0.3
2025-08-15T0000,2603A,100.0781,23.8982,临沧市,市环保局,,,19,15,14,15,,,44,33,8,7,9,7,0.5,0.5
2025-08-15T0000,2604A,100.0894,23.8822,临沧市,市气象局,,17,17,15,11,10,12,,42,31,7,8,7,6,0.4,0.4
2025-08-15T0000,1733A,111.5531,36.0783,临汾市,临钢医院,,28,17,54,7,20,89,,150,118,6,9,8,8,0.5,0.6
2025-08-15T0000,1734A,111.5028,36.0714,临汾市,技工学校,,29,27,53,16,36,92,,154,120,6,9,6,6,0.4,0.6
2025-08-15T0000,1736A,111.5018,36.0855,临汾市,市委,,32,30,62,3,23,100,,171,133,7,9,5,7,0.6,0.8
2025-08-15T0000,3018A,111.505,36.1014,临汾市,唐尧大酒店,,34,34,67,6,24,88,,158,123,6,11,4,4,0.5,0.7
2025-08-15T0000,4244A,111.4879,36.0530,临汾市,启星学校,,30,15,54,14,36,93,,161,122,5,10,5,6,0.5,0.7
2025-08-15T0000,4271A,103.2464,35.6123,临夏回族自治州,滨河东路1号,细颗粒物(PM2.5),144,,44,110,24,22,,101,67,25,18,7,6,0.7,0.4
2025-08-15T0000,4310A,103.2093,35.5995,临夏回族自治州,新华街21号,颗粒物(PM10),57,64,36,37,20,29,,103,75,42,14,4,5,0.7,0.3
2025-08-15T0000,1618A,118.3429,35.0532,临沂市,沂河小区,,31,31,26,17,17,30,,58,41,33,24,11,9,0.8,0.6
2025-08-15T0000,1619A,118.295,35.0583,临沂市,鲁南制药厂,,22,22,20,10,10,42,,65,50,25,20,12,10,0.9,0.7
2025-08-15T0000,1620A,118.2794,34.9976,临沂市,新光毛纺厂,,24,24,17,15,15,44,,64,52,23,19,10,8,0.8,0.6
2025-08-15T0000,1621A,118.3956,35.0888,临沂市,河东保险公司,,19,19,27,12,13,11,,52,27,30,22,6,7,0.6,0.6
2025-08-15T0000,3370A,118.3564,35.0215,临沂市,十里堡居委,,22,22,20,14,15,23,,61,39,35,25,11,11,0.8,0.7
2025-08-15T0000,3496A,118.3604,35.1084,临沂市,南坊新区,,22,22,27,12,11,26,,61,36,28,25,9,9,0.7,0.7
2025-08-15T0000,3860A,118.3920,35.0300,临沂市,皇山花园小区,,22,22,27,12,13,14,,57,30,41,31,10,10,0.8,0.7
2025-08-15T0000,1870A,109.4856,24.3895,柳州市,柳东小学,,16,16,31,10,21,45,,86,50,8,9,3,9,0.4,0.5
2025-08-15T0000,1871A,109.4157,24.3277,柳州市,环保监测站,,14,12,37,6,18,43,,83,48,10,12,6,12,0.4,0.5
2025-08-15T0000,1872A,109.389,24.341,柳州市,河西水厂,,,,60,,27,42,,85,48,15,16,6,4,0.5,0.5
2025-08-15T0000,1873A,109.4311,24.2921,柳州市,市四中,,16,16,34,10,21,45,,85,50,13,14,6,10,0.6,0.7
2025-08-15T0000,1874A,109.4006,24.3631,柳州市,市九中,细颗粒物(PM2.5),58,,44,41,31,50,,78,48,10,14,4,6,0.5,0.6
2025-08-15T0000,1875A,109.4958,24.3134,柳州市,古亭山,,9,8,29,6,17,28,,85,42,18,15,5,6,0.6,0.6
2025-08-15T0000,3402A,109.5422,24.3996,柳州市,市二中,,18,9,29,6,21,56,,90,55,8,12,4,6,0.6,0.7
2025-08-15T0000,2307A,116.5079,31.737,六安市,监测大楼,,20,11,18,7,14,62,,85,76,6,5,4,4,0.3,0.4
2025-08-15T0000,2308A,116.4738,31.7643,六安市,皖西学院,,23,22,28,7,14,72,,97,92,8,6,3,3,0.3,0.4
2025-08-15T0000,2309A,116.4996,31.7905,六安市,朝阳厂,,21,20,27,11,16,66,,90,84,10,10,5,6,0.3,0.4
2025-08-15T0000,2310A,116.5567,31.7886,六安市,开发区,,17,14,14,11,15,53,,85,78,14,6,2,2,0.4,0.5
2025-08-15T0000,2576A,104.8,26.5892,六盘水市,窑上,,36,36,29,17,7,76,,129,90,7,6,4,4,0.5,0.6
2025-08-15T0000,2577A,104.83,26.5917,六盘水市,黄土坡,,35,18,22,16,11,110,,125,118,10,12,11,11,0.4,0.4
2025-08-15T0000,2578A,104.89,26.5939,六盘水市,水钢,,29,29,39,10,19,87,,122,109,30,22,13,32,0.7,1.3
2025-08-15T0000,2579A,104.8475,26.5894,六盘水市,民中,,32,27,23,14,9,101,,123,110,13,18,9,9,0.4,0.4
2025-08-15T0000,2580A,104.9544,26.5506,六盘水市,双水,,31,31,29,19,13,94,,124,114,14,17,9,10,0.2,0.4
2025-08-15T0000,2335A,117.0189,25.1181,龙岩市,龙岩师专,,,,,,,,,,,,,,,,
2025-08-15T0000,2336A,117.0217,25.1033,龙岩市,龙岩市监测站,,23,18,6,16,5,6,,41,19,14,7,6,4,0.6,0.5
2025-08-15T0000,2337A,117.0258,25.0661,龙岩市,闽西职业技术学院,,26,26,8,3,1,6,,40,18,10,4,5,4,0.4,0.4
2025-08-15T0000,2338A,117.0196,25.0306,龙岩市,龙岩学院,,12,12,6,3,1,5,,41,17,9,4,9,8,0.4,0.3
2025-08-15T0000,2665A,105.0822,33.3261,陇南市,汉王镇固水子,,,,,,,,,,,,,,,,
2025-08-15T0000,2885A,104.9339,33.3826,陇南市,滨江中学,,47,47,39,20,15,107,,117,111,4,6,7,8,0.6,0.6
2025-08-15T0000,3247A,104.955,33.371,陇南市,市总工会,,43,43,40,14,13,128,,128,124,4,6,5,5,0.6,0.6
2025-08-15T0000,2487A,111.9589,27.8901,娄底市,电视发射台,,15,14,18,3,9,46,,65,58,6,4,3,4,0.2,0.3
2025-08-15T0000,2488A,111.9975,27.725,娄底市,市监测站,,18,18,23,3,12,40,,72,54,9,8,4,4,0.4,0.5
2025-08-15T0000,2489A,112.0194,27.7314,娄底市,市委党校,,15,12,18,6,13,48,,76,59,6,7,4,4,0.3,0.3
2025-08-15T0000,2490A,111.9561,27.7569,娄底市,涟钢,,22,20,24,15,14,35,,52,31,16,21,14,12,0.4,1.1
2025-08-15T0000,2491A,111.9892,27.7044,娄底市,市政府,,14,6,17,3,13,44,,74,58,6,5,5,5,0.5,0.8
2025-08-15T0000,1893A,105.4324,28.9634,泸州市,九狮山,细颗粒物(PM2.5),60,67,45,43,33,39,,167,96,22,12,6,7,0.5,0.4
2025-08-15T0000,1894A,105.4427,28.9063,泸州市,小市上码头,颗粒物(PM10),54,57,38,28,20,52,,144,90,15,12,4,4,0.4,0.4
2025-08-15T0000,1895A,105.4241,28.8573,泸州市,兰田宪桥,细颗粒物(PM2.5),88,91,66,65,26,48,,169,101,15,16,8,8,0.5,0.4
2025-08-15T0000,1896A,105.4379,28.8833,泸州市,市环监站,细颗粒物(PM2.5),85,91,41,63,27,67,,167,118,22,21,7,7,0.6,0.5
2025-08-15T0000,4272A,105.3689,28.7783,泸州市,纳溪中医医院,细颗粒物(PM2.5),58,49,36,41,26,34,,183,99,32,24,9,8,0.8,0.7
2025-08-15T0000,2183A,111.1406,37.5211,吕梁市,环保局,颗粒物(PM10),58,65,61,24,26,86,,164,136,33,23,4,6,0.7,0.6
2025-08-15T0000,2185A,111.1297,37.5136,吕梁市,自来水公司,颗粒物(PM10),53,56,67,19,22,104,,158,130,15,24,2,5,0.6,0.6
2025-08-15T0000,2867A,111.1283,37.51,吕梁市,马茂庄小学,颗粒物(PM10),79,108,71,35,23,39,,156,104,64,33,4,6,0.8,0.6
2025-08-15T0000,1812A,112.3931,34.6516,洛阳市,市委党校,,26,26,36,13,22,67,,126,88,13,15,7,7,0.4,0.5
2025-08-15T0000,1815A,112.494,34.6886,洛阳市,河南林校,,34,34,45,13,22,61,,135,80,21,21,7,10,0.3,0.4
2025-08-15T0000,1816A,112.3844,34.623,洛阳市,开发区管委会,,23,19,29,12,18,71,,140,95,10,8,7,6,0.5,0.6
2025-08-15T0000,1817A,112.4267,34.6258,洛阳市,市委新办公区,,24,24,30,12,20,65,,128,93,17,14,8,9,0.4,0.5
2025-08-15T0000,3340A,112.6005,34.6326,洛阳市,伊滨,,19,19,30,10,20,46,,123,76,22,18,8,9,0.5,0.6
2025-08-15T0000,3341A,112.4951,34.6332,洛阳市,中移产业园,,29,29,43,10,25,57,,130,78,22,22,8,10,0.8,0.9
2025-08-15T0000,3593A,112.5736,34.8993,洛阳市,吉利监测站,,33,33,41,11,21,68,,128,95,14,14,8,7,0.3,0.4
2025-08-15T0000,3635A,112.3677,34.662,洛阳市,河科大西苑校区,,27,27,37,8,15,68,,131,89,18,21,8,10,0.5,0.6
2025-08-15T0000,3636A,112.4388,34.6781,洛阳市,英才小学,,26,26,45,10,21,62,,128,78,18,18,7,10,0.6,0.7
2025-08-15T0000,4214A,112.4600,34.6949,洛阳市,春都路1号院,,30,30,38,8,18,49,,115,66,14,17,7,9,0.5,0.7
2025-08-15T0000,2399A,114.051,33.5699,漯河市,三五一五工厂,,33,30,22,23,13,65,,97,82,12,11,8,6,0.7,0.5
2025-08-15T0000,2400A,114.0055,33.5698,漯河市,漯河大学,,28,,5,19,15,67,,104,88,12,10,6,5,0.6,0.4
2025-08-15T0000,2401A,114.0138,33.5828,漯河市,市水利局,,35,29,23,24,13,62,,96,81,10,10,6,5,0.6,0.4
2025-08-15T0000,2402A,114.0261,33.5698,漯河市,市广电局,,36,,18,25,16,68,,108,90,12,9,6,3,0.6,0.4
2025-08-15T0000,3478A,113.9749,33.5664,漯河市,市图书馆,,29,27,21,20,12,76,,109,94,10,9,5,5,0.4,0.3
2025-08-15T0000,4250A,114.0892,33.5882,漯河市,韶山路11号,,36,32,24,25,14,53,,97,74,17,15,4,4,0.7,0.6
2025-08-15T0000,1798A,118.5092,31.6837,马鞍山市,湖东路四小,,26,26,28,10,8,81,,99,97,12,10,11,7,0.4,0.4
2025-08-15T0000,1799A,118.5024,31.6449,马鞍山市,开发区,,31,31,30,7,8,86,,99,97,10,10,11,8,0.5,0.4
2025-08-15T0000,1802A,118.6245,31.7241,马鞍山市,濮塘,,28,26,23,12,15,89,,110,109,7,6,7,6,0.6,0.6
2025-08-15T0000,3633A,118.4918,31.6809,马鞍山市,雨山,,42,42,29,10,10,78,,94,93,12,10,11,8,0.5,0.5
2025-08-15T0000,4191A,118.5274,31.72227,马鞍山市,慈湖高新区,,26,26,18,10,11,76,,97,96,16,11,11,8,0.3,0.4
2025-08-15T0000,1686A,111.0286,21.4688,茂名市,电白南海,,22,22,32,7,20,51,,67,47,7,13,3,9,0.5,0.6
2025-08-15T0000,1687A,110.9294,21.6533,茂名市,茂石化七小,,12,12,33,7,21,34,,62,41,8,12,5,20,0.5,0.6
2025-08-15T0000,1688A,110.9107,21.6687,茂名市,健康路,,20,,34,14,20,41,,67,47,10,14,6,23,0.4,0.5
2025-08-15T0000,1689A,110.8592,21.6828,茂名市,高岭,,41,41,42,7,16,37,,64,37,18,17,10,13,0.5,0.6
2025-08-15T0000,3450A,111.01,21.5165,茂名市,电白水东,,17,17,30,9,18,46,,71,50,13,18,5,13,0.6,0.6
2025-08-15T0000,2539A,104.0308,30.0478,眉山市,黑龙滩水库,,40,,21,28,15,85,,147,112,10,15,3,3,0.3,0.4
2025-08-15T0000,2540A,103.8416,30.0874,眉山市,气象局,颗粒物(PM10),60,70,42,27,18,35,,146,105,40,25,10,12,0.6,0.6
2025-08-15T0000,3137A,103.8578,30.0744,眉山市,市委党校,,44,44,37,24,16,70,,145,113,22,20,7,9,0.4,0.4
2025-08-15T0000,3148A,103.8291,30.0564,眉山市,区人社局,颗粒物(PM10),55,59,49,17,14,85,,145,122,26,24,7,15,0.7,0.7
2025-08-15T0000,1690A,116.1231,24.3284,梅州市,梅江月梅,,9,8,6,3,4,27,,42,34,6,7,9,9,0.4,0.5
2025-08-15T0000,1691A,116.0797,24.2719,梅州市,梅县新城,,8,8,5,3,4,23,,43,35,6,5,7,6,0.5,0.5
2025-08-15T0000,1692A,116.1248,24.2654,梅州市,环境监控中心,,12,12,4,3,3,16,,38,30,11,6,4,3,0.5,0.5
2025-08-15T0000,3315A,116.1233,24.2991,梅州市,梅龙,,9,9,7,3,3,26,,42,34,4,5,6,7,0.5,0.5
2025-08-15T0000,1878A,104.7778,31.4741,绵阳市,富乐山,,32,32,37,18,19,70,,123,107,8,12,8,8,0.6,0.6
2025-08-15T0000,1880A,104.6697,31.4668,绵阳市,高新区自来水公司,颗粒物(PM10),65,79,48,27,16,13,,131,83,77,26,8,7,0.5,0.5
2025-08-15T0000,1881A,104.7287,31.5075,绵阳市,三水厂,,48,48,40,32,23,26,,144,74,47,26,8,8,0.6,0.5
2025-08-15T0000,3491A,104.69,31.5322,绵阳市,西科大附属小学,颗粒物(PM10),62,73,44,38,20,26,,143,91,62,25,8,8,0.6,0.5
2025-08-15T0000,3492A,104.5648,31.5343,绵阳市,安州区旅游局,颗粒物(PM10),51,51,40,27,19,73,,134,100,17,15,9,9,0.6,0.5
2025-08-15T0000,4226A,104.7651,31.4531,绵阳市,绵阳市气象局,,34,34,38,17,19,78,,134,120,16,16,8,7,0.6,0.5
2025-08-15T0000,1784A,129.61,44.561,牡丹江市,环保大楼,,25,25,16,13,12,14,,86,48,30,13,3,3,0.3,0.3
2025-08-15T0000,1785A,129.6115,44.5782,牡丹江市,文化广场,,22,15,17,15,17,12,,83,46,30,14,5,5,0.5,0.4
2025-08-15T0000,1786A,129.5904,44.5963,牡丹江市,第一医院,,29,,15,20,18,20,,86,44,23,15,8,8,0.2,0.2
2025-08-15T0000,1787A,129.6364,44.6075,牡丹江市,机车工厂,,29,29,25,15,17,12,,81,46,27,14,6,5,0.4,0.6
2025-08-15T0000,1788A,129.6386,44.5462,牡丹江市,第一中学,,29,29,26,6,11,14,,86,35,23,17,6,6,0.2,0.2
2025-08-15T0000,2531A,105.0703,29.61,内江市,市监测站,,46,35,34,32,28,91,,171,113,10,17,4,3,0.8,0.8
2025-08-15T0000,2532A,105.0717,29.5947,内江市,东兴区政府,,40,38,32,28,20,86,,154,107,14,15,10,10,0.9,0.8
2025-08-15T0000,2533A,105.0653,29.5817,内江市,内江二中,颗粒物(PM10),51,51,40,33,30,96,,156,110,13,18,4,3,0.8,0.7
2025-08-15T0000,2534A,105.0406,29.5822,内江市,内江日报社,细颗粒物(PM2.5),52,,35,36,29,99,,166,116,11,21,8,8,0.6,0.6
2025-08-15T0000,2628A,92.0657,31.4846,那曲市,那曲监测站,,33,16,42,8,16,104,,124,115,6,13,8,8,0.2,0.3
2025-08-15T0000,4243A,92.0515,31.4787,那曲市,那曲市委宣传部,,38,16,32,7,14,120,,136,129,3,8,4,4,0.1,0.2
2025-08-15T0000,1290A,115.8931,28.6843,南昌市,省外办,,10,8,20,7,14,30,,61,,5,7,4,5,0.3,0.5
2025-08-15T0000,1291A,115.8886,28.7003,南昌市,省林业公司,,11,7,13,7,10,35,,64,45,5,5,2,3,0.3,0.5
2025-08-15T0000,1292A,115.8126,28.7442,南昌市,林科所,,12,12,10,3,5,28,,66,46,15,8,8,8,0.6,0.7
2025-08-15T0000,1294A,115.8518,28.687,南昌市,建工学校,,30,,20,21,15,33,,63,42,12,12,4,5,0.4,0.5
2025-08-15T0000,1295A,115.8921,28.6424,南昌市,象湖,,11,6,20,3,6,35,,67,44,10,9,7,8,0.3,0.4
2025-08-15T0000,1296A,115.7423,28.7996,南昌市,武术学校,,19,13,15,13,13,30,,63,42,5,4,9,10,0.3,0.5
2025-08-15T0000,3046A,115.9084,28.6062,南昌市,机电学校,,12,10,21,3,8,36,,68,45,7,7,4,5,0.4,0.6
2025-08-15T0000,3690A,115.9721,28.7031,南昌市,外国语学校,,12,10,19,8,9,34,,69,44,9,7,7,6,0.2,0.4
2025-08-15T0000,4192A,115.9316,28.68677,南昌市,南京东路235号,,15,15,24,3,6,35,,64,41,8,10,4,5,0.5,0.6
2025-08-15T0000,1905A,106.056,30.8064,南充市,西山风景区,,,,,,,,,,,,,,,,
2025-08-15T0000,1906A,106.0789,30.8023,南充市,南充市委,颗粒物(PM10),55,59,36,31,22,41,,112,83,28,17,4,6,0.5,0.5
2025-08-15T0000,1907A,106.1031,30.8217,南充市,南充炼油厂,细颗粒物(PM2.5),63,65,47,45,23,42,,106,88,19,12,5,4,0.5,0.4
2025-08-15T0000,4227A,106.1083,30.7884,南充市,梨树横街98号,,46,46,30,31,18,66,,125,96,22,16,4,3,0.4,0.3
2025-08-15T0000,4304A,106.1172,30.843,南充市,清泉寺北路188号,细颗粒物(PM2.5),69,67,37,50,23,42,,117,94,20,11,4,4,0.5,0.4
2025-08-15T0000,4305A,106.067,30.7616,南充市,同庆路1号,细颗粒物(PM2.5),85,88,45,63,24,45,,122,77,28,18,6,4,0.5,0.4
2025-08-15T0000,1151A,118.8086,32.1065,南京市,迈皋桥,,25,16,20,9,12,79,,109,103,3,13,4,4,0.1,0.2
2025-08-15T0000,1152A,118.7538,32.0551,南京市,草场门,,29,29,28,7,12,63,,94,88,11,11,9,9,0.5,0.6
2025-08-15T0000,1153A,118.7794,32.0745,南京市,山西路,,24,22,28,3,7,74,,109,103,2,2,3,4,0.3,0.4
2025-08-15T0000,1154A,118.7752,32.0023,南京市,中华门,,,19,19,3,10,62,,93,86,7,8,4,8,,0.6
2025-08-15T0000,1155A,118.8109,32.0309,南京市,瑞金路,,21,19,19,7,11,67,,103,96,2,2,6,6,0.3,0.3
2025-08-15T0000,1156A,118.7997,32.0754,南京市,玄武湖,,,17,24,,5,67,,98,93,10,10,8,6,0.2,0.2
2025-08-15T0000,1157A,118.6414,32.0931,南京市,浦口,,29,29,31,6,11,75,,101,97,12,13,5,5,0.4,0.5
2025-08-15T0000,1158A,118.7356,31.9996,南京市,奥体中心,,24,24,25,3,12,73,,105,98,10,11,5,6,0.3,0.4
2025-08-15T0000,1159A,118.9125,32.1028,南京市,仙林大学城,,31,31,28,3,7,70,,102,96,6,6,7,7,0.5,0.6
2025-08-15T0000,3422A,118.8436,31.9198,南京市,江宁彩虹桥,,24,24,22,7,12,64,,98,90,12,13,4,4,0.4,0.4
2025-08-15T0000,3427A,118.8554,32.3578,南京市,六合雄州,,17,17,17,3,13,48,,83,67,22,15,4,4,0.6,0.6
2025-08-15T0000,4249A,118.8708,31.3402,南京市,汶溪路181号,,26,26,17,12,10,80,,103,101,14,9,6,5,0.4,0.3
2025-08-15T0000,4312A,119.019,31.6512,南京市,中山西路1号,,20,17,20,8,11,61,,104,92,14,13,3,4,0.4,0.4
2025-08-15T0000,1401A,108.3103,22.7881,南宁市,二十一中,,25,,50,17,28,54,,135,86,7,20,3,8,0.5,0.7
2025-08-15T0000,1402A,108.3141,22.8528,南宁市,北湖,,29,,41,20,32,52,,123,72,9,17,3,8,0.4,0.6
2025-08-15T0000,1403A,108.3206,22.8225,南宁市,市监测站,,33,,44,23,33,54,,118,71,8,21,3,8,0.4,0.6
2025-08-15T0000,1404A,108.3829,22.8037,南宁市,大自然花园,,26,18,44,18,26,54,,138,83,7,16,4,6,0.5,0.6
2025-08-15T0000,1405A,108.4394,22.7904,南宁市,仙葫,,20,,45,14,27,53,,112,73,6,19,4,6,0.4,0.6
2025-08-15T0000,1406A,108.2397,22.8467,南宁市,区农职院,,20,,41,14,25,52,,117,76,11,16,4,10,0.5,0.6
2025-08-15T0000,1407A,108.3275,22.735,南宁市,英华嘉园,,28,19,47,19,40,44,,120,84,13,21,1,4,0.5,0.6
2025-08-15T0000,3401A,108.4834,22.7618,南宁市,红星社区,,25,21,45,17,30,43,,114,74,10,18,2,4,0.5,0.6
2025-08-15T0000,4221A,108.2177,22.7774,南宁市,乐贤路16号,,,,45,24,29,42,,137,93,18,19,5,7,0.5,0.7
2025-08-15T0000,2331A,118.0966,26.6761,南平市,茫荡山,,,,,,,,,,,,,,,,
2025-08-15T0000,2332A,118.1681,26.6369,南平市,南平市监测站,,18,,6,12,8,32,,50,36,6,5,4,4,0.5,0.4
2025-08-15T0000,2333A,118.1825,26.6489,南平市,南平铝业有限公司,,14,14,14,3,4,39,,51,39,4,5,5,5,0.5,0.5
2025-08-15T0000,2334A,118.1756,26.6272,南平市,南平七中,,11,11,13,3,4,32,,49,37,4,3,3,3,0.5,0.5
2025-08-15T0000,1168A,120.9098,31.9663,南通市,狼山街道,,15,14,18,3,5,0,,96,47,29,18,3,3,0.4,0.4
2025-08-15T0000,1169A,120.86,32.0005,南通市,虹桥,,15,15,15,8,7,2,,104,53,27,15,3,4,0.5,0.5
2025-08-15T0000,1170A,120.87,32.02,南通市,城中,,17,17,20,3,4,3,,97,50,26,15,5,5,0.2,0.2
2025-08-15T0000,1171A,120.94,31.93,南通市,星湖花园,,13,9,12,6,7,2,,97,48,26,14,4,3,0.4,0.4
2025-08-15T0000,1172A,120.81,32.0417,南通市,紫琅学院,,13,6,15,3,3,4,,99,56,25,16,4,5,0.5,0.5
2025-08-15T0000,3291A,121.067,32.062,南通市,通州监测站,,6,6,12,3,4,16,,89,47,12,10,1,2,0.5,0.5
2025-08-15T0000,3432A,120.9348,31.9883,南通市,环境教育馆,,12,12,22,3,3,2,,105,60,22,11,4,4,0.2,0.2
2025-08-15T0000,2404A,112.5224,33.0122,南阳市,瓦房庄,,37,37,29,20,11,72,,108,95,9,7,6,6,0.5,0.6
2025-08-15T0000,2405A,112.5003,32.9735,南阳市,汉画馆,,32,32,26,12,8,80,,104,95,8,9,7,7,0.7,0.6
2025-08-15T0000,2406A,112.5573,33.027,南阳市,气象站,,33,33,24,14,8,70,,112,97,11,9,9,8,0.5,0.4
2025-08-15T0000,2407A,112.5481,32.9689,南阳市,理工学院,,34,34,25,12,6,74,,108,95,9,7,8,8,0.7,0.6
2025-08-15T0000,4008A,112.5234,32.9922,南阳市,卧龙区政府,,39,39,26,19,11,76,,106,95,10,9,6,6,0.8,0.7
2025-08-15T0000,1234A,121.8358,29.911,宁波市,区环保大楼,,,20,20,3,5,,,30,,6,6,3,3,0.5,0.6
2025-08-15T0000,1235A,121.56,29.82,宁波市,万里学院,,16,16,15,6,8,12,,47,28,12,5,5,5,0.3,0.3
2025-08-15T0000,1236A,121.713,29.9572,宁波市,龙赛医院,,12,12,16,6,6,18,,41,24,5,5,3,3,0.2,0.2
2025-08-15T0000,1239A,121.633,29.7733,宁波市,钱湖水厂,,12,12,13,3,4,22,,46,30,6,5,4,4,0.3,0.3
2025-08-15T0000,1240A,121.5856,29.8635,宁波市,太古小学,,7,7,16,3,5,16,,43,25,3,3,2,2,0.5,0.5
2025-08-15T0000,1241A,121.524,29.8674,宁波市,市环境监测中心,,14,14,15,3,5,10,,41,23,9,9,7,6,0.4,0.4
2025-08-15T0000,2871A,121.6147,29.9017,宁波市,万里国际学校,,13,13,15,3,7,17,,46,27,5,4,3,3,0.4,0.4
2025-08-15T0000,3710A,121.5594,29.8975,宁波市,白沙活动中心,,12,12,14,3,5,17,,47,27,6,6,5,5,0.4,0.4
2025-08-15T0000,2339A,119.5001,26.6946,宁德市,金涵水库,,,,,,,,,,,,,,,,
2025-08-15T0000,2341A,119.5388,26.6612,宁德市,宁德市监测站,,11,8,20,3,6,4,,44,26,21,8,4,2,0.7,0.4
2025-08-15T0000,3209A,119.5231,26.6562,宁德市,宁德一中,,15,10,18,10,10,9,,40,28,16,5,5,3,0.5,0.3
2025-08-15T0000,2618A,98.8601,25.8567,怒江傈僳族自治州,州监测站,,19,19,18,10,8,30,,53,45,10,6,6,6,0.6,0.4
2025-08-15T0000,2619A,98.8546,25.8417,怒江傈僳族自治州,泸水一中,,,4,15,,8,21,,41,31,10,8,6,6,0.5,0.4
2025-08-15T0000,1888A,101.6891,26.571,攀枝花市,弄弄坪,颗粒物(PM10),52,54,43,33,22,28,,88,62,20,18,6,10,0.8,0.9
2025-08-15T0000,1889A,101.5769,26.5928,攀枝花市,河门口,,40,40,34,22,17,40,,85,64,18,17,11,12,1.6,1.1
2025-08-15T0000,1890A,101.7169,26.585,攀枝花市,炳草岗,颗粒物(PM10),51,52,38,34,21,13,,93,58,46,28,6,9,1.0,1.1
2025-08-15T0000,1891A,101.7369,26.5008,攀枝花市,仁和,,36,36,36,20,20,20,,90,48,10,13,6,12,0.6,1.1
2025-08-15T0000,2835A,101.7227,26.567,攀枝花市,四十中小,,38,38,31,21,18,18,,88,55,40,26,7,13,1.1,1.3
2025-08-15T0000,1604A,122.0303,41.1489,盘锦市,开发区,,37,,34,24,26,116,,132,116,14,12,5,6,0.1,0.3
2025-08-15T0000,1605A,122.0485,41.0883,盘锦市,兴隆台,,38,31,30,18,18,120,,128,114,9,10,5,6,0.5,0.6
2025-08-15T0000,1606A,121.8297,41.1028,盘锦市,新生街道,,33,17,24,17,16,105,,158,136,11,18,3,5,0.7,0.8
2025-08-15T0000,1832A,113.3257,33.742,平顶山市,新华旅馆,,41,41,33,20,18,77,,99,88,11,12,5,5,0.6,0.5
2025-08-15T0000,1833A,113.2919,33.737,平顶山市,规划设计院,,32,32,28,19,15,77,,99,88,12,14,4,5,0.8,0.7
2025-08-15T0000,1834A,113.182,33.774,平顶山市,平顶山工学院,,26,23,24,17,11,81,,106,92,10,14,5,5,0.5,0.5
2025-08-15T0000,3204A,113.3025,33.73,平顶山市,规划局,,28,27,28,7,8,87,,104,96,8,12,4,6,0.5,0.4
2025-08-15T0000,3594A,112.8867,33.9116,平顶山市,石龙区,,33,33,37,20,16,75,,105,89,13,16,7,8,0.6,0.6
2025-08-15T0000,2656A,106.6692,35.5461,平凉市,聚贤嘉苑,,50,49,43,19,14,159,,133,133,13,15,13,15,0.6,0.4
2025-08-15T0000,2657A,106.7021,35.5307,平凉市,博物馆,颗粒物(PM10),53,55,47,20,13,153,,133,133,15,15,9,10,0.7,0.6
2025-08-15T0000,2347A,114.0997,27.5002,萍乡市,武功山,,16,,7,3,4,50,,52,52,2,4,6,8,0.5,0.5
2025-08-15T0000,2348A,113.8385,27.6434,萍乡市,中医院,,18,10,22,3,9,56,,79,55,4,11,8,14,0.3,0.7
2025-08-15T0000,2349A,113.8493,27.6253,萍乡市,市政府车库,,16,6,17,3,13,49,,69,45,2,10,8,12,0.2,0.8
2025-08-15T0000,2350A,113.8676,27.6435,萍乡市,市环保局,,,10,20,,11,54,,77,52,1,10,15,23,0.3,0.5
2025-08-15T0000,2351A,113.866,27.6198,萍乡市,安源区政府,,,,26,5,13,49,,64,46,5,9,12,16,0.3,1.1
2025-08-15T0000,2319A,119.0141,25.4325,莆田市,荔城区仓后路,,9,9,24,3,5,24,,57,46,4,4,5,6,0.5,0.5
2025-08-15T0000,2320A,119.0015,25.4553,莆田市,莆田市监测站,,8,,20,3,6,25,,60,45,4,6,4,5,0.4,0.4
2025-08-15T0000,2321A,119.1119,25.4561,莆田市,涵江区六中,,11,11,22,3,4,23,,57,41,3,5,4,4,0.3,0.3
2025-08-15T0000,2322A,119.1013,25.3215,莆田市,秀屿区政府,,17,17,23,3,5,23,,57,37,8,6,3,5,0.3,0.4
2025-08-15T0000,2323A,118.981,25.4792,莆田市,东圳水库,,,,,,,,,,,,,,,,
2025-08-15T0000,2392A,115.0312,35.7636,濮阳市,环保局,,50,37,33,35,26,92,,147,124,12,10,5,4,0.6,0.5
2025-08-15T0000,2394A,115.0574,35.7609,濮阳市,油田运输公司,,48,48,41,24,22,81,,147,121,13,10,4,3,0.8,0.6
2025-08-15T0000,3021A,115,35.7668,濮阳市,濮水河管理处,,46,38,36,32,26,82,,138,114,11,11,2,3,0.5,0.5
2025-08-15T0000,4216A,115.0924,35.7686,濮阳市,任丘路479号,颗粒物(PM10),57,64,51,39,33,69,,139,113,16,10,10,5,0.7,0.6
2025-08-15T0000,2601A,100.98,22.7633,普洱市,市环保局,,39,31,30,27,16,22,,56,36,7,7,6,7,0.5,0.5
2025-08-15T0000,2602A,100.9817,22.8322,普洱市,普洱第二中学,,28,24,28,19,13,11,,48,32,11,7,5,6,0.5,0.5
2025-08-15T0000,2262A,131.0518,45.8751,七台河市,新一中,,18,16,13,12,7,30,,106,65,20,10,9,10,0.7,0.8
2025-08-15T0000,3345A,131.0577,45.7879,七台河市,中波台,,23,13,24,3,8,73,,72,60,7,10,7,7,0.4,0.4
2025-08-15T0000,3637A,131.0176,45.7761,七台河市,人民广场,,25,,17,12,11,77,,78,64,8,8,10,10,0.4,0.4
2025-08-15T0000,3684A,130.8781,45.8222,七台河市,新建矿广场,,22,14,15,11,9,70,,80,65,10,8,9,10,0.5,0.4
2025-08-15T0000,1779A,123.9305,47.3636,齐齐哈尔市,安居小区,,16,16,23,3,6,35,,51,41,11,10,4,4,0.3,0.4
2025-08-15T0000,1780A,123.9488,47.3386,齐齐哈尔市,中心广场,,19,19,16,3,1,44,,68,50,10,8,6,6,0.3,0.4
2025-08-15T0000,1781A,123.9483,47.3227,齐齐哈尔市,农牧车辆厂,,27,27,25,12,6,41,,67,48,12,9,8,7,0.4,0.4
2025-08-15T0000,1783A,123.945,47.2988,齐齐哈尔市,市环境监测站,,15,15,15,7,4,40,,68,50,13,9,8,7,0.3,0.3
2025-08-15T0000,3662A,123.6333,47.2075,齐齐哈尔市,富区青少年活动中心,细颗粒物(PM2.5),83,92,34,61,16,30,,53,38,10,12,7,10,0.7,0.6
2025-08-15T0000,2591A,107.9783,26.5747,黔东南苗族侗族自治州,市环境监测站,,19,18,23,13,15,58,,66,61,3,6,4,3,0.3,0.3
2025-08-15T0000,2881A,107.8908,26.5311,黔东南苗族侗族自治州,凯里学院,,18,12,15,12,12,53,,79,61,13,11,4,2,0.4,0.4
2025-08-15T0000,2593A,107.5228,26.2403,黔南布依族苗族自治州,小围寨,,14,14,15,7,9,29,,70,51,8,7,2,2,0.3,0.3
2025-08-15T0000,3538A,107.5175,26.2978,黔南布依族苗族自治州,沙坝,,19,19,20,7,4,16,,67,44,10,8,4,4,0.3,0.3
2025-08-15T0000,2589A,104.9022,25.0925,黔西南布依族苗族自治州,场坝街,,40,40,26,15,12,63,,122,102,14,13,4,4,0.5,0.4
2025-08-15T0000,2590A,104.8811,25.0992,黔西南布依族苗族自治州,坪东大道,,43,33,25,30,14,46,,126,95,21,13,2,4,0.6,0.5
2025-08-15T0000,2502A,108.6236,21.9667,钦州市,市环保站,,,2,32,,17,81,,120,110,6,12,3,3,0.4,0.5
2025-08-15T0000,2503A,108.6549,21.9481,钦州市,沙埠小学,,,,43,9,20,76,,119,108,8,15,3,3,0.3,0.6
2025-08-15T0000,2504A,108.5989,21.7431,钦州市,港区一小,,25,21,43,10,15,80,,97,97,11,22,2,5,0.5,0.5
2025-08-15T0000,3404A,108.5959,21.9633,钦州市,北职校,,24,6,38,3,22,75,,112,101,5,13,1,3,0.4,0.6
2025-08-15T0000,1043A,119.7493,40.0116,秦皇岛市,第一关,,35,28,38,8,22,35,,159,94,69,28,4,5,0.3,0.5
2025-08-15T0000,1044A,119.5897,39.9499,秦皇岛市,监测站,,38,38,51,11,14,58,,163,107,35,21,4,6,0.5,0.6
2025-08-15T0000,1046A,119.5251,39.9041,秦皇岛市,建设大厦,,46,46,50,15,15,88,,154,108,20,17,5,7,0.4,0.6
2025-08-15T0000,3132A,119.610547,39.943889,秦皇岛市,文明里,,29,29,45,20,21,87,,155,113,18,17,4,6,0.3,0.5
2025-08-15T0000,4198A,119.5090,39.8253,秦皇岛市,北戴河轮滑馆,,37,37,54,25,30,77,,147,110,14,10,2,4,0.6,0.8
2025-08-15T0000,1307A,120.6659,36.2403,青岛市,仰口,,29,10,16,6,7,90,,91,82,3,6,9,9,0.7,0.8
2025-08-15T0000,1310A,120.4134,36.0658,青岛市,市南区东部子站,,27,9,12,3,7,86,,96,91,1,7,6,6,0.1,0.1
2025-08-15T0000,1311A,120.3664,36.1032,青岛市,四方区子站,,22,17,14,9,9,70,,97,85,12,11,2,2,0.2,0.2
2025-08-15T0000,1312A,120.2994,36.054,青岛市,市南区西部子站,,27,7,12,3,6,86,,87,85,8,15,4,4,0.6,0.6
2025-08-15T0000,1313A,120.4581,36.0858,青岛市,崂山区子站,,24,17,12,3,3,74,,96,87,7,11,7,7,0.2,0.2
2025-08-15T0000,1315A,120.3999,36.3083,青岛市,城阳区子站,,20,17,23,10,11,62,,98,72,12,17,5,6,0.5,0.5
2025-08-15T0000,1966A,120.0405,35.8735,青岛市,黄岛区4号,,33,6,14,3,3,103,,109,109,2,12,4,4,0.4,0.5
2025-08-15T0000,3362A,120.5014,36.4034,青岛市,即墨2号,,,10,17,6,9,93,,108,101,5,8,,3,0.2,0.2
2025-08-15T0000,3642A,120.3503,36.0736,青岛市,市北区南部,,26,12,13,3,6,83,,94,90,14,16,6,7,0.7,0.7
2025-08-15T0000,3643A,120.3948,36.1805,青岛市,李沧区北部,,21,19,12,12,9,19,,80,60,42,17,4,5,0.4,0.3
2025-08-15T0000,4290A,120.1969,35.9546,青岛市,珠江路669号,,21,14,19,10,9,65,,102,91,17,23,6,6,0.6,0.6
2025-08-15T0000,1702A,113.0426,23.691,清远市,环保大楼,,15,6,32,3,14,45,,57,44,12,13,7,7,0.7,0.8
2025-08-15T0000,1703A,113.0208,23.7106,清远市,凤城街办,,13,6,21,3,14,41,,52,37,12,15,5,6,0.5,0.6
2025-08-15T0000,3025A,113.0477,23.6344,清远市,技师学院,,11,6,22,3,12,34,,55,38,17,16,7,9,0.4,0.5
2025-08-15T0000,3318A,112.9903,23.7403,清远市,清新太和,,15,6,20,3,13,48,,54,40,10,13,5,7,0.5,0.6
2025-08-15T0000,3455A,113.076,23.7198,清远市,清城东城,,12,6,22,3,13,36,,48,39,10,11,6,6,0.5,0.6
2025-08-15T0000,2661A,107.6325,35.7357,庆阳市,庆阳五中,,40,35,38,18,15,125,,136,133,6,7,8,8,0.6,0.6
2025-08-15T0000,2662A,107.6364,35.7067,庆阳市,市环保局,,41,40,38,17,16,130,,144,139,4,6,6,5,1.0,0.9
2025-08-15T0000,1916A,103.7897,25.5035,曲靖市,环境监测站,,38,38,43,17,22,94,,133,112,17,16,10,13,0.7,0.9
2025-08-15T0000,1917A,103.8,25.5364,曲靖市,烟厂办公区,,31,31,41,10,20,89,,129,114,19,15,4,12,0.6,1
2025-08-15T0000,3376A,103.7947,25.462,曲靖市,南苑二区,,41,41,30,16,16,79,,137,114,16,11,4,5,0.8,0.7
2025-08-15T0000,3377A,103.7444,25.5261,曲靖市,曲靖师范学院,,38,38,38,25,23,50,,136,99,35,15,13,15,0.6,0.7
2025-08-15T0000,1264A,118.8692,28.9398,衢州市,环保大楼,,13,13,16,3,6,23,,64,39,8,9,3,2,0.2,0.2
2025-08-15T0000,1265A,118.8709,28.9666,衢州市,实验学校,,11,11,15,3,6,24,,64,40,7,8,3,2,0.2,0.2
2025-08-15T0000,1266A,118.8621,28.9808,衢州市,衢州学院,,13,13,13,3,6,19,,63,38,13,9,3,3,0.2,0.2
2025-08-15T0000,1611A,118.5819,24.9117,泉州市,涂山街,,20,20,21,10,10,23,,49,34,13,7,4,2,0.4,0.4
2025-08-15T0000,1612A,118.5972,24.8978,泉州市,津头埔,,,,22,,8,,,50,,,5,,2,,0.4
2025-08-15T0000,1613A,118.6663,24.9424,泉州市,万安,,24,24,26,10,9,19,,54,37,14,6,3,2,0.4,0.4
2025-08-15T0000,1614A,118.6117,24.9604,泉州市,清源山,,,,,,,,,,,,,,,,
2025-08-15T0000,3529A,118.6333,24.9264,泉州市,城华南路,,20,20,23,11,9,19,,53,34,14,8,4,3,0.3,0.3
2025-08-15T0000,2626A,88.8876,29.2718,日喀则市,日喀则监测站,,37,9,10,3,3,116,,137,130,7,7,9,9,0.3,0.3
2025-08-15T0000,3726A,88.8781,29.2426,日喀则市,林业技术推广中心,,38,12,10,3,3,121,,136,133,3,3,5,5,0.2,0.3
2025-08-15T0000,1659A,119.471,35.4209,日照市,监测站,,24,,11,6,7,75,,88,87,5,24,5,6,0.4,0.5
2025-08-15T0000,1660A,119.523,35.4216,日照市,市政府广场,,26,7,10,3,2,83,,95,94,2,10,4,5,0.6,0.7
2025-08-15T0000,1661A,119.5587,35.4044,日照市,港务局,,26,9,8,8,10,83,,99,97,4,10,7,7,0.5,0.6
2025-08-15T0000,3507A,119.5328,35.4625,日照市,职业技术学院,,24,6,9,3,6,76,,91,89,2,8,4,4,0.5,0.6
2025-08-15T0000,3604A,119.3266,35.1044,日照市,岚山环保分局,,23,12,15,3,3,72,,85,84,6,16,7,13,0.5,1.3
2025-08-15T0000,1835A,111.1922,34.7752,三门峡市,市政府,,34,34,38,15,20,85,,130,108,8,9,5,6,0.5,0.5
2025-08-15T0000,1836A,111.1587,34.7942,三门峡市,开发区,,34,34,37,19,23,84,,135,110,12,12,4,5,0.5,0.5
2025-08-15T0000,1838A,111.143,34.7955,三门峡市,风景区,,28,24,37,16,20,88,,141,111,8,8,4,4,0.4,0.7
2025-08-15T0000,3039A,111.1911,34.7829,三门峡市,三门峡市第一小学,,27,21,39,14,19,85,,132,108,8,9,2,4,0.5,0.5
2025-08-15T0000,3598A,111.1,34.7167,三门峡市,富达温泉假日酒店,,34,34,39,18,21,87,,128,110,6,6,3,4,0.3,0.3
2025-08-15T0000,2324A,117.6211,26.2625,三明市,三钢,,14,14,12,6,8,6,,44,22,14,8,1,3,0.5,0.7
2025-08-15T0000,2325A,117.635,26.2714,三明市,三明二中,,18,,20,12,9,6,,43,22,10,5,1,3,0.5,0.5
2025-08-15T0000,2326A,117.6028,26.2378,三明市,三元区政府,,22,17,11,15,6,4,,47,24,12,6,1,2,0.5,0.2
2025-08-15T0000,2327A,117.7275,26.3108,三明市,洋溪,,,,,,,,,,,,,,,,
2025-08-15T0000,1876A,109.5078,18.2489,三亚市,河东子站,,,,17,6,5,54,,62,55,2,4,3,3,0.5,0.5
2025-08-15T0000,1877A,109.4964,18.2681,三亚市,河西子站,,11,11,19,3,2,19,,39,13,6,9,2,2,0.4,0.5
2025-08-15T0000,3540A,109.7348,18.3443,三亚市,君悦子站,颗粒物(PM10),53,55,23,9,6,41,,64,43,8,9,2,1,0.4,0.4
2025-08-15T0000,2624A,91.7608,29.2313,山南市,山南监测站,,35,12,8,3,5,109,,127,124,5,5,2,2,0.2,0.2
2025-08-15T0000,2625A,91.7706,29.2436,山南市,山南人民医院,,32,11,13,7,6,102,,126,122,3,5,3,3,0.3,0.3
2025-08-15T0000,1674A,116.6794,23.3667,汕头市,金平子站,,,,7,,4,,,46,,,6,,1,,0.6
2025-08-15T0000,1675A,116.7244,23.3633,汕头市,龙湖子站,,21,21,10,3,3,25,,45,30,8,6,6,6,0.6,0.6
2025-08-15T0000,1676A,116.7258,23.2775,汕头市,濠江子站,,17,17,18,3,3,24,,43,30,3,4,4,4,0.5,0.5
2025-08-15T0000,1677A,116.7519,23.4714,汕头市,澄海子站,,18,18,13,6,7,20,,41,27,9,7,3,2,0.5,0.5
2025-08-15T0000,1678A,116.6092,23.2539,汕头市,潮阳子站,,12,12,12,3,5,24,,44,32,6,4,4,4,0.4,0.4
2025-08-15T0000,3444A,116.454,23.2684,汕头市,潮南峡山,,16,16,8,6,3,21,,41,30,9,6,5,5,0.6,0.6
2025-08-15T0000,3624A,116.4069,23.2533,汕头市,潮南子站,,18,18,8,8,3,20,,41,31,9,4,4,4,0.6,0.5
2025-08-15T0000,1693A,115.3653,22.775,汕尾市,市环保局,,11,11,10,3,4,29,,54,38,6,7,3,3,0.4,0.4
2025-08-15T0000,1694A,115.3706,22.7898,汕尾市,市政府,,19,19,10,6,3,26,,52,35,8,10,4,4,0.5,0.5
2025-08-15T0000,1695A,115.3622,22.7925,汕尾市,新城中学,,18,18,12,3,5,26,,52,36,7,8,4,4,0.4,0.4
2025-08-15T0000,2645A,109.9154,33.8715,商洛市,监测站,,21,21,29,11,16,66,,109,80,12,13,5,10,0.6,0.6
2025-08-15T0000,3045A,109.9643,33.8471,商洛市,商州区中学,,29,29,30,15,18,52,,105,70,18,13,6,14,0.5,0.6
2025-08-15T0000,2408A,115.6702,34.4285,商丘市,环境监测站,细颗粒物(PM2.5),53,,27,37,22,41,,96,68,15,12,1,1,0.5,0.5
2025-08-15T0000,2409A,115.6458,34.4045,商丘市,粮食局,,16,16,25,6,9,50,,98,74,11,8,3,3,0.5,0.5
2025-08-15T0000,2410A,115.6293,34.3948,商丘市,睢阳区环保局,,17,17,23,10,13,53,,97,74,9,8,4,4,0.4,0.4
2025-08-15T0000,3171A,115.6071,34.4465,商丘市,梁园区档案局,,22,19,27,15,16,42,,93,65,19,14,2,2,0.5,0.5
2025-08-15T0000,1141A,121.4,31.238,上海市,普陀,,19,19,20,3,6,14,,70,38,11,11,5,6,0.3,0.3
2025-08-15T0000,1142A,121.478,31.2036,上海市,十五厂,,18,18,23,3,8,14,,62,32,8,9,8,8,0.5,0.5
2025-08-15T0000,1143A,121.467,31.3008,上海市,虹口,,17,17,22,3,7,13,,60,31,10,6,5,5,0.3,0.3
2025-08-15T0000,1147A,121.425,31.2261,上海市,静安监测站,,18,18,23,6,7,17,,67,37,10,10,3,4,0.4,0.4
2025-08-15T0000,1148A,121.703,31.1907,上海市,浦东川沙,,19,19,22,3,6,13,,58,24,12,11,6,5,0.5,0.5
2025-08-15T0000,1149A,121.533,31.2284,上海市,浦东新区监测站,,,19,20,,4,11,,62,30,12,7,8,8,0.7,0.7
2025-08-15T0000,1150A,121.577,31.2071,上海市,浦东张江,,19,19,22,3,9,14,,70,34,16,10,6,6,0.5,0.5
2025-08-15T0000,3265A,121.4316,31.3322,上海市,宝山庙行,,13,13,20,3,6,11,,54,30,11,9,8,8,0.3,0.3
2025-08-15T0000,3266A,121.8791,31.4662,上海市,崇明上实东滩,,16,16,19,3,5,24,,40,27,11,10,4,4,0.4,0.4
2025-08-15T0000,3268A,121.3162,31.2838,上海市,嘉定南翔,,17,17,19,3,8,12,,66,36,9,9,4,4,0.2,0.2
2025-08-15T0000,3269A,121.3359,30.7456,上海市,金山新城,,17,17,18,3,6,14,,70,37,10,7,3,3,0.4,0.5
2025-08-15T0000,3270A,121.4996,31.0739,上海市,闵行浦江,,14,14,19,3,5,15,,63,32,6,7,4,5,0.6,0.6
2025-08-15T0000,3271A,121.2886,31.1663,上海市,青浦徐泾,,20,20,19,7,8,13,,71,40,8,7,7,6,0.5,0.5
2025-08-15T0000,3272A,121.2186,31.0378,上海市,松江图书馆,,12,12,16,6,7,14,,77,39,12,10,7,7,0.5,0.5
2025-08-15T0000,3273A,121.3902,31.2059,上海市,长宁仙霞,,20,20,20,3,5,14,,64,35,9,10,7,8,0.4,0.4
2025-08-15T0000,3274A,121.7965,31.0507,上海市,浦东惠南,,18,14,19,12,12,13,,54,26,12,8,10,10,0.5,0.5
2025-08-15T0000,3544A,121.4891,30.925,上海市,奉贤南桥新城,,20,20,24,6,8,12,,66,33,8,4,5,4,0.6,0.6
2025-08-15T0000,4183A,121.4174,31.16637,上海市,冠生园路458号,,18,18,19,3,6,18,,65,37,12,12,3,4,0.6,0.6
2025-08-15T0000,4205A,121.5419,31.2683,上海市,宁武路151号,,18,18,33,3,9,8,,54,24,16,13,3,3,0.5,0.5
2025-08-15T0000,2381A,118.005,28.4572,上饶市,百草园,,,,,,,,,,,,,,,,
2025-08-15T0000,2382A,117.9756,28.4436,上饶市,市监测站,,22,22,16,11,7,32,,58,46,10,4,6,4,0.4,0.4
2025-08-15T0000,2383A,117.9519,28.4628,上饶市,凤凰光学,,22,22,22,9,7,36,,56,47,8,6,17,7,0.9,1
