timepoint,stationcode,longitude,latitude,area,positionname,primarypollutant,aqi,pm10,pm10_24h,pm2_5,pm2_5_24h,o3,o3_24h,o3_8h,o3_8h_24h,no2,no2_24h,so2,so2_24h,co,co_24h
2025-05-04T1400,2566A,102.1879,31.914,阿坝藏族羌族自治州,州农科所,,28,10,27,9,13,87,,61,61,3,12,10,11,0.6,0.6
2025-05-04T1400,2568A,102.2502,31.8896,阿坝藏族羌族自治州,马师校,,30,15,16,3,12,96,,60,60,4,12,6,5,0.4,0.5
2025-05-04T1400,3994A,102.2165,31.9024,阿坝藏族羌族自治州,马尔康中学西区,,33,6,16,3,14,105,,70,70,2,4,5,5,0.3,0.4
2025-05-04T1400,2695A,80.292,41.1694,阿克苏地区,电视台,颗粒物(PM10),143,236,313,50,82,83,,80,79,5,5,6,5,0.4,0.5
2025-05-04T1400,2696A,80.2613,41.1551,阿克苏地区,艺术中心,颗粒物(PM10),196,342,377,79,90,91,,92,87,2,3,5,4,0.4,0.4
2025-05-04T1400,2204A,105.6467,38.8363,阿拉善盟,西城区西花园,颗粒物(PM10),105,160,83,46,38,104,,98,97,8,12,5,7,0.6,0.7
2025-05-04T1400,2205A,105.6985,38.8411,阿拉善盟,蒙二幼,颗粒物(PM10),83,116,84,30,28,88,,89,88,6,9,8,9,0.4,0.4
2025-05-04T1400,2206A,105.724,38.8516,阿拉善盟,环保局新楼,颗粒物(PM10),82,114,79,30,27,91,,96,95,4,4,8,9,0.5,0.5
2025-05-04T1400,2708A,88.1264,47.8517,阿勒泰地区,市站,,30,22,47,3,4,93,,86,76,3,5,4,3,0.1,0.2
2025-05-04T1400,2630A,80.1161,32.5,阿里地区,阿里监测站,,37,6,10,3,5,117,,99,93,2,9,6,6,0.4,0.4
2025-05-04T1400,3192A,80.0903,32.5028,阿里地区,阿里藏医院,,39,13,18,3,5,124,,113,104,2,3,6,6,0.3,0.4
2025-05-04T1400,2642A,109.0318,32.6537,安康市,香溪洞,,38,37,54,13,20,119,,113,113,5,6,8,8,0.7,0.7
2025-05-04T1400,2644A,109.0072,32.6975,安康市,汉滨区检察院,,42,42,68,18,25,130,,110,110,6,7,8,16,0.4,0.5
2025-05-04T1400,4054A,109.0325,32.6913,安康市,市邮政管理局,,41,41,65,14,23,130,,115,115,5,6,8,7,0.6,0.5
2025-05-04T1400,2291A,117.0809,30.5177,安庆市,环科院,臭氧1小时,62,62,61,29,28,169,,114,114,12,14,4,4,0.7,0.7
2025-05-04T1400,2292A,117.0331,30.5119,安庆市,马山宾馆,,50,49,54,31,28,159,,116,116,12,11,7,7,0.6,0.6
2025-05-04T1400,2294A,116.9896,30.6145,安庆市,安庆大学,,49,49,56,24,34,155,,116,116,11,12,6,5,0.5,0.5
2025-05-04T1400,3173A,117.0598,30.5351,安庆市,市人大,臭氧1小时,63,51,59,32,29,170,,123,123,16,14,8,9,0.5,0.5
2025-05-04T1400,3122A,105.9606,26.2611,安顺市,伍家关,,34,20,29,13,18,106,,82,82,4,7,3,3,0.3,0.4
2025-05-04T1400,3123A,105.9408,26.2431,安顺市,凤凰山,,33,26,36,15,28,105,,82,82,6,9,7,7,0.4,0.5
2025-05-04T1400,3124A,105.9439,26.2564,安顺市,金钟山,,35,24,47,15,26,110,,84,84,5,6,6,5,0.2,0.3
2025-05-04T1400,3125A,105.8983,26.2481,安顺市,娄家坡,,36,33,34,25,30,112,,85,85,4,6,7,6,0.5,0.5
2025-05-04T1400,1818A,114.4839,36.0621,安阳市,棉研所,,,,,,,,,,,,,,,,
2025-05-04T1400,1819A,114.3551,36.1017,安阳市,红庙街,,45,45,43,6,15,124,,98,98,1,7,2,3,0.3,0.3
2025-05-04T1400,1820A,114.361,36.0681,安阳市,银杏小区,颗粒物(PM10),57,64,53,15,20,128,,100,100,3,13,2,3,0.2,0.2
2025-05-04T1400,3141A,114.3922,36.0878,安阳市,信访局,颗粒物(PM10),62,73,68,3,16,131,,104,104,3,12,3,4,0.3,0.3
2025-05-04T1400,3669A,114.4705,36.0637,安阳市,左辅环卫站,,45,45,48,20,22,139,,98,98,7,17,3,5,0.5,0.5
2025-05-04T1400,3703A,114.2917,36.0949,安阳市,安钢职工学校,颗粒物(PM10),51,52,55,19,20,119,,96,96,6,11,2,6,0.3,0.4
2025-05-04T1400,1748A,123.044,41.1196,鞍山市,深沟寺,,31,25,44,8,15,97,,84,84,4,15,6,10,0.4,0.7
2025-05-04T1400,1749A,123.011,41.0931,鞍山市,太阳城,,29,14,44,6,15,90,,78,78,5,18,8,17,0.6,1.4
2025-05-04T1400,1750A,123.0485,41.1442,鞍山市,太平,,30,30,66,8,19,86,,75,75,6,19,8,13,0.5,0.9
2025-05-04T1400,1751A,122.9642,41.0971,鞍山市,铁西三道街,,30,30,59,13,19,95,,81,81,7,27,4,9,0.4,0.9
2025-05-04T1400,1753A,123.022,41.0821,鞍山市,明达新区,,29,22,44,10,15,92,,80,80,5,14,9,14,0.3,0.9
2025-05-04T1400,1754A,123.1289,41.0228,鞍山市,千山,,,,27,,5,,,71,,,10,,5,,0.5
2025-05-04T1400,4201A,122.9446,41.0826,鞍山市,兴盛南路290号,,29,25,68,9,19,92,,79,79,10,26,7,10,0.4,0.7
2025-05-04T1400,2195A,107.4212,40.761,巴彦淖尔市,附二中,颗粒物(PM10),82,113,51,41,17,88,,54,54,5,12,7,15,0.6,0.6
2025-05-04T1400,2196A,107.37,40.7372,巴彦淖尔市,市环保大楼,颗粒物(PM10),98,145,52,49,24,98,,64,64,5,12,4,6,0.4,0.4
2025-05-04T1400,1956A,86.1472,41.7538,巴音郭楞蒙古自治州,孔雀公园,颗粒物(PM10),500,651,206,199,53,79,,82,81,3,8,6,6,0.2,0.2
2025-05-04T1400,1957A,86.1972,41.7166,巴音郭楞蒙古自治州,棉纺厂,颗粒物(PM10),457,557,201,191,50,88,,84,82,4,7,2,2,0.2,0.2
2025-05-04T1400,1958A,86.2357,41.7173,巴音郭楞蒙古自治州,经济开发区,颗粒物(PM10),378,482,169,142,37,86,,82,78,4,5,6,6,0.1,0.1
2025-05-04T1400,2914A,106.7677,31.8794,巴中市,苏山坪,,40,40,72,28,34,96,,107,86,6,9,3,6,0.4,0.3
2025-05-04T1400,3181A,106.7768,31.8526,巴中市,市五中,,44,44,75,26,35,102,,62,62,8,16,6,7,0.5,0.5
2025-05-04T1400,3183A,106.7418,31.8654,巴中市,圣泉水务公司,,42,42,74,24,32,102,,61,61,7,25,6,7,0.5,0.5
2025-05-04T1400,3616A,106.7616,31.8344,巴中市,市中心医院,,48,48,75,32,37,99,,65,65,7,19,4,5,0.5,0.5
2025-05-04T1400,2235A,122.7911,45.6077,白城市,洮北区环保局,,28,16,20,3,8,87,,79,79,4,6,2,3,0.3,0.3
2025-05-04T1400,2236A,122.8738,45.5725,白城市,市环保局,,28,6,12,3,8,89,,82,82,2,3,1,2,0.3,0.3
2025-05-04T1400,2231A,126.4219,41.9171,白山市,喜丰,,28,19,20,6,9,88,,65,65,6,11,5,7,0.3,0.4
2025-05-04T1400,2232A,126.4077,41.9419,白山市,环保局,,,11,22,7,9,83,,73,73,,13,4,4,0.3,0.4
2025-05-04T1400,2647A,104.1724,36.5446,白银市,第三小学,颗粒物(PM10),272,400,392,15,77,120,,103,103,3,8,6,24,0.1,0.6
2025-05-04T1400,2648A,104.1465,36.5482,白银市,动力公司,颗粒物(PM10),134,218,332,21,85,120,,103,103,4,12,6,16,0.3,0.4
2025-05-04T1400,2512A,106.6103,23.9011,百色市,市监测站,颗粒物(PM10),67,84,48,23,30,117,,73,73,9,13,8,13,0.5,0.6
2025-05-04T1400,2513A,106.6538,23.8859,百色市,市中心血站,颗粒物(PM10),58,65,53,31,37,114,,72,72,7,14,8,15,0.7,0.8
2025-05-04T1400,3406A,106.6085,23.8798,百色市,祈福高中,,42,42,51,23,29,110,,62,62,7,15,9,12,0.8,0.8
2025-05-04T1400,2270A,117.396,32.939,蚌埠市,工人疗养院,臭氧1小时,64,56,49,17,16,171,,120,120,9,18,6,7,0.7,0.7
2025-05-04T1400,2271A,117.3605,32.9427,蚌埠市,百货大楼,颗粒物(PM10),58,66,49,14,15,163,,118,118,12,19,8,7,0.6,0.5
2025-05-04T1400,2273A,117.4185,32.8911,蚌埠市,蚌埠学院,颗粒物(PM10),59,68,43,14,18,165,,116,116,9,14,6,6,0.6,0.5
2025-05-04T1400,2274A,117.3533,32.9673,蚌埠市,淮上区政府,臭氧1小时,57,56,48,18,20,165,,111,111,14,19,7,7,0.3,0.3
2025-05-04T1400,2275A,117.3145,32.8977,蚌埠市,高新区,颗粒物(PM10),56,61,42,20,18,164,,116,116,9,12,8,6,0.5,0.4
2025-05-04T1400,3715A,117.3092,32.9314,蚌埠市,蚌埠田家炳中学,臭氧1小时,68,63,48,20,20,174,,125,125,9,14,8,7,0.4,0.3
2025-05-04T1400,1585A,109.8756,40.6532,包头市,市环境监测站,颗粒物(PM10),53,56,44,13,16,80,,42,42,23,41,16,17,0.6,0.7
2025-05-04T1400,1587A,109.9991,40.5842,包头市,包头八中,颗粒物(PM10),60,69,54,23,25,80,,52,52,25,37,14,21,0.6,0.9
2025-05-04T1400,1588A,109.8538,40.6821,包头市,青山宾馆,颗粒物(PM10),51,52,45,22,24,82,,40,40,23,37,18,16,0.7,0.6
2025-05-04T1400,1589A,109.8642,40.6288,包头市,惠龙物流,,42,42,42,21,18,78,,45,45,25,34,17,19,0.7,0.7
2025-05-04T1400,1590A,110.0377,40.5546,包头市,东河鸿龙湾,颗粒物(PM10),52,54,60,25,23,79,,54,54,21,35,14,16,0.5,0.6
2025-05-04T1400,3283A,109.9154,40.5685,包头市,滨河大厦,颗粒物(PM10),53,56,43,26,21,77,,54,54,20,37,17,17,0.6,0.6
2025-05-04T1400,3419A,109.9447,40.6261,包头市,包头市委党校,,44,44,39,21,16,86,,44,44,17,32,15,17,0.5,0.7
2025-05-04T1400,3683A,109.8331,40.6576,包头市,昆区政府,颗粒物(PM10),53,56,40,23,21,85,,46,46,24,38,13,14,0.6,0.7
2025-05-04T1400,1930A,107.185,34.3063,宝鸡市,庙沟村,颗粒物(PM10),59,68,68,29,29,144,,,,6,6,11,11,0.6,0.6
2025-05-04T1400,1931A,107.0708,34.3017,宝鸡市,竹园沟,颗粒物(PM10),60,70,70,28,24,135,,98,98,11,10,12,9,0.5,0.4
2025-05-04T1400,1932A,107.1906,34.3672,宝鸡市,三陆医院,颗粒物(PM10),62,74,76,32,29,142,,90,90,16,21,13,9,0.5,0.4
2025-05-04T1400,1933A,107.1431,34.3547,宝鸡市,监测站,颗粒物(PM10),67,84,80,35,32,135,,90,90,16,14,13,6,0.5,0.3
2025-05-04T1400,1934A,107.1186,34.3739,宝鸡市,技工学校,颗粒物(PM10),68,86,77,29,33,144,,96,96,13,12,15,9,0.6,0.5
2025-05-04T1400,1935A,107.3906,34.3528,宝鸡市,陈仓区环保局家属楼,颗粒物(PM10),69,87,78,36,32,152,,111,111,12,16,12,24,0.7,0.6
2025-05-04T1400,1936A,107.2058,34.3497,宝鸡市,文理学院,颗粒物(PM10),63,76,78,38,29,144,,95,95,12,15,14,9,0.5,0.4
2025-05-04T1400,1937A,107.2386,34.3622,宝鸡市,三迪小学,颗粒物(PM10),66,82,84,36,34,144,,94,94,11,15,14,8,0.7,0.5
2025-05-04T1400,1051A,115.493,38.8632,保定市,游泳馆,颗粒物(PM10),65,79,53,34,26,161,,99,99,8,18,9,5,0.3,0.2
2025-05-04T1400,1052A,115.5213,38.8959,保定市,华电二区,臭氧1小时,53,50,42,20,20,162,,102,102,4,9,7,5,0.2,0.2
2025-05-04T1400,1053A,115.4713,38.9108,保定市,接待中心,颗粒物(PM10),52,54,48,28,20,147,,89,89,5,11,6,4,0.4,0.3
2025-05-04T1400,1054A,115.4612,38.8416,保定市,地表水厂,颗粒物(PM10),58,66,62,33,21,159,,93,93,9,18,7,4,0.3,0.2
2025-05-04T1400,3581A,115.31981,38.95208,保定市,满城区生态环境分局,臭氧1小时,65,68,60,29,22,172,,104,104,7,14,6,4,0.4,0.3
2025-05-04T1400,3582A,115.47694,38.76408,保定市,清苑区第二中学,颗粒物(PM10),61,72,62,35,21,158,,96,96,4,15,9,6,0.4,0.3
2025-05-04T1400,3583A,115.62909,39.02311,保定市,徐水物探局,颗粒物(PM10),54,57,62,36,21,162,,92,92,37,25,4,3,0,0
2025-05-04T1400,4004A,115.4202,38.8656,保定市,双鹰农机,,,54,54,,21,159,,94,94,6,14,4,9,0.3,0.3
2025-05-04T1400,4034A,115.5150,38.8590,保定市,植保所站,颗粒物(PM10),56,61,56,21,20,153,,94,94,3,11,1,3,0.4,0.4
2025-05-04T1400,2594A,99.1678,25.1081,保山市,市环境监测站,,,,13,11,14,100,,61,61,5,8,,6,0.4,0.4
2025-05-04T1400,2595A,99.1711,25.1328,保山市,市环保局,,35,10,16,8,9,110,,71,71,3,5,7,7,0.4,0.4
2025-05-04T1400,1866A,109.2262,21.588,北海市,牛尾岭水库,,23,23,18,16,11,63,,25,,3,4,6,8,0.5,0.5
2025-05-04T1400,1867A,109.1436,21.4086,北海市,海滩公园,,32,32,28,10,10,79,,58,58,4,6,5,5,0.6,0.6
2025-05-04T1400,1868A,109.0981,21.4661,北海市,新市环保局,,25,25,24,7,11,59,,57,57,5,8,3,3,0.4,0.5
2025-05-04T1400,1869A,109.1778,21.5233,北海市,北海工业园,,33,33,28,12,15,62,,51,51,4,9,7,7,0.4,0.4
2025-05-04T1400,3400A,109.1911,21.4415,北海市,龙潭自来水厂,,35,,23,24,16,70,,54,54,4,7,7,7,0.4,0.4
2025-05-04T1400,1001A,116.3621,39.8784,北京市,万寿西宫,,49,49,41,24,16,141,,84,84,10,16,8,6,0.6,0.5
2025-05-04T1400,1002A,116.2202,40.2915,北京市,定陵,,,,,,,,,,,,,,,,
2025-05-04T1400,1003A,116.4174,39.9289,北京市,东四,颗粒物(PM10),54,58,44,21,15,126,,78,78,11,16,4,3,0.4,0.3
2025-05-04T1400,1004A,116.4072,39.8863,北京市,天坛,颗粒物(PM10),51,52,39,22,15,128,,73,73,11,15,3,2,0.5,0.5
2025-05-04T1400,1005A,116.462,39.9365,北京市,农展馆,颗粒物(PM10),52,54,40,21,14,116,,68,68,12,16,4,2,0.4,0.4
2025-05-04T1400,1006A,116.3392,39.9295,北京市,官园,颗粒物(PM10),53,56,47,28,15,113,,71,71,12,19,6,5,0.3,0.3
2025-05-04T1400,1007A,116.2878,39.9611,北京市,海淀万柳,颗粒物(PM10),63,75,56,21,15,108,,64,64,7,15,6,5,0.3,0.3
2025-05-04T1400,1008A,116.6636,40.135,北京市,顺义新城,颗粒物(PM10),61,71,38,24,13,116,,81,81,8,15,9,6,0.2,0.2
2025-05-04T1400,1009A,116.6275,40.3275,北京市,怀柔镇,,31,19,19,3,6,99,,72,72,1,5,3,2,0.2,0.2
2025-05-04T1400,1010A,116.2296,40.217,北京市,昌平镇,,31,27,24,7,8,97,,56,56,3,13,3,3,0.2,0.2
2025-05-04T1400,1011A,116.3966,39.9821,北京市,奥体中心,,44,44,33,13,11,107,,70,70,14,22,4,4,0.2,0.2
2025-05-04T1400,3281A,115.9718,40.4529,北京市,延庆夏都,,30,21,20,10,8,96,,68,68,8,15,3,3,0.3,0.3
2025-05-04T1400,3418A,116.8336,40.4095,北京市,密云新城,,30,14,20,6,8,95,,74,74,3,8,3,3,0.4,0.4
2025-05-04T1400,3671A,116.088,39.9726,北京市,门头沟三家店,,,,,,,,,,,,,,,,
2025-05-04T1400,3672A,116.1541,39.8204,北京市,丰台云岗,颗粒物(PM10),59,68,52,32,16,134,,75,75,11,19,5,3,0.3,0.2
2025-05-04T1400,3673A,116.6804,39.9081,北京市,通州东关,颗粒物(PM10),56,61,46,26,16,133,,77,77,5,13,6,5,0.4,0.4
2025-05-04T1400,3674A,115.9577,39.7603,北京市,房山燕山,颗粒物(PM10),60,69,46,24,14,121,,75,75,16,16,3,2,0.3,0.2
2025-05-04T1400,3675A,116.4672,39.7733,北京市,大兴旧宫,细颗粒物(PM2.5),65,61,52,47,22,150,,77,77,7,15,4,2,0.3,0.2
2025-05-04T1400,3694A,115.986,40.4563,北京市,延庆石河营,,28,24,19,8,8,88,,62,62,5,12,2,2,0.3,0.3
2025-05-04T1400,3695A,116.6151,40.3053,北京市,怀柔新城,,31,19,17,7,8,98,,72,72,1,4,1,2,0.2,0.2
2025-05-04T1400,3696A,116.2545,39.8768,北京市,丰台小屯,,49,49,42,26,17,118,,67,67,13,23,4,2,0.4,0.3
2025-05-04T1400,3697A,116.84,40.3844,北京市,密云镇,,32,12,21,7,8,100,,76,76,3,16,5,5,0.2,0.3
2025-05-04T1400,4182A,116.1942,39.9158,北京市,八角北路9号,颗粒物(PM10),61,72,63,34,21,117,,70,70,12,27,5,3,0.1,0
2025-05-04T1400,4194A,117.0790,40.1518,北京市,洳河巡河路,颗粒物(PM10),52,53,35,26,15,118,,80,80,11,15,5,3,0.4,0.3
2025-05-04T1400,1761A,123.8275,41.3064,本溪市,大峪,,37,37,47,12,18,100,,87,87,6,17,7,7,0.4,0.5
2025-05-04T1400,1762A,123.7567,41.3325,本溪市,溪湖,,35,35,64,8,21,101,,87,87,7,16,4,4,0.5,0.7
2025-05-04T1400,1763A,123.7169,41.3094,本溪市,彩屯,,34,34,45,10,18,101,,88,88,7,15,9,10,0.4,0.6
2025-05-04T1400,1764A,123.7669,41.2864,本溪市,东明,,,42,57,12,16,97,,85,85,,25,8,9,0.5,0.8
2025-05-04T1400,1765A,123.7992,41.2664,本溪市,新立屯,,34,34,45,10,13,101,,87,87,7,23,6,8,0.4,0.6
2025-05-04T1400,1766A,123.8142,41.3472,本溪市,威宁,,38,38,64,10,16,99,,85,85,2,18,5,5,0.4,0.5
2025-05-04T1400,2587A,105.2864,27.3125,毕节市,八中,,31,20,62,12,41,97,,62,62,7,10,8,6,0.4,0.6
2025-05-04T1400,2588A,105.31,27.2944,毕节市,师专,,,,73,12,42,100,,66,66,8,16,12,9,0.5,0.7
2025-05-04T1400,4263A,105.3688,27.3598,毕节市,工业大道,,34,28,61,18,38,107,,80,80,12,15,11,8,0.6,0.7
2025-05-04T1400,1629A,118.0018,37.3617,滨州市,第二水厂,,,,53,,16,139,,101,101,4,20,9,11,0.3,0.3
2025-05-04T1400,1630A,117.9776,37.393,滨州市,北中新校,,,27,33,,19,141,,108,108,8,20,6,9,0.1,0.1
2025-05-04T1400,3514A,117.9378,37.3956,滨州市,中海酒店,,,,29,14,22,140,,69,69,6,17,8,20,0.5,0.7
2025-05-04T1400,3515A,117.9378,37.3553,滨州市,开发区一中,颗粒物(PM10),62,73,52,22,18,139,,102,102,11,24,6,7,0.3,0.4
2025-05-04T1400,3516A,118.0917,37.694,滨州市,金海六路,,48,32,40,31,24,151,,102,102,8,27,10,9,0.1,0.2
2025-05-04T1400,4028A,117.9956,37.3753,滨州市,滨州市西街道办事处,,48,29,43,22,20,153,,114,114,7,19,6,8,0.1,0.1
2025-05-04T1400,2311A,115.8072,33.8399,亳州市,污水处理厂,,49,38,39,10,12,156,,114,114,7,15,2,5,0.3,0.3
2025-05-04T1400,2312A,115.7789,33.8518,亳州市,三国揽胜宫,,50,40,42,11,15,160,,118,118,4,11,5,7,0.3,0.3
2025-05-04T1400,3332A,115.7633,33.8034,亳州市,亳州学院,臭氧1小时,52,35,33,11,10,161,,124,124,8,12,3,4,0.4,0.3
2025-05-04T1400,2693A,82.0485,44.8556,博尔塔拉蒙古自治州,市党校,,34,31,22,17,12,108,,63,63,7,16,5,4,0.6,0.7
2025-05-04T1400,2694A,82.0806,44.8969,博尔塔拉蒙古自治州,市环保局,,33,32,32,9,11,103,,62,62,13,14,2,2,0.8,0.7
2025-05-04T1400,1071A,116.8842,38.2991,沧州市,沧县城建局,,41,33,38,23,26,131,,104,104,6,17,8,4,0.3,0.3
2025-05-04T1400,1072A,116.8584,38.3254,沧州市,电视转播站,颗粒物(PM10),62,73,43,24,16,131,,106,106,11,16,3,4,0.2,0.2
2025-05-04T1400,1073A,116.8709,38.3228,沧州市,市环保局,颗粒物(PM10),62,73,41,24,21,132,,113,113,6,11,3,3,0.3,0.3
2025-05-04T1400,3324A,116.8136,38.3004,沧州市,河北水利电力学院,颗粒物(PM10),52,53,38,14,14,138,,107,107,7,19,4,4,0.3,0.2
2025-05-04T1400,2622A,97.1806,31.1273,昌都市,昌都监测站,,35,13,6,3,6,109,,97,92,1,4,3,3,0.2,0.2
2025-05-04T1400,3719A,97.1714,31.1406,昌都市,昌都会议中心,,37,11,9,3,7,118,,101,97,3,4,4,3,0.2,0.2
2025-05-04T1400,2690A,88.1236,43.8886,昌吉回族自治州,天山天池,,,,11,,4,86,,71,71,5,4,5,4,0.5,0.5
2025-05-04T1400,2692A,87.2717,44.0297,昌吉回族自治州,新区政务中心,,33,21,19,8,7,104,,68,68,7,8,8,7,0.2,0.3
2025-05-04T1400,3613A,87.3095,44.0142,昌吉回族自治州,亚心广场,,31,14,22,3,4,97,,68,68,11,15,8,7,0.2,0.2
2025-05-04T1400,1119A,125.3325,43.9166,长春市,食品厂,,27,14,21,7,14,86,,69,69,8,22,4,4,0.3,0.4
2025-05-04T1400,1120A,125.2863,43.9027,长春市,客车厂,,27,15,18,7,14,85,,71,71,10,21,5,5,0.2,0.3
2025-05-04T1400,1121A,125.2841,43.8463,长春市,邮电学院,,29,8,16,6,15,92,,75,75,5,19,6,5,0.4,0.5
2025-05-04T1400,1122A,125.3716,43.8772,长春市,劳动公园,,29,8,20,6,14,91,,78,78,3,16,6,6,0.2,0.3
2025-05-04T1400,1123A,125.3297,43.8805,长春市,园林处,,28,15,17,6,11,89,,74,74,5,17,6,6,0.2,0.3
2025-05-04T1400,1124A,125.4605,43.79,长春市,净月潭,,28,12,17,7,11,87,,68,68,5,9,6,6,0.2,0.3
2025-05-04T1400,1125A,125.7194,43.515,长春市,甩湾子,,,,,,,,,,,,,,,,
2025-05-04T1400,1126A,125.3863,43.8447,长春市,经开区环卫处,,28,15,25,3,10,87,,74,74,6,21,5,6,0.3,0.4
2025-05-04T1400,1127A,125.245,43.7783,长春市,高新区管委会,,28,12,19,6,13,89,,76,76,6,15,6,6,0.1,0.2
2025-05-04T1400,1128A,125.1761,43.8325,长春市,岱山公园,,28,11,17,6,14,89,,73,73,4,19,4,4,0.2,0.3
2025-05-04T1400,1335A,113.0833,28.2325,长沙市,经开区环保局,颗粒物(PM10),63,75,69,41,25,80,,88,71,24,19,6,7,0.6,0.5
2025-05-04T1400,1336A,112.8872,28.2189,长沙市,高开区环保局,细颗粒物(PM2.5),73,53,65,53,26,83,,92,74,9,8,6,7,0.6,0.5
2025-05-04T1400,1337A,113.0792,28.2053,长沙市,马坡岭,细颗粒物(PM2.5),65,59,71,47,30,88,,89,74,22,18,5,6,0.6,0.5
2025-05-04T1400,1338A,112.9394,28.19,长沙市,湖南师范大学,细颗粒物(PM2.5),62,61,63,44,25,92,,93,74,15,12,2,3,0.5,0.4
2025-05-04T1400,1339A,113.0178,28.1322,长沙市,雨花区环保局,颗粒物(PM10),56,62,67,38,28,91,,94,73,16,13,6,6,0.1,0.1
2025-05-04T1400,1340A,112.9792,28.2597,长沙市,伍家岭,颗粒物(PM10),53,56,66,36,23,76,,88,70,15,13,4,5,0.5,0.5
2025-05-04T1400,1341A,113.0014,28.1944,长沙市,火车新站,颗粒物(PM10),60,69,68,39,26,94,,87,73,20,15,8,8,0.6,0.5
2025-05-04T1400,1342A,112.9844,28.1178,长沙市,天心区环保局,细颗粒物(PM2.5),58,51,64,41,31,94,,93,71,18,16,4,4,0.8,0.7
2025-05-04T1400,1343A,112.8908,28.1308,长沙市,湖南中医药大学,颗粒物(PM10),53,55,64,31,29,91,,92,72,11,10,4,4,0.5,0.5
2025-05-04T1400,1344A,112.9581,28.3611,长沙市,沙坪,颗粒物(PM10),53,56,59,29,25,66,,80,66,11,11,6,7,0.6,0.6
2025-05-04T1400,1727A,113.1147,36.1547,长治市,清华站,颗粒物(PM10),60,70,46,9,13,126,,118,118,6,10,6,7,0.5,0.6
2025-05-04T1400,1730A,113.0886,36.2125,长治市,审计局,颗粒物(PM10),52,53,37,7,12,129,,118,118,11,14,8,9,0.2,0.3
2025-05-04T1400,1731A,113.0844,36.1856,长治市,长治八中,,47,47,43,12,20,125,,116,116,10,12,8,9,0.4,0.5
2025-05-04T1400,2845A,113.1569,36.1911,长治市,德盛苑,,40,36,40,19,19,125,,117,117,6,10,5,6,0.3,0.4
2025-05-04T1400,3568A,113.06,36.0464,长治市,向阳小学,细颗粒物(PM2.5),84,,61,62,20,132,,120,120,8,13,11,12,0.1,0.3
2025-05-04T1400,3569A,112.8792,36.3144,长治市,屯留一中,,45,45,44,10,17,130,,96,96,4,11,9,9,0.4,0.4
2025-05-04T1400,4189A,113.1131,36.19948,长治市,英华南巷50号,,42,42,38,9,15,130,,120,120,3,6,5,6,0.3,0.5
2025-05-04T1400,4190A,113.2367,36.3344,长治市,学府街1号,,44,44,47,15,17,130,,109,109,6,27,2,6,0.4,0.7
2025-05-04T1400,1854A,111.6975,28.9703,常德市,市二中,,50,50,61,30,30,136,,95,95,12,13,9,8,0.8,0.8
2025-05-04T1400,1857A,111.7158,29.1456,常德市,白鹤山,,,,,,,,,,,,,,,,
2025-05-04T1400,3138A,111.7153,29.0289,常德市,武陵区永安,细颗粒物(PM2.5),62,53,64,44,31,134,,106,106,10,10,11,10,0.6,0.5
2025-05-04T1400,3139A,111.6892,28.9881,常德市,鼎城区玉霞,细颗粒物(PM2.5),53,52,70,37,30,139,,99,99,7,9,7,6,0.6,0.6
2025-05-04T1400,3140A,111.6625,29.0531,常德市,武陵区长庚,,49,49,61,29,29,141,,105,105,10,10,11,11,0.8,0.7
2025-05-04T1400,1196A,119.9633,31.762,常州市,市监测站,颗粒物(PM10),52,54,40,21,14,140,,113,113,18,16,10,10,0.8,0.7
2025-05-04T1400,1200A,119.9468,31.7069,常州市,武进监测站,,44,32,35,14,11,139,,110,110,21,20,7,10,0.5,0.6
2025-05-04T1400,1201A,119.9255,31.9087,常州市,安家,,43,42,38,16,12,137,,111,111,13,15,9,11,0.1,0.2
2025-05-04T1400,3002A,119.9805,31.8174,常州市,行政中心,,44,44,32,17,11,134,,111,111,16,15,15,14,0.3,0.4
2025-05-04T1400,3003A,120.0522,31.7748,常州市,经开区,,44,36,41,12,10,140,,116,116,19,19,10,10,0.4,0.5
2025-05-04T1400,3010A,119.9025,31.7964,常州市,钟楼,,45,45,32,14,11,140,,114,114,18,16,8,8,0.5,0.5
2025-05-04T1400,3429A,119.8598,31.7066,常州市,武进经发区,,44,39,34,15,14,138,,112,112,12,12,9,9,0.6,0.7
2025-05-04T1400,3430A,119.5826,31.7245,常州市,金坛城区,,47,31,31,15,14,150,,122,122,12,13,8,8,0.4,0.4
2025-05-04T1400,2220A,120.4318,41.5881,朝阳市,西梁,,28,23,45,3,19,88,,73,73,4,21,7,7,0.3,0.4
2025-05-04T1400,2221A,120.4521,41.5646,朝阳市,河畔小区,,28,15,32,6,18,88,,74,74,4,12,6,6,0.2,0.3
2025-05-04T1400,2222A,120.4176,41.5648,朝阳市,八里堡,,27,20,42,6,15,85,,71,71,5,21,5,6,0.2,0.3
2025-05-04T1400,2223A,120.3806,41.5969,朝阳市,农业园区,,28,11,30,3,15,89,,83,83,3,13,6,6,0.2,0.3
2025-05-04T1400,1705A,116.6367,23.6719,潮州市,西园路,,40,,42,28,31,82,,66,66,4,10,4,5,0.4,0.6
2025-05-04T1400,3026A,116.6183,23.6608,潮州市,市政府,,31,31,45,15,27,76,,71,71,4,11,4,5,0.6,0.8
2025-05-04T1400,4036A,116.6461,23.6761,潮州市,金山,,33,33,44,20,30,73,,58,58,6,14,7,8,0.6,0.7
2025-05-04T1400,2472A,113.0073,25.9061,郴州市,马头岭,,35,35,47,19,19,48,,54,54,14,19,8,8,0.6,0.5
2025-05-04T1400,2473A,113.0116,25.8226,郴州市,市职中,细颗粒物(PM2.5),55,,40,39,29,46,,51,51,14,12,5,4,0.8,0.7
2025-05-04T1400,2475A,113.0383,25.8071,郴州市,市审计局,,46,32,37,32,28,52,,51,47,11,13,5,9,0.7,0.6
2025-05-04T1400,2476A,113.0348,25.7759,郴州市,市环保局,,36,36,43,20,34,48,,54,47,11,12,8,10,0.7,0.6
2025-05-04T1400,4252A,113.0138,25.8011,郴州市,好美居路49号,细颗粒物(PM2.5),58,49,37,41,29,54,,54,54,15,14,10,10,0.9,0.7
2025-05-04T1400,1431A,103.9728,30.7236,成都市,金泉两河,颗粒物(PM10),74,97,72,22,30,170,,74,74,6,25,4,4,0.7,0.8
2025-05-04T1400,1432A,104.176,30.6872,成都市,十里店,细颗粒物(PM2.5),83,88,77,61,41,175,,94,94,7,31,6,5,0.5,0.6
2025-05-04T1400,1433A,104.079,30.5706,成都市,三瓦窑,颗粒物(PM10),68,86,68,41,34,168,,68,68,17,44,6,6,0.6,0.6
2025-05-04T1400,1434A,104.1114,30.63,成都市,沙河铺,颗粒物(PM10),66,81,71,42,39,140,,69,69,10,29,8,8,0.6,0.7
2025-05-04T1400,1437A,104.0786,30.6531,成都市,君平街,颗粒物(PM10),65,79,70,46,36,137,,64,64,12,32,8,8,0.8,0.8
2025-05-04T1400,1438A,103.613,31.0283,成都市,灵岩寺,,,,,,,,,,,,,,,,
2025-05-04T1400,2880A,104.0239,30.65639,成都市,大石西路,细颗粒物(PM2.5),62,69,70,44,34,157,,70,70,14,36,7,7,0.4,0.4
2025-05-04T1400,3136A,104.2725,30.5589,成都市,龙泉驿区区政府,细颗粒物(PM2.5),64,75,59,46,28,152,,114,114,10,18,6,6,0.6,0.5
2025-05-04T1400,3357A,104.0106,30.6931,成都市,金博路,颗粒物(PM10),57,63,58,31,26,154,,66,66,9,29,9,9,0.4,0.5
2025-05-04T1400,3359A,104.0578,30.5225,成都市,华阳,细颗粒物(PM2.5),83,88,62,61,44,152,,68,68,12,30,8,8,0.8,0.8
2025-05-04T1400,3488A,104.3853,30.7453,成都市,青白江技师分院,细颗粒物(PM2.5),64,72,70,46,36,162,,107,107,12,31,3,3,0.4,0.3
2025-05-04T1400,3489A,104.0789,30.4072,成都市,科学城,细颗粒物(PM2.5),77,80,71,56,42,142,,72,72,10,24,5,5,0.7,0.6
2025-05-04T1400,4011A,103.8506,30.6947,成都市,光华大道三段,臭氧1小时,99,68,72,31,38,199,,84,84,11,26,3,3,0.6,0.7
2025-05-04T1400,4224A,104.2433,30.5353,成都市,鲸龙路1057号,,,94,71,61,40,149,,86,86,,36,7,6,0.7,0.6
2025-05-04T1400,1062A,117.9531,40.9081,承德市,铁路,,29,12,24,3,6,90,,56,56,7,16,5,3,0.3,0.3
2025-05-04T1400,1063A,117.9392,40.9763,承德市,中国银行,,29,6,26,3,8,92,,62,62,3,12,7,3,0.3,0.3
2025-05-04T1400,1064A,117.9503,40.928,承德市,开发区,,30,13,21,11,14,93,,58,58,7,15,8,5,0.3,0.3
2025-05-04T1400,1065A,117.8051,40.9655,承德市,文化中心,,29,15,44,3,12,92,,62,62,8,19,24,7,0.6,0.4
2025-05-04T1400,1066A,117.9268,41.0026,承德市,离宫,,30,,23,15,20,93,,66,66,6,10,2,2,0.3,0.2
2025-05-04T1400,2314A,117.47,30.6618,池州市,池州学院,臭氧1小时,52,50,54,22,26,161,,123,123,16,14,8,8,0.5,0.5
2025-05-04T1400,3237A,117.4918,30.6617,池州市,展览馆,臭氧1小时,59,56,53,22,26,167,,125,125,13,12,8,7,0.5,0.5
2025-05-04T1400,3333A,117.5627,30.695,池州市,第八中学,臭氧1小时,57,60,55,26,25,165,,122,122,10,10,6,7,0.4,0.5
2025-05-04T1400,3334A,117.5038,30.6243,池州市,第十二中学,颗粒物(PM10),53,56,57,27,24,158,,118,118,7,10,4,5,0.6,0.6
2025-05-04T1400,1744A,118.9233,42.2816,赤峰市,松山一中,,27,10,25,3,8,85,,76,76,11,21,11,10,0.4,0.5
2025-05-04T1400,1745A,118.9576,42.2728,赤峰市,哈达街,,29,10,26,8,7,90,,73,73,10,23,10,10,0.4,0.4
2025-05-04T1400,1746A,118.8788,42.2554,赤峰市,天义路,,28,26,26,6,10,87,,79,79,14,18,7,7,0.4,0.4
2025-05-04T1400,3058A,119.2658,42.0353,赤峰市,银河街,,26,15,25,3,11,82,,71,71,7,11,15,16,0.4,0.4
2025-05-04T1400,3286A,118.9359,42.3147,赤峰市,桥北物流园区,,27,,22,15,8,86,,74,74,6,19,8,7,0.2,0.2
2025-05-04T1400,2521A,107.3476,22.4136,崇左市,市环保局江州分局,细颗粒物(PM2.5),54,54,48,38,33,105,,53,53,4,10,6,9,0.5,0.5
2025-05-04T1400,4256A,107.3750,22.3736,崇左市,石景林东路7号,细颗粒物(PM2.5),65,48,43,47,35,114,,62,62,7,10,5,7,0.5,0.5
2025-05-04T1400,2298A,118.3093,32.3153,滁州市,老年大学,臭氧1小时,59,44,39,20,17,167,,131,131,8,13,2,2,0.3,0.3
2025-05-04T1400,2299A,118.3244,32.2786,滁州市,人大宾馆,臭氧1小时,60,50,38,19,15,168,,131,131,10,12,9,9,0.2,0.3
2025-05-04T1400,3207A,118.3118,32.3038,滁州市,市政府原办公楼,臭氧1小时,59,48,35,18,16,167,,131,131,9,13,5,6,0.2,0.3
2025-05-04T1400,3331A,118.3267,32.2634,滁州市,图书馆,颗粒物(PM10),53,56,44,26,20,159,,125,125,8,10,8,9,0.3,0.4
2025-05-04T1400,2605A,101.5482,25.0441,楚雄彝族自治州,州环境监测站,,37,12,11,3,8,118,,89,89,5,7,6,6,0.4,0.4
2025-05-04T1400,2606A,101.538,25.0492,楚雄彝族自治州,市经济开发区,,36,6,15,3,10,113,,86,86,5,8,6,7,0.5,0.5
2025-05-04T1400,2548A,107.5277,31.2827,达州市,达州职业技术学院,,44,44,69,21,31,66,,33,32,10,26,6,6,0.5,0.6
2025-05-04T1400,2549A,107.5086,31.2186,达州市,市环境监测站,,39,39,67,24,30,63,,66,58,19,33,5,6,0.4,0.4
2025-05-04T1400,2550A,107.4988,31.2132,达州市,凤凰小区,,46,46,69,22,32,68,,75,72,16,33,6,7,0.4,0.5
2025-05-04T1400,2551A,107.5082,31.1986,达州市,达县机关宾馆,,41,41,71,8,27,48,,54,40,22,40,5,6,0.4,0.5
2025-05-04T1400,2552A,107.4644,31.2124,达州市,市政中心,,41,41,72,19,28,63,,64,61,13,40,2,3,0.4,0.5
2025-05-04T1400,2614A,100.1542,25.7054,大理白族自治州,大理市环境监测站,,32,10,9,9,17,102,,85,85,4,6,7,7,0.3,0.2
2025-05-04T1400,2615A,100.2171,25.5811,大理白族自治州,大理古城,,36,10,19,7,12,113,,84,84,5,10,8,8,0.4,0.4
2025-05-04T1400,1109A,121.612,38.9741,大连市,甘井子,颗粒物(PM10),52,53,42,9,12,103,,97,90,12,19,5,6,0.3,0.3
2025-05-04T1400,1110A,121.565,38.9511,大连市,周水子,,38,38,51,7,12,94,,94,87,8,11,8,7,0.4,0.4
2025-05-04T1400,1111A,121.5637,38.8845,大连市,星海三站,颗粒物(PM10),56,62,27,32,11,99,,100,95,20,11,6,4,0.4,0.3
2025-05-04T1400,1112A,121.6302,38.9117,大连市,青泥洼桥,,33,24,27,10,11,104,,104,96,5,9,8,7,0.1,0.1
2025-05-04T1400,1113A,121.6251,38.8638,大连市,傅家庄,颗粒物(PM10),55,59,31,30,12,106,,102,98,19,12,7,5,0.4,0.3
2025-05-04T1400,1114A,121.5213,38.8661,大连市,七贤岭,颗粒物(PM10),52,53,37,20,10,112,,102,98,14,10,8,7,0.5,0.4
2025-05-04T1400,1115A,121.2529,38.8061,大连市,旅顺,,43,43,30,26,13,73,,64,63,27,25,7,6,0.5,0.4
2025-05-04T1400,1116A,121.7485,39.1311,大连市,金州,,33,20,29,10,12,105,,88,84,11,17,7,7,0.5,0.5
2025-05-04T1400,1117A,121.7811,39.0496,大连市,开发区,,38,38,33,10,14,94,,78,78,13,22,6,6,0.3,0.4
2025-05-04T1400,1118A,121.9762,39.0631,大连市,双D港,,36,24,27,8,10,115,,101,101,6,11,8,8,0.2,0.3
2025-05-04T1400,1789A,124.81117,46.03138,大庆市,大同区,,45,45,20,9,15,76,,65,65,2,7,4,4,0.4,0.4
2025-05-04T1400,1790A,125.129,46.533,大庆市,龙凤区,,24,23,24,12,13,74,,66,66,11,10,5,4,0.5,0.3
2025-05-04T1400,1791A,124.902,46.408,大庆市,红岗区,,37,37,22,15,11,83,,68,68,2,5,6,6,0.2,0.3
2025-05-04T1400,1792A,125.153,46.586,大庆市,萨尔图区,,37,37,25,3,8,70,,62,62,6,7,5,6,0.5,0.3
2025-05-04T1400,1793A,124.9042,46.6215,大庆市,让胡路区,,23,16,19,8,13,73,,64,64,5,6,5,6,0.3,0.3
2025-05-04T1400,3481A,125.141,46.634,大庆市,萨区政府监测点,,27,15,21,3,4,84,,70,70,1,4,5,5,0.3,0.3
2025-05-04T1400,1721A,113.3819,40.1097,大同市,果树场,,38,38,31,9,12,98,,66,66,13,22,6,7,0.3,0.3
2025-05-04T1400,1723A,113.2994,40.0758,大同市,云冈宾馆,,38,38,37,13,15,107,,74,74,18,22,10,10,0.6,0.8
2025-05-04T1400,1724A,113.3444,40.0917,大同市,大同大学,,34,29,29,11,12,106,,74,74,14,27,10,12,0.4,0.5
2025-05-04T1400,1725A,113.2661,40.1269,大同市,安家小村,,36,36,44,16,14,99,,72,72,20,21,22,21,0.3,0.9
2025-05-04T1400,1726A,113.2711,40.0844,大同市,教育学院,,37,37,39,22,19,100,,68,68,19,22,11,12,0.4,0.7
2025-05-04T1400,3282A,113.3397,40.0597,大同市,大同市卫生学校,,37,37,31,12,14,98,,68,68,13,20,8,9,0.5,0.8
2025-05-04T1400,3565A,113.1367,40.1122,大同市,云冈站,颗粒物(PM10),53,56,52,25,18,113,,73,73,17,21,14,16,0.2,0.3
2025-05-04T1400,3566A,113.1186,40.2556,大同市,图书馆,,37,37,30,14,11,102,,71,71,13,11,12,10,0.3,0.3
2025-05-04T1400,3567A,113.5931,40.0461,大同市,区一中,,31,28,25,8,9,98,,76,76,15,11,14,14,0.4,0.4
2025-05-04T1400,4199A,113.2798,40.0997,大同市,魏都大道141号,,50,50,49,16,15,106,,74,74,19,25,15,16,0.6,1
2025-05-04T1400,2269A,124.1069,50.4097,大兴安岭地区,科技局,,25,22,17,16,14,79,,77,77,2,2,4,4,0.3,0.3
2025-05-04T1400,3663A,124.1164,50.4278,大兴安岭地区,红旗社区,,25,9,4,7,5,78,,75,75,2,2,4,4,0.3,0.3
2025-05-04T1400,1600A,124.3303,40.0625,丹东市,江湾东路,,33,31,38,7,20,103,,67,67,2,18,5,7,0.3,0.8
2025-05-04T1400,1601A,124.4256,40.1503,丹东市,临江后街,,30,17,29,3,13,96,,65,65,4,12,5,6,0.4,0.6
2025-05-04T1400,1602A,124.3933,40.1461,丹东市,元宝山,,29,19,32,8,16,92,,62,62,3,15,7,8,0.5,0.6
2025-05-04T1400,1603A,124.3633,40.1092,丹东市,民主桥,,32,32,37,7,17,97,,63,63,8,25,5,6,0.6,0.8
2025-05-04T1400,3541A,109.5726,19.5167,儋州市,第一中学子站,,20,15,27,14,16,64,,44,44,2,5,5,6,0.5,0.6
2025-05-04T1400,3542A,109.5567,19.5187,儋州市,东坡学校子站,,24,24,26,12,15,60,,44,44,1,5,3,5,0.5,0.6
2025-05-04T1400,2616A,98.5842,24.428,德宏傣族景颇族自治州,德宏州监测站,,30,18,27,14,13,93,,45,45,5,8,8,7,0.4,0.6
2025-05-04T1400,3677A,98.5881,24.4368,德宏傣族景颇族自治州,芒市人民政府综合楼,,33,29,36,12,13,103,,48,48,6,9,5,5,0.4,0.5
2025-05-04T1400,1901A,104.4239,31.1208,德阳市,东山公园,颗粒物(PM10),57,63,75,39,37,133,,97,97,7,17,6,7,0.8,0.8
2025-05-04T1400,1902A,104.3826,31.1317,德阳市,西小区,颗粒物(PM10),60,69,79,39,40,142,,96,96,10,25,6,7,0.8,0.8
2025-05-04T1400,1904A,104.3553,31.1091,德阳市,耐火材料厂,"颗粒物(PM10),细颗粒物(PM2.5)",57,64,82,40,38,146,,98,98,9,23,7,7,0.6,0.6
2025-05-04T1400,3639A,104.4019,31.1244,德阳市,市教育局,颗粒物(PM10),58,66,78,39,38,148,,103,103,8,21,7,8,0.6,0.7
2025-05-04T1400,1622A,116.3032,37.4674,德州市,儿童乐园,颗粒物(PM10),65,80,57,27,17,152,,116,116,7,11,12,9,0.5,0.3
2025-05-04T1400,1624A,116.2991,37.4451,德州市,监理站,细颗粒物(PM2.5),67,73,53,48,17,153,,114,114,8,12,12,8,0.6,0.4
2025-05-04T1400,3066A,116.2721,37.4379,德州市,九衢泉纯净水厂,颗粒物(PM10),65,80,50,29,25,148,,103,103,10,20,12,9,0.8,0.7
2025-05-04T1400,3371A,116.3728,37.4403,德州市,开发区人民医院,颗粒物(PM10),64,78,56,36,17,132,,97,97,5,16,10,8,0.7,0.6
2025-05-04T1400,3372A,116.3572,37.4094,德州市,太阳城中学,,,95,54,,25,152,,115,115,7,19,9,6,0.5,0.4
2025-05-04T1400,3511A,116.5652,37.3319,德州市,陵城艺术中心,,,,55,,12,142,,104,104,7,14,,5,0.3,0.1
2025-05-04T1400,2621A,99.7056,27.8317,迪庆藏族自治州,迪庆州站,,32,10,19,3,11,100,,82,82,7,9,5,5,0.3,0.4
2025-05-04T1400,3180A,99.7136,27.8094,迪庆藏族自治州,质量技术监督局,,34,13,14,6,8,107,,86,86,6,9,3,4,0.5,0.6
2025-05-04T1400,4257A,104.6092,35.5962,定西市,将台街,颗粒物(PM10),129,207,308,25,69,117,,77,77,5,17,4,5,,0
2025-05-04T1400,4309A,104.6159,35.5701,定西市,正龙路62号,颗粒物(PM10),139,228,250,43,53,114,,84,84,4,10,8,9,0.2,0.3
2025-05-04T1400,1389A,113.7547,23.0494,东莞市,莞城梨川,,28,,26,12,21,88,,66,66,4,13,5,5,0.5,0.6
2025-05-04T1400,1390A,113.7944,23.0128,东莞市,东城石井,,,14,28,11,17,83,,56,56,6,18,3,3,,0.6
2025-05-04T1400,1391A,113.7383,22.9658,东莞市,南城西平,,26,12,24,12,14,81,,62,62,8,17,2,2,0.4,0.5
2025-05-04T1400,3319A,113.7338,23.0381,东莞市,万江金泰,,23,13,26,8,18,71,,48,48,3,13,5,5,0.5,0.6
2025-05-04T1400,3626A,113.7533,23.0202,东莞市,南城元岭,,26,14,24,9,18,83,,62,62,2,12,2,2,0.6,0.6
2025-05-04T1400,3627A,113.7875,23.0457,东莞市,东城主山,,27,16,30,8,18,84,,59,59,10,19,4,4,0.4,0.4
2025-05-04T1400,1666A,118.6614,37.4309,东营市,市环保局,臭氧1小时,69,44,38,14,13,175,,110,110,18,31,9,8,0.5,0.5
2025-05-04T1400,3036A,118.6904,37.4338,东营市,开发区管委会,臭氧1小时,68,45,47,22,15,174,,104,104,13,25,8,6,0.5,0.5
2025-05-04T1400,3365A,118.5719,37.565,东营市,垦利区民丰路,,44,27,44,9,18,140,,104,104,16,32,5,6,0.5,0.6
2025-05-04T1400,3498A,118.5055,37.8612,东营市,河口城区,,44,31,40,3,17,139,,101,101,15,23,8,8,0.5,0.8
2025-05-04T1400,3646A,118.4978,37.4623,东营市,胜利站,,40,34,52,12,20,126,,94,94,24,36,9,11,0.5,0.7
2025-05-04T1400,3734A,118.35,37.26,东营市,理想之城,,49,34,48,7,17,154,,99,99,12,32,6,6,0.5,0.5
2025-05-04T1400,1591A,110.0023,39.8129,鄂尔多斯市,综合楼,,30,29,41,9,8,93,,83,83,17,25,5,8,0.4,0.4
2025-05-04T1400,1592A,109.9486,39.8261,鄂尔多斯市,巴音孟克林场办事处,,32,29,36,19,14,100,,88,88,12,22,7,10,0.4,0.4
2025-05-04T1400,1593A,109.7736,39.5986,鄂尔多斯市,康泽苑,,30,27,39,12,20,94,,57,57,12,23,6,8,0.3,0.4
2025-05-04T1400,1594A,109.8119,39.5989,鄂尔多斯市,华泰汽车城,,36,36,41,14,12,88,,55,55,11,36,6,8,0.3,0.4
2025-05-04T1400,1595A,109.9734,39.7884,鄂尔多斯市,奥林花园,,,31,45,19,12,82,,69,69,24,39,,9,0.5,0.4
2025-05-04T1400,2436A,114.8938,30.3994,鄂州市,市政府,臭氧1小时,69,67,56,31,27,175,,129,129,12,21,10,9,0.6,0.5
2025-05-04T1400,2437A,114.8989,30.3714,鄂州市,赵家坝,臭氧1小时,59,61,60,25,24,167,,126,126,11,17,7,7,0.8,0.7
2025-05-04T1400,3654A,114.8094,30.4089,鄂州市,精准医疗中心,臭氧1小时,73,65,52,32,24,178,,125,125,18,16,16,8,1.2,0.7
2025-05-04T1400,2454A,109.4978,30.2981,恩施土家族苗族自治州,湖北民院,颗粒物(PM10),52,53,82,25,33,80,,105,74,8,7,6,6,0.6,0.5
2025-05-04T1400,2455A,109.4707,30.2798,恩施土家族苗族自治州,州电力总公司,,40,40,68,27,35,94,,114,71,8,11,4,5,0.4,0.4
2025-05-04T1400,3549A,109.5061,30.3772,恩施土家族苗族自治州,龙凤新区,,46,46,64,28,30,72,,83,60,7,6,6,6,0.6,0.5
2025-05-04T1400,2499A,108.3411,21.6158,防城港市,沙万,,38,38,27,12,13,41,,34,34,2,9,1,2,0.5,0.5
2025-05-04T1400,2500A,108.3514,21.7731,防城港市,防城档案局,,34,34,29,16,16,49,,39,39,1,4,1,3,0.4,0.5
2025-05-04T1400,2501A,108.3506,21.6414,防城港市,大海花园,,32,32,28,12,12,54,,49,49,1,5,2,2,0.3,0.4
2025-05-04T1400,1371A,113.1294,23.0067,佛山市,湾梁,,34,19,27,16,15,106,,67,67,9,19,7,7,0.6,0.6
2025-05-04T1400,1372A,113.1083,23.0478,佛山市,华材职中,,35,24,27,13,17,110,,72,72,9,16,8,7,0.4,0.5
2025-05-04T1400,1373A,113.144,23.0453,佛山市,南海气象局,,34,34,31,17,20,103,,61,61,7,18,1,1,0.5,0.5
2025-05-04T1400,1374A,113.2881,22.8094,佛山市,顺德苏岗,,33,33,31,12,16,95,,65,65,7,14,6,5,0.6,0.6
2025-05-04T1400,1376A,112.8383,22.8678,佛山市,高明孔堂,,24,14,27,14,16,76,,52,52,4,9,5,5,0.5,0.6
2025-05-04T1400,1377A,112.8836,23.1588,佛山市,三水监测站,,29,27,31,20,22,75,,41,41,12,31,5,4,0.4,0.5
2025-05-04T1400,1378A,112.867,23.185,佛山市,三水云东海,,28,22,46,10,24,89,,53,53,13,29,2,2,0.4,0.6
2025-05-04T1400,3625A,113.2544,22.7642,佛山市,容桂街道办,,24,22,25,14,20,76,,56,56,9,17,5,5,0.6,0.7
2025-05-04T1400,1280A,119.3903,26.0543,福州市,鼓山,,,,53,,28,,,148,,,6,,2,,0.4
2025-05-04T1400,1282A,119.2681,26.0504,福州市,师大,,47,47,63,19,34,133,,128,124,14,15,5,5,0.4,0.5
2025-05-04T1400,1283A,119.2984,26.1028,福州市,五四北路,颗粒物(PM10),53,55,59,22,33,130,,136,132,16,14,4,4,0.5,0.6
2025-05-04T1400,1284A,119.2648,26.0768,福州市,杨桥西路,颗粒物(PM10),55,59,77,18,35,134,,127,122,12,14,4,4,0.3,0.4
2025-05-04T1400,1285A,119.317,26.0746,福州市,紫阳,颗粒物(PM10),60,70,73,20,35,120,,126,114,21,20,6,6,0.3,0.4
2025-05-04T1400,3048A,119.5799,26.0936,福州市,九龙,,38,26,47,8,25,121,,129,118,7,9,4,5,0.2,0.4
2025-05-04T1400,3526A,119.5189,25.9664,福州市,吴航,,41,28,53,12,26,129,,134,125,7,10,4,5,0.6,0.8
2025-05-04T1400,1755A,123.7977,41.8491,抚顺市,望花区,,33,22,65,10,20,103,,88,88,8,23,4,6,0.4,0.5
2025-05-04T1400,1756A,123.9161,41.8822,抚顺市,顺城区,,33,28,51,8,17,104,,87,87,8,24,6,6,0.3,0.4
2025-05-04T1400,1757A,124.0436,41.8611,抚顺市,东洲区,,31,29,42,10,14,98,,80,80,8,14,5,6,0.3,0.4
2025-05-04T1400,1758A,123.9247,41.8642,抚顺市,新抚区,,36,36,46,11,14,91,,77,77,7,18,6,6,0.3,0.4
2025-05-04T1400,1759A,124.0972,41.8961,抚顺市,大伙房水库,,32,26,31,7,11,100,,83,83,4,9,7,8,0.4,0.5
2025-05-04T1400,1760A,123.7086,41.8391,抚顺市,沈抚新城,,32,20,58,8,16,100,,85,85,6,20,6,7,0.3,0.4
2025-05-04T1400,2376A,116.2127,28.0814,抚州市,桐源党溪,颗粒物(PM10),62,74,62,42,31,74,,78,78,2,3,15,8,0.7,0.5
2025-05-04T1400,2377A,116.3544,27.9831,抚州市,市站,颗粒物(PM10),63,76,60,38,31,60,,75,65,10,9,8,6,0.9,0.7
2025-05-04T1400,2378A,116.3565,27.963,抚州市,血防站,颗粒物(PM10),64,77,60,43,30,62,,84,72,10,9,2,2,0.8,0.7
2025-05-04T1400,2379A,116.3564,28.0007,抚州市,采茶剧团,颗粒物(PM10),60,69,64,33,33,65,,75,63,4,8,3,5,0.9,1
2025-05-04T1400,2380A,116.385,27.9647,抚州市,医学分院,颗粒物(PM10),60,69,61,37,32,60,,76,66,3,4,5,7,1.1,1.1
2025-05-04T1400,2207A,121.6094,41.998,阜新市,工业园区,,29,17,42,3,15,90,,84,84,3,16,8,9,0.3,0.4
2025-05-04T1400,2208A,121.6697,42.0279,阜新市,长青街,,29,6,30,3,15,91,,84,84,5,13,6,6,0.3,0.3
2025-05-04T1400,2209A,121.6673,42.0705,阜新市,农业园区,,27,14,30,3,5,86,,79,79,2,4,6,6,0.4,0.4
2025-05-04T1400,2210A,121.6717,42.0224,阜新市,东苑,,29,23,53,3,17,91,,83,83,2,11,8,9,0.4,0.4
2025-05-04T1400,2211A,121.6506,42.0498,阜新市,玉龙新城,,29,10,43,3,11,90,,83,83,3,13,7,7,0.3,0.4
2025-05-04T1400,2301A,115.8277,32.8929,阜阳市,市监测站,颗粒物(PM10),57,64,42,21,20,151,,105,105,8,14,9,9,0.3,0.3
2025-05-04T1400,2303A,115.8554,32.8605,阜阳市,开发区,颗粒物(PM10),52,53,52,19,16,155,,109,109,12,18,8,8,0.3,0.3
2025-05-04T1400,2875A,115.784,32.8892,阜阳市,阜阳职业技术学院,臭氧1小时,52,37,35,21,18,161,,116,116,7,10,7,7,0.4,0.3
2025-05-04T1400,3468A,115.7901,32.8613,阜阳市,市规划展馆,臭氧1小时,54,49,38,21,20,163,,117,117,6,9,8,9,0.3,0.3
2025-05-04T1400,3469A,115.836,32.9183,阜阳市,枣园社区,颗粒物(PM10),53,56,40,19,18,155,,106,106,8,12,9,9,0.5,0.4
2025-05-04T1400,2669A,102.9099,34.9841,甘南藏族自治州,州政府,颗粒物(PM10),115,179,61,60,25,80,,60,60,3,14,8,8,0.3,0.3
2025-05-04T1400,3380A,102.8914,34.9617,甘南藏族自治州,甘肃民族师范学院,颗粒物(PM10),116,182,68,50,23,91,,62,62,4,21,7,7,0.6,0.4
2025-05-04T1400,2570A,101.9603,30.0475,甘孜藏族自治州,水桥子,,28,9,13,6,8,88,,41,41,9,20,5,5,0.2,0.2
2025-05-04T1400,3065A,101.9533,29.9972,甘孜藏族自治州,州环保局,,32,10,15,3,6,101,,45,45,5,21,1,1,0.0,0.1
2025-05-04T1400,3414A,115.8347,28.932,赣江新区,桑海产业园,颗粒物(PM10),59,68,80,38,35,140,,118,118,2,4,7,6,0.5,0.5
2025-05-04T1400,2362A,114.9017,25.9149,赣州市,通天岩,,36,36,37,12,9,84,,64,64,6,5,3,3,1.1,1.1
2025-05-04T1400,2363A,114.9367,25.8664,赣州市,地委,,43,43,44,24,27,78,,46,46,8,13,3,4,1.1,1.1
2025-05-04T1400,2364A,114.9461,25.8481,赣州市,气象台,,40,40,43,24,21,80,,50,50,7,14,7,10,0.3,0.4
2025-05-04T1400,2365A,114.9322,25.8333,赣州市,市图书馆,,33,27,34,23,23,64,,46,45,6,10,3,5,0.5,0.5
2025-05-04T1400,2366A,114.8905,25.8471,赣州市,华坚鞋城,,49,43,37,34,22,68,,51,51,7,10,6,7,0.6,0.6
2025-05-04T1400,3109A,115.0093,25.8613,赣州市,赣县区卫计委,,46,39,39,32,25,75,,45,45,2,7,3,4,1.3,1.2
2025-05-04T1400,2683A,106.2319,36.1417,固原市,马园,颗粒物(PM10),500,712,340,18,74,111,,88,88,5,17,4,5,0.5,0.6
2025-05-04T1400,2684A,106.2792,36.0022,固原市,监测站,颗粒物(PM10),127,204,204,19,55,105,,91,91,3,9,5,6,0.2,0.3
2025-05-04T1400,2685A,106.2375,36.0211,固原市,新区,颗粒物(PM10),140,230,198,15,43,105,,86,86,1,9,6,6,0.3,0.4
2025-05-04T1400,3522A,106.2177,35.9959,固原市,原州区十五小,颗粒物(PM10),56,62,165,14,48,104,,88,88,4,10,9,10,0.2,0.3
2025-05-04T1400,2543A,106.6308,30.5278,广安市,小平旧居,,,,,,,,,,,,,,,,
2025-05-04T1400,2544A,106.6303,30.4576,广安市,市委,,28,10,58,6,32,87,,94,92,5,14,4,7,0.4,0.5
2025-05-04T1400,2545A,106.6271,30.4663,广安市,友谊中学,,30,9,56,8,27,95,,99,98,10,18,2,4,0.7,0.7
2025-05-04T1400,2547A,106.6388,30.4551,广安市,广电花园,,27,8,51,6,30,86,,100,96,6,14,6,7,0.4,0.5
2025-05-04T1400,2902A,106.6351,30.4865,广安市,北辰小学,,27,7,53,3,29,85,,98,95,8,14,6,8,0.4,0.5
2025-05-04T1400,2523A,105.8945,32.4535,广元市,黑石坡,颗粒物(PM10),71,92,102,31,32,85,,90,70,16,15,5,6,0.4,0.4
2025-05-04T1400,2524A,105.821,32.4444,广元市,老城,细颗粒物(PM2.5),68,66,91,49,33,83,,60,60,14,33,3,5,0.7,0.7
2025-05-04T1400,2526A,105.8628,32.4287,广元市,监测站,,39,35,69,27,33,104,,68,64,7,18,5,9,0.5,0.5
2025-05-04T1400,3617A,105.8047,32.4166,广元市,经开区,颗粒物(PM10),54,57,114,33,48,103,,48,48,10,33,6,14,0.7,0.8
2025-05-04T1400,1345A,113.2347,23.1423,广州市,广雅中学,,,29,32,,20,120,,74,74,9,22,4,3,0.5,0.5
2025-05-04T1400,1346A,113.2612,23.105,广州市,市五中,,36,30,31,18,20,115,,68,68,6,13,1,1,0.9,0.9
2025-05-04T1400,1348A,113.3478,23.0916,广州市,广东商学院,,35,23,27,16,20,109,,72,72,12,21,4,4,0.6,0.6
2025-05-04T1400,1349A,113.4332,23.1047,广州市,市八十六中,,30,20,27,11,16,94,,61,61,10,29,2,2,0.6,0.6
2025-05-04T1400,1350A,113.3505,22.9483,广州市,番禺中学,,31,26,29,15,19,98,,72,72,10,18,5,5,0.7,0.7
2025-05-04T1400,1351A,113.2146,23.3916,广州市,花都师范,,41,34,37,24,24,130,,71,71,11,19,4,4,0.6,0.7
2025-05-04T1400,1352A,113.2597,23.1331,广州市,市监测站,,36,33,31,17,19,113,,69,69,10,18,4,4,0.4,0.4
2025-05-04T1400,1353A,113.5618,23.312,广州市,九龙镇镇龙,,37,32,40,19,24,116,,54,54,16,28,6,6,0.4,0.5
2025-05-04T1400,1354A,113.2765,23.1544,广州市,麓湖,,36,28,31,17,20,114,,70,70,9,17,5,4,0.6,0.6
2025-05-04T1400,1355A,113.443,23.3035,广州市,帽峰山森林公园,,,28,31,,2,,,50,50,10,15,6,7,0.6,0.7
2025-05-04T1400,2846A,113.3221,23.1322,广州市,体育西,,,30,32,22,21,104,,69,69,15,21,,4,0.4,0.5
2025-05-04T1400,3298A,113.5717,23.5491,广州市,从化街口,,40,27,41,20,29,127,,69,69,11,16,6,6,0.5,0.6
2025-05-04T1400,3299A,113.3472,23.3692,广州市,白云竹料,,41,31,36,18,23,130,,75,75,11,19,2,3,0.6,0.6
2025-05-04T1400,3300A,113.2981,23.237,广州市,白云嘉禾,,39,30,32,19,23,124,,70,70,18,27,5,5,0.8,0.8
2025-05-04T1400,3301A,113.4256,23.1716,广州市,黄埔科学城,,29,22,27,13,19,92,,56,56,9,18,2,3,0.5,0.5
2025-05-04T1400,3302A,113.3942,23.0483,广州市,番禺大学城,,30,28,37,11,19,96,,70,70,11,18,6,6,0.6,0.7
2025-05-04T1400,3303A,113.4922,22.8168,广州市,南沙黄阁,,29,29,29,10,20,79,,59,59,4,10,4,5,0.7,0.8
2025-05-04T1400,3304A,113.5342,22.7896,广州市,南沙街,,28,28,30,8,19,78,,60,60,6,14,5,5,0.6,0.7
2025-05-04T1400,3443A,113.2902,23.5544,广州市,花都梯面,,38,23,39,18,24,120,,64,64,16,20,4,4,0.7,0.7
2025-05-04T1400,3445A,113.7858,23.7478,广州市,从化良口,,40,32,34,28,27,59,,40,40,5,8,6,6,0.7,0.7
2025-05-04T1400,3446A,113.8051,23.2614,广州市,增城荔城,,31,15,47,10,33,99,,76,76,7,18,7,7,0.2,0.4
2025-05-04T1400,2505A,109.568,23.1478,贵港市,德智高中,,,,,,,,,,,,,,,,
2025-05-04T1400,2506A,109.6047,23.0666,贵港市,江南子站,,34,34,32,22,19,94,,48,48,5,13,3,3,0.6,0.6
2025-05-04T1400,2508A,109.5669,23.1065,贵港市,荷城子站,,33,33,32,19,15,82,,51,51,8,12,5,5,0.2,0.2
2025-05-04T1400,3405A,109.5886,23.1172,贵港市,新世纪学校,,39,39,31,23,18,89,,54,54,9,11,8,7,0.9,0.9
2025-05-04T1400,4260A,109.5933,23.0951,贵港市,中山路155-3号,,40,40,35,24,20,94,,52,52,8,13,3,3,0.6,0.5
2025-05-04T1400,1439A,106.6899,26.5998,贵阳市,马鞍山,,27,19,20,3,4,85,,54,54,6,9,5,5,0.6,0.7
2025-05-04T1400,1441A,106.6243,26.6266,贵阳市,鉴湖路,,30,27,27,17,12,93,,72,72,7,12,5,5,0.4,0.4
2025-05-04T1400,1442A,106.7487,26.6343,贵阳市,燕子冲,,32,22,25,22,18,97,,71,71,8,11,5,2,0.3,0.3
2025-05-04T1400,1443A,106.6555,26.4365,贵阳市,碧云窝,,34,34,31,9,10,92,,64,64,5,9,5,5,0.3,0.4
2025-05-04T1400,1445A,106.7109,26.6027,贵阳市,红边门,,31,31,27,19,16,93,,75,75,6,7,3,4,0.3,0.3
2025-05-04T1400,1446A,106.7164,26.5699,贵阳市,新华路,,30,22,21,12,15,93,,75,75,6,10,35,22,0.4,0.4
2025-05-04T1400,1447A,106.674,26.5424,贵阳市,太慈桥,,27,22,19,9,9,86,,55,55,9,13,6,5,0.1,0.2
2025-05-04T1400,1552A,106.805,26.3003,贵阳市,桐木岭,,39,34,32,27,18,86,,86,82,2,2,1,1,0.8,0.8
2025-05-04T1400,4230A,106.6882,26.5695,贵阳市,花果园大街66号,,28,19,20,14,16,87,,69,69,6,11,4,4,0.2,0.2
2025-05-04T1400,4231A,106.6873,26.5169,贵阳市,漓江路57号,,26,17,20,12,10,82,,63,63,10,11,8,8,0.2,0.2
2025-05-04T1400,1862A,110.4144,25.3167,桂林市,电子科大尧山校区,,,,,,,,,,,,,,,,
2025-05-04T1400,1864A,110.3089,25.2708,桂林市,龙隐路小学,,31,16,35,15,28,98,,83,77,4,8,8,10,0.5,0.6
2025-05-04T1400,1865A,110.2869,25.2178,桂林市,八中,,30,21,37,12,27,93,,76,72,6,11,3,3,0.6,0.7
2025-05-04T1400,3531A,110.296,25.1253,桂林市,旅游学院,,28,6,23,3,19,88,,70,70,4,10,3,3,0.6,0.7
2025-05-04T1400,4222A,110.1835,25.2444,桂林市,环湖路276号,,25,,34,9,25,79,,65,62,6,12,6,9,0.3,0.3
2025-05-04T1400,4301A,110.2803,25.2773,桂林市,信义路13号,,32,16,41,3,23,101,,85,78,6,13,1,3,0.4,0.5
2025-05-04T1400,2674A,100.2561,34.4714,果洛藏族自治州,玛沁县大武镇,,45,45,36,16,15,100,,69,69,1,4,16,25,0.3,0.4
2025-05-04T1400,1129A,126.5422,45.755,哈尔滨市,岭北,,27,8,12,3,9,84,,75,75,7,11,11,13,0.7,0.7
2025-05-04T1400,1130A,126.561,45.8167,哈尔滨市,松北商大,,25,16,18,3,9,77,,66,66,6,12,6,6,0.4,0.4
2025-05-04T1400,1131A,126.979,45.5419,哈尔滨市,阿城会宁,,25,25,27,9,13,79,,67,67,10,15,7,7,0.4,0.4
2025-05-04T1400,1132A,126.599,45.7222,哈尔滨市,南岗学府路,,25,18,25,3,7,77,,67,67,8,12,7,7,0.3,0.3
2025-05-04T1400,1133A,126.689,45.7733,哈尔滨市,太平宏伟公园,,26,,21,6,13,82,,70,70,8,12,4,4,0.4,0.5
2025-05-04T1400,1134A,126.635,45.7667,哈尔滨市,道外承德广场,,24,8,15,7,15,75,,66,66,11,12,5,6,0.4,0.4
2025-05-04T1400,1135A,126.685,45.7319,哈尔滨市,香坊红旗大街,,26,14,24,8,9,82,,70,70,9,14,8,8,0.4,0.4
2025-05-04T1400,1136A,126.6411,45.7258,哈尔滨市,动力和平路,,23,10,18,6,8,73,,63,63,10,14,5,6,0.3,0.3
2025-05-04T1400,1137A,126.593,45.7478,哈尔滨市,道里建国路,,25,7,18,7,12,77,,66,66,9,13,2,3,0.5,0.5
2025-05-04T1400,1138A,126.615,45.61,哈尔滨市,平房东轻厂,,46,46,22,16,12,66,,68,68,16,17,8,8,0.2,0.4
2025-05-04T1400,1139A,126.595,45.9855,哈尔滨市,呼兰师专,,23,12,16,3,12,71,,60,60,8,13,6,6,0.2,0.3
2025-05-04T1400,1140A,126.6206,45.6842,哈尔滨市,省农科院,颗粒物(PM10),51,52,40,9,13,63,,60,60,17,17,6,7,0.5,0.5
2025-05-04T1400,2688A,93.5128,42.8172,哈密市,地区监测站,颗粒物(PM10),61,71,121,23,32,100,,87,87,7,12,3,3,0.2,0.3
2025-05-04T1400,2689A,93.4961,42.8328,哈密市,哈密师范学校,颗粒物(PM10),52,53,90,17,20,97,,84,84,5,11,4,6,0.4,0.3
2025-05-04T1400,2671A,100.9048,36.9639,海北藏族自治州,海晏县西海镇,,35,35,146,19,52,105,,77,77,1,5,10,11,0.4,0.4
2025-05-04T1400,3867A,102.0738,36.5056,海东市,平安区公安北苑,颗粒物(PM10),489,589,168,128,63,77,,58,58,4,7,8,8,0.5,0.6
2025-05-04T1400,1409A,110.576,19.9507,海口市,东寨港,,38,38,22,6,13,60,,47,47,3,4,3,3,0.6,0.6
2025-05-04T1400,1410A,110.3232,20.0574,海口市,海南大学,,28,27,25,16,14,89,,61,61,6,5,3,2,0.4,0.4
2025-05-04T1400,1411A,110.283,20.0053,海口市,秀英海南医院,,26,26,28,15,15,80,,55,55,7,13,5,4,0.3,0.4
2025-05-04T1400,1412A,110.338,19.9969,海口市,海南师范大学,,30,27,25,15,15,96,,62,62,6,5,4,3,0.2,0.2
2025-05-04T1400,1413A,110.33,20.0356,海口市,龙华路环保局宿舍,,28,28,26,15,14,89,,62,62,5,7,4,4,0.3,0.3
2025-05-04T1400,3539A,110.5111,19.9736,海口市,桂林洋子站,,26,18,25,11,13,81,,56,56,6,8,4,4,0.2,0.3
2025-05-04T1400,2673A,100.6188,36.2866,海南藏族自治州,共和县恰卜恰镇,细颗粒物(PM2.5),117,104,135,88,51,109,,82,82,1,11,11,13,0.3,0.4
2025-05-04T1400,2676A,97.3731,37.3753,海西蒙古族藏族自治州,德令哈市,颗粒物(PM10),113,176,252,31,64,117,,102,102,2,3,14,14,0.5,0.4
2025-05-04T1400,1048A,114.5302,36.6116,邯郸市,东污水处理厂,,39,39,38,12,11,114,,90,90,7,16,4,5,0.3,0.3
2025-05-04T1400,1049A,114.4918,36.5713,邯郸市,矿院,,37,37,40,7,10,105,,80,80,5,15,4,5,0.3,0.3
2025-05-04T1400,1050A,114.484,36.6133,邯郸市,丛台公园,,42,42,52,11,10,119,,93,93,7,14,6,6,0.4,0.3
2025-05-04T1400,3458A,114.7895,36.5593,邯郸市,香泉濮院小区,颗粒物(PM10),58,65,56,3,8,121,,88,88,3,10,4,5,0.3,0.2
2025-05-04T1400,3579A,114.50634,36.77178,邯郸市,永年区实验高中,颗粒物(PM10),67,83,61,17,21,108,,82,82,6,18,4,7,0.1,0.3
2025-05-04T1400,3580A,114.20016,36.44293,邯郸市,峰峰矿区临水派出所,,44,44,42,10,15,106,,80,80,1,14,7,10,0.4,0.7
2025-05-04T1400,2634A,106.9893,33.1842,汉中市,汉川机床厂子校,颗粒物(PM10),66,82,98,23,38,116,,118,116,7,6,8,7,0.7,0.7
2025-05-04T1400,2635A,107.0154,33.0706,汉中市,市监测站,颗粒物(PM10),52,54,111,28,37,112,,116,110,6,6,6,6,0.6,0.6
2025-05-04T1400,2636A,107.0089,33.1138,汉中市,鑫源开发区,颗粒物(PM10),53,55,96,26,39,110,,116,110,8,8,5,5,0.5,0.5
2025-05-04T1400,2637A,107.007,33.0323,汉中市,南郑大河坎水厂,颗粒物(PM10),51,52,90,34,44,108,,111,107,9,8,6,6,0.6,0.6
2025-05-04T1400,1223A,120.2072,30.2111,杭州市,滨江,颗粒物(PM10),52,54,52,33,22,156,,111,111,21,15,10,8,0.6,0.6
2025-05-04T1400,1224A,120.0633,30.2747,杭州市,西溪,,43,22,21,7,13,136,,104,104,17,14,8,6,0.4,0.4
2025-05-04T1400,1226A,120.3417,30.3150,杭州市,下沙,,49,38,45,16,16,156,,,,19,18,10,10,0.4,0.4
2025-05-04T1400,1227A,120.1269,30.2456,杭州市,卧龙桥,,47,43,46,18,19,148,,110,110,17,14,9,8,0.6,0.5
2025-05-04T1400,1228A,120.1903,30.2692,杭州市,浙江农大,颗粒物(PM10),51,52,47,29,25,135,,99,99,32,21,12,11,0.2,0.2
2025-05-04T1400,1230A,120.1197,30.3119,杭州市,和睦小学,,45,37,43,11,18,142,,109,109,16,13,9,8,0.3,0.4
2025-05-04T1400,1231A,120.3019,30.4183,杭州市,临平镇,,46,40,51,13,14,145,,115,115,15,16,6,6,0.3,0.4
2025-05-04T1400,1232A,120.2753,30.1839,杭州市,城厢镇,颗粒物(PM10),55,59,48,28,23,158,,112,112,20,14,11,9,0.4,0.5
2025-05-04T1400,1233A,120.0883,30.1808,杭州市,云栖,,46,46,50,19,16,147,,109,109,27,23,9,7,0.5,0.6
2025-05-04T1400,3557A,119.9464,30.0494,杭州市,镇二中,,41,32,42,10,19,129,,102,102,21,20,4,4,0.3,0.4
2025-05-04T1400,3558A,119.7183,30.2367,杭州市,市府大楼,,39,34,44,16,20,124,,95,95,17,19,8,8,0.4,0.5
2025-05-04T1400,3656A,120.1556,30.2864,杭州市,消防大队,,48,40,48,20,21,151,,110,110,23,20,7,6,0.4,0.4
2025-05-04T1400,1270A,117.1959,31.7848,合肥市,明珠广场,臭氧1小时,59,56,45,14,15,167,,124,124,12,15,8,8,0.3,0.3
2025-05-04T1400,1271A,117.3072,31.8764,合肥市,三里街,,49,46,37,17,14,154,,112,112,11,15,6,6,0.5,0.5
2025-05-04T1400,1272A,117.2588,31.8707,合肥市,琥珀山庄,臭氧1小时,57,61,44,19,13,165,,118,118,11,15,6,6,0.5,0.5
2025-05-04T1400,1273A,117.1604,31.9052,合肥市,董铺水库,颗粒物(PM10),53,56,49,14,13,153,,111,111,11,13,3,2,0.5,0.4
2025-05-04T1400,1274A,117.25,31.8571,合肥市,长江中路,臭氧1小时,57,61,49,23,21,165,,118,118,13,16,11,10,0.5,0.5
2025-05-04T1400,1275A,117.266,31.9436,合肥市,庐阳区,臭氧1小时,58,58,50,22,15,166,,122,122,8,14,8,8,0.2,0.2
2025-05-04T1400,1276A,117.3453,31.8616,合肥市,瑶海区,颗粒物(PM10),53,56,45,17,14,154,,112,112,10,16,8,7,0.3,0.3
2025-05-04T1400,1277A,117.3027,31.7964,合肥市,包河区,颗粒物(PM10),59,68,54,24,18,166,,120,120,9,28,9,9,0.4,0.4
2025-05-04T1400,1278A,117.2776,31.7385,合肥市,滨湖新区,臭氧1小时,55,58,44,24,20,164,,120,120,12,14,9,8,0.6,0.5
2025-05-04T1400,1279A,117.1318,31.8403,合肥市,高新区,颗粒物(PM10),54,58,48,16,16,161,,118,118,16,16,5,5,0.4,0.4
2025-05-04T1400,3464A,117.3803,31.9147,合肥市,高教基地,,,46,41,21,16,164,,121,121,,6,8,7,0.4,0.4
2025-05-04T1400,3614A,79.924,37.0877,和田地区,地区环保局,"颗粒物(PM10),细颗粒物(PM2.5)",500,2740,1694,921,745,72,,66,56,7,12,3,2,0.2,0.2
2025-05-04T1400,3615A,79.9131,37.113,和田地区,市环保局,"颗粒物(PM10),细颗粒物(PM2.5)",500,2502,2048,687,612,62,,45,44,2,7,3,2,0.0,0.2
2025-05-04T1400,2516A,108.2011,24.715,河池市,东仁乐园,,,,,,,,,,,,,,,,
2025-05-04T1400,2517A,108.0497,24.6947,河池市,市环保站,,30,20,28,12,16,95,,87,82,5,5,6,8,0.6,0.6
2025-05-04T1400,2518A,108.0983,24.6989,河池市,市疾控中心,,29,12,24,12,16,92,,87,78,11,10,8,9,0.6,0.7
2025-05-04T1400,1696A,114.6778,23.7569,河源市,源西,,36,36,44,24,36,88,,80,80,6,16,4,4,0.6,0.7
2025-05-04T1400,1697A,114.6944,23.7586,河源市,东埔,,38,36,65,26,38,97,,83,83,11,15,4,4,0.4,0.5
2025-05-04T1400,1698A,114.6892,23.7233,河源市,老城,颗粒物(PM10),53,55,48,21,39,93,,78,78,10,14,4,4,0.5,0.6
2025-05-04T1400,1718A,115.4208,35.2464,菏泽市,气象局,细颗粒物(PM2.5),92,68,54,68,29,154,,124,124,10,24,5,3,0.4,0.4
2025-05-04T1400,3374A,115.5564,35.0891,菏泽市,定陶老年大学,,48,48,49,17,17,153,,114,114,10,16,5,6,0.4,0.4
2025-05-04T1400,4184A,115.4797,35.24401,菏泽市,永昌路1号,,,59,51,,21,153,,120,120,8,22,6,6,0.3,0.3
2025-05-04T1400,4193A,115.4715,35.2800,菏泽市,长城路999号,颗粒物(PM10),51,51,47,24,14,148,,120,120,13,22,9,9,0.2,0.2
2025-05-04T1400,2514A,111.5264,24.4172,贺州市,环保小区,,21,13,34,10,23,67,,66,54,6,10,4,4,0.8,0.9
2025-05-04T1400,2515A,111.5608,24.4078,贺州市,政协大楼,,20,,30,10,20,62,,64,54,8,11,6,7,0.7,0.7
2025-05-04T1400,3534A,111.4744,24.4553,贺州市,西湾,,20,,32,14,23,62,,53,45,7,14,7,7,0.6,0.6
2025-05-04T1400,2385A,114.17,35.9019,鹤壁市,市监测站,,42,40,49,26,20,133,,97,97,7,14,3,3,0.6,0.6
2025-05-04T1400,2386A,114.2956,35.7511,鹤壁市,市交警支队,,41,30,41,11,12,131,,94,94,8,24,7,7,0.6,0.5
2025-05-04T1400,2387A,114.2878,35.7306,鹤壁市,迎宾馆,,43,32,48,27,21,135,,98,98,3,14,3,5,0.4,0.4
2025-05-04T1400,3474A,114.2617,35.6822,鹤壁市,大新区,,40,39,39,17,19,128,,87,87,5,27,8,8,0.3,0.4
2025-05-04T1400,3596A,114.1572,35.9603,鹤壁市,南山宾馆,颗粒物(PM10),55,59,77,23,28,136,,100,100,3,13,7,6,0.3,0.3
2025-05-04T1400,2244A,130.2537,47.3416,鹤岗市,哈啤分公司,,26,,10,8,11,83,,78,78,1,2,15,15,0.2,0.2
2025-05-04T1400,2245A,130.2684,47.3086,鹤岗市,斯达机电,,27,6,15,3,10,84,,76,76,2,2,11,11,0.0,0.1
2025-05-04T1400,2246A,130.3114,47.3388,鹤岗市,东山纸板厂,,26,20,24,11,13,83,,79,79,3,6,11,12,0.0,0.2
2025-05-04T1400,2247A,130.1097,47.3382,鹤岗市,五号水库,,,,,,,,,,,,,,,,
2025-05-04T1400,2263A,127.4833,50.2524,黑河市,交通局,,23,18,17,11,12,72,,68,68,4,5,7,7,0.3,0.3
2025-05-04T1400,2264A,127.5144,50.2341,黑河市,环保局,,25,19,17,13,12,78,,74,74,3,5,3,4,0.2,0.2
2025-05-04T1400,2265A,127.5291,50.2472,黑河市,大黑河岛,,,,3,3,6,31,,43,31,13,11,1,1,0.2,0.2
2025-05-04T1400,1074A,115.6838,37.7541,衡水市,电机北厂,颗粒物(PM10),52,54,39,16,17,137,,108,108,7,10,4,4,0.3,0.3
2025-05-04T1400,1075A,115.6303,37.7316,衡水市,市监测站,颗粒物(PM10),56,62,59,7,13,138,,105,105,6,14,6,6,0.3,0.2
2025-05-04T1400,3188A,115.6683,37.7217,衡水市,市城管局,颗粒物(PM10),51,51,41,11,18,138,,105,105,6,10,6,6,0.3,0.3
2025-05-04T1400,3459A,115.5989,37.5491,衡水市,地表水厂,颗粒物(PM10),65,79,53,26,17,140,,100,100,8,22,9,8,0.3,0.3
2025-05-04T1400,2456A,112.5003,26.9167,衡阳市,原169医院,颗粒物(PM10),55,60,60,36,34,126,,110,93,10,9,8,4,0.7,0.5
2025-05-04T1400,2457A,112.6194,26.9258,衡阳市,衡阳化工总厂,细颗粒物(PM2.5),62,67,75,44,38,118,,105,86,8,9,8,8,0.6,0.5
2025-05-04T1400,2458A,112.6211,26.8956,衡阳市,珠晖区环保局,颗粒物(PM10),52,53,66,32,32,124,,108,94,10,14,8,9,0.8,0.7
2025-05-04T1400,2459A,112.6197,26.8733,衡阳市,市委党校,,,72,64,,26,116,,110,92,8,9,2,4,0.6,0.5
2025-05-04T1400,2460A,112.6006,26.8919,衡阳市,市监测站,细颗粒物(PM2.5),60,56,69,43,40,114,,107,88,11,11,10,10,0.8,0.7
2025-05-04T1400,2461A,112.5664,26.9056,衡阳市,真空机电公司,细颗粒物(PM2.5),52,47,64,36,35,117,,102,90,9,8,6,6,0.7,0.7
2025-05-04T1400,3399A,112.6703,26.882,衡阳市,师范学院,细颗粒物(PM2.5),52,51,73,36,37,117,,117,93,9,11,7,10,0.8,0.8
2025-05-04T1400,2608A,103.3772,23.3993,红河哈尼族彝族自治州,污水处理厂,,31,23,17,15,12,99,,72,72,3,7,7,6,0.3,0.3
2025-05-04T1400,2609A,103.3861,23.35,红河哈尼族彝族自治州,监测站,,35,31,29,13,16,110,,83,83,2,6,6,7,0.3,0.3
2025-05-04T1400,3038A,103.3758,23.368,红河哈尼族彝族自治州,州图书馆,,29,9,14,7,12,91,,68,68,3,7,1,2,0.2,0.2
2025-05-04T1400,1090A,111.6507,40.7517,呼和浩特市,呼市一监,,37,36,38,9,13,117,,80,80,2,13,6,5,0.5,0.5
2025-05-04T1400,1091A,111.6572,40.8033,呼和浩特市,小召,,41,41,32,11,12,104,,72,72,13,25,10,10,0.7,0.7
2025-05-04T1400,1094A,111.7516,40.8369,呼和浩特市,如意水处理厂,,34,34,28,13,11,105,,62,62,9,23,7,5,0.4,0.3
2025-05-04T1400,1095A,111.7276,40.8062,呼和浩特市,二十九中,,44,44,30,10,11,107,,66,66,5,17,5,4,0.4,0.5
2025-05-04T1400,1096A,111.5512,40.7866,呼和浩特市,工大金川校区,,39,39,31,8,13,117,,69,69,8,25,7,7,0.4,0.4
2025-05-04T1400,1097A,111.717,40.7612,呼和浩特市,化肥厂生活区,,41,41,41,25,15,106,,67,67,16,23,10,9,0.3,0.4
2025-05-04T1400,3698A,111.5968,40.8178,呼和浩特市,红旗小学,,41,41,25,10,11,124,,76,76,10,21,4,4,0.4,0.4
2025-05-04T1400,3699A,111.6518,40.8389,呼和浩特市,海东办,,35,29,23,16,12,109,,71,71,7,23,7,7,0.5,0.4
2025-05-04T1400,2192A,119.7594,49.2261,呼伦贝尔市,区环保局,,28,20,20,13,22,89,,77,77,6,8,4,5,0.4,0.4
2025-05-04T1400,3061A,119.7512,49.1577,呼伦贝尔市,国华电力东,,29,24,25,3,11,91,,80,80,4,5,4,5,0.3,0.3
2025-05-04T1400,1250A,120.0751,30.8669,湖州市,城西水厂,,46,28,39,13,16,146,,117,117,14,15,7,7,0.4,0.4
2025-05-04T1400,2873A,120.0830,30.8929,湖州市,仁皇山新区,,46,26,36,13,15,145,,116,116,15,16,5,6,0.5,0.6
2025-05-04T1400,2907A,120.1844,30.8596,湖州市,吴兴区站,,46,29,41,12,15,145,,112,112,10,13,7,7,0.3,0.4
2025-05-04T1400,3562A,120.4148,30.8538,湖州市,南浔区站,,40,26,36,11,14,128,,110,110,14,16,4,5,0.3,0.5
2025-05-04T1400,1607A,120.9049,40.7211,葫芦岛市,龙港区,,30,30,43,7,14,95,,76,76,7,24,9,11,0.3,0.4
2025-05-04T1400,1608A,120.8392,40.7514,葫芦岛市,化工街,,30,19,46,7,19,93,,77,77,10,33,8,20,0.4,0.5
2025-05-04T1400,1609A,120.8341,40.7073,葫芦岛市,新区,,30,24,41,8,17,95,,79,79,7,30,9,11,0.4,0.5
2025-05-04T1400,1610A,120.8695,40.7677,葫芦岛市,东城区,,35,35,46,8,20,89,,76,76,10,31,5,26,0.4,0.5
2025-05-04T1400,2482A,109.5981,27.5721,怀化市,林科所,,43,43,58,13,26,115,,104,104,8,8,5,4,0.6,0.6
2025-05-04T1400,2483A,109.9453,27.5444,怀化市,河西地税局,,48,48,58,21,30,103,,92,92,7,10,6,6,0.6,0.5
2025-05-04T1400,2484A,109.9781,27.5342,怀化市,市四医院,颗粒物(PM10),57,63,61,32,31,125,,110,110,10,8,7,7,0.8,0.8
2025-05-04T1400,2485A,109.9972,27.5578,怀化市,监测楼,,41,41,63,25,30,119,,103,103,6,7,2,3,0.3,0.3
2025-05-04T1400,2486A,110.0394,27.583,怀化市,市委党校,,41,41,61,24,29,119,,99,99,6,7,7,11,0.5,0.6
2025-05-04T1400,1210A,119.036,33.5981,淮安市,钵池山,,46,31,33,16,17,145,,121,121,10,15,9,10,0.2,0.3
2025-05-04T1400,1211A,119.007,33.575,淮安市,北京南路,,48,39,33,16,16,152,,121,121,6,11,9,10,0.4,0.4
2025-05-04T1400,1212A,118.989,33.6067,淮安市,市监测站,,45,31,30,19,16,141,,114,114,11,15,10,11,0.4,0.4
2025-05-04T1400,1213A,119.135,33.5039,淮安市,楚州区监测站,,46,46,40,19,20,139,,111,111,7,16,9,9,0.4,0.4
2025-05-04T1400,3426A,118.8755,33.2894,淮安市,新华书店,,48,46,35,22,18,152,,119,119,10,14,11,10,0.5,0.6
2025-05-04T1400,4206A,119.0288,33.6319,淮安市,承德北路606号,,46,41,36,16,18,145,,120,120,6,12,8,9,0.4,0.5
2025-05-04T1400,2282A,116.8004,33.975,淮北市,监测站,,50,48,38,23,18,157,,121,121,12,16,7,8,0.7,0.6
2025-05-04T1400,2283A,116.8091,33.9007,淮北市,烈山区政府,,50,49,40,27,21,160,,123,123,7,12,6,6,0.6,0.6
2025-05-04T1400,3330A,116.8873,33.9836,淮北市,杜集区检察院,细颗粒物(PM2.5),57,49,52,40,44,156,,123,123,13,17,8,8,0.6,0.5
2025-05-04T1400,4017A,116.7923,33.9535,淮北市,市博物馆,,,47,42,,21,158,,122,122,11,14,8,8,0.6,0.5
2025-05-04T1400,2277A,116.8305,32.7727,淮南市,潘集区政府,颗粒物(PM10),58,65,53,23,28,156,,110,110,9,16,5,5,0.4,0.4
2025-05-04T1400,2279A,116.8569,32.5951,淮南市,谢家集区政府,颗粒物(PM10),56,61,49,19,23,151,,108,108,11,15,6,6,0.2,0.3
2025-05-04T1400,2280A,116.8281,32.633,淮南市,八公山区政府,颗粒物(PM10),53,56,53,21,20,151,,108,108,5,8,7,7,0.4,0.3
2025-05-04T1400,2281A,116.6325,32.6201,淮南市,焦岗湖风景区管理处,,,,,,,,,,,,,,,,
2025-05-04T1400,2894A,117.0566,32.6531,淮南市,经济技术开发区消防队,颗粒物(PM10),56,61,50,19,31,155,,112,112,8,15,7,7,0.3,0.4
2025-05-04T1400,3329A,117.0108,32.5893,淮南市,山南新区,臭氧1小时,54,52,49,13,14,163,,117,117,8,11,9,9,0.5,0.4
2025-05-04T1400,4209A,117.0031,32.6445,淮南市,国庆中路369号,颗粒物(PM10),53,56,45,28,24,152,,111,111,5,9,9,9,0.5,0.5
2025-05-04T1400,2446A,114.9028,30.4742,黄冈市,职工中心,,,,,,,,,,,,,,,,
2025-05-04T1400,2929A,114.8858,30.4519,黄冈市,红卫路,臭氧1小时,69,58,46,32,25,175,,133,133,5,6,7,8,0.7,0.6
2025-05-04T1400,3398A,114.9136,30.4445,黄冈市,市林业局,臭氧1小时,63,61,47,29,27,170,,126,126,9,11,10,10,0.8,0.7
2025-05-04T1400,2672A,102.0199,35.5102,黄南藏族自治州,同仁县隆务镇,颗粒物(PM10),177,303,95,106,39,87,,76,76,2,5,5,5,0.1,0.3
2025-05-04T1400,2295A,118.2903,29.6963,黄山市,延安路89号,颗粒物(PM10),51,51,56,22,34,138,,121,121,6,9,6,6,0.4,0.5
2025-05-04T1400,2297A,118.1371,30.2756,黄山市,黄山区政府5号楼,颗粒物(PM10),59,67,63,22,30,142,,110,110,7,8,4,4,0.8,0.9
2025-05-04T1400,4210A,118.3354,29.7203,黄山市,滨江东路7-2号,颗粒物(PM10),54,58,60,17,26,136,,120,120,7,9,5,6,0.5,0.6
2025-05-04T1400,2423A,115.0601,30.2313,黄石市,沈家营,颗粒物(PM10),66,82,70,30,28,169,,140,140,14,16,11,8,0.9,0.8
2025-05-04T1400,2426A,114.8988,30.2019,黄石市,铁山,颗粒物(PM10),56,61,60,30,25,153,,140,140,6,8,8,8,0.3,0.4
2025-05-04T1400,2427A,115.0307,30.2092,黄石市,团城山,颗粒物(PM10),55,60,58,27,22,160,,138,138,10,10,11,9,0.5,0.6
2025-05-04T1400,3149A,115.0235,30.1578,黄石市,笔架山北路,臭氧1小时,55,46,48,24,23,164,,140,140,8,8,10,8,0.7,0.7
2025-05-04T1400,4185A,115.0780,30.21118,黄石市,磁湖东路29号,臭氧1小时,62,64,60,34,32,169,,144,144,11,12,10,9,0.7,0.7
2025-05-04T1400,1392A,114.4183,23.0528,惠州市,河南岸金山湖子站,,30,23,51,12,31,93,,65,65,9,14,8,8,0.4,0.6
2025-05-04T1400,1393A,114.4053,23.0822,惠州市,下埔横江三路子站,,33,18,44,11,32,103,,77,77,9,13,8,8,0.6,0.7
2025-05-04T1400,1394A,114.4103,23.1142,惠州市,江北云山西路子站,,35,19,43,11,26,109,,82,82,6,11,10,11,0.5,0.6
2025-05-04T1400,1395A,114.4645,22.7833,惠州市,惠阳区承修路船湖子站,,23,18,36,11,24,73,,59,59,6,13,7,8,0.3,0.3
2025-05-04T1400,1396A,114.5317,22.7422,惠州市,大亚湾管委会子站,,23,18,33,12,20,71,,63,63,4,11,9,9,0.5,0.6
2025-05-04T1400,3314A,114.4338,22.8134,惠州市,惠阳秋长,,27,24,36,10,24,86,,66,66,7,18,8,10,0.6,0.7
2025-05-04T1400,3452A,114.6517,22.775,惠州市,大亚湾霞涌,,33,33,30,14,17,74,,70,70,7,9,7,7,0.4,0.5
2025-05-04T1400,2240A,130.9762,45.3001,鸡西市,环保局,,27,20,26,11,16,85,,80,80,5,9,6,6,0.4,0.4
2025-05-04T1400,2243A,130.9429,45.3039,鸡西市,第一中学,,26,16,23,10,15,83,,79,79,3,6,6,6,0.3,0.3
2025-05-04T1400,3707A,131.0207,45.3073,鸡西市,欧美日汽修厂,,25,25,31,10,20,77,,76,76,9,11,5,5,0.4,0.5
2025-05-04T1400,3709A,130.9967,45.3106,鸡西市,市政设施管理处,,25,25,33,13,19,78,,73,73,7,12,7,7,0.4,0.4
2025-05-04T1400,2367A,114.9754,27.0803,吉安市,红声器材厂,颗粒物(PM10),54,58,55,36,31,71,,66,66,8,7,11,13,0.4,0.6
2025-05-04T1400,2368A,114.9658,27.0999,吉安市,市森林工业局,"颗粒物(PM10),细颗粒物(PM2.5)",53,55,48,37,28,71,,71,71,8,8,10,12,0.6,0.5
2025-05-04T1400,2369A,114.99,27.1312,吉安市,市环境监测站,颗粒物(PM10),52,53,42,32,24,79,,78,78,7,4,11,13,0.7,0.7
2025-05-04T1400,2370A,115.0093,27.0968,吉安市,青原区法院,细颗粒物(PM2.5),62,54,50,44,32,79,,71,71,11,10,15,16,0.8,0.5
2025-05-04T1400,1772A,126.54,43.8622,吉林市,哈达湾,,29,13,17,8,11,90,,70,70,7,12,6,6,0.3,0.3
2025-05-04T1400,1773A,126.5844,43.8358,吉林市,东局子,,30,15,17,10,14,95,,,,7,13,5,5,0.2,0.3
2025-05-04T1400,1774A,126.5052,43.8245,吉林市,电力学院,,31,10,17,7,12,97,,73,73,4,10,4,4,0.5,0.6
2025-05-04T1400,1775A,126.6133,43.8972,吉林市,江北,,30,14,20,6,14,96,,77,77,9,14,7,6,0.1,0.2
2025-05-04T1400,1776A,126.555,43.8306,吉林市,江南公园,,28,13,16,12,12,88,,68,68,7,11,5,5,0.2,0.3
2025-05-04T1400,1778A,126.7061,43.7133,吉林市,丰满,,,,,,,,,,,,,,,,
2025-05-04T1400,2868A,126.4739,43.953,吉林市,九站,,30,6,15,3,12,94,,72,72,4,13,8,9,0.3,0.3
2025-05-04T1400,1299A,116.9862,36.6114,济南市,科干所,,45,24,31,10,9,141,,118,118,5,12,4,4,0.3,0.2
2025-05-04T1400,1300A,116.9376,36.665,济南市,农科所,,45,34,44,20,19,142,,105,105,8,16,8,6,0.4,0.4
2025-05-04T1400,1301A,117.1265,36.6734,济南市,开发区,,42,32,34,17,15,132,,104,104,5,18,7,7,0.4,0.4
2025-05-04T1400,1303A,117.0624,36.6868,济南市,省种子仓库,,41,14,31,3,15,130,,92,92,4,33,5,4,0.3,0.3
2025-05-04T1400,1304A,116.9489,36.6447,济南市,机床二厂,颗粒物(PM10),51,51,56,22,16,142,,106,106,16,24,9,8,0.4,0.4
2025-05-04T1400,1305A,117.0495,36.663,济南市,市监测站,,41,34,44,7,11,130,,93,93,5,33,8,8,0.4,0.5
2025-05-04T1400,1306A,116.7675,36.5484,济南市,长清党校,,46,34,31,24,21,147,,116,116,8,19,7,5,0.6,0.5
2025-05-04T1400,1616A,117.6795,36.229,济南市,技术学院,细颗粒物(PM2.5),55,,42,39,20,140,,106,106,11,27,12,11,0.5,0.5
2025-05-04T1400,1961A,117.532,36.6868,济南市,东山小学,,47,44,41,20,9,148,,112,112,5,16,10,7,0.5,0.3
2025-05-04T1400,3059A,117.7161,36.2049,济南市,泰兴公司,,47,31,33,14,17,149,,107,107,12,28,8,6,0.2,0.1
2025-05-04T1400,3064A,117.6867,36.2171,济南市,莱芜战役纪念馆,,,39,41,17,13,139,,106,106,,27,8,6,0.4,0.5
2025-05-04T1400,3494A,117.1673,36.9782,济南市,济阳区政府,,48,46,65,12,17,152,,91,91,12,36,6,5,0.4,0.3
2025-05-04T1400,3495A,117.1171,36.63,济南市,锦屏中学,,41,17,32,12,9,131,,116,116,7,12,4,4,0.4,0.4
2025-05-04T1400,3682A,116.9814,36.6819,济南市,济南四建,,46,29,43,12,18,147,,112,112,6,19,5,4,0.3,0.3
2025-05-04T1400,1653A,116.6251,35.4302,济宁市,火炬城,颗粒物(PM10),51,51,50,14,20,142,,92,92,3,17,7,6,0.3,0.3
2025-05-04T1400,1655A,116.5491,35.4042,济宁市,电化厂,,47,38,53,19,19,148,,100,100,3,18,4,3,0.4,0.4
2025-05-04T1400,3500A,116.5814,35.3707,济宁市,北湖一中,颗粒物(PM10),52,53,74,14,16,149,,100,100,5,17,5,5,0.3,0.3
2025-05-04T1400,3501A,116.8249,35.5593,济宁市,服务中心,颗粒物(PM10),65,79,63,20,14,156,,91,91,11,29,4,3,0.3,0.2
2025-05-04T1400,3678A,116.5907,35.4054,济宁市,市第七中学,颗粒物(PM10),51,51,53,14,15,151,,104,104,7,19,5,5,0.3,0.3
2025-05-04T1400,2255A,130.2751,46.8028,佳木斯市,佳纺,,,,13,3,6,87,,78,78,2,8,4,5,,0.4
2025-05-04T1400,2256A,130.3995,46.8307,佳木斯市,发电厂,,28,7,9,3,6,89,,81,81,1,5,3,4,0.2,0.2
2025-05-04T1400,2257A,130.3258,46.7975,佳木斯市,环保局,,29,,14,6,10,90,,51,,4,10,6,6,0,0.2
2025-05-04T1400,2258A,130.3648,46.8032,佳木斯市,十一中,,28,9,14,3,5,88,,81,81,2,9,4,4,0.3,0.3
2025-05-04T1400,2259A,130.3794,46.7588,佳木斯市,四丰,,25,9,14,3,5,78,,70,70,5,9,1,1,0.1,0.2
2025-05-04T1400,1252A,120.7436,30.778,嘉兴市,清河小学,,37,29,40,11,16,118,,101,101,10,14,6,6,0.5,0.6
2025-05-04T1400,1253A,120.726,30.7478,嘉兴市,嘉兴学院,,39,26,38,11,13,124,,110,110,9,10,6,6,0.6,0.6
2025-05-04T1400,2872A,120.7846,30.7525,嘉兴市,南湖区残联,,40,28,39,11,14,128,,112,112,5,9,6,6,0.4,0.5
2025-05-04T1400,3407A,120.6916,30.7739,嘉兴市,秀洲住建,,43,17,22,14,17,135,,118,118,3,6,6,7,0.4,0.4
2025-05-04T1400,1945A,98.2908,39.7711,嘉峪关市,气象局,颗粒物(PM10),54,58,293,14,53,113,,114,114,1,5,3,7,0.8,0.9
2025-05-04T1400,2884A,98.2672,39.7978,嘉峪关市,酒钢宾馆,颗粒物(PM10),51,51,315,17,59,117,,111,111,1,9,6,26,0.3,0.4
2025-05-04T1400,3248A,98.2643,39.7724,嘉峪关市,雄关区,,42,42,233,14,39,112,,113,113,4,8,6,6,0.7,0.8
2025-05-04T1400,1383A,113.1064,22.6058,江门市,北街,,22,,28,15,16,69,,57,57,2,5,1,2,0.4,0.5
2025-05-04T1400,1384A,113.0731,22.5835,江门市,西区,,23,21,29,15,15,72,,60,60,5,10,6,6,0.4,0.5
2025-05-04T1400,1385A,113.0219,22.5311,江门市,圭峰西,,22,22,31,12,18,67,,52,52,6,12,3,3,0.4,0.5
2025-05-04T1400,1386A,113.0828,22.5947,江门市,东湖,,23,19,26,15,18,72,,61,61,7,11,7,8,0.5,0.5
2025-05-04T1400,3311A,113.1075,22.5647,江门市,江海富民,,24,20,43,15,22,74,,59,59,4,9,7,7,0.4,0.4
2025-05-04T1400,3449A,113.05,22.4667,江门市,新会银湖,,30,30,31,9,17,73,,53,53,6,14,1,1,0.5,0.5
2025-05-04T1400,1830A,113.1992,35.2590,焦作市,影视城,,,,,,,,,,,,,,,,
2025-05-04T1400,3169A,113.2725,35.2067,焦作市,太极体育中心,颗粒物(PM10),55,60,66,16,20,129,,96,96,7,16,6,10,0,0.1
2025-05-04T1400,3335A,113.3137,35.2641,焦作市,马村街道办,,46,46,71,26,25,134,,96,96,10,19,11,9,0.2,0.3
2025-05-04T1400,3336A,113.2465,35.2373,焦作市,焦作技师学院,,44,41,62,14,19,139,,101,101,7,13,11,12,0.5,0.6
2025-05-04T1400,3477A,113.1656,35.2539,焦作市,中站许衡医院,,45,33,52,22,22,143,,112,112,6,12,8,8,0.4,0.4
2025-05-04T1400,3981A,113.2449,35.1803,焦作市,原李万街道办,,46,45,65,19,17,146,,101,101,9,17,10,18,0.3,0.4
2025-05-04T1400,4264A,113.2340,35.2190,焦作市,新安路1731号,,45,45,66,27,25,143,,101,101,7,13,8,9,0.6,0.6
2025-05-04T1400,1708A,116.3701,23.5345,揭阳市,新兴,颗粒物(PM10),53,55,52,22,31,93,,74,74,6,15,6,11,0.6,0.7
2025-05-04T1400,1709A,116.3264,23.5443,揭阳市,西马,,40,40,52,11,21,100,,81,81,2,9,7,10,0.8,0.9
2025-05-04T1400,1710A,116.3611,23.5626,揭阳市,东兴,,,52,51,14,32,,,81,81,1,10,6,9,0.7,0.8
2025-05-04T1400,1711A,116.4151,23.5294,揭阳市,渔湖,颗粒物(PM10),53,55,54,18,26,95,,79,79,6,15,6,7,0.9,0.8
2025-05-04T1400,3320A,116.403,23.5699,揭阳市,曲溪,,36,,52,25,27,104,,83,83,6,20,12,18,0.7,0.8
2025-05-04T1400,1944A,102.1692,38.5167,金昌市,天庆家园,颗粒物(PM10),78,105,394,27,69,108,,106,106,3,7,8,14,0.7,0.7
2025-05-04T1400,4022A,102.1647,38.5371,金昌市,金川区人防中心,颗粒物(PM10),91,131,471,23,94,111,,108,108,4,8,4,8,0.4,0.5
2025-05-04T1400,4239A,102.1930,38.5319,金昌市,长春路96号,颗粒物(PM10),78,106,234,23,70,102,,100,100,2,4,5,14,0.5,0.5
2025-05-04T1400,1262A,119.647,29.077,金华市,十五中,"颗粒物(PM10),臭氧1小时",60,70,60,23,22,168,,108,108,23,19,4,4,0.3,0.4
2025-05-04T1400,1263A,119.686,29.1029,金华市,监测站,颗粒物(PM10),62,73,69,28,26,166,,107,107,17,17,5,5,0.3,0.4
2025-05-04T1400,3659A,119.656,29.1131,金华市,气象局,颗粒物(PM10),58,65,63,18,22,161,,107,107,17,20,2,3,0.5,0.5
2025-05-04T1400,1767A,121.1115,41.0879,锦州市,南山,,29,24,43,10,23,90,,78,78,4,17,4,10,0.5,0.6
2025-05-04T1400,1768A,121.0604,40.8428,锦州市,开发区,,29,13,57,3,22,92,,80,80,4,28,5,11,0.4,0.7
2025-05-04T1400,1769A,121.1836,41.1119,锦州市,百股街道,,28,25,44,3,16,88,,76,76,2,12,4,7,0.4,0.6
2025-05-04T1400,1770A,121.1178,41.1222,锦州市,天安街道,,29,12,43,11,19,92,,79,79,7,19,6,7,0.4,0.6
2025-05-04T1400,1771A,121.1303,41.1386,锦州市,北湖公园,,28,23,36,6,13,88,,77,77,2,8,7,10,0.4,0.5
2025-05-04T1400,2160A,112.85,35.5051,晋城市,自来水公司,颗粒物(PM10),52,54,53,14,13,145,,112,112,11,12,10,9,0.5,0.5
2025-05-04T1400,2161A,112.8318,35.4936,晋城市,白云商贸,颗粒物(PM10),51,51,60,24,11,148,,113,113,13,15,8,8,0.4,0.5
2025-05-04T1400,2162A,112.8508,35.4887,晋城市,市环保局,颗粒物(PM10),56,62,66,17,14,136,,101,101,9,12,8,7,0.4,0.2
2025-05-04T1400,2163A,112.8676,35.4897,晋城市,技术学院,,44,44,52,9,14,135,,102,102,12,14,8,7,0.4,0.4
2025-05-04T1400,2165A,112.8453,35.546,晋城市,白马寺,颗粒物(PM10),63,76,40,12,20,150,,122,122,8,8,8,6,0.3,0.3
2025-05-04T1400,3620A,112.8271,35.4828,晋城市,泽州一中,颗粒物(PM10),51,51,41,7,11,149,,112,112,10,12,7,6,0.5,0.6
2025-05-04T1400,2173A,112.7249,37.7067,晋中市,南都小区,臭氧1小时,64,68,45,25,14,171,,111,111,9,16,12,6,0.6,0.4
2025-05-04T1400,2174A,112.6991,37.6982,晋中市,榆次区政府,臭氧1小时,67,78,46,20,12,173,,110,110,11,20,12,7,0.7,0.5
2025-05-04T1400,2865A,112.7195,37.6828,晋中市,榆次三中,臭氧1小时,73,85,47,34,17,178,,110,110,8,19,12,6,0.5,0.4
2025-05-04T1400,4200A,112.7478,37.6954,晋中市,迎宾街26号,颗粒物(PM10),65,80,44,17,11,167,,106,106,10,16,12,6,0.7,0.4
2025-05-04T1400,2439A,112.2014,31.0481,荆门市,竹园小学,颗粒物(PM10),72,93,65,31,20,163,,118,118,14,15,12,8,0.2,0.2
2025-05-04T1400,2440A,112.1969,30.9891,荆门市,掇刀,臭氧1小时,63,67,47,43,22,170,,126,126,11,13,10,6,0.4,0.3
2025-05-04T1400,2441A,112.2213,31.0386,荆门市,石化一小,细颗粒物(PM2.5),65,69,67,47,32,156,,110,110,13,13,15,11,0.2,0.1
2025-05-04T1400,3012A,112.1849,31.0362,荆门市,西山林语,颗粒物(PM10),56,61,43,33,18,164,,120,120,11,6,15,9,0.6,0.5
2025-05-04T1400,3547A,112.1632,31.0138,荆门市,龙泉中学南校,颗粒物(PM10),56,62,51,29,19,164,,122,122,15,8,5,3,0.5,0.4
2025-05-04T1400,1844A,112.2494,30.3197,荆州市,市图书馆,臭氧1小时,52,45,48,30,24,161,,119,119,18,16,10,8,0.5,0.5
2025-05-04T1400,1845A,112.2008,30.3544,荆州市,市委党校,颗粒物(PM10),55,59,42,31,22,156,,113,113,12,16,10,9,0.7,0.5
2025-05-04T1400,3194A,112.2747,30.3122,荆州市,管委会,颗粒物(PM10),54,57,42,35,25,153,,115,115,15,15,11,8,0.8,0.6
2025-05-04T1400,4268A,112.1722,30.3366,荆州市,学苑路85号,臭氧1小时,59,35,36,32,23,167,,115,115,6,16,7,5,0.6,0.5
2025-05-04T1400,2342A,117.3102,29.3867,景德镇市,王港中学,,,,,,,,,,,,,,,,
2025-05-04T1400,2343A,117.2117,29.2933,景德镇市,老干部活动中心,颗粒物(PM10),57,64,57,21,27,137,,127,127,9,10,6,6,0.5,0.5
2025-05-04T1400,2344A,117.1894,29.2789,景德镇市,兽医站,颗粒物(PM10),58,66,66,26,28,133,,124,124,8,9,5,4,0.7,0.6
2025-05-04T1400,2345A,117.1547,29.2617,景德镇市,台达陶瓷,颗粒物(PM10),56,61,64,24,28,135,,125,125,7,8,4,7,0.4,0.4
2025-05-04T1400,2346A,117.2461,29.2956,景德镇市,陶研所,,50,50,54,32,32,134,,119,119,8,9,8,7,0.6,0.6
2025-05-04T1400,1803A,115.9872,29.6815,九江市,十里,颗粒物(PM10),55,60,58,25,35,135,,108,108,14,11,8,5,0.8,0.7
2025-05-04T1400,1804A,115.9584,29.7046,九江市,茅山头,颗粒物(PM10),54,57,66,26,33,136,,110,107,13,13,8,7,0.7,0.6
2025-05-04T1400,1805A,115.9877,29.7295,九江市,西园,,44,40,56,14,30,139,,112,110,25,26,10,9,0.9,0.8
2025-05-04T1400,1808A,115.9114,29.6038,九江市,综合工业园,颗粒物(PM10),57,64,74,31,33,137,,114,109,28,19,17,12,1.0,0.9
2025-05-04T1400,1809A,116.0721,29.7535,九江市,石化总厂,颗粒物(PM10),55,60,65,27,37,118,,98,98,22,20,11,8,0.8,0.8
2025-05-04T1400,1810A,115.9773,29.5698,九江市,庐山气象台,,48,48,65,25,28,115,,120,114,5,6,7,7,0.7,0.8
2025-05-04T1400,3190A,116.0254,29.6994,九江市,外国语学校,颗粒物(PM10),57,63,65,22,31,125,,96,96,22,17,12,8,1.0,0.8
2025-05-04T1400,4253A,116.0102,29.6594,九江市,莲花大道8号,颗粒物(PM10),56,61,65,36,37,126,,107,100,16,10,16,9,1.1,0.7
2025-05-04T1400,4240A,98.4958,39.7339,酒泉市,玉门东路5号,颗粒物(PM10),129,207,327,28,67,117,,114,114,2,2,10,10,0.2,0.2
2025-05-04T1400,4241A,98.5099,39.7506,酒泉市,北大街108号,颗粒物(PM10),84,117,340,9,46,117,,110,110,4,6,13,11,0.2,0.2
2025-05-04T1400,2698A,76.0072,39.4467,喀什地区,巡警大队,颗粒物(PM10),500,1371,520,316,128,98,,82,82,5,12,3,3,0.4,0.4
2025-05-04T1400,2699A,75.9755,39.4694,喀什地区,吾办,"颗粒物(PM10),细颗粒物(PM2.5)",500,1346,484,503,202,85,,65,65,27,55,3,4,0.3,0.3
2025-05-04T1400,4027A,75.9483,39.4689,喀什地区,老干局,颗粒物(PM10),500,1192,440,340,137,89,,80,80,8,12,5,5,0.1,0.3
2025-05-04T1400,1824A,114.3389,34.7781,开封市,肿瘤医院,颗粒物(PM10),66,82,57,17,19,150,,108,108,4,19,10,10,0.4,0.3
2025-05-04T1400,1826A,114.2885,34.7965,开封市,世纪星幼儿园,臭氧1小时,59,66,56,29,25,167,,122,122,11,22,8,8,0.7,0.7
2025-05-04T1400,3147A,114.3438,34.8106,开封市,龙亭公园,颗粒物(PM10),73,96,59,32,25,154,,112,112,9,20,4,4,0.7,0.6
2025-05-04T1400,3210A,114.3644,34.7964,开封市,汴京公园,颗粒物(PM10),63,75,69,35,33,162,,116,116,8,20,5,5,0.6,0.5
2025-05-04T1400,3473A,114.2485,34.8306,开封市,技师学院,颗粒物(PM10),55,59,54,19,38,152,,116,116,10,15,6,5,0.7,0.5
2025-05-04T1400,3592A,114.4644,34.7556,开封市,祥符区生态环境局,,47,44,53,32,25,150,,98,98,8,23,8,7,0.6,0.5
2025-05-04T1400,1951A,84.895,45.6094,克拉玛依市,长征新村,,32,,16,13,7,101,,88,82,5,6,8,7,0.2,0.2
2025-05-04T1400,1952A,84.8988,45.5893,克拉玛依市,南林小区,,34,16,15,3,12,107,,87,85,2,2,6,6,0.1,0.1
2025-05-04T1400,1954A,84.905,44.3396,克拉玛依市,独山子区,,44,22,19,3,22,140,,84,84,12,11,13,10,0.4,0.4
2025-05-04T1400,1955A,85.6979,46.098,克拉玛依市,乌尔禾区商贸楼,,33,15,29,3,6,103,,77,77,2,2,7,7,0.2,0.2
2025-05-04T1400,3612A,85.1045,45.6899,克拉玛依市,白碱滩区新站,,32,21,19,3,4,102,,88,74,4,5,10,10,0.1,0.1
2025-05-04T1400,2697A,76.1454,39.7142,克孜勒苏柯尔克孜自治州,市人民政府,颗粒物(PM10),500,1462,526,477,165,93,,78,77,5,11,3,5,0.2,0.2
2025-05-04T1400,3665A,76.1658,39.7157,克孜勒苏柯尔克孜自治州,克州文化中心,颗粒物(PM10),500,2032,592,459,184,94,,84,78,2,7,7,7,0.3,0.3
2025-05-04T1400,1450A,102.8204,24.8886,昆明市,呈贡新区,,36,18,21,3,9,115,,88,88,6,10,5,5,0.5,0.6
2025-05-04T1400,1451A,102.6251,24.9608,昆明市,西山森林公园,,,,,,,,,,,,,,,,
2025-05-04T1400,1452A,102.7252,25.0902,昆明市,龙泉镇,,34,,17,3,7,108,,83,83,6,20,7,9,0.2,0.3
2025-05-04T1400,1453A,102.7266,25.0375,昆明市,东风东路,,37,11,14,9,10,116,,88,88,10,13,10,10,0.4,0.5
2025-05-04T1400,1454A,102.6742,25.0669,昆明市,金鼎山,,35,10,19,3,6,110,,90,90,10,13,2,3,0.3,0.4
2025-05-04T1400,1455A,102.6644,25.0401,昆明市,碧鸡广场,,35,8,14,3,8,111,,87,87,8,14,6,7,0.4,0.4
2025-05-04T1400,3179A,102.7494,25.0119,昆明市,官渡区博物馆,,37,21,16,6,7,118,,90,90,7,10,8,9,0.3,0.4
2025-05-04T1400,3375A,102.8017,24.8336,昆明市,青年创业园,,37,8,13,7,8,117,,90,90,5,7,8,8,0.3,0.2
2025-05-04T1400,3550A,102.7997,24.9786,昆明市,昆明学院,,38,9,15,3,8,119,,89,89,6,9,5,6,0.2,0.3
2025-05-04T1400,3551A,102.5967,24.6736,昆明市,晋宁区生态环境分局,,34,6,9,3,6,108,,84,84,4,6,7,7,0.3,0.3
2025-05-04T1400,3552A,102.6678,24.9856,昆明市,云天化总部,,35,12,13,3,7,111,,85,85,16,13,8,9,0.3,0.3
2025-05-04T1400,1456A,91.1319,29.6514,拉萨市,八廓街,,44,17,16,10,8,140,,103,103,8,10,7,10,0.4,0.7
2025-05-04T1400,1457A,91.1221,29.6747,拉萨市,市环保局,,45,12,18,6,9,143,,96,96,7,13,5,7,0.4,0.5
2025-05-04T1400,1458A,91.0874,29.6475,拉萨市,区监测站,,45,9,13,3,7,142,,103,103,7,15,6,10,0.3,0.3
2025-05-04T1400,1459A,91.1774,29.6541,拉萨市,西藏大学,,43,12,12,7,6,136,,,,10,9,8,6,0.4,0.3
2025-05-04T1400,1460A,90.9798,29.6588,拉萨市,区辐射站,,44,16,21,8,9,140,,94,94,9,22,9,10,0.3,0.3
2025-05-04T1400,1461A,91.0834,29.6292,拉萨市,拉萨火车站,,44,12,11,3,7,138,,94,94,7,11,4,6,0.4,0.4
2025-05-04T1400,2520A,109.2203,23.7256,来宾市,来宾技工学校,,35,35,33,21,17,94,,66,66,6,9,7,7,0.6,0.5
2025-05-04T1400,3535A,109.1781,23.7297,来宾市,兴宾区政府,,28,26,29,19,20,85,,58,58,6,11,4,5,0.5,0.5
2025-05-04T1400,4002A,109.2416,23.7461,来宾市,中南小学,,42,35,32,29,17,93,,65,65,4,6,6,6,0.5,0.5
2025-05-04T1400,1477A,104.1373,35.9454,兰州市,榆中兰大校区,,,,,,,,,,,,,,,,
2025-05-04T1400,1479A,103.831,36.0464,兰州市,铁路设计院,颗粒物(PM10),54,57,231,22,58,100,,73,73,11,29,13,9,0.4,0.5
2025-05-04T1400,3241A,103.7439,36.0842,兰州市,百合公园,颗粒物(PM10),53,56,206,23,53,101,,67,67,2,21,3,4,0.3,0.3
2025-05-04T1400,3242A,103.9611,35.998,兰州市,和平,颗粒物(PM10),115,179,341,44,92,106,,81,81,4,9,15,13,0.5,0.6
2025-05-04T1400,4236A,103.6293,36.0938,兰州市,庄浪东路808号,颗粒物(PM10),61,71,221,34,75,102,,73,73,8,28,8,16,0.2,0.4
2025-05-04T1400,4237A,103.7251,36.1043,兰州市,安宁西路88号,颗粒物(PM10),59,68,245,25,62,116,,80,80,2,17,4,6,0.2,0.3
2025-05-04T1400,4238A,103.8470,36.0676,兰州市,北滨河东路1号,颗粒物(PM10),62,74,261,20,66,108,,77,77,8,26,16,11,0.4,0.5
2025-05-04T1400,3245A,103.6633,36.533,兰州新区,新区管委会,颗粒物(PM10),58,66,195,25,73,116,,101,101,4,8,8,12,0.3,0.3
2025-05-04T1400,3246A,103.6975,36.4789,兰州新区,舟曲中学,颗粒物(PM10),95,140,265,12,63,119,,104,104,8,14,4,10,0.3,0.4
2025-05-04T1400,1067A,116.6708,39.5111,廊坊市,药材公司,颗粒物(PM10),55,60,38,27,14,157,,104,104,8,12,5,2,0.4,0.3
2025-05-04T1400,1068A,116.7214,39.5589,廊坊市,开发区,颗粒物(PM10),54,58,44,30,18,160,,105,105,9,12,6,3,0.4,0.3
2025-05-04T1400,1070A,116.7244,39.5269,廊坊市,北华航天学院,颗粒物(PM10),51,52,51,31,17,151,,104,104,10,14,8,5,0.3,0.2
2025-05-04T1400,2919A,116.7022,39.5453,廊坊市,河北工业大学,颗粒物(PM10),56,62,53,26,19,158,,107,107,11,14,9,6,0.4,0.3
2025-05-04T1400,2535A,103.7723,29.5462,乐山市,花湖湾,臭氧1小时,62,40,60,25,37,169,,102,102,6,17,8,10,0.6,0.8
2025-05-04T1400,2536A,103.7627,29.5844,乐山市,牛耳桥,臭氧1小时,57,48,60,26,36,165,,86,86,9,24,8,8,0.4,0.6
2025-05-04T1400,2537A,103.7508,29.6006,乐山市,市第三水厂,,50,47,60,25,36,158,,80,80,5,21,6,6,0.6,0.7
2025-05-04T1400,2538A,103.7571,29.5664,乐山市,市监测站,臭氧1小时,52,49,62,34,35,161,,86,86,6,17,7,7,0.7,1
2025-05-04T1400,3361A,103.7311,29.5628,乐山市,理工大学,臭氧1小时,73,52,59,26,36,178,,92,92,6,18,7,7,0.6,0.9
2025-05-04T1400,2598A,100.2143,26.8576,丽江市,西南郊,,34,14,13,3,6,107,,90,90,1,3,5,5,0.2,0.3
2025-05-04T1400,2599A,100.2497,26.8802,丽江市,丽江古城,,32,10,15,8,11,102,,78,78,7,10,8,8,0.4,0.5
2025-05-04T1400,2600A,100.2203,26.8906,丽江市,市中心,,31,13,9,10,8,97,,71,71,3,5,6,6,0.2,0.3
2025-05-04T1400,1267A,119.914,28.4514,丽水市,监测站大楼,颗粒物(PM10),53,56,60,22,28,135,,127,127,8,12,3,3,0.4,0.5
2025-05-04T1400,1268A,119.93,28.4586,丽水市,莲都小学,颗粒物(PM10),53,56,68,21,26,136,,128,128,6,11,4,4,0.5,0.5
2025-05-04T1400,1269A,119.879,28.4231,丽水市,余庄前,,47,47,58,26,33,141,,125,125,6,11,4,4,0.4,0.4
2025-05-04T1400,1173A,119.176,34.5885,连云港市,市环境监测站,,47,41,43,12,19,148,,117,117,8,13,8,8,0.5,0.6
2025-05-04T1400,3000A,119.3581,34.6972,连云港市,德源药业,,46,34,39,12,17,147,,117,117,7,16,10,10,0.4,0.5
2025-05-04T1400,3007A,119.178,34.844,连云港市,新城一中,,44,44,41,26,22,135,,114,114,14,20,8,8,0.5,0.6
2025-05-04T1400,3008A,119.3608,34.7519,连云港市,胡沟管理处,,43,27,28,12,15,137,,121,121,16,24,15,16,0.6,0.7
2025-05-04T1400,3009A,119.1478,34.5911,连云港市,矿山设计院,颗粒物(PM10),51,51,48,19,20,145,,115,115,13,19,10,11,0.5,0.5
2025-05-04T1400,3434A,119.2413,34.6539,连云港市,工贸学校,,45,34,33,17,22,144,,126,126,14,15,11,10,0.4,0.5
2025-05-04T1400,3664A,119.4172,34.7341,连云港市,连云街道,,46,41,37,17,19,147,,130,130,16,15,9,9,0.5,0.6
2025-05-04T1400,2571A,102.3431,27.8099,凉山彝族自治州,青龙寺,,34,6,23,3,7,108,,82,82,1,5,4,4,0.6,0.7
2025-05-04T1400,2572A,102.2721,27.8415,凉山彝族自治州,邛海宾馆,,34,23,31,9,17,107,,78,78,7,14,11,12,0.6,0.8
2025-05-04T1400,2573A,102.2625,27.898,凉山彝族自治州,西昌市政府,,36,30,28,18,18,114,,79,79,5,11,14,13,0.8,0.8
2025-05-04T1400,2574A,102.2685,27.8851,凉山彝族自治州,凉山州政府,,35,21,28,12,16,109,,78,78,6,14,10,10,0.7,0.8
2025-05-04T1400,4229A,102.2342,27.8859,凉山彝族自治州,凯乐南路30号,,34,21,31,12,20,107,,66,66,6,20,18,18,0.9,1
2025-05-04T1400,2212A,123.2,41.1953,辽阳市,宏伟区,,32,23,51,3,14,102,,89,89,3,13,6,10,0.3,0.6
2025-05-04T1400,2213A,123.1683,41.2495,辽阳市,新华园,,31,24,65,9,19,97,,85,85,2,18,4,6,0.3,0.6
2025-05-04T1400,2214A,123.2354,41.2639,辽阳市,滨河路,,29,22,56,9,18,92,,79,79,4,21,5,7,0.2,0.4
2025-05-04T1400,2215A,123.149,41.2991,辽阳市,铁西工业园,,30,28,70,12,26,95,,81,81,3,24,8,12,0.2,0.6
2025-05-04T1400,2227A,125.1358,42.8845,辽源市,环保局,,29,24,27,6,8,92,,82,82,10,15,6,7,0.2,0.3
2025-05-04T1400,3239A,125.0764,42.9078,辽源市,银鹰制药,,32,15,18,9,11,101,,89,89,9,16,3,2,0.3,0.3
2025-05-04T1400,1625A,115.9848,36.4372,聊城市,区政府,颗粒物(PM10),62,73,49,24,15,144,,102,102,12,16,8,6,0.5,0.5
2025-05-04T1400,2878A,116.0072,36.4343,聊城市,聊大东校,颗粒物(PM10),58,66,47,34,24,142,,93,93,9,19,8,7,0.5,0.4
2025-05-04T1400,3200A,115.9819,36.4978,聊城市,监控中心,,,74,32,,13,145,,110,110,11,17,7,7,0.5,0.4
2025-05-04T1400,3513A,116.0445,36.4361,聊城市,九州社区,颗粒物(PM10),51,52,41,17,12,149,,104,104,8,20,5,5,0.5,0.4
2025-05-04T1400,4018A,116.0567,36.4608,聊城市,星美广场,颗粒物(PM10),53,56,42,8,10,143,,103,103,15,24,10,9,0.5,0.5
2025-05-04T1400,2632A,94.3681,29.6376,林芝市,林芝监测站,,39,6,5,3,3,122,,86,86,3,4,5,5,0.2,0.2
2025-05-04T1400,2633A,94.3616,29.6616,林芝市,林芝人民医院,,38,,8,3,4,120,,83,83,2,2,5,5,0.2,0.3
2025-05-04T1400,2603A,100.0781,23.8982,临沧市,市环保局,,39,,22,27,20,94,,47,47,5,9,7,5,0.6,0.7
2025-05-04T1400,2604A,100.0894,23.8822,临沧市,市气象局,,31,16,17,10,15,99,,54,54,6,10,9,7,0.6,0.7
2025-05-04T1400,1733A,111.5531,36.0783,临汾市,临钢医院,颗粒物(PM10),60,70,50,16,16,153,,112,112,10,17,6,6,0.6,0.6
2025-05-04T1400,1734A,111.5028,36.0714,临汾市,技工学校,颗粒物(PM10),52,54,47,30,24,154,,117,117,9,17,8,8,0.6,0.5
2025-05-04T1400,1736A,111.5018,36.0855,临汾市,市委,颗粒物(PM10),55,60,60,15,13,155,,119,119,9,15,10,9,0.8,0.7
2025-05-04T1400,3018A,111.505,36.1014,临汾市,唐尧大酒店,颗粒物(PM10),62,73,61,18,18,147,,113,113,10,17,6,6,0.6,0.5
2025-05-04T1400,4244A,111.4879,36.0530,临汾市,启星学校,颗粒物(PM10),59,67,55,20,24,153,,116,116,9,19,10,9,0.6,0.6
2025-05-04T1400,4271A,103.2464,35.6123,临夏回族自治州,滨河东路1号,颗粒物(PM10),419,519,264,,99,87,,56,56,2,18,6,6,0.2,0.4
2025-05-04T1400,4310A,103.2093,35.5995,临夏回族自治州,新华街21号,颗粒物(PM10),461,561,294,134,106,81,,58,58,8,28,5,6,0.3,0.5
2025-05-04T1400,1618A,118.3429,35.0532,临沂市,沂河小区,,45,44,51,22,33,142,,114,114,6,14,11,12,0.2,0.3
2025-05-04T1400,1619A,118.295,35.0583,临沂市,鲁南制药厂,,44,31,41,20,27,140,,103,103,21,28,8,9,0.5,0.5
2025-05-04T1400,1620A,118.2794,34.9976,临沂市,新光毛纺厂,,48,29,31,22,25,152,,114,114,13,23,10,11,0.3,0.3
2025-05-04T1400,1621A,118.3956,35.0888,临沂市,河东保险公司,,50,48,39,29,20,157,,123,123,6,14,11,7,0.3,0.4
2025-05-04T1400,3370A,118.3564,35.0215,临沂市,十里堡居委,,46,39,41,19,21,145,,114,114,12,21,6,5,0.3,0.4
2025-05-04T1400,3496A,118.3604,35.1084,临沂市,南坊新区,,46,34,34,24,22,145,,119,119,8,16,9,8,0.1,0.3
2025-05-04T1400,3860A,118.3920,35.0300,临沂市,皇山花园小区,,47,36,42,20,26,148,,117,117,11,20,10,9,0.3,0.3
2025-05-04T1400,1870A,109.4856,24.3895,柳州市,柳东小学,,30,9,24,6,18,93,,89,89,5,7,10,10,0.7,0.7
2025-05-04T1400,1871A,109.4157,24.3277,柳州市,环保监测站,,30,,30,20,20,95,,85,85,7,10,9,9,0.4,0.4
2025-05-04T1400,1872A,109.389,24.341,柳州市,河西水厂,,26,10,30,10,16,83,,78,78,5,8,4,4,0.6,0.6
2025-05-04T1400,1873A,109.4311,24.2921,柳州市,市四中,,30,24,30,8,19,95,,83,83,6,9,8,8,0.7,0.7
2025-05-04T1400,1874A,109.4006,24.3631,柳州市,市九中,,32,22,30,3,16,100,,92,92,4,7,8,8,0.6,0.6
2025-05-04T1400,1875A,109.4958,24.3134,柳州市,古亭山,,34,34,30,9,17,86,,76,76,3,6,6,7,0.7,0.7
2025-05-04T1400,3402A,109.5422,24.3996,柳州市,市二中,,29,21,25,8,16,91,,81,81,8,10,10,11,0.5,0.5
2025-05-04T1400,2307A,116.5079,31.737,六安市,监测大楼,颗粒物(PM10),51,51,51,13,24,151,,108,108,7,12,7,6,0.3,0.4
2025-05-04T1400,2308A,116.4738,31.7643,六安市,皖西学院,颗粒物(PM10),57,63,56,15,21,154,,110,110,9,13,6,6,0.3,0.4
2025-05-04T1400,2309A,116.4996,31.7905,六安市,朝阳厂,颗粒物(PM10),51,52,49,16,22,140,,102,102,12,16,6,5,0.3,0.3
2025-05-04T1400,2310A,116.5567,31.7886,六安市,开发区,颗粒物(PM10),60,69,62,25,28,153,,110,110,10,16,7,6,0.4,0.4
2025-05-04T1400,2576A,104.8,26.5892,六盘水市,窑上,,38,38,36,19,24,102,,63,63,5,6,6,6,0.4,0.5
2025-05-04T1400,2577A,104.83,26.5917,六盘水市,黄土坡,,34,16,37,10,27,108,,67,67,7,17,10,10,0.4,0.7
2025-05-04T1400,2578A,104.89,26.5939,六盘水市,水钢,,35,23,48,9,23,109,,75,75,6,17,10,13,0.3,0.5
2025-05-04T1400,2579A,104.8475,26.5894,六盘水市,民中,,34,14,37,9,23,108,,66,66,6,21,8,11,0.3,0.5
2025-05-04T1400,2580A,104.9544,26.5506,六盘水市,双水,,33,24,39,6,17,105,,80,80,8,16,10,10,0.4,0.4
2025-05-04T1400,2335A,117.0189,25.1181,龙岩市,龙岩师专,,,,,,,,,,,,,,,,
2025-05-04T1400,2336A,117.0217,25.1033,龙岩市,龙岩市监测站,颗粒物(PM10),51,51,48,31,29,130,,77,77,10,17,4,10,0.5,0.6
2025-05-04T1400,2337A,117.0258,25.0661,龙岩市,闽西职业技术学院,,50,50,62,31,30,110,,65,65,11,18,6,19,0.5,0.6
2025-05-04T1400,2338A,117.0196,25.0306,龙岩市,龙岩学院,,43,37,54,30,35,117,,74,74,11,13,15,13,0.6,0.5
2025-05-04T1400,2665A,105.0822,33.3261,陇南市,汉王镇固水子,,,,,,,,,,,,,,,,
2025-05-04T1400,2885A,104.9339,33.3826,陇南市,滨江中学,,50,50,76,16,31,136,,95,95,2,7,10,11,0.3,0.4
2025-05-04T1400,3247A,104.955,33.371,陇南市,市总工会,,46,46,72,20,27,139,,105,105,3,6,8,8,0.2,0.2
2025-05-04T1400,2487A,111.9589,27.8901,娄底市,电视发射台,,46,46,72,28,28,128,,86,86,5,5,7,6,0.5,0.5
2025-05-04T1400,2488A,111.9975,27.725,娄底市,市监测站,颗粒物(PM10),55,59,76,38,35,130,,97,97,11,17,11,12,0.8,0.8
2025-05-04T1400,2489A,112.0194,27.7314,娄底市,市委党校,颗粒物(PM10),52,54,77,35,35,130,,95,95,7,11,5,3,0.5,0.5
2025-05-04T1400,2490A,111.9561,27.7569,娄底市,涟钢,,36,36,83,14,41,113,,66,66,19,13,26,13,1.4,0.9
2025-05-04T1400,2491A,111.9892,27.7044,娄底市,市政府,细颗粒物(PM2.5),58,,67,41,35,129,,75,75,8,9,7,5,0.4,0.5
2025-05-04T1400,1893A,105.4324,28.9634,泸州市,九狮山,,,,,,,,,,,,,,,,
2025-05-04T1400,1894A,105.4427,28.9063,泸州市,小市上码头,颗粒物(PM10),51,52,105,32,60,147,,96,96,10,23,8,16,0.5,0.7
2025-05-04T1400,1895A,105.4241,28.8573,泸州市,兰田宪桥,细颗粒物(PM2.5),59,60,89,42,62,147,,83,83,6,22,10,11,0.4,0.7
2025-05-04T1400,1896A,105.4379,28.8833,泸州市,市环监站,,,,,,,,,,,,,,,,
2025-05-04T1400,4272A,105.3689,28.7783,泸州市,纳溪中医医院,"颗粒物(PM10),细颗粒物(PM2.5)",59,68,91,42,59,140,,76,76,10,27,8,9,0.5,0.7
2025-05-04T1400,2183A,111.1406,37.5211,吕梁市,环保局,颗粒物(PM10),66,82,62,31,22,143,,83,83,10,27,5,5,0.6,0.4
2025-05-04T1400,2185A,111.1297,37.5136,吕梁市,自来水公司,颗粒物(PM10),61,72,49,42,19,141,,82,82,11,23,4,5,0.6,0.4
2025-05-04T1400,2867A,111.1283,37.51,吕梁市,马茂庄小学,颗粒物(PM10),75,99,55,30,15,141,,84,84,16,27,6,7,0.5,0.3
2025-05-04T1400,1812A,112.3931,34.6516,洛阳市,市委党校,,43,43,44,24,23,129,,89,89,6,12,10,9,0.5,0.5
2025-05-04T1400,1815A,112.494,34.6886,洛阳市,河南林校,颗粒物(PM10),56,61,55,28,24,142,,91,91,11,16,12,9,0.3,0.4
2025-05-04T1400,1816A,112.3844,34.623,洛阳市,开发区管委会,,47,47,49,29,28,138,,94,94,13,16,10,9,0.4,0.4
2025-05-04T1400,1817A,112.4267,34.6258,洛阳市,市委新办公区,,46,46,48,24,23,135,,89,89,11,16,9,9,0.3,0.4
2025-05-04T1400,3340A,112.6005,34.6326,洛阳市,伊滨,细颗粒物(PM2.5),57,61,61,40,29,149,,93,93,11,16,10,8,0.5,0.5
2025-05-04T1400,3341A,112.4951,34.6332,洛阳市,中移产业园,颗粒物(PM10),60,69,65,41,29,146,,92,92,12,18,11,9,0.5,0.5
2025-05-04T1400,3593A,112.5736,34.8993,洛阳市,吉利监测站,颗粒物(PM10),57,64,72,36,27,148,,90,90,10,21,12,13,0.4,0.5
2025-05-04T1400,3635A,112.3677,34.662,洛阳市,河科大西苑校区,,47,47,50,22,18,149,,99,99,9,15,11,11,0.4,0.5
2025-05-04T1400,3636A,112.4388,34.6781,洛阳市,英才小学,,47,45,50,20,22,148,,98,98,13,20,9,8,0.5,0.6
2025-05-04T1400,4214A,112.4600,34.6949,洛阳市,春都路1号院,颗粒物(PM10),55,60,60,34,35,152,,100,100,10,15,9,7,0.5,0.5
2025-05-04T1400,2399A,114.051,33.5699,漯河市,三五一五工厂,颗粒物(PM10),54,57,44,23,19,152,,113,113,6,12,6,7,0.7,0.5
2025-05-04T1400,2400A,114.0055,33.5698,漯河市,漯河大学,颗粒物(PM10),54,58,43,24,16,156,,120,120,6,10,6,7,0.4,0.4
2025-05-04T1400,2401A,114.0138,33.5828,漯河市,市水利局,颗粒物(PM10),59,68,48,19,17,154,,117,117,6,10,6,6,0.8,0.6
2025-05-04T1400,2402A,114.0261,33.5698,漯河市,市广电局,颗粒物(PM10),52,54,38,24,18,153,,116,116,7,10,5,6,0.4,0.4
2025-05-04T1400,3478A,113.9749,33.5664,漯河市,市图书馆,颗粒物(PM10),59,67,48,23,18,150,,116,116,11,14,5,6,0.6,0.5
2025-05-04T1400,4250A,114.0892,33.5882,漯河市,韶山路11号,颗粒物(PM10),54,58,52,22,20,151,,104,104,8,18,5,8,0.6,0.6
2025-05-04T1400,1798A,118.5092,31.6837,马鞍山市,湖东路四小,臭氧1小时,55,55,39,14,16,164,,131,131,8,10,8,9,0.5,0.5
2025-05-04T1400,1799A,118.5024,31.6449,马鞍山市,开发区,臭氧1小时,55,56,46,19,20,164,,128,128,12,16,8,9,0.4,0.5
2025-05-04T1400,1802A,118.6245,31.7241,马鞍山市,濮塘,,50,43,36,12,15,157,,130,130,5,7,8,8,0.5,0.6
2025-05-04T1400,3633A,118.4918,31.6809,马鞍山市,雨山,臭氧1小时,53,50,42,20,16,162,,128,128,11,14,9,10,0.5,0.5
2025-05-04T1400,4191A,118.5274,31.72227,马鞍山市,慈湖高新区,,50,50,43,19,20,153,,124,124,9,13,8,9,0.6,0.6
2025-05-04T1400,1686A,111.0286,21.4688,茂名市,电白南海,,34,34,31,19,22,63,,64,64,7,7,1,1,0.9,0.9
2025-05-04T1400,1687A,110.9294,21.6533,茂名市,茂石化七小,,24,24,34,9,15,49,,50,50,3,7,2,2,0.8,0.8
2025-05-04T1400,1688A,110.9107,21.6687,茂名市,健康路,,18,17,24,12,11,54,,58,58,2,4,3,2,0.7,0.8
2025-05-04T1400,1689A,110.8592,21.6828,茂名市,高岭,,48,48,40,9,12,49,,52,52,2,5,3,3,0.6,0.7
2025-05-04T1400,3450A,111.01,21.5165,茂名市,电白水东,,16,12,20,9,10,49,,57,54,7,9,1,1,0.7,0.7
2025-05-04T1400,2539A,104.0308,30.0478,眉山市,黑龙滩水库,臭氧1小时,70,69,48,31,28,176,,88,88,6,18,3,3,0.6,0.5
2025-05-04T1400,2540A,103.8416,30.0874,眉山市,气象局,臭氧1小时,78,64,94,44,49,182,,76,76,12,44,16,17,0.4,0.5
2025-05-04T1400,3137A,103.8578,30.0744,眉山市,市委党校,臭氧1小时,63,66,81,39,44,170,,80,80,9,42,12,12,0.4,0.7
2025-05-04T1400,3148A,103.8291,30.0564,眉山市,区人社局,臭氧1小时,69,50,76,36,47,175,,77,77,17,43,13,15,0.5,0.7
2025-05-04T1400,1690A,116.1231,24.3284,梅州市,梅江月梅,细颗粒物(PM2.5),54,46,60,38,34,103,,67,67,4,22,6,7,0.8,0.8
2025-05-04T1400,1691A,116.0797,24.2719,梅州市,梅县新城,"颗粒物(PM10),细颗粒物(PM2.5)",52,54,56,36,32,121,,75,75,7,20,6,6,0.7,0.7
2025-05-04T1400,1692A,116.1248,24.2654,梅州市,环境监控中心,颗粒物(PM10),54,57,60,36,33,110,,78,78,9,29,7,14,0.8,0.8
2025-05-04T1400,3315A,116.1233,24.2991,梅州市,梅龙,,48,41,56,33,32,117,,80,80,5,15,7,12,0.8,0.8
2025-05-04T1400,1878A,104.7778,31.4741,绵阳市,富乐山,颗粒物(PM10),54,58,82,32,38,122,,84,84,8,18,9,8,0.5,0.5
2025-05-04T1400,1880A,104.6697,31.4668,绵阳市,高新区自来水公司,,45,41,53,31,34,130,,70,70,6,40,4,4,0.6,0.6
2025-05-04T1400,1881A,104.7287,31.5075,绵阳市,三水厂,颗粒物(PM10),54,57,86,37,38,124,,69,69,7,38,9,8,0.5,0.6
2025-05-04T1400,3491A,104.69,31.5322,绵阳市,西科大附属小学,颗粒物(PM10),53,55,85,30,36,123,,72,72,6,27,7,8,0.5,0.5
2025-05-04T1400,3492A,104.5648,31.5343,绵阳市,安州区旅游局,,40,34,64,27,31,128,,89,89,8,21,7,9,0.5,0.5
2025-05-04T1400,4226A,104.7651,31.4531,绵阳市,绵阳市气象局,,48,48,86,32,39,114,,76,76,7,25,3,2,0.5,0.5
2025-05-04T1400,1784A,129.61,44.561,牡丹江市,环保大楼,,28,20,18,6,16,88,,79,79,8,11,5,5,0.2,0.3
2025-05-04T1400,1785A,129.6115,44.5782,牡丹江市,文化广场,,27,21,25,8,19,85,,78,78,10,12,9,9,0.3,0.4
2025-05-04T1400,1786A,129.5904,44.5963,牡丹江市,第一医院,,30,18,23,12,19,93,,83,83,3,10,6,6,0.3,0.4
2025-05-04T1400,1787A,129.6364,44.6075,牡丹江市,机车工厂,,28,20,36,12,19,88,,77,77,3,14,6,8,0.3,0.4
2025-05-04T1400,1788A,129.6386,44.5462,牡丹江市,第一中学,,30,19,29,14,18,94,,85,85,6,12,6,6,0.4,0.5
2025-05-04T1400,2531A,105.0703,29.61,内江市,市监测站,细颗粒物(PM2.5),77,,71,56,58,142,,106,106,8,25,14,13,0.7,0.8
2025-05-04T1400,2532A,105.0717,29.5947,内江市,东兴区政府,细颗粒物(PM2.5),70,54,73,51,55,141,,112,112,10,22,18,18,0.6,0.6
2025-05-04T1400,2533A,105.0653,29.5817,内江市,内江二中,细颗粒物(PM2.5),82,90,90,60,69,144,,109,109,13,30,10,9,0.7,0.7
2025-05-04T1400,2534A,105.0406,29.5822,内江市,内江日报社,细颗粒物(PM2.5),85,77,76,63,65,149,,112,112,7,33,19,16,0.8,0.8
2025-05-04T1400,2628A,92.0657,31.4846,那曲市,那曲监测站,,37,18,29,10,16,118,,76,76,11,21,7,7,0.3,0.6
2025-05-04T1400,4243A,92.0515,31.4787,那曲市,那曲市委宣传部,,40,6,29,3,16,126,,78,78,3,13,5,6,0.2,0.5
2025-05-04T1400,1290A,115.8931,28.6843,南昌市,省外办,细颗粒物(PM2.5),62,67,75,44,44,118,,106,106,19,22,8,9,0.7,0.7
2025-05-04T1400,1291A,115.8886,28.7003,南昌市,省林业公司,"颗粒物(PM10),细颗粒物(PM2.5)",58,66,81,41,39,116,,104,104,10,12,9,11,0.9,0.8
2025-05-04T1400,1292A,115.8126,28.7442,南昌市,林科所,颗粒物(PM10),62,73,79,39,37,130,,121,121,15,15,6,6,0.6,0.6
2025-05-04T1400,1294A,115.8518,28.687,南昌市,建工学校,颗粒物(PM10),59,67,87,26,45,118,,109,109,16,17,6,7,0.8,0.8
2025-05-04T1400,1295A,115.8921,28.6424,南昌市,象湖,颗粒物(PM10),56,62,76,36,36,120,,112,112,15,15,14,12,1.2,0.9
2025-05-04T1400,1296A,115.7423,28.7996,南昌市,武术学校,颗粒物(PM10),58,66,54,32,30,130,,100,100,9,5,8,6,0.8,0.7
2025-05-04T1400,3046A,115.9084,28.6062,南昌市,机电学校,颗粒物(PM10),74,98,92,46,40,124,,118,118,10,14,9,8,1.2,0.7
2025-05-04T1400,3690A,115.9721,28.7031,南昌市,外国语学校,颗粒物(PM10),62,73,80,29,34,129,,115,115,8,11,8,9,0.6,0.6
2025-05-04T1400,4192A,115.9316,28.68677,南昌市,南京东路235号,颗粒物(PM10),66,82,93,39,37,124,,113,113,16,17,11,13,1.0,0.9
2025-05-04T1400,1905A,106.056,30.8064,南充市,西山风景区,,,,,,,,,,,,,,,,
2025-05-04T1400,1906A,106.0789,30.8023,南充市,南充市委,,29,14,63,9,33,91,,89,88,10,16,3,5,0.5,0.6
2025-05-04T1400,1907A,106.1031,30.8217,南充市,南充炼油厂,,29,15,60,6,33,91,,87,87,5,12,3,6,0.4,0.5
2025-05-04T1400,4227A,106.1083,30.7884,南充市,梨树横街98号,,32,,68,22,31,80,,80,78,8,13,2,5,0.3,0.3
2025-05-04T1400,4304A,106.1172,30.843,南充市,清泉寺北路188号,,28,17,60,3,33,89,,84,84,6,14,3,5,0.1,0.2
2025-05-04T1400,4305A,106.067,30.7616,南充市,同庆路1号,,26,22,61,7,34,83,,81,80,11,15,3,5,0.2,0.3
2025-05-04T1400,1151A,118.8086,32.1065,南京市,迈皋桥,,46,28,27,14,11,146,,118,118,4,8,4,4,0.3,0.4
2025-05-04T1400,1152A,118.7538,32.0551,南京市,草场门,,46,46,38,14,13,140,,116,116,15,17,3,2,0.1,0.1
2025-05-04T1400,1153A,118.7794,32.0745,南京市,山西路,,48,48,39,9,9,150,,125,125,12,15,3,4,0.2,0.3
2025-05-04T1400,1154A,118.7752,32.0023,南京市,中华门,颗粒物(PM10),53,56,38,9,10,137,,114,114,2,7,5,6,0.3,0.3
2025-05-04T1400,1155A,118.8109,32.0309,南京市,瑞金路,,45,29,31,14,11,143,,119,119,2,5,6,6,0.4,0.4
2025-05-04T1400,1156A,118.7997,32.0754,南京市,玄武湖,,45,34,30,8,6,141,,117,117,5,7,7,6,0.5,0.5
2025-05-04T1400,1157A,118.6414,32.0931,南京市,浦口,颗粒物(PM10),51,51,41,11,11,154,,127,127,15,18,6,7,0.4,0.5
2025-05-04T1400,1158A,118.7356,31.9996,南京市,奥体中心,,48,39,35,9,10,151,,126,126,11,11,4,4,0.2,0.3
2025-05-04T1400,1159A,118.9125,32.1028,南京市,仙林大学城,,,,28,12,10,149,,121,121,9,11,9,10,0.3,0.4
2025-05-04T1400,3422A,118.8436,31.9198,南京市,江宁彩虹桥,颗粒物(PM10),51,51,36,14,15,147,,121,121,8,12,3,4,0.3,0.4
2025-05-04T1400,3427A,118.8554,32.3578,南京市,六合雄州,臭氧1小时,55,55,37,21,16,164,,118,118,26,26,7,7,0.4,0.4
2025-05-04T1400,4249A,118.8708,31.3402,南京市,汶溪路181号,,47,33,44,15,19,150,,123,123,15,18,4,4,0.2,0.3
2025-05-04T1400,4312A,119.019,31.6512,南京市,中山西路1号,,50,27,29,14,16,157,,124,124,14,16,6,6,0.5,0.5
2025-05-04T1400,1401A,108.3103,22.7881,南宁市,二十一中,,42,42,32,23,18,97,,66,66,6,7,2,3,0.6,0.6
2025-05-04T1400,1402A,108.3141,22.8528,南宁市,北湖,,34,25,34,21,19,107,,70,70,7,9,5,6,0.7,0.7
2025-05-04T1400,1403A,108.3206,22.8225,南宁市,市监测站,,41,41,33,21,18,88,,59,59,6,8,3,5,0.4,0.5
2025-05-04T1400,1404A,108.3829,22.8037,南宁市,大自然花园,,33,33,30,19,20,101,,72,72,3,5,5,5,0.5,0.5
2025-05-04T1400,1405A,108.4394,22.7904,南宁市,仙葫,,33,33,32,21,18,83,,60,60,4,6,6,6,0.6,0.7
2025-05-04T1400,1406A,108.2397,22.8467,南宁市,区农职院,颗粒物(PM10),52,54,37,23,19,106,,65,65,7,9,4,5,0.4,0.5
2025-05-04T1400,1407A,108.3275,22.735,南宁市,英华嘉园,,29,25,37,20,19,86,,64,64,7,11,6,8,0.4,0.4
2025-05-04T1400,3401A,108.4834,22.7618,南宁市,红星社区,,33,33,31,20,17,92,,67,67,2,6,8,9,0.5,0.6
2025-05-04T1400,4221A,108.2177,22.7774,南宁市,乐贤路16号,,35,35,36,21,21,101,,60,60,4,12,6,6,0.5,0.5
2025-05-04T1400,2331A,118.0966,26.6761,南平市,茫荡山,,,,,,,,,,,,,,,,
2025-05-04T1400,2332A,118.1681,26.6369,南平市,南平市监测站,,40,40,56,28,36,121,,97,97,5,14,4,5,0.8,1
2025-05-04T1400,2333A,118.1825,26.6489,南平市,南平铝业有限公司,,45,45,59,23,32,121,,95,95,1,13,3,8,0.6,0.8
2025-05-04T1400,2334A,118.1756,26.6272,南平市,南平七中,颗粒物(PM10),54,57,68,29,39,127,,99,99,3,12,4,6,0.7,0.9
2025-05-04T1400,1168A,120.9098,31.9663,南通市,狼山街道,,38,26,28,7,10,121,,114,114,16,13,4,3,0.3,0.3
2025-05-04T1400,1169A,120.86,32.0005,南通市,虹桥,,40,23,25,10,11,125,,116,116,15,12,2,1,0.5,0.5
2025-05-04T1400,1170A,120.87,32.02,南通市,城中,,41,26,31,8,9,130,,118,118,18,14,3,4,0.3,0.4
2025-05-04T1400,1171A,120.94,31.93,南通市,星湖花园,,38,23,22,12,11,121,,110,110,12,11,3,2,0.4,0.4
2025-05-04T1400,1172A,120.81,32.0417,南通市,紫琅学院,,31,28,26,6,7,98,,104,104,29,13,5,4,0.5,0.5
2025-05-04T1400,3291A,121.067,32.062,南通市,通州监测站,,42,22,30,7,10,132,,115,115,8,7,5,5,0.3,0.4
2025-05-04T1400,3432A,120.9348,31.9883,南通市,环境教育馆,,41,29,36,6,12,130,,117,117,9,11,3,2,0.1,0.2
2025-05-04T1400,2404A,112.5224,33.0122,南阳市,瓦房庄,颗粒物(PM10),52,53,48,18,14,153,,117,117,8,12,6,7,0.6,0.5
2025-05-04T1400,2405A,112.5003,32.9735,南阳市,汉画馆,,46,45,38,19,13,145,,112,112,9,11,6,6,0.3,0.3
2025-05-04T1400,2406A,112.5573,33.027,南阳市,气象站,细颗粒物(PM2.5),79,,47,58,16,154,,112,112,5,10,6,6,0.2,0.2
2025-05-04T1400,2407A,112.5481,32.9689,南阳市,理工学院,,47,42,42,19,17,148,,111,111,9,12,5,5,0.5,0.4
2025-05-04T1400,4008A,112.5234,32.9922,南阳市,卧龙区政府,,49,47,41,23,17,156,,118,118,9,13,5,5,0.5,0.5
2025-05-04T1400,1234A,121.8358,29.911,宁波市,区环保大楼,,36,25,41,15,21,114,,100,100,6,9,9,9,0.6,0.4
2025-05-04T1400,1235A,121.56,29.82,宁波市,万里学院,,41,22,41,9,16,129,,115,115,15,17,5,6,0.3,0.4
2025-05-04T1400,1236A,121.713,29.9572,宁波市,龙赛医院,,36,35,33,11,15,113,,105,100,28,14,12,9,0.6,0.6
2025-05-04T1400,1239A,121.633,29.7733,宁波市,钱湖水厂,,40,15,39,8,14,128,,114,114,6,10,8,9,0.2,0.3
2025-05-04T1400,1240A,121.5856,29.8635,宁波市,太古小学,,40,20,40,3,12,125,,110,110,10,14,6,7,0.6,0.7
2025-05-04T1400,1241A,121.524,29.8674,宁波市,市环境监测中心,,40,23,40,7,12,125,,108,108,15,16,9,10,0.4,0.5
2025-05-04T1400,2871A,121.6147,29.9017,宁波市,万里国际学校,,41,23,40,8,13,131,,113,113,10,13,8,9,0.4,0.5
2025-05-04T1400,3710A,121.5594,29.8975,宁波市,白沙活动中心,,44,44,50,10,16,132,,112,112,14,13,7,8,0.3,0.4
2025-05-04T1400,2339A,119.5001,26.6946,宁德市,金涵水库,,,,,,,,,,,,,,,,
2025-05-04T1400,2341A,119.5388,26.6612,宁德市,宁德市监测站,颗粒物(PM10),53,55,58,22,30,140,,141,129,15,20,6,6,0.4,0.5
2025-05-04T1400,3209A,119.5231,26.6562,宁德市,宁德一中,,49,49,55,24,32,146,,136,128,9,13,8,8,0.2,0.4
2025-05-04T1400,2618A,98.8601,25.8567,怒江傈僳族自治州,州监测站,,29,17,30,9,15,91,,47,47,3,5,6,6,0.3,0.3
2025-05-04T1400,2619A,98.8546,25.8417,怒江傈僳族自治州,泸水一中,,24,22,26,14,16,75,,31,31,6,10,6,6,0.2,0.3
2025-05-04T1400,1888A,101.6891,26.571,攀枝花市,弄弄坪,,34,,17,8,9,108,,86,86,6,10,8,11,0.5,0.5
2025-05-04T1400,1889A,101.5769,26.5928,攀枝花市,河门口,,32,9,24,3,11,102,,68,68,4,14,5,10,0.3,0.6
2025-05-04T1400,1890A,101.7169,26.585,攀枝花市,炳草岗,,35,13,21,3,10,112,,74,74,7,18,11,16,0.6,0.6
2025-05-04T1400,1891A,101.7369,26.5008,攀枝花市,仁和,,34,18,20,15,13,108,,80,80,5,10,8,9,0.4,0.5
2025-05-04T1400,2835A,101.7227,26.567,攀枝花市,四十中小,,38,17,21,11,12,120,,83,83,6,15,11,10,0.6,0.6
2025-05-04T1400,1604A,122.0303,41.1489,盘锦市,开发区,,,14,40,,32,99,,88,88,3,18,6,8,0.3,0.4
2025-05-04T1400,1605A,122.0485,41.0883,盘锦市,兴隆台,,29,23,41,3,13,91,,80,80,7,25,7,9,0.3,0.4
2025-05-04T1400,1606A,121.8297,41.1028,盘锦市,新生街道,,30,12,28,3,12,95,,83,83,8,30,8,11,0.3,0.4
2025-05-04T1400,1832A,113.3257,33.742,平顶山市,新华旅馆,颗粒物(PM10),64,77,72,19,21,162,,112,112,11,24,6,7,0.5,0.4
2025-05-04T1400,1833A,113.2919,33.737,平顶山市,规划设计院,,49,48,47,32,23,155,,110,110,11,19,5,7,0.6,0.5
2025-05-04T1400,1834A,113.182,33.774,平顶山市,平顶山工学院,臭氧1小时,59,50,45,22,17,167,,116,116,8,15,6,6,0.2,0.2
2025-05-04T1400,3204A,113.3025,33.73,平顶山市,规划局,颗粒物(PM10),56,61,52,20,18,161,,114,114,5,14,6,8,0.5,0.4
2025-05-04T1400,3594A,112.8867,33.9116,平顶山市,石龙区,颗粒物(PM10),70,90,77,38,31,173,,103,103,14,24,9,9,0.1,0.1
2025-05-04T1400,2656A,106.6692,35.5461,平凉市,聚贤嘉苑,,,,,,,,,,,,,,,,
2025-05-04T1400,2657A,106.7021,35.5307,平凉市,博物馆,颗粒物(PM10),448,548,147,71,28,99,,94,94,4,15,8,13,0.4,0.7
2025-05-04T1400,2347A,114.0997,27.5002,萍乡市,武功山,,31,31,27,19,15,72,,46,46,7,9,15,14,0.5,0.5
2025-05-04T1400,2348A,113.8385,27.6434,萍乡市,中医院,颗粒物(PM10),73,96,75,51,36,97,,80,80,10,12,18,17,1.2,1
2025-05-04T1400,2349A,113.8493,27.6253,萍乡市,市政府车库,细颗粒物(PM2.5),69,79,63,50,43,94,,72,72,18,18,18,12,1.6,0.8
2025-05-04T1400,2350A,113.8676,27.6435,萍乡市,市环保局,细颗粒物(PM2.5),67,77,70,48,42,100,,77,77,11,15,15,14,0.9,0.9
2025-05-04T1400,2351A,113.866,27.6198,萍乡市,安源区政府,颗粒物(PM10),71,91,74,50,41,87,,62,62,16,16,13,9,1.0,0.7
2025-05-04T1400,2319A,119.0141,25.4325,莆田市,荔城区仓后路,,42,42,65,15,38,129,,117,117,11,16,4,4,0.5,0.6
2025-05-04T1400,2320A,119.0015,25.4553,莆田市,莆田市监测站,颗粒物(PM10),52,53,63,16,39,133,,121,121,11,13,5,6,0.4,0.5
2025-05-04T1400,2321A,119.1119,25.4561,莆田市,涵江区六中,,47,47,57,15,38,131,,126,126,13,17,5,5,0.4,0.5
2025-05-04T1400,2322A,119.1013,25.3215,莆田市,秀屿区政府,,44,44,48,15,29,139,,136,136,12,10,5,6,0.5,0.6
2025-05-04T1400,2323A,118.981,25.4792,莆田市,东圳水库,,,,,,,,,,,,,,,,
2025-05-04T1400,2392A,115.0312,35.7636,濮阳市,环保局,,48,46,40,18,14,152,,115,115,11,16,9,8,0.6,0.6
2025-05-04T1400,2394A,115.0574,35.7609,濮阳市,油田运输公司,臭氧1小时,58,55,50,19,17,166,,119,119,10,15,8,7,0.6,0.5
2025-05-04T1400,3021A,115,35.7668,濮阳市,濮水河管理处,,50,44,34,16,14,157,,121,121,8,17,7,6,0.7,0.6
2025-05-04T1400,4216A,115.0924,35.7686,濮阳市,任丘路479号,臭氧1小时,58,53,46,17,16,166,,114,114,10,17,9,8,0.5,0.3
2025-05-04T1400,2601A,100.98,22.7633,普洱市,市环保局,,29,28,29,20,12,81,,50,50,1,4,6,6,0.3,0.4
2025-05-04T1400,2602A,100.9817,22.8322,普洱市,普洱第二中学,,25,15,18,3,12,77,,50,50,4,9,6,6,0.4,0.5
2025-05-04T1400,2262A,131.0518,45.8751,七台河市,新一中,,31,11,15,7,10,99,,88,88,5,9,11,12,0.6,0.6
2025-05-04T1400,3345A,131.0577,45.7879,七台河市,中波台,,26,15,20,3,10,81,,66,66,7,16,5,7,0.4,0.4
2025-05-04T1400,3637A,131.0176,45.7761,七台河市,人民广场,,28,21,28,11,22,88,,73,73,7,17,9,10,0.4,0.5
2025-05-04T1400,3684A,130.8781,45.8222,七台河市,新建矿广场,,41,41,31,9,14,74,,62,62,14,16,11,11,0.4,0.5
2025-05-04T1400,1779A,123.9305,47.3636,齐齐哈尔市,安居小区,,25,18,18,3,6,80,,70,70,5,8,3,3,0.3,0.3
2025-05-04T1400,1780A,123.9488,47.3386,齐齐哈尔市,中心广场,,25,20,18,3,2,79,,70,70,7,8,8,8,0.3,0.3
2025-05-04T1400,1781A,123.9483,47.3227,齐齐哈尔市,农牧车辆厂,,26,24,18,9,5,81,,71,71,5,6,5,4,0.3,0.2
2025-05-04T1400,1783A,123.945,47.2988,齐齐哈尔市,市环境监测站,,26,11,14,3,3,81,,71,71,4,5,3,3,0.4,0.4
2025-05-04T1400,3662A,123.6333,47.2075,齐齐哈尔市,富区青少年活动中心,,32,32,22,7,8,78,,68,68,6,7,1,2,0.5,0.6
2025-05-04T1400,2591A,107.9783,26.5747,黔东南苗族侗族自治州,市环境监测站,,22,22,30,12,19,67,,68,64,9,8,3,3,0.4,0.4
2025-05-04T1400,2881A,107.8908,26.5311,黔东南苗族侗族自治州,凯里学院,,26,,19,14,18,81,,74,67,2,6,2,2,0.3,0.4
2025-05-04T1400,2593A,107.5228,26.2403,黔南布依族苗族自治州,小围寨,,,17,12,9,7,72,,62,61,7,6,3,2,,0.2
2025-05-04T1400,3538A,107.5175,26.2978,黔南布依族苗族自治州,沙坝,,26,19,17,12,8,83,,62,62,4,6,4,4,0.3,0.4
2025-05-04T1400,2589A,104.9022,25.0925,黔西南布依族苗族自治州,场坝街,,38,13,27,3,15,120,,69,69,7,11,4,10,0.3,0.3
2025-05-04T1400,2590A,104.8811,25.0992,黔西南布依族苗族自治州,坪东大道,,36,13,19,8,11,113,,70,70,6,13,2,5,0.2,0.2
2025-05-04T1400,2502A,108.6236,21.9667,钦州市,市环保站,,31,31,27,17,13,69,,50,50,8,13,4,4,0.6,0.6
2025-05-04T1400,2503A,108.6549,21.9481,钦州市,沙埠小学,,45,45,34,17,16,70,,50,50,8,17,6,7,0.6,0.6
2025-05-04T1400,2504A,108.5989,21.7431,钦州市,港区一小,颗粒物(PM10),69,88,48,18,15,53,,50,50,9,12,7,6,0.5,0.5
2025-05-04T1400,3404A,108.5959,21.9633,钦州市,北职校,,32,32,32,17,15,60,,44,44,9,14,7,8,0.6,0.6
2025-05-04T1400,1043A,119.7493,40.0116,秦皇岛市,第一关,颗粒物(PM10),51,51,40,14,18,106,,88,88,7,32,10,6,0.3,0.4
2025-05-04T1400,1044A,119.5897,39.9499,秦皇岛市,监测站,颗粒物(PM10),51,51,48,9,13,108,,89,89,9,16,5,6,0.3,0.4
2025-05-04T1400,1046A,119.5251,39.9041,秦皇岛市,建设大厦,,36,36,57,17,15,109,,90,90,10,21,4,5,0.3,0.4
2025-05-04T1400,3132A,119.610547,39.943889,秦皇岛市,文明里,,48,48,45,15,14,103,,90,90,13,16,6,5,0.3,0.3
2025-05-04T1400,4198A,119.5090,39.8253,秦皇岛市,北戴河轮滑馆,,46,46,37,11,14,112,,92,92,8,13,7,7,0.4,0.4
2025-05-04T1400,1307A,120.6659,36.2403,青岛市,仰口,,46,28,19,14,12,147,,115,115,7,6,8,7,0.5,0.5
2025-05-04T1400,1310A,120.4134,36.0658,青岛市,市南区东部子站,颗粒物(PM10),64,78,45,22,14,143,,112,112,16,26,10,9,0.7,0.6
2025-05-04T1400,1311A,120.3664,36.1032,青岛市,四方区子站,臭氧1小时,53,39,40,19,19,162,,129,129,15,38,1,2,0.8,0.7
2025-05-04T1400,1312A,120.2994,36.054,青岛市,市南区西部子站,,44,34,42,17,21,140,,114,114,20,45,9,10,0.8,0.7
2025-05-04T1400,1313A,120.4581,36.0858,青岛市,崂山区子站,,50,36,24,19,7,157,,119,119,14,16,11,9,0.8,0.6
2025-05-04T1400,1315A,120.3999,36.3083,青岛市,城阳区子站,臭氧1小时,52,44,32,17,14,161,,116,116,18,28,7,6,0.5,0.5
2025-05-04T1400,1966A,120.0405,35.8735,青岛市,黄岛区4号,,,56,41,22,15,155,,120,120,,20,11,10,0.8,0.6
2025-05-04T1400,3362A,120.5014,36.4034,青岛市,即墨2号,臭氧1小时,72,54,37,25,17,177,,126,126,12,15,8,8,0.6,0.6
2025-05-04T1400,3642A,120.3503,36.0736,青岛市,市北区南部,颗粒物(PM10),51,52,38,27,13,138,,110,110,11,24,11,10,1.0,0.7
2025-05-04T1400,3643A,120.3948,36.1805,青岛市,李沧区北部,,46,46,34,19,17,145,,109,109,15,28,10,10,0.7,0.6
2025-05-04T1400,4290A,120.1969,35.9546,青岛市,珠江路669号,,48,48,37,15,16,153,,126,126,10,19,9,8,0.8,0.6
2025-05-04T1400,1702A,113.0426,23.691,清远市,环保大楼,,39,39,59,25,30,95,,55,55,15,18,6,6,0.8,0.8
2025-05-04T1400,1703A,113.0208,23.7106,清远市,凤城街办,,35,27,43,24,29,88,,48,48,19,20,5,6,0.5,0.6
2025-05-04T1400,3025A,113.0477,23.6344,清远市,技师学院,,26,23,39,15,27,83,,56,56,14,17,6,7,0.5,0.6
2025-05-04T1400,3318A,112.9903,23.7403,清远市,清新太和,,39,39,39,27,30,98,,50,50,11,15,7,7,0.6,0.7
2025-05-04T1400,3455A,113.076,23.7198,清远市,清城东城,,30,30,51,17,31,77,,49,49,9,15,7,7,0.6,0.7
2025-05-04T1400,2661A,107.6325,35.7357,庆阳市,庆阳五中,颗粒物(PM10),266,396,83,44,35,107,,114,114,6,8,4,6,0.5,0.5
2025-05-04T1400,2662A,107.6364,35.7067,庆阳市,市环保局,颗粒物(PM10),260,392,79,35,26,112,,119,119,6,8,7,10,0.4,0.4
2025-05-04T1400,1916A,103.7897,25.5035,曲靖市,环境监测站,,40,21,24,3,9,125,,90,90,7,14,4,7,0.3,0.4
2025-05-04T1400,1917A,103.8,25.5364,曲靖市,烟厂办公区,,41,7,26,3,12,129,,92,92,4,17,4,9,0.3,0.5
2025-05-04T1400,3376A,103.7947,25.462,曲靖市,南苑二区,,41,10,19,3,9,129,,92,92,7,11,6,7,0.4,0.4
2025-05-04T1400,3377A,103.7444,25.5261,曲靖市,曲靖师范学院,,40,8,29,3,18,125,,87,87,4,18,6,21,0.3,0.5
2025-05-04T1400,1264A,118.8692,28.9398,衢州市,环保大楼,,45,44,45,19,19,144,,113,113,12,11,4,4,0.5,0.5
2025-05-04T1400,1265A,118.8709,28.9666,衢州市,实验学校,颗粒物(PM10),56,61,60,28,28,149,,119,119,12,13,6,6,0.4,0.5
2025-05-04T1400,1266A,118.8621,28.9808,衢州市,衢州学院,颗粒物(PM10),54,58,64,27,29,136,,108,108,14,16,5,5,0.4,0.4
2025-05-04T1400,1611A,118.5819,24.9117,泉州市,涂山街,,46,45,52,19,29,146,,121,121,7,17,5,5,0.5,0.6
2025-05-04T1400,1612A,118.5972,24.8978,泉州市,津头埔,,46,46,49,18,32,144,,117,117,12,20,3,3,0.5,0.6
2025-05-04T1400,1613A,118.6663,24.9424,泉州市,万安,,49,49,49,16,26,148,,124,124,10,14,5,4,0.5,0.6
2025-05-04T1400,1614A,118.6117,24.9604,泉州市,清源山,,,,,,,,,,,,,,,,
2025-05-04T1400,3529A,118.6333,24.9264,泉州市,城华南路,,45,41,48,18,26,143,,119,119,12,17,4,3,0.5,0.6
2025-05-04T1400,2626A,88.8876,29.2718,日喀则市,日喀则监测站,,43,10,18,3,7,137,,97,97,2,12,7,7,0.3,0.4
2025-05-04T1400,3726A,88.8781,29.2426,日喀则市,林业技术推广中心,,44,8,22,3,6,138,,100,100,2,5,7,6,0.2,0.2
2025-05-04T1400,1659A,119.471,35.4209,日照市,监测站,颗粒物(PM10),74,97,62,32,28,160,,110,110,16,39,13,8,0.9,0.7
2025-05-04T1400,1660A,119.523,35.4216,日照市,市政府广场,颗粒物(PM10),51,51,46,21,19,146,,117,117,19,26,7,7,0.6,0.6
2025-05-04T1400,1661A,119.5587,35.4044,日照市,港务局,颗粒物(PM10),57,63,60,32,27,157,,121,121,18,29,10,8,0.9,0.8
2025-05-04T1400,3507A,119.5328,35.4625,日照市,职业技术学院,颗粒物(PM10),54,58,47,22,21,156,,120,120,14,18,9,7,0.7,0.6
2025-05-04T1400,3604A,119.3266,35.1044,日照市,岚山环保分局,颗粒物(PM10),52,53,43,24,21,159,,128,128,18,22,8,7,0.7,0.7
2025-05-04T1400,1835A,111.1922,34.7752,三门峡市,市政府,颗粒物(PM10),68,85,76,30,28,150,,113,113,12,15,8,10,0.6,0.7
2025-05-04T1400,1836A,111.1587,34.7942,三门峡市,开发区,颗粒物(PM10),60,70,63,32,27,149,,111,111,13,15,10,11,0.6,0.7
2025-05-04T1400,1838A,111.143,34.7955,三门峡市,风景区,,,105,69,,26,150,,114,114,,11,12,13,0.4,0.5
2025-05-04T1400,3039A,111.1911,34.7829,三门峡市,三门峡市第一小学,颗粒物(PM10),63,75,64,21,18,153,,118,118,11,13,7,11,0.5,0.6
2025-05-04T1400,3598A,111.1,34.7167,三门峡市,富达温泉假日酒店,颗粒物(PM10),59,67,77,31,27,150,,116,116,9,11,8,7,0.7,0.8
2025-05-04T1400,2324A,117.6211,26.2625,三明市,三钢,细颗粒物(PM2.5),62,64,58,44,36,105,,83,83,9,20,4,7,0.6,1.1
2025-05-04T1400,2325A,117.635,26.2714,三明市,三明二中,细颗粒物(PM2.5),79,,53,58,51,95,,76,76,11,20,3,5,0.5,0.9
2025-05-04T1400,2326A,117.6028,26.2378,三明市,三元区政府,颗粒物(PM10),56,62,61,39,33,103,,76,76,12,18,3,4,0.7,0.8
2025-05-04T1400,2327A,117.7275,26.3108,三明市,洋溪,,,,,,,,,,,,,,,,
2025-05-04T1400,1876A,109.5078,18.2489,三亚市,河东子站,,15,15,23,8,12,38,,36,36,2,5,4,4,0.3,0.4
2025-05-04T1400,1877A,109.4964,18.2681,三亚市,河西子站,,14,14,22,7,14,38,,33,33,2,8,2,2,0.2,0.3
2025-05-04T1400,3540A,109.7348,18.3443,三亚市,君悦子站,,15,15,21,8,12,38,,39,39,2,9,3,3,0.2,0.3
2025-05-04T1400,2624A,91.7608,29.2313,山南市,山南监测站,,44,11,19,7,9,139,,88,88,3,9,3,5,0.4,0.5
2025-05-04T1400,2625A,91.7706,29.2436,山南市,山南人民医院,,,,34,,14,139,,96,96,2,7,,4,,0.3
2025-05-04T1400,1674A,116.6794,23.3667,汕头市,金平子站,,28,28,27,14,18,85,,78,78,6,10,4,6,0.6,0.7
2025-05-04T1400,1675A,116.7244,23.3633,汕头市,龙湖子站,,29,29,30,20,17,90,,80,80,2,6,4,5,0.5,0.6
