timepoint,stationcode,longitude,latitude,area,positionname,primarypollutant,aqi,pm10,pm10_24h,pm2_5,pm2_5_24h,o3,o3_24h,o3_8h,o3_8h_24h,no2,no2_24h,so2,so2_24h,co,co_24h
2025-05-04T2300,2566A,102.1879,31.914,阿坝藏族羌族自治州,州农科所,,37,37,31,16,13,59,,82,74,15,12,13,12,0.7,0.6
2025-05-04T2300,2568A,102.2502,31.8896,阿坝藏族羌族自治州,马师校,,30,30,18,20,13,65,,93,84,8,9,5,5,0.5,0.5
2025-05-04T2300,3994A,102.2165,31.9024,阿坝藏族羌族自治州,马尔康中学西区,,43,,18,30,14,71,,103,95,2,4,4,5,0.3,0.3
2025-05-04T2300,2695A,80.292,41.1694,阿克苏地区,电视台,颗粒物(PM10),500,637,251,157,72,64,,89,85,18,6,8,5,0.5,0.4
2025-05-04T2300,2696A,80.2613,41.1551,阿克苏地区,艺术中心,颗粒物(PM10),500,643,300,181,77,70,,96,90,12,4,4,4,0.5,0.4
2025-05-04T2300,2204A,105.6467,38.8363,阿拉善盟,西城区西花园,颗粒物(PM10),246,382,184,120,57,103,,106,101,8,11,5,6,0.6,0.7
2025-05-04T2300,2205A,105.6985,38.8411,阿拉善盟,蒙二幼,颗粒物(PM10),383,486,194,110,47,90,,92,88,7,8,14,9,0.4,0.4
2025-05-04T2300,2206A,105.724,38.8516,阿拉善盟,环保局新楼,颗粒物(PM10),360,468,182,107,46,99,,96,94,3,4,8,9,0.5,0.5
2025-05-04T2300,2708A,88.1264,47.8517,阿勒泰地区,市站,,38,38,23,10,4,84,,95,91,2,5,3,3,0.1,0.2
2025-05-04T2300,2630A,80.1161,32.5,阿里地区,阿里监测站,,38,12,9,6,5,119,,120,120,9,8,6,6,0.4,0.4
2025-05-04T2300,3192A,80.0903,32.5028,阿里地区,阿里藏医院,,40,37,19,3,4,126,,128,128,4,4,7,6,0.4,0.4
2025-05-04T2300,2642A,109.0318,32.6537,安康市,香溪洞,,30,30,36,20,14,84,,114,100,8,6,7,8,0.8,0.7
2025-05-04T2300,2644A,109.0072,32.6975,安康市,汉滨区检察院,颗粒物(PM10),53,55,49,21,20,71,,122,98,12,8,25,19,0.5,0.4
2025-05-04T2300,4054A,109.0325,32.6913,安康市,市邮政管理局,,50,50,47,23,18,77,,120,98,7,6,6,8,0.7,0.6
2025-05-04T2300,2291A,117.0809,30.5177,安庆市,环科院,细颗粒物(PM2.5),65,50,53,47,24,74,,167,140,37,18,2,4,1.0,0.7
2025-05-04T2300,2292A,117.0331,30.5119,安庆市,马山宾馆,细颗粒物(PM2.5),68,51,48,49,25,86,,162,135,31,16,11,8,0.8,0.6
2025-05-04T2300,2294A,116.9896,30.6145,安庆市,安庆大学,细颗粒物(PM2.5),95,,51,71,28,73,,157,131,40,15,5,6,0.6,0.5
2025-05-04T2300,3173A,117.0598,30.5351,安庆市,市人大,细颗粒物(PM2.5),60,46,51,43,25,68,,171,142,51,19,8,10,0.7,0.5
2025-05-04T2300,3123A,105.9408,26.2431,安顺市,凤凰山,,30,29,30,21,25,91,,109,106,8,8,13,7,0.5,0.5
2025-05-04T2300,3124A,105.9439,26.2564,安顺市,金钟山,,31,31,31,19,23,91,,113,109,7,6,18,6,0.3,0.3
2025-05-04T2300,3125A,105.8983,26.2481,安顺市,娄家坡,,30,,29,21,27,94,,114,108,7,6,10,7,0.6,0.6
2025-05-04T2300,1819A,114.3551,36.1017,安阳市,红庙街,,43,43,48,24,20,109,,132,128,6,7,7,3,0.4,0.4
2025-05-04T2300,1820A,114.361,36.0681,安阳市,银杏小区,细颗粒物(PM2.5),57,56,62,40,23,103,,137,129,14,13,12,4,0.4,0.3
2025-05-04T2300,3141A,114.3922,36.0878,安阳市,信访局,细颗粒物(PM2.5),57,59,71,40,18,127,,141,140,13,12,4,4,0.5,0.3
2025-05-04T2300,3669A,114.4705,36.0637,安阳市,左辅环卫站,,50,47,50,35,25,88,,141,126,18,17,3,6,0.7,0.6
2025-05-04T2300,3703A,114.2917,36.0949,安阳市,安钢职工学校,颗粒物(PM10),59,67,65,34,24,116,,127,126,11,12,6,6,0.6,0.4
2025-05-04T2300,1748A,123.044,41.1196,鞍山市,深沟寺,,26,26,36,9,13,83,,96,86,9,13,5,9,0.4,0.6
2025-05-04T2300,1749A,123.011,41.0931,鞍山市,太阳城,,29,29,33,10,12,67,,88,78,10,14,6,11,0.5,0.9
2025-05-04T2300,1750A,123.0485,41.1442,鞍山市,太平,,36,36,48,12,16,74,,85,78,11,16,8,12,0.5,0.8
2025-05-04T2300,1751A,122.9642,41.0971,鞍山市,铁西三道街,,39,39,47,19,16,71,,93,84,20,22,4,9,0.5,0.8
2025-05-04T2300,1753A,123.022,41.0821,鞍山市,明达新区,,25,24,35,10,14,78,,91,85,8,11,6,10,0.2,0.5
2025-05-04T2300,4201A,122.9446,41.0826,鞍山市,兴盛南路290号,,43,43,46,14,16,73,,92,82,19,21,6,10,0.5,0.7
2025-05-04T2300,2195A,107.4212,40.761,巴彦淖尔市,附二中,颗粒物(PM10),500,937,350,184,77,80,,84,82,5,12,6,15,0.6,0.6
2025-05-04T2300,2196A,107.37,40.7372,巴彦淖尔市,市环保大楼,颗粒物(PM10),500,845,340,189,94,87,,93,89,6,12,4,6,0.4,0.4
2025-05-04T2300,1956A,86.1472,41.7538,巴音郭楞蒙古自治州,孔雀公园,颗粒物(PM10),500,693,504,155,118,72,,85,83,9,6,6,6,0.2,0.2
2025-05-04T2300,1957A,86.1972,41.7166,巴音郭楞蒙古自治州,棉纺厂,颗粒物(PM10),500,1052,597,222,145,70,,87,84,9,5,2,2,0.2,0.2
2025-05-04T2300,1958A,86.2357,41.7173,巴音郭楞蒙古自治州,经济开发区,颗粒物(PM10),500,894,533,196,115,66,,83,78,14,6,6,6,0.2,0.1
2025-05-04T2300,2914A,106.7677,31.8794,巴中市,苏山坪,,31,29,58,13,33,97,,107,86,5,8,2,5,0.3,0.4
2025-05-04T2300,3181A,106.7768,31.8526,巴中市,市五中,,42,42,63,14,33,95,,89,83,3,15,6,7,0.4,0.6
2025-05-04T2300,3183A,106.7418,31.8654,巴中市,圣泉水务公司,,33,33,58,14,29,92,,92,82,6,20,7,7,0.4,0.5
2025-05-04T2300,3616A,106.7616,31.8344,巴中市,市中心医院,细颗粒物(PM2.5),52,,63,36,37,92,,93,86,5,17,4,4,0.4,0.5
2025-05-04T2300,2235A,122.7911,45.6077,白城市,洮北区环保局,,38,38,22,19,10,57,,84,68,22,9,3,2,0.5,0.3
2025-05-04T2300,2236A,122.8738,45.5725,白城市,市环保局,,44,44,14,24,9,18,,87,73,50,6,1,1,0.4,0.3
2025-05-04T2300,2231A,126.4219,41.9171,白山市,喜丰,,41,41,26,13,10,25,,88,62,30,15,7,5,0.4,0.4
2025-05-04T2300,2232A,126.4077,41.9419,白山市,环保局,,40,40,28,10,12,25,,85,55,19,16,5,4,0.4,0.4
2025-05-04T2300,2647A,104.1724,36.5446,白银市,第三小学,,32,28,348,22,59,66,,110,93,19,10,16,20,0.4,0.6
2025-05-04T2300,2648A,104.1465,36.5482,白银市,动力公司,,38,,277,26,73,70,,110,94,20,11,13,12,0.7,0.5
2025-05-04T2300,2512A,106.6103,23.9011,百色市,市监测站,,28,28,43,18,25,54,,102,73,20,14,16,11,0.5,0.6
2025-05-04T2300,2513A,106.6538,23.8859,百色市,市中心血站,,20,10,47,10,30,62,,102,79,15,14,8,13,0.6,0.8
2025-05-04T2300,3406A,106.6085,23.8798,百色市,祈福高中,,31,31,43,14,24,53,,92,70,18,14,8,10,0.6,0.7
2025-05-04T2300,2270A,117.396,32.939,蚌埠市,工人疗养院,颗粒物(PM10),53,56,56,15,17,141,,177,169,13,18,6,8,0.7,0.7
2025-05-04T2300,2271A,117.3605,32.9427,蚌埠市,百货大楼,颗粒物(PM10),51,51,54,19,17,138,,171,164,15,17,7,8,0.5,0.5
2025-05-04T2300,2273A,117.4185,32.8911,蚌埠市,蚌埠学院,,41,39,48,20,20,130,,171,162,12,13,5,6,0.5,0.6
2025-05-04T2300,2274A,117.3533,32.9673,蚌埠市,淮上区政府,颗粒物(PM10),54,58,57,19,20,137,,171,163,18,21,8,8,0.4,0.4
2025-05-04T2300,2275A,117.3145,32.8977,蚌埠市,高新区,颗粒物(PM10),51,51,52,21,20,132,,171,162,12,12,7,7,0.4,0.4
2025-05-04T2300,3715A,117.3092,32.9314,蚌埠市,蚌埠田家炳中学,颗粒物(PM10),51,52,55,26,21,141,,182,173,14,13,7,7,0.4,0.4
2025-05-04T2300,1585A,109.8756,40.6532,包头市,市环境监测站,颗粒物(PM10),405,505,117,150,40,75,,81,77,12,35,18,17,0.4,0.6
2025-05-04T2300,1587A,109.9991,40.5842,包头市,包头八中,颗粒物(PM10),232,372,115,146,46,62,,85,77,18,33,8,20,0.6,0.9
2025-05-04T2300,1588A,109.8538,40.6821,包头市,青山宾馆,颗粒物(PM10),414,514,115,114,46,75,,83,77,14,31,30,18,1.1,0.7
2025-05-04T2300,1589A,109.8642,40.6288,包头市,惠龙物流,颗粒物(PM10),418,518,115,122,35,77,,86,81,12,31,13,19,0.5,0.7
2025-05-04T2300,1590A,110.0377,40.5546,包头市,东河鸿龙湾,颗粒物(PM10),174,297,110,68,33,42,,87,77,23,31,7,15,0.5,0.5
2025-05-04T2300,3283A,109.9154,40.5685,包头市,滨河大厦,颗粒物(PM10),285,409,113,155,43,77,,85,80,6,32,10,17,0.4,0.6
2025-05-04T2300,3419A,109.9447,40.6261,包头市,包头市委党校,颗粒物(PM10),315,432,104,114,33,60,,89,82,18,28,6,17,0.4,0.7
2025-05-04T2300,3683A,109.8331,40.6576,包头市,昆区政府,颗粒物(PM10),408,508,114,123,44,67,,79,71,25,36,28,18,1.3,0.8
2025-05-04T2300,1930A,107.185,34.3063,宝鸡市,庙沟村,,37,37,79,11,24,85,,126,111,7,7,7,8,0.4,0.5
2025-05-04T2300,1931A,107.0708,34.3017,宝鸡市,竹园沟,,35,35,73,13,20,77,,120,103,6,9,8,9,0.3,0.4
2025-05-04T2300,1932A,107.1906,34.3672,宝鸡市,三陆医院,颗粒物(PM10),52,53,76,20,26,82,,122,105,21,20,5,9,0.3,0.4
2025-05-04T2300,1933A,107.1431,34.3547,宝鸡市,监测站,颗粒物(PM10),53,55,79,17,31,82,,114,98,10,13,4,6,0.2,0.3
2025-05-04T2300,1934A,107.1186,34.3739,宝鸡市,技工学校,颗粒物(PM10),55,60,75,21,28,78,,122,102,9,10,7,8,0.4,0.5
2025-05-04T2300,1935A,107.3906,34.3528,宝鸡市,陈仓区环保局家属楼,,44,44,88,14,28,94,,126,107,9,15,8,24,0.4,0.6
2025-05-04T2300,1936A,107.2058,34.3497,宝鸡市,文理学院,,42,42,76,13,30,91,,123,107,9,14,6,9,0.3,0.3
2025-05-04T2300,1937A,107.2386,34.3622,宝鸡市,三迪小学,颗粒物(PM10),55,59,97,16,30,89,,122,104,9,13,6,9,0.4,0.5
2025-05-04T2300,1051A,115.493,38.8632,保定市,游泳馆,颗粒物(PM10),70,89,59,38,30,124,,142,132,13,17,4,7,0.1,0.1
2025-05-04T2300,1052A,115.5213,38.8959,保定市,华电二区,,41,38,46,24,24,131,,144,134,3,9,3,5,0.2,0.2
2025-05-04T2300,1053A,115.4713,38.9108,保定市,接待中心,颗粒物(PM10),55,59,55,17,24,114,,133,124,6,11,3,5,0.3,0.4
2025-05-04T2300,1054A,115.4612,38.8416,保定市,地表水厂,颗粒物(PM10),57,63,69,14,25,111,,139,125,14,19,3,5,0.2,0.2
2025-05-04T2300,3581A,115.31981,38.95208,保定市,满城区生态环境分局,,41,41,59,19,23,124,,153,141,6,13,3,5,0.3,0.3
2025-05-04T2300,3582A,115.47694,38.76408,保定市,清苑区第二中学,颗粒物(PM10),68,86,70,21,26,126,,142,132,5,15,5,6,0.3,0.3
2025-05-04T2300,3583A,115.62909,39.02311,保定市,徐水物探局,颗粒物(PM10),59,67,68,12,25,122,,144,132,10,29,1,3,0.2,0
2025-05-04T2300,4004A,115.4202,38.8656,保定市,双鹰农机,,50,50,56,24,27,118,,139,125,7,16,2,8,0.2,0.3
2025-05-04T2300,4034A,115.5150,38.8590,保定市,植保所站,,43,43,61,26,21,124,,134,124,5,12,3,3,0.4,0.4
2025-05-04T2300,2594A,99.1678,25.1081,保山市,市环境监测站,,25,18,15,15,14,80,,99,91,8,8,6,5,0.5,0.4
2025-05-04T2300,2595A,99.1711,25.1328,保山市,市环保局,,27,14,16,12,8,86,,105,96,4,5,8,7,0.4,0.4
2025-05-04T2300,1867A,109.1436,21.4086,北海市,海滩公园,,37,37,32,3,10,72,,74,72,4,6,5,5,0.6,0.6
2025-05-04T2300,1868A,109.0981,21.4661,北海市,新市环保局,,21,18,25,7,12,67,,65,65,9,8,3,3,0.5,0.5
2025-05-04T2300,1869A,109.1778,21.5233,北海市,北海工业园,,20,16,29,12,16,63,,66,64,7,9,7,7,0.4,0.4
2025-05-04T2300,3400A,109.1911,21.4415,北海市,龙潭自来水厂,,30,30,24,14,15,70,,68,68,6,7,7,7,0.4,0.4
2025-05-04T2300,1001A,116.3621,39.8784,北京市,万寿西宫,,36,36,52,18,23,113,,158,149,7,17,6,7,0.6,0.6
2025-05-04T2300,1003A,116.4174,39.9289,北京市,东四,颗粒物(PM10),68,85,57,23,21,113,,151,145,14,17,3,4,0.5,0.4
2025-05-04T2300,1004A,116.4072,39.8863,北京市,天坛,,37,37,48,21,21,74,,140,129,12,16,1,3,0.6,0.5
2025-05-04T2300,1005A,116.462,39.9365,北京市,农展馆,,50,50,51,23,20,94,,142,135,12,18,1,3,0.8,0.6
2025-05-04T2300,1006A,116.3392,39.9295,北京市,官园,颗粒物(PM10),53,56,58,19,21,102,,138,132,13,20,5,6,0.4,0.4
2025-05-04T2300,1007A,116.2878,39.9611,北京市,海淀万柳,,43,43,70,18,19,79,,129,120,8,16,4,5,0.4,0.4
2025-05-04T2300,1008A,116.6636,40.135,北京市,顺义新城,细颗粒物(PM2.5),59,55,51,42,24,111,,128,126,13,15,6,7,0.3,0.2
2025-05-04T2300,1009A,116.6275,40.3275,北京市,怀柔镇,,49,49,30,21,11,112,,113,113,8,7,2,3,0.4,0.3
2025-05-04T2300,1010A,116.2296,40.217,北京市,昌平镇,,39,39,34,18,12,98,,109,108,9,13,2,3,0.3,0.3
2025-05-04T2300,1011A,116.3966,39.9821,北京市,奥体中心,,42,42,42,19,16,99,,134,129,17,22,3,4,0.4,0.3
2025-05-04T2300,3281A,115.9718,40.4529,北京市,延庆夏都,,43,43,26,24,12,125,,110,110,7,14,3,3,0.4,0.3
2025-05-04T2300,3418A,116.8336,40.4095,北京市,密云新城,,46,46,32,17,12,120,,107,107,6,8,3,3,0.5,0.4
2025-05-04T2300,3672A,116.1541,39.8204,北京市,丰台云岗,,45,45,64,15,24,85,,142,130,15,21,3,4,0.3,0.3
2025-05-04T2300,3673A,116.6804,39.9081,北京市,通州东关,颗粒物(PM10),53,56,60,28,25,116,,147,142,14,17,5,6,0.5,0.5
2025-05-04T2300,3674A,115.9577,39.7603,北京市,房山燕山,,40,40,58,21,24,116,,142,138,10,18,2,2,0.3,0.3
2025-05-04T2300,3675A,116.4672,39.7733,北京市,大兴旧宫,,46,46,62,22,30,121,,143,136,9,16,1,2,0.2,0.3
2025-05-04T2300,3694A,115.986,40.4563,北京市,延庆石河营,,46,46,27,22,11,121,,105,105,3,11,2,2,0.4,0.3
2025-05-04T2300,3695A,116.6151,40.3053,北京市,怀柔新城,,48,48,28,18,12,115,,115,115,5,4,1,2,0.5,0.3
2025-05-04T2300,3696A,116.2545,39.8768,北京市,丰台小屯,,33,33,50,15,23,73,,132,121,13,25,1,3,0.4,0.4
2025-05-04T2300,3697A,116.84,40.3844,北京市,密云镇,,38,38,31,17,13,117,,119,119,7,16,5,6,0.5,0.3
2025-05-04T2300,4182A,116.1942,39.9158,北京市,八角北路9号,,42,42,75,17,30,99,,132,125,8,28,3,4,0.2,0.1
2025-05-04T2300,4194A,117.0790,40.1518,北京市,洳河巡河路,,42,40,43,26,22,134,,145,145,6,14,5,4,0.5,0.4
2025-05-04T2300,1761A,123.8275,41.3064,本溪市,大峪,颗粒物(PM10),56,61,47,21,18,7,,100,69,63,21,6,7,0.6,0.5
2025-05-04T2300,1762A,123.7567,41.3325,本溪市,溪湖,颗粒物(PM10),64,78,62,43,24,42,,100,75,24,17,2,4,0.8,0.7
2025-05-04T2300,1763A,123.7169,41.3094,本溪市,彩屯,颗粒物(PM10),53,55,47,30,20,25,,101,67,43,19,9,9,0.7,0.6
2025-05-04T2300,1764A,123.7669,41.2864,本溪市,东明,颗粒物(PM10),57,63,52,27,18,28,,100,77,46,26,8,9,0.9,0.8
2025-05-04T2300,1765A,123.7992,41.2664,本溪市,新立屯,,26,25,38,13,14,30,,100,68,51,25,6,8,0.6,0.6
2025-05-04T2300,1766A,123.8142,41.3472,本溪市,威宁,颗粒物(PM10),64,78,58,38,18,16,,97,65,44,17,5,5,0.7,0.5
2025-05-04T2300,2587A,105.2864,27.3125,毕节市,八中,细颗粒物(PM2.5),60,53,50,43,35,86,,103,100,9,9,7,6,0.5,0.5
2025-05-04T2300,2588A,105.31,27.2944,毕节市,师专,颗粒物(PM10),59,67,67,41,35,89,,102,99,9,12,9,9,0.6,0.6
2025-05-04T2300,4263A,105.3688,27.3598,毕节市,工业大道,,50,46,50,35,34,72,,105,96,16,13,7,8,0.8,0.7
2025-05-04T2300,1629A,118.0018,37.3617,滨州市,第二水厂,颗粒物(PM10),65,80,64,24,23,118,,150,141,15,21,11,12,0.6,0.4
2025-05-04T2300,1630A,117.9776,37.393,滨州市,北中新校,颗粒物(PM10),58,66,44,29,24,122,,152,145,20,20,10,10,0.4,0.2
2025-05-04T2300,3514A,117.9378,37.3956,滨州市,中海酒店,颗粒物(PM10),56,61,41,24,23,130,,157,151,16,18,10,21,0.8,0.7
2025-05-04T2300,3515A,117.9378,37.3553,滨州市,开发区一中,颗粒物(PM10),69,88,65,24,20,120,,151,146,20,24,8,9,0.7,0.4
2025-05-04T2300,3516A,118.0917,37.694,滨州市,金海六路,,,76,49,,30,125,,153,145,18,26,12,15,0.3,0.2
2025-05-04T2300,4028A,117.9956,37.3753,滨州市,滨州市西街道办事处,颗粒物(PM10),62,73,49,36,24,128,,164,155,17,19,9,9,0.4,0.2
2025-05-04T2300,2311A,115.8072,33.8399,亳州市,污水处理厂,颗粒物(PM10),51,51,44,18,14,146,,159,154,12,15,5,6,0.5,0.3
2025-05-04T2300,2312A,115.7789,33.8518,亳州市,三国揽胜宫,颗粒物(PM10),54,57,47,22,18,155,,163,159,10,11,7,8,0.5,0.4
2025-05-04T2300,3332A,115.7633,33.8034,亳州市,亳州学院,,48,48,39,18,13,141,,164,159,14,13,3,4,0.7,0.4
2025-05-04T2300,2693A,82.0485,44.8556,博尔塔拉蒙古自治州,市党校,,31,31,25,9,10,92,,118,116,16,15,5,5,0.6,0.6
2025-05-04T2300,2694A,82.0806,44.8969,博尔塔拉蒙古自治州,市环保局,,39,39,32,14,10,64,,118,110,32,15,2,2,0.7,0.7
2025-05-04T2300,1071A,116.8842,38.2991,沧州市,沧县城建局,颗粒物(PM10),57,63,44,33,24,96,,128,118,33,17,5,5,0.5,0.3
2025-05-04T2300,1072A,116.8584,38.3254,沧州市,电视转播站,颗粒物(PM10),57,64,57,31,22,86,,130,118,37,18,5,5,0.3,0.2
2025-05-04T2300,1073A,116.8709,38.3228,沧州市,市环保局,颗粒物(PM10),60,69,48,39,26,96,,131,119,30,13,2,3,0.4,0.3
2025-05-04T2300,3324A,116.8136,38.3004,沧州市,河北水利电力学院,细颗粒物(PM2.5),55,56,43,39,18,116,,136,125,22,19,7,6,0.4,0.3
2025-05-04T2300,2622A,97.1806,31.1273,昌都市,昌都监测站,,32,30,8,22,7,57,,113,97,23,6,2,3,0.4,0.2
2025-05-04T2300,3719A,97.1714,31.1406,昌都市,昌都会议中心,,28,15,10,13,8,87,,118,109,7,4,3,3,0.2,0.2
2025-05-04T2300,2690A,88.1236,43.8886,昌吉回族自治州,天山天池,,,2,10,,7,67,,92,84,4,4,5,5,0.5,0.5
2025-05-04T2300,2692A,87.2717,44.0297,昌吉回族自治州,新区政务中心,,29,29,17,8,5,70,,127,121,41,11,6,7,0.7,0.3
2025-05-04T2300,3613A,87.3095,44.0142,昌吉回族自治州,亚心广场,颗粒物(PM10),52,53,22,19,4,70,,123,117,52,16,9,8,0.5,0.3
2025-05-04T2300,1119A,125.3325,43.9166,长春市,食品厂,颗粒物(PM10),55,59,26,26,15,18,,84,54,64,26,5,4,0.5,0.3
2025-05-04T2300,1120A,125.2863,43.9027,长春市,客车厂,颗粒物(PM10),52,54,24,30,15,28,,86,59,51,23,6,5,0.5,0.3
2025-05-04T2300,1121A,125.2841,43.8463,长春市,邮电学院,,38,37,18,26,14,30,,92,68,48,19,6,5,0.6,0.5
2025-05-04T2300,1122A,125.3716,43.8772,长春市,劳动公园,,42,34,23,29,14,15,,91,67,52,17,6,6,0.5,0.3
2025-05-04T2300,1123A,125.3297,43.8805,长春市,园林处,,39,37,20,27,13,48,,88,70,34,16,7,6,0.4,0.3
2025-05-04T2300,1124A,125.4605,43.79,长春市,净月潭,,32,32,20,14,11,48,,87,71,12,8,6,6,0.3,0.3
2025-05-04T2300,1126A,125.3863,43.8447,长春市,经开区环卫处,颗粒物(PM10),57,64,29,15,9,15,,87,63,63,22,10,6,0.5,0.4
2025-05-04T2300,1127A,125.245,43.7783,长春市,高新区管委会,,39,39,23,20,14,39,,90,65,32,17,6,6,0.3,0.2
2025-05-04T2300,1128A,125.1761,43.8325,长春市,岱山公园,颗粒物(PM10),57,64,23,29,14,7,,88,60,67,22,6,4,0.4,0.3
2025-05-04T2300,1335A,113.0833,28.2325,长沙市,经开区环保局,细颗粒物(PM2.5),99,,60,74,35,64,,105,101,27,21,5,7,0.8,0.6
2025-05-04T2300,1336A,112.8872,28.2189,长沙市,高开区环保局,细颗粒物(PM2.5),85,,57,63,41,44,,119,109,20,11,5,6,0.7,0.5
2025-05-04T2300,1337A,113.0792,28.2053,长沙市,马坡岭,细颗粒物(PM2.5),84,82,65,62,38,58,,115,106,25,21,4,6,0.8,0.6
2025-05-04T2300,1338A,112.9394,28.19,长沙市,湖南师范大学,细颗粒物(PM2.5),80,68,56,59,34,55,,112,101,18,16,3,2,0.7,0.5
2025-05-04T2300,1339A,113.0178,28.1322,长沙市,雨花区环保局,细颗粒物(PM2.5),98,80,61,73,37,75,,118,113,26,18,4,6,0.8,0.5
2025-05-04T2300,1340A,112.9792,28.2597,长沙市,伍家岭,细颗粒物(PM2.5),98,,60,73,34,50,,102,94,22,16,3,4,0.7,0.5
2025-05-04T2300,1341A,113.0014,28.1944,长沙市,火车新站,细颗粒物(PM2.5),67,71,63,48,33,54,,114,103,29,20,6,8,0.8,0.5
2025-05-04T2300,1342A,112.9844,28.1178,长沙市,天心区环保局,细颗粒物(PM2.5),78,94,61,57,36,78,,112,106,30,21,4,4,1.1,0.8
2025-05-04T2300,1343A,112.8908,28.1308,长沙市,湖南中医药大学,细颗粒物(PM2.5),73,73,58,53,34,60,,112,102,22,14,3,4,0.7,0.5
2025-05-04T2300,1344A,112.9581,28.3611,长沙市,沙坪,颗粒物(PM10),74,97,60,29,24,48,,87,78,13,12,5,6,0.7,0.6
2025-05-04T2300,1727A,113.1147,36.1547,长治市,清华站,,33,33,45,7,18,102,,133,123,6,10,6,7,0.5,0.6
2025-05-04T2300,1730A,113.0886,36.2125,长治市,审计局,,34,34,41,9,14,102,,138,126,8,15,7,9,0.3,0.3
2025-05-04T2300,1731A,113.0844,36.1856,长治市,长治八中,颗粒物(PM10),52,54,52,23,22,100,,134,124,8,13,8,9,0.4,0.5
2025-05-04T2300,2845A,113.1569,36.1911,长治市,德盛苑,,42,42,42,3,19,89,,129,118,8,11,5,6,0.5,0.4
2025-05-04T2300,3568A,113.06,36.0464,长治市,向阳小学,颗粒物(PM10),55,59,62,12,24,92,,138,128,16,14,11,12,0.3,0.3
2025-05-04T2300,3569A,112.8792,36.3144,长治市,屯留一中,,35,35,47,3,18,92,,131,115,6,12,9,9,0.1,0.4
2025-05-04T2300,4189A,113.1131,36.19948,长治市,英华南巷50号,,43,43,43,3,16,100,,137,127,4,8,5,6,0.5,0.5
2025-05-04T2300,4190A,113.2367,36.3344,长治市,学府街1号,颗粒物(PM10),65,79,57,10,20,95,,135,124,9,25,1,5,0.5,0.7
2025-05-04T2300,1854A,111.6975,28.9703,常德市,市二中,细颗粒物(PM2.5),84,,49,62,36,88,,133,113,14,15,5,8,1.0,0.8
2025-05-04T2300,3138A,111.7153,29.0289,常德市,武陵区永安,细颗粒物(PM2.5),70,53,58,51,36,105,,135,126,12,11,7,10,0.8,0.6
2025-05-04T2300,3139A,111.6892,28.9881,常德市,鼎城区玉霞,细颗粒物(PM2.5),63,56,60,45,37,96,,136,120,10,11,4,7,0.8,0.7
2025-05-04T2300,3140A,111.6625,29.0531,常德市,武陵区长庚,细颗粒物(PM2.5),64,52,55,46,35,113,,144,131,10,11,8,11,1.0,0.8
2025-05-04T2300,1196A,119.9633,31.762,常州市,市监测站,,32,32,42,12,14,98,,142,127,22,19,8,9,0.6,0.7
2025-05-04T2300,1200A,119.9468,31.7069,常州市,武进监测站,,30,26,30,7,10,94,,138,125,25,22,6,8,0.4,0.5
2025-05-04T2300,1201A,119.9255,31.9087,常州市,安家,,38,38,39,13,13,92,,136,109,16,18,9,10,0.0,0.2
2025-05-04T2300,3002A,119.9805,31.8174,常州市,行政中心,,32,32,35,9,11,91,,135,118,18,18,13,14,0.3,0.4
2025-05-04T2300,3003A,120.0522,31.7748,常州市,经开区,,40,40,37,8,11,96,,140,122,23,22,9,10,0.4,0.5
2025-05-04T2300,3010A,119.9025,31.7964,常州市,钟楼,,32,31,33,6,11,100,,144,131,20,18,7,8,0.5,0.5
2025-05-04T2300,3429A,119.8598,31.7066,常州市,武进经发区,,31,26,34,10,14,99,,138,125,14,13,8,9,0.6,0.7
2025-05-04T2300,3430A,119.5826,31.7245,常州市,金坛城区,,33,27,28,10,13,104,,147,131,15,13,8,8,0.4,0.4
2025-05-04T2300,2220A,120.4318,41.5881,朝阳市,西梁,,28,28,34,11,14,87,,90,89,9,16,10,8,0.4,0.4
2025-05-04T2300,2221A,120.4521,41.5646,朝阳市,河畔小区,,30,21,25,10,16,94,,94,94,5,9,11,6,0.2,0.3
2025-05-04T2300,2222A,120.4176,41.5648,朝阳市,八里堡,,31,31,32,12,12,83,,88,87,11,16,10,6,0.3,0.3
2025-05-04T2300,2223A,120.3806,41.5969,朝阳市,农业园区,,27,27,25,15,13,79,,90,87,13,13,9,6,0.3,0.3
2025-05-04T2300,1705A,116.6367,23.6719,潮州市,西园路,,,,36,25,28,85,,95,94,9,8,11,5,0.5,0.5
2025-05-04T2300,3026A,116.6183,23.6608,潮州市,市政府,,35,35,40,19,24,89,,95,94,8,9,4,5,0.7,0.7
2025-05-04T2300,4036A,116.6461,23.6761,潮州市,金山,,39,39,40,16,26,77,,89,88,13,12,13,8,0.6,0.7
2025-05-04T2300,2472A,113.0073,25.9061,郴州市,马头岭,,17,17,40,3,17,31,,54,45,12,17,8,8,0.3,0.5
2025-05-04T2300,2473A,113.0116,25.8226,郴州市,市职中,,13,13,33,8,26,41,,62,60,12,11,4,4,0.5,0.6
2025-05-04T2300,2475A,113.0383,25.8071,郴州市,市审计局,,17,13,32,10,25,52,,62,60,8,12,2,9,0.4,0.5
2025-05-04T2300,2476A,113.0348,25.7759,郴州市,市环保局,,18,18,38,7,28,49,,61,60,10,11,3,10,0.4,0.6
2025-05-04T2300,4252A,113.0138,25.8011,郴州市,好美居路49号,,18,9,34,8,25,56,,62,61,7,13,6,10,0.5,0.7
2025-05-04T2300,1431A,103.9728,30.7236,成都市,金泉两河,细颗粒物(PM2.5),63,,70,45,31,95,,151,123,9,22,3,3,0.7,0.8
2025-05-04T2300,1432A,104.176,30.6872,成都市,十里店,,42,42,69,18,37,101,,158,132,9,21,4,5,0.4,0.5
2025-05-04T2300,1433A,104.079,30.5706,成都市,三瓦窑,,32,32,58,17,32,99,,146,123,13,34,4,5,0.5,0.6
2025-05-04T2300,1434A,104.1114,30.63,成都市,沙河铺,,45,45,64,26,36,82,,126,106,12,23,7,7,0.6,0.7
2025-05-04T2300,1437A,104.0786,30.6531,成都市,君平街,,45,44,61,31,38,81,,123,104,14,26,5,7,0.7,0.8
2025-05-04T2300,2880A,104.0239,30.65639,成都市,大石西路,细颗粒物(PM2.5),59,56,63,42,36,95,,140,121,14,29,5,6,0.4,0.4
2025-05-04T2300,3136A,104.2725,30.5589,成都市,龙泉驿区区政府,,32,22,47,12,25,100,,140,122,8,13,4,5,0.4,0.5
2025-05-04T2300,3357A,104.0106,30.6931,成都市,金博路,颗粒物(PM10),53,56,53,12,26,86,,139,116,12,24,8,8,0.4,0.4
2025-05-04T2300,3359A,104.0578,30.5225,成都市,华阳,,39,34,54,27,41,75,,132,107,18,24,6,7,0.6,0.8
2025-05-04T2300,3488A,104.3853,30.7453,成都市,青白江技师分院,细颗粒物(PM2.5),52,38,61,36,36,103,,150,128,11,26,3,3,0.2,0.3
2025-05-04T2300,3489A,104.0789,30.4072,成都市,科学城,,33,30,61,21,39,103,,133,120,6,19,4,4,0.5,0.6
2025-05-04T2300,4011A,103.8506,30.6947,成都市,光华大道三段,颗粒物(PM10),58,66,72,38,42,106,,178,144,15,24,1,2,0.6,0.7
2025-05-04T2300,4224A,104.2433,30.5353,成都市,鲸龙路1057号,,37,37,61,23,36,92,,133,114,18,30,5,6,0.5,0.6
2025-05-04T2300,1062A,117.9531,40.9081,承德市,铁路,颗粒物(PM10),56,62,27,29,8,133,,98,98,12,17,3,3,0.3,0.3
2025-05-04T2300,1063A,117.9392,40.9763,承德市,中国银行,颗粒物(PM10),53,55,26,18,9,132,,92,81,6,13,4,5,0.4,0.4
2025-05-04T2300,1064A,117.9503,40.928,承德市,开发区,,44,39,25,19,14,140,,96,96,10,16,6,6,0.3,0.3
2025-05-04T2300,1065A,117.8051,40.9655,承德市,文化中心,颗粒物(PM10),54,58,46,28,14,131,,94,80,14,20,4,9,0.4,0.5
2025-05-04T2300,1066A,117.9268,41.0026,承德市,离宫,,46,44,24,32,22,108,,92,81,11,12,1,3,0.3,0.3
2025-05-04T2300,2314A,117.47,30.6618,池州市,池州学院,颗粒物(PM10),51,51,48,28,22,102,,153,138,15,12,5,7,0.6,0.5
2025-05-04T2300,3237A,117.4918,30.6617,池州市,展览馆,,50,50,46,23,21,90,,156,139,14,10,5,6,0.6,0.5
2025-05-04T2300,3333A,117.5627,30.695,池州市,第八中学,,49,49,46,24,21,103,,152,138,10,8,5,6,0.4,0.4
2025-05-04T2300,3334A,117.5038,30.6243,池州市,第十二中学,细颗粒物(PM2.5),59,59,49,42,23,66,,151,129,21,10,3,4,0.7,0.6
2025-05-04T2300,1744A,118.9233,42.2816,赤峰市,松山一中,,22,22,18,10,7,57,,81,64,26,18,13,13,0.6,0.5
2025-05-04T2300,1745A,118.9576,42.2728,赤峰市,哈达街,颗粒物(PM10),53,56,28,19,10,33,,81,54,55,28,72,16,0.6,0.5
2025-05-04T2300,1746A,118.8788,42.2554,赤峰市,天义路,,50,50,23,28,13,19,,88,59,60,20,111,20,0.6,0.4
2025-05-04T2300,3058A,119.2658,42.0353,赤峰市,银河街,,34,34,22,14,12,43,,80,64,16,10,13,16,0.4,0.4
2025-05-04T2300,3286A,118.9359,42.3147,赤峰市,桥北物流园区,,34,34,17,3,8,58,,82,70,14,15,7,8,0.3,0.2
2025-05-04T2300,2521A,107.3476,22.4136,崇左市,市环保局江州分局,细颗粒物(PM2.5),58,62,49,41,33,82,,116,110,8,10,12,9,0.6,0.5
2025-05-04T2300,4256A,107.3750,22.3736,崇左市,石景林东路7号,细颗粒物(PM2.5),65,48,46,47,35,87,,127,120,10,10,15,8,0.6,0.5
2025-05-04T2300,2298A,118.3093,32.3153,滁州市,老年大学,,42,41,41,16,18,132,,166,156,11,14,1,2,0.2,0.3
2025-05-04T2300,2299A,118.3244,32.2786,滁州市,人大宾馆,,41,41,42,16,16,130,,166,155,11,13,8,9,0.2,0.3
2025-05-04T2300,3207A,118.3118,32.3038,滁州市,市政府原办公楼,,42,37,38,16,17,132,,167,156,12,13,4,5,0.2,0.3
2025-05-04T2300,3331A,118.3267,32.2634,滁州市,图书馆,,44,44,45,26,21,124,,158,147,11,11,8,8,0.3,0.4
2025-05-04T2300,2605A,101.5482,25.0441,楚雄彝族自治州,州环境监测站,,33,17,11,11,8,103,,116,112,9,7,6,6,0.4,0.4
2025-05-04T2300,2606A,101.538,25.0492,楚雄彝族自治州,市经济开发区,,36,36,15,16,10,99,,112,107,9,8,7,7,0.6,0.5
2025-05-04T2300,2548A,107.5277,31.2827,达州市,达州职业技术学院,,32,32,51,10,25,4,,70,49,29,22,5,6,0.5,0.6
2025-05-04T2300,2549A,107.5086,31.2186,达州市,市环境监测站,,40,40,48,14,24,16,,73,59,36,26,4,5,0.4,0.4
2025-05-04T2300,2550A,107.4988,31.2132,达州市,凤凰小区,,39,39,46,19,25,19,,81,65,36,22,6,7,0.5,0.4
2025-05-04T2300,2551A,107.5082,31.1986,达州市,达县机关宾馆,,36,36,46,6,17,3,,66,52,40,28,4,5,0.4,0.4
2025-05-04T2300,2552A,107.4644,31.2124,达州市,市政中心,,47,47,52,12,21,18,,76,62,39,26,2,2,0.5,0.5
2025-05-04T2300,2614A,100.1542,25.7054,大理白族自治州,大理市环境监测站,,28,,10,18,17,88,,106,103,11,7,7,7,0.3,0.3
2025-05-04T2300,2615A,100.2171,25.5811,大理白族自治州,大理古城,,36,28,16,25,10,82,,109,103,12,8,8,8,0.5,0.4
2025-05-04T2300,1109A,121.612,38.9741,大连市,甘井子,颗粒物(PM10),54,58,52,32,18,102,,98,92,26,21,6,6,0.4,0.3
2025-05-04T2300,1110A,121.565,38.9511,大连市,周水子,,45,45,41,25,13,113,,98,98,18,15,9,8,0.5,0.4
2025-05-04T2300,1111A,121.5637,38.8845,大连市,星海三站,,48,48,38,30,16,100,,108,108,16,14,4,5,0.4,0.3
2025-05-04T2300,1112A,121.6302,38.9117,大连市,青泥洼桥,,50,50,35,27,15,122,,120,119,17,11,10,8,0.2,0.2
2025-05-04T2300,1113A,121.6251,38.8638,大连市,傅家庄,,50,50,37,29,15,104,,131,129,22,12,7,6,0.4,0.3
2025-05-04T2300,1114A,121.5213,38.8661,大连市,七贤岭,颗粒物(PM10),53,55,48,27,16,118,,114,109,17,14,8,8,0.5,0.4
2025-05-04T2300,1115A,121.2529,38.8061,大连市,旅顺,细颗粒物(PM2.5),58,56,34,41,17,84,,81,81,32,25,7,7,0.5,0.4
2025-05-04T2300,1116A,121.7485,39.1311,大连市,金州,,38,38,31,18,13,94,,102,98,20,17,8,8,0.6,0.5
2025-05-04T2300,1117A,121.7811,39.0496,大连市,开发区,颗粒物(PM10),53,56,36,29,14,89,,96,90,37,23,7,6,0.5,0.4
2025-05-04T2300,1118A,121.9762,39.0631,大连市,双D港,,39,39,30,27,13,93,,111,98,23,16,9,9,0.4,0.3
2025-05-04T2300,1789A,124.81117,46.03138,大庆市,大同区,,33,33,24,23,15,55,,76,64,9,6,4,4,0.5,0.4
2025-05-04T2300,1790A,125.129,46.533,大庆市,龙凤区,,24,14,19,13,13,75,,78,76,7,9,4,4,0.4,0.4
2025-05-04T2300,1791A,124.902,46.408,大庆市,红岗区,,22,22,18,13,10,69,,83,76,5,5,6,6,0.2,0.2
2025-05-04T2300,1792A,125.153,46.586,大庆市,萨尔图区,,26,26,23,10,8,70,,72,68,6,8,5,6,0.3,0.3
2025-05-04T2300,1793A,124.9042,46.6215,大庆市,让胡路区,,23,19,18,16,12,72,,76,75,4,6,6,6,0.3,0.3
2025-05-04T2300,3481A,125.141,46.634,大庆市,萨区政府监测点,,26,21,20,3,3,81,,84,81,2,4,5,5,0.3,0.3
2025-05-04T2300,1723A,113.2994,40.0758,大同市,云冈宾馆,颗粒物(PM10),51,51,38,21,17,64,,108,93,28,23,8,10,0.7,0.9
2025-05-04T2300,1724A,113.3444,40.0917,大同市,大同大学,,20,16,32,12,13,61,,101,85,27,28,8,13,0.5,0.5
2025-05-04T2300,1725A,113.2661,40.1269,大同市,安家小村,,31,31,44,15,13,63,,100,88,20,23,20,21,0.3,0.8
2025-05-04T2300,1726A,113.2711,40.0844,大同市,教育学院,,19,17,39,10,19,60,,101,86,26,24,9,12,0.4,0.7
2025-05-04T2300,3282A,113.3397,40.0597,大同市,大同市卫生学校,,32,26,34,22,15,58,,95,80,21,23,6,9,0.7,0.8
2025-05-04T2300,3565A,113.1367,40.1122,大同市,云冈站,,20,15,50,11,19,64,,103,86,15,21,10,16,0.3,0.3
2025-05-04T2300,3566A,113.1186,40.2556,大同市,图书馆,,22,,32,15,12,56,,95,82,18,12,10,10,0.5,0.4
2025-05-04T2300,3567A,113.5931,40.0461,大同市,区一中,,32,26,28,22,11,71,,104,92,20,14,14,14,0.5,0.4
2025-05-04T2300,4199A,113.2798,40.0997,大同市,魏都大道141号,,21,20,48,10,17,65,,108,94,26,26,13,16,0.7,1
2025-05-04T2300,2269A,124.1069,50.4097,大兴安岭地区,科技局,,25,13,19,11,14,78,,80,80,2,2,4,4,0.3,0.3
2025-05-04T2300,3663A,124.1164,50.4278,大兴安岭地区,红旗社区,,24,,5,3,6,75,,79,78,2,2,4,4,0.3,0.3
2025-05-04T2300,1600A,124.3303,40.0625,丹东市,江湾东路,颗粒物(PM10),51,51,41,35,20,29,,99,72,33,18,6,7,1.0,0.7
2025-05-04T2300,1601A,124.4256,40.1503,丹东市,临江后街,"颗粒物(PM10),细颗粒物(PM2.5)",54,58,28,38,13,51,,96,81,20,10,5,6,0.7,0.5
2025-05-04T2300,1602A,124.3933,40.1461,丹东市,元宝山,,32,32,32,14,14,58,,97,92,23,12,8,8,0.7,0.6
2025-05-04T2300,1603A,124.3633,40.1092,丹东市,民主桥,,45,45,38,25,17,31,,94,68,37,24,5,6,0.9,0.8
2025-05-04T2300,3541A,109.5726,19.5167,儋州市,第一中学子站,,38,38,27,22,16,53,,66,64,9,5,8,6,0.5,0.5
2025-05-04T2300,3542A,109.5567,19.5187,儋州市,东坡学校子站,,35,35,27,22,16,54,,66,63,8,6,7,5,0.7,0.6
2025-05-04T2300,2616A,98.5842,24.428,德宏傣族景颇族自治州,德宏州监测站,,44,44,28,27,14,37,,86,70,18,9,10,8,0.9,0.6
2025-05-04T2300,3677A,98.5881,24.4368,德宏傣族景颇族自治州,芒市人民政府综合楼,颗粒物(PM10),53,56,35,22,13,49,,95,78,12,10,5,5,0.5,0.5
2025-05-04T2300,1901A,104.4239,31.1208,德阳市,东山公园,颗粒物(PM10),69,87,65,26,36,88,,125,110,5,13,3,6,0.7,0.9
2025-05-04T2300,1902A,104.3826,31.1317,德阳市,西小区,颗粒物(PM10),66,81,72,26,40,89,,132,115,7,20,4,6,0.6,0.8
2025-05-04T2300,1904A,104.3553,31.1091,德阳市,耐火材料厂,颗粒物(PM10),114,177,76,28,38,88,,138,119,9,20,4,7,0.5,0.6
2025-05-04T2300,3639A,104.4019,31.1244,德阳市,市教育局,颗粒物(PM10),63,75,69,36,39,91,,138,119,6,17,4,7,0.5,0.7
2025-05-04T2300,1622A,116.3032,37.4674,德州市,儿童乐园,颗粒物(PM10),57,63,68,29,22,132,,151,148,13,12,8,10,0.4,0.4
2025-05-04T2300,1624A,116.2991,37.4451,德州市,监理站,颗粒物(PM10),54,58,62,31,27,122,,152,146,17,13,8,10,0.5,0.5
2025-05-04T2300,3066A,116.2721,37.4379,德州市,九衢泉纯净水厂,颗粒物(PM10),54,58,62,27,32,99,,144,128,28,22,7,10,0.8,0.7
2025-05-04T2300,3371A,116.3728,37.4403,德州市,开发区人民医院,颗粒物(PM10),53,56,64,22,21,122,,136,135,15,15,7,9,0.6,0.7
2025-05-04T2300,3372A,116.3572,37.4094,德州市,太阳城中学,细颗粒物(PM2.5),70,85,66,51,32,118,,156,148,30,17,6,7,0.3,0.4
2025-05-04T2300,3511A,116.5652,37.3319,德州市,陵城艺术中心,颗粒物(PM10),57,63,60,24,16,136,,158,156,17,16,4,6,0.5,0.3
2025-05-04T2300,2621A,99.7056,27.8317,迪庆藏族自治州,迪庆州站,,27,25,19,14,11,84,,99,93,9,9,5,5,0.4,0.3
2025-05-04T2300,3180A,99.7136,27.8094,迪庆藏族自治州,质量技术监督局,,29,11,15,9,8,91,,105,97,6,9,3,3,0.6,0.6
2025-05-04T2300,4257A,104.6092,35.5962,定西市,将台街,,49,49,268,25,58,82,,115,107,13,16,3,5,0.2,0.1
2025-05-04T2300,4309A,104.6159,35.5701,定西市,正龙路62号,,45,45,212,28,47,86,,114,107,4,8,9,9,0.1,0.2
2025-05-04T2300,1389A,113.7547,23.0494,东莞市,莞城梨川,,25,25,24,15,18,45,,82,57,14,11,6,6,0.5,0.5
2025-05-04T2300,1390A,113.7944,23.0128,东莞市,东城石井,,20,20,25,9,15,45,,80,56,13,15,3,3,0.6,0.6
2025-05-04T2300,1391A,113.7383,22.9658,东莞市,南城西平,,22,22,22,11,13,47,,80,60,18,15,2,2,0.4,0.4
2025-05-04T2300,3319A,113.7338,23.0381,东莞市,万江金泰,,28,28,24,15,15,22,,66,44,20,11,5,5,0.6,0.6
2025-05-04T2300,3626A,113.7533,23.0202,东莞市,南城元岭,,21,21,22,12,15,39,,78,55,22,12,3,2,0.6,0.6
2025-05-04T2300,3627A,113.7875,23.0457,东莞市,东城主山,,21,21,25,11,14,44,,76,55,17,17,5,4,0.3,0.4
2025-05-04T2300,1666A,118.6614,37.4309,东营市,市环保局,,46,46,46,19,15,134,,161,150,23,30,12,11,0.6,0.5
2025-05-04T2300,3036A,118.6904,37.4338,东营市,开发区管委会,颗粒物(PM10),62,73,58,19,17,139,,157,146,18,26,8,10,0.6,0.5
2025-05-04T2300,3365A,118.5719,37.565,东营市,垦利区民丰路,颗粒物(PM10),51,51,55,17,19,134,,154,145,23,31,7,8,0.8,0.6
2025-05-04T2300,3498A,118.5055,37.8612,东营市,河口城区,颗粒物(PM10),52,53,49,10,18,129,,160,156,16,23,8,9,1.0,0.8
2025-05-04T2300,3646A,118.4978,37.4623,东营市,胜利站,颗粒物(PM10),61,71,60,27,26,118,,140,135,28,37,11,13,0.8,0.7
2025-05-04T2300,3734A,118.35,37.26,东营市,理想之城,,48,48,52,24,21,134,,160,150,18,28,7,8,0.6,0.6
2025-05-04T2300,1591A,110.0023,39.8129,鄂尔多斯市,综合楼,颗粒物(PM10),183,315,152,53,31,73,,96,84,14,24,7,9,0.3,0.4
2025-05-04T2300,1592A,109.9486,39.8261,鄂尔多斯市,巴音孟克林场办事处,颗粒物(PM10),159,268,140,61,39,82,,99,89,10,21,6,10,0.3,0.4
2025-05-04T2300,1593A,109.7736,39.5986,鄂尔多斯市,康泽苑,颗粒物(PM10),128,205,127,48,34,77,,95,89,10,19,7,8,0.3,0.3
2025-05-04T2300,1594A,109.8119,39.5989,鄂尔多斯市,华泰汽车城,颗粒物(PM10),134,217,128,48,34,71,,90,84,13,29,6,8,0.3,0.4
2025-05-04T2300,1595A,109.9734,39.7884,鄂尔多斯市,奥林花园,颗粒物(PM10),150,249,153,41,34,69,,89,80,14,33,3,9,0.5,0.5
2025-05-04T2300,2436A,114.8938,30.3994,鄂州市,市政府,,,94,68,39,34,96,,158,131,19,23,7,10,,0.6
2025-05-04T2300,2437A,114.8989,30.3714,鄂州市,赵家坝,细颗粒物(PM2.5),64,72,65,46,30,95,,152,124,14,18,5,7,1.1,0.9
2025-05-04T2300,3654A,114.8094,30.4089,鄂州市,精准医疗中心,细颗粒物(PM2.5),63,66,65,45,32,105,,158,131,20,18,4,9,1.0,1.1
2025-05-04T2300,2454A,109.4978,30.2981,恩施土家族苗族自治州,湖北民院,,46,46,64,28,30,33,,105,62,19,10,5,6,0.7,0.6
2025-05-04T2300,2455A,109.4707,30.2798,恩施土家族苗族自治州,州电力总公司,,35,28,55,24,36,45,,114,62,13,17,4,5,0.5,0.4
2025-05-04T2300,3549A,109.5061,30.3772,恩施土家族苗族自治州,龙凤新区,,29,29,47,18,26,35,,83,56,11,9,6,6,0.6,0.6
2025-05-04T2300,2499A,108.3411,21.6158,防城港市,沙万,,25,25,28,13,12,28,,36,25,8,10,2,2,0.5,0.5
2025-05-04T2300,2500A,108.3514,21.7731,防城港市,防城档案局,,30,30,30,16,17,41,,48,44,6,4,1,3,0.4,0.5
2025-05-04T2300,2501A,108.3506,21.6414,防城港市,大海花园,,26,26,26,11,12,42,,51,43,6,5,3,3,0.3,0.4
2025-05-04T2300,1371A,113.1294,23.0067,佛山市,湾梁,,27,27,27,11,14,36,,89,59,18,18,8,7,0.7,0.6
2025-05-04T2300,1372A,113.1083,23.0478,佛山市,华材职中,,29,29,26,17,15,35,,92,61,21,16,8,8,0.5,0.5
2025-05-04T2300,1373A,113.144,23.0453,佛山市,南海气象局,,34,34,28,16,18,27,,86,55,22,17,1,1,0.6,0.5
2025-05-04T2300,1374A,113.2881,22.8094,佛山市,顺德苏岗,,23,23,32,12,15,41,,83,60,10,12,6,6,0.5,0.6
2025-05-04T2300,1376A,112.8383,22.8678,佛山市,高明孔堂,,32,32,27,14,16,41,,71,58,9,8,5,5,0.5,0.5
2025-05-04T2300,1377A,112.8836,23.1588,佛山市,三水监测站,,35,29,28,24,19,12,,68,45,50,28,3,4,0.6,0.5
2025-05-04T2300,1378A,112.867,23.185,佛山市,三水云东海,颗粒物(PM10),51,51,43,11,18,3,,81,49,43,27,3,2,0.6,0.5
2025-05-04T2300,3625A,113.2544,22.7642,佛山市,容桂街道办,,19,19,24,12,17,41,,70,53,12,15,4,5,0.6,0.7
2025-05-04T2300,1282A,119.2681,26.0504,福州市,师大,,30,26,47,21,25,82,,128,101,15,14,4,5,0.4,0.4
2025-05-04T2300,1283A,119.2984,26.1028,福州市,五四北路,,31,31,44,15,23,82,,136,102,15,13,4,4,0.4,0.5
2025-05-04T2300,1284A,119.2648,26.0768,福州市,杨桥西路,,37,37,59,18,24,77,,127,100,16,13,4,4,0.3,0.4
2025-05-04T2300,1285A,119.317,26.0746,福州市,紫阳,,32,32,58,17,26,87,,126,96,14,22,5,6,0.3,0.4
2025-05-04T2300,3048A,119.5799,26.0936,福州市,九龙,,25,21,33,8,12,79,,129,102,11,7,4,4,0.2,0.3
2025-05-04T2300,3526A,119.5189,25.9664,福州市,吴航,,31,28,40,12,18,99,,134,116,8,8,4,4,0.7,0.7
2025-05-04T2300,1755A,123.7977,41.8491,抚顺市,望花区,颗粒物(PM10),62,73,54,43,21,44,,102,78,35,23,9,9,0.7,0.6
2025-05-04T2300,1756A,123.9161,41.8822,抚顺市,顺城区,颗粒物(PM10),69,87,50,47,21,3,,101,52,61,28,9,7,0.7,0.4
2025-05-04T2300,1757A,124.0436,41.8611,抚顺市,东洲区,,38,38,36,21,16,61,,97,83,16,13,7,6,0.4,0.4
2025-05-04T2300,1758A,123.9247,41.8642,抚顺市,新抚区,细颗粒物(PM2.5),65,70,44,47,19,16,,88,52,44,23,7,6,0.6,0.4
2025-05-04T2300,1759A,124.0972,41.8961,抚顺市,大伙房水库,,29,29,29,16,13,66,,101,88,12,9,7,8,0.5,0.5
2025-05-04T2300,1760A,123.7086,41.8391,抚顺市,沈抚新城,颗粒物(PM10),56,62,44,39,18,37,,98,72,39,23,8,7,0.7,0.5
2025-05-04T2300,2376A,116.2127,28.0814,抚州市,桐源党溪,,50,48,63,35,37,52,,78,66,2,2,4,6,0.6,0.6
2025-05-04T2300,2377A,116.3544,27.9831,抚州市,市站,,34,34,60,20,35,57,,75,62,6,10,2,6,0.7,0.8
2025-05-04T2300,2378A,116.3565,27.963,抚州市,血防站,,36,36,61,20,35,58,,84,64,6,9,3,2,0.4,0.7
2025-05-04T2300,2379A,116.3564,28.0007,抚州市,采茶剧团,,35,35,63,19,33,55,,75,60,3,6,3,3,0.9,0.9
2025-05-04T2300,2380A,116.385,27.9647,抚州市,医学分院,,30,30,61,17,34,56,,76,59,2,4,4,7,1.2,1.2
2025-05-04T2300,2207A,121.6094,41.998,阜新市,工业园区,,30,30,25,20,10,72,,89,79,15,11,23,10,0.4,0.3
2025-05-04T2300,2208A,121.6697,42.0279,阜新市,长青街,,25,17,17,12,10,79,,88,79,13,12,10,7,0.4,0.3
2025-05-04T2300,2209A,121.6673,42.0705,阜新市,农业园区,,26,26,18,7,4,74,,84,76,9,4,12,7,0.6,0.4
2025-05-04T2300,2210A,121.6717,42.0224,阜新市,东苑,,34,34,37,17,9,84,,89,78,9,9,14,10,0.4,0.4
2025-05-04T2300,2211A,121.6506,42.0498,阜新市,玉龙新城,颗粒物(PM10),52,54,32,22,12,59,,88,66,24,12,12,8,0.6,0.4
2025-05-04T2300,2301A,115.8277,32.8929,阜阳市,市监测站,,49,49,50,30,24,143,,157,155,12,14,9,9,0.3,0.3
2025-05-04T2300,2303A,115.8554,32.8605,阜阳市,开发区,颗粒物(PM10),61,72,60,27,19,143,,163,160,18,18,9,8,0.3,0.3
2025-05-04T2300,2875A,115.784,32.8892,阜阳市,阜阳职业技术学院,颗粒物(PM10),52,53,43,30,23,160,,171,170,11,11,7,7,0.4,0.4
2025-05-04T2300,3468A,115.7901,32.8613,阜阳市,市规划展馆,,50,41,41,27,23,159,,173,172,10,10,8,9,0.3,0.3
2025-05-04T2300,3469A,115.836,32.9183,阜阳市,枣园社区,颗粒物(PM10),54,57,47,28,23,148,,157,155,11,12,7,10,0.5,0.5
2025-05-04T2300,2669A,102.9099,34.9841,甘南藏族自治州,州政府,颗粒物(PM10),55,59,87,22,27,25,,80,64,30,16,5,7,0.4,0.3
2025-05-04T2300,3380A,102.8914,34.9617,甘南藏族自治州,甘肃民族师范学院,颗粒物(PM10),52,53,99,19,26,9,,92,64,38,23,7,7,0.6,0.5
2025-05-04T2300,2570A,101.9603,30.0475,甘孜藏族自治州,水桥子,,40,40,14,28,9,54,,95,89,28,18,4,5,0.3,0.2
2025-05-04T2300,3065A,101.9533,29.9972,甘孜藏族自治州,州环保局,,32,32,17,8,6,38,,95,80,27,19,1,1,0.1,0.1
2025-05-04T2300,3414A,115.8347,28.932,赣江新区,桑海产业园,,,34,64,21,34,,,132,93,9,6,4,5,0.6,0.5
2025-05-04T2300,2363A,114.9367,25.8664,赣州市,地委,,26,26,40,17,26,67,,82,78,8,11,2,4,1.0,1.1
2025-05-04T2300,2364A,114.9461,25.8481,赣州市,气象台,,22,22,38,13,20,70,,83,79,7,13,8,9,0.3,0.4
2025-05-04T2300,2365A,114.9322,25.8333,赣州市,市图书馆,,29,,30,20,22,59,,69,67,6,10,3,5,0.5,0.5
2025-05-04T2300,2366A,114.8905,25.8471,赣州市,华坚鞋城,,22,22,34,13,20,67,,76,75,5,10,6,7,0.5,0.6
2025-05-04T2300,3109A,115.0093,25.8613,赣州市,赣县区卫计委,,21,21,30,14,23,45,,77,71,12,6,3,3,1.4,1.3
2025-05-04T2300,2683A,106.2319,36.1417,固原市,马园,,34,34,321,12,62,100,,106,100,2,12,4,5,0.5,0.6
2025-05-04T2300,2684A,106.2792,36.0022,固原市,监测站,,34,34,187,19,43,74,,100,92,12,9,5,6,0.4,0.3
2025-05-04T2300,2685A,106.2375,36.0211,固原市,新区,,37,37,176,22,37,34,,98,84,42,9,5,6,0.5,0.4
2025-05-04T2300,3522A,106.2177,35.9959,固原市,原州区十五小,,,,140,40,39,91,,101,95,7,9,8,9,0.2,0.3
2025-05-04T2300,2544A,106.6303,30.4576,广安市,市委,,28,22,29,19,20,81,,94,90,6,8,4,5,0.4,0.4
2025-05-04T2300,2545A,106.6271,30.4663,广安市,友谊中学,,26,24,31,18,17,80,,99,96,14,13,2,3,0.8,0.7
2025-05-04T2300,2547A,106.6388,30.4551,广安市,广电花园,,26,19,25,7,17,82,,100,92,9,8,5,6,0.5,0.5
2025-05-04T2300,2902A,106.6351,30.4865,广安市,北辰小学,,24,21,22,15,17,74,,98,90,8,10,5,6,0.5,0.4
2025-05-04T2300,2523A,105.8945,32.4535,广元市,黑石坡,颗粒物(PM10),93,136,81,40,32,94,,91,91,6,17,4,5,0.2,0.4
2025-05-04T2300,2524A,105.821,32.4444,广元市,老城,颗粒物(PM10),67,84,81,21,30,104,,102,102,2,28,1,5,0.3,0.7
2025-05-04T2300,2526A,105.8628,32.4287,广元市,监测站,颗粒物(PM10),79,108,59,18,32,106,,104,104,2,15,3,8,0.3,0.5
2025-05-04T2300,3617A,105.8047,32.4166,广元市,经开区,,37,37,86,12,41,105,,104,104,6,27,4,12,0.4,0.8
2025-05-04T2300,1345A,113.2347,23.1423,广州市,广雅中学,,,30,29,,28,27,,98,56,24,19,4,3,0.4,0.4
2025-05-04T2300,1346A,113.2612,23.105,广州市,市五中,,27,27,28,14,17,29,,92,56,16,12,1,1,0.9,0.9
2025-05-04T2300,1348A,113.3478,23.0916,广州市,广东商学院,,23,23,24,14,17,34,,92,56,22,21,4,4,0.6,0.6
2025-05-04T2300,1349A,113.4332,23.1047,广州市,市八十六中,,21,21,25,10,14,35,,76,50,21,25,2,2,0.6,0.6
2025-05-04T2300,1350A,113.3505,22.9483,广州市,番禺中学,,24,24,29,14,18,37,,92,60,18,17,6,5,0.6,0.7
2025-05-04T2300,1351A,113.2146,23.3916,广州市,花都师范,,24,21,30,13,20,7,,98,50,48,20,4,4,0.8,0.7
2025-05-04T2300,1352A,113.2597,23.1331,广州市,市监测站,,25,25,29,14,17,27,,92,55,26,18,5,4,0.3,0.4
2025-05-04T2300,1353A,113.5618,23.312,广州市,九龙镇镇龙,,22,22,32,13,19,20,,84,53,21,24,4,6,0.5,0.5
2025-05-04T2300,1354A,113.2765,23.1544,广州市,麓湖,,24,24,26,12,16,28,,91,53,22,16,4,4,0.5,0.6
2025-05-04T2300,1355A,113.443,23.3035,广州市,帽峰山森林公园,,20,20,24,3,1,30,,81,62,17,12,6,6,0.6,0.7
2025-05-04T2300,2846A,113.3221,23.1322,广州市,体育西,,36,32,33,25,22,24,,89,56,28,20,3,4,0.5,0.5
2025-05-04T2300,3298A,113.5717,23.5491,广州市,从化街口,,18,18,30,11,21,15,,94,57,22,16,6,6,0.6,0.5
2025-05-04T2300,3299A,113.3472,23.3692,广州市,白云竹料,,21,21,29,13,18,28,,97,62,20,17,2,2,0.6,0.6
2025-05-04T2300,3300A,113.2981,23.237,广州市,白云嘉禾,,25,25,27,14,18,19,,92,55,35,25,5,5,0.7,0.7
2025-05-04T2300,3301A,113.4256,23.1716,广州市,黄埔科学城,,22,22,26,12,16,24,,74,51,20,16,2,2,0.5,0.5
2025-05-04T2300,3302A,113.3942,23.0483,广州市,番禺大学城,,22,22,34,10,16,48,,90,65,13,17,6,6,0.6,0.6
2025-05-04T2300,3303A,113.4922,22.8168,广州市,南沙黄阁,,17,17,27,9,15,52,,74,58,4,8,4,5,0.8,0.7
2025-05-04T2300,3304A,113.5342,22.7896,广州市,南沙街,,21,21,28,8,14,54,,74,58,8,13,6,5,0.7,0.7
2025-05-04T2300,3443A,113.2902,23.5544,广州市,花都梯面,,16,16,30,10,17,31,,82,51,15,19,4,4,0.6,0.7
2025-05-04T2300,3445A,113.7858,23.7478,广州市,从化良口,,12,12,26,6,20,28,,63,54,15,9,6,6,0.7,0.7
2025-05-04T2300,3446A,113.8051,23.2614,广州市,增城荔城,,25,25,36,13,24,15,,88,50,18,16,7,7,0.3,0.3
2025-05-04T2300,2506A,109.6047,23.0666,贵港市,江南子站,,31,31,33,18,21,52,,87,76,14,13,4,4,0.6,0.6
2025-05-04T2300,2508A,109.5669,23.1065,贵港市,荷城子站,,31,31,35,14,15,55,,80,70,12,12,4,5,0.2,0.2
2025-05-04T2300,3405A,109.5886,23.1172,贵港市,新世纪学校,,35,34,33,24,19,56,,85,75,12,11,7,8,0.9,0.9
2025-05-04T2300,4260A,109.5933,23.0951,贵港市,中山路155-3号,,26,25,36,18,22,57,,90,79,14,12,3,3,0.5,0.5
2025-05-04T2300,1439A,106.6899,26.5998,贵阳市,马鞍山,,14,14,17,3,2,36,,82,66,9,8,5,5,0.7,0.6
2025-05-04T2300,1441A,106.6243,26.6266,贵阳市,鉴湖路,,27,27,24,9,10,58,,92,81,14,12,5,5,0.4,0.4
2025-05-04T2300,1442A,106.7487,26.6343,贵阳市,燕子冲,,25,22,24,17,15,71,,96,87,9,10,2,2,0.3,0.3
2025-05-04T2300,1443A,106.6555,26.4365,贵阳市,碧云窝,,23,22,28,9,8,73,,98,94,18,9,4,5,0.4,0.4
2025-05-04T2300,1445A,106.7109,26.6027,贵阳市,红边门,,23,22,21,12,15,72,,93,87,6,7,2,2,0.3,0.3
2025-05-04T2300,1446A,106.7164,26.5699,贵阳市,新华路,,23,17,17,14,13,73,,91,85,11,9,8,17,0.4,0.4
2025-05-04T2300,1447A,106.674,26.5424,贵阳市,太慈桥,,17,17,16,9,8,27,,87,73,19,14,5,5,0.2,0.2
2025-05-04T2300,4230A,106.6882,26.5695,贵阳市,花果园大街66号,,29,22,15,20,13,67,,89,84,17,10,3,4,0.4,0.2
2025-05-04T2300,4231A,106.6873,26.5169,贵阳市,漓江路57号,,20,14,18,7,9,64,,85,80,11,11,8,8,0.3,0.3
2025-05-04T2300,1864A,110.3089,25.2708,桂林市,龙隐路小学,,31,31,30,21,22,37,,88,70,19,8,17,11,0.7,0.6
2025-05-04T2300,1865A,110.2869,25.2178,桂林市,八中,,33,31,33,23,22,45,,83,67,18,13,4,3,0.8,0.7
2025-05-04T2300,3531A,110.296,25.1253,桂林市,旅游学院,,31,31,18,14,15,43,,84,68,19,12,4,3,0.7,0.7
2025-05-04T2300,4222A,110.1835,25.2444,桂林市,环湖路276号,,34,34,29,19,21,38,,73,61,17,12,19,15,0.4,0.3
2025-05-04T2300,4301A,110.2803,25.2773,桂林市,信义路13号,,43,39,38,30,18,41,,89,70,22,12,10,4,0.6,0.5
2025-05-04T2300,2674A,100.2561,34.4714,果洛藏族自治州,玛沁县大武镇,颗粒物(PM10),53,55,60,17,20,119,,120,120,2,3,24,24,0.4,0.4
2025-05-04T2300,1129A,126.5422,45.755,哈尔滨市,岭北,,22,15,12,10,9,69,,84,80,13,11,13,13,0.6,0.7
2025-05-04T2300,1130A,126.561,45.8167,哈尔滨市,松北商大,,18,13,17,12,9,49,,76,65,16,12,6,6,0.5,0.4
2025-05-04T2300,1131A,126.979,45.5419,哈尔滨市,阿城会宁,,20,20,21,14,13,39,,76,55,14,15,6,6,0.4,0.4
2025-05-04T2300,1132A,126.599,45.7222,哈尔滨市,南岗学府路,,22,22,22,8,7,64,,77,71,13,11,7,7,0.3,0.3
2025-05-04T2300,1133A,126.689,45.7733,哈尔滨市,太平宏伟公园,,28,28,18,12,12,59,,81,72,20,12,4,4,0.5,0.5
2025-05-04T2300,1134A,126.635,45.7667,哈尔滨市,道外承德广场,,25,24,15,17,14,40,,76,61,34,13,6,6,0.5,0.4
2025-05-04T2300,1135A,126.685,45.7319,哈尔滨市,香坊红旗大街,,33,27,20,23,13,50,,80,67,25,13,7,8,0.5,0.4
2025-05-04T2300,1136A,126.6411,45.7258,哈尔滨市,动力和平路,,28,23,17,19,12,55,,72,64,18,13,6,6,0.4,0.3
2025-05-04T2300,1137A,126.593,45.7478,哈尔滨市,道里建国路,,25,20,16,17,12,53,,76,65,20,13,4,3,0.5,0.5
2025-05-04T2300,1138A,126.615,45.61,哈尔滨市,平房东轻厂,,18,15,19,9,11,55,,74,64,22,19,8,8,0.4,0.4
2025-05-04T2300,1139A,126.595,45.9855,哈尔滨市,呼兰师专,,26,,18,18,12,45,,70,59,19,13,7,6,0.3,0.3
2025-05-04T2300,1140A,126.6206,45.6842,哈尔滨市,省农科院,,23,18,27,16,12,41,,66,51,24,17,14,7,0.6,0.6
2025-05-04T2300,2688A,93.5128,42.8172,哈密市,地区监测站,,48,48,114,16,31,83,,100,97,26,11,3,3,0.2,0.2
2025-05-04T2300,2689A,93.4961,42.8328,哈密市,哈密师范学校,,30,17,85,10,19,94,,98,97,8,9,4,6,0.4,0.4
2025-05-04T2300,2671A,100.9048,36.9639,海北藏族自治州,海晏县西海镇,颗粒物(PM10),65,80,152,33,51,111,,116,116,2,4,9,10,0.4,0.4
2025-05-04T2300,3867A,102.0738,36.5056,海东市,平安区公安北苑,,46,,119,32,46,59,,74,68,8,8,5,7,0.2,0.4
2025-05-04T2300,1409A,110.576,19.9507,海口市,东寨港,,22,,20,15,11,30,,70,52,3,3,3,3,0.5,0.6
2025-05-04T2300,1410A,110.3232,20.0574,海口市,海南大学,,24,24,26,14,14,26,,82,56,6,6,2,2,0.4,0.4
2025-05-04T2300,1411A,110.283,20.0053,海口市,秀英海南医院,,28,28,27,13,15,12,,78,51,20,14,4,4,0.4,0.4
2025-05-04T2300,1412A,110.338,19.9969,海口市,海南师范大学,,29,29,27,15,14,27,,90,61,6,6,3,3,0.2,0.2
2025-05-04T2300,1413A,110.33,20.0356,海口市,龙华路环保局宿舍,,28,28,26,12,14,26,,83,57,7,7,4,4,0.3,0.3
2025-05-04T2300,3539A,110.5111,19.9736,海口市,桂林洋子站,,23,23,25,11,12,31,,81,57,8,8,4,4,0.2,0.2
2025-05-04T2300,2673A,100.6188,36.2866,海南藏族自治州,共和县恰卜恰镇,颗粒物(PM10),64,78,133,25,45,109,,123,122,2,9,15,12,0.5,0.4
2025-05-04T2300,2676A,97.3731,37.3753,海西蒙古族藏族自治州,德令哈市,,42,37,255,29,64,108,,119,117,3,3,14,15,0.4,0.4
2025-05-04T2300,1048A,114.5302,36.6116,邯郸市,东污水处理厂,,38,38,43,7,12,113,,125,124,20,16,5,5,0.4,0.3
2025-05-04T2300,1049A,114.4918,36.5713,邯郸市,矿院,,47,47,41,24,12,96,,116,114,15,14,4,5,0.5,0.3
2025-05-04T2300,1050A,114.484,36.6133,邯郸市,丛台公园,颗粒物(PM10),75,99,52,19,13,122,,130,130,12,13,7,6,0.5,0.4
2025-05-04T2300,3458A,114.7895,36.5593,邯郸市,香泉濮院小区,,49,49,60,13,11,104,,128,125,12,11,4,6,0.6,0.4
2025-05-04T2300,3579A,114.50634,36.77178,邯郸市,永年区实验高中,颗粒物(PM10),57,63,68,28,23,112,,124,124,15,17,4,7,0.3,0.3
2025-05-04T2300,3580A,114.20016,36.44293,邯郸市,峰峰矿区临水派出所,颗粒物(PM10),53,55,49,29,20,100,,121,120,10,12,10,10,1.4,0.8
2025-05-04T2300,2634A,106.9893,33.1842,汉中市,汉川机床厂子校,颗粒物(PM10),52,53,69,16,33,114,,118,104,4,6,7,7,0.5,0.7
2025-05-04T2300,2635A,107.0154,33.0706,汉中市,市监测站,颗粒物(PM10),60,70,73,22,30,82,,116,91,5,7,5,6,0.5,0.6
2025-05-04T2300,2636A,107.0089,33.1138,汉中市,鑫源开发区,颗粒物(PM10),53,56,64,18,30,98,,116,93,6,8,4,5,0.4,0.5
2025-05-04T2300,2637A,107.007,33.0323,汉中市,南郑大河坎水厂,颗粒物(PM10),60,70,63,26,36,75,,111,87,7,9,5,6,0.6,0.7
2025-05-04T2300,1223A,120.2072,30.2111,杭州市,滨江,,44,44,40,9,17,68,,146,120,36,19,8,8,0.6,0.6
2025-05-04T2300,1224A,120.0633,30.2747,杭州市,西溪,,26,19,16,16,8,81,,143,126,22,16,5,6,0.4,0.3
2025-05-04T2300,1226A,120.3417,30.3150,杭州市,下沙,,41,41,35,17,12,76,,144,108,33,21,9,9,0.4,0.4
2025-05-04T2300,1227A,120.1269,30.2456,杭州市,卧龙桥,,30,30,35,12,14,71,,148,123,22,16,6,8,0.6,0.5
2025-05-04T2300,1228A,120.1903,30.2692,杭州市,浙江农大,,48,48,41,19,21,52,,128,103,47,24,10,11,0.2,0.2
2025-05-04T2300,1230A,120.1197,30.3119,杭州市,和睦小学,,35,35,32,12,12,75,,140,120,28,16,8,8,0.3,0.3
2025-05-04T2300,1231A,120.3019,30.4183,杭州市,临平镇,,39,39,36,18,12,76,,139,116,28,18,7,6,0.3,0.3
2025-05-04T2300,1232A,120.2753,30.1839,杭州市,城厢镇,颗粒物(PM10),52,54,42,20,19,67,,142,110,30,18,10,9,0.5,0.4
2025-05-04T2300,1233A,120.0883,30.1808,杭州市,云栖,,33,33,40,12,13,41,,150,118,52,27,5,7,0.5,0.5
2025-05-04T2300,3557A,119.9464,30.0494,杭州市,镇二中,,40,40,34,21,14,89,,143,130,28,23,4,4,0.4,0.4
2025-05-04T2300,3558A,119.7183,30.2367,杭州市,市府大楼,,38,38,36,17,17,99,,140,132,20,21,8,8,0.5,0.4
2025-05-04T2300,3656A,120.1556,30.2864,杭州市,消防大队,,39,39,38,16,16,73,,144,120,36,24,5,6,0.4,0.4
2025-05-04T2300,1270A,117.1959,31.7848,合肥市,明珠广场,,44,44,46,19,16,136,,175,166,17,15,8,9,0.3,0.3
2025-05-04T2300,1271A,117.3072,31.8764,合肥市,三里街,,44,44,42,17,17,121,,161,154,20,16,7,7,0.5,0.5
2025-05-04T2300,1272A,117.2588,31.8707,合肥市,琥珀山庄,颗粒物(PM10),56,61,50,23,17,127,,171,161,20,16,7,6,0.5,0.5
2025-05-04T2300,1273A,117.1604,31.9052,合肥市,董铺水库,颗粒物(PM10),56,61,53,14,13,126,,161,154,16,14,2,3,0.4,0.4
2025-05-04T2300,1274A,117.25,31.8571,合肥市,长江中路,,48,48,52,24,21,125,,173,162,22,18,11,11,0.5,0.5
2025-05-04T2300,1275A,117.266,31.9436,合肥市,庐阳区,,48,48,52,17,17,133,,171,163,17,14,10,9,0.2,0.3
2025-05-04T2300,1276A,117.3453,31.8616,合肥市,瑶海区,颗粒物(PM10),51,51,51,17,16,116,,159,150,25,19,9,8,0.3,0.3
2025-05-04T2300,1277A,117.3027,31.7964,合肥市,包河区,颗粒物(PM10),52,53,57,19,21,134,,171,158,16,23,8,9,0.3,0.4
2025-05-04T2300,1278A,117.2776,31.7385,合肥市,滨湖新区,,46,46,46,29,21,128,,170,160,19,15,9,9,0.6,0.6
2025-05-04T2300,1279A,117.1318,31.8403,合肥市,高新区,颗粒物(PM10),51,51,52,13,16,137,,169,160,16,17,5,5,0.4,0.4
2025-05-04T2300,3464A,117.3803,31.9147,合肥市,高教基地,细颗粒物(PM2.5),89,,44,66,20,131,,167,158,25,14,9,8,0.5,0.4
2025-05-04T2300,3614A,79.924,37.0877,和田地区,地区环保局,颗粒物(PM10),500,1057,1187,340,436,69,,84,84,17,11,,2,0.3,0.2
2025-05-04T2300,3615A,79.9131,37.113,和田地区,市环保局,颗粒物(PM10),500,964,1066,460,447,55,,75,73,25,7,1,2,0.1,0.1
2025-05-04T2300,2517A,108.0497,24.6947,河池市,市环保站,,38,38,26,26,16,78,,99,96,16,6,10,8,0.7,0.6
2025-05-04T2300,2518A,108.0983,24.6989,河池市,市疾控中心,,38,31,22,26,17,89,,99,95,15,12,10,9,0.7,0.7
2025-05-04T2300,1696A,114.6778,23.7569,河源市,源西,,20,18,34,9,30,62,,99,95,11,13,3,4,0.7,0.7
2025-05-04T2300,1697A,114.6944,23.7586,河源市,东埔,,,,45,27,36,46,,96,70,16,15,4,4,0.6,0.5
2025-05-04T2300,1698A,114.6892,23.7233,河源市,老城,,32,,38,22,32,39,,90,63,19,15,3,4,0.6,0.6
2025-05-04T2300,1718A,115.4208,35.2464,菏泽市,气象局,颗粒物(PM10),58,66,59,34,29,105,,153,137,26,24,6,5,0.5,0.4
2025-05-04T2300,3374A,115.5564,35.0891,菏泽市,定陶老年大学,,48,48,50,27,17,114,,150,133,18,17,6,6,0.6,0.5
2025-05-04T2300,4184A,115.4797,35.24401,菏泽市,永昌路1号,,,64,58,,25,100,,151,135,22,20,5,6,0.4,0.3
2025-05-04T2300,4193A,115.4715,35.2800,菏泽市,长城路999号,颗粒物(PM10),54,57,54,28,19,90,,148,131,30,23,8,9,0.3,0.2
2025-05-04T2300,2514A,111.5264,24.4172,贺州市,环保小区,,21,21,24,6,17,46,,66,59,10,10,4,4,0.9,0.9
2025-05-04T2300,2515A,111.5608,24.4078,贺州市,政协大楼,,26,26,21,14,16,49,,66,61,12,11,8,7,0.7,0.7
2025-05-04T2300,3534A,111.4744,24.4553,贺州市,西湾,,17,17,22,3,17,41,,62,55,17,14,6,7,0.6,0.6
2025-05-04T2300,2385A,114.17,35.9019,鹤壁市,市监测站,颗粒物(PM10),53,56,54,31,24,115,,138,133,16,15,3,3,1.0,0.8
2025-05-04T2300,2386A,114.2956,35.7511,鹤壁市,市交警支队,颗粒物(PM10),61,72,48,23,15,78,,141,130,38,25,4,7,0.9,0.6
2025-05-04T2300,2387A,114.2878,35.7306,鹤壁市,迎宾馆,颗粒物(PM10),61,72,52,30,25,78,,144,133,29,16,3,4,0.6,0.5
2025-05-04T2300,3474A,114.2617,35.6822,鹤壁市,大新区,细颗粒物(PM2.5),64,54,44,46,25,52,,132,108,44,26,7,8,0.6,0.4
2025-05-04T2300,3596A,114.1572,35.9603,鹤壁市,南山宾馆,"颗粒物(PM10),细颗粒物(PM2.5)",62,74,85,44,33,124,,140,137,8,14,4,6,0.4,0.4
2025-05-04T2300,2244A,130.2537,47.3416,鹤岗市,哈啤分公司,,21,,10,12,12,67,,81,72,2,2,13,14,0.3,0.2
2025-05-04T2300,2245A,130.2684,47.3086,鹤岗市,斯达机电,,25,20,15,17,11,70,,82,74,2,2,10,11,0.1,0.1
2025-05-04T2300,2246A,130.3114,47.3388,鹤岗市,东山纸板厂,,35,35,26,16,15,69,,82,74,7,6,12,12,0.3,0.2
2025-05-04T2300,2263A,127.4833,50.2524,黑河市,交通局,,19,17,16,12,13,60,,70,66,7,6,7,7,0.4,0.3
2025-05-04T2300,2264A,127.5144,50.2341,黑河市,环保局,,26,,15,18,13,71,,77,74,6,4,5,3,0.2,0.2
2025-05-04T2300,2265A,127.5291,50.2472,黑河市,大黑河岛,,,,3,7,5,79,,59,59,4,10,2,2,0.2,0.2
2025-05-04T2300,1074A,115.6838,37.7541,衡水市,电机北厂,颗粒物(PM10),54,57,51,27,22,143,,146,146,8,11,3,5,0.3,0.3
2025-05-04T2300,1075A,115.6303,37.7316,衡水市,市监测站,颗粒物(PM10),56,62,67,21,20,130,,144,143,12,14,6,6,0.4,0.3
2025-05-04T2300,3188A,115.6683,37.7217,衡水市,市城管局,颗粒物(PM10),59,67,52,31,21,138,,146,145,11,11,7,7,0.4,0.3
2025-05-04T2300,3459A,115.5989,37.5491,衡水市,地表水厂,颗粒物(PM10),57,63,66,25,22,125,,146,139,14,22,9,9,0.5,0.4
2025-05-04T2300,2456A,112.5003,26.9167,衡阳市,原169医院,细颗粒物(PM2.5),62,71,57,44,36,60,,125,109,19,10,4,5,0.7,0.6
2025-05-04T2300,2457A,112.6194,26.9258,衡阳市,衡阳化工总厂,细颗粒物(PM2.5),75,74,73,55,44,55,,111,93,19,11,6,7,0.7,0.6
2025-05-04T2300,2458A,112.6211,26.8956,衡阳市,珠晖区环保局,,,76,63,,34,56,,116,94,28,17,8,9,0.9,0.8
2025-05-04T2300,2459A,112.6197,26.8733,衡阳市,市委党校,,,78,64,,26,38,,110,91,33,13,2,3,1.1,0.7
2025-05-04T2300,2460A,112.6006,26.8919,衡阳市,市监测站,细颗粒物(PM2.5),65,76,65,47,38,57,,108,92,22,14,13,10,1.0,0.8
2025-05-04T2300,2461A,112.5664,26.9056,衡阳市,真空机电公司,颗粒物(PM10),67,83,62,47,37,69,,114,101,17,10,5,6,0.9,0.7
2025-05-04T2300,3399A,112.6703,26.882,衡阳市,师范学院,细颗粒物(PM2.5),70,74,62,51,37,52,,117,89,14,12,6,9,1.0,0.8
2025-05-04T2300,2608A,103.3772,23.3993,红河哈尼族彝族自治州,污水处理厂,,38,,18,26,14,69,,95,83,8,6,5,7,0.4,0.3
2025-05-04T2300,2609A,103.3861,23.35,红河哈尼族彝族自治州,监测站,,45,45,32,25,17,80,,101,89,6,6,8,8,0.4,0.3
2025-05-04T2300,3038A,103.3758,23.368,红河哈尼族彝族自治州,州图书馆,,36,,13,25,16,74,,86,77,4,6,1,2,0.2,0.2
2025-05-04T2300,1090A,111.6507,40.7517,呼和浩特市,呼市一监,,34,34,42,23,15,67,,96,80,9,14,5,5,0.6,0.6
2025-05-04T2300,1091A,111.6572,40.8033,呼和浩特市,小召,,39,39,40,26,17,61,,86,74,20,25,9,10,0.9,0.7
2025-05-04T2300,1094A,111.7516,40.8369,呼和浩特市,如意水处理厂,颗粒物(PM10),52,54,41,28,17,69,,91,80,16,25,5,5,0.5,0.4
2025-05-04T2300,1095A,111.7276,40.8062,呼和浩特市,二十九中,,40,35,39,28,16,66,,90,80,14,19,4,4,0.6,0.5
2025-05-04T2300,1096A,111.5512,40.7866,呼和浩特市,工大金川校区,细颗粒物(PM2.5),52,44,41,36,16,56,,92,71,27,28,5,7,0.6,0.5
2025-05-04T2300,1097A,111.717,40.7612,呼和浩特市,化肥厂生活区,颗粒物(PM10),55,60,49,31,20,63,,89,78,22,24,8,9,0.5,0.5
2025-05-04T2300,3698A,111.5968,40.8178,呼和浩特市,红旗小学,,44,44,41,27,15,61,,98,78,32,27,5,5,0.5,0.4
2025-05-04T2300,3699A,111.6518,40.8389,呼和浩特市,海东办,,40,34,37,28,17,68,,90,77,18,25,7,7,0.5,0.5
2025-05-04T2300,2192A,119.7594,49.2261,呼伦贝尔市,区环保局,颗粒物(PM10),54,57,25,35,23,26,,86,62,51,13,5,5,0.5,0.5
2025-05-04T2300,3061A,119.7512,49.1577,呼伦贝尔市,国华电力东,,44,44,27,22,12,59,,90,81,12,6,4,5,0.3,0.3
2025-05-04T2300,1250A,120.0751,30.8669,湖州市,城西水厂,,35,35,32,14,13,90,,149,131,26,18,8,7,0.4,0.4
2025-05-04T2300,2873A,120.0830,30.8929,湖州市,仁皇山新区,,29,27,28,11,13,92,,145,129,25,19,6,6,0.6,0.6
2025-05-04T2300,2907A,120.1844,30.8596,湖州市,吴兴区站,,32,32,31,12,13,84,,139,120,23,15,8,8,0.3,0.3
2025-05-04T2300,3562A,120.4148,30.8538,湖州市,南浔区站,,29,29,29,11,12,85,,127,110,21,17,6,6,0.4,0.4
2025-05-04T2300,1607A,120.9049,40.7211,葫芦岛市,龙港区,,21,21,32,14,12,51,,99,86,20,22,9,11,0.6,0.4
2025-05-04T2300,1608A,120.8392,40.7514,葫芦岛市,化工街,颗粒物(PM10),70,90,38,48,15,38,,94,76,63,29,19,20,0.5,0.5
2025-05-04T2300,1609A,120.8341,40.7073,葫芦岛市,新区,,29,29,33,18,13,45,,97,81,48,28,8,10,0.4,0.4
2025-05-04T2300,1610A,120.8695,40.7677,葫芦岛市,东城区,颗粒物(PM10),52,54,38,32,17,46,,91,74,50,27,10,27,0.6,0.5
2025-05-04T2300,2482A,109.5981,27.5721,怀化市,林科所,,36,34,48,25,24,102,,104,89,6,8,4,4,0.5,0.6
2025-05-04T2300,2483A,109.9453,27.5444,怀化市,河西地税局,,30,26,49,17,25,93,,98,86,7,10,5,6,0.5,0.5
2025-05-04T2300,2484A,109.9781,27.5342,怀化市,市四医院,,30,26,50,19,27,94,,116,95,5,7,5,6,0.7,0.8
2025-05-04T2300,2485A,109.9972,27.5578,怀化市,监测楼,,30,28,52,21,27,94,,112,96,5,7,1,3,0.3,0.3
2025-05-04T2300,2486A,110.0394,27.583,怀化市,市委党校,,28,22,49,19,28,88,,108,92,4,6,5,10,0.5,0.5
2025-05-04T2300,1210A,119.036,33.5981,淮安市,钵池山,,33,27,31,14,16,104,,143,130,11,13,8,10,0.2,0.3
2025-05-04T2300,1211A,119.007,33.575,淮安市,北京南路,,34,29,34,13,16,106,,150,135,8,10,8,10,0.3,0.4
2025-05-04T2300,1212A,118.989,33.6067,淮安市,市监测站,,32,29,31,14,18,100,,139,127,12,14,8,11,0.3,0.4
2025-05-04T2300,1213A,119.135,33.5039,淮安市,楚州区监测站,,31,29,40,16,19,98,,136,122,9,13,8,10,0.3,0.4
2025-05-04T2300,3426A,118.8755,33.2894,淮安市,新华书店,,37,37,38,15,20,97,,145,126,12,15,9,10,0.5,0.5
2025-05-04T2300,4206A,119.0288,33.6319,淮安市,承德北路606号,,39,39,40,15,17,103,,143,130,9,11,7,9,0.4,0.4
2025-05-04T2300,2282A,116.8004,33.975,淮北市,监测站,,46,41,44,24,22,145,,164,161,14,16,7,8,0.7,0.7
2025-05-04T2300,2283A,116.8091,33.9007,淮北市,烈山区政府,,49,49,51,23,25,145,,168,164,10,13,5,6,0.6,0.6
2025-05-04T2300,3330A,116.8873,33.9836,淮北市,杜集区检察院,颗粒物(PM10),55,59,55,26,46,144,,166,162,14,16,7,9,0.6,0.6
2025-05-04T2300,4017A,116.7923,33.9535,淮北市,市博物馆,,49,49,48,17,23,149,,167,165,12,14,8,9,0.6,0.6
2025-05-04T2300,2277A,116.8305,32.7727,淮南市,潘集区政府,颗粒物(PM10),56,61,62,30,30,135,,159,151,14,15,4,5,0.4,0.4
2025-05-04T2300,2279A,116.8569,32.5951,淮南市,谢家集区政府,,42,42,55,22,26,130,,156,150,16,15,6,6,0.2,0.3
2025-05-04T2300,2280A,116.8281,32.633,淮南市,八公山区政府,颗粒物(PM10),58,66,61,27,23,133,,158,154,8,8,8,8,0.4,0.4
2025-05-04T2300,2894A,117.0566,32.6531,淮南市,经济技术开发区消防队,颗粒物(PM10),53,55,54,27,26,134,,158,153,14,14,6,7,0.3,0.4
2025-05-04T2300,3329A,117.0108,32.5893,淮南市,山南新区,颗粒物(PM10),53,55,54,25,18,139,,169,163,13,11,8,9,0.5,0.5
2025-05-04T2300,4209A,117.0031,32.6445,淮南市,国庆中路369号,细颗粒物(PM2.5),57,45,50,40,24,135,,157,153,9,9,10,10,0.5,0.5
2025-05-04T2300,2929A,114.8858,30.4519,黄冈市,红卫路,细颗粒物(PM2.5),75,71,57,55,34,105,,162,138,5,6,7,9,1.0,0.7
2025-05-04T2300,3398A,114.9136,30.4445,黄冈市,市林业局,细颗粒物(PM2.5),79,73,58,58,36,93,,157,138,19,14,8,10,1.0,0.8
2025-05-04T2300,2672A,102.0199,35.5102,黄南藏族自治州,同仁县隆务镇,颗粒物(PM10),58,66,113,24,38,63,,96,88,8,6,4,5,0.2,0.2
2025-05-04T2300,2295A,118.2903,29.6963,黄山市,延安路89号,颗粒物(PM10),51,52,52,13,30,78,,130,103,11,9,6,6,0.5,0.4
2025-05-04T2300,2297A,118.1371,30.2756,黄山市,黄山区政府5号楼,细颗粒物(PM2.5),57,46,54,40,28,65,,134,99,9,8,4,4,0.8,0.8
2025-05-04T2300,4210A,118.3354,29.7203,黄山市,滨江东路7-2号,,50,50,56,21,26,56,,131,86,12,10,4,5,0.6,0.6
2025-05-04T2300,2423A,115.0601,30.2313,黄石市,沈家营,颗粒物(PM10),75,100,79,36,31,71,,157,120,15,19,6,9,1.0,0.9
2025-05-04T2300,2426A,114.8988,30.2019,黄石市,铁山,细颗粒物(PM2.5),63,72,62,45,30,68,,148,115,19,9,6,7,0.2,0.3
2025-05-04T2300,2427A,115.0307,30.2092,黄石市,团城山,颗粒物(PM10),62,74,61,30,24,91,,155,136,14,12,7,10,0.7,0.6
2025-05-04T2300,3149A,115.0235,30.1578,黄石市,笔架山北路,颗粒物(PM10),57,63,52,36,24,89,,158,130,11,11,6,8,1.0,0.7
2025-05-04T2300,4185A,115.0780,30.21118,黄石市,磁湖东路29号,颗粒物(PM10),81,112,65,41,33,110,,160,139,25,15,9,10,1.0,0.8
2025-05-04T2300,1392A,114.4183,23.0528,惠州市,河南岸金山湖子站,,27,27,40,12,23,40,,77,52,15,13,8,8,0.5,0.5
2025-05-04T2300,1393A,114.4053,23.0822,惠州市,下埔横江三路子站,,26,26,32,15,23,45,,88,59,15,11,9,8,0.6,0.6
2025-05-04T2300,1394A,114.4103,23.1142,惠州市,江北云山西路子站,,24,24,33,13,20,58,,92,64,7,8,11,11,0.5,0.6
2025-05-04T2300,1395A,114.4645,22.7833,惠州市,惠阳区承修路船湖子站,,26,26,28,15,18,73,,70,67,8,10,8,8,0.2,0.3
2025-05-04T2300,1396A,114.5317,22.7422,惠州市,大亚湾管委会子站,,30,30,29,16,17,73,,75,75,8,9,10,9,0.5,0.5
2025-05-04T2300,3314A,114.4338,22.8134,惠州市,惠阳秋长,,25,19,30,11,17,79,,81,72,7,13,10,10,0.5,0.6
2025-05-04T2300,3452A,114.6517,22.775,惠州市,大亚湾霞涌,,24,22,26,16,14,74,,78,77,7,8,7,7,0.4,0.5
2025-05-04T2300,2240A,130.9762,45.3001,鸡西市,环保局,,23,11,23,7,15,72,,82,78,9,7,6,6,0.4,0.4
2025-05-04T2300,2243A,130.9429,45.3039,鸡西市,第一中学,,22,8,19,3,12,69,,81,79,7,5,6,6,0.3,0.3
2025-05-04T2300,3707A,131.0207,45.3073,鸡西市,欧美日汽修厂,,23,,25,11,17,72,,78,76,7,9,4,5,0.4,0.4
2025-05-04T2300,3709A,130.9967,45.3106,鸡西市,市政设施管理处,,22,16,30,9,15,68,,76,75,12,10,7,7,0.4,0.4
2025-05-04T2300,2367A,114.9754,27.0803,吉安市,红声器材厂,颗粒物(PM10),51,51,49,29,31,51,,69,56,5,8,13,14,0.5,0.6
2025-05-04T2300,2368A,114.9658,27.0999,吉安市,市森林工业局,,43,43,45,30,29,58,,74,57,5,8,11,13,0.4,0.5
2025-05-04T2300,2369A,114.99,27.1312,吉安市,市环境监测站,,38,38,40,26,24,48,,80,53,7,5,21,16,0.7,0.7
2025-05-04T2300,2370A,115.0093,27.0968,吉安市,青原区法院,,43,43,45,27,31,55,,74,56,9,10,18,17,0.6,0.5
2025-05-04T2300,1772A,126.54,43.8622,吉林市,哈达湾,颗粒物(PM10),57,64,21,32,12,41,,87,76,39,13,6,6,0.6,0.3
2025-05-04T2300,1773A,126.5844,43.8358,吉林市,东局子,,28,23,17,19,13,58,,92,77,22,13,5,5,0.4,0.3
2025-05-04T2300,1774A,126.5052,43.8245,吉林市,电力学院,细颗粒物(PM2.5),58,64,24,41,17,32,,94,72,34,12,5,5,0.6,0.6
2025-05-04T2300,1775A,126.6133,43.8972,吉林市,江北,,43,43,21,29,14,36,,93,69,24,15,8,6,0.4,0.2
2025-05-04T2300,1776A,126.555,43.8306,吉林市,江南公园,,36,36,17,21,11,51,,85,73,25,12,5,5,0.4,0.3
2025-05-04T2300,2868A,126.4739,43.953,吉林市,九站,,,22,18,15,13,,,88,,20,14,9,9,0.4,0.3
2025-05-04T2300,1299A,116.9862,36.6114,济南市,科干所,,39,39,31,3,10,115,,148,143,11,11,4,4,0.4,0.3
2025-05-04T2300,1300A,116.9376,36.665,济南市,农科所,,49,49,44,20,22,76,,142,130,18,16,6,7,0.3,0.4
2025-05-04T2300,1301A,117.1265,36.6734,济南市,开发区,,40,39,33,17,17,128,,150,148,12,16,7,7,0.5,0.4
2025-05-04T2300,1303A,117.0624,36.6868,济南市,省种子仓库,颗粒物(PM10),63,75,32,17,16,121,,142,141,15,34,4,5,0.3,0.3
2025-05-04T2300,1304A,116.9489,36.6447,济南市,机床二厂,,44,44,58,24,19,103,,147,138,20,23,8,8,0.4,0.4
2025-05-04T2300,1305A,117.0495,36.663,济南市,市监测站,,36,32,42,17,13,114,,142,140,18,32,7,8,0.5,0.5
2025-05-04T2300,1306A,116.7675,36.5484,济南市,长清党校,,34,27,35,20,21,106,,157,147,19,20,5,6,0.6,0.6
2025-05-04T2300,1616A,117.6795,36.229,济南市,技术学院,,42,41,38,24,25,132,,142,140,17,24,12,11,0.5,0.5
2025-05-04T2300,1961A,117.532,36.6868,济南市,东山小学,颗粒物(PM10),51,51,44,20,11,119,,150,143,15,17,7,8,0.4,0.4
2025-05-04T2300,3059A,117.7161,36.2049,济南市,泰兴公司,颗粒物(PM10),58,66,41,24,18,129,,149,144,20,28,6,7,0.3,0.2
2025-05-04T2300,3064A,117.6867,36.2171,济南市,莱芜战役纪念馆,颗粒物(PM10),52,53,42,22,15,129,,143,140,21,28,7,7,0.5,0.5
2025-05-04T2300,3494A,117.1673,36.9782,济南市,济阳区政府,颗粒物(PM10),57,63,66,29,21,109,,152,144,28,37,4,5,0.4,0.4
2025-05-04T2300,3495A,117.1171,36.63,济南市,锦屏中学,颗粒物(PM10),55,59,29,20,11,103,,149,144,15,10,4,5,0.5,0.4
2025-05-04T2300,3682A,116.9814,36.6819,济南市,济南四建,颗粒物(PM10),59,68,44,17,18,122,,149,144,16,18,5,4,0.4,0.4
2025-05-04T2300,1653A,116.6251,35.4302,济宁市,火炬城,,50,50,52,24,25,113,,143,136,11,17,8,7,0.4,0.3
2025-05-04T2300,1655A,116.5491,35.4042,济宁市,电化厂,,45,43,51,31,23,127,,148,143,9,17,3,4,0.4,0.5
2025-05-04T2300,3500A,116.5814,35.3707,济宁市,北湖一中,,50,50,61,3,15,119,,150,143,12,17,4,5,0.4,0.4
2025-05-04T2300,3501A,116.8249,35.5593,济宁市,服务中心,颗粒物(PM10),51,51,71,13,17,128,,150,144,13,29,2,3,0.3,0.3
2025-05-04T2300,3678A,116.5907,35.4054,济宁市,市第七中学,,,48,52,19,17,,,150,145,18,20,6,5,0.5,0.4
2025-05-04T2300,2255A,130.2751,46.8028,佳木斯市,佳纺,,26,26,21,10,5,62,,84,68,11,8,6,5,0.4,0.4
2025-05-04T2300,2256A,130.3995,46.8307,佳木斯市,发电厂,,,16,10,10,6,,,88,,6,4,4,4,0.3,0.2
2025-05-04T2300,2257A,130.3258,46.7975,佳木斯市,环保局,,24,24,14,8,9,63,,90,70,12,9,6,6,0.2,0.2
2025-05-04T2300,2258A,130.3648,46.8032,佳木斯市,十一中,,21,21,13,12,5,66,,86,70,11,8,5,5,0.3,0.3
2025-05-04T2300,2259A,130.3794,46.7588,佳木斯市,四丰,,49,49,18,6,5,62,,76,67,10,8,1,1,0.2,0.2
2025-05-04T2300,1252A,120.7436,30.778,嘉兴市,清河小学,,36,36,32,9,12,82,,117,106,21,15,6,6,0.7,0.6
2025-05-04T2300,1253A,120.726,30.7478,嘉兴市,嘉兴学院,,32,32,30,10,11,82,,122,110,19,12,7,7,0.7,0.6
2025-05-04T2300,2872A,120.7846,30.7525,嘉兴市,南湖区残联,,28,23,28,10,11,87,,126,112,14,10,7,7,0.5,0.5
2025-05-04T2300,3407A,120.6916,30.7739,嘉兴市,秀洲住建,,36,36,20,10,13,93,,133,119,12,7,8,7,0.4,0.4
2025-05-04T2300,1945A,98.2908,39.7711,嘉峪关市,气象局,颗粒物(PM10),156,261,343,48,51,120,,119,119,1,3,3,7,0.8,0.8
2025-05-04T2300,2884A,98.2672,39.7978,嘉峪关市,酒钢宾馆,颗粒物(PM10),172,293,382,68,51,123,,119,119,2,6,2,13,0.3,0.3
2025-05-04T2300,3248A,98.2643,39.7724,嘉峪关市,雄关区,颗粒物(PM10),127,204,264,36,38,120,,119,119,4,6,6,6,0.7,0.7
2025-05-04T2300,1383A,113.1064,22.6058,江门市,北街,,21,21,26,11,15,41,,66,52,6,4,2,2,0.5,0.5
2025-05-04T2300,1384A,113.0731,22.5835,江门市,西区,,37,37,28,14,15,45,,73,56,10,9,7,6,0.5,0.5
2025-05-04T2300,1385A,113.0219,22.5311,江门市,圭峰西,,23,20,30,16,18,36,,66,50,11,11,3,3,0.5,0.5
2025-05-04T2300,1386A,113.0828,22.5947,江门市,东湖,,23,23,25,15,18,46,,73,58,11,10,8,8,0.5,0.5
2025-05-04T2300,3311A,113.1075,22.5647,江门市,江海富民,,29,28,37,20,19,44,,72,57,7,7,7,7,0.4,0.4
2025-05-04T2300,3449A,113.05,22.4667,江门市,新会银湖,,26,26,30,16,16,37,,71,55,14,12,1,1,0.5,0.5
2025-05-04T2300,3169A,113.2725,35.2067,焦作市,太极体育中心,颗粒物(PM10),96,142,67,30,23,96,,130,124,9,16,3,9,0.1,0.1
2025-05-04T2300,3335A,113.3137,35.2641,焦作市,马村街道办,颗粒物(PM10),71,91,65,25,25,114,,146,142,12,18,6,8,0.2,0.2
2025-05-04T2300,3336A,113.2465,35.2373,焦作市,焦作技师学院,颗粒物(PM10),90,130,56,24,19,104,,148,143,10,14,6,11,0.6,0.6
2025-05-04T2300,3477A,113.1656,35.2539,焦作市,中站许衡医院,颗粒物(PM10),71,91,54,30,23,90,,152,144,9,11,4,8,0.4,0.4
2025-05-04T2300,3981A,113.2449,35.1803,焦作市,原李万街道办,颗粒物(PM10),108,166,64,24,18,102,,153,146,12,16,9,17,0.3,0.4
2025-05-04T2300,4264A,113.2340,35.2190,焦作市,新安路1731号,颗粒物(PM10),87,123,60,32,23,101,,152,145,9,13,4,9,0.7,0.7
2025-05-04T2300,1708A,116.3701,23.5345,揭阳市,新兴,,39,38,49,27,30,83,,96,88,12,14,8,10,0.7,0.7
2025-05-04T2300,1709A,116.3264,23.5443,揭阳市,西马,,43,43,55,3,20,86,,99,89,6,8,8,9,0.9,0.9
2025-05-04T2300,1710A,116.3611,23.5626,揭阳市,东兴,,36,33,51,25,28,82,,87,85,5,9,5,9,0.6,0.8
2025-05-04T2300,1711A,116.4151,23.5294,揭阳市,渔湖,,30,27,47,18,23,93,,101,96,8,14,4,7,0.6,0.8
2025-05-04T2300,3320A,116.403,23.5699,揭阳市,曲溪,,44,44,51,23,25,89,,104,94,15,20,30,21,0.6,0.7
2025-05-04T2300,1944A,102.1692,38.5167,金昌市,天庆家园,颗粒物(PM10),500,764,609,179,98,99,,108,105,9,5,8,9,0.7,0.7
2025-05-04T2300,4022A,102.1647,38.5371,金昌市,金川区人防中心,颗粒物(PM10),500,1073,735,124,127,112,,111,110,5,6,4,5,0.3,0.4
2025-05-04T2300,4239A,102.1930,38.5319,金昌市,长春路96号,颗粒物(PM10),500,859,461,185,112,100,,103,102,6,3,14,11,0.5,0.5
2025-05-04T2300,1262A,119.647,29.077,金华市,十五中,颗粒物(PM10),56,62,54,29,21,123,,151,126,16,23,3,3,0.4,0.3
2025-05-04T2300,1263A,119.686,29.1029,金华市,监测站,颗粒物(PM10),55,60,65,29,24,124,,147,126,12,19,4,5,0.3,0.3
2025-05-04T2300,3659A,119.656,29.1131,金华市,气象局,颗粒物(PM10),54,57,55,22,18,126,,146,125,15,22,2,2,0.5,0.5
2025-05-04T2300,1767A,121.1115,41.0879,锦州市,南山,,29,29,34,17,18,62,,89,80,28,17,24,12,0.7,0.6
2025-05-04T2300,1768A,121.0604,40.8428,锦州市,开发区,颗粒物(PM10),80,110,54,42,20,25,,91,69,72,28,31,16,0.5,0.6
2025-05-04T2300,1769A,121.1836,41.1119,锦州市,百股街道,,35,35,36,17,13,61,,89,85,22,12,21,8,0.6,0.6
2025-05-04T2300,1770A,121.1178,41.1222,锦州市,天安街道,,37,37,36,14,18,60,,89,81,32,20,14,8,0.7,0.6
2025-05-04T2300,1771A,121.1303,41.1386,锦州市,北湖公园,,34,34,31,15,13,70,,88,84,20,10,16,12,0.6,0.5
2025-05-04T2300,2160A,112.85,35.5051,晋城市,自来水公司,颗粒物(PM10),57,64,61,7,14,96,,156,143,8,13,6,8,0.5,0.5
2025-05-04T2300,2161A,112.8318,35.4936,晋城市,白云商贸,颗粒物(PM10),53,56,60,3,10,101,,165,156,11,15,5,7,0.4,0.4
2025-05-04T2300,2162A,112.8508,35.4887,晋城市,市环保局,颗粒物(PM10),53,55,68,7,15,90,,145,132,6,12,5,7,0.4,0.4
2025-05-04T2300,2163A,112.8676,35.4897,晋城市,技术学院,颗粒物(PM10),52,54,54,3,14,91,,146,134,9,15,4,7,0.4,0.4
2025-05-04T2300,3620A,112.8271,35.4828,晋城市,泽州一中,颗粒物(PM10),52,54,47,3,13,97,,160,144,9,13,3,6,0.3,0.5
2025-05-04T2300,2173A,112.7249,37.7067,晋中市,南都小区,,33,33,60,13,24,75,,165,116,12,17,4,7,0.6,0.5
2025-05-04T2300,2174A,112.6991,37.6982,晋中市,榆次区政府,,23,14,57,14,18,71,,165,113,12,20,4,8,0.6,0.6
2025-05-04T2300,2865A,112.7195,37.6828,晋中市,榆次三中,,26,12,59,3,20,82,,172,123,8,19,2,6,0.4,0.5
2025-05-04T2300,4200A,112.7478,37.6954,晋中市,迎宾街26号,,24,19,54,3,17,75,,162,115,12,18,3,7,0.4,0.5
2025-05-04T2300,2439A,112.2014,31.0481,荆门市,竹园小学,,25,20,72,13,23,78,,146,109,12,15,3,8,0.2,0.2
2025-05-04T2300,2440A,112.1969,30.9891,荆门市,掇刀,,32,,47,22,31,80,,154,115,14,14,3,7,0.3,0.4
2025-05-04T2300,2441A,112.2213,31.0386,荆门市,石化一小,,28,26,64,19,34,79,,141,108,11,14,5,10,0.3,0.1
2025-05-04T2300,3012A,112.1849,31.0362,荆门市,西山林语,,24,,46,16,23,74,,143,106,5,7,7,10,0.6,0.5
2025-05-04T2300,3547A,112.1632,31.0138,荆门市,龙泉中学南校,,27,,48,12,24,84,,146,111,7,9,2,3,0.4,0.4
2025-05-04T2300,1844A,112.2494,30.3197,荆州市,市图书馆,,38,,47,26,31,103,,147,128,13,18,4,8,0.7,0.6
2025-05-04T2300,1845A,112.2008,30.3544,荆州市,市委党校,,43,,46,30,31,90,,140,117,11,16,6,9,0.7,0.6
2025-05-04T2300,3194A,112.2747,30.3122,荆州市,管委会,,42,31,46,29,32,100,,140,117,11,17,5,8,0.8,0.7
2025-05-04T2300,4268A,112.1722,30.3366,荆州市,学苑路85号,,39,27,37,27,31,96,,148,123,8,15,2,5,0.6,0.6
2025-05-04T2300,2343A,117.2117,29.2933,景德镇市,老干部活动中心,,31,14,53,10,25,97,,135,111,9,10,5,6,0.5,0.6
2025-05-04T2300,2344A,117.1894,29.2789,景德镇市,兽医站,,36,36,63,13,28,98,,131,103,8,10,4,4,0.7,0.7
2025-05-04T2300,2345A,117.1547,29.2617,景德镇市,台达陶瓷,,29,22,58,16,29,92,,132,106,17,10,8,6,0.5,0.5
2025-05-04T2300,2346A,117.2461,29.2956,景德镇市,陶研所,,31,24,51,17,32,98,,132,106,8,9,4,6,0.6,0.6
2025-05-04T2300,1803A,115.9872,29.6815,九江市,十里,细颗粒物(PM2.5),74,79,56,54,34,52,,129,99,40,17,5,7,0.9,0.8
2025-05-04T2300,1804A,115.9584,29.7046,九江市,茅山头,细颗粒物(PM2.5),82,81,61,60,32,16,,130,94,88,22,11,8,0.7,0.6
2025-05-04T2300,1805A,115.9877,29.7295,九江市,西园,颗粒物(PM10),55,60,49,33,27,95,,122,105,26,35,8,10,0.9,0.9
2025-05-04T2300,1808A,115.9114,29.6038,九江市,综合工业园,颗粒物(PM10),74,98,66,51,34,75,,127,99,36,29,13,14,1.1,0.9
2025-05-04T2300,1809A,116.0721,29.7535,九江市,石化总厂,细颗粒物(PM2.5),68,68,58,49,34,98,,118,108,11,24,10,10,0.9,0.8
2025-05-04T2300,1810A,115.9773,29.5698,九江市,庐山气象台,,29,9,54,3,24,92,,120,111,4,5,7,6,0.6,0.8
2025-05-04T2300,3190A,116.0254,29.6994,九江市,外国语学校,,48,,57,33,29,93,,118,108,7,19,5,10,0.7,0.9
2025-05-04T2300,4253A,116.0102,29.6594,九江市,莲花大道8号,细颗粒物(PM2.5),69,72,59,50,36,73,,119,96,15,14,7,11,1.0,0.9
2025-05-04T2300,4241A,98.5099,39.7506,酒泉市,北大街108号,颗粒物(PM10),355,464,471,47,49,119,,118,118,3,6,9,11,0.1,0.1
2025-05-04T2300,2698A,76.0072,39.4467,喀什地区,巡警大队,颗粒物(PM10),183,316,694,86,162,56,,110,104,48,13,4,3,0.7,0.4
2025-05-04T2300,2699A,75.9755,39.4694,喀什地区,吾办,细颗粒物(PM2.5),212,295,653,162,302,55,,94,90,92,62,2,3,0.5,0.3
2025-05-04T2300,4027A,75.9483,39.4689,喀什地区,老干局,颗粒物(PM10),172,293,621,96,179,70,,105,102,33,12,4,5,0.4,0.2
2025-05-04T2300,1824A,114.3389,34.7781,开封市,肿瘤医院,颗粒物(PM10),67,83,63,33,24,109,,150,134,16,18,9,11,0.5,0.4
2025-05-04T2300,1826A,114.2885,34.7965,开封市,世纪星幼儿园,,,76,64,34,29,107,,167,148,21,19,5,8,,0.8
2025-05-04T2300,3147A,114.3438,34.8106,开封市,龙亭公园,,,,72,82,34,102,,154,138,21,20,4,4,0.9,0.7
2025-05-04T2300,3210A,114.3644,34.7964,开封市,汴京公园,颗粒物(PM10),150,249,90,38,42,93,,162,140,24,20,3,5,0.8,0.6
2025-05-04T2300,3473A,114.2485,34.8306,开封市,技师学院,颗粒物(PM10),61,71,54,32,35,109,,151,140,21,16,4,6,0.8,0.6
2025-05-04T2300,3592A,114.4644,34.7556,开封市,祥符区生态环境局,颗粒物(PM10),52,53,50,32,31,92,,147,125,28,23,6,8,0.6,0.6
2025-05-04T2300,1951A,84.895,45.6094,克拉玛依市,长征新村,,30,23,14,6,6,95,,106,105,16,7,8,8,0.3,0.2
2025-05-04T2300,1952A,84.8988,45.5893,克拉玛依市,南林小区,,38,38,17,19,12,88,,113,110,12,3,5,6,0.2,0.1
2025-05-04T2300,1954A,84.905,44.3396,克拉玛依市,独山子区,,46,46,19,9,16,88,,144,135,27,12,8,11,0.5,0.4
2025-05-04T2300,1955A,85.6979,46.098,克拉玛依市,乌尔禾区商贸楼,,28,24,21,12,7,89,,107,104,7,3,7,7,0.2,0.2
2025-05-04T2300,3612A,85.1045,45.6899,克拉玛依市,白碱滩区新站,,35,35,20,3,4,78,,108,103,17,7,11,10,0.1,0.1
2025-05-04T2300,2697A,76.1454,39.7142,克孜勒苏柯尔克孜自治州,市人民政府,颗粒物(PM10),168,285,700,88,225,71,,106,103,38,12,4,5,0.4,0.2
2025-05-04T2300,3665A,76.1658,39.7157,克孜勒苏柯尔克孜自治州,克州文化中心,颗粒物(PM10),157,263,758,84,230,50,,104,90,26,8,5,6,0.3,0.3
2025-05-04T2300,1450A,102.8204,24.8886,昆明市,呈贡新区,,33,33,22,15,11,82,,113,102,23,10,5,5,0.5,0.5
2025-05-04T2300,1452A,102.7252,25.0902,昆明市,龙泉镇,,26,26,17,18,8,76,,108,99,22,19,8,9,0.3,0.3
2025-05-04T2300,1453A,102.7266,25.0375,昆明市,东风东路,,29,23,16,13,11,91,,113,104,17,13,8,10,0.4,0.5
2025-05-04T2300,1454A,102.6742,25.0669,昆明市,金鼎山,,38,,17,26,8,84,,110,102,22,14,3,4,0.4,0.4
2025-05-04T2300,1455A,102.6644,25.0401,昆明市,碧鸡广场,,29,28,16,20,8,63,,109,99,36,15,7,8,0.5,0.5
2025-05-04T2300,3179A,102.7494,25.0119,昆明市,官渡区博物馆,,30,20,17,14,8,95,,116,109,13,10,7,9,0.4,0.4
2025-05-04T2300,3375A,102.8017,24.8336,昆明市,青年创业园,,30,25,13,15,9,96,,116,110,8,7,8,8,0.3,0.3
2025-05-04T2300,3550A,102.7997,24.9786,昆明市,昆明学院,,28,25,17,13,9,87,,117,107,16,9,5,6,0.3,0.3
2025-05-04T2300,3551A,102.5967,24.6736,昆明市,晋宁区生态环境分局,,27,19,9,14,6,86,,109,103,11,7,6,6,0.3,0.3
2025-05-04T2300,3552A,102.6678,24.9856,昆明市,云天化总部,,31,20,16,12,8,97,,106,98,8,14,7,9,0.3,0.3
2025-05-04T2300,1456A,91.1319,29.6514,拉萨市,八廓街,,41,22,15,7,8,130,,143,139,12,10,6,11,0.3,0.4
2025-05-04T2300,1457A,91.1221,29.6747,拉萨市,市环保局,,,21,18,8,9,,,144,143,12,12,4,7,0.5,0.5
2025-05-04T2300,1458A,91.0874,29.6475,拉萨市,区监测站,,45,14,13,9,8,144,,144,143,8,14,6,10,0.3,0.3
2025-05-04T2300,1459A,91.1774,29.6541,拉萨市,西藏大学,,42,18,15,8,7,134,,144,140,8,8,5,6,0.4,0.4
2025-05-04T2300,1460A,90.9798,29.6588,拉萨市,区辐射站,,40,23,20,13,9,127,,142,136,19,20,8,10,0.3,0.3
2025-05-04T2300,1461A,91.0834,29.6292,拉萨市,拉萨火车站,,45,10,12,8,7,144,,143,143,3,10,3,6,0.4,0.4
2025-05-04T2300,2520A,109.2203,23.7256,来宾市,来宾技工学校,,32,29,35,22,18,68,,95,87,9,8,6,7,0.6,0.6
2025-05-04T2300,3535A,109.1781,23.7297,来宾市,兴宾区政府,,36,36,29,23,20,59,,87,79,10,11,4,5,0.5,0.5
2025-05-04T2300,4002A,109.2416,23.7461,来宾市,中南小学,,38,38,33,16,20,64,,94,85,8,6,6,7,0.6,0.5
2025-05-04T2300,1479A,103.831,36.0464,兰州市,铁路设计院,,25,25,183,14,45,64,,96,80,27,28,8,8,0.5,0.5
2025-05-04T2300,3241A,103.7439,36.0842,兰州市,百合公园,,24,24,165,15,41,67,,96,82,16,22,3,4,0.4,0.4
2025-05-04T2300,3242A,103.9611,35.998,兰州市,和平,,33,33,284,19,65,63,,100,84,16,10,10,12,0.8,0.6
2025-05-04T2300,4236A,103.6293,36.0938,兰州市,庄浪东路808号,,45,45,175,17,52,64,,98,84,26,24,7,14,0.3,0.3
2025-05-04T2300,4237A,103.7251,36.1043,兰州市,安宁西路88号,,39,36,190,27,50,77,,110,95,12,17,4,5,0.3,0.3
2025-05-04T2300,4238A,103.8470,36.0676,兰州市,北滨河东路1号,,33,33,210,18,52,74,,106,90,16,25,9,10,0.5,0.5
2025-05-04T2300,3245A,103.6633,36.533,兰州新区,新区管委会,颗粒物(PM10),55,59,153,25,55,73,,114,101,16,8,9,11,0.3,0.3
2025-05-04T2300,3246A,103.6975,36.4789,兰州新区,舟曲中学,颗粒物(PM10),52,54,203,20,45,91,,116,109,11,14,8,9,0.4,0.4
2025-05-04T2300,1067A,116.6708,39.5111,廊坊市,药材公司,,46,46,49,20,21,132,,149,139,5,13,2,3,0.3,0.3
2025-05-04T2300,1068A,116.7214,39.5589,廊坊市,开发区,,43,43,53,19,24,134,,152,141,5,14,3,4,0.3,0.3
2025-05-04T2300,1070A,116.7244,39.5269,廊坊市,北华航天学院,颗粒物(PM10),55,60,63,17,23,124,,144,133,9,14,5,6,0.3,0.3
2025-05-04T2300,2919A,116.7022,39.5453,廊坊市,河北工业大学,颗粒物(PM10),55,59,64,20,25,135,,153,144,8,15,6,7,0.3,0.3
2025-05-04T2300,2535A,103.7723,29.5462,乐山市,花湖湾,,40,40,61,23,36,119,,178,166,11,14,9,10,0.6,0.8
2025-05-04T2300,2536A,103.7627,29.5844,乐山市,牛耳桥,,42,37,63,29,40,110,,168,152,10,19,7,8,0.3,0.5
2025-05-04T2300,2537A,103.7508,29.6006,乐山市,市第三水厂,,35,35,60,24,37,104,,162,147,7,16,5,5,0.6,0.7
2025-05-04T2300,2538A,103.7571,29.5664,乐山市,市监测站,,39,39,61,20,36,105,,162,147,9,14,6,7,0.7,0.9
2025-05-04T2300,3361A,103.7311,29.5628,乐山市,理工大学,,37,29,58,21,37,117,,177,161,8,14,6,7,0.7,0.9
2025-05-04T2300,2599A,100.2497,26.8802,丽江市,丽江古城,,30,,13,13,10,93,,104,100,7,8,9,8,0.4,0.4
2025-05-04T2300,2600A,100.2203,26.8906,丽江市,市中心,,27,,9,3,8,86,,99,95,3,4,6,6,0.2,0.2
2025-05-04T2300,1267A,119.914,28.4514,丽水市,监测站大楼,,33,32,57,12,25,105,,144,137,14,12,3,3,0.3,0.4
2025-05-04T2300,1268A,119.93,28.4586,丽水市,莲都小学,,35,34,59,20,26,112,,148,142,12,10,4,4,0.4,0.5
2025-05-04T2300,1269A,119.879,28.4231,丽水市,余庄前,,36,36,54,17,30,102,,153,143,10,10,4,4,0.3,0.4
2025-05-04T2300,1173A,119.176,34.5885,连云港市,市环境监测站,,34,29,39,9,18,107,,147,132,9,12,5,8,0.4,0.5
2025-05-04T2300,3000A,119.3581,34.6972,连云港市,德源药业,,31,27,38,9,15,98,,137,121,15,13,11,10,0.8,0.6
2025-05-04T2300,3007A,119.178,34.844,连云港市,新城一中,,38,38,42,13,21,91,,130,115,23,18,12,9,0.8,0.6
2025-05-04T2300,3008A,119.3608,34.7519,连云港市,胡沟管理处,,32,19,28,7,13,100,,124,116,22,20,18,16,0.8,0.7
2025-05-04T2300,3009A,119.1478,34.5911,连云港市,矿山设计院,,34,27,47,7,18,106,,144,132,16,18,8,10,0.4,0.5
2025-05-04T2300,3434A,119.2413,34.6539,连云港市,工贸学校,,35,22,32,10,19,111,,144,134,13,14,8,10,0.3,0.4
2025-05-04T2300,3664A,119.4172,34.7341,连云港市,连云街道,,35,23,36,9,17,110,,143,134,16,14,11,10,0.5,0.6
2025-05-04T2300,2571A,102.3431,27.8099,凉山彝族自治州,青龙寺,,24,24,18,6,6,52,,110,86,6,5,3,4,0.6,0.7
2025-05-04T2300,2572A,102.2721,27.8415,凉山彝族自治州,邛海宾馆,,28,28,32,14,16,63,,107,87,15,13,9,11,0.7,0.7
2025-05-04T2300,2573A,102.2625,27.898,凉山彝族自治州,西昌市政府,,23,17,25,8,15,73,,108,93,4,10,9,13,0.6,0.8
2025-05-04T2300,2574A,102.2685,27.8851,凉山彝族自治州,凉山州政府,,22,16,24,10,14,70,,106,91,10,13,6,9,0.5,0.7
2025-05-04T2300,4229A,102.2342,27.8859,凉山彝族自治州,凯乐南路30号,,30,30,29,21,18,51,,99,81,23,20,14,19,0.9,1
2025-05-04T2300,2212A,123.2,41.1953,辽阳市,宏伟区,,27,19,35,9,10,84,,100,92,6,12,7,10,0.4,0.6
2025-05-04T2300,2213A,123.1683,41.2495,辽阳市,新华园,,32,32,46,17,17,63,,96,84,18,16,4,6,0.4,0.6
2025-05-04T2300,2214A,123.2354,41.2639,辽阳市,滨河路,,35,35,38,20,17,52,,92,78,33,19,8,8,0.3,0.4
2025-05-04T2300,2215A,123.149,41.2991,辽阳市,铁西工业园,,31,31,50,18,24,62,,93,81,17,20,12,13,0.3,0.6
2025-05-04T2300,2227A,125.1358,42.8845,辽源市,环保局,,44,44,30,15,10,46,,96,81,32,16,5,7,0.4,0.3
2025-05-04T2300,3239A,125.0764,42.9078,辽源市,银鹰制药,,29,28,18,20,13,65,,106,92,23,17,3,2,0.3,0.3
2025-05-04T2300,1625A,115.9848,36.4372,聊城市,区政府,,42,33,55,14,19,132,,147,142,10,16,5,7,0.5,0.5
2025-05-04T2300,2878A,116.0072,36.4343,聊城市,聊大东校,,41,34,55,27,28,131,,145,142,9,17,5,7,0.4,0.4
2025-05-04T2300,3200A,115.9819,36.4978,聊城市,监控中心,,44,35,43,9,16,140,,150,148,11,15,6,7,0.5,0.4
2025-05-04T2300,3513A,116.0445,36.4361,聊城市,九州社区,,43,34,45,18,15,135,,157,153,7,19,6,6,0.4,0.5
2025-05-04T2300,4018A,116.0567,36.4608,聊城市,星美广场,,41,31,44,12,10,131,,151,147,16,21,9,10,0.5,0.5
2025-05-04T2300,2632A,94.3681,29.6376,林芝市,林芝监测站,,29,8,8,6,4,90,,116,105,2,4,5,5,0.2,0.2
2025-05-04T2300,2633A,94.3616,29.6616,林芝市,林芝人民医院,,29,14,10,6,5,92,,115,106,1,2,5,5,0.3,0.3
2025-05-04T2300,2603A,100.0781,23.8982,临沧市,市环保局,细颗粒物(PM2.5),60,,20,43,21,51,,89,80,12,7,6,6,0.8,0.6
2025-05-04T2300,2604A,100.0894,23.8822,临沧市,市气象局,,43,35,21,30,16,54,,94,82,15,9,9,8,0.8,0.7
2025-05-04T2300,1733A,111.5531,36.0783,临汾市,临钢医院,,32,32,67,3,16,87,,139,113,10,14,4,6,0.4,0.5
2025-05-04T2300,1734A,111.5028,36.0714,临汾市,技工学校,,31,,64,17,28,98,,142,116,5,15,5,7,0.3,0.5
2025-05-04T2300,1736A,111.5018,36.0855,临汾市,市委,,47,47,81,3,15,99,,143,119,5,13,6,8,0.5,0.7
2025-05-04T2300,3018A,111.505,36.1014,临汾市,唐尧大酒店,颗粒物(PM10),54,57,80,8,21,90,,136,112,10,15,3,5,0.4,0.5
2025-05-04T2300,4244A,111.4879,36.0530,临汾市,启星学校,,33,33,71,6,25,95,,139,116,5,14,5,8,0.4,0.5
2025-05-04T2300,4271A,103.2464,35.6123,临夏回族自治州,滨河东路1号,,35,30,232,24,65,34,,91,76,11,13,3,6,0.4,0.4
2025-05-04T2300,4310A,103.2093,35.5995,临夏回族自治州,新华街21号,,35,35,235,18,79,64,,86,83,14,24,2,5,0.3,0.4
2025-05-04T2300,1618A,118.3429,35.0532,临沂市,沂河小区,颗粒物(PM10),53,56,51,26,33,117,,139,129,10,13,11,12,0.2,0.3
2025-05-04T2300,1619A,118.295,35.0583,临沂市,鲁南制药厂,,44,44,42,24,28,119,,140,128,13,26,7,10,0.6,0.6
2025-05-04T2300,1620A,118.2794,34.9976,临沂市,新光毛纺厂,,39,,31,22,27,124,,148,135,14,20,7,12,0.2,0.3
2025-05-04T2300,1621A,118.3956,35.0888,临沂市,河东保险公司,,40,39,42,18,25,125,,151,136,10,14,6,8,0.3,0.3
2025-05-04T2300,3370A,118.3564,35.0215,临沂市,十里堡居委,,38,36,43,17,22,120,,142,131,14,20,5,6,0.3,0.4
2025-05-04T2300,3496A,118.3604,35.1084,临沂市,南坊新区,,36,36,35,24,26,115,,141,128,14,15,7,8,0.3,0.3
2025-05-04T2300,3860A,118.3920,35.0300,临沂市,皇山花园小区,,37,36,46,22,27,117,,145,131,16,19,10,10,0.4,0.4
2025-05-04T2300,1870A,109.4856,24.3895,柳州市,柳东小学,,38,38,23,22,15,77,,98,93,8,7,10,10,0.7,0.7
2025-05-04T2300,1871A,109.4157,24.3277,柳州市,环保监测站,,38,38,26,21,18,71,,96,86,8,8,8,9,0.4,0.4
2025-05-04T2300,1872A,109.389,24.341,柳州市,河西水厂,,38,38,28,19,14,61,,85,77,6,7,4,4,0.6,0.6
2025-05-04T2300,1873A,109.4311,24.2921,柳州市,市四中,,35,35,28,18,15,71,,97,90,8,8,7,7,0.7,0.7
2025-05-04T2300,1874A,109.4006,24.3631,柳州市,市九中,,40,40,27,22,14,75,,101,92,7,6,8,8,0.6,0.6
2025-05-04T2300,1875A,109.4958,24.3134,柳州市,古亭山,,48,48,30,17,14,71,,91,87,7,6,6,6,0.7,0.7
2025-05-04T2300,3402A,109.5422,24.3996,柳州市,市二中,,26,26,24,18,13,65,,91,84,10,9,10,11,0.5,0.5
2025-05-04T2300,2307A,116.5079,31.737,六安市,监测大楼,,48,48,49,24,21,133,,156,150,9,12,6,6,0.3,0.3
2025-05-04T2300,2308A,116.4738,31.7643,六安市,皖西学院,颗粒物(PM10),57,64,58,22,20,132,,160,155,12,13,6,6,0.3,0.3
2025-05-04T2300,2309A,116.4996,31.7905,六安市,朝阳厂,,49,49,50,24,20,126,,149,146,15,16,4,5,0.2,0.3
2025-05-04T2300,2310A,116.5567,31.7886,六安市,开发区,,48,48,60,26,26,129,,161,157,15,14,6,6,0.4,0.4
2025-05-04T2300,2577A,104.83,26.5917,六盘水市,黄土坡,,40,29,29,28,22,91,,110,106,11,13,10,10,0.5,0.6
2025-05-04T2300,2578A,104.89,26.5939,六盘水市,水钢,,36,36,40,18,18,85,,110,103,12,14,11,11,0.6,0.5
2025-05-04T2300,2579A,104.8475,26.5894,六盘水市,民中,,32,30,30,22,18,75,,107,100,19,17,10,10,0.3,0.4
2025-05-04T2300,2580A,104.9544,26.5506,六盘水市,双水,,29,29,33,8,13,90,,111,107,11,13,10,10,0.4,0.4
2025-05-04T2300,2336A,117.0217,25.1033,龙岩市,龙岩市监测站,,26,17,39,17,27,83,,103,86,15,18,6,10,0.6,0.6
2025-05-04T2300,2337A,117.0258,25.0661,龙岩市,闽西职业技术学院,,28,,50,19,27,72,,93,77,16,18,16,18,0.6,0.6
2025-05-04T2300,2338A,117.0196,25.0306,龙岩市,龙岩学院,,17,14,44,10,30,54,,94,66,12,16,12,14,0.6,0.5
2025-05-04T2300,2885A,104.9339,33.3826,陇南市,滨江中学,,42,42,113,24,38,86,,116,97,2,7,9,10,0.2,0.3
2025-05-04T2300,3247A,104.955,33.371,陇南市,市总工会,,47,47,89,12,33,88,,121,102,4,6,7,8,0.2,0.3
2025-05-04T2300,2487A,111.9589,27.8901,娄底市,电视发射台,颗粒物(PM10),53,56,52,27,24,61,,114,86,5,5,5,6,0.5,0.5
2025-05-04T2300,2488A,111.9975,27.725,娄底市,市监测站,细颗粒物(PM2.5),55,50,61,39,37,87,,118,103,15,17,8,11,0.9,0.9
2025-05-04T2300,2489A,112.0194,27.7314,娄底市,市委党校,细颗粒物(PM2.5),55,53,60,39,33,81,,118,103,8,10,3,3,0.5,0.5
2025-05-04T2300,2490A,111.9561,27.7569,娄底市,涟钢,颗粒物(PM10),56,61,68,38,39,58,,99,83,26,16,17,18,0.8,0.9
2025-05-04T2300,2491A,111.9892,27.7044,娄底市,市政府,,49,49,51,34,34,72,,118,100,8,9,5,5,0.5,0.5
2025-05-04T2300,1894A,105.4427,28.9063,泸州市,小市上码头,颗粒物(PM10),51,51,88,24,50,90,,139,120,16,19,8,14,0.6,0.7
2025-05-04T2300,1895A,105.4241,28.8573,泸州市,兰田宪桥,细颗粒物(PM2.5),59,53,73,42,54,82,,135,109,14,18,9,10,0.5,0.6
2025-05-04T2300,4272A,105.3689,28.7783,泸州市,纳溪中医医院,颗粒物(PM10),61,72,77,39,50,68,,133,106,23,22,8,7,0.6,0.6
2025-05-04T2300,2183A,111.1406,37.5211,吕梁市,环保局,,39,39,80,24,27,42,,120,90,46,22,3,5,0.4,0.4
2025-05-04T2300,2185A,111.1297,37.5136,吕梁市,自来水公司,,40,40,75,21,27,66,,118,92,19,21,2,5,0.4,0.5
2025-05-04T2300,2867A,111.1283,37.51,吕梁市,马茂庄小学,,,48,86,24,25,,,118,,64,29,4,8,0.3,0.4
2025-05-04T2300,1812A,112.3931,34.6516,洛阳市,市委党校,颗粒物(PM10),80,109,47,28,23,88,,132,124,8,13,4,9,0.5,0.5
2025-05-04T2300,1815A,112.494,34.6886,洛阳市,河南林校,颗粒物(PM10),101,151,61,32,26,109,,147,139,10,18,6,10,0.3,0.4
2025-05-04T2300,1816A,112.3844,34.623,洛阳市,开发区管委会,颗粒物(PM10),76,102,51,35,26,96,,143,134,15,17,5,8,0.3,0.4
2025-05-04T2300,1817A,112.4267,34.6258,洛阳市,市委新办公区,颗粒物(PM10),75,99,51,28,24,100,,139,131,13,17,5,8,0.3,0.3
2025-05-04T2300,3340A,112.6005,34.6326,洛阳市,伊滨,颗粒物(PM10),68,85,61,28,31,113,,150,141,17,18,8,8,0.5,0.5
2025-05-04T2300,3341A,112.4951,34.6332,洛阳市,中移产业园,颗粒物(PM10),71,91,67,31,29,112,,149,141,14,19,6,9,0.5,0.5
2025-05-04T2300,3593A,112.5736,34.8993,洛阳市,吉利监测站,颗粒物(PM10),64,78,63,27,29,108,,150,140,18,20,9,13,0.4,0.5
2025-05-04T2300,3635A,112.3677,34.662,洛阳市,河科大西苑校区,颗粒物(PM10),88,125,52,25,20,95,,153,142,12,17,6,10,0.4,0.5
2025-05-04T2300,3636A,112.4388,34.6781,洛阳市,英才小学,颗粒物(PM10),85,120,55,27,20,107,,152,143,14,21,3,8,0.5,0.6
2025-05-04T2300,4214A,112.4600,34.6949,洛阳市,春都路1号院,颗粒物(PM10),90,129,64,28,28,110,,156,146,10,16,3,8,0.4,0.5
2025-05-04T2300,2399A,114.051,33.5699,漯河市,三五一五工厂,颗粒物(PM10),59,68,53,36,24,105,,152,139,16,12,4,6,0.8,0.6
2025-05-04T2300,2400A,114.0055,33.5698,漯河市,漯河大学,颗粒物(PM10),51,51,52,31,22,118,,157,145,11,10,5,7,0.6,0.4
2025-05-04T2300,2401A,114.0138,33.5828,漯河市,市水利局,,49,41,56,34,21,106,,154,141,11,10,4,7,1.0,0.8
2025-05-04T2300,2402A,114.0261,33.5698,漯河市,市广电局,细颗粒物(PM2.5),57,51,51,40,25,117,,154,144,12,10,4,6,0.6,0.4
2025-05-04T2300,3478A,113.9749,33.5664,漯河市,市图书馆,颗粒物(PM10),96,141,61,34,22,118,,151,142,17,15,4,6,0.7,0.6
2025-05-04T2300,4250A,114.0892,33.5882,漯河市,韶山路11号,颗粒物(PM10),63,76,58,42,24,109,,149,137,13,17,3,7,0.8,0.6
2025-05-04T2300,1798A,118.5092,31.6837,马鞍山市,湖东路四小,,38,36,39,21,16,119,,165,149,17,10,8,8,0.4,0.5
2025-05-04T2300,1799A,118.5024,31.6449,马鞍山市,开发区,颗粒物(PM10),54,58,48,23,19,120,,160,144,18,17,9,8,0.4,0.4
2025-05-04T2300,1802A,118.6245,31.7241,马鞍山市,濮塘,,39,32,35,20,15,124,,160,150,10,7,7,8,0.5,0.5
2025-05-04T2300,3633A,118.4918,31.6809,马鞍山市,雨山,,41,41,44,19,17,121,,162,148,19,14,9,10,0.4,0.4
2025-05-04T2300,4191A,118.5274,31.72227,马鞍山市,慈湖高新区,,47,47,44,24,19,116,,154,142,15,13,8,9,0.5,0.6
2025-05-04T2300,1686A,111.0286,21.4688,茂名市,电白南海,,27,27,30,12,20,35,,64,43,5,7,1,1,0.8,0.8
2025-05-04T2300,1687A,110.9294,21.6533,茂名市,茂石化七小,,29,29,32,12,14,27,,52,35,6,7,2,2,0.8,0.8
2025-05-04T2300,1688A,110.9107,21.6687,茂名市,健康路,,14,14,22,3,10,33,,58,42,2,3,3,2,0.7,0.8
2025-05-04T2300,1689A,110.8592,21.6828,茂名市,高岭,,31,31,38,3,9,29,,53,38,5,5,2,3,0.6,0.7
2025-05-04T2300,3450A,111.01,21.5165,茂名市,电白水东,,18,14,19,12,10,32,,57,41,9,8,3,2,0.7,0.7
2025-05-04T2300,2539A,104.0308,30.0478,眉山市,黑龙滩水库,,38,37,47,26,28,101,,157,132,4,12,2,2,0.4,0.5
2025-05-04T2300,2540A,103.8416,30.0874,眉山市,气象局,,36,36,90,14,49,115,,171,148,9,36,14,16,0.3,0.5
2025-05-04T2300,3137A,103.8578,30.0744,眉山市,市委党校,,34,24,75,14,43,108,,163,141,9,30,8,11,0.4,0.6
2025-05-04T2300,3148A,103.8291,30.0564,眉山市,区人社局,,37,37,71,14,47,110,,164,140,11,35,9,14,0.4,0.6
2025-05-04T2300,1690A,116.1231,24.3284,梅州市,梅江月梅,,25,,45,17,31,48,,96,66,6,18,5,7,0.7,0.8
2025-05-04T2300,1691A,116.0797,24.2719,梅州市,梅县新城,,38,,44,26,32,44,,113,77,17,18,5,6,0.7,0.7
2025-05-04T2300,1692A,116.1248,24.2654,梅州市,环境监控中心,,38,,49,26,31,24,,107,68,30,24,6,13,0.8,0.8
2025-05-04T2300,3315A,116.1233,24.2991,梅州市,梅龙,,22,,41,15,29,48,,108,75,10,13,8,10,0.8,0.8
2025-05-04T2300,1878A,104.7778,31.4741,绵阳市,富乐山,颗粒物(PM10),64,78,71,34,40,90,,118,108,6,16,6,8,0.3,0.5
2025-05-04T2300,1880A,104.6697,31.4668,绵阳市,高新区自来水公司,细颗粒物(PM2.5),62,64,51,44,35,84,,118,104,5,31,2,4,0.4,0.6
2025-05-04T2300,1881A,104.7287,31.5075,绵阳市,三水厂,颗粒物(PM10),67,83,70,32,38,91,,120,111,6,28,7,8,0.4,0.6
2025-05-04T2300,3491A,104.69,31.5322,绵阳市,西科大附属小学,颗粒物(PM10),86,121,76,41,36,87,,120,107,5,22,6,7,0.4,0.5
2025-05-04T2300,3492A,104.5648,31.5343,绵阳市,安州区旅游局,颗粒物(PM10),89,128,60,36,30,81,,124,109,7,17,6,8,0.3,0.5
2025-05-04T2300,4226A,104.7651,31.4531,绵阳市,绵阳市气象局,颗粒物(PM10),89,127,72,40,40,88,,110,103,4,20,3,3,0.4,0.5
2025-05-04T2300,1784A,129.61,44.561,牡丹江市,环保大楼,,22,,18,15,15,58,,86,73,10,10,5,5,0.2,0.2
2025-05-04T2300,1785A,129.6115,44.5782,牡丹江市,文化广场,,33,33,25,23,17,58,,86,73,12,11,8,9,0.4,0.4
2025-05-04T2300,1786A,129.5904,44.5963,牡丹江市,第一医院,,27,27,22,15,18,62,,90,78,8,8,6,6,0.3,0.3
2025-05-04T2300,1787A,129.6364,44.6075,牡丹江市,机车工厂,,29,,32,20,20,49,,86,72,18,12,6,8,0.5,0.4
2025-05-04T2300,1788A,129.6386,44.5462,牡丹江市,第一中学,,20,19,18,14,15,62,,92,74,13,11,7,6,0.4,0.5
2025-05-04T2300,2531A,105.0703,29.61,内江市,市监测站,,31,27,54,12,47,98,,136,118,6,17,11,13,0.6,0.7
2025-05-04T2300,2532A,105.0717,29.5947,内江市,东兴区政府,,31,23,56,11,42,98,,136,117,9,17,17,18,0.3,0.5
2025-05-04T2300,2533A,105.0653,29.5817,内江市,内江二中,,33,33,71,10,54,93,,133,113,11,20,8,9,0.4,0.6
2025-05-04T2300,2534A,105.0406,29.5822,内江市,内江日报社,,30,25,58,10,52,93,,138,115,8,25,14,16,0.4,0.7
2025-05-04T2300,2628A,92.0657,31.4846,那曲市,那曲监测站,,35,35,31,16,16,93,,115,107,18,21,7,7,0.5,0.6
2025-05-04T2300,4243A,92.0515,31.4787,那曲市,那曲市委宣传部,,33,33,29,19,15,104,,125,120,11,13,6,6,0.5,0.4
2025-05-04T2300,1290A,115.8931,28.6843,南昌市,省外办,,33,33,64,22,41,79,,113,88,14,21,7,8,1.2,0.7
2025-05-04T2300,1291A,115.8886,28.7003,南昌市,省林业公司,,28,,64,19,37,87,,114,91,6,12,10,10,0.9,0.9
2025-05-04T2300,1292A,115.8126,28.7442,南昌市,林科所,,25,12,62,9,35,79,,125,71,2,19,4,6,0.5,0.6
2025-05-04T2300,1294A,115.8518,28.687,南昌市,建工学校,,40,,70,28,40,77,,115,87,13,17,4,6,1.3,0.8
2025-05-04T2300,1295A,115.8921,28.6424,南昌市,象湖,,29,13,63,12,34,90,,118,91,6,15,7,11,0.7,0.9
2025-05-04T2300,1296A,115.7423,28.7996,南昌市,武术学校,,46,,49,32,32,46,,113,56,3,6,5,6,0.6,0.8
2025-05-04T2300,3046A,115.9084,28.6062,南昌市,机电学校,,28,21,76,17,37,88,,126,94,14,14,4,8,0.5,0.7
2025-05-04T2300,3690A,115.9721,28.7031,南昌市,外国语学校,,,16,70,11,33,,,123,,5,12,6,9,0.4,0.6
2025-05-04T2300,4192A,115.9316,28.68677,南昌市,南京东路235号,,34,34,83,10,36,96,,121,98,9,18,8,12,0.9,1
2025-05-04T2300,1906A,106.0789,30.8023,南充市,南充市委,,23,22,38,16,22,72,,99,92,16,14,4,4,0.6,0.6
2025-05-04T2300,1907A,106.1031,30.8217,南充市,南充炼油厂,,25,25,34,12,20,76,,96,91,6,9,3,4,0.5,0.5
2025-05-04T2300,4227A,106.1083,30.7884,南充市,梨树横街98号,,25,25,38,16,21,76,,88,87,9,11,3,3,0.3,0.3
2025-05-04T2300,4304A,106.1172,30.843,南充市,清泉寺北路188号,,26,22,38,10,17,81,,98,95,7,10,4,4,0.1,0.1
2025-05-04T2300,4305A,106.067,30.7616,南充市,同庆路1号,,28,21,38,19,24,69,,93,87,18,14,3,4,0.2,0.2
2025-05-04T2300,1151A,118.8086,32.1065,南京市,迈皋桥,,37,26,27,9,11,116,,146,137,7,6,4,4,0.3,0.4
2025-05-04T2300,1152A,118.7538,32.0551,南京市,草场门,,35,34,39,12,13,112,,142,133,19,18,3,2,0.0,0.1
2025-05-04T2300,1153A,118.7794,32.0745,南京市,山西路,,39,31,40,7,9,122,,153,145,14,13,3,4,0.1,0.2
2025-05-04T2300,1154A,118.7752,32.0023,南京市,中华门,,41,41,36,12,10,107,,141,132,8,6,5,6,0.3,0.4
2025-05-04T2300,1155A,118.8109,32.0309,南京市,瑞金路,,36,34,32,12,11,115,,146,137,6,3,6,6,0.4,0.4
2025-05-04T2300,1156A,118.7997,32.0754,南京市,玄武湖,,36,28,30,3,7,114,,143,135,7,6,6,6,0.4,0.5
2025-05-04T2300,1157A,118.6414,32.0931,南京市,浦口,,39,37,42,13,12,122,,156,147,19,18,6,6,0.4,0.5
2025-05-04T2300,1158A,118.7356,31.9996,南京市,奥体中心,,37,33,35,14,10,118,,156,146,11,11,4,4,0.2,0.3
2025-05-04T2300,1159A,118.9125,32.1028,南京市,仙林大学城,,37,34,28,9,10,117,,150,141,14,11,10,10,0.5,0.4
2025-05-04T2300,3422A,118.8436,31.9198,南京市,江宁彩虹桥,,36,32,36,9,14,114,,150,140,15,11,3,4,0.3,0.4
2025-05-04T2300,3427A,118.8554,32.3578,南京市,六合雄州,,36,36,41,9,17,104,,161,144,29,29,5,7,0.3,0.4
2025-05-04T2300,4249A,118.8708,31.3402,南京市,汶溪路181号,,39,26,36,19,17,123,,152,142,25,19,5,4,0.3,0.3
2025-05-04T2300,4312A,119.019,31.6512,南京市,中山西路1号,,37,29,28,8,14,116,,156,143,18,16,4,6,0.5,0.5
2025-05-04T2300,1401A,108.3103,22.7881,南宁市,二十一中,,30,30,30,20,18,53,,89,69,8,7,2,3,0.6,0.6
2025-05-04T2300,1402A,108.3141,22.8528,南宁市,北湖,,32,32,31,18,19,55,,93,71,9,9,6,6,0.7,0.7
2025-05-04T2300,1403A,108.3206,22.8225,南宁市,市监测站,,26,19,31,18,18,47,,79,62,7,7,5,5,0.4,0.4
2025-05-04T2300,1404A,108.3829,22.8037,南宁市,大自然花园,,25,25,29,17,18,56,,94,72,4,5,5,5,0.5,0.5
2025-05-04T2300,1405A,108.4394,22.7904,南宁市,仙葫,,32,23,30,22,20,52,,78,62,6,6,6,6,0.7,0.6
2025-05-04T2300,1406A,108.2397,22.8467,南宁市,区农职院,,33,33,36,21,19,46,,92,68,9,9,3,4,0.4,0.5
2025-05-04T2300,1407A,108.3275,22.735,南宁市,英华嘉园,,28,28,36,15,18,50,,83,65,12,10,7,7,0.5,0.4
2025-05-04T2300,3401A,108.4834,22.7618,南宁市,红星社区,,35,29,31,24,19,63,,92,74,5,6,8,8,0.6,0.6
2025-05-04T2300,4221A,108.2177,22.7774,南宁市,乐贤路16号,,31,31,36,13,18,42,,85,60,9,11,4,6,0.4,0.5
2025-05-04T2300,2332A,118.1681,26.6369,南平市,南平市监测站,,30,30,44,20,31,96,,118,91,7,11,3,5,0.8,0.9
2025-05-04T2300,2333A,118.1825,26.6489,南平市,南平铝业有限公司,,31,29,47,19,26,98,,117,80,3,9,3,6,0.6,0.7
2025-05-04T2300,2334A,118.1756,26.6272,南平市,南平七中,,29,,47,20,31,92,,122,92,4,9,4,5,0.6,0.8
2025-05-04T2300,1168A,120.9098,31.9663,南通市,狼山街道,,29,13,24,7,10,92,,121,106,17,14,4,4,0.3,0.3
2025-05-04T2300,1169A,120.86,32.0005,南通市,虹桥,,29,9,20,7,10,92,,125,108,18,13,2,1,0.5,0.5
2025-05-04T2300,1170A,120.87,32.02,南通市,城中,,30,17,29,8,8,94,,127,110,19,16,2,3,0.4,0.4
2025-05-04T2300,1171A,120.94,31.93,南通市,星湖花园,,28,9,19,6,10,88,,118,102,18,13,2,2,0.4,0.4
2025-05-04T2300,1172A,120.81,32.0417,南通市,紫琅学院,,26,9,22,3,5,82,,110,100,17,14,4,4,0.5,0.5
2025-05-04T2300,3291A,121.067,32.062,南通市,通州监测站,,32,17,25,3,8,100,,127,111,8,8,5,5,0.4,0.3
2025-05-04T2300,3432A,120.9348,31.9883,南通市,环境教育馆,,31,12,30,8,10,98,,127,111,11,11,2,2,0.1,0.2
2025-05-04T2300,2404A,112.5224,33.0122,南阳市,瓦房庄,颗粒物(PM10),55,59,55,26,19,87,,147,118,14,13,7,7,0.6,0.6
2025-05-04T2300,2405A,112.5003,32.9735,南阳市,汉画馆,,49,49,43,24,17,76,,138,108,15,12,6,6,0.4,0.3
2025-05-04T2300,2406A,112.5573,33.027,南阳市,气象站,颗粒物(PM10),53,56,54,24,21,91,,150,124,13,11,5,6,0.3,0.2
2025-05-04T2300,2407A,112.5481,32.9689,南阳市,理工学院,,39,39,48,25,21,82,,142,115,14,12,5,5,0.5,0.5
2025-05-04T2300,4008A,112.5234,32.9922,南阳市,卧龙区政府,,50,50,47,30,21,82,,148,117,15,13,5,6,0.6,0.5
2025-05-04T2300,1234A,121.8358,29.911,宁波市,区环保大楼,,32,30,31,7,15,101,,110,102,2,9,8,9,0.3,0.4
2025-05-04T2300,1235A,121.56,29.82,宁波市,万里学院,,34,18,26,8,11,108,,125,116,13,16,6,5,0.3,0.3
2025-05-04T2300,1236A,121.713,29.9572,宁波市,龙赛医院,,35,30,37,6,10,110,,116,112,5,15,5,8,0.5,0.6
2025-05-04T2300,1239A,121.633,29.7733,宁波市,钱湖水厂,,33,20,23,9,9,105,,125,117,7,8,8,8,0.3,0.3
2025-05-04T2300,1240A,121.5856,29.8635,宁波市,太古小学,,32,23,28,3,6,102,,120,110,10,13,6,6,0.6,0.7
2025-05-04T2300,1241A,121.524,29.8674,宁波市,市环境监测中心,,32,19,27,9,8,102,,117,107,14,18,9,9,0.4,0.4
2025-05-04T2300,2871A,121.6147,29.9017,宁波市,万里国际学校,,35,27,29,8,10,111,,125,117,7,12,8,8,0.4,0.4
2025-05-04T2300,3710A,121.5594,29.8975,宁波市,白沙活动中心,,40,40,45,6,12,101,,123,112,12,14,7,8,0.3,0.3
2025-05-04T2300,2341A,119.5388,26.6612,宁德市,宁德市监测站,,34,17,41,15,21,108,,141,116,13,14,5,6,0.3,0.4
2025-05-04T2300,3209A,119.5231,26.6562,宁德市,宁德一中,,29,22,39,13,21,92,,136,109,6,9,6,7,0.1,0.2
2025-05-04T2300,2618A,98.8601,25.8567,怒江傈僳族自治州,州监测站,,29,29,29,14,13,65,,92,85,7,5,6,6,0.3,0.3
2025-05-04T2300,2619A,98.8546,25.8417,怒江傈僳族自治州,泸水一中,,21,21,26,9,13,33,,75,62,20,11,6,6,0.4,0.3
2025-05-04T2300,1888A,101.6891,26.571,攀枝花市,弄弄坪,,32,21,16,11,9,100,,112,110,10,10,8,10,0.4,0.5
2025-05-04T2300,1889A,101.5769,26.5928,攀枝花市,河门口,,32,16,22,9,10,101,,107,106,7,13,6,10,0.4,0.6
2025-05-04T2300,1890A,101.7169,26.585,攀枝花市,炳草岗,,31,23,22,8,10,97,,116,110,12,18,6,14,0.4,0.6
2025-05-04T2300,1891A,101.7369,26.5008,攀枝花市,仁和,,33,11,18,6,12,105,,109,108,6,10,8,9,0.4,0.5
2025-05-04T2300,2835A,101.7227,26.567,攀枝花市,四十中小,,36,15,18,13,12,114,,121,119,7,13,6,10,0.4,0.6
2025-05-04T2300,1604A,122.0303,41.1489,盘锦市,开发区,,,16,25,,43,72,,99,91,17,15,7,8,0.4,0.3
2025-05-04T2300,1605A,122.0485,41.0883,盘锦市,兴隆台,,30,30,27,19,12,55,,90,77,33,21,7,9,0.5,0.4
2025-05-04T2300,1606A,121.8297,41.1028,盘锦市,新生街道,,22,12,20,12,9,70,,96,89,20,23,8,11,0.3,0.3
2025-05-04T2300,1832A,113.3257,33.742,平顶山市,新华旅馆,颗粒物(PM10),71,91,89,36,22,104,,158,139,23,25,8,8,0.6,0.5
2025-05-04T2300,1833A,113.2919,33.737,平顶山市,规划设计院,细颗粒物(PM2.5),69,83,60,50,30,103,,150,132,24,21,6,7,0.8,0.6
2025-05-04T2300,1834A,113.182,33.774,平顶山市,平顶山工学院,颗粒物(PM10),60,69,54,39,24,97,,165,144,21,17,6,7,0.3,0.2
2025-05-04T2300,3204A,113.3025,33.73,平顶山市,规划局,颗粒物(PM10),60,70,62,39,25,110,,158,141,16,15,8,8,0.6,0.5
2025-05-04T2300,3594A,112.8867,33.9116,平顶山市,石龙区,颗粒物(PM10),66,81,86,43,37,53,,164,134,60,28,11,9,0.2,0.1
2025-05-04T2300,2656A,106.6692,35.5461,平凉市,聚贤嘉苑,颗粒物(PM10),52,53,59,27,25,28,,10,10,46,30,12,8,0.7,0.8
2025-05-04T2300,2657A,106.7021,35.5307,平凉市,博物馆,,50,50,132,20,27,49,,107,90,26,15,9,12,0.5,0.6
2025-05-04T2300,2347A,114.0997,27.5002,萍乡市,武功山,细颗粒物(PM2.5),57,56,36,40,22,39,,86,78,13,9,16,15,1.0,0.6
2025-05-04T2300,2348A,113.8385,27.6434,萍乡市,中医院,细颗粒物(PM2.5),97,95,85,72,54,76,,107,101,9,9,16,17,1.0,1
2025-05-04T2300,2349A,113.8493,27.6253,萍乡市,市政府车库,细颗粒物(PM2.5),72,77,71,52,47,60,,101,92,24,15,13,12,3.1,1.1
2025-05-04T2300,2350A,113.8676,27.6435,萍乡市,市环保局,颗粒物(PM10),72,94,76,50,47,71,,104,96,12,12,14,14,0.9,0.8
2025-05-04T2300,2351A,113.866,27.6198,萍乡市,安源区政府,细颗粒物(PM2.5),98,77,79,73,51,64,,94,86,16,15,9,9,1.1,0.9
2025-05-04T2300,2319A,119.0141,25.4325,莆田市,荔城区仓后路,,40,40,52,19,28,89,,123,104,9,14,3,4,0.5,0.5
2025-05-04T2300,2320A,119.0015,25.4553,莆田市,莆田市监测站,,29,21,49,16,28,92,,128,103,6,11,4,5,0.4,0.5
2025-05-04T2300,2321A,119.1119,25.4561,莆田市,涵江区六中,,34,34,48,17,28,99,,129,112,13,15,3,4,0.4,0.4
2025-05-04T2300,2322A,119.1013,25.3215,莆田市,秀屿区政府,,34,22,43,12,22,108,,137,116,8,10,4,5,0.5,0.5
2025-05-04T2300,2392A,115.0312,35.7636,濮阳市,环保局,,42,42,45,25,18,105,,151,130,19,16,6,8,0.7,0.6
2025-05-04T2300,2394A,115.0574,35.7609,濮阳市,油田运输公司,颗粒物(PM10),55,60,57,28,21,115,,162,140,17,16,6,7,0.7,0.6
2025-05-04T2300,3021A,115,35.7668,濮阳市,濮水河管理处,,48,48,41,28,19,88,,160,128,21,16,4,6,0.8,0.7
2025-05-04T2300,4216A,115.0924,35.7686,濮阳市,任丘路479号,颗粒物(PM10),54,57,52,25,21,116,,157,134,15,16,5,8,0.7,0.5
2025-05-04T2300,2601A,100.98,22.7633,普洱市,市环保局,,41,41,31,15,14,48,,89,80,8,4,6,6,0.5,0.4
2025-05-04T2300,2602A,100.9817,22.8322,普洱市,普洱第二中学,,39,27,18,27,13,55,,88,82,15,10,6,6,0.5,0.5
2025-05-04T2300,2262A,131.0518,45.8751,七台河市,新一中,,29,12,12,9,8,92,,97,90,7,8,11,11,0.7,0.6
2025-05-04T2300,3345A,131.0577,45.7879,七台河市,中波台,,22,20,18,9,8,70,,78,70,18,15,8,7,0.4,0.4
2025-05-04T2300,3637A,131.0176,45.7761,七台河市,人民广场,,29,29,23,17,19,74,,86,78,20,16,11,10,0.6,0.5
2025-05-04T2300,3684A,130.8781,45.8222,七台河市,新建矿广场,,23,22,27,11,12,71,,73,71,10,15,9,10,0.5,0.5
2025-05-04T2300,1779A,123.9305,47.3636,齐齐哈尔市,安居小区,,21,21,19,12,7,52,,80,70,16,8,2,3,0.3,0.3
2025-05-04T2300,1780A,123.9488,47.3386,齐齐哈尔市,中心广场,,25,25,17,7,3,61,,80,73,14,8,8,8,0.3,0.3
2025-05-04T2300,1781A,123.9483,47.3227,齐齐哈尔市,农牧车辆厂,,20,19,18,7,5,64,,81,76,8,6,4,4,0.3,0.2
2025-05-04T2300,1783A,123.945,47.2988,齐齐哈尔市,市环境监测站,,29,29,16,11,4,60,,81,76,9,5,3,3,0.5,0.4
2025-05-04T2300,3662A,123.6333,47.2075,齐齐哈尔市,富区青少年活动中心,,20,18,23,14,9,53,,77,69,14,8,2,2,0.6,0.6
2025-05-04T2300,2591A,107.9783,26.5747,黔东南苗族侗族自治州,市环境监测站,,36,36,25,24,16,45,,69,57,5,6,3,3,0.5,0.4
2025-05-04T2300,2881A,107.8908,26.5311,黔东南苗族侗族自治州,凯里学院,,31,31,14,18,14,47,,77,60,5,4,2,2,0.4,0.3
2025-05-04T2300,2593A,107.5228,26.2403,黔南布依族苗族自治州,小围寨,,23,7,10,7,5,72,,79,78,7,6,2,2,0.2,0.2
2025-05-04T2300,3538A,107.5175,26.2978,黔南布依族苗族自治州,沙坝,,24,14,14,12,7,74,,82,80,7,5,3,3,0.1,0.3
2025-05-04T2300,2589A,104.9022,25.0925,黔西南布依族苗族自治州,场坝街,细颗粒物(PM2.5),58,51,26,41,14,92,,124,114,7,11,5,10,0.4,0.4
2025-05-04T2300,2590A,104.8811,25.0992,黔西南布依族苗族自治州,坪东大道,,32,32,20,7,9,81,,119,107,16,14,2,4,0.4,0.3
2025-05-04T2300,2502A,108.6236,21.9667,钦州市,市环保站,,19,19,25,9,11,51,,60,49,10,12,1,3,0.6,0.6
2025-05-04T2300,2503A,108.6549,21.9481,钦州市,沙埠小学,,29,29,34,16,16,44,,62,48,15,16,7,6,0.7,0.6
2025-05-04T2300,2504A,108.5989,21.7431,钦州市,港区一小,,30,30,45,15,16,55,,55,52,12,12,7,6,0.5,0.5
2025-05-04T2300,3404A,108.5959,21.9633,钦州市,北职校,,24,24,30,14,15,46,,55,45,9,12,6,8,0.5,0.6
2025-05-04T2300,1043A,119.7493,40.0116,秦皇岛市,第一关,,49,43,40,25,17,8,,106,74,97,34,7,7,0.3,0.4
2025-05-04T2300,1044A,119.5897,39.9499,秦皇岛市,监测站,颗粒物(PM10),53,55,53,26,16,65,,105,97,39,17,8,7,0.4,0.4
2025-05-04T2300,1046A,119.5251,39.9041,秦皇岛市,建设大厦,颗粒物(PM10),80,109,64,30,20,51,,108,97,60,22,6,6,0.4,0.4
2025-05-04T2300,3132A,119.610547,39.943889,秦皇岛市,文明里,颗粒物(PM10),56,61,47,21,15,83,,107,104,25,15,8,6,0.3,0.4
2025-05-04T2300,4198A,119.5090,39.8253,秦皇岛市,北戴河轮滑馆,,32,32,34,13,14,96,,105,102,12,13,6,7,0.3,0.4
2025-05-04T2300,1307A,120.6659,36.2403,青岛市,仰口,,38,28,21,18,14,121,,137,127,6,7,7,7,0.5,0.5
2025-05-04T2300,1310A,120.4134,36.0658,青岛市,市南区东部子站,,27,24,46,12,16,86,,137,113,9,25,7,9,0.4,0.6
2025-05-04T2300,1311A,120.3664,36.1032,青岛市,四方区子站,,32,19,37,7,19,102,,155,131,12,37,3,2,0.6,0.7
2025-05-04T2300,1312A,120.2994,36.054,青岛市,市南区西部子站,,30,14,40,7,22,94,,137,115,14,43,7,10,0.6,0.8
2025-05-04T2300,1313A,120.4581,36.0858,青岛市,崂山区子站,,30,12,25,3,10,96,,148,128,9,17,8,9,0.4,0.6
2025-05-04T2300,1315A,120.3999,36.3083,青岛市,城阳区子站,,34,27,34,10,15,108,,152,132,11,27,4,6,0.4,0.5
2025-05-04T2300,1966A,120.0405,35.8735,青岛市,黄岛区4号,,34,14,37,3,15,106,,145,123,9,20,8,9,0.4,0.6
2025-05-04T2300,3362A,120.5014,36.4034,青岛市,即墨2号,,37,33,42,13,18,117,,160,139,9,15,7,8,0.6,0.6
2025-05-04T2300,3642A,120.3503,36.0736,青岛市,市北区南部,,28,22,39,12,15,88,,133,112,5,22,8,10,0.7,0.7
2025-05-04T2300,3643A,120.3948,36.1805,青岛市,李沧区北部,,29,12,37,9,18,91,,137,115,13,29,7,10,0.5,0.6
2025-05-04T2300,4290A,120.1969,35.9546,青岛市,珠江路669号,,33,,36,12,16,104,,146,122,5,14,6,8,0.5,0.6
2025-05-04T2300,1702A,113.0426,23.691,清远市,环保大楼,,21,21,42,9,20,43,,78,54,15,18,8,6,0.7,0.8
2025-05-04T2300,1703A,113.0208,23.7106,清远市,凤城街办,,13,13,29,8,19,35,,66,46,21,21,7,6,0.6,0.6
2025-05-04T2300,3025A,113.0477,23.6344,清远市,技师学院,,15,15,28,8,18,32,,68,44,18,18,8,6,0.5,0.5
2025-05-04T2300,3318A,112.9903,23.7403,清远市,清新太和,,14,6,27,3,21,44,,71,50,14,16,7,7,0.6,0.7
2025-05-04T2300,3455A,113.076,23.7198,清远市,清城东城,,20,20,36,10,20,34,,67,49,11,14,8,7,0.6,0.6
2025-05-04T2300,2661A,107.6325,35.7357,庆阳市,庆阳五中,颗粒物(PM10),54,57,106,18,32,91,,114,100,5,7,3,5,0.4,0.5
2025-05-04T2300,2662A,107.6364,35.7067,庆阳市,市环保局,颗粒物(PM10),55,60,108,20,25,93,,119,104,4,8,8,9,0.3,0.4
2025-05-04T2300,1916A,103.7897,25.5035,曲靖市,环境监测站,,31,21,22,11,7,98,,126,118,10,13,5,5,0.3,0.4
2025-05-04T2300,1917A,103.8,25.5364,曲靖市,烟厂办公区,,31,24,22,6,10,97,,130,125,8,15,4,9,0.3,0.4
2025-05-04T2300,3376A,103.7947,25.462,曲靖市,南苑二区,,31,20,16,10,8,99,,129,121,10,10,5,5,0.4,0.4
2025-05-04T2300,3377A,103.7444,25.5261,曲靖市,曲靖师范学院,,39,39,28,14,14,84,,126,116,18,16,14,16,0.4,0.5
2025-05-04T2300,1264A,118.8692,28.9398,衢州市,环保大楼,颗粒物(PM10),52,53,44,28,20,99,,138,122,14,13,3,4,0.5,0.5
2025-05-04T2300,1265A,118.8709,28.9666,衢州市,实验学校,颗粒物(PM10),54,58,59,34,28,91,,144,126,17,13,4,6,0.4,0.4
2025-05-04T2300,1266A,118.8621,28.9808,衢州市,衢州学院,颗粒物(PM10),58,66,62,40,30,76,,130,113,24,17,4,5,0.4,0.4
2025-05-04T2300,1611A,118.5819,24.9117,泉州市,涂山街,,33,23,50,18,28,104,,136,112,4,15,3,5,0.5,0.6
2025-05-04T2300,1612A,118.5972,24.8978,泉州市,津头埔,,33,27,48,18,30,103,,132,108,9,19,2,3,0.5,0.6
2025-05-04T2300,1613A,118.6663,24.9424,泉州市,万安,,33,29,46,17,24,103,,138,112,6,11,3,4,0.5,0.6
2025-05-04T2300,3529A,118.6333,24.9264,泉州市,城华南路,,33,31,46,16,25,103,,132,110,6,15,3,3,0.4,0.5
2025-05-04T2300,2626A,88.8876,29.2718,日喀则市,日喀则监测站,,41,14,17,3,6,129,,136,134,5,10,8,8,0.4,0.4
2025-05-04T2300,3726A,88.8781,29.2426,日喀则市,林业技术推广中心,,44,22,21,6,5,139,,138,138,2,4,6,6,0.2,0.2
2025-05-04T2300,1659A,119.471,35.4209,日照市,监测站,,34,22,56,15,28,106,,144,121,17,33,6,8,0.4,0.7
2025-05-04T2300,1660A,119.523,35.4216,日照市,市政府广场,,32,19,44,9,16,102,,136,116,10,24,4,6,0.4,0.5
2025-05-04T2300,1661A,119.5587,35.4044,日照市,港务局,,,27,52,16,25,,,139,123,,26,,8,,0.8
2025-05-04T2300,3507A,119.5328,35.4625,日照市,职业技术学院,,36,24,41,7,18,114,,146,127,4,16,4,7,0.5,0.6
2025-05-04T2300,3604A,119.3266,35.1044,日照市,岚山环保分局,,39,24,42,13,19,122,,143,125,10,20,5,7,0.5,0.7
2025-05-04T2300,1835A,111.1922,34.7752,三门峡市,市政府,颗粒物(PM10),68,86,95,29,35,117,,148,131,7,15,4,9,0.5,0.7
2025-05-04T2300,1836A,111.1587,34.7942,三门峡市,开发区,,43,37,72,30,33,113,,144,127,8,14,5,11,0.5,0.7
2025-05-04T2300,3039A,111.1911,34.7829,三门峡市,三门峡市第一小学,颗粒物(PM10),57,63,77,10,20,118,,152,134,5,12,6,10,0.4,0.6
2025-05-04T2300,3598A,111.1,34.7167,三门峡市,富达温泉假日酒店,颗粒物(PM10),54,58,90,18,29,119,,149,132,5,11,4,7,0.6,0.8
2025-05-04T2300,2324A,117.6211,26.2625,三明市,三钢,,39,39,54,26,35,58,,101,76,16,16,6,5,0.7,1
2025-05-04T2300,2325A,117.635,26.2714,三明市,三明二中,,48,,50,33,49,56,,95,72,16,18,6,5,0.5,0.8
2025-05-04T2300,2326A,117.6028,26.2378,三明市,三元区政府,,42,42,57,27,34,29,,96,64,28,17,3,4,0.8,0.8
2025-05-04T2300,1876A,109.5078,18.2489,三亚市,河东子站,,12,11,21,8,10,25,,39,32,6,4,4,4,0.2,0.3
2025-05-04T2300,1877A,109.4964,18.2681,三亚市,河西子站,,14,14,19,9,11,22,,39,32,10,7,2,2,0.2,0.3
2025-05-04T2300,3540A,109.7348,18.3443,三亚市,君悦子站,,12,11,19,8,10,17,,43,32,14,8,3,3,0.2,0.2
2025-05-04T2300,2624A,91.7608,29.2313,山南市,山南监测站,,36,10,17,6,9,114,,137,132,2,8,3,5,0.5,0.5
2025-05-04T2300,2625A,91.7706,29.2436,山南市,山南人民医院,,36,18,32,13,14,114,,138,134,4,7,4,4,0.3,0.3
2025-05-04T2300,1674A,116.6794,23.3667,汕头市,金平子站,,34,34,30,15,19,107,,107,107,4,8,4,5,0.6,0.7
2025-05-04T2300,1675A,116.7244,23.3633,汕头市,龙湖子站,,37,37,33,15,18,106,,108,108,3,4,4,5,0.5,0.6
2025-05-04T2300,1676A,116.7258,23.2775,汕头市,濠江子站,,34,24,31,18,23,106,,109,109,6,9,4,4,0.4,0.5
2025-05-04T2300,1677A,116.7519,23.4714,汕头市,澄海子站,,34,24,34,12,20,108,,110,110,6,10,2,2,0.6,0.7
2025-05-04T2300,1678A,116.6092,23.2539,汕头市,潮阳子站,,35,29,38,12,19,110,,103,103,5,10,7,7,0.5,0.6
2025-05-04T2300,3444A,116.454,23.2684,汕头市,潮南峡山,,32,32,38,15,22,98,,96,96,2,4,4,5,0.5,0.6
2025-05-04T2300,3624A,116.4069,23.2533,汕头市,潮南子站,,41,41,48,19,27,99,,96,96,2,6,4,5,0.5,0.6
2025-05-04T2300,1693A,115.3653,22.775,汕尾市,市环保局,,34,33,26,22,17,107,,99,99,2,3,6,6,0.4,0.5
2025-05-04T2300,1694A,115.3706,22.7898,汕尾市,市政府,,41,41,27,22,21,102,,94,94,5,5,3,4,0.3,0.4
2025-05-04T2300,1695A,115.3622,22.7925,汕尾市,新城中学,,45,45,33,26,20,105,,98,98,3,4,8,8,0.3,0.4
2025-05-04T2300,2645A,109.9154,33.8715,商洛市,监测站,颗粒物(PM10),54,58,59,24,27,92,,136,121,6,12,4,9,0.4,0.5
2025-05-04T2300,3045A,109.9643,33.8471,商洛市,商州区中学,颗粒物(PM10),63,76,64,24,27,94,,130,116,4,15,3,8,0.4,0.5
2025-05-04T2300,2408A,115.6702,34.4285,商丘市,环境监测站,颗粒物(PM10),51,51,62,29,24,132,,152,143,16,20,4,4,0.5,0.4
2025-05-04T2300,2409A,115.6458,34.4045,商丘市,粮食局,颗粒物(PM10),54,57,54,26,23,132,,151,143,16,17,3,4,0.5,0.3
2025-05-04T2300,2410A,115.6293,34.3948,商丘市,睢阳区环保局,颗粒物(PM10),64,78,59,29,22,132,,154,146,19,20,3,4,0.4,0.4
2025-05-04T2300,3171A,115.6071,34.4465,商丘市,梁园区档案局,,48,48,54,29,21,135,,149,143,13,24,4,5,0.4,0.3
2025-05-04T2300,1141A,121.4,31.238,上海市,普陀,,30,27,24,10,10,96,,113,106,16,15,5,5,0.4,0.4
2025-05-04T2300,1142A,121.478,31.2036,上海市,十五厂,,32,30,26,13,11,101,,116,109,16,17,8,8,0.5,0.5
2025-05-04T2300,1143A,121.467,31.3008,上海市,虹口,,34,34,26,13,11,98,,110,104,8,11,7,7,0.7,0.2
2025-05-04T2300,1147A,121.425,31.2261,上海市,静安监测站,,31,26,23,9,9,99,,115,108,18,18,8,8,0.7,0.6
2025-05-04T2300,1148A,121.703,31.1907,上海市,浦东川沙,,36,36,30,11,10,91,,111,102,15,16,6,6,0.5,0.5
2025-05-04T2300,1149A,121.533,31.2284,上海市,浦东新区监测站,,32,28,23,11,8,101,,113,109,13,16,6,6,0.5,0.5
2025-05-04T2300,1150A,121.577,31.2071,上海市,浦东张江,,32,32,25,15,12,99,,110,106,13,13,6,6,0.6,0.6
2025-05-04T2300,3265A,121.4316,31.3322,上海市,宝山庙行,,32,31,24,10,11,102,,112,105,13,15,6,6,0.5,0.5
2025-05-04T2300,3266A,121.8791,31.4662,上海市,崇明上实东滩,,36,19,17,8,7,114,,125,121,11,9,2,2,0.3,0.3
2025-05-04T2300,3268A,121.3162,31.2838,上海市,嘉定南翔,,30,26,23,13,9,93,,108,102,19,21,6,6,0.6,0.6
2025-05-04T2300,3269A,121.3359,30.7456,上海市,金山新城,,33,26,20,13,10,104,,122,115,12,11,2,2,0.5,0.4
2025-05-04T2300,3270A,121.4996,31.0739,上海市,闵行浦江,,29,28,25,9,10,90,,117,103,18,15,4,4,0.5,0.5
2025-05-04T2300,3271A,121.2886,31.1663,上海市,青浦徐泾,,30,28,22,13,10,96,,117,105,16,16,7,6,0.5,0.5
2025-05-04T2300,3272A,121.2186,31.0378,上海市,松江图书馆,,32,30,27,10,11,100,,118,105,17,19,7,7,0.4,0.4
2025-05-04T2300,3273A,121.3902,31.2059,上海市,长宁仙霞,,31,28,22,13,14,98,,116,107,20,18,8,8,0.6,0.5
2025-05-04T2300,3274A,121.7965,31.0507,上海市,浦东惠南,,33,22,22,14,10,104,,114,108,5,8,8,8,0.5,0.5
