timepoint,stationcode,longitude,latitude,area,positionname,primarypollutant,aqi,pm10,pm10_24h,pm2_5,pm2_5_24h,o3,o3_24h,o3_8h,o3_8h_24h,no2,no2_24h,so2,so2_24h,co,co_24h
2022-12-22T02:00:00,1001A,116.3621,39.8784,北京市,万寿西宫,,19,19,30,6,9,59,51,48,48,5,14,2,1,0.1,0.1
2022-12-22T02:00:00,1002A,116.2202,40.2915,北京市,定陵(对照点),,20,20,28,7,7,65,52,50,50,4,5,2,2,0.2,0.2
2022-12-22T02:00:00,1003A,116.4174,39.9289,北京市,东四,,21,21,27,5,10,56,48,48,48,8,12,3,3,0.3,0.2
2022-12-22T02:00:00,1004A,116.4072,39.8863,北京市,天坛,,21,21,31,7,8,59,50,48,48,5,12,1,1,0.1,0.2
2022-12-22T02:00:00,1005A,116.462,39.9365,北京市,农展馆,,26,26,28,4,8,57,43,42,42,8,13,1,3,0.2,0.2
2022-12-22T02:00:00,1006A,116.3392,39.9295,北京市,官园,,19,19,31,6,8,60,53,50,50,2,10,3,2,0.2,0.2
2022-12-22T02:00:00,1007A,116.2878,39.9611,北京市,海淀万柳,,20,20,34,7,8,59,49,48,48,2,11,3,3,0.2,0.2
2022-12-22T02:00:00,1008A,116.6636,40.135,北京市,顺义新城,,20,12,20,4,6,69,61,60,60,2,6,3,2,0.1,0.1
2022-12-22T02:00:00,1009A,116.6275,40.3275,北京市,怀柔镇,,17,12,18,4,7,67,54,52,52,2,8,3,3,0.0,0.1
2022-12-22T02:00:00,1010A,116.2296,40.217,北京市,昌平镇,,20,20,30,7,8,59,40,44,42,13,10,2,1,0.2,0.2
2022-12-22T02:00:00,1011A,116.3966,39.9821,北京市,奥体中心,,22,22,28,9,9,55,41,41,41,12,13,1,1,0.3,0.3
2022-12-22T02:00:00,1012A,116.184,39.9136,北京市,古城,,21,21,38,5,8,70,59,58,58,1,11,1,1,0.2,0.3
2022-12-22T02:00:00,1015A,117.1444,39.1661,天津市,勤俭道,,,,28,,8,49,,53,,,19,,3,,0.4
2022-12-22T02:00:00,1017A,117.237,39.1082,天津市,大直沽八号路,,25,25,29,8,8,64,45,47,46,16,22,4,4,0.4,0.3
2022-12-22T02:00:00,1018A,117.202,39.0927,天津市,前进道,,24,24,26,8,8,68,47,50,48,17,19,4,4,0.5,0.5
2022-12-22T02:00:00,1019A,117.1837,39.2133,天津市,淮河道,,23,23,28,9,10,64,42,48,45,20,25,4,4,0.4,0.4
2022-12-22T02:00:00,1021A,117.307,39.0877,天津市,跃进路,,44,44,51,7,8,65,47,47,47,16,26,6,6,0.4,0.4
2022-12-22T02:00:00,1023A,117.707,39.0343,天津市,第四大街,,24,24,30,8,8,55,29,26,26,29,32,5,5,0.3,0.3
2022-12-22T02:00:00,1024A,117.457,38.8394,天津市,永明路,,21,21,27,7,9,58,41,40,40,18,27,5,6,0.2,0.4
2022-12-22T02:00:00,1026A,117.764,39.1587,天津市,汉北路,,32,32,38,12,10,62,21,17,17,28,24,6,9,0.4,0.5
2022-12-22T02:00:00,1027A,117.157,38.9194,天津市,团泊洼(对照点),,30,30,26,9,8,62,31,34,32,24,23,4,8,0.5,0.5
2022-12-22T02:00:00,1029A,114.4422,38.0444,石家庄市,职工医院,,38,38,88,10,24,64,55,55,55,10,25,2,5,0.3,0.5
2022-12-22T02:00:00,1030A,114.6063,38.0266,石家庄市,高新区,,41,41,120,19,34,65,61,64,62,10,28,1,5,0.3,0.4
2022-12-22T02:00:00,1031A,114.4898,38.1328,石家庄市,西北水源,,41,41,98,18,29,62,54,58,56,6,24,4,7,0.1,0.3
2022-12-22T02:00:00,1032A,114.4586,38.0058,石家庄市,西南高教,,42,42,92,24,28,64,60,60,60,10,28,3,7,0.0,0.2
2022-12-22T02:00:00,1033A,114.5331,38.0178,石家庄市,世纪公园,,25,25,77,7,19,60,58,60,59,8,23,6,8,0.3,0.5
2022-12-22T02:00:00,1034A,114.509,38.0457,石家庄市,人民会堂,,45,45,89,0,20,68,63,66,64,7,22,4,6,0.3,0.5
2022-12-22T02:00:00,1035A,114.3524,37.8911,石家庄市,封龙山(对照点),颗粒物(PM10),64,77,84,28,33,76,58,56,56,13,21,11,14,0.9,1
2022-12-22T02:00:00,1037A,118.131,39.6363,唐山市,雷达站,,27,27,31,9,9,67,20,12,12,36,27,6,4,0.5,0.4
2022-12-22T02:00:00,1038A,118.1725,39.6334,唐山市,物资局,,30,26,21,21,16,63,17,35,26,46,23,9,6,0.6,0.4
2022-12-22T02:00:00,1040A,118.1705,39.6506,唐山市,十二中,,33,29,19,23,19,60,12,29,20,48,21,7,4,0.5,0.3
2022-12-22T02:00:00,1041A,118.1869,39.622,唐山市,小山,,26,26,20,18,13,64,23,34,28,42,25,9,7,0.4,0.3
2022-12-22T02:00:00,1042A,119.5134,39.8207,秦皇岛市,北戴河环保局,,17,4,25,9,12,63,52,56,54,1,7,5,5,0.4,0.5
2022-12-22T02:00:00,1043A,119.7493,40.0116,秦皇岛市,第一关,,20,20,39,12,13,66,32,32,32,28,17,6,5,0.3,0.3
2022-12-22T02:00:00,1044A,119.5897,39.9499,秦皇岛市,监测站,,20,20,39,11,16,74,61,63,62,2,9,8,7,0.2,0.3
2022-12-22T02:00:00,1046A,119.5251,39.9041,秦皇岛市,建设大厦,,21,21,36,5,11,65,53,57,55,9,14,6,5,0.3,0.3
2022-12-22T02:00:00,1048A,114.5302,36.6116,邯郸市,东污水处理厂,颗粒物(PM10),62,74,84,1,24,63,47,51,49,12,30,8,8,0.0,0.3
2022-12-22T02:00:00,1049A,114.4918,36.5713,邯郸市,矿院,颗粒物(PM10),68,86,93,7,30,64,49,53,51,11,29,2,5,0,0.4
2022-12-22T02:00:00,1050A,114.484,36.6133,邯郸市,丛台公园,颗粒物(PM10),63,76,82,8,29,62,48,46,46,10,22,6,10,0.2,0.5
2022-12-22T02:00:00,1051A,115.493,38.8632,保定市,游泳馆,,34,34,60,0,8,65,62,62,62,1,14,4,6,0,0.1
2022-12-22T02:00:00,1052A,115.5213,38.8959,保定市,华电二区,,44,44,64,17,18,64,60,60,60,2,10,5,4,0.0,0.1
2022-12-22T02:00:00,1053A,115.4713,38.9108,保定市,接待中心,,31,31,59,13,18,66,66,66,66,1,12,4,5,0.3,0.5
2022-12-22T02:00:00,1054A,115.4612,38.8416,保定市,地表水厂,,31,31,79,11,24,60,60,57,57,10,28,4,6,0.2,0.3
2022-12-22T02:00:00,1056A,115.5086,38.8639,保定市,监测站,,42,42,64,11,17,68,66,65,65,2,21,6,6,0.0,0.1
2022-12-22T02:00:00,1057A,114.8883,40.8336,张家口市,人民公园,,20,10,28,4,6,67,63,65,64,2,5,5,6,0.4,0.4
2022-12-22T02:00:00,1059A,114.8687,40.8042,张家口市,五金库,,22,5,26,15,12,64,61,60,60,2,4,8,11,0.2,0.2
2022-12-22T02:00:00,1060A,114.8902,40.762,张家口市,世纪豪园,,20,10,33,1,10,63,61,60,60,5,11,1,2,0.4,0.5
2022-12-22T02:00:00,1061A,114.8916,40.8661,张家口市,北泵房(对照点),,32,25,31,22,17,70,61,60,60,6,8,8,13,0.5,0.5
2022-12-22T02:00:00,1062A,117.9531,40.9081,承德市,铁路,,25,25,26,10,15,65,56,58,57,8,16,7,8,0.2,0.3
2022-12-22T02:00:00,1063A,117.9392,40.9763,承德市,中国银行,,22,13,21,15,12,65,55,42,42,8,18,5,6,0.3,0.3
2022-12-22T02:00:00,1064A,117.9503,40.928,承德市,开发区,,32,32,33,16,17,69,62,62,62,7,19,5,7,0.3,0.4
2022-12-22T02:00:00,1065A,117.8051,40.9655,承德市,文化中心,,33,33,35,17,17,64,39,34,34,14,20,6,8,0.4,0.5
2022-12-22T02:00:00,1066A,117.9268,41.0026,承德市,离宫(对照点),,25,25,17,8,14,61,54,59,56,2,6,9,9,0.2,0.2
2022-12-22T02:00:00,1067A,116.6708,39.5111,廊坊市,药材公司,,20,20,26,2,7,64,47,47,47,8,15,5,5,0.2,0.3
2022-12-22T02:00:00,1068A,116.7214,39.5589,廊坊市,开发区,,21,21,27,5,8,67,45,46,46,20,24,6,7,0.3,0.4
2022-12-22T02:00:00,1070A,116.7244,39.5269,廊坊市,北华航天学院,,22,22,29,3,4,60,46,46,46,14,21,7,7,0.2,0.3
2022-12-22T02:00:00,1071A,116.8842,38.2991,沧州市,沧县城建局,,43,43,44,18,22,57,40,40,40,15,25,8,8,0.4,0.5
2022-12-22T02:00:00,1072A,116.8584,38.3254,沧州市,电视转播站,颗粒物(PM10),53,56,59,7,13,64,44,44,44,15,29,9,9,0.6,0.6
2022-12-22T02:00:00,1073A,116.8709,38.3228,沧州市,市环保局,颗粒物(PM10),57,63,57,8,17,56,36,37,36,17,29,4,5,0.3,0.4
2022-12-22T02:00:00,1074A,115.6838,37.7541,衡水市,电机北厂,颗粒物(PM10),61,71,99,7,26,55,42,44,43,12,34,3,3,0.3,0.5
2022-12-22T02:00:00,1075A,115.6303,37.7316,衡水市,市监测站,颗粒物(PM10),52,54,99,8,28,61,50,50,50,8,28,8,10,0.8,1
2022-12-22T02:00:00,1077A,114.4704,37.0886,邢台市,达活泉,颗粒物(PM10),63,75,79,16,33,71,50,53,52,4,24,5,11,0.2,0.5
2022-12-22T02:00:00,1078A,114.5062,37.0349,邢台市,邢师高专,颗粒物(PM10),60,69,89,8,23,69,53,55,54,2,24,2,5,0,0.3
2022-12-22T02:00:00,1079A,114.5237,37.0851,邢台市,路桥公司,,,64,83,8,21,70,52,52,52,,19,4,9,0.3,0.5
2022-12-22T02:00:00,1080A,114.4725,37.0719,邢台市,市环保局,颗粒物(PM10),64,77,90,7,28,70,52,54,53,1,21,4,8,0.2,0.4
2022-12-22T02:00:00,1081A,112.5139,37.8873,太原市,尖草坪,,22,22,75,5,16,81,68,68,68,3,19,7,8,0.2,0.3
2022-12-22T02:00:00,1083A,112.434,38.0108,太原市,上兰(对照点),,,,,,,,,,,,,,,,
2022-12-22T02:00:00,1084A,112.469,37.7124,太原市,晋源,颗粒物(PM10),53,55,83,9,19,81,66,68,67,7,28,3,12,0.3,0.5
2022-12-22T02:00:00,1085A,112.5583,37.7394,太原市,小店,,42,42,94,6,19,78,62,62,62,8,21,4,11,0.2,0.3
2022-12-22T02:00:00,1086A,112.5369,37.8692,太原市,桃园,,41,41,86,3,17,77,64,64,64,4,16,2,10,0.2,0.4
2022-12-22T02:00:00,1087A,112.57,37.8195,太原市,坞城,,40,40,85,7,21,82,68,68,68,5,16,6,15,0.2,0.4
2022-12-22T02:00:00,1088A,112.549,37.9854,太原市,南寨,颗粒物(PM10),55,60,91,8,15,82,47,46,46,20,19,3,4,0.3,0.3
2022-12-22T02:00:00,1090A,111.6507,40.7517,呼和浩特市,呼市一监,,22,22,110,13,22,60,37,44,40,19,39,8,8,0.3,0.3
2022-12-22T02:00:00,1091A,111.6572,40.8033,呼和浩特市,小召,,17,17,152,7,12,68,45,57,51,20,19,18,19,0.4,0.5
2022-12-22T02:00:00,1094A,111.7516,40.8369,呼和浩特市,如意水处理厂,,20,8,38,2,10,71,63,62,62,12,27,7,9,0.5,0.6
2022-12-22T02:00:00,1095A,111.7276,40.8062,呼和浩特市,二十九中,,18,14,117,2,11,65,56,56,56,9,15,8,8,0.3,0.4
2022-12-22T02:00:00,1096A,111.5512,40.7866,呼和浩特市,工大金川校区,,27,27,106,12,14,64,39,42,40,15,13,9,10,0.4,0.4
2022-12-22T02:00:00,1097A,111.717,40.7612,呼和浩特市,化肥厂生活区,,40,40,91,11,18,74,52,51,51,18,17,9,10,0.5,0.5
2022-12-22T02:00:00,1098A,123.6836,41.9339,沈阳市,森林路(对照点),,,,,,,,,,,,,,,,
2022-12-22T02:00:00,1099A,123.505,41.7406,沈阳市,浑南东路,,38,34,46,26,31,57,30,30,30,31,21,7,9,0.6,0.7
2022-12-22T02:00:00,1100A,123.4231,41.6989,沈阳市,新秀街,,49,47,51,34,30,59,21,14,14,42,25,16,13,0.6,0.6
2022-12-22T02:00:00,1102A,123.5903,41.8411,沈阳市,东陵路,,39,28,39,27,36,56,13,15,14,38,24,9,12,0.6,0.6
2022-12-22T02:00:00,1103A,123.4264,41.8467,沈阳市,陵东街,,49,46,44,34,30,59,32,36,34,30,26,7,10,0.5,0.5
2022-12-22T02:00:00,1104A,123.4114,41.7653,沈阳市,文化路,细颗粒物(PM2.5),55,53,52,39,35,55,26,33,30,32,21,25,23,1.0,1.1
2022-12-22T02:00:00,1105A,123.4678,41.7867,沈阳市,小河沿,,36,32,39,25,26,56,40,44,42,23,23,11,19,0.5,0.6
2022-12-22T02:00:00,1106A,123.4017,41.7972,沈阳市,太原街,细颗粒物(PM2.5),54,56,59,38,37,55,18,26,22,39,27,21,16,0.7,0.7
2022-12-22T02:00:00,1108A,123.3783,41.9228,沈阳市,京沈街,细颗粒物(PM2.5),58,58,48,41,41,60,34,32,32,25,20,11,14,0.9,0.9
2022-12-22T02:00:00,1109A,121.612,38.9741,大连市,甘井子,,19,16,41,11,24,69,58,61,60,6,18,6,11,0.2,0.3
2022-12-22T02:00:00,1110A,121.565,38.9511,大连市,周水子,,19,13,47,8,20,67,58,62,60,8,20,8,12,0.4,0.6
2022-12-22T02:00:00,1111A,121.5637,38.8845,大连市,星海三站,,16,16,47,8,19,60,48,52,50,17,25,8,14,0.4,0.5
2022-12-22T02:00:00,1112A,121.6302,38.9117,大连市,青泥洼桥,,18,16,70,9,18,67,57,60,58,7,25,7,12,0.6,0.7
2022-12-22T02:00:00,1113A,121.6251,38.8638,大连市,傅家庄,,32,32,63,8,18,62,52,56,54,12,23,8,11,0.5,1.1
2022-12-22T02:00:00,1114A,121.5213,38.8661,大连市,七贤岭,,23,23,52,6,19,74,61,64,62,6,16,11,11,0.5,0.6
2022-12-22T02:00:00,1115A,121.2529,38.8061,大连市,旅顺,,21,21,51,6,18,66,59,60,60,4,12,8,10,0.4,0.6
2022-12-22T02:00:00,1116A,121.7485,39.1311,大连市,金州,,,25,55,14,25,62,48,53,50,9,16,9,12,,
2022-12-22T02:00:00,1117A,121.7811,39.0496,大连市,开发区,,34,34,65,13,22,62,52,54,53,12,22,8,12,0.3,0.4
2022-12-22T02:00:00,1118A,121.9762,39.0631,大连市,双D港,,,,,,,,,,,,,,,,
2022-12-22T02:00:00,1119A,125.3325,43.9166,长春市,食品厂,细颗粒物(PM2.5),59,38,74,42,93,50,45,44,44,16,28,6,10,0.5,0.7
2022-12-22T02:00:00,1120A,125.2863,43.9027,长春市,客车厂,细颗粒物(PM2.5),55,36,88,39,55,45,30,37,34,28,32,10,15,0.5,0.6
2022-12-22T02:00:00,1121A,125.2841,43.8463,长春市,邮电学院,细颗粒物(PM2.5),68,51,64,49,55,54,34,40,37,30,28,19,15,0.7,0.6
2022-12-22T02:00:00,1122A,125.3716,43.8772,长春市,劳动公园,,46,38,52,32,45,48,27,36,32,40,33,28,18,0.5,0.7
2022-12-22T02:00:00,1123A,125.3297,43.8805,长春市,园林处,,50,42,52,35,50,55,35,41,38,28,29,12,11,0.5,0.6
2022-12-22T02:00:00,1124A,125.4605,43.79,长春市,净月潭,,40,40,44,26,30,51,26,29,28,34,19,20,10,0.5,0.6
2022-12-22T02:00:00,1125A,125.7194,43.515,长春市,甩湾子(对照点),,,,,,,,,,,,,,,,
2022-12-22T02:00:00,1126A,125.3863,43.8447,长春市,经开区环卫处,,46,43,56,32,45,45,37,36,36,28,31,21,19,0.5,0.7
2022-12-22T02:00:00,1127A,125.245,43.7783,长春市,高新区管委会,细颗粒物(PM2.5),57,44,61,40,53,52,38,41,40,24,24,8,8,0.7,0.7
2022-12-22T02:00:00,1128A,125.1761,43.8325,长春市,岱山公园,,49,44,92,34,52,54,39,38,38,22,27,5,6,0.7,0.8
2022-12-22T02:00:00,1129A,126.5422,45.755,哈尔滨市,岭北(对照点),,33,23,50,23,35,129,57,56,56,11,19,21,28,0.5,0.5
2022-12-22T02:00:00,1130A,126.561,45.8167,哈尔滨市,松北商大,,31,31,59,18,36,59,56,56,56,7,17,3,8,0.5,0.7
2022-12-22T02:00:00,1131A,126.979,45.5419,哈尔滨市,阿城会宁,,41,41,64,24,42,47,36,38,37,24,27,23,25,0.4,0.6
2022-12-22T02:00:00,1132A,126.599,45.7222,哈尔滨市,南岗学府路,,39,39,69,19,39,49,33,32,32,30,30,36,26,0.7,0.7
2022-12-22T02:00:00,1133A,126.689,45.7733,哈尔滨市,太平宏伟公园,,38,38,64,18,34,52,45,44,44,17,26,40,18,0.4,0.5
2022-12-22T02:00:00,1134A,126.635,45.7667,哈尔滨市,道外承德广场,,31,31,56,15,33,54,54,54,54,11,23,15,14,0.4,0.5
2022-12-22T02:00:00,1135A,126.685,45.7319,哈尔滨市,香坊红旗大街,颗粒物(PM10),55,60,79,16,53,52,50,50,50,11,28,35,35,0.6,0.7
2022-12-22T02:00:00,1136A,126.6411,45.7258,哈尔滨市,动力和平路,,31,31,55,18,37,50,45,47,46,16,27,17,20,0.5,0.7
2022-12-22T02:00:00,1137A,126.593,45.7478,哈尔滨市,道里建国路,,33,25,65,23,43,44,44,44,44,14,27,22,25,0.8,0.5
2022-12-22T02:00:00,1138A,126.615,45.61,哈尔滨市,平房东轻厂,颗粒物(PM10),53,56,70,25,44,46,45,46,46,19,35,14,20,0.6,0.8
2022-12-22T02:00:00,1139A,126.595,45.9855,哈尔滨市,呼兰师专,,26,17,75,18,54,59,59,58,58,3,19,6,11,0.4,0.6
2022-12-22T02:00:00,1140A,126.6206,45.6842,哈尔滨市,省农科院,,27,27,58,17,36,50,49,49,49,18,32,17,25,0,0.2
2022-12-22T02:00:00,1141A,121.4,31.238,上海市,普陀,细颗粒物(PM2.5),114,129,107,86,50,83,6,6,6,93,58,7,8,1.7,1.1
2022-12-22T02:00:00,1142A,121.478,31.2036,上海市,十五厂,细颗粒物(PM2.5),95,118,96,71,49,80,2,2,2,109,55,13,13,1.4,0.9
2022-12-22T02:00:00,1143A,121.467,31.3008,上海市,虹口,细颗粒物(PM2.5),127,122,110,96,64,70,4,4,4,90,61,11,12,1.3,1
2022-12-22T02:00:00,1144A,121.412,31.1654,上海市,徐汇上师大,颗粒物(PM10),87,124,95,59,44,64,5,5,5,109,61,9,9,1.5,0.9
2022-12-22T02:00:00,1145A,121.536,31.2659,上海市,杨浦四漂,细颗粒物(PM2.5),113,151,115,85,52,75,6,6,6,117,59,13,10,1.2,1
2022-12-22T02:00:00,1147A,121.425,31.2261,上海市,静安监测站,细颗粒物(PM2.5),99,141,107,74,48,80,4,5,4,107,60,11,10,1.3,0.9
2022-12-22T02:00:00,1148A,121.703,31.1907,上海市,浦东川沙,细颗粒物(PM2.5),112,116,102,84,55,64,5,4,4,83,57,9,8,1.0,0.7
2022-12-22T02:00:00,1149A,121.533,31.2284,上海市,浦东新区监测站,细颗粒物(PM2.5),103,141,105,77,51,64,0,1,0,101,54,10,9,1.1,0.9
2022-12-22T02:00:00,1150A,121.577,31.2071,上海市,浦东张江,细颗粒物(PM2.5),94,123,101,70,48,63,2,2,2,88,49,8,7,1.1,0.9
2022-12-22T02:00:00,1151A,118.8086,32.1065,南京市,迈皋桥,颗粒物(PM10),87,124,138,48,52,90,7,5,5,72,51,4,4,0.8,0.8
2022-12-22T02:00:00,1152A,118.7538,32.0551,南京市,草场门,颗粒物(PM10),87,124,124,58,52,81,47,35,35,46,53,6,6,0.5,0.5
2022-12-22T02:00:00,1153A,118.7794,32.0745,南京市,山西路,颗粒物(PM10),93,136,137,66,55,89,43,39,39,55,44,4,5,0.5,0.6
2022-12-22T02:00:00,1154A,118.7752,32.0023,南京市,中华门,颗粒物(PM10),87,124,125,61,53,85,35,22,22,39,53,11,9,0.6,0.6
2022-12-22T02:00:00,1155A,118.8109,32.0309,南京市,瑞金路,颗粒物(PM10),94,138,140,66,60,84,27,18,18,64,59,12,11,0.6,0.9
2022-12-22T02:00:00,1156A,118.7997,32.0754,南京市,玄武湖,细颗粒物(PM2.5),97,130,130,72,56,81,30,24,24,61,43,6,6,0.4,0.4
2022-12-22T02:00:00,1157A,118.6414,32.0931,南京市,浦口,颗粒物(PM10),91,132,134,56,54,92,80,86,83,22,25,6,5,0.7,0.7
2022-12-22T02:00:00,1158A,118.7356,31.9996,南京市,奥体中心,细颗粒物(PM2.5),113,139,135,85,60,83,45,28,28,48,59,8,7,0.5,0.6
2022-12-22T02:00:00,1159A,118.9125,32.1028,南京市,仙林大学城,颗粒物(PM10),89,127,137,63,54,86,6,4,4,82,45,8,7,0.7,0.7
2022-12-22T02:00:00,1160A,120.561,31.2472,苏州市,上方山(对照点),颗粒物(PM10),84,118,109,44,50,75,29,26,26,35,34,11,12,0.6,0.7
2022-12-22T02:00:00,1162A,120.591,31.3019,苏州市,彩香,颗粒物(PM10),84,117,108,42,50,76,1,1,1,67,46,5,8,1.0,0.9
2022-12-22T02:00:00,1163A,120.596,31.3264,苏州市,轧钢厂,颗粒物(PM10),84,117,117,46,48,79,5,6,6,43,41,6,9,1.2,0.9
2022-12-22T02:00:00,1164A,120.613,31.2703,苏州市,吴中区,颗粒物(PM10),81,112,102,43,45,84,3,5,4,70,48,7,10,0.9,0.9
2022-12-22T02:00:00,1165A,120.543,31.2994,苏州市,苏州新区,颗粒物(PM10),87,123,103,46,49,85,10,6,6,62,42,8,11,0.7,0.7
2022-12-22T02:00:00,1166A,120.669,31.3097,苏州市,苏州工业园区,颗粒物(PM10),89,128,108,45,47,83,4,4,4,75,52,8,10,1.2,0.9
2022-12-22T02:00:00,1167A,120.641,31.3708,苏州市,相城区,颗粒物(PM10),94,137,112,43,48,82,2,2,2,73,51,10,12,1.0,0.8
2022-12-22T02:00:00,1168A,120.9098,31.9663,南通市,狼山街道,细颗粒物(PM2.5),130,147,134,99,89,76,3,3,3,66,52,6,11,0.8,0.9
2022-12-22T02:00:00,1169A,120.86,32.0005,南通市,虹桥,细颗粒物(PM2.5),112,153,151,84,90,79,22,30,26,67,61,9,11,0.7,0.8
2022-12-22T02:00:00,1170A,120.87,32.02,南通市,城中,细颗粒物(PM2.5),117,148,150,88,93,77,18,31,24,68,59,9,11,0.8,0.8
2022-12-22T02:00:00,1171A,120.94,31.93,南通市,星湖花园,细颗粒物(PM2.5),125,139,130,95,82,73,0,0,0,76,68,8,11,0.9,0.9
2022-12-22T02:00:00,1172A,120.81,32.0417,南通市,紫琅学院,细颗粒物(PM2.5),107,157,165,80,83,82,1,1,1,81,59,11,13,0.7,0.7
2022-12-22T02:00:00,1173A,119.176,34.5885,连云港市,市环境监测站,颗粒物(PM10),71,92,174,24,133,54,42,26,26,26,63,11,22,0.7,1.3
2022-12-22T02:00:00,1177A,117.179,34.2761,徐州市,黄河新村,颗粒物(PM10),137,224,198,47,93,70,40,38,38,26,55,17,18,0.8,1.3
2022-12-22T02:00:00,1178A,117.1918,34.2384,徐州市,淮塔,颗粒物(PM10),118,186,184,51,88,80,41,39,39,29,49,12,14,0.8,0.8
2022-12-22T02:00:00,1180A,117.256,34.2153,徐州市,新城区,颗粒物(PM10),112,173,179,53,84,75,45,38,38,19,44,15,16,1.1,1.3
2022-12-22T02:00:00,1181A,117.244,34.2911,徐州市,桃园路,颗粒物(PM10),108,166,200,31,93,70,45,40,40,19,54,11,14,1.0,1.4
2022-12-22T02:00:00,1182A,117.2933,34.2778,徐州市,农科院,颗粒物(PM10),129,207,192,39,90,80,42,36,36,18,45,13,17,0.9,1.2
2022-12-22T02:00:00,1186A,119.389,32.3761,扬州市,邗江监测站,颗粒物(PM10),107,163,147,73,70,78,8,8,8,86,54,6,5,1.0,0.9
2022-12-22T02:00:00,1188A,120.269,31.4867,无锡市,雪浪,颗粒物(PM10),80,110,120,39,45,78,24,24,24,28,30,8,12,0.8,0.9
2022-12-22T02:00:00,1189A,120.275,31.6219,无锡市,黄巷,颗粒物(PM10),97,143,147,46,52,70,6,6,6,78,60,14,13,1.1,1.3
2022-12-22T02:00:00,1190A,120.294,31.56,无锡市,曹张,,,137,133,48,46,76,2,2,2,77,53,18,20,1.8,1.5
2022-12-22T02:00:00,1191A,120.242,31.5031,无锡市,漆塘,颗粒物(PM10),69,88,108,39,43,84,37,34,34,27,41,7,11,0.7,0.9
2022-12-22T02:00:00,1192A,120.3489,31.5863,无锡市,东亭,颗粒物(PM10),84,117,126,44,50,76,1,1,1,77,55,12,14,1.2,1.2
2022-12-22T02:00:00,1193A,120.354,31.5475,无锡市,旺庄,颗粒物(PM10),90,129,125,53,53,72,0,1,0,68,48,8,12,0.9,0.8
2022-12-22T02:00:00,1194A,120.245,31.5631,无锡市,荣巷,颗粒物(PM10),74,97,109,46,51,77,29,32,30,28,39,12,16,0.6,0.8
2022-12-22T02:00:00,1195A,120.299,31.6817,无锡市,堰桥,颗粒物(PM10),87,124,141,48,59,70,5,6,6,75,56,12,14,1.2,1.2
2022-12-22T02:00:00,1196A,119.9633,31.762,常州市,市监测站,颗粒物(PM10),90,129,115,65,62,80,4,4,4,72,54,9,9,1.2,0.9
2022-12-22T02:00:00,1200A,119.9468,31.7069,常州市,武进监测站,颗粒物(PM10),95,140,102,67,51,81,5,7,6,78,52,23,18,0.9,0.7
2022-12-22T02:00:00,1201A,119.9255,31.9087,常州市,安家,颗粒物(PM10),111,171,126,79,68,85,6,6,6,74,56,12,12,1.1,1
2022-12-22T02:00:00,1203A,119.6707,32.1875,镇江市,新区办事处,颗粒物(PM10),116,182,161,87,83,67,8,8,8,68,61,8,10,1.0,1
2022-12-22T02:00:00,1204A,119.4974,32.1968,镇江市,职教中心,,,,148,,70,41,,32,,,48,,14,,0.8
2022-12-22T02:00:00,1205A,119.4303,32.1328,镇江市,丹徒区监测站,颗粒物(PM10),88,125,128,46,61,84,10,9,9,84,56,5,6,0.6,0.8
2022-12-22T02:00:00,1206A,119.905,32.4878,泰州市,公园路,细颗粒物(PM2.5),138,153,147,105,95,83,22,17,17,42,53,6,10,1.0,1
2022-12-22T02:00:00,1207A,119.9189,32.4625,泰州市,莲花,细颗粒物(PM2.5),134,166,164,102,104,85,45,36,36,41,54,19,12,0.9,1
2022-12-22T02:00:00,1209A,119.888,32.4639,泰州市,留学生创业园,细颗粒物(PM2.5),138,184,164,105,94,81,25,18,18,46,54,15,14,1.1,1
2022-12-22T02:00:00,1210A,119.036,33.5981,淮安市,钵池山,细颗粒物(PM2.5),201,241,193,151,136,69,19,14,14,52,52,13,15,0.9,1
2022-12-22T02:00:00,1211A,119.007,33.575,淮安市,北京南路,细颗粒物(PM2.5),138,185,209,105,133,69,35,28,28,40,57,14,14,0.8,1.2
2022-12-22T02:00:00,1212A,118.989,33.6067,淮安市,市监测站,细颗粒物(PM2.5),128,173,206,97,134,76,42,31,31,41,56,11,12,0.8,1.1
2022-12-22T02:00:00,1213A,119.135,33.5039,淮安市,楚州区监测站,细颗粒物(PM2.5),170,220,223,129,153,68,17,8,8,58,64,12,13,0.8,1
2022-12-22T02:00:00,1214A,119.0186,33.6297,淮安市,淮阴区监测站,细颗粒物(PM2.5),203,182,207,153,131,65,26,16,16,45,59,12,14,0.7,1.1
2022-12-22T02:00:00,1215A,120.118,33.4022,盐城市,盐城电厂,"颗粒物(PM10),细颗粒物(PM2.5)",104,158,179,78,91,80,10,21,16,59,56,9,12,1.0,1
2022-12-22T02:00:00,1216A,120.156,33.3942,盐城市,市监测站,细颗粒物(PM2.5),122,159,177,92,95,76,16,11,11,55,53,11,14,1.0,1
2022-12-22T02:00:00,1218A,120.2144,33.38,盐城市,开发区管委会,细颗粒物(PM2.5),149,169,176,114,117,80,8,6,6,69,55,8,13,1.0,0.9
2022-12-22T02:00:00,1220A,118.293,33.9528,宿迁市,宿迁学院,细颗粒物(PM2.5),99,126,174,74,111,78,37,40,38,42,52,14,14,0.6,0.8
2022-12-22T02:00:00,1221A,118.2442,33.9592,宿迁市,宿迁中学,细颗粒物(PM2.5),103,121,180,77,114,77,37,34,34,34,48,10,12,0.6,0.9
2022-12-22T02:00:00,1223A,120.2072,30.2111,杭州市,滨江,细颗粒物(PM2.5),55,58,50,39,28,93,62,48,48,26,34,6,6,0.6,0.5
2022-12-22T02:00:00,1224A,120.0633,30.2747,杭州市,西溪,,46,46,53,26,21,93,4,4,4,28,30,6,6,0.4,0.3
2022-12-22T02:00:00,1226A,120.3461,30.3153,杭州市,下沙,颗粒物(PM10),73,95,87,32,30,86,27,16,16,52,45,6,7,0.7,0.6
2022-12-22T02:00:00,1227A,120.1269,30.2456,杭州市,卧龙桥,颗粒物(PM10),54,57,49,26,22,93,6,7,6,28,20,6,7,0.5,0.5
2022-12-22T02:00:00,1228A,120.1903,30.2692,杭州市,浙江农大,颗粒物(PM10),62,73,62,31,25,98,39,26,26,34,35,6,7,0.5,0.7
2022-12-22T02:00:00,1230A,120.1197,30.3119,杭州市,和睦小学,颗粒物(PM10),75,100,81,44,35,89,2,2,2,61,43,6,5,0.9,0.7
2022-12-22T02:00:00,1231A,120.3019,30.4183,杭州市,临平镇,颗粒物(PM10),79,107,90,35,32,87,4,4,4,77,41,8,9,0.8,0.7
2022-12-22T02:00:00,1232A,120.2697,30.1819,杭州市,城厢镇,颗粒物(PM10),70,90,72,34,30,89,10,7,7,64,41,4,5,0.9,0.9
2022-12-22T02:00:00,1233A,120.0883,30.1808,杭州市,云栖,颗粒物(PM10),60,70,53,22,19,85,47,38,38,22,20,6,6,0.6,0.5
2022-12-22T02:00:00,1234A,121.8358,29.911,宁波市,区环保大楼,颗粒物(PM10),70,89,67,38,33,79,20,19,19,46,33,9,10,0.7,0.7
2022-12-22T02:00:00,1235A,121.56,29.82,宁波市,万里学院,颗粒物(PM10),88,125,85,41,32,89,5,5,5,67,39,10,9,0.6,0.6
2022-12-22T02:00:00,1236A,121.713,29.9572,宁波市,龙赛医院,颗粒物(PM10),98,145,89,46,30,80,4,4,4,68,35,12,10,0.7,0.5
2022-12-22T02:00:00,1239A,121.633,29.7733,宁波市,钱湖水厂,颗粒物(PM10),77,104,79,43,33,89,31,29,29,29,30,6,6,0.7,0.6
2022-12-22T02:00:00,1240A,121.5856,29.8635,宁波市,太古小学,颗粒物(PM10),98,145,71,34,28,92,3,3,3,67,36,6,12,0.5,0.5
2022-12-22T02:00:00,1241A,121.524,29.8674,宁波市,市环境监测中心,颗粒物(PM10),75,99,78,30,30,83,6,6,6,52,34,5,6,0.5,0.5
2022-12-22T02:00:00,1242A,120.634,28.0089,温州市,瓯海,颗粒物(PM10),64,78,52,34,26,83,3,3,3,54,36,9,8,0.2,0.2
2022-12-22T02:00:00,1243A,120.6748,27.9939,温州市,南浦,颗粒物(PM10),57,63,40,37,22,90,4,5,4,63,37,6,5,0.3,0.3
2022-12-22T02:00:00,1244A,120.76,27.9747,温州市,龙湾,颗粒物(PM10),71,91,93,26,23,85,3,3,3,61,49,8,8,0.4,0.5
2022-12-22T02:00:00,1245A,120.6709,28.0167,温州市,市站,颗粒物(PM10),54,58,42,32,21,94,4,4,4,62,34,8,8,0.5,0.4
2022-12-22T02:00:00,1247A,120.6053,29.9928,绍兴市,城东开发委,颗粒物(PM10),71,91,73,34,30,83,11,7,7,49,38,4,5,0.6,0.5
2022-12-22T02:00:00,1250A,120.0751,30.8669,湖州市,城西水厂,颗粒物(PM10),81,112,98,59,46,81,5,4,4,65,58,9,11,0.7,0.6
2022-12-22T02:00:00,1252A,120.7436,30.778,嘉兴市,清河小学,颗粒物(PM10),98,145,100,44,36,83,5,5,5,74,44,6,7,0.8,0.7
2022-12-22T02:00:00,1253A,120.726,30.7478,嘉兴市,嘉兴学院,颗粒物(PM10),92,134,87,51,38,84,4,4,4,79,45,8,10,0.6,0.5
2022-12-22T02:00:00,1255A,121.273,28.6459,台州市,黄岩环保大楼,,46,46,41,17,18,92,40,34,34,13,24,7,8,0.3,0.4
2022-12-22T02:00:00,1256A,121.419,28.6542,台州市,台州环保大楼,颗粒物(PM10),62,73,49,20,18,96,9,8,8,49,30,8,8,0.7,0.6
2022-12-22T02:00:00,1257A,121.377,28.5773,台州市,路桥田洋王,颗粒物(PM10),55,60,47,25,22,98,4,4,4,50,30,8,9,0.5,0.5
2022-12-22T02:00:00,1258A,122.122,30.0203,舟山市,定海檀枫,颗粒物(PM10),69,88,76,28,31,82,44,44,44,15,21,4,4,0.2,0.2
2022-12-22T02:00:00,1259A,122.3094,29.9558,舟山市,普陀东港,颗粒物(PM10),82,114,79,31,29,83,67,66,66,15,15,6,6,0.4,0.4
2022-12-22T02:00:00,1260A,122.19,29.9944,舟山市,临城新区,颗粒物(PM10),74,98,79,28,26,90,39,38,38,19,17,5,6,0.5,0.5
2022-12-22T02:00:00,1262A,119.647,29.077,金华市,十五中,细颗粒物(PM2.5),64,72,59,46,30,89,6,19,12,54,30,5,10,0.5,0.4
2022-12-22T02:00:00,1263A,119.686,29.1029,金华市,监测站,颗粒物(PM10),67,84,56,43,30,84,12,33,22,46,26,8,8,0.5,0.5
2022-12-22T02:00:00,1264A,118.8692,28.9398,衢州市,环保大楼,细颗粒物(PM2.5),92,100,61,68,31,90,26,34,30,43,27,24,11,0.5,0.3
2022-12-22T02:00:00,1265A,118.8709,28.9666,衢州市,实验学校,颗粒物(PM10),71,91,60,44,25,88,30,45,38,41,24,12,7,0.5,0.4
2022-12-22T02:00:00,1266A,118.8621,28.9808,衢州市,衢州学院,颗粒物(PM10),67,84,56,42,25,91,18,42,30,52,24,14,8,0.6,0.4
2022-12-22T02:00:00,1267A,119.914,28.4514,丽水市,监测站大楼,,42,42,42,11,23,84,1,1,1,45,32,10,8,0.5,0.6
2022-12-22T02:00:00,1268A,119.93,28.4586,丽水市,莲都小学,,38,38,38,13,19,95,33,32,32,18,28,7,8,0.3,0.4
2022-12-22T02:00:00,1269A,119.879,28.4231,丽水市,余庄前,,34,34,34,12,21,93,9,14,12,20,19,7,7,0.4,0.4
2022-12-22T02:00:00,1270A,117.1959,31.7848,合肥市,明珠广场,细颗粒物(PM2.5),92,122,119,68,53,84,64,56,56,24,38,10,10,0.5,0.5
2022-12-22T02:00:00,1271A,117.3072,31.8764,合肥市,三里街,细颗粒物(PM2.5),94,117,121,70,49,79,55,50,50,31,56,13,12,0.9,1
2022-12-22T02:00:00,1272A,117.2588,31.8707,合肥市,琥珀山庄,颗粒物(PM10),82,114,116,58,49,72,48,35,35,31,51,9,10,0.7,0.8
2022-12-22T02:00:00,1273A,117.1604,31.9052,合肥市,董铺水库(对照点),颗粒物(PM10),87,124,123,58,47,88,65,52,52,20,34,2,2,0.6,0.6
2022-12-22T02:00:00,1274A,117.25,31.8571,合肥市,长江中路,细颗粒物(PM2.5),92,117,117,68,52,79,52,47,47,28,39,9,9,0.9,0.9
2022-12-22T02:00:00,1275A,117.266,31.9436,合肥市,庐阳区,颗粒物(PM10),93,136,124,68,51,85,60,50,50,20,44,9,9,0.6,0.5
2022-12-22T02:00:00,1276A,117.336,31.8586,合肥市,瑶海区,细颗粒物(PM2.5),98,129,136,73,54,80,55,51,51,31,54,8,8,0.8,0.8
2022-12-22T02:00:00,1277A,117.3027,31.7964,合肥市,包河区,细颗粒物(PM2.5),117,124,128,88,53,81,62,58,58,28,52,7,7,0.8,0.7
2022-12-22T02:00:00,1278A,117.2776,31.7385,合肥市,滨湖新区,"颗粒物(PM10),细颗粒物(PM2.5)",92,134,131,68,66,81,59,38,38,41,55,6,6,0.4,0.5
2022-12-22T02:00:00,1279A,117.1318,31.8403,合肥市,高新区,细颗粒物(PM2.5),98,117,115,73,50,90,61,58,58,22,28,7,8,0.7,0.6
2022-12-22T02:00:00,1280A,119.3903,26.0543,福州市,鼓山(对照点),,,,,,,,,,,,,,,,
2022-12-22T02:00:00,1282A,119.2681,26.0504,福州市,师大,,28,28,27,16,13,94,64,62,62,14,14,5,6,0.3,0.3
2022-12-22T02:00:00,1283A,119.2984,26.1028,福州市,五四北路,,23,22,30,16,18,92,61,48,48,13,26,3,4,0.3,0.4
2022-12-22T02:00:00,1284A,119.2648,26.0768,福州市,杨桥西路,,28,28,29,14,16,96,66,60,60,14,14,4,5,0.5,0.5
2022-12-22T02:00:00,1285A,119.317,26.0746,福州市,紫阳,,28,28,33,14,15,94,67,58,58,12,21,6,5,0.5,0.5
2022-12-22T02:00:00,1286A,118.1608,24.8169,厦门市,溪东(对照点),,,,,,,,,,,,,,,,
2022-12-22T02:00:00,1287A,118.1514,24.4767,厦门市,洪文,,38,38,47,20,27,96,42,46,44,36,41,3,4,0.6,0.6
2022-12-22T02:00:00,1288A,118.0661,24.4444,厦门市,鼓浪屿,,30,30,49,15,28,104,67,54,54,28,45,6,9,0.4,0.4
2022-12-22T02:00:00,1290A,115.8931,28.6843,南昌市,省外办,"颗粒物(PM10),细颗粒物(PM2.5)",70,89,83,51,48,92,10,20,15,72,48,12,14,0.7,0.8
2022-12-22T02:00:00,1291A,115.8886,28.7003,南昌市,省林业公司,颗粒物(PM10),78,105,84,53,47,88,5,25,15,91,57,14,16,0.7,0.7
2022-12-22T02:00:00,1292A,115.8126,28.7442,南昌市,林科所,细颗粒物(PM2.5),67,78,68,48,38,92,5,15,10,80,53,15,13,0.5,0.5
2022-12-22T02:00:00,1294A,115.8518,28.687,南昌市,建工学校,颗粒物(PM10),76,101,88,49,42,87,3,4,4,83,55,15,16,0.8,0.9
2022-12-22T02:00:00,1295A,115.8921,28.6424,南昌市,象湖,细颗粒物(PM2.5),73,94,83,53,50,87,1,1,1,74,55,8,15,0.5,0.6
2022-12-22T02:00:00,1296A,115.7423,28.7996,南昌市,武术学校(对照点),颗粒物(PM10),51,51,36,32,25,90,30,34,32,10,12,2,3,0.6,0.5
2022-12-22T02:00:00,1298A,115.9314,28.6842,南昌市,省站,颗粒物(PM10),73,96,105,51,55,88,17,24,20,49,44,16,16,0.5,0.7
2022-12-22T02:00:00,1299A,116.9862,36.6114,济南市,科干所,,36,36,80,24,34,68,29,27,27,40,41,13,14,0.3,0.4
2022-12-22T02:00:00,1300A,116.9376,36.665,济南市,农科所,颗粒物(PM10),52,54,91,24,35,55,19,17,17,43,51,17,17,0.5,0.7
2022-12-22T02:00:00,1301A,117.1265,36.6734,济南市,开发区,,44,44,82,20,36,57,34,29,29,32,46,15,17,0.5,0.7
2022-12-22T02:00:00,1303A,117.0624,36.6868,济南市,省种子仓库,,46,46,85,27,37,60,27,24,24,37,48,13,16,0.6,0.7
2022-12-22T02:00:00,1304A,116.9489,36.6447,济南市,机床二厂,颗粒物(PM10),53,56,100,24,38,66,27,20,20,43,47,14,16,0.6,0.7
2022-12-22T02:00:00,1305A,117.0495,36.663,济南市,市监测站,,46,46,86,14,32,60,33,30,30,28,40,13,15,0.4,0.5
2022-12-22T02:00:00,1306A,116.7675,36.5484,济南市,长清党校,颗粒物(PM10),68,85,112,27,47,67,25,24,24,40,49,18,15,0.7,0.9
2022-12-22T02:00:00,1307A,120.6659,36.2403,青岛市,仰口(对照点),,24,24,72,9,34,79,68,72,70,9,21,4,8,0.9,1
2022-12-22T02:00:00,1310A,120.4134,36.0658,青岛市,市南区东部子站,,29,29,93,17,44,73,63,58,58,15,38,10,16,0.4,0.7
2022-12-22T02:00:00,1311A,120.3664,36.1032,青岛市,四方区子站,,27,27,91,9,50,68,55,55,55,15,38,11,15,0.4,0.8
2022-12-22T02:00:00,1312A,120.2994,36.054,青岛市,市南区西部子站,,22,22,84,5,40,76,66,69,68,14,36,10,15,0.7,0.9
2022-12-22T02:00:00,1313A,120.4581,36.0858,青岛市,崂山区子站,,31,31,86,5,40,78,63,60,60,20,38,10,15,0.5,0.7
2022-12-22T02:00:00,1314A,120.1983,35.9608,青岛市,黄岛区子站,,29,27,84,20,47,82,58,57,57,23,45,8,14,0.6,0.9
2022-12-22T02:00:00,1315A,120.3999,36.3083,青岛市,城阳区子站,,29,29,91,12,40,71,40,47,44,29,41,11,13,1.0,1.1
2022-12-22T02:00:00,1316A,113.69031,34.76122,郑州市,烟厂,颗粒物(PM10),94,138,130,32,25,74,46,50,48,14,18,6,6,0.5,0.4
2022-12-22T02:00:00,1317A,113.65724,34.77134,郑州市,郑纺机,颗粒物(PM10),95,140,118,30,22,75,48,57,52,17,22,11,11,0.7,0.6
2022-12-22T02:00:00,1318A,113.67526,34.80246,郑州市,银行学校,颗粒物(PM10),94,137,114,37,23,76,45,45,45,21,21,7,8,0.5,0.5
2022-12-22T02:00:00,1319A,113.56746,34.81334,郑州市,供水公司,颗粒物(PM10),92,134,113,29,21,72,45,57,51,21,21,5,5,1.0,0.7
2022-12-22T02:00:00,1320A,113.7329,34.7178,郑州市,经开区管委,颗粒物(PM10),94,138,118,36,27,80,47,54,50,17,20,6,7,0.4,0.4
2022-12-22T02:00:00,1321A,113.73961,34.77172,郑州市,四十七中,颗粒物(PM10),102,153,123,31,29,73,44,46,45,10,12,5,6,0.5,0.4
2022-12-22T02:00:00,1322A,113.60532,34.74838,郑州市,市监测站,颗粒物(PM10),109,167,135,36,26,74,47,60,54,16,22,4,5,0.8,0.5
2022-12-22T02:00:00,1323A,113.64164,34.7525,郑州市,河医大,颗粒物(PM10),104,158,127,17,29,74,45,56,50,15,19,5,5,0.9,0.8
2022-12-22T02:00:00,1324A,113.51488,34.91089,郑州市,岗李水库(对照点),,,,,,,,,,,,,,,,
2022-12-22T02:00:00,1325A,114.3677,30.5584,武汉市,东湖梨园,细颗粒物(PM2.5),70,86,99,51,79,91,4,4,4,80,49,8,10,0.7,0.8
2022-12-22T02:00:00,1326A,114.2529,30.558,武汉市,汉阳月湖,颗粒物(PM10),62,74,112,39,88,80,7,8,8,76,55,7,8,0.6,0.7
2022-12-22T02:00:00,1327A,114.282,30.6189,武汉市,汉口花桥,"颗粒物(PM10),细颗粒物(PM2.5)",77,103,101,56,78,89,6,6,6,83,46,9,10,1.0,0.8
2022-12-22T02:00:00,1328A,114.3025,30.5332,武汉市,武昌紫阳,颗粒物(PM10),63,75,100,41,77,94,6,6,6,88,64,9,12,0.9,0.8
2022-12-22T02:00:00,1329A,114.3646,30.6217,武汉市,青山钢花,细颗粒物(PM2.5),92,118,112,68,83,88,5,5,5,86,67,10,12,0.8,0.8
2022-12-22T02:00:00,1330A,114.1566,30.4825,武汉市,沌口新区,,,,,,,,,,,,,,,,
2022-12-22T02:00:00,1331A,114.3014,30.5944,武汉市,汉口江滩,细颗粒物(PM2.5),82,93,107,60,84,94,7,7,7,78,49,11,11,1.0,1
2022-12-22T02:00:00,1333A,114.135,30.6319,武汉市,吴家山,细颗粒物(PM2.5),80,80,115,59,88,98,8,8,8,90,58,8,9,0.5,0.6
2022-12-22T02:00:00,1334A,113.8454,30.2917,武汉市,沉湖七壕(对照点),颗粒物(PM10),58,66,93,40,60,100,51,56,54,20,26,9,11,0.7,0.9
2022-12-22T02:00:00,1335A,113.0833,28.2325,长沙市,经开区环保局,细颗粒物(PM2.5),119,137,124,90,91,101,11,9,9,76,58,15,10,1.0,0.9
2022-12-22T02:00:00,1336A,112.8872,28.2189,长沙市,高开区环保局,细颗粒物(PM2.5),83,88,93,61,71,100,36,35,35,64,40,12,12,1.0,0.8
2022-12-22T02:00:00,1337A,113.0792,28.2053,长沙市,马坡岭,细颗粒物(PM2.5),118,141,128,89,94,96,2,2,2,72,55,7,9,0.8,0.8
2022-12-22T02:00:00,1338A,112.9394,28.19,长沙市,湖南师范大学,细颗粒物(PM2.5),82,86,101,60,75,99,39,41,40,38,38,6,6,0.8,0.8
2022-12-22T02:00:00,1339A,113.0178,28.1322,长沙市,雨花区环保局,细颗粒物(PM2.5),128,119,115,97,87,99,3,6,4,76,53,4,6,0.9,0.7
2022-12-22T02:00:00,1340A,112.9792,28.2597,长沙市,伍家岭,细颗粒物(PM2.5),110,133,128,83,79,105,6,6,6,70,62,6,6,1.0,0.8
2022-12-22T02:00:00,1341A,113.0014,28.1944,长沙市,火车新站,细颗粒物(PM2.5),144,147,131,110,93,94,5,5,5,86,69,10,10,1.2,1
2022-12-22T02:00:00,1342A,112.9844,28.1178,长沙市,天心区环保局,细颗粒物(PM2.5),89,91,107,66,77,107,44,54,49,68,55,15,12,0.7,0.7
2022-12-22T02:00:00,1343A,112.8908,28.1308,长沙市,湖南中医药大学,,,134,125,80,91,96,0,0,0,64,52,5,6,1.2,1.1
2022-12-22T02:00:00,1344A,112.9581,28.3611,长沙市,沙坪(对照点),细颗粒物(PM2.5),88,99,93,65,68,100,30,29,29,21,18,6,5,0.7,0.5
2022-12-22T02:00:00,1345A,113.2347,23.1423,广州市,广雅中学,颗粒物(PM10),64,78,55,37,27,86,4,5,4,83,50,6,8,0.9,0.8
2022-12-22T02:00:00,1346A,113.2612,23.105,广州市,市五中,颗粒物(PM10),56,62,47,34,26,103,12,22,17,72,32,10,11,0.7,0.7
2022-12-22T02:00:00,1348A,113.3478,23.0916,广州市,广东商学院,,39,39,41,24,23,97,52,59,56,37,32,8,8,0.5,0.6
2022-12-22T02:00:00,1349A,113.4332,23.1047,广州市,市八十六中,,46,46,45,22,24,99,51,48,48,32,33,5,7,0.9,0.9
2022-12-22T02:00:00,1350A,113.3505,22.9483,广州市,番禺中学,,47,47,46,24,24,102,37,49,43,51,36,9,11,0.4,0.4
2022-12-22T02:00:00,1351A,113.2146,23.3916,广州市,花都师范,,42,42,38,24,22,109,82,82,82,16,20,14,11,0.6,0.6
2022-12-22T02:00:00,1352A,113.2597,23.1331,广州市,市监测站,颗粒物(PM10),59,67,52,34,26,100,4,4,4,87,42,8,9,0.6,0.5
2022-12-22T02:00:00,1353A,113.5618,23.312,广州市,九龙镇镇龙,颗粒物(PM10),54,58,42,29,22,96,6,22,14,59,24,5,8,0.6,0.6
2022-12-22T02:00:00,1354A,113.2765,23.1544,广州市,麓湖,颗粒物(PM10),56,61,46,36,25,104,5,5,5,75,37,5,7,0.6,0.5
2022-12-22T02:00:00,1355A,113.443,23.3035,广州市,帽峰山森林公园(对照点),,31,31,23,18,15,103,67,74,70,13,12,5,9,0.3,0.6
2022-12-22T02:00:00,1356A,114.1063,22.5545,深圳市,通心岭子站,,34,34,46,20,26,96,64,56,56,20,45,4,3,0.4,0.6
2022-12-22T02:00:00,1357A,114.117,22.5625,深圳市,洪湖,,48,48,60,20,28,81,53,46,46,28,51,7,7,0.4,0.6
2022-12-22T02:00:00,1358A,113.987,22.5417,深圳市,华侨城,,38,38,42,15,21,119,62,42,42,28,40,6,5,0.5,0.6
2022-12-22T02:00:00,1359A,113.9181,22.5171,深圳市,南海子站,,39,39,56,23,32,119,44,32,32,38,51,7,7,0.5,0.5
2022-12-22T02:00:00,1360A,114.2458,22.5689,深圳市,盐田,,28,28,30,18,17,94,87,86,86,8,19,8,7,0.5,0.5
2022-12-22T02:00:00,1361A,114.2283,22.7244,深圳市,龙岗,,40,40,49,20,22,99,77,84,80,17,38,8,7,0.5,0.6
2022-12-22T02:00:00,1363A,114.494,22.5422,深圳市,南澳,,32,32,28,0,10,106,61,70,66,9,12,1,2,0.3,0.3
2022-12-22T02:00:00,1364A,114.41,22.6342,深圳市,葵涌,,30,30,28,18,16,96,81,88,84,10,16,9,8,0.4,0.5
2022-12-22T02:00:00,1365A,114.297,22.5978,深圳市,梅沙,,36,36,36,11,16,106,93,92,92,14,18,8,8,0.6,0.3
2022-12-22T02:00:00,1366A,114.0678,22.738,深圳市,观澜,颗粒物(PM10),68,86,63,39,27,105,7,6,6,70,47,7,7,0.7,0.7
2022-12-22T02:00:00,1367A,113.5814,22.2618,珠海市,吉大,,47,47,45,26,23,107,31,41,36,55,31,10,11,0.4,0.4
2022-12-22T02:00:00,1368A,113.4881,22.2335,珠海市,前山,,47,47,50,29,27,96,29,35,32,56,47,6,8,0.3,0.4
2022-12-22T02:00:00,1369A,113.628,22.4251,珠海市,唐家,颗粒物(PM10),53,55,51,28,27,103,19,21,20,68,38,11,11,0.3,0.3
2022-12-22T02:00:00,1370A,113.299,22.2281,珠海市,斗门,,46,46,54,29,33,103,34,29,29,48,47,6,7,0.3,0.3
2022-12-22T02:00:00,1371A,113.1294,23.0067,佛山市,湾梁,,44,44,43,23,23,111,32,32,32,50,32,7,9,0.5,0.5
2022-12-22T02:00:00,1372A,113.1083,23.0478,佛山市,华材职中,细颗粒物(PM2.5),60,51,47,43,31,102,3,3,3,84,46,13,13,0.7,0.6
2022-12-22T02:00:00,1373A,113.144,23.0453,佛山市,南海气象局,,35,33,38,24,22,93,23,22,22,61,33,7,7,0.4,0.4
2022-12-22T02:00:00,1374A,113.2881,22.8094,佛山市,顺德苏岗,,33,22,34,22,19,89,10,28,19,66,35,7,9,0.6,0.5
2022-12-22T02:00:00,1376A,112.8383,22.8678,佛山市,高明孔堂,颗粒物(PM10),54,58,45,26,24,103,29,26,26,46,30,8,8,0.5,0.5
2022-12-22T02:00:00,1377A,112.8836,23.1588,佛山市,三水监测站,"颗粒物(PM10),细颗粒物(PM2.5)",59,68,43,42,28,98,40,36,36,50,32,13,10,0.5,0.4
2022-12-22T02:00:00,1378A,112.867,23.185,佛山市,三水云东海,细颗粒物(PM2.5),55,58,34,39,24,102,26,16,16,50,26,7,7,0.7,0.6
2022-12-22T02:00:00,1379A,113.3769,22.5211,中山市,华柏园,,42,40,44,29,28,97,33,43,38,49,42,8,8,0.4,0.4
2022-12-22T02:00:00,1380A,113.3881,22.5497,中山市,张溪,,44,44,47,30,27,98,32,36,34,51,42,13,11,0.5,0.5
2022-12-22T02:00:00,1381A,113.4075,22.5111,中山市,紫马岭,"颗粒物(PM10),细颗粒物(PM2.5)",58,65,43,41,15,100,12,26,19,51,35,9,10,0.6,0.5
2022-12-22T02:00:00,1382A,113.4411,22.4853,中山市,长江旅游区(对照点),,,,,,,,,,,,,,,,
2022-12-22T02:00:00,1383A,113.1064,22.6058,江门市,北街,,44,44,42,27,23,107,23,20,20,77,37,12,11,0.7,0.6
2022-12-22T02:00:00,1384A,113.0731,22.5835,江门市,西区,颗粒物(PM10),55,59,47,25,24,105,43,54,48,45,30,9,9,0.4,0.4
2022-12-22T02:00:00,1385A,113.0219,22.5311,江门市,圭峰西,,38,38,35,26,22,112,52,64,58,40,22,8,7,0.4,0.4
2022-12-22T02:00:00,1386A,113.0828,22.5947,江门市,东湖,,46,46,43,22,22,113,32,49,40,55,27,9,9,0.6,0.5
2022-12-22T02:00:00,1389A,113.7547,23.0494,东莞市,莞城梨川,,28,28,41,17,23,107,53,52,52,23,31,8,12,0.5,0.7
2022-12-22T02:00:00,1390A,113.7944,23.0128,东莞市,东城石井,,24,24,34,16,20,106,43,42,42,14,21,10,12,0.5,0.6
2022-12-22T02:00:00,1391A,113.7383,22.9658,东莞市,南城西平,,44,44,41,23,23,108,9,14,12,80,49,11,13,0.4,0.4
2022-12-22T02:00:00,1392A,114.4183,23.0528,惠州市,河南岸金山湖子站,,36,36,39,17,22,90,84,81,81,11,22,9,9,0.4,0.4
2022-12-22T02:00:00,1393A,114.4053,23.0822,惠州市,下埔横江三路子站,,40,40,40,16,20,94,82,84,83,14,21,8,9,0.3,0.3
2022-12-22T02:00:00,1394A,114.4103,23.1142,惠州市,江北云山西路子站,,32,24,34,22,21,101,87,90,88,12,17,6,7,0.3,0.3
2022-12-22T02:00:00,1395A,114.4645,22.7833,惠州市,惠阳区承修路船湖子站,,44,44,47,22,27,100,77,77,77,21,25,5,5,0.2,0.1
2022-12-22T02:00:00,1396A,114.5317,22.7422,惠州市,大亚湾管委会子站,,32,32,38,20,22,99,85,90,88,15,22,5,5,0.4,0.4
2022-12-22T02:00:00,1397A,112.4267,23.0706,肇庆市,睦岗子站,,40,40,36,26,22,105,4,4,4,74,37,8,9,0.4,0.4
2022-12-22T02:00:00,1398A,112.4645,23.0475,肇庆市,城中子站,,42,42,35,26,20,105,4,4,4,68,35,9,10,0.4,0.4
2022-12-22T02:00:00,1399A,112.5544,23.1522,肇庆市,坑口子站,,30,30,30,21,20,105,64,54,54,22,22,4,5,0.6,0.6
2022-12-22T02:00:00,1400A,112.4753,23.1,肇庆市,七星岩子站(对照点),,37,37,33,23,18,106,75,72,72,17,12,4,3,0.4,0.3
2022-12-22T02:00:00,1401A,108.3103,22.7881,南宁市,二十一中,细颗粒物(PM2.5),62,56,61,44,43,116,73,79,76,26,27,15,12,0.8,0.8
2022-12-22T02:00:00,1402A,108.3141,22.8528,南宁市,北湖,细颗粒物(PM2.5),80,108,80,59,46,118,6,6,6,61,38,19,21,1.0,0.8
2022-12-22T02:00:00,1403A,108.3206,22.8225,南宁市,市监测站,细颗粒物(PM2.5),64,76,68,46,45,112,61,63,62,40,46,25,20,0.7,0.8
2022-12-22T02:00:00,1404A,108.3829,22.8037,南宁市,大自然花园,颗粒物(PM10),54,57,59,37,40,112,50,67,58,34,26,14,11,0.7,0.6
2022-12-22T02:00:00,1405A,108.4394,22.7904,南宁市,仙葫(对照点),细颗粒物(PM2.5),75,87,71,55,46,96,4,8,6,82,43,12,11,0.9,0.7
2022-12-22T02:00:00,1406A,108.2397,22.8467,南宁市,区农职院,细颗粒物(PM2.5),54,43,62,38,37,119,42,37,37,31,28,23,14,0.6,0.7
2022-12-22T02:00:00,1407A,108.3275,22.735,南宁市,英华嘉园,细颗粒物(PM2.5),73,59,67,53,47,111,41,50,46,38,40,11,13,0.9,0.9
2022-12-22T02:00:00,1408A,108.2257,22.7757,南宁市,沙井镇街道办,颗粒物(PM10),76,101,107,54,51,113,12,6,6,64,60,13,12,0.9,0.8
2022-12-22T02:00:00,1409A,110.576,19.9507,海口市,东寨港(对照点),,,48,40,48,25,79,18,20,19,,,2,2,0.6,0.5
2022-12-22T02:00:00,1410A,110.3232,20.0574,海口市,海南大学,颗粒物(PM10),63,76,54,44,34,124,5,12,8,65,23,6,7,0.7,0.6
2022-12-22T02:00:00,1411A,110.283,20.0053,海口市,秀英海南医院,颗粒物(PM10),60,69,58,42,31,125,31,41,36,62,32,7,8,0.7,0.8
2022-12-22T02:00:00,1412A,110.338,19.9969,海口市,海南师范大学,颗粒物(PM10),70,90,54,30,21,127,8,6,6,101,32,6,7,1.0,0.8
2022-12-22T02:00:00,1413A,110.33,20.0356,海口市,龙华路环保局宿舍,颗粒物(PM10),64,77,52,38,30,120,15,24,20,74,24,5,7,0.9,0.7
2022-12-22T02:00:00,1414A,106.3787,29.8279,重庆市,缙云山(对照点),细颗粒物(PM2.5),60,62,73,43,46,103,93,95,94,21,28,6,4,0.5,0.5
2022-12-22T02:00:00,1416A,106.4213,29.8253,重庆市,天生,细颗粒物(PM2.5),99,93,97,74,71,105,4,6,5,55,40,8,8,0.7,0.8
2022-12-22T02:00:00,1417A,106.6263,29.7228,重庆市,两路,细颗粒物(PM2.5),118,123,92,89,64,77,37,34,34,39,46,7,9,1.0,1.1
2022-12-22T02:00:00,1418A,106.2953,29.5983,重庆市,虎溪,细颗粒物(PM2.5),87,83,84,64,68,96,4,4,4,64,51,9,10,0.7,0.7
2022-12-22T02:00:00,1419A,106.5777,29.5102,重庆市,南坪,细颗粒物(PM2.5),102,105,95,76,68,81,55,51,51,35,45,5,7,0.9,0.9
2022-12-22T02:00:00,1420A,106.6556,29.6277,重庆市,唐家沱,细颗粒物(PM2.5),114,108,94,86,66,77,9,14,12,63,37,9,11,0.6,0.6
2022-12-22T02:00:00,1421A,106.6349,29.4906,重庆市,茶园,细颗粒物(PM2.5),104,99,103,78,68,92,18,24,21,67,57,8,12,0.7,0.9
2022-12-22T02:00:00,1422A,106.3754,29.4572,重庆市,白市驿,细颗粒物(PM2.5),80,98,95,59,63,90,76,79,78,22,30,8,10,0.6,0.7
2022-12-22T02:00:00,1425A,106.6205,29.7166,重庆市,空港,细颗粒物(PM2.5),128,117,90,97,68,94,29,30,30,40,39,7,9,1.1,1
2022-12-22T02:00:00,1426A,106.4782,29.4875,重庆市,新山村,细颗粒物(PM2.5),104,117,100,78,67,86,5,5,5,96,59,6,10,0.8,0.6
2022-12-22T02:00:00,1427A,106.5616,29.6453,重庆市,礼嘉,颗粒物(PM10),90,130,103,64,58,102,3,3,3,86,50,9,11,1.4,1.4
2022-12-22T02:00:00,1428A,106.4522,29.7091,重庆市,蔡家,细颗粒物(PM2.5),83,86,97,61,62,95,4,4,4,51,47,5,7,0.5,0.7
2022-12-22T02:00:00,1429A,106.5093,29.3917,重庆市,鱼新街,细颗粒物(PM2.5),78,97,96,57,66,82,6,6,6,58,41,9,11,1.6,1.4
2022-12-22T02:00:00,1431A,103.9728,30.7236,成都市,金泉两河,细颗粒物(PM2.5),105,98,88,79,54,72,0,0,0,56,53,1,4,0.9,0.9
2022-12-22T02:00:00,1432A,104.1419,30.6764,成都市,十里店,细颗粒物(PM2.5),127,126,102,96,76,99,2,2,2,81,52,4,5,0.8,0.7
2022-12-22T02:00:00,1433A,104.0594,30.5767,成都市,三瓦窑,,,129,97,83,65,87,0,0,0,82,46,4,4,0.8,0.5
2022-12-22T02:00:00,1434A,104.1122,30.6306,成都市,沙河铺,细颗粒物(PM2.5),98,97,101,73,73,95,2,5,4,60,43,2,2,0.9,0.8
2022-12-22T02:00:00,1437A,104.0431,30.6556,成都市,君平街,细颗粒物(PM2.5),143,131,116,109,89,85,2,3,2,84,64,4,7,0.9,0.8
2022-12-22T02:00:00,1438A,103.6202,31.0201,成都市,灵岩寺(对照点),细颗粒物(PM2.5),88,101,69,65,49,107,66,76,71,19,19,17,18,0.7,0.4
2022-12-22T02:00:00,1439A,106.6899,26.5998,贵阳市,马鞍山,细颗粒物(PM2.5),73,78,52,53,40,104,4,5,4,60,28,19,11,1.1,0.7
2022-12-22T02:00:00,1440A,106.6971,26.5694,贵阳市,市环保站,细颗粒物(PM2.5),78,90,62,57,45,97,6,6,6,73,41,43,19,1.1,0.7
2022-12-22T02:00:00,1441A,106.6243,26.6266,贵阳市,鉴湖路,"颗粒物(PM10),细颗粒物(PM2.5)",62,73,58,44,34,107,10,32,21,72,30,27,16,0.7,0.3
2022-12-22T02:00:00,1442A,106.7487,26.6343,贵阳市,燕子冲,"颗粒物(PM10),细颗粒物(PM2.5)",64,78,63,46,46,100,0,0,0,69,29,28,12,0.9,0.5
2022-12-22T02:00:00,1443A,106.6555,26.4365,贵阳市,碧云窝,细颗粒物(PM2.5),73,73,57,53,40,103,6,12,9,50,22,24,18,0.9,0.6
2022-12-22T02:00:00,1444A,106.694,26.5161,贵阳市,中院村,细颗粒物(PM2.5),89,105,69,66,46,96,5,5,5,63,41,95,32,1.4,0.8
2022-12-22T02:00:00,1445A,106.7109,26.6027,贵阳市,红边门,颗粒物(PM10),59,68,70,39,50,99,16,10,10,57,46,40,64,0.7,1
2022-12-22T02:00:00,1446A,106.7164,26.5699,贵阳市,新华路,颗粒物(PM10),89,127,81,41,40,101,14,8,8,58,37,34,24,0.6,0.7
2022-12-22T02:00:00,1447A,106.674,26.5424,贵阳市,太慈桥,细颗粒物(PM2.5),67,73,60,48,34,99,9,12,10,54,33,32,13,0.8,0.5
2022-12-22T02:00:00,1450A,102.8204,24.8886,昆明市,呈贡新区,,42,26,36,29,36,54,34,34,34,26,24,7,8,0.7,0.8
2022-12-22T02:00:00,1451A,102.6251,24.9608,昆明市,西山森林公园(对照点),,38,33,59,26,30,54,48,46,46,8,16,7,7,1.0,1.3
2022-12-22T02:00:00,1452A,102.7252,25.0902,昆明市,龙泉镇,细颗粒物(PM2.5),74,71,48,54,36,55,4,4,4,45,27,8,8,1.1,0.9
2022-12-22T02:00:00,1453A,102.7266,25.0375,昆明市,东风东路,,50,46,45,35,37,54,30,22,22,23,28,8,8,0.9,0.7
2022-12-22T02:00:00,1454A,102.6742,25.0669,昆明市,金鼎山,细颗粒物(PM2.5),54,52,43,38,36,54,21,26,24,26,19,9,9,1.0,0.9
2022-12-22T02:00:00,1455A,102.6644,25.0401,昆明市,碧鸡广场,细颗粒物(PM2.5),53,44,42,37,33,55,26,24,24,29,24,6,6,0.9,0.8
2022-12-22T02:00:00,1456A,91.1319,29.6514,拉萨市,八廓街,,48,48,37,24,22,95,37,28,28,27,26,14,13,0.7,0.9
2022-12-22T02:00:00,1457A,91.1221,29.6747,拉萨市,市环保局,,,138,60,,21,98,21,34,28,57,40,11,10,3.8,1.7
2022-12-22T02:00:00,1458A,91.0874,29.6475,拉萨市,区监测站,细颗粒物(PM2.5),55,58,28,39,16,86,34,28,28,44,36,8,9,1.1,0.6
2022-12-22T02:00:00,1459A,91.1774,29.6541,拉萨市,西藏大学,,29,29,26,12,16,110,58,53,53,20,29,10,10,0.4,0.9
2022-12-22T02:00:00,1460A,90.9798,29.6588,拉萨市,区辐射站,,19,18,37,12,25,79,58,52,52,22,39,8,10,0.6,0.8
2022-12-22T02:00:00,1461A,91.0834,29.6292,拉萨市,拉萨火车站,颗粒物(PM10),54,57,35,28,12,86,8,18,13,65,34,11,9,1.3,0.8
2022-12-22T02:00:00,1462A,108.882,34.2749,西安市,高压开关厂,颗粒物(PM10),66,81,121,27,48,89,73,74,74,15,49,3,8,0.3,0.6
2022-12-22T02:00:00,1463A,108.993,34.2629,西安市,兴庆小区,颗粒物(PM10),64,78,104,11,37,81,72,71,71,14,54,9,8,0.4,0.6
2022-12-22T02:00:00,1464A,109.06,34.2572,西安市,纺织城,颗粒物(PM10),75,99,126,22,41,81,15,9,9,54,59,10,11,0.1,0.3
2022-12-22T02:00:00,1465A,108.9356,34.2173,西安市,小寨,颗粒物(PM10),59,68,106,14,35,79,60,56,56,24,61,7,10,0.6,1
2022-12-22T02:00:00,1466A,108.954,34.2713,西安市,市人民体育场,颗粒物(PM10),63,76,110,9,35,81,70,72,71,15,55,7,8,0.5,0.9
2022-12-22T02:00:00,1467A,108.8922,34.2322,西安市,高新西区,颗粒物(PM10),60,69,101,12,47,86,74,73,73,12,49,8,9,0.4,0.6
2022-12-22T02:00:00,1468A,108.935,34.3474,西安市,经开区,颗粒物(PM10),70,90,119,12,51,77,63,66,64,16,45,5,8,0.1,0.6
2022-12-22T02:00:00,1469A,108.906,34.1546,西安市,长安区,颗粒物(PM10),60,70,109,30,44,90,47,42,42,28,47,5,7,0.5,0.7
2022-12-22T02:00:00,1471A,109.2186,34.3731,西安市,临潼区,颗粒物(PM10),57,64,103,26,34,91,72,73,72,6,32,9,10,0.4,0.7
2022-12-22T02:00:00,1472A,108.869,34.378,西安市,草滩(对照点),颗粒物(PM10),80,110,151,33,63,67,18,41,30,51,52,10,13,0.7,1.1
2022-12-22T02:00:00,1473A,108.985,34.1978,西安市,曲江文化产业集团,颗粒物(PM10),64,78,106,23,37,88,46,46,46,34,59,6,7,0.5,0.7
2022-12-22T02:00:00,1474A,109.051,34.3213,西安市,广运潭,颗粒物(PM10),66,81,119,5,37,76,62,66,64,12,47,7,10,0.4,0.6
2022-12-22T02:00:00,1476A,103.631,36.1031,兰州市,兰炼宾馆,细颗粒物(PM2.5),97,120,158,72,70,62,5,5,5,86,82,36,40,1.6,1.5
2022-12-22T02:00:00,1477A,104.1373,35.9454,兰州市,榆中兰大校区(对照点),,,,,,,,,,,,,,,,
2022-12-22T02:00:00,1478A,103.8412,36.0726,兰州市,生物制品所,颗粒物(PM10),89,128,156,50,63,43,5,5,5,66,77,17,25,1.2,2.4
2022-12-22T02:00:00,1479A,103.831,36.0464,兰州市,铁路设计院,细颗粒物(PM2.5),104,117,166,78,82,44,12,14,13,73,89,43,36,3.3,3.5
2022-12-22T02:00:00,1483A,101.524,36.6867,西宁市,第五水厂(对照点),,,,,,,,,,,,,,,,
2022-12-22T02:00:00,1484A,105.9512,38.6016,银川市,贺兰山马莲口(对照点),,30,30,37,8,10,92,60,62,61,15,11,14,10,0.4,0.3
2022-12-22T02:00:00,1488A,106.2328,38.4975,银川市,贺兰山东路,,45,45,54,20,17,84,35,44,40,39,24,24,6,1.0,0.5
2022-12-22T02:00:00,1489A,106.1358,38.5036,银川市,学院路,,46,46,65,19,14,78,27,34,30,50,24,27,12,0.7,0.5
2022-12-22T02:00:00,1490A,87.5801,43.8303,乌鲁木齐市,监测站,细颗粒物(PM2.5),133,153,167,101,87,17,2,2,2,118,97,8,6,2.6,2.4
2022-12-22T02:00:00,1491A,87.6046,43.768,乌鲁木齐市,收费所,颗粒物(PM10),51,52,154,24,110,60,52,51,51,31,70,2,3,0.3,1.5
2022-12-22T02:00:00,1492A,87.4754,43.9469,乌鲁木齐市,新疆农科院农场(对照点),细颗粒物(PM2.5),233,190,160,183,132,33,0,0,0,98,79,7,6,2.4,2
2022-12-22T02:00:00,1493A,87.5525,43.8711,乌鲁木齐市,铁路局,细颗粒物(PM2.5),137,139,142,104,103,36,6,6,6,111,94,1,2,2.7,2
2022-12-22T02:00:00,1494A,87.6432,43.831,乌鲁木齐市,三十一中学,颗粒物(PM10),53,56,156,17,85,48,48,48,48,29,66,5,5,0.4,1.4
2022-12-22T02:00:00,1496A,87.7216,44.1747,乌鲁木齐市,米东区环保局,细颗粒物(PM2.5),284,276,269,234,217,30,4,4,4,97,86,5,5,2.2,1.9
2022-12-22T02:00:00,1508A,112.9433,27.8614,湘潭市,板塘,细颗粒物(PM2.5),87,106,117,64,84,98,28,33,30,66,55,14,17,1.3,1.7
2022-12-22T02:00:00,1511A,112.9118,27.8403,湘潭市,市监测站,细颗粒物(PM2.5),92,102,114,68,78,105,48,49,48,45,45,13,16,0.9,1.1
2022-12-22T02:00:00,1512A,112.8937,27.8728,湘潭市,江麓,细颗粒物(PM2.5),97,108,110,72,77,115,39,34,34,44,46,15,20,0.7,1.2
2022-12-22T02:00:00,1513A,112.9227,27.8159,湘潭市,岳塘,细颗粒物(PM2.5),92,101,133,68,94,87,23,23,23,61,58,7,28,0.6,1.6
2022-12-22T02:00:00,1514A,112.9074,27.9119,湘潭市,科大,细颗粒物(PM2.5),102,115,114,76,81,104,0,20,10,83,45,14,17,1.5,1.4
2022-12-22T02:00:00,1515A,113.135,27.8244,株洲市,天台山庄,细颗粒物(PM2.5),105,105,117,79,92,94,26,35,30,57,58,5,10,1.1,1.1
2022-12-22T02:00:00,1518A,113.095,27.8867,株洲市,株冶医院,细颗粒物(PM2.5),120,148,139,91,98,104,7,8,8,78,65,8,13,1.1,1.2
2022-12-22T02:00:00,1519A,113.167,27.8667,株洲市,市四中,细颗粒物(PM2.5),99,100,122,74,96,93,14,35,24,65,55,8,9,0.6,0.8
2022-12-22T02:00:00,1520A,113.143,27.8381,株洲市,火车站,细颗粒物(PM2.5),108,110,129,81,96,94,27,29,28,49,51,11,15,1.1,1.2
2022-12-22T02:00:00,1524A,113.13,27.8528,株洲市,市监测站,细颗粒物(PM2.5),124,117,134,94,105,100,27,26,26,59,58,7,12,1.3,1.4
2022-12-22T02:00:00,1552A,106.805,26.3003,贵阳市,桐木岭(对照点),,,,,,,,,,,,,,,,
2022-12-22T02:00:00,1559A,113.251,27.8336,株洲市,大京风景区(对照点),细颗粒物(PM2.5),64,66,96,46,71,107,26,27,26,11,21,3,6,0.5,0.7
2022-12-22T02:00:00,1562A,113.0048,27.9153,湘潭市,昭山,细颗粒物(PM2.5),89,101,124,66,81,99,41,40,40,62,56,8,8,0.6,0.9
2022-12-22T02:00:00,1564A,112.4876,27.9164,湘潭市,韶山(对照点),,48,48,69,20,42,105,53,56,54,6,14,6,9,0.7,0.8
2022-12-22T02:00:00,1585A,109.8756,40.6532,包头市,市环境监测站,,22,22,68,4,12,73,49,51,50,14,19,13,10,0.5,0.5
2022-12-22T02:00:00,1587A,109.9991,40.5842,包头市,包头八中,,23,23,72,6,13,72,31,49,40,27,24,6,10,0.5,0.7
2022-12-22T02:00:00,1588A,109.8538,40.6821,包头市,青山宾馆,,28,28,82,10,12,75,40,37,37,17,17,18,12,0.5,0.5
2022-12-22T02:00:00,1589A,109.8642,40.6288,包头市,惠龙物流,,19,18,83,13,17,74,52,50,50,14,25,8,7,0.3,0.5
2022-12-22T02:00:00,1590A,110.0377,40.5546,包头市,东河鸿龙湾,,20,19,79,6,11,69,20,38,29,39,24,11,10,0.8,0.7
2022-12-22T02:00:00,1591A,110.0023,39.8129,鄂尔多斯市,综合楼,,19,17,89,7,8,72,58,60,59,11,14,5,8,0.5,0.5
2022-12-22T02:00:00,1592A,109.9486,39.8261,鄂尔多斯市,巴音孟克林场办事处,,17,14,74,7,12,69,54,52,52,10,9,7,9,0.5,0.6
2022-12-22T02:00:00,1593A,109.7736,39.5986,鄂尔多斯市,康泽苑,,16,14,59,2,8,77,50,51,50,8,9,4,4,0.3,0.4
2022-12-22T02:00:00,1594A,109.8119,39.5989,鄂尔多斯市,华泰汽车城,,22,22,56,5,13,82,52,52,52,12,15,8,8,0.5,0.5
2022-12-22T02:00:00,1595A,109.9734,39.7884,鄂尔多斯市,奥林花园,,31,31,77,7,9,77,31,36,34,28,12,8,7,0.6,0.6
2022-12-22T02:00:00,1596A,122.2414,40.6592,营口市,学府南路(停运211214),,,,,,,,,,,,,,,,
2022-12-22T02:00:00,1597A,122.2703,40.7094,营口市,大庆路,颗粒物(PM10),51,51,64,31,35,62,29,30,30,26,20,11,9,0.7,0.8
2022-12-22T02:00:00,1598A,122.2150,40.6511,营口市,镜湖西路,,44,44,57,22,19,63,46,44,44,18,17,20,13,0.4,0.3
2022-12-22T02:00:00,1599A,122.1658,40.6789,营口市,西炮台,,40,40,45,24,23,60,30,34,32,23,19,8,9,0.2,0.2
2022-12-22T02:00:00,1600A,124.3303,40.0625,丹东市,江湾东路,,40,40,49,28,33,60,48,48,48,14,21,12,20,0.6,0.9
2022-12-22T02:00:00,1601A,124.4256,40.1503,丹东市,临江后街,,31,31,40,19,25,64,54,55,54,9,18,4,10,0.3,0.4
2022-12-22T02:00:00,1602A,124.3933,40.1461,丹东市,元宝山,,33,33,40,22,24,61,42,43,42,17,18,10,14,0.7,0.6
2022-12-22T02:00:00,1603A,124.3633,40.1092,丹东市,民主桥,,42,42,45,22,23,62,42,42,42,15,20,12,12,0.6,0.6
2022-12-22T02:00:00,1604A,122.0303,41.1489,盘锦市,开发区,,40,33,55,28,19,60,30,42,36,28,13,9,12,0.4,0.3
2022-12-22T02:00:00,1605A,122.0485,41.0883,盘锦市,兴隆台,,35,35,57,24,17,54,36,50,43,24,16,16,14,0.7,0.6
2022-12-22T02:00:00,1606A,121.8297,41.1028,盘锦市,新生街道,,35,35,53,20,18,59,18,12,12,41,31,11,12,0.8,0.6
2022-12-22T02:00:00,1607A,120.9092,40.7136,葫芦岛市,龙港区,,41,41,62,16,20,61,33,26,26,27,20,30,22,0.7,0.6
2022-12-22T02:00:00,1608A,120.8392,40.7514,葫芦岛市,化工街,,18,15,45,12,13,58,45,42,42,9,15,14,14,0.7,0.7
2022-12-22T02:00:00,1609A,120.8341,40.7073,葫芦岛市,新区,,19,19,48,13,12,61,44,42,42,15,12,17,13,0.6,0.5
2022-12-22T02:00:00,1610A,120.8695,40.7677,葫芦岛市,东城区,,17,9,43,7,9,65,54,51,51,8,11,22,12,0.5,0.5
2022-12-22T02:00:00,1611A,118.5819,24.9117,泉州市,涂山街,,29,29,41,15,18,101,61,48,48,17,24,8,8,0.5,0.6
2022-12-22T02:00:00,1612A,118.5972,24.8978,泉州市,津头埔,,34,34,43,16,19,92,48,45,45,25,26,8,8,0.5,0.5
2022-12-22T02:00:00,1613A,118.6663,24.9424,泉州市,万安,,23,23,43,14,23,95,47,30,30,28,29,7,7,0.4,0.4
2022-12-22T02:00:00,1614A,118.6117,24.9604,泉州市,清源山(对照点),,,,,,,,,,,,,,,,
2022-12-22T02:00:00,1616A,117.6795,36.229,济南市,技术学院,颗粒物(PM10),56,61,109,21,46,70,37,47,42,31,40,20,18,0.4,0.8
2022-12-22T02:00:00,1618A,118.3429,35.0532,临沂市,沂河小区,颗粒物(PM10),52,53,170,29,109,53,49,48,48,17,56,13,23,0.6,1.2
2022-12-22T02:00:00,1619A,118.295,35.0583,临沂市,鲁南制药厂,颗粒物(PM10),53,56,172,22,101,62,47,49,48,31,72,14,32,0.9,1.5
2022-12-22T02:00:00,1620A,118.2794,34.9976,临沂市,新光毛纺厂,颗粒物(PM10),54,58,170,21,98,61,43,45,44,30,72,9,22,0.8,1.5
2022-12-22T02:00:00,1621A,118.3956,35.0888,临沂市,河东保险公司,颗粒物(PM10),51,51,165,13,104,60,48,51,50,22,65,12,20,0.7,1.4
2022-12-22T02:00:00,1622A,116.3032,37.4674,德州市,儿童乐园,颗粒物(PM10),68,85,87,14,27,63,35,38,36,16,37,3,10,0.4,0.6
2022-12-22T02:00:00,1624A,116.2991,37.4451,德州市,监理站,颗粒物(PM10),76,101,106,14,32,62,44,44,44,19,39,5,12,0.4,0.6
2022-12-22T02:00:00,1625A,115.9848,36.4372,聊城市,区政府,颗粒物(PM10),92,134,131,16,44,67,50,50,50,14,37,5,14,0.5,0.9
2022-12-22T02:00:00,1628A,118.0062,37.3803,滨州市,市环保局,颗粒物(PM10),54,57,59,23,25,68,29,33,31,37,36,16,17,1.0,1.1
2022-12-22T02:00:00,1629A,118.0018,37.3617,滨州市,第二水厂,,23,18,52,16,23,68,32,38,35,36,37,7,13,0.5,0.7
2022-12-22T02:00:00,1630A,117.9776,37.393,滨州市,北中新校,颗粒物(PM10),51,51,55,23,24,66,24,23,23,42,42,8,8,0.3,0.4
2022-12-22T02:00:00,1631A,118.0414,36.8103,淄博市,人民公园,,38,24,77,26,47,64,36,32,32,33,49,14,19,0.7,1
2022-12-22T02:00:00,1633A,117.8525,36.4847,淄博市,双山,,30,30,85,17,44,71,41,32,32,26,40,18,15,0.4,0.6
2022-12-22T02:00:00,1634A,117.9592,36.6331,淄博市,气象站,,39,39,93,22,43,67,23,16,16,40,44,15,18,0.4,0.6
2022-12-22T02:00:00,1635A,118.3092,36.8194,淄博市,莆田园,,39,34,68,27,41,74,19,16,16,39,42,26,16,0.6,0.7
2022-12-22T02:00:00,1637A,117.558,34.8438,枣庄市,市中区政府,颗粒物(PM10),56,61,184,24,107,78,59,56,56,19,55,9,23,0.7,1.4
2022-12-22T02:00:00,1638A,117.2852,34.7837,枣庄市,薛城环保局,颗粒物(PM10),58,66,185,27,114,79,55,54,54,29,67,11,20,0.7,1.5
2022-12-22T02:00:00,1639A,117.5852,34.7745,枣庄市,峄城区政府,颗粒物(PM10),60,70,170,27,99,81,56,53,53,23,56,11,27,0.4,0.9
2022-12-22T02:00:00,1640A,117.7276,34.5578,枣庄市,台儿庄区环保局,颗粒物(PM10),68,85,186,29,113,78,50,44,44,17,49,15,20,0.4,1
2022-12-22T02:00:00,1641A,117.4518,35.0992,枣庄市,山亭区环保局,颗粒物(PM10),51,51,150,17,88,80,61,60,60,19,54,8,19,0.6,1.2
2022-12-22T02:00:00,1642A,121.2514,37.5639,烟台市,开发区,,17,2,61,9,20,65,53,56,54,5,17,9,12,0.4,0.5
2022-12-22T02:00:00,1643A,121.3719,37.5433,烟台市,轴承厂,,17,17,68,8,26,71,51,59,55,13,20,12,16,0.3,0.4
2022-12-22T02:00:00,1644A,121.3181,37.5436,烟台市,西郊化工站,,19,12,69,10,22,68,59,62,60,2,21,8,13,0.4,0.6
2022-12-22T02:00:00,1645A,121.4478,37.4822,烟台市,莱山环保局,,18,12,66,8,23,71,55,55,55,3,14,8,12,0.6,0.7
2022-12-22T02:00:00,1646A,121.2611,37.4967,烟台市,福山环保局,,18,9,71,12,24,64,57,59,58,8,23,6,10,0.2,0.5
2022-12-22T02:00:00,1650A,119.1437,36.7023,潍坊市,环保局,,24,24,67,10,40,73,49,58,54,14,34,9,15,0.5,0.7
2022-12-22T02:00:00,1653A,116.6251,35.4302,济宁市,火炬城,颗粒物(PM10),60,69,138,22,98,72,53,54,54,9,51,9,21,0.3,1.1
2022-12-22T02:00:00,1655A,116.5491,35.4042,济宁市,电化厂,颗粒物(PM10),68,86,154,24,97,77,50,49,49,15,55,22,29,0.5,1.2
2022-12-22T02:00:00,1656A,117.1437,36.1937,泰安市,监测站,颗粒物(PM10),57,63,118,16,56,65,56,60,58,8,36,7,12,0.6,0.9
2022-12-22T02:00:00,1657A,117.0885,36.2017,泰安市,人口学校,颗粒物(PM10),57,63,115,18,53,60,51,55,53,15,42,8,11,0.7,1
2022-12-22T02:00:00,1658A,117.1089,36.1758,泰安市,电力学校,颗粒物(PM10),54,58,120,34,69,64,55,60,58,6,38,10,21,0.6,1
2022-12-22T02:00:00,1659A,119.471,35.4209,日照市,监测站,,31,31,92,15,46,67,55,57,56,16,44,10,13,0.7,1
2022-12-22T02:00:00,1660A,119.523,35.4216,日照市,市政府广场,,31,31,85,13,45,65,55,54,54,12,31,8,11,0.6,0.8
2022-12-22T02:00:00,1661A,119.5587,35.4044,日照市,港务局,,34,34,94,13,48,69,57,56,56,15,33,7,12,0.8,0.9
2022-12-22T02:00:00,1662A,122.1214,37.4236,威海市,华夏技校,,27,27,82,17,40,76,59,62,60,8,24,4,6,0.3,0.5
2022-12-22T02:00:00,1663A,122.0508,37.5236,威海市,山大分校,,,,78,5,22,77,60,63,62,7,16,6,6,0.5,0.7
2022-12-22T02:00:00,1664A,122.1067,37.5072,威海市,市监测站,,34,34,79,7,28,68,58,60,59,6,19,3,3,0.5,0.7
2022-12-22T02:00:00,1666A,118.6614,37.4309,东营市,市环保局,,34,34,41,14,18,74,47,49,48,18,22,9,10,0.4,0.5
2022-12-22T02:00:00,1669A,113.5824,24.7733,韶关市,市八中,颗粒物(PM10),58,66,48,38,33,113,37,42,40,32,17,13,15,0.6,0.5
2022-12-22T02:00:00,1671A,113.5917,24.7972,韶关市,园林处,,,,39,,29,82,,75,,,10,,16,,0.5
2022-12-22T02:00:00,1672A,113.6735,24.7791,韶关市,韶关学院,细颗粒物(PM2.5),67,60,50,48,41,109,11,11,11,22,25,9,14,0.7,0.7
2022-12-22T02:00:00,1673A,113.5971,24.6863,韶关市,曲江监测站,颗粒物(PM10),56,61,52,39,35,109,21,16,16,40,33,12,14,0.6,0.6
2022-12-22T02:00:00,1674A,116.6794,23.3667,汕头市,金平子站,,32,22,45,22,21,100,61,64,62,21,28,18,14,0.6,0.6
2022-12-22T02:00:00,1675A,116.7244,23.3633,汕头市,龙湖子站,,45,45,74,7,26,82,68,62,62,20,38,13,14,0.6,0.7
2022-12-22T02:00:00,1676A,116.7258,23.2775,汕头市,濠江子站,,35,31,47,24,30,95,52,50,50,26,35,12,13,0.4,0.6
2022-12-22T02:00:00,1677A,116.7519,23.4714,汕头市,澄海子站,,26,26,42,16,27,95,70,70,70,14,25,5,9,0.4,0.5
2022-12-22T02:00:00,1678A,116.6092,23.2539,汕头市,潮阳子站,,31,31,37,15,17,98,59,68,64,15,19,9,9,0.5,0.6
2022-12-22T02:00:00,1680A,110.3539,21.2706,湛江市,湛江影剧院,细颗粒物(PM2.5),82,84,57,60,41,117,53,52,52,35,20,32,19,0.7,0.6
2022-12-22T02:00:00,1681A,110.3928,21.2228,湛江市,市环境监测站,细颗粒物(PM2.5),72,76,56,52,40,110,76,74,74,20,19,29,18,0.6,0.5
2022-12-22T02:00:00,1682A,110.4019,21.1997,湛江市,环保局宿舍,细颗粒物(PM2.5),74,77,57,54,41,108,68,64,64,27,22,17,14,0.6,0.5
2022-12-22T02:00:00,1683A,110.4111,21.2028,湛江市,霞山游泳场,细颗粒物(PM2.5),70,77,58,51,41,111,80,78,78,19,19,23,18,0.5,0.5
2022-12-22T02:00:00,1684A,110.3316,21.2679,湛江市,麻章区环保局,细颗粒物(PM2.5),83,86,64,61,45,113,57,60,58,32,24,39,19,0.6,0.5
2022-12-22T02:00:00,1685A,110.4558,21.2567,湛江市,坡头区环保局,细颗粒物(PM2.5),90,75,51,67,42,111,69,76,72,27,17,38,17,0.6,0.5
2022-12-22T02:00:00,1686A,111.0286,21.4688,茂名市,电白南海,细颗粒物(PM2.5),77,100,72,56,38,123,15,16,16,62,27,19,13,0.6,0.5
2022-12-22T02:00:00,1687A,110.9294,21.6533,茂名市,茂石化七小,细颗粒物(PM2.5),83,90,55,61,37,104,64,54,54,22,20,42,16,0.7,0.6
2022-12-22T02:00:00,1688A,110.9107,21.6687,茂名市,健康路,细颗粒物(PM2.5),74,88,55,54,34,116,66,60,60,24,20,77,24,0.8,0.6
2022-12-22T02:00:00,1689A,110.8592,21.6828,茂名市,高岭,细颗粒物(PM2.5),73,83,70,53,45,105,37,48,42,43,30,23,26,0.6,0.7
2022-12-22T02:00:00,1690A,116.1231,24.3284,梅州市,梅江月梅,,35,35,30,24,17,87,37,30,30,25,28,6,7,0.4,0.4
2022-12-22T02:00:00,1691A,116.0797,24.2719,梅州市,梅县新城,,35,35,30,24,18,89,3,4,4,56,25,6,8,0.5,0.5
2022-12-22T02:00:00,1692A,116.1248,24.2654,梅州市,环境监控中心,,37,37,35,24,20,89,8,14,11,51,30,8,10,0.5,0.5
2022-12-22T02:00:00,1693A,115.3653,22.775,汕尾市,市环保局,,24,21,29,15,16,85,75,75,75,7,11,10,9,0.3,0.3
2022-12-22T02:00:00,1694A,115.3706,22.7898,汕尾市,市政府,,25,18,24,14,16,92,78,76,76,8,10,10,10,0.4,0.4
2022-12-22T02:00:00,1695A,115.3622,22.7925,汕尾市,新城中学,,24,14,29,4,12,84,76,76,76,8,8,11,10,0.5,0.4
2022-12-22T02:00:00,1696A,114.6778,23.7569,河源市,源西(对照点),,32,28,32,22,20,104,78,83,80,17,17,8,7,0.5,0.5
2022-12-22T02:00:00,1697A,114.6944,23.7586,河源市,东埔,,,34,32,24,20,105,71,74,72,13,14,,8,0.4,0.4
2022-12-22T02:00:00,1698A,114.6892,23.7233,河源市,老城,,40,40,39,22,18,104,73,72,72,18,17,7,7,0.4,0.4
2022-12-22T02:00:00,1699A,111.9797,21.8593,阳江市,鸳鸯湖(对照点),,50,35,48,35,31,98,29,32,30,37,22,6,7,0.7,0.5
2022-12-22T02:00:00,1701A,111.9491,21.8658,阳江市,马南垌,,45,37,40,31,28,103,31,46,38,46,23,6,6,0.5,0.5
2022-12-22T02:00:00,1702A,113.0426,23.691,清远市,环保大楼(对照点),,45,45,33,30,24,119,85,80,80,16,15,7,6,0.5,0.5
2022-12-22T02:00:00,1703A,113.0208,23.7106,清远市,凤城街办,,45,45,37,27,23,91,68,74,71,12,9,7,10,0.5,0.5
2022-12-22T02:00:00,1705A,116.6367,23.6719,潮州市,西园路(对照点),,28,19,26,19,13,83,75,74,74,6,13,8,8,0.3,0.5
2022-12-22T02:00:00,1706A,116.6447,23.6706,潮州市,档案局,,27,27,30,12,19,87,76,74,74,6,13,8,8,0.4,0.6
2022-12-22T02:00:00,1708A,116.3701,23.5345,揭阳市,新兴,,29,29,42,15,24,94,60,58,58,11,20,9,10,0.4,0.6
2022-12-22T02:00:00,1709A,116.3264,23.5443,揭阳市,西马,,30,30,43,20,25,78,62,62,62,10,19,9,10,0.3,0.5
2022-12-22T02:00:00,1710A,116.3611,23.5626,揭阳市,东兴,,28,28,46,14,21,87,49,44,44,25,32,6,8,0.4,0.6
2022-12-22T02:00:00,1711A,116.4151,23.5294,揭阳市,渔湖,,38,28,43,26,25,94,78,64,64,13,23,8,11,0.3,0.4
2022-12-22T02:00:00,1712A,112.0392,22.9169,云浮市,新市府(对照点),,33,19,34,23,28,107,40,40,40,15,20,8,10,0.5,0.4
2022-12-22T02:00:00,1714A,112.0539,22.9539,云浮市,牧羊,颗粒物(PM10),69,87,48,32,26,104,8,13,10,45,32,24,23,0.6,0.5
2022-12-22T02:00:00,1715A,102.575,24.3711,玉溪市,东风水库,细颗粒物(PM2.5),77,68,46,56,41,46,7,6,6,35,18,4,5,1.0,1
2022-12-22T02:00:00,1718A,115.4208,35.2464,菏泽市,气象局,颗粒物(PM10),102,153,169,20,59,86,51,48,48,20,36,8,18,0.4,0.8
2022-12-22T02:00:00,1719A,115.4747,35.2375,菏泽市,市政协,颗粒物(PM10),93,135,158,24,53,82,44,43,43,28,48,16,20,0.5,0.9
2022-12-22T02:00:00,1721A,113.3819,40.1097,大同市,果树场(对照点),,,,,,,,,,,,,,,,
2022-12-22T02:00:00,1723A,113.2994,40.0758,大同市,云冈宾馆,,22,22,53,2,10,67,48,47,47,10,19,29,13,0.4,0.6
2022-12-22T02:00:00,1724A,113.3444,40.0917,大同市,大同大学,,21,21,57,8,10,68,35,51,43,21,19,15,15,0.5,0.5
2022-12-22T02:00:00,1725A,113.2661,40.1269,大同市,安家小村,,18,15,72,12,11,73,40,63,52,20,16,16,16,0.5,0.6
2022-12-22T02:00:00,1726A,113.2711,40.0844,大同市,教育学院,,26,17,66,18,18,64,42,41,41,12,18,24,19,0.3,0.5
2022-12-22T02:00:00,1727A,113.1147,36.1547,长治市,清华站,颗粒物(PM10),75,99,78,9,12,78,57,59,58,6,9,6,7,0.5,0.4
2022-12-22T02:00:00,1728A,113.1031,36.1989,长治市,监测站,颗粒物(PM10),75,100,69,14,13,76,53,53,53,11,14,11,10,0.4,0.4
2022-12-22T02:00:00,1730A,113.0886,36.2125,长治市,审计局,颗粒物(PM10),71,91,66,12,14,78,52,53,52,11,12,6,6,0.3,0.3
2022-12-22T02:00:00,1731A,113.0844,36.1856,长治市,长治八中,颗粒物(PM10),78,106,80,11,16,78,54,54,54,8,13,12,15,0.2,0.3
2022-12-22T02:00:00,1733A,111.5531,36.0783,临汾市,临钢医院,颗粒物(PM10),59,68,79,8,14,80,61,61,61,8,14,2,2,0.4,0.5
2022-12-22T02:00:00,1734A,111.5028,36.0714,临汾市,技工学校,颗粒物(PM10),56,61,93,6,18,77,64,65,64,10,17,5,5,0.2,0.3
2022-12-22T02:00:00,1736A,111.5018,36.0855,临汾市,市委,,,,87,,14,62,,67,,,11,,4,,0.5
2022-12-22T02:00:00,1738A,113.5758,37.8572,阳泉市,市中心,,,,61,,19,58,,56,,,24,,14,,0.5
2022-12-22T02:00:00,1739A,113.4894,37.8731,阳泉市,赛鱼,颗粒物(PM10),57,64,77,10,16,74,53,58,56,17,25,7,8,0.5,0.5
2022-12-22T02:00:00,1740A,113.5819,37.8486,阳泉市,南庄,颗粒物(PM10),54,58,86,23,27,78,65,66,66,9,15,6,10,0.6,0.7
2022-12-22T02:00:00,1742A,113.5614,37.8703,阳泉市,平坦,颗粒物(PM10),51,52,83,6,16,77,61,62,62,12,16,7,9,0.6,0.7
2022-12-22T02:00:00,1743A,113.5158,37.8392,阳泉市,大阳泉,颗粒物(PM10),52,53,73,23,23,82,62,66,64,14,12,8,8,0.4,0.5
2022-12-22T02:00:00,1744A,118.9233,42.2816,赤峰市,松山一中,,,,20,,9,55,,56,,,16,,10,,0.3
2022-12-22T02:00:00,1745A,118.9576,42.2728,赤峰市,哈达街,,18,9,20,10,9,66,57,59,58,6,10,11,11,0.5,0.5
2022-12-22T02:00:00,1746A,118.8788,42.2554,赤峰市,天义路,,18,12,18,8,6,64,57,60,58,8,15,17,18,0.4,0.5
2022-12-22T02:00:00,1748A,123.044,41.1196,鞍山市,深沟寺,细颗粒物(PM2.5),64,59,47,46,29,59,20,36,28,42,17,9,10,2.1,0.8
2022-12-22T02:00:00,1749A,123.011,41.0931,鞍山市,太阳城,细颗粒物(PM2.5),60,55,44,43,26,56,30,37,34,29,20,12,16,1.9,1.1
2022-12-22T02:00:00,1750A,123.0485,41.1442,鞍山市,太平,细颗粒物(PM2.5),59,60,52,42,31,61,25,28,26,37,20,12,14,1.8,0.7
2022-12-22T02:00:00,1751A,122.9642,41.0971,鞍山市,铁西三道街,细颗粒物(PM2.5),64,67,53,46,31,62,28,28,28,31,23,25,19,1.5,1.5
2022-12-22T02:00:00,1752A,122.9341,41.0833,鞍山市,铁西工业园区,细颗粒物(PM2.5),75,70,52,55,33,57,22,28,25,37,24,13,18,1.6,1.1
2022-12-22T02:00:00,1753A,123.022,41.0821,鞍山市,明达新区,细颗粒物(PM2.5),54,53,43,38,25,51,25,38,32,35,19,15,14,1.8,1
2022-12-22T02:00:00,1754A,123.1289,41.0228,鞍山市,千山(对照点),,,,,,,,,,,,,,,,
2022-12-22T02:00:00,1755A,123.7977,41.8491,抚顺市,望花区,,36,28,48,25,34,63,38,36,36,21,19,11,15,0.4,0.5
2022-12-22T02:00:00,1756A,123.9161,41.8822,抚顺市,顺城区,细颗粒物(PM2.5),54,50,51,38,38,71,35,35,35,28,22,8,10,0.6,0.5
2022-12-22T02:00:00,1757A,124.0436,41.8611,抚顺市,东洲区,,33,27,60,23,34,70,51,50,50,14,16,5,9,0.7,0.8
2022-12-22T02:00:00,1758A,123.9247,41.8642,抚顺市,新抚区,,39,34,47,27,36,67,49,56,52,17,19,4,6,0.5,0.6
2022-12-22T02:00:00,1759A,124.0972,41.8961,抚顺市,大伙房水库,,46,31,53,32,42,75,40,38,38,18,15,4,6,0.6,0.7
2022-12-22T02:00:00,1760A,123.7086,41.8391,抚顺市,沈抚新城,,36,20,43,25,31,57,11,13,12,47,30,7,11,0.4,0.4
2022-12-22T02:00:00,1761A,123.8275,41.3064,本溪市,大峪,,31,31,51,18,31,50,42,42,42,12,19,8,13,0.7,0.7
2022-12-22T02:00:00,1762A,123.7567,41.3325,本溪市,溪湖,颗粒物(PM10),52,54,67,22,34,58,40,53,46,20,20,8,14,0.5,0.6
2022-12-22T02:00:00,1763A,123.7169,41.3094,本溪市,彩屯,,46,46,65,27,34,59,37,43,40,24,20,9,12,0.8,0.7
2022-12-22T02:00:00,1764A,123.7669,41.2864,本溪市,东明,,35,23,52,24,35,59,49,59,54,20,26,17,19,0.5,0.6
2022-12-22T02:00:00,1765A,123.7992,41.2664,本溪市,新立屯,,32,25,57,22,35,59,46,54,50,17,22,6,13,0.5,0.7
2022-12-22T02:00:00,1766A,123.8142,41.3472,本溪市,威宁,,49,26,58,34,39,53,8,20,14,51,24,6,8,0.8,0.8
2022-12-22T02:00:00,1767A,121.1115,41.0879,锦州市,南山,,20,16,41,9,9,67,62,62,62,4,7,13,12,0.3,0.3
2022-12-22T02:00:00,1768A,121.0533,40.8434,锦州市,开发区,颗粒物(PM10),58,66,71,33,29,70,22,16,16,42,26,125,28,0.9,0.6
2022-12-22T02:00:00,1769A,121.1836,41.1119,锦州市,百股街道,,31,31,70,7,15,68,57,59,58,6,9,15,10,0.4,0.4
2022-12-22T02:00:00,1770A,121.1178,41.1222,锦州市,天安街道,,22,22,52,10,12,64,56,59,58,6,7,14,10,0.2,0.2
2022-12-22T02:00:00,1771A,121.1303,41.1386,锦州市,北湖公园,,20,20,52,10,18,63,57,59,58,4,8,10,8,0.4,0.5
2022-12-22T02:00:00,1772A,126.54,43.8622,吉林市,哈达湾,颗粒物(PM10),56,62,67,34,49,72,50,55,52,17,21,9,9,0.6,0.7
2022-12-22T02:00:00,1773A,126.5844,43.8358,吉林市,东局子,,50,46,66,35,50,69,46,51,48,21,23,8,8,0.6,0.7
2022-12-22T02:00:00,1774A,126.5052,43.8245,吉林市,电力学院,颗粒物(PM10),53,56,66,33,51,68,50,53,52,12,18,10,11,1.2,1.3
2022-12-22T02:00:00,1775A,126.6133,43.8972,吉林市,江北,,50,50,76,35,51,59,53,52,52,13,21,13,14,1.1,1.3
2022-12-22T02:00:00,1776A,126.555,43.8306,吉林市,江南公园,细颗粒物(PM2.5),54,53,75,38,51,66,49,52,50,17,22,9,10,0.6,0.7
2022-12-22T02:00:00,1778A,126.7061,43.7133,吉林市,丰满(对照点),,,,,,,,,,,,,,,,
2022-12-22T02:00:00,1779A,123.9305,47.3636,齐齐哈尔市,安居小区,,18,10,54,4,45,56,56,56,56,2,11,5,6,0.2,0.5
2022-12-22T02:00:00,1780A,123.9488,47.3386,齐齐哈尔市,中心广场,,19,8,66,2,35,62,59,61,60,6,15,3,4,0.3,0.6
2022-12-22T02:00:00,1781A,123.9483,47.3227,齐齐哈尔市,农牧车辆厂,,19,7,48,3,34,62,60,61,60,5,13,7,10,0.2,0.4
2022-12-22T02:00:00,1783A,123.945,47.2988,齐齐哈尔市,市环境监测站,,19,11,49,12,48,61,59,60,60,6,17,4,7,0.2,0.4
2022-12-22T02:00:00,1784A,129.61,44.561,牡丹江市,环保大楼,细颗粒物(PM2.5),95,105,68,71,46,38,26,24,24,31,34,6,16,0.9,0.7
2022-12-22T02:00:00,1785A,129.6115,44.5782,牡丹江市,文化广场,细颗粒物(PM2.5),144,82,77,110,45,38,25,28,26,30,34,8,17,0.9,0.7
2022-12-22T02:00:00,1786A,129.5904,44.5963,牡丹江市,第一医院,细颗粒物(PM2.5),115,95,72,87,53,40,31,29,29,26,33,7,10,0.9,0.8
2022-12-22T02:00:00,1787A,129.6364,44.6075,牡丹江市,机车工厂,细颗粒物(PM2.5),109,111,81,82,51,46,28,26,26,29,31,5,7,0.9,0.7
2022-12-22T02:00:00,1788A,129.6386,44.5462,牡丹江市,第一中学,细颗粒物(PM2.5),117,100,64,88,51,45,31,28,28,26,29,5,8,0.9,0.7
2022-12-22T02:00:00,1789A,124.81117,46.03138,大庆市,大同区,,17,12,62,10,47,64,54,54,54,7,16,6,7,0.3,0.5
2022-12-22T02:00:00,1790A,125.129,46.533,大庆市,龙凤区,,22,22,50,14,30,61,50,50,50,12,17,16,22,0.2,0.3
2022-12-22T02:00:00,1791A,124.902,46.408,大庆市,红岗区,,22,21,55,15,39,58,49,54,52,11,21,8,10,0.1,0.4
2022-12-22T02:00:00,1792A,125.153,46.586,大庆市,萨尔图区,,19,7,50,13,46,61,55,55,55,6,15,6,7,0.1,0.4
2022-12-22T02:00:00,1793A,124.9042,46.6215,大庆市,让胡路区,,22,22,58,14,41,67,56,57,56,5,12,7,7,0.3,0.5
2022-12-22T02:00:00,1794A,118.3606,31.3519,芜湖市,监测站,细颗粒物(PM2.5),102,115,127,76,66,88,62,58,58,36,56,14,16,0.8,0.8
2022-12-22T02:00:00,1795A,118.3714,31.4134,芜湖市,科创中心,细颗粒物(PM2.5),123,114,117,93,75,86,50,49,49,31,49,9,12,0.6,0.6
2022-12-22T02:00:00,1796A,118.3673,31.3131,芜湖市,四水厂,细颗粒物(PM2.5),102,112,111,76,63,90,59,54,54,40,63,13,16,0.7,0.6
2022-12-22T02:00:00,1798A,118.5092,31.6837,马鞍山市,湖东路四小,细颗粒物(PM2.5),92,82,104,68,67,87,56,63,60,38,42,15,12,1.1,0.9
2022-12-22T02:00:00,1799A,118.5024,31.6449,马鞍山市,开发区,细颗粒物(PM2.5),112,99,103,84,65,84,34,50,42,56,52,10,9,0.9,0.8
2022-12-22T02:00:00,1800A,118.5228,31.7231,马鞍山市,慈湖,细颗粒物(PM2.5),94,118,116,70,66,83,49,40,40,44,51,19,17,1.9,1.3
2022-12-22T02:00:00,1802A,118.6245,31.7241,马鞍山市,濮塘(对照点),细颗粒物(PM2.5),104,130,129,78,58,82,51,59,55,36,31,23,16,1.2,0.8
2022-12-22T02:00:00,1803A,115.9872,29.6815,九江市,十里,细颗粒物(PM2.5),65,64,87,47,48,103,5,4,4,55,51,8,10,0.7,0.9
2022-12-22T02:00:00,1804A,115.9584,29.7046,九江市,茅山头,细颗粒物(PM2.5),62,61,72,44,43,96,2,8,5,74,46,9,10,0.7,0.8
2022-12-22T02:00:00,1805A,115.9877,29.7295,九江市,西园,细颗粒物(PM2.5),59,63,74,42,53,89,5,4,4,71,51,6,10,0.7,0.7
2022-12-22T02:00:00,1806A,116.0172,29.6547,九江市,五七二七厂,颗粒物(PM10),53,56,74,23,43,99,54,57,56,26,20,8,9,0.6,0.7
2022-12-22T02:00:00,1808A,115.9114,29.6038,九江市,综合工业园,颗粒物(PM10),60,70,84,39,55,98,23,32,28,62,52,9,10,0.6,0.9
2022-12-22T02:00:00,1809A,116.0721,29.7535,九江市,石化总厂,颗粒物(PM10),71,91,97,47,51,99,32,38,35,44,47,21,19,0.7,0.8
2022-12-22T02:00:00,1810A,115.9773,29.5698,九江市,庐山气象台(对照点),,41,41,50,17,30,88,85,84,84,11,20,6,8,0.7,0.9
2022-12-22T02:00:00,1812A,112.3931,34.6516,洛阳市,市委党校,颗粒物(PM10),54,58,141,8,33,76,68,74,71,11,28,6,9,0.2,0.6
2022-12-22T02:00:00,1814A,112.4657,34.6871,洛阳市,豫西宾馆,颗粒物(PM10),51,52,155,12,36,81,72,75,74,8,32,3,8,0.4,0.7
2022-12-22T02:00:00,1815A,112.494,34.6886,洛阳市,河南林校,颗粒物(PM10),54,58,154,12,35,88,76,79,78,7,30,1,4,0.2,0.6
2022-12-22T02:00:00,1816A,112.3844,34.623,洛阳市,开发区管委会,颗粒物(PM10),56,62,131,19,33,88,78,81,80,3,19,4,6,0.1,0.3
2022-12-22T02:00:00,1817A,112.4267,34.6258,洛阳市,市委新办公区,颗粒物(PM10),53,55,135,11,33,84,76,80,78,14,28,4,6,0.2,0.4
2022-12-22T02:00:00,1818A,114.4839,36.0621,安阳市,棉研所(对照点),,,,,,,,,,,,,,,,
2022-12-22T02:00:00,1819A,114.3551,36.1017,安阳市,红庙街,颗粒物(PM10),121,191,117,10,27,61,48,48,48,12,29,3,5,0.3,0.7
2022-12-22T02:00:00,1820A,114.361,36.0681,安阳市,银杏小区,颗粒物(PM10),121,191,129,25,40,70,55,55,55,11,32,4,8,0.4,0.7
2022-12-22T02:00:00,1824A,114.3389,34.7781,开封市,肿瘤医院,颗粒物(PM10),124,197,125,31,28,74,46,46,46,15,20,3,4,0.7,0.7
2022-12-22T02:00:00,1826A,114.2885,34.7965,开封市,世纪星幼儿园,颗粒物(PM10),109,167,119,27,27,76,50,48,48,15,19,4,5,0.6,0.6
2022-12-22T02:00:00,1828A,113.227,35.2125,焦作市,市环保局,颗粒物(PM10),65,80,100,7,13,81,68,70,69,4,11,4,5,0.3,0.3
2022-12-22T02:00:00,1830A,113.1992,35.2590,焦作市,影视城(对照点),,,,,,,,,,,,,,,,
2022-12-22T02:00:00,1832A,113.3257,33.742,平顶山市,新华旅馆,颗粒物(PM10),89,128,159,15,85,90,67,64,64,12,38,6,9,0.2,0.6
2022-12-22T02:00:00,1833A,113.2919,33.737,平顶山市,规划设计院,颗粒物(PM10),89,128,148,14,76,97,68,61,61,10,37,7,10,0.3,0.8
2022-12-22T02:00:00,1834A,113.182,33.774,平顶山市,平顶山工学院,颗粒物(PM10),69,88,128,9,54,99,68,60,60,15,31,3,8,0.7,1
2022-12-22T02:00:00,1835A,111.1922,34.7752,三门峡市,市政府,颗粒物(PM10),69,87,135,15,33,87,77,77,77,9,28,6,14,0.3,0.6
2022-12-22T02:00:00,1836A,111.1587,34.7942,三门峡市,开发区,颗粒物(PM10),58,65,150,22,36,86,76,76,76,6,22,4,8,0.2,0.4
2022-12-22T02:00:00,1838A,111.143,34.7955,三门峡市,风景区(对照点),,,,,,,,,,,,,,,,
2022-12-22T02:00:00,1840A,111.2992,30.6981,宜昌市,白龙岗,颗粒物(PM10),52,53,66,34,36,79,39,40,40,20,22,5,5,0.8,0.8
2022-12-22T02:00:00,1841A,111.3549,30.6465,宜昌市,伍家岗,颗粒物(PM10),62,74,81,41,50,84,19,15,15,45,43,2,2,0.8,0.8
2022-12-22T02:00:00,1842A,111.2628,30.6961,宜昌市,点军区,细颗粒物(PM2.5),79,83,67,58,42,90,22,25,24,23,19,5,5,0.9,0.6
2022-12-22T02:00:00,1843A,111.3275,30.7819,宜昌市,夷陵区,颗粒物(PM10),63,76,64,44,38,96,21,19,19,34,27,5,6,0.6,0.6
2022-12-22T02:00:00,1844A,112.2494,30.3197,荆州市,市图书馆,细颗粒物(PM2.5),97,85,94,72,89,111,22,36,29,46,34,6,7,0.7,0.7
2022-12-22T02:00:00,1845A,112.2008,30.3544,荆州市,市委党校,细颗粒物(PM2.5),107,94,101,80,86,111,28,33,30,34,30,6,8,0.8,0.8
2022-12-22T02:00:00,1847A,113.1094,29.3578,岳阳市,南湖风景区,细颗粒物(PM2.5),62,70,89,44,64,104,71,75,73,32,37,16,12,0.9,0.9
2022-12-22T02:00:00,1848A,113.1493,29.4251,岳阳市,城陵矶,颗粒物(PM10),69,88,97,49,65,103,56,50,50,39,38,16,15,0.7,0.9
2022-12-22T02:00:00,1849A,113.1497,29.3575,岳阳市,开发区,细颗粒物(PM2.5),75,74,89,55,71,103,40,41,40,45,38,12,11,0.5,0.6
2022-12-22T02:00:00,1850A,113.2621,29.4758,岳阳市,云溪区,颗粒物(PM10),61,72,84,40,55,102,77,79,78,22,26,8,10,0.5,0.6
2022-12-22T02:00:00,1851A,112.9943,29.4402,岳阳市,君山区,细颗粒物(PM2.5),70,84,93,51,77,102,49,52,50,39,36,16,13,0.6,0.7
2022-12-22T02:00:00,1852A,113.2117,29.355,岳阳市,金凤水库(对照点),细颗粒物(PM2.5),62,68,84,44,58,102,52,48,48,27,27,10,12,0.7,0.8
2022-12-22T02:00:00,1854A,111.6975,28.9703,常德市,市二中,,46,45,67,32,54,81,57,56,56,12,18,3,4,0.3,0.4
2022-12-22T02:00:00,1857A,111.7158,29.1456,常德市,白鹤山(对照点),,39,39,52,25,34,88,73,83,78,7,8,2,5,0.2,0.3
2022-12-22T02:00:00,1858A,110.5319,29.1217,张家界市,永定新区,细颗粒物(PM2.5),99,92,89,74,67,86,30,28,28,30,25,4,5,0.9,0.8
2022-12-22T02:00:00,1859A,110.4697,29.1242,张家界市,电业局,细颗粒物(PM2.5),84,78,77,62,60,88,17,14,14,27,24,4,5,1.0,0.8
2022-12-22T02:00:00,1860A,110.5594,29.3547,张家界市,未央路,,40,38,52,28,37,90,45,46,46,3,7,2,2,0.6,0.7
2022-12-22T02:00:00,1861A,110.4417,29.315,张家界市,袁家界(对照点),,29,20,40,12,27,103,91,93,92,3,4,8,9,0.5,0.5
2022-12-22T02:00:00,1862A,110.4144,25.3167,桂林市,电子科大尧山校区(对照点),,36,36,49,22,35,104,35,52,44,20,10,4,4,0.5,0.6
2022-12-22T02:00:00,1863A,110.2819,25.2697,桂林市,监测站,,43,40,63,30,45,105,36,52,44,28,21,8,11,0.6,0.6
2022-12-22T02:00:00,1864A,110.3089,25.2708,桂林市,龙隐路小学,,46,25,57,32,46,104,40,43,42,24,18,22,18,0.4,0.6
2022-12-22T02:00:00,1865A,110.2869,25.2178,桂林市,八中,,46,44,57,32,43,105,24,50,37,35,22,10,13,0.5,0.5
2022-12-22T02:00:00,1866A,109.2262,21.588,北海市,牛尾岭水库(对照点),细颗粒物(PM2.5),70,64,59,51,49,98,52,65,58,20,17,9,11,0.2,1.4
2022-12-22T02:00:00,1867A,109.1436,21.4086,北海市,海滩公园,细颗粒物(PM2.5),62,68,64,44,44,125,97,98,98,13,12,11,10,0.7,0.6
2022-12-22T02:00:00,1868A,109.0981,21.4661,北海市,新市环保局,细颗粒物(PM2.5),73,70,64,53,58,128,95,98,96,18,18,8,10,0.5,0.5
2022-12-22T02:00:00,1869A,109.1778,21.5233,北海市,北海工业园,细颗粒物(PM2.5),74,79,73,54,53,121,73,86,80,28,20,13,11,0.6,0.5
2022-12-22T02:00:00,1870A,109.4856,24.3895,柳州市,柳东小学,细颗粒物(PM2.5),99,82,54,74,47,103,65,74,70,18,13,40,12,0.6,0.5
2022-12-22T02:00:00,1871A,109.4157,24.3277,柳州市,环保监测站,细颗粒物(PM2.5),108,112,61,81,47,99,32,26,26,46,27,15,11,0.6,0.4
2022-12-22T02:00:00,1872A,109.389,24.341,柳州市,河西水厂,细颗粒物(PM2.5),83,114,74,61,41,98,14,12,12,52,32,12,13,1.1,1.1
2022-12-22T02:00:00,1873A,109.4311,24.2921,柳州市,市四中,细颗粒物(PM2.5),69,76,63,50,47,106,37,26,26,36,29,17,13,0.9,0.9
2022-12-22T02:00:00,1874A,109.4006,24.3631,柳州市,市九中,细颗粒物(PM2.5),153,113,80,117,51,96,14,22,18,59,28,16,14,1.2,1.1
2022-12-22T02:00:00,1875A,109.4958,24.3134,柳州市,古亭山,,40,36,51,28,36,103,3,4,4,71,28,13,13,0.8,0.7
2022-12-22T02:00:00,1876A,109.5078,18.2489,三亚市,河东子站,,36,36,26,25,16,101,70,68,68,10,9,2,3,0.4,0.4
2022-12-22T02:00:00,1877A,109.4964,18.2681,三亚市,河西子站,,39,39,24,27,14,102,62,60,60,11,10,2,2,0.4,0.3
2022-12-22T02:00:00,1878A,104.7778,31.4741,绵阳市,富乐山,细颗粒物(PM2.5),98,101,87,73,61,115,2,3,2,69,35,2,4,0.9,0.7
2022-12-22T02:00:00,1879A,104.7563,31.4535,绵阳市,市人大,细颗粒物(PM2.5),113,115,99,85,62,106,0,1,0,70,57,2,4,0.9,1
2022-12-22T02:00:00,1880A,104.6697,31.4668,绵阳市,高新区自来水公司,细颗粒物(PM2.5),97,136,127,72,74,108,2,2,2,54,48,7,8,1.1,1
2022-12-22T02:00:00,1881A,104.7287,31.5075,绵阳市,三水厂,细颗粒物(PM2.5),120,129,113,91,69,107,2,2,2,53,48,3,4,0.9,0.8
2022-12-22T02:00:00,1882A,104.563,28.793,宜宾市,石马中学(对照点),细颗粒物(PM2.5),94,94,73,70,58,88,14,8,8,28,26,6,7,0.7,0.7
2022-12-22T02:00:00,1883A,104.6201,28.7728,宜宾市,市委,细颗粒物(PM2.5),109,108,82,82,65,91,11,10,10,39,35,9,10,,0.6
2022-12-22T02:00:00,1884A,104.6055,28.793,宜宾市,宜宾四中,细颗粒物(PM2.5),125,118,80,95,65,94,17,14,14,37,39,9,9,0.7,0.6
2022-12-22T02:00:00,1885A,104.639,28.7562,宜宾市,市政府,细颗粒物(PM2.5),103,112,79,77,60,102,0,0,0,61,43,9,9,1.0,0.9
2022-12-22T02:00:00,1886A,104.5742,28.7199,宜宾市,黄金嘴,细颗粒物(PM2.5),112,107,75,84,60,94,3,3,3,44,29,10,10,0.8,0.7
2022-12-22T02:00:00,1888A,101.6891,26.571,攀枝花市,弄弄坪,颗粒物(PM10),54,58,48,36,29,82,37,38,38,19,25,23,30,1.1,1.1
2022-12-22T02:00:00,1889A,101.5769,26.5928,攀枝花市,河门口,细颗粒物(PM2.5),64,67,54,46,34,79,18,26,22,34,26,26,38,1.6,1.5
2022-12-22T02:00:00,1890A,101.7169,26.585,攀枝花市,炳草岗,颗粒物(PM10),57,64,47,35,28,80,34,37,36,21,28,43,42,0.9,1.1
2022-12-22T02:00:00,1891A,101.7369,26.5008,攀枝花市,仁和,细颗粒物(PM2.5),63,67,60,45,40,88,22,26,24,23,23,36,19,1.7,1.1
2022-12-22T02:00:00,1893A,105.4324,28.9634,泸州市,九狮山(对照点),细颗粒物(PM2.5),108,92,67,81,55,85,7,8,8,14,16,7,8,0.5,0.5
2022-12-22T02:00:00,1894A,105.4427,28.9063,泸州市,小市上码头,细颗粒物(PM2.5),212,202,112,162,82,71,13,14,14,46,28,7,8,0.9,0.6
2022-12-22T02:00:00,1895A,105.4241,28.8573,泸州市,兰田宪桥,细颗粒物(PM2.5),203,185,102,153,77,79,7,6,6,40,28,15,7,0.9,0.7
2022-12-22T02:00:00,1896A,105.4379,28.8833,泸州市,市环监站,,,,,,,,,,,,,,,,
2022-12-22T02:00:00,1901A,104.4239,31.1208,德阳市,东山公园,细颗粒物(PM2.5),125,148,108,95,74,107,6,16,11,87,38,13,10,0.8,0.9
2022-12-22T02:00:00,1902A,104.3826,31.1317,德阳市,西小区,细颗粒物(PM2.5),123,123,111,93,77,101,10,8,8,64,55,23,7,1.0,0.9
2022-12-22T02:00:00,1904A,104.3553,31.1091,德阳市,耐火材料厂,细颗粒物(PM2.5),135,160,145,103,80,105,7,18,12,56,47,24,9,0.9,0.8
2022-12-22T02:00:00,1905A,106.056,30.8064,南充市,西山风景区(对照点),细颗粒物(PM2.5),113,107,117,85,91,98,75,83,79,13,20,5,7,0.9,1
2022-12-22T02:00:00,1906A,106.0789,30.8023,南充市,南充市委,细颗粒物(PM2.5),103,110,128,77,93,95,25,35,30,28,35,5,9,0.6,0.8
2022-12-22T02:00:00,1907A,106.1031,30.8217,南充市,南充炼油厂,细颗粒物(PM2.5),119,118,135,90,96,114,25,36,30,36,26,7,11,1.0,0.9
2022-12-22T02:00:00,1908A,106.1064,30.7856,南充市,高坪区监测站,细颗粒物(PM2.5),127,149,143,96,100,99,6,6,6,52,35,9,14,0.7,0.8
2022-12-22T02:00:00,1909A,106.0642,30.7636,南充市,嘉陵区环保局,细颗粒物(PM2.5),110,108,124,83,84,96,3,5,4,64,42,6,9,0.9,0.9
2022-12-22T02:00:00,1910A,106.1087,30.8388,南充市,市环境监测站,细颗粒物(PM2.5),99,118,126,74,90,95,48,48,48,24,24,9,9,0.9,0.8
2022-12-22T02:00:00,1911A,106.9222,27.6869,遵义市,丁字口,细颗粒物(PM2.5),68,48,67,49,47,107,18,16,16,49,38,47,40,0.9,0.8
2022-12-22T02:00:00,1912A,106.9242,27.7019,遵义市,凤凰山,颗粒物(PM10),51,51,66,28,35,115,74,72,72,20,24,18,14,0.6,0.7
2022-12-22T02:00:00,1913A,106.8906,27.6486,遵义市,忠庄,细颗粒物(PM2.5),90,90,75,67,47,102,14,37,26,59,32,20,11,0.9,0.8
2022-12-22T02:00:00,1914A,106.9231,27.6506,遵义市,舟水桥,细颗粒物(PM2.5),64,70,70,46,45,99,8,8,8,32,28,13,19,0.9,0.8
2022-12-22T02:00:00,1915A,106.9178,27.72,遵义市,干田坝,细颗粒物(PM2.5),57,53,64,40,41,107,19,16,16,43,37,16,19,0.7,0.6
2022-12-22T02:00:00,1916A,103.7897,25.5035,曲靖市,环境监测站,细颗粒物(PM2.5),63,71,44,45,35,98,20,26,23,29,18,12,7,1.0,0.7
2022-12-22T02:00:00,1917A,103.8,25.5364,曲靖市,烟厂办公区,颗粒物(PM10),61,72,44,39,30,94,28,30,29,26,17,18,12,1.0,0.9
2022-12-22T02:00:00,1918A,108.7197,34.3956,咸阳市,气象站(对照点),颗粒物(PM10),71,92,140,13,57,55,41,42,42,20,45,10,12,0.5,0.8
2022-12-22T02:00:00,1919A,108.673,34.3155,咸阳市,实验中学,颗粒物(PM10),72,93,140,16,60,74,53,56,54,26,48,6,7,0.4,0.7
2022-12-22T02:00:00,1920A,108.7233,34.3617,咸阳市,师范学院,颗粒物(PM10),69,88,138,18,76,69,55,59,57,19,41,8,10,0.7,0.8
2022-12-22T02:00:00,1922A,109.0656,35.0994,铜川市,党校(对照点),颗粒物(PM10),82,113,121,20,28,85,37,34,34,42,37,10,11,0.7,0.7
2022-12-22T02:00:00,1923A,109.0697,35.0697,铜川市,王益区政府,颗粒物(PM10),81,112,101,24,29,82,20,21,20,39,33,7,8,0.3,0.6
2022-12-22T02:00:00,1924A,108.9344,34.9058,铜川市,新区管委会,颗粒物(PM10),71,92,92,19,23,89,59,57,57,13,14,10,9,0.2,0.3
2022-12-22T02:00:00,1926A,109.4131,36.6275,延安市,枣园(对照点),颗粒物(PM10),55,60,98,12,17,90,14,10,10,37,22,5,6,1.0,0.9
2022-12-22T02:00:00,1927A,109.4761,36.6028,延安市,延大医附院,,45,45,83,14,25,76,8,8,8,53,35,6,6,1.3,0.8
2022-12-22T02:00:00,1929A,109.5056,36.6106,延安市,百米大道,颗粒物(PM10),58,65,108,15,23,88,47,60,54,23,28,5,8,0.8,0.6
2022-12-22T02:00:00,1930A,107.185,34.3063,宝鸡市,庙沟村(对照点),颗粒物(PM10),55,59,88,19,26,84,48,46,46,18,14,4,4,0.6,0.6
2022-12-22T02:00:00,1931A,107.0708,34.3017,宝鸡市,竹园沟,,49,49,77,16,34,94,36,40,38,20,22,4,5,0.4,0.5
2022-12-22T02:00:00,1932A,107.1906,34.3672,宝鸡市,三陆医院,颗粒物(PM10),71,92,118,32,48,87,18,25,22,47,42,8,8,0.8,0.8
2022-12-22T02:00:00,1933A,107.1431,34.3547,宝鸡市,监测站,颗粒物(PM10),56,61,97,26,39,89,16,17,16,38,32,4,5,0.6,0.6
2022-12-22T02:00:00,1934A,107.1186,34.3739,宝鸡市,技工学校,颗粒物(PM10),62,73,107,35,44,87,24,28,26,31,34,6,5,0.6,0.7
2022-12-22T02:00:00,1935A,107.3906,34.3528,宝鸡市,陈仓区环保局家属楼,颗粒物(PM10),89,128,135,55,59,80,9,8,8,57,50,35,28,0.9,0.9
2022-12-22T02:00:00,1936A,107.2058,34.3497,宝鸡市,文理学院,颗粒物(PM10),67,83,110,39,45,89,16,20,18,42,36,7,8,0.7,0.7
2022-12-22T02:00:00,1937A,107.2386,34.3622,宝鸡市,三迪小学,颗粒物(PM10),67,83,117,45,45,83,15,14,14,45,43,7,7,0.6,0.6
2022-12-22T02:00:00,1938A,109.5293,34.5101,渭南市,农科所(对照点),颗粒物(PM10),64,78,135,14,39,81,63,70,66,16,41,8,12,0.5,0.7
2022-12-22T02:00:00,1939A,109.4974,34.4877,渭南市,日报社,颗粒物(PM10),69,88,138,21,42,71,67,71,69,14,52,9,16,0.3,0.6
2022-12-22T02:00:00,1940A,109.4636,34.493,渭南市,体育馆,颗粒物(PM10),73,95,138,18,42,61,61,60,60,14,50,6,10,0.4,0.5
2022-12-22T02:00:00,1941A,109.4259,34.5023,渭南市,高新一小,颗粒物(PM10),59,68,128,19,42,78,70,70,70,15,48,8,9,0.4,0.6
2022-12-22T02:00:00,1943A,102.1725,38.5339,金昌市,新川苑,,37,37,61,17,12,82,34,36,35,18,14,20,16,1.2,0.7
2022-12-22T02:00:00,1944A,102.1692,38.5167,金昌市,天庆家园,,42,42,52,19,14,82,31,30,30,28,20,18,29,1.3,0.8
2022-12-22T02:00:00,1945A,98.2908,39.7711,嘉峪关市,气象局,,36,36,40,12,20,89,70,68,68,13,26,12,11,0.1,0.2
2022-12-22T02:00:00,1947A,106.3394,38.817,石嘴山市,沙湖旅游区(对照点),颗粒物(PM10),53,55,63,18,15,84,27,40,34,32,19,15,15,0.8,0.7
2022-12-22T02:00:00,1948A,106.3668,39.0145,石嘴山市,大武口朝阳西街,颗粒物(PM10),57,64,56,19,13,88,17,22,20,51,14,16,8,0.5,0.2
2022-12-22T02:00:00,1949A,106.7704,39.2282,石嘴山市,惠农南大街,,40,40,80,7,18,81,37,36,36,22,21,8,16,0.2,0.4
2022-12-22T02:00:00,1950A,106.7099,39.1325,石嘴山市,红果子镇惠新街,,,49,58,11,15,87,39,38,38,24,18,8,13,,0.5
2022-12-22T02:00:00,1951A,84.895,45.6094,克拉玛依市,长征新村,细颗粒物(PM2.5),130,126,102,99,73,34,34,28,28,44,52,10,8,0.8,0.8
2022-12-22T02:00:00,1952A,84.8988,45.5893,克拉玛依市,南林小区,细颗粒物(PM2.5),118,138,116,89,76,35,32,30,30,37,46,8,6,0.8,0.8
2022-12-22T02:00:00,1954A,84.905,44.3396,克拉玛依市,独山子区,细颗粒物(PM2.5),89,103,66,66,40,88,54,44,44,35,40,6,6,0.7,0.7
2022-12-22T02:00:00,1955A,85.6979,46.098,克拉玛依市,乌尔禾区商贸楼,细颗粒物(PM2.5),120,134,104,91,81,52,22,20,20,43,40,4,5,0.9,0.9
2022-12-22T02:00:00,1956A,86.1472,41.7538,巴音郭楞州,孔雀公园,颗粒物(PM10),121,191,169,50,44,73,1,1,1,88,56,13,12,0.8,0.7
2022-12-22T02:00:00,1957A,86.1972,41.7166,巴音郭楞州,棉纺厂,颗粒物(PM10),122,194,199,36,40,69,16,16,16,49,34,6,8,0.5,0.5
2022-12-22T02:00:00,1958A,86.2357,41.7173,巴音郭楞州,经济开发区,颗粒物(PM10),99,148,154,27,29,69,30,24,24,33,27,9,11,0.4,0.4
2022-12-22T02:00:00,1961A,117.532,36.6868,济南市,东山小学,,44,44,91,20,45,65,29,24,24,32,43,21,15,0.5,0.6
2022-12-22T02:00:00,1966A,120.0405,35.8735,青岛市,黄岛区4号,,29,29,84,12,46,66,38,42,40,31,44,12,15,0.9,1
2022-12-22T02:00:00,1982A,122.0693,37.2174,威海市,文登开发区,,25,22,82,17,35,73,57,59,58,9,22,5,6,0.2,0.4
2022-12-22T02:00:00,2031A,113.1817,27.9958,株洲市,云田中学,细颗粒物(PM2.5),90,95,119,67,85,100,43,40,40,33,41,10,13,0.7,0.9
2022-12-22T02:00:00,2054A,114.1099,32.1059,信阳市,平桥分局,细颗粒物(PM2.5),175,166,132,132,92,99,14,12,12,53,34,8,9,1.2,0.9
2022-12-22T02:00:00,2064A,113.9956,32.1271,信阳市,南湾水厂,细颗粒物(PM2.5),132,118,109,100,80,105,57,68,62,23,20,7,8,0.7,0.9
2022-12-22T02:00:00,2065A,114.0775,32.1195,信阳市,市酿酒公司,细颗粒物(PM2.5),180,149,114,136,96,97,2,3,2,70,49,10,10,1.6,1.2
2022-12-22T02:00:00,2066A,114.0609,32.1399,信阳市,审计局,细颗粒物(PM2.5),170,173,121,129,96,97,4,4,4,58,44,10,10,1.1,1
2022-12-22T02:00:00,2067A,114.6613,33.6128,周口市,市环境监测站,颗粒物(PM10),106,161,148,26,50,85,49,59,54,18,29,7,7,0.3,0.5
2022-12-22T02:00:00,2068A,114.6758,33.6347,周口市,周口师范,颗粒物(PM10),113,175,147,32,54,90,51,60,56,22,33,8,8,0.5,0.6
2022-12-22T02:00:00,2069A,114.6546,33.5979,周口市,市运管处,颗粒物(PM10),135,219,156,31,60,89,52,61,56,20,28,5,6,0.3,0.6
2022-12-22T02:00:00,2070A,114.6369,33.6406,周口市,川汇区环保局,颗粒物(PM10),125,200,152,28,56,84,50,64,57,24,34,4,4,0.4,0.6
2022-12-22T02:00:00,2075A,117.6336,24.4674,漳州市,九湖(对照点),,,,,,,,,,,,,,,,
2022-12-22T02:00:00,2160A,112.85,35.5051,晋城市,自来水公司,颗粒物(PM10),70,89,72,5,12,91,76,76,76,6,12,4,5,0.4,0.4
2022-12-22T02:00:00,2161A,112.8318,35.4936,晋城市,白云商贸,颗粒物(PM10),60,70,77,2,9,90,79,78,78,5,12,5,5,0.4,0.4
2022-12-22T02:00:00,2162A,112.8508,35.4887,晋城市,市环保局,颗粒物(PM10),62,73,82,7,17,90,76,76,76,6,11,8,8,0.4,0.5
2022-12-22T02:00:00,2163A,112.8676,35.4897,晋城市,技术学院,颗粒物(PM10),76,101,72,7,14,82,70,70,70,3,7,3,3,0.5,0.5
2022-12-22T02:00:00,2165A,112.8453,35.546,晋城市,白马寺 (对照点),,,,,,,,,,,,,,,,
2022-12-22T02:00:00,2166A,112.4397,39.3522,朔州市,平朔,,31,31,109,9,14,67,37,44,40,7,5,5,5,0.4,0.4
2022-12-22T02:00:00,2167A,112.4575,39.3617,朔州市,朔唯,,48,48,127,21,17,74,42,45,44,12,13,5,7,0.2,0.3
2022-12-22T02:00:00,2168A,112.4258,39.3197,朔州市,区政府,,35,35,93,8,16,76,51,51,51,10,12,4,4,0.4,0.4
2022-12-22T02:00:00,2169A,112.4072,39.3278,朔州市,市环保局,,30,30,88,4,15,76,56,54,54,6,7,5,5,0.4,0.3
2022-12-22T02:00:00,2170A,112.4272,39.3681,朔州市,市二中,颗粒物(PM10),63,76,106,21,17,72,28,32,30,18,11,13,11,0.5,0.2
2022-12-22T02:00:00,2171A,112.7532,37.6945,晋中市,锦纶小区,颗粒物(PM10),63,75,96,8,17,84,60,68,64,11,12,2,5,0.2,0.3
2022-12-22T02:00:00,2173A,112.7249,37.7067,晋中市,南都小区,颗粒物(PM10),56,61,102,15,20,80,59,63,61,10,13,4,9,0.2,0.3
2022-12-22T02:00:00,2174A,112.6991,37.6982,晋中市,榆次区政府,,46,46,94,8,20,79,64,64,64,3,12,4,10,0.2,0.4
2022-12-22T02:00:00,2175A,110.9956,35.0147,运城市,运城中学,颗粒物(PM10),81,111,173,9,38,82,72,75,74,9,22,6,11,0.2,0.8
2022-12-22T02:00:00,2178A,110.9686,35.0303,运城市,地区技校,颗粒物(PM10),90,129,190,13,36,74,65,69,67,9,26,11,16,0.1,0.7
2022-12-22T02:00:00,2179A,111.0414,35.1147,运城市,空港新区,颗粒物(PM10),88,126,195,15,47,81,60,64,62,8,25,8,15,0.2,1
2022-12-22T02:00:00,2181A,112.7383,38.4519,忻州市,开发区,,38,38,88,4,15,84,65,66,66,4,10,4,4,0.4,0.5
2022-12-22T02:00:00,2182A,112.7003,38.4928,忻州市,会展中心,,23,23,77,3,12,73,55,58,56,8,15,4,3,0.3,0.3
2022-12-22T02:00:00,2183A,111.1406,37.5211,吕梁市,环保局,颗粒物(PM10),70,90,101,10,16,79,46,45,45,13,24,4,4,0.2,0.1
2022-12-22T02:00:00,2185A,111.1297,37.5136,吕梁市,自来水公司,,,78,100,11,14,71,40,41,40,,23,3,4,0.2,0.3
2022-12-22T02:00:00,2187A,106.8174,39.6973,乌海市,市林业局,,37,37,57,20,19,91,21,24,22,44,17,13,10,0.9,0.6
2022-12-22T02:00:00,2188A,106.7907,39.6667,乌海市,中海勃湾学校,颗粒物(PM10),52,54,64,21,19,94,6,36,21,71,14,16,9,0.8,0.4
2022-12-22T02:00:00,2191A,122.2532,43.6801,通辽市,艺术职业学校,细颗粒物(PM2.5),84,75,64,62,36,69,31,25,25,27,19,7,6,0.5,0.3
2022-12-22T02:00:00,2192A,119.7594,49.2261,呼伦贝尔市,区环保局,,43,37,42,30,30,48,45,45,45,10,18,5,3,0.2,0.4
2022-12-22T02:00:00,2195A,107.4212,40.761,巴彦淖尔市,附二中,,41,41,51,18,18,112,43,36,36,16,10,7,6,0.5,0.5
2022-12-22T02:00:00,2196A,107.37,40.7372,巴彦淖尔市,市环保大楼,,32,32,40,16,22,84,54,53,53,16,11,5,6,0.4,0.4
2022-12-22T02:00:00,2197A,113.1306,40.9923,乌兰察布市,集宁新区,,18,17,49,7,10,62,57,56,56,3,5,8,8,0.4,0.4
2022-12-22T02:00:00,2200A,122.0392,46.0656,兴安盟,胜华新制药厂,细颗粒物(PM2.5),73,62,62,53,56,58,30,33,32,25,25,4,5,0.7,0.7
2022-12-22T02:00:00,2201A,121.9504,46.0741,兴安盟,科右前旗环保局,细颗粒物(PM2.5),75,65,68,55,62,60,27,27,27,24,24,2,4,0.8,0.6
2022-12-22T02:00:00,2202A,116.1042,43.9317,锡林郭勒盟,市环保监测站,,17,6,13,5,6,59,53,47,47,6,11,7,8,0.2,0.3
2022-12-22T02:00:00,2203A,116.0781,43.9311,锡林郭勒盟,市政府,,14,14,14,2,4,56,41,30,30,20,16,9,8,0.2,0.2
2022-12-22T02:00:00,2204A,105.6467,38.8363,阿拉善盟,西城区西花园(对照点),,37,37,49,22,16,90,70,71,70,12,13,5,5,0.4,0.4
2022-12-22T02:00:00,2205A,105.6985,38.8411,阿拉善盟,蒙二幼,,26,26,44,15,24,92,75,76,76,6,9,10,10,0.4,0.3
2022-12-22T02:00:00,2206A,105.724,38.8516,阿拉善盟,环保局新楼,,33,33,36,17,22,94,90,90,90,4,6,9,10,0.3,0.4
2022-12-22T02:00:00,2207A,121.6094,41.998,阜新市,工业园区,,17,13,46,3,17,56,52,52,52,7,15,9,11,0.2,0.4
2022-12-22T02:00:00,2208A,121.6697,42.0279,阜新市,长青街,,24,24,40,10,18,52,51,51,51,4,13,4,5,0.5,0.6
2022-12-22T02:00:00,2209A,121.6673,42.0705,阜新市,农业园区,,16,7,26,6,15,53,50,51,50,4,8,7,7,0.3,0.4
2022-12-22T02:00:00,2210A,121.6717,42.0224,阜新市,东苑,,18,7,35,9,17,59,57,57,57,2,9,10,12,0.4,0.5
2022-12-22T02:00:00,2211A,121.6506,42.0498,阜新市,玉龙新城,,16,13,38,4,20,54,50,50,50,5,16,6,9,0.4,0.6
2022-12-22T02:00:00,2212A,123.2,41.1953,辽阳市,宏伟区,细颗粒物(PM2.5),53,47,35,37,25,59,20,24,22,31,15,13,10,1.2,0.8
2022-12-22T02:00:00,2213A,123.1683,41.2495,辽阳市,新华园,细颗粒物(PM2.5),54,39,39,38,30,56,25,29,27,28,16,12,13,1.0,0.7
2022-12-22T02:00:00,2214A,123.2354,41.2639,辽阳市,滨河路,细颗粒物(PM2.5),92,52,40,68,42,63,26,25,25,30,17,14,10,0.9,0.6
2022-12-22T02:00:00,2215A,123.149,41.2991,辽阳市,铁西工业园,细颗粒物(PM2.5),74,42,41,54,40,58,15,15,15,35,21,5,7,0.8,0.5
2022-12-22T02:00:00,2216A,123.8139,42.3022,铁岭市,汇工街西,细颗粒物(PM2.5),62,45,46,44,46,67,39,43,41,20,17,11,9,0.8,0.8
2022-12-22T02:00:00,2217A,123.8649,42.2923,铁岭市,水上乐园,,45,45,46,29,37,62,43,42,42,25,34,3,5,0.6,0.6
2022-12-22T02:00:00,2218A,123.8486,42.2867,铁岭市,银州路东段,颗粒物(PM10),52,53,53,33,39,63,38,40,39,26,26,5,5,0.6,0.7
2022-12-22T02:00:00,2219A,123.7153,42.2217,铁岭市,金沙江路北,细颗粒物(PM2.5),57,31,48,40,39,65,25,44,34,40,23,8,7,0.7,0.6
2022-12-22T02:00:00,2220A,120.4318,41.5881,朝阳市,西梁,,37,37,48,10,15,60,37,35,35,20,14,11,11,0.7,0.7
2022-12-22T02:00:00,2221A,120.4521,41.5646,朝阳市,河畔小区,,24,24,36,16,14,54,35,34,34,16,10,8,6,0.7,0.5
2022-12-22T02:00:00,2222A,120.4176,41.5648,朝阳市,八里堡,,18,18,39,8,14,58,45,45,45,13,13,9,10,0.5,0.5
2022-12-22T02:00:00,2223A,120.3806,41.5969,朝阳市,农业园区,,16,16,34,9,16,62,47,44,44,11,12,5,6,0.5,0.6
2022-12-22T02:00:00,2225A,124.4002,43.1713,四平市,一商场,细颗粒物(PM2.5),60,47,47,43,37,53,42,42,42,16,21,6,7,0.4,0.6
2022-12-22T02:00:00,2226A,124.388,43.193,四平市,境园,细颗粒物(PM2.5),63,57,56,45,38,57,42,44,43,19,22,5,7,0.4,0.6
2022-12-22T02:00:00,2227A,125.1358,42.8845,辽源市,环保局,细颗粒物(PM2.5),53,41,44,37,37,62,50,55,52,12,14,15,11,0.6,0.7
2022-12-22T02:00:00,2229A,125.9358,41.7173,通化市,光明,,29,24,43,20,25,66,42,43,42,17,28,9,19,0.1,0.5
2022-12-22T02:00:00,2230A,125.9446,41.7325,通化市,铁路,,28,22,44,19,26,66,43,48,46,14,29,8,18,0.6,0.7
2022-12-22T02:00:00,2231A,126.4219,41.9171,白山市,喜丰,颗粒物(PM10),61,72,75,42,37,61,36,32,32,20,26,7,16,1.2,1.2
2022-12-22T02:00:00,2232A,126.4077,41.9419,白山市,环保局,颗粒物(PM10),66,81,85,41,43,63,31,33,32,24,28,9,15,1.4,1.6
2022-12-22T02:00:00,2233A,124.8006,45.1214,松原市,江南,,41,41,118,12,47,59,48,49,48,5,16,6,10,0.3,0.6
2022-12-22T02:00:00,2234A,124.7965,45.1722,松原市,江北,,19,19,156,8,47,62,50,50,50,12,21,4,8,0.5,0.6
2022-12-22T02:00:00,2235A,122.7911,45.6077,白城市,洮北区环保局,,26,26,43,16,34,58,56,56,56,10,14,8,9,0.3,0.4
2022-12-22T02:00:00,2236A,122.8738,45.5725,白城市,市环保局,,28,25,46,19,21,70,68,69,68,11,15,4,6,0.5,0.6
2022-12-22T02:00:00,2237A,129.47,42.8883,延边朝鲜族自治州,妇幼医院,"颗粒物(PM10),细颗粒物(PM2.5)",52,54,59,36,44,69,51,55,53,18,32,16,23,0.7,0.8
2022-12-22T02:00:00,2238A,129.5055,42.9108,延边朝鲜族自治州,延边医院,细颗粒物(PM2.5),75,59,66,55,57,70,53,56,54,14,35,8,27,0.8,1
2022-12-22T02:00:00,2239A,129.3964,42.8881,延边朝鲜族自治州,朝阳川镇医院,细颗粒物(PM2.5),54,56,50,38,38,67,52,53,52,12,21,6,10,0.7,0.8
2022-12-22T02:00:00,2240A,130.9762,45.3001,鸡西市,环保局,细颗粒物(PM2.5),57,46,82,40,53,35,30,32,31,27,33,12,12,0.3,0.5
2022-12-22T02:00:00,2243A,130.9429,45.3039,鸡西市,第一中学,细颗粒物(PM2.5),58,50,68,41,43,38,25,38,32,25,24,8,8,0.8,0.8
2022-12-22T02:00:00,2244A,130.2537,47.3416,鹤岗市,哈啤分公司,,47,47,37,14,19,62,58,59,58,4,7,10,11,0.2,0.3
2022-12-22T02:00:00,2245A,130.2684,47.3086,鹤岗市,斯达机电,,30,30,44,15,19,67,64,64,64,3,13,10,13,0.2,0.3
2022-12-22T02:00:00,2246A,130.3114,47.3388,鹤岗市,东山纸板厂,,38,38,46,12,20,60,57,58,58,6,13,15,16,0.1,0.4
2022-12-22T02:00:00,2247A,130.1097,47.3382,鹤岗市,五号水库(对照点),颗粒物(PM10),51,51,32,12,15,70,68,68,68,3,6,7,7,0.3,0.3
2022-12-22T02:00:00,2248A,131.1511,46.6937,双鸭山市,双合村,,19,10,79,10,63,60,60,60,60,5,22,6,11,0.5,1.1
2022-12-22T02:00:00,2249A,131.1652,46.6191,双鸭山市,南小市,,15,14,63,10,35,42,42,42,42,6,22,7,15,0.4,0.7
2022-12-22T02:00:00,2250A,131.1524,46.6554,双鸭山市,环保局,,32,26,68,22,52,77,77,76,76,3,30,5,10,0.2,0.6
2022-12-22T02:00:00,2251A,131.12,46.5656,双鸭山市,苗圃(对照点),,31,31,44,18,38,63,62,63,62,6,19,5,10,0.3,0.6
2022-12-22T02:00:00,2252A,128.5159,47.4311,伊春市,环保局,,20,20,38,9,27,64,61,62,62,4,17,8,5,0.4,0.6
2022-12-22T02:00:00,2253A,128.9102,47.7412,伊春市,电力嘉园,,29,22,38,20,21,63,60,61,60,4,17,8,7,0.4,0.7
2022-12-22T02:00:00,2254A,129.5029,48.471,伊春市,汤旺河国家公园(对照点),,33,33,27,23,14,92,52,52,52,2,2,9,8,0.3,0.2
2022-12-22T02:00:00,2255A,130.2751,46.8028,佳木斯市,佳纺,,27,27,43,9,26,55,51,52,52,9,12,7,8,0.2,0.3
2022-12-22T02:00:00,2256A,130.3995,46.8307,佳木斯市,发电厂,,16,13,50,10,26,62,50,51,50,10,10,4,3,0.2,0.3
2022-12-22T02:00:00,2257A,130.3258,46.7975,佳木斯市,环保局,,19,18,63,13,28,57,43,44,44,19,17,8,6,0.3,0.4
2022-12-22T02:00:00,2258A,130.3648,46.8032,佳木斯市,十一中,,25,25,73,14,23,58,47,52,50,16,14,2,2,0.3,0.4
2022-12-22T02:00:00,2259A,130.3794,46.7588,佳木斯市,四丰(对照点),,21,21,74,13,41,63,59,58,58,6,11,1,1,0.4,0.6
2022-12-22T02:00:00,2262A,131.0518,45.8751,七台河市,新一中(对照点),,38,27,38,26,26,67,56,54,54,14,17,12,13,0.4,0.5
2022-12-22T02:00:00,2263A,127.4833,50.2524,黑河市,交通局,,17,15,15,11,13,55,52,52,52,3,8,5,7,0.3,0.4
2022-12-22T02:00:00,2264A,127.5144,50.2341,黑河市,环保局,,22,5,10,15,20,54,52,52,52,6,13,9,10,0.3,0.3
2022-12-22T02:00:00,2265A,127.5291,50.2472,黑河市,大黑河岛(对照点),,17,12,14,5,12,54,54,54,54,2,5,1,3,0.2,0.3
2022-12-22T02:00:00,2266A,126.9785,46.6365,绥化市,人和东街,,33,33,59,4,33,74,74,73,73,7,20,4,6,0,0.2
2022-12-22T02:00:00,2267A,126.964,46.6528,绥化市,党政办公中心,,22,19,57,10,41,70,69,69,69,5,17,3,5,0.1,0.4
2022-12-22T02:00:00,2269A,124.1069,50.4097,大兴安岭地区,科技局,,23,6,13,16,15,47,45,46,46,8,8,6,12,0.3,0.3
2022-12-22T02:00:00,2270A,117.396,32.939,蚌埠市,工人疗养院,颗粒物(PM10),94,138,158,41,74,87,49,57,53,25,37,8,9,0.4,0.7
2022-12-22T02:00:00,2271A,117.3605,32.9427,蚌埠市,百货大楼,颗粒物(PM10),97,144,157,45,73,86,48,53,50,24,40,11,15,0.5,0.7
2022-12-22T02:00:00,2273A,117.4185,32.8911,蚌埠市,蚌埠学院,颗粒物(PM10),111,171,191,39,84,82,55,63,59,16,32,8,12,0.3,0.7
2022-12-22T02:00:00,2274A,117.3533,32.9673,蚌埠市,淮上区政府,颗粒物(PM10),112,173,181,41,74,87,36,48,42,35,39,16,15,0.4,0.6
2022-12-22T02:00:00,2275A,117.3145,32.8977,蚌埠市,高新区,颗粒物(PM10),107,163,179,46,81,80,53,55,54,18,38,8,9,0.3,0.6
2022-12-22T02:00:00,2277A,116.8305,32.7727,淮南市,潘集区政府,颗粒物(PM10),98,145,181,62,100,83,51,49,49,8,23,4,8,0.3,0.5
2022-12-22T02:00:00,2278A,117.0067,32.6524,淮南市,师范学院,颗粒物(PM10),78,105,177,40,91,83,60,61,60,11,38,8,12,0.4,0.8
2022-12-22T02:00:00,2279A,116.8569,32.5951,淮南市,谢家集区政府,颗粒物(PM10),90,129,163,31,76,92,62,65,64,5,21,8,11,0.2,0.4
2022-12-22T02:00:00,2280A,116.8281,32.633,淮南市,八公山区政府,颗粒物(PM10),84,118,124,40,76,93,60,61,60,8,17,8,11,0.1,0.4
2022-12-22T02:00:00,2281A,116.6325,32.6201,淮南市,焦岗湖风景区管理处(对照点),颗粒物(PM10),84,118,148,49,89,92,58,58,58,2,2,16,16,0.2,0.4
2022-12-22T02:00:00,2282A,116.8004,33.975,淮北市,监测站,颗粒物(PM10),113,175,174,72,71,81,35,54,44,32,39,14,13,0.7,0.9
2022-12-22T02:00:00,2283A,116.8091,33.9007,淮北市,烈山区政府,颗粒物(PM10),118,186,185,72,80,80,35,55,45,35,47,10,11,0.7,0.8
2022-12-22T02:00:00,2284A,116.7856,33.9477,淮北市,职业技术学院,颗粒物(PM10),137,224,186,74,77,81,36,52,44,34,43,14,11,0.7,0.8
2022-12-22T02:00:00,2285A,117.8177,30.9412,铜陵市,市第四中学,颗粒物(PM10),88,126,129,61,68,91,42,38,38,49,54,35,24,1.6,1.8
2022-12-22T02:00:00,2286A,117.8059,30.9273,铜陵市,市公路局,细颗粒物(PM2.5),85,104,111,63,62,80,36,36,36,47,49,18,17,1.4,1.4
2022-12-22T02:00:00,2287A,117.7807,30.9413,铜陵市,市新民污水厂,颗粒物(PM10),63,75,98,40,53,95,67,66,66,27,52,8,26,0.3,0.5
2022-12-22T02:00:00,2288A,117.7439,30.8792,铜陵市,市第九中学,颗粒物(PM10),175,300,147,76,75,87,52,50,50,39,56,10,12,0.8,0.9
2022-12-22T02:00:00,2289A,117.846,30.9413,铜陵市,车站新区,细颗粒物(PM2.5),79,87,82,58,53,93,45,43,43,41,41,14,14,1.2,0.9
2022-12-22T02:00:00,2290A,117.8483,30.97,铜陵市,市职教基地,颗粒物(PM10),71,92,104,50,64,95,65,60,60,26,37,24,18,0.3,0.9
2022-12-22T02:00:00,2291A,117.0809,30.5177,安庆市,环科院,细颗粒物(PM2.5),84,92,109,62,77,113,20,37,28,57,38,10,10,0.7,0.9
2022-12-22T02:00:00,2292A,117.0331,30.5119,安庆市,马山宾馆,细颗粒物(PM2.5),85,95,105,63,73,109,54,58,56,24,37,12,11,0.6,0.8
2022-12-22T02:00:00,2294A,116.9896,30.6145,安庆市,安庆大学,"颗粒物(PM10),细颗粒物(PM2.5)",72,94,110,52,75,108,49,63,56,44,39,17,14,0.6,0.8
2022-12-22T02:00:00,2295A,118.2903,29.6963,黄山市,延安路89号,细颗粒物(PM2.5),68,49,37,49,33,105,26,24,24,20,14,4,5,0.5,0.3
2022-12-22T02:00:00,2296A,118.327,29.7178,黄山市,黄山东路89号,颗粒物(PM10),54,58,46,34,26,100,32,30,30,17,17,6,7,0.6,0.5
2022-12-22T02:00:00,2297A,118.1371,30.2756,黄山市,黄山区政府5号楼,颗粒物(PM10),53,56,59,32,22,107,40,43,42,13,13,5,6,0.4,0.4
2022-12-22T02:00:00,2298A,118.3093,32.3153,滁州市,老年大学,颗粒物(PM10),91,132,128,66,66,92,61,34,34,26,30,7,7,0.5,0.6
2022-12-22T02:00:00,2299A,118.3244,32.2786,滁州市,人大宾馆,颗粒物(PM10),95,140,136,47,55,88,74,60,60,18,36,9,9,0.5,0.6
2022-12-22T02:00:00,2301A,115.8277,32.8929,阜阳市,市监测站,颗粒物(PM10),64,78,127,30,71,89,59,58,58,11,28,8,9,0.2,0.5
2022-12-22T02:00:00,2303A,115.8554,32.8605,阜阳市,开发区,颗粒物(PM10),88,125,158,27,70,101,66,66,66,14,29,5,7,0.3,0.6
2022-12-22T02:00:00,2307A,116.5079,31.737,六安市,监测大楼,细颗粒物(PM2.5),105,123,90,79,53,95,55,54,54,22,27,9,7,0.5,0.4
2022-12-22T02:00:00,2308A,116.4738,31.7643,六安市,皖西学院,细颗粒物(PM2.5),107,148,100,80,54,104,52,50,50,25,34,13,5,0.5,0.6
2022-12-22T02:00:00,2309A,116.4996,31.7905,六安市,朝阳厂,细颗粒物(PM2.5),99,110,90,74,50,100,54,48,48,18,29,4,6,0.6,0.5
2022-12-22T02:00:00,2310A,116.5567,31.7886,六安市,开发区,细颗粒物(PM2.5),104,123,118,78,55,98,51,46,46,23,31,8,8,0.5,0.5
2022-12-22T02:00:00,2311A,115.8072,33.8399,亳州市,污水处理厂,颗粒物(PM10),150,250,162,40,47,70,35,48,42,21,22,10,6,0.5,0.5
2022-12-22T02:00:00,2312A,115.7789,33.8518,亳州市,三国揽胜宫,颗粒物(PM10),116,181,155,29,50,76,37,50,44,24,24,8,5,0.7,0.6
2022-12-22T02:00:00,2314A,117.47,30.6618,池州市,池州学院,细颗粒物(PM2.5),70,87,96,51,66,113,52,60,56,37,33,32,12,0.6,0.7
2022-12-22T02:00:00,2316A,118.7581,30.9454,宣城市,鳌峰子站,颗粒物(PM10),66,82,99,40,50,94,88,88,88,11,43,5,6,0.6,0.7
2022-12-22T02:00:00,2317A,118.7385,30.9743,宣城市,敬亭山子站,颗粒物(PM10),67,83,96,40,45,87,79,79,79,17,38,10,11,0.7,0.7
2022-12-22T02:00:00,2318A,118.7173,30.9427,宣城市,开发区子站,颗粒物(PM10),63,75,95,41,50,84,72,75,74,16,43,5,7,0.6,0.7
2022-12-22T02:00:00,2319A,119.0141,25.4325,莆田市,荔城区仓后路,,31,31,27,19,15,88,56,49,49,16,12,6,7,0.5,0.5
2022-12-22T02:00:00,2320A,119.0015,25.4553,莆田市,莆田市监测站,,23,22,22,16,13,92,53,60,56,6,3,5,6,0.4,0.4
2022-12-22T02:00:00,2321A,119.1119,25.4561,莆田市,涵江区六中,,42,42,32,22,16,88,18,54,36,47,13,5,5,0.6,0.4
2022-12-22T02:00:00,2322A,119.1013,25.3215,莆田市,秀屿区政府,,29,29,32,20,20,87,61,74,68,22,13,8,8,0.4,0.4
2022-12-22T02:00:00,2323A,118.981,25.4792,莆田市,东圳水库(对照点),,,,,,,,,,,,,,,,
2022-12-22T02:00:00,2324A,117.6211,26.2625,三明市,三钢,,40,40,36,21,24,95,25,25,25,30,25,7,9,0.6,0.7
2022-12-22T02:00:00,2325A,117.635,26.2714,三明市,三明二中,,45,45,34,18,20,86,16,20,18,39,26,14,11,1.4,0.8
2022-12-22T02:00:00,2326A,117.6028,26.2378,三明市,三元区政府,,32,32,35,9,25,87,17,16,16,35,25,14,12,0.5,0.7
2022-12-22T02:00:00,2327A,117.7275,26.3108,三明市,洋溪(对照点),,,,,,,,,,,,,,,,
2022-12-22T02:00:00,2331A,118.0966,26.6761,南平市,茫荡山(对照点),,,,,,,,,,,,,,,,
2022-12-22T02:00:00,2332A,118.1681,26.6369,南平市,南平市监测站,,31,31,28,16,20,93,13,12,12,37,22,3,4,0.3,0.3
2022-12-22T02:00:00,2333A,118.1825,26.6489,南平市,南平铝业有限公司,,29,29,30,20,20,90,5,8,6,40,23,12,8,0.4,0.5
2022-12-22T02:00:00,2334A,118.1756,26.6272,南平市,南平七中,,27,27,30,14,20,95,25,36,30,25,17,4,4,0.4,0.4
2022-12-22T02:00:00,2335A,117.0189,25.1181,龙岩市,龙岩师专(对照点),,,,,,,,,,,,,,,,
2022-12-22T02:00:00,2336A,117.0217,25.1033,龙岩市,龙岩市监测站,,32,25,26,22,15,94,62,72,67,14,18,9,10,0.3,0.3
2022-12-22T02:00:00,2337A,117.0258,25.0661,龙岩市,闽西职业技术学院,,26,23,33,18,16,92,42,50,46,17,19,8,10,0.5,0.5
2022-12-22T02:00:00,2338A,117.0196,25.0306,龙岩市,龙岩学院,,26,16,25,18,14,94,54,60,57,11,14,4,6,0.3,0.3
2022-12-22T02:00:00,2339A,119.5001,26.6946,宁德市,金涵水库(对照点),,,,,,,,,,,,,,,,
2022-12-22T02:00:00,2341A,119.5388,26.6612,宁德市,宁德市监测站,,26,17,28,18,20,85,58,62,60,6,15,4,5,0.4,0.5
2022-12-22T02:00:00,2342A,117.3102,29.3867,景德镇市,王港中学(对照点),,,,,,,,,,,,,,,,
2022-12-22T02:00:00,2343A,117.2117,29.2933,景德镇市,老干部活动中心,颗粒物(PM10),84,118,104,58,48,103,10,9,9,39,31,8,12,0.7,0.9
2022-12-22T02:00:00,2344A,117.1894,29.2789,景德镇市,兽医站,颗粒物(PM10),66,82,85,45,53,104,9,11,10,38,34,6,19,0.6,0.8
2022-12-22T02:00:00,2345A,117.1547,29.2617,景德镇市,台达陶瓷,颗粒物(PM10),71,92,86,44,49,99,3,3,3,55,44,7,27,0.7,0.9
2022-12-22T02:00:00,2346A,117.2461,29.2956,景德镇市,陶研所,颗粒物(PM10),71,92,79,40,39,101,4,4,4,37,27,4,6,0.7,0.8
2022-12-22T02:00:00,2347A,114.0997,27.5002,萍乡市,武功山(对照点),,42,35,55,29,35,106,44,46,45,12,16,13,13,0.7,0.8
2022-12-22T02:00:00,2348A,113.8385,27.6434,萍乡市,中医院,细颗粒物(PM2.5),109,117,130,82,87,118,16,14,14,58,49,6,15,1.2,1.3
2022-12-22T02:00:00,2349A,113.8493,27.6253,萍乡市,市政府车库,细颗粒物(PM2.5),117,107,127,88,93,126,28,32,30,29,44,10,18,1.2,1.3
2022-12-22T02:00:00,2350A,113.8676,27.6435,萍乡市,市环保局,细颗粒物(PM2.5),150,138,127,115,100,114,16,26,21,40,35,15,21,1.5,1
2022-12-22T02:00:00,2351A,113.866,27.6198,萍乡市,安源区政府,细颗粒物(PM2.5),115,116,122,87,91,119,20,21,20,36,32,19,23,1.2,1.1
2022-12-22T02:00:00,2352A,115.0861,27.9317,新余市,北岗(对照点),细颗粒物(PM2.5),67,76,62,48,42,88,11,11,11,49,29,11,9,1.1,0.7
2022-12-22T02:00:00,2353A,114.9886,27.8431,新余市,飞宇,颗粒物(PM10),79,108,82,52,45,96,28,24,24,45,37,15,14,0.7,0.8
2022-12-22T02:00:00,2354A,114.9231,27.8246,新余市,第二水厂,细颗粒物(PM2.5),75,82,86,55,60,84,17,22,20,44,37,9,12,0.3,0.5
2022-12-22T02:00:00,2355A,114.9308,27.8036,新余市,市气象局,"颗粒物(PM10),细颗粒物(PM2.5)",60,70,78,43,50,88,14,18,16,46,32,11,14,0.4,0.6
2022-12-22T02:00:00,2357A,116.9822,28.1136,鹰潭市,龙虎山(对照点),,40,40,52,21,31,115,54,56,55,6,17,3,4,0.3,0.4
2022-12-22T02:00:00,2358A,117.0564,28.2642,鹰潭市,新监测站,,48,48,67,20,40,98,44,42,42,19,33,6,11,0.3,0.4
2022-12-22T02:00:00,2359A,117.0311,28.2475,鹰潭市,财苑宾馆,细颗粒物(PM2.5),59,66,67,42,41,92,18,17,17,51,41,30,13,0.4,0.4
2022-12-22T02:00:00,2360A,117.0222,28.2264,鹰潭市,体育馆,颗粒物(PM10),52,54,62,33,40,95,25,32,28,31,32,4,5,0.4,0.4
2022-12-22T02:00:00,2361A,117.0017,28.2131,鹰潭市,三川水表,,43,43,62,24,41,101,30,41,36,7,24,3,4,0.1,0.3
2022-12-22T02:00:00,2362A,114.9017,25.9149,赣州市,通天岩(对照点),,33,33,29,21,19,111,49,51,50,14,15,5,6,0.9,0.9
2022-12-22T02:00:00,2363A,114.9367,25.8664,赣州市,地委,颗粒物(PM10),60,69,52,32,28,102,32,31,31,29,23,2,7,0.9,0.9
2022-12-22T02:00:00,2364A,114.9461,25.8481,赣州市,气象台,颗粒物(PM10),59,68,45,37,30,102,19,18,18,41,25,13,15,0.5,0.5
2022-12-22T02:00:00,2365A,114.9322,25.8333,赣州市,市图书馆,颗粒物(PM10),59,68,49,40,27,107,17,30,24,44,21,8,14,0.7,0.7
2022-12-22T02:00:00,2366A,114.8905,25.8471,赣州市,华坚鞋城,颗粒物(PM10),58,66,60,31,29,99,32,46,39,34,25,18,20,0.5,0.5
2022-12-22T02:00:00,2367A,114.9754,27.0803,吉安市,红声器材厂,颗粒物(PM10),70,90,73,45,38,107,35,24,24,34,33,14,11,0.6,0.6
2022-12-22T02:00:00,2368A,114.9658,27.0999,吉安市,市森林工业局,细颗粒物(PM2.5),64,75,66,46,43,101,4,6,5,79,42,6,12,0.6,0.7
2022-12-22T02:00:00,2369A,114.99,27.1312,吉安市,市环境监测站,"颗粒物(PM10),细颗粒物(PM2.5)",65,79,79,47,41,108,4,4,4,66,40,8,13,0.8,0.7
2022-12-22T02:00:00,2370A,115.0093,27.0968,吉安市,青原区法院,颗粒物(PM10),56,62,66,36,39,106,4,12,8,52,36,8,13,0.6,0.7
2022-12-22T02:00:00,2371A,114.3408,27.8064,宜春市,槟榔水业(对照点),细颗粒物(PM2.5),89,83,94,66,61,103,31,35,33,27,30,20,25,0.7,0.8
2022-12-22T02:00:00,2373A,114.3956,27.7844,宜春市,市石油公司,颗粒物(PM10),54,58,87,29,54,117,42,41,41,22,31,1,10,0.9,1
2022-12-22T02:00:00,2374A,114.3703,27.7914,宜春市,市气象局,"颗粒物(PM10),细颗粒物(PM2.5)",55,59,86,39,56,105,40,40,40,20,29,8,19,0.6,0.8
2022-12-22T02:00:00,2375A,114.4013,27.8074,宜春市,市广电局,细颗粒物(PM2.5),58,60,94,41,61,115,51,49,49,25,36,6,16,1.4,1.3
2022-12-22T02:00:00,2376A,116.2127,28.0814,抚州市,桐源党溪(对照点),颗粒物(PM10),51,51,60,24,36,114,14,16,15,12,16,3,8,0.3,0.4
2022-12-22T02:00:00,2377A,116.3544,27.9831,抚州市,市站,颗粒物(PM10),56,61,71,31,42,104,43,48,46,20,30,1,20,0.7,0.7
2022-12-22T02:00:00,2378A,116.3565,27.963,抚州市,血防站,颗粒物(PM10),60,70,77,36,42,98,36,34,34,26,32,6,23,0.5,0.6
2022-12-22T02:00:00,2379A,116.3564,28.0007,抚州市,采茶剧团,颗粒物(PM10),55,60,68,36,40,102,38,39,38,21,29,4,19,0.9,1
2022-12-22T02:00:00,2380A,116.385,27.9647,抚州市,医学分院,颗粒物(PM10),58,66,74,31,38,93,40,39,39,20,33,9,24,0.7,0.7
2022-12-22T02:00:00,2381A,118.005,28.4572,上饶市,百草园(对照点),颗粒物(PM10),65,79,67,38,26,59,32,30,30,22,24,10,11,1.3,1.3
2022-12-22T02:00:00,2382A,117.9756,28.4436,上饶市,市监测站,颗粒物(PM10),70,90,69,49,34,89,18,21,20,40,32,22,30,0.5,0.6
2022-12-22T02:00:00,2383A,117.9519,28.4628,上饶市,凤凰光学,颗粒物(PM10),73,95,65,38,27,96,9,7,7,49,38,18,21,0.5,0.6
2022-12-22T02:00:00,2385A,114.17,35.9019,鹤壁市,市监测站,颗粒物(PM10),100,149,89,26,34,77,48,47,47,16,25,5,8,0.5,0.6
2022-12-22T02:00:00,2386A,114.2956,35.7511,鹤壁市,市交警支队,颗粒物(PM10),85,120,100,16,26,72,52,52,52,14,30,2,7,0.1,0.4
2022-12-22T02:00:00,2387A,114.2878,35.7306,鹤壁市,迎宾馆,颗粒物(PM10),83,115,92,15,26,76,55,54,54,11,25,8,11,0.1,0.5
2022-12-22T02:00:00,2389A,113.836,35.311,新乡市,环保西院,颗粒物(PM10),119,187,105,27,29,82,44,46,45,14,16,6,9,0.4,0.7
2022-12-22T02:00:00,2390A,113.884,35.272,新乡市,开发区,颗粒物(PM10),122,194,97,22,19,82,46,45,45,13,11,2,6,0.4,0.5
2022-12-22T02:00:00,2391A,113.883,35.303,新乡市,环保东院,颗粒物(PM10),112,174,88,31,27,81,44,43,43,11,19,5,8,0.3,0.5
2022-12-22T02:00:00,2392A,115.0312,35.7636,濮阳市,环保局,颗粒物(PM10),91,131,109,17,50,70,54,52,52,13,38,5,10,0.2,0.7
2022-12-22T02:00:00,2394A,115.0574,35.7609,濮阳市,油田运输公司,颗粒物(PM10),109,168,144,17,56,72,57,54,54,14,41,5,11,0.3,0.8
2022-12-22T02:00:00,2395A,115.0866,35.7754,濮阳市,油田物探公司,颗粒物(PM10),97,143,121,17,56,69,53,50,50,11,42,5,11,0.0,0.5
2022-12-22T02:00:00,2396A,113.8276,34.0159,许昌市,监测站,颗粒物(PM10),125,199,150,26,91,95,56,68,62,12,30,5,7,0.6,0.8
2022-12-22T02:00:00,2398A,113.7906,33.9953,许昌市,开发区,颗粒物(PM10),96,142,148,17,78,86,53,66,60,13,35,3,5,0.4,0.6
2022-12-22T02:00:00,2399A,114.051,33.5699,漯河市,三五一五工厂,颗粒物(PM10),141,232,174,17,85,96,68,66,66,4,26,6,8,0.3,0.8
2022-12-22T02:00:00,2400A,114.0055,33.5698,漯河市,漯河大学,颗粒物(PM10),118,185,169,21,87,102,72,71,71,12,36,5,8,0.3,0.7
2022-12-22T02:00:00,2401A,114.0138,33.5828,漯河市,市水利局,颗粒物(PM10),128,205,165,14,82,102,71,70,70,9,28,7,10,0.3,0.7
2022-12-22T02:00:00,2402A,114.0261,33.5698,漯河市,市广电局,颗粒物(PM10),133,215,157,18,93,99,68,66,66,11,29,7,10,0.4,0.8
2022-12-22T02:00:00,2404A,112.5224,33.0122,南阳市,瓦房庄,细颗粒物(PM2.5),90,109,147,67,120,80,60,58,58,22,49,7,9,0.7,1
2022-12-22T02:00:00,2405A,112.5003,32.9735,南阳市,汉画馆,细颗粒物(PM2.5),124,128,156,94,122,82,21,35,28,42,46,4,6,0.7,0.9
2022-12-22T02:00:00,2406A,112.5573,33.027,南阳市,气象站,细颗粒物(PM2.5),92,126,156,68,112,84,56,54,54,23,40,8,9,0.6,0.9
2022-12-22T02:00:00,2407A,112.5481,32.9689,南阳市,理工学院,细颗粒物(PM2.5),105,131,158,79,108,85,22,30,26,52,49,7,9,0.7,0.9
2022-12-22T02:00:00,2408A,115.6702,34.4285,商丘市,环境监测站,颗粒物(PM10),101,152,147,30,38,78,41,40,40,26,33,8,8,0.4,0.5
2022-12-22T02:00:00,2409A,115.6458,34.4045,商丘市,粮食局,颗粒物(PM10),95,139,142,32,34,82,44,42,42,21,27,6,6,0.1,0.6
