timepoint,stationcode,longitude,latitude,area,positionname,primarypollutant,aqi,pm10,pm10_24h,pm2_5,pm2_5_24h,o3,o3_24h,o3_8h,o3_8h_24h,no2,no2_24h,so2,so2_24h,co,co_24h
2025-03-26T1600,2566A,102.1879,31.914,阿坝藏族羌族自治州,州农科所,,32,6,21,3,9,102,,86,86,6,12,12,9,0.1,0.2
2025-03-26T1600,2568A,102.2502,31.8896,阿坝藏族羌族自治州,马师校,,34,12,21,6,15,106,,86,86,9,17,4,4,0.2,0.4
2025-03-26T1600,3994A,102.2165,31.9024,阿坝藏族羌族自治州,马尔康中学西区,,37,6,18,3,14,118,,92,92,5,12,5,5,0.2,0.3
2025-03-26T1600,2695A,80.292,41.1694,阿克苏地区,电视台,"颗粒物(PM10),细颗粒物(PM2.5)",500,6557,2137,1198,373,87,,88,88,5,13,5,6,0.3,0.4
2025-03-26T1600,2696A,80.2613,41.1551,阿克苏地区,艺术中心,"颗粒物(PM10),细颗粒物(PM2.5)",500,7610,2383,1330,410,88,,86,86,4,16,4,4,0.5,0.6
2025-03-26T1600,2204A,105.6467,38.8363,阿拉善盟,西城区西花园,颗粒物(PM10),220,364,781,70,182,101,,111,110,6,7,10,10,0.8,0.8
2025-03-26T1600,2205A,105.6985,38.8411,阿拉善盟,蒙二幼,颗粒物(PM10),474,574,931,94,216,90,,98,97,5,7,,6,0.4,0.6
2025-03-26T1600,2206A,105.724,38.8516,阿拉善盟,环保局新楼,颗粒物(PM10),309,427,778,153,214,96,,104,104,3,3,8,8,0.4,0.3
2025-03-26T1600,2708A,88.1264,47.8517,阿勒泰地区,市站,,25,15,22,3,7,79,,66,62,2,5,2,3,0.4,0.4
2025-03-26T1600,2630A,80.1161,32.5,阿里地区,阿里监测站,,32,10,9,3,5,102,,96,93,1,4,5,7,0.4,0.4
2025-03-26T1600,3192A,80.0903,32.5028,阿里地区,阿里藏医院,,32,11,12,3,4,101,,101,99,1,2,6,6,0.4,0.4
2025-03-26T1600,2642A,109.0318,32.6537,安康市,香溪洞,,49,41,38,29,23,154,,105,105,7,10,8,8,0.7,0.6
2025-03-26T1600,2644A,109.0072,32.6975,安康市,汉滨区检察院,,,47,48,25,24,165,,108,108,9,18,,10,0.3,0.4
2025-03-26T1600,4054A,109.0325,32.6913,安康市,市邮政管理局,,50,40,53,21,28,160,,110,110,8,20,8,14,0.4,0.6
2025-03-26T1600,2291A,117.0809,30.5177,安庆市,环科院,细颗粒物(PM2.5),73,80,66,53,41,167,,148,148,18,60,11,11,0.7,0.6
2025-03-26T1600,2292A,117.0331,30.5119,安庆市,马山宾馆,臭氧1小时,68,71,59,48,39,174,,131,131,10,47,7,6,0.6,0.4
2025-03-26T1600,2294A,116.9896,30.6145,安庆市,安庆大学,臭氧1小时,99,84,67,55,42,199,,166,166,12,34,9,9,0.5,0.4
2025-03-26T1600,3173A,117.0598,30.5351,安庆市,市人大,臭氧1小时,85,73,65,46,42,188,,145,145,5,36,10,11,0.7,0.6
2025-03-26T1600,3122A,105.9606,26.2611,安顺市,伍家关,臭氧1小时,53,29,39,17,24,162,,137,137,9,9,4,8,0.2,0.4
2025-03-26T1600,3123A,105.9408,26.2431,安顺市,凤凰山,,50,37,42,18,29,158,,140,140,16,16,6,10,0.2,0.3
2025-03-26T1600,3124A,105.9439,26.2564,安顺市,金钟山,臭氧1小时,52,35,40,17,26,161,,141,141,10,11,5,9,0.4,0.5
2025-03-26T1600,3125A,105.8983,26.2481,安顺市,娄家坡,,50,27,36,19,26,159,,140,140,8,9,4,7,0.4,0.5
2025-03-26T1600,1818A,114.4839,36.0621,安阳市,棉研所,,,,,,,,,,,,,,,,
2025-03-26T1600,1819A,114.3551,36.1017,安阳市,红庙街,颗粒物(PM10),87,124,285,42,62,90,,74,74,15,27,5,5,0.4,0.2
2025-03-26T1600,1820A,114.361,36.0681,安阳市,银杏小区,颗粒物(PM10),88,126,273,45,67,99,,81,81,15,34,4,4,0.4,0.5
2025-03-26T1600,3141A,114.3922,36.0878,安阳市,信访局,,,126,266,42,59,94,,79,79,,32,4,5,,0.5
2025-03-26T1600,3669A,114.4705,36.0637,安阳市,左辅环卫站,颗粒物(PM10),93,135,278,40,62,116,,96,96,9,28,6,7,0.3,0.3
2025-03-26T1600,3703A,114.2917,36.0949,安阳市,安钢职工学校,颗粒物(PM10),88,125,331,42,69,97,,78,78,18,40,5,7,0.5,0.7
2025-03-26T1600,1748A,123.044,41.1196,鞍山市,深沟寺,细颗粒物(PM2.5),65,67,165,47,102,92,,67,67,12,25,11,15,0.7,1.2
2025-03-26T1600,1749A,123.011,41.0931,鞍山市,太阳城,细颗粒物(PM2.5),58,60,172,41,106,92,,65,65,17,31,7,14,0.8,1.4
2025-03-26T1600,1750A,123.0485,41.1442,鞍山市,太平,细颗粒物(PM2.5),143,172,194,109,109,59,,64,50,53,34,22,15,1.9,1.3
2025-03-26T1600,1751A,122.9642,41.0971,鞍山市,铁西三道街,细颗粒物(PM2.5),62,69,175,44,106,79,,64,62,33,36,7,12,0.7,1.2
2025-03-26T1600,1753A,123.022,41.0821,鞍山市,明达新区,细颗粒物(PM2.5),70,65,164,51,109,93,,66,66,16,29,7,13,0.5,1.1
2025-03-26T1600,1754A,123.1289,41.0228,鞍山市,千山,,,,128,,62,,,75,,,20,,4,,1.0
2025-03-26T1600,4201A,122.9446,41.0826,鞍山市,兴盛南路290号,细颗粒物(PM2.5),67,70,179,48,107,79,,64,64,36,38,10,15,0.6,1
2025-03-26T1600,2195A,107.4212,40.761,巴彦淖尔市,附二中,颗粒物(PM10),243,380,625,55,122,88,,92,89,5,11,7,8,0.6,0.6
2025-03-26T1600,2196A,107.37,40.7372,巴彦淖尔市,市环保大楼,颗粒物(PM10),190,330,285,61,144,89,,93,90,3,10,5,6,0.0,0.1
2025-03-26T1600,1956A,86.1472,41.7538,巴音郭楞蒙古自治州,孔雀公园,"颗粒物(PM10),细颗粒物(PM2.5)",500,6949,1444,820,150,78,,82,79,7,10,5,7,0.2,0.2
2025-03-26T1600,1957A,86.1972,41.7166,巴音郭楞蒙古自治州,棉纺厂,"颗粒物(PM10),细颗粒物(PM2.5)",500,2528,1239,1478,182,78,,86,79,7,7,2,2,0.2,0.2
2025-03-26T1600,1958A,86.2357,41.7173,巴音郭楞蒙古自治州,经济开发区,"颗粒物(PM10),细颗粒物(PM2.5)",500,9513,1595,2332,208,82,,89,84,4,4,4,4,0.1,0.1
2025-03-26T1600,2914A,106.7677,31.8794,巴中市,苏山坪,,49,46,43,28,26,154,,132,127,8,9,7,6,0.3,0.3
2025-03-26T1600,3181A,106.7768,31.8526,巴中市,市五中,,48,39,60,25,35,153,,101,101,15,31,8,6,0.5,0.7
2025-03-26T1600,3183A,106.7418,31.8654,巴中市,圣泉水务公司,臭氧1小时,55,46,46,33,29,164,,124,124,10,28,10,8,0.3,0.4
2025-03-26T1600,3616A,106.7616,31.8344,巴中市,市中心医院,,50,38,57,26,39,158,,103,103,7,41,10,8,0.6,0.8
2025-03-26T1600,2235A,122.7911,45.6077,白城市,洮北区环保局,细颗粒物(PM2.5),144,131,87,110,74,84,,70,70,17,19,6,5,0.6,0.6
2025-03-26T1600,2236A,122.8738,45.5725,白城市,市环保局,细颗粒物(PM2.5),158,134,82,120,70,82,,69,69,15,24,5,3,0.6,0.8
2025-03-26T1600,2231A,126.4219,41.9171,白山市,喜丰,,,88,94,49,69,29,,56,45,,22,7,7,1.1,1.4
2025-03-26T1600,2232A,126.4077,41.9419,白山市,环保局,细颗粒物(PM2.5),74,69,95,54,72,51,,60,59,43,31,11,8,1.3,1.4
2025-03-26T1600,2647A,104.1724,36.5446,白银市,第三小学,颗粒物(PM10),328,442,980,89,189,101,,99,98,2,10,7,11,0.2,0.3
2025-03-26T1600,2648A,104.1465,36.5482,白银市,动力公司,颗粒物(PM10),323,438,976,105,224,101,,102,98,5,11,4,5,,0.2
2025-03-26T1600,2512A,106.6103,23.9011,百色市,市监测站,细颗粒物(PM2.5),77,97,115,56,80,166,,110,110,16,28,14,14,1.0,1.3
2025-03-26T1600,2513A,106.6538,23.8859,百色市,市中心血站,细颗粒物(PM2.5),87,120,129,64,89,171,,104,104,14,37,17,16,1.0,1.3
2025-03-26T1600,3406A,106.6085,23.8798,百色市,祈福高中,颗粒物(PM10),89,127,138,49,88,150,,94,94,15,38,11,14,0.9,1.2
2025-03-26T1600,2270A,117.396,32.939,蚌埠市,工人疗养院,臭氧1小时,107,75,73,36,37,213,,176,176,39,29,8,7,0.8,0.7
2025-03-26T1600,2271A,117.3605,32.9427,蚌埠市,百货大楼,臭氧1小时,95,87,79,40,39,196,,161,161,20,27,8,8,0.6,0.5
2025-03-26T1600,2273A,117.4185,32.8911,蚌埠市,蚌埠学院,臭氧1小时,104,68,73,45,39,207,,171,171,7,16,7,6,0.7,0.6
2025-03-26T1600,2274A,117.3533,32.9673,蚌埠市,淮上区政府,臭氧1小时,101,70,75,48,42,201,,170,170,9,20,8,8,0.6,0.5
2025-03-26T1600,2275A,117.3145,32.8977,蚌埠市,高新区,臭氧1小时,102,73,82,39,44,204,,169,169,9,22,8,10,0.7,0.6
2025-03-26T1600,3715A,117.3092,32.9314,蚌埠市,蚌埠田家炳中学,臭氧1小时,104,83,85,42,43,207,,172,172,15,27,9,15,0.5,0.5
2025-03-26T1600,1585A,109.8756,40.6532,包头市,市环境监测站,颗粒物(PM10),260,392,303,60,82,96,,96,96,5,29,9,21,0.2,0.6
2025-03-26T1600,1587A,109.9991,40.5842,包头市,包头八中,颗粒物(PM10),235,374,297,85,81,96,,97,97,4,24,5,19,0.3,0.6
2025-03-26T1600,1588A,109.8538,40.6821,包头市,青山宾馆,颗粒物(PM10),187,324,268,94,80,94,,96,96,3,20,6,14,0.3,0.6
2025-03-26T1600,1589A,109.8642,40.6288,包头市,惠龙物流,颗粒物(PM10),286,410,307,53,58,98,,99,99,5,24,5,21,0.3,0.7
2025-03-26T1600,1590A,110.0377,40.5546,包头市,东河鸿龙湾,颗粒物(PM10),238,376,279,65,61,96,,96,96,5,22,6,11,0.4,0.6
2025-03-26T1600,3283A,109.9154,40.5685,包头市,滨河大厦,颗粒物(PM10),189,327,257,75,66,96,,97,97,2,21,7,13,0.6,0.5
2025-03-26T1600,3419A,109.9447,40.6261,包头市,包头市委党校,颗粒物(PM10),222,365,280,64,65,92,,95,94,3,25,5,22,0.2,0.7
2025-03-26T1600,3683A,109.8331,40.6576,包头市,昆区政府,颗粒物(PM10),197,343,279,57,68,94,,95,95,6,27,5,17,0.4,0.9
2025-03-26T1600,1930A,107.185,34.3063,宝鸡市,庙沟村,颗粒物(PM10),500,607,391,179,107,106,,108,96,5,11,6,9,0.2,0.3
2025-03-26T1600,1931A,107.0708,34.3017,宝鸡市,竹园沟,颗粒物(PM10),500,613,306,161,82,110,,92,92,6,15,6,8,0.3,0.4
2025-03-26T1600,1932A,107.1906,34.3672,宝鸡市,三陆医院,颗粒物(PM10),500,642,393,223,124,105,,93,93,8,24,4,8,0.3,0.4
2025-03-26T1600,1933A,107.1431,34.3547,宝鸡市,监测站,颗粒物(PM10),500,657,426,176,110,103,,90,90,8,21,7,10,0.4,0.5
2025-03-26T1600,1934A,107.1186,34.3739,宝鸡市,技工学校,颗粒物(PM10),484,584,415,215,127,105,,95,95,11,23,4,8,0.2,0.4
2025-03-26T1600,1935A,107.3906,34.3528,宝鸡市,陈仓区环保局家属楼,颗粒物(PM10),500,640,342,170,103,99,,87,87,2,14,7,9,0.5,0.6
2025-03-26T1600,1936A,107.2058,34.3497,宝鸡市,文理学院,颗粒物(PM10),500,648,426,184,111,105,,94,94,5,16,5,8,0.3,0.4
2025-03-26T1600,1937A,107.2386,34.3622,宝鸡市,三迪小学,颗粒物(PM10),500,752,393,222,116,102,,91,91,10,24,6,11,0.3,0.5
2025-03-26T1600,1051A,115.493,38.8632,保定市,游泳馆,细颗粒物(PM2.5),84,97,92,62,41,111,,94,94,18,25,8,6,0.2,0.2
2025-03-26T1600,1052A,115.5213,38.8959,保定市,华电二区,颗粒物(PM10),72,93,74,39,27,113,,98,98,13,17,2,2,0.3,0.1
2025-03-26T1600,1053A,115.4713,38.9108,保定市,接待中心,颗粒物(PM10),73,95,81,47,33,109,,93,93,18,22,4,3,0.6,0.4
2025-03-26T1600,1054A,115.4612,38.8416,保定市,地表水厂,颗粒物(PM10),85,119,107,44,27,112,,98,98,19,25,2,5,0.5,0.4
2025-03-26T1600,3581A,115.31981,38.95208,保定市,满城区生态环境分局,,,100,95,,28,108,,92,92,20,31,4,4,0.4,0.4
2025-03-26T1600,3582A,115.47694,38.76408,保定市,清苑区第二中学,颗粒物(PM10),90,129,121,46,31,106,,94,94,21,26,5,5,0.4,0.3
2025-03-26T1600,3583A,115.62909,39.02311,保定市,徐水物探局,,,,94,,29,117,,100,100,16,21,11,9,0.3,0.2
2025-03-26T1600,4004A,115.4202,38.8656,保定市,双鹰农机,,,111,83,48,31,109,,84,,14,18,3,4,,0.4
2025-03-26T1600,4034A,115.5150,38.8590,保定市,植保所站,颗粒物(PM10),71,92,94,36,34,110,,94,94,15,21,2,4,0.5,0.5
2025-03-26T1600,2594A,99.1678,25.1081,保山市,市环境监测站,,39,21,34,8,23,122,,101,101,5,11,5,6,0.3,0.4
2025-03-26T1600,2595A,99.1711,25.1328,保山市,市环保局,,40,21,37,16,25,128,,110,110,4,8,4,4,0.3,0.4
2025-03-26T1600,1866A,109.2262,21.588,北海市,牛尾岭水库,,,27,26,15,19,69,,65,65,,7,5,6,0.4,0.5
2025-03-26T1600,1867A,109.1436,21.4086,北海市,海滩公园,,35,35,33,10,13,85,,89,89,8,12,5,5,0.6,0.7
2025-03-26T1600,1868A,109.0981,21.4661,北海市,新市环保局,,28,28,32,17,18,79,,80,80,8,11,3,3,0.5,0.5
2025-03-26T1600,1869A,109.1778,21.5233,北海市,北海工业园,,32,32,38,17,22,80,,79,79,5,10,6,6,0.3,0.4
2025-03-26T1600,3400A,109.1911,21.4415,北海市,龙潭自来水厂,,34,34,30,17,19,83,,82,82,5,8,5,5,0.3,0.4
2025-03-26T1600,1001A,116.3621,39.8784,北京市,万寿西宫,颗粒物(PM10),79,107,78,43,28,116,,103,103,23,20,2,2,0.5,0.4
2025-03-26T1600,1002A,116.2202,40.2915,北京市,定陵,,,,,,,,,,,,,,,,
2025-03-26T1600,1003A,116.4174,39.9289,北京市,东四,颗粒物(PM10),76,102,80,40,30,108,,94,94,25,21,7,6,0.5,0.5
2025-03-26T1600,1004A,116.4072,39.8863,北京市,天坛,颗粒物(PM10),78,106,93,38,32,106,,94,94,24,18,2,2,0.7,0.6
2025-03-26T1600,1005A,116.462,39.9365,北京市,农展馆,颗粒物(PM10),75,100,77,36,26,107,,93,93,16,13,8,7,0.6,0.5
2025-03-26T1600,1006A,116.3392,39.9295,北京市,官园,颗粒物(PM10),77,104,75,46,27,98,,87,87,20,16,7,6,0.6,0.6
2025-03-26T1600,1007A,116.2878,39.9611,北京市,海淀万柳,颗粒物(PM10),70,90,68,36,24,95,,84,84,20,18,4,4,0.6,0.5
2025-03-26T1600,1008A,116.6636,40.135,北京市,顺义新城,颗粒物(PM10),72,93,76,22,22,107,,97,97,9,13,6,6,0.4,0.4
2025-03-26T1600,1009A,116.6275,40.3275,北京市,怀柔镇,颗粒物(PM10),68,86,67,31,23,108,,96,96,10,9,4,3,0.4,0.4
2025-03-26T1600,1010A,116.2296,40.217,北京市,昌平镇,颗粒物(PM10),68,85,65,31,21,113,,101,101,15,13,2,2,0.7,0.6
2025-03-26T1600,1011A,116.3966,39.9821,北京市,奥体中心,颗粒物(PM10),72,94,72,37,25,96,,87,87,25,19,4,5,0.7,0.6
2025-03-26T1600,3281A,115.9718,40.4529,北京市,延庆夏都,颗粒物(PM10),114,177,74,44,23,109,,89,89,2,11,5,6,0.4,0.5
2025-03-26T1600,3418A,116.8336,40.4095,北京市,密云新城,颗粒物(PM10),57,64,63,20,21,108,,92,92,7,10,4,4,0.5,0.5
2025-03-26T1600,3671A,116.088,39.9726,北京市,门头沟三家店,,,,97,,25,,,61,,,30,,4,,0.4
2025-03-26T1600,3672A,116.1541,39.8204,北京市,丰台云岗,颗粒物(PM10),75,100,76,45,25,116,,101,101,22,21,7,6,0.7,0.6
2025-03-26T1600,3673A,116.6804,39.9081,北京市,通州东关,颗粒物(PM10),78,106,88,37,31,105,,92,92,24,23,6,5,0.5,0.5
2025-03-26T1600,3674A,115.9577,39.7603,北京市,房山燕山,颗粒物(PM10),74,98,74,37,26,98,,80,80,23,19,6,5,0.6,0.4
2025-03-26T1600,3675A,116.4672,39.7733,北京市,大兴旧宫,颗粒物(PM10),81,112,82,38,29,94,,82,82,23,17,6,3,0.6,0.4
2025-03-26T1600,3694A,115.986,40.4563,北京市,延庆石河营,颗粒物(PM10),108,166,73,37,21,109,,89,89,3,12,4,5,0.3,0.4
2025-03-26T1600,3695A,116.6151,40.3053,北京市,怀柔新城,颗粒物(PM10),70,89,62,34,21,100,,95,95,8,5,5,5,0.6,0.5
2025-03-26T1600,3696A,116.2545,39.8768,北京市,丰台小屯,颗粒物(PM10),98,145,74,41,27,99,,90,90,25,25,3,2,0.5,0.4
2025-03-26T1600,3697A,116.84,40.3844,北京市,密云镇,颗粒物(PM10),59,68,71,21,22,117,,97,97,8,19,6,5,0.4,0.4
2025-03-26T1600,4182A,116.1942,39.9158,北京市,八角北路9号,颗粒物(PM10),72,93,78,37,24,107,,97,97,21,22,3,3,0.5,0.4
2025-03-26T1600,4194A,117.0790,40.1518,北京市,洳河巡河路,颗粒物(PM10),66,81,74,29,29,122,,102,102,10,11,3,3,0.5,0.5
2025-03-26T1600,1761A,123.8275,41.3064,本溪市,大峪,颗粒物(PM10),53,55,132,36,102,84,,75,75,16,22,9,9,0.6,0.9
2025-03-26T1600,1762A,123.7567,41.3325,本溪市,溪湖,颗粒物(PM10),62,73,155,32,110,88,,83,83,20,43,9,9,0.7,1.1
2025-03-26T1600,1763A,123.7169,41.3094,本溪市,彩屯,颗粒物(PM10),67,84,166,46,110,69,,73,73,40,30,24,12,2.5,1.5
2025-03-26T1600,1764A,123.7669,41.2864,本溪市,东明,,,,115,,99,89,,86,86,16,25,8,8,0.6,1.1
2025-03-26T1600,1765A,123.7992,41.2664,本溪市,新立屯,颗粒物(PM10),61,72,100,30,105,93,,92,92,19,26,7,6,0.6,0.8
2025-03-26T1600,1766A,123.8142,41.3472,本溪市,威宁,颗粒物(PM10),70,89,147,28,101,76,,70,70,21,24,7,5,0.6,0.9
2025-03-26T1600,2587A,105.2864,27.3125,毕节市,八中,,42,34,52,19,30,134,,107,107,8,19,10,12,0.4,0.7
2025-03-26T1600,2588A,105.31,27.2944,毕节市,师专,,46,22,64,15,38,146,,114,114,10,36,6,9,0.3,0.8
2025-03-26T1600,4263A,105.3688,27.3598,毕节市,工业大道,,,,76,,41,143,,111,111,11,32,8,10,0.4,0.7
2025-03-26T1600,1629A,118.0018,37.3617,滨州市,第二水厂,颗粒物(PM10),119,188,115,41,20,70,,89,89,,26,16,14,0.6,1.4
2025-03-26T1600,1630A,117.9776,37.393,滨州市,北中新校,颗粒物(PM10),109,168,111,36,20,78,,93,93,33,25,19,17,0.5,0.3
2025-03-26T1600,3514A,117.9378,37.3956,滨州市,中海酒店,颗粒物(PM10),103,156,89,51,24,83,,90,90,29,22,16,16,0.6,0.4
2025-03-26T1600,3515A,117.9378,37.3553,滨州市,开发区一中,颗粒物(PM10),118,185,121,36,22,79,,87,87,33,28,20,20,0.4,0.3
2025-03-26T1600,3516A,118.0917,37.694,滨州市,金海六路,颗粒物(PM10),114,178,142,27,14,96,,90,90,18,16,,11,,0.6
2025-03-26T1600,4028A,117.9956,37.3753,滨州市,滨州市西街道办事处,颗粒物(PM10),108,166,110,48,27,78,,97,97,30,23,16,14,0.6,0.3
2025-03-26T1600,2311A,115.8072,33.8399,亳州市,污水处理厂,,,,76,35,35,173,,158,158,,18,,6,0.5,0.5
2025-03-26T1600,2312A,115.7789,33.8518,亳州市,三国揽胜宫,颗粒物(PM10),63,76,76,36,37,169,,153,153,2,12,6,6,0.4,0.4
2025-03-26T1600,3332A,115.7633,33.8034,亳州市,亳州学院,臭氧1小时,63,57,71,35,34,170,,153,153,5,11,6,7,0.5,0.5
2025-03-26T1600,2693A,82.0485,44.8556,博尔塔拉蒙古自治州,市党校,,,60,99,11,17,88,,82,79,9,10,3,3,,0
2025-03-26T1600,2694A,82.0806,44.8969,博尔塔拉蒙古自治州,市环保局,,,,117,12,15,60,,76,62,12,11,3,3,1.1,0.4
2025-03-26T1600,1071A,116.8842,38.2991,沧州市,沧县城建局,颗粒物(PM10),103,156,110,56,35,71,,69,68,29,23,12,5,0.5,0.3
2025-03-26T1600,1072A,116.8584,38.3254,沧州市,电视转播站,颗粒物(PM10),92,133,99,63,32,75,,72,72,33,24,13,6,0.6,0.4
2025-03-26T1600,1073A,116.8709,38.3228,沧州市,市环保局,颗粒物(PM10),87,123,100,56,35,72,,70,69,31,23,14,10,0.6,0.3
2025-03-26T1600,3324A,116.8136,38.3004,沧州市,河北水利电力学院,颗粒物(PM10),111,171,125,60,37,70,,68,66,33,23,12,8,0.7,0.3
2025-03-26T1600,2622A,97.1806,31.1273,昌都市,昌都监测站,,37,15,12,3,6,117,,93,93,1,6,7,6,0.2,0.3
2025-03-26T1600,3719A,97.1714,31.1406,昌都市,昌都会议中心,,37,18,12,3,6,116,,88,88,6,3,2,2,0.3,0.4
2025-03-26T1600,2690A,88.1236,43.8886,昌吉回族自治州,天山天池,,36,36,18,3,7,88,,85,85,4,4,3,3,0.5,0.5
2025-03-26T1600,2692A,87.2717,44.0297,昌吉回族自治州,新区政务中心,,36,36,56,8,7,77,,76,68,2,5,7,8,0.5,0.5
2025-03-26T1600,3613A,87.3095,44.0142,昌吉回族自治州,亚心广场,,44,44,63,9,9,74,,79,66,6,8,5,5,0.4,0.4
2025-03-26T1600,1119A,125.3325,43.9166,长春市,食品厂,,,70,85,66,86,72,,66,66,,38,8,7,0.7,0.7
2025-03-26T1600,1120A,125.2863,43.9027,长春市,客车厂,细颗粒物(PM2.5),98,,89,73,103,67,,64,64,24,37,6,5,0.8,0.8
2025-03-26T1600,1121A,125.2841,43.8463,长春市,邮电学院,细颗粒物(PM2.5),118,,88,89,99,36,,63,62,51,31,28,8,0.6,0.6
2025-03-26T1600,1122A,125.3716,43.8772,长春市,劳动公园,细颗粒物(PM2.5),124,,63,94,75,63,,63,63,16,22,7,6,1.0,0.8
2025-03-26T1600,1123A,125.3297,43.8805,长春市,园林处,细颗粒物(PM2.5),117,,72,88,79,75,,67,67,17,26,7,6,0.6,0.5
2025-03-26T1600,1124A,125.4605,43.79,长春市,净月潭,细颗粒物(PM2.5),102,78,72,76,71,65,,64,64,12,15,6,6,0.6,0.5
2025-03-26T1600,1125A,125.7194,43.515,长春市,甩湾子,细颗粒物(PM2.5),65,56,53,47,53,80,,70,70,9,14,2,2,0.6,0.6
2025-03-26T1600,1126A,125.3863,43.8447,长春市,经开区环卫处,细颗粒物(PM2.5),114,,68,86,73,57,,58,58,21,28,6,5,0.8,0.6
2025-03-26T1600,1127A,125.245,43.7783,长春市,高新区管委会,细颗粒物(PM2.5),105,,115,79,130,70,,63,63,18,38,8,7,0.6,0.7
2025-03-26T1600,1128A,125.1761,43.8325,长春市,岱山公园,细颗粒物(PM2.5),99,,114,74,126,67,,60,60,33,50,5,4,0.9,0.9
2025-03-26T1600,1335A,113.0833,28.2325,长沙市,经开区环保局,细颗粒物(PM2.5),74,85,88,54,60,173,,151,151,11,25,7,12,0.7,0.8
2025-03-26T1600,1336A,112.8872,28.2189,长沙市,高开区环保局,细颗粒物(PM2.5),78,81,87,57,62,175,,146,146,4,13,8,10,0.8,0.8
2025-03-26T1600,1337A,113.0792,28.2053,长沙市,马坡岭,细颗粒物(PM2.5),77,81,94,56,62,158,,137,137,5,22,7,9,0.6,0.7
2025-03-26T1600,1338A,112.9394,28.19,长沙市,湖南师范大学,细颗粒物(PM2.5),75,88,87,55,60,164,,142,142,5,13,8,9,1.0,0.9
2025-03-26T1600,1339A,113.0178,28.1322,长沙市,雨花区环保局,细颗粒物(PM2.5),72,84,87,52,57,166,,145,145,10,24,9,11,0.7,0.8
2025-03-26T1600,1340A,112.9792,28.2597,长沙市,伍家岭,细颗粒物(PM2.5),78,96,116,57,70,166,,133,133,12,48,6,6,0.8,0.9
2025-03-26T1600,1341A,113.0014,28.1944,长沙市,火车新站,,,89,98,56,62,160,,141,141,10,43,,11,,1
2025-03-26T1600,1342A,112.9844,28.1178,长沙市,天心区环保局,细颗粒物(PM2.5),79,81,85,58,61,176,,153,153,12,22,4,6,0.5,0.8
2025-03-26T1600,1343A,112.8908,28.1308,长沙市,湖南中医药大学,细颗粒物(PM2.5),80,104,101,59,63,167,,138,138,8,42,6,6,1.1,1.1
2025-03-26T1600,1344A,112.9581,28.3611,长沙市,沙坪,"颗粒物(PM10),细颗粒物(PM2.5)",74,98,80,54,58,158,,130,130,11,17,9,10,1.0,1.1
2025-03-26T1600,1727A,113.1147,36.1547,长治市,清华站,颗粒物(PM10),85,120,159,48,56,140,,120,120,17,19,14,8,0.7,0.6
2025-03-26T1600,1730A,113.0886,36.2125,长治市,审计局,颗粒物(PM10),88,126,183,61,67,138,,112,112,22,27,18,14,0.7,0.7
2025-03-26T1600,1731A,113.0844,36.1856,长治市,长治八中,颗粒物(PM10),108,165,201,64,73,142,,114,114,19,23,17,12,0.8,0.8
2025-03-26T1600,2845A,113.1569,36.1911,长治市,德盛苑,颗粒物(PM10),96,141,174,63,62,141,,99,,18,19,17,9,0.9,0.7
2025-03-26T1600,3568A,113.06,36.0464,长治市,向阳小学,颗粒物(PM10),112,174,140,66,54,127,,106,106,19,21,15,15,0.5,0.6
2025-03-26T1600,3569A,112.8792,36.3144,长治市,屯留一中,颗粒物(PM10),106,162,176,59,61,134,,109,109,20,30,15,15,0.3,0.9
2025-03-26T1600,4189A,113.1131,36.19948,长治市,英华南巷50号,颗粒物(PM10),100,150,208,63,74,140,,116,116,22,24,19,14,1.1,1.2
2025-03-26T1600,4190A,113.2367,36.3344,长治市,学府街1号,颗粒物(PM10),104,158,322,68,79,147,,123,123,8,33,17,13,0.8,1
2025-03-26T1600,1854A,111.6975,28.9703,常德市,市二中,颗粒物(PM10),66,82,73,44,59,129,,118,118,5,17,4,8,0.6,0.7
2025-03-26T1600,1857A,111.7158,29.1456,常德市,白鹤山,,,,,,,,,,,,,,,,
2025-03-26T1600,3138A,111.7153,29.0289,常德市,武陵区永安,,,,82,,54,,,,,,11,,7,,0.4
2025-03-26T1600,3139A,111.6892,28.9881,常德市,鼎城区玉霞,颗粒物(PM10),67,84,80,46,51,151,,125,125,2,18,5,8,0.5,0.7
2025-03-26T1600,3140A,111.6625,29.0531,常德市,武陵区长庚,细颗粒物(PM2.5),62,61,85,44,57,149,,131,131,2,20,5,8,0.6,0.8
2025-03-26T1600,1196A,119.9633,31.762,常州市,市监测站,臭氧1小时,118,86,119,46,55,235,,176,176,28,58,2,2,0.7,0.9
2025-03-26T1600,1200A,119.9468,31.7069,常州市,武进监测站,臭氧1小时,117,74,91,36,43,233,,174,174,22,41,13,9,0.8,0.8
2025-03-26T1600,1201A,119.9255,31.9087,常州市,安家,臭氧1小时,110,81,104,42,49,220,,171,171,20,65,11,11,0.5,0.7
2025-03-26T1600,3002A,119.9805,31.8174,常州市,行政中心,臭氧1小时,113,79,92,45,47,226,,172,172,26,43,22,20,0.5,0.7
2025-03-26T1600,3003A,120.0522,31.7748,常州市,经开区,臭氧1小时,117,101,116,48,51,233,,182,182,29,70,15,17,1.5,1.4
2025-03-26T1600,3010A,119.9025,31.7964,常州市,钟楼,臭氧1小时,113,92,101,45,47,225,,171,171,24,44,10,10,0.9,1.1
2025-03-26T1600,3429A,119.8598,31.7066,常州市,武进经发区,臭氧1小时,118,85,107,47,55,235,,166,166,27,49,10,14,0.7,0.9
2025-03-26T1600,3430A,119.5826,31.7245,常州市,金坛城区,臭氧1小时,115,80,102,44,50,229,,166,166,19,32,13,14,1.1,0.9
2025-03-26T1600,2220A,120.4318,41.5881,朝阳市,西梁,颗粒物(PM10),63,76,62,25,42,107,,89,89,14,13,12,14,0.6,0.6
2025-03-26T1600,2221A,120.4521,41.5646,朝阳市,河畔小区,颗粒物(PM10),69,87,60,27,40,100,,94,94,28,13,9,10,0.6,0.6
2025-03-26T1600,2222A,120.4176,41.5648,朝阳市,八里堡,颗粒物(PM10),66,82,62,30,38,108,,88,88,11,12,9,10,0.5,0.5
2025-03-26T1600,2223A,120.3806,41.5969,朝阳市,农业园区,,,,64,,46,109,,100,100,15,21,10,12,,0.7
2025-03-26T1600,1705A,116.6367,23.6719,潮州市,西园路,,,,,,,,,,,,,,,,
2025-03-26T1600,3026A,116.6183,23.6608,潮州市,市政府,颗粒物(PM10),56,61,63,29,43,143,,120,120,22,25,6,11,0.6,0.7
2025-03-26T1600,4036A,116.6461,23.6761,潮州市,金山,颗粒物(PM10),59,67,60,28,42,153,,127,127,18,24,9,11,0.6,0.6
2025-03-26T1600,2472A,113.0073,25.9061,郴州市,马头岭,,,,80,,36,127,,128,120,14,16,8,11,0.7,0.7
2025-03-26T1600,2473A,113.0116,25.8226,郴州市,市职中,细颗粒物(PM2.5),72,63,71,52,52,156,,162,145,10,14,8,10,0.7,0.7
2025-03-26T1600,2475A,113.0383,25.8071,郴州市,市审计局,细颗粒物(PM2.5),70,72,66,51,49,158,,166,145,12,13,4,5,0.5,0.5
2025-03-26T1600,2476A,113.0348,25.7759,郴州市,市环保局,细颗粒物(PM2.5),75,78,78,55,51,156,,164,143,11,12,22,10,0.6,0.6
2025-03-26T1600,4252A,113.0138,25.8011,郴州市,好美居路49号,细颗粒物(PM2.5),70,82,69,51,49,152,,167,139,11,12,9,10,0.7,0.7
2025-03-26T1600,1431A,103.9728,30.7236,成都市,金泉两河,臭氧1小时,112,82,87,38,50,223,,142,142,15,57,6,4,0.8,1.2
2025-03-26T1600,1432A,104.176,30.6872,成都市,十里店,臭氧1小时,113,69,88,41,52,225,,153,153,17,45,8,8,0.7,0.8
2025-03-26T1600,1433A,104.079,30.5706,成都市,三瓦窑,臭氧1小时,113,69,94,32,51,225,,132,132,21,77,7,6,0.7,1.2
2025-03-26T1600,1434A,104.1114,30.63,成都市,沙河铺,臭氧1小时,105,64,88,36,58,210,,132,132,17,53,10,7,0.6,0.9
2025-03-26T1600,1437A,104.0786,30.6531,成都市,君平街,臭氧1小时,108,70,94,41,59,216,,145,145,17,63,9,10,0.8,1.1
2025-03-26T1600,1438A,103.613,31.0283,成都市,灵岩寺,,,,,,,,,,,,,,,,
2025-03-26T1600,2880A,104.0239,30.65639,成都市,大石西路,臭氧1小时,112,66,96,35,61,223,,155,155,21,59,7,6,0.7,1.1
2025-03-26T1600,3136A,104.2725,30.5589,成都市,龙泉驿区区政府,,,,65,,36,195,,133,133,,26,,7,0.6,0.8
2025-03-26T1600,3357A,104.0106,30.6931,成都市,金博路,臭氧1小时,101,55,86,24,48,202,,132,132,14,63,10,9,0.6,1
2025-03-26T1600,3359A,104.0578,30.5225,成都市,华阳,臭氧1小时,115,73,91,44,57,229,,132,132,19,69,9,7,0.7,1.3
2025-03-26T1600,3488A,104.3853,30.7453,成都市,青白江技师分院,臭氧1小时,106,53,72,34,48,211,,151,151,14,46,10,10,0.7,0.8
2025-03-26T1600,3489A,104.0789,30.4072,成都市,科学城,臭氧1小时,107,53,74,34,45,213,,130,130,14,45,8,6,0.7,0.9
2025-03-26T1600,4011A,103.8506,30.6947,成都市,光华大道三段,臭氧1小时,124,77,75,32,43,247,,162,162,23,50,8,6,0.7,0.9
2025-03-26T1600,4224A,104.2433,30.5353,成都市,鲸龙路1057号,臭氧1小时,104,49,85,30,51,208,,149,149,15,50,9,8,0.8,1
2025-03-26T1600,1062A,117.9531,40.9081,承德市,铁路,颗粒物(PM10),103,156,67,28,17,99,,87,87,13,19,14,10,0.5,0.5
2025-03-26T1600,1063A,117.9392,40.9763,承德市,中国银行,颗粒物(PM10),126,201,64,38,15,99,,86,86,6,12,5,6,0.3,0.5
2025-03-26T1600,1064A,117.9503,40.928,承德市,开发区,颗粒物(PM10),123,195,75,28,21,104,,88,88,9,17,10,11,0.4,0.5
2025-03-26T1600,1065A,117.8051,40.9655,承德市,文化中心,颗粒物(PM10),123,195,81,38,16,99,,86,86,13,17,17,9,0.7,0.5
2025-03-26T1600,1066A,117.9268,41.0026,承德市,离宫,颗粒物(PM10),121,191,57,30,20,70,,62,62,7,9,24,25,0.3,0.4
2025-03-26T1600,2314A,117.47,30.6618,池州市,池州学院,臭氧1小时,69,75,65,48,41,175,,141,141,10,31,9,10,0.8,0.7
2025-03-26T1600,3237A,117.4918,30.6617,池州市,展览馆,臭氧1小时,73,73,65,45,38,178,,139,139,8,27,8,8,0.7,0.7
2025-03-26T1600,3333A,117.5627,30.695,池州市,第八中学,臭氧1小时,80,78,68,46,42,184,,144,144,8,25,8,9,0.6,0.6
2025-03-26T1600,3334A,117.5038,30.6243,池州市,第十二中学,细颗粒物(PM2.5),77,73,67,56,42,180,,150,150,6,25,8,9,0.6,0.8
2025-03-26T1600,1744A,118.9233,42.2816,赤峰市,松山一中,颗粒物(PM10),193,336,88,43,19,90,,80,80,10,18,7,11,0.3,0.5
2025-03-26T1600,1745A,118.9576,42.2728,赤峰市,哈达街,颗粒物(PM10),197,344,91,52,23,76,,65,,12,16,7,13,0.3,0.7
2025-03-26T1600,1746A,118.8788,42.2554,赤峰市,天义路,颗粒物(PM10),200,350,88,75,30,85,,76,76,11,16,6,9,0.3,0.3
2025-03-26T1600,3058A,119.2658,42.0353,赤峰市,银河街,颗粒物(PM10),198,345,87,66,31,90,,75,75,11,19,11,18,0.4,0.7
2025-03-26T1600,3286A,118.9359,42.3147,赤峰市,桥北物流园区,颗粒物(PM10),178,306,77,68,31,89,,80,80,7,18,6,12,0.5,0.8
2025-03-26T1600,2521A,107.3476,22.4136,崇左市,市环保局江州分局,"颗粒物(PM10),细颗粒物(PM2.5)",65,79,72,47,43,164,,111,111,10,12,12,13,0.7,0.7
2025-03-26T1600,4256A,107.3750,22.3736,崇左市,石景林东路7号,臭氧1小时,77,79,70,53,46,181,,122,122,14,17,13,14,0.6,0.6
2025-03-26T1600,2298A,118.3093,32.3153,滁州市,老年大学,臭氧1小时,106,66,76,45,43,212,,167,167,14,26,13,11,0.7,0.8
2025-03-26T1600,2299A,118.3244,32.2786,滁州市,人大宾馆,臭氧1小时,102,71,76,54,45,203,,159,159,16,40,15,14,0.6,0.8
2025-03-26T1600,3207A,118.3118,32.3038,滁州市,市政府原办公楼,臭氧1小时,107,66,67,44,42,214,,166,166,6,28,10,11,0.5,0.7
2025-03-26T1600,3331A,118.3267,32.2634,滁州市,图书馆,臭氧1小时,101,77,69,,39,202,,158,158,11,32,13,15,,0.8
2025-03-26T1600,2605A,101.5482,25.0441,楚雄彝族自治州,州环境监测站,,47,12,33,10,27,150,,126,126,5,17,6,9,0.3,0.5
2025-03-26T1600,2606A,101.538,25.0492,楚雄彝族自治州,市经济开发区,,,,35,10,28,148,,118,118,5,17,5,8,0.4,0.6
2025-03-26T1600,2548A,107.5277,31.2827,达州市,达州职业技术学院,臭氧1小时,64,58,68,26,32,171,,112,112,9,39,12,11,0.3,0.3
2025-03-26T1600,2549A,107.5086,31.2186,达州市,市环境监测站,臭氧1小时,68,42,65,19,28,174,,99,99,16,51,10,11,0.7,0.8
2025-03-26T1600,2550A,107.4988,31.2132,达州市,凤凰小区,臭氧1小时,55,46,69,24,34,164,,100,100,27,53,14,14,0.6,0.8
2025-03-26T1600,2551A,107.5082,31.1986,达州市,达县机关宾馆,,50,48,83,23,37,160,,102,102,20,61,9,10,0.7,1.1
2025-03-26T1600,2552A,107.4644,31.2124,达州市,市政中心,,,,74,,33,164,,98,98,14,59,15,15,0.5,1
2025-03-26T1600,2614A,100.1542,25.7054,大理白族自治州,大理市环境监测站,,40,15,21,13,20,126,,109,109,6,10,7,7,0.4,0.5
2025-03-26T1600,2615A,100.2171,25.5811,大理白族自治州,大理古城,,37,14,25,3,17,118,,111,111,5,10,7,7,0.4,0.4
2025-03-26T1600,1109A,121.612,38.9741,大连市,甘井子,颗粒物(PM10),82,113,175,57,55,107,,106,106,26,19,5,5,0.7,0.6
2025-03-26T1600,1110A,121.565,38.9511,大连市,周水子,细颗粒物(PM2.5),92,128,167,68,61,95,,93,93,26,23,9,7,0.5,0.4
2025-03-26T1600,1111A,121.5637,38.8845,大连市,星海三站,颗粒物(PM10),84,118,151,54,54,108,,104,104,10,9,7,7,0.7,0.6
2025-03-26T1600,1112A,121.6302,38.9117,大连市,青泥洼桥,颗粒物(PM10),80,109,146,56,55,113,,105,105,6,9,8,8,0.8,0.6
2025-03-26T1600,1113A,121.6251,38.8638,大连市,傅家庄,,,120,155,,86,107,,103,103,15,17,8,8,0.7,0.6
2025-03-26T1600,1114A,121.5213,38.8661,大连市,七贤岭,颗粒物(PM10),93,135,161,51,52,109,,101,101,13,13,5,5,0.4,0.5
2025-03-26T1600,1115A,121.2529,38.8061,大连市,旅顺,颗粒物(PM10),78,106,133,48,51,107,,98,98,12,12,9,8,0.6,0.7
2025-03-26T1600,1116A,121.7485,39.1311,大连市,金州,颗粒物(PM10),92,133,177,51,52,108,,106,106,18,17,7,7,0.9,1.2
2025-03-26T1600,1117A,121.7811,39.0496,大连市,开发区,颗粒物(PM10),80,109,162,46,54,96,,95,95,22,18,6,5,1.0,0.8
2025-03-26T1600,1118A,121.9762,39.0631,大连市,双D港,颗粒物(PM10),85,120,142,59,60,107,,108,108,22,18,8,6,0.9,0.8
2025-03-26T1600,1789A,124.81117,46.03138,大庆市,大同区,细颗粒物(PM2.5),147,120,85,112,69,48,,60,60,27,24,5,6,0.7,0.5
2025-03-26T1600,1790A,125.129,46.533,大庆市,龙凤区,细颗粒物(PM2.5),62,58,53,44,27,66,,64,64,15,20,4,7,0.5,0.5
2025-03-26T1600,1791A,124.902,46.408,大庆市,红岗区,细颗粒物(PM2.5),69,51,49,50,42,59,,71,71,17,16,5,6,0.6,0.5
2025-03-26T1600,1792A,125.153,46.586,大庆市,萨尔图区,细颗粒物(PM2.5),64,60,49,46,29,61,,63,63,16,15,7,9,0.4,0.4
2025-03-26T1600,1793A,124.9042,46.6215,大庆市,让胡路区,细颗粒物(PM2.5),69,,48,50,36,56,,60,60,23,25,7,10,0.4,0.4
2025-03-26T1600,3481A,125.141,46.634,大庆市,萨区政府监测点,颗粒物(PM10),58,65,45,39,21,69,,70,70,14,13,5,6,0.4,0.4
2025-03-26T1600,1721A,113.3819,40.1097,大同市,果树场,,,,122,,43,99,,74,74,5,36,6,14,0.5,0.9
2025-03-26T1600,1723A,113.2994,40.0758,大同市,云冈宾馆,颗粒物(PM10),126,201,143,40,37,111,,90,90,6,40,7,15,0.4,0.9
2025-03-26T1600,1724A,113.3444,40.0917,大同市,大同大学,颗粒物(PM10),138,226,137,34,39,108,,83,83,2,30,13,23,0.3,0.7
2025-03-26T1600,1725A,113.2661,40.1269,大同市,安家小村,颗粒物(PM10),147,244,146,35,43,103,,91,91,2,29,7,15,0.2,0.8
2025-03-26T1600,1726A,113.2711,40.0844,大同市,教育学院,颗粒物(PM10),143,236,150,43,46,108,,86,86,8,39,6,14,0.3,0.7
2025-03-26T1600,3282A,113.3397,40.0597,大同市,大同市卫生学校,颗粒物(PM10),131,212,136,39,53,105,,79,79,7,38,5,14,0.3,0.7
2025-03-26T1600,3565A,113.1367,40.1122,大同市,云冈站,颗粒物(PM10),150,249,167,48,48,102,,85,85,6,34,8,21,0.3,0.5
2025-03-26T1600,3566A,113.1186,40.2556,大同市,图书馆,颗粒物(PM10),172,294,136,45,49,98,,86,86,4,19,7,12,0.7,0.9
2025-03-26T1600,3567A,113.5931,40.0461,大同市,区一中,颗粒物(PM10),156,261,130,15,26,108,,78,78,5,17,16,21,0.1,0.4
2025-03-26T1600,4199A,113.2798,40.0997,大同市,魏都大道141号,颗粒物(PM10),143,235,165,41,49,110,,88,88,6,42,10,18,0.3,0.9
2025-03-26T1600,2269A,124.1069,50.4097,大兴安岭地区,科技局,,29,20,19,20,16,74,,72,72,12,5,6,6,0.4,0.3
2025-03-26T1600,3663A,124.1164,50.4278,大兴安岭地区,红旗社区,,26,12,9,6,6,82,,73,73,4,13,5,11,0.3,0.4
2025-03-26T1600,1600A,124.3303,40.0625,丹东市,江湾东路,颗粒物(PM10),76,101,139,28,65,96,,79,79,18,22,12,11,0.6,0.9
2025-03-26T1600,1601A,124.4256,40.1503,丹东市,临江后街,颗粒物(PM10),69,87,136,20,65,89,,74,74,15,21,11,11,0.8,0.9
2025-03-26T1600,1602A,124.3933,40.1461,丹东市,元宝山,颗粒物(PM10),69,88,122,30,59,86,,70,70,18,23,9,8,0.5,0.5
2025-03-26T1600,1603A,124.3633,40.1092,丹东市,民主桥,颗粒物(PM10),78,105,129,21,59,93,,73,73,14,24,10,9,0.7,0.8
2025-03-26T1600,3541A,109.5726,19.5167,儋州市,第一中学子站,,34,31,47,20,30,106,,96,96,7,9,5,5,0.7,0.7
2025-03-26T1600,3542A,109.5567,19.5187,儋州市,东坡学校子站,,41,41,48,20,29,114,,104,104,6,9,7,6,0.6,0.7
2025-03-26T1600,2616A,98.5842,24.428,德宏傣族景颇族自治州,德宏州监测站,,48,39,56,24,39,151,,109,109,10,28,8,8,0.4,0.6
2025-03-26T1600,3677A,98.5881,24.4368,德宏傣族景颇族自治州,芒市人民政府综合楼,颗粒物(PM10),53,55,62,36,36,149,,109,109,10,16,10,9,0.2,0.4
2025-03-26T1600,1901A,104.4239,31.1208,德阳市,东山公园,臭氧1小时,79,50,77,34,52,183,,162,162,9,21,6,7,0.5,0.6
2025-03-26T1600,1902A,104.3826,31.1317,德阳市,西小区,臭氧1小时,80,53,94,33,66,184,,151,151,11,50,8,9,0.5,0.7
2025-03-26T1600,1904A,104.3553,31.1091,德阳市,耐火材料厂,臭氧1小时,88,67,91,35,65,190,,167,167,12,44,8,11,0.5,0.6
2025-03-26T1600,3639A,104.4019,31.1244,德阳市,市教育局,臭氧1小时,89,52,80,35,61,191,,146,146,10,61,8,8,0.5,0.8
2025-03-26T1600,1622A,116.3032,37.4674,德州市,儿童乐园,颗粒物(PM10),112,173,113,46,29,80,,74,74,34,23,10,11,0.9,0.7
2025-03-26T1600,1624A,116.2991,37.4451,德州市,监理站,颗粒物(PM10),115,180,119,53,29,82,,74,74,23,19,18,18,0.5,0.3
2025-03-26T1600,3066A,116.2721,37.4379,德州市,九衢泉纯净水厂,颗粒物(PM10),108,166,103,53,24,80,,74,74,28,24,12,14,0.6,0.6
2025-03-26T1600,3371A,116.3728,37.4403,德州市,开发区人民医院,颗粒物(PM10),108,166,106,41,26,88,,76,76,23,24,10,10,0.5,0.4
2025-03-26T1600,3372A,116.3572,37.4094,德州市,太阳城中学,颗粒物(PM10),109,168,111,46,26,86,,75,75,25,25,9,11,0.5,0.5
2025-03-26T1600,3511A,116.5652,37.3319,德州市,陵城艺术中心,颗粒物(PM10),113,175,115,48,26,86,,72,72,26,24,8,12,0.6,0.6
2025-03-26T1600,2621A,99.7056,27.8317,迪庆藏族自治州,迪庆州站,,30,20,28,7,15,96,,87,87,6,12,8,8,0.3,0.5
2025-03-26T1600,3180A,99.7136,27.8094,迪庆藏族自治州,质量技术监督局,颗粒物(PM10),57,64,27,12,11,97,,86,86,9,15,9,9,0.4,0.5
2025-03-26T1600,4257A,104.6092,35.5962,定西市,将台街,颗粒物(PM10),192,334,490,87,104,107,,103,103,6,14,7,8,0.4,0.5
2025-03-26T1600,4309A,104.6159,35.5701,定西市,正龙路62号,颗粒物(PM10),193,336,516,95,125,106,,104,104,4,8,8,9,0.2,0.4
2025-03-26T1600,1389A,113.7547,23.0494,东莞市,莞城梨川,,41,38,48,22,24,129,,108,108,10,18,4,5,0.4,0.4
2025-03-26T1600,1390A,113.7944,23.0128,东莞市,东城石井,,42,38,43,18,21,133,,112,112,13,20,5,6,0.5,0.5
2025-03-26T1600,1391A,113.7383,22.9658,东莞市,南城西平,,38,31,41,20,19,120,,107,107,13,16,6,6,0.6,0.6
2025-03-26T1600,3319A,113.7338,23.0381,东莞市,万江金泰,,44,35,43,18,21,140,,119,119,5,13,12,6,0.6,0.7
2025-03-26T1600,3626A,113.7533,23.0202,东莞市,南城元岭,,38,36,43,18,19,121,,103,103,8,15,5,6,0.6,0.6
2025-03-26T1600,3627A,113.7875,23.0457,东莞市,东城主山,颗粒物(PM10),57,63,51,18,22,122,,107,107,25,23,7,8,0.5,0.5
2025-03-26T1600,1666A,118.6614,37.4309,东营市,市环保局,颗粒物(PM10),103,156,127,39,17,127,,108,108,26,22,8,8,0.5,0.5
2025-03-26T1600,3036A,118.6904,37.4338,东营市,开发区管委会,颗粒物(PM10),112,173,152,39,22,128,,108,108,31,26,8,8,0.6,0.6
2025-03-26T1600,3365A,118.5719,37.565,东营市,垦利区民丰路,颗粒物(PM10),104,158,142,36,20,112,,103,103,22,22,3,4,0.6,0.6
2025-03-26T1600,3498A,118.5055,37.8612,东营市,河口城区,颗粒物(PM10),133,215,163,37,18,106,,106,106,30,18,7,6,0.7,0.6
2025-03-26T1600,3646A,118.4978,37.4623,东营市,胜利站,颗粒物(PM10),109,167,120,31,17,123,,102,102,25,24,12,10,1.0,0.9
2025-03-26T1600,3734A,118.35,37.26,东营市,理想之城,颗粒物(PM10),120,190,120,51,26,126,,106,106,30,22,11,8,0.5,0.4
2025-03-26T1600,1591A,110.0023,39.8129,鄂尔多斯市,综合楼,颗粒物(PM10),179,307,552,48,106,96,,91,91,9,19,5,8,0.3,0.4
2025-03-26T1600,1592A,109.9486,39.8261,鄂尔多斯市,巴音孟克林场办事处,颗粒物(PM10),161,271,502,53,109,100,,93,93,7,21,6,9,0.3,0.4
2025-03-26T1600,1593A,109.7736,39.5986,鄂尔多斯市,康泽苑,颗粒物(PM10),174,298,527,53,110,99,,94,94,4,12,2,4,0.2,0.3
2025-03-26T1600,1594A,109.8119,39.5989,鄂尔多斯市,华泰汽车城,颗粒物(PM10),173,295,510,58,115,98,,93,93,6,17,4,5,0.3,0.4
2025-03-26T1600,1595A,109.9734,39.7884,鄂尔多斯市,奥林花园,颗粒物(PM10),165,280,534,36,95,101,,95,95,8,21,5,7,0.3,0.4
2025-03-26T1600,2436A,114.8938,30.3994,鄂州市,市政府,臭氧1小时,98,66,71,44,46,198,,167,167,13,17,9,11,1.3,1.4
2025-03-26T1600,2437A,114.8989,30.3714,鄂州市,赵家坝,臭氧1小时,82,57,75,42,41,185,,160,160,2,11,6,8,1.3,1.2
2025-03-26T1600,3654A,114.8094,30.4089,鄂州市,精准医疗中心,臭氧1小时,95,55,81,42,48,196,,180,180,8,26,4,24,0.7,1.6
2025-03-26T1600,2454A,109.4978,30.2981,恩施土家族苗族自治州,湖北民院,细颗粒物(PM2.5),75,,55,55,39,169,,113,113,4,25,3,2,0.6,0.1
2025-03-26T1600,2455A,109.4707,30.2798,恩施土家族苗族自治州,州电力总公司,细颗粒物(PM2.5),64,55,57,46,38,162,,92,92,15,35,10,6,0.1,0.2
2025-03-26T1600,3549A,109.5061,30.3772,恩施土家族苗族自治州,龙凤新区,细颗粒物(PM2.5),63,54,45,45,30,163,,95,95,12,16,7,6,0.6,0.4
2025-03-26T1600,2499A,108.3411,21.6158,防城港市,沙万,,39,39,36,16,22,64,,66,66,11,15,8,7,0.3,0.3
2025-03-26T1600,2500A,108.3514,21.7731,防城港市,防城档案局,,40,40,37,19,17,77,,70,70,5,10,1,3,0.1,0.2
2025-03-26T1600,2501A,108.3506,21.6414,防城港市,大海花园,,,30,34,12,15,77,,76,76,2,6,4,5,,0.6
2025-03-26T1600,1371A,113.1294,23.0067,佛山市,湾梁,颗粒物(PM10),54,58,60,27,24,151,,126,126,18,30,7,8,0.5,0.7
2025-03-26T1600,1372A,113.1083,23.0478,佛山市,华材职中,,,,54,,28,165,,138,138,18,28,6,7,0.4,0.5
2025-03-26T1600,1373A,113.144,23.0453,佛山市,南海气象局,颗粒物(PM10),59,68,59,28,30,125,,105,105,18,32,7,7,0.5,0.6
2025-03-26T1600,1374A,113.2881,22.8094,佛山市,顺德苏岗,颗粒物(PM10),52,54,55,19,20,111,,96,96,11,20,7,8,0.6,0.7
2025-03-26T1600,1376A,112.8383,22.8678,佛山市,高明孔堂,,40,37,42,27,26,127,,110,110,6,9,6,7,0.4,0.4
2025-03-26T1600,1377A,112.8836,23.1588,佛山市,三水监测站,颗粒物(PM10),53,56,60,34,34,129,,105,105,26,47,2,4,0.5,0.6
2025-03-26T1600,1378A,112.867,23.185,佛山市,三水云东海,,49,43,60,29,32,155,,121,121,20,41,3,3,0.5,0.5
2025-03-26T1600,3625A,113.2544,22.7642,佛山市,容桂街道办,,44,44,45,22,23,113,,97,97,17,24,8,8,0.6,0.7
2025-03-26T1600,1280A,119.3903,26.0543,福州市,鼓山,,,,64,,43,,,182,,,9,,3,,0.5
2025-03-26T1600,1282A,119.2681,26.0504,福州市,师大,臭氧1小时,78,89,80,32,53,182,,160,160,17,28,6,5,0.4,0.4
2025-03-26T1600,1283A,119.2984,26.1028,福州市,五四北路,臭氧1小时,73,82,75,42,53,178,,155,155,22,32,6,5,0.6,0.6
2025-03-26T1600,1284A,119.2648,26.0768,福州市,杨桥西路,臭氧1小时,78,94,85,44,56,182,,156,156,21,30,6,5,0.5,0.5
2025-03-26T1600,1285A,119.317,26.0746,福州市,紫阳,颗粒物(PM10),87,124,82,38,53,144,,127,127,47,38,6,6,0.3,0.4
2025-03-26T1600,3048A,119.5799,26.0936,福州市,九龙,臭氧1小时,64,72,66,36,46,171,,142,142,11,25,5,5,0.4,0.4
2025-03-26T1600,3526A,119.5189,25.9664,福州市,吴航,臭氧1小时,64,44,62,24,38,171,,148,148,11,19,6,6,0.4,0.5
2025-03-26T1600,1755A,123.7977,41.8491,抚顺市,望花区,细颗粒物(PM2.5),230,304,202,180,167,38,,56,44,78,38,19,15,2.3,1.4
2025-03-26T1600,1756A,123.9161,41.8822,抚顺市,顺城区,细颗粒物(PM2.5),253,271,190,203,158,26,,53,42,104,48,20,10,2.5,1.3
2025-03-26T1600,1757A,124.0436,41.8611,抚顺市,东洲区,细颗粒物(PM2.5),309,321,221,259,182,54,,57,44,65,40,9,8,2.1,1.5
2025-03-26T1600,1758A,123.9247,41.8642,抚顺市,新抚区,细颗粒物(PM2.5),287,310,199,237,180,23,,51,38,111,44,15,8,2.6,1.4
2025-03-26T1600,1759A,124.0972,41.8961,抚顺市,大伙房水库,细颗粒物(PM2.5),299,272,191,249,182,62,,61,55,55,35,9,8,2.2,1.4
2025-03-26T1600,1760A,123.7086,41.8391,抚顺市,沈抚新城,细颗粒物(PM2.5),214,229,179,164,160,47,,55,52,69,39,21,12,2.4,1.5
2025-03-26T1600,2376A,116.2127,28.0814,抚州市,桐源党溪,颗粒物(PM10),61,71,74,38,46,159,,142,142,2,12,5,6,0.5,0.5
2025-03-26T1600,2377A,116.3544,27.9831,抚州市,市站,颗粒物(PM10),62,74,81,25,24,146,,138,138,12,29,5,7,0.9,1.2
2025-03-26T1600,2378A,116.3565,27.963,抚州市,血防站,"颗粒物(PM10),细颗粒物(PM2.5)",59,67,77,42,47,145,,136,136,10,24,18,19,1.5,1.4
2025-03-26T1600,2379A,116.3564,28.0007,抚州市,采茶剧团,颗粒物(PM10),60,69,72,36,46,129,,116,116,8,13,3,4,0.7,0.7
2025-03-26T1600,2380A,116.385,27.9647,抚州市,医学分院,颗粒物(PM10),63,76,83,37,45,118,,106,106,10,21,4,7,0.8,1.2
2025-03-26T1600,2207A,121.6094,41.998,阜新市,工业园区,颗粒物(PM10),104,158,113,53,92,101,,86,86,23,26,13,13,0.6,0.7
2025-03-26T1600,2208A,121.6697,42.0279,阜新市,长青街,颗粒物(PM10),98,146,110,44,81,95,,84,84,25,22,17,12,0.6,0.7
2025-03-26T1600,2209A,121.6673,42.0705,阜新市,农业园区,颗粒物(PM10),100,149,110,44,80,101,,90,90,19,19,13,18,0.7,0.7
2025-03-26T1600,2210A,121.6717,42.0224,阜新市,东苑,颗粒物(PM10),111,171,110,48,85,87,,81,80,33,21,21,15,0.6,0.7
2025-03-26T1600,2211A,121.6506,42.0498,阜新市,玉龙新城,颗粒物(PM10),92,133,119,46,87,96,,86,86,24,31,12,21,0.6,0.7
2025-03-26T1600,2301A,115.8277,32.8929,阜阳市,市监测站,臭氧1小时,62,63,62,40,37,169,,144,144,12,24,9,9,0.4,0.4
2025-03-26T1600,2303A,115.8554,32.8605,阜阳市,开发区,臭氧1小时,70,71,70,31,32,176,,153,153,7,16,8,8,0.5,0.5
2025-03-26T1600,2875A,115.784,32.8892,阜阳市,阜阳职业技术学院,细颗粒物(PM2.5),55,58,60,39,32,161,,145,145,9,14,8,9,0.6,0.6
2025-03-26T1600,3468A,115.7901,32.8613,阜阳市,市规划展馆,臭氧1小时,80,70,69,49,41,184,,158,158,10,15,9,9,0.5,0.5
2025-03-26T1600,3469A,115.836,32.9183,阜阳市,枣园社区,臭氧1小时,84,69,72,58,43,187,,169,169,6,32,9,9,0.6,0.6
2025-03-26T1600,2669A,102.9099,34.9841,甘南藏族自治州,州政府,,,17,47,9,21,94,,72,72,,36,10,13,0.2,0.6
2025-03-26T1600,3380A,102.8914,34.9617,甘南藏族自治州,甘肃民族师范学院,,50,50,53,3,16,100,,78,78,2,32,7,9,0.2,0.4
2025-03-26T1600,2570A,101.9603,30.0475,甘孜藏族自治州,水桥子,,33,11,47,6,12,103,,78,78,16,36,4,4,0.7,0.7
2025-03-26T1600,3065A,101.9533,29.9972,甘孜藏族自治州,州环保局,,37,19,30,8,7,117,,95,95,5,13,5,5,0.4,0.4
2025-03-26T1600,3414A,115.8347,28.932,赣江新区,桑海产业园,臭氧1小时,84,90,94,49,51,187,,146,146,13,47,14,14,0.6,0.6
2025-03-26T1600,2362A,114.9017,25.9149,赣州市,通天岩,颗粒物(PM10),55,60,64,14,13,163,,199,177,2,5,9,13,1.1,1
2025-03-26T1600,2363A,114.9367,25.8664,赣州市,地委,颗粒物(PM10),56,62,63,36,42,126,,155,140,9,14,2,6,1.4,1.3
2025-03-26T1600,2364A,114.9461,25.8481,赣州市,气象台,颗粒物(PM10),53,56,66,32,36,137,,164,150,11,15,9,12,0.5,0.7
2025-03-26T1600,2365A,114.9322,25.8333,赣州市,市图书馆,颗粒物(PM10),54,57,63,35,41,134,,163,144,10,17,4,7,1.0,0.9
2025-03-26T1600,2366A,114.8905,25.8471,赣州市,华坚鞋城,颗粒物(PM10),53,56,65,33,38,142,,171,153,14,20,9,13,0.8,0.9
2025-03-26T1600,3109A,115.0093,25.8613,赣州市,赣县区卫计委,颗粒物(PM10),62,73,74,39,45,128,,132,132,5,19,6,7,0.7,0.8
2025-03-26T1600,2683A,106.2319,36.1417,固原市,马园,颗粒物(PM10),185,319,713,60,147,98,,94,94,10,19,5,5,0.5,0.5
2025-03-26T1600,2684A,106.2792,36.0022,固原市,监测站,颗粒物(PM10),155,260,587,66,130,110,,104,104,4,14,5,6,0.3,0.4
2025-03-26T1600,2685A,106.2375,36.0211,固原市,新区,颗粒物(PM10),149,248,564,81,126,110,,103,103,4,7,6,7,0.2,0.2
2025-03-26T1600,3522A,106.2177,35.9959,固原市,原州区十五小,颗粒物(PM10),161,272,503,73,114,104,,99,99,5,7,6,6,0.2,0.2
2025-03-26T1600,2543A,106.6308,30.5278,广安市,小平旧居,,,,,,,,,,,,,,,,
2025-03-26T1600,2544A,106.6303,30.4576,广安市,市委,臭氧1小时,70,47,71,39,43,176,,112,112,8,35,15,9,0.4,0.6
2025-03-26T1600,2545A,106.6271,30.4663,广安市,友谊中学,臭氧1小时,80,63,70,40,38,184,,117,117,21,34,11,4,0.6,0.7
2025-03-26T1600,2547A,106.6388,30.4551,广安市,广电花园,臭氧1小时,70,44,77,34,46,176,,104,104,13,44,12,6,0.6,0.9
2025-03-26T1600,2902A,106.6351,30.4865,广安市,北辰小学,臭氧1小时,75,55,63,32,37,180,,129,129,12,24,14,10,0.3,0.6
2025-03-26T1600,2523A,105.8945,32.4535,广元市,黑石坡,臭氧1小时,55,53,69,7,25,164,,102,102,8,18,2,7,0.4,0.5
2025-03-26T1600,2524A,105.821,32.4444,广元市,老城,臭氧1小时,62,25,62,11,28,169,,106,106,6,50,3,11,0.4,0.9
2025-03-26T1600,2526A,105.8628,32.4287,广元市,监测站,臭氧1小时,63,27,46,15,30,170,,109,109,9,22,9,17,0.4,0.6
2025-03-26T1600,3617A,105.8047,32.4166,广元市,经开区,,47,46,79,29,51,150,,96,96,10,43,9,16,0.6,0.8
2025-03-26T1600,1345A,113.2347,23.1423,广州市,广雅中学,臭氧1小时,60,56,60,28,30,168,,125,125,17,36,5,5,0.5,0.6
2025-03-26T1600,1346A,113.2612,23.105,广州市,市五中,颗粒物(PM10),57,64,58,30,28,150,,122,122,19,33,3,3,0.6,0.6
2025-03-26T1600,1348A,113.3478,23.0916,广州市,广东商学院,,40,40,57,21,28,122,,117,117,19,42,5,5,0.6,0.7
2025-03-26T1600,1349A,113.4332,23.1047,广州市,市八十六中,,42,42,49,16,20,115,,83,83,31,51,3,4,0.5,0.5
2025-03-26T1600,1350A,113.3505,22.9483,广州市,番禺中学,,45,45,52,19,26,121,,122,122,19,33,5,5,0.4,0.5
2025-03-26T1600,1351A,113.2146,23.3916,广州市,花都师范,臭氧1小时,97,71,67,33,30,197,,130,130,20,35,5,4,0.4,0.5
2025-03-26T1600,1352A,113.2597,23.1331,广州市,市监测站,,50,50,53,21,26,136,,114,114,19,36,6,6,0.5,0.6
2025-03-26T1600,1353A,113.5618,23.312,广州市,九龙镇镇龙,颗粒物(PM10),56,61,68,31,32,161,,107,107,26,42,6,7,0.4,0.5
2025-03-26T1600,1354A,113.2765,23.1544,广州市,麓湖,,49,49,53,20,25,151,,127,127,17,34,4,6,0.6,0.4
2025-03-26T1600,1355A,113.443,23.3035,广州市,帽峰山森林公园,臭氧1小时,74,56,55,20,21,179,,122,122,16,32,7,8,0.8,0.7
2025-03-26T1600,2846A,113.3221,23.1322,广州市,体育西,,45,45,59,18,28,130,,125,125,9,24,5,5,0.4,0.5
2025-03-26T1600,3298A,113.5717,23.5491,广州市,从化街口,臭氧1小时,105,65,67,35,34,209,,137,137,17,34,9,10,0.6,0.7
2025-03-26T1600,3299A,113.3472,23.3692,广州市,白云竹料,臭氧1小时,93,68,69,28,32,194,,136,136,22,39,8,9,0.6,0.5
2025-03-26T1600,3300A,113.2981,23.237,广州市,白云嘉禾,颗粒物(PM10),52,54,61,23,30,138,,123,123,25,44,4,5,0.2,0.3
2025-03-26T1600,3301A,113.4256,23.1716,广州市,黄埔科学城,,,48,61,19,27,,,100,100,20,42,9,10,0.9,0.5
2025-03-26T1600,3302A,113.3942,23.0483,广州市,番禺大学城,颗粒物(PM10),55,59,71,12,22,118,,116,116,22,36,11,11,0.3,0.4
2025-03-26T1600,3303A,113.4922,22.8168,广州市,南沙黄阁,颗粒物(PM10),55,59,47,12,20,85,,81,81,13,21,5,5,0.4,0.6
2025-03-26T1600,3304A,113.5342,22.7896,广州市,南沙街,,37,37,42,9,19,80,,81,81,14,20,4,4,0.5,0.6
2025-03-26T1600,3443A,113.2902,23.5544,广州市,花都梯面,臭氧1小时,120,72,73,31,35,239,,137,137,23,30,6,7,0.6,0.7
2025-03-26T1600,3445A,113.7858,23.7478,广州市,从化良口,臭氧1小时,89,56,59,41,41,191,,137,137,11,18,8,7,0.6,0.6
2025-03-26T1600,3446A,113.8051,23.2614,广州市,增城荔城,,49,47,61,24,30,155,,125,125,12,29,6,7,0.3,0.4
2025-03-26T1600,2505A,109.568,23.1478,贵港市,德智高中,,,,,,,,,,,,,,,,
2025-03-26T1600,2506A,109.6047,23.0666,贵港市,江南子站,,,58,57,34,33,122,,103,103,,17,5,5,0.7,0.7
2025-03-26T1600,2507A,109.6014,23.0948,贵港市,贵城子站,颗粒物(PM10),54,58,54,30,31,119,,100,100,10,14,7,7,0.7,0.7
2025-03-26T1600,2508A,109.5669,23.1065,贵港市,荷城子站,颗粒物(PM10),60,70,50,24,25,109,,96,96,11,15,4,8,0.4,0.4
2025-03-26T1600,3405A,109.5886,23.1172,贵港市,新世纪学校,颗粒物(PM10),56,61,51,29,32,120,,102,102,10,13,7,5,0.6,0.6
2025-03-26T1600,1439A,106.6899,26.5998,贵阳市,马鞍山,臭氧1小时,60,34,48,14,32,168,,140,140,8,19,6,5,0.3,0.5
2025-03-26T1600,1441A,106.6243,26.6266,贵阳市,鉴湖路,颗粒物(PM10),54,58,62,22,29,159,,133,133,6,10,8,10,0.4,0.4
2025-03-26T1600,1442A,106.7487,26.6343,贵阳市,燕子冲,,50,48,56,24,39,160,,140,140,12,23,1,8,0.3,0.6
2025-03-26T1600,1443A,106.6555,26.4365,贵阳市,碧云窝,颗粒物(PM10),57,63,64,14,33,162,,141,141,7,12,5,12,0.4,0.5
2025-03-26T1600,1445A,106.7109,26.6027,贵阳市,红边门,颗粒物(PM10),53,56,82,29,52,153,,134,134,17,45,12,17,0.2,1.1
2025-03-26T1600,1446A,106.7164,26.5699,贵阳市,新华路,,46,46,87,19,46,144,,130,130,7,39,84,34,0.4,1.1
2025-03-26T1600,1447A,106.674,26.5424,贵阳市,太慈桥,颗粒物(PM10),51,51,58,14,32,157,,132,132,8,28,6,8,0.4,0.5
2025-03-26T1600,1552A,106.805,26.3003,贵阳市,桐木岭,颗粒物(PM10),63,75,67,35,42,154,,128,128,7,7,28,23,0.3,0.6
2025-03-26T1600,4230A,106.6882,26.5695,贵阳市,花果园大街66号,,50,39,58,24,41,157,,129,129,9,32,5,10,0.2,0.4
2025-03-26T1600,4231A,106.6873,26.5169,贵阳市,漓江路57号,颗粒物(PM10),53,56,69,22,37,150,,128,128,18,32,10,14,0.4,0.5
2025-03-26T1600,1862A,110.4144,25.3167,桂林市,电子科大尧山校区,,,,,,,,,,,,,,,,
2025-03-26T1600,1864A,110.3089,25.2708,桂林市,龙隐路小学,细颗粒物(PM2.5),57,59,76,40,58,143,,120,120,7,21,9,11,0.5,0.7
2025-03-26T1600,1865A,110.2869,25.2178,桂林市,八中,细颗粒物(PM2.5),70,67,87,51,63,136,,109,109,8,35,8,10,0.7,0.9
2025-03-26T1600,3531A,110.296,25.1253,桂林市,旅游学院,颗粒物(PM10),60,70,70,31,49,138,,117,117,8,20,8,11,0.6,0.6
2025-03-26T1600,4222A,110.1835,25.2444,桂林市,环湖路276号,颗粒物(PM10),59,68,76,39,52,134,,112,112,9,28,6,9,0.4,0.5
2025-03-26T1600,4301A,110.2803,25.2773,桂林市,信义路13号,颗粒物(PM10),56,62,77,37,62,135,,117,117,8,27,11,13,0.6,0.9
2025-03-26T1600,2674A,100.2561,34.4714,果洛藏族自治州,玛沁县大武镇,,49,49,32,16,15,111,,94,94,2,4,9,13,0.3,0.4
2025-03-26T1600,1129A,126.5422,45.755,哈尔滨市,岭北,细颗粒物(PM2.5),79,73,50,58,36,90,,98,98,22,27,20,18,1.0,1.1
2025-03-26T1600,1130A,126.561,45.8167,哈尔滨市,松北商大,细颗粒物(PM2.5),72,52,59,52,36,64,,72,72,24,36,5,7,0.6,0.6
2025-03-26T1600,1131A,126.979,45.5419,哈尔滨市,阿城会宁,细颗粒物(PM2.5),62,57,50,44,35,86,,87,87,9,19,2,3,0.6,0.7
2025-03-26T1600,1132A,126.599,45.7222,哈尔滨市,南岗学府路,细颗粒物(PM2.5),62,66,54,44,24,69,,73,73,21,24,7,7,0.7,0.6
2025-03-26T1600,1133A,126.689,45.7733,哈尔滨市,太平宏伟公园,细颗粒物(PM2.5),83,,60,61,38,62,,69,69,28,32,6,8,1.0,1
2025-03-26T1600,1134A,126.635,45.7667,哈尔滨市,道外承德广场,细颗粒物(PM2.5),79,85,66,58,40,56,,63,63,31,34,6,7,0.7,0.7
2025-03-26T1600,1135A,126.685,45.7319,哈尔滨市,香坊红旗大街,,,,63,,36,55,,63,63,,29,10,12,0.5,0.8
2025-03-26T1600,1136A,126.6411,45.7258,哈尔滨市,动力和平路,细颗粒物(PM2.5),80,61,50,59,33,59,,67,67,27,25,10,11,0.7,0.5
2025-03-26T1600,1137A,126.593,45.7478,哈尔滨市,道里建国路,,,,47,,31,62,,71,71,24,27,6,4,1.0,0.6
2025-03-26T1600,1138A,126.615,45.61,哈尔滨市,平房东轻厂,细颗粒物(PM2.5),65,62,58,47,43,76,,75,75,9,24,8,8,0.7,0.8
2025-03-26T1600,1139A,126.595,45.9855,哈尔滨市,呼兰师专,细颗粒物(PM2.5),92,,60,68,37,66,,49,,25,33,8,9,0.7,0.7
2025-03-26T1600,1140A,126.6206,45.6842,哈尔滨市,省农科院,,,,53,,35,57,,67,67,32,32,9,10,0.6,0.7
2025-03-26T1600,2688A,93.5128,42.8172,哈密市,地区监测站,颗粒物(PM10),174,298,351,29,32,78,,78,70,4,6,7,8,0.1,0.2
2025-03-26T1600,2689A,93.4961,42.8328,哈密市,哈密师范学校,颗粒物(PM10),129,207,232,40,44,84,,83,76,5,9,4,4,0.3,0.2
2025-03-26T1600,2671A,100.9048,36.9639,海北藏族自治州,海晏县西海镇,颗粒物(PM10),64,78,29,19,13,103,,92,92,1,3,9,9,0.4,0.5
2025-03-26T1600,3867A,102.0738,36.5056,海东市,平安区公安北苑,颗粒物(PM10),500,1135,786,323,207,90,,90,90,6,12,9,12,0.9,0.8
2025-03-26T1600,1409A,110.576,19.9507,海口市,东寨港,,42,42,25,16,23,89,,73,73,5,4,4,4,0.2,0.2
2025-03-26T1600,1410A,110.3232,20.0574,海口市,海南大学,,48,48,38,29,19,138,,91,91,11,8,3,2,0.4,0.3
2025-03-26T1600,1411A,110.283,20.0053,海口市,秀英海南医院,颗粒物(PM10),51,51,38,34,21,132,,86,86,16,15,6,5,0.4,0.4
2025-03-26T1600,1412A,110.338,19.9969,海口市,海南师范大学,,46,45,36,32,18,146,,98,98,13,5,4,3,0.3,0.3
2025-03-26T1600,1413A,110.33,20.0356,海口市,龙华路环保局宿舍,,46,46,35,29,18,143,,96,96,12,6,6,5,0.4,0.3
2025-03-26T1600,3539A,110.5111,19.9736,海口市,桂林洋子站,,34,34,31,14,15,103,,86,86,6,8,3,3,0.2,0.3
2025-03-26T1600,2673A,100.6188,36.2866,海南藏族自治州,共和县恰卜恰镇,,,86,43,23,10,110,,84,84,1,11,,12,0.4,0.4
2025-03-26T1600,2676A,97.3731,37.3753,海西蒙古族藏族自治州,德令哈市,颗粒物(PM10),77,103,41,12,13,103,,79,79,2,8,8,13,0.4,0.5
2025-03-26T1600,1048A,114.5302,36.6116,邯郸市,东污水处理厂,颗粒物(PM10),72,94,152,27,31,75,,68,68,29,42,6,3,0.4,0.4
2025-03-26T1600,1049A,114.4918,36.5713,邯郸市,矿院,,,,187,27,35,74,,67,67,20,37,4,4,0.4,0.4
2025-03-26T1600,1050A,114.484,36.6133,邯郸市,丛台公园,颗粒物(PM10),70,89,165,30,40,74,,69,69,23,37,8,6,0.4,0.4
2025-03-26T1600,3458A,114.7895,36.5593,邯郸市,香泉濮院小区,颗粒物(PM10),72,93,183,23,30,100,,87,87,8,26,4,5,0.3,0.3
2025-03-26T1600,3579A,114.50634,36.77178,邯郸市,永年区实验高中,颗粒物(PM10),80,109,191,44,45,65,,67,67,27,37,8,7,0.6,0.5
2025-03-26T1600,3580A,114.20016,36.44293,邯郸市,峰峰矿区临水派出所,颗粒物(PM10),91,131,226,44,52,85,,78,78,12,12,15,15,0.9,0.9
2025-03-26T1600,2634A,106.9893,33.1842,汉中市,汉川机床厂子校,臭氧1小时,65,39,45,27,29,172,,131,131,4,7,10,8,0.5,0.5
2025-03-26T1600,2635A,107.0154,33.0706,汉中市,市监测站,臭氧1小时,54,,64,27,40,163,,113,113,8,29,6,8,0.6,0.9
2025-03-26T1600,2636A,107.0089,33.1138,汉中市,鑫源开发区,臭氧1小时,53,39,65,26,41,162,,113,113,14,40,6,10,0.6,0.8
2025-03-26T1600,2637A,107.007,33.0323,汉中市,南郑大河坎水厂,,50,41,60,30,36,157,,108,108,6,28,8,8,0.6,0.6
2025-03-26T1600,1223A,120.2072,30.2111,杭州市,滨江,臭氧1小时,105,77,72,40,40,209,,141,141,20,41,8,8,0.6,0.6
2025-03-26T1600,1224A,120.0633,30.2747,杭州市,西溪,臭氧1小时,93,80,60,54,38,194,,126,126,17,25,8,7,0.3,0.3
2025-03-26T1600,1226A,120.3417,30.3150,杭州市,下沙,臭氧1小时,105,91,97,52,48,209,,141,141,24,75,8,8,0.5,0.5
2025-03-26T1600,1227A,120.1269,30.2456,杭州市,卧龙桥,臭氧1小时,83,76,58,54,34,186,,126,126,10,31,8,6,0.5,0.5
2025-03-26T1600,1228A,120.1903,30.2692,杭州市,浙江农大,臭氧1小时,84,70,77,40,42,187,,150,150,13,46,4,4,0.5,0.5
2025-03-26T1600,1230A,120.1197,30.3119,杭州市,和睦小学,,,74,67,46,40,187,,130,130,,45,9,8,,0.7
2025-03-26T1600,1231A,120.3019,30.4183,杭州市,临平镇,臭氧1小时,104,63,99,44,51,208,,144,144,19,78,7,7,0.5,0.7
2025-03-26T1600,1232A,120.2753,30.1839,杭州市,城厢镇,臭氧1小时,117,94,85,45,45,234,,157,157,24,46,10,9,0.6,0.6
2025-03-26T1600,1233A,120.0883,30.1808,杭州市,云栖,臭氧1小时,87,76,64,44,32,189,,112,112,23,50,11,9,0.6,0.5
2025-03-26T1600,3557A,119.9464,30.0494,杭州市,镇二中,,,,64,,43,,,80,,,52,,8,,0.7
2025-03-26T1600,3558A,119.7183,30.2367,杭州市,市府大楼,颗粒物(PM10),65,79,66,46,39,167,,126,126,21,38,10,9,0.7,0.7
2025-03-26T1600,3656A,120.1556,30.2864,杭州市,消防大队,臭氧1小时,92,74,77,46,44,193,,138,138,15,46,4,4,0.6,0.6
2025-03-26T1600,1270A,117.1959,31.7848,合肥市,明珠广场,臭氧1小时,99,85,69,48,39,199,,174,174,13,24,9,8,0.6,0.5
2025-03-26T1600,1271A,117.3072,31.8764,合肥市,三里街,,,90,76,44,39,,,145,145,24,42,9,8,0.6,0.6
2025-03-26T1600,1272A,117.2588,31.8707,合肥市,琥珀山庄,臭氧1小时,98,90,71,54,46,198,,172,172,12,22,5,4,0.6,0.5
2025-03-26T1600,1273A,117.1604,31.9052,合肥市,董铺水库,臭氧1小时,104,85,74,44,33,208,,181,181,6,16,5,4,0.5,0.4
2025-03-26T1600,1274A,117.25,31.8571,合肥市,长江中路,臭氧1小时,94,90,72,57,43,195,,175,175,15,20,11,10,0.7,0.6
2025-03-26T1600,1275A,117.266,31.9436,合肥市,庐阳区,臭氧1小时,101,97,74,46,37,202,,174,174,16,22,12,10,0.7,0.6
2025-03-26T1600,1276A,117.3453,31.8616,合肥市,瑶海区,臭氧1小时,78,102,80,46,38,182,,159,159,20,29,10,9,0.7,0.7
2025-03-26T1600,1277A,117.3027,31.7964,合肥市,包河区,臭氧1小时,88,83,69,48,37,190,,169,169,8,21,8,7,0.7,0.7
2025-03-26T1600,1278A,117.2776,31.7385,合肥市,滨湖新区,,,85,69,53,40,184,,166,166,,19,8,12,0.6,0.5
2025-03-26T1600,1279A,117.1318,31.8403,合肥市,高新区,臭氧1小时,92,88,71,53,37,193,,169,169,12,17,8,6,0.8,0.7
2025-03-26T1600,3464A,117.3803,31.9147,合肥市,高教基地,臭氧1小时,102,84,71,58,40,204,,181,181,12,18,7,11,0.5,0.5
2025-03-26T1600,3614A,79.924,37.0877,和田地区,地区环保局,颗粒物(PM10),120,190,736,35,110,97,,84,84,5,15,1,2,0.9,0.9
2025-03-26T1600,3615A,79.9131,37.113,和田地区,市环保局,颗粒物(PM10),132,213,673,31,108,104,,88,88,5,15,1,2,0.5,0.7
2025-03-26T1600,2516A,108.2011,24.715,河池市,东仁乐园,细颗粒物(PM2.5),88,104,91,65,64,144,,100,100,10,26,10,10,0.9,1
2025-03-26T1600,2517A,108.0497,24.6947,河池市,市环保站,细颗粒物(PM2.5),75,71,79,55,59,144,,96,96,7,16,6,8,0.8,0.8
2025-03-26T1600,2518A,108.0983,24.6989,河池市,市疾控中心,,,73,81,54,60,149,,104,104,7,24,,11,0.8,0.9
2025-03-26T1600,1696A,114.6778,23.7569,河源市,源西,臭氧1小时,75,69,65,30,42,180,,126,126,15,28,5,6,0.7,0.8
2025-03-26T1600,1697A,114.6944,23.7586,河源市,东埔,臭氧1小时,90,53,70,32,43,192,,134,134,22,25,5,7,0.6,0.7
2025-03-26T1600,1698A,114.6892,23.7233,河源市,老城,臭氧1小时,98,66,68,35,41,198,,136,136,17,24,5,7,0.7,0.7
2025-03-26T1600,1718A,115.4208,35.2464,菏泽市,气象局,颗粒物(PM10),158,265,215,73,70,138,,122,122,23,22,16,8,0.5,0.6
2025-03-26T1600,3374A,115.5564,35.0891,菏泽市,定陶老年大学,颗粒物(PM10),137,224,193,66,59,156,,131,131,24,24,10,8,0.8,0.8
2025-03-26T1600,4184A,115.4797,35.24401,菏泽市,永昌路1号,颗粒物(PM10),153,256,248,80,75,150,,127,127,16,21,12,10,0.4,0.5
2025-03-26T1600,4193A,115.4715,35.2800,菏泽市,长城路999号,,,,242,,68,141,,129,129,,26,15,18,0.7,0.7
2025-03-26T1600,2514A,111.5264,24.4172,贺州市,环保小区,颗粒物(PM10),56,61,85,39,57,155,,127,127,10,27,10,15,0.8,1
2025-03-26T1600,2515A,111.5608,24.4078,贺州市,政协大楼,细颗粒物(PM2.5),59,48,77,42,55,144,,121,121,12,31,8,20,0.7,0.9
2025-03-26T1600,3534A,111.4744,24.4553,贺州市,西湾,细颗粒物(PM2.5),64,59,78,46,58,143,,117,117,11,33,10,11,0.8,0.9
2025-03-26T1600,2385A,114.17,35.9019,鹤壁市,市监测站,颗粒物(PM10),110,170,306,49,69,105,,84,84,22,37,16,9,0.9,0.8
2025-03-26T1600,2386A,114.2956,35.7511,鹤壁市,市交警支队,颗粒物(PM10),83,116,293,30,59,110,,88,88,12,32,8,10,0.1,0.5
2025-03-26T1600,2387A,114.2878,35.7306,鹤壁市,迎宾馆,颗粒物(PM10),93,135,335,30,45,114,,91,91,16,32,4,7,0.4,0.6
2025-03-26T1600,3474A,114.2617,35.6822,鹤壁市,大新区,颗粒物(PM10),102,153,323,39,68,117,,91,91,16,29,8,8,0.5,0.7
2025-03-26T1600,3596A,114.1572,35.9603,鹤壁市,南山宾馆,颗粒物(PM10),130,210,360,,62,109,,76,76,,29,9,11,0.6,0.6
2025-03-26T1600,2244A,130.2537,47.3416,鹤岗市,哈啤分公司,,21,16,21,13,14,66,,70,69,4,4,14,14,0.5,0.5
2025-03-26T1600,2245A,130.2684,47.3086,鹤岗市,斯达机电,,22,21,23,15,16,69,,73,73,3,5,13,14,0.3,0.3
2025-03-26T1600,2246A,130.3114,47.3388,鹤岗市,东山纸板厂,,23,13,54,9,20,72,,76,76,9,11,13,14,0.3,0.5
2025-03-26T1600,2247A,130.1097,47.3382,鹤岗市,五号水库,,,,,,,,,,,,,,,,
2025-03-26T1600,2263A,127.4833,50.2524,黑河市,交通局,,25,22,20,12,13,78,,70,70,8,9,8,7,0.4,0.5
2025-03-26T1600,2264A,127.5144,50.2341,黑河市,环保局,,25,23,17,12,15,80,,75,75,5,7,3,4,0.2,0.3
2025-03-26T1600,2265A,127.5291,50.2472,黑河市,大黑河岛,,,17,14,3,6,67,,63,63,9,8,1,2,,
2025-03-26T1600,1074A,115.6838,37.7541,衡水市,电机北厂,颗粒物(PM10),84,117,107,54,36,80,,76,76,25,23,12,10,0.5,0.3
2025-03-26T1600,1075A,115.6303,37.7316,衡水市,市监测站,颗粒物(PM10),78,105,91,38,26,83,,78,78,22,19,10,10,0.6,0.4
2025-03-26T1600,3188A,115.6683,37.7217,衡水市,市城管局,颗粒物(PM10),80,110,96,51,39,75,,72,72,24,23,6,8,0.6,0.4
2025-03-26T1600,3459A,115.5989,37.5491,衡水市,地表水厂,颗粒物(PM10),81,112,99,45,30,89,,84,84,21,26,12,13,0.5,0.3
2025-03-26T1600,2456A,112.5003,26.9167,衡阳市,原169医院,细颗粒物(PM2.5),63,59,90,45,54,105,,100,100,3,26,8,12,0.5,0.6
2025-03-26T1600,2457A,112.6194,26.9258,衡阳市,衡阳化工总厂,细颗粒物(PM2.5),82,77,99,60,77,139,,132,132,8,18,9,11,0.7,0.8
2025-03-26T1600,2458A,112.6211,26.8956,衡阳市,珠晖区环保局,细颗粒物(PM2.5),65,64,91,47,59,143,,132,132,5,28,8,11,0.9,1.1
2025-03-26T1600,2459A,112.6197,26.8733,衡阳市,市委党校,"颗粒物(PM10),细颗粒物(PM2.5)",64,78,92,46,59,143,,133,133,7,19,8,9,0.8,1
2025-03-26T1600,2460A,112.6006,26.8919,衡阳市,市监测站,细颗粒物(PM2.5),72,66,97,52,72,139,,129,129,8,33,10,16,0.8,1.2
2025-03-26T1600,2461A,112.5664,26.9056,衡阳市,真空机电公司,细颗粒物(PM2.5),70,71,94,51,59,141,,130,130,8,30,9,17,1.1,1.5
2025-03-26T1600,3399A,112.6703,26.882,衡阳市,师范学院,颗粒物(PM10),76,102,96,52,64,146,,136,136,8,17,9,11,0.8,0.9
2025-03-26T1600,2608A,103.3772,23.3993,红河哈尼族彝族自治州,污水处理厂,细颗粒物(PM2.5),69,,56,50,48,137,,127,127,6,7,8,9,0.4,0.5
2025-03-26T1600,2609A,103.3861,23.35,红河哈尼族彝族自治州,监测站,细颗粒物(PM2.5),59,55,59,42,41,141,,133,133,4,8,9,11,0.4,0.4
2025-03-26T1600,3038A,103.3758,23.368,红河哈尼族彝族自治州,州图书馆,细颗粒物(PM2.5),65,,56,47,43,138,,129,129,5,7,6,6,0.4,0.4
2025-03-26T1600,1090A,111.6507,40.7517,呼和浩特市,呼市一监,颗粒物(PM10),113,175,227,36,52,100,,100,100,2,19,8,10,0.3,0.5
2025-03-26T1600,1091A,111.6572,40.8033,呼和浩特市,小召,颗粒物(PM10),120,190,241,35,45,96,,97,97,8,24,2,4,0.3,0.4
2025-03-26T1600,1094A,111.7516,40.8369,呼和浩特市,如意水处理厂,颗粒物(PM10),115,180,226,36,59,88,,90,90,3,24,5,6,0.2,0.3
2025-03-26T1600,1095A,111.7276,40.8062,呼和浩特市,二十九中,颗粒物(PM10),130,209,238,45,55,97,,97,97,2,19,2,4,0.4,0.5
2025-03-26T1600,1096A,111.5512,40.7866,呼和浩特市,工大金川校区,颗粒物(PM10),113,175,221,36,52,97,,95,95,6,28,4,9,0.4,0.5
2025-03-26T1600,1097A,111.717,40.7612,呼和浩特市,化肥厂生活区,颗粒物(PM10),120,189,229,30,50,96,,96,96,7,22,5,8,0.3,0.4
2025-03-26T1600,3698A,111.5968,40.8178,呼和浩特市,红旗小学,颗粒物(PM10),112,173,245,39,51,100,,100,100,5,24,3,7,0.3,0.4
2025-03-26T1600,3699A,111.6518,40.8389,呼和浩特市,海东办,颗粒物(PM10),114,178,255,36,53,94,,96,96,3,18,6,7,0.4,0.5
2025-03-26T1600,2192A,119.7594,49.2261,呼伦贝尔市,区环保局,细颗粒物(PM2.5),75,72,43,55,28,84,,82,82,13,10,7,7,0.5,0.4
2025-03-26T1600,3061A,119.7512,49.1577,呼伦贝尔市,国华电力东,细颗粒物(PM2.5),62,61,37,44,21,89,,85,85,7,6,6,5,0.4,0.3
2025-03-26T1600,1250A,120.0751,30.8669,湖州市,城西水厂,臭氧1小时,90,80,93,45,44,192,,131,131,15,72,9,10,0.7,0.5
2025-03-26T1600,2873A,120.0830,30.8929,湖州市,仁皇山新区,臭氧1小时,82,80,83,44,43,185,,128,128,24,55,7,7,0.8,0.7
2025-03-26T1600,2907A,120.1844,30.8596,湖州市,吴兴区站,,,76,106,48,54,196,,134,134,14,50,,10,0.5,0.4
2025-03-26T1600,3562A,120.4148,30.8538,湖州市,南浔区站,臭氧1小时,113,74,119,45,62,225,,154,154,20,43,5,6,0.5,0.5
2025-03-26T1600,1607A,120.9049,40.7211,葫芦岛市,龙港区,细颗粒物(PM2.5),82,78,88,60,78,113,,98,98,17,21,9,24,0.7,0.7
2025-03-26T1600,1608A,120.8392,40.7514,葫芦岛市,化工街,颗粒物(PM10),90,129,99,56,62,110,,97,97,21,27,14,16,0.6,0.6
2025-03-26T1600,1609A,120.8341,40.7073,葫芦岛市,新区,细颗粒物(PM2.5),83,103,85,61,73,124,,105,105,22,29,11,12,0.7,0.7
2025-03-26T1600,1610A,120.8695,40.7677,葫芦岛市,东城区,细颗粒物(PM2.5),87,108,84,64,74,110,,95,95,24,32,6,9,0.7,0.7
2025-03-26T1600,2482A,109.5981,27.5721,怀化市,林科所,颗粒物(PM10),59,68,83,33,46,121,,120,110,10,12,4,6,0.3,0.3
2025-03-26T1600,2483A,109.9453,27.5444,怀化市,河西地税局,细颗粒物(PM2.5),67,67,81,48,57,126,,112,112,6,15,10,11,0.4,0.5
2025-03-26T1600,2484A,109.9781,27.5342,怀化市,市四医院,细颗粒物(PM2.5),73,93,100,53,63,129,,112,112,15,32,8,10,0.6,0.7
2025-03-26T1600,2485A,109.9972,27.5578,怀化市,监测楼,细颗粒物(PM2.5),60,66,88,43,57,134,,118,118,7,24,9,11,0.5,0.7
2025-03-26T1600,2486A,110.0394,27.583,怀化市,市委党校,细颗粒物(PM2.5),58,63,84,41,59,135,,117,117,6,20,5,7,0.7,0.8
2025-03-26T1600,1210A,119.036,33.5981,淮安市,钵池山,臭氧1小时,101,63,121,45,50,201,,164,164,9,21,13,12,0.8,0.9
2025-03-26T1600,1211A,119.007,33.575,淮安市,北京南路,臭氧1小时,105,73,132,43,55,210,,163,163,18,33,12,13,0.8,0.9
2025-03-26T1600,1212A,118.989,33.6067,淮安市,市监测站,臭氧1小时,107,63,120,44,51,214,,168,168,18,29,13,13,0.7,0.7
2025-03-26T1600,1213A,119.135,33.5039,淮安市,楚州区监测站,臭氧1小时,98,76,145,46,53,198,,159,159,6,27,11,10,0.6,0.6
2025-03-26T1600,3426A,118.8755,33.2894,淮安市,新华书店,臭氧1小时,102,63,105,47,56,204,,156,156,12,28,12,11,1.0,1
2025-03-26T1600,4206A,119.0288,33.6319,淮安市,承德北路606号,臭氧1小时,95,70,142,46,49,196,,160,160,14,29,12,12,0.7,0.7
2025-03-26T1600,2282A,116.8004,33.975,淮北市,监测站,臭氧1小时,72,84,90,45,49,177,,149,149,8,24,8,8,0.5,0.6
2025-03-26T1600,2283A,116.8091,33.9007,淮北市,烈山区政府,臭氧1小时,74,67,88,44,47,179,,155,155,10,24,8,10,0.9,0.8
2025-03-26T1600,3330A,116.8873,33.9836,淮北市,杜集区检察院,臭氧1小时,87,81,85,46,48,189,,158,158,11,25,9,9,0.8,0.8
2025-03-26T1600,4017A,116.7923,33.9535,淮北市,市博物馆,臭氧1小时,79,75,91,50,49,183,,152,152,9,21,10,11,1.0,1
2025-03-26T1600,2277A,116.8305,32.7727,淮南市,潘集区政府,臭氧1小时,69,71,85,44,49,175,,152,152,13,23,7,9,0.6,0.6
2025-03-26T1600,2279A,116.8569,32.5951,淮南市,谢家集区政府,臭氧1小时,90,70,78,47,41,192,,161,161,8,20,9,10,0.5,0.5
2025-03-26T1600,2280A,116.8281,32.633,淮南市,八公山区政府,臭氧1小时,83,72,76,43,38,186,,158,158,7,13,7,7,0.4,0.4
2025-03-26T1600,2281A,116.6325,32.6201,淮南市,焦岗湖风景区管理处,,42,39,60,29,28,73,,87,87,6,15,10,9,0.6,0.7
2025-03-26T1600,2894A,117.0566,32.6531,淮南市,经济技术开发区消防队,臭氧1小时,104,68,74,47,41,208,,166,166,5,19,9,9,0.5,0.4
2025-03-26T1600,3329A,117.0108,32.5893,淮南市,山南新区,臭氧1小时,101,92,92,55,49,201,,159,159,2,11,11,10,0.5,0.6
2025-03-26T1600,4209A,117.0031,32.6445,淮南市,国庆中路369号,臭氧1小时,100,59,73,52,41,200,,168,168,15,19,14,14,0.5,0.6
2025-03-26T1600,2446A,114.9028,30.4742,黄冈市,职工中心,,,,75,,57,,,132,,,27,,17,,0.8
2025-03-26T1600,2929A,114.8858,30.4519,黄冈市,红卫路,臭氧1小时,88,53,73,37,47,190,,176,176,14,17,8,13,0.9,0.9
2025-03-26T1600,3398A,114.9136,30.4445,黄冈市,市林业局,臭氧1小时,106,76,82,44,50,212,,175,175,15,25,11,16,0.8,0.8
2025-03-26T1600,2672A,102.0199,35.5102,黄南藏族自治州,同仁县隆务镇,颗粒物(PM10),500,703,92,208,31,85,,75,75,7,7,12,15,,0.4
2025-03-26T1600,2295A,118.2903,29.6963,黄山市,延安路89号,,,61,51,45,34,179,,27,,2,14,6,6,,0.4
2025-03-26T1600,2297A,118.1371,30.2756,黄山市,黄山区政府5号楼,细颗粒物(PM2.5),57,53,67,40,44,164,,128,128,3,7,10,9,0.8,0.8
2025-03-26T1600,4210A,118.3354,29.7203,黄山市,滨江东路7-2号,臭氧1小时,77,65,60,43,32,181,,129,129,2,12,7,5,0.6,0.5
2025-03-26T1600,2423A,115.0601,30.2313,黄石市,沈家营,臭氧1小时,97,75,76,48,45,197,,166,166,17,29,9,10,0.7,0.9
2025-03-26T1600,2426A,114.8988,30.2019,黄石市,铁山,,,51,63,43,42,181,,169,169,14,24,,25,0.7,0.9
2025-03-26T1600,2427A,115.0307,30.2092,黄石市,团城山,臭氧1小时,70,51,66,32,37,176,,164,164,9,21,7,11,0.6,0.7
2025-03-26T1600,3149A,115.0235,30.1578,黄石市,笔架山北路,臭氧1小时,85,47,60,35,40,188,,165,165,2,16,9,14,0.6,0.9
2025-03-26T1600,4185A,115.0780,30.21118,黄石市,磁湖东路29号,臭氧1小时,94,76,92,41,51,195,,169,169,9,37,8,13,0.7,0.9
2025-03-26T1600,1392A,114.4183,23.0528,惠州市,河南岸金山湖子站,,44,44,54,28,29,140,,110,110,20,30,8,9,0.5,0.6
2025-03-26T1600,1393A,114.4053,23.0822,惠州市,下埔横江三路子站,臭氧1小时,79,46,62,23,33,183,,132,132,19,26,8,10,0.5,0.5
2025-03-26T1600,1394A,114.4103,23.1142,惠州市,江北云山西路子站,,50,39,57,17,28,160,,138,138,16,26,9,10,0.5,0.6
2025-03-26T1600,1395A,114.4645,22.7833,惠州市,惠阳区承修路船湖子站,,29,29,46,13,22,92,,90,90,12,29,8,10,0.5,0.6
2025-03-26T1600,1396A,114.5317,22.7422,惠州市,大亚湾管委会子站,,,28,40,12,19,94,,94,94,,30,8,8,0.4,0.5
2025-03-26T1600,3314A,114.4338,22.8134,惠州市,惠阳秋长,,41,41,55,14,24,105,,95,95,3,22,15,18,0.7,0.7
2025-03-26T1600,3452A,114.6517,22.775,惠州市,大亚湾霞涌,,25,19,31,9,17,78,,82,82,13,16,8,8,0.4,0.3
2025-03-26T1600,2240A,130.9762,45.3001,鸡西市,环保局,细颗粒物(PM2.5),263,248,95,213,80,67,,97,97,,25,19,13,,0.6
2025-03-26T1600,2243A,130.9429,45.3039,鸡西市,第一中学,细颗粒物(PM2.5),250,231,90,200,76,68,,99,99,44,21,20,13,1.1,0.6
2025-03-26T1600,3707A,131.0207,45.3073,鸡西市,欧美日汽修厂,细颗粒物(PM2.5),231,264,111,181,96,75,,113,113,39,27,18,16,1.1,0.8
2025-03-26T1600,3709A,130.9967,45.3106,鸡西市,市政设施管理处,细颗粒物(PM2.5),180,249,91,136,82,67,,99,99,38,30,13,12,0.8,0.6
2025-03-26T1600,2367A,114.9754,27.0803,吉安市,红声器材厂,臭氧1小时,75,67,77,37,47,180,,170,170,12,19,12,15,0.6,0.6
2025-03-26T1600,2368A,114.9658,27.0999,吉安市,市森林工业局,臭氧1小时,68,66,74,42,48,174,,170,170,16,25,11,13,0.6,0.7
2025-03-26T1600,2369A,114.99,27.1312,吉安市,市环境监测站,臭氧1小时,74,69,68,48,48,179,,172,172,11,15,15,19,0.4,0.5
2025-03-26T1600,2370A,115.0093,27.0968,吉安市,青原区法院,臭氧1小时,92,,77,45,49,193,,186,186,12,19,14,16,0.7,0.5
2025-03-26T1600,1772A,126.54,43.8622,吉林市,哈达湾,细颗粒物(PM2.5),60,59,70,43,44,80,,75,75,15,16,7,7,0.7,0.7
2025-03-26T1600,1773A,126.5844,43.8358,吉林市,东局子,细颗粒物(PM2.5),60,47,55,43,45,83,,82,82,11,15,6,7,0.6,0.6
2025-03-26T1600,1774A,126.5052,43.8245,吉林市,电力学院,细颗粒物(PM2.5),59,48,56,42,48,84,,68,68,12,20,5,6,0.4,0.4
2025-03-26T1600,1775A,126.6133,43.8972,吉林市,江北,细颗粒物(PM2.5),58,52,62,41,50,81,,73,73,12,26,3,3,0.6,0.7
2025-03-26T1600,1776A,126.555,43.8306,吉林市,江南公园,细颗粒物(PM2.5),69,54,56,50,50,79,,76,76,14,16,6,6,0.4,0.4
2025-03-26T1600,1778A,126.7061,43.7133,吉林市,丰满,细颗粒物(PM2.5),64,,52,46,53,91,,93,93,10,11,5,5,1.1,1
2025-03-26T1600,2868A,126.4739,43.953,吉林市,九站,细颗粒物(PM2.5),64,60,76,46,62,81,,68,68,11,20,10,10,0.6,0.7
2025-03-26T1600,1299A,116.9862,36.6114,济南市,科干所,颗粒物(PM10),108,166,132,54,35,118,,100,96,27,28,11,10,0.6,0.5
2025-03-26T1600,1300A,116.9376,36.665,济南市,农科所,颗粒物(PM10),113,176,140,44,30,112,,79,79,29,56,12,11,0.5,0.5
2025-03-26T1600,1301A,117.1265,36.6734,济南市,开发区,颗粒物(PM10),102,154,140,51,39,120,,88,88,28,41,12,11,0.7,0.7
2025-03-26T1600,1303A,117.0624,36.6868,济南市,省种子仓库,颗粒物(PM10),119,188,156,53,35,109,,84,84,25,49,9,8,0.8,0.9
2025-03-26T1600,1304A,116.9489,36.6447,济南市,机床二厂,颗粒物(PM10),114,178,157,73,38,106,,77,77,31,54,13,12,0.8,0.8
2025-03-26T1600,1305A,117.0495,36.663,济南市,市监测站,颗粒物(PM10),116,181,146,51,33,112,,83,83,32,53,13,11,0.6,0.6
2025-03-26T1600,1306A,116.7675,36.5484,济南市,长清党校,颗粒物(PM10),103,156,147,44,30,130,,111,102,29,35,10,7,0.8,0.8
2025-03-26T1600,1616A,117.6795,36.229,济南市,技术学院,臭氧1小时,101,114,140,51,35,202,,162,162,18,24,18,14,0.8,0.6
2025-03-26T1600,1961A,117.532,36.6868,济南市,东山小学,颗粒物(PM10),111,171,147,46,31,138,,133,133,22,28,14,13,0.8,0.8
2025-03-26T1600,3059A,117.7161,36.2049,济南市,泰兴公司,臭氧1小时,87,107,133,53,33,189,,153,153,19,24,17,12,1.1,0.6
2025-03-26T1600,3064A,117.6867,36.2171,济南市,莱芜战役纪念馆,,,,129,,28,195,,159,159,,23,,10,1.4,0.6
2025-03-26T1600,3494A,117.1673,36.9782,济南市,济阳区政府,颗粒物(PM10),108,166,126,39,30,92,,82,82,28,25,14,17,0.5,0.6
2025-03-26T1600,3495A,117.1171,36.63,济南市,锦屏中学,颗粒物(PM10),103,156,139,39,33,111,,100,87,31,32,14,12,0.6,0.5
2025-03-26T1600,3682A,116.9814,36.6819,济南市,济南四建,颗粒物(PM10),102,153,140,46,40,107,,88,88,24,56,9,9,0.5,0.5
2025-03-26T1600,1653A,116.6251,35.4302,济宁市,火炬城,细颗粒物(PM2.5),98,122,189,73,55,192,,149,149,15,19,15,24,0.6,0.5
2025-03-26T1600,1655A,116.5491,35.4042,济宁市,电化厂,颗粒物(PM10),109,167,226,75,57,182,,148,148,16,18,9,20,0.9,0.7
2025-03-26T1600,3500A,116.5814,35.3707,济宁市,北湖一中,"颗粒物(PM10),细颗粒物(PM2.5)",92,134,170,68,43,187,,143,143,27,21,22,23,0.8,0.5
2025-03-26T1600,3501A,116.8249,35.5593,济宁市,服务中心,臭氧1小时,92,117,188,57,44,193,,149,149,16,25,8,9,0.9,0.6
2025-03-26T1600,3678A,116.5907,35.4054,济宁市,市第七中学,细颗粒物(PM2.5),94,124,200,70,49,184,,146,146,18,19,10,16,0.6,0.5
2025-03-26T1600,2255A,130.2751,46.8028,佳木斯市,佳纺,,31,31,38,9,18,71,,72,72,14,20,4,5,0.3,0.3
2025-03-26T1600,2256A,130.3995,46.8307,佳木斯市,发电厂,,,,18,9,12,,,78,78,11,11,8,7,0.5,0.5
2025-03-26T1600,2257A,130.3258,46.7975,佳木斯市,环保局,,,29,24,9,11,,,74,74,19,21,4,3,0.4,0.3
2025-03-26T1600,2258A,130.3648,46.8032,佳木斯市,十一中,,29,29,28,15,15,74,,74,74,15,19,4,5,0.3,0.4
2025-03-26T1600,2259A,130.3794,46.7588,佳木斯市,四丰,,22,15,15,6,8,70,,75,75,11,10,1,1,0.7,0.7
2025-03-26T1600,1252A,120.7436,30.778,嘉兴市,清河小学,臭氧1小时,122,98,101,52,54,244,,169,169,31,44,8,7,0.7,0.8
2025-03-26T1600,1253A,120.726,30.7478,嘉兴市,嘉兴学院,臭氧1小时,123,94,99,50,46,245,,170,170,28,37,10,10,0.8,0.8
2025-03-26T1600,2872A,120.7846,30.7525,嘉兴市,南湖区残联,臭氧1小时,133,97,101,59,49,266,,183,183,24,31,12,12,0.5,0.4
2025-03-26T1600,3407A,120.6916,30.7739,嘉兴市,秀洲住建,臭氧1小时,133,110,109,49,49,266,,177,177,25,50,9,9,0.6,0.5
2025-03-26T1600,1945A,98.2908,39.7711,嘉峪关市,气象局,颗粒物(PM10),79,107,290,34,45,74,,84,80,18,10,12,13,1.6,0.8
2025-03-26T1600,2884A,98.2672,39.7978,嘉峪关市,酒钢宾馆,颗粒物(PM10),76,102,278,24,43,86,,85,85,8,12,26,33,0.7,0.7
2025-03-26T1600,3248A,98.2643,39.7724,嘉峪关市,雄关区,颗粒物(PM10),75,100,243,27,47,82,,78,78,12,17,19,11,0.4,0.7
2025-03-26T1600,1383A,113.1064,22.6058,江门市,北街,颗粒物(PM10),52,53,43,22,21,98,,92,92,3,10,2,3,0.4,0.5
2025-03-26T1600,1384A,113.0731,22.5835,江门市,西区,,45,45,52,26,26,116,,101,101,11,23,7,7,0.4,0.5
2025-03-26T1600,1385A,113.0219,22.5311,江门市,圭峰西,颗粒物(PM10),65,80,44,23,26,96,,93,93,12,19,5,5,0.4,0.5
2025-03-26T1600,1386A,113.0828,22.5947,江门市,东湖,,44,44,45,17,25,116,,105,105,8,16,8,8,0.3,0.4
2025-03-26T1600,3311A,113.1075,22.5647,江门市,江海富民,,44,44,54,17,25,102,,95,95,8,16,6,7,0.3,0.4
2025-03-26T1600,3449A,113.05,22.4667,江门市,新会银湖,,47,47,48,14,21,87,,90,90,10,29,3,7,0.3,0.4
2025-03-26T1600,1830A,113.1992,35.2590,焦作市,影视城,,,,82,,29,,,,,,8,,14,,0.6
2025-03-26T1600,3169A,113.2725,35.2067,焦作市,太极体育中心,颗粒物(PM10),123,195,371,70,82,161,,124,124,24,21,16,14,,0.4
2025-03-26T1600,3335A,113.3137,35.2641,焦作市,马村街道办,颗粒物(PM10),118,186,328,73,82,150,,118,118,23,26,17,13,0.8,0.7
2025-03-26T1600,3336A,113.2465,35.2373,焦作市,焦作技师学院,颗粒物(PM10),123,196,359,63,68,168,,128,128,21,20,17,12,1.0,0.8
2025-03-26T1600,3477A,113.1656,35.2539,焦作市,中站许衡医院,颗粒物(PM10),111,172,272,70,62,174,,141,141,20,15,19,12,1.0,0.8
2025-03-26T1600,3981A,113.2449,35.1803,焦作市,原李万街道办,颗粒物(PM10),122,194,350,56,74,164,,125,125,22,22,22,21,0.5,0.4
2025-03-26T1600,4264A,113.2340,35.2190,焦作市,新安路1731号,颗粒物(PM10),123,196,359,67,80,164,,126,126,18,18,17,13,0.9,0.8
2025-03-26T1600,1708A,116.3701,23.5345,揭阳市,新兴,颗粒物(PM10),59,68,73,30,47,141,,125,125,16,24,9,10,0.7,0.8
2025-03-26T1600,1709A,116.3264,23.5443,揭阳市,西马,颗粒物(PM10),61,72,73,21,43,150,,117,117,10,19,9,10,0.6,0.8
2025-03-26T1600,1710A,116.3611,23.5626,揭阳市,东兴,颗粒物(PM10),65,79,79,30,43,155,,130,130,6,16,8,9,0.7,0.9
2025-03-26T1600,1711A,116.4151,23.5294,揭阳市,渔湖,颗粒物(PM10),58,66,62,32,36,142,,126,126,5,24,8,9,0.7,0.8
2025-03-26T1600,3320A,116.403,23.5699,揭阳市,曲溪,颗粒物(PM10),59,67,68,36,40,162,,141,141,15,31,5,8,0.6,0.7
2025-03-26T1600,1944A,102.1692,38.5167,金昌市,天庆家园,颗粒物(PM10),60,69,366,16,89,92,,98,95,3,3,11,12,0.6,0.6
2025-03-26T1600,4022A,102.1647,38.5371,金昌市,金川区人防中心,,,105,482,19,119,91,,92,,4,4,,12,0.3,0.4
2025-03-26T1600,4239A,102.1930,38.5319,金昌市,长春路96号,颗粒物(PM10),91,132,535,16,94,89,,96,92,4,4,13,14,0.5,0.4
2025-03-26T1600,1262A,119.647,29.077,金华市,十五中,臭氧1小时,101,75,104,43,60,202,,155,155,21,58,9,9,0.7,0.8
2025-03-26T1600,1263A,119.686,29.1029,金华市,监测站,臭氧1小时,97,82,98,42,50,197,,133,133,23,65,9,7,0.6,0.5
2025-03-26T1600,3659A,119.656,29.1131,金华市,气象局,臭氧1小时,106,69,88,45,56,211,,150,150,18,66,9,8,0.6,0.6
2025-03-26T1600,1767A,121.1115,41.0879,锦州市,南山,细颗粒物(PM2.5),102,113,95,76,83,106,,97,97,24,23,13,14,0.7,0.8
2025-03-26T1600,1768A,121.0604,40.8428,锦州市,开发区,细颗粒物(PM2.5),105,101,96,79,82,106,,95,95,30,23,17,15,1.0,0.9
2025-03-26T1600,1769A,121.1836,41.1119,锦州市,百股街道,颗粒物(PM10),80,110,98,58,71,109,,94,94,24,25,7,24,0.8,0.8
2025-03-26T1600,1770A,121.1178,41.1222,锦州市,天安街道,细颗粒物(PM2.5),88,118,91,65,78,98,,92,92,26,24,12,15,0.8,0.7
2025-03-26T1600,1771A,121.1303,41.1386,锦州市,北湖公园,细颗粒物(PM2.5),88,102,90,65,73,106,,96,96,24,21,11,11,0.7,0.7
2025-03-26T1600,2160A,112.85,35.5051,晋城市,自来水公司,颗粒物(PM10),119,188,206,48,53,153,,126,126,14,23,10,9,0.7,0.7
2025-03-26T1600,2161A,112.8318,35.4936,晋城市,白云商贸,颗粒物(PM10),135,219,210,,53,156,,128,128,16,26,10,8,0.6,0.6
2025-03-26T1600,2162A,112.8508,35.4887,晋城市,市环保局,颗粒物(PM10),123,195,216,41,54,154,,127,127,13,28,10,8,0.3,0.4
2025-03-26T1600,2163A,112.8676,35.4897,晋城市,技术学院,颗粒物(PM10),121,192,207,63,53,158,,129,129,17,30,10,8,0.6,0.6
2025-03-26T1600,2165A,112.8453,35.546,晋城市,白马寺,颗粒物(PM10),102,154,99,51,45,154,,139,139,9,10,8,7,0.7,0.7
2025-03-26T1600,3620A,112.8271,35.4828,晋城市,泽州一中,颗粒物(PM10),103,156,214,63,65,160,,129,129,12,20,11,11,0.6,0.6
2025-03-26T1600,2173A,112.7249,37.7067,晋中市,南都小区,颗粒物(PM10),148,245,285,43,57,126,,99,99,18,26,10,9,0.6,0.6
2025-03-26T1600,2174A,112.6991,37.6982,晋中市,榆次区政府,颗粒物(PM10),158,266,298,39,45,127,,100,100,22,28,11,9,0.7,0.6
2025-03-26T1600,2865A,112.7195,37.6828,晋中市,榆次三中,颗粒物(PM10),172,293,329,58,77,131,,102,102,20,27,8,7,0.6,0.4
2025-03-26T1600,4200A,112.7478,37.6954,晋中市,迎宾街26号,颗粒物(PM10),157,263,317,53,65,133,,104,104,20,24,10,8,0.7,0.5
2025-03-26T1600,2439A,112.2014,31.0481,荆门市,竹园小学,臭氧1小时,83,92,86,56,56,186,,148,148,8,12,7,8,0.7,0.6
2025-03-26T1600,2440A,112.1969,30.9891,荆门市,掇刀,臭氧1小时,103,92,88,63,56,205,,158,158,8,15,10,10,0.5,0.5
2025-03-26T1600,2441A,112.2213,31.0386,荆门市,石化一小,臭氧1小时,77,86,86,53,56,181,,146,146,13,20,9,12,0.6,0.5
2025-03-26T1600,3012A,112.1849,31.0362,荆门市,西山林语,臭氧1小时,82,88,78,53,56,185,,148,148,8,12,8,8,0.4,0.4
2025-03-26T1600,3547A,112.1632,31.0138,荆门市,龙泉中学南校,细颗粒物(PM2.5),80,98,82,59,51,176,,138,138,4,8,9,9,0.7,0.6
2025-03-26T1600,1844A,112.2494,30.3197,荆州市,市图书馆,细颗粒物(PM2.5),79,104,74,58,54,174,,146,146,12,17,8,10,0.7,0.7
2025-03-26T1600,1845A,112.2008,30.3544,荆州市,市委党校,,,79,77,57,56,174,,145,145,11,17,,11,,0.6
2025-03-26T1600,3194A,112.2747,30.3122,荆州市,管委会,细颗粒物(PM2.5),88,100,87,65,59,178,,150,150,11,13,10,13,0.6,0.6
2025-03-26T1600,4268A,112.1722,30.3366,荆州市,学苑路85号,细颗粒物(PM2.5),80,,57,59,61,171,,141,141,7,14,8,10,0.7,0.7
2025-03-26T1600,2342A,117.3102,29.3867,景德镇市,王港中学,,,,,,,,,,,,,,,,
2025-03-26T1600,2343A,117.2117,29.2933,景德镇市,老干部活动中心,臭氧1小时,82,74,76,53,45,185,,146,146,11,30,13,10,0.5,0.4
2025-03-26T1600,2344A,117.1894,29.2789,景德镇市,兽医站,臭氧1小时,75,91,76,33,39,180,,141,141,8,21,5,6,0.8,0.7
2025-03-26T1600,2345A,117.1547,29.2617,景德镇市,台达陶瓷,颗粒物(PM10),78,106,83,48,41,172,,147,147,22,31,28,18,0.7,0.7
2025-03-26T1600,2346A,117.2461,29.2956,景德镇市,陶研所,臭氧1小时,80,64,71,53,51,184,,147,147,10,25,5,9,0.7,0.7
2025-03-26T1600,1803A,115.9872,29.6815,九江市,十里,臭氧1小时,109,68,76,48,53,218,,160,160,9,37,8,7,0.7,0.8
2025-03-26T1600,1804A,115.9584,29.7046,九江市,茅山头,臭氧1小时,73,70,94,47,56,178,,140,140,13,72,8,10,0.5,0.8
2025-03-26T1600,1805A,115.9877,29.7295,九江市,西园,臭氧1小时,100,66,98,48,45,200,,146,146,14,49,11,14,0.9,0.9
2025-03-26T1600,1808A,115.9114,29.6038,九江市,综合工业园,臭氧1小时,79,82,94,50,52,183,,168,168,13,41,11,14,0.9,0.8
2025-03-26T1600,1809A,116.0721,29.7535,九江市,石化总厂,臭氧1小时,103,100,69,,58,206,,160,160,18,20,18,17,0.9,0.8
2025-03-26T1600,1810A,115.9773,29.5698,九江市,庐山气象台,臭氧1小时,82,50,54,48,42,185,,167,162,10,7,11,8,0.6,0.7
2025-03-26T1600,3190A,116.0254,29.6994,九江市,外国语学校,臭氧1小时,108,87,72,46,47,215,,158,158,17,27,7,12,0.7,0.7
2025-03-26T1600,4253A,116.0102,29.6594,九江市,莲花大道8号,臭氧1小时,101,75,65,52,47,202,,154,154,5,10,11,10,0.7,0.7
2025-03-26T1600,4240A,98.4958,39.7339,酒泉市,玉门东路5号,颗粒物(PM10),63,75,262,26,44,86,,85,84,1,2,6,7,0.2,0.2
2025-03-26T1600,4241A,98.5099,39.7506,酒泉市,北大街108号,颗粒物(PM10),59,68,255,20,36,85,,84,83,2,4,7,8,0.2,0.2
2025-03-26T1600,2698A,76.0072,39.4467,喀什地区,巡警大队,颗粒物(PM10),500,1993,290,453,64,78,,84,73,10,15,4,4,0.4,0.4
2025-03-26T1600,2699A,75.9755,39.4694,喀什地区,吾办,颗粒物(PM10),482,582,168,431,62,70,,83,73,,17,,3,0.4,0.4
2025-03-26T1600,4027A,75.9483,39.4689,喀什地区,老干局,颗粒物(PM10),500,1978,335,426,63,81,,89,78,8,10,3,3,0.4,0.3
2025-03-26T1600,1824A,114.3389,34.7781,开封市,肿瘤医院,颗粒物(PM10),138,225,173,62,56,143,,102,102,17,28,11,10,0.7,0.8
2025-03-26T1600,1826A,114.2885,34.7965,开封市,世纪星幼儿园,颗粒物(PM10),145,240,163,67,61,148,,110,110,25,30,7,7,0.8,0.8
2025-03-26T1600,3147A,114.3438,34.8106,开封市,龙亭公园,颗粒物(PM10),145,239,179,66,61,148,,110,110,22,35,6,6,0.4,0.4
2025-03-26T1600,3210A,114.3644,34.7964,开封市,汴京公园,,,,181,67,65,147,,114,114,24,38,9,8,0.9,0.9
2025-03-26T1600,3473A,114.2485,34.8306,开封市,技师学院,颗粒物(PM10),142,234,174,67,66,128,,85,85,24,32,17,14,1.0,1
2025-03-26T1600,3592A,114.4644,34.7556,开封市,祥符区生态环境局,颗粒物(PM10),164,278,190,65,59,136,,107,107,20,33,9,8,0.7,0.6
2025-03-26T1600,1951A,84.895,45.6094,克拉玛依市,长征新村,,27,15,11,6,6,86,,80,78,4,6,6,6,0.2,0.2
2025-03-26T1600,1952A,84.8988,45.5893,克拉玛依市,南林小区,,26,16,11,7,7,83,,80,76,2,2,4,4,0.3,0.3
2025-03-26T1600,1954A,84.905,44.3396,克拉玛依市,独山子区,,45,45,48,9,20,92,,84,84,6,5,8,6,0.4,0.3
2025-03-26T1600,1955A,85.6979,46.098,克拉玛依市,乌尔禾区商贸楼,,,,32,,6,85,,75,73,1,4,4,4,0.3,0.3
2025-03-26T1600,3612A,85.1045,45.6899,克拉玛依市,白碱滩区新站,,25,19,13,3,7,79,,74,74,5,3,7,7,0.1,0.1
2025-03-26T1600,2697A,76.1454,39.7142,克孜勒苏柯尔克孜自治州,市人民政府,颗粒物(PM10),500,1659,312,363,66,90,,99,84,2,3,4,7,0.5,0.4
2025-03-26T1600,3665A,76.1658,39.7157,克孜勒苏柯尔克孜自治州,克州文化中心,颗粒物(PM10),500,1706,345,346,68,86,,99,84,3,3,6,8,0.4,0.4
2025-03-26T1600,1450A,102.8204,24.8886,昆明市,呈贡新区,,47,37,44,15,35,150,,136,136,8,14,5,7,0.3,0.4
2025-03-26T1600,1451A,102.6251,24.9608,昆明市,西山森林公园,,,,,,,,,,,,,,,,
2025-03-26T1600,1452A,102.7252,25.0902,昆明市,龙泉镇,,47,,37,11,26,149,,138,138,7,34,7,7,0.4,0.6
2025-03-26T1600,1453A,102.7266,25.0375,昆明市,东风东路,,46,23,43,11,32,146,,135,135,11,22,8,13,0.3,0.5
2025-03-26T1600,1454A,102.6742,25.0669,昆明市,金鼎山,,45,35,40,8,27,142,,130,130,10,19,4,6,0.4,0.5
2025-03-26T1600,1455A,102.6644,25.0401,昆明市,碧鸡广场,,47,17,44,6,29,148,,135,135,8,28,6,11,0.2,0.5
2025-03-26T1600,3179A,102.7494,25.0119,昆明市,官渡区博物馆,,48,34,41,12,28,151,,139,139,7,17,6,10,0.3,0.5
2025-03-26T1600,3375A,102.8017,24.8336,昆明市,青年创业园,,47,20,41,20,32,148,,137,137,5,9,7,8,0.3,0.4
2025-03-26T1600,3550A,102.7997,24.9786,昆明市,昆明学院,,48,20,42,15,28,153,,141,141,6,13,4,6,0.2,0.3
2025-03-26T1600,3551A,102.5967,24.6736,昆明市,晋宁区生态环境分局,,49,22,32,12,27,154,,140,140,4,8,5,6,0.2,0.4
2025-03-26T1600,3552A,102.6678,24.9856,昆明市,云天化总部,,49,14,37,9,25,154,,145,145,8,11,9,11,0.1,0.2
2025-03-26T1600,1456A,91.1319,29.6514,拉萨市,八廓街,,39,14,20,8,13,123,,93,93,6,21,6,9,0.4,0.5
2025-03-26T1600,1457A,91.1221,29.6747,拉萨市,市环保局,,36,16,28,6,14,115,,86,86,11,25,7,10,0.6,0.9
2025-03-26T1600,1458A,91.0874,29.6475,拉萨市,区监测站,,37,11,20,3,11,118,,88,88,7,37,5,8,0.3,0.6
2025-03-26T1600,1459A,91.1774,29.6541,拉萨市,西藏大学,,37,15,15,7,8,116,,87,87,9,18,3,5,0.6,0.7
2025-03-26T1600,1460A,90.9798,29.6588,拉萨市,区辐射站,,36,11,18,3,10,113,,82,82,10,26,7,8,0.4,0.5
2025-03-26T1600,1461A,91.0834,29.6292,拉萨市,拉萨火车站,,35,9,15,6,9,111,,74,74,7,23,3,4,0.2,0.5
2025-03-26T1600,2520A,109.2203,23.7256,来宾市,来宾技工学校,颗粒物(PM10),67,83,68,40,42,129,,101,101,9,12,6,9,0.7,0.7
2025-03-26T1600,3535A,109.1781,23.7297,来宾市,兴宾区政府,颗粒物(PM10),53,56,60,28,36,136,,109,109,6,11,8,9,0.8,0.8
2025-03-26T1600,4002A,109.2416,23.7461,来宾市,中南小学,,,,63,,34,112,,96,96,,11,,8,0.6,0.8
2025-03-26T1600,1477A,104.1373,35.9454,兰州市,榆中兰大校区,,,,,,,,,,,,,,,,
2025-03-26T1600,1479A,103.831,36.0464,兰州市,铁路设计院,颗粒物(PM10),229,370,834,91,205,101,,92,92,12,46,4,8,0.4,0.9
2025-03-26T1600,3241A,103.7439,36.0842,兰州市,百合公园,颗粒物(PM10),268,397,893,60,198,101,,94,94,2,34,10,8,0.4,0.7
2025-03-26T1600,3242A,103.9611,35.998,兰州市,和平,颗粒物(PM10),412,512,1002,142,274,103,,98,98,5,12,7,9,0.6,0.5
2025-03-26T1600,4236A,103.6293,36.0938,兰州市,庄浪东路808号,颗粒物(PM10),340,452,915,93,240,95,,96,89,5,30,11,12,0.4,0.4
2025-03-26T1600,4237A,103.7251,36.1043,兰州市,安宁西路88号,颗粒物(PM10),377,481,1018,96,211,104,,100,100,1,23,8,8,0.2,0.4
2025-03-26T1600,4238A,103.8470,36.0676,兰州市,北滨河东路1号,颗粒物(PM10),260,392,892,95,207,109,,102,102,8,33,7,10,0.5,0.8
2025-03-26T1600,3245A,103.6633,36.533,兰州新区,新区管委会,颗粒物(PM10),353,462,840,96,211,105,,102,100,4,8,12,11,0.4,0.4
2025-03-26T1600,3246A,103.6975,36.4789,兰州新区,舟曲中学,颗粒物(PM10),500,652,1098,211,411,104,,102,99,6,7,2,3,0.5,0.4
2025-03-26T1600,1067A,116.6708,39.5111,廊坊市,药材公司,细颗粒物(PM2.5),105,124,81,79,41,107,,92,92,21,18,6,4,0.8,0.6
2025-03-26T1600,1068A,116.7214,39.5589,廊坊市,开发区,颗粒物(PM10),95,140,90,58,39,108,,95,95,22,22,7,4,0.7,0.4
2025-03-26T1600,1070A,116.7244,39.5269,廊坊市,北华航天学院,颗粒物(PM10),85,120,77,51,34,104,,89,89,19,19,8,6,0.7,0.5
2025-03-26T1600,2919A,116.7022,39.5453,廊坊市,河北工业大学,颗粒物(PM10),81,112,77,54,34,108,,95,95,18,16,9,7,0.7,0.4
2025-03-26T1600,2535A,103.7723,29.5462,乐山市,花湖湾,臭氧1小时,114,55,73,38,52,227,,145,145,14,30,11,10,0.4,0.6
2025-03-26T1600,2536A,103.7627,29.5844,乐山市,牛耳桥,臭氧1小时,103,56,74,35,51,206,,133,133,18,49,11,9,0.6,0.8
2025-03-26T1600,2537A,103.7508,29.6006,乐山市,市第三水厂,臭氧1小时,108,54,80,35,54,215,,142,142,10,46,8,7,0.4,0.8
2025-03-26T1600,2538A,103.7571,29.5664,乐山市,市监测站,臭氧1小时,108,65,71,49,51,216,,153,153,12,25,10,8,0.7,0.7
2025-03-26T1600,3361A,103.7311,29.5628,乐山市,理工大学,臭氧1小时,113,66,74,40,49,226,,141,141,14,31,10,8,0.5,0.7
2025-03-26T1600,2598A,100.2143,26.8576,丽江市,西南郊,,,,,,,,,,,,,,,,
2025-03-26T1600,2599A,100.2497,26.8802,丽江市,丽江古城,,31,16,24,9,13,97,,99,89,7,10,8,8,0.4,0.5
2025-03-26T1600,2600A,100.2203,26.8906,丽江市,市中心,,31,14,14,8,10,97,,94,87,14,17,8,8,0.5,0.6
2025-03-26T1600,1267A,119.914,28.4514,丽水市,监测站大楼,细颗粒物(PM2.5),74,78,70,54,57,163,,112,112,26,40,5,5,1.0,0.9
2025-03-26T1600,1268A,119.93,28.4586,丽水市,莲都小学,臭氧1小时,75,91,78,42,48,180,,117,117,21,40,5,4,0.7,0.6
2025-03-26T1600,1269A,119.879,28.4231,丽水市,余庄前,细颗粒物(PM2.5),69,85,74,50,49,173,,114,114,11,27,6,6,0.8,0.7
2025-03-26T1600,1173A,119.176,34.5885,连云港市,市环境监测站,臭氧1小时,83,83,166,41,39,186,,161,161,21,18,14,13,0.5,0.5
2025-03-26T1600,3000A,119.3581,34.6972,连云港市,德源药业,颗粒物(PM10),89,127,159,46,39,113,,112,112,52,23,11,11,0.5,0.4
2025-03-26T1600,3007A,119.178,34.844,连云港市,新城一中,颗粒物(PM10),94,138,141,54,38,147,,114,114,18,25,8,9,0.9,0.8
2025-03-26T1600,3008A,119.3608,34.7519,连云港市,胡沟管理处,颗粒物(PM10),65,80,118,44,34,146,,119,119,17,31,7,10,0.6,0.5
2025-03-26T1600,3009A,119.1478,34.5911,连云港市,矿山设计院,颗粒物(PM10),78,105,168,41,35,155,,148,148,37,27,10,12,0.7,0.6
2025-03-26T1600,3434A,119.2413,34.6539,连云港市,工贸学校,颗粒物(PM10),83,116,176,49,44,136,,141,141,32,17,10,11,0.8,0.7
2025-03-26T1600,3664A,119.4172,34.7341,连云港市,连云街道,颗粒物(PM10),108,166,173,61,42,93,,124,111,66,23,9,9,0.6,0.5
2025-03-26T1600,2571A,102.3431,27.8099,凉山彝族自治州,青龙寺,,41,21,20,7,7,129,,111,111,4,8,6,7,0.6,0.7
2025-03-26T1600,2572A,102.2721,27.8415,凉山彝族自治州,邛海宾馆,,38,32,32,14,18,121,,102,102,12,23,5,6,0.3,0.6
2025-03-26T1600,2573A,102.2625,27.898,凉山彝族自治州,西昌市政府,,36,32,26,24,19,115,,100,100,8,14,12,11,0.6,0.8
2025-03-26T1600,2574A,102.2685,27.8851,凉山彝族自治州,凉山州政府,,39,29,32,16,18,124,,101,101,8,22,9,8,0.3,0.5
2025-03-26T1600,4229A,102.2342,27.8859,凉山彝族自治州,凯乐南路30号,,38,36,37,16,17,119,,87,87,12,31,12,11,0.7,0.7
2025-03-26T1600,2212A,123.2,41.1953,辽阳市,宏伟区,细颗粒物(PM2.5),62,68,110,44,96,107,,82,82,11,22,11,13,1.1,1.4
2025-03-26T1600,2213A,123.1683,41.2495,辽阳市,新华园,细颗粒物(PM2.5),74,68,124,54,106,96,,66,56,17,34,10,14,0.9,1.4
2025-03-26T1600,2214A,123.2354,41.2639,辽阳市,滨河路,细颗粒物(PM2.5),59,66,110,42,101,84,,66,61,24,33,8,11,0.8,1.1
2025-03-26T1600,2215A,123.149,41.2991,辽阳市,铁西工业园,颗粒物(PM10),98,146,143,58,117,96,,62,62,23,40,11,17,0.9,1.5
2025-03-26T1600,2227A,125.1358,42.8845,辽源市,环保局,细颗粒物(PM2.5),68,70,95,49,74,42,,56,54,44,27,5,6,1.0,0.9
2025-03-26T1600,3239A,125.0764,42.9078,辽源市,银鹰制药,细颗粒物(PM2.5),75,75,97,55,86,68,,57,55,25,27,5,8,0.9,1
2025-03-26T1600,1625A,115.9848,36.4372,聊城市,区政府,颗粒物(PM10),90,130,146,47,39,99,,79,79,24,38,13,12,0.7,0.5
2025-03-26T1600,2878A,116.0072,36.4343,聊城市,聊大东校,颗粒物(PM10),108,166,180,55,45,100,,81,81,22,36,12,11,0.7,0.7
2025-03-26T1600,3200A,115.9819,36.4978,聊城市,监控中心,颗粒物(PM10),108,166,168,58,40,94,,79,79,20,45,15,15,0.6,0.7
2025-03-26T1600,3513A,116.0445,36.4361,聊城市,九州社区,颗粒物(PM10),106,162,172,50,39,106,,85,85,21,36,12,12,0.6,0.6
2025-03-26T1600,4018A,116.0567,36.4608,聊城市,星美广场,颗粒物(PM10),103,156,169,45,36,99,,76,76,17,31,13,13,0.8,0.8
2025-03-26T1600,2632A,94.3681,29.6376,林芝市,林芝监测站,,31,14,11,3,6,99,,82,82,5,7,5,4,0.1,0.1
2025-03-26T1600,2633A,94.3616,29.6616,林芝市,林芝人民医院,,31,11,13,3,4,97,,77,77,2,6,7,7,0.0,0.1
2025-03-26T1600,2603A,100.0781,23.8982,临沧市,市环保局,,47,29,51,17,35,149,,112,112,8,14,9,9,0.3,0.5
2025-03-26T1600,2604A,100.0894,23.8822,临沧市,市气象局,,49,32,49,28,44,154,,110,110,8,16,8,8,0.3,0.5
2025-03-26T1600,1733A,111.5531,36.0783,临汾市,临钢医院,颗粒物(PM10),500,611,346,123,71,105,,89,89,2,22,5,8,0.4,0.8
2025-03-26T1600,1734A,111.5028,36.0714,临汾市,技工学校,颗粒物(PM10),385,488,296,108,74,102,,86,86,7,30,6,10,0.4,0.8
2025-03-26T1600,1736A,111.5018,36.0855,临汾市,市委,颗粒物(PM10),479,579,333,140,92,107,,88,88,8,29,3,7,0.3,0.7
2025-03-26T1600,3018A,111.505,36.1014,临汾市,唐尧大酒店,颗粒物(PM10),428,528,301,121,68,104,,82,82,5,27,6,10,0.3,0.7
2025-03-26T1600,4244A,111.4879,36.0530,临汾市,启星学校,颗粒物(PM10),460,560,354,126,96,103,,83,83,2,34,2,6,0.3,0.7
2025-03-26T1600,4271A,103.2464,35.6123,临夏回族自治州,滨河东路1号,颗粒物(PM10),500,1393,947,301,261,85,,81,81,9,20,9,8,0.3,0.4
2025-03-26T1600,4310A,103.2093,35.5995,临夏回族自治州,新华街21号,颗粒物(PM10),500,1299,1032,361,281,84,,79,79,8,16,11,16,0.3,0.4
2025-03-26T1600,1618A,118.3429,35.0532,临沂市,沂河小区,臭氧1小时,73,85,152,39,40,178,,145,145,6,15,12,12,0.6,0.6
2025-03-26T1600,1619A,118.295,35.0583,临沂市,鲁南制药厂,臭氧1小时,99,83,157,41,38,199,,152,152,12,26,13,14,0.4,0.3
2025-03-26T1600,1620A,118.2794,34.9976,临沂市,新光毛纺厂,臭氧1小时,85,102,145,36,38,188,,151,151,16,25,10,12,0.7,0.7
2025-03-26T1600,1621A,118.3956,35.0888,临沂市,河东保险公司,臭氧1小时,94,68,144,30,37,195,,158,158,14,27,8,9,0.3,0.4
2025-03-26T1600,3370A,118.3564,35.0215,临沂市,十里堡居委,臭氧1小时,84,102,143,44,34,187,,150,150,18,21,8,12,0.7,0.6
2025-03-26T1600,3496A,118.3604,35.1084,临沂市,南坊新区,臭氧1小时,82,83,159,39,36,185,,148,148,11,21,10,11,0.6,0.6
2025-03-26T1600,3860A,118.3920,35.0300,临沂市,皇山花园小区,臭氧1小时,82,95,151,36,35,185,,152,152,10,18,11,11,0.6,0.5
2025-03-26T1600,1870A,109.4856,24.3895,柳州市,柳东小学,颗粒物(PM10),59,68,61,32,41,131,,112,112,13,16,11,12,0.4,0.5
2025-03-26T1600,1871A,109.4157,24.3277,柳州市,环保监测站,细颗粒物(PM2.5),72,90,68,52,47,125,,107,107,14,12,11,11,0.7,0.8
2025-03-26T1600,1872A,109.389,24.341,柳州市,河西水厂,颗粒物(PM10),77,103,75,32,39,136,,113,113,13,15,7,8,0.5,0.6
2025-03-26T1600,1873A,109.4311,24.2921,柳州市,市四中,颗粒物(PM10),65,80,66,36,41,140,,115,115,12,15,10,10,0.2,0.4
2025-03-26T1600,1874A,109.4006,24.3631,柳州市,市九中,颗粒物(PM10),71,92,72,21,39,128,,110,110,10,12,9,9,0.7,0.8
2025-03-26T1600,1875A,109.4958,24.3134,柳州市,古亭山,颗粒物(PM10),68,86,66,39,47,134,,117,117,8,11,8,9,0.6,0.6
2025-03-26T1600,3402A,109.5422,24.3996,柳州市,市二中,颗粒物(PM10),58,66,62,33,37,144,,119,119,10,13,12,15,0.2,0.3
2025-03-26T1600,2307A,116.5079,31.737,六安市,监测大楼,,48,31,52,26,37,153,,149,149,28,28,7,8,0.6,0.7
2025-03-26T1600,2308A,116.4738,31.7643,六安市,皖西学院,,49,33,57,21,33,154,,148,148,6,12,5,7,0.4,0.5
2025-03-26T1600,2309A,116.4996,31.7905,六安市,朝阳厂,,44,36,54,24,33,140,,136,136,11,16,5,6,0.5,0.6
2025-03-26T1600,2310A,116.5567,31.7886,六安市,开发区,,49,38,89,25,47,155,,148,148,12,26,5,9,0.5,0.7
2025-03-26T1600,2576A,104.8,26.5892,六盘水市,窑上,,41,29,34,14,24,130,,130,130,4,5,5,5,0.4,0.4
2025-03-26T1600,2577A,104.83,26.5917,六盘水市,黄土坡,,42,20,40,13,22,133,,131,131,6,16,8,11,0.3,0.5
2025-03-26T1600,2578A,104.89,26.5939,六盘水市,水钢,,,,59,48,28,128,,126,126,,17,,12,0.4,0.6
2025-03-26T1600,2579A,104.8475,26.5894,六盘水市,民中,,40,24,53,9,24,128,,126,126,4,25,7,11,0.2,0.6
2025-03-26T1600,2580A,104.9544,26.5506,六盘水市,双水,,41,27,49,9,21,130,,127,127,8,17,9,10,0.4,0.5
2025-03-26T1600,2335A,117.0189,25.1181,龙岩市,龙岩师专,,,,,,,,,,,,,,,,
2025-03-26T1600,2336A,117.0217,25.1033,龙岩市,龙岩市监测站,,,,,,,,,,,,,,,,
2025-03-26T1600,2337A,117.0258,25.0661,龙岩市,闽西职业技术学院,细颗粒物(PM2.5),57,58,82,40,54,134,,130,130,7,28,3,41,0.5,0.5
2025-03-26T1600,2338A,117.0196,25.0306,龙岩市,龙岩学院,细颗粒物(PM2.5),53,53,58,37,47,147,,151,151,7,13,3,3,0.6,0.6
2025-03-26T1600,2665A,105.0822,33.3261,陇南市,汉王镇固水子,,,,,,,,,,,,,,,,
2025-03-26T1600,2885A,104.9339,33.3826,陇南市,滨江中学,颗粒物(PM10),100,149,61,34,25,127,,107,107,7,11,7,9,0.4,0.5
2025-03-26T1600,3247A,104.955,33.371,陇南市,市总工会,颗粒物(PM10),185,319,64,96,25,121,,113,113,5,7,8,9,0.4,0.4
2025-03-26T1600,2487A,111.9589,27.8901,娄底市,电视发射台,颗粒物(PM10),84,117,86,54,56,138,,120,120,9,12,10,9,0.6,1.2
2025-03-26T1600,2488A,111.9975,27.725,娄底市,市监测站,细颗粒物(PM2.5),79,93,108,58,81,148,,117,117,16,46,14,17,0.6,1
2025-03-26T1600,2489A,112.0194,27.7314,娄底市,市委党校,,,83,101,55,75,144,,115,115,7,29,4,5,,0.8
2025-03-26T1600,2490A,111.9561,27.7569,娄底市,涟钢,细颗粒物(PM2.5),85,83,108,63,74,125,,97,97,27,28,31,16,1.3,1.3
2025-03-26T1600,2491A,111.9892,27.7044,娄底市,市政府,细颗粒物(PM2.5),70,81,103,51,72,146,,119,119,4,34,10,9,0.4,0.7
2025-03-26T1600,1893A,105.4324,28.9634,泸州市,九狮山,,,,,,,,,,,,,,,,
2025-03-26T1600,1894A,105.4427,28.9063,泸州市,小市上码头,臭氧1小时,116,49,81,39,55,232,,145,145,21,45,12,9,0.4,0.7
2025-03-26T1600,1895A,105.4241,28.8573,泸州市,兰田宪桥,臭氧1小时,109,54,74,44,59,217,,137,137,16,32,,9,0.5,0.7
2025-03-26T1600,1896A,105.4379,28.8833,泸州市,市环监站,,,,,,,,,,,,,,,,
2025-03-26T1600,4272A,105.3689,28.7783,泸州市,纳溪中医医院,臭氧1小时,111,83,91,35,41,221,,141,141,17,34,10,8,0.6,0.8
2025-03-26T1600,2183A,111.1406,37.5211,吕梁市,环保局,颗粒物(PM10),500,640,495,113,120,100,,78,78,4,40,1,4,0.2,0.4
2025-03-26T1600,2185A,111.1297,37.5136,吕梁市,自来水公司,颗粒物(PM10),475,575,487,112,119,100,,80,80,5,36,1,3,0.2,0.4
2025-03-26T1600,2867A,111.1283,37.51,吕梁市,马茂庄小学,颗粒物(PM10),500,701,532,140,136,102,,79,79,5,45,1,6,0.3,0.5
2025-03-26T1600,1812A,112.3931,34.6516,洛阳市,市委党校,颗粒物(PM10),125,200,341,78,85,174,,128,128,18,30,9,7,0.6,0.7
2025-03-26T1600,1815A,112.494,34.6886,洛阳市,河南林校,颗粒物(PM10),145,239,401,62,96,188,,131,131,13,27,11,9,0.7,0.7
2025-03-26T1600,1816A,112.3844,34.623,洛阳市,开发区管委会,颗粒物(PM10),144,237,347,71,96,170,,135,135,12,27,13,10,0.4,0.4
2025-03-26T1600,1817A,112.4267,34.6258,洛阳市,市委新办公区,颗粒物(PM10),134,218,339,75,85,196,,138,138,25,30,12,8,1.1,1
2025-03-26T1600,3340A,112.6005,34.6326,洛阳市,伊滨,颗粒物(PM10),143,236,294,76,82,199,,139,139,21,30,13,9,0.6,0.8
2025-03-26T1600,3341A,112.4951,34.6332,洛阳市,中移产业园,颗粒物(PM10),156,262,385,85,99,186,,124,124,19,30,14,11,0.7,0.7
2025-03-26T1600,3593A,112.5736,34.8993,洛阳市,吉利监测站,颗粒物(PM10),139,228,394,86,98,188,,138,138,22,28,14,11,0.6,0.6
2025-03-26T1600,3635A,112.3677,34.662,洛阳市,河科大西苑校区,颗粒物(PM10),131,212,364,50,72,161,,119,119,16,27,13,11,0.5,0.7
2025-03-26T1600,3636A,112.4388,34.6781,洛阳市,英才小学,颗粒物(PM10),136,222,348,58,89,169,,140,140,16,31,12,13,0.6,0.7
2025-03-26T1600,4214A,112.4600,34.6949,洛阳市,春都路1号院,颗粒物(PM10),143,235,388,55,77,180,,132,132,14,31,11,10,0.8,0.8
2025-03-26T1600,2399A,114.051,33.5699,漯河市,三五一五工厂,,50,49,70,34,43,158,,139,139,5,17,6,7,0.4,0.4
2025-03-26T1600,2400A,114.0055,33.5698,漯河市,漯河大学,颗粒物(PM10),54,58,70,29,35,159,,141,141,9,19,6,9,0.4,0.5
2025-03-26T1600,2401A,114.0138,33.5828,漯河市,市水利局,臭氧1小时,52,48,65,31,37,161,,144,144,8,16,4,6,0.3,0.3
2025-03-26T1600,2402A,114.0261,33.5698,漯河市,市广电局,,50,49,66,30,40,160,,142,142,6,15,5,7,0.4,0.5
2025-03-26T1600,3478A,113.9749,33.5664,漯河市,市图书馆,颗粒物(PM10),53,56,70,35,41,161,,140,140,12,18,4,8,0.5,0.5
2025-03-26T1600,4250A,114.0892,33.5882,漯河市,韶山路11号,臭氧1小时,63,55,69,36,38,170,,148,148,6,15,4,6,0.4,0.5
2025-03-26T1600,1798A,118.5092,31.6837,马鞍山市,湖东路四小,臭氧1小时,116,94,73,36,35,232,,178,178,14,29,12,10,0.9,0.8
2025-03-26T1600,1799A,118.5024,31.6449,马鞍山市,开发区,臭氧1小时,112,92,88,54,42,224,,173,173,23,45,9,6,0.9,0.8
2025-03-26T1600,1802A,118.6245,31.7241,马鞍山市,濮塘,臭氧1小时,123,92,64,52,36,245,,183,183,13,14,12,11,0.9,0.6
2025-03-26T1600,3633A,118.4918,31.6809,马鞍山市,雨山,臭氧1小时,114,84,72,54,39,228,,174,174,12,31,13,11,1.1,1
2025-03-26T1600,4191A,118.5274,31.72227,马鞍山市,慈湖高新区,臭氧1小时,107,93,76,52,38,213,,164,164,29,35,10,8,0.8,0.8
2025-03-26T1600,1686A,111.0286,21.4688,茂名市,电白南海,,,36,41,14,25,66,,65,65,,11,2,2,,0.7
2025-03-26T1600,1687A,110.9294,21.6533,茂名市,茂石化七小,,44,44,42,14,19,73,,67,67,3,9,1,1,0.7,0.7
2025-03-26T1600,1688A,110.9107,21.6687,茂名市,健康路,,39,39,42,17,21,90,,81,81,6,9,2,4,0.5,0.6
2025-03-26T1600,1689A,110.8592,21.6828,茂名市,高岭,颗粒物(PM10),53,56,56,14,20,80,,74,74,7,11,3,6,0.4,0.5
2025-03-26T1600,3450A,111.01,21.5165,茂名市,电白水东,,24,24,30,7,15,66,,64,64,3,4,2,3,0.2,0.4
2025-03-26T1600,2539A,104.0308,30.0478,眉山市,黑龙滩水库,臭氧1小时,95,30,41,20,24,196,,149,149,2,7,7,5,0.6,0.7
2025-03-26T1600,2540A,103.8416,30.0874,眉山市,气象局,,,,81,,51,,,139,,,51,,8,,0.7
2025-03-26T1600,3137A,103.8578,30.0744,眉山市,市委党校,臭氧1小时,105,58,79,41,47,210,,141,141,16,52,17,16,0.5,0.7
2025-03-26T1600,3148A,103.8291,30.0564,眉山市,区人社局,臭氧1小时,112,62,62,36,45,223,,142,142,20,55,20,19,0.7,0.8
2025-03-26T1600,1690A,116.1231,24.3284,梅州市,梅江月梅,细颗粒物(PM2.5),52,44,66,36,50,144,,131,131,8,26,4,6,0.5,0.6
2025-03-26T1600,1691A,116.0797,24.2719,梅州市,梅县新城,,45,42,72,30,48,144,,128,128,10,34,6,8,0.5,0.7
2025-03-26T1600,1692A,116.1248,24.2654,梅州市,环境监控中心,颗粒物(PM10),51,51,66,34,45,145,,127,127,10,36,7,8,0.6,0.8
2025-03-26T1600,3315A,116.1233,24.2991,梅州市,梅龙,,46,46,69,32,46,141,,126,126,8,29,7,9,0.5,0.8
2025-03-26T1600,1878A,104.7778,31.4741,绵阳市,富乐山,臭氧1小时,64,43,56,29,37,171,,134,134,16,27,8,5,0.4,0.6
2025-03-26T1600,1880A,104.6697,31.4668,绵阳市,高新区自来水公司,臭氧1小时,65,50,85,29,39,172,,126,126,12,53,5,5,0.4,0.6
2025-03-26T1600,1881A,104.7287,31.5075,绵阳市,三水厂,臭氧1小时,75,53,87,29,48,180,,130,130,10,55,9,8,0.4,0.7
2025-03-26T1600,3491A,104.69,31.5322,绵阳市,西科大附属小学,,,54,72,33,38,171,,146,146,10,40,9,8,,0.7
2025-03-26T1600,3492A,104.5648,31.5343,绵阳市,安州区旅游局,臭氧1小时,53,43,73,22,36,162,,117,117,9,33,12,9,0.3,0.5
2025-03-26T1600,4226A,104.7651,31.4531,绵阳市,绵阳市气象局,,49,41,72,19,38,154,,108,108,15,52,8,5,0.5,0.7
2025-03-26T1600,1784A,129.61,44.561,牡丹江市,环保大楼,,46,46,45,31,38,81,,66,66,14,18,5,6,0.3,0.4
2025-03-26T1600,1785A,129.6115,44.5782,牡丹江市,文化广场,,48,48,47,33,38,79,,67,67,15,18,11,11,0.4,0.4
2025-03-26T1600,1786A,129.5904,44.5963,牡丹江市,第一医院,,49,,56,34,51,80,,75,75,17,20,10,10,0.1,0.2
2025-03-26T1600,1787A,129.6364,44.6075,牡丹江市,机车工厂,颗粒物(PM10),65,79,67,27,42,84,,77,77,9,17,9,42,0.4,0.5
2025-03-26T1600,1788A,129.6386,44.5462,牡丹江市,第一中学,,42,40,37,29,30,82,,78,78,13,13,7,8,0.4,0.4
2025-03-26T1600,2531A,105.0703,29.61,内江市,市监测站,臭氧1小时,109,35,60,34,52,218,,145,145,21,40,12,10,0.2,0.4
2025-03-26T1600,2532A,105.0717,29.5947,内江市,东兴区政府,臭氧1小时,106,46,64,26,43,212,,130,130,18,47,10,10,0.6,0.9
2025-03-26T1600,2533A,105.0653,29.5817,内江市,内江二中,臭氧1小时,110,50,71,33,50,220,,134,134,22,50,13,12,0.4,0.6
2025-03-26T1600,2534A,105.0406,29.5822,内江市,内江日报社,臭氧1小时,114,59,69,33,50,228,,144,144,15,49,9,13,0.5,0.7
2025-03-26T1600,2628A,92.0657,31.4846,那曲市,那曲监测站,,,,42,,24,98,,72,72,4,25,7,6,0.4,1.3
2025-03-26T1600,3128A,92.0506,31.4797,那曲市,那曲会议中心,,,,,,,,,,,,,,,,
2025-03-26T1600,1290A,115.8931,28.6843,南昌市,省外办,细颗粒物(PM2.5),73,86,115,53,76,172,,136,136,22,65,10,12,0.9,1.2
2025-03-26T1600,1291A,115.8886,28.7003,南昌市,省林业公司,臭氧1小时,75,80,106,46,63,180,,147,147,15,56,10,14,0.1,0.3
2025-03-26T1600,1292A,115.8126,28.7442,南昌市,林科所,臭氧1小时,99,83,77,48,50,199,,173,173,20,59,5,7,0.4,0.4
2025-03-26T1600,1294A,115.8518,28.687,南昌市,建工学校,臭氧1小时,75,83,107,36,72,180,,146,146,15,65,6,8,0.7,0.9
2025-03-26T1600,1295A,115.8921,28.6424,南昌市,象湖,臭氧1小时,102,83,113,46,63,204,,160,160,14,62,11,11,0.8,1.2
2025-03-26T1600,1296A,115.7423,28.7996,南昌市,武术学校,臭氧1小时,103,85,47,42,34,205,,180,180,9,9,16,11,0.8,0.7
2025-03-26T1600,3046A,115.9084,28.6062,南昌市,机电学校,臭氧1小时,87,87,121,51,67,189,,156,156,17,57,10,13,0.8,0.9
2025-03-26T1600,3690A,115.9721,28.7031,南昌市,外国语学校,臭氧1小时,100,84,96,45,56,200,,164,164,16,42,6,9,0.3,0.4
2025-03-26T1600,4192A,115.9316,28.68677,南昌市,南京东路235号,臭氧1小时,84,89,132,49,68,187,,152,152,25,60,8,10,0.7,0.9
2025-03-26T1600,1905A,106.056,30.8064,南充市,西山风景区,臭氧1小时,89,40,40,24,28,191,,140,140,7,10,6,7,0.3,0.7
2025-03-26T1600,1906A,106.0789,30.8023,南充市,南充市委,臭氧1小时,78,64,70,46,41,182,,129,129,16,42,6,5,0.6,0.8
2025-03-26T1600,1907A,106.1031,30.8217,南充市,南充炼油厂,臭氧1小时,62,56,67,24,40,169,,127,127,10,36,6,6,0.4,0.6
2025-03-26T1600,1909A,106.0642,30.7636,南充市,嘉陵区环保局,臭氧1小时,60,47,70,34,39,168,,121,121,18,48,7,6,0.3,0.6
2025-03-26T1600,4227A,106.1083,30.7884,南充市,梨树横街98号,臭氧1小时,74,47,95,19,28,179,,126,126,16,43,8,7,0.4,0.6
2025-03-26T1600,4304A,106.1172,30.843,南充市,清泉寺北路188号,臭氧1小时,79,50,63,30,36,183,,129,129,16,21,10,9,0.3,0.3
2025-03-26T1600,1151A,118.8086,32.1065,南京市,迈皋桥,臭氧1小时,107,68,56,46,33,214,,170,170,18,35,5,5,0.8,0.6
2025-03-26T1600,1152A,118.7538,32.0551,南京市,草场门,臭氧1小时,87,75,69,41,33,189,,151,151,16,45,12,11,0.9,0.8
2025-03-26T1600,1153A,118.7794,32.0745,南京市,山西路,,,102,77,,28,176,,142,142,22,30,7,6,,0.9
2025-03-26T1600,1154A,118.7752,32.0023,南京市,中华门,臭氧1小时,63,70,60,44,32,170,,138,138,6,38,8,9,0.9,0.6
2025-03-26T1600,1155A,118.8109,32.0309,南京市,瑞金路,臭氧1小时,93,83,77,44,33,194,,150,150,10,51,6,6,0.6,0.8
2025-03-26T1600,1156A,118.7997,32.0754,南京市,玄武湖,臭氧1小时,93,84,69,39,28,194,,151,151,11,23,12,8,0.9,0.6
2025-03-26T1600,1157A,118.6414,32.0931,南京市,浦口,臭氧1小时,104,82,71,39,28,208,,162,162,11,22,9,10,0.5,0.5
2025-03-26T1600,1158A,118.7356,31.9996,南京市,奥体中心,臭氧1小时,99,85,68,41,32,199,,159,159,20,41,15,10,1.0,0.7
2025-03-26T1600,1159A,118.9125,32.1028,南京市,仙林大学城,臭氧1小时,100,83,72,46,32,200,,153,153,15,34,13,13,1.0,0.9
2025-03-26T1600,3422A,118.8436,31.9198,南京市,江宁彩虹桥,臭氧1小时,101,78,73,46,33,202,,155,155,9,44,4,4,0.6,0.6
2025-03-26T1600,3423A,119.0138,31.6494,南京市,溧水永阳,,,,54,,37,,,131,,,46,,6,,0.6
2025-03-26T1600,3427A,118.8554,32.3578,南京市,六合雄州,臭氧1小时,99,80,72,43,29,199,,158,158,13,37,10,9,0.8,0.7
2025-03-26T1600,4249A,118.8708,31.3402,南京市,汶溪路181号,细颗粒物(PM2.5),70,61,57,51,39,171,,158,158,16,25,4,6,0.8,0.8
2025-03-26T1600,1401A,108.3103,22.7881,南宁市,二十一中,,,,46,,29,,,120,,,22,,10,,0.7
2025-03-26T1600,1402A,108.3141,22.8528,南宁市,北湖,,49,49,50,31,30,146,,88,88,17,20,11,11,0.5,0.6
2025-03-26T1600,1403A,108.3206,22.8225,南宁市,市监测站,,,62,57,28,31,,,68,68,18,19,13,12,0.5,0.8
2025-03-26T1600,1404A,108.3829,22.8037,南宁市,大自然花园,,49,49,48,31,34,144,,94,94,14,13,11,11,0.7,0.8
2025-03-26T1600,1405A,108.4394,22.7904,南宁市,仙葫,,48,48,46,18,28,124,,86,86,10,15,7,6,0.4,0.5
2025-03-26T1600,1406A,108.2397,22.8467,南宁市,区农职院,颗粒物(PM10),54,58,58,31,29,141,,86,86,17,23,8,9,0.7,0.8
2025-03-26T1600,1407A,108.3275,22.735,南宁市,英华嘉园,,46,38,50,28,27,146,,90,90,18,24,12,13,0.5,0.6
2025-03-26T1600,3401A,108.4834,22.7618,南宁市,红星社区,,46,46,44,24,27,130,,91,91,10,14,14,13,0.6,0.8
2025-03-26T1600,4221A,108.2177,22.7774,南宁市,乐贤路16号,颗粒物(PM10),54,58,59,29,30,84,,57,57,12,25,9,10,0.6,0.7
2025-03-26T1600,2331A,118.0966,26.6761,南平市,茫荡山,,,,53,,53,,,,,,,,1,,
2025-03-26T1600,2332A,118.1681,26.6369,南平市,南平市监测站,"细颗粒物(PM2.5),臭氧1小时",70,76,75,51,59,176,,142,142,12,26,3,3,0.9,1.1
2025-03-26T1600,2333A,118.1825,26.6489,南平市,南平铝业有限公司,臭氧1小时,64,72,74,42,59,171,,134,134,11,24,8,8,0.8,1
2025-03-26T1600,2334A,118.1756,26.6272,南平市,南平七中,臭氧1小时,73,79,71,45,56,178,,130,130,8,24,7,6,0.7,0.9
2025-03-26T1600,1168A,120.9098,31.9663,南通市,狼山街道,臭氧1小时,125,88,94,44,49,250,,178,178,34,88,9,10,0.7,0.6
2025-03-26T1600,1169A,120.86,32.0005,南通市,虹桥,臭氧1小时,112,88,91,54,51,224,,173,173,62,72,10,11,0.9,0.8
2025-03-26T1600,1170A,120.87,32.02,南通市,城中,臭氧1小时,117,98,105,49,47,233,,175,175,46,66,11,12,0.9,0.8
2025-03-26T1600,1171A,120.94,31.93,南通市,星湖花园,臭氧1小时,117,83,102,49,50,233,,164,164,30,77,10,11,0.7,0.5
2025-03-26T1600,1172A,120.81,32.0417,南通市,紫琅学院,臭氧1小时,108,89,102,52,49,215,,158,158,42,87,6,8,1.0,1
2025-03-26T1600,3291A,121.067,32.062,南通市,通州监测站,臭氧1小时,111,75,106,41,49,222,,172,172,20,63,9,9,0.8,0.8
2025-03-26T1600,3432A,120.9348,31.9883,南通市,环境教育馆,臭氧1小时,137,85,108,47,51,274,,192,192,25,87,11,11,0.5,0.6
2025-03-26T1600,2404A,112.5224,33.0122,南阳市,瓦房庄,臭氧1小时,59,63,72,31,36,167,,140,140,8,15,4,4,0.5,0.5
2025-03-26T1600,2405A,112.5003,32.9735,南阳市,汉画馆,颗粒物(PM10),56,61,63,32,35,159,,135,135,12,21,7,7,0.5,0.5
2025-03-26T1600,2406A,112.5573,33.027,南阳市,气象站,臭氧1小时,57,56,66,29,36,165,,140,140,12,18,6,8,0.5,0.5
2025-03-26T1600,2407A,112.5481,32.9689,南阳市,理工学院,臭氧1小时,63,55,66,32,31,170,,141,141,8,17,6,6,0.5,0.5
2025-03-26T1600,4008A,112.5234,32.9922,南阳市,卧龙区政府,臭氧1小时,63,56,68,27,40,170,,142,142,10,18,6,7,0.5,0.5
2025-03-26T1600,1234A,121.8358,29.911,宁波市,区环保大楼,颗粒物(PM10),73,96,107,29,43,117,,97,97,40,98,9,15,0.6,0.8
2025-03-26T1600,1235A,121.56,29.82,宁波市,万里学院,细颗粒物(PM2.5),64,71,89,46,56,158,,140,140,29,39,13,12,0.7,0.7
2025-03-26T1600,1236A,121.713,29.9572,宁波市,龙赛医院,颗粒物(PM10),67,83,115,43,52,138,,104,104,36,99,10,14,0.7,0.9
2025-03-26T1600,1239A,121.633,29.7733,宁波市,钱湖水厂,细颗粒物(PM2.5),53,54,67,37,47,157,,134,134,20,22,9,9,0.6,0.7
2025-03-26T1600,1240A,121.5856,29.8635,宁波市,太古小学,颗粒物(PM10),58,65,94,39,49,165,,149,149,19,37,10,11,0.8,0.9
2025-03-26T1600,1241A,121.524,29.8674,宁波市,市环境监测中心,臭氧1小时,82,71,95,46,61,185,,148,148,33,64,10,11,1.0,1.1
2025-03-26T1600,2871A,121.6147,29.9017,宁波市,万里国际学校,臭氧1小时,79,65,92,38,48,183,,161,161,18,36,10,11,0.6,0.7
2025-03-26T1600,3710A,121.5594,29.8975,宁波市,白沙活动中心,臭氧1小时,72,59,88,34,51,177,,158,158,25,50,8,9,0.6,0.8
2025-03-26T1600,2339A,119.5001,26.6946,宁德市,金涵水库,,,,,,,,,,,,,,,,
2025-03-26T1600,2341A,119.5388,26.6612,宁德市,宁德市监测站,臭氧1小时,74,75,85,44,76,179,,139,139,26,50,7,6,0.7,0.9
2025-03-26T1600,3209A,119.5231,26.6562,宁德市,宁德一中,臭氧1小时,83,82,82,49,68,186,,144,144,22,23,9,7,0.6,0.8
2025-03-26T1600,2618A,98.8601,25.8567,怒江傈僳族自治州,州监测站,,38,25,28,13,15,120,,92,92,5,6,6,5,0.3,0.3
2025-03-26T1600,2619A,98.8546,25.8417,怒江傈僳族自治州,泸水一中,,38,38,29,20,18,103,,72,72,12,15,6,6,0.3,0.4
2025-03-26T1600,1888A,101.6891,26.571,攀枝花市,弄弄坪,,36,16,50,10,25,113,,89,89,9,36,15,18,0.9,1.2
2025-03-26T1600,1889A,101.5769,26.5928,攀枝花市,河门口,,36,16,40,9,22,113,,93,93,7,26,8,22,0.3,0.8
2025-03-26T1600,1890A,101.7169,26.585,攀枝花市,炳草岗,,35,12,46,6,25,110,,106,106,17,45,10,17,0.3,0.7
2025-03-26T1600,1891A,101.7369,26.5008,攀枝花市,仁和,,40,11,31,10,21,128,,112,112,9,18,7,9,0.4,0.5
2025-03-26T1600,2835A,101.7227,26.567,攀枝花市,四十中小,,39,39,48,20,23,118,,98,98,10,40,11,14,0.0,0.3
2025-03-26T1600,1604A,122.0303,41.1489,盘锦市,开发区,细颗粒物(PM2.5),99,,102,74,87,105,,102,102,24,20,12,12,0.8,0.8
2025-03-26T1600,1605A,122.0485,41.0883,盘锦市,兴隆台,细颗粒物(PM2.5),102,83,104,76,91,100,,98,98,25,22,5,5,0.7,0.7
2025-03-26T1600,1606A,121.8297,41.1028,盘锦市,新生街道,细颗粒物(PM2.5),99,,86,74,81,114,,109,109,18,24,7,7,0.8,0.7
2025-03-26T1600,1832A,113.3257,33.742,平顶山市,新华旅馆,颗粒物(PM10),54,57,79,31,33,159,,143,143,11,33,6,6,0.4,0.4
2025-03-26T1600,1833A,113.2919,33.737,平顶山市,规划设计院,颗粒物(PM10),54,58,76,27,41,159,,146,146,9,28,6,6,0.2,0.4
2025-03-26T1600,1834A,113.182,33.774,平顶山市,平顶山工学院,臭氧1小时,85,80,58,39,32,188,,152,152,5,5,12,10,0.6,0.5
2025-03-26T1600,3204A,113.3025,33.73,平顶山市,规划局,细颗粒物(PM2.5),53,46,69,37,43,159,,146,146,10,20,6,6,0.5,0.6
2025-03-26T1600,3594A,112.8867,33.9116,平顶山市,石龙区,颗粒物(PM10),136,222,87,48,34,189,,153,153,12,20,12,12,0.3,0.2
2025-03-26T1600,2656A,106.6692,35.5461,平凉市,聚贤嘉苑,细颗粒物(PM2.5),220,293,634,170,111,114,,107,107,4,16,9,11,0.3,0.5
2025-03-26T1600,2657A,106.7021,35.5307,平凉市,博物馆,颗粒物(PM10),162,274,597,53,110,109,,99,99,5,18,17,19,0.4,0.5
2025-03-26T1600,2347A,114.0997,27.5002,萍乡市,武功山,细颗粒物(PM2.5),64,47,51,46,43,130,,124,124,7,9,19,15,0.7,0.6
2025-03-26T1600,2348A,113.8385,27.6434,萍乡市,中医院,细颗粒物(PM2.5),62,67,93,44,54,153,,121,121,4,36,9,13,0.9,1.1
2025-03-26T1600,2349A,113.8493,27.6253,萍乡市,市政府车库,细颗粒物(PM2.5),54,53,79,38,68,150,,130,130,6,30,6,9,0.6,1
2025-03-26T1600,2350A,113.8676,27.6435,萍乡市,市环保局,细颗粒物(PM2.5),64,68,95,46,67,149,,124,124,6,32,7,12,0.7,0.9
2025-03-26T1600,2351A,113.866,27.6198,萍乡市,安源区政府,颗粒物(PM10),59,68,93,39,55,151,,118,118,7,27,14,18,0.6,1.4
2025-03-26T1600,2319A,119.0141,25.4325,莆田市,荔城区仓后路,颗粒物(PM10),61,72,80,19,41,122,,120,120,23,28,4,4,0.5,0.7
2025-03-26T1600,2320A,119.0015,25.4553,莆田市,莆田市监测站,颗粒物(PM10),60,70,73,18,42,143,,128,128,18,21,7,12,0.4,0.5
2025-03-26T1600,2321A,119.1119,25.4561,莆田市,涵江区六中,颗粒物(PM10),55,59,69,16,42,124,,120,120,17,32,6,6,0.3,0.5
2025-03-26T1600,2322A,119.1013,25.3215,莆田市,秀屿区政府,,44,44,48,8,31,111,,113,113,11,19,5,7,0.4,0.5
2025-03-26T1600,2323A,118.981,25.4792,莆田市,东圳水库,,,,,,,,,,,,,,,,
2025-03-26T1600,2392A,115.0312,35.7636,濮阳市,环保局,颗粒物(PM10),93,136,190,51,54,132,,102,102,20,30,7,13,0.8,0.8
2025-03-26T1600,2394A,115.0574,35.7609,濮阳市,油田运输公司,颗粒物(PM10),99,147,205,50,52,132,,99,99,16,26,7,15,1.0,1.1
2025-03-26T1600,3021A,115,35.7668,濮阳市,濮水河管理处,颗粒物(PM10),105,160,219,53,51,132,,93,93,23,34,9,11,0.6,0.7
2025-03-26T1600,4216A,115.0924,35.7686,濮阳市,任丘路479号,,,,214,,56,,,91,,,29,,18,,1.0
2025-03-26T1600,2601A,100.98,22.7633,普洱市,市环保局,,,,75,,27,122,,54,,10,13,6,4,,0.7
2025-03-26T1600,2602A,100.9817,22.8322,普洱市,普洱第二中学,,,,,37,42,133,,99,99,9,23,6,6,0.4,0.5
2025-03-26T1600,2262A,131.0518,45.8751,七台河市,新一中,细颗粒物(PM2.5),375,404,29,325,19,149,,101,101,87,12,46,14,1.9,0.6
2025-03-26T1600,3345A,131.0577,45.7879,七台河市,中波台,细颗粒物(PM2.5),244,220,30,194,20,106,,90,90,75,19,25,10,1.4,0.6
2025-03-26T1600,3637A,131.0176,45.7761,七台河市,人民广场,颗粒物(PM10),242,379,50,176,26,117,,98,98,49,18,21,10,1.0,0.8
2025-03-26T1600,3684A,130.8781,45.8222,七台河市,新建矿广场,细颗粒物(PM2.5),172,193,58,130,29,115,,87,87,40,18,17,11,0.9,0.6
2025-03-26T1600,1779A,123.9305,47.3636,齐齐哈尔市,安居小区,,,,51,,29,73,,74,74,18,19,5,9,0.3,0.5
2025-03-26T1600,1780A,123.9488,47.3386,齐齐哈尔市,中心广场,,47,47,51,22,31,66,,70,70,17,17,5,7,0.5,0.5
2025-03-26T1600,1781A,123.9483,47.3227,齐齐哈尔市,农牧车辆厂,,36,31,47,25,29,76,,75,75,13,18,5,7,0.3,0.4
2025-03-26T1600,1783A,123.945,47.2988,齐齐哈尔市,市环境监测站,,45,31,49,31,31,69,,72,72,15,18,2,4,0.4,0.5
2025-03-26T1600,3662A,123.6333,47.2075,齐齐哈尔市,富区青少年活动中心,,45,39,52,31,34,73,,72,72,10,13,6,7,0.4,0.4
2025-03-26T1600,2591A,107.9783,26.5747,黔东南苗族侗族自治州,市环境监测站,细颗粒物(PM2.5),52,45,64,36,51,149,,132,132,7,17,3,4,0.4,0.6
2025-03-26T1600,2881A,107.8908,26.5311,黔东南苗族侗族自治州,凯里学院,细颗粒物(PM2.5),60,48,58,43,47,148,,128,124,4,8,3,4,0.3,0.6
2025-03-26T1600,2593A,107.5228,26.2403,黔南布依族苗族自治州,小围寨,,50,41,48,19,36,160,,137,137,4,9,2,14,0.8,0.8
2025-03-26T1600,3538A,107.5175,26.2978,黔南布依族苗族自治州,沙坝,颗粒物(PM10),53,56,57,24,37,150,,128,128,11,18,4,5,0.6,0.7
2025-03-26T1600,2589A,104.9022,25.0925,黔西南布依族苗族自治州,场坝街,,,,40,6,35,173,,150,150,6,9,2,3,0.2,0.2
2025-03-26T1600,2590A,104.8811,25.0992,黔西南布依族苗族自治州,坪东大道,臭氧1小时,58,27,33,3,24,166,,142,142,10,17,2,2,0.3,0.3
2025-03-26T1600,2502A,108.6236,21.9667,钦州市,市环保站,颗粒物(PM10),57,63,47,9,18,77,,74,74,12,23,8,11,0.6,0.7
2025-03-26T1600,2503A,108.6549,21.9481,钦州市,沙埠小学,颗粒物(PM10),60,69,45,15,18,77,,75,75,8,19,6,8,0.6,0.6
2025-03-26T1600,2504A,108.5989,21.7431,钦州市,港区一小,颗粒物(PM10),56,61,46,16,19,57,,66,66,17,21,7,8,0.6,0.7
2025-03-26T1600,3404A,108.5959,21.9633,钦州市,北职校,颗粒物(PM10),58,66,46,12,22,76,,70,70,13,21,8,11,0.6,0.7
2025-03-26T1600,1043A,119.7493,40.0116,秦皇岛市,第一关,,,,104,52,52,113,,103,103,,31,5,5,0.5,0.4
2025-03-26T1600,1044A,119.5897,39.9499,秦皇岛市,监测站,颗粒物(PM10),100,149,95,41,41,116,,99,99,14,18,4,4,0.4,0.4
2025-03-26T1600,1046A,119.5251,39.9041,秦皇岛市,建设大厦,颗粒物(PM10),109,167,113,39,45,114,,99,99,17,22,4,5,0.5,0.4
2025-03-26T1600,3132A,119.610547,39.943889,秦皇岛市,文明里,颗粒物(PM10),100,150,111,43,38,114,,99,99,17,22,4,5,0.4,0.4
