timepoint,stationcode,longitude,latitude,area,positionname,primarypollutant,aqi,pm10,pm10_24h,pm2_5,pm2_5_24h,o3,o3_24h,o3_8h,o3_8h_24h,no2,no2_24h,so2,so2_24h,co,co_24h
2022-01-09T06:00:00,1001A,116.3621,39.8784,北京市,万寿西宫,细颗粒物(PM2.5),55,50,53,39,44,68,13,7,7,44,46,5,5,0.9,1
2022-01-09T06:00:00,1002A,116.2202,40.2915,北京市,定陵(对照点),细颗粒物(PM2.5),103,76,42,77,37,77,4,44,10,51,22,2,3,1.2,0.5
2022-01-09T06:00:00,1003A,116.4174,39.9289,北京市,东四,,45,45,54,26,42,68,21,11,11,32,39,3,2,0.8,0.8
2022-01-09T06:00:00,1004A,116.4072,39.8863,北京市,天坛,,50,43,50,35,44,74,11,8,8,43,42,2,2,0.8,0.8
2022-01-09T06:00:00,1005A,116.462,39.9365,北京市,农展馆,,49,49,59,23,44,65,19,9,9,33,47,4,3,0.7,0.8
2022-01-09T06:00:00,1006A,116.3392,39.9295,北京市,官园,细颗粒物(PM2.5),59,55,56,42,45,63,5,4,4,48,47,3,2,0.9,0.8
2022-01-09T06:00:00,1007A,116.2878,39.9611,北京市,海淀万柳,细颗粒物(PM2.5),88,84,68,65,46,66,1,3,2,64,55,1,2,1.1,0.8
2022-01-09T06:00:00,1008A,116.6636,40.135,北京市,顺义新城,细颗粒物(PM2.5),54,48,45,38,38,69,29,34,32,23,30,3,3,0.8,0.5
2022-01-09T06:00:00,1009A,116.6275,40.3275,北京市,怀柔镇,细颗粒物(PM2.5),55,48,47,39,39,67,35,26,26,22,29,5,3,0.7,0.7
2022-01-09T06:00:00,1010A,116.2296,40.217,北京市,昌平镇,,42,38,44,29,35,74,37,22,22,17,27,3,3,0.6,0.6
2022-01-09T06:00:00,1011A,116.3966,39.9821,北京市,奥体中心,,46,46,54,30,40,72,22,12,12,35,40,4,4,0.7,0.7
2022-01-09T06:00:00,1012A,116.184,39.9136,北京市,古城,细颗粒物(PM2.5),120,93,67,91,50,64,0,0,0,72,56,1,2,1.3,0.8
2022-01-09T06:00:00,1015A,117.1444,39.1661,天津市,勤俭道,颗粒物(PM10),53,55,84,31,57,65,4,25,22,57,51,6,7,0.7,0.9
2022-01-09T06:00:00,1017A,117.237,39.1082,天津市,大直沽八号路,,38,38,82,21,60,63,30,26,26,26,45,7,6,1.1,1.1
2022-01-09T06:00:00,1018A,117.202,39.0927,天津市,前进道,,33,33,82,19,61,69,37,30,30,26,47,6,6,0.5,0.9
2022-01-09T06:00:00,1019A,117.1837,39.2133,天津市,淮河道,颗粒物(PM10),55,59,93,33,62,66,2,2,2,50,55,24,6,0.7,1
2022-01-09T06:00:00,1021A,117.307,39.0877,天津市,跃进路,,39,39,95,20,64,64,16,20,20,44,49,4,5,0.7,1
2022-01-09T06:00:00,1023A,117.707,39.0343,天津市,第四大街,,29,26,104,12,74,61,8,18,14,58,58,7,8,0.5,1
2022-01-09T06:00:00,1024A,117.457,38.8394,天津市,永明路,,27,27,106,15,82,67,36,29,29,21,50,8,8,0.4,1
2022-01-09T06:00:00,1026A,117.764,39.1587,天津市,汉北路,,22,22,93,11,69,61,37,30,30,18,45,6,6,0.4,0.8
2022-01-09T06:00:00,1027A,117.157,38.9194,天津市,团泊洼(对照点),,42,42,113,26,81,63,4,3,2,60,60,4,6,0.5,1.1
2022-01-09T06:00:00,1029A,114.4422,38.0444,石家庄市,职工医院,细颗粒物(PM2.5),162,152,149,123,129,86,2,9,4,66,66,13,15,1.7,1.6
2022-01-09T06:00:00,1030A,114.6063,38.0266,石家庄市,高新区,细颗粒物(PM2.5),206,205,176,156,131,68,4,4,4,70,65,6,13,2.0,1.7
2022-01-09T06:00:00,1031A,114.4898,38.1328,石家庄市,西北水源,细颗粒物(PM2.5),180,223,162,136,116,86,6,7,6,67,64,8,12,1.8,1.6
2022-01-09T06:00:00,1032A,114.4586,38.0058,石家庄市,西南高教,细颗粒物(PM2.5),189,187,178,142,135,79,5,5,5,71,67,9,14,1.7,1.6
2022-01-09T06:00:00,1033A,114.5331,38.0178,石家庄市,世纪公园,细颗粒物(PM2.5),212,198,178,162,142,71,5,5,5,76,70,5,11,1.9,1.6
2022-01-09T06:00:00,1034A,114.509,38.0457,石家庄市,人民会堂,细颗粒物(PM2.5),198,180,157,148,124,80,4,4,4,63,57,8,16,1.7,1.5
2022-01-09T06:00:00,1035A,114.3524,37.8911,石家庄市,封龙山(对照点),细颗粒物(PM2.5),147,133,104,112,74,99,86,82,82,28,29,18,11,1.2,1
2022-01-09T06:00:00,1037A,118.131,39.6363,唐山市,雷达站,颗粒物(PM10),67,83,122,36,85,61,23,31,29,33,54,17,9,2.1,1.5
2022-01-09T06:00:00,1038A,118.1725,39.6334,唐山市,物资局,颗粒物(PM10),55,60,122,30,77,60,21,26,25,34,57,17,12,1.6,1.5
2022-01-09T06:00:00,1040A,118.1705,39.6506,唐山市,十二中,,50,50,117,31,86,66,22,26,25,35,57,10,9,0.7,1.4
2022-01-09T06:00:00,1041A,118.1869,39.622,唐山市,小山,颗粒物(PM10),65,79,115,27,66,58,10,16,14,44,57,16,10,1.7,1.3
2022-01-09T06:00:00,1042A,119.5134,39.8207,秦皇岛市,北戴河环保局,,39,38,80,27,67,58,22,35,26,47,49,17,17,0.7,1.2
2022-01-09T06:00:00,1043A,119.7493,40.0116,秦皇岛市,第一关,细颗粒物(PM2.5),55,50,76,39,45,66,7,11,9,55,54,19,14,0.8,0.8
2022-01-09T06:00:00,1044A,119.5897,39.9499,秦皇岛市,监测站,颗粒物(PM10),53,55,82,31,52,62,6,18,15,51,56,14,14,0.7,0.9
2022-01-09T06:00:00,1046A,119.5251,39.9041,秦皇岛市,建设大厦,颗粒物(PM10),55,59,83,25,50,59,6,30,22,46,46,9,13,1.0,0.9
2022-01-09T06:00:00,1048A,114.5302,36.6116,邯郸市,东污水处理厂,细颗粒物(PM2.5),230,206,171,180,151,22,3,2,2,66,62,10,33,2.7,1.9
2022-01-09T06:00:00,1049A,114.4918,36.5713,邯郸市,矿院,细颗粒物(PM2.5),135,112,148,103,134,27,10,9,9,40,56,3,16,1.5,1.6
2022-01-09T06:00:00,1050A,114.484,36.6133,邯郸市,丛台公园,细颗粒物(PM2.5),232,191,154,182,139,44,11,8,8,66,63,11,17,2.2,1.9
2022-01-09T06:00:00,1051A,115.493,38.8632,保定市,游泳馆,细颗粒物(PM2.5),180,133,169,136,155,23,4,4,4,81,85,10,11,1.6,2.1
2022-01-09T06:00:00,1052A,115.5213,38.8959,保定市,华电二区,细颗粒物(PM2.5),149,151,163,114,144,32,4,5,4,82,85,11,11,1.8,2.1
2022-01-09T06:00:00,1053A,115.4713,38.9108,保定市,接待中心,细颗粒物(PM2.5),138,146,184,105,148,40,6,6,6,78,82,8,9,1.7,2.1
2022-01-09T06:00:00,1054A,115.4612,38.8416,保定市,地表水厂,细颗粒物(PM2.5),138,129,183,105,127,35,4,4,4,83,84,13,13,1.6,2
2022-01-09T06:00:00,1055A,115.4323,38.8697,保定市,胶片厂,细颗粒物(PM2.5),144,131,170,110,147,32,5,5,4,81,79,12,12,1.6,1.9
2022-01-09T06:00:00,1056A,115.5086,38.8639,保定市,监测站,细颗粒物(PM2.5),168,161,184,127,155,31,4,5,4,78,85,7,9,1.8,2.3
2022-01-09T06:00:00,1057A,114.8883,40.8336,张家口市,人民公园,,22,22,31,10,16,81,52,58,56,12,15,5,4,0.6,0.5
2022-01-09T06:00:00,1059A,114.8687,40.8042,张家口市,五金库,,27,27,34,17,24,72,58,62,61,9,17,6,8,0.4,0.5
2022-01-09T06:00:00,1060A,114.8902,40.762,张家口市,世纪豪园,,27,27,34,15,20,74,56,58,58,12,19,5,6,0.4,0.4
2022-01-09T06:00:00,1061A,114.8916,40.8661,张家口市,北泵房(对照点),,34,34,37,23,31,86,50,59,57,8,10,13,10,1.2,0.8
2022-01-09T06:00:00,1062A,117.9531,40.9081,承德市,铁路,,32,31,66,22,41,69,12,28,23,35,35,5,9,0.8,1.2
2022-01-09T06:00:00,1063A,117.9392,40.9763,承德市,中国银行,,48,36,66,33,39,71,6,6,6,48,48,7,8,1.1,1.3
2022-01-09T06:00:00,1064A,117.9503,40.928,承德市,开发区,细颗粒物(PM2.5),53,47,75,37,49,75,6,6,6,55,54,9,11,1.1,1.4
2022-01-09T06:00:00,1065A,117.8051,40.9655,承德市,文化中心,细颗粒物(PM2.5),59,61,62,42,39,74,7,3,3,51,48,4,7,0.7,1
2022-01-09T06:00:00,1066A,117.9268,41.0026,承德市,离宫(对照点),,44,44,41,26,32,83,16,32,23,30,25,4,4,0.7,0.6
2022-01-09T06:00:00,1067A,116.6708,39.5111,廊坊市,药材公司,颗粒物(PM10),54,58,90,30,60,68,13,6,6,35,55,5,4,0.8,1.2
2022-01-09T06:00:00,1068A,116.7214,39.5589,廊坊市,开发区,颗粒物(PM10),55,59,89,26,59,72,16,5,5,37,53,4,3,0.7,1
2022-01-09T06:00:00,1070A,116.7244,39.5269,廊坊市,北华航天学院,颗粒物(PM10),55,60,98,22,55,70,17,8,8,37,56,7,6,0.6,1.1
2022-01-09T06:00:00,1071A,116.8842,38.2991,沧州市,沧县城建局,细颗粒物(PM2.5),160,161,152,122,123,47,1,4,2,74,64,11,9,1.6,1.5
2022-01-09T06:00:00,1072A,116.8584,38.3254,沧州市,电视转播站,细颗粒物(PM2.5),149,145,146,114,120,48,6,8,7,72,61,9,4,1.6,1.5
2022-01-09T06:00:00,1073A,116.8709,38.3228,沧州市,市环保局,细颗粒物(PM2.5),169,155,141,128,125,47,3,4,4,68,58,6,7,1.6,1.6
2022-01-09T06:00:00,1074A,115.6838,37.7541,衡水市,电机北厂,细颗粒物(PM2.5),213,161,143,163,134,32,2,3,2,66,62,13,12,1.8,1.7
2022-01-09T06:00:00,1075A,115.6303,37.7316,衡水市,市监测站,细颗粒物(PM2.5),209,169,126,159,122,24,2,4,3,60,51,7,7,1.4,1.5
2022-01-09T06:00:00,1077A,114.4704,37.0886,邢台市,达活泉,细颗粒物(PM2.5),160,139,172,122,151,63,15,8,8,58,80,12,17,1.3,1.8
2022-01-09T06:00:00,1078A,114.5062,37.0349,邢台市,邢师高专,细颗粒物(PM2.5),228,174,184,178,159,53,6,4,4,79,77,19,10,2.0,1.9
2022-01-09T06:00:00,1079A,114.5237,37.0851,邢台市,路桥公司,细颗粒物(PM2.5),199,162,171,149,162,50,5,6,6,62,72,29,12,1.6,2
2022-01-09T06:00:00,1080A,114.4725,37.0719,邢台市,市环保局,细颗粒物(PM2.5),192,178,186,144,150,55,8,4,4,66,73,21,18,1.5,1.8
2022-01-09T06:00:00,1081A,112.5139,37.8873,太原市,尖草坪,细颗粒物(PM2.5),73,89,115,53,74,61,1,2,2,58,57,8,12,0.8,1
2022-01-09T06:00:00,1083A,112.434,38.0108,太原市,上兰(对照点),细颗粒物(PM2.5),62,57,64,44,53,58,8,32,20,50,32,14,11,0.6,0.6
2022-01-09T06:00:00,1084A,112.469,37.7124,太原市,晋源,细颗粒物(PM2.5),143,136,143,109,113,41,2,2,2,68,74,10,17,1.5,1.5
2022-01-09T06:00:00,1085A,112.5583,37.7394,太原市,小店,细颗粒物(PM2.5),165,177,162,125,116,43,3,4,4,76,72,17,19,1.9,1.6
2022-01-09T06:00:00,1086A,112.5369,37.8692,太原市,桃园,细颗粒物(PM2.5),82,92,118,60,87,48,1,1,1,62,64,11,17,0.9,1.4
2022-01-09T06:00:00,1087A,112.57,37.8195,太原市,坞城,细颗粒物(PM2.5),144,159,136,110,100,54,4,4,4,83,61,14,18,1.6,1.5
2022-01-09T06:00:00,1088A,112.549,37.9854,太原市,南寨,细颗粒物(PM2.5),107,130,129,80,90,60,2,2,2,58,52,9,10,1.1,1
2022-01-09T06:00:00,1090A,111.6507,40.7517,呼和浩特市,呼市一监,细颗粒物(PM2.5),176,185,178,133,133,67,8,9,8,59,51,11,13,1.9,1.6
2022-01-09T06:00:00,1091A,111.6572,40.8033,呼和浩特市,小召,细颗粒物(PM2.5),134,127,154,102,120,50,6,8,6,75,73,15,15,1.4,1.5
2022-01-09T06:00:00,1094A,111.7516,40.8369,呼和浩特市,如意水处理厂,细颗粒物(PM2.5),130,121,138,99,120,57,2,4,3,66,67,13,15,1.7,1.8
2022-01-09T06:00:00,1095A,111.7276,40.8062,呼和浩特市,二十九中,细颗粒物(PM2.5),137,132,155,104,113,58,4,4,4,61,64,16,16,1.6,1.5
2022-01-09T06:00:00,1096A,111.5512,40.7866,呼和浩特市,工大金川校区,细颗粒物(PM2.5),180,196,167,136,132,64,3,4,4,52,52,11,16,1.7,1.5
2022-01-09T06:00:00,1097A,111.717,40.7612,呼和浩特市,化肥厂生活区,细颗粒物(PM2.5),135,107,141,103,119,58,3,7,6,56,54,16,17,2.4,1.8
2022-01-09T06:00:00,1098A,123.6836,41.9339,沈阳市,森林路(对照点),细颗粒物(PM2.5),189,171,150,142,118,64,24,45,33,29,32,9,13,1.2,1.1
2022-01-09T06:00:00,1099A,123.505,41.7406,沈阳市,浑南东路,细颗粒物(PM2.5),212,196,149,162,119,65,6,31,20,60,42,16,21,1.3,1
2022-01-09T06:00:00,1100A,123.4231,41.6989,沈阳市,新秀街,细颗粒物(PM2.5),200,199,154,150,109,58,5,24,12,70,50,8,12,1.3,1
2022-01-09T06:00:00,1102A,123.5903,41.8411,沈阳市,东陵路,细颗粒物(PM2.5),193,148,119,145,113,68,11,24,13,44,35,10,15,1.0,1
2022-01-09T06:00:00,1103A,123.4264,41.8467,沈阳市,陵东街,细颗粒物(PM2.5),188,189,143,141,107,68,8,22,11,67,47,15,14,1.4,1.2
2022-01-09T06:00:00,1104A,123.4114,41.7653,沈阳市,文化路,细颗粒物(PM2.5),221,210,152,171,124,59,6,28,13,66,46,26,23,1.4,1.1
2022-01-09T06:00:00,1105A,123.4678,41.7867,沈阳市,小河沿,细颗粒物(PM2.5),209,229,159,159,111,60,3,22,11,68,47,13,16,1.3,1
2022-01-09T06:00:00,1106A,123.4017,41.7972,沈阳市,太原街,细颗粒物(PM2.5),216,214,155,166,123,53,3,16,6,75,53,29,19,1.2,0.9
2022-01-09T06:00:00,1108A,123.3783,41.9228,沈阳市,京沈街,细颗粒物(PM2.5),218,153,114,168,114,70,21,36,22,47,40,15,14,1.2,1.1
2022-01-09T06:00:00,1109A,121.612,38.9741,大连市,甘井子,,45,45,63,31,49,65,42,46,44,32,34,7,8,0.7,0.6
2022-01-09T06:00:00,1110A,121.565,38.9511,大连市,周水子,,46,46,60,28,39,61,29,47,38,42,32,14,11,0.9,0.7
2022-01-09T06:00:00,1111A,121.5637,38.8845,大连市,星海三站,,44,44,67,25,46,68,34,52,45,48,37,19,13,0.7,0.7
2022-01-09T06:00:00,1112A,121.6302,38.9117,大连市,青泥洼桥,,48,43,63,33,47,64,41,50,47,40,43,14,14,0.9,0.9
2022-01-09T06:00:00,1113A,121.6251,38.8638,大连市,傅家庄,,42,42,69,29,55,55,34,41,39,36,34,14,12,0.7,0.7
2022-01-09T06:00:00,1115A,121.2529,38.8061,大连市,旅顺,,36,36,69,23,51,70,52,65,58,28,27,22,11,2.2,1
2022-01-09T06:00:00,1116A,121.7485,39.1311,大连市,金州,细颗粒物(PM2.5),62,63,57,44,44,68,43,47,46,24,26,9,12,0.7,0.7
2022-01-09T06:00:00,1117A,121.7811,39.0496,大连市,开发区,,46,40,59,32,43,61,35,41,34,37,36,12,10,0.7,0.8
2022-01-09T06:00:00,1118A,121.9762,39.0631,大连市,双D港,细颗粒物(PM2.5),58,54,62,41,48,78,48,66,52,33,35,16,13,0.6,0.6
2022-01-09T06:00:00,1119A,125.3325,43.9166,长春市,食品厂,细颗粒物(PM2.5),92,77,94,68,89,50,6,24,12,56,44,39,15,0.8,1
2022-01-09T06:00:00,1120A,125.2863,43.9027,长春市,客车厂,细颗粒物(PM2.5),83,83,96,61,87,59,5,11,6,62,53,44,10,0.9,0.8
2022-01-09T06:00:00,1121A,125.2841,43.8463,长春市,邮电学院,细颗粒物(PM2.5),90,84,115,67,89,39,3,3,3,54,60,9,17,1.1,1.1
2022-01-09T06:00:00,1122A,125.3716,43.8772,长春市,劳动公园,细颗粒物(PM2.5),88,75,86,65,83,69,20,20,20,49,44,15,16,0.7,0.9
2022-01-09T06:00:00,1123A,125.3297,43.8805,长春市,园林处,细颗粒物(PM2.5),85,74,87,63,76,62,12,12,12,53,45,21,16,0.7,0.9
2022-01-09T06:00:00,1124A,125.4605,43.79,长春市,净月潭,细颗粒物(PM2.5),59,52,81,42,74,72,41,41,41,21,30,1,6,0.5,0.8
2022-01-09T06:00:00,1125A,125.7194,43.515,长春市,甩湾子(对照点),细颗粒物(PM2.5),110,87,95,83,104,73,20,22,20,28,29,2,5,1.0,1.2
2022-01-09T06:00:00,1127A,125.245,43.7783,长春市,高新区管委会,细颗粒物(PM2.5),105,80,99,79,98,56,10,11,11,42,43,7,13,1.0,1.1
2022-01-09T06:00:00,1128A,125.1761,43.8325,长春市,岱山公园,细颗粒物(PM2.5),93,92,108,69,95,73,16,18,18,52,44,1,3,0.9,1
2022-01-09T06:00:00,1129A,126.5422,45.755,哈尔滨市,岭北(对照点),颗粒物(PM10),69,87,85,44,54,58,15,20,18,41,29,59,18,0.3,0.4
2022-01-09T06:00:00,1130A,126.561,45.8167,哈尔滨市,松北商大,细颗粒物(PM2.5),54,55,59,38,45,51,27,20,20,35,32,10,6,0.9,0.8
2022-01-09T06:00:00,1131A,126.979,45.5419,哈尔滨市,阿城会宁,,50,50,69,35,50,56,23,11,11,27,31,17,19,1.3,1.4
2022-01-09T06:00:00,1133A,126.689,45.7733,哈尔滨市,太平宏伟公园,颗粒物(PM10),52,53,61,32,46,61,19,28,18,51,36,40,18,0.8,0.9
2022-01-09T06:00:00,1134A,126.635,45.7667,哈尔滨市,道外承德广场,颗粒物(PM10),62,73,56,39,52,52,12,42,17,46,32,51,21,0.6,0.7
2022-01-09T06:00:00,1135A,126.685,45.7319,哈尔滨市,香坊红旗大街,细颗粒物(PM2.5),67,64,59,48,44,50,11,24,13,59,42,70,48,1.0,1
2022-01-09T06:00:00,1136A,126.6411,45.7258,哈尔滨市,动力和平路,细颗粒物(PM2.5),60,56,58,43,39,51,14,28,17,37,24,22,27,0.5,0.4
2022-01-09T06:00:00,1137A,126.593,45.7478,哈尔滨市,道里建国路,细颗粒物(PM2.5),60,65,62,43,46,45,24,21,21,43,33,32,25,1.1,0.7
2022-01-09T06:00:00,1138A,126.615,45.61,哈尔滨市,平房东轻厂,细颗粒物(PM2.5),74,61,79,54,65,49,10,5,5,40,48,23,29,0.7,0.9
2022-01-09T06:00:00,1139A,126.595,45.9855,哈尔滨市,呼兰师专,细颗粒物(PM2.5),74,62,68,54,62,56,35,27,27,24,30,17,20,0.9,1
2022-01-09T06:00:00,1140A,126.6206,45.6842,哈尔滨市,省农科院,细颗粒物(PM2.5),148,104,72,113,52,47,6,7,6,60,41,45,32,1.4,1.1
2022-01-09T06:00:00,1141A,121.4,31.238,上海市,普陀,细颗粒物(PM2.5),57,36,46,40,41,76,53,67,63,44,47,4,4,0.7,0.8
2022-01-09T06:00:00,1142A,121.478,31.2036,上海市,十五厂,细颗粒物(PM2.5),53,28,36,37,35,76,58,72,68,35,38,6,6,1.0,1
2022-01-09T06:00:00,1143A,121.467,31.3008,上海市,虹口,,40,25,30,28,30,68,33,68,56,64,43,4,3,0.5,0.6
2022-01-09T06:00:00,1144A,121.412,31.1654,上海市,徐汇上师大,细颗粒物(PM2.5),59,32,42,42,41,67,44,63,59,59,49,7,7,1.0,1.1
2022-01-09T06:00:00,1145A,121.536,31.2659,上海市,杨浦四漂,,36,22,29,25,29,82,60,77,66,40,40,5,6,0.4,0.5
2022-01-09T06:00:00,1147A,121.425,31.2261,上海市,静安监测站,细颗粒物(PM2.5),63,34,50,45,43,72,64,64,64,31,41,5,5,0.6,0.8
2022-01-09T06:00:00,1148A,121.703,31.1907,上海市,浦东川沙,,49,28,32,34,36,82,60,75,70,29,26,2,2,1.1,1.1
2022-01-09T06:00:00,1149A,121.533,31.2284,上海市,浦东新区监测站,,30,21,26,21,28,71,54,67,63,38,40,5,5,0.9,0.9
2022-01-09T06:00:00,1150A,121.577,31.2071,上海市,浦东张江,细颗粒物(PM2.5),52,29,35,36,38,81,48,74,68,44,41,4,5,0.6,0.8
2022-01-09T06:00:00,1151A,118.8086,32.1065,南京市,迈皋桥,细颗粒物(PM2.5),83,88,81,61,53,47,1,26,6,64,63,4,4,0.6,0.7
2022-01-09T06:00:00,1152A,118.7538,32.0551,南京市,草场门,细颗粒物(PM2.5),73,83,72,53,46,61,1,44,18,82,59,7,6,0.6,0.6
2022-01-09T06:00:00,1153A,118.7794,32.0745,南京市,山西路,细颗粒物(PM2.5),94,114,89,70,59,64,2,26,9,95,74,4,4,0.6,0.6
2022-01-09T06:00:00,1154A,118.7752,32.0023,南京市,中华门,细颗粒物(PM2.5),89,97,84,66,47,67,16,51,30,60,52,3,4,0.7,0.7
2022-01-09T06:00:00,1155A,118.8109,32.0309,南京市,瑞金路,细颗粒物(PM2.5),85,79,70,63,51,68,14,55,34,72,56,4,4,0.8,0.8
2022-01-09T06:00:00,1156A,118.7997,32.0754,南京市,玄武湖,细颗粒物(PM2.5),85,83,72,63,51,66,5,20,9,87,76,5,4,0.9,0.8
2022-01-09T06:00:00,1157A,118.6414,32.0931,南京市,浦口,细颗粒物(PM2.5),79,90,84,58,48,75,17,75,40,61,53,5,5,0.9,1
2022-01-09T06:00:00,1158A,118.7356,31.9996,南京市,奥体中心,细颗粒物(PM2.5),92,100,88,68,57,67,33,62,42,55,56,8,7,0.7,0.8
2022-01-09T06:00:00,1159A,118.9125,32.1028,南京市,仙林大学城,细颗粒物(PM2.5),85,92,69,63,46,72,2,33,10,66,53,8,8,1.0,1
2022-01-09T06:00:00,1160A,120.561,31.2472,苏州市,上方山(对照点),细颗粒物(PM2.5),87,64,51,64,45,42,35,23,23,29,54,8,9,0.6,0.7
2022-01-09T06:00:00,1162A,120.591,31.3019,苏州市,彩香,细颗粒物(PM2.5),92,52,50,68,50,51,49,29,29,25,50,3,4,0.7,0.8
2022-01-09T06:00:00,1163A,120.596,31.3264,苏州市,轧钢厂,细颗粒物(PM2.5),62,37,43,44,35,55,43,28,28,29,51,5,6,0.7,0.7
2022-01-09T06:00:00,1164A,120.613,31.2703,苏州市,吴中区,细颗粒物(PM2.5),79,36,48,58,49,53,37,32,32,36,49,4,5,0.6,0.8
2022-01-09T06:00:00,1165A,120.543,31.2994,苏州市,苏州新区,细颗粒物(PM2.5),103,100,76,77,54,58,41,24,24,26,45,8,8,0.7,0.7
2022-01-09T06:00:00,1166A,120.669,31.3097,苏州市,苏州工业园区,细颗粒物(PM2.5),69,50,50,50,45,52,43,35,35,20,37,4,5,0.7,0.9
2022-01-09T06:00:00,1167A,120.641,31.3708,苏州市,相城区,细颗粒物(PM2.5),88,44,53,65,56,57,35,49,45,42,47,5,5,0.7,0.7
2022-01-09T06:00:00,1168A,120.9098,31.9663,南通市,狼山街道,细颗粒物(PM2.5),70,53,53,51,46,93,58,80,62,22,28,1,2,0.7,0.7
2022-01-09T06:00:00,1169A,120.86,32.0005,南通市,虹桥,细颗粒物(PM2.5),93,49,49,69,60,99,78,80,79,21,24,7,6,0.5,0.5
2022-01-09T06:00:00,1170A,120.87,32.02,南通市,城中,细颗粒物(PM2.5),79,58,51,58,52,101,72,83,81,41,36,4,4,0.8,0.6
2022-01-09T06:00:00,1171A,120.94,31.93,南通市,星湖花园,细颗粒物(PM2.5),79,49,52,58,49,82,56,70,64,34,31,5,5,0.5,0.5
2022-01-09T06:00:00,1172A,120.81,32.0417,南通市,紫琅学院,细颗粒物(PM2.5),79,57,54,58,56,99,51,79,69,36,32,7,7,0.3,0.3
2022-01-09T06:00:00,1173A,119.176,34.5885,连云港市,市环境监测站,细颗粒物(PM2.5),195,173,178,146,141,84,3,30,10,51,43,10,12,1.2,1.1
2022-01-09T06:00:00,1177A,117.179,34.2761,徐州市,黄河新村,细颗粒物(PM2.5),173,158,160,131,117,102,18,28,18,64,57,7,7,1.5,1.5
2022-01-09T06:00:00,1178A,117.1918,34.2384,徐州市,淮塔,细颗粒物(PM2.5),170,108,97,129,118,99,28,54,47,37,35,10,8,1.0,1
2022-01-09T06:00:00,1180A,117.256,34.2153,徐州市,新城区,细颗粒物(PM2.5),155,144,145,118,114,100,23,44,33,46,39,8,9,0.9,0.9
2022-01-09T06:00:00,1181A,117.244,34.2911,徐州市,桃园路,细颗粒物(PM2.5),144,158,158,110,108,100,26,40,28,40,44,7,8,1.1,1.3
2022-01-09T06:00:00,1182A,117.2933,34.2778,徐州市,农科院,细颗粒物(PM2.5),162,146,142,123,118,89,15,28,23,48,40,8,10,0.9,1
2022-01-09T06:00:00,1186A,119.389,32.3761,扬州市,邗江监测站,细颗粒物(PM2.5),109,105,80,82,58,81,22,65,51,47,40,15,14,0.7,0.6
2022-01-09T06:00:00,1188A,120.269,31.4867,无锡市,雪浪,细颗粒物(PM2.5),62,58,66,44,37,41,35,29,29,42,59,7,10,0.7,0.9
2022-01-09T06:00:00,1190A,120.294,31.56,无锡市,曹张,细颗粒物(PM2.5),64,59,65,46,47,51,51,39,39,19,48,9,12,0.7,1.1
2022-01-09T06:00:00,1191A,120.242,31.5031,无锡市,漆塘,细颗粒物(PM2.5),58,63,55,41,32,45,34,32,32,34,43,7,8,0.8,0.9
2022-01-09T06:00:00,1192A,120.3489,31.5863,无锡市,东亭,细颗粒物(PM2.5),62,70,71,44,44,60,58,47,47,24,52,6,8,0.6,1
2022-01-09T06:00:00,1193A,120.354,31.5475,无锡市,旺庄,细颗粒物(PM2.5),73,56,65,53,47,55,41,43,43,35,50,8,12,0.8,1.1
2022-01-09T06:00:00,1194A,120.245,31.5631,无锡市,荣巷,细颗粒物(PM2.5),58,51,65,41,41,36,28,27,27,37,59,8,11,0.6,1
2022-01-09T06:00:00,1195A,120.299,31.6817,无锡市,堰桥,细颗粒物(PM2.5),83,83,76,61,48,56,51,50,48,27,48,7,11,0.7,1
2022-01-09T06:00:00,1200A,119.9468,31.7069,常州市,武进监测站,细颗粒物(PM2.5),117,123,99,88,66,32,17,22,15,52,70,5,8,0.8,1.3
2022-01-09T06:00:00,1201A,119.9255,31.9087,常州市,安家,细颗粒物(PM2.5),124,108,87,94,73,63,8,43,21,61,51,7,7,0.8,0.7
2022-01-09T06:00:00,1203A,119.6707,32.1875,镇江市,新区办事处,细颗粒物(PM2.5),112,89,73,84,62,68,58,54,54,26,37,4,5,0.8,0.8
2022-01-09T06:00:00,1204A,119.4974,32.1968,镇江市,职教中心,细颗粒物(PM2.5),109,93,76,82,64,56,45,49,47,41,44,3,5,0.7,0.8
2022-01-09T06:00:00,1205A,119.4303,32.1328,镇江市,丹徒区监测站,细颗粒物(PM2.5),124,106,77,94,65,82,42,41,41,37,46,11,9,0.6,0.6
2022-01-09T06:00:00,1206A,119.905,32.4878,泰州市,公园路,细颗粒物(PM2.5),117,92,92,88,65,74,21,60,53,42,34,6,7,0.8,0.7
2022-01-09T06:00:00,1207A,119.9189,32.4625,泰州市,莲花,细颗粒物(PM2.5),94,88,82,70,65,87,70,64,64,22,28,6,7,0.5,0.7
2022-01-09T06:00:00,1209A,119.888,32.4639,泰州市,留学生创业园,细颗粒物(PM2.5),99,107,89,74,59,93,47,69,65,30,30,6,9,0.6,0.5
2022-01-09T06:00:00,1210A,119.036,33.5981,淮安市,钵池山,细颗粒物(PM2.5),168,130,112,127,96,94,71,50,50,32,44,4,4,1.0,1
2022-01-09T06:00:00,1211A,119.007,33.575,淮安市,北京南路,细颗粒物(PM2.5),163,171,131,124,96,82,16,15,15,72,62,2,5,1.2,1.1
2022-01-09T06:00:00,1212A,118.989,33.6067,淮安市,市监测站,细颗粒物(PM2.5),138,146,127,105,87,92,35,29,29,66,74,10,10,0.6,0.8
2022-01-09T06:00:00,1213A,119.135,33.5039,淮安市,楚州区监测站,细颗粒物(PM2.5),160,159,130,122,102,80,3,3,2,69,51,8,10,1.0,0.9
2022-01-09T06:00:00,1214A,119.0186,33.6297,淮安市,淮阴区监测站,细颗粒物(PM2.5),169,160,135,128,102,93,32,17,17,52,56,13,11,1.0,1
2022-01-09T06:00:00,1215A,120.118,33.4022,盐城市,盐城电厂,细颗粒物(PM2.5),156,153,122,119,82,93,6,12,8,50,37,9,10,0.9,0.7
2022-01-09T06:00:00,1218A,120.2144,33.38,盐城市,开发区管委会,细颗粒物(PM2.5),122,107,87,92,73,94,10,27,16,56,39,8,4,0.9,0.8
2022-01-09T06:00:00,1220A,118.293,33.9528,宿迁市,宿迁学院,细颗粒物(PM2.5),205,157,162,155,153,104,6,20,17,64,64,1,3,1.2,1.2
2022-01-09T06:00:00,1221A,118.2442,33.9592,宿迁市,宿迁中学,细颗粒物(PM2.5),188,186,180,141,138,101,7,21,16,59,55,7,7,0.7,0.7
2022-01-09T06:00:00,1223A,120.2072,30.2111,杭州市,滨江,细颗粒物(PM2.5),82,72,71,60,46,34,2,23,8,61,60,4,6,0.7,0.6
2022-01-09T06:00:00,1224A,120.0633,30.2747,杭州市,西溪,细颗粒物(PM2.5),75,61,78,55,50,35,5,7,6,62,72,6,9,0.7,0.7
2022-01-09T06:00:00,1226A,120.3461,30.3153,杭州市,下沙,颗粒物(PM10),60,69,70,34,30,36,1,3,2,66,61,6,7,0.8,0.7
2022-01-09T06:00:00,1227A,120.1269,30.2456,杭州市,卧龙桥,细颗粒物(PM2.5),88,93,80,65,53,32,7,15,9,59,64,5,7,0.8,0.8
2022-01-09T06:00:00,1228A,120.1903,30.2692,杭州市,浙江农大,颗粒物(PM10),70,89,76,34,26,38,4,8,5,56,55,6,8,0.7,0.6
2022-01-09T06:00:00,1230A,120.1197,30.3119,杭州市,和睦小学,细颗粒物(PM2.5),84,96,93,62,53,27,4,5,4,53,63,4,6,0.6,0.6
2022-01-09T06:00:00,1231A,120.3019,30.4183,杭州市,临平镇,细颗粒物(PM2.5),79,66,84,58,42,42,17,7,7,41,53,4,5,0.8,0.8
2022-01-09T06:00:00,1232A,120.2697,30.1819,杭州市,城厢镇,细颗粒物(PM2.5),100,100,91,75,61,30,5,13,8,79,78,6,7,0.8,0.7
2022-01-09T06:00:00,1233A,120.0883,30.1808,杭州市,云栖,颗粒物(PM10),60,70,70,38,34,42,17,15,15,49,53,6,7,0.7,0.6
2022-01-09T06:00:00,1234A,121.8358,29.911,宁波市,区环保大楼,颗粒物(PM10),53,56,52,22,26,79,52,66,61,34,27,8,8,0.9,0.9
2022-01-09T06:00:00,1235A,121.56,29.82,宁波市,万里学院,,38,37,37,26,23,74,49,65,53,22,26,8,9,0.9,0.8
2022-01-09T06:00:00,1236A,121.713,29.9572,宁波市,龙赛医院,,44,44,36,30,19,79,38,66,58,42,25,10,10,0.8,0.7
2022-01-09T06:00:00,1239A,121.633,29.7733,宁波市,钱湖水厂,,45,38,48,31,37,86,51,56,55,16,29,5,9,0.7,0.7
2022-01-09T06:00:00,1240A,121.5856,29.8635,宁波市,太古小学,颗粒物(PM10),55,60,58,25,27,67,47,62,52,21,26,6,6,0.9,0.8
2022-01-09T06:00:00,1241A,121.524,29.8674,宁波市,市环境监测中心,,,,46,,27,70,,60,54,,30,6,8,0.7,0.6
2022-01-09T06:00:00,1242A,120.634,28.0089,温州市,瓯海,细颗粒物(PM2.5),54,50,75,38,40,74,37,41,32,27,43,6,8,0.5,0.5
2022-01-09T06:00:00,1243A,120.6748,27.9939,温州市,南浦,细颗粒物(PM2.5),67,66,74,48,43,72,33,45,39,24,30,6,7,0.6,0.6
2022-01-09T06:00:00,1244A,120.76,27.9747,温州市,龙湾,颗粒物(PM10),73,96,91,49,40,76,18,50,26,46,45,4,6,0.3,0.2
2022-01-09T06:00:00,1245A,120.6709,28.0167,温州市,市站,颗粒物(PM10),62,74,85,40,41,78,35,39,37,29,37,5,6,0.4,0.4
2022-01-09T06:00:00,1247A,120.6053,29.9928,绍兴市,城东开发委,细颗粒物(PM2.5),98,86,77,73,56,43,28,25,25,25,42,7,9,0.6,0.4
2022-01-09T06:00:00,1250A,120.0751,30.8669,湖州市,城西水厂,细颗粒物(PM2.5),97,36,39,72,39,60,17,26,14,50,44,5,5,0.6,0.5
2022-01-09T06:00:00,1252A,120.7436,30.778,嘉兴市,清河小学,细颗粒物(PM2.5),69,67,61,50,38,48,37,41,41,32,49,8,8,0.4,0.5
2022-01-09T06:00:00,1253A,120.726,30.7478,嘉兴市,嘉兴学院,颗粒物(PM10),58,65,66,39,34,52,39,44,40,35,49,8,9,0.3,0.3
2022-01-09T06:00:00,1255A,121.273,28.6459,台州市,黄岩环保大楼,颗粒物(PM10),55,59,56,34,28,102,34,58,42,25,24,6,7,0.4,0.4
2022-01-09T06:00:00,1256A,121.419,28.6542,台州市,台州环保大楼,细颗粒物(PM2.5),72,58,50,52,33,96,45,69,55,22,23,6,8,0.4,0.4
2022-01-09T06:00:00,1257A,121.377,28.5773,台州市,路桥田洋王,颗粒物(PM10),59,67,65,40,31,98,51,71,55,17,23,5,7,0.5,0.4
2022-01-09T06:00:00,1258A,122.122,30.0203,舟山市,定海檀枫,,35,30,35,24,26,90,76,83,81,11,14,4,4,0.5,0.5
2022-01-09T06:00:00,1259A,122.3094,29.9558,舟山市,普陀东港,,34,34,34,18,19,102,85,87,86,9,12,4,4,0.5,0.5
2022-01-09T06:00:00,1260A,122.19,29.9944,舟山市,临城新区,,39,39,42,21,18,92,72,82,78,12,15,4,5,0.6,0.6
2022-01-09T06:00:00,1262A,119.647,29.077,金华市,十五中,,49,49,77,34,43,67,23,14,14,30,53,6,8,0.5,0.5
2022-01-09T06:00:00,1263A,119.686,29.1029,金华市,监测站,,50,33,74,35,41,62,19,11,11,33,53,4,6,0.5,0.6
2022-01-09T06:00:00,1264A,118.8692,28.9398,衢州市,环保大楼,颗粒物(PM10),57,64,88,32,40,59,7,22,10,38,38,2,5,0.5,0.5
2022-01-09T06:00:00,1265A,118.8709,28.9666,衢州市,实验学校,颗粒物(PM10),51,52,71,30,37,69,12,18,13,45,43,4,7,0.6,0.6
2022-01-09T06:00:00,1266A,118.8621,28.9808,衢州市,衢州学院,颗粒物(PM10),63,76,99,29,38,71,9,24,14,44,44,4,6,0.5,0.6
2022-01-09T06:00:00,1267A,119.914,28.4514,丽水市,监测站大楼,细颗粒物(PM2.5),62,42,70,44,60,60,18,23,18,25,28,5,6,0.4,0.5
2022-01-09T06:00:00,1268A,119.93,28.4586,丽水市,莲都小学,细颗粒物(PM2.5),55,34,76,39,59,57,21,21,20,33,39,6,8,0.4,0.5
2022-01-09T06:00:00,1269A,119.879,28.4231,丽水市,余庄前,颗粒物(PM10),56,61,75,36,42,69,8,16,13,36,30,7,8,0.6,0.5
2022-01-09T06:00:00,1270A,117.1959,31.7848,合肥市,明珠广场,颗粒物(PM10),59,68,92,41,55,85,29,70,48,47,45,5,8,0.5,0.6
2022-01-09T06:00:00,1271A,117.3072,31.8764,合肥市,三里街,细颗粒物(PM2.5),92,70,98,68,75,79,60,74,66,24,39,5,7,0.5,0.6
2022-01-09T06:00:00,1272A,117.2588,31.8707,合肥市,琥珀山庄,细颗粒物(PM2.5),64,70,97,46,56,84,56,68,57,23,38,5,7,0.8,0.9
2022-01-09T06:00:00,1273A,117.1604,31.9052,合肥市,董铺水库(对照点),颗粒物(PM10),53,56,94,31,58,93,70,80,75,19,34,6,8,0.5,0.7
2022-01-09T06:00:00,1274A,117.25,31.8571,合肥市,长江中路,细颗粒物(PM2.5),55,56,85,39,53,89,67,75,70,17,31,7,8,1.4,1.1
2022-01-09T06:00:00,1275A,117.266,31.9436,合肥市,庐阳区,颗粒物(PM10),64,78,103,44,58,71,51,59,53,27,42,5,6,0.6,0.7
2022-01-09T06:00:00,1276A,117.336,31.8586,合肥市,瑶海区,细颗粒物(PM2.5),58,58,102,41,56,84,69,71,62,20,43,5,7,0.7,0.8
2022-01-09T06:00:00,1277A,117.3027,31.7964,合肥市,包河区,细颗粒物(PM2.5),73,63,97,53,67,84,25,65,50,56,54,1,4,0.7,0.8
2022-01-09T06:00:00,1278A,117.2776,31.7385,合肥市,滨湖新区,细颗粒物(PM2.5),62,70,93,44,56,87,29,61,51,64,51,5,6,0.6,0.8
2022-01-09T06:00:00,1279A,117.1318,31.8403,合肥市,高新区,细颗粒物(PM2.5),58,58,96,41,70,94,82,77,77,27,51,7,10,0.8,1
2022-01-09T06:00:00,1280A,119.3903,26.0543,福州市,鼓山(对照点),,26,24,33,18,19,112,69,89,62,15,20,4,5,0.8,0.8
2022-01-09T06:00:00,1282A,119.2681,26.0504,福州市,师大,颗粒物(PM10),52,53,42,30,24,95,30,68,56,32,22,2,3,0.7,0.7
2022-01-09T06:00:00,1283A,119.2984,26.1028,福州市,五四北路,,35,35,40,24,21,85,61,70,64,17,22,4,4,0.8,0.6
2022-01-09T06:00:00,1284A,119.2648,26.0768,福州市,杨桥西路,,35,35,39,21,21,91,49,67,59,18,18,1,2,0.5,0.4
2022-01-09T06:00:00,1285A,119.317,26.0746,福州市,紫阳,,43,40,41,30,27,85,40,61,53,20,19,5,5,0.7,0.5
2022-01-09T06:00:00,1286A,118.1608,24.8169,厦门市,溪东(对照点),,23,15,26,13,15,112,72,70,70,5,7,3,3,0.2,0.3
2022-01-09T06:00:00,1287A,118.1514,24.4767,厦门市,洪文,,29,21,32,20,19,99,48,60,58,22,20,3,4,0.6,0.5
2022-01-09T06:00:00,1288A,118.0661,24.4444,厦门市,鼓浪屿,,35,31,35,24,18,124,41,80,72,40,9,5,4,0.4,0.4
2022-01-09T06:00:00,1290A,115.8931,28.6843,南昌市,省外办,细颗粒物(PM2.5),104,93,95,78,71,44,12,27,17,35,37,8,10,0.8,0.8
2022-01-09T06:00:00,1291A,115.8886,28.7003,南昌市,省林业公司,细颗粒物(PM2.5),102,96,103,76,74,52,10,29,15,41,38,5,8,1.0,1
2022-01-09T06:00:00,1292A,115.8126,28.7442,南昌市,林科所,细颗粒物(PM2.5),112,82,79,84,70,59,29,58,43,22,28,7,7,1.0,1
2022-01-09T06:00:00,1294A,115.8518,28.687,南昌市,建工学校,细颗粒物(PM2.5),94,95,96,70,65,54,25,51,33,32,38,13,13,1.2,1.2
2022-01-09T06:00:00,1295A,115.8921,28.6424,南昌市,象湖,细颗粒物(PM2.5),93,68,67,69,65,47,17,37,25,39,40,3,4,0.9,1
2022-01-09T06:00:00,1296A,115.7423,28.7996,南昌市,武术学校(对照点),细颗粒物(PM2.5),62,43,49,44,52,53,24,41,32,11,17,8,9,1.0,1.1
2022-01-09T06:00:00,1298A,115.9314,28.6842,南昌市,省站,细颗粒物(PM2.5),110,97,95,83,75,52,18,37,27,28,29,13,13,0.9,1
2022-01-09T06:00:00,1299A,116.9862,36.6114,济南市,科干所,细颗粒物(PM2.5),153,158,147,117,106,80,5,10,8,68,57,6,11,1.2,1.1
2022-01-09T06:00:00,1300A,116.9376,36.665,济南市,农科所,细颗粒物(PM2.5),160,198,161,122,110,67,5,5,5,57,55,12,13,1.8,1.3
2022-01-09T06:00:00,1301A,117.1265,36.6734,济南市,开发区,细颗粒物(PM2.5),180,178,145,136,107,78,3,3,3,60,58,10,11,1.2,1
2022-01-09T06:00:00,1303A,117.0624,36.6868,济南市,省种子仓库,细颗粒物(PM2.5),185,185,151,139,113,80,6,7,6,64,51,15,15,1.6,1.2
2022-01-09T06:00:00,1304A,116.9489,36.6447,济南市,机床二厂,细颗粒物(PM2.5),199,230,173,149,129,76,5,5,5,60,57,24,24,1.8,1.3
2022-01-09T06:00:00,1305A,117.0495,36.663,济南市,市监测站,细颗粒物(PM2.5),175,173,145,132,114,85,5,7,6,55,49,9,11,1.2,0.9
2022-01-09T06:00:00,1306A,116.7675,36.5484,济南市,长清党校,细颗粒物(PM2.5),153,173,167,117,117,71,7,9,8,54,46,7,11,0.9,0.9
2022-01-09T06:00:00,1307A,120.6659,36.2403,青岛市,仰口(对照点),细颗粒物(PM2.5),104,92,131,78,105,107,40,42,41,41,45,5,6,1.1,1.4
2022-01-09T06:00:00,1310A,120.4134,36.0658,青岛市,市南区东部子站,细颗粒物(PM2.5),147,141,144,112,106,84,29,24,15,52,67,10,11,1.2,1.3
2022-01-09T06:00:00,1311A,120.3664,36.1032,青岛市,四方区子站,细颗粒物(PM2.5),153,156,149,117,125,64,10,7,7,48,66,7,12,1.2,1.2
2022-01-09T06:00:00,1312A,120.2994,36.054,青岛市,市南区西部子站,细颗粒物(PM2.5),168,173,153,127,107,89,13,14,10,61,73,8,12,1.1,1.1
2022-01-09T06:00:00,1313A,120.4581,36.0858,青岛市,崂山区子站,细颗粒物(PM2.5),104,101,155,78,108,80,38,27,27,43,67,10,14,1.1,1.4
2022-01-09T06:00:00,1314A,120.1983,35.9608,青岛市,黄岛区子站,细颗粒物(PM2.5),223,219,154,173,118,85,8,8,8,62,64,8,9,1.5,1.2
2022-01-09T06:00:00,1315A,120.3999,36.3083,青岛市,城阳区子站,细颗粒物(PM2.5),119,153,188,90,104,89,15,7,7,60,77,6,11,1.1,1.5
2022-01-09T06:00:00,1316A,113.69031,34.76122,郑州市,烟厂,细颗粒物(PM2.5),130,115,107,99,90,58,2,4,2,48,50,8,9,1.4,1.2
2022-01-09T06:00:00,1317A,113.65724,34.77134,郑州市,郑纺机,细颗粒物(PM2.5),148,111,94,113,95,57,4,4,4,49,51,6,9,1.7,1.6
2022-01-09T06:00:00,1318A,113.67526,34.80246,郑州市,银行学校,细颗粒物(PM2.5),130,106,98,99,97,60,5,5,4,53,51,6,7,1.9,1.6
2022-01-09T06:00:00,1319A,113.56746,34.81334,郑州市,供水公司,细颗粒物(PM2.5),147,111,97,112,97,61,3,3,3,44,44,5,7,1.9,1.6
2022-01-09T06:00:00,1320A,113.7329,34.7178,郑州市,经开区管委,细颗粒物(PM2.5),132,99,99,100,100,51,4,4,4,33,43,5,7,0.9,1.1
2022-01-09T06:00:00,1321A,113.73961,34.77172,郑州市,四十七中,细颗粒物(PM2.5),138,136,115,105,98,42,2,2,2,46,50,7,10,1.4,1.4
2022-01-09T06:00:00,1322A,113.60532,34.74838,郑州市,市监测站,细颗粒物(PM2.5),147,145,103,112,92,66,2,2,2,46,49,11,13,1.2,1
2022-01-09T06:00:00,1323A,113.64164,34.7525,郑州市,河医大,细颗粒物(PM2.5),142,120,102,108,95,66,2,5,3,35,46,6,9,1.3,1.1
2022-01-09T06:00:00,1324A,113.51488,34.91089,郑州市,岗李水库(对照点),细颗粒物(PM2.5),123,78,77,93,91,58,1,1,1,23,27,8,10,1.6,1.5
2022-01-09T06:00:00,1325A,114.3677,30.5584,武汉市,东湖梨园,细颗粒物(PM2.5),108,66,84,81,87,49,36,30,26,26,43,6,10,0.8,1.3
2022-01-09T06:00:00,1326A,114.2529,30.558,武汉市,汉阳月湖,细颗粒物(PM2.5),77,62,76,56,70,54,20,36,26,37,45,5,6,0.7,0.9
2022-01-09T06:00:00,1327A,114.282,30.6189,武汉市,汉口花桥,细颗粒物(PM2.5),83,52,74,61,72,41,24,34,22,34,45,6,8,0.8,0.9
2022-01-09T06:00:00,1328A,114.3025,30.5332,武汉市,武昌紫阳,细颗粒物(PM2.5),99,59,75,74,84,49,11,24,17,53,59,4,6,0.7,1
2022-01-09T06:00:00,1329A,114.3646,30.6217,武汉市,青山钢花,细颗粒物(PM2.5),85,51,77,63,86,59,59,41,41,16,39,5,6,0.8,1
2022-01-09T06:00:00,1330A,114.1566,30.4825,武汉市,沌口新区,细颗粒物(PM2.5),82,68,87,60,72,37,25,15,14,39,63,8,9,0.9,1
2022-01-09T06:00:00,1331A,114.3014,30.5944,武汉市,汉口江滩,细颗粒物(PM2.5),97,67,79,72,85,54,12,41,22,45,43,5,7,0.8,0.9
2022-01-09T06:00:00,1333A,114.135,30.6319,武汉市,吴家山,细颗粒物(PM2.5),83,52,74,61,75,58,19,18,14,45,54,10,9,0.6,0.8
2022-01-09T06:00:00,1334A,113.8454,30.2917,武汉市,沉湖七壕(对照点),,49,49,79,34,46,59,39,38,38,15,25,4,6,0.8,0.9
2022-01-09T06:00:00,1335A,113.0833,28.2325,长沙市,经开区环保局,细颗粒物(PM2.5),113,60,37,85,61,45,36,41,40,25,35,8,4,0.5,0.6
2022-01-09T06:00:00,1336A,112.8872,28.2189,长沙市,高开区环保局,细颗粒物(PM2.5),89,46,32,66,54,53,44,53,50,20,27,10,4,0.6,0.7
2022-01-09T06:00:00,1337A,113.0792,28.2053,长沙市,马坡岭,细颗粒物(PM2.5),112,58,36,84,59,47,38,41,41,22,31,9,5,0.8,0.9
2022-01-09T06:00:00,1338A,112.9394,28.19,长沙市,湖南师范大学,细颗粒物(PM2.5),110,53,34,83,56,55,47,54,53,17,24,9,4,0.7,0.7
2022-01-09T06:00:00,1339A,113.0178,28.1322,长沙市,雨花区环保局,细颗粒物(PM2.5),117,56,34,88,57,39,35,35,35,16,28,7,6,0.7,0.9
2022-01-09T06:00:00,1340A,112.9792,28.2597,长沙市,伍家岭,细颗粒物(PM2.5),108,115,67,81,53,54,39,51,48,22,28,15,5,0.6,0.7
2022-01-09T06:00:00,1341A,113.0014,28.1944,长沙市,火车新站,细颗粒物(PM2.5),115,60,34,87,57,43,34,40,38,20,32,9,5,0.6,0.7
2022-01-09T06:00:00,1342A,112.9844,28.1178,长沙市,天心区环保局,细颗粒物(PM2.5),103,52,31,77,53,50,44,47,47,15,26,6,4,0.6,0.7
2022-01-09T06:00:00,1343A,112.8908,28.1308,长沙市,湖南中医药大学,细颗粒物(PM2.5),94,54,40,70,57,56,45,52,51,16,25,13,7,0.7,0.7
2022-01-09T06:00:00,1344A,112.9581,28.3611,长沙市,沙坪(对照点),细颗粒物(PM2.5),88,53,38,65,49,51,35,48,45,26,30,8,4,0.7,0.8
2022-01-09T06:00:00,1345A,113.2347,23.1423,广州市,广雅中学,颗粒物(PM10),56,62,77,32,45,98,22,14,14,42,66,9,7,0.9,1
2022-01-09T06:00:00,1346A,113.2612,23.105,广州市,市五中,颗粒物(PM10),70,89,102,39,46,102,4,24,19,72,60,6,5,1.0,1
2022-01-09T06:00:00,1348A,113.3478,23.0916,广州市,广东商学院,细颗粒物(PM2.5),62,72,68,44,44,85,3,5,4,95,74,7,7,0.8,0.8
2022-01-09T06:00:00,1349A,113.4332,23.1047,广州市,市八十六中,颗粒物(PM10),81,112,99,46,45,98,4,5,5,77,74,9,8,1.0,1
2022-01-09T06:00:00,1350A,113.3505,22.9483,广州市,番禺中学,颗粒物(PM10),60,70,71,36,38,111,20,40,37,60,50,12,11,0.8,0.9
2022-01-09T06:00:00,1351A,113.2146,23.3916,广州市,花都师范,,44,44,48,30,32,112,39,43,42,22,38,8,6,0.8,0.8
2022-01-09T06:00:00,1352A,113.2597,23.1331,广州市,市监测站,颗粒物(PM10),55,60,69,33,40,108,9,14,11,66,70,6,6,0.9,1
2022-01-09T06:00:00,1353A,113.5618,23.312,广州市,九龙镇镇龙,颗粒物(PM10),66,82,72,38,33,88,2,1,0,47,41,5,5,0.7,0.7
2022-01-09T06:00:00,1354A,113.2765,23.1544,广州市,麓湖,颗粒物(PM10),56,61,58,38,34,94,12,4,4,61,63,5,6,0.8,0.9
2022-01-09T06:00:00,1355A,113.443,23.3035,广州市,帽峰山森林公园(对照点),,45,45,37,31,26,98,16,63,36,37,22,6,5,0.9,0.9
2022-01-09T06:00:00,1356A,114.1063,22.5545,深圳市,通心岭子站,,43,43,43,27,29,103,38,71,58,28,22,1,2,0.5,0.6
2022-01-09T06:00:00,1357A,114.117,22.5625,深圳市,洪湖,颗粒物(PM10),53,55,52,33,34,109,9,70,56,70,36,7,7,0.6,0.6
2022-01-09T06:00:00,1358A,113.987,22.5417,深圳市,华侨城,,37,37,46,23,32,84,56,68,65,16,38,5,5,0.4,0.5
2022-01-09T06:00:00,1359A,113.9181,22.5171,深圳市,南海子站,,40,40,58,23,35,96,74,81,80,19,40,6,7,0.3,0.5
2022-01-09T06:00:00,1360A,114.2458,22.5689,深圳市,盐田,,32,32,34,16,24,126,69,69,49,21,28,6,6,0.6,0.7
2022-01-09T06:00:00,1361A,114.2283,22.7244,深圳市,龙岗,颗粒物(PM10),59,68,51,37,30,130,26,74,56,45,23,5,4,0.9,0.8
2022-01-09T06:00:00,1363A,114.494,22.5422,深圳市,南澳,,30,30,36,16,23,115,63,59,59,11,15,5,6,0.3,0.4
2022-01-09T06:00:00,1364A,114.41,22.6342,深圳市,葵涌,,27,27,40,15,26,135,55,50,50,9,12,5,6,0.5,0.6
2022-01-09T06:00:00,1365A,114.297,22.5978,深圳市,梅沙,,28,28,36,14,22,129,72,89,80,12,14,6,6,0.8,0.9
2022-01-09T06:00:00,1366A,114.0678,22.738,深圳市,观澜,颗粒物(PM10),63,75,72,40,41,150,27,13,13,42,50,6,6,0.8,0.8
2022-01-09T06:00:00,1367A,113.5814,22.2618,珠海市,吉大,,42,42,43,25,23,126,50,57,50,39,33,6,7,0.6,0.6
2022-01-09T06:00:00,1368A,113.4881,22.2335,珠海市,前山,颗粒物(PM10),64,78,61,36,30,125,1,3,2,68,54,9,9,0.8,0.7
2022-01-09T06:00:00,1369A,113.628,22.4251,珠海市,唐家,,45,45,45,27,30,131,47,59,56,26,25,8,9,0.5,0.5
2022-01-09T06:00:00,1370A,113.299,22.2281,珠海市,斗门,颗粒物(PM10),59,68,55,41,36,125,7,43,23,60,43,8,8,0.6,0.6
2022-01-09T06:00:00,1371A,113.1294,23.0067,佛山市,湾梁,颗粒物(PM10),89,127,80,45,38,152,6,7,6,101,72,10,8,0.8,0.8
2022-01-09T06:00:00,1372A,113.1083,23.0478,佛山市,华材职中,颗粒物(PM10),87,124,80,37,40,147,6,6,5,69,67,10,9,0.8,0.8
2022-01-09T06:00:00,1373A,113.144,23.0453,佛山市,南海气象局,颗粒物(PM10),59,67,64,35,39,133,0,3,1,80,67,6,6,0.8,0.8
2022-01-09T06:00:00,1374A,113.2881,22.8094,佛山市,顺德苏岗,细颗粒物(PM2.5),85,86,52,63,38,110,2,39,17,101,73,5,4,1.1,0.8
2022-01-09T06:00:00,1376A,112.8383,22.8678,佛山市,高明孔堂,细颗粒物(PM2.5),65,64,59,47,36,132,29,56,48,43,35,5,9,1.0,0.9
2022-01-09T06:00:00,1377A,112.8836,23.1588,佛山市,三水监测站,,46,46,60,28,36,102,22,15,15,38,58,6,10,0.7,0.8
2022-01-09T06:00:00,1378A,112.867,23.185,佛山市,三水云东海,颗粒物(PM10),51,51,51,29,30,122,31,17,17,38,41,11,11,0.8,0.8
2022-01-09T06:00:00,1379A,113.3769,22.5211,中山市,华柏园,,50,36,55,35,41,106,16,33,27,40,46,2,5,0.7,0.8
2022-01-09T06:00:00,1380A,113.3881,22.5497,中山市,张溪,细颗粒物(PM2.5),67,74,73,48,44,113,10,17,12,56,53,4,6,0.8,0.8
2022-01-09T06:00:00,1381A,113.4075,22.5111,中山市,紫马岭,,41,41,53,23,30,111,11,25,22,35,40,6,8,0.5,0.7
2022-01-09T06:00:00,1382A,113.4411,22.4853,中山市,长江旅游区(对照点),,32,24,39,22,30,113,22,43,34,20,30,4,5,0.5,0.6
2022-01-09T06:00:00,1383A,113.1064,22.6058,江门市,北街,细颗粒物(PM2.5),57,62,56,40,32,128,6,49,26,77,51,8,8,1.0,0.9
2022-01-09T06:00:00,1384A,113.0731,22.5835,江门市,西区,"颗粒物(PM10),细颗粒物(PM2.5)",67,83,67,48,38,126,6,42,17,74,56,5,6,0.9,0.8
2022-01-09T06:00:00,1385A,113.0219,22.5311,江门市,圭峰西,,42,31,49,29,34,124,52,57,55,26,39,4,5,0.6,0.8
2022-01-09T06:00:00,1386A,113.0828,22.5947,江门市,东湖,颗粒物(PM10),71,92,69,44,39,128,10,54,21,60,44,7,7,0.8,0.8
2022-01-09T06:00:00,1389A,113.7547,23.0494,东莞市,莞城梨川,细颗粒物(PM2.5),73,86,78,53,51,164,27,13,13,48,50,13,9,0.8,0.8
2022-01-09T06:00:00,1390A,113.7944,23.0128,东莞市,东城石井,颗粒物(PM10),60,69,57,40,36,167,20,13,9,58,43,7,7,0.8,0.8
2022-01-09T06:00:00,1391A,113.7383,22.9658,东莞市,南城西平,细颗粒物(PM2.5),98,105,74,73,55,173,1,5,4,80,54,6,6,1.0,0.9
2022-01-09T06:00:00,1392A,114.4183,23.0528,惠州市,河南岸金山湖子站,细颗粒物(PM2.5),52,42,55,36,38,91,28,45,37,29,37,6,4,0.6,0.7
2022-01-09T06:00:00,1393A,114.4053,23.0822,惠州市,下埔横江三路子站,,50,43,52,35,34,89,26,67,46,30,33,6,5,0.6,0.7
2022-01-09T06:00:00,1394A,114.4103,23.1142,惠州市,江北云山西路子站,,49,40,50,34,40,98,30,82,48,22,27,5,6,0.5,0.6
2022-01-09T06:00:00,1395A,114.4645,22.7833,惠州市,惠阳区承修路船湖子站,细颗粒物(PM2.5),63,68,62,45,38,120,36,19,19,35,34,6,4,0.6,0.7
2022-01-09T06:00:00,1396A,114.5317,22.7422,惠州市,大亚湾管委会子站,细颗粒物(PM2.5),60,47,47,43,29,120,24,32,26,47,31,3,3,0.7,0.7
2022-01-09T06:00:00,1397A,112.4267,23.0706,肇庆市,睦岗子站,颗粒物(PM10),59,68,54,40,31,113,33,15,15,47,47,14,8,0.9,0.9
2022-01-09T06:00:00,1398A,112.4645,23.0475,肇庆市,城中子站,细颗粒物(PM2.5),72,84,52,52,33,124,7,5,5,73,58,12,10,0.8,0.7
2022-01-09T06:00:00,1399A,112.5544,23.1522,肇庆市,坑口子站,细颗粒物(PM2.5),53,54,42,37,28,119,29,58,40,45,29,15,9,0.8,0.7
2022-01-09T06:00:00,1400A,112.4753,23.1,肇庆市,七星岩子站(对照点),细颗粒物(PM2.5),64,57,46,46,32,112,33,55,38,40,32,15,9,0.7,0.8
2022-01-09T06:00:00,1401A,108.3103,22.7881,南宁市,二十一中,,20,7,51,14,32,20,11,12,12,24,31,5,8,1.1,1.1
2022-01-09T06:00:00,1402A,108.3141,22.8528,南宁市,北湖,,15,10,49,10,30,20,8,11,10,16,22,9,17,0.9,1
2022-01-09T06:00:00,1403A,108.3206,22.8225,南宁市,市监测站,,14,9,51,6,29,17,12,13,13,27,35,7,12,1.0,1.2
2022-01-09T06:00:00,1404A,108.3829,22.8037,南宁市,大自然花园,,15,12,45,10,30,20,14,13,13,22,27,6,7,1.0,1.1
2022-01-09T06:00:00,1405A,108.4394,22.7904,南宁市,仙葫(对照点),,16,9,40,11,26,24,18,18,16,14,19,9,9,1.3,1.3
2022-01-09T06:00:00,1406A,108.2397,22.8467,南宁市,区农职院,,9,2,36,4,22,17,8,11,10,18,27,6,9,0.9,1
2022-01-09T06:00:00,1407A,108.3275,22.735,南宁市,英华嘉园,,13,5,50,9,31,23,11,10,10,26,31,6,8,1.2,1.2
2022-01-09T06:00:00,1408A,108.2257,22.7757,南宁市,沙井镇街道办,,15,12,52,10,30,12,4,7,6,19,27,7,8,1.0,1.1
2022-01-09T06:00:00,1409A,110.576,19.9507,海口市,东寨港(对照点),,24,21,37,11,22,108,76,94,88,1,4,5,5,0.4,0.5
2022-01-09T06:00:00,1410A,110.3232,20.0574,海口市,海南大学,,29,23,39,13,24,105,92,89,89,2,5,4,5,0.4,0.5
2022-01-09T06:00:00,1411A,110.283,20.0053,海口市,秀英海南医院,,26,25,40,11,25,117,83,93,91,2,4,4,4,0.4,0.5
2022-01-09T06:00:00,1412A,110.338,19.9969,海口市,海南师范大学,,25,25,38,10,18,110,76,84,81,6,7,2,3,0.4,0.5
2022-01-09T06:00:00,1413A,110.33,20.0356,海口市,龙华路环保局宿舍,,26,26,40,10,21,124,83,91,89,4,6,4,5,0.4,0.5
2022-01-09T06:00:00,1414A,106.3787,29.8279,重庆市,缙云山(对照点),,26,26,37,11,22,62,62,58,58,22,27,5,5,0.5,0.6
2022-01-09T06:00:00,1416A,106.4213,29.8253,重庆市,天生,颗粒物(PM10),51,52,69,25,47,18,2,2,2,28,38,6,9,0.3,0.4
2022-01-09T06:00:00,1417A,106.6263,29.7228,重庆市,两路,颗粒物(PM10),74,98,75,52,50,8,4,5,4,41,52,11,10,1.2,1.1
2022-01-09T06:00:00,1418A,106.2953,29.5983,重庆市,虎溪,细颗粒物(PM2.5),64,59,65,46,45,12,5,6,5,36,46,7,10,0.3,0.3
2022-01-09T06:00:00,1419A,106.5777,29.5102,重庆市,南坪,颗粒物(PM10),67,84,53,33,27,22,3,3,3,49,45,10,6,1.1,1.1
2022-01-09T06:00:00,1420A,106.6556,29.6277,重庆市,唐家沱,,46,46,57,26,32,12,5,5,5,24,37,6,6,1.0,1.1
2022-01-09T06:00:00,1421A,106.6349,29.4906,重庆市,茶园,"颗粒物(PM10),细颗粒物(PM2.5)",52,53,61,36,38,21,2,2,2,33,41,5,7,0.6,0.7
2022-01-09T06:00:00,1422A,106.3754,29.4572,重庆市,白市驿,颗粒物(PM10),72,94,77,45,40,25,4,5,5,41,45,6,7,0.8,0.8
2022-01-09T06:00:00,1425A,106.6205,29.7166,重庆市,空港,细颗粒物(PM2.5),75,82,74,55,51,9,2,3,2,44,56,12,13,0.7,0.7
2022-01-09T06:00:00,1426A,106.4782,29.4875,重庆市,新山村,"颗粒物(PM10),细颗粒物(PM2.5)",63,76,59,45,37,9,5,5,5,46,52,6,5,1.6,1.4
2022-01-09T06:00:00,1427A,106.5616,29.6453,重庆市,礼嘉,颗粒物(PM10),66,82,70,25,33,9,5,5,5,93,90,9,10,1.2,1.5
2022-01-09T06:00:00,1428A,106.4522,29.7091,重庆市,蔡家,细颗粒物(PM2.5),60,53,61,43,46,8,1,3,1,25,39,5,5,1.1,1.1
2022-01-09T06:00:00,1429A,106.5093,29.3917,重庆市,鱼新街,颗粒物(PM10),54,57,58,35,36,22,5,5,5,35,43,6,9,1.1,1.1
2022-01-09T06:00:00,1431A,103.9728,30.7236,成都市,金泉两河,细颗粒物(PM2.5),80,94,99,59,75,8,0,0,0,20,37,2,2,0.9,0.9
2022-01-09T06:00:00,1432A,104.1419,30.6764,成都市,十里店,细颗粒物(PM2.5),80,105,117,59,73,3,0,0,0,35,48,5,5,1.2,1.2
2022-01-09T06:00:00,1433A,104.0594,30.5767,成都市,三瓦窑,细颗粒物(PM2.5),79,69,100,58,79,4,4,2,2,19,35,3,2,1.1,1.1
2022-01-09T06:00:00,1434A,104.1122,30.6306,成都市,沙河铺,细颗粒物(PM2.5),98,94,106,73,85,2,1,1,1,22,40,6,6,1.2,1.2
2022-01-09T06:00:00,1437A,104.0431,30.6556,成都市,君平街,细颗粒物(PM2.5),117,123,112,88,86,5,2,2,2,38,48,7,8,1.1,1.2
2022-01-09T06:00:00,1438A,103.6202,31.0201,成都市,灵岩寺(对照点),,30,24,54,21,44,54,19,20,19,11,16,23,12,1.0,0.9
2022-01-09T06:00:00,1439A,106.6899,26.5998,贵阳市,马鞍山,细颗粒物(PM2.5),58,41,41,41,40,13,6,7,7,16,21,9,11,0.8,0.8
2022-01-09T06:00:00,1440A,106.6971,26.5694,贵阳市,市环保站,颗粒物(PM10),51,51,44,34,29,27,23,23,23,19,24,8,12,0.6,0.6
2022-01-09T06:00:00,1441A,106.6243,26.6266,贵阳市,鉴湖路,,34,34,42,19,26,31,26,20,20,12,18,9,15,1.0,1.2
2022-01-09T06:00:00,1442A,106.7487,26.6343,贵阳市,燕子冲,细颗粒物(PM2.5),64,39,39,46,37,21,14,21,17,14,17,6,9,0.9,1
2022-01-09T06:00:00,1443A,106.6555,26.4365,贵阳市,碧云窝,颗粒物(PM10),54,58,54,36,31,23,14,18,15,18,24,15,26,1.0,0.9
2022-01-09T06:00:00,1444A,106.694,26.5161,贵阳市,中院村,细颗粒物(PM2.5),58,48,47,41,35,19,14,14,14,18,25,16,19,1.0,1
2022-01-09T06:00:00,1445A,106.7109,26.6027,贵阳市,红边门,细颗粒物(PM2.5),58,46,47,41,38,17,11,14,13,21,26,12,23,0.9,0.9
2022-01-09T06:00:00,1446A,106.7164,26.5699,贵阳市,新华路,细颗粒物(PM2.5),55,48,45,39,34,16,10,13,12,14,19,7,9,0.5,0.5
2022-01-09T06:00:00,1447A,106.674,26.5424,贵阳市,太慈桥,细颗粒物(PM2.5),55,58,56,39,35,11,6,7,6,23,30,13,16,1.0,1
2022-01-09T06:00:00,1450A,102.8204,24.8886,昆明市,呈贡新区,颗粒物(PM10),51,52,26,33,16,97,9,36,14,48,29,11,6,0.5,0.3
2022-01-09T06:00:00,1451A,102.6251,24.9608,昆明市,西山森林公园(对照点),,19,16,16,13,11,85,42,71,65,25,9,8,8,0.7,0.3
2022-01-09T06:00:00,1453A,102.7266,25.0375,昆明市,东风东路,细颗粒物(PM2.5),55,39,32,39,20,90,6,44,20,40,27,8,7,0.8,0.7
2022-01-09T06:00:00,1454A,102.6742,25.0669,昆明市,金鼎山,细颗粒物(PM2.5),68,40,41,49,24,84,16,11,11,18,29,9,13,0.8,0.6
2022-01-09T06:00:00,1455A,102.6644,25.0401,昆明市,碧鸡广场,细颗粒物(PM2.5),54,56,42,38,23,80,11,15,10,37,39,10,10,0.7,0.5
2022-01-09T06:00:00,1456A,91.1319,29.6514,拉萨市,八廓街,,18,6,18,4,13,92,56,57,56,9,23,7,7,0.5,0.8
2022-01-09T06:00:00,1457A,91.1221,29.6747,拉萨市,市环保局,,16,8,38,2,22,86,50,36,36,15,39,6,7,0.5,1.2
2022-01-09T06:00:00,1458A,91.0874,29.6475,拉萨市,区监测站,,16,11,22,3,11,86,49,38,38,13,34,5,6,0.5,0.8
2022-01-09T06:00:00,1459A,91.1774,29.6541,拉萨市,西藏大学,,19,10,16,5,6,102,59,66,64,6,12,2,3,0.3,0.4
2022-01-09T06:00:00,1460A,90.9798,29.6588,拉萨市,区辐射站,,23,22,38,16,23,77,22,19,18,30,33,10,8,0.8,0.9
2022-01-09T06:00:00,1461A,91.0834,29.6292,拉萨市,拉萨火车站,,18,18,22,10,9,84,32,38,36,35,30,6,7,0.7,0.9
2022-01-09T06:00:00,1462A,108.882,34.2749,西安市,高压开关厂,细颗粒物(PM2.5),110,93,94,83,96,47,6,6,6,32,27,7,8,1.4,1.3
2022-01-09T06:00:00,1463A,108.993,34.2629,西安市,兴庆小区,细颗粒物(PM2.5),87,49,82,64,91,35,17,26,21,19,21,6,6,1.3,1.5
2022-01-09T06:00:00,1464A,109.06,34.2572,西安市,纺织城,细颗粒物(PM2.5),77,56,98,56,79,27,3,2,2,30,28,4,6,1.2,1.4
2022-01-09T06:00:00,1465A,108.9356,34.2173,西安市,小寨,细颗粒物(PM2.5),84,76,106,62,92,40,12,20,16,36,29,6,7,1.2,1.1
2022-01-09T06:00:00,1466A,108.954,34.2713,西安市,市人民体育场,细颗粒物(PM2.5),77,61,84,56,94,37,3,3,3,36,29,7,7,1.4,1.5
2022-01-09T06:00:00,1467A,108.8922,34.2322,西安市,高新西区,细颗粒物(PM2.5),75,74,88,55,76,39,5,14,8,40,30,8,9,2.1,1.7
2022-01-09T06:00:00,1468A,108.935,34.3474,西安市,经开区,细颗粒物(PM2.5),83,56,81,61,93,39,5,5,5,35,29,5,7,1.2,1.4
2022-01-09T06:00:00,1469A,108.906,34.1546,西安市,长安区,细颗粒物(PM2.5),82,61,78,60,87,42,15,18,15,23,20,6,7,1.7,1.8
2022-01-09T06:00:00,1471A,109.2186,34.3731,西安市,临潼区,细颗粒物(PM2.5),117,72,78,88,92,60,15,14,14,33,26,8,9,1.3,1.3
2022-01-09T06:00:00,1472A,108.869,34.378,西安市,草滩(对照点),细颗粒物(PM2.5),92,72,104,68,105,35,5,5,5,22,28,5,6,1.2,1.3
2022-01-09T06:00:00,1473A,108.985,34.1978,西安市,曲江文化产业集团,细颗粒物(PM2.5),72,64,100,52,84,38,4,6,4,40,29,6,6,0.9,1.1
2022-01-09T06:00:00,1474A,109.051,34.3213,西安市,广运潭,细颗粒物(PM2.5),73,54,84,53,92,29,3,3,3,27,24,10,11,1.3,1.4
2022-01-09T06:00:00,1476A,103.631,36.1031,兰州市,兰炼宾馆,细颗粒物(PM2.5),138,120,117,105,92,72,2,3,2,60,60,27,22,1.8,1.6
2022-01-09T06:00:00,1477A,104.1373,35.9454,兰州市,榆中兰大校区(对照点),细颗粒物(PM2.5),80,88,104,59,66,82,43,72,61,44,47,5,13,1.5,1.8
2022-01-09T06:00:00,1478A,103.8412,36.0726,兰州市,生物制品所,颗粒物(PM10),79,108,122,57,70,77,4,4,4,67,68,11,23,1.1,1.5
2022-01-09T06:00:00,1479A,103.831,36.0464,兰州市,铁路设计院,颗粒物(PM10),92,134,126,65,81,60,6,6,6,82,92,21,28,3.1,2.2
2022-01-09T06:00:00,1483A,101.524,36.6867,西宁市,第五水厂(对照点),细颗粒物(PM2.5),74,72,79,54,57,85,30,35,34,35,38,6,16,2.7,2.5
2022-01-09T06:00:00,1484A,105.9512,38.6016,银川市,贺兰山马莲口(对照点),细颗粒物(PM2.5),115,142,208,87,154,90,84,84,80,17,32,4,7,0,0.6
2022-01-09T06:00:00,1488A,106.2328,38.4975,银川市,贺兰山东路,细颗粒物(PM2.5),259,287,293,209,224,25,4,5,4,71,88,5,11,3.3,2.7
2022-01-09T06:00:00,1489A,106.1358,38.5036,银川市,学院路,细颗粒物(PM2.5),224,284,307,174,199,50,8,9,9,72,83,9,14,2.7,2.8
2022-01-09T06:00:00,1490A,87.5801,43.8303,乌鲁木齐市,监测站,,46,10,62,32,84,48,3,3,3,65,90,4,5,1.5,1.7
2022-01-09T06:00:00,1491A,87.6046,43.768,乌鲁木齐市,收费所,,30,13,86,21,79,38,4,4,4,54,75,3,3,0.6,1.5
2022-01-09T06:00:00,1492A,87.4754,43.9469,乌鲁木齐市,新疆农科院农场(对照点),细颗粒物(PM2.5),211,206,269,161,231,45,4,10,5,119,116,15,13,1.9,1.8
2022-01-09T06:00:00,1493A,87.5525,43.8711,乌鲁木齐市,铁路局,细颗粒物(PM2.5),100,77,117,75,147,18,3,3,3,82,90,5,6,2.2,2.3
2022-01-09T06:00:00,1494A,87.6432,43.831,乌鲁木齐市,三十一中学,,45,28,76,31,100,51,3,2,2,81,96,10,12,1.2,1.5
2022-01-09T06:00:00,1496A,87.7216,44.1747,乌鲁木齐市,米东区环保局,细颗粒物(PM2.5),273,257,275,223,240,76,8,19,10,92,81,4,4,2.8,2.7
2022-01-09T06:00:00,1508A,112.9433,27.8614,湘潭市,板塘,细颗粒物(PM2.5),99,55,47,74,52,53,53,46,46,25,36,5,4,0.6,0.6
2022-01-09T06:00:00,1511A,112.9118,27.8403,湘潭市,市监测站,细颗粒物(PM2.5),100,76,48,75,53,49,49,41,41,16,27,6,6,0.7,0.7
2022-01-09T06:00:00,1512A,112.8937,27.8728,湘潭市,江麓,细颗粒物(PM2.5),102,85,49,76,55,62,61,54,54,17,26,7,7,0.5,0.6
2022-01-09T06:00:00,1513A,112.9227,27.8159,湘潭市,岳塘,细颗粒物(PM2.5),97,69,43,72,48,53,53,46,46,22,31,4,2,0.7,0.7
2022-01-09T06:00:00,1514A,112.9074,27.9119,湘潭市,科大,细颗粒物(PM2.5),89,90,58,66,52,57,55,50,50,19,26,7,4,0.6,0.7
2022-01-09T06:00:00,1515A,113.135,27.8244,株洲市,天台山庄,细颗粒物(PM2.5),107,51,36,80,54,43,43,30,30,16,31,4,4,0.3,0.4
2022-01-09T06:00:00,1518A,113.095,27.8867,株洲市,株冶医院,细颗粒物(PM2.5),98,66,43,73,49,26,23,18,18,33,40,4,5,0.7,0.9
2022-01-09T06:00:00,1519A,113.167,27.8667,株洲市,市四中,细颗粒物(PM2.5),100,66,50,75,51,37,37,27,27,22,35,4,4,0.5,0.6
2022-01-09T06:00:00,1520A,113.143,27.8381,株洲市,火车站,细颗粒物(PM2.5),94,70,51,70,44,44,44,31,31,26,41,5,5,0.5,0.7
2022-01-09T06:00:00,1524A,113.13,27.8528,株洲市,市监测站,细颗粒物(PM2.5),119,66,48,90,62,40,39,30,30,26,40,6,3,0.3,0.4
2022-01-09T06:00:00,1552A,106.805,26.3003,贵阳市,桐木岭(对照点),,28,22,27,19,18,45,32,42,37,13,12,6,12,0.8,0.9
2022-01-09T06:00:00,1559A,113.251,27.8336,株洲市,大京风景区(对照点),细颗粒物(PM2.5),93,90,44,69,46,28,28,17,17,35,40,5,5,0.6,0.5
2022-01-09T06:00:00,1562A,113.0048,27.9153,湘潭市,昭山,细颗粒物(PM2.5),90,78,45,67,51,43,42,36,36,15,27,4,4,0.5,0.6
2022-01-09T06:00:00,1564A,112.4876,27.9164,湘潭市,韶山(对照点),颗粒物(PM10),51,51,53,35,37,68,68,59,59,14,20,4,5,0.4,0.5
2022-01-09T06:00:00,1585A,109.8756,40.6532,包头市,市环境监测站,细颗粒物(PM2.5),100,112,162,75,122,55,40,50,48,30,59,14,16,1.6,3.1
2022-01-09T06:00:00,1587A,109.9991,40.5842,包头市,包头八中,细颗粒物(PM2.5),153,132,186,117,156,54,4,3,3,76,76,9,14,3.5,2.7
2022-01-09T06:00:00,1588A,109.8538,40.6821,包头市,青山宾馆,细颗粒物(PM2.5),153,137,206,117,182,55,28,41,35,43,66,17,16,1.3,3.3
2022-01-09T06:00:00,1589A,109.8642,40.6288,包头市,惠龙物流,细颗粒物(PM2.5),140,141,177,107,129,61,5,45,23,63,66,6,17,2.2,3
2022-01-09T06:00:00,1590A,110.0377,40.5546,包头市,东河鸿龙湾,细颗粒物(PM2.5),225,250,174,175,147,61,4,5,5,63,66,11,16,2.5,2.5
2022-01-09T06:00:00,1591A,110.0023,39.8129,鄂尔多斯市,综合楼,细颗粒物(PM2.5),153,151,138,117,98,105,88,100,98,31,46,13,15,1.5,1.2
2022-01-09T06:00:00,1592A,109.9486,39.8261,鄂尔多斯市,巴音孟克林场办事处,细颗粒物(PM2.5),156,132,125,119,98,109,80,88,87,36,46,17,21,1.7,1.4
2022-01-09T06:00:00,1593A,109.7736,39.5986,鄂尔多斯市,康泽苑,细颗粒物(PM2.5),144,139,103,110,77,108,63,46,46,27,40,6,7,1.0,0.9
2022-01-09T06:00:00,1594A,109.8119,39.5989,鄂尔多斯市,华泰汽车城,细颗粒物(PM2.5),147,136,100,112,76,105,10,19,11,51,53,5,7,1.1,1
2022-01-09T06:00:00,1595A,109.9734,39.7884,鄂尔多斯市,奥林花园,细颗粒物(PM2.5),153,166,134,117,90,103,12,45,32,86,62,10,14,1.6,1.4
2022-01-09T06:00:00,1597A,122.2703,40.7094,营口市,大庆路,细颗粒物(PM2.5),160,162,103,122,73,73,22,33,30,41,30,9,9,1.3,1
2022-01-09T06:00:00,1598A,122.215,40.6511,营口市,镜湖西路,细颗粒物(PM2.5),190,165,103,143,73,66,22,40,28,40,28,14,9,1.6,0.9
2022-01-09T06:00:00,1599A,122.167,40.6655,营口市,西炮台,细颗粒物(PM2.5),145,147,90,111,68,54,19,34,26,39,28,9,7,1.2,0.9
2022-01-09T06:00:00,1600A,124.3303,40.0625,丹东市,江湾东路,细颗粒物(PM2.5),85,85,101,63,74,51,42,44,44,27,36,14,29,0.9,1.2
2022-01-09T06:00:00,1601A,124.4256,40.1503,丹东市,临江后街,细颗粒物(PM2.5),80,85,100,59,66,52,50,48,48,23,40,27,27,0.8,1.3
2022-01-09T06:00:00,1602A,124.3933,40.1461,丹东市,元宝山,细颗粒物(PM2.5),85,85,93,63,67,59,47,47,44,19,30,14,21,0.9,1.2
2022-01-09T06:00:00,1603A,124.3633,40.1092,丹东市,民主桥,细颗粒物(PM2.5),84,85,92,62,64,50,46,44,44,24,34,16,18,0.8,1
2022-01-09T06:00:00,1604A,122.0303,41.1489,盘锦市,开发区,细颗粒物(PM2.5),122,86,60,92,52,78,56,55,55,31,29,8,7,1.2,1.1
2022-01-09T06:00:00,1605A,122.0485,41.0883,盘锦市,兴隆台,细颗粒物(PM2.5),128,116,60,97,53,71,34,62,47,52,33,18,13,1.2,1
2022-01-09T06:00:00,1606A,121.8297,41.1028,盘锦市,新生街道,细颗粒物(PM2.5),99,80,61,74,42,67,21,31,27,53,39,18,18,1.0,1
2022-01-09T06:00:00,1607A,120.9092,40.7136,葫芦岛市,龙港区,细颗粒物(PM2.5),69,54,93,50,55,66,10,43,26,59,41,136,105,1.4,1.8
2022-01-09T06:00:00,1608A,120.8392,40.7514,葫芦岛市,化工街,,49,49,57,18,30,64,21,32,24,55,30,49,29,1.4,1.1
2022-01-09T06:00:00,1609A,120.8341,40.7073,葫芦岛市,新区,,49,39,57,31,34,65,31,46,36,37,33,147,29,0.7,0.9
2022-01-09T06:00:00,1610A,120.8695,40.7677,葫芦岛市,东城区,颗粒物(PM10),52,54,63,32,31,74,21,24,18,50,36,59,36,0.7,0.8
2022-01-09T06:00:00,1611A,118.5819,24.9117,泉州市,涂山街,颗粒物(PM10),51,51,36,32,21,109,14,56,29,41,23,8,7,0.6,0.5
2022-01-09T06:00:00,1612A,118.5972,24.8978,泉州市,津头埔,颗粒物(PM10),52,54,40,31,19,118,18,77,48,44,26,8,7,0.5,0.5
2022-01-09T06:00:00,1613A,118.6663,24.9424,泉州市,万安,,23,23,37,14,18,110,46,70,51,30,21,5,5,0.4,0.4
2022-01-09T06:00:00,1614A,118.6117,24.9604,泉州市,清源山(对照点),,28,18,30,10,15,116,89,91,90,5,10,6,7,0.4,0.4
2022-01-09T06:00:00,1616A,117.6795,36.229,济南市,技术学院,细颗粒物(PM2.5),209,193,182,159,141,76,1,0,0,50,53,4,8,1.6,1.6
2022-01-09T06:00:00,1618A,118.3429,35.0532,临沂市,沂河小区,细颗粒物(PM2.5),209,183,156,159,130,96,15,34,23,60,47,16,15,1.2,1
2022-01-09T06:00:00,1619A,118.295,35.0583,临沂市,鲁南制药厂,细颗粒物(PM2.5),204,190,164,154,137,102,11,17,13,65,58,15,19,1.3,1.2
2022-01-09T06:00:00,1620A,118.2794,34.9976,临沂市,新光毛纺厂,细颗粒物(PM2.5),192,178,151,144,123,96,5,10,6,64,48,10,11,1.5,1.3
2022-01-09T06:00:00,1621A,118.3956,35.0888,临沂市,河东保险公司,细颗粒物(PM2.5),204,180,158,154,129,101,7,30,16,65,52,9,10,1.2,1
2022-01-09T06:00:00,1622A,116.3032,37.4674,德州市,儿童乐园,细颗粒物(PM2.5),223,212,176,173,132,52,5,6,5,57,51,18,14,2.0,1.7
2022-01-09T06:00:00,1624A,116.2991,37.4451,德州市,监理站,细颗粒物(PM2.5),260,226,194,210,155,46,4,3,3,70,64,20,17,1.5,1.4
2022-01-09T06:00:00,1625A,115.9848,36.4372,聊城市,区政府,细颗粒物(PM2.5),163,179,175,124,130,49,5,4,4,47,45,8,11,1.4,1.3
2022-01-09T06:00:00,1628A,118.0062,37.3803,滨州市,市环保局,细颗粒物(PM2.5),98,119,164,73,115,60,15,4,4,41,48,10,16,1.0,1.1
2022-01-09T06:00:00,1629A,118.0018,37.3617,滨州市,第二水厂,,,143,165,72,110,56,,3,3,45,52,14,19,1.3,1.4
2022-01-09T06:00:00,1630A,117.9776,37.393,滨州市,北中新校,细颗粒物(PM2.5),107,140,165,80,116,56,15,6,6,50,56,13,23,1.2,1.4
2022-01-09T06:00:00,1631A,118.0414,36.8103,淄博市,人民公园,细颗粒物(PM2.5),256,219,178,206,176,87,3,3,3,63,57,14,22,1.8,1.3
2022-01-09T06:00:00,1633A,117.8525,36.4847,淄博市,双山,细颗粒物(PM2.5),215,189,174,165,147,79,4,4,4,45,43,12,13,1.5,1.3
2022-01-09T06:00:00,1634A,117.9592,36.6331,淄博市,气象站,细颗粒物(PM2.5),201,206,164,151,118,102,5,6,5,51,50,17,21,1.9,1.5
2022-01-09T06:00:00,1635A,118.3092,36.8194,淄博市,莆田园,细颗粒物(PM2.5),186,150,156,140,134,89,7,8,7,44,53,3,17,1.3,1.3
2022-01-09T06:00:00,1637A,117.558,34.8438,枣庄市,市中区政府,细颗粒物(PM2.5),178,202,178,134,120,91,10,10,8,58,52,10,13,1.2,1
2022-01-09T06:00:00,1638A,117.2852,34.7837,枣庄市,薛城环保局,细颗粒物(PM2.5),208,195,170,158,133,86,6,26,22,69,53,15,15,1.3,1
2022-01-09T06:00:00,1639A,117.5852,34.7745,枣庄市,峄城区政府,细颗粒物(PM2.5),170,168,156,129,119,94,16,40,34,38,34,14,15,0.8,0.8
2022-01-09T06:00:00,1640A,117.7276,34.5578,枣庄市,台儿庄区环保局,细颗粒物(PM2.5),156,166,169,119,118,106,10,24,12,67,61,5,8,1.0,1.1
2022-01-09T06:00:00,1641A,117.4518,35.0992,枣庄市,山亭区环保局,细颗粒物(PM2.5),138,134,153,105,117,90,22,32,25,31,41,10,13,1.0,1
2022-01-09T06:00:00,1642A,121.2514,37.5639,烟台市,开发区,,22,17,113,5,79,72,68,65,65,12,38,3,5,0.4,0.9
2022-01-09T06:00:00,1643A,121.3719,37.5433,烟台市,轴承厂,,19,12,110,13,89,61,54,52,52,22,44,9,11,0.4,0.9
2022-01-09T06:00:00,1644A,121.3181,37.5436,烟台市,西郊化工站,,22,12,115,5,82,68,68,66,66,17,44,5,11,0.6,1.1
2022-01-09T06:00:00,1645A,121.4478,37.4822,烟台市,莱山环保局,,19,14,109,6,81,78,60,66,65,25,42,5,10,0.2,0.7
2022-01-09T06:00:00,1646A,121.2611,37.4967,烟台市,福山环保局,,24,24,123,7,86,70,61,60,60,10,37,3,6,0.3,1.2
2022-01-09T06:00:00,1650A,119.1437,36.7023,潍坊市,环保局,细颗粒物(PM2.5),179,178,161,135,125,86,5,8,6,64,63,5,11,1.5,1.3
2022-01-09T06:00:00,1653A,116.6251,35.4302,济宁市,火炬城,细颗粒物(PM2.5),163,114,109,124,108,75,2,11,8,63,43,5,5,1.3,1
2022-01-09T06:00:00,1655A,116.5491,35.4042,济宁市,电化厂,细颗粒物(PM2.5),178,143,119,134,124,85,18,8,8,47,48,12,13,1.2,1.2
2022-01-09T06:00:00,1656A,117.1437,36.1937,泰安市,监测站,细颗粒物(PM2.5),180,188,164,136,143,65,0,0,0,45,50,13,16,1.2,1.1
2022-01-09T06:00:00,1657A,117.0885,36.2017,泰安市,人口学校,细颗粒物(PM2.5),166,171,160,126,132,65,26,28,19,48,53,5,8,0.7,0.8
2022-01-09T06:00:00,1658A,117.1089,36.1758,泰安市,电力学校,细颗粒物(PM2.5),216,227,203,166,145,69,1,1,0,56,57,16,19,1.7,1.3
2022-01-09T06:00:00,1659A,119.471,35.4209,日照市,监测站,细颗粒物(PM2.5),178,173,156,134,115,96,8,16,14,63,59,8,11,1.3,1.3
2022-01-09T06:00:00,1660A,119.523,35.4216,日照市,市政府广场,细颗粒物(PM2.5),189,175,144,142,111,102,32,27,27,45,63,8,9,1.3,1.2
2022-01-09T06:00:00,1661A,119.5587,35.4044,日照市,港务局,细颗粒物(PM2.5),196,175,147,147,113,102,38,34,34,38,62,6,8,1.3,1.1
2022-01-09T06:00:00,1662A,122.1214,37.4236,威海市,华夏技校,,20,7,86,14,65,83,63,62,62,12,25,3,6,0.3,0.7
2022-01-09T06:00:00,1663A,122.0508,37.5236,威海市,山大分校,,23,10,73,5,61,79,73,70,70,10,27,4,6,0.1,0.6
2022-01-09T06:00:00,1664A,122.1067,37.5072,威海市,市监测站,,22,12,83,6,58,75,68,68,68,14,27,4,7,0.4,0.8
2022-01-09T06:00:00,1666A,118.6614,37.4309,东营市,市环保局,细颗粒物(PM2.5),58,46,128,41,108,68,30,15,15,28,52,5,13,0.8,1.3
2022-01-09T06:00:00,1669A,113.5824,24.7733,韶关市,市八中,,12,2,22,5,18,90,4,6,4,24,19,8,8,0.8,0.7
2022-01-09T06:00:00,1671A,113.5917,24.7972,韶关市,园林处,,16,8,21,11,19,82,2,6,4,20,14,6,6,0.9,0.8
2022-01-09T06:00:00,1672A,113.6735,24.7791,韶关市,韶关学院,,35,30,26,24,24,83,9,27,20,23,17,9,11,0.7,0.6
2022-01-09T06:00:00,1673A,113.5971,24.6863,韶关市,曲江监测站,,13,10,25,9,21,81,1,4,3,24,21,10,9,0.8,0.6
2022-01-09T06:00:00,1674A,116.6794,23.3667,汕头市,金平子站,,46,42,42,32,26,105,54,85,70,25,23,13,10,0.2,0.3
2022-01-09T06:00:00,1675A,116.7244,23.3633,汕头市,龙湖子站,,33,30,35,23,18,123,68,96,82,18,17,8,7,0.5,0.6
2022-01-09T06:00:00,1676A,116.7258,23.2775,汕头市,濠江子站,,30,30,32,18,16,120,72,90,82,16,14,9,9,0.5,0.6
2022-01-09T06:00:00,1677A,116.7519,23.4714,汕头市,澄海子站,,46,40,39,32,27,119,58,87,66,25,24,15,11,0.5,0.5
2022-01-09T06:00:00,1678A,116.6092,23.2539,汕头市,潮阳子站,,28,28,36,13,15,126,82,92,87,14,17,11,11,0.4,0.4
2022-01-09T06:00:00,1680A,110.3539,21.2706,湛江市,湛江影剧院,,45,40,48,31,36,129,83,106,98,18,21,8,7,0.7,0.8
2022-01-09T06:00:00,1681A,110.3928,21.2228,湛江市,市环境监测站,,48,47,49,33,39,141,90,107,101,19,22,6,6,0.5,0.6
2022-01-09T06:00:00,1682A,110.4019,21.1997,湛江市,环保局宿舍,,40,38,45,28,36,140,94,112,108,16,16,5,5,0.8,0.9
2022-01-09T06:00:00,1683A,110.4111,21.2028,湛江市,霞山游泳场,,45,36,52,31,40,136,83,103,98,22,21,6,6,0.5,0.6
2022-01-09T06:00:00,1684A,110.3316,21.2679,湛江市,麻章区环保局,,49,44,55,34,38,128,82,104,96,16,19,9,8,0.7,0.8
2022-01-09T06:00:00,1685A,110.4558,21.2567,湛江市,坡头区环保局,,49,40,56,34,45,145,86,111,103,16,18,7,6,0.6,0.7
2022-01-09T06:00:00,1686A,111.0286,21.4688,茂名市,电白南海,颗粒物(PM10),54,58,65,31,33,134,82,96,93,17,18,10,9,0.6,0.6
2022-01-09T06:00:00,1687A,110.9294,21.6533,茂名市,茂石化七小,细颗粒物(PM2.5),58,53,62,41,38,122,81,87,85,13,16,12,12,0.5,0.6
2022-01-09T06:00:00,1688A,110.9107,21.6687,茂名市,健康路,颗粒物(PM10),52,53,62,35,34,121,75,94,89,7,9,34,11,0.8,0.8
2022-01-09T06:00:00,1689A,110.8592,21.6828,茂名市,高岭,,48,48,52,30,34,118,54,88,78,17,16,29,19,0.7,0.6
2022-01-09T06:00:00,1690A,116.1231,24.3284,梅州市,梅江月梅,,38,26,39,26,30,86,7,12,11,31,27,8,8,0.5,0.6
2022-01-09T06:00:00,1691A,116.0797,24.2719,梅州市,梅县新城,,39,30,38,27,31,92,18,26,22,24,30,5,6,0.6,0.7
2022-01-09T06:00:00,1692A,116.1248,24.2654,梅州市,环境监控中心,细颗粒物(PM2.5),52,46,41,36,32,90,3,16,7,36,31,10,8,0.5,0.6
2022-01-09T06:00:00,1693A,115.3653,22.775,汕尾市,市环保局,,43,36,39,30,23,125,77,86,81,8,10,6,6,0.6,0.7
2022-01-09T06:00:00,1694A,115.3706,22.7898,汕尾市,市政府,,36,34,35,25,26,125,69,73,69,13,15,5,6,0.5,0.6
2022-01-09T06:00:00,1695A,115.3622,22.7925,汕尾市,新城中学,,45,34,42,31,28,123,70,75,69,10,15,5,6,0.4,0.5
2022-01-09T06:00:00,1696A,114.6778,23.7569,河源市,源西(对照点),,35,28,35,24,24,97,30,33,32,20,25,4,4,0.7,0.8
2022-01-09T06:00:00,1697A,114.6944,23.7586,河源市,东埔,,39,34,33,27,26,97,27,37,31,27,28,4,4,0.7,0.9
2022-01-09T06:00:00,1698A,114.6892,23.7233,河源市,老城,,36,33,32,25,25,89,26,36,33,24,24,5,5,0.8,0.8
2022-01-09T06:00:00,1699A,111.9797,21.8593,阳江市,鸳鸯湖(对照点),细颗粒物(PM2.5),72,51,46,52,40,146,79,80,73,17,15,7,7,0.7,0.8
2022-01-09T06:00:00,1701A,111.9491,21.8658,阳江市,马南垌,细颗粒物(PM2.5),80,53,50,59,43,137,32,94,74,37,29,6,7,0.7,0.7
2022-01-09T06:00:00,1702A,113.0426,23.691,清远市,环保大楼(对照点),,43,38,33,30,24,113,32,56,45,14,19,6,7,0.9,1
2022-01-09T06:00:00,1703A,113.0208,23.7106,清远市,凤城街办,,35,31,30,24,22,109,35,58,47,15,24,7,7,0.9,0.9
2022-01-09T06:00:00,1705A,116.6367,23.6719,潮州市,西园路(对照点),,46,33,43,32,30,129,31,65,46,20,18,8,9,0.6,0.7
2022-01-09T06:00:00,1706A,116.6447,23.6706,潮州市,档案局,,40,39,38,28,27,127,34,59,44,21,18,10,10,0.6,0.7
2022-01-09T06:00:00,1708A,116.3701,23.5345,揭阳市,新兴,细颗粒物(PM2.5),53,36,51,37,37,153,54,84,72,25,25,12,12,0.6,0.8
2022-01-09T06:00:00,1709A,116.3264,23.5443,揭阳市,西马,,42,33,52,29,33,158,68,87,80,14,18,8,9,0.4,0.6
2022-01-09T06:00:00,1710A,116.3611,23.5626,揭阳市,东兴,细颗粒物(PM2.5),52,35,52,36,36,155,47,82,66,27,24,11,15,0.6,0.8
2022-01-09T06:00:00,1711A,116.4151,23.5294,揭阳市,渔湖,颗粒物(PM10),51,52,47,30,32,146,12,80,60,51,26,13,12,0.6,0.7
2022-01-09T06:00:00,1712A,112.0392,22.9169,云浮市,新市府(对照点),细颗粒物(PM2.5),57,61,38,40,29,92,3,27,18,53,20,41,9,0.8,0.8
2022-01-09T06:00:00,1714A,112.0539,22.9539,云浮市,牧羊,颗粒物(PM10),52,53,48,29,32,95,5,44,18,47,30,19,12,0.9,0.9
2022-01-09T06:00:00,1715A,102.575,24.3711,玉溪市,东风水库,,22,11,22,15,14,81,18,31,24,13,16,6,7,0.4,0.5
2022-01-09T06:00:00,1718A,115.4208,35.2464,菏泽市,气象局,细颗粒物(PM2.5),186,176,161,140,128,79,26,32,30,35,34,7,9,0.9,0.9
2022-01-09T06:00:00,1719A,115.4747,35.2375,菏泽市,市政协,细颗粒物(PM2.5),169,171,154,128,120,83,27,44,31,35,32,8,11,1.3,1.2
2022-01-09T06:00:00,1721A,113.3819,40.1097,大同市,果树场(对照点),细颗粒物(PM2.5),122,131,148,92,108,70,6,7,6,47,46,21,22,2.0,1.7
2022-01-09T06:00:00,1724A,113.3444,40.0917,大同市,大同大学,细颗粒物(PM2.5),107,131,134,80,86,66,1,18,5,63,54,41,29,1.8,1.3
2022-01-09T06:00:00,1725A,113.2661,40.1269,大同市,安家小村,颗粒物(PM10),106,162,185,76,86,75,9,11,10,58,55,35,32,2.4,1.9
2022-01-09T06:00:00,1726A,113.2711,40.0844,大同市,教育学院,细颗粒物(PM2.5),119,154,198,90,122,77,13,11,11,59,59,38,38,1.8,1.8
2022-01-09T06:00:00,1727A,113.1147,36.1547,长治市,清华站,细颗粒物(PM2.5),138,120,126,105,113,42,3,4,4,50,55,9,14,1.6,1.6
2022-01-09T06:00:00,1728A,113.1031,36.1989,长治市,监测站,细颗粒物(PM2.5),127,139,136,96,111,44,5,5,5,43,49,9,11,1.6,1.7
2022-01-09T06:00:00,1730A,113.0886,36.2125,长治市,审计局,细颗粒物(PM2.5),117,93,126,88,98,36,2,2,2,52,62,15,27,1.5,1.8
2022-01-09T06:00:00,1731A,113.0844,36.1856,长治市,长治八中,细颗粒物(PM2.5),134,140,155,102,105,35,0,0,0,55,62,27,27,1.8,1.8
2022-01-09T06:00:00,1733A,111.5531,36.0783,临汾市,临钢医院,细颗粒物(PM2.5),165,146,131,125,119,45,4,6,5,51,50,15,12,2.6,2.7
2022-01-09T06:00:00,1734A,111.5028,36.0714,临汾市,技工学校,细颗粒物(PM2.5),169,161,147,128,131,37,3,4,3,46,52,32,16,1.9,2.2
2022-01-09T06:00:00,1736A,111.5018,36.0855,临汾市,市委,细颗粒物(PM2.5),172,157,144,130,132,41,2,2,2,50,55,34,17,2.0,2.3
2022-01-09T06:00:00,1738A,113.5758,37.8572,阳泉市,市中心,细颗粒物(PM2.5),152,170,138,116,107,53,1,3,2,68,69,23,25,1.6,1.4
2022-01-09T06:00:00,1739A,113.4894,37.8731,阳泉市,赛鱼,细颗粒物(PM2.5),110,132,114,83,78,57,4,5,5,60,60,22,23,1.6,1.3
2022-01-09T06:00:00,1740A,113.5819,37.8486,阳泉市,南庄,细颗粒物(PM2.5),112,146,138,84,96,48,12,8,8,62,65,17,35,1.5,1.6
2022-01-09T06:00:00,1742A,113.5614,37.8703,阳泉市,平坦,细颗粒物(PM2.5),158,117,103,120,105,57,2,4,4,75,67,29,24,1.7,1.5
2022-01-09T06:00:00,1743A,113.5158,37.8392,阳泉市,大阳泉,细颗粒物(PM2.5),159,124,87,121,87,66,18,27,26,72,58,25,20,1.5,1.2
2022-01-09T06:00:00,1744A,118.9233,42.2816,赤峰市,松山一中,,42,42,45,18,20,78,24,26,25,35,40,19,19,0.9,0.7
2022-01-09T06:00:00,1745A,118.9576,42.2728,赤峰市,哈达街,,46,46,41,20,20,72,17,16,16,34,36,20,22,0.8,0.7
2022-01-09T06:00:00,1746A,118.8788,42.2554,赤峰市,天义路,,33,26,38,23,20,70,30,28,28,25,37,14,14,1.1,1
2022-01-09T06:00:00,1748A,123.044,41.1196,鞍山市,深沟寺,细颗粒物(PM2.5),232,231,134,182,96,66,10,20,16,61,38,12,13,3.7,1.4
2022-01-09T06:00:00,1749A,123.011,41.0931,鞍山市,太阳城,细颗粒物(PM2.5),223,217,128,173,92,70,12,19,16,57,41,12,14,2.9,1.5
2022-01-09T06:00:00,1750A,123.0485,41.1442,鞍山市,太平,细颗粒物(PM2.5),230,233,135,180,100,68,12,18,16,66,43,30,18,2.9,1.2
2022-01-09T06:00:00,1751A,122.9642,41.0971,鞍山市,铁西三道街,细颗粒物(PM2.5),219,211,131,169,94,67,12,19,12,57,44,16,20,1.8,1.8
2022-01-09T06:00:00,1752A,122.9341,41.0833,鞍山市,铁西工业园区,细颗粒物(PM2.5),257,255,135,207,100,69,12,14,12,67,50,37,25,2.8,1.6
2022-01-09T06:00:00,1753A,123.022,41.0821,鞍山市,明达新区,细颗粒物(PM2.5),208,222,130,158,91,64,11,25,19,65,42,15,14,1.8,1.2
2022-01-09T06:00:00,1754A,123.1289,41.0228,鞍山市,千山(对照点),细颗粒物(PM2.5),108,96,101,81,78,68,35,35,35,18,29,6,9,0.8,0.9
2022-01-09T06:00:00,1755A,123.7977,41.8491,抚顺市,望花区,细颗粒物(PM2.5),236,224,174,186,138,64,8,27,12,55,41,2,11,1.6,1.5
2022-01-09T06:00:00,1756A,123.9161,41.8822,抚顺市,顺城区,细颗粒物(PM2.5),203,177,144,153,117,73,18,29,21,54,47,7,12,1.6,1.3
2022-01-09T06:00:00,1757A,124.0436,41.8611,抚顺市,东洲区,细颗粒物(PM2.5),208,193,158,158,122,56,10,24,17,41,39,5,8,1.4,1.3
2022-01-09T06:00:00,1758A,123.9247,41.8642,抚顺市,新抚区,细颗粒物(PM2.5),235,215,153,185,138,65,10,12,11,54,48,10,13,1.5,1.3
2022-01-09T06:00:00,1759A,124.0972,41.8961,抚顺市,大伙房水库,细颗粒物(PM2.5),200,170,141,150,122,63,6,33,16,53,39,7,9,1.4,1.3
2022-01-09T06:00:00,1760A,123.7086,41.8391,抚顺市,沈抚新城,细颗粒物(PM2.5),204,186,152,154,120,66,6,30,14,58,45,9,9,1.4,1.2
2022-01-09T06:00:00,1761A,123.8275,41.3064,本溪市,大峪,细颗粒物(PM2.5),198,161,109,148,95,60,12,33,18,53,44,11,14,1.7,1.2
2022-01-09T06:00:00,1762A,123.7567,41.3325,本溪市,溪湖,细颗粒物(PM2.5),217,229,171,167,118,64,9,23,16,47,42,15,22,1.7,1.3
2022-01-09T06:00:00,1763A,123.7169,41.3094,本溪市,彩屯,细颗粒物(PM2.5),206,188,149,156,118,58,12,20,16,41,37,10,13,1.4,1.2
2022-01-09T06:00:00,1764A,123.7669,41.2864,本溪市,东明,细颗粒物(PM2.5),170,141,113,129,102,58,9,36,16,49,45,5,10,1.5,1.4
2022-01-09T06:00:00,1765A,123.7992,41.2664,本溪市,新立屯,细颗粒物(PM2.5),158,132,106,120,102,59,15,22,20,43,35,10,15,1.0,1.1
2022-01-09T06:00:00,1766A,123.8142,41.3472,本溪市,威宁,细颗粒物(PM2.5),195,189,148,146,100,62,6,10,8,47,46,5,7,1.4,1.2
2022-01-09T06:00:00,1767A,121.1115,41.0879,锦州市,南山,细颗粒物(PM2.5),59,61,56,42,34,68,16,59,38,44,28,18,24,2.1,1.4
2022-01-09T06:00:00,1768A,121.0533,40.8434,锦州市,开发区,颗粒物(PM10),68,85,63,46,44,67,21,55,44,58,32,5,18,0.6,0.6
2022-01-09T06:00:00,1769A,121.1836,41.1119,锦州市,百股街道,颗粒物(PM10),71,92,64,45,37,71,12,47,22,40,30,17,26,1.0,0.9
2022-01-09T06:00:00,1770A,121.1178,41.1222,锦州市,天安街道,,48,48,52,33,31,66,28,47,26,25,28,28,31,1.0,1
2022-01-09T06:00:00,1771A,121.1303,41.1386,锦州市,北湖公园,,45,36,47,31,26,73,45,42,30,20,24,18,20,0.8,0.8
2022-01-09T06:00:00,1772A,126.54,43.8622,吉林市,哈达湾,细颗粒物(PM2.5),103,109,130,77,88,65,12,31,21,45,39,11,20,1.2,1.3
2022-01-09T06:00:00,1773A,126.5844,43.8358,吉林市,东局子,细颗粒物(PM2.5),80,79,114,59,84,47,22,35,26,38,44,10,21,1.0,1.3
2022-01-09T06:00:00,1774A,126.5052,43.8245,吉林市,电力学院,细颗粒物(PM2.5),115,107,119,87,98,63,17,18,18,40,42,11,20,1.3,1.3
2022-01-09T06:00:00,1775A,126.6133,43.8972,吉林市,江北,细颗粒物(PM2.5),99,89,106,74,83,63,19,44,33,38,37,8,14,1.3,1.3
2022-01-09T06:00:00,1776A,126.555,43.8306,吉林市,江南公园,细颗粒物(PM2.5),88,74,104,65,86,56,20,24,21,40,44,4,14,1.0,1.4
2022-01-09T06:00:00,1778A,126.7061,43.7133,吉林市,丰满(对照点),细颗粒物(PM2.5),73,57,83,53,77,60,34,36,36,22,30,8,13,0.9,1.1
2022-01-09T06:00:00,1779A,123.9305,47.3636,齐齐哈尔市,安居小区,细颗粒物(PM2.5),87,94,61,64,41,55,16,43,30,42,28,150,44,0.7,0.6
2022-01-09T06:00:00,1780A,123.9488,47.3386,齐齐哈尔市,中心广场,颗粒物(PM10),65,79,60,23,30,54,17,42,27,38,31,119,46,0.7,0.7
2022-01-09T06:00:00,1781A,123.9483,47.3227,齐齐哈尔市,农牧车辆厂,细颗粒物(PM2.5),69,70,69,50,42,45,34,27,26,21,34,14,50,0.5,0.6
2022-01-09T06:00:00,1783A,123.945,47.2988,齐齐哈尔市,市环境监测站,细颗粒物(PM2.5),67,67,75,48,48,31,28,28,28,8,16,5,38,0.6,0.6
2022-01-09T06:00:00,1785A,129.6115,44.5782,牡丹江市,文化广场,细颗粒物(PM2.5),62,63,85,44,57,50,32,27,27,32,42,11,17,0.7,1
2022-01-09T06:00:00,1786A,129.5904,44.5963,牡丹江市,第一医院,细颗粒物(PM2.5),80,69,84,59,71,51,28,49,41,35,38,6,15,1.0,1.1
2022-01-09T06:00:00,1787A,129.6364,44.6075,牡丹江市,机车工厂,细颗粒物(PM2.5),74,88,92,54,66,50,10,15,14,42,43,1,12,0.9,1
2022-01-09T06:00:00,1788A,129.6386,44.5462,牡丹江市,第一中学,细颗粒物(PM2.5),67,62,90,48,68,59,39,40,40,28,37,3,12,0.7,1
2022-01-09T06:00:00,1789A,124.81117,46.03138,大庆市,大同区,细颗粒物(PM2.5),122,115,115,92,95,60,28,30,29,38,33,18,16,0.9,0.9
2022-01-09T06:00:00,1790A,125.129,46.533,大庆市,龙凤区,细颗粒物(PM2.5),113,93,78,85,51,46,21,13,13,37,36,11,24,0.8,0.7
2022-01-09T06:00:00,1791A,124.902,46.408,大庆市,红岗区,细颗粒物(PM2.5),94,69,65,70,59,59,24,25,15,38,35,12,11,1.5,1.3
2022-01-09T06:00:00,1792A,125.153,46.586,大庆市,萨尔图区,细颗粒物(PM2.5),94,65,69,70,65,52,34,15,15,26,34,12,13,0.5,0.6
2022-01-09T06:00:00,1793A,124.9042,46.6215,大庆市,让胡路区,细颗粒物(PM2.5),74,91,79,54,54,60,12,15,9,49,33,10,10,1.0,0.8
2022-01-09T06:00:00,1794A,118.3606,31.3519,芜湖市,监测站,细颗粒物(PM2.5),110,49,71,83,75,65,65,42,42,29,55,6,8,0.8,0.8
2022-01-09T06:00:00,1795A,118.3714,31.4134,芜湖市,科创中心,细颗粒物(PM2.5),110,51,71,83,73,69,57,48,48,34,53,8,11,0.7,0.7
2022-01-09T06:00:00,1796A,118.3673,31.3131,芜湖市,四水厂,细颗粒物(PM2.5),108,40,66,81,74,60,60,35,35,29,56,6,8,0.6,0.7
2022-01-09T06:00:00,1798A,118.5092,31.6837,马鞍山市,湖东路四小,细颗粒物(PM2.5),95,46,69,71,72,72,10,11,11,50,58,7,11,1.0,1.1
2022-01-09T06:00:00,1799A,118.5024,31.6449,马鞍山市,开发区,细颗粒物(PM2.5),99,62,72,74,64,75,23,12,12,41,56,7,10,1.1,1.1
2022-01-09T06:00:00,1800A,118.5228,31.7231,马鞍山市,慈湖,细颗粒物(PM2.5),124,79,92,94,80,67,7,25,21,53,63,6,11,1.0,1.1
2022-01-09T06:00:00,1802A,118.6245,31.7241,马鞍山市,濮塘(对照点),细颗粒物(PM2.5),74,73,69,54,50,77,15,24,22,35,41,10,12,0.8,0.9
2022-01-09T06:00:00,1803A,115.9872,29.6815,九江市,十里,细颗粒物(PM2.5),72,64,88,52,69,79,65,76,73,26,39,7,9,0.4,0.6
2022-01-09T06:00:00,1804A,115.9584,29.7046,九江市,茅山头,细颗粒物(PM2.5),80,72,91,59,75,64,53,63,60,25,38,5,7,0.6,0.8
2022-01-09T06:00:00,1805A,115.9877,29.7295,九江市,西园,细颗粒物(PM2.5),102,72,93,76,86,81,65,79,73,22,32,6,7,0.5,0.7
2022-01-09T06:00:00,1806A,116.0172,29.6547,九江市,五七二七厂,细颗粒物(PM2.5),63,67,88,45,63,59,54,54,54,13,17,6,6,0.4,0.7
2022-01-09T06:00:00,1808A,115.9114,29.6038,九江市,综合工业园,细颗粒物(PM2.5),92,73,105,68,85,55,55,40,40,31,50,2,7,0.6,0.5
2022-01-09T06:00:00,1809A,116.0721,29.7535,九江市,石化总厂,细颗粒物(PM2.5),80,69,100,59,69,81,54,81,70,28,32,11,13,0.7,0.8
2022-01-09T06:00:00,1810A,115.9773,29.5698,九江市,庐山气象台(对照点),,20,10,17,7,12,87,62,56,50,9,9,9,6,0.7,0.5
2022-01-09T06:00:00,1812A,112.3931,34.6516,洛阳市,市委党校,细颗粒物(PM2.5),150,147,122,115,92,39,6,8,8,32,40,7,5,1.3,1.2
2022-01-09T06:00:00,1814A,112.4657,34.6871,洛阳市,豫西宾馆,细颗粒物(PM2.5),132,135,112,100,87,45,0,0,0,41,47,7,8,1.4,1.6
2022-01-09T06:00:00,1815A,112.494,34.6886,洛阳市,河南林校,细颗粒物(PM2.5),138,128,118,105,93,42,10,13,12,36,41,2,3,0.9,0.9
2022-01-09T06:00:00,1816A,112.3844,34.623,洛阳市,开发区管委会,细颗粒物(PM2.5),130,141,104,99,87,38,7,13,12,33,37,1,2,1.1,1.1
2022-01-09T06:00:00,1817A,112.4267,34.6258,洛阳市,市委新办公区,细颗粒物(PM2.5),142,133,113,108,94,42,8,18,11,36,42,2,3,1.0,1
2022-01-09T06:00:00,1818A,114.4839,36.0621,安阳市,棉研所(对照点),细颗粒物(PM2.5),68,54,89,49,79,36,4,4,4,29,37,4,5,1.3,1.2
2022-01-09T06:00:00,1819A,114.3551,36.1017,安阳市,红庙街,细颗粒物(PM2.5),158,179,141,120,114,32,2,3,2,51,56,10,11,2.1,1.6
2022-01-09T06:00:00,1820A,114.361,36.0681,安阳市,银杏小区,细颗粒物(PM2.5),144,168,137,110,111,33,1,1,1,43,48,3,8,1.4,1.4
2022-01-09T06:00:00,1824A,114.3389,34.7781,开封市,肿瘤医院,细颗粒物(PM2.5),124,111,104,94,109,56,4,5,5,34,32,3,4,1.2,1.1
2022-01-09T06:00:00,1826A,114.2885,34.7965,开封市,世纪星幼儿园,细颗粒物(PM2.5),132,90,109,100,110,60,5,6,5,31,33,4,5,0.9,0.9
2022-01-09T06:00:00,1828A,113.2269,35.2127,焦作市,市环保局,细颗粒物(PM2.5),149,139,134,114,109,27,0,4,2,45,50,10,14,2.5,1.9
2022-01-09T06:00:00,1829A,113.2467,35.176,焦作市,高新区政府,,,172,132,144,106,31,3,3,3,58,48,18,15,2.4,1.6
2022-01-09T06:00:00,1830A,113.1987,35.2703,焦作市,影视城(对照点),细颗粒物(PM2.5),103,107,119,77,92,86,85,68,68,14,40,7,9,0.9,1.7
2022-01-09T06:00:00,1832A,113.3257,33.742,平顶山市,新华旅馆,细颗粒物(PM2.5),100,120,123,75,82,33,4,14,7,42,41,4,6,0.8,1
2022-01-09T06:00:00,1833A,113.2919,33.737,平顶山市,规划设计院,细颗粒物(PM2.5),110,92,100,83,95,32,4,10,6,35,38,5,6,0.9,1
2022-01-09T06:00:00,1834A,113.182,33.774,平顶山市,平顶山工学院,细颗粒物(PM2.5),138,124,101,105,86,46,4,20,12,34,28,8,8,1.3,1.1
2022-01-09T06:00:00,1835A,111.1922,34.7752,三门峡市,市政府,细颗粒物(PM2.5),130,84,102,99,113,32,6,5,5,34,42,5,6,1.3,1.4
2022-01-09T06:00:00,1836A,111.1587,34.7942,三门峡市,开发区,细颗粒物(PM2.5),153,112,112,117,119,43,5,11,6,28,34,5,6,1.6,1.6
2022-01-09T06:00:00,1838A,111.143,34.7955,三门峡市,风景区(对照点),细颗粒物(PM2.5),130,106,102,99,110,41,0,12,2,24,29,4,5,1.3,1.3
2022-01-09T06:00:00,1840A,111.2992,30.6981,宜昌市,白龙岗,细颗粒物(PM2.5),110,95,87,83,70,22,6,8,7,33,41,3,3,0.7,0.7
2022-01-09T06:00:00,1841A,111.3549,30.6465,宜昌市,伍家岗,细颗粒物(PM2.5),125,102,74,95,75,23,3,10,5,27,33,5,6,0.7,0.5
2022-01-09T06:00:00,1842A,111.2628,30.6961,宜昌市,点军区,细颗粒物(PM2.5),98,87,74,73,65,29,4,5,4,29,29,5,6,0.7,0.6
2022-01-09T06:00:00,1843A,111.3275,30.7819,宜昌市,夷陵区,细颗粒物(PM2.5),100,68,72,75,70,25,13,8,8,24,32,5,6,0.7,0.7
2022-01-09T06:00:00,1844A,112.2494,30.3197,荆州市,市图书馆,细颗粒物(PM2.5),67,68,73,48,54,22,4,16,12,40,38,7,8,1.0,0.9
2022-01-09T06:00:00,1845A,112.2008,30.3544,荆州市,市委党校,细颗粒物(PM2.5),87,72,80,64,63,29,10,17,14,34,36,13,8,1.2,1
2022-01-09T06:00:00,1847A,113.1094,29.3578,岳阳市,南湖风景区,细颗粒物(PM2.5),90,87,83,67,61,50,19,37,23,24,27,10,8,0.9,1
2022-01-09T06:00:00,1848A,113.1493,29.4251,岳阳市,城陵矶,细颗粒物(PM2.5),90,95,89,67,68,46,20,31,22,30,33,9,9,0.7,0.8
2022-01-09T06:00:00,1849A,113.1497,29.3575,岳阳市,开发区,细颗粒物(PM2.5),74,66,66,54,49,42,24,35,28,23,32,8,8,0.8,1
2022-01-09T06:00:00,1850A,113.2621,29.4758,岳阳市,云溪区,细颗粒物(PM2.5),79,78,81,58,59,41,15,28,20,27,29,7,7,0.8,0.9
2022-01-09T06:00:00,1851A,112.9943,29.4402,岳阳市,君山区,细颗粒物(PM2.5),109,82,84,82,74,42,13,18,12,30,26,6,5,0.5,0.8
2022-01-09T06:00:00,1852A,113.2117,29.355,岳阳市,金凤水库(对照点),细颗粒物(PM2.5),74,82,86,54,58,38,16,25,21,26,31,4,6,0.6,0.7
2022-01-09T06:00:00,1854A,111.6975,28.9703,常德市,市二中,细颗粒物(PM2.5),85,54,50,63,71,44,25,18,18,15,23,7,7,0.9,0.9
2022-01-09T06:00:00,1857A,111.7158,29.1456,常德市,白鹤山(对照点),细颗粒物(PM2.5),82,85,76,60,64,53,23,32,29,13,14,5,6,0.7,0.7
2022-01-09T06:00:00,1858A,110.5319,29.1217,张家界市,永定新区,细颗粒物(PM2.5),102,95,82,76,69,22,4,6,6,19,26,2,2,1.1,0.9
2022-01-09T06:00:00,1859A,110.4697,29.1242,张家界市,电业局,细颗粒物(PM2.5),73,55,55,53,51,36,23,25,24,13,21,3,4,1.2,1.2
2022-01-09T06:00:00,1860A,110.5594,29.3547,张家界市,未央路,,45,29,26,31,28,36,12,23,18,6,10,2,2,0.4,0.4
2022-01-09T06:00:00,1861A,110.4417,29.315,张家界市,袁家界(对照点),,24,24,22,7,24,88,26,37,32,17,16,5,5,0.6,0.6
2022-01-09T06:00:00,1862A,110.4144,25.3167,桂林市,电子科大尧山校区(对照点),,13,13,8,7,7,19,19,16,16,18,18,4,4,0.5,0.4
2022-01-09T06:00:00,1863A,110.2819,25.2697,桂林市,监测站,,16,10,12,11,7,22,12,13,12,14,19,4,4,0.8,0.8
2022-01-09T06:00:00,1864A,110.3089,25.2708,桂林市,龙隐路小学,,16,13,10,11,11,23,13,16,14,18,21,5,5,0.8,0.8
2022-01-09T06:00:00,1865A,110.2869,25.2178,桂林市,八中,,13,10,13,9,12,20,12,15,12,19,23,5,5,0.8,0.8
2022-01-09T06:00:00,1866A,109.2262,21.588,北海市,牛尾岭水库(对照点),,42,42,65,27,55,126,9,17,13,20,19,4,6,0.9,1
2022-01-09T06:00:00,1867A,109.1436,21.4086,北海市,海滩公园,,44,44,76,29,55,157,14,22,17,24,23,9,12,0.9,1
2022-01-09T06:00:00,1868A,109.0981,21.4661,北海市,新市环保局,,29,25,64,20,48,138,10,17,13,21,22,12,11,0.8,1
2022-01-09T06:00:00,1869A,109.1778,21.5233,北海市,北海工业园,,45,45,78,29,56,133,8,15,11,21,23,14,13,1.0,1.1
2022-01-09T06:00:00,1870A,109.4856,24.3895,柳州市,柳东小学,,9,5,8,3,9,26,25,24,24,5,7,15,9,0.9,0.9
2022-01-09T06:00:00,1871A,109.4157,24.3277,柳州市,环保监测站,,18,10,13,12,11,13,13,8,8,18,21,20,16,0.8,1
2022-01-09T06:00:00,1872A,109.389,24.341,柳州市,河西水厂,,41,41,41,17,17,19,13,17,15,17,19,19,20,0.8,1
2022-01-09T06:00:00,1873A,109.4311,24.2921,柳州市,市四中,,,10,14,,21,22,22,15,15,13,19,13,12,0.9,1.1
2022-01-09T06:00:00,1874A,109.4006,24.3631,柳州市,市九中,,18,12,15,12,12,20,20,17,17,12,18,13,12,0.8,1
2022-01-09T06:00:00,1875A,109.4958,24.3134,柳州市,古亭山,,9,3,8,5,6,22,22,20,20,6,10,9,6,0.9,1
2022-01-09T06:00:00,1876A,109.5078,18.2489,三亚市,河东子站,,26,21,28,11,13,94,83,84,84,4,6,2,2,0.4,0.5
2022-01-09T06:00:00,1877A,109.4964,18.2681,三亚市,河西子站,,25,22,25,10,12,94,79,82,80,4,7,3,3,0.4,0.4
2022-01-09T06:00:00,1878A,104.7778,31.4741,绵阳市,富乐山,细颗粒物(PM2.5),78,76,71,57,54,26,3,4,4,20,35,5,5,1.0,1
2022-01-09T06:00:00,1879A,104.7563,31.4535,绵阳市,市人大,细颗粒物(PM2.5),82,84,81,60,60,33,5,9,7,27,41,2,3,1.3,1.4
2022-01-09T06:00:00,1880A,104.6697,31.4668,绵阳市,高新区自来水公司,细颗粒物(PM2.5),112,116,106,84,71,25,1,2,2,28,35,8,7,1.2,1.1
2022-01-09T06:00:00,1881A,104.7287,31.5075,绵阳市,三水厂,细颗粒物(PM2.5),92,114,103,68,68,24,0,1,1,19,34,8,8,0.8,0.9
2022-01-09T06:00:00,1882A,104.563,28.793,宜宾市,石马中学(对照点),细颗粒物(PM2.5),109,98,137,82,118,16,0,0,0,35,39,10,9,0.9,1
2022-01-09T06:00:00,1883A,104.6201,28.7728,宜宾市,市委,细颗粒物(PM2.5),99,95,131,74,105,13,0,0,0,41,42,13,11,1.0,1
2022-01-09T06:00:00,1884A,104.6055,28.793,宜宾市,宜宾四中,细颗粒物(PM2.5),90,86,128,67,107,13,0,2,1,40,42,14,11,1.1,1
2022-01-09T06:00:00,1885A,104.639,28.7562,宜宾市,市政府,细颗粒物(PM2.5),89,78,112,66,95,15,0,0,0,40,45,7,8,0.9,0.9
2022-01-09T06:00:00,1886A,104.5742,28.7199,宜宾市,黄金嘴,细颗粒物(PM2.5),100,99,135,75,105,17,2,0,0,31,40,6,7,0.9,1
2022-01-09T06:00:00,1888A,101.6891,26.571,攀枝花市,弄弄坪,细颗粒物(PM2.5),84,65,70,62,56,107,4,42,17,42,41,12,17,1.6,1.8
2022-01-09T06:00:00,1889A,101.5769,26.5928,攀枝花市,河门口,细颗粒物(PM2.5),77,85,72,56,44,115,8,21,15,48,39,13,27,2.3,2
2022-01-09T06:00:00,1890A,101.7169,26.585,攀枝花市,炳草岗,细颗粒物(PM2.5),138,109,85,105,68,94,3,4,4,65,69,17,31,2.1,2.4
2022-01-09T06:00:00,1891A,101.7369,26.5008,攀枝花市,仁和,细颗粒物(PM2.5),60,50,65,43,50,121,19,29,26,27,35,6,23,1.2,1.8
2022-01-09T06:00:00,1893A,105.4324,28.9634,泸州市,九狮山(对照点),细颗粒物(PM2.5),62,49,52,44,52,22,4,4,4,24,38,5,8,0.5,0.6
2022-01-09T06:00:00,1894A,105.4427,28.9063,泸州市,小市上码头,细颗粒物(PM2.5),72,65,63,52,59,15,4,4,4,34,48,11,16,1.1,1.1
2022-01-09T06:00:00,1895A,105.4241,28.8573,泸州市,兰田宪桥,细颗粒物(PM2.5),72,60,52,52,39,12,2,2,2,31,45,9,11,0.8,0.9
2022-01-09T06:00:00,1896A,105.4379,28.8833,泸州市,市环监站,细颗粒物(PM2.5),73,75,65,53,55,24,12,12,12,34,48,6,9,1.0,1
2022-01-09T06:00:00,1901A,104.4239,31.1208,德阳市,东山公园,细颗粒物(PM2.5),103,103,89,77,71,15,2,2,2,58,45,5,5,1.0,0.9
2022-01-09T06:00:00,1902A,104.3826,31.1317,德阳市,西小区,细颗粒物(PM2.5),114,117,104,86,76,3,1,1,1,30,45,6,5,1.2,1.2
2022-01-09T06:00:00,1904A,104.3553,31.1091,德阳市,耐火材料厂,细颗粒物(PM2.5),124,118,114,94,78,12,1,2,1,31,50,7,6,1.2,1.1
2022-01-09T06:00:00,1905A,106.056,30.8064,南充市,西山风景区(对照点),细颗粒物(PM2.5),55,42,60,39,45,65,6,65,36,5,19,7,3,0.9,0.9
2022-01-09T06:00:00,1906A,106.0789,30.8023,南充市,南充市委,细颗粒物(PM2.5),89,69,76,66,58,30,21,21,21,12,21,4,5,0.8,0.9
2022-01-09T06:00:00,1907A,106.1031,30.8217,南充市,南充炼油厂,颗粒物(PM10),55,60,73,32,47,38,6,18,14,4,22,5,3,0.8,0.9
2022-01-09T06:00:00,1908A,106.1064,30.7856,南充市,高坪区监测站,颗粒物(PM10),51,51,74,27,53,45,4,19,11,4,19,5,6,0.8,0.9
2022-01-09T06:00:00,1909A,106.0642,30.7636,南充市,嘉陵区环保局,颗粒物(PM10),55,59,65,29,40,36,5,20,14,4,23,7,6,0.9,1
2022-01-09T06:00:00,1910A,106.1087,30.8388,南充市,市环境监测站,细颗粒物(PM2.5),65,67,67,47,51,34,5,18,12,5,23,6,3,0.7,0.8
2022-01-09T06:00:00,1911A,106.9222,27.6869,遵义市,丁字口,细颗粒物(PM2.5),53,52,37,37,29,30,7,5,5,19,25,17,19,1.0,1
2022-01-09T06:00:00,1912A,106.9242,27.7019,遵义市,凤凰山,颗粒物(PM10),51,51,40,25,25,28,5,6,5,18,23,6,8,0.9,0.9
2022-01-09T06:00:00,1913A,106.8906,27.6486,遵义市,忠庄,"颗粒物(PM10),细颗粒物(PM2.5)",52,54,42,36,26,26,5,5,5,20,26,12,11,1.0,1
2022-01-09T06:00:00,1914A,106.9231,27.6506,遵义市,舟水桥,,43,40,33,30,26,31,8,7,7,18,21,19,21,0.9,0.9
2022-01-09T06:00:00,1915A,106.9178,27.72,遵义市,干田坝,颗粒物(PM10),62,74,45,40,27,32,1,1,1,21,24,15,12,1.2,1.1
2022-01-09T06:00:00,1916A,103.7897,25.5035,曲靖市,环境监测站,,15,13,40,10,22,58,12,14,12,23,28,7,8,1.3,1
2022-01-09T06:00:00,1917A,103.8,25.5364,曲靖市,烟厂办公区,,18,9,29,12,21,59,11,8,8,18,24,5,11,1.2,1.1
2022-01-09T06:00:00,1918A,108.7197,34.3956,咸阳市,气象站(对照点),细颗粒物(PM2.5),168,136,133,127,127,37,4,4,4,33,32,5,7,2.2,2.1
2022-01-09T06:00:00,1919A,108.673,34.3155,咸阳市,实验中学,细颗粒物(PM2.5),176,112,113,133,128,39,5,5,5,35,33,8,9,1.6,1.4
2022-01-09T06:00:00,1920A,108.7233,34.3617,咸阳市,师范学院,细颗粒物(PM2.5),192,125,116,144,135,38,3,3,3,39,35,7,8,1.9,1.8
2022-01-09T06:00:00,1922A,109.0656,35.0994,铜川市,党校(对照点),细颗粒物(PM2.5),98,77,94,73,98,51,7,6,6,30,38,9,13,0.9,1.3
2022-01-09T06:00:00,1923A,109.0697,35.0697,铜川市,王益区政府,细颗粒物(PM2.5),97,73,110,72,100,49,10,8,8,35,42,5,9,0.9,1.3
2022-01-09T06:00:00,1924A,108.9344,34.9058,铜川市,新区管委会,细颗粒物(PM2.5),104,80,121,78,114,54,28,17,17,15,29,6,10,1.0,1.5
2022-01-09T06:00:00,1926A,109.4131,36.6275,延安市,枣园(对照点),细颗粒物(PM2.5),75,62,69,55,69,96,11,8,8,31,37,2,4,1.0,1.2
2022-01-09T06:00:00,1927A,109.4761,36.6028,延安市,延大医附院,细颗粒物(PM2.5),80,54,72,59,76,95,6,4,4,31,39,4,5,1.2,1.4
2022-01-09T06:00:00,1929A,109.5056,36.6106,延安市,百米大道,细颗粒物(PM2.5),80,63,76,59,80,93,5,5,5,45,42,4,5,1.5,1.5
2022-01-09T06:00:00,1930A,107.185,34.3063,宝鸡市,庙沟村(对照点),细颗粒物(PM2.5),85,51,68,63,73,61,24,39,30,16,19,4,4,0.9,1
2022-01-09T06:00:00,1931A,107.0708,34.3017,宝鸡市,竹园沟,细颗粒物(PM2.5),55,28,86,39,86,61,11,20,14,12,19,4,6,0.8,1.2
2022-01-09T06:00:00,1932A,107.1906,34.3672,宝鸡市,三陆医院,细颗粒物(PM2.5),103,88,111,77,101,62,11,11,10,19,32,5,6,1.3,1.5
2022-01-09T06:00:00,1933A,107.1431,34.3547,宝鸡市,监测站,细颗粒物(PM2.5),82,53,90,60,93,60,7,8,8,21,30,4,4,1.0,1.3
2022-01-09T06:00:00,1934A,107.1186,34.3739,宝鸡市,技工学校,细颗粒物(PM2.5),88,72,95,65,85,65,10,19,13,17,24,16,6,0.9,1
2022-01-09T06:00:00,1935A,107.3906,34.3528,宝鸡市,陈仓区环保局家属楼,细颗粒物(PM2.5),137,123,132,104,112,54,5,5,5,30,39,29,9,3.1,1.9
2022-01-09T06:00:00,1936A,107.2058,34.3497,宝鸡市,文理学院,细颗粒物(PM2.5),90,69,102,67,95,54,4,14,8,23,29,6,7,0.9,1.1
2022-01-09T06:00:00,1937A,107.2386,34.3622,宝鸡市,三迪小学,细颗粒物(PM2.5),97,84,110,72,98,52,8,10,9,22,35,4,5,1.0,1.3
2022-01-09T06:00:00,1938A,109.5293,34.5101,渭南市,农科所(对照点),细颗粒物(PM2.5),73,75,104,53,82,43,3,6,4,26,27,4,5,1.4,1.4
2022-01-09T06:00:00,1939A,109.4974,34.4877,渭南市,日报社,细颗粒物(PM2.5),77,78,100,56,86,40,11,19,10,31,33,7,9,0.8,1
2022-01-09T06:00:00,1940A,109.4636,34.493,渭南市,体育馆,细颗粒物(PM2.5),74,68,98,54,85,49,5,11,10,32,27,5,4,1.1,1.2
2022-01-09T06:00:00,1941A,109.4259,34.5023,渭南市,高新一小,细颗粒物(PM2.5),95,92,106,71,97,58,6,6,6,26,27,9,10,1.6,1.3
2022-01-09T06:00:00,1943A,102.1725,38.5339,金昌市,新川苑,颗粒物(PM10),63,76,100,37,53,88,54,49,46,15,30,5,10,0.7,0.9
2022-01-09T06:00:00,1944A,102.1692,38.5167,金昌市,天庆家园,颗粒物(PM10),72,93,112,40,47,88,55,43,43,18,32,9,13,0.9,1
2022-01-09T06:00:00,1945A,98.2908,39.7711,嘉峪关市,气象局,颗粒物(PM10),68,85,120,41,54,81,60,32,32,21,45,21,24,0.6,1
2022-01-09T06:00:00,1947A,106.3394,38.817,石嘴山市,沙湖旅游区(对照点),细颗粒物(PM2.5),246,210,277,196,207,46,4,4,4,54,42,14,15,2.9,2
2022-01-09T06:00:00,1948A,106.3668,39.0145,石嘴山市,大武口朝阳西街,细颗粒物(PM2.5),330,346,351,280,270,46,1,2,2,68,80,31,24,3.6,3.7
2022-01-09T06:00:00,1949A,106.7704,39.2282,石嘴山市,惠农南大街,细颗粒物(PM2.5),269,256,266,219,208,46,3,3,3,57,68,30,34,2.4,2.4
2022-01-09T06:00:00,1950A,106.7099,39.1325,石嘴山市,红果子镇惠新街,细颗粒物(PM2.5),264,233,245,214,209,47,8,12,11,11,33,16,29,2.0,2.1
2022-01-09T06:00:00,1951A,84.895,45.6094,克拉玛依市,长征新村,细颗粒物(PM2.5),208,271,269,158,164,53,26,13,13,52,55,14,8,1.4,1.5
2022-01-09T06:00:00,1952A,84.8988,45.5893,克拉玛依市,南林小区,细颗粒物(PM2.5),203,295,292,153,159,48,11,11,11,55,47,12,11,1.4,1.4
2022-01-09T06:00:00,1954A,84.905,44.3396,克拉玛依市,独山子区,细颗粒物(PM2.5),143,174,135,109,77,103,33,25,24,41,53,5,5,1.1,1.1
2022-01-09T06:00:00,1955A,85.6979,46.098,克拉玛依市,乌尔禾区商贸楼,细颗粒物(PM2.5),214,236,235,164,163,59,10,24,14,55,46,8,8,1.4,1.4
2022-01-09T06:00:00,1956A,86.1472,41.7538,巴音郭楞州,孔雀公园,细颗粒物(PM2.5),105,122,142,79,83,94,4,7,6,93,72,3,5,0.9,0.9
2022-01-09T06:00:00,1957A,86.1972,41.7166,巴音郭楞州,棉纺厂,细颗粒物(PM2.5),97,131,135,72,73,79,27,16,12,40,53,3,5,0.8,0.8
2022-01-09T06:00:00,1958A,86.2357,41.7173,巴音郭楞州,经济开发区,颗粒物(PM10),87,123,132,59,66,82,40,48,45,19,29,1,2,0.7,0.8
2022-01-09T06:00:00,1961A,117.532,36.6868,济南市,东山小学,细颗粒物(PM2.5),189,181,154,142,114,78,2,1,1,52,60,7,10,1.6,1.2
2022-01-09T06:00:00,1966A,120.0405,35.8735,青岛市,黄岛区4号,细颗粒物(PM2.5),201,188,144,151,108,94,5,18,9,68,71,10,13,1.7,1.5
2022-01-09T06:00:00,1982A,122.0693,37.2174,威海市,文登开发区,,19,17,112,7,84,90,58,61,60,17,38,3,6,0.5,1
2022-01-09T06:00:00,2031A,113.1817,27.9958,株洲市,云田中学,细颗粒物(PM2.5),93,70,44,69,44,38,38,28,28,21,31,4,5,0.4,0.5
2022-01-09T06:00:00,2054A,114.1099,32.1059,信阳市,平桥分局,细颗粒物(PM2.5),80,57,78,59,69,71,37,38,38,21,33,5,6,0.8,0.9
2022-01-09T06:00:00,2064A,113.9956,32.1271,信阳市,南湾水厂,细颗粒物(PM2.5),78,59,76,57,69,87,43,50,46,18,19,6,6,0.7,0.7
2022-01-09T06:00:00,2065A,114.0775,32.1195,信阳市,市酿酒公司,细颗粒物(PM2.5),87,58,82,64,75,67,28,38,32,19,29,7,9,0.6,0.8
2022-01-09T06:00:00,2066A,114.0609,32.1399,信阳市,审计局,细颗粒物(PM2.5),88,60,93,65,81,59,31,39,29,32,38,19,9,1.0,0.9
2022-01-09T06:00:00,2067A,114.6613,33.6128,周口市,市环境监测站,细颗粒物(PM2.5),82,55,115,60,108,63,13,24,16,29,33,8,6,0.7,1
2022-01-09T06:00:00,2068A,114.6758,33.6347,周口市,周口师范,细颗粒物(PM2.5),78,47,108,57,105,70,21,27,24,22,29,5,7,0.9,1
2022-01-09T06:00:00,2069A,114.6546,33.5979,周口市,市运管处,细颗粒物(PM2.5),77,54,114,56,105,64,23,25,23,23,29,5,6,0.7,0.9
2022-01-09T06:00:00,2075A,117.6336,24.4674,漳州市,九湖(对照点),,39,39,57,22,33,117,40,71,59,22,25,5,9,0.5,0.6
2022-01-09T06:00:00,2160A,112.85,35.5051,晋城市,自来水公司,细颗粒物(PM2.5),156,153,167,119,129,75,3,4,3,55,50,26,16,3.0,2.5
2022-01-09T06:00:00,2161A,112.8318,35.4936,晋城市,白云商贸,细颗粒物(PM2.5),144,137,160,110,121,68,1,2,2,55,49,12,15,2.5,2.8
2022-01-09T06:00:00,2162A,112.8508,35.4887,晋城市,市环保局,细颗粒物(PM2.5),149,134,129,114,127,74,4,4,4,42,43,26,18,2.1,2.2
2022-01-09T06:00:00,2163A,112.8676,35.4897,晋城市,技术学院,细颗粒物(PM2.5),140,146,166,107,118,68,5,5,5,47,50,23,13,2.5,2.3
2022-01-09T06:00:00,2165A,112.8453,35.546,晋城市,白马寺 (对照点),细颗粒物(PM2.5),195,227,154,146,103,76,8,31,19,55,39,26,15,4.1,2.2
2022-01-09T06:00:00,2166A,112.4397,39.3522,朔州市,平朔,细颗粒物(PM2.5),132,122,168,100,121,69,5,3,3,59,65,13,22,1.1,1.3
2022-01-09T06:00:00,2167A,112.4575,39.3617,朔州市,朔唯,细颗粒物(PM2.5),130,175,187,99,112,76,1,1,1,66,64,27,27,1.2,1.2
2022-01-09T06:00:00,2168A,112.4258,39.3197,朔州市,区政府,细颗粒物(PM2.5),128,148,160,97,107,62,6,8,6,56,60,14,22,1.1,1.1
2022-01-09T06:00:00,2169A,112.4072,39.3278,朔州市,市环保局,细颗粒物(PM2.5),98,137,159,73,100,58,10,7,7,47,54,8,16,0.8,1.3
2022-01-09T06:00:00,2170A,112.4272,39.3681,朔州市,市二中,细颗粒物(PM2.5),118,129,176,89,109,68,6,5,4,62,63,15,18,1.5,1.4
2022-01-09T06:00:00,2171A,112.7532,37.6945,晋中市,锦纶小区,细颗粒物(PM2.5),145,108,125,111,124,33,5,4,4,47,58,13,22,1.3,1.4
2022-01-09T06:00:00,2173A,112.7249,37.7067,晋中市,南都小区,细颗粒物(PM2.5),158,123,135,120,128,29,5,5,5,51,57,14,20,1.5,1.5
2022-01-09T06:00:00,2174A,112.6991,37.6982,晋中市,榆次区政府,细颗粒物(PM2.5),150,124,140,115,128,27,3,3,3,52,64,14,23,1.2,1.6
2022-01-09T06:00:00,2175A,110.9956,35.0147,运城市,运城中学,细颗粒物(PM2.5),183,163,141,138,121,51,6,25,17,33,29,7,16,1.9,1.2
2022-01-09T06:00:00,2178A,110.9686,35.0303,运城市,地区技校,细颗粒物(PM2.5),150,138,137,115,112,47,4,16,10,39,35,5,5,1.9,1.4
2022-01-09T06:00:00,2181A,112.7383,38.4519,忻州市,开发区,细颗粒物(PM2.5),142,134,173,108,130,47,3,3,3,49,62,12,17,1.5,1.8
2022-01-09T06:00:00,2182A,112.7003,38.4928,忻州市,会展中心,细颗粒物(PM2.5),199,180,183,149,144,35,3,4,3,56,64,15,16,1.6,1.6
2022-01-09T06:00:00,2183A,111.1406,37.5211,吕梁市,环保局,细颗粒物(PM2.5),90,116,125,67,63,27,0,0,0,46,57,15,17,0.9,0.9
2022-01-09T06:00:00,2185A,111.1297,37.5136,吕梁市,自来水公司,颗粒物(PM10),117,184,149,83,69,25,5,5,5,46,54,15,15,0.9,0.9
2022-01-09T06:00:00,2187A,106.8174,39.6973,乌海市,市林业局,细颗粒物(PM2.5),199,233,195,149,129,105,3,13,6,83,70,21,31,2.3,2.2
2022-01-09T06:00:00,2188A,106.7907,39.6667,乌海市,中海勃湾学校,细颗粒物(PM2.5),224,246,217,174,139,104,5,5,5,71,68,17,35,2.8,2.3
2022-01-09T06:00:00,2191A,122.2532,43.6801,通辽市,艺术职业学校,细颗粒物(PM2.5),69,55,83,50,78,79,33,57,46,26,31,9,10,0.5,0.6
2022-01-09T06:00:00,2192A,119.7594,49.2261,呼伦贝尔市,区环保局,,25,25,30,14,20,59,58,57,57,8,16,5,6,0.2,0.4
2022-01-09T06:00:00,2195A,107.4212,40.761,巴彦淖尔市,附二中,细颗粒物(PM2.5),223,259,265,173,167,84,4,6,4,46,58,340,42,1.8,2
2022-01-09T06:00:00,2196A,107.37,40.7372,巴彦淖尔市,市环保大楼,细颗粒物(PM2.5),232,226,214,182,160,88,4,25,9,49,52,11,18,2.3,1.9
2022-01-09T06:00:00,2197A,113.1306,40.9923,乌兰察布市,集宁新区,细颗粒物(PM2.5),70,62,68,51,48,73,19,8,8,55,54,17,25,0.9,0.9
2022-01-09T06:00:00,2200A,122.0392,46.0656,兴安盟,胜华新制药厂,细颗粒物(PM2.5),53,51,58,37,49,51,22,30,23,20,20,5,8,0.8,0.7
2022-01-09T06:00:00,2201A,121.9504,46.0741,兴安盟,科右前旗环保局,,33,29,50,23,38,60,42,41,40,13,18,5,9,0.6,0.6
2022-01-09T06:00:00,2202A,116.1042,43.9317,锡林郭勒盟,市环保监测站,,14,10,16,2,6,65,43,42,42,7,17,9,9,0.3,0.2
2022-01-09T06:00:00,2203A,116.0781,43.9311,锡林郭勒盟,市政府,,19,6,11,3,4,66,59,46,46,6,18,7,7,0.2,0.4
2022-01-09T06:00:00,2204A,105.6467,38.8363,阿拉善盟,西城区西花园(对照点),颗粒物(PM10),66,81,128,45,92,131,82,77,77,26,36,5,9,0.8,1.2
2022-01-09T06:00:00,2205A,105.6985,38.8411,阿拉善盟,蒙二幼,细颗粒物(PM2.5),59,48,112,42,92,133,81,83,82,17,28,8,13,0.6,0.9
2022-01-09T06:00:00,2206A,105.724,38.8516,阿拉善盟,环保局新楼,细颗粒物(PM2.5),64,53,87,46,74,128,108,111,108,19,29,5,8,0.4,0.7
2022-01-09T06:00:00,2207A,121.6094,41.998,阜新市,工业园区,颗粒物(PM10),67,83,72,35,37,73,21,24,24,46,34,12,11,0.8,0.7
2022-01-09T06:00:00,2208A,121.6697,42.0279,阜新市,长青街,细颗粒物(PM2.5),70,78,56,51,31,74,5,11,7,51,35,13,17,1.1,0.7
2022-01-09T06:00:00,2209A,121.6673,42.0705,阜新市,农业园区,细颗粒物(PM2.5),139,126,35,106,28,72,13,51,34,53,16,92,16,1.6,0.5
2022-01-09T06:00:00,2210A,121.6717,42.0224,阜新市,东苑,细颗粒物(PM2.5),77,90,80,56,37,73,6,16,8,41,29,15,25,1.5,0.9
2022-01-09T06:00:00,2211A,121.6506,42.0498,阜新市,玉龙新城,颗粒物(PM10),51,51,51,32,31,77,10,11,10,39,31,8,13,1.1,0.8
2022-01-09T06:00:00,2212A,123.2,41.1953,辽阳市,宏伟区,细颗粒物(PM2.5),198,182,108,148,88,64,7,24,14,49,34,9,10,1.7,1.3
2022-01-09T06:00:00,2213A,123.1683,41.2495,辽阳市,新华园,细颗粒物(PM2.5),212,168,109,162,100,62,7,32,17,73,48,17,17,1.6,1.2
2022-01-09T06:00:00,2214A,123.2354,41.2639,辽阳市,滨河路,细颗粒物(PM2.5),224,199,110,174,106,66,6,27,12,54,36,13,13,1.7,1.1
2022-01-09T06:00:00,2215A,123.149,41.2991,辽阳市,铁西工业园,细颗粒物(PM2.5),180,224,150,136,72,63,4,19,8,59,38,13,12,1.7,1.1
2022-01-09T06:00:00,2216A,123.8139,42.3022,铁岭市,汇工街西,细颗粒物(PM2.5),236,172,134,186,138,65,5,10,6,38,31,10,7,0.6,0.5
2022-01-09T06:00:00,2217A,123.8649,42.2923,铁岭市,水上乐园,细颗粒物(PM2.5),205,198,172,155,131,71,23,32,27,41,44,2,5,1.2,1.1
2022-01-09T06:00:00,2218A,123.8486,42.2867,铁岭市,银州路东段,细颗粒物(PM2.5),213,188,162,163,133,68,21,29,22,42,46,4,7,1.0,0.9
2022-01-09T06:00:00,2219A,123.7153,42.2217,铁岭市,金沙江路北,细颗粒物(PM2.5),215,196,144,165,125,67,5,29,15,50,37,4,5,1.3,1.1
2022-01-09T06:00:00,2220A,120.4318,41.5881,朝阳市,西梁,细颗粒物(PM2.5),69,84,73,50,37,75,16,19,16,39,29,24,22,1.5,1.1
2022-01-09T06:00:00,2221A,120.4521,41.5646,朝阳市,河畔小区,,40,39,50,28,28,71,6,10,8,41,28,7,9,0.9,0.7
2022-01-09T06:00:00,2222A,120.4176,41.5648,朝阳市,八里堡,颗粒物(PM10),59,68,58,36,30,72,6,7,6,36,27,12,16,0.8,0.7
2022-01-09T06:00:00,2223A,120.3806,41.5969,朝阳市,农业园区,,48,47,43,33,26,83,17,22,20,38,28,8,12,1.1,0.8
2022-01-09T06:00:00,2225A,124.4002,43.1713,四平市,一商场,细颗粒物(PM2.5),87,100,135,64,85,76,48,30,30,33,43,14,10,0.7,1
2022-01-09T06:00:00,2226A,124.388,43.193,四平市,境园,细颗粒物(PM2.5),83,94,124,61,96,77,15,17,16,53,46,14,13,1.1,1.4
2022-01-09T06:00:00,2227A,125.1358,42.8845,辽源市,环保局,细颗粒物(PM2.5),144,125,107,110,95,57,16,30,18,38,32,9,17,0.8,0.8
2022-01-09T06:00:00,2229A,125.9358,41.7173,通化市,光明,细颗粒物(PM2.5),102,94,130,76,94,54,17,44,31,35,38,13,34,0.9,1.8
2022-01-09T06:00:00,2230A,125.9446,41.7325,通化市,铁路,细颗粒物(PM2.5),90,89,119,67,88,55,15,44,30,36,35,12,30,1.3,2
2022-01-09T06:00:00,2231A,126.4219,41.9171,白山市,喜丰,细颗粒物(PM2.5),115,143,140,87,75,55,22,32,28,50,46,34,39,1.2,1.4
2022-01-09T06:00:00,2232A,126.4077,41.9419,白山市,环保局,细颗粒物(PM2.5),117,182,132,88,80,62,20,33,31,47,42,14,25,1.4,1.7
2022-01-09T06:00:00,2233A,124.8006,45.1214,松原市,江南,细颗粒物(PM2.5),70,79,124,51,77,50,30,21,21,30,37,12,12,1.0,1.2
2022-01-09T06:00:00,2234A,124.7965,45.1722,松原市,江北,细颗粒物(PM2.5),73,72,102,53,75,60,32,17,17,28,34,9,9,0.5,0.7
2022-01-09T06:00:00,2235A,122.7911,45.6077,白城市,洮北区环保局,细颗粒物(PM2.5),89,80,84,66,68,53,27,23,23,21,33,11,11,0.5,0.6
2022-01-09T06:00:00,2236A,122.8738,45.5725,白城市,市环保局,细颗粒物(PM2.5),89,76,87,66,72,52,1,14,9,44,37,12,15,0.8,0.7
2022-01-09T06:00:00,2237A,129.47,42.8883,延边朝鲜族自治州,妇幼医院,细颗粒物(PM2.5),77,54,69,56,57,76,52,69,61,23,29,22,29,0.8,0.9
2022-01-09T06:00:00,2238A,129.5055,42.9108,延边朝鲜族自治州,延边医院,细颗粒物(PM2.5),65,53,82,47,59,76,54,72,68,25,29,15,14,0.8,1
2022-01-09T06:00:00,2239A,129.3964,42.8881,延边朝鲜族自治州,朝阳川镇医院,细颗粒物(PM2.5),72,60,58,52,50,81,59,80,68,19,21,10,14,0.8,0.8
2022-01-09T06:00:00,2240A,130.9762,45.3001,鸡西市,环保局,,33,29,55,23,40,55,39,50,44,28,35,4,8,0.3,0.4
2022-01-09T06:00:00,2243A,130.9429,45.3039,鸡西市,第一中学,,38,35,55,26,35,57,39,50,40,28,32,14,14,0.3,0.4
2022-01-09T06:00:00,2244A,130.2537,47.3416,鹤岗市,哈啤分公司,,26,17,24,18,19,64,49,58,56,14,6,29,9,0.7,0.4
2022-01-09T06:00:00,2245A,130.2684,47.3086,鹤岗市,斯达机电,,28,28,28,13,17,61,55,53,53,11,7,6,6,0.3,0.3
2022-01-09T06:00:00,2246A,130.3114,47.3388,鹤岗市,东山纸板厂,细颗粒物(PM2.5),62,71,46,44,26,64,18,31,27,30,16,8,8,2.3,1
2022-01-09T06:00:00,2248A,131.1511,46.6937,双鸭山市,双合村,细颗粒物(PM2.5),117,103,71,88,44,55,29,19,19,23,19,13,13,1.0,1
2022-01-09T06:00:00,2249A,131.1652,46.6191,双鸭山市,南小市,,42,39,34,29,25,64,46,54,50,16,15,14,5,0.6,0.6
2022-01-09T06:00:00,2250A,131.1524,46.6554,双鸭山市,环保局,,47,47,43,27,32,57,43,30,30,15,22,4,4,0.4,0.4
2022-01-09T06:00:00,2251A,131.12,46.5656,双鸭山市,苗圃(对照点),细颗粒物(PM2.5),57,43,42,40,34,60,46,51,49,14,12,5,8,0.8,0.8
2022-01-09T06:00:00,2252A,128.5159,47.4311,伊春市,环保局,,29,28,23,20,14,47,24,36,29,14,12,4,8,0.4,0.4
2022-01-09T06:00:00,2253A,128.9102,47.7412,伊春市,电力嘉园,,34,34,37,14,20,44,20,17,17,14,17,5,7,0.5,0.3
2022-01-09T06:00:00,2254A,129.5029,48.471,伊春市,汤旺河国家公园(对照点),,10,6,7,4,5,46,30,35,33,1,2,5,6,0,0.1
2022-01-09T06:00:00,2255A,130.2751,46.8028,佳木斯市,佳纺,,45,34,52,31,44,56,40,25,25,17,27,18,19,0.5,0.6
2022-01-09T06:00:00,2256A,130.3995,46.8307,佳木斯市,发电厂,,46,36,40,32,29,61,12,14,13,42,23,8,10,0.6,0.6
2022-01-09T06:00:00,2257A,130.3258,46.7975,佳木斯市,环保局,,30,30,55,16,37,49,33,31,31,24,30,8,13,1.4,0.8
2022-01-09T06:00:00,2258A,130.3648,46.8032,佳木斯市,十一中,,28,24,44,19,29,57,41,31,31,22,30,5,11,0.5,0.6
2022-01-09T06:00:00,2259A,130.3794,46.7588,佳木斯市,四丰(对照点),颗粒物(PM10),70,89,78,25,26,48,37,48,42,15,14,11,10,0.6,0.5
2022-01-09T06:00:00,2262A,131.0518,45.8751,七台河市,新一中(对照点),,33,31,52,23,36,64,42,45,43,13,15,6,7,0.6,0.6
2022-01-09T06:00:00,2263A,127.4833,50.2524,黑河市,交通局,,20,15,20,14,17,56,39,45,43,11,18,5,7,0.5,0.6
2022-01-09T06:00:00,2264A,127.5144,50.2341,黑河市,环保局,,23,17,26,16,21,54,45,41,41,8,19,5,9,0.3,0.5
2022-01-09T06:00:00,2265A,127.5291,50.2472,黑河市,大黑河岛(对照点),,32,32,15,7,12,52,34,41,37,13,15,4,7,0.4,0.5
2022-01-09T06:00:00,2266A,126.9785,46.6365,绥化市,人和东街,细颗粒物(PM2.5),84,66,42,62,29,43,35,41,33,21,17,6,10,0.7,0.5
2022-01-09T06:00:00,2267A,126.964,46.6528,绥化市,党政办公中心,细颗粒物(PM2.5),80,59,43,59,34,47,37,36,35,19,16,8,9,0.5,0.4
2022-01-09T06:00:00,2269A,124.1069,50.4097,大兴安岭地区,科技局,,42,34,30,29,24,45,26,30,30,21,19,19,11,0.2,0.2
2022-01-09T06:00:00,2270A,117.396,32.939,蚌埠市,工人疗养院,细颗粒物(PM2.5),139,137,135,106,107,95,1,67,27,79,60,7,14,0.7,0.8
2022-01-09T06:00:00,2271A,117.3605,32.9427,蚌埠市,百货大楼,细颗粒物(PM2.5),134,157,159,102,100,96,8,82,39,77,61,4,9,0.8,0.8
2022-01-09T06:00:00,2273A,117.4185,32.8911,蚌埠市,蚌埠学院,细颗粒物(PM2.5),117,117,117,88,86,102,11,22,18,64,56,8,12,0.6,0.6
2022-01-09T06:00:00,2274A,117.3533,32.9673,蚌埠市,淮上区政府,细颗粒物(PM2.5),125,127,132,95,99,104,4,61,33,79,57,8,15,0.6,0.6
2022-01-09T06:00:00,2275A,117.3145,32.8977,蚌埠市,高新区,细颗粒物(PM2.5),168,144,123,127,100,104,10,48,23,65,55,6,9,0.7,0.7
2022-01-09T06:00:00,2277A,116.8305,32.7727,淮南市,潘集区政府,细颗粒物(PM2.5),195,179,174,146,138,111,28,42,36,37,37,4,7,0.8,0.8
2022-01-09T06:00:00,2278A,117.0067,32.6524,淮南市,师范学院,细颗粒物(PM2.5),147,143,161,112,115,108,36,46,44,42,49,9,11,0.7,0.8
2022-01-09T06:00:00,2279A,116.8569,32.5951,淮南市,谢家集区政府,细颗粒物(PM2.5),173,161,158,131,127,105,27,47,38,54,47,11,13,0.8,0.8
2022-01-09T06:00:00,2280A,116.8281,32.633,淮南市,八公山区政府,细颗粒物(PM2.5),165,155,148,125,137,100,24,48,37,34,32,9,12,0.6,0.8
2022-01-09T06:00:00,2281A,116.6325,32.6201,淮南市,焦岗湖风景区管理处(对照点),细颗粒物(PM2.5),170,150,143,129,117,118,8,38,21,64,46,8,9,0.8,0.9
2022-01-09T06:00:00,2282A,116.8004,33.975,淮北市,监测站,细颗粒物(PM2.5),156,161,163,119,125,87,9,29,18,42,42,3,5,1.5,1.4
2022-01-09T06:00:00,2283A,116.8091,33.9007,淮北市,烈山区政府,细颗粒物(PM2.5),182,194,183,137,131,100,0,2,1,68,56,6,9,1.1,1.1
2022-01-09T06:00:00,2284A,116.7856,33.9477,淮北市,职业技术学院,细颗粒物(PM2.5),204,204,178,154,138,86,0,13,5,62,44,6,7,1.4,1.3
2022-01-09T06:00:00,2285A,117.8177,30.9412,铜陵市,市第四中学,细颗粒物(PM2.5),90,72,97,67,71,80,57,66,63,33,48,4,8,0.9,0.9
2022-01-09T06:00:00,2286A,117.8059,30.9273,铜陵市,市公路局,细颗粒物(PM2.5),107,83,108,80,81,74,49,59,56,30,50,8,13,0.9,1
2022-01-09T06:00:00,2287A,117.7807,30.9413,铜陵市,市新民污水厂,细颗粒物(PM2.5),94,87,110,70,70,77,19,57,40,71,54,6,12,1.1,1.1
2022-01-09T06:00:00,2288A,117.7439,30.8792,铜陵市,市第九中学,细颗粒物(PM2.5),103,73,117,77,95,57,35,57,46,32,49,3,10,1.3,1.2
2022-01-09T06:00:00,2289A,117.846,30.9413,铜陵市,车站新区,细颗粒物(PM2.5),83,61,91,61,76,76,44,60,56,26,36,4,8,0.8,0.9
2022-01-09T06:00:00,2290A,117.8483,30.97,铜陵市,市职教基地,细颗粒物(PM2.5),65,75,93,47,56,71,51,60,56,24,38,8,11,0.8,0.8
2022-01-09T06:00:00,2291A,117.0809,30.5177,安庆市,环科院,细颗粒物(PM2.5),98,54,77,73,83,100,78,83,82,8,17,8,11,0.6,0.8
2022-01-09T06:00:00,2292A,117.0331,30.5119,安庆市,马山宾馆,细颗粒物(PM2.5),89,48,63,66,79,103,83,87,87,21,30,8,10,0.3,0.9
2022-01-09T06:00:00,2294A,116.9896,30.6145,安庆市,安庆大学,细颗粒物(PM2.5),89,72,99,66,79,102,76,79,77,14,20,6,7,0.6,0.6
2022-01-09T06:00:00,2295A,118.2903,29.6963,黄山市,延安路89号,细颗粒物(PM2.5),75,36,39,55,34,70,43,44,44,16,17,7,7,0.4,0.4
2022-01-09T06:00:00,2296A,118.327,29.7178,黄山市,黄山东路89号,细颗粒物(PM2.5),77,69,51,56,40,69,42,41,41,16,18,6,6,0.5,0.5
2022-01-09T06:00:00,2297A,118.1371,30.2756,黄山市,黄山区政府5号楼,细颗粒物(PM2.5),82,62,79,60,55,70,60,58,58,18,21,6,6,0.7,0.8
2022-01-09T06:00:00,2298A,118.3093,32.3153,滁州市,老年大学,细颗粒物(PM2.5),105,106,102,79,70,113,30,66,50,46,41,8,10,0.5,0.6
2022-01-09T06:00:00,2299A,118.3244,32.2786,滁州市,人大宾馆,细颗粒物(PM2.5),108,100,85,81,63,111,48,61,57,34,40,10,9,0.6,0.6
2022-01-09T06:00:00,2301A,115.8277,32.8929,阜阳市,市监测站,细颗粒物(PM2.5),104,84,145,78,124,101,65,56,48,16,37,8,10,0.7,1
2022-01-09T06:00:00,2303A,115.8554,32.8605,阜阳市,开发区,细颗粒物(PM2.5),105,79,169,79,126,102,59,36,36,27,38,5,7,0.7,1
2022-01-09T06:00:00,2307A,116.5079,31.737,六安市,监测大楼,细颗粒物(PM2.5),95,77,107,71,89,94,73,85,82,29,40,5,8,0.5,0.6
2022-01-09T06:00:00,2308A,116.4738,31.7643,六安市,皖西学院,细颗粒物(PM2.5),90,87,106,67,76,95,90,90,90,20,34,8,9,0.5,0.6
2022-01-09T06:00:00,2309A,116.4996,31.7905,六安市,朝阳厂,细颗粒物(PM2.5),97,90,105,72,85,100,76,90,86,35,40,7,8,0.7,0.7
2022-01-09T06:00:00,2310A,116.5567,31.7886,六安市,开发区,细颗粒物(PM2.5),89,87,121,66,87,105,59,90,78,24,33,5,7,0.5,0.6
2022-01-09T06:00:00,2311A,115.8072,33.8399,亳州市,污水处理厂,细颗粒物(PM2.5),145,147,150,111,111,83,2,7,3,38,39,4,5,1.0,1
2022-01-09T06:00:00,2312A,115.7789,33.8518,亳州市,三国揽胜宫,细颗粒物(PM2.5),153,166,170,117,113,81,3,3,3,47,38,4,5,0.9,1
2022-01-09T06:00:00,2314A,117.47,30.6618,池州市,池州学院,细颗粒物(PM2.5),105,89,120,79,94,79,53,60,57,26,34,12,12,0.8,0.9
2022-01-09T06:00:00,2316A,118.7581,30.9454,宣城市,鳌峰子站,细颗粒物(PM2.5),82,30,52,60,64,99,75,62,62,16,38,5,7,0.7,0.7
2022-01-09T06:00:00,2317A,118.7385,30.9743,宣城市,敬亭山子站,细颗粒物(PM2.5),84,29,57,62,69,106,66,62,62,14,38,5,9,0.6,0.7
2022-01-09T06:00:00,2318A,118.7173,30.9427,宣城市,开发区子站,细颗粒物(PM2.5),80,28,53,59,66,101,65,67,67,16,38,5,6,0.7,0.8
2022-01-09T06:00:00,2319A,119.0141,25.4325,莆田市,荔城区仓后路,,29,22,37,20,20,97,54,76,70,14,16,4,4,0.5,0.5
2022-01-09T06:00:00,2320A,119.0015,25.4553,莆田市,莆田市监测站,,28,20,29,19,19,97,50,74,68,8,12,3,4,0.7,0.6
2022-01-09T06:00:00,2321A,119.1119,25.4561,莆田市,涵江区六中,,29,27,33,20,21,103,48,80,60,24,17,5,5,0.6,0.5
2022-01-09T06:00:00,2322A,119.1013,25.3215,莆田市,秀屿区政府,,38,38,35,26,24,106,40,80,58,29,19,4,4,0.5,0.6
2022-01-09T06:00:00,2323A,118.981,25.4792,莆田市,东圳水库(对照点),,18,9,25,12,14,95,52,83,68,7,11,3,4,0.4,0.4
2022-01-09T06:00:00,2324A,117.6211,26.2625,三明市,三钢,细颗粒物(PM2.5),67,45,46,48,37,71,10,29,20,28,23,18,12,1.0,1
2022-01-09T06:00:00,2325A,117.635,26.2714,三明市,三明二中,细颗粒物(PM2.5),62,50,44,44,34,76,16,31,24,26,23,18,12,0.8,0.8
2022-01-09T06:00:00,2326A,117.6028,26.2378,三明市,三元区政府,细颗粒物(PM2.5),77,45,49,56,42,76,7,36,24,30,30,6,11,1.1,1.1
2022-01-09T06:00:00,2327A,117.7275,26.3108,三明市,洋溪(对照点),细颗粒物(PM2.5),73,47,46,53,37,75,5,19,13,27,21,14,14,1.1,0.9
2022-01-09T06:00:00,2331A,118.0966,26.6761,南平市,茫荡山(对照点),,20,11,23,6,22,72,62,56,56,9,9,4,3,0.7,0.7
2022-01-09T06:00:00,2332A,118.1681,26.6369,南平市,南平市监测站,,49,35,40,34,31,81,15,22,21,25,20,7,7,0.6,0.6
2022-01-09T06:00:00,2333A,118.1825,26.6489,南平市,南平铝业有限公司,细颗粒物(PM2.5),54,41,43,38,33,77,23,28,24,15,15,6,7,0.5,0.5
2022-01-09T06:00:00,2334A,118.1756,26.6272,南平市,南平七中,细颗粒物(PM2.5),52,32,39,36,34,81,24,13,13,16,20,7,9,0.5,0.6
2022-01-09T06:00:00,2335A,117.0189,25.1181,龙岩市,龙岩师专(对照点),细颗粒物(PM2.5),55,45,41,39,33,94,32,26,24,23,22,11,9,0.6,0.6
2022-01-09T06:00:00,2336A,117.0217,25.1033,龙岩市,龙岩市监测站,颗粒物(PM10),51,51,43,35,29,99,40,30,30,27,25,13,8,0.5,0.6
2022-01-09T06:00:00,2337A,117.0258,25.0661,龙岩市,闽西职业技术学院,"颗粒物(PM10),细颗粒物(PM2.5)",54,58,61,38,34,92,34,36,32,28,30,13,12,0.4,0.5
2022-01-09T06:00:00,2338A,117.0196,25.0306,龙岩市,龙岩学院,细颗粒物(PM2.5),82,44,46,60,30,96,35,25,25,22,24,10,6,0.5,0.5
2022-01-09T06:00:00,2339A,119.5001,26.6946,宁德市,金涵水库(对照点),,28,24,35,19,18,103,45,83,64,13,17,6,7,0.5,0.4
2022-01-09T06:00:00,2341A,119.5388,26.6612,宁德市,宁德市监测站,,35,26,36,24,21,96,47,80,67,21,18,6,8,0.4,0.5
2022-01-09T06:00:00,2342A,117.3102,29.3867,景德镇市,王港中学(对照点),,37,37,41,15,26,65,32,27,27,7,12,4,5,0.4,0.3
2022-01-09T06:00:00,2343A,117.2117,29.2933,景德镇市,老干部活动中心,,43,42,51,30,34,56,32,28,28,16,22,4,4,0.9,0.7
2022-01-09T06:00:00,2344A,117.1894,29.2789,景德镇市,兽医站,,45,45,51,28,34,58,30,26,26,8,15,3,6,0.7,0.6
2022-01-09T06:00:00,2345A,117.1547,29.2617,景德镇市,台达陶瓷,,49,44,51,34,32,49,23,23,23,25,27,9,8,1.1,0.9
2022-01-09T06:00:00,2346A,117.2461,29.2956,景德镇市,陶研所,,50,50,58,23,30,57,37,28,28,12,25,9,9,0.7,0.7
2022-01-09T06:00:00,2347A,114.0997,27.5002,萍乡市,武功山(对照点),,36,25,26,25,27,36,33,31,31,20,22,4,3,0.9,0.8
2022-01-09T06:00:00,2348A,113.8385,27.6434,萍乡市,中医院,,43,29,49,30,48,38,10,29,20,33,26,7,7,1.3,1.1
2022-01-09T06:00:00,2349A,113.8493,27.6253,萍乡市,市政府车库,细颗粒物(PM2.5),67,56,57,48,53,37,4,18,11,40,33,10,9,1.3,1.2
2022-01-09T06:00:00,2350A,113.8676,27.6435,萍乡市,市环保局,细颗粒物(PM2.5),57,41,52,40,57,42,4,26,16,38,29,8,8,1.1,0.7
2022-01-09T06:00:00,2351A,113.866,27.6198,萍乡市,安源区政府,细颗粒物(PM2.5),64,66,64,46,48,40,2,22,12,36,28,2,3,0.6,0.8
2022-01-09T06:00:00,2352A,115.0861,27.9317,新余市,北岗(对照点),,33,32,48,23,36,38,27,31,28,17,26,3,8,0.5,0.6
2022-01-09T06:00:00,2353A,114.9886,27.8431,新余市,飞宇,,45,45,67,23,34,35,25,31,28,26,31,51,13,0.7,0.6
2022-01-09T06:00:00,2354A,114.9231,27.8246,新余市,第二水厂,,35,24,59,24,42,55,32,51,45,24,28,9,11,0.5,0.7
2022-01-09T06:00:00,2355A,114.9308,27.8036,新余市,市气象局,,46,40,58,32,42,54,32,50,43,19,29,7,10,0.6,0.5
2022-01-09T06:00:00,2357A,116.9822,28.1136,鹰潭市,龙虎山(对照点),细颗粒物(PM2.5),80,35,45,59,60,63,53,58,57,15,21,7,13,1.6,1
2022-01-09T06:00:00,2358A,117.0564,28.2642,鹰潭市,新监测站,细颗粒物(PM2.5),70,29,42,51,55,63,55,60,59,18,24,5,12,0.7,0.6
2022-01-09T06:00:00,2359A,117.0311,28.2475,鹰潭市,财苑宾馆,细颗粒物(PM2.5),79,30,45,58,55,56,54,54,53,14,21,3,11,0.9,0.7
2022-01-09T06:00:00,2360A,117.0222,28.2264,鹰潭市,体育馆,细颗粒物(PM2.5),83,29,46,61,60,59,55,53,53,15,25,3,10,0.6,0.4
2022-01-09T06:00:00,2361A,117.0017,28.2131,鹰潭市,三川水表,细颗粒物(PM2.5),89,33,51,66,61,58,55,51,51,14,28,4,12,1.0,0.8
2022-01-09T06:00:00,2362A,114.9017,25.9149,赣州市,通天岩(对照点),,24,24,30,13,20,48,38,31,31,10,13,3,4,1.2,1
2022-01-09T06:00:00,2363A,114.9367,25.8664,赣州市,地委,,29,18,34,20,25,38,20,23,20,18,18,9,9,1.2,1.1
2022-01-09T06:00:00,2364A,114.9461,25.8481,赣州市,气象台,,13,13,34,9,25,30,16,19,17,18,20,6,5,0.9,0.8
2022-01-09T06:00:00,2365A,114.9322,25.8333,赣州市,市图书馆,,26,20,38,18,27,28,14,16,14,24,25,7,10,1.4,1.2
2022-01-09T06:00:00,2366A,114.8905,25.8471,赣州市,华坚鞋城,,34,34,47,11,25,27,22,17,17,11,17,13,12,1.0,0.9
2022-01-09T06:00:00,2367A,114.9754,27.0803,吉安市,红声器材厂,,43,43,56,29,39,44,39,40,40,17,26,6,6,0.6,0.7
2022-01-09T06:00:00,2368A,114.9658,27.0999,吉安市,市森林工业局,,46,40,54,32,40,50,44,46,46,24,32,4,4,0.6,0.7
2022-01-09T06:00:00,2369A,114.99,27.1312,吉安市,市环境监测站,,40,40,57,26,37,41,36,37,37,21,32,6,5,0.7,0.8
2022-01-09T06:00:00,2370A,115.0093,27.0968,吉安市,青原区法院,细颗粒物(PM2.5),53,45,53,37,45,43,37,39,39,17,24,15,14,0.6,0.7
2022-01-09T06:00:00,2371A,114.3408,27.8064,宜春市,槟榔水业(对照点),,38,38,46,26,34,49,41,49,44,18,24,3,6,0.5,0.6
2022-01-09T06:00:00,2373A,114.3956,27.7844,宜春市,市石油公司,,33,33,43,22,33,41,34,41,36,11,20,18,10,0.6,0.7
2022-01-09T06:00:00,2374A,114.3703,27.7914,宜春市,市气象局,,42,38,44,29,37,50,36,46,40,16,26,8,6,0.7,0.9
2022-01-09T06:00:00,2375A,114.4013,27.8074,宜春市,市广电局,,36,28,41,25,34,46,37,46,39,15,24,7,7,0.7,0.8
2022-01-09T06:00:00,2376A,116.2127,28.0814,抚州市,桐源党溪(对照点),细颗粒物(PM2.5),67,52,61,48,48,54,45,52,50,3,9,5,7,0.9,1
2022-01-09T06:00:00,2377A,116.3544,27.9831,抚州市,市站,细颗粒物(PM2.5),68,65,64,49,50,67,58,65,64,20,24,6,8,0.9,0.9
2022-01-09T06:00:00,2378A,116.3565,27.963,抚州市,血防站,细颗粒物(PM2.5),67,60,69,48,53,69,62,66,65,13,18,6,6,0.9,0.9
2022-01-09T06:00:00,2379A,116.3564,28.0007,抚州市,采茶剧团,细颗粒物(PM2.5),67,61,65,48,51,59,52,56,55,36,32,6,9,0.8,0.9
2022-01-09T06:00:00,2380A,116.385,27.9647,抚州市,医学分院,细颗粒物(PM2.5),60,68,71,43,45,62,57,60,59,6,12,6,8,1.2,1.2
2022-01-09T06:00:00,2381A,118.005,28.4572,上饶市,百草园(对照点),颗粒物(PM10),59,68,73,36,42,75,27,26,21,28,34,12,13,1.0,1
2022-01-09T06:00:00,2382A,117.9756,28.4436,上饶市,市监测站,颗粒物(PM10),65,80,81,44,47,78,26,26,18,30,35,24,18,0.5,0.6
2022-01-09T06:00:00,2383A,117.9519,28.4628,上饶市,凤凰光学,细颗粒物(PM2.5),69,75,76,50,48,78,18,13,12,34,38,10,13,1.0,1
