timepoint,stationcode,longitude,latitude,area,positionname,primarypollutant,aqi,pm10,pm10_24h,pm2_5,pm2_5_24h,o3,o3_24h,o3_8h,o3_8h_24h,no2,no2_24h,so2,so2_24h,co,co_24h
2025-11-15T2200,2566A,102.1879,31.914,阿坝藏族羌族自治州,州农科所,,,,,,,,,,,,,,,,
2025-11-15T2200,2568A,102.2502,31.8896,阿坝藏族羌族自治州,马师校,,23,23,16,15,13,11,11,53,38,31,12,6,6,0.5,0.5
2025-11-15T2200,3994A,102.2165,31.9024,阿坝藏族羌族自治州,马尔康中学西区,,26,23,11,18,9,19,19,64,52,31,9,5,5,0.5,0.4
2025-11-15T2200,2695A,80.292,41.1694,阿克苏地区,电视台,颗粒物(PM10),149,247,198,102,79,56,56,90,88,46,47,9,9,1.0,0.6
2025-11-15T2200,2696A,80.2613,41.1551,阿克苏地区,艺术中心,颗粒物(PM10),119,188,170,81,71,77,77,94,94,43,48,7,8,0.7,0.9
2025-11-15T2200,2204A,105.6467,38.8363,阿拉善盟,西城区西花园,,,,,,,,,,,,,,,,
2025-11-15T2200,2205A,105.6985,38.8411,阿拉善盟,蒙二幼,颗粒物(PM10),62,73,104,12,26,75,75,86,80,4,8,7,8,0.6,0.6
2025-11-15T2200,2206A,105.724,38.8516,阿拉善盟,环保局新楼,颗粒物(PM10),56,62,93,14,25,78,78,87,80,4,5,9,9,0.6,0.6
2025-11-15T2200,2708A,88.1264,47.8517,阿勒泰地区,市站,,35,21,15,15,8,4,4,38,24,69,44,5,6,0.5,0.3
2025-11-15T2200,2630A,80.1161,32.5,阿里地区,阿里监测站,,33,6,3,3,3,15,15,92,79,66,12,19,8,1.3,0.5
2025-11-15T2200,3192A,80.0903,32.5028,阿里地区,阿里藏医院,,23,15,15,3,6,73,73,89,88,7,9,10,10,0.4,0.3
2025-11-15T2200,2642A,109.0318,32.6537,安康市,香溪洞,,,,,,,,,,,,,,,,
2025-11-15T2200,2644A,109.0072,32.6975,安康市,汉滨区检察院,,43,43,53,20,31,9,9,35,26,26,24,6,6,0.6,0.6
2025-11-15T2200,4054A,109.0325,32.6913,安康市,市邮政管理局,颗粒物(PM10),51,52,57,26,33,10,10,35,23,24,22,4,4,0.6,0.7
2025-11-15T2200,2291A,117.0809,30.5177,安庆市,环科院,细颗粒物(PM2.5),102,98,106,76,75,75,75,147,123,48,28,7,8,0.8,0.7
2025-11-15T2200,2292A,117.0331,30.5119,安庆市,马山宾馆,细颗粒物(PM2.5),99,94,100,74,77,71,71,148,122,55,31,6,7,0.8,0.8
2025-11-15T2200,2294A,116.9896,30.6145,安庆市,安庆大学,细颗粒物(PM2.5),77,79,108,56,74,56,56,148,121,44,33,6,7,0.7,1
2025-11-15T2200,3173A,117.0598,30.5351,安庆市,市人大,细颗粒物(PM2.5),102,87,104,76,80,36,36,150,97,84,39,7,8,0.7,0.7
2025-11-15T2200,3122A,105.9606,26.2611,安顺市,伍家关,,49,49,60,29,32,50,50,94,82,19,18,19,28,0.4,0.4
2025-11-15T2200,3123A,105.9408,26.2431,安顺市,凤凰山,细颗粒物(PM2.5),60,56,50,43,32,45,45,87,71,26,24,36,31,0.7,0.6
2025-11-15T2200,3124A,105.9439,26.2564,安顺市,金钟山,细颗粒物(PM2.5),53,43,43,37,33,66,66,94,83,12,14,21,29,0.6,0.6
2025-11-15T2200,3125A,105.8983,26.2481,安顺市,娄家坡,,45,39,44,31,35,58,58,86,80,16,16,13,26,0.6,0.7
2025-11-15T2200,1818A,114.4839,36.0621,安阳市,棉研所,,,,,,,,,,,,,,,,
2025-11-15T2200,1819A,114.3551,36.1017,安阳市,红庙街,细颗粒物(PM2.5),150,155,110,115,70,43,43,64,62,51,52,4,5,0.7,0.8
2025-11-15T2200,1820A,114.361,36.0681,安阳市,银杏小区,细颗粒物(PM2.5),149,149,111,114,75,39,39,65,63,52,50,5,6,0.7,0.7
2025-11-15T2200,3141A,114.3922,36.0878,安阳市,信访局,细颗粒物(PM2.5),144,146,116,110,74,64,64,71,71,31,45,5,6,0.6,0.7
2025-11-15T2200,3669A,114.4705,36.0637,安阳市,左辅环卫站,细颗粒物(PM2.5),163,212,174,124,90,46,46,69,66,36,47,3,5,0.7,0.8
2025-11-15T2200,3703A,114.2917,36.0949,安阳市,安钢职工学校,细颗粒物(PM2.5),144,166,117,110,78,33,33,58,53,53,51,4,7,0.7,0.9
2025-11-15T2200,1748A,123.044,41.1196,鞍山市,深沟寺,细颗粒物(PM2.5),124,125,92,94,66,123,123,109,109,30,30,10,12,0.9,0.8
2025-11-15T2200,1749A,123.011,41.0931,鞍山市,太阳城,细颗粒物(PM2.5),117,126,92,88,63,119,119,108,108,17,24,11,14,0.8,0.8
2025-11-15T2200,1750A,123.0485,41.1442,鞍山市,太平,细颗粒物(PM2.5),130,152,106,99,64,97,97,96,96,31,25,10,12,1.1,0.9
2025-11-15T2200,1751A,122.9642,41.0971,鞍山市,铁西三道街,细颗粒物(PM2.5),125,146,127,95,75,98,98,89,87,27,34,19,23,1.0,0.9
2025-11-15T2200,1753A,123.022,41.0821,鞍山市,明达新区,细颗粒物(PM2.5),118,123,93,89,64,127,127,113,113,16,20,13,15,0.9,0.8
2025-11-15T2200,1754A,123.1289,41.0228,鞍山市,千山,,,,54,,47,,,68,,,15,,3,,0.4
2025-11-15T2200,4201A,122.9446,41.0826,鞍山市,兴盛南路290号,细颗粒物(PM2.5),129,149,127,98,74,112,112,107,107,28,35,11,13,1.4,1.1
2025-11-15T2200,2195A,107.4212,40.761,巴彦淖尔市,附二中,颗粒物(PM10),67,84,136,35,36,57,57,71,65,9,8,4,5,0.4,0.4
2025-11-15T2200,2196A,107.37,40.7372,巴彦淖尔市,市环保大楼,颗粒物(PM10),61,71,130,31,37,64,64,79,74,7,9,7,8,0.4,0.4
2025-11-15T2200,1956A,86.1472,41.7538,巴音郭楞蒙古自治州,孔雀公园,颗粒物(PM10),87,123,152,42,49,41,41,73,62,60,52,9,10,0.4,0.7
2025-11-15T2200,1957A,86.1972,41.7166,巴音郭楞蒙古自治州,棉纺厂,颗粒物(PM10),100,150,166,38,38,39,39,78,67,53,41,5,7,0.6,0.7
2025-11-15T2200,1958A,86.2357,41.7173,巴音郭楞蒙古自治州,经济开发区,颗粒物(PM10),75,99,114,33,29,70,70,82,81,21,20,6,7,2.1,0.6
2025-11-15T2200,2914A,106.7677,31.8794,巴中市,苏山坪,,,,,,,,,,,,,,,,
2025-11-15T2200,3181A,106.7768,31.8526,巴中市,市五中,,29,29,29,17,19,14,14,34,27,11,11,8,8,0.5,0.5
2025-11-15T2200,3183A,106.7418,31.8654,巴中市,圣泉水务公司,,27,27,25,18,18,2,2,42,27,24,14,9,9,0.7,0.6
2025-11-15T2200,3616A,106.7616,31.8344,巴中市,市中心医院,,29,29,26,14,19,1,1,37,26,25,13,4,4,0.7,0.6
2025-11-15T2200,2235A,122.7911,45.6077,白城市,洮北区环保局,细颗粒物(PM2.5),74,78,92,54,75,34,34,52,40,20,28,7,7,0.4,0.5
2025-11-15T2200,2236A,122.8738,45.5725,白城市,市环保局,细颗粒物(PM2.5),89,122,101,66,75,3,3,44,19,43,27,5,11,0.5,0.5
2025-11-15T2200,2231A,126.4219,41.9171,白山市,喜丰,颗粒物(PM10),78,106,77,52,32,14,14,87,78,69,29,10,11,1.1,0.8
2025-11-15T2200,2232A,126.4077,41.9419,白山市,环保局,细颗粒物(PM2.5),78,80,52,57,37,26,26,72,63,34,24,11,9,1.0,0.8
2025-11-15T2200,2647A,104.1724,36.5446,白银市,第三小学,颗粒物(PM10),77,103,61,26,23,80,80,85,85,12,27,9,20,0.1,0.4
2025-11-15T2200,2648A,104.1465,36.5482,白银市,动力公司,颗粒物(PM10),73,95,52,21,23,80,80,83,82,8,20,6,12,0.3,0.5
2025-11-15T2200,2512A,106.6103,23.9011,百色市,市监测站,,30,30,27,18,15,22,22,89,72,31,17,5,5,0.5,0.4
2025-11-15T2200,2513A,106.6538,23.8859,百色市,市中心血站,细颗粒物(PM2.5),74,93,55,54,32,4,4,88,59,61,31,8,10,0.9,0.7
2025-11-15T2200,3406A,106.6085,23.8798,百色市,祈福高中,颗粒物(PM10),58,66,54,24,24,14,14,79,61,33,22,5,6,0.6,0.5
2025-11-15T2200,2270A,117.396,32.939,蚌埠市,工人疗养院,细颗粒物(PM2.5),107,124,135,80,84,136,136,159,150,30,35,7,8,0.8,0.7
2025-11-15T2200,2271A,117.3605,32.9427,蚌埠市,百货大楼,细颗粒物(PM2.5),100,119,123,75,84,141,141,155,148,32,43,11,11,0.9,0.9
2025-11-15T2200,2273A,117.4185,32.8911,蚌埠市,蚌埠学院,细颗粒物(PM2.5),119,129,125,90,86,96,96,154,134,48,30,6,7,0.8,0.8
2025-11-15T2200,2274A,117.3533,32.9673,蚌埠市,淮上区政府,细颗粒物(PM2.5),110,117,129,83,91,122,122,157,143,48,54,9,9,0.7,0.7
2025-11-15T2200,2275A,117.3145,32.8977,蚌埠市,高新区,细颗粒物(PM2.5),109,122,123,82,89,122,122,145,131,34,34,10,10,0.8,0.8
2025-11-15T2200,3715A,117.3092,32.9314,蚌埠市,蚌埠田家炳中学,细颗粒物(PM2.5),108,120,132,81,88,135,135,155,146,31,38,7,11,0.8,0.8
2025-11-15T2200,1585A,109.8756,40.6532,包头市,市环境监测站,颗粒物(PM10),54,57,153,8,44,55,55,72,69,10,41,6,22,0.5,1.4
2025-11-15T2200,1587A,109.9991,40.5842,包头市,包头八中,颗粒物(PM10),63,75,139,6,43,60,60,73,70,6,41,5,18,0.4,0.9
2025-11-15T2200,1588A,109.8538,40.6821,包头市,青山宾馆,,35,35,140,3,47,58,58,69,69,8,39,6,16,0.4,1.1
2025-11-15T2200,1589A,109.8642,40.6288,包头市,惠龙物流,颗粒物(PM10),54,58,145,7,44,61,61,78,74,7,37,5,22,0.3,1.1
2025-11-15T2200,1590A,110.0377,40.5546,包头市,东河鸿龙湾,,43,43,112,3,28,54,54,74,68,11,40,3,12,0.4,0.7
2025-11-15T2200,3283A,109.9154,40.5685,包头市,滨河大厦,,38,38,114,14,33,58,58,79,74,9,23,8,15,0.4,0.5
2025-11-15T2200,3419A,109.9447,40.6261,包头市,包头市委党校,颗粒物(PM10),56,61,122,7,37,60,60,79,75,6,39,6,20,0.3,0.9
2025-11-15T2200,3683A,109.8331,40.6576,包头市,昆区政府,颗粒物(PM10),53,56,153,3,53,55,55,70,67,10,44,8,26,0.3,1.3
2025-11-15T2200,1930A,107.185,34.3063,宝鸡市,庙沟村,,,,,,,,,,,,,,,,
2025-11-15T2200,1931A,107.0708,34.3017,宝鸡市,竹园沟,,39,39,37,27,22,29,29,72,58,21,18,7,7,0.3,0.3
2025-11-15T2200,1932A,107.1906,34.3672,宝鸡市,三陆医院,细颗粒物(PM2.5),113,94,63,85,34,8,8,68,51,66,42,11,9,0.8,0.6
2025-11-15T2200,1933A,107.1431,34.3547,宝鸡市,监测站,细颗粒物(PM2.5),60,59,57,43,35,20,20,69,56,36,30,4,5,0.4,0.4
2025-11-15T2200,1934A,107.1186,34.3739,宝鸡市,技工学校,细颗粒物(PM2.5),55,58,57,39,31,36,36,65,57,25,27,6,7,0.5,0.5
2025-11-15T2200,1936A,107.2058,34.3497,宝鸡市,文理学院,颗粒物(PM10),63,76,60,42,34,24,24,76,62,43,35,6,7,0.5,0.5
2025-11-15T2200,1937A,107.2386,34.3622,宝鸡市,三迪小学,颗粒物(PM10),70,90,66,43,36,10,10,69,55,66,46,5,8,0.7,0.6
2025-11-15T2200,4308A,107.3898,34.3601,宝鸡市,陈仓区北开路21号,细颗粒物(PM2.5),102,104,79,76,50,14,14,75,60,60,36,8,48,0.5,0.6
2025-11-15T2200,1051A,115.493,38.8632,保定市,游泳馆,细颗粒物(PM2.5),145,164,123,111,83,6,6,56,39,97,61,7,7,1.3,0.8
2025-11-15T2200,1052A,115.5213,38.8959,保定市,华电二区,细颗粒物(PM2.5),114,119,102,86,76,7,7,55,40,73,61,3,3,1.0,0.8
2025-11-15T2200,1053A,115.4713,38.9108,保定市,接待中心,细颗粒物(PM2.5),128,141,108,97,75,10,10,53,40,74,57,4,4,0.8,0.7
2025-11-15T2200,1054A,115.4612,38.8416,保定市,地表水厂,细颗粒物(PM2.5),125,162,131,95,76,5,5,52,37,95,66,6,7,0.8,0.6
2025-11-15T2200,3581A,115.31981,38.95208,保定市,满城区生态环境分局,细颗粒物(PM2.5),117,156,129,88,66,4,4,51,31,74,56,3,3,0.7,0.6
2025-11-15T2200,3582A,115.47694,38.76408,保定市,清苑区第二中学,颗粒物(PM10),112,174,153,78,75,20,20,59,48,86,62,8,7,0.8,0.7
2025-11-15T2200,3583A,115.62909,39.02311,保定市,徐水物探局,细颗粒物(PM2.5),192,209,153,144,99,3,3,50,34,90,65,10,9,0.9,0.7
2025-11-15T2200,4004A,115.4202,38.8656,保定市,双鹰农机,细颗粒物(PM2.5),113,167,134,85,70,21,21,60,49,67,54,3,3,0.8,0.8
2025-11-15T2200,4034A,115.5150,38.8590,保定市,植保所站,细颗粒物(PM2.5),145,157,129,111,81,2,2,50,35,98,74,3,3,1.4,1
2025-11-15T2200,2594A,99.1678,25.1081,保山市,市环境监测站,,21,21,18,14,16,53,53,88,78,8,8,3,3,0.5,0.4
2025-11-15T2200,2595A,99.1711,25.1328,保山市,市环保局,,26,,20,18,18,66,66,90,84,3,6,6,6,0.4,0.4
2025-11-15T2200,1866A,109.2262,21.588,北海市,牛尾岭水库,,45,,26,31,26,69,69,86,79,12,10,8,5,0.3,0.3
2025-11-15T2200,1867A,109.1436,21.4086,北海市,海滩公园,,35,35,44,17,26,104,104,112,104,12,19,6,8,0.7,0.7
2025-11-15T2200,1868A,109.0981,21.4661,北海市,新市环保局,细颗粒物(PM2.5),58,55,45,41,33,73,73,123,115,36,17,5,6,0.7,0.6
2025-11-15T2200,1869A,109.1778,21.5233,北海市,北海工业园,,40,40,44,22,29,84,84,122,118,25,15,6,8,0.3,0.3
2025-11-15T2200,3400A,109.1911,21.4415,北海市,龙潭自来水厂,,,60,43,48,34,,,117,114,13,9,6,9,0.6,0.6
2025-11-15T2200,1001A,116.3621,39.8784,北京市,万寿西宫,细颗粒物(PM2.5),139,190,109,106,56,19,19,36,16,95,78,6,4,0.8,0.8
2025-11-15T2200,1002A,116.2202,40.2915,北京市,定陵,,,,,,,,,,,,,,,,
2025-11-15T2200,1003A,116.4174,39.9289,北京市,东四,细颗粒物(PM2.5),133,192,106,101,50,16,16,40,24,91,67,7,5,1.2,1.1
2025-11-15T2200,1004A,116.4072,39.8863,北京市,天坛,细颗粒物(PM2.5),120,156,84,91,45,6,6,33,14,91,52,1,2,0.8,0.8
2025-11-15T2200,1005A,116.462,39.9365,北京市,农展馆,细颗粒物(PM2.5),133,180,99,101,51,17,17,40,27,83,59,7,5,0.8,0.7
2025-11-15T2200,1006A,116.3392,39.9295,北京市,官园,细颗粒物(PM2.5),124,178,104,94,49,19,19,42,18,80,66,6,4,0.8,0.9
2025-11-15T2200,1007A,116.2878,39.9611,北京市,海淀万柳,细颗粒物(PM2.5),118,172,100,89,44,5,5,34,13,100,66,5,5,0.8,0.7
2025-11-15T2200,1008A,116.6636,40.135,北京市,顺义新城,颗粒物(PM10),90,129,84,52,40,2,2,36,18,75,52,6,6,1.0,0.6
2025-11-15T2200,1009A,116.6275,40.3275,北京市,怀柔镇,颗粒物(PM10),64,77,66,39,35,10,10,33,24,42,32,5,5,1.0,0.8
2025-11-15T2200,1010A,116.2296,40.217,北京市,昌平镇,颗粒物(PM10),66,81,69,34,31,16,16,61,35,47,37,5,6,0.5,0.4
2025-11-15T2200,1011A,116.3966,39.9821,北京市,奥体中心,细颗粒物(PM2.5),128,165,94,97,48,9,9,30,18,97,71,6,6,0.9,0.8
2025-11-15T2200,3281A,115.9718,40.4529,北京市,延庆夏都,颗粒物(PM10),72,94,74,33,31,20,20,50,34,43,37,3,4,0.6,0.6
2025-11-15T2200,3418A,116.8336,40.4095,北京市,密云新城,颗粒物(PM10),74,98,74,41,35,2,2,37,18,51,40,2,2,0.7,0.6
2025-11-15T2200,3671A,116.088,39.9726,北京市,门头沟三家店,颗粒物(PM10),77,104,74,44,28,9,9,49,26,49,35,1,2,0.6,0.5
2025-11-15T2200,3672A,116.1541,39.8204,北京市,丰台云岗,颗粒物(PM10),116,182,105,81,48,2,2,24,14,82,58,4,4,0.6,0.5
2025-11-15T2200,3673A,116.6804,39.9081,北京市,通州东关,细颗粒物(PM2.5),130,188,112,99,59,7,7,34,20,101,66,7,6,0.9,0.7
2025-11-15T2200,3674A,115.9577,39.7603,北京市,房山燕山,细颗粒物(PM2.5),88,115,87,65,48,40,40,41,40,32,39,5,4,0.4,0.4
2025-11-15T2200,3675A,116.4672,39.7733,北京市,大兴旧宫,颗粒物(PM10),130,210,94,90,44,4,4,38,20,95,61,5,4,0.9,0.7
2025-11-15T2200,3694A,115.986,40.4563,北京市,延庆石河营,颗粒物(PM10),74,98,76,35,33,16,16,46,31,42,38,3,4,0.6,0.6
2025-11-15T2200,3695A,116.6151,40.3053,北京市,怀柔新城,颗粒物(PM10),60,70,64,39,35,22,22,34,28,29,29,4,4,0.6,0.5
2025-11-15T2200,3696A,116.2545,39.8768,北京市,丰台小屯,细颗粒物(PM2.5),128,178,113,97,53,4,4,25,7,88,65,5,5,0.8,0.8
2025-11-15T2200,3697A,116.84,40.3844,北京市,密云镇,颗粒物(PM10),70,89,76,35,35,2,2,35,20,61,43,3,3,0.7,0.6
2025-11-15T2200,4182A,116.1942,39.9158,北京市,八角北路9号,细颗粒物(PM2.5),114,171,114,86,51,28,28,26,19,62,60,3,2,0.5,0.7
2025-11-15T2200,4194A,117.0790,40.1518,北京市,洳河巡河路,颗粒物(PM10),64,77,80,37,45,18,18,51,31,29,28,4,5,0.6,0.6
2025-11-15T2200,1761A,123.8275,41.3064,本溪市,大峪,细颗粒物(PM2.5),99,113,84,74,50,135,135,119,119,12,27,11,10,0.8,0.9
2025-11-15T2200,1762A,123.7567,41.3325,本溪市,溪湖,细颗粒物(PM2.5),112,119,86,84,55,110,110,97,97,26,33,12,10,1.3,1.3
2025-11-15T2200,1763A,123.7169,41.3094,本溪市,彩屯,细颗粒物(PM2.5),109,110,117,82,82,95,95,78,78,29,38,14,15,2.8,2.7
2025-11-15T2200,1764A,123.7669,41.2864,本溪市,东明,细颗粒物(PM2.5),105,,73,79,58,118,118,106,106,18,31,11,11,0.7,0.8
2025-11-15T2200,1765A,123.7992,41.2664,本溪市,新立屯,细颗粒物(PM2.5),95,74,55,71,52,126,126,114,114,17,18,9,9,0.7,0.6
2025-11-15T2200,1766A,123.8142,41.3472,本溪市,威宁,细颗粒物(PM2.5),90,121,92,67,50,104,104,83,81,20,32,8,7,0.9,1
2025-11-15T2200,2587A,105.2864,27.3125,毕节市,八中,,48,46,22,33,15,50,50,61,60,4,5,7,9,0.5,0.6
2025-11-15T2200,2588A,105.31,27.2944,毕节市,师专,细颗粒物(PM2.5),54,55,24,38,14,47,47,61,59,8,7,8,9,0.6,0.6
2025-11-15T2200,4263A,105.3688,27.3598,毕节市,工业大道,,,46,21,30,14,51,51,63,61,,6,9,10,0.6,0.6
2025-11-15T2200,1629A,118.0018,37.3617,滨州市,第二水厂,细颗粒物(PM2.5),211,219,192,161,130,17,17,84,66,93,70,11,14,0.7,0.7
2025-11-15T2200,1630A,117.9776,37.393,滨州市,北中新校,细颗粒物(PM2.5),213,219,175,163,123,23,23,89,70,86,60,10,14,0.6,0.6
2025-11-15T2200,3514A,117.9378,37.3956,滨州市,中海酒店,细颗粒物(PM2.5),199,200,172,149,123,37,37,102,79,103,80,7,12,0.9,0.8
2025-11-15T2200,3515A,117.9378,37.3553,滨州市,开发区一中,细颗粒物(PM2.5),208,229,194,158,127,25,25,94,73,82,60,10,13,1.1,1
2025-11-15T2200,3516A,118.0917,37.694,滨州市,金海六路,细颗粒物(PM2.5),156,198,188,119,117,45,45,93,66,70,80,8,14,0.6,0.7
2025-11-15T2200,4028A,117.9956,37.3753,滨州市,滨州市西街道办事处,细颗粒物(PM2.5),216,224,194,166,136,29,29,88,63,73,62,10,13,0.8,0.8
2025-11-15T2200,2311A,115.8072,33.8399,亳州市,污水处理厂,细颗粒物(PM2.5),173,185,161,131,117,24,24,102,77,80,41,24,15,1.2,0.9
2025-11-15T2200,2312A,115.7789,33.8518,亳州市,三国揽胜宫,细颗粒物(PM2.5),189,184,170,142,106,36,36,103,79,60,35,11,8,1.0,0.8
2025-11-15T2200,3332A,115.7633,33.8034,亳州市,亳州学院,细颗粒物(PM2.5),142,151,148,108,112,87,87,109,100,34,33,6,7,0.9,0.8
2025-11-15T2200,2693A,82.0485,44.8556,博尔塔拉蒙古自治州,市党校,,45,45,31,15,10,30,30,36,35,13,14,2,3,0.4,0.3
2025-11-15T2200,2694A,82.0806,44.8969,博尔塔拉蒙古自治州,市环保局,,48,48,55,14,17,29,29,39,35,20,19,18,3,0.3,0.5
2025-11-15T2200,1071A,116.8842,38.2991,沧州市,沧县城建局,细颗粒物(PM2.5),188,178,168,141,132,51,51,69,60,57,51,10,11,0.7,0.7
2025-11-15T2200,1072A,116.8584,38.3254,沧州市,电视转播站,细颗粒物(PM2.5),160,166,164,122,122,29,29,72,59,66,48,7,9,0.8,0.7
2025-11-15T2200,1073A,116.8709,38.3228,沧州市,市环保局,细颗粒物(PM2.5),168,171,167,127,128,30,30,75,57,32,24,5,7,0.8,0.7
2025-11-15T2200,3324A,116.8136,38.3004,沧州市,河北水利电力学院,细颗粒物(PM2.5),138,180,181,105,104,40,40,69,61,61,48,11,12,0.7,0.7
2025-11-15T2200,2622A,97.1806,31.1273,昌都市,昌都监测站,"颗粒物(PM10),细颗粒物(PM2.5)",83,116,28,61,15,15,15,79,58,51,15,4,3,1.4,0.5
2025-11-15T2200,3719A,97.1714,31.1406,昌都市,昌都会议中心,,33,33,15,17,9,56,56,87,79,9,4,4,4,0.6,0.4
2025-11-15T2200,2690A,88.1236,43.8886,昌吉回族自治州,天山天池,,,,,,,,,,,,,,,,
2025-11-15T2200,2692A,87.2717,44.0297,昌吉回族自治州,新区政务中心,,30,30,24,14,10,36,36,37,36,22,19,4,6,0.3,0.3
2025-11-15T2200,3613A,87.3095,44.0142,昌吉回族自治州,亚心广场,,34,34,29,9,7,43,43,41,41,16,13,8,8,0.5,0.5
2025-11-15T2200,1120A,125.2863,43.9027,长春市,客车厂,细颗粒物(PM2.5),143,117,123,109,118,39,39,76,51,56,40,16,13,1.2,0.8
2025-11-15T2200,1121A,125.2841,43.8463,长春市,邮电学院,细颗粒物(PM2.5),142,140,133,108,107,37,37,73,53,60,39,12,12,1.4,0.9
2025-11-15T2200,1122A,125.3716,43.8772,长春市,劳动公园,细颗粒物(PM2.5),140,166,142,107,98,38,38,77,54,52,41,13,15,0.9,0.6
2025-11-15T2200,1123A,125.3297,43.8805,长春市,园林处,细颗粒物(PM2.5),142,116,122,108,108,48,48,68,55,44,36,15,13,1.2,0.9
2025-11-15T2200,1124A,125.4605,43.79,长春市,净月潭,细颗粒物(PM2.5),94,98,129,70,101,56,56,82,66,22,24,7,10,0.8,0.8
2025-11-15T2200,1125A,125.7194,43.515,长春市,甩湾子,,,446,233,,109,44,44,80,66,67,30,10,9,2.8,1.2
2025-11-15T2200,1126A,125.3863,43.8447,长春市,经开区环卫处,细颗粒物(PM2.5),143,168,131,109,105,15,15,73,42,73,44,10,12,1.2,0.9
2025-11-15T2200,1127A,125.245,43.7783,长春市,高新区管委会,细颗粒物(PM2.5),223,215,146,173,130,39,39,76,51,70,36,10,11,1.4,0.9
2025-11-15T2200,1128A,125.1761,43.8325,长春市,岱山公园,细颗粒物(PM2.5),128,152,129,97,112,7,7,68,36,86,42,11,12,1.2,0.9
2025-11-15T2200,4281A,125.3346,43.9164,长春市,北亚泰大街1068号,细颗粒物(PM2.5),163,166,128,124,108,18,18,63,38,68,49,14,14,1.3,0.8
2025-11-15T2200,1335A,113.0833,28.2325,长沙市,经开区环保局,细颗粒物(PM2.5),92,87,71,68,52,55,55,127,113,59,44,5,7,0.8,0.6
2025-11-15T2200,1336A,112.8872,28.2189,长沙市,高开区环保局,细颗粒物(PM2.5),95,106,74,71,64,0,0,134,102,102,42,10,8,0.9,0.6
2025-11-15T2200,1337A,113.0792,28.2053,长沙市,马坡岭,细颗粒物(PM2.5),75,92,75,55,47,8,8,133,98,100,51,6,7,1.1,0.7
2025-11-15T2200,1338A,112.9394,28.19,长沙市,湖南师范大学,颗粒物(PM10),60,69,73,26,36,70,70,136,110,18,24,4,6,0.6,0.7
2025-11-15T2200,1339A,113.0178,28.1322,长沙市,雨花区环保局,细颗粒物(PM2.5),79,89,71,58,47,91,91,135,128,30,46,8,8,0.7,0.7
2025-11-15T2200,1340A,112.9792,28.2597,长沙市,伍家岭,细颗粒物(PM2.5),107,152,87,80,52,4,4,130,89,81,46,4,6,1.3,0.6
2025-11-15T2200,1341A,113.0014,28.1944,长沙市,火车新站,细颗粒物(PM2.5),100,106,80,75,53,29,29,137,115,80,50,10,11,1.0,0.6
2025-11-15T2200,1342A,112.9844,28.1178,长沙市,天心区环保局,细颗粒物(PM2.5),75,86,69,55,44,85,85,148,138,38,43,7,7,0.6,0.5
2025-11-15T2200,1343A,112.8908,28.1308,长沙市,湖南中医药大学,细颗粒物(PM2.5),103,111,79,77,48,22,22,134,92,64,36,5,7,0.9,0.7
2025-11-15T2200,1344A,112.9581,28.3611,长沙市,沙坪,,,,,,,,,,,,,,,,
2025-11-15T2200,1727A,113.1147,36.1547,长治市,清华站,,,52,47,29,27,,,91,75,48,32,6,8,0.5,0.6
2025-11-15T2200,1730A,113.0886,36.2125,长治市,审计局,细颗粒物(PM2.5),67,74,59,48,35,10,10,83,65,78,46,11,12,0.8,0.6
2025-11-15T2200,1731A,113.0844,36.1856,长治市,长治八中,颗粒物(PM10),80,110,81,51,41,6,6,88,53,57,39,11,11,0.9,0.7
2025-11-15T2200,2845A,113.1569,36.1911,长治市,德盛苑,,38,38,39,19,23,76,76,101,91,20,18,7,8,0.4,0.5
2025-11-15T2200,3568A,113.06,36.0464,长治市,向阳小学,颗粒物(PM10),62,73,68,29,33,59,59,90,79,36,34,18,14,0.4,0.4
2025-11-15T2200,3569A,112.8792,36.3144,长治市,屯留一中,,42,42,63,24,39,56,56,95,80,34,32,10,14,0.8,1.2
2025-11-15T2200,4189A,113.1131,36.19948,长治市,英华南巷50号,细颗粒物(PM2.5),62,67,61,44,34,34,34,90,62,34,35,16,11,0.9,0.9
2025-11-15T2200,4190A,113.2367,36.3344,长治市,学府街1号,颗粒物(PM10),69,88,78,26,43,4,4,94,55,81,49,10,16,0.8,1.7
2025-11-15T2200,1854A,111.6975,28.9703,常德市,市二中,细颗粒物(PM2.5),82,91,78,60,50,71,71,136,125,39,24,7,8,0.5,0.4
2025-11-15T2200,1857A,111.7158,29.1456,常德市,白鹤山,,,,,,,,,,,,,,,,
2025-11-15T2200,3138A,111.7153,29.0289,常德市,武陵区永安,细颗粒物(PM2.5),72,79,84,52,46,107,107,135,129,18,18,8,11,0.6,0.6
2025-11-15T2200,3139A,111.6892,28.9881,常德市,鼎城区玉霞,细颗粒物(PM2.5),92,106,84,68,53,74,74,133,119,31,23,7,8,0.7,0.7
2025-11-15T2200,3140A,111.6625,29.0531,常德市,武陵区长庚,细颗粒物(PM2.5),78,92,82,57,48,83,83,139,126,34,22,5,8,1.0,0.7
2025-11-15T2200,1196A,119.9633,31.762,常州市,市监测站,颗粒物(PM10),65,80,127,46,77,62,62,132,104,53,68,6,8,0.5,0.9
2025-11-15T2200,1200A,119.9468,31.7069,常州市,武进监测站,颗粒物(PM10),57,63,110,29,55,87,87,152,129,32,56,9,11,0.4,0.9
2025-11-15T2200,1201A,119.9255,31.9087,常州市,安家,细颗粒物(PM2.5),85,111,134,63,80,4,4,124,79,98,68,12,15,0.5,0.7
2025-11-15T2200,3002A,119.9805,31.8174,常州市,行政中心,颗粒物(PM10),64,78,127,42,73,67,67,128,106,52,61,8,9,1.2,0.8
2025-11-15T2200,3003A,120.0522,31.7748,常州市,经开区,,,,154,39,74,35,35,126,90,68,57,8,10,0.8,0.9
2025-11-15T2200,3010A,119.9025,31.7964,常州市,钟楼,颗粒物(PM10),56,62,117,29,78,89,89,137,116,31,60,9,11,0.6,1.1
2025-11-15T2200,3429A,119.8598,31.7066,常州市,武进经发区,"颗粒物(PM10),细颗粒物(PM2.5)",60,70,113,43,71,70,70,143,112,50,67,9,11,0.9,1.2
2025-11-15T2200,3430A,119.5826,31.7245,常州市,金坛城区,"颗粒物(PM10),细颗粒物(PM2.5)",53,56,92,37,66,94,94,150,134,22,41,8,9,0.7,0.9
2025-11-15T2200,2220A,120.4318,41.5881,朝阳市,西梁,细颗粒物(PM2.5),117,163,123,88,72,3,3,58,29,66,51,17,11,1.9,1.5
2025-11-15T2200,2221A,120.4521,41.5646,朝阳市,河畔小区,细颗粒物(PM2.5),109,105,87,82,59,11,11,65,38,70,49,8,8,1.5,1.1
2025-11-15T2200,2222A,120.4176,41.5648,朝阳市,八里堡,细颗粒物(PM2.5),124,156,101,94,64,5,5,55,27,71,53,12,12,2.0,1.3
2025-11-15T2200,2223A,120.3806,41.5969,朝阳市,农业园区,颗粒物(PM10),60,70,112,30,44,32,32,76,52,41,37,9,14,0.6,0.8
2025-11-15T2200,1705A,116.6367,23.6719,潮州市,西园路,,,,,,,,,,,,,,,,
2025-11-15T2200,3026A,116.6183,23.6608,潮州市,市政府,,49,49,50,22,21,108,108,130,127,9,11,6,7,0.4,0.3
2025-11-15T2200,4036A,116.6461,23.6761,潮州市,金山,,34,34,41,23,19,103,103,128,125,9,10,4,4,0.5,0.4
2025-11-15T2200,2472A,113.0073,25.9061,郴州市,马头岭,,,,,,,,,,,,,,,,
2025-11-15T2200,2473A,113.0116,25.8226,郴州市,市职中,颗粒物(PM10),54,58,47,35,36,19,19,99,67,33,21,3,11,0.6,0.7
2025-11-15T2200,2475A,113.0383,25.8071,郴州市,市审计局,细颗粒物(PM2.5),57,56,52,40,38,43,43,99,78,22,22,3,11,0.5,0.5
2025-11-15T2200,2476A,113.0348,25.7759,郴州市,市环保局,细颗粒物(PM2.5),64,72,61,46,35,14,14,97,75,56,24,5,14,0.6,0.5
2025-11-15T2200,4252A,113.0138,25.8011,郴州市,好美居路49号,颗粒物(PM10),54,58,45,36,34,4,4,108,81,61,24,2,11,0.7,0.6
2025-11-15T2200,1431A,103.9728,30.7236,成都市,金泉两河,,46,46,43,15,22,5,5,79,61,47,26,2,2,1.1,0.5
2025-11-15T2200,1432A,104.176,30.6872,成都市,十里店,细颗粒物(PM2.5),60,62,61,43,38,21,21,75,61,49,32,3,3,0.5,0.5
2025-11-15T2200,1433A,104.079,30.5706,成都市,三瓦窑,颗粒物(PM10),52,53,56,27,28,43,43,84,75,34,32,3,4,0.5,0.5
2025-11-15T2200,1434A,104.1114,30.63,成都市,沙河铺,细颗粒物(PM2.5),84,71,59,62,44,11,11,65,54,46,32,1,2,0.8,0.5
2025-11-15T2200,1437A,104.0786,30.6531,成都市,君平街,颗粒物(PM10),57,64,50,28,31,37,37,75,69,33,24,4,4,0.7,0.6
2025-11-15T2200,1438A,103.613,31.0283,成都市,灵岩寺,,,,,,,,,,,,,,,,
2025-11-15T2200,2880A,104.0239,30.65639,成都市,大石西路,,50,43,43,35,34,39,39,80,70,35,29,3,3,0.7,0.6
2025-11-15T2200,3136A,104.2725,30.5589,成都市,龙泉驿区区政府,,34,34,40,19,25,51,51,74,69,15,31,6,6,0.5,0.5
2025-11-15T2200,3357A,104.0106,30.6931,成都市,金博路,,45,45,40,19,24,38,38,80,70,35,29,5,5,0.6,0.6
2025-11-15T2200,3359A,104.0578,30.5225,成都市,华阳,,,48,47,,33,34,34,77,68,36,28,5,5,0.5,0.4
2025-11-15T2200,3488A,104.3880,30.7467,成都市,青石路225号,,50,45,57,35,33,56,56,72,67,13,27,4,4,0.7,0.8
2025-11-15T2200,3489A,104.0789,30.4072,成都市,科学城,,39,39,41,25,28,46,46,76,70,15,17,4,5,0.5,0.5
2025-11-15T2200,4011A,103.8506,30.6947,成都市,光华大道三段,细颗粒物(PM2.5),58,60,50,41,30,44,44,78,70,33,25,1,1,0.8,0.7
2025-11-15T2200,4224A,104.2433,30.5353,成都市,鲸龙路1057号,,47,47,47,30,33,48,48,79,72,20,18,5,5,0.6,0.6
2025-11-15T2200,1062A,117.9531,40.9081,承德市,铁路,颗粒物(PM10),84,117,81,58,42,5,5,17,8,50,46,8,9,1.2,0.9
2025-11-15T2200,1063A,117.9392,40.9763,承德市,中国银行,细颗粒物(PM2.5),79,96,82,58,37,2,2,24,10,49,40,4,11,1.4,0.9
2025-11-15T2200,1064A,117.9503,40.928,承德市,开发区,颗粒物(PM10),83,116,84,55,39,4,4,23,12,57,45,12,12,1.2,0.8
2025-11-15T2200,1066A,117.9268,41.0026,承德市,离宫,,,,,,,,,,,,,,,,
2025-11-15T2200,4274A,117.7994,40.9605,承德市,滨河大街98号,颗粒物(PM10),61,72,76,35,36,3,3,26,17,51,40,5,25,0.8,1.2
2025-11-15T2200,2314A,117.47,30.6618,池州市,池州学院,细颗粒物(PM2.5),88,95,94,65,66,58,58,119,104,50,34,8,9,1.1,1.1
2025-11-15T2200,3237A,117.4918,30.6617,池州市,展览馆,颗粒物(PM10),63,76,84,40,58,10,10,119,80,57,32,5,8,1.2,1.2
2025-11-15T2200,3333A,117.5627,30.695,池州市,第八中学,细颗粒物(PM2.5),69,86,90,50,57,106,106,120,114,33,35,9,10,1.0,1
2025-11-15T2200,3334A,117.5038,30.6243,池州市,第十二中学,细颗粒物(PM2.5),70,73,78,51,49,11,11,127,82,74,46,6,8,1.3,1.2
2025-11-15T2200,1744A,118.9233,42.2816,赤峰市,松山一中,颗粒物(PM10),54,58,76,13,24,73,73,69,57,10,37,8,16,0.4,0.9
2025-11-15T2200,1745A,118.9576,42.2728,赤峰市,哈达街,颗粒物(PM10),61,72,83,8,25,69,69,67,56,12,34,7,22,0.3,0.8
2025-11-15T2200,1746A,118.8788,42.2554,赤峰市,天义路,,48,48,53,17,33,69,69,69,58,5,30,8,10,0.1,0.4
2025-11-15T2200,3058A,119.2658,42.0353,赤峰市,银河街,颗粒物(PM10),71,92,84,23,34,74,74,76,57,3,27,7,17,0.3,0.8
2025-11-15T2200,3286A,118.9359,42.3147,赤峰市,桥北物流园区,颗粒物(PM10),57,64,69,18,32,70,70,58,52,7,32,8,11,0.3,0.6
2025-11-15T2200,2521A,107.3476,22.4136,崇左市,市环保局江州分局,颗粒物(PM10),63,75,43,23,20,12,12,81,56,33,20,4,6,0.8,0.7
2025-11-15T2200,4256A,107.3750,22.3736,崇左市,石景林东路7号,细颗粒物(PM2.5),55,48,37,39,25,32,32,102,76,23,17,6,7,0.8,0.6
2025-11-15T2200,2298A,118.3093,32.3153,滁州市,老年大学,细颗粒物(PM2.5),82,88,102,60,69,92,92,144,124,30,34,12,12,0.5,0.6
2025-11-15T2200,2299A,118.3244,32.2786,滁州市,人大宾馆,颗粒物(PM10),72,93,111,49,75,61,61,146,121,40,36,5,6,0.5,0.7
2025-11-15T2200,3207A,118.3118,32.3038,滁州市,市政府原办公楼,细颗粒物(PM2.5),82,98,115,60,73,69,69,153,130,48,40,5,6,0.8,0.8
2025-11-15T2200,3331A,118.3267,32.2634,滁州市,图书馆,颗粒物(PM10),69,87,114,49,72,71,71,159,135,48,40,8,8,0.6,0.7
2025-11-15T2200,2605A,101.5482,25.0441,楚雄彝族自治州,州环境监测站,,29,25,19,20,15,17,17,56,47,24,14,6,10,0.7,0.6
2025-11-15T2200,2606A,101.538,25.0492,楚雄彝族自治州,市经济开发区,,24,24,21,16,15,27,27,55,46,20,15,16,9,0.8,0.7
2025-11-15T2200,2548A,107.5277,31.2827,达州市,达州职业技术学院,,,,,,,,,,,,,,,,
2025-11-15T2200,2549A,107.5086,31.2186,达州市,市环境监测站,,37,37,40,24,21,2,2,7,6,23,28,6,7,0.6,0.6
2025-11-15T2200,2550A,107.4988,31.2132,达州市,凤凰小区,,44,44,41,24,24,3,3,9,9,26,28,5,6,0.6,0.5
2025-11-15T2200,2551A,107.5082,31.1986,达州市,达县机关宾馆,,48,48,43,24,24,2,2,7,6,22,28,6,6,0.7,0.6
2025-11-15T2200,2552A,107.4644,31.2124,达州市,市政中心,颗粒物(PM10),61,72,52,29,23,3,3,9,8,32,29,7,7,0.9,0.6
2025-11-15T2200,2614A,100.1542,25.7054,大理白族自治州,大理市环境监测站,,35,,15,24,18,56,56,59,57,8,10,6,6,0.4,0.4
2025-11-15T2200,2615A,100.2171,25.5811,大理白族自治州,大理古城,,30,30,19,12,14,50,50,76,66,20,12,7,7,0.3,0.5
2025-11-15T2200,1109A,121.612,38.9741,大连市,甘井子,细颗粒物(PM2.5),188,221,144,141,92,90,90,113,102,43,44,14,14,0.7,0.6
2025-11-15T2200,1110A,121.565,38.9511,大连市,周水子,细颗粒物(PM2.5),180,192,134,136,91,114,114,130,112,42,40,9,9,0.8,0.7
2025-11-15T2200,1111A,121.5637,38.8845,大连市,星海三站,细颗粒物(PM2.5),168,173,123,127,89,94,94,110,102,20,21,5,7,0.6,0.7
2025-11-15T2200,1112A,121.6302,38.9117,大连市,青泥洼桥,细颗粒物(PM2.5),170,182,138,129,85,103,103,118,110,23,26,12,14,1.0,1
2025-11-15T2200,1113A,121.6251,38.8638,大连市,傅家庄,细颗粒物(PM2.5),168,221,139,127,84,96,96,113,107,23,24,12,13,0.8,0.9
2025-11-15T2200,1114A,121.5213,38.8661,大连市,七贤岭,细颗粒物(PM2.5),175,208,134,132,87,110,110,116,94,28,40,10,10,0.8,0.8
2025-11-15T2200,1115A,121.2529,38.8061,大连市,旅顺,细颗粒物(PM2.5),169,182,138,128,94,109,109,112,108,21,23,13,12,0.3,0.5
2025-11-15T2200,1116A,121.7485,39.1311,大连市,金州,细颗粒物(PM2.5),175,204,131,132,85,96,96,132,124,53,43,12,16,0.6,0.6
2025-11-15T2200,1117A,121.7811,39.0496,大连市,开发区,细颗粒物(PM2.5),165,202,123,125,86,80,80,115,101,32,32,9,10,0.7,0.7
2025-11-15T2200,1118A,121.9762,39.0631,大连市,双D港,细颗粒物(PM2.5),137,120,97,104,77,86,86,121,99,25,30,11,14,0.9,0.8
2025-11-15T2200,1789A,124.81117,46.03138,大庆市,大同区,细颗粒物(PM2.5),130,140,135,99,100,25,25,53,46,39,32,14,14,0.9,0.8
2025-11-15T2200,1790A,125.129,46.533,大庆市,龙凤区,细颗粒物(PM2.5),220,183,149,170,117,36,36,76,60,39,34,7,8,1.1,0.8
2025-11-15T2200,1791A,124.902,46.408,大庆市,红岗区,细颗粒物(PM2.5),128,130,103,97,73,47,47,54,46,25,24,8,9,1.0,0.9
2025-11-15T2200,1792A,125.153,46.586,大庆市,萨尔图区,细颗粒物(PM2.5),133,160,142,101,106,49,49,60,48,31,31,10,11,0.7,0.7
2025-11-15T2200,1793A,124.9042,46.6215,大庆市,让胡路区,,,,96,,70,52,52,52,47,19,29,6,8,0.6,0.8
2025-11-15T2200,3481A,125.141,46.634,大庆市,萨区政府监测点,颗粒物(PM10),97,143,120,58,78,47,47,59,52,27,22,19,12,0.5,0.6
2025-11-15T2200,1721A,113.3819,40.1097,大同市,果树场,颗粒物(PM10),61,72,95,35,32,43,43,67,52,30,42,11,13,0.6,0.8
2025-11-15T2200,1723A,113.2994,40.0758,大同市,云冈宾馆,颗粒物(PM10),68,85,106,10,27,49,49,65,54,23,32,8,10,0.4,0.6
2025-11-15T2200,1724A,113.3444,40.0917,大同市,大同大学,颗粒物(PM10),66,81,102,21,30,53,53,68,61,24,38,7,11,0.4,0.6
2025-11-15T2200,1725A,113.2661,40.1269,大同市,安家小村,颗粒物(PM10),58,66,96,10,27,64,64,69,66,15,27,9,12,0.3,0.9
2025-11-15T2200,1726A,113.2711,40.0844,大同市,教育学院,颗粒物(PM10),69,87,111,24,30,49,49,68,54,27,35,12,11,0.5,0.6
2025-11-15T2200,3282A,113.3397,40.0597,大同市,大同市卫生学校,颗粒物(PM10),68,86,117,27,37,56,56,61,54,23,46,6,9,0.4,0.6
2025-11-15T2200,3565A,113.1367,40.1122,大同市,云冈站,颗粒物(PM10),63,76,92,25,31,37,37,74,50,28,26,6,9,0.4,0.5
2025-11-15T2200,3566A,113.1186,40.2556,大同市,图书馆,颗粒物(PM10),70,90,97,27,31,46,46,78,60,18,18,13,11,0.5,0.5
2025-11-15T2200,3567A,113.5931,40.0461,大同市,区一中,颗粒物(PM10),64,78,130,26,40,54,54,80,66,29,34,11,21,0.5,0.7
2025-11-15T2200,4199A,113.2798,40.0997,大同市,魏都大道141号,颗粒物(PM10),70,89,110,16,30,53,53,68,58,24,34,5,11,0.3,0.6
2025-11-15T2200,2269A,124.1069,50.4097,大兴安岭地区,科技局,,25,23,24,17,18,36,36,28,28,7,8,12,8,0.2,0.3
2025-11-15T2200,3663A,124.1164,50.4278,大兴安岭地区,红旗社区,,15,6,15,3,9,45,45,37,37,4,16,6,6,0.3,0.4
2025-11-15T2200,1600A,124.3303,40.0625,丹东市,江湾东路,,42,42,73,17,42,76,76,75,75,11,29,8,13,0.7,1.3
2025-11-15T2200,1601A,124.4256,40.1503,丹东市,临江后街,,38,38,71,12,31,83,83,75,75,12,29,7,11,0.6,0.9
2025-11-15T2200,1602A,124.3933,40.1461,丹东市,元宝山,,39,39,68,13,37,83,83,78,78,13,28,12,13,0.7,1
2025-11-15T2200,1603A,124.3633,40.1092,丹东市,民主桥,颗粒物(PM10),51,51,72,16,36,71,71,67,,12,34,8,10,0.4,0.9
2025-11-15T2200,3541A,109.5726,19.5167,儋州市,第一中学子站,,33,33,44,16,24,79,79,79,79,4,8,6,7,0.4,0.5
2025-11-15T2200,3542A,109.5567,19.5187,儋州市,东坡学校子站,,47,47,38,15,25,90,90,93,93,7,12,3,4,0.4,0.4
2025-11-15T2200,2616A,98.5842,24.428,德宏傣族景颇族自治州,德宏州监测站,,45,45,31,29,21,35,35,73,62,24,20,8,9,0.7,0.6
2025-11-15T2200,3677A,98.5881,24.4368,德宏傣族景颇族自治州,芒市人民政府综合楼,颗粒物(PM10),51,51,37,25,18,37,37,66,60,16,14,7,7,0.8,0.7
2025-11-15T2200,1901A,104.4239,31.1208,德阳市,东山公园,,46,46,43,32,28,56,56,81,78,10,20,2,2,0.7,0.7
2025-11-15T2200,1902A,104.3826,31.1317,德阳市,西小区,,,67,62,39,35,37,37,75,69,,29,,2,0.6,0.6
2025-11-15T2200,1904A,104.3553,31.1091,德阳市,耐火材料厂,细颗粒物(PM2.5),58,56,60,41,35,48,48,72,68,24,34,2,3,0.7,0.7
2025-11-15T2200,3639A,104.4019,31.1244,德阳市,市教育局,颗粒物(PM10),51,51,48,32,29,37,37,73,67,25,26,2,2,0.6,0.6
2025-11-15T2200,1622A,116.3032,37.4674,德州市,儿童乐园,细颗粒物(PM2.5),213,249,222,163,142,53,53,94,87,51,52,20,16,1.3,1.1
2025-11-15T2200,1624A,116.2991,37.4451,德州市,监理站,细颗粒物(PM2.5),208,229,208,158,140,55,55,102,93,61,51,23,19,1.2,0.9
2025-11-15T2200,3066A,116.2721,37.4379,德州市,九衢泉纯净水厂,细颗粒物(PM2.5),188,232,218,141,126,40,40,89,76,65,61,17,16,1.4,1.1
2025-11-15T2200,3371A,116.3728,37.4403,德州市,开发区人民医院,细颗粒物(PM2.5),185,215,212,139,128,89,89,108,100,38,58,22,22,1.7,1.3
2025-11-15T2200,3511A,116.5652,37.3319,德州市,陵城艺术中心,细颗粒物(PM2.5),199,202,200,149,142,72,72,103,94,49,53,12,17,1.3,1.2
2025-11-15T2200,4292A,116.3525,37.4209,德州市,新河东路,细颗粒物(PM2.5),195,219,217,146,136,62,62,87,72,50,78,16,18,1.1,1.1
2025-11-15T2200,2621A,99.7056,27.8317,迪庆藏族自治州,迪庆州站,颗粒物(PM10),79,108,34,29,19,50,50,88,78,36,13,7,6,1.2,0.5
2025-11-15T2200,3180A,99.7136,27.8094,迪庆藏族自治州,质量技术监督局,,28,16,26,11,15,89,89,93,91,7,15,7,7,0.4,0.6
2025-11-15T2200,4257A,104.6092,35.5962,定西市,将台街,颗粒物(PM10),77,103,65,45,33,59,59,91,87,31,17,16,10,0.7,0.6
2025-11-15T2200,4309A,104.6159,35.5701,定西市,正龙路62号,细颗粒物(PM2.5),85,92,70,63,36,73,73,93,89,28,16,8,7,0.8,0.6
2025-11-15T2200,1389A,113.7547,23.0494,东莞市,莞城梨川,颗粒物(PM10),64,77,45,40,27,24,24,128,101,74,35,3,3,0.8,0.6
2025-11-15T2200,1390A,113.7944,23.0128,东莞市,东城石井,颗粒物(PM10),52,54,21,35,17,40,40,107,89,37,26,7,8,0.8,0.7
2025-11-15T2200,1391A,113.7383,22.9658,东莞市,南城西平,颗粒物(PM10),68,86,47,43,26,30,30,114,92,76,48,9,10,0.8,0.7
2025-11-15T2200,3319A,113.7338,23.0381,东莞市,万江金泰,细颗粒物(PM2.5),73,88,47,53,28,27,27,124,98,55,29,5,6,1.1,0.8
2025-11-15T2200,3626A,113.7533,23.0202,东莞市,南城元岭,细颗粒物(PM2.5),72,83,44,52,28,23,23,129,99,68,26,8,8,1.1,0.6
2025-11-15T2200,3627A,113.7875,23.0457,东莞市,东城主山,颗粒物(PM10),68,86,49,44,28,14,14,125,96,90,31,9,7,0.8,0.6
2025-11-15T2200,1666A,118.6614,37.4309,东营市,市环保局,细颗粒物(PM2.5),147,163,172,112,110,64,64,98,71,58,68,17,26,1.0,1.1
2025-11-15T2200,3036A,118.6904,37.4338,东营市,开发区管委会,细颗粒物(PM2.5),163,178,172,124,117,51,51,101,78,80,71,22,33,0.9,0.9
2025-11-15T2200,3365A,118.5719,37.565,东营市,垦利区民丰路,细颗粒物(PM2.5),156,188,176,119,108,17,17,106,72,99,69,7,8,0.8,0.8
2025-11-15T2200,3498A,118.5055,37.8612,东营市,河口城区,细颗粒物(PM2.5),192,234,212,144,125,42,42,109,78,57,60,11,15,1.0,1
2025-11-15T2200,3646A,118.4978,37.4623,东营市,胜利站,细颗粒物(PM2.5),178,191,174,134,112,34,34,84,46,79,87,16,18,1.1,1.1
2025-11-15T2200,3734A,118.35,37.26,东营市,理想之城,细颗粒物(PM2.5),180,222,184,136,114,2,2,91,48,113,82,10,12,0.9,1
2025-11-15T2200,1591A,110.0023,39.8129,鄂尔多斯市,综合楼,颗粒物(PM10),76,102,100,22,25,72,72,81,79,7,14,4,7,0.3,0.4
2025-11-15T2200,1592A,109.9486,39.8261,鄂尔多斯市,巴音孟克林场办事处,颗粒物(PM10),93,136,117,22,28,74,74,86,83,7,11,4,6,0.4,0.5
2025-11-15T2200,1593A,109.7736,39.5986,鄂尔多斯市,康泽苑,颗粒物(PM10),80,110,116,24,33,76,76,90,86,8,11,4,5,0.3,0.3
2025-11-15T2200,1594A,109.8119,39.5989,鄂尔多斯市,华泰汽车城,颗粒物(PM10),90,129,121,29,34,76,76,88,85,7,14,6,8,0.2,0.2
2025-11-15T2200,1595A,109.9734,39.7884,鄂尔多斯市,奥林花园,颗粒物(PM10),96,141,126,19,26,74,74,80,78,10,18,5,10,0.3,0.3
2025-11-15T2200,2436A,114.8938,30.3994,鄂州市,市政府,细颗粒物(PM2.5),137,170,108,104,79,2,2,127,80,99,54,11,16,1.3,0.9
2025-11-15T2200,2437A,114.8989,30.3714,鄂州市,赵家坝,细颗粒物(PM2.5),132,136,90,100,78,27,27,147,99,67,40,9,12,1.1,0.9
2025-11-15T2200,3654A,114.8094,30.4089,鄂州市,精准医疗中心,细颗粒物(PM2.5),143,144,104,109,80,66,66,134,109,66,58,6,13,1.2,1.2
2025-11-15T2200,2454A,109.4978,30.2981,恩施土家族苗族自治州,湖北民院,细颗粒物(PM2.5),95,,32,71,41,24,24,64,55,18,15,7,7,0.8,0.6
2025-11-15T2200,2455A,109.4707,30.2798,恩施土家族苗族自治州,州电力总公司,细颗粒物(PM2.5),109,104,61,82,45,3,3,51,37,43,24,6,6,0.9,0.6
2025-11-15T2200,3549A,109.5061,30.3772,恩施土家族苗族自治州,龙凤新区,细颗粒物(PM2.5),118,111,54,89,39,12,12,61,49,15,10,7,6,0.6,0.3
2025-11-15T2200,2499A,108.3411,21.6158,防城港市,沙万,颗粒物(PM10),64,77,50,41,30,71,71,107,93,32,20,13,8,0.6,0.4
2025-11-15T2200,2500A,108.3514,21.7731,防城港市,防城档案局,颗粒物(PM10),63,75,63,42,31,84,84,103,86,23,17,8,9,0.6,0.5
2025-11-15T2200,2501A,108.3506,21.6414,防城港市,大海花园,,,,48,46,26,103,103,121,117,18,14,20,8,0.6,0.5
2025-11-15T2200,1371A,113.1294,23.0067,佛山市,湾梁,,,63,48,41,27,,,112,112,45,45,7,9,0.7,0.5
2025-11-15T2200,1372A,113.1083,23.0478,佛山市,华材职中,颗粒物(PM10),58,66,52,34,32,29,29,121,105,65,41,6,7,0.9,0.7
2025-11-15T2200,1373A,113.144,23.0453,佛山市,南海气象局,,48,48,46,27,25,52,52,125,113,48,38,8,9,1.0,0.8
2025-11-15T2200,1374A,113.2881,22.8094,佛山市,顺德苏岗,细颗粒物(PM2.5),55,56,46,39,26,52,52,127,116,43,43,8,9,0.8,0.6
2025-11-15T2200,1376A,112.8383,22.8678,佛山市,高明孔堂,,47,47,49,28,27,80,80,142,131,18,26,4,6,0.5,0.5
2025-11-15T2200,1377A,112.8836,23.1588,佛山市,三水监测站,颗粒物(PM10),75,100,58,40,35,19,19,112,95,86,42,9,9,0.9,0.8
2025-11-15T2200,1378A,112.867,23.185,佛山市,三水云东海,颗粒物(PM10),63,75,52,36,33,3,3,113,90,92,36,7,7,0.8,0.6
2025-11-15T2200,3625A,113.2544,22.7642,佛山市,容桂街道办,颗粒物(PM10),76,102,50,53,29,38,38,125,114,82,46,7,7,1.0,0.7
2025-11-15T2200,1280A,119.3903,26.0543,福州市,鼓山,,,,40,,16,,,121,,,8,,2,,0.4
2025-11-15T2200,1282A,119.2681,26.0504,福州市,师大,,40,40,49,13,22,93,93,123,109,12,11,6,7,0.4,0.5
2025-11-15T2200,1283A,119.2984,26.1028,福州市,五四北路,,35,35,46,11,21,88,88,113,101,15,14,4,5,0.3,0.5
2025-11-15T2200,1284A,119.2648,26.0768,福州市,杨桥西路,,37,37,47,10,20,96,96,121,108,11,11,4,5,0.2,0.4
2025-11-15T2200,1285A,119.317,26.0746,福州市,紫阳,,36,36,50,9,20,96,96,116,109,10,14,7,8,0.3,0.4
2025-11-15T2200,3048A,119.5799,26.0936,福州市,九龙,,30,30,44,3,20,82,82,128,110,17,10,7,5,0.3,0.4
2025-11-15T2200,3526A,119.5189,25.9664,福州市,吴航,,34,19,39,6,18,106,106,127,119,4,8,6,7,0.3,0.4
2025-11-15T2200,1755A,123.7977,41.8491,抚顺市,望花区,细颗粒物(PM2.5),125,118,124,95,75,93,93,84,84,24,38,15,12,1.8,1
2025-11-15T2200,1756A,123.9161,41.8822,抚顺市,顺城区,细颗粒物(PM2.5),137,136,94,104,64,65,65,86,78,38,38,11,11,1.1,1
2025-11-15T2200,1757A,124.0436,41.8611,抚顺市,东洲区,细颗粒物(PM2.5),92,90,77,68,58,107,107,98,98,13,25,11,10,1.0,0.9
2025-11-15T2200,1758A,123.9247,41.8642,抚顺市,新抚区,细颗粒物(PM2.5),99,109,99,74,68,73,73,80,72,25,37,10,11,1.0,1
2025-11-15T2200,1759A,124.0972,41.8961,抚顺市,大伙房水库,细颗粒物(PM2.5),85,,56,63,44,115,115,106,106,14,20,11,12,0.8,0.8
2025-11-15T2200,1760A,123.7086,41.8391,抚顺市,沈抚新城,细颗粒物(PM2.5),119,108,115,90,76,102,102,89,84,21,42,10,14,1.0,1.3
2025-11-15T2200,2376A,116.2127,28.0814,抚州市,桐源党溪,,,,,,,,,,,,,,,,
2025-11-15T2200,2377A,116.3544,27.9831,抚州市,市站,细颗粒物(PM2.5),69,75,57,50,34,102,102,144,136,19,17,18,12,0.9,0.8
2025-11-15T2200,2378A,116.3565,27.963,抚州市,血防站,细颗粒物(PM2.5),69,75,59,50,34,119,119,148,142,21,22,12,8,0.5,0.5
2025-11-15T2200,2379A,116.3564,28.0007,抚州市,采茶剧团,细颗粒物(PM2.5),87,91,63,64,38,103,103,141,131,17,15,47,10,0.8,0.7
2025-11-15T2200,2380A,116.385,27.9647,抚州市,医学分院,细颗粒物(PM2.5),74,87,63,54,35,120,120,140,134,14,19,10,10,0.8,0.7
2025-11-15T2200,2207A,121.6094,41.998,阜新市,工业园区,细颗粒物(PM2.5),279,273,184,229,126,5,5,54,26,78,59,16,21,1.9,1.4
2025-11-15T2200,2208A,121.6697,42.0279,阜新市,长青街,细颗粒物(PM2.5),277,253,146,227,112,3,3,55,32,78,56,14,18,2.4,1.6
2025-11-15T2200,2209A,121.6673,42.0705,阜新市,农业园区,细颗粒物(PM2.5),230,233,145,180,114,22,22,72,52,68,49,14,26,1.5,1.3
2025-11-15T2200,2210A,121.6717,42.0224,阜新市,东苑,细颗粒物(PM2.5),223,198,142,173,110,5,5,60,39,85,61,33,21,2.2,1.7
2025-11-15T2200,2211A,121.6506,42.0498,阜新市,玉龙新城,细颗粒物(PM2.5),223,246,166,173,115,4,4,57,30,72,56,14,19,1.7,1.7
2025-11-15T2200,2301A,115.8277,32.8929,阜阳市,市监测站,细颗粒物(PM2.5),140,149,151,107,107,41,41,104,84,74,52,6,6,0.8,0.7
2025-11-15T2200,2303A,115.8554,32.8605,阜阳市,开发区,颗粒物(PM10),90,129,162,64,92,98,98,111,108,41,45,6,5,0.6,0.5
2025-11-15T2200,2875A,115.784,32.8892,阜阳市,阜阳职业技术学院,,,129,129,71,92,114,114,122,121,,27,8,7,0.7,0.7
2025-11-15T2200,3468A,115.7901,32.8613,阜阳市,市规划展馆,颗粒物(PM10),83,116,142,57,87,118,118,125,124,26,24,8,7,0.6,0.6
2025-11-15T2200,3469A,115.836,32.9183,阜阳市,枣园社区,细颗粒物(PM2.5),99,120,142,74,99,41,41,107,96,86,61,6,6,0.7,0.7
2025-11-15T2200,2669A,102.9099,34.9841,甘南藏族自治州,州政府,颗粒物(PM10),75,99,37,45,23,3,3,82,57,62,28,8,4,1.2,0.6
2025-11-15T2200,3380A,102.8914,34.9617,甘南藏族自治州,甘肃民族师范学院,颗粒物(PM10),99,147,59,42,25,0,0,68,44,57,30,8,5,0.8,0.6
2025-11-15T2200,2570A,101.9603,30.0475,甘孜藏族自治州,水桥子,,22,22,9,3,4,19,19,65,58,34,15,7,8,0.4,0.4
2025-11-15T2200,3065A,101.9533,29.9972,甘孜藏族自治州,州环保局,,17,17,8,3,4,29,29,61,50,18,14,6,5,0.4,0.4
2025-11-15T2200,3414A,115.8347,28.932,赣江新区,桑海产业园,颗粒物(PM10),69,88,75,45,43,0,0,134,92,101,43,9,10,0.8,0.7
2025-11-15T2200,2362A,114.9017,25.9149,赣州市,通天岩,,33,33,34,16,20,35,35,110,74,5,6,38,37,0.6,0.7
2025-11-15T2200,2363A,114.9367,25.8664,赣州市,地委,,48,48,42,22,25,98,98,113,105,21,19,6,6,0.5,0.5
2025-11-15T2200,2364A,114.9461,25.8481,赣州市,气象台,,48,48,51,25,23,83,83,106,94,26,22,7,7,0.6,0.6
2025-11-15T2200,2365A,114.9322,25.8333,赣州市,市图书馆,,40,40,41,27,26,103,103,107,102,17,19,6,6,0.7,0.7
2025-11-15T2200,2366A,114.8905,25.8471,赣州市,华坚鞋城,,44,44,47,26,24,83,83,84,80,27,24,4,5,0.4,0.5
2025-11-15T2200,3109A,115.0093,25.8613,赣州市,赣县区卫计委,,44,44,41,29,31,35,35,102,69,36,23,7,8,0.5,0.6
2025-11-15T2200,2683A,106.2319,36.1417,固原市,马园,,,,,,,,,,,,,,,,
2025-11-15T2200,2684A,106.2792,36.0022,固原市,监测站,颗粒物(PM10),80,110,56,34,26,61,61,82,73,23,32,7,6,0.6,0.9
2025-11-15T2200,2685A,106.2375,36.0211,固原市,新区,颗粒物(PM10),82,113,67,27,28,59,59,87,73,28,35,9,7,0.2,0.7
2025-11-15T2200,3522A,106.2177,35.9959,固原市,原州区十五小,颗粒物(PM10),71,91,47,24,21,70,70,88,76,13,11,12,4,0.7,0.7
2025-11-15T2200,2543A,106.6308,30.5278,广安市,小平旧居,,,,,,,,,,,,,,,,
2025-11-15T2200,2544A,106.6303,30.4576,广安市,市委,,39,36,28,27,22,17,17,34,30,20,16,3,3,0.7,0.6
2025-11-15T2200,2545A,106.6271,30.4663,广安市,友谊中学,,42,35,29,29,20,22,22,36,32,17,14,6,6,0.5,0.5
2025-11-15T2200,2547A,106.6388,30.4551,广安市,广电花园,,39,30,22,27,22,15,15,29,26,19,14,2,1,0.7,0.6
2025-11-15T2200,2902A,106.6351,30.4865,广安市,北辰小学,,39,33,28,27,20,22,22,34,30,12,12,7,7,0.6,0.6
2025-11-15T2200,2523A,105.8945,32.4535,广元市,黑石坡,,,,,,,,,,,,,,,,
2025-11-15T2200,2524A,105.821,32.4444,广元市,老城,,32,32,26,22,20,34,34,65,60,18,21,6,4,0.7,0.7
2025-11-15T2200,2526A,105.8628,32.4287,广元市,监测站,,34,34,20,23,20,23,23,59,52,22,20,5,4,1.0,0.9
2025-11-15T2200,3617A,105.8047,32.4166,广元市,经开区,,33,33,37,19,20,23,23,57,50,24,22,3,4,0.6,0.6
2025-11-15T2200,1345A,113.2347,23.1423,广州市,广雅中学,细颗粒物(PM2.5),72,90,55,52,31,4,4,101,78,107,50,7,8,0.8,0.5
2025-11-15T2200,1346A,113.2612,23.105,广州市,市五中,细颗粒物(PM2.5),62,68,43,44,27,32,32,118,100,86,40,6,7,1.0,0.6
2025-11-15T2200,1348A,113.3478,23.0916,广州市,广东商学院,细颗粒物(PM2.5),62,67,37,44,25,34,34,99,82,64,24,4,5,0.4,0.2
2025-11-15T2200,1349A,113.4332,23.1047,广州市,市八十六中,颗粒物(PM10),57,64,34,37,23,9,9,96,72,91,42,6,6,0.7,0.4
2025-11-15T2200,1350A,113.3505,22.9483,广州市,番禺中学,颗粒物(PM10),57,64,47,37,29,11,11,108,84,89,45,6,7,0.6,0.5
2025-11-15T2200,1351A,113.2146,23.3916,广州市,花都师范,颗粒物(PM10),51,51,40,28,24,62,62,112,97,38,20,7,8,0.7,0.6
2025-11-15T2200,1352A,113.2597,23.1331,广州市,市监测站,颗粒物(PM10),66,82,45,41,26,49,49,107,97,67,33,7,8,0.9,0.5
2025-11-15T2200,1353A,113.5618,23.312,广州市,九龙镇镇龙,颗粒物(PM10),73,96,45,46,27,0,0,81,56,62,28,6,6,0.7,0.6
2025-11-15T2200,1354A,113.2765,23.1544,广州市,麓湖,,39,36,35,27,24,52,52,102,90,37,31,5,6,0.4,0.4
2025-11-15T2200,1355A,113.443,23.3035,广州市,帽峰山森林公园,,,,,,,,,,,,,,,,
2025-11-15T2200,2846A,113.3221,23.1322,广州市,体育西,细颗粒物(PM2.5),70,74,42,51,27,36,36,108,97,65,28,7,7,0.8,0.6
2025-11-15T2200,3298A,113.5717,23.5491,广州市,从化街口,细颗粒物(PM2.5),67,73,44,48,30,5,5,93,62,52,31,6,7,0.9,0.7
2025-11-15T2200,3299A,113.3472,23.3692,广州市,白云竹料,细颗粒物(PM2.5),67,76,47,48,30,28,28,116,88,49,27,4,5,0.9,0.6
2025-11-15T2200,3300A,113.2981,23.237,广州市,白云嘉禾,颗粒物(PM10),52,54,56,30,30,50,50,118,101,47,40,7,8,0.7,0.7
2025-11-15T2200,3301A,113.4256,23.1716,广州市,黄埔科学城,颗粒物(PM10),55,60,34,34,22,39,39,103,82,41,19,5,6,0.6,0.6
2025-11-15T2200,3302A,113.3942,23.0483,广州市,番禺大学城,细颗粒物(PM2.5),60,63,44,43,25,33,33,109,89,57,32,9,10,0.7,0.5
2025-11-15T2200,3303A,113.4922,22.8168,广州市,南沙黄阁,颗粒物(PM10),67,84,59,33,33,13,13,148,105,87,50,13,14,1.3,0.9
2025-11-15T2200,3304A,113.5342,22.7896,广州市,南沙街,颗粒物(PM10),62,74,53,42,30,85,85,147,124,44,43,6,9,0.6,0.6
2025-11-15T2200,3443A,113.2902,23.5544,广州市,花都梯面,,38,38,31,26,22,19,19,99,61,41,17,4,9,0.5,0.4
2025-11-15T2200,3445A,113.7858,23.7478,广州市,从化良口,,27,27,22,16,16,42,42,83,66,26,12,6,6,0.6,0.5
2025-11-15T2200,3446A,113.8051,23.2614,广州市,增城荔城,,42,42,34,28,21,50,50,93,76,21,12,8,8,0.6,0.5
2025-11-15T2200,2505A,109.568,23.1478,贵港市,德智高中,,,,,,,,,,,,,,,,
2025-11-15T2200,2506A,109.6047,23.0666,贵港市,江南子站,细颗粒物(PM2.5),69,75,60,50,38,76,76,111,98,21,21,9,9,0.8,0.8
2025-11-15T2200,2508A,109.5669,23.1065,贵港市,荷城子站,颗粒物(PM10),52,53,51,34,29,68,68,107,94,24,20,6,8,0.7,0.7
2025-11-15T2200,3405A,109.5886,23.1172,贵港市,新世纪学校,颗粒物(PM10),52,53,53,33,33,79,79,115,103,16,15,6,7,0.5,0.5
2025-11-15T2200,4260A,109.5933,23.0951,贵港市,中山路155-3号,"颗粒物(PM10),细颗粒物(PM2.5)",53,55,53,37,34,82,82,118,106,21,19,11,10,0.7,0.7
2025-11-15T2200,1439A,106.6899,26.5998,贵阳市,马鞍山,细颗粒物(PM2.5),55,51,43,39,24,27,27,91,69,23,19,3,4,0.6,0.5
2025-11-15T2200,1441A,106.6243,26.6266,贵阳市,鉴湖路,颗粒物(PM10),58,66,53,29,21,54,54,93,,26,26,7,8,0.5,0.5
2025-11-15T2200,1442A,106.7487,26.6343,贵阳市,燕子冲,细颗粒物(PM2.5),67,53,36,48,32,52,52,105,89,19,17,4,6,0.3,0.4
2025-11-15T2200,1443A,106.6555,26.4365,贵阳市,碧云窝,颗粒物(PM10),63,75,66,44,36,21,21,90,71,27,23,8,6,0.5,0.5
2025-11-15T2200,1445A,106.7109,26.6027,贵阳市,红边门,细颗粒物(PM2.5),64,70,47,46,29,42,42,96,70,36,28,21,13,1.0,0.8
2025-11-15T2200,1446A,106.7164,26.5699,贵阳市,新华路,颗粒物(PM10),63,75,59,41,29,26,26,106,66,55,36,17,28,0.7,0.6
2025-11-15T2200,1447A,106.674,26.5424,贵阳市,太慈桥,细颗粒物(PM2.5),55,58,45,39,29,10,10,95,67,45,27,4,5,0.3,0.4
2025-11-15T2200,1552A,106.805,26.3003,贵阳市,桐木岭,,39,34,42,27,23,66,66,93,83,7,7,26,22,0.6,0.6
2025-11-15T2200,4230A,106.6882,26.5695,贵阳市,花果园大街66号,颗粒物(PM10),51,51,44,28,25,36,36,95,73,38,29,10,6,1.0,0.9
2025-11-15T2200,4231A,106.6873,26.5169,贵阳市,漓江路57号,,,,43,,32,16,16,95,70,36,26,16,13,1.0,0.6
2025-11-15T2200,1862A,110.4144,25.3167,桂林市,电子科大尧山校区,,,,,,,,,,,,,,,,
2025-11-15T2200,1864A,110.3089,25.2708,桂林市,龙隐路小学,细颗粒物(PM2.5),60,48,39,43,35,72,72,107,74,16,14,10,7,0.4,0.4
2025-11-15T2200,1865A,110.2869,25.2178,桂林市,八中,颗粒物(PM10),51,52,46,30,34,56,56,112,73,23,16,11,9,0.2,0.2
2025-11-15T2200,3531A,110.296,25.1253,桂林市,旅游学院,细颗粒物(PM2.5),62,58,41,44,28,20,20,127,87,57,25,4,6,0.5,0.3
2025-11-15T2200,4222A,110.1835,25.2444,桂林市,环湖路276号,颗粒物(PM10),51,51,44,31,32,65,65,121,82,29,19,14,12,0.3,0.4
2025-11-15T2200,4301A,110.2803,25.2773,桂林市,信义路13号,,41,41,42,24,24,73,73,112,79,24,15,10,9,0.6,0.6
2025-11-15T2200,2674A,100.2561,34.4714,果洛藏族自治州,玛沁县大武镇,,,46,38,9,9,,,86,85,11,6,21,19,0.6,0.4
2025-11-15T2200,1129A,126.5422,45.755,哈尔滨市,岭北,,,,,,,,,,,,,,,,
2025-11-15T2200,1130A,126.561,45.8167,哈尔滨市,松北商大,细颗粒物(PM2.5),162,200,137,123,110,25,25,47,41,42,46,9,10,1.2,1.1
2025-11-15T2200,1131A,126.979,45.5419,哈尔滨市,阿城会宁,细颗粒物(PM2.5),230,212,140,180,102,34,34,64,50,38,39,10,15,1.2,1
2025-11-15T2200,1132A,126.599,45.7222,哈尔滨市,南岗学府路,细颗粒物(PM2.5),152,166,130,116,91,17,17,48,37,46,44,15,15,1.1,0.8
2025-11-15T2200,1133A,126.689,45.7733,哈尔滨市,太平宏伟公园,细颗粒物(PM2.5),196,160,147,147,110,23,23,52,44,52,47,14,14,1.3,1.1
2025-11-15T2200,1134A,126.635,45.7667,哈尔滨市,道外承德广场,细颗粒物(PM2.5),163,188,159,124,105,22,22,45,34,54,56,16,15,0.9,1
2025-11-15T2200,1135A,126.685,45.7319,哈尔滨市,香坊红旗大街,细颗粒物(PM2.5),215,219,153,165,108,9,9,48,33,75,51,18,18,1.6,1
2025-11-15T2200,1136A,126.6411,45.7258,哈尔滨市,动力和平路,细颗粒物(PM2.5),190,154,127,143,102,27,27,57,48,51,45,15,14,1.1,0.9
2025-11-15T2200,1137A,126.593,45.7478,哈尔滨市,道里建国路,细颗粒物(PM2.5),202,166,123,152,106,14,14,49,34,62,50,22,18,0.3,1.5
2025-11-15T2200,1138A,126.615,45.61,哈尔滨市,平房东轻厂,细颗粒物(PM2.5),209,210,145,159,110,25,25,56,38,47,51,12,15,1.1,1
2025-11-15T2200,1139A,126.595,45.9855,哈尔滨市,呼兰师专,细颗粒物(PM2.5),207,190,128,157,111,28,28,46,38,44,34,14,11,1.2,0.8
2025-11-15T2200,1140A,126.6206,45.6842,哈尔滨市,省农科院,细颗粒物(PM2.5),228,193,152,178,115,16,16,46,34,74,54,12,12,1.2,0.9
2025-11-15T2200,2688A,93.5128,42.8172,哈密市,地区监测站,,31,31,67,6,12,48,48,61,60,9,10,1,2,0.2,0.1
2025-11-15T2200,2689A,93.4961,42.8328,哈密市,哈密师范学校,,21,21,50,10,11,48,48,58,56,11,11,4,5,0.2,0.3
2025-11-15T2200,2671A,100.9048,36.9639,海北藏族自治州,海晏县西海镇,,32,32,28,12,12,76,76,97,93,6,5,10,10,0.4,0.3
2025-11-15T2200,3867A,102.0738,36.5056,海东市,平安区公安北苑,颗粒物(PM10),65,80,60,21,34,66,66,80,77,10,18,14,14,0.6,0.8
2025-11-15T2200,1409A,110.576,19.9507,海口市,东寨港,,,,,,,,,,,,,,,,
2025-11-15T2200,1410A,110.3232,20.0574,海口市,海南大学,,37,32,36,16,23,118,118,143,142,6,8,5,6,0.4,0.4
2025-11-15T2200,1411A,110.283,20.0053,海口市,秀英海南医院,,43,43,38,13,21,111,111,132,132,6,10,7,8,0.3,0.3
2025-11-15T2200,1412A,110.338,19.9969,海口市,海南师范大学,,40,40,35,16,21,118,118,141,140,7,10,5,5,0.4,0.4
2025-11-15T2200,1413A,110.33,20.0356,海口市,龙华路环保局宿舍,,41,41,37,15,22,119,119,145,144,8,10,7,8,0.3,0.4
2025-11-15T2200,3539A,110.5111,19.9736,海口市,桂林洋子站,,39,39,40,18,23,117,117,132,130,6,9,7,7,0.3,0.4
2025-11-15T2200,2673A,100.6188,36.2866,海南藏族自治州,共和县恰卜恰镇,,31,29,36,6,10,99,99,104,104,3,11,12,11,0.3,0.4
2025-11-15T2200,2676A,97.3731,37.3753,海西蒙古族藏族自治州,德令哈市,,32,32,38,21,12,76,76,96,91,12,8,15,19,0.6,0.5
2025-11-15T2200,1048A,114.5302,36.6116,邯郸市,东污水处理厂,细颗粒物(PM2.5),147,136,105,112,83,54,54,90,82,35,47,6,10,0.6,1
2025-11-15T2200,1049A,114.4918,36.5713,邯郸市,矿院,细颗粒物(PM2.5),140,131,95,107,82,50,50,93,81,39,48,4,7,0.6,1
2025-11-15T2200,1050A,114.484,36.6133,邯郸市,丛台公园,细颗粒物(PM2.5),132,131,99,100,74,61,61,101,91,34,44,6,11,0.6,0.9
2025-11-15T2200,3458A,114.7895,36.5593,邯郸市,香泉濮院小区,细颗粒物(PM2.5),172,205,140,130,86,51,51,94,84,43,46,9,11,0.9,0.9
2025-11-15T2200,3579A,114.50634,36.77178,邯郸市,永年区实验高中,细颗粒物(PM2.5),103,136,98,77,50,28,28,95,84,66,52,8,14,0.9,1.2
2025-11-15T2200,3580A,114.20016,36.44293,邯郸市,峰峰矿区临水派出所,细颗粒物(PM2.5),138,118,57,105,47,47,47,103,84,56,27,14,14,1.6,0.9
2025-11-15T2200,2634A,106.9893,33.1842,汉中市,汉川机床厂子校,,,,,,,,,,,,,,,,
2025-11-15T2200,2635A,107.0154,33.0706,汉中市,市监测站,细颗粒物(PM2.5),89,89,60,66,45,9,9,58,49,45,22,4,4,1.0,0.8
2025-11-15T2200,2636A,107.0089,33.1138,汉中市,鑫源开发区,颗粒物(PM10),71,91,64,41,40,3,3,56,44,48,29,6,9,0.9,0.7
2025-11-15T2200,2637A,107.007,33.0323,汉中市,南郑大河坎水厂,细颗粒物(PM2.5),83,86,55,61,40,10,10,57,45,29,21,3,3,0.9,0.8
2025-11-15T2200,1223A,120.2072,30.2111,杭州市,滨江,颗粒物(PM10),55,60,99,23,45,46,46,128,103,47,53,8,8,0.3,0.6
2025-11-15T2200,1224A,120.0633,30.2747,杭州市,西溪,,50,50,87,15,41,41,41,127,98,20,38,7,8,0.6,0.8
2025-11-15T2200,1226A,120.3417,30.3150,杭州市,下沙,,40,40,70,20,45,46,46,140,107,49,56,6,8,0.3,0.5
2025-11-15T2200,1227A,120.1269,30.2456,杭州市,卧龙桥,,47,47,76,27,45,14,14,124,76,29,36,9,11,0.4,0.6
2025-11-15T2200,1228A,120.1903,30.2692,杭州市,浙江农大,,38,38,82,20,56,38,38,139,115,55,57,8,9,0.7,1
2025-11-15T2200,1230A,120.1197,30.3119,杭州市,和睦小学,,39,37,79,27,52,59,59,141,118,36,50,8,9,0.7,1
2025-11-15T2200,1231A,120.3019,30.4183,杭州市,临平镇,颗粒物(PM10),55,59,89,37,57,36,36,139,106,50,49,7,8,0.5,0.6
2025-11-15T2200,1232A,120.2753,30.1839,杭州市,城厢镇,颗粒物(PM10),55,60,86,31,55,49,49,141,106,50,64,9,9,0.5,0.7
2025-11-15T2200,1233A,120.0883,30.1808,杭州市,云栖,,48,48,82,24,50,21,21,130,86,38,37,5,6,0.5,0.7
2025-11-15T2200,3557A,119.9464,30.0494,杭州市,镇二中,细颗粒物(PM2.5),105,113,84,79,56,42,42,132,103,48,42,6,6,0.8,0.8
2025-11-15T2200,3558A,119.7183,30.2367,杭州市,市府大楼,细颗粒物(PM2.5),134,177,95,102,55,41,41,141,116,46,29,9,10,1.2,1
2025-11-15T2200,3656A,120.1556,30.2864,杭州市,消防大队,,48,48,100,23,68,61,61,133,112,39,53,9,10,0.3,0.6
2025-11-15T2200,1270A,117.1959,31.7848,合肥市,明珠广场,细颗粒物(PM2.5),119,141,132,90,85,68,68,139,109,81,71,8,9,0.9,0.9
2025-11-15T2200,1271A,117.3072,31.8764,合肥市,三里街,细颗粒物(PM2.5),128,151,147,97,94,49,49,125,96,94,74,8,9,1.2,1.1
2025-11-15T2200,1272A,117.2588,31.8707,合肥市,琥珀山庄,细颗粒物(PM2.5),110,156,134,83,84,51,51,129,102,68,49,6,8,1.3,1.1
2025-11-15T2200,1273A,117.1604,31.9052,合肥市,董铺水库,,,,,,,,,,,,,,,,
2025-11-15T2200,1274A,117.25,31.8571,合肥市,长江中路,细颗粒物(PM2.5),148,158,141,113,100,95,95,138,128,50,43,8,8,1.0,1
2025-11-15T2200,1275A,117.266,31.9436,合肥市,庐阳区,细颗粒物(PM2.5),128,171,160,97,97,48,48,125,99,108,90,8,8,1.2,1.2
2025-11-15T2200,1276A,117.3453,31.8616,合肥市,瑶海区,细颗粒物(PM2.5),123,151,151,93,95,85,85,139,114,67,79,8,8,0.9,0.9
2025-11-15T2200,1277A,117.3027,31.7964,合肥市,包河区,细颗粒物(PM2.5),132,156,141,100,96,5,5,140,99,176,100,11,12,1.1,1
2025-11-15T2200,1278A,117.2776,31.7385,合肥市,滨湖新区,细颗粒物(PM2.5),122,136,129,92,90,122,122,165,,35,40,8,8,0.8,0.9
2025-11-15T2200,1279A,117.1318,31.8403,合肥市,高新区,细颗粒物(PM2.5),109,124,123,82,81,103,103,138,125,57,45,7,7,1.0,0.9
2025-11-15T2200,3464A,117.3803,31.9147,合肥市,高教基地,细颗粒物(PM2.5),183,166,123,138,79,50,50,128,100,68,47,6,8,0.9,0.8
2025-11-15T2200,3614A,79.924,37.0877,和田地区,地区环保局,细颗粒物(PM2.5),205,229,141,155,71,51,51,96,89,62,26,33,12,1.3,0.8
2025-11-15T2200,3615A,79.9131,37.113,和田地区,市环保局,颗粒物(PM10),115,179,164,67,76,11,11,102,82,102,52,6,10,3.1,1.9
2025-11-15T2200,2516A,108.2011,24.715,河池市,东仁乐园,,,,,,,,,,,,,,,,
2025-11-15T2200,2517A,108.0497,24.6947,河池市,市环保站,,48,33,28,33,19,11,11,84,64,38,20,5,6,0.6,0.5
2025-11-15T2200,2518A,108.0983,24.6989,河池市,市疾控中心,,42,42,38,23,25,5,5,79,50,45,27,5,5,0.7,0.6
2025-11-15T2200,1696A,114.6778,23.7569,河源市,源西,,,,,,,,,,,,,,,,
2025-11-15T2200,1697A,114.6944,23.7586,河源市,东埔,,39,38,33,27,23,52,52,104,83,31,16,5,6,0.8,0.7
2025-11-15T2200,1698A,114.6892,23.7233,河源市,老城,,31,31,32,18,21,43,43,98,77,23,11,6,6,0.7,0.6
2025-11-15T2200,1718A,115.4208,35.2464,菏泽市,气象局,细颗粒物(PM2.5),205,217,199,155,132,99,99,109,107,34,34,6,5,0.8,0.6
2025-11-15T2200,3374A,115.5564,35.0891,菏泽市,定陶老年大学,细颗粒物(PM2.5),208,212,175,158,120,83,83,103,96,40,39,5,5,0.5,0.3
2025-11-15T2200,4184A,115.4797,35.24401,菏泽市,永昌路1号,细颗粒物(PM2.5),202,213,179,152,125,86,86,106,100,43,33,5,5,0.7,0.5
2025-11-15T2200,4193A,115.4715,35.2800,菏泽市,长城路999号,细颗粒物(PM2.5),199,211,177,149,114,84,84,101,97,42,34,3,4,0.9,0.7
2025-11-15T2200,2514A,111.5264,24.4172,贺州市,环保小区,细颗粒物(PM2.5),75,66,50,55,33,32,32,105,75,21,19,3,4,0.9,0.8
2025-11-15T2200,2515A,111.5608,24.4078,贺州市,政协大楼,"颗粒物(PM10),细颗粒物(PM2.5)",52,53,43,36,27,13,13,92,59,34,18,5,6,0.8,0.7
2025-11-15T2200,3534A,111.4744,24.4553,贺州市,西湾,细颗粒物(PM2.5),62,59,47,44,32,8,8,97,62,47,23,6,6,0.9,0.7
2025-11-15T2200,2385A,114.17,35.9019,鹤壁市,市监测站,细颗粒物(PM2.5),138,130,100,105,66,23,23,62,53,50,43,6,6,1.0,0.8
2025-11-15T2200,2386A,114.2956,35.7511,鹤壁市,市交警支队,细颗粒物(PM2.5),122,185,134,92,71,30,30,64,56,74,66,3,4,0.6,0.7
2025-11-15T2200,2387A,114.2878,35.7306,鹤壁市,迎宾馆,颗粒物(PM10),125,200,144,93,71,30,30,70,59,69,60,9,11,0.7,0.8
2025-11-15T2200,3474A,114.2617,35.6822,鹤壁市,大新区,细颗粒物(PM2.5),123,187,116,93,73,2,2,68,47,96,65,6,8,0.6,0.7
2025-11-15T2200,3596A,114.1572,35.9603,鹤壁市,南山宾馆,"颗粒物(PM10),细颗粒物(PM2.5)",100,149,101,75,55,49,49,77,68,39,33,8,10,0.7,0.6
2025-11-15T2200,2244A,130.2537,47.3416,鹤岗市,哈啤分公司,,21,21,28,14,19,31,31,27,26,10,14,15,14,0.5,0.6
2025-11-15T2200,2245A,130.2684,47.3086,鹤岗市,斯达机电,,30,30,28,15,16,34,34,39,33,12,14,13,13,0.6,0.7
2025-11-15T2200,2246A,130.3114,47.3388,鹤岗市,东山纸板厂,,32,32,70,11,18,33,33,35,33,12,20,15,16,0.7,1
2025-11-15T2200,2247A,130.1097,47.3382,鹤岗市,五号水库,,,,,,,,,,,,,,,,
2025-11-15T2200,2263A,127.4833,50.2524,黑河市,交通局,,20,18,23,14,17,39,39,34,34,12,16,4,4,0.2,0.3
2025-11-15T2200,2264A,127.5144,50.2341,黑河市,环保局,,22,22,32,12,19,36,36,32,32,11,20,4,11,0.4,0.5
2025-11-15T2200,2265A,127.5291,50.2472,黑河市,大黑河岛,,,,,,,,,,,,,,,,
2025-11-15T2200,1074A,115.6838,37.7541,衡水市,电机北厂,细颗粒物(PM2.5),196,206,153,147,96,69,69,86,82,34,42,8,11,0.7,0.7
2025-11-15T2200,1075A,115.6303,37.7316,衡水市,市监测站,细颗粒物(PM2.5),183,183,137,138,96,46,46,78,69,57,54,11,14,0.7,0.7
2025-11-15T2200,3188A,115.6683,37.7217,衡水市,市城管局,细颗粒物(PM2.5),176,181,146,133,95,56,56,77,72,43,51,8,11,0.7,0.8
2025-11-15T2200,3459A,115.5989,37.5491,衡水市,地表水厂,细颗粒物(PM2.5),195,208,172,146,118,28,28,81,64,59,61,8,11,0.6,0.7
2025-11-15T2200,2456A,112.5003,26.9167,衡阳市,原169医院,,,,,,,,,,,,,,,,
2025-11-15T2200,2457A,112.6194,26.9258,衡阳市,衡阳化工总厂,细颗粒物(PM2.5),65,67,59,47,39,83,83,133,120,23,20,9,11,0.8,0.8
2025-11-15T2200,2458A,112.6211,26.8956,衡阳市,珠晖区环保局,细颗粒物(PM2.5),55,54,56,39,37,68,68,126,107,48,29,12,13,1.1,1.1
2025-11-15T2200,2459A,112.6197,26.8733,衡阳市,市委党校,,49,49,52,30,31,104,104,134,126,18,21,8,10,0.8,0.9
2025-11-15T2200,2460A,112.6006,26.8919,衡阳市,市监测站,细颗粒物(PM2.5),68,75,66,49,41,87,87,133,120,28,22,8,9,0.9,1
2025-11-15T2200,2461A,112.5664,26.9056,衡阳市,真空机电公司,细颗粒物(PM2.5),59,59,53,42,37,85,85,131,119,30,19,12,12,1.1,1
2025-11-15T2200,3399A,112.6703,26.882,衡阳市,师范学院,颗粒物(PM10),56,61,60,38,33,100,100,138,128,21,21,18,14,1.0,0.9
2025-11-15T2200,2608A,103.3772,23.3993,红河哈尼族彝族自治州,污水处理厂,颗粒物(PM10),54,57,30,32,24,52,52,77,67,14,7,7,4,0.4,0.3
2025-11-15T2200,2609A,103.3861,23.35,红河哈尼族彝族自治州,监测站,,45,40,36,31,26,64,64,76,70,9,4,4,4,0.2,0.2
2025-11-15T2200,3038A,103.3758,23.368,红河哈尼族彝族自治州,州图书馆,,36,33,21,25,15,64,64,76,70,8,5,4,4,0.4,0.3
2025-11-15T2200,1090A,111.6507,40.7517,呼和浩特市,呼市一监,,27,27,124,3,40,64,64,63,62,6,33,4,7,0.3,0.7
2025-11-15T2200,1091A,111.6572,40.8033,呼和浩特市,小召,,27,27,120,7,41,60,60,58,58,12,45,6,9,0.3,0.6
2025-11-15T2200,1094A,111.7516,40.8369,呼和浩特市,如意水处理厂,,21,21,106,3,35,62,62,60,59,7,41,7,11,0.2,0.5
2025-11-15T2200,1095A,111.7276,40.8062,呼和浩特市,二十九中,,31,31,117,3,37,64,64,62,61,11,39,8,12,0.3,0.6
2025-11-15T2200,1096A,111.5512,40.7866,呼和浩特市,工大金川校区,,28,28,119,3,32,61,61,60,60,10,45,5,10,0.3,0.6
2025-11-15T2200,1097A,111.717,40.7612,呼和浩特市,化肥厂生活区,,24,24,96,3,39,64,64,60,59,11,42,3,7,0.2,0.6
2025-11-15T2200,3698A,111.5968,40.8178,呼和浩特市,红旗小学,,19,12,107,3,35,60,60,59,59,7,45,6,10,0.3,0.6
2025-11-15T2200,3699A,111.6518,40.8389,呼和浩特市,海东办,,22,22,115,3,35,64,64,62,62,9,40,4,8,0.1,0.5
2025-11-15T2200,3061A,119.7512,49.1577,呼伦贝尔市,国华电力东,,,27,26,14,12,,,58,52,6,9,8,8,0.4,0.3
2025-11-15T2200,4279A,119.7569,49.2222,呼伦贝尔市,伊敏大街东7号,,29,25,35,20,18,52,52,55,50,2,4,6,6,0.3,0.2
2025-11-15T2200,1250A,120.0751,30.8669,湖州市,城西水厂,颗粒物(PM10),58,66,75,29,36,68,68,146,118,47,57,8,10,0.5,0.6
2025-11-15T2200,2873A,120.0830,30.8929,湖州市,仁皇山新区,颗粒物(PM10),54,58,73,30,44,58,58,149,123,54,47,6,7,0.2,0.3
2025-11-15T2200,2907A,120.1844,30.8596,湖州市,吴兴区站,颗粒物(PM10),55,59,89,23,39,70,70,148,119,31,37,8,10,0.6,0.8
2025-11-15T2200,3562A,120.4148,30.8538,湖州市,南浔区站,颗粒物(PM10),56,62,73,28,38,56,56,146,104,41,38,6,6,0.5,0.6
2025-11-15T2200,1607A,120.9049,40.7211,葫芦岛市,龙港区,细颗粒物(PM2.5),290,257,171,240,147,33,33,88,78,61,52,13,18,1.4,1.5
2025-11-15T2200,1608A,120.8392,40.7514,葫芦岛市,化工街,细颗粒物(PM2.5),269,295,212,219,135,0,0,60,49,103,64,22,33,1.5,1.5
2025-11-15T2200,1609A,120.8341,40.7073,葫芦岛市,新区,细颗粒物(PM2.5),267,239,142,217,128,2,2,67,56,104,66,13,14,1.5,1.5
2025-11-15T2200,1610A,120.8695,40.7677,葫芦岛市,东城区,细颗粒物(PM2.5),301,,185,251,144,5,5,62,52,102,62,17,51,2.0,1.7
2025-11-15T2200,2482A,109.5981,27.5721,怀化市,林科所,,,,,,,,,,,,,,,,
2025-11-15T2200,2483A,109.9453,27.5444,怀化市,河西地税局,细颗粒物(PM2.5),54,51,46,38,31,16,16,101,71,25,19,3,5,0.5,0.5
2025-11-15T2200,2484A,109.9781,27.5342,怀化市,市四医院,细颗粒物(PM2.5),63,70,55,45,33,36,36,109,78,26,19,9,9,0.7,0.6
2025-11-15T2200,2485A,109.9972,27.5578,怀化市,监测楼,"颗粒物(PM10),细颗粒物(PM2.5)",58,66,49,41,32,12,12,101,69,30,20,3,4,0.3,0.2
2025-11-15T2200,2486A,110.0394,27.583,怀化市,市委党校,细颗粒物(PM2.5),83,100,54,61,36,3,3,106,65,42,24,10,13,0.4,0.3
2025-11-15T2200,1210A,119.036,33.5981,淮安市,钵池山,细颗粒物(PM2.5),129,134,121,98,92,101,101,144,132,42,44,13,12,0.9,0.9
2025-11-15T2200,1211A,119.007,33.575,淮安市,北京南路,细颗粒物(PM2.5),135,144,122,103,95,82,82,141,121,44,39,15,12,1.0,1
2025-11-15T2200,1212A,118.989,33.6067,淮安市,市监测站,细颗粒物(PM2.5),132,136,140,100,88,105,105,148,135,40,38,13,11,1.1,1.1
2025-11-15T2200,1213A,119.135,33.5039,淮安市,楚州区监测站,细颗粒物(PM2.5),127,139,138,96,97,63,63,136,107,60,64,11,12,0.9,1
2025-11-15T2200,3426A,118.8755,33.2894,淮安市,新华书店,细颗粒物(PM2.5),117,143,151,88,94,98,98,137,121,43,52,13,13,1.0,1.2
2025-11-15T2200,4206A,119.0288,33.6319,淮安市,承德北路606号,细颗粒物(PM2.5),122,149,140,92,88,101,101,134,124,36,41,12,11,0.9,1
2025-11-15T2200,2282A,116.8004,33.975,淮北市,监测站,细颗粒物(PM2.5),127,148,182,96,128,86,86,125,103,43,42,9,10,1.6,1
2025-11-15T2200,2283A,116.8091,33.9007,淮北市,烈山区政府,细颗粒物(PM2.5),123,132,169,93,140,77,77,127,119,48,50,10,14,0.8,0.8
2025-11-15T2200,3330A,116.8873,33.9836,淮北市,杜集区检察院,细颗粒物(PM2.5),129,134,158,98,123,120,120,140,136,28,31,8,9,0.9,0.8
2025-11-15T2200,4017A,116.7923,33.9535,淮北市,市博物馆,细颗粒物(PM2.5),149,167,185,114,139,64,64,121,105,58,42,11,13,1.2,0.7
2025-11-15T2200,2277A,116.8305,32.7727,淮南市,潘集区政府,细颗粒物(PM2.5),120,137,155,91,108,111,111,140,115,31,35,7,9,0.9,0.9
2025-11-15T2200,2279A,116.8569,32.5951,淮南市,谢家集区政府,细颗粒物(PM2.5),100,108,133,75,83,122,122,144,134,38,33,12,13,0.8,0.8
2025-11-15T2200,2280A,116.8281,32.633,淮南市,八公山区政府,细颗粒物(PM2.5),90,111,137,67,88,143,143,146,140,20,22,9,12,0.7,0.8
2025-11-15T2200,2281A,116.6325,32.6201,淮南市,焦岗湖风景区管理处,,,,,,,,,,,,,,,,
2025-11-15T2200,2894A,117.0566,32.6531,淮南市,经济技术开发区消防队,细颗粒物(PM2.5),90,126,140,67,87,131,131,141,132,32,37,10,11,0.7,0.7
2025-11-15T2200,3329A,117.0108,32.5893,淮南市,山南新区,细颗粒物(PM2.5),133,140,136,101,99,139,139,159,154,36,29,8,8,0.7,0.8
2025-11-15T2200,4209A,117.0031,32.6445,淮南市,国庆中路369号,细颗粒物(PM2.5),100,113,122,75,91,146,146,147,146,24,24,19,19,0.9,1
2025-11-15T2200,2446A,114.9028,30.4742,黄冈市,职工中心,细颗粒物(PM2.5),94,92,75,70,56,32,32,151,120,81,29,7,6,0.8,0.6
2025-11-15T2200,2929A,114.8858,30.4519,黄冈市,红卫路,细颗粒物(PM2.5),108,92,73,81,63,42,42,143,110,75,30,8,8,1.0,0.7
2025-11-15T2200,3398A,114.9136,30.4445,黄冈市,市林业局,细颗粒物(PM2.5),110,117,86,83,59,49,49,153,107,85,40,4,5,0.9,0.7
2025-11-15T2200,2672A,102.0199,35.5102,黄南藏族自治州,同仁县隆务镇,,31,31,36,10,12,72,72,77,76,1,6,9,10,0.2,0.3
2025-11-15T2200,2295A,118.2903,29.6963,黄山市,延安路89号,,,,34,,28,,,68,,,15,,4,,0.5
2025-11-15T2200,2297A,118.1371,30.2756,黄山市,黄山区政府5号楼,颗粒物(PM10),57,64,54,38,34,34,34,103,72,8,9,5,5,0.7,0.6
2025-11-15T2200,4210A,118.3354,29.7203,黄山市,滨江东路7-2号,细颗粒物(PM2.5),77,71,55,56,39,37,37,115,80,21,16,4,4,0.6,0.5
2025-11-15T2200,2423A,115.0601,30.2313,黄石市,沈家营,细颗粒物(PM2.5),92,118,100,68,58,66,66,131,110,35,35,9,13,1.0,0.9
2025-11-15T2200,2426A,114.8988,30.2019,黄石市,铁山,颗粒物(PM10),144,238,78,45,52,72,72,138,114,34,25,6,9,0.6,0.5
2025-11-15T2200,2427A,115.0307,30.2092,黄石市,团城山,细颗粒物(PM2.5),84,95,88,62,60,114,114,135,133,22,30,7,10,0.9,0.8
2025-11-15T2200,3149A,115.0235,30.1578,黄石市,笔架山北路,细颗粒物(PM2.5),90,124,122,67,65,111,111,149,139,18,19,11,11,0.8,0.8
2025-11-15T2200,4185A,115.0780,30.21118,黄石市,磁湖东路29号,细颗粒物(PM2.5),112,126,108,84,75,55,55,114,95,34,42,9,14,1.0,0.9
2025-11-15T2200,1392A,114.4183,23.0528,惠州市,河南岸金山湖子站,颗粒物(PM10),59,68,38,31,23,80,80,88,85,27,25,6,8,0.7,0.6
2025-11-15T2200,1393A,114.4053,23.0822,惠州市,下埔横江三路子站,颗粒物(PM10),63,75,40,37,23,93,93,102,99,23,13,6,7,0.9,0.8
2025-11-15T2200,1394A,114.4103,23.1142,惠州市,江北云山西路子站,颗粒物(PM10),57,64,36,32,21,103,103,110,108,26,16,8,6,0.6,0.5
2025-11-15T2200,1395A,114.4645,22.7833,惠州市,惠阳区承修路船湖子站,,49,49,46,18,25,104,104,126,124,17,26,5,6,0.5,0.6
2025-11-15T2200,1396A,114.5317,22.7422,惠州市,大亚湾管委会子站,,48,48,42,16,23,105,105,137,131,17,28,11,11,0.4,0.5
2025-11-15T2200,3314A,114.4338,22.8134,惠州市,惠阳秋长,颗粒物(PM10),51,51,44,18,24,111,111,129,128,16,24,8,10,0.6,0.7
2025-11-15T2200,3452A,114.6517,22.775,惠州市,大亚湾霞涌,颗粒物(PM10),52,54,40,16,22,76,76,120,114,19,17,10,11,0.6,0.6
2025-11-15T2200,2240A,130.9762,45.3001,鸡西市,环保局,细颗粒物(PM2.5),64,67,81,46,55,35,35,38,36,18,27,12,13,0.7,0.9
2025-11-15T2200,2243A,130.9429,45.3039,鸡西市,第一中学,细颗粒物(PM2.5),59,56,63,42,44,35,35,38,38,19,24,10,11,0.7,0.8
2025-11-15T2200,3707A,131.0207,45.3073,鸡西市,欧美日汽修厂,细颗粒物(PM2.5),68,76,85,49,57,34,34,39,36,16,28,10,13,0.8,1
2025-11-15T2200,3709A,130.9967,45.3106,鸡西市,市政设施管理处,细颗粒物(PM2.5),72,74,84,52,51,33,33,36,32,18,33,13,14,0.7,0.8
2025-11-15T2200,2367A,114.9754,27.0803,吉安市,红声器材厂,细颗粒物(PM2.5),63,70,51,45,28,73,73,135,124,33,23,9,9,0.7,0.5
2025-11-15T2200,2368A,114.9658,27.0999,吉安市,市森林工业局,细颗粒物(PM2.5),64,72,51,46,30,87,87,124,114,32,21,11,11,0.6,0.5
2025-11-15T2200,2369A,114.99,27.1312,吉安市,市环境监测站,颗粒物(PM10),61,71,46,41,29,75,75,130,118,30,20,16,17,0.6,0.6
2025-11-15T2200,2370A,115.0093,27.0968,吉安市,青原区法院,细颗粒物(PM2.5),70,83,50,51,30,67,67,122,103,37,30,11,11,0.7,0.6
2025-11-15T2200,1772A,126.54,43.8622,吉林市,哈达湾,细颗粒物(PM2.5),395,461,136,345,108,70,70,80,77,98,34,20,13,2.1,0.9
2025-11-15T2200,1773A,126.5844,43.8358,吉林市,东局子,细颗粒物(PM2.5),342,367,139,292,118,25,25,52,42,68,39,17,11,2.0,1.2
2025-11-15T2200,1774A,126.5052,43.8245,吉林市,电力学院,"颗粒物(PM10),细颗粒物(PM2.5)",500,613,210,526,184,36,36,72,52,97,48,18,14,2.5,1.3
2025-11-15T2200,1775A,126.6133,43.8972,吉林市,江北,细颗粒物(PM2.5),261,248,122,211,98,41,41,74,57,43,29,8,6,1.4,0.9
2025-11-15T2200,1776A,126.555,43.8306,吉林市,江南公园,细颗粒物(PM2.5),301,309,156,251,130,33,33,73,64,57,40,13,10,1.5,1
2025-11-15T2200,1778A,126.7061,43.7133,吉林市,丰满,细颗粒物(PM2.5),199,,59,149,65,41,41,67,61,22,11,10,10,1.0,0.5
2025-11-15T2200,2868A,126.4739,43.953,吉林市,九站,细颗粒物(PM2.5),222,232,147,172,119,44,44,76,64,50,45,11,20,1.2,1
2025-11-15T2200,1299A,116.9862,36.6114,济南市,科干所,细颗粒物(PM2.5),70,85,127,51,71,138,138,142,138,12,17,10,11,0.5,0.5
2025-11-15T2200,1300A,116.9376,36.665,济南市,农科所,细颗粒物(PM2.5),83,112,145,61,77,110,110,124,114,32,35,9,10,0.7,0.7
2025-11-15T2200,1301A,117.1265,36.6734,济南市,开发区,细颗粒物(PM2.5),92,98,123,68,80,113,113,137,119,22,20,5,6,0.7,0.7
2025-11-15T2200,1303A,117.0624,36.6868,济南市,省种子仓库,细颗粒物(PM2.5),83,92,136,61,87,123,123,140,130,22,23,8,9,0.6,0.7
2025-11-15T2200,1304A,116.9489,36.6447,济南市,机床二厂,细颗粒物(PM2.5),108,110,153,81,104,113,113,122,115,24,27,10,12,0.4,0.4
2025-11-15T2200,1305A,117.0495,36.663,济南市,市监测站,细颗粒物(PM2.5),83,85,130,61,86,126,126,138,131,19,22,4,6,0.3,0.4
2025-11-15T2200,1306A,116.7675,36.5484,济南市,长清党校,细颗粒物(PM2.5),110,151,167,83,89,129,129,134,132,26,30,12,12,0.8,0.7
2025-11-15T2200,1616A,117.6795,36.229,济南市,技术学院,细颗粒物(PM2.5),211,232,199,161,140,54,54,136,97,69,64,23,16,1.3,1.1
2025-11-15T2200,1961A,117.532,36.6868,济南市,东山小学,细颗粒物(PM2.5),140,161,162,107,104,131,131,139,134,25,26,14,11,1.0,0.7
2025-11-15T2200,3059A,117.7161,36.2049,济南市,泰兴公司,细颗粒物(PM2.5),223,237,201,173,140,3,3,122,58,99,66,13,10,1.2,1
2025-11-15T2200,3064A,117.6867,36.2171,济南市,莱芜战役纪念馆,细颗粒物(PM2.5),237,254,200,187,149,17,17,131,81,98,68,19,15,1.3,1.1
2025-11-15T2200,3494A,117.1673,36.9782,济南市,济阳区政府,细颗粒物(PM2.5),144,183,169,110,100,65,65,121,95,55,61,8,10,0.7,0.7
2025-11-15T2200,3495A,117.1171,36.63,济南市,锦屏中学,细颗粒物(PM2.5),74,88,115,54,69,124,124,135,126,17,19,5,5,0.6,0.6
2025-11-15T2200,3682A,116.9814,36.6819,济南市,济南四建,细颗粒物(PM2.5),83,90,131,61,82,118,118,133,125,19,20,7,8,0.8,0.8
2025-11-15T2200,1653A,116.6251,35.4302,济宁市,火炬城,细颗粒物(PM2.5),247,228,212,197,186,94,94,107,97,30,40,10,9,0.9,0.6
2025-11-15T2200,1655A,116.5491,35.4042,济宁市,电化厂,细颗粒物(PM2.5),218,260,232,168,154,84,84,109,95,41,39,,11,1.1,0.7
2025-11-15T2200,3500A,116.5814,35.3707,济宁市,北湖一中,细颗粒物(PM2.5),223,186,179,173,163,77,77,103,94,34,33,8,10,0.9,0.6
2025-11-15T2200,3501A,116.8249,35.5593,济宁市,服务中心,细颗粒物(PM2.5),204,224,227,154,159,49,49,98,79,48,41,9,11,0.9,0.7
2025-11-15T2200,3678A,116.5907,35.4054,济宁市,市第七中学,细颗粒物(PM2.5),213,198,189,163,156,87,87,114,99,45,55,14,14,1.1,0.8
2025-11-15T2200,2255A,130.2751,46.8028,佳木斯市,佳纺,颗粒物(PM10),56,61,81,25,50,14,14,22,14,16,24,4,5,0.7,0.9
2025-11-15T2200,2256A,130.3995,46.8307,佳木斯市,发电厂,颗粒物(PM10),57,63,74,25,39,18,18,27,18,12,24,8,14,0.5,0.6
2025-11-15T2200,2257A,130.3258,46.7975,佳木斯市,环保局,,,61,68,29,45,11,11,21,11,,28,5,5,0.5,0.7
2025-11-15T2200,2258A,130.3648,46.8032,佳木斯市,十一中,颗粒物(PM10),56,61,73,35,44,13,13,24,16,17,28,8,9,0.5,0.6
2025-11-15T2200,2259A,130.3794,46.7588,佳木斯市,四丰,,,,,,,,,,,,,,,,
2025-11-15T2200,1252A,120.7436,30.778,嘉兴市,清河小学,颗粒物(PM10),53,56,59,30,31,62,62,119,92,34,33,9,10,0.3,0.4
2025-11-15T2200,1253A,120.726,30.7478,嘉兴市,嘉兴学院,,50,50,61,22,26,60,60,132,100,45,37,7,8,0.3,0.4
2025-11-15T2200,2872A,120.7846,30.7525,嘉兴市,南湖区残联,,43,43,49,27,28,62,62,133,101,42,33,7,8,0.6,0.6
2025-11-15T2200,3407A,120.6916,30.7739,嘉兴市,秀洲住建,,47,47,56,24,31,62,62,138,101,41,36,6,7,0.3,0.4
2025-11-15T2200,1945A,98.2908,39.7711,嘉峪关市,气象局,,39,39,80,17,23,63,63,76,75,16,16,4,22,0.4,0.8
2025-11-15T2200,2884A,98.2672,39.7978,嘉峪关市,酒钢宾馆,,41,41,82,17,26,64,64,70,66,9,14,10,38,0.4,0.7
2025-11-15T2200,3248A,98.2643,39.7724,嘉峪关市,雄关区,,40,40,60,18,27,51,51,64,53,20,24,14,21,0.4,0.8
2025-11-15T2200,1383A,113.1064,22.6058,江门市,北街,细颗粒物(PM2.5),64,76,51,46,32,58,58,128,116,49,44,6,8,1.0,0.6
2025-11-15T2200,1384A,113.0731,22.5835,江门市,西区,颗粒物(PM10),79,107,53,51,32,41,41,125,103,72,47,7,8,0.9,0.6
2025-11-15T2200,1385A,113.0219,22.5311,江门市,圭峰西,细颗粒物(PM2.5),54,,44,38,29,90,90,140,135,35,31,5,7,0.7,0.5
2025-11-15T2200,1386A,113.0828,22.5947,江门市,东湖,"颗粒物(PM10),细颗粒物(PM2.5)",62,73,52,44,31,46,46,116,100,59,42,8,10,0.9,0.5
2025-11-15T2200,3311A,113.1075,22.5647,江门市,江海富民,,,76,56,29,25,,,140,140,,43,,12,,0.5
2025-11-15T2200,3449A,113.05,22.4667,江门市,新会银湖,细颗粒物(PM2.5),90,98,63,67,42,63,63,152,133,41,37,5,7,0.8,0.7
2025-11-15T2200,1830A,113.1992,35.2590,焦作市,影视城,,,,70,,34,,,61,,,37,,13,,0.7
2025-11-15T2200,3335A,113.3137,35.2641,焦作市,马村街道办,细颗粒物(PM2.5),79,99,93,58,58,43,43,69,60,29,37,6,10,0.3,0.4
2025-11-15T2200,3336A,113.2465,35.2373,焦作市,焦作技师学院,"颗粒物(PM10),细颗粒物(PM2.5)",77,104,95,56,50,39,39,63,55,41,50,6,10,0.9,1
2025-11-15T2200,3477A,113.1656,35.2539,焦作市,中站许衡医院,"颗粒物(PM10),细颗粒物(PM2.5)",78,106,93,57,48,55,55,64,61,38,42,8,15,0.5,0.7
2025-11-15T2200,3981A,113.2449,35.1803,焦作市,原李万街道办,颗粒物(PM10),93,136,103,66,49,6,6,37,32,68,46,11,14,0.9,0.6
2025-11-15T2200,4264A,113.2340,35.2190,焦作市,新安路1731号,颗粒物(PM10),84,117,119,61,55,44,44,69,57,41,47,8,12,1.0,1
2025-11-15T2200,4295A,113.2722,35.2121,焦作市,人民路3066号,,,113,100,62,46,14,14,70,46,62,47,,9,0.7,0.5
2025-11-15T2200,1708A,116.3701,23.5345,揭阳市,新兴,颗粒物(PM10),52,53,56,30,28,101,101,138,124,16,24,9,13,0.6,0.6
2025-11-15T2200,1709A,116.3264,23.5443,揭阳市,西马,颗粒物(PM10),51,52,58,25,31,104,104,138,128,14,22,5,8,0.7,0.8
2025-11-15T2200,1710A,116.3611,23.5626,揭阳市,东兴,,47,47,56,21,24,89,89,124,115,16,24,9,12,0.4,0.4
2025-11-15T2200,1711A,116.4151,23.5294,揭阳市,渔湖,,45,45,54,20,27,96,96,137,124,15,24,6,10,0.5,0.5
2025-11-15T2200,3320A,116.403,23.5699,揭阳市,曲溪,颗粒物(PM10),56,61,57,32,30,100,100,148,130,16,23,7,8,0.5,0.6
2025-11-15T2200,1944A,102.1692,38.5167,金昌市,天庆家园,颗粒物(PM10),64,78,121,18,32,62,62,71,68,8,19,2,16,0.5,0.7
2025-11-15T2200,4022A,102.1647,38.5371,金昌市,金川区人防中心,颗粒物(PM10),62,74,116,17,34,64,64,75,71,6,15,2,15,0.5,0.8
2025-11-15T2200,4239A,102.1930,38.5319,金昌市,长春路96号,颗粒物(PM10),72,94,120,29,34,62,62,76,71,7,18,5,45,0.5,0.7
2025-11-15T2200,1262A,119.647,29.077,金华市,十五中,细颗粒物(PM2.5),77,98,96,56,66,51,51,148,108,60,45,4,4,0.6,0.7
2025-11-15T2200,1263A,119.686,29.1029,金华市,监测站,细颗粒物(PM2.5),84,116,104,62,59,9,9,134,84,111,63,3,4,0.7,0.6
2025-11-15T2200,3659A,119.656,29.1131,金华市,气象局,细颗粒物(PM2.5),100,118,102,75,72,21,21,115,79,101,62,5,6,0.7,0.7
2025-11-15T2200,1767A,121.1115,41.0879,锦州市,南山,细颗粒物(PM2.5),311,,169,261,168,4,4,58,47,93,62,12,15,1.8,1.9
2025-11-15T2200,1768A,121.0604,40.8428,锦州市,开发区,细颗粒物(PM2.5),285,247,203,235,160,2,2,63,53,97,66,20,28,1.4,1.8
2025-11-15T2200,1769A,121.1836,41.1119,锦州市,百股街道,细颗粒物(PM2.5),260,251,155,210,134,1,1,56,41,90,60,13,16,1.8,1.6
2025-11-15T2200,1770A,121.1178,41.1222,锦州市,天安街道,细颗粒物(PM2.5),322,,160,272,165,1,1,56,43,93,62,17,21,2.3,2
2025-11-15T2200,1771A,121.1303,41.1386,锦州市,北湖公园,细颗粒物(PM2.5),305,,151,255,142,6,6,58,46,91,61,14,18,1.7,1.6
2025-11-15T2200,2160A,112.85,35.5051,晋城市,自来水公司,颗粒物(PM10),70,89,74,36,32,20,20,88,68,57,36,9,12,1.0,1.2
2025-11-15T2200,2161A,112.8318,35.4936,晋城市,白云商贸,颗粒物(PM10),56,62,75,17,19,16,16,88,62,49,30,3,6,0.9,1
2025-11-15T2200,2162A,112.8508,35.4887,晋城市,市环保局,颗粒物(PM10),88,125,84,27,31,19,19,93,72,51,32,4,9,0.8,1.1
2025-11-15T2200,2163A,112.8676,35.4897,晋城市,技术学院,颗粒物(PM10),74,97,78,41,34,10,10,83,66,77,41,6,10,1.1,1.1
2025-11-15T2200,2165A,112.8453,35.546,晋城市,白马寺,颗粒物(PM10),73,96,53,51,29,77,77,100,94,30,18,11,13,0.3,0.5
2025-11-15T2200,3620A,112.8271,35.4828,晋城市,泽州一中,颗粒物(PM10),67,83,66,31,27,40,40,92,75,46,32,4,6,0.6,0.8
2025-11-15T2200,2173A,112.7249,37.7067,晋中市,南都小区,颗粒物(PM10),110,169,136,81,65,3,3,81,49,102,66,14,23,1.5,1.4
2025-11-15T2200,2174A,112.6991,37.6982,晋中市,榆次区政府,细颗粒物(PM2.5),137,168,142,104,79,3,3,80,47,90,60,12,21,1.0,1.2
2025-11-15T2200,2865A,112.7195,37.6828,晋中市,榆次三中,颗粒物(PM10),106,161,142,68,63,4,4,84,52,79,56,11,18,1.0,1.3
2025-11-15T2200,4200A,112.7478,37.6954,晋中市,迎宾街26号,颗粒物(PM10),91,132,131,63,64,14,14,89,56,68,54,13,20,0.7,1
2025-11-15T2200,2439A,112.2014,31.0481,荆门市,竹园小学,细颗粒物(PM2.5),105,116,105,79,68,40,40,122,90,46,30,1,1,0.7,0.6
2025-11-15T2200,2440A,112.1969,30.9891,荆门市,掇刀,细颗粒物(PM2.5),123,144,114,93,74,27,27,128,90,51,32,2,1,0.9,0.7
2025-11-15T2200,2441A,112.2213,31.0386,荆门市,石化一小,细颗粒物(PM2.5),112,152,134,84,76,34,34,120,85,52,39,8,8,1.1,0.9
2025-11-15T2200,3012A,112.1849,31.0362,荆门市,西山林语,细颗粒物(PM2.5),94,97,89,70,60,81,81,122,104,15,16,4,5,0.7,0.7
2025-11-15T2200,3547A,112.1632,31.0138,荆门市,龙泉中学南校,细颗粒物(PM2.5),87,108,105,64,60,88,88,119,102,24,25,6,7,1.0,0.9
2025-11-15T2200,1844A,112.2494,30.3197,荆州市,市图书馆,细颗粒物(PM2.5),102,130,94,76,61,43,43,144,111,68,50,17,9,1.4,1.1
2025-11-15T2200,1845A,112.2008,30.3544,荆州市,市委党校,细颗粒物(PM2.5),104,121,105,78,67,26,26,124,99,83,47,9,11,1.1,0.9
2025-11-15T2200,3194A,112.2747,30.3122,荆州市,管委会,细颗粒物(PM2.5),95,119,95,71,62,21,21,136,102,72,51,16,10,1.0,0.9
2025-11-15T2200,4268A,112.1722,30.3366,荆州市,学苑路85号,细颗粒物(PM2.5),135,142,107,103,80,61,61,156,131,44,34,10,11,0.9,0.7
2025-11-15T2200,2342A,117.3102,29.3867,景德镇市,王港中学,,,,,,,,,,,,,,,,
2025-11-15T2200,2343A,117.2117,29.2933,景德镇市,老干部活动中心,细颗粒物(PM2.5),63,66,36,45,27,27,27,106,78,30,11,6,6,1.0,0.7
2025-11-15T2200,2344A,117.1894,29.2789,景德镇市,兽医站,颗粒物(PM10),60,70,46,40,25,37,37,126,80,38,20,11,9,0.6,0.4
2025-11-15T2200,2346A,117.2461,29.2956,景德镇市,陶研所,细颗粒物(PM2.5),67,59,38,48,32,25,25,119,80,22,11,4,7,0.6,0.4
2025-11-15T2200,4289A,117.1542,29.2566,景德镇市,青少年活动中心,颗粒物(PM10),67,83,41,45,28,33,33,118,88,54,20,45,8,0.9,0.6
2025-11-15T2200,1803A,115.9872,29.6815,九江市,十里,细颗粒物(PM2.5),102,103,89,76,62,33,33,133,92,66,53,4,6,1.3,1.2
2025-11-15T2200,1804A,115.9584,29.7046,九江市,茅山头,细颗粒物(PM2.5),82,97,89,60,61,3,3,118,74,86,47,4,6,0.9,0.9
2025-11-15T2200,1805A,115.9877,29.7295,九江市,西园,细颗粒物(PM2.5),113,123,93,85,68,38,38,141,93,113,74,6,10,1.4,1
2025-11-15T2200,1808A,115.9114,29.6038,九江市,综合工业园,,42,33,72,29,61,43,43,112,88,50,58,2,4,0.3,0.6
2025-11-15T2200,1809A,116.0721,29.7535,九江市,石化总厂,细颗粒物(PM2.5),159,137,111,121,90,81,81,131,111,48,35,6,7,1.0,1
2025-11-15T2200,1810A,115.9773,29.5698,九江市,庐山气象台,,,,,,,,,,,,,,,,
2025-11-15T2200,3190A,116.0254,29.6994,九江市,外国语学校,细颗粒物(PM2.5),107,123,94,80,66,106,106,127,102,35,59,15,7,0.9,0.9
2025-11-15T2200,4253A,116.0102,29.6594,九江市,莲花大道8号,颗粒物(PM10),57,64,90,31,46,88,88,126,106,16,25,7,8,0.6,0.8
2025-11-15T2200,4240A,98.4958,39.7339,酒泉市,玉门东路5号,,39,34,97,27,31,71,71,85,80,10,16,7,11,0.4,0.4
2025-11-15T2200,4241A,98.5099,39.7506,酒泉市,北大街108号,,32,,86,22,24,66,66,77,73,2,13,7,11,0.2,0.4
2025-11-15T2200,2698A,76.0072,39.4467,喀什地区,巡警大队,细颗粒物(PM2.5),163,273,259,124,109,14,14,93,86,129,69,15,11,2.3,1.9
2025-11-15T2200,2699A,75.9755,39.4694,喀什地区,吾办,颗粒物(PM10),195,340,241,129,107,7,7,88,77,131,69,15,12,3.2,2.1
2025-11-15T2200,4027A,75.9483,39.4689,喀什地区,老干局,细颗粒物(PM2.5),205,349,262,155,100,6,6,92,86,140,69,15,8,4.2,3
2025-11-15T2200,1824A,114.3389,34.7781,开封市,肿瘤医院,细颗粒物(PM2.5),149,216,164,114,98,50,50,95,86,54,51,10,12,1.0,0.8
2025-11-15T2200,1826A,114.2885,34.7965,开封市,世纪星幼儿园,细颗粒物(PM2.5),175,163,154,132,120,64,64,97,92,44,51,10,10,1.0,0.9
2025-11-15T2200,3147A,114.3438,34.8106,开封市,龙亭公园,细颗粒物(PM2.5),168,193,155,127,111,48,48,94,85,55,48,10,11,1.2,1
2025-11-15T2200,3210A,114.3644,34.7964,开封市,汴京公园,细颗粒物(PM2.5),160,213,176,122,113,42,42,83,74,60,55,9,10,1.0,0.9
2025-11-15T2200,3473A,114.2485,34.8306,开封市,技师学院,细颗粒物(PM2.5),134,159,142,102,100,84,84,105,103,31,43,11,11,1.1,1
2025-11-15T2200,3592A,114.4644,34.7556,开封市,祥符区生态环境局,细颗粒物(PM2.5),163,221,193,124,113,11,11,92,69,102,58,7,8,1.0,0.9
2025-11-15T2200,1951A,84.895,45.6094,克拉玛依市,长征新村,,25,25,14,6,8,29,29,44,38,17,7,6,6,0.2,0.1
2025-11-15T2200,1952A,84.8988,45.5893,克拉玛依市,南林小区,,26,26,12,3,3,27,27,46,40,15,3,7,7,0.4,0.4
2025-11-15T2200,1954A,84.905,44.3396,克拉玛依市,独山子区,颗粒物(PM10),64,77,57,34,22,20,20,36,17,21,21,4,5,0.3,0.4
2025-11-15T2200,1955A,85.6979,46.098,克拉玛依市,乌尔禾区商贸楼,,25,25,20,6,6,11,11,43,34,39,15,6,6,0.4,0.3
2025-11-15T2200,3612A,85.1045,45.6899,克拉玛依市,白碱滩区新站,,28,,11,19,9,41,41,50,46,9,5,5,5,0.3,0.3
2025-11-15T2200,2697A,76.1454,39.7142,克孜勒苏柯尔克孜自治州,市人民政府,颗粒物(PM10),111,171,172,76,77,66,66,103,100,47,22,8,21,0.5,0.4
2025-11-15T2200,3665A,76.1658,39.7157,克孜勒苏柯尔克孜自治州,克州文化中心,颗粒物(PM10),105,160,181,62,70,77,77,102,102,43,22,9,22,1.2,0.7
2025-11-15T2200,1450A,102.8204,24.8886,昆明市,呈贡新区,细颗粒物(PM2.5),57,,26,40,28,28,28,89,76,44,23,6,4,0.4,0.4
2025-11-15T2200,1451A,102.6251,24.9608,昆明市,西山森林公园,,,,,,,,,,,,,,,,
2025-11-15T2200,1452A,102.7252,25.0902,昆明市,龙泉镇,颗粒物(PM10),52,54,29,27,16,1,1,84,64,49,21,3,3,0.7,0.5
2025-11-15T2200,1453A,102.7266,25.0375,昆明市,东风东路,,34,34,29,22,18,47,47,95,79,26,20,4,2,0.6,0.5
2025-11-15T2200,1454A,102.6742,25.0669,昆明市,金鼎山,,35,35,42,24,17,50,50,94,77,19,24,4,2,0.5,0.5
2025-11-15T2200,1455A,102.6644,25.0401,昆明市,碧鸡广场,,49,49,34,24,18,35,35,81,64,30,26,5,3,0.5,0.5
2025-11-15T2200,3179A,102.7494,25.0119,昆明市,官渡区博物馆,,34,34,28,17,16,44,44,87,77,27,25,3,3,0.5,0.4
2025-11-15T2200,3375A,102.8017,24.8336,昆明市,青年创业园,,37,37,22,24,14,13,13,84,70,40,16,2,2,0.8,0.7
2025-11-15T2200,3550A,102.7997,24.9786,昆明市,昆明学院,,35,35,42,20,22,52,52,92,82,26,23,1,1,0.5,0.6
2025-11-15T2200,3551A,102.5967,24.6736,昆明市,晋宁区生态环境分局,细颗粒物(PM2.5),58,64,31,41,19,33,33,84,74,30,20,2,2,0.8,0.5
2025-11-15T2200,3552A,102.6678,24.9856,昆明市,云天化总部,,23,22,24,16,15,63,63,85,79,13,21,8,5,0.7,0.5
2025-11-15T2200,1456A,91.1319,29.6514,拉萨市,八廓街,,40,40,15,24,9,44,44,109,92,48,12,6,6,0.9,0.2
2025-11-15T2200,1457A,91.1221,29.6747,拉萨市,市环保局,,42,42,20,21,10,28,28,106,80,43,19,7,7,1.1,0.6
2025-11-15T2200,1458A,91.0874,29.6475,拉萨市,区监测站,,30,17,11,15,7,42,42,105,84,59,20,5,5,0.7,0.3
2025-11-15T2200,1459A,91.1774,29.6541,拉萨市,西藏大学,,24,24,11,11,7,65,65,102,92,30,14,5,5,0.4,0.3
2025-11-15T2200,1460A,90.9798,29.6588,拉萨市,区辐射站,,44,44,22,27,10,44,44,89,70,46,24,6,5,0.6,0.4
2025-11-15T2200,1461A,91.0834,29.6292,拉萨市,拉萨火车站,,27,24,15,18,8,38,38,102,89,54,17,5,5,0.9,0.5
2025-11-15T2200,2520A,109.2203,23.7256,来宾市,来宾技工学校,细颗粒物(PM2.5),63,56,44,45,35,52,52,111,98,17,11,10,13,0.8,0.6
2025-11-15T2200,3535A,109.1781,23.7297,来宾市,兴宾区政府,,49,49,39,31,27,71,71,114,98,9,9,10,11,0.5,0.5
2025-11-15T2200,4002A,109.2416,23.7461,来宾市,中南小学,细颗粒物(PM2.5),59,66,49,42,30,44,44,110,96,38,21,11,12,1.0,0.9
2025-11-15T2200,1477A,104.1373,35.9454,兰州市,榆中兰大校区,,,,,,,,,,,,,,,,
2025-11-15T2200,1479A,103.831,36.0464,兰州市,铁路设计院,,,,,,,,,,,,,,,,
2025-11-15T2200,3241A,103.7439,36.0842,兰州市,百合公园,颗粒物(PM10),73,95,88,29,50,76,76,71,71,8,44,8,13,0.4,1.1
2025-11-15T2200,3242A,103.9611,35.998,兰州市,和平,颗粒物(PM10),80,110,79,52,45,66,66,84,82,19,33,14,11,0.3,0.6
2025-11-15T2200,4236A,103.6293,36.0938,兰州市,庄浪东路808号,颗粒物(PM10),80,109,91,37,53,84,84,77,74,18,56,10,16,0.3,0.8
2025-11-15T2200,4237A,103.7251,36.1043,兰州市,安宁西路88号,颗粒物(PM10),85,120,108,39,56,93,93,89,89,8,47,3,15,0.3,0.9
2025-11-15T2200,4238A,103.8470,36.0676,兰州市,北滨河东路1号,颗粒物(PM10),76,102,91,32,49,84,84,85,85,20,59,8,14,0.3,1.1
2025-11-15T2200,3245A,103.6633,36.533,兰州新区,新区管委会,颗粒物(PM10),75,100,74,41,35,82,82,94,92,9,17,7,14,0.3,0.4
2025-11-15T2200,3246A,103.6975,36.4789,兰州新区,舟曲中学,颗粒物(PM10),76,102,67,21,29,91,91,98,98,8,26,2,13,0.1,0.3
2025-11-15T2200,1067A,116.6708,39.5111,廊坊市,药材公司,细颗粒物(PM2.5),137,174,129,104,82,8,8,49,34,94,69,11,7,0.9,0.9
2025-11-15T2200,1068A,116.7214,39.5589,廊坊市,开发区,细颗粒物(PM2.5),95,124,124,71,77,1,1,49,28,75,65,4,4,1.0,0.8
2025-11-15T2200,1070A,116.7244,39.5269,廊坊市,北华航天学院,细颗粒物(PM2.5),129,175,149,98,88,5,5,50,34,95,72,10,7,0.9,0.9
2025-11-15T2200,2919A,116.7022,39.5453,廊坊市,河北工业大学,细颗粒物(PM2.5),139,181,141,106,81,6,6,51,34,93,67,12,8,0.9,0.8
2025-11-15T2200,2535A,103.7723,29.5462,乐山市,花湖湾,,,,,,,,,,,,,,,,
2025-11-15T2200,2536A,103.7627,29.5844,乐山市,牛耳桥,,46,46,36,30,21,3,3,63,48,49,21,6,7,0.7,0.6
2025-11-15T2200,2537A,103.7508,29.6006,乐山市,市第三水厂,,,61,35,,18,10,10,64,50,44,24,6,6,0.8,0.6
2025-11-15T2200,2538A,103.7571,29.5664,乐山市,市监测站,,36,34,34,25,20,42,42,67,63,20,14,6,7,0.6,0.6
2025-11-15T2200,3361A,103.7311,29.5628,乐山市,理工大学,,38,35,33,26,21,42,42,70,65,15,12,7,7,0.5,0.4
2025-11-15T2200,2598A,100.2143,26.8576,丽江市,西南郊,,42,42,25,19,13,38,38,90,80,34,10,8,7,0.9,0.7
2025-11-15T2200,2599A,100.2497,26.8802,丽江市,丽江古城,,25,22,22,3,12,77,77,63,,13,13,11,10,0.0,0.5
2025-11-15T2200,2600A,100.2203,26.8906,丽江市,市中心,,26,19,19,18,13,80,80,96,91,14,13,12,12,0.5,0.4
2025-11-15T2200,1267A,119.914,28.4514,丽水市,监测站大楼,,46,46,46,30,25,18,18,94,57,40,32,6,5,0.5,0.5
2025-11-15T2200,1268A,119.93,28.4586,丽水市,莲都小学,,45,45,47,18,23,26,26,95,72,37,27,4,4,0.4,0.4
2025-11-15T2200,1269A,119.879,28.4231,丽水市,余庄前,,45,45,58,22,31,10,10,85,55,21,20,3,3,0.4,0.5
2025-11-15T2200,1173A,119.176,34.5885,连云港市,市环境监测站,细颗粒物(PM2.5),134,153,151,102,106,86,86,144,127,44,31,13,13,1.1,1
2025-11-15T2200,3000A,119.3581,34.6972,连云港市,德源药业,细颗粒物(PM2.5),110,144,147,83,86,85,85,136,126,45,42,7,8,1.0,0.8
2025-11-15T2200,3007A,119.178,34.844,连云港市,新城一中,细颗粒物(PM2.5),145,152,160,111,121,64,64,140,126,76,49,9,13,1.0,0.9
2025-11-15T2200,3008A,119.3608,34.7519,连云港市,胡沟管理处,细颗粒物(PM2.5),94,117,127,70,79,127,127,145,142,31,28,12,11,0.7,0.7
2025-11-15T2200,3009A,119.1478,34.5911,连云港市,矿山设计院,细颗粒物(PM2.5),110,134,153,83,99,135,135,146,140,13,18,4,4,0.7,0.8
2025-11-15T2200,3434A,119.2413,34.6539,连云港市,工贸学校,细颗粒物(PM2.5),113,134,142,85,93,140,140,162,156,27,30,14,14,1.0,0.9
2025-11-15T2200,3664A,119.4172,34.7341,连云港市,连云街道,细颗粒物(PM2.5),95,121,134,71,83,141,141,163,156,30,25,10,10,0.6,0.6
2025-11-15T2200,2571A,102.3431,27.8099,凉山彝族自治州,青龙寺,,,,,,,,,,,,,,,,
2025-11-15T2200,2572A,102.2721,27.8415,凉山彝族自治州,邛海宾馆,,29,29,25,20,16,38,38,59,55,20,16,7,7,0.6,0.6
2025-11-15T2200,2573A,102.2625,27.898,凉山彝族自治州,西昌市政府,,39,38,33,27,21,42,42,56,53,13,18,8,10,0.8,0.8
2025-11-15T2200,2574A,102.2685,27.8851,凉山彝族自治州,凉山州政府,颗粒物(PM10),51,52,34,23,21,30,30,59,53,20,15,9,9,0.9,0.8
2025-11-15T2200,4229A,102.2342,27.8859,凉山彝族自治州,凯乐南路30号,,50,50,33,30,19,34,34,60,53,27,28,7,9,0.9,0.8
2025-11-15T2200,2212A,123.2,41.1953,辽阳市,宏伟区,细颗粒物(PM2.5),124,,60,94,49,124,124,104,104,12,12,8,8,0.9,0.7
2025-11-15T2200,2213A,123.1683,41.2495,辽阳市,新华园,细颗粒物(PM2.5),132,104,74,100,56,111,111,94,94,19,19,6,7,0.6,0.5
2025-11-15T2200,2214A,123.2354,41.2639,辽阳市,滨河路,细颗粒物(PM2.5),130,122,71,99,51,112,112,89,89,18,18,2,2,0.8,0.6
2025-11-15T2200,2215A,123.149,41.2991,辽阳市,铁西工业园,细颗粒物(PM2.5),114,131,88,86,63,114,114,99,99,15,17,9,11,0.8,0.8
2025-11-15T2200,2227A,125.1358,42.8845,辽源市,环保局,细颗粒物(PM2.5),233,249,156,183,98,36,36,89,57,61,45,8,10,1.8,1.4
2025-11-15T2200,3239A,125.0764,42.9078,辽源市,银鹰制药,细颗粒物(PM2.5),220,212,135,170,105,13,13,84,46,86,46,15,15,1.7,1.1
2025-11-15T2200,1625A,115.9848,36.4372,聊城市,区政府,细颗粒物(PM2.5),213,229,203,163,135,66,66,99,88,44,42,11,12,1.1,0.9
2025-11-15T2200,2878A,116.0072,36.4343,聊城市,聊大东校,细颗粒物(PM2.5),192,234,212,144,130,75,75,108,97,46,46,9,11,1.1,0.9
2025-11-15T2200,3200A,115.9819,36.4978,聊城市,监控中心,细颗粒物(PM2.5),218,224,198,168,141,92,92,110,105,35,36,13,13,1.2,0.9
2025-11-15T2200,3513A,116.0445,36.4361,聊城市,九州社区,细颗粒物(PM2.5),207,218,200,157,128,77,77,112,99,32,35,6,5,1.0,0.7
2025-11-15T2200,4018A,116.0567,36.4608,聊城市,星美广场,细颗粒物(PM2.5),217,229,202,167,124,81,81,110,99,30,37,7,7,1.0,0.7
2025-11-15T2200,2632A,94.3681,29.6376,林芝市,林芝监测站,,22,22,10,12,7,41,41,74,64,21,7,2,3,0.5,0.3
2025-11-15T2200,2633A,94.3616,29.6616,林芝市,林芝人民医院,,32,32,15,18,6,38,38,67,61,20,7,2,2,0.7,0.4
2025-11-15T2200,2603A,100.0781,23.8982,临沧市,市环保局,细颗粒物(PM2.5),80,,21,59,28,28,28,70,57,9,7,6,5,0.5,0.5
2025-11-15T2200,2604A,100.0894,23.8822,临沧市,市气象局,,39,28,21,27,12,23,23,66,52,17,9,3,3,0.6,0.4
2025-11-15T2200,1733A,111.5531,36.0783,临汾市,临钢医院,细颗粒物(PM2.5),139,180,163,106,90,26,26,89,64,52,46,7,12,1.5,1.8
2025-11-15T2200,1734A,111.5028,36.0714,临汾市,技工学校,细颗粒物(PM2.5),150,176,155,115,91,33,33,90,66,58,53,13,14,1.4,1.6
2025-11-15T2200,1736A,111.5018,36.0855,临汾市,市委,细颗粒物(PM2.5),149,221,179,114,91,28,28,95,70,68,52,9,11,1.6,1.8
2025-11-15T2200,3018A,111.505,36.1014,临汾市,唐尧大酒店,细颗粒物(PM2.5),139,186,161,106,88,27,27,96,71,62,49,10,9,1.6,1.8
2025-11-15T2200,4244A,111.4879,36.0530,临汾市,启星学校,细颗粒物(PM2.5),115,166,152,87,85,6,6,97,74,93,56,7,11,1.6,1.7
2025-11-15T2200,4271A,103.2464,35.6123,临夏回族自治州,滨河东路1号,颗粒物(PM10),127,204,138,54,65,25,25,51,36,28,23,5,4,0.8,1.1
2025-11-15T2200,4310A,103.2093,35.5995,临夏回族自治州,新华街21号,颗粒物(PM10),78,106,121,44,73,63,63,61,56,12,28,16,8,0.5,1.2
2025-11-15T2200,1618A,118.3429,35.0532,临沂市,沂河小区,细颗粒物(PM2.5),211,200,225,161,183,106,106,129,117,53,65,16,23,1.0,0.9
2025-11-15T2200,1619A,118.295,35.0583,临沂市,鲁南制药厂,细颗粒物(PM2.5),199,212,235,149,172,114,114,131,116,49,68,22,24,0.9,0.8
2025-11-15T2200,1620A,118.2794,34.9976,临沂市,新光毛纺厂,细颗粒物(PM2.5),190,195,222,143,160,123,123,132,120,51,74,22,31,1.1,1
2025-11-15T2200,1621A,118.3956,35.0888,临沂市,河东保险公司,细颗粒物(PM2.5),195,195,209,146,154,73,73,138,113,58,59,11,16,0.9,1
2025-11-15T2200,3370A,118.3564,35.0215,临沂市,十里堡居委,细颗粒物(PM2.5),216,234,227,166,154,98,98,133,116,57,71,21,27,1.2,1.1
2025-11-15T2200,3496A,118.3604,35.1084,临沂市,南坊新区,细颗粒物(PM2.5),192,193,199,144,157,69,69,139,114,65,55,14,20,1.1,0.9
2025-11-15T2200,3860A,118.3920,35.0300,临沂市,皇山花园小区,细颗粒物(PM2.5),198,222,223,148,145,100,100,143,129,46,53,18,26,1.1,1
2025-11-15T2200,1870A,109.4856,24.3895,柳州市,柳东小学,,38,38,40,26,25,92,92,114,104,11,9,13,9,0.4,0.4
2025-11-15T2200,1871A,109.4157,24.3277,柳州市,环保监测站,,45,,51,31,19,2,2,110,73,63,21,8,13,1.0,0.7
2025-11-15T2200,1872A,109.389,24.341,柳州市,河西水厂,颗粒物(PM10),82,114,67,55,35,10,10,114,77,61,26,15,13,0.8,0.5
2025-11-15T2200,1873A,109.4311,24.2921,柳州市,市四中,颗粒物(PM10),75,100,54,42,29,1,1,115,69,66,25,10,12,1.6,0.9
2025-11-15T2200,1874A,109.4006,24.3631,柳州市,市九中,颗粒物(PM10),65,80,61,35,38,15,15,110,71,52,25,7,10,0.8,0.6
2025-11-15T2200,1875A,109.4958,24.3134,柳州市,古亭山,,32,32,42,21,33,3,3,112,76,63,23,8,10,0.5,0.5
2025-11-15T2200,3402A,109.5422,24.3996,柳州市,市二中,颗粒物(PM10),70,89,42,40,28,17,17,118,90,37,15,7,10,0.6,0.5
2025-11-15T2200,2307A,116.5079,31.737,六安市,监测大楼,细颗粒物(PM2.5),112,102,93,84,78,141,141,137,137,24,26,6,5,0.6,0.7
2025-11-15T2200,2308A,116.4738,31.7643,六安市,皖西学院,细颗粒物(PM2.5),103,113,104,77,76,148,148,141,141,23,23,5,4,0.6,0.6
2025-11-15T2200,2309A,116.4996,31.7905,六安市,朝阳厂,细颗粒物(PM2.5),97,101,100,72,72,138,138,128,126,33,31,6,6,0.7,0.7
2025-11-15T2200,2310A,116.5567,31.7886,六安市,开发区,细颗粒物(PM2.5),108,133,121,81,81,130,130,137,130,36,29,5,4,0.7,0.7
2025-11-15T2200,2576A,104.8,26.5892,六盘水市,窑上,,35,35,38,22,26,18,18,62,47,2,6,5,5,0.4,0.4
2025-11-15T2200,2577A,104.83,26.5917,六盘水市,黄土坡,,40,40,38,24,22,64,64,67,67,14,13,5,4,0.5,0.5
2025-11-15T2200,2578A,104.89,26.5939,六盘水市,水钢,,46,36,39,32,24,80,80,76,76,5,8,6,6,0.3,0.4
2025-11-15T2200,2579A,104.8475,26.5894,六盘水市,民中,,39,38,30,27,21,63,63,67,66,16,10,6,4,0.6,0.5
2025-11-15T2200,2580A,104.9544,26.5506,六盘水市,双水,,36,36,38,25,21,75,75,73,73,8,8,4,4,0.3,0.3
2025-11-15T2200,2335A,117.0189,25.1181,龙岩市,龙岩师专,,,,,,,,,,,,,,,,
2025-11-15T2200,2336A,117.0217,25.1033,龙岩市,龙岩市监测站,,27,27,24,17,13,43,43,110,85,33,15,13,16,0.5,0.4
2025-11-15T2200,2337A,117.0258,25.0661,龙岩市,闽西职业技术学院,,27,27,27,16,13,38,38,116,82,51,16,6,11,0.5,0.4
2025-11-15T2200,2338A,117.0196,25.0306,龙岩市,龙岩学院,,32,29,24,22,15,42,42,114,82,24,15,10,10,0.4,0.4
2025-11-15T2200,2665A,105.0822,33.3261,陇南市,汉王镇固水子,,,,,,,,,,,,,,,,
2025-11-15T2200,2885A,104.9339,33.3826,陇南市,滨江中学,颗粒物(PM10),71,91,65,40,29,5,5,45,27,42,23,9,7,1.6,0.8
2025-11-15T2200,3247A,104.955,33.371,陇南市,市总工会,颗粒物(PM10),60,69,58,23,32,18,18,51,44,32,19,7,7,0.7,0.7
2025-11-15T2200,2487A,111.9589,27.8901,娄底市,电视发射台,,,,,,,,,,,,,,,,
2025-11-15T2200,2488A,111.9975,27.725,娄底市,市监测站,细颗粒物(PM2.5),74,73,66,54,44,76,76,132,113,29,28,12,20,1.0,1
2025-11-15T2200,2489A,112.0194,27.7314,娄底市,市委党校,细颗粒物(PM2.5),70,78,64,51,42,42,42,120,93,40,25,4,8,0.8,0.8
2025-11-15T2200,2490A,111.9561,27.7569,娄底市,涟钢,细颗粒物(PM2.5),94,108,69,70,41,35,35,117,90,36,18,6,8,1.6,1
2025-11-15T2200,2491A,111.9892,27.7044,娄底市,市政府,细颗粒物(PM2.5),130,126,65,99,48,14,14,118,78,46,22,9,11,1.0,0.9
2025-11-15T2200,1893A,105.4324,28.9634,泸州市,九狮山,,,,,,,,,,,,,,,,
2025-11-15T2200,1894A,105.4427,28.9063,泸州市,小市上码头,颗粒物(PM10),51,51,35,35,22,38,38,72,65,20,11,8,8,0.6,0.5
2025-11-15T2200,1895A,105.4241,28.8573,泸州市,兰田宪桥,,50,50,35,25,21,25,25,63,55,25,11,8,6,0.6,0.5
2025-11-15T2200,1896A,105.4379,28.8833,泸州市,市环监站,,50,50,33,32,22,31,31,64,54,26,15,7,7,0.6,0.5
2025-11-15T2200,4272A,105.3689,28.7783,泸州市,纳溪中医医院,颗粒物(PM10),59,68,38,36,22,14,14,67,52,36,20,6,6,0.8,0.6
2025-11-15T2200,2183A,111.1406,37.5211,吕梁市,环保局,颗粒物(PM10),76,101,92,31,27,3,3,50,26,61,46,4,6,0.5,0.6
2025-11-15T2200,2185A,111.1297,37.5136,吕梁市,自来水公司,颗粒物(PM10),109,167,114,41,32,1,1,54,32,61,44,9,6,0.7,0.7
2025-11-15T2200,2867A,111.1283,37.51,吕梁市,马茂庄小学,颗粒物(PM10),86,122,104,24,28,1,1,47,24,67,50,4,7,0.7,0.6
2025-11-15T2200,1812A,112.3931,34.6516,洛阳市,市委党校,"颗粒物(PM10),细颗粒物(PM2.5)",75,100,84,55,55,24,24,72,66,72,43,9,9,0.9,0.6
2025-11-15T2200,1815A,112.494,34.6886,洛阳市,河南林校,细颗粒物(PM2.5),92,110,90,68,53,3,3,69,50,74,48,8,9,0.7,0.6
2025-11-15T2200,1816A,112.3844,34.623,洛阳市,开发区管委会,颗粒物(PM10),72,94,86,49,53,58,58,76,73,39,39,9,7,0.6,0.5
2025-11-15T2200,1817A,112.4267,34.6258,洛阳市,市委新办公区,颗粒物(PM10),82,114,85,52,42,43,43,75,66,51,37,13,9,0.9,0.6
2025-11-15T2200,3340A,112.6005,34.6326,洛阳市,伊滨,颗粒物(PM10),89,127,90,63,46,4,4,74,48,82,45,8,10,0.6,0.4
2025-11-15T2200,3341A,112.4951,34.6332,洛阳市,中移产业园,颗粒物(PM10),73,96,80,51,49,29,29,80,68,63,41,15,10,0.6,0.4
2025-11-15T2200,3593A,112.5736,34.8993,洛阳市,吉利监测站,颗粒物(PM10),89,127,81,60,47,7,7,79,45,66,44,6,8,0.6,0.5
2025-11-15T2200,3635A,112.3677,34.662,洛阳市,河科大西苑校区,细颗粒物(PM2.5),84,114,87,62,53,4,4,77,56,79,46,9,11,0.7,0.5
2025-11-15T2200,3636A,112.4388,34.6781,洛阳市,英才小学,细颗粒物(PM2.5),109,136,104,82,68,0,0,57,38,96,62,10,11,1.4,0.7
2025-11-15T2200,4214A,112.4600,34.6949,洛阳市,春都路1号院,颗粒物(PM10),74,97,103,42,48,14,14,58,47,65,56,11,12,0.7,0.7
2025-11-15T2200,2399A,114.051,33.5699,漯河市,三五一五工厂,细颗粒物(PM2.5),160,232,170,122,104,28,28,100,73,76,47,8,8,0.9,0.7
2025-11-15T2200,2400A,114.0055,33.5698,漯河市,漯河大学,细颗粒物(PM2.5),147,177,151,112,100,55,55,107,84,48,42,7,7,0.8,0.7
2025-11-15T2200,2401A,114.0138,33.5828,漯河市,市水利局,细颗粒物(PM2.5),149,202,147,114,98,45,45,107,85,54,35,8,9,0.9,0.8
2025-11-15T2200,2402A,114.0261,33.5698,漯河市,市广电局,细颗粒物(PM2.5),137,195,154,104,93,44,44,105,80,60,39,6,7,0.7,0.7
2025-11-15T2200,3478A,113.9749,33.5664,漯河市,市图书馆,细颗粒物(PM2.5),155,212,171,118,105,46,46,95,75,52,37,6,6,0.8,0.7
2025-11-15T2200,4250A,114.0892,33.5882,漯河市,韶山路11号,颗粒物(PM10),172,293,169,110,102,24,24,107,80,80,41,8,10,0.7,0.6
2025-11-15T2200,1798A,118.5092,31.6837,马鞍山市,湖东路四小,细颗粒物(PM2.5),87,97,97,64,63,109,109,147,134,44,45,21,9,0.7,0.8
2025-11-15T2200,1799A,118.5024,31.6449,马鞍山市,开发区,细颗粒物(PM2.5),80,108,110,59,57,111,111,150,132,36,37,16,9,0.6,0.7
2025-11-15T2200,1802A,118.6245,31.7241,马鞍山市,濮塘,,,,,,,,,,,,,,,,
2025-11-15T2200,3633A,118.4918,31.6809,马鞍山市,雨山,颗粒物(PM10),70,89,94,50,50,120,120,149,138,38,39,22,10,0.7,0.7
2025-11-15T2200,4191A,118.5274,31.72227,马鞍山市,慈湖高新区,颗粒物(PM10),76,101,111,55,67,118,118,140,130,38,41,14,8,0.5,0.7
2025-11-15T2200,1686A,111.0286,21.4688,茂名市,电白南海,颗粒物(PM10),68,85,54,34,27,123,123,140,140,28,16,9,13,0.8,0.6
2025-11-15T2200,1687A,110.9294,21.6533,茂名市,茂石化七小,,,70,45,36,23,97,97,111,110,,13,16,12,0.8,0.7
2025-11-15T2200,1688A,110.9107,21.6687,茂名市,健康路,颗粒物(PM10),57,63,37,29,20,106,106,116,116,18,14,28,17,0.8,0.7
2025-11-15T2200,1689A,110.8592,21.6828,茂名市,高岭,颗粒物(PM10),57,63,53,31,24,94,94,106,106,17,17,27,20,0.8,0.9
2025-11-15T2200,3450A,111.01,21.5165,茂名市,电白水东,颗粒物(PM10),59,68,41,36,23,108,108,123,123,20,15,10,10,0.7,0.6
2025-11-15T2200,2539A,104.0308,30.0478,眉山市,黑龙滩水库,,,,,,,,,,,,,,,,
2025-11-15T2200,2540A,103.8416,30.0874,眉山市,气象局,颗粒物(PM10),51,51,40,27,21,54,54,76,73,21,19,8,10,0.5,0.4
2025-11-15T2200,3137A,103.8578,30.0744,眉山市,市委党校,,41,41,35,24,18,49,49,70,67,19,17,6,7,0.7,0.6
2025-11-15T2200,3148A,103.8291,30.0564,眉山市,区人社局,颗粒物(PM10),52,54,48,27,20,44,44,67,62,23,20,7,17,0.8,0.7
2025-11-15T2200,1690A,116.1231,24.3284,梅州市,梅江月梅,,47,47,29,23,18,39,39,108,83,26,18,6,7,0.7,0.6
2025-11-15T2200,1691A,116.0797,24.2719,梅州市,梅县新城,细颗粒物(PM2.5),80,79,40,59,26,10,10,120,80,52,25,7,9,0.9,0.7
2025-11-15T2200,1692A,116.1248,24.2654,梅州市,环境监控中心,,46,46,38,30,23,10,10,112,,55,28,8,14,0.6,0.6
2025-11-15T2200,3315A,116.1233,24.2991,梅州市,梅龙,,49,44,34,34,20,35,35,105,78,27,17,8,11,1.0,0.8
2025-11-15T2200,1878A,104.7778,31.4741,绵阳市,富乐山,,45,43,45,31,30,31,31,57,52,10,22,9,10,0.6,0.7
2025-11-15T2200,1880A,104.6697,31.4668,绵阳市,高新区自来水公司,,44,44,60,29,35,29,29,53,44,19,30,9,10,0.6,0.7
2025-11-15T2200,1881A,104.7287,31.5075,绵阳市,三水厂,"颗粒物(PM10),细颗粒物(PM2.5)",55,59,50,39,34,33,33,50,47,18,28,8,9,0.7,0.7
2025-11-15T2200,3491A,104.69,31.5322,绵阳市,西科大附属小学,,50,50,58,29,32,30,30,47,43,26,31,6,6,0.7,0.7
2025-11-15T2200,3492A,104.5648,31.5343,绵阳市,安州区旅游局,颗粒物(PM10),53,55,48,27,33,34,34,58,47,20,18,10,10,0.6,0.7
2025-11-15T2200,4226A,104.7651,31.4531,绵阳市,绵阳市气象局,,42,42,51,28,31,33,33,58,53,11,26,6,7,0.5,0.6
2025-11-15T2200,1784A,129.61,44.561,牡丹江市,环保大楼,细颗粒物(PM2.5),228,219,129,178,91,14,14,32,18,65,51,11,12,1.5,0.9
2025-11-15T2200,1785A,129.6115,44.5782,牡丹江市,文化广场,细颗粒物(PM2.5),240,243,122,190,81,15,15,29,18,70,53,13,16,1.7,1
2025-11-15T2200,1786A,129.5904,44.5963,牡丹江市,第一医院,细颗粒物(PM2.5),188,164,108,141,90,10,10,34,20,49,40,10,10,1.2,0.8
2025-11-15T2200,1787A,129.6364,44.6075,牡丹江市,机车工厂,颗粒物(PM10),104,157,110,75,64,8,8,43,22,49,40,28,16,0.9,0.7
2025-11-15T2200,1788A,129.6386,44.5462,牡丹江市,第一中学,细颗粒物(PM2.5),286,261,130,236,105,6,6,36,16,51,40,6,7,1.8,1
2025-11-15T2200,2531A,105.0703,29.61,内江市,市监测站,,49,46,42,34,25,22,22,66,56,26,15,3,3,0.7,0.6
2025-11-15T2200,2532A,105.0717,29.5947,内江市,东兴区政府,,38,33,33,26,21,27,27,53,48,22,17,6,6,0.5,0.4
2025-11-15T2200,2533A,105.0653,29.5817,内江市,内江二中,颗粒物(PM10),52,54,33,29,26,33,33,54,50,20,17,4,4,0.7,0.6
2025-11-15T2200,2534A,105.0406,29.5822,内江市,内江日报社,,48,48,39,28,25,20,20,58,48,37,17,4,4,0.5,0.5
2025-11-15T2200,2628A,92.0657,31.4846,那曲市,那曲监测站,,49,49,51,33,35,28,28,97,83,66,29,17,10,1.8,1.3
2025-11-15T2200,4243A,92.0515,31.4787,那曲市,那曲市委宣传部,,21,21,25,10,16,53,53,90,81,26,19,9,8,1.0,0.9
2025-11-15T2200,1290A,115.8931,28.6843,南昌市,省外办,细颗粒物(PM2.5),85,90,78,63,57,28,28,118,81,50,30,7,8,1.3,1.1
2025-11-15T2200,1291A,115.8886,28.7003,南昌市,省林业公司,细颗粒物(PM2.5),70,88,77,51,50,19,19,119,80,86,34,5,7,0.9,0.9
2025-11-15T2200,1292A,115.8126,28.7442,南昌市,林科所,,49,48,68,34,43,68,68,128,103,46,27,4,7,0.7,0.8
2025-11-15T2200,1294A,115.8518,28.687,南昌市,建工学校,细颗粒物(PM2.5),94,112,87,70,52,40,40,124,98,77,38,10,12,0.9,0.7
2025-11-15T2200,1295A,115.8921,28.6424,南昌市,象湖,细颗粒物(PM2.5),89,79,77,66,55,2,2,136,96,117,35,10,12,1.3,0.9
2025-11-15T2200,1296A,115.7423,28.7996,南昌市,武术学校,,,,,,,,,,,,,,,,
2025-11-15T2200,3046A,115.9084,28.6062,南昌市,机电学校,颗粒物(PM10),74,97,98,53,59,23,23,150,96,87,39,9,13,0.8,0.8
2025-11-15T2200,3690A,115.9721,28.7031,南昌市,外国语学校,细颗粒物(PM2.5),72,85,84,52,58,34,34,136,104,72,39,9,12,0.8,0.7
2025-11-15T2200,4192A,115.9316,28.68677,南昌市,南京东路235号,颗粒物(PM10),71,92,87,48,52,58,58,142,114,44,27,6,9,0.9,0.8
2025-11-15T2200,1905A,106.056,30.8064,南充市,西山风景区,,,,,,,,,,,,,,,,
2025-11-15T2200,1906A,106.0789,30.8023,南充市,南充市委,,39,32,28,27,24,2,2,16,11,33,22,3,4,0.6,0.5
2025-11-15T2200,1907A,106.1031,30.8217,南充市,南充炼油厂,,39,38,34,27,24,10,10,18,17,19,12,6,6,0.6,0.5
2025-11-15T2200,4227A,106.1083,30.7884,南充市,梨树横街98号,,40,40,25,28,17,9,9,23,19,20,14,4,4,0.5,0.4
2025-11-15T2200,4304A,106.1172,30.843,南充市,清泉寺北路188号,,31,31,23,18,16,19,19,18,18,13,12,7,6,0.5,0.4
2025-11-15T2200,4305A,106.067,30.7616,南充市,同庆路1号,,35,26,22,24,19,1,1,19,15,30,15,6,6,0.7,0.5
2025-11-15T2200,1151A,118.8086,32.1065,南京市,迈皋桥,颗粒物(PM10),56,61,84,39,55,121,121,142,137,25,27,4,4,0.2,0.4
2025-11-15T2200,1152A,118.7538,32.0551,南京市,草场门,颗粒物(PM10),74,97,101,53,56,110,110,132,128,38,40,6,5,0.6,0.8
2025-11-15T2200,1153A,118.7794,32.0745,南京市,山西路,颗粒物(PM10),68,85,105,48,58,136,136,151,149,20,29,5,4,0.5,0.6
2025-11-15T2200,1154A,118.7752,32.0023,南京市,中华门,细颗粒物(PM2.5),79,90,105,58,64,115,115,147,140,26,34,4,4,0.6,0.6
2025-11-15T2200,1155A,118.8109,32.0309,南京市,瑞金路,"颗粒物(PM10),细颗粒物(PM2.5)",67,83,93,48,56,107,107,121,120,42,31,4,4,0.8,0.9
2025-11-15T2200,1156A,118.7997,32.0754,南京市,玄武湖,细颗粒物(PM2.5),64,66,82,46,58,119,119,140,135,28,27,4,4,0.5,0.7
2025-11-15T2200,1157A,118.6414,32.0931,南京市,浦口,细颗粒物(PM2.5),90,112,113,67,66,105,105,130,124,40,35,9,9,0.6,0.7
2025-11-15T2200,1158A,118.7356,31.9996,南京市,奥体中心,细颗粒物(PM2.5),79,100,109,58,65,108,108,146,138,41,53,5,6,0.6,0.7
2025-11-15T2200,1159A,118.9125,32.1028,南京市,仙林大学城,颗粒物(PM10),63,75,96,39,59,118,118,132,129,19,26,6,6,0.5,0.8
2025-11-15T2200,3422A,118.8436,31.9198,南京市,江宁彩虹桥,细颗粒物(PM2.5),77,92,96,56,63,106,106,156,146,38,41,4,5,0.7,0.8
2025-11-15T2200,3427A,118.8554,32.3578,南京市,六合雄州,细颗粒物(PM2.5),97,94,96,72,59,64,64,140,117,50,45,7,7,0.6,0.7
2025-11-15T2200,4249A,118.8708,31.3402,南京市,汶溪路181号,细颗粒物(PM2.5),74,85,84,54,53,112,112,144,136,33,34,6,8,0.6,0.7
2025-11-15T2200,4312A,119.019,31.6512,南京市,中山西路1号,细颗粒物(PM2.5),82,97,91,60,52,92,92,134,126,29,31,4,4,0.7,0.8
2025-11-15T2200,1401A,108.3103,22.7881,南宁市,二十一中,细颗粒物(PM2.5),87,109,70,64,46,1,1,118,86,101,46,7,9,1.3,1
2025-11-15T2200,1402A,108.3141,22.8528,南宁市,北湖,细颗粒物(PM2.5),92,119,66,68,36,3,3,122,84,96,50,12,13,1.1,0.8
2025-11-15T2200,1403A,108.3206,22.8225,南宁市,市监测站,颗粒物(PM10),73,95,70,49,37,1,1,106,79,102,49,12,12,1.0,0.7
2025-11-15T2200,1404A,108.3829,22.8037,南宁市,大自然花园,颗粒物(PM10),62,73,56,43,37,41,41,119,92,35,30,6,8,0.7,0.6
2025-11-15T2200,1405A,108.4394,22.7904,南宁市,仙葫,,,,,,,,,,,,,,,,
2025-11-15T2200,1406A,108.2397,22.8467,南宁市,区农职院,"颗粒物(PM10),细颗粒物(PM2.5)",53,55,53,37,34,31,31,118,87,37,28,6,13,0.6,0.6
2025-11-15T2200,1407A,108.3275,22.735,南宁市,英华嘉园,细颗粒物(PM2.5),93,92,68,69,41,9,9,109,78,71,43,4,6,0.9,0.6
2025-11-15T2200,3401A,108.4834,22.7618,南宁市,红星社区,颗粒物(PM10),64,77,51,45,33,39,39,9,,40,46,6,8,1.0,0.7
2025-11-15T2200,4221A,108.2177,22.7774,南宁市,乐贤路16号,颗粒物(PM10),76,102,66,44,34,5,5,120,89,67,34,5,9,0.8,0.5
2025-11-15T2200,2331A,118.0966,26.6761,南平市,茫荡山,,,,30,,,,,138,,,,,1,,
2025-11-15T2200,2332A,118.1681,26.6369,南平市,南平市监测站,,37,37,30,24,19,35,35,111,78,32,17,6,7,0.8,0.6
2025-11-15T2200,2333A,118.1825,26.6489,南平市,南平铝业有限公司,,42,42,32,27,18,24,24,107,71,41,22,6,5,0.7,0.5
2025-11-15T2200,2334A,118.1756,26.6272,南平市,南平七中,,35,31,31,24,18,35,35,109,82,24,14,5,6,0.6,0.5
2025-11-15T2200,1168A,120.9098,31.9663,南通市,狼山街道,,30,30,58,12,29,84,84,120,99,14,28,2,3,0.5,0.7
2025-11-15T2200,1169A,120.86,32.0005,南通市,虹桥,,29,26,51,16,31,90,90,119,104,13,23,3,4,0.5,0.6
2025-11-15T2200,1170A,120.87,32.02,南通市,城中,,33,33,68,14,30,74,74,112,92,19,25,4,5,0.3,0.5
2025-11-15T2200,1171A,120.94,31.93,南通市,星湖花园,,33,33,57,19,29,76,76,116,91,16,24,4,4,0.3,0.4
2025-11-15T2200,1172A,120.81,32.0417,南通市,紫琅学院,,29,29,67,7,27,75,75,103,85,19,35,3,4,0.4,0.5
2025-11-15T2200,3291A,121.067,32.062,南通市,通州监测站,细颗粒物(PM2.5),58,41,48,41,33,71,71,126,94,21,23,3,3,0.5,0.5
2025-11-15T2200,3432A,120.9348,31.9883,南通市,环境教育馆,,31,31,62,16,39,68,68,124,83,22,43,3,4,0.4,0.6
2025-11-15T2200,2404A,112.5224,33.0122,南阳市,瓦房庄,细颗粒物(PM2.5),122,145,170,92,117,60,60,96,86,38,42,9,11,1.0,1
2025-11-15T2200,2405A,112.5003,32.9735,南阳市,汉画馆,细颗粒物(PM2.5),122,141,166,92,110,34,34,86,69,46,55,6,8,1.0,1
2025-11-15T2200,2406A,112.5573,33.027,南阳市,气象站,细颗粒物(PM2.5),107,156,210,80,117,78,78,99,93,36,60,11,13,0.8,1
2025-11-15T2200,2407A,112.5481,32.9689,南阳市,理工学院,"颗粒物(PM10),细颗粒物(PM2.5)",98,146,193,73,107,70,70,95,88,38,55,8,8,0.8,1.1
2025-11-15T2200,4008A,112.5234,32.9922,南阳市,卧龙区政府,细颗粒物(PM2.5),125,182,193,95,124,40,40,86,76,52,49,8,10,1.0,1
2025-11-15T2200,1234A,121.8358,29.911,宁波市,区环保大楼,颗粒物(PM10),51,52,49,17,21,20,20,87,61,53,45,5,7,0.7,0.7
2025-11-15T2200,1235A,121.56,29.82,宁波市,万里学院,,40,40,58,21,32,34,34,104,75,51,46,7,8,0.6,0.7
2025-11-15T2200,1236A,121.713,29.9572,宁波市,龙赛医院,,40,40,67,14,25,39,39,100,73,48,46,6,6,0.6,0.7
2025-11-15T2200,1239A,121.633,29.7733,宁波市,钱湖水厂,,22,22,50,11,27,52,52,104,86,18,24,6,7,0.4,0.5
2025-11-15T2200,1240A,121.5856,29.8635,宁波市,太古小学,,49,49,65,28,30,7,7,96,65,59,43,4,5,0.7,0.8
2025-11-15T2200,1241A,121.524,29.8674,宁波市,市环境监测中心,,46,46,54,20,24,25,25,100,73,59,41,6,8,0.5,0.6
2025-11-15T2200,2871A,121.6147,29.9017,宁波市,万里国际学校,,40,40,59,20,30,42,42,100,80,41,45,4,6,0.6,0.7
2025-11-15T2200,3710A,121.5594,29.8975,宁波市,白沙活动中心,,47,47,52,21,23,15,15,98,69,68,45,5,7,0.5,0.5
2025-11-15T2200,2339A,119.5001,26.6946,宁德市,金涵水库,,,,39,,26,,,68,,,12,,3,,0.7
2025-11-15T2200,2341A,119.5388,26.6612,宁德市,宁德市监测站,,26,26,38,14,20,77,77,121,106,9,16,6,8,0.3,0.4
2025-11-15T2200,3209A,119.5231,26.6562,宁德市,宁德一中,,27,27,41,17,25,68,68,123,106,10,11,6,8,0.3,0.5
2025-11-15T2200,2618A,98.8601,25.8567,怒江傈僳族自治州,州监测站,,48,40,27,33,19,34,34,68,60,17,10,7,6,0.4,0.3
2025-11-15T2200,2619A,98.8546,25.8417,怒江傈僳族自治州,泸水一中,,23,23,21,15,14,20,20,48,38,21,17,6,6,0.6,0.4
2025-11-15T2200,1888A,101.6891,26.571,攀枝花市,弄弄坪,,32,32,42,19,23,32,32,69,62,21,28,6,13,0.6,0.9
2025-11-15T2200,1889A,101.5769,26.5928,攀枝花市,河门口,,31,31,37,19,20,40,40,72,65,12,17,13,14,0.7,1
2025-11-15T2200,1890A,101.7169,26.585,攀枝花市,炳草岗,颗粒物(PM10),56,61,49,29,24,4,4,70,52,59,31,9,14,0.9,0.9
2025-11-15T2200,1891A,101.7369,26.5008,攀枝花市,仁和,,36,36,29,19,17,19,19,64,49,21,14,6,8,0.6,0.6
2025-11-15T2200,2835A,101.7227,26.567,攀枝花市,四十中小,,47,47,43,27,22,7,7,64,46,59,31,11,28,1.1,0.9
2025-11-15T2200,1604A,122.0303,41.1489,盘锦市,开发区,细颗粒物(PM2.5),159,,78,121,92,112,112,110,110,23,28,8,11,0.8,0.7
2025-11-15T2200,1605A,122.0485,41.0883,盘锦市,兴隆台,细颗粒物(PM2.5),156,,72,119,92,112,112,109,109,23,33,10,16,0.9,0.8
2025-11-15T2200,1606A,121.8297,41.1028,盘锦市,新生街道,细颗粒物(PM2.5),169,,59,128,82,111,111,102,102,26,31,8,7,0.8,0.6
2025-11-15T2200,1832A,113.3257,33.742,平顶山市,新华旅馆,细颗粒物(PM2.5),202,215,175,152,115,16,16,101,65,72,52,8,10,1.4,1.1
2025-11-15T2200,1833A,113.2919,33.737,平顶山市,规划设计院,细颗粒物(PM2.5),198,262,186,148,114,5,5,101,63,90,51,6,8,1.8,0.9
2025-11-15T2200,1834A,113.182,33.774,平顶山市,平顶山工学院,细颗粒物(PM2.5),195,226,153,146,94,81,81,101,93,34,30,7,8,0.7,0.6
2025-11-15T2200,3204A,113.3025,33.73,平顶山市,规划局,细颗粒物(PM2.5),205,241,180,155,113,44,44,100,81,58,47,8,10,1.1,1
2025-11-15T2200,3594A,112.8867,33.9116,平顶山市,石龙区,细颗粒物(PM2.5),134,195,147,102,69,68,68,106,82,45,57,11,9,0.8,0.7
2025-11-15T2200,2656A,106.6692,35.5461,平凉市,聚贤嘉苑,颗粒物(PM10),77,104,45,29,21,75,75,75,75,14,27,5,8,0.4,0.5
2025-11-15T2200,2657A,106.7021,35.5307,平凉市,博物馆,颗粒物(PM10),68,85,50,37,28,68,68,73,73,19,25,8,9,0.4,0.5
2025-11-15T2200,2347A,114.0997,27.5002,萍乡市,武功山,,,,,,,,,,,,,,,,
2025-11-15T2200,2348A,113.8385,27.6434,萍乡市,中医院,细颗粒物(PM2.5),84,103,57,62,28,2,2,122,76,76,36,6,8,1.0,0.9
2025-11-15T2200,2349A,113.8493,27.6253,萍乡市,市政府车库,细颗粒物(PM2.5),77,71,51,56,35,13,13,114,78,56,29,7,11,1.2,1
2025-11-15T2200,2350A,113.8676,27.6435,萍乡市,市环保局,细颗粒物(PM2.5),58,53,50,41,30,31,31,128,104,53,27,16,15,0.7,0.8
2025-11-15T2200,2351A,113.866,27.6198,萍乡市,安源区政府,细颗粒物(PM2.5),67,58,46,48,36,34,34,118,93,39,26,10,13,0.9,0.9
2025-11-15T2200,2319A,119.0141,25.4325,莆田市,荔城区仓后路,,32,32,44,11,19,96,96,118,106,8,8,4,4,0.4,0.4
2025-11-15T2200,2320A,119.0015,25.4553,莆田市,莆田市监测站,,32,16,37,9,17,102,102,124,110,6,8,4,4,0.4,0.5
2025-11-15T2200,2321A,119.1119,25.4561,莆田市,涵江区六中,,32,25,40,10,17,102,102,120,112,6,7,3,4,0.3,0.4
2025-11-15T2200,2322A,119.1013,25.3215,莆田市,秀屿区政府,,31,25,42,8,19,99,99,122,111,9,11,4,5,0.4,0.5
2025-11-15T2200,2323A,118.981,25.4792,莆田市,东圳水库,,,,31,,15,,,129,,,7,,4,,0.9
2025-11-15T2200,2392A,115.0312,35.7636,濮阳市,环保局,细颗粒物(PM2.5),195,166,119,146,101,43,43,88,76,75,52,9,10,1.0,0.8
2025-11-15T2200,2394A,115.0574,35.7609,濮阳市,油田运输公司,细颗粒物(PM2.5),198,241,164,148,104,52,52,93,83,48,36,11,12,1.2,1
2025-11-15T2200,3021A,115,35.7668,濮阳市,濮水河管理处,细颗粒物(PM2.5),190,191,159,143,115,34,34,85,70,42,31,7,8,0.7,0.6
2025-11-15T2200,4216A,115.0924,35.7686,濮阳市,任丘路479号,细颗粒物(PM2.5),210,241,186,160,118,36,36,86,72,52,38,10,11,1.1,0.9
2025-11-15T2200,2601A,100.98,22.7633,普洱市,市环保局,,38,38,30,21,14,26,26,57,47,9,7,5,5,0.4,0.4
2025-11-15T2200,2602A,100.9817,22.8322,普洱市,普洱第二中学,,48,,27,33,17,28,28,61,50,12,10,4,5,0.3,0.3
2025-11-15T2200,2262A,131.0518,45.8751,七台河市,新一中,,,,,,,,,,,,,,,,
2025-11-15T2200,3345A,131.0577,45.7879,七台河市,中波台,细颗粒物(PM2.5),52,48,62,36,35,52,52,43,42,14,21,8,8,0.5,0.6
2025-11-15T2200,3637A,131.0176,45.7761,七台河市,人民广场,细颗粒物(PM2.5),65,69,73,47,45,48,48,39,37,17,28,8,8,0.6,0.7
2025-11-15T2200,3684A,130.8781,45.8222,七台河市,新建矿广场,颗粒物(PM10),62,73,72,42,35,30,30,41,38,30,22,44,12,0.6,0.5
2025-11-15T2200,1779A,123.9305,47.3636,齐齐哈尔市,安居小区,细颗粒物(PM2.5),84,88,84,62,52,11,11,50,34,28,28,6,7,0.8,0.7
2025-11-15T2200,1780A,123.9488,47.3386,齐齐哈尔市,中心广场,细颗粒物(PM2.5),73,78,77,53,52,17,17,52,38,26,27,6,8,0.8,0.6
2025-11-15T2200,1781A,123.9483,47.3227,齐齐哈尔市,农牧车辆厂,细颗粒物(PM2.5),63,58,78,45,45,15,15,51,36,19,25,5,7,0.5,0.6
