timepoint,stationcode,longitude,latitude,area,positionname,primarypollutant,aqi,pm10,pm10_24h,pm2_5,pm2_5_24h,o3,o3_24h,o3_8h,o3_8h_24h,no2,no2_24h,so2,so2_24h,co,co_24h
2025-05-28T2100,2566A,102.1879,31.914,阿坝藏族羌族自治州,州农科所,,23,23,19,10,8,55,,78,71,7,8,10,11,0.7,0.7
2025-05-28T2100,2568A,102.2502,31.8896,阿坝藏族羌族自治州,马师校,,,,18,23,12,,,102,99,21,8,5,5,0.5,0.5
2025-05-28T2100,3994A,102.2165,31.9024,阿坝藏族羌族自治州,马尔康中学西区,,32,25,15,22,15,65,,102,96,10,6,5,5,0.4,0.4
2025-05-28T2100,2695A,80.292,41.1694,阿克苏地区,电视台,颗粒物(PM10),92,133,176,53,45,101,,96,96,10,12,3,3,0.5,0.5
2025-05-28T2100,2696A,80.2613,41.1551,阿克苏地区,艺术中心,颗粒物(PM10),72,94,174,41,44,101,,98,98,6,11,3,4,0.7,0.7
2025-05-28T2100,2204A,105.6467,38.8363,阿拉善盟,西城区西花园,颗粒物(PM10),56,62,44,24,20,150,,153,153,11,9,5,5,0.6,0.8
2025-05-28T2100,2205A,105.6985,38.8411,阿拉善盟,蒙二幼,颗粒物(PM10),75,100,66,19,14,134,,138,138,9,8,9,10,0.5,0.4
2025-05-28T2100,2206A,105.724,38.8516,阿拉善盟,环保局新楼,颗粒物(PM10),64,77,44,21,13,145,,145,145,7,5,9,8,0.5,0.5
2025-05-28T2100,2708A,88.1264,47.8517,阿勒泰地区,市站,,26,10,22,7,5,82,,83,83,7,5,2,2,0.1,0.1
2025-05-28T2100,2630A,80.1161,32.5,阿里地区,阿里监测站,,43,25,19,10,9,136,,127,127,4,7,6,6,0.3,0.3
2025-05-28T2100,3192A,80.0903,32.5028,阿里地区,阿里藏医院,,46,42,34,15,9,145,,129,129,1,7,6,6,0.4,0.4
2025-05-28T2100,2642A,109.0318,32.6537,安康市,香溪洞,,45,35,38,15,24,142,,142,142,5,5,8,8,0.4,0.5
2025-05-28T2100,2644A,109.0072,32.6975,安康市,汉滨区检察院,,41,41,43,24,29,105,,143,139,19,8,11,11,0.7,0.6
2025-05-28T2100,4054A,109.0325,32.6913,安康市,市邮政管理局,,46,35,41,32,30,105,,138,135,18,8,8,13,0.7,0.6
2025-05-28T2100,2291A,117.0809,30.5177,安庆市,环科院,,,,52,24,40,,,103,98,78,25,2,3,0.5,0.9
2025-05-28T2100,2292A,117.0331,30.5119,安庆市,马山宾馆,,30,25,47,19,41,96,,109,107,15,20,4,5,0.4,0.6
2025-05-28T2100,2294A,116.9896,30.6145,安庆市,安庆大学,,32,32,56,18,44,81,,112,109,19,21,3,4,0.4,0.7
2025-05-28T2100,3173A,117.0598,30.5351,安庆市,市人大,,32,27,54,20,40,101,,116,115,14,20,12,11,0.5,0.7
2025-05-28T2100,3122A,105.9606,26.2611,安顺市,伍家关,,19,6,3,3,4,59,,65,64,5,7,2,1,0.4,0.5
2025-05-28T2100,3123A,105.9408,26.2431,安顺市,凤凰山,,19,14,11,12,5,60,,72,70,11,10,6,7,0.4,0.5
2025-05-28T2100,3124A,105.9439,26.2564,安顺市,金钟山,,18,11,11,8,8,57,,68,67,5,6,4,5,0.3,0.4
2025-05-28T2100,3125A,105.8983,26.2481,安顺市,娄家坡,,21,,5,9,5,66,,69,68,6,7,8,8,0.5,0.5
2025-05-28T2100,1818A,114.4839,36.0621,安阳市,棉研所,,,,,,,,,,,,,,,,
2025-05-28T2100,1819A,114.3551,36.1017,安阳市,红庙街,臭氧1小时,85,72,66,46,36,188,,215,212,6,8,2,3,0.6,0.5
2025-05-28T2100,1820A,114.361,36.0681,安阳市,银杏小区,臭氧1小时,70,57,67,34,41,176,,215,208,73,24,2,4,0.4,0.4
2025-05-28T2100,3141A,114.3922,36.0878,安阳市,信访局,臭氧1小时,88,63,67,33,36,190,,224,218,15,24,2,3,0.6,0.6
2025-05-28T2100,3669A,114.4705,36.0637,安阳市,左辅环卫站,,,,76,,42,,,143,,,26,,2,,0.7
2025-05-28T2100,3703A,114.2917,36.0949,安阳市,安钢职工学校,臭氧1小时,75,60,71,34,39,180,,205,200,8,13,3,3,0.4,0.5
2025-05-28T2100,1748A,123.044,41.1196,鞍山市,深沟寺,细颗粒物(PM2.5),65,62,36,47,26,137,,175,162,22,12,8,7,1.4,0.8
2025-05-28T2100,1749A,123.011,41.0931,鞍山市,太阳城,细颗粒物(PM2.5),64,69,39,46,28,120,,176,160,22,11,7,7,1.2,0.6
2025-05-28T2100,1750A,123.0485,41.1442,鞍山市,太平,颗粒物(PM10),70,89,49,49,28,133,,173,162,25,14,13,9,1.6,0.8
2025-05-28T2100,1751A,122.9642,41.0971,鞍山市,铁西三道街,"颗粒物(PM10),细颗粒物(PM2.5)",67,83,51,48,31,127,,187,167,34,20,7,4,1.1,0.6
2025-05-28T2100,1753A,123.022,41.0821,鞍山市,明达新区,细颗粒物(PM2.5),60,62,39,43,27,138,,174,160,16,11,8,7,0.8,0.5
2025-05-28T2100,1754A,123.1289,41.0228,鞍山市,千山,,,,25,,16,,,136,,,9,,6,,0.3
2025-05-28T2100,4201A,122.9446,41.0826,鞍山市,兴盛南路290号,颗粒物(PM10),68,86,56,44,30,115,,188,164,40,19,13,8,1.2,0.7
2025-05-28T2100,2195A,107.4212,40.761,巴彦淖尔市,附二中,颗粒物(PM10),105,159,144,45,31,114,,130,128,16,9,5,5,0.4,0.4
2025-05-28T2100,2196A,107.37,40.7372,巴彦淖尔市,市环保大楼,颗粒物(PM10),91,132,104,33,31,114,,138,136,17,12,6,6,0.3,0.2
2025-05-28T2100,1956A,86.1472,41.7538,巴音郭楞蒙古自治州,孔雀公园,颗粒物(PM10),64,78,77,12,17,92,,105,103,22,4,10,8,0.3,0.2
2025-05-28T2100,1957A,86.1972,41.7166,巴音郭楞蒙古自治州,棉纺厂,颗粒物(PM10),61,71,92,7,15,92,,104,104,15,8,3,3,0.4,0.3
2025-05-28T2100,1958A,86.2357,41.7173,巴音郭楞蒙古自治州,经济开发区,,,54,92,3,8,,,110,110,6,3,7,8,0.1,0.1
2025-05-28T2100,2914A,106.7677,31.8794,巴中市,苏山坪,,34,18,24,14,17,107,,115,113,10,6,5,4,0.3,0.3
2025-05-28T2100,3181A,106.7768,31.8526,巴中市,市五中,,36,22,30,11,19,115,,119,118,5,11,7,7,0.4,0.5
2025-05-28T2100,3183A,106.7418,31.8654,巴中市,圣泉水务公司,,32,21,27,15,19,100,,120,117,15,9,5,4,0.5,0.5
2025-05-28T2100,3616A,106.7616,31.8344,巴中市,市中心医院,,30,21,27,20,22,94,,114,111,14,10,6,5,0.4,0.5
2025-05-28T2100,2235A,122.7911,45.6077,白城市,洮北区环保局,颗粒物(PM10),67,84,81,24,39,142,,176,166,16,12,6,7,0.3,0.5
2025-05-28T2100,2236A,122.8738,45.5725,白城市,市环保局,,46,41,63,24,40,145,,174,164,9,10,4,8,0.7,0.5
2025-05-28T2100,2231A,126.4219,41.9171,白山市,喜丰,颗粒物(PM10),64,78,52,24,17,46,,114,94,37,21,6,8,0.7,0.5
2025-05-28T2100,2232A,126.4077,41.9419,白山市,环保局,,49,49,30,20,13,51,,112,93,23,14,11,10,0.5,0.3
2025-05-28T2100,2647A,104.1724,36.5446,白银市,第三小学,颗粒物(PM10),54,57,32,18,14,92,,118,116,18,13,11,38,0.5,0.9
2025-05-28T2100,2648A,104.1465,36.5482,白银市,动力公司,,41,41,28,15,13,104,,118,118,17,17,18,19,0.5,0.4
2025-05-28T2100,2512A,106.6103,23.9011,百色市,市监测站,,14,9,42,3,25,42,,48,48,5,14,3,5,0.6,0.9
2025-05-28T2100,2513A,106.6538,23.8859,百色市,市中心血站,,17,17,55,3,35,44,,46,46,6,23,3,5,0.7,0.9
2025-05-28T2100,3406A,106.6085,23.8798,百色市,祈福高中,,14,14,56,3,39,41,,48,47,6,19,4,6,0.6,0.8
2025-05-28T2100,2270A,117.396,32.939,蚌埠市,工人疗养院,颗粒物(PM10),53,56,69,31,34,144,,203,196,27,24,8,7,0.5,0.5
2025-05-28T2100,2271A,117.3605,32.9427,蚌埠市,百货大楼,颗粒物(PM10),51,52,66,31,35,159,,203,198,12,18,7,9,0.5,0.5
2025-05-28T2100,2273A,117.4185,32.8911,蚌埠市,蚌埠学院,臭氧1小时,52,41,61,29,42,161,,201,196,10,18,4,6,0.5,0.5
2025-05-28T2100,2274A,117.3533,32.9673,蚌埠市,淮上区政府,,49,48,66,28,39,154,,207,202,25,26,8,8,0.5,0.5
2025-05-28T2100,2275A,117.3145,32.8977,蚌埠市,高新区,颗粒物(PM10),52,53,61,34,37,157,,198,192,18,22,5,6,0.5,0.5
2025-05-28T2100,3715A,117.3092,32.9314,蚌埠市,蚌埠田家炳中学,颗粒物(PM10),52,54,63,32,36,158,,201,197,11,16,5,7,0.4,0.4
2025-05-28T2100,1585A,109.8756,40.6532,包头市,市环境监测站,颗粒物(PM10),55,59,49,32,23,158,,186,183,22,22,11,14,0.5,0.6
2025-05-28T2100,1587A,109.9991,40.5842,包头市,包头八中,颗粒物(PM10),57,63,55,24,27,149,,186,182,27,26,11,18,0.6,0.7
2025-05-28T2100,1588A,109.8538,40.6821,包头市,青山宾馆,颗粒物(PM10),55,60,48,31,26,159,,187,184,24,24,11,11,0.7,0.6
2025-05-28T2100,1589A,109.8642,40.6288,包头市,惠龙物流,颗粒物(PM10),58,66,49,39,23,160,,194,190,27,22,11,11,0.6,0.5
2025-05-28T2100,1590A,110.0377,40.5546,包头市,东河鸿龙湾,颗粒物(PM10),53,56,58,23,22,125,,188,180,36,30,7,21,0.6,0.6
2025-05-28T2100,3283A,109.9154,40.5685,包头市,滨河大厦,颗粒物(PM10),58,65,52,26,23,156,,190,187,24,25,12,12,0.6,0.5
2025-05-28T2100,3419A,109.9447,40.6261,包头市,包头市委党校,颗粒物(PM10),55,60,51,19,24,149,,187,183,26,19,11,18,0.5,0.6
2025-05-28T2100,3683A,109.8331,40.6576,包头市,昆区政府,颗粒物(PM10),55,60,47,28,27,156,,186,183,27,26,8,11,0.7,0.6
2025-05-28T2100,1930A,107.185,34.3063,宝鸡市,庙沟村,,34,25,24,8,13,108,,149,144,18,11,8,8,0.6,0.6
2025-05-28T2100,1931A,107.0708,34.3017,宝鸡市,竹园沟,,27,20,26,17,14,84,,144,135,12,12,5,5,0.5,0.4
2025-05-28T2100,1932A,107.1906,34.3672,宝鸡市,三陆医院,颗粒物(PM10),52,54,39,27,22,136,,148,147,26,26,7,8,0.5,0.5
2025-05-28T2100,1933A,107.1431,34.3547,宝鸡市,监测站,,35,28,32,24,17,78,,32,,32,23,6,6,0.4,0.3
2025-05-28T2100,1934A,107.1186,34.3739,宝鸡市,技工学校,,47,47,37,26,22,116,,147,143,33,12,6,6,0.6,0.5
2025-05-28T2100,1935A,107.3906,34.3528,宝鸡市,陈仓区环保局家属楼,颗粒物(PM10),57,64,45,24,26,144,,163,162,27,20,5,10,0.6,0.6
2025-05-28T2100,1936A,107.2058,34.3497,宝鸡市,文理学院,,48,48,34,19,18,102,,150,146,32,17,8,8,0.6,0.5
2025-05-28T2100,1937A,107.2386,34.3622,宝鸡市,三迪小学,,40,40,41,24,23,119,,149,148,30,21,8,8,0.5,0.4
2025-05-28T2100,1051A,115.493,38.8632,保定市,游泳馆,臭氧1小时,72,80,85,43,52,177,,211,202,18,24,2,5,0.3,0.4
2025-05-28T2100,1052A,115.5213,38.8959,保定市,华电二区,颗粒物(PM10),65,79,63,45,41,153,,211,198,16,15,2,5,0.5,0.5
2025-05-28T2100,1053A,115.4713,38.9108,保定市,接待中心,臭氧1小时,80,67,69,34,48,184,,208,202,14,16,2,4,0.5,0.6
2025-05-28T2100,1054A,115.4612,38.8416,保定市,地表水厂,颗粒物(PM10),65,80,85,37,43,139,,202,187,38,26,3,6,0.4,0.4
2025-05-28T2100,3581A,115.31981,38.95208,保定市,满城区生态环境分局,颗粒物(PM10),78,105,81,53,44,135,,218,200,23,22,2,4,0.3,0.2
2025-05-28T2100,3582A,115.47694,38.76408,保定市,清苑区第二中学,,,120,98,53,53,,,220,212,28,20,3,4,0.1,0.5
2025-05-28T2100,3583A,115.62909,39.02311,保定市,徐水物探局,颗粒物(PM10),74,97,108,31,46,156,,212,200,17,25,2,3,0.5,0.5
2025-05-28T2100,4004A,115.4202,38.8656,保定市,双鹰农机,颗粒物(PM10),65,80,68,37,43,157,,212,199,24,18,4,6,0.3,0.4
2025-05-28T2100,4034A,115.5150,38.8590,保定市,植保所站,细颗粒物(PM2.5),78,94,82,57,45,133,,203,187,23,22,5,6,0.5,0.5
2025-05-28T2100,2594A,99.1678,25.1081,保山市,市环境监测站,,32,,15,22,16,27,,45,43,11,10,6,7,0.6,0.6
2025-05-28T2100,2595A,99.1711,25.1328,保山市,市环保局,,16,15,15,11,10,30,,48,45,5,8,8,7,0.4,0.5
2025-05-28T2100,1866A,109.2262,21.588,北海市,牛尾岭水库,,36,,26,25,15,65,,85,79,8,7,6,9,0.5,0.5
2025-05-28T2100,1867A,109.1436,21.4086,北海市,海滩公园,,24,15,37,3,12,74,,109,100,4,5,5,6,0.5,0.6
2025-05-28T2100,1868A,109.0981,21.4661,北海市,新市环保局,,29,24,32,9,15,92,,103,94,6,8,3,4,0.6,0.7
2025-05-28T2100,1869A,109.1778,21.5233,北海市,北海工业园,,24,15,40,3,18,76,,98,93,7,9,7,9,0.6,0.6
2025-05-28T2100,3400A,109.1911,21.4415,北海市,龙潭自来水厂,,25,12,30,10,19,80,,108,100,4,6,3,5,0.4,0.5
2025-05-28T2100,1001A,116.3621,39.8784,北京市,万寿西宫,臭氧1小时,75,78,60,48,33,180,,214,210,26,27,6,5,0.6,0.5
2025-05-28T2100,1002A,116.2202,40.2915,北京市,定陵,,,,,,,,,,,,,,,,
2025-05-28T2100,1003A,116.4174,39.9289,北京市,东四,臭氧1小时,83,78,62,38,30,186,,216,212,35,35,5,4,0.6,0.5
2025-05-28T2100,1004A,116.4072,39.8863,北京市,天坛,臭氧1小时,62,67,60,43,32,169,,205,200,20,23,4,4,0.6,0.5
2025-05-28T2100,1005A,116.462,39.9365,北京市,农展馆,颗粒物(PM10),70,90,61,44,31,172,,196,193,25,33,6,5,0.8,0.7
2025-05-28T2100,1006A,116.3392,39.9295,北京市,官园,细颗粒物(PM2.5),82,76,59,60,32,178,,202,199,25,25,7,7,0.4,0.4
2025-05-28T2100,1007A,116.2878,39.9611,北京市,海淀万柳,臭氧1小时,74,73,65,38,32,179,,208,204,17,30,5,5,0.7,0.7
2025-05-28T2100,1008A,116.6636,40.135,北京市,顺义新城,细颗粒物(PM2.5),117,118,51,88,26,168,,208,205,20,18,7,7,0.8,0.5
2025-05-28T2100,1009A,116.6275,40.3275,北京市,怀柔镇,"细颗粒物(PM2.5),臭氧1小时",99,118,44,74,26,199,,224,224,21,14,8,3,0.9,0.6
2025-05-28T2100,1010A,116.2296,40.217,北京市,昌平镇,"颗粒物(PM10),细颗粒物(PM2.5)",63,75,49,45,27,169,,213,209,24,16,6,5,0.4,0.7
2025-05-28T2100,1011A,116.3966,39.9821,北京市,奥体中心,臭氧1小时,65,68,52,43,28,172,,188,185,22,31,5,4,0.7,0.6
2025-05-28T2100,3281A,115.9718,40.4529,北京市,延庆夏都,臭氧1小时,95,71,43,39,23,196,,196,196,15,24,6,4,0.6,0.5
2025-05-28T2100,3418A,116.8336,40.4095,北京市,密云新城,臭氧1小时,124,113,40,69,23,247,,224,224,21,11,7,4,0.6,0.4
2025-05-28T2100,3671A,116.088,39.9726,北京市,门头沟三家店,细颗粒物(PM2.5),92,95,70,68,37,146,,210,201,13,15,3,3,0.5,0.5
2025-05-28T2100,3672A,116.1541,39.8204,北京市,丰台云岗,细颗粒物(PM2.5),67,79,77,48,36,148,,205,195,27,26,6,5,0.4,0.4
2025-05-28T2100,3673A,116.6804,39.9081,北京市,通州东关,细颗粒物(PM2.5),83,107,82,61,41,175,,211,206,28,38,5,3,0.7,0.5
2025-05-28T2100,3674A,115.9577,39.7603,北京市,房山燕山,臭氧1小时,59,63,63,35,38,167,,191,184,6,12,4,3,0.6,0.7
2025-05-28T2100,3675A,116.4672,39.7733,北京市,大兴旧宫,颗粒物(PM10),65,80,70,44,37,154,,207,200,22,23,3,3,0.8,0.7
2025-05-28T2100,3694A,115.986,40.4563,北京市,延庆石河营,颗粒物(PM10),78,106,43,48,22,129,,186,182,72,21,3,2,0.6,0.5
2025-05-28T2100,3695A,116.6151,40.3053,北京市,怀柔新城,细颗粒物(PM2.5),105,123,47,79,26,204,,220,220,23,13,13,2,0.8,0.5
2025-05-28T2100,3696A,116.2545,39.8768,北京市,丰台小屯,颗粒物(PM10),62,74,66,38,30,152,,200,193,35,34,5,4,0.6,0.6
2025-05-28T2100,3697A,116.84,40.3844,北京市,密云镇,臭氧1小时,123,149,43,64,24,246,,230,230,17,17,9,6,0.6,0.4
2025-05-28T2100,4182A,116.1942,39.9158,北京市,八角北路9号,颗粒物(PM10),70,89,70,39,31,152,,193,187,24,27,5,4,0.4,0.3
2025-05-28T2100,4194A,117.0790,40.1518,北京市,洳河巡河路,臭氧1小时,97,105,57,54,28,197,,227,226,12,11,10,6,0.8,0.6
2025-05-28T2100,1761A,123.8275,41.3064,本溪市,大峪,颗粒物(PM10),51,52,43,27,21,121,,161,146,17,14,6,7,0.6,0.6
2025-05-28T2100,1762A,123.7567,41.3325,本溪市,溪湖,"颗粒物(PM10),细颗粒物(PM2.5)",54,57,46,38,27,110,,156,142,28,19,14,10,1.9,1.2
2025-05-28T2100,1763A,123.7169,41.3094,本溪市,彩屯,颗粒物(PM10),57,63,48,38,29,74,,154,132,37,23,10,14,0.6,1.1
2025-05-28T2100,1764A,123.7669,41.2864,本溪市,东明,,50,41,43,24,22,159,,163,158,10,15,6,7,0.8,0.8
2025-05-28T2100,1765A,123.7992,41.2664,本溪市,新立屯,,40,33,35,28,21,124,,162,133,26,22,5,6,0.7,0.6
2025-05-28T2100,1766A,123.8142,41.3472,本溪市,威宁,,46,46,55,26,25,105,,159,136,20,25,5,6,0.5,0.5
2025-05-28T2100,2587A,105.2864,27.3125,毕节市,八中,,18,18,8,11,6,49,,76,69,8,5,5,5,0.5,0.5
2025-05-28T2100,2588A,105.31,27.2944,毕节市,师专,,22,22,8,12,5,64,,79,77,9,8,3,4,0.4,0.5
2025-05-28T2100,4263A,105.3688,27.3598,毕节市,工业大道,,,16,6,11,4,,,79,79,12,9,9,6,0.5,0.6
2025-05-28T2100,1629A,118.0018,37.3617,滨州市,第二水厂,颗粒物(PM10),64,78,73,31,40,130,,243,223,24,24,6,10,0.5,0.5
2025-05-28T2100,1630A,117.9776,37.393,滨州市,北中新校,颗粒物(PM10),58,66,63,31,39,134,,231,214,21,23,8,9,0.7,0.8
2025-05-28T2100,3514A,117.9378,37.3956,滨州市,中海酒店,颗粒物(PM10),57,63,68,19,44,157,,262,248,16,20,10,15,0.7,0.8
2025-05-28T2100,3515A,117.9378,37.3553,滨州市,开发区一中,颗粒物(PM10),62,73,74,31,39,129,,233,219,26,29,8,10,0.5,0.6
2025-05-28T2100,3516A,118.0917,37.694,滨州市,金海六路,颗粒物(PM10),65,80,74,22,37,153,,238,217,20,29,33,17,0.3,0.4
2025-05-28T2100,4028A,117.9956,37.3753,滨州市,滨州市西街道办事处,颗粒物(PM10),63,75,65,29,41,144,,260,239,20,21,9,10,0.6,0.6
2025-05-28T2100,2311A,115.8072,33.8399,亳州市,污水处理厂,颗粒物(PM10),72,93,79,38,36,165,,206,198,18,15,7,8,0.4,0.5
2025-05-28T2100,2312A,115.7789,33.8518,亳州市,三国揽胜宫,颗粒物(PM10),63,76,74,36,42,161,,205,199,22,17,8,9,0.6,0.6
2025-05-28T2100,3332A,115.7633,33.8034,亳州市,亳州学院,颗粒物(PM10),72,93,77,36,38,173,,211,206,17,15,5,5,0.4,0.5
2025-05-28T2100,2693A,82.0485,44.8556,博尔塔拉蒙古自治州,市党校,,,,56,,17,,,95,95,8,7,3,3,0.2,0.2
2025-05-28T2100,2694A,82.0806,44.8969,博尔塔拉蒙古自治州,市环保局,颗粒物(PM10),58,66,60,21,15,90,,89,89,13,9,2,3,0.3,0.3
2025-05-28T2100,1071A,116.8842,38.2991,沧州市,沧县城建局,臭氧1小时,70,60,60,43,36,176,,214,204,23,24,2,3,0.4,0.4
2025-05-28T2100,1072A,116.8584,38.3254,沧州市,电视转播站,臭氧1小时,69,66,61,41,41,175,,209,203,18,18,3,4,0.4,0.4
2025-05-28T2100,1073A,116.8709,38.3228,沧州市,市环保局,颗粒物(PM10),68,86,74,43,43,154,,206,195,23,18,1,2,0.5,0.5
2025-05-28T2100,3324A,116.8136,38.3004,沧州市,河北水利电力学院,细颗粒物(PM2.5),64,73,64,46,40,166,,228,215,33,25,6,6,0.4,0.4
2025-05-28T2100,2622A,97.1806,31.1273,昌都市,昌都监测站,,32,29,10,22,8,72,,106,104,29,7,4,4,0.4,0.2
2025-05-28T2100,3719A,97.1714,31.1406,昌都市,昌都会议中心,,30,28,10,21,7,89,,115,115,12,4,3,4,0.3,0.2
2025-05-28T2100,2690A,88.1236,43.8886,昌吉回族自治州,天山天池,,28,28,18,9,6,84,,90,90,6,5,6,6,0.5,0.5
2025-05-28T2100,2692A,87.2717,44.0297,昌吉回族自治州,新区政务中心,,,36,31,10,9,103,,110,110,1,2,,8,0.5,0.4
2025-05-28T2100,3613A,87.3095,44.0142,昌吉回族自治州,亚心广场,,44,44,40,7,7,114,,110,110,8,9,11,9,0.4,0.3
2025-05-28T2100,1119A,125.3325,43.9166,长春市,食品厂,颗粒物(PM10),55,60,61,31,37,112,,175,157,39,34,5,6,0.6,0.6
2025-05-28T2100,1120A,125.2863,43.9027,长春市,客车厂,,,74,60,48,40,41,,181,151,99,37,5,6,,0.6
2025-05-28T2100,1121A,125.2841,43.8463,长春市,邮电学院,颗粒物(PM10),51,52,52,35,27,98,,180,158,36,26,6,7,0.5,0.4
2025-05-28T2100,1122A,125.3716,43.8772,长春市,劳动公园,颗粒物(PM10),75,100,60,37,32,90,,172,153,31,26,6,7,0.7,0.7
2025-05-28T2100,1123A,125.3297,43.8805,长春市,园林处,,42,42,50,23,36,111,,177,159,24,24,6,7,0.7,0.6
2025-05-28T2100,1124A,125.4605,43.79,长春市,净月潭,,37,28,38,17,22,118,,174,155,7,9,6,7,0.4,0.5
2025-05-28T2100,1125A,125.7194,43.515,长春市,甩湾子,,32,32,32,18,18,88,,172,145,33,20,2,3,0.5,0.5
2025-05-28T2100,1126A,125.3863,43.8447,长春市,经开区环卫处,颗粒物(PM10),56,61,70,32,34,73,,173,149,54,30,6,7,0.6,0.5
2025-05-28T2100,1127A,125.245,43.7783,长春市,高新区管委会,颗粒物(PM10),74,98,52,45,31,95,,176,152,32,30,7,7,0.6,0.5
2025-05-28T2100,1128A,125.1761,43.8325,长春市,岱山公园,颗粒物(PM10),75,99,65,34,47,72,,180,147,79,49,4,6,0.5,0.5
2025-05-28T2100,1335A,113.0833,28.2325,长沙市,经开区环保局,,20,19,28,12,25,61,,95,84,24,10,3,3,0.7,0.8
2025-05-28T2100,1336A,112.8872,28.2189,长沙市,高开区环保局,,,,29,7,18,,,94,89,9,8,4,4,0.4,0.5
2025-05-28T2100,1337A,113.0792,28.2053,长沙市,马坡岭,,20,20,30,12,22,45,,91,73,30,12,4,4,0.5,0.4
2025-05-28T2100,1338A,112.9394,28.19,长沙市,湖南师范大学,,19,17,29,8,18,60,,96,86,20,10,5,6,0.4,0.4
2025-05-28T2100,1339A,113.0178,28.1322,长沙市,雨花区环保局,,22,19,27,11,20,69,,87,78,14,9,4,4,0.6,0.6
2025-05-28T2100,1340A,112.9792,28.2597,长沙市,伍家岭,,23,23,32,8,23,65,,83,78,11,10,2,2,0.5,0.6
2025-05-28T2100,1341A,113.0014,28.1944,长沙市,火车新站,,26,26,29,7,18,67,,86,78,14,11,6,6,0.4,0.5
2025-05-28T2100,1342A,112.9844,28.1178,长沙市,天心区环保局,,40,40,29,14,22,70,,96,85,16,11,2,2,0.5,0.9
2025-05-28T2100,1343A,112.8908,28.1308,长沙市,湖南中医药大学,,29,21,28,20,23,63,,86,81,15,8,2,2,0.6,0.6
2025-05-28T2100,1344A,112.9581,28.3611,长沙市,沙坪,,,17,36,,21,56,,97,83,6,5,3,3,0.6,0.7
2025-05-28T2100,1727A,113.1147,36.1547,长治市,清华站,臭氧1小时,73,41,66,27,37,178,,183,178,15,25,6,9,0.5,0.6
2025-05-28T2100,1730A,113.0886,36.2125,长治市,审计局,臭氧1小时,83,35,52,29,37,186,,189,183,17,24,8,12,0.5,0.9
2025-05-28T2100,1731A,113.0844,36.1856,长治市,长治八中,臭氧1小时,78,50,66,28,45,182,,180,177,16,21,11,15,0.3,0.5
2025-05-28T2100,2845A,113.1569,36.1911,长治市,德盛苑,,50,40,51,24,35,160,,170,164,12,12,7,11,0.7,1.4
2025-05-28T2100,3568A,113.06,36.0464,长治市,向阳小学,,,68,76,34,42,187,,190,187,18,22,,16,0.6,0.7
2025-05-28T2100,3569A,112.8792,36.3144,长治市,屯留一中,臭氧1小时,74,44,43,34,34,179,,183,180,18,22,10,9,0.2,0.3
2025-05-28T2100,4189A,113.1131,36.19948,长治市,英华南巷50号,臭氧1小时,69,46,65,27,41,175,,181,175,15,20,7,14,0.6,2
2025-05-28T2100,4190A,113.2367,36.3344,长治市,学府街1号,,50,40,67,21,44,158,,177,177,30,33,2,5,0.4,0.8
2025-05-28T2100,1854A,111.6975,28.9703,常德市,市二中,,38,34,30,26,27,61,,105,86,11,8,5,5,0.7,0.6
2025-05-28T2100,1857A,111.7158,29.1456,常德市,白鹤山,,,,,,,,,,,,,,,,
2025-05-28T2100,3138A,111.7153,29.0289,常德市,武陵区永安,,39,32,32,27,25,76,,112,99,14,6,3,3,0.6,0.5
2025-05-28T2100,3139A,111.6892,28.9881,常德市,鼎城区玉霞,,30,30,30,17,20,75,,116,98,11,8,2,3,0.6,0.6
2025-05-28T2100,3140A,111.6625,29.0531,常德市,武陵区长庚,,41,41,31,25,23,70,,119,101,13,6,4,4,0.6,0.7
2025-05-28T2100,1196A,119.9633,31.762,常州市,市监测站,颗粒物(PM10),52,53,46,31,24,99,,148,140,35,24,10,8,0.4,0.5
2025-05-28T2100,1200A,119.9468,31.7069,常州市,武进监测站,,43,43,42,27,21,112,,149,145,30,24,10,8,1.0,0.7
2025-05-28T2100,1201A,119.9255,31.9087,常州市,安家,颗粒物(PM10),52,54,54,28,24,97,,140,134,27,24,11,11,0.2,0.2
2025-05-28T2100,3002A,119.9805,31.8174,常州市,行政中心,,40,32,36,28,23,97,,143,137,30,25,8,8,0.4,0.5
2025-05-28T2100,3003A,120.0522,31.7748,常州市,经开区,颗粒物(PM10),53,55,60,25,21,110,,154,146,31,30,6,5,0.5,0.5
2025-05-28T2100,3010A,119.9025,31.7964,常州市,钟楼,,47,47,49,17,21,107,,140,136,21,20,9,9,0.6,0.7
2025-05-28T2100,3429A,119.8598,31.7066,常州市,武进经发区,,,51,44,29,25,,,151,151,25,16,6,7,0.7,0.8
2025-05-28T2100,3430A,119.5826,31.7245,常州市,金坛城区,颗粒物(PM10),53,55,47,28,25,129,,154,154,20,17,7,7,0.5,0.4
2025-05-28T2100,2220A,120.4318,41.5881,朝阳市,西梁,,46,37,85,17,73,147,,167,166,14,22,7,12,0.5,0.7
2025-05-28T2100,2221A,120.4521,41.5646,朝阳市,河畔小区,,49,30,57,18,67,154,,176,174,12,16,9,12,0.4,0.7
2025-05-28T2100,2222A,120.4176,41.5648,朝阳市,八里堡,,47,41,71,15,62,150,,184,180,16,19,7,12,0.4,0.6
2025-05-28T2100,2223A,120.3806,41.5969,朝阳市,农业园区,,46,38,69,20,82,146,,173,169,17,24,5,8,0.4,0.7
2025-05-28T2100,1705A,116.6367,23.6719,潮州市,西园路,,33,33,24,22,27,38,,63,58,17,12,6,4,0.4,0.6
2025-05-28T2100,3026A,116.6183,23.6608,潮州市,市政府,,35,32,24,24,18,38,,75,68,22,11,4,4,1.0,0.8
2025-05-28T2100,4036A,116.6461,23.6761,潮州市,金山,,,,27,30,25,42,,68,61,,11,,6,0.8,0.7
2025-05-28T2100,2472A,113.0073,25.9061,郴州市,马头岭,,14,11,21,3,9,44,,47,47,16,11,7,7,0.3,0.3
2025-05-28T2100,2473A,113.0116,25.8226,郴州市,市职中,,18,10,21,10,18,56,,49,49,10,13,1,1,0.6,0.7
2025-05-28T2100,2475A,113.0383,25.8071,郴州市,市审计局,,16,12,25,3,19,49,,51,51,9,11,5,6,0.9,0.9
2025-05-28T2100,2476A,113.0348,25.7759,郴州市,市环保局,,15,14,29,7,24,48,,48,48,11,14,2,3,0.2,0.1
2025-05-28T2100,4252A,113.0138,25.8011,郴州市,好美居路49号,,19,13,23,10,17,59,,54,54,11,12,7,7,0.5,0.6
2025-05-28T2100,1431A,103.9728,30.7236,成都市,金泉两河,,46,46,25,31,9,89,,138,132,30,14,4,3,0.5,0.4
2025-05-28T2100,1432A,104.176,30.6872,成都市,十里店,,34,26,23,22,13,108,,128,126,18,17,4,4,0.5,0.5
2025-05-28T2100,1433A,104.079,30.5706,成都市,三瓦窑,,46,46,24,29,14,80,,127,122,41,20,4,4,0.9,0.8
2025-05-28T2100,1434A,104.1114,30.63,成都市,沙河铺,,43,43,27,8,16,83,,103,100,20,15,7,8,0.3,0.2
2025-05-28T2100,1437A,104.0786,30.6531,成都市,君平街,,50,50,29,26,16,104,,129,127,26,21,12,8,0.8,0.7
2025-05-28T2100,1438A,103.613,31.0283,成都市,灵岩寺,,,,,,,,,,,,,,,,
2025-05-28T2100,2880A,104.0239,30.65639,成都市,大石西路,颗粒物(PM10),52,54,31,32,16,104,,128,126,23,15,6,4,0.7,0.6
2025-05-28T2100,3136A,104.2725,30.5589,成都市,龙泉驿区区政府,,30,19,17,12,12,94,,116,115,13,12,4,5,0.5,0.5
2025-05-28T2100,3357A,104.0106,30.6931,成都市,金博路,,42,42,20,25,10,91,,127,123,25,18,9,8,0.6,0.5
2025-05-28T2100,3359A,104.0578,30.5225,成都市,华阳,,,,17,,11,,,116,116,15,17,6,7,0.7,0.6
2025-05-28T2100,3488A,104.3853,30.7453,成都市,青白江技师分院,,36,33,26,25,15,88,,127,120,31,22,4,4,0.5,0.5
2025-05-28T2100,3489A,104.0789,30.4072,成都市,科学城,,36,21,25,15,18,113,,120,119,9,14,4,4,0.5,0.6
2025-05-28T2100,4011A,103.8506,30.6947,成都市,光华大道三段,细颗粒物(PM2.5),53,41,31,37,16,107,,148,140,18,13,11,7,0.6,0.6
2025-05-28T2100,4224A,104.2433,30.5353,成都市,鲸龙路1057号,,33,23,25,14,18,105,,117,116,13,16,6,6,0.5,0.6
2025-05-28T2100,1062A,117.9531,40.9081,承德市,铁路,颗粒物(PM10),68,85,29,44,14,169,,175,175,29,18,5,5,0.5,0.4
2025-05-28T2100,1063A,117.9392,40.9763,承德市,中国银行,颗粒物(PM10),65,79,32,36,14,125,,171,167,22,12,2,3,0.6,0.3
2025-05-28T2100,1064A,117.9503,40.928,承德市,开发区,臭氧1小时,75,66,36,40,19,180,,182,182,18,13,4,3,0.6,0.4
2025-05-28T2100,1065A,117.8051,40.9655,承德市,文化中心,颗粒物(PM10),71,92,40,38,17,111,,175,169,28,21,3,8,0.5,0.7
2025-05-28T2100,1066A,117.9268,41.0026,承德市,离宫,细颗粒物(PM2.5),64,60,31,46,24,128,,160,158,7,10,2,2,0.5,0.3
2025-05-28T2100,2314A,117.47,30.6618,池州市,池州学院,细颗粒物(PM2.5),53,42,56,37,41,94,,121,118,22,16,7,7,0.7,0.9
2025-05-28T2100,3237A,117.4918,30.6617,池州市,展览馆,,42,39,60,29,40,82,,118,114,12,16,4,6,0.7,1
2025-05-28T2100,3333A,117.5627,30.695,池州市,第八中学,,40,33,56,28,39,90,,125,122,20,15,5,6,0.4,0.7
2025-05-28T2100,3334A,117.5038,30.6243,池州市,第十二中学,,38,38,59,26,42,48,,120,111,41,20,3,5,0.6,1
2025-05-28T2100,1744A,118.9233,42.2816,赤峰市,松山一中,,,,29,30,12,158,,158,158,21,16,9,6,0.7,0.5
2025-05-28T2100,1745A,118.9576,42.2728,赤峰市,哈达街,颗粒物(PM10),52,53,25,31,12,145,,144,144,23,18,12,10,0.7,0.5
2025-05-28T2100,1746A,118.8788,42.2554,赤峰市,天义路,细颗粒物(PM2.5),52,42,23,36,18,157,,159,159,19,14,14,11,0.8,0.5
2025-05-28T2100,3058A,119.2658,42.0353,赤峰市,银河街,颗粒物(PM10),70,89,65,41,26,138,,150,148,15,18,7,18,0.8,1
2025-05-28T2100,3286A,118.9359,42.3147,赤峰市,桥北物流园区,颗粒物(PM10),59,67,30,41,20,138,,145,145,22,23,13,14,0.7,0.6
2025-05-28T2100,2521A,107.3476,22.4136,崇左市,市环保局江州分局,,43,43,45,21,29,90,,90,90,7,12,6,6,0.6,0.5
2025-05-28T2100,4256A,107.3750,22.3736,崇左市,石景林东路7号,,27,19,44,16,28,84,,90,88,11,16,3,3,0.7,0.7
2025-05-28T2100,2298A,118.3093,32.3153,滁州市,老年大学,细颗粒物(PM2.5),89,74,52,66,36,142,,175,170,28,25,2,2,0.5,0.4
2025-05-28T2100,2299A,118.3244,32.2786,滁州市,人大宾馆,"颗粒物(PM10),细颗粒物(PM2.5)",60,70,57,43,35,137,,163,160,24,25,5,6,0.4,0.4
2025-05-28T2100,3207A,118.3118,32.3038,滁州市,市政府原办公楼,细颗粒物(PM2.5),88,76,51,65,36,143,,176,172,19,18,6,6,0.5,0.4
2025-05-28T2100,3331A,118.3267,32.2634,滁州市,图书馆,细颗粒物(PM2.5),52,44,44,36,34,136,,163,160,17,17,8,9,0.4,0.5
2025-05-28T2100,2605A,101.5482,25.0441,楚雄彝族自治州,州环境监测站,,10,,9,3,9,30,,37,36,8,7,8,8,0.5,0.5
2025-05-28T2100,2606A,101.538,25.0492,楚雄彝族自治州,市经济开发区,,20,20,11,8,9,29,,36,34,12,8,8,7,0.5,0.5
2025-05-28T2100,2548A,107.5277,31.2827,达州市,达州职业技术学院,,25,25,29,3,9,56,,108,100,32,17,6,6,0.2,0.3
2025-05-28T2100,2549A,107.5086,31.2186,达州市,市环境监测站,,33,33,26,7,6,75,,112,105,26,20,6,5,0.4,0.3
2025-05-28T2100,2550A,107.4988,31.2132,达州市,凤凰小区,,25,22,20,7,10,79,,114,106,19,16,7,7,0.4,0.3
2025-05-28T2100,2551A,107.5082,31.1986,达州市,达县机关宾馆,,24,24,24,11,10,47,,112,98,41,27,5,6,0.5,0.4
2025-05-28T2100,2552A,107.4644,31.2124,达州市,市政中心,,,42,27,3,7,,,106,102,24,16,2,2,,0.4
2025-05-28T2100,2614A,100.1542,25.7054,大理白族自治州,大理市环境监测站,,20,17,5,14,11,36,,47,47,20,9,6,6,0.6,0.4
2025-05-28T2100,2615A,100.2171,25.5811,大理白族自治州,大理古城,,16,,6,11,5,40,,48,48,10,7,8,8,0.4,0.4
2025-05-28T2100,1109A,121.612,38.9741,大连市,甘井子,,45,45,42,30,27,116,,156,134,32,24,6,6,0.2,0.3
2025-05-28T2100,1110A,121.565,38.9511,大连市,周水子,"颗粒物(PM10),细颗粒物(PM2.5)",54,58,53,38,28,122,,150,140,19,19,6,8,0.4,0.4
2025-05-28T2100,1111A,121.5637,38.8845,大连市,星海三站,,48,45,50,33,30,118,,152,144,18,11,5,4,0.4,0.4
2025-05-28T2100,1112A,121.6302,38.9117,大连市,青泥洼桥,,49,49,46,34,26,130,,169,156,18,12,7,7,0.4,0.4
2025-05-28T2100,1113A,121.6251,38.8638,大连市,傅家庄,,47,38,51,25,28,148,,167,151,21,15,7,6,0.2,0.2
2025-05-28T2100,1114A,121.5213,38.8661,大连市,七贤岭,颗粒物(PM10),58,65,53,40,33,129,,164,155,20,12,8,6,0.3,0.6
2025-05-28T2100,1115A,121.2529,38.8061,大连市,旅顺,,48,,42,33,29,125,,130,130,12,11,1,2,0.2,0.3
2025-05-28T2100,1116A,121.7485,39.1311,大连市,金州,细颗粒物(PM2.5),52,48,41,36,29,139,,174,160,24,17,9,9,0.3,0.3
2025-05-28T2100,1117A,121.7811,39.0496,大连市,开发区,细颗粒物(PM2.5),54,52,43,38,27,129,,147,126,23,21,5,5,0.6,0.6
2025-05-28T2100,1118A,121.9762,39.0631,大连市,双D港,,40,30,29,28,23,85,,120,113,10,8,6,6,0.3,0.4
2025-05-28T2100,1789A,124.81117,46.03138,大庆市,大同区,颗粒物(PM10),54,58,66,28,33,128,,156,154,19,16,5,6,0.6,0.6
2025-05-28T2100,1790A,125.129,46.533,大庆市,龙凤区,颗粒物(PM10),55,59,68,19,32,135,,165,153,20,17,6,14,0.5,0.5
2025-05-28T2100,1791A,124.902,46.408,大庆市,红岗区,颗粒物(PM10),54,58,71,35,33,145,,170,165,13,14,8,9,0.4,0.4
2025-05-28T2100,1792A,125.153,46.586,大庆市,萨尔图区,颗粒物(PM10),56,61,72,30,38,124,,137,134,20,18,7,10,0.6,0.6
2025-05-28T2100,1793A,124.9042,46.6215,大庆市,让胡路区,,47,47,56,30,37,150,,162,156,10,12,8,9,0.2,0.3
2025-05-28T2100,3481A,125.141,46.634,大庆市,萨区政府监测点,颗粒物(PM10),54,58,69,24,32,152,,166,162,14,14,7,9,0.5,0.5
2025-05-28T2100,1721A,113.3819,40.1097,大同市,果树场,,,,,,,,,,,,,,,,
2025-05-28T2100,1723A,113.2994,40.0758,大同市,云冈宾馆,,50,50,50,27,23,160,,180,169,18,20,8,7,0.5,0.6
2025-05-28T2100,1724A,113.3444,40.0917,大同市,大同大学,臭氧1小时,64,50,44,30,24,171,,183,175,16,21,7,9,0.6,0.6
2025-05-28T2100,1725A,113.2661,40.1269,大同市,安家小村,臭氧1小时,83,93,52,23,22,186,,179,172,12,13,6,7,0.6,0.6
2025-05-28T2100,1726A,113.2711,40.0844,大同市,教育学院,,,61,56,30,29,,,180,174,14,23,8,9,0.4,0.4
2025-05-28T2100,3282A,113.3397,40.0597,大同市,大同市卫生学校,,49,46,45,27,26,154,,168,159,14,18,9,10,0.6,0.7
2025-05-28T2100,3565A,113.1367,40.1122,大同市,云冈站,颗粒物(PM10),53,56,70,30,36,154,,178,170,13,23,8,8,0.6,0.6
2025-05-28T2100,3566A,113.1186,40.2556,大同市,图书馆,颗粒物(PM10),53,55,48,30,28,143,,180,168,17,14,8,8,0.8,0.7
2025-05-28T2100,3567A,113.5931,40.0461,大同市,区一中,臭氧1小时,53,32,38,24,25,162,,169,162,19,14,13,13,0.4,0.4
2025-05-28T2100,4199A,113.2798,40.0997,大同市,魏都大道141号,臭氧1小时,53,52,55,29,27,162,,179,170,13,19,8,8,0.6,0.9
2025-05-28T2100,2269A,124.1069,50.4097,大兴安岭地区,科技局,颗粒物(PM10),64,77,45,20,19,128,,128,128,5,6,8,8,0.3,0.3
2025-05-28T2100,3663A,124.1164,50.4278,大兴安岭地区,红旗社区,颗粒物(PM10),56,61,33,22,15,133,,133,133,8,10,6,6,0.4,0.3
2025-05-28T2100,1600A,124.3303,40.0625,丹东市,江湾东路,颗粒物(PM10),53,56,55,28,30,96,,149,135,21,19,14,11,0.7,0.8
2025-05-28T2100,1601A,124.4256,40.1503,丹东市,临江后街,颗粒物(PM10),88,125,57,64,40,94,,142,130,24,23,9,11,1.0,0.7
2025-05-28T2100,1602A,124.3933,40.1461,丹东市,元宝山,颗粒物(PM10),65,80,60,24,24,96,,141,131,18,18,9,9,0.6,0.6
2025-05-28T2100,1603A,124.3633,40.1092,丹东市,民主桥,颗粒物(PM10),53,55,52,29,23,104,,146,134,16,22,15,10,0.7,0.7
2025-05-28T2100,3541A,109.5726,19.5167,儋州市,第一中学子站,,14,9,19,6,8,44,,60,53,4,3,5,5,0.7,0.8
2025-05-28T2100,3542A,109.5567,19.5187,儋州市,东坡学校子站,,15,10,20,8,8,47,,62,55,5,3,6,6,0.5,0.5
2025-05-28T2100,2616A,98.5842,24.428,德宏傣族景颇族自治州,德宏州监测站,,23,23,26,14,17,33,,49,49,15,12,7,7,0.8,0.9
2025-05-28T2100,3677A,98.5881,24.4368,德宏傣族景颇族自治州,芒市人民政府综合楼,,20,20,27,12,13,30,,46,46,12,11,6,6,0.6,0.6
2025-05-28T2100,1901A,104.4239,31.1208,德阳市,东山公园,,43,,14,30,14,82,,107,104,12,10,4,4,0.7,0.8
2025-05-28T2100,1902A,104.3826,31.1317,德阳市,西小区,,36,35,25,25,15,79,,121,115,34,16,4,4,0.8,0.7
2025-05-28T2100,1904A,104.3553,31.1091,德阳市,耐火材料厂,,37,37,29,19,16,87,,127,121,26,15,5,6,0.5,0.5
2025-05-28T2100,3639A,104.4019,31.1244,德阳市,市教育局,,33,28,23,23,14,65,,117,111,34,12,5,6,0.8,0.7
2025-05-28T2100,1622A,116.3032,37.4674,德州市,儿童乐园,臭氧1小时,113,66,75,36,45,226,,244,242,14,19,8,9,0.7,0.7
2025-05-28T2100,1624A,116.2991,37.4451,德州市,监理站,臭氧1小时,102,73,74,34,45,204,,238,234,21,21,7,8,0.5,0.6
2025-05-28T2100,3066A,116.2721,37.4379,德州市,九衢泉纯净水厂,颗粒物(PM10),67,83,85,39,48,127,,228,207,88,47,8,9,0.7,0.7
2025-05-28T2100,3371A,116.3728,37.4403,德州市,开发区人民医院,臭氧1小时,70,73,77,44,41,176,,237,230,35,33,8,11,0.8,0.7
2025-05-28T2100,3372A,116.3572,37.4094,德州市,太阳城中学,臭氧1小时,103,75,81,41,45,205,,240,235,27,44,4,8,0.5,0.6
2025-05-28T2100,3511A,116.5652,37.3319,德州市,陵城艺术中心,颗粒物(PM10),75,100,77,36,40,170,,243,233,25,22,8,9,0.6,0.6
2025-05-28T2100,2621A,99.7056,27.8317,迪庆藏族自治州,迪庆州站,,20,19,15,14,8,44,,89,74,8,7,6,6,0.4,0.5
2025-05-28T2100,3180A,99.7136,27.8094,迪庆藏族自治州,质量技术监督局,,16,12,16,11,9,45,,88,73,8,8,4,5,0.4,0.4
2025-05-28T2100,4257A,104.6092,35.5962,定西市,将台街,颗粒物(PM10),51,52,35,28,17,106,,130,126,6,5,4,4,0.4,0.4
2025-05-28T2100,4309A,104.6159,35.5701,定西市,正龙路62号,,39,37,26,27,14,105,,127,123,6,6,7,7,0.2,0.2
2025-05-28T2100,1389A,113.7547,23.0494,东莞市,莞城梨川,细颗粒物(PM2.5),55,56,47,39,26,81,,132,118,27,23,8,9,0.5,0.5
2025-05-28T2100,1390A,113.7944,23.0128,东莞市,东城石井,"颗粒物(PM10),细颗粒物(PM2.5)",54,58,41,38,21,71,,113,99,23,24,3,4,1.1,0.6
2025-05-28T2100,1391A,113.7383,22.9658,东莞市,南城西平,颗粒物(PM10),52,53,37,34,20,70,,108,87,33,28,1,3,0.7,0.6
2025-05-28T2100,3319A,113.7338,23.0381,东莞市,万江金泰,细颗粒物(PM2.5),60,48,39,43,24,72,,119,106,23,20,2,3,0.6,0.5
2025-05-28T2100,3626A,113.7533,23.0202,东莞市,南城元岭,细颗粒物(PM2.5),54,45,37,38,22,85,,123,112,22,22,5,6,0.8,0.7
2025-05-28T2100,3627A,113.7875,23.0457,东莞市,东城主山,细颗粒物(PM2.5),54,47,42,38,25,79,,124,111,23,21,5,7,0.8,0.7
2025-05-28T2100,1666A,118.6614,37.4309,东营市,市环保局,,,,64,,32,139,,197,176,,25,,10,0.5,0.6
2025-05-28T2100,3036A,118.6904,37.4338,东营市,开发区管委会,颗粒物(PM10),59,67,68,22,31,148,,223,198,18,24,7,11,0.6,0.7
2025-05-28T2100,3365A,118.5719,37.565,东营市,垦利区民丰路,颗粒物(PM10),58,66,65,19,32,157,,232,202,18,26,9,10,0.8,0.9
2025-05-28T2100,3498A,118.5055,37.8612,东营市,河口城区,颗粒物(PM10),52,53,68,20,32,160,,234,208,17,23,8,11,0.9,1
2025-05-28T2100,3646A,118.4978,37.4623,东营市,胜利站,颗粒物(PM10),63,76,66,24,31,138,,225,196,20,25,9,13,0.6,0.8
2025-05-28T2100,3734A,118.35,37.26,东营市,理想之城,颗粒物(PM10),57,63,62,31,36,126,,218,187,28,31,5,7,0.5,0.6
2025-05-28T2100,1591A,110.0023,39.8129,鄂尔多斯市,综合楼,臭氧1小时,77,63,78,27,29,181,,189,189,17,19,10,11,0.6,0.6
2025-05-28T2100,1592A,109.9486,39.8261,鄂尔多斯市,巴音孟克林场办事处,臭氧1小时,90,80,80,29,28,192,,202,202,18,18,7,10,0.5,0.5
2025-05-28T2100,1593A,109.7736,39.5986,鄂尔多斯市,康泽苑,臭氧1小时,80,70,70,24,22,184,,197,196,15,14,5,9,0.6,0.5
2025-05-28T2100,1594A,109.8119,39.5989,鄂尔多斯市,华泰汽车城,臭氧1小时,59,66,62,24,25,167,,180,178,15,17,6,7,0.4,0.4
2025-05-28T2100,1595A,109.9734,39.7884,鄂尔多斯市,奥林花园,臭氧1小时,65,63,71,22,29,172,,195,193,22,19,9,10,0.6,0.6
2025-05-28T2100,2436A,114.8938,30.3994,鄂州市,市政府,,,,49,,32,,,99,,,14,,9,,0.6
2025-05-28T2100,2437A,114.8989,30.3714,鄂州市,赵家坝,,30,14,43,8,24,96,,118,115,17,13,6,6,0.5,0.7
2025-05-28T2100,3654A,114.8094,30.4089,鄂州市,精准医疗中心,,30,20,41,6,25,94,,113,111,8,6,4,5,0.8,0.9
2025-05-28T2100,2454A,109.4978,30.2981,恩施土家族苗族自治州,湖北民院,,38,38,31,15,18,64,,107,104,16,7,5,5,0.3,0.2
2025-05-28T2100,2455A,109.4707,30.2798,恩施土家族苗族自治州,州电力总公司,,30,30,28,21,17,54,,91,89,14,10,6,6,0.5,0.4
2025-05-28T2100,3549A,109.5061,30.3772,恩施土家族苗族自治州,龙凤新区,,33,33,24,21,15,31,,86,80,14,6,6,6,0.4,0.3
2025-05-28T2100,2499A,108.3411,21.6158,防城港市,沙万,颗粒物(PM10),54,58,42,16,18,23,,88,62,66,18,5,4,0.4,0.5
2025-05-28T2100,2500A,108.3514,21.7731,防城港市,防城档案局,,32,29,38,22,20,46,,82,70,9,14,1,3,0.6,0.6
2025-05-28T2100,2501A,108.3506,21.6414,防城港市,大海花园,颗粒物(PM10),58,65,38,3,5,46,,100,72,35,14,6,7,0.6,0.7
2025-05-28T2100,1371A,113.1294,23.0067,佛山市,湾梁,,38,34,35,26,17,83,,91,89,37,36,7,8,0.8,0.7
2025-05-28T2100,1372A,113.1083,23.0478,佛山市,华材职中,,39,,33,27,19,101,,108,106,24,28,5,5,0.6,0.5
2025-05-28T2100,1373A,113.144,23.0453,佛山市,南海气象局,,30,23,36,21,23,86,,90,88,26,31,1,2,0.9,0.7
2025-05-28T2100,1374A,113.2881,22.8094,佛山市,顺德苏岗,,49,,35,34,18,62,,94,79,36,25,6,6,0.8,0.6
2025-05-28T2100,1376A,112.8383,22.8678,佛山市,高明孔堂,,32,32,50,22,25,59,,102,91,28,23,5,6,0.8,0.7
2025-05-28T2100,1377A,112.8836,23.1588,佛山市,三水监测站,细颗粒物(PM2.5),60,58,61,43,37,85,,84,84,44,54,4,7,0.8,0.7
2025-05-28T2100,1378A,112.867,23.185,佛山市,三水云东海,细颗粒物(PM2.5),92,,69,68,45,60,,81,68,45,48,3,2,1.0,1
2025-05-28T2100,3625A,113.2544,22.7642,佛山市,容桂街道办,,39,,27,27,19,77,,92,77,32,27,5,6,0.9,0.7
2025-05-28T2100,1280A,119.3903,26.0543,福州市,鼓山,,,,10,,8,,,86,,,8,,2,,0.2
2025-05-28T2100,1282A,119.2681,26.0504,福州市,师大,,20,7,17,3,8,64,,79,69,15,15,3,4,0.5,0.3
2025-05-28T2100,1283A,119.2984,26.1028,福州市,五四北路,,21,,15,3,7,65,,86,63,19,14,3,4,0.7,0.5
2025-05-28T2100,1284A,119.2648,26.0768,福州市,杨桥西路,,22,6,18,3,7,70,,80,71,12,12,3,4,0.5,0.3
2025-05-28T2100,1285A,119.317,26.0746,福州市,紫阳,,23,6,21,3,11,71,,82,62,16,20,5,5,0.6,0.4
2025-05-28T2100,3048A,119.5799,26.0936,福州市,九龙,,17,12,16,3,7,52,,59,57,16,13,4,5,0.4,0.3
2025-05-28T2100,3526A,119.5189,25.9664,福州市,吴航,,20,10,16,6,9,64,,92,83,21,13,4,4,0.2,0.2
2025-05-28T2100,1755A,123.7977,41.8491,抚顺市,望花区,颗粒物(PM10),59,68,66,39,33,105,,187,166,58,31,8,8,0.6,0.7
2025-05-28T2100,1756A,123.9161,41.8822,抚顺市,顺城区,颗粒物(PM10),63,75,50,34,29,126,,165,152,25,32,14,10,1.1,0.8
2025-05-28T2100,1757A,124.0436,41.8611,抚顺市,东洲区,,50,41,38,35,25,108,,153,143,28,18,13,7,0.5,0.5
2025-05-28T2100,1758A,123.9247,41.8642,抚顺市,新抚区,,43,40,58,30,28,130,,164,153,17,29,21,12,0.7,0.7
2025-05-28T2100,1759A,124.0972,41.8961,抚顺市,大伙房水库,,39,34,31,27,26,100,,148,139,17,17,7,8,0.5,0.5
2025-05-28T2100,1760A,123.7086,41.8391,抚顺市,沈抚新城,,50,50,58,30,35,114,,188,170,40,36,10,15,0.7,1.1
2025-05-28T2100,2376A,116.2127,28.0814,抚州市,桐源党溪,,30,30,44,16,30,83,,83,83,3,3,5,7,0.8,1
2025-05-28T2100,2377A,116.3544,27.9831,抚州市,市站,,,16,34,12,25,,,70,68,6,8,1,3,0.4,0.6
2025-05-28T2100,2378A,116.3565,27.963,抚州市,血防站,,21,21,40,11,26,67,,70,68,6,9,1,3,0.1,0.3
2025-05-28T2100,2379A,116.3564,28.0007,抚州市,采茶剧团,,,30,39,9,25,,,69,68,4,5,1,4,0.3,0.2
2025-05-28T2100,2380A,116.385,27.9647,抚州市,医学分院,,26,26,41,7,22,82,,86,83,3,5,4,4,0.9,0.9
2025-05-28T2100,2207A,121.6094,41.998,阜新市,工业园区,,50,31,55,9,36,158,,204,198,14,18,9,15,0.4,0.6
2025-05-28T2100,2208A,121.6697,42.0279,阜新市,长青街,,44,40,68,15,30,139,,182,175,21,17,13,14,0.4,0.6
2025-05-28T2100,2209A,121.6673,42.0705,阜新市,农业园区,,,26,54,17,50,,,196,193,14,16,9,12,0.4,0.5
2025-05-28T2100,2210A,121.6717,42.0224,阜新市,东苑,,50,39,61,14,33,157,,195,189,18,18,11,17,0.5,0.6
2025-05-28T2100,2211A,121.6506,42.0498,阜新市,玉龙新城,,48,27,69,12,33,153,,184,179,11,24,8,10,0.5,0.7
2025-05-28T2100,2301A,115.8277,32.8929,阜阳市,市监测站,颗粒物(PM10),75,100,105,34,54,146,,214,201,32,29,8,9,0.3,0.4
2025-05-28T2100,2303A,115.8554,32.8605,阜阳市,开发区,颗粒物(PM10),72,94,116,32,50,172,,217,209,37,35,7,7,0.3,0.4
2025-05-28T2100,2875A,115.784,32.8892,阜阳市,阜阳职业技术学院,臭氧1小时,85,85,89,39,45,188,,226,221,21,29,5,6,0.5,0.6
2025-05-28T2100,3468A,115.7901,32.8613,阜阳市,市规划展馆,臭氧1小时,77,76,94,40,50,181,,224,218,24,22,7,8,0.6,0.7
2025-05-28T2100,3469A,115.836,32.9183,阜阳市,枣园社区,,,,104,,56,,,214,212,23,35,7,6,0.4,0.6
2025-05-28T2100,2669A,102.9099,34.9841,甘南藏族自治州,州政府,,,,40,51,21,,,125,125,2,14,4,3,0.3,0.3
2025-05-28T2100,3380A,102.8914,34.9617,甘南藏族自治州,甘肃民族师范学院,,46,46,57,21,18,112,,136,134,9,21,8,8,0.3,0.4
2025-05-28T2100,2570A,101.9603,30.0475,甘孜藏族自治州,水桥子,,21,6,9,3,4,65,,80,78,12,13,4,4,0.6,0.6
2025-05-28T2100,3065A,101.9533,29.9972,甘孜藏族自治州,州环保局,,21,16,11,7,5,67,,84,82,13,12,1,2,0.5,0.4
2025-05-28T2100,3414A,115.8347,28.932,赣江新区,桑海产业园,,32,22,35,8,26,102,,119,111,11,20,4,5,0.5,0.6
2025-05-28T2100,2362A,114.9017,25.9149,赣州市,通天岩,,19,9,25,7,7,59,,62,60,5,4,2,2,0.9,0.8
2025-05-28T2100,2363A,114.9367,25.8664,赣州市,地委,,24,24,40,14,27,65,,58,58,7,16,1,2,0.7,0.7
2025-05-28T2100,2364A,114.9461,25.8481,赣州市,气象台,,48,48,42,10,22,57,,45,45,10,20,6,7,0.7,0.7
2025-05-28T2100,2365A,114.9322,25.8333,赣州市,市图书馆,,,14,32,7,25,,,43,43,6,17,3,4,0.5,0.6
2025-05-28T2100,2366A,114.8905,25.8471,赣州市,华坚鞋城,,22,16,33,15,23,56,,56,54,7,16,4,4,0.4,0.4
2025-05-28T2100,3109A,115.0093,25.8613,赣州市,赣县区卫计委,,20,9,26,3,21,63,,51,51,5,19,2,2,0.5,0.5
2025-05-28T2100,2683A,106.2319,36.1417,固原市,马园,,43,43,33,19,14,92,,121,115,34,16,5,5,0.4,0.3
2025-05-28T2100,2684A,106.2792,36.0022,固原市,监测站,,,34,23,13,14,,,119,119,7,10,4,5,0.2,0.2
2025-05-28T2100,2685A,106.2375,36.0211,固原市,新区,,34,32,26,14,12,108,,115,114,12,10,5,5,0.4,0.4
2025-05-28T2100,3522A,106.2177,35.9959,固原市,原州区十五小,,37,32,23,16,14,116,,118,118,9,8,11,11,0.2,0.1
2025-05-28T2100,2543A,106.6308,30.5278,广安市,小平旧居,,,,,,,,,,,,,,,,
2025-05-28T2100,2544A,106.6303,30.4576,广安市,市委,,,30,22,22,17,90,,112,109,,6,7,5,0.5,0.3
2025-05-28T2100,2545A,106.6271,30.4663,广安市,友谊中学,,32,25,21,18,13,102,,114,112,16,11,5,4,0.9,0.8
2025-05-28T2100,2547A,106.6388,30.4551,广安市,广电花园,,29,29,23,15,14,86,,112,107,22,10,7,6,0.5,0.4
2025-05-28T2100,2902A,106.6351,30.4865,广安市,北辰小学,,32,20,23,16,14,102,,115,113,13,9,10,10,0.6,0.5
2025-05-28T2100,2523A,105.8945,32.4535,广元市,黑石坡,,37,37,35,19,9,84,,100,98,4,6,4,4,0.2,0.3
2025-05-28T2100,2524A,105.821,32.4444,广元市,老城,,,33,30,20,12,,,110,110,4,15,2,3,0.5,0.8
2025-05-28T2100,2526A,105.8628,32.4287,广元市,监测站,细颗粒物(PM2.5),54,,22,38,16,94,,112,110,6,8,3,5,0.4,0.5
2025-05-28T2100,3617A,105.8047,32.4166,广元市,经开区,,40,40,36,26,23,99,,112,110,11,15,4,7,0.4,0.4
2025-05-28T2100,1345A,113.2347,23.1423,广州市,广雅中学,,32,24,41,16,21,101,,112,111,34,38,2,3,0.7,0.7
2025-05-28T2100,1346A,113.2612,23.105,广州市,市五中,,32,21,37,14,20,100,,108,108,26,35,2,3,0.8,0.7
2025-05-28T2100,1348A,113.3478,23.0916,广州市,广东商学院,,30,24,43,21,25,95,,113,110,25,47,3,5,0.8,0.8
2025-05-28T2100,1349A,113.4332,23.1047,广州市,市八十六中,,35,31,46,24,23,76,,104,98,37,60,2,4,0.0,0
2025-05-28T2100,1350A,113.3505,22.9483,广州市,番禺中学,,46,40,32,32,20,78,,103,94,35,34,6,6,1.1,0.7
2025-05-28T2100,1351A,113.2146,23.3916,广州市,花都师范,,,73,59,45,34,,,124,124,38,48,4,5,0.8,0.7
2025-05-28T2100,1352A,113.2597,23.1331,广州市,市监测站,,30,28,42,17,20,95,,110,109,30,40,4,5,0.6,0.6
2025-05-28T2100,1353A,113.5618,23.312,广州市,九龙镇镇龙,,38,31,45,26,31,66,,151,130,17,23,5,7,0.6,0.6
2025-05-28T2100,1354A,113.2765,23.1544,广州市,麓湖,,29,23,40,15,25,92,,96,95,27,43,4,5,0.5,0.5
2025-05-28T2100,1355A,113.443,23.3035,广州市,帽峰山森林公园,,38,,37,26,29,99,,134,128,14,23,5,7,0.6,0.7
2025-05-28T2100,2846A,113.3221,23.1322,广州市,体育西,,,22,45,17,26,,,124,124,29,44,4,5,,0.4
2025-05-28T2100,3298A,113.5717,23.5491,广州市,从化街口,,43,42,42,30,30,82,,125,118,14,21,7,8,0.7,0.7
2025-05-28T2100,3299A,113.3472,23.3692,广州市,白云竹料,细颗粒物(PM2.5),60,60,57,43,36,108,,156,153,22,33,2,4,0.7,0.7
2025-05-28T2100,3300A,113.2981,23.237,广州市,白云嘉禾,,48,48,57,32,34,89,,120,118,38,52,6,7,0.9,0.9
2025-05-28T2100,3301A,113.4256,23.1716,广州市,黄埔科学城,,43,37,48,30,28,96,,108,104,20,33,4,4,0.5,0.6
2025-05-28T2100,3302A,113.3942,23.0483,广州市,番禺大学城,,48,48,54,29,22,80,,116,105,43,47,7,8,0.8,0.7
2025-05-28T2100,3303A,113.4922,22.8168,广州市,南沙黄阁,细颗粒物(PM2.5),65,,34,47,20,61,,95,76,39,28,5,6,0.8,0.7
2025-05-28T2100,3304A,113.5342,22.7896,广州市,南沙街,细颗粒物(PM2.5),68,,33,49,20,51,,109,81,46,26,3,3,0.8,0.4
2025-05-28T2100,3443A,113.2902,23.5544,广州市,花都梯面,颗粒物(PM10),66,81,52,44,31,41,,121,110,29,25,4,5,0.6,0.6
2025-05-28T2100,3445A,113.7858,23.7478,广州市,从化良口,,35,35,27,24,21,22,,68,60,12,12,6,6,0.5,0.4
2025-05-28T2100,3446A,113.8051,23.2614,广州市,增城荔城,,38,36,42,26,27,68,,123,104,13,17,8,9,0.4,0.4
2025-05-28T2100,2505A,109.568,23.1478,贵港市,德智高中,,,,,,,,,,,,,,,,
2025-05-28T2100,2506A,109.6047,23.0666,贵港市,江南子站,,,,,,,,,,,,,,,,
2025-05-28T2100,2508A,109.5669,23.1065,贵港市,荷城子站,颗粒物(PM10),56,62,65,31,35,66,,99,92,20,21,6,8,0.6,0.7
2025-05-28T2100,3405A,109.5886,23.1172,贵港市,新世纪学校,细颗粒物(PM2.5),53,53,62,37,40,60,,102,94,25,21,4,6,0.7,0.7
2025-05-28T2100,4260A,109.5933,23.0951,贵港市,中山路155-3号,颗粒物(PM10),57,63,78,33,45,82,,117,111,20,21,4,7,0.5,0.7
2025-05-28T2100,1439A,106.6899,26.5998,贵阳市,马鞍山,,,7,6,,0,28,,48,47,12,9,3,3,0.4,0.4
2025-05-28T2100,1441A,106.6243,26.6266,贵阳市,鉴湖路,,14,9,13,3,2,44,,56,54,15,15,6,7,0.3,0.4
2025-05-28T2100,1442A,106.7487,26.6343,贵阳市,燕子冲,,25,,10,17,11,48,,59,58,8,11,4,4,0.4,0.4
2025-05-28T2100,1443A,106.6555,26.4365,贵阳市,碧云窝,,17,9,13,7,3,53,,57,57,11,14,4,4,0.4,0.4
2025-05-28T2100,1445A,106.7109,26.6027,贵阳市,红边门,,18,,8,12,8,54,,56,56,6,5,4,7,0.3,0.4
2025-05-28T2100,1446A,106.7164,26.5699,贵阳市,新华路,,16,9,6,3,3,50,,60,60,11,10,6,6,0.5,0.5
2025-05-28T2100,1447A,106.674,26.5424,贵阳市,太慈桥,,12,7,6,3,2,38,,52,52,16,14,4,4,0.3,0.3
2025-05-28T2100,1552A,106.805,26.3003,贵阳市,桐木岭,,22,22,19,9,10,56,,72,69,3,4,2,1,0.3,0.3
2025-05-28T2100,4230A,106.6882,26.5695,贵阳市,花果园大街66号,,16,9,5,9,8,49,,52,52,13,12,3,3,0.4,0.4
2025-05-28T2100,4231A,106.6873,26.5169,贵阳市,漓江路57号,,17,17,9,3,5,43,,50,50,13,11,2,2,0.4,0.4
2025-05-28T2100,1862A,110.4144,25.3167,桂林市,电子科大尧山校区,,,,,,,,,,,,,,,,
2025-05-28T2100,1864A,110.3089,25.2708,桂林市,龙隐路小学,,20,8,20,7,16,63,,56,56,8,12,7,10,0.7,0.6
2025-05-28T2100,1865A,110.2869,25.2178,桂林市,八中,,17,12,22,3,15,54,,51,51,16,19,5,7,0.8,0.7
2025-05-28T2100,3531A,110.296,25.1253,桂林市,旅游学院,,14,6,14,3,14,44,,48,48,12,13,1,2,0.4,0.4
2025-05-28T2100,4222A,110.1835,25.2444,桂林市,环湖路276号,,,6,18,3,17,,,44,44,8,16,2,19,0.5,0.5
2025-05-28T2100,4301A,110.2803,25.2773,桂林市,信义路13号,,19,10,23,7,14,60,,50,50,10,15,1,7,0.5,0.5
2025-05-28T2100,2674A,100.2561,34.4714,果洛藏族自治州,玛沁县大武镇,,42,42,60,27,15,89,,138,133,24,6,22,10,0.5,0.4
2025-05-28T2100,1129A,126.5422,45.755,哈尔滨市,岭北,,50,48,43,28,28,158,,206,194,21,21,13,14,0.6,0.6
2025-05-28T2100,1130A,126.561,45.8167,哈尔滨市,松北商大,,46,46,45,25,24,146,,203,185,20,19,8,9,0.8,0.6
2025-05-28T2100,1131A,126.979,45.5419,哈尔滨市,阿城会宁,颗粒物(PM10),52,53,60,28,24,110,,188,174,29,24,9,9,0.5,0.5
2025-05-28T2100,1132A,126.599,45.7222,哈尔滨市,南岗学府路,颗粒物(PM10),60,70,58,36,30,136,,203,190,29,34,8,9,0.6,0.6
2025-05-28T2100,1133A,126.689,45.7733,哈尔滨市,太平宏伟公园,,,45,56,30,32,,,205,201,36,27,6,7,0.6,0.5
2025-05-28T2100,1134A,126.635,45.7667,哈尔滨市,道外承德广场,颗粒物(PM10),57,63,60,33,31,142,,193,184,34,32,7,8,0.6,0.7
2025-05-28T2100,1135A,126.685,45.7319,哈尔滨市,香坊红旗大街,颗粒物(PM10),74,97,63,44,37,128,,199,183,47,35,8,9,0.7,0.7
2025-05-28T2100,1136A,126.6411,45.7258,哈尔滨市,动力和平路,细颗粒物(PM2.5),53,51,60,37,39,145,,191,182,29,31,9,12,0.6,0.6
2025-05-28T2100,1137A,126.593,45.7478,哈尔滨市,道里建国路,,,68,49,46,28,,,200,194,26,25,10,12,0.8,1
2025-05-28T2100,1138A,126.615,45.61,哈尔滨市,平房东轻厂,颗粒物(PM10),53,55,45,18,22,142,,205,191,17,18,10,11,0.5,0.6
2025-05-28T2100,1139A,126.595,45.9855,哈尔滨市,呼兰师专,颗粒物(PM10),77,104,54,43,30,136,,195,180,40,28,8,9,0.6,0.6
2025-05-28T2100,1140A,126.6206,45.6842,哈尔滨市,省农科院,颗粒物(PM10),57,63,68,24,31,125,,187,170,36,42,6,7,0.7,0.7
2025-05-28T2100,2688A,93.5128,42.8172,哈密市,地区监测站,颗粒物(PM10),66,81,131,20,29,90,,103,103,26,8,3,3,0.0,0
2025-05-28T2100,2689A,93.4961,42.8328,哈密市,哈密师范学校,,,101,87,29,23,76,,107,105,37,9,4,5,,0.3
2025-05-28T2100,2671A,100.9048,36.9639,海北藏族自治州,海晏县西海镇,,37,28,24,7,13,118,,144,141,9,6,10,8,0.4,0.4
2025-05-28T2100,3867A,102.0738,36.5056,海东市,平安区公安北苑,颗粒物(PM10),101,151,44,46,23,138,,150,149,6,7,10,9,0.8,0.6
2025-05-28T2100,1409A,110.576,19.9507,海口市,东寨港,,24,24,16,6,14,36,,70,44,3,3,6,5,0.4,0.4
2025-05-28T2100,1410A,110.3232,20.0574,海口市,海南大学,,16,16,23,8,10,42,,89,53,5,4,3,3,0.4,0.5
2025-05-28T2100,1411A,110.283,20.0053,海口市,秀英海南医院,,20,20,24,7,8,33,,86,52,15,5,5,4,0.3,0.3
2025-05-28T2100,1412A,110.338,19.9969,海口市,海南师范大学,,19,19,22,9,10,43,,90,56,6,4,4,4,0.4,0.4
2025-05-28T2100,1413A,110.33,20.0356,海口市,龙华路环保局宿舍,,24,24,23,9,11,44,,91,55,7,5,4,4,0.4,0.3
2025-05-28T2100,3539A,110.5111,19.9736,海口市,桂林洋子站,,23,23,28,12,15,32,,75,46,12,6,4,4,0.3,0.3
2025-05-28T2100,2673A,100.6188,36.2866,海南藏族自治州,共和县恰卜恰镇,,43,33,33,8,14,136,,151,151,6,9,12,12,0.3,0.3
2025-05-28T2100,2676A,97.3731,37.3753,海西蒙古族藏族自治州,德令哈市,,41,32,41,18,16,129,,142,141,7,3,12,12,0.6,0.7
2025-05-28T2100,1048A,114.5302,36.6116,邯郸市,东污水处理厂,,,,66,,30,,,122,,,38,,9,,0.6
2025-05-28T2100,1049A,114.4918,36.5713,邯郸市,矿院,颗粒物(PM10),77,103,57,22,31,175,,54,,11,33,5,7,0.5,0.5
2025-05-28T2100,1050A,114.484,36.6133,邯郸市,丛台公园,臭氧1小时,65,68,55,31,31,172,,186,186,17,23,5,6,0.5,0.5
2025-05-28T2100,3458A,114.7895,36.5593,邯郸市,香泉濮院小区,颗粒物(PM10),80,109,80,33,32,175,,200,199,21,18,4,5,0.4,0.4
2025-05-28T2100,3579A,114.50634,36.77178,邯郸市,永年区实验高中,臭氧1小时,73,73,79,51,49,178,,192,192,22,26,4,8,0.4,0.7
2025-05-28T2100,3580A,114.20016,36.44293,邯郸市,峰峰矿区临水派出所,臭氧1小时,90,57,42,25,20,192,,194,194,11,10,4,7,0.3,0.5
2025-05-28T2100,2634A,106.9893,33.1842,汉中市,汉川机床厂子校,,30,24,28,18,16,95,,128,123,10,10,3,3,0.4,0.4
2025-05-28T2100,2635A,107.0154,33.0706,汉中市,市监测站,,36,28,30,20,18,114,,121,120,7,7,5,5,0.5,0.7
2025-05-28T2100,2636A,107.0089,33.1138,汉中市,鑫源开发区,,27,24,33,18,19,86,,118,114,16,15,5,5,0.6,0.6
2025-05-28T2100,2637A,107.007,33.0323,汉中市,南郑大河坎水厂,,30,23,32,21,19,93,,120,116,18,10,6,5,0.5,0.5
2025-05-28T2100,1223A,120.2072,30.2111,杭州市,滨江,,36,16,39,9,20,114,,112,112,16,28,6,7,0.1,0.2
2025-05-28T2100,1224A,120.0633,30.2747,杭州市,西溪,,32,17,40,15,27,100,,103,103,10,21,4,4,0.3,0.4
2025-05-28T2100,1226A,120.3417,30.3150,杭州市,下沙,,28,23,32,12,19,89,,111,109,32,29,6,7,0.3,0.4
2025-05-28T2100,1227A,120.1269,30.2456,杭州市,卧龙桥,,32,19,42,12,27,102,,110,110,12,19,7,8,0.3,0.4
2025-05-28T2100,1228A,120.1903,30.2692,杭州市,浙江农大,,33,12,37,10,23,103,,96,96,7,28,9,10,0.4,0.5
2025-05-28T2100,1230A,120.1197,30.3119,杭州市,和睦小学,,33,21,36,20,25,104,,116,116,11,24,7,8,0.3,0.4
2025-05-28T2100,1231A,120.3019,30.4183,杭州市,临平镇,,28,25,41,16,25,89,,110,109,26,22,6,7,0.4,0.5
2025-05-28T2100,1232A,120.2753,30.1839,杭州市,城厢镇,,36,15,36,11,23,115,,109,109,15,28,6,7,0.3,0.5
2025-05-28T2100,1233A,120.0883,30.1808,杭州市,云栖,,29,24,38,14,24,91,,108,108,23,30,6,6,0.4,0.4
2025-05-28T2100,3557A,119.9464,30.0494,杭州市,镇二中,,34,12,41,11,30,108,,113,113,11,25,3,4,0.4,0.6
2025-05-28T2100,3558A,119.7183,30.2367,杭州市,市府大楼,,29,23,46,16,28,92,,120,120,28,23,11,8,0.6,0.5
2025-05-28T2100,3656A,120.1556,30.2864,杭州市,消防大队,,34,29,46,13,24,106,,109,109,14,31,5,5,0.4,0.6
2025-05-28T2100,1270A,117.1959,31.7848,合肥市,明珠广场,细颗粒物(PM2.5),55,58,69,39,42,125,,182,175,26,28,5,8,0.5,0.6
2025-05-28T2100,1271A,117.3072,31.8764,合肥市,三里街,细颗粒物(PM2.5),64,66,63,46,38,143,,170,167,26,25,5,7,0.7,0.6
2025-05-28T2100,1272A,117.2588,31.8707,合肥市,琥珀山庄,细颗粒物(PM2.5),72,63,60,52,42,159,,181,179,18,24,6,6,0.7,0.7
2025-05-28T2100,1273A,117.1604,31.9052,合肥市,董铺水库,细颗粒物(PM2.5),62,66,71,44,37,156,,173,171,16,27,2,3,0.5,0.5
2025-05-28T2100,1274A,117.25,31.8571,合肥市,长江中路,,,78,71,49,43,,,181,181,20,24,6,7,0.7,0.7
2025-05-28T2100,1275A,117.266,31.9436,合肥市,庐阳区,细颗粒物(PM2.5),62,66,66,44,38,163,,182,180,14,24,7,8,0.7,0.7
2025-05-28T2100,1276A,117.3453,31.8616,合肥市,瑶海区,颗粒物(PM10),62,73,68,42,39,133,,169,164,32,29,6,8,0.7,0.7
2025-05-28T2100,1277A,117.3027,31.7964,合肥市,包河区,细颗粒物(PM2.5),67,61,69,48,44,144,,179,176,18,41,4,6,0.7,0.7
2025-05-28T2100,1278A,117.2776,31.7385,合肥市,滨湖新区,细颗粒物(PM2.5),64,53,69,46,49,132,,177,172,13,19,6,8,0.6,0.7
2025-05-28T2100,1279A,117.1318,31.8403,合肥市,高新区,,,63,67,44,44,,,183,183,20,26,6,8,0.6,0.6
2025-05-28T2100,3464A,117.3803,31.9147,合肥市,高教基地,,,66,62,48,34,,,180,180,15,20,6,8,0.7,0.5
2025-05-28T2100,3614A,79.924,37.0877,和田地区,地区环保局,颗粒物(PM10),500,774,1051,236,223,61,,68,66,14,10,2,2,0.7,0.6
2025-05-28T2100,3615A,79.9131,37.113,和田地区,市环保局,颗粒物(PM10),500,710,862,204,201,50,,55,55,8,6,3,3,0.4,0.3
2025-05-28T2100,2516A,108.2011,24.715,河池市,东仁乐园,,,,,,,,,,,,,,,,
2025-05-28T2100,2517A,108.0497,24.6947,河池市,市环保站,,12,12,38,3,24,22,,33,32,12,13,6,7,0.7,0.7
2025-05-28T2100,2518A,108.0983,24.6989,河池市,市疾控中心,,14,14,36,3,26,18,,24,24,19,21,6,6,0.7,0.8
2025-05-28T2100,1696A,114.6778,23.7569,河源市,源西,,25,20,28,17,22,35,,88,78,29,26,3,4,0.6,0.6
2025-05-28T2100,1697A,114.6944,23.7586,河源市,东埔,,39,35,32,27,24,47,,87,77,23,23,3,4,0.9,0.7
2025-05-28T2100,1698A,114.6892,23.7233,河源市,老城,,35,,30,24,22,47,,82,74,21,19,3,4,0.5,0.5
2025-05-28T2100,1718A,115.4208,35.2464,菏泽市,气象局,臭氧1小时,67,73,76,28,38,173,,211,197,19,20,3,4,0.5,0.5
2025-05-28T2100,3374A,115.5564,35.0891,菏泽市,定陶老年大学,,,,78,,46,,,110,,,24,,10,,0.4
2025-05-28T2100,4184A,115.4797,35.24401,菏泽市,永昌路1号,颗粒物(PM10),58,66,76,34,44,147,,203,190,34,26,6,8,0.3,0.3
2025-05-28T2100,4193A,115.4715,35.2800,菏泽市,长城路999号,臭氧1小时,74,66,78,27,36,179,,210,201,20,20,9,11,0.4,0.4
2025-05-28T2100,2514A,111.5264,24.4172,贺州市,环保小区,,22,18,36,15,24,39,,62,61,20,18,7,10,0.8,0.7
2025-05-28T2100,2515A,111.5608,24.4078,贺州市,政协大楼,,28,19,35,19,23,48,,68,68,18,17,8,12,0.7,0.8
2025-05-28T2100,3534A,111.4744,24.4553,贺州市,西湾,,22,16,29,15,22,49,,57,57,12,16,6,7,0.7,0.7
2025-05-28T2100,2385A,114.17,35.9019,鹤壁市,市监测站,细颗粒物(PM2.5),62,64,62,44,40,165,,213,208,22,15,8,6,1.1,0.6
2025-05-28T2100,2386A,114.2956,35.7511,鹤壁市,市交警支队,颗粒物(PM10),60,69,61,32,34,148,,205,196,36,28,6,8,0.6,0.7
2025-05-28T2100,2387A,114.2878,35.7306,鹤壁市,迎宾馆,细颗粒物(PM2.5),69,78,67,50,43,124,,215,201,48,27,1,3,0.7,0.7
2025-05-28T2100,3474A,114.2617,35.6822,鹤壁市,大新区,臭氧1小时,57,50,56,32,35,165,,210,203,21,18,5,5,0.6,0.7
2025-05-28T2100,3596A,114.1572,35.9603,鹤壁市,南山宾馆,"细颗粒物(PM2.5),臭氧1小时",78,76,64,57,49,182,,218,212,25,14,5,5,0.9,0.8
2025-05-28T2100,2244A,130.2537,47.3416,鹤岗市,哈啤分公司,,42,30,29,29,27,91,,135,113,8,11,12,12,0.3,0.3
2025-05-28T2100,2245A,130.2684,47.3086,鹤岗市,斯达机电,颗粒物(PM10),54,57,44,32,26,92,,121,107,16,14,13,14,0.6,0.6
2025-05-28T2100,2246A,130.3114,47.3388,鹤岗市,东山纸板厂,颗粒物(PM10),63,76,66,22,20,39,,128,96,35,25,13,20,0.6,0.9
2025-05-28T2100,2247A,130.1097,47.3382,鹤岗市,五号水库,,,,,,,,,,,,,,,,
2025-05-28T2100,2263A,127.4833,50.2524,黑河市,交通局,颗粒物(PM10),55,60,46,31,22,121,,119,119,4,7,6,7,0.4,0.4
2025-05-28T2100,2264A,127.5144,50.2341,黑河市,环保局,颗粒物(PM10),63,75,55,28,23,158,,158,158,8,7,4,4,0.3,0.4
2025-05-28T2100,2265A,127.5291,50.2472,黑河市,大黑河岛,,,68,39,,,132,,127,121,7,6,9,4,0.4,0.3
2025-05-28T2100,1074A,115.6838,37.7541,衡水市,电机北厂,臭氧1小时,104,72,66,49,37,208,,232,227,15,15,6,6,0.4,0.4
2025-05-28T2100,1075A,115.6303,37.7316,衡水市,市监测站,臭氧1小时,94,75,69,41,35,195,,228,222,14,18,5,7,0.5,0.4
2025-05-28T2100,3188A,115.6683,37.7217,衡水市,市城管局,臭氧1小时,106,65,66,42,39,212,,234,229,17,20,3,4,0.4,0.4
2025-05-28T2100,3459A,115.5989,37.5491,衡水市,地表水厂,颗粒物(PM10),70,89,80,40,38,133,,224,206,50,39,8,10,0.5,0.4
2025-05-28T2100,2456A,112.5003,26.9167,衡阳市,原169医院,,25,12,16,10,17,79,,86,86,8,8,2,2,0.6,0.6
2025-05-28T2100,2457A,112.6194,26.9258,衡阳市,衡阳化工总厂,,17,11,17,9,12,53,,89,66,15,6,4,4,0.7,0.6
2025-05-28T2100,2458A,112.6211,26.8956,衡阳市,珠晖区环保局,,,11,17,,19,57,,85,71,21,11,6,6,0.8,0.8
2025-05-28T2100,2459A,112.6197,26.8733,衡阳市,市委党校,,,13,14,8,11,,,86,73,18,9,4,3,0.7,0.5
2025-05-28T2100,2460A,112.6006,26.8919,衡阳市,市监测站,,21,19,18,8,14,65,,86,69,16,10,7,7,0.6,0.5
2025-05-28T2100,2461A,112.5664,26.9056,衡阳市,真空机电公司,,18,8,19,8,17,56,,87,68,18,8,5,5,0.8,0.7
2025-05-28T2100,3399A,112.6703,26.882,衡阳市,师范学院,,24,,13,10,10,74,,91,75,13,8,6,6,0.9,0.8
2025-05-28T2100,2608A,103.3772,23.3993,红河哈尼族彝族自治州,污水处理厂,,25,19,12,17,9,36,,54,48,10,7,5,5,0.4,0.3
2025-05-28T2100,2609A,103.3861,23.35,红河哈尼族彝族自治州,监测站,,35,35,19,24,7,33,,50,44,9,7,7,8,0.4,0.4
2025-05-28T2100,3038A,103.3758,23.368,红河哈尼族彝族自治州,州图书馆,,21,21,7,10,9,42,,56,51,6,6,3,3,0.3,0.3
2025-05-28T2100,1090A,111.6507,40.7517,呼和浩特市,呼市一监,颗粒物(PM10),67,83,64,31,30,157,,200,196,19,20,11,11,0.3,0.3
2025-05-28T2100,1091A,111.6572,40.8033,呼和浩特市,小召,,,73,53,35,27,163,,202,199,40,32,14,9,,1.1
2025-05-28T2100,1094A,111.7516,40.8369,呼和浩特市,如意水处理厂,臭氧1小时,75,66,52,33,27,180,,203,201,27,25,8,7,0.5,0.4
2025-05-28T2100,1095A,111.7276,40.8062,呼和浩特市,二十九中,臭氧1小时,78,39,30,36,34,182,,,,22,15,6,7,0.5,0.8
2025-05-28T2100,1096A,111.5512,40.7866,呼和浩特市,工大金川校区,颗粒物(PM10),62,74,53,35,28,158,,214,209,33,26,10,8,0.6,0.6
2025-05-28T2100,1097A,111.717,40.7612,呼和浩特市,化肥厂生活区,颗粒物(PM10),61,71,55,31,27,164,,208,204,43,26,8,8,0.6,0.6
2025-05-28T2100,3698A,111.5968,40.8178,呼和浩特市,红旗小学,颗粒物(PM10),74,97,57,38,32,158,,218,213,49,30,14,6,0.6,0.5
2025-05-28T2100,3699A,111.6518,40.8389,呼和浩特市,海东办,臭氧1小时,64,68,55,29,30,171,,196,196,23,34,11,10,0.6,0.6
2025-05-28T2100,2192A,119.7594,49.2261,呼伦贝尔市,区环保局,细颗粒物(PM2.5),53,47,49,37,29,143,,143,143,10,11,5,5,0.3,0.2
2025-05-28T2100,3061A,119.7512,49.1577,呼伦贝尔市,国华电力东,,45,40,52,25,24,141,,151,149,7,7,3,3,0.2,0.2
2025-05-28T2100,1250A,120.0751,30.8669,湖州市,城西水厂,颗粒物(PM10),57,64,49,37,28,116,,129,129,30,25,8,7,0.5,0.5
2025-05-28T2100,2873A,120.0830,30.8929,湖州市,仁皇山新区,,,64,45,38,28,,,131,131,35,23,6,6,0.7,0.6
2025-05-28T2100,2907A,120.1844,30.8596,湖州市,吴兴区站,细颗粒物(PM2.5),53,51,41,37,27,96,,122,121,41,25,9,8,0.3,0.3
2025-05-28T2100,3562A,120.4148,30.8538,湖州市,南浔区站,颗粒物(PM10),51,52,42,32,27,111,,130,130,27,22,6,6,0.5,0.5
2025-05-28T2100,1607A,120.9049,40.7211,葫芦岛市,龙港区,,47,27,42,14,29,148,,165,162,8,12,8,9,0.5,0.6
2025-05-28T2100,1608A,120.8392,40.7514,葫芦岛市,化工街,,45,34,55,14,38,141,,153,150,10,19,6,9,0.5,0.7
2025-05-28T2100,1609A,120.8341,40.7073,葫芦岛市,新区,,46,27,46,14,39,147,,158,156,10,17,6,7,0.6,0.7
2025-05-28T2100,1610A,120.8695,40.7677,葫芦岛市,东城区,,44,20,46,13,44,140,,159,155,17,20,4,6,0.6,0.7
2025-05-28T2100,2482A,109.5981,27.5721,怀化市,林科所,,17,17,7,8,3,50,,74,67,5,5,4,4,0.5,0.5
2025-05-28T2100,2483A,109.9453,27.5444,怀化市,河西地税局,,22,22,7,14,5,39,,68,62,17,7,4,2,0.6,0.5
2025-05-28T2100,2484A,109.9781,27.5342,怀化市,市四医院,,,22,8,12,6,,,74,68,,4,5,2,0.8,0.7
2025-05-28T2100,2485A,109.9972,27.5578,怀化市,监测楼,,18,16,8,11,6,56,,70,65,5,3,12,4,0.3,0.2
2025-05-28T2100,2486A,110.0394,27.583,怀化市,市委党校,,29,24,10,20,5,47,,66,62,7,2,24,2,0.7,0.7
2025-05-28T2100,1210A,119.036,33.5981,淮安市,钵池山,,42,41,42,27,31,132,,172,168,17,18,6,7,0.5,0.6
2025-05-28T2100,1211A,119.007,33.575,淮安市,北京南路,,48,48,44,25,30,141,,183,178,11,10,8,9,0.5,0.6
2025-05-28T2100,1212A,118.989,33.6067,淮安市,市监测站,,48,48,41,31,30,128,,163,160,13,13,9,10,0.8,0.8
2025-05-28T2100,1213A,119.135,33.5039,淮安市,楚州区监测站,颗粒物(PM10),52,54,49,32,38,110,,156,150,15,11,8,8,0.5,0.5
2025-05-28T2100,3426A,118.8755,33.2894,淮安市,新华书店,颗粒物(PM10),55,60,51,29,34,150,,179,178,23,18,10,10,1.1,1.1
2025-05-28T2100,4206A,119.0288,33.6319,淮安市,承德北路606号,颗粒物(PM10),54,58,52,29,32,135,,172,169,13,13,7,8,0.4,0.5
2025-05-28T2100,2282A,116.8004,33.975,淮北市,监测站,颗粒物(PM10),52,53,58,30,31,160,,196,190,12,9,7,7,0.7,0.7
2025-05-28T2100,2283A,116.8091,33.9007,淮北市,烈山区政府,臭氧1小时,59,31,47,27,29,167,,201,195,9,16,4,6,0.7,0.7
2025-05-28T2100,3330A,116.8873,33.9836,淮北市,杜集区检察院,臭氧1小时,60,62,60,29,31,168,,197,192,16,14,8,9,0.7,0.7
2025-05-28T2100,4017A,116.7923,33.9535,淮北市,市博物馆,臭氧1小时,69,52,46,30,34,175,,208,202,14,15,6,7,0.6,0.6
2025-05-28T2100,2277A,116.8305,32.7727,淮南市,潘集区政府,颗粒物(PM10),67,83,98,43,56,148,,202,190,18,22,6,8,0.5,0.6
2025-05-28T2100,2279A,116.8569,32.5951,淮南市,谢家集区政府,颗粒物(PM10),64,78,71,34,42,143,,199,180,23,18,5,8,0.3,0.4
2025-05-28T2100,2280A,116.8281,32.633,淮南市,八公山区政府,颗粒物(PM10),59,67,80,39,44,156,,202,189,14,14,4,7,0.4,0.5
2025-05-28T2100,2281A,116.6325,32.6201,淮南市,焦岗湖风景区管理处,,,,,,,,,,,,,,,,
2025-05-28T2100,2894A,117.0566,32.6531,淮南市,经济技术开发区消防队,颗粒物(PM10),66,82,83,47,54,142,,182,172,18,21,6,7,0.5,0.5
2025-05-28T2100,3329A,117.0108,32.5893,淮南市,山南新区,细颗粒物(PM2.5),98,106,91,73,59,149,,206,190,23,17,8,9,0.5,0.6
2025-05-28T2100,4209A,117.0031,32.6445,淮南市,国庆中路369号,,,73,90,37,39,144,,191,179,,15,4,6,0.4,0.7
2025-05-28T2100,2446A,114.9028,30.4742,黄冈市,职工中心,,35,21,50,15,41,110,,131,128,10,9,8,8,0.5,0.7
2025-05-28T2100,2929A,114.8858,30.4519,黄冈市,红卫路,,34,,45,23,40,108,,129,126,6,6,3,3,0.5,0.7
2025-05-28T2100,3398A,114.9136,30.4445,黄冈市,市林业局,,31,31,51,20,38,98,,122,119,12,13,9,9,0.6,0.8
2025-05-28T2100,2672A,102.0199,35.5102,黄南藏族自治州,同仁县隆务镇,,50,50,27,11,11,121,,135,134,3,3,4,4,0.2,0.2
2025-05-28T2100,2295A,118.2903,29.6963,黄山市,延安路89号,,23,23,38,15,26,68,,100,96,10,11,4,5,0.4,0.4
2025-05-28T2100,2297A,118.1371,30.2756,黄山市,黄山区政府5号楼,,38,30,40,26,31,54,,96,90,8,6,3,3,0.4,0.4
2025-05-28T2100,4210A,118.3354,29.7203,黄山市,滨江东路7-2号,,35,35,41,15,27,70,,104,98,10,11,4,4,0.2,0.3
2025-05-28T2100,2423A,115.0601,30.2313,黄石市,沈家营,,30,23,51,9,27,96,,110,107,12,16,7,7,0.6,0.8
2025-05-28T2100,2426A,114.8988,30.2019,黄石市,铁山,,29,22,38,14,22,92,,117,115,9,7,4,4,0.4,0.4
2025-05-28T2100,2427A,115.0307,30.2092,黄石市,团城山,,36,26,52,6,24,115,,127,125,6,6,8,9,0.5,0.6
2025-05-28T2100,3149A,115.0235,30.1578,黄石市,笔架山北路,,34,14,43,6,24,106,,115,115,7,8,7,9,0.5,0.7
2025-05-28T2100,4185A,115.0780,30.21118,黄石市,磁湖东路29号,,35,20,51,13,32,109,,118,116,2,8,7,7,0.7,0.5
2025-05-28T2100,1392A,114.4183,23.0528,惠州市,河南岸金山湖子站,,40,40,34,28,20,62,,92,83,17,15,6,8,0.7,0.6
2025-05-28T2100,1393A,114.4053,23.0822,惠州市,下埔横江三路子站,颗粒物(PM10),54,57,39,36,21,62,,106,94,17,12,7,7,0.5,0.5
2025-05-28T2100,1394A,114.4103,23.1142,惠州市,江北云山西路子站,,,39,40,28,22,62,,110,96,16,13,6,8,,0.3
2025-05-28T2100,1395A,114.4645,22.7833,惠州市,惠阳区承修路船湖子站,,,47,37,27,19,74,,100,95,18,16,8,14,,0.5
2025-05-28T2100,1396A,114.5317,22.7422,惠州市,大亚湾管委会子站,,41,41,35,20,18,85,,104,99,6,9,9,19,0.5,0.5
2025-05-28T2100,3314A,114.4338,22.8134,惠州市,惠阳秋长,,32,29,34,22,19,89,,120,111,17,16,9,25,0.6,0.5
2025-05-28T2100,3452A,114.6517,22.775,惠州市,大亚湾霞涌,,26,25,32,18,14,64,,109,101,13,10,6,8,0.6,0.6
2025-05-28T2100,2240A,130.9762,45.3001,鸡西市,环保局,颗粒物(PM10),59,67,41,30,21,40,,137,109,52,23,6,6,0.8,0.5
2025-05-28T2100,2243A,130.9429,45.3039,鸡西市,第一中学,颗粒物(PM10),64,77,34,29,16,43,,127,110,51,14,8,7,0.8,0.5
2025-05-28T2100,3707A,131.0207,45.3073,鸡西市,欧美日汽修厂,颗粒物(PM10),64,78,46,34,25,46,,131,108,36,22,7,7,0.5,0.4
2025-05-28T2100,3709A,130.9967,45.3106,鸡西市,市政设施管理处,,,62,51,34,25,,,127,111,32,27,6,6,0.6,0.5
2025-05-28T2100,2367A,114.9754,27.0803,吉安市,红声器材厂,,27,9,26,6,14,85,,82,78,9,9,9,10,0.4,0.5
2025-05-28T2100,2368A,114.9658,27.0999,吉安市,市森林工业局,,28,16,25,10,16,87,,81,81,5,6,5,6,0.5,0.5
2025-05-28T2100,2369A,114.99,27.1312,吉安市,市环境监测站,,,,19,,14,86,,79,79,,5,10,12,0.4,0.6
2025-05-28T2100,2370A,115.0093,27.0968,吉安市,青原区法院,,27,15,26,12,19,84,,80,77,8,9,6,5,0.3,0.4
2025-05-28T2100,1772A,126.54,43.8622,吉林市,哈达湾,颗粒物(PM10),94,138,37,39,18,72,,141,127,41,16,7,6,0.5,0.3
2025-05-28T2100,1773A,126.5844,43.8358,吉林市,东局子,,39,39,39,24,18,66,,135,111,37,14,5,5,0.8,0.6
2025-05-28T2100,1774A,126.5052,43.8245,吉林市,电力学院,细颗粒物(PM2.5),115,96,37,87,26,48,,143,106,42,21,6,5,0.7,0.5
2025-05-28T2100,1775A,126.6133,43.8972,吉林市,江北,,48,48,33,23,19,66,,143,116,35,13,8,7,0.8,0.5
2025-05-28T2100,1776A,126.555,43.8306,吉林市,江南公园,,39,37,29,27,21,80,,131,112,18,14,5,6,0.5,0.5
2025-05-28T2100,1778A,126.7061,43.7133,吉林市,丰满,,,,,,,,,,,,,,,,
2025-05-28T2100,2868A,126.4739,43.953,吉林市,九站,细颗粒物(PM2.5),84,103,40,62,22,21,,156,118,104,25,5,7,0.7,0.4
2025-05-28T2100,1299A,116.9862,36.6114,济南市,科干所,臭氧1小时,93,56,54,32,30,194,,250,245,15,17,5,5,0.4,0.3
2025-05-28T2100,1300A,116.9376,36.665,济南市,农科所,臭氧1小时,92,78,64,34,30,193,,252,244,27,27,9,8,0.5,0.4
2025-05-28T2100,1301A,117.1265,36.6734,济南市,开发区,臭氧1小时,102,78,61,39,34,203,,233,227,21,17,10,8,0.9,0.8
2025-05-28T2100,1303A,117.0624,36.6868,济南市,省种子仓库,臭氧1小时,105,95,78,44,36,209,,256,249,25,30,8,6,0.7,0.7
2025-05-28T2100,1304A,116.9489,36.6447,济南市,机床二厂,臭氧1小时,72,83,74,37,34,177,,238,232,32,31,7,6,0.7,0.6
2025-05-28T2100,1305A,117.0495,36.663,济南市,市监测站,臭氧1小时,89,73,63,42,33,191,,239,230,25,24,11,9,0.9,0.7
2025-05-28T2100,1306A,116.7675,36.5484,济南市,长清党校,臭氧1小时,88,42,54,27,33,190,,242,238,17,22,6,6,0.6,0.6
2025-05-28T2100,1616A,117.6795,36.229,济南市,技术学院,臭氧1小时,55,48,48,24,28,164,,193,184,22,23,12,12,0.7,0.7
2025-05-28T2100,1961A,117.532,36.6868,济南市,东山小学,,49,49,62,22,31,138,,246,232,22,13,5,6,0.4,0.8
2025-05-28T2100,3059A,117.7161,36.2049,济南市,泰兴公司,臭氧1小时,58,51,54,29,31,166,,197,188,22,25,9,9,0.6,0.6
2025-05-28T2100,3064A,117.6867,36.2171,济南市,莱芜战役纪念馆,臭氧1小时,60,48,50,31,32,168,,200,190,16,17,8,8,0.8,1
2025-05-28T2100,3494A,117.1673,36.9782,济南市,济阳区政府,臭氧1小时,104,78,89,37,39,207,,244,238,16,48,10,11,0.7,0.6
2025-05-28T2100,3495A,117.1171,36.63,济南市,锦屏中学,颗粒物(PM10),52,54,50,24,27,157,,218,209,18,13,10,10,0.8,0.7
2025-05-28T2100,3682A,116.9814,36.6819,济南市,济南四建,臭氧1小时,103,78,65,42,39,206,,266,258,33,27,8,6,1.1,0.9
2025-05-28T2100,1653A,116.6251,35.4302,济宁市,火炬城,臭氧1小时,70,56,58,34,40,176,,205,200,12,14,5,7,0.4,0.5
2025-05-28T2100,1655A,116.5491,35.4042,济宁市,电化厂,臭氧1小时,69,56,62,31,31,175,,203,194,8,11,3,4,0.5,0.6
2025-05-28T2100,3500A,116.5814,35.3707,济宁市,北湖一中,臭氧1小时,80,49,58,34,37,184,,210,207,9,14,6,6,0.6,0.5
2025-05-28T2100,3501A,116.8249,35.5593,济宁市,服务中心,颗粒物(PM10),54,57,64,29,30,151,,196,186,23,24,2,5,0.3,0.3
2025-05-28T2100,3678A,116.5907,35.4054,济宁市,市第七中学,,,,52,41,36,,,196,195,11,13,6,8,0.4,0.5
2025-05-28T2100,2255A,130.2751,46.8028,佳木斯市,佳纺,,47,47,32,20,18,104,,130,116,13,13,4,4,0.3,0.3
2025-05-28T2100,2256A,130.3995,46.8307,佳木斯市,发电厂,,41,40,36,22,20,129,,135,126,13,19,4,4,0.4,0.4
2025-05-28T2100,2257A,130.3258,46.7975,佳木斯市,环保局,,,35,32,,23,118,,131,120,10,10,4,4,0.2,0.2
2025-05-28T2100,2258A,130.3648,46.8032,佳木斯市,十一中,,44,44,39,22,20,124,,128,119,15,17,4,3,0.5,0.4
2025-05-28T2100,2259A,130.3794,46.7588,佳木斯市,四丰,,,26,21,15,14,,,,,9,8,1,1,0.4,0.4
2025-05-28T2100,1252A,120.7436,30.778,嘉兴市,清河小学,,49,49,38,22,18,93,,129,122,30,21,9,8,0.8,0.7
2025-05-28T2100,1253A,120.726,30.7478,嘉兴市,嘉兴学院,,44,44,36,28,23,107,,134,131,25,22,6,7,0.7,0.7
2025-05-28T2100,2872A,120.7846,30.7525,嘉兴市,南湖区残联,,44,44,38,25,23,100,,140,132,28,18,10,8,0.6,0.5
2025-05-28T2100,3407A,120.6916,30.7739,嘉兴市,秀洲住建,,39,39,36,21,20,114,,136,134,19,18,8,8,0.5,0.5
2025-05-28T2100,1945A,98.2908,39.7711,嘉峪关市,气象局,颗粒物(PM10),500,622,690,132,118,108,,109,109,6,21,3,22,0.1,0.3
2025-05-28T2100,2884A,98.2672,39.7978,嘉峪关市,酒钢宾馆,颗粒物(PM10),500,605,712,90,98,94,,101,100,19,13,22,31,1.3,0.7
2025-05-28T2100,3248A,98.2643,39.7724,嘉峪关市,雄关区,颗粒物(PM10),404,504,481,76,74,,,106,106,,20,14,18,0.2,0.4
2025-05-28T2100,1383A,113.1064,22.6058,江门市,北街,,39,,33,27,20,50,,89,64,36,23,3,4,0.6,0.5
2025-05-28T2100,1384A,113.0731,22.5835,江门市,西区,,28,27,34,19,19,50,,95,73,34,22,7,7,0.6,0.5
2025-05-28T2100,1385A,113.0219,22.5311,江门市,圭峰西,,49,36,34,34,21,41,,87,66,26,17,4,5,0.6,0.4
2025-05-28T2100,1386A,113.0828,22.5947,江门市,东湖,,36,29,35,25,20,44,,87,63,17,13,8,9,0.5,0.5
2025-05-28T2100,3311A,113.1075,22.5647,江门市,江海富民,,48,48,46,29,25,35,,94,61,39,23,8,9,0.7,0.6
2025-05-28T2100,3449A,113.05,22.4667,江门市,新会银湖,,45,43,33,31,24,8,,72,43,50,30,3,3,0.6,0.5
2025-05-28T2100,1830A,113.1992,35.2590,焦作市,影视城,,,,46,,22,,,,,,7,,11,,0.5
2025-05-28T2100,3169A,113.2725,35.2067,焦作市,太极体育中心,,,91,85,36,41,,,205,203,,16,,7,,0.4
2025-05-28T2100,3335A,113.3137,35.2641,焦作市,马村街道办,颗粒物(PM10),87,123,72,48,42,154,,215,206,33,17,17,12,0.6,0.6
2025-05-28T2100,3336A,113.2465,35.2373,焦作市,焦作技师学院,颗粒物(PM10),60,69,55,39,33,158,,205,198,17,11,13,7,0.5,0.4
2025-05-28T2100,3477A,113.1656,35.2539,焦作市,中站许衡医院,,,,60,,37,,,202,200,34,18,6,7,,0.5
2025-05-28T2100,3981A,113.2449,35.1803,焦作市,原李万街道办,颗粒物(PM10),60,70,71,34,36,163,,212,204,22,17,13,14,0.4,1.5
2025-05-28T2100,4264A,113.2340,35.2190,焦作市,新安路1731号,颗粒物(PM10),65,80,65,37,38,162,,194,188,16,10,8,7,0.5,0.5
2025-05-28T2100,1708A,116.3701,23.5345,揭阳市,新兴,,46,35,31,32,28,50,,80,76,24,19,10,9,0.7,0.6
2025-05-28T2100,1709A,116.3264,23.5443,揭阳市,西马,,44,44,38,18,24,53,,81,74,24,16,7,7,0.8,0.7
2025-05-28T2100,1710A,116.3611,23.5626,揭阳市,东兴,细颗粒物(PM2.5),54,41,35,38,34,42,,79,72,30,19,7,8,0.9,0.7
2025-05-28T2100,1711A,116.4151,23.5294,揭阳市,渔湖,,37,37,34,14,18,47,,78,72,34,23,9,6,0.8,0.7
2025-05-28T2100,3320A,116.403,23.5699,揭阳市,曲溪,,37,37,34,23,23,51,,82,75,28,18,13,10,0.7,0.5
2025-05-28T2100,1944A,102.1692,38.5167,金昌市,天庆家园,颗粒物(PM10),500,1985,583,376,113,108,,110,109,3,10,1,6,0.5,0.6
2025-05-28T2100,4022A,102.1647,38.5371,金昌市,金川区人防中心,,,,199,,56,,,104,,,11,,28,,0.5
2025-05-28T2100,4239A,102.1930,38.5319,金昌市,长春路96号,颗粒物(PM10),500,1810,556,378,119,110,,113,111,1,5,6,21,0.5,0.6
2025-05-28T2100,1262A,119.647,29.077,金华市,十五中,,33,24,38,19,26,105,,104,104,16,22,4,5,0.6,0.6
2025-05-28T2100,1263A,119.686,29.1029,金华市,监测站,,34,27,44,19,27,106,,104,104,15,25,3,2,0.5,0.5
2025-05-28T2100,3659A,119.656,29.1131,金华市,气象局,,28,28,41,16,23,83,,85,85,22,30,2,3,0.4,0.5
2025-05-28T2100,1767A,121.1115,41.0879,锦州市,南山,,44,30,45,21,47,139,,163,161,23,16,17,10,0.7,0.7
2025-05-28T2100,1768A,121.0604,40.8428,锦州市,开发区,,44,41,54,15,38,138,,162,156,26,24,5,6,0.6,0.7
2025-05-28T2100,1769A,121.1836,41.1119,锦州市,百股街道,,43,30,43,22,40,136,,170,166,22,14,8,9,0.6,0.7
2025-05-28T2100,1770A,121.1178,41.1222,锦州市,天安街道,,47,38,47,28,52,148,,169,167,22,15,17,9,0.8,0.8
2025-05-28T2100,1771A,121.1303,41.1386,锦州市,北湖公园,,50,34,48,22,44,159,,167,166,18,14,17,11,0.8,0.7
2025-05-28T2100,2160A,112.85,35.5051,晋城市,自来水公司,臭氧1小时,100,55,69,29,39,200,,211,211,18,21,3,2,0.3,0.3
2025-05-28T2100,2161A,112.8318,35.4936,晋城市,白云商贸,臭氧1小时,85,54,72,27,29,188,,198,198,20,22,8,8,0.5,0.6
2025-05-28T2100,2162A,112.8508,35.4887,晋城市,市环保局,,,81,84,,38,,,185,185,14,24,8,6,0.4,0.4
2025-05-28T2100,2163A,112.8676,35.4897,晋城市,技术学院,臭氧1小时,98,84,80,27,32,198,,210,210,22,28,8,9,0.5,0.6
2025-05-28T2100,2165A,112.8453,35.546,晋城市,白马寺,臭氧1小时,105,50,57,32,39,209,,208,208,11,9,4,6,0.5,0.5
2025-05-28T2100,3620A,112.8271,35.4828,晋城市,泽州一中,臭氧1小时,102,43,65,24,37,204,,210,210,18,23,11,11,0.4,0.5
2025-05-28T2100,2173A,112.7249,37.7067,晋中市,南都小区,,,46,60,20,27,,,205,191,,16,,8,,0.4
2025-05-28T2100,2174A,112.6991,37.6982,晋中市,榆次区政府,,44,44,53,21,24,137,,195,176,16,16,9,9,0.5,0.6
2025-05-28T2100,2865A,112.7195,37.6828,晋中市,榆次三中,颗粒物(PM10),51,51,53,19,27,134,,189,170,17,18,6,6,0.4,0.5
2025-05-28T2100,4200A,112.7478,37.6954,晋中市,迎宾街26号,,46,46,54,24,29,135,,186,167,15,16,6,7,0.8,0.8
2025-05-28T2100,2439A,112.2014,31.0481,荆门市,竹园小学,细颗粒物(PM2.5),82,64,66,60,47,139,,167,162,14,13,7,6,0.4,0.4
2025-05-28T2100,2440A,112.1969,30.9891,荆门市,掇刀,,,,53,,49,,,169,164,,10,6,8,0.6,0.6
2025-05-28T2100,2441A,112.2213,31.0386,荆门市,石化一小,细颗粒物(PM2.5),69,55,67,50,46,118,,158,150,20,15,9,10,0.0,0.1
2025-05-28T2100,3012A,112.1849,31.0362,荆门市,西山林语,,,44,51,,43,124,,152,145,8,9,9,10,0.4,0.4
2025-05-28T2100,3547A,112.1632,31.0138,荆门市,龙泉中学南校,,46,40,45,32,34,115,,148,140,8,8,5,5,1.0,0.9
2025-05-28T2100,1844A,112.2494,30.3197,荆州市,市图书馆,,46,33,41,32,35,105,,139,136,18,18,4,5,0.8,0.8
2025-05-28T2100,1845A,112.2008,30.3544,荆州市,市委党校,,,31,49,31,38,,,128,128,19,13,6,8,0.5,0.9
2025-05-28T2100,3194A,112.2747,30.3122,荆州市,管委会,,40,,42,28,35,107,,131,130,12,15,9,9,0.6,0.7
2025-05-28T2100,4268A,112.1722,30.3366,荆州市,学苑路85号,,38,34,30,26,47,94,,139,136,29,22,2,3,0.5,0.6
2025-05-28T2100,2342A,117.3102,29.3867,景德镇市,王港中学,,,,,,,,,,,,,,,,
2025-05-28T2100,2343A,117.2117,29.2933,景德镇市,老干部活动中心,,28,28,35,14,25,78,,98,91,9,14,7,8,0.5,0.2
2025-05-28T2100,2344A,117.1894,29.2789,景德镇市,兽医站,,30,30,49,18,30,80,,99,92,7,16,4,7,0.5,0.5
2025-05-28T2100,2345A,117.1547,29.2617,景德镇市,台达陶瓷,,38,,44,26,33,75,,99,92,13,18,13,12,0.6,0.8
2025-05-28T2100,2346A,117.2461,29.2956,景德镇市,陶研所,,32,32,37,22,29,60,,96,86,8,11,1,2,0.2,0.3
2025-05-28T2100,1803A,115.9872,29.6815,九江市,十里,,43,32,35,30,32,60,,104,93,24,15,11,3,0.8,0.7
2025-05-28T2100,1804A,115.9584,29.7046,九江市,茅山头,,39,36,39,27,32,90,,113,103,15,16,5,4,0.6,0.6
2025-05-28T2100,1805A,115.9877,29.7295,九江市,西园,,28,22,35,17,29,87,,113,104,28,38,6,8,0.7,0.7
2025-05-28T2100,1808A,115.9114,29.6038,九江市,综合工业园,,30,30,36,13,26,54,,98,91,40,42,12,9,0.6,0.6
2025-05-28T2100,1809A,116.0721,29.7535,九江市,石化总厂,,39,33,48,27,46,73,,101,94,19,23,5,5,0.7,0.8
2025-05-28T2100,1810A,115.9773,29.5698,九江市,庐山气象台,,31,,18,10,17,99,,120,113,3,4,7,6,0.9,0.7
2025-05-28T2100,3190A,116.0254,29.6994,九江市,外国语学校,,38,34,36,26,31,66,,94,86,23,19,17,12,1.0,0.9
2025-05-28T2100,4253A,116.0102,29.6594,九江市,莲花大道8号,,29,20,31,20,28,80,,111,93,3,6,6,4,0.6,0.5
2025-05-28T2100,4240A,98.4958,39.7339,酒泉市,玉门东路5号,颗粒物(PM10),180,310,451,53,97,102,,104,104,6,7,7,10,0.3,0.3
2025-05-28T2100,4241A,98.5099,39.7506,酒泉市,北大街108号,颗粒物(PM10),169,288,441,52,97,104,,112,111,10,11,9,12,0.3,0.3
2025-05-28T2100,2698A,76.0072,39.4467,喀什地区,巡警大队,颗粒物(PM10),98,145,76,25,16,82,,105,102,24,14,5,5,0.3,0.2
2025-05-28T2100,2699A,75.9755,39.4694,喀什地区,吾办,,,,81,,29,,,84,84,21,20,10,12,0.4,0.2
2025-05-28T2100,4027A,75.9483,39.4689,喀什地区,老干局,颗粒物(PM10),92,134,76,33,15,81,,88,87,6,4,4,4,0,0
2025-05-28T2100,1824A,114.3389,34.7781,开封市,肿瘤医院,细颗粒物(PM2.5),68,84,83,49,46,143,,209,198,31,21,11,10,0.8,0.8
2025-05-28T2100,1826A,114.2885,34.7965,开封市,世纪星幼儿园,颗粒物(PM10),70,89,81,33,43,145,,209,198,40,30,11,8,0.8,0.9
2025-05-28T2100,3147A,114.3438,34.8106,开封市,龙亭公园,颗粒物(PM10),62,73,77,39,35,141,,211,200,42,40,10,9,0.8,0.8
2025-05-28T2100,3210A,114.3644,34.7964,开封市,汴京公园,颗粒物(PM10),75,100,89,41,45,144,,214,200,37,31,9,10,0.8,0.9
2025-05-28T2100,3473A,114.2485,34.8306,开封市,技师学院,细颗粒物(PM2.5),67,50,71,48,46,139,,205,193,30,31,8,12,0.7,2
2025-05-28T2100,3592A,114.4644,34.7556,开封市,祥符区生态环境局,颗粒物(PM10),61,72,84,20,47,138,,83,,49,50,7,9,0.5,0.4
2025-05-28T2100,1951A,84.895,45.6094,克拉玛依市,长征新村,,27,9,6,3,5,84,,82,82,8,5,6,5,0.2,0.2
2025-05-28T2100,1952A,84.8988,45.5893,克拉玛依市,南林小区,,32,32,16,6,6,88,,85,85,4,2,11,11,0.3,0.3
2025-05-28T2100,1954A,84.905,44.3396,克拉玛依市,独山子区,,34,34,38,12,13,108,,101,101,9,5,10,7,0.4,0.3
2025-05-28T2100,1955A,85.6979,46.098,克拉玛依市,乌尔禾区商贸楼,,33,33,14,8,6,85,,88,88,5,2,2,2,0.3,0.2
2025-05-28T2100,3612A,85.1045,45.6899,克拉玛依市,白碱滩区新站,,,53,29,14,15,97,,93,93,2,4,11,11,,0
2025-05-28T2100,2697A,76.1454,39.7142,克孜勒苏柯尔克孜自治州,市人民政府,颗粒物(PM10),98,145,70,63,26,88,,110,106,11,7,15,4,0.6,0.5
2025-05-28T2100,3665A,76.1658,39.7157,克孜勒苏柯尔克孜自治州,克州文化中心,颗粒物(PM10),99,147,74,65,28,107,,109,109,4,4,4,6,0.3,0.3
2025-05-28T2100,1450A,102.8204,24.8886,昆明市,呈贡新区,,15,,19,10,10,44,,66,63,29,16,4,6,0.6,0.6
2025-05-28T2100,1451A,102.6251,24.9608,昆明市,西山森林公园,,,,,,,,,,,,,,,,
2025-05-28T2100,1452A,102.7252,25.0902,昆明市,龙泉镇,,18,18,13,3,6,50,,62,60,15,14,3,3,0.5,0.4
2025-05-28T2100,1453A,102.7266,25.0375,昆明市,东风东路,,20,20,14,10,8,50,,65,62,28,18,6,6,0.6,0.5
2025-05-28T2100,1454A,102.6742,25.0669,昆明市,金鼎山,,16,11,12,7,6,49,,59,58,25,17,1,2,0.6,0.4
2025-05-28T2100,1455A,102.6644,25.0401,昆明市,碧鸡广场,,23,,12,16,7,53,,62,61,27,20,5,6,0.7,0.5
2025-05-28T2100,3179A,102.7494,25.0119,昆明市,官渡区博物馆,,17,14,12,3,3,36,,59,53,34,18,6,6,0.6,0.4
2025-05-28T2100,3375A,102.8017,24.8336,昆明市,青年创业园,,18,10,9,6,7,55,,67,66,18,14,8,9,0.5,0.4
2025-05-28T2100,3550A,102.7997,24.9786,昆明市,昆明学院,,19,10,10,7,6,58,,66,61,21,17,4,4,0.3,0.2
2025-05-28T2100,3551A,102.5967,24.6736,昆明市,晋宁区生态环境分局,,20,10,14,3,8,63,,69,69,14,11,4,4,0.6,0.6
2025-05-28T2100,3552A,102.6678,24.9856,昆明市,云天化总部,,14,6,8,3,6,41,,56,54,28,15,2,3,0.6,0.4
2025-05-28T2100,1456A,91.1319,29.6514,拉萨市,八廓街,,37,33,23,9,12,116,,131,129,17,18,7,7,0.3,0.3
2025-05-28T2100,1457A,91.1221,29.6747,拉萨市,市环保局,,33,21,30,9,14,103,,128,126,21,20,6,5,0.3,0.3
2025-05-28T2100,1458A,91.0874,29.6475,拉萨市,区监测站,,35,28,23,8,12,112,,128,127,19,25,6,6,0.2,0.3
2025-05-28T2100,1459A,91.1774,29.6541,拉萨市,西藏大学,,35,17,18,6,9,111,,128,126,15,17,11,10,0.3,0.4
2025-05-28T2100,1460A,90.9798,29.6588,拉萨市,区辐射站,,35,34,28,10,13,109,,120,120,14,24,5,6,0.3,0.4
2025-05-28T2100,1461A,91.0834,29.6292,拉萨市,拉萨火车站,,38,23,16,8,9,119,,129,129,11,15,4,4,0.2,0.3
2025-05-28T2100,2520A,109.2203,23.7256,来宾市,来宾技工学校,,19,,56,6,32,58,,94,85,12,20,5,6,1.2,1.1
2025-05-28T2100,3535A,109.1781,23.7297,来宾市,兴宾区政府,,46,46,49,30,33,58,,83,78,11,18,4,5,0.9,0.8
2025-05-28T2100,4002A,109.2416,23.7461,来宾市,中南小学,,,16,55,3,34,,,94,86,14,21,5,5,0.9,0.8
2025-05-28T2100,1477A,104.1373,35.9454,兰州市,榆中兰大校区,,,,,,,,,,,,,,,,
2025-05-28T2100,1479A,103.831,36.0464,兰州市,铁路设计院,颗粒物(PM10),56,61,34,30,22,104,,136,135,22,21,9,9,0.5,0.5
2025-05-28T2100,3241A,103.7439,36.0842,兰州市,百合公园,,46,46,32,21,15,112,,136,135,11,12,2,3,0.2,0.4
2025-05-28T2100,3242A,103.9611,35.998,兰州市,和平,颗粒物(PM10),62,73,30,39,17,103,,132,131,12,10,6,7,0.4,0.4
2025-05-28T2100,4236A,103.6293,36.0938,兰州市,庄浪东路808号,颗粒物(PM10),57,63,44,33,24,99,,130,129,26,24,9,9,0.4,0.4
2025-05-28T2100,4237A,103.7251,36.1043,兰州市,安宁西路88号,颗粒物(PM10),60,70,43,26,23,121,,151,150,6,9,5,5,0.2,0.3
2025-05-28T2100,4238A,103.8470,36.0676,兰州市,北滨河东路1号,颗粒物(PM10),60,70,31,28,18,111,,142,141,18,15,8,8,0.6,0.6
2025-05-28T2100,3245A,103.6633,36.533,兰州新区,新区管委会,颗粒物(PM10),71,92,38,47,27,126,,157,155,10,9,8,6,0.3,0.4
2025-05-28T2100,3246A,103.6975,36.4789,兰州新区,舟曲中学,颗粒物(PM10),70,89,28,31,12,100,,151,147,28,13,9,7,0.3,0.4
2025-05-28T2100,1067A,116.6708,39.5111,廊坊市,药材公司,颗粒物(PM10),76,102,81,51,49,172,,207,198,29,20,7,6,0.8,0.5
2025-05-28T2100,1068A,116.7214,39.5589,廊坊市,开发区,颗粒物(PM10),74,98,78,51,42,147,,212,202,35,22,5,4,0.6,0.4
2025-05-28T2100,1070A,116.7244,39.5269,廊坊市,北华航天学院,颗粒物(PM10),90,129,94,39,46,136,,206,193,34,22,6,7,0.7,0.5
2025-05-28T2100,2919A,116.7022,39.5453,廊坊市,河北工业大学,颗粒物(PM10),83,115,78,48,45,159,,214,206,34,20,7,6,0.6,0.4
2025-05-28T2100,2535A,103.7723,29.5462,乐山市,花湖湾,,35,21,18,15,12,110,,129,128,8,12,3,3,0.4,0.5
2025-05-28T2100,2536A,103.7627,29.5844,乐山市,牛耳桥,,49,49,23,16,14,95,,121,119,15,13,8,7,0.8,0.8
2025-05-28T2100,2537A,103.7508,29.6006,乐山市,市第三水厂,,31,26,19,17,14,97,,121,120,15,15,5,5,0.8,0.8
2025-05-28T2100,2538A,103.7571,29.5664,乐山市,市监测站,,30,23,19,17,14,93,,112,111,9,11,6,6,1.1,1.2
2025-05-28T2100,3361A,103.7311,29.5628,乐山市,理工大学,,29,21,17,15,11,90,,124,121,19,16,6,6,0.7,0.7
2025-05-28T2100,2598A,100.2143,26.8576,丽江市,西南郊,,14,6,7,3,6,42,,53,50,8,7,5,6,1.1,1.1
2025-05-28T2100,2599A,100.2497,26.8802,丽江市,丽江古城,,22,16,14,15,13,37,,52,48,18,11,8,9,0.5,0.5
2025-05-28T2100,2600A,100.2203,26.8906,丽江市,市中心,,15,,10,10,11,27,,42,39,20,16,10,10,0.7,0.6
2025-05-28T2100,1267A,119.914,28.4514,丽水市,监测站大楼,,29,15,22,10,14,92,,90,90,10,13,2,2,0.3,0.3
2025-05-28T2100,1268A,119.93,28.4586,丽水市,莲都小学,,29,16,25,8,13,92,,95,95,12,14,2,3,0.3,0.3
2025-05-28T2100,1269A,119.879,28.4231,丽水市,余庄前,,22,20,24,13,14,70,,78,78,16,9,3,3,0.3,0.3
2025-05-28T2100,1173A,119.176,34.5885,连云港市,市环境监测站,,42,24,36,17,18,134,,158,146,11,13,6,6,0.2,0.3
2025-05-28T2100,3000A,119.3581,34.6972,连云港市,德源药业,,42,22,35,9,14,134,,144,140,12,14,8,10,0.8,0.9
2025-05-28T2100,3007A,119.178,34.844,连云港市,新城一中,,47,47,45,11,17,123,,135,130,19,36,8,8,0.9,0.7
2025-05-28T2100,3008A,119.3608,34.7519,连云港市,胡沟管理处,,40,22,26,14,14,128,,145,117,14,18,12,11,0.6,0.6
2025-05-28T2100,3009A,119.1478,34.5911,连云港市,矿山设计院,,37,34,35,12,17,117,,136,130,9,13,4,5,0.5,0.5
2025-05-28T2100,3434A,119.2413,34.6539,连云港市,工贸学校,,43,34,27,17,17,137,,161,150,8,8,9,9,0.5,0.5
2025-05-28T2100,3664A,119.4172,34.7341,连云港市,连云街道,,45,31,31,16,16,141,,143,143,10,12,12,9,0.6,0.4
2025-05-28T2100,2571A,102.3431,27.8099,凉山彝族自治州,青龙寺,,20,9,7,3,2,61,,80,74,3,4,5,5,0.7,0.7
2025-05-28T2100,2572A,102.2721,27.8415,凉山彝族自治州,邛海宾馆,,22,11,10,3,5,69,,87,82,7,9,5,6,0.7,0.7
2025-05-28T2100,2573A,102.2625,27.898,凉山彝族自治州,西昌市政府,,23,6,10,3,9,71,,91,86,7,9,7,7,0.7,0.7
2025-05-28T2100,2574A,102.2685,27.8851,凉山彝族自治州,凉山州政府,,22,8,9,3,6,70,,89,84,8,9,6,6,0.8,0.8
2025-05-28T2100,4229A,102.2342,27.8859,凉山彝族自治州,凯乐南路30号,,22,9,10,3,2,70,,88,83,6,10,10,10,0.6,0.7
2025-05-28T2100,2212A,123.2,41.1953,辽阳市,宏伟区,颗粒物(PM10),57,64,36,28,19,152,,188,179,22,10,10,8,0.9,0.6
2025-05-28T2100,2213A,123.1683,41.2495,辽阳市,新华园,颗粒物(PM10),76,102,44,48,27,141,,195,181,27,11,10,8,1.0,0.7
2025-05-28T2100,2214A,123.2354,41.2639,辽阳市,滨河路,颗粒物(PM10),55,60,33,26,25,121,,174,163,34,12,10,9,0.7,0.5
2025-05-28T2100,2215A,123.149,41.2991,辽阳市,铁西工业园,颗粒物(PM10),79,107,47,42,25,115,,195,180,33,13,10,8,1.0,0.6
2025-05-28T2100,2227A,125.1358,42.8845,辽源市,环保局,颗粒物(PM10),58,65,43,25,20,62,,175,145,45,30,4,5,0.6,0.5
2025-05-28T2100,3239A,125.0764,42.9078,辽源市,银鹰制药,颗粒物(PM10),57,64,44,34,25,84,,183,153,40,34,5,6,0.7,0.6
2025-05-28T2100,1625A,115.9848,36.4372,聊城市,区政府,臭氧1小时,68,55,66,33,35,174,,234,225,19,18,5,7,0.8,0.8
2025-05-28T2100,2878A,116.0072,36.4343,聊城市,聊大东校,臭氧1小时,93,56,70,31,41,194,,236,230,17,16,7,9,0.6,0.7
2025-05-28T2100,3200A,115.9819,36.4978,聊城市,监控中心,细颗粒物(PM2.5),79,89,67,58,38,169,,238,228,43,21,8,9,0.8,0.7
2025-05-28T2100,3513A,116.0445,36.4361,聊城市,九州社区,臭氧1小时,58,60,68,35,37,166,,225,218,24,13,6,7,0.8,0.7
2025-05-28T2100,4018A,116.0567,36.4608,聊城市,星美广场,臭氧1小时,92,64,73,30,34,193,,238,232,12,14,9,9,0.8,0.8
2025-05-28T2100,2632A,94.3681,29.6376,林芝市,林芝监测站,,26,18,10,8,5,82,,102,102,4,7,3,4,0.6,0.6
2025-05-28T2100,2633A,94.3616,29.6616,林芝市,林芝人民医院,,26,17,12,8,6,81,,100,100,1,4,6,6,0.3,0.3
2025-05-28T2100,2603A,100.0781,23.8982,临沧市,市环保局,细颗粒物(PM2.5),53,,18,37,20,24,,35,32,8,9,4,5,0.5,0.6
2025-05-28T2100,2604A,100.0894,23.8822,临沧市,市气象局,,12,11,16,8,10,30,,45,42,8,11,2,3,0.4,0.5
2025-05-28T2100,1733A,111.5531,36.0783,临汾市,临钢医院,颗粒物(PM10),64,78,74,20,28,167,,211,206,22,22,4,5,0.6,0.7
2025-05-28T2100,1734A,111.5028,36.0714,临汾市,技工学校,臭氧1小时,65,59,69,29,41,172,,214,208,13,16,6,6,0.5,0.6
2025-05-28T2100,1736A,111.5018,36.0855,临汾市,市委,颗粒物(PM10),67,83,77,22,29,167,,208,201,17,18,6,7,0.6,0.7
2025-05-28T2100,3018A,111.505,36.1014,临汾市,唐尧大酒店,颗粒物(PM10),60,69,74,31,30,166,,204,199,12,16,6,7,0.6,0.7
2025-05-28T2100,4244A,111.4879,36.0530,临汾市,启星学校,臭氧1小时,63,62,67,39,36,170,,216,208,16,18,4,5,0.5,0.5
2025-05-28T2100,4271A,103.2464,35.6123,临夏回族自治州,滨河东路1号,,45,45,39,13,18,103,,125,125,11,11,9,7,0.3,0.3
2025-05-28T2100,4310A,103.2093,35.5995,临夏回族自治州,新华街21号,,,52,41,24,21,115,,131,131,,15,7,7,0.3,0.3
2025-05-28T2100,1618A,118.3429,35.0532,临沂市,沂河小区,,48,48,57,16,28,108,,167,155,15,17,5,7,0.3,0.3
2025-05-28T2100,1619A,118.295,35.0583,临沂市,鲁南制药厂,,46,46,56,18,30,118,,180,167,17,19,5,9,0.4,0.4
2025-05-28T2100,1620A,118.2794,34.9976,临沂市,新光毛纺厂,,44,44,51,18,38,120,,174,162,14,25,7,9,0.3,0.4
2025-05-28T2100,1621A,118.3956,35.0888,临沂市,河东保险公司,,39,39,50,14,24,113,,175,162,14,17,4,6,0.2,0.3
2025-05-28T2100,3370A,118.3564,35.0215,临沂市,十里堡居委,,,39,46,17,26,,,170,164,21,21,7,10,0.4,0.5
2025-05-28T2100,3496A,118.3604,35.1084,临沂市,南坊新区,,36,36,54,12,25,110,,168,155,15,19,7,8,0.4,0.4
2025-05-28T2100,3860A,118.3920,35.0300,临沂市,皇山花园小区,,36,34,50,16,26,115,,178,164,21,23,7,10,0.5,0.5
2025-05-28T2100,1870A,109.4856,24.3895,柳州市,柳东小学,,15,14,33,3,26,45,,74,64,5,9,9,10,0.5,0.5
2025-05-28T2100,1871A,109.4157,24.3277,柳州市,环保监测站,,,,42,14,31,,,75,70,10,13,2,2,0.7,0.7
2025-05-28T2100,1872A,109.389,24.341,柳州市,河西水厂,,18,18,38,9,24,39,,73,62,13,16,7,6,1.3,0.9
2025-05-28T2100,1873A,109.4311,24.2921,柳州市,市四中,,,,45,,28,,,68,62,10,18,7,8,0.7,0.7
2025-05-28T2100,1874A,109.4006,24.3631,柳州市,市九中,,,,42,13,25,38,,72,61,12,14,10,10,0.7,0.7
2025-05-28T2100,1875A,109.4958,24.3134,柳州市,古亭山,,17,17,40,3,24,50,,78,70,8,17,5,7,0.5,0.5
2025-05-28T2100,3402A,109.5422,24.3996,柳州市,市二中,,16,6,35,3,23,51,,68,63,11,17,10,12,0.5,0.5
2025-05-28T2100,2307A,116.5079,31.737,六安市,监测大楼,细颗粒物(PM2.5),67,49,64,48,44,108,,169,158,9,12,4,7,0.4,0.5
2025-05-28T2100,2308A,116.4738,31.7643,六安市,皖西学院,细颗粒物(PM2.5),54,52,66,38,43,120,,189,177,5,7,5,6,0.4,0.5
2025-05-28T2100,2309A,116.4996,31.7905,六安市,朝阳厂,,49,41,62,34,44,105,,157,146,16,23,4,6,0.4,0.5
2025-05-28T2100,2310A,116.5567,31.7886,六安市,开发区,,,59,75,37,45,,,188,180,16,15,7,7,0.5,0.6
2025-05-28T2100,2576A,104.8,26.5892,六盘水市,窑上,,14,14,19,8,10,21,,65,56,3,5,3,2,0.5,0.4
2025-05-28T2100,2577A,104.83,26.5917,六盘水市,黄土坡,,22,15,8,15,8,32,,74,65,21,11,8,9,0.5,0.4
2025-05-28T2100,2578A,104.89,26.5939,六盘水市,水钢,,21,12,9,3,3,67,,73,72,8,18,9,10,0.4,0.6
2025-05-28T2100,2579A,104.8475,26.5894,六盘水市,民中,,17,17,7,7,1,30,,72,62,33,12,8,7,0.5,0.4
2025-05-28T2100,2580A,104.9544,26.5506,六盘水市,双水,,13,9,2,6,5,40,,68,63,14,16,9,9,0.2,0.3
2025-05-28T2100,2335A,117.0189,25.1181,龙岩市,龙岩师专,,,,,,,,,,,,,,,,
2025-05-28T2100,2336A,117.0217,25.1033,龙岩市,龙岩市监测站,,20,20,30,14,25,39,,66,58,27,20,3,4,0.8,0.6
2025-05-28T2100,2337A,117.0258,25.0661,龙岩市,闽西职业技术学院,,15,12,32,7,25,48,,69,55,12,14,2,10,0.5,0.6
2025-05-28T2100,2338A,117.0196,25.0306,龙岩市,龙岩学院,,15,15,31,3,24,40,,61,57,14,14,6,10,0.4,0.5
2025-05-28T2100,2665A,105.0822,33.3261,陇南市,汉王镇固水子,,,,,,,,,,,,,,,,
2025-05-28T2100,2885A,104.9339,33.3826,陇南市,滨江中学,,42,42,30,12,15,87,,99,96,4,4,8,8,0.5,0.5
2025-05-28T2100,3247A,104.955,33.371,陇南市,市总工会,,28,26,28,12,8,88,,97,95,3,5,9,9,0.5,0.6
2025-05-28T2100,2487A,111.9589,27.8901,娄底市,电视发射台,,25,25,21,6,8,27,,76,60,1,2,6,6,0.2,0.2
2025-05-28T2100,2488A,111.9975,27.725,娄底市,市监测站,,27,27,17,13,11,59,,81,70,15,12,5,6,0.5,0.4
2025-05-28T2100,2489A,112.0194,27.7314,娄底市,市委党校,,,18,16,13,13,,,89,81,7,3,3,3,0.2,0.6
2025-05-28T2100,2490A,111.9561,27.7569,娄底市,涟钢,,23,23,15,11,11,52,,85,68,7,7,4,4,0.8,0.8
2025-05-28T2100,2491A,111.9892,27.7044,娄底市,市政府,,22,,15,15,10,54,,92,77,10,7,4,4,0.5,0.4
2025-05-28T2100,1893A,105.4324,28.9634,泸州市,九狮山,,38,,15,26,23,55,,92,89,20,14,4,4,0.4,0.5
2025-05-28T2100,1894A,105.4427,28.9063,泸州市,小市上码头,,17,14,13,8,5,52,,78,76,17,11,9,8,0.5,0.4
2025-05-28T2100,1895A,105.4241,28.8573,泸州市,兰田宪桥,,,17,13,8,7,,,89,89,15,8,,8,0.3,0.3
2025-05-28T2100,1896A,105.4379,28.8833,泸州市,市环监站,,20,12,13,8,9,61,,83,82,11,8,6,6,0.4,0.4
2025-05-28T2100,4272A,105.3689,28.7783,泸州市,纳溪中医医院,,22,18,12,15,9,38,,73,71,32,16,6,5,0.8,0.6
2025-05-28T2100,2183A,111.1406,37.5211,吕梁市,环保局,颗粒物(PM10),70,90,72,38,32,135,,202,189,31,25,5,6,0.5,0.5
2025-05-28T2100,2185A,111.1297,37.5136,吕梁市,自来水公司,颗粒物(PM10),51,51,71,30,32,149,,196,186,22,23,4,6,0.4,0.5
2025-05-28T2100,2867A,111.1283,37.51,吕梁市,马茂庄小学,颗粒物(PM10),61,72,75,37,33,93,,190,174,83,33,4,4,0.8,0.6
2025-05-28T2100,1812A,112.3931,34.6516,洛阳市,市委党校,臭氧1小时,75,65,77,38,44,180,,199,197,17,25,6,8,0.6,0.6
2025-05-28T2100,1815A,112.494,34.6886,洛阳市,河南林校,臭氧1小时,88,70,78,40,46,190,,217,214,22,25,8,12,0.8,0.8
2025-05-28T2100,1816A,112.3844,34.623,洛阳市,开发区管委会,臭氧1小时,101,69,74,45,47,202,,220,218,16,23,7,8,0.5,0.6
2025-05-28T2100,1817A,112.4267,34.6258,洛阳市,市委新办公区,臭氧1小时,77,79,79,46,45,181,,210,207,22,23,8,9,0.7,0.7
2025-05-28T2100,3340A,112.6005,34.6326,洛阳市,伊滨,颗粒物(PM10),79,107,94,40,48,169,,220,215,28,28,7,10,0.5,0.5
2025-05-28T2100,3341A,112.4951,34.6332,洛阳市,中移产业园,颗粒物(PM10),67,83,84,44,47,172,,210,206,23,24,6,8,0.7,0.6
2025-05-28T2100,3593A,112.5736,34.8993,洛阳市,吉利监测站,臭氧1小时,95,84,74,45,42,196,,207,206,14,22,10,12,0.6,0.7
2025-05-28T2100,3635A,112.3677,34.662,洛阳市,河科大西苑校区,臭氧1小时,97,73,80,32,42,197,,219,217,23,27,7,10,0.7,0.7
2025-05-28T2100,3636A,112.4388,34.6781,洛阳市,英才小学,臭氧1小时,87,80,86,37,39,189,,215,213,20,24,7,10,0.6,0.6
2025-05-28T2100,4214A,112.4600,34.6949,洛阳市,春都路1号院,臭氧1小时,102,82,85,39,43,203,,239,236,26,23,6,10,0.5,0.5
2025-05-28T2100,2399A,114.051,33.5699,漯河市,三五一五工厂,颗粒物(PM10),99,148,97,53,45,158,,210,201,32,23,6,6,0.6,0.6
2025-05-28T2100,2400A,114.0055,33.5698,漯河市,漯河大学,颗粒物(PM10),98,146,107,44,42,184,,213,209,25,25,4,5,0.5,0.5
2025-05-28T2100,2401A,114.0138,33.5828,漯河市,市水利局,颗粒物(PM10),108,166,114,46,43,170,,210,204,27,22,6,6,0.8,0.7
2025-05-28T2100,2402A,114.0261,33.5698,漯河市,市广电局,颗粒物(PM10),106,161,105,41,44,176,,214,208,28,23,4,5,0.7,0.7
2025-05-28T2100,3478A,113.9749,33.5664,漯河市,市图书馆,臭氧1小时,78,95,99,40,45,182,,210,206,23,26,3,4,0.7,0.7
2025-05-28T2100,4250A,114.0892,33.5882,漯河市,韶山路11号,颗粒物(PM10),81,112,105,47,45,151,,204,194,35,29,8,8,0.7,0.5
2025-05-28T2100,1798A,118.5092,31.6837,马鞍山市,湖东路四小,细颗粒物(PM2.5),63,69,52,45,34,132,,162,159,22,15,7,7,0.6,0.6
2025-05-28T2100,1799A,118.5024,31.6449,马鞍山市,开发区,颗粒物(PM10),64,78,57,40,34,121,,158,155,26,20,8,8,0.8,0.7
2025-05-28T2100,1802A,118.6245,31.7241,马鞍山市,濮塘,细颗粒物(PM2.5),58,62,44,41,35,140,,161,160,11,8,8,8,0.7,0.7
2025-05-28T2100,3633A,118.4918,31.6809,马鞍山市,雨山,颗粒物(PM10),61,71,52,41,32,139,,158,157,19,16,9,8,0.6,0.6
2025-05-28T2100,4191A,118.5274,31.72227,马鞍山市,慈湖高新区,细颗粒物(PM2.5),75,67,54,55,41,133,,153,151,26,19,6,8,0.5,0.6
2025-05-28T2100,1686A,111.0286,21.4688,茂名市,电白南海,,,14,31,14,21,,,98,75,9,10,2,4,0.2,0.7
2025-05-28T2100,1687A,110.9294,21.6533,茂名市,茂石化七小,,17,17,29,7,15,40,,85,62,11,9,2,3,0.3,0.4
2025-05-28T2100,1688A,110.9107,21.6687,茂名市,健康路,,17,17,26,9,16,49,,98,71,11,11,4,5,0.4,0.5
2025-05-28T2100,1689A,110.8592,21.6828,茂名市,高岭,,27,27,37,3,13,40,,93,65,15,15,3,21,0.4,0.4
2025-05-28T2100,3450A,111.01,21.5165,茂名市,电白水东,,15,12,24,3,12,48,,86,66,10,13,2,4,0.2,0.3
2025-05-28T2100,2539A,104.0308,30.0478,眉山市,黑龙滩水库,,34,12,16,9,17,106,,120,120,3,14,3,3,0.3,0.4
2025-05-28T2100,2540A,103.8416,30.0874,眉山市,气象局,,,,26,,16,,,127,127,16,28,3,4,0.4,0.4
2025-05-28T2100,3137A,103.8578,30.0744,眉山市,市委党校,,31,24,22,12,12,99,,116,115,17,25,8,9,0.4,0.4
2025-05-28T2100,3148A,103.8291,30.0564,眉山市,区人社局,,32,24,29,7,10,100,,124,122,17,28,12,15,0.3,0.4
2025-05-28T2100,1690A,116.1231,24.3284,梅州市,梅江月梅,,,,25,,23,19,,58,40,,9,5,5,,0.7
2025-05-28T2100,1691A,116.0797,24.2719,梅州市,梅县新城,,25,19,28,17,24,31,,65,54,22,15,6,7,0.7,0.7
2025-05-28T2100,1692A,116.1248,24.2654,梅州市,环境监控中心,,22,17,33,15,24,33,,62,53,17,17,4,6,0.8,0.8
2025-05-28T2100,3315A,116.1233,24.2991,梅州市,梅龙,,19,19,24,12,18,38,,74,54,8,7,6,7,0.6,0.6
2025-05-28T2100,1878A,104.7778,31.4741,绵阳市,富乐山,,32,29,22,22,14,80,,113,106,17,10,7,8,0.5,0.4
2025-05-28T2100,1880A,104.6697,31.4668,绵阳市,高新区自来水公司,,42,31,22,29,15,79,,115,110,27,16,3,3,0.5,0.5
2025-05-28T2100,1881A,104.7287,31.5075,绵阳市,三水厂,,39,39,38,24,17,71,,119,110,32,17,8,8,0.6,0.5
2025-05-28T2100,3491A,104.69,31.5322,绵阳市,西科大附属小学,,37,37,27,22,16,69,,124,116,40,17,7,7,0.5,0.5
2025-05-28T2100,3492A,104.5648,31.5343,绵阳市,安州区旅游局,,30,24,17,12,9,96,,120,117,17,9,3,3,0.8,0.7
2025-05-28T2100,4226A,104.7651,31.4531,绵阳市,绵阳市气象局,,34,34,23,23,15,94,,112,110,18,13,3,3,0.5,0.4
2025-05-28T2100,1784A,129.61,44.561,牡丹江市,环保大楼,,40,,21,28,19,98,,131,121,11,17,6,6,0.2,0.2
2025-05-28T2100,1785A,129.6115,44.5782,牡丹江市,文化广场,颗粒物(PM10),65,80,39,42,23,48,,131,111,45,24,17,9,0.9,0.5
2025-05-28T2100,1786A,129.5904,44.5963,牡丹江市,第一医院,细颗粒物(PM2.5),78,74,32,57,20,68,,134,118,30,21,4,4,0.6,0.6
2025-05-28T2100,1787A,129.6364,44.6075,牡丹江市,机车工厂,,46,46,41,20,15,83,,129,118,16,20,7,6,0.5,0.4
2025-05-28T2100,1788A,129.6386,44.5462,牡丹江市,第一中学,,36,36,19,25,11,81,,131,115,11,16,6,6,0.4,0.4
2025-05-28T2100,2531A,105.0703,29.61,内江市,市监测站,,,22,14,12,12,,,87,87,12,7,6,6,0.6,0.6
2025-05-28T2100,2532A,105.0717,29.5947,内江市,东兴区政府,,,22,10,14,5,,,91,91,13,9,6,6,0.5,0.5
2025-05-28T2100,2533A,105.0653,29.5817,内江市,内江二中,,25,23,14,15,13,80,,92,92,13,15,5,5,0.4,0.4
2025-05-28T2100,2534A,105.0406,29.5822,内江市,内江日报社,,27,,12,13,13,86,,92,92,11,7,6,6,0.6,0.5
2025-05-28T2100,2628A,92.0657,31.4846,那曲市,那曲监测站,,37,26,26,15,12,116,,136,136,15,11,9,7,0.2,0.4
2025-05-28T2100,4243A,92.0515,31.4787,那曲市,那曲市委宣传部,,41,25,23,12,13,130,,145,145,4,8,6,7,0.2,0.3
2025-05-28T2100,1290A,115.8931,28.6843,南昌市,省外办,,32,20,39,17,31,102,,116,106,11,15,8,9,0.1,0.3
2025-05-28T2100,1291A,115.8886,28.7003,南昌市,省林业公司,,31,19,33,14,28,98,,113,102,8,11,7,9,0.4,0.5
2025-05-28T2100,1292A,115.8126,28.7442,南昌市,林科所,,29,17,29,12,25,91,,110,99,12,21,4,4,0.0,0.4
2025-05-28T2100,1294A,115.8518,28.687,南昌市,建工学校,,42,,37,29,28,96,,114,102,8,12,4,6,0.3,0.4
2025-05-28T2100,1295A,115.8921,28.6424,南昌市,象湖,,29,,38,17,27,92,,110,100,10,12,6,7,0.6,0.7
2025-05-28T2100,1296A,115.7423,28.7996,南昌市,武术学校,,29,,25,20,24,75,,113,88,4,4,10,9,0.5,0.6
2025-05-28T2100,3046A,115.9084,28.6062,南昌市,机电学校,,29,21,43,14,31,90,,112,99,16,18,4,4,0.4,0.5
2025-05-28T2100,3690A,115.9721,28.7031,南昌市,外国语学校,,32,18,37,12,30,100,,116,106,6,11,6,6,0.2,0.3
2025-05-28T2100,4192A,115.9316,28.68677,南昌市,南京东路235号,,39,39,49,14,31,92,,109,97,8,13,5,7,0.5,0.6
2025-05-28T2100,1905A,106.056,30.8064,南充市,西山风景区,,,,,,,,,,,,,,,,
2025-05-28T2100,1906A,106.0789,30.8023,南充市,南充市委,,36,22,25,16,19,113,,118,118,14,11,7,5,0.4,0.4
2025-05-28T2100,1907A,106.1031,30.8217,南充市,南充炼油厂,,34,30,28,16,21,108,,112,112,15,12,7,5,0.4,0.4
2025-05-28T2100,4227A,106.1083,30.7884,南充市,梨树横街98号,,35,34,29,18,18,109,,113,113,10,7,6,3,0.3,0.3
2025-05-28T2100,4304A,106.1172,30.843,南充市,清泉寺北路188号,,33,24,25,19,17,105,,110,109,12,8,6,5,0.3,0.3
2025-05-28T2100,4305A,106.067,30.7616,南充市,同庆路1号,,34,,25,19,20,107,,115,114,11,10,4,4,0.2,0.2
2025-05-28T2100,1151A,118.8086,32.1065,南京市,迈皋桥,,48,40,40,31,27,153,,161,161,7,14,4,4,0.6,0.5
2025-05-28T2100,1152A,118.7538,32.0551,南京市,草场门,颗粒物(PM10),54,58,48,34,27,155,,164,164,20,18,3,3,0.5,0.4
2025-05-28T2100,1153A,118.7794,32.0745,南京市,山西路,颗粒物(PM10),58,66,50,29,23,164,,174,174,13,12,4,5,0.3,0.3
2025-05-28T2100,1154A,118.7752,32.0023,南京市,中华门,颗粒物(PM10),52,53,44,31,25,144,,155,155,15,14,3,4,0.5,0.4
2025-05-28T2100,1155A,118.8109,32.0309,南京市,瑞金路,颗粒物(PM10),51,51,45,31,26,144,,156,156,15,9,6,6,0.3,0.3
2025-05-28T2100,1156A,118.7997,32.0754,南京市,玄武湖,颗粒物(PM10),51,51,42,23,20,144,,153,153,9,11,4,4,0.5,0.5
2025-05-28T2100,1157A,118.6414,32.0931,南京市,浦口,颗粒物(PM10),54,58,41,31,23,139,,148,148,22,20,4,4,0.5,0.4
2025-05-28T2100,1158A,118.7356,31.9996,南京市,奥体中心,颗粒物(PM10),58,66,49,39,26,161,,171,171,20,17,6,6,0.4,0.3
2025-05-28T2100,1159A,118.9125,32.1028,南京市,仙林大学城,颗粒物(PM10),58,66,52,29,22,146,,157,157,15,13,8,8,0.6,0.5
2025-05-28T2100,3422A,118.8436,31.9198,南京市,江宁彩虹桥,颗粒物(PM10),54,58,47,34,27,143,,162,161,19,16,4,4,0.4,0.4
2025-05-28T2100,3427A,118.8554,32.3578,南京市,六合雄州,颗粒物(PM10),51,51,56,31,30,150,,172,171,27,39,8,8,0.5,0.6
2025-05-28T2100,4249A,118.8708,31.3402,南京市,汶溪路181号,细颗粒物(PM2.5),52,44,40,36,28,122,,148,147,23,21,3,4,0.2,0.2
2025-05-28T2100,4312A,119.019,31.6512,南京市,中山西路1号,,46,46,40,28,25,134,,154,154,16,15,7,6,0.5,0.5
2025-05-28T2100,1401A,108.3103,22.7881,南宁市,二十一中,,,,51,,27,,,82,75,31,19,3,2,0.8,0.8
2025-05-28T2100,1402A,108.3141,22.8528,南宁市,北湖,,,,46,,30,,,83,,,17,,5,,0.7
2025-05-28T2100,1403A,108.3206,22.8225,南宁市,市监测站,,33,26,46,23,30,38,,71,58,23,16,3,3,0.8,0.7
2025-05-28T2100,1404A,108.3829,22.8037,南宁市,大自然花园,,32,,38,22,30,66,,87,73,13,14,4,5,0.6,0.6
2025-05-28T2100,1405A,108.4394,22.7904,南宁市,仙葫,,29,29,39,14,29,59,,84,71,11,14,8,9,0.7,0.8
2025-05-28T2100,1406A,108.2397,22.8467,南宁市,区农职院,,38,38,49,25,25,28,,65,62,33,20,4,5,1.1,1.2
2025-05-28T2100,1407A,108.3275,22.735,南宁市,英华嘉园,,20,20,49,14,27,56,,80,73,17,18,6,7,0.5,0.5
2025-05-28T2100,3401A,108.4834,22.7618,南宁市,红星社区,,33,27,46,23,24,66,,96,85,7,10,8,9,0.4,0.4
2025-05-28T2100,4221A,108.2177,22.7774,南宁市,乐贤路16号,,35,30,50,24,29,18,,72,58,57,33,4,6,0.7,0.6
2025-05-28T2100,2331A,118.0966,26.6761,南平市,茫荡山,,,,,,,,,,,,,,,,
2025-05-28T2100,2332A,118.1681,26.6369,南平市,南平市监测站,,23,,14,7,13,73,,68,66,4,10,4,5,0.6,0.7
2025-05-28T2100,2333A,118.1825,26.6489,南平市,南平铝业有限公司,,24,,17,3,12,76,,70,70,5,12,3,5,0.4,0.6
2025-05-28T2100,2334A,118.1756,26.6272,南平市,南平七中,,20,15,18,7,12,63,,69,66,9,8,7,5,0.6,0.6
2025-05-28T2100,1168A,120.9098,31.9663,南通市,狼山街道,,48,48,25,28,13,110,,131,125,23,16,5,5,0.5,0.5
2025-05-28T2100,1169A,120.86,32.0005,南通市,虹桥,颗粒物(PM10),53,55,26,35,19,119,,140,128,24,20,5,14,0.4,0.2
2025-05-28T2100,1170A,120.87,32.02,南通市,城中,细颗粒物(PM2.5),74,71,31,54,16,104,,134,125,26,17,6,4,0.7,0.5
2025-05-28T2100,1171A,120.94,31.93,南通市,星湖花园,,35,30,22,23,14,109,,120,114,22,20,4,5,0.3,0.3
2025-05-28T2100,1172A,120.81,32.0417,南通市,紫琅学院,细颗粒物(PM2.5),60,57,28,43,13,103,,123,117,22,17,8,6,0.5,0.4
2025-05-28T2100,3291A,121.067,32.062,南通市,通州监测站,细颗粒物(PM2.5),110,97,38,83,26,120,,141,136,14,11,7,6,0.5,0.2
2025-05-28T2100,3432A,120.9348,31.9883,南通市,环境教育馆,颗粒物(PM10),62,73,32,41,15,92,,137,123,36,18,6,4,0.4,0.3
2025-05-28T2100,2404A,112.5224,33.0122,南阳市,瓦房庄,颗粒物(PM10),76,101,79,37,36,173,,206,200,16,7,6,6,0.5,0.5
2025-05-28T2100,2405A,112.5003,32.9735,南阳市,汉画馆,颗粒物(PM10),65,79,69,32,34,144,,193,184,23,16,5,5,0.5,0.5
2025-05-28T2100,2406A,112.5573,33.027,南阳市,气象站,颗粒物(PM10),97,143,82,36,34,168,,199,194,23,12,4,5,0.4,0.5
2025-05-28T2100,2407A,112.5481,32.9689,南阳市,理工学院,颗粒物(PM10),78,106,74,31,31,152,,201,192,31,14,4,5,0.6,0.6
2025-05-28T2100,4008A,112.5234,32.9922,南阳市,卧龙区政府,颗粒物(PM10),80,109,71,34,39,152,,199,190,34,16,4,4,0.6,0.5
2025-05-28T2100,1234A,121.8358,29.911,宁波市,区环保大楼,,25,24,34,13,17,79,,115,106,26,28,8,9,0.4,0.4
2025-05-28T2100,1235A,121.56,29.82,宁波市,万里学院,,29,23,27,18,19,90,,108,99,17,13,3,4,0.5,0.5
2025-05-28T2100,1236A,121.713,29.9572,宁波市,龙赛医院,,35,35,33,16,15,77,,112,102,13,10,7,8,0.4,0.4
2025-05-28T2100,1239A,121.633,29.7733,宁波市,钱湖水厂,,27,17,25,12,17,84,,111,98,8,8,8,9,0.4,0.4
2025-05-28T2100,1240A,121.5856,29.8635,宁波市,太古小学,,32,21,31,12,16,102,,114,106,15,13,6,7,0.3,0.3
2025-05-28T2100,1241A,121.524,29.8674,宁波市,市环境监测中心,,,30,29,,16,63,,95,80,32,16,10,10,0.5,0.5
2025-05-28T2100,2871A,121.6147,29.9017,宁波市,万里国际学校,,29,21,24,14,14,92,,112,105,17,14,6,7,0.3,0.3
2025-05-28T2100,3710A,121.5594,29.8975,宁波市,白沙活动中心,,28,20,22,14,15,87,,106,98,11,8,8,10,0.4,0.4
2025-05-28T2100,2339A,119.5001,26.6946,宁德市,金涵水库,,,,,,,,,,,,,,,,
2025-05-28T2100,2341A,119.5388,26.6612,宁德市,宁德市监测站,,20,,14,10,12,61,,74,68,17,10,4,4,0.3,0.4
2025-05-28T2100,3209A,119.5231,26.6562,宁德市,宁德一中,,24,,16,9,18,75,,80,76,5,6,4,4,0.4,0.4
2025-05-28T2100,2618A,98.8601,25.8567,怒江傈僳族自治州,州监测站,,18,,16,12,11,28,,42,38,6,5,8,8,0.4,0.4
2025-05-28T2100,2619A,98.8546,25.8417,怒江傈僳族自治州,泸水一中,,8,7,10,3,6,11,,28,24,15,10,6,6,0.5,0.4
2025-05-28T2100,1888A,101.6891,26.571,攀枝花市,弄弄坪,,24,24,27,9,11,67,,70,70,14,19,8,17,0.9,0.8
2025-05-28T2100,1889A,101.5769,26.5928,攀枝花市,河门口,,17,11,24,8,18,52,,66,65,15,18,6,11,0.7,1.2
2025-05-28T2100,1890A,101.7169,26.585,攀枝花市,炳草岗,,30,26,26,21,11,25,,59,53,48,25,11,13,1.6,0.8
2025-05-28T2100,1891A,101.7369,26.5008,攀枝花市,仁和,,15,12,18,8,13,47,,68,64,17,15,7,9,0.7,0.8
2025-05-28T2100,2835A,101.7227,26.567,攀枝花市,四十中小,,20,20,22,11,13,52,,79,66,37,19,15,38,1.7,0.9
2025-05-28T2100,1604A,122.0303,41.1489,盘锦市,开发区,臭氧1小时,74,,37,29,35,179,,190,186,12,22,11,12,0.9,1
2025-05-28T2100,1605A,122.0485,41.0883,盘锦市,兴隆台,臭氧1小时,54,,41,36,35,163,,178,175,15,22,7,10,0.5,0.7
2025-05-28T2100,1606A,121.8297,41.1028,盘锦市,新生街道,臭氧1小时,80,,27,33,27,184,,168,168,17,28,8,9,0.4,0.4
2025-05-28T2100,1832A,113.3257,33.742,平顶山市,新华旅馆,颗粒物(PM10),101,151,137,37,49,140,,207,194,37,29,6,7,0.5,0.6
2025-05-28T2100,1833A,113.2919,33.737,平顶山市,规划设计院,颗粒物(PM10),83,115,113,57,53,141,,202,190,36,30,5,6,0.9,0.9
2025-05-28T2100,1834A,113.182,33.774,平顶山市,平顶山工学院,颗粒物(PM10),73,95,98,34,41,177,,216,208,20,22,5,6,0.5,0.5
2025-05-28T2100,3204A,113.3025,33.73,平顶山市,规划局,颗粒物(PM10),114,178,132,43,48,154,,203,196,27,28,7,6,0.6,0.6
2025-05-28T2100,3594A,112.8867,33.9116,平顶山市,石龙区,颗粒物(PM10),76,102,157,38,42,165,,202,197,20,49,9,14,0.6,0.7
2025-05-28T2100,2656A,106.6692,35.5461,平凉市,聚贤嘉苑,,,,,,,,,,,,,,,,
2025-05-28T2100,2657A,106.7021,35.5307,平凉市,博物馆,,,,112,25,21,132,,127,127,14,18,11,10,0.7,0.7
2025-05-28T2100,2347A,114.0997,27.5002,萍乡市,武功山,,24,6,6,3,3,75,,79,79,4,4,9,9,0.3,0.3
2025-05-28T2100,2348A,113.8385,27.6434,萍乡市,中医院,,42,42,24,20,18,100,,102,102,6,8,24,11,0.5,0.7
2025-05-28T2100,2349A,113.8493,27.6253,萍乡市,市政府车库,,35,,17,24,22,82,,89,89,11,9,8,6,1.3,0.7
2025-05-28T2100,2350A,113.8676,27.6435,萍乡市,市环保局,,29,20,20,14,18,90,,93,93,4,6,6,7,0.5,0.7
2025-05-28T2100,2351A,113.866,27.6198,萍乡市,安源区政府,,26,20,20,17,12,83,,87,87,8,10,2,3,0.5,1.2
2025-05-28T2100,2319A,119.0141,25.4325,莆田市,荔城区仓后路,,17,13,16,10,6,52,,78,70,20,10,3,3,0.5,0.5
2025-05-28T2100,2320A,119.0015,25.4553,莆田市,莆田市监测站,,21,14,17,3,4,66,,76,74,10,8,3,3,0.5,0.4
2025-05-28T2100,2321A,119.1119,25.4561,莆田市,涵江区六中,,22,15,18,8,8,41,,88,72,43,13,3,2,0.6,0.5
2025-05-28T2100,2322A,119.1013,25.3215,莆田市,秀屿区政府,,26,10,18,3,5,83,,89,87,13,10,4,4,0.6,0.5
2025-05-28T2100,2323A,118.981,25.4792,莆田市,东圳水库,,,,,,,,,,,,,,,,
2025-05-28T2100,2392A,115.0312,35.7636,濮阳市,环保局,,,,61,,40,,,228,224,20,23,5,6,0.7,0.7
2025-05-28T2100,2394A,115.0574,35.7609,濮阳市,油田运输公司,颗粒物(PM10),59,67,72,28,39,147,,220,206,31,21,6,7,0.7,0.7
2025-05-28T2100,3021A,115,35.7668,濮阳市,濮水河管理处,颗粒物(PM10),52,53,64,28,39,138,,213,198,35,21,5,6,0.8,0.8
2025-05-28T2100,4216A,115.0924,35.7686,濮阳市,任丘路479号,颗粒物(PM10),56,62,74,35,41,144,,221,206,28,20,7,8,0.8,0.8
2025-05-28T2100,2601A,100.98,22.7633,普洱市,市环保局,,,22,22,11,14,,,44,41,7,3,4,3,0.5,0.6
2025-05-28T2100,2602A,100.9817,22.8322,普洱市,普洱第二中学,,23,,14,16,10,20,,46,39,12,8,5,5,0.7,0.5
2025-05-28T2100,2262A,131.0518,45.8751,七台河市,新一中,颗粒物(PM10),54,58,26,23,16,75,,142,120,21,13,12,9,0.8,0.8
2025-05-28T2100,3345A,131.0577,45.7879,七台河市,中波台,,47,47,29,8,8,74,,114,91,22,22,5,7,0.4,0.4
2025-05-28T2100,3637A,131.0176,45.7761,七台河市,人民广场,,49,49,49,33,28,69,,117,98,24,22,11,11,0.6,0.6
2025-05-28T2100,3684A,130.8781,45.8222,七台河市,新建矿广场,,44,44,55,27,17,66,,118,96,21,20,11,12,0.5,0.4
2025-05-28T2100,1779A,123.9305,47.3636,齐齐哈尔市,安居小区,,46,46,74,26,33,137,,167,158,17,19,4,6,0.5,0.6
2025-05-28T2100,1780A,123.9488,47.3386,齐齐哈尔市,中心广场,颗粒物(PM10),60,69,92,19,34,142,,176,166,20,18,6,8,0.5,0.6
2025-05-28T2100,1781A,123.9483,47.3227,齐齐哈尔市,农牧车辆厂,,48,48,87,19,27,141,,165,160,9,13,6,7,0.1,0.2
2025-05-28T2100,1783A,123.945,47.2988,齐齐哈尔市,市环境监测站,,47,47,64,21,31,143,,173,165,9,11,3,4,0.3,0.3
2025-05-28T2100,3662A,123.6333,47.2075,齐齐哈尔市,富区青少年活动中心,颗粒物(PM10),55,59,81,36,47,134,,160,155,10,10,4,4,0.4,0.5
2025-05-28T2100,2591A,107.9783,26.5747,黔东南苗族侗族自治州,市环境监测站,,20,8,10,6,7,62,,61,61,5,7,2,1,0.5,0.5
2025-05-28T2100,2881A,107.8908,26.5311,黔东南苗族侗族自治州,凯里学院,,18,,2,7,7,55,,64,62,7,7,3,2,0.4,0.4
2025-05-28T2100,2593A,107.5228,26.2403,黔南布依族苗族自治州,小围寨,,12,7,3,3,1,38,,40,40,4,5,1,8,0.4,0.4
2025-05-28T2100,3538A,107.5175,26.2978,黔南布依族苗族自治州,沙坝,,15,7,6,3,1,45,,52,52,4,5,4,3,0.3,0.4
2025-05-28T2100,2589A,104.9022,25.0925,黔西南布依族苗族自治州,场坝街,,25,25,16,3,8,66,,67,67,16,13,2,2,0.4,0.3
2025-05-28T2100,2590A,104.8811,25.0992,黔西南布依族苗族自治州,坪东大道,,17,17,18,3,8,43,,58,55,20,12,1,2,0.2,0.1
2025-05-28T2100,2502A,108.6236,21.9667,钦州市,市环保站,,24,24,38,7,15,61,,86,78,13,12,5,6,0.5,0.6
2025-05-28T2100,2503A,108.6549,21.9481,钦州市,沙埠小学,,25,25,49,17,23,56,,87,78,20,21,5,7,0.4,0.5
2025-05-28T2100,2504A,108.5989,21.7431,钦州市,港区一小,,45,45,54,16,21,74,,82,79,23,17,7,10,0.5,0.6
2025-05-28T2100,3404A,108.5959,21.9633,钦州市,北职校,,26,26,35,15,21,55,,82,74,14,11,6,8,0.6,0.7
2025-05-28T2100,1043A,119.7493,40.0116,秦皇岛市,第一关,颗粒物(PM10),74,97,68,30,50,127,,166,157,17,20,4,4,0.2,0.3
2025-05-28T2100,1044A,119.5897,39.9499,秦皇岛市,监测站,,48,48,77,21,37,121,,168,158,31,20,4,4,0.4,0.5
2025-05-28T2100,1046A,119.5251,39.9041,秦皇岛市,建设大厦,,42,42,68,16,38,127,,165,157,22,15,3,3,0.3,0.5
2025-05-28T2100,3132A,119.610547,39.943889,秦皇岛市,文明里,颗粒物(PM10),57,63,77,20,37,123,,164,156,28,17,3,3,0.2,0.3
2025-05-28T2100,4198A,119.5090,39.8253,秦皇岛市,北戴河轮滑馆,,,34,66,34,47,,,162,160,6,17,3,4,0.2,0.4
2025-05-28T2100,1307A,120.6659,36.2403,青岛市,仰口,,40,19,27,14,23,128,,164,135,6,6,8,8,0.4,0.4
2025-05-28T2100,1310A,120.4134,36.0658,青岛市,市南区东部子站,,35,14,22,7,12,112,,127,122,14,9,8,8,0.3,0.3
2025-05-28T2100,1311A,120.3664,36.1032,青岛市,四方区子站,,39,17,20,14,16,122,,146,136,18,14,4,4,0.5,0.5
2025-05-28T2100,1312A,120.2994,36.054,青岛市,市南区西部子站,,36,22,24,10,14,114,,112,112,14,18,7,8,0.6,0.6
2025-05-28T2100,1313A,120.4581,36.0858,青岛市,崂山区子站,,37,12,18,12,12,118,,125,124,10,10,7,7,0.5,0.4
2025-05-28T2100,1315A,120.3999,36.3083,青岛市,城阳区子站,,35,19,22,12,11,109,,127,121,19,14,5,5,0.4,0.4
2025-05-28T2100,1966A,120.0405,35.8735,青岛市,黄岛区4号,,44,24,21,7,12,139,,136,135,8,10,8,8,0.5,0.5
2025-05-28T2100,3362A,120.5014,36.4034,青岛市,即墨2号,,38,27,30,13,15,120,,143,137,12,10,7,7,0.5,0.6
2025-05-28T2100,3642A,120.3503,36.0736,青岛市,市北区南部,,33,18,25,12,14,104,,121,116,14,11,8,8,0.4,0.4
2025-05-28T2100,3643A,120.3948,36.1805,青岛市,李沧区北部,,34,24,25,19,18,107,,128,122,23,19,7,7,0.5,0.5
2025-05-28T2100,4290A,120.1969,35.9546,青岛市,珠江路669号,,36,17,18,12,14,115,,125,123,13,6,6,7,0.5,0.5
2025-05-28T2100,1702A,113.0426,23.691,清远市,环保大楼,颗粒物(PM10),71,92,62,50,44,74,,107,104,20,21,7,11,1.0,0.9
2025-05-28T2100,1703A,113.0208,23.7106,清远市,凤城街办,颗粒物(PM10),61,71,54,40,35,64,,101,97,30,26,9,11,0.8,0.7
2025-05-28T2100,3025A,113.0477,23.6344,清远市,技师学院,,,,58,,38,,,88,88,22,26,7,12,0.6,1
2025-05-28T2100,3318A,112.9903,23.7403,清远市,清新太和,细颗粒物(PM2.5),59,58,52,42,33,62,,86,80,18,20,8,10,0.7,0.7
2025-05-28T2100,3455A,113.076,23.7198,清远市,清城东城,细颗粒物(PM2.5),77,86,56,56,39,61,,100,93,17,19,8,10,0.6,0.6
2025-05-28T2100,2661A,107.6325,35.7357,庆阳市,庆阳五中,,41,39,45,18,22,130,,141,140,13,11,4,4,0.4,0.4
2025-05-28T2100,2662A,107.6364,35.7067,庆阳市,市环保局,,42,39,46,16,19,133,,146,144,9,7,9,9,0.5,0.5
2025-05-28T2100,1916A,103.7897,25.5035,曲靖市,环境监测站,,,16,16,,7,,,71,60,22,13,4,5,0.7,0.6
2025-05-28T2100,1917A,103.8,25.5364,曲靖市,烟厂办公区,,30,,13,21,9,52,,79,65,24,11,3,4,0.8,0.7
2025-05-28T2100,3376A,103.7947,25.462,曲靖市,南苑二区,,20,17,14,8,7,62,,76,67,17,14,3,4,0.6,0.6
2025-05-28T2100,3377A,103.7444,25.5261,曲靖市,曲靖师范学院,,18,18,11,11,6,53,,82,68,20,20,7,6,0.8,0.6
2025-05-28T2100,1264A,118.8692,28.9398,衢州市,环保大楼,,35,29,51,24,37,91,,94,94,13,21,3,4,0.3,0.5
2025-05-28T2100,1265A,118.8709,28.9666,衢州市,实验学校,,31,27,47,19,33,98,,101,101,13,18,1,3,0.3,0.4
2025-05-28T2100,1266A,118.8621,28.9808,衢州市,衢州学院,,32,27,47,22,35,88,,91,91,14,18,6,6,0.4,0.5
2025-05-28T2100,1611A,118.5819,24.9117,泉州市,涂山街,,25,,17,3,12,78,,90,88,12,10,3,3,0.7,0.6
2025-05-28T2100,1612A,118.5972,24.8978,泉州市,津头埔,,23,,17,6,11,73,,93,85,19,12,2,2,0.6,0.5
2025-05-28T2100,1613A,118.6663,24.9424,泉州市,万安,,25,7,19,3,11,77,,92,86,9,7,3,3,0.5,0.5
2025-05-28T2100,1614A,118.6117,24.9604,泉州市,清源山,,,,,,,,,,,,,,,,
2025-05-28T2100,3529A,118.6333,24.9264,泉州市,城华南路,,20,6,17,3,9,62,,74,71,16,10,2,2,0.5,0.5
2025-05-28T2100,2626A,88.8876,29.2718,日喀则市,日喀则监测站,,34,23,16,7,7,108,,117,116,8,11,16,14,0.2,0.2
2025-05-28T2100,3726A,88.8781,29.2426,日喀则市,林业技术推广中心,,34,20,17,3,4,106,,118,117,4,6,7,7,0.5,0.5
2025-05-28T2100,1659A,119.471,35.4209,日照市,监测站,,40,27,30,17,17,127,,138,135,17,25,6,7,0.4,0.5
2025-05-28T2100,1660A,119.523,35.4216,日照市,市政府广场,,37,22,23,15,12,118,,123,123,10,8,4,4,0.5,0.5
2025-05-28T2100,1661A,119.5587,35.4044,日照市,港务局,,43,27,25,22,22,136,,134,134,10,9,7,7,0.4,0.4
2025-05-28T2100,3507A,119.5328,35.4625,日照市,职业技术学院,,41,27,28,9,11,130,,141,137,13,11,4,5,0.5,0.5
2025-05-28T2100,3604A,119.3266,35.1044,日照市,岚山环保分局,,45,31,35,17,17,141,,142,131,16,18,5,8,0.6,0.6
2025-05-28T2100,1835A,111.1922,34.7752,三门峡市,市政府,臭氧1小时,106,81,66,41,43,211,,197,197,15,17,6,7,0.6,0.6
2025-05-28T2100,1836A,111.1587,34.7942,三门峡市,开发区,,,81,72,43,43,,,187,187,21,18,8,8,0.6,0.6
2025-05-28T2100,1838A,111.143,34.7955,三门峡市,风景区,臭氧1小时,111,70,67,37,35,221,,202,202,14,12,11,11,0.5,0.5
2025-05-28T2100,3039A,111.1911,34.7829,三门峡市,三门峡市第一小学,臭氧1小时,111,78,70,40,37,221,,202,202,17,19,6,11,0.6,0.6
2025-05-28T2100,3598A,111.1,34.7167,三门峡市,富达温泉假日酒店,臭氧1小时,110,82,75,42,41,219,,199,199,13,16,7,8,0.4,0.5
2025-05-28T2100,2324A,117.6211,26.2625,三明市,三钢,,17,9,17,3,10,53,,64,59,13,15,2,3,0.8,0.8
2025-05-28T2100,2325A,117.635,26.2714,三明市,三明二中,,18,,16,7,14,56,,63,58,9,13,3,4,1.2,1.2
2025-05-28T2100,2326A,117.6028,26.2378,三明市,三元区政府,,,12,23,9,14,,,69,63,11,18,3,3,1.3,0.7
2025-05-28T2100,2327A,117.7275,26.3108,三明市,洋溪,,,,,,,,,,,,,,,,
2025-05-28T2100,1876A,109.5078,18.2489,三亚市,河东子站,,28,28,13,19,9,37,,58,43,3,2,4,3,0.5,0.6
