timepoint,stationcode,longitude,latitude,area,positionname,primarypollutant,aqi,pm10,pm10_24h,pm2_5,pm2_5_24h,o3,o3_24h,o3_8h,o3_8h_24h,no2,no2_24h,so2,so2_24h,co,co_24h
2025-02-28T0000,2566A,102.1879,31.914,阿坝藏族羌族自治州,州农科所,,21,21,38,9,14,61,,96,75,12,12,9,9,0,0
2025-02-28T0000,2568A,102.2502,31.8896,阿坝藏族羌族自治州,马师校,,26,22,18,18,13,38,,94,62,24,14,4,4,0.3,0.3
2025-02-28T0000,3994A,102.2165,31.9024,阿坝藏族羌族自治州,马尔康中学西区,,20,20,16,14,11,52,,95,72,18,13,5,5,0.4,0.4
2025-02-28T0000,2695A,80.292,41.1694,阿克苏地区,电视台,颗粒物(PM10),276,403,242,179,88,6,,96,65,110,41,13,6,3.4,0.8
2025-02-28T0000,2696A,80.2613,41.1551,阿克苏地区,艺术中心,颗粒物(PM10),179,308,258,113,87,5,,93,62,113,42,11,7,0.6,0.6
2025-02-28T0000,2204A,105.6467,38.8363,阿拉善盟,西城区西花园,,38,38,45,15,16,91,,114,97,12,14,11,11,0.8,0.8
2025-02-28T0000,2205A,105.6985,38.8411,阿拉善盟,蒙二幼,,27,18,35,3,13,86,,108,93,10,12,5,6,0.5,0.6
2025-02-28T0000,2206A,105.724,38.8516,阿拉善盟,环保局新楼,,31,10,27,3,11,99,,109,102,3,5,7,7,0.5,0.5
2025-02-28T0000,2708A,88.1264,47.8517,阿勒泰地区,市站,细颗粒物(PM2.5),70,77,48,51,27,99,,94,94,12,18,3,4,0.9,0.7
2025-02-28T0000,2630A,80.1161,32.5,阿里地区,阿里监测站,,29,7,7,3,3,92,,87,87,1,2,8,7,0.5,0.5
2025-02-28T0000,3192A,80.0903,32.5028,阿里地区,阿里藏医院,,28,10,10,3,2,89,,90,87,2,2,25,7,0.4,0.4
2025-02-28T0000,2642A,109.0318,32.6537,安康市,香溪洞,,45,39,37,31,28,60,,92,80,20,14,11,5,0.8,0.7
2025-02-28T0000,2644A,109.0072,32.6975,安康市,汉滨区检察院,,47,47,43,29,30,36,,85,57,34,25,6,8,0.6,0.6
2025-02-28T0000,4054A,109.0325,32.6913,安康市,市邮政管理局,细颗粒物(PM2.5),58,64,50,41,32,15,,82,40,45,28,6,7,0.9,0.8
2025-02-28T0000,2291A,117.0809,30.5177,安庆市,环科院,细颗粒物(PM2.5),57,,57,40,52,16,,65,41,41,28,6,6,0.9,0.8
2025-02-28T0000,2292A,117.0331,30.5119,安庆市,马山宾馆,细颗粒物(PM2.5),62,,54,44,52,36,,69,36,29,35,9,8,0.8,0.8
2025-02-28T0000,2294A,116.9896,30.6145,安庆市,安庆大学,细颗粒物(PM2.5),52,45,61,36,46,34,,80,52,22,18,7,8,0.7,0.8
2025-02-28T0000,3173A,117.0598,30.5351,安庆市,市人大,细颗粒物(PM2.5),60,44,53,43,52,26,,72,47,30,21,7,7,0.8,0.8
2025-02-28T0000,3122A,105.9606,26.2611,安顺市,伍家关,,,,24,,21,,,56,,,10,,14,,0.7
2025-02-28T0000,3123A,105.9408,26.2431,安顺市,凤凰山,,25,25,29,15,19,62,,80,75,12,13,19,20,0.4,0.4
2025-02-28T0000,3124A,105.9439,26.2564,安顺市,金钟山,,24,24,25,16,20,64,,84,78,10,9,16,15,0.8,0.8
2025-02-28T0000,3125A,105.8983,26.2481,安顺市,娄家坡,,23,19,24,14,20,71,,82,78,5,8,6,7,0.7,0.7
2025-02-28T0000,1818A,114.4839,36.0621,安阳市,棉研所,,,,,,,,,,,,,,,,
2025-02-28T0000,1819A,114.3551,36.1017,安阳市,红庙街,细颗粒物(PM2.5),145,136,117,111,86,40,,120,87,50,29,6,8,0.7,0.7
2025-02-28T0000,1820A,114.361,36.0681,安阳市,银杏小区,细颗粒物(PM2.5),150,131,104,115,97,37,,130,91,55,30,6,8,0.8,0.8
2025-02-28T0000,3141A,114.3922,36.0878,安阳市,信访局,细颗粒物(PM2.5),156,144,111,119,95,54,,138,102,46,30,4,6,1.0,0.8
2025-02-28T0000,3669A,114.4705,36.0637,安阳市,左辅环卫站,细颗粒物(PM2.5),163,164,129,124,96,58,,127,96,51,30,4,5,0.7,0.6
2025-02-28T0000,3703A,114.2917,36.0949,安阳市,安钢职工学校,细颗粒物(PM2.5),169,151,125,128,103,32,,122,88,55,34,6,8,0.8,0.9
2025-02-28T0000,1748A,123.044,41.1196,鞍山市,深沟寺,细颗粒物(PM2.5),138,131,112,105,81,138,,126,126,15,19,10,14,0.9,0.8
2025-02-28T0000,1749A,123.011,41.0931,鞍山市,太阳城,细颗粒物(PM2.5),134,136,115,102,77,137,,121,121,13,18,7,10,1.0,0.9
2025-02-28T0000,1750A,123.0485,41.1442,鞍山市,太平,细颗粒物(PM2.5),134,148,133,102,78,144,,124,124,19,25,9,12,0.9,0.9
2025-02-28T0000,1751A,122.9642,41.0971,鞍山市,铁西三道街,细颗粒物(PM2.5),145,155,145,111,90,110,,116,103,53,41,58,39,1.0,1.2
2025-02-28T0000,1753A,123.022,41.0821,鞍山市,明达新区,细颗粒物(PM2.5),148,145,133,113,90,140,,124,124,17,21,8,12,0.7,0.7
2025-02-28T0000,1754A,123.1289,41.0228,鞍山市,千山,,,,90,,49,,,108,,,14,,6,,0.5
2025-02-28T0000,4201A,122.9446,41.0826,鞍山市,兴盛南路290号,细颗粒物(PM2.5),159,169,159,121,99,124,,114,114,31,30,15,17,1.4,1.3
2025-02-28T0000,2195A,107.4212,40.761,巴彦淖尔市,附二中,颗粒物(PM10),72,94,91,40,31,34,,95,77,44,28,8,9,0.6,0.6
2025-02-28T0000,2196A,107.37,40.7372,巴彦淖尔市,市环保大楼,颗粒物(PM10),74,98,85,46,29,51,,100,77,26,25,4,4,0.4,0.4
2025-02-28T0000,1956A,86.1472,41.7538,巴音郭楞蒙古自治州,孔雀公园,颗粒物(PM10),148,245,338,53,61,39,,78,61,51,31,6,7,0.7,0.6
2025-02-28T0000,1957A,86.1972,41.7166,巴音郭楞蒙古自治州,棉纺厂,颗粒物(PM10),229,370,404,57,55,72,,81,70,18,32,4,4,0.5,0.5
2025-02-28T0000,1958A,86.2357,41.7173,巴音郭楞蒙古自治州,经济开发区,颗粒物(PM10),174,297,343,47,49,82,,87,86,7,12,5,5,0.4,0.4
2025-02-28T0000,2914A,106.7677,31.8794,巴中市,苏山坪,细颗粒物(PM2.5),53,48,54,37,42,78,,90,88,15,17,5,5,0.4,0.5
2025-02-28T0000,3181A,106.7768,31.8526,巴中市,市五中,细颗粒物(PM2.5),72,76,66,52,48,6,,79,40,49,35,4,4,1.0,0.9
2025-02-28T0000,3183A,106.7418,31.8654,巴中市,圣泉水务公司,细颗粒物(PM2.5),62,57,52,44,42,22,,83,52,46,32,6,6,0.6,0.6
2025-02-28T0000,3616A,106.7616,31.8344,巴中市,市中心医院,细颗粒物(PM2.5),85,72,63,63,54,18,,85,55,44,32,6,6,0.7,0.7
2025-02-28T0000,2235A,122.7911,45.6077,白城市,洮北区环保局,颗粒物(PM10),63,76,47,37,18,60,,83,69,12,11,6,5,0.8,0.7
2025-02-28T0000,2236A,122.8738,45.5725,白城市,市环保局,颗粒物(PM10),59,68,52,31,18,45,,91,60,32,18,9,6,0.6,0.5
2025-02-28T0000,2231A,126.4219,41.9171,白山市,喜丰,细颗粒物(PM2.5),82,88,86,60,36,131,,132,131,15,29,6,13,0.8,0.9
2025-02-28T0000,2232A,126.4077,41.9419,白山市,环保局,细颗粒物(PM2.5),85,82,75,63,40,127,,132,129,20,39,10,13,0.8,1
2025-02-28T0000,2647A,104.1724,36.5446,白银市,第三小学,颗粒物(PM10),71,92,74,28,40,43,,91,69,41,41,32,58,0.8,1
2025-02-28T0000,2648A,104.1465,36.5482,白银市,动力公司,颗粒物(PM10),52,54,61,21,35,51,,100,79,26,29,4,24,0.5,0.8
2025-02-28T0000,2512A,106.6103,23.9011,百色市,市监测站,细颗粒物(PM2.5),69,65,48,50,39,4,,25,12,35,24,12,16,1.6,1.2
2025-02-28T0000,2513A,106.6538,23.8859,百色市,市中心血站,细颗粒物(PM2.5),78,67,53,57,49,4,,23,10,31,23,11,15,1.3,1.2
2025-02-28T0000,3406A,106.6085,23.8798,百色市,祈福高中,细颗粒物(PM2.5),68,72,54,49,38,5,,24,10,38,24,14,11,1.1,1.1
2025-02-28T0000,2270A,117.396,32.939,蚌埠市,工人疗养院,细颗粒物(PM2.5),114,115,91,86,65,52,,127,96,59,28,5,6,0.9,0.8
2025-02-28T0000,2271A,117.3605,32.9427,蚌埠市,百货大楼,细颗粒物(PM2.5),100,99,91,75,61,28,,117,70,90,37,6,7,0.9,0.8
2025-02-28T0000,2273A,117.4185,32.8911,蚌埠市,蚌埠学院,细颗粒物(PM2.5),110,85,83,83,68,72,,126,103,38,26,6,6,0.6,0.6
2025-02-28T0000,2274A,117.3533,32.9673,蚌埠市,淮上区政府,细颗粒物(PM2.5),122,117,92,92,72,32,,121,78,80,33,7,8,0.9,0.8
2025-02-28T0000,2275A,117.3145,32.8977,蚌埠市,高新区,细颗粒物(PM2.5),78,66,81,57,65,87,,119,90,26,30,9,10,0.8,0.8
2025-02-28T0000,3715A,117.3092,32.9314,蚌埠市,蚌埠田家炳中学,细颗粒物(PM2.5),72,69,91,52,66,87,,123,91,32,35,6,8,0.8,0.8
2025-02-28T0000,1585A,109.8756,40.6532,包头市,市环境监测站,颗粒物(PM10),65,80,95,26,43,7,,100,55,93,54,11,24,0.9,1.2
2025-02-28T0000,1587A,109.9991,40.5842,包头市,包头八中,颗粒物(PM10),68,86,126,33,58,20,,98,55,77,58,10,31,0.7,1.7
2025-02-28T0000,1588A,109.8538,40.6821,包头市,青山宾馆,颗粒物(PM10),56,61,87,31,40,35,,96,66,47,41,9,20,0.7,1.1
2025-02-28T0000,1589A,109.8642,40.6288,包头市,惠龙物流,颗粒物(PM10),60,69,95,26,40,22,,105,67,75,53,8,19,0.8,1.2
2025-02-28T0000,1590A,110.0377,40.5546,包头市,东河鸿龙湾,颗粒物(PM10),77,103,128,43,53,12,,100,60,78,54,8,15,1.2,1.4
2025-02-28T0000,3283A,109.9154,40.5685,包头市,滨河大厦,颗粒物(PM10),60,70,104,34,46,30,,103,59,58,57,10,19,0.7,1.1
2025-02-28T0000,3419A,109.9447,40.6261,包头市,包头市委党校,颗粒物(PM10),62,74,102,33,45,50,,101,62,42,54,7,21,0.5,1.2
2025-02-28T0000,3683A,109.8331,40.6576,包头市,昆区政府,颗粒物(PM10),56,62,94,24,42,31,,96,69,60,42,9,24,0.8,1.3
2025-02-28T0000,1930A,107.185,34.3063,宝鸡市,庙沟村,,42,,28,29,24,56,,91,78,31,12,6,6,0.7,0.7
2025-02-28T0000,1931A,107.0708,34.3017,宝鸡市,竹园沟,,30,27,35,21,27,40,,92,59,26,19,6,6,0.4,0.5
2025-02-28T0000,1932A,107.1906,34.3672,宝鸡市,三陆医院,细颗粒物(PM2.5),78,,77,57,53,29,,87,51,37,45,6,7,0.8,0.8
2025-02-28T0000,1933A,107.1431,34.3547,宝鸡市,监测站,细颗粒物(PM2.5),52,43,61,36,39,21,,87,54,39,31,7,8,0.6,0.6
2025-02-28T0000,1934A,107.1186,34.3739,宝鸡市,技工学校,细颗粒物(PM2.5),67,68,63,48,42,36,,79,55,29,32,6,7,0.6,0.7
2025-02-28T0000,1935A,107.3906,34.3528,宝鸡市,陈仓区环保局家属楼,细颗粒物(PM2.5),104,81,72,78,58,14,,88,46,58,47,8,8,0.9,0.8
2025-02-28T0000,1936A,107.2058,34.3497,宝鸡市,文理学院,细颗粒物(PM2.5),69,58,64,50,45,30,,90,57,43,40,7,7,0.5,0.6
2025-02-28T0000,1937A,107.2386,34.3622,宝鸡市,三迪小学,,,42,74,,93,16,,82,44,51,44,6,7,0.8,0.8
2025-02-28T0000,1051A,115.493,38.8632,保定市,游泳馆,细颗粒物(PM2.5),206,197,148,156,108,24,,88,59,108,74,12,16,0.8,0.8
2025-02-28T0000,1052A,115.5213,38.8959,保定市,华电二区,细颗粒物(PM2.5),195,172,127,146,102,32,,94,71,83,73,11,14,1.1,1.1
2025-02-28T0000,1053A,115.4713,38.9108,保定市,接待中心,细颗粒物(PM2.5),212,177,144,162,107,53,,93,76,72,71,16,14,1.1,1
2025-02-28T0000,1054A,115.4612,38.8416,保定市,地表水厂,细颗粒物(PM2.5),213,227,162,163,106,50,,94,72,92,80,14,12,1.0,0.9
2025-02-28T0000,3581A,115.31981,38.95208,保定市,满城区生态环境分局,细颗粒物(PM2.5),216,222,165,166,101,22,,95,61,100,78,14,16,1.4,1
2025-02-28T0000,3582A,115.47694,38.76408,保定市,清苑区第二中学,细颗粒物(PM2.5),204,221,175,154,109,21,,96,82,116,84,18,16,1.0,0.9
2025-02-28T0000,3583A,115.62909,39.02311,保定市,徐水物探局,细颗粒物(PM2.5),206,222,148,156,99,15,,90,63,130,78,20,21,0.9,0.8
2025-02-28T0000,4004A,115.4202,38.8656,保定市,双鹰农机,细颗粒物(PM2.5),216,199,141,166,98,34,,99,79,96,69,18,13,1.1,1
2025-02-28T0000,4034A,115.5150,38.8590,保定市,植保所站,细颗粒物(PM2.5),210,193,151,160,104,24,,89,66,102,77,12,12,1.4,0.9
2025-02-28T0000,2594A,99.1678,25.1081,保山市,市环境监测站,,46,40,32,32,19,94,,109,101,7,10,4,4,0.4,0.4
2025-02-28T0000,2595A,99.1711,25.1328,保山市,市环保局,,44,44,34,30,20,102,,110,106,5,8,6,5,0.4,0.4
2025-02-28T0000,1866A,109.2262,21.588,北海市,牛尾岭水库,,,,40,,35,,,35,,,14,,6,,0.6
2025-02-28T0000,1867A,109.1436,21.4086,北海市,海滩公园,,49,,66,34,46,98,,94,82,10,22,6,7,0.9,1
2025-02-28T0000,1868A,109.0981,21.4661,北海市,新市环保局,,49,47,61,34,36,88,,84,76,17,24,6,6,0.6,0.9
2025-02-28T0000,1869A,109.1778,21.5233,北海市,北海工业园,,49,39,74,34,41,93,,97,86,12,19,7,8,0.6,0.9
2025-02-28T0000,3400A,109.1911,21.4415,北海市,龙潭自来水厂,,35,33,53,24,49,78,,91,86,16,18,6,7,0.6,0.9
2025-02-28T0000,1001A,116.3621,39.8784,北京市,万寿西宫,细颗粒物(PM2.5),199,235,147,149,90,10,,93,62,142,81,8,10,1.5,1.1
2025-02-28T0000,1002A,116.2202,40.2915,北京市,定陵,,,,,,,,,,,,,,,,
2025-02-28T0000,1003A,116.4174,39.9289,北京市,东四,细颗粒物(PM2.5),180,187,138,136,86,9,,94,69,135,74,11,12,2.2,1.2
2025-02-28T0000,1004A,116.4072,39.8863,北京市,天坛,细颗粒物(PM2.5),178,183,134,134,85,10,,82,52,95,68,3,9,1.7,1.2
2025-02-28T0000,1005A,116.462,39.9365,北京市,农展馆,细颗粒物(PM2.5),168,189,137,127,85,8,,98,64,127,80,7,12,1.6,1
2025-02-28T0000,1006A,116.3392,39.9295,北京市,官园,细颗粒物(PM2.5),145,170,139,111,84,7,,83,58,117,69,14,14,1.4,1.1
2025-02-28T0000,1007A,116.2878,39.9611,北京市,海淀万柳,细颗粒物(PM2.5),142,174,132,108,76,6,,76,42,119,69,8,9,1.6,1.1
2025-02-28T0000,1008A,116.6636,40.135,北京市,顺义新城,细颗粒物(PM2.5),169,194,130,128,77,28,,93,72,100,59,8,10,0.9,0.7
2025-02-28T0000,1009A,116.6275,40.3275,北京市,怀柔镇,细颗粒物(PM2.5),134,144,108,102,68,75,,96,83,34,40,8,8,1.0,0.8
2025-02-28T0000,1010A,116.2296,40.217,北京市,昌平镇,细颗粒物(PM2.5),155,173,129,118,81,34,,82,67,67,51,5,6,1.2,0.9
2025-02-28T0000,1011A,116.3966,39.9821,北京市,奥体中心,细颗粒物(PM2.5),153,188,133,117,77,2,,85,48,139,75,12,11,1.7,1.2
2025-02-28T0000,3281A,115.9718,40.4529,北京市,延庆夏都,细颗粒物(PM2.5),123,142,102,93,58,37,,79,62,40,40,6,8,1.0,0.8
2025-02-28T0000,3418A,116.8336,40.4095,北京市,密云新城,细颗粒物(PM2.5),158,178,119,120,70,44,,96,63,45,46,6,8,1.0,0.7
2025-02-28T0000,3671A,116.088,39.9726,北京市,门头沟三家店,细颗粒物(PM2.5),129,148,119,98,69,43,,76,48,52,56,7,7,0.8,0.7
2025-02-28T0000,3672A,116.1541,39.8204,北京市,丰台云岗,细颗粒物(PM2.5),134,189,136,102,82,37,,97,65,86,67,10,10,1.1,0.9
2025-02-28T0000,3673A,116.6804,39.9081,北京市,通州东关,细颗粒物(PM2.5),188,211,162,141,98,3,,84,44,147,95,9,13,1.1,1.1
2025-02-28T0000,3674A,115.9577,39.7603,北京市,房山燕山,细颗粒物(PM2.5),142,150,117,108,77,61,,95,84,35,42,8,8,1.0,0.8
2025-02-28T0000,3675A,116.4672,39.7733,北京市,大兴旧宫,细颗粒物(PM2.5),169,190,151,128,92,27,,78,58,50,68,1,6,0.9,0.9
2025-02-28T0000,3694A,115.986,40.4563,北京市,延庆石河营,细颗粒物(PM2.5),118,135,101,89,56,56,,80,68,35,42,6,6,1.0,0.8
2025-02-28T0000,3695A,116.6151,40.3053,北京市,怀柔新城,细颗粒物(PM2.5),132,143,106,100,69,82,,98,87,28,32,10,9,1.1,0.9
2025-02-28T0000,3696A,116.2545,39.8768,北京市,丰台小屯,细颗粒物(PM2.5),160,221,142,122,80,2,,84,42,147,90,5,8,1.4,1
2025-02-28T0000,3697A,116.84,40.3844,北京市,密云镇,细颗粒物(PM2.5),160,193,125,122,72,9,,92,44,86,59,4,6,1.2,0.9
2025-02-28T0000,4182A,116.1942,39.9158,北京市,八角北路9号,颗粒物(PM10),144,238,179,98,79,47,,92,60,65,66,6,7,1.0,0.8
2025-02-28T0000,4194A,117.0790,40.1518,北京市,洳河巡河路,细颗粒物(PM2.5),182,170,126,137,92,57,,103,78,31,36,5,7,0.7,0.5
2025-02-28T0000,1761A,123.8275,41.3064,本溪市,大峪,细颗粒物(PM2.5),112,112,104,84,58,137,,139,139,16,19,9,12,0.9,0.8
2025-02-28T0000,1762A,123.7567,41.3325,本溪市,溪湖,细颗粒物(PM2.5),133,140,119,101,74,124,,118,118,25,27,14,14,1.5,1.2
2025-02-28T0000,1763A,123.7169,41.3094,本溪市,彩屯,细颗粒物(PM2.5),134,162,149,102,76,114,,104,104,29,40,16,22,2.6,3.2
2025-02-28T0000,1764A,123.7669,41.2864,本溪市,东明,细颗粒物(PM2.5),113,,83,85,61,116,,112,112,25,23,12,15,0.9,0.9
2025-02-28T0000,1765A,123.7992,41.2664,本溪市,新立屯,细颗粒物(PM2.5),222,,80,172,59,149,,145,145,14,16,6,7,0.9,0.8
2025-02-28T0000,1766A,123.8142,41.3472,本溪市,威宁,细颗粒物(PM2.5),107,104,99,80,60,131,,128,128,21,25,7,8,0.8,0.7
2025-02-28T0000,2587A,105.2864,27.3125,毕节市,八中,细颗粒物(PM2.5),94,77,53,70,42,84,,98,94,12,15,8,10,0.9,1
2025-02-28T0000,2588A,105.31,27.2944,毕节市,师专,细颗粒物(PM2.5),94,88,59,70,40,91,,108,103,8,14,5,6,1.0,1
2025-02-28T0000,4263A,105.3688,27.3598,毕节市,工业大道,细颗粒物(PM2.5),90,85,53,67,41,102,,119,110,11,16,8,10,1.8,1.4
2025-02-28T0000,1629A,118.0018,37.3617,滨州市,第二水厂,细颗粒物(PM2.5),168,185,134,127,92,19,,142,94,111,52,15,15,1.4,1.2
2025-02-28T0000,1630A,117.9776,37.393,滨州市,北中新校,细颗粒物(PM2.5),168,193,139,127,91,3,,142,58,122,67,14,15,1.7,1.2
2025-02-28T0000,3514A,117.9378,37.3956,滨州市,中海酒店,细颗粒物(PM2.5),132,139,120,100,88,32,,147,95,73,43,10,14,1.2,0.9
2025-02-28T0000,3515A,117.9378,37.3553,滨州市,开发区一中,细颗粒物(PM2.5),147,178,142,112,92,12,,138,93,127,65,16,17,0.9,0.8
2025-02-28T0000,3516A,118.0917,37.694,滨州市,金海六路,细颗粒物(PM2.5),156,161,140,119,97,65,,145,100,41,45,11,16,1.0,1.2
2025-02-28T0000,4028A,117.9956,37.3753,滨州市,滨州市西街道办事处,细颗粒物(PM2.5),192,183,145,144,109,21,,154,75,95,61,14,13,1.3,1.4
2025-02-28T0000,2311A,115.8072,33.8399,亳州市,污水处理厂,细颗粒物(PM2.5),112,106,96,84,66,65,,113,79,36,26,13,12,0.5,0.5
2025-02-28T0000,2312A,115.7789,33.8518,亳州市,三国揽胜宫,细颗粒物(PM2.5),107,109,101,80,65,57,,115,80,40,30,8,7,0.8,0.7
2025-02-28T0000,3332A,115.7633,33.8034,亳州市,亳州学院,细颗粒物(PM2.5),95,103,94,71,66,71,,112,90,32,23,5,5,0.7,0.6
2025-02-28T0000,2693A,82.0485,44.8556,博尔塔拉蒙古自治州,市党校,细颗粒物(PM2.5),53,42,59,37,32,84,,86,84,16,16,7,7,1.7,1.8
2025-02-28T0000,2694A,82.0806,44.8969,博尔塔拉蒙古自治州,市环保局,,,62,65,23,25,128,,135,122,,25,102,30,7.7,2.5
2025-02-28T0000,1071A,116.8842,38.2991,沧州市,沧县城建局,细颗粒物(PM2.5),202,192,137,152,105,28,,130,90,81,37,8,9,1.2,0.8
2025-02-28T0000,1072A,116.8584,38.3254,沧州市,电视转播站,细颗粒物(PM2.5),153,156,128,117,100,67,,134,103,45,35,9,9,0.9,0.7
2025-02-28T0000,1073A,116.8709,38.3228,沧州市,市环保局,细颗粒物(PM2.5),162,160,127,123,94,49,,123,85,55,36,10,11,1.0,0.7
2025-02-28T0000,3324A,116.8136,38.3004,沧州市,河北水利电力学院,细颗粒物(PM2.5),160,158,139,122,95,48,,118,85,70,33,12,14,0.7,0.6
2025-02-28T0000,2622A,97.1806,31.1273,昌都市,昌都监测站,,,194,33,,13,8,,66,44,52,14,23,6,1.7,0.9
2025-02-28T0000,3719A,97.1714,31.1406,昌都市,昌都会议中心,,38,27,14,26,10,63,,94,84,12,4,12,8,0.5,0.4
2025-02-28T0000,2690A,88.1236,43.8886,昌吉回族自治州,天山天池,,45,20,75,11,17,75,,99,85,5,5,7,6,4.5,1.4
2025-02-28T0000,2692A,87.2717,44.0297,昌吉回族自治州,新区政务中心,颗粒物(PM10),56,62,102,28,52,26,,58,49,35,32,4,5,0.8,0.9
2025-02-28T0000,3613A,87.3095,44.0142,昌吉回族自治州,亚心广场,细颗粒物(PM2.5),83,100,120,61,60,51,,68,61,42,43,6,7,0.6,0.7
2025-02-28T0000,1119A,125.3325,43.9166,长春市,食品厂,细颗粒物(PM2.5),123,95,110,93,67,128,,126,126,18,32,13,15,0.6,0.7
2025-02-28T0000,1120A,125.2863,43.9027,长春市,客车厂,细颗粒物(PM2.5),135,,97,103,75,120,,119,118,21,35,11,14,0.7,0.7
2025-02-28T0000,1121A,125.2841,43.8463,长春市,邮电学院,细颗粒物(PM2.5),129,101,104,98,69,132,,135,135,19,30,10,15,0.8,0.9
2025-02-28T0000,1122A,125.3716,43.8772,长春市,劳动公园,细颗粒物(PM2.5),119,,93,90,65,131,,137,136,15,26,10,13,0.6,0.8
2025-02-28T0000,1123A,125.3297,43.8805,长春市,园林处,细颗粒物(PM2.5),128,,99,97,67,131,,134,134,13,25,14,17,0.8,0.8
2025-02-28T0000,1124A,125.4605,43.79,长春市,净月潭,细颗粒物(PM2.5),98,90,83,73,57,119,,132,126,10,13,9,10,0.6,0.7
2025-02-28T0000,1125A,125.7194,43.515,长春市,甩湾子,,,,,,,,,,,,,,,,
2025-02-28T0000,1126A,125.3863,43.8447,长春市,经开区环卫处,细颗粒物(PM2.5),113,112,96,85,61,120,,127,125,15,28,9,10,0.6,0.7
2025-02-28T0000,1127A,125.245,43.7783,长春市,高新区管委会,,,,63,,47,,,69,,,29,,12,,0.8
2025-02-28T0000,1128A,125.1761,43.8325,长春市,岱山公园,细颗粒物(PM2.5),137,,95,104,77,123,,124,121,24,35,11,13,0.9,1
2025-02-28T0000,1335A,113.0833,28.2325,长沙市,经开区环保局,细颗粒物(PM2.5),60,67,53,43,46,15,,75,46,54,27,5,5,0.9,0.9
2025-02-28T0000,1336A,112.8872,28.2189,长沙市,高开区环保局,细颗粒物(PM2.5),60,51,56,43,53,44,,82,66,18,13,5,7,0.9,1.1
2025-02-28T0000,1337A,113.0792,28.2053,长沙市,马坡岭,细颗粒物(PM2.5),59,55,55,42,43,36,,79,58,23,13,4,5,0.7,0.8
2025-02-28T0000,1338A,112.9394,28.19,长沙市,湖南师范大学,,,,63,,48,37,,78,59,14,15,6,7,0.9,1
2025-02-28T0000,1339A,113.0178,28.1322,长沙市,雨花区环保局,细颗粒物(PM2.5),59,52,59,42,48,48,,74,56,14,20,6,7,0.6,0.8
2025-02-28T0000,1340A,112.9792,28.2597,长沙市,伍家岭,细颗粒物(PM2.5),65,75,65,47,50,16,,82,48,41,25,4,5,1.0,1
2025-02-28T0000,1341A,113.0014,28.1944,长沙市,火车新站,细颗粒物(PM2.5),64,58,62,46,51,28,,74,49,34,29,6,8,0.9,1.1
2025-02-28T0000,1342A,112.9844,28.1178,长沙市,天心区环保局,细颗粒物(PM2.5),64,59,59,46,48,38,,73,50,25,28,5,6,0.9,1
2025-02-28T0000,1343A,112.8908,28.1308,长沙市,湖南中医药大学,细颗粒物(PM2.5),68,64,62,49,53,29,,77,51,23,18,5,7,1.1,1.3
2025-02-28T0000,1344A,112.9581,28.3611,长沙市,沙坪,,40,40,54,28,41,55,,80,63,6,15,6,7,0.9,0.9
2025-02-28T0000,1727A,113.1147,36.1547,长治市,清华站,,50,50,61,31,46,66,,108,93,24,28,14,13,0.9,0.8
2025-02-28T0000,1730A,113.0886,36.2125,长治市,审计局,细颗粒物(PM2.5),58,51,65,41,54,71,,107,92,29,30,16,11,1.1,1
2025-02-28T0000,1731A,113.0844,36.1856,长治市,长治八中,细颗粒物(PM2.5),70,64,79,51,60,66,,102,88,22,26,17,14,1.1,0.8
2025-02-28T0000,2845A,113.1569,36.1911,长治市,德盛苑,,50,50,56,34,44,93,,108,100,16,21,8,7,0.6,0.7
2025-02-28T0000,3568A,113.06,36.0464,长治市,向阳小学,细颗粒物(PM2.5),73,79,86,53,56,85,,106,93,21,23,17,18,0.8,0.8
2025-02-28T0000,3569A,112.8792,36.3144,长治市,屯留一中,细颗粒物(PM2.5),57,61,61,40,48,20,,112,76,79,38,21,11,0.7,0.5
2025-02-28T0000,4189A,113.1131,36.19948,长治市,英华南巷50号,细颗粒物(PM2.5),52,52,67,36,50,77,,117,101,26,31,17,13,1.2,1
2025-02-28T0000,4190A,113.2367,36.3344,长治市,学府街1号,细颗粒物(PM2.5),70,72,95,51,62,63,,119,102,28,35,6,5,1.0,1.3
2025-02-28T0000,1854A,111.6975,28.9703,常德市,市二中,颗粒物(PM10),52,54,34,7,25,61,,84,77,18,17,6,5,0.8,0.6
2025-02-28T0000,1857A,111.7158,29.1456,常德市,白鹤山,,,,,,,,,,,,,,,,
2025-02-28T0000,3138A,111.7153,29.0289,常德市,武陵区永安,细颗粒物(PM2.5),57,50,39,40,28,69,,90,85,12,13,6,4,0.8,0.7
2025-02-28T0000,3139A,111.6892,28.9881,常德市,鼎城区玉霞,细颗粒物(PM2.5),53,47,39,37,27,68,,91,85,15,20,6,5,0.9,0.7
2025-02-28T0000,3140A,111.6625,29.0531,常德市,武陵区长庚,细颗粒物(PM2.5),59,63,38,42,26,67,,86,84,14,11,6,4,0.8,0.6
2025-02-28T0000,1196A,119.9633,31.762,常州市,市监测站,细颗粒物(PM2.5),123,127,134,93,101,16,,70,41,90,56,8,8,1.1,0.9
2025-02-28T0000,1200A,119.9468,31.7069,常州市,武进监测站,细颗粒物(PM2.5),94,97,124,70,94,51,,76,61,39,34,14,15,1.3,1.1
2025-02-28T0000,1201A,119.9255,31.9087,常州市,安家,细颗粒物(PM2.5),127,136,127,96,96,3,,74,33,99,50,8,8,1.2,0.9
2025-02-28T0000,3002A,119.9805,31.8174,常州市,行政中心,细颗粒物(PM2.5),109,102,116,82,94,,,71,52,,40,,16,,0.9
2025-02-28T0000,3003A,120.0522,31.7748,常州市,经开区,细颗粒物(PM2.5),150,163,135,115,100,4,,79,41,108,52,10,11,1.2,1
2025-02-28T0000,3010A,119.9025,31.7964,常州市,钟楼,细颗粒物(PM2.5),114,109,123,86,101,33,,77,56,61,37,7,9,0.8,0.7
2025-02-28T0000,3429A,119.8598,31.7066,常州市,武进经发区,细颗粒物(PM2.5),113,102,133,85,110,39,,76,49,62,50,7,11,0.8,0.8
2025-02-28T0000,3430A,119.5826,31.7245,常州市,金坛城区,细颗粒物(PM2.5),130,127,132,99,111,45,,89,59,43,32,15,11,1.6,1.2
2025-02-28T0000,2220A,120.4318,41.5881,朝阳市,西梁,细颗粒物(PM2.5),153,123,109,117,65,112,,146,126,32,27,14,13,1.2,1.2
2025-02-28T0000,2221A,120.4521,41.5646,朝阳市,河畔小区,细颗粒物(PM2.5),155,,90,118,67,110,,142,128,28,25,13,12,1.2,1
2025-02-28T0000,2222A,120.4176,41.5648,朝阳市,八里堡,细颗粒物(PM2.5),130,104,98,99,57,94,,122,106,31,32,16,14,1.3,1.1
2025-02-28T0000,2223A,120.3806,41.5969,朝阳市,农业园区,细颗粒物(PM2.5),162,,116,123,79,109,,140,126,26,26,14,13,1.3,1
2025-02-28T0000,1705A,116.6367,23.6719,潮州市,西园路,细颗粒物(PM2.5),200,,73,150,86,51,,108,83,40,26,9,9,0.7,0.4
2025-02-28T0000,3026A,116.6183,23.6608,潮州市,市政府,细颗粒物(PM2.5),144,,70,110,65,58,,103,82,45,34,9,10,1.0,0.8
2025-02-28T0000,4036A,116.6461,23.6761,潮州市,金山,细颗粒物(PM2.5),170,,69,129,78,49,,98,74,35,25,9,10,1.0,0.9
2025-02-28T0000,2472A,113.0073,25.9061,郴州市,马头岭,,32,32,40,17,24,70,,75,72,9,12,8,8,0.5,0.7
2025-02-28T0000,2473A,113.0116,25.8226,郴州市,市职中,,43,39,40,30,35,73,,75,74,5,13,4,5,0.5,0.8
2025-02-28T0000,2475A,113.0383,25.8071,郴州市,市审计局,,48,34,41,33,38,74,,84,80,10,17,3,4,0.6,0.9
2025-02-28T0000,2476A,113.0348,25.7759,郴州市,市环保局,,48,35,44,33,40,70,,82,80,12,15,4,6,0.5,0.7
2025-02-28T0000,4252A,113.0138,25.8011,郴州市,好美居路49号,,39,33,42,27,42,80,,80,80,3,11,6,6,0.7,0.9
2025-02-28T0000,1431A,103.9728,30.7236,成都市,金泉两河,细颗粒物(PM2.5),102,,61,76,49,1,,70,41,56,31,2,2,1.1,0.6
2025-02-28T0000,1432A,104.176,30.6872,成都市,十里店,细颗粒物(PM2.5),84,76,70,62,48,20,,68,45,55,36,3,3,0.8,0.6
2025-02-28T0000,1433A,104.079,30.5706,成都市,三瓦窑,细颗粒物(PM2.5),94,108,78,70,53,8,,74,52,80,44,4,4,1.1,1
2025-02-28T0000,1434A,104.1114,30.63,成都市,沙河铺,细颗粒物(PM2.5),78,84,74,57,61,14,,64,44,48,37,5,5,0.9,0.8
2025-02-28T0000,1437A,104.0786,30.6531,成都市,君平街,细颗粒物(PM2.5),104,89,73,78,57,8,,60,41,69,38,6,6,0.9,0.7
2025-02-28T0000,1438A,103.613,31.0283,成都市,灵岩寺,,,,,,,,,,,,,,,,
2025-02-28T0000,2880A,104.0239,30.65639,成都市,大石西路,细颗粒物(PM2.5),99,99,76,74,55,4,,60,41,70,42,3,4,1.0,0.8
2025-02-28T0000,3136A,104.2725,30.5589,成都市,龙泉驿区区政府,细颗粒物(PM2.5),67,63,67,48,49,22,,85,48,41,33,4,4,0.9,0.9
2025-02-28T0000,3357A,104.0106,30.6931,成都市,金博路,细颗粒物(PM2.5),87,94,66,64,43,2,,64,39,69,37,2,2,1.0,0.8
2025-02-28T0000,3359A,104.0578,30.5225,成都市,华阳,细颗粒物(PM2.5),79,80,72,58,51,12,,67,48,68,42,5,6,1.1,1
2025-02-28T0000,3488A,104.3853,30.7453,成都市,青白江技师分院,细颗粒物(PM2.5),82,75,61,60,50,9,,96,51,54,29,5,5,0.7,0.7
2025-02-28T0000,3489A,104.0789,30.4072,成都市,科学城,细颗粒物(PM2.5),74,74,67,54,52,25,,87,56,58,36,5,5,0.8,0.8
2025-02-28T0000,4011A,103.8506,30.6947,成都市,光华大道三段,细颗粒物(PM2.5),129,126,75,98,50,6,,74,45,53,27,5,5,1.2,0.7
2025-02-28T0000,4224A,104.2433,30.5353,成都市,鲸龙路1057号,细颗粒物(PM2.5),74,84,74,54,51,4,,81,42,66,39,2,2,0.9,0.9
2025-02-28T0000,1062A,117.9531,40.9081,承德市,铁路,细颗粒物(PM2.5),135,149,89,103,55,38,,87,69,55,40,10,11,1.3,0.9
2025-02-28T0000,1063A,117.9392,40.9763,承德市,中国银行,细颗粒物(PM2.5),133,138,92,101,51,31,,86,48,47,40,5,7,1.2,0.9
2025-02-28T0000,1064A,117.9503,40.928,承德市,开发区,细颗粒物(PM2.5),128,156,89,97,48,14,,98,68,87,43,10,10,1.5,0.8
2025-02-28T0000,1065A,117.8051,40.9655,承德市,文化中心,细颗粒物(PM2.5),149,150,111,114,57,48,,88,68,47,41,10,20,1.2,1.3
2025-02-28T0000,1066A,117.9268,41.0026,承德市,离宫,细颗粒物(PM2.5),118,119,89,89,50,97,,97,95,21,27,6,9,0.6,0.6
2025-02-28T0000,2314A,117.47,30.6618,池州市,池州学院,,39,30,44,27,41,41,,77,60,21,17,6,8,0.7,0.8
2025-02-28T0000,3237A,117.4918,30.6617,池州市,展览馆,,32,28,49,22,45,26,,76,59,18,14,5,8,0.9,0.9
2025-02-28T0000,3333A,117.5627,30.695,池州市,第八中学,,32,32,47,20,40,10,,78,52,56,19,13,7,0.6,0.7
2025-02-28T0000,3334A,117.5038,30.6243,池州市,第十二中学,,30,24,47,21,43,22,,77,57,34,19,7,7,0.7,0.7
2025-02-28T0000,1744A,118.9233,42.2816,赤峰市,松山一中,细颗粒物(PM2.5),68,79,71,49,33,86,,97,88,32,41,18,18,1.1,1.3
2025-02-28T0000,1745A,118.9576,42.2728,赤峰市,哈达街,颗粒物(PM10),70,90,63,45,29,99,,101,96,23,32,17,13,0.7,0.8
2025-02-28T0000,1746A,118.8788,42.2554,赤峰市,天义路,颗粒物(PM10),65,79,59,39,27,86,,83,79,18,28,10,12,0.6,0.6
2025-02-28T0000,3058A,119.2658,42.0353,赤峰市,银河街,细颗粒物(PM2.5),95,115,101,71,53,81,,94,84,29,29,37,25,1.0,0.9
2025-02-28T0000,3286A,118.9359,42.3147,赤峰市,桥北物流园区,细颗粒物(PM2.5),93,78,59,69,45,52,,83,60,51,46,11,17,1.0,1
2025-02-28T0000,2521A,107.3476,22.4136,崇左市,市环保局江州分局,,46,46,33,26,20,15,,47,34,19,13,5,5,0.9,0.8
2025-02-28T0000,4256A,107.3750,22.3736,崇左市,石景林东路7号,细颗粒物(PM2.5),60,65,31,43,22,5,,45,28,38,19,4,4,1.3,0.8
2025-02-28T0000,2298A,118.3093,32.3153,滁州市,老年大学,细颗粒物(PM2.5),89,90,87,66,71,19,,118,74,38,23,8,9,1.1,0.8
2025-02-28T0000,2299A,118.3244,32.2786,滁州市,人大宾馆,细颗粒物(PM2.5),88,76,84,65,74,24,,113,74,63,38,8,10,0.9,0.7
2025-02-28T0000,3207A,118.3118,32.3038,滁州市,市政府原办公楼,细颗粒物(PM2.5),92,81,75,68,68,16,,112,72,66,33,4,7,1.0,0.7
2025-02-28T0000,3331A,118.3267,32.2634,滁州市,图书馆,细颗粒物(PM2.5),85,77,87,63,66,51,,111,84,35,28,6,8,0.7,0.7
2025-02-28T0000,2605A,101.5482,25.0441,楚雄彝族自治州,州环境监测站,,43,40,26,30,17,69,,110,99,31,20,5,6,0.6,0.5
2025-02-28T0000,2606A,101.538,25.0492,楚雄彝族自治州,市经济开发区,细颗粒物(PM2.5),53,48,28,37,17,75,,108,94,20,20,7,7,0.7,0.6
2025-02-28T0000,2548A,107.5277,31.2827,达州市,达州职业技术学院,细颗粒物(PM2.5),85,82,78,63,56,12,,91,40,40,31,5,8,0.5,0.6
2025-02-28T0000,2549A,107.5086,31.2186,达州市,市环境监测站,细颗粒物(PM2.5),77,80,75,56,49,4,,88,38,67,49,6,7,1.1,0.8
2025-02-28T0000,2550A,107.4988,31.2132,达州市,凤凰小区,细颗粒物(PM2.5),79,80,76,58,53,7,,92,37,70,48,8,10,1.0,1
2025-02-28T0000,2551A,107.5082,31.1986,达州市,达县机关宾馆,细颗粒物(PM2.5),64,61,81,46,55,2,,85,22,59,48,8,8,0.8,1
2025-02-28T0000,2552A,107.4644,31.2124,达州市,市政中心,细颗粒物(PM2.5),70,83,78,51,51,3,,86,37,84,50,5,4,1.3,0.8
2025-02-28T0000,2614A,100.1542,25.7054,大理白族自治州,大理市环境监测站,,32,30,19,20,15,102,,107,106,8,5,7,7,0.5,0.5
2025-02-28T0000,2615A,100.2171,25.5811,大理白族自治州,大理古城,,32,,22,22,13,90,,103,100,12,10,7,7,0.5,0.4
2025-02-28T0000,1109A,121.612,38.9741,大连市,甘井子,细颗粒物(PM2.5),102,100,116,76,86,109,,131,117,23,33,6,11,0.7,0.9
2025-02-28T0000,1110A,121.565,38.9511,大连市,周水子,细颗粒物(PM2.5),114,97,115,86,99,102,,125,110,16,28,9,9,1.0,1.4
2025-02-28T0000,1111A,121.5637,38.8845,大连市,星海三站,细颗粒物(PM2.5),99,95,112,74,83,109,,128,120,13,17,8,9,0.8,0.8
2025-02-28T0000,1112A,121.6302,38.9117,大连市,青泥洼桥,细颗粒物(PM2.5),97,94,104,72,80,112,,136,123,17,20,10,12,1.4,1.2
2025-02-28T0000,1113A,121.6251,38.8638,大连市,傅家庄,细颗粒物(PM2.5),88,94,112,65,78,106,,126,118,20,23,5,6,0.6,0.3
2025-02-28T0000,1114A,121.5213,38.8661,大连市,七贤岭,细颗粒物(PM2.5),120,108,123,91,89,99,,119,109,16,21,8,9,0.6,0.7
2025-02-28T0000,1115A,121.2529,38.8061,大连市,旅顺,细颗粒物(PM2.5),103,101,122,77,91,91,,113,105,24,25,4,5,0.7,0.7
2025-02-28T0000,1116A,121.7485,39.1311,大连市,金州,细颗粒物(PM2.5),95,113,146,71,85,110,,139,123,25,33,11,13,0.9,1
2025-02-28T0000,1117A,121.7811,39.0496,大连市,开发区,细颗粒物(PM2.5),97,106,121,72,84,91,,117,100,24,38,8,9,1.2,1.3
2025-02-28T0000,1118A,121.9762,39.0631,大连市,双D港,细颗粒物(PM2.5),98,83,103,73,84,116,,117,115,24,28,6,9,1.0,1
2025-02-28T0000,1789A,124.81117,46.03138,大庆市,大同区,颗粒物(PM10),103,156,85,67,43,64,,65,62,19,17,11,9,0.9,0.8
2025-02-28T0000,1790A,125.129,46.533,大庆市,龙凤区,颗粒物(PM10),83,115,70,40,31,48,,66,48,23,22,8,10,0.8,0.7
2025-02-28T0000,1791A,124.902,46.408,大庆市,红岗区,颗粒物(PM10),68,86,54,46,24,55,,67,52,20,22,6,6,0.6,0.5
2025-02-28T0000,1792A,125.153,46.586,大庆市,萨尔图区,颗粒物(PM10),71,92,74,37,32,53,,60,48,24,26,10,10,0.6,0.5
2025-02-28T0000,1793A,124.9042,46.6215,大庆市,让胡路区,颗粒物(PM10),65,79,53,32,28,36,,63,29,28,29,7,10,0.5,0.5
2025-02-28T0000,3481A,125.141,46.634,大庆市,萨区政府监测点,颗粒物(PM10),69,87,68,31,29,49,,64,51,24,22,16,11,0.5,0.6
2025-02-28T0000,1721A,113.3819,40.1097,大同市,果树场,,,,111,,57,,,95,67,,46,,17,,1.3
2025-02-28T0000,1723A,113.2994,40.0758,大同市,云冈宾馆,颗粒物(PM10),83,116,134,48,51,36,,105,83,58,41,16,28,1.2,1
2025-02-28T0000,1724A,113.3444,40.0917,大同市,大同大学,细颗粒物(PM2.5),60,68,105,43,50,51,,104,82,47,37,28,32,1.3,0.9
2025-02-28T0000,1725A,113.2661,40.1269,大同市,安家小村,颗粒物(PM10),71,92,146,35,53,64,,106,86,29,38,14,26,1.2,2.1
2025-02-28T0000,1726A,113.2711,40.0844,大同市,教育学院,颗粒物(PM10),76,101,135,44,62,35,,100,78,61,48,17,25,1.0,1.3
2025-02-28T0000,3282A,113.3397,40.0597,大同市,大同市卫生学校,颗粒物(PM10),66,82,114,34,50,48,,102,81,52,42,23,31,1.0,0.7
2025-02-28T0000,3565A,113.1367,40.1122,大同市,云冈站,颗粒物(PM10),65,79,117,31,50,51,,103,84,25,33,23,26,0.5,0.8
2025-02-28T0000,3566A,113.1186,40.2556,大同市,图书馆,颗粒物(PM10),63,76,102,40,51,50,,102,77,15,20,12,15,0.6,0.9
2025-02-28T0000,3567A,113.5931,40.0461,大同市,区一中,颗粒物(PM10),82,114,123,41,37,31,,110,82,57,27,31,27,1.2,0.8
2025-02-28T0000,4199A,113.2798,40.0997,大同市,魏都大道141号,颗粒物(PM10),86,122,144,54,59,33,,104,73,61,47,22,31,1.7,1.4
2025-02-28T0000,2269A,124.1069,50.4097,大兴安岭地区,科技局,颗粒物(PM10),54,58,36,35,22,99,,109,109,11,8,7,7,0.5,0.4
2025-02-28T0000,3663A,124.1164,50.4278,大兴安岭地区,红旗社区,,49,39,23,34,16,79,,107,103,21,13,10,9,0.6,0.5
2025-02-28T0000,1600A,124.3303,40.0625,丹东市,江湾东路,细颗粒物(PM2.5),97,121,119,72,59,109,,116,113,8,19,7,12,0.7,1
2025-02-28T0000,1601A,124.4256,40.1503,丹东市,临江后街,细颗粒物(PM2.5),103,144,136,77,56,99,,116,110,20,17,9,10,1.2,0.8
2025-02-28T0000,1602A,124.3933,40.1461,丹东市,元宝山,细颗粒物(PM2.5),92,122,111,68,47,108,,111,108,14,19,8,10,1.1,0.9
2025-02-28T0000,1603A,124.3633,40.1092,丹东市,民主桥,细颗粒物(PM2.5),98,120,110,73,57,104,,111,108,9,26,6,9,0.7,0.9
2025-02-28T0000,3541A,109.5726,19.5167,儋州市,第一中学子站,,32,32,25,15,11,51,,64,59,4,6,3,4,0.7,0.7
2025-02-28T0000,3542A,109.5567,19.5187,儋州市,东坡学校子站,,32,32,22,15,10,65,,78,72,6,5,3,3,0.6,0.7
2025-02-28T0000,2616A,98.5842,24.428,德宏傣族景颇族自治州,德宏州监测站,细颗粒物(PM2.5),53,54,54,37,35,74,,113,86,20,25,8,13,0.8,0.7
2025-02-28T0000,3677A,98.5881,24.4368,德宏傣族景颇族自治州,芒市人民政府综合楼,颗粒物(PM10),55,60,57,32,32,71,,111,90,13,16,7,9,0.7,0.6
2025-02-28T0000,1901A,104.4239,31.1208,德阳市,东山公园,细颗粒物(PM2.5),87,82,67,64,53,24,,75,53,35,27,2,3,0.8,0.8
2025-02-28T0000,1902A,104.3826,31.1317,德阳市,西小区,细颗粒物(PM2.5),104,101,71,78,57,8,,67,43,68,33,7,4,1.1,0.8
2025-02-28T0000,1904A,104.3553,31.1091,德阳市,耐火材料厂,,,,,,,,,,,,,,,,
2025-02-28T0000,3639A,104.4019,31.1244,德阳市,市教育局,细颗粒物(PM2.5),88,85,66,65,55,2,,68,37,70,38,6,4,0.9,0.8
2025-02-28T0000,1622A,116.3032,37.4674,德州市,儿童乐园,细颗粒物(PM2.5),144,153,136,110,98,107,,136,122,28,24,9,10,1.1,1
2025-02-28T0000,1624A,116.2991,37.4451,德州市,监理站,细颗粒物(PM2.5),140,149,132,107,96,110,,137,122,36,32,16,19,0.9,0.9
2025-02-28T0000,3066A,116.2721,37.4379,德州市,九衢泉纯净水厂,细颗粒物(PM2.5),128,146,132,97,87,91,,128,97,42,39,10,13,0.9,0.9
2025-02-28T0000,3371A,116.3728,37.4403,德州市,开发区人民医院,细颗粒物(PM2.5),134,156,136,102,88,105,,136,123,30,27,15,15,0.5,0.6
2025-02-28T0000,3372A,116.3572,37.4094,德州市,太阳城中学,细颗粒物(PM2.5),168,178,140,127,95,69,,130,100,67,40,13,13,0.8,0.6
2025-02-28T0000,3511A,116.5652,37.3319,德州市,陵城艺术中心,细颗粒物(PM2.5),149,156,127,114,90,92,,134,112,43,36,17,13,0.9,0.9
2025-02-28T0000,2621A,99.7056,27.8317,迪庆藏族自治州,迪庆州站,,29,28,27,13,15,92,,101,99,8,10,6,7,0.5,0.5
2025-02-28T0000,3180A,99.7136,27.8094,迪庆藏族自治州,质量技术监督局,,35,,23,24,15,92,,102,97,6,11,8,8,0.4,0.5
2025-02-28T0000,4257A,104.6092,35.5962,定西市,将台街,"颗粒物(PM10),细颗粒物(PM2.5)",57,64,54,40,33,19,,88,50,48,21,20,18,0.8,0.9
2025-02-28T0000,4309A,104.6159,35.5701,定西市,正龙路62号,颗粒物(PM10),60,69,55,34,29,46,,92,73,18,10,9,9,0.8,0.8
2025-02-28T0000,1389A,113.7547,23.0494,东莞市,莞城梨川,,49,49,62,32,47,44,,147,89,39,36,4,6,0.6,0.6
2025-02-28T0000,1390A,113.7944,23.0128,东莞市,东城石井,,38,38,55,19,35,16,,151,70,38,32,6,6,0.6,0.7
2025-02-28T0000,1391A,113.7383,22.9658,东莞市,南城西平,颗粒物(PM10),55,59,53,34,35,57,,135,90,32,40,5,5,0.3,0.4
2025-02-28T0000,3319A,113.7338,23.0381,东莞市,万江金泰,颗粒物(PM10),51,51,56,31,39,60,,158,100,29,34,7,9,0.6,0.7
2025-02-28T0000,3626A,113.7533,23.0202,东莞市,南城元岭,颗粒物(PM10),51,51,56,30,37,43,,143,86,36,36,4,5,0.7,0.8
2025-02-28T0000,3627A,113.7875,23.0457,东莞市,东城主山,,44,44,57,22,34,51,,155,87,35,36,6,7,0.5,0.6
2025-02-28T0000,1666A,118.6614,37.4309,东营市,市环保局,细颗粒物(PM2.5),140,141,134,107,94,58,,146,114,34,34,8,24,1.2,0.9
2025-02-28T0000,3036A,118.6904,37.4338,东营市,开发区管委会,细颗粒物(PM2.5),144,137,138,110,100,75,,148,123,38,39,6,18,1.0,1
2025-02-28T0000,3365A,118.5719,37.565,东营市,垦利区民丰路,细颗粒物(PM2.5),140,146,132,107,92,68,,142,110,38,37,18,18,1.2,1
2025-02-28T0000,3498A,118.5055,37.8612,东营市,河口城区,细颗粒物(PM2.5),119,151,145,90,91,87,,169,133,30,33,7,10,1.3,1.3
2025-02-28T0000,3646A,118.4978,37.4623,东营市,胜利站,细颗粒物(PM2.5),153,157,141,117,89,62,,142,104,21,20,9,13,1.3,1.2
2025-02-28T0000,3734A,118.35,37.26,东营市,理想之城,细颗粒物(PM2.5),153,163,135,117,92,45,,149,109,56,38,10,14,1.2,1.1
2025-02-28T0000,1591A,110.0023,39.8129,鄂尔多斯市,综合楼,颗粒物(PM10),57,63,73,19,24,55,,100,79,44,33,12,14,0.9,0.8
2025-02-28T0000,1592A,109.9486,39.8261,鄂尔多斯市,巴音孟克林场办事处,颗粒物(PM10),54,58,70,17,22,40,,102,73,57,36,8,12,0.7,0.6
2025-02-28T0000,1593A,109.7736,39.5986,鄂尔多斯市,康泽苑,,48,48,67,22,26,59,,112,81,22,22,5,8,0.4,0.5
2025-02-28T0000,1594A,109.8119,39.5989,鄂尔多斯市,华泰汽车城,颗粒物(PM10),52,53,72,14,27,33,,100,62,27,24,4,6,0.4,0.5
2025-02-28T0000,1595A,109.9734,39.7884,鄂尔多斯市,奥林花园,颗粒物(PM10),56,61,77,14,23,22,,102,72,76,38,7,13,0.4,0.6
2025-02-28T0000,2436A,114.8938,30.3994,鄂州市,市政府,颗粒物(PM10),99,148,67,64,58,56,,96,88,17,21,5,5,1.3,1.3
2025-02-28T0000,2437A,114.8989,30.3714,鄂州市,赵家坝,细颗粒物(PM2.5),82,96,70,60,57,48,,90,75,15,17,3,4,0.9,0.9
2025-02-28T0000,3654A,114.8094,30.4089,鄂州市,精准医疗中心,细颗粒物(PM2.5),90,89,74,67,59,32,,94,68,40,30,21,10,3.0,1.5
2025-02-28T0000,2454A,109.4978,30.2981,恩施土家族苗族自治州,湖北民院,细颗粒物(PM2.5),97,78,45,72,44,14,,80,46,48,26,5,5,0.9,0.8
2025-02-28T0000,2455A,109.4707,30.2798,恩施土家族苗族自治州,州电力总公司,细颗粒物(PM2.5),85,76,53,63,46,8,,70,42,45,19,6,6,0.8,0.3
2025-02-28T0000,3549A,109.5061,30.3772,恩施土家族苗族自治州,龙凤新区,细颗粒物(PM2.5),77,71,43,56,34,18,,73,46,16,15,6,6,0.9,0.8
2025-02-28T0000,2499A,108.3411,21.6158,防城港市,沙万,细颗粒物(PM2.5),62,64,34,44,28,4,,20,12,64,35,18,11,1.4,1.3
2025-02-28T0000,2500A,108.3514,21.7731,防城港市,防城档案局,细颗粒物(PM2.5),55,42,25,39,22,23,,30,24,23,22,7,5,1.4,1.2
2025-02-28T0000,2501A,108.3506,21.6414,防城港市,大海花园,细颗粒物(PM2.5),83,,29,61,35,29,,25,25,41,29,16,7,1.1,1.2
2025-02-28T0000,1371A,113.1294,23.0067,佛山市,湾梁,颗粒物(PM10),60,70,78,24,35,15,,115,68,81,55,7,8,0.7,0.9
2025-02-28T0000,1372A,113.1083,23.0478,佛山市,华材职中,颗粒物(PM10),53,56,70,31,41,46,,130,88,51,52,8,9,0.7,0.8
2025-02-28T0000,1373A,113.144,23.0453,佛山市,南海气象局,颗粒物(PM10),53,55,61,35,38,10,,114,66,52,36,8,9,0.7,0.7
2025-02-28T0000,1374A,113.2881,22.8094,佛山市,顺德苏岗,颗粒物(PM10),52,54,64,29,39,10,,120,65,56,46,5,6,0.7,0.8
2025-02-28T0000,1376A,112.8383,22.8678,佛山市,高明孔堂,,38,35,63,26,44,64,,115,102,16,37,4,5,0.6,0.8
2025-02-28T0000,1377A,112.8836,23.1588,佛山市,三水监测站,颗粒物(PM10),62,73,97,37,58,13,,101,61,92,77,3,3,0.7,0.9
2025-02-28T0000,1378A,112.867,23.185,佛山市,三水云东海,颗粒物(PM10),61,72,75,43,61,16,,104,64,89,65,2,2,0.8,0.9
2025-02-28T0000,3625A,113.2544,22.7642,佛山市,容桂街道办,细颗粒物(PM2.5),64,68,70,46,46,8,,118,61,75,56,7,8,0.9,0.9
2025-02-28T0000,1280A,119.3903,26.0543,福州市,鼓山,,,,19,,23,,,64,57,,19,,2,,0.6
2025-02-28T0000,1282A,119.2681,26.0504,福州市,师大,,43,41,48,30,46,3,,57,26,37,34,3,4,0.6,0.5
2025-02-28T0000,1283A,119.2984,26.1028,福州市,五四北路,,49,,45,34,46,2,,50,20,48,43,4,4,1.0,0.8
2025-02-28T0000,1284A,119.2648,26.0768,福州市,杨桥西路,,43,42,46,30,44,3,,59,25,41,36,4,4,0.7,0.6
2025-02-28T0000,1285A,119.317,26.0746,福州市,紫阳,细颗粒物(PM2.5),82,78,59,60,51,2,,43,15,46,42,4,3,1.4,0.6
2025-02-28T0000,3048A,119.5799,26.0936,福州市,九龙,细颗粒物(PM2.5),65,,39,47,44,11,,47,32,43,30,3,4,0.7,0.7
2025-02-28T0000,3526A,119.5189,25.9664,福州市,吴航,,50,46,51,35,39,5,,61,29,30,34,3,4,0.7,0.7
2025-02-28T0000,1755A,123.7977,41.8491,抚顺市,望花区,细颗粒物(PM2.5),135,119,109,103,75,134,,125,125,16,30,18,16,1.3,1.3
2025-02-28T0000,1756A,123.9161,41.8822,抚顺市,顺城区,细颗粒物(PM2.5),122,123,112,92,69,140,,124,124,16,41,11,11,0.8,1
2025-02-28T0000,1757A,124.0436,41.8611,抚顺市,东洲区,细颗粒物(PM2.5),124,133,102,94,59,126,,123,122,18,23,7,8,1.4,1
2025-02-28T0000,1758A,123.9247,41.8642,抚顺市,新抚区,细颗粒物(PM2.5),133,118,124,101,77,135,,121,121,19,46,9,8,0.7,0.9
2025-02-28T0000,1759A,124.0972,41.8961,抚顺市,大伙房水库,细颗粒物(PM2.5),130,120,93,99,64,135,,129,128,10,16,8,9,0.9,0.9
2025-02-28T0000,1760A,123.7086,41.8391,抚顺市,沈抚新城,细颗粒物(PM2.5),138,127,108,105,73,130,,122,118,19,23,9,9,1.3,1.1
2025-02-28T0000,2376A,116.2127,28.0814,抚州市,桐源党溪,颗粒物(PM10),52,53,52,33,34,4,,44,20,16,8,8,8,0,0
2025-02-28T0000,2377A,116.3544,27.9831,抚州市,市站,,24,24,46,13,30,40,,54,46,14,24,7,11,0.5,0.6
2025-02-28T0000,2378A,116.3565,27.963,抚州市,血防站,,28,28,50,18,31,40,,62,53,13,23,17,17,1.2,1.3
2025-02-28T0000,2379A,116.3564,28.0007,抚州市,采茶剧团,,30,30,46,15,28,30,,48,39,11,15,5,8,0.9,0.9
2025-02-28T0000,2380A,116.385,27.9647,抚州市,医学分院,,34,34,44,14,30,32,,52,42,17,19,5,5,1.1,1.1
2025-02-28T0000,2207A,121.6094,41.998,阜新市,工业园区,细颗粒物(PM2.5),234,,189,184,119,96,,123,113,25,31,36,26,1.3,1.2
2025-02-28T0000,2208A,121.6697,42.0279,阜新市,长青街,细颗粒物(PM2.5),210,,145,160,103,91,,123,114,30,40,28,19,1.0,1
2025-02-28T0000,2209A,121.6673,42.0705,阜新市,农业园区,细颗粒物(PM2.5),178,152,147,134,87,100,,125,117,23,36,28,37,1.2,1.1
2025-02-28T0000,2210A,121.6717,42.0224,阜新市,东苑,细颗粒物(PM2.5),210,,165,160,106,87,,116,108,33,42,27,29,1.0,1
2025-02-28T0000,2211A,121.6506,42.0498,阜新市,玉龙新城,细颗粒物(PM2.5),198,,158,148,103,95,,123,114,28,40,25,22,1.1,1.2
2025-02-28T0000,2301A,115.8277,32.8929,阜阳市,市监测站,细颗粒物(PM2.5),107,101,92,80,75,51,,99,65,47,32,8,7,0.8,0.7
2025-02-28T0000,2303A,115.8554,32.8605,阜阳市,开发区,细颗粒物(PM2.5),114,109,109,86,73,86,,101,91,28,30,10,8,0.7,0.7
2025-02-28T0000,2875A,115.784,32.8892,阜阳市,阜阳职业技术学院,细颗粒物(PM2.5),89,85,83,66,62,70,,97,71,26,21,8,8,0.8,0.8
2025-02-28T0000,3468A,115.7901,32.8613,阜阳市,市规划展馆,细颗粒物(PM2.5),82,74,86,60,63,89,,110,94,27,22,9,7,0.7,0.7
2025-02-28T0000,3469A,115.836,32.9183,阜阳市,枣园社区,细颗粒物(PM2.5),87,86,94,64,70,89,,108,90,24,25,10,6,0.7,0.6
2025-02-28T0000,2669A,102.9099,34.9841,甘南藏族自治州,州政府,颗粒物(PM10),58,65,57,25,21,55,,86,78,29,29,17,17,0.6,0.8
2025-02-28T0000,3380A,102.8914,34.9617,甘南藏族自治州,甘肃民族师范学院,颗粒物(PM10),56,62,49,16,13,55,,92,86,33,28,3,6,0.4,0.4
2025-02-28T0000,2570A,101.9603,30.0475,甘孜藏族自治州,水桥子,,23,23,24,8,9,22,,74,46,39,27,3,3,0.4,0.5
2025-02-28T0000,3065A,101.9533,29.9972,甘孜藏族自治州,州环保局,,20,14,17,3,5,64,,86,63,8,12,4,4,0.6,0.6
2025-02-28T0000,3414A,115.8347,28.932,赣江新区,桑海产业园,细颗粒物(PM2.5),102,102,87,76,69,8,,43,23,43,32,14,13,1.0,0.8
2025-02-28T0000,2362A,114.9017,25.9149,赣州市,通天岩,,,,33,,9,,,66,,,7,,9,,0.8
2025-02-28T0000,2363A,114.9367,25.8664,赣州市,地委,,34,34,52,22,38,60,,80,67,9,17,15,11,1.0,1.1
2025-02-28T0000,2364A,114.9461,25.8481,赣州市,气象台,,36,36,53,18,30,72,,92,80,13,25,8,8,0.4,0.6
2025-02-28T0000,2365A,114.9322,25.8333,赣州市,市图书馆,,31,31,43,18,34,60,,78,67,12,29,4,4,0.8,0.9
2025-02-28T0000,2366A,114.8905,25.8471,赣州市,华坚鞋城,,32,32,49,21,32,52,,81,65,10,16,9,6,0.6,0.7
2025-02-28T0000,3109A,115.0093,25.8613,赣州市,赣县区卫计委,,25,24,39,17,30,58,,77,67,14,24,3,4,0.3,0.5
2025-02-28T0000,2683A,106.2319,36.1417,固原市,马园,颗粒物(PM10),87,124,64,46,25,8,,88,48,67,27,10,7,0.9,0.5
2025-02-28T0000,2684A,106.2792,36.0022,固原市,监测站,颗粒物(PM10),70,90,57,36,27,49,,94,65,34,29,13,9,1.1,0.9
2025-02-28T0000,2685A,106.2375,36.0211,固原市,新区,颗粒物(PM10),85,120,63,37,24,24,,89,60,62,35,10,9,0.8,0.7
2025-02-28T0000,3522A,106.2177,35.9959,固原市,原州区十五小,颗粒物(PM10),62,74,49,32,23,63,,95,76,29,22,11,11,0.9,0.7
2025-02-28T0000,2543A,106.6308,30.5278,广安市,小平旧居,,,,,,,,,,,,,,,,
2025-02-28T0000,2544A,106.6303,30.4576,广安市,市委,细颗粒物(PM2.5),72,66,65,52,52,60,,103,85,26,19,5,4,0.7,0.6
2025-02-28T0000,2545A,106.6271,30.4663,广安市,友谊中学,细颗粒物(PM2.5),75,69,65,55,52,36,,112,86,43,23,2,2,0.9,0.8
2025-02-28T0000,2547A,106.6388,30.4551,广安市,广电花园,细颗粒物(PM2.5),80,59,64,59,56,41,,102,79,38,24,4,4,1.0,0.8
2025-02-28T0000,2902A,106.6351,30.4865,广安市,北辰小学,细颗粒物(PM2.5),78,65,63,57,53,64,,104,86,16,18,4,5,0.4,0.3
2025-02-28T0000,2523A,105.8945,32.4535,广元市,黑石坡,细颗粒物(PM2.5),68,60,62,49,41,39,,65,60,20,25,7,9,0.6,0.7
2025-02-28T0000,2524A,105.821,32.4444,广元市,老城,颗粒物(PM10),58,65,64,37,38,0,,54,26,61,41,3,2,0.7,0.9
2025-02-28T0000,2526A,105.8628,32.4287,广元市,监测站,细颗粒物(PM2.5),54,47,41,38,35,25,,66,50,27,30,4,6,0.6,0.8
2025-02-28T0000,3617A,105.8047,32.4166,广元市,经开区,细颗粒物(PM2.5),75,70,65,55,51,4,,49,26,53,40,2,4,0.8,0.9
2025-02-28T0000,1345A,113.2347,23.1423,广州市,广雅中学,颗粒物(PM10),61,72,64,34,38,11,,116,71,74,46,4,5,1.1,1.2
2025-02-28T0000,1346A,113.2612,23.105,广州市,市五中,颗粒物(PM10),55,60,64,29,38,11,,123,78,77,46,4,5,1.0,0.9
2025-02-28T0000,1348A,113.3478,23.0916,广州市,广东商学院,颗粒物(PM10),51,51,59,32,40,3,,101,63,82,50,4,6,0.8,0.9
2025-02-28T0000,1349A,113.4332,23.1047,广州市,市八十六中,,44,44,62,21,38,7,,131,64,86,61,3,6,0.1,0.3
2025-02-28T0000,1350A,113.3505,22.9483,广州市,番禺中学,,38,38,63,25,37,47,,148,102,48,46,4,6,0.7,0.8
2025-02-28T0000,1351A,113.2146,23.3916,广州市,花都师范,"颗粒物(PM10),细颗粒物(PM2.5)",83,115,71,61,46,4,,88,46,109,61,2,3,1.4,1
2025-02-28T0000,1352A,113.2597,23.1331,广州市,市监测站,,48,48,58,26,32,20,,109,77,69,48,5,6,0.7,0.9
2025-02-28T0000,1353A,113.5618,23.312,广州市,九龙镇镇龙,细颗粒物(PM2.5),68,82,55,49,39,7,,124,62,63,41,4,5,0.8,0.7
2025-02-28T0000,1354A,113.2765,23.1544,广州市,麓湖,颗粒物(PM10),52,53,54,35,37,3,,91,54,95,57,5,5,1.1,1.1
2025-02-28T0000,1355A,113.443,23.3035,广州市,帽峰山森林公园,颗粒物(PM10),56,61,43,15,24,26,,123,96,73,29,7,7,0.7,0.8
2025-02-28T0000,2846A,113.3221,23.1322,广州市,体育西,颗粒物(PM10),52,54,62,30,40,4,,124,77,76,45,4,6,0.7,0.8
2025-02-28T0000,3298A,113.5717,23.5491,广州市,从化街口,细颗粒物(PM2.5),123,124,74,93,60,36,,120,65,41,32,6,7,1.1,1
2025-02-28T0000,3299A,113.3472,23.3692,广州市,白云竹料,细颗粒物(PM2.5),93,116,69,69,46,7,,111,66,78,39,6,7,1.0,0.8
2025-02-28T0000,3300A,113.2981,23.237,广州市,白云嘉禾,颗粒物(PM10),59,67,67,38,41,20,,110,69,76,51,5,6,0.5,0.5
2025-02-28T0000,3301A,113.4256,23.1716,广州市,黄埔科学城,颗粒物(PM10),64,77,57,43,39,2,,134,79,75,43,7,8,0.7,0.7
2025-02-28T0000,3302A,113.3942,23.0483,广州市,番禺大学城,颗粒物(PM10),67,84,76,26,35,25,,154,102,63,49,7,9,0.6,0.6
2025-02-28T0000,3303A,113.4922,22.8168,广州市,南沙黄阁,,38,,51,26,34,70,,113,89,20,38,4,5,0.5,0.6
2025-02-28T0000,3304A,113.5342,22.7896,广州市,南沙街,,38,27,52,26,28,70,,115,86,24,34,4,5,0.6,0.7
2025-02-28T0000,3443A,113.2902,23.5544,广州市,花都梯面,,48,48,52,32,36,2,,98,44,37,38,4,5,0.8,0.7
2025-02-28T0000,3445A,113.7858,23.7478,广州市,从化良口,,49,41,34,34,31,27,,111,77,26,16,6,6,0.7,0.6
2025-02-28T0000,3446A,113.8051,23.2614,广州市,增城荔城,细颗粒物(PM2.5),68,71,55,49,42,29,,190,107,37,25,5,7,0.8,0.7
2025-02-28T0000,2505A,109.568,23.1478,贵港市,德智高中,,,,,,,,,,,,,,,,
2025-02-28T0000,2506A,109.6047,23.0666,贵港市,江南子站,细颗粒物(PM2.5),122,141,66,92,51,0,,17,7,46,32,9,7,1.0,0.9
2025-02-28T0000,2507A,109.6014,23.0948,贵港市,贵城子站,细颗粒物(PM2.5),104,110,59,78,42,8,,21,14,45,32,9,7,1.2,1.1
2025-02-28T0000,2508A,109.5669,23.1065,贵港市,荷城子站,细颗粒物(PM2.5),119,105,47,90,38,5,,18,13,48,28,11,9,1.3,1
2025-02-28T0000,3405A,109.5886,23.1172,贵港市,新世纪学校,细颗粒物(PM2.5),119,117,51,90,41,3,,22,14,43,30,5,3,1.3,0.9
2025-02-28T0000,1439A,106.6899,26.5998,贵阳市,马鞍山,,20,19,22,14,13,49,,71,62,8,13,7,7,0.4,0.3
2025-02-28T0000,1441A,106.6243,26.6266,贵阳市,鉴湖路,,29,29,32,9,14,47,,73,59,10,11,11,13,0.5,0.5
2025-02-28T0000,1442A,106.7487,26.6343,贵阳市,燕子冲,,,24,25,17,19,54,,82,70,8,14,6,18,,0.6
2025-02-28T0000,1443A,106.6555,26.4365,贵阳市,碧云窝,,27,27,28,7,10,51,,72,64,7,9,7,10,0.5,0.5
2025-02-28T0000,1445A,106.7109,26.6027,贵阳市,红边门,,27,27,29,17,21,47,,72,58,4,12,9,11,0.8,0.9
2025-02-28T0000,1446A,106.7164,26.5699,贵阳市,新华路,,22,22,28,14,15,51,,60,54,8,16,10,16,0.4,0.6
2025-02-28T0000,1447A,106.674,26.5424,贵阳市,太慈桥,,22,22,24,9,12,50,,72,62,9,14,10,11,0.5,0.5
2025-02-28T0000,1552A,106.805,26.3003,贵阳市,桐木岭,,,,27,,17,,,49,,,2,,7,,1.1
2025-02-28T0000,4230A,106.6882,26.5695,贵阳市,花果园大街66号,,23,,18,16,18,46,,60,52,12,17,6,8,0.4,0.4
2025-02-28T0000,4231A,106.6873,26.5169,贵阳市,漓江路57号,,18,17,24,12,14,51,,72,61,7,12,12,16,0.4,0.5
2025-02-28T0000,1862A,110.4144,25.3167,桂林市,电子科大尧山校区,,,,,,,,,,,,,,,,
2025-02-28T0000,1864A,110.3089,25.2708,桂林市,龙隐路小学,细颗粒物(PM2.5),54,39,26,38,27,6,,18,8,32,26,8,8,1.5,1.1
2025-02-28T0000,1865A,110.2869,25.2178,桂林市,八中,,45,37,29,31,25,2,,12,4,35,32,8,6,1.2,0.9
2025-02-28T0000,3531A,110.296,25.1253,桂林市,旅游学院,,32,29,16,22,19,4,,19,10,37,27,7,6,1.3,0.9
2025-02-28T0000,4222A,110.1835,25.2444,桂林市,环湖路276号,,42,34,24,29,26,2,,10,2,32,29,8,7,1.2,1
2025-02-28T0000,4301A,110.2803,25.2773,桂林市,信义路13号,,48,,27,33,26,3,,11,4,34,30,5,4,1.4,1.1
2025-02-28T0000,2674A,100.2561,34.4714,果洛藏族自治州,玛沁县大武镇,,38,34,35,26,20,47,,87,70,7,7,22,26,0.6,0.6
2025-02-28T0000,1129A,126.5422,45.755,哈尔滨市,岭北,细颗粒物(PM2.5),132,170,104,100,53,120,,102,102,24,29,23,15,0.8,0.8
2025-02-28T0000,1130A,126.561,45.8167,哈尔滨市,松北商大,细颗粒物(PM2.5),134,178,102,102,52,108,,92,92,26,30,4,5,0.8,0.7
2025-02-28T0000,1131A,126.979,45.5419,哈尔滨市,阿城会宁,细颗粒物(PM2.5),143,153,107,109,61,116,,100,100,15,19,4,8,0.8,0.9
2025-02-28T0000,1132A,126.599,45.7222,哈尔滨市,南岗学府路,"颗粒物(PM10),细颗粒物(PM2.5)",122,194,118,92,52,119,,104,104,19,27,13,16,0.7,0.7
2025-02-28T0000,1133A,126.689,45.7733,哈尔滨市,太平宏伟公园,细颗粒物(PM2.5),147,212,124,112,55,124,,104,104,15,23,20,15,0.8,0.7
2025-02-28T0000,1134A,126.635,45.7667,哈尔滨市,道外承德广场,细颗粒物(PM2.5),128,203,123,97,59,108,,91,91,17,30,13,16,1.0,0.7
2025-02-28T0000,1135A,126.685,45.7319,哈尔滨市,香坊红旗大街,细颗粒物(PM2.5),144,185,135,110,61,114,,88,88,25,39,20,23,0.8,0.8
2025-02-28T0000,1136A,126.6411,45.7258,哈尔滨市,动力和平路,细颗粒物(PM2.5),153,181,115,117,63,125,,103,103,17,27,14,17,0.6,0.7
2025-02-28T0000,1137A,126.593,45.7478,哈尔滨市,道里建国路,细颗粒物(PM2.5),150,179,119,115,65,111,,94,94,20,29,16,21,0.8,0.9
2025-02-28T0000,1138A,126.615,45.61,哈尔滨市,平房东轻厂,细颗粒物(PM2.5),133,149,115,101,55,119,,100,100,15,18,27,24,0.4,0.5
2025-02-28T0000,1139A,126.595,45.9855,哈尔滨市,呼兰师专,细颗粒物(PM2.5),189,221,109,142,60,100,,89,89,25,30,22,21,1.5,0.9
2025-02-28T0000,1140A,126.6206,45.6842,哈尔滨市,省农科院,细颗粒物(PM2.5),124,179,118,94,47,110,,90,90,17,29,17,16,0.5,0.5
2025-02-28T0000,2688A,93.5128,42.8172,哈密市,地区监测站,颗粒物(PM10),181,311,266,50,44,43,,77,65,38,35,9,10,0.5,0.5
2025-02-28T0000,2689A,93.4961,42.8328,哈密市,哈密师范学校,颗粒物(PM10),142,234,191,71,60,30,,73,60,50,39,4,9,1.2,1.3
2025-02-28T0000,2671A,100.9048,36.9639,海北藏族自治州,海晏县西海镇,,46,46,30,25,16,94,,95,94,11,7,17,13,0.5,0.4
2025-02-28T0000,3867A,102.0738,36.5056,海东市,平安区公安北苑,"颗粒物(PM10),细颗粒物(PM2.5)",54,58,58,38,33,89,,93,90,10,9,23,21,0.7,0.3
2025-02-28T0000,1409A,110.576,19.9507,海口市,东寨港,,18,16,28,12,22,57,,90,72,5,6,2,3,0.6,0.7
2025-02-28T0000,1410A,110.3232,20.0574,海口市,海南大学,,33,33,39,18,26,76,,112,86,13,17,3,3,0.4,0.5
2025-02-28T0000,1411A,110.283,20.0053,海口市,秀英海南医院,,34,34,42,16,22,63,,103,81,24,20,4,4,0.4,0.5
2025-02-28T0000,1412A,110.338,19.9969,海口市,海南师范大学,,35,35,42,16,22,76,,108,88,10,14,3,3,0.4,0.5
2025-02-28T0000,1413A,110.33,20.0356,海口市,龙华路环保局宿舍,,,,39,,24,73,,106,85,8,13,3,4,0.5,0.5
2025-02-28T0000,3539A,110.5111,19.9736,海口市,桂林洋子站,,26,26,28,14,19,69,,101,84,6,9,3,3,0.4,0.4
2025-02-28T0000,2673A,100.6188,36.2866,海南藏族自治州,共和县恰卜恰镇,颗粒物(PM10),52,54,41,35,23,26,,85,46,45,26,13,10,0.7,0.6
2025-02-28T0000,2676A,97.3731,37.3753,海西蒙古族藏族自治州,德令哈市,,38,38,32,7,13,46,,88,70,16,7,14,16,0.7,0.5
2025-02-28T0000,1048A,114.5302,36.6116,邯郸市,东污水处理厂,细颗粒物(PM2.5),149,151,104,114,78,4,,114,86,101,36,3,5,0.8,0.8
2025-02-28T0000,1049A,114.4918,36.5713,邯郸市,矿院,细颗粒物(PM2.5),153,176,126,117,82,9,,108,75,94,45,2,4,0.8,0.8
2025-02-28T0000,1050A,114.484,36.6133,邯郸市,丛台公园,细颗粒物(PM2.5),137,139,106,104,80,45,,112,92,47,31,10,13,0.8,0.7
2025-02-28T0000,3458A,114.7895,36.5593,邯郸市,香泉濮院小区,细颗粒物(PM2.5),155,158,108,118,75,60,,126,97,38,27,6,5,0.9,0.8
2025-02-28T0000,3579A,114.50634,36.77178,邯郸市,永年区实验高中,细颗粒物(PM2.5),148,179,129,113,74,13,,118,88,85,45,6,9,1.2,1
2025-02-28T0000,3580A,114.20016,36.44293,邯郸市,峰峰矿区临水派出所,细颗粒物(PM2.5),152,144,124,116,88,100,,123,112,15,24,12,15,1.3,1.6
2025-02-28T0000,2634A,106.9893,33.1842,汉中市,汉川机床厂子校,,46,37,36,32,31,50,,85,73,7,11,6,8,0.7,0.7
2025-02-28T0000,2635A,107.0154,33.0706,汉中市,市监测站,细颗粒物(PM2.5),108,89,53,81,40,29,,72,46,39,27,6,6,1.4,1.1
2025-02-28T0000,2636A,107.0089,33.1138,汉中市,鑫源开发区,细颗粒物(PM2.5),94,100,50,70,40,17,,81,58,58,29,6,7,1.3,1
2025-02-28T0000,2637A,107.007,33.0323,汉中市,南郑大河坎水厂,细颗粒物(PM2.5),103,85,53,77,42,22,,79,53,40,22,3,8,1.3,1
2025-02-28T0000,1223A,120.2072,30.2111,杭州市,滨江,细颗粒物(PM2.5),57,47,82,40,64,4,,70,43,65,45,6,6,1.1,0.9
2025-02-28T0000,1224A,120.0633,30.2747,杭州市,西溪,,35,34,87,24,55,3,,64,32,19,27,6,6,0.7,0.7
2025-02-28T0000,1226A,120.3461,30.3153,杭州市,下沙,细颗粒物(PM2.5),93,102,103,69,73,2,,66,41,93,57,6,5,1.0,0.9
2025-02-28T0000,1227A,120.1269,30.2456,杭州市,卧龙桥,,23,22,77,16,59,4,,68,27,26,34,5,6,0.6,0.7
2025-02-28T0000,1228A,120.1903,30.2692,杭州市,浙江农大,细颗粒物(PM2.5),64,68,88,46,59,2,,63,26,59,45,9,8,1.4,1
2025-02-28T0000,1230A,120.1197,30.3119,杭州市,和睦小学,颗粒物(PM10),55,60,88,38,74,3,,69,30,66,48,6,7,1.2,0.8
2025-02-28T0000,1231A,120.3019,30.4183,杭州市,临平镇,细颗粒物(PM2.5),120,,90,91,80,2,,74,28,90,53,6,6,1.0,0.9
2025-02-28T0000,1232A,120.2697,30.1819,杭州市,城厢镇,颗粒物(PM10),54,58,88,37,64,4,,66,32,80,66,6,7,0.9,0.7
2025-02-28T0000,1233A,120.0883,30.1808,杭州市,云栖,,29,29,76,18,56,10,,65,28,24,32,7,7,0.8,0.9
2025-02-28T0000,3557A,119.9464,30.0494,杭州市,镇二中,,39,37,57,27,53,2,,58,27,35,60,5,6,1.2,0.9
2025-02-28T0000,3558A,119.7183,30.2367,杭州市,市府大楼,,35,30,57,24,47,11,,62,34,35,32,7,8,0.6,0.6
2025-02-28T0000,3656A,120.1556,30.2864,杭州市,消防大队,,46,46,92,30,69,5,,75,38,64,47,7,7,1.1,0.9
2025-02-28T0000,1270A,117.1959,31.7848,合肥市,明珠广场,细颗粒物(PM2.5),64,56,57,46,44,53,,106,78,22,24,7,7,0.8,0.8
2025-02-28T0000,1271A,117.3072,31.8764,合肥市,三里街,细颗粒物(PM2.5),62,68,65,44,46,29,,96,60,41,31,5,5,0.7,0.7
2025-02-28T0000,1272A,117.2588,31.8707,合肥市,琥珀山庄,细颗粒物(PM2.5),69,53,58,50,54,55,,101,77,22,23,3,3,0.7,0.7
2025-02-28T0000,1273A,117.1604,31.9052,合肥市,董铺水库,细颗粒物(PM2.5),62,61,61,44,39,62,,110,89,13,14,3,3,0.5,0.5
2025-02-28T0000,1274A,117.25,31.8571,合肥市,长江中路,细颗粒物(PM2.5),72,61,60,52,49,59,,107,84,20,23,7,8,0.7,0.7
2025-02-28T0000,1275A,117.266,31.9436,合肥市,庐阳区,细颗粒物(PM2.5),62,61,65,44,45,55,,110,80,24,23,6,5,0.7,0.7
2025-02-28T0000,1276A,117.336,31.8586,合肥市,瑶海区,细颗粒物(PM2.5),62,61,64,44,44,50,,93,67,24,27,7,6,0.7,0.7
2025-02-28T0000,1277A,117.3027,31.7964,合肥市,包河区,细颗粒物(PM2.5),64,75,58,46,45,61,,108,82,12,14,4,4,0.6,0.7
2025-02-28T0000,1278A,117.2776,31.7385,合肥市,滨湖新区,细颗粒物(PM2.5),70,56,58,51,51,58,,105,81,14,15,6,6,0.7,0.7
2025-02-28T0000,1279A,117.1318,31.8403,合肥市,高新区,细颗粒物(PM2.5),70,61,62,51,47,55,,109,80,17,21,3,3,0.7,0.6
2025-02-28T0000,3464A,117.3803,31.9147,合肥市,高教基地,细颗粒物(PM2.5),68,59,59,49,47,56,,104,77,14,14,8,8,0.6,0.6
2025-02-28T0000,3614A,79.924,37.0877,和田地区,地区环保局,颗粒物(PM10),188,325,335,72,67,46,,82,60,16,6,2,6,0.6,0.7
2025-02-28T0000,3615A,79.9131,37.113,和田地区,市环保局,颗粒物(PM10),194,338,317,58,58,63,,88,78,11,9,1,2,0.4,0.4
2025-02-28T0000,2516A,108.2011,24.715,河池市,东仁乐园,细颗粒物(PM2.5),55,,23,39,22,10,,24,16,24,16,7,6,1.3,1
2025-02-28T0000,2517A,108.0497,24.6947,河池市,市环保站,细颗粒物(PM2.5),52,39,27,36,21,6,,23,14,16,12,8,9,1.2,0.9
2025-02-28T0000,2518A,108.0983,24.6989,河池市,市疾控中心,,35,,22,24,19,5,,20,11,22,14,5,6,0.9,0.7
2025-02-28T0000,1696A,114.6778,23.7569,河源市,源西,细颗粒物(PM2.5),57,54,37,40,34,23,,80,42,41,29,4,5,0.8,0.7
2025-02-28T0000,1697A,114.6944,23.7586,河源市,东埔,细颗粒物(PM2.5),64,56,42,46,37,9,,90,53,63,31,3,4,1.2,0.8
2025-02-28T0000,1698A,114.6892,23.7233,河源市,老城,细颗粒物(PM2.5),53,,38,37,36,9,,59,39,37,22,3,4,0.8,0.8
2025-02-28T0000,1718A,115.4208,35.2464,菏泽市,气象局,细颗粒物(PM2.5),120,115,120,91,91,92,,125,105,30,27,6,6,0.8,0.7
2025-02-28T0000,3374A,115.5564,35.0891,菏泽市,定陶老年大学,细颗粒物(PM2.5),113,112,107,85,79,87,,130,103,35,27,5,5,0.6,0.6
2025-02-28T0000,4184A,115.4797,35.24401,菏泽市,永昌路1号,细颗粒物(PM2.5),127,130,123,96,88,60,,128,96,54,32,8,8,1.1,0.8
2025-02-28T0000,4193A,115.4715,35.2800,菏泽市,长城路999号,细颗粒物(PM2.5),107,117,112,80,78,49,,118,91,63,33,10,9,0.9,0.8
2025-02-28T0000,2514A,111.5264,24.4172,贺州市,环保小区,细颗粒物(PM2.5),87,77,75,64,59,51,,44,31,20,32,7,7,1.1,1.3
2025-02-28T0000,2515A,111.5608,24.4078,贺州市,政协大楼,细颗粒物(PM2.5),60,65,69,43,53,52,,55,39,22,32,7,7,0.9,1.1
2025-02-28T0000,3534A,111.4744,24.4553,贺州市,西湾,细颗粒物(PM2.5),77,67,75,56,72,7,,39,22,39,33,6,5,1.3,0.9
2025-02-28T0000,2385A,114.17,35.9019,鹤壁市,市监测站,细颗粒物(PM2.5),132,133,143,100,100,34,,117,73,57,47,2,9,0.7,1
2025-02-28T0000,2386A,114.2956,35.7511,鹤壁市,市交警支队,细颗粒物(PM2.5),135,151,117,103,83,45,,116,82,55,32,9,9,0.2,0.8
2025-02-28T0000,2387A,114.2878,35.7306,鹤壁市,迎宾馆,细颗粒物(PM2.5),129,166,134,98,84,32,,123,79,62,41,5,10,1.0,0.8
2025-02-28T0000,3474A,114.2617,35.6822,鹤壁市,大新区,细颗粒物(PM2.5),159,127,102,121,97,10,,110,56,91,51,7,7,0.8,0.7
2025-02-28T0000,3596A,114.1572,35.9603,鹤壁市,南山宾馆,细颗粒物(PM2.5),144,127,139,110,102,94,,128,99,20,33,10,13,0.6,0.9
2025-02-28T0000,2244A,130.2537,47.3416,鹤岗市,哈啤分公司,细颗粒物(PM2.5),55,46,44,39,32,79,,78,78,12,15,16,17,0.9,0.6
2025-02-28T0000,2245A,130.2684,47.3086,鹤岗市,斯达机电,,45,36,45,31,28,84,,82,82,11,15,17,17,0.3,0.4
2025-02-28T0000,2246A,130.3114,47.3388,鹤岗市,东山纸板厂,,38,32,98,26,52,73,,78,78,17,31,13,17,0.4,1.9
2025-02-28T0000,2247A,130.1097,47.3382,鹤岗市,五号水库,,,,,,,,,,,,,,,,
2025-02-28T0000,2263A,127.4833,50.2524,黑河市,交通局,"颗粒物(PM10),细颗粒物(PM2.5)",68,86,34,49,20,110,,89,89,16,13,6,7,0.9,0.5
2025-02-28T0000,2264A,127.5144,50.2341,黑河市,环保局,"颗粒物(PM10),细颗粒物(PM2.5)",67,83,26,48,20,124,,103,103,14,9,5,5,0.5,0.3
2025-02-28T0000,2265A,127.5291,50.2472,黑河市,大黑河岛,,,,,,,,,,,,,,,,
2025-02-28T0000,1074A,115.6838,37.7541,衡水市,电机北厂,细颗粒物(PM2.5),144,151,128,110,91,98,,132,122,24,22,10,10,0.7,0.6
2025-02-28T0000,1075A,115.6303,37.7316,衡水市,市监测站,细颗粒物(PM2.5),150,137,113,115,88,79,,128,115,38,28,10,11,0.7,0.6
2025-02-28T0000,3188A,115.6683,37.7217,衡水市,市城管局,细颗粒物(PM2.5),142,118,110,108,88,88,,128,116,32,28,12,11,0.8,0.8
2025-02-28T0000,3459A,115.5989,37.5491,衡水市,地表水厂,细颗粒物(PM2.5),158,149,117,120,90,44,,127,70,66,48,12,12,0.8,0.7
2025-02-28T0000,2456A,112.5003,26.9167,衡阳市,原169医院,,36,28,46,25,34,30,,72,56,38,18,19,15,0.6,0.8
2025-02-28T0000,2457A,112.6194,26.9258,衡阳市,衡阳化工总厂,,38,38,56,20,48,52,,82,70,17,15,5,6,0.7,0.9
2025-02-28T0000,2458A,112.6211,26.8956,衡阳市,珠晖区环保局,,30,22,45,21,51,59,,82,72,13,14,6,8,0.9,1
2025-02-28T0000,2459A,112.6197,26.8733,衡阳市,市委党校,,23,20,50,16,39,57,,84,70,16,16,8,9,0.7,0.8
2025-02-28T0000,2460A,112.6006,26.8919,衡阳市,市监测站,,28,28,55,19,40,56,,79,68,15,15,8,9,0.7,0.9
2025-02-28T0000,2461A,112.5664,26.9056,衡阳市,真空机电公司,,50,50,65,27,54,46,,79,61,24,21,11,9,1.2,1
2025-02-28T0000,3399A,112.6703,26.882,衡阳市,师范学院,,31,31,47,18,36,50,,86,74,21,14,8,9,0.8,0.9
2025-02-28T0000,2608A,103.3772,23.3993,红河哈尼族彝族自治州,污水处理厂,,50,,35,35,31,88,,107,92,6,8,6,8,0.3,0.4
2025-02-28T0000,2609A,103.3861,23.35,红河哈尼族彝族自治州,监测站,细颗粒物(PM2.5),59,50,38,42,20,61,,105,82,17,10,9,8,0.5,0.3
2025-02-28T0000,3038A,103.3758,23.368,红河哈尼族彝族自治州,州图书馆,,40,40,28,27,26,66,,99,79,12,9,8,7,0.4,0.3
2025-02-28T0000,1090A,111.6507,40.7517,呼和浩特市,呼市一监,细颗粒物(PM2.5),208,202,131,158,71,2,,111,59,83,44,13,14,1.7,1.1
2025-02-28T0000,1091A,111.6572,40.8033,呼和浩特市,小召,细颗粒物(PM2.5),110,146,131,83,58,14,,101,53,93,60,12,12,1.3,1
2025-02-28T0000,1094A,111.7516,40.8369,呼和浩特市,如意水处理厂,颗粒物(PM10),87,123,119,59,52,7,,99,50,93,62,12,16,0.8,0.9
2025-02-28T0000,1095A,111.7276,40.8062,呼和浩特市,二十九中,细颗粒物(PM2.5),122,153,123,92,59,9,,95,52,90,51,10,12,1.2,1.1
2025-02-28T0000,1096A,111.5512,40.7866,呼和浩特市,工大金川校区,颗粒物(PM10),63,75,119,30,54,5,,101,55,91,54,8,15,0.5,0.7
2025-02-28T0000,1097A,111.717,40.7612,呼和浩特市,化肥厂生活区,细颗粒物(PM2.5),156,190,136,119,65,8,,106,57,99,53,14,13,1.4,1
2025-02-28T0000,3698A,111.5968,40.8178,呼和浩特市,红旗小学,颗粒物(PM10),70,90,129,43,54,12,,102,55,86,63,9,12,0.9,1
2025-02-28T0000,3699A,111.6518,40.8389,呼和浩特市,海东办,细颗粒物(PM2.5),134,166,124,102,59,4,,99,42,103,66,12,12,1.6,1.1
2025-02-28T0000,2192A,119.7594,49.2261,呼伦贝尔市,区环保局,,30,27,20,20,14,94,,82,82,5,8,6,6,0.3,0.4
2025-02-28T0000,3061A,119.7512,49.1577,呼伦贝尔市,国华电力东,,33,33,25,8,10,98,,89,89,3,4,5,5,0.4,0.4
2025-02-28T0000,1250A,120.0751,30.8669,湖州市,城西水厂,细颗粒物(PM2.5),103,114,137,77,112,6,,52,20,76,59,7,7,1.0,0.8
2025-02-28T0000,2873A,120.0875,30.8955,湖州市,仁皇山新区,细颗粒物(PM2.5),103,101,129,77,107,5,,54,18,66,51,4,5,1.1,1.1
2025-02-28T0000,2907A,120.1844,30.8596,湖州市,吴兴区站,细颗粒物(PM2.5),109,111,119,82,101,8,,56,29,75,46,7,7,1.0,1
2025-02-28T0000,3562A,120.4148,30.8538,湖州市,南浔区站,细颗粒物(PM2.5),128,162,115,97,95,40,,78,58,49,38,8,9,0.7,0.7
2025-02-28T0000,1607A,120.9092,40.7136,葫芦岛市,龙港区,细颗粒物(PM2.5),201,155,124,151,111,104,,116,112,27,44,12,16,1.1,1.1
2025-02-28T0000,1608A,120.8392,40.7514,葫芦岛市,化工街,细颗粒物(PM2.5),206,180,145,156,94,79,,104,92,42,55,21,22,,1.1
2025-02-28T0000,1609A,120.8341,40.7073,葫芦岛市,新区,细颗粒物(PM2.5),202,,109,152,109,100,,117,113,30,55,8,18,1.3,0.8
2025-02-28T0000,1610A,120.8695,40.7677,葫芦岛市,东城区,,,,103,,106,,,95,,,54,,22,,1.4
2025-02-28T0000,2482A,109.5981,27.5721,怀化市,林科所,,22,9,16,3,10,70,,70,69,13,16,2,4,0.5,0.6
2025-02-28T0000,2483A,109.9453,27.5444,怀化市,河西地税局,,22,8,23,3,18,70,,66,66,5,11,6,7,0.7,0.8
2025-02-28T0000,2484A,109.9781,27.5342,怀化市,市四医院,,18,15,34,10,18,57,,67,62,13,15,5,4,1.1,0.9
2025-02-28T0000,2485A,109.9972,27.5578,怀化市,监测楼,,18,16,28,7,17,56,,66,62,14,17,7,7,1.0,1
2025-02-28T0000,2486A,110.0394,27.583,怀化市,市委党校,,20,12,24,6,17,64,,70,62,12,15,8,7,1.2,1.1
2025-02-28T0000,1210A,119.036,33.5981,淮安市,钵池山,细颗粒物(PM2.5),175,141,127,132,117,51,,125,90,78,34,9,10,1.0,1
2025-02-28T0000,1211A,119.007,33.575,淮安市,北京南路,细颗粒物(PM2.5),158,,123,120,116,51,,117,66,74,44,9,11,1.3,1.2
2025-02-28T0000,1212A,118.989,33.6067,淮安市,市监测站,细颗粒物(PM2.5),156,122,122,119,112,102,,126,99,39,39,9,11,1.0,1
2025-02-28T0000,1213A,119.135,33.5039,淮安市,楚州区监测站,细颗粒物(PM2.5),158,132,139,120,118,59,,130,80,67,44,8,9,0.9,1.1
2025-02-28T0000,3426A,118.8755,33.2894,淮安市,新华书店,细颗粒物(PM2.5),163,124,133,124,115,76,,128,98,45,39,10,10,1.0,1
2025-02-28T0000,4206A,119.0288,33.6319,淮安市,承德北路606号,细颗粒物(PM2.5),165,163,149,125,113,18,,116,55,112,50,8,10,1.2,1.2
2025-02-28T0000,2282A,116.8004,33.975,淮北市,监测站,细颗粒物(PM2.5),87,94,118,64,82,61,,116,73,38,35,6,9,1.2,1.1
2025-02-28T0000,2283A,116.8091,33.9007,淮北市,烈山区政府,细颗粒物(PM2.5),97,101,99,72,77,83,,124,103,42,31,12,8,0.9,0.9
2025-02-28T0000,3330A,116.8873,33.9836,淮北市,杜集区检察院,细颗粒物(PM2.5),89,92,104,66,80,75,,123,99,41,29,7,7,0.9,1
2025-02-28T0000,4017A,116.7923,33.9535,淮北市,市博物馆,细颗粒物(PM2.5),89,101,109,66,80,73,,122,94,38,28,10,11,1.1,1.1
2025-02-28T0000,2277A,116.8305,32.7727,淮南市,潘集区政府,细颗粒物(PM2.5),125,119,104,95,81,44,,114,91,53,26,6,6,0.9,0.8
2025-02-28T0000,2279A,116.8569,32.5951,淮南市,谢家集区政府,细颗粒物(PM2.5),84,84,87,62,67,51,,114,92,35,26,8,13,0.5,0.5
2025-02-28T0000,2280A,116.8281,32.633,淮南市,八公山区政府,细颗粒物(PM2.5),82,79,87,60,65,66,,123,101,20,15,5,5,0.7,0.7
2025-02-28T0000,2281A,116.6325,32.6201,淮南市,焦岗湖风景区管理处,细颗粒物(PM2.5),72,82,76,52,51,41,,64,46,23,18,12,11,0.4,0.3
2025-02-28T0000,2894A,117.0566,32.6531,淮南市,经济技术开发区消防队,细颗粒物(PM2.5),92,82,85,68,68,58,,120,90,35,26,11,8,0.8,0.7
2025-02-28T0000,3329A,117.0108,32.5893,淮南市,山南新区,细颗粒物(PM2.5),102,76,80,76,66,69,,121,106,28,22,8,8,0.6,0.8
2025-02-28T0000,4209A,117.0031,32.6445,淮南市,国庆中路369号,细颗粒物(PM2.5),73,69,83,53,63,70,,118,96,25,28,8,8,0.5,0.5
2025-02-28T0000,2446A,114.9028,30.4742,黄冈市,职工中心,细颗粒物(PM2.5),85,74,67,63,56,49,,94,71,25,28,9,12,0.8,1
2025-02-28T0000,2929A,114.8858,30.4519,黄冈市,红卫路,细颗粒物(PM2.5),95,78,72,71,59,58,,106,87,4,19,9,9,1.0,0.9
2025-02-28T0000,3398A,114.9136,30.4445,黄冈市,市林业局,细颗粒物(PM2.5),84,78,69,62,55,48,,98,79,16,19,13,13,0.7,0.7
2025-02-28T0000,2672A,102.0199,35.5102,黄南藏族自治州,同仁县隆务镇,颗粒物(PM10),52,54,56,25,25,75,,79,78,3,8,16,16,0.5,0.4
2025-02-28T0000,2295A,118.2903,29.6963,黄山市,延安路89号,细颗粒物(PM2.5),53,42,37,37,26,2,,42,27,14,12,4,4,0.6,0.5
2025-02-28T0000,2297A,118.1371,30.2756,黄山市,黄山区政府5号楼,,25,25,28,14,22,15,,72,49,11,7,7,8,0.4,0.3
2025-02-28T0000,4210A,118.3354,29.7203,黄山市,滨江东路7-2号,,47,47,45,31,29,1,,41,24,14,13,4,4,0.6,0.6
2025-02-28T0000,2423A,115.0601,30.2313,黄石市,沈家营,颗粒物(PM10),81,111,89,59,54,34,,92,63,33,41,14,16,1.1,1
2025-02-28T0000,2426A,114.8988,30.2019,黄石市,铁山,细颗粒物(PM2.5),73,,59,53,55,44,,94,66,17,19,17,20,0.7,0.8
2025-02-28T0000,2427A,115.0307,30.2092,黄石市,团城山,细颗粒物(PM2.5),77,70,74,56,56,38,,98,80,36,30,11,11,1.0,1
2025-02-28T0000,3149A,115.0235,30.1578,黄石市,笔架山北路,细颗粒物(PM2.5),80,89,71,59,56,45,,100,69,36,35,11,11,0.9,1
2025-02-28T0000,4185A,115.0780,30.21118,黄石市,磁湖东路29号,细颗粒物(PM2.5),87,96,82,64,59,26,,98,74,47,37,12,10,1.2,1.1
2025-02-28T0000,1392A,114.4183,23.0528,惠州市,河南岸金山湖子站,,44,44,42,28,30,39,,118,76,37,24,8,9,0.6,0.6
2025-02-28T0000,1393A,114.4053,23.0822,惠州市,下埔横江三路子站,颗粒物(PM10),51,51,49,31,34,44,,129,85,39,27,7,8,0.6,0.6
2025-02-28T0000,1394A,114.4103,23.1142,惠州市,江北云山西路子站,,50,50,47,29,32,41,,143,96,49,30,9,9,0.6,0.7
2025-02-28T0000,1395A,114.4645,22.7833,惠州市,惠阳区承修路船湖子站,,47,47,40,29,24,98,,102,94,10,17,9,9,0.6,0.7
2025-02-28T0000,1396A,114.5317,22.7422,惠州市,大亚湾管委会子站,,37,37,37,20,20,108,,119,117,10,17,6,8,0.6,0.6
2025-02-28T0000,3314A,114.4338,22.8134,惠州市,惠阳秋长,,43,31,45,30,26,106,,120,101,16,21,8,10,0.7,0.7
2025-02-28T0000,3452A,114.6517,22.775,惠州市,大亚湾霞涌,,32,30,36,16,24,101,,125,115,9,16,7,8,0.6,0.5
2025-02-28T0000,2240A,130.9762,45.3001,鸡西市,环保局,颗粒物(PM10),59,67,65,39,35,124,,88,82,9,30,9,10,0.6,0.8
2025-02-28T0000,2243A,130.9429,45.3039,鸡西市,第一中学,颗粒物(PM10),61,72,49,40,22,120,,97,97,9,12,10,9,0.5,0.4
2025-02-28T0000,3707A,131.0207,45.3073,鸡西市,欧美日汽修厂,"颗粒物(PM10),细颗粒物(PM2.5)",73,95,88,53,46,86,,86,46,23,35,17,18,1.0,1.2
2025-02-28T0000,3709A,130.9967,45.3106,鸡西市,市政设施管理处,颗粒物(PM10),81,111,75,55,35,42,,80,32,43,42,19,11,0.9,0.8
2025-02-28T0000,2367A,114.9754,27.0803,吉安市,红声器材厂,细颗粒物(PM2.5),58,64,59,41,39,34,,79,56,37,24,16,12,0.6,0.8
2025-02-28T0000,2368A,114.9658,27.0999,吉安市,市森林工业局,细颗粒物(PM2.5),62,59,55,44,41,28,,81,59,60,34,7,7,0.7,0.7
2025-02-28T0000,2369A,114.99,27.1312,吉安市,市环境监测站,细颗粒物(PM2.5),54,54,59,38,44,39,,78,61,41,29,15,13,0.2,0.6
2025-02-28T0000,2370A,115.0093,27.0968,吉安市,青原区法院,细颗粒物(PM2.5),67,76,62,48,45,9,,76,45,60,32,17,15,1.0,7.2
2025-02-28T0000,1772A,126.54,43.8622,吉林市,哈达湾,细颗粒物(PM2.5),97,105,79,72,48,136,,141,139,13,15,10,12,0.8,0.8
2025-02-28T0000,1773A,126.5844,43.8358,吉林市,东局子,细颗粒物(PM2.5),94,116,93,70,44,136,,137,136,11,16,7,8,0.8,0.8
2025-02-28T0000,1774A,126.5052,43.8245,吉林市,电力学院,细颗粒物(PM2.5),93,112,88,69,42,132,,138,136,16,16,6,7,0.6,0.7
2025-02-28T0000,1775A,126.6133,43.8972,吉林市,江北,细颗粒物(PM2.5),99,125,100,74,50,126,,123,122,22,22,41,33,0.6,0.8
2025-02-28T0000,1776A,126.555,43.8306,吉林市,江南公园,细颗粒物(PM2.5),108,122,102,81,59,131,,136,135,14,14,9,10,0.5,0.6
2025-02-28T0000,1778A,126.7061,43.7133,吉林市,丰满,细颗粒物(PM2.5),107,110,68,80,41,155,,119,,13,11,8,10,0.8,0.7
2025-02-28T0000,2868A,126.4739,43.953,吉林市,九站,细颗粒物(PM2.5),94,109,99,70,48,132,,144,142,19,20,9,10,0.9,0.9
2025-02-28T0000,1299A,116.9862,36.6114,济南市,科干所,细颗粒物(PM2.5),83,97,95,61,63,134,,154,144,22,22,8,8,0.6,0.6
2025-02-28T0000,1300A,116.9376,36.665,济南市,农科所,细颗粒物(PM2.5),110,137,111,83,66,78,,139,111,44,25,10,10,1.0,0.9
2025-02-28T0000,1301A,117.1265,36.6734,济南市,开发区,细颗粒物(PM2.5),110,115,92,83,71,89,,143,117,42,22,8,9,0.8,0.6
2025-02-28T0000,1303A,117.0624,36.6868,济南市,省种子仓库,细颗粒物(PM2.5),125,151,108,95,71,30,,144,109,105,31,9,8,1.2,0.8
2025-02-28T0000,1304A,116.9489,36.6447,济南市,机床二厂,细颗粒物(PM2.5),125,134,111,95,80,101,,143,124,34,22,14,15,1.1,0.9
2025-02-28T0000,1305A,117.0495,36.663,济南市,市监测站,细颗粒物(PM2.5),104,110,92,78,68,93,,143,126,46,31,10,10,0.7,0.6
2025-02-28T0000,1306A,116.7675,36.5484,济南市,长清党校,细颗粒物(PM2.5),125,129,111,95,76,130,,152,143,32,27,9,9,0.8,0.8
2025-02-28T0000,1616A,117.6795,36.229,济南市,技术学院,细颗粒物(PM2.5),188,183,123,141,93,14,,143,114,136,50,14,14,1.6,1.3
2025-02-28T0000,1961A,117.532,36.6868,济南市,东山小学,细颗粒物(PM2.5),110,122,110,83,72,121,,147,136,31,26,9,11,0.8,0.9
2025-02-28T0000,3059A,117.7161,36.2049,济南市,泰兴公司,细颗粒物(PM2.5),192,205,142,144,96,8,,137,53,112,65,15,13,1.4,1
2025-02-28T0000,3064A,117.6867,36.2171,济南市,莱芜战役纪念馆,细颗粒物(PM2.5),188,210,136,141,93,12,,139,102,132,49,10,10,1.5,1.1
2025-02-28T0000,3494A,117.1673,36.9782,济南市,济阳区政府,细颗粒物(PM2.5),117,127,116,88,77,91,,130,108,38,24,14,15,0.7,0.6
2025-02-28T0000,3495A,117.1171,36.63,济南市,锦屏中学,细颗粒物(PM2.5),102,90,86,76,66,132,,157,134,22,22,13,14,0.7,0.6
2025-02-28T0000,3682A,116.9814,36.6819,济南市,济南四建,细颗粒物(PM2.5),108,110,85,81,69,99,,142,123,38,24,11,10,0.7,0.5
2025-02-28T0000,1653A,116.6251,35.4302,济宁市,火炬城,,,108,108,,73,87,,135,111,27,26,15,12,1.1,1.1
2025-02-28T0000,1655A,116.5491,35.4042,济宁市,电化厂,细颗粒物(PM2.5),144,146,140,110,101,78,,143,113,23,21,13,12,1.2,1.1
2025-02-28T0000,3500A,116.5814,35.3707,济宁市,北湖一中,细颗粒物(PM2.5),140,,101,107,90,82,,135,119,33,22,9,8,0.9,0.8
2025-02-28T0000,3501A,116.8249,35.5593,济宁市,服务中心,细颗粒物(PM2.5),165,186,140,125,93,28,,138,88,74,32,10,9,1.3,1.1
2025-02-28T0000,3678A,116.5907,35.4054,济宁市,市第七中学,细颗粒物(PM2.5),147,117,101,112,92,67,,137,113,76,55,7,6,1.0,0.9
2025-02-28T0000,2255A,130.2751,46.8028,佳木斯市,佳纺,细颗粒物(PM2.5),104,94,70,78,45,21,,59,45,61,39,5,7,0.9,0.7
2025-02-28T0000,2256A,130.3995,46.8307,佳木斯市,发电厂,,48,38,47,33,35,88,,86,86,16,25,4,5,0.5,0.5
2025-02-28T0000,2257A,130.3258,46.7975,佳木斯市,环保局,,49,46,73,34,44,81,,68,68,14,34,8,11,0.3,0.7
2025-02-28T0000,2258A,130.3648,46.8032,佳木斯市,十一中,,48,40,61,33,43,78,,69,69,11,39,5,7,0.3,0.5
2025-02-28T0000,2259A,130.3794,46.7588,佳木斯市,四丰,,50,42,43,35,36,60,,61,44,26,34,1,1,0.7,0.8
2025-02-28T0000,1252A,120.7436,30.778,嘉兴市,清河小学,细颗粒物(PM2.5),87,91,89,64,66,3,,84,44,83,40,5,6,0.7,0.6
2025-02-28T0000,1253A,120.726,30.7478,嘉兴市,嘉兴学院,细颗粒物(PM2.5),110,114,101,83,74,17,,83,51,56,32,7,7,0.8,0.7
2025-02-28T0000,2872A,120.7846,30.7525,嘉兴市,南湖区残联,细颗粒物(PM2.5),104,92,101,78,76,8,,88,55,74,34,8,9,1.0,0.7
2025-02-28T0000,3407A,120.6916,30.7739,嘉兴市,秀洲住建,颗粒物(PM10),98,145,113,71,76,11,,86,35,61,39,5,7,1.0,0.9
2025-02-28T0000,1945A,98.2908,39.7711,嘉峪关市,气象局,颗粒物(PM10),63,75,73,29,25,75,,107,90,26,21,4,8,0.3,0.2
2025-02-28T0000,2884A,98.2672,39.7978,嘉峪关市,酒钢宾馆,颗粒物(PM10),69,88,80,34,23,35,,100,85,59,22,3,11,0.6,0.6
2025-02-28T0000,3248A,98.2643,39.7724,嘉峪关市,雄关区,颗粒物(PM10),63,75,61,30,25,6,,108,84,96,29,11,13,0.5,0.5
2025-02-28T0000,1383A,113.1064,22.6058,江门市,北街,,36,,64,25,49,70,,121,89,15,44,2,3,0.5,0.8
2025-02-28T0000,1384A,113.0731,22.5835,江门市,西区,,38,38,68,25,39,83,,124,96,21,49,5,7,0.6,0.9
2025-02-28T0000,1385A,113.0219,22.5311,江门市,圭峰西,,42,29,63,29,47,63,,116,86,21,42,4,4,0.6,0.9
2025-02-28T0000,1386A,113.0828,22.5947,江门市,东湖,,49,49,69,24,45,84,,130,99,15,37,6,7,0.5,0.8
2025-02-28T0000,3311A,113.1075,22.5647,江门市,江海富民,颗粒物(PM10),54,58,88,33,59,80,,131,99,18,40,6,7,0.5,0.7
2025-02-28T0000,3449A,113.05,22.4667,江门市,新会银湖,,49,,60,34,58,66,,121,93,21,36,6,7,0.6,0.9
2025-02-28T0000,1830A,113.1992,35.2590,焦作市,影视城,,,,102,,56,,,95,,,16,,17,,1
2025-02-28T0000,3169A,113.2725,35.2067,焦作市,太极体育中心,细颗粒物(PM2.5),137,120,129,104,84,63,,118,94,34,29,12,14,1.3,1
2025-02-28T0000,3335A,113.3137,35.2641,焦作市,马村街道办,细颗粒物(PM2.5),122,124,119,92,86,70,,112,92,35,30,10,12,0.9,0.9
2025-02-28T0000,3336A,113.2465,35.2373,焦作市,焦作技师学院,细颗粒物(PM2.5),104,119,115,78,75,76,,111,90,28,26,9,10,1.0,1
2025-02-28T0000,3477A,113.1656,35.2539,焦作市,中站许衡医院,细颗粒物(PM2.5),110,108,100,83,70,112,,117,101,22,32,10,12,0.9,1
2025-02-28T0000,3981A,113.2449,35.1803,焦作市,原李万街道办,细颗粒物(PM2.5),138,173,121,105,77,50,,118,99,41,30,15,16,1.1,0.7
2025-02-28T0000,4264A,113.2340,35.2190,焦作市,新安路1731号,细颗粒物(PM2.5),118,124,120,89,84,81,,118,99,31,29,8,10,0.8,0.7
2025-02-28T0000,1708A,116.3701,23.5345,揭阳市,新兴,细颗粒物(PM2.5),134,105,73,102,60,62,,92,71,47,36,10,10,1.4,1
2025-02-28T0000,1709A,116.3264,23.5443,揭阳市,西马,细颗粒物(PM2.5),118,98,74,89,56,68,,144,108,36,28,14,13,1.1,0.9
2025-02-28T0000,1710A,116.3611,23.5626,揭阳市,东兴,细颗粒物(PM2.5),125,115,83,95,57,57,,136,100,44,32,12,10,1.6,1.2
2025-02-28T0000,1711A,116.4151,23.5294,揭阳市,渔湖,颗粒物(PM10),71,91,74,44,35,84,,140,114,26,27,9,11,1.3,1.2
2025-02-28T0000,3320A,116.403,23.5699,揭阳市,曲溪,细颗粒物(PM2.5),73,84,68,53,42,65,,143,108,39,30,2,6,0.9,0.9
2025-02-28T0000,1944A,102.1692,38.5167,金昌市,天庆家园,颗粒物(PM10),59,67,53,27,22,57,,102,81,22,16,12,8,1.5,1
2025-02-28T0000,4022A,102.1647,38.5371,金昌市,金川区人防中心,颗粒物(PM10),55,59,63,22,23,60,,98,82,11,8,10,6,0.7,0.6
2025-02-28T0000,4239A,102.1930,38.5319,金昌市,长春路96号,颗粒物(PM10),58,66,50,36,24,50,,99,82,26,14,6,10,0.9,0.8
2025-02-28T0000,1262A,119.647,29.077,金华市,十五中,细颗粒物(PM2.5),83,88,77,61,58,6,,54,21,56,46,5,6,1.5,1.1
2025-02-28T0000,1263A,119.686,29.1029,金华市,监测站,细颗粒物(PM2.5),72,77,72,52,51,2,,47,21,64,53,5,5,1.2,0.8
2025-02-28T0000,3659A,119.656,29.1131,金华市,气象局,颗粒物(PM10),75,100,79,51,66,0,,53,18,62,51,6,5,1.4,1
2025-02-28T0000,1767A,121.1115,41.0879,锦州市,南山,细颗粒物(PM2.5),225,,140,175,130,90,,104,97,40,59,25,27,1.1,1.5
2025-02-28T0000,1768A,121.0533,40.8434,锦州市,开发区,细颗粒物(PM2.5),202,160,143,152,113,97,,115,108,41,52,10,27,1.1,1.1
2025-02-28T0000,1769A,121.1836,41.1119,锦州市,百股街道,细颗粒物(PM2.5),185,,123,139,101,97,,112,106,41,63,12,18,1.4,1.5
2025-02-28T0000,1770A,121.1178,41.1222,锦州市,天安街道,细颗粒物(PM2.5),235,,146,185,130,80,,104,96,44,58,24,26,1.4,1.6
2025-02-28T0000,1771A,121.1303,41.1386,锦州市,北湖公园,细颗粒物(PM2.5),217,,132,167,111,77,,103,96,43,60,23,25,1.2,1.3
2025-02-28T0000,2160A,112.85,35.5051,晋城市,自来水公司,细颗粒物(PM2.5),110,85,95,83,68,34,,110,86,58,39,9,11,0.9,1.2
2025-02-28T0000,2161A,112.8318,35.4936,晋城市,白云商贸,细颗粒物(PM2.5),92,112,103,68,59,50,,117,90,47,35,8,9,0.8,1
2025-02-28T0000,2162A,112.8508,35.4887,晋城市,市环保局,细颗粒物(PM2.5),125,157,103,95,61,39,,112,86,61,43,12,13,,
2025-02-28T0000,2163A,112.8676,35.4897,晋城市,技术学院,细颗粒物(PM2.5),98,128,103,73,56,35,,107,83,64,44,9,9,1.0,1.1
2025-02-28T0000,2165A,112.8453,35.546,晋城市,白马寺,,,,,,,,,,,,,,,,
2025-02-28T0000,3620A,112.8271,35.4828,晋城市,泽州一中,细颗粒物(PM2.5),98,123,105,73,68,63,,108,94,39,32,11,10,0.9,1.1
2025-02-28T0000,2173A,112.7249,37.7067,晋中市,南都小区,颗粒物(PM10),95,140,111,59,52,37,,126,80,64,45,17,16,1.0,0.9
2025-02-28T0000,2174A,112.6991,37.6982,晋中市,榆次区政府,颗粒物(PM10),92,134,113,63,49,41,,124,86,61,45,19,17,0.8,0.8
2025-02-28T0000,2865A,112.7195,37.6828,晋中市,榆次三中,颗粒物(PM10),96,141,118,63,55,16,,126,82,82,46,14,14,0.7,0.7
2025-02-28T0000,4200A,112.7478,37.6954,晋中市,迎宾街26号,颗粒物(PM10),91,132,114,63,55,41,,130,85,47,41,14,14,0.6,0.7
2025-02-28T0000,2439A,112.2014,31.0481,荆门市,竹园小学,细颗粒物(PM2.5),70,79,82,51,63,33,,99,70,52,24,4,5,0.8,0.6
2025-02-28T0000,2440A,112.1969,30.9891,荆门市,掇刀,细颗粒物(PM2.5),73,72,84,53,63,63,,100,72,42,26,14,15,0.7,0.8
2025-02-28T0000,2441A,112.2213,31.0386,荆门市,石化一小,细颗粒物(PM2.5),88,88,85,65,63,46,,100,70,45,31,14,11,1.0,0.8
2025-02-28T0000,3012A,112.1849,31.0362,荆门市,西山林语,细颗粒物(PM2.5),65,57,72,47,58,79,,102,90,23,18,5,4,0.2,0.4
2025-02-28T0000,3547A,112.1632,31.0138,荆门市,龙泉中学南校,细颗粒物(PM2.5),70,65,79,51,62,64,,99,86,29,21,11,8,0.9,0.7
2025-02-28T0000,1844A,112.2494,30.3197,荆州市,市图书馆,颗粒物(PM10),59,68,52,41,51,22,,99,64,72,24,7,5,1.2,1
2025-02-28T0000,1845A,112.2008,30.3544,荆州市,市委党校,细颗粒物(PM2.5),62,68,53,44,52,13,,93,58,66,26,6,6,1.1,1
2025-02-28T0000,3194A,112.2747,30.3122,荆州市,管委会,细颗粒物(PM2.5),62,68,56,44,50,8,,98,63,68,24,10,9,1.0,0.9
2025-02-28T0000,4268A,112.1722,30.3366,荆州市,学苑路85号,细颗粒物(PM2.5),73,,40,53,48,23,,99,73,42,17,8,8,1.0,0.9
2025-02-28T0000,2342A,117.3102,29.3867,景德镇市,王港中学,,,,,,,,,,,,,,,,
2025-02-28T0000,2343A,117.2117,29.2933,景德镇市,老干部活动中心,,40,32,39,28,34,12,,38,26,23,21,4,5,0.5,0.6
2025-02-28T0000,2344A,117.1894,29.2789,景德镇市,兽医站,,41,41,50,20,29,20,,35,29,16,27,5,5,0.6,0.7
2025-02-28T0000,2345A,117.1547,29.2617,景德镇市,台达陶瓷,,44,44,61,25,40,21,,28,21,14,40,14,69,0.6,0.8
2025-02-28T0000,2346A,117.2461,29.2956,景德镇市,陶研所,,36,32,34,25,33,10,,40,30,25,21,3,4,0.5,0.5
2025-02-28T0000,1803A,115.9872,29.6815,九江市,十里,细颗粒物(PM2.5),80,92,71,59,46,8,,75,38,50,32,8,8,1.2,0.8
2025-02-28T0000,1804A,115.9584,29.7046,九江市,茅山头,颗粒物(PM10),66,81,70,46,48,9,,77,41,63,38,7,8,0.6,0.5
2025-02-28T0000,1805A,115.9877,29.7295,九江市,西园,细颗粒物(PM2.5),69,62,58,50,50,38,,76,62,42,37,12,12,0.7,0.7
2025-02-28T0000,1808A,115.9114,29.6038,九江市,综合工业园,细颗粒物(PM2.5),64,48,52,46,51,21,,81,48,49,35,6,7,1.0,0.9
2025-02-28T0000,1809A,116.0721,29.7535,九江市,石化总厂,细颗粒物(PM2.5),62,47,66,44,57,52,,79,66,11,21,12,14,0.6,0.9
2025-02-28T0000,1810A,115.9773,29.5698,九江市,庐山气象台,,25,13,12,12,10,80,,79,79,4,6,7,18,0.7,0.8
2025-02-28T0000,3190A,116.0254,29.6994,九江市,外国语学校,细颗粒物(PM2.5),65,58,70,47,51,52,,78,71,26,35,9,8,1.0,1
2025-02-28T0000,4253A,116.0102,29.6594,九江市,莲花大道8号,细颗粒物(PM2.5),78,57,58,57,60,30,,69,47,12,17,6,7,0.7,0.7
2025-02-28T0000,2658A,98.5061,39.7443,酒泉市,仓门街子站,,,112,82,45,31,26,,104,82,,16,10,17,0.9,0.7
2025-02-28T0000,4240A,98.4958,39.7339,酒泉市,玉门东路5号,颗粒物(PM10),89,127,89,59,36,17,,103,76,43,19,9,15,1.0,0.6
2025-02-28T0000,2698A,76.0072,39.4467,喀什地区,巡警大队,颗粒物(PM10),141,231,255,38,68,77,,86,81,19,47,11,10,0.6,1.3
2025-02-28T0000,2699A,75.9755,39.4694,喀什地区,吾办,颗粒物(PM10),141,231,265,67,84,84,,84,81,15,52,11,9,0.4,1.3
2025-02-28T0000,4027A,75.9483,39.4689,喀什地区,老干局,颗粒物(PM10),153,256,273,53,75,72,,86,80,27,45,14,11,0.8,1.4
2025-02-28T0000,1824A,114.3389,34.7781,开封市,肿瘤医院,细颗粒物(PM2.5),147,124,103,112,92,69,,112,87,28,21,7,6,1.0,0.9
2025-02-28T0000,1826A,114.2885,34.7965,开封市,世纪星幼儿园,细颗粒物(PM2.5),148,118,98,113,94,62,,123,94,46,28,6,7,0.9,0.8
2025-02-28T0000,3147A,114.3438,34.8106,开封市,龙亭公园,细颗粒物(PM2.5),163,135,101,124,100,35,,117,84,64,28,4,4,1.3,1
2025-02-28T0000,3210A,114.3644,34.7964,开封市,汴京公园,,,,118,,98,,,102,,,29,,6,,0.8
2025-02-28T0000,3473A,114.2485,34.8306,开封市,技师学院,细颗粒物(PM2.5),137,,95,104,87,63,,113,98,46,23,9,8,1.0,0.9
2025-02-28T0000,3592A,114.4644,34.7556,开封市,祥符区生态环境局,细颗粒物(PM2.5),166,158,123,126,98,12,,108,56,97,42,5,5,1.0,0.8
2025-02-28T0000,1951A,84.895,45.6094,克拉玛依市,长征新村,细颗粒物(PM2.5),109,116,106,82,75,95,,101,97,28,27,7,7,0.9,0.8
2025-02-28T0000,1952A,84.8988,45.5893,克拉玛依市,南林小区,细颗粒物(PM2.5),94,107,101,70,68,98,,105,100,19,16,1,1,1.0,1
2025-02-28T0000,1954A,84.905,44.3396,克拉玛依市,独山子区,,36,30,35,25,19,48,,98,77,27,10,5,6,0.5,0.5
2025-02-28T0000,1955A,85.6979,46.098,克拉玛依市,乌尔禾区商贸楼,细颗粒物(PM2.5),124,108,85,94,65,63,,112,102,44,24,3,5,1.2,1
2025-02-28T0000,3612A,85.1045,45.6899,克拉玛依市,白碱滩区新站,颗粒物(PM10),90,130,111,62,67,81,,106,94,23,22,7,7,1.3,0.7
2025-02-28T0000,2697A,76.1454,39.7142,克孜勒苏柯尔克孜自治州,市人民政府,颗粒物(PM10),155,259,234,78,68,40,,96,83,48,18,8,6,1.0,0.8
2025-02-28T0000,3665A,76.1658,39.7157,克孜勒苏柯尔克孜自治州,克州文化中心,,,275,230,,60,57,,95,87,46,24,9,10,1.0,0.9
2025-02-28T0000,1450A,102.8204,24.8886,昆明市,呈贡新区,,45,33,33,31,19,90,,104,93,13,17,6,7,0.5,0.4
2025-02-28T0000,1451A,102.6251,24.9608,昆明市,西山森林公园,,,,,,,,,,,,,,,,
2025-02-28T0000,1452A,102.7252,25.0902,昆明市,龙泉镇,,35,33,29,24,15,80,,108,95,17,32,9,7,0.5,0.5
2025-02-28T0000,1453A,102.7266,25.0375,昆明市,东风东路,,50,46,36,35,22,61,,98,87,32,34,8,7,0.5,0.6
2025-02-28T0000,1454A,102.6742,25.0669,昆明市,金鼎山,,43,,37,30,20,78,,102,90,23,29,12,9,0.4,0.4
2025-02-28T0000,1455A,102.6644,25.0401,昆明市,碧鸡广场,,45,45,35,26,19,59,,105,83,45,33,10,9,0.3,0.4
2025-02-28T0000,3179A,102.7494,25.0119,昆明市,官渡区博物馆,,42,42,42,23,23,88,,99,94,13,31,6,6,0.6,0.7
2025-02-28T0000,3375A,102.8017,24.8336,昆明市,青年创业园,,43,43,28,22,17,89,,107,100,12,18,7,7,0.5,0.4
2025-02-28T0000,3550A,102.7997,24.9786,昆明市,昆明学院,,45,45,39,25,20,94,,106,99,12,24,6,6,0.4,0.5
2025-02-28T0000,3551A,102.5967,24.6736,昆明市,晋宁区生态环境分局,细颗粒物(PM2.5),67,51,20,48,17,87,,104,98,10,11,4,2,0.9,0.7
2025-02-28T0000,3552A,102.6678,24.9856,昆明市,云天化总部,,37,37,28,23,16,72,,112,104,29,27,8,11,0.8,0.8
2025-02-28T0000,1456A,91.1319,29.6514,拉萨市,八廓街,,32,32,22,15,14,84,,96,88,12,12,7,7,0.4,0.4
2025-02-28T0000,1457A,91.1221,29.6747,拉萨市,市环保局,,,109,31,,16,54,,90,76,28,19,14,8,0.9,0.7
2025-02-28T0000,1458A,91.0874,29.6475,拉萨市,区监测站,,28,28,19,14,12,85,,93,88,11,17,6,6,0.2,0.2
2025-02-28T0000,1459A,91.1774,29.6541,拉萨市,西藏大学,,26,21,19,8,9,82,,88,86,10,11,6,5,0.6,0.5
2025-02-28T0000,1460A,90.9798,29.6588,拉萨市,区辐射站,,31,31,28,11,15,74,,94,90,19,25,8,8,0.5,0.5
2025-02-28T0000,1461A,91.0834,29.6292,拉萨市,拉萨火车站,,28,11,17,11,10,89,,94,93,6,20,6,6,0.3,0.5
2025-02-28T0000,2520A,109.2203,23.7256,来宾市,来宾技工学校,细颗粒物(PM2.5),104,,40,78,44,5,,18,6,31,26,9,7,1.9,1.4
2025-02-28T0000,3535A,109.1781,23.7297,来宾市,兴宾区政府,细颗粒物(PM2.5),64,70,41,46,33,8,,19,10,28,27,8,7,1.4,1.4
2025-02-28T0000,4002A,109.2416,23.7461,来宾市,中南小学,细颗粒物(PM2.5),62,55,38,44,34,8,,20,10,22,23,9,9,2.3,1.4
2025-02-28T0000,1477A,104.1373,35.9454,兰州市,榆中兰大校区,,,,,,,,,,,,,,,,
2025-02-28T0000,1479A,103.831,36.0464,兰州市,铁路设计院,细颗粒物(PM2.5),85,89,84,63,57,6,,71,39,97,82,17,16,1.5,1.4
2025-02-28T0000,3241A,103.7439,36.0842,兰州市,百合公园,细颗粒物(PM2.5),85,109,85,63,47,5,,89,45,85,59,13,17,1.4,1.2
2025-02-28T0000,3242A,103.9611,35.998,兰州市,和平,颗粒物(PM10),51,52,70,28,36,32,,86,64,60,42,9,15,0.4,0.6
2025-02-28T0000,4236A,103.6293,36.0938,兰州市,庄浪东路808号,颗粒物(PM10),59,67,77,37,47,33,,104,56,58,57,10,17,1.0,1.1
2025-02-28T0000,4237A,103.7251,36.1043,兰州市,安宁西路88号,细颗粒物(PM2.5),68,81,98,49,50,7,,111,58,86,62,17,28,0.8,1
2025-02-28T0000,4238A,103.8470,36.0676,兰州市,北滨河东路1号,颗粒物(PM10),67,84,69,45,42,6,,94,51,94,68,10,15,0.9,1.1
2025-02-28T0000,3245A,103.6633,36.533,兰州新区,新区管委会,颗粒物(PM10),63,76,65,43,45,27,,102,77,29,18,17,21,0.7,0.7
2025-02-28T0000,3246A,103.6975,36.4789,兰州新区,舟曲中学,颗粒物(PM10),112,173,84,73,40,28,,101,81,65,28,16,16,0.6,0.6
2025-02-28T0000,1067A,116.6708,39.5111,廊坊市,药材公司,细颗粒物(PM2.5),193,200,162,145,114,79,,110,96,44,70,11,15,1.1,1.2
2025-02-28T0000,1068A,116.7214,39.5589,廊坊市,开发区,细颗粒物(PM2.5),200,201,162,150,111,49,,108,88,70,73,23,25,1.1,1
2025-02-28T0000,1070A,116.7244,39.5269,廊坊市,北华航天学院,细颗粒物(PM2.5),201,216,160,151,106,34,,108,78,85,79,10,15,1.3,1.1
2025-02-28T0000,2919A,116.7022,39.5453,廊坊市,河北工业大学,细颗粒物(PM2.5),192,185,154,144,114,61,,109,93,59,68,12,16,1.0,1
2025-02-28T0000,2535A,103.7723,29.5462,乐山市,花湖湾,细颗粒物(PM2.5),133,110,62,101,66,45,,107,76,30,22,7,7,0.9,0.7
2025-02-28T0000,2536A,103.7627,29.5844,乐山市,牛耳桥,细颗粒物(PM2.5),127,123,76,96,64,40,,94,65,31,27,6,7,0.8,0.6
2025-02-28T0000,2537A,103.7508,29.6006,乐山市,市第三水厂,细颗粒物(PM2.5),107,106,73,80,54,42,,99,66,24,21,4,4,0.7,0.6
2025-02-28T0000,2538A,103.7571,29.5664,乐山市,市监测站,细颗粒物(PM2.5),72,92,65,52,51,42,,96,67,25,19,6,6,0.9,0.7
2025-02-28T0000,3361A,103.7311,29.5628,乐山市,理工大学,细颗粒物(PM2.5),118,112,72,89,62,38,,102,65,27,21,7,8,0.8,0.6
2025-02-28T0000,2598A,100.2143,26.8576,丽江市,西南郊,,,,15,,7,,,100,,,2,,4,,0.4
2025-02-28T0000,2599A,100.2497,26.8802,丽江市,丽江古城,,25,22,18,17,10,74,,98,88,13,10,8,8,0.5,0.5
2025-02-28T0000,2600A,100.2203,26.8906,丽江市,市中心,,29,8,13,3,6,91,,98,93,7,8,5,6,0.5,0.5
2025-02-28T0000,1267A,119.914,28.4514,丽水市,监测站大楼,,34,34,40,16,33,3,,74,19,37,23,4,4,0.7,0.6
2025-02-28T0000,1268A,119.93,28.4586,丽水市,莲都小学,,23,23,40,8,29,3,,78,28,38,28,3,5,0.7,0.6
2025-02-28T0000,1269A,119.879,28.4231,丽水市,余庄前,,10,10,42,6,30,4,,73,32,10,16,4,4,0.5,0.5
2025-02-28T0000,1173A,119.176,34.5885,连云港市,市环境监测站,细颗粒物(PM2.5),185,163,144,139,117,90,,132,114,33,29,10,11,0.9,0.8
2025-02-28T0000,3000A,119.3581,34.6972,连云港市,德源药业,细颗粒物(PM2.5),180,183,145,136,114,26,,114,61,88,46,8,10,0.9,0.9
2025-02-28T0000,3007A,119.178,34.844,连云港市,新城一中,细颗粒物(PM2.5),134,124,142,102,122,52,,124,77,48,52,7,9,0.7,0.9
2025-02-28T0000,3008A,119.3608,34.7519,连云港市,胡沟管理处,细颗粒物(PM2.5),156,139,124,119,104,64,,123,73,62,46,8,10,0.9,0.9
2025-02-28T0000,3009A,119.1478,34.5911,连云港市,矿山设计院,细颗粒物(PM2.5),180,180,155,136,117,88,,132,114,35,30,9,7,0.9,0.8
2025-02-28T0000,3434A,119.2413,34.6539,连云港市,工贸学校,细颗粒物(PM2.5),199,172,158,149,133,72,,132,121,51,28,10,11,1.2,1.1
2025-02-28T0000,3664A,119.4172,34.7341,连云港市,连云街道,细颗粒物(PM2.5),165,160,155,125,115,77,,100,99,61,44,8,11,1.1,1.2
2025-02-28T0000,2571A,102.3431,27.8099,凉山彝族自治州,青龙寺,,26,26,24,3,6,65,,109,88,16,8,4,5,0.4,0.6
2025-02-28T0000,2572A,102.2721,27.8415,凉山彝族自治州,邛海宾馆,,32,25,30,14,13,101,,108,106,5,14,9,9,0.5,0.7
2025-02-28T0000,2573A,102.2625,27.898,凉山彝族自治州,西昌市政府,,25,23,26,12,12,78,,100,93,7,12,8,9,0.7,0.8
2025-02-28T0000,2574A,102.2685,27.8851,凉山彝族自治州,凉山州政府,,29,29,29,13,13,81,,107,101,11,16,12,13,0.4,0.6
2025-02-28T0000,2575A,102.237,27.8914,凉山彝族自治州,长安,,,,,,,,,,,,,,,,
2025-02-28T0000,2212A,123.2,41.1953,辽阳市,宏伟区,细颗粒物(PM2.5),133,,79,101,68,139,,130,130,10,12,9,11,0.9,0.8
2025-02-28T0000,2213A,123.1683,41.2495,辽阳市,新华园,细颗粒物(PM2.5),129,106,83,98,62,127,,118,118,18,22,9,11,0.8,0.8
2025-02-28T0000,2214A,123.2354,41.2639,辽阳市,滨河路,细颗粒物(PM2.5),135,,70,103,66,127,,118,118,14,17,15,15,0.9,0.8
2025-02-28T0000,2215A,123.149,41.2991,辽阳市,铁西工业园,细颗粒物(PM2.5),134,111,100,102,64,136,,125,125,20,21,10,13,0.7,0.9
2025-02-28T0000,2227A,125.1358,42.8845,辽源市,环保局,细颗粒物(PM2.5),59,63,60,42,34,143,,164,143,15,32,8,9,0.9,1
2025-02-28T0000,3239A,125.0764,42.9078,辽源市,银鹰制药,细颗粒物(PM2.5),73,69,87,53,40,151,,152,146,12,20,7,9,0.9,0.9
2025-02-28T0000,1625A,115.9848,36.4372,聊城市,区政府,细颗粒物(PM2.5),127,124,122,96,86,97,,132,117,23,19,14,16,1.0,1
2025-02-28T0000,2878A,116.0072,36.4343,聊城市,聊大东校,细颗粒物(PM2.5),140,163,135,107,92,90,,133,117,33,25,10,12,1.2,1.1
2025-02-28T0000,3200A,115.9819,36.4978,聊城市,监控中心,细颗粒物(PM2.5),132,138,131,100,93,95,,133,117,27,22,15,15,1.0,1
2025-02-28T0000,3513A,116.0445,36.4361,聊城市,九州社区,细颗粒物(PM2.5),135,138,120,103,85,85,,141,118,32,22,21,18,1.1,0.9
2025-02-28T0000,4018A,116.0567,36.4608,聊城市,星美广场,细颗粒物(PM2.5),138,139,130,105,85,89,,140,126,32,26,18,14,1.4,1.2
2025-02-28T0000,2632A,94.3681,29.6376,林芝市,林芝监测站,,29,18,14,8,7,90,,88,86,2,3,6,6,0.3,0.5
2025-02-28T0000,2633A,94.3616,29.6616,林芝市,林芝人民医院,,28,18,17,8,8,89,,90,89,1,3,6,6,0.6,0.7
2025-02-28T0000,2603A,100.0781,23.8982,临沧市,市环保局,细颗粒物(PM2.5),55,48,39,39,27,69,,118,99,16,14,10,10,0.5,0.4
2025-02-28T0000,2604A,100.0894,23.8822,临沧市,市气象局,,,45,37,38,29,,,113,,19,15,11,10,0.5,0.4
2025-02-28T0000,1733A,111.5531,36.0783,临汾市,临钢医院,细颗粒物(PM2.5),107,135,100,80,50,69,,114,99,30,26,12,11,1.5,1
2025-02-28T0000,1734A,111.5028,36.0714,临汾市,技工学校,细颗粒物(PM2.5),133,151,95,101,59,56,,115,91,40,30,16,11,1.2,0.9
2025-02-28T0000,1736A,111.5018,36.0855,临汾市,市委,细颗粒物(PM2.5),119,160,102,90,52,57,,117,92,39,26,16,11,1.1,0.7
2025-02-28T0000,3018A,111.505,36.1014,临汾市,唐尧大酒店,细颗粒物(PM2.5),122,143,99,92,53,56,,119,95,44,33,14,11,1.1,0.7
2025-02-28T0000,4244A,111.4879,36.0530,临汾市,启星学校,细颗粒物(PM2.5),127,141,87,96,55,52,,114,91,41,32,12,8,1.1,0.7
2025-02-28T0000,4271A,103.2464,35.6123,临夏回族自治州,滨河东路1号,颗粒物(PM10),84,118,70,33,21,11,,87,49,46,27,6,8,1.7,1.1
2025-02-28T0000,4310A,103.2093,35.5995,临夏回族自治州,新华街21号,颗粒物(PM10),81,112,75,39,28,19,,102,61,60,29,11,10,2.0,1.3
2025-02-28T0000,1618A,118.3429,35.0532,临沂市,沂河小区,细颗粒物(PM2.5),238,217,161,188,140,74,,126,102,35,30,14,18,1.2,1
2025-02-28T0000,1619A,118.295,35.0583,临沂市,鲁南制药厂,细颗粒物(PM2.5),224,215,164,174,128,77,,119,85,49,49,15,20,1.3,0.9
2025-02-28T0000,1620A,118.2794,34.9976,临沂市,新光毛纺厂,细颗粒物(PM2.5),210,178,151,160,128,86,,132,105,48,43,10,19,1.1,1
2025-02-28T0000,1621A,118.3956,35.0888,临沂市,河东保险公司,细颗粒物(PM2.5),218,215,167,168,130,42,,137,94,83,55,7,11,1.2,1.1
2025-02-28T0000,3370A,118.3564,35.0215,临沂市,十里堡居委,细颗粒物(PM2.5),221,207,149,171,119,77,,134,107,31,26,12,18,1.2,0.9
2025-02-28T0000,3496A,118.3604,35.1084,临沂市,南坊新区,细颗粒物(PM2.5),213,200,156,163,131,84,,136,107,47,43,9,13,1.0,0.9
2025-02-28T0000,3860A,118.3920,35.0300,临沂市,皇山花园小区,细颗粒物(PM2.5),212,210,155,162,118,79,,136,105,48,41,11,13,1.5,1.2
2025-02-28T0000,1870A,109.4856,24.3895,柳州市,柳东小学,,38,31,21,26,18,21,,18,15,17,20,10,11,0.8,0.7
2025-02-28T0000,1871A,109.4157,24.3277,柳州市,环保监测站,,43,43,42,27,33,2,,18,2,37,30,9,10,1.2,1.1
2025-02-28T0000,1872A,109.389,24.341,柳州市,河西水厂,,47,47,44,24,29,3,,19,6,37,32,3,4,1.9,1.2
2025-02-28T0000,1873A,109.4311,24.2921,柳州市,市四中,颗粒物(PM10),58,66,41,32,28,5,,18,7,41,30,8,9,1.5,1.2
2025-02-28T0000,1874A,109.4006,24.3631,柳州市,市九中,,39,39,34,20,28,3,,21,9,31,26,6,8,1.3,1.1
2025-02-28T0000,1875A,109.4958,24.3134,柳州市,古亭山,,46,46,30,27,20,4,,6,4,36,27,10,12,1.1,0.9
2025-02-28T0000,3402A,109.5422,24.3996,柳州市,市二中,,37,37,26,22,21,5,,17,8,24,23,9,10,0.8,0.7
2025-02-28T0000,2307A,116.5079,31.737,六安市,监测大楼,细颗粒物(PM2.5),87,,52,64,49,56,,105,83,19,20,5,5,0.8,0.8
2025-02-28T0000,2308A,116.4738,31.7643,六安市,皖西学院,细颗粒物(PM2.5),82,72,59,60,45,54,,106,84,24,21,5,4,0.8,0.8
2025-02-28T0000,2309A,116.4996,31.7905,六安市,朝阳厂,细颗粒物(PM2.5),89,69,51,66,45,45,,102,80,24,24,4,4,0.8,0.8
2025-02-28T0000,2310A,116.5567,31.7886,六安市,开发区,细颗粒物(PM2.5),77,84,70,56,49,42,,108,81,24,20,4,4,0.8,0.7
2025-02-28T0000,2576A,104.8,26.5892,六盘水市,窑上,,,,47,,30,,,82,,,17,,5,,0.9
2025-02-28T0000,2577A,104.83,26.5917,六盘水市,黄土坡,"颗粒物(PM10),细颗粒物(PM2.5)",77,103,60,56,31,16,,101,47,63,32,45,15,2.4,1.3
2025-02-28T0000,2578A,104.89,26.5939,六盘水市,水钢,颗粒物(PM10),61,71,66,40,36,43,,102,83,43,21,34,15,0.9,1.2
2025-02-28T0000,2579A,104.8475,26.5894,六盘水市,民中,颗粒物(PM10),65,80,53,46,34,25,,96,48,51,31,34,14,1.7,1.1
2025-02-28T0000,2580A,104.9544,26.5506,六盘水市,双水,细颗粒物(PM2.5),55,48,38,39,19,52,,98,80,19,15,14,10,0.5,0.5
2025-02-28T0000,2335A,117.0189,25.1181,龙岩市,龙岩师专,,,,,,,,,,,,,,,,
2025-02-28T0000,2336A,117.0217,25.1033,龙岩市,龙岩市监测站,颗粒物(PM10),52,54,34,28,28,2,,64,33,40,25,6,7,1.1,0.9
2025-02-28T0000,2337A,117.0258,25.0661,龙岩市,闽西职业技术学院,,48,48,37,21,26,6,,62,34,38,22,13,7,0.7,0.7
2025-02-28T0000,2338A,117.0196,25.0306,龙岩市,龙岩学院,,25,18,27,17,24,35,,67,49,8,10,3,4,0.5,0.5
2025-02-28T0000,2665A,105.0822,33.3261,陇南市,汉王镇固水子,,,,,,,,,,,,,,,,
2025-02-28T0000,2885A,104.9339,33.3826,陇南市,滨江中学,细颗粒物(PM2.5),70,70,55,51,30,10,,63,27,48,25,23,11,2.6,1.6
2025-02-28T0000,3247A,104.955,33.371,陇南市,市总工会,颗粒物(PM10),65,80,37,36,17,19,,65,54,45,15,11,8,1.6,0.7
2025-02-28T0000,2487A,111.9589,27.8901,娄底市,电视发射台,,36,28,48,25,39,20,,83,52,13,16,6,9,1.1,1.2
2025-02-28T0000,2488A,111.9975,27.725,娄底市,市监测站,,42,32,48,29,37,68,,88,78,44,36,9,12,0.5,0.7
2025-02-28T0000,2489A,112.0194,27.7314,娄底市,市委党校,,35,32,51,24,37,62,,87,77,21,21,4,4,0.5,0.6
2025-02-28T0000,2490A,111.9561,27.7569,娄底市,涟钢,颗粒物(PM10),61,71,61,36,43,41,,60,56,38,27,40,30,1.3,1.6
2025-02-28T0000,2491A,111.9892,27.7044,娄底市,市政府,,32,22,39,22,30,71,,85,79,10,16,9,10,0.9,1
2025-02-28T0000,1893A,105.4324,28.9634,泸州市,九狮山,,,,,,,,,,,,,,,,
2025-02-28T0000,1894A,105.4427,28.9063,泸州市,小市上码头,细颗粒物(PM2.5),72,86,119,52,70,77,,112,102,21,23,6,7,0.4,0.5
2025-02-28T0000,1895A,105.4241,28.8573,泸州市,兰田宪桥,细颗粒物(PM2.5),72,83,116,52,76,80,,116,103,14,26,6,7,0.6,0.8
2025-02-28T0000,1896A,105.4379,28.8833,泸州市,市环监站,细颗粒物(PM2.5),70,82,116,51,73,80,,108,97,18,33,6,7,0.3,0.4
2025-02-28T0000,4272A,105.3689,28.7783,泸州市,纳溪中医医院,细颗粒物(PM2.5),88,74,94,65,81,80,,115,103,11,32,6,6,0.6,0.7
2025-02-28T0000,2183A,111.1406,37.5211,吕梁市,环保局,颗粒物(PM10),73,96,109,49,40,6,,108,52,80,50,4,6,0.5,0.6
2025-02-28T0000,2185A,111.1297,37.5136,吕梁市,自来水公司,颗粒物(PM10),88,126,95,52,40,27,,99,67,42,34,19,9,0.6,0.5
2025-02-28T0000,2867A,111.1283,37.51,吕梁市,马茂庄小学,颗粒物(PM10),79,108,102,40,39,5,,108,56,87,47,6,10,0.5,0.5
2025-02-28T0000,1812A,112.3931,34.6516,洛阳市,市委党校,细颗粒物(PM2.5),144,155,105,110,68,1,,102,48,99,56,7,7,1.2,1
2025-02-28T0000,1815A,112.494,34.6886,洛阳市,河南林校,细颗粒物(PM2.5),158,141,103,120,87,6,,100,65,98,53,6,7,1.2,0.9
2025-02-28T0000,1816A,112.3844,34.623,洛阳市,开发区管委会,细颗粒物(PM2.5),152,152,109,116,80,29,,108,79,75,32,9,10,1.0,0.8
2025-02-28T0000,1817A,112.4267,34.6258,洛阳市,市委新办公区,细颗粒物(PM2.5),159,184,112,121,78,6,,109,63,108,46,6,8,1.2,0.8
2025-02-28T0000,3340A,112.6005,34.6326,洛阳市,伊滨,细颗粒物(PM2.5),190,247,136,143,97,2,,99,49,90,51,7,8,1.1,0.8
2025-02-28T0000,3341A,112.4951,34.6332,洛阳市,中移产业园,细颗粒物(PM2.5),193,200,130,145,101,4,,104,67,111,50,8,8,1.6,1
2025-02-28T0000,3593A,112.5736,34.8993,洛阳市,吉利监测站,细颗粒物(PM2.5),113,116,108,85,81,49,,118,66,44,39,5,7,0.7,0.7
2025-02-28T0000,3635A,112.3677,34.662,洛阳市,河科大西苑校区,细颗粒物(PM2.5),145,160,108,111,77,5,,106,52,87,50,10,11,1.3,1.1
2025-02-28T0000,3636A,112.4388,34.6781,洛阳市,英才小学,细颗粒物(PM2.5),152,181,114,116,72,1,,99,56,99,56,8,8,1.1,0.7
2025-02-28T0000,4214A,112.4600,34.6949,洛阳市,春都路1号院,细颗粒物(PM2.5),133,166,123,101,70,8,,110,75,100,52,9,9,1.2,0.9
2025-02-28T0000,2399A,114.051,33.5699,漯河市,三五一五工厂,细颗粒物(PM2.5),163,137,116,124,107,33,,115,71,47,29,5,6,0.9,0.7
2025-02-28T0000,2400A,114.0055,33.5698,漯河市,漯河大学,细颗粒物(PM2.5),140,133,113,107,93,38,,120,82,53,30,5,6,0.9,0.7
2025-02-28T0000,2401A,114.0138,33.5828,漯河市,市水利局,细颗粒物(PM2.5),140,124,109,107,93,23,,118,76,62,29,4,4,0.9,0.7
2025-02-28T0000,2402A,114.0261,33.5698,漯河市,市广电局,细颗粒物(PM2.5),139,122,108,106,93,38,,119,79,50,34,5,6,1.0,0.8
2025-02-28T0000,3478A,113.9749,33.5664,漯河市,市图书馆,细颗粒物(PM2.5),137,116,115,104,97,22,,114,82,73,32,6,6,1.1,0.8
2025-02-28T0000,4250A,114.0892,33.5882,漯河市,韶山路11号,细颗粒物(PM2.5),144,143,130,110,102,28,,120,65,60,42,4,6,0.9,0.8
2025-02-28T0000,1798A,118.5092,31.6837,马鞍山市,湖东路四小,细颗粒物(PM2.5),63,52,87,45,61,53,,94,61,27,28,10,10,0.9,0.9
2025-02-28T0000,1799A,118.5024,31.6449,马鞍山市,开发区,细颗粒物(PM2.5),77,71,89,56,69,31,,90,51,44,36,2,7,0.8,0.9
2025-02-28T0000,1802A,118.6245,31.7241,马鞍山市,濮塘,细颗粒物(PM2.5),60,52,82,43,70,73,,97,84,12,21,7,8,1.0,1
2025-02-28T0000,3633A,118.4918,31.6809,马鞍山市,雨山,细颗粒物(PM2.5),60,54,86,43,66,46,,93,61,33,29,7,7,0.8,0.8
2025-02-28T0000,4191A,118.5274,31.72227,马鞍山市,慈湖高新区,细颗粒物(PM2.5),78,68,85,57,69,54,,88,63,27,30,12,10,0.7,0.8
2025-02-28T0000,1686A,111.0286,21.4688,茂名市,电白南海,,46,46,60,22,37,89,,111,97,9,13,3,3,1.0,1.1
2025-02-28T0000,1687A,110.9294,21.6533,茂名市,茂石化七小,,39,39,49,22,32,85,,111,98,10,10,1,4,0.7,0.9
2025-02-28T0000,1688A,110.9107,21.6687,茂名市,健康路,,34,34,45,19,33,84,,113,98,12,12,2,5,0.8,0.9
2025-02-28T0000,1689A,110.8592,21.6828,茂名市,高岭,,48,48,61,19,30,78,,108,93,20,15,4,8,0.6,0.7
2025-02-28T0000,3450A,111.01,21.5165,茂名市,电白水东,,36,36,53,19,29,92,,110,99,3,9,4,6,0.6,0.7
2025-02-28T0000,2539A,104.0308,30.0478,眉山市,黑龙滩水库,细颗粒物(PM2.5),113,,57,85,48,33,,94,61,32,13,3,2,0.9,0.8
2025-02-28T0000,2540A,103.8416,30.0874,眉山市,气象局,细颗粒物(PM2.5),104,106,94,78,66,42,,82,50,32,39,5,6,0.7,0.7
2025-02-28T0000,3137A,103.8578,30.0744,眉山市,市委党校,细颗粒物(PM2.5),94,85,72,70,56,49,,81,49,29,36,8,9,0.6,0.8
2025-02-28T0000,3148A,103.8291,30.0564,眉山市,区人社局,细颗粒物(PM2.5),89,79,56,66,57,54,,80,51,29,39,9,11,1.0,0.9
2025-02-28T0000,1690A,116.1231,24.3284,梅州市,梅江月梅,,49,49,42,32,37,16,,95,67,37,18,9,9,0.6,0.7
2025-02-28T0000,1691A,116.0797,24.2719,梅州市,梅县新城,细颗粒物(PM2.5),62,54,44,44,41,4,,92,50,49,27,5,5,0.9,0.8
2025-02-28T0000,1692A,116.1248,24.2654,梅州市,环境监控中心,颗粒物(PM10),55,60,47,34,41,19,,87,48,49,29,6,7,0.8,0.8
2025-02-28T0000,3315A,116.1233,24.2991,梅州市,梅龙,颗粒物(PM10),53,56,42,35,34,7,,99,60,48,21,6,6,1.1,0.7
2025-02-28T0000,1878A,104.7778,31.4741,绵阳市,富乐山,细颗粒物(PM2.5),72,68,51,52,41,2,,78,38,68,27,3,2,0.9,0.7
2025-02-28T0000,1880A,104.6697,31.4668,绵阳市,高新区自来水公司,细颗粒物(PM2.5),83,103,71,61,47,2,,72,37,56,36,6,5,0.8,0.7
2025-02-28T0000,1881A,104.7287,31.5075,绵阳市,三水厂,细颗粒物(PM2.5),99,104,77,74,54,3,,80,40,53,35,6,6,1.0,0.9
2025-02-28T0000,3491A,104.69,31.5322,绵阳市,西科大附属小学,细颗粒物(PM2.5),72,81,70,52,46,8,,74,46,52,31,6,6,0.5,0.5
2025-02-28T0000,3492A,104.5648,31.5343,绵阳市,安州区旅游局,细颗粒物(PM2.5),85,78,61,63,51,6,,71,40,40,27,7,8,0.8,0.7
2025-02-28T0000,4226A,104.7651,31.4531,绵阳市,绵阳市气象局,细颗粒物(PM2.5),90,106,61,67,44,2,,76,46,76,35,5,5,1.1,0.7
2025-02-28T0000,1784A,129.61,44.561,牡丹江市,环保大楼,细颗粒物(PM2.5),73,88,79,53,36,128,,108,108,16,25,10,11,0.7,0.8
2025-02-28T0000,1785A,129.6115,44.5782,牡丹江市,文化广场,细颗粒物(PM2.5),77,91,72,56,41,138,,117,117,20,32,14,11,0.6,0.8
2025-02-28T0000,1786A,129.5904,44.5963,牡丹江市,第一医院,,,95,64,60,35,126,,116,116,16,18,13,9,,0.6
2025-02-28T0000,1787A,129.6364,44.6075,牡丹江市,机车工厂,细颗粒物(PM2.5),73,89,72,53,32,118,,103,103,19,23,12,10,0.6,0.5
2025-02-28T0000,1788A,129.6386,44.5462,牡丹江市,第一中学,细颗粒物(PM2.5),83,77,63,61,31,134,,120,120,16,27,10,9,0.5,0.5
2025-02-28T0000,2531A,105.0703,29.61,内江市,市监测站,细颗粒物(PM2.5),70,55,53,51,57,74,,102,86,14,21,8,17,0.9,1
2025-02-28T0000,2532A,105.0717,29.5947,内江市,东兴区政府,细颗粒物(PM2.5),64,58,55,46,48,76,,104,92,14,24,3,5,0.8,0.8
2025-02-28T0000,2533A,105.0653,29.5817,内江市,内江二中,,,,59,,53,,,101,,,25,,9,,0.9
2025-02-28T0000,2534A,105.0406,29.5822,内江市,内江日报社,细颗粒物(PM2.5),72,53,57,52,54,74,,109,93,22,29,8,9,0.6,0.6
2025-02-28T0000,2628A,92.0657,31.4846,那曲市,那曲监测站,颗粒物(PM10),67,84,44,3,13,31,,68,56,39,14,17,11,2.0,0.8
2025-02-28T0000,3128A,92.0506,31.4797,那曲市,那曲会议中心,颗粒物(PM10),61,72,51,34,18,55,,89,78,17,8,8,7,0.9,0.7
2025-02-28T0000,1290A,115.8931,28.6843,南昌市,省外办,细颗粒物(PM2.5),132,127,104,100,92,8,,55,22,50,30,6,7,1.3,0.8
2025-02-28T0000,1291A,115.8886,28.7003,南昌市,省林业公司,细颗粒物(PM2.5),110,124,93,83,77,0,,52,19,61,34,9,9,0.7,0.6
2025-02-28T0000,1292A,115.8126,28.7442,南昌市,林科所,,49,48,85,34,70,17,,48,25,28,35,7,12,0.8,0.8
2025-02-28T0000,1294A,115.8518,28.687,南昌市,建工学校,细颗粒物(PM2.5),114,114,95,86,76,2,,56,26,76,42,9,11,1.2,1
2025-02-28T0000,1295A,115.8921,28.6424,南昌市,象湖,细颗粒物(PM2.5),132,129,87,100,80,3,,53,16,65,44,8,9,1.5,1.1
2025-02-28T0000,1296A,115.7423,28.7996,南昌市,武术学校,,36,,44,25,41,6,,59,28,13,16,4,5,0.5,0.6
2025-02-28T0000,3046A,115.9084,28.6062,南昌市,机电学校,细颗粒物(PM2.5),134,146,111,102,88,6,,53,22,59,35,9,9,1.0,0.7
2025-02-28T0000,3690A,115.9721,28.7031,南昌市,外国语学校,细颗粒物(PM2.5),105,101,94,79,69,5,,50,16,48,33,3,5,0.9,0.7
2025-02-28T0000,4192A,115.9316,28.68677,南昌市,南京东路235号,细颗粒物(PM2.5),134,132,99,102,89,8,,52,21,64,44,6,6,1.2,0.9
2025-02-28T0000,1905A,106.056,30.8064,南充市,西山风景区,,48,48,52,31,49,88,,103,99,5,11,3,2,0.9,1
2025-02-28T0000,1906A,106.0789,30.8023,南充市,南充市委,细颗粒物(PM2.5),69,63,69,50,57,42,,77,67,32,30,3,3,0.8,0.8
2025-02-28T0000,1907A,106.1031,30.8217,南充市,南充炼油厂,细颗粒物(PM2.5),73,63,67,53,58,50,,86,75,33,26,3,4,0.5,0.4
2025-02-28T0000,1909A,106.0642,30.7636,南充市,嘉陵区环保局,细颗粒物(PM2.5),67,76,70,48,52,25,,83,65,57,37,3,4,0.8,0.7
2025-02-28T0000,1910A,106.1087,30.8388,南充市,市环境监测站,细颗粒物(PM2.5),64,60,71,46,51,70,,94,86,18,19,7,7,0.7,0.7
2025-02-28T0000,4227A,106.1083,30.7884,南充市,梨树横街98号,细颗粒物(PM2.5),64,62,68,46,50,53,,87,78,36,32,5,5,1.0,0.9
2025-02-28T0000,1151A,118.8086,32.1065,南京市,迈皋桥,颗粒物(PM10),60,69,84,41,58,24,,101,56,65,40,4,4,0.9,0.9
2025-02-28T0000,1152A,118.7538,32.0551,南京市,草场门,细颗粒物(PM2.5),73,68,81,53,64,19,,88,48,62,37,6,8,1.1,1.2
2025-02-28T0000,1153A,118.7794,32.0745,南京市,山西路,细颗粒物(PM2.5),70,70,95,51,68,43,,96,66,30,19,4,5,0.7,0.8
2025-02-28T0000,1154A,118.7752,32.0023,南京市,中华门,细颗粒物(PM2.5),67,70,79,48,59,11,,88,50,64,33,3,4,0.7,0.7
2025-02-28T0000,1155A,118.8109,32.0309,南京市,瑞金路,细颗粒物(PM2.5),79,78,91,58,65,9,,89,38,92,42,6,6,1.2,1
2025-02-28T0000,1156A,118.7997,32.0754,南京市,玄武湖,细颗粒物(PM2.5),60,65,88,43,64,44,,93,66,33,24,8,9,0.8,0.8
2025-02-28T0000,1157A,118.6414,32.0931,南京市,浦口,细颗粒物(PM2.5),73,92,95,53,61,63,,102,86,19,29,6,8,1.1,1.1
2025-02-28T0000,1158A,118.7356,31.9996,南京市,奥体中心,细颗粒物(PM2.5),70,69,90,51,63,31,,94,60,60,39,6,9,0.7,0.8
2025-02-28T0000,1159A,118.9125,32.1028,南京市,仙林大学城,细颗粒物(PM2.5),67,61,86,48,67,48,,87,64,32,30,8,10,1.0,0.9
2025-02-28T0000,3422A,118.8436,31.9198,南京市,江宁彩虹桥,,,62,90,51,57,,,54,,62,33,3,4,,0.8
2025-02-28T0000,3423A,119.0138,31.6494,南京市,溧水永阳,细颗粒物(PM2.5),84,80,71,62,73,13,,95,48,64,35,5,5,0.9,0.8
2025-02-28T0000,3427A,118.8554,32.3578,南京市,六合雄州,颗粒物(PM10),63,75,96,44,56,13,,104,65,53,27,6,7,1.1,1
2025-02-28T0000,4249A,118.8708,31.3402,南京市,汶溪路181号,颗粒物(PM10),58,65,75,39,70,37,,88,61,27,19,4,5,0.8,0.8
2025-02-28T0000,1401A,108.3103,22.7881,南宁市,二十一中,颗粒物(PM10),58,66,29,40,24,2,,25,14,41,29,4,4,1.4,1
2025-02-28T0000,1402A,108.3141,22.8528,南宁市,北湖,颗粒物(PM10),63,75,34,37,28,3,,18,9,40,34,5,5,1.1,1
2025-02-28T0000,1403A,108.3206,22.8225,南宁市,市监测站,颗粒物(PM10),52,53,32,33,20,1,,19,9,40,30,5,7,1.4,1.1
2025-02-28T0000,1404A,108.3829,22.8037,南宁市,大自然花园,颗粒物(PM10),52,53,29,30,22,3,,26,13,38,24,5,5,1.4,1
2025-02-28T0000,1405A,108.4394,22.7904,南宁市,仙葫,"颗粒物(PM10),细颗粒物(PM2.5)",57,64,28,40,22,3,,24,15,35,20,2,1,1.2,1
2025-02-28T0000,1406A,108.2397,22.8467,南宁市,区农职院,颗粒物(PM10),53,55,39,27,20,0,,18,8,34,31,6,8,1.0,1.1
2025-02-28T0000,1407A,108.3275,22.735,南宁市,英华嘉园,细颗粒物(PM2.5),53,53,29,37,22,2,,28,15,28,21,6,6,1.2,1
2025-02-28T0000,3401A,108.4834,22.7618,南宁市,红星社区,颗粒物(PM10),52,53,27,31,19,2,,23,13,31,17,7,7,1.3,1.1
2025-02-28T0000,4221A,108.2177,22.7774,南宁市,乐贤路16号,颗粒物(PM10),54,58,31,34,20,3,,20,9,39,35,7,7,1.3,1
2025-02-28T0000,2331A,118.0966,26.6761,南平市,茫荡山,,,,,,,,,,,,,,,,
2025-02-28T0000,2332A,118.1681,26.6369,南平市,南平市监测站,,45,,40,31,39,2,,59,24,28,23,6,4,1.2,1
2025-02-28T0000,2333A,118.1825,26.6489,南平市,南平铝业有限公司,,23,20,30,16,24,2,,64,23,28,25,11,6,0.9,0.9
2025-02-28T0000,2334A,118.1756,26.6272,南平市,南平七中,,30,22,32,21,29,2,,62,30,21,16,4,4,0.9,0.7
2025-02-28T0000,1168A,120.9098,31.9663,南通市,狼山街道,细颗粒物(PM2.5),105,97,122,79,102,3,,62,24,57,52,5,7,0.4,0.4
2025-02-28T0000,1169A,120.86,32.0005,南通市,虹桥,细颗粒物(PM2.5),137,138,136,104,108,0,,70,30,92,56,6,7,0.5,0.4
2025-02-28T0000,1170A,120.87,32.02,南通市,城中,细颗粒物(PM2.5),127,136,138,96,105,4,,66,29,93,59,7,8,1.0,1
2025-02-28T0000,1171A,120.94,31.93,南通市,星湖花园,细颗粒物(PM2.5),109,105,122,82,99,0,,67,14,82,62,6,8,0.7,0.7
2025-02-28T0000,1172A,120.81,32.0417,南通市,紫琅学院,细颗粒物(PM2.5),127,126,125,96,100,1,,61,22,77,59,4,5,0.9,1
2025-02-28T0000,3291A,121.067,32.062,南通市,通州监测站,细颗粒物(PM2.5),122,112,138,92,116,17,,74,37,53,47,4,5,0.9,0.9
2025-02-28T0000,3432A,120.9348,31.9883,南通市,环境教育馆,细颗粒物(PM2.5),124,114,126,94,113,3,,67,20,63,52,5,6,0.7,0.7
2025-02-28T0000,2404A,112.5224,33.0122,南阳市,瓦房庄,细颗粒物(PM2.5),173,162,109,131,75,10,,103,53,65,27,6,6,1.3,0.8
2025-02-28T0000,2405A,112.5003,32.9735,南阳市,汉画馆,细颗粒物(PM2.5),142,140,100,108,85,5,,99,55,71,27,5,6,1.1,0.8
2025-02-28T0000,2406A,112.5573,33.027,南阳市,气象站,细颗粒物(PM2.5),153,171,112,117,88,9,,100,61,73,26,5,6,1.3,0.9
2025-02-28T0000,2407A,112.5481,32.9689,南阳市,理工学院,细颗粒物(PM2.5),155,163,104,118,84,2,,97,56,86,31,2,3,1.3,0.8
2025-02-28T0000,4008A,112.5234,32.9922,南阳市,卧龙区政府,细颗粒物(PM2.5),152,192,106,116,84,5,,100,60,60,22,7,7,1.2,0.7
2025-02-28T0000,1234A,121.8358,29.911,宁波市,区环保大楼,,39,39,70,24,53,16,,108,43,58,36,6,7,0.7,0.8
2025-02-28T0000,1235A,121.56,29.82,宁波市,万里学院,,48,38,74,33,60,34,,86,58,33,26,6,7,0.8,0.9
2025-02-28T0000,1236A,121.713,29.9572,宁波市,龙赛医院,细颗粒物(PM2.5),52,36,75,36,69,19,,81,30,50,45,6,7,0.8,0.9
2025-02-28T0000,1239A,121.633,29.7733,宁波市,钱湖水厂,,35,28,65,24,54,58,,93,80,18,21,6,6,0.7,0.8
2025-02-28T0000,1240A,121.5856,29.8635,宁波市,太古小学,,44,44,76,28,51,23,,87,54,49,32,7,8,0.8,0.9
2025-02-28T0000,1241A,121.524,29.8674,宁波市,市环境监测中心,细颗粒物(PM2.5),62,44,71,44,65,6,,83,44,84,47,7,7,0.9,0.9
2025-02-28T0000,2871A,121.6147,29.9017,宁波市,万里国际学校,,41,41,87,25,35,32,,94,63,42,24,7,7,0.5,0.7
2025-02-28T0000,3710A,121.5594,29.8975,宁波市,白沙活动中心,颗粒物(PM10),55,60,85,31,56,26,,86,53,52,38,5,6,0.7,0.7
2025-02-28T0000,2339A,119.5001,26.6946,宁德市,金涵水库,,,,,,,,,,,,,,,,
2025-02-28T0000,2341A,119.5388,26.6612,宁德市,宁德市监测站,细颗粒物(PM2.5),59,,42,42,45,1,,55,16,16,16,4,4,1.2,0.7
2025-02-28T0000,3209A,119.5231,26.6562,宁德市,宁德一中,,38,,36,26,41,9,,60,18,13,19,4,4,0.6,0.5
2025-02-28T0000,2618A,98.8601,25.8567,怒江傈僳族自治州,州监测站,,35,35,31,19,17,68,,96,83,12,8,2,3,0.2,0.3
2025-02-28T0000,2619A,98.8546,25.8417,怒江傈僳族自治州,泸水一中,,28,24,28,19,16,36,,80,52,22,18,6,6,0.5,0.4
2025-02-28T0000,1888A,101.6891,26.571,攀枝花市,弄弄坪,颗粒物(PM10),55,60,48,23,22,58,,86,75,36,34,22,18,0.9,1
2025-02-28T0000,1889A,101.5769,26.5928,攀枝花市,河门口,,37,37,43,16,19,49,,104,80,25,26,17,18,0.5,1.3
2025-02-28T0000,1890A,101.7169,26.585,攀枝花市,炳草岗,,42,42,47,12,20,50,,99,71,39,35,8,10,0.6,0.7
2025-02-28T0000,1891A,101.7369,26.5008,攀枝花市,仁和,,30,30,30,12,15,77,,102,79,14,23,7,11,0.4,0.7
2025-02-28T0000,2835A,101.7227,26.567,攀枝花市,四十中小,,34,34,54,16,23,100,,96,94,11,35,6,10,0.4,0.6
2025-02-28T0000,1604A,122.0303,41.1489,盘锦市,开发区,细颗粒物(PM2.5),119,,108,90,101,118,,147,137,18,25,13,14,0.8,0.9
2025-02-28T0000,1605A,122.0485,41.0883,盘锦市,兴隆台,细颗粒物(PM2.5),119,,102,90,100,112,,137,127,18,27,8,10,0.8,1
2025-02-28T0000,1606A,121.8297,41.1028,盘锦市,新生街道,细颗粒物(PM2.5),143,,83,109,102,96,,139,117,22,27,8,10,0.9,1
2025-02-28T0000,1832A,113.3257,33.742,平顶山市,新华旅馆,细颗粒物(PM2.5),135,163,115,103,79,10,,101,60,78,26,5,4,0.8,0.7
2025-02-28T0000,1833A,113.2919,33.737,平顶山市,规划设计院,细颗粒物(PM2.5),155,169,110,118,82,14,,105,68,82,36,6,6,1.0,0.7
2025-02-28T0000,1834A,113.182,33.774,平顶山市,平顶山工学院,细颗粒物(PM2.5),140,131,96,107,76,59,,101,85,31,16,5,5,0.8,0.7
2025-02-28T0000,3204A,113.3025,33.73,平顶山市,规划局,细颗粒物(PM2.5),185,166,102,139,96,18,,105,73,79,28,4,4,1.0,0.7
2025-02-28T0000,3594A,112.8867,33.9116,平顶山市,石龙区,细颗粒物(PM2.5),144,188,113,110,79,7,,108,62,95,36,6,7,0.6,0.6
2025-02-28T0000,2656A,106.6692,35.5461,平凉市,聚贤嘉苑,,45,45,47,25,24,40,,94,63,46,33,9,10,0.5,0.4
2025-02-28T0000,2657A,106.7021,35.5307,平凉市,博物馆,"颗粒物(PM10),细颗粒物(PM2.5)",52,54,58,36,31,44,,90,55,37,36,10,13,0.4,0.8
2025-02-28T0000,2347A,114.0997,27.5002,萍乡市,武功山,,38,27,27,26,35,11,,45,30,8,8,4,5,0.7,0.8
2025-02-28T0000,2348A,113.8385,27.6434,萍乡市,中医院,细颗粒物(PM2.5),97,77,70,72,56,23,,58,46,34,25,11,9,1.4,1.2
2025-02-28T0000,2349A,113.8493,27.6253,萍乡市,市政府车库,细颗粒物(PM2.5),73,78,64,53,53,22,,56,41,33,23,12,9,1.4,1.3
2025-02-28T0000,2350A,113.8676,27.6435,萍乡市,市环保局,细颗粒物(PM2.5),70,66,62,51,48,20,,54,42,34,22,12,9,1.0,0.9
2025-02-28T0000,2351A,113.866,27.6198,萍乡市,安源区政府,细颗粒物(PM2.5),83,63,66,61,54,31,,53,44,25,28,11,12,1.0,1.1
2025-02-28T0000,2319A,119.0141,25.4325,莆田市,荔城区仓后路,细颗粒物(PM2.5),102,86,74,76,66,2,,79,45,62,42,5,5,1.2,1
2025-02-28T0000,2320A,119.0015,25.4553,莆田市,莆田市监测站,细颗粒物(PM2.5),82,65,68,60,60,21,,85,58,30,32,4,5,1.0,0.9
2025-02-28T0000,2321A,119.1119,25.4561,莆田市,涵江区六中,细颗粒物(PM2.5),72,55,57,52,47,2,,68,38,61,41,3,3,0.7,0.6
2025-02-28T0000,2322A,119.1013,25.3215,莆田市,秀屿区政府,细颗粒物(PM2.5),94,,52,70,58,37,,86,70,33,27,7,5,0.8,0.7
2025-02-28T0000,2323A,118.981,25.4792,莆田市,东圳水库,,,,,,,,,,,,,,,,
2025-02-28T0000,2392A,115.0312,35.7636,濮阳市,环保局,细颗粒物(PM2.5),119,,84,90,84,94,,124,107,16,19,4,5,1.3,1.2
2025-02-28T0000,2394A,115.0574,35.7609,濮阳市,油田运输公司,细颗粒物(PM2.5),122,144,116,92,83,75,,103,99,28,21,5,5,1.2,1
2025-02-28T0000,3021A,115,35.7668,濮阳市,濮水河管理处,细颗粒物(PM2.5),129,124,113,98,80,59,,106,83,33,14,4,6,1.0,0.9
2025-02-28T0000,4216A,115.0924,35.7686,濮阳市,任丘路479号,细颗粒物(PM2.5),128,131,110,97,86,65,,119,93,32,25,5,5,1.0,0.8
2025-02-28T0000,2601A,100.98,22.7633,普洱市,市环保局,颗粒物(PM10),57,63,55,18,21,49,,113,83,16,12,4,4,0.6,0.6
2025-02-28T0000,2602A,100.9817,22.8322,普洱市,普洱第二中学,颗粒物(PM10),55,59,53,34,26,7,,102,74,53,23,3,5,0.6,0.4
2025-02-28T0000,2262A,131.0518,45.8751,七台河市,新一中,颗粒物(PM10),51,52,42,25,20,92,,98,90,16,17,14,13,0.6,0.6
2025-02-28T0000,3345A,131.0577,45.7879,七台河市,中波台,颗粒物(PM10),52,53,48,28,22,100,,90,90,15,24,8,8,0.6,0.6
2025-02-28T0000,3637A,131.0176,45.7761,七台河市,人民广场,颗粒物(PM10),55,60,56,38,30,111,,91,88,13,27,9,9,0.6,0.5
2025-02-28T0000,3684A,130.8781,45.8222,七台河市,新建矿广场,颗粒物(PM10),56,61,64,36,30,110,,94,94,13,26,6,8,0.5,0.5
2025-02-28T0000,1779A,123.9305,47.3636,齐齐哈尔市,安居小区,颗粒物(PM10),53,56,48,23,23,53,,74,55,19,25,11,12,0.5,0.5
2025-02-28T0000,1780A,123.9488,47.3386,齐齐哈尔市,中心广场,颗粒物(PM10),54,58,47,25,23,49,,67,48,19,25,10,6,0.6,0.6
2025-02-28T0000,1781A,123.9483,47.3227,齐齐哈尔市,农牧车辆厂,颗粒物(PM10),51,51,40,18,20,39,,76,48,30,25,10,7,0.4,0.4
2025-02-28T0000,1783A,123.945,47.2988,齐齐哈尔市,市环境监测站,颗粒物(PM10),53,56,44,21,18,54,,79,69,16,16,7,5,0.5,0.4
2025-02-28T0000,3662A,123.6333,47.2075,齐齐哈尔市,富区青少年活动中心,颗粒物(PM10),54,57,54,24,14,36,,66,50,21,16,12,12,0.4,0.5
2025-02-28T0000,2591A,107.9783,26.5747,黔东南苗族侗族自治州,市环境监测站,,22,15,24,12,20,68,,62,62,4,9,2,3,0.6,0.6
2025-02-28T0000,2881A,107.8908,26.5311,黔东南苗族侗族自治州,凯里学院,,22,9,13,9,16,70,,66,66,3,8,2,2,0.7,0.7
2025-02-28T0000,2593A,107.5228,26.2403,黔南布依族苗族自治州,小围寨,,16,9,13,9,10,51,,57,55,4,5,5,4,0.7,0.8
2025-02-28T0000,3538A,107.5175,26.2978,黔南布依族苗族自治州,沙坝,,16,9,16,3,12,49,,58,54,7,8,4,4,0.6,0.6
2025-02-28T0000,2589A,104.9022,25.0925,黔西南布依族苗族自治州,场坝街,,35,25,21,24,13,62,,77,75,7,8,4,3,0.3,0.3
