timepoint,stationcode,longitude,latitude,area,positionname,primarypollutant,aqi,pm10,pm10_24h,pm2_5,pm2_5_24h,o3,o3_24h,o3_8h,o3_8h_24h,no2,no2_24h,so2,so2_24h,co,co_24h
2025-02-28T0200,2566A,102.1879,31.914,阿坝藏族羌族自治州,州农科所,,17,14,38,8,13,52,,,,14,13,9,9,0,0
2025-02-28T0200,2568A,102.2502,31.8896,阿坝藏族羌族自治州,马师校,,15,12,18,10,13,45,,,,15,15,4,4,0.3,0.3
2025-02-28T0200,3994A,102.2165,31.9024,阿坝藏族羌族自治州,马尔康中学西区,,15,14,17,9,11,48,,,,17,13,5,5,0.4,0.4
2025-02-28T0200,2695A,80.292,41.1694,阿克苏地区,电视台,颗粒物(PM10),177,303,252,128,94,4,,,,96,44,13,7,2.4,1
2025-02-28T0200,2696A,80.2613,41.1551,阿克苏地区,艺术中心,颗粒物(PM10),190,329,261,138,89,7,,,,108,46,11,7,0.1,0.5
2025-02-28T0200,2204A,105.6467,38.8363,阿拉善盟,西城区西花园,,35,35,45,6,16,102,,,,7,14,12,11,0.7,0.8
2025-02-28T0200,2205A,105.6985,38.8411,阿拉善盟,蒙二幼,,30,14,35,6,13,93,,,,9,12,10,6,0.5,0.6
2025-02-28T0200,2206A,105.724,38.8516,阿拉善盟,环保局新楼,,32,13,27,3,11,102,,,,3,5,7,7,0.5,0.5
2025-02-28T0200,2708A,88.1264,47.8517,阿勒泰地区,市站,细颗粒物(PM2.5),70,73,53,51,30,88,,,,19,19,4,4,0.9,0.8
2025-02-28T0200,2630A,80.1161,32.5,阿里地区,阿里监测站,,31,10,7,3,3,99,,,,1,2,10,7,0.5,0.5
2025-02-28T0200,3192A,80.0903,32.5028,阿里地区,阿里藏医院,,28,13,11,3,2,89,,,,1,2,10,8,0.4,0.4
2025-02-28T0200,2642A,109.0318,32.6537,安康市,香溪洞,,46,44,38,32,29,57,,,,17,14,7,6,0.8,0.7
2025-02-28T0200,2644A,109.0072,32.6975,安康市,汉滨区检察院,,43,43,44,28,29,43,,,,20,25,6,8,0.5,0.6
2025-02-28T0200,4054A,109.0325,32.6913,安康市,市邮政管理局,颗粒物(PM10),51,52,51,35,33,29,,,,28,28,6,7,0.6,0.8
2025-02-28T0200,2291A,117.0809,30.5177,安庆市,环科院,细颗粒物(PM2.5),60,49,54,43,50,2,,,,54,27,6,6,0.8,0.8
2025-02-28T0200,2292A,117.0331,30.5119,安庆市,马山宾馆,细颗粒物(PM2.5),62,48,50,44,50,2,,,,67,35,9,8,0.8,0.8
2025-02-28T0200,2294A,116.9896,30.6145,安庆市,安庆大学,细颗粒物(PM2.5),52,42,57,36,44,31,,,,17,16,7,8,0.8,0.7
2025-02-28T0200,3173A,117.0598,30.5351,安庆市,市人大,细颗粒物(PM2.5),60,44,51,43,50,13,,,,43,21,7,7,0.8,0.8
2025-02-28T0200,3122A,105.9606,26.2611,安顺市,伍家关,,,,22,20,20,42,,,,10,11,7,13,0.7,0.7
2025-02-28T0200,3123A,105.9408,26.2431,安顺市,凤凰山,,29,27,28,20,18,42,,,,12,13,20,19,0.4,0.4
2025-02-28T0200,3124A,105.9439,26.2564,安顺市,金钟山,,28,27,24,19,19,46,,,,8,9,12,15,0.9,0.8
2025-02-28T0200,3125A,105.8983,26.2481,安顺市,娄家坡,,30,26,24,21,19,44,,,,12,8,20,7,0.8,0.7
2025-02-28T0200,1818A,114.4839,36.0621,安阳市,棉研所,,,,,,,,,,,,,,,,
2025-02-28T0200,1819A,114.3551,36.1017,安阳市,红庙街,细颗粒物(PM2.5),153,134,120,117,90,18,,,,59,33,5,8,0.7,0.7
2025-02-28T0200,1820A,114.361,36.0681,安阳市,银杏小区,细颗粒物(PM2.5),156,133,107,119,100,21,,,,51,32,6,8,0.8,0.8
2025-02-28T0200,3141A,114.3922,36.0878,安阳市,信访局,细颗粒物(PM2.5),169,140,115,128,100,34,,,,49,32,4,6,1.1,0.9
2025-02-28T0200,3669A,114.4705,36.0637,安阳市,左辅环卫站,细颗粒物(PM2.5),163,163,134,124,100,50,,,,46,32,3,5,0.6,0.6
2025-02-28T0200,3703A,114.2917,36.0949,安阳市,安钢职工学校,细颗粒物(PM2.5),173,176,131,131,107,6,,,,75,38,6,9,1.0,1
2025-02-28T0200,1748A,123.044,41.1196,鞍山市,深沟寺,细颗粒物(PM2.5),125,118,116,95,85,134,,,,15,19,10,13,0.8,0.8
2025-02-28T0200,1749A,123.011,41.0931,鞍山市,太阳城,细颗粒物(PM2.5),123,124,119,93,82,134,,,,13,18,7,10,0.9,0.9
2025-02-28T0200,1750A,123.0485,41.1442,鞍山市,太平,细颗粒物(PM2.5),119,128,136,90,82,142,,,,18,25,9,12,0.8,0.9
2025-02-28T0200,1751A,122.9642,41.0971,鞍山市,铁西三道街,细颗粒物(PM2.5),125,135,147,95,94,136,,,,24,40,15,39,1.3,1.1
2025-02-28T0200,1753A,123.022,41.0821,鞍山市,明达新区,细颗粒物(PM2.5),132,127,137,100,95,137,,,,16,21,7,12,0.6,0.7
2025-02-28T0200,1754A,123.1289,41.0228,鞍山市,千山,,,,99,,57,,,98,,,14,,6,,0.6
2025-02-28T0200,4201A,122.9446,41.0826,鞍山市,兴盛南路290号,细颗粒物(PM2.5),135,144,163,103,104,127,,,,19,30,12,17,0.9,1.3
2025-02-28T0200,2195A,107.4212,40.761,巴彦淖尔市,附二中,,49,49,91,25,31,29,,,,50,30,8,9,0.4,0.6
2025-02-28T0200,2196A,107.37,40.7372,巴彦淖尔市,市环保大楼,颗粒物(PM10),54,58,84,28,29,51,,,,24,23,3,4,0.3,0.4
2025-02-28T0200,1956A,86.1472,41.7538,巴音郭楞蒙古自治州,孔雀公园,颗粒物(PM10),163,275,332,54,60,57,,,,31,30,8,7,0.5,0.6
2025-02-28T0200,1957A,86.1972,41.7166,巴音郭楞蒙古自治州,棉纺厂,颗粒物(PM10),181,312,399,39,55,65,,,,24,30,4,4,0.6,0.6
2025-02-28T0200,1958A,86.2357,41.7173,巴音郭楞蒙古自治州,经济开发区,颗粒物(PM10),165,280,338,36,48,71,,,,14,11,5,5,0.6,0.4
2025-02-28T0200,2914A,106.7677,31.8794,巴中市,苏山坪,细颗粒物(PM2.5),52,44,53,36,42,73,,,,16,17,4,5,0.4,0.5
2025-02-28T0200,3181A,106.7768,31.8526,巴中市,市五中,细颗粒物(PM2.5),69,69,66,50,47,9,,,,34,35,4,4,0.8,0.9
2025-02-28T0200,3183A,106.7418,31.8654,巴中市,圣泉水务公司,细颗粒物(PM2.5),54,49,52,38,41,20,,,,35,31,5,6,0.6,0.6
2025-02-28T0200,3616A,106.7616,31.8344,巴中市,市中心医院,细颗粒物(PM2.5),90,,63,67,54,9,,,,39,32,5,6,0.7,0.7
2025-02-28T0200,2235A,122.7911,45.6077,白城市,洮北区环保局,,50,50,50,31,19,57,,,,10,11,6,5,0.8,0.7
2025-02-28T0200,2236A,122.8738,45.5725,白城市,市环保局,颗粒物(PM10),53,56,55,20,19,62,,,,13,17,7,6,0.5,0.5
2025-02-28T0200,2231A,126.4219,41.9171,白山市,喜丰,细颗粒物(PM2.5),67,74,86,48,39,136,,,,13,26,5,13,0.8,0.9
2025-02-28T0200,2232A,126.4077,41.9419,白山市,环保局,细颗粒物(PM2.5),75,84,78,55,43,132,,,,20,39,10,13,0.8,1
2025-02-28T0200,2647A,104.1724,36.5446,白银市,第三小学,颗粒物(PM10),58,66,73,25,39,50,,,,30,41,26,57,0.7,0.9
2025-02-28T0200,2648A,104.1465,36.5482,白银市,动力公司,,41,41,60,19,33,56,,,,20,29,4,23,0.5,0.8
2025-02-28T0200,2512A,106.6103,23.9011,百色市,市监测站,细颗粒物(PM2.5),60,59,50,43,40,3,,,,24,24,10,15,1.2,1.2
2025-02-28T0200,2513A,106.6538,23.8859,百色市,市中心血站,细颗粒物(PM2.5),74,68,56,54,51,4,,,,23,23,11,15,1.4,1.2
2025-02-28T0200,3406A,106.6085,23.8798,百色市,祈福高中,,,80,56,,39,4,,,,30,25,8,11,1.4,1.1
2025-02-28T0200,2270A,117.396,32.939,蚌埠市,工人疗养院,细颗粒物(PM2.5),102,96,91,76,66,58,,,,37,29,5,6,0.8,0.9
2025-02-28T0200,2271A,117.3605,32.9427,蚌埠市,百货大楼,细颗粒物(PM2.5),103,104,93,77,63,25,,,,81,43,5,6,0.8,0.8
2025-02-28T0200,2273A,117.4185,32.8911,蚌埠市,蚌埠学院,细颗粒物(PM2.5),104,85,82,78,68,65,,,,27,26,6,6,0.6,0.6
2025-02-28T0200,2274A,117.3533,32.9673,蚌埠市,淮上区政府,细颗粒物(PM2.5),114,102,93,86,74,34,,,,60,37,7,8,0.9,0.8
2025-02-28T0200,2275A,117.3145,32.8977,蚌埠市,高新区,细颗粒物(PM2.5),98,83,81,73,65,58,,,,33,30,9,10,0.9,0.8
2025-02-28T0200,3715A,117.3092,32.9314,蚌埠市,蚌埠田家炳中学,细颗粒物(PM2.5),79,78,90,58,65,58,,,,41,36,7,8,0.8,0.8
2025-02-28T0200,1585A,109.8756,40.6532,包头市,市环境监测站,颗粒物(PM10),61,72,92,31,42,25,,,,55,53,13,24,0.8,1.2
2025-02-28T0200,1587A,109.9991,40.5842,包头市,包头八中,颗粒物(PM10),65,79,121,36,57,16,,,,76,58,9,30,0.7,1.6
2025-02-28T0200,1588A,109.8538,40.6821,包头市,青山宾馆,颗粒物(PM10),59,68,85,27,39,34,,,,38,41,12,20,0.7,1.1
2025-02-28T0200,1589A,109.8642,40.6288,包头市,惠龙物流,颗粒物(PM10),63,76,93,29,40,22,,,,68,52,15,19,1.1,1.2
2025-02-28T0200,1590A,110.0377,40.5546,包头市,东河鸿龙湾,颗粒物(PM10),73,95,122,25,50,7,,,,81,53,8,15,1.1,1.3
2025-02-28T0200,3283A,109.9154,40.5685,包头市,滨河大厦,颗粒物(PM10),58,66,98,26,44,17,,,,70,55,10,19,1.0,1
2025-02-28T0200,3419A,109.9447,40.6261,包头市,包头市委党校,颗粒物(PM10),58,65,97,27,43,9,,,,83,54,8,20,0.6,1.2
2025-02-28T0200,3683A,109.8331,40.6576,包头市,昆区政府,颗粒物(PM10),59,68,91,28,41,38,,,,41,41,21,24,0.9,1.3
2025-02-28T0200,1930A,107.185,34.3063,宝鸡市,庙沟村,,33,30,26,23,23,69,,,,15,12,6,6,0.7,0.7
2025-02-28T0200,1931A,107.0708,34.3017,宝鸡市,竹园沟,,28,26,33,19,25,39,,,,23,19,6,6,0.4,0.5
2025-02-28T0200,1932A,107.1906,34.3672,宝鸡市,三陆医院,细颗粒物(PM2.5),62,49,72,44,50,30,,,,30,42,6,7,0.7,0.8
2025-02-28T0200,1933A,107.1431,34.3547,宝鸡市,监测站,,43,34,58,30,37,19,,,,31,30,7,8,0.5,0.6
2025-02-28T0200,1934A,107.1186,34.3739,宝鸡市,技工学校,细颗粒物(PM2.5),63,58,62,45,41,38,,,,19,31,6,7,0.6,0.7
2025-02-28T0200,1935A,107.3906,34.3528,宝鸡市,陈仓区环保局家属楼,细颗粒物(PM2.5),90,78,69,67,55,10,,,,56,46,15,8,0.9,0.8
2025-02-28T0200,1936A,107.2058,34.3497,宝鸡市,文理学院,细颗粒物(PM2.5),60,61,63,43,45,29,,,,36,40,7,8,0.5,0.6
2025-02-28T0200,1937A,107.2386,34.3622,宝鸡市,三迪小学,,,62,71,,86,24,,,,34,43,8,7,0.7,0.8
2025-02-28T0200,1051A,115.493,38.8632,保定市,游泳馆,细颗粒物(PM2.5),223,214,156,173,116,21,,,,97,77,12,16,0.8,0.8
2025-02-28T0200,1052A,115.5213,38.8959,保定市,华电二区,细颗粒物(PM2.5),153,137,132,117,108,28,,,,86,75,11,14,1.2,1.1
2025-02-28T0200,1053A,115.4713,38.9108,保定市,接待中心,细颗粒物(PM2.5),219,197,151,169,114,45,,,,69,72,13,15,1.1,1
2025-02-28T0200,1054A,115.4612,38.8416,保定市,地表水厂,细颗粒物(PM2.5),235,249,172,185,115,12,,,,132,86,13,12,1.1,1
2025-02-28T0200,3581A,115.31981,38.95208,保定市,满城区生态环境分局,细颗粒物(PM2.5),201,197,169,151,107,41,,,,78,78,14,16,1.4,1.1
2025-02-28T0200,3582A,115.47694,38.76408,保定市,清苑区第二中学,细颗粒物(PM2.5),216,244,182,166,115,7,,,,130,87,16,17,1.1,1
2025-02-28T0200,3583A,115.62909,39.02311,保定市,徐水物探局,细颗粒物(PM2.5),230,235,157,180,107,4,,,,122,82,21,21,1.0,0.9
2025-02-28T0200,4004A,115.4202,38.8656,保定市,双鹰农机,细颗粒物(PM2.5),233,208,149,183,107,20,,,,102,73,18,14,1.2,1
2025-02-28T0200,4034A,115.5150,38.8590,保定市,植保所站,细颗粒物(PM2.5),206,203,157,156,110,8,,,,118,81,12,12,1.3,1
2025-02-28T0200,2594A,99.1678,25.1081,保山市,市环境监测站,,46,32,32,32,20,95,,,,6,10,4,4,0.4,0.4
2025-02-28T0200,2595A,99.1711,25.1328,保山市,市环保局,,42,42,35,24,20,106,,,,4,8,6,5,0.4,0.4
2025-02-28T0200,1866A,109.2262,21.588,北海市,牛尾岭水库,,,44,40,38,34,66,,,,,14,5,6,0.2,0.5
2025-02-28T0200,1867A,109.1436,21.4086,北海市,海滩公园,颗粒物(PM10),51,52,67,17,45,92,,,,8,21,6,7,0.8,1
2025-02-28T0200,1868A,109.0981,21.4661,北海市,新市环保局,细颗粒物(PM2.5),89,74,63,66,39,28,,,,38,25,6,6,0.9,0.8
2025-02-28T0200,1869A,109.1778,21.5233,北海市,北海工业园,颗粒物(PM10),54,58,75,27,41,79,,,,18,19,8,8,0.6,0.8
2025-02-28T0200,3400A,109.1911,21.4415,北海市,龙潭自来水厂,,46,45,53,32,48,81,,,,10,17,6,7,0.6,0.8
2025-02-28T0200,1001A,116.3621,39.8784,北京市,万寿西宫,细颗粒物(PM2.5),156,199,156,119,96,5,,,,140,83,9,10,1.6,1.2
2025-02-28T0200,1002A,116.2202,40.2915,北京市,定陵,,,,,,,,,,,,,,,,
2025-02-28T0200,1003A,116.4174,39.9289,北京市,东四,细颗粒物(PM2.5),160,173,144,122,92,7,,,,138,77,12,12,1.7,1.2
2025-02-28T0200,1004A,116.4072,39.8863,北京市,天坛,细颗粒物(PM2.5),158,160,140,120,90,5,,,,100,69,3,9,2.0,1.3
2025-02-28T0200,1005A,116.462,39.9365,北京市,农展馆,细颗粒物(PM2.5),165,191,144,125,91,6,,,,141,82,8,12,1.7,1.1
2025-02-28T0200,1006A,116.3392,39.9295,北京市,官园,细颗粒物(PM2.5),139,171,145,106,89,3,,,,117,71,12,14,1.4,1.1
2025-02-28T0200,1007A,116.2878,39.9611,北京市,海淀万柳,细颗粒物(PM2.5),148,176,139,113,82,3,,,,98,71,5,9,1.6,1.2
2025-02-28T0200,1008A,116.6636,40.135,北京市,顺义新城,细颗粒物(PM2.5),173,194,140,131,86,6,,,,120,62,6,10,1.1,0.7
2025-02-28T0200,1009A,116.6275,40.3275,北京市,怀柔镇,细颗粒物(PM2.5),134,140,115,102,74,67,,,,29,41,6,8,1.0,0.8
2025-02-28T0200,1010A,116.2296,40.217,北京市,昌平镇,细颗粒物(PM2.5),162,173,137,123,88,52,,,,40,50,5,6,1.1,1
2025-02-28T0200,1011A,116.3966,39.9821,北京市,奥体中心,细颗粒物(PM2.5),135,170,140,103,83,1,,,,125,79,11,11,1.4,1.2
2025-02-28T0200,3281A,115.9718,40.4529,北京市,延庆夏都,细颗粒物(PM2.5),122,137,107,92,63,18,,,,56,41,7,8,1.1,0.8
2025-02-28T0200,3418A,116.8336,40.4095,北京市,密云新城,细颗粒物(PM2.5),156,172,127,119,78,43,,,,41,46,5,8,1.0,0.8
2025-02-28T0200,3671A,116.088,39.9726,北京市,门头沟三家店,细颗粒物(PM2.5),130,146,125,99,75,32,,,,55,55,8,8,0.8,0.7
2025-02-28T0200,3672A,116.1541,39.8204,北京市,丰台云岗,细颗粒物(PM2.5),122,164,141,92,85,40,,,,65,67,8,10,1.0,0.9
2025-02-28T0200,3673A,116.6804,39.9081,北京市,通州东关,细颗粒物(PM2.5),182,206,166,137,102,4,,,,154,99,11,13,1.6,1.1
2025-02-28T0200,3674A,115.9577,39.7603,北京市,房山燕山,细颗粒物(PM2.5),133,139,123,101,82,54,,,,29,43,5,9,0.9,0.8
2025-02-28T0200,3675A,116.4672,39.7733,北京市,大兴旧宫,细颗粒物(PM2.5),175,189,158,132,98,19,,,,56,66,1,6,0.8,0.9
2025-02-28T0200,3694A,115.986,40.4563,北京市,延庆石河营,细颗粒物(PM2.5),125,141,107,95,61,14,,,,55,43,5,7,1.1,0.9
2025-02-28T0200,3695A,116.6151,40.3053,北京市,怀柔新城,细颗粒物(PM2.5),132,137,113,100,74,73,,,,25,32,9,9,1.1,0.9
2025-02-28T0200,3696A,116.2545,39.8768,北京市,丰台小屯,细颗粒物(PM2.5),148,225,151,113,85,1,,,,138,94,4,8,1.2,1
2025-02-28T0200,3697A,116.84,40.3844,北京市,密云镇,细颗粒物(PM2.5),160,181,134,122,79,25,,,,58,59,3,6,1.1,0.9
2025-02-28T0200,4182A,116.1942,39.9158,北京市,八角北路9号,细颗粒物(PM2.5),123,178,187,93,83,37,,,,60,65,5,7,0.9,0.9
2025-02-28T0200,4194A,117.0790,40.1518,北京市,洳河巡河路,细颗粒物(PM2.5),186,167,134,140,100,45,,,,30,36,4,7,0.7,0.6
2025-02-28T0200,1761A,123.8275,41.3064,本溪市,大峪,细颗粒物(PM2.5),105,105,107,79,63,133,,,,16,19,9,12,0.9,0.8
2025-02-28T0200,1762A,123.7567,41.3325,本溪市,溪湖,细颗粒物(PM2.5),119,127,122,90,78,124,,,,23,26,12,14,1.1,1.2
2025-02-28T0200,1763A,123.7169,41.3094,本溪市,彩屯,细颗粒物(PM2.5),128,151,153,97,81,106,,,,36,39,17,22,2.9,3.2
2025-02-28T0200,1764A,123.7669,41.2864,本溪市,东明,细颗粒物(PM2.5),114,,82,86,66,119,,,,20,23,11,14,0.9,0.9
2025-02-28T0200,1765A,123.7992,41.2664,本溪市,新立屯,细颗粒物(PM2.5),210,,81,160,66,148,,,,14,16,6,7,0.8,0.8
2025-02-28T0200,1766A,123.8142,41.3472,本溪市,威宁,细颗粒物(PM2.5),103,117,103,77,64,124,,,,24,26,5,8,0.8,0.8
2025-02-28T0200,2587A,105.2864,27.3125,毕节市,八中,细颗粒物(PM2.5),102,82,54,76,44,91,,,,9,15,7,10,0.9,1
2025-02-28T0200,2588A,105.31,27.2944,毕节市,师专,细颗粒物(PM2.5),107,97,59,80,41,96,,,,7,13,5,6,1.0,0.9
2025-02-28T0200,4263A,105.3688,27.3598,毕节市,工业大道,细颗粒物(PM2.5),108,98,52,81,41,109,,,,10,15,7,10,1.8,1.5
2025-02-28T0200,1629A,118.0018,37.3617,滨州市,第二水厂,细颗粒物(PM2.5),178,193,141,134,97,7,,,,116,57,13,15,1.5,1.2
2025-02-28T0200,1630A,117.9776,37.393,滨州市,北中新校,细颗粒物(PM2.5),188,200,147,141,97,3,,,,124,72,16,15,1.4,1.2
2025-02-28T0200,3514A,117.9378,37.3956,滨州市,中海酒店,细颗粒物(PM2.5),170,173,126,129,93,16,,,,99,46,12,13,1.1,1
2025-02-28T0200,3515A,117.9378,37.3553,滨州市,开发区一中,细颗粒物(PM2.5),192,222,150,144,97,12,,,,138,67,27,17,1.0,0.8
2025-02-28T0200,3516A,118.0917,37.694,滨州市,金海六路,细颗粒物(PM2.5),178,176,144,134,101,42,,,,50,43,15,16,1.1,1.1
2025-02-28T0200,4028A,117.9956,37.3753,滨州市,滨州市西街道办事处,细颗粒物(PM2.5),203,200,153,153,116,5,,,,112,65,14,13,1.3,1.4
2025-02-28T0200,2311A,115.8072,33.8399,亳州市,污水处理厂,细颗粒物(PM2.5),94,103,95,70,65,51,,,,40,28,37,13,0.5,0.5
2025-02-28T0200,2312A,115.7789,33.8518,亳州市,三国揽胜宫,细颗粒物(PM2.5),114,110,100,86,65,33,,,,46,32,11,8,0.8,0.7
2025-02-28T0200,3332A,115.7633,33.8034,亳州市,亳州学院,细颗粒物(PM2.5),102,100,93,76,66,78,,,,26,24,6,5,0.7,0.7
2025-02-28T0200,2693A,82.0485,44.8556,博尔塔拉蒙古自治州,市党校,细颗粒物(PM2.5),65,60,56,47,31,90,,,,17,16,7,7,1.5,1.7
2025-02-28T0200,2694A,82.0806,44.8969,博尔塔拉蒙古自治州,市环保局,二氧化氮,84,53,62,29,24,142,,,,168,41,92,38,0.7,2.4
2025-02-28T0200,1071A,116.8842,38.2991,沧州市,沧县城建局,细颗粒物(PM2.5),180,181,142,136,109,33,,,,82,39,6,8,0.9,0.8
2025-02-28T0200,1072A,116.8584,38.3254,沧州市,电视转播站,细颗粒物(PM2.5),178,148,131,134,102,48,,,,59,34,11,9,0.8,0.7
2025-02-28T0200,1073A,116.8709,38.3228,沧州市,市环保局,细颗粒物(PM2.5),163,157,128,124,97,46,,,,59,35,10,11,0.8,0.7
2025-02-28T0200,3324A,116.8136,38.3004,沧州市,河北水利电力学院,细颗粒物(PM2.5),159,168,141,121,98,31,,,,86,36,11,13,0.8,0.6
2025-02-28T0200,2622A,97.1806,31.1273,昌都市,昌都监测站,细颗粒物(PM2.5),405,431,61,357,42,9,,,,43,17,19,8,1.2,0.9
2025-02-28T0200,3719A,97.1714,31.1406,昌都市,昌都会议中心,细颗粒物(PM2.5),137,,25,104,31,52,,,,17,5,16,9,0.4,0.4
2025-02-28T0200,2690A,88.1236,43.8886,昌吉回族自治州,天山天池,,40,9,69,9,14,62,,,,4,5,7,6,4.0,1.8
2025-02-28T0200,2692A,87.2717,44.0297,昌吉回族自治州,新区政务中心,颗粒物(PM10),66,82,88,45,41,17,,,,38,32,5,5,1.0,0.9
2025-02-28T0200,3613A,87.3095,44.0142,昌吉回族自治州,亚心广场,细颗粒物(PM2.5),107,102,106,80,48,48,,,,40,43,6,7,0.7,0.7
2025-02-28T0200,1119A,125.3325,43.9166,长春市,食品厂,细颗粒物(PM2.5),140,122,113,107,73,138,,,,18,30,13,15,0.7,0.7
2025-02-28T0200,1120A,125.2863,43.9027,长春市,客车厂,细颗粒物(PM2.5),163,,99,124,80,131,,,,22,34,11,14,0.7,0.8
2025-02-28T0200,1121A,125.2841,43.8463,长春市,邮电学院,细颗粒物(PM2.5),156,,105,119,75,143,,,,21,29,11,15,0.9,0.9
2025-02-28T0200,1122A,125.3716,43.8772,长春市,劳动公园,细颗粒物(PM2.5),147,,94,112,71,145,,,,16,25,11,12,0.6,0.8
2025-02-28T0200,1123A,125.3297,43.8805,长春市,园林处,细颗粒物(PM2.5),160,,100,122,73,140,,,,16,23,14,17,0.8,0.8
2025-02-28T0200,1124A,125.4605,43.79,长春市,净月潭,细颗粒物(PM2.5),122,,84,92,62,125,,,,11,13,9,11,0.6,0.7
2025-02-28T0200,1125A,125.7194,43.515,长春市,甩湾子,,,,,,,,,,,,,,,,
2025-02-28T0200,1126A,125.3863,43.8447,长春市,经开区环卫处,细颗粒物(PM2.5),139,108,98,106,66,132,,,,16,26,9,10,0.6,0.7
2025-02-28T0200,1127A,125.245,43.7783,长春市,高新区管委会,,,,61,,47,,,60,,,27,,12,,0.8
2025-02-28T0200,1128A,125.1761,43.8325,长春市,岱山公园,细颗粒物(PM2.5),162,,97,123,83,139,,,,20,33,10,13,0.9,1
2025-02-28T0200,1335A,113.0833,28.2325,长沙市,经开区环保局,细颗粒物(PM2.5),62,49,53,44,45,40,,,,23,28,5,5,0.7,0.9
2025-02-28T0200,1336A,112.8872,28.2189,长沙市,高开区环保局,细颗粒物(PM2.5),63,50,56,45,52,41,,,,17,13,6,7,0.9,1.1
2025-02-28T0200,1337A,113.0792,28.2053,长沙市,马坡岭,细颗粒物(PM2.5),62,49,55,44,43,42,,,,14,13,4,5,0.7,0.8
2025-02-28T0200,1338A,112.9394,28.19,长沙市,湖南师范大学,颗粒物(PM10),81,112,64,41,47,22,,,,31,15,6,7,0.8,1
2025-02-28T0200,1339A,113.0178,28.1322,长沙市,雨花区环保局,细颗粒物(PM2.5),59,44,58,42,47,42,,,,14,19,6,7,0.7,0.8
2025-02-28T0200,1340A,112.9792,28.2597,长沙市,伍家岭,细颗粒物(PM2.5),67,73,66,48,50,3,,,,47,26,4,5,1.0,1
2025-02-28T0200,1341A,113.0014,28.1944,长沙市,火车新站,细颗粒物(PM2.5),64,49,62,46,50,36,,,,22,27,6,8,0.9,1.1
2025-02-28T0200,1342A,112.9844,28.1178,长沙市,天心区环保局,细颗粒物(PM2.5),68,53,58,49,47,33,,,,28,26,5,6,1.0,1
2025-02-28T0200,1343A,112.8908,28.1308,长沙市,湖南中医药大学,细颗粒物(PM2.5),77,57,61,56,52,18,,,,29,17,5,7,1.2,1.3
2025-02-28T0200,1344A,112.9581,28.3611,长沙市,沙坪,,43,43,52,29,39,50,,,,8,14,6,7,0.9,0.9
2025-02-28T0200,1727A,113.1147,36.1547,长治市,清华站,细颗粒物(PM2.5),52,48,61,36,46,56,,,,24,29,13,13,0.9,0.8
2025-02-28T0200,1730A,113.0886,36.2125,长治市,审计局,细颗粒物(PM2.5),64,54,64,46,53,44,,,,51,32,22,12,2.0,1.1
2025-02-28T0200,1731A,113.0844,36.1856,长治市,长治八中,细颗粒物(PM2.5),63,51,77,45,59,52,,,,24,26,14,14,1.0,0.9
2025-02-28T0200,2845A,113.1569,36.1911,长治市,德盛苑,细颗粒物(PM2.5),73,58,56,53,45,97,,,,20,21,12,7,2.0,0.8
2025-02-28T0200,3568A,113.06,36.0464,长治市,向阳小学,细颗粒物(PM2.5),63,66,86,45,56,84,,,,14,23,15,17,0.7,0.8
2025-02-28T0200,3569A,112.8792,36.3144,长治市,屯留一中,细颗粒物(PM2.5),63,70,60,45,46,18,,,,75,42,13,12,0.7,0.6
2025-02-28T0200,4189A,113.1131,36.19948,长治市,英华南巷50号,细颗粒物(PM2.5),62,62,67,44,50,63,,,,36,32,26,14,4.6,1.2
2025-02-28T0200,4190A,113.2367,36.3344,长治市,学府街1号,细颗粒物(PM2.5),74,74,92,54,61,26,,,,70,35,7,6,1.3,1.4
2025-02-28T0200,1854A,111.6975,28.9703,常德市,市二中,颗粒物(PM10),54,58,36,9,24,56,,,,18,18,7,5,0.8,0.6
2025-02-28T0200,1857A,111.7158,29.1456,常德市,白鹤山,,,,,,,,,,,,,,,,
2025-02-28T0200,3138A,111.7153,29.0289,常德市,武陵区永安,细颗粒物(PM2.5),58,55,40,41,29,61,,,,14,12,6,5,0.8,0.7
2025-02-28T0200,3139A,111.6892,28.9881,常德市,鼎城区玉霞,细颗粒物(PM2.5),62,60,41,44,29,35,,,,30,20,6,5,0.9,0.7
2025-02-28T0200,3140A,111.6625,29.0531,常德市,武陵区长庚,细颗粒物(PM2.5),62,69,41,44,28,39,,,,23,11,4,4,0.8,0.6
2025-02-28T0200,1196A,119.9633,31.762,常州市,市监测站,细颗粒物(PM2.5),118,121,133,89,101,4,,,,97,60,8,8,1.3,0.9
2025-02-28T0200,1200A,119.9468,31.7069,常州市,武进监测站,细颗粒物(PM2.5),98,112,123,73,92,21,,,,61,36,15,15,1.0,1.1
2025-02-28T0200,1201A,119.9255,31.9087,常州市,安家,细颗粒物(PM2.5),123,125,126,93,96,0,,,,108,52,8,8,1.0,0.9
2025-02-28T0200,3002A,119.9805,31.8174,常州市,行政中心,细颗粒物(PM2.5),117,110,115,88,93,,,,,90,44,17,17,0.9,0.9
2025-02-28T0200,3003A,120.0522,31.7748,常州市,经开区,细颗粒物(PM2.5),137,144,135,104,99,4,,,,100,57,23,12,1.1,1.1
2025-02-28T0200,3010A,119.9025,31.7964,常州市,钟楼,细颗粒物(PM2.5),120,110,122,91,100,25,,,,58,39,8,9,0.8,0.7
2025-02-28T0200,3429A,119.8598,31.7066,常州市,武进经发区,细颗粒物(PM2.5),122,109,131,92,110,37,,,,54,51,7,10,0.9,0.8
2025-02-28T0200,3430A,119.5826,31.7245,常州市,金坛城区,细颗粒物(PM2.5),153,154,135,117,112,35,,,,45,34,17,11,1.1,1.2
2025-02-28T0200,2220A,120.4318,41.5881,朝阳市,西梁,细颗粒物(PM2.5),158,145,115,120,73,99,,,,38,28,21,14,1.5,1.2
2025-02-28T0200,2221A,120.4521,41.5646,朝阳市,河畔小区,细颗粒物(PM2.5),165,,95,125,75,108,,,,26,25,12,13,1.2,1
2025-02-28T0200,2222A,120.4176,41.5648,朝阳市,八里堡,细颗粒物(PM2.5),153,131,103,117,64,77,,,,42,32,16,14,1.5,1.2
2025-02-28T0200,2223A,120.3806,41.5969,朝阳市,农业园区,细颗粒物(PM2.5),188,,121,141,88,106,,,,26,27,14,14,1.3,1
2025-02-28T0200,1705A,116.6367,23.6719,潮州市,西园路,细颗粒物(PM2.5),179,,77,135,91,52,,,,33,27,8,8,0.4,0.4
2025-02-28T0200,3026A,116.6183,23.6608,潮州市,市政府,细颗粒物(PM2.5),122,,72,92,69,65,,,,30,35,7,9,0.7,0.8
2025-02-28T0200,4036A,116.6461,23.6761,潮州市,金山,细颗粒物(PM2.5),165,,70,125,83,30,,,,35,25,8,9,1.0,0.9
2025-02-28T0200,2472A,113.0073,25.9061,郴州市,马头岭,,35,35,38,24,22,63,,,,10,12,8,8,0.5,0.7
2025-02-28T0200,2473A,113.0116,25.8226,郴州市,市职中,,42,34,38,29,32,50,,,,12,12,4,5,0.6,0.8
2025-02-28T0200,2475A,113.0383,25.8071,郴州市,市审计局,,45,35,38,31,35,69,,,,9,15,3,4,0.6,0.8
2025-02-28T0200,2476A,113.0348,25.7759,郴州市,市环保局,细颗粒物(PM2.5),55,40,42,39,37,66,,,,12,15,4,6,0.5,0.7
2025-02-28T0200,4252A,113.0138,25.8011,郴州市,好美居路49号,,46,33,39,32,39,64,,,,6,10,6,6,0.7,0.9
2025-02-28T0200,1431A,103.9728,30.7236,成都市,金泉两河,细颗粒物(PM2.5),92,,59,68,51,3,,,,45,33,2,2,0.9,0.6
2025-02-28T0200,1432A,104.176,30.6872,成都市,十里店,细颗粒物(PM2.5),92,84,71,68,50,12,,,,59,38,3,3,0.9,0.7
2025-02-28T0200,1433A,104.079,30.5706,成都市,三瓦窑,颗粒物(PM10),76,101,80,52,53,4,,,,77,46,6,4,1.2,1
2025-02-28T0200,1434A,104.1114,30.63,成都市,沙河铺,细颗粒物(PM2.5),88,83,74,65,62,6,,,,52,39,4,5,1.0,0.8
2025-02-28T0200,1437A,104.0786,30.6531,成都市,君平街,细颗粒物(PM2.5),112,93,74,84,59,7,,,,62,41,6,6,0.9,0.7
2025-02-28T0200,1438A,103.613,31.0283,成都市,灵岩寺,,,,,,,,,,,,,,,,
2025-02-28T0200,2880A,104.0239,30.65639,成都市,大石西路,细颗粒物(PM2.5),92,92,78,68,56,3,,,,60,44,4,4,1.0,0.8
2025-02-28T0200,3136A,104.2725,30.5589,成都市,龙泉驿区区政府,细颗粒物(PM2.5),73,75,68,53,50,23,,,,34,33,4,4,0.8,0.9
2025-02-28T0200,3357A,104.0106,30.6931,成都市,金博路,细颗粒物(PM2.5),89,94,69,66,45,1,,,,56,39,2,2,1.0,0.8
2025-02-28T0200,3359A,104.0578,30.5225,成都市,华阳,细颗粒物(PM2.5),98,100,74,73,52,15,,,,53,43,5,6,1.1,1
2025-02-28T0200,3488A,104.3853,30.7453,成都市,青白江技师分院,细颗粒物(PM2.5),93,90,64,69,52,11,,,,51,31,5,5,0.7,0.7
2025-02-28T0200,3489A,104.0789,30.4072,成都市,科学城,细颗粒物(PM2.5),94,92,70,70,56,27,,,,42,37,5,5,0.8,0.8
2025-02-28T0200,4011A,103.8506,30.6947,成都市,光华大道三段,细颗粒物(PM2.5),115,110,79,87,54,14,,,,31,28,4,5,0.9,0.8
2025-02-28T0200,4224A,104.2433,30.5353,成都市,鲸龙路1057号,细颗粒物(PM2.5),77,83,75,56,52,10,,,,53,39,1,2,0.9,0.9
2025-02-28T0200,1062A,117.9531,40.9081,承德市,铁路,细颗粒物(PM2.5),138,141,96,105,62,30,,,,53,41,8,11,1.3,1
2025-02-28T0200,1063A,117.9392,40.9763,承德市,中国银行,细颗粒物(PM2.5),127,124,96,96,55,26,,,,48,40,4,7,1.2,0.9
2025-02-28T0200,1064A,117.9503,40.928,承德市,开发区,细颗粒物(PM2.5),128,117,95,97,54,36,,,,53,43,8,10,1.2,0.9
2025-02-28T0200,1065A,117.8051,40.9655,承德市,文化中心,细颗粒物(PM2.5),135,140,117,103,63,44,,,,41,41,8,20,1.1,1.3
2025-02-28T0200,1066A,117.9268,41.0026,承德市,离宫,细颗粒物(PM2.5),139,128,93,106,56,65,,,,32,26,4,9,0.9,0.6
2025-02-28T0200,2314A,117.47,30.6618,池州市,池州学院,,38,36,40,26,37,23,,,,30,18,11,8,0.8,0.8
2025-02-28T0200,3237A,117.4918,30.6617,池州市,展览馆,,29,25,44,20,41,2,,,,30,15,5,7,0.8,0.9
2025-02-28T0200,3333A,117.5627,30.695,池州市,第八中学,,40,40,44,27,35,17,,,,35,20,8,7,0.7,0.7
2025-02-28T0200,3334A,117.5038,30.6243,池州市,第十二中学,,32,25,41,22,39,8,,,,40,20,5,7,0.7,0.7
2025-02-28T0200,1744A,118.9233,42.2816,赤峰市,松山一中,颗粒物(PM10),68,86,74,48,34,27,,,,67,43,13,17,1.3,1.2
2025-02-28T0200,1745A,118.9576,42.2728,赤峰市,哈达街,细颗粒物(PM2.5),65,74,66,47,31,100,,,,17,31,12,13,0.7,0.8
2025-02-28T0200,1746A,118.8788,42.2554,赤峰市,天义路,颗粒物(PM10),59,67,62,38,29,85,,,,17,27,9,12,0.5,0.6
2025-02-28T0200,3058A,119.2658,42.0353,赤峰市,银河街,细颗粒物(PM2.5),108,112,106,81,57,78,,,,29,30,55,28,1.0,0.9
2025-02-28T0200,3286A,118.9359,42.3147,赤峰市,桥北物流园区,细颗粒物(PM2.5),94,76,62,70,48,48,,,,39,44,12,17,1.0,1
2025-02-28T0200,2521A,107.3476,22.4136,崇左市,市环保局江州分局,,50,50,35,30,22,6,,,,21,14,4,5,1.0,0.8
2025-02-28T0200,4256A,107.3750,22.3736,崇左市,石景林东路7号,颗粒物(PM10),63,76,36,40,24,4,,,,30,21,4,4,1.1,0.8
2025-02-28T0200,2298A,118.3093,32.3153,滁州市,老年大学,细颗粒物(PM2.5),92,76,86,68,70,11,,,,38,24,8,9,0.9,0.8
2025-02-28T0200,2299A,118.3244,32.2786,滁州市,人大宾馆,细颗粒物(PM2.5),94,79,83,70,73,25,,,,52,40,7,10,0.8,0.8
2025-02-28T0200,3207A,118.3118,32.3038,滁州市,市政府原办公楼,细颗粒物(PM2.5),94,78,75,70,68,27,,,,50,35,5,7,0.9,0.7
2025-02-28T0200,3331A,118.3267,32.2634,滁州市,图书馆,细颗粒物(PM2.5),95,84,86,71,66,33,,,,37,29,6,8,0.8,0.7
2025-02-28T0200,2605A,101.5482,25.0441,楚雄彝族自治州,州环境监测站,颗粒物(PM10),58,65,28,33,18,20,,,,65,22,16,6,0.7,0.5
2025-02-28T0200,2606A,101.538,25.0492,楚雄彝族自治州,市经济开发区,"颗粒物(PM10),细颗粒物(PM2.5)",52,54,30,36,19,47,,,,36,21,11,7,0.8,0.6
2025-02-28T0200,2548A,107.5277,31.2827,达州市,达州职业技术学院,细颗粒物(PM2.5),70,62,76,51,55,11,,,,36,31,5,8,0.4,0.6
2025-02-28T0200,2549A,107.5086,31.2186,达州市,市环境监测站,细颗粒物(PM2.5),62,55,73,44,48,3,,,,57,50,6,8,1.0,0.9
2025-02-28T0200,2550A,107.4988,31.2132,达州市,凤凰小区,细颗粒物(PM2.5),62,58,74,44,52,5,,,,58,49,7,10,0.8,1
2025-02-28T0200,2551A,107.5082,31.1986,达州市,达县机关宾馆,颗粒物(PM10),56,61,79,33,52,1,,,,56,48,7,8,0.7,1
2025-02-28T0200,2552A,107.4644,31.2124,达州市,市政中心,细颗粒物(PM2.5),70,77,76,51,49,2,,,,69,51,4,4,1.1,0.8
2025-02-28T0200,2614A,100.1542,25.7054,大理白族自治州,大理市环境监测站,,35,33,20,17,15,109,,,,4,5,6,7,0.6,0.5
2025-02-28T0200,2615A,100.2171,25.5811,大理白族自治州,大理古城,,35,,22,24,13,84,,,,10,10,7,7,0.5,0.4
2025-02-28T0200,1109A,121.612,38.9741,大连市,甘井子,细颗粒物(PM2.5),113,107,116,85,87,99,,,,30,32,9,10,0.8,0.9
2025-02-28T0200,1110A,121.565,38.9511,大连市,周水子,细颗粒物(PM2.5),124,108,116,94,101,101,,,,17,28,6,8,1.1,1.4
2025-02-28T0200,1111A,121.5637,38.8845,大连市,星海三站,细颗粒物(PM2.5),100,100,110,75,83,102,,,,13,17,7,9,0.8,0.8
2025-02-28T0200,1112A,121.6302,38.9117,大连市,青泥洼桥,细颗粒物(PM2.5),105,103,105,79,81,111,,,,17,19,10,12,1.5,1.2
2025-02-28T0200,1113A,121.6251,38.8638,大连市,傅家庄,细颗粒物(PM2.5),102,100,110,76,77,103,,,,20,22,4,6,0.6,0.3
2025-02-28T0200,1114A,121.5213,38.8661,大连市,七贤岭,细颗粒物(PM2.5),133,117,122,101,91,92,,,,18,20,7,9,0.6,0.7
2025-02-28T0200,1115A,121.2529,38.8061,大连市,旅顺,细颗粒物(PM2.5),117,115,124,88,93,90,,,,22,25,8,5,0.7,0.7
2025-02-28T0200,1116A,121.7485,39.1311,大连市,金州,细颗粒物(PM2.5),104,126,144,78,86,105,,,,28,32,11,13,1.0,1
2025-02-28T0200,1117A,121.7811,39.0496,大连市,开发区,细颗粒物(PM2.5),105,110,119,79,84,92,,,,24,37,8,9,1.2,1.3
2025-02-28T0200,1118A,121.9762,39.0631,大连市,双D港,细颗粒物(PM2.5),109,91,101,82,84,97,,,,30,29,6,8,1.0,1
2025-02-28T0200,1789A,124.81117,46.03138,大庆市,大同区,细颗粒物(PM2.5),133,198,98,101,48,65,,,,24,17,10,9,1.2,0.8
2025-02-28T0200,1790A,125.129,46.533,大庆市,龙凤区,颗粒物(PM10),63,75,71,31,30,53,,,,17,21,8,9,0.5,0.7
2025-02-28T0200,1791A,124.902,46.408,大庆市,红岗区,颗粒物(PM10),59,68,56,21,24,55,,,,18,21,7,7,0.4,0.5
2025-02-28T0200,1792A,125.153,46.586,大庆市,萨尔图区,颗粒物(PM10),63,75,74,32,32,57,,,,18,25,9,10,0.5,0.5
2025-02-28T0200,1793A,124.9042,46.6215,大庆市,让胡路区,颗粒物(PM10),53,55,53,28,27,50,,,,16,28,8,9,0.4,0.5
2025-02-28T0200,3481A,125.141,46.634,大庆市,萨区政府监测点,颗粒物(PM10),61,72,68,29,28,52,,,,20,22,13,12,0.5,0.6
2025-02-28T0200,1721A,113.3819,40.1097,大同市,果树场,颗粒物(PM10),68,86,109,46,56,6,,,,66,48,26,18,1.6,1.3
2025-02-28T0200,1723A,113.2994,40.0758,大同市,云冈宾馆,颗粒物(PM10),80,109,133,47,50,28,,,,57,42,16,28,1.5,1.1
2025-02-28T0200,1724A,113.3444,40.0917,大同市,大同大学,颗粒物(PM10),69,87,103,28,49,65,,,,26,37,23,33,0.8,0.9
2025-02-28T0200,1725A,113.2661,40.1269,大同市,安家小村,颗粒物(PM10),81,112,142,29,52,59,,,,25,37,13,25,0.9,2.1
2025-02-28T0200,1726A,113.2711,40.0844,大同市,教育学院,颗粒物(PM10),77,104,131,49,60,23,,,,63,48,16,24,1.8,1.3
2025-02-28T0200,3282A,113.3397,40.0597,大同市,大同市卫生学校,颗粒物(PM10),71,92,112,34,49,51,,,,38,42,16,30,1.0,0.7
2025-02-28T0200,3565A,113.1367,40.1122,大同市,云冈站,颗粒物(PM10),67,84,109,28,46,33,,,,35,31,34,26,0.6,0.7
2025-02-28T0200,3566A,113.1186,40.2556,大同市,图书馆,颗粒物(PM10),60,70,97,40,49,45,,,,11,19,13,15,0.6,0.8
2025-02-28T0200,3567A,113.5931,40.0461,大同市,区一中,颗粒物(PM10),65,79,121,46,38,46,,,,28,29,20,26,0.9,0.8
2025-02-28T0200,4199A,113.2798,40.0997,大同市,魏都大道141号,颗粒物(PM10),80,110,141,43,57,33,,,,56,46,23,30,1.9,1.3
2025-02-28T0200,2269A,124.1069,50.4097,大兴安岭地区,科技局,,43,43,38,28,23,90,,,,10,8,7,7,0.4,0.4
2025-02-28T0200,3663A,124.1164,50.4278,大兴安岭地区,红旗社区,,26,22,24,16,17,83,,,,14,14,6,8,0.5,0.5
2025-02-28T0200,1600A,124.3303,40.0625,丹东市,江湾东路,细颗粒物(PM2.5),98,112,120,73,62,120,,,,9,16,7,11,0.7,1
2025-02-28T0200,1601A,124.4256,40.1503,丹东市,临江后街,细颗粒物(PM2.5),102,131,141,76,61,100,,,,23,18,9,10,1.1,0.9
2025-02-28T0200,1602A,124.3933,40.1461,丹东市,元宝山,细颗粒物(PM2.5),94,116,115,70,52,108,,,,16,19,9,10,1.2,0.9
2025-02-28T0200,1603A,124.3633,40.1092,丹东市,民主桥,细颗粒物(PM2.5),95,111,112,71,61,104,,,,8,23,6,9,0.7,0.9
2025-02-28T0200,3541A,109.5726,19.5167,儋州市,第一中学子站,,31,31,26,15,11,44,,,,4,6,3,4,0.7,0.7
2025-02-28T0200,3542A,109.5567,19.5187,儋州市,东坡学校子站,,33,33,23,15,11,61,,,,5,5,5,4,0.6,0.7
2025-02-28T0200,2616A,98.5842,24.428,德宏傣族景颇族自治州,德宏州监测站,细颗粒物(PM2.5),62,67,56,44,36,28,,,,46,27,11,14,0.8,0.7
2025-02-28T0200,3677A,98.5881,24.4368,德宏傣族景颇族自治州,芒市人民政府综合楼,颗粒物(PM10),54,58,57,36,32,62,,,,12,16,6,9,0.6,0.6
2025-02-28T0200,1901A,104.4239,31.1208,德阳市,东山公园,细颗粒物(PM2.5),85,81,68,63,54,34,,,,34,28,5,3,0.9,0.8
2025-02-28T0200,1902A,104.3826,31.1317,德阳市,西小区,细颗粒物(PM2.5),98,99,74,73,59,4,,,,60,36,5,4,1.0,0.8
2025-02-28T0200,1904A,104.3553,31.1091,德阳市,耐火材料厂,,,,,,,,,,,,,,,,
2025-02-28T0200,3639A,104.4019,31.1244,德阳市,市教育局,细颗粒物(PM2.5),92,77,67,68,56,5,,,,56,40,5,5,0.8,0.8
2025-02-28T0200,1622A,116.3032,37.4674,德州市,儿童乐园,细颗粒物(PM2.5),147,141,138,112,100,96,,,,26,24,8,10,1.1,1
2025-02-28T0200,1624A,116.2991,37.4451,德州市,监理站,细颗粒物(PM2.5),144,144,135,110,98,96,,,,37,34,15,19,0.9,0.9
2025-02-28T0200,3066A,116.2721,37.4379,德州市,九衢泉纯净水厂,细颗粒物(PM2.5),134,136,134,102,89,83,,,,39,40,9,12,0.9,0.9
2025-02-28T0200,3371A,116.3728,37.4403,德州市,开发区人民医院,细颗粒物(PM2.5),138,149,138,105,90,95,,,,26,26,13,15,0.5,0.6
2025-02-28T0200,3372A,116.3572,37.4094,德州市,太阳城中学,细颗粒物(PM2.5),147,158,144,112,98,77,,,,48,43,12,13,0.6,0.6
2025-02-28T0200,3511A,116.5652,37.3319,德州市,陵城艺术中心,细颗粒物(PM2.5),170,166,131,129,94,70,,,,47,37,16,13,,0.9
2025-02-28T0200,2621A,99.7056,27.8317,迪庆藏族自治州,迪庆州站,,24,24,26,14,15,69,,,,10,10,6,6,0.5,0.5
2025-02-28T0200,3180A,99.7136,27.8094,迪庆藏族自治州,质量技术监督局,,21,20,22,9,14,65,,,,14,12,8,8,0.7,0.5
2025-02-28T0200,4257A,104.6092,35.5962,定西市,将台街,颗粒物(PM10),53,55,56,34,33,17,,,,39,23,16,18,0.6,0.9
2025-02-28T0200,4309A,104.6159,35.5701,定西市,正龙路62号,颗粒物(PM10),54,58,55,33,29,41,,,,13,10,7,10,0.8,0.8
2025-02-28T0200,1389A,113.7547,23.0494,东莞市,莞城梨川,细颗粒物(PM2.5),72,73,63,52,47,34,,,,36,36,4,5,0.6,0.6
2025-02-28T0200,1390A,113.7944,23.0128,东莞市,东城石井,颗粒物(PM10),53,56,55,31,35,4,,,,37,32,5,6,0.6,0.7
2025-02-28T0200,1391A,113.7383,22.9658,东莞市,南城西平,颗粒物(PM10),56,61,53,37,35,37,,,,37,38,5,5,0.3,0.4
2025-02-28T0200,3319A,113.7338,23.0381,东莞市,万江金泰,细颗粒物(PM2.5),59,65,57,42,39,39,,,,35,33,7,8,0.6,0.7
2025-02-28T0200,3626A,113.7533,23.0202,东莞市,南城元岭,细颗粒物(PM2.5),60,65,57,43,38,32,,,,36,35,4,5,0.7,0.7
2025-02-28T0200,3627A,113.7875,23.0457,东莞市,东城主山,颗粒物(PM10),56,62,58,35,33,17,,,,55,37,6,7,0.6,0.6
2025-02-28T0200,1666A,118.6614,37.4309,东营市,市环保局,细颗粒物(PM2.5),153,149,136,117,96,36,,,,40,34,7,24,1.4,0.9
2025-02-28T0200,3036A,118.6904,37.4338,东营市,开发区管委会,细颗粒物(PM2.5),168,153,139,127,102,37,,,,53,39,10,18,1.2,1
2025-02-28T0200,3365A,118.5719,37.565,东营市,垦利区民丰路,细颗粒物(PM2.5),153,151,133,117,94,40,,,,42,37,17,18,1.2,1.1
2025-02-28T0200,3498A,118.5055,37.8612,东营市,河口城区,细颗粒物(PM2.5),170,173,146,129,93,63,,,,40,31,8,10,1.4,1.3
2025-02-28T0200,3646A,118.4978,37.4623,东营市,胜利站,细颗粒物(PM2.5),175,180,144,132,93,41,,,,24,21,10,13,1.4,1.2
2025-02-28T0200,3734A,118.35,37.26,东营市,理想之城,细颗粒物(PM2.5),144,161,136,110,93,18,,,,68,41,9,14,1.2,1.2
2025-02-28T0200,1591A,110.0023,39.8129,鄂尔多斯市,综合楼,颗粒物(PM10),52,53,70,14,23,71,,,,28,32,10,14,0.7,0.8
2025-02-28T0200,1592A,109.9486,39.8261,鄂尔多斯市,巴音孟克林场办事处,,46,46,65,17,20,81,,,,18,33,6,11,0.4,0.6
2025-02-28T0200,1593A,109.7736,39.5986,鄂尔多斯市,康泽苑,,48,48,62,19,25,60,,,,13,21,5,7,0.4,0.5
2025-02-28T0200,1594A,109.8119,39.5989,鄂尔多斯市,华泰汽车城,,48,48,69,17,26,23,,,,29,25,4,6,0.4,0.5
2025-02-28T0200,1595A,109.9734,39.7884,鄂尔多斯市,奥林花园,颗粒物(PM10),57,63,72,19,21,51,,,,39,38,13,14,0.5,0.6
2025-02-28T0200,2436A,114.8938,30.3994,鄂州市,市政府,细颗粒物(PM2.5),87,74,67,64,57,47,,,,18,20,5,5,1.5,1.3
2025-02-28T0200,2437A,114.8989,30.3714,鄂州市,赵家坝,颗粒物(PM10),79,108,72,57,56,42,,,,13,16,2,4,0.9,0.9
2025-02-28T0200,3654A,114.8094,30.4089,鄂州市,精准医疗中心,细颗粒物(PM2.5),92,86,75,68,59,21,,,,38,31,18,11,2.2,1.7
2025-02-28T0200,2454A,109.4978,30.2981,恩施土家族苗族自治州,湖北民院,细颗粒物(PM2.5),79,60,46,58,44,30,,,,14,26,5,5,0.8,0.8
2025-02-28T0200,2455A,109.4707,30.2798,恩施土家族苗族自治州,州电力总公司,细颗粒物(PM2.5),80,76,52,59,45,9,,,,32,20,6,6,0.7,0.3
2025-02-28T0200,3549A,109.5061,30.3772,恩施土家族苗族自治州,龙凤新区,细颗粒物(PM2.5),70,59,44,51,36,27,,,,13,15,6,6,0.8,0.8
2025-02-28T0200,2499A,108.3411,21.6158,防城港市,沙万,颗粒物(PM10),65,79,40,43,30,9,,,,51,37,20,12,1.4,1.3
2025-02-28T0200,2500A,108.3514,21.7731,防城港市,防城档案局,细颗粒物(PM2.5),57,53,27,40,24,18,,,,27,23,8,5,1.3,1.2
2025-02-28T0200,2501A,108.3506,21.6414,防城港市,大海花园,细颗粒物(PM2.5),74,69,31,54,37,10,,,,54,31,13,8,1.5,1.2
2025-02-28T0200,1371A,113.1294,23.0067,佛山市,湾梁,颗粒物(PM10),53,56,76,28,34,42,,,,44,55,7,7,0.6,0.9
2025-02-28T0200,1372A,113.1083,23.0478,佛山市,华材职中,,48,44,68,33,40,61,,,,33,50,8,9,0.6,0.8
2025-02-28T0200,1373A,113.144,23.0453,佛山市,南海气象局,细颗粒物(PM2.5),63,58,60,45,39,7,,,,51,37,10,9,0.6,0.7
2025-02-28T0200,1374A,113.2881,22.8094,佛山市,顺德苏岗,颗粒物(PM10),55,60,64,31,37,8,,,,53,45,5,6,0.7,0.7
2025-02-28T0200,1376A,112.8383,22.8678,佛山市,高明孔堂,,42,42,61,27,42,54,,,,13,34,4,5,0.6,0.8
2025-02-28T0200,1377A,112.8836,23.1588,佛山市,三水监测站,,49,48,94,34,56,9,,,,79,77,3,3,0.6,0.8
2025-02-28T0200,1378A,112.867,23.185,佛山市,三水云东海,,43,39,74,30,59,8,,,,51,65,1,2,0.7,0.8
2025-02-28T0200,3625A,113.2544,22.7642,佛山市,容桂街道办,,49,48,67,34,43,43,,,,35,53,7,8,0.7,0.8
2025-02-28T0200,1280A,119.3903,26.0543,福州市,鼓山,,,,17,,20,,,59,,,16,,2,,0.5
2025-02-28T0200,1282A,119.2681,26.0504,福州市,师大,,40,34,47,28,45,4,,,,33,35,3,4,0.5,0.5
2025-02-28T0200,1283A,119.2984,26.1028,福州市,五四北路,,45,,44,31,45,1,,,,41,43,4,4,0.8,0.8
2025-02-28T0200,1284A,119.2648,26.0768,福州市,杨桥西路,,40,40,46,27,43,3,,,,36,37,4,4,0.6,0.6
2025-02-28T0200,1285A,119.317,26.0746,福州市,紫阳,细颗粒物(PM2.5),62,50,60,44,52,2,,,,39,43,3,3,1.4,0.7
2025-02-28T0200,3048A,119.5799,26.0936,福州市,九龙,,35,,38,24,43,3,,,,41,32,4,4,0.7,0.7
2025-02-28T0200,3526A,119.5189,25.9664,福州市,吴航,细颗粒物(PM2.5),59,61,51,42,39,2,,,,51,36,4,4,0.7,0.7
2025-02-28T0200,1755A,123.7977,41.8491,抚顺市,望花区,细颗粒物(PM2.5),129,115,113,98,80,133,,,,15,30,17,16,1.2,1.3
2025-02-28T0200,1756A,123.9161,41.8822,抚顺市,顺城区,细颗粒物(PM2.5),117,117,113,88,71,140,,,,15,37,10,11,0.8,1
2025-02-28T0200,1757A,124.0436,41.8611,抚顺市,东洲区,细颗粒物(PM2.5),113,110,106,85,64,130,,,,13,22,5,7,1.1,1
2025-02-28T0200,1758A,123.9247,41.8642,抚顺市,新抚区,细颗粒物(PM2.5),127,116,123,96,78,134,,,,17,42,9,9,0.8,0.9
2025-02-28T0200,1759A,124.0972,41.8961,抚顺市,大伙房水库,细颗粒物(PM2.5),113,108,97,85,69,136,,,,9,15,8,9,0.9,0.9
2025-02-28T0200,1760A,123.7086,41.8391,抚顺市,沈抚新城,细颗粒物(PM2.5),132,114,111,100,79,129,,,,19,23,9,9,1.5,1.1
2025-02-28T0200,2376A,116.2127,28.0814,抚州市,桐源党溪,,40,40,51,25,33,2,,,,7,8,6,8,0.0,0
2025-02-28T0200,2377A,116.3544,27.9831,抚州市,市站,,26,26,43,13,28,39,,,,12,23,5,10,0.5,0.6
2025-02-28T0200,2378A,116.3565,27.963,抚州市,血防站,,25,25,47,14,29,40,,,,8,22,17,17,1.0,1.2
2025-02-28T0200,2379A,116.3564,28.0007,抚州市,采茶剧团,,21,21,43,14,27,31,,,,6,15,5,7,0.8,0.9
2025-02-28T0200,2380A,116.385,27.9647,抚州市,医学分院,,26,26,42,13,28,32,,,,8,18,5,5,1.1,1.1
2025-02-28T0200,2207A,121.6094,41.998,阜新市,工业园区,细颗粒物(PM2.5),215,,189,165,127,91,,,,23,30,27,26,1.0,1.2
2025-02-28T0200,2208A,121.6697,42.0279,阜新市,长青街,细颗粒物(PM2.5),217,,148,167,110,88,,,,28,37,29,20,0.9,1
2025-02-28T0200,2209A,121.6673,42.0705,阜新市,农业园区,细颗粒物(PM2.5),178,151,151,134,92,94,,,,22,34,25,35,1.1,1.1
2025-02-28T0200,2210A,121.6717,42.0224,阜新市,东苑,细颗粒物(PM2.5),216,,166,166,112,82,,,,28,40,26,28,0.9,1
2025-02-28T0200,2211A,121.6506,42.0498,阜新市,玉龙新城,细颗粒物(PM2.5),195,153,160,146,109,86,,,,28,38,20,23,1.0,1.2
2025-02-28T0200,2301A,115.8277,32.8929,阜阳市,市监测站,细颗粒物(PM2.5),105,92,91,79,73,54,,,,36,33,9,8,0.8,0.7
2025-02-28T0200,2303A,115.8554,32.8605,阜阳市,开发区,细颗粒物(PM2.5),109,118,108,82,72,27,,,,58,33,8,8,0.8,0.7
2025-02-28T0200,2875A,115.784,32.8892,阜阳市,阜阳职业技术学院,细颗粒物(PM2.5),99,89,81,74,61,54,,,,28,22,8,8,0.8,0.7
2025-02-28T0200,3468A,115.7901,32.8613,阜阳市,市规划展馆,细颗粒物(PM2.5),94,81,82,70,61,71,,,,26,22,8,8,0.7,0.7
2025-02-28T0200,3469A,115.836,32.9183,阜阳市,枣园社区,细颗粒物(PM2.5),95,93,91,71,68,39,,,,53,27,8,6,0.7,0.7
2025-02-28T0200,2669A,102.9099,34.9841,甘南藏族自治州,州政府,,34,34,54,18,21,64,,,,16,26,14,17,0.2,0.7
2025-02-28T0200,3380A,102.8914,34.9617,甘南藏族自治州,甘肃民族师范学院,,30,30,44,3,12,83,,,,13,25,2,6,0.3,0.4
2025-02-28T0200,2570A,101.9603,30.0475,甘孜藏族自治州,水桥子,,24,24,24,3,9,29,,,,26,26,3,3,0.3,0.5
2025-02-28T0200,3065A,101.9533,29.9972,甘孜藏族自治州,州环保局,,18,11,17,8,5,57,,,,11,12,4,4,0.6,0.6
2025-02-28T0200,3414A,115.8347,28.932,赣江新区,桑海产业园,细颗粒物(PM2.5),94,92,88,70,69,0,,,,47,34,12,13,1.0,0.9
2025-02-28T0200,2362A,114.9017,25.9149,赣州市,通天岩,,,,31,,8,,,50,,,7,,9,,0.8
2025-02-28T0200,2363A,114.9367,25.8664,赣州市,地委,,32,30,47,22,35,48,,,,10,15,11,12,1.0,1.1
2025-02-28T0200,2364A,114.9461,25.8481,赣州市,气象台,,37,37,48,18,27,67,,,,13,22,13,8,0.4,0.6
2025-02-28T0200,2365A,114.9322,25.8333,赣州市,市图书馆,,32,28,39,22,31,56,,,,12,24,7,4,0.8,0.9
2025-02-28T0200,2366A,114.8905,25.8471,赣州市,华坚鞋城,,40,40,45,26,29,40,,,,13,13,6,6,0.6,0.7
2025-02-28T0200,3109A,115.0093,25.8613,赣州市,赣县区卫计委,,39,30,35,27,27,40,,,,16,21,4,4,0.4,0.5
2025-02-28T0200,2683A,106.2319,36.1417,固原市,马园,颗粒物(PM10),80,109,67,34,24,7,,,,62,28,8,7,0.9,0.5
2025-02-28T0200,2684A,106.2792,36.0022,固原市,监测站,颗粒物(PM10),57,64,60,26,28,49,,,,29,29,9,10,0.9,0.9
2025-02-28T0200,2685A,106.2375,36.0211,固原市,新区,颗粒物(PM10),69,87,66,31,25,24,,,,57,39,9,9,0.8,0.7
2025-02-28T0200,3522A,106.2177,35.9959,固原市,原州区十五小,颗粒物(PM10),51,51,52,22,24,88,,,,15,23,11,11,0.6,0.7
2025-02-28T0200,2543A,106.6308,30.5278,广安市,小平旧居,,,,,,,,,,,,,,,,
2025-02-28T0200,2544A,106.6303,30.4576,广安市,市委,细颗粒物(PM2.5),74,67,63,54,50,68,,,,18,18,6,4,0.6,0.6
2025-02-28T0200,2545A,106.6271,30.4663,广安市,友谊中学,细颗粒物(PM2.5),74,64,63,54,51,54,,,,29,24,5,3,0.9,0.8
2025-02-28T0200,2547A,106.6388,30.4551,广安市,广电花园,细颗粒物(PM2.5),78,59,62,57,54,66,,,,19,24,6,4,0.8,0.8
2025-02-28T0200,2902A,106.6351,30.4865,广安市,北辰小学,细颗粒物(PM2.5),79,63,61,58,51,62,,,,14,18,4,5,0.4,0.3
2025-02-28T0200,2523A,105.8945,32.4535,广元市,黑石坡,细颗粒物(PM2.5),57,61,62,40,42,38,,,,21,24,7,9,0.6,0.7
2025-02-28T0200,2524A,105.821,32.4444,广元市,老城,颗粒物(PM10),59,68,65,41,39,1,,,,48,42,1,2,0.7,0.9
2025-02-28T0200,2526A,105.8628,32.4287,广元市,监测站,细颗粒物(PM2.5),65,61,44,47,36,6,,,,40,31,4,6,0.8,0.8
2025-02-28T0200,3617A,105.8047,32.4166,广元市,经开区,细颗粒物(PM2.5),73,69,66,53,51,4,,,,47,40,4,4,0.9,0.9
2025-02-28T0200,1345A,113.2347,23.1423,广州市,广雅中学,颗粒物(PM10),59,68,64,34,38,3,,,,71,48,3,5,1.1,1.1
2025-02-28T0200,1346A,113.2612,23.105,广州市,市五中,颗粒物(PM10),58,65,64,30,37,9,,,,70,48,4,5,0.9,0.9
2025-02-28T0200,1348A,113.3478,23.0916,广州市,广东商学院,"颗粒物(PM10),细颗粒物(PM2.5)",54,57,59,38,40,4,,,,73,52,4,6,0.8,0.9
2025-02-28T0200,1349A,113.4332,23.1047,广州市,市八十六中,,43,43,61,22,37,8,,,,77,63,3,5,0.1,0.3
2025-02-28T0200,1350A,113.3505,22.9483,广州市,番禺中学,,43,43,61,28,36,53,,,,29,44,4,6,0.7,0.8
2025-02-28T0200,1351A,113.2146,23.3916,广州市,花都师范,"颗粒物(PM10),细颗粒物(PM2.5)",83,116,75,61,47,2,,,,96,65,2,3,1.4,1
2025-02-28T0200,1352A,113.2597,23.1331,广州市,市监测站,,50,50,57,27,31,9,,,,71,50,5,6,0.7,0.9
2025-02-28T0200,1353A,113.5618,23.312,广州市,九龙镇镇龙,细颗粒物(PM2.5),64,72,58,46,40,3,,,,56,43,4,5,0.9,0.7
2025-02-28T0200,1354A,113.2765,23.1544,广州市,麓湖,,,43,54,29,37,2,,,,76,60,5,5,,1.2
2025-02-28T0200,1355A,113.443,23.3035,广州市,帽峰山森林公园,颗粒物(PM10),51,51,45,12,24,36,,,,55,32,6,7,0.7,0.8
2025-02-28T0200,2846A,113.3221,23.1322,广州市,体育西,颗粒物(PM10),52,54,62,32,40,11,,,,60,46,4,6,0.6,0.8
2025-02-28T0200,3298A,113.5717,23.5491,广州市,从化街口,细颗粒物(PM2.5),94,92,78,70,62,6,,,,42,33,6,7,0.9,1
2025-02-28T0200,3299A,113.3472,23.3692,广州市,白云竹料,细颗粒物(PM2.5),92,109,74,68,49,7,,,,68,42,6,7,0.9,0.8
2025-02-28T0200,3300A,113.2981,23.237,广州市,白云嘉禾,颗粒物(PM10),57,64,68,38,41,4,,,,83,54,5,6,0.3,0.5
2025-02-28T0200,3301A,113.4256,23.1716,广州市,黄埔科学城,颗粒物(PM10),59,68,59,39,40,2,,,,63,45,7,8,0.7,0.7
2025-02-28T0200,3302A,113.3942,23.0483,广州市,番禺大学城,颗粒物(PM10),68,86,77,25,34,28,,,,53,48,6,9,0.6,0.6
2025-02-28T0200,3303A,113.4922,22.8168,广州市,南沙黄阁,,43,42,48,30,32,55,,,,26,34,5,5,0.5,0.5
2025-02-28T0200,3304A,113.5342,22.7896,广州市,南沙街,,38,38,50,26,26,55,,,,24,30,5,5,0.6,0.6
2025-02-28T0200,3443A,113.2902,23.5544,广州市,花都梯面,,49,49,53,32,36,2,,,,30,38,5,5,0.7,0.7
2025-02-28T0200,3445A,113.7858,23.7478,广州市,从化良口,,43,40,36,30,32,28,,,,18,16,6,6,0.6,0.6
2025-02-28T0200,3446A,113.8051,23.2614,广州市,增城荔城,细颗粒物(PM2.5),75,74,58,55,44,13,,,,36,26,5,7,0.8,0.7
2025-02-28T0200,2505A,109.568,23.1478,贵港市,德智高中,,,,,,,,,,,,,,,,
2025-02-28T0200,2506A,109.6047,23.0666,贵港市,江南子站,细颗粒物(PM2.5),120,134,75,91,57,1,,,,39,33,9,7,1.0,0.9
2025-02-28T0200,2507A,109.6014,23.0948,贵港市,贵城子站,细颗粒物(PM2.5),103,119,65,77,47,4,,,,38,33,8,7,1.4,1.1
2025-02-28T0200,2508A,109.5669,23.1065,贵港市,荷城子站,细颗粒物(PM2.5),119,102,55,90,45,5,,,,40,30,11,9,1.4,1.1
2025-02-28T0200,3405A,109.5886,23.1172,贵港市,新世纪学校,细颗粒物(PM2.5),130,127,61,99,49,3,,,,46,32,6,4,1.4,0.9
2025-02-28T0200,1439A,106.6899,26.5998,贵阳市,马鞍山,,19,19,20,3,11,51,,,,8,12,5,7,0.4,0.3
2025-02-28T0200,1441A,106.6243,26.6266,贵阳市,鉴湖路,,27,27,32,12,13,51,,,,9,11,9,13,0.5,0.5
2025-02-28T0200,1442A,106.7487,26.6343,贵阳市,燕子冲,,20,17,23,14,18,57,,,,7,13,7,17,0.4,0.6
2025-02-28T0200,1443A,106.6555,26.4365,贵阳市,碧云窝,,27,27,28,14,10,56,,,,5,9,5,10,0.4,0.5
2025-02-28T0200,1445A,106.7109,26.6027,贵阳市,红边门,,28,22,28,19,20,54,,,,2,11,7,11,0.8,0.8
2025-02-28T0200,1446A,106.7164,26.5699,贵阳市,新华路,,28,,26,19,14,54,,,,7,15,9,16,0.4,0.6
2025-02-28T0200,1447A,106.674,26.5424,贵阳市,太慈桥,,17,17,23,7,11,53,,,,8,13,8,11,0.4,0.5
2025-02-28T0200,1552A,106.805,26.3003,贵阳市,桐木岭,,27,27,27,17,17,57,,,,2,2,6,6,1.0,1.1
2025-02-28T0200,4230A,106.6882,26.5695,贵阳市,花果园大街66号,,23,,17,16,17,48,,,,10,16,5,8,0.4,0.4
2025-02-28T0200,4231A,106.6873,26.5169,贵阳市,漓江路57号,,18,17,22,12,13,54,,,,7,11,11,15,0.4,0.5
2025-02-28T0200,1862A,110.4144,25.3167,桂林市,电子科大尧山校区,,,,,,,,,,,,,,,,
2025-02-28T0200,1864A,110.3089,25.2708,桂林市,龙隐路小学,细颗粒物(PM2.5),59,,27,42,27,6,,,,33,27,8,8,1.6,1.1
2025-02-28T0200,1865A,110.2869,25.2178,桂林市,八中,,39,36,29,27,24,2,,,,34,32,7,6,1.0,0.9
2025-02-28T0200,3531A,110.296,25.1253,桂林市,旅游学院,,39,,15,27,18,4,,,,33,28,7,6,1.2,1
2025-02-28T0200,4222A,110.1835,25.2444,桂林市,环湖路276号,,45,36,25,31,26,2,,,,30,30,8,7,1.2,1
2025-02-28T0200,4301A,110.2803,25.2773,桂林市,信义路13号,细颗粒物(PM2.5),60,,26,43,26,3,,,,32,30,5,4,1.5,1.1
2025-02-28T0200,2674A,100.2561,34.4714,果洛藏族自治州,玛沁县大武镇,,30,27,35,21,21,38,,,,7,6,22,26,0.6,0.6
2025-02-28T0200,1129A,126.5422,45.755,哈尔滨市,岭北,细颗粒物(PM2.5),139,177,113,106,58,111,,,,23,27,26,16,0.8,0.8
2025-02-28T0200,1130A,126.561,45.8167,哈尔滨市,松北商大,细颗粒物(PM2.5),133,182,109,101,58,112,,,,23,27,3,5,0.7,0.7
2025-02-28T0200,1131A,126.979,45.5419,哈尔滨市,阿城会宁,细颗粒物(PM2.5),132,191,115,100,67,107,,,,12,19,4,8,0.8,0.9
2025-02-28T0200,1132A,126.599,45.7222,哈尔滨市,南岗学府路,细颗粒物(PM2.5),123,180,125,93,56,108,,,,19,24,10,14,0.7,0.7
2025-02-28T0200,1133A,126.689,45.7733,哈尔滨市,太平宏伟公园,细颗粒物(PM2.5),137,201,132,104,60,113,,,,12,20,14,15,0.7,0.7
2025-02-28T0200,1134A,126.635,45.7667,哈尔滨市,道外承德广场,细颗粒物(PM2.5),138,196,132,105,64,98,,,,21,28,12,15,0.6,0.7
2025-02-28T0200,1135A,126.685,45.7319,哈尔滨市,香坊红旗大街,细颗粒物(PM2.5),143,178,140,109,66,102,,,,26,37,17,23,0.8,0.8
2025-02-28T0200,1136A,126.6411,45.7258,哈尔滨市,动力和平路,细颗粒物(PM2.5),152,172,122,116,69,112,,,,16,24,11,16,0.6,0.7
2025-02-28T0200,1137A,126.593,45.7478,哈尔滨市,道里建国路,细颗粒物(PM2.5),153,182,126,117,70,100,,,,19,26,14,20,0.8,0.9
2025-02-28T0200,1138A,126.615,45.61,哈尔滨市,平房东轻厂,细颗粒物(PM2.5),134,170,121,102,60,107,,,,13,17,29,25,0.5,0.5
2025-02-28T0200,1139A,126.595,45.9855,哈尔滨市,呼兰师专,细颗粒物(PM2.5),135,182,120,103,66,106,,,,20,28,14,20,1.0,0.9
2025-02-28T0200,1140A,126.6206,45.6842,哈尔滨市,省农科院,细颗粒物(PM2.5),128,169,123,97,51,99,,,,18,26,12,15,0.5,0.5
2025-02-28T0200,2688A,93.5128,42.8172,哈密市,地区监测站,颗粒物(PM10),168,285,264,50,44,18,,,,54,34,8,10,0.6,0.5
2025-02-28T0200,2689A,93.4961,42.8328,哈密市,哈密师范学校,颗粒物(PM10),128,206,188,67,60,5,,,,70,41,6,9,1.4,1.3
2025-02-28T0200,2671A,100.9048,36.9639,海北藏族自治州,海晏县西海镇,,40,40,31,21,17,88,,,,10,7,17,13,0.5,0.4
2025-02-28T0200,3867A,102.0738,36.5056,海东市,平安区公安北苑,"颗粒物(PM10),细颗粒物(PM2.5)",52,54,58,36,34,68,,,,3,9,12,21,0.6,0.3
2025-02-28T0200,1409A,110.576,19.9507,海口市,东寨港,,20,16,27,14,21,51,,,,5,6,1,3,0.6,0.7
2025-02-28T0200,1410A,110.3232,20.0574,海口市,海南大学,,33,33,38,18,25,79,,,,7,16,3,3,0.4,0.5
2025-02-28T0200,1411A,110.283,20.0053,海口市,秀英海南医院,,37,37,41,16,21,63,,,,17,18,4,4,0.4,0.5
2025-02-28T0200,1412A,110.338,19.9969,海口市,海南师范大学,,36,36,41,16,21,73,,,,9,14,4,3,0.4,0.5
2025-02-28T0200,1413A,110.33,20.0356,海口市,龙华路环保局宿舍,,28,28,38,16,22,73,,,,4,12,3,4,0.4,0.5
2025-02-28T0200,3539A,110.5111,19.9736,海口市,桂林洋子站,,34,34,27,19,17,52,,,,12,8,3,3,0.4,0.4
2025-02-28T0200,2673A,100.6188,36.2866,海南藏族自治州,共和县恰卜恰镇,,45,45,42,31,25,55,,,,29,26,14,10,0.6,0.6
2025-02-28T0200,2676A,97.3731,37.3753,海西蒙古族藏族自治州,德令哈市,,29,29,32,15,13,64,,,,10,8,16,16,0.6,0.5
2025-02-28T0200,1048A,114.5302,36.6116,邯郸市,东污水处理厂,细颗粒物(PM2.5),163,160,109,124,82,0,,,,94,43,3,5,0.8,0.8
2025-02-28T0200,1049A,114.4918,36.5713,邯郸市,矿院,细颗粒物(PM2.5),163,178,133,124,87,0,,,,92,51,1,4,0.9,0.8
2025-02-28T0200,1050A,114.484,36.6133,邯郸市,丛台公园,细颗粒物(PM2.5),142,148,112,108,85,6,,,,75,35,10,13,0.9,0.8
2025-02-28T0200,3458A,114.7895,36.5593,邯郸市,香泉濮院小区,细颗粒物(PM2.5),150,161,114,115,80,44,,,,42,28,4,5,0.9,0.8
2025-02-28T0200,3579A,114.50634,36.77178,邯郸市,永年区实验高中,细颗粒物(PM2.5),145,199,137,111,78,4,,,,84,50,6,9,1.4,1
2025-02-28T0200,3580A,114.20016,36.44293,邯郸市,峰峰矿区临水派出所,细颗粒物(PM2.5),152,154,128,116,92,80,,,,28,24,15,15,1.4,1.5
2025-02-28T0200,2634A,106.9893,33.1842,汉中市,汉川机床厂子校,,38,33,37,26,31,49,,,,6,10,6,8,0.6,0.7
2025-02-28T0200,2635A,107.0154,33.0706,汉中市,市监测站,细颗粒物(PM2.5),93,85,57,69,43,10,,,,54,29,6,6,1.4,1.1
2025-02-28T0200,2636A,107.0089,33.1138,汉中市,鑫源开发区,细颗粒物(PM2.5),123,96,54,93,44,9,,,,56,31,5,7,1.4,1
2025-02-28T0200,2637A,107.007,33.0323,汉中市,南郑大河坎水厂,细颗粒物(PM2.5),88,86,57,65,44,13,,,,35,24,7,8,1.2,1
2025-02-28T0200,1223A,120.2072,30.2111,杭州市,滨江,,50,39,74,35,57,4,,,,54,45,6,6,0.9,0.9
2025-02-28T0200,1224A,120.0633,30.2747,杭州市,西溪,,31,31,78,20,48,3,,,,16,24,6,6,0.7,0.7
2025-02-28T0200,1226A,120.3461,30.3153,杭州市,下沙,细颗粒物(PM2.5),156,173,103,119,72,1,,,,108,60,8,5,1.0,0.9
2025-02-28T0200,1227A,120.1269,30.2456,杭州市,卧龙桥,,23,22,70,16,53,4,,,,22,32,6,6,0.6,0.7
2025-02-28T0200,1228A,120.1903,30.2692,杭州市,浙江农大,细颗粒物(PM2.5),68,73,80,49,54,2,,,,55,44,10,8,1.5,1.1
2025-02-28T0200,1230A,120.1197,30.3119,杭州市,和睦小学,细颗粒物(PM2.5),54,55,81,38,69,3,,,,56,47,6,6,1.1,0.9
2025-02-28T0200,1231A,120.3019,30.4183,杭州市,临平镇,细颗粒物(PM2.5),123,,84,93,76,3,,,,83,56,6,6,1.2,0.9
2025-02-28T0200,1232A,120.2697,30.1819,杭州市,城厢镇,颗粒物(PM10),55,59,81,35,59,9,,,,66,64,7,7,0.8,0.7
2025-02-28T0200,1233A,120.0883,30.1808,杭州市,云栖,,29,29,69,18,50,5,,,,21,31,7,7,0.8,0.9
2025-02-28T0200,3557A,119.9464,30.0494,杭州市,镇二中,,39,35,52,27,47,2,,,,30,54,5,6,1.1,0.9
2025-02-28T0200,3558A,119.7183,30.2367,杭州市,市府大楼,,33,29,52,23,43,10,,,,29,30,7,8,0.6,0.6
2025-02-28T0200,3656A,120.1556,30.2864,杭州市,消防大队,,47,47,84,32,63,4,,,,53,46,6,7,1.2,0.9
2025-02-28T0200,1270A,117.1959,31.7848,合肥市,明珠广场,细颗粒物(PM2.5),70,61,56,51,43,42,,,,24,24,7,7,0.8,0.8
2025-02-28T0200,1271A,117.3072,31.8764,合肥市,三里街,细颗粒物(PM2.5),64,61,62,46,44,30,,,,31,30,5,5,0.7,0.7
2025-02-28T0200,1272A,117.2588,31.8707,合肥市,琥珀山庄,细颗粒物(PM2.5),69,53,55,50,51,46,,,,22,23,3,3,0.7,0.7
2025-02-28T0200,1273A,117.1604,31.9052,合肥市,董铺水库,细颗粒物(PM2.5),57,61,58,40,37,49,,,,18,14,2,3,0.7,0.5
2025-02-28T0200,1274A,117.25,31.8571,合肥市,长江中路,细颗粒物(PM2.5),77,,58,56,47,49,,,,21,22,7,8,0.7,0.7
2025-02-28T0200,1275A,117.266,31.9436,合肥市,庐阳区,细颗粒物(PM2.5),70,63,63,51,43,53,,,,16,22,5,5,0.7,0.7
2025-02-28T0200,1276A,117.336,31.8586,合肥市,瑶海区,细颗粒物(PM2.5),63,53,61,45,42,42,,,,23,26,6,6,0.8,0.7
2025-02-28T0200,1277A,117.3027,31.7964,合肥市,包河区,细颗粒物(PM2.5),64,51,55,46,43,45,,,,18,14,4,4,0.6,0.7
2025-02-28T0200,1278A,117.2776,31.7385,合肥市,滨湖新区,细颗粒物(PM2.5),70,53,56,51,49,50,,,,14,14,6,6,0.7,0.7
2025-02-28T0200,1279A,117.1318,31.8403,合肥市,高新区,细颗粒物(PM2.5),77,68,60,56,46,44,,,,19,21,3,3,0.7,0.6
2025-02-28T0200,3464A,117.3803,31.9147,合肥市,高教基地,细颗粒物(PM2.5),69,57,56,50,46,49,,,,9,12,7,8,0.6,0.6
2025-02-28T0200,3614A,79.924,37.0877,和田地区,地区环保局,颗粒物(PM10),196,341,335,74,66,45,,,,15,6,11,5,1.0,0.8
2025-02-28T0200,3615A,79.9131,37.113,和田地区,市环保局,颗粒物(PM10),150,250,314,44,56,70,,,,1,7,3,2,0.1,0.4
2025-02-28T0200,2516A,108.2011,24.715,河池市,东仁乐园,细颗粒物(PM2.5),58,,22,41,23,11,,,,20,16,6,6,1.4,1
2025-02-28T0200,2517A,108.0497,24.6947,河池市,市环保站,细颗粒物(PM2.5),54,52,29,38,23,6,,,,19,13,9,9,1.2,0.9
2025-02-28T0200,2518A,108.0983,24.6989,河池市,市疾控中心,细颗粒物(PM2.5),54,,23,38,20,6,,,,20,15,5,5,1.2,0.8
2025-02-28T0200,1696A,114.6778,23.7569,河源市,源西,,46,33,37,32,34,2,,,,45,29,4,5,0.8,0.7
2025-02-28T0200,1697A,114.6944,23.7586,河源市,东埔,细颗粒物(PM2.5),62,54,43,44,37,1,,,,57,33,3,4,0.9,0.8
2025-02-28T0200,1698A,114.6892,23.7233,河源市,老城,,42,30,38,29,36,11,,,,29,22,3,4,0.7,0.8
2025-02-28T0200,1718A,115.4208,35.2464,菏泽市,气象局,细颗粒物(PM2.5),130,124,121,99,92,70,,,,41,28,5,6,0.7,0.8
2025-02-28T0200,3374A,115.5564,35.0891,菏泽市,定陶老年大学,细颗粒物(PM2.5),125,129,111,95,82,62,,,,52,30,5,5,0.6,0.6
2025-02-28T0200,4184A,115.4797,35.24401,菏泽市,永昌路1号,细颗粒物(PM2.5),142,160,127,108,91,41,,,,63,35,8,8,1.1,0.9
2025-02-28T0200,4193A,115.4715,35.2800,菏泽市,长城路999号,细颗粒物(PM2.5),127,132,115,96,81,44,,,,63,37,9,9,0.9,0.8
2025-02-28T0200,2514A,111.5264,24.4172,贺州市,环保小区,细颗粒物(PM2.5),67,81,75,48,57,32,,,,36,32,7,7,1.3,1.3
2025-02-28T0200,2515A,111.5608,24.4078,贺州市,政协大楼,细颗粒物(PM2.5),75,60,68,55,51,60,,,,17,31,8,7,0.9,1.1
2025-02-28T0200,3534A,111.4744,24.4553,贺州市,西湾,细颗粒物(PM2.5),75,68,74,55,70,14,,,,32,33,6,5,1.1,1
2025-02-28T0200,2385A,114.17,35.9019,鹤壁市,市监测站,细颗粒物(PM2.5),130,129,146,99,103,59,,,,41,49,4,9,0.7,1
2025-02-28T0200,2386A,114.2956,35.7511,鹤壁市,市交警支队,细颗粒物(PM2.5),142,149,121,108,86,15,,,,71,34,6,9,0.8,0.8
2025-02-28T0200,2387A,114.2878,35.7306,鹤壁市,迎宾馆,细颗粒物(PM2.5),135,159,138,103,87,45,,,,51,42,7,10,1.1,0.9
2025-02-28T0200,3474A,114.2617,35.6822,鹤壁市,大新区,细颗粒物(PM2.5),153,123,104,117,100,7,,,,91,53,6,7,1.1,0.7
2025-02-28T0200,3596A,114.1572,35.9603,鹤壁市,南山宾馆,细颗粒物(PM2.5),182,158,141,137,106,48,,,,60,34,15,13,0.8,0.9
2025-02-28T0200,2244A,130.2537,47.3416,鹤岗市,哈啤分公司,细颗粒物(PM2.5),54,,46,38,34,78,,,,9,15,16,18,0.4,0.6
2025-02-28T0200,2245A,130.2684,47.3086,鹤岗市,斯达机电,,45,39,45,31,28,82,,,,9,15,14,17,0.4,0.4
2025-02-28T0200,2246A,130.3114,47.3388,鹤岗市,东山纸板厂,,50,47,88,35,48,58,,,,22,29,14,17,0.7,1.5
2025-02-28T0200,2247A,130.1097,47.3382,鹤岗市,五号水库,,,,,,,,,,,,,,,,
2025-02-28T0200,2263A,127.4833,50.2524,黑河市,交通局,颗粒物(PM10),62,74,38,41,22,105,,,,12,12,6,7,0.8,0.6
2025-02-28T0200,2264A,127.5144,50.2341,黑河市,环保局,细颗粒物(PM2.5),62,67,31,44,22,114,,,,11,8,5,5,0.5,0.4
2025-02-28T0200,2265A,127.5291,50.2472,黑河市,大黑河岛,,,,,,,,,,,,,,,,
2025-02-28T0200,1074A,115.6838,37.7541,衡水市,电机北厂,细颗粒物(PM2.5),152,146,131,116,95,69,,,,43,23,8,10,0.7,0.6
2025-02-28T0200,1075A,115.6303,37.7316,衡水市,市监测站,细颗粒物(PM2.5),165,139,117,125,92,80,,,,30,29,10,11,0.8,0.6
2025-02-28T0200,3188A,115.6683,37.7217,衡水市,市城管局,细颗粒物(PM2.5),152,148,113,116,92,69,,,,36,28,8,11,0.8,0.8
2025-02-28T0200,3459A,115.5989,37.5491,衡水市,地表水厂,细颗粒物(PM2.5),163,142,121,124,95,27,,,,78,51,12,12,0.8,0.7
2025-02-28T0200,2456A,112.5003,26.9167,衡阳市,原169医院,,37,37,44,25,32,24,,,,37,19,24,16,0.8,0.8
2025-02-28T0200,2457A,112.6194,26.9258,衡阳市,衡阳化工总厂,,33,27,54,23,44,44,,,,15,15,4,6,0.7,0.9
2025-02-28T0200,2458A,112.6211,26.8956,衡阳市,珠晖区环保局,,33,27,43,23,47,34,,,,28,15,6,8,0.9,1
2025-02-28T0200,2459A,112.6197,26.8733,衡阳市,市委党校,,34,34,48,17,35,54,,,,13,15,8,9,0.7,0.8
2025-02-28T0200,2460A,112.6006,26.8919,衡阳市,市监测站,,29,26,51,20,37,45,,,,19,15,7,9,0.7,0.9
2025-02-28T0200,2461A,112.5664,26.9056,衡阳市,真空机电公司,颗粒物(PM10),62,73,64,30,51,43,,,,22,22,12,10,1.2,1.1
2025-02-28T0200,3399A,112.6703,26.882,衡阳市,师范学院,,40,40,45,24,34,47,,,,17,14,7,9,0.8,0.9
2025-02-28T0200,2608A,103.3772,23.3993,红河哈尼族彝族自治州,污水处理厂,,43,34,35,30,31,84,,,,5,8,6,8,0.3,0.4
2025-02-28T0200,2609A,103.3861,23.35,红河哈尼族彝族自治州,监测站,,46,45,39,32,22,76,,,,10,10,17,9,0.3,0.3
2025-02-28T0200,3038A,103.3758,23.368,红河哈尼族彝族自治州,州图书馆,,35,27,28,24,26,69,,,,7,9,7,7,0.3,0.3
2025-02-28T0200,1090A,111.6507,40.7517,呼和浩特市,呼市一监,细颗粒物(PM2.5),170,171,135,129,76,2,,,,76,44,11,14,1.5,1.2
2025-02-28T0200,1091A,111.6572,40.8033,呼和浩特市,小召,细颗粒物(PM2.5),107,141,134,80,60,11,,,,85,60,10,13,0.9,1
2025-02-28T0200,1094A,111.7516,40.8369,呼和浩特市,如意水处理厂,颗粒物(PM10),82,114,119,54,53,4,,,,88,62,15,16,1.0,0.9
2025-02-28T0200,1095A,111.7276,40.8062,呼和浩特市,二十九中,颗粒物(PM10),93,136,126,68,61,6,,,,82,53,8,12,1.0,1.1
2025-02-28T0200,1096A,111.5512,40.7866,呼和浩特市,工大金川校区,颗粒物(PM10),59,67,116,27,54,10,,,,76,56,7,15,0.5,0.7
2025-02-28T0200,1097A,111.717,40.7612,呼和浩特市,化肥厂生活区,细颗粒物(PM2.5),132,161,142,100,70,10,,,,81,55,11,13,1.2,1
2025-02-28T0200,3698A,111.5968,40.8178,呼和浩特市,红旗小学,颗粒物(PM10),62,73,128,34,54,8,,,,81,64,8,12,0.8,1
2025-02-28T0200,3699A,111.6518,40.8389,呼和浩特市,海东办,细颗粒物(PM2.5),102,122,128,76,63,4,,,,89,67,9,12,1.4,1.1
2025-02-28T0200,2192A,119.7594,49.2261,呼伦贝尔市,区环保局,,31,31,22,18,15,93,,,,4,8,6,6,0.3,0.4
2025-02-28T0200,3061A,119.7512,49.1577,呼伦贝尔市,国华电力东,,31,25,25,13,10,97,,,,3,4,4,5,0.4,0.4
2025-02-28T0200,1250A,120.0751,30.8669,湖州市,城西水厂,细颗粒物(PM2.5),90,108,132,67,108,6,,,,78,62,8,7,0.9,0.8
2025-02-28T0200,2873A,120.0875,30.8955,湖州市,仁皇山新区,细颗粒物(PM2.5),90,90,125,67,104,3,,,,60,53,4,5,1.1,1.1
2025-02-28T0200,2907A,120.1844,30.8596,湖州市,吴兴区站,细颗粒物(PM2.5),127,136,117,96,99,8,,,,73,50,7,7,1.1,1
2025-02-28T0200,3562A,120.4148,30.8538,湖州市,南浔区站,细颗粒物(PM2.5),129,169,117,98,93,25,,,,55,40,8,8,0.8,0.7
2025-02-28T0200,1607A,120.9092,40.7136,葫芦岛市,龙港区,细颗粒物(PM2.5),178,152,130,134,119,104,,,,24,41,12,15,1.1,1.1
2025-02-28T0200,1608A,120.8392,40.7514,葫芦岛市,化工街,细颗粒物(PM2.5),211,185,152,161,107,56,,,,51,53,18,21,0.8,1.1
2025-02-28T0200,1609A,120.8341,40.7073,葫芦岛市,新区,细颗粒物(PM2.5),201,,115,151,118,85,,,,37,51,8,17,1.4,0.9
2025-02-28T0200,1610A,120.8695,40.7677,葫芦岛市,东城区,,,,103,,110,,,48,,,52,,22,,1.3
2025-02-28T0200,2482A,109.5981,27.5721,怀化市,林科所,,18,6,15,3,9,55,,,,16,16,2,4,0.7,0.6
2025-02-28T0200,2483A,109.9453,27.5444,怀化市,河西地税局,,18,9,21,6,16,57,,,,11,10,7,7,0.8,0.8
2025-02-28T0200,2484A,109.9781,27.5342,怀化市,市四医院,,28,28,33,10,17,47,,,,18,15,4,4,0.9,0.9
2025-02-28T0200,2485A,109.9972,27.5578,怀化市,监测楼,,21,21,26,10,16,32,,,,18,16,8,7,1.0,1
2025-02-28T0200,2486A,110.0394,27.583,怀化市,市委党校,,27,27,24,11,15,40,,,,19,15,7,7,1.1,1.1
2025-02-28T0200,1210A,119.036,33.5981,淮安市,钵池山,细颗粒物(PM2.5),178,141,128,134,119,59,,,,51,36,10,10,1.0,1
2025-02-28T0200,1211A,119.007,33.575,淮安市,北京南路,细颗粒物(PM2.5),165,,123,125,117,52,,,,43,45,8,10,1.3,1.3
2025-02-28T0200,1212A,118.989,33.6067,淮安市,市监测站,细颗粒物(PM2.5),153,119,122,117,113,83,,,,30,39,9,11,1.0,1
2025-02-28T0200,1213A,119.135,33.5039,淮安市,楚州区监测站,细颗粒物(PM2.5),175,154,140,132,120,37,,,,61,45,8,9,0.9,1.1
2025-02-28T0200,3426A,118.8755,33.2894,淮安市,新华书店,细颗粒物(PM2.5),188,144,134,141,118,28,,,,61,40,10,10,1.2,1
2025-02-28T0200,4206A,119.0288,33.6319,淮安市,承德北路606号,细颗粒物(PM2.5),172,168,151,130,115,42,,,,75,53,8,10,1.1,1.2
2025-02-28T0200,2282A,116.8004,33.975,淮北市,监测站,细颗粒物(PM2.5),90,93,115,67,79,59,,,,29,34,7,9,1.4,1.1
2025-02-28T0200,2283A,116.8091,33.9007,淮北市,烈山区政府,细颗粒物(PM2.5),102,118,99,76,75,65,,,,46,31,8,8,0.9,0.9
2025-02-28T0200,3330A,116.8873,33.9836,淮北市,杜集区检察院,颗粒物(PM10),112,174,106,71,78,73,,,,45,30,7,7,0.9,0.9
2025-02-28T0200,4017A,116.7923,33.9535,淮北市,市博物馆,细颗粒物(PM2.5),100,102,107,75,78,67,,,,35,28,10,11,1.1,1.1
2025-02-28T0200,2277A,116.8305,32.7727,淮南市,潘集区政府,细颗粒物(PM2.5),124,117,106,94,82,33,,,,46,29,5,6,0.9,0.8
2025-02-28T0200,2279A,116.8569,32.5951,淮南市,谢家集区政府,细颗粒物(PM2.5),89,75,85,66,66,40,,,,32,26,8,13,0.5,0.5
2025-02-28T0200,2280A,116.8281,32.633,淮南市,八公山区政府,细颗粒物(PM2.5),93,88,86,69,64,47,,,,21,16,5,5,0.7,0.7
2025-02-28T0200,2281A,116.6325,32.6201,淮南市,焦岗湖风景区管理处,颗粒物(PM10),65,80,74,45,50,14,,,,37,19,12,11,0.4,0.3
2025-02-28T0200,2894A,117.0566,32.6531,淮南市,经济技术开发区消防队,细颗粒物(PM2.5),95,94,85,71,67,37,,,,38,27,6,8,0.8,0.7
2025-02-28T0200,3329A,117.0108,32.5893,淮南市,山南新区,细颗粒物(PM2.5),87,74,79,64,66,56,,,,23,22,8,8,0.6,0.8
2025-02-28T0200,4209A,117.0031,32.6445,淮南市,国庆中路369号,细颗粒物(PM2.5),78,76,82,57,63,54,,,,22,28,8,8,0.5,0.5
2025-02-28T0200,2446A,114.9028,30.4742,黄冈市,职工中心,细颗粒物(PM2.5),85,74,67,63,56,40,,,,26,28,16,12,0.8,0.9
2025-02-28T0200,2929A,114.8858,30.4519,黄冈市,红卫路,细颗粒物(PM2.5),95,77,72,71,60,48,,,,4,17,11,9,1.0,0.9
2025-02-28T0200,3398A,114.9136,30.4445,黄冈市,市林业局,细颗粒物(PM2.5),89,84,70,66,54,42,,,,18,19,22,13,0.7,0.7
2025-02-28T0200,2672A,102.0199,35.5102,黄南藏族自治州,同仁县隆务镇,颗粒物(PM10),55,60,57,30,26,60,,,,5,9,14,16,0.7,0.4
2025-02-28T0200,2295A,118.2903,29.6963,黄山市,延安路89号,,35,30,38,24,27,4,,,,9,12,4,4,0.6,0.5
2025-02-28T0200,2297A,118.1371,30.2756,黄山市,黄山区政府5号楼,,25,20,28,17,21,8,,,,8,7,7,7,0.3,0.3
2025-02-28T0200,4210A,118.3354,29.7203,黄山市,滨江东路7-2号,,36,36,46,18,28,2,,,,11,13,4,4,0.6,0.6
2025-02-28T0200,2423A,115.0601,30.2313,黄石市,沈家营,细颗粒物(PM2.5),79,98,91,58,53,24,,,,39,40,18,16,1.4,1
2025-02-28T0200,2426A,114.8988,30.2019,黄石市,铁山,细颗粒物(PM2.5),80,,58,59,54,38,,,,17,20,18,20,0.7,0.8
2025-02-28T0200,2427A,115.0307,30.2092,黄石市,团城山,细颗粒物(PM2.5),84,84,73,62,56,23,,,,42,32,17,12,1.4,1
2025-02-28T0200,3149A,115.0235,30.1578,黄石市,笔架山北路,细颗粒物(PM2.5),89,106,71,66,55,37,,,,34,34,12,11,0.9,1
2025-02-28T0200,4185A,115.0780,30.21118,黄石市,磁湖东路29号,细颗粒物(PM2.5),89,104,83,66,59,25,,,,45,39,14,10,1.6,1.1
2025-02-28T0200,1392A,114.4183,23.0528,惠州市,河南岸金山湖子站,细颗粒物(PM2.5),55,54,42,39,31,39,,,,31,24,8,9,0.6,0.6
2025-02-28T0200,1393A,114.4053,23.0822,惠州市,下埔横江三路子站,"颗粒物(PM10),细颗粒物(PM2.5)",55,60,50,39,33,50,,,,30,27,7,8,0.6,0.6
2025-02-28T0200,1394A,114.4103,23.1142,惠州市,江北云山西路子站,颗粒物(PM10),55,59,47,36,32,51,,,,35,30,8,9,0.6,0.7
2025-02-28T0200,1395A,114.4645,22.7833,惠州市,惠阳区承修路船湖子站,,40,40,39,24,24,88,,,,8,17,9,9,0.5,0.7
2025-02-28T0200,1396A,114.5317,22.7422,惠州市,大亚湾管委会子站,,36,36,37,20,19,93,,,,10,16,7,8,0.5,0.6
2025-02-28T0200,3314A,114.4338,22.8134,惠州市,惠阳秋长,,33,24,43,23,25,97,,,,11,21,9,10,0.6,0.7
2025-02-28T0200,3452A,114.6517,22.775,惠州市,大亚湾霞涌,,32,32,36,20,23,74,,,,11,15,9,8,0.6,0.5
2025-02-28T0200,2240A,130.9762,45.3001,鸡西市,环保局,颗粒物(PM10),65,79,67,45,36,121,,,,12,28,10,10,0.6,0.8
2025-02-28T0200,2243A,130.9429,45.3039,鸡西市,第一中学,细颗粒物(PM2.5),75,90,53,55,25,125,,,,10,11,9,9,0.5,0.4
2025-02-28T0200,3707A,131.0207,45.3073,鸡西市,欧美日汽修厂,细颗粒物(PM2.5),83,84,88,61,46,111,,,,14,34,14,18,1.0,1.2
2025-02-28T0200,3709A,130.9967,45.3106,鸡西市,市政设施管理处,细颗粒物(PM2.5),83,102,78,61,37,90,,,,19,40,13,11,0.8,0.8
2025-02-28T0200,2367A,114.9754,27.0803,吉安市,红声器材厂,细颗粒物(PM2.5),59,63,59,42,40,13,,,,38,26,12,12,0.8,0.8
2025-02-28T0200,2368A,114.9658,27.0999,吉安市,市森林工业局,细颗粒物(PM2.5),54,55,55,38,41,27,,,,42,35,6,6,0.6,0.6
2025-02-28T0200,2369A,114.99,27.1312,吉安市,市环境监测站,细颗粒物(PM2.5),57,56,59,40,44,13,,,,52,31,12,13,0.5,0.6
2025-02-28T0200,2370A,115.0093,27.0968,吉安市,青原区法院,细颗粒物(PM2.5),64,64,62,46,45,4,,,,58,34,16,16,1.0,6.4
2025-02-28T0200,1772A,126.54,43.8622,吉林市,哈达湾,细颗粒物(PM2.5),122,123,84,92,53,137,,,,13,15,10,12,0.8,0.8
2025-02-28T0200,1773A,126.5844,43.8358,吉林市,东局子,细颗粒物(PM2.5),117,138,99,88,49,138,,,,11,16,8,8,0.8,0.8
2025-02-28T0200,1774A,126.5052,43.8245,吉林市,电力学院,细颗粒物(PM2.5),114,137,94,86,47,135,,,,16,16,6,7,0.6,0.7
2025-02-28T0200,1775A,126.6133,43.8972,吉林市,江北,细颗粒物(PM2.5),139,148,106,106,56,126,,,,24,23,50,35,0.6,0.8
2025-02-28T0200,1776A,126.555,43.8306,吉林市,江南公园,细颗粒物(PM2.5),132,145,108,100,65,132,,,,13,14,9,10,0.6,0.6
2025-02-28T0200,1778A,126.7061,43.7133,吉林市,丰满,细颗粒物(PM2.5),128,129,76,97,48,158,,,,14,11,7,10,0.9,0.7
2025-02-28T0200,2868A,126.4739,43.953,吉林市,九站,细颗粒物(PM2.5),123,128,103,93,53,136,,,,18,20,9,10,1.0,0.9
2025-02-28T0200,1299A,116.9862,36.6114,济南市,科干所,细颗粒物(PM2.5),83,92,95,61,64,134,,,,19,22,8,8,0.6,0.6
2025-02-28T0200,1300A,116.9376,36.665,济南市,农科所,细颗粒物(PM2.5),98,120,113,73,68,82,,,,40,27,10,10,0.9,0.9
2025-02-28T0200,1301A,117.1265,36.6734,济南市,开发区,细颗粒物(PM2.5),110,105,94,83,72,93,,,,33,23,7,9,0.7,0.7
2025-02-28T0200,1303A,117.0624,36.6868,济南市,省种子仓库,细颗粒物(PM2.5),128,178,115,97,74,16,,,,103,39,6,8,1.2,0.8
2025-02-28T0200,1304A,116.9489,36.6447,济南市,机床二厂,细颗粒物(PM2.5),123,125,113,93,82,80,,,,44,24,15,15,1.3,1
2025-02-28T0200,1305A,117.0495,36.663,济南市,市监测站,细颗粒物(PM2.5),98,100,94,73,69,89,,,,42,33,9,10,0.7,0.6
2025-02-28T0200,1306A,116.7675,36.5484,济南市,长清党校,细颗粒物(PM2.5),110,117,112,83,78,130,,,,26,27,8,9,0.8,0.8
2025-02-28T0200,1616A,117.6795,36.229,济南市,技术学院,细颗粒物(PM2.5),185,173,129,139,98,31,,,,108,56,18,15,1.6,1.3
2025-02-28T0200,1961A,117.532,36.6868,济南市,东山小学,细颗粒物(PM2.5),119,122,111,90,74,111,,,,31,26,7,10,0.8,0.9
2025-02-28T0200,3059A,117.7161,36.2049,济南市,泰兴公司,细颗粒物(PM2.5),178,185,149,134,101,7,,,,102,69,12,13,1.2,1
2025-02-28T0200,3064A,117.6867,36.2171,济南市,莱芜战役纪念馆,细颗粒物(PM2.5),178,202,145,134,98,13,,,,120,55,10,10,1.4,1.2
2025-02-28T0200,3494A,117.1673,36.9782,济南市,济阳区政府,细颗粒物(PM2.5),125,134,117,95,79,72,,,,46,24,14,14,0.7,0.6
2025-02-28T0200,3495A,117.1171,36.63,济南市,锦屏中学,细颗粒物(PM2.5),89,83,86,66,67,137,,,,18,22,13,14,0.6,0.6
2025-02-28T0200,3682A,116.9814,36.6819,济南市,济南四建,细颗粒物(PM2.5),110,100,87,83,71,45,,,,93,28,10,10,0.7,0.5
2025-02-28T0200,1653A,116.6251,35.4302,济宁市,火炬城,细颗粒物(PM2.5),203,160,111,153,81,83,,,,34,27,16,12,1.3,1.1
2025-02-28T0200,1655A,116.5491,35.4042,济宁市,电化厂,细颗粒物(PM2.5),168,167,144,127,105,81,,,,26,21,14,12,1.3,1.1
2025-02-28T0200,3500A,116.5814,35.3707,济宁市,北湖一中,细颗粒物(PM2.5),163,148,105,124,94,64,,,,43,24,9,8,1.1,0.9
2025-02-28T0200,3501A,116.8249,35.5593,济宁市,服务中心,细颗粒物(PM2.5),147,163,143,112,96,52,,,,49,34,8,9,1.2,1.1
2025-02-28T0200,3678A,116.5907,35.4054,济宁市,市第七中学,细颗粒物(PM2.5),185,167,107,139,96,67,,,,78,56,8,6,1.0,0.9
2025-02-28T0200,2255A,130.2751,46.8028,佳木斯市,佳纺,细颗粒物(PM2.5),103,90,73,77,50,11,,,,69,43,3,7,0.9,0.7
2025-02-28T0200,2256A,130.3995,46.8307,佳木斯市,发电厂,,43,34,46,30,35,88,,,,16,24,5,5,0.5,0.5
2025-02-28T0200,2257A,130.3258,46.7975,佳木斯市,环保局,细颗粒物(PM2.5),55,52,73,39,46,24,,,,49,36,9,11,0.7,0.7
2025-02-28T0200,2258A,130.3648,46.8032,佳木斯市,十一中,,45,37,60,31,44,45,,,,35,37,7,7,0.5,0.5
2025-02-28T0200,2259A,130.3794,46.7588,佳木斯市,四丰,颗粒物(PM10),53,56,45,34,37,63,,,,19,36,1,1,0.6,0.8
2025-02-28T0200,1252A,120.7436,30.778,嘉兴市,清河小学,细颗粒物(PM2.5),83,84,85,61,62,2,,,,65,44,5,6,0.5,0.6
2025-02-28T0200,1253A,120.726,30.7478,嘉兴市,嘉兴学院,细颗粒物(PM2.5),99,105,98,74,71,2,,,,60,35,7,7,0.8,0.7
2025-02-28T0200,2872A,120.7846,30.7525,嘉兴市,南湖区残联,细颗粒物(PM2.5),95,90,96,71,73,6,,,,60,37,8,8,0.8,0.7
2025-02-28T0200,3407A,120.6916,30.7739,嘉兴市,秀洲住建,细颗粒物(PM2.5),90,119,110,67,72,2,,,,60,42,6,6,1.0,0.9
2025-02-28T0200,1945A,98.2908,39.7711,嘉峪关市,气象局,颗粒物(PM10),53,56,74,19,25,33,,,,53,23,1,8,0.2,0.2
2025-02-28T0200,2884A,98.2672,39.7978,嘉峪关市,酒钢宾馆,颗粒物(PM10),54,58,78,19,23,55,,,,22,22,3,10,0.5,0.6
2025-02-28T0200,3248A,98.2643,39.7724,嘉峪关市,雄关区,颗粒物(PM10),62,74,63,20,25,40,,,,45,31,10,13,0.4,0.5
2025-02-28T0200,1383A,113.1064,22.6058,江门市,北街,,32,30,60,22,46,58,,,,13,40,2,3,0.4,0.7
2025-02-28T0200,1384A,113.0731,22.5835,江门市,西区,,36,36,63,24,37,66,,,,22,44,5,7,0.5,0.8
2025-02-28T0200,1385A,113.0219,22.5311,江门市,圭峰西,,36,30,58,25,44,50,,,,16,37,4,4,0.6,0.8
2025-02-28T0200,1386A,113.0828,22.5947,江门市,东湖,,49,49,66,20,42,62,,,,14,34,6,7,0.5,0.7
2025-02-28T0200,3311A,113.1075,22.5647,江门市,江海富民,细颗粒物(PM2.5),63,50,84,45,56,72,,,,16,36,7,7,0.4,0.7
2025-02-28T0200,3449A,113.05,22.4667,江门市,新会银湖,细颗粒物(PM2.5),57,,57,40,55,3,,,,63,36,6,7,0.7,0.9
2025-02-28T0200,1830A,113.1992,35.2590,焦作市,影视城,细颗粒物(PM2.5),102,127,107,76,59,94,,,,13,16,15,16,0.9,1
2025-02-28T0200,3169A,113.2725,35.2067,焦作市,太极体育中心,细颗粒物(PM2.5),127,133,131,96,87,38,,,,51,30,8,12,1.2,1
2025-02-28T0200,3335A,113.3137,35.2641,焦作市,马村街道办,细颗粒物(PM2.5),128,116,121,97,88,71,,,,28,31,10,13,0.9,0.9
2025-02-28T0200,3336A,113.2465,35.2373,焦作市,焦作技师学院,细颗粒物(PM2.5),107,110,116,80,77,70,,,,28,26,9,11,1.1,1
2025-02-28T0200,3477A,113.1656,35.2539,焦作市,中站许衡医院,细颗粒物(PM2.5),98,108,101,73,73,109,,,,19,32,10,12,1.0,1
2025-02-28T0200,3981A,113.2449,35.1803,焦作市,原李万街道办,细颗粒物(PM2.5),125,134,123,95,80,15,,,,72,32,15,15,1.0,0.8
2025-02-28T0200,4264A,113.2340,35.2190,焦作市,新安路1731号,细颗粒物(PM2.5),115,110,120,87,85,66,,,,31,30,7,10,0.8,0.7
2025-02-28T0200,1708A,116.3701,23.5345,揭阳市,新兴,细颗粒物(PM2.5),134,,76,102,65,68,,,,36,37,10,10,1.2,1.1
2025-02-28T0200,1709A,116.3264,23.5443,揭阳市,西马,细颗粒物(PM2.5),122,110,78,92,60,74,,,,26,28,16,13,1.0,0.9
2025-02-28T0200,1710A,116.3611,23.5626,揭阳市,东兴,细颗粒物(PM2.5),133,130,89,101,62,68,,,,28,33,8,11,1.5,1.3
2025-02-28T0200,1711A,116.4151,23.5294,揭阳市,渔湖,细颗粒物(PM2.5),72,85,77,52,37,85,,,,16,26,7,11,1.1,1.2
2025-02-28T0200,3320A,116.403,23.5699,揭阳市,曲溪,细颗粒物(PM2.5),80,86,70,59,44,78,,,,21,30,2,6,1.0,0.9
2025-02-28T0200,1944A,102.1692,38.5167,金昌市,天庆家园,颗粒物(PM10),51,51,52,28,23,50,,,,28,18,11,7,1.9,1.1
2025-02-28T0200,4022A,102.1647,38.5371,金昌市,金川区人防中心,颗粒物(PM10),57,63,63,36,24,54,,,,16,9,10,7,0.9,0.6
2025-02-28T0200,4239A,102.1930,38.5319,金昌市,长春路96号,细颗粒物(PM2.5),67,69,51,48,26,44,,,,33,16,16,9,1.2,0.8
2025-02-28T0200,1262A,119.647,29.077,金华市,十五中,细颗粒物(PM2.5),72,79,77,52,57,4,,,,41,47,5,6,1.2,1.2
2025-02-28T0200,1263A,119.686,29.1029,金华市,监测站,细颗粒物(PM2.5),68,78,72,49,51,1,,,,55,52,5,5,1.0,0.8
2025-02-28T0200,3659A,119.656,29.1131,金华市,气象局,"颗粒物(PM10),细颗粒物(PM2.5)",74,98,80,54,66,0,,,,49,49,6,5,1.1,1.1
2025-02-28T0200,1767A,121.1115,41.0879,锦州市,南山,细颗粒物(PM2.5),233,,146,183,137,65,,,,48,56,17,27,1.2,1.4
2025-02-28T0200,1768A,121.0533,40.8434,锦州市,开发区,细颗粒物(PM2.5),208,173,146,158,121,82,,,,49,49,52,27,1.8,1.2
2025-02-28T0200,1769A,121.1836,41.1119,锦州市,百股街道,细颗粒物(PM2.5),195,162,127,146,107,64,,,,56,59,11,18,1.5,1.5
2025-02-28T0200,1770A,121.1178,41.1222,锦州市,天安街道,细颗粒物(PM2.5),251,,148,201,140,57,,,,48,55,22,26,1.4,1.6
2025-02-28T0200,1771A,121.1303,41.1386,锦州市,北湖公园,细颗粒物(PM2.5),230,,135,180,120,57,,,,47,57,16,25,1.3,1.3
2025-02-28T0200,2160A,112.85,35.5051,晋城市,自来水公司,细颗粒物(PM2.5),98,99,96,73,70,31,,,,56,39,9,11,0.9,1.2
2025-02-28T0200,2161A,112.8318,35.4936,晋城市,白云商贸,细颗粒物(PM2.5),104,124,106,78,62,40,,,,46,36,6,9,0.8,1
2025-02-28T0200,2162A,112.8508,35.4887,晋城市,市环保局,,,120,106,70,63,20,,,,67,45,11,13,,
2025-02-28T0200,2163A,112.8676,35.4897,晋城市,技术学院,细颗粒物(PM2.5),79,91,104,58,57,21,,,,78,47,8,10,0.9,1.1
2025-02-28T0200,2165A,112.8453,35.546,晋城市,白马寺,,,,,,,,,,,,,,,,
2025-02-28T0200,3620A,112.8271,35.4828,晋城市,泽州一中,,,,107,,69,,,80,,,33,,11,,1.1
2025-02-28T0200,2173A,112.7249,37.7067,晋中市,南都小区,细颗粒物(PM2.5),95,131,115,71,54,6,,,,81,46,13,16,1.0,0.9
2025-02-28T0200,2174A,112.6991,37.6982,晋中市,榆次区政府,颗粒物(PM10),87,124,114,54,50,34,,,,51,45,12,16,0.7,0.8
2025-02-28T0200,2865A,112.7195,37.6828,晋中市,榆次三中,颗粒物(PM10),82,114,119,56,57,44,,,,40,46,8,14,0.6,0.7
2025-02-28T0200,4200A,112.7478,37.6954,晋中市,迎宾街26号,颗粒物(PM10),91,132,118,53,57,42,,,,37,40,8,14,0.4,0.7
2025-02-28T0200,2439A,112.2014,31.0481,荆门市,竹园小学,细颗粒物(PM2.5),113,112,82,85,63,52,,,,31,26,5,5,0.7,0.6
2025-02-28T0200,2440A,112.1969,30.9891,荆门市,掇刀,细颗粒物(PM2.5),97,80,82,72,62,82,,,,21,27,10,15,0.7,0.8
2025-02-28T0200,2441A,112.2213,31.0386,荆门市,石化一小,细颗粒物(PM2.5),133,120,88,101,65,67,,,,24,31,12,12,0.8,0.8
2025-02-28T0200,3012A,112.1849,31.0362,荆门市,西山林语,细颗粒物(PM2.5),78,72,71,57,56,46,,,,47,19,4,4,0.7,0.4
2025-02-28T0200,3547A,112.1632,31.0138,荆门市,龙泉中学南校,颗粒物(PM10),102,154,81,58,60,52,,,,34,22,9,9,1.0,0.8
2025-02-28T0200,1844A,112.2494,30.3197,荆州市,市图书馆,细颗粒物(PM2.5),63,50,51,45,49,43,,,,31,26,7,5,1.0,1
2025-02-28T0200,1845A,112.2008,30.3544,荆州市,市委党校,细颗粒物(PM2.5),64,65,53,46,50,37,,,,32,27,10,7,1.0,1
2025-02-28T0200,3194A,112.2747,30.3122,荆州市,管委会,细颗粒物(PM2.5),62,53,55,44,49,43,,,,28,25,10,9,0.8,0.9
2025-02-28T0200,4268A,112.1722,30.3366,荆州市,学苑路85号,细颗粒物(PM2.5),83,,40,61,47,39,,,,22,18,10,8,0.9,0.9
2025-02-28T0200,2342A,117.3102,29.3867,景德镇市,王港中学,,,,,,,,,,,,,,,,
2025-02-28T0200,2343A,117.2117,29.2933,景德镇市,老干部活动中心,,25,20,38,17,33,20,,,,9,19,4,5,0.5,0.6
2025-02-28T0200,2344A,117.1894,29.2789,景德镇市,兽医站,,32,32,49,21,28,23,,,,15,26,5,5,0.4,0.7
2025-02-28T0200,2345A,117.1547,29.2617,景德镇市,台达陶瓷,,32,25,60,22,39,21,,,,8,37,3,61,0.5,0.8
2025-02-28T0200,2346A,117.2461,29.2956,景德镇市,陶研所,,35,28,35,24,33,7,,,,23,22,3,4,0.5,0.5
2025-02-28T0200,1803A,115.9872,29.6815,九江市,十里,细颗粒物(PM2.5),72,78,73,52,47,8,,,,39,31,7,8,0.9,0.9
2025-02-28T0200,1804A,115.9584,29.7046,九江市,茅山头,细颗粒物(PM2.5),68,67,71,49,48,8,,,,56,39,9,8,0.6,0.5
2025-02-28T0200,1805A,115.9877,29.7295,九江市,西园,细颗粒物(PM2.5),69,57,59,50,50,10,,,,60,37,9,12,1.0,0.7
2025-02-28T0200,1808A,115.9114,29.6038,九江市,综合工业园,细颗粒物(PM2.5),53,,53,37,50,14,,,,49,36,6,7,0.9,1
2025-02-28T0200,1809A,116.0721,29.7535,九江市,石化总厂,细颗粒物(PM2.5),63,51,66,45,57,39,,,,14,20,13,14,0.7,0.9
2025-02-28T0200,1810A,115.9773,29.5698,九江市,庐山气象台,,25,18,13,17,11,80,,,,5,6,47,18,0.5,0.8
2025-02-28T0200,3190A,116.0254,29.6994,九江市,外国语学校,细颗粒物(PM2.5),70,66,69,51,52,13,,,,59,35,6,8,1.1,1
2025-02-28T0200,4253A,116.0102,29.6594,九江市,莲花大道8号,细颗粒物(PM2.5),65,52,58,47,59,24,,,,9,17,5,7,0.7,0.7
2025-02-28T0200,2658A,98.5061,39.7443,酒泉市,仓门街子站,,,,90,,30,54,,,,,15,9,17,0.5,0.7
2025-02-28T0200,4240A,98.4958,39.7339,酒泉市,玉门东路5号,颗粒物(PM10),65,80,90,44,37,49,,,,11,19,7,15,0.4,0.6
2025-02-28T0200,2698A,76.0072,39.4467,喀什地区,巡警大队,颗粒物(PM10),83,115,247,29,65,40,,,,14,41,5,9,0.6,1.2
2025-02-28T0200,2699A,75.9755,39.4694,喀什地区,吾办,颗粒物(PM10),83,115,253,43,82,55,,,,13,45,6,9,0.5,1.2
2025-02-28T0200,4027A,75.9483,39.4689,喀什地区,老干局,颗粒物(PM10),84,118,261,37,71,38,,,,13,40,8,10,0.6,1.3
2025-02-28T0200,1824A,114.3389,34.7781,开封市,肿瘤医院,细颗粒物(PM2.5),165,137,107,125,95,37,,,,56,24,7,6,1.0,0.9
2025-02-28T0200,1826A,114.2885,34.7965,开封市,世纪星幼儿园,细颗粒物(PM2.5),160,125,101,122,97,74,,,,32,29,5,7,0.8,0.8
2025-02-28T0200,3147A,114.3438,34.8106,开封市,龙亭公园,细颗粒物(PM2.5),160,136,105,122,102,45,,,,53,31,3,4,1.2,1
2025-02-28T0200,3210A,114.3644,34.7964,开封市,汴京公园,,,,124,,100,,,74,,,29,,6,,0.8
2025-02-28T0200,3473A,114.2485,34.8306,开封市,技师学院,细颗粒物(PM2.5),138,113,96,105,89,82,,,,24,23,10,8,1.0,0.9
2025-02-28T0200,3592A,114.4644,34.7556,开封市,祥符区生态环境局,细颗粒物(PM2.5),178,161,127,134,103,25,,,,76,46,4,5,1.0,0.9
2025-02-28T0200,1951A,84.895,45.6094,克拉玛依市,长征新村,细颗粒物(PM2.5),125,123,108,95,76,94,,,,36,28,7,7,0.8,0.8
2025-02-28T0200,1952A,84.8988,45.5893,克拉玛依市,南林小区,细颗粒物(PM2.5),93,105,100,69,69,112,,,,16,17,3,1,1.0,1
2025-02-28T0200,1954A,84.905,44.3396,克拉玛依市,独山子区,,45,,27,31,18,59,,,,16,11,6,6,0.4,0.5
2025-02-28T0200,1955A,85.6979,46.098,克拉玛依市,乌尔禾区商贸楼,细颗粒物(PM2.5),80,84,85,59,65,53,,,,41,25,2,4,0.9,1
2025-02-28T0200,3612A,85.1045,45.6899,克拉玛依市,白碱滩区新站,颗粒物(PM10),87,123,113,59,66,103,,,,21,23,8,7,1.1,0.8
2025-02-28T0200,2697A,76.1454,39.7142,克孜勒苏柯尔克孜自治州,市人民政府,颗粒物(PM10),133,216,232,72,68,86,,,,7,16,5,6,0.6,0.7
2025-02-28T0200,3665A,76.1658,39.7157,克孜勒苏柯尔克孜自治州,克州文化中心,颗粒物(PM10),120,190,227,70,62,79,,,,11,22,5,10,0.5,0.9
2025-02-28T0200,1450A,102.8204,24.8886,昆明市,呈贡新区,细颗粒物(PM2.5),70,,34,51,21,77,,,,17,16,8,7,0.6,0.4
2025-02-28T0200,1451A,102.6251,24.9608,昆明市,西山森林公园,,,,,,,,,,,,,,,,
2025-02-28T0200,1452A,102.7252,25.0902,昆明市,龙泉镇,,50,50,30,28,15,3,,,,79,33,7,7,0.6,0.5
2025-02-28T0200,1453A,102.7266,25.0375,昆明市,东风东路,,48,48,36,33,21,60,,,,33,31,11,8,0.5,0.5
2025-02-28T0200,1454A,102.6742,25.0669,昆明市,金鼎山,细颗粒物(PM2.5),69,55,37,50,20,44,,,,40,28,10,10,0.5,0.4
2025-02-28T0200,1455A,102.6644,25.0401,昆明市,碧鸡广场,,50,50,34,29,19,45,,,,41,32,9,9,0.4,0.4
2025-02-28T0200,3179A,102.7494,25.0119,昆明市,官渡区博物馆,,49,49,40,30,22,72,,,,20,27,6,6,0.7,0.7
2025-02-28T0200,3375A,102.8017,24.8336,昆明市,青年创业园,,47,47,30,28,18,82,,,,12,17,8,7,0.6,0.4
2025-02-28T0200,3550A,102.7997,24.9786,昆明市,昆明学院,,50,50,38,31,20,88,,,,15,21,7,6,0.5,0.5
2025-02-28T0200,3551A,102.5967,24.6736,昆明市,晋宁区生态环境分局,细颗粒物(PM2.5),58,,21,41,18,80,,,,12,11,6,3,1.0,0.8
2025-02-28T0200,3552A,102.6678,24.9856,昆明市,云天化总部,,42,42,28,29,17,22,,,,73,25,10,11,0.9,0.8
2025-02-28T0200,1456A,91.1319,29.6514,拉萨市,八廓街,,40,40,23,21,15,67,,,,18,12,9,8,0.7,0.4
2025-02-28T0200,1457A,91.1221,29.6747,拉萨市,市环保局,颗粒物(PM10),51,52,34,33,15,56,,,,21,19,9,9,0.9,0.7
2025-02-28T0200,1458A,91.0874,29.6475,拉萨市,区监测站,,38,37,19,26,12,62,,,,27,16,10,6,0.4,0.2
2025-02-28T0200,1459A,91.1774,29.6541,拉萨市,西藏大学,,27,19,19,7,8,84,,,,6,10,5,5,0.5,0.5
2025-02-28T0200,1460A,90.9798,29.6588,拉萨市,区辐射站,,38,38,26,20,14,54,,,,29,22,8,8,0.7,0.4
2025-02-28T0200,1461A,91.0834,29.6292,拉萨市,拉萨火车站,,29,28,16,20,10,72,,,,17,18,10,6,0.5,0.5
2025-02-28T0200,2520A,109.2203,23.7256,来宾市,来宾技工学校,细颗粒物(PM2.5),92,80,45,68,49,4,,,,29,27,19,8,1.5,1.4
2025-02-28T0200,3535A,109.1781,23.7297,来宾市,兴宾区政府,细颗粒物(PM2.5),67,72,44,48,35,10,,,,33,28,16,7,1.5,1.4
2025-02-28T0200,4002A,109.2416,23.7461,来宾市,中南小学,细颗粒物(PM2.5),75,75,42,55,36,7,,,,26,23,17,9,1.7,1.5
2025-02-28T0200,1477A,104.1373,35.9454,兰州市,榆中兰大校区,,,,,,,,,,,,,,,,
2025-02-28T0200,1479A,103.831,36.0464,兰州市,铁路设计院,颗粒物(PM10),68,86,85,47,58,6,,,,91,82,15,16,1.4,1.4
2025-02-28T0200,3241A,103.7439,36.0842,兰州市,百合公园,细颗粒物(PM2.5),72,90,85,52,47,9,,,,66,58,11,18,1.5,1.2
2025-02-28T0200,3242A,103.9611,35.998,兰州市,和平,颗粒物(PM10),51,51,70,24,37,47,,,,41,42,8,15,0.3,0.6
2025-02-28T0200,4236A,103.6293,36.0938,兰州市,庄浪东路808号,颗粒物(PM10),61,72,78,36,46,28,,,,55,57,9,17,0.8,1.1
2025-02-28T0200,4237A,103.7251,36.1043,兰州市,安宁西路88号,颗粒物(PM10),72,94,98,45,49,7,,,,72,61,15,28,0.7,0.9
2025-02-28T0200,4238A,103.8470,36.0676,兰州市,北滨河东路1号,细颗粒物(PM2.5),68,68,68,49,41,6,,,,85,68,10,15,0.8,1.1
2025-02-28T0200,3245A,103.6633,36.533,兰州新区,新区管委会,颗粒物(PM10),57,63,65,36,44,34,,,,23,19,9,20,0.5,0.6
2025-02-28T0200,3246A,103.6975,36.4789,兰州新区,舟曲中学,颗粒物(PM10),77,104,85,47,40,22,,,,57,30,19,15,0.6,0.5
2025-02-28T0200,1067A,116.6708,39.5111,廊坊市,药材公司,细颗粒物(PM2.5),200,205,168,150,119,56,,,,51,65,9,14,1.1,1.1
2025-02-28T0200,1068A,116.7214,39.5589,廊坊市,开发区,细颗粒物(PM2.5),198,198,167,148,116,45,,,,59,70,20,25,1.2,1
2025-02-28T0200,1070A,116.7244,39.5269,廊坊市,北华航天学院,细颗粒物(PM2.5),204,215,166,154,112,11,,,,98,78,8,14,1.4,1.1
2025-02-28T0200,2919A,116.7022,39.5453,廊坊市,河北工业大学,细颗粒物(PM2.5),193,191,158,145,119,26,,,,81,66,10,16,1.1,1
2025-02-28T0200,2535A,103.7723,29.5462,乐山市,花湖湾,细颗粒物(PM2.5),135,113,68,103,71,43,,,,26,22,6,7,0.8,0.7
2025-02-28T0200,2536A,103.7627,29.5844,乐山市,牛耳桥,细颗粒物(PM2.5),129,120,82,98,68,29,,,,32,27,6,7,0.8,0.7
2025-02-28T0200,2537A,103.7508,29.6006,乐山市,市第三水厂,细颗粒物(PM2.5),107,99,78,80,57,25,,,,32,21,3,4,0.7,0.6
2025-02-28T0200,2538A,103.7571,29.5664,乐山市,市监测站,颗粒物(PM10),70,90,69,50,52,38,,,,23,19,6,6,0.8,0.7
2025-02-28T0200,3361A,103.7311,29.5628,乐山市,理工大学,细颗粒物(PM2.5),110,112,78,83,65,34,,,,23,21,6,8,0.7,0.7
2025-02-28T0200,2598A,100.2143,26.8576,丽江市,西南郊,,33,9,15,9,6,103,,,,2,2,4,4,0.6,0.4
2025-02-28T0200,2599A,100.2497,26.8802,丽江市,丽江古城,,27,27,19,11,10,81,,,,9,10,8,8,0.5,0.5
2025-02-28T0200,2600A,100.2203,26.8906,丽江市,市中心,,30,,13,9,7,95,,,,5,8,5,6,0.5,0.5
2025-02-28T0200,1267A,119.914,28.4514,丽水市,监测站大楼,,26,26,38,16,30,5,,,,29,24,4,4,0.8,0.7
2025-02-28T0200,1268A,119.93,28.4586,丽水市,莲都小学,,18,18,36,7,25,10,,,,27,29,3,5,0.5,0.6
2025-02-28T0200,1269A,119.879,28.4231,丽水市,余庄前,,11,11,36,6,26,3,,,,12,15,4,4,0.5,0.5
2025-02-28T0200,1173A,119.176,34.5885,连云港市,市环境监测站,细颗粒物(PM2.5),201,171,148,151,122,60,,,,38,30,10,11,0.8,0.8
2025-02-28T0200,3000A,119.3581,34.6972,连云港市,德源药业,细颗粒物(PM2.5),170,173,151,129,119,14,,,,81,50,9,10,0.9,0.9
2025-02-28T0200,3007A,119.178,34.844,连云港市,新城一中,细颗粒物(PM2.5),143,136,142,109,122,20,,,,73,52,8,9,0.7,0.9
2025-02-28T0200,3008A,119.3608,34.7519,连云港市,胡沟管理处,细颗粒物(PM2.5),134,127,127,102,107,58,,,,36,47,7,10,0.8,0.9
2025-02-28T0200,3009A,119.1478,34.5911,连云港市,矿山设计院,细颗粒物(PM2.5),192,178,159,144,121,36,,,,54,31,8,8,0.9,0.8
2025-02-28T0200,3434A,119.2413,34.6539,连云港市,工贸学校,细颗粒物(PM2.5),213,185,162,163,137,2,,,,90,34,8,11,1.2,1.1
2025-02-28T0200,3664A,119.4172,34.7341,连云港市,连云街道,细颗粒物(PM2.5),163,163,158,124,118,0,,,,98,48,9,10,1.0,1.2
2025-02-28T0200,2571A,102.3431,27.8099,凉山彝族自治州,青龙寺,,25,18,24,3,6,78,,,,4,8,4,5,0.4,0.6
2025-02-28T0200,2572A,102.2721,27.8415,凉山彝族自治州,邛海宾馆,,30,28,30,17,14,94,,,,10,13,16,10,0.9,0.7
2025-02-28T0200,2573A,102.2625,27.898,凉山彝族自治州,西昌市政府,,25,22,26,11,12,78,,,,8,12,10,9,0.8,0.8
2025-02-28T0200,2574A,102.2685,27.8851,凉山彝族自治州,凉山州政府,,27,26,29,13,13,84,,,,9,16,15,13,0.6,0.6
2025-02-28T0200,2575A,102.237,27.8914,凉山彝族自治州,长安,,,,,,,,,,,,,,,,
2025-02-28T0200,2212A,123.2,41.1953,辽阳市,宏伟区,细颗粒物(PM2.5),125,,83,95,74,137,,,,10,12,10,11,0.9,0.9
2025-02-28T0200,2213A,123.1683,41.2495,辽阳市,新华园,细颗粒物(PM2.5),124,103,87,94,68,123,,,,18,22,9,11,0.8,0.8
2025-02-28T0200,2214A,123.2354,41.2639,辽阳市,滨河路,细颗粒物(PM2.5),128,,72,97,71,123,,,,16,18,7,14,0.9,0.8
2025-02-28T0200,2215A,123.149,41.2991,辽阳市,铁西工业园,细颗粒物(PM2.5),129,116,103,98,70,132,,,,20,21,10,12,0.7,0.9
2025-02-28T0200,2227A,125.1358,42.8845,辽源市,环保局,细颗粒物(PM2.5),72,69,62,52,37,150,,,,14,32,8,9,0.9,1
2025-02-28T0200,3239A,125.0764,42.9078,辽源市,银鹰制药,细颗粒物(PM2.5),83,78,91,61,43,158,,,,12,20,7,9,0.9,0.9
2025-02-28T0200,1625A,115.9848,36.4372,聊城市,区政府,细颗粒物(PM2.5),128,135,124,97,88,91,,,,23,20,16,16,1.1,1
2025-02-28T0200,2878A,116.0072,36.4343,聊城市,聊大东校,细颗粒物(PM2.5),152,163,139,116,95,75,,,,38,26,11,12,1.4,1.2
2025-02-28T0200,3200A,115.9819,36.4978,聊城市,监控中心,细颗粒物(PM2.5),149,145,133,114,95,87,,,,28,23,15,15,1.0,1
2025-02-28T0200,3513A,116.0445,36.4361,聊城市,九州社区,细颗粒物(PM2.5),127,128,122,96,88,88,,,,28,23,16,18,1.0,1
2025-02-28T0200,4018A,116.0567,36.4608,聊城市,星美广场,细颗粒物(PM2.5),118,142,133,89,87,94,,,,29,27,17,14,1.4,1.2
2025-02-28T0200,2632A,94.3681,29.6376,林芝市,林芝监测站,,29,13,15,7,7,92,,,,2,3,6,6,0.3,0.5
2025-02-28T0200,2633A,94.3616,29.6616,林芝市,林芝人民医院,,28,13,17,7,8,89,,,,2,3,6,6,0.6,0.7
2025-02-28T0200,2603A,100.0781,23.8982,临沧市,市环保局,,50,42,39,35,27,62,,,,14,14,10,10,0.4,0.4
2025-02-28T0200,2604A,100.0894,23.8822,临沧市,市气象局,,49,39,37,34,29,63,,,,13,15,11,10,0.4,0.4
2025-02-28T0200,1733A,111.5531,36.0783,临汾市,临钢医院,细颗粒物(PM2.5),85,110,103,63,52,60,,,,19,26,8,11,1.2,1.1
2025-02-28T0200,1734A,111.5028,36.0714,临汾市,技工学校,细颗粒物(PM2.5),130,146,101,99,63,30,,,,47,32,12,12,1.1,0.9
2025-02-28T0200,1736A,111.5018,36.0855,临汾市,市委,细颗粒物(PM2.5),102,145,107,76,56,32,,,,47,28,12,11,0.9,0.8
2025-02-28T0200,3018A,111.505,36.1014,临汾市,唐尧大酒店,细颗粒物(PM2.5),100,138,105,75,56,29,,,,54,36,11,11,0.9,0.8
2025-02-28T0200,4244A,111.4879,36.0530,临汾市,启星学校,细颗粒物(PM2.5),129,138,92,98,59,37,,,,39,34,9,8,1.1,0.8
2025-02-28T0200,4271A,103.2464,35.6123,临夏回族自治州,滨河东路1号,颗粒物(PM10),71,91,72,31,22,9,,,,31,28,4,8,1.7,1.1
2025-02-28T0200,4310A,103.2093,35.5995,临夏回族自治州,新华街21号,,,106,77,37,29,27,,,,,29,9,10,1.6,1.3
2025-02-28T0200,1618A,118.3429,35.0532,临沂市,沂河小区,细颗粒物(PM2.5),238,217,167,188,145,56,,,,40,30,13,18,1.2,1
2025-02-28T0200,1619A,118.295,35.0583,临沂市,鲁南制药厂,细颗粒物(PM2.5),233,224,171,183,134,70,,,,52,50,15,20,1.4,1
2025-02-28T0200,1620A,118.2794,34.9976,临沂市,新光毛纺厂,细颗粒物(PM2.5),226,207,157,176,133,67,,,,49,43,10,18,1.3,1
2025-02-28T0200,1621A,118.3956,35.0888,临沂市,河东保险公司,细颗粒物(PM2.5),219,215,171,169,133,12,,,,111,57,7,10,1.4,1.1
2025-02-28T0200,3370A,118.3564,35.0215,临沂市,十里堡居委,细颗粒物(PM2.5),228,207,156,178,126,60,,,,32,25,12,17,1.4,1
2025-02-28T0200,3496A,118.3604,35.1084,临沂市,南坊新区,细颗粒物(PM2.5),228,210,160,178,135,41,,,,67,44,7,11,1.1,0.9
2025-02-28T0200,3860A,118.3920,35.0300,临沂市,皇山花园小区,细颗粒物(PM2.5),215,224,160,165,123,31,,,,74,42,8,12,1.4,1.2
2025-02-28T0200,1870A,109.4856,24.3895,柳州市,柳东小学,,31,31,23,20,19,10,,,,23,21,10,11,0.8,0.7
2025-02-28T0200,1871A,109.4157,24.3277,柳州市,环保监测站,颗粒物(PM10),53,55,42,31,32,2,,,,36,31,9,10,1.2,1.2
2025-02-28T0200,1872A,109.389,24.341,柳州市,河西水厂,颗粒物(PM10),54,57,46,31,30,3,,,,37,32,3,4,1.9,1.3
2025-02-28T0200,1873A,109.4311,24.2921,柳州市,市四中,颗粒物(PM10),65,80,45,33,28,5,,,,38,31,8,9,1.5,1.3
2025-02-28T0200,1874A,109.4006,24.3631,柳州市,市九中,,48,48,35,24,27,3,,,,29,26,6,7,1.3,1.1
2025-02-28T0200,1875A,109.4958,24.3134,柳州市,古亭山,,47,47,32,26,21,4,,,,33,28,26,13,1.0,0.9
2025-02-28T0200,3402A,109.5422,24.3996,柳州市,市二中,,40,38,27,28,22,3,,,,24,24,9,10,0.8,0.7
2025-02-28T0200,2307A,116.5079,31.737,六安市,监测大楼,细颗粒物(PM2.5),89,,51,66,49,47,,,,20,21,5,5,0.8,0.8
2025-02-28T0200,2308A,116.4738,31.7643,六安市,皖西学院,细颗粒物(PM2.5),93,82,59,69,46,32,,,,29,22,4,4,0.8,0.8
2025-02-28T0200,2309A,116.4996,31.7905,六安市,朝阳厂,细颗粒物(PM2.5),107,,52,80,46,21,,,,32,26,3,4,0.8,0.8
2025-02-28T0200,2310A,116.5567,31.7886,六安市,开发区,细颗粒物(PM2.5),80,66,68,59,47,35,,,,21,20,3,4,0.8,0.7
2025-02-28T0200,2576A,104.8,26.5892,六盘水市,窑上,颗粒物(PM10),52,53,44,21,26,45,,,,21,15,8,6,0.9,0.8
2025-02-28T0200,2577A,104.83,26.5917,六盘水市,黄土坡,颗粒物(PM10),68,85,62,44,31,13,,,,52,34,27,17,1.7,1.3
2025-02-28T0200,2578A,104.89,26.5939,六盘水市,水钢,颗粒物(PM10),65,80,69,36,36,43,,,,45,23,58,18,1.9,1.3
2025-02-28T0200,2579A,104.8475,26.5894,六盘水市,民中,细颗粒物(PM2.5),73,78,56,53,35,16,,,,43,32,21,15,1.6,1.1
2025-02-28T0200,2580A,104.9544,26.5506,六盘水市,双水,,41,41,39,26,20,42,,,,16,15,12,11,0.5,0.5
2025-02-28T0200,2335A,117.0189,25.1181,龙岩市,龙岩师专,,,,,,,,,,,,,,,,
2025-02-28T0200,2336A,117.0217,25.1033,龙岩市,龙岩市监测站,,49,49,35,30,28,2,,,,32,26,4,6,1.0,0.9
2025-02-28T0200,2337A,117.0258,25.0661,龙岩市,闽西职业技术学院,,40,40,37,22,26,12,,,,25,23,10,6,0.6,0.7
2025-02-28T0200,2338A,117.0196,25.0306,龙岩市,龙岩学院,,23,18,26,16,23,28,,,,8,10,4,4,0.5,0.5
2025-02-28T0200,2665A,105.0822,33.3261,陇南市,汉王镇固水子,,,,,,,,,,,,,,,,
2025-02-28T0200,2885A,104.9339,33.3826,陇南市,滨江中学,颗粒物(PM10),54,57,57,34,31,15,,,,34,28,17,12,2.0,1.7
2025-02-28T0200,3247A,104.955,33.371,陇南市,市总工会,,49,49,39,29,18,37,,,,22,17,9,8,0.6,0.7
2025-02-28T0200,2487A,111.9589,27.8901,娄底市,电视发射台,,25,22,46,17,38,19,,,,11,16,6,9,0.9,1.1
2025-02-28T0200,2488A,111.9975,27.725,娄底市,市监测站,,28,19,45,19,35,63,,,,40,37,7,11,0.5,0.7
2025-02-28T0200,2489A,112.0194,27.7314,娄底市,市委党校,,26,23,47,18,35,67,,,,13,20,4,4,0.4,0.6
2025-02-28T0200,2490A,111.9561,27.7569,娄底市,涟钢,,46,46,58,22,41,28,,,,21,28,25,33,0.8,1.6
2025-02-28T0200,2491A,111.9892,27.7044,娄底市,市政府,,22,20,36,6,28,69,,,,8,15,8,10,0.8,1
2025-02-28T0200,1893A,105.4324,28.9634,泸州市,九狮山,,,,,,,,,,,,,,,,
2025-02-28T0200,1894A,105.4427,28.9063,泸州市,小市上码头,细颗粒物(PM2.5),72,90,115,52,68,69,,,,19,23,6,7,0.4,0.5
2025-02-28T0200,1895A,105.4241,28.8573,泸州市,兰田宪桥,细颗粒物(PM2.5),78,89,112,57,73,67,,,,14,24,6,7,0.6,0.7
2025-02-28T0200,1896A,105.4379,28.8833,泸州市,市环监站,细颗粒物(PM2.5),72,84,112,52,70,71,,,,18,32,6,7,0.3,0.4
2025-02-28T0200,4272A,105.3689,28.7783,泸州市,纳溪中医医院,细颗粒物(PM2.5),104,,92,78,81,64,,,,12,29,6,6,0.7,0.7
2025-02-28T0200,2183A,111.1406,37.5211,吕梁市,环保局,颗粒物(PM10),80,109,110,45,40,4,,,,72,49,4,6,0.5,0.6
2025-02-28T0200,2185A,111.1297,37.5136,吕梁市,自来水公司,颗粒物(PM10),76,102,95,54,41,25,,,,36,33,11,9,0.5,0.5
2025-02-28T0200,2867A,111.1283,37.51,吕梁市,马茂庄小学,颗粒物(PM10),76,102,103,43,39,3,,,,79,47,5,10,0.4,0.5
2025-02-28T0200,1812A,112.3931,34.6516,洛阳市,市委党校,细颗粒物(PM2.5),156,154,112,119,74,1,,,,78,59,8,8,1.1,1
2025-02-28T0200,1815A,112.494,34.6886,洛阳市,河南林校,细颗粒物(PM2.5),163,134,108,124,92,4,,,,88,56,5,7,1.0,0.9
2025-02-28T0200,1816A,112.3844,34.623,洛阳市,开发区管委会,细颗粒物(PM2.5),156,160,116,119,85,25,,,,62,37,8,10,0.9,0.8
2025-02-28T0200,1817A,112.4267,34.6258,洛阳市,市委新办公区,细颗粒物(PM2.5),163,185,121,124,83,8,,,,78,51,5,8,0.9,0.8
2025-02-28T0200,3340A,112.6005,34.6326,洛阳市,伊滨,细颗粒物(PM2.5),180,194,146,136,102,2,,,,79,53,6,8,1.0,0.8
2025-02-28T0200,3341A,112.4951,34.6332,洛阳市,中移产业园,细颗粒物(PM2.5),186,179,136,140,106,4,,,,90,54,7,8,1.3,1
2025-02-28T0200,3593A,112.5736,34.8993,洛阳市,吉利监测站,细颗粒物(PM2.5),123,115,109,93,82,55,,,,34,37,5,7,0.8,0.7
2025-02-28T0200,3635A,112.3677,34.662,洛阳市,河科大西苑校区,细颗粒物(PM2.5),152,158,114,116,82,8,,,,69,51,16,12,1.3,1.2
2025-02-28T0200,3636A,112.4388,34.6781,洛阳市,英才小学,细颗粒物(PM2.5),140,157,120,107,77,0,,,,85,58,9,8,0.9,0.8
2025-02-28T0200,4214A,112.4600,34.6949,洛阳市,春都路1号院,细颗粒物(PM2.5),134,152,127,102,74,6,,,,95,56,9,10,1.0,0.9
2025-02-28T0200,2399A,114.051,33.5699,漯河市,三五一五工厂,细颗粒物(PM2.5),158,125,117,120,109,31,,,,46,30,5,6,0.8,0.7
2025-02-28T0200,2400A,114.0055,33.5698,漯河市,漯河大学,细颗粒物(PM2.5),132,125,115,100,94,38,,,,43,32,6,6,0.8,0.7
2025-02-28T0200,2401A,114.0138,33.5828,漯河市,市水利局,细颗粒物(PM2.5),132,112,111,100,94,49,,,,35,31,5,4,0.7,0.7
2025-02-28T0200,2402A,114.0261,33.5698,漯河市,市广电局,细颗粒物(PM2.5),142,120,110,108,96,45,,,,38,34,7,6,0.8,0.8
2025-02-28T0200,3478A,113.9749,33.5664,漯河市,市图书馆,细颗粒物(PM2.5),132,118,116,100,98,49,,,,37,32,7,6,1.0,0.8
2025-02-28T0200,4250A,114.0892,33.5882,漯河市,韶山路11号,细颗粒物(PM2.5),133,130,132,101,104,55,,,,34,43,5,6,0.9,0.8
2025-02-28T0200,1798A,118.5092,31.6837,马鞍山市,湖东路四小,细颗粒物(PM2.5),62,66,84,44,59,36,,,,30,28,9,10,0.9,0.9
2025-02-28T0200,1799A,118.5024,31.6449,马鞍山市,开发区,细颗粒物(PM2.5),83,78,87,61,68,20,,,,44,36,2,6,0.8,0.9
2025-02-28T0200,1802A,118.6245,31.7241,马鞍山市,濮塘,细颗粒物(PM2.5),78,68,79,57,68,52,,,,21,21,7,8,1.0,1
2025-02-28T0200,3633A,118.4918,31.6809,马鞍山市,雨山,细颗粒物(PM2.5),60,58,83,43,64,39,,,,28,29,6,7,0.7,0.8
2025-02-28T0200,4191A,118.5274,31.72227,马鞍山市,慈湖高新区,细颗粒物(PM2.5),104,88,83,78,68,36,,,,38,30,13,10,0.8,0.8
2025-02-28T0200,1686A,111.0286,21.4688,茂名市,电白南海,,39,39,58,22,34,84,,,,7,13,3,3,1.0,1.1
2025-02-28T0200,1687A,110.9294,21.6533,茂名市,茂石化七小,,30,29,48,17,30,95,,,,6,10,1,3,0.7,0.8
2025-02-28T0200,1688A,110.9107,21.6687,茂名市,健康路,,34,34,44,19,31,98,,,,6,11,2,4,0.8,0.9
2025-02-28T0200,1689A,110.8592,21.6828,茂名市,高岭,,41,41,60,22,28,90,,,,8,15,4,7,0.6,0.7
2025-02-28T0200,3450A,111.01,21.5165,茂名市,电白水东,,34,34,50,17,27,87,,,,5,9,4,5,0.6,0.7
2025-02-28T0200,2539A,104.0308,30.0478,眉山市,黑龙滩水库,细颗粒物(PM2.5),85,85,60,63,51,22,,,,26,15,1,2,0.9,0.8
2025-02-28T0200,2540A,103.8416,30.0874,眉山市,气象局,细颗粒物(PM2.5),117,121,98,88,68,33,,,,32,37,5,6,0.8,0.7
2025-02-28T0200,3137A,103.8578,30.0744,眉山市,市委党校,细颗粒物(PM2.5),117,97,76,88,59,35,,,,32,36,8,9,0.7,0.8
2025-02-28T0200,3148A,103.8291,30.0564,眉山市,区人社局,细颗粒物(PM2.5),119,,59,90,60,32,,,,32,39,11,11,0.9,0.9
2025-02-28T0200,1690A,116.1231,24.3284,梅州市,梅江月梅,,43,41,41,30,36,25,,,,22,18,8,9,0.6,0.6
2025-02-28T0200,1691A,116.0797,24.2719,梅州市,梅县新城,,49,39,44,34,41,4,,,,35,28,5,5,0.7,0.8
2025-02-28T0200,1692A,116.1248,24.2654,梅州市,环境监控中心,,46,45,47,32,41,11,,,,38,30,6,7,0.8,0.8
2025-02-28T0200,3315A,116.1233,24.2991,梅州市,梅龙,,50,44,42,35,34,18,,,,29,22,6,6,0.9,0.8
2025-02-28T0200,1878A,104.7778,31.4741,绵阳市,富乐山,细颗粒物(PM2.5),80,70,52,59,42,1,,,,49,30,2,2,0.8,0.7
2025-02-28T0200,1880A,104.6697,31.4668,绵阳市,高新区自来水公司,细颗粒物(PM2.5),77,98,73,56,47,2,,,,41,37,7,5,0.8,0.8
2025-02-28T0200,1881A,104.7287,31.5075,绵阳市,三水厂,细颗粒物(PM2.5),92,100,78,68,55,2,,,,40,35,7,6,0.9,0.9
2025-02-28T0200,3491A,104.69,31.5322,绵阳市,西科大附属小学,细颗粒物(PM2.5),69,81,71,50,47,14,,,,33,30,7,6,0.6,0.5
2025-02-28T0200,3492A,104.5648,31.5343,绵阳市,安州区旅游局,细颗粒物(PM2.5),77,70,63,56,52,4,,,,30,28,9,8,0.7,0.7
2025-02-28T0200,4226A,104.7651,31.4531,绵阳市,绵阳市气象局,细颗粒物(PM2.5),102,96,64,76,47,1,,,,57,38,5,5,1.1,0.8
2025-02-28T0200,1784A,129.61,44.561,牡丹江市,环保大楼,细颗粒物(PM2.5),80,73,82,59,39,131,,,,14,24,10,11,0.6,0.8
2025-02-28T0200,1785A,129.6115,44.5782,牡丹江市,文化广场,细颗粒物(PM2.5),87,99,76,64,44,140,,,,18,29,13,12,0.6,0.8
2025-02-28T0200,1786A,129.5904,44.5963,牡丹江市,第一医院,,,83,68,58,38,125,,,,15,18,13,9,,0.6
2025-02-28T0200,1787A,129.6364,44.6075,牡丹江市,机车工厂,细颗粒物(PM2.5),79,93,75,58,34,123,,,,16,23,11,10,0.6,0.5
2025-02-28T0200,1788A,129.6386,44.5462,牡丹江市,第一中学,细颗粒物(PM2.5),108,87,67,81,36,131,,,,20,25,10,9,0.5,0.5
2025-02-28T0200,2531A,105.0703,29.61,内江市,市监测站,细颗粒物(PM2.5),68,55,53,49,56,66,,,,14,21,8,16,0.9,1
2025-02-28T0200,2532A,105.0717,29.5947,内江市,东兴区政府,细颗粒物(PM2.5),57,53,56,40,48,70,,,,14,24,3,5,0.7,0.8
2025-02-28T0200,2533A,105.0653,29.5817,内江市,内江二中,,,,60,,54,,,62,,,26,,9,,0.9
2025-02-28T0200,2534A,105.0406,29.5822,内江市,内江日报社,细颗粒物(PM2.5),73,,57,53,54,68,,,,22,29,8,9,0.6,0.6
2025-02-28T0200,2628A,92.0657,31.4846,那曲市,那曲监测站,颗粒物(PM10),61,71,46,3,8,34,,,,21,14,13,11,1.3,0.8
2025-02-28T0200,3128A,92.0506,31.4797,那曲市,那曲会议中心,颗粒物(PM10),54,58,54,29,20,52,,,,13,9,9,7,1.2,0.7
2025-02-28T0200,1290A,115.8931,28.6843,南昌市,省外办,细颗粒物(PM2.5),104,99,105,78,91,5,,,,52,32,5,7,0.9,0.8
2025-02-28T0200,1291A,115.8886,28.7003,南昌市,省林业公司,细颗粒物(PM2.5),100,88,94,75,77,10,,,,51,36,10,10,0.6,0.6
2025-02-28T0200,1292A,115.8126,28.7442,南昌市,林科所,细颗粒物(PM2.5),55,44,83,39,68,5,,,,31,33,7,12,1.0,0.8
2025-02-28T0200,1294A,115.8518,28.687,南昌市,建工学校,细颗粒物(PM2.5),103,102,97,77,76,2,,,,70,45,9,11,1.1,1.1
2025-02-28T0200,1295A,115.8921,28.6424,南昌市,象湖,细颗粒物(PM2.5),110,110,92,83,80,3,,,,54,45,8,9,1.2,1.1
2025-02-28T0200,1296A,115.7423,28.7996,南昌市,武术学校,,23,17,41,16,39,5,,,,13,16,4,5,0.5,0.5
2025-02-28T0200,3046A,115.9084,28.6062,南昌市,机电学校,细颗粒物(PM2.5),113,105,113,85,88,4,,,,51,37,9,10,0.8,0.8
2025-02-28T0200,3690A,115.9721,28.7031,南昌市,外国语学校,细颗粒物(PM2.5),79,62,92,58,69,6,,,,40,32,3,5,0.7,0.7
2025-02-28T0200,4192A,115.9316,28.68677,南昌市,南京东路235号,细颗粒物(PM2.5),107,112,102,80,89,6,,,,62,45,7,7,1.0,1
2025-02-28T0200,1905A,106.056,30.8064,南充市,西山风景区,细颗粒物(PM2.5),54,41,50,38,47,81,,,,5,10,3,2,0.9,0.9
2025-02-28T0200,1906A,106.0789,30.8023,南充市,南充市委,细颗粒物(PM2.5),62,56,67,44,56,46,,,,18,28,3,3,0.7,0.8
2025-02-28T0200,1907A,106.1031,30.8217,南充市,南充炼油厂,细颗粒物(PM2.5),73,63,66,53,56,50,,,,20,26,3,4,0.4,0.4
2025-02-28T0200,1909A,106.0642,30.7636,南充市,嘉陵区环保局,颗粒物(PM10),59,67,71,39,51,22,,,,48,36,4,4,0.7,0.7
2025-02-28T0200,1910A,106.1087,30.8388,南充市,市环境监测站,颗粒物(PM10),55,60,70,38,50,51,,,,22,18,6,7,0.7,0.7
2025-02-28T0200,4227A,106.1083,30.7884,南充市,梨树横街98号,细颗粒物(PM2.5),65,61,66,47,49,31,,,,40,31,5,5,0.9,0.9
2025-02-28T0200,1151A,118.8086,32.1065,南京市,迈皋桥,颗粒物(PM10),56,61,81,39,55,39,,,,30,41,4,4,0.6,0.9
2025-02-28T0200,1152A,118.7538,32.0551,南京市,草场门,细颗粒物(PM2.5),70,61,78,51,62,25,,,,44,38,6,8,1.0,1.2
2025-02-28T0200,1153A,118.7794,32.0745,南京市,山西路,细颗粒物(PM2.5),77,75,92,56,66,55,,,,12,19,4,5,0.6,0.8
2025-02-28T0200,1154A,118.7752,32.0023,南京市,中华门,细颗粒物(PM2.5),73,70,77,53,56,27,,,,39,35,3,4,0.6,0.7
2025-02-28T0200,1155A,118.8109,32.0309,南京市,瑞金路,细颗粒物(PM2.5),73,68,89,53,63,12,,,,65,46,7,6,1.0,1
2025-02-28T0200,1156A,118.7997,32.0754,南京市,玄武湖,细颗粒物(PM2.5),72,70,86,52,61,47,,,,27,24,8,9,0.6,0.8
2025-02-28T0200,1157A,118.6414,32.0931,南京市,浦口,细颗粒物(PM2.5),70,77,92,51,58,39,,,,27,29,6,8,1.1,1.1
2025-02-28T0200,1158A,118.7356,31.9996,南京市,奥体中心,细颗粒物(PM2.5),73,67,86,53,61,13,,,,69,41,6,8,0.8,0.8
2025-02-28T0200,1159A,118.9125,32.1028,南京市,仙林大学城,细颗粒物(PM2.5),85,66,83,63,66,33,,,,30,30,9,9,0.9,1
2025-02-28T0200,3422A,118.8436,31.9198,南京市,江宁彩虹桥,,,74,88,53,56,,,,,40,34,3,4,,0.8
2025-02-28T0200,3423A,119.0138,31.6494,南京市,溧水永阳,细颗粒物(PM2.5),114,,70,86,73,10,,,,57,37,4,5,0.9,0.8
2025-02-28T0200,3427A,118.8554,32.3578,南京市,六合雄州,颗粒物(PM10),61,71,94,43,54,10,,,,56,30,4,7,1.0,1
2025-02-28T0200,4249A,118.8708,31.3402,南京市,汶溪路181号,细颗粒物(PM2.5),59,65,74,42,66,32,,,,21,19,3,5,0.7,0.8
2025-02-28T0200,1401A,108.3103,22.7881,南宁市,二十一中,颗粒物(PM10),64,77,33,43,26,6,,,,42,30,4,4,1.4,1
2025-02-28T0200,1402A,108.3141,22.8528,南宁市,北湖,细颗粒物(PM2.5),78,100,38,57,30,4,,,,37,35,5,5,1.3,1
2025-02-28T0200,1403A,108.3206,22.8225,南宁市,市监测站,颗粒物(PM10),63,75,36,35,22,2,,,,38,31,6,7,1.4,1.1
2025-02-28T0200,1404A,108.3829,22.8037,南宁市,大自然花园,颗粒物(PM10),51,52,32,27,22,28,,,,20,25,4,5,1.1,1
2025-02-28T0200,1405A,108.4394,22.7904,南宁市,仙葫,颗粒物(PM10),59,68,32,37,24,4,,,,33,22,1,1,1.1,1
2025-02-28T0200,1406A,108.2397,22.8467,南宁市,区农职院,颗粒物(PM10),63,76,44,21,21,0,,,,34,32,7,7,1.0,1.1
2025-02-28T0200,1407A,108.3275,22.735,南宁市,英华嘉园,颗粒物(PM10),52,53,32,31,23,2,,,,36,22,6,6,1.1,1
2025-02-28T0200,3401A,108.4834,22.7618,南宁市,红星社区,颗粒物(PM10),55,60,29,32,20,5,,,,29,18,7,7,1.3,1.1
2025-02-28T0200,4221A,108.2177,22.7774,南宁市,乐贤路16号,颗粒物(PM10),62,74,35,38,22,3,,,,37,36,8,7,1.4,1.1
2025-02-28T0200,2331A,118.0966,26.6761,南平市,茫荡山,,,,,,,,,,,,,,,,
2025-02-28T0200,2332A,118.1681,26.6369,南平市,南平市监测站,,46,37,38,32,38,2,,,,22,22,4,4,1.0,1
2025-02-28T0200,2333A,118.1825,26.6489,南平市,南平铝业有限公司,,24,24,29,16,23,1,,,,24,24,7,6,0.9,0.9
2025-02-28T0200,2334A,118.1756,26.6272,南平市,南平七中,,32,26,29,22,27,0,,,,19,15,4,4,0.7,0.7
2025-02-28T0200,1168A,120.9098,31.9663,南通市,狼山街道,细颗粒物(PM2.5),109,99,118,82,98,3,,,,44,51,5,6,0.4,0.4
2025-02-28T0200,1169A,120.86,32.0005,南通市,虹桥,细颗粒物(PM2.5),133,133,136,101,106,0,,,,78,58,6,7,0.4,0.4
2025-02-28T0200,1170A,120.87,32.02,南通市,城中,细颗粒物(PM2.5),118,129,135,89,103,3,,,,78,61,7,8,1.0,1
2025-02-28T0200,1171A,120.94,31.93,南通市,星湖花园,细颗粒物(PM2.5),100,95,118,75,96,0,,,,71,64,6,8,0.7,0.7
2025-02-28T0200,1172A,120.81,32.0417,南通市,紫琅学院,细颗粒物(PM2.5),122,116,124,92,98,1,,,,64,60,4,5,0.9,1
2025-02-28T0200,3291A,121.067,32.062,南通市,通州监测站,细颗粒物(PM2.5),85,73,132,63,110,6,,,,65,49,4,5,0.7,0.9
2025-02-28T0200,3432A,120.9348,31.9883,南通市,环境教育馆,细颗粒物(PM2.5),156,134,123,119,111,4,,,,46,52,7,6,0.8,0.7
2025-02-28T0200,2404A,112.5224,33.0122,南阳市,瓦房庄,细颗粒物(PM2.5),162,159,116,123,79,3,,,,60,31,5,6,1.2,0.8
2025-02-28T0200,2405A,112.5003,32.9735,南阳市,汉画馆,细颗粒物(PM2.5),142,133,104,108,89,4,,,,69,31,5,6,1.0,0.8
2025-02-28T0200,2406A,112.5573,33.027,南阳市,气象站,细颗粒物(PM2.5),149,154,118,114,91,30,,,,42,29,4,6,1.0,0.9
2025-02-28T0200,2407A,112.5481,32.9689,南阳市,理工学院,细颗粒物(PM2.5),156,152,111,119,88,3,,,,71,36,2,3,1.4,0.8
2025-02-28T0200,4008A,112.5234,32.9922,南阳市,卧龙区政府,细颗粒物(PM2.5),149,153,113,114,88,2,,,,57,26,7,7,1.3,0.8
2025-02-28T0200,1234A,121.8358,29.911,宁波市,区环保大楼,,28,28,61,17,45,30,,,,42,38,6,7,0.7,0.8
2025-02-28T0200,1235A,121.56,29.82,宁波市,万里学院,,42,38,68,29,55,24,,,,32,27,6,7,0.8,0.9
2025-02-28T0200,1236A,121.713,29.9572,宁波市,龙赛医院,,36,32,66,25,63,11,,,,54,45,6,7,1.3,0.9
2025-02-28T0200,1239A,121.633,29.7733,宁波市,钱湖水厂,,20,20,58,14,48,44,,,,19,20,6,6,0.7,0.8
2025-02-28T0200,1240A,121.5856,29.8635,宁波市,太古小学,,45,45,70,28,46,22,,,,38,33,7,8,0.9,0.9
2025-02-28T0200,1241A,121.524,29.8674,宁波市,市环境监测中心,细颗粒物(PM2.5),63,52,66,45,61,17,,,,56,49,7,7,0.9,0.9
2025-02-28T0200,2871A,121.6147,29.9017,宁波市,万里国际学校,,39,39,80,25,33,31,,,,32,26,7,7,0.6,0.6
2025-02-28T0200,3710A,121.5594,29.8975,宁波市,白沙活动中心,颗粒物(PM10),57,63,81,29,52,21,,,,46,39,5,6,0.7,0.7
2025-02-28T0200,2339A,119.5001,26.6946,宁德市,金涵水库,,,,,,,,,,,,,,,,
2025-02-28T0200,2341A,119.5388,26.6612,宁德市,宁德市监测站,,46,,41,32,44,1,,,,15,16,4,4,0.8,0.8
2025-02-28T0200,3209A,119.5231,26.6562,宁德市,宁德一中,,30,24,34,21,39,7,,,,10,19,4,4,0.5,0.5
2025-02-28T0200,2618A,98.8601,25.8567,怒江傈僳族自治州,州监测站,,31,31,31,19,17,68,,,,8,8,3,3,0.2,0.3
2025-02-28T0200,2619A,98.8546,25.8417,怒江傈僳族自治州,泸水一中,,22,19,28,15,17,40,,,,15,17,6,6,0.3,0.4
2025-02-28T0200,1888A,101.6891,26.571,攀枝花市,弄弄坪,颗粒物(PM10),102,153,59,36,24,9,,,,80,38,88,26,4.3,1.3
2025-02-28T0200,1889A,101.5769,26.5928,攀枝花市,河门口,,43,43,44,15,19,25,,,,40,27,13,18,0.5,1.3
2025-02-28T0200,1890A,101.7169,26.585,攀枝花市,炳草岗,,32,32,45,15,19,22,,,,54,34,16,11,1.4,0.7
2025-02-28T0200,1891A,101.7369,26.5008,攀枝花市,仁和,,50,50,31,23,15,41,,,,34,23,8,11,0.7,0.7
2025-02-28T0200,2835A,101.7227,26.567,攀枝花市,四十中小,,38,38,53,17,23,61,,,,38,32,19,10,1.1,0.6
2025-02-28T0200,1604A,122.0303,41.1489,盘锦市,开发区,细颗粒物(PM2.5),113,,107,85,102,103,,,,18,25,12,14,0.8,0.9
2025-02-28T0200,1605A,122.0485,41.0883,盘锦市,兴隆台,细颗粒物(PM2.5),112,,101,84,101,99,,,,17,26,6,10,0.8,0.9
2025-02-28T0200,1606A,121.8297,41.1028,盘锦市,新生街道,细颗粒物(PM2.5),123,,84,93,104,88,,,,21,27,8,10,0.8,1
2025-02-28T0200,1832A,113.3257,33.742,平顶山市,新华旅馆,细颗粒物(PM2.5),125,136,119,95,82,12,,,,66,31,4,4,0.8,0.7
2025-02-28T0200,1833A,113.2919,33.737,平顶山市,规划设计院,细颗粒物(PM2.5),152,176,117,116,87,2,,,,91,41,5,6,0.9,0.7
2025-02-28T0200,1834A,113.182,33.774,平顶山市,平顶山工学院,细颗粒物(PM2.5),138,147,101,105,80,17,,,,60,19,4,5,0.8,0.7
2025-02-28T0200,3204A,113.3025,33.73,平顶山市,规划局,细颗粒物(PM2.5),182,175,109,137,101,5,,,,88,34,4,4,0.9,0.7
2025-02-28T0200,3594A,112.8867,33.9116,平顶山市,石龙区,细颗粒物(PM2.5),134,171,123,102,84,14,,,,79,42,6,7,0.5,0.6
2025-02-28T0200,2656A,106.6692,35.5461,平凉市,聚贤嘉苑,,48,48,48,23,24,59,,,,27,31,8,10,0.3,0.4
2025-02-28T0200,2657A,106.7021,35.5307,平凉市,博物馆,,48,48,58,25,31,58,,,,25,35,11,13,0.2,0.7
2025-02-28T0200,2347A,114.0997,27.5002,萍乡市,武功山,,20,19,26,14,33,17,,,,8,8,4,5,0.7,0.8
2025-02-28T0200,2348A,113.8385,27.6434,萍乡市,中医院,细颗粒物(PM2.5),99,84,70,74,57,16,,,,38,27,12,10,1.6,1.2
2025-02-28T0200,2349A,113.8493,27.6253,萍乡市,市政府车库,细颗粒物(PM2.5),69,73,64,50,51,27,,,,25,24,10,9,1.2,1.3
2025-02-28T0200,2350A,113.8676,27.6435,萍乡市,市环保局,细颗粒物(PM2.5),84,84,62,62,48,17,,,,34,23,12,9,1.1,0.9
2025-02-28T0200,2351A,113.866,27.6198,萍乡市,安源区政府,细颗粒物(PM2.5),94,75,66,70,54,32,,,,23,27,11,12,0.9,1.1
2025-02-28T0200,2319A,119.0141,25.4325,莆田市,荔城区仓后路,细颗粒物(PM2.5),108,101,77,81,68,2,,,,54,43,4,5,1.3,1.1
2025-02-28T0200,2320A,119.0015,25.4553,莆田市,莆田市监测站,细颗粒物(PM2.5),77,70,70,56,60,17,,,,21,31,3,5,0.9,0.9
2025-02-28T0200,2321A,119.1119,25.4561,莆田市,涵江区六中,细颗粒物(PM2.5),74,66,59,54,48,1,,,,55,41,3,3,0.7,0.6
2025-02-28T0200,2322A,119.1013,25.3215,莆田市,秀屿区政府,细颗粒物(PM2.5),95,,52,71,61,28,,,,29,27,4,5,0.8,0.7
2025-02-28T0200,2323A,118.981,25.4792,莆田市,东圳水库,,,,,,,,,,,,,,,,
2025-02-28T0200,2392A,115.0312,35.7636,濮阳市,环保局,细颗粒物(PM2.5),115,99,85,87,86,91,,,,13,18,4,5,1.3,1.2
2025-02-28T0200,2394A,115.0574,35.7609,濮阳市,油田运输公司,细颗粒物(PM2.5),127,134,119,96,86,68,,,,28,22,5,5,1.1,1
2025-02-28T0200,3021A,115,35.7668,濮阳市,濮水河管理处,细颗粒物(PM2.5),123,118,115,93,83,55,,,,28,16,4,6,1.0,0.9
2025-02-28T0200,4216A,115.0924,35.7686,濮阳市,任丘路479号,细颗粒物(PM2.5),134,134,113,102,90,48,,,,39,26,6,5,1.1,0.8
2025-02-28T0200,2601A,100.98,22.7633,普洱市,市环保局,颗粒物(PM10),54,58,57,19,21,49,,,,9,12,4,4,0.5,0.6
2025-02-28T0200,2602A,100.9817,22.8322,普洱市,普洱第二中学,颗粒物(PM10),51,52,55,27,26,4,,,,48,24,3,5,0.6,0.5
2025-02-28T0200,2262A,131.0518,45.8751,七台河市,新一中,颗粒物(PM10),59,67,46,38,21,121,,,,16,18,13,13,0.7,0.6
2025-02-28T0200,3345A,131.0577,45.7879,七台河市,中波台,颗粒物(PM10),57,64,50,38,23,118,,,,15,22,9,8,0.6,0.6
2025-02-28T0200,3637A,131.0176,45.7761,七台河市,人民广场,细颗粒物(PM2.5),67,79,60,48,32,119,,,,13,26,10,9,0.7,0.5
2025-02-28T0200,3684A,130.8781,45.8222,七台河市,新建矿广场,颗粒物(PM10),63,75,68,43,31,124,,,,14,25,7,8,0.6,0.5
2025-02-28T0200,1779A,123.9305,47.3636,齐齐哈尔市,安居小区,颗粒物(PM10),53,55,49,31,23,38,,,,24,25,10,12,0.5,0.5
2025-02-28T0200,1780A,123.9488,47.3386,齐齐哈尔市,中心广场,颗粒物(PM10),57,63,49,31,23,40,,,,21,25,8,7,0.6,0.6
2025-02-28T0200,1781A,123.9483,47.3227,齐齐哈尔市,农牧车辆厂,颗粒物(PM10),52,53,42,23,20,26,,,,35,25,9,8,0.8,0.4
2025-02-28T0200,1783A,123.945,47.2988,齐齐哈尔市,市环境监测站,颗粒物(PM10),58,65,45,29,18,41,,,,18,16,6,5,0.5,0.4
2025-02-28T0200,3662A,123.6333,47.2075,齐齐哈尔市,富区青少年活动中心,颗粒物(PM10),54,58,54,26,14,37,,,,21,17,22,13,0.5,0.5
2025-02-28T0200,2591A,107.9783,26.5747,黔东南苗族侗族自治州,市环境监测站,,21,15,22,12,18,67,,,,4,8,2,3,0.6,0.6
2025-02-28T0200,2881A,107.8908,26.5311,黔东南苗族侗族自治州,凯里学院,,22,,11,8,15,68,,,,3,6,2,2,0.7,0.7
2025-02-28T0200,2593A,107.5228,26.2403,黔南布依族苗族自治州,小围寨,,16,7,10,7,8,49,,,,4,5,5,4,0.7,0.8
2025-02-28T0200,3538A,107.5175,26.2978,黔南布依族苗族自治州,沙坝,,15,7,13,7,9,48,,,,6,8,4,4,0.5,0.6
2025-02-28T0200,2589A,104.9022,25.0925,黔西南布依族苗族自治州,场坝街,,29,26,22,20,15,42,,,,12,8,2,2,0.3,0.3
2025-02-28T0200,2590A,104.8811,25.0992,黔西南布依族苗族自治州,坪东大道,颗粒物(PM10),54,57,28,29,21,12,,,,31,21,4,4,0.2,0.3
2025-02-28T0200,2502A,108.6236,21.9667,钦州市,市环保站,细颗粒物(PM2.5),77,73,45,56,32,18,,,,44,33,14,7,1.4,1.3
2025-02-28T0200,2503A,108.6549,21.9481,钦州市,沙埠小学,细颗粒物(PM2.5),55,57,41,39,33,19,,,,54,36,11,8,1.0,1.1
2025-02-28T0200,2504A,108.5989,21.7431,钦州市,港区一小,"颗粒物(PM10),细颗粒物(PM2.5)",67,84,43,48,33,26,,,,49,41,28,10,1.5,1.2
2025-02-28T0200,3404A,108.5959,21.9633,钦州市,北职校,细颗粒物(PM2.5),89,71,37,66,40,12,,,,67,38,27,9,1.4,1.2
2025-02-28T0200,1043A,119.7493,40.0116,秦皇岛市,第一关,细颗粒物(PM2.5),226,190,164,176,117,40,,,,67,59,13,13,1.6,1.4
2025-02-28T0200,1044A,119.5897,39.9499,秦皇岛市,监测站,细颗粒物(PM2.5),223,211,157,173,104,38,,,,66,64,8,11,1.9,1.6
2025-02-28T0200,1046A,119.5251,39.9041,秦皇岛市,建设大厦,细颗粒物(PM2.5),198,189,150,148,101,81,,,,46,52,10,16,1.3,1.4
2025-02-28T0200,3132A,119.610547,39.943889,秦皇岛市,文明里,细颗粒物(PM2.5),170,199,160,129,92,55,,,,58,63,10,11,1.3,1.2
2025-02-28T0200,4198A,119.5090,39.8253,秦皇岛市,北戴河轮滑馆,细颗粒物(PM2.5),130,124,135,99,110,83,,,,36,50,5,9,0.7,1.5
2025-02-28T0200,1307A,120.6659,36.2403,青岛市,仰口,细颗粒物(PM2.5),114,89,87,86,75,106,,,,10,12,2,3,0.8,0.6
2025-02-28T0200,1310A,120.4134,36.0658,青岛市,市南区东部子站,颗粒物(PM10),59,68,94,29,56,112,,,,11,19,7,8,0.7,0.7
2025-02-28T0200,1311A,120.3664,36.1032,青岛市,四方区子站,细颗粒物(PM2.5),83,83,90,61,66,114,,,,15,20,3,4,0.7,0.8
2025-02-28T0200,1312A,120.2994,36.054,青岛市,市南区西部子站,颗粒物(PM10),51,51,76,20,50,114,,,,15,25,6,7,0.7,0.8
2025-02-28T0200,1313A,120.4581,36.0858,青岛市,崂山区子站,细颗粒物(PM2.5),64,75,88,46,57,123,,,,12,17,8,9,0.7,0.7
2025-02-28T0200,1315A,120.3999,36.3083,青岛市,城阳区子站,细颗粒物(PM2.5),80,97,101,59,61,89,,,,33,37,6,8,0.9,0.9
2025-02-28T0200,1966A,120.0405,35.8735,青岛市,黄岛区4号,细颗粒物(PM2.5),83,66,80,61,62,110,,,,21,23,6,7,0.7,0.8
2025-02-28T0200,3362A,120.5014,36.4034,青岛市,即墨2号,细颗粒物(PM2.5),117,124,109,88,86,28,,,,56,28,7,9,1.5,0.9
2025-02-28T0200,3642A,120.3503,36.0736,青岛市,市北区南部,颗粒物(PM10),55,59,96,24,53,100,,,,15,24,6,6,0.8,0.7
2025-02-28T0200,3643A,120.3948,36.1805,青岛市,李沧区北部,细颗粒物(PM2.5),110,92,97,83,76,111,,,,22,27,9,11,0.8,0.7
2025-02-28T0200,4290A,120.1969,35.9546,青岛市,珠江路669号,细颗粒物(PM2.5),64,75,85,46,65,113,,,,18,23,5,6,0.8,0.8
2025-02-28T0200,1702A,113.0426,23.691,清远市,环保大楼,颗粒物(PM10),117,183,144,75,72,14,,,,53,40,5,7,1.4,1.2
2025-02-28T0200,1703A,113.0208,23.7106,清远市,凤城街办,细颗粒物(PM2.5),118,124,97,89,72,6,,,,75,58,6,8,1.5,1
2025-02-28T0200,3025A,113.0477,23.6344,清远市,技师学院,细颗粒物(PM2.5),102,127,93,76,60,5,,,,71,53,8,9,1.1,0.8
2025-02-28T0200,3318A,112.9903,23.7403,清远市,清新太和,细颗粒物(PM2.5),64,69,80,46,57,36,,,,45,40,9,10,0.9,0.9
2025-02-28T0200,3455A,113.076,23.7198,清远市,清城东城,细颗粒物(PM2.5),89,113,99,66,65,16,,,,36,39,4,7,0.9,1
2025-02-28T0200,2661A,107.6325,35.7357,庆阳市,庆阳五中,颗粒物(PM10),54,57,59,25,38,88,,,,11,22,4,8,0.8,0.8
2025-02-28T0200,2662A,107.6364,35.7067,庆阳市,市环保局,颗粒物(PM10),52,54,54,18,27,88,,,,19,21,21,12,0.7,0.8
2025-02-28T0200,1916A,103.7897,25.5035,曲靖市,环境监测站,,30,29,26,18,12,94,,,,8,19,4,4,0.4,0.5
2025-02-28T0200,1917A,103.8,25.5364,曲靖市,烟厂办公区,,31,31,36,15,18,89,,,,9,21,4,4,0.4,0.4
2025-02-28T0200,3376A,103.7947,25.462,曲靖市,南苑二区,,30,30,21,14,11,93,,,,6,9,4,4,0.5,0.4
2025-02-28T0200,3377A,103.7444,25.5261,曲靖市,曲靖师范学院,颗粒物(PM10),56,61,38,38,22,75,,,,27,22,18,14,0.4,0.4
2025-02-28T0200,1264A,118.8692,28.9398,衢州市,环保大楼,细颗粒物(PM2.5),59,65,63,42,47,0,,,,33,40,3,4,0.9,0.7
2025-02-28T0200,1265A,118.8709,28.9666,衢州市,实验学校,,42,42,50,26,39,2,,,,21,35,4,5,0.8,0.8
2025-02-28T0200,1266A,118.8621,28.9808,衢州市,衢州学院,,30,30,50,20,39,0,,,,28,43,5,5,0.6,0.7
2025-02-28T0200,1611A,118.5819,24.9117,泉州市,涂山街,细颗粒物(PM2.5),67,,57,48,50,8,,,,60,43,3,4,1.1,1
2025-02-28T0200,1612A,118.5972,24.8978,泉州市,津头埔,细颗粒物(PM2.5),72,,56,52,51,11,,,,56,40,3,3,0.9,0.9
2025-02-28T0200,1613A,118.6663,24.9424,泉州市,万安,细颗粒物(PM2.5),62,56,50,44,41,3,,,,54,36,4,4,0.8,0.7
2025-02-28T0200,1614A,118.6117,24.9604,泉州市,清源山,,,,,,,,,,,,,,,,
2025-02-28T0200,3529A,118.6333,24.9264,泉州市,城华南路,颗粒物(PM10),64,78,75,45,45,16,,,,41,38,2,3,0.8,0.8
2025-02-28T0200,2626A,88.8876,29.2718,日喀则市,日喀则监测站,,39,39,43,21,18,53,,,,18,25,4,5,0.7,0.8
2025-02-28T0200,3726A,88.8781,29.2426,日喀则市,林业技术推广中心,,19,18,27,3,7,60,,,,4,4,7,7,0.3,0.4
2025-02-28T0200,1659A,119.471,35.4209,日照市,监测站,细颗粒物(PM2.5),113,97,131,85,97,0,,,,80,65,7,8,1.2,1.1
2025-02-28T0200,1660A,119.523,35.4216,日照市,市政府广场,细颗粒物(PM2.5),55,53,113,39,79,47,,,,29,35,3,5,0.8,0.9
2025-02-28T0200,1661A,119.5587,35.4044,日照市,港务局,细颗粒物(PM2.5),55,39,98,39,81,69,,,,27,30,7,8,0.9,1
