timepoint,stationcode,longitude,latitude,area,positionname,primarypollutant,aqi,pm10,pm10_24h,pm2_5,pm2_5_24h,o3,o3_24h,o3_8h,o3_8h_24h,no2,no2_24h,so2,so2_24h,co,co_24h
2025-06-25T2200,2566A,102.1879,31.914,阿坝藏族羌族自治州,州农科所,,22,22,19,10,9,44,,68,62,5,9,12,13,0.5,0.5
2025-06-25T2200,2568A,102.2502,31.8896,阿坝藏族羌族自治州,马师校,,35,29,19,24,16,49,,107,99,13,6,6,6,0.5,0.5
2025-06-25T2200,3994A,102.2165,31.9024,阿坝藏族羌族自治州,马尔康中学西区,,38,,15,26,17,52,,108,99,13,4,6,6,0.2,0.3
2025-06-25T2200,2695A,80.292,41.1694,阿克苏地区,电视台,颗粒物(PM10),74,98,60,29,24,122,,122,120,10,9,3,4,0.7,0.6
2025-06-25T2200,2696A,80.2613,41.1551,阿克苏地区,艺术中心,颗粒物(PM10),79,107,69,42,29,118,,133,128,11,8,3,3,0.4,0.3
2025-06-25T2200,2204A,105.6467,38.8363,阿拉善盟,西城区西花园,,48,33,17,11,18,153,,160,150,10,9,5,5,0.5,0.9
2025-06-25T2200,2205A,105.6985,38.8411,阿拉善盟,蒙二幼,,45,40,25,18,13,143,,152,145,10,10,10,10,0.6,0.6
2025-06-25T2200,2206A,105.724,38.8516,阿拉善盟,环保局新楼,,42,36,20,18,12,133,,145,137,6,6,9,9,0.6,0.6
2025-06-25T2200,2708A,88.1264,47.8517,阿勒泰地区,市站,,30,12,16,3,4,93,,102,97,5,7,1,1,0.3,0.3
2025-06-25T2200,2630A,80.1161,32.5,阿里地区,阿里监测站,,39,,14,18,13,122,,121,120,7,8,6,8,0.3,0.3
2025-06-25T2200,3192A,80.0903,32.5028,阿里地区,阿里藏医院,,41,10,20,7,11,130,,126,126,2,4,8,8,0.4,0.4
2025-06-25T2200,2642A,109.0318,32.6537,安康市,香溪洞,,27,17,19,3,12,85,,113,94,2,4,4,4,0.5,0.5
2025-06-25T2200,2644A,109.0072,32.6975,安康市,汉滨区检察院,,25,,32,10,19,79,,99,91,5,5,5,6,0.3,0.5
2025-06-25T2200,4054A,109.0325,32.6913,安康市,市邮政管理局,,25,8,24,8,14,79,,103,92,5,6,4,4,0.4,0.5
2025-06-25T2200,2291A,117.0809,30.5177,安庆市,环科院,,,38,35,24,20,,,141,140,11,16,4,5,0.8,0.7
2025-06-25T2200,2292A,117.0331,30.5119,安庆市,马山宾馆,,35,32,33,24,19,103,,131,128,17,18,5,6,0.9,0.8
2025-06-25T2200,2294A,116.9896,30.6145,安庆市,安庆大学,,32,29,38,22,22,89,,126,115,17,17,1,3,0.6,0.7
2025-06-25T2200,3173A,117.0598,30.5351,安庆市,市人大,,32,31,30,22,19,102,,144,137,20,17,5,5,0.7,0.6
2025-06-25T2200,3122A,105.9606,26.2611,安顺市,伍家关,,,,22,11,9,39,,39,39,6,7,4,4,0.5,0.4
2025-06-25T2200,3123A,105.9408,26.2431,安顺市,凤凰山,,21,21,16,14,13,54,,54,53,9,5,3,4,0.4,0.5
2025-06-25T2200,3124A,105.9439,26.2564,安顺市,金钟山,,18,17,15,12,11,51,,55,53,6,4,4,4,0.3,0.2
2025-06-25T2200,3125A,105.8983,26.2481,安顺市,娄家坡,,15,12,12,3,10,48,,52,49,5,3,3,3,0.5,0.5
2025-06-25T2200,1818A,114.4839,36.0621,安阳市,棉研所,,,,,,,,,,,,,,,,
2025-06-25T2200,1819A,114.3551,36.1017,安阳市,红庙街,,45,43,63,24,28,141,,149,138,1,9,5,8,0.3,0.4
2025-06-25T2200,1820A,114.361,36.0681,安阳市,银杏小区,,,58,62,32,32,,,147,139,,21,,12,,0.5
2025-06-25T2200,3141A,114.3922,36.0878,安阳市,信访局,细颗粒物(PM2.5),70,,63,51,43,152,,156,148,3,13,15,8,0.6,0.6
2025-06-25T2200,3669A,114.4705,36.0637,安阳市,左辅环卫站,细颗粒物(PM2.5),69,86,67,50,35,124,,158,142,22,22,7,9,0.7,0.6
2025-06-25T2200,3703A,114.2917,36.0949,安阳市,安钢职工学校,颗粒物(PM10),56,62,68,28,33,140,,142,138,10,16,7,7,0.4,0.5
2025-06-25T2200,1748A,123.044,41.1196,鞍山市,深沟寺,,42,42,45,21,23,86,,205,180,26,21,8,11,0.9,1.1
2025-06-25T2200,1749A,123.011,41.0931,鞍山市,太阳城,,40,40,43,21,25,86,,198,171,24,18,8,13,0.6,1.1
2025-06-25T2200,1750A,123.0485,41.1442,鞍山市,太平,颗粒物(PM10),53,56,63,26,28,89,,196,170,22,25,12,14,1.2,1.1
2025-06-25T2200,1751A,122.9642,41.0971,鞍山市,铁西三道街,,46,46,59,22,28,89,,186,157,22,32,8,17,0.9,1.6
2025-06-25T2200,1753A,123.022,41.0821,鞍山市,明达新区,,33,33,46,17,26,97,,198,172,18,20,8,13,0.4,0.9
2025-06-25T2200,1754A,123.1289,41.0228,鞍山市,千山,,,,,,,,,,,,,,,,
2025-06-25T2200,4201A,122.9446,41.0826,鞍山市,兴盛南路290号,,46,46,74,23,32,84,,199,162,30,44,6,14,0.5,1.1
2025-06-25T2200,2195A,107.4212,40.761,巴彦淖尔市,附二中,,41,30,34,19,20,130,,142,140,7,10,6,10,0.5,0.6
2025-06-25T2200,2196A,107.37,40.7372,巴彦淖尔市,市环保大楼,,44,34,45,18,20,138,,146,146,11,14,7,8,0.4,0.5
2025-06-25T2200,1956A,86.1472,41.7538,巴音郭楞蒙古自治州,孔雀公园,颗粒物(PM10),59,67,42,37,19,101,,118,116,14,6,9,10,0.2,0.2
2025-06-25T2200,1957A,86.1972,41.7166,巴音郭楞蒙古自治州,棉纺厂,颗粒物(PM10),71,91,58,20,13,99,,124,121,20,9,4,5,0.3,0.3
2025-06-25T2200,1958A,86.2357,41.7173,巴音郭楞蒙古自治州,经济开发区,颗粒物(PM10),60,70,36,28,12,98,,118,116,11,5,2,9,0.2,0.2
2025-06-25T2200,2914A,106.7677,31.8794,巴中市,苏山坪,,23,12,12,9,7,71,,93,90,5,2,5,5,0.4,0.4
2025-06-25T2200,3181A,106.7768,31.8526,巴中市,市五中,,24,10,14,3,8,74,,105,98,6,6,7,7,0.5,0.5
2025-06-25T2200,3183A,106.7418,31.8654,巴中市,圣泉水务公司,,25,9,11,7,10,77,,109,104,7,6,6,6,0.6,0.5
2025-06-25T2200,3616A,106.7616,31.8344,巴中市,市中心医院,,22,9,12,3,6,69,,104,96,9,6,7,7,0.4,0.4
2025-06-25T2200,2235A,122.7911,45.6077,白城市,洮北区环保局,,46,46,33,9,16,116,,162,138,20,13,5,5,0.3,0.3
2025-06-25T2200,2236A,122.8738,45.5725,白城市,市环保局,,46,46,38,21,20,79,,149,121,26,6,8,7,0.4,0.5
2025-06-25T2200,2231A,126.4219,41.9171,白山市,喜丰,,43,43,54,11,17,26,,128,85,30,25,8,7,0.7,0.7
2025-06-25T2200,2232A,126.4077,41.9419,白山市,环保局,,41,41,30,14,10,47,,122,94,17,14,4,4,0.7,0.6
2025-06-25T2200,2647A,104.1724,36.5446,白银市,第三小学,细颗粒物(PM2.5),62,60,29,44,23,71,,104,97,19,15,34,39,0.9,0.8
2025-06-25T2200,2648A,104.1465,36.5482,白银市,动力公司,,,,26,15,18,81,,95,94,,15,29,23,0.7,0.6
2025-06-25T2200,2512A,106.6103,23.9011,百色市,市监测站,,20,16,29,8,15,62,,76,66,6,12,4,9,0.5,0.4
2025-06-25T2200,2513A,106.6538,23.8859,百色市,市中心血站,,24,24,33,13,16,56,,73,62,8,13,3,7,0.5,0.6
2025-06-25T2200,3406A,106.6085,23.8798,百色市,祈福高中,,22,20,36,10,18,68,,78,67,5,14,4,11,0.3,0.4
2025-06-25T2200,2270A,117.396,32.939,蚌埠市,工人疗养院,,47,45,29,26,14,150,,158,158,14,9,4,4,0.5,0.5
2025-06-25T2200,2271A,117.3605,32.9427,蚌埠市,百货大楼,,46,45,37,21,13,145,,155,154,13,12,5,5,0.5,0.4
2025-06-25T2200,2273A,117.4185,32.8911,蚌埠市,蚌埠学院,,44,44,27,29,16,135,,153,149,14,9,4,4,0.5,0.4
2025-06-25T2200,2274A,117.3533,32.9673,蚌埠市,淮上区政府,,48,48,32,29,17,141,,159,156,28,13,6,6,0.6,0.5
2025-06-25T2200,2275A,117.3145,32.8977,蚌埠市,高新区,,40,34,29,24,15,125,,148,146,15,12,5,5,0.6,0.4
2025-06-25T2200,3715A,117.3092,32.9314,蚌埠市,蚌埠田家炳中学,,43,36,29,24,17,137,,150,149,9,9,6,8,0.4,0.3
2025-06-25T2200,1585A,109.8756,40.6532,包头市,市环境监测站,,49,21,39,15,17,156,,153,153,15,27,14,16,0.6,0.8
2025-06-25T2200,1587A,109.9991,40.5842,包头市,包头八中,,45,37,56,21,25,143,,147,146,13,27,6,17,0.5,0.8
2025-06-25T2200,1588A,109.8538,40.6821,包头市,青山宾馆,,48,19,39,19,23,153,,154,154,13,29,12,14,0.7,0.7
2025-06-25T2200,1589A,109.8642,40.6288,包头市,惠龙物流,,46,28,42,18,20,145,,152,150,16,27,17,14,0.7,0.8
2025-06-25T2200,1590A,110.0377,40.5546,包头市,东河鸿龙湾,,45,19,48,18,17,141,,147,147,12,26,6,14,0.5,0.6
2025-06-25T2200,3283A,109.9154,40.5685,包头市,滨河大厦,,45,28,41,11,20,143,,151,150,12,25,8,13,0.5,0.6
2025-06-25T2200,3419A,109.9447,40.6261,包头市,包头市委党校,,,21,42,21,19,,,153,153,11,27,11,18,0.5,0.7
2025-06-25T2200,3683A,109.8331,40.6576,包头市,昆区政府,,,30,44,24,27,,,138,138,22,31,19,15,0.8,0.9
2025-06-25T2200,1930A,107.185,34.3063,宝鸡市,庙沟村,,27,27,17,13,11,77,,101,94,13,11,5,5,0.3,0.3
2025-06-25T2200,1931A,107.0708,34.3017,宝鸡市,竹园沟,,25,25,17,17,10,49,,103,89,12,11,6,6,0.4,0.4
2025-06-25T2200,1932A,107.1906,34.3672,宝鸡市,三陆医院,,27,27,24,12,17,71,,92,86,13,19,7,7,0.5,0.5
2025-06-25T2200,1933A,107.1431,34.3547,宝鸡市,监测站,,30,26,22,21,16,84,,97,91,11,12,7,6,0.3,0.3
2025-06-25T2200,1934A,107.1186,34.3739,宝鸡市,技工学校,,26,24,23,18,16,74,,101,94,7,7,7,7,0.5,0.5
2025-06-25T2200,1935A,107.3906,34.3528,宝鸡市,陈仓区环保局家属楼,,38,27,24,26,21,83,,103,99,13,13,7,5,0.5,0.5
2025-06-25T2200,1936A,107.2058,34.3497,宝鸡市,文理学院,,29,29,23,15,15,77,,104,94,15,12,6,5,0.5,0.5
2025-06-25T2200,1937A,107.2386,34.3622,宝鸡市,三迪小学,,,,23,,19,78,,105,99,,14,,6,0.5,0.5
2025-06-25T2200,1051A,115.493,38.8632,保定市,游泳馆,臭氧1小时,69,66,66,32,41,175,,252,228,19,21,7,6,0.5,0.4
2025-06-25T2200,1052A,115.5213,38.8959,保定市,华电二区,臭氧1小时,83,67,66,32,36,186,,260,238,14,19,5,4,0.7,0.8
2025-06-25T2200,1053A,115.4713,38.9108,保定市,接待中心,臭氧1小时,67,63,66,30,40,173,,245,223,15,18,4,3,0.7,0.7
2025-06-25T2200,1054A,115.4612,38.8416,保定市,地表水厂,颗粒物(PM10),73,95,83,32,37,166,,259,228,29,30,4,3,0.7,0.6
2025-06-25T2200,3581A,115.31981,38.95208,保定市,满城区生态环境分局,颗粒物(PM10),63,75,73,36,36,167,,252,229,15,17,6,5,0.6,0.4
2025-06-25T2200,3582A,115.47694,38.76408,保定市,清苑区第二中学,,,,95,,50,,,271,245,13,23,4,4,0.5,0.5
2025-06-25T2200,3583A,115.62909,39.02311,保定市,徐水物探局,颗粒物(PM10),70,90,85,22,36,165,,246,218,18,23,4,4,0.6,0.6
2025-06-25T2200,4004A,115.4202,38.8656,保定市,双鹰农机,臭氧1小时,68,58,59,36,38,174,,257,229,24,25,8,6,0.5,0.5
2025-06-25T2200,4034A,115.5150,38.8590,保定市,植保所站,臭氧1小时,85,76,72,47,39,188,,266,239,15,23,5,6,0.7,0.6
2025-06-25T2200,2594A,99.1678,25.1081,保山市,市环境监测站,,18,,12,12,10,14,,39,33,6,5,7,8,0.4,0.4
2025-06-25T2200,2595A,99.1711,25.1328,保山市,市环保局,,15,15,11,8,8,21,,47,42,2,3,6,6,0.3,0.3
2025-06-25T2200,1866A,109.2262,21.588,北海市,牛尾岭水库,,30,,12,21,9,33,,61,53,13,5,4,7,0.4,0.4
2025-06-25T2200,1867A,109.1436,21.4086,北海市,海滩公园,,15,11,23,3,3,48,,59,55,3,4,2,2,0.0,0.1
2025-06-25T2200,1868A,109.0981,21.4661,北海市,新市环保局,,18,,14,7,7,55,,65,61,3,4,2,2,0.3,0.4
2025-06-25T2200,1869A,109.1778,21.5233,北海市,北海工业园,,16,13,17,10,6,51,,67,65,6,6,3,3,0.4,0.4
2025-06-25T2200,3400A,109.1911,21.4415,北海市,龙潭自来水厂,,,,11,,7,,,55,,,4,,4,,0.4
2025-06-25T2200,1001A,116.3621,39.8784,北京市,万寿西宫,臭氧1小时,75,53,67,27,37,180,,284,266,25,20,7,11,0.6,0.8
2025-06-25T2200,1002A,116.2202,40.2915,北京市,定陵,,,,,,,,,,,,,,,,
2025-06-25T2200,1003A,116.4174,39.9289,北京市,东四,臭氧1小时,89,55,70,21,35,191,,300,282,29,26,6,11,0.4,0.7
2025-06-25T2200,1004A,116.4072,39.8863,北京市,天坛,臭氧1小时,67,55,66,28,37,173,,273,254,22,18,7,10,0.6,0.9
2025-06-25T2200,1005A,116.462,39.9365,北京市,农展馆,颗粒物(PM10),53,56,67,24,37,161,,252,238,19,17,7,12,0.8,1.1
2025-06-25T2200,1006A,116.3392,39.9295,北京市,官园,臭氧1小时,62,53,64,27,38,169,,280,263,22,19,7,11,0.5,0.8
2025-06-25T2200,1007A,116.2878,39.9611,北京市,海淀万柳,臭氧1小时,77,52,70,24,40,181,,259,248,21,33,6,9,0.6,0.9
2025-06-25T2200,1008A,116.6636,40.135,北京市,顺义新城,颗粒物(PM10),52,54,73,26,40,160,,234,224,16,19,5,9,0.6,0.9
2025-06-25T2200,1009A,116.6275,40.3275,北京市,怀柔镇,臭氧1小时,89,49,70,25,42,191,,244,235,15,16,3,7,0.5,0.8
2025-06-25T2200,1010A,116.2296,40.217,北京市,昌平镇,臭氧1小时,105,59,69,31,41,209,,265,253,19,15,7,8,0.5,0.7
2025-06-25T2200,1011A,116.3966,39.9821,北京市,奥体中心,臭氧1小时,53,51,67,22,37,162,,240,232,21,21,6,9,0.5,0.8
2025-06-25T2200,3281A,115.9718,40.4529,北京市,延庆夏都,臭氧1小时,120,110,58,42,33,240,,237,237,11,18,7,6,1.0,0.7
2025-06-25T2200,3418A,116.8336,40.4095,北京市,密云新城,臭氧1小时,102,63,65,34,37,203,,232,229,14,15,5,6,0.5,0.7
2025-06-25T2200,3671A,116.088,39.9726,北京市,门头沟三家店,细颗粒物(PM2.5),85,94,57,63,33,141,,245,219,27,15,4,6,1.0,0.7
2025-06-25T2200,3672A,116.1541,39.8204,北京市,丰台云岗,臭氧1小时,90,59,76,29,35,192,,273,258,20,22,5,7,0.6,0.8
2025-06-25T2200,3673A,116.6804,39.9081,北京市,通州东关,臭氧1小时,63,53,71,22,38,170,,257,240,12,14,4,10,0.6,1.1
2025-06-25T2200,3674A,115.9577,39.7603,北京市,房山燕山,臭氧1小时,104,80,64,37,38,207,,256,242,17,16,3,4,0.8,0.7
2025-06-25T2200,3675A,116.4672,39.7733,北京市,大兴旧宫,颗粒物(PM10),52,54,73,25,42,156,,247,232,21,16,4,6,0.6,0.9
2025-06-25T2200,3694A,115.986,40.4563,北京市,延庆石河营,臭氧1小时,121,65,53,43,33,242,,236,236,11,18,4,3,0.9,0.6
2025-06-25T2200,3695A,116.6151,40.3053,北京市,怀柔新城,臭氧1小时,77,50,78,27,47,181,,232,223,13,11,3,6,0.7,1.1
2025-06-25T2200,3696A,116.2545,39.8768,北京市,丰台小屯,臭氧1小时,62,52,67,25,39,169,,241,231,14,14,5,8,0.6,0.9
2025-06-25T2200,3697A,116.84,40.3844,北京市,密云镇,臭氧1小时,100,72,67,30,38,200,,227,226,11,15,6,8,0.7,0.8
2025-06-25T2200,4182A,116.1942,39.9158,北京市,八角北路9号,臭氧1小时,63,61,70,25,38,170,,249,236,23,23,4,7,0.5,0.7
2025-06-25T2200,4194A,117.0790,40.1518,北京市,洳河巡河路,臭氧1小时,54,44,73,25,37,163,,229,220,13,13,6,8,0.7,0.9
2025-06-25T2200,1761A,123.8275,41.3064,本溪市,大峪,,49,49,57,28,30,100,,210,175,20,24,8,10,0.6,1
2025-06-25T2200,1762A,123.7567,41.3325,本溪市,溪湖,细颗粒物(PM2.5),103,104,80,77,35,18,,98,76,30,33,8,8,0.8,1.5
2025-06-25T2200,1763A,123.7169,41.3094,本溪市,彩屯,颗粒物(PM10),61,72,63,37,34,68,,223,176,45,35,12,14,0.7,1.4
2025-06-25T2200,1764A,123.7669,41.2864,本溪市,东明,颗粒物(PM10),58,65,64,26,27,107,,234,200,35,34,18,12,2.7,2
2025-06-25T2200,1765A,123.7992,41.2664,本溪市,新立屯,,45,45,54,19,28,94,,234,186,44,42,10,13,1.5,2.3
2025-06-25T2200,1766A,123.8142,41.3472,本溪市,威宁,颗粒物(PM10),68,86,75,32,31,68,,225,185,44,28,6,8,0.6,0.8
2025-06-25T2200,2587A,105.2864,27.3125,毕节市,八中,,19,14,9,13,8,26,,59,44,15,7,4,5,0.6,0.5
2025-06-25T2200,2588A,105.31,27.2944,毕节市,师专,,25,20,8,17,7,31,,63,52,19,9,3,3,0.5,0.5
2025-06-25T2200,4263A,105.3688,27.3598,毕节市,工业大道,,16,14,6,9,4,49,,68,59,14,10,6,6,0.6,0.6
2025-06-25T2200,1629A,118.0018,37.3617,滨州市,第二水厂,,41,41,67,17,29,100,,248,208,21,22,4,8,0.4,0.5
2025-06-25T2200,1630A,117.9776,37.393,滨州市,北中新校,,37,34,60,17,30,117,,262,221,18,19,17,22,0.5,0.8
2025-06-25T2200,3514A,117.9378,37.3956,滨州市,中海酒店,,,31,64,,38,122,,249,217,13,21,9,15,0.7,0.9
2025-06-25T2200,3515A,117.9378,37.3553,滨州市,开发区一中,,48,48,70,22,29,106,,232,202,22,25,11,15,0.4,0.6
2025-06-25T2200,3516A,118.0917,37.694,滨州市,金海六路,,35,29,55,7,24,111,,244,194,11,22,9,14,0.2,0.4
2025-06-25T2200,4028A,117.9956,37.3753,滨州市,滨州市西街道办事处,,35,34,58,14,32,111,,258,216,13,17,5,9,0.3,0.5
2025-06-25T2200,2311A,115.8072,33.8399,亳州市,污水处理厂,,44,,40,24,25,140,,152,150,8,12,3,4,1.0,0.8
2025-06-25T2200,2312A,115.7789,33.8518,亳州市,三国揽胜宫,,42,40,43,19,27,132,,156,151,6,9,2,3,0.5,0.5
2025-06-25T2200,3332A,115.7633,33.8034,亳州市,亳州学院,细颗粒物(PM2.5),72,,43,52,26,136,,163,157,8,11,3,4,0.5,0.5
2025-06-25T2200,2693A,82.0485,44.8556,博尔塔拉蒙古自治州,市党校,,,18,23,10,12,,,110,109,9,10,3,3,0.3,0.4
2025-06-25T2200,2694A,82.0806,44.8969,博尔塔拉蒙古自治州,市环保局,,30,20,38,10,13,93,,106,104,9,6,3,2,0.3,0.3
2025-06-25T2200,1071A,116.8842,38.2991,沧州市,沧县城建局,细颗粒物(PM2.5),80,,56,59,47,128,,266,227,36,38,1,2,0.5,0.4
2025-06-25T2200,1072A,116.8584,38.3254,沧州市,电视转播站,颗粒物(PM10),60,69,58,41,39,129,,243,220,43,34,3,4,0.5,0.4
2025-06-25T2200,1073A,116.8709,38.3228,沧州市,市环保局,颗粒物(PM10),64,77,69,35,36,116,,248,215,28,29,3,3,0.5,0.5
2025-06-25T2200,3324A,116.8136,38.3004,沧州市,河北水利电力学院,细颗粒物(PM2.5),69,85,75,50,38,173,,292,260,32,36,6,6,0.5,0.4
2025-06-25T2200,2622A,97.1806,31.1273,昌都市,昌都监测站,,32,28,12,13,7,102,,111,111,10,7,5,5,0.2,0.2
2025-06-25T2200,3719A,97.1714,31.1406,昌都市,昌都会议中心,,37,14,14,6,8,116,,122,122,3,4,6,6,0.0,0.1
2025-06-25T2200,2690A,88.1236,43.8886,昌吉回族自治州,天山天池,,28,21,16,10,6,89,,128,124,7,6,5,5,0.6,0.6
2025-06-25T2200,2692A,87.2717,44.0297,昌吉回族自治州,新区政务中心,,37,26,24,8,9,116,,146,142,16,10,3,4,0.3,0.3
2025-06-25T2200,3613A,87.3095,44.0142,昌吉回族自治州,亚心广场,细颗粒物(PM2.5),85,,36,63,13,109,,136,132,24,16,5,7,0.3,0.3
2025-06-25T2200,1120A,125.2863,43.9027,长春市,客车厂,,47,47,65,25,34,77,,218,166,54,57,5,6,0.4,0.7
2025-06-25T2200,1121A,125.2841,43.8463,长春市,邮电学院,,,,56,,29,,,137,,,47,,7,,0.8
2025-06-25T2200,1122A,125.3716,43.8772,长春市,劳动公园,颗粒物(PM10),64,77,75,27,34,70,,209,159,48,47,10,8,0.4,0.6
2025-06-25T2200,1123A,125.3297,43.8805,长春市,园林处,,50,,66,35,37,80,,215,168,44,45,6,7,0.5,0.7
2025-06-25T2200,1124A,125.4605,43.79,长春市,净月潭,,33,28,36,17,19,103,,223,176,22,14,10,7,0.4,0.5
2025-06-25T2200,1125A,125.7194,43.515,长春市,甩湾子,,47,30,33,16,18,16,,213,147,94,51,2,4,0.7,0.8
2025-06-25T2200,1126A,125.3863,43.8447,长春市,经开区环卫处,颗粒物(PM10),51,52,59,23,23,70,,218,166,48,44,8,7,0.4,0.5
2025-06-25T2200,1127A,125.245,43.7783,长春市,高新区管委会,,,72,49,,27,63,,223,166,49,46,4,4,0.7,0.5
2025-06-25T2200,1128A,125.1761,43.8325,长春市,岱山公园,,50,36,84,35,44,56,,216,150,83,74,4,5,0.4,0.6
2025-06-25T2200,4281A,125.3346,43.9164,长春市,北亚泰大街1068号,颗粒物(PM10),53,56,77,27,35,66,,216,163,49,59,5,6,0.7,0.9
2025-06-25T2200,1335A,113.0833,28.2325,长沙市,经开区环保局,颗粒物(PM10),52,54,28,25,18,18,,101,80,61,21,6,4,0.6,0.5
2025-06-25T2200,1336A,112.8872,28.2189,长沙市,高开区环保局,,,70,38,35,21,,,91,78,36,15,3,2,0.9,0.7
2025-06-25T2200,1337A,113.0792,28.2053,长沙市,马坡岭,,50,50,32,27,18,38,,99,81,41,19,5,4,1.0,0.8
2025-06-25T2200,1338A,112.9394,28.19,长沙市,湖南师范大学,,35,35,32,19,19,42,,96,71,9,11,2,2,0.5,0.5
2025-06-25T2200,1339A,113.0178,28.1322,长沙市,雨花区环保局,,49,49,30,19,15,38,,98,81,40,20,5,5,0.4,0.4
2025-06-25T2200,1340A,112.9792,28.2597,长沙市,伍家岭,颗粒物(PM10),59,68,33,24,18,11,,100,68,36,17,2,2,0.7,0.5
2025-06-25T2200,1341A,113.0014,28.1944,长沙市,火车新站,细颗粒物(PM2.5),58,64,32,41,18,20,,95,73,48,18,7,7,1.0,0.7
2025-06-25T2200,1342A,112.9844,28.1178,长沙市,天心区环保局,颗粒物(PM10),52,53,30,30,19,43,,106,86,33,18,1,2,1.5,1.3
2025-06-25T2200,1343A,112.8908,28.1308,长沙市,湖南中医药大学,细颗粒物(PM2.5),52,50,33,36,19,2,,90,57,35,14,3,3,0.7,0.7
2025-06-25T2200,1344A,112.9581,28.3611,长沙市,沙坪,,29,29,21,20,13,32,,96,67,10,10,4,4,0.6,0.6
2025-06-25T2200,1727A,113.1147,36.1547,长治市,清华站,,44,28,34,17,15,139,,148,145,8,15,8,7,0.6,0.6
2025-06-25T2200,1730A,113.0886,36.2125,长治市,审计局,,46,28,31,22,16,145,,150,150,12,19,10,10,0.7,0.8
2025-06-25T2200,1731A,113.0844,36.1856,长治市,长治八中,,,33,44,22,23,,,158,158,11,17,13,12,0.5,0.7
2025-06-25T2200,2845A,113.1569,36.1911,长治市,德盛苑,,44,27,28,17,14,139,,157,149,7,10,10,9,0.8,0.6
2025-06-25T2200,3568A,113.06,36.0464,长治市,向阳小学,,,53,53,33,19,,,159,157,,10,8,7,0.6,0.6
2025-06-25T2200,3569A,112.8792,36.3144,长治市,屯留一中,颗粒物(PM10),56,61,54,37,29,134,,153,147,13,18,8,8,0.4,0.2
2025-06-25T2200,4189A,113.1131,36.19948,长治市,英华南巷50号,,44,36,38,19,18,139,,147,145,11,17,8,8,0.5,0.6
2025-06-25T2200,4190A,113.2367,36.3344,长治市,学府街1号,,50,50,51,17,21,133,,163,150,9,28,4,6,0.5,0.7
2025-06-25T2200,1854A,111.6975,28.9703,常德市,市二中,,36,29,23,25,19,67,,88,80,10,10,4,5,0.8,0.8
2025-06-25T2200,1857A,111.7158,29.1456,常德市,白鹤山,,,,,,,,,,,,,,,,
2025-06-25T2200,3138A,111.7153,29.0289,常德市,武陵区永安,,28,28,25,19,20,70,,83,76,8,6,3,2,0.4,0.4
2025-06-25T2200,3139A,111.6892,28.9881,常德市,鼎城区玉霞,,30,30,26,21,18,69,,89,80,7,7,4,4,0.6,0.6
2025-06-25T2200,3140A,111.6625,29.0531,常德市,武陵区长庚,,33,23,24,23,21,66,,82,74,8,7,2,3,0.6,0.5
2025-06-25T2200,1196A,119.9633,31.762,常州市,市监测站,颗粒物(PM10),58,65,54,31,28,124,,192,162,34,43,12,8,0.6,0.7
2025-06-25T2200,1200A,119.9468,31.7069,常州市,武进监测站,细颗粒物(PM2.5),53,45,41,37,29,129,,152,142,17,24,29,11,0.9,0.9
2025-06-25T2200,1201A,119.9255,31.9087,常州市,安家,,49,49,60,28,28,65,,220,162,40,41,9,9,0.6,0.7
2025-06-25T2200,3002A,119.9805,31.8174,常州市,行政中心,颗粒物(PM10),55,59,57,27,28,121,,210,176,19,28,16,9,0.5,0.6
2025-06-25T2200,3003A,120.0522,31.7748,常州市,经开区,颗粒物(PM10),53,55,62,29,27,120,,209,173,24,41,7,8,0.5,0.6
2025-06-25T2200,3010A,119.9025,31.7964,常州市,钟楼,颗粒物(PM10),58,65,48,33,27,123,,163,138,17,32,8,7,0.7,0.8
2025-06-25T2200,3429A,119.8598,31.7066,常州市,武进经发区,,,60,53,28,27,123,,148,135,17,24,5,7,,0.8
2025-06-25T2200,3430A,119.5826,31.7245,常州市,金坛城区,细颗粒物(PM2.5),60,56,38,43,25,135,,165,155,25,18,6,7,0.6,0.5
2025-06-25T2200,2220A,120.4318,41.5881,朝阳市,西梁,,39,30,46,27,29,112,,175,164,26,24,7,11,0.7,0.8
2025-06-25T2200,2221A,120.4521,41.5646,朝阳市,河畔小区,,42,24,40,15,21,134,,178,171,18,17,7,9,0.2,0.4
2025-06-25T2200,2222A,120.4176,41.5648,朝阳市,八里堡,颗粒物(PM10),51,52,53,23,31,115,,187,173,28,22,5,9,0.6,0.9
2025-06-25T2200,2223A,120.3806,41.5969,朝阳市,农业园区,,29,29,39,17,24,85,,169,149,27,20,4,5,0.4,0.5
2025-06-25T2200,1705A,116.6367,23.6719,潮州市,西园路,,35,35,31,8,16,30,,101,53,12,13,8,6,0.6,0.5
2025-06-25T2200,3026A,116.6183,23.6608,潮州市,市政府,,17,17,25,11,14,30,,98,54,10,10,3,6,0.7,0.8
2025-06-25T2200,4036A,116.6461,23.6761,潮州市,金山,,20,20,27,10,17,32,,92,54,10,10,8,6,0.6,0.6
2025-06-25T2200,2472A,113.0073,25.9061,郴州市,马头岭,,25,25,27,11,10,74,,96,90,14,15,8,10,0.4,0.4
2025-06-25T2200,2473A,113.0116,25.8226,郴州市,市职中,,,26,22,22,22,,,102,99,12,13,7,8,0.4,0.5
2025-06-25T2200,2475A,113.0383,25.8071,郴州市,市审计局,,45,45,27,20,16,70,,103,94,15,11,23,12,0.4,0.4
2025-06-25T2200,2476A,113.0348,25.7759,郴州市,市环保局,,41,41,32,21,13,81,,106,102,16,15,24,8,0.2,0.2
2025-06-25T2200,4252A,113.0138,25.8011,郴州市,好美居路49号,,,,26,,14,,,107,104,14,12,11,6,0.4,0.4
2025-06-25T2200,1431A,103.9728,30.7236,成都市,金泉两河,,37,37,21,11,9,94,,161,153,24,14,2,2,0.4,0.4
2025-06-25T2200,1432A,104.176,30.6872,成都市,十里店,,30,25,20,21,11,77,,140,127,20,12,4,4,0.5,0.5
2025-06-25T2200,1433A,104.079,30.5706,成都市,三瓦窑,,29,18,21,18,14,92,,164,149,22,19,3,3,0.5,0.5
2025-06-25T2200,1434A,104.1114,30.63,成都市,沙河铺,,24,24,24,14,11,59,,122,107,20,12,4,4,0.5,0.5
2025-06-25T2200,1437A,104.0786,30.6531,成都市,君平街,,39,33,25,27,15,61,,113,105,19,15,4,4,0.7,0.7
2025-06-25T2200,1438A,103.613,31.0283,成都市,灵岩寺,,,,,,,,,,,,,,,,
2025-06-25T2200,2880A,104.0239,30.65639,成都市,大石西路,,43,43,29,19,14,78,,155,143,23,13,5,4,0.8,0.7
2025-06-25T2200,3136A,104.2725,30.5589,成都市,龙泉驿区区政府,,29,19,10,9,8,92,,123,114,12,9,3,3,0.7,0.6
2025-06-25T2200,3357A,104.0106,30.6931,成都市,金博路,,25,22,15,3,9,80,,151,142,20,17,3,3,0.7,0.6
2025-06-25T2200,3359A,104.0578,30.5225,成都市,华阳,,25,17,17,17,14,74,,136,121,21,17,6,6,0.8,0.7
2025-06-25T2200,3488A,104.3853,30.7453,成都市,青白江技师分院,,38,38,23,16,12,83,,121,109,19,14,4,4,0.6,0.6
2025-06-25T2200,3489A,104.0789,30.4072,成都市,科学城,,31,14,16,10,12,99,,134,126,8,9,3,3,0.6,0.6
2025-06-25T2200,4011A,103.8506,30.6947,成都市,光华大道三段,,43,43,33,28,24,126,,149,149,17,13,4,4,0.4,0.4
2025-06-25T2200,4224A,104.2433,30.5353,成都市,鲸龙路1057号,,34,19,19,13,14,108,,127,121,9,12,7,7,0.7,0.6
2025-06-25T2200,1062A,117.9531,40.9081,承德市,铁路,颗粒物(PM10),62,73,66,33,40,159,,208,186,22,16,6,8,0.9,0.9
2025-06-25T2200,1063A,117.9392,40.9763,承德市,中国银行,颗粒物(PM10),64,77,60,41,42,156,,208,192,14,13,3,5,0.8,0.7
2025-06-25T2200,1064A,117.9503,40.928,承德市,开发区,臭氧1小时,70,64,68,39,34,176,,216,197,16,15,8,12,0.9,0.9
2025-06-25T2200,1065A,117.8051,40.9655,承德市,文化中心,颗粒物(PM10),58,65,81,36,41,123,,221,184,26,23,4,15,0.9,0.9
2025-06-25T2200,1066A,117.9268,41.0026,承德市,离宫,细颗粒物(PM2.5),67,55,52,48,34,125,,204,164,10,12,2,4,0.8,0.6
2025-06-25T2200,2314A,117.47,30.6618,池州市,池州学院,,38,38,26,24,15,57,,126,111,38,14,5,5,0.7,0.6
2025-06-25T2200,3237A,117.4918,30.6617,池州市,展览馆,,31,31,27,15,14,59,,126,112,18,13,4,4,0.8,0.7
2025-06-25T2200,3333A,117.5627,30.695,池州市,第八中学,,43,43,28,26,16,60,,139,118,28,13,5,5,0.6,0.6
2025-06-25T2200,3334A,117.5038,30.6243,池州市,第十二中学,,23,23,28,14,15,73,,138,119,9,18,3,3,0.8,0.9
2025-06-25T2200,1744A,118.9233,42.2816,赤峰市,松山一中,颗粒物(PM10),52,53,46,25,28,117,,188,172,32,19,12,14,0.9,0.8
2025-06-25T2200,1745A,118.9576,42.2728,赤峰市,哈达街,,45,40,44,20,24,141,,180,170,23,21,14,17,0.9,0.8
2025-06-25T2200,1746A,118.8788,42.2554,赤峰市,天义路,细颗粒物(PM2.5),53,44,38,37,34,134,,196,178,25,15,16,17,0.8,0.7
2025-06-25T2200,3058A,119.2658,42.0353,赤峰市,银河街,颗粒物(PM10),62,74,56,33,33,126,,183,162,17,15,29,16,0.7,0.8
2025-06-25T2200,3286A,118.9359,42.3147,赤峰市,桥北物流园区,颗粒物(PM10),57,64,54,30,35,84,,187,160,50,20,18,20,0.6,0.6
2025-06-25T2200,2521A,107.3476,22.4136,崇左市,市环保局江州分局,,20,15,22,9,9,63,,88,84,6,8,5,5,0.6,0.6
2025-06-25T2200,4256A,107.3750,22.3736,崇左市,石景林东路7号,,,,20,7,8,59,,88,85,8,11,3,3,0.5,0.5
2025-06-25T2200,2298A,118.3093,32.3153,滁州市,老年大学,,40,39,39,21,23,126,,190,172,12,17,8,9,0.6,0.5
2025-06-25T2200,2299A,118.3244,32.2786,滁州市,人大宾馆,,,,31,,24,,,184,182,,15,,6,,0.4
2025-06-25T2200,3207A,118.3118,32.3038,滁州市,市政府原办公楼,,49,39,36,34,31,142,,192,175,12,14,5,5,0.8,0.6
2025-06-25T2200,3331A,118.3267,32.2634,滁州市,图书馆,细颗粒物(PM2.5),52,38,28,36,25,126,,181,171,19,11,9,9,0.8,0.5
2025-06-25T2200,2605A,101.5482,25.0441,楚雄彝族自治州,州环境监测站,,19,17,9,13,4,8,,35,26,20,6,9,7,0.5,0.3
2025-06-25T2200,2606A,101.538,25.0492,楚雄彝族自治州,市经济开发区,,28,28,13,16,6,9,,34,26,17,5,9,6,0.5,0.4
2025-06-25T2200,2548A,107.5277,31.2827,达州市,达州职业技术学院,,19,19,18,3,3,37,,74,62,23,10,7,6,0.5,0.5
2025-06-25T2200,2549A,107.5086,31.2186,达州市,市环境监测站,,21,9,14,3,2,66,,91,70,12,14,13,6,0.2,0.3
2025-06-25T2200,2550A,107.4988,31.2132,达州市,凤凰小区,,22,9,11,3,4,69,,93,74,11,11,14,5,0.2,0.2
2025-06-25T2200,2551A,107.5082,31.1986,达州市,达县机关宾馆,,20,12,10,3,5,62,,86,60,12,16,7,6,0.2,0.3
2025-06-25T2200,2552A,107.4644,31.2124,达州市,市政中心,,23,23,19,3,3,49,,80,66,13,10,3,3,0.5,0.4
2025-06-25T2200,2614A,100.1542,25.7054,大理白族自治州,大理市环境监测站,,18,,6,12,13,33,,34,32,8,4,5,5,0.6,0.5
2025-06-25T2200,2615A,100.2171,25.5811,大理白族自治州,大理古城,,32,,14,22,8,24,,44,36,12,7,9,9,0.9,0.7
2025-06-25T2200,1109A,121.612,38.9741,大连市,甘井子,,23,23,37,10,18,72,,106,85,22,27,10,8,0.5,0.6
2025-06-25T2200,1110A,121.565,38.9511,大连市,周水子,,29,24,32,12,16,91,,112,95,10,28,10,12,0.3,0.4
2025-06-25T2200,1111A,121.5637,38.8845,大连市,星海三站,,28,26,30,8,17,89,,109,98,5,11,4,6,0.2,0.3
2025-06-25T2200,1112A,121.6302,38.9117,大连市,青泥洼桥,,27,21,30,10,16,85,,114,99,5,18,7,8,0.4,0.4
2025-06-25T2200,1113A,121.6251,38.8638,大连市,傅家庄,,28,23,28,8,17,89,,106,93,6,14,10,11,0.2,0.3
2025-06-25T2200,1114A,121.5213,38.8661,大连市,七贤岭,,30,20,27,11,15,95,,124,108,6,11,7,7,0.5,0.6
2025-06-25T2200,1115A,121.2529,38.8061,大连市,旅顺,,27,17,21,7,14,84,,115,95,7,13,5,5,0.3,0.3
2025-06-25T2200,1116A,121.7485,39.1311,大连市,金州,,28,22,36,8,16,89,,114,92,11,22,8,11,0.2,0.3
2025-06-25T2200,1117A,121.7811,39.0496,大连市,开发区,,29,20,37,9,20,90,,106,90,11,36,10,12,0.4,0.5
2025-06-25T2200,1118A,121.9762,39.0631,大连市,双D港,,24,7,19,7,13,74,,122,92,13,16,8,9,0.3,0.4
2025-06-25T2200,1789A,124.81117,46.03138,大庆市,大同区,颗粒物(PM10),51,52,45,16,19,122,,151,135,14,11,6,7,0.6,0.5
2025-06-25T2200,1790A,125.129,46.533,大庆市,龙凤区,,43,43,40,25,20,98,,170,140,21,13,9,6,0.5,0.4
2025-06-25T2200,1791A,124.902,46.408,大庆市,红岗区,,50,45,41,35,24,114,,184,156,19,12,9,9,0.9,0.6
2025-06-25T2200,1792A,125.153,46.586,大庆市,萨尔图区,,45,45,45,22,23,89,,154,133,19,14,10,10,0.4,0.5
2025-06-25T2200,1793A,124.9042,46.6215,大庆市,让胡路区,,46,46,42,32,24,100,,174,142,24,15,7,6,0.4,0.3
2025-06-25T2200,3481A,125.141,46.634,大庆市,萨区政府监测点,,48,48,47,17,18,115,,182,157,16,10,8,8,0.4,0.4
2025-06-25T2200,1721A,113.3819,40.1097,大同市,果树场,,,,,,,,,,,,,,,,
2025-06-25T2200,1723A,113.2994,40.0758,大同市,云冈宾馆,,50,43,52,22,23,160,,165,164,15,20,6,6,0.6,0.8
2025-06-25T2200,1724A,113.3444,40.0917,大同市,大同大学,,45,42,40,23,21,141,,181,176,29,20,11,10,0.4,0.5
2025-06-25T2200,1725A,113.2661,40.1269,大同市,安家小村,颗粒物(PM10),52,53,54,22,24,159,,172,171,19,20,5,6,0.5,0.8
2025-06-25T2200,1726A,113.2711,40.0844,大同市,教育学院,臭氧1小时,62,50,54,25,25,169,,175,174,14,24,8,10,0.4,0.6
2025-06-25T2200,3282A,113.3397,40.0597,大同市,大同市卫生学校,,48,47,47,25,22,153,,166,162,20,18,7,8,0.5,0.6
2025-06-25T2200,3565A,113.1367,40.1122,大同市,云冈站,颗粒物(PM10),53,55,68,24,28,111,,169,157,22,24,5,6,0.5,0.5
2025-06-25T2200,3566A,113.1186,40.2556,大同市,图书馆,,39,39,41,24,24,116,,162,149,14,12,8,9,0.6,0.7
2025-06-25T2200,3567A,113.5931,40.0461,大同市,区一中,,47,29,35,27,22,149,,171,160,21,12,13,12,0.4,0.4
2025-06-25T2200,4199A,113.2798,40.0997,大同市,魏都大道141号,臭氧1小时,69,34,60,28,25,175,,177,176,12,20,8,9,0.6,1
2025-06-25T2200,2269A,124.1069,50.4097,大兴安岭地区,科技局,颗粒物(PM10),54,57,33,14,14,37,,96,79,8,6,11,9,0.6,0.5
2025-06-25T2200,3663A,124.1164,50.4278,大兴安岭地区,红旗社区,,33,27,17,23,16,28,,104,86,12,7,6,6,0.4,0.3
2025-06-25T2200,1600A,124.3303,40.0625,丹东市,江湾东路,,27,27,47,14,21,78,,96,89,15,18,5,9,0.6,0.8
2025-06-25T2200,1601A,124.4256,40.1503,丹东市,临江后街,颗粒物(PM10),57,64,70,19,17,63,,100,86,18,19,9,9,0.9,0.9
2025-06-25T2200,1602A,124.3933,40.1461,丹东市,元宝山,,21,20,43,11,22,66,,92,86,10,15,6,8,0.5,0.7
2025-06-25T2200,1603A,124.3633,40.1092,丹东市,民主桥,,25,25,49,9,23,73,,95,89,10,16,8,9,0.9,1
2025-06-25T2200,3541A,109.5726,19.5167,儋州市,第一中学子站,,17,17,10,9,5,32,,39,38,3,4,6,6,0.4,0.5
2025-06-25T2200,3542A,109.5567,19.5187,儋州市,东坡学校子站,,17,17,7,3,4,34,,42,41,4,3,6,6,0.8,0.8
2025-06-25T2200,2616A,98.5842,24.428,德宏傣族景颇族自治州,德宏州监测站,,20,20,19,11,8,12,,45,38,10,8,7,7,0.9,0.8
2025-06-25T2200,3677A,98.5881,24.4368,德宏傣族景颇族自治州,芒市人民政府综合楼,,27,27,23,9,6,11,,43,35,7,6,7,8,0.6,0.5
2025-06-25T2200,1901A,104.4239,31.1208,德阳市,东山公园,,,,15,,12,106,,130,127,,9,5,4,0.7,0.7
2025-06-25T2200,1902A,104.3826,31.1317,德阳市,西小区,,32,32,25,22,15,85,,125,115,24,13,4,5,0.8,0.7
2025-06-25T2200,1904A,104.3553,31.1091,德阳市,耐火材料厂,,38,36,22,26,13,70,,130,116,30,13,2,2,0.5,0.4
2025-06-25T2200,3639A,104.4019,31.1244,德阳市,市教育局,,30,30,21,21,14,84,,140,128,23,10,12,25,0.8,0.6
2025-06-25T2200,1622A,116.3032,37.4674,德州市,儿童乐园,颗粒物(PM10),57,63,63,27,30,161,,248,222,14,13,8,10,0.5,0.5
2025-06-25T2200,1624A,116.2991,37.4451,德州市,监理站,颗粒物(PM10),56,61,61,19,29,156,,242,218,13,19,9,10,0.3,0.4
2025-06-25T2200,3066A,116.2721,37.4379,德州市,九衢泉纯净水厂,颗粒物(PM10),54,58,63,27,32,131,,225,198,24,28,5,5,0.6,0.6
2025-06-25T2200,3371A,116.3728,37.4403,德州市,开发区人民医院,颗粒物(PM10),57,63,62,27,28,154,,234,211,21,20,9,10,0.6,0.6
2025-06-25T2200,3372A,116.3572,37.4094,德州市,太阳城中学,,,,,,,,,,,,,,,,
2025-06-25T2200,3511A,116.5652,37.3319,德州市,陵城艺术中心,颗粒物(PM10),56,61,73,29,33,150,,231,206,19,19,8,7,0.8,0.8
2025-06-25T2200,2621A,99.7056,27.8317,迪庆藏族自治州,迪庆州站,,30,23,16,18,11,96,,119,119,12,9,7,7,0.4,0.3
2025-06-25T2200,3180A,99.7136,27.8094,迪庆藏族自治州,质量技术监督局,,,18,14,13,8,,,118,118,12,10,6,6,0.3,0.4
2025-06-25T2200,4257A,104.6092,35.5962,定西市,将台街,,39,39,27,19,12,75,,124,116,27,9,5,4,0.2,0.1
2025-06-25T2200,4309A,104.6159,35.5701,定西市,正龙路62号,,42,30,23,29,14,96,,124,120,8,4,4,4,0.2,0.2
2025-06-25T2200,1389A,113.7547,23.0494,东莞市,莞城梨川,,21,21,23,10,14,30,,178,125,17,21,6,6,0.4,0.5
2025-06-25T2200,1390A,113.7944,23.0128,东莞市,东城石井,,19,19,20,7,11,19,,146,100,24,25,3,3,0.4,0.4
2025-06-25T2200,1391A,113.7383,22.9658,东莞市,南城西平,,24,24,18,6,11,24,,158,118,24,22,3,3,0.5,0.6
2025-06-25T2200,3319A,113.7338,23.0381,东莞市,万江金泰,,20,20,21,10,14,24,,162,118,18,21,3,3,0.5,0.5
2025-06-25T2200,3626A,113.7533,23.0202,东莞市,南城元岭,,20,20,19,9,11,25,,161,118,24,22,4,4,0.4,0.4
2025-06-25T2200,3627A,113.7875,23.0457,东莞市,东城主山,,21,21,30,9,11,28,,164,118,16,22,7,7,0.7,0.6
2025-06-25T2200,1666A,118.6614,37.4309,东营市,市环保局,,44,29,50,9,23,138,,230,176,16,25,5,15,0.4,0.6
2025-06-25T2200,3036A,118.6904,37.4338,东营市,开发区管委会,,41,28,54,3,22,129,,231,166,13,26,6,13,0.3,0.5
2025-06-25T2200,3365A,118.5719,37.565,东营市,垦利区民丰路,,41,34,54,12,23,129,,232,166,16,22,8,10,0.6,0.8
2025-06-25T2200,3498A,118.5055,37.8612,东营市,河口城区,,38,24,42,10,17,121,,213,162,12,16,6,8,0.8,0.9
2025-06-25T2200,3646A,118.4978,37.4623,东营市,胜利站,,44,24,51,7,22,138,,245,179,12,28,9,14,0.6,0.8
2025-06-25T2200,3734A,118.35,37.26,东营市,理想之城,,45,24,47,14,24,143,,254,186,10,25,6,11,0.5,0.8
2025-06-25T2200,1591A,110.0023,39.8129,鄂尔多斯市,综合楼,,39,29,37,19,18,124,,148,146,30,26,4,7,0.8,0.6
2025-06-25T2200,1592A,109.9486,39.8261,鄂尔多斯市,巴音孟克林场办事处,,43,27,46,19,20,135,,158,155,21,21,1,6,0.5,0.5
2025-06-25T2200,1593A,109.7736,39.5986,鄂尔多斯市,康泽苑,,40,36,42,9,16,126,,154,147,15,19,10,11,0.3,0.3
2025-06-25T2200,1594A,109.8119,39.5989,鄂尔多斯市,华泰汽车城,,36,31,47,17,19,115,,129,125,15,28,3,6,0.5,0.5
2025-06-25T2200,1595A,109.9734,39.7884,鄂尔多斯市,奥林花园,,39,34,46,27,22,111,,153,146,29,27,6,9,0.5,0.4
2025-06-25T2200,2436A,114.8938,30.3994,鄂州市,市政府,颗粒物(PM10),59,68,49,25,24,79,,132,118,7,9,6,7,1.1,0.8
2025-06-25T2200,2437A,114.8989,30.3714,鄂州市,赵家坝,,50,50,34,23,17,78,,139,122,14,12,10,10,0.9,0.6
2025-06-25T2200,3654A,114.8094,30.4089,鄂州市,精准医疗中心,,42,42,38,24,21,74,,129,112,15,22,6,10,0.9,1.1
2025-06-25T2200,2454A,109.4978,30.2981,恩施土家族苗族自治州,湖北民院,,23,17,21,16,15,56,,96,79,13,6,4,4,0.5,0.4
2025-06-25T2200,2455A,109.4707,30.2798,恩施土家族苗族自治州,州电力总公司,,14,14,15,7,11,42,,80,60,12,9,7,6,0.5,0.5
2025-06-25T2200,3549A,109.5061,30.3772,恩施土家族苗族自治州,龙凤新区,,14,14,18,6,13,38,,91,71,8,7,3,3,0.5,0.4
2025-06-25T2200,2499A,108.3411,21.6158,防城港市,沙万,,18,18,23,9,8,32,,58,47,14,13,1,2,0.5,0.7
2025-06-25T2200,2500A,108.3514,21.7731,防城港市,防城档案局,,,,33,27,10,34,,69,58,6,13,2,3,,0.7
2025-06-25T2200,2501A,108.3506,21.6414,防城港市,大海花园,,13,,23,9,10,39,,72,58,9,10,2,5,0.4,0.5
2025-06-25T2200,1371A,113.1294,23.0067,佛山市,湾梁,,16,12,18,11,11,38,,126,104,28,17,8,9,0.4,0.5
2025-06-25T2200,1372A,113.1083,23.0478,佛山市,华材职中,,16,12,15,11,7,49,,139,118,19,11,7,11,0.4,0.5
2025-06-25T2200,1373A,113.144,23.0453,佛山市,南海气象局,,15,13,21,10,11,38,,130,108,26,16,3,8,0.7,0.7
2025-06-25T2200,1374A,113.2881,22.8094,佛山市,顺德苏岗,,18,18,22,3,6,25,,116,94,21,14,7,8,0.6,0.6
2025-06-25T2200,1376A,112.8383,22.8678,佛山市,高明孔堂,,31,31,19,9,7,63,,139,123,13,8,6,6,0.5,0.6
2025-06-25T2200,1377A,112.8836,23.1588,佛山市,三水监测站,,24,24,23,3,11,55,,135,120,38,27,3,4,0.5,0.6
2025-06-25T2200,1378A,112.867,23.185,佛山市,三水云东海,,31,31,27,15,13,70,,160,144,38,24,2,2,0.4,0.5
2025-06-25T2200,3625A,113.2544,22.7642,佛山市,容桂街道办,,12,9,12,3,6,27,,113,90,24,20,6,8,0.7,0.7
2025-06-25T2200,1280A,119.3903,26.0543,福州市,鼓山,,,,,,,,,,,,,,,,
2025-06-25T2200,1282A,119.2681,26.0504,福州市,师大,,30,30,30,8,11,44,,143,104,17,10,5,4,0.2,0.2
2025-06-25T2200,1283A,119.2984,26.1028,福州市,五四北路,,30,30,29,7,12,56,,145,111,18,14,6,4,0.3,0.3
2025-06-25T2200,1284A,119.2648,26.0768,福州市,杨桥西路,,29,29,29,7,12,50,,148,112,18,11,4,4,0.3,0.3
2025-06-25T2200,1285A,119.317,26.0746,福州市,紫阳,,22,22,35,6,12,50,,132,92,18,18,6,5,0.3,0.3
2025-06-25T2200,3048A,119.5799,26.0936,福州市,九龙,,,15,27,3,14,,,140,,5,13,4,5,0.2,0.3
2025-06-25T2200,3526A,119.5189,25.9664,福州市,吴航,,21,21,27,12,16,41,,136,88,13,13,5,5,0.3,0.4
2025-06-25T2200,1755A,123.7977,41.8491,抚顺市,望花区,,47,39,73,20,34,149,,228,201,23,41,8,13,0.5,0.9
2025-06-25T2200,1756A,123.9161,41.8822,抚顺市,顺城区,,50,50,59,24,28,147,,227,205,29,42,9,9,0.7,0.8
2025-06-25T2200,1757A,124.0436,41.8611,抚顺市,东洲区,,46,,38,29,26,146,,228,206,22,18,8,9,0.7,0.7
2025-06-25T2200,1758A,123.9247,41.8642,抚顺市,新抚区,,48,41,57,21,27,153,,230,207,19,34,8,9,0.6,0.8
2025-06-25T2200,1759A,124.0972,41.8961,抚顺市,大伙房水库,,45,36,33,23,23,141,,202,188,17,21,7,8,0.5,0.6
2025-06-25T2200,1760A,123.7086,41.8391,抚顺市,沈抚新城,,48,48,52,18,34,106,,231,193,38,43,5,9,0.6,0.8
2025-06-25T2200,2376A,116.2127,28.0814,抚州市,桐源党溪,,26,26,30,18,14,18,,80,56,2,2,4,10,0.4,0.6
2025-06-25T2200,2377A,116.3544,27.9831,抚州市,市站,,24,24,23,12,11,40,,72,55,8,8,1,7,0.9,1
2025-06-25T2200,2378A,116.3565,27.963,抚州市,血防站,,24,24,26,13,15,40,,73,54,12,9,3,6,0.6,0.6
2025-06-25T2200,2379A,116.3564,28.0007,抚州市,采茶剧团,,44,44,25,10,9,38,,71,57,5,4,4,5,0.5,0.4
2025-06-25T2200,2380A,116.385,27.9647,抚州市,医学分院,,18,17,24,12,9,45,,72,58,2,3,3,8,0.6,0.7
2025-06-25T2200,2207A,121.6094,41.998,阜新市,工业园区,颗粒物(PM10),59,68,48,19,28,59,,173,150,61,41,15,12,0.6,0.5
2025-06-25T2200,2208A,121.6697,42.0279,阜新市,长青街,,46,46,41,21,20,99,,156,145,30,27,16,13,0.7,0.7
2025-06-25T2200,2209A,121.6673,42.0705,阜新市,农业园区,,42,41,42,19,19,134,,155,139,20,16,17,17,0.8,0.7
2025-06-25T2200,2210A,121.6717,42.0224,阜新市,东苑,颗粒物(PM10),54,57,49,32,22,77,,161,149,44,32,22,18,0.8,0.8
2025-06-25T2200,2211A,121.6506,42.0498,阜新市,玉龙新城,颗粒物(PM10),60,70,48,19,18,10,,150,112,92,42,8,8,0.8,0.7
2025-06-25T2200,2301A,115.8277,32.8929,阜阳市,市监测站,,29,26,38,16,26,92,,146,120,11,12,2,3,0.4,0.4
2025-06-25T2200,2303A,115.8554,32.8605,阜阳市,开发区,,36,36,47,13,19,100,,150,122,14,15,5,6,0.2,0.2
2025-06-25T2200,2875A,115.784,32.8892,阜阳市,阜阳职业技术学院,,46,,30,32,22,103,,152,134,11,9,4,4,0.3,0.3
2025-06-25T2200,3468A,115.7901,32.8613,阜阳市,市规划展馆,,39,36,43,27,30,90,,150,124,12,11,3,3,0.4,0.4
2025-06-25T2200,3469A,115.836,32.9183,阜阳市,枣园社区,,,,40,,26,82,,146,122,15,14,4,5,0.4,0.5
2025-06-25T2200,2669A,102.9099,34.9841,甘南藏族自治州,州政府,颗粒物(PM10),56,61,19,23,13,51,,119,110,46,10,5,4,0.5,0.3
2025-06-25T2200,3380A,102.8914,34.9617,甘南藏族自治州,甘肃民族师范学院,颗粒物(PM10),105,160,32,44,14,3,,125,109,84,27,10,8,0.4,0.3
2025-06-25T2200,2570A,101.9603,30.0475,甘孜藏族自治州,水桥子,,20,20,13,3,5,37,,68,65,23,19,4,5,0.4,0.4
2025-06-25T2200,3065A,101.9533,29.9972,甘孜藏族自治州,州环保局,,24,24,16,12,5,17,,76,66,35,19,2,2,0.4,0.4
2025-06-25T2200,3414A,115.8347,28.932,赣江新区,桑海产业园,,25,19,22,17,11,52,,137,119,16,17,7,6,0.6,0.5
2025-06-25T2200,2362A,114.9017,25.9149,赣州市,通天岩,,30,30,47,3,4,62,,94,71,4,5,3,3,0.4,0.3
2025-06-25T2200,2363A,114.9367,25.8664,赣州市,地委,,26,26,20,15,13,65,,108,90,8,10,1,5,0.5,0.6
2025-06-25T2200,2364A,114.9461,25.8481,赣州市,气象台,,24,24,20,12,9,64,,103,86,4,8,8,7,0.2,0.4
2025-06-25T2200,2365A,114.9322,25.8333,赣州市,市图书馆,,33,,19,23,13,61,,112,88,8,11,3,4,0.6,0.4
2025-06-25T2200,2366A,114.8905,25.8471,赣州市,华坚鞋城,,30,30,24,14,12,69,,106,90,7,12,4,4,0.3,0.3
2025-06-25T2200,3109A,115.0093,25.8613,赣州市,赣县区卫计委,,18,18,22,12,15,54,,92,74,9,13,2,2,0.1,0.1
2025-06-25T2200,2683A,106.2319,36.1417,固原市,马园,,28,13,22,7,14,89,,122,104,21,19,6,15,0.6,0.6
2025-06-25T2200,2684A,106.2792,36.0022,固原市,监测站,,32,7,15,6,11,100,,128,110,7,7,4,6,0.2,0.2
2025-06-25T2200,2685A,106.2375,36.0211,固原市,新区,,29,,17,10,12,92,,125,105,9,8,7,5,0.4,0.4
2025-06-25T2200,3522A,106.2177,35.9959,固原市,原州区十五小,,28,7,19,3,14,87,,128,104,10,8,10,10,0.2,0.2
2025-06-25T2200,2543A,106.6308,30.5278,广安市,小平旧居,,,,,,,,,,,,,,,,
2025-06-25T2200,2544A,106.6303,30.4576,广安市,市委,细颗粒物(PM2.5),64,,7,46,11,61,,70,68,13,11,1,1,0.5,0.5
2025-06-25T2200,2545A,106.6271,30.4663,广安市,友谊中学,,23,18,14,7,8,72,,85,81,16,11,6,6,0.9,0.8
2025-06-25T2200,2547A,106.6388,30.4551,广安市,广电花园,,19,12,12,10,53,58,,70,65,11,8,2,2,0.5,0.5
2025-06-25T2200,2902A,106.6351,30.4865,广安市,北辰小学,,,,6,,7,69,,76,73,,7,6,7,0.7,0.7
2025-06-25T2200,2523A,105.8945,32.4535,广元市,黑石坡,,28,17,14,8,7,88,,104,100,6,6,7,8,0.3,0.3
2025-06-25T2200,2524A,105.821,32.4444,广元市,老城,,,16,13,8,7,,,122,121,30,10,5,2,0.5,0.8
2025-06-25T2200,2526A,105.8628,32.4287,广元市,监测站,,32,17,13,13,8,102,,120,117,11,9,6,7,0.5,0.5
2025-06-25T2200,3617A,105.8047,32.4166,广元市,经开区,,27,15,15,7,9,86,,121,113,21,9,3,3,0.5,0.4
2025-06-25T2200,1345A,113.2347,23.1423,广州市,广雅中学,,21,21,23,9,11,43,,161,136,26,18,3,3,0.5,0.6
2025-06-25T2200,1346A,113.2612,23.105,广州市,市五中,,,,18,,8,,,81,,,19,,5,,0.5
2025-06-25T2200,1348A,113.3478,23.0916,广州市,广东商学院,,20,20,21,12,10,42,,164,139,27,24,3,5,0.4,0.5
2025-06-25T2200,1349A,113.4332,23.1047,广州市,市八十六中,,25,15,20,6,9,23,,156,128,50,31,4,4,0.4,0.4
2025-06-25T2200,1350A,113.3505,22.9483,广州市,番禺中学,,15,15,16,7,7,34,,138,112,20,16,7,8,0.3,0.4
2025-06-25T2200,1351A,113.2146,23.3916,广州市,花都师范,,42,42,33,16,15,98,,222,207,45,24,4,5,0.7,0.4
2025-06-25T2200,1352A,113.2597,23.1331,广州市,市监测站,,18,18,22,8,10,44,,153,131,16,10,5,6,0.3,0.4
2025-06-25T2200,1353A,113.5618,23.312,广州市,九龙镇镇龙,,42,42,36,23,18,92,,184,165,28,24,6,7,0.4,0.4
2025-06-25T2200,1354A,113.2765,23.1544,广州市,麓湖,,20,20,20,10,9,46,,148,130,23,17,3,3,0.5,0.5
2025-06-25T2200,1355A,113.443,23.3035,广州市,帽峰山森林公园,,20,20,20,11,12,51,,183,159,28,21,7,8,0.4,0.5
2025-06-25T2200,2846A,113.3221,23.1322,广州市,体育西,,,23,25,,12,,,178,178,26,25,,6,0.3,0.4
2025-06-25T2200,3298A,113.5717,23.5491,广州市,从化街口,,35,34,27,15,14,110,,159,156,32,21,8,9,0.7,0.6
2025-06-25T2200,3299A,113.3472,23.3692,广州市,白云竹料,,33,33,34,22,16,54,,181,163,36,25,3,4,0.8,0.6
2025-06-25T2200,3300A,113.2981,23.237,广州市,白云嘉禾,,,22,34,11,15,43,,182,164,41,30,6,6,,0.7
2025-06-25T2200,3301A,113.4256,23.1716,广州市,黄埔科学城,,32,32,28,15,13,25,,176,146,41,22,5,4,0.6,0.6
2025-06-25T2200,3302A,113.3942,23.0483,广州市,番禺大学城,,15,15,18,9,9,41,,173,148,28,23,6,6,0.6,0.6
2025-06-25T2200,3303A,113.4922,22.8168,广州市,南沙黄阁,,,20,21,6,9,,,126,114,27,15,6,5,0.3,0.4
2025-06-25T2200,3304A,113.5342,22.7896,广州市,南沙街,,21,21,18,8,9,17,,125,97,31,16,6,4,0.3,0.4
2025-06-25T2200,3443A,113.2902,23.5544,广州市,花都梯面,,30,28,28,15,15,96,,184,176,21,20,5,5,0.6,0.6
2025-06-25T2200,3445A,113.7858,23.7478,广州市,从化良口,,27,16,20,10,13,85,,109,100,11,10,7,7,0.6,0.7
2025-06-25T2200,3446A,113.8051,23.2614,广州市,增城荔城,,25,25,27,10,15,47,,164,126,16,18,8,7,0.4,0.4
2025-06-25T2200,2505A,109.568,23.1478,贵港市,德智高中,,,,,,,,,,,,,,,,
2025-06-25T2200,2506A,109.6047,23.0666,贵港市,江南子站,,29,29,18,18,12,46,,85,75,17,8,5,5,0.5,0.4
2025-06-25T2200,2508A,109.5669,23.1065,贵港市,荷城子站,,34,34,18,14,4,53,,76,71,11,10,6,6,0.2,0.2
2025-06-25T2200,3405A,109.5886,23.1172,贵港市,新世纪学校,,41,41,19,27,12,39,,84,76,26,9,7,4,0.6,0.4
2025-06-25T2200,4260A,109.5933,23.0951,贵港市,中山路155-3号,,,30,21,12,11,,,94,92,17,9,4,4,0.5,0.4
2025-06-25T2200,1439A,106.6899,26.5998,贵阳市,马鞍山,,,17,11,,2,11,,40,26,10,9,3,3,0.5,0.4
2025-06-25T2200,1441A,106.6243,26.6266,贵阳市,鉴湖路,,31,31,18,7,5,22,,44,32,18,12,7,7,0.5,0.4
2025-06-25T2200,1442A,106.7487,26.6343,贵阳市,燕子冲,,20,19,15,14,16,29,,43,39,13,11,3,4,0.2,0.2
2025-06-25T2200,1443A,106.6555,26.4365,贵阳市,碧云窝,,27,27,21,3,7,24,,45,35,17,9,5,5,0.5,0.4
2025-06-25T2200,1445A,106.7109,26.6027,贵阳市,红边门,,14,14,17,7,6,30,,43,38,10,9,2,3,0.3,0.2
2025-06-25T2200,1446A,106.7164,26.5699,贵阳市,新华路,,25,,11,17,11,40,,47,46,12,14,3,4,0.5,0.4
2025-06-25T2200,1447A,106.674,26.5424,贵阳市,太慈桥,,17,17,14,9,5,23,,40,30,23,16,5,5,0.5,0.4
2025-06-25T2200,1552A,106.805,26.3003,贵阳市,桐木岭,,29,29,28,19,16,49,,46,46,2,2,3,3,0.9,0.9
2025-06-25T2200,4230A,106.6882,26.5695,贵阳市,花果园大街66号,,26,,11,18,10,38,,46,44,12,10,3,3,0.2,0.1
2025-06-25T2200,4231A,106.6873,26.5169,贵阳市,漓江路57号,,19,19,12,3,4,26,,44,39,20,12,5,6,0.4,0.3
2025-06-25T2200,1862A,110.4144,25.3167,桂林市,电子科大尧山校区,,,,,,,,,,,,,,,,
2025-06-25T2200,1864A,110.3089,25.2708,桂林市,龙隐路小学,,23,23,26,13,16,36,,66,56,18,9,8,9,0.7,0.6
2025-06-25T2200,1865A,110.2869,25.2178,桂林市,八中,,20,20,28,10,13,30,,69,62,22,11,6,7,0.6,0.5
2025-06-25T2200,3531A,110.296,25.1253,桂林市,旅游学院,,25,22,16,17,11,33,,68,58,10,8,3,3,0.3,0.3
2025-06-25T2200,4222A,110.1835,25.2444,桂林市,环湖路276号,,23,22,23,9,14,71,,71,71,10,12,5,6,0.4,0.5
2025-06-25T2200,4301A,110.2803,25.2773,桂林市,信义路13号,,17,16,24,9,11,52,,69,66,21,11,4,3,0.5,0.5
2025-06-25T2200,2674A,100.2561,34.4714,果洛藏族自治州,玛沁县大武镇,,,28,19,21,12,,,140,140,4,4,17,17,0.4,0.4
2025-06-25T2200,1129A,126.5422,45.755,哈尔滨市,岭北,臭氧1小时,58,41,29,18,25,166,,193,182,16,33,7,10,1.0,1
2025-06-25T2200,1130A,126.561,45.8167,哈尔滨市,松北商大,"颗粒物(PM10),细颗粒物(PM2.5)",52,53,45,36,23,82,,199,170,48,34,5,6,1.0,0.7
2025-06-25T2200,1131A,126.979,45.5419,哈尔滨市,阿城会宁,颗粒物(PM10),72,93,45,50,27,40,,213,166,67,34,8,10,0.6,0.5
2025-06-25T2200,1132A,126.599,45.7222,哈尔滨市,南岗学府路,颗粒物(PM10),75,100,51,48,25,78,,203,177,64,39,6,7,1.2,0.7
2025-06-25T2200,1133A,126.689,45.7733,哈尔滨市,太平宏伟公园,颗粒物(PM10),95,140,54,65,25,39,,207,176,100,38,6,7,1.2,0.7
2025-06-25T2200,1134A,126.635,45.7667,哈尔滨市,道外承德广场,颗粒物(PM10),64,78,58,38,22,52,,210,189,82,40,9,9,1.3,0.6
2025-06-25T2200,1135A,126.685,45.7319,哈尔滨市,香坊红旗大街,细颗粒物(PM2.5),104,117,61,78,27,101,,218,199,66,53,3,9,1.0,0.6
2025-06-25T2200,1136A,126.6411,45.7258,哈尔滨市,动力和平路,,47,47,57,28,24,143,,221,206,37,43,9,10,0.7,0.6
2025-06-25T2200,1137A,126.593,45.7478,哈尔滨市,道里建国路,二氧化氮,53,46,43,36,22,49,,211,181,105,39,3,6,1.4,0.9
2025-06-25T2200,1138A,126.615,45.61,哈尔滨市,平房东轻厂,二氧化氮,67,67,56,26,23,45,,227,198,133,59,11,10,0.6,0.4
2025-06-25T2200,1139A,126.595,45.9855,哈尔滨市,呼兰师专,颗粒物(PM10),59,67,46,18,22,83,,197,178,57,28,9,10,0.7,0.5
2025-06-25T2200,1140A,126.6206,45.6842,哈尔滨市,省农科院,颗粒物(PM10),97,144,78,65,35,65,,198,174,94,59,6,7,1.0,0.7
2025-06-25T2200,2688A,93.5128,42.8172,哈密市,地区监测站,颗粒物(PM10),51,52,33,9,16,88,,127,123,32,10,15,4,0.5,0.2
2025-06-25T2200,2689A,93.4961,42.8328,哈密市,哈密师范学校,,,62,31,10,11,,,122,118,22,10,,6,0.6,0.5
2025-06-25T2200,2671A,100.9048,36.9639,海北藏族自治州,海晏县西海镇,,33,27,14,12,12,104,,138,128,13,5,10,9,0.4,0.4
2025-06-25T2200,3867A,102.0738,36.5056,海东市,平安区公安北苑,,30,30,28,9,12,90,,133,124,19,7,25,10,0.6,0.6
2025-06-25T2200,1409A,110.576,19.9507,海口市,东寨港,,,,9,6,8,44,,44,42,2,3,4,8,0.3,0.3
2025-06-25T2200,1410A,110.3232,20.0574,海口市,海南大学,,15,11,11,3,4,47,,50,48,3,3,3,3,0.3,0.3
2025-06-25T2200,1411A,110.283,20.0053,海口市,秀英海南医院,,14,13,13,3,5,43,,49,45,4,7,5,5,0.1,0.2
2025-06-25T2200,1412A,110.338,19.9969,海口市,海南师范大学,,15,12,11,6,6,47,,53,47,3,4,4,4,0.2,0.2
2025-06-25T2200,1413A,110.33,20.0356,海口市,龙华路环保局宿舍,,15,15,12,3,5,46,,48,46,3,4,4,5,0.2,0.3
2025-06-25T2200,3539A,110.5111,19.9736,海口市,桂林洋子站,,14,12,15,6,8,43,,47,43,5,6,4,5,0.2,0.2
2025-06-25T2200,2673A,100.6188,36.2866,海南藏族自治州,共和县恰卜恰镇,,35,35,21,7,6,107,,152,145,18,5,14,11,0.7,0.7
2025-06-25T2200,2676A,97.3731,37.3753,海西蒙古族藏族自治州,德令哈市,,44,30,33,25,15,138,,152,147,1,2,13,14,0.6,0.6
2025-06-25T2200,1048A,114.5302,36.6116,邯郸市,东污水处理厂,颗粒物(PM10),69,87,53,29,10,110,,194,165,23,21,8,7,0.7,0.6
2025-06-25T2200,1049A,114.4918,36.5713,邯郸市,矿院,,,78,43,34,14,,,206,182,27,25,10,7,0.6,0.5
2025-06-25T2200,1050A,114.484,36.6133,邯郸市,丛台公园,颗粒物(PM10),64,77,46,32,19,114,,198,170,29,21,13,10,0.6,0.6
2025-06-25T2200,3458A,114.7895,36.5593,邯郸市,香泉濮院小区,颗粒物(PM10),79,107,67,29,13,110,,182,156,19,16,8,9,0.5,0.4
2025-06-25T2200,3579A,114.50634,36.77178,邯郸市,永年区实验高中,颗粒物(PM10),66,81,61,40,28,118,,203,179,31,21,13,13,1.1,1
2025-06-25T2200,3580A,114.20016,36.44293,邯郸市,峰峰矿区临水派出所,颗粒物(PM10),54,58,33,9,7,134,,197,172,24,14,9,8,0.8,0.5
2025-06-25T2200,2634A,106.9893,33.1842,汉中市,汉川机床厂子校,,30,16,15,10,10,95,,139,118,9,6,3,4,0.5,0.6
2025-06-25T2200,2635A,107.0154,33.0706,汉中市,市监测站,,29,12,15,10,10,92,,116,108,10,6,7,6,0.5,0.6
2025-06-25T2200,2636A,107.0089,33.1138,汉中市,鑫源开发区,,29,11,22,8,10,91,,131,116,11,8,6,6,0.4,0.5
2025-06-25T2200,2637A,107.007,33.0323,汉中市,南郑大河坎水厂,,27,10,29,9,11,84,,107,101,8,6,4,4,0.6,0.6
2025-06-25T2200,1223A,120.2072,30.2111,杭州市,滨江,颗粒物(PM10),58,65,57,38,35,132,,193,183,34,32,7,6,0.7,0.7
2025-06-25T2200,1224A,120.0633,30.2747,杭州市,西溪,细颗粒物(PM2.5),67,65,42,48,32,98,,152,146,16,15,4,4,0.6,0.6
2025-06-25T2200,1226A,120.3417,30.3150,杭州市,下沙,,43,38,50,24,36,136,,198,176,24,36,4,5,0.5,0.6
2025-06-25T2200,1227A,120.1269,30.2456,杭州市,卧龙桥,细颗粒物(PM2.5),60,54,46,43,35,73,,162,151,20,15,7,7,0.7,0.6
2025-06-25T2200,1228A,120.1903,30.2692,杭州市,浙江农大,细颗粒物(PM2.5),54,44,48,38,38,118,,166,158,27,29,4,4,0.6,0.7
2025-06-25T2200,1230A,120.1197,30.3119,杭州市,和睦小学,,46,46,46,31,29,147,,178,173,16,18,8,8,0.6,0.6
2025-06-25T2200,1231A,120.3019,30.4183,杭州市,临平镇,颗粒物(PM10),51,51,71,25,37,146,,191,177,19,26,5,6,0.6,0.7
2025-06-25T2200,1232A,120.2753,30.1839,杭州市,城厢镇,细颗粒物(PM2.5),80,,60,59,52,122,,209,191,28,27,9,7,0.7,1
2025-06-25T2200,1233A,120.0883,30.1808,杭州市,云栖,细颗粒物(PM2.5),58,61,41,41,25,73,,131,119,17,10,7,7,0.8,0.7
2025-06-25T2200,3557A,119.9464,30.0494,杭州市,镇二中,细颗粒物(PM2.5),89,96,42,66,30,144,,145,145,23,16,4,3,0.8,0.7
2025-06-25T2200,3558A,119.7183,30.2367,杭州市,市府大楼,,48,48,36,31,25,129,,133,131,17,14,7,7,0.7,0.6
2025-06-25T2200,3656A,120.1556,30.2864,杭州市,消防大队,细颗粒物(PM2.5),52,52,49,36,38,128,,185,174,26,26,6,6,0.8,0.9
2025-06-25T2200,1270A,117.1959,31.7848,合肥市,明珠广场,,40,34,30,24,19,128,,148,142,23,20,5,5,0.7,0.5
2025-06-25T2200,1271A,117.3072,31.8764,合肥市,三里街,,36,31,30,17,18,113,,132,124,18,17,6,6,0.7,0.6
2025-06-25T2200,1272A,117.2588,31.8707,合肥市,琥珀山庄,,40,31,29,23,20,126,,148,135,15,14,6,6,0.8,0.7
2025-06-25T2200,1273A,117.1604,31.9052,合肥市,董铺水库,,36,24,32,12,14,115,,144,129,12,10,4,4,0.5,0.4
2025-06-25T2200,1274A,117.25,31.8571,合肥市,长江中路,,39,39,34,26,21,124,,146,136,17,15,6,7,0.8,0.6
2025-06-25T2200,1275A,117.266,31.9436,合肥市,庐阳区,,34,31,32,17,17,108,,155,130,19,15,8,8,0.7,0.6
2025-06-25T2200,1276A,117.3453,31.8616,合肥市,瑶海区,,39,39,37,24,20,106,,135,126,21,20,6,7,0.7,0.6
2025-06-25T2200,1277A,117.3027,31.7964,合肥市,包河区,,34,29,31,22,19,108,,138,135,27,30,4,5,0.8,0.7
2025-06-25T2200,1278A,117.2776,31.7385,合肥市,滨湖新区,,42,36,32,27,24,133,,148,148,10,10,9,9,0.7,0.6
2025-06-25T2200,1279A,117.1318,31.8403,合肥市,高新区,,,44,31,,17,,,146,138,25,19,6,7,0.8,0.6
2025-06-25T2200,3464A,117.3803,31.9147,合肥市,高教基地,,34,34,32,19,19,88,,141,121,19,15,4,7,0.6,0.5
2025-06-25T2200,3614A,79.924,37.0877,和田地区,地区环保局,颗粒物(PM10),145,239,212,56,59,113,,133,126,14,14,1,2,0.5,0.5
2025-06-25T2200,3615A,79.9131,37.113,和田地区,市环保局,颗粒物(PM10),114,178,190,79,66,110,,134,128,17,24,1,2,0.6,0.7
2025-06-25T2200,2516A,108.2011,24.715,河池市,东仁乐园,,,,,,,,,,,,,,,,
2025-06-25T2200,2517A,108.0497,24.6947,河池市,市环保站,,21,21,22,10,13,18,,61,48,13,6,2,2,0.7,0.6
2025-06-25T2200,2518A,108.0983,24.6989,河池市,市疾控中心,,,33,27,14,12,,,64,60,,13,,3,,0.6
2025-06-25T2200,1696A,114.6778,23.7569,河源市,源西,,24,15,18,14,14,74,,106,91,12,16,4,4,0.6,0.6
2025-06-25T2200,1697A,114.6944,23.7586,河源市,东埔,,21,21,17,14,12,55,,81,70,16,11,4,4,0.5,0.4
2025-06-25T2200,1698A,114.6892,23.7233,河源市,老城,,21,21,20,11,10,48,,80,69,18,9,4,4,0.5,0.4
2025-06-25T2200,1718A,115.4208,35.2464,菏泽市,气象局,,,112,80,48,40,,,170,168,70,29,4,4,0.6,0.5
2025-06-25T2200,3374A,115.5564,35.0891,菏泽市,定陶老年大学,颗粒物(PM10),62,73,64,31,32,114,,154,148,24,20,4,5,0.3,0.4
2025-06-25T2200,4184A,115.4797,35.24401,菏泽市,永昌路1号,颗粒物(PM10),77,103,69,42,29,76,,166,154,48,20,5,6,0.4,0.2
2025-06-25T2200,4193A,115.4715,35.2800,菏泽市,长城路999号,颗粒物(PM10),73,95,73,44,35,114,,173,155,35,23,4,4,0.4,0.4
2025-06-25T2200,2514A,111.5264,24.4172,贺州市,环保小区,,36,36,28,18,18,54,,76,71,14,15,10,12,0.7,0.6
2025-06-25T2200,2515A,111.5608,24.4078,贺州市,政协大楼,,34,34,25,7,18,48,,91,75,17,11,14,14,0.7,0.7
2025-06-25T2200,3534A,111.4744,24.4553,贺州市,西湾,,,,30,,13,43,,90,78,14,11,12,11,0.6,0.5
2025-06-25T2200,2385A,114.17,35.9019,鹤壁市,市监测站,细颗粒物(PM2.5),65,61,56,47,30,149,,148,147,14,14,9,9,0.7,0.7
2025-06-25T2200,2386A,114.2956,35.7511,鹤壁市,市交警支队,颗粒物(PM10),68,85,65,45,36,124,,143,143,34,35,15,14,1.0,0.9
2025-06-25T2200,2387A,114.2878,35.7306,鹤壁市,迎宾馆,细颗粒物(PM2.5),72,88,75,52,38,128,,138,138,29,37,11,9,0.8,0.7
2025-06-25T2200,3474A,114.2617,35.6822,鹤壁市,大新区,颗粒物(PM10),84,117,75,55,38,74,,115,112,53,39,8,8,0.9,0.8
2025-06-25T2200,3596A,114.1572,35.9603,鹤壁市,南山宾馆,颗粒物(PM10),62,74,63,42,34,148,,163,147,13,11,7,6,0.6,0.6
2025-06-25T2200,2244A,130.2537,47.3416,鹤岗市,哈啤分公司,,39,34,29,27,23,71,,139,113,9,11,13,13,0.6,0.6
2025-06-25T2200,2245A,130.2684,47.3086,鹤岗市,斯达机电,颗粒物(PM10),52,54,41,33,22,80,,128,122,14,12,13,13,0.6,0.5
2025-06-25T2200,2246A,130.3114,47.3388,鹤岗市,东山纸板厂,颗粒物(PM10),52,53,57,27,20,24,,132,90,17,17,11,10,0.6,0.8
2025-06-25T2200,2247A,130.1097,47.3382,鹤岗市,五号水库,,27,27,24,13,9,40,,132,92,11,12,15,15,0.7,0.7
2025-06-25T2200,2263A,127.4833,50.2524,黑河市,交通局,颗粒物(PM10),57,63,37,12,12,38,,102,85,21,13,14,8,0.7,1.1
2025-06-25T2200,2264A,127.5144,50.2341,黑河市,环保局,,,77,49,13,14,95,,111,105,,,24,10,1.0,0.7
2025-06-25T2200,2265A,127.5291,50.2472,黑河市,大黑河岛,,20,,6,14,14,50,,87,79,23,12,31,25,0.5,0.4
2025-06-25T2200,1074A,115.6838,37.7541,衡水市,电机北厂,颗粒物(PM10),62,74,65,30,32,157,,242,216,13,13,8,8,0.3,0.4
2025-06-25T2200,1075A,115.6303,37.7316,衡水市,市监测站,颗粒物(PM10),59,67,64,29,27,149,,239,211,13,15,7,8,0.4,0.5
2025-06-25T2200,3188A,115.6683,37.7217,衡水市,市城管局,颗粒物(PM10),64,78,74,32,34,147,,246,217,20,18,5,7,0.5,0.5
2025-06-25T2200,3459A,115.5989,37.5491,衡水市,地表水厂,颗粒物(PM10),63,75,79,25,28,125,,237,199,30,31,9,9,0.4,0.5
2025-06-25T2200,2456A,112.5003,26.9167,衡阳市,原169医院,,39,39,36,22,15,56,,114,100,32,12,5,4,0.6,0.7
2025-06-25T2200,2457A,112.6194,26.9258,衡阳市,衡阳化工总厂,颗粒物(PM10),66,81,44,34,21,70,,117,107,16,10,4,5,0.6,0.6
2025-06-25T2200,2458A,112.6211,26.8956,衡阳市,珠晖区环保局,,,53,37,,,67,,123,108,21,12,6,7,0.7,0.8
2025-06-25T2200,2459A,112.6197,26.8733,衡阳市,市委党校,,42,42,38,25,16,88,,110,106,14,8,7,7,0.6,0.6
2025-06-25T2200,2460A,112.6006,26.8919,衡阳市,市监测站,颗粒物(PM10),58,65,36,39,22,62,,112,100,23,11,6,7,0.7,0.6
2025-06-25T2200,2461A,112.5664,26.9056,衡阳市,真空机电公司,,45,39,36,31,21,63,,112,103,26,11,6,7,0.9,0.7
2025-06-25T2200,3399A,112.6703,26.882,衡阳市,师范学院,细颗粒物(PM2.5),52,38,40,36,23,68,,105,95,11,8,6,8,0.8,0.8
2025-06-25T2200,2608A,103.3772,23.3993,红河哈尼族彝族自治州,污水处理厂,,23,23,18,12,12,35,,44,40,3,3,6,6,0.3,0.4
2025-06-25T2200,2609A,103.3861,23.35,红河哈尼族彝族自治州,监测站,,16,16,21,6,11,36,,42,38,4,3,7,5,0.3,0.2
2025-06-25T2200,3038A,103.3758,23.368,红河哈尼族彝族自治州,州图书馆,,18,,11,12,8,40,,45,42,4,4,2,1,0.2,0.2
2025-06-25T2200,1090A,111.6507,40.7517,呼和浩特市,呼市一监,颗粒物(PM10),51,51,40,18,21,134,,200,177,14,17,14,11,0.5,0.6
2025-06-25T2200,1091A,111.6572,40.8033,呼和浩特市,小召,颗粒物(PM10),54,58,40,17,20,134,,202,178,20,21,12,7,0.6,0.5
2025-06-25T2200,1094A,111.7516,40.8369,呼和浩特市,如意水处理厂,颗粒物(PM10),51,51,42,20,23,138,,213,183,14,21,12,8,0.5,0.5
2025-06-25T2200,1095A,111.7276,40.8062,呼和浩特市,二十九中,颗粒物(PM10),67,84,46,17,22,136,,208,180,14,19,11,7,0.5,0.5
2025-06-25T2200,1096A,111.5512,40.7866,呼和浩特市,工大金川校区,颗粒物(PM10),66,81,51,17,21,134,,207,181,17,25,11,9,0.3,0.5
2025-06-25T2200,1097A,111.717,40.7612,呼和浩特市,化肥厂生活区,,49,49,48,16,20,137,,216,187,18,20,9,12,0.4,0.5
2025-06-25T2200,3698A,111.5968,40.8178,呼和浩特市,红旗小学,颗粒物(PM10),67,83,48,18,22,131,,216,187,22,21,9,6,0.4,0.4
2025-06-25T2200,3699A,111.6518,40.8389,呼和浩特市,海东办,颗粒物(PM10),67,83,45,21,23,124,,201,175,20,26,10,7,0.6,0.5
2025-06-25T2200,2192A,119.7594,49.2261,呼伦贝尔市,区环保局,细颗粒物(PM2.5),75,89,43,55,32,43,,112,101,48,17,6,6,1.1,0.6
2025-06-25T2200,3061A,119.7512,49.1577,呼伦贝尔市,国华电力东,颗粒物(PM10),60,70,40,37,22,100,,148,140,19,11,4,4,0.5,0.5
2025-06-25T2200,1250A,120.0751,30.8669,湖州市,城西水厂,细颗粒物(PM2.5),72,67,75,52,54,118,,184,166,22,29,6,6,0.6,0.7
2025-06-25T2200,2873A,120.0830,30.8929,湖州市,仁皇山新区,,,62,59,45,45,,,179,178,21,26,4,5,0.8,0.8
2025-06-25T2200,2907A,120.1844,30.8596,湖州市,吴兴区站,,43,41,47,30,38,123,,183,173,24,34,6,7,0.5,0.6
2025-06-25T2200,3562A,120.4148,30.8538,湖州市,南浔区站,,40,31,39,28,32,123,,150,148,15,19,6,6,0.6,0.6
2025-06-25T2200,1607A,120.9049,40.7211,葫芦岛市,龙港区,,42,24,40,19,19,133,,147,140,12,23,6,19,0.5,0.6
2025-06-25T2200,1608A,120.8392,40.7514,葫芦岛市,化工街,,31,31,39,12,18,95,,141,117,28,51,6,10,0.5,0.5
2025-06-25T2200,1609A,120.8341,40.7073,葫芦岛市,新区,,40,34,36,17,21,128,,138,134,9,37,3,5,0.7,0.6
2025-06-25T2200,1610A,120.8695,40.7677,葫芦岛市,东城区,,32,32,51,18,24,91,,138,113,27,47,4,27,0.6,0.7
2025-06-25T2200,2482A,109.5981,27.5721,怀化市,林科所,,36,36,21,3,4,18,,52,44,7,7,6,4,0.2,0.2
2025-06-25T2200,2483A,109.9453,27.5444,怀化市,河西地税局,,39,39,21,19,11,3,,53,38,20,8,4,5,0.3,0.3
2025-06-25T2200,2484A,109.9781,27.5342,怀化市,市四医院,颗粒物(PM10),51,51,31,23,16,0,,29,2,20,15,2,2,0.8,0.5
2025-06-25T2200,2485A,109.9972,27.5578,怀化市,监测楼,,47,47,25,20,11,6,,57,38,17,6,2,2,0.2,0.2
2025-06-25T2200,2486A,110.0394,27.583,怀化市,市委党校,,39,39,20,22,13,9,,67,46,10,15,20,6,0.4,0.3
2025-06-25T2200,1210A,119.036,33.5981,淮安市,钵池山,,44,44,33,26,24,129,,174,162,16,16,12,11,0.6,0.8
2025-06-25T2200,1211A,119.007,33.575,淮安市,北京南路,颗粒物(PM10),51,51,36,34,26,81,,155,139,43,21,8,8,0.7,0.8
2025-06-25T2200,1212A,118.989,33.6067,淮安市,市监测站,颗粒物(PM10),65,80,38,29,19,78,,151,135,44,14,12,9,1.0,0.5
2025-06-25T2200,1213A,119.135,33.5039,淮安市,楚州区监测站,颗粒物(PM10),51,51,42,28,25,91,,162,141,26,13,8,9,0.5,0.4
2025-06-25T2200,3426A,118.8755,33.2894,淮安市,新华书店,,33,31,29,19,18,103,,157,140,20,10,8,9,0.5,0.5
2025-06-25T2200,4206A,119.0288,33.6319,淮安市,承德北路606号,,41,41,32,27,20,111,,151,142,14,8,13,6,0.6,0.6
2025-06-25T2200,2282A,116.8004,33.975,淮北市,监测站,颗粒物(PM10),52,53,43,19,23,144,,188,180,12,11,6,7,0.8,0.9
2025-06-25T2200,2283A,116.8091,33.9007,淮北市,烈山区政府,颗粒物(PM10),52,53,56,23,22,120,,188,175,19,22,6,8,0.6,0.6
2025-06-25T2200,3330A,116.8873,33.9836,淮北市,杜集区检察院,,48,48,52,24,26,136,,182,172,20,18,8,9,0.8,0.8
2025-06-25T2200,4017A,116.7923,33.9535,淮北市,市博物馆,颗粒物(PM10),52,53,42,21,23,140,,194,187,12,10,8,9,0.7,0.8
2025-06-25T2200,2277A,116.8305,32.7727,淮南市,潘集区政府,,44,44,38,21,17,110,,142,126,7,9,3,4,0.6,0.5
2025-06-25T2200,2279A,116.8569,32.5951,淮南市,谢家集区政府,,30,30,29,14,14,92,,130,118,19,11,8,6,0.3,0.3
2025-06-25T2200,2280A,116.8281,32.633,淮南市,八公山区政府,,34,27,26,15,14,107,,134,123,11,10,4,4,0.4,0.3
2025-06-25T2200,2281A,116.6325,32.6201,淮南市,焦岗湖风景区管理处,,,,,,,,,,,,,,,,
2025-06-25T2200,2894A,117.0566,32.6531,淮南市,经济技术开发区消防队,,36,26,30,10,14,115,,140,132,9,10,6,7,0.4,0.4
2025-06-25T2200,3329A,117.0108,32.5893,淮南市,山南新区,,36,17,23,3,5,115,,144,138,5,5,7,7,0.6,0.5
2025-06-25T2200,4209A,117.0031,32.6445,淮南市,国庆中路369号,,45,41,29,31,19,117,,145,140,8,8,6,11,0.3,0.3
2025-06-25T2200,2446A,114.9028,30.4742,黄冈市,职工中心,,43,42,35,30,21,115,,135,133,9,3,9,10,0.8,0.6
2025-06-25T2200,2929A,114.8858,30.4519,黄冈市,红卫路,,43,36,34,30,22,89,,135,122,7,3,7,8,0.7,0.6
2025-06-25T2200,3398A,114.9136,30.4445,黄冈市,市林业局,细颗粒物(PM2.5),54,39,34,38,27,58,,128,107,6,3,7,9,0.7,0.6
2025-06-25T2200,2672A,102.0199,35.5102,黄南藏族自治州,同仁县隆务镇,,33,33,25,11,6,96,,107,107,1,3,6,7,0.3,0.2
2025-06-25T2200,2295A,118.2903,29.6963,黄山市,延安路89号,,25,25,24,3,11,6,,78,39,9,5,7,6,0.7,0.7
2025-06-25T2200,2297A,118.1371,30.2756,黄山市,黄山区政府5号楼,,6,,21,3,11,10,,57,34,6,3,4,4,0.5,0.5
2025-06-25T2200,4210A,118.3354,29.7203,黄山市,滨江东路7-2号,,24,24,23,9,8,10,,72,40,6,5,4,4,0.5,0.5
2025-06-25T2200,2423A,115.0601,30.2313,黄石市,沈家营,颗粒物(PM10),62,74,53,24,23,70,,134,112,12,12,6,8,1.0,1
2025-06-25T2200,2426A,114.8988,30.2019,黄石市,铁山,颗粒物(PM10),57,64,39,32,25,95,,142,125,4,7,5,4,0.7,0.8
2025-06-25T2200,2427A,115.0307,30.2092,黄石市,团城山,颗粒物(PM10),53,55,46,18,19,98,,147,130,4,6,7,8,0.7,0.7
2025-06-25T2200,3149A,115.0235,30.1578,黄石市,笔架山北路,颗粒物(PM10),56,61,43,24,20,92,,138,121,5,8,5,6,0.8,0.7
2025-06-25T2200,4185A,115.0780,30.21118,黄石市,磁湖东路29号,颗粒物(PM10),71,92,53,23,24,101,,137,122,2,6,8,8,0.5,0.4
2025-06-25T2200,1392A,114.4183,23.0528,惠州市,河南岸金山湖子站,,13,10,18,3,9,39,,74,51,7,13,7,7,0.4,0.4
2025-06-25T2200,1393A,114.4053,23.0822,惠州市,下埔横江三路子站,,14,13,19,7,9,42,,85,57,7,11,5,5,0.3,0.4
2025-06-25T2200,1394A,114.4103,23.1142,惠州市,江北云山西路子站,,18,18,18,3,8,41,,92,64,6,8,8,7,0.4,0.4
2025-06-25T2200,1395A,114.4645,22.7833,惠州市,惠阳区承修路船湖子站,,12,9,15,6,7,38,,65,54,12,11,7,7,0.4,0.5
2025-06-25T2200,1396A,114.5317,22.7422,惠州市,大亚湾管委会子站,,17,12,15,6,8,53,,59,58,7,10,9,9,0.3,0.3
2025-06-25T2200,3314A,114.4338,22.8134,惠州市,惠阳秋长,,13,7,19,7,8,40,,80,63,15,15,10,9,0.4,0.4
2025-06-25T2200,3452A,114.6517,22.775,惠州市,大亚湾霞涌,,19,,10,3,4,58,,59,54,6,9,8,6,0.4,0.4
2025-06-25T2200,2240A,130.9762,45.3001,鸡西市,环保局,颗粒物(PM10),69,88,51,33,25,37,,210,155,56,26,6,5,0.9,0.5
2025-06-25T2200,2243A,130.9429,45.3039,鸡西市,第一中学,颗粒物(PM10),55,60,43,27,20,74,,176,140,24,20,8,8,0.7,0.6
2025-06-25T2200,3707A,131.0207,45.3073,鸡西市,欧美日汽修厂,颗粒物(PM10),71,91,59,36,28,71,,205,155,36,26,7,7,0.7,0.6
2025-06-25T2200,3709A,130.9967,45.3106,鸡西市,市政设施管理处,颗粒物(PM10),113,176,77,43,27,57,,203,144,49,31,4,11,0.7,0.6
2025-06-25T2200,2367A,114.9754,27.0803,吉安市,红声器材厂,,35,35,34,16,19,38,,112,93,13,10,8,9,0.8,0.8
2025-06-25T2200,2368A,114.9658,27.0999,吉安市,市森林工业局,,,36,34,19,19,,,115,106,14,8,7,9,0.6,0.5
2025-06-25T2200,2369A,114.99,27.1312,吉安市,市环境监测站,,41,41,28,21,19,40,,117,99,6,6,12,17,0.6,0.6
2025-06-25T2200,2370A,115.0093,27.0968,吉安市,青原区法院,,37,37,35,18,19,38,,100,77,17,14,7,10,0.3,0.3
2025-06-25T2200,1772A,126.54,43.8622,吉林市,哈达湾,,,22,41,20,31,113,,180,150,,26,7,8,0.2,0.4
2025-06-25T2200,1773A,126.5844,43.8358,吉林市,东局子,,49,40,40,34,23,71,,172,136,45,24,8,6,1.0,0.8
2025-06-25T2200,1774A,126.5052,43.8245,吉林市,电力学院,细颗粒物(PM2.5),84,97,51,62,29,56,,185,129,34,40,5,6,0.7,0.6
2025-06-25T2200,1775A,126.6133,43.8972,吉林市,江北,,34,34,42,16,24,96,,157,136,15,17,7,7,0.3,0.5
2025-06-25T2200,1776A,126.555,43.8306,吉林市,江南公园,,43,43,40,29,28,60,,165,127,47,26,6,7,0.6,0.5
2025-06-25T2200,1778A,126.7061,43.7133,吉林市,丰满,,,,,,,,,,,,,,,,
2025-06-25T2200,2868A,126.4739,43.953,吉林市,九站,,42,42,56,21,31,45,,153,126,56,38,5,8,0.3,0.5
2025-06-25T2200,1299A,116.9862,36.6114,济南市,科干所,,43,34,44,22,25,137,,218,200,18,15,5,7,0.6,0.6
2025-06-25T2200,1300A,116.9376,36.665,济南市,农科所,,49,49,62,20,24,115,,203,181,23,23,7,9,0.3,0.4
2025-06-25T2200,1301A,117.1265,36.6734,济南市,开发区,,46,42,47,20,26,146,,218,203,19,19,8,9,0.4,0.5
2025-06-25T2200,1303A,117.0624,36.6868,济南市,省种子仓库,颗粒物(PM10),51,51,53,22,24,136,,228,208,24,17,6,8,0.4,0.5
2025-06-25T2200,1304A,116.9489,36.6447,济南市,机床二厂,颗粒物(PM10),56,61,66,22,24,119,,208,184,32,29,5,7,0.5,0.6
2025-06-25T2200,1305A,117.0495,36.663,济南市,市监测站,,46,46,50,22,23,133,,218,199,27,22,9,11,0.5,0.5
2025-06-25T2200,1306A,116.7675,36.5484,济南市,长清党校,颗粒物(PM10),55,59,50,20,26,128,,206,183,25,23,6,7,0.4,0.5
2025-06-25T2200,1616A,117.6795,36.229,济南市,技术学院,颗粒物(PM10),57,63,53,39,31,126,,210,194,39,29,15,12,1.5,1.2
2025-06-25T2200,1961A,117.532,36.6868,济南市,东山小学,颗粒物(PM10),56,61,51,29,24,137,,229,209,30,16,7,8,0.3,0.3
2025-06-25T2200,3059A,117.7161,36.2049,济南市,泰兴公司,颗粒物(PM10),59,68,56,41,33,141,,201,186,28,46,9,9,0.2,0.4
2025-06-25T2200,3064A,117.6867,36.2171,济南市,莱芜战役纪念馆,颗粒物(PM10),59,68,63,39,34,146,,197,184,18,24,8,10,1.5,1.2
2025-06-25T2200,3494A,117.1673,36.9782,济南市,济阳区政府,颗粒物(PM10),61,71,65,22,25,126,,223,196,26,25,8,9,0.4,0.5
2025-06-25T2200,3495A,117.1171,36.63,济南市,锦屏中学,,48,37,42,17,21,152,,217,205,15,14,5,6,0.5,0.6
2025-06-25T2200,3682A,116.9814,36.6819,济南市,济南四建,,46,46,52,24,28,131,,217,196,22,22,5,7,0.4,0.4
2025-06-25T2200,1653A,116.6251,35.4302,济宁市,火炬城,颗粒物(PM10),69,88,56,44,29,107,,144,134,21,16,6,7,0.6,0.5
2025-06-25T2200,1655A,116.5491,35.4042,济宁市,电化厂,颗粒物(PM10),68,86,68,48,38,114,,150,136,34,26,5,5,0.9,0.7
2025-06-25T2200,3500A,116.5814,35.3707,济宁市,北湖一中,颗粒物(PM10),68,86,68,45,41,112,,152,144,27,26,5,9,0.5,0.4
2025-06-25T2200,3501A,116.8249,35.5593,济宁市,服务中心,颗粒物(PM10),65,80,58,42,26,122,,167,148,29,27,3,5,0.4,0.4
2025-06-25T2200,3678A,116.5907,35.4054,济宁市,市第七中学,颗粒物(PM10),73,96,61,44,28,98,,153,143,28,14,10,12,0.6,0.4
2025-06-25T2200,2255A,130.2751,46.8028,佳木斯市,佳纺,颗粒物(PM10),56,62,55,28,30,97,,154,130,18,21,4,3,0.6,0.6
2025-06-25T2200,2256A,130.3995,46.8307,佳木斯市,发电厂,颗粒物(PM10),55,60,55,29,29,93,,159,133,16,20,6,5,0.5,0.6
2025-06-25T2200,2257A,130.3258,46.7975,佳木斯市,环保局,颗粒物(PM10),58,65,51,34,31,91,,163,137,28,20,5,5,0.7,0.6
2025-06-25T2200,2258A,130.3648,46.8032,佳木斯市,十一中,颗粒物(PM10),52,53,50,31,30,80,,168,138,21,18,5,6,0.5,0.5
2025-06-25T2200,2259A,130.3794,46.7588,佳木斯市,四丰,,,42,36,,,,,,,24,14,1,1,0.7,0.6
2025-06-25T2200,1252A,120.7436,30.778,嘉兴市,清河小学,颗粒物(PM10),55,59,47,22,18,144,,161,153,23,23,9,8,1.1,1
2025-06-25T2200,1253A,120.726,30.7478,嘉兴市,嘉兴学院,,45,37,34,30,25,142,,165,153,21,23,7,6,0.7,0.8
2025-06-25T2200,2872A,120.7846,30.7525,嘉兴市,南湖区残联,,,37,34,32,25,147,,157,151,20,25,6,6,,0.8
2025-06-25T2200,3407A,120.6916,30.7739,嘉兴市,秀洲住建,,44,35,30,23,20,138,,167,154,23,24,9,7,0.8,0.9
2025-06-25T2200,1945A,98.2908,39.7711,嘉峪关市,气象局,,46,46,181,19,52,98,,126,122,18,10,16,11,0.6,0.6
2025-06-25T2200,2884A,98.2672,39.7978,嘉峪关市,酒钢宾馆,颗粒物(PM10),51,51,188,24,51,111,,125,122,8,6,30,18,0.6,0.5
2025-06-25T2200,3248A,98.2643,39.7724,嘉峪关市,雄关区,,,,153,21,45,78,,121,114,30,12,14,9,0.5,0.4
2025-06-25T2200,1383A,113.1064,22.6058,江门市,北街,,,,24,4,11,38,,121,86,15,13,3,3,0.4,0.4
2025-06-25T2200,1384A,113.0731,22.5835,江门市,西区,,26,26,20,6,10,44,,117,91,9,12,9,9,0.4,0.4
2025-06-25T2200,1385A,113.0219,22.5311,江门市,圭峰西,,14,,18,7,7,43,,95,81,13,29,4,3,0.5,0.4
2025-06-25T2200,1386A,113.0828,22.5947,江门市,东湖,,13,11,17,7,10,40,,109,83,12,12,7,7,0.5,0.5
2025-06-25T2200,3311A,113.1075,22.5647,江门市,江海富民,,27,27,26,11,8,40,,113,85,16,12,9,9,0.4,0.4
2025-06-25T2200,3449A,113.05,22.4667,江门市,新会银湖,,16,,24,11,9,28,,92,73,19,12,3,3,0.3,0.3
2025-06-25T2200,1830A,113.1992,35.2590,焦作市,影视城,,,,34,,17,,,,,,7,,12,,0.4
2025-06-25T2200,3169A,113.2725,35.2067,焦作市,太极体育中心,细颗粒物(PM2.5),83,,78,61,41,110,,151,145,13,33,3,8,0.5,0.5
2025-06-25T2200,3335A,113.3137,35.2641,焦作市,马村街道办,细颗粒物(PM2.5),85,,73,63,41,110,,150,145,16,26,10,13,0.6,0.7
2025-06-25T2200,3336A,113.2465,35.2373,焦作市,焦作技师学院,,49,45,55,34,26,113,,149,142,16,20,4,7,0.8,0.8
2025-06-25T2200,3477A,113.1656,35.2539,焦作市,中站许衡医院,细颗粒物(PM2.5),64,51,65,46,32,105,,146,137,21,28,14,12,0.7,0.6
2025-06-25T2200,3981A,113.2449,35.1803,焦作市,原李万街道办,细颗粒物(PM2.5),52,40,79,36,32,104,,149,141,20,31,9,16,0.2,0.3
2025-06-25T2200,4264A,113.2340,35.2190,焦作市,新安路1731号,细颗粒物(PM2.5),62,51,69,44,34,126,,151,146,9,18,5,9,0.4,0.5
2025-06-25T2200,1708A,116.3701,23.5345,揭阳市,新兴,,22,,25,15,14,40,,80,54,8,9,5,5,0.5,0.5
2025-06-25T2200,1709A,116.3264,23.5443,揭阳市,西马,,22,22,25,9,13,40,,84,58,6,8,1,2,0.6,0.5
2025-06-25T2200,1710A,116.3611,23.5626,揭阳市,东兴,,16,,28,11,11,43,,92,62,9,10,3,3,0.7,0.4
2025-06-25T2200,1711A,116.4151,23.5294,揭阳市,渔湖,,,5,31,,18,36,,66,,11,17,8,9,0.6,0.4
2025-06-25T2200,3320A,116.403,23.5699,揭阳市,曲溪,,24,24,22,14,12,42,,84,59,5,7,4,5,0.5,0.5
2025-06-25T2200,1944A,102.1692,38.5167,金昌市,天庆家园,颗粒物(PM10),96,141,33,20,12,111,,119,116,12,14,16,12,0.7,0.7
2025-06-25T2200,4022A,102.1647,38.5371,金昌市,金川区人防中心,颗粒物(PM10),103,155,38,22,14,110,,128,123,12,11,19,13,0.4,0.6
2025-06-25T2200,4239A,102.1930,38.5319,金昌市,长春路96号,颗粒物(PM10),55,59,30,16,11,120,,127,124,8,11,13,12,0.3,0.6
2025-06-25T2200,1262A,119.647,29.077,金华市,十五中,,20,,22,7,13,64,,140,109,8,10,3,3,0.4,0.7
2025-06-25T2200,1263A,119.686,29.1029,金华市,监测站,,21,7,27,6,16,66,,134,106,6,13,1,2,0,0.5
2025-06-25T2200,3659A,119.656,29.1131,金华市,气象局,,16,9,25,3,14,50,,107,84,7,17,2,2,0.0,0.2
2025-06-25T2200,1767A,121.1115,41.0879,锦州市,南山,,42,40,49,29,28,77,,166,132,42,43,18,12,0.8,0.7
2025-06-25T2200,1768A,121.0604,40.8428,锦州市,开发区,颗粒物(PM10),60,69,70,18,32,90,,136,117,41,54,36,37,1.2,0.8
2025-06-25T2200,1769A,121.1836,41.1119,锦州市,百股街道,,29,20,41,17,19,92,,161,131,27,40,12,19,0.6,0.7
2025-06-25T2200,1770A,121.1178,41.1222,锦州市,天安街道,,46,46,50,26,33,78,,168,137,40,47,16,15,1.0,1
2025-06-25T2200,1771A,121.1303,41.1386,锦州市,北湖公园,,36,36,45,18,27,85,,172,144,33,34,15,13,0.7,0.7
2025-06-25T2200,2160A,112.85,35.5051,晋城市,自来水公司,颗粒物(PM10),53,56,57,29,24,150,,162,162,12,21,3,3,0.2,0.1
2025-06-25T2200,2161A,112.8318,35.4936,晋城市,白云商贸,颗粒物(PM10),61,71,75,22,19,140,,153,153,16,24,3,3,0.7,0.7
2025-06-25T2200,2162A,112.8508,35.4887,晋城市,市环保局,颗粒物(PM10),58,65,65,27,22,138,,156,156,14,24,10,9,0.2,0.1
2025-06-25T2200,2163A,112.8676,35.4897,晋城市,技术学院,,50,50,55,34,21,128,,142,142,14,25,9,8,0.7,0.5
2025-06-25T2200,2165A,112.8453,35.546,晋城市,白马寺,细颗粒物(PM2.5),53,51,45,37,27,157,,162,162,13,14,3,2,0.6,0.6
2025-06-25T2200,3620A,112.8271,35.4828,晋城市,泽州一中,细颗粒物(PM2.5),52,44,60,36,24,151,,162,162,29,34,5,5,0.6,0.6
2025-06-25T2200,2173A,112.7249,37.7067,晋中市,南都小区,颗粒物(PM10),63,75,50,32,25,135,,191,179,16,10,6,4,0.7,0.5
2025-06-25T2200,2174A,112.6991,37.6982,晋中市,榆次区政府,颗粒物(PM10),68,85,54,24,21,123,,193,178,20,10,10,8,1.3,0.7
2025-06-25T2200,2865A,112.7195,37.6828,晋中市,榆次三中,颗粒物(PM10),75,100,59,34,21,131,,197,181,22,15,11,8,0.6,0.5
2025-06-25T2200,4200A,112.7478,37.6954,晋中市,迎宾街26号,颗粒物(PM10),69,88,55,29,21,146,,204,192,17,13,13,10,0.7,0.7
2025-06-25T2200,2439A,112.2014,31.0481,荆门市,竹园小学,,33,20,31,17,22,103,,99,99,6,14,3,5,0,0.3
2025-06-25T2200,2440A,112.1969,30.9891,荆门市,掇刀,,,,26,,22,,,102,102,7,12,7,10,0.3,0.6
2025-06-25T2200,2441A,112.2213,31.0386,荆门市,石化一小,,34,18,36,16,25,106,,101,101,5,16,10,13,0.2,0.4
2025-06-25T2200,3012A,112.1849,31.0362,荆门市,西山林语,,35,,26,13,18,109,,105,105,1,7,9,10,0.4,0.5
2025-06-25T2200,3547A,112.1632,31.0138,荆门市,龙泉中学南校,,35,12,19,3,14,112,,104,104,1,9,4,5,0.4,0.6
2025-06-25T2200,1844A,112.2494,30.3197,荆州市,市图书馆,,28,16,23,11,14,89,,84,84,10,15,2,4,0.5,0.6
2025-06-25T2200,1845A,112.2008,30.3544,荆州市,市委党校,,,,25,19,22,,,83,83,14,18,6,7,0.5,0.5
2025-06-25T2200,3194A,112.2747,30.3122,荆州市,管委会,,28,17,24,10,19,88,,78,78,6,15,5,6,0.7,0.8
2025-06-25T2200,4268A,112.1722,30.3366,荆州市,学苑路85号,,26,13,20,11,21,81,,81,80,12,14,3,4,0.3,0.4
2025-06-25T2200,2342A,117.3102,29.3867,景德镇市,王港中学,,,,,,,,,,,,,,,,
2025-06-25T2200,2343A,117.2117,29.2933,景德镇市,老干部活动中心,颗粒物(PM10),52,53,33,20,14,20,,119,92,37,16,7,8,1.0,0.9
2025-06-25T2200,2344A,117.1894,29.2789,景德镇市,兽医站,,43,43,33,23,17,42,,111,80,14,11,4,6,0.7,0.6
2025-06-25T2200,2345A,117.1547,29.2617,景德镇市,台达陶瓷,,40,40,37,27,21,39,,99,74,20,20,33,74,0.8,0.8
2025-06-25T2200,2346A,117.2461,29.2956,景德镇市,陶研所,,,36,27,24,15,41,,112,98,7,6,,4,0.6,0.7
2025-06-25T2200,1803A,115.9872,29.6815,九江市,十里,细颗粒物(PM2.5),59,46,38,42,35,87,,104,103,16,17,9,7,1.1,1
2025-06-25T2200,1804A,115.9584,29.7046,九江市,茅山头,细颗粒物(PM2.5),57,55,46,40,34,79,,108,101,21,21,4,5,0.8,0.8
2025-06-25T2200,1805A,115.9877,29.7295,九江市,西园,,37,37,40,23,29,78,,114,106,33,26,6,7,0.9,0.8
2025-06-25T2200,1808A,115.9114,29.6038,九江市,综合工业园,,46,35,46,32,31,39,,112,93,47,28,4,6,1.3,1.1
2025-06-25T2200,1809A,116.0721,29.7535,九江市,石化总厂,细颗粒物(PM2.5),58,43,48,41,42,63,,108,101,31,20,6,7,0.7,1.1
2025-06-25T2200,1810A,115.9773,29.5698,九江市,庐山气象台,,18,13,6,3,4,57,,70,58,2,2,7,7,0.8,0.8
2025-06-25T2200,3190A,116.0254,29.6994,九江市,外国语学校,,40,,35,28,30,84,,104,102,13,16,4,7,0.9,0.9
2025-06-25T2200,4253A,116.0102,29.6594,九江市,莲花大道8号,颗粒物(PM10),51,51,34,25,26,69,,84,82,5,7,4,5,1.3,0.9
2025-06-25T2200,4240A,98.4958,39.7339,酒泉市,玉门东路5号,细颗粒物(PM2.5),54,48,190,38,52,117,,131,129,8,7,9,10,0.3,0.2
2025-06-25T2200,4241A,98.5099,39.7506,酒泉市,北大街108号,,44,44,192,28,47,117,,134,132,8,7,11,13,0.2,0.2
2025-06-25T2200,2698A,76.0072,39.4467,喀什地区,巡警大队,,,,180,,44,,,129,129,21,28,2,4,0.4,0.4
2025-06-25T2200,2699A,75.9755,39.4694,喀什地区,吾办,颗粒物(PM10),123,195,190,76,74,109,,126,125,24,25,7,6,0.6,0.5
2025-06-25T2200,4027A,75.9483,39.4689,喀什地区,老干局,颗粒物(PM10),121,191,202,54,51,84,,119,116,22,20,5,4,0.3,0.4
2025-06-25T2200,1824A,114.3389,34.7781,开封市,肿瘤医院,,45,34,67,26,33,142,,171,158,11,29,1,5,0.4,0.4
2025-06-25T2200,1826A,114.2885,34.7965,开封市,世纪星幼儿园,细颗粒物(PM2.5),74,,73,54,48,133,,161,149,11,32,3,6,0.5,0.7
2025-06-25T2200,3147A,114.3438,34.8106,开封市,龙亭公园,细颗粒物(PM2.5),52,42,57,36,33,144,,178,166,8,21,3,5,0.3,0.4
2025-06-25T2200,3210A,114.3644,34.7964,开封市,汴京公园,细颗粒物(PM2.5),55,52,72,39,42,149,,177,165,10,25,4,7,0.4,0.4
2025-06-25T2200,3473A,114.2485,34.8306,开封市,技师学院,,,,66,57,42,,,175,167,12,29,3,6,0.7,0.7
2025-06-25T2200,3592A,114.4644,34.7556,开封市,祥符区生态环境局,,41,28,68,22,35,129,,151,139,12,36,4,6,0.7,0.7
2025-06-25T2200,1951A,84.895,45.6094,克拉玛依市,长征新村,,,20,32,3,5,97,,112,111,5,6,5,4,,0.2
2025-06-25T2200,1952A,84.8988,45.5893,克拉玛依市,南林小区,,34,22,28,6,8,106,,110,110,8,7,4,3,0.1,0.1
2025-06-25T2200,1954A,84.905,44.3396,克拉玛依市,独山子区,,,,30,35,11,101,,129,126,4,9,7,9,0.3,0.4
2025-06-25T2200,1955A,85.6979,46.098,克拉玛依市,乌尔禾区商贸楼,,38,33,22,10,7,121,,80,,3,5,4,4,0.3,0.3
2025-06-25T2200,3612A,85.1045,45.6899,克拉玛依市,白碱滩区新站,,46,36,27,32,23,121,,121,121,4,3,4,4,0.6,0.5
2025-06-25T2200,2697A,76.1454,39.7142,克孜勒苏柯尔克孜自治州,市人民政府,颗粒物(PM10),112,174,159,66,60,120,,136,136,7,12,3,11,0.2,0.1
2025-06-25T2200,3665A,76.1658,39.7157,克孜勒苏柯尔克孜自治州,克州文化中心,颗粒物(PM10),108,166,161,60,56,130,,136,136,6,13,3,8,0.5,0.4
2025-06-25T2200,1450A,102.8204,24.8886,昆明市,呈贡新区,,16,,6,11,6,21,,51,43,18,10,6,7,0.1,0.1
2025-06-25T2200,1451A,102.6251,24.9608,昆明市,西山森林公园,,,,,,,,,,,,,,,,
2025-06-25T2200,1452A,102.7252,25.0902,昆明市,龙泉镇,,26,26,15,3,4,24,,51,45,14,9,2,1,0.3,0.3
2025-06-25T2200,1453A,102.7266,25.0375,昆明市,东风东路,,15,15,13,8,7,25,,51,44,16,10,4,5,0.3,0.3
2025-06-25T2200,1454A,102.6742,25.0669,昆明市,金鼎山,,17,17,12,3,3,25,,46,40,12,8,3,2,0.3,0.3
2025-06-25T2200,1455A,102.6644,25.0401,昆明市,碧鸡广场,,21,21,14,8,5,21,,44,38,16,11,6,6,0.4,0.4
2025-06-25T2200,3179A,102.7494,25.0119,昆明市,官渡区博物馆,,19,19,16,10,5,29,,52,46,11,7,6,6,0.2,0.3
2025-06-25T2200,3375A,102.8017,24.8336,昆明市,青年创业园,,13,13,10,3,4,39,,55,51,6,8,2,6,0.3,0.3
2025-06-25T2200,3550A,102.7997,24.9786,昆明市,昆明学院,,16,16,9,9,5,30,,52,47,11,8,5,5,0.2,0.2
2025-06-25T2200,3551A,102.5967,24.6736,昆明市,晋宁区生态环境分局,,14,14,16,3,5,37,,51,47,2,3,1,2,0.3,0.3
2025-06-25T2200,3552A,102.6678,24.9856,昆明市,云天化总部,,47,47,12,3,6,30,,44,41,10,7,5,5,0.4,0.4
2025-06-25T2200,1456A,91.1319,29.6514,拉萨市,八廓街,,33,25,20,18,13,104,,154,147,22,15,7,9,0.3,0.3
2025-06-25T2200,1457A,91.1221,29.6747,拉萨市,市环保局,,41,41,27,14,15,60,,162,141,43,16,7,7,0.5,0.3
2025-06-25T2200,1458A,91.0874,29.6475,拉萨市,区监测站,,36,33,20,20,11,64,,155,142,71,24,6,8,0.4,0.2
2025-06-25T2200,1459A,91.1774,29.6541,拉萨市,西藏大学,,37,21,16,10,9,116,,154,149,23,13,5,7,0.3,0.3
2025-06-25T2200,1460A,90.9798,29.6588,拉萨市,区辐射站,,36,29,27,14,13,114,,141,138,16,23,6,7,0.3,0.3
2025-06-25T2200,1461A,91.0834,29.6292,拉萨市,拉萨火车站,,36,24,15,8,10,113,,155,151,29,17,3,5,0.2,0.2
2025-06-25T2200,2520A,109.2203,23.7256,来宾市,来宾技工学校,,21,20,22,11,12,65,,82,81,12,8,7,8,0.4,0.4
2025-06-25T2200,3535A,109.1781,23.7297,来宾市,兴宾区政府,,26,26,21,17,9,55,,83,81,21,11,28,7,0.5,0.4
2025-06-25T2200,4002A,109.2416,23.7461,来宾市,中南小学,,32,28,26,22,11,56,,87,84,22,8,15,10,0.6,0.3
2025-06-25T2200,1477A,104.1373,35.9454,兰州市,榆中兰大校区,,,,,,,,,,,,,,,,
2025-06-25T2200,1479A,103.831,36.0464,兰州市,铁路设计院,细颗粒物(PM2.5),52,39,35,36,25,54,,126,101,70,33,11,12,0.6,0.6
2025-06-25T2200,3241A,103.7439,36.0842,兰州市,百合公园,,40,37,25,28,15,42,,124,100,61,20,6,5,0.6,0.5
2025-06-25T2200,3242A,103.9611,35.998,兰州市,和平,,27,27,22,17,14,86,,139,125,12,14,9,9,0.7,0.8
2025-06-25T2200,4236A,103.6293,36.0938,兰州市,庄浪东路808号,,43,38,34,30,26,49,,126,106,59,29,10,10,0.5,0.4
2025-06-25T2200,4237A,103.7251,36.1043,兰州市,安宁西路88号,,48,42,29,33,19,79,,144,124,30,11,6,6,0.4,0.4
2025-06-25T2200,4238A,103.8470,36.0676,兰州市,北滨河东路1号,二氧化氮,55,43,25,29,21,4,,140,107,110,29,11,12,0.8,0.6
2025-06-25T2200,3245A,103.6633,36.533,兰州新区,新区管委会,,35,31,27,24,23,97,,134,130,18,9,7,14,0.5,0.5
2025-06-25T2200,3246A,103.6975,36.4789,兰州新区,舟曲中学,,35,18,20,10,15,112,,126,123,12,10,9,16,0.4,0.6
2025-06-25T2200,1067A,116.6708,39.5111,廊坊市,药材公司,臭氧1小时,82,85,85,36,45,185,,253,236,22,21,9,10,1.0,0.9
2025-06-25T2200,1068A,116.7214,39.5589,廊坊市,开发区,颗粒物(PM10),61,71,88,35,47,130,,255,227,35,23,6,8,0.5,0.8
2025-06-25T2200,1070A,116.7244,39.5269,廊坊市,北华航天学院,,,,96,,57,,,163,,,14,,8,,0.8
2025-06-25T2200,2919A,116.7022,39.5453,廊坊市,河北工业大学,颗粒物(PM10),70,89,97,32,44,152,,256,232,29,21,9,10,0.7,0.8
2025-06-25T2200,2535A,103.7723,29.5462,乐山市,花湖湾,,27,13,12,11,11,84,,125,120,9,8,4,2,0.7,0.7
2025-06-25T2200,2536A,103.7627,29.5844,乐山市,牛耳桥,,21,14,13,11,11,67,,122,109,24,13,7,7,0.7,0.7
2025-06-25T2200,2537A,103.7508,29.6006,乐山市,市第三水厂,,43,,10,30,23,72,,116,107,20,16,3,4,0.6,0.4
2025-06-25T2200,2538A,103.7571,29.5664,乐山市,市监测站,,24,13,14,9,11,74,,122,113,10,5,6,6,0.6,0.6
2025-06-25T2200,3361A,103.7311,29.5628,乐山市,理工大学,,20,12,13,8,10,63,,128,116,22,10,6,6,0.6,0.6
2025-06-25T2200,2598A,100.2143,26.8576,丽江市,西南郊,,15,13,10,3,5,48,,67,64,10,8,6,6,0.7,0.6
2025-06-25T2200,2599A,100.2497,26.8802,丽江市,丽江古城,,16,16,16,10,6,48,,58,54,11,11,9,10,0.5,0.4
2025-06-25T2200,2600A,100.2203,26.8906,丽江市,市中心,,17,,10,3,6,52,,62,60,11,11,7,7,0.3,0.2
2025-06-25T2200,1267A,119.914,28.4514,丽水市,监测站大楼,,14,11,18,6,7,42,,84,57,12,13,3,3,0.4,0.4
2025-06-25T2200,1268A,119.93,28.4586,丽水市,莲都小学,,16,16,16,6,7,30,,82,56,18,12,3,3,0.4,0.4
2025-06-25T2200,1269A,119.879,28.4231,丽水市,余庄前,,15,15,21,3,9,30,,102,48,9,9,3,4,0.4,0.4
2025-06-25T2200,1173A,119.176,34.5885,连云港市,市环境监测站,臭氧1小时,55,48,47,27,31,164,,192,186,14,19,7,9,0.5,0.6
2025-06-25T2200,3000A,119.3581,34.6972,连云港市,德源药业,颗粒物(PM10),64,78,56,36,26,107,,185,175,38,19,10,13,0.7,0.9
2025-06-25T2200,3007A,119.178,34.844,连云港市,新城一中,颗粒物(PM10),61,71,52,37,34,155,,206,196,21,24,8,10,0.9,0.8
2025-06-25T2200,3008A,119.3608,34.7519,连云港市,胡沟管理处,,44,44,38,24,23,127,,198,181,32,27,9,10,0.9,0.8
2025-06-25T2200,3009A,119.1478,34.5911,连云港市,矿山设计院,,46,46,51,29,28,146,,184,174,9,11,11,9,0.6,0.6
2025-06-25T2200,3434A,119.2413,34.6539,连云港市,工贸学校,颗粒物(PM10),61,71,79,36,40,147,,200,190,8,10,8,10,0.7,0.7
2025-06-25T2200,3664A,119.4172,34.7341,连云港市,连云街道,臭氧1小时,82,58,43,34,23,185,,200,199,10,10,10,9,0.7,0.5
2025-06-25T2200,2571A,102.3431,27.8099,凉山彝族自治州,青龙寺,,22,22,12,3,4,19,,76,56,16,5,4,4,1.2,0.7
2025-06-25T2200,2572A,102.2721,27.8415,凉山彝族自治州,邛海宾馆,,23,23,13,16,7,34,,84,66,25,9,9,8,1.5,0.5
2025-06-25T2200,2573A,102.2625,27.898,凉山彝族自治州,西昌市政府,,17,17,11,3,7,44,,81,65,3,10,9,10,0.3,0.6
2025-06-25T2200,2574A,102.2685,27.8851,凉山彝族自治州,凉山州政府,,19,,16,13,15,42,,85,68,6,12,9,10,0.5,0.7
2025-06-25T2200,4229A,102.2342,27.8859,凉山彝族自治州,凯乐南路30号,细颗粒物(PM2.5),52,,13,36,13,26,,74,60,35,16,15,10,1.4,0.7
2025-06-25T2200,2212A,123.2,41.1953,辽阳市,宏伟区,颗粒物(PM10),68,86,51,21,22,92,,231,187,36,19,11,10,1.0,1
2025-06-25T2200,2213A,123.1683,41.2495,辽阳市,新华园,,45,45,61,22,28,90,,220,175,31,26,18,14,1.0,0.8
2025-06-25T2200,2214A,123.2354,41.2639,辽阳市,滨河路,,46,46,52,18,23,103,,214,176,29,27,12,11,1.1,0.8
2025-06-25T2200,2215A,123.149,41.2991,辽阳市,铁西工业园,颗粒物(PM10),51,52,68,28,31,52,,180,136,56,36,13,8,1.7,0.9
2025-06-25T2200,2227A,125.1358,42.8845,辽源市,环保局,,43,43,39,20,18,65,,213,162,52,41,3,4,0.4,0.5
2025-06-25T2200,3239A,125.0764,42.9078,辽源市,银鹰制药,二氧化氮,55,56,40,18,22,1,,223,148,109,53,3,5,0.5,0.4
2025-06-25T2200,1625A,115.9848,36.4372,聊城市,区政府,颗粒物(PM10),54,58,54,29,26,110,,186,158,28,21,8,9,0.6,0.5
2025-06-25T2200,2878A,116.0072,36.4343,聊城市,聊大东校,颗粒物(PM10),57,63,58,34,30,113,,190,161,26,20,8,8,0.5,0.5
2025-06-25T2200,3200A,115.9819,36.4978,聊城市,监控中心,,46,46,53,22,24,122,,194,162,26,20,8,9,0.5,0.5
2025-06-25T2200,3513A,116.0445,36.4361,聊城市,九州社区,颗粒物(PM10),51,52,59,25,28,119,,189,163,22,18,4,6,0.4,0.4
2025-06-25T2200,4018A,116.0567,36.4608,聊城市,星美广场,颗粒物(PM10),52,54,59,27,24,134,,192,170,18,18,10,11,0.6,0.6
2025-06-25T2200,2632A,94.3681,29.6376,林芝市,林芝监测站,,46,46,13,8,5,80,,102,102,3,5,4,4,0.2,0.2
2025-06-25T2200,2633A,94.3616,29.6616,林芝市,林芝人民医院,,27,12,10,8,5,86,,109,108,1,3,5,5,0.3,0.4
2025-06-25T2200,2603A,100.0781,23.8982,临沧市,市环保局,,32,,20,22,13,12,,32,25,10,8,6,6,0.7,0.6
2025-06-25T2200,2604A,100.0894,23.8822,临沧市,市气象局,,22,,15,15,11,22,,32,29,9,8,7,7,0.4,0.4
2025-06-25T2200,1733A,111.5531,36.0783,临汾市,临钢医院,颗粒物(PM10),54,58,54,36,18,112,,142,140,19,22,12,10,1.4,0.8
2025-06-25T2200,1734A,111.5028,36.0714,临汾市,技工学校,细颗粒物(PM2.5),74,78,53,54,28,104,,137,135,25,20,7,8,1.2,0.6
2025-06-25T2200,1736A,111.5018,36.0855,临汾市,市委,颗粒物(PM10),71,91,64,34,20,115,,144,143,26,24,10,10,1.3,0.7
2025-06-25T2200,3018A,111.505,36.1014,临汾市,唐尧大酒店,颗粒物(PM10),67,83,65,42,21,111,,133,132,18,20,6,8,1.1,0.6
2025-06-25T2200,4244A,111.4879,36.0530,临汾市,启星学校,细颗粒物(PM2.5),74,79,60,54,33,100,,138,136,26,25,5,7,1.4,0.8
2025-06-25T2200,4271A,103.2464,35.6123,临夏回族自治州,滨河东路1号,,38,38,26,22,17,30,,102,86,43,10,8,9,0.5,0.3
2025-06-25T2200,4310A,103.2093,35.5995,临夏回族自治州,新华街21号,,46,46,29,22,18,57,,110,94,27,12,5,5,0.4,0.4
2025-06-25T2200,1618A,118.3429,35.0532,临沂市,沂河小区,细颗粒物(PM2.5),62,70,59,44,31,124,,173,155,29,25,9,10,0.5,0.4
2025-06-25T2200,1619A,118.295,35.0583,临沂市,鲁南制药厂,颗粒物(PM10),63,75,65,31,30,117,,176,154,30,29,9,10,0.7,0.6
2025-06-25T2200,1620A,118.2794,34.9976,临沂市,新光毛纺厂,颗粒物(PM10),62,73,58,42,34,114,,176,155,29,27,10,14,0.6,0.6
2025-06-25T2200,1621A,118.3956,35.0888,临沂市,河东保险公司,颗粒物(PM10),53,56,45,30,22,137,,182,167,23,22,7,8,0.7,0.5
2025-06-25T2200,3370A,118.3564,35.0215,临沂市,十里堡居委,细颗粒物(PM2.5),64,70,57,46,31,124,,194,173,31,27,11,13,0.7,0.6
2025-06-25T2200,3496A,118.3604,35.1084,临沂市,南坊新区,颗粒物(PM10),71,92,66,36,27,107,,188,157,42,30,11,10,0.6,0.7
2025-06-25T2200,3860A,118.3920,35.0300,临沂市,皇山花园小区,颗粒物(PM10),59,68,58,41,34,118,,177,160,30,28,11,14,0.8,0.6
2025-06-25T2200,1870A,109.4856,24.3895,柳州市,柳东小学,,28,16,20,9,12,87,,94,94,6,7,4,4,0.4,0.4
2025-06-25T2200,1871A,109.4157,24.3277,柳州市,环保监测站,,,,25,,14,,,89,89,18,11,7,8,0.3,0.7
2025-06-25T2200,1872A,109.389,24.341,柳州市,河西水厂,,28,28,21,9,11,86,,93,93,12,11,4,5,0.4,0.4
2025-06-25T2200,1873A,109.4311,24.2921,柳州市,市四中,,,,27,,15,,,97,97,32,16,8,7,0.5,0.3
2025-06-25T2200,1874A,109.4006,24.3631,柳州市,市九中,,,,26,,16,,,55,,,12,,10,,0.5
2025-06-25T2200,1875A,109.4958,24.3134,柳州市,古亭山,,18,,24,12,11,42,,85,75,26,9,5,5,0.5,0.5
2025-06-25T2200,3402A,109.5422,24.3996,柳州市,市二中,,30,,19,21,25,31,,91,82,43,13,13,6,0.7,0.4
2025-06-25T2200,2307A,116.5079,31.737,六安市,监测大楼,,43,33,30,30,27,103,,130,123,7,5,4,4,0.3,0.3
2025-06-25T2200,2308A,116.4738,31.7643,六安市,皖西学院,,43,35,36,30,25,124,,144,138,6,6,5,5,0.4,0.4
2025-06-25T2200,2309A,116.4996,31.7905,六安市,朝阳厂,,40,40,33,25,25,106,,127,119,12,11,6,6,0.4,0.4
2025-06-25T2200,2310A,116.5567,31.7886,六安市,开发区,,39,39,36,27,24,109,,131,127,4,6,3,3,0.5,0.5
2025-06-25T2200,2576A,104.8,26.5892,六盘水市,窑上,,11,11,27,3,3,34,,,,5,5,3,2,0.4,0.4
2025-06-25T2200,2577A,104.83,26.5917,六盘水市,黄土坡,,13,10,12,3,6,39,,47,46,12,11,8,9,0.6,0.5
2025-06-25T2200,2578A,104.89,26.5939,六盘水市,水钢,,36,36,28,16,16,49,,48,48,7,7,10,10,0.5,0.4
2025-06-25T2200,2579A,104.8475,26.5894,六盘水市,民中,,14,6,12,3,3,43,,46,46,12,9,8,8,0.5,0.4
2025-06-25T2200,2580A,104.9544,26.5506,六盘水市,双水,,11,,7,6,6,35,,47,46,11,7,9,9,0.5,0.3
2025-06-25T2200,2335A,117.0189,25.1181,龙岩市,龙岩师专,,,,,,,,,,,,,,,,
2025-06-25T2200,2336A,117.0217,25.1033,龙岩市,龙岩市监测站,,27,17,20,13,15,86,,90,83,15,12,9,7,0.4,0.5
2025-06-25T2200,2337A,117.0258,25.0661,龙岩市,闽西职业技术学院,,32,32,29,12,14,73,,79,73,13,13,16,21,0.5,0.5
2025-06-25T2200,2338A,117.0196,25.0306,龙岩市,龙岩学院,,22,8,23,6,12,69,,76,63,10,6,7,6,0.7,0.6
2025-06-25T2200,2665A,105.0822,33.3261,陇南市,汉王镇固水子,,,,,,,,,,,,,,,,
2025-06-25T2200,2885A,104.9339,33.3826,陇南市,滨江中学,颗粒物(PM10),56,61,34,20,16,45,,97,83,22,8,5,5,0.9,0.7
2025-06-25T2200,3247A,104.955,33.371,陇南市,市总工会,,42,42,35,6,8,46,,101,85,10,6,6,6,0.7,0.7
2025-06-25T2200,2487A,111.9589,27.8901,娄底市,电视发射台,,30,30,41,15,10,5,,54,34,5,7,6,6,0.4,0.4
2025-06-25T2200,2488A,111.9975,27.725,娄底市,市监测站,细颗粒物(PM2.5),54,43,33,38,22,35,,66,59,20,19,8,10,0.9,0.9
2025-06-25T2200,2489A,112.0194,27.7314,娄底市,市委党校,,49,49,30,32,19,38,,72,62,19,13,6,6,0.5,0.6
2025-06-25T2200,2490A,111.9561,27.7569,娄底市,涟钢,,35,35,35,14,17,34,,63,58,14,15,7,4,0.7,0.7
2025-06-25T2200,2491A,111.9892,27.7044,娄底市,市政府,,48,44,28,33,17,11,,73,58,16,8,5,5,0.9,0.7
2025-06-25T2200,1893A,105.4324,28.9634,泸州市,九狮山,,38,29,18,26,21,17,,80,60,22,13,5,5,0.6,0.6
2025-06-25T2200,1894A,105.4427,28.9063,泸州市,小市上码头,,19,12,10,8,5,59,,82,72,8,8,13,12,0.6,0.6
2025-06-25T2200,1895A,105.4241,28.8573,泸州市,兰田宪桥,,,,10,,7,,,63,,,5,,8,,0.6
2025-06-25T2200,1896A,105.4379,28.8833,泸州市,市环监站,,19,19,11,11,6,49,,84,72,19,10,9,8,0.4,0.3
2025-06-25T2200,4272A,105.3689,28.7783,泸州市,纳溪中医医院,,25,17,15,17,10,35,,82,63,24,13,4,4,0.5,0.5
2025-06-25T2200,2183A,111.1406,37.5211,吕梁市,环保局,颗粒物(PM10),71,92,70,25,27,60,,177,151,61,26,4,7,0.4,0.6
2025-06-25T2200,2185A,111.1297,37.5136,吕梁市,自来水公司,,33,23,71,9,26,105,,165,147,18,22,2,7,0.4,0.6
2025-06-25T2200,2867A,111.1283,37.51,吕梁市,马茂庄小学,颗粒物(PM10),51,52,73,17,27,64,,168,141,56,30,5,6,0.4,0.6
2025-06-25T2200,1812A,112.3931,34.6516,洛阳市,市委党校,,38,33,48,26,34,99,,128,101,11,15,6,9,0.5,0.6
2025-06-25T2200,1815A,112.494,34.6886,洛阳市,河南林校,,43,39,56,30,38,104,,116,115,15,23,6,9,0.6,0.6
2025-06-25T2200,1816A,112.3844,34.623,洛阳市,开发区管委会,,33,26,42,23,32,94,,110,96,12,16,9,11,0.5,0.6
2025-06-25T2200,1817A,112.4267,34.6258,洛阳市,市委新办公区,,40,40,48,24,31,93,,124,98,10,13,8,10,0.5,0.5
2025-06-25T2200,3340A,112.6005,34.6326,洛阳市,伊滨,,45,41,62,31,36,100,,107,106,11,20,7,7,0.5,0.6
2025-06-25T2200,3341A,112.4951,34.6332,洛阳市,中移产业园,,,38,54,29,35,,,106,106,14,21,8,8,0.7,0.8
2025-06-25T2200,3593A,112.5736,34.8993,洛阳市,吉利监测站,,43,38,50,30,33,104,,122,119,15,22,5,7,0.4,0.4
2025-06-25T2200,3635A,112.3677,34.662,洛阳市,河科大西苑校区,,36,30,49,25,28,108,,125,112,10,16,11,12,0.5,0.6
2025-06-25T2200,3636A,112.4388,34.6781,洛阳市,英才小学,,46,39,61,32,40,109,,118,116,10,18,8,10,0.8,0.8
2025-06-25T2200,4214A,112.4600,34.6949,洛阳市,春都路1号院,,36,34,52,25,33,110,,118,118,11,19,4,6,0.6,0.7
2025-06-25T2200,2399A,114.051,33.5699,漯河市,三五一五工厂,,45,,38,31,29,126,,151,139,10,24,4,5,0.5,0.6
2025-06-25T2200,2400A,114.0055,33.5698,漯河市,漯河大学,,42,30,38,27,24,132,,146,132,10,30,3,4,0.5,0.5
2025-06-25T2200,2401A,114.0138,33.5828,漯河市,市水利局,,40,,40,27,25,128,,149,131,8,22,3,5,0.5,0.5
2025-06-25T2200,2402A,114.0261,33.5698,漯河市,市广电局,,46,,38,32,30,131,,153,138,7,21,1,2,0.6,0.6
2025-06-25T2200,3478A,113.9749,33.5664,漯河市,市图书馆,,40,33,50,27,29,126,,143,130,11,33,2,3,0.4,0.4
2025-06-25T2200,4250A,114.0892,33.5882,漯河市,韶山路11号,,49,37,44,34,29,118,,153,134,14,27,2,4,0.5,0.6
2025-06-25T2200,1798A,118.5092,31.6837,马鞍山市,湖东路四小,,42,37,41,29,26,128,,166,157,11,12,7,8,0.7,0.6
2025-06-25T2200,1799A,118.5024,31.6449,马鞍山市,开发区,颗粒物(PM10),55,59,48,27,24,99,,163,148,27,18,6,7,0.9,0.8
2025-06-25T2200,1802A,118.6245,31.7241,马鞍山市,濮塘,,35,28,30,24,20,107,,158,140,3,3,8,8,0.8,0.8
2025-06-25T2200,3633A,118.4918,31.6809,马鞍山市,雨山,,42,42,37,21,22,117,,164,152,13,12,6,8,0.7,0.7
2025-06-25T2200,4191A,118.5274,31.72227,马鞍山市,慈湖高新区,颗粒物(PM10),51,51,40,28,26,84,,160,139,37,17,5,7,0.7,0.6
2025-06-25T2200,1686A,111.0286,21.4688,茂名市,电白南海,,14,12,16,9,11,44,,60,52,10,7,2,3,0.6,0.6
2025-06-25T2200,1687A,110.9294,21.6533,茂名市,茂石化七小,,19,19,19,9,7,35,,69,54,9,7,3,4,0.5,0.4
2025-06-25T2200,1688A,110.9107,21.6687,茂名市,健康路,,20,17,16,14,8,43,,83,62,9,8,4,6,0.3,0.4
2025-06-25T2200,1689A,110.8592,21.6828,茂名市,高岭,,24,24,28,9,7,37,,84,60,17,13,7,8,0.3,0.3
2025-06-25T2200,3450A,111.01,21.5165,茂名市,电白水东,,14,14,10,7,4,40,,63,54,9,7,6,5,0.3,0.3
2025-06-25T2200,2539A,104.0308,30.0478,眉山市,黑龙滩水库,,25,20,6,17,14,74,,118,108,7,6,2,1,0.5,0.5
2025-06-25T2200,2540A,103.8416,30.0874,眉山市,气象局,,28,28,16,9,8,88,,135,125,16,16,3,3,0.4,0.4
2025-06-25T2200,3137A,103.8578,30.0744,眉山市,市委党校,,25,14,11,3,4,77,,130,120,25,15,4,5,0.8,0.7
2025-06-25T2200,3148A,103.8291,30.0564,眉山市,区人社局,,,38,29,3,4,,,140,136,19,18,7,7,0.6,0.5
2025-06-25T2200,1690A,116.1231,24.3284,梅州市,梅江月梅,,,26,30,16,17,63,,85,79,9,12,9,8,,0.6
2025-06-25T2200,1691A,116.0797,24.2719,梅州市,梅县新城,,25,14,26,7,14,78,,88,88,12,11,7,6,0.5,0.6
2025-06-25T2200,1692A,116.1248,24.2654,梅州市,环境监控中心,,21,18,31,12,14,65,,81,81,13,17,4,6,0.2,0.3
2025-06-25T2200,3315A,116.1233,24.2991,梅州市,梅龙,,20,19,26,13,14,61,,85,80,8,13,8,8,0.5,0.6
2025-06-25T2200,1878A,104.7778,31.4741,绵阳市,富乐山,,21,17,19,14,14,67,,104,93,10,9,8,8,0.5,0.5
2025-06-25T2200,1880A,104.6697,31.4668,绵阳市,高新区自来水公司,,35,29,22,24,13,63,,110,100,29,10,8,8,0.5,0.4
2025-06-25T2200,1881A,104.7287,31.5075,绵阳市,三水厂,,29,29,19,19,15,46,,114,100,35,11,8,8,0.7,0.5
2025-06-25T2200,3491A,104.69,31.5322,绵阳市,西科大附属小学,,26,25,19,18,14,47,,111,96,40,11,8,7,0.4,0.3
2025-06-25T2200,3492A,104.5648,31.5343,绵阳市,安州区旅游局,,30,30,20,14,14,75,,111,104,17,9,5,5,0.5,0.3
2025-06-25T2200,4226A,104.7651,31.4531,绵阳市,绵阳市气象局,,27,27,17,6,12,76,,104,99,14,9,6,8,0.5,0.4
2025-06-25T2200,1784A,129.61,44.561,牡丹江市,环保大楼,,41,41,26,20,18,51,,139,101,37,28,2,1,0.3,0.4
2025-06-25T2200,1785A,129.6115,44.5782,牡丹江市,文化广场,,32,31,35,22,20,62,,138,109,31,30,3,4,0.4,0.5
2025-06-25T2200,1786A,129.5904,44.5963,牡丹江市,第一医院,,49,49,32,23,14,41,,142,,36,26,4,7,0.4,0.5
2025-06-25T2200,1787A,129.6364,44.6075,牡丹江市,机车工厂,颗粒物(PM10),55,59,44,26,12,44,,138,104,30,26,24,9,0.6,0.5
2025-06-25T2200,1788A,129.6386,44.5462,牡丹江市,第一中学,,25,25,24,15,14,22,,135,86,22,27,3,4,0.4,0.4
2025-06-25T2200,2531A,105.0703,29.61,内江市,市监测站,,25,19,18,17,9,70,,105,97,18,9,5,5,0.5,0.6
2025-06-25T2200,2532A,105.0717,29.5947,内江市,东兴区政府,,22,11,9,8,4,68,,98,90,12,8,1,2,0.5,0.4
2025-06-25T2200,2533A,105.0653,29.5817,内江市,内江二中,,20,19,13,12,10,61,,94,87,12,8,7,8,0.5,0.5
2025-06-25T2200,2534A,105.0406,29.5822,内江市,内江日报社,,22,22,13,12,8,60,,94,90,16,8,14,9,0.4,0.3
2025-06-25T2200,2628A,92.0657,31.4846,那曲市,那曲监测站,,45,45,39,21,25,74,,129,122,40,18,7,14,0.7,0.3
2025-06-25T2200,4243A,92.0515,31.4787,那曲市,那曲市委宣传部,,,,28,,14,,,132,,,14,,9,,0.4
2025-06-25T2200,1290A,115.8931,28.6843,南昌市,省外办,,28,25,28,19,21,34,,142,118,20,23,3,2,0.6,0.8
2025-06-25T2200,1291A,115.8886,28.7003,南昌市,省林业公司,,22,22,28,7,16,44,,145,121,15,22,8,9,0.7,0.9
2025-06-25T2200,1292A,115.8126,28.7442,南昌市,林科所,,24,24,20,14,9,48,,123,108,8,10,4,5,0.8,0.8
2025-06-25T2200,1294A,115.8518,28.687,南昌市,建工学校,,27,27,25,11,13,41,,144,123,20,20,6,7,0.7,0.8
2025-06-25T2200,1295A,115.8921,28.6424,南昌市,象湖,,27,27,25,17,15,38,,139,115,22,22,6,7,0.8,0.9
2025-06-25T2200,1296A,115.7423,28.7996,南昌市,武术学校,,44,44,20,13,12,14,,72,43,4,3,7,8,0.8,0.8
2025-06-25T2200,3046A,115.9084,28.6062,南昌市,机电学校,,38,38,30,17,16,28,,128,106,27,20,3,3,0.7,0.7
2025-06-25T2200,3690A,115.9721,28.7031,南昌市,外国语学校,,29,29,22,13,9,86,,126,112,11,11,9,10,0.8,0.9
2025-06-25T2200,4192A,115.9316,28.68677,南昌市,南京东路235号,,23,23,35,16,14,54,,137,116,15,20,3,5,0.7,0.9
2025-06-25T2200,1905A,106.056,30.8064,南充市,西山风景区,,,,,,,,,,,,,,,,
2025-06-25T2200,1906A,106.0789,30.8023,南充市,南充市委,,22,8,9,3,4,69,,103,94,12,8,4,4,0.4,0.4
2025-06-25T2200,1907A,106.1031,30.8217,南充市,南充炼油厂,,19,14,9,3,9,60,,94,88,7,4,4,4,0.3,0.2
2025-06-25T2200,4227A,106.1083,30.7884,南充市,梨树横街98号,,22,,9,13,6,69,,96,87,7,5,3,3,0.3,0.3
2025-06-25T2200,4304A,106.1172,30.843,南充市,清泉寺北路188号,,24,24,14,3,6,57,,90,82,4,3,2,3,0.2,0.2
2025-06-25T2200,4305A,106.067,30.7616,南充市,同庆路1号,,20,,12,7,8,63,,96,88,7,7,4,3,0.2,0.2
2025-06-25T2200,1151A,118.8086,32.1065,南京市,迈皋桥,,42,37,25,29,17,100,,144,134,28,8,4,5,0.9,0.7
2025-06-25T2200,1152A,118.7538,32.0551,南京市,草场门,,38,31,26,19,18,121,,158,155,12,14,7,8,0.1,0.2
2025-06-25T2200,1153A,118.7794,32.0745,南京市,山西路,,38,36,28,14,15,121,,161,157,6,9,4,6,0.3,0.2
2025-06-25T2200,1154A,118.7752,32.0023,南京市,中华门,,31,29,24,12,15,98,,148,138,23,15,8,9,0.7,0.7
2025-06-25T2200,1155A,118.8109,32.0309,南京市,瑞金路,,32,31,26,19,17,101,,150,145,13,7,7,6,0.2,0.3
2025-06-25T2200,1156A,118.7997,32.0754,南京市,玄武湖,,38,38,29,15,11,111,,140,136,12,10,4,4,0.5,0.5
2025-06-25T2200,1157A,118.6414,32.0931,南京市,浦口,颗粒物(PM10),51,51,31,25,17,123,,144,144,16,18,3,4,0.8,0.3
2025-06-25T2200,1158A,118.7356,31.9996,南京市,奥体中心,,35,30,27,12,18,111,,158,149,24,22,4,5,0.4,0.3
2025-06-25T2200,1159A,118.9125,32.1028,南京市,仙林大学城,颗粒物(PM10),52,53,35,24,15,126,,148,144,18,13,6,7,0.7,0.6
2025-06-25T2200,3422A,118.8436,31.9198,南京市,江宁彩虹桥,,28,28,30,17,18,84,,161,140,38,18,3,3,0.6,0.6
2025-06-25T2200,3427A,118.8554,32.3578,南京市,六合雄州,,49,47,36,34,25,141,,171,154,24,31,5,4,0.7,0.6
2025-06-25T2200,4249A,118.8708,31.3402,南京市,汶溪路181号,,32,19,29,16,22,100,,158,139,16,15,5,5,0.6,0.5
2025-06-25T2200,4312A,119.019,31.6512,南京市,中山西路1号,,44,44,28,21,21,130,,156,144,15,11,4,4,0.9,0.7
2025-06-25T2200,1401A,108.3103,22.7881,南宁市,二十一中,,18,,19,9,9,55,,75,71,6,8,5,3,0.5,0.6
2025-06-25T2200,1402A,108.3141,22.8528,南宁市,北湖,,29,29,21,8,9,56,,78,72,11,9,4,5,0.4,0.5
2025-06-25T2200,1403A,108.3206,22.8225,南宁市,市监测站,,20,20,17,11,10,52,,73,68,10,7,7,7,0.5,0.5
2025-06-25T2200,1404A,108.3829,22.8037,南宁市,大自然花园,,23,23,18,10,10,67,,80,78,7,7,5,5,0.4,0.4
2025-06-25T2200,1405A,108.4394,22.7904,南宁市,仙葫,,20,14,18,11,10,64,,78,77,8,8,6,7,0.5,0.5
2025-06-25T2200,1406A,108.2397,22.8467,南宁市,区农职院,,22,22,19,10,10,59,,83,76,12,12,4,5,0.3,0.4
2025-06-25T2200,1407A,108.3275,22.735,南宁市,英华嘉园,,20,20,18,9,9,51,,82,74,20,11,7,8,0.6,0.6
2025-06-25T2200,3401A,108.4834,22.7618,南宁市,红星社区,,29,29,19,12,9,58,,77,76,8,7,2,3,0.4,0.4
2025-06-25T2200,4221A,108.2177,22.7774,南宁市,乐贤路16号,,22,17,21,15,11,56,,80,72,14,14,6,7,0.6,0.6
2025-06-25T2200,2331A,118.0966,26.6761,南平市,茫荡山,,,,,,,,,,,,,,,,
2025-06-25T2200,2332A,118.1681,26.6369,南平市,南平市监测站,,16,16,21,9,13,43,,84,69,8,9,4,5,0.6,0.6
2025-06-25T2200,2333A,118.1825,26.6489,南平市,南平铝业有限公司,,26,26,21,6,9,44,,83,69,8,8,4,4,0.7,0.7
2025-06-25T2200,2334A,118.1756,26.6272,南平市,南平七中,,23,23,23,12,12,39,,84,66,4,7,4,5,0.5,0.5
2025-06-25T2200,1168A,120.9098,31.9663,南通市,狼山街道,,50,,29,35,21,115,,197,175,14,24,5,6,0.7,0.9
2025-06-25T2200,1169A,120.86,32.0005,南通市,虹桥,,37,30,32,25,25,117,,195,180,19,31,3,4,0.8,0.9
2025-06-25T2200,1170A,120.87,32.02,南通市,城中,,37,35,39,18,21,116,,202,179,20,27,5,6,0.9,1
2025-06-25T2200,1171A,120.94,31.93,南通市,星湖花园,,,32,29,22,25,,,192,188,20,30,4,4,0.7,0.9
2025-06-25T2200,1172A,120.81,32.0417,南通市,紫琅学院,,,,17,,7,,,94,,,25,,7,,0.6
2025-06-25T2200,3291A,121.067,32.062,南通市,通州监测站,,35,24,27,19,20,112,,175,155,9,16,6,7,0.6,0.8
2025-06-25T2200,3432A,120.9348,31.9883,南通市,环境教育馆,,39,39,39,17,20,112,,196,170,18,24,3,4,0.2,0.4
2025-06-25T2200,2404A,112.5224,33.0122,南阳市,瓦房庄,,39,24,37,14,19,123,,125,124,7,14,6,6,0.5,0.6
2025-06-25T2200,2405A,112.5003,32.9735,南阳市,汉画馆,,37,24,34,3,14,116,,120,119,7,19,5,6,0.4,0.5
2025-06-25T2200,2406A,112.5573,33.027,南阳市,气象站,,38,18,33,17,16,120,,119,119,5,15,6,6,0.4,0.5
2025-06-25T2200,2407A,112.5481,32.9689,南阳市,理工学院,,39,22,31,16,18,122,,123,123,6,14,4,5,0.4,0.4
2025-06-25T2200,4008A,112.5234,32.9922,南阳市,卧龙区政府,,38,,32,19,17,119,,120,120,5,13,4,5,0.5,0.5
2025-06-25T2200,1234A,121.8358,29.911,宁波市,区环保大楼,,30,30,43,18,18,85,,126,122,28,40,3,5,0.7,0.8
2025-06-25T2200,1235A,121.56,29.82,宁波市,万里学院,,25,25,27,16,29,77,,123,107,21,17,2,2,0.8,0.8
2025-06-25T2200,1236A,121.713,29.9572,宁波市,龙赛医院,,33,33,38,20,19,70,,146,117,35,39,3,7,0.7,0.7
2025-06-25T2200,1239A,121.633,29.7733,宁波市,钱湖水厂,,24,16,28,13,21,75,,123,113,6,6,3,3,0.5,0.5
2025-06-25T2200,1240A,121.5856,29.8635,宁波市,太古小学,,25,22,28,15,18,80,,123,108,17,12,4,4,0.7,0.8
2025-06-25T2200,1241A,121.524,29.8674,宁波市,市环境监测中心,,25,24,25,11,12,80,,125,103,15,17,4,4,0.6,0.8
2025-06-25T2200,2871A,121.6147,29.9017,宁波市,万里国际学校,,29,20,25,14,21,92,,126,115,10,16,3,3,0.7,0.8
2025-06-25T2200,3710A,121.5594,29.8975,宁波市,白沙活动中心,,25,23,23,15,17,80,,135,115,18,14,3,3,0.5,0.5
2025-06-25T2200,2339A,119.5001,26.6946,宁德市,金涵水库,,,,,,,,,,,,,,,,
2025-06-25T2200,2341A,119.5388,26.6612,宁德市,宁德市监测站,,22,22,33,14,20,20,,115,62,29,14,4,4,0.6,0.8
2025-06-25T2200,3209A,119.5231,26.6562,宁德市,宁德一中,,26,26,33,10,25,38,,118,66,8,8,3,6,0.3,0.5
2025-06-25T2200,2618A,98.8601,25.8567,怒江傈僳族自治州,州监测站,,16,16,21,10,11,46,,55,55,5,6,7,8,0.4,0.4
2025-06-25T2200,2619A,98.8546,25.8417,怒江傈僳族自治州,泸水一中,,12,12,15,3,7,17,,38,34,10,9,5,5,0.4,0.4
2025-06-25T2200,1888A,101.6891,26.571,攀枝花市,弄弄坪,,36,36,45,19,18,11,,47,34,22,20,6,8,0.8,0.8
2025-06-25T2200,1889A,101.5769,26.5928,攀枝花市,河门口,,32,32,29,12,11,5,,52,31,28,15,7,9,1.1,1
2025-06-25T2200,1890A,101.7169,26.585,攀枝花市,炳草岗,,43,43,34,20,11,1,,47,30,38,19,12,11,1.1,0.7
2025-06-25T2200,1891A,101.7369,26.5008,攀枝花市,仁和,,38,38,28,25,15,9,,52,35,17,13,8,11,0.6,0.9
2025-06-25T2200,2835A,101.7227,26.567,攀枝花市,四十中小,,29,29,30,15,13,5,,55,37,34,18,22,16,0.8,0.6
2025-06-25T2200,1604A,122.0303,41.1489,盘锦市,开发区,,35,,30,11,21,111,,170,142,29,24,4,6,0.6,0.6
2025-06-25T2200,1605A,122.0485,41.0883,盘锦市,兴隆台,,34,14,28,12,20,107,,157,132,29,24,3,4,0.3,0.4
2025-06-25T2200,1606A,121.8297,41.1028,盘锦市,新生街道,,25,19,28,12,15,78,,154,117,23,28,6,7,0.5,0.5
2025-06-25T2200,1832A,113.3257,33.742,平顶山市,新华旅馆,,50,,37,35,21,116,,140,123,11,17,4,5,0.5,0.5
2025-06-25T2200,1833A,113.2919,33.737,平顶山市,规划设计院,,36,28,36,25,21,111,,130,116,10,20,4,5,0.6,0.5
2025-06-25T2200,1834A,113.182,33.774,平顶山市,平顶山工学院,,41,41,37,24,18,112,,129,126,9,18,1,2,0.4,0.4
2025-06-25T2200,3204A,113.3025,33.73,平顶山市,规划局,,40,22,30,13,16,128,,138,127,6,21,4,5,0.5,0.5
2025-06-25T2200,3594A,112.8867,33.9116,平顶山市,石龙区,,35,24,57,24,29,87,,120,118,13,27,6,13,0.5,0.6
2025-06-25T2200,2656A,106.6692,35.5461,平凉市,聚贤嘉苑,,34,34,36,10,11,92,,109,101,16,20,10,9,0.7,0.7
2025-06-25T2200,2657A,106.7021,35.5307,平凉市,博物馆,,34,34,39,3,8,97,,114,109,16,19,9,10,0.7,0.7
2025-06-25T2200,2347A,114.0997,27.5002,萍乡市,武功山,,7,6,4,3,6,20,,57,47,4,3,11,12,0.3,0.3
2025-06-25T2200,2348A,113.8385,27.6434,萍乡市,中医院,,38,32,39,26,25,47,,86,74,5,8,38,13,0.7,1
2025-06-25T2200,2349A,113.8493,27.6253,萍乡市,市政府车库,,,23,31,10,25,,,74,68,8,9,6,7,1.0,1.3
2025-06-25T2200,2350A,113.8676,27.6435,萍乡市,市环保局,,27,27,37,18,27,44,,78,68,2,5,29,9,0.6,0.9
2025-06-25T2200,2351A,113.866,27.6198,萍乡市,安源区政府,,34,34,35,21,22,38,,77,64,13,10,8,8,2.5,1.2
2025-06-25T2200,2319A,119.0141,25.4325,莆田市,荔城区仓后路,,28,28,35,8,14,25,,123,62,12,10,5,5,0.5,0.5
2025-06-25T2200,2320A,119.0015,25.4553,莆田市,莆田市监测站,,37,37,26,20,16,24,,136,70,19,10,5,5,0.4,0.4
2025-06-25T2200,2321A,119.1119,25.4561,莆田市,涵江区六中,,25,25,31,6,11,21,,119,55,16,13,2,3,0.4,0.4
2025-06-25T2200,2322A,119.1013,25.3215,莆田市,秀屿区政府,,17,17,24,3,12,29,,101,48,9,13,4,6,0.5,0.6
2025-06-25T2200,2323A,118.981,25.4792,莆田市,东圳水库,,,,,,,,,,,,,,,,
2025-06-25T2200,2392A,115.0312,35.7636,濮阳市,环保局,细颗粒物(PM2.5),69,62,63,50,37,118,,179,132,29,24,7,8,0.6,0.5
2025-06-25T2200,2394A,115.0574,35.7609,濮阳市,油田运输公司,颗粒物(PM10),64,77,67,35,29,123,,136,132,24,23,6,8,0.7,0.7
2025-06-25T2200,3021A,115,35.7668,濮阳市,濮水河管理处,细颗粒物(PM2.5),69,81,71,50,42,81,,93,77,33,33,4,6,0.5,0.5
2025-06-25T2200,4216A,115.0924,35.7686,濮阳市,任丘路479号,细颗粒物(PM2.5),70,87,76,51,39,121,,133,126,19,16,7,8,0.8,0.8
2025-06-25T2200,2601A,100.98,22.7633,普洱市,市环保局,,33,33,24,16,11,28,,48,42,10,5,4,4,0.5,0.5
2025-06-25T2200,2602A,100.9817,22.8322,普洱市,普洱第二中学,,36,31,24,25,16,20,,50,38,12,7,6,6,0.6,0.5
2025-06-25T2200,2262A,131.0518,45.8751,七台河市,新一中,细颗粒物(PM2.5),77,69,41,56,28,44,,212,145,38,16,10,10,1.1,1
2025-06-25T2200,3345A,131.0577,45.7879,七台河市,中波台,颗粒物(PM10),67,83,29,28,8,52,,158,123,46,21,8,9,0.5,0.3
2025-06-25T2200,3637A,131.0176,45.7761,七台河市,人民广场,颗粒物(PM10),69,88,52,48,30,64,,163,126,37,19,12,13,0.9,0.7
2025-06-25T2200,3684A,130.8781,45.8222,七台河市,新建矿广场,,41,41,55,22,19,51,,180,133,39,25,14,12,0.3,0.6
2025-06-25T2200,1779A,123.9305,47.3636,齐齐哈尔市,安居小区,,37,37,48,17,23,118,,173,153,14,20,21,14,0.5,0.6
2025-06-25T2200,1780A,123.9488,47.3386,齐齐哈尔市,中心广场,,44,44,57,12,20,132,,180,159,15,19,7,8,0.6,0.7
2025-06-25T2200,1781A,123.9483,47.3227,齐齐哈尔市,农牧车辆厂,,46,46,51,9,23,128,,168,150,9,16,5,6,0.0,0.1
2025-06-25T2200,1783A,123.945,47.2988,齐齐哈尔市,市环境监测站,,42,36,42,17,22,133,,176,159,11,14,4,4,0.4,0.4
2025-06-25T2200,3662A,123.6333,47.2075,齐齐哈尔市,富区青少年活动中心,,42,36,48,19,27,134,,159,,8,12,3,4,0.4,0.5
2025-06-25T2200,2591A,107.9783,26.5747,黔东南苗族侗族自治州,市环境监测站,,,14,16,12,11,,,42,35,26,9,3,3,0.7,0.5
2025-06-25T2200,2881A,107.8908,26.5311,黔东南苗族侗族自治州,凯里学院,,14,14,10,8,8,18,,52,40,13,5,2,2,0.4,0.4
2025-06-25T2200,2593A,107.5228,26.2403,黔南布依族苗族自治州,小围寨,,12,12,10,3,4,7,,41,29,5,3,1,3,0.4,0.3
2025-06-25T2200,3538A,107.5175,26.2978,黔南布依族苗族自治州,沙坝,,22,22,17,9,4,2,,28,17,10,4,4,5,0.7,0.5
2025-06-25T2200,2589A,104.9022,25.0925,黔西南布依族苗族自治州,场坝街,,12,11,14,6,7,38,,53,49,7,5,4,3,0.3,0.3
2025-06-25T2200,2590A,104.8811,25.0992,黔西南布依族苗族自治州,坪东大道,,20,20,17,10,6,26,,43,40,10,6,1,1,0.2,0.1
2025-06-25T2200,2502A,108.6236,21.9667,钦州市,市环保站,,19,19,13,3,4,48,,64,59,10,9,1,2,0.4,0.4
2025-06-25T2200,2503A,108.6549,21.9481,钦州市,沙埠小学,,20,20,22,10,9,45,,63,57,14,13,3,3,0.4,0.3
2025-06-25T2200,2504A,108.5989,21.7431,钦州市,港区一小,颗粒物(PM10),53,56,37,13,12,28,,59,50,33,19,3,4,0.5,0.6
2025-06-25T2200,3404A,108.5959,21.9633,钦州市,北职校,,18,18,17,7,6,41,,66,59,9,9,2,2,0.4,0.3
2025-06-25T2200,1043A,119.7493,40.0116,秦皇岛市,第一关,,46,46,59,21,24,52,,155,137,80,55,5,5,0.3,0.3
2025-06-25T2200,1044A,119.5897,39.9499,秦皇岛市,监测站,,45,45,48,9,11,117,,150,146,18,29,4,5,0.5,0.4
2025-06-25T2200,1046A,119.5251,39.9041,秦皇岛市,建设大厦,,40,40,51,15,15,115,,144,139,16,27,3,5,0.4,0.4
2025-06-25T2200,3132A,119.610547,39.943889,秦皇岛市,文明里,,42,40,49,16,15,133,,148,148,10,26,4,5,0.3,0.3
2025-06-25T2200,4198A,119.5090,39.8253,秦皇岛市,北戴河轮滑馆,,,48,46,28,20,,,161,161,10,16,2,3,0.3,0.3
2025-06-25T2200,1307A,120.6659,36.2403,青岛市,仰口,,31,16,34,10,18,99,,150,136,7,9,7,8,0.5,0.6
2025-06-25T2200,1310A,120.4134,36.0658,青岛市,市南区东部子站,臭氧1小时,78,68,45,48,28,182,,216,215,8,23,12,14,0.6,0.6
2025-06-25T2200,1311A,120.3664,36.1032,青岛市,四方区子站,臭氧1小时,87,58,40,39,26,189,,210,208,16,27,11,12,0.7,0.6
2025-06-25T2200,1312A,120.2994,36.054,青岛市,市南区西部子站,臭氧1小时,78,63,43,54,28,182,,183,183,14,32,9,10,0.8,0.7
2025-06-25T2200,1313A,120.4581,36.0858,青岛市,崂山区子站,细颗粒物(PM2.5),73,78,37,53,24,175,,197,197,14,19,11,10,0.5,0.4
2025-06-25T2200,1315A,120.3999,36.3083,青岛市,城阳区子站,臭氧1小时,80,48,38,24,17,184,,213,188,24,24,10,8,0.5,0.4
2025-06-25T2200,1966A,120.0405,35.8735,青岛市,黄岛区4号,臭氧1小时,120,68,51,46,26,239,,252,252,12,34,11,13,0.9,1
2025-06-25T2200,3362A,120.5014,36.4034,青岛市,即墨2号,,49,33,38,24,19,155,,176,166,11,16,4,4,0.4,0.3
2025-06-25T2200,3642A,120.3503,36.0736,青岛市,市北区南部,,,57,37,,21,175,,202,201,18,22,10,12,0.7,0.5
2025-06-25T2200,3643A,120.3948,36.1805,青岛市,李沧区北部,颗粒物(PM10),62,73,41,34,23,167,,184,182,22,22,12,11,0.8,0.7
2025-06-25T2200,4290A,120.1969,35.9546,青岛市,珠江路669号,臭氧1小时,104,68,44,49,29,207,,228,226,10,22,8,10,0.6,0.6
2025-06-25T2200,1702A,113.0426,23.691,清远市,环保大楼,臭氧1小时,69,16,19,14,17,175,,196,196,17,21,5,6,0.5,0.5
2025-06-25T2200,1703A,113.0208,23.7106,清远市,凤城街办,,50,36,34,21,16,160,,182,182,20,22,7,8,0.5,0.4
2025-06-25T2200,3025A,113.0477,23.6344,清远市,技师学院,,,32,34,15,16,,,180,180,,22,,8,,0.5
2025-06-25T2200,3318A,112.9903,23.7403,清远市,清新太和,,48,36,33,18,16,151,,168,168,15,19,8,9,0.5,0.5
2025-06-25T2200,3455A,113.076,23.7198,清远市,清城东城,,47,25,35,13,17,149,,96,,18,20,8,9,0.4,0.3
2025-06-25T2200,2661A,107.6325,35.7357,庆阳市,庆阳五中,,30,28,24,11,15,95,,120,111,16,8,5,6,0.4,0.4
2025-06-25T2200,2662A,107.6364,35.7067,庆阳市,市环保局,,30,30,27,13,13,94,,120,113,14,7,8,10,0.6,0.5
2025-06-25T2200,1916A,103.7897,25.5035,曲靖市,环境监测站,,31,31,14,3,5,38,,49,47,6,6,4,3,0.5,0.4
2025-06-25T2200,1917A,103.8,25.5364,曲靖市,烟厂办公区,,20,20,11,8,6,27,,54,50,26,5,4,4,0.6,0.5
2025-06-25T2200,3376A,103.7947,25.462,曲靖市,南苑二区,,13,12,10,3,4,40,,52,50,9,5,4,4,0.6,0.5
2025-06-25T2200,3377A,103.7444,25.5261,曲靖市,曲靖师范学院,,24,24,9,12,5,43,,54,53,7,5,11,6,0.3,0.3
2025-06-25T2200,1264A,118.8692,28.9398,衢州市,环保大楼,,27,27,38,16,26,36,,98,77,19,10,3,4,0.5,0.5
2025-06-25T2200,1265A,118.8709,28.9666,衢州市,实验学校,,22,22,27,11,18,44,,104,78,18,12,4,4,0.5,0.4
2025-06-25T2200,1266A,118.8621,28.9808,衢州市,衢州学院,,16,15,23,11,18,44,,108,82,18,12,3,3,0.5,0.6
2025-06-25T2200,1611A,118.5819,24.9117,泉州市,涂山街,,17,17,29,6,13,24,,78,41,13,18,2,4,0.5,0.5
2025-06-25T2200,1612A,118.5972,24.8978,泉州市,津头埔,,18,18,24,3,12,23,,72,38,13,17,2,4,0.5,0.5
2025-06-25T2200,1613A,118.6663,24.9424,泉州市,万安,,20,20,28,3,12,23,,79,41,10,14,2,2,0.5,0.4
2025-06-25T2200,1614A,118.6117,24.9604,泉州市,清源山,,,,,,,,,,,,,,,,
2025-06-25T2200,3529A,118.6333,24.9264,泉州市,城华南路,,9,9,20,3,11,19,,76,38,13,15,3,5,0.4,0.4
2025-06-25T2200,2626A,88.8876,29.2718,日喀则市,日喀则监测站,,35,10,9,8,5,112,,142,138,17,7,13,12,0.3,0.3
2025-06-25T2200,3726A,88.8781,29.2426,日喀则市,林业技术推广中心,,46,46,14,10,4,97,,137,132,10,5,8,8,0.5,0.4
2025-06-25T2200,1659A,119.471,35.4209,日照市,监测站,颗粒物(PM10),65,80,46,42,27,87,,212,176,54,44,11,9,0.8,0.8
2025-06-25T2200,1660A,119.523,35.4216,日照市,市政府广场,细颗粒物(PM2.5),78,95,51,57,26,105,,192,169,34,28,8,11,0.9,0.8
2025-06-25T2200,1661A,119.5587,35.4044,日照市,港务局,细颗粒物(PM2.5),77,75,59,56,35,152,,218,199,18,38,7,10,0.9,0.9
2025-06-25T2200,3507A,119.5328,35.4625,日照市,职业技术学院,细颗粒物(PM2.5),64,68,58,46,26,148,,209,184,24,38,5,8,0.8,0.8
2025-06-25T2200,3604A,119.3266,35.1044,日照市,岚山环保分局,颗粒物(PM10),69,88,64,48,31,152,,216,188,29,34,43,23,1.0,1.1
2025-06-25T2200,1835A,111.1922,34.7752,三门峡市,市政府,,28,23,40,16,27,87,,102,97,15,21,5,6,0.3,0.5
2025-06-25T2200,1836A,111.1587,34.7942,三门峡市,开发区,,30,24,50,16,33,96,,111,103,15,17,5,7,0.5,0.6
2025-06-25T2200,1838A,111.143,34.7955,三门峡市,风景区,,36,24,36,3,26,113,,120,117,9,12,8,9,0.3,0.4
2025-06-25T2200,3039A,111.1911,34.7829,三门峡市,三门峡市第一小学,,30,18,40,14,27,95,,114,102,17,19,6,7,0.4,0.6
2025-06-25T2200,3598A,111.1,34.7167,三门峡市,富达温泉假日酒店,,35,32,32,24,33,78,,110,102,21,18,9,9,0.4,0.4
2025-06-25T2200,2324A,117.6211,26.2625,三明市,三钢,,30,21,28,21,24,56,,118,92,18,13,24,7,2.9,1.2
2025-06-25T2200,2325A,117.635,26.2714,三明市,三明二中,,16,15,24,8,16,51,,112,90,17,12,2,2,0.9,0.8
2025-06-25T2200,2326A,117.6028,26.2378,三明市,三元区政府,,,,28,12,17,,,118,107,11,10,2,6,0.4,0.6
2025-06-25T2200,2327A,117.7275,26.3108,三明市,洋溪,,,,,,,,,,,,,,,,
2025-06-25T2200,1876A,109.5078,18.2489,三亚市,河东子站,,25,25,10,8,4,27,,48,38,12,4,3,3,0.4,0.4
2025-06-25T2200,1877A,109.4964,18.2681,三亚市,河西子站,,16,16,10,10,5,29,,48,38,7,6,3,2,0.4,0.3
2025-06-25T2200,3540A,109.7348,18.3443,三亚市,君悦子站,,,18,8,9,4,,,53,46,3,4,2,2,0.3,0.3
2025-06-25T2200,2624A,91.7608,29.2313,山南市,山南监测站,,34,17,11,3,5,107,,134,131,14,8,2,3,0.3,0.3
2025-06-25T2200,2625A,91.7706,29.2436,山南市,山南人民医院,,36,20,12,10,6,115,,140,137,8,7,6,6,0.2,0.2
2025-06-25T2200,1674A,116.6794,23.3667,汕头市,金平子站,,15,11,12,10,8,46,,58,56,4,5,6,5,0.5,0.5
2025-06-25T2200,1675A,116.7244,23.3633,汕头市,龙湖子站,,13,7,14,3,5,40,,55,50,8,7,5,6,0.4,0.4
2025-06-25T2200,1676A,116.7258,23.2775,汕头市,濠江子站,,11,6,16,3,9,33,,51,48,11,8,5,4,0.5,0.5
2025-06-25T2200,1677A,116.7519,23.4714,汕头市,澄海子站,,12,10,20,3,10,36,,64,48,8,8,2,2,0.5,0.6
2025-06-25T2200,1678A,116.6092,23.2539,汕头市,潮阳子站,,13,13,11,3,5,41,,57,53,6,3,4,4,0.4,0.4
2025-06-25T2200,3444A,116.454,23.2684,汕头市,潮南峡山,,,,10,8,8,,,58,49,11,6,6,5,0.5,0.3
2025-06-25T2200,3624A,116.4069,23.2533,汕头市,潮南子站,,,14,14,,7,,,57,53,8,4,5,4,0.5,0.5
2025-06-25T2200,1693A,115.3653,22.775,汕尾市,市环保局,,,18,14,3,4,,,58,56,7,7,3,3,0.5,0.3
2025-06-25T2200,1694A,115.3706,22.7898,汕尾市,市政府,,18,9,11,3,6,56,,60,57,8,7,4,4,0.4,0.4
