timepoint,stationcode,longitude,latitude,area,positionname,primarypollutant,aqi,pm10,pm10_24h,pm2_5,pm2_5_24h,o3,o3_24h,o3_8h,o3_8h_24h,no2,no2_24h,so2,so2_24h,co,co_24h
2025-06-25T2000,2566A,102.1879,31.914,阿坝藏族羌族自治州,州农科所,,27,27,18,16,9,55,,68,68,20,9,13,13,0.5,0.5
2025-06-25T2000,2568A,102.2502,31.8896,阿坝藏族羌族自治州,马师校,,,,20,,16,95,,104,104,3,6,6,6,0.4,0.5
2025-06-25T2000,3994A,102.2165,31.9024,阿坝藏族羌族自治州,马尔康中学西区,,38,,14,26,16,98,,108,108,3,4,5,6,0.2,0.3
2025-06-25T2000,2695A,80.292,41.1694,阿克苏地区,电视台,颗粒物(PM10),65,80,60,28,23,106,,122,122,4,9,2,4,0.6,0.6
2025-06-25T2000,2696A,80.2613,41.1551,阿克苏地区,艺术中心,颗粒物(PM10),76,101,68,35,29,125,,133,133,3,7,4,3,0.3,0.3
2025-06-25T2000,2204A,105.6467,38.8363,阿拉善盟,西城区西花园,,,,15,32,19,144,,160,155,13,9,5,6,0.5,0.9
2025-06-25T2000,2205A,105.6985,38.8411,阿拉善盟,蒙二幼,颗粒物(PM10),51,51,23,20,12,139,,152,148,15,10,11,10,0.6,0.6
2025-06-25T2000,2206A,105.724,38.8516,阿拉善盟,环保局新楼,,43,34,19,18,12,135,,145,138,9,6,9,9,0.6,0.6
2025-06-25T2000,2708A,88.1264,47.8517,阿勒泰地区,市站,,29,14,16,3,5,90,,102,101,9,8,2,1,0.3,0.3
2025-06-25T2000,2630A,80.1161,32.5,阿里地区,阿里监测站,,37,,16,19,12,117,,120,120,9,8,8,8,0.3,0.3
2025-06-25T2000,3192A,80.0903,32.5028,阿里地区,阿里藏医院,,40,9,24,6,12,125,,125,125,4,4,8,8,0.4,0.4
2025-06-25T2000,2642A,109.0318,32.6537,安康市,香溪洞,,28,19,21,6,13,87,,113,100,2,4,4,4,0.5,0.5
2025-06-25T2000,2644A,109.0072,32.6975,安康市,汉滨区检察院,,,,35,10,20,87,,99,97,3,6,5,6,,0.5
2025-06-25T2000,4054A,109.0325,32.6913,安康市,市邮政管理局,,28,8,26,8,15,88,,103,99,3,6,4,5,0.4,0.5
2025-06-25T2000,2291A,117.0809,30.5177,安庆市,环科院,,,76,35,,19,142,,138,138,9,16,5,5,0.8,0.7
2025-06-25T2000,2292A,117.0331,30.5119,安庆市,马山宾馆,,42,32,33,26,19,134,,130,130,16,18,6,6,0.9,0.8
2025-06-25T2000,2294A,116.9896,30.6145,安庆市,安庆大学,,32,27,39,20,22,101,,126,122,7,17,2,3,0.6,0.7
2025-06-25T2000,3173A,117.0598,30.5351,安庆市,市人大,,43,39,31,23,19,135,,144,144,17,17,5,5,0.7,0.6
2025-06-25T2000,3122A,105.9606,26.2611,安顺市,伍家关,,22,22,22,8,8,33,,,,10,6,3,4,0.5,0.4
2025-06-25T2000,3123A,105.9408,26.2431,安顺市,凤凰山,,,,16,,13,42,,54,53,18,5,4,4,0.4,0.5
2025-06-25T2000,3124A,105.9439,26.2564,安顺市,金钟山,,32,,14,22,10,45,,55,55,10,4,4,4,0.3,0.2
2025-06-25T2000,3125A,105.8983,26.2481,安顺市,娄家坡,,45,,12,31,9,38,,52,51,12,2,3,3,0.7,0.5
2025-06-25T2000,1818A,114.4839,36.0621,安阳市,棉研所,,,,,,,,,,,,,,,,
2025-06-25T2000,1819A,114.3551,36.1017,安阳市,红庙街,颗粒物(PM10),89,127,63,43,27,131,,149,142,24,9,9,8,0.6,0.4
2025-06-25T2000,1820A,114.361,36.0681,安阳市,银杏小区,,,,60,,31,135,,147,144,,20,7,11,0.6,0.4
2025-06-25T2000,3141A,114.3922,36.0878,安阳市,信访局,细颗粒物(PM2.5),80,85,62,59,40,148,,156,151,23,13,5,8,0.7,0.6
2025-06-25T2000,3669A,114.4705,36.0637,安阳市,左辅环卫站,颗粒物(PM10),64,78,65,40,33,128,,158,154,20,21,6,9,0.6,0.6
2025-06-25T2000,3703A,114.2917,36.0949,安阳市,安钢职工学校,颗粒物(PM10),81,112,66,56,32,136,,142,141,23,16,11,7,0.6,0.5
2025-06-25T2000,1748A,123.044,41.1196,鞍山市,深沟寺,臭氧1小时,72,50,45,25,23,177,,205,205,23,21,11,11,1.1,1.1
2025-06-25T2000,1749A,123.011,41.0931,鞍山市,太阳城,臭氧1小时,63,37,43,21,25,170,,198,198,21,18,13,12,0.7,1.1
2025-06-25T2000,1750A,123.0485,41.1442,鞍山市,太平,颗粒物(PM10),56,62,64,29,28,160,,196,196,24,25,14,12,0.8,1.1
2025-06-25T2000,1751A,122.9642,41.0971,鞍山市,铁西三道街,颗粒物(PM10),51,52,60,27,28,121,,186,184,37,33,10,17,0.9,1.6
2025-06-25T2000,1753A,123.022,41.0821,鞍山市,明达新区,臭氧1小时,52,41,47,24,26,161,,198,198,24,20,12,13,0.6,0.9
2025-06-25T2000,1754A,123.1289,41.0228,鞍山市,千山,,,,,,,,,,,,,,,,
2025-06-25T2000,4201A,122.9446,41.0826,鞍山市,兴盛南路290号,颗粒物(PM10),53,56,76,25,33,119,,199,194,46,45,8,14,0.6,1.1
2025-06-25T2000,2195A,107.4212,40.761,巴彦淖尔市,附二中,,44,32,40,12,19,139,,142,142,9,10,5,10,0.5,0.6
2025-06-25T2000,2196A,107.37,40.7372,巴彦淖尔市,市环保大楼,,47,33,46,13,21,149,,145,145,10,14,8,8,0.4,0.5
2025-06-25T2000,1956A,86.1472,41.7538,巴音郭楞蒙古自治州,孔雀公园,颗粒物(PM10),62,74,43,30,19,114,,118,118,4,6,9,10,0.1,0.2
2025-06-25T2000,1957A,86.1972,41.7166,巴音郭楞蒙古自治州,棉纺厂,颗粒物(PM10),65,79,57,28,13,126,,122,122,5,9,3,5,0.2,0.3
2025-06-25T2000,1958A,86.2357,41.7173,巴音郭楞蒙古自治州,经济开发区,,,,35,,12,120,,117,117,5,5,1,10,0.1,0.2
2025-06-25T2000,2914A,106.7677,31.8794,巴中市,苏山坪,,27,8,14,6,8,86,,93,93,4,2,5,5,0.4,0.4
2025-06-25T2000,3181A,106.7768,31.8526,巴中市,市五中,,29,11,15,6,9,90,,105,105,7,6,7,7,0.5,0.5
2025-06-25T2000,3183A,106.7418,31.8654,巴中市,圣泉水务公司,,,10,12,8,10,94,,108,108,,6,6,6,,0.5
2025-06-25T2000,3616A,106.7616,31.8344,巴中市,市中心医院,,29,9,13,3,6,91,,104,104,4,6,7,7,0.4,0.4
2025-06-25T2000,2235A,122.7911,45.6077,白城市,洮北区环保局,,36,36,33,7,17,113,,162,153,24,13,5,5,0.3,0.3
2025-06-25T2000,2236A,122.8738,45.5725,白城市,市环保局,,36,36,38,12,20,103,,149,140,5,5,6,7,0.4,0.5
2025-06-25T2000,2231A,126.4219,41.9171,白山市,喜丰,,39,39,56,3,18,42,,128,109,27,27,7,7,0.7,0.7
2025-06-25T2000,2232A,126.4077,41.9419,白山市,环保局,,37,37,31,3,10,73,,122,111,14,14,4,4,0.7,0.6
2025-06-25T2000,2647A,104.1724,36.5446,白银市,第三小学,,34,20,27,9,21,107,,104,104,9,14,77,47,0.8,0.8
2025-06-25T2000,2648A,104.1465,36.5482,白银市,动力公司,,35,16,25,8,18,112,,95,95,11,14,28,30,0.4,0.6
2025-06-25T2000,2512A,106.6103,23.9011,百色市,市监测站,,27,27,30,17,16,56,,76,73,7,12,4,10,0.6,0.4
2025-06-25T2000,2513A,106.6538,23.8859,百色市,市中心血站,,46,46,32,23,15,52,,73,70,17,12,3,7,0.6,0.6
2025-06-25T2000,3406A,106.6085,23.8798,百色市,祈福高中,,49,49,35,23,19,52,,78,74,13,15,5,12,0.4,0.4
2025-06-25T2000,2270A,117.396,32.939,蚌埠市,工人疗养院,臭氧1小时,59,35,27,22,13,167,,157,157,6,8,4,4,0.5,0.4
2025-06-25T2000,2271A,117.3605,32.9427,蚌埠市,百货大楼,臭氧1小时,62,64,35,19,12,169,,154,154,10,12,5,5,0.5,0.4
2025-06-25T2000,2273A,117.4185,32.8911,蚌埠市,蚌埠学院,,46,39,25,23,15,146,,153,152,16,8,6,4,0.5,0.4
2025-06-25T2000,2274A,117.3533,32.9673,蚌埠市,淮上区政府,臭氧1小时,58,31,30,24,16,166,,159,159,10,12,5,5,0.6,0.5
2025-06-25T2000,2275A,117.3145,32.8977,蚌埠市,高新区,,50,34,28,18,15,160,,148,148,10,12,6,5,0.6,0.4
2025-06-25T2000,3715A,117.3092,32.9314,蚌埠市,蚌埠田家炳中学,,50,34,28,26,16,159,,150,150,6,9,7,8,0.4,0.3
2025-06-25T2000,1585A,109.8756,40.6532,包头市,市环境监测站,,49,25,40,14,17,154,,148,148,22,30,15,16,0.8,0.8
2025-06-25T2000,1587A,109.9991,40.5842,包头市,包头八中,,43,31,58,17,26,137,,144,144,25,29,11,17,0.7,0.8
2025-06-25T2000,1588A,109.8538,40.6821,包头市,青山宾馆,,48,28,41,16,23,151,,149,149,18,32,13,14,0.7,0.6
2025-06-25T2000,1589A,109.8642,40.6288,包头市,惠龙物流,,47,28,42,15,20,150,,148,148,23,29,17,14,0.9,0.8
2025-06-25T2000,1590A,110.0377,40.5546,包头市,东河鸿龙湾,,43,24,50,11,17,136,,143,143,16,28,10,14,0.6,0.7
2025-06-25T2000,3283A,109.9154,40.5685,包头市,滨河大厦,,47,24,42,17,21,149,,147,147,19,27,14,14,0.7,0.6
2025-06-25T2000,3419A,109.9447,40.6261,包头市,包头市委党校,,,,43,,19,144,,149,149,21,30,17,18,0.8,0.7
2025-06-25T2000,3683A,109.8331,40.6576,包头市,昆区政府,,45,25,43,19,27,144,,135,135,26,32,14,15,1.1,0.9
2025-06-25T2000,1930A,107.185,34.3063,宝鸡市,庙沟村,,27,20,16,13,11,86,,101,101,19,10,5,5,0.4,0.3
2025-06-25T2000,1931A,107.0708,34.3017,宝鸡市,竹园沟,,23,21,17,12,9,71,,103,102,16,11,5,6,0.4,0.4
2025-06-25T2000,1932A,107.1906,34.3672,宝鸡市,三陆医院,,29,26,24,20,18,86,,92,92,23,19,20,6,0.6,0.5
2025-06-25T2000,1933A,107.1431,34.3547,宝鸡市,监测站,,28,28,23,18,16,85,,97,97,12,13,7,6,0.3,0.3
2025-06-25T2000,1934A,107.1186,34.3739,宝鸡市,技工学校,,26,24,24,13,17,83,,101,101,6,7,7,7,0.5,0.5
2025-06-25T2000,1935A,107.3906,34.3528,宝鸡市,陈仓区环保局家属楼,,36,,23,25,20,89,,103,102,14,14,7,5,0.5,0.5
2025-06-25T2000,1936A,107.2058,34.3497,宝鸡市,文理学院,,32,32,23,15,16,88,,104,104,16,12,6,5,0.5,0.5
2025-06-25T2000,1937A,107.2386,34.3622,宝鸡市,三迪小学,,,30,24,20,19,102,,105,105,,15,9,6,0.6,0.5
2025-06-25T2000,1051A,115.493,38.8632,保定市,游泳馆,臭氧1小时,105,56,66,29,41,210,,252,249,15,22,6,6,0.4,0.4
2025-06-25T2000,1052A,115.5213,38.8959,保定市,华电二区,臭氧1小时,110,56,65,31,35,220,,260,256,12,19,1,3,0.7,0.8
2025-06-25T2000,1053A,115.4713,38.9108,保定市,接待中心,臭氧1小时,104,83,66,30,40,208,,245,242,11,19,3,3,0.6,0.6
2025-06-25T2000,1054A,115.4612,38.8416,保定市,地表水厂,臭氧1小时,106,78,83,25,37,212,,259,254,24,32,3,3,0.5,0.5
2025-06-25T2000,3581A,115.31981,38.95208,保定市,满城区生态环境分局,,,,71,,35,209,,252,248,12,17,6,5,,0.4
2025-06-25T2000,3582A,115.47694,38.76408,保定市,清苑区第二中学,臭氧1小时,107,81,94,43,49,214,,271,265,,24,3,4,0.4,0.5
2025-06-25T2000,3583A,115.62909,39.02311,保定市,徐水物探局,臭氧1小时,82,92,84,24,36,185,,246,240,21,24,2,4,0.5,0.6
2025-06-25T2000,4004A,115.4202,38.8656,保定市,双鹰农机,臭氧1小时,105,50,61,38,39,209,,257,252,20,28,5,6,0.4,0.5
2025-06-25T2000,4034A,115.5150,38.8590,保定市,植保所站,臭氧1小时,109,58,71,30,38,217,,266,262,16,23,1,6,0.6,0.6
2025-06-25T2000,2594A,99.1678,25.1081,保山市,市环境监测站,,12,12,12,8,10,28,,39,38,5,5,8,8,0.4,0.4
2025-06-25T2000,2595A,99.1711,25.1328,保山市,市环保局,,13,12,12,7,8,41,,47,47,2,3,6,6,0.3,0.3
2025-06-25T2000,1866A,109.2262,21.588,北海市,牛尾岭水库,,33,33,11,6,7,52,,61,60,19,5,11,7,0.6,0.4
2025-06-25T2000,1867A,109.1436,21.4086,北海市,海滩公园,,29,29,23,3,4,52,,59,58,4,4,2,2,0.1,0.1
2025-06-25T2000,1868A,109.0981,21.4661,北海市,新市环保局,,21,21,14,7,8,55,,65,64,4,4,2,2,0.3,0.4
2025-06-25T2000,1869A,109.1778,21.5233,北海市,北海工业园,,,,18,10,7,65,,66,66,6,6,3,3,0.4,0.3
2025-06-25T2000,3400A,109.1911,21.4415,北海市,龙潭自来水厂,,19,15,12,3,7,58,,65,64,4,4,4,4,0.4,0.4
2025-06-25T2000,1001A,116.3621,39.8784,北京市,万寿西宫,臭氧1小时,132,54,67,32,37,264,,284,284,17,20,8,11,0.8,0.8
2025-06-25T2000,1002A,116.2202,40.2915,北京市,定陵,,,,,,,,,,,,,,,,
2025-06-25T2000,1003A,116.4174,39.9289,北京市,东四,臭氧1小时,143,62,70,26,36,286,,300,300,25,27,7,11,0.6,0.7
2025-06-25T2000,1004A,116.4072,39.8863,北京市,天坛,臭氧1小时,120,60,66,34,37,240,,273,273,16,18,7,10,0.8,0.9
2025-06-25T2000,1005A,116.462,39.9365,北京市,农展馆,臭氧1小时,116,57,67,27,37,232,,252,252,18,18,8,12,0.9,1.1
2025-06-25T2000,1006A,116.3392,39.9295,北京市,官园,臭氧1小时,132,58,64,29,39,264,,280,280,17,20,8,10,0.7,0.8
2025-06-25T2000,1007A,116.2878,39.9611,北京市,海淀万柳,臭氧1小时,120,62,70,33,40,240,,259,259,22,34,7,9,0.9,0.9
2025-06-25T2000,1008A,116.6636,40.135,北京市,顺义新城,臭氧1小时,105,58,73,32,40,209,,234,234,19,21,7,9,0.7,0.9
2025-06-25T2000,1009A,116.6275,40.3275,北京市,怀柔镇,臭氧1小时,120,62,70,35,42,239,,244,244,21,16,6,7,0.7,0.8
2025-06-25T2000,1010A,116.2296,40.217,北京市,昌平镇,臭氧1小时,129,62,68,31,41,257,,265,265,14,14,7,8,0.7,0.7
2025-06-25T2000,1011A,116.3966,39.9821,北京市,奥体中心,臭氧1小时,119,61,67,30,37,238,,240,240,17,21,7,9,0.7,0.8
2025-06-25T2000,3281A,115.9718,40.4529,北京市,延庆夏都,臭氧1小时,134,73,52,40,32,268,,224,224,14,19,8,6,0.9,0.6
2025-06-25T2000,3418A,116.8336,40.4095,北京市,密云新城,臭氧1小时,116,58,67,34,38,231,,232,232,18,16,8,6,0.5,0.7
2025-06-25T2000,3671A,116.088,39.9726,北京市,门头沟三家店,细颗粒物(PM2.5),78,87,53,57,30,181,,245,242,25,14,5,6,1.0,0.7
2025-06-25T2000,3672A,116.1541,39.8204,北京市,丰台云岗,臭氧1小时,128,62,81,36,36,255,,273,273,13,26,7,7,0.8,0.7
2025-06-25T2000,3673A,116.6804,39.9081,北京市,通州东关,臭氧1小时,115,59,73,25,40,229,,257,257,13,16,5,10,0.7,1.1
2025-06-25T2000,3674A,115.9577,39.7603,北京市,房山燕山,臭氧1小时,108,67,61,35,38,216,,256,254,14,15,3,4,0.8,0.6
2025-06-25T2000,3675A,116.4672,39.7733,北京市,大兴旧宫,臭氧1小时,114,57,74,29,43,228,,247,247,15,17,4,6,0.7,0.9
2025-06-25T2000,3694A,115.986,40.4563,北京市,延庆石河营,臭氧1小时,126,63,52,38,32,251,,219,219,12,18,5,3,0.9,0.6
2025-06-25T2000,3695A,116.6151,40.3053,北京市,怀柔新城,臭氧1小时,108,64,80,41,48,216,,232,232,16,11,5,6,0.9,1.1
2025-06-25T2000,3696A,116.2545,39.8768,北京市,丰台小屯,臭氧1小时,111,61,67,34,40,222,,241,241,17,15,5,8,0.8,0.9
2025-06-25T2000,3697A,116.84,40.3844,北京市,密云镇,臭氧1小时,115,59,67,30,38,229,,227,227,13,16,8,8,0.8,0.8
2025-06-25T2000,4182A,116.1942,39.9158,北京市,八角北路9号,臭氧1小时,107,65,69,30,38,214,,249,249,31,22,6,7,0.7,0.7
2025-06-25T2000,4194A,117.0790,40.1518,北京市,洳河巡河路,臭氧1小时,108,67,77,33,40,215,,229,229,15,13,6,8,0.7,0.9
2025-06-25T2000,1761A,123.8275,41.3064,本溪市,大峪,,48,48,57,29,29,135,,210,202,18,24,9,10,0.6,1
2025-06-25T2000,1762A,123.7567,41.3325,本溪市,溪湖,颗粒物(PM10),52,53,80,22,32,64,,98,97,20,34,9,8,0.7,1.5
2025-06-25T2000,1763A,123.7169,41.3094,本溪市,彩屯,,46,46,62,24,34,127,,223,214,32,35,16,14,0.7,1.4
2025-06-25T2000,1764A,123.7669,41.2864,本溪市,东明,臭氧1小时,59,56,63,24,26,167,,234,228,17,34,12,11,0.7,1.9
2025-06-25T2000,1765A,123.7992,41.2664,本溪市,新立屯,颗粒物(PM10),53,55,53,24,27,114,,234,222,49,40,8,12,0.9,2.3
2025-06-25T2000,1766A,123.8142,41.3472,本溪市,威宁,颗粒物(PM10),58,66,73,23,30,160,,225,220,17,28,7,8,0.6,0.8
2025-06-25T2000,2587A,105.2864,27.3125,毕节市,八中,,17,17,9,10,7,31,,59,51,12,6,4,5,0.6,0.5
2025-06-25T2000,2588A,105.31,27.2944,毕节市,师专,,16,15,7,11,6,48,,63,60,13,8,3,4,0.5,0.4
2025-06-25T2000,4263A,105.3688,27.3598,毕节市,工业大道,,15,15,5,8,3,46,,68,63,13,10,6,5,0.6,0.6
2025-06-25T2000,1629A,118.0018,37.3617,滨州市,第二水厂,臭氧1小时,64,68,69,29,29,171,,248,241,21,23,5,8,0.5,0.5
2025-06-25T2000,1630A,117.9776,37.393,滨州市,北中新校,臭氧1小时,78,56,62,27,31,182,,262,254,22,18,19,23,0.6,0.8
2025-06-25T2000,3514A,117.9378,37.3956,滨州市,中海酒店,,,53,65,,38,194,,249,245,15,21,11,15,0.7,0.9
2025-06-25T2000,3515A,117.9378,37.3553,滨州市,开发区一中,臭氧1小时,70,75,74,31,30,176,,232,228,22,25,12,15,0.5,0.6
2025-06-25T2000,3516A,118.0917,37.694,滨州市,金海六路,,47,46,58,14,26,149,,244,229,14,23,12,15,0.3,0.4
2025-06-25T2000,4028A,117.9956,37.3753,滨州市,滨州市西街道办事处,臭氧1小时,73,48,60,27,33,178,,258,250,15,17,6,10,0.4,0.5
2025-06-25T2000,2311A,115.8072,33.8399,亳州市,污水处理厂,,47,26,43,19,26,148,,152,152,12,13,4,5,1.0,0.8
2025-06-25T2000,2312A,115.7789,33.8518,亳州市,三国揽胜宫,,48,35,43,22,28,153,,156,155,10,9,2,3,0.6,0.5
2025-06-25T2000,3332A,115.7633,33.8034,亳州市,亳州学院,,48,29,45,18,24,153,,163,162,12,12,2,4,0.5,0.5
2025-06-25T2000,2693A,82.0485,44.8556,博尔塔拉蒙古自治州,市党校,,,31,24,3,14,110,,110,110,,10,4,3,0.3,0.4
2025-06-25T2000,2694A,82.0806,44.8969,博尔塔拉蒙古自治州,市环保局,,49,49,40,14,14,104,,106,106,5,6,1,2,0.3,0.3
2025-06-25T2000,1071A,116.8842,38.2991,沧州市,沧县城建局,臭氧1小时,114,49,55,48,44,228,,266,261,26,38,3,3,0.6,0.4
2025-06-25T2000,1072A,116.8584,38.3254,沧州市,电视转播站,臭氧1小时,106,75,56,44,38,212,,243,243,,29,2,4,0.6,0.4
2025-06-25T2000,1073A,116.8709,38.3228,沧州市,市环保局,臭氧1小时,97,78,67,31,36,197,,248,245,22,28,1,3,0.6,0.5
2025-06-25T2000,3324A,116.8136,38.3004,沧州市,河北水利电力学院,臭氧1小时,120,92,72,52,36,240,,292,288,28,36,6,6,0.6,0.4
2025-06-25T2000,2622A,97.1806,31.1273,昌都市,昌都监测站,,,,9,10,7,98,,108,108,18,7,5,5,0.3,0.2
2025-06-25T2000,3719A,97.1714,31.1406,昌都市,昌都会议中心,,35,16,13,9,8,112,,119,119,6,4,6,6,0.1,0.1
2025-06-25T2000,2690A,88.1236,43.8886,昌吉回族自治州,天山天池,,40,22,16,11,6,128,,128,128,6,6,5,5,0.6,0.6
2025-06-25T2000,2692A,87.2717,44.0297,昌吉回族自治州,新区政务中心,,46,17,24,3,8,147,,143,143,5,10,3,4,0.2,0.3
2025-06-25T2000,3613A,87.3095,44.0142,昌吉回族自治州,亚心广场,,,29,35,,10,136,,134,134,12,15,7,6,0.2,0.3
2025-06-25T2000,1120A,125.2863,43.9027,长春市,客车厂,,39,38,67,24,35,124,,218,200,46,60,5,6,0.4,0.7
2025-06-25T2000,1121A,125.2841,43.8463,长春市,邮电学院,,,,56,,29,,,144,,,48,,7,,0.8
2025-06-25T2000,1122A,125.3716,43.8772,长春市,劳动公园,颗粒物(PM10),64,77,77,28,38,118,,209,190,37,47,7,7,0.3,0.6
2025-06-25T2000,1123A,125.3297,43.8805,长春市,园林处,细颗粒物(PM2.5),60,,70,43,36,142,,215,199,24,45,6,7,0.4,0.7
2025-06-25T2000,1124A,125.4605,43.79,长春市,净月潭,,40,23,37,15,20,128,,223,206,25,13,8,7,0.3,0.5
2025-06-25T2000,1125A,125.7194,43.515,长春市,甩湾子,,33,26,34,15,18,105,,213,198,27,54,4,4,0.7,0.8
2025-06-25T2000,1126A,125.3863,43.8447,长春市,经开区环卫处,,42,41,61,19,24,132,,218,200,24,49,7,6,0.4,0.5
2025-06-25T2000,1127A,125.245,43.7783,长春市,高新区管委会,细颗粒物(PM2.5),69,,49,50,26,134,,223,201,32,48,4,4,0.6,0.5
2025-06-25T2000,1128A,125.1761,43.8325,长春市,岱山公园,,,54,86,30,43,106,,216,191,77,76,4,6,,0.6
2025-06-25T2000,4281A,125.3346,43.9164,长春市,北亚泰大街1068号,,41,38,77,26,35,131,,216,198,25,60,4,6,0.6,0.9
2025-06-25T2000,1335A,113.0833,28.2325,长沙市,经开区环保局,,29,28,26,20,17,74,,101,100,13,19,4,4,0.5,0.5
2025-06-25T2000,1336A,112.8872,28.2189,长沙市,高开区环保局,,,25,35,18,19,68,,91,88,,14,,3,0.7,0.7
2025-06-25T2000,1337A,113.0792,28.2053,长沙市,马坡岭,,32,32,30,21,17,65,,99,96,17,19,4,4,0.8,0.8
2025-06-25T2000,1338A,112.9394,28.19,长沙市,湖南师范大学,,28,28,31,15,19,46,,96,88,6,11,2,2,0.4,0.5
2025-06-25T2000,1339A,113.0178,28.1322,长沙市,雨花区环保局,,30,30,29,17,15,79,,98,97,8,20,4,5,0.3,0.4
2025-06-25T2000,1340A,112.9792,28.2597,长沙市,伍家岭,,34,34,30,19,17,46,,100,94,23,16,2,2,0.8,0.5
2025-06-25T2000,1341A,113.0014,28.1944,长沙市,火车新站,,36,36,29,24,17,61,,95,92,13,16,6,7,0.7,0.7
2025-06-25T2000,1342A,112.9844,28.1178,长沙市,天心区环保局,,24,24,29,14,18,76,,106,103,11,17,1,2,1.1,1.2
2025-06-25T2000,1343A,112.8908,28.1308,长沙市,湖南中医药大学,,38,38,32,12,19,27,,90,81,31,12,3,3,0.6,0.6
2025-06-25T2000,1344A,112.9581,28.3611,长沙市,沙坪,,25,24,20,17,12,37,,96,88,12,10,4,4,0.7,0.6
2025-06-25T2000,1727A,113.1147,36.1547,长治市,清华站,,42,23,34,7,14,133,,148,148,9,15,7,7,0.5,0.6
2025-06-25T2000,1730A,113.0886,36.2125,长治市,审计局,,45,22,31,12,16,141,,148,148,13,20,9,10,0.7,0.8
2025-06-25T2000,1731A,113.0844,36.1856,长治市,长治八中,,,30,45,18,23,144,,155,155,,18,13,12,,0.7
2025-06-25T2000,2845A,113.1569,36.1911,长治市,德盛苑,,44,24,28,9,14,140,,157,155,8,10,8,9,0.6,0.6
2025-06-25T2000,3568A,113.06,36.0464,长治市,向阳小学,,,43,53,25,18,143,,159,159,,10,6,7,0.5,0.5
2025-06-25T2000,3569A,112.8792,36.3144,长治市,屯留一中,细颗粒物(PM2.5),53,54,53,37,28,143,,153,153,20,18,11,8,0.6,0.2
2025-06-25T2000,4189A,113.1131,36.19948,长治市,英华南巷50号,,42,31,38,19,19,134,,147,147,13,17,7,8,0.5,0.6
2025-06-25T2000,4190A,113.2367,36.3344,长治市,学府街1号,,42,41,51,17,21,134,,163,158,33,28,4,6,0.6,0.7
2025-06-25T2000,1854A,111.6975,28.9703,常德市,市二中,,36,32,22,25,18,65,,88,87,8,10,3,5,0.8,0.8
2025-06-25T2000,1857A,111.7158,29.1456,常德市,白鹤山,,,,,,,,,,,,,,,,
2025-06-25T2000,3138A,111.7153,29.0289,常德市,武陵区永安,,41,41,24,24,19,62,,83,81,7,6,3,2,0.4,0.4
2025-06-25T2000,3139A,111.6892,28.9881,常德市,鼎城区玉霞,,38,38,25,25,17,67,,89,88,6,7,4,4,0.6,0.6
2025-06-25T2000,3140A,111.6625,29.0531,常德市,武陵区长庚,,40,38,23,28,20,65,,82,79,6,6,2,3,0.6,0.5
2025-06-25T2000,1196A,119.9633,31.762,常州市,市监测站,,35,28,53,14,28,111,,192,181,27,45,14,7,0.5,0.7
2025-06-25T2000,1200A,119.9468,31.7069,常州市,武进监测站,,39,38,40,23,28,122,,152,147,15,25,10,9,0.8,0.9
2025-06-25T2000,1201A,119.9255,31.9087,常州市,安家,,46,46,60,21,28,105,,220,203,37,42,8,9,0.6,0.7
2025-06-25T2000,3002A,119.9805,31.8174,常州市,行政中心,,38,33,56,22,28,120,,210,202,16,29,7,8,0.4,0.6
2025-06-25T2000,3003A,120.0522,31.7748,常州市,经开区,,36,36,62,20,26,108,,209,199,22,41,6,8,0.4,0.6
2025-06-25T2000,3010A,119.9025,31.7964,常州市,钟楼,,,,46,,26,97,,163,150,,36,7,7,,0.8
2025-06-25T2000,3429A,119.8598,31.7066,常州市,武进经发区,,,47,52,25,27,126,,148,141,15,26,6,7,,0.8
2025-06-25T2000,3430A,119.5826,31.7245,常州市,金坛城区,,42,40,37,29,24,131,,165,160,21,17,8,7,0.5,0.5
2025-06-25T2000,2220A,120.4318,41.5881,朝阳市,西梁,臭氧1小时,62,34,47,25,30,169,,175,175,13,24,8,11,0.7,0.8
2025-06-25T2000,2221A,120.4521,41.5646,朝阳市,河畔小区,臭氧1小时,70,21,40,16,21,176,,178,178,10,17,7,9,0.2,0.5
2025-06-25T2000,2222A,120.4176,41.5648,朝阳市,八里堡,臭氧1小时,60,54,52,24,32,168,,187,186,17,22,6,9,0.5,0.9
2025-06-25T2000,2223A,120.3806,41.5969,朝阳市,农业园区,,45,39,39,19,24,142,,169,167,23,20,7,5,0.5,0.5
2025-06-25T2000,1705A,116.6367,23.6719,潮州市,西园路,,,,31,10,16,38,,101,74,13,14,4,6,0.5,0.5
2025-06-25T2000,3026A,116.6183,23.6608,潮州市,市政府,,22,22,26,15,14,34,,98,76,7,10,2,7,0.7,0.8
2025-06-25T2000,4036A,116.6461,23.6761,潮州市,金山,,16,,28,11,18,39,,92,74,8,11,6,5,0.6,0.6
2025-06-25T2000,2472A,113.0073,25.9061,郴州市,马头岭,,30,30,28,8,10,88,,96,96,10,18,11,10,0.5,0.4
2025-06-25T2000,2473A,113.0116,25.8226,郴州市,市职中,,40,,22,28,21,99,,102,101,14,13,8,8,0.4,0.5
2025-06-25T2000,2475A,113.0383,25.8071,郴州市,市审计局,颗粒物(PM10),55,60,25,15,16,96,,103,101,11,11,11,11,0.4,0.4
2025-06-25T2000,2476A,113.0348,25.7759,郴州市,市环保局,,35,35,32,18,11,112,,106,106,10,16,8,7,0.2,0.2
2025-06-25T2000,4252A,113.0138,25.8011,郴州市,好美居路49号,,,,25,16,13,102,,107,105,,12,12,6,0.4,0.5
2025-06-25T2000,1431A,103.9728,30.7236,成都市,金泉两河,臭氧1小时,68,30,20,18,9,174,,161,161,20,14,2,2,0.5,0.4
2025-06-25T2000,1432A,104.176,30.6872,成都市,十里店,,34,30,20,15,10,107,,140,140,13,12,4,4,0.5,0.5
2025-06-25T2000,1433A,104.079,30.5706,成都市,三瓦窑,,36,21,21,3,14,115,,164,163,12,20,3,3,0.5,0.5
2025-06-25T2000,1434A,104.1114,30.63,成都市,沙河铺,,30,21,24,9,11,96,,122,122,14,12,4,4,0.5,0.5
2025-06-25T2000,1437A,104.0786,30.6531,成都市,君平街,,36,33,24,25,15,107,,113,113,16,15,4,4,0.7,0.7
2025-06-25T2000,1438A,103.613,31.0283,成都市,灵岩寺,,,,,,,,,,,,,,,,
2025-06-25T2000,2880A,104.0239,30.65639,成都市,大石西路,,,,27,,14,138,,155,155,14,13,,4,0.7,0.7
2025-06-25T2000,3136A,104.2725,30.5589,成都市,龙泉驿区区政府,,33,17,9,9,8,104,,123,122,8,9,3,3,0.6,0.6
2025-06-25T2000,3357A,104.0106,30.6931,成都市,金博路,,48,29,14,18,9,152,,151,151,17,17,3,3,0.7,0.6
2025-06-25T2000,3359A,104.0578,30.5225,成都市,华阳,,30,17,16,14,14,93,,136,135,11,17,7,6,0.7,0.8
2025-06-25T2000,3488A,104.3853,30.7453,成都市,青白江技师分院,,41,41,22,22,12,102,,121,119,21,14,4,4,0.6,0.6
2025-06-25T2000,3489A,104.0789,30.4072,成都市,科学城,,33,12,15,10,12,104,,134,134,6,9,3,3,0.6,0.6
2025-06-25T2000,4011A,103.8506,30.6947,成都市,光华大道三段,,50,34,26,30,20,160,,,,14,14,4,4,0.4,0.4
2025-06-25T2000,4224A,104.2433,30.5353,成都市,鲸龙路1057号,,35,17,19,11,14,112,,127,126,8,13,7,7,0.6,0.7
2025-06-25T2000,1062A,117.9531,40.9081,承德市,铁路,臭氧1小时,84,60,68,38,41,187,,208,200,15,17,7,8,1.0,1
2025-06-25T2000,1063A,117.9392,40.9763,承德市,中国银行,臭氧1小时,94,67,60,45,42,195,,208,202,9,14,6,5,0.9,0.7
2025-06-25T2000,1064A,117.9503,40.928,承德市,开发区,臭氧1小时,98,68,69,37,33,198,,216,208,14,15,9,12,1.0,1
2025-06-25T2000,1065A,117.8051,40.9655,承德市,文化中心,臭氧1小时,83,60,82,34,41,186,,221,213,8,24,6,14,0.9,0.9
2025-06-25T2000,1066A,117.9268,41.0026,承德市,离宫,细颗粒物(PM2.5),59,64,52,42,33,125,,204,187,10,13,2,4,0.9,0.6
2025-06-25T2000,2314A,117.47,30.6618,池州市,池州学院,,41,41,25,25,14,97,,126,125,34,13,5,5,0.7,0.6
2025-06-25T2000,3237A,117.4918,30.6617,池州市,展览馆,,43,43,26,20,14,105,,126,126,23,13,4,4,0.9,0.7
2025-06-25T2000,3333A,117.5627,30.695,池州市,第八中学,,32,29,26,17,16,100,,139,139,11,13,5,5,0.6,0.6
2025-06-25T2000,3334A,117.5038,30.6243,池州市,第十二中学,,28,27,28,18,15,89,,138,136,10,19,3,3,0.9,0.8
2025-06-25T2000,1744A,118.9233,42.2816,赤峰市,松山一中,臭氧1小时,52,37,46,19,28,161,,188,185,24,19,11,14,0.8,0.8
2025-06-25T2000,1745A,118.9576,42.2728,赤峰市,哈达街,臭氧1小时,55,28,45,19,25,164,,180,179,17,21,13,17,0.7,0.8
2025-06-25T2000,1746A,118.8788,42.2554,赤峰市,天义路,臭氧1小时,59,27,38,26,34,167,,196,193,20,14,13,16,0.7,0.6
2025-06-25T2000,3058A,119.2658,42.0353,赤峰市,银河街,颗粒物(PM10),55,59,55,26,32,151,,183,178,19,14,12,15,0.8,0.8
2025-06-25T2000,3286A,118.9359,42.3147,赤峰市,桥北物流园区,颗粒物(PM10),53,56,54,35,35,143,,187,182,38,19,20,21,0.5,0.6
2025-06-25T2000,2521A,107.3476,22.4136,崇左市,市环保局江州分局,,39,39,22,9,9,86,,88,88,6,8,6,5,0.6,0.6
2025-06-25T2000,4256A,107.3750,22.3736,崇左市,石景林东路7号,,26,19,19,10,9,81,,88,88,8,11,3,3,0.5,0.5
2025-06-25T2000,2298A,118.3093,32.3153,滁州市,老年大学,臭氧1小时,65,39,38,21,22,172,,190,189,12,18,9,9,0.5,0.4
2025-06-25T2000,2299A,118.3244,32.2786,滁州市,人大宾馆,,,38,29,23,23,187,,184,184,,15,,5,0.6,0.3
2025-06-25T2000,3207A,118.3118,32.3038,滁州市,市政府原办公楼,臭氧1小时,65,30,36,23,30,172,,192,192,9,14,5,5,0.7,0.5
2025-06-25T2000,3331A,118.3267,32.2634,滁州市,图书馆,,,,26,,23,181,,180,180,7,11,,9,,0.5
2025-06-25T2000,2605A,101.5482,25.0441,楚雄彝族自治州,州环境监测站,,38,38,8,6,3,18,,35,32,15,5,6,6,0.4,0.3
2025-06-25T2000,2606A,101.538,25.0492,楚雄彝族自治州,市经济开发区,,33,33,13,10,5,20,,34,32,13,4,6,6,0.4,0.4
2025-06-25T2000,2548A,107.5277,31.2827,达州市,达州职业技术学院,,18,18,19,3,3,57,,74,70,9,10,6,6,0.5,0.4
2025-06-25T2000,2549A,107.5086,31.2186,达州市,市环境监测站,,17,16,14,3,2,54,,91,76,20,14,6,6,0.3,0.3
2025-06-25T2000,2550A,107.4988,31.2132,达州市,凤凰小区,,20,19,11,3,5,64,,93,80,16,11,6,5,0.3,0.2
2025-06-25T2000,2551A,107.5082,31.1986,达州市,达县机关宾馆,,19,19,10,6,5,43,,86,66,30,17,9,6,0.3,0.3
2025-06-25T2000,2552A,107.4644,31.2124,达州市,市政中心,,,,18,,3,59,,80,72,14,10,4,3,,0.4
2025-06-25T2000,2614A,100.1542,25.7054,大理白族自治州,大理市环境监测站,,22,,6,15,13,31,,34,34,10,4,5,5,0.6,0.5
2025-06-25T2000,2615A,100.2171,25.5811,大理白族自治州,大理古城,,19,19,14,12,7,31,,44,42,8,7,8,9,0.7,0.7
2025-06-25T2000,1109A,121.612,38.9741,大连市,甘井子,,25,25,37,10,18,75,,106,93,21,27,7,7,0.5,0.6
2025-06-25T2000,1110A,121.565,38.9511,大连市,周水子,,29,28,33,13,16,92,,112,102,12,30,12,12,0.3,0.4
2025-06-25T2000,1111A,121.5637,38.8845,大连市,星海三站,,31,29,30,9,17,97,,109,103,5,11,4,6,0.2,0.3
2025-06-25T2000,1112A,121.6302,38.9117,大连市,青泥洼桥,,31,18,30,9,17,98,,114,106,3,19,7,9,0.3,0.4
2025-06-25T2000,1113A,121.6251,38.8638,大连市,傅家庄,,30,27,28,10,17,93,,106,98,5,15,10,11,0.2,0.3
2025-06-25T2000,1114A,121.5213,38.8661,大连市,七贤岭,,33,25,27,11,15,103,,124,115,6,12,7,7,0.5,0.7
2025-06-25T2000,1115A,121.2529,38.8061,大连市,旅顺,,28,23,21,6,15,88,,115,103,5,14,4,5,0.3,0.3
2025-06-25T2000,1116A,121.7485,39.1311,大连市,金州,,27,27,38,10,16,73,,114,102,28,25,8,11,0.2,0.3
2025-06-25T2000,1117A,121.7811,39.0496,大连市,开发区,,28,24,39,9,21,88,,106,94,15,45,10,12,0.4,0.5
2025-06-25T2000,1118A,121.9762,39.0631,大连市,双D港,,23,9,20,7,13,72,,122,99,14,16,9,9,0.3,0.4
2025-06-25T2000,1789A,124.81117,46.03138,大庆市,大同区,颗粒物(PM10),56,61,45,13,19,126,,151,142,17,11,7,7,0.6,0.5
2025-06-25T2000,1790A,125.129,46.533,大庆市,龙凤区,,38,28,41,18,20,119,,170,158,12,13,5,6,0.4,0.4
2025-06-25T2000,1791A,124.902,46.408,大庆市,红岗区,,48,48,42,32,24,128,,184,171,15,12,9,10,0.6,0.5
2025-06-25T2000,1792A,125.153,46.586,大庆市,萨尔图区,细颗粒物(PM2.5),63,,46,45,24,111,,154,144,18,14,8,10,0.3,0.5
2025-06-25T2000,1793A,124.9042,46.6215,大庆市,让胡路区,,42,42,42,26,24,127,,174,162,21,15,7,6,0.3,0.4
2025-06-25T2000,3481A,125.141,46.634,大庆市,萨区政府监测点,颗粒物(PM10),52,54,48,17,18,139,,182,172,16,10,8,8,0.5,0.4
2025-06-25T2000,1721A,113.3819,40.1097,大同市,果树场,,,,,,,,,,,,,,,,
2025-06-25T2000,1723A,113.2994,40.0758,大同市,云冈宾馆,臭氧1小时,58,40,52,18,23,166,,165,165,15,20,5,6,0.6,0.8
2025-06-25T2000,1724A,113.3444,40.0917,大同市,大同大学,臭氧1小时,75,67,39,23,21,180,,180,180,14,20,11,10,0.8,0.5
2025-06-25T2000,1725A,113.2661,40.1269,大同市,安家小村,臭氧1小时,74,41,56,26,24,179,,172,172,13,21,5,6,0.4,0.8
2025-06-25T2000,1726A,113.2711,40.0844,大同市,教育学院,臭氧1小时,78,37,55,17,24,182,,175,175,14,25,8,10,0.4,0.6
2025-06-25T2000,3282A,113.3397,40.0597,大同市,大同市卫生学校,颗粒物(PM10),52,54,47,25,22,154,,166,165,20,18,7,8,0.5,0.6
2025-06-25T2000,3565A,113.1367,40.1122,大同市,云冈站,臭氧1小时,57,40,67,21,27,165,,169,168,12,24,6,6,0.4,0.5
2025-06-25T2000,3566A,113.1186,40.2556,大同市,图书馆,,45,36,40,22,23,143,,162,157,16,12,7,9,0.6,0.7
2025-06-25T2000,3567A,113.5931,40.0461,大同市,区一中,,45,24,38,21,22,142,,171,168,32,11,12,11,0.4,0.4
2025-06-25T2000,4199A,113.2798,40.0997,大同市,魏都大道141号,臭氧1小时,82,39,62,20,24,185,,176,176,10,21,7,9,0.6,1
2025-06-25T2000,2269A,124.1069,50.4097,大兴安岭地区,科技局,,47,47,31,16,14,80,,96,94,10,6,11,8,0.6,0.5
2025-06-25T2000,3663A,124.1164,50.4278,大兴安岭地区,红旗社区,,25,17,16,17,15,79,,104,102,6,6,6,6,0.3,0.3
2025-06-25T2000,1600A,124.3303,40.0625,丹东市,江湾东路,,27,27,51,8,23,76,,96,93,23,20,5,9,0.6,0.8
2025-06-25T2000,1601A,124.4256,40.1503,丹东市,临江后街,颗粒物(PM10),57,63,85,12,20,63,,100,96,26,21,9,9,0.9,0.9
2025-06-25T2000,1602A,124.3933,40.1461,丹东市,元宝山,,24,23,45,12,24,75,,92,90,11,16,7,9,0.5,0.7
2025-06-25T2000,1603A,124.3633,40.1092,丹东市,民主桥,,29,29,53,10,24,79,,95,93,12,18,8,9,0.9,1.1
2025-06-25T2000,3541A,109.5726,19.5167,儋州市,第一中学子站,,14,14,10,8,5,37,,38,38,4,4,6,6,0.4,0.5
2025-06-25T2000,3542A,109.5567,19.5187,儋州市,东坡学校子站,,16,16,8,3,4,39,,42,41,4,3,4,6,0.8,0.7
2025-06-25T2000,2616A,98.5842,24.428,德宏傣族景颇族自治州,德宏州监测站,,13,11,20,6,8,41,,45,44,10,9,7,7,0.7,0.8
2025-06-25T2000,3677A,98.5881,24.4368,德宏傣族景颇族自治州,芒市人民政府综合楼,,19,19,24,3,6,36,,43,42,7,6,8,8,0.5,0.5
2025-06-25T2000,1901A,104.4239,31.1208,德阳市,东山公园,,,15,14,13,12,127,,129,129,6,9,4,4,,0.7
2025-06-25T2000,1902A,104.3826,31.1317,德阳市,西小区,,36,29,24,19,14,113,,125,125,12,13,5,5,0.7,0.7
2025-06-25T2000,1904A,104.3553,31.1091,德阳市,耐火材料厂,,37,23,21,15,12,117,,130,130,8,12,1,3,0.4,0.4
2025-06-25T2000,3639A,104.4019,31.1244,德阳市,市教育局,,42,23,20,18,13,134,,140,140,6,10,10,25,0.6,0.6
2025-06-25T2000,1622A,116.3032,37.4674,德州市,儿童乐园,臭氧1小时,99,63,63,27,31,199,,248,241,14,13,8,10,0.5,0.5
2025-06-25T2000,1624A,116.2991,37.4451,德州市,监理站,臭氧1小时,95,53,62,27,30,196,,242,237,13,20,9,10,0.4,0.4
2025-06-25T2000,3066A,116.2721,37.4379,德州市,九衢泉纯净水厂,臭氧1小时,68,56,64,24,32,174,,225,219,22,31,6,5,0.6,0.7
2025-06-25T2000,3371A,116.3728,37.4403,德州市,开发区人民医院,臭氧1小时,93,61,62,27,28,194,,234,229,18,21,9,10,0.6,0.6
2025-06-25T2000,3372A,116.3572,37.4094,德州市,太阳城中学,,,,,,,,,,,,,,,,
2025-06-25T2000,3511A,116.5652,37.3319,德州市,陵城艺术中心,臭氧1小时,84,75,74,31,32,187,,231,226,19,19,6,6,0.9,0.8
2025-06-25T2000,2621A,99.7056,27.8317,迪庆藏族自治州,迪庆州站,,35,32,15,15,10,112,,115,115,14,9,7,7,0.5,0.3
2025-06-25T2000,3180A,99.7136,27.8094,迪庆藏族自治州,质量技术监督局,,34,18,13,3,7,107,,112,112,13,10,6,6,0.3,0.5
2025-06-25T2000,4257A,104.6092,35.5962,定西市,将台街,,38,34,26,13,12,120,,124,124,7,9,4,4,0.1,0.1
2025-06-25T2000,4309A,104.6159,35.5701,定西市,正龙路62号,,40,30,22,21,13,126,,124,124,2,4,4,4,0.2,0.2
2025-06-25T2000,1389A,113.7547,23.0494,东莞市,莞城梨川,,24,23,23,10,14,75,,178,169,23,21,6,6,0.5,0.5
2025-06-25T2000,1390A,113.7944,23.0128,东莞市,东城石井,,24,24,20,12,12,65,,146,137,27,25,3,3,0.5,0.4
2025-06-25T2000,1391A,113.7383,22.9658,东莞市,南城西平,,22,21,17,8,11,70,,158,153,28,21,4,3,0.5,0.6
2025-06-25T2000,3319A,113.7338,23.0381,东莞市,万江金泰,,,33,21,26,14,70,,162,156,24,21,,3,0.4,0.5
2025-06-25T2000,3626A,113.7533,23.0202,东莞市,南城元岭,,23,21,18,9,11,73,,161,152,24,22,5,4,0.4,0.4
2025-06-25T2000,3627A,113.7875,23.0457,东莞市,东城主山,,30,30,30,14,11,73,,164,159,22,22,7,7,0.7,0.6
2025-06-25T2000,1666A,118.6614,37.4309,东营市,市环保局,,,,50,,23,121,,230,203,,24,16,15,,0.6
2025-06-25T2000,3036A,118.6904,37.4338,东营市,开发区管委会,,37,24,54,12,23,116,,231,201,17,26,13,13,0.3,0.5
2025-06-25T2000,3365A,118.5719,37.565,东营市,垦利区民丰路,,38,22,54,3,24,120,,232,202,13,23,8,10,0.6,0.8
2025-06-25T2000,3498A,118.5055,37.8612,东营市,河口城区,,38,24,43,7,17,121,,213,190,10,16,5,8,0.7,0.9
2025-06-25T2000,3646A,118.4978,37.4623,东营市,胜利站,,38,25,51,7,22,121,,245,218,18,28,8,14,0.6,0.8
2025-06-25T2000,3734A,118.35,37.26,东营市,理想之城,,39,24,47,17,24,124,,254,225,18,25,8,11,0.5,0.8
2025-06-25T2000,1591A,110.0023,39.8129,鄂尔多斯市,综合楼,,47,27,38,17,18,148,,146,146,20,25,4,8,0.7,0.6
2025-06-25T2000,1592A,109.9486,39.8261,鄂尔多斯市,巴音孟克林场办事处,,49,34,48,22,20,154,,156,156,18,21,1,6,0.5,0.5
2025-06-25T2000,1593A,109.7736,39.5986,鄂尔多斯市,康泽苑,,43,29,43,14,17,136,,154,153,15,19,10,10,0.3,0.3
2025-06-25T2000,1594A,109.8119,39.5989,鄂尔多斯市,华泰汽车城,,36,36,48,22,19,106,,129,129,20,29,4,6,0.5,0.5
2025-06-25T2000,1595A,109.9734,39.7884,鄂尔多斯市,奥林花园,,48,31,47,17,22,151,,153,153,18,27,6,9,0.5,0.4
2025-06-25T2000,2436A,114.8938,30.3994,鄂州市,市政府,颗粒物(PM10),54,57,46,27,22,109,,132,129,2,9,4,7,0.9,0.8
2025-06-25T2000,2437A,114.8989,30.3714,鄂州市,赵家坝,,46,46,32,14,16,111,,139,135,7,12,9,10,0.7,0.6
2025-06-25T2000,3654A,114.8094,30.4089,鄂州市,精准医疗中心,,50,50,37,28,20,97,,129,124,23,22,10,10,2.0,1.1
2025-06-25T2000,2454A,109.4978,30.2981,恩施土家族苗族自治州,湖北民院,,24,16,22,11,15,75,,96,89,11,6,4,4,0.5,0.4
2025-06-25T2000,2455A,109.4707,30.2798,恩施土家族苗族自治州,州电力总公司,,18,18,16,8,12,47,,80,66,23,9,7,6,0.5,0.5
2025-06-25T2000,3549A,109.5061,30.3772,恩施土家族苗族自治州,龙凤新区,,20,,20,14,14,55,,91,83,9,7,3,3,0.5,0.4
2025-06-25T2000,2499A,108.3411,21.6158,防城港市,沙万,,25,25,22,11,8,33,,58,53,25,13,4,3,0.5,0.7
2025-06-25T2000,2500A,108.3514,21.7731,防城港市,防城档案局,,,,33,,7,45,,69,67,,13,,3,0.5,0.7
2025-06-25T2000,2501A,108.3506,21.6414,防城港市,大海花园,,27,27,23,16,10,34,,72,67,26,9,5,5,0.4,0.5
2025-06-25T2000,1371A,113.1294,23.0067,佛山市,湾梁,,31,24,18,13,11,98,,126,125,20,18,8,9,0.5,0.5
2025-06-25T2000,1372A,113.1083,23.0478,佛山市,华材职中,,37,19,15,15,7,116,,139,139,16,11,6,11,0.5,0.5
2025-06-25T2000,1373A,113.144,23.0453,佛山市,南海气象局,,30,19,22,11,12,94,,130,129,18,17,2,8,0.7,0.7
2025-06-25T2000,1374A,113.2881,22.8094,佛山市,顺德苏岗,,23,15,24,3,6,72,,116,111,13,14,7,7,0.6,0.6
2025-06-25T2000,1376A,112.8383,22.8678,佛山市,高明孔堂,,,27,18,11,7,94,,139,138,,8,,6,0.6,0.6
2025-06-25T2000,1377A,112.8836,23.1588,佛山市,三水监测站,,35,29,23,3,12,109,,135,135,30,27,3,4,0.5,0.6
2025-06-25T2000,1378A,112.867,23.185,佛山市,三水云东海,,40,36,26,21,13,127,,160,160,35,23,1,2,0.4,0.5
2025-06-25T2000,3625A,113.2544,22.7642,佛山市,容桂街道办,,,9,14,9,8,74,,113,109,20,21,6,8,,0.7
2025-06-25T2000,1280A,119.3903,26.0543,福州市,鼓山,,,,,,,,,,,,,,,,
2025-06-25T2000,1282A,119.2681,26.0504,福州市,师大,,24,24,30,7,12,74,,143,133,12,9,5,4,0.2,0.2
2025-06-25T2000,1283A,119.2984,26.1028,福州市,五四北路,,32,32,30,12,12,84,,145,134,18,14,5,4,0.3,0.3
2025-06-25T2000,1284A,119.2648,26.0768,福州市,杨桥西路,,28,28,28,8,12,81,,148,138,15,11,4,4,0.3,0.3
2025-06-25T2000,1285A,119.317,26.0746,福州市,紫阳,,45,45,35,11,12,56,,132,118,37,17,5,4,0.3,0.3
2025-06-25T2000,3048A,119.5799,26.0936,福州市,九龙,,,16,28,3,16,,,140,,7,14,4,5,0.2,0.3
2025-06-25T2000,3526A,119.5189,25.9664,福州市,吴航,,17,14,28,8,16,52,,136,117,14,13,5,5,0.3,0.4
2025-06-25T2000,1755A,123.7977,41.8491,抚顺市,望花区,臭氧1小时,72,52,74,25,35,177,,228,222,33,41,10,13,0.6,0.9
2025-06-25T2000,1756A,123.9161,41.8822,抚顺市,顺城区,臭氧1小时,101,48,62,22,29,202,,227,224,25,46,11,9,0.7,0.9
2025-06-25T2000,1757A,124.0436,41.8611,抚顺市,东洲区,臭氧1小时,104,,40,24,26,207,,228,227,19,18,8,9,0.7,0.7
2025-06-25T2000,1758A,123.9247,41.8642,抚顺市,新抚区,臭氧1小时,100,49,60,20,27,200,,230,225,20,36,9,8,0.7,0.8
2025-06-25T2000,1759A,124.0972,41.8961,抚顺市,大伙房水库,臭氧1小时,85,32,31,20,22,188,,202,202,24,20,8,8,0.5,0.5
2025-06-25T2000,1760A,123.7086,41.8391,抚顺市,沈抚新城,臭氧1小时,72,54,53,23,35,177,,231,225,31,43,6,9,0.7,0.8
2025-06-25T2000,2376A,116.2127,28.0814,抚州市,桐源党溪,,,27,30,17,13,,,80,79,2,2,5,10,0.4,0.6
2025-06-25T2000,2377A,116.3544,27.9831,抚州市,市站,,27,27,23,10,11,50,,72,68,7,8,2,8,0.7,1
2025-06-25T2000,2378A,116.3565,27.963,抚州市,血防站,,24,24,26,11,15,46,,73,67,11,9,3,7,0.6,0.6
2025-06-25T2000,2379A,116.3564,28.0007,抚州市,采茶剧团,,,,23,,9,52,,71,67,,4,3,5,0.5,0.4
2025-06-25T2000,2380A,116.385,27.9647,抚州市,医学分院,,20,20,24,11,9,58,,72,69,2,3,4,9,0.5,0.7
2025-06-25T2000,2207A,121.6094,41.998,阜新市,工业园区,,46,46,47,11,28,147,,173,169,33,40,24,13,0.5,0.5
2025-06-25T2000,2208A,121.6697,42.0279,阜新市,长青街,,45,32,40,13,20,144,,156,153,14,26,14,13,0.6,0.6
2025-06-25T2000,2209A,121.6673,42.0705,阜新市,农业园区,,37,36,42,14,18,118,,155,145,16,16,11,16,0.7,0.7
2025-06-25T2000,2210A,121.6717,42.0224,阜新市,东苑,臭氧1小时,52,35,48,17,21,161,,161,161,22,31,27,17,0.7,0.8
2025-06-25T2000,2211A,121.6506,42.0498,阜新市,玉龙新城,颗粒物(PM10),51,51,48,27,18,111,,150,144,35,39,9,9,0.9,0.7
2025-06-25T2000,2301A,115.8277,32.8929,阜阳市,市监测站,,31,31,40,18,27,99,,146,134,19,12,2,3,0.4,0.4
2025-06-25T2000,2303A,115.8554,32.8605,阜阳市,开发区,,30,,49,14,19,96,,150,136,17,15,5,6,0.2,0.2
2025-06-25T2000,2875A,115.784,32.8892,阜阳市,阜阳职业技术学院,,,,33,,21,117,,152,143,10,9,4,4,,0.3
2025-06-25T2000,3468A,115.7901,32.8613,阜阳市,市规划展馆,,35,32,46,20,31,112,,150,141,10,11,3,3,0.4,0.4
2025-06-25T2000,3469A,115.836,32.9183,阜阳市,枣园社区,,,32,43,20,27,107,,146,137,16,14,,5,0.5,0.5
2025-06-25T2000,2669A,102.9099,34.9841,甘南藏族自治州,州政府,,38,18,16,14,12,120,,119,119,7,8,4,4,0.3,0.3
2025-06-25T2000,3380A,102.8914,34.9617,甘南藏族自治州,甘肃民族师范学院,,39,,27,11,12,124,,125,125,15,28,8,8,0.3,0.3
2025-06-25T2000,2570A,101.9603,30.0475,甘孜藏族自治州,水桥子,,20,12,13,3,6,63,,67,67,12,19,5,5,0.4,0.4
2025-06-25T2000,3065A,101.9533,29.9972,甘孜藏族自治州,州环保局,,20,20,16,13,5,61,,76,76,20,19,2,2,0.5,0.4
2025-06-25T2000,3414A,115.8347,28.932,赣江新区,桑海产业园,,,,22,,11,73,,137,133,16,17,9,6,,0.5
2025-06-25T2000,2362A,114.9017,25.9149,赣州市,通天岩,,26,26,47,3,4,34,,94,83,5,5,3,3,0.4,0.3
2025-06-25T2000,2363A,114.9367,25.8664,赣州市,地委,,25,25,19,14,13,74,,108,100,10,10,1,5,0.5,0.6
2025-06-25T2000,2364A,114.9461,25.8481,赣州市,气象台,,24,24,20,14,8,71,,103,95,4,8,7,7,0.3,0.4
2025-06-25T2000,2365A,114.9322,25.8333,赣州市,市图书馆,,36,36,17,20,12,76,,112,101,11,10,4,4,0.4,0.4
2025-06-25T2000,2366A,114.8905,25.8471,赣州市,华坚鞋城,,33,33,23,17,11,80,,106,101,12,12,4,4,0.3,0.3
2025-06-25T2000,3109A,115.0093,25.8613,赣州市,赣县区卫计委,,30,,21,21,14,54,,92,82,10,13,2,2,0.1,0.1
2025-06-25T2000,2683A,106.2319,36.1417,固原市,马园,,30,19,23,11,15,95,,122,112,21,19,6,16,0.6,0.6
2025-06-25T2000,2684A,106.2792,36.0022,固原市,监测站,,,22,16,12,11,97,,128,114,6,7,,6,,0.2
2025-06-25T2000,2685A,106.2375,36.0211,固原市,新区,,31,15,17,14,12,99,,125,112,7,8,7,4,0.4,0.4
2025-06-25T2000,3522A,106.2177,35.9959,固原市,原州区十五小,,31,12,20,8,14,98,,128,112,8,8,10,10,0.2,0.2
2025-06-25T2000,2543A,106.6308,30.5278,广安市,小平旧居,,,,,,,,,,,,,,,,
2025-06-25T2000,2544A,106.6303,30.4576,广安市,市委,,21,6,8,6,10,65,,70,70,13,10,1,1,0.5,0.4
2025-06-25T2000,2545A,106.6271,30.4663,广安市,友谊中学,,25,16,14,7,8,80,,85,83,13,11,6,6,0.9,0.8
2025-06-25T2000,2547A,106.6388,30.4551,广安市,广电花园,,,,12,5,57,65,,70,66,8,7,2,2,0.5,0.5
2025-06-25T2000,2902A,106.6351,30.4865,广安市,北辰小学,,23,12,7,11,8,71,,76,73,9,7,6,7,0.7,0.7
2025-06-25T2000,2523A,105.8945,32.4535,广元市,黑石坡,,30,17,15,9,7,96,,104,104,5,6,6,8,0.2,0.3
2025-06-25T2000,2524A,105.821,32.4444,广元市,老城,,,,13,,7,113,,122,122,,8,7,2,0.5,0.8
2025-06-25T2000,2526A,105.8628,32.4287,广元市,监测站,,36,15,13,8,9,114,,120,120,11,9,5,7,0.5,0.5
2025-06-25T2000,3617A,105.8047,32.4166,广元市,经开区,,34,14,15,7,9,107,,121,121,16,8,3,3,0.4,0.4
2025-06-25T2000,1345A,113.2347,23.1423,广州市,广雅中学,,36,27,23,12,12,115,,161,161,18,17,2,3,0.6,0.6
2025-06-25T2000,1346A,113.2612,23.105,广州市,市五中,,29,14,18,7,8,91,,147,145,19,19,4,5,0.4,0.5
2025-06-25T2000,1348A,113.3478,23.0916,广州市,广东商学院,,28,24,22,18,10,88,,164,161,23,24,4,5,0.5,0.5
2025-06-25T2000,1349A,113.4332,23.1047,广州市,市八十六中,,20,18,20,6,10,63,,156,153,39,32,4,3,0.4,0.4
2025-06-25T2000,1350A,113.3505,22.9483,广州市,番禺中学,,23,18,17,9,7,73,,138,133,20,16,8,8,0.3,0.4
2025-06-25T2000,1351A,113.2146,23.3916,广州市,花都师范,臭氧1小时,119,61,32,20,15,238,,214,214,24,22,5,5,0.6,0.3
2025-06-25T2000,1352A,113.2597,23.1331,广州市,市监测站,,38,38,23,14,10,104,,153,152,11,9,5,6,0.3,0.4
2025-06-25T2000,1353A,113.5618,23.312,广州市,九龙镇镇龙,,45,34,35,18,17,141,,184,184,30,25,6,7,0.4,0.4
2025-06-25T2000,1354A,113.2765,23.1544,广州市,麓湖,,33,25,20,12,9,104,,148,148,18,16,3,3,0.5,0.5
2025-06-25T2000,1355A,113.443,23.3035,广州市,帽峰山森林公园,,43,,20,26,12,137,,183,183,17,22,7,8,0.5,0.5
2025-06-25T2000,2846A,113.3221,23.1322,广州市,体育西,,,,26,,12,99,,172,170,27,25,5,6,,0.4
2025-06-25T2000,3298A,113.5717,23.5491,广州市,从化街口,,39,31,27,18,14,123,,159,159,14,20,9,9,0.6,0.6
2025-06-25T2000,3299A,113.3472,23.3692,广州市,白云竹料,,47,46,33,27,16,150,,181,181,21,25,3,4,0.7,0.6
2025-06-25T2000,3300A,113.2981,23.237,广州市,白云嘉禾,,50,50,34,25,15,154,,182,182,42,29,6,6,0,0.7
2025-06-25T2000,3301A,113.4256,23.1716,广州市,黄埔科学城,,31,31,28,16,13,76,,176,174,31,22,4,4,0.6,0.6
2025-06-25T2000,3302A,113.3942,23.0483,广州市,番禺大学城,,26,15,19,10,9,82,,173,170,31,24,6,5,0.6,0.6
2025-06-25T2000,3303A,113.4922,22.8168,广州市,南沙黄阁,,24,24,22,6,9,57,,126,124,9,14,5,5,0.3,0.4
2025-06-25T2000,3304A,113.5342,22.7896,广州市,南沙街,,21,21,19,9,9,48,,125,120,15,15,5,4,0.3,0.4
2025-06-25T2000,3443A,113.2902,23.5544,广州市,花都梯面,臭氧1小时,85,47,28,30,15,188,,184,184,18,20,5,5,0.6,0.6
2025-06-25T2000,3445A,113.7858,23.7478,广州市,从化良口,,29,25,20,20,13,87,,109,107,8,10,7,7,0.7,0.7
2025-06-25T2000,3446A,113.8051,23.2614,广州市,增城荔城,,34,32,27,17,15,108,,164,158,16,18,7,6,0.4,0.4
2025-06-25T2000,2505A,109.568,23.1478,贵港市,德智高中,,,,,,,,,,,,,,,,
2025-06-25T2000,2506A,109.6047,23.0666,贵港市,江南子站,,44,44,17,18,12,72,,85,83,17,8,8,5,0.5,0.4
2025-06-25T2000,2508A,109.5669,23.1065,贵港市,荷城子站,,29,29,18,12,4,73,,76,76,14,10,13,5,0.3,0.2
2025-06-25T2000,3405A,109.5886,23.1172,贵港市,新世纪学校,,24,22,17,15,11,75,,84,83,10,8,3,4,0.4,0.4
2025-06-25T2000,4260A,109.5933,23.0951,贵港市,中山路155-3号,,27,22,22,10,11,86,,94,92,12,9,6,3,0.4,0.4
2025-06-25T2000,1439A,106.6899,26.5998,贵阳市,马鞍山,,6,6,11,3,2,19,,40,32,9,8,3,3,0.5,0.4
2025-06-25T2000,1441A,106.6243,26.6266,贵阳市,鉴湖路,,19,19,18,3,4,24,,44,39,21,11,7,7,0.4,0.4
2025-06-25T2000,1442A,106.7487,26.6343,贵阳市,燕子冲,,20,17,15,14,17,34,,43,42,13,11,4,4,0.2,0.2
2025-06-25T2000,1443A,106.6555,26.4365,贵阳市,碧云窝,,24,24,21,3,7,37,,45,40,16,9,5,5,0.5,0.4
2025-06-25T2000,1445A,106.7109,26.6027,贵阳市,红边门,,12,12,18,3,6,32,,43,42,13,9,2,3,0.3,0.2
2025-06-25T2000,1446A,106.7164,26.5699,贵阳市,新华路,,14,9,12,9,11,42,,47,46,16,15,3,4,0.5,0.4
2025-06-25T2000,1447A,106.674,26.5424,贵阳市,太慈桥,,14,12,15,3,5,24,,40,32,27,15,5,5,0.6,0.4
2025-06-25T2000,1552A,106.805,26.3003,贵阳市,桐木岭,,27,27,27,14,15,40,,,,2,2,3,3,0.9,0.9
2025-06-25T2000,4230A,106.6882,26.5695,贵阳市,花果园大街66号,,15,14,11,10,10,45,,46,46,12,10,3,3,0.2,0.1
2025-06-25T2000,4231A,106.6873,26.5169,贵阳市,漓江路57号,,12,9,12,3,4,38,,44,43,15,11,5,6,0.5,0.3
2025-06-25T2000,1862A,110.4144,25.3167,桂林市,电子科大尧山校区,,,,,,,,,,,,,,,,
2025-06-25T2000,1864A,110.3089,25.2708,桂林市,龙隐路小学,,21,21,27,13,16,43,,66,62,16,8,8,9,0.6,0.6
2025-06-25T2000,1865A,110.2869,25.2178,桂林市,八中,,21,12,30,8,13,66,,69,69,10,11,6,7,0.4,0.5
2025-06-25T2000,3531A,110.296,25.1253,桂林市,旅游学院,,17,17,16,7,10,44,,68,64,17,8,1,3,0.3,0.3
2025-06-25T2000,4222A,110.1835,25.2444,桂林市,环湖路276号,,23,14,23,7,14,72,,69,69,11,12,5,6,0.4,0.5
2025-06-25T2000,4301A,110.2803,25.2773,桂林市,信义路13号,,21,15,24,11,12,66,,69,69,13,11,4,3,0.4,0.5
2025-06-25T2000,2674A,100.2561,34.4714,果洛藏族自治州,玛沁县大武镇,,45,13,18,8,12,142,,136,136,1,4,16,17,0.4,0.4
2025-06-25T2000,1129A,126.5422,45.755,哈尔滨市,岭北,,50,42,29,16,25,160,,193,191,18,34,8,10,1.0,1
2025-06-25T2000,1130A,126.561,45.8167,哈尔滨市,松北商大,,45,,42,27,22,143,,199,196,28,32,6,6,0.8,0.7
2025-06-25T2000,1131A,126.979,45.5419,哈尔滨市,阿城会宁,,50,40,42,21,25,160,,213,209,29,31,8,10,0.5,0.5
2025-06-25T2000,1132A,126.599,45.7222,哈尔滨市,南岗学府路,臭氧1小时,68,56,48,23,22,174,,203,203,24,38,6,7,0.8,0.7
2025-06-25T2000,1133A,126.689,45.7733,哈尔滨市,太平宏伟公园,臭氧1小时,75,56,45,51,21,180,,207,207,26,33,6,7,0.8,0.7
2025-06-25T2000,1134A,126.635,45.7667,哈尔滨市,道外承德广场,,,,57,,21,190,,207,207,,38,8,9,,0.6
2025-06-25T2000,1135A,126.685,45.7319,哈尔滨市,香坊红旗大街,臭氧1小时,79,70,57,40,24,183,,218,218,40,53,3,10,0.6,0.6
2025-06-25T2000,1136A,126.6411,45.7258,哈尔滨市,动力和平路,臭氧1小时,103,46,56,28,22,206,,221,221,25,43,10,10,0.5,0.6
2025-06-25T2000,1137A,126.593,45.7478,哈尔滨市,道里建国路,臭氧1小时,62,,40,30,20,169,,211,211,28,35,5,7,0.8,0.9
2025-06-25T2000,1138A,126.615,45.61,哈尔滨市,平房东轻厂,臭氧1小时,87,53,55,28,22,189,,227,227,32,56,10,10,0.5,0.4
2025-06-25T2000,1139A,126.595,45.9855,哈尔滨市,呼兰师专,臭氧1小时,98,23,45,23,22,198,,197,196,20,26,9,10,0.4,0.5
2025-06-25T2000,1140A,126.6206,45.6842,哈尔滨市,省农科院,颗粒物(PM10),83,115,71,43,30,167,,198,198,33,55,5,7,0.6,0.7
2025-06-25T2000,2688A,93.5128,42.8172,哈密市,地区监测站,,,28,39,3,16,127,,127,127,9,9,,3,0.1,0.2
2025-06-25T2000,2689A,93.4961,42.8328,哈密市,哈密师范学校,,35,26,33,11,12,111,,122,120,10,9,5,6,0.5,0.5
2025-06-25T2000,2671A,100.9048,36.9639,海北藏族自治州,海晏县西海镇,,40,21,13,15,11,128,,138,136,6,4,7,9,0.4,0.4
2025-06-25T2000,3867A,102.0738,36.5056,海东市,平安区公安北苑,,40,25,28,3,12,127,,133,133,10,6,14,9,0.5,0.6
2025-06-25T2000,1409A,110.576,19.9507,海口市,东寨港,,13,7,9,6,8,40,,44,43,3,3,14,8,0.3,0.3
2025-06-25T2000,1410A,110.3232,20.0574,海口市,海南大学,,14,12,12,3,4,44,,50,49,3,3,3,3,0.3,0.3
2025-06-25T2000,1411A,110.283,20.0053,海口市,秀英海南医院,,14,13,14,6,5,42,,49,47,5,7,5,5,0.1,0.2
2025-06-25T2000,1412A,110.338,19.9969,海口市,海南师范大学,,14,12,11,7,6,42,,53,49,5,4,4,4,0.2,0.2
2025-06-25T2000,1413A,110.33,20.0356,海口市,龙华路环保局宿舍,,14,13,13,3,5,42,,48,48,4,4,5,5,0.2,0.3
2025-06-25T2000,3539A,110.5111,19.9736,海口市,桂林洋子站,,18,16,16,12,8,36,,47,44,10,7,5,5,0.2,0.2
2025-06-25T2000,2673A,100.6188,36.2866,海南藏族自治州,共和县恰卜恰镇,,46,20,21,3,6,145,,152,152,6,7,12,11,0.7,0.7
2025-06-25T2000,2676A,97.3731,37.3753,海西蒙古族藏族自治州,德令哈市,,45,39,32,31,13,142,,152,152,1,2,14,15,0.6,0.6
2025-06-25T2000,1048A,114.5302,36.6116,邯郸市,东污水处理厂,颗粒物(PM10),57,64,50,12,8,155,,194,188,14,21,10,7,0.5,0.6
2025-06-25T2000,1049A,114.4918,36.5713,邯郸市,矿院,,,,40,,13,161,,206,199,15,25,6,9,0.5,0.5
2025-06-25T2000,1050A,114.484,36.6133,邯郸市,丛台公园,颗粒物(PM10),55,60,43,21,18,163,,198,192,15,20,7,10,0.4,0.6
2025-06-25T2000,3458A,114.7895,36.5593,邯郸市,香泉濮院小区,颗粒物(PM10),54,58,64,12,12,150,,182,178,13,15,5,9,0.3,0.4
2025-06-25T2000,3579A,114.50634,36.77178,邯郸市,永年区实验高中,臭氧1小时,70,40,60,20,28,176,,203,198,13,20,4,12,0.4,0.9
2025-06-25T2000,3580A,114.20016,36.44293,邯郸市,峰峰矿区临水派出所,臭氧1小时,59,36,32,9,7,167,,197,191,17,13,8,8,1.1,0.4
2025-06-25T2000,2634A,106.9893,33.1842,汉中市,汉川机床厂子校,,35,15,16,9,10,112,,139,128,6,7,4,4,0.5,0.6
2025-06-25T2000,2635A,107.0154,33.0706,汉中市,市监测站,,36,13,16,7,10,113,,116,114,4,7,6,6,0.5,0.6
2025-06-25T2000,2636A,107.0089,33.1138,汉中市,鑫源开发区,,36,9,23,3,11,115,,131,126,5,8,5,6,0.3,0.5
2025-06-25T2000,2637A,107.007,33.0323,汉中市,南郑大河坎水厂,,32,11,31,7,12,102,,107,105,4,7,4,4,0.6,0.6
2025-06-25T2000,1223A,120.2072,30.2111,杭州市,滨江,颗粒物(PM10),63,75,56,41,34,165,,193,193,32,31,7,6,0.7,0.7
2025-06-25T2000,1224A,120.0633,30.2747,杭州市,西溪,细颗粒物(PM2.5),73,65,38,53,30,143,,152,152,16,15,4,4,0.7,0.6
2025-06-25T2000,1226A,120.3417,30.3150,杭州市,下沙,,44,33,49,20,36,138,,198,194,20,35,4,5,0.5,0.6
2025-06-25T2000,1227A,120.1269,30.2456,杭州市,卧龙桥,细颗粒物(PM2.5),75,69,44,55,33,151,,162,162,22,14,7,7,0.6,0.5
2025-06-25T2000,1228A,120.1903,30.2692,杭州市,浙江农大,细颗粒物(PM2.5),55,50,48,39,38,142,,166,166,24,29,4,4,0.6,0.7
2025-06-25T2000,1230A,120.1197,30.3119,杭州市,和睦小学,臭氧1小时,72,66,45,39,28,177,,178,178,16,18,8,8,0.6,0.6
2025-06-25T2000,1231A,120.3019,30.4183,杭州市,临平镇,,43,39,70,20,36,137,,191,189,20,27,5,6,0.6,0.7
2025-06-25T2000,1232A,120.2753,30.1839,杭州市,城厢镇,细颗粒物(PM2.5),68,55,60,49,50,158,,209,208,23,28,8,7,0.7,1
2025-06-25T2000,1233A,120.0883,30.1808,杭州市,云栖,细颗粒物(PM2.5),70,71,39,51,23,137,,131,131,18,9,7,7,0.8,0.7
2025-06-25T2000,3557A,119.9464,30.0494,杭州市,镇二中,细颗粒物(PM2.5),87,100,37,64,27,184,,143,143,22,16,3,3,0.8,0.7
2025-06-25T2000,3558A,119.7183,30.2367,杭州市,市府大楼,,38,34,36,19,26,119,,133,133,14,14,7,7,0.6,0.6
2025-06-25T2000,3656A,120.1556,30.2864,杭州市,消防大队,细颗粒物(PM2.5),60,60,48,43,37,157,,185,185,22,26,5,6,0.8,0.9
2025-06-25T2000,1270A,117.1959,31.7848,合肥市,明珠广场,,43,36,32,27,20,136,,148,146,14,21,5,5,0.7,0.5
2025-06-25T2000,1271A,117.3072,31.8764,合肥市,三里街,,39,36,30,19,17,124,,132,129,17,18,6,6,0.7,0.6
2025-06-25T2000,1272A,117.2588,31.8707,合肥市,琥珀山庄,,41,31,29,22,19,130,,148,142,13,15,6,6,0.8,0.7
2025-06-25T2000,1273A,117.1604,31.9052,合肥市,董铺水库,,36,31,34,17,16,114,,144,138,10,11,4,5,0.4,0.4
2025-06-25T2000,1274A,117.25,31.8571,合肥市,长江中路,,41,36,35,26,22,129,,146,141,15,15,6,7,0.7,0.6
2025-06-25T2000,1275A,117.266,31.9436,合肥市,庐阳区,,36,29,31,12,17,113,,155,146,14,15,7,8,0.6,0.6
2025-06-25T2000,1276A,117.3453,31.8616,合肥市,瑶海区,,39,39,37,20,20,124,,135,132,17,20,6,7,0.7,0.6
2025-06-25T2000,1277A,117.3027,31.7964,合肥市,包河区,,43,29,33,19,20,135,,138,138,11,37,4,5,0.8,0.7
2025-06-25T2000,1278A,117.2776,31.7385,合肥市,滨湖新区,,48,34,32,27,24,152,,147,147,9,11,8,9,0.8,0.6
2025-06-25T2000,1279A,117.1318,31.8403,合肥市,高新区,,,,32,,18,116,,146,141,21,19,7,7,0.8,0.5
2025-06-25T2000,3464A,117.3803,31.9147,合肥市,高教基地,,39,39,31,19,18,109,,141,136,17,15,4,7,0.6,0.5
2025-06-25T2000,3614A,79.924,37.0877,和田地区,地区环保局,颗粒物(PM10),139,227,202,57,56,122,,133,133,10,14,2,2,0.5,0.5
2025-06-25T2000,3615A,79.9131,37.113,和田地区,市环保局,细颗粒物(PM2.5),117,175,180,88,62,134,,134,134,6,24,1,2,0.5,0.7
2025-06-25T2000,2516A,108.2011,24.715,河池市,东仁乐园,,,,,,,,,,,,,,,,
2025-06-25T2000,2517A,108.0497,24.6947,河池市,市环保站,,13,13,24,9,14,40,,61,58,5,6,3,2,0.6,0.6
2025-06-25T2000,2518A,108.0983,24.6989,河池市,市疾控中心,,,,27,,12,31,,64,61,18,13,2,3,0.6,0.6
2025-06-25T2000,1696A,114.6778,23.7569,河源市,源西,,29,29,19,15,14,87,,106,94,16,16,4,4,0.6,0.6
2025-06-25T2000,1697A,114.6944,23.7586,河源市,东埔,,24,24,17,14,12,65,,81,74,13,11,4,4,0.4,0.4
2025-06-25T2000,1698A,114.6892,23.7233,河源市,老城,,32,32,20,18,11,63,,80,74,11,10,3,4,0.4,0.4
2025-06-25T2000,1718A,115.4208,35.2464,菏泽市,气象局,,,72,77,,39,162,,170,170,17,27,,4,0.5,0.5
2025-06-25T2000,3374A,115.5564,35.0891,菏泽市,定陶老年大学,颗粒物(PM10),57,63,61,22,31,140,,154,154,22,19,3,5,0.4,0.3
2025-06-25T2000,4184A,115.4797,35.24401,菏泽市,永昌路1号,颗粒物(PM10),57,63,67,18,28,163,,166,166,15,19,4,6,0.2,0.2
2025-06-25T2000,4193A,115.4715,35.2800,菏泽市,长城路999号,颗粒物(PM10),86,122,70,38,34,122,,173,168,48,21,4,4,0.5,0.3
2025-06-25T2000,2514A,111.5264,24.4172,贺州市,环保小区,,25,22,28,16,17,77,,76,76,6,14,11,12,0.5,0.6
2025-06-25T2000,2515A,111.5608,24.4078,贺州市,政协大楼,,28,28,25,17,19,60,,91,87,21,11,12,13,0.7,0.7
2025-06-25T2000,3534A,111.4744,24.4553,贺州市,西湾,,,18,30,10,13,69,,90,86,7,12,12,11,,0.5
2025-06-25T2000,2385A,114.17,35.9019,鹤壁市,市监测站,细颗粒物(PM2.5),62,70,55,44,29,158,,148,143,18,13,10,8,0.9,0.7
2025-06-25T2000,2386A,114.2956,35.7511,鹤壁市,市交警支队,细颗粒物(PM2.5),70,82,62,51,35,155,,140,140,31,34,15,14,1.0,0.8
2025-06-25T2000,2387A,114.2878,35.7306,鹤壁市,迎宾馆,颗粒物(PM10),74,97,70,49,36,152,,132,132,29,36,10,9,0.8,0.7
2025-06-25T2000,3474A,114.2617,35.6822,鹤壁市,大新区,细颗粒物(PM2.5),67,72,68,48,36,121,,115,115,36,36,10,8,0.9,0.8
2025-06-25T2000,3596A,114.1572,35.9603,鹤壁市,南山宾馆,颗粒物(PM10),83,115,58,49,34,157,,163,148,17,11,9,6,0.8,0.6
2025-06-25T2000,2244A,130.2537,47.3416,鹤岗市,哈啤分公司,,39,36,29,27,23,92,,139,130,9,11,14,13,0.6,0.6
2025-06-25T2000,2245A,130.2684,47.3086,鹤岗市,斯达机电,颗粒物(PM10),53,55,39,32,20,117,,128,128,15,12,13,13,0.6,0.5
2025-06-25T2000,2246A,130.3114,47.3388,鹤岗市,东山纸板厂,颗粒物(PM10),51,51,56,25,19,74,,132,116,14,17,12,10,0.5,0.8
2025-06-25T2000,2247A,130.1097,47.3382,鹤岗市,五号水库,,31,31,23,15,9,65,,132,113,10,12,15,15,0.7,0.6
2025-06-25T2000,2263A,127.4833,50.2524,黑河市,交通局,,50,50,37,18,11,75,,102,98,21,13,6,7,0.6,1.2
2025-06-25T2000,2264A,127.5144,50.2341,黑河市,环保局,,,92,48,19,14,113,,111,111,,,9,9,0.9,0.7
2025-06-25T2000,2265A,127.5291,50.2472,黑河市,大黑河岛,细颗粒物(PM2.5),57,44,5,40,13,84,,87,87,20,11,28,24,0.5,0.4
2025-06-25T2000,1074A,115.6838,37.7541,衡水市,电机北厂,臭氧1小时,101,71,65,33,32,202,,242,236,13,13,8,8,0.4,0.4
2025-06-25T2000,1075A,115.6303,37.7316,衡水市,市监测站,臭氧1小时,95,69,63,32,27,196,,239,233,13,16,8,8,0.5,0.5
2025-06-25T2000,3188A,115.6683,37.7217,衡水市,市城管局,臭氧1小时,103,82,74,39,34,206,,246,240,13,17,6,7,0.5,0.5
2025-06-25T2000,3459A,115.5989,37.5491,衡水市,地表水厂,臭氧1小时,74,84,83,26,29,179,,237,226,28,31,9,9,0.5,0.5
2025-06-25T2000,2456A,112.5003,26.9167,衡阳市,原169医院,,39,39,35,20,13,85,,114,113,29,10,4,3,0.6,0.7
2025-06-25T2000,2457A,112.6194,26.9258,衡阳市,衡阳化工总厂,颗粒物(PM10),51,51,39,27,19,92,,117,117,14,9,4,5,0.6,0.6
2025-06-25T2000,2458A,112.6211,26.8956,衡阳市,珠晖区环保局,,,46,35,,,97,,123,123,17,12,6,7,0.7,0.8
2025-06-25T2000,2459A,112.6197,26.8733,衡阳市,市委党校,,,54,36,23,15,102,,108,108,,7,6,7,0.6,0.6
2025-06-25T2000,2460A,112.6006,26.8919,衡阳市,市监测站,细颗粒物(PM2.5),60,51,34,43,20,97,,112,112,15,11,6,7,0.7,0.6
2025-06-25T2000,2461A,112.5664,26.9056,衡阳市,真空机电公司,,43,,34,30,20,104,,112,112,13,10,6,7,0.8,0.7
2025-06-25T2000,3399A,112.6703,26.882,衡阳市,师范学院,,46,,38,32,21,90,,105,104,7,7,5,8,0.8,0.8
2025-06-25T2000,2608A,103.3772,23.3993,红河哈尼族彝族自治州,污水处理厂,,16,16,18,10,12,35,,44,42,2,3,6,6,0.3,0.4
2025-06-25T2000,2609A,103.3861,23.35,红河哈尼族彝族自治州,监测站,,20,20,22,11,12,33,,42,40,3,3,5,5,0.3,0.2
2025-06-25T2000,3038A,103.3758,23.368,红河哈尼族彝族自治州,州图书馆,,12,8,12,3,8,36,,45,43,4,4,2,1,0.2,0.2
2025-06-25T2000,1090A,111.6507,40.7517,呼和浩特市,呼市一监,颗粒物(PM10),71,92,38,28,22,153,,200,195,16,18,11,10,0.6,0.6
2025-06-25T2000,1091A,111.6572,40.8033,呼和浩特市,小召,颗粒物(PM10),62,73,37,24,21,157,,202,197,19,21,7,7,0.5,0.5
2025-06-25T2000,1094A,111.7516,40.8369,呼和浩特市,如意水处理厂,颗粒物(PM10),54,57,41,30,23,149,,213,206,14,21,6,7,0.4,0.5
2025-06-25T2000,1095A,111.7276,40.8062,呼和浩特市,二十九中,,47,46,42,24,22,150,,208,202,14,19,6,7,0.4,0.5
2025-06-25T2000,1096A,111.5512,40.7866,呼和浩特市,工大金川校区,颗粒物(PM10),60,69,49,22,23,155,,207,202,17,26,10,9,0.4,0.5
2025-06-25T2000,1097A,111.717,40.7612,呼和浩特市,化肥厂生活区,颗粒物(PM10),59,68,48,23,21,147,,216,208,23,21,8,12,0.4,0.5
2025-06-25T2000,3698A,111.5968,40.8178,呼和浩特市,红旗小学,颗粒物(PM10),84,117,44,29,22,165,,216,212,19,22,6,6,0.4,0.4
2025-06-25T2000,3699A,111.6518,40.8389,呼和浩特市,海东办,颗粒物(PM10),58,66,39,26,23,155,,201,196,17,26,6,7,0.5,0.5
2025-06-25T2000,2192A,119.7594,49.2261,呼伦贝尔市,区环保局,细颗粒物(PM2.5),78,65,42,57,31,103,,112,112,18,15,5,6,0.9,0.6
2025-06-25T2000,3061A,119.7512,49.1577,呼伦贝尔市,国华电力东,细颗粒物(PM2.5),69,53,38,50,21,141,,148,148,9,11,4,4,0.5,0.5
2025-06-25T2000,1250A,120.0751,30.8669,湖州市,城西水厂,细颗粒物(PM2.5),93,90,73,69,53,150,,184,182,30,33,5,6,0.8,0.7
2025-06-25T2000,2873A,120.0830,30.8929,湖州市,仁皇山新区,细颗粒物(PM2.5),82,74,57,60,44,154,,179,179,24,25,4,5,0.8,0.8
2025-06-25T2000,2907A,120.1844,30.8596,湖州市,吴兴区站,,50,42,46,32,38,160,,183,183,24,35,6,7,0.6,0.6
2025-06-25T2000,3562A,120.4148,30.8538,湖州市,南浔区站,细颗粒物(PM2.5),54,39,40,38,33,134,,150,150,22,20,7,6,0.6,0.6
2025-06-25T2000,1607A,120.9049,40.7211,葫芦岛市,龙港区,颗粒物(PM10),55,59,42,16,20,142,,147,142,15,23,6,19,0.5,0.6
2025-06-25T2000,1608A,120.8392,40.7514,葫芦岛市,化工街,,34,34,41,9,19,101,,141,131,32,52,6,10,0.4,0.5
2025-06-25T2000,1609A,120.8341,40.7073,葫芦岛市,新区,,36,31,37,11,23,114,,138,134,23,38,4,5,0.6,0.6
2025-06-25T2000,1610A,120.8695,40.7677,葫芦岛市,东城区,,35,35,52,15,25,99,,138,125,32,48,4,27,0.6,0.7
2025-06-25T2000,2482A,109.5981,27.5721,怀化市,林科所,,21,21,19,6,4,40,,52,52,5,7,4,4,0.1,0.2
2025-06-25T2000,2483A,109.9453,27.5444,怀化市,河西地税局,,20,20,19,9,10,29,,53,51,15,6,5,6,0.2,0.3
2025-06-25T2000,2484A,109.9781,27.5342,怀化市,市四医院,,46,46,28,19,15,0,,29,6,27,13,2,2,0.6,0.4
2025-06-25T2000,2485A,109.9972,27.5578,怀化市,监测楼,,35,35,22,19,10,25,,57,54,17,5,3,2,0.3,0.2
2025-06-25T2000,2486A,110.0394,27.583,怀化市,市委党校,,26,26,17,12,13,34,,67,64,17,15,4,6,0.3,0.3
2025-06-25T2000,1210A,119.036,33.5981,淮安市,钵池山,,46,39,31,27,23,146,,174,172,18,15,9,11,0.6,0.8
2025-06-25T2000,1211A,119.007,33.575,淮安市,北京南路,颗粒物(PM10),52,53,34,33,25,130,,155,154,27,19,8,8,0.7,0.8
2025-06-25T2000,1212A,118.989,33.6067,淮安市,市监测站,,44,44,35,27,18,134,,151,149,22,13,9,9,0.5,0.5
2025-06-25T2000,1213A,119.135,33.5039,淮安市,楚州区监测站,颗粒物(PM10),53,56,39,26,24,109,,162,156,21,12,8,9,0.4,0.5
2025-06-25T2000,3426A,118.8755,33.2894,淮安市,新华书店,,38,32,29,16,18,121,,157,152,14,9,8,9,0.5,0.5
2025-06-25T2000,4206A,119.0288,33.6319,淮安市,承德北路606号,,46,46,30,27,20,132,,151,149,17,8,6,6,0.7,0.6
2025-06-25T2000,2282A,116.8004,33.975,淮北市,监测站,臭氧1小时,63,41,41,19,23,170,,188,188,11,11,7,7,0.9,0.9
2025-06-25T2000,2283A,116.8091,33.9007,淮北市,烈山区政府,颗粒物(PM10),61,72,56,22,21,164,,188,186,11,22,6,8,0.6,0.6
2025-06-25T2000,3330A,116.8873,33.9836,淮北市,杜集区检察院,颗粒物(PM10),56,62,52,23,25,158,,182,181,22,18,9,9,0.9,0.8
2025-06-25T2000,4017A,116.7923,33.9535,淮北市,市博物馆,臭氧1小时,82,44,40,17,22,185,,194,194,9,10,9,9,0.8,0.7
2025-06-25T2000,2277A,116.8305,32.7727,淮南市,潘集区政府,,42,42,40,18,17,110,,142,135,7,9,3,4,0.6,0.5
2025-06-25T2000,2279A,116.8569,32.5951,淮南市,谢家集区政府,,37,31,30,11,14,116,,130,126,10,11,5,6,0.3,0.3
2025-06-25T2000,2280A,116.8281,32.633,淮南市,八公山区政府,,32,24,27,12,14,102,,134,128,10,10,4,4,0.4,0.3
2025-06-25T2000,2281A,116.6325,32.6201,淮南市,焦岗湖风景区管理处,,,,,,,,,,,,,,,,
2025-06-25T2000,2894A,117.0566,32.6531,淮南市,经济技术开发区消防队,,41,28,30,12,15,130,,140,139,13,10,7,7,0.6,0.4
2025-06-25T2000,3329A,117.0108,32.5893,淮南市,山南新区,,44,19,24,3,5,139,,144,143,5,5,7,7,0.7,0.5
2025-06-25T2000,4209A,117.0031,32.6445,淮南市,国庆中路369号,,,,29,25,17,140,,144,144,,8,118,11,0.4,0.3
2025-06-25T2000,2446A,114.9028,30.4742,黄冈市,职工中心,,,,33,,19,122,,134,134,,2,10,10,,0.6
2025-06-25T2000,2929A,114.8858,30.4519,黄冈市,红卫路,,45,43,32,31,20,106,,135,132,8,3,6,8,0.7,0.6
2025-06-25T2000,3398A,114.9136,30.4445,黄冈市,市林业局,,,45,32,33,25,100,,128,124,11,3,7,9,,0.6
2025-06-25T2000,2672A,102.0199,35.5102,黄南藏族自治州,同仁县隆务镇,颗粒物(PM10),52,53,24,12,6,127,,107,107,6,3,7,7,0.4,0.2
2025-06-25T2000,2295A,118.2903,29.6963,黄山市,延安路89号,,,22,24,15,11,28,,78,55,,5,7,6,0.6,0.7
2025-06-25T2000,2297A,118.1371,30.2756,黄山市,黄山区政府5号楼,,18,15,22,12,11,25,,57,46,4,3,4,4,0.5,0.5
2025-06-25T2000,4210A,118.3354,29.7203,黄山市,滨江东路7-2号,,15,11,23,10,8,26,,72,55,6,4,4,4,0.5,0.5
2025-06-25T2000,2423A,115.0601,30.2313,黄石市,沈家营,颗粒物(PM10),62,73,50,18,21,102,,134,126,14,13,8,8,1.0,1
2025-06-25T2000,2426A,114.8988,30.2019,黄石市,铁山,,42,42,36,25,23,113,,142,137,6,8,3,4,0.8,0.8
2025-06-25T2000,2427A,115.0307,30.2092,黄石市,团城山,颗粒物(PM10),52,53,44,23,17,117,,147,141,6,6,9,8,0.7,0.6
2025-06-25T2000,3149A,115.0235,30.1578,黄石市,笔架山北路,颗粒物(PM10),56,61,41,22,19,106,,138,133,6,8,6,7,0.8,0.6
2025-06-25T2000,4185A,115.0780,30.21118,黄石市,磁湖东路29号,颗粒物(PM10),63,75,48,26,24,110,,137,132,4,8,8,8,0.4,0.4
2025-06-25T2000,1392A,114.4183,23.0528,惠州市,河南岸金山湖子站,,17,17,18,10,9,40,,74,62,12,13,8,7,0.4,0.4
2025-06-25T2000,1393A,114.4053,23.0822,惠州市,下埔横江三路子站,,21,21,19,9,9,45,,85,70,13,11,5,4,0.4,0.4
2025-06-25T2000,1394A,114.4103,23.1142,惠州市,江北云山西路子站,,19,19,18,3,8,52,,92,79,10,9,7,7,0.3,0.4
2025-06-25T2000,1395A,114.4645,22.7833,惠州市,惠阳区承修路船湖子站,,17,10,16,8,8,52,,65,60,9,11,6,7,0.5,0.5
2025-06-25T2000,1396A,114.5317,22.7422,惠州市,大亚湾管委会子站,,20,13,15,8,8,62,,59,59,7,10,9,9,0.3,0.3
2025-06-25T2000,3314A,114.4338,22.8134,惠州市,惠阳秋长,,18,7,19,7,8,55,,80,72,6,15,8,9,0.3,0.4
2025-06-25T2000,3452A,114.6517,22.775,惠州市,大亚湾霞涌,,17,11,10,3,4,53,,59,56,8,9,6,6,0.4,0.4
2025-06-25T2000,2240A,130.9762,45.3001,鸡西市,环保局,颗粒物(PM10),53,56,49,22,25,120,,210,193,36,26,5,5,0.6,0.5
2025-06-25T2000,2243A,130.9429,45.3039,鸡西市,第一中学,颗粒物(PM10),61,72,43,25,20,104,,176,168,26,21,7,8,0.7,0.7
2025-06-25T2000,3707A,131.0207,45.3073,鸡西市,欧美日汽修厂,颗粒物(PM10),74,98,62,28,27,96,,205,184,39,27,7,7,0.6,0.6
2025-06-25T2000,3709A,130.9967,45.3106,鸡西市,市政设施管理处,,,,62,37,26,111,,203,181,31,30,4,11,0.6,0.6
2025-06-25T2000,2367A,114.9754,27.0803,吉安市,红声器材厂,,30,30,33,12,18,80,,112,108,9,9,7,9,0.8,0.8
2025-06-25T2000,2368A,114.9658,27.0999,吉安市,市森林工业局,,28,28,33,8,18,84,,115,112,6,7,7,9,0.7,0.5
2025-06-25T2000,2369A,114.99,27.1312,吉安市,市环境监测站,,31,31,26,17,18,95,,117,115,6,5,12,17,0.6,0.5
2025-06-25T2000,2370A,115.0093,27.0968,吉安市,青原区法院,,22,22,34,13,18,50,,100,95,23,14,7,10,0.3,0.3
2025-06-25T2000,1772A,126.54,43.8622,吉林市,哈达湾,,,29,48,22,32,140,,180,162,,28,8,9,0.3,0.4
2025-06-25T2000,1773A,126.5844,43.8358,吉林市,东局子,,39,32,42,19,24,122,,172,154,23,24,5,6,0.6,0.8
2025-06-25T2000,1774A,126.5052,43.8245,吉林市,电力学院,,38,38,51,22,30,117,,185,153,31,40,6,6,0.5,0.6
2025-06-25T2000,1775A,126.6133,43.8972,吉林市,江北,,40,35,45,17,26,127,,157,146,17,18,7,7,0.4,0.5
2025-06-25T2000,1776A,126.555,43.8306,吉林市,江南公园,,37,31,41,21,29,117,,165,146,25,26,6,7,0.4,0.5
2025-06-25T2000,1778A,126.7061,43.7133,吉林市,丰满,,,,,,,,,,,,,,,,
2025-06-25T2000,2868A,126.4739,43.953,吉林市,九站,,37,34,62,11,38,118,,153,144,14,43,4,8,0.3,0.5
2025-06-25T2000,1299A,116.9862,36.6114,济南市,科干所,臭氧1小时,70,53,44,24,25,176,,218,217,24,15,6,7,0.6,0.6
2025-06-25T2000,1300A,116.9376,36.665,济南市,农科所,颗粒物(PM10),57,63,62,20,25,163,,203,200,22,24,8,9,0.3,0.4
2025-06-25T2000,1301A,117.1265,36.6734,济南市,开发区,臭氧1小时,84,56,47,32,26,187,,218,218,30,19,9,9,0.5,0.5
2025-06-25T2000,1303A,117.0624,36.6868,济南市,省种子仓库,臭氧1小时,89,58,53,29,24,191,,228,228,21,17,8,8,0.5,0.5
2025-06-25T2000,1304A,116.9489,36.6447,济南市,机床二厂,颗粒物(PM10),63,76,68,17,24,154,,208,205,33,30,6,7,0.6,0.6
2025-06-25T2000,1305A,117.0495,36.663,济南市,市监测站,臭氧1小时,77,63,50,22,23,181,,218,218,27,22,10,10,0.5,0.5
2025-06-25T2000,1306A,116.7675,36.5484,济南市,长清党校,颗粒物(PM10),57,63,49,24,27,148,,206,202,23,23,6,7,0.4,0.5
2025-06-25T2000,1616A,117.6795,36.229,济南市,技术学院,,,,51,,30,169,,210,207,28,28,17,11,,1.1
2025-06-25T2000,1961A,117.532,36.6868,济南市,东山小学,臭氧1小时,94,63,50,27,23,195,,229,227,17,16,8,8,0.3,0.3
2025-06-25T2000,3059A,117.7161,36.2049,济南市,泰兴公司,颗粒物(PM10),58,66,56,29,33,161,,201,200,28,49,9,10,0.3,0.4
2025-06-25T2000,3064A,117.6867,36.2171,济南市,莱芜战役纪念馆,臭氧1小时,60,58,63,32,33,168,,197,196,18,26,8,10,0.9,1.2
2025-06-25T2000,3494A,117.1673,36.9782,济南市,济阳区政府,臭氧1小时,70,78,62,34,25,176,,223,219,29,24,8,9,0.6,0.5
2025-06-25T2000,3495A,117.1171,36.63,济南市,锦屏中学,臭氧1小时,93,54,43,29,21,194,,217,217,20,14,7,6,0.6,0.6
2025-06-25T2000,3682A,116.9814,36.6819,济南市,济南四建,臭氧1小时,67,58,54,32,28,173,,217,215,23,23,6,7,0.5,0.4
2025-06-25T2000,1653A,116.6251,35.4302,济宁市,火炬城,颗粒物(PM10),59,67,51,29,26,132,,144,143,16,15,6,7,0.6,0.5
2025-06-25T2000,1655A,116.5491,35.4042,济宁市,电化厂,颗粒物(PM10),67,84,65,41,36,115,,150,146,48,24,4,5,0.9,0.7
2025-06-25T2000,3500A,116.5814,35.3707,济宁市,北湖一中,细颗粒物(PM2.5),69,82,64,50,40,146,,152,152,27,25,6,9,0.5,0.4
2025-06-25T2000,3501A,116.8249,35.5593,济宁市,服务中心,颗粒物(PM10),62,73,56,29,25,135,,167,163,28,26,4,5,0.5,0.4
2025-06-25T2000,3678A,116.5907,35.4054,济宁市,市第七中学,,,,56,,26,140,,153,152,19,13,10,12,0.5,0.4
2025-06-25T2000,2255A,130.2751,46.8028,佳木斯市,佳纺,颗粒物(PM10),57,64,54,27,30,109,,154,141,13,22,3,3,0.6,0.6
2025-06-25T2000,2256A,130.3995,46.8307,佳木斯市,发电厂,颗粒物(PM10),61,71,55,31,29,117,,159,147,13,21,5,5,0.6,0.6
2025-06-25T2000,2257A,130.3258,46.7975,佳木斯市,环保局,颗粒物(PM10),55,60,49,33,30,108,,163,152,20,19,5,5,0.7,0.6
2025-06-25T2000,2258A,130.3648,46.8032,佳木斯市,十一中,颗粒物(PM10),51,51,49,29,29,108,,168,158,10,18,6,6,0.5,0.5
2025-06-25T2000,2259A,130.3794,46.7588,佳木斯市,四丰,,,42,35,,,,,,,27,14,1,1,0.7,0.6
2025-06-25T2000,1252A,120.7436,30.778,嘉兴市,清河小学,,50,50,45,20,18,128,,161,161,22,23,10,8,1.1,1
2025-06-25T2000,1253A,120.726,30.7478,嘉兴市,嘉兴学院,,38,32,33,23,24,120,,165,164,23,24,10,6,0.7,0.8
2025-06-25T2000,2872A,120.7846,30.7525,嘉兴市,南湖区残联,,,26,34,24,23,122,,157,156,18,26,8,6,,0.8
2025-06-25T2000,3407A,120.6916,30.7739,嘉兴市,秀洲住建,,40,34,31,22,20,126,,167,165,22,25,11,6,0.9,0.9
2025-06-25T2000,1945A,98.2908,39.7711,嘉峪关市,气象局,颗粒物(PM10),58,66,182,19,51,123,,126,126,8,11,5,11,0.5,0.6
2025-06-25T2000,2884A,98.2672,39.7978,嘉峪关市,酒钢宾馆,颗粒物(PM10),64,78,186,24,50,121,,125,125,5,7,13,16,0.7,0.5
2025-06-25T2000,3248A,98.2643,39.7724,嘉峪关市,雄关区,,,58,143,,44,118,,120,120,12,12,7,9,,0.4
2025-06-25T2000,1383A,113.1064,22.6058,江门市,北街,,22,,23,15,11,62,,121,114,16,13,3,3,0.3,0.4
2025-06-25T2000,1384A,113.0731,22.5835,江门市,西区,,36,36,19,7,11,63,,117,113,11,12,8,9,0.4,0.4
2025-06-25T2000,1385A,113.0219,22.5311,江门市,圭峰西,,20,,18,8,7,63,,95,93,9,41,4,3,0.5,0.4
2025-06-25T2000,1386A,113.0828,22.5947,江门市,东湖,,19,16,17,8,10,60,,109,105,12,12,7,7,0.4,0.5
2025-06-25T2000,3311A,113.1075,22.5647,江门市,江海富民,,23,23,26,9,8,62,,113,109,15,12,9,9,0.4,0.4
2025-06-25T2000,3449A,113.05,22.4667,江门市,新会银湖,,18,15,24,11,8,56,,92,89,10,11,3,3,0.3,0.3
2025-06-25T2000,1830A,113.1992,35.2590,焦作市,影视城,,,,34,,17,,,,,,7,,12,,0.4
2025-06-25T2000,3169A,113.2725,35.2067,焦作市,太极体育中心,细颗粒物(PM2.5),77,68,78,56,38,116,,151,151,23,34,6,8,0.6,0.5
2025-06-25T2000,3335A,113.3137,35.2641,焦作市,马村街道办,细颗粒物(PM2.5),78,86,72,57,37,144,,150,150,25,27,16,13,0.8,0.7
2025-06-25T2000,3336A,113.2465,35.2373,焦作市,焦作技师学院,颗粒物(PM10),57,64,55,34,25,132,,149,149,22,19,7,7,1.0,0.8
2025-06-25T2000,3477A,113.1656,35.2539,焦作市,中站许衡医院,颗粒物(PM10),66,81,67,40,31,124,,146,146,33,27,17,11,0.9,0.6
2025-06-25T2000,3981A,113.2449,35.1803,焦作市,原李万街道办,细颗粒物(PM2.5),55,47,82,39,30,109,,149,149,25,31,12,16,0.2,0.3
2025-06-25T2000,4264A,113.2340,35.2190,焦作市,新安路1731号,颗粒物(PM10),69,87,69,47,32,122,,151,151,18,18,7,9,0.6,0.5
2025-06-25T2000,1708A,116.3701,23.5345,揭阳市,新兴,,,,27,23,14,34,,80,66,12,9,5,5,0.8,0.5
2025-06-25T2000,1709A,116.3264,23.5443,揭阳市,西马,,23,20,25,16,14,32,,84,72,11,8,2,2,1.0,0.5
2025-06-25T2000,1710A,116.3611,23.5626,揭阳市,东兴,,,,27,14,12,40,,92,77,8,10,2,3,0.4,0.4
2025-06-25T2000,1711A,116.4151,23.5294,揭阳市,渔湖,,,36,34,,19,37,,66,,,16,8,9,0.5,0.4
2025-06-25T2000,3320A,116.403,23.5699,揭阳市,曲溪,,33,33,22,14,12,43,,84,71,5,7,4,5,0.6,0.5
2025-06-25T2000,1944A,102.1692,38.5167,金昌市,天庆家园,颗粒物(PM10),62,73,24,17,12,88,,119,118,32,13,23,12,0.9,0.7
2025-06-25T2000,4022A,102.1647,38.5371,金昌市,金川区人防中心,颗粒物(PM10),53,56,28,16,13,105,,128,128,22,11,20,12,0.7,0.6
2025-06-25T2000,4239A,102.1930,38.5319,金昌市,长春路96号,,31,29,25,14,10,97,,127,126,27,10,58,12,0.2,0.7
2025-06-25T2000,1262A,119.647,29.077,金华市,十五中,,26,,24,9,14,81,,140,132,5,11,3,2,0.4,0.7
2025-06-25T2000,1263A,119.686,29.1029,金华市,监测站,,25,9,29,7,18,79,,134,127,6,15,1,2,0.1,0.6
2025-06-25T2000,3659A,119.656,29.1131,金华市,气象局,,20,12,26,6,15,63,,107,102,7,19,2,2,0.1,0.2
2025-06-25T2000,1767A,121.1115,41.0879,锦州市,南山,,49,49,48,21,28,108,,166,163,34,43,14,12,0.7,0.7
2025-06-25T2000,1768A,121.0604,40.8428,锦州市,开发区,颗粒物(PM10),58,65,70,10,33,123,,136,128,24,54,6,38,0.6,0.8
2025-06-25T2000,1769A,121.1836,41.1119,锦州市,百股街道,,32,21,43,9,19,101,,161,155,29,40,11,19,0.6,0.7
2025-06-25T2000,1770A,121.1178,41.1222,锦州市,天安街道,,46,46,50,22,33,108,,168,164,37,47,10,14,0.8,1
2025-06-25T2000,1771A,121.1303,41.1386,锦州市,北湖公园,,37,24,44,17,27,118,,172,169,30,34,9,12,0.6,0.7
2025-06-25T2000,2160A,112.85,35.5051,晋城市,自来水公司,臭氧1小时,57,43,56,29,23,165,,156,156,13,21,4,3,0.2,0.1
2025-06-25T2000,2161A,112.8318,35.4936,晋城市,白云商贸,颗粒物(PM10),62,74,74,27,17,157,,147,147,16,23,4,3,0.7,0.7
2025-06-25T2000,2162A,112.8508,35.4887,晋城市,市环保局,,,,62,,21,160,,149,149,15,24,11,9,0.2,0.1
2025-06-25T2000,2163A,112.8676,35.4897,晋城市,技术学院,,49,45,53,34,20,144,,138,138,15,25,11,8,0.6,0.5
2025-06-25T2000,2165A,112.8453,35.546,晋城市,白马寺,臭氧1小时,57,40,44,33,25,165,,158,158,11,14,2,2,0.5,0.6
2025-06-25T2000,3620A,112.8271,35.4828,晋城市,泽州一中,臭氧1小时,58,61,58,29,22,166,,157,157,30,34,8,5,0.6,0.5
2025-06-25T2000,2173A,112.7249,37.7067,晋中市,南都小区,臭氧1小时,68,80,48,35,24,174,,191,191,14,10,4,4,0.6,0.5
2025-06-25T2000,2174A,112.6991,37.6982,晋中市,榆次区政府,臭氧1小时,69,83,52,29,21,175,,193,193,13,11,8,8,0.8,0.7
2025-06-25T2000,2865A,112.7195,37.6828,晋中市,榆次三中,臭氧1小时,70,83,54,29,20,176,,197,196,15,14,9,8,0.6,0.5
2025-06-25T2000,4200A,112.7478,37.6954,晋中市,迎宾街26号,臭氧1小时,88,80,51,22,20,190,,204,204,13,12,10,9,0.8,0.6
2025-06-25T2000,2439A,112.2014,31.0481,荆门市,竹园小学,,34,,33,16,22,106,,91,91,7,15,5,5,0,0.3
2025-06-25T2000,2440A,112.1969,30.9891,荆门市,掇刀,,,,26,15,22,110,,94,94,,12,3,10,,0.7
2025-06-25T2000,2441A,112.2213,31.0386,荆门市,石化一小,,34,,37,16,25,107,,93,93,4,17,10,13,0.2,0.5
2025-06-25T2000,3012A,112.1849,31.0362,荆门市,西山林语,,,,26,,18,116,,98,98,1,7,9,10,0.3,0.5
2025-06-25T2000,3547A,112.1632,31.0138,荆门市,龙泉中学南校,,36,,21,3,15,113,,95,95,3,9,4,6,0.4,0.6
2025-06-25T2000,1844A,112.2494,30.3197,荆州市,市图书馆,,28,12,23,12,14,89,,84,82,11,14,3,4,0.5,0.6
2025-06-25T2000,1845A,112.2008,30.3544,荆州市,市委党校,,,,25,19,22,90,,83,81,,18,6,7,,0.5
2025-06-25T2000,3194A,112.2747,30.3122,荆州市,管委会,,27,20,25,13,20,86,,76,75,7,15,5,6,0.7,0.8
2025-06-25T2000,4268A,112.1722,30.3366,荆州市,学苑路85号,,28,,20,14,21,89,,81,81,10,13,4,4,0.3,0.4
2025-06-25T2000,2342A,117.3102,29.3867,景德镇市,王港中学,,,,,,,,,,,,,,,,
2025-06-25T2000,2343A,117.2117,29.2933,景德镇市,老干部活动中心,,48,48,32,23,13,64,,119,113,17,15,9,8,0.9,1
2025-06-25T2000,2344A,117.1894,29.2789,景德镇市,兽医站,,,38,33,,16,56,,111,103,13,11,5,7,0.6,0.6
2025-06-25T2000,2345A,117.1547,29.2617,景德镇市,台达陶瓷,,28,28,37,17,21,41,,99,91,28,20,52,75,0.7,0.9
2025-06-25T2000,2346A,117.2461,29.2956,景德镇市,陶研所,,38,38,26,24,14,61,,112,108,7,6,4,4,0.6,0.7
2025-06-25T2000,1803A,115.9872,29.6815,九江市,十里,细颗粒物(PM2.5),57,,37,40,34,103,,104,104,15,17,4,7,0.8,1
2025-06-25T2000,1804A,115.9584,29.7046,九江市,茅山头,细颗粒物(PM2.5),58,46,44,41,34,96,,108,108,22,21,4,5,0.8,0.8
2025-06-25T2000,1805A,115.9877,29.7295,九江市,西园,,42,42,40,28,29,103,,114,114,23,26,6,7,0.8,0.8
2025-06-25T2000,1808A,115.9114,29.6038,九江市,综合工业园,颗粒物(PM10),52,53,45,34,30,73,,112,107,36,28,8,6,1.5,1.1
2025-06-25T2000,1809A,116.0721,29.7535,九江市,石化总厂,细颗粒物(PM2.5),69,,48,50,42,98,,108,108,14,21,6,8,0.7,1.1
2025-06-25T2000,1810A,115.9773,29.5698,九江市,庐山气象台,,17,13,6,3,3,54,,70,57,2,2,7,6,1.0,0.9
2025-06-25T2000,3190A,116.0254,29.6994,九江市,外国语学校,,49,35,35,34,30,97,,103,103,14,16,5,8,0.8,0.9
2025-06-25T2000,4253A,116.0102,29.6594,九江市,莲花大道8号,,49,49,31,27,25,85,,84,82,8,7,4,5,1.0,0.9
2025-06-25T2000,4240A,98.4958,39.7339,酒泉市,玉门东路5号,颗粒物(PM10),78,105,191,50,52,122,,131,131,6,8,9,11,0.2,0.3
2025-06-25T2000,4241A,98.5099,39.7506,酒泉市,北大街108号,颗粒物(PM10),73,95,192,44,47,123,,134,134,7,8,11,19,0.2,0.2
2025-06-25T2000,2698A,76.0072,39.4467,喀什地区,巡警大队,颗粒物(PM10),109,167,173,37,42,129,,127,127,8,28,3,4,0.3,0.4
2025-06-25T2000,2699A,75.9755,39.4694,喀什地区,吾办,"颗粒物(PM10),细颗粒物(PM2.5)",112,174,186,84,72,130,,124,124,12,26,6,6,0.5,0.5
2025-06-25T2000,4027A,75.9483,39.4689,喀什地区,老干局,颗粒物(PM10),127,204,195,48,49,124,,117,117,4,20,4,4,0.3,0.4
2025-06-25T2000,1824A,114.3389,34.7781,开封市,肿瘤医院,颗粒物(PM10),60,70,67,30,33,135,,171,170,19,31,2,5,0.4,0.4
2025-06-25T2000,1826A,114.2885,34.7965,开封市,世纪星幼儿园,"颗粒物(PM10),细颗粒物(PM2.5)",68,85,73,49,45,129,,161,160,21,33,4,6,0.6,0.7
2025-06-25T2000,3147A,114.3438,34.8106,开封市,龙亭公园,颗粒物(PM10),53,56,55,31,32,148,,178,178,14,22,4,5,0.4,0.3
2025-06-25T2000,3210A,114.3644,34.7964,开封市,汴京公园,颗粒物(PM10),64,77,73,38,42,147,,177,175,20,27,5,7,0.4,0.4
2025-06-25T2000,3473A,114.2485,34.8306,开封市,技师学院,,,76,63,40,39,146,,175,175,,28,5,6,0.6,0.6
2025-06-25T2000,3592A,114.4644,34.7556,开封市,祥符区生态环境局,,48,48,69,26,35,119,,151,149,20,38,4,6,0.6,0.7
2025-06-25T2000,1951A,84.895,45.6094,克拉玛依市,长征新村,,43,43,32,3,5,109,,111,111,6,6,4,4,0.2,0.2
2025-06-25T2000,1952A,84.8988,45.5893,克拉玛依市,南林小区,,39,39,29,11,8,118,,110,110,5,7,3,3,0.2,0.1
2025-06-25T2000,1954A,84.905,44.3396,克拉玛依市,独山子区,,38,37,30,11,10,120,,129,129,9,9,7,9,0.4,0.3
2025-06-25T2000,1955A,85.6979,46.098,克拉玛依市,乌尔禾区商贸楼,,42,42,22,3,6,101,,80,,4,5,4,4,0.3,0.3
2025-06-25T2000,3612A,85.1045,45.6899,克拉玛依市,白碱滩区新站,,43,36,27,30,23,124,,121,121,2,3,4,4,0.5,0.5
2025-06-25T2000,2697A,76.1454,39.7142,克孜勒苏柯尔克孜自治州,市人民政府,颗粒物(PM10),102,153,154,64,58,146,,136,136,1,12,3,11,0.2,0.1
2025-06-25T2000,3665A,76.1658,39.7157,克孜勒苏柯尔克孜自治州,克州文化中心,颗粒物(PM10),101,152,157,59,54,140,,133,133,5,14,3,8,0.4,0.4
2025-06-25T2000,1450A,102.8204,24.8886,昆明市,呈贡新区,,13,6,6,3,5,39,,51,50,8,10,6,7,0.1,0.1
2025-06-25T2000,1451A,102.6251,24.9608,昆明市,西山森林公园,,,,,,,,,,,,,,,,
2025-06-25T2000,1452A,102.7252,25.0902,昆明市,龙泉镇,,26,26,15,3,4,38,,51,51,10,9,1,1,0.3,0.3
2025-06-25T2000,1453A,102.7266,25.0375,昆明市,东风东路,,13,12,13,7,6,39,,51,51,10,10,4,5,0.3,0.3
2025-06-25T2000,1454A,102.6742,25.0669,昆明市,金鼎山,,24,24,11,3,3,32,,46,45,12,8,1,2,0.3,0.3
2025-06-25T2000,1455A,102.6644,25.0401,昆明市,碧鸡广场,,14,14,13,3,5,32,,44,44,13,11,5,6,0.4,0.4
2025-06-25T2000,3179A,102.7494,25.0119,昆明市,官渡区博物馆,,20,20,16,10,4,38,,52,52,9,7,7,6,0.2,0.3
2025-06-25T2000,3375A,102.8017,24.8336,昆明市,青年创业园,,15,8,9,3,4,47,,55,55,5,9,2,6,0.3,0.3
2025-06-25T2000,3550A,102.7997,24.9786,昆明市,昆明学院,,13,12,9,6,5,39,,52,52,10,8,6,5,0.2,0.2
2025-06-25T2000,3551A,102.5967,24.6736,昆明市,晋宁区生态环境分局,,17,17,13,3,5,40,,51,50,1,3,3,2,0.4,0.3
2025-06-25T2000,3552A,102.6678,24.9856,昆明市,云天化总部,,13,8,10,3,6,40,,44,44,6,7,5,5,0.3,0.4
2025-06-25T2000,1456A,91.1319,29.6514,拉萨市,八廓街,,49,13,20,3,12,155,,154,154,9,15,7,9,0.2,0.3
2025-06-25T2000,1457A,91.1221,29.6747,拉萨市,市环保局,,47,20,27,11,14,150,,162,162,10,14,7,7,0.3,0.3
2025-06-25T2000,1458A,91.0874,29.6475,拉萨市,区监测站,,,18,18,9,10,146,,153,153,16,21,7,8,,0.2
2025-06-25T2000,1459A,91.1774,29.6541,拉萨市,西藏大学,,49,17,15,7,9,156,,154,154,11,13,5,7,0.3,0.3
2025-06-25T2000,1460A,90.9798,29.6588,拉萨市,区辐射站,,43,26,26,14,13,136,,140,140,26,23,7,7,0.3,0.3
2025-06-25T2000,1461A,91.0834,29.6292,拉萨市,拉萨火车站,,47,16,14,9,10,149,,155,155,11,16,4,5,0.2,0.2
2025-06-25T2000,2520A,109.2203,23.7256,来宾市,来宾技工学校,,27,24,23,11,13,84,,82,82,5,9,7,8,0.3,0.4
2025-06-25T2000,3535A,109.1781,23.7297,来宾市,兴宾区政府,,28,14,21,9,10,87,,82,82,6,11,5,6,0.3,0.4
2025-06-25T2000,4002A,109.2416,23.7461,来宾市,中南小学,,,,26,,9,83,,86,86,9,8,8,9,,0.3
2025-06-25T2000,1477A,104.1373,35.9454,兰州市,榆中兰大校区,,,,,,,,,,,,,,,,
2025-06-25T2000,1479A,103.831,36.0464,兰州市,铁路设计院,,46,36,34,32,24,106,,126,126,36,29,12,12,0.5,0.6
2025-06-25T2000,3241A,103.7439,36.0842,兰州市,百合公园,,,24,24,23,14,105,,124,120,18,16,,5,0.2,0.5
2025-06-25T2000,3242A,103.9611,35.998,兰州市,和平,,40,28,20,17,14,128,,139,139,12,14,10,9,0.8,0.8
2025-06-25T2000,4236A,103.6293,36.0938,兰州市,庄浪东路808号,,38,29,33,26,26,114,,126,124,25,28,11,10,0.5,0.4
2025-06-25T2000,4237A,103.7251,36.1043,兰州市,安宁西路88号,,41,35,28,23,18,129,,144,139,12,10,7,6,0.4,0.4
2025-06-25T2000,4238A,103.8470,36.0676,兰州市,北滨河东路1号,,39,32,23,25,20,124,,140,140,21,24,13,12,0.6,0.6
2025-06-25T2000,3245A,103.6633,36.533,兰州新区,新区管委会,,44,29,27,17,23,138,,134,134,8,9,13,15,0.4,0.5
2025-06-25T2000,3246A,103.6975,36.4789,兰州新区,舟曲中学,,40,16,19,9,14,125,,126,126,12,10,12,17,0.4,0.6
2025-06-25T2000,1067A,116.6708,39.5111,廊坊市,药材公司,臭氧1小时,101,78,87,28,46,201,,253,252,28,21,7,9,0.6,0.9
2025-06-25T2000,1068A,116.7214,39.5589,廊坊市,开发区,臭氧1小时,83,72,89,23,48,186,,255,252,26,23,4,8,0.5,0.8
2025-06-25T2000,1070A,116.7244,39.5269,廊坊市,北华航天学院,臭氧1小时,77,75,96,24,55,181,,235,234,19,16,4,7,0.5,0.8
2025-06-25T2000,2919A,116.7022,39.5453,廊坊市,河北工业大学,臭氧1小时,88,89,98,24,45,190,,256,254,28,20,7,10,0.6,0.8
2025-06-25T2000,2535A,103.7723,29.5462,乐山市,花湖湾,,35,11,12,9,10,109,,125,125,6,8,2,2,0.6,0.7
2025-06-25T2000,2536A,103.7627,29.5844,乐山市,牛耳桥,,32,14,12,12,10,102,,122,122,15,12,6,7,0.7,0.7
2025-06-25T2000,2537A,103.7508,29.6006,乐山市,市第三水厂,,43,,9,30,19,99,,116,116,17,15,4,4,0.6,0.4
2025-06-25T2000,2538A,103.7571,29.5664,乐山市,市监测站,,30,15,13,11,11,96,,122,122,7,5,6,6,0.6,0.6
2025-06-25T2000,3361A,103.7311,29.5628,乐山市,理工大学,,30,12,12,7,9,96,,128,128,14,9,6,6,0.6,0.6
2025-06-25T2000,2598A,100.2143,26.8576,丽江市,西南郊,,24,6,10,3,6,76,,66,66,5,8,6,6,0.5,0.6
2025-06-25T2000,2599A,100.2497,26.8802,丽江市,丽江古城,,20,14,16,6,6,63,,58,58,12,11,9,10,0.5,0.4
2025-06-25T2000,2600A,100.2203,26.8906,丽江市,市中心,,21,,12,3,6,67,,62,62,14,11,8,7,0.3,0.2
2025-06-25T2000,1267A,119.914,28.4514,丽水市,监测站大楼,,15,9,20,6,8,46,,84,74,12,13,3,3,0.4,0.4
2025-06-25T2000,1268A,119.93,28.4586,丽水市,莲都小学,,14,11,16,6,8,44,,82,72,13,12,3,3,0.4,0.4
2025-06-25T2000,1269A,119.879,28.4231,丽水市,余庄前,,12,12,22,3,9,28,,102,78,8,9,3,4,0.4,0.4
2025-06-25T2000,1173A,119.176,34.5885,连云港市,市环境监测站,臭氧1小时,57,46,46,22,30,165,,192,192,16,20,7,9,0.5,0.6
2025-06-25T2000,3000A,119.3581,34.6972,连云港市,德源药业,,,75,57,36,24,147,,185,183,,21,11,14,,0.9
2025-06-25T2000,3007A,119.178,34.844,连云港市,新城一中,臭氧1小时,84,65,47,38,32,187,,206,206,22,28,9,10,1.0,0.8
2025-06-25T2000,3008A,119.3608,34.7519,连云港市,胡沟管理处,颗粒物(PM10),53,56,36,34,22,160,,198,197,40,27,10,10,1.0,0.8
2025-06-25T2000,3009A,119.1478,34.5911,连云港市,矿山设计院,颗粒物(PM10),51,51,50,29,27,150,,184,183,11,12,7,9,0.6,0.6
2025-06-25T2000,3434A,119.2413,34.6539,连云港市,工贸学校,颗粒物(PM10),67,83,75,41,38,167,,200,200,10,10,9,10,0.7,0.7
2025-06-25T2000,3664A,119.4172,34.7341,连云港市,连云街道,臭氧1小时,108,62,40,35,21,215,,200,200,11,9,10,9,0.7,0.5
2025-06-25T2000,2571A,102.3431,27.8099,凉山彝族自治州,青龙寺,,17,17,12,3,4,36,,76,70,6,5,4,4,1.1,0.7
2025-06-25T2000,2572A,102.2721,27.8415,凉山彝族自治州,邛海宾馆,,20,17,13,14,7,54,,84,79,10,8,8,8,1.0,0.5
2025-06-25T2000,2573A,102.2625,27.898,凉山彝族自治州,西昌市政府,,15,15,11,10,7,47,,81,75,25,9,12,10,0.9,0.6
2025-06-25T2000,2574A,102.2685,27.8851,凉山彝族自治州,凉山州政府,,50,,16,35,14,48,,85,79,28,11,11,10,1.0,0.7
2025-06-25T2000,4229A,102.2342,27.8859,凉山彝族自治州,凯乐南路30号,,32,,12,22,11,44,,74,72,25,14,10,10,0.9,0.6
2025-06-25T2000,2212A,123.2,41.1953,辽阳市,宏伟区,,47,27,53,15,23,149,,231,222,18,19,6,10,0.7,1
2025-06-25T2000,2213A,123.1683,41.2495,辽阳市,新华园,,43,28,65,17,29,135,,220,212,20,27,9,15,0.4,0.8
2025-06-25T2000,2214A,123.2354,41.2639,辽阳市,滨河路,,46,31,54,18,24,147,,214,210,12,29,8,11,0.5,0.9
2025-06-25T2000,2215A,123.149,41.2991,辽阳市,铁西工业园,,35,35,68,13,32,101,,180,172,28,36,4,8,0.4,0.9
2025-06-25T2000,2227A,125.1358,42.8845,辽源市,环保局,,45,32,40,7,18,144,,213,200,22,42,2,4,0.4,0.5
2025-06-25T2000,3239A,125.0764,42.9078,辽源市,银鹰制药,,34,32,39,11,23,107,,223,204,48,50,3,5,0.4,0.4
2025-06-25T2000,1625A,115.9848,36.4372,聊城市,区政府,,50,50,53,22,26,136,,186,181,20,21,8,9,0.6,0.5
2025-06-25T2000,2878A,116.0072,36.4343,聊城市,聊大东校,颗粒物(PM10),51,51,57,20,30,138,,190,184,21,20,7,8,0.5,0.5
2025-06-25T2000,3200A,115.9819,36.4978,聊城市,监控中心,颗粒物(PM10),52,53,52,17,25,131,,194,183,29,19,8,9,0.5,0.6
2025-06-25T2000,3513A,116.0445,36.4361,聊城市,九州社区,,48,48,60,19,28,143,,189,184,15,17,4,5,0.4,0.4
2025-06-25T2000,4018A,116.0567,36.4608,聊城市,星美广场,颗粒物(PM10),51,52,59,19,24,146,,192,188,17,18,9,11,0.6,0.6
2025-06-25T2000,2632A,94.3681,29.6376,林芝市,林芝监测站,,29,10,11,7,5,92,,102,102,4,6,4,4,0.2,0.2
2025-06-25T2000,2633A,94.3616,29.6616,林芝市,林芝人民医院,,32,14,10,7,5,100,,108,108,1,3,5,5,0.3,0.4
2025-06-25T2000,2603A,100.0781,23.8982,临沧市,市环保局,,19,19,20,12,14,21,,32,30,10,8,7,6,0.6,0.6
2025-06-25T2000,2604A,100.0894,23.8822,临沧市,市气象局,,12,11,15,8,11,28,,32,32,10,8,7,7,0.4,0.4
2025-06-25T2000,1733A,111.5531,36.0783,临汾市,临钢医院,颗粒物(PM10),67,84,52,33,16,141,,142,142,21,22,14,10,1.3,0.7
2025-06-25T2000,1734A,111.5028,36.0714,临汾市,技工学校,细颗粒物(PM2.5),63,69,51,45,26,141,,136,136,20,20,7,8,1.1,0.6
2025-06-25T2000,1736A,111.5018,36.0855,临汾市,市委,颗粒物(PM10),69,88,61,36,18,142,,144,144,25,24,10,10,1.3,0.7
2025-06-25T2000,3018A,111.505,36.1014,临汾市,唐尧大酒店,颗粒物(PM10),65,79,64,41,19,131,,133,133,20,19,7,8,1.1,0.5
2025-06-25T2000,4244A,111.4879,36.0530,临汾市,启星学校,细颗粒物(PM2.5),70,70,58,51,30,140,,138,138,19,25,6,7,1.2,0.7
2025-06-25T2000,4271A,103.2464,35.6123,临夏回族自治州,滨河东路1号,,28,27,25,10,16,89,,102,101,14,8,9,9,0.3,0.3
2025-06-25T2000,4310A,103.2093,35.5995,临夏回族自治州,新华街21号,,30,30,27,16,17,91,,110,108,14,10,6,5,0.4,0.4
2025-06-25T2000,1618A,118.3429,35.0532,临沂市,沂河小区,颗粒物(PM10),60,70,58,35,30,146,,173,169,27,25,9,10,0.5,0.4
2025-06-25T2000,1619A,118.295,35.0583,临沂市,鲁南制药厂,颗粒物(PM10),65,80,63,30,29,138,,176,170,29,29,9,11,0.6,0.6
2025-06-25T2000,1620A,118.2794,34.9976,临沂市,新光毛纺厂,颗粒物(PM10),63,75,56,39,32,140,,176,171,26,27,10,14,0.6,0.6
2025-06-25T2000,1621A,118.3956,35.0888,临沂市,河东保险公司,颗粒物(PM10),52,53,44,31,21,154,,182,179,23,22,7,8,0.6,0.5
2025-06-25T2000,3370A,118.3564,35.0215,临沂市,十里堡居委,颗粒物(PM10),59,68,56,36,30,161,,194,190,25,27,10,13,0.7,0.6
2025-06-25T2000,3496A,118.3604,35.1084,临沂市,南坊新区,颗粒物(PM10),64,78,63,34,26,143,,188,176,28,29,10,11,0.5,0.7
2025-06-25T2000,3860A,118.3920,35.0300,临沂市,皇山花园小区,细颗粒物(PM2.5),53,53,57,37,33,152,,177,174,24,28,10,15,0.7,0.5
2025-06-25T2000,1870A,109.4856,24.3895,柳州市,柳东小学,,30,16,20,8,12,94,,91,91,6,7,4,4,0.4,0.4
2025-06-25T2000,1871A,109.4157,24.3277,柳州市,环保监测站,,28,21,26,8,14,88,,88,88,12,11,7,8,0.1,0.7
2025-06-25T2000,1872A,109.389,24.341,柳州市,河西水厂,,31,18,22,10,12,97,,91,91,8,11,5,5,0.5,0.4
2025-06-25T2000,1873A,109.4311,24.2921,柳州市,市四中,,,33,27,16,16,92,,93,93,,15,7,7,0.3,0.3
2025-06-25T2000,1874A,109.4006,24.3631,柳州市,市九中,,,,27,,16,,,65,,,12,,10,,0.5
2025-06-25T2000,1875A,109.4958,24.3134,柳州市,古亭山,,42,30,24,29,11,63,,85,84,14,8,5,5,0.4,0.5
2025-06-25T2000,3402A,109.5422,24.3996,柳州市,市二中,,28,14,20,8,29,89,,91,91,9,11,7,4,0.3,0.3
2025-06-25T2000,2307A,116.5079,31.737,六安市,监测大楼,,40,,30,28,26,115,,130,128,6,5,4,4,0.2,0.3
2025-06-25T2000,2308A,116.4738,31.7643,六安市,皖西学院,,41,30,35,23,24,129,,144,142,4,6,5,5,0.4,0.4
2025-06-25T2000,2309A,116.4996,31.7905,六安市,朝阳厂,,36,36,33,25,25,105,,127,123,11,11,5,6,0.4,0.4
2025-06-25T2000,2310A,116.5567,31.7886,六安市,开发区,,39,33,38,20,23,124,,131,131,3,6,3,3,0.4,0.5
2025-06-25T2000,2576A,104.8,26.5892,六盘水市,窑上,,,38,33,3,4,,,,,5,4,2,1,0.4,0.4
2025-06-25T2000,2577A,104.83,26.5917,六盘水市,黄土坡,,14,8,12,3,6,42,,47,47,10,10,8,9,0.5,0.5
2025-06-25T2000,2578A,104.89,26.5939,六盘水市,水钢,,,25,28,3,17,41,,46,46,14,7,11,10,,0.4
2025-06-25T2000,2579A,104.8475,26.5894,六盘水市,民中,,13,6,12,3,4,39,,46,46,11,8,8,8,0.4,0.4
2025-06-25T2000,2580A,104.9544,26.5506,六盘水市,双水,,14,,8,7,6,43,,46,46,10,7,9,9,0.4,0.3
2025-06-25T2000,2335A,117.0189,25.1181,龙岩市,龙岩师专,,,,,,,,,,,,,,,,
2025-06-25T2000,2336A,117.0217,25.1033,龙岩市,龙岩市监测站,,30,18,21,17,15,96,,90,84,13,11,9,6,0.5,0.5
2025-06-25T2000,2337A,117.0258,25.0661,龙岩市,闽西职业技术学院,,29,29,29,17,13,88,,79,75,11,14,5,22,0.5,0.5
2025-06-25T2000,2338A,117.0196,25.0306,龙岩市,龙岩学院,,23,,24,11,12,72,,76,66,6,6,7,6,0.6,0.6
2025-06-25T2000,2665A,105.0822,33.3261,陇南市,汉王镇固水子,,,,,,,,,,,,,,,,
2025-06-25T2000,2885A,104.9339,33.3826,陇南市,滨江中学,,41,41,29,22,16,86,,97,95,14,8,4,5,0.8,0.7
2025-06-25T2000,3247A,104.955,33.371,陇南市,市总工会,,49,49,35,8,8,90,,101,98,13,6,6,6,0.7,0.7
2025-06-25T2000,2487A,111.9589,27.8901,娄底市,电视发射台,颗粒物(PM10),68,85,39,18,9,15,,54,47,5,7,6,7,0.4,0.3
2025-06-25T2000,2488A,111.9975,27.725,娄底市,市监测站,,46,41,31,32,20,61,,66,66,18,19,8,10,0.9,0.8
2025-06-25T2000,2489A,112.0194,27.7314,娄底市,市委党校,,44,44,26,27,16,58,,72,72,22,12,6,6,0.7,0.6
2025-06-25T2000,2490A,111.9561,27.7569,娄底市,涟钢,,47,47,35,21,17,59,,63,63,10,14,4,4,0.7,0.7
2025-06-25T2000,2491A,111.9892,27.7044,娄底市,市政府,,36,36,26,25,15,49,,73,72,12,7,5,5,0.8,0.7
2025-06-25T2000,1893A,105.4324,28.9634,泸州市,九狮山,,45,,18,31,21,34,,80,76,23,13,5,5,0.6,0.6
2025-06-25T2000,1894A,105.4427,28.9063,泸州市,小市上码头,,16,13,11,9,5,51,,82,79,18,8,12,12,0.8,0.6
2025-06-25T2000,1895A,105.4241,28.8573,泸州市,兰田宪桥,,,,11,,7,46,,63,,15,6,8,8,,0.6
2025-06-25T2000,1896A,105.4379,28.8833,泸州市,市环监站,,20,16,12,9,7,61,,84,82,16,9,8,8,0.4,0.3
2025-06-25T2000,4272A,105.3689,28.7783,泸州市,纳溪中医医院,,20,16,15,9,10,63,,82,79,16,12,4,4,0.5,0.5
2025-06-25T2000,2183A,111.1406,37.5211,吕梁市,环保局,,48,24,76,6,29,152,,177,176,8,25,4,7,0.3,0.6
2025-06-25T2000,2185A,111.1297,37.5136,吕梁市,自来水公司,,41,22,77,21,28,129,,165,164,19,23,1,7,0.4,0.6
2025-06-25T2000,2867A,111.1283,37.51,吕梁市,马茂庄小学,,43,25,76,9,29,137,,168,166,15,31,3,6,0.3,0.6
2025-06-25T2000,1812A,112.3931,34.6516,洛阳市,市委党校,,39,33,49,27,34,107,,128,99,12,15,5,9,0.6,0.6
2025-06-25T2000,1815A,112.494,34.6886,洛阳市,河南林校,,40,40,57,28,38,116,,115,115,15,23,4,8,0.6,0.6
2025-06-25T2000,1816A,112.3844,34.623,洛阳市,开发区管委会,,32,26,43,22,32,98,,110,97,16,16,8,11,0.6,0.6
2025-06-25T2000,1817A,112.4267,34.6258,洛阳市,市委新办公区,,42,42,49,25,31,108,,124,98,9,13,7,10,0.5,0.5
2025-06-25T2000,3340A,112.6005,34.6326,洛阳市,伊滨,,37,36,63,25,36,118,,105,105,10,20,4,6,0.4,0.6
2025-06-25T2000,3341A,112.4951,34.6332,洛阳市,中移产业园,,,,54,,34,111,,105,105,10,20,5,8,0.7,0.8
2025-06-25T2000,3593A,112.5736,34.8993,洛阳市,吉利监测站,细颗粒物(PM2.5),53,41,51,37,33,130,,121,121,11,22,6,7,0.4,0.5
2025-06-25T2000,3635A,112.3677,34.662,洛阳市,河科大西苑校区,,39,31,50,27,27,111,,125,110,11,16,7,12,0.5,0.6
2025-06-25T2000,3636A,112.4388,34.6781,洛阳市,英才小学,,45,42,61,31,40,119,,118,112,11,19,7,10,0.8,0.8
2025-06-25T2000,4214A,112.4600,34.6949,洛阳市,春都路1号院,,38,32,53,25,33,119,,114,114,11,19,2,6,0.7,0.7
2025-06-25T2000,2399A,114.051,33.5699,漯河市,三五一五工厂,细颗粒物(PM2.5),52,,39,36,29,132,,151,148,13,25,4,6,0.5,0.6
2025-06-25T2000,2400A,114.0055,33.5698,漯河市,漯河大学,,49,,40,34,23,127,,146,139,16,31,3,4,0.5,0.4
2025-06-25T2000,2401A,114.0138,33.5828,漯河市,市水利局,,42,36,41,29,25,128,,149,139,12,23,3,5,0.5,0.6
2025-06-25T2000,2402A,114.0261,33.5698,漯河市,市广电局,细颗粒物(PM2.5),53,,39,37,29,132,,153,146,12,22,1,2,0.7,0.6
2025-06-25T2000,3478A,113.9749,33.5664,漯河市,市图书馆,细颗粒物(PM2.5),58,52,50,41,28,125,,143,137,15,33,2,3,0.5,0.4
2025-06-25T2000,4250A,114.0892,33.5882,漯河市,韶山路11号,细颗粒物(PM2.5),59,,46,42,29,118,,153,144,17,29,2,4,0.6,0.6
2025-06-25T2000,1798A,118.5092,31.6837,马鞍山市,湖东路四小,,47,38,40,29,26,148,,166,165,10,12,7,8,0.7,0.6
2025-06-25T2000,1799A,118.5024,31.6449,马鞍山市,开发区,颗粒物(PM10),51,51,46,21,23,144,,163,160,16,18,6,7,0.8,0.8
2025-06-25T2000,1802A,118.6245,31.7241,马鞍山市,濮塘,,38,31,30,26,20,115,,158,153,2,3,8,8,0.9,0.8
2025-06-25T2000,3633A,118.4918,31.6809,马鞍山市,雨山,,47,47,36,24,22,144,,164,161,12,13,6,8,0.8,0.7
2025-06-25T2000,4191A,118.5274,31.72227,马鞍山市,慈湖高新区,,43,43,39,24,25,131,,160,156,23,16,6,7,0.9,0.6
2025-06-25T2000,1686A,111.0286,21.4688,茂名市,电白南海,,25,17,15,17,11,46,,60,57,10,7,2,3,0.6,0.6
2025-06-25T2000,1687A,110.9294,21.6533,茂名市,茂石化七小,,24,24,19,9,6,40,,69,63,9,7,3,4,0.5,0.4
2025-06-25T2000,1688A,110.9107,21.6687,茂名市,健康路,,22,22,16,9,7,47,,83,72,8,8,3,6,0.3,0.4
2025-06-25T2000,1689A,110.8592,21.6828,茂名市,高岭,,22,22,27,3,6,42,,84,75,14,13,5,8,0.3,0.3
2025-06-25T2000,3450A,111.01,21.5165,茂名市,电白水东,,17,9,9,3,4,52,,63,60,5,7,5,5,0.3,0.3
2025-06-25T2000,2539A,104.0308,30.0478,眉山市,黑龙滩水库,,34,11,5,9,14,106,,118,118,5,6,1,1,0.5,0.5
2025-06-25T2000,2540A,103.8416,30.0874,眉山市,气象局,,37,24,15,3,9,117,,135,135,16,16,3,3,0.4,0.4
2025-06-25T2000,3137A,103.8578,30.0744,眉山市,市委党校,,37,17,10,3,4,118,,130,130,15,15,4,5,0.7,0.7
2025-06-25T2000,3148A,103.8291,30.0564,眉山市,区人社局,,34,34,29,3,4,107,,140,138,24,18,7,7,0.6,0.5
2025-06-25T2000,1690A,116.1231,24.3284,梅州市,梅江月梅,,,45,30,21,17,105,,85,84,8,12,,7,0.5,0.6
2025-06-25T2000,1691A,116.0797,24.2719,梅州市,梅县新城,,32,22,27,10,13,102,,83,83,11,12,6,6,0.6,0.6
2025-06-25T2000,1692A,116.1248,24.2654,梅州市,环境监控中心,,37,37,29,19,13,103,,79,79,16,18,4,6,0.3,0.3
2025-06-25T2000,3315A,116.1233,24.2991,梅州市,梅龙,,34,31,26,19,14,107,,85,85,7,14,7,8,0.6,0.6
2025-06-25T2000,1878A,104.7778,31.4741,绵阳市,富乐山,,26,20,19,9,15,83,,104,103,9,9,8,8,0.5,0.5
2025-06-25T2000,1880A,104.6697,31.4668,绵阳市,高新区自来水公司,,31,17,21,9,11,97,,110,110,11,9,8,8,0.4,0.4
2025-06-25T2000,1881A,104.7287,31.5075,绵阳市,三水厂,,30,18,18,14,14,95,,114,114,19,9,9,8,0.6,0.5
2025-06-25T2000,3491A,104.69,31.5322,绵阳市,西科大附属小学,,31,16,19,13,13,97,,111,111,16,8,8,7,0.3,0.3
2025-06-25T2000,3492A,104.5648,31.5343,绵阳市,安州区旅游局,,33,30,19,14,13,104,,111,111,10,8,4,5,0.4,0.3
2025-06-25T2000,4226A,104.7651,31.4531,绵阳市,绵阳市气象局,,33,16,17,11,12,105,,104,104,11,9,7,8,0.5,0.4
2025-06-25T2000,1784A,129.61,44.561,牡丹江市,环保大楼,,48,48,26,21,17,74,,139,119,30,27,1,1,0.4,0.4
2025-06-25T2000,1785A,129.6115,44.5782,牡丹江市,文化广场,,36,26,36,25,20,85,,138,123,26,31,3,4,0.3,0.5
2025-06-25T2000,1786A,129.5904,44.5963,牡丹江市,第一医院,,,,33,,15,87,,142,,24,26,4,7,0.3,0.6
2025-06-25T2000,1787A,129.6364,44.6075,牡丹江市,机车工厂,,41,41,44,11,12,84,,138,121,27,26,6,7,0.4,0.5
2025-06-25T2000,1788A,129.6386,44.5462,牡丹江市,第一中学,,43,43,24,26,15,60,,135,113,34,27,3,4,0.4,0.4
2025-06-25T2000,2531A,105.0703,29.61,内江市,市监测站,,31,31,18,7,8,91,,105,104,10,9,5,5,0.5,0.6
2025-06-25T2000,2532A,105.0717,29.5947,内江市,东兴区政府,,27,19,9,3,3,84,,98,97,8,8,3,2,0.5,0.4
2025-06-25T2000,2533A,105.0653,29.5817,内江市,内江二中,,26,15,13,10,10,82,,94,94,7,8,8,8,0.5,0.5
2025-06-25T2000,2534A,105.0406,29.5822,内江市,内江日报社,,26,17,13,12,8,81,,94,94,16,7,17,9,0.4,0.3
2025-06-25T2000,2628A,92.0657,31.4846,那曲市,那曲监测站,,41,27,39,13,25,130,,129,129,12,17,8,14,0.3,0.3
2025-06-25T2000,4243A,92.0515,31.4787,那曲市,那曲市委宣传部,,,,30,,16,,,135,,,14,,9,,0.4
2025-06-25T2000,1290A,115.8931,28.6843,南昌市,省外办,,35,,28,24,21,74,,142,141,12,23,3,2,0.7,0.8
2025-06-25T2000,1291A,115.8886,28.7003,南昌市,省林业公司,,28,24,27,19,16,72,,145,142,15,22,8,9,0.8,0.9
2025-06-25T2000,1292A,115.8126,28.7442,南昌市,林科所,,27,27,19,17,8,84,,123,123,7,10,5,5,0.8,0.8
2025-06-25T2000,1294A,115.8518,28.687,南昌市,建工学校,,31,22,24,3,13,97,,144,144,12,19,7,7,0.7,0.8
2025-06-25T2000,1295A,115.8921,28.6424,南昌市,象湖,,28,24,25,17,14,88,,139,138,16,22,6,7,0.9,0.9
2025-06-25T2000,1296A,115.7423,28.7996,南昌市,武术学校,,46,46,18,12,11,18,,72,59,3,3,8,8,0.8,0.8
2025-06-25T2000,3046A,115.9084,28.6062,南昌市,机电学校,,44,44,28,19,15,83,,128,128,17,19,3,3,0.6,0.8
2025-06-25T2000,3690A,115.9721,28.7031,南昌市,外国语学校,,29,27,21,14,8,90,,126,124,8,11,12,10,0.7,0.9
2025-06-25T2000,4192A,115.9316,28.68677,南昌市,南京东路235号,,46,46,35,10,14,70,,137,134,12,20,3,5,0.6,0.9
2025-06-25T2000,1905A,106.056,30.8064,南充市,西山风景区,,,,,,,,,,,,,,,,
2025-06-25T2000,1906A,106.0789,30.8023,南充市,南充市委,,27,10,10,7,5,85,,103,101,11,8,4,4,0.4,0.4
2025-06-25T2000,1907A,106.1031,30.8217,南充市,南充炼油厂,,,,10,,10,76,,94,92,8,4,4,4,0.3,0.2
2025-06-25T2000,4227A,106.1083,30.7884,南充市,梨树横街98号,,26,10,10,3,7,81,,96,94,5,5,3,3,0.3,0.3
2025-06-25T2000,4304A,106.1172,30.843,南充市,清泉寺北路188号,,26,20,15,6,7,83,,90,90,4,3,3,3,0.2,0.3
2025-06-25T2000,4305A,106.067,30.7616,南充市,同庆路1号,,26,8,12,7,9,81,,96,94,10,8,4,3,0.2,0.2
2025-06-25T2000,1151A,118.8086,32.1065,南京市,迈皋桥,,40,34,24,24,16,128,,144,143,12,7,4,5,0.8,0.7
2025-06-25T2000,1152A,118.7538,32.0551,南京市,草场门,臭氧1小时,63,41,25,27,17,170,,158,158,20,14,8,7,0.4,0.2
2025-06-25T2000,1153A,118.7794,32.0745,南京市,山西路,,48,31,27,22,14,152,,161,161,1,10,4,6,0.3,0.2
2025-06-25T2000,1154A,118.7752,32.0023,南京市,中华门,,39,31,23,19,15,123,,148,146,19,14,8,9,0.8,0.7
2025-06-25T2000,1155A,118.8109,32.0309,南京市,瑞金路,,44,29,25,22,17,139,,150,150,3,7,6,6,0.2,0.3
2025-06-25T2000,1156A,118.7997,32.0754,南京市,玄武湖,,40,30,27,12,10,128,,140,139,10,10,4,4,0.5,0.5
2025-06-25T2000,1157A,118.6414,32.0931,南京市,浦口,,47,36,29,22,16,150,,142,142,15,18,4,4,0.6,0.3
2025-06-25T2000,1158A,118.7356,31.9996,南京市,奥体中心,,44,35,27,27,18,138,,158,156,16,22,5,5,0.4,0.3
2025-06-25T2000,1159A,118.9125,32.1028,南京市,仙林大学城,,46,46,33,19,14,138,,148,147,8,13,6,7,0.6,0.5
2025-06-25T2000,3422A,118.8436,31.9198,南京市,江宁彩虹桥,,37,34,30,19,19,116,,161,158,24,16,3,3,0.6,0.5
2025-06-25T2000,3427A,118.8554,32.3578,南京市,六合雄州,,42,36,36,29,24,134,,171,167,33,31,4,4,0.7,0.6
2025-06-25T2000,4249A,118.8708,31.3402,南京市,汶溪路181号,,42,,29,21,23,133,,158,152,11,15,5,5,0.6,0.5
2025-06-25T2000,4312A,119.019,31.6512,南京市,中山西路1号,,45,29,28,22,21,142,,156,151,8,11,4,4,0.8,0.7
2025-06-25T2000,1401A,108.3103,22.7881,南宁市,二十一中,,20,,19,11,9,64,,75,75,3,8,4,3,0.4,0.6
2025-06-25T2000,1402A,108.3141,22.8528,南宁市,北湖,,33,33,21,10,10,61,,78,77,12,9,4,5,0.4,0.5
2025-06-25T2000,1403A,108.3206,22.8225,南宁市,市监测站,,19,13,16,10,10,59,,73,72,10,7,7,7,0.4,0.5
2025-06-25T2000,1404A,108.3829,22.8037,南宁市,大自然花园,,24,14,18,12,10,74,,80,80,8,7,5,5,0.3,0.4
2025-06-25T2000,1405A,108.4394,22.7904,南宁市,仙葫,,25,22,19,15,10,79,,77,77,7,8,6,7,0.5,0.5
2025-06-25T2000,1406A,108.2397,22.8467,南宁市,区农职院,,23,21,20,16,10,65,,83,82,12,12,4,5,0.3,0.4
2025-06-25T2000,1407A,108.3275,22.735,南宁市,英华嘉园,,20,20,17,9,9,57,,82,81,18,11,7,8,0.5,0.6
2025-06-25T2000,3401A,108.4834,22.7618,南宁市,红星社区,,26,26,19,14,9,75,,77,77,10,7,2,3,0.4,0.4
2025-06-25T2000,4221A,108.2177,22.7774,南宁市,乐贤路16号,,25,21,22,17,11,54,,80,79,18,14,6,7,0.5,0.6
2025-06-25T2000,2331A,118.0966,26.6761,南平市,茫荡山,,,,,,,,,,,,,,,,
2025-06-25T2000,2332A,118.1681,26.6369,南平市,南平市监测站,,23,21,21,16,13,56,,84,81,7,9,4,5,0.6,0.6
2025-06-25T2000,2333A,118.1825,26.6489,南平市,南平铝业有限公司,,21,12,20,11,9,66,,83,81,5,8,3,4,0.7,0.7
2025-06-25T2000,2334A,118.1756,26.6272,南平市,南平七中,,18,,23,12,12,52,,84,79,2,7,5,6,0.4,0.6
2025-06-25T2000,1168A,120.9098,31.9663,南通市,狼山街道,,49,33,28,26,20,156,,197,194,14,24,4,5,0.8,0.9
2025-06-25T2000,1169A,120.86,32.0005,南通市,虹桥,,50,30,31,23,24,157,,195,193,20,32,3,4,0.9,0.9
2025-06-25T2000,1170A,120.87,32.02,南通市,城中,,48,41,38,26,21,153,,202,200,20,26,5,6,0.9,1
2025-06-25T2000,1171A,120.94,31.93,南通市,星湖花园,,45,33,28,27,25,143,,192,188,22,30,4,4,0.8,0.9
2025-06-25T2000,1172A,120.81,32.0417,南通市,紫琅学院,,,,19,,8,,,100,,,24,,6,,0.6
2025-06-25T2000,3291A,121.067,32.062,南通市,通州监测站,,43,24,27,19,19,135,,175,170,8,16,5,7,0.6,0.8
2025-06-25T2000,3432A,120.9348,31.9883,南通市,环境教育馆,,,,38,,19,144,,196,190,20,25,3,4,0.3,0.4
2025-06-25T2000,2404A,112.5224,33.0122,南阳市,瓦房庄,,37,25,37,15,19,118,,125,125,8,15,5,6,0.5,0.6
2025-06-25T2000,2405A,112.5003,32.9735,南阳市,汉画馆,,,,33,,15,114,,119,119,8,21,4,6,0.4,0.6
2025-06-25T2000,2406A,112.5573,33.027,南阳市,气象站,,35,19,34,14,15,112,,119,119,7,16,6,6,0.5,0.5
2025-06-25T2000,2407A,112.5481,32.9689,南阳市,理工学院,,37,20,32,11,18,118,,123,123,7,16,4,5,0.4,0.4
2025-06-25T2000,4008A,112.5234,32.9922,南阳市,卧龙区政府,,36,20,32,15,18,115,,119,119,7,14,4,5,0.5,0.5
2025-06-25T2000,1234A,121.8358,29.911,宁波市,区环保大楼,,37,24,44,17,17,116,,126,126,18,41,3,5,0.7,0.8
2025-06-25T2000,1235A,121.56,29.82,宁波市,万里学院,,32,22,28,16,32,101,,123,121,16,18,2,2,0.8,0.8
2025-06-25T2000,1236A,121.713,29.9572,宁波市,龙赛医院,,30,26,39,20,18,96,,146,142,29,40,4,7,0.7,0.8
2025-06-25T2000,1239A,121.633,29.7733,宁波市,钱湖水厂,,36,16,29,14,21,113,,123,123,7,6,4,4,0.5,0.5
2025-06-25T2000,1240A,121.5856,29.8635,宁波市,太古小学,,32,22,30,15,19,102,,123,120,14,13,4,4,0.8,0.8
2025-06-25T2000,1241A,121.524,29.8674,宁波市,市环境监测中心,,28,26,26,9,15,87,,125,117,19,17,3,4,0.6,0.8
2025-06-25T2000,2871A,121.6147,29.9017,宁波市,万里国际学校,,35,20,27,15,22,112,,126,125,9,17,2,3,0.7,0.8
2025-06-25T2000,3710A,121.5594,29.8975,宁波市,白沙活动中心,,33,22,23,14,17,105,,135,131,14,15,3,3,0.5,0.5
2025-06-25T2000,2339A,119.5001,26.6946,宁德市,金涵水库,,,,,,,,,,,,,,,,
2025-06-25T2000,2341A,119.5388,26.6612,宁德市,宁德市监测站,,25,18,33,17,20,42,,115,94,16,13,4,4,0.6,0.8
2025-06-25T2000,3209A,119.5231,26.6562,宁德市,宁德一中,,26,26,34,17,26,45,,118,96,9,8,4,6,0.3,0.5
2025-06-25T2000,2618A,98.8601,25.8567,怒江傈僳族自治州,州监测站,,18,18,21,10,12,52,,54,54,6,6,8,8,0.3,0.4
2025-06-25T2000,2619A,98.8546,25.8417,怒江傈僳族自治州,泸水一中,,11,11,15,7,7,26,,38,38,14,9,5,5,0.4,0.4
2025-06-25T2000,1888A,101.6891,26.571,攀枝花市,弄弄坪,,40,40,45,9,18,19,,47,45,18,19,6,9,0.7,0.8
2025-06-25T2000,1889A,101.5769,26.5928,攀枝花市,河门口,,27,27,28,8,11,12,,52,49,27,14,8,9,1.4,1
2025-06-25T2000,1890A,101.7169,26.585,攀枝花市,炳草岗,,33,33,34,7,10,12,,47,43,31,18,7,11,0.7,0.7
2025-06-25T2000,1891A,101.7369,26.5008,攀枝花市,仁和,,20,20,27,12,14,20,,52,48,13,13,7,12,0.5,0.9
2025-06-25T2000,2835A,101.7227,26.567,攀枝花市,四十中小,,26,26,31,13,13,18,,55,53,23,16,12,15,0.7,0.6
2025-06-25T2000,1604A,122.0303,41.1489,盘锦市,开发区,,41,33,33,10,22,130,,170,158,24,25,5,6,0.5,0.6
2025-06-25T2000,1605A,122.0485,41.0883,盘锦市,兴隆台,,38,16,30,14,21,120,,157,145,29,25,3,4,0.3,0.4
2025-06-25T2000,1606A,121.8297,41.1028,盘锦市,新生街道,,38,25,29,12,16,120,,154,136,21,28,6,7,0.4,0.5
2025-06-25T2000,1832A,113.3257,33.742,平顶山市,新华旅馆,,42,30,38,29,21,129,,140,134,11,18,4,5,0.5,0.5
2025-06-25T2000,1833A,113.2919,33.737,平顶山市,规划设计院,,39,,37,27,21,120,,130,124,14,21,4,5,0.6,0.5
2025-06-25T2000,1834A,113.182,33.774,平顶山市,平顶山工学院,,40,40,38,22,18,128,,129,129,10,19,1,2,0.4,0.4
2025-06-25T2000,3204A,113.3025,33.73,平顶山市,规划局,,42,,31,25,16,133,,138,134,10,22,3,5,0.5,0.5
2025-06-25T2000,3594A,112.8867,33.9116,平顶山市,石龙区,,40,26,59,23,30,125,,120,120,10,28,6,13,0.6,0.6
2025-06-25T2000,2656A,106.6692,35.5461,平凉市,聚贤嘉苑,,32,29,35,6,12,102,,109,106,10,21,10,9,0.6,0.7
2025-06-25T2000,2657A,106.7021,35.5307,平凉市,博物馆,,33,33,39,3,9,104,,114,113,13,20,9,10,0.7,0.7
2025-06-25T2000,2347A,114.0997,27.5002,萍乡市,武功山,,35,,4,24,5,31,,57,55,4,3,12,13,0.4,0.3
2025-06-25T2000,2348A,113.8385,27.6434,萍乡市,中医院,,28,25,40,19,25,55,,86,85,6,9,20,12,0.8,1.1
2025-06-25T2000,2349A,113.8493,27.6253,萍乡市,市政府车库,,39,33,31,24,26,46,,74,72,14,10,7,7,3.9,1.2
2025-06-25T2000,2350A,113.8676,27.6435,萍乡市,市环保局,,24,24,39,14,28,57,,78,78,1,6,18,8,0.6,1
2025-06-25T2000,2351A,113.866,27.6198,萍乡市,安源区政府,,29,23,34,20,21,54,,77,76,8,10,8,8,1.0,1.1
2025-06-25T2000,2319A,119.0141,25.4325,莆田市,荔城区仓后路,,35,35,34,18,15,46,,123,92,13,10,6,5,0.5,0.5
2025-06-25T2000,2320A,119.0015,25.4553,莆田市,莆田市监测站,细颗粒物(PM2.5),67,,24,48,15,50,,136,102,14,9,5,4,0.4,0.4
2025-06-25T2000,2321A,119.1119,25.4561,莆田市,涵江区六中,,31,31,30,7,11,34,,119,84,18,13,3,3,0.4,0.4
2025-06-25T2000,2322A,119.1013,25.3215,莆田市,秀屿区政府,,21,21,26,8,14,36,,101,68,11,14,5,6,0.5,0.6
2025-06-25T2000,2323A,118.981,25.4792,莆田市,东圳水库,,,,,,,,,,,,,,,,
2025-06-25T2000,2392A,115.0312,35.7636,濮阳市,环保局,颗粒物(PM10),61,72,61,41,35,122,,179,140,25,23,5,8,0.6,0.5
2025-06-25T2000,2394A,115.0574,35.7609,濮阳市,油田运输公司,颗粒物(PM10),64,78,65,34,27,132,,136,135,28,22,6,8,0.7,0.6
2025-06-25T2000,3021A,115,35.7668,濮阳市,濮水河管理处,"颗粒物(PM10),细颗粒物(PM2.5)",58,65,69,41,41,74,,93,84,51,33,5,6,0.6,0.5
2025-06-25T2000,4216A,115.0924,35.7686,濮阳市,任丘路479号,颗粒物(PM10),72,93,74,51,37,120,,133,132,22,16,7,8,0.9,0.8
2025-06-25T2000,2601A,100.98,22.7633,普洱市,市环保局,,24,24,24,9,11,33,,48,46,15,5,4,4,0.6,0.5
2025-06-25T2000,2602A,100.9817,22.8322,普洱市,普洱第二中学,,32,26,24,22,16,25,,50,47,14,6,6,6,0.6,0.5
2025-06-25T2000,2262A,131.0518,45.8751,七台河市,新一中,细颗粒物(PM2.5),54,51,40,38,29,97,,212,189,27,15,11,10,1.0,1
2025-06-25T2000,3345A,131.0577,45.7879,七台河市,中波台,,37,19,28,7,7,117,,158,149,22,22,7,9,0.3,0.3
2025-06-25T2000,3637A,131.0176,45.7761,七台河市,人民广场,,48,47,54,33,30,114,,163,151,19,20,12,13,0.7,0.7
2025-06-25T2000,3684A,130.8781,45.8222,七台河市,新建矿广场,颗粒物(PM10),64,78,54,30,19,128,,180,166,22,24,12,12,0.2,0.6
2025-06-25T2000,1779A,123.9305,47.3636,齐齐哈尔市,安居小区,,36,19,52,16,23,113,,173,168,16,21,20,14,0.5,0.6
2025-06-25T2000,1780A,123.9488,47.3386,齐齐哈尔市,中心广场,颗粒物(PM10),55,59,58,9,21,114,,180,173,19,19,7,8,0.6,0.7
2025-06-25T2000,1781A,123.9483,47.3227,齐齐哈尔市,农牧车辆厂,,38,36,52,26,23,114,,168,162,13,17,4,7,0,0.1
2025-06-25T2000,1783A,123.945,47.2988,齐齐哈尔市,市环境监测站,,39,27,43,19,23,123,,176,170,12,14,4,4,0.3,0.4
2025-06-25T2000,3662A,123.6333,47.2075,齐齐哈尔市,富区青少年活动中心,,43,36,50,17,29,137,,159,,11,12,4,4,0.4,0.5
2025-06-25T2000,2591A,107.9783,26.5747,黔东南苗族侗族自治州,市环境监测站,,15,13,16,10,11,33,,42,39,11,8,3,3,0.5,0.5
2025-06-25T2000,2881A,107.8908,26.5311,黔东南苗族侗族自治州,凯里学院,,14,12,10,8,8,42,,52,46,7,5,2,2,0.4,0.4
2025-06-25T2000,2593A,107.5228,26.2403,黔南布依族苗族自治州,小围寨,,10,9,10,3,4,30,,41,36,3,3,1,3,0.3,0.3
2025-06-25T2000,3538A,107.5175,26.2978,黔南布依族苗族自治州,沙坝,,17,17,17,3,4,22,,28,22,4,4,4,5,0.5,0.5
2025-06-25T2000,2589A,104.9022,25.0925,黔西南布依族苗族自治州,场坝街,,14,11,14,8,7,44,,53,52,6,4,4,3,0.3,0.3
2025-06-25T2000,2590A,104.8811,25.0992,黔西南布依族苗族自治州,坪东大道,,12,12,17,6,7,36,,43,42,8,6,1,1,0.1,0.1
2025-06-25T2000,2502A,108.6236,21.9667,钦州市,市环保站,,19,14,13,3,4,59,,64,64,10,9,2,2,0.4,0.4
2025-06-25T2000,2503A,108.6549,21.9481,钦州市,沙埠小学,,20,20,22,13,9,57,,63,62,11,12,3,3,0.3,0.3
2025-06-25T2000,2504A,108.5989,21.7431,钦州市,港区一小,,27,27,37,11,12,42,,59,58,22,19,2,4,0.5,0.6
2025-06-25T2000,3404A,108.5959,21.9633,钦州市,北职校,,17,11,18,8,7,54,,66,65,10,9,2,2,0.4,0.3
2025-06-25T2000,1043A,119.7493,40.0116,秦皇岛市,第一关,,48,44,58,17,25,151,,155,155,13,51,5,6,0.3,0.3
2025-06-25T2000,1044A,119.5897,39.9499,秦皇岛市,监测站,,47,46,49,11,13,148,,150,149,11,30,4,5,0.4,0.4
2025-06-25T2000,1046A,119.5251,39.9041,秦皇岛市,建设大厦,,44,32,51,16,15,138,,144,143,8,27,4,5,0.4,0.4
2025-06-25T2000,3132A,119.610547,39.943889,秦皇岛市,文明里,,47,31,49,18,16,150,,148,148,10,27,4,6,0.2,0.3
2025-06-25T2000,4198A,119.5090,39.8253,秦皇岛市,北戴河轮滑馆,,,,44,29,19,162,,156,156,5,17,3,3,,0.3
2025-06-25T2000,1307A,120.6659,36.2403,青岛市,仰口,,36,35,34,20,18,115,,150,147,9,9,8,8,0.7,0.6
2025-06-25T2000,1310A,120.4134,36.0658,青岛市,市南区东部子站,臭氧1小时,80,83,41,46,24,184,,214,214,30,24,14,13,0.7,0.6
2025-06-25T2000,1311A,120.3664,36.1032,青岛市,四方区子站,臭氧1小时,95,78,36,51,23,196,,208,208,39,28,16,11,0.8,0.5
2025-06-25T2000,1312A,120.2994,36.054,青岛市,市南区西部子站,细颗粒物(PM2.5),74,83,40,54,24,161,,178,178,27,36,8,10,0.9,0.7
2025-06-25T2000,1313A,120.4581,36.0858,青岛市,崂山区子站,细颗粒物(PM2.5),77,90,31,56,20,173,,190,190,25,19,11,10,0.5,0.4
2025-06-25T2000,1315A,120.3999,36.3083,青岛市,城阳区子站,臭氧1小时,54,53,38,22,16,163,,213,202,34,27,8,7,0.5,0.4
2025-06-25T2000,1966A,120.0405,35.8735,青岛市,黄岛区4号,,,,48,,23,253,,244,244,,35,11,13,,0.9
2025-06-25T2000,3362A,120.5014,36.4034,青岛市,即墨2号,,48,33,38,21,18,152,,176,173,12,16,4,4,0.4,0.3
2025-06-25T2000,3642A,120.3503,36.0736,青岛市,市北区南部,,,62,33,,20,200,,202,202,26,22,12,12,0.8,0.5
2025-06-25T2000,3643A,120.3948,36.1805,青岛市,李沧区北部,臭氧1小时,85,75,37,41,20,188,,184,184,23,24,12,10,0.9,0.6
2025-06-25T2000,4290A,120.1969,35.9546,青岛市,珠江路669号,臭氧1小时,110,68,41,54,26,220,,225,225,15,23,9,10,0.6,0.5
2025-06-25T2000,1702A,113.0426,23.691,清远市,环保大楼,臭氧1小时,101,25,19,22,17,202,,190,190,24,21,6,6,0.6,0.5
2025-06-25T2000,1703A,113.0208,23.7106,清远市,凤城街办,臭氧1小时,93,41,33,21,16,194,,176,176,18,22,7,8,0.4,0.4
2025-06-25T2000,3025A,113.0477,23.6344,清远市,技师学院,,,56,36,24,16,176,,173,173,24,23,8,8,,0.5
2025-06-25T2000,3318A,112.9903,23.7403,清远市,清新太和,,50,48,32,24,16,157,,163,163,15,19,8,9,0.5,0.5
2025-06-25T2000,3455A,113.076,23.7198,清远市,清城东城,臭氧1小时,57,41,35,27,17,165,,96,,18,20,9,9,0.3,0.3
2025-06-25T2000,2661A,107.6325,35.7357,庆阳市,庆阳五中,,35,16,24,7,16,109,,120,117,8,8,5,6,0.3,0.4
2025-06-25T2000,2662A,107.6364,35.7067,庆阳市,市环保局,,35,21,28,6,14,112,,120,119,6,7,16,10,0.5,0.5
2025-06-25T2000,1916A,103.7897,25.5035,曲靖市,环境监测站,,,,14,,4,40,,48,48,9,5,3,3,,0.4
2025-06-25T2000,1917A,103.8,25.5364,曲靖市,烟厂办公区,,18,14,13,12,6,48,,54,54,5,5,4,4,0.5,0.5
2025-06-25T2000,3376A,103.7947,25.462,曲靖市,南苑二区,,15,13,10,6,4,47,,52,52,6,5,4,4,0.5,0.5
2025-06-25T2000,3377A,103.7444,25.5261,曲靖市,曲靖师范学院,,18,18,9,6,5,47,,54,54,6,5,5,7,0.3,0.3
2025-06-25T2000,1264A,118.8692,28.9398,衢州市,环保大楼,,31,31,36,19,25,78,,98,94,15,10,3,4,0.5,0.5
2025-06-25T2000,1265A,118.8709,28.9666,衢州市,实验学校,,22,22,26,12,18,66,,104,97,20,12,3,3,0.4,0.4
2025-06-25T2000,1266A,118.8621,28.9808,衢州市,衢州学院,,22,17,22,11,17,69,,108,102,17,13,3,3,0.5,0.6
2025-06-25T2000,1611A,118.5819,24.9117,泉州市,涂山街,,18,18,31,6,13,24,,78,54,15,19,3,4,0.5,0.5
2025-06-25T2000,1612A,118.5972,24.8978,泉州市,津头埔,,24,24,25,10,12,26,,72,50,13,18,1,4,0.5,0.5
2025-06-25T2000,1613A,118.6663,24.9424,泉州市,万安,,28,28,29,6,13,26,,79,54,12,15,1,3,0.4,0.4
2025-06-25T2000,1614A,118.6117,24.9604,泉州市,清源山,,,,,,,,,,,,,,,,
2025-06-25T2000,3529A,118.6333,24.9264,泉州市,城华南路,,,12,21,6,12,22,,76,49,,15,,5,0.5,0.4
2025-06-25T2000,2626A,88.8876,29.2718,日喀则市,日喀则监测站,,44,7,10,3,5,138,,142,142,5,6,12,12,0.2,0.3
2025-06-25T2000,3726A,88.8781,29.2426,日喀则市,林业技术推广中心,,44,13,13,3,4,140,,137,137,2,5,8,8,0.4,0.4
2025-06-25T2000,1659A,119.471,35.4209,日照市,监测站,颗粒物(PM10),56,61,42,33,25,144,,212,206,43,44,7,8,0.8,0.7
2025-06-25T2000,1660A,119.523,35.4216,日照市,市政府广场,颗粒物(PM10),57,63,46,27,23,160,,192,190,24,29,8,11,0.7,0.8
2025-06-25T2000,1661A,119.5587,35.4044,日照市,港务局,颗粒物(PM10),65,80,56,46,32,164,,218,214,32,40,7,10,0.9,0.9
2025-06-25T2000,3507A,119.5328,35.4625,日照市,职业技术学院,颗粒物(PM10),63,75,55,31,23,146,,209,201,37,38,5,8,0.8,0.8
2025-06-25T2000,3604A,119.3266,35.1044,日照市,岚山环保分局,颗粒物(PM10),60,70,60,27,27,141,,216,206,38,34,24,21,1.1,1.1
2025-06-25T2000,1835A,111.1922,34.7752,三门峡市,市政府,,,33,41,19,28,82,,102,102,27,21,,6,0.5,0.6
2025-06-25T2000,1836A,111.1587,34.7942,三门峡市,开发区,,49,45,52,34,34,99,,111,106,16,18,6,7,0.6,0.6
2025-06-25T2000,1838A,111.143,34.7955,三门峡市,风景区,,35,31,38,24,27,109,,120,119,13,12,8,10,0.4,0.4
2025-06-25T2000,3039A,111.1911,34.7829,三门峡市,三门峡市第一小学,,45,45,42,31,28,94,,114,106,23,19,5,7,0.5,0.7
2025-06-25T2000,3598A,111.1,34.7167,三门峡市,富达温泉假日酒店,,,17,32,12,34,101,,110,110,8,17,,9,0.3,0.4
2025-06-25T2000,2324A,117.6211,26.2625,三明市,三钢,,30,30,29,18,24,75,,118,108,14,13,11,6,3.0,1.1
2025-06-25T2000,2325A,117.635,26.2714,三明市,三明二中,,24,20,25,14,17,76,,112,106,10,12,3,2,1.3,0.7
2025-06-25T2000,2326A,117.6028,26.2378,三明市,三元区政府,,,52,28,11,17,88,,118,111,,11,4,6,,0.6
2025-06-25T2000,2327A,117.7275,26.3108,三明市,洋溪,,,,,,,,,,,,,,,,
2025-06-25T2000,1876A,109.5078,18.2489,三亚市,河东子站,,15,15,9,3,4,40,,48,44,9,4,4,3,0.4,0.4
2025-06-25T2000,1877A,109.4964,18.2681,三亚市,河西子站,,12,7,10,6,5,38,,48,44,7,6,2,2,0.3,0.3
2025-06-25T2000,3540A,109.7348,18.3443,三亚市,君悦子站,,,10,11,8,4,46,,53,50,,4,2,2,,0.3
2025-06-25T2000,2624A,91.7608,29.2313,山南市,山南监测站,,43,10,11,3,5,135,,134,134,5,7,3,3,0.3,0.3
2025-06-25T2000,2625A,91.7706,29.2436,山南市,山南人民医院,,45,11,12,3,6,141,,140,140,5,6,6,6,0.2,0.2
2025-06-25T2000,1674A,116.6794,23.3667,汕头市,金平子站,,19,,12,9,8,60,,58,58,3,5,5,5,0.6,0.5
2025-06-25T2000,1675A,116.7244,23.3633,汕头市,龙湖子站,,34,34,14,3,5,51,,55,53,5,7,5,6,0.4,0.4
2025-06-25T2000,1676A,116.7258,23.2775,汕头市,濠江子站,,16,,16,6,9,51,,51,51,8,9,4,5,0.5,0.5
2025-06-25T2000,1677A,116.7519,23.4714,汕头市,澄海子站,,15,12,20,3,10,47,,64,53,6,8,1,2,0.5,0.6
2025-06-25T2000,1678A,116.6092,23.2539,汕头市,潮阳子站,,20,16,12,3,5,61,,57,57,4,3,4,4,0.4,0.4
2025-06-25T2000,3444A,116.454,23.2684,汕头市,潮南峡山,,17,,10,11,8,54,,58,52,4,6,4,5,0.3,0.3
2025-06-25T2000,3624A,116.4069,23.2533,汕头市,潮南子站,,,,14,,7,55,,57,55,4,4,4,4,0.5,0.5
2025-06-25T2000,1693A,115.3653,22.775,汕尾市,市环保局,,28,28,12,6,4,60,,58,58,9,6,2,3,0.5,0.3
2025-06-25T2000,1694A,115.3706,22.7898,汕尾市,市政府,,26,26,12,3,6,66,,60,58,8,6,5,4,0.4,0.4
2025-06-25T2000,1695A,115.3622,22.7925,汕尾市,新城中学,,46,46,14,3,5,60,,58,56,8,6,3,3,0.6,0.5
2025-06-25T2000,2645A,109.9154,33.8715,商洛市,监测站,,30,15,34,10,17,95,,108,106,8,12,7,6,0.4,0.5
