timepoint,stationcode,longitude,latitude,area,positionname,primarypollutant,aqi,pm10,pm10_24h,pm2_5,pm2_5_24h,o3,o3_24h,o3_8h,o3_8h_24h,no2,no2_24h,so2,so2_24h,co,co_24h
2025-06-25T1000,2566A,102.1879,31.914,阿坝藏族羌族自治州,州农科所,,46,46,29,12,12,41,,28,28,6,12,12,14,0.5,0.6
2025-06-25T1000,2568A,102.2502,31.8896,阿坝藏族羌族自治州,马师校,,23,17,20,16,17,43,,20,20,6,10,6,6,0.5,0.5
2025-06-25T1000,3994A,102.2165,31.9024,阿坝藏族羌族自治州,马尔康中学西区,,18,,5,12,18,46,,30,29,7,6,6,6,0.3,0.3
2025-06-25T1000,2695A,80.292,41.1694,阿克苏地区,电视台,颗粒物(PM10),57,64,89,24,31,76,,89,77,14,10,5,5,0.7,0.6
2025-06-25T1000,2696A,80.2613,41.1551,阿克苏地区,艺术中心,颗粒物(PM10),70,90,93,32,36,28,,93,71,43,6,3,3,0.5,0.3
2025-06-25T1000,2204A,105.6467,38.8363,阿拉善盟,西城区西花园,,50,,17,13,19,157,,143,143,8,9,5,6,1.0,1
2025-06-25T1000,2205A,105.6985,38.8411,阿拉善盟,蒙二幼,,49,23,23,9,15,154,,142,142,8,10,10,10,0.6,0.6
2025-06-25T1000,2206A,105.724,38.8516,阿拉善盟,环保局新楼,,48,16,21,8,14,153,,145,145,4,6,9,9,0.6,0.6
2025-06-25T1000,2708A,88.1264,47.8517,阿勒泰地区,市站,,21,13,18,3,5,66,,69,69,14,8,1,1,0.2,0.4
2025-06-25T1000,2630A,80.1161,32.5,阿里地区,阿里监测站,,29,19,18,7,8,91,,108,104,20,8,8,8,0.4,0.3
2025-06-25T1000,3192A,80.0903,32.5028,阿里地区,阿里藏医院,,33,29,35,7,12,104,,117,112,8,4,8,8,0.5,0.4
2025-06-25T1000,2642A,109.0318,32.6537,安康市,香溪洞,,39,,28,12,17,123,,102,102,3,6,4,5,0.5,0.4
2025-06-25T1000,2644A,109.0072,32.6975,安康市,汉滨区检察院,颗粒物(PM10),52,54,43,26,20,61,,40,40,5,7,5,8,0.5,0.5
2025-06-25T1000,4054A,109.0325,32.6913,安康市,市邮政管理局,,32,30,33,17,18,100,,85,85,7,8,4,6,0.5,0.6
2025-06-25T1000,2291A,117.0809,30.5177,安庆市,环科院,,38,38,33,23,20,60,,73,65,28,13,7,5,0.8,0.7
2025-06-25T1000,2292A,117.0331,30.5119,安庆市,马山宾馆,,40,40,34,27,19,73,,75,73,24,13,8,6,0.9,0.8
2025-06-25T1000,2294A,116.9896,30.6145,安庆市,安庆大学,,46,46,37,29,20,64,,52,52,27,16,1,3,0.7,0.7
2025-06-25T1000,3173A,117.0598,30.5351,安庆市,市人大,,35,35,32,24,21,84,,79,78,24,15,7,5,0.7,0.6
2025-06-25T1000,3122A,105.9606,26.2611,安顺市,伍家关,,,,,,13,,,,,,3,,3,,0.4
2025-06-25T1000,3123A,105.9408,26.2431,安顺市,凤凰山,,20,14,15,14,11,43,,51,48,4,4,4,4,0.5,0.5
2025-06-25T1000,3124A,105.9439,26.2564,安顺市,金钟山,,15,14,14,10,9,43,,50,48,4,3,4,4,0.2,0.2
2025-06-25T1000,3125A,105.8983,26.2481,安顺市,娄家坡,,14,10,10,9,6,42,,46,44,2,1,3,3,0.5,0.5
2025-06-25T1000,1818A,114.4839,36.0621,安阳市,棉研所,,,,,,,,,,,,,,,,
2025-06-25T1000,1819A,114.3551,36.1017,安阳市,红庙街,颗粒物(PM10),54,58,49,27,22,133,,101,101,6,6,3,7,0.4,0.4
2025-06-25T1000,1820A,114.361,36.0681,安阳市,银杏小区,颗粒物(PM10),55,59,50,29,27,123,,100,100,21,12,5,10,0.4,0.3
2025-06-25T1000,3141A,114.3922,36.0878,安阳市,信访局,颗粒物(PM10),60,70,49,36,23,145,,116,116,3,7,3,6,0.7,0.5
2025-06-25T1000,3669A,114.4705,36.0637,安阳市,左辅环卫站,颗粒物(PM10),58,66,53,28,27,115,,80,80,24,17,14,8,0.6,0.6
2025-06-25T1000,3703A,114.2917,36.0949,安阳市,安钢职工学校,颗粒物(PM10),65,79,55,28,26,109,,89,88,21,11,4,5,0.4,0.4
2025-06-25T1000,1748A,123.044,41.1196,鞍山市,深沟寺,,42,40,41,20,22,134,,92,92,27,22,22,12,1.2,1.2
2025-06-25T1000,1749A,123.011,41.0931,鞍山市,太阳城,,,,43,,25,143,,105,105,17,18,,11,1.4,1
2025-06-25T1000,1750A,123.0485,41.1442,鞍山市,太平,颗粒物(PM10),59,67,63,22,29,117,,96,96,38,26,22,13,1.1,1.2
2025-06-25T1000,1751A,122.9642,41.0971,鞍山市,铁西三道街,颗粒物(PM10),64,77,57,36,27,134,,82,82,50,31,56,12,3.8,1.4
2025-06-25T1000,1753A,123.022,41.0821,鞍山市,明达新区,,47,33,44,17,27,149,,98,98,20,21,23,12,1.3,0.9
2025-06-25T1000,1754A,123.1289,41.0228,鞍山市,千山,,,,,,,,,,,,,,,,
2025-06-25T1000,4201A,122.9446,41.0826,鞍山市,兴盛南路290号,颗粒物(PM10),73,95,73,37,31,132,,61,61,63,45,56,11,4.1,1
2025-06-25T1000,2195A,107.4212,40.761,巴彦淖尔市,附二中,,,36,42,21,19,,,101,96,11,11,17,12,0.9,0.6
2025-06-25T1000,2196A,107.37,40.7372,巴彦淖尔市,市环保大楼,,49,49,47,13,18,123,,93,91,16,14,10,8,0.8,0.5
2025-06-25T1000,1956A,86.1472,41.7538,巴音郭楞蒙古自治州,孔雀公园,,38,38,51,3,20,92,,92,89,9,6,9,10,0.4,0.2
2025-06-25T1000,1957A,86.1972,41.7166,巴音郭楞蒙古自治州,棉纺厂,颗粒物(PM10),58,66,67,17,16,80,,89,86,16,10,8,4,0.4,0.2
2025-06-25T1000,1958A,86.2357,41.7173,巴音郭楞蒙古自治州,经济开发区,,27,16,33,3,11,85,,95,91,7,5,11,10,0.3,0.2
2025-06-25T1000,2914A,106.7677,31.8794,巴中市,苏山坪,,25,10,15,6,10,77,,82,79,2,2,5,5,0.4,0.3
2025-06-25T1000,3181A,106.7768,31.8526,巴中市,市五中,,24,12,19,8,11,75,,73,73,10,7,7,7,0.6,0.5
2025-06-25T1000,3183A,106.7418,31.8654,巴中市,圣泉水务公司,,23,9,14,9,11,71,,86,81,10,7,6,6,0.6,0.5
2025-06-25T1000,3616A,106.7616,31.8344,巴中市,市中心医院,,22,12,16,3,8,69,,72,70,13,7,6,6,0.6,0.4
2025-06-25T1000,2235A,122.7911,45.6077,白城市,洮北区环保局,,47,37,32,28,17,150,,124,124,11,12,6,4,0.4,0.4
2025-06-25T1000,2236A,122.8738,45.5725,白城市,市环保局,,,46,38,21,22,141,,125,125,,5,,6,0.5,0.5
2025-06-25T1000,2231A,126.4219,41.9171,白山市,喜丰,,,74,60,16,20,,,16,16,36,30,,7,0.8,0.7
2025-06-25T1000,2232A,126.4077,41.9419,白山市,环保局,,38,38,35,17,12,65,,41,41,23,14,5,4,0.7,0.6
2025-06-25T1000,2647A,104.1724,36.5446,白银市,第三小学,,33,,21,23,16,64,,67,59,19,13,12,38,0.8,0.8
2025-06-25T1000,2648A,104.1465,36.5482,白银市,动力公司,,32,28,19,22,14,70,,63,59,18,13,10,28,0.5,0.5
2025-06-25T1000,2512A,106.6103,23.9011,百色市,市监测站,,,48,31,14,16,41,,21,21,12,12,20,10,,0.3
2025-06-25T1000,2513A,106.6538,23.8859,百色市,市中心血站,,33,33,32,16,16,45,,25,25,10,12,10,8,0.6,0.6
2025-06-25T1000,3406A,106.6085,23.8798,百色市,祈福高中,,44,44,35,19,19,32,,23,23,18,15,21,11,0.6,0.5
2025-06-25T1000,2270A,117.396,32.939,蚌埠市,工人疗养院,,49,49,28,19,11,111,,90,90,23,8,8,4,0.6,0.4
2025-06-25T1000,2271A,117.3605,32.9427,蚌埠市,百货大楼,,47,47,32,15,12,122,,92,92,19,11,7,5,0.5,0.4
2025-06-25T1000,2273A,117.4185,32.8911,蚌埠市,蚌埠学院,,,,24,,15,129,,80,80,,8,5,4,,0.3
2025-06-25T1000,2274A,117.3533,32.9673,蚌埠市,淮上区政府,,46,46,33,21,15,123,,87,87,20,11,7,5,0.6,0.4
2025-06-25T1000,2275A,117.3145,32.8977,蚌埠市,高新区,,40,29,29,15,15,128,,74,74,9,12,6,6,0.5,0.4
2025-06-25T1000,3715A,117.3092,32.9314,蚌埠市,蚌埠田家炳中学,,,,34,,17,108,,80,80,10,10,,8,0.4,0.3
2025-06-25T1000,1585A,109.8756,40.6532,包头市,市环境监测站,,50,50,37,26,20,106,,80,76,36,26,32,13,1.1,0.7
2025-06-25T1000,1587A,109.9991,40.5842,包头市,包头八中,颗粒物(PM10),64,77,56,27,24,102,,85,85,38,25,36,16,1.4,0.8
2025-06-25T1000,1588A,109.8538,40.6821,包头市,青山宾馆,颗粒物(PM10),52,54,38,22,22,108,,64,64,33,29,29,13,0.9,0.6
2025-06-25T1000,1589A,109.8642,40.6288,包头市,惠龙物流,颗粒物(PM10),51,52,39,26,21,112,,78,77,28,25,19,11,0.9,0.6
2025-06-25T1000,1590A,110.0377,40.5546,包头市,东河鸿龙湾,颗粒物(PM10),69,87,49,30,18,115,,86,86,28,27,18,13,0.8,0.6
2025-06-25T1000,3283A,109.9154,40.5685,包头市,滨河大厦,颗粒物(PM10),53,56,42,23,22,116,,87,87,24,25,16,13,0.6,0.6
2025-06-25T1000,3419A,109.9447,40.6261,包头市,包头市委党校,颗粒物(PM10),57,64,42,22,20,118,,74,74,28,26,30,16,0.7,0.6
2025-06-25T1000,3683A,109.8331,40.6576,包头市,昆区政府,颗粒物(PM10),52,54,40,24,25,104,,73,71,33,26,24,12,1.0,0.7
2025-06-25T1000,1930A,107.185,34.3063,宝鸡市,庙沟村,,26,17,21,14,14,83,,85,77,17,12,5,5,0.3,0.3
2025-06-25T1000,1931A,107.0708,34.3017,宝鸡市,竹园沟,,16,16,23,3,12,46,,47,47,12,11,5,6,0.3,0.4
2025-06-25T1000,1932A,107.1906,34.3672,宝鸡市,三陆医院,,27,27,32,12,26,34,,29,24,21,19,6,6,0.6,0.5
2025-06-25T1000,1933A,107.1431,34.3547,宝鸡市,监测站,,19,18,29,13,20,48,,44,43,17,15,6,6,0.2,0.3
2025-06-25T1000,1934A,107.1186,34.3739,宝鸡市,技工学校,,28,23,30,19,21,34,,36,33,12,9,7,8,0.5,0.5
2025-06-25T1000,1935A,107.3906,34.3528,宝鸡市,陈仓区环保局家属楼,,29,24,33,20,23,61,,48,46,16,18,5,6,0.5,0.6
2025-06-25T1000,1936A,107.2058,34.3497,宝鸡市,文理学院,,21,21,28,14,19,59,,48,48,15,14,5,6,0.5,0.5
2025-06-25T1000,1937A,107.2386,34.3622,宝鸡市,三迪小学,,26,25,30,18,23,48,,42,41,17,17,6,6,0.5,0.5
2025-06-25T1000,1051A,115.493,38.8632,保定市,游泳馆,细颗粒物(PM2.5),92,92,58,68,34,168,,108,108,18,21,7,5,0.6,0.3
2025-06-25T1000,1052A,115.5213,38.8959,保定市,华电二区,臭氧1小时,77,100,54,53,29,181,,105,105,16,18,4,3,1.0,0.7
2025-06-25T1000,1053A,115.4713,38.9108,保定市,接待中心,细颗粒物(PM2.5),84,75,59,62,32,175,,110,110,15,18,3,3,0.9,0.5
2025-06-25T1000,1054A,115.4612,38.8416,保定市,地表水厂,臭氧1小时,80,101,77,57,31,184,,113,113,19,31,5,2,0.9,0.4
2025-06-25T1000,3581A,115.31981,38.95208,保定市,满城区生态环境分局,细颗粒物(PM2.5),83,105,61,61,27,181,,127,127,18,16,8,4,0.6,0.3
2025-06-25T1000,3582A,115.47694,38.76408,保定市,清苑区第二中学,细颗粒物(PM2.5),100,124,82,75,41,177,,105,105,15,22,6,4,0.7,0.4
2025-06-25T1000,3583A,115.62909,39.02311,保定市,徐水物探局,细颗粒物(PM2.5),79,102,76,58,30,168,,97,97,13,23,5,3,0.9,0.5
2025-06-25T1000,4004A,115.4202,38.8656,保定市,双鹰农机,臭氧1小时,85,67,52,45,34,188,,122,122,17,26,6,5,0.6,0.4
2025-06-25T1000,4034A,115.5150,38.8590,保定市,植保所站,臭氧1小时,72,82,64,47,32,177,,110,110,23,23,7,5,0.8,0.5
2025-06-25T1000,2594A,99.1678,25.1081,保山市,市环境监测站,,,,12,,11,22,,13,13,9,6,,8,0.5,0.4
2025-06-25T1000,2595A,99.1711,25.1328,保山市,市环保局,,20,,13,14,7,33,,19,19,7,5,7,6,0.4,0.5
2025-06-25T1000,1866A,109.2262,21.588,北海市,牛尾岭水库,,14,12,11,8,7,44,,42,41,3,5,6,6,0.4,0.4
2025-06-25T1000,1867A,109.1436,21.4086,北海市,海滩公园,,18,18,26,3,5,46,,36,36,4,4,2,2,0.2,0.1
2025-06-25T1000,1868A,109.0981,21.4661,北海市,新市环保局,,15,9,14,3,10,48,,38,38,3,4,3,2,0.4,0.4
2025-06-25T1000,1869A,109.1778,21.5233,北海市,北海工业园,,19,19,18,7,7,47,,29,29,5,6,3,3,0.3,0.4
2025-06-25T1000,3400A,109.1911,21.4415,北海市,龙潭自来水厂,,17,7,14,3,8,52,,39,39,4,4,3,3,0.4,0.4
2025-06-25T1000,1001A,116.3621,39.8784,北京市,万寿西宫,臭氧1小时,65,33,68,18,40,172,,159,153,18,19,19,8,0.9,0.7
2025-06-25T1000,1002A,116.2202,40.2915,北京市,定陵,,,,,,,,,,,,,,,,
2025-06-25T1000,1003A,116.4174,39.9289,北京市,东四,臭氧1小时,72,45,69,22,36,177,,174,166,26,25,16,8,0.9,0.6
2025-06-25T1000,1004A,116.4072,39.8863,北京市,天坛,臭氧1小时,52,42,65,19,39,161,,152,143,19,17,17,8,1.0,0.8
2025-06-25T1000,1005A,116.462,39.9365,北京市,农展馆,,45,41,68,22,40,142,,140,133,19,17,16,10,1.3,0.9
2025-06-25T1000,1006A,116.3392,39.9295,北京市,官园,臭氧1小时,54,36,65,17,41,163,,156,151,17,20,17,8,0.9,0.6
2025-06-25T1000,1007A,116.2878,39.9611,北京市,海淀万柳,臭氧1小时,69,42,75,24,45,175,,98,98,12,32,15,6,1.0,0.7
2025-06-25T1000,1008A,116.6636,40.135,北京市,顺义新城,臭氧1小时,74,47,71,25,38,179,,130,130,16,23,13,7,1.2,0.8
2025-06-25T1000,1009A,116.6275,40.3275,北京市,怀柔镇,臭氧1小时,88,72,67,43,41,190,,142,142,14,15,9,4,0.8,0.7
2025-06-25T1000,1010A,116.2296,40.217,北京市,昌平镇,臭氧1小时,83,74,62,40,38,186,,136,136,20,13,11,6,0.8,0.5
2025-06-25T1000,1011A,116.3966,39.9821,北京市,奥体中心,,45,33,67,17,39,141,,138,132,18,19,15,7,0.9,0.6
2025-06-25T1000,3281A,115.9718,40.4529,北京市,延庆夏都,,50,50,47,31,29,128,,87,87,22,17,6,5,0.6,0.6
2025-06-25T1000,3418A,116.8336,40.4095,北京市,密云新城,臭氧1小时,93,61,67,34,38,194,,127,127,15,16,10,4,0.9,0.6
2025-06-25T1000,3671A,116.088,39.9726,北京市,门头沟三家店,颗粒物(PM10),58,66,44,25,22,158,,89,89,10,12,8,4,0.9,0.5
2025-06-25T1000,3672A,116.1541,39.8204,北京市,丰台云岗,臭氧1小时,68,66,82,30,39,174,,110,110,22,27,11,5,1.1,0.6
2025-06-25T1000,3673A,116.6804,39.9081,北京市,通州东关,臭氧1小时,53,38,79,21,47,162,,151,142,15,18,14,9,1.2,1
2025-06-25T1000,3674A,115.9577,39.7603,北京市,房山燕山,细颗粒物(PM2.5),83,85,52,61,32,161,,93,93,23,13,6,3,0.9,0.4
2025-06-25T1000,3675A,116.4672,39.7733,北京市,大兴旧宫,,40,40,76,22,45,121,,135,124,13,17,6,5,0.9,0.8
2025-06-25T1000,3694A,115.986,40.4563,北京市,延庆石河营,,47,47,52,28,29,124,,82,82,21,17,4,3,0.6,0.5
2025-06-25T1000,3695A,116.6151,40.3053,北京市,怀柔新城,"颗粒物(PM10),臭氧1小时",60,69,81,36,49,168,,130,129,12,11,7,5,1.2,1
2025-06-25T1000,3696A,116.2545,39.8768,北京市,丰台小屯,臭氧1小时,53,40,71,28,42,162,,134,133,9,14,14,6,1.1,0.8
2025-06-25T1000,3697A,116.84,40.3844,北京市,密云镇,臭氧1小时,89,37,65,34,38,191,,129,129,10,16,11,6,0.9,0.7
2025-06-25T1000,4182A,116.1942,39.9158,北京市,八角北路9号,臭氧1小时,65,54,70,27,39,172,,125,125,15,22,12,5,0.8,0.5
2025-06-25T1000,4194A,117.0790,40.1518,北京市,洳河巡河路,臭氧1小时,70,46,82,24,44,176,,146,146,10,14,11,7,1.0,0.9
2025-06-25T1000,1761A,123.8275,41.3064,本溪市,大峪,颗粒物(PM10),72,94,46,47,21,95,,40,40,42,21,18,8,1.8,0.8
2025-06-25T1000,1762A,123.7567,41.3325,本溪市,溪湖,颗粒物(PM10),80,109,72,56,25,17,,15,8,56,32,9,9,3.7,1.4
2025-06-25T1000,1763A,123.7169,41.3094,本溪市,彩屯,细颗粒物(PM2.5),74,94,55,54,28,98,,33,33,58,34,35,13,3.5,1.3
2025-06-25T1000,1764A,123.7669,41.2864,本溪市,东明,颗粒物(PM10),71,92,50,35,20,87,,32,32,56,32,24,10,3.3,1.7
2025-06-25T1000,1765A,123.7992,41.2664,本溪市,新立屯,,,,41,,21,133,,49,49,,39,,10,1.3,2
2025-06-25T1000,1766A,123.8142,41.3472,本溪市,威宁,,,104,59,47,24,,,16,16,32,26,11,6,1.7,0.6
2025-06-25T1000,2587A,105.2864,27.3125,毕节市,八中,,20,6,10,6,11,62,,53,53,6,6,5,5,0.5,0.5
2025-06-25T1000,2588A,105.31,27.2944,毕节市,师专,,22,6,9,3,8,68,,58,58,6,9,3,4,0.4,0.4
2025-06-25T1000,4263A,105.3688,27.3598,毕节市,工业大道,,,6,8,3,6,,,63,62,7,10,6,5,,0.6
2025-06-25T1000,1629A,118.0018,37.3617,滨州市,第二水厂,,,70,57,29,27,169,,95,95,19,21,,7,0.6,0.4
2025-06-25T1000,1630A,117.9776,37.393,滨州市,北中新校,臭氧1小时,74,63,52,34,27,179,,102,102,18,15,27,21,0.9,0.8
2025-06-25T1000,3514A,117.9378,37.3956,滨州市,中海酒店,臭氧1小时,64,70,51,44,32,171,,92,92,21,20,18,14,0.9,0.8
2025-06-25T1000,3515A,117.9378,37.3553,滨州市,开发区一中,颗粒物(PM10),68,85,60,34,26,146,,85,85,25,24,22,13,0.5,0.5
2025-06-25T1000,3516A,118.0917,37.694,滨州市,金海六路,颗粒物(PM10),65,80,53,39,24,152,,75,75,27,22,16,15,0.5,0.3
2025-06-25T1000,4028A,117.9956,37.3753,滨州市,滨州市西街道办事处,臭氧1小时,70,70,49,36,29,176,,102,102,16,16,14,9,0.6,0.4
2025-06-25T1000,2311A,115.8072,33.8399,亳州市,污水处理厂,,48,48,46,28,26,111,,111,103,16,12,6,5,0.8,0.8
2025-06-25T1000,2312A,115.7789,33.8518,亳州市,三国揽胜宫,,45,45,44,25,28,137,,106,106,6,8,2,3,0.5,0.5
2025-06-25T1000,3332A,115.7633,33.8034,亳州市,亳州学院,,44,44,45,26,25,132,,101,101,13,11,3,4,0.8,0.5
2025-06-25T1000,2693A,82.0485,44.8556,博尔塔拉蒙古自治州,市党校,,22,16,23,7,15,70,,73,64,11,11,4,3,0.4,0.3
2025-06-25T1000,2694A,82.0806,44.8969,博尔塔拉蒙古自治州,市环保局,,33,33,35,16,15,50,,69,59,13,6,1,1,0.4,0.3
2025-06-25T1000,1071A,116.8842,38.2991,沧州市,沧县城建局,细颗粒物(PM2.5),60,68,44,43,32,149,,85,85,43,35,4,2,0.5,0.3
2025-06-25T1000,1072A,116.8584,38.3254,沧州市,电视转播站,,,,44,,28,144,,83,83,28,19,,4,,0.4
2025-06-25T1000,1073A,116.8709,38.3228,沧州市,市环保局,颗粒物(PM10),65,80,53,34,28,152,,87,87,29,25,5,3,0.5,0.4
2025-06-25T1000,3324A,116.8136,38.3004,沧州市,河北水利电力学院,颗粒物(PM10),75,100,53,41,27,161,,97,97,38,31,6,5,0.5,0.4
2025-06-25T1000,2622A,97.1806,31.1273,昌都市,昌都监测站,,15,8,8,7,6,46,,34,34,8,7,5,5,0.2,0.2
2025-06-25T1000,3719A,97.1714,31.1406,昌都市,昌都会议中心,,17,17,10,8,7,51,,35,35,4,4,6,6,0.1,0.1
2025-06-25T1000,2690A,88.1236,43.8886,昌吉回族自治州,天山天池,,27,,12,13,5,86,,57,57,5,6,5,5,0.6,0.6
2025-06-25T1000,2692A,87.2717,44.0297,昌吉回族自治州,新区政务中心,,,54,20,9,7,,,61,59,23,10,4,4,0.8,0.3
2025-06-25T1000,3613A,87.3095,44.0142,昌吉回族自治州,亚心广场,,46,46,30,17,9,53,,52,50,31,15,10,6,0.9,0.4
2025-06-25T1000,1120A,125.2863,43.9027,长春市,客车厂,臭氧1小时,95,54,70,20,36,196,,68,68,23,59,9,7,0.5,0.7
2025-06-25T1000,1121A,125.2841,43.8463,长春市,邮电学院,臭氧1小时,83,42,59,23,29,186,,64,64,19,48,7,7,0.7,0.8
2025-06-25T1000,1122A,125.3716,43.8772,长春市,劳动公园,臭氧1小时,101,65,78,19,46,201,,67,67,22,48,9,12,0.5,0.7
2025-06-25T1000,1123A,125.3297,43.8805,长春市,园林处,臭氧1小时,100,89,68,28,33,200,,64,64,16,45,8,6,0.5,0.8
2025-06-25T1000,1124A,125.4605,43.79,长春市,净月潭,臭氧1小时,100,53,37,20,20,200,,89,89,11,11,8,7,0.5,0.5
2025-06-25T1000,1125A,125.7194,43.515,长春市,甩湾子,,48,34,35,22,17,151,,33,33,31,54,2,3,0.8,0.8
2025-06-25T1000,1126A,125.3863,43.8447,长春市,经开区环卫处,,,,62,,24,197,,58,58,18,48,,6,0.6,0.5
2025-06-25T1000,1127A,125.245,43.7783,长春市,高新区管委会,臭氧1小时,108,57,51,20,24,216,,62,62,19,49,5,4,,0.4
2025-06-25T1000,1128A,125.1761,43.8325,长春市,岱山公园,臭氧1小时,93,57,83,35,42,194,,52,52,29,73,6,6,0.6,0.6
2025-06-25T1000,4281A,125.3346,43.9164,长春市,北亚泰大街1068号,臭氧1小时,87,56,78,18,36,189,,67,67,21,53,7,6,0.7,0.9
2025-06-25T1000,1335A,113.0833,28.2325,长沙市,经开区环保局,,23,23,20,15,12,33,,19,19,15,22,4,4,0.6,0.5
2025-06-25T1000,1336A,112.8872,28.2189,长沙市,高开区环保局,,21,21,29,14,17,41,,22,22,11,15,3,3,0.8,0.7
2025-06-25T1000,1337A,113.0792,28.2053,长沙市,马坡岭,,,25,23,15,13,,,16,15,,23,,3,0.8,0.8
2025-06-25T1000,1338A,112.9394,28.19,长沙市,湖南师范大学,,24,24,24,16,17,46,,22,22,10,13,2,2,0.5,0.5
2025-06-25T1000,1339A,113.0178,28.1322,长沙市,雨花区环保局,,22,22,24,10,13,37,,12,12,6,24,5,4,0.3,0.4
2025-06-25T1000,1340A,112.9792,28.2597,长沙市,伍家岭,,22,20,24,15,16,34,,20,20,12,16,2,2,0.5,0.4
2025-06-25T1000,1341A,113.0014,28.1944,长沙市,火车新站,,21,21,24,12,13,34,,22,22,13,18,7,6,0.7,0.7
2025-06-25T1000,1342A,112.9844,28.1178,长沙市,天心区环保局,,22,22,26,13,17,48,,21,21,10,20,2,1,1.2,1.2
2025-06-25T1000,1343A,112.8908,28.1308,长沙市,湖南中医药大学,,21,21,24,7,14,49,,23,23,8,13,4,3,0.7,0.6
2025-06-25T1000,1344A,112.9581,28.3611,长沙市,沙坪,,17,17,18,10,8,41,,28,26,16,8,4,4,0.6,0.6
2025-06-25T1000,1727A,113.1147,36.1547,长治市,清华站,,,50,33,17,14,138,,111,109,,13,8,7,,0.6
2025-06-25T1000,1730A,113.0886,36.2125,长治市,审计局,,45,45,29,19,15,84,,113,103,36,17,10,11,1.0,0.8
2025-06-25T1000,1731A,113.0844,36.1856,长治市,长治八中,颗粒物(PM10),62,73,39,29,21,70,,133,120,42,14,13,12,1.0,0.6
2025-06-25T1000,2845A,113.1569,36.1911,长治市,德盛苑,,40,40,30,22,15,124,,134,134,24,10,9,10,0.7,0.6
2025-06-25T1000,3568A,113.06,36.0464,长治市,向阳小学,颗粒物(PM10),57,64,52,25,16,137,,117,117,12,10,6,7,0.5,0.5
2025-06-25T1000,3569A,112.8792,36.3144,长治市,屯留一中,颗粒物(PM10),56,62,41,34,23,66,,88,78,28,15,6,7,0.2,0.3
2025-06-25T1000,4189A,113.1131,36.19948,长治市,英华南巷50号,,48,48,37,27,18,122,,111,111,28,15,9,9,0.9,0.6
2025-06-25T1000,4190A,113.2367,36.3344,长治市,学府街1号,颗粒物(PM10),63,75,40,34,16,139,,70,70,23,23,6,5,0.8,0.5
2025-06-25T1000,1854A,111.6975,28.9703,常德市,市二中,,23,19,18,16,16,62,,38,38,6,10,6,4,0.7,0.7
2025-06-25T1000,1857A,111.7158,29.1456,常德市,白鹤山,,,,,,,,,,,,,,,,
2025-06-25T1000,3138A,111.7153,29.0289,常德市,武陵区永安,,26,21,19,18,17,57,,52,48,8,7,4,2,0.4,0.4
2025-06-25T1000,3139A,111.6892,28.9881,常德市,鼎城区玉霞,,26,22,18,18,14,60,,41,41,6,7,5,4,0.6,0.6
2025-06-25T1000,3140A,111.6625,29.0531,常德市,武陵区长庚,,,20,18,18,15,,,61,61,6,6,5,3,0.5,0.5
2025-06-25T1000,1196A,119.9633,31.762,常州市,市监测站,颗粒物(PM10),51,51,48,24,26,132,,51,51,30,45,9,7,0.7,0.6
2025-06-25T1000,1200A,119.9468,31.7069,常州市,武进监测站,,36,36,36,18,26,113,,50,50,17,27,8,8,0.9,0.9
2025-06-25T1000,1201A,119.9255,31.9087,常州市,安家,颗粒物(PM10),55,60,52,27,23,129,,40,40,27,40,11,8,1.2,0.6
2025-06-25T1000,3002A,119.9805,31.8174,常州市,行政中心,颗粒物(PM10),52,53,52,29,24,128,,46,46,28,27,11,8,1.2,0.4
2025-06-25T1000,3003A,120.0522,31.7748,常州市,经开区,,46,46,56,23,21,129,,33,33,20,40,7,6,0.4,0.5
2025-06-25T1000,3010A,119.9025,31.7964,常州市,钟楼,,41,36,44,21,24,129,,48,48,13,36,7,7,0.8,0.7
2025-06-25T1000,3429A,119.8598,31.7066,常州市,武进经发区,颗粒物(PM10),51,51,50,26,25,125,,47,47,14,28,11,7,0.8,0.8
2025-06-25T1000,3430A,119.5826,31.7245,常州市,金坛城区,,43,28,35,20,21,135,,74,74,13,18,8,6,0.6,0.4
2025-06-25T1000,2220A,120.4318,41.5881,朝阳市,西梁,颗粒物(PM10),60,70,44,36,32,146,,56,56,28,23,15,11,1.2,0.8
2025-06-25T1000,2221A,120.4521,41.5646,朝阳市,河畔小区,颗粒物(PM10),56,61,38,31,23,126,,80,80,33,16,23,9,1.7,0.4
2025-06-25T1000,2222A,120.4176,41.5648,朝阳市,八里堡,颗粒物(PM10),66,82,51,35,32,170,,86,86,36,21,27,9,2.1,0.9
2025-06-25T1000,2223A,120.3806,41.5969,朝阳市,农业园区,,,67,40,32,24,128,,61,61,,20,10,5,0.9,0.5
2025-06-25T1000,1705A,116.6367,23.6719,潮州市,西园路,,38,38,26,19,13,75,,26,26,9,13,9,6,0.6,0.5
2025-06-25T1000,3026A,116.6183,23.6608,潮州市,市政府,,47,47,31,18,13,83,,34,34,8,12,8,8,0.8,0.8
2025-06-25T1000,4036A,116.6461,23.6761,潮州市,金山,颗粒物(PM10),53,55,29,24,18,74,,30,30,8,14,4,6,0.7,0.7
2025-06-25T1000,2472A,113.0073,25.9061,郴州市,马头岭,,,12,25,8,9,,,11,11,11,17,9,9,0.3,0.3
2025-06-25T1000,2473A,113.0116,25.8226,郴州市,市职中,,28,28,25,18,17,76,,17,17,9,11,10,6,0.4,0.5
2025-06-25T1000,2475A,113.0383,25.8071,郴州市,市审计局,,25,23,25,16,16,78,,17,17,7,11,18,12,0.4,0.4
2025-06-25T1000,2476A,113.0348,25.7759,郴州市,市环保局,,34,34,33,17,7,83,,21,21,9,17,16,9,0.2,0.2
2025-06-25T1000,4252A,113.0138,25.8011,郴州市,好美居路49号,,32,32,24,17,13,86,,25,25,7,12,6,5,0.4,0.5
2025-06-25T1000,1431A,103.9728,30.7236,成都市,金泉两河,,29,29,15,8,6,69,,51,50,10,12,2,2,0.4,0.4
2025-06-25T1000,1432A,104.176,30.6872,成都市,十里店,,17,17,15,3,9,37,,67,57,32,11,4,4,0.7,0.5
2025-06-25T1000,1433A,104.079,30.5706,成都市,三瓦窑,,22,20,17,15,12,66,,61,52,31,18,4,3,0.6,0.5
2025-06-25T1000,1434A,104.1114,30.63,成都市,沙河铺,,20,20,18,11,10,43,,60,50,19,11,4,4,0.6,0.5
2025-06-25T1000,1437A,104.0786,30.6531,成都市,君平街,,23,20,18,16,12,46,,54,46,20,13,4,4,0.8,0.7
2025-06-25T1000,1438A,103.613,31.0283,成都市,灵岩寺,,,,,,,,,,,,,,,,
2025-06-25T1000,2880A,104.0239,30.65639,成都市,大石西路,,27,27,22,18,12,60,,55,47,16,11,4,4,0.7,0.6
2025-06-25T1000,3136A,104.2725,30.5589,成都市,龙泉驿区区政府,,28,,6,19,6,72,,72,70,20,10,4,3,0.7,0.6
2025-06-25T1000,3357A,104.0106,30.6931,成都市,金博路,,20,20,8,3,7,56,,44,38,19,16,4,3,0.7,0.7
2025-06-25T1000,3359A,104.0578,30.5225,成都市,华阳,,28,24,10,19,12,51,,58,53,32,18,7,6,0.8,0.7
2025-06-25T1000,3488A,104.3853,30.7453,成都市,青白江技师分院,,21,17,18,3,10,66,,68,63,16,14,5,4,0.6,0.6
2025-06-25T1000,3489A,104.0789,30.4072,成都市,科学城,,30,28,13,21,10,63,,78,74,16,10,3,3,0.7,0.6
2025-06-25T1000,4011A,103.8506,30.6947,成都市,光华大道三段,,,,18,,9,,,85,,,11,,4,,0.1
2025-06-25T1000,4224A,104.2433,30.5353,成都市,鲸龙路1057号,,35,29,18,24,13,72,,69,68,16,15,7,6,0.7,0.7
2025-06-25T1000,1062A,117.9531,40.9081,承德市,铁路,颗粒物(PM10),61,72,61,22,37,168,,89,89,19,15,12,5,1.3,0.8
2025-06-25T1000,1063A,117.9392,40.9763,承德市,中国银行,颗粒物(PM10),58,65,52,34,38,150,,57,57,14,13,8,2,0.8,0.5
2025-06-25T1000,1064A,117.9503,40.928,承德市,开发区,颗粒物(PM10),57,64,56,30,28,158,,,,25,14,12,6,1.2,0.7
2025-06-25T1000,1065A,117.8051,40.9655,承德市,文化中心,臭氧1小时,79,106,75,45,37,183,,87,87,22,26,23,14,1.1,1
2025-06-25T1000,1066A,117.9268,41.0026,承德市,离宫,,48,30,46,25,30,152,,54,54,11,12,3,2,0.7,0.4
2025-06-25T1000,2314A,117.47,30.6618,池州市,池州学院,,30,24,27,13,16,93,,63,63,12,12,5,6,0.5,0.6
2025-06-25T1000,3237A,117.4918,30.6617,池州市,展览馆,,28,25,25,15,17,88,,53,53,8,11,4,5,0.6,0.7
2025-06-25T1000,3333A,117.5627,30.695,池州市,第八中学,,32,29,26,16,16,100,,62,62,10,13,5,6,0.6,0.6
2025-06-25T1000,3334A,117.5038,30.6243,池州市,第十二中学,,27,26,27,12,15,85,,41,41,14,16,4,4,0.9,0.8
2025-06-25T1000,1744A,118.9233,42.2816,赤峰市,松山一中,颗粒物(PM10),51,51,44,32,30,114,,70,70,23,22,12,16,0.9,0.8
2025-06-25T1000,1745A,118.9576,42.2728,赤峰市,哈达街,,48,48,48,24,26,117,,76,76,23,28,19,22,1.1,0.8
2025-06-25T1000,1746A,118.8788,42.2554,赤峰市,天义路,颗粒物(PM10),53,55,37,36,36,120,,74,74,13,17,11,20,0.7,0.6
2025-06-25T1000,3058A,119.2658,42.0353,赤峰市,银河街,,,,51,,28,149,,88,86,,12,25,13,1.0,0.7
2025-06-25T1000,3286A,118.9359,42.3147,赤峰市,桥北物流园区,细颗粒物(PM2.5),58,,47,41,34,118,,63,63,16,16,13,13,0.7,0.4
2025-06-25T1000,2521A,107.3476,22.4136,崇左市,市环保局江州分局,,26,26,22,10,9,48,,15,15,6,9,6,5,0.6,0.6
2025-06-25T1000,4256A,107.3750,22.3736,崇左市,石景林东路7号,,40,40,22,8,10,46,,14,14,9,11,4,4,0.5,0.5
2025-06-25T1000,2298A,118.3093,32.3153,滁州市,老年大学,,40,40,30,18,18,116,,51,51,17,15,8,8,0.4,0.3
2025-06-25T1000,2299A,118.3244,32.2786,滁州市,人大宾馆,,36,28,24,14,21,115,,57,57,12,16,5,4,0.3,0.3
2025-06-25T1000,3207A,118.3118,32.3038,滁州市,市政府原办公楼,,42,38,30,29,26,121,,57,57,11,12,6,4,0.4,0.4
2025-06-25T1000,3331A,118.3267,32.2634,滁州市,图书馆,,37,24,22,17,19,116,,58,58,6,9,10,8,0.4,0.4
2025-06-25T1000,2605A,101.5482,25.0441,楚雄彝族自治州,州环境监测站,,,6,6,3,3,,,25,25,4,4,,7,0.3,0.3
2025-06-25T1000,2606A,101.538,25.0492,楚雄彝族自治州,市经济开发区,,9,,13,3,6,28,,25,25,4,4,6,6,0.4,0.4
2025-06-25T1000,2548A,107.5277,31.2827,达州市,达州职业技术学院,,20,10,24,3,4,62,,72,72,18,12,5,9,0.5,0.4
2025-06-25T1000,2549A,107.5086,31.2186,达州市,市环境监测站,,28,6,20,3,4,88,,90,90,17,18,4,5,0.3,0.3
2025-06-25T1000,2550A,107.4988,31.2132,达州市,凤凰小区,,29,9,13,3,6,92,,87,87,12,12,3,4,0.2,0.2
2025-06-25T1000,2551A,107.5082,31.1986,达州市,达县机关宾馆,,28,,13,8,6,88,,81,81,14,16,5,5,0.3,0.2
2025-06-25T1000,2552A,107.4644,31.2124,达州市,市政中心,,25,12,21,3,4,78,,74,74,16,10,2,2,0.4,0.4
2025-06-25T1000,2614A,100.1542,25.7054,大理白族自治州,大理市环境监测站,,16,,4,11,13,28,,27,27,3,4,5,5,0.5,0.5
2025-06-25T1000,2615A,100.2171,25.5811,大理白族自治州,大理古城,,15,15,13,3,5,22,,15,15,7,8,8,9,0.7,0.7
2025-06-25T1000,1109A,121.612,38.9741,大连市,甘井子,,41,41,31,15,16,98,,71,71,11,30,10,7,0.5,0.5
2025-06-25T1000,1110A,121.565,38.9511,大连市,周水子,,36,36,30,12,14,99,,73,73,18,34,12,12,0.4,0.4
2025-06-25T1000,1111A,121.5637,38.8845,大连市,星海三站,,35,30,25,14,15,109,,92,91,8,13,6,6,0.3,0.3
2025-06-25T1000,1112A,121.6302,38.9117,大连市,青泥洼桥,,35,27,27,14,16,112,,75,75,7,21,10,8,0.4,0.4
2025-06-25T1000,1113A,121.6251,38.8638,大连市,傅家庄,,,28,23,16,13,,,88,88,6,16,11,11,0.2,0.3
2025-06-25T1000,1114A,121.5213,38.8661,大连市,七贤岭,,,26,22,15,13,,,103,101,6,14,9,8,0.7,0.7
2025-06-25T1000,1115A,121.2529,38.8061,大连市,旅顺,,39,28,20,20,18,124,,82,82,10,18,5,5,0.3,0.3
2025-06-25T1000,1116A,121.7485,39.1311,大连市,金州,,35,24,37,10,17,110,,88,88,10,28,9,11,0.2,0.3
2025-06-25T1000,1117A,121.7811,39.0496,大连市,开发区,,39,39,36,23,22,94,,77,77,22,54,11,12,0.6,0.5
2025-06-25T1000,1118A,121.9762,39.0631,大连市,双D港,,34,29,23,20,14,108,,122,115,16,17,8,9,0.5,0.4
2025-06-25T1000,1789A,124.81117,46.03138,大庆市,大同区,颗粒物(PM10),56,62,49,24,22,142,,117,117,12,11,7,7,0.6,0.5
2025-06-25T1000,1790A,125.129,46.533,大庆市,龙凤区,,48,42,44,17,19,151,,109,109,11,13,7,6,0.5,0.4
2025-06-25T1000,1791A,124.902,46.408,大庆市,红岗区,臭氧1小时,67,41,47,25,24,173,,133,133,10,12,10,10,0.5,0.6
2025-06-25T1000,1792A,125.153,46.586,大庆市,萨尔图区,颗粒物(PM10),54,57,49,28,24,140,,113,113,13,14,10,10,0.5,0.5
2025-06-25T1000,1793A,124.9042,46.6215,大庆市,让胡路区,,49,49,42,26,25,156,,118,118,15,15,8,6,0.5,0.4
2025-06-25T1000,3481A,125.141,46.634,大庆市,萨区政府监测点,,50,50,53,22,21,146,,125,125,10,10,8,8,0.4,0.4
2025-06-25T1000,1721A,113.3819,40.1097,大同市,果树场,,,,,,,,,,,,,,,,
2025-06-25T1000,1723A,113.2994,40.0758,大同市,云冈宾馆,颗粒物(PM10),55,59,50,23,20,117,,83,83,27,21,7,7,0.8,0.8
2025-06-25T1000,1724A,113.3444,40.0917,大同市,大同大学,,45,45,35,22,18,140,,94,94,18,20,10,9,0.4,0.4
2025-06-25T1000,1725A,113.2661,40.1269,大同市,安家小村,,,98,52,30,22,,,80,67,,22,11,6,2.1,0.7
2025-06-25T1000,1726A,113.2711,40.0844,大同市,教育学院,颗粒物(PM10),55,60,54,19,22,129,,78,78,26,25,10,10,0.6,0.7
2025-06-25T1000,3282A,113.3397,40.0597,大同市,大同市卫生学校,颗粒物(PM10),51,51,44,19,19,121,,102,102,25,18,8,8,0.8,0.6
2025-06-25T1000,3565A,113.1367,40.1122,大同市,云冈站,颗粒物(PM10),67,83,64,28,26,117,,36,36,21,24,12,7,0.8,0.5
2025-06-25T1000,3566A,113.1186,40.2556,大同市,图书馆,颗粒物(PM10),55,59,38,32,19,126,,65,65,19,11,28,9,1.1,0.7
2025-06-25T1000,3567A,113.5931,40.0461,大同市,区一中,,49,49,33,20,19,149,,118,118,8,9,15,12,0.4,0.4
2025-06-25T1000,4199A,113.2798,40.0997,大同市,魏都大道141号,颗粒物(PM10),62,73,64,24,21,138,,86,86,21,21,10,9,0.8,1
2025-06-25T1000,2269A,124.1069,50.4097,大兴安岭地区,科技局,,24,24,40,8,13,65,,29,29,4,6,8,7,0.5,0.5
2025-06-25T1000,3663A,124.1164,50.4278,大兴安岭地区,红旗社区,,,22,15,16,14,71,,29,29,4,7,6,6,,0.3
2025-06-25T1000,1600A,124.3303,40.0625,丹东市,江湾东路,,38,38,62,11,30,86,,71,71,13,23,9,10,0.7,0.9
2025-06-25T1000,1601A,124.4256,40.1503,丹东市,临江后街,,39,39,99,14,23,88,,68,67,12,20,9,9,0.7,0.9
2025-06-25T1000,1602A,124.3933,40.1461,丹东市,元宝山,,30,30,48,17,26,82,,74,69,14,16,8,8,0.6,0.7
2025-06-25T1000,1603A,124.3633,40.1092,丹东市,民主桥,,46,46,62,13,28,86,,67,67,10,20,9,9,0.9,1
2025-06-25T1000,3541A,109.5726,19.5167,儋州市,第一中学子站,,10,7,11,3,6,31,,22,22,2,4,6,6,0.5,0.5
2025-06-25T1000,3542A,109.5567,19.5187,儋州市,东坡学校子站,,13,8,7,3,5,41,,25,25,3,3,7,6,0.8,0.7
2025-06-25T1000,2616A,98.5842,24.428,德宏傣族景颇族自治州,德宏州监测站,,11,9,21,7,7,34,,6,6,8,10,6,8,0.7,0.8
2025-06-25T1000,3677A,98.5881,24.4368,德宏傣族景颇族自治州,芒市人民政府综合楼,,21,21,24,3,6,34,,7,7,6,7,7,8,0.5,0.6
2025-06-25T1000,1901A,104.4239,31.1208,德阳市,东山公园,,26,24,9,18,9,41,,65,55,23,9,5,4,0.8,0.7
2025-06-25T1000,1902A,104.3826,31.1317,德阳市,西小区,,33,33,20,14,12,59,,66,60,25,13,8,5,0.9,0.8
2025-06-25T1000,1904A,104.3553,31.1091,德阳市,耐火材料厂,,28,28,18,13,11,62,,56,54,16,12,4,5,0.6,0.4
2025-06-25T1000,3639A,104.4019,31.1244,德阳市,市教育局,,32,32,17,22,12,56,,70,60,24,10,44,31,0.8,0.6
2025-06-25T1000,1622A,116.3032,37.4674,德州市,儿童乐园,颗粒物(PM10),65,80,56,31,27,166,,138,134,24,12,18,10,0.8,0.5
2025-06-25T1000,1624A,116.2991,37.4451,德州市,监理站,,,75,54,29,27,,,123,,18,19,,10,0.6,0.3
2025-06-25T1000,3066A,116.2721,37.4379,德州市,九衢泉纯净水厂,颗粒物(PM10),60,70,63,36,34,146,,78,78,20,36,4,5,0.8,0.6
2025-06-25T1000,3371A,116.3728,37.4403,德州市,开发区人民医院,颗粒物(PM10),63,75,55,31,26,168,,128,124,20,21,16,10,0.9,0.5
2025-06-25T1000,3372A,116.3572,37.4094,德州市,太阳城中学,,,,,,,,,,,,,,,,
2025-06-25T1000,3511A,116.5652,37.3319,德州市,陵城艺术中心,颗粒物(PM10),68,85,67,31,31,156,,104,104,19,18,15,5,1.0,0.7
2025-06-25T1000,2621A,99.7056,27.8317,迪庆藏族自治州,迪庆州站,,25,,13,12,9,80,,78,78,12,8,7,7,0.4,0.3
2025-06-25T1000,3180A,99.7136,27.8094,迪庆藏族自治州,质量技术监督局,,,13,13,3,7,83,,74,74,11,9,,6,0.5,0.5
2025-06-25T1000,4257A,104.6092,35.5962,定西市,将台街,,26,24,27,11,15,82,,96,91,10,10,4,4,0.1,0.1
2025-06-25T1000,4309A,104.6159,35.5701,定西市,正龙路62号,,28,20,20,7,13,88,,91,89,4,5,4,4,0.2,0.2
2025-06-25T1000,1389A,113.7547,23.0494,东莞市,莞城梨川,,16,15,20,11,13,51,,30,30,16,19,5,6,0.5,0.4
2025-06-25T1000,1390A,113.7944,23.0128,东莞市,东城石井,,20,20,19,9,11,45,,14,14,21,21,3,3,0.4,0.4
2025-06-25T1000,1391A,113.7383,22.9658,东莞市,南城西平,,17,10,16,8,10,53,,30,30,13,19,3,3,0.5,0.6
2025-06-25T1000,3319A,113.7338,23.0381,东莞市,万江金泰,,13,11,19,3,12,40,,20,20,19,20,3,9,0.7,0.6
2025-06-25T1000,3626A,113.7533,23.0202,东莞市,南城元岭,,19,19,17,9,12,47,,28,28,18,21,4,4,0.4,0.4
2025-06-25T1000,3627A,113.7875,23.0457,东莞市,东城主山,,,,28,,10,42,,27,27,,20,,7,0.6,0.6
2025-06-25T1000,1666A,118.6614,37.4309,东营市,市环保局,颗粒物(PM10),63,75,48,36,23,158,,85,85,34,25,15,13,0.7,0.6
2025-06-25T1000,3036A,118.6904,37.4338,东营市,开发区管委会,颗粒物(PM10),67,83,55,46,23,165,,80,80,34,27,12,12,0.6,0.5
2025-06-25T1000,3365A,118.5719,37.565,东营市,垦利区民丰路,臭氧1小时,95,78,59,46,26,196,,88,88,29,24,13,11,0.9,0.9
2025-06-25T1000,3498A,118.5055,37.8612,东营市,河口城区,颗粒物(PM10),64,78,44,39,18,170,,104,104,27,16,14,9,1.3,0.9
2025-06-25T1000,3646A,118.4978,37.4623,东营市,胜利站,臭氧1小时,77,87,50,39,19,181,,87,87,34,28,16,13,0.9,0.8
2025-06-25T1000,3734A,118.35,37.26,东营市,理想之城,颗粒物(PM10),68,85,49,36,23,150,,77,77,43,26,13,11,1.0,0.8
2025-06-25T1000,1591A,110.0023,39.8129,鄂尔多斯市,综合楼,颗粒物(PM10),57,63,37,29,18,96,,113,107,38,21,21,7,0.8,0.6
2025-06-25T1000,1592A,109.9486,39.8261,鄂尔多斯市,巴音孟克林场办事处,颗粒物(PM10),68,85,49,29,19,105,,131,124,32,18,20,7,0.7,0.5
2025-06-25T1000,1593A,109.7736,39.5986,鄂尔多斯市,康泽苑,,,70,49,24,19,,,92,76,,18,19,11,0.5,0.4
2025-06-25T1000,1594A,109.8119,39.5989,鄂尔多斯市,华泰汽车城,,,78,47,27,21,51,,47,36,45,26,,7,,0.5
2025-06-25T1000,1595A,109.9734,39.7884,鄂尔多斯市,奥林花园,颗粒物(PM10),63,75,47,31,25,97,,93,89,35,24,22,9,0.6,0.3
2025-06-25T1000,2436A,114.8938,30.3994,鄂州市,市政府,,,38,34,20,17,,,86,86,7,9,11,6,0.7,0.8
2025-06-25T1000,2437A,114.8989,30.3714,鄂州市,赵家坝,,36,36,26,14,10,115,,90,90,10,11,10,10,0.5,0.6
2025-06-25T1000,3654A,114.8094,30.4089,鄂州市,精准医疗中心,,41,41,29,21,13,105,,88,88,22,19,11,6,0.9,0.7
2025-06-25T1000,2454A,109.4978,30.2981,恩施土家族苗族自治州,湖北民院,,,,26,,12,92,,76,76,7,5,,5,,0.5
2025-06-25T1000,2455A,109.4707,30.2798,恩施土家族苗族自治州,州电力总公司,,23,12,20,10,14,73,,66,66,7,6,6,7,0.5,0.4
2025-06-25T1000,3549A,109.5061,30.3772,恩施土家族苗族自治州,龙凤新区,,26,16,24,12,16,82,,73,73,5,6,3,4,0.4,0.4
2025-06-25T1000,2499A,108.3411,21.6158,防城港市,沙万,,14,14,19,3,7,40,,,,8,10,3,2,0.6,0.5
2025-06-25T1000,2500A,108.3514,21.7731,防城港市,防城档案局,,38,38,27,9,8,29,,14,14,12,12,2,2,0.6,0.6
2025-06-25T1000,2501A,108.3506,21.6414,防城港市,大海花园,,36,36,18,8,6,48,,27,27,6,7,5,3,0.4,0.5
2025-06-25T1000,1371A,113.1294,23.0067,佛山市,湾梁,,16,,17,10,9,49,,23,23,13,18,10,9,0.5,0.5
2025-06-25T1000,1372A,113.1083,23.0478,佛山市,华材职中,,16,14,15,3,6,49,,28,28,11,11,8,11,0.6,0.5
2025-06-25T1000,1373A,113.144,23.0453,佛山市,南海气象局,,,34,32,9,11,,,21,20,14,16,,5,0.6,0.6
2025-06-25T1000,1374A,113.2881,22.8094,佛山市,顺德苏岗,,38,38,25,9,7,39,,19,19,16,14,7,7,0.7,0.7
2025-06-25T1000,1376A,112.8383,22.8678,佛山市,高明孔堂,,20,14,15,3,6,61,,30,30,6,7,7,6,0.6,0.6
2025-06-25T1000,1377A,112.8836,23.1588,佛山市,三水监测站,,17,17,19,10,12,44,,13,13,20,25,4,4,0.5,0.5
2025-06-25T1000,1378A,112.867,23.185,佛山市,三水云东海,,18,17,25,3,11,55,,21,21,9,20,3,2,0.4,0.5
2025-06-25T1000,3625A,113.2544,22.7642,佛山市,容桂街道办,,22,22,14,7,8,57,,23,23,19,24,13,7,0.7,0.7
2025-06-25T1000,1280A,119.3903,26.0543,福州市,鼓山,,,,,,,,,,,,,,,,
2025-06-25T1000,1282A,119.2681,26.0504,福州市,师大,,25,23,29,9,13,78,,36,36,7,9,4,4,0.2,0.3
2025-06-25T1000,1283A,119.2984,26.1028,福州市,五四北路,,28,25,24,11,11,89,,38,38,14,13,5,4,0.4,0.3
2025-06-25T1000,1284A,119.2648,26.0768,福州市,杨桥西路,,25,18,25,9,12,80,,35,35,7,10,4,4,0.3,0.3
2025-06-25T1000,1285A,119.317,26.0746,福州市,紫阳,,42,42,35,13,13,80,,39,39,21,18,5,4,0.3,0.3
2025-06-25T1000,3048A,119.5799,26.0936,福州市,九龙,,49,49,33,19,19,112,,41,41,14,15,5,5,0.4,0.4
2025-06-25T1000,3526A,119.5189,25.9664,福州市,吴航,,30,30,31,20,18,93,,37,37,8,13,6,4,0.4,0.4
2025-06-25T1000,1755A,123.7977,41.8491,抚顺市,望花区,颗粒物(PM10),80,109,71,51,34,134,,49,49,44,40,23,14,1.3,0.9
2025-06-25T1000,1756A,123.9161,41.8822,抚顺市,顺城区,细颗粒物(PM2.5),69,86,57,50,28,109,,38,38,57,47,14,9,1.4,0.9
2025-06-25T1000,1757A,124.0436,41.8611,抚顺市,东洲区,臭氧1小时,79,89,32,53,22,183,,77,77,23,14,20,9,1.6,0.5
2025-06-25T1000,1758A,123.9247,41.8642,抚顺市,新抚区,颗粒物(PM10),92,133,52,50,25,116,,38,38,46,34,15,8,1.4,0.8
2025-06-25T1000,1759A,124.0972,41.8961,抚顺市,大伙房水库,细颗粒物(PM2.5),58,,22,41,16,122,,44,44,15,16,12,7,0.9,0.4
2025-06-25T1000,1760A,123.7086,41.8391,抚顺市,沈抚新城,细颗粒物(PM2.5),65,71,49,47,32,125,,42,42,41,40,19,9,1.1,0.8
2025-06-25T1000,2376A,116.2127,28.0814,抚州市,桐源党溪,,36,36,25,24,9,53,,16,16,2,2,22,6,0.7,0.7
2025-06-25T1000,2377A,116.3544,27.9831,抚州市,市站,,26,26,21,14,9,40,,26,26,8,7,1,8,1.1,1.2
2025-06-25T1000,2378A,116.3565,27.963,抚州市,血防站,,28,28,24,19,13,41,,29,29,7,8,3,7,0.6,0.6
2025-06-25T1000,2379A,116.3564,28.0007,抚州市,采茶剧团,,26,26,21,16,9,42,,27,27,2,4,3,5,0.4,0.5
2025-06-25T1000,2380A,116.385,27.9647,抚州市,医学分院,,19,19,22,8,8,43,,29,29,2,3,4,9,0.7,0.9
2025-06-25T1000,2207A,121.6094,41.998,阜新市,工业园区,颗粒物(PM10),59,67,49,21,28,153,,40,40,19,39,10,12,0.5,0.5
2025-06-25T1000,2208A,121.6697,42.0279,阜新市,长青街,,45,30,45,9,22,143,,54,54,14,26,11,13,0.5,0.7
2025-06-25T1000,2209A,121.6673,42.0705,阜新市,农业园区,,,60,43,17,19,,,98,98,20,15,,16,0.7,0.6
2025-06-25T1000,2210A,121.6717,42.0224,阜新市,东苑,颗粒物(PM10),54,58,53,12,23,139,,55,55,19,31,19,17,0.5,0.8
2025-06-25T1000,2211A,121.6506,42.0498,阜新市,玉龙新城,,,41,51,12,18,124,,35,35,,38,,9,0.6,0.6
2025-06-25T1000,2301A,115.8277,32.8929,阜阳市,市监测站,,46,42,48,32,31,134,,88,88,6,12,4,3,0.4,0.4
2025-06-25T1000,2303A,115.8554,32.8605,阜阳市,开发区,颗粒物(PM10),52,54,56,22,24,137,,93,93,11,15,6,6,0.2,0.2
2025-06-25T1000,2875A,115.784,32.8892,阜阳市,阜阳职业技术学院,,43,42,39,24,24,136,,111,111,10,10,5,5,0.3,0.3
2025-06-25T1000,3468A,115.7901,32.8613,阜阳市,市规划展馆,,44,44,57,23,35,133,,96,96,11,12,4,4,0.4,0.4
2025-06-25T1000,3469A,115.836,32.9183,阜阳市,枣园社区,,43,25,52,21,34,136,,94,94,12,15,5,5,0.5,0.5
2025-06-25T1000,2669A,102.9099,34.9841,甘南藏族自治州,州政府,,,18,13,14,13,,,48,48,9,8,4,4,0.3,0.3
2025-06-25T1000,3380A,102.8914,34.9617,甘南藏族自治州,甘肃民族师范学院,,24,24,30,11,9,58,,34,34,24,25,8,8,0.3,0.4
2025-06-25T1000,2570A,101.9603,30.0475,甘孜藏族自治州,水桥子,,49,49,10,14,6,13,,17,13,26,23,6,5,0.6,0.4
2025-06-25T1000,3065A,101.9533,29.9972,甘孜藏族自治州,州环保局,,13,13,13,3,5,28,,24,24,21,20,2,2,0.5,0.5
2025-06-25T1000,3414A,115.8347,28.932,赣江新区,桑海产业园,,24,12,18,10,8,76,,41,41,14,15,6,6,0.4,0.5
2025-06-25T1000,2362A,114.9017,25.9149,赣州市,通天岩,,43,43,61,3,5,69,,20,20,5,5,4,2,0.4,0.4
2025-06-25T1000,2363A,114.9367,25.8664,赣州市,地委,,24,20,20,15,12,75,,27,27,12,10,12,5,0.7,0.6
2025-06-25T1000,2364A,114.9461,25.8481,赣州市,气象台,,23,17,20,10,7,72,,28,28,19,9,8,7,0.4,0.3
2025-06-25T1000,2365A,114.9322,25.8333,赣州市,市图书馆,,,23,14,8,10,,,26,23,13,8,,4,0.4,0.4
2025-06-25T1000,2366A,114.8905,25.8471,赣州市,华坚鞋城,,26,25,21,11,9,82,,38,38,11,12,6,4,0.3,0.3
2025-06-25T1000,3109A,115.0093,25.8613,赣州市,赣县区卫计委,,39,39,21,17,12,68,,22,22,20,13,2,2,0.2,0.2
2025-06-25T1000,2683A,106.2319,36.1417,固原市,马园,,40,36,24,23,17,126,,94,94,19,19,6,18,0.7,0.7
2025-06-25T1000,2684A,106.2792,36.0022,固原市,监测站,,41,24,20,14,13,130,,112,112,7,9,5,6,0.3,0.2
2025-06-25T1000,2685A,106.2375,36.0211,固原市,新区,,40,30,19,22,14,127,,111,111,12,9,4,4,0.4,0.4
2025-06-25T1000,3522A,106.2177,35.9959,固原市,原州区十五小,,44,37,22,24,15,138,,117,117,8,7,10,10,0.3,0.2
2025-06-25T1000,2543A,106.6308,30.5278,广安市,小平旧居,,,,,,,,,,,,,,,,
2025-06-25T1000,2544A,106.6303,30.4576,广安市,市委,,17,,9,6,13,54,,69,64,14,11,1,2,0.5,0.4
2025-06-25T1000,2545A,106.6271,30.4663,广安市,友谊中学,,20,7,18,3,10,62,,85,78,19,12,5,6,0.9,0.7
2025-06-25T1000,2547A,106.6388,30.4551,广安市,广电花园,细颗粒物(PM2.5),60,,14,43,29,52,,70,65,12,9,2,5,0.5,0.5
2025-06-25T1000,2902A,106.6351,30.4865,广安市,北辰小学,,20,,11,3,9,62,,76,73,9,7,7,8,0.7,0.6
2025-06-25T1000,2523A,105.8945,32.4535,广元市,黑石坡,,23,16,18,3,8,71,,64,64,7,7,8,8,0.3,0.3
2025-06-25T1000,2524A,105.821,32.4444,广元市,老城,,29,12,14,3,8,92,,95,94,11,9,1,2,0.9,0.8
2025-06-25T1000,2526A,105.8628,32.4287,广元市,监测站,,27,11,16,6,11,86,,88,88,15,9,8,8,0.6,0.5
2025-06-25T1000,3617A,105.8047,32.4166,广元市,经开区,,30,14,17,11,11,94,,92,90,10,8,3,3,0.5,0.4
2025-06-25T1000,1345A,113.2347,23.1423,广州市,广雅中学,,19,15,22,9,10,60,,30,30,10,17,2,3,0.6,0.6
2025-06-25T1000,1346A,113.2612,23.105,广州市,市五中,,,23,20,10,9,54,,25,25,19,18,,5,,0.5
2025-06-25T1000,1348A,113.3478,23.0916,广州市,广东商学院,,18,14,21,3,7,55,,18,18,14,24,5,3,0.5,0.5
2025-06-25T1000,1349A,113.4332,23.1047,广州市,市八十六中,,15,14,22,7,8,47,,15,15,18,32,3,3,0.4,0.4
2025-06-25T1000,1350A,113.3505,22.9483,广州市,番禺中学,,20,15,18,8,8,61,,32,32,12,16,8,7,0.4,0.4
2025-06-25T1000,1351A,113.2146,23.3916,广州市,花都师范,,29,29,25,18,12,54,,24,24,16,20,5,4,0.3,0.3
2025-06-25T1000,1352A,113.2597,23.1331,广州市,市监测站,,20,20,21,11,9,49,,28,28,10,9,6,6,0.4,0.4
2025-06-25T1000,1353A,113.5618,23.312,广州市,九龙镇镇龙,,,23,27,10,13,34,,8,8,22,24,,6,,0.4
2025-06-25T1000,1354A,113.2765,23.1544,广州市,麓湖,,17,17,20,7,8,50,,22,22,14,16,3,3,0.5,0.5
2025-06-25T1000,1355A,113.443,23.3035,广州市,帽峰山森林公园,,16,8,17,3,8,50,,24,24,16,21,8,8,0.4,0.5
2025-06-25T1000,2846A,113.3221,23.1322,广州市,体育西,,19,19,26,10,11,52,,21,21,18,26,9,6,0.4,0.4
2025-06-25T1000,3298A,113.5717,23.5491,广州市,从化街口,,19,14,27,8,12,58,,15,15,15,21,10,9,0.6,0.6
2025-06-25T1000,3299A,113.3472,23.3692,广州市,白云竹料,,27,27,29,10,13,44,,15,15,22,24,4,3,0.7,0.6
2025-06-25T1000,3300A,113.2981,23.237,广州市,白云嘉禾,,20,20,30,10,12,52,,13,13,18,27,6,6,1.4,1.2
2025-06-25T1000,3301A,113.4256,23.1716,广州市,黄埔科学城,,18,18,23,9,10,47,,13,13,13,19,4,4,0.6,0.6
2025-06-25T1000,3302A,113.3942,23.0483,广州市,番禺大学城,,19,19,20,10,8,53,,23,23,19,23,6,5,0.6,0.6
2025-06-25T1000,3303A,113.4922,22.8168,广州市,南沙黄阁,,16,16,21,7,8,46,,20,20,10,15,5,5,0.5,0.5
2025-06-25T1000,3304A,113.5342,22.7896,广州市,南沙街,,,15,18,10,8,,,18,18,18,15,,3,0.4,0.4
2025-06-25T1000,3443A,113.2902,23.5544,广州市,花都梯面,,22,22,23,11,11,39,,12,12,24,18,5,5,0.6,0.6
2025-06-25T1000,3445A,113.7858,23.7478,广州市,从化良口,,24,17,17,13,10,75,,34,34,8,8,7,6,0.6,0.6
2025-06-25T1000,3446A,113.8051,23.2614,广州市,增城荔城,,22,22,31,15,15,63,,17,17,17,18,7,7,0.4,0.4
2025-06-25T1000,2505A,109.568,23.1478,贵港市,德智高中,,,,,,,,,,,,,,,,
2025-06-25T1000,2506A,109.6047,23.0666,贵港市,江南子站,,,,19,12,12,,,31,31,,8,5,5,0.4,0.4
2025-06-25T1000,2508A,109.5669,23.1065,贵港市,荷城子站,,15,14,20,3,6,45,,33,33,8,10,5,5,0.2,0.2
2025-06-25T1000,3405A,109.5886,23.1172,贵港市,新世纪学校,,17,17,19,8,12,48,,37,37,7,9,5,5,0.4,0.4
2025-06-25T1000,4260A,109.5933,23.0951,贵港市,中山路155-3号,,20,20,23,9,13,52,,40,40,8,9,3,3,0.4,0.4
2025-06-25T1000,1439A,106.6899,26.5998,贵阳市,马鞍山,,17,17,14,3,2,32,,40,39,10,7,3,3,0.4,0.4
2025-06-25T1000,1441A,106.6243,26.6266,贵阳市,鉴湖路,,27,27,18,7,4,33,,44,42,14,8,7,7,0.3,0.4
2025-06-25T1000,1442A,106.7487,26.6343,贵阳市,燕子冲,,,,16,22,17,41,,43,43,12,10,,4,,0.1
2025-06-25T1000,1443A,106.6555,26.4365,贵阳市,碧云窝,,,19,17,7,7,41,,43,43,6,5,,5,,0.4
2025-06-25T1000,1445A,106.7109,26.6027,贵阳市,红边门,,27,27,19,12,7,34,,39,37,12,8,3,6,0.2,0.2
2025-06-25T1000,1446A,106.7164,26.5699,贵阳市,新华路,,18,12,13,12,11,43,,43,43,13,13,3,7,0.5,0.4
2025-06-25T1000,1447A,106.674,26.5424,贵阳市,太慈桥,,27,27,16,9,5,35,,40,39,13,12,5,6,0.3,0.3
2025-06-25T1000,1552A,106.805,26.3003,贵阳市,桐木岭,,,,22,,14,,,,,,2,,2,,0.7
2025-06-25T1000,4230A,106.6882,26.5695,贵阳市,花果园大街66号,,17,17,13,11,9,41,,44,43,10,8,3,3,0.0,0
2025-06-25T1000,4231A,106.6873,26.5169,贵阳市,漓江路57号,,17,17,14,3,4,42,,41,41,10,8,6,6,0.2,0.3
2025-06-25T1000,1862A,110.4144,25.3167,桂林市,电子科大尧山校区,,,,,,,,,,,,,,,,
2025-06-25T1000,1864A,110.3089,25.2708,桂林市,龙隐路小学,,41,41,28,17,16,55,,18,18,6,8,10,9,0.6,0.6
2025-06-25T1000,1865A,110.2869,25.2178,桂林市,八中,,40,40,31,15,13,55,,20,20,10,12,7,7,0.5,0.5
2025-06-25T1000,3531A,110.296,25.1253,桂林市,旅游学院,,27,27,15,17,10,65,,21,21,5,7,9,3,0.4,0.3
2025-06-25T1000,4222A,110.1835,25.2444,桂林市,环湖路276号,,22,22,26,14,16,53,,18,18,6,13,5,6,0.4,0.5
2025-06-25T1000,4301A,110.2803,25.2773,桂林市,信义路13号,,,,28,12,15,55,,19,19,8,12,,1,0.5,0.6
2025-06-25T1000,2674A,100.2561,34.4714,果洛藏族自治州,玛沁县大武镇,,30,30,16,8,13,65,,52,49,22,4,18,18,0.6,0.4
2025-06-25T1000,1129A,126.5422,45.755,哈尔滨市,岭北,颗粒物(PM10),55,60,27,18,27,140,,102,98,43,35,12,10,1.0,0.9
2025-06-25T1000,1130A,126.561,45.8167,哈尔滨市,松北商大,,40,28,45,18,23,127,,73,73,37,32,6,6,0.8,0.7
2025-06-25T1000,1131A,126.979,45.5419,哈尔滨市,阿城会宁,,48,35,45,23,27,153,,101,101,25,34,8,10,0.6,0.5
2025-06-25T1000,1132A,126.599,45.7222,哈尔滨市,南岗学府路,,41,38,49,23,22,129,,84,84,37,38,8,8,0.6,0.6
2025-06-25T1000,1133A,126.689,45.7733,哈尔滨市,太平宏伟公园,,48,35,47,13,18,153,,78,78,24,34,8,7,0.7,0.7
2025-06-25T1000,1134A,126.635,45.7667,哈尔滨市,道外承德广场,,50,43,58,18,20,158,,96,96,25,41,9,9,0.6,0.6
2025-06-25T1000,1135A,126.685,45.7319,哈尔滨市,香坊红旗大街,,,,55,,26,148,,71,71,24,47,14,11,,0.6
2025-06-25T1000,1136A,126.6411,45.7258,哈尔滨市,动力和平路,,,40,58,,35,145,,69,69,34,49,11,10,0.6,0.6
2025-06-25T1000,1137A,126.593,45.7478,哈尔滨市,道里建国路,,,73,39,21,20,156,,93,93,,36,,12,0.7,1
2025-06-25T1000,1138A,126.615,45.61,哈尔滨市,平房东轻厂,,33,33,53,17,20,104,,40,40,48,56,12,10,0.4,0.4
2025-06-25T1000,1139A,126.595,45.9855,哈尔滨市,呼兰师专,,50,50,45,21,23,148,,112,112,27,27,9,9,0.5,0.5
2025-06-25T1000,1140A,126.6206,45.6842,哈尔滨市,省农科院,颗粒物(PM10),60,70,78,20,33,115,,55,55,43,53,10,7,0.7,0.7
2025-06-25T1000,2688A,93.5128,42.8172,哈密市,地区监测站,细颗粒物(PM2.5),52,,40,36,14,108,,103,103,9,9,3,3,0.1,0.1
2025-06-25T1000,2689A,93.4961,42.8328,哈密市,哈密师范学校,,33,23,31,14,12,104,,100,99,12,10,6,8,0.5,0.4
2025-06-25T1000,2671A,100.9048,36.9639,海北藏族自治州,海晏县西海镇,,33,,11,12,12,104,,76,76,8,5,7,9,0.4,0.4
2025-06-25T1000,3867A,102.0738,36.5056,海东市,平安区公安北苑,,,43,24,33,15,,,67,63,10,6,23,12,1.3,0.6
2025-06-25T1000,1409A,110.576,19.9507,海口市,东寨港,,19,,10,13,8,44,,26,26,3,3,7,7,0.4,0.3
2025-06-25T1000,1410A,110.3232,20.0574,海口市,海南大学,,17,15,12,3,5,52,,43,43,3,3,3,3,0.3,0.3
2025-06-25T1000,1411A,110.283,20.0053,海口市,秀英海南医院,,14,10,14,6,5,44,,34,34,7,7,4,5,0.2,0.2
2025-06-25T1000,1412A,110.338,19.9969,海口市,海南师范大学,,15,9,12,3,6,46,,39,39,5,4,4,4,0.2,0.2
2025-06-25T1000,1413A,110.33,20.0356,海口市,龙华路环保局宿舍,,15,11,13,6,6,48,,,,6,5,5,5,0.3,0.3
2025-06-25T1000,3539A,110.5111,19.9736,海口市,桂林洋子站,,,20,16,13,7,51,,29,29,5,7,5,5,,0.2
2025-06-25T1000,2673A,100.6188,36.2866,海南藏族自治州,共和县恰卜恰镇,,,17,21,14,6,,,127,122,6,8,11,13,,0.6
2025-06-25T1000,2676A,97.3731,37.3753,海西蒙古族藏族自治州,德令哈市,,39,15,30,7,13,123,,142,134,5,2,15,14,0.7,0.6
2025-06-25T1000,1048A,114.5302,36.6116,邯郸市,东污水处理厂,颗粒物(PM10),64,78,46,7,6,109,,101,90,37,20,8,6,0.7,0.6
2025-06-25T1000,1049A,114.4918,36.5713,邯郸市,矿院,,46,46,37,14,12,121,,111,106,40,22,9,8,0.6,0.4
2025-06-25T1000,1050A,114.484,36.6133,邯郸市,丛台公园,,42,42,39,20,17,124,,107,102,32,18,13,10,0.7,0.5
2025-06-25T1000,3458A,114.7895,36.5593,邯郸市,香泉濮院小区,颗粒物(PM10),68,86,57,17,11,135,,100,99,17,14,11,8,0.6,0.3
2025-06-25T1000,3579A,114.50634,36.77178,邯郸市,永年区实验高中,颗粒物(PM10),61,72,56,25,27,147,,115,115,26,19,25,11,1.2,0.7
2025-06-25T1000,3580A,114.20016,36.44293,邯郸市,峰峰矿区临水派出所,,49,34,30,8,8,154,,157,153,16,12,8,7,0.4,0.4
2025-06-25T1000,2634A,106.9893,33.1842,汉中市,汉川机床厂子校,,47,8,20,7,13,149,,97,97,3,9,3,5,0.5,0.7
2025-06-25T1000,2635A,107.0154,33.0706,汉中市,市监测站,,33,,22,9,10,105,,68,68,6,10,6,6,0.5,0.6
2025-06-25T1000,2636A,107.0089,33.1138,汉中市,鑫源开发区,,39,38,30,9,14,122,,,,4,15,5,8,0.4,0.7
2025-06-25T1000,2637A,107.007,33.0323,汉中市,南郑大河坎水厂,颗粒物(PM10),66,82,35,10,15,91,,71,71,6,11,4,4,0.6,0.6
2025-06-25T1000,1223A,120.2072,30.2111,杭州市,滨江,颗粒物(PM10),62,73,44,41,28,70,,41,41,46,31,6,6,0.8,0.7
2025-06-25T1000,1224A,120.0633,30.2747,杭州市,西溪,细颗粒物(PM2.5),65,56,31,47,28,70,,26,26,15,17,3,4,0.6,0.6
2025-06-25T1000,1226A,120.3417,30.3150,杭州市,下沙,细颗粒物(PM2.5),62,61,36,44,28,99,,43,43,35,33,6,4,0.7,0.6
2025-06-25T1000,1227A,120.1269,30.2456,杭州市,卧龙桥,细颗粒物(PM2.5),63,57,42,45,31,66,,26,26,22,16,7,8,0.6,0.6
2025-06-25T1000,1228A,120.1903,30.2692,杭州市,浙江农大,细颗粒物(PM2.5),59,56,44,42,35,72,,37,37,36,29,4,4,0.7,0.7
2025-06-25T1000,1230A,120.1197,30.3119,杭州市,和睦小学,,,55,38,33,24,75,,48,45,,19,,8,0.6,0.6
2025-06-25T1000,1231A,120.3019,30.4183,杭州市,临平镇,颗粒物(PM10),80,110,57,48,26,91,,57,57,32,24,6,5,0.8,0.7
2025-06-25T1000,1232A,120.2753,30.1839,杭州市,城厢镇,细颗粒物(PM2.5),67,57,44,48,39,88,,32,32,30,27,8,7,1.0,1.1
2025-06-25T1000,1233A,120.0883,30.1808,杭州市,云栖,,,55,36,35,21,,,16,16,17,11,7,7,0.7,0.7
2025-06-25T1000,3557A,119.9464,30.0494,杭州市,镇二中,,48,40,33,33,25,61,,32,32,18,20,3,2,0.8,0.8
2025-06-25T1000,3558A,119.7183,30.2367,杭州市,市府大楼,,38,35,34,26,26,80,,46,46,17,15,7,7,0.7,0.7
2025-06-25T1000,3656A,120.1556,30.2864,杭州市,消防大队,,,52,39,42,32,,,38,36,31,25,,5,1.0,0.9
2025-06-25T1000,1270A,117.1959,31.7848,合肥市,明珠广场,,42,34,39,19,25,132,,72,72,13,23,6,5,0.5,0.6
2025-06-25T1000,1271A,117.3072,31.8764,合肥市,三里街,,36,29,33,17,19,113,,74,74,14,18,6,6,0.5,0.6
2025-06-25T1000,1272A,117.2588,31.8707,合肥市,琥珀山庄,,39,31,34,17,21,123,,78,78,14,15,6,6,0.7,0.7
2025-06-25T1000,1273A,117.1604,31.9052,合肥市,董铺水库,,38,31,38,19,21,121,,79,79,9,11,5,5,0.4,0.4
2025-06-25T1000,1274A,117.25,31.8571,合肥市,长江中路,,48,48,44,22,26,122,,80,80,16,17,8,7,0.6,0.7
2025-06-25T1000,1275A,117.266,31.9436,合肥市,庐阳区,,40,29,35,12,19,128,,82,82,12,15,8,8,0.6,0.6
2025-06-25T1000,1276A,117.3453,31.8616,合肥市,瑶海区,,44,44,40,20,22,119,,71,71,16,22,7,7,0.6,0.6
2025-06-25T1000,1277A,117.3027,31.7964,合肥市,包河区,,38,27,38,17,22,120,,53,53,11,38,5,5,0.6,0.7
2025-06-25T1000,1278A,117.2776,31.7385,合肥市,滨湖新区,,41,27,37,24,27,130,,78,78,6,12,9,9,0.6,0.6
2025-06-25T1000,1279A,117.1318,31.8403,合肥市,高新区,,37,34,37,19,22,118,,81,81,18,20,9,7,0.6,0.5
2025-06-25T1000,3464A,117.3803,31.9147,合肥市,高教基地,,,36,32,16,19,,,55,55,14,14,10,7,0.6,0.5
2025-06-25T1000,3614A,79.924,37.0877,和田地区,地区环保局,颗粒物(PM10),145,239,170,61,53,80,,85,83,19,14,6,2,0.5,0.6
2025-06-25T1000,3615A,79.9131,37.113,和田地区,市环保局,颗粒物(PM10),144,237,164,77,59,52,,76,76,40,25,6,2,0.7,0.7
2025-06-25T1000,2516A,108.2011,24.715,河池市,东仁乐园,,,,,,,,,,,,,,,,
2025-06-25T1000,2517A,108.0497,24.6947,河池市,市环保站,,29,29,28,12,15,39,,26,26,7,7,2,3,0.6,0.6
2025-06-25T1000,2518A,108.0983,24.6989,河池市,市疾控中心,,21,21,24,12,13,37,,22,21,10,13,3,3,0.6,0.6
2025-06-25T1000,1696A,114.6778,23.7569,河源市,源西,,45,13,20,11,14,144,,73,73,12,19,4,4,0.6,0.5
2025-06-25T1000,1697A,114.6944,23.7586,河源市,东埔,,25,16,19,10,13,80,,41,41,10,12,4,4,0.4,0.4
2025-06-25T1000,1698A,114.6892,23.7233,河源市,老城,,25,17,22,13,12,80,,41,41,7,11,4,4,0.4,0.4
2025-06-25T1000,1718A,115.4208,35.2464,菏泽市,气象局,颗粒物(PM10),74,98,64,50,32,102,,94,87,35,23,4,5,0.6,0.4
2025-06-25T1000,3374A,115.5564,35.0891,菏泽市,定陶老年大学,颗粒物(PM10),59,68,52,34,27,126,,82,82,19,18,6,4,0.4,0.3
2025-06-25T1000,4184A,115.4797,35.24401,菏泽市,永昌路1号,颗粒物(PM10),62,74,58,33,24,122,,102,99,23,17,6,6,0.3,0.2
2025-06-25T1000,4193A,115.4715,35.2800,菏泽市,长城路999号,颗粒物(PM10),67,83,55,42,26,135,,123,119,25,17,5,5,0.4,0.3
2025-06-25T1000,2514A,111.5264,24.4172,贺州市,环保小区,,33,33,28,16,16,47,,20,20,30,14,14,12,0.6,0.6
2025-06-25T1000,2515A,111.5608,24.4078,贺州市,政协大楼,,29,29,26,20,17,66,,21,21,9,11,15,14,0.7,0.7
2025-06-25T1000,3534A,111.4744,24.4553,贺州市,西湾,,34,34,28,16,15,58,,17,17,10,13,12,11,0.5,0.5
2025-06-25T1000,2385A,114.17,35.9019,鹤壁市,市监测站,,,,41,29,26,153,,145,144,,7,5,7,0.6,0.6
2025-06-25T1000,2386A,114.2956,35.7511,鹤壁市,市交警支队,颗粒物(PM10),60,69,47,32,24,84,,89,81,51,24,13,13,0.9,0.8
2025-06-25T1000,2387A,114.2878,35.7306,鹤壁市,迎宾馆,颗粒物(PM10),76,102,47,33,27,59,,76,60,59,27,8,6,0.8,0.6
2025-06-25T1000,3474A,114.2617,35.6822,鹤壁市,大新区,,,,53,,23,,,150,,,25,,7,,0.6
2025-06-25T1000,3596A,114.1572,35.9603,鹤壁市,南山宾馆,颗粒物(PM10),54,58,46,32,31,152,,163,156,10,5,5,6,0.6,0.5
2025-06-25T1000,2244A,130.2537,47.3416,鹤岗市,哈啤分公司,细颗粒物(PM2.5),52,,25,36,17,118,,66,66,11,10,13,13,0.6,0.5
2025-06-25T1000,2245A,130.2684,47.3086,鹤岗市,斯达机电,,31,31,35,16,18,97,,59,59,9,10,13,13,0.5,0.5
2025-06-25T1000,2246A,130.3114,47.3388,鹤岗市,东山纸板厂,,,,46,,15,,,37,37,,17,6,10,0.7,0.8
2025-06-25T1000,2247A,130.1097,47.3382,鹤岗市,五号水库,,44,36,12,9,7,140,,74,74,20,11,18,14,0.7,0.6
2025-06-25T1000,2263A,127.4833,50.2524,黑河市,交通局,,41,41,31,6,11,73,,55,55,18,12,13,6,1.6,1.4
2025-06-25T1000,2264A,127.5144,50.2341,黑河市,环保局,,,32,41,13,14,82,,64,64,,7,8,6,0.7,0.7
2025-06-25T1000,2265A,127.5291,50.2472,黑河市,大黑河岛,,20,,6,11,11,64,,48,48,19,8,23,23,0.4,0.4
2025-06-25T1000,1074A,115.6838,37.7541,衡水市,电机北厂,臭氧1小时,75,77,60,22,28,180,,139,135,16,13,12,6,0.5,0.4
2025-06-25T1000,1075A,115.6303,37.7316,衡水市,市监测站,,,91,56,11,23,169,,111,109,22,15,,8,,0.4
2025-06-25T1000,3188A,115.6683,37.7217,衡水市,市城管局,颗粒物(PM10),75,99,66,25,29,166,,113,109,25,17,10,5,0.6,0.4
2025-06-25T1000,3459A,115.5989,37.5491,衡水市,地表水厂,颗粒物(PM10),79,108,74,34,26,154,,83,82,35,31,12,8,0.8,0.4
2025-06-25T1000,2456A,112.5003,26.9167,衡阳市,原169医院,,,49,22,18,9,,,32,31,13,11,3,2,0.9,0.7
2025-06-25T1000,2457A,112.6194,26.9258,衡阳市,衡阳化工总厂,颗粒物(PM10),55,59,27,28,14,35,,29,29,7,10,4,4,0.6,0.7
2025-06-25T1000,2458A,112.6211,26.8956,衡阳市,珠晖区环保局,,,52,26,,,41,,28,28,7,14,,6,0.8,0.8
2025-06-25T1000,2459A,112.6197,26.8733,衡阳市,市委党校,,39,39,24,17,11,41,,37,36,7,9,5,5,0.6,0.6
2025-06-25T1000,2460A,112.6006,26.8919,衡阳市,市监测站,,48,48,25,24,14,37,,31,30,8,12,5,6,0.6,0.6
2025-06-25T1000,2461A,112.5664,26.9056,衡阳市,真空机电公司,颗粒物(PM10),51,51,23,23,16,37,,28,28,7,11,6,6,0.7,0.7
2025-06-25T1000,3399A,112.6703,26.882,衡阳市,师范学院,颗粒物(PM10),54,58,24,26,13,41,,34,32,6,8,8,6,0.9,0.8
2025-06-25T1000,2608A,103.3772,23.3993,红河哈尼族彝族自治州,污水处理厂,,23,23,16,11,11,34,,35,34,5,3,6,6,0.4,0.3
2025-06-25T1000,2609A,103.3861,23.35,红河哈尼族彝族自治州,监测站,,,,24,,12,30,,34,33,,3,4,6,,0.2
2025-06-25T1000,3038A,103.3758,23.368,红河哈尼族彝族自治州,州图书馆,,16,14,12,11,9,37,,40,39,5,4,1,1,0.2,0.2
2025-06-25T1000,1090A,111.6507,40.7517,呼和浩特市,呼市一监,,46,46,34,22,22,139,,93,93,18,17,11,9,0.6,0.6
2025-06-25T1000,1091A,111.6572,40.8033,呼和浩特市,小召,,44,36,33,21,20,139,,92,92,19,20,8,6,0.6,0.5
2025-06-25T1000,1094A,111.7516,40.8369,呼和浩特市,如意水处理厂,,45,45,38,22,22,120,,86,86,34,20,8,6,0.6,0.4
2025-06-25T1000,1095A,111.7276,40.8062,呼和浩特市,二十九中,,48,48,39,24,21,128,,86,86,20,19,7,6,0.6,0.5
2025-06-25T1000,1096A,111.5512,40.7866,呼和浩特市,工大金川校区,,,,42,,21,134,,82,82,24,24,11,8,,0.5
2025-06-25T1000,1097A,111.717,40.7612,呼和浩特市,化肥厂生活区,,,50,43,20,20,,,93,90,21,20,,9,0.4,0.4
2025-06-25T1000,3698A,111.5968,40.8178,呼和浩特市,红旗小学,,48,48,38,22,20,138,,108,107,26,21,8,5,0.7,0.4
2025-06-25T1000,3699A,111.6518,40.8389,呼和浩特市,海东办,,47,34,34,22,21,149,,81,81,18,25,8,6,0.5,0.4
2025-06-25T1000,2192A,119.7594,49.2261,呼伦贝尔市,区环保局,,,32,48,15,31,,,35,,13,18,6,5,0.5,0.5
2025-06-25T1000,3061A,119.7512,49.1577,呼伦贝尔市,国华电力东,,36,30,39,10,20,113,,62,62,11,11,5,4,0.5,0.5
2025-06-25T1000,1250A,120.0751,30.8669,湖州市,城西水厂,细颗粒物(PM2.5),88,87,56,65,40,88,,49,49,23,33,6,5,0.7,0.6
2025-06-25T1000,2873A,120.0830,30.8929,湖州市,仁皇山新区,细颗粒物(PM2.5),69,60,44,50,35,93,,43,43,21,21,5,4,0.8,0.7
2025-06-25T1000,2907A,120.1844,30.8596,湖州市,吴兴区站,细颗粒物(PM2.5),53,45,35,37,30,98,,42,42,26,33,7,6,0.6,0.6
2025-06-25T1000,3562A,120.4148,30.8538,湖州市,南浔区站,,46,46,39,31,29,100,,53,53,19,21,6,6,0.6,0.8
2025-06-25T1000,1607A,120.9049,40.7211,葫芦岛市,龙港区,,50,29,42,11,22,158,,66,66,12,24,8,20,0.5,0.6
2025-06-25T1000,1608A,120.8392,40.7514,葫芦岛市,化工街,,46,39,44,19,21,146,,46,46,30,51,9,11,0.5,0.5
2025-06-25T1000,1609A,120.8341,40.7073,葫芦岛市,新区,,,53,39,22,26,,,45,45,34,37,6,5,,0.6
2025-06-25T1000,1610A,120.8695,40.7677,葫芦岛市,东城区,颗粒物(PM10),69,87,53,15,27,152,,46,46,21,47,14,28,0.6,0.7
2025-06-25T1000,2482A,109.5981,27.5721,怀化市,林科所,,24,24,14,3,3,26,,32,28,10,7,4,4,0.3,0.3
2025-06-25T1000,2483A,109.9453,27.5444,怀化市,河西地税局,,26,26,12,14,7,30,,36,33,10,8,5,6,0.4,0.3
2025-06-25T1000,2484A,109.9781,27.5342,怀化市,市四医院,,,31,12,19,10,,,29,28,15,7,1,2,0.5,0.3
2025-06-25T1000,2485A,109.9972,27.5578,怀化市,监测楼,,30,30,14,13,7,29,,27,27,5,5,2,1,0.2,0.2
2025-06-25T1000,2486A,110.0394,27.583,怀化市,市委党校,,42,39,12,29,7,39,,35,35,9,13,9,5,0.3,0.3
2025-06-25T1000,1210A,119.036,33.5981,淮安市,钵池山,,44,44,27,27,20,132,,95,95,18,14,14,10,1.2,0.7
2025-06-25T1000,1211A,119.007,33.575,淮安市,北京南路,,39,39,30,23,25,120,,77,77,13,19,10,9,1.0,0.8
2025-06-25T1000,1212A,118.989,33.6067,淮安市,市监测站,,39,29,34,17,18,124,,90,90,12,12,10,10,0.5,0.5
2025-06-25T1000,1213A,119.135,33.5039,淮安市,楚州区监测站,,42,39,31,27,22,133,,73,73,5,11,9,8,0.4,0.5
2025-06-25T1000,3426A,118.8755,33.2894,淮安市,新华书店,,40,26,23,16,14,128,,84,84,5,8,10,9,0.8,0.5
2025-06-25T1000,4206A,119.0288,33.6319,淮安市,承德北路606号,,40,31,30,21,19,127,,91,91,6,7,6,6,0.5,0.6
2025-06-25T1000,2282A,116.8004,33.975,淮北市,监测站,,48,48,39,26,22,128,,101,101,8,10,6,7,0.9,0.8
2025-06-25T1000,2283A,116.8091,33.9007,淮北市,烈山区政府,颗粒物(PM10),57,63,50,23,20,103,,65,65,19,20,8,8,0.6,0.6
2025-06-25T1000,3330A,116.8873,33.9836,淮北市,杜集区检察院,,,64,48,,22,115,,75,75,19,13,,10,,0.7
2025-06-25T1000,4017A,116.7923,33.9535,淮北市,市博物馆,,44,44,39,27,21,132,,95,95,7,10,8,9,0.8,0.7
2025-06-25T1000,2277A,116.8305,32.7727,淮南市,潘集区政府,,37,37,44,20,24,118,,81,81,8,10,7,4,0.5,0.5
2025-06-25T1000,2279A,116.8569,32.5951,淮南市,谢家集区政府,,45,45,34,24,17,120,,85,85,13,12,8,7,0.3,0.3
2025-06-25T1000,2280A,116.8281,32.633,淮南市,八公山区政府,,40,25,33,16,17,128,,87,87,8,11,5,4,0.4,0.3
2025-06-25T1000,2281A,116.6325,32.6201,淮南市,焦岗湖风景区管理处,,,,,,,,,,,,,,,,
2025-06-25T1000,2894A,117.0566,32.6531,淮南市,经济技术开发区消防队,,40,39,33,25,16,128,,87,87,9,11,7,7,0.4,0.3
2025-06-25T1000,3329A,117.0108,32.5893,淮南市,山南新区,,42,28,29,3,8,132,,96,96,4,6,8,7,0.5,0.4
2025-06-25T1000,4209A,117.0031,32.6445,淮南市,国庆中路369号,,42,33,34,16,19,132,,102,102,8,9,7,7,0.3,0.3
2025-06-25T1000,2446A,114.9028,30.4742,黄冈市,职工中心,,37,35,28,19,15,116,,87,87,3,3,9,9,0.6,0.6
2025-06-25T1000,2929A,114.8858,30.4519,黄冈市,红卫路,,35,32,25,20,15,112,,97,97,2,3,9,7,0.5,0.5
2025-06-25T1000,3398A,114.9136,30.4445,黄冈市,市林业局,,43,31,26,30,19,107,,89,89,2,3,11,8,0.5,0.6
2025-06-25T1000,2672A,102.0199,35.5102,黄南藏族自治州,同仁县隆务镇,,21,9,20,8,6,67,,59,59,1,3,7,7,0.3,0.2
2025-06-25T1000,2295A,118.2903,29.6963,黄山市,延安路89号,,30,26,20,21,11,80,,40,40,5,4,6,6,0.7,0.7
2025-06-25T1000,2297A,118.1371,30.2756,黄山市,黄山区政府5号楼,,20,18,26,14,15,61,,23,23,2,4,4,4,0.5,0.5
2025-06-25T1000,4210A,118.3354,29.7203,黄山市,滨江东路7-2号,,,,22,,8,64,,35,35,,4,4,4,,0.6
2025-06-25T1000,2423A,115.0601,30.2313,黄石市,沈家营,,46,46,36,27,14,115,,108,106,20,11,11,7,1.3,0.8
2025-06-25T1000,2426A,114.8988,30.2019,黄石市,铁山,,42,38,29,23,16,132,,124,123,5,7,4,4,0.9,0.7
2025-06-25T1000,2427A,115.0307,30.2092,黄石市,团城山,,,,36,,9,,,129,129,6,6,6,7,,0.6
2025-06-25T1000,3149A,115.0235,30.1578,黄石市,笔架山北路,,41,40,28,11,10,131,,116,116,8,7,6,6,0.6,0.6
2025-06-25T1000,4185A,115.0780,30.21118,黄石市,磁湖东路29号,,41,40,36,23,16,130,,114,114,7,9,10,8,0.4,0.3
2025-06-25T1000,1392A,114.4183,23.0528,惠州市,河南岸金山湖子站,,24,24,22,14,11,68,,24,24,12,15,6,7,0.4,0.4
2025-06-25T1000,1393A,114.4053,23.0822,惠州市,下埔横江三路子站,,26,26,22,13,10,80,,37,37,10,12,5,4,0.4,0.4
2025-06-25T1000,1394A,114.4103,23.1142,惠州市,江北云山西路子站,,25,24,20,13,9,80,,35,35,9,10,8,7,0.4,0.4
2025-06-25T1000,1395A,114.4645,22.7833,惠州市,惠阳区承修路船湖子站,,17,15,20,7,9,53,,28,28,10,13,7,7,0.5,0.5
2025-06-25T1000,1396A,114.5317,22.7422,惠州市,大亚湾管委会子站,,15,14,16,8,9,48,,38,35,7,11,10,9,0.4,0.3
2025-06-25T1000,3314A,114.4338,22.8134,惠州市,惠阳秋长,,22,12,23,7,10,70,,22,22,10,19,8,9,0.3,0.4
2025-06-25T1000,3452A,114.6517,22.775,惠州市,大亚湾霞涌,,24,24,12,6,3,56,,30,30,6,9,6,6,0.4,0.4
2025-06-25T1000,2240A,130.9762,45.3001,鸡西市,环保局,臭氧1小时,72,39,50,20,26,177,,92,92,15,26,5,5,0.5,0.5
2025-06-25T1000,2243A,130.9429,45.3039,鸡西市,第一中学,,41,31,43,18,19,131,,71,71,12,21,8,8,0.6,0.7
2025-06-25T1000,3707A,131.0207,45.3073,鸡西市,欧美日汽修厂,臭氧1小时,78,44,61,32,25,182,,83,83,16,26,7,7,0.6,0.6
2025-06-25T1000,3709A,130.9967,45.3106,鸡西市,市政设施管理处,,,,55,,24,,,58,58,19,30,170,12,0.6,0.6
2025-06-25T1000,2367A,114.9754,27.0803,吉安市,红声器材厂,,48,43,27,33,13,63,,28,28,8,9,10,9,0.8,0.9
2025-06-25T1000,2368A,114.9658,27.0999,吉安市,市森林工业局,,47,47,26,26,14,65,,33,33,9,8,9,9,0.4,0.5
2025-06-25T1000,2369A,114.99,27.1312,吉安市,市环境监测站,,,,23,,15,,,31,31,7,6,,18,0.5,0.5
2025-06-25T1000,2370A,115.0093,27.0968,吉安市,青原区法院,,39,39,30,26,16,59,,28,28,9,14,10,10,0.3,0.4
2025-06-25T1000,1772A,126.54,43.8622,吉林市,哈达湾,臭氧1小时,119,52,51,40,31,238,,70,70,27,25,12,9,0.5,0.5
2025-06-25T1000,1773A,126.5844,43.8358,吉林市,东局子,臭氧1小时,98,34,48,28,25,198,,80,80,34,24,8,6,1.0,0.9
2025-06-25T1000,1774A,126.5052,43.8245,吉林市,电力学院,臭氧1小时,113,47,54,27,32,226,,56,56,37,37,10,6,0.8,0.7
2025-06-25T1000,1775A,126.6133,43.8972,吉林市,江北,臭氧1小时,84,40,48,20,27,187,,93,93,18,18,9,7,0.6,0.6
2025-06-25T1000,1776A,126.555,43.8306,吉林市,江南公园,臭氧1小时,87,54,44,38,31,189,,71,71,44,25,9,7,0.7,0.6
2025-06-25T1000,1778A,126.7061,43.7133,吉林市,丰满,,,,,,,,,,,,,,,,
2025-06-25T1000,2868A,126.4739,43.953,吉林市,九站,,50,29,65,7,43,158,,66,66,10,47,6,9,0.5,0.6
2025-06-25T1000,1299A,116.9862,36.6114,济南市,科干所,,,46,39,24,23,159,,149,148,16,14,,7,0.6,0.6
2025-06-25T1000,1300A,116.9376,36.665,济南市,农科所,颗粒物(PM10),51,51,56,24,22,135,,108,108,24,23,9,8,0.3,0.4
2025-06-25T1000,1301A,117.1265,36.6734,济南市,开发区,臭氧1小时,63,46,41,27,23,170,,152,152,19,17,8,9,0.5,0.5
2025-06-25T1000,1303A,117.0624,36.6868,济南市,省种子仓库,臭氧1小时,62,51,46,19,22,169,,153,153,16,15,7,7,0.5,0.5
2025-06-25T1000,1304A,116.9489,36.6447,济南市,机床二厂,颗粒物(PM10),56,61,61,20,22,141,,122,122,29,27,8,7,0.6,0.6
2025-06-25T1000,1305A,117.0495,36.663,济南市,市监测站,,50,46,43,22,22,159,,147,147,24,21,10,10,0.5,0.5
2025-06-25T1000,1306A,116.7675,36.5484,济南市,长清党校,,,54,42,37,28,148,,136,136,20,21,9,7,,0.5
2025-06-25T1000,1616A,117.6795,36.229,济南市,技术学院,颗粒物(PM10),57,63,45,34,29,135,,96,96,29,26,16,11,1.5,1
2025-06-25T1000,1961A,117.532,36.6868,济南市,东山小学,,,,47,,22,175,,141,141,,14,,8,0.3,0.3
2025-06-25T1000,3059A,117.7161,36.2049,济南市,泰兴公司,颗粒物(PM10),53,56,49,31,31,133,,39,39,17,48,12,10,0.4,0.5
2025-06-25T1000,3064A,117.6867,36.2171,济南市,莱芜战役纪念馆,,,,57,,31,,,93,90,24,24,,10,1.9,1.2
2025-06-25T1000,3494A,117.1673,36.9782,济南市,济阳区政府,颗粒物(PM10),57,63,56,24,22,161,,120,120,17,23,11,9,0.6,0.5
2025-06-25T1000,3495A,117.1171,36.63,济南市,锦屏中学,臭氧1小时,60,34,40,17,19,168,,155,155,11,14,6,6,0.6,0.6
2025-06-25T1000,3682A,116.9814,36.6819,济南市,济南四建,,49,46,47,24,25,154,,132,132,21,22,7,7,0.4,0.4
2025-06-25T1000,1653A,116.6251,35.4302,济宁市,火炬城,颗粒物(PM10),57,63,44,36,22,113,,81,81,20,13,11,7,0.6,0.5
2025-06-25T1000,1655A,116.5491,35.4042,济宁市,电化厂,,,74,52,44,30,,,69,62,18,16,8,5,0.8,0.7
2025-06-25T1000,3500A,116.5814,35.3707,济宁市,北湖一中,细颗粒物(PM2.5),69,82,52,50,32,108,,81,79,35,19,11,10,0.4,0.3
2025-06-25T1000,3501A,116.8249,35.5593,济宁市,服务中心,颗粒物(PM10),55,60,44,34,20,105,,78,78,32,23,6,4,0.5,0.3
2025-06-25T1000,3678A,116.5907,35.4054,济宁市,市第七中学,颗粒物(PM10),60,69,47,39,21,121,,91,91,14,9,13,11,0.5,0.4
2025-06-25T1000,2255A,130.2751,46.8028,佳木斯市,佳纺,,48,48,50,30,28,111,,66,66,16,21,3,3,0.6,0.5
2025-06-25T1000,2256A,130.3995,46.8307,佳木斯市,发电厂,颗粒物(PM10),52,54,49,30,27,127,,78,78,22,24,6,6,0.6,0.5
2025-06-25T1000,2257A,130.3258,46.7975,佳木斯市,环保局,颗粒物(PM10),60,69,46,39,28,123,,100,100,22,18,5,5,0.6,0.6
2025-06-25T1000,2258A,130.3648,46.8032,佳木斯市,十一中,颗粒物(PM10),55,60,48,31,28,130,,87,87,14,18,6,6,0.5,0.5
2025-06-25T1000,2259A,130.3794,46.7588,佳木斯市,四丰,,,37,35,,,9,,,,18,13,1,1,0.7,0.6
2025-06-25T1000,1252A,120.7436,30.778,嘉兴市,清河小学,颗粒物(PM10),53,56,36,20,14,87,,41,41,22,23,8,8,1.0,1
2025-06-25T1000,1253A,120.726,30.7478,嘉兴市,嘉兴学院,,43,39,27,30,22,75,,40,40,25,25,5,5,0.8,0.8
2025-06-25T1000,2872A,120.7846,30.7525,嘉兴市,南湖区残联,,,37,28,23,19,,,28,25,23,24,6,6,0.9,0.8
2025-06-25T1000,3407A,120.6916,30.7739,嘉兴市,秀洲住建,,35,33,26,24,18,89,,32,32,19,25,6,6,0.9,0.9
2025-06-25T1000,1945A,98.2908,39.7711,嘉峪关市,气象局,颗粒物(PM10),272,400,94,112,30,119,,104,104,4,11,6,9,0.5,0.6
2025-06-25T1000,2884A,98.2672,39.7978,嘉峪关市,酒钢宾馆,颗粒物(PM10),279,405,91,110,28,119,,102,102,2,7,14,16,0.5,0.6
2025-06-25T1000,3248A,98.2643,39.7724,嘉峪关市,雄关区,颗粒物(PM10),186,322,81,85,26,116,,97,97,7,11,8,10,0.3,0.4
2025-06-25T1000,1383A,113.1064,22.6058,江门市,北街,,38,38,19,7,7,65,,28,28,10,13,3,4,0.5,0.4
2025-06-25T1000,1384A,113.0731,22.5835,江门市,西区,,,,24,7,15,,,21,20,11,12,,9,0.5,0.4
2025-06-25T1000,1385A,113.0219,22.5311,江门市,圭峰西,二氧化氮,61,17,22,3,8,55,,26,26,121,55,4,3,0.5,0.4
2025-06-25T1000,1386A,113.0828,22.5947,江门市,东湖,,18,13,16,12,8,57,,26,26,11,11,7,7,0.6,0.5
2025-06-25T1000,3311A,113.1075,22.5647,江门市,江海富民,,19,19,25,3,10,53,,29,29,10,12,10,9,0.5,0.4
2025-06-25T1000,3449A,113.05,22.4667,江门市,新会银湖,,24,24,22,9,7,47,,15,15,8,10,3,3,0.3,0.3
2025-06-25T1000,1830A,113.1992,35.2590,焦作市,影视城,,,,34,,17,,,,,,7,,12,,0.4
2025-06-25T1000,3169A,113.2725,35.2067,焦作市,太极体育中心,,,115,61,53,24,45,,72,60,,29,7,4,0.5,0.3
2025-06-25T1000,3335A,113.3137,35.2641,焦作市,马村街道办,颗粒物(PM10),73,96,55,41,28,76,,104,93,41,20,13,11,0.9,0.5
2025-06-25T1000,3336A,113.2465,35.2373,焦作市,焦作技师学院,颗粒物(PM10),58,66,39,36,16,80,,123,113,30,14,11,4,0.9,0.6
2025-06-25T1000,3477A,113.1656,35.2539,焦作市,中站许衡医院,颗粒物(PM10),52,54,51,32,27,115,,116,114,25,19,10,7,0.6,0.4
2025-06-25T1000,3981A,113.2449,35.1803,焦作市,原李万街道办,颗粒物(PM10),69,88,61,39,19,43,,74,54,56,25,16,10,0.3,0.4
2025-06-25T1000,4264A,113.2340,35.2190,焦作市,新安路1731号,颗粒物(PM10),83,116,50,49,21,75,,118,103,37,11,10,5,0.5,0.3
2025-06-25T1000,1708A,116.3701,23.5345,揭阳市,新兴,,42,42,24,10,12,68,,43,43,9,9,6,5,0.5,0.4
2025-06-25T1000,1709A,116.3264,23.5443,揭阳市,西马,,21,19,25,9,12,66,,38,38,4,9,2,3,0.5,0.5
2025-06-25T1000,1710A,116.3611,23.5626,揭阳市,东兴,,48,48,28,9,11,74,,41,41,8,10,3,3,0.4,0.4
2025-06-25T1000,1711A,116.4151,23.5294,揭阳市,渔湖,,48,48,36,21,17,55,,22,22,22,15,7,8,0.4,0.3
2025-06-25T1000,3320A,116.403,23.5699,揭阳市,曲溪,,32,32,24,16,10,62,,39,39,10,8,8,5,0.5,0.5
2025-06-25T1000,1944A,102.1692,38.5167,金昌市,天庆家园,,37,7,17,6,11,116,,84,84,9,10,9,11,0.5,0.6
2025-06-25T1000,4022A,102.1647,38.5371,金昌市,金川区人防中心,,37,27,21,7,12,116,,71,71,10,10,14,13,0.4,0.6
2025-06-25T1000,4239A,102.1930,38.5319,金昌市,长春路96号,,37,9,24,3,9,116,,76,76,5,8,8,8,0.9,0.7
2025-06-25T1000,1262A,119.647,29.077,金华市,十五中,,,29,28,26,14,100,,66,66,9,11,,2,,0.7
2025-06-25T1000,1263A,119.686,29.1029,金华市,监测站,,37,37,32,22,19,93,,59,59,16,17,2,2,0.8,0.7
2025-06-25T1000,3659A,119.656,29.1131,金华市,气象局,,31,31,28,14,15,63,,34,34,14,22,2,2,0.3,0.3
2025-06-25T1000,1767A,121.1115,41.0879,锦州市,南山,,,,41,,29,91,,22,22,45,41,12,11,,0.7
2025-06-25T1000,1768A,121.0604,40.8428,锦州市,开发区,颗粒物(PM10),59,68,67,23,35,112,,33,33,53,53,25,40,0.8,0.8
2025-06-25T1000,1769A,121.1836,41.1119,锦州市,百股街道,颗粒物(PM10),58,65,38,31,19,78,,36,36,45,35,45,18,0.8,0.7
2025-06-25T1000,1770A,121.1178,41.1222,锦州市,天安街道,,49,44,50,34,32,121,,42,42,31,45,9,13,1.0,1
2025-06-25T1000,1771A,121.1303,41.1386,锦州市,北湖公园,颗粒物(PM10),57,63,43,26,28,115,,50,50,29,34,10,12,0.8,0.7
2025-06-25T1000,2160A,112.85,35.5051,晋城市,自来水公司,,40,40,49,24,18,109,,84,81,20,16,4,2,0.2,0
2025-06-25T1000,2161A,112.8318,35.4936,晋城市,白云商贸,颗粒物(PM10),67,84,61,19,12,84,,81,79,31,18,3,2,0.9,0.5
2025-06-25T1000,2162A,112.8508,35.4887,晋城市,市环保局,颗粒物(PM10),53,55,50,24,17,90,,80,75,30,19,10,8,0.2,0
2025-06-25T1000,2163A,112.8676,35.4897,晋城市,技术学院,颗粒物(PM10),61,71,41,22,14,55,,86,74,51,19,9,7,0.6,0.4
2025-06-25T1000,2165A,112.8453,35.546,晋城市,白马寺,,,78,38,32,21,91,,149,132,29,10,,,0.9,0.5
2025-06-25T1000,3620A,112.8271,35.4828,晋城市,泽州一中,颗粒物(PM10),65,79,46,22,15,88,,94,85,40,27,4,4,0.9,0.4
2025-06-25T1000,2173A,112.7249,37.7067,晋中市,南都小区,,45,44,38,24,22,142,,133,130,12,8,10,3,0.6,0.4
2025-06-25T1000,2174A,112.6991,37.6982,晋中市,榆次区政府,颗粒物(PM10),53,56,44,24,19,134,,129,122,14,10,11,6,1.0,0.6
2025-06-25T1000,2865A,112.7195,37.6828,晋中市,榆次三中,,,,44,,16,144,,120,119,,13,,7,0.5,0.4
2025-06-25T1000,4200A,112.7478,37.6954,晋中市,迎宾街26号,颗粒物(PM10),53,56,41,22,18,151,,133,130,14,11,14,8,0.8,0.5
2025-06-25T1000,2439A,112.2014,31.0481,荆门市,竹园小学,颗粒物(PM10),55,60,32,31,17,56,,44,44,21,14,8,6,0.5,0.2
2025-06-25T1000,2440A,112.1969,30.9891,荆门市,掇刀,,50,50,27,27,20,58,,64,62,17,10,12,11,0.8,0.6
2025-06-25T1000,2441A,112.2213,31.0386,荆门市,石化一小,颗粒物(PM10),56,62,35,33,23,60,,41,41,19,15,5,12,0.7,0.4
2025-06-25T1000,3012A,112.1849,31.0362,荆门市,西山林语,,40,40,27,23,16,65,,57,57,13,6,11,11,0.6,0.4
2025-06-25T1000,3547A,112.1632,31.0138,荆门市,龙泉中学南校,,29,28,21,20,15,64,,55,54,18,8,7,6,0.8,0.5
2025-06-25T1000,1844A,112.2494,30.3197,荆州市,市图书馆,,30,25,22,21,14,83,,84,82,16,10,5,4,0.6,0.5
2025-06-25T1000,1845A,112.2008,30.3544,荆州市,市委党校,,45,,24,31,18,82,,83,81,20,14,8,7,0.6,0.5
2025-06-25T1000,3194A,112.2747,30.3122,荆州市,管委会,,33,,24,23,18,77,,73,73,16,12,8,7,0.8,0.7
2025-06-25T1000,4268A,112.1722,30.3366,荆州市,学苑路85号,,29,29,20,20,19,79,,75,75,17,11,3,4,0.4,0.3
2025-06-25T1000,2342A,117.3102,29.3867,景德镇市,王港中学,,,,,,,,,,,,,,,,
2025-06-25T1000,2343A,117.2117,29.2933,景德镇市,老干部活动中心,,28,28,31,3,13,59,,22,22,12,19,7,11,0.9,1
2025-06-25T1000,2344A,117.1894,29.2789,景德镇市,兽医站,,,23,32,21,16,59,,21,21,10,13,,9,0.5,0.6
2025-06-25T1000,2345A,117.1547,29.2617,景德镇市,台达陶瓷,,42,42,43,16,25,62,,23,23,17,23,33,58,1.2,0.9
2025-06-25T1000,2346A,117.2461,29.2956,景德镇市,陶研所,,20,19,27,8,14,61,,22,22,3,7,5,4,0.7,0.8
2025-06-25T1000,1803A,115.9872,29.6815,九江市,十里,,43,40,30,30,27,77,,92,84,21,15,11,5,1.1,0.9
2025-06-25T1000,1804A,115.9584,29.7046,九江市,茅山头,颗粒物(PM10),51,52,34,34,26,79,,108,93,27,16,7,5,1.0,0.7
2025-06-25T1000,1805A,115.9877,29.7295,九江市,西园,,43,43,35,27,33,78,,105,95,28,22,8,6,0.9,0.8
2025-06-25T1000,1808A,115.9114,29.6038,九江市,综合工业园,细颗粒物(PM2.5),57,62,36,40,22,80,,80,80,25,22,9,5,1.0,0.9
2025-06-25T1000,1809A,116.0721,29.7535,九江市,石化总厂,,,,39,,33,66,,88,81,21,18,11,6,1.6,1
2025-06-25T1000,1810A,115.9773,29.5698,九江市,庐山气象台,,15,6,6,3,4,47,,70,59,2,3,6,6,1.0,0.8
2025-06-25T1000,3190A,116.0254,29.6994,九江市,外国语学校,,40,40,28,27,25,69,,94,80,20,14,12,7,1.1,0.8
2025-06-25T1000,4253A,116.0102,29.6594,九江市,莲花大道8号,,,,28,,20,61,,84,78,18,6,,4,,0.8
2025-06-25T1000,4240A,98.4958,39.7339,酒泉市,玉门东路5号,颗粒物(PM10),367,473,85,113,35,104,,96,95,10,7,10,12,0.3,0.3
2025-06-25T1000,4241A,98.5099,39.7506,酒泉市,北大街108号,颗粒物(PM10),392,493,86,110,30,105,,92,91,9,7,12,20,0.2,0.3
2025-06-25T1000,2698A,76.0072,39.4467,喀什地区,巡警大队,颗粒物(PM10),142,234,196,64,45,79,,71,71,22,28,4,4,0.4,0.4
2025-06-25T1000,2699A,75.9755,39.4694,喀什地区,吾办,颗粒物(PM10),136,221,207,83,71,72,,58,58,24,28,8,6,0.5,0.5
2025-06-25T1000,4027A,75.9483,39.4689,喀什地区,老干局,颗粒物(PM10),162,273,220,70,52,54,,55,55,23,20,4,4,0.3,0.4
2025-06-25T1000,1824A,114.3389,34.7781,开封市,肿瘤医院,颗粒物(PM10),71,92,64,49,31,60,,74,58,46,28,10,4,0.5,0.4
2025-06-25T1000,1826A,114.2885,34.7965,开封市,世纪星幼儿园,,,117,63,73,36,,,76,62,50,28,13,5,0.9,0.8
2025-06-25T1000,3147A,114.3438,34.8106,开封市,龙亭公园,"颗粒物(PM10),细颗粒物(PM2.5)",72,93,52,52,30,76,,102,86,39,20,7,4,0.5,0.3
2025-06-25T1000,3210A,114.3644,34.7964,开封市,汴京公园,颗粒物(PM10),82,114,66,58,39,69,,100,83,44,24,9,6,0.5,0.4
2025-06-25T1000,3473A,114.2485,34.8306,开封市,技师学院,颗粒物(PM10),86,122,53,57,32,72,,103,73,45,24,9,5,0.8,0.6
2025-06-25T1000,3592A,114.4644,34.7556,开封市,祥符区生态环境局,颗粒物(PM10),59,67,63,40,31,69,,59,54,31,35,9,6,0.7,0.6
2025-06-25T1000,1951A,84.895,45.6094,克拉玛依市,长征新村,,25,24,31,8,5,79,,69,69,10,8,4,4,0.2,0.2
2025-06-25T1000,1952A,84.8988,45.5893,克拉玛依市,南林小区,,24,24,29,3,9,73,,70,70,13,10,3,3,0.1,0.1
2025-06-25T1000,1954A,84.905,44.3396,克拉玛依市,独山子区,,26,26,22,15,7,75,,94,78,13,7,7,8,0.3,0.3
2025-06-25T1000,1955A,85.6979,46.098,克拉玛依市,乌尔禾区商贸楼,,24,24,28,9,7,74,,70,64,10,5,4,4,0.4,0.3
2025-06-25T1000,3612A,85.1045,45.6899,克拉玛依市,白碱滩区新站,,30,22,36,17,23,94,,94,94,3,5,4,4,0.5,0.5
2025-06-25T1000,2697A,76.1454,39.7142,克孜勒苏柯尔克孜自治州,市人民政府,颗粒物(PM10),124,198,158,66,53,73,,93,89,14,12,36,9,0.0,0.2
2025-06-25T1000,3665A,76.1658,39.7157,克孜勒苏柯尔克孜自治州,克州文化中心,颗粒物(PM10),161,272,157,81,53,75,,95,92,21,13,38,7,0.5,0.4
2025-06-25T1000,1450A,102.8204,24.8886,昆明市,呈贡新区,,10,7,5,6,4,32,,22,22,7,10,8,7,0.1,0.1
2025-06-25T1000,1451A,102.6251,24.9608,昆明市,西山森林公园,,,,,,,,,,,,,,,,
2025-06-25T1000,1452A,102.7252,25.0902,昆明市,龙泉镇,,16,16,13,3,5,26,,24,24,10,9,2,1,0.3,0.3
2025-06-25T1000,1453A,102.7266,25.0375,昆明市,东风东路,,15,15,11,9,6,30,,24,24,10,10,5,5,0.3,0.3
2025-06-25T1000,1454A,102.6742,25.0669,昆明市,金鼎山,,19,19,15,3,2,26,,24,24,6,10,2,2,0.3,0.3
2025-06-25T1000,1455A,102.6644,25.0401,昆明市,碧鸡广场,,21,21,12,8,5,24,,21,21,10,12,6,6,0.4,0.4
2025-06-25T1000,3179A,102.7494,25.0119,昆明市,官渡区博物馆,,26,26,14,6,4,32,,26,26,6,7,6,6,0.3,0.3
2025-06-25T1000,3375A,102.8017,24.8336,昆明市,青年创业园,,,10,8,3,3,,,24,24,6,9,8,8,0.3,0.3
2025-06-25T1000,3550A,102.7997,24.9786,昆明市,昆明学院,,11,11,13,6,6,34,,27,27,6,9,5,5,0.2,0.2
2025-06-25T1000,3551A,102.5967,24.6736,昆明市,晋宁区生态环境分局,,11,11,13,7,5,34,,26,26,1,2,2,2,0.3,0.3
2025-06-25T1000,3552A,102.6678,24.9856,昆明市,云天化总部,,16,15,8,11,5,26,,24,23,8,7,4,4,0.4,0.5
2025-06-25T1000,1456A,91.1319,29.6514,拉萨市,八廓街,,39,30,16,27,11,87,,74,73,13,15,23,8,0.3,0.3
2025-06-25T1000,1457A,91.1221,29.6747,拉萨市,市环保局,颗粒物(PM10),51,51,23,35,12,84,,68,68,17,14,9,6,0.3,0.3
2025-06-25T1000,1458A,91.0874,29.6475,拉萨市,区监测站,,30,29,16,21,9,84,,60,58,20,22,18,7,0.3,0.2
2025-06-25T1000,1459A,91.1774,29.6541,拉萨市,西藏大学,,29,17,12,11,7,92,,80,79,10,13,22,6,0.3,0.3
2025-06-25T1000,1460A,90.9798,29.6588,拉萨市,区辐射站,,32,32,24,18,11,70,,57,56,41,22,11,7,0.8,0.3
2025-06-25T1000,1461A,91.0834,29.6292,拉萨市,拉萨火车站,,24,24,12,14,8,76,,68,62,21,15,8,4,0.3,0.2
2025-06-25T1000,2520A,109.2203,23.7256,来宾市,来宾技工学校,,23,23,26,13,14,51,,38,38,5,9,8,7,0.4,0.4
2025-06-25T1000,3535A,109.1781,23.7297,来宾市,兴宾区政府,,29,29,26,14,16,54,,36,36,5,12,6,6,0.4,0.5
2025-06-25T1000,4002A,109.2416,23.7461,来宾市,中南小学,,24,24,28,13,11,54,,42,42,5,8,9,8,0.3,0.3
2025-06-25T1000,1477A,104.1373,35.9454,兰州市,榆中兰大校区,,,,,,,,,,,,,,,,
2025-06-25T1000,1479A,103.831,36.0464,兰州市,铁路设计院,,37,37,36,19,23,53,,41,38,36,34,16,12,0.7,0.6
2025-06-25T1000,3241A,103.7439,36.0842,兰州市,百合公园,,27,27,25,15,18,56,,30,29,28,18,5,4,0.6,0.5
2025-06-25T1000,3242A,103.9611,35.998,兰州市,和平,,26,19,19,18,20,67,,46,46,17,16,10,9,0.8,0.9
2025-06-25T1000,4236A,103.6293,36.0938,兰州市,庄浪东路808号,,,,31,,23,65,,34,34,,30,9,9,0.5,0.4
2025-06-25T1000,4237A,103.7251,36.1043,兰州市,安宁西路88号,,31,31,28,13,21,77,,54,52,16,14,6,5,0.4,0.4
2025-06-25T1000,4238A,103.8470,36.0676,兰州市,北滨河东路1号,,36,26,22,25,20,67,,31,30,23,29,19,11,0.8,0.7
2025-06-25T1000,3245A,103.6633,36.533,兰州新区,新区管委会,,,,27,,24,,,60,57,,9,19,10,0.5,0.5
2025-06-25T1000,3246A,103.6975,36.4789,兰州新区,舟曲中学,,46,34,20,32,15,93,,74,74,10,10,17,13,0.6,0.6
2025-06-25T1000,1067A,116.6708,39.5111,廊坊市,药材公司,颗粒物(PM10),66,82,91,41,52,137,,120,110,22,21,12,7,1.0,0.8
2025-06-25T1000,1068A,116.7214,39.5589,廊坊市,开发区,,,,91,,53,133,,117,110,,21,12,6,1.1,0.8
2025-06-25T1000,1070A,116.7244,39.5269,廊坊市,北华航天学院,颗粒物(PM10),73,96,101,51,61,125,,106,99,14,15,10,6,1.0,0.8
2025-06-25T1000,2919A,116.7022,39.5453,廊坊市,河北工业大学,颗粒物(PM10),71,92,100,34,50,136,,120,111,19,19,13,8,1.1,0.8
2025-06-25T1000,2535A,103.7723,29.5462,乐山市,花湖湾,,23,17,10,16,9,53,,57,51,14,10,2,2,0.8,0.6
2025-06-25T1000,2536A,103.7627,29.5844,乐山市,牛耳桥,,,18,9,17,7,,,61,54,17,12,7,7,0.8,0.7
2025-06-25T1000,2537A,103.7508,29.6006,乐山市,市第三水厂,,,,8,,6,,,77,,,15,,4,,0.5
2025-06-25T1000,2538A,103.7571,29.5664,乐山市,市监测站,,20,19,11,14,10,57,,63,57,8,5,6,6,0.8,0.6
2025-06-25T1000,3361A,103.7311,29.5628,乐山市,理工大学,,20,18,10,14,8,54,,58,53,17,9,7,6,0.8,0.6
2025-06-25T1000,2598A,100.2143,26.8576,丽江市,西南郊,,10,6,12,3,7,32,,22,22,8,9,6,20,0.7,1
2025-06-25T1000,2599A,100.2497,26.8802,丽江市,丽江古城,,,19,18,3,7,20,,17,17,,11,,10,0.4,0.4
2025-06-25T1000,2600A,100.2203,26.8906,丽江市,市中心,,12,8,14,3,7,36,,19,19,11,10,7,7,0.3,0.5
2025-06-25T1000,1267A,119.914,28.4514,丽水市,监测站大楼,,23,23,20,12,8,60,,27,27,14,14,4,3,0.5,0.4
2025-06-25T1000,1268A,119.93,28.4586,丽水市,莲都小学,,29,29,20,16,9,59,,28,28,12,12,4,3,0.4,0.4
2025-06-25T1000,1269A,119.879,28.4231,丽水市,余庄前,,,33,22,20,10,56,,15,15,12,8,,3,,0.4
2025-06-25T1000,1173A,119.176,34.5885,连云港市,市环境监测站,,,46,38,34,25,116,,88,88,,19,12,8,0.6,0.6
2025-06-25T1000,3000A,119.3581,34.6972,连云港市,德源药业,颗粒物(PM10),54,58,47,29,16,116,,83,83,15,23,10,13,1.0,0.9
2025-06-25T1000,3007A,119.178,34.844,连云港市,新城一中,颗粒物(PM10),51,52,34,30,24,130,,76,76,19,28,11,9,0.8,0.7
2025-06-25T1000,3008A,119.3608,34.7519,连云港市,胡沟管理处,,39,36,26,22,16,124,,80,80,21,26,12,8,0.9,0.6
2025-06-25T1000,3009A,119.1478,34.5911,连云港市,矿山设计院,颗粒物(PM10),54,58,42,29,22,113,,82,82,13,12,10,8,0.7,0.6
2025-06-25T1000,3434A,119.2413,34.6539,连云港市,工贸学校,颗粒物(PM10),81,112,60,58,30,120,,93,93,16,10,13,9,0.8,0.6
2025-06-25T1000,3664A,119.4172,34.7341,连云港市,连云街道,颗粒物(PM10),52,53,31,29,14,140,,131,131,12,12,11,8,0.6,0.5
2025-06-25T1000,2571A,102.3431,27.8099,凉山彝族自治州,青龙寺,,22,10,12,6,4,68,,66,66,3,4,4,4,0.5,0.6
2025-06-25T1000,2572A,102.2721,27.8415,凉山彝族自治州,邛海宾馆,,22,6,18,3,8,69,,78,74,7,9,7,9,0.4,0.4
2025-06-25T1000,2573A,102.2625,27.898,凉山彝族自治州,西昌市政府,,22,6,13,3,6,68,,74,70,8,8,9,12,0.4,0.5
2025-06-25T1000,2574A,102.2685,27.8851,凉山彝族自治州,凉山州政府,,,,13,,7,,,71,67,12,10,8,10,0.6,0.6
2025-06-25T1000,4229A,102.2342,27.8859,凉山彝族自治州,凯乐南路30号,,20,6,13,3,7,62,,68,64,14,11,8,12,0.4,0.6
2025-06-25T1000,2212A,123.2,41.1953,辽阳市,宏伟区,,,61,52,19,23,,,78,73,,17,29,9,1.2,1
2025-06-25T1000,2213A,123.1683,41.2495,辽阳市,新华园,臭氧1小时,60,50,66,21,32,168,,68,68,15,28,20,15,0.9,0.9
2025-06-25T1000,2214A,123.2354,41.2639,辽阳市,滨河路,,47,35,52,18,22,148,,69,69,18,29,15,12,0.8,0.9
2025-06-25T1000,2215A,123.149,41.2991,辽阳市,铁西工业园,,45,45,74,20,35,120,,42,42,23,36,11,9,0.9,1.1
2025-06-25T1000,2227A,125.1358,42.8845,辽源市,环保局,臭氧1小时,73,44,40,24,19,178,,46,46,22,55,5,4,0.5,0.5
2025-06-25T1000,3239A,125.0764,42.9078,辽源市,银鹰制药,,,42,41,26,24,187,,47,47,17,48,,6,0.2,0.4
2025-06-25T1000,1625A,115.9848,36.4372,聊城市,区政府,颗粒物(PM10),68,85,49,39,24,122,,107,104,28,19,11,9,0.7,0.5
2025-06-25T1000,2878A,116.0072,36.4343,聊城市,聊大东校,颗粒物(PM10),63,75,54,41,30,124,,102,100,25,18,9,8,0.6,0.5
2025-06-25T1000,3200A,115.9819,36.4978,聊城市,监控中心,,,69,46,31,24,,,120,118,27,17,11,9,0.6,0.6
2025-06-25T1000,3513A,116.0445,36.4361,聊城市,九州社区,颗粒物(PM10),66,82,56,41,27,123,,105,105,25,16,8,6,0.6,0.4
2025-06-25T1000,4018A,116.0567,36.4608,聊城市,星美广场,颗粒物(PM10),68,85,56,35,24,125,,111,105,27,17,12,11,0.7,0.6
2025-06-25T1000,2632A,94.3681,29.6376,林芝市,林芝监测站,,14,14,7,6,5,37,,36,35,8,6,4,4,0.2,0.2
2025-06-25T1000,2633A,94.3616,29.6616,林芝市,林芝人民医院,,15,15,9,6,5,39,,36,36,9,4,5,5,0.4,0.4
2025-06-25T1000,2603A,100.0781,23.8982,临沧市,市环保局,,21,21,20,3,14,12,,4,4,9,8,5,6,0.7,0.6
2025-06-25T1000,2604A,100.0894,23.8822,临沧市,市气象局,,22,20,17,15,12,11,,7,7,9,9,7,7,0.5,0.4
2025-06-25T1000,1733A,111.5531,36.0783,临汾市,临钢医院,颗粒物(PM10),68,85,39,25,12,57,,95,84,46,17,9,8,0.8,0.6
2025-06-25T1000,1734A,111.5028,36.0714,临汾市,技工学校,,,,43,,24,66,,91,82,,15,,9,0.6,0.5
2025-06-25T1000,1736A,111.5018,36.0855,临汾市,市委,颗粒物(PM10),73,95,53,26,14,65,,97,92,49,20,9,9,0.8,0.5
2025-06-25T1000,3018A,111.505,36.1014,临汾市,唐尧大酒店,颗粒物(PM10),67,84,53,24,18,75,,87,82,33,20,7,8,0.6,0.3
2025-06-25T1000,4244A,111.4879,36.0530,临汾市,启星学校,颗粒物(PM10),57,63,50,25,26,72,,65,62,38,20,7,7,0.7,0.6
2025-06-25T1000,4271A,103.2464,35.6123,临夏回族自治州,滨河东路1号,,45,45,21,15,16,62,,18,18,5,7,9,8,0.3,0.3
2025-06-25T1000,4310A,103.2093,35.5995,临夏回族自治州,新华街21号,,42,42,23,23,17,69,,24,24,12,11,6,5,0.4,0.4
2025-06-25T1000,1618A,118.3429,35.0532,临沂市,沂河小区,颗粒物(PM10),60,70,56,33,32,144,,88,88,20,26,9,11,0.4,0.4
2025-06-25T1000,1619A,118.295,35.0583,临沂市,鲁南制药厂,颗粒物(PM10),54,58,62,31,30,147,,75,75,20,31,8,12,0.6,0.6
2025-06-25T1000,1620A,118.2794,34.9976,临沂市,新光毛纺厂,细颗粒物(PM2.5),63,66,56,45,31,148,,73,73,20,29,10,16,0.6,0.5
2025-06-25T1000,1621A,118.3956,35.0888,临沂市,河东保险公司,颗粒物(PM10),56,61,37,25,17,141,,96,96,25,21,9,9,0.7,0.5
2025-06-25T1000,3370A,118.3564,35.0215,临沂市,十里堡居委,颗粒物(PM10),53,56,54,31,29,160,,88,88,21,28,10,14,0.6,0.5
2025-06-25T1000,3496A,118.3604,35.1084,临沂市,南坊新区,,,80,51,34,21,,,89,87,33,26,10,10,0.8,0.7
2025-06-25T1000,3860A,118.3920,35.0300,临沂市,皇山花园小区,颗粒物(PM10),59,68,53,36,33,140,,82,82,25,29,12,15,0.5,0.5
2025-06-25T1000,1870A,109.4856,24.3895,柳州市,柳东小学,,23,23,21,14,14,52,,40,40,7,7,4,5,0.4,0.4
2025-06-25T1000,1871A,109.4157,24.3277,柳州市,环保监测站,,25,24,27,17,22,48,,37,36,8,10,8,8,0.8,0.8
2025-06-25T1000,1872A,109.389,24.341,柳州市,河西水厂,,22,22,26,14,13,51,,36,36,8,11,5,5,0.4,0.4
2025-06-25T1000,1873A,109.4311,24.2921,柳州市,市四中,,22,22,29,14,16,49,,32,32,11,15,7,7,0.3,0.4
2025-06-25T1000,1874A,109.4006,24.3631,柳州市,市九中,,17,12,27,10,15,54,,40,40,7,10,10,10,0.5,0.5
2025-06-25T1000,1875A,109.4958,24.3134,柳州市,古亭山,,30,30,26,9,12,50,,43,39,6,8,6,5,0.5,0.5
2025-06-25T1000,3402A,109.5422,24.3996,柳州市,市二中,,33,30,25,23,34,56,,37,37,8,12,4,6,0.3,0.4
2025-06-25T1000,2307A,116.5079,31.737,六安市,监测大楼,,37,37,30,21,24,115,,82,82,6,4,5,5,0.2,0.3
2025-06-25T1000,2308A,116.4738,31.7643,六安市,皖西学院,,43,43,35,18,22,137,,91,91,4,7,5,5,0.4,0.4
2025-06-25T1000,2309A,116.4996,31.7905,六安市,朝阳厂,,37,37,36,21,24,118,,82,82,10,12,6,6,0.4,0.4
2025-06-25T1000,2310A,116.5567,31.7886,六安市,开发区,,37,33,40,25,25,117,,64,64,3,6,4,3,0.4,0.4
2025-06-25T1000,2576A,104.8,26.5892,六盘水市,窑上,,,,29,,1,,,,,,8,,4,,0.3
2025-06-25T1000,2577A,104.83,26.5917,六盘水市,黄土坡,,,18,15,11,6,,,9,7,16,10,,9,0.8,0.5
2025-06-25T1000,2578A,104.89,26.5939,六盘水市,水钢,,38,38,28,26,15,20,,26,22,8,5,9,9,0.3,0.3
2025-06-25T1000,2579A,104.8475,26.5894,六盘水市,民中,,16,16,14,3,5,16,,19,17,11,8,10,8,0.4,0.4
2025-06-25T1000,2580A,104.9544,26.5506,六盘水市,双水,,12,12,10,3,7,18,,26,23,9,6,10,9,0.3,0.3
2025-06-25T1000,2335A,117.0189,25.1181,龙岩市,龙岩师专,,,,,,,,,,,,,,,,
2025-06-25T1000,2336A,117.0217,25.1033,龙岩市,龙岩市监测站,,36,36,21,20,13,89,,36,36,11,10,6,6,0.5,0.5
2025-06-25T1000,2337A,117.0258,25.0661,龙岩市,闽西职业技术学院,,,30,25,15,12,,,19,19,11,12,10,21,0.6,0.5
2025-06-25T1000,2338A,117.0196,25.0306,龙岩市,龙岩学院,,37,37,24,15,12,81,,37,37,4,6,8,5,0.6,0.5
2025-06-25T1000,2665A,105.0822,33.3261,陇南市,汉王镇固水子,,,,,,,,,,,,,,,,
2025-06-25T1000,2885A,104.9339,33.3826,陇南市,滨江中学,,35,32,27,24,16,67,,57,56,9,8,6,5,0.7,0.6
2025-06-25T1000,3247A,104.955,33.371,陇南市,市总工会,,42,42,34,14,6,70,,52,51,9,7,7,6,0.7,0.6
2025-06-25T1000,2487A,111.9589,27.8901,娄底市,电视发射台,,32,32,13,17,2,45,,20,20,10,5,8,11,0.4,0.3
2025-06-25T1000,2488A,111.9975,27.725,娄底市,市监测站,,29,29,18,20,12,36,,34,34,9,18,17,9,0.7,0.6
2025-06-25T1000,2489A,112.0194,27.7314,娄底市,市委党校,,,,16,18,9,30,,28,26,,10,11,4,,0.6
2025-06-25T1000,2490A,111.9561,27.7569,娄底市,涟钢,,27,27,20,6,9,23,,17,16,18,12,7,2,0.6,0.5
2025-06-25T1000,2491A,111.9892,27.7044,娄底市,市政府,,,26,19,,11,46,,35,35,7,7,7,5,0.6,0.6
2025-06-25T1000,1893A,105.4324,28.9634,泸州市,九狮山,,28,,27,19,27,41,,59,58,8,19,6,5,0.7,0.6
2025-06-25T1000,1894A,105.4427,28.9063,泸州市,小市上码头,,18,9,20,3,10,55,,59,59,11,11,12,12,0.6,0.6
2025-06-25T1000,1895A,105.4241,28.8573,泸州市,兰田宪桥,,,13,22,6,11,,,63,63,,8,8,8,0.6,0.7
2025-06-25T1000,1896A,105.4379,28.8833,泸州市,市环监站,,18,11,22,6,14,57,,64,64,12,11,8,8,0.3,0.4
2025-06-25T1000,4272A,105.3689,28.7783,泸州市,纳溪中医医院,,19,,20,13,14,59,,60,60,14,14,5,4,0.7,0.7
2025-06-25T1000,2183A,111.1406,37.5211,吕梁市,环保局,颗粒物(PM10),68,86,72,34,31,77,,96,90,40,23,12,6,0.6,0.5
2025-06-25T1000,2185A,111.1297,37.5136,吕梁市,自来水公司,,,112,72,24,27,74,,62,60,,21,15,8,,0.5
2025-06-25T1000,2867A,111.1283,37.51,吕梁市,马茂庄小学,颗粒物(PM10),77,103,73,24,30,85,,81,75,36,30,9,5,0.6,0.6
2025-06-25T1000,1812A,112.3931,34.6516,洛阳市,市委党校,细颗粒物(PM2.5),54,56,44,38,30,91,,128,110,18,13,11,9,0.7,0.5
2025-06-25T1000,1815A,112.494,34.6886,洛阳市,河南林校,细颗粒物(PM2.5),58,61,48,41,29,100,,103,96,27,17,12,7,0.7,0.5
2025-06-25T1000,1816A,112.3844,34.623,洛阳市,开发区管委会,细颗粒物(PM2.5),55,50,42,39,29,83,,110,99,17,14,11,12,0.6,0.5
2025-06-25T1000,1817A,112.4267,34.6258,洛阳市,市委新办公区,颗粒物(PM10),54,57,50,34,27,88,,124,107,16,11,10,10,0.6,0.4
2025-06-25T1000,3340A,112.6005,34.6326,洛阳市,伊滨,颗粒物(PM10),58,66,58,36,30,85,,76,67,22,17,6,7,0.6,0.5
2025-06-25T1000,3341A,112.4951,34.6332,洛阳市,中移产业园,,,59,50,38,27,92,,91,83,,17,8,8,,0.6
2025-06-25T1000,3593A,112.5736,34.8993,洛阳市,吉利监测站,细颗粒物(PM2.5),58,62,48,41,25,83,,66,66,27,20,10,7,0.5,0.4
2025-06-25T1000,3635A,112.3677,34.662,洛阳市,河科大西苑校区,,,53,45,26,22,96,,125,103,,13,14,11,0.8,0.4
2025-06-25T1000,3636A,112.4388,34.6781,洛阳市,英才小学,,,100,48,46,28,76,,118,97,,13,12,9,,0.7
2025-06-25T1000,4214A,112.4600,34.6949,洛阳市,春都路1号院,颗粒物(PM10),58,65,46,34,25,87,,103,95,25,14,10,5,0.8,0.6
2025-06-25T1000,2399A,114.051,33.5699,漯河市,三五一五工厂,,,60,37,33,26,126,,85,85,,22,,6,0.6,0.6
2025-06-25T1000,2400A,114.0055,33.5698,漯河市,漯河大学,,42,41,37,22,20,133,,80,80,18,29,6,5,0.5,0.4
2025-06-25T1000,2401A,114.0138,33.5828,漯河市,市水利局,,,,38,24,22,131,,76,76,,21,8,5,,0.6
2025-06-25T1000,2402A,114.0261,33.5698,漯河市,市广电局,,42,37,43,24,23,132,,95,95,15,20,2,3,0.6,0.5
2025-06-25T1000,3478A,113.9749,33.5664,漯河市,市图书馆,颗粒物(PM10),52,53,49,18,23,125,,64,64,18,31,3,3,0.4,0.4
2025-06-25T1000,4250A,114.0892,33.5882,漯河市,韶山路11号,,42,39,41,24,25,132,,79,79,20,28,7,4,0.6,0.6
2025-06-25T1000,1798A,118.5092,31.6837,马鞍山市,湖东路四小,,43,43,35,15,24,131,,80,80,8,13,9,8,0.7,0.5
2025-06-25T1000,1799A,118.5024,31.6449,马鞍山市,开发区,,45,45,41,21,21,137,,76,76,10,18,8,7,0.9,0.7
2025-06-25T1000,1802A,118.6245,31.7241,马鞍山市,濮塘,,40,32,25,24,16,127,,66,66,2,4,8,8,0.8,0.7
2025-06-25T1000,3633A,118.4918,31.6809,马鞍山市,雨山,,40,35,32,19,19,126,,80,80,12,13,10,8,0.8,0.5
2025-06-25T1000,4191A,118.5274,31.72227,马鞍山市,慈湖高新区,,41,25,35,18,23,130,,76,76,10,13,7,7,0.7,0.6
2025-06-25T1000,1686A,111.0286,21.4688,茂名市,电白南海,,28,22,15,19,10,52,,34,34,8,7,4,3,0.7,0.6
2025-06-25T1000,1687A,110.9294,21.6533,茂名市,茂石化七小,,15,14,17,9,5,47,,29,29,4,6,3,4,0.3,0.4
2025-06-25T1000,1688A,110.9107,21.6687,茂名市,健康路,,,22,12,7,6,,,32,31,8,8,3,6,0.5,0.4
2025-06-25T1000,1689A,110.8592,21.6828,茂名市,高岭,,34,34,24,14,5,46,,27,27,13,12,14,7,0.3,0.3
2025-06-25T1000,3450A,111.01,21.5165,茂名市,电白水东,,16,9,9,3,4,50,,32,32,6,6,5,5,0.3,0.3
2025-06-25T1000,2539A,104.0308,30.0478,眉山市,黑龙滩水库,,25,,6,15,18,79,,61,61,5,7,1,1,0.5,0.6
2025-06-25T1000,2540A,103.8416,30.0874,眉山市,气象局,,,21,15,3,8,76,,40,40,16,16,,3,0.4,0.4
2025-06-25T1000,3137A,103.8578,30.0744,眉山市,市委党校,,26,14,8,7,4,82,,58,58,18,16,6,4,0.7,0.7
2025-06-25T1000,3148A,103.8291,30.0564,眉山市,区人社局,,24,23,26,3,3,76,,52,52,22,18,8,7,0.6,0.6
2025-06-25T1000,1690A,116.1231,24.3284,梅州市,梅江月梅,,37,37,24,25,14,75,,27,27,7,11,8,7,0.6,0.6
2025-06-25T1000,1691A,116.0797,24.2719,梅州市,梅县新城,,33,33,24,21,11,86,,25,25,8,12,5,6,0.6,0.6
2025-06-25T1000,1692A,116.1248,24.2654,梅州市,环境监控中心,,43,43,22,16,11,75,,24,24,11,18,6,6,0.4,0.3
2025-06-25T1000,3315A,116.1233,24.2991,梅州市,梅龙,,24,24,25,10,14,72,,21,21,7,14,8,8,0.5,0.5
2025-06-25T1000,1878A,104.7778,31.4741,绵阳市,富乐山,,38,38,17,17,11,35,,66,54,15,9,9,8,0.6,0.5
2025-06-25T1000,1880A,104.6697,31.4668,绵阳市,高新区自来水公司,细颗粒物(PM2.5),52,48,21,36,10,42,,57,49,13,10,8,8,0.5,0.4
2025-06-25T1000,1881A,104.7287,31.5075,绵阳市,三水厂,,40,40,17,24,12,37,,61,50,11,10,8,8,0.6,0.6
2025-06-25T1000,3491A,104.69,31.5322,绵阳市,西科大附属小学,,,,18,,12,,,55,50,,9,8,7,0.3,0.3
2025-06-25T1000,3492A,104.5648,31.5343,绵阳市,安州区旅游局,细颗粒物(PM2.5),52,47,14,36,9,42,,55,50,10,8,4,7,0.4,0.3
2025-06-25T1000,4226A,104.7651,31.4531,绵阳市,绵阳市气象局,,44,44,14,24,9,37,,76,63,15,9,11,9,0.6,0.4
2025-06-25T1000,1784A,129.61,44.561,牡丹江市,环保大楼,,44,30,29,16,17,139,,60,60,21,27,1,1,0.3,0.4
2025-06-25T1000,1785A,129.6115,44.5782,牡丹江市,文化广场,,42,29,38,13,21,134,,57,57,27,31,3,5,0.4,0.5
2025-06-25T1000,1786A,129.5904,44.5963,牡丹江市,第一医院,,48,26,30,6,16,152,,68,68,22,29,7,7,0.5,0.6
2025-06-25T1000,1787A,129.6364,44.6075,牡丹江市,机车工厂,,43,28,46,6,11,137,,56,56,26,26,7,7,0.5,0.5
2025-06-25T1000,1788A,129.6386,44.5462,牡丹江市,第一中学,,,12,27,3,13,135,,56,56,,27,3,5,0.4,0.4
2025-06-25T1000,2531A,105.0703,29.61,内江市,市监测站,,,,16,12,9,,,75,75,10,12,5,5,0.6,0.6
2025-06-25T1000,2532A,105.0717,29.5947,内江市,东兴区政府,,27,11,12,6,5,85,,79,79,10,11,1,2,0.4,0.4
2025-06-25T1000,2533A,105.0653,29.5817,内江市,内江二中,,25,,17,16,12,77,,73,73,12,11,8,8,0.5,0.5
2025-06-25T1000,2534A,105.0406,29.5822,内江市,内江日报社,,25,14,14,12,9,78,,75,75,7,8,7,9,0.2,0.3
2025-06-25T1000,2628A,92.0657,31.4846,那曲市,那曲监测站,颗粒物(PM10),66,81,36,40,14,88,,69,66,32,16,23,14,0.6,0.3
2025-06-25T1000,4243A,92.0515,31.4787,那曲市,那曲市委宣传部,,,,19,,10,,,127,,,10,,9,,0.3
2025-06-25T1000,1290A,115.8931,28.6843,南昌市,省外办,,35,34,19,24,14,50,,24,24,30,21,3,2,0.9,0.7
2025-06-25T1000,1291A,115.8886,28.7003,南昌市,省林业公司,,36,36,15,17,9,42,,21,21,27,20,11,9,1.0,0.8
2025-06-25T1000,1292A,115.8126,28.7442,南昌市,林科所,,29,29,10,9,3,48,,24,24,11,10,6,5,0.9,0.7
2025-06-25T1000,1294A,115.8518,28.687,南昌市,建工学校,,35,35,16,3,12,41,,20,20,30,17,8,8,0.9,0.7
2025-06-25T1000,1295A,115.8921,28.6424,南昌市,象湖,,,24,19,19,10,,,24,24,28,21,11,7,1.2,0.9
2025-06-25T1000,1296A,115.7423,28.7996,南昌市,武术学校,,19,,16,13,10,51,,13,13,7,3,9,8,0.9,0.7
2025-06-25T1000,3046A,115.9084,28.6062,南昌市,机电学校,,26,26,23,9,11,68,,27,27,15,21,6,3,0.9,0.8
2025-06-25T1000,3690A,115.9721,28.7031,南昌市,外国语学校,,26,17,14,12,7,81,,49,49,8,11,10,9,0.9,0.8
2025-06-25T1000,4192A,115.9316,28.68677,南昌市,南京东路235号,,47,47,26,11,8,69,,32,32,20,19,8,4,1.0,0.7
2025-06-25T1000,1905A,106.056,30.8064,南充市,西山风景区,,,,,,,,,,,,,,,,
2025-06-25T1000,1906A,106.0789,30.8023,南充市,南充市委,,26,11,16,3,8,82,,77,77,11,9,4,4,0.4,0.4
2025-06-25T1000,1907A,106.1031,30.8217,南充市,南充炼油厂,,27,,15,11,13,85,,76,76,4,6,4,5,0.2,0.2
2025-06-25T1000,4227A,106.1083,30.7884,南充市,梨树横街98号,,27,,17,12,10,84,,80,80,8,6,3,3,0.3,0.3
2025-06-25T1000,4304A,106.1172,30.843,南充市,清泉寺北路188号,,,16,20,8,11,80,,80,80,,5,4,3,,0.3
2025-06-25T1000,4305A,106.067,30.7616,南充市,同庆路1号,,26,11,18,9,10,81,,75,75,9,8,3,4,0.2,0.2
2025-06-25T1000,1151A,118.8086,32.1065,南京市,迈皋桥,,36,27,20,17,13,114,,83,83,10,8,6,5,0.7,0.6
2025-06-25T1000,1152A,118.7538,32.0551,南京市,草场门,,39,31,23,19,16,122,,80,80,13,14,11,7,0.2,0.4
2025-06-25T1000,1153A,118.7794,32.0745,南京市,山西路,,,31,25,14,11,133,,94,94,19,10,,5,0.3,0.2
2025-06-25T1000,1154A,118.7752,32.0023,南京市,中华门,,39,22,22,12,13,122,,75,75,9,14,10,8,0.7,0.7
2025-06-25T1000,1155A,118.8109,32.0309,南京市,瑞金路,,,31,22,22,15,123,,78,78,,7,,6,0.4,0.4
2025-06-25T1000,1156A,118.7997,32.0754,南京市,玄武湖,,38,34,25,17,8,119,,83,83,12,10,5,4,0.5,0.5
2025-06-25T1000,1157A,118.6414,32.0931,南京市,浦口,,,39,27,17,14,120,,57,57,14,16,,5,0.2,0.3
2025-06-25T1000,1158A,118.7356,31.9996,南京市,奥体中心,,41,22,25,19,17,131,,90,90,15,22,5,4,0.3,0.3
2025-06-25T1000,1159A,118.9125,32.1028,南京市,仙林大学城,,40,29,29,9,12,126,,67,67,5,13,10,6,0.5,0.5
2025-06-25T1000,3422A,118.8436,31.9198,南京市,江宁彩虹桥,,41,31,28,22,16,131,,78,78,8,15,3,4,0.5,0.5
2025-06-25T1000,3427A,118.8554,32.3578,南京市,六合雄州,,37,19,33,17,19,118,,57,57,22,29,5,4,0.6,0.6
2025-06-25T1000,4249A,118.8708,31.3402,南京市,汶溪路181号,,43,27,24,20,21,136,,93,93,14,14,4,5,0.6,0.4
2025-06-25T1000,4312A,119.019,31.6512,南京市,中山西路1号,,,29,23,17,17,,,52,48,7,11,4,4,0.8,0.6
2025-06-25T1000,1401A,108.3103,22.7881,南宁市,二十一中,,,39,18,8,7,,,32,32,7,9,,2,0.5,0.6
2025-06-25T1000,1402A,108.3141,22.8528,南宁市,北湖,,15,15,20,8,10,43,,33,33,8,9,4,5,0.4,0.5
2025-06-25T1000,1403A,108.3206,22.8225,南宁市,市监测站,,17,17,19,9,12,41,,32,32,7,7,7,7,0.4,0.5
2025-06-25T1000,1404A,108.3829,22.8037,南宁市,大自然花园,,,22,19,6,11,47,,36,36,,7,,5,0.3,0.5
2025-06-25T1000,1405A,108.4394,22.7904,南宁市,仙葫,,21,21,19,10,10,55,,42,42,5,8,6,6,0.4,0.6
2025-06-25T1000,1406A,108.2397,22.8467,南宁市,区农职院,,17,17,20,8,8,43,,33,33,11,11,4,5,0.3,0.4
2025-06-25T1000,1407A,108.3275,22.735,南宁市,英华嘉园,,22,22,17,10,9,51,,34,34,6,11,7,8,0.4,0.6
2025-06-25T1000,3401A,108.4834,22.7618,南宁市,红星社区,,15,12,20,9,9,47,,30,30,2,7,2,3,0.4,0.5
2025-06-25T1000,4221A,108.2177,22.7774,南宁市,乐贤路16号,,17,17,22,9,11,48,,27,27,7,14,6,7,0.5,0.6
2025-06-25T1000,2331A,118.0966,26.6761,南平市,茫荡山,,,,,,,,,,,,,,,,
2025-06-25T1000,2332A,118.1681,26.6369,南平市,南平市监测站,,21,21,22,13,13,59,,27,27,8,9,8,5,0.7,0.6
2025-06-25T1000,2333A,118.1825,26.6489,南平市,南平铝业有限公司,,18,16,22,12,4,54,,30,30,6,9,4,5,0.7,0.7
2025-06-25T1000,2334A,118.1756,26.6272,南平市,南平七中,,28,28,23,12,12,61,,28,28,6,8,8,6,0.8,0.6
2025-06-25T1000,1168A,120.9098,31.9663,南通市,狼山街道,,38,23,19,16,12,119,,48,48,16,19,8,4,1.1,0.8
2025-06-25T1000,1169A,120.86,32.0005,南通市,虹桥,,39,28,22,27,17,101,,64,64,45,25,7,3,1.2,0.8
2025-06-25T1000,1170A,120.87,32.02,南通市,城中,,40,33,29,22,14,126,,61,61,20,20,10,4,1.4,0.9
2025-06-25T1000,1171A,120.94,31.93,南通市,星湖花园,,36,33,18,23,16,115,,49,49,27,23,5,3,1.0,0.8
2025-06-25T1000,1172A,120.81,32.0417,南通市,紫琅学院,,,,17,,6,,,105,,,14,,5,,0.5
2025-06-25T1000,3291A,121.067,32.062,南通市,通州监测站,,42,29,19,19,13,133,,59,59,15,15,11,6,1.1,0.7
2025-06-25T1000,3432A,120.9348,31.9883,南通市,环境教育馆,,,31,27,16,12,,,39,39,19,19,,3,0.6,0.3
2025-06-25T1000,2404A,112.5224,33.0122,南阳市,瓦房庄,颗粒物(PM10),54,57,39,26,20,93,,107,96,19,15,6,6,0.6,0.6
2025-06-25T1000,2405A,112.5003,32.9735,南阳市,汉画馆,颗粒物(PM10),53,55,34,21,15,84,,86,85,19,22,6,6,0.6,0.5
2025-06-25T1000,2406A,112.5573,33.027,南阳市,气象站,颗粒物(PM10),58,65,35,24,16,79,,91,81,19,16,7,6,0.6,0.5
2025-06-25T1000,2407A,112.5481,32.9689,南阳市,理工学院,颗粒物(PM10),52,54,34,25,19,90,,94,88,19,16,5,5,0.5,0.4
2025-06-25T1000,4008A,112.5234,32.9922,南阳市,卧龙区政府,,50,50,31,22,19,90,,103,96,19,14,5,5,0.6,0.5
2025-06-25T1000,1234A,121.8358,29.911,宁波市,区环保大楼,颗粒物(PM10),53,55,36,18,14,28,,24,24,55,41,8,4,0.9,0.7
2025-06-25T1000,1235A,121.56,29.82,宁波市,万里学院,,39,,25,27,31,89,,70,69,10,22,2,2,0.8,0.8
2025-06-25T1000,1236A,121.713,29.9572,宁波市,龙赛医院,,36,36,29,18,12,80,,71,70,32,31,7,4,0.7,0.6
2025-06-25T1000,1239A,121.633,29.7733,宁波市,钱湖水厂,,27,23,28,17,20,85,,60,60,4,11,3,4,0.5,0.5
2025-06-25T1000,1240A,121.5856,29.8635,宁波市,太古小学,,27,27,29,16,17,83,,80,79,12,15,3,4,0.9,0.8
2025-06-25T1000,1241A,121.524,29.8674,宁波市,市环境监测中心,,,22,28,12,17,,,73,68,16,19,4,4,0.9,0.9
2025-06-25T1000,2871A,121.6147,29.9017,宁波市,万里国际学校,,35,27,35,24,19,80,,76,70,19,21,3,3,0.8,0.7
2025-06-25T1000,3710A,121.5594,29.8975,宁波市,白沙活动中心,,28,24,20,17,15,88,,80,75,16,16,3,3,0.6,0.5
2025-06-25T1000,2339A,119.5001,26.6946,宁德市,金涵水库,,,,,,,,,,,,,,,,
2025-06-25T1000,2341A,119.5388,26.6612,宁德市,宁德市监测站,颗粒物(PM10),52,53,34,22,18,78,,63,61,16,12,4,4,0.9,0.8
2025-06-25T1000,3209A,119.5231,26.6562,宁德市,宁德一中,,50,49,36,35,24,77,,61,61,16,9,9,6,0.6,0.5
2025-06-25T1000,2618A,98.8601,25.8567,怒江傈僳族自治州,州监测站,,23,23,19,9,11,17,,12,12,6,7,8,8,0.5,0.4
2025-06-25T1000,2619A,98.8546,25.8417,怒江傈僳族自治州,泸水一中,,24,24,15,9,7,3,,0,0,9,9,5,5,0.4,0.4
2025-06-25T1000,1888A,101.6891,26.571,攀枝花市,弄弄坪,颗粒物(PM10),62,74,43,43,14,6,,6,5,26,19,10,11,0.9,0.8
2025-06-25T1000,1889A,101.5769,26.5928,攀枝花市,河门口,,28,28,24,10,8,10,,8,8,13,13,6,10,0.9,0.9
2025-06-25T1000,1890A,101.7169,26.585,攀枝花市,炳草岗,,,50,34,19,10,,,11,8,24,18,,13,0.9,0.8
2025-06-25T1000,1891A,101.7369,26.5008,攀枝花市,仁和,,34,34,19,18,9,12,,6,5,16,11,10,9,0.8,0.8
2025-06-25T1000,2835A,101.7227,26.567,攀枝花市,四十中小,,32,32,33,11,15,9,,15,12,24,15,23,16,0.8,0.6
2025-06-25T1000,1604A,122.0303,41.1489,盘锦市,开发区,,48,46,31,9,24,151,,114,114,26,23,9,6,0.6,0.6
2025-06-25T1000,1605A,122.0485,41.0883,盘锦市,兴隆台,,45,30,31,16,21,143,,112,112,20,25,5,4,0.4,0.4
2025-06-25T1000,1606A,121.8297,41.1028,盘锦市,新生街道,臭氧1小时,52,35,28,8,18,161,,97,97,12,16,12,7,0.4,0.5
2025-06-25T1000,1832A,113.3257,33.742,平顶山市,新华旅馆,,42,42,37,26,22,96,,81,74,24,16,5,5,0.5,0.4
2025-06-25T1000,1833A,113.2919,33.737,平顶山市,规划设计院,,40,32,37,23,22,128,,83,83,16,17,6,5,0.5,0.4
2025-06-25T1000,1834A,113.182,33.774,平顶山市,平顶山工学院,,32,31,37,19,20,102,,76,76,19,15,3,2,0.4,0.4
2025-06-25T1000,3204A,113.3025,33.73,平顶山市,规划局,,39,39,33,17,18,122,,79,79,19,19,5,5,0.5,0.4
2025-06-25T1000,3594A,112.8867,33.9116,平顶山市,石龙区,,,78,58,36,27,104,,76,67,29,25,,11,0.8,0.6
2025-06-25T1000,2656A,106.6692,35.5461,平凉市,聚贤嘉苑,,,,37,,16,,,72,72,14,21,9,8,,0.8
2025-06-25T1000,2657A,106.7021,35.5307,平凉市,博物馆,颗粒物(PM10),51,51,43,15,16,95,,91,91,19,21,10,12,0.8,0.7
2025-06-25T1000,2347A,114.0997,27.5002,萍乡市,武功山,,7,,4,3,3,21,,11,11,2,3,12,15,0.2,0.2
2025-06-25T1000,2348A,113.8385,27.6434,萍乡市,中医院,,45,45,37,22,24,35,,29,29,7,13,12,12,1.1,1.1
2025-06-25T1000,2349A,113.8493,27.6253,萍乡市,市政府车库,,41,41,25,28,20,29,,21,21,11,12,7,6,3.2,0.9
2025-06-25T1000,2350A,113.8676,27.6435,萍乡市,市环保局,,43,40,39,30,24,32,,26,26,5,9,7,7,0.9,1
2025-06-25T1000,2351A,113.866,27.6198,萍乡市,安源区政府,,46,46,27,22,17,29,,19,19,9,11,8,8,0.7,0.9
2025-06-25T1000,2319A,119.0141,25.4325,莆田市,荔城区仓后路,颗粒物(PM10),54,58,37,25,18,108,,46,46,11,10,6,5,0.6,0.5
2025-06-25T1000,2320A,119.0015,25.4553,莆田市,莆田市监测站,,,,25,,15,114,,45,45,,9,7,4,,0.3
2025-06-25T1000,2321A,119.1119,25.4561,莆田市,涵江区六中,颗粒物(PM10),54,57,32,25,15,110,,44,44,16,12,3,2,0.5,0.5
2025-06-25T1000,2322A,119.1013,25.3215,莆田市,秀屿区政府,,46,46,29,23,18,108,,46,46,16,14,9,6,0.6,0.6
2025-06-25T1000,2323A,118.981,25.4792,莆田市,东圳水库,,,,,,,,,,,,,,,,
2025-06-25T1000,2392A,115.0312,35.7636,濮阳市,环保局,,,81,45,34,27,,,90,88,18,19,9,7,0.5,0.4
2025-06-25T1000,2394A,115.0574,35.7609,濮阳市,油田运输公司,颗粒物(PM10),65,79,50,29,21,118,,115,110,28,17,9,7,0.7,0.5
2025-06-25T1000,3021A,115,35.7668,濮阳市,濮水河管理处,颗粒物(PM10),65,80,55,42,32,78,,66,62,31,28,8,6,0.5,0.4
2025-06-25T1000,4216A,115.0924,35.7686,濮阳市,任丘路479号,颗粒物(PM10),74,98,53,46,25,99,,116,107,24,12,10,8,0.9,0.7
2025-06-25T1000,2601A,100.98,22.7633,普洱市,市环保局,,28,28,21,6,12,41,,36,36,4,3,4,4,0.6,0.5
2025-06-25T1000,2602A,100.9817,22.8322,普洱市,普洱第二中学,,26,26,23,16,15,44,,32,32,4,6,6,6,0.5,0.5
2025-06-25T1000,2262A,131.0518,45.8751,七台河市,新一中,颗粒物(PM10),51,52,36,28,29,149,,76,76,15,14,11,10,1.1,1
2025-06-25T1000,3345A,131.0577,45.7879,七台河市,中波台,,39,31,28,3,8,122,,48,48,17,22,9,9,0.3,0.3
2025-06-25T1000,3637A,131.0176,45.7761,七台河市,人民广场,,,,53,,30,,,33,33,11,20,,13,0.6,0.7
2025-06-25T1000,3684A,130.8781,45.8222,七台河市,新建矿广场,,47,34,55,8,19,150,,56,56,13,25,10,12,0.5,0.5
2025-06-25T1000,1779A,123.9305,47.3636,齐齐哈尔市,安居小区,,,,46,,23,,,71,71,17,20,,11,0.6,0.6
2025-06-25T1000,1780A,123.9488,47.3386,齐齐哈尔市,中心广场,,43,37,53,14,19,136,,88,88,11,20,7,8,0.6,0.6
2025-06-25T1000,1781A,123.9483,47.3227,齐齐哈尔市,农牧车辆厂,,40,34,48,19,22,127,,82,82,10,17,6,7,0.0,0.1
2025-06-25T1000,1783A,123.945,47.2988,齐齐哈尔市,市环境监测站,,43,30,42,11,23,137,,81,81,7,14,4,4,0.4,0.4
2025-06-25T1000,3662A,123.6333,47.2075,齐齐哈尔市,富区青少年活动中心,颗粒物(PM10),51,52,52,29,29,142,,94,94,8,13,4,5,0.5,0.5
2025-06-25T1000,2591A,107.9783,26.5747,黔东南苗族侗族自治州,市环境监测站,,15,14,14,10,8,46,,20,20,4,9,2,3,0.4,0.6
2025-06-25T1000,2881A,107.8908,26.5311,黔东南苗族侗族自治州,凯里学院,,17,,10,9,8,53,,49,49,1,8,2,2,0.3,0.4
2025-06-25T1000,2593A,107.5228,26.2403,黔南布依族苗族自治州,小围寨,,13,9,10,3,5,39,,39,39,3,5,3,3,0.3,0.4
2025-06-25T1000,3538A,107.5175,26.2978,黔南布依族苗族自治州,沙坝,,22,22,16,3,4,20,,25,25,4,6,5,5,0.5,0.6
2025-06-25T1000,2589A,104.9022,25.0925,黔西南布依族苗族自治州,场坝街,,13,13,15,8,6,35,,32,31,5,5,4,3,0.3,0.3
2025-06-25T1000,2590A,104.8811,25.0992,黔西南布依族苗族自治州,坪东大道,,26,26,17,6,8,28,,26,25,7,6,2,1,0.2,0.1
2025-06-25T1000,2502A,108.6236,21.9667,钦州市,市环保站,,17,17,16,3,6,41,,32,32,7,10,2,3,0.4,0.4
2025-06-25T1000,2503A,108.6549,21.9481,钦州市,沙埠小学,,,29,26,8,10,,,28,28,7,14,3,3,0.3,0.4
2025-06-25T1000,2504A,108.5989,21.7431,钦州市,港区一小,,32,32,34,12,10,40,,22,22,11,16,3,3,0.5,0.5
2025-06-25T1000,3404A,108.5959,21.9633,钦州市,北职校,,20,20,21,8,8,40,,30,30,4,9,2,3,0.3,0.3
2025-06-25T1000,1043A,119.7493,40.0116,秦皇岛市,第一关,,,43,61,13,25,,,25,25,,51,6,7,0.3,0.3
2025-06-25T1000,1044A,119.5897,39.9499,秦皇岛市,监测站,,41,41,55,3,17,128,,73,73,24,34,5,6,0.4,0.4
2025-06-25T1000,1046A,119.5251,39.9041,秦皇岛市,建设大厦,,43,31,58,13,19,135,,75,75,16,32,5,6,0.4,0.5
2025-06-25T1000,3132A,119.610547,39.943889,秦皇岛市,文明里,,44,44,55,3,19,124,,75,75,22,27,5,7,0.2,0.3
2025-06-25T1000,4198A,119.5090,39.8253,秦皇岛市,北戴河轮滑馆,,50,50,51,17,21,114,,68,68,16,19,4,4,0.3,0.3
2025-06-25T1000,1307A,120.6659,36.2403,青岛市,仰口,,38,38,26,17,13,112,,105,98,10,7,8,7,0.5,0.5
2025-06-25T1000,1310A,120.4134,36.0658,青岛市,市南区东部子站,,36,36,19,19,12,84,,86,86,29,21,16,10,0.5,0.4
2025-06-25T1000,1311A,120.3664,36.1032,青岛市,四方区子站,,44,44,22,29,14,140,,82,82,28,27,17,9,0.7,0.4
2025-06-25T1000,1312A,120.2994,36.054,青岛市,市南区西部子站,,31,31,27,17,14,67,,64,64,40,40,12,11,0.7,0.5
2025-06-25T1000,1313A,120.4581,36.0858,青岛市,崂山区子站,,,,16,14,10,,,90,90,20,20,11,8,0.3,0.3
2025-06-25T1000,1315A,120.3999,36.3083,青岛市,城阳区子站,臭氧1小时,59,41,29,15,13,167,,113,113,24,25,10,6,0.5,0.3
2025-06-25T1000,1966A,120.0405,35.8735,青岛市,黄岛区4号,,48,48,32,17,12,84,,65,65,42,32,15,11,1.0,0.8
2025-06-25T1000,3362A,120.5014,36.4034,青岛市,即墨2号,,50,50,31,25,15,160,,106,106,14,15,7,3,0.4,0.3
2025-06-25T1000,3642A,120.3503,36.0736,青岛市,市北区南部,,45,35,22,31,17,100,,94,93,30,18,16,10,0.7,0.4
2025-06-25T1000,3643A,120.3948,36.1805,青岛市,李沧区北部,,44,44,25,19,13,140,,93,93,22,24,13,9,0.7,0.5
2025-06-25T1000,4290A,120.1969,35.9546,青岛市,珠江路669号,,,39,25,17,11,,,74,74,23,23,11,9,0.5,0.4
2025-06-25T1000,1702A,113.0426,23.691,清远市,环保大楼,,22,15,17,15,16,59,,23,23,16,19,8,6,0.5,0.5
2025-06-25T1000,1703A,113.0208,23.7106,清远市,凤城街办,,29,29,32,14,15,58,,23,23,18,21,9,8,0.4,0.4
2025-06-25T1000,3025A,113.0477,23.6344,清远市,技师学院,,28,28,33,14,16,54,,18,18,15,21,9,8,0.4,0.5
2025-06-25T1000,3318A,112.9903,23.7403,清远市,清新太和,,30,30,30,18,15,47,,30,30,16,18,11,9,0.5,0.5
2025-06-25T1000,3455A,113.076,23.7198,清远市,清城东城,,32,32,34,16,16,52,,21,21,18,17,10,9,0.4,0.3
2025-06-25T1000,2661A,107.6325,35.7357,庆阳市,庆阳五中,,37,23,31,17,20,118,,113,112,14,8,5,6,0.4,0.4
2025-06-25T1000,2662A,107.6364,35.7067,庆阳市,市环保局,,37,29,33,16,18,116,,113,111,13,7,7,10,0.5,0.5
2025-06-25T1000,1916A,103.7897,25.5035,曲靖市,环境监测站,,15,15,14,3,4,28,,18,18,3,5,3,3,0.4,0.4
2025-06-25T1000,1917A,103.8,25.5364,曲靖市,烟厂办公区,,18,12,14,12,6,31,,22,22,3,5,4,4,0.6,0.5
2025-06-25T1000,3376A,103.7947,25.462,曲靖市,南苑二区,,12,8,9,8,4,31,,23,23,4,5,3,4,0.5,0.5
2025-06-25T1000,3377A,103.7444,25.5261,曲靖市,曲靖师范学院,,11,10,9,3,4,34,,26,26,4,5,6,6,0.3,0.3
2025-06-25T1000,1264A,118.8692,28.9398,衢州市,环保大楼,细颗粒物(PM2.5),85,91,30,63,19,56,,44,44,17,11,4,4,0.9,0.5
2025-06-25T1000,1265A,118.8709,28.9666,衢州市,实验学校,,,53,24,35,17,,,45,45,16,12,4,3,0.6,0.4
2025-06-25T1000,1266A,118.8621,28.9808,衢州市,衢州学院,细颗粒物(PM2.5),57,50,21,40,16,53,,48,48,16,12,3,3,0.8,0.5
2025-06-25T1000,1611A,118.5819,24.9117,泉州市,涂山街,颗粒物(PM10),56,61,39,23,18,81,,42,42,29,21,10,5,0.6,0.6
2025-06-25T1000,1612A,118.5972,24.8978,泉州市,津头埔,,44,44,33,20,16,76,,37,37,26,19,8,4,0.6,0.6
2025-06-25T1000,1613A,118.6663,24.9424,泉州市,万安,颗粒物(PM10),54,58,36,29,18,81,,34,34,24,16,5,3,0.6,0.5
2025-06-25T1000,1614A,118.6117,24.9604,泉州市,清源山,,,,,,,,,,,,,,,,
2025-06-25T1000,3529A,118.6333,24.9264,泉州市,城华南路,,38,38,28,23,16,81,,38,38,22,17,8,5,0.5,0.5
2025-06-25T1000,2626A,88.8876,29.2718,日喀则市,日喀则监测站,,28,15,11,6,6,88,,90,84,9,7,11,12,0.3,0.3
2025-06-25T1000,3726A,88.8781,29.2426,日喀则市,林业技术推广中心,,27,22,14,8,4,84,,67,67,10,5,8,8,0.5,0.5
2025-06-25T1000,1659A,119.471,35.4209,日照市,监测站,,46,46,35,26,18,146,,40,40,22,46,10,9,0.6,0.8
2025-06-25T1000,1660A,119.523,35.4216,日照市,市政府广场,,46,46,42,18,17,137,,63,63,17,36,10,13,0.7,0.9
2025-06-25T1000,1661A,119.5587,35.4044,日照市,港务局,颗粒物(PM10),51,51,54,28,27,142,,57,57,20,42,9,12,0.8,1
2025-06-25T1000,3507A,119.5328,35.4625,日照市,职业技术学院,,,58,47,34,17,,,64,64,34,35,,9,0.6,0.8
2025-06-25T1000,3604A,119.3266,35.1044,日照市,岚山环保分局,颗粒物(PM10),54,58,42,31,18,141,,83,83,24,28,16,15,1.1,0.9
2025-06-25T1000,1835A,111.1922,34.7752,三门峡市,市政府,,43,35,44,30,28,82,,98,89,21,17,4,7,0.6,0.5
2025-06-25T1000,1836A,111.1587,34.7942,三门峡市,开发区,"颗粒物(PM10),细颗粒物(PM2.5)",54,58,49,38,29,82,,111,101,21,18,5,8,0.6,0.5
2025-06-25T1000,1838A,111.143,34.7955,三门峡市,风景区,,45,,44,31,25,89,,120,109,19,10,7,11,0.4,0.4
2025-06-25T1000,3039A,111.1911,34.7829,三门峡市,三门峡市第一小学,,,,46,,25,89,,114,105,,14,,8,0.8,0.7
2025-06-25T1000,3598A,111.1,34.7167,三门峡市,富达温泉假日酒店,细颗粒物(PM2.5),58,,33,41,28,87,,98,92,22,14,9,9,0.4,0.3
2025-06-25T1000,2324A,117.6211,26.2625,三明市,三钢,,32,28,25,22,20,76,,28,28,8,14,5,7,0.5,1.2
2025-06-25T1000,2325A,117.635,26.2714,三明市,三明二中,,28,25,22,19,14,70,,26,26,8,12,2,2,0.6,0.6
2025-06-25T1000,2326A,117.6028,26.2378,三明市,三元区政府,,35,27,25,24,14,74,,27,27,20,10,18,6,1.8,0.4
2025-06-25T1000,2327A,117.7275,26.3108,三明市,洋溪,,,,,,,,,,,,,,,,
2025-06-25T1000,1876A,109.5078,18.2489,三亚市,河东子站,,14,12,12,3,5,42,,31,31,3,3,3,3,0.5,0.4
2025-06-25T1000,1877A,109.4964,18.2681,三亚市,河西子站,,14,9,11,3,5,43,,30,30,6,6,2,2,0.4,0.3
2025-06-25T1000,3540A,109.7348,18.3443,三亚市,君悦子站,,15,,10,3,3,48,,28,28,4,4,2,2,0.3,0.2
2025-06-25T1000,2624A,91.7608,29.2313,山南市,山南监测站,,24,21,8,14,4,74,,78,74,9,7,3,3,0.3,0.3
2025-06-25T1000,2625A,91.7706,29.2436,山南市,山南人民医院,,24,17,12,7,9,74,,77,74,9,6,7,6,0.2,0.2
2025-06-25T1000,1674A,116.6794,23.3667,汕头市,金平子站,,32,32,14,15,9,71,,43,43,5,6,5,5,0.6,0.5
2025-06-25T1000,1675A,116.7244,23.3633,汕头市,龙湖子站,,26,26,15,9,6,64,,40,40,10,8,7,6,0.5,0.4
2025-06-25T1000,1676A,116.7258,23.2775,汕头市,濠江子站,,25,25,17,7,10,49,,32,32,6,10,5,5,0.5,0.5
2025-06-25T1000,1677A,116.7519,23.4714,汕头市,澄海子站,,,,21,,10,71,,38,38,,10,3,3,0.6,0.6
2025-06-25T1000,1678A,116.6092,23.2539,汕头市,潮阳子站,,20,,15,6,7,61,,42,42,2,3,5,4,0.4,0.4
2025-06-25T1000,3444A,116.454,23.2684,汕头市,潮南峡山,,22,15,17,7,8,70,,42,42,6,6,6,5,0.4,0.3
2025-06-25T1000,3624A,116.4069,23.2533,汕头市,潮南子站,,18,7,15,3,8,56,,40,40,2,4,4,4,0.5,0.5
2025-06-25T1000,1693A,115.3653,22.775,汕尾市,市环保局,,17,15,9,3,3,54,,42,42,6,6,3,3,0.4,0.3
2025-06-25T1000,1694A,115.3706,22.7898,汕尾市,市政府,,18,11,11,9,5,56,,44,44,5,6,3,4,0.4,0.4
2025-06-25T1000,1695A,115.3622,22.7925,汕尾市,新城中学,,18,12,11,6,4,56,,37,37,4,6,3,3,0.6,0.5
2025-06-25T1000,2645A,109.9154,33.8715,商洛市,监测站,,36,36,40,15,22,67,,61,55,10,13,5,8,0.4,0.5
2025-06-25T1000,3045A,109.9643,33.8471,商洛市,商州区中学,,37,37,37,25,23,39,,67,58,24,15,3,7,0.5,0.5
2025-06-25T1000,2408A,115.6702,34.4285,商丘市,环境监测站,细颗粒物(PM2.5),58,,75,41,35,109,,99,96,14,14,3,3,0.6,0.5
2025-06-25T1000,2409A,115.6458,34.4045,商丘市,粮食局,细颗粒物(PM2.5),57,42,52,40,36,107,,94,90,16,14,4,3,0.5,0.4
2025-06-25T1000,2410A,115.6293,34.3948,商丘市,睢阳区环保局,,,76,73,47,37,86,,80,75,,20,3,3,,0.4
2025-06-25T1000,3171A,115.6071,34.4465,商丘市,梁园区档案局,细颗粒物(PM2.5),59,65,98,42,36,86,,87,80,29,19,5,3,0.6,0.5
2025-06-25T1000,1141A,121.4,31.238,上海市,普陀,,40,,25,28,22,112,,56,56,22,23,5,5,0.4,0.4
2025-06-25T1000,1142A,121.478,31.2036,上海市,十五厂,,36,,26,25,22,97,,44,44,33,32,8,7,0.6,0.6
2025-06-25T1000,1143A,121.467,31.3008,上海市,虹口,,33,26,23,22,17,103,,45,45,23,27,8,8,0.6,0.7
2025-06-25T1000,1147A,121.425,31.2261,上海市,静安监测站,,39,,26,27,22,97,,50,50,29,27,5,4,0.6,0.6
2025-06-25T1000,1148A,121.703,31.1907,上海市,浦东川沙,,30,21,22,19,17,96,,58,58,22,25,8,8,0.7,0.7
2025-06-25T1000,1149A,121.533,31.2284,上海市,浦东新区监测站,,34,20,24,15,14,107,,55,55,17,22,8,8,0.4,0.4
2025-06-25T1000,1150A,121.577,31.2071,上海市,浦东张江,,42,,29,29,18,98,,55,55,18,22,6,6,0.9,0.8
2025-06-25T1000,3265A,121.4316,31.3322,上海市,宝山庙行,,36,24,23,21,17,114,,48,48,21,27,10,8,0.5,0.5
2025-06-25T1000,3266A,121.8791,31.4662,上海市,崇明上实东滩,,33,33,16,23,11,92,,62,62,23,8,3,1,0.3,0.3
2025-06-25T1000,3268A,121.3162,31.2838,上海市,嘉定南翔,,32,26,33,22,21,87,,28,28,28,31,6,6,0.6,0.6
2025-06-25T1000,3269A,121.3359,30.7456,上海市,金山新城,,30,25,28,16,20,96,,58,58,13,21,3,3,0.8,0.7
2025-06-25T1000,3270A,121.4996,31.0739,上海市,闵行浦江,,49,48,28,34,21,85,,54,54,20,22,6,4,0.7,0.6
