timepoint,stationcode,longitude,latitude,area,positionname,primarypollutant,aqi,pm10,pm10_24h,pm2_5,pm2_5_24h,o3,o3_24h,o3_8h,o3_8h_24h,no2,no2_24h,so2,so2_24h,co,co_24h
2024-12-05T1400,2566A,102.1879,31.914,阿坝藏族羌族自治州,州农科所,颗粒物(PM10),54,58,42,14,16,91,,50,50,14,17,10,10,0.3,0.5
2024-12-05T1400,2568A,102.2502,31.8896,阿坝藏族羌族自治州,马师校,,,13,21,13,17,63,,31,31,,25,4,4,0.4,0.5
2024-12-05T1400,3994A,102.2165,31.9024,阿坝藏族羌族自治州,马尔康中学西区,,22,10,32,3,13,68,,36,36,6,19,5,5,0.5,0.6
2024-12-05T1400,2695A,80.292,41.1694,阿克苏地区,电视台,颗粒物(PM10),63,76,118,41,64,57,,39,39,33,55,8,6,0.8,1.5
2024-12-05T1400,2696A,80.2613,41.1551,阿克苏地区,艺术中心,颗粒物(PM10),67,83,107,40,52,61,,40,40,24,48,4,4,0.8,1.2
2024-12-05T1400,2204A,105.6467,38.8363,阿拉善盟,西城区西花园,,29,21,30,8,18,92,,80,80,7,14,8,8,0.4,0.5
2024-12-05T1400,2205A,105.6985,38.8411,阿拉善盟,蒙二幼,,27,14,17,3,9,86,,80,80,6,9,6,6,0.4,0.5
2024-12-05T1400,2206A,105.724,38.8516,阿拉善盟,环保局新楼,,27,10,15,3,8,85,,83,81,5,6,8,8,0.5,0.5
2024-12-05T1400,2708A,88.1264,47.8517,阿勒泰地区,市站,,18,14,10,3,10,57,,55,50,10,13,8,8,0.4,0.4
2024-12-05T1400,2630A,80.1161,32.5,阿里地区,阿里监测站,,25,8,11,3,5,80,,70,70,8,14,7,9,0.5,0.5
2024-12-05T1400,3192A,80.0903,32.5028,阿里地区,阿里藏医院,,25,14,11,3,5,79,,62,59,6,7,7,9,0.7,0.6
2024-12-05T1400,2642A,109.0318,32.6537,安康市,香溪洞,细颗粒物(PM2.5),59,53,53,42,43,43,,20,20,21,24,10,12,0.5,0.6
2024-12-05T1400,2644A,109.0072,32.6975,安康市,汉滨区检察院,细颗粒物(PM2.5),72,69,72,52,55,40,,24,24,24,29,8,12,0.6,0.7
2024-12-05T1400,4054A,109.0325,32.6913,安康市,市邮政管理局,细颗粒物(PM2.5),67,66,76,48,59,54,,22,22,16,28,8,11,0.6,0.7
2024-12-05T1400,2291A,117.0809,30.5177,安庆市,环科院,,,64,60,46,48,91,,71,71,13,19,,5,0.6,0.7
2024-12-05T1400,2292A,117.0331,30.5119,安庆市,马山宾馆,细颗粒物(PM2.5),68,65,55,49,44,89,,67,67,14,21,7,7,0.5,0.6
2024-12-05T1400,2294A,116.9896,30.6145,安庆市,安庆大学,细颗粒物(PM2.5),58,47,61,41,46,106,,88,88,20,24,12,10,0.7,0.7
2024-12-05T1400,3173A,117.0598,30.5351,安庆市,市人大,细颗粒物(PM2.5),70,60,46,51,46,93,,67,67,12,19,4,4,0.6,0.9
2024-12-05T1400,3122A,105.9606,26.2611,安顺市,伍家关,,,,23,22,14,37,,55,39,16,12,8,7,1.1,1
2024-12-05T1400,3123A,105.9408,26.2431,安顺市,凤凰山,,40,31,26,28,20,36,,52,38,16,12,11,10,0.6,0.6
2024-12-05T1400,3124A,105.9439,26.2564,安顺市,金钟山,,39,34,23,27,20,38,,53,40,13,11,14,10,0.7,0.6
2024-12-05T1400,3125A,105.8983,26.2481,安顺市,娄家坡,,48,33,25,33,22,38,,50,36,12,14,12,12,0.7,0.6
2024-12-05T1400,1818A,114.4839,36.0621,安阳市,棉研所,颗粒物(PM10),63,75,110,41,92,65,,26,26,24,36,12,7,0.8,0.9
2024-12-05T1400,1819A,114.3551,36.1017,安阳市,红庙街,细颗粒物(PM2.5),59,48,124,42,99,63,,31,31,16,36,11,7,0.7,1
2024-12-05T1400,1820A,114.361,36.0681,安阳市,银杏小区,细颗粒物(PM2.5),67,55,119,48,101,63,,28,28,20,33,11,7,1.3,1.6
2024-12-05T1400,3141A,114.3922,36.0878,安阳市,信访局,颗粒物(PM10),56,62,138,39,108,61,,32,32,22,34,10,7,0.6,1.1
2024-12-05T1400,3669A,114.4705,36.0637,安阳市,左辅环卫站,细颗粒物(PM2.5),60,67,126,43,90,63,,28,28,19,37,9,4,0.7,0.8
2024-12-05T1400,3703A,114.2917,36.0949,安阳市,安钢职工学校,细颗粒物(PM2.5),63,56,135,45,105,64,,30,30,24,44,9,6,0.6,0.9
2024-12-05T1400,1748A,123.044,41.1196,鞍山市,深沟寺,,30,28,36,21,21,59,,44,44,16,35,17,18,0.9,1.4
2024-12-05T1400,1749A,123.011,41.0931,鞍山市,太阳城,,24,24,37,12,23,69,,46,46,10,33,13,16,0.5,1.3
2024-12-05T1400,1750A,123.0485,41.1442,鞍山市,太平,,25,25,48,9,25,66,,38,38,10,44,12,20,0.6,1.7
2024-12-05T1400,1751A,122.9642,41.0971,鞍山市,铁西三道街,,25,25,65,6,34,64,,36,36,13,42,11,22,0.4,1.5
2024-12-05T1400,1752A,122.9341,41.0833,鞍山市,铁西工业园区,,28,28,55,9,32,67,,40,40,13,42,12,19,0.2,1.2
2024-12-05T1400,1753A,123.022,41.0821,鞍山市,明达新区,,22,22,39,13,22,62,,44,44,10,24,12,16,0.7,1.5
2024-12-05T1400,1754A,123.1289,41.0228,鞍山市,千山,,,,27,,16,,,39,,,17,,5,,1.1
2024-12-05T1400,2195A,107.4212,40.761,巴彦淖尔市,附二中,,39,39,48,13,22,76,,60,59,6,12,4,4,0.3,0.4
2024-12-05T1400,2196A,107.37,40.7372,巴彦淖尔市,市环保大楼,,32,32,41,8,21,77,,57,57,5,12,3,3,0.2,0.3
2024-12-05T1400,1956A,86.1472,41.7538,巴音郭楞蒙古自治州,孔雀公园,颗粒物(PM10),60,70,79,36,40,55,,50,47,26,32,7,6,0.5,0.5
2024-12-05T1400,1957A,86.1972,41.7166,巴音郭楞蒙古自治州,棉纺厂,颗粒物(PM10),70,90,93,21,34,61,,25,24,20,45,4,3,0.5,0.6
2024-12-05T1400,1958A,86.2357,41.7173,巴音郭楞蒙古自治州,经济开发区,颗粒物(PM10),55,60,75,13,27,62,,50,50,16,22,4,3,0.6,0.5
2024-12-05T1400,2914A,106.7677,31.8794,巴中市,苏山坪,,24,7,16,3,16,75,,74,74,7,11,4,5,0.4,0.4
2024-12-05T1400,3182A,106.7656,31.8545,巴中市,丽阳花园,,18,15,31,10,20,56,,30,30,22,32,3,3,0.4,0.6
2024-12-05T1400,3183A,106.7418,31.8654,巴中市,圣泉水务公司,,20,13,34,9,23,64,,38,38,17,33,3,4,0.2,0.5
2024-12-05T1400,3616A,106.7616,31.8344,巴中市,市中心医院,,18,17,33,12,30,44,,25,25,32,31,3,3,0.4,0.6
2024-12-05T1400,2235A,122.7911,45.6077,白城市,洮北区环保局,,20,15,17,3,12,63,,57,57,9,12,8,6,0.5,0.5
2024-12-05T1400,2236A,122.8738,45.5725,白城市,市环保局,,20,14,22,8,12,64,,48,48,8,15,6,4,0.5,0.4
2024-12-05T1400,2231A,126.4219,41.9171,白山市,喜丰,,23,23,44,8,17,73,,43,43,10,30,10,17,0.6,0.8
2024-12-05T1400,2232A,126.4077,41.9419,白山市,环保局,,,40,68,11,21,67,,32,32,,24,10,7,0.6,0.9
2024-12-05T1400,2647A,104.1724,36.5446,白银市,第三小学,颗粒物(PM10),62,73,63,37,28,73,,57,43,24,27,30,54,1.2,1
2024-12-05T1400,2648A,104.1465,36.5482,白银市,动力公司,颗粒物(PM10),57,63,51,33,25,82,,51,51,21,22,19,33,1.1,0.9
2024-12-05T1400,2512A,106.6103,23.9011,百色市,市监测站,,16,13,65,11,43,45,,43,42,12,23,6,13,0.9,1
2024-12-05T1400,2513A,106.6538,23.8859,百色市,市中心血站,,33,,73,23,46,41,,40,29,14,23,6,15,0.8,0.9
2024-12-05T1400,3406A,106.6085,23.8798,百色市,祈福高中,,30,23,77,21,42,45,,32,32,12,28,4,9,0.8,0.9
2024-12-05T1400,2270A,117.396,32.939,蚌埠市,工人疗养院,细颗粒物(PM2.5),112,113,97,84,72,68,,48,48,22,30,4,4,0.7,0.6
2024-12-05T1400,2271A,117.3605,32.9427,蚌埠市,百货大楼,细颗粒物(PM2.5),109,106,101,82,79,68,,46,46,20,31,5,4,0.6,0.6
2024-12-05T1400,2273A,117.4185,32.8911,蚌埠市,蚌埠学院,细颗粒物(PM2.5),103,85,75,77,65,70,,53,53,24,31,6,5,0.6,0.6
2024-12-05T1400,2274A,117.3533,32.9673,蚌埠市,淮上区政府,细颗粒物(PM2.5),120,105,99,91,80,74,,48,48,17,34,5,8,0.6,0.6
2024-12-05T1400,2275A,117.3145,32.8977,蚌埠市,高新区,细颗粒物(PM2.5),109,95,81,82,70,65,,46,46,25,38,6,6,0.6,0.6
2024-12-05T1400,3715A,117.3092,32.9314,蚌埠市,蚌埠田家炳中学,细颗粒物(PM2.5),115,112,102,87,75,68,,45,45,26,40,5,5,0.6,0.6
2024-12-05T1400,1585A,109.8756,40.6532,包头市,市环境监测站,颗粒物(PM10),54,57,26,36,18,62,,55,48,21,27,22,13,1.2,0.8
2024-12-05T1400,1587A,109.9991,40.5842,包头市,包头八中,颗粒物(PM10),51,52,44,10,26,54,,28,28,15,33,17,14,0.8,0.6
2024-12-05T1400,1588A,109.8538,40.6821,包头市,青山宾馆,,42,42,24,9,19,65,,54,50,13,23,13,11,0.5,0.5
2024-12-05T1400,1589A,109.8642,40.6288,包头市,惠龙物流,,46,46,41,20,24,66,,39,39,16,35,13,20,0.7,1.1
2024-12-05T1400,1590A,110.0377,40.5546,包头市,东河鸿龙湾,,20,18,28,12,12,64,,40,40,9,27,14,11,1.1,1
2024-12-05T1400,3283A,109.9154,40.5685,包头市,滨河大厦,,24,17,32,3,20,75,,45,45,9,28,7,11,0.4,0.6
2024-12-05T1400,3419A,109.9447,40.6261,包头市,包头市委党校,颗粒物(PM10),62,74,45,19,20,62,,46,44,22,30,17,12,1.1,0.6
2024-12-05T1400,3683A,109.8331,40.6576,包头市,昆区政府,颗粒物(PM10),57,64,32,11,22,60,,54,42,20,24,18,16,0.9,0.8
2024-12-05T1400,1930A,107.185,34.3063,宝鸡市,庙沟村,,37,37,35,20,21,80,,51,51,13,20,8,7,0.3,0.3
2024-12-05T1400,1931A,107.0708,34.3017,宝鸡市,竹园沟,,39,39,42,17,23,88,,31,31,11,23,8,7,0.3,0.4
2024-12-05T1400,1932A,107.1906,34.3672,宝鸡市,三陆医院,颗粒物(PM10),68,85,59,29,36,63,,27,27,30,41,7,6,0.5,0.6
2024-12-05T1400,1933A,107.1431,34.3547,宝鸡市,监测站,颗粒物(PM10),64,78,52,27,26,66,,33,33,27,33,8,7,0.5,0.6
2024-12-05T1400,1934A,107.1186,34.3739,宝鸡市,技工学校,颗粒物(PM10),57,63,53,19,28,76,,37,37,18,23,6,7,0.4,0.5
2024-12-05T1400,1935A,107.3906,34.3528,宝鸡市,陈仓区环保局家属楼,,48,48,72,17,44,84,,41,41,13,39,15,39,0.5,0.8
2024-12-05T1400,1936A,107.2058,34.3497,宝鸡市,文理学院,颗粒物(PM10),58,66,55,29,26,68,,30,30,20,32,8,6,0.4,0.4
2024-12-05T1400,1937A,107.2386,34.3622,宝鸡市,三迪小学,颗粒物(PM10),67,84,54,22,31,77,,28,28,21,42,10,6,0.4,0.5
2024-12-05T1400,1051A,115.493,38.8632,保定市,游泳馆,,32,32,93,3,64,73,,49,49,2,31,3,4,0.2,0.8
2024-12-05T1400,1052A,115.5213,38.8959,保定市,华电二区,,38,36,77,26,61,76,,53,53,2,44,2,4,0,0.5
2024-12-05T1400,1053A,115.4713,38.9108,保定市,接待中心,,22,22,87,11,61,69,,50,50,1,34,2,5,0,0.3
2024-12-05T1400,1054A,115.4612,38.8416,保定市,地表水厂,,30,30,103,8,61,80,,55,55,2,40,1,4,0.1,0.5
2024-12-05T1400,3581A,115.31981,38.95208,保定市,满城区生态环境分局,,24,14,77,3,45,76,,58,58,12,42,3,3,0.2,0.7
2024-12-05T1400,3582A,115.47694,38.76408,保定市,清苑区第二中学,,25,24,79,3,43,77,,58,58,8,35,4,7,0.2,0.5
2024-12-05T1400,3583A,115.62909,39.02311,保定市,徐水物探局,,,,94,,49,79,,46,46,2,44,,7,0.2,0.7
2024-12-05T1400,4004A,115.4202,38.8656,保定市,双鹰农机,,26,26,91,8,62,80,,51,51,1,40,1,4,0.2,0.6
2024-12-05T1400,4034A,115.5150,38.8590,保定市,植保所站,,24,22,93,11,64,76,,53,53,5,43,4,5,0.3,0.7
2024-12-05T1400,2594A,99.1678,25.1081,保山市,市环境监测站,,,,23,,9,,,65,,,7,,4,,0.3
2024-12-05T1400,2595A,99.1711,25.1328,保山市,市环保局,,25,24,25,9,18,78,,48,45,2,7,6,6,0.3,0.4
2024-12-05T1400,1866A,109.2262,21.588,北海市,牛尾岭水库,,,40,43,21,29,132,,82,82,,9,6,7,0.5,0.6
2024-12-05T1400,1867A,109.1436,21.4086,北海市,海滩公园,,50,50,42,27,22,147,,107,107,10,12,13,12,0.5,0.5
2024-12-05T1400,1868A,109.0981,21.4661,北海市,新市环保局,,50,50,41,27,24,134,,98,98,14,16,9,10,0.7,0.7
2024-12-05T1400,1869A,109.1778,21.5233,北海市,北海工业园,颗粒物(PM10),59,68,53,34,32,139,,91,91,17,18,11,14,0.8,0.7
2024-12-05T1400,3400A,109.1911,21.4415,北海市,龙潭自来水厂,颗粒物(PM10),51,52,42,31,29,144,,98,98,8,12,12,11,0.6,0.6
2024-12-05T1400,1001A,116.3621,39.8784,北京市,万寿西宫,,20,15,41,7,24,63,,50,50,11,37,3,3,0.0,0.3
2024-12-05T1400,1002A,116.2202,40.2915,北京市,定陵,,15,10,14,6,7,45,,37,37,3,8,5,3,0.2,0.2
2024-12-05T1400,1003A,116.4174,39.9289,北京市,东四,,20,20,33,7,15,62,,57,57,8,22,2,2,0.2,0.3
2024-12-05T1400,1004A,116.4072,39.8863,北京市,天坛,,22,19,34,8,18,69,,60,59,4,21,2,1,0.3,0.4
2024-12-05T1400,1005A,116.462,39.9365,北京市,农展馆,,21,18,35,7,17,66,,63,63,1,18,1,3,0.2,0.3
2024-12-05T1400,1006A,116.3392,39.9295,北京市,官园,,20,15,29,7,15,61,,60,56,3,17,3,3,0.4,0.4
2024-12-05T1400,1007A,116.2878,39.9611,北京市,海淀万柳,,19,18,18,6,7,60,,61,57,7,10,3,3,0.3,0.3
2024-12-05T1400,1008A,116.6636,40.135,北京市,顺义新城,,20,17,25,6,10,62,,44,44,2,34,3,2,0.2,0.3
2024-12-05T1400,1009A,116.6275,40.3275,北京市,怀柔镇,,22,11,17,3,9,68,,38,38,2,19,3,3,0.2,0.4
2024-12-05T1400,1010A,116.2296,40.217,北京市,昌平镇,,,,22,,9,,,56,,,21,,5,,0.2
2024-12-05T1400,1011A,116.3966,39.9821,北京市,奥体中心,,,,55,8,7,61,,60,59,6,14,4,4,0.4,0.4
2024-12-05T1400,1012A,116.184,39.9136,北京市,古城,,29,29,36,7,11,56,,51,50,5,16,5,5,0.1,0.3
2024-12-05T1400,3281A,115.9718,40.4529,北京市,延庆夏都,,19,12,16,7,8,58,,50,50,1,7,2,2,0.2,0.2
2024-12-05T1400,3417A,117.0709,40.1465,北京市,平谷新城,,19,12,33,3,17,60,,27,27,3,23,3,2,0.2,0.4
2024-12-05T1400,3418A,116.8336,40.4095,北京市,密云新城,,20,9,18,3,8,63,,30,30,2,25,1,2,0.1,0.2
2024-12-05T1400,3671A,116.088,39.9726,北京市,门头沟三家店,,22,22,27,8,10,59,,46,46,4,21,2,2,0.2,0.2
2024-12-05T1400,3672A,116.1541,39.8204,北京市,丰台云岗,,21,21,48,8,25,57,,57,57,4,23,3,3,0.2,0.3
2024-12-05T1400,3673A,116.6804,39.9081,北京市,通州东关,,29,29,44,8,19,57,,53,53,3,31,1,2,0.1,0.3
2024-12-05T1400,3674A,115.9577,39.7603,北京市,房山燕山,,18,16,47,9,28,56,,47,47,4,24,3,2,0.2,0.3
2024-12-05T1400,3675A,116.4672,39.7733,北京市,大兴旧宫,,19,18,50,3,25,59,,53,53,4,31,1,2,0.1,0.3
2024-12-05T1400,3694A,115.986,40.4563,北京市,延庆石河营,,20,12,15,7,8,63,,50,50,2,9,1,1,0.2,0.2
2024-12-05T1400,3695A,116.6151,40.3053,北京市,怀柔新城,,21,11,18,3,9,65,,36,36,2,13,1,2,0.1,0.2
2024-12-05T1400,3696A,116.2545,39.8768,北京市,丰台小屯,,23,23,46,8,22,57,,51,51,2,32,3,3,0.2,0.4
2024-12-05T1400,3697A,116.84,40.3844,北京市,密云镇,,20,13,29,3,10,61,,28,28,7,37,3,2,0.1,0.3
2024-12-05T1400,1761A,123.8275,41.3064,本溪市,大峪,,29,23,49,20,27,62,,29,29,15,45,16,17,0.6,1.9
2024-12-05T1400,1762A,123.7567,41.3325,本溪市,溪湖,,34,34,42,13,23,66,,31,31,11,31,12,15,0.4,1.5
2024-12-05T1400,1763A,123.7169,41.3094,本溪市,彩屯,,30,24,65,21,37,62,,31,31,17,44,13,15,0.5,1.5
2024-12-05T1400,1764A,123.7669,41.2864,本溪市,东明,,34,34,64,14,42,61,,29,29,20,45,20,19,0.7,1.8
2024-12-05T1400,1765A,123.7992,41.2664,本溪市,新立屯,,25,25,34,12,17,67,,43,43,17,46,13,11,0.6,1
2024-12-05T1400,1766A,123.8142,41.3472,本溪市,威宁,,28,28,73,14,31,67,,31,31,12,41,14,11,0.6,1.5
2024-12-05T1400,2587A,105.2864,27.3125,毕节市,八中,,36,28,32,25,27,40,,60,47,20,13,7,7,0.6,0.6
2024-12-05T1400,2588A,105.31,27.2944,毕节市,师专,,36,32,34,25,28,41,,57,44,14,11,5,5,0.6,0.6
2024-12-05T1400,3537A,105.3631,27.3533,毕节市,长征村,,,35,35,31,32,46,,63,48,,10,,7,0.7,0.6
2024-12-05T1400,1629A,118.0018,37.3617,滨州市,第二水厂,颗粒物(PM10),54,58,127,34,82,62,,23,23,18,58,14,13,0.4,0.9
2024-12-05T1400,1630A,117.9776,37.393,滨州市,北中新校,颗粒物(PM10),56,61,133,39,87,53,,22,22,19,60,6,23,0.6,1.3
2024-12-05T1400,3514A,117.9378,37.3956,滨州市,中海酒店,细颗粒物(PM2.5),67,63,135,48,94,66,,33,33,18,53,7,16,0.4,0.8
2024-12-05T1400,3515A,117.9378,37.3553,滨州市,开发区一中,颗粒物(PM10),60,70,129,36,83,64,,25,25,23,64,10,15,0.5,0.8
2024-12-05T1400,3516A,118.0917,37.694,滨州市,金海六路,,,100,123,75,79,,,,,26,51,1,10,0.6,1
2024-12-05T1400,4028A,117.9956,37.3753,滨州市,滨州市西街道办事处,"颗粒物(PM10),细颗粒物(PM2.5)",58,66,130,41,94,65,,26,26,16,51,12,12,0.5,0.9
2024-12-05T1400,2311A,115.8072,33.8399,亳州市,污水处理厂,细颗粒物(PM2.5),122,144,116,92,72,30,,14,14,28,27,3,5,0.9,0.9
2024-12-05T1400,2312A,115.7789,33.8518,亳州市,三国揽胜宫,细颗粒物(PM2.5),147,153,131,112,79,29,,13,13,33,32,3,4,0.8,0.8
2024-12-05T1400,3332A,115.7633,33.8034,亳州市,亳州学院,细颗粒物(PM2.5),142,158,124,108,75,21,,11,11,37,31,1,3,0.8,0.8
2024-12-05T1400,2693A,82.0485,44.8556,博尔塔拉蒙古自治州,市党校,,,30,44,18,28,,,5,3,15,16,4,4,0.5,0.7
2024-12-05T1400,2694A,82.0806,44.8969,博尔塔拉蒙古自治州,市环保局,,37,37,36,15,19,34,,47,42,26,15,2,3,0.5,0.6
2024-12-05T1400,1071A,116.8842,38.2991,沧州市,沧县城建局,,48,48,115,31,84,49,,23,23,24,58,9,8,0.5,0.8
2024-12-05T1400,1072A,116.8584,38.3254,沧州市,电视转播站,颗粒物(PM10),53,56,110,36,76,54,,24,24,20,53,4,5,0.5,0.7
2024-12-05T1400,1073A,116.8709,38.3228,沧州市,市环保局,细颗粒物(PM2.5),54,49,104,38,76,53,,24,24,19,52,4,5,0.5,0.8
2024-12-05T1400,3324A,116.8136,38.3004,沧州市,河北水利电力学院,,41,41,121,24,78,56,,27,27,17,50,8,10,0.3,0.7
2024-12-05T1400,2622A,97.1806,31.1273,昌都市,昌都监测站,,24,12,37,3,18,76,,47,47,8,32,6,7,0.6,1
2024-12-05T1400,3719A,97.1714,31.1406,昌都市,昌都会议中心,,23,11,14,3,9,73,,53,53,14,13,5,5,0.4,0.4
2024-12-05T1400,2690A,88.1236,43.8886,昌吉回族自治州,天山天池,,,0,4,,4,58,,56,52,5,4,3,3,0.6,0.5
2024-12-05T1400,2692A,87.2717,44.0297,昌吉回族自治州,新区政务中心,,,38,27,25,14,38,,50,39,21,18,,6,0.8,0.8
2024-12-05T1400,3613A,87.3095,44.0142,昌吉回族自治州,亚心广场,颗粒物(PM10),56,61,29,36,19,33,,53,38,32,23,7,6,0.6,0.6
2024-12-05T1400,1119A,125.3325,43.9166,长春市,食品厂,,20,20,36,10,12,58,,39,39,11,21,11,8,0.2,0.3
2024-12-05T1400,1120A,125.2863,43.9027,长春市,客车厂,,24,24,33,12,14,60,,39,39,8,23,9,11,0.1,0.2
2024-12-05T1400,1121A,125.2841,43.8463,长春市,邮电学院,,20,20,32,7,11,64,,41,41,8,27,10,19,0.2,0.3
2024-12-05T1400,1122A,125.3716,43.8772,长春市,劳动公园,,25,25,29,8,11,69,,45,45,7,24,10,14,0.2,0.3
2024-12-05T1400,1123A,125.3297,43.8805,长春市,园林处,,21,21,27,9,10,61,,41,41,6,20,9,10,0.2,0.3
2024-12-05T1400,1124A,125.4605,43.79,长春市,净月潭,,21,16,24,6,8,67,,48,48,5,12,7,8,0.2,0.3
2024-12-05T1400,1125A,125.7194,43.515,长春市,甩湾子,,15,14,19,7,10,48,,41,41,8,10,6,6,0.3,0.4
2024-12-05T1400,1126A,125.3863,43.8447,长春市,经开区环卫处,,,21,31,7,11,,,36,36,,24,12,18,0.4,0.4
2024-12-05T1400,1127A,125.245,43.7783,长春市,高新区管委会,,21,20,26,6,12,65,,44,44,6,17,7,7,0.3,0.4
2024-12-05T1400,1128A,125.1761,43.8325,长春市,岱山公园,,28,28,30,10,13,58,,46,46,7,11,8,7,0.4,0.5
2024-12-05T1400,1335A,113.0833,28.2325,长沙市,经开区环保局,,48,45,71,33,52,27,,45,32,28,21,1,1,0.6,0.6
2024-12-05T1400,1336A,112.8872,28.2189,长沙市,高开区环保局,细颗粒物(PM2.5),53,47,60,37,51,47,,54,47,16,14,4,4,0.6,0.6
2024-12-05T1400,1337A,113.0792,28.2053,长沙市,马坡岭,细颗粒物(PM2.5),57,55,72,40,57,29,,49,34,24,17,3,2,0.8,0.7
2024-12-05T1400,1338A,112.9394,28.19,长沙市,湖南师范大学,颗粒物(PM10),53,55,74,33,51,44,,53,44,18,16,5,6,0.6,0.5
2024-12-05T1400,1339A,113.0178,28.1322,长沙市,雨花区环保局,细颗粒物(PM2.5),52,46,63,36,57,37,,50,38,23,17,4,4,0.5,0.5
2024-12-05T1400,1340A,112.9792,28.2597,长沙市,伍家岭,颗粒物(PM10),51,51,66,35,50,34,,50,37,23,16,3,2,0.7,0.8
2024-12-05T1400,1341A,113.0014,28.1944,长沙市,火车新站,细颗粒物(PM2.5),62,53,64,44,63,39,,50,39,22,16,2,1,0.6,0.6
2024-12-05T1400,1342A,112.9844,28.1178,长沙市,天心区环保局,,,53,78,27,50,,,50,38,22,16,2,2,0.6,0.6
2024-12-05T1400,1343A,112.8908,28.1308,长沙市,湖南中医药大学,颗粒物(PM10),53,55,74,35,54,40,,55,44,24,17,5,5,0.7,0.7
2024-12-05T1400,1344A,112.9581,28.3611,长沙市,沙坪,,39,39,60,26,45,35,,48,39,14,11,6,6,0.4,0.5
2024-12-05T1400,1727A,113.1147,36.1547,长治市,清华站,,30,30,45,12,19,78,,52,52,14,27,10,13,0.4,0.5
2024-12-05T1400,1728A,113.1031,36.1989,长治市,监测站,,24,16,31,14,21,74,,45,45,9,21,12,14,0.5,0.6
2024-12-05T1400,1730A,113.0886,36.2125,长治市,审计局,,23,16,36,14,20,71,,43,43,10,22,8,10,0.3,0.4
2024-12-05T1400,1731A,113.0844,36.1856,长治市,长治八中,,32,,44,22,25,74,,43,43,7,19,9,11,0.4,0.5
2024-12-05T1400,2845A,113.1569,36.1911,长治市,德盛苑,,25,23,36,12,19,77,,50,50,8,18,4,9,0.7,0.8
2024-12-05T1400,3568A,113.06,36.0464,长治市,向阳小学,,36,33,55,25,29,85,,52,52,12,26,8,10,0.4,0.6
2024-12-05T1400,3569A,112.8792,36.3144,长治市,屯留一中,,29,6,26,3,16,91,,59,59,11,23,6,10,0.3,0.3
2024-12-05T1400,3570A,113.235,36.3489,长治市,潞城四中,,35,26,60,24,29,81,,47,47,12,28,9,17,0.7,0.9
2024-12-05T1400,1854A,111.6975,28.9703,常德市,市二中,,45,45,63,31,40,46,,58,47,22,12,4,4,0.6,0.6
2024-12-05T1400,1857A,111.7158,29.1456,常德市,白鹤山,,,,,,,,,,,,,,,,
2024-12-05T1400,3138A,111.7153,29.0289,常德市,武陵区永安,,50,50,60,32,42,55,,60,50,13,12,2,2,0.6,0.6
2024-12-05T1400,3139A,111.6892,28.9881,常德市,鼎城区玉霞,,46,46,64,27,40,54,,58,51,13,12,3,4,0.6,0.6
2024-12-05T1400,3140A,111.6625,29.0531,常德市,武陵区长庚,颗粒物(PM10),56,61,67,33,39,42,,56,42,18,13,7,3,0.5,0.5
2024-12-05T1400,1196A,119.9633,31.762,常州市,市监测站,细颗粒物(PM2.5),102,125,68,76,41,77,,58,58,22,32,8,9,0.6,0.6
2024-12-05T1400,1200A,119.9468,31.7069,常州市,武进监测站,细颗粒物(PM2.5),72,75,53,52,35,77,,46,46,23,38,8,8,0.7,0.7
2024-12-05T1400,1201A,119.9255,31.9087,常州市,安家,细颗粒物(PM2.5),108,115,67,81,45,80,,45,45,25,45,8,8,0.8,0.6
2024-12-05T1400,3002A,119.9805,31.8174,常州市,行政中心,细颗粒物(PM2.5),87,91,57,64,39,78,,51,51,24,38,8,9,0.5,0.5
2024-12-05T1400,3003A,120.0522,31.7748,常州市,经开区,细颗粒物(PM2.5),93,83,56,69,34,70,,47,47,32,43,9,10,0.8,0.8
2024-12-05T1400,3010A,119.9025,31.7964,常州市,钟楼,细颗粒物(PM2.5),92,98,66,68,42,77,,51,51,23,38,7,8,0.6,0.7
2024-12-05T1400,3429A,119.8598,31.7066,常州市,武进经发区,细颗粒物(PM2.5),92,92,67,68,45,80,,54,54,17,42,6,7,0.7,0.7
2024-12-05T1400,3430A,119.5826,31.7245,常州市,金坛城区,细颗粒物(PM2.5),84,85,69,62,46,95,,63,63,12,27,7,7,0.5,0.5
2024-12-05T1400,2220A,120.4318,41.5881,朝阳市,西梁,,33,33,41,3,19,70,,49,49,3,25,5,10,0.4,0.8
2024-12-05T1400,2221A,120.4521,41.5646,朝阳市,河畔小区,,34,34,33,3,16,66,,51,51,5,19,5,10,0.5,0.8
2024-12-05T1400,2222A,120.4176,41.5648,朝阳市,八里堡,颗粒物(PM10),54,58,43,13,16,74,,49,49,5,26,7,13,0.5,0.9
2024-12-05T1400,2223A,120.3806,41.5969,朝阳市,农业园区,,31,31,24,6,13,79,,61,61,2,14,6,11,0.3,0.4
2024-12-05T1400,1705A,116.6367,23.6719,潮州市,西园路,,46,41,53,32,40,111,,65,65,11,16,6,5,0.3,0.4
2024-12-05T1400,3026A,116.6183,23.6608,潮州市,市政府,,45,45,53,26,35,112,,68,68,10,17,7,7,0.6,0.7
2024-12-05T1400,4036A,116.6461,23.6761,潮州市,金山,,48,48,50,32,29,117,,65,65,10,16,9,8,0.5,0.6
2024-12-05T1400,2472A,113.0073,25.9061,郴州市,马头岭,,43,43,112,21,73,39,,37,37,18,24,8,11,0.5,0.7
2024-12-05T1400,2473A,113.0116,25.8226,郴州市,市职中,,44,44,98,27,82,32,,30,30,21,25,5,6,0.6,0.8
2024-12-05T1400,2474A,113.0161,25.8001,郴州市,兴隆步行街,细颗粒物(PM2.5),67,60,113,48,95,30,,29,29,19,21,6,7,0.7,0.8
2024-12-05T1400,2475A,113.0383,25.8071,郴州市,市审计局,细颗粒物(PM2.5),52,52,103,36,84,33,,31,30,14,14,4,6,0.7,0.9
2024-12-05T1400,2476A,113.0348,25.7759,郴州市,市环保局,细颗粒物(PM2.5),67,51,108,48,97,34,,32,30,15,19,4,7,0.6,0.8
2024-12-05T1400,1431A,103.9728,30.7236,成都市,金泉两河,颗粒物(PM10),56,61,68,30,40,29,,8,8,54,53,4,2,0.4,0.7
2024-12-05T1400,1432A,104.176,30.6872,成都市,十里店,,42,42,62,18,39,59,,20,20,29,47,3,3,0.4,0.6
2024-12-05T1400,1433A,104.079,30.5706,成都市,三瓦窑,颗粒物(PM10),53,56,61,24,32,51,,22,22,36,47,4,3,0.5,0.6
2024-12-05T1400,1434A,104.1114,30.63,成都市,沙河铺,,47,47,56,16,34,56,,21,21,26,38,4,4,0.4,0.6
2024-12-05T1400,1437A,104.0786,30.6531,成都市,君平街,颗粒物(PM10),53,56,61,26,38,48,,26,26,43,50,4,5,0.6,0.7
2024-12-05T1400,1438A,103.613,31.0283,成都市,灵岩寺,,,,,,,,,,,,,,,,
2024-12-05T1400,2880A,104.0239,30.65639,成都市,大石西路,颗粒物(PM10),55,59,64,25,36,44,,23,23,40,42,5,5,0.4,0.5
2024-12-05T1400,3136A,104.2725,30.5589,成都市,龙泉驿区区政府,,36,36,45,17,29,73,,41,41,14,24,5,4,0.4,0.5
2024-12-05T1400,3357A,104.0106,30.6931,成都市,金博路,颗粒物(PM10),51,51,62,24,37,34,,14,14,48,48,4,2,0.6,0.8
2024-12-05T1400,3359A,104.0578,30.5225,成都市,华阳,颗粒物(PM10),57,63,61,27,37,41,,19,19,34,42,2,2,0.4,0.7
2024-12-05T1400,3487A,104.2394,30.5319,成都市,车城东七路,,34,34,52,20,36,71,,30,30,17,37,4,4,0.3,0.5
2024-12-05T1400,3488A,104.3853,30.7453,成都市,青白江技师分院,,39,39,54,23,37,75,,29,29,16,43,8,8,0.6,0.7
2024-12-05T1400,3489A,104.0789,30.4072,成都市,科学城,,32,32,57,21,44,68,,18,18,17,37,5,5,0.4,0.6
2024-12-05T1400,4011A,103.8506,30.6947,成都市,光华大道三段,,50,50,69,28,43,44,,14,14,37,44,3,2,0.6,0.8
2024-12-05T1400,1062A,117.9531,40.9081,承德市,铁路,,24,24,47,3,22,68,,31,31,4,37,4,10,0.2,0.7
2024-12-05T1400,1063A,117.9392,40.9763,承德市,中国银行,,36,36,40,3,19,68,,31,31,2,26,2,3,0.2,0.5
2024-12-05T1400,1064A,117.9503,40.928,承德市,开发区,,33,33,46,14,22,70,,32,32,5,28,4,6,0.2,0.5
2024-12-05T1400,1065A,117.8051,40.9655,承德市,文化中心,,24,24,48,3,20,71,,34,34,2,31,2,6,0.2,0.5
2024-12-05T1400,1066A,117.9268,41.0026,承德市,离宫,,32,32,24,10,21,67,,38,38,2,10,2,2,0.2,0.3
2024-12-05T1400,2314A,117.47,30.6618,池州市,池州学院,,,65,51,51,38,74,,53,53,,26,,7,0.7,0.7
2024-12-05T1400,3237A,117.4918,30.6617,池州市,展览馆,细颗粒物(PM2.5),79,60,56,58,43,73,,54,54,20,28,8,7,0.6,0.7
2024-12-05T1400,3333A,117.5627,30.695,池州市,第八中学,细颗粒物(PM2.5),65,52,55,47,41,68,,53,53,19,27,4,6,0.6,0.7
2024-12-05T1400,3334A,117.5038,30.6243,池州市,第十二中学,细颗粒物(PM2.5),69,58,55,50,39,56,,53,53,21,26,2,4,0.7,0.8
2024-12-05T1400,1744A,118.9233,42.2816,赤峰市,松山一中,颗粒物(PM10),60,70,22,7,6,74,,58,58,5,11,7,9,0.4,0.4
2024-12-05T1400,1745A,118.9576,42.2728,赤峰市,哈达街,细颗粒物(PM2.5),68,,18,49,8,59,,65,49,16,18,7,7,0.4,0.5
2024-12-05T1400,1746A,118.8788,42.2554,赤峰市,天义路,颗粒物(PM10),53,56,19,17,8,71,,60,58,11,14,6,6,0.3,0.3
2024-12-05T1400,3058A,119.2658,42.0353,赤峰市,银河街,颗粒物(PM10),54,58,19,6,9,73,,64,60,9,12,12,13,0.3,0.4
2024-12-05T1400,3286A,118.9359,42.3147,赤峰市,桥北物流园区,,33,33,16,3,6,78,,58,58,10,16,8,9,0.7,0.7
2024-12-05T1400,2521A,107.3476,22.4136,崇左市,市环保局江州分局,,,70,77,32,45,,,106,106,6,17,8,10,0.8,0.9
2024-12-05T1400,2522A,107.3702,22.3707,崇左市,城南新区,颗粒物(PM10),53,55,62,26,45,158,,118,118,10,15,9,10,0.8,0.9
2024-12-05T1400,2298A,118.3093,32.3153,滁州市,老年大学,细颗粒物(PM2.5),80,81,55,59,43,98,,68,68,15,23,10,11,0.5,0.5
2024-12-05T1400,2299A,118.3244,32.2786,滁州市,人大宾馆,细颗粒物(PM2.5),84,76,52,62,47,97,,75,75,15,26,7,7,0.3,0.3
2024-12-05T1400,3207A,118.3118,32.3038,滁州市,市政府原办公楼,,,70,46,59,44,94,,73,73,15,22,5,5,,0.9
2024-12-05T1400,3331A,118.3267,32.2634,滁州市,图书馆,细颗粒物(PM2.5),78,84,59,57,42,96,,74,74,14,18,6,5,0.3,0.3
2024-12-05T1400,2605A,101.5482,25.0441,楚雄彝族自治州,州环境监测站,,23,12,21,3,15,72,,34,34,2,18,5,10,0.3,0.4
2024-12-05T1400,2606A,101.538,25.0492,楚雄彝族自治州,市经济开发区,,,,29,5,14,70,,33,33,4,19,5,10,0.5,0.6
2024-12-05T1400,2548A,107.5277,31.2827,达州市,达州职业技术学院,,43,34,35,30,27,20,,10,9,29,34,9,8,0.8,0.8
2024-12-05T1400,2549A,107.5086,31.2186,达州市,市环境监测站,,39,39,33,17,17,17,,20,9,38,37,6,7,0.7,0.6
2024-12-05T1400,2550A,107.4988,31.2132,达州市,凤凰小区,,39,31,26,27,18,17,,24,12,38,32,8,9,0.6,0.6
2024-12-05T1400,2551A,107.5082,31.1986,达州市,达县机关宾馆,,33,27,25,23,25,11,,19,9,44,46,7,8,0.7,0.7
2024-12-05T1400,2552A,107.4644,31.2124,达州市,市政中心,,38,38,32,12,17,27,,24,16,34,36,8,8,0.4,0.5
2024-12-05T1400,2614A,100.1542,25.7054,大理白族自治州,大理市环境监测站,,25,20,23,9,14,80,,63,63,4,11,6,7,0.4,0.5
2024-12-05T1400,2615A,100.2171,25.5811,大理白族自治州,大理古城,,29,13,18,3,10,90,,69,69,5,9,5,5,0.4,0.5
2024-12-05T1400,1109A,121.612,38.9741,大连市,甘井子,,30,30,25,8,11,69,,56,56,12,19,16,18,0.1,0.4
2024-12-05T1400,1110A,121.565,38.9511,大连市,周水子,,20,19,24,6,14,62,,45,45,14,36,13,10,0.4,0.4
2024-12-05T1400,1111A,121.5637,38.8845,大连市,星海三站,,23,16,20,3,10,71,,59,59,7,20,7,8,0.4,0.4
2024-12-05T1400,1112A,121.6302,38.9117,大连市,青泥洼桥,,21,21,24,6,12,57,,44,44,12,20,12,12,0.5,0.5
2024-12-05T1400,1113A,121.6251,38.8638,大连市,傅家庄,,22,18,21,6,11,69,,62,62,7,16,10,14,0.5,0.5
2024-12-05T1400,1114A,121.5213,38.8661,大连市,七贤岭,,24,13,19,3,10,74,,61,61,7,16,8,8,0.7,0.7
2024-12-05T1400,1115A,121.2529,38.8061,大连市,旅顺,,22,13,16,3,9,69,,68,68,4,9,9,10,0.5,0.5
2024-12-05T1400,1116A,121.7485,39.1311,大连市,金州,,,,26,,17,72,,57,57,7,16,,8,0.5,0.6
2024-12-05T1400,1117A,121.7811,39.0496,大连市,开发区,,26,26,27,8,13,68,,45,45,8,27,15,15,0.4,0.5
2024-12-05T1400,1118A,121.9762,39.0631,大连市,双D港,,26,13,19,3,10,82,,75,75,9,14,7,8,0.4,0.5
2024-12-05T1400,1789A,124.81117,46.03138,大庆市,大同区,,38,28,38,26,28,53,,43,39,10,20,6,6,0.3,0.4
2024-12-05T1400,1790A,125.129,46.533,大庆市,龙凤区,,38,37,27,26,20,42,,31,31,29,28,13,11,0.7,0.6
2024-12-05T1400,1791A,124.902,46.408,大庆市,红岗区,,35,,26,24,20,55,,46,42,11,22,6,6,0.4,0.4
2024-12-05T1400,1792A,125.153,46.586,大庆市,萨尔图区,,32,32,28,12,15,44,,45,36,35,29,8,7,0.5,0.4
2024-12-05T1400,1793A,124.9042,46.6215,大庆市,让胡路区,,36,29,21,25,22,51,,46,41,17,18,8,6,0.4,0.3
2024-12-05T1400,3481A,125.141,46.634,大庆市,萨区政府监测点,,18,15,16,12,10,51,,43,36,14,21,7,6,0.4,0.5
2024-12-05T1400,1721A,113.3819,40.1097,大同市,果树场,,21,18,55,3,35,66,,36,36,10,40,7,9,0.3,1
2024-12-05T1400,1723A,113.2994,40.0758,大同市,云冈宾馆,,23,19,39,7,18,73,,54,54,6,19,7,10,0.3,0.5
2024-12-05T1400,1724A,113.3444,40.0917,大同市,大同大学,,23,21,35,8,18,72,,46,46,4,23,4,7,0.3,0.5
2024-12-05T1400,1725A,113.2661,40.1269,大同市,安家小村,,22,14,38,9,20,70,,54,54,4,21,11,16,0.1,0.5
2024-12-05T1400,1726A,113.2711,40.0844,大同市,教育学院,,28,28,41,13,19,65,,46,46,11,27,6,10,0.4,0.5
2024-12-05T1400,3282A,113.3397,40.0597,大同市,大同市卫生学校,,23,20,37,16,19,67,,42,42,7,23,6,8,0.6,0.5
2024-12-05T1400,3565A,113.1367,40.1122,大同市,云冈站,,22,15,33,12,19,69,,57,57,7,20,8,11,0.2,0.3
2024-12-05T1400,3566A,113.1186,40.2556,大同市,图书馆,,23,21,31,14,20,72,,55,55,6,13,8,9,0.4,0.4
2024-12-05T1400,3567A,113.5931,40.0461,大同市,区一中,,23,22,45,6,16,72,,43,43,10,32,13,20,0.4,0.5
2024-12-05T1400,3676A,113.2802,40.0995,大同市,第二人民医院,,30,30,38,12,19,70,,56,56,8,21,10,13,0.3,0.4
2024-12-05T1400,2269A,124.1069,50.4097,大兴安岭地区,科技局,,24,11,7,10,15,76,,67,67,3,6,5,5,0.4,0.5
2024-12-05T1400,3663A,124.1164,50.4278,大兴安岭地区,红旗社区,,,6,7,3,6,72,,64,64,,8,6,7,0.2,0.3
2024-12-05T1400,1600A,124.3303,40.0625,丹东市,江湾东路,,49,49,74,21,50,55,,29,29,14,38,18,29,0.7,1.8
2024-12-05T1400,1601A,124.4256,40.1503,丹东市,临江后街,,40,29,69,28,47,67,,32,32,12,31,12,14,0.6,1
2024-12-05T1400,1602A,124.3933,40.1461,丹东市,元宝山,,38,38,63,22,39,60,,27,27,15,27,14,12,0.9,1.1
2024-12-05T1400,1603A,124.3633,40.1092,丹东市,民主桥,颗粒物(PM10),55,59,79,22,48,64,,30,30,14,42,15,13,0.8,1.6
2024-12-05T1400,3541A,109.5726,19.5167,儋州市,第一中学子站,,24,23,33,12,17,76,,75,75,1,3,5,5,0.4,0.5
2024-12-05T1400,3542A,109.5567,19.5187,儋州市,东坡学校子站,,26,21,30,10,14,83,,84,83,1,4,5,5,0.4,0.5
2024-12-05T1400,2616A,98.5842,24.428,德宏傣族景颇族自治州,德宏州监测站,,37,37,39,15,22,69,,30,30,16,26,17,18,0.6,0.7
2024-12-05T1400,3677A,98.5881,24.4368,德宏傣族景颇族自治州,芒市人民政府综合楼,,43,43,36,22,19,69,,29,29,16,16,20,11,0.5,0.6
2024-12-05T1400,1901A,104.4239,31.1208,德阳市,东山公园,,49,49,80,7,39,82,,63,63,11,25,2,7,0.4,0.6
2024-12-05T1400,1902A,104.3826,31.1317,德阳市,西小区,,44,44,65,9,41,78,,42,42,8,40,2,5,0.5,0.7
2024-12-05T1400,1904A,104.3553,31.1091,德阳市,耐火材料厂,,35,35,72,8,45,78,,36,36,8,41,4,6,0.3,0.6
2024-12-05T1400,3639A,104.4019,31.1244,德阳市,市教育局,,39,39,58,8,38,80,,45,45,12,40,3,5,0.5,0.7
2024-12-05T1400,1622A,116.3032,37.4674,德州市,儿童乐园,,41,41,135,22,85,68,,35,35,20,50,12,14,0.5,0.8
2024-12-05T1400,1624A,116.2991,37.4451,德州市,监理站,,39,39,133,17,92,73,,35,35,17,51,18,14,0.5,0.9
2024-12-05T1400,3066A,116.2721,37.4379,德州市,九衢泉纯净水厂,,,48,122,19,82,66,,29,29,15,47,,9,0.4,0.9
2024-12-05T1400,3371A,116.3728,37.4403,德州市,开发区人民医院,,41,41,136,17,86,70,,27,27,16,50,10,11,0.4,0.8
2024-12-05T1400,3372A,116.3572,37.4094,德州市,太阳城中学,,48,48,129,19,93,71,,28,28,19,58,11,9,0.5,0.9
2024-12-05T1400,3511A,116.5652,37.3319,德州市,陵城艺术中心,,,51,139,27,98,66,,26,26,,52,6,10,0.5,1
2024-12-05T1400,2621A,99.7056,27.8317,迪庆藏族自治州,迪庆州站,,25,19,28,14,17,78,,58,58,6,12,8,9,0.4,0.5
2024-12-05T1400,3180A,99.7136,27.8094,迪庆藏族自治州,质量技术监督局,,23,18,27,8,14,72,,47,47,6,14,7,8,0.4,0.6
2024-12-05T1400,2663A,104.6241,35.5734,定西市,东关小学,,33,33,71,21,38,69,,27,27,10,25,12,12,0.4,0.8
2024-12-05T1400,2664A,104.6194,35.5934,定西市,供电公司,,40,40,70,23,36,80,,25,25,10,36,12,13,0.3,0.8
2024-12-05T1400,1389A,113.7547,23.0494,东莞市,莞城梨川,颗粒物(PM10),59,68,74,37,38,126,,72,72,19,36,10,8,0.6,0.8
2024-12-05T1400,1390A,113.7944,23.0128,东莞市,东城石井,,46,44,60,32,31,118,,71,71,15,28,8,6,0.6,0.7
2024-12-05T1400,1391A,113.7383,22.9658,东莞市,南城西平,颗粒物(PM10),52,53,65,33,34,120,,62,62,18,54,3,3,0.7,0.7
2024-12-05T1400,3319A,113.7338,23.0381,东莞市,万江金泰,颗粒物(PM10),58,66,72,39,38,118,,67,67,28,40,9,6,0.7,0.7
2024-12-05T1400,3626A,113.7533,23.0202,东莞市,南城元岭,,50,50,68,34,37,112,,71,71,11,34,9,9,0.7,0.8
2024-12-05T1400,3627A,113.7875,23.0457,东莞市,东城主山,颗粒物(PM10),52,53,75,31,37,125,,75,75,17,51,11,9,0.6,0.7
2024-12-05T1400,1666A,118.6614,37.4309,东营市,市环保局,细颗粒物(PM2.5),117,122,110,88,75,68,,29,29,42,70,10,14,0.8,1
2024-12-05T1400,3036A,118.6904,37.4338,东营市,开发区管委会,细颗粒物(PM2.5),110,112,110,83,77,73,,28,28,37,68,9,13,1.0,1.1
2024-12-05T1400,3365A,118.5719,37.565,东营市,垦利区民丰路,细颗粒物(PM2.5),89,100,113,66,69,69,,25,25,34,53,9,13,0.6,0.7
2024-12-05T1400,3498A,118.5055,37.8612,东营市,河口城区,细颗粒物(PM2.5),64,68,91,46,59,77,,32,32,22,42,5,6,0.7,0.8
2024-12-05T1400,3646A,118.4978,37.4623,东营市,胜利站,细颗粒物(PM2.5),119,149,121,90,80,47,,24,24,44,62,10,14,1.0,1.2
2024-12-05T1400,3734A,118.35,37.26,东营市,理想之城,细颗粒物(PM2.5),110,127,125,83,80,58,,26,26,38,64,10,9,,0.9
2024-12-05T1400,1591A,110.0023,39.8129,鄂尔多斯市,综合楼,,28,17,20,3,9,89,,80,78,8,12,7,7,0.4,0.5
2024-12-05T1400,1592A,109.9486,39.8261,鄂尔多斯市,巴音孟克林场办事处,,25,17,23,7,12,77,,68,66,7,10,6,6,0.3,0.4
2024-12-05T1400,1593A,109.7736,39.5986,鄂尔多斯市,康泽苑,,,22,21,12,13,82,,69,67,,9,5,5,,0.5
2024-12-05T1400,1594A,109.8119,39.5989,鄂尔多斯市,华泰汽车城,,26,24,26,12,15,81,,68,66,7,12,5,4,0.3,0.4
2024-12-05T1400,1595A,109.9734,39.7884,鄂尔多斯市,奥林花园,,24,24,27,7,12,76,,67,64,9,13,8,6,0.3,0.4
2024-12-05T1400,2436A,114.8938,30.3994,鄂州市,市政府,,,53,41,42,40,,,43,43,25,29,10,6,0.7,0.9
2024-12-05T1400,2437A,114.8989,30.3714,鄂州市,赵家坝,细颗粒物(PM2.5),67,,45,48,38,84,,54,54,20,25,9,5,0.5,0.6
2024-12-05T1400,3654A,114.8094,30.4089,鄂州市,精准医疗中心,细颗粒物(PM2.5),58,50,41,41,42,86,,61,61,19,22,10,6,0.9,1
2024-12-05T1400,2454A,109.4978,30.2981,恩施土家族苗族自治州,湖北民院,,18,16,25,10,17,55,,36,32,10,12,7,6,0.4,0.5
2024-12-05T1400,2455A,109.4707,30.2798,恩施土家族苗族自治州,州电力总公司,,,23,23,13,16,56,,47,34,17,17,,7,0.7,0.7
2024-12-05T1400,3549A,109.5061,30.3772,恩施土家族苗族自治州,龙凤新区,,19,17,19,11,15,58,,47,38,12,10,6,6,0.2,0.3
2024-12-05T1400,2499A,108.3411,21.6158,防城港市,沙万,,43,43,62,22,39,136,,94,94,14,35,10,17,0.5,0.7
2024-12-05T1400,2500A,108.3514,21.7731,防城港市,防城档案局,颗粒物(PM10),51,52,112,27,52,149,,76,76,14,35,10,9,0.7,0.9
2024-12-05T1400,2501A,108.3506,21.6414,防城港市,大海花园,,,42,68,25,39,142,,97,97,,29,7,14,0.4,0.8
2024-12-05T1400,1371A,113.1294,23.0067,佛山市,湾梁,颗粒物(PM10),60,70,82,31,33,127,,47,47,32,59,8,8,0.7,0.8
2024-12-05T1400,1372A,113.1083,23.0478,佛山市,华材职中,细颗粒物(PM2.5),69,78,78,50,47,136,,51,51,30,53,10,9,0.6,0.7
2024-12-05T1400,1373A,113.144,23.0453,佛山市,南海气象局,颗粒物(PM10),55,59,74,37,43,126,,46,46,25,54,9,8,0.6,0.7
2024-12-05T1400,1374A,113.2881,22.8094,佛山市,顺德苏岗,颗粒物(PM10),53,56,70,36,40,133,,51,51,18,44,9,8,0.5,0.7
2024-12-05T1400,1376A,112.8383,22.8678,佛山市,高明孔堂,细颗粒物(PM2.5),84,79,74,62,51,140,,53,53,37,41,12,8,0.9,0.8
2024-12-05T1400,1377A,112.8836,23.1588,佛山市,三水监测站,细颗粒物(PM2.5),75,68,91,55,55,138,,59,59,23,84,8,10,0.8,0.9
2024-12-05T1400,1378A,112.867,23.185,佛山市,三水云东海,细颗粒物(PM2.5),63,58,75,45,50,142,,62,62,22,67,11,11,0.8,0.8
2024-12-05T1400,3625A,113.2544,22.7642,佛山市,容桂街道办,颗粒物(PM10),57,63,66,34,36,147,,68,68,23,50,8,8,0.6,0.7
2024-12-05T1400,1280A,119.3903,26.0543,福州市,鼓山,,,,35,,16,,,100,,,9,,1,,0.3
2024-12-05T1400,1282A,119.2681,26.0504,福州市,师大,,43,43,48,18,26,87,,95,86,15,12,3,3,0.5,0.5
2024-12-05T1400,1283A,119.2984,26.1028,福州市,五四北路,,36,36,45,17,24,80,,92,79,18,15,1,2,0.5,0.5
2024-12-05T1400,1284A,119.2648,26.0768,福州市,杨桥西路,,43,43,48,18,25,84,,95,86,14,12,1,1,0.4,0.4
2024-12-05T1400,1285A,119.317,26.0746,福州市,紫阳,,47,47,48,20,25,77,,93,76,20,14,3,2,0.5,0.4
2024-12-05T1400,3048A,119.5799,26.0936,福州市,九龙,,40,40,40,23,22,87,,84,84,11,8,4,2,0.4,0.4
2024-12-05T1400,3526A,119.5189,25.9664,福州市,吴航,,30,30,39,17,22,96,,97,96,9,9,3,3,0.4,0.4
2024-12-05T1400,1755A,123.7977,41.8491,抚顺市,望花区,,30,30,69,6,38,61,,30,30,8,47,5,12,0.4,1.2
2024-12-05T1400,1756A,123.9161,41.8822,抚顺市,顺城区,,26,26,67,3,37,70,,36,36,19,50,6,13,0.2,0.9
2024-12-05T1400,1757A,124.0436,41.8611,抚顺市,东洲区,,45,45,64,3,34,62,,30,30,9,36,6,12,0.2,1.1
2024-12-05T1400,1758A,123.9247,41.8642,抚顺市,新抚区,,,50,74,3,39,60,,27,27,9,40,5,11,,1
2024-12-05T1400,1759A,124.0972,41.8961,抚顺市,大伙房水库,,30,30,58,6,35,65,,33,33,6,42,9,15,0.3,1
2024-12-05T1400,1760A,123.7086,41.8391,抚顺市,沈抚新城,,28,28,55,3,33,65,,31,31,3,43,6,10,0.2,0.8
2024-12-05T1400,2376A,116.2127,28.0814,抚州市,桐源党溪,,39,39,75,26,47,43,,35,35,14,12,5,5,0.7,0.7
2024-12-05T1400,2377A,116.3544,27.9831,抚州市,市站,,47,47,76,25,48,44,,36,36,19,21,3,2,0.8,1.3
2024-12-05T1400,2378A,116.3565,27.963,抚州市,血防站,,35,35,71,20,48,44,,34,34,14,16,1,3,0.8,0.8
2024-12-05T1400,2379A,116.3564,28.0007,抚州市,采茶剧团,,38,38,65,20,49,40,,31,31,16,17,3,4,1.0,1
2024-12-05T1400,2380A,116.385,27.9647,抚州市,医学分院,,34,34,73,18,47,49,,37,37,16,18,3,5,1.1,1.2
2024-12-05T1400,2207A,121.6094,41.998,阜新市,工业园区,颗粒物(PM10),106,161,90,7,38,73,,37,37,10,34,8,24,0.3,0.8
2024-12-05T1400,2208A,121.6697,42.0279,阜新市,长青街,颗粒物(PM10),90,129,62,8,26,68,,35,35,11,26,6,20,0.3,0.8
2024-12-05T1400,2209A,121.6673,42.0705,阜新市,农业园区,颗粒物(PM10),63,75,33,3,7,69,,55,55,7,15,9,21,0.3,0.3
2024-12-05T1400,2210A,121.6717,42.0224,阜新市,东苑,颗粒物(PM10),97,143,55,8,33,57,,33,33,4,25,10,32,0.2,0.5
2024-12-05T1400,2211A,121.6506,42.0498,阜新市,玉龙新城,颗粒物(PM10),77,104,65,14,25,73,,43,43,3,30,4,11,0.4,0.7
2024-12-05T1400,2301A,115.8277,32.8929,阜阳市,市监测站,细颗粒物(PM2.5),183,155,96,138,85,65,,39,39,31,31,10,6,0.8,0.7
2024-12-05T1400,2303A,115.8554,32.8605,阜阳市,开发区,细颗粒物(PM2.5),139,183,112,106,79,68,,43,43,29,30,10,6,0.8,0.7
2024-12-05T1400,2875A,115.784,32.8892,阜阳市,阜阳职业技术学院,细颗粒物(PM2.5),169,158,100,128,78,75,,42,42,31,31,15,7,0.9,0.8
2024-12-05T1400,3468A,115.7901,32.8613,阜阳市,市规划展馆,细颗粒物(PM2.5),152,164,99,116,80,76,,45,45,32,32,13,6,0.7,0.6
2024-12-05T1400,3469A,115.836,32.9183,阜阳市,枣园社区,细颗粒物(PM2.5),168,156,98,127,78,73,,44,44,32,31,13,5,0.8,0.7
2024-12-05T1400,2669A,102.9099,34.9841,甘南藏族自治州,州政府,,25,25,53,10,25,79,,61,61,6,19,7,8,0.3,0.4
2024-12-05T1400,3380A,102.8914,34.9617,甘南藏族自治州,甘肃民族师范学院,,26,24,30,13,20,82,,73,73,14,25,8,6,0.4,0.5
2024-12-05T1400,2570A,101.9603,30.0475,甘孜藏族自治州,水桥子,,21,19,13,6,5,66,,55,55,13,17,7,7,0.4,0.4
2024-12-05T1400,3065A,101.9533,29.9972,甘孜藏族自治州,州环保局,,22,,12,6,6,70,,64,64,10,14,4,4,0.4,0.4
2024-12-05T1400,3414A,115.8347,28.932,赣江新区,桑海产业园,,22,22,86,13,61,39,,26,26,25,27,9,9,0.8,0.8
2024-12-05T1400,2362A,114.9017,25.9149,赣州市,通天岩,细颗粒物(PM2.5),112,,65,84,53,93,,79,79,10,10,4,4,0.6,0.5
2024-12-05T1400,2363A,114.9367,25.8664,赣州市,地委,细颗粒物(PM2.5),75,84,78,55,49,100,,85,84,12,16,5,12,1.0,1
2024-12-05T1400,2364A,114.9461,25.8481,赣州市,气象台,细颗粒物(PM2.5),69,80,84,50,47,93,,85,77,22,24,12,19,0.9,0.9
2024-12-05T1400,2365A,114.9322,25.8333,赣州市,市图书馆,细颗粒物(PM2.5),68,78,80,49,51,102,,95,84,13,16,6,10,1.0,1
2024-12-05T1400,2366A,114.8905,25.8471,赣州市,华坚鞋城,,,67,78,3,47,89,,80,73,13,16,,8,,0.6
2024-12-05T1400,3109A,115.0093,25.8613,赣州市,赣县区卫计委,细颗粒物(PM2.5),77,90,77,56,52,71,,64,64,15,24,6,6,0.8,0.9
2024-12-05T1400,2683A,106.2319,36.1417,固原市,马园,,47,47,65,10,26,78,,34,34,7,31,8,8,0.8,1
2024-12-05T1400,2684A,106.2792,36.0022,固原市,监测站,,32,32,43,13,18,80,,69,66,13,21,7,6,0.4,0.4
2024-12-05T1400,2685A,106.2375,36.0211,固原市,新区,,36,36,45,12,16,81,,73,67,8,20,4,3,0.1,0.3
2024-12-05T1400,3522A,106.2177,35.9959,固原市,原州区十五小,,43,43,48,18,18,82,,77,72,11,18,6,6,0.4,0.4
2024-12-05T1400,2543A,106.6308,30.5278,广安市,小平旧居,,,,,,,,,,,,,,,,
2024-12-05T1400,2544A,106.6303,30.4576,广安市,市委,,24,24,34,15,26,38,,52,37,18,16,2,2,0.5,0.5
2024-12-05T1400,2545A,106.6271,30.4663,广安市,友谊中学,,26,,30,18,25,41,,51,39,16,17,2,2,0.6,0.6
2024-12-05T1400,2547A,106.6388,30.4551,广安市,广电花园,,21,21,31,7,25,31,,52,34,28,20,1,2,0.7,0.7
2024-12-05T1400,2902A,106.6351,30.4865,广安市,北辰小学,,20,20,32,14,25,47,,52,40,15,15,4,3,0.7,0.7
2024-12-05T1400,2523A,105.8945,32.4535,广元市,黑石坡,,30,30,39,16,27,39,,52,41,27,15,6,6,0.5,0.4
2024-12-05T1400,2524A,105.821,32.4444,广元市,老城,,37,37,52,13,25,54,,53,49,27,31,1,2,0.5,0.6
2024-12-05T1400,2526A,105.8628,32.4287,广元市,监测站,,42,35,43,29,29,55,,56,55,30,29,5,5,0.6,0.7
2024-12-05T1400,3617A,105.8047,32.4166,广元市,经开区,,44,44,52,26,30,60,,57,56,25,33,4,4,0.4,0.5
2024-12-05T1400,1345A,113.2347,23.1423,广州市,广雅中学,颗粒物(PM10),56,61,79,31,41,114,,50,50,26,64,9,8,0.8,0.9
2024-12-05T1400,1346A,113.2612,23.105,广州市,市五中,颗粒物(PM10),52,54,69,34,43,116,,61,61,19,38,7,6,0.7,0.8
2024-12-05T1400,1348A,113.3478,23.0916,广州市,广东商学院,颗粒物(PM10),52,54,73,35,46,113,,55,55,27,68,5,5,0.7,0.8
2024-12-05T1400,1349A,113.4332,23.1047,广州市,市八十六中,颗粒物(PM10),62,74,85,41,38,80,,47,47,58,85,8,8,0.7,0.9
2024-12-05T1400,1350A,113.3505,22.9483,广州市,番禺中学,颗粒物(PM10),60,70,70,33,41,129,,58,58,21,52,7,6,0.7,0.8
2024-12-05T1400,1351A,113.2146,23.3916,广州市,花都师范,"颗粒物(PM10),细颗粒物(PM2.5)",53,55,80,37,44,133,,68,68,16,60,9,8,0.7,0.7
2024-12-05T1400,1352A,113.2597,23.1331,广州市,市监测站,颗粒物(PM10),53,55,64,28,37,116,,52,52,17,51,8,7,0.5,0.6
2024-12-05T1400,1353A,113.5618,23.312,广州市,九龙镇镇龙,细颗粒物(PM2.5),54,56,79,38,40,108,,47,47,12,45,6,6,0.6,0.7
2024-12-05T1400,1354A,113.2765,23.1544,广州市,麓湖,颗粒物(PM10),51,52,62,32,38,119,,50,50,16,62,6,5,0.5,0.7
2024-12-05T1400,1355A,113.443,23.3035,广州市,帽峰山森林公园,,47,47,37,28,28,132,,65,65,15,28,7,6,0.6,0.5
2024-12-05T1400,2846A,113.3221,23.1322,广州市,体育西,颗粒物(PM10),54,58,76,31,42,104,,50,50,12,51,6,5,0.7,0.8
2024-12-05T1400,3298A,113.5717,23.5491,广州市,从化街口,细颗粒物(PM2.5),53,53,58,37,38,119,,51,51,10,35,9,8,0.7,0.8
2024-12-05T1400,3299A,113.3472,23.3692,广州市,白云竹料,颗粒物(PM10),55,59,77,37,42,137,,62,62,15,51,9,8,0.7,0.8
2024-12-05T1400,3300A,113.2981,23.237,广州市,白云嘉禾,,,60,88,31,41,123,,44,44,24,76,9,8,,1.1
2024-12-05T1400,3301A,113.4256,23.1716,广州市,黄埔科学城,,42,42,64,26,35,118,,61,61,13,48,8,8,0.7,0.7
2024-12-05T1400,3302A,113.3942,23.0483,广州市,番禺大学城,颗粒物(PM10),58,66,93,31,36,121,,54,54,25,54,11,10,0.9,0.9
2024-12-05T1400,3303A,113.4922,22.8168,广州市,南沙黄阁,颗粒物(PM10),69,87,67,43,36,128,,62,62,37,50,7,7,0.7,0.8
2024-12-05T1400,3304A,113.5342,22.7896,广州市,南沙街,颗粒物(PM10),67,84,61,39,32,122,,72,72,38,38,6,4,0.7,0.7
2024-12-05T1400,3443A,113.2902,23.5544,广州市,花都梯面,细颗粒物(PM2.5),60,63,52,43,33,124,,67,67,10,34,14,9,0.7,0.6
2024-12-05T1400,3445A,113.7858,23.7478,广州市,从化良口,,,41,31,36,22,106,,55,55,7,18,8,6,,0.6
2024-12-05T1400,3446A,113.8051,23.2614,广州市,增城荔城,细颗粒物(PM2.5),54,46,50,38,36,112,,68,68,10,27,4,3,0.6,0.6
2024-12-05T1400,2505A,109.568,23.1478,贵港市,德智高中,,,,,,,,,,,,,,,,
2024-12-05T1400,2506A,109.6047,23.0666,贵港市,江南子站,细颗粒物(PM2.5),77,83,126,56,66,167,,82,82,17,48,14,15,0.8,1
2024-12-05T1400,2507A,109.6014,23.0948,贵港市,贵城子站,细颗粒物(PM2.5),78,81,90,57,61,151,,83,83,16,35,13,17,0.8,0.9
2024-12-05T1400,2508A,109.5669,23.1065,贵港市,荷城子站,颗粒物(PM10),71,92,87,48,50,131,,83,83,18,42,18,18,0.7,0.9
2024-12-05T1400,3405A,109.5886,23.1172,贵港市,新世纪学校,细颗粒物(PM2.5),75,92,80,55,48,142,,80,80,19,33,23,21,0.8,0.8
2024-12-05T1400,1439A,106.6899,26.5998,贵阳市,马鞍山,,17,17,15,7,6,41,,42,38,14,15,5,5,0.7,0.6
2024-12-05T1400,1440A,106.6971,26.5694,贵阳市,市环保站,,,22,15,21,16,41,,55,46,17,17,5,6,,0.2
2024-12-05T1400,1441A,106.6243,26.6266,贵阳市,鉴湖路,,28,,16,19,10,33,,40,35,8,9,4,5,0.6,0.6
2024-12-05T1400,1442A,106.7487,26.6343,贵阳市,燕子冲,,20,,14,14,20,50,,48,45,8,10,5,5,0.6,0.6
2024-12-05T1400,1443A,106.6555,26.4365,贵阳市,碧云窝,,22,22,23,9,12,36,,47,37,17,20,11,8,0.6,0.6
2024-12-05T1400,1444A,106.694,26.5161,贵阳市,中院村,,27,27,21,17,16,44,,51,45,11,15,9,10,0.8,0.7
2024-12-05T1400,1445A,106.7109,26.6027,贵阳市,红边门,,25,19,21,17,20,43,,50,41,15,18,10,11,0.7,0.7
2024-12-05T1400,1446A,106.7164,26.5699,贵阳市,新华路,,22,22,20,12,15,40,,50,46,13,15,6,5,0.6,0.6
2024-12-05T1400,1447A,106.674,26.5424,贵阳市,太慈桥,,25,19,14,17,10,36,,44,43,14,13,5,5,0.6,0.6
2024-12-05T1400,1552A,106.805,26.3003,贵阳市,桐木岭,,28,27,25,19,15,49,,48,46,2,4,5,6,0.7,0.7
2024-12-05T1400,1862A,110.4144,25.3167,桂林市,电子科大尧山校区,细颗粒物(PM2.5),54,,81,38,58,91,,96,86,12,13,5,9,0.6,0.8
2024-12-05T1400,1863A,110.2819,25.2697,桂林市,监测站,细颗粒物(PM2.5),54,52,95,38,87,92,,97,77,16,18,8,13,1.0,1.2
2024-12-05T1400,1864A,110.3089,25.2708,桂林市,龙隐路小学,细颗粒物(PM2.5),78,,86,57,85,100,,102,85,14,17,12,14,1.0,1.1
2024-12-05T1400,1865A,110.2869,25.2178,桂林市,八中,细颗粒物(PM2.5),64,53,93,46,76,92,,95,78,13,17,11,12,0.7,0.8
2024-12-05T1400,3403A,110.1764,25.2381,桂林市,创业大厦,细颗粒物(PM2.5),55,44,107,39,82,101,,96,83,18,20,7,12,0.7,0.9
2024-12-05T1400,3531A,110.296,25.1253,桂林市,旅游学院,细颗粒物(PM2.5),67,51,88,48,73,94,,98,87,19,20,10,12,0.9,1
2024-12-05T1400,2674A,100.2561,34.4714,果洛藏族自治州,玛沁县大武镇,,30,22,32,8,15,94,,52,52,1,6,10,10,0.4,0.5
2024-12-05T1400,1129A,126.5422,45.755,哈尔滨市,岭北,,46,36,34,32,26,56,,52,52,26,24,16,7,0.6,0.9
2024-12-05T1400,1130A,126.561,45.8167,哈尔滨市,松北商大,,46,46,32,28,21,53,,41,41,20,27,10,10,0.4,0.4
2024-12-05T1400,1131A,126.979,45.5419,哈尔滨市,阿城会宁,细颗粒物(PM2.5),79,,42,58,32,49,,38,38,17,21,13,8,0.5,0.7
2024-12-05T1400,1132A,126.599,45.7222,哈尔滨市,南岗学府路,细颗粒物(PM2.5),63,68,49,45,28,38,,39,39,33,28,12,11,0.6,0.6
2024-12-05T1400,1133A,126.689,45.7733,哈尔滨市,太平宏伟公园,细颗粒物(PM2.5),53,51,31,37,23,40,,37,37,33,25,14,11,0.7,0.7
2024-12-05T1400,1134A,126.635,45.7667,哈尔滨市,道外承德广场,细颗粒物(PM2.5),57,51,36,40,25,38,,35,35,41,31,17,11,0.8,0.7
2024-12-05T1400,1135A,126.685,45.7319,哈尔滨市,香坊红旗大街,细颗粒物(PM2.5),64,66,41,46,29,36,,34,34,39,30,14,12,0.5,0.4
2024-12-05T1400,1136A,126.6411,45.7258,哈尔滨市,动力和平路,细颗粒物(PM2.5),64,68,39,46,30,36,,34,34,33,28,13,11,0.5,0.4
2024-12-05T1400,1137A,126.593,45.7478,哈尔滨市,道里建国路,细颗粒物(PM2.5),65,56,35,47,27,36,,35,35,32,27,18,13,0.8,0.6
2024-12-05T1400,1138A,126.615,45.61,哈尔滨市,平房东轻厂,细颗粒物(PM2.5),58,61,42,41,28,50,,33,33,20,39,11,17,0.5,0.6
2024-12-05T1400,1139A,126.595,45.9855,哈尔滨市,呼兰师专,,32,32,36,19,33,54,,42,42,16,26,10,9,0.4,0.7
2024-12-05T1400,1140A,126.6206,45.6842,哈尔滨市,省农科院,细颗粒物(PM2.5),69,70,58,50,49,38,,31,31,31,41,16,12,0.6,0.8
2024-12-05T1400,2688A,93.5128,42.8172,哈密市,地区监测站,,39,34,55,27,25,56,,43,43,17,28,8,5,0.3,0.4
2024-12-05T1400,2689A,93.4961,42.8328,哈密市,哈密师范学校,,40,40,59,25,27,51,,37,37,22,44,7,6,0.3,0.5
2024-12-05T1400,2671A,100.9048,36.9639,海北藏族自治州,海晏县西海镇,,47,47,49,27,33,107,,70,70,14,21,19,22,0.6,0.7
2024-12-05T1400,3867A,102.0738,36.5056,海东市,平安区公安北苑,颗粒物(PM10),52,53,70,29,44,93,,44,39,16,25,24,18,0.6,0.7
2024-12-05T1400,1409A,110.576,19.9507,海口市,东寨港,,35,35,29,12,14,79,,81,80,4,3,12,12,0.5,0.5
2024-12-05T1400,1410A,110.3232,20.0574,海口市,海南大学,,38,38,41,18,18,103,,96,96,4,7,5,4,0.4,0.4
2024-12-05T1400,1411A,110.283,20.0053,海口市,秀英海南医院,,36,36,38,17,16,99,,98,97,6,7,3,3,0.3,0.3
2024-12-05T1400,1412A,110.338,19.9969,海口市,海南师范大学,,36,36,39,16,16,100,,98,97,4,5,5,5,0.4,0.4
2024-12-05T1400,1413A,110.33,20.0356,海口市,龙华路环保局宿舍,,44,44,37,17,16,103,,97,96,3,5,5,5,0.4,0.4
2024-12-05T1400,3539A,110.5111,19.9736,海口市,桂林洋子站,,30,30,36,16,16,94,,93,93,7,8,5,4,0.4,0.4
2024-12-05T1400,2673A,100.6188,36.2866,海南藏族自治州,共和县恰卜恰镇,细颗粒物(PM2.5),54,,42,38,26,88,,46,46,6,32,12,9,0.6,0.7
2024-12-05T1400,2676A,97.3731,37.3753,海西蒙古族藏族自治州,德令哈市,,30,28,29,12,15,95,,67,67,9,13,18,15,0.5,0.6
2024-12-05T1400,1048A,114.5302,36.6116,邯郸市,东污水处理厂,,20,14,123,12,95,62,,25,25,13,42,8,5,0.9,1.3
2024-12-05T1400,1049A,114.4918,36.5713,邯郸市,矿院,,21,17,133,12,98,67,,26,26,12,41,4,3,0.3,0.9
2024-12-05T1400,1050A,114.484,36.6133,邯郸市,丛台公园,,26,26,120,14,89,63,,26,26,16,42,6,5,0.8,1.2
2024-12-05T1400,3458A,114.7895,36.5593,邯郸市,香泉濮院小区,,28,28,141,10,101,64,,26,26,9,27,11,7,1.0,1.1
2024-12-05T1400,3579A,114.50634,36.77178,邯郸市,永年区实验高中,,25,25,154,9,94,65,,31,31,10,42,11,11,0.6,1.1
2024-12-05T1400,3580A,114.20016,36.44293,邯郸市,峰峰矿区临水派出所,,27,27,89,3,58,72,,56,56,6,23,10,13,0.6,1.1
2024-12-05T1400,2634A,106.9893,33.1842,汉中市,汉川机床厂子校,细颗粒物(PM2.5),72,60,46,52,35,41,,33,27,22,13,6,6,0.6,0.5
2024-12-05T1400,2635A,107.0154,33.0706,汉中市,市监测站,细颗粒物(PM2.5),88,91,75,65,58,33,,17,17,34,31,7,7,1.1,1.1
2024-12-05T1400,2636A,107.0089,33.1138,汉中市,鑫源开发区,细颗粒物(PM2.5),87,77,82,64,69,32,,70,70,33,39,7,8,0.9,1.1
2024-12-05T1400,2637A,107.007,33.0323,汉中市,南郑大河坎水厂,细颗粒物(PM2.5),72,78,83,52,62,47,,20,20,24,30,7,5,0.8,1.1
2024-12-05T1400,1223A,120.2072,30.2111,杭州市,滨江,,,39,42,29,29,41,,33,33,35,34,6,7,,0.5
2024-12-05T1400,1224A,120.0633,30.2747,杭州市,西溪,颗粒物(PM10),53,56,65,27,27,40,,33,33,40,51,6,6,0.7,0.6
2024-12-05T1400,1226A,120.3461,30.3153,杭州市,下沙,,46,46,37,28,21,34,,30,30,42,46,5,6,0.9,0.7
2024-12-05T1400,1227A,120.1269,30.2456,杭州市,卧龙桥,颗粒物(PM10),57,63,62,27,30,47,,35,35,34,53,7,7,0.7,0.5
2024-12-05T1400,1228A,120.1903,30.2692,杭州市,浙江农大,,43,34,41,30,26,34,,31,31,42,47,4,4,0.7,0.6
2024-12-05T1400,1230A,120.1197,30.3119,杭州市,和睦小学,颗粒物(PM10),51,52,58,33,34,37,,35,35,42,53,5,5,0.6,0.4
2024-12-05T1400,1231A,120.3019,30.4183,杭州市,临平镇,细颗粒物(PM2.5),72,62,52,52,31,49,,46,46,27,37,5,6,0.7,0.6
2024-12-05T1400,1232A,120.2697,30.1819,杭州市,城厢镇,颗粒物(PM10),52,53,48,33,25,37,,32,32,37,35,6,6,0.8,0.6
2024-12-05T1400,1233A,120.0883,30.1808,杭州市,云栖,,45,34,50,31,35,42,,30,30,34,52,6,7,0.7,0.7
2024-12-05T1400,3557A,119.9464,30.0494,杭州市,镇二中,,25,23,49,17,28,33,,18,18,29,44,5,6,0.6,0.6
2024-12-05T1400,3558A,119.7183,30.2367,杭州市,市府大楼,,36,36,61,20,34,42,,34,34,34,44,6,7,0.6,0.5
2024-12-05T1400,3656A,120.1556,30.2864,杭州市,消防大队,细颗粒物(PM2.5),57,58,66,40,39,50,,42,42,31,52,7,8,0.7,0.5
2024-12-05T1400,1270A,117.1959,31.7848,合肥市,明珠广场,细颗粒物(PM2.5),79,80,49,58,43,78,,54,54,19,27,7,7,0.6,0.6
2024-12-05T1400,1271A,117.3072,31.8764,合肥市,三里街,细颗粒物(PM2.5),83,83,55,61,41,85,,57,57,18,23,6,6,0.7,0.6
2024-12-05T1400,1272A,117.2588,31.8707,合肥市,琥珀山庄,细颗粒物(PM2.5),75,70,48,55,41,93,,62,62,20,26,4,4,0.8,0.7
2024-12-05T1400,1273A,117.1604,31.9052,合肥市,董铺水库,颗粒物(PM10),65,80,45,46,27,85,,52,52,10,19,4,4,0.4,0.3
2024-12-05T1400,1274A,117.25,31.8571,合肥市,长江中路,细颗粒物(PM2.5),87,80,52,64,45,85,,61,61,18,24,7,6,0.8,0.7
2024-12-05T1400,1275A,117.266,31.9436,合肥市,庐阳区,细颗粒物(PM2.5),79,80,52,58,35,92,,53,53,19,26,5,4,0.7,0.6
2024-12-05T1400,1276A,117.336,31.8586,合肥市,瑶海区,细颗粒物(PM2.5),80,75,51,59,39,84,,60,60,23,29,9,8,0.8,0.7
2024-12-05T1400,1277A,117.3027,31.7964,合肥市,包河区,细颗粒物(PM2.5),77,83,56,56,41,82,,56,56,20,40,3,2,0.5,0.6
2024-12-05T1400,1278A,117.2776,31.7385,合肥市,滨湖新区,细颗粒物(PM2.5),70,83,57,51,37,78,,55,55,21,28,7,6,0.3,0.3
2024-12-05T1400,1279A,117.1318,31.8403,合肥市,高新区,细颗粒物(PM2.5),64,63,48,46,39,82,,60,60,21,26,3,2,0.5,0.5
2024-12-05T1400,3464A,117.3803,31.9147,合肥市,高教基地,,,75,49,55,40,85,,55,55,23,22,,6,0.5,0.4
2024-12-05T1400,3614A,79.924,37.0877,和田地区,地区环保局,颗粒物(PM10),98,145,133,48,50,78,,56,49,15,36,14,19,0.9,1.2
2024-12-05T1400,3615A,79.9131,37.113,和田地区,市环保局,细颗粒物(PM2.5),99,114,105,74,53,88,,38,38,24,53,17,16,1.1,2.1
2024-12-05T1400,2516A,108.2011,24.715,河池市,东仁乐园,,35,24,74,24,49,51,,52,49,7,29,3,5,1.1,0.9
2024-12-05T1400,2517A,108.0497,24.6947,河池市,市环保站,,22,22,60,12,45,58,,58,56,12,30,8,10,0.7,0.8
2024-12-05T1400,2518A,108.0983,24.6989,河池市,市疾控中心,,18,16,57,12,41,57,,57,54,12,38,9,11,0.7,0.7
2024-12-05T1400,1696A,114.6778,23.7569,河源市,源西,细颗粒物(PM2.5),54,50,44,38,35,94,,53,53,8,33,6,6,0.5,0.5
2024-12-05T1400,1697A,114.6944,23.7586,河源市,东埔,细颗粒物(PM2.5),58,56,47,41,38,101,,64,64,11,35,5,5,0.7,0.7
2024-12-05T1400,1698A,114.6892,23.7233,河源市,老城,细颗粒物(PM2.5),57,50,39,40,30,101,,55,55,9,24,5,4,0.7,0.6
2024-12-05T1400,1718A,115.4208,35.2464,菏泽市,气象局,细颗粒物(PM2.5),212,206,166,162,111,57,,18,18,30,38,4,3,0.9,0.8
2024-12-05T1400,1719A,115.4747,35.2375,菏泽市,市政协,细颗粒物(PM2.5),203,202,174,153,117,56,,23,23,34,35,5,5,1.0,0.9
2024-12-05T1400,3374A,115.5564,35.0891,菏泽市,定陶老年大学,细颗粒物(PM2.5),213,200,158,163,116,52,,18,18,32,46,7,6,0.7,1
2024-12-05T1400,3647A,115.4702,35.2706,菏泽市,菏泽医专,细颗粒物(PM2.5),201,196,164,151,107,60,,23,23,40,42,7,7,0.9,0.8
2024-12-05T1400,2514A,111.5264,24.4172,贺州市,环保小区,细颗粒物(PM2.5),143,110,106,109,80,89,,84,77,17,25,6,8,1.0,1
2024-12-05T1400,2515A,111.5608,24.4078,贺州市,政协大楼,细颗粒物(PM2.5),115,122,109,87,78,102,,93,88,18,29,8,10,1.0,0.9
2024-12-05T1400,3534A,111.4744,24.4553,贺州市,西湾,细颗粒物(PM2.5),144,145,111,110,82,83,,88,78,18,18,6,8,0.9,0.8
2024-12-05T1400,2385A,114.17,35.9019,鹤壁市,市监测站,细颗粒物(PM2.5),120,129,134,91,87,76,,35,35,22,37,12,3,0.8,0.7
2024-12-05T1400,2386A,114.2956,35.7511,鹤壁市,市交警支队,细颗粒物(PM2.5),110,105,150,83,96,68,,29,29,19,37,4,4,0.8,1
2024-12-05T1400,2387A,114.2878,35.7306,鹤壁市,迎宾馆,细颗粒物(PM2.5),114,134,159,86,99,69,,27,27,16,34,12,5,0.6,0.6
2024-12-05T1400,3474A,114.2617,35.6822,鹤壁市,大新区,细颗粒物(PM2.5),155,188,131,118,115,66,,,,20,33,16,4,1.3,1
2024-12-05T1400,3596A,114.1572,35.9603,鹤壁市,南山宾馆,细颗粒物(PM2.5),99,97,121,74,94,85,,63,63,5,23,6,7,0.3,0.5
2024-12-05T1400,2244A,130.2537,47.3416,鹤岗市,哈啤分公司,,23,23,24,13,18,58,,45,42,4,12,17,16,0.4,0.5
2024-12-05T1400,2245A,130.2684,47.3086,鹤岗市,斯达机电,,26,18,25,18,18,59,,54,51,12,20,16,16,0.2,0.3
2024-12-05T1400,2246A,130.3114,47.3388,鹤岗市,东山纸板厂,,19,10,32,10,32,60,,39,39,10,27,13,14,0.4,1.1
2024-12-05T1400,2247A,130.1097,47.3382,鹤岗市,五号水库,,29,29,25,8,12,79,,63,61,4,7,9,10,0.2,0.1
2024-12-05T1400,2263A,127.4833,50.2524,黑河市,交通局,,28,,32,19,24,58,,35,33,20,25,6,7,0.3,0.4
2024-12-05T1400,2264A,127.5144,50.2341,黑河市,环保局,,23,20,23,16,22,63,,35,32,8,20,4,7,0.3,0.4
2024-12-05T1400,2265A,127.5291,50.2472,黑河市,大黑河岛,,,16,29,,,58,,27,27,13,24,2,2,0.6,0.7
2024-12-05T1400,1074A,115.6838,37.7541,衡水市,电机北厂,,41,41,104,16,69,66,,42,42,12,30,5,7,0.3,0.6
2024-12-05T1400,1075A,115.6303,37.7316,衡水市,市监测站,,42,42,106,20,74,58,,32,32,19,44,7,7,0.3,0.7
2024-12-05T1400,3188A,115.6683,37.7217,衡水市,市城管局,,37,37,106,16,71,65,,38,38,16,36,5,6,0.4,0.7
2024-12-05T1400,3459A,115.5989,37.5491,衡水市,地表水厂,,32,26,111,22,90,64,,39,39,12,45,5,10,0.3,0.7
2024-12-05T1400,2456A,112.5003,26.9167,衡阳市,原169医院,,30,24,57,21,48,26,,30,26,24,22,4,6,0.7,0.8
2024-12-05T1400,2457A,112.6194,26.9258,衡阳市,衡阳化工总厂,,40,36,73,28,70,33,,43,35,17,17,8,8,0.7,0.8
2024-12-05T1400,2458A,112.6211,26.8956,衡阳市,珠晖区环保局,细颗粒物(PM2.5),59,,74,42,77,30,,43,36,22,21,8,8,0.8,0.9
2024-12-05T1400,2459A,112.6197,26.8733,衡阳市,市委党校,,45,38,73,31,71,34,,47,38,21,20,17,17,0.7,0.8
2024-12-05T1400,2460A,112.6006,26.8919,衡阳市,市监测站,,49,44,93,34,73,36,,47,38,15,15,8,9,0.7,0.8
2024-12-05T1400,2461A,112.5664,26.9056,衡阳市,真空机电公司,,,,66,40,76,38,,49,40,13,14,4,5,,0.8
2024-12-05T1400,3399A,112.6703,26.882,衡阳市,师范学院,,34,34,74,21,49,32,,49,38,21,20,8,9,0.8,0.8
2024-12-05T1400,2608A,103.3772,23.3993,红河哈尼族彝族自治州,污水处理厂,,,,27,,28,74,,55,55,4,7,5,5,0.4,0.5
2024-12-05T1400,2609A,103.3861,23.35,红河哈尼族彝族自治州,监测站,,30,23,31,21,30,75,,56,56,6,9,10,9,0.6,0.6
2024-12-05T1400,3038A,103.3758,23.368,红河哈尼族彝族自治州,州图书馆,,22,17,23,10,20,68,,53,53,6,7,6,6,0.5,0.5
2024-12-05T1400,1090A,111.6507,40.7517,呼和浩特市,呼市一监,,29,29,54,11,31,60,,23,23,12,33,10,8,0.5,0.7
2024-12-05T1400,1091A,111.6572,40.8033,呼和浩特市,小召,,31,31,46,17,25,58,,30,30,18,33,10,9,0.4,0.6
2024-12-05T1400,1094A,111.7516,40.8369,呼和浩特市,如意水处理厂,,,43,47,23,24,54,,28,28,,35,8,7,0.6,0.6
2024-12-05T1400,1095A,111.7276,40.8062,呼和浩特市,二十九中,,42,42,43,22,25,57,,30,30,17,34,9,7,0.6,0.6
2024-12-05T1400,1096A,111.5512,40.7866,呼和浩特市,工大金川校区,,33,33,57,9,27,66,,28,28,9,40,6,6,0.4,0.7
2024-12-05T1400,1097A,111.717,40.7612,呼和浩特市,化肥厂生活区,,32,32,62,15,32,58,,27,27,17,39,10,8,0.3,0.6
2024-12-05T1400,3698A,111.5968,40.8178,呼和浩特市,红旗小学,,27,27,45,12,23,58,,24,24,14,37,7,5,0.4,0.6
2024-12-05T1400,3699A,111.6518,40.8389,呼和浩特市,海东办,,34,34,31,18,18,57,,28,28,17,35,9,7,0.6,0.7
2024-12-05T1400,2192A,119.7594,49.2261,呼伦贝尔市,区环保局,,25,25,22,3,14,69,,59,59,8,16,7,7,0.3,0.3
2024-12-05T1400,3061A,119.7512,49.1577,呼伦贝尔市,国华电力东,,23,23,22,14,15,72,,62,62,5,9,4,5,0.2,0.3
2024-12-05T1400,1250A,120.0751,30.8669,湖州市,城西水厂,颗粒物(PM10),55,60,47,34,23,49,,59,55,27,31,6,6,0.7,0.6
2024-12-05T1400,2873A,120.0875,30.8955,湖州市,仁皇山新区,细颗粒物(PM2.5),54,48,40,38,25,55,,59,56,25,27,7,7,0.7,0.6
2024-12-05T1400,2907A,120.1844,30.8596,湖州市,吴兴区站,,,80,51,48,27,45,,60,57,,31,,7,1.1,0.6
2024-12-05T1400,3562A,120.4148,30.8538,湖州市,南浔区站,颗粒物(PM10),62,74,53,41,20,48,,46,46,27,36,6,6,0.7,0.4
2024-12-05T1400,1607A,120.9092,40.7136,葫芦岛市,龙港区,,27,27,25,3,15,68,,55,55,6,26,10,16,0.2,0.3
2024-12-05T1400,1608A,120.8392,40.7514,葫芦岛市,化工街,,,22,78,14,42,65,,38,38,32,42,,45,,0.9
2024-12-05T1400,1609A,120.8341,40.7073,葫芦岛市,新区,,22,22,33,3,18,69,,45,45,3,42,11,18,0.2,0.4
2024-12-05T1400,1610A,120.8695,40.7677,葫芦岛市,东城区,,37,37,78,8,44,69,,36,36,4,46,11,59,0.8,1.5
2024-12-05T1400,2482A,109.5981,27.5721,怀化市,林科所,,18,,27,11,27,57,,65,58,8,10,6,5,0.3,0.4
2024-12-05T1400,2483A,109.9453,27.5444,怀化市,河西地税局,,24,24,45,12,32,53,,63,54,16,15,6,6,0.4,0.5
2024-12-05T1400,2484A,109.9781,27.5342,怀化市,市四医院,,23,19,38,16,32,54,,61,53,9,9,9,9,0.5,0.6
2024-12-05T1400,2485A,109.9972,27.5578,怀化市,监测楼,,18,16,41,11,28,57,,62,54,10,11,5,4,0.5,0.5
2024-12-05T1400,2486A,110.0394,27.583,怀化市,市委党校,,17,11,40,10,25,52,,57,49,9,11,4,4,0.4,0.5
2024-12-05T1400,1210A,119.036,33.5981,淮安市,钵池山,细颗粒物(PM2.5),142,127,125,108,96,94,,58,58,21,34,8,7,0.8,0.8
2024-12-05T1400,1211A,119.007,33.575,淮安市,北京南路,细颗粒物(PM2.5),119,107,128,90,90,94,,45,45,19,47,9,9,1.0,1
2024-12-05T1400,1212A,118.989,33.6067,淮安市,市监测站,细颗粒物(PM2.5),119,122,139,90,107,99,,47,47,19,52,6,7,0.9,1
2024-12-05T1400,1213A,119.135,33.5039,淮安市,楚州区监测站,细颗粒物(PM2.5),153,156,132,117,93,86,,48,48,25,47,8,7,0.8,0.7
2024-12-05T1400,1214A,119.0186,33.6297,淮安市,淮阴区监测站,细颗粒物(PM2.5),138,149,150,105,95,96,,48,48,25,51,7,8,0.9,1
2024-12-05T1400,3426A,118.8755,33.2894,淮安市,新华书店,细颗粒物(PM2.5),147,126,103,112,79,86,,51,51,22,25,8,7,0.8,0.7
2024-12-05T1400,2282A,116.8004,33.975,淮北市,监测站,细颗粒物(PM2.5),152,143,145,116,102,13,,5,5,33,38,2,4,1.1,1
2024-12-05T1400,2283A,116.8091,33.9007,淮北市,烈山区政府,细颗粒物(PM2.5),158,133,148,120,105,19,,9,9,38,54,3,4,0.9,0.8
2024-12-05T1400,3330A,116.8873,33.9836,淮北市,杜集区检察院,细颗粒物(PM2.5),160,155,147,122,109,20,,7,7,39,46,2,4,0.9,0.8
2024-12-05T1400,4017A,116.7923,33.9535,淮北市,市博物馆,细颗粒物(PM2.5),149,133,148,114,104,20,,8,8,39,50,2,3,1.0,0.9
2024-12-05T1400,2277A,116.8305,32.7727,淮南市,潘集区政府,细颗粒物(PM2.5),122,110,101,92,81,67,,53,53,20,36,7,6,0.7,0.7
2024-12-05T1400,2278A,117.0067,32.6524,淮南市,师范学院,细颗粒物(PM2.5),107,108,105,80,80,69,,54,54,21,30,5,3,0.7,0.5
2024-12-05T1400,2279A,116.8569,32.5951,淮南市,谢家集区政府,细颗粒物(PM2.5),109,94,80,82,72,68,,56,56,17,28,8,8,0.7,0.5
2024-12-05T1400,2280A,116.8281,32.633,淮南市,八公山区政府,细颗粒物(PM2.5),107,106,91,80,73,74,,61,61,15,22,7,7,0.7,0.6
2024-12-05T1400,2281A,116.6325,32.6201,淮南市,焦岗湖风景区管理处,细颗粒物(PM2.5),83,78,64,61,49,52,,29,29,15,31,5,4,0.4,0.4
2024-12-05T1400,2894A,117.0566,32.6531,淮南市,经济技术开发区消防队,细颗粒物(PM2.5),105,91,84,79,63,73,,56,56,18,33,5,4,0.7,0.5
2024-12-05T1400,3329A,117.0108,32.5893,淮南市,山南新区,细颗粒物(PM2.5),104,97,83,78,66,73,,57,57,15,26,3,3,0.5,0.4
2024-12-05T1400,2446A,114.9028,30.4742,黄冈市,职工中心,细颗粒物(PM2.5),63,68,49,45,43,82,,51,51,16,19,14,9,0.7,0.8
2024-12-05T1400,2929A,114.8858,30.4519,黄冈市,红卫路,细颗粒物(PM2.5),68,62,42,49,36,82,,52,52,20,24,10,6,0.7,0.8
2024-12-05T1400,3398A,114.9136,30.4445,黄冈市,市林业局,颗粒物(PM10),56,62,53,39,39,88,,62,62,13,17,12,8,0.7,0.7
2024-12-05T1400,2672A,102.0199,35.5102,黄南藏族自治州,同仁县隆务镇,细颗粒物(PM2.5),63,53,59,45,41,98,,79,79,10,10,9,9,0.7,0.6
2024-12-05T1400,2295A,118.2903,29.6963,黄山市,延安路89号,,20,19,49,14,34,27,,38,22,18,16,7,7,0.4,0.4
2024-12-05T1400,2296A,118.327,29.7178,黄山市,黄山东路89号,,24,24,62,9,36,26,,35,20,17,16,6,6,0.5,0.4
2024-12-05T1400,2297A,118.1371,30.2756,黄山市,黄山区政府5号楼,,28,25,60,19,34,51,,26,26,20,29,7,8,0.4,0.4
2024-12-05T1400,2423A,115.0601,30.2313,黄石市,沈家营,颗粒物(PM10),51,51,61,31,38,83,,49,49,20,29,10,8,0.8,1
2024-12-05T1400,2424A,115.0817,30.2006,黄石市,陈家湾,细颗粒物(PM2.5),57,60,57,40,48,83,,49,49,18,26,12,8,0.8,0.9
2024-12-05T1400,2426A,114.8988,30.2019,黄石市,铁山,细颗粒物(PM2.5),59,51,49,42,46,90,,59,59,13,26,11,10,0.8,0.7
2024-12-05T1400,2427A,115.0307,30.2092,黄石市,团城山,细颗粒物(PM2.5),55,53,57,39,42,85,,53,53,18,25,8,7,0.9,0.9
2024-12-05T1400,3149A,115.0235,30.1578,黄石市,笔架山北路,细颗粒物(PM2.5),64,,54,46,45,84,,51,51,21,28,19,10,0.9,1.1
2024-12-05T1400,1392A,114.4183,23.0528,惠州市,河南岸金山湖子站,,46,46,56,30,31,91,,53,53,7,20,7,8,0.5,0.5
2024-12-05T1400,1393A,114.4053,23.0822,惠州市,下埔横江三路子站,,44,44,58,25,30,114,,73,73,8,18,8,7,0.4,0.4
2024-12-05T1400,1394A,114.4103,23.1142,惠州市,江北云山西路子站,,42,42,56,26,30,110,,72,71,8,18,8,9,0.6,0.6
2024-12-05T1400,1395A,114.4645,22.7833,惠州市,惠阳区承修路船湖子站,颗粒物(PM10),56,62,65,29,26,97,,49,49,12,23,8,8,0.4,0.5
2024-12-05T1400,1396A,114.5317,22.7422,惠州市,大亚湾管委会子站,,,54,49,26,21,114,,90,87,,15,8,7,0.6,0.5
2024-12-05T1400,3314A,114.4338,22.8134,惠州市,惠阳秋长,,44,44,45,27,24,112,,75,75,11,20,6,7,0.6,0.6
2024-12-05T1400,3452A,114.6517,22.775,惠州市,大亚湾霞涌,,49,46,44,34,28,124,,83,83,10,13,6,7,0.4,0.2
2024-12-05T1400,2240A,130.9762,45.3001,鸡西市,环保局,,19,13,15,10,8,59,,59,56,4,4,6,6,0.4,0.4
2024-12-05T1400,2243A,130.9429,45.3039,鸡西市,第一中学,,21,11,15,9,7,67,,66,66,4,4,5,5,0.3,0.3
2024-12-05T1400,3707A,131.0207,45.3073,鸡西市,欧美日汽修厂,,20,15,22,7,14,64,,60,59,11,14,15,22,0.4,0.6
2024-12-05T1400,3709A,130.9967,45.3106,鸡西市,市政设施管理处,,,26,24,8,8,,,60,,8,11,2,2,0.6,0.6
2024-12-05T1400,2367A,114.9754,27.0803,吉安市,红声器材厂,细颗粒物(PM2.5),82,81,98,60,67,47,,54,38,29,29,13,16,0.8,0.8
2024-12-05T1400,2368A,114.9658,27.0999,吉安市,市森林工业局,,,79,93,59,68,,,56,41,,31,,16,0.5,0.5
2024-12-05T1400,2369A,114.99,27.1312,吉安市,市环境监测站,颗粒物(PM10),66,82,84,40,61,43,,52,35,34,36,13,14,0.8,0.7
2024-12-05T1400,2370A,115.0093,27.0968,吉安市,青原区法院,细颗粒物(PM2.5),78,84,97,57,63,46,,55,40,30,31,12,14,0.8,0.9
2024-12-05T1400,1772A,126.54,43.8622,吉林市,哈达湾,,21,18,22,10,10,66,,60,60,11,11,7,6,0.4,0.4
2024-12-05T1400,1773A,126.5844,43.8358,吉林市,东局子,,21,20,24,9,9,67,,59,59,8,11,5,5,0.5,0.5
2024-12-05T1400,1774A,126.5052,43.8245,吉林市,电力学院,,21,21,25,10,11,65,,58,58,8,10,7,6,0.4,0.4
2024-12-05T1400,1775A,126.6133,43.8972,吉林市,江北,,27,27,28,8,9,63,,54,54,12,15,9,10,0.4,0.5
2024-12-05T1400,1776A,126.555,43.8306,吉林市,江南公园,,21,19,22,11,9,65,,61,61,9,10,9,9,0.5,0.5
2024-12-05T1400,1778A,126.7061,43.7133,吉林市,丰满,,22,12,14,8,7,68,,65,65,4,4,9,8,0.2,0.2
2024-12-05T1400,2868A,126.4739,43.953,吉林市,九站,,26,26,24,10,10,62,,58,58,10,11,4,4,0.5,0.5
2024-12-05T1400,1299A,116.9862,36.6114,济南市,科干所,颗粒物(PM10),52,53,122,20,72,72,,60,60,25,44,6,10,0.4,0.7
2024-12-05T1400,1300A,116.9376,36.665,济南市,农科所,,49,49,131,22,69,68,,33,33,24,59,8,10,0.7,1
2024-12-05T1400,1301A,117.1265,36.6734,济南市,开发区,颗粒物(PM10),52,54,117,32,78,71,,57,57,22,47,7,8,0.4,0.7
2024-12-05T1400,1303A,117.0624,36.6868,济南市,省种子仓库,颗粒物(PM10),52,53,130,29,77,69,,49,49,18,48,5,8,0.5,0.8
2024-12-05T1400,1304A,116.9489,36.6447,济南市,机床二厂,颗粒物(PM10),55,59,140,27,80,73,,40,40,15,54,8,14,0.6,1.1
2024-12-05T1400,1305A,117.0495,36.663,济南市,市监测站,,,46,120,29,82,,,42,,20,54,5,8,0.4,0.7
2024-12-05T1400,1306A,116.7675,36.5484,济南市,长清党校,细颗粒物(PM2.5),62,54,140,44,95,71,,43,43,21,47,8,10,0.5,0.8
2024-12-05T1400,1616A,117.6795,36.229,济南市,技术学院,细颗粒物(PM2.5),113,114,151,85,109,71,,31,31,32,54,12,13,0.9,1.4
2024-12-05T1400,1961A,117.532,36.6868,济南市,东山小学,颗粒物(PM10),61,71,115,27,68,63,,44,44,18,49,8,9,0.5,0.7
2024-12-05T1400,3059A,117.7161,36.2049,济南市,泰兴公司,细颗粒物(PM2.5),104,107,147,78,101,75,,26,26,25,57,12,13,0.7,1.2
2024-12-05T1400,3064A,117.6867,36.2171,济南市,莱芜战役纪念馆,细颗粒物(PM2.5),107,124,151,80,98,71,,29,29,24,51,10,11,0.8,1.3
2024-12-05T1400,3494A,117.1673,36.9782,济南市,济阳区政府,细颗粒物(PM2.5),62,66,134,44,87,53,,27,27,25,59,10,12,0.6,0.8
2024-12-05T1400,3495A,117.1171,36.63,济南市,锦屏中学,,49,49,96,29,68,78,,67,67,22,39,6,6,0.3,0.6
2024-12-05T1400,3682A,116.9814,36.6819,济南市,济南四建,,42,41,110,29,65,64,,41,41,20,53,5,9,0.4,0.8
2024-12-05T1400,1653A,116.6251,35.4302,济宁市,火炬城,细颗粒物(PM2.5),125,112,148,95,132,73,,30,30,25,49,9,8,0.6,0.9
2024-12-05T1400,1655A,116.5491,35.4042,济宁市,电化厂,细颗粒物(PM2.5),107,136,200,80,118,66,,25,25,33,55,10,11,0.7,1.1
2024-12-05T1400,3500A,116.5814,35.3707,济宁市,北湖一中,细颗粒物(PM2.5),125,126,153,95,135,75,,30,30,31,53,5,3,0.8,0.9
2024-12-05T1400,3501A,116.8249,35.5593,济宁市,服务中心,颗粒物(PM10),100,149,196,73,118,67,,27,27,24,51,9,10,0.6,0.9
2024-12-05T1400,3678A,116.5907,35.4054,济宁市,市第七中学,细颗粒物(PM2.5),122,126,151,92,126,77,,34,34,30,42,6,6,0.8,1
2024-12-05T1400,2255A,130.2751,46.8028,佳木斯市,佳纺,,20,19,24,13,18,64,,59,58,11,10,11,12,0.4,0.4
2024-12-05T1400,2256A,130.3995,46.8307,佳木斯市,发电厂,,20,,14,8,14,63,,58,58,6,10,5,7,0.3,0.4
2024-12-05T1400,2257A,130.3258,46.7975,佳木斯市,环保局,,18,14,20,10,14,56,,53,50,13,15,10,11,0.3,0.3
2024-12-05T1400,2258A,130.3648,46.8032,佳木斯市,十一中,,20,10,17,10,15,62,,60,60,14,14,7,4,0.3,0.4
2024-12-05T1400,2259A,130.3794,46.7588,佳木斯市,四丰,,22,,16,6,6,68,,65,65,1,3,1,1,0.1,0.2
2024-12-05T1400,1252A,120.7436,30.778,嘉兴市,清河小学,,45,39,37,31,16,50,,51,48,27,28,16,16,0.9,0.6
2024-12-05T1400,1253A,120.726,30.7478,嘉兴市,嘉兴学院,细颗粒物(PM2.5),52,49,40,36,22,44,,52,46,32,30,6,5,0.6,0.5
2024-12-05T1400,2872A,120.7846,30.7525,嘉兴市,南湖区残联,,42,39,40,29,20,56,,54,50,25,29,7,7,0.7,0.6
2024-12-05T1400,3407A,120.6916,30.7739,嘉兴市,秀洲住建,,,48,36,34,21,43,,47,41,30,30,9,9,,0.5
2024-12-05T1400,1945A,98.2908,39.7711,嘉峪关市,气象局,,46,46,44,19,18,72,,50,50,30,33,32,24,0.5,0.4
2024-12-05T1400,2884A,98.2672,39.7978,嘉峪关市,酒钢宾馆,,39,39,50,17,16,87,,48,48,17,27,36,22,0.8,0.6
2024-12-05T1400,3248A,98.2643,39.7724,嘉峪关市,雄关区,,33,33,40,7,17,80,,51,51,21,33,17,13,0.6,0.4
2024-12-05T1400,1383A,113.1064,22.6058,江门市,北街,细颗粒物(PM2.5),73,84,55,53,31,149,,60,60,35,34,14,7,0.5,0.5
2024-12-05T1400,1384A,113.0731,22.5835,江门市,西区,颗粒物(PM10),60,70,61,39,29,147,,55,55,34,46,12,9,0.6,0.7
2024-12-05T1400,1385A,113.0219,22.5311,江门市,圭峰西,细颗粒物(PM2.5),75,72,50,55,28,149,,77,77,29,24,5,4,0.5,0.4
2024-12-05T1400,1386A,113.0828,22.5947,江门市,东湖,细颗粒物(PM2.5),65,74,55,47,26,140,,54,54,32,35,12,8,0.5,0.6
2024-12-05T1400,3311A,113.1075,22.5647,江门市,江海富民,颗粒物(PM10),81,112,77,59,37,152,,60,60,43,47,9,10,0.6,0.8
2024-12-05T1400,3449A,113.05,22.4667,江门市,新会银湖,细颗粒物(PM2.5),85,77,49,63,30,137,,51,51,37,41,8,7,0.6,0.5
2024-12-05T1400,1828A,113.227,35.2125,焦作市,市环保局,,34,34,86,16,54,72,,60,60,9,29,5,8,0.3,0.5
2024-12-05T1400,1830A,113.1992,35.2590,焦作市,影视城,,29,29,71,13,41,79,,74,74,11,20,11,11,0.5,0.4
2024-12-05T1400,3169A,113.2725,35.2067,焦作市,太极体育中心,,36,36,94,3,50,72,,58,58,13,34,8,10,0.4,0.5
2024-12-05T1400,3335A,113.3137,35.2641,焦作市,马村街道办,,36,36,89,18,61,77,,61,61,6,31,4,10,0.3,0.6
2024-12-05T1400,3336A,113.2465,35.2373,焦作市,焦作技师学院,,22,22,86,12,50,66,,52,52,8,22,7,10,0.8,0.8
2024-12-05T1400,3477A,113.1656,35.2539,焦作市,中站许衡医院,,37,37,74,17,45,72,,65,65,12,30,7,11,0.6,0.8
2024-12-05T1400,3981A,113.2449,35.1803,焦作市,原李万街道办,,37,37,93,20,55,75,,61,61,8,26,7,12,0.4,0.6
2024-12-05T1400,1708A,116.3701,23.5345,揭阳市,新兴,,,59,57,,33,138,,87,87,,24,10,10,,0.5
2024-12-05T1400,1709A,116.3264,23.5443,揭阳市,西马,,50,50,58,24,32,139,,87,87,10,16,12,11,0.6,0.6
2024-12-05T1400,1710A,116.3611,23.5626,揭阳市,东兴,颗粒物(PM10),52,54,60,28,32,139,,83,83,9,18,13,14,0.6,0.7
2024-12-05T1400,1711A,116.4151,23.5294,揭阳市,渔湖,,47,47,52,27,26,147,,89,89,12,19,11,11,0.5,0.5
2024-12-05T1400,3320A,116.403,23.5699,揭阳市,曲溪,,46,43,55,32,31,137,,82,82,10,18,7,12,0.5,0.6
2024-12-05T1400,1944A,102.1692,38.5167,金昌市,天庆家园,颗粒物(PM10),55,59,46,28,29,81,,52,52,15,16,73,34,0.6,0.8
2024-12-05T1400,3170A,102.1864,38.5253,金昌市,市委党校,细颗粒物(PM2.5),77,76,57,56,28,82,,56,49,17,16,73,30,0.7,0.7
2024-12-05T1400,4022A,102.1647,38.5371,金昌市,金川区人防中心,颗粒物(PM10),61,72,50,36,30,82,,59,59,17,13,76,28,0.7,0.7
2024-12-05T1400,1262A,119.647,29.077,金华市,十五中,,38,32,76,26,53,20,,31,24,45,44,4,4,0.7,0.8
2024-12-05T1400,1263A,119.686,29.1029,金华市,监测站,,38,35,81,26,50,16,,27,18,48,46,3,4,0.5,0.7
2024-12-05T1400,3659A,119.656,29.1131,金华市,气象局,,36,36,82,18,45,18,,22,16,44,47,4,4,0.2,0.4
2024-12-05T1400,1767A,121.1115,41.0879,锦州市,南山,,36,36,66,8,54,74,,45,45,5,40,9,47,0.3,1.8
2024-12-05T1400,1768A,121.0533,40.8434,锦州市,开发区,颗粒物(PM10),65,79,116,12,35,54,,26,26,25,66,14,26,0.6,1.1
2024-12-05T1400,1769A,121.1836,41.1119,锦州市,百股街道,,,33,55,3,38,72,,43,43,5,34,,37,0.4,1.3
2024-12-05T1400,1770A,121.1178,41.1222,锦州市,天安街道,,30,30,65,7,47,73,,43,43,6,36,9,29,0.5,1.4
2024-12-05T1400,1771A,121.1303,41.1386,锦州市,北湖公园,,22,15,43,8,31,68,,41,41,5,29,7,22,0.2,0.8
2024-12-05T1400,2160A,112.85,35.5051,晋城市,自来水公司,,,0,39,,17,74,,55,55,17,27,6,9,0.4,0.8
2024-12-05T1400,2161A,112.8318,35.4936,晋城市,白云商贸,,26,11,37,3,10,82,,63,63,14,26,4,6,0.4,0.6
2024-12-05T1400,2162A,112.8508,35.4887,晋城市,市环保局,,25,20,40,14,22,80,,57,57,14,27,4,7,0.4,0.6
2024-12-05T1400,2163A,112.8676,35.4897,晋城市,技术学院,,25,13,40,7,16,80,,52,52,17,29,6,9,0.5,0.7
2024-12-05T1400,2165A,112.8453,35.546,晋城市,白马寺,,26,17,44,8,18,81,,72,72,11,15,10,12,0.4,0.6
2024-12-05T1400,3620A,112.8271,35.4828,晋城市,泽州一中,,26,20,29,3,12,81,,68,68,12,23,4,6,0.5,0.7
2024-12-05T1400,2171A,112.7532,37.6945,晋中市,锦纶小区,,41,41,63,22,29,72,,35,35,16,38,9,15,0.5,0.6
2024-12-05T1400,2173A,112.7249,37.7067,晋中市,南都小区,,41,41,63,28,35,73,,44,44,16,34,12,17,0.4,0.5
2024-12-05T1400,2174A,112.6991,37.6982,晋中市,榆次区政府,,39,39,73,25,31,74,,38,38,16,35,11,16,0.5,0.6
2024-12-05T1400,2865A,112.7195,37.6828,晋中市,榆次三中,,44,44,74,17,29,74,,39,39,13,34,11,20,0.4,0.7
2024-12-05T1400,2439A,112.2014,31.0481,荆门市,竹园小学,,50,49,56,35,37,72,,38,38,12,21,12,10,0.6,0.7
2024-12-05T1400,2440A,112.1969,30.9891,荆门市,掇刀,,50,50,58,33,41,82,,51,51,15,23,10,8,0.5,0.6
2024-12-05T1400,2441A,112.2213,31.0386,荆门市,石化一小,"颗粒物(PM10),细颗粒物(PM2.5)",55,59,62,39,41,72,,37,37,14,25,11,8,0.5,0.7
2024-12-05T1400,3012A,112.1849,31.0362,荆门市,西山林语,,43,43,46,29,32,72,,50,50,12,17,8,7,0.4,0.5
2024-12-05T1400,3547A,112.1632,31.0138,荆门市,龙泉中学南校,细颗粒物(PM2.5),53,49,50,37,38,73,,48,48,18,21,11,10,0.5,0.5
2024-12-05T1400,1844A,112.2494,30.3197,荆州市,市图书馆,细颗粒物(PM2.5),58,48,45,41,47,77,,45,45,16,24,4,4,0.8,0.9
2024-12-05T1400,1845A,112.2008,30.3544,荆州市,市委党校,,49,40,48,34,48,77,,41,40,19,26,5,4,0.7,0.8
2024-12-05T1400,3194A,112.2747,30.3122,荆州市,管委会,,50,38,48,35,47,84,,48,48,13,20,5,5,0.5,0.7
2024-12-05T1400,3548A,112.1655,30.3364,荆州市,学苑路,,49,49,59,32,44,81,,53,47,20,31,9,8,0.7,0.7
2024-12-05T1400,2342A,117.3102,29.3867,景德镇市,王港中学,,,,,,,,,,,,,,,,
2024-12-05T1400,2343A,117.2117,29.2933,景德镇市,老干部活动中心,,20,,59,14,51,33,,27,25,12,19,7,9,0.6,0.6
2024-12-05T1400,2344A,117.1894,29.2789,景德镇市,兽医站,,20,15,63,14,38,34,,27,27,8,21,6,11,0.6,0.6
2024-12-05T1400,2345A,117.1547,29.2617,景德镇市,台达陶瓷,,19,14,63,13,40,26,,20,20,6,10,4,12,0.6,0.7
2024-12-05T1400,2346A,117.2461,29.2956,景德镇市,陶研所,,18,13,56,12,38,30,,24,23,14,25,4,4,0.6,0.8
2024-12-05T1400,1803A,115.9872,29.6815,九江市,十里,,,19,54,16,43,73,,63,63,18,28,4,6,,0.7
2024-12-05T1400,1804A,115.9584,29.7046,九江市,茅山头,,26,23,56,18,42,64,,57,56,20,26,12,9,0.6,0.8
2024-12-05T1400,1805A,115.9877,29.7295,九江市,西园,,22,19,55,14,44,69,,60,60,16,24,5,6,0.5,0.6
2024-12-05T1400,1806A,116.0172,29.6547,九江市,五七二七厂,,40,30,69,28,54,71,,61,61,18,22,4,4,0.7,1
2024-12-05T1400,1808A,115.9114,29.6038,九江市,综合工业园,,43,,57,30,68,69,,58,58,26,30,12,13,0.5,0.8
2024-12-05T1400,1809A,116.0721,29.7535,九江市,石化总厂,,32,,60,22,43,72,,59,59,20,28,10,9,0.8,0.8
2024-12-05T1400,1810A,115.9773,29.5698,九江市,庐山气象台,,26,,26,12,21,81,,60,60,6,10,6,10,0.8,0.8
2024-12-05T1400,3190A,116.0254,29.6994,九江市,外国语学校,,29,22,58,20,44,66,,56,56,19,25,14,13,0.4,0.5
2024-12-05T1400,2658A,98.5061,39.7443,酒泉市,仓门街子站,颗粒物(PM10),53,56,53,25,28,76,,46,46,13,23,21,16,0.7,0.6
2024-12-05T1400,2659A,98.4989,39.7256,酒泉市,油田生活基地,颗粒物(PM10),52,53,74,34,34,83,,47,47,18,31,26,14,0.9,0.8
2024-12-05T1400,2698A,76.0072,39.4467,喀什地区,巡警大队,颗粒物(PM10),125,200,163,39,60,42,,10,10,47,57,14,11,0.9,1.9
2024-12-05T1400,2699A,75.9755,39.4694,喀什地区,吾办,颗粒物(PM10),106,161,145,68,68,51,,17,17,41,60,7,4,1.2,1.7
2024-12-05T1400,4027A,75.9483,39.4689,喀什地区,老干局,,,,157,52,62,52,,14,14,27,51,7,4,0.9,2.5
2024-12-05T1400,1824A,114.3389,34.7781,开封市,肿瘤医院,细颗粒物(PM2.5),52,51,112,36,80,69,,38,38,13,38,8,4,0.5,0.6
2024-12-05T1400,1826A,114.2885,34.7965,开封市,世纪星幼儿园,颗粒物(PM10),51,51,106,28,81,71,,36,36,18,43,7,4,0.5,0.7
2024-12-05T1400,3147A,114.3438,34.8106,开封市,龙亭公园,颗粒物(PM10),60,69,110,35,86,69,,32,32,19,40,7,3,0.7,0.9
2024-12-05T1400,3210A,114.3644,34.7964,开封市,汴京公园,"颗粒物(PM10),细颗粒物(PM2.5)",58,65,124,41,88,71,,31,31,20,41,8,3,0.7,0.8
2024-12-05T1400,3473A,114.2485,34.8306,开封市,技师学院,,,42,108,32,83,71,,29,29,,43,,5,0.7,0.8
2024-12-05T1400,3592A,114.4644,34.7556,开封市,祥符区生态环境局,细颗粒物(PM2.5),97,84,132,72,92,73,,32,32,18,35,11,3,0.8,0.7
2024-12-05T1400,1951A,84.895,45.6094,克拉玛依市,长征新村,,26,23,26,18,16,19,,33,31,22,17,5,4,0.6,0.5
2024-12-05T1400,1952A,84.8988,45.5893,克拉玛依市,南林小区,,,30,27,22,19,18,,33,30,,18,1,1,0.6,0.6
2024-12-05T1400,1954A,84.905,44.3396,克拉玛依市,独山子区,,17,12,22,9,18,54,,48,48,12,17,4,4,0.3,0.4
2024-12-05T1400,1955A,85.6979,46.098,克拉玛依市,乌尔禾区商贸楼,,12,12,7,3,7,33,,40,33,21,17,3,3,0.5,0.4
2024-12-05T1400,3612A,85.1045,45.6899,克拉玛依市,白碱滩区新站,,49,49,28,28,18,19,,33,20,31,26,8,7,1.0,0.7
2024-12-05T1400,2697A,76.1454,39.7142,克孜勒苏柯尔克孜自治州,市人民政府,颗粒物(PM10),65,80,85,31,34,73,,57,53,13,15,6,5,0.8,0.8
2024-12-05T1400,3665A,76.1658,39.7157,克孜勒苏柯尔克孜自治州,克州文化中心,颗粒物(PM10),73,95,87,41,33,81,,57,54,20,25,12,9,0.8,0.8
2024-12-05T1400,1450A,102.8204,24.8886,昆明市,呈贡新区,,25,6,25,3,17,78,,38,38,6,26,4,6,0.3,0.5
2024-12-05T1400,1451A,102.6251,24.9608,昆明市,西山森林公园,,,,,,,,,,,,,,,,
2024-12-05T1400,1452A,102.7252,25.0902,昆明市,龙泉镇,,26,,24,6,15,81,,36,36,14,31,8,7,0.4,0.6
2024-12-05T1400,1453A,102.7266,25.0375,昆明市,东风东路,,25,11,25,11,16,78,,30,30,8,24,10,9,0.3,0.5
2024-12-05T1400,1454A,102.6742,25.0669,昆明市,金鼎山,,26,13,26,6,16,82,,39,39,13,30,14,12,0.5,0.6
2024-12-05T1400,1455A,102.6644,25.0401,昆明市,碧鸡广场,,26,10,30,3,17,81,,36,36,8,30,9,8,0.4,0.5
2024-12-05T1400,3179A,102.7494,25.0119,昆明市,官渡区博物馆,,27,24,38,7,18,85,,35,35,6,27,8,8,0.3,0.7
2024-12-05T1400,3375A,102.8017,24.8336,昆明市,青年创业园,,27,6,18,3,10,85,,38,38,1,18,5,6,0.4,0.5
2024-12-05T1400,3550A,102.7997,24.9786,昆明市,昆明学院,,,8,47,3,23,84,,36,36,,30,9,9,0.2,0.4
2024-12-05T1400,3551A,102.5967,24.6736,昆明市,晋宁区生态环境分局,,26,11,23,3,12,82,,55,55,3,16,2,2,0.2,0.4
2024-12-05T1400,3552A,102.6678,24.9856,昆明市,云天化总部,,29,9,26,3,15,90,,37,37,5,26,7,7,0.3,0.3
2024-12-05T1400,1456A,91.1319,29.6514,拉萨市,八廓街,,26,15,33,9,15,82,,66,66,11,31,6,8,0.3,0.7
2024-12-05T1400,1457A,91.1221,29.6747,拉萨市,市环保局,,30,22,40,7,22,94,,56,56,16,31,7,8,0.4,1
2024-12-05T1400,1458A,91.0874,29.6475,拉萨市,区监测站,,29,19,22,7,11,92,,65,65,9,33,4,5,0.4,0.6
2024-12-05T1400,1459A,91.1774,29.6541,拉萨市,西藏大学,,28,26,31,3,12,89,,68,68,7,24,2,4,0.6,0.7
2024-12-05T1400,1460A,90.9798,29.6588,拉萨市,区辐射站,,28,18,36,9,17,88,,61,61,16,33,7,9,0.5,0.7
2024-12-05T1400,1461A,91.0834,29.6292,拉萨市,拉萨火车站,,31,14,21,3,10,97,,60,60,7,28,4,5,0.5,0.8
2024-12-05T1400,2520A,109.2203,23.7256,来宾市,来宾技工学校,细颗粒物(PM2.5),92,104,101,68,67,97,,80,80,15,31,9,12,1.0,1
2024-12-05T1400,3535A,109.1781,23.7297,来宾市,兴宾区政府,细颗粒物(PM2.5),88,98,101,65,70,103,,81,81,15,21,9,10,0.9,0.9
2024-12-05T1400,4002A,109.2416,23.7461,来宾市,中南小学,细颗粒物(PM2.5),93,100,112,69,72,96,,73,73,15,39,10,11,1.0,1
2024-12-05T1400,1476A,103.631,36.1031,兰州市,兰炼宾馆,颗粒物(PM10),60,69,75,40,41,87,,45,45,34,53,26,22,0.6,0.7
2024-12-05T1400,1477A,104.1373,35.9454,兰州市,榆中兰大校区,,,,,,,,,,,,,,,,
2024-12-05T1400,1478A,103.8412,36.0726,兰州市,生物制品所,颗粒物(PM10),54,57,64,31,34,59,,37,37,30,49,19,14,0.6,0.6
2024-12-05T1400,1479A,103.831,36.0464,兰州市,铁路设计院,细颗粒物(PM2.5),64,75,73,46,39,40,,40,19,55,54,14,13,1.1,0.9
2024-12-05T1400,3186A,103.7158,36.1058,兰州市,教育港,颗粒物(PM10),63,76,76,38,36,85,,50,47,34,42,25,20,0.7,0.7
2024-12-05T1400,3241A,103.7439,36.0842,兰州市,百合公园,颗粒物(PM10),58,65,70,33,33,73,,34,34,45,55,21,16,0.9,0.9
2024-12-05T1400,3242A,103.9611,35.998,兰州市,和平,颗粒物(PM10),66,81,82,42,41,57,,29,29,34,45,20,21,0.8,1
2024-12-05T1400,3245A,103.6633,36.533,兰州新区,新区管委会,,,45,62,26,34,,,54,,17,23,15,17,0.3,0.4
2024-12-05T1400,3246A,103.6975,36.4789,兰州新区,舟曲中学,颗粒物(PM10),58,66,72,32,33,79,,47,39,19,29,13,25,0.3,0.4
2024-12-05T1400,1067A,116.6708,39.5111,廊坊市,药材公司,,43,43,92,10,66,66,,30,30,14,63,3,5,0.4,0.8
2024-12-05T1400,1068A,116.7214,39.5589,廊坊市,开发区,,36,36,77,3,46,64,,40,40,13,56,2,4,0.2,0.6
2024-12-05T1400,1070A,116.7244,39.5269,廊坊市,北华航天学院,,31,31,80,6,49,63,,33,33,10,57,4,7,0.3,0.7
2024-12-05T1400,2919A,116.7022,39.5453,廊坊市,河北工业大学,,,40,83,9,50,64,,30,30,,55,4,6,,0.7
2024-12-05T1400,2535A,103.7723,29.5462,乐山市,花湖湾,,,,,31,49,54,,15,12,21,28,3,3,0.6,0.6
2024-12-05T1400,2536A,103.7627,29.5844,乐山市,牛耳桥,,50,50,64,33,45,47,,11,11,30,37,7,6,0.4,0.7
2024-12-05T1400,2537A,103.7508,29.6006,乐山市,市第三水厂,,47,47,58,30,43,59,,16,16,26,40,6,4,0.3,0.6
2024-12-05T1400,2538A,103.7571,29.5664,乐山市,市监测站,细颗粒物(PM2.5),53,46,57,37,46,57,,13,13,21,34,6,5,0.4,0.6
2024-12-05T1400,3361A,103.7311,29.5628,乐山市,理工大学,,46,45,54,32,42,61,,14,14,20,35,6,5,0.5,0.7
2024-12-05T1400,2598A,100.2143,26.8576,丽江市,西南郊,,,,,,,,,,,,,,,,
2024-12-05T1400,2599A,100.2497,26.8802,丽江市,丽江古城,,26,21,26,7,14,82,,61,61,10,14,9,10,0.7,0.7
2024-12-05T1400,2600A,100.2203,26.8906,丽江市,市中心,,25,11,14,3,10,80,,68,68,9,17,7,6,0.6,0.7
2024-12-05T1400,1267A,119.914,28.4514,丽水市,监测站大楼,细颗粒物(PM2.5),60,61,50,43,39,32,,41,34,28,21,1,2,0.9,0.9
2024-12-05T1400,1268A,119.93,28.4586,丽水市,莲都小学,细颗粒物(PM2.5),60,58,64,43,42,33,,42,36,29,22,4,5,0.6,0.6
2024-12-05T1400,1269A,119.879,28.4231,丽水市,余庄前,细颗粒物(PM2.5),69,66,50,50,36,32,,29,29,26,21,5,5,0.6,0.5
2024-12-05T1400,1173A,119.176,34.5885,连云港市,市环境监测站,细颗粒物(PM2.5),125,129,138,95,96,95,,39,39,22,56,11,12,0.6,0.8
2024-12-05T1400,3000A,119.3581,34.6972,连云港市,德源药业,细颗粒物(PM2.5),147,156,134,112,86,91,,39,39,26,61,8,8,0.7,0.8
2024-12-05T1400,3007A,119.178,34.844,连云港市,新城一中,细颗粒物(PM2.5),158,151,134,120,105,95,,42,42,27,62,11,12,0.7,0.9
2024-12-05T1400,3008A,119.3608,34.7519,连云港市,胡沟管理处,细颗粒物(PM2.5),132,146,126,100,80,81,,31,31,20,38,6,6,0.4,0.4
2024-12-05T1400,3009A,119.1478,34.5911,连云港市,矿山设计院,细颗粒物(PM2.5),125,144,148,95,99,98,,39,39,19,56,10,11,0.9,1
2024-12-05T1400,3434A,119.2413,34.6539,连云港市,工贸学校,细颗粒物(PM2.5),158,157,127,120,93,98,,45,45,25,38,10,10,0.7,0.8
2024-12-05T1400,3664A,119.4172,34.7341,连云港市,连云街道,细颗粒物(PM2.5),155,167,122,118,78,86,,46,46,29,34,8,11,0.8,0.8
2024-12-05T1400,2571A,102.3431,27.8099,凉山彝族自治州,青龙寺,,26,22,28,7,10,82,,47,47,5,10,4,5,0.7,0.7
2024-12-05T1400,2572A,102.2721,27.8415,凉山彝族自治州,邛海宾馆,,,31,39,15,21,76,,46,46,,15,11,12,0.7,0.7
2024-12-05T1400,2573A,102.2625,27.898,凉山彝族自治州,西昌市政府,,32,32,32,21,23,77,,37,37,10,16,7,7,0.8,0.8
2024-12-05T1400,2574A,102.2685,27.8851,凉山彝族自治州,凉山州政府,,25,24,33,16,23,77,,40,40,8,18,10,10,0.7,0.8
2024-12-05T1400,2575A,102.237,27.8914,凉山彝族自治州,长安,,34,34,45,19,24,76,,27,27,9,24,10,9,0.7,0.7
2024-12-05T1400,2212A,123.2,41.1953,辽阳市,宏伟区,,,52,44,37,21,60,,38,38,7,37,11,17,,1.2
2024-12-05T1400,2213A,123.1683,41.2495,辽阳市,新华园,,30,26,56,21,31,64,,33,33,8,51,11,20,0.6,1.8
2024-12-05T1400,2214A,123.2354,41.2639,辽阳市,滨河路,,23,23,45,14,26,63,,38,38,8,42,12,19,0.4,1.1
2024-12-05T1400,2215A,123.149,41.2991,辽阳市,铁西工业园,,30,30,65,16,37,61,,31,31,10,47,11,22,0.4,1.4
2024-12-05T1400,2227A,125.1358,42.8845,辽源市,环保局,,22,20,19,6,8,68,,53,53,7,13,7,9,0.4,0.5
2024-12-05T1400,3239A,125.0764,42.9078,辽源市,银鹰制药,,22,13,18,12,10,68,,59,59,8,13,8,11,0.3,0.4
2024-12-05T1400,1625A,115.9848,36.4372,聊城市,区政府,细颗粒物(PM2.5),92,105,144,68,99,62,,21,21,29,53,9,8,0.9,1.1
2024-12-05T1400,2878A,116.0072,36.4343,聊城市,聊大东校,细颗粒物(PM2.5),118,105,156,89,108,56,,17,17,28,54,13,9,0.8,1
2024-12-05T1400,3200A,115.9819,36.4978,聊城市,监控中心,细颗粒物(PM2.5),104,105,151,78,111,55,,22,22,37,62,13,9,0.8,0.9
2024-12-05T1400,3513A,116.0445,36.4361,聊城市,九州社区,细颗粒物(PM2.5),92,100,138,68,104,50,,16,16,34,44,5,12,0.9,1
2024-12-05T1400,4018A,116.0567,36.4608,聊城市,星美广场,细颗粒物(PM2.5),93,104,161,69,105,51,,13,,30,43,7,13,0.9,1.1
2024-12-05T1400,2632A,94.3681,29.6376,林芝市,林芝监测站,,,11,20,3,6,80,,70,58,2,4,6,6,,0.1
2024-12-05T1400,2633A,94.3616,29.6616,林芝市,林芝人民医院,,24,6,19,3,8,75,,64,49,2,7,6,6,0.2,0.2
2024-12-05T1400,2603A,100.0781,23.8982,临沧市,市环保局,,24,19,21,3,13,74,,35,35,10,13,10,9,0.4,0.4
2024-12-05T1400,2604A,100.0894,23.8822,临沧市,市气象局,,22,18,26,12,17,70,,18,,13,16,8,9,0.5,0.5
2024-12-05T1400,1733A,111.5531,36.0783,临汾市,临钢医院,,,,27,8,15,72,,57,57,6,25,,6,0.3,0.4
2024-12-05T1400,1734A,111.5028,36.0714,临汾市,技工学校,,23,,28,9,20,73,,54,54,10,22,2,4,0.4,0.5
2024-12-05T1400,1736A,111.5018,36.0855,临汾市,市委,,29,29,35,8,11,72,,56,56,7,18,3,4,0.3,0.4
2024-12-05T1400,3018A,111.505,36.1014,临汾市,唐尧大酒店,,23,,33,9,16,72,,52,52,7,21,6,7,0.4,0.5
2024-12-05T1400,3668A,111.5036,36.0414,临汾市,城南,,25,15,34,8,18,77,,43,43,13,24,3,5,0.4,0.5
2024-12-05T1400,2667A,103.2069,35.5993,临夏回族自治州,环保局,颗粒物(PM10),62,73,77,12,15,60,,24,24,26,33,16,11,0.9,1.2
2024-12-05T1400,2668A,103.2417,35.6057,临夏回族自治州,建设大厦,,48,48,68,6,17,68,,29,29,19,32,17,11,0.9,1.2
2024-12-05T1400,1618A,118.3429,35.0532,临沂市,沂河小区,细颗粒物(PM2.5),134,144,175,102,128,91,,38,38,33,66,13,15,0.7,1
2024-12-05T1400,1619A,118.295,35.0583,临沂市,鲁南制药厂,细颗粒物(PM2.5),122,129,189,92,129,95,,32,32,18,62,8,14,0.5,0.9
2024-12-05T1400,1620A,118.2794,34.9976,临沂市,新光毛纺厂,细颗粒物(PM2.5),143,134,168,109,122,91,,38,38,26,62,11,13,0.8,1.3
2024-12-05T1400,1621A,118.3956,35.0888,临沂市,河东保险公司,细颗粒物(PM2.5),122,134,164,92,115,103,,40,40,22,51,9,9,0.4,0.7
2024-12-05T1400,3370A,118.3564,35.0215,临沂市,十里堡居委,细颗粒物(PM2.5),125,132,160,95,109,97,,48,48,30,59,10,15,0.8,1.1
2024-12-05T1400,3496A,118.3604,35.1084,临沂市,南坊新区,细颗粒物(PM2.5),134,139,168,102,119,96,,45,45,38,64,8,9,0.9,1.1
2024-12-05T1400,3860A,118.3920,35.0300,临沂市,皇山花园小区,细颗粒物(PM2.5),127,139,161,96,103,91,,45,45,35,67,7,11,0.8,1
2024-12-05T1400,1870A,109.4856,24.3895,柳州市,柳东小学,细颗粒物(PM2.5),72,59,79,52,62,70,,91,64,9,16,10,13,0.7,0.7
2024-12-05T1400,1871A,109.4157,24.3277,柳州市,环保监测站,细颗粒物(PM2.5),78,72,92,57,64,72,,76,66,20,24,17,13,1.1,0.9
2024-12-05T1400,1872A,109.389,24.341,柳州市,河西水厂,颗粒物(PM10),61,71,101,31,63,63,,56,52,13,33,17,16,0.8,1.4
2024-12-05T1400,1873A,109.4311,24.2921,柳州市,市四中,细颗粒物(PM2.5),64,71,87,46,61,77,,88,70,16,27,13,13,1.1,1.1
2024-12-05T1400,1874A,109.4006,24.3631,柳州市,市九中,细颗粒物(PM2.5),77,63,91,56,61,87,,65,65,17,22,13,10,1.2,0.9
2024-12-05T1400,1875A,109.4958,24.3134,柳州市,古亭山,细颗粒物(PM2.5),68,62,74,49,54,80,,95,73,14,30,11,16,1.3,1.2
2024-12-05T1400,3402A,109.5422,24.3996,柳州市,市二中,细颗粒物(PM2.5),64,56,88,46,67,65,,75,61,18,34,10,11,0.8,0.8
2024-12-05T1400,2307A,116.5079,31.737,六安市,监测大楼,细颗粒物(PM2.5),79,68,47,58,45,82,,57,57,16,17,6,4,0.7,0.5
2024-12-05T1400,2308A,116.4738,31.7643,六安市,皖西学院,颗粒物(PM10),64,78,55,44,39,83,,56,56,20,20,6,4,0.7,0.6
2024-12-05T1400,2309A,116.4996,31.7905,六安市,朝阳厂,,,76,47,52,38,80,,53,53,14,15,,2,0.8,0.6
2024-12-05T1400,2310A,116.5567,31.7886,六安市,开发区,细颗粒物(PM2.5),80,97,56,59,40,84,,57,57,21,21,5,3,0.7,0.6
2024-12-05T1400,2576A,104.8,26.5892,六盘水市,窑上,,34,34,40,20,28,41,,63,45,13,11,6,7,0.8,0.8
2024-12-05T1400,2577A,104.83,26.5917,六盘水市,黄土坡,,28,,28,19,23,43,,66,46,17,12,10,8,0.6,0.5
2024-12-05T1400,2578A,104.89,26.5939,六盘水市,水钢,,44,44,34,28,23,49,,60,48,13,15,5,6,0.6,0.7
2024-12-05T1400,2579A,104.8475,26.5894,六盘水市,民中,,25,22,25,17,17,47,,62,42,14,15,8,8,0.7,0.7
2024-12-05T1400,2580A,104.9544,26.5506,六盘水市,双水,,24,24,30,12,23,52,,60,56,14,11,8,7,0.6,0.6
2024-12-05T1400,2335A,117.0189,25.1181,龙岩市,龙岩师专,,,,,,,,,,,,,,,,
2024-12-05T1400,2336A,117.0217,25.1033,龙岩市,龙岩市监测站,,32,27,30,14,24,100,,54,54,8,17,3,8,0.4,0.5
2024-12-05T1400,2337A,117.0258,25.0661,龙岩市,闽西职业技术学院,,33,25,42,16,26,103,,48,48,4,18,2,10,0.2,0.5
2024-12-05T1400,2338A,117.0196,25.0306,龙岩市,龙岩学院,,31,30,36,16,27,99,,50,50,8,16,6,4,0.5,0.6
2024-12-05T1400,2665A,105.0822,33.3261,陇南市,汉王镇固水子,,,,,,,,,,,,,,,,
2024-12-05T1400,2885A,104.9339,33.3826,陇南市,滨江中学,颗粒物(PM10),51,51,60,22,28,88,,42,42,13,28,8,18,0.6,0.9
2024-12-05T1400,3247A,104.955,33.371,陇南市,市总工会,颗粒物(PM10),54,57,58,25,22,87,,48,48,13,16,5,5,0.3,0.3
2024-12-05T1400,2487A,111.9589,27.8901,娄底市,电视发射台,,23,,32,16,32,67,,56,56,12,17,6,6,0.2,0.4
2024-12-05T1400,2488A,111.9975,27.725,娄底市,市监测站,,45,,61,31,56,63,,51,50,17,19,6,6,0.6,0.7
2024-12-05T1400,2489A,112.0194,27.7314,娄底市,市委党校,,32,31,54,22,46,58,,48,48,16,18,4,4,0.6,0.6
2024-12-05T1400,2490A,111.9561,27.7569,娄底市,涟钢,,,34,68,26,52,57,,48,46,16,20,,6,,0.8
2024-12-05T1400,2491A,111.9892,27.7044,娄底市,市政府,,35,32,66,24,54,56,,53,47,23,23,8,7,0.8,0.8
2024-12-05T1400,1893A,105.4324,28.9634,泸州市,九狮山,,,,,,,,,,,,,,,,
2024-12-05T1400,1894A,105.4427,28.9063,泸州市,小市上码头,细颗粒物(PM2.5),54,48,66,38,52,33,,36,36,30,27,3,3,0.6,0.6
2024-12-05T1400,1895A,105.4241,28.8573,泸州市,兰田宪桥,细颗粒物(PM2.5),72,,56,52,62,24,,36,31,26,20,3,3,0.7,0.7
2024-12-05T1400,1896A,105.4379,28.8833,泸州市,市环监站,细颗粒物(PM2.5),65,58,66,47,55,17,,36,28,30,24,4,4,0.7,0.6
2024-12-05T1400,3490A,105.3617,28.7703,泸州市,纳溪区环保局,细颗粒物(PM2.5),68,69,64,49,52,21,,29,13,24,26,5,4,0.6,0.7
2024-12-05T1400,2183A,111.1406,37.5211,吕梁市,环保局,,33,,53,23,19,78,,34,34,6,28,2,3,0.3,0.3
2024-12-05T1400,2185A,111.1297,37.5136,吕梁市,自来水公司,,24,24,51,13,19,76,,43,43,8,25,1,2,0.3,0.4
2024-12-05T1400,2867A,111.1283,37.51,吕梁市,马茂庄小学,,30,27,54,21,21,79,,34,34,8,32,2,5,0.1,0.2
2024-12-05T1400,1812A,112.3931,34.6516,洛阳市,市委党校,,41,41,75,19,44,69,,50,50,14,34,5,9,0.6,0.8
2024-12-05T1400,1814A,112.4657,34.6871,洛阳市,豫西宾馆,颗粒物(PM10),51,51,94,18,49,72,,41,41,12,38,8,12,0.3,0.6
2024-12-05T1400,1815A,112.494,34.6886,洛阳市,河南林校,,,41,85,16,57,70,,36,36,12,43,,8,0.4,0.7
2024-12-05T1400,1816A,112.3844,34.623,洛阳市,开发区管委会,,29,29,71,14,46,70,,50,50,9,28,6,9,0.4,0.5
2024-12-05T1400,1817A,112.4267,34.6258,洛阳市,市委新办公区,,39,39,84,24,54,71,,52,52,9,29,6,7,0.4,0.6
2024-12-05T1400,3340A,112.6005,34.6326,洛阳市,伊滨,,38,38,100,11,48,67,,45,45,15,39,8,8,0.3,0.7
2024-12-05T1400,3341A,112.4951,34.6332,洛阳市,中移产业园,,37,37,68,14,45,73,,54,54,12,31,7,9,0.3,0.6
2024-12-05T1400,3593A,112.5736,34.8993,洛阳市,吉利监测站,,23,23,76,13,51,72,,39,39,7,43,5,5,0.3,0.6
2024-12-05T1400,3635A,112.3677,34.662,洛阳市,河科大西苑校区,,44,44,77,23,44,73,,57,57,11,30,6,12,0.5,0.7
2024-12-05T1400,3636A,112.4388,34.6781,洛阳市,英才小学,,42,42,79,19,45,66,,45,45,16,38,7,14,0.4,0.6
2024-12-05T1400,2399A,114.051,33.5699,漯河市,三五一五工厂,细颗粒物(PM2.5),54,56,122,38,88,75,,48,48,14,32,8,8,0.4,0.6
2024-12-05T1400,2400A,114.0055,33.5698,漯河市,漯河大学,,,56,131,27,89,,,41,41,16,40,8,7,0.5,0.7
2024-12-05T1400,2401A,114.0138,33.5828,漯河市,市水利局,颗粒物(PM10),52,53,121,24,82,74,,45,45,15,32,10,8,0.5,0.6
2024-12-05T1400,2402A,114.0261,33.5698,漯河市,市广电局,颗粒物(PM10),52,54,114,35,86,74,,46,46,15,32,8,8,0.5,0.7
2024-12-05T1400,3478A,113.9749,33.5664,漯河市,市图书馆,,49,49,127,21,85,72,,47,47,17,34,7,7,0.3,0.6
2024-12-05T1400,3479A,114.0967,33.5906,漯河市,召陵区卫健委,颗粒物(PM10),51,52,130,30,85,76,,43,43,18,39,11,11,0.4,0.7
2024-12-05T1400,1798A,118.5092,31.6837,马鞍山市,湖东路四小,细颗粒物(PM2.5),82,100,55,60,41,81,,61,61,34,35,14,6,1.6,1
2024-12-05T1400,1799A,118.5024,31.6449,马鞍山市,开发区,,,,54,,47,102,,59,59,22,38,,7,0.9,0.9
2024-12-05T1400,1800A,118.5228,31.7231,马鞍山市,慈湖,细颗粒物(PM2.5),92,88,46,68,49,97,,66,66,24,37,13,7,1.2,0.9
2024-12-05T1400,1802A,118.6245,31.7241,马鞍山市,濮塘,细颗粒物(PM2.5),87,76,53,64,44,96,,67,67,25,31,11,9,0.8,0.8
2024-12-05T1400,3633A,118.4918,31.6809,马鞍山市,雨山,细颗粒物(PM2.5),84,98,59,62,40,80,,56,56,33,36,16,10,1.4,0.9
2024-12-05T1400,1686A,111.0286,21.4688,茂名市,电白南海,颗粒物(PM10),57,63,52,24,20,144,,97,97,15,18,6,8,0.5,0.5
2024-12-05T1400,1687A,110.9294,21.6533,茂名市,茂石化七小,颗粒物(PM10),51,51,50,29,26,150,,101,101,10,14,8,10,0.7,0.7
2024-12-05T1400,1688A,110.9107,21.6687,茂名市,健康路,颗粒物(PM10),51,51,47,27,25,158,,105,105,11,15,12,17,0.6,0.6
2024-12-05T1400,1689A,110.8592,21.6828,茂名市,高岭,颗粒物(PM10),54,58,57,31,28,146,,91,91,12,20,12,18,0.7,0.7
2024-12-05T1400,3450A,111.01,21.5165,茂名市,电白水东,颗粒物(PM10),56,61,42,27,21,132,,98,98,9,10,9,11,0.8,0.7
2024-12-05T1400,2539A,104.0308,30.0478,眉山市,黑龙滩水库,,50,50,62,23,39,68,,29,29,15,15,3,4,0.4,0.5
2024-12-05T1400,2540A,103.8416,30.0874,眉山市,气象局,细颗粒物(PM2.5),64,72,66,46,52,20,,5,5,48,41,6,5,0.6,0.6
2024-12-05T1400,3137A,103.8578,30.0744,眉山市,市委党校,颗粒物(PM10),57,63,60,39,40,34,,9,9,37,44,7,6,0.6,0.6
2024-12-05T1400,3148A,103.8291,30.0564,眉山市,区人社局,细颗粒物(PM2.5),55,44,52,39,43,40,,14,14,36,44,7,5,0.5,0.7
2024-12-05T1400,1690A,116.1231,24.3284,梅州市,梅江月梅,,34,34,47,22,24,70,,47,47,12,25,8,9,0.6,0.6
2024-12-05T1400,1691A,116.0797,24.2719,梅州市,梅县新城,,,,65,,32,67,,37,37,11,34,,5,0.4,0.6
2024-12-05T1400,1692A,116.1248,24.2654,梅州市,环境监控中心,,40,40,46,26,27,78,,49,49,10,33,7,7,0.6,0.7
2024-12-05T1400,3315A,116.1233,24.2991,梅州市,梅龙,,32,29,44,22,26,68,,48,48,13,25,7,6,0.7,0.7
2024-12-05T1400,1878A,104.7778,31.4741,绵阳市,富乐山,,38,38,49,23,32,85,,45,45,11,30,4,3,0.4,0.6
2024-12-05T1400,1879A,104.7563,31.4535,绵阳市,市人大,,48,48,66,17,36,78,,29,29,13,47,3,2,0.3,0.6
2024-12-05T1400,1880A,104.6697,31.4668,绵阳市,高新区自来水公司,,41,41,73,17,35,77,,26,26,16,45,5,6,0.3,0.6
2024-12-05T1400,1881A,104.7287,31.5075,绵阳市,三水厂,颗粒物(PM10),54,58,70,31,47,83,,25,25,10,40,7,8,0.3,0.7
2024-12-05T1400,3491A,104.69,31.5322,绵阳市,西科大附属小学,,38,38,69,24,49,77,,25,25,13,42,6,5,0.4,0.7
2024-12-05T1400,3492A,104.5648,31.5343,绵阳市,安州区旅游局,,44,44,73,22,51,73,,29,29,22,42,8,8,0.4,0.7
2024-12-05T1400,1784A,129.61,44.561,牡丹江市,环保大楼,,26,20,33,18,20,60,,54,53,15,15,6,7,0.4,0.4
2024-12-05T1400,1785A,129.6115,44.5782,牡丹江市,文化广场,,45,45,32,30,20,59,,56,51,19,19,11,12,0.5,0.5
2024-12-05T1400,1786A,129.5904,44.5963,牡丹江市,第一医院,,,26,29,,31,74,,66,64,13,13,6,6,0.4,0.5
2024-12-05T1400,1787A,129.6364,44.6075,牡丹江市,机车工厂,,25,25,30,13,16,50,,50,44,22,22,7,8,0.4,0.4
2024-12-05T1400,1788A,129.6386,44.5462,牡丹江市,第一中学,,26,,24,18,15,61,,52,52,13,15,5,6,0.3,0.3
2024-12-05T1400,2531A,105.0703,29.61,内江市,市监测站,,,,44,46,44,32,,24,19,,23,7,6,,0.8
2024-12-05T1400,2532A,105.0717,29.5947,内江市,东兴区政府,细颗粒物(PM2.5),57,42,48,40,39,33,,29,18,27,29,6,6,0.7,0.8
2024-12-05T1400,2533A,105.0653,29.5817,内江市,内江二中,细颗粒物(PM2.5),65,,50,47,39,27,,26,14,31,30,8,7,0.6,0.7
2024-12-05T1400,2534A,105.0406,29.5822,内江市,内江日报社,细颗粒物(PM2.5),60,46,48,43,40,31,,28,23,29,29,9,9,0.7,0.7
2024-12-05T1400,2628A,92.0657,31.4846,那曲市,那曲监测站,,47,47,77,27,40,82,,44,44,16,24,7,11,0.5,1.2
2024-12-05T1400,3128A,92.0506,31.4797,那曲市,那曲会议中心,,39,39,82,6,31,79,,37,37,9,17,3,6,1.2,1.3
2024-12-05T1400,1290A,115.8931,28.6843,南昌市,省外办,,32,32,89,22,67,34,,28,28,28,26,4,4,0.8,0.8
2024-12-05T1400,1291A,115.8886,28.7003,南昌市,省林业公司,,25,,77,17,60,32,,27,27,23,24,6,7,0.7,0.7
2024-12-05T1400,1292A,115.8126,28.7442,南昌市,林科所,,13,9,76,9,58,31,,29,20,26,32,4,5,1.0,1
2024-12-05T1400,1294A,115.8518,28.687,南昌市,建工学校,,25,,82,17,54,29,,23,19,24,33,6,7,0.9,0.8
2024-12-05T1400,1295A,115.8921,28.6424,南昌市,象湖,,26,25,77,18,61,36,,29,29,32,32,6,6,0.9,1.1
2024-12-05T1400,1296A,115.7423,28.7996,南昌市,武术学校,,27,27,76,18,52,22,,22,13,18,20,3,3,0.9,0.9
2024-12-05T1400,1298A,115.9314,28.6842,南昌市,省站,,48,48,95,14,61,43,,37,37,19,31,8,9,0.7,0.7
2024-12-05T1400,3046A,115.9084,28.6062,南昌市,机电学校,,23,23,89,14,60,37,,28,28,22,26,9,10,0.8,0.8
2024-12-05T1400,3690A,115.9721,28.7031,南昌市,外国语学校,,33,33,84,15,56,43,,39,39,26,26,5,5,0.7,0.8
2024-12-05T1400,1905A,106.056,30.8064,南充市,西山风景区,,,11,25,,28,57,,58,57,4,9,1,2,,0.8
2024-12-05T1400,1906A,106.0789,30.8023,南充市,南充市委,,23,21,32,16,25,53,,53,50,20,24,3,4,0.3,0.4
2024-12-05T1400,1907A,106.1031,30.8217,南充市,南充炼油厂,,35,35,41,21,28,53,,60,53,21,21,2,3,0.6,0.7
2024-12-05T1400,1908A,106.1064,30.7856,南充市,高坪区监测站,,28,21,38,19,28,64,,57,57,15,21,2,4,0.2,0.4
2024-12-05T1400,1909A,106.0642,30.7636,南充市,嘉陵区环保局,,27,27,37,14,24,53,,55,48,26,28,3,4,0.4,0.5
2024-12-05T1400,1910A,106.1087,30.8388,南充市,市环境监测站,,28,22,42,19,30,57,,59,58,12,16,4,4,0.2,0.3
2024-12-05T1400,1151A,118.8086,32.1065,南京市,迈皋桥,细颗粒物(PM2.5),79,87,56,58,37,99,,61,61,15,27,5,5,0.6,0.6
2024-12-05T1400,1152A,118.7538,32.0551,南京市,草场门,细颗粒物(PM2.5),83,83,49,61,37,91,,65,65,16,28,4,4,0.7,0.7
2024-12-05T1400,1153A,118.7794,32.0745,南京市,山西路,细颗粒物(PM2.5),85,92,59,63,42,112,,92,92,30,39,3,4,0.4,0.4
2024-12-05T1400,1154A,118.7752,32.0023,南京市,中华门,细颗粒物(PM2.5),83,88,55,61,38,96,,70,70,17,30,5,4,0.7,0.7
2024-12-05T1400,1155A,118.8109,32.0309,南京市,瑞金路,细颗粒物(PM2.5),83,95,60,61,39,90,,59,59,15,26,5,5,0.6,0.5
2024-12-05T1400,1156A,118.7997,32.0754,南京市,玄武湖,细颗粒物(PM2.5),84,95,58,62,39,88,,58,58,23,38,7,7,0.5,0.5
2024-12-05T1400,1157A,118.6414,32.0931,南京市,浦口,细颗粒物(PM2.5),82,90,61,60,40,94,,66,66,15,22,6,7,0.8,0.8
2024-12-05T1400,1158A,118.7356,31.9996,南京市,奥体中心,细颗粒物(PM2.5),77,88,56,56,34,95,,69,69,31,37,9,8,0.6,0.5
2024-12-05T1400,1159A,118.9125,32.1028,南京市,仙林大学城,细颗粒物(PM2.5),110,112,54,83,40,79,,60,60,25,37,7,6,,0.6
2024-12-05T1400,3422A,118.8436,31.9198,南京市,江宁彩虹桥,细颗粒物(PM2.5),83,106,59,61,37,91,,70,70,27,31,4,6,0.6,0.5
2024-12-05T1400,3423A,119.0138,31.6494,南京市,溧水永阳,,,61,45,56,30,75,,58,58,23,28,3,3,,0.3
2024-12-05T1400,3424A,118.879,31.3302,南京市,高淳老职中,细颗粒物(PM2.5),85,63,53,63,43,76,,53,53,21,25,4,5,1.0,0.7
2024-12-05T1400,3427A,118.8554,32.3578,南京市,六合雄州,细颗粒物(PM2.5),78,77,50,57,32,91,,55,55,4,20,6,5,0.6,0.5
2024-12-05T1400,1401A,108.3103,22.7881,南宁市,二十一中,,,76,72,47,50,,,97,97,17,28,8,8,0.8,0.9
2024-12-05T1400,1402A,108.3141,22.8528,南宁市,北湖,细颗粒物(PM2.5),64,67,87,46,59,153,,87,87,17,58,11,13,0.9,1
2024-12-05T1400,1403A,108.3206,22.8225,南宁市,市监测站,细颗粒物(PM2.5),65,76,79,47,53,162,,99,99,20,37,16,16,0.8,0.9
2024-12-05T1400,1404A,108.3829,22.8037,南宁市,大自然花园,细颗粒物(PM2.5),77,79,79,56,59,162,,98,98,20,33,11,10,0.6,0.6
2024-12-05T1400,1405A,108.4394,22.7904,南宁市,仙葫,细颗粒物(PM2.5),83,69,78,61,57,153,,80,80,12,37,9,7,0.8,0.8
2024-12-05T1400,1406A,108.2397,22.8467,南宁市,区农职院,颗粒物(PM10),69,87,88,44,55,165,,86,86,14,44,12,15,0.7,0.7
2024-12-05T1400,1407A,108.3275,22.735,南宁市,英华嘉园,颗粒物(PM10),113,175,92,61,59,171,,89,89,21,49,11,10,0.8,0.9
2024-12-05T1400,1408A,108.2257,22.7757,南宁市,沙井镇街道办,细颗粒物(PM2.5),73,83,113,53,57,160,,73,73,25,65,9,10,0.9,1
2024-12-05T1400,3401A,108.4834,22.7618,南宁市,红星社区,颗粒物(PM10),67,83,85,47,59,164,,88,88,15,36,12,9,0.8,0.8
2024-12-05T1400,2331A,118.0966,26.6761,南平市,茫荡山,,,,,,,,,,,,,,,,
2024-12-05T1400,2332A,118.1681,26.6369,南平市,南平市监测站,,43,43,39,30,28,98,,50,50,9,22,3,3,0.3,0.6
2024-12-05T1400,2333A,118.1825,26.6489,南平市,南平铝业有限公司,,,,37,32,27,98,,49,49,7,28,,4,0.4,0.6
2024-12-05T1400,2334A,118.1756,26.6272,南平市,南平七中,颗粒物(PM10),55,59,39,24,25,97,,48,48,9,17,4,3,0.3,0.4
2024-12-05T1400,1168A,120.9098,31.9663,南通市,狼山街道,细颗粒物(PM2.5),80,81,43,59,26,85,,64,64,24,19,9,7,0.6,0.4
2024-12-05T1400,1169A,120.86,32.0005,南通市,虹桥,细颗粒物(PM2.5),79,75,43,58,31,87,,58,56,20,21,6,6,0.5,0.4
2024-12-05T1400,1170A,120.87,32.02,南通市,城中,细颗粒物(PM2.5),73,84,50,53,28,95,,60,60,18,25,7,7,0.6,0.5
2024-12-05T1400,1171A,120.94,31.93,南通市,星湖花园,细颗粒物(PM2.5),77,84,41,56,22,79,,62,62,32,24,9,6,0.8,0.4
2024-12-05T1400,1172A,120.81,32.0417,南通市,紫琅学院,,,82,48,54,29,89,,54,54,17,29,,4,0.7,0.6
2024-12-05T1400,3291A,121.067,32.062,南通市,通州监测站,细颗粒物(PM2.5),94,95,48,70,29,91,,56,56,17,16,4,3,0.6,0.4
2024-12-05T1400,3432A,120.9348,31.9883,南通市,环境教育馆,细颗粒物(PM2.5),74,70,37,54,24,93,,65,65,19,21,4,4,0.6,0.5
2024-12-05T1400,2404A,112.5224,33.0122,南阳市,瓦房庄,细颗粒物(PM2.5),83,77,112,61,106,79,,26,26,22,37,8,6,0.6,0.8
2024-12-05T1400,2405A,112.5003,32.9735,南阳市,汉画馆,细颗粒物(PM2.5),78,80,110,57,86,69,,25,25,29,37,8,5,0.6,1
2024-12-05T1400,2406A,112.5573,33.027,南阳市,气象站,细颗粒物(PM2.5),62,69,113,44,96,79,,27,27,20,39,6,4,0.8,1.1
2024-12-05T1400,2407A,112.5481,32.9689,南阳市,理工学院,细颗粒物(PM2.5),87,68,116,64,99,73,,24,24,21,35,7,5,0.6,0.8
2024-12-05T1400,4008A,112.5234,32.9922,南阳市,卧龙区政府,细颗粒物(PM2.5),92,92,120,68,100,68,,23,23,32,38,6,4,0.6,0.7
2024-12-05T1400,1234A,121.8358,29.911,宁波市,区环保大楼,,42,42,36,27,18,60,,65,58,40,32,7,9,0.6,0.5
2024-12-05T1400,1235A,121.56,29.82,宁波市,万里学院,颗粒物(PM10),51,52,44,25,23,62,,62,62,29,36,6,7,0.6,0.6
2024-12-05T1400,1236A,121.713,29.9572,宁波市,龙赛医院,,25,24,31,17,15,64,,74,72,35,30,8,10,0.6,0.5
2024-12-05T1400,1239A,121.633,29.7733,宁波市,钱湖水厂,,43,43,35,29,20,61,,59,59,31,24,6,6,0.8,0.7
2024-12-05T1400,1240A,121.5856,29.8635,宁波市,太古小学,,,44,43,28,21,57,,60,59,,36,7,10,0.6,0.6
2024-12-05T1400,1241A,121.524,29.8674,宁波市,市环境监测中心,,,40,36,23,16,50,,62,59,,36,5,8,0.9,0.8
2024-12-05T1400,2871A,121.6147,29.9017,宁波市,万里国际学校,,49,49,45,14,17,46,,54,51,48,48,6,8,0.6,0.5
2024-12-05T1400,3710A,121.5594,29.8975,宁波市,白沙活动中心,,36,36,41,16,16,61,,64,62,26,34,8,9,0.6,0.6
2024-12-05T1400,2339A,119.5001,26.6946,宁德市,金涵水库,,,,,,,,,,,,,,,,
2024-12-05T1400,2341A,119.5388,26.6612,宁德市,宁德市监测站,,42,42,48,19,35,103,,63,63,9,20,4,5,0.4,0.5
2024-12-05T1400,3209A,119.5231,26.6562,宁德市,宁德一中,,40,29,47,28,33,104,,77,77,10,14,5,5,0.4,0.6
2024-12-05T1400,2618A,98.8601,25.8567,怒江傈僳族自治州,州监测站,,25,24,30,10,13,78,,41,41,8,14,5,5,0.4,0.4
2024-12-05T1400,2619A,98.8546,25.8417,怒江傈僳族自治州,泸水一中,,26,21,25,18,15,68,,28,28,10,19,7,6,0.5,0.6
2024-12-05T1400,1888A,101.6891,26.571,攀枝花市,弄弄坪,细颗粒物(PM2.5),60,53,54,43,33,68,,29,29,33,32,28,25,1.9,1.4
2024-12-05T1400,1889A,101.5769,26.5928,攀枝花市,河门口,,29,25,47,20,30,88,,40,40,17,31,15,15,1.6,1.4
2024-12-05T1400,1890A,101.7169,26.585,攀枝花市,炳草岗,,34,34,56,18,31,77,,26,26,23,42,23,20,0.9,1.1
2024-12-05T1400,1891A,101.7369,26.5008,攀枝花市,仁和,,47,47,44,32,27,86,,37,37,27,26,26,19,1.6,0.9
2024-12-05T1400,2835A,101.7227,26.567,攀枝花市,四十中小,,44,44,50,27,29,86,,29,29,11,47,10,12,0.6,1.1
2024-12-05T1400,1604A,122.0303,41.1489,盘锦市,开发区,,30,30,38,10,22,70,,41,41,8,42,17,17,0.4,0.7
2024-12-05T1400,1605A,122.0485,41.0883,盘锦市,兴隆台,,21,12,37,3,24,67,,39,39,11,45,11,18,0.4,0.7
2024-12-05T1400,1606A,121.8297,41.1028,盘锦市,新生街道,,24,24,25,11,14,73,,44,44,12,39,11,24,0.4,0.5
2024-12-05T1400,1832A,113.3257,33.742,平顶山市,新华旅馆,颗粒物(PM10),52,54,126,23,75,71,,57,57,7,29,9,9,0.5,0.7
2024-12-05T1400,1833A,113.2919,33.737,平顶山市,规划设计院,,41,41,133,27,80,82,,64,64,7,30,7,7,0.5,0.9
2024-12-05T1400,1834A,113.182,33.774,平顶山市,平顶山工学院,,43,43,119,12,70,76,,53,53,7,26,8,10,0.6,0.9
2024-12-05T1400,3204A,113.3025,33.73,平顶山市,规划局,,48,48,119,26,80,75,,57,57,5,28,8,9,0.7,0.9
2024-12-05T1400,3594A,112.8867,33.9116,平顶山市,石龙区,颗粒物(PM10),52,53,110,17,60,80,,66,66,12,30,10,12,0.8,1
2024-12-05T1400,2656A,106.6692,35.5461,平凉市,聚贤嘉苑,,50,50,44,21,22,83,,42,42,20,41,11,10,0.4,0.4
2024-12-05T1400,2657A,106.7021,35.5307,平凉市,博物馆,,42,42,58,15,26,90,,45,45,12,26,11,12,0.4,0.5
2024-12-05T1400,2347A,114.0997,27.5002,萍乡市,武功山,,16,16,91,6,60,26,,28,24,14,17,9,11,0.2,0.4
2024-12-05T1400,2348A,113.8385,27.6434,萍乡市,中医院,,26,25,108,18,72,27,,19,19,20,31,6,12,0.8,1.1
2024-12-05T1400,2349A,113.8493,27.6253,萍乡市,市政府车库,,26,22,90,18,75,29,,24,24,16,24,14,13,0.6,0.8
2024-12-05T1400,2350A,113.8676,27.6435,萍乡市,市环保局,,28,22,92,19,62,28,,22,22,17,27,12,15,0.7,1
2024-12-05T1400,2351A,113.866,27.6198,萍乡市,安源区政府,,25,17,97,17,72,31,,26,26,13,26,4,7,0.6,0.8
2024-12-05T1400,2319A,119.0141,25.4325,莆田市,荔城区仓后路,,31,30,39,14,21,98,,96,95,10,9,2,1,0.5,0.5
2024-12-05T1400,2320A,119.0015,25.4553,莆田市,莆田市监测站,,35,35,37,13,19,101,,98,97,8,7,3,2,0.4,0.4
2024-12-05T1400,2321A,119.1119,25.4561,莆田市,涵江区六中,,35,35,39,12,18,104,,99,98,8,8,2,2,0.3,0.3
2024-12-05T1400,2322A,119.1013,25.3215,莆田市,秀屿区政府,,33,21,37,12,21,104,,97,97,8,10,2,2,0.4,0.4
2024-12-05T1400,2323A,118.981,25.4792,莆田市,东圳水库,,,,,,,,,,,,,,,,
2024-12-05T1400,2392A,115.0312,35.7636,濮阳市,环保局,细颗粒物(PM2.5),109,100,100,82,90,65,,26,26,30,47,5,2,1.1,1.1
2024-12-05T1400,2394A,115.0574,35.7609,濮阳市,油田运输公司,细颗粒物(PM2.5),123,105,146,93,96,74,,28,28,24,45,7,2,0.8,1
2024-12-05T1400,2395A,115.0866,35.7754,濮阳市,油田物探公司,细颗粒物(PM2.5),113,111,135,85,100,75,,23,23,24,43,8,3,1.0,1
2024-12-05T1400,3021A,115,35.7668,濮阳市,濮水河管理处,细颗粒物(PM2.5),123,128,129,93,84,62,,24,24,23,39,8,4,0.9,0.8
2024-12-05T1400,2601A,100.98,22.7633,普洱市,市环保局,,25,25,29,11,13,44,,26,26,7,11,6,6,0.5,0.5
2024-12-05T1400,2602A,100.9817,22.8322,普洱市,普洱第二中学,,,32,31,11,16,48,,24,24,9,14,,6,0.5,0.5
2024-12-05T1400,2262A,131.0518,45.8751,七台河市,新一中,,25,8,16,3,8,77,,75,75,8,8,10,10,1.3,1.3
2024-12-05T1400,3345A,131.0577,45.7879,七台河市,中波台,,20,13,18,3,9,61,,55,55,13,20,12,9,0.6,0.6
2024-12-05T1400,3637A,131.0176,45.7761,七台河市,人民广场,,23,19,17,16,15,62,,58,55,17,22,8,7,0.5,0.5
2024-12-05T1400,3684A,130.8781,45.8222,七台河市,新建矿广场,,25,,7,17,19,59,,61,61,18,16,3,3,0.5,0.4
2024-12-05T1400,1779A,123.9305,47.3636,齐齐哈尔市,安居小区,,22,20,21,8,13,68,,57,57,12,17,6,6,0.2,0.3
2024-12-05T1400,1780A,123.9488,47.3386,齐齐哈尔市,中心广场,,25,18,15,17,11,62,,54,53,14,14,4,5,0.4,0.4
2024-12-05T1400,1781A,123.9483,47.3227,齐齐哈尔市,农牧车辆厂,,21,17,17,12,11,65,,51,51,15,17,5,8,0.3,0.4
2024-12-05T1400,1783A,123.945,47.2988,齐齐哈尔市,市环境监测站,,,22,20,12,10,,,53,49,10,15,2,3,0.4,0.4
2024-12-05T1400,3662A,123.6333,47.2075,齐齐哈尔市,富区青少年活动中心,,22,22,23,9,8,56,,50,50,11,16,9,9,0.6,0.6
2024-12-05T1400,2591A,107.9783,26.5747,黔东南苗族侗族自治州,市环境监测站,,23,14,41,12,36,73,,65,65,16,16,2,2,0.5,0.7
2024-12-05T1400,2881A,107.8908,26.5311,黔东南苗族侗族自治州,凯里学院,,23,,32,12,35,72,,67,67,12,16,3,3,0.4,0.6
2024-12-05T1400,2593A,107.5228,26.2403,黔南布依族苗族自治州,小围寨,,20,9,14,9,13,63,,52,52,7,6,4,4,0.7,0.8
2024-12-05T1400,3538A,107.5175,26.2978,黔南布依族苗族自治州,沙坝,,23,9,17,3,14,73,,58,58,10,9,4,4,0.4,0.5
2024-12-05T1400,2589A,104.9022,25.0925,黔西南布依族苗族自治州,场坝街,,30,30,36,20,27,50,,53,52,12,9,4,4,0.5,0.4
2024-12-05T1400,2590A,104.8811,25.0992,黔西南布依族苗族自治州,坪东大道,,32,30,30,22,27,47,,50,49,14,9,5,4,0.5,0.4
2024-12-05T1400,2502A,108.6236,21.9667,钦州市,市环保站,,41,41,93,24,48,122,,74,74,11,39,5,9,0.7,1
2024-12-05T1400,2503A,108.6549,21.9481,钦州市,沙埠小学,,45,45,110,23,54,127,,71,71,12,57,6,11,0.6,0.8
2024-12-05T1400,2504A,108.5989,21.7431,钦州市,港区一小,颗粒物(PM10),63,75,107,36,41,132,,76,76,26,57,11,10,0.8,0.8
2024-12-05T1400,3404A,108.5959,21.9633,钦州市,北职校,,39,31,85,22,63,124,,64,64,14,37,8,12,0.6,1
2024-12-05T1400,1042A,119.5134,39.8207,秦皇岛市,北戴河环保局,,21,16,33,7,18,67,,48,48,6,32,3,2,0.3,0.7
2024-12-05T1400,1043A,119.7493,40.0116,秦皇岛市,第一关,,20,,30,12,19,63,,33,33,8,50,4,6,0.2,0.5
2024-12-05T1400,1044A,119.5897,39.9499,秦皇岛市,监测站,,20,16,36,8,18,63,,34,34,6,41,4,8,0.3,0.7
2024-12-05T1400,1046A,119.5251,39.9041,秦皇岛市,建设大厦,,20,20,34,6,17,64,,43,43,4,31,2,8,0.3,0.6
2024-12-05T1400,3132A,119.610547,39.943889,秦皇岛市,文明里,,24,24,41,3,20,64,,39,39,9,41,5,8,0.2,0.6
2024-12-05T1400,1307A,120.6659,36.2403,青岛市,仰口,细颗粒物(PM2.5),142,143,74,108,54,101,,68,68,31,26,11,13,0.6,0.5
2024-12-05T1400,1310A,120.4134,36.0658,青岛市,市南区东部子站,细颗粒物(PM2.5),140,185,110,107,58,92,,44,44,30,67,12,17,0.9,1
2024-12-05T1400,1311A,120.3664,36.1032,青岛市,四方区子站,细颗粒物(PM2.5),163,173,100,124,69,100,,44,44,29,69,13,17,0.9,1
2024-12-05T1400,1312A,120.2994,36.054,青岛市,市南区西部子站,细颗粒物(PM2.5),113,134,89,85,52,92,,49,49,26,53,15,14,0.9,0.9
2024-12-05T1400,1313A,120.4581,36.0858,青岛市,崂山区子站,细颗粒物(PM2.5),134,153,94,102,56,106,,50,50,28,58,14,15,0.8,0.9
2024-12-05T1400,1314A,120.1983,35.9608,青岛市,黄岛区子站,细颗粒物(PM2.5),108,119,93,81,60,87,,58,58,33,63,12,13,0.8,0.8
2024-12-05T1400,1315A,120.3999,36.3083,青岛市,城阳区子站,细颗粒物(PM2.5),110,141,107,83,55,88,,40,40,20,56,10,14,0.9,1.2
2024-12-05T1400,1966A,120.0405,35.8735,青岛市,黄岛区4号,细颗粒物(PM2.5),92,102,94,68,56,71,,46,46,41,58,13,13,0.9,0.8
2024-12-05T1400,3362A,120.5014,36.4034,青岛市,即墨2号,细颗粒物(PM2.5),134,137,128,102,82,72,,28,28,35,70,12,23,0.9,1.5
2024-12-05T1400,3642A,120.3503,36.0736,青岛市,市北区南部,细颗粒物(PM2.5),128,193,102,97,57,90,,42,42,,74,10,17,0.8,0.8
2024-12-05T1400,3643A,120.3948,36.1805,青岛市,李沧区北部,细颗粒物(PM2.5),175,188,111,132,71,88,,38,38,43,67,14,17,0.9,1.1
2024-12-05T1400,1702A,113.0426,23.691,清远市,环保大楼,细颗粒物(PM2.5),62,55,45,44,40,132,,83,83,7,29,8,8,0.9,0.8
2024-12-05T1400,1703A,113.0208,23.7106,清远市,凤城街办,细颗粒物(PM2.5),73,68,55,53,37,133,,95,95,13,30,11,11,0.8,0.9
2024-12-05T1400,3025A,113.0477,23.6344,清远市,技师学院,细颗粒物(PM2.5),57,54,68,40,40,127,,70,70,10,43,10,11,1.0,1
2024-12-05T1400,3318A,112.9903,23.7403,清远市,清新太和,细颗粒物(PM2.5),78,78,57,57,39,128,,86,86,14,23,7,6,0.9,0.7
2024-12-05T1400,3455A,113.076,23.7198,清远市,清城东城,颗粒物(PM10),58,66,48,36,32,125,,76,76,8,18,9,8,0.8,1
2024-12-05T1400,2661A,107.6325,35.7357,庆阳市,庆阳五中,,32,32,50,11,20,79,,67,67,8,13,3,5,0.3,0.4
2024-12-05T1400,2662A,107.6364,35.7067,庆阳市,市环保局,,33,33,47,10,14,83,,71,71,5,10,2,5,0.4,0.4
2024-12-05T1400,1916A,103.7897,25.5035,曲靖市,环境监测站,,27,13,41,8,22,84,,44,44,7,19,6,8,0.4,0.7
2024-12-05T1400,1917A,103.8,25.5364,曲靖市,烟厂办公区,,,,43,16,23,85,,45,45,5,19,,5,0.1,0.5
2024-12-05T1400,3376A,103.7947,25.462,曲靖市,南苑二区,,,,34,20,19,90,,48,48,4,14,,7,0.4,0.7
2024-12-05T1400,3377A,103.7444,25.5261,曲靖市,曲靖师范学院,,30,,41,9,30,95,,48,48,8,32,7,32,0.4,0.7
2024-12-05T1400,1264A,118.8692,28.9398,衢州市,环保大楼,,42,42,90,29,66,17,,21,13,35,34,4,4,0.5,0.6
2024-12-05T1400,1265A,118.8709,28.9666,衢州市,实验学校,,,30,69,25,56,21,,25,17,35,31,6,4,,0.5
2024-12-05T1400,1266A,118.8621,28.9808,衢州市,衢州学院,,36,36,86,25,59,26,,35,26,37,39,5,5,0.4,0.4
2024-12-05T1400,1611A,118.5819,24.9117,泉州市,涂山街,,40,35,40,17,22,125,,96,96,9,10,2,2,0.5,0.5
2024-12-05T1400,1612A,118.5972,24.8978,泉州市,津头埔,,40,40,41,19,22,118,,90,90,12,13,3,2,0.4,0.4
2024-12-05T1400,1613A,118.6663,24.9424,泉州市,万安,,44,44,43,19,21,136,,100,100,8,12,2,1,0.4,0.3
2024-12-05T1400,1614A,118.6117,24.9604,泉州市,清源山,,,,,,,,,,,,,,,,
2024-12-05T1400,3529A,118.6333,24.9264,泉州市,城华南路,,40,38,39,19,22,128,,99,99,10,12,2,2,0.3,0.3
2024-12-05T1400,2626A,88.8876,29.2718,日喀则市,日喀则监测站,细颗粒物(PM2.5),65,70,61,47,22,90,,50,50,7,35,4,7,0.3,1
2024-12-05T1400,3726A,88.8781,29.2426,日喀则市,林业技术推广中心,,27,24,34,3,12,86,,43,43,5,14,6,8,0.2,0.4
2024-12-05T1400,1659A,119.471,35.4209,日照市,监测站,细颗粒物(PM2.5),88,95,127,65,82,81,,22,22,31,64,11,11,0.7,1.3
2024-12-05T1400,1660A,119.523,35.4216,日照市,市政府广场,细颗粒物(PM2.5),73,90,115,53,74,89,,29,29,21,62,10,11,0.8,1.2
2024-12-05T1400,1661A,119.5587,35.4044,日照市,港务局,细颗粒物(PM2.5),118,132,132,89,81,68,,22,22,43,67,18,14,1.1,1.1
2024-12-05T1400,3507A,119.5328,35.4625,日照市,职业技术学院,细颗粒物(PM2.5),79,97,118,58,73,80,,25,25,28,64,11,8,0.8,1
2024-12-05T1400,3604A,119.3266,35.1044,日照市,岚山环保分局,细颗粒物(PM2.5),119,127,144,90,91,81,,29,29,31,67,11,15,0.9,1.2
2024-12-05T1400,1835A,111.1922,34.7752,三门峡市,市政府,,50,46,70,35,45,68,,24,24,10,45,6,10,0.4,0.8
2024-12-05T1400,1836A,111.1587,34.7942,三门峡市,开发区,,,66,78,41,44,56,,24,24,,37,4,5,0.4,0.5
2024-12-05T1400,1838A,111.143,34.7955,三门峡市,风景区,细颗粒物(PM2.5),79,90,68,58,45,60,,26,26,23,37,13,14,0.4,0.6
2024-12-05T1400,3039A,111.1911,34.7829,三门峡市,三门峡市第一小学,,50,50,70,27,41,67,,25,25,12,40,8,11,0.4,0.7
2024-12-05T1400,3598A,111.1,34.7167,三门峡市,富达温泉假日酒店,颗粒物(PM10),62,73,93,38,53,63,,24,24,23,45,11,11,0.5,0.7
2024-12-05T1400,2324A,117.6211,26.2625,三明市,三钢,,46,46,39,24,34,74,,29,29,17,26,14,6,1.9,1.1
2024-12-05T1400,2325A,117.635,26.2714,三明市,三明二中,,,51,39,31,28,70,,25,25,26,26,,5,3.0,1.2
2024-12-05T1400,2326A,117.6028,26.2378,三明市,三元区政府,,48,42,42,33,27,73,,30,30,16,28,5,3,0.8,0.8
2024-12-05T1400,2327A,117.7275,26.3108,三明市,洋溪,,,,,,,,,,,,,,,,
2024-12-05T1400,1876A,109.5078,18.2489,三亚市,河东子站,,,23,31,15,14,,,57,57,6,7,2,3,,0.7
