timepoint,stationcode,longitude,latitude,area,positionname,primarypollutant,aqi,pm10,pm10_24h,pm2_5,pm2_5_24h,o3,o3_24h,o3_8h,o3_8h_24h,no2,no2_24h,so2,so2_24h,co,co_24h
2025-11-13T1400,2566A,102.1879,31.914,阿坝藏族羌族自治州,州农科所,,,,,,,,,,,,,,,,
2025-11-13T1400,2568A,102.2502,31.8896,阿坝藏族羌族自治州,马师校,,12,9,20,3,10,38,,29,19,9,12,6,6,0.5,0.7
2025-11-13T1400,3994A,102.2165,31.9024,阿坝藏族羌族自治州,马尔康中学西区,,,,17,,13,47,,28,24,6,11,,6,0.6,0.5
2025-11-13T1400,2695A,80.292,41.1694,阿克苏地区,电视台,颗粒物(PM10),106,162,219,49,80,68,,45,45,24,44,7,8,1.1,1.8
2025-11-13T1400,2696A,80.2613,41.1551,阿克苏地区,艺术中心,颗粒物(PM10),106,162,181,58,72,70,,47,47,23,47,6,5,0.6,1
2025-11-13T1400,2204A,105.6467,38.8363,阿拉善盟,西城区西花园,,,,,,,,,,,,,,,,
2025-11-13T1400,2205A,105.6985,38.8411,阿拉善盟,蒙二幼,,27,25,29,9,8,86,,74,64,7,13,9,8,0.5,0.7
2025-11-13T1400,2206A,105.724,38.8516,阿拉善盟,环保局新楼,,32,32,24,11,8,80,,82,76,9,6,10,9,0.6,0.6
2025-11-13T1400,2708A,88.1264,47.8517,阿勒泰地区,市站,,,,11,,4,41,,73,60,27,15,4,4,0.3,0.4
2025-11-13T1400,2630A,80.1161,32.5,阿里地区,阿里监测站,,25,6,3,3,3,80,,59,59,5,11,7,8,0.4,0.5
2025-11-13T1400,3192A,80.0903,32.5028,阿里地区,阿里藏医院,,26,8,11,7,4,83,,71,66,4,5,9,9,0.5,0.5
2025-11-13T1400,2642A,109.0318,32.6537,安康市,香溪洞,,,,,,,,,,,,,,,,
2025-11-13T1400,2644A,109.0072,32.6975,安康市,汉滨区检察院,颗粒物(PM10),59,68,61,35,29,47,,19,19,19,24,6,6,0.6,0.5
2025-11-13T1400,4054A,109.0325,32.6913,安康市,市邮政管理局,颗粒物(PM10),58,65,67,34,31,47,,19,19,15,23,4,4,0.5,0.6
2025-11-13T1400,2291A,117.0809,30.5177,安庆市,环科院,,50,50,48,23,29,126,,83,83,9,13,6,6,0.5,0.4
2025-11-13T1400,2292A,117.0331,30.5119,安庆市,马山宾馆,,48,48,45,28,28,127,,87,87,12,18,6,6,0.3,0.3
2025-11-13T1400,2294A,116.9896,30.6145,安庆市,安庆大学,,40,40,48,22,29,127,,87,87,10,14,8,7,0.4,0.5
2025-11-13T1400,3173A,117.0598,30.5351,安庆市,市人大,,46,46,45,27,29,130,,87,87,12,18,7,7,0.4,0.4
2025-11-13T1400,3122A,105.9606,26.2611,安顺市,伍家关,,20,16,22,10,15,64,,48,48,7,8,9,9,0.3,0.3
2025-11-13T1400,3123A,105.9408,26.2431,安顺市,凤凰山,,19,16,20,11,13,60,,45,45,8,8,11,11,0.5,0.5
2025-11-13T1400,3124A,105.9439,26.2564,安顺市,金钟山,,20,16,21,11,13,64,,46,46,6,7,11,12,0.6,0.6
2025-11-13T1400,3125A,105.8983,26.2481,安顺市,娄家坡,,18,18,21,11,15,53,,42,42,8,10,11,17,0.7,0.7
2025-11-13T1400,1818A,114.4839,36.0621,安阳市,棉研所,,,,,,,,,,,,,,,,
2025-11-13T1400,1819A,114.3551,36.1017,安阳市,红庙街,,32,31,109,22,77,85,,59,59,12,39,2,5,0.4,0.8
2025-11-13T1400,1820A,114.361,36.0681,安阳市,银杏小区,,42,35,110,29,81,87,,60,60,19,41,4,7,0.2,0.8
2025-11-13T1400,3141A,114.3922,36.0878,安阳市,信访局,,50,40,116,35,80,85,,63,63,11,34,4,5,0.3,0.7
2025-11-13T1400,3669A,114.4705,36.0637,安阳市,左辅环卫站,颗粒物(PM10),60,69,159,30,88,83,,61,61,12,39,4,6,0.2,0.9
2025-11-13T1400,3703A,114.2917,36.0949,安阳市,安钢职工学校,,46,38,124,32,84,84,,54,54,11,40,2,11,0.3,1
2025-11-13T1400,1748A,123.044,41.1196,鞍山市,深沟寺,,33,33,74,19,44,78,,44,44,16,30,11,13,0.7,1
2025-11-13T1400,1749A,123.011,41.0931,鞍山市,太阳城,,34,34,76,19,43,78,,48,48,19,26,20,14,1.2,0.9
2025-11-13T1400,1750A,123.0485,41.1442,鞍山市,太平,,,44,85,20,45,75,,38,38,15,30,12,14,,1.1
2025-11-13T1400,1751A,122.9642,41.0971,鞍山市,铁西三道街,,41,41,86,23,46,77,,46,46,15,28,12,14,0.6,1.1
2025-11-13T1400,1753A,123.022,41.0821,鞍山市,明达新区,,34,34,74,17,42,76,,44,44,18,23,18,14,1.2,0.9
2025-11-13T1400,1754A,123.1289,41.0228,鞍山市,千山,,,,53,,27,,,86,,,16,,5,,0.4
2025-11-13T1400,4201A,122.9446,41.0826,鞍山市,兴盛南路290号,,37,37,87,17,46,76,,44,44,22,33,9,12,0.6,1
2025-11-13T1400,2195A,107.4212,40.761,巴彦淖尔市,附二中,,44,44,39,14,22,76,,44,44,6,22,5,5,0.3,0.4
2025-11-13T1400,2196A,107.37,40.7372,巴彦淖尔市,市环保大楼,,50,50,38,6,20,82,,54,54,7,24,7,8,0.4,0.5
2025-11-13T1400,1956A,86.1472,41.7538,巴音郭楞蒙古自治州,孔雀公园,颗粒物(PM10),95,140,133,29,34,61,,34,33,17,31,10,8,0.5,0.6
2025-11-13T1400,1957A,86.1972,41.7166,巴音郭楞蒙古自治州,棉纺厂,颗粒物(PM10),101,151,156,34,29,65,,51,47,20,28,10,7,0.4,0.3
2025-11-13T1400,1958A,86.2357,41.7173,巴音郭楞蒙古自治州,经济开发区,,,,122,,25,66,,53,45,,25,13,7,0.3,0.6
2025-11-13T1400,2914A,106.7677,31.8794,巴中市,苏山坪,,,,,,,,,,,,,,,,
2025-11-13T1400,3181A,106.7768,31.8526,巴中市,市五中,,30,30,48,20,27,70,,23,23,10,16,8,8,0.5,0.6
2025-11-13T1400,3183A,106.7418,31.8654,巴中市,圣泉水务公司,,31,31,41,20,23,73,,32,32,9,16,9,9,0.5,0.6
2025-11-13T1400,3616A,106.7616,31.8344,巴中市,市中心医院,,50,,42,35,29,75,,26,26,6,17,5,4,0.4,0.7
2025-11-13T1400,2235A,122.7911,45.6077,白城市,洮北区环保局,,19,15,24,9,9,59,,52,52,3,5,4,4,0.1,0.1
2025-11-13T1400,2236A,122.8738,45.5725,白城市,市环保局,,18,12,19,10,11,56,,49,49,2,5,4,4,0.2,0.2
2025-11-13T1400,2231A,126.4219,41.9171,白山市,喜丰,,22,11,50,3,16,68,,48,48,8,10,7,9,0.4,0.6
2025-11-13T1400,2232A,126.4077,41.9419,白山市,环保局,,23,,32,6,22,71,,46,46,4,12,6,8,0.4,0.8
2025-11-13T1400,2647A,104.1724,36.5446,白银市,第三小学,细颗粒物(PM2.5),65,74,89,47,37,72,,35,35,28,38,60,24,0.7,0.7
2025-11-13T1400,2648A,104.1465,36.5482,白银市,动力公司,"颗粒物(PM10),细颗粒物(PM2.5)",65,80,72,47,24,83,,44,44,21,26,30,16,0.9,0.7
2025-11-13T1400,2512A,106.6103,23.9011,百色市,市监测站,,22,22,18,8,9,68,,32,32,5,12,5,6,0.4,0.5
2025-11-13T1400,2513A,106.6538,23.8859,百色市,市中心血站,,21,20,24,11,12,67,,30,30,8,22,6,6,0.5,0.6
2025-11-13T1400,3406A,106.6085,23.8798,百色市,祈福高中,,20,20,27,10,11,59,,28,28,7,16,5,6,0.4,0.5
2025-11-13T1400,2270A,117.396,32.939,蚌埠市,工人疗养院,细颗粒物(PM2.5),100,118,112,75,68,142,,76,76,18,34,9,6,0.5,0.4
2025-11-13T1400,2271A,117.3605,32.9427,蚌埠市,百货大楼,细颗粒物(PM2.5),89,111,96,66,62,144,,80,80,18,39,13,9,0.5,0.5
2025-11-13T1400,2273A,117.4185,32.8911,蚌埠市,蚌埠学院,细颗粒物(PM2.5),83,85,86,61,62,126,,72,72,24,38,10,6,0.5,0.5
2025-11-13T1400,2274A,117.3533,32.9673,蚌埠市,淮上区政府,细颗粒物(PM2.5),88,90,99,65,68,140,,72,72,21,40,10,8,0.4,0.4
2025-11-13T1400,2275A,117.3145,32.8977,蚌埠市,高新区,细颗粒物(PM2.5),82,83,87,60,62,132,,71,71,16,36,11,8,0.5,0.5
2025-11-13T1400,3715A,117.3092,32.9314,蚌埠市,蚌埠田家炳中学,细颗粒物(PM2.5),94,101,103,70,67,143,,76,76,16,36,8,6,0.5,0.4
2025-11-13T1400,1585A,109.8756,40.6532,包头市,市环境监测站,颗粒物(PM10),59,67,57,32,24,78,,36,36,20,42,23,15,1.1,0.9
2025-11-13T1400,1587A,109.9991,40.5842,包头市,包头八中,,39,39,55,17,25,74,,37,37,14,43,10,11,0.5,0.9
2025-11-13T1400,1588A,109.8538,40.6821,包头市,青山宾馆,颗粒物(PM10),60,70,44,36,22,83,,32,32,31,41,32,15,2.5,1.1
2025-11-13T1400,1589A,109.8642,40.6288,包头市,惠龙物流,,49,49,52,23,23,83,,40,40,15,40,20,14,0.5,0.7
2025-11-13T1400,1590A,110.0377,40.5546,包头市,东河鸿龙湾,,,39,42,3,11,73,,36,36,11,41,,7,,0.7
2025-11-13T1400,3283A,109.9154,40.5685,包头市,滨河大厦,,35,35,36,10,17,79,,35,35,12,34,12,11,0.5,0.6
2025-11-13T1400,3419A,109.9447,40.6261,包头市,包头市委党校,,47,47,44,21,18,81,,35,35,14,43,28,14,0.6,0.7
2025-11-13T1400,3683A,109.8331,40.6576,包头市,昆区政府,颗粒物(PM10),61,72,47,34,21,75,,36,36,24,34,27,20,1.1,1
2025-11-13T1400,1930A,107.185,34.3063,宝鸡市,庙沟村,,,,,,,,,,,,,,,,
2025-11-13T1400,1931A,107.0708,34.3017,宝鸡市,竹园沟,,50,50,53,24,26,95,,45,45,13,16,10,8,0.3,0.4
2025-11-13T1400,1932A,107.1906,34.3672,宝鸡市,三陆医院,颗粒物(PM10),60,69,73,25,33,87,,32,32,22,44,9,9,0.4,0.6
2025-11-13T1400,1933A,107.1431,34.3547,宝鸡市,监测站,颗粒物(PM10),62,73,61,25,28,84,,36,36,19,24,7,5,0.3,0.3
2025-11-13T1400,1934A,107.1186,34.3739,宝鸡市,技工学校,颗粒物(PM10),62,73,68,30,32,74,,38,38,20,28,7,10,0.4,0.5
2025-11-13T1400,1936A,107.2058,34.3497,宝鸡市,文理学院,颗粒物(PM10),54,58,65,28,33,95,,42,42,15,33,8,8,0.4,0.6
2025-11-13T1400,1937A,107.2386,34.3622,宝鸡市,三迪小学,颗粒物(PM10),60,69,80,33,41,87,,32,32,24,49,8,7,0.4,0.7
2025-11-13T1400,4308A,107.3898,34.3601,宝鸡市,陈仓区北开路21号,,,,88,,48,94,,47,47,22,40,9,33,0.3,0.8
2025-11-13T1400,1051A,115.493,38.8632,保定市,游泳馆,,34,34,150,7,117,75,,34,34,6,74,3,5,0.3,1.1
2025-11-13T1400,1052A,115.5213,38.8959,保定市,华电二区,,25,25,131,14,119,77,,35,35,12,67,1,2,0.1,1
2025-11-13T1400,1053A,115.4713,38.9108,保定市,接待中心,,50,50,144,10,117,75,,37,37,6,67,2,7,0.2,1.1
2025-11-13T1400,1054A,115.4612,38.8416,保定市,地表水厂,,34,34,162,9,111,73,,33,33,11,74,6,6,0.1,0.8
2025-11-13T1400,3581A,115.31981,38.95208,保定市,满城区生态环境分局,,29,29,98,7,56,80,,42,42,11,55,3,2,0.2,0.5
2025-11-13T1400,3582A,115.47694,38.76408,保定市,清苑区第二中学,,32,32,167,3,105,79,,38,38,11,77,5,4,0.3,0.9
2025-11-13T1400,3583A,115.62909,39.02311,保定市,徐水物探局,,34,34,177,17,128,71,,31,31,15,66,4,7,0.4,0.9
2025-11-13T1400,4004A,115.4202,38.8656,保定市,双鹰农机,,26,25,164,12,106,82,,42,42,12,62,2,2,0.4,1.1
2025-11-13T1400,4034A,115.5150,38.8590,保定市,植保所站,,36,36,164,15,125,72,,33,33,11,77,3,2,0.7,1.5
2025-11-13T1400,2594A,99.1678,25.1081,保山市,市环境监测站,,29,14,16,3,13,90,,45,45,7,8,5,5,0.3,0.4
2025-11-13T1400,2595A,99.1711,25.1328,保山市,市环保局,,30,19,19,12,17,94,,49,49,5,5,6,6,0.4,0.4
2025-11-13T1400,1866A,109.2262,21.588,北海市,牛尾岭水库,,27,26,21,15,16,86,,58,58,8,10,4,3,0.2,0.3
2025-11-13T1400,1867A,109.1436,21.4086,北海市,海滩公园,,41,41,39,24,17,102,,82,82,7,8,7,8,0.4,0.6
2025-11-13T1400,1868A,109.0981,21.4661,北海市,新市环保局,,40,40,34,19,21,106,,84,84,7,8,5,6,0.4,0.5
2025-11-13T1400,1869A,109.1778,21.5233,北海市,北海工业园,,43,43,37,29,21,105,,82,82,8,10,6,6,0.2,0.3
2025-11-13T1400,3400A,109.1911,21.4415,北海市,龙潭自来水厂,,45,45,36,23,20,102,,80,80,2,4,6,5,0.5,0.5
2025-11-13T1400,1001A,116.3621,39.8784,北京市,万寿西宫,,20,16,15,6,6,63,,46,46,25,26,3,2,0.4,0.4
2025-11-13T1400,1002A,116.2202,40.2915,北京市,定陵,,,,,,,,,,,,,,,,
2025-11-13T1400,1003A,116.4174,39.9289,北京市,东四,,22,16,16,3,6,68,,52,52,15,22,3,3,0.3,0.4
2025-11-13T1400,1004A,116.4072,39.8863,北京市,天坛,,20,17,15,6,7,63,,44,44,20,21,1,2,0.3,0.3
2025-11-13T1400,1005A,116.462,39.9365,北京市,农展馆,,,,13,3,3,66,,52,52,8,25,4,4,0.4,0.5
2025-11-13T1400,1006A,116.3392,39.9295,北京市,官园,,19,16,15,3,5,60,,42,42,19,25,2,2,0,0.1
2025-11-13T1400,1007A,116.2878,39.9611,北京市,海淀万柳,,20,16,14,3,5,61,,36,36,21,33,4,4,0.2,0.3
2025-11-13T1400,1008A,116.6636,40.135,北京市,顺义新城,,22,10,11,3,4,70,,49,49,10,14,5,4,0.2,0.2
2025-11-13T1400,1009A,116.6275,40.3275,北京市,怀柔镇,,21,9,9,3,4,65,,40,40,7,14,4,4,0.4,0.4
2025-11-13T1400,1010A,116.2296,40.217,北京市,昌平镇,,22,11,12,3,5,70,,53,53,2,17,4,5,0.2,0.2
2025-11-13T1400,1011A,116.3966,39.9821,北京市,奥体中心,,20,11,12,3,5,61,,45,45,14,26,4,4,0.2,0.2
2025-11-13T1400,3281A,115.9718,40.4529,北京市,延庆夏都,,23,14,16,3,7,73,,43,43,7,18,3,3,0.3,0.3
2025-11-13T1400,3418A,116.8336,40.4095,北京市,密云新城,,20,6,16,3,9,64,,38,38,12,18,2,2,0.2,0.3
2025-11-13T1400,3671A,116.088,39.9726,北京市,门头沟三家店,,21,21,13,7,5,59,,41,41,15,15,1,1,0.3,0.3
2025-11-13T1400,3672A,116.1541,39.8204,北京市,丰台云岗,,22,16,17,7,8,69,,42,42,15,24,2,3,0.2,0.3
2025-11-13T1400,3673A,116.6804,39.9081,北京市,通州东关,,23,14,16,3,6,71,,48,48,10,20,5,5,0.2,0.3
2025-11-13T1400,3674A,115.9577,39.7603,北京市,房山燕山,,31,31,28,14,17,59,,44,41,10,15,3,3,0.1,0.6
2025-11-13T1400,3675A,116.4672,39.7733,北京市,大兴旧宫,,22,14,19,3,9,69,,42,42,18,31,2,2,0.2,0.3
2025-11-13T1400,3694A,115.986,40.4563,北京市,延庆石河营,,22,16,17,3,6,69,,38,38,12,24,3,3,0.2,0.3
2025-11-13T1400,3695A,116.6151,40.3053,北京市,怀柔新城,,22,9,8,3,4,68,,51,47,9,10,4,3,0.2,0.3
2025-11-13T1400,3696A,116.2545,39.8768,北京市,丰台小屯,,20,15,17,6,8,61,,34,34,13,26,3,3,0.3,0.3
2025-11-13T1400,3697A,116.84,40.3844,北京市,密云镇,,21,7,22,3,11,67,,30,30,7,31,2,2,0.2,0.3
2025-11-13T1400,4182A,116.1942,39.9158,北京市,八角北路9号,,19,19,16,7,6,57,,30,30,17,32,1,2,0.2,0.1
2025-11-13T1400,4194A,117.0790,40.1518,北京市,洳河巡河路,,21,6,22,3,12,67,,37,37,3,17,3,4,0.2,0.4
2025-11-13T1400,1761A,123.8275,41.3064,本溪市,大峪,,22,15,50,7,27,68,,31,31,10,22,12,11,0.5,0.9
2025-11-13T1400,1762A,123.7567,41.3325,本溪市,溪湖,,43,43,67,13,32,69,,32,31,15,26,11,12,0.5,1.2
2025-11-13T1400,1763A,123.7169,41.3094,本溪市,彩屯,,31,31,64,14,37,67,,32,32,14,30,11,14,0.6,1.5
2025-11-13T1400,1764A,123.7669,41.2864,本溪市,东明,,30,30,61,8,30,67,,34,31,14,27,12,13,0.4,0.9
2025-11-13T1400,1765A,123.7992,41.2664,本溪市,新立屯,,22,14,46,8,27,70,,38,38,11,28,10,9,0.3,0.6
2025-11-13T1400,1766A,123.8142,41.3472,本溪市,威宁,,20,17,66,8,26,63,,29,29,13,26,9,7,0.6,0.8
2025-11-13T1400,2587A,105.2864,27.3125,毕节市,八中,,15,11,12,10,8,47,,37,37,8,7,9,8,0.7,0.7
2025-11-13T1400,2588A,105.31,27.2944,毕节市,师专,,16,16,10,10,7,46,,39,39,10,8,11,9,0.7,0.7
2025-11-13T1400,4263A,105.3688,27.3598,毕节市,工业大道,,16,12,9,6,6,50,,44,44,8,6,9,9,0.7,0.7
2025-11-13T1400,1629A,118.0018,37.3617,滨州市,第二水厂,,22,17,87,7,45,68,,44,44,10,36,9,13,0.1,0.3
2025-11-13T1400,1630A,117.9776,37.393,滨州市,北中新校,,24,19,85,3,48,74,,39,39,9,42,6,11,0,0.3
2025-11-13T1400,3514A,117.9378,37.3956,滨州市,中海酒店,,25,9,89,3,53,80,,45,45,7,55,5,10,0.3,0.6
2025-11-13T1400,3515A,117.9378,37.3553,滨州市,开发区一中,,25,22,95,3,47,79,,50,50,5,32,7,11,0.5,0.7
2025-11-13T1400,3516A,118.0917,37.694,滨州市,金海六路,,,7,88,3,44,82,,63,63,11,52,8,10,,0.4
2025-11-13T1400,4028A,117.9956,37.3753,滨州市,滨州市西街道办事处,,24,14,88,7,50,76,,47,47,12,37,8,12,0.1,0.4
2025-11-13T1400,2311A,115.8072,33.8399,亳州市,污水处理厂,细颗粒物(PM2.5),77,86,75,56,54,112,,60,60,18,40,7,18,0.5,0.6
2025-11-13T1400,2312A,115.7789,33.8518,亳州市,三国揽胜宫,颗粒物(PM10),76,101,80,43,42,115,,65,65,20,42,8,7,0.4,0.5
2025-11-13T1400,3332A,115.7633,33.8034,亳州市,亳州学院,细颗粒物(PM2.5),74,76,67,54,43,117,,77,77,18,36,4,8,0.4,0.5
2025-11-13T1400,2693A,82.0485,44.8556,博尔塔拉蒙古自治州,市党校,,32,32,36,11,11,43,,41,34,19,15,14,4,0.8,0.5
2025-11-13T1400,2694A,82.0806,44.8969,博尔塔拉蒙古自治州,市环保局,,40,40,55,10,20,38,,37,32,23,28,6,5,0.6,0.5
2025-11-13T1400,1071A,116.8842,38.2991,沧州市,沧县城建局,,23,22,86,7,59,73,,56,56,14,37,3,6,0.1,0.4
2025-11-13T1400,1072A,116.8584,38.3254,沧州市,电视转播站,,23,23,88,9,62,69,,42,42,11,36,6,6,0.3,0.5
2025-11-13T1400,1073A,116.8709,38.3228,沧州市,市环保局,,25,20,92,17,73,73,,51,51,15,41,2,5,0.2,0.5
2025-11-13T1400,3324A,116.8136,38.3004,沧州市,河北水利电力学院,,23,22,86,6,47,71,,59,59,13,31,9,12,0.2,0.4
2025-11-13T1400,2622A,97.1806,31.1273,昌都市,昌都监测站,,24,9,21,3,13,74,,47,47,6,15,3,3,0.3,0.5
2025-11-13T1400,3719A,97.1714,31.1406,昌都市,昌都会议中心,,,,14,,7,,,53,,,3,,3,,0.2
2025-11-13T1400,2690A,88.1236,43.8886,昌吉回族自治州,天山天池,,,,,,,,,,,,,,,,
2025-11-13T1400,2692A,87.2717,44.0297,昌吉回族自治州,新区政务中心,颗粒物(PM10),65,80,73,37,33,39,,22,22,39,44,15,10,0.9,1
2025-11-13T1400,3613A,87.3095,44.0142,昌吉回族自治州,亚心广场,颗粒物(PM10),89,127,91,61,47,39,,24,24,38,43,12,10,0.9,1
2025-11-13T1400,1120A,125.2863,43.9027,长春市,客车厂,,38,38,58,14,35,61,,50,50,10,18,6,7,0.2,0.3
2025-11-13T1400,1121A,125.2841,43.8463,长春市,邮电学院,,24,24,56,9,33,60,,50,50,7,21,6,8,0.2,0.4
2025-11-13T1400,1122A,125.3716,43.8772,长春市,劳动公园,,30,30,58,6,24,63,,50,50,8,18,9,10,0.5,0.6
2025-11-13T1400,1123A,125.3297,43.8805,长春市,园林处,,32,32,69,13,41,58,,,,8,17,6,7,0.3,0.5
2025-11-13T1400,1124A,125.4605,43.79,长春市,净月潭,,30,30,54,3,22,60,,49,49,7,16,6,7,0.3,0.4
2025-11-13T1400,1125A,125.7194,43.515,长春市,甩湾子,,,,54,,32,,,71,,,11,,5,,0.4
2025-11-13T1400,1126A,125.3863,43.8447,长春市,经开区环卫处,,23,23,47,6,25,59,,48,48,9,20,6,8,0.2,0.4
2025-11-13T1400,1127A,125.245,43.7783,长春市,高新区管委会,,45,45,74,22,41,75,,57,57,8,17,6,7,0.3,0.4
2025-11-13T1400,1128A,125.1761,43.8325,长春市,岱山公园,颗粒物(PM10),58,65,71,27,42,66,,52,52,8,16,7,7,0.3,0.4
2025-11-13T1400,4281A,125.3346,43.9164,长春市,北亚泰大街1068号,,,38,55,16,33,57,,43,43,11,22,,8,0.3,0.4
2025-11-13T1400,1335A,113.0833,28.2325,长沙市,经开区环保局,颗粒物(PM10),53,56,48,32,28,95,,50,50,13,18,7,6,0.4,0.4
2025-11-13T1400,1336A,112.8872,28.2189,长沙市,高开区环保局,,50,48,42,35,34,100,,56,56,8,14,9,8,0.4,0.4
2025-11-13T1400,1337A,113.0792,28.2053,长沙市,马坡岭,颗粒物(PM10),53,56,49,30,24,106,,58,58,11,15,7,6,0.6,0.5
2025-11-13T1400,1338A,112.9394,28.19,长沙市,湖南师范大学,,,69,57,29,24,109,,65,65,,13,12,11,0.5,0.4
2025-11-13T1400,1339A,113.0178,28.1322,长沙市,雨花区环保局,,,57,49,28,29,109,,62,62,11,14,,8,0.4,0.4
2025-11-13T1400,1340A,112.9792,28.2597,长沙市,伍家岭,颗粒物(PM10),52,54,50,24,29,105,,62,62,13,18,6,6,0.3,0.4
2025-11-13T1400,1341A,113.0014,28.1944,长沙市,火车新站,颗粒物(PM10),58,66,55,39,33,105,,62,62,17,18,12,11,0.6,0.5
2025-11-13T1400,1342A,112.9844,28.1178,长沙市,天心区环保局,颗粒物(PM10),52,54,49,31,27,110,,64,64,15,18,8,7,0.4,0.3
2025-11-13T1400,1343A,112.8908,28.1308,长沙市,湖南中医药大学,颗粒物(PM10),63,75,52,31,23,105,,64,64,13,15,8,7,0.6,0.5
2025-11-13T1400,1344A,112.9581,28.3611,长沙市,沙坪,,,,,,,,,,,,,,,,
2025-11-13T1400,1727A,113.1147,36.1547,长治市,清华站,颗粒物(PM10),52,54,57,27,29,81,,32,32,20,36,10,9,0.6,0.7
2025-11-13T1400,1730A,113.0886,36.2125,长治市,审计局,,,,55,,29,81,,36,36,20,37,13,12,0.8,0.7
2025-11-13T1400,1731A,113.0844,36.1856,长治市,长治八中,颗粒物(PM10),60,70,75,35,36,77,,33,33,18,32,14,12,0.6,0.7
2025-11-13T1400,2845A,113.1569,36.1911,长治市,德盛苑,颗粒物(PM10),52,54,52,29,27,84,,44,44,19,26,10,11,0.7,1.1
2025-11-13T1400,3568A,113.06,36.0464,长治市,向阳小学,颗粒物(PM10),53,56,84,23,37,88,,42,42,22,39,12,11,0.5,0.6
2025-11-13T1400,3569A,112.8792,36.3144,长治市,屯留一中,,35,35,60,14,29,81,,44,44,17,35,15,13,0.4,0.7
2025-11-13T1400,4189A,113.1131,36.19948,长治市,英华南巷50号,,46,46,66,31,30,85,,38,38,20,35,13,11,0.8,1
2025-11-13T1400,4190A,113.2367,36.3344,长治市,学府街1号,颗粒物(PM10),66,81,56,45,22,97,,46,46,32,30,27,10,1.9,0.7
2025-11-13T1400,1854A,111.6975,28.9703,常德市,市二中,,40,40,52,28,28,112,,60,60,8,15,7,8,0.1,0.2
2025-11-13T1400,1857A,111.7158,29.1456,常德市,白鹤山,,,,,,,,,,,,,,,,
2025-11-13T1400,3138A,111.7153,29.0289,常德市,武陵区永安,,43,43,59,25,25,112,,66,66,7,14,8,9,0.3,0.4
2025-11-13T1400,3139A,111.6892,28.9881,常德市,鼎城区玉霞,,38,36,53,26,32,115,,63,63,7,14,8,10,0.3,0.4
2025-11-13T1400,3140A,111.6625,29.0531,常德市,武陵区长庚,,49,49,59,26,27,115,,60,60,9,17,5,7,0.4,0.5
2025-11-13T1400,1196A,119.9633,31.762,常州市,市监测站,颗粒物(PM10),55,60,45,25,19,116,,87,87,21,22,8,6,0.4,0.4
2025-11-13T1400,1200A,119.9468,31.7069,常州市,武进监测站,,46,46,40,24,14,116,,89,89,27,27,12,10,0.4,0.4
2025-11-13T1400,1201A,119.9255,31.9087,常州市,安家,颗粒物(PM10),55,60,44,30,21,129,,70,70,23,36,15,12,0.4,0.4
2025-11-13T1400,3002A,119.9805,31.8174,常州市,行政中心,颗粒物(PM10),55,59,50,31,24,118,,84,84,21,28,8,6,0.4,0.4
2025-11-13T1400,3003A,120.0522,31.7748,常州市,经开区,颗粒物(PM10),54,57,61,21,19,122,,75,75,8,33,10,9,0.5,0.5
2025-11-13T1400,3010A,119.9025,31.7964,常州市,钟楼,颗粒物(PM10),54,58,48,31,23,116,,76,76,25,32,11,10,0.5,0.5
2025-11-13T1400,3429A,119.8598,31.7066,常州市,武进经发区,颗粒物(PM10),52,54,50,30,24,115,,73,73,28,49,11,10,0.7,0.7
2025-11-13T1400,3430A,119.5826,31.7245,常州市,金坛城区,,47,47,48,32,24,124,,77,77,16,25,8,7,0.6,0.6
2025-11-13T1400,2220A,120.4318,41.5881,朝阳市,西梁,,24,16,58,3,17,74,,38,38,6,26,4,8,0,0.4
2025-11-13T1400,2221A,120.4521,41.5646,朝阳市,河畔小区,,24,19,48,3,11,75,,46,46,11,27,4,6,0.3,0.5
2025-11-13T1400,2222A,120.4176,41.5648,朝阳市,八里堡,,,12,55,6,17,75,,7,,,33,7,10,0.3,0.6
2025-11-13T1400,2223A,120.3806,41.5969,朝阳市,农业园区,,25,10,44,6,16,80,,45,45,7,24,6,8,0.3,0.4
2025-11-13T1400,1705A,116.6367,23.6719,潮州市,西园路,,,,,,,,,,,,,,,,
2025-11-13T1400,3026A,116.6183,23.6608,潮州市,市政府,,36,36,24,3,6,59,,48,48,1,3,4,4,0.3,0.3
2025-11-13T1400,4036A,116.6461,23.6761,潮州市,金山,,29,29,10,15,16,53,,43,43,3,5,2,2,0.4,0.4
2025-11-13T1400,2472A,113.0073,25.9061,郴州市,马头岭,,,,,,,,,,,,,,,,
2025-11-13T1400,2473A,113.0116,25.8226,郴州市,市职中,细颗粒物(PM2.5),58,,39,41,34,64,,61,55,13,13,3,2,0.5,0.6
2025-11-13T1400,2475A,113.0383,25.8071,郴州市,市审计局,细颗粒物(PM2.5),55,50,44,39,32,63,,60,51,12,13,4,1,0.2,0.2
2025-11-13T1400,2476A,113.0348,25.7759,郴州市,市环保局,,46,34,42,32,29,63,,58,52,14,14,5,2,0.4,0.4
2025-11-13T1400,4252A,113.0138,25.8011,郴州市,好美居路49号,细颗粒物(PM2.5),58,43,36,41,28,64,,68,61,13,14,3,2,0.5,0.7
2025-11-13T1400,1431A,103.9728,30.7236,成都市,金泉两河,颗粒物(PM10),54,58,45,20,22,20,,8,8,40,33,3,3,0.6,0.6
2025-11-13T1400,1432A,104.176,30.6872,成都市,十里店,,45,45,61,14,41,34,,14,14,26,39,5,4,0.5,0.7
2025-11-13T1400,1433A,104.079,30.5706,成都市,三瓦窑,颗粒物(PM10),52,53,61,14,25,36,,14,14,28,41,6,5,0.5,0.7
2025-11-13T1400,1434A,104.1114,30.63,成都市,沙河铺,颗粒物(PM10),54,57,60,27,42,28,,11,11,32,38,2,2,0.6,0.7
2025-11-13T1400,1437A,104.0786,30.6531,成都市,君平街,,46,46,53,19,27,27,,15,15,31,36,5,5,0.8,0.8
2025-11-13T1400,1438A,103.613,31.0283,成都市,灵岩寺,,,,,,,,,,,,,,,,
2025-11-13T1400,2880A,104.0239,30.65639,成都市,大石西路,,40,36,45,28,29,27,,13,13,38,39,4,3,0.9,0.8
2025-11-13T1400,3136A,104.2725,30.5589,成都市,龙泉驿区区政府,,31,31,37,14,20,35,,23,23,21,31,8,6,0.5,0.6
2025-11-13T1400,3357A,104.0106,30.6931,成都市,金博路,颗粒物(PM10),51,52,44,21,24,20,,10,10,45,39,6,6,0.8,0.7
2025-11-13T1400,3359A,104.0578,30.5225,成都市,华阳,,48,48,48,22,29,35,,19,19,29,36,8,6,0.4,0.5
2025-11-13T1400,3488A,104.3880,30.7467,成都市,青石路225号,,36,36,62,10,31,41,,16,16,21,36,6,5,0.9,1
2025-11-13T1400,3489A,104.0789,30.4072,成都市,科学城,,30,30,38,18,23,44,,29,29,16,23,5,5,0.5,0.6
2025-11-13T1400,4011A,103.8506,30.6947,成都市,光华大道三段,,41,41,50,17,28,19,,8,8,39,31,1,2,0.8,0.8
2025-11-13T1400,4224A,104.2433,30.5353,成都市,鲸龙路1057号,,28,28,41,15,27,58,,34,34,11,20,6,6,0.6,0.7
2025-11-13T1400,1062A,117.9531,40.9081,承德市,铁路,,19,10,31,3,9,59,,35,35,13,18,14,4,0.4,0.3
2025-11-13T1400,1063A,117.9392,40.9763,承德市,中国银行,,19,,31,3,7,60,,35,35,7,16,2,2,0.2,0.3
2025-11-13T1400,1064A,117.9503,40.928,承德市,开发区,,,25,47,,19,64,,37,37,7,18,7,4,0.1,0.1
2025-11-13T1400,1066A,117.9268,41.0026,承德市,离宫,,,,,,,,,,,,,,,,
2025-11-13T1400,4274A,117.7994,40.9605,承德市,滨河大街98号,,30,,26,21,9,58,,37,37,8,13,26,4,0.9,0.3
2025-11-13T1400,2314A,117.47,30.6618,池州市,池州学院,,41,41,55,26,29,103,,62,62,19,42,11,10,0.8,0.7
2025-11-13T1400,3237A,117.4918,30.6617,池州市,展览馆,,38,38,51,21,26,104,,59,59,20,34,14,9,1.0,0.8
2025-11-13T1400,3333A,117.5627,30.695,池州市,第八中学,,40,40,51,23,25,105,,57,57,26,38,14,9,0.8,0.8
2025-11-13T1400,3334A,117.5038,30.6243,池州市,第十二中学,,46,46,46,22,22,103,,64,64,27,31,12,8,1.0,0.9
2025-11-13T1400,1744A,118.9233,42.2816,赤峰市,松山一中,,,,35,,9,73,,,,9,14,4,6,,0.4
2025-11-13T1400,1745A,118.9576,42.2728,赤峰市,哈达街,,,8,28,3,6,62,,46,46,14,17,,10,0.2,0.3
2025-11-13T1400,1746A,118.8788,42.2554,赤峰市,天义路,,22,6,22,3,8,68,,49,49,7,15,5,7,0.6,0.6
2025-11-13T1400,3058A,119.2658,42.0353,赤峰市,银河街,,23,23,47,8,17,73,,41,41,8,14,14,14,0.3,0.5
2025-11-13T1400,3286A,118.9359,42.3147,赤峰市,桥北物流园区,,22,,31,11,13,68,,34,34,8,26,8,9,0.3,0.5
2025-11-13T1400,2521A,107.3476,22.4136,崇左市,市环保局江州分局,,,39,24,11,9,73,,32,32,,13,4,3,0.5,0.7
2025-11-13T1400,4256A,107.3750,22.3736,崇左市,石景林东路7号,,28,28,21,11,11,86,,46,46,5,11,7,7,0.4,0.6
2025-11-13T1400,2298A,118.3093,32.3153,滁州市,老年大学,细颗粒物(PM2.5),67,80,64,48,40,135,,82,82,10,20,14,12,0.3,0.3
2025-11-13T1400,2299A,118.3244,32.2786,滁州市,人大宾馆,细颗粒物(PM2.5),65,76,68,47,43,137,,82,82,11,22,11,7,0.3,0.4
2025-11-13T1400,3207A,118.3118,32.3038,滁州市,市政府原办公楼,细颗粒物(PM2.5),62,71,71,44,40,140,,89,89,13,25,14,9,0.5,0.5
2025-11-13T1400,3331A,118.3267,32.2634,滁州市,图书馆,颗粒物(PM10),60,70,68,40,38,142,,86,86,11,21,14,9,0.4,0.4
2025-11-13T1400,2605A,101.5482,25.0441,楚雄彝族自治州,州环境监测站,,18,7,17,3,13,57,,26,26,2,11,6,9,0.6,0.7
2025-11-13T1400,2606A,101.538,25.0492,楚雄彝族自治州,市经济开发区,,18,6,20,3,14,57,,26,26,2,13,6,12,0.5,0.7
2025-11-13T1400,2548A,107.5277,31.2827,达州市,达州职业技术学院,,,,,,,,,,,,,,,,
2025-11-13T1400,2549A,107.5086,31.2186,达州市,市环境监测站,,49,49,52,24,24,56,,20,20,20,30,8,7,0.5,0.6
2025-11-13T1400,2550A,107.4988,31.2132,达州市,凤凰小区,颗粒物(PM10),51,51,53,24,28,61,,24,24,16,29,7,7,0.4,0.6
2025-11-13T1400,2551A,107.5082,31.1986,达州市,达县机关宾馆,,48,48,53,26,27,56,,23,23,24,28,7,6,0.5,0.6
2025-11-13T1400,2552A,107.4644,31.2124,达州市,市政中心,颗粒物(PM10),53,55,67,22,26,55,,20,20,14,29,8,9,0.4,0.6
2025-11-13T1400,2614A,100.1542,25.7054,大理白族自治州,大理市环境监测站,,,11,12,,12,62,,51,48,7,7,6,6,,0.3
2025-11-13T1400,2615A,100.2171,25.5811,大理白族自治州,大理古城,,28,14,17,3,12,88,,54,54,3,11,7,7,0.5,0.5
2025-11-13T1400,1109A,121.612,38.9741,大连市,甘井子,,25,25,94,3,50,72,,55,55,16,29,9,10,0.2,0.6
2025-11-13T1400,1110A,121.565,38.9511,大连市,周水子,,28,28,86,3,45,80,,59,59,15,33,4,6,0.2,0.5
2025-11-13T1400,1111A,121.5637,38.8845,大连市,星海三站,,27,27,79,3,42,73,,50,50,9,18,7,9,0.2,0.5
2025-11-13T1400,1112A,121.6302,38.9117,大连市,青泥洼桥,,22,9,70,3,41,70,,53,53,13,25,10,13,0.1,0.5
2025-11-13T1400,1113A,121.6251,38.8638,大连市,傅家庄,,22,20,80,3,42,68,,57,57,12,19,9,13,0.3,0.6
2025-11-13T1400,1114A,121.5213,38.8661,大连市,七贤岭,,28,28,83,3,43,75,,58,58,7,23,7,10,0.2,0.6
2025-11-13T1400,1115A,121.2529,38.8061,大连市,旅顺,,,15,78,3,48,80,,63,63,11,23,,10,,0.5
2025-11-13T1400,1116A,121.7485,39.1311,大连市,金州,,24,12,63,3,36,75,,62,62,13,24,11,14,0.2,0.4
2025-11-13T1400,1117A,121.7811,39.0496,大连市,开发区,,25,25,76,3,40,65,,61,59,11,21,5,5,0.3,0.5
2025-11-13T1400,1118A,121.9762,39.0631,大连市,双D港,,,,,,,,,,,,,,,,
2025-11-13T1400,1789A,124.81117,46.03138,大庆市,大同区,,48,48,99,3,35,75,,59,59,6,14,9,10,0.3,0.5
2025-11-13T1400,1790A,125.129,46.533,大庆市,龙凤区,,28,27,44,19,20,59,,49,49,8,16,6,7,0.4,0.7
2025-11-13T1400,1791A,124.902,46.408,大庆市,红岗区,,28,28,43,14,21,63,,50,50,6,14,4,5,0.5,0.6
2025-11-13T1400,1792A,125.153,46.586,大庆市,萨尔图区,,39,39,34,6,14,59,,54,52,9,18,6,7,0.3,0.3
2025-11-13T1400,1793A,124.9042,46.6215,大庆市,让胡路区,,26,26,36,14,21,64,,55,55,2,8,4,4,0.4,0.4
2025-11-13T1400,3481A,125.141,46.634,大庆市,萨区政府监测点,,22,22,30,3,5,65,,56,56,1,9,8,9,0.2,0.3
2025-11-13T1400,1721A,113.3819,40.1097,大同市,果树场,,50,50,43,20,23,73,,35,35,19,32,12,12,0.4,0.7
2025-11-13T1400,1723A,113.2994,40.0758,大同市,云冈宾馆,,28,28,55,3,20,68,,30,30,12,31,6,10,0.4,0.8
2025-11-13T1400,1724A,113.3444,40.0917,大同市,大同大学,,48,48,44,10,18,72,,32,32,18,39,6,12,0.4,0.7
2025-11-13T1400,1725A,113.2661,40.1269,大同市,安家小村,,26,26,79,9,27,70,,35,35,10,29,7,11,0.2,1.2
2025-11-13T1400,1726A,113.2711,40.0844,大同市,教育学院,,40,40,67,3,23,70,,29,29,16,36,5,8,0.4,0.8
2025-11-13T1400,3282A,113.3397,40.0597,大同市,大同市卫生学校,颗粒物(PM10),57,64,46,24,20,57,,29,29,30,36,14,11,0.5,0.8
2025-11-13T1400,3565A,113.1367,40.1122,大同市,云冈站,,24,21,52,3,19,74,,40,40,7,27,5,11,0.4,0.5
2025-11-13T1400,3566A,113.1186,40.2556,大同市,图书馆,,,52,48,6,17,83,,42,42,7,17,4,6,,0.6
2025-11-13T1400,3567A,113.5931,40.0461,大同市,区一中,,,,44,,21,74,,37,37,20,19,31,16,0.4,0.5
2025-11-13T1400,4199A,113.2798,40.0997,大同市,魏都大道141号,,49,49,85,7,29,71,,32,32,15,34,4,8,0.3,1
2025-11-13T1400,2269A,124.1069,50.4097,大兴安岭地区,科技局,,28,28,19,10,14,44,,60,56,1,2,6,5,0.2,0.2
2025-11-13T1400,3663A,124.1164,50.4278,大兴安岭地区,红旗社区,,15,6,6,3,2,47,,58,48,1,3,4,4,0.3,0.3
2025-11-13T1400,1600A,124.3303,40.0625,丹东市,江湾东路,,21,21,68,3,33,64,,50,50,11,22,7,8,0.5,0.9
2025-11-13T1400,1601A,124.4256,40.1503,丹东市,临江后街,,20,13,65,3,28,64,,52,52,9,20,5,9,0.4,0.8
2025-11-13T1400,1602A,124.3933,40.1461,丹东市,元宝山,,20,14,66,3,26,62,,51,51,8,19,8,11,0.4,0.8
2025-11-13T1400,1603A,124.3633,40.1092,丹东市,民主桥,,20,20,67,3,29,63,,47,47,11,27,5,7,0.7,0.7
2025-11-13T1400,3541A,109.5726,19.5167,儋州市,第一中学子站,,46,46,37,24,19,76,,64,64,5,4,7,7,0.4,0.5
2025-11-13T1400,3542A,109.5567,19.5187,儋州市,东坡学校子站,,37,37,32,20,18,86,,70,70,7,8,3,4,0.6,0.6
2025-11-13T1400,2616A,98.5842,24.428,德宏傣族景颇族自治州,德宏州监测站,,24,24,29,13,18,75,,34,34,8,17,9,8,0.4,0.5
2025-11-13T1400,3677A,98.5881,24.4368,德宏傣族景颇族自治州,芒市人民政府综合楼,,28,21,29,19,15,77,,33,33,9,14,8,7,0.5,0.6
2025-11-13T1400,1901A,104.4239,31.1208,德阳市,东山公园,,45,45,61,29,40,41,,18,18,19,42,4,3,0.8,0.9
2025-11-13T1400,1902A,104.3826,31.1317,德阳市,西小区,颗粒物(PM10),58,65,87,35,47,41,,13,13,25,45,3,3,0.7,0.9
2025-11-13T1400,1904A,104.3553,31.1091,德阳市,耐火材料厂,颗粒物(PM10),63,75,82,38,44,25,,9,9,50,48,5,4,0.9,1
2025-11-13T1400,3639A,104.4019,31.1244,德阳市,市教育局,颗粒物(PM10),52,54,71,27,39,39,,11,11,20,44,4,3,0.6,0.8
2025-11-13T1400,1622A,116.3032,37.4674,德州市,儿童乐园,,29,29,121,7,65,78,,49,49,28,63,17,14,0.5,0.9
2025-11-13T1400,1624A,116.2991,37.4451,德州市,监理站,,26,17,106,3,57,82,,58,58,23,51,20,17,0.4,0.7
2025-11-13T1400,3066A,116.2721,37.4379,德州市,九衢泉纯净水厂,,24,24,110,12,53,74,,50,50,25,58,14,15,0.5,0.8
2025-11-13T1400,3371A,116.3728,37.4403,德州市,开发区人民医院,,24,17,113,7,56,76,,43,43,23,65,12,15,0.5,0.8
2025-11-13T1400,3511A,116.5652,37.3319,德州市,陵城艺术中心,,29,29,117,3,69,75,,47,47,22,61,12,14,0.4,0.8
2025-11-13T1400,4292A,116.3525,37.4209,德州市,新河东路,,,29,98,9,44,75,,,,28,51,10,11,,0.8
2025-11-13T1400,2621A,99.7056,27.8317,迪庆藏族自治州,迪庆州站,,22,22,22,11,16,68,,,,5,7,6,6,0.4,0.5
2025-11-13T1400,3180A,99.7136,27.8094,迪庆藏族自治州,质量技术监督局,,26,26,23,8,13,69,,48,48,9,11,7,8,0.5,0.5
2025-11-13T1400,4257A,104.6092,35.5962,定西市,将台街,,27,26,69,12,28,84,,40,40,2,16,11,10,0.3,0.5
2025-11-13T1400,4309A,104.6159,35.5701,定西市,正龙路62号,,49,49,76,18,29,86,,44,44,12,15,6,6,0.4,0.4
2025-11-13T1400,1389A,113.7547,23.0494,东莞市,莞城梨川,,25,16,13,10,8,77,,72,72,14,13,1,1,0.4,0.4
2025-11-13T1400,1390A,113.7944,23.0128,东莞市,东城石井,,24,16,15,8,8,76,,70,70,9,11,6,6,0.5,0.5
2025-11-13T1400,1391A,113.7383,22.9658,东莞市,南城西平,,24,16,15,8,8,74,,71,71,15,15,7,6,0.5,0.5
2025-11-13T1400,3319A,113.7338,23.0381,东莞市,万江金泰,,24,16,16,9,9,75,,71,71,7,9,4,4,0.6,0.6
2025-11-13T1400,3626A,113.7533,23.0202,东莞市,南城元岭,,26,16,15,8,8,81,,77,77,6,7,6,6,0.4,0.4
2025-11-13T1400,3627A,113.7875,23.0457,东莞市,东城主山,,24,21,20,8,8,75,,74,74,11,11,5,4,0.4,0.4
2025-11-13T1400,1666A,118.6614,37.4309,东营市,市环保局,,24,22,86,3,40,74,,50,50,14,37,7,12,0.5,0.8
2025-11-13T1400,3036A,118.6904,37.4338,东营市,开发区管委会,,33,33,98,14,51,79,,56,56,10,40,8,13,0.3,0.6
2025-11-13T1400,3365A,118.5719,37.565,东营市,垦利区民丰路,,,,99,,47,,,69,,,38,,7,,0.8
2025-11-13T1400,3498A,118.5055,37.8612,东营市,河口城区,,25,14,84,3,36,80,,59,59,12,29,7,9,0.2,0.6
2025-11-13T1400,3646A,118.4978,37.4623,东营市,胜利站,,27,27,92,3,46,78,,51,51,21,47,10,14,0.7,1
2025-11-13T1400,3734A,118.35,37.26,东营市,理想之城,,24,24,91,7,46,74,,46,46,27,48,5,8,0.5,0.6
2025-11-13T1400,1591A,110.0023,39.8129,鄂尔多斯市,综合楼,,34,34,33,7,7,80,,57,57,11,21,10,9,0.3,0.4
2025-11-13T1400,1592A,109.9486,39.8261,鄂尔多斯市,巴音孟克林场办事处,,39,39,35,9,11,87,,69,69,8,19,8,6,0.5,0.5
2025-11-13T1400,1593A,109.7736,39.5986,鄂尔多斯市,康泽苑,,36,36,29,14,13,89,,48,48,10,16,9,8,0.3,0.3
2025-11-13T1400,1594A,109.8119,39.5989,鄂尔多斯市,华泰汽车城,,39,39,33,12,14,83,,40,40,11,20,19,8,0.3,0.3
2025-11-13T1400,1595A,109.9734,39.7884,鄂尔多斯市,奥林花园,,44,44,45,12,9,86,,46,46,11,35,9,6,0.4,0.4
2025-11-13T1400,2436A,114.8938,30.3994,鄂州市,市政府,,46,46,38,25,21,94,,63,63,17,26,10,10,0.5,0.5
2025-11-13T1400,2437A,114.8989,30.3714,鄂州市,赵家坝,,48,48,39,23,23,115,,61,61,15,20,10,10,0.7,0.8
2025-11-13T1400,3654A,114.8094,30.4089,鄂州市,精准医疗中心,,45,45,40,19,20,112,,64,64,10,19,6,6,0.7,0.7
2025-11-13T1400,2454A,109.4978,30.2981,恩施土家族苗族自治州,湖北民院,,22,17,23,11,24,70,,39,39,9,12,7,7,0.4,0.4
2025-11-13T1400,2455A,109.4707,30.2798,恩施土家族苗族自治州,州电力总公司,,27,27,35,15,22,66,,31,31,9,15,6,6,0.3,0.4
2025-11-13T1400,3549A,109.5061,30.3772,恩施土家族苗族自治州,龙凤新区,,34,34,26,21,15,63,,30,30,11,6,7,6,0.1,0.1
2025-11-13T1400,2499A,108.3411,21.6158,防城港市,沙万,,28,26,32,11,16,88,,70,70,5,8,7,7,0.3,0.4
2025-11-13T1400,2500A,108.3514,21.7731,防城港市,防城档案局,,43,43,39,16,16,80,,60,60,6,10,8,8,0.3,0.4
2025-11-13T1400,2501A,108.3506,21.6414,防城港市,大海花园,颗粒物(PM10),54,58,32,13,15,95,,73,73,6,7,5,5,0.3,0.4
2025-11-13T1400,1371A,113.1294,23.0067,佛山市,湾梁,,23,22,20,12,11,73,,56,56,20,22,7,7,0.3,0.5
2025-11-13T1400,1372A,113.1083,23.0478,佛山市,华材职中,,24,19,22,11,14,74,,58,58,12,15,6,6,0.6,0.7
2025-11-13T1400,1373A,113.144,23.0453,佛山市,南海气象局,,25,25,20,9,9,76,,58,58,14,15,7,8,0.7,0.8
2025-11-13T1400,1374A,113.2881,22.8094,佛山市,顺德苏岗,,27,22,20,7,8,85,,68,68,13,15,7,8,0.3,0.4
2025-11-13T1400,1376A,112.8383,22.8678,佛山市,高明孔堂,,28,23,25,11,12,87,,71,71,12,16,4,5,0.4,0.5
2025-11-13T1400,1377A,112.8836,23.1588,佛山市,三水监测站,,25,24,22,6,6,78,,67,66,16,18,5,5,0.6,0.7
2025-11-13T1400,1378A,112.867,23.185,佛山市,三水云东海,,25,19,24,8,13,78,,70,70,15,15,5,6,0.8,0.8
2025-11-13T1400,3625A,113.2544,22.7642,佛山市,容桂街道办,,24,17,14,12,9,76,,61,61,17,19,6,6,0.4,0.5
2025-11-13T1400,1280A,119.3903,26.0543,福州市,鼓山,,,,5,,3,,,55,,,7,,2,,0.6
2025-11-13T1400,1282A,119.2681,26.0504,福州市,师大,,16,11,9,3,1,50,,47,46,6,8,5,5,0.4,0.3
2025-11-13T1400,1283A,119.2984,26.1028,福州市,五四北路,,13,6,9,3,1,40,,43,39,12,12,4,3,0.4,0.3
2025-11-13T1400,1284A,119.2648,26.0768,福州市,杨桥西路,,15,7,8,3,0,48,,47,44,10,12,3,3,0.3,0.2
2025-11-13T1400,1285A,119.317,26.0746,福州市,紫阳,,19,19,11,3,1,39,,44,36,22,16,7,6,0.3,0.3
2025-11-13T1400,3048A,119.5799,26.0936,福州市,九龙,,20,10,7,3,0,62,,56,54,10,6,4,3,0.4,0.3
2025-11-13T1400,3526A,119.5189,25.9664,福州市,吴航,,16,16,8,8,4,34,,42,27,21,13,5,5,0.6,0.5
2025-11-13T1400,1755A,123.7977,41.8491,抚顺市,望花区,,36,36,88,10,35,64,,30,30,13,27,8,15,0.4,0.9
2025-11-13T1400,1756A,123.9161,41.8822,抚顺市,顺城区,,34,34,81,10,36,67,,34,34,14,29,9,11,0.4,0.7
2025-11-13T1400,1757A,124.0436,41.8611,抚顺市,东洲区,,38,38,79,14,34,60,,40,40,20,21,12,11,0.6,0.8
2025-11-13T1400,1758A,123.9247,41.8642,抚顺市,新抚区,,43,43,79,10,31,66,,34,34,14,24,10,11,0.5,0.8
2025-11-13T1400,1759A,124.0972,41.8961,抚顺市,大伙房水库,,44,44,77,15,35,59,,40,40,24,26,15,13,0.6,0.7
2025-11-13T1400,1760A,123.7086,41.8391,抚顺市,沈抚新城,,24,24,77,9,35,69,,35,35,12,28,7,9,0.3,0.5
2025-11-13T1400,2376A,116.2127,28.0814,抚州市,桐源党溪,,,,,,,,,,,,,,,,
2025-11-13T1400,2377A,116.3544,27.9831,抚州市,市站,,43,43,37,22,17,88,,70,70,9,10,5,6,0.4,0.4
2025-11-13T1400,2378A,116.3565,27.963,抚州市,血防站,,41,41,38,18,17,93,,74,74,13,14,2,3,0.9,0.9
2025-11-13T1400,2379A,116.3564,28.0007,抚州市,采茶剧团,,45,45,40,20,18,91,,71,71,5,8,4,4,0.6,0.6
2025-11-13T1400,2380A,116.385,27.9647,抚州市,医学分院,,44,44,42,20,16,92,,71,71,8,11,3,4,0.7,0.7
2025-11-13T1400,2207A,121.6094,41.998,阜新市,工业园区,,21,18,66,3,18,66,,37,37,8,24,7,10,0.2,0.4
2025-11-13T1400,2208A,121.6697,42.0279,阜新市,长青街,,,14,47,3,13,66,,41,41,5,18,,9,0.2,0.3
2025-11-13T1400,2209A,121.6673,42.0705,阜新市,农业园区,,,17,36,,11,62,,54,54,6,12,4,7,0.3,0.3
2025-11-13T1400,2210A,121.6717,42.0224,阜新市,东苑,,21,20,53,10,17,66,,40,40,8,21,1,5,0.3,0.4
2025-11-13T1400,2211A,121.6506,42.0498,阜新市,玉龙新城,,21,18,58,3,12,67,,37,37,5,23,8,10,0.2,0.3
2025-11-13T1400,2301A,115.8277,32.8929,阜阳市,市监测站,细颗粒物(PM2.5),83,78,66,61,37,133,,65,65,18,45,9,6,0.4,0.3
2025-11-13T1400,2303A,115.8554,32.8605,阜阳市,开发区,颗粒物(PM10),73,96,81,42,31,138,,71,71,15,42,8,5,0.3,0.2
2025-11-13T1400,2875A,115.784,32.8892,阜阳市,阜阳职业技术学院,颗粒物(PM10),59,68,54,40,32,138,,77,77,12,31,10,7,0.4,0.3
2025-11-13T1400,3468A,115.7901,32.8613,阜阳市,市规划展馆,细颗粒物(PM2.5),58,61,57,41,32,151,,89,89,12,24,9,6,0.6,0.6
2025-11-13T1400,3469A,115.836,32.9183,阜阳市,枣园社区,细颗粒物(PM2.5),79,69,66,58,40,141,,70,70,15,42,8,6,0.5,0.5
2025-11-13T1400,2669A,102.9099,34.9841,甘南藏族自治州,州政府,,22,21,19,13,19,69,,61,60,9,12,4,3,0.3,0.4
2025-11-13T1400,3380A,102.8914,34.9617,甘南藏族自治州,甘肃民族师范学院,,19,19,24,11,14,52,,55,51,7,13,5,4,0.5,0.5
2025-11-13T1400,2570A,101.9603,30.0475,甘孜藏族自治州,水桥子,,21,,6,6,4,67,,64,53,8,10,8,8,0.6,0.6
2025-11-13T1400,3065A,101.9533,29.9972,甘孜藏族自治州,州环保局,,21,8,6,7,5,66,,59,54,8,11,5,5,0.5,0.5
2025-11-13T1400,3414A,115.8347,28.932,赣江新区,桑海产业园,,48,48,49,18,22,118,,87,87,10,16,9,10,0.6,0.6
2025-11-13T1400,2362A,114.9017,25.9149,赣州市,通天岩,,32,28,30,22,19,64,,67,66,9,7,26,24,0.8,0.7
2025-11-13T1400,2363A,114.9367,25.8664,赣州市,地委,,37,37,46,19,18,75,,72,71,16,14,6,6,0.6,0.5
2025-11-13T1400,2364A,114.9461,25.8481,赣州市,气象台,,37,37,40,17,15,69,,61,60,14,15,5,5,0.6,0.6
2025-11-13T1400,2365A,114.9322,25.8333,赣州市,市图书馆,,34,34,30,19,18,68,,64,62,13,14,4,4,0.7,0.7
2025-11-13T1400,2366A,114.8905,25.8471,赣州市,华坚鞋城,,,36,35,22,17,55,,53,50,,16,5,5,0.5,0.5
2025-11-13T1400,3109A,115.0093,25.8613,赣州市,赣县区卫计委,颗粒物(PM10),51,52,28,29,23,52,,65,64,18,8,7,7,0.5,0.4
2025-11-13T1400,2683A,106.2319,36.1417,固原市,马园,,,,,,,,,,,,,,,,
2025-11-13T1400,2684A,106.2792,36.0022,固原市,监测站,,43,43,56,19,19,79,,44,44,10,28,4,6,0.5,0.8
2025-11-13T1400,2685A,106.2375,36.0211,固原市,新区,,39,39,63,10,21,78,,35,35,13,40,8,7,0.4,0.7
2025-11-13T1400,3522A,106.2177,35.9959,固原市,原州区十五小,,44,44,53,17,19,81,,54,54,7,20,4,4,0.6,0.7
2025-11-13T1400,2543A,106.6308,30.5278,广安市,小平旧居,,,,,,,,,,,,,,,,
2025-11-13T1400,2544A,106.6303,30.4576,广安市,市委,颗粒物(PM10),55,59,52,35,34,58,,23,23,12,23,3,3,0.6,0.7
2025-11-13T1400,2545A,106.6271,30.4663,广安市,友谊中学,细颗粒物(PM2.5),53,54,50,37,31,61,,26,26,11,18,5,5,0.8,0.9
2025-11-13T1400,2547A,106.6388,30.4551,广安市,广电花园,,50,50,42,28,34,54,,22,22,13,21,2,2,0.6,0.7
2025-11-13T1400,2902A,106.6351,30.4865,广安市,北辰小学,颗粒物(PM10),57,64,52,38,27,61,,24,24,11,18,8,8,0.5,0.7
2025-11-13T1400,2523A,105.8945,32.4535,广元市,黑石坡,,,,,,,,,,,,,,,,
2025-11-13T1400,2524A,105.821,32.4444,广元市,老城,,33,33,44,23,23,84,,30,30,13,33,5,6,0.6,0.8
2025-11-13T1400,2526A,105.8628,32.4287,广元市,监测站,,21,17,25,6,16,65,,26,26,20,25,11,4,0.8,0.8
2025-11-13T1400,3617A,105.8047,32.4166,广元市,经开区,颗粒物(PM10),56,61,65,30,27,58,,22,22,27,35,12,7,0.7,0.7
2025-11-13T1400,1345A,113.2347,23.1423,广州市,广雅中学,,26,26,23,14,13,78,,57,57,15,22,7,6,0.1,0.2
2025-11-13T1400,1346A,113.2612,23.105,广州市,市五中,,28,22,18,13,10,89,,72,72,17,22,7,7,0.4,0.6
2025-11-13T1400,1348A,113.3478,23.0916,广州市,广东商学院,,26,14,18,9,11,82,,71,71,7,11,4,5,0.1,0.2
2025-11-13T1400,1349A,113.4332,23.1047,广州市,市八十六中,,26,14,17,8,11,82,,72,72,11,14,6,7,0.3,0.4
2025-11-13T1400,1350A,113.3505,22.9483,广州市,番禺中学,,27,21,21,8,10,84,,71,71,12,14,5,6,0.2,0.3
2025-11-13T1400,1351A,113.2146,23.3916,广州市,花都师范,,23,20,20,13,10,72,,55,55,11,14,6,6,0.6,0.7
2025-11-13T1400,1352A,113.2597,23.1331,广州市,市监测站,,26,24,21,13,10,81,,64,64,12,15,8,7,0.5,0.7
2025-11-13T1400,1353A,113.5618,23.312,广州市,九龙镇镇龙,,23,11,16,7,10,71,,71,71,8,9,5,6,0.5,0.5
2025-11-13T1400,1354A,113.2765,23.1544,广州市,麓湖,,25,21,17,14,11,78,,63,63,10,16,8,8,0.3,0.4
2025-11-13T1400,1355A,113.443,23.3035,广州市,帽峰山森林公园,,,,,,,,,,,,,,,,
2025-11-13T1400,2846A,113.3221,23.1322,广州市,体育西,,25,21,19,13,11,80,,64,64,9,12,7,8,0.4,0.5
2025-11-13T1400,3298A,113.5717,23.5491,广州市,从化街口,,24,12,17,8,12,76,,72,72,7,9,5,9,0.4,0.5
2025-11-13T1400,3299A,113.3472,23.3692,广州市,白云竹料,,27,18,19,12,12,84,,72,72,8,11,8,7,0.4,0.5
2025-11-13T1400,3300A,113.2981,23.237,广州市,白云嘉禾,,30,30,24,14,12,84,,68,68,10,14,8,7,0.5,0.6
2025-11-13T1400,3301A,113.4256,23.1716,广州市,黄埔科学城,,28,15,19,9,12,88,,81,81,5,7,4,6,0.6,0.7
2025-11-13T1400,3302A,113.3942,23.0483,广州市,番禺大学城,,,19,21,10,11,,,72,72,8,12,7,9,0.4,0.5
2025-11-13T1400,3303A,113.4922,22.8168,广州市,南沙黄阁,,32,32,25,12,12,75,,66,66,20,20,7,8,0.5,0.6
2025-11-13T1400,3304A,113.5342,22.7896,广州市,南沙街,,24,24,23,12,11,74,,61,61,17,17,8,8,0.4,0.5
2025-11-13T1400,3443A,113.2902,23.5544,广州市,花都梯面,,24,15,15,10,11,74,,59,59,5,10,4,5,0.4,0.5
2025-11-13T1400,3445A,113.7858,23.7478,广州市,从化良口,,25,13,12,8,8,78,,80,78,8,10,6,6,0.5,0.5
2025-11-13T1400,3446A,113.8051,23.2614,广州市,增城荔城,,24,11,14,8,10,76,,75,75,8,10,7,7,0.4,0.4
2025-11-13T1400,2505A,109.568,23.1478,贵港市,德智高中,,,,,,,,,,,,,,,,
2025-11-13T1400,2506A,109.6047,23.0666,贵港市,江南子站,,36,36,40,20,22,109,,84,84,6,8,5,5,0.5,0.5
2025-11-13T1400,2508A,109.5669,23.1065,贵港市,荷城子站,,36,36,40,12,18,99,,79,79,8,9,4,3,0.6,0.6
2025-11-13T1400,3405A,109.5886,23.1172,贵港市,新世纪学校,,34,34,43,15,23,105,,80,80,4,5,4,3,0.3,0.4
2025-11-13T1400,4260A,109.5933,23.0951,贵港市,中山路155-3号,,34,34,36,18,18,108,,84,84,6,6,4,4,0.4,0.5
2025-11-13T1400,1439A,106.6899,26.5998,贵阳市,马鞍山,,41,41,38,14,21,28,,21,21,21,15,7,5,0.6,0.6
2025-11-13T1400,1441A,106.6243,26.6266,贵阳市,鉴湖路,,29,29,46,12,18,29,,24,24,12,15,6,6,0.6,0.6
2025-11-13T1400,1442A,106.7487,26.6343,贵阳市,燕子冲,,45,31,35,31,31,48,,26,26,14,17,6,7,0.4,0.6
2025-11-13T1400,1443A,106.6555,26.4365,贵阳市,碧云窝,,46,46,55,17,26,53,,26,26,14,20,5,4,0.4,0.5
2025-11-13T1400,1445A,106.7109,26.6027,贵阳市,红边门,,36,36,43,24,26,36,,28,28,18,22,8,9,0.8,0.7
2025-11-13T1400,1446A,106.7164,26.5699,贵阳市,新华路,,,,49,,26,39,,17,,,21,7,12,,0.5
2025-11-13T1400,1447A,106.674,26.5424,贵阳市,太慈桥,,34,34,41,22,25,39,,24,24,20,21,9,6,0.3,0.4
2025-11-13T1400,1552A,106.805,26.3003,贵阳市,桐木岭,,48,48,43,24,23,71,,56,56,8,7,20,17,0.6,0.6
2025-11-13T1400,4230A,106.6882,26.5695,贵阳市,花果园大街66号,,43,41,43,30,29,28,,26,25,26,22,7,5,0.9,0.9
2025-11-13T1400,4231A,106.6873,26.5169,贵阳市,漓江路57号,,39,27,35,27,29,45,,24,24,14,21,10,13,0.5,0.6
2025-11-13T1400,1862A,110.4144,25.3167,桂林市,电子科大尧山校区,,,,,,,,,,,,,,,,
2025-11-13T1400,1864A,110.3089,25.2708,桂林市,龙隐路小学,,31,24,41,8,23,99,,80,80,6,11,6,8,0.2,0.3
2025-11-13T1400,1865A,110.2869,25.2178,桂林市,八中,颗粒物(PM10),52,54,41,10,21,95,,75,75,8,10,8,13,0.3,0.3
2025-11-13T1400,3531A,110.296,25.1253,桂林市,旅游学院,,36,12,37,12,22,113,,90,90,8,14,5,7,0.2,0.3
2025-11-13T1400,4222A,110.1835,25.2444,桂林市,环湖路276号,,33,29,41,17,26,104,,75,75,10,15,19,18,0.0,0.3
2025-11-13T1400,4301A,110.2803,25.2773,桂林市,信义路13号,,32,23,41,12,19,101,,82,82,6,10,8,12,0.3,0.5
2025-11-13T1400,2674A,100.2561,34.4714,果洛藏族自治州,玛沁县大武镇,,,43,34,14,10,82,,,,1,5,13,16,,0.4
2025-11-13T1400,1129A,126.5422,45.755,哈尔滨市,岭北,,,,,,,,,,,,,,,,
2025-11-13T1400,1130A,126.561,45.8167,哈尔滨市,松北商大,,42,42,114,9,83,57,,43,43,8,25,14,11,0.3,0.8
2025-11-13T1400,1131A,126.979,45.5419,哈尔滨市,阿城会宁,,31,31,94,16,77,67,,46,46,9,24,7,10,0.3,0.6
2025-11-13T1400,1132A,126.599,45.7222,哈尔滨市,南岗学府路,,38,38,96,9,68,59,,44,44,6,18,9,12,0.2,0.5
2025-11-13T1400,1133A,126.689,45.7733,哈尔滨市,太平宏伟公园,,41,41,100,14,77,62,,52,52,5,17,8,12,0.4,0.8
2025-11-13T1400,1134A,126.635,45.7667,哈尔滨市,道外承德广场,,45,45,131,13,81,61,,49,49,8,22,6,10,0.3,0.7
2025-11-13T1400,1135A,126.685,45.7319,哈尔滨市,香坊红旗大街,颗粒物(PM10),56,61,105,7,66,62,,49,49,8,21,10,14,0.3,0.6
2025-11-13T1400,1136A,126.6411,45.7258,哈尔滨市,动力和平路,,29,29,95,10,71,62,,48,48,4,20,1,7,0.3,0.6
2025-11-13T1400,1137A,126.593,45.7478,哈尔滨市,道里建国路,,43,43,101,16,86,60,,47,47,7,21,6,11,0.5,0.6
2025-11-13T1400,1138A,126.615,45.61,哈尔滨市,平房东轻厂,,40,40,95,26,80,62,,41,41,12,31,8,12,0.3,0.7
2025-11-13T1400,1139A,126.595,45.9855,哈尔滨市,呼兰师专,细颗粒物(PM2.5),80,74,123,59,109,56,,44,44,12,22,7,10,0.6,0.8
2025-11-13T1400,1140A,126.6206,45.6842,哈尔滨市,省农科院,颗粒物(PM10),59,67,124,20,87,67,,50,50,11,29,7,10,0.3,0.6
2025-11-13T1400,2688A,93.5128,42.8172,哈密市,地区监测站,颗粒物(PM10),59,67,76,41,36,69,,35,35,19,40,19,6,0.3,0.7
2025-11-13T1400,2689A,93.4961,42.8328,哈密市,哈密师范学校,细颗粒物(PM2.5),60,68,85,43,36,64,,28,28,22,43,29,9,0.6,0.8
2025-11-13T1400,2671A,100.9048,36.9639,海北藏族自治州,海晏县西海镇,,31,28,46,16,30,97,,54,54,3,16,9,14,0.3,0.6
2025-11-13T1400,3867A,102.0738,36.5056,海东市,平安区公安北苑,,48,36,58,33,36,88,,41,41,13,20,20,17,0.8,0.8
2025-11-13T1400,1409A,110.576,19.9507,海口市,东寨港,,,,,,,,,,,,,,,,
2025-11-13T1400,1410A,110.3232,20.0574,海口市,海南大学,,48,48,38,33,23,107,,73,73,8,9,9,8,0.5,0.5
2025-11-13T1400,1411A,110.283,20.0053,海口市,秀英海南医院,颗粒物(PM10),63,75,46,34,25,106,,71,71,10,15,10,9,0.4,0.4
2025-11-13T1400,1412A,110.338,19.9969,海口市,海南师范大学,,,42,37,37,23,109,,76,76,,12,10,8,0.5,0.7
2025-11-13T1400,1413A,110.33,20.0356,海口市,龙华路环保局宿舍,颗粒物(PM10),52,53,38,35,25,111,,74,74,10,12,11,9,0.2,0.3
2025-11-13T1400,3539A,110.5111,19.9736,海口市,桂林洋子站,,40,40,43,28,25,110,,79,79,7,12,11,9,0.5,0.5
2025-11-13T1400,2673A,100.6188,36.2866,海南藏族自治州,共和县恰卜恰镇,,32,25,42,22,20,90,,47,47,3,19,12,10,0.4,0.5
2025-11-13T1400,2676A,97.3731,37.3753,海西蒙古族藏族自治州,德令哈市,,30,17,24,7,16,93,,74,74,5,5,20,20,0.6,0.5
2025-11-13T1400,1048A,114.5302,36.6116,邯郸市,东污水处理厂,,48,,102,33,89,85,,58,58,13,36,5,10,0.4,0.8
2025-11-13T1400,1049A,114.4918,36.5713,邯郸市,矿院,,45,36,91,31,82,89,,61,61,14,32,3,9,0.3,0.7
2025-11-13T1400,1050A,114.484,36.6133,邯郸市,丛台公园,,45,34,96,31,74,90,,68,68,15,29,6,9,0.3,0.7
2025-11-13T1400,3458A,114.7895,36.5593,邯郸市,香泉濮院小区,,36,29,139,25,93,91,,50,50,9,45,7,9,0.3,0.8
2025-11-13T1400,3579A,114.50634,36.77178,邯郸市,永年区实验高中,,44,44,99,8,48,87,,56,56,13,41,4,6,0.4,0.7
2025-11-13T1400,3580A,114.20016,36.44293,邯郸市,峰峰矿区临水派出所,,,,76,,70,97,,78,78,18,29,,9,0.6,0.8
2025-11-13T1400,2634A,106.9893,33.1842,汉中市,汉川机床厂子校,,,,,,,,,,,,,,,,
2025-11-13T1400,2635A,107.0154,33.0706,汉中市,市监测站,,,65,66,46,40,79,,34,34,,26,5,6,0.5,0.7
2025-11-13T1400,2636A,107.0089,33.1138,汉中市,鑫源开发区,颗粒物(PM10),54,58,64,25,30,81,,31,31,11,31,6,7,0.3,0.4
2025-11-13T1400,2637A,107.007,33.0323,汉中市,南郑大河坎水厂,颗粒物(PM10),57,64,63,29,56,78,,28,28,15,23,5,5,0.5,0.7
2025-11-13T1400,1223A,120.2072,30.2111,杭州市,滨江,,33,33,49,13,17,84,,58,58,25,35,8,7,0.5,0.6
2025-11-13T1400,1224A,120.0633,30.2747,杭州市,西溪,,31,31,43,11,16,99,,70,70,13,26,9,8,0.5,0.6
2025-11-13T1400,1226A,120.3417,30.3150,杭州市,下沙,,31,29,37,14,17,98,,64,64,10,22,6,6,0.3,0.5
2025-11-13T1400,1227A,120.1269,30.2456,杭州市,卧龙桥,,31,31,43,14,18,92,,64,64,15,25,12,11,0.4,0.5
2025-11-13T1400,1228A,120.1903,30.2692,杭州市,浙江农大,,27,25,40,15,18,86,,58,58,34,37,10,8,0.4,0.6
2025-11-13T1400,1230A,120.1197,30.3119,杭州市,和睦小学,,31,29,37,16,18,97,,67,67,14,28,10,10,0.7,0.8
2025-11-13T1400,1231A,120.3019,30.4183,杭州市,临平镇,,31,21,48,12,23,97,,68,68,9,22,7,7,0.3,0.5
2025-11-13T1400,1232A,120.2753,30.1839,杭州市,城厢镇,,,40,44,20,21,96,,66,66,23,36,8,8,,0.4
2025-11-13T1400,1233A,120.0883,30.1808,杭州市,云栖,,32,25,42,11,18,102,,70,70,12,24,7,7,0.4,0.6
2025-11-13T1400,3557A,119.9464,30.0494,杭州市,镇二中,,,31,38,16,20,100,,65,65,13,23,,6,,0.7
2025-11-13T1400,3558A,119.7183,30.2367,杭州市,市府大楼,,35,17,40,10,19,110,,83,83,11,19,10,10,0.6,0.6
2025-11-13T1400,3656A,120.1556,30.2864,杭州市,消防大队,,36,36,47,17,26,89,,60,60,22,36,11,10,0.4,0.5
2025-11-13T1400,1270A,117.1959,31.7848,合肥市,明珠广场,,,,62,,29,,,68,68,,30,,7,,0.5
2025-11-13T1400,1271A,117.3072,31.8764,合肥市,三里街,颗粒物(PM10),56,61,61,34,29,115,,74,74,16,32,7,6,0.5,0.5
2025-11-13T1400,1272A,117.2588,31.8707,合肥市,琥珀山庄,颗粒物(PM10),54,58,63,31,30,120,,81,81,15,27,7,6,0.5,0.5
2025-11-13T1400,1273A,117.1604,31.9052,合肥市,董铺水库,,,,,,,,,,,,,,,,
2025-11-13T1400,1274A,117.25,31.8571,合肥市,长江中路,细颗粒物(PM2.5),60,68,67,43,39,122,,85,85,12,23,6,6,0.5,0.5
2025-11-13T1400,1275A,117.266,31.9436,合肥市,庐阳区,颗粒物(PM10),56,61,73,31,34,122,,80,80,17,33,6,5,0.6,0.7
2025-11-13T1400,1276A,117.3453,31.8616,合肥市,瑶海区,颗粒物(PM10),56,61,66,32,30,121,,82,82,16,29,6,5,0.4,0.4
2025-11-13T1400,1277A,117.3027,31.7964,合肥市,包河区,颗粒物(PM10),57,63,66,29,33,110,,78,78,14,65,8,8,0.5,0.6
2025-11-13T1400,1278A,117.2776,31.7385,合肥市,滨湖新区,颗粒物(PM10),63,75,63,44,37,120,,87,87,18,31,6,6,0.5,0.5
2025-11-13T1400,1279A,117.1318,31.8403,合肥市,高新区,颗粒物(PM10),56,61,66,30,34,118,,83,83,14,31,5,6,0.6,0.7
2025-11-13T1400,3464A,117.3803,31.9147,合肥市,高教基地,颗粒物(PM10),53,56,59,25,29,124,,81,81,13,19,7,6,0.4,0.4
2025-11-13T1400,3614A,79.924,37.0877,和田地区,地区环保局,颗粒物(PM10),107,163,205,77,101,96,,72,72,13,27,8,10,1.3,1.7
2025-11-13T1400,3615A,79.9131,37.113,和田地区,市环保局,颗粒物(PM10),111,171,233,72,89,93,,47,47,20,50,3,5,0.7,1.8
2025-11-13T1400,2516A,108.2011,24.715,河池市,东仁乐园,,,,,,,,,,,,,,,,
2025-11-13T1400,2517A,108.0497,24.6947,河池市,市环保站,,28,24,30,13,14,88,,50,50,5,12,7,6,0.3,0.5
2025-11-13T1400,2518A,108.0983,24.6989,河池市,市疾控中心,,28,,33,13,18,88,,47,47,6,17,4,5,0.4,0.5
2025-11-13T1400,1696A,114.6778,23.7569,河源市,源西,,,,,,,,,,,,,,,,
2025-11-13T1400,1697A,114.6944,23.7586,河源市,东埔,,24,11,14,9,13,76,,,,8,10,4,4,0.5,0.5
2025-11-13T1400,1698A,114.6892,23.7233,河源市,老城,,23,14,16,10,10,73,,68,68,5,7,5,5,0.6,0.5
2025-11-13T1400,1718A,115.4208,35.2464,菏泽市,气象局,细颗粒物(PM2.5),87,116,144,64,90,106,,48,48,21,47,7,6,0.4,0.5
2025-11-13T1400,3374A,115.5564,35.0891,菏泽市,定陶老年大学,,,129,119,75,76,97,,48,48,,44,10,6,0.2,0.5
2025-11-13T1400,4184A,115.4797,35.24401,菏泽市,永昌路1号,细颗粒物(PM2.5),84,108,125,62,81,108,,56,56,23,46,10,6,0.5,0.5
2025-11-13T1400,4193A,115.4715,35.2800,菏泽市,长城路999号,颗粒物(PM10),76,102,123,53,90,99,,45,45,24,50,9,5,0.5,0.5
2025-11-13T1400,2514A,111.5264,24.4172,贺州市,环保小区,,28,21,46,6,28,89,,77,77,9,16,4,4,0.5,0.5
2025-11-13T1400,2515A,111.5608,24.4078,贺州市,政协大楼,,29,20,49,14,27,92,,74,74,8,18,5,6,0.5,0.6
2025-11-13T1400,3534A,111.4744,24.4553,贺州市,西湾,,30,30,41,14,24,78,,75,75,8,10,4,5,0.5,0.6
2025-11-13T1400,2385A,114.17,35.9019,鹤壁市,市监测站,,40,40,112,15,73,89,,62,62,16,33,3,6,0.3,0.9
2025-11-13T1400,2386A,114.2956,35.7511,鹤壁市,市交警支队,,41,41,138,18,80,82,,58,58,19,40,4,7,0.2,0.8
2025-11-13T1400,2387A,114.2878,35.7306,鹤壁市,迎宾馆,,47,47,140,17,74,82,,58,58,15,35,6,9,0.4,0.9
2025-11-13T1400,3474A,114.2617,35.6822,鹤壁市,大新区,颗粒物(PM10),53,56,112,24,77,86,,64,64,22,41,6,8,0.3,0.9
2025-11-13T1400,3596A,114.1572,35.9603,鹤壁市,南山宾馆,,50,50,122,28,74,99,,72,72,16,32,4,9,0.4,1
2025-11-13T1400,2244A,130.2537,47.3416,鹤岗市,哈啤分公司,,21,16,37,9,28,67,,63,63,4,16,14,15,0.5,0.6
2025-11-13T1400,2245A,130.2684,47.3086,鹤岗市,斯达机电,,28,28,45,17,25,73,,68,68,4,16,13,14,0.6,0.7
2025-11-13T1400,2246A,130.3114,47.3388,鹤岗市,东山纸板厂,,25,24,45,17,36,69,,64,64,5,20,13,18,0.5,1.1
2025-11-13T1400,2247A,130.1097,47.3382,鹤岗市,五号水库,,,,,,,,,,,,,,,,
2025-11-13T1400,2263A,127.4833,50.2524,黑河市,交通局,,21,21,35,9,26,51,,,,8,16,4,4,0.4,0.5
2025-11-13T1400,2264A,127.5144,50.2341,黑河市,环保局,,22,22,33,10,24,47,,48,46,8,14,4,6,0.2,0.4
2025-11-13T1400,2265A,127.5291,50.2472,黑河市,大黑河岛,,,,,,,,,,,,,,,,
2025-11-13T1400,1074A,115.6838,37.7541,衡水市,电机北厂,,31,31,142,14,98,66,,44,44,21,51,4,9,0.2,0.6
2025-11-13T1400,1075A,115.6303,37.7316,衡水市,市监测站,,22,19,127,10,95,70,,41,41,20,53,8,10,0.3,0.7
2025-11-13T1400,3188A,115.6683,37.7217,衡水市,市城管局,,21,16,118,12,76,65,,44,44,18,50,4,13,0.3,0.7
2025-11-13T1400,3459A,115.5989,37.5491,衡水市,地表水厂,,35,35,135,19,100,71,,44,44,22,54,6,8,0.3,0.6
2025-11-13T1400,2456A,112.5003,26.9167,衡阳市,原169医院,,,,,,,,,,,,,,,,
2025-11-13T1400,2457A,112.6194,26.9258,衡阳市,衡阳化工总厂,"颗粒物(PM10),细颗粒物(PM2.5)",53,56,43,37,24,101,,70,70,16,18,16,9,0.8,0.7
2025-11-13T1400,2458A,112.6211,26.8956,衡阳市,珠晖区环保局,,48,48,41,33,30,98,,69,69,11,13,13,11,1.0,1
2025-11-13T1400,2459A,112.6197,26.8733,衡阳市,市委党校,,,60,41,30,20,100,,69,69,12,14,9,8,,0.7
2025-11-13T1400,2460A,112.6006,26.8919,衡阳市,市监测站,颗粒物(PM10),57,63,49,37,26,101,,74,74,14,16,8,7,0.8,0.8
2025-11-13T1400,2461A,112.5664,26.9056,衡阳市,真空机电公司,,47,47,43,26,22,98,,75,75,11,12,10,9,0.8,0.8
2025-11-13T1400,3399A,112.6703,26.882,衡阳市,师范学院,,50,50,48,28,27,106,,68,68,14,15,13,11,0.9,0.8
2025-11-13T1400,2608A,103.3772,23.3993,红河哈尼族彝族自治州,污水处理厂,,30,28,23,21,17,79,,49,49,7,9,7,6,0.4,0.4
2025-11-13T1400,2609A,103.3861,23.35,红河哈尼族彝族自治州,监测站,,33,33,36,16,16,85,,56,56,5,6,6,7,0,0.1
2025-11-13T1400,3038A,103.3758,23.368,红河哈尼族彝族自治州,州图书馆,,30,30,17,20,10,81,,54,54,5,6,7,5,0.4,0.4
2025-11-13T1400,1090A,111.6507,40.7517,呼和浩特市,呼市一监,,36,36,40,13,17,69,,29,29,11,23,9,4,0.4,0.4
2025-11-13T1400,1091A,111.6572,40.8033,呼和浩特市,小召,,44,44,36,18,14,61,,35,35,20,30,11,7,0.5,0.4
2025-11-13T1400,1094A,111.7516,40.8369,呼和浩特市,如意水处理厂,,41,41,32,19,14,59,,28,28,16,33,11,9,0.4,0.4
2025-11-13T1400,1095A,111.7276,40.8062,呼和浩特市,二十九中,,35,35,36,16,14,64,,31,31,15,31,12,9,0.4,0.4
2025-11-13T1400,1096A,111.5512,40.7866,呼和浩特市,工大金川校区,颗粒物(PM10),54,58,45,21,15,60,,27,27,16,33,10,7,0.5,0.5
2025-11-13T1400,1097A,111.717,40.7612,呼和浩特市,化肥厂生活区,,33,33,40,13,17,67,,31,31,16,37,9,5,0.3,0.4
2025-11-13T1400,3698A,111.5968,40.8178,呼和浩特市,红旗小学,,41,41,29,20,12,60,,30,30,18,29,11,7,0.4,0.3
2025-11-13T1400,3699A,111.6518,40.8389,呼和浩特市,海东办,,44,44,30,20,11,60,,30,30,17,29,11,5,0.4,0.3
2025-11-13T1400,3061A,119.7512,49.1577,呼伦贝尔市,国华电力东,,20,18,25,6,13,64,,62,60,6,7,8,8,0.3,0.3
2025-11-13T1400,4279A,119.7569,49.2222,呼伦贝尔市,伊敏大街东7号,,,23,24,,15,63,,60,59,2,2,6,5,0.4,0.4
2025-11-13T1400,1250A,120.0751,30.8669,湖州市,城西水厂,,34,20,37,9,14,108,,78,78,21,30,9,10,0.4,0.5
2025-11-13T1400,2873A,120.0830,30.8929,湖州市,仁皇山新区,,34,21,39,13,19,108,,82,82,21,25,6,7,0.1,0.3
2025-11-13T1400,2907A,120.1844,30.8596,湖州市,吴兴区站,,,34,45,14,19,88,,61,61,22,33,7,8,,0.6
2025-11-13T1400,3562A,120.4148,30.8538,湖州市,南浔区站,,49,49,43,26,20,107,,79,79,29,28,12,11,0.6,0.6
2025-11-13T1400,1607A,120.9049,40.7211,葫芦岛市,龙港区,,27,27,64,3,35,69,,48,48,17,36,11,19,0.3,0.8
2025-11-13T1400,1608A,120.8392,40.7514,葫芦岛市,化工街,,24,24,86,3,36,56,,32,32,19,44,11,22,0.3,0.6
2025-11-13T1400,1609A,120.8341,40.7073,葫芦岛市,新区,,20,19,50,3,27,63,,36,36,16,38,8,12,0.5,0.8
2025-11-13T1400,1610A,120.8695,40.7677,葫芦岛市,东城区,,26,26,67,6,35,62,,37,37,20,41,9,26,0.5,0.8
2025-11-13T1400,2482A,109.5981,27.5721,怀化市,林科所,,,,,,,,,,,,,,,,
2025-11-13T1400,2483A,109.9453,27.5444,怀化市,河西地税局,颗粒物(PM10),59,68,34,20,20,98,,40,40,9,14,6,6,0.3,0.3
2025-11-13T1400,2484A,109.9781,27.5342,怀化市,市四医院,,44,44,48,18,26,98,,46,46,4,19,7,6,0.3,0.4
2025-11-13T1400,2485A,109.9972,27.5578,怀化市,监测楼,,33,33,42,19,22,98,,45,45,9,20,4,3,0.1,0.2
2025-11-13T1400,2486A,110.0394,27.583,怀化市,市委党校,,38,38,41,18,22,104,,50,50,7,20,10,10,0.1,0.2
2025-11-13T1400,1210A,119.036,33.5981,淮安市,钵池山,细颗粒物(PM2.5),109,119,82,82,49,116,,57,57,34,58,14,10,0.8,0.6
2025-11-13T1400,1211A,119.007,33.575,淮安市,北京南路,细颗粒物(PM2.5),119,119,97,90,56,114,,51,51,26,51,15,11,0.8,0.8
2025-11-13T1400,1212A,118.989,33.6067,淮安市,市监测站,细颗粒物(PM2.5),119,129,99,90,65,122,,53,53,29,53,13,9,0.9,0.8
2025-11-13T1400,1213A,119.135,33.5039,淮安市,楚州区监测站,细颗粒物(PM2.5),129,129,83,98,57,119,,56,56,32,50,14,10,0.9,0.7
2025-11-13T1400,3426A,118.8755,33.2894,淮安市,新华书店,细颗粒物(PM2.5),122,157,99,92,48,97,,58,58,39,44,16,14,0.8,0.6
2025-11-13T1400,4206A,119.0288,33.6319,淮安市,承德北路606号,细颗粒物(PM2.5),112,141,107,84,53,115,,52,52,28,59,14,10,0.8,0.7
2025-11-13T1400,2282A,116.8004,33.975,淮北市,监测站,细颗粒物(PM2.5),120,127,84,91,54,133,,74,74,26,41,14,9,0.7,0.6
2025-11-13T1400,2283A,116.8091,33.9007,淮北市,烈山区政府,细颗粒物(PM2.5),109,89,70,82,51,137,,82,82,26,45,16,11,0.6,0.4
2025-11-13T1400,3330A,116.8873,33.9836,淮北市,杜集区检察院,细颗粒物(PM2.5),132,124,86,100,62,147,,71,71,20,45,12,7,0.6,0.4
2025-11-13T1400,4017A,116.7923,33.9535,淮北市,市博物馆,细颗粒物(PM2.5),128,129,82,97,54,132,,72,72,22,38,14,9,0.4,0.5
2025-11-13T1400,2277A,116.8305,32.7727,淮南市,潘集区政府,细颗粒物(PM2.5),74,80,105,54,61,128,,68,68,12,29,8,8,0.5,0.5
2025-11-13T1400,2279A,116.8569,32.5951,淮南市,谢家集区政府,颗粒物(PM10),55,59,75,38,42,127,,78,78,14,29,9,10,0.5,0.5
2025-11-13T1400,2280A,116.8281,32.633,淮南市,八公山区政府,细颗粒物(PM2.5),67,80,83,48,46,123,,80,80,16,24,12,9,0.4,0.4
2025-11-13T1400,2281A,116.6325,32.6201,淮南市,焦岗湖风景区管理处,,,,,,,,,,,,,,,,
2025-11-13T1400,2894A,117.0566,32.6531,淮南市,经济技术开发区消防队,细颗粒物(PM2.5),72,91,90,52,48,121,,65,65,21,38,11,9,0.2,0.3
2025-11-13T1400,3329A,117.0108,32.5893,淮南市,山南新区,细颗粒物(PM2.5),70,85,78,51,33,130,,91,91,25,28,8,6,0.4,0.4
2025-11-13T1400,4209A,117.0031,32.6445,淮南市,国庆中路369号,细颗粒物(PM2.5),83,75,75,61,51,118,,68,68,20,31,14,10,0.6,0.5
2025-11-13T1400,2446A,114.9028,30.4742,黄冈市,职工中心,,36,28,30,15,17,115,,74,74,12,17,4,4,0.3,0.4
2025-11-13T1400,2929A,114.8858,30.4519,黄冈市,红卫路,,35,33,30,3,17,112,,73,73,11,16,6,6,0.3,0.4
2025-11-13T1400,3398A,114.9136,30.4445,黄冈市,市林业局,,39,32,35,20,20,122,,73,73,9,16,4,4,0.4,0.4
2025-11-13T1400,2672A,102.0199,35.5102,黄南藏族自治州,同仁县隆务镇,,25,11,34,9,16,79,,66,66,4,4,10,10,0.3,0.3
2025-11-13T1400,2295A,118.2903,29.6963,黄山市,延安路89号,,37,21,38,16,20,116,,64,64,7,11,5,4,0.5,0.5
2025-11-13T1400,2297A,118.1371,30.2756,黄山市,黄山区政府5号楼,,37,37,35,24,21,104,,59,59,7,8,7,6,0.6,0.5
2025-11-13T1400,4210A,118.3354,29.7203,黄山市,滨江东路7-2号,,41,41,49,26,26,108,,66,66,9,13,5,4,0.4,0.5
2025-11-13T1400,2423A,115.0601,30.2313,黄石市,沈家营,,,38,41,17,18,109,,66,66,,9,6,10,0.6,0.7
2025-11-13T1400,2426A,114.8988,30.2019,黄石市,铁山,,47,47,49,29,26,93,,44,44,21,34,9,8,0.5,0.5
2025-11-13T1400,2427A,115.0307,30.2092,黄石市,团城山,,39,39,42,18,19,112,,66,66,11,17,9,8,0.6,0.6
2025-11-13T1400,3149A,115.0235,30.1578,黄石市,笔架山北路,颗粒物(PM10),61,72,72,16,24,106,,49,49,9,17,12,12,0.8,1
2025-11-13T1400,4185A,115.0780,30.21118,黄石市,磁湖东路29号,,43,43,47,25,24,104,,60,60,9,14,12,12,0.6,0.7
2025-11-13T1400,1392A,114.4183,23.0528,惠州市,河南岸金山湖子站,,22,19,19,10,10,68,,65,65,17,18,14,12,0.5,0.5
2025-11-13T1400,1393A,114.4053,23.0822,惠州市,下埔横江三路子站,,25,16,15,10,9,78,,76,76,7,7,5,5,0.7,0.7
2025-11-13T1400,1394A,114.4103,23.1142,惠州市,江北云山西路子站,,25,18,15,10,9,78,,77,77,11,11,5,5,0.4,0.5
2025-11-13T1400,1395A,114.4645,22.7833,惠州市,惠阳区承修路船湖子站,,25,16,18,9,10,78,,73,73,12,13,5,5,0.4,0.5
2025-11-13T1400,1396A,114.5317,22.7422,惠州市,大亚湾管委会子站,,24,16,15,8,8,74,,67,67,8,10,10,10,0.5,0.5
2025-11-13T1400,3314A,114.4338,22.8134,惠州市,惠阳秋长,,,22,21,9,10,82,,78,78,,10,10,11,0.6,0.6
2025-11-13T1400,3452A,114.6517,22.775,惠州市,大亚湾霞涌,,21,16,18,3,7,65,,59,59,8,9,10,10,0.5,0.5
2025-11-13T1400,2240A,130.9762,45.3001,鸡西市,环保局,,24,11,58,3,40,74,,66,66,4,20,6,8,0.5,0.8
2025-11-13T1400,2243A,130.9429,45.3039,鸡西市,第一中学,,36,36,55,8,34,72,,66,66,5,16,6,7,0.5,0.7
2025-11-13T1400,3707A,131.0207,45.3073,鸡西市,欧美日汽修厂,,25,25,79,3,53,71,,63,63,5,26,7,12,0.5,0.9
2025-11-13T1400,3709A,130.9967,45.3106,鸡西市,市政设施管理处,,,,79,,50,,,40,,,29,,13,,0.8
2025-11-13T1400,2367A,114.9754,27.0803,吉安市,红声器材厂,,,36,39,13,17,97,,80,80,,19,10,9,0.5,0.5
2025-11-13T1400,2368A,114.9658,27.0999,吉安市,市森林工业局,,42,42,38,18,19,93,,72,72,11,15,10,10,0.4,0.4
2025-11-13T1400,2369A,114.99,27.1312,吉安市,市环境监测站,,39,39,37,14,18,94,,75,75,10,15,15,16,0.5,0.5
2025-11-13T1400,2370A,115.0093,27.0968,吉安市,青原区法院,,41,41,37,18,18,93,,78,78,14,16,12,12,0.6,0.6
2025-11-13T1400,1772A,126.54,43.8622,吉林市,哈达湾,,26,26,50,16,33,72,,55,55,7,13,7,13,0.5,0.6
2025-11-13T1400,1773A,126.5844,43.8358,吉林市,东局子,,22,21,48,9,29,69,,50,50,8,15,8,9,0.4,0.6
2025-11-13T1400,1774A,126.5052,43.8245,吉林市,电力学院,,22,20,43,15,34,68,,53,53,5,12,7,8,0.3,0.4
2025-11-13T1400,1775A,126.6133,43.8972,吉林市,江北,,,18,95,10,65,66,,,,,32,5,6,1.5,0.9
2025-11-13T1400,1776A,126.555,43.8306,吉林市,江南公园,,23,23,45,16,33,66,,52,52,6,12,5,6,0.3,0.5
2025-11-13T1400,1778A,126.7061,43.7133,吉林市,丰满,,,,42,,34,,,50,,,9,,10,,0.3
2025-11-13T1400,2868A,126.4739,43.953,吉林市,九站,,27,27,54,16,39,65,,50,50,11,19,5,4,0.2,0.4
2025-11-13T1400,1299A,116.9862,36.6114,济南市,科干所,,41,41,74,15,38,61,,50,50,25,33,12,12,0.5,0.5
2025-11-13T1400,1300A,116.9376,36.665,济南市,农科所,颗粒物(PM10),53,56,95,22,45,55,,37,37,37,59,11,11,0.6,0.7
2025-11-13T1400,1301A,117.1265,36.6734,济南市,开发区,,49,49,84,20,46,66,,45,45,27,50,9,7,0.7,0.7
2025-11-13T1400,1303A,117.0624,36.6868,济南市,省种子仓库,颗粒物(PM10),52,53,102,19,51,67,,47,47,25,57,11,11,0.6,0.8
2025-11-13T1400,1304A,116.9489,36.6447,济南市,机床二厂,,,59,108,24,56,53,,43,43,,66,,14,0.3,0.5
2025-11-13T1400,1305A,117.0495,36.663,济南市,市监测站,,46,46,87,20,46,62,,43,43,31,51,8,7,0.8,0.9
2025-11-13T1400,1306A,116.7675,36.5484,济南市,长清党校,,44,44,92,17,43,66,,47,47,24,52,8,11,0.6,0.6
2025-11-13T1400,1616A,117.6795,36.229,济南市,技术学院,,41,41,101,17,60,87,,49,49,16,53,11,15,0.4,0.9
2025-11-13T1400,1961A,117.532,36.6868,济南市,东山小学,颗粒物(PM10),55,59,104,24,54,68,,11,,28,53,15,10,0.6,0.6
2025-11-13T1400,3059A,117.7161,36.2049,济南市,泰兴公司,颗粒物(PM10),59,68,112,31,74,77,,32,32,26,52,13,11,0.7,0.7
2025-11-13T1400,3064A,117.6867,36.2171,济南市,莱芜战役纪念馆,颗粒物(PM10),51,51,105,24,68,84,,48,48,20,52,14,15,0.4,0.8
2025-11-13T1400,3494A,117.1673,36.9782,济南市,济阳区政府,,46,46,98,15,48,68,,43,43,20,51,13,13,0.7,0.6
2025-11-13T1400,3495A,117.1171,36.63,济南市,锦屏中学,颗粒物(PM10),51,51,68,15,35,64,,52,52,32,30,7,6,0.6,0.6
2025-11-13T1400,3682A,116.9814,36.6819,济南市,济南四建,,46,46,99,20,52,56,,37,37,32,59,10,11,0.7,0.8
2025-11-13T1400,1653A,116.6251,35.4302,济宁市,火炬城,,,67,102,36,85,78,,33,33,22,43,8,8,,0.4
2025-11-13T1400,1655A,116.5491,35.4042,济宁市,电化厂,颗粒物(PM10),68,86,134,34,73,89,,42,42,20,49,7,7,0.2,0.4
2025-11-13T1400,3500A,116.5814,35.3707,济宁市,北湖一中,颗粒物(PM10),58,66,88,30,80,87,,45,45,17,38,9,8,0.2,0.5
2025-11-13T1400,3501A,116.8249,35.5593,济宁市,服务中心,颗粒物(PM10),70,89,131,30,75,80,,39,39,20,45,8,8,0.2,0.5
2025-11-13T1400,3678A,116.5907,35.4054,济宁市,市第七中学,,,,100,,75,,,82,,,59,,10,,0.6
2025-11-13T1400,2255A,130.2751,46.8028,佳木斯市,佳纺,,50,50,62,16,36,58,,53,53,9,14,3,6,0.5,0.6
2025-11-13T1400,2256A,130.3995,46.8307,佳木斯市,发电厂,细颗粒物(PM2.5),80,94,68,59,42,72,,62,62,13,17,8,8,0.7,0.6
2025-11-13T1400,2257A,130.3258,46.7975,佳木斯市,环保局,,,29,42,15,28,60,,56,56,8,11,,5,0.3,0.3
2025-11-13T1400,2258A,130.3648,46.8032,佳木斯市,十一中,,36,36,49,15,31,61,,55,55,8,13,4,6,0.4,0.4
2025-11-13T1400,2259A,130.3794,46.7588,佳木斯市,四丰,,,,,,,,,,,,,,,,
2025-11-13T1400,1252A,120.7436,30.778,嘉兴市,清河小学,,31,26,36,12,16,98,,68,68,15,26,8,8,0.3,0.4
2025-11-13T1400,1253A,120.726,30.7478,嘉兴市,嘉兴学院,,,28,39,13,17,96,,63,63,19,29,,7,,0.5
2025-11-13T1400,2872A,120.7846,30.7525,嘉兴市,南湖区残联,,33,31,35,17,19,104,,73,73,17,23,7,7,0.5,0.6
2025-11-13T1400,3407A,120.6916,30.7739,嘉兴市,秀洲住建,,33,26,39,12,18,103,,71,71,19,27,9,9,0.4,0.6
2025-11-13T1400,1945A,98.2908,39.7711,嘉峪关市,气象局,,46,46,83,12,20,86,,78,78,8,19,6,10,0.6,0.5
2025-11-13T1400,2884A,98.2672,39.7978,嘉峪关市,酒钢宾馆,,,66,122,,30,69,,,,13,15,,17,1.0,0.7
2025-11-13T1400,3248A,98.2643,39.7724,嘉峪关市,雄关区,,35,35,66,15,22,81,,71,71,12,23,15,20,0.5,0.6
2025-11-13T1400,1383A,113.1064,22.6058,江门市,北街,,27,23,21,13,12,85,,48,,18,20,6,6,0.4,0.5
2025-11-13T1400,1384A,113.0731,22.5835,江门市,西区,,28,28,25,8,16,77,,60,60,18,18,6,5,0.3,0.4
2025-11-13T1400,1385A,113.0219,22.5311,江门市,圭峰西,,26,26,23,13,12,81,,63,63,18,16,5,5,0.4,0.5
2025-11-13T1400,1386A,113.0828,22.5947,江门市,东湖,,26,26,23,11,13,68,,52,52,20,19,8,8,0.3,0.4
2025-11-13T1400,3311A,113.1075,22.5647,江门市,江海富民,,,,26,,9,83,,62,62,21,22,10,9,,0.6
2025-11-13T1400,3449A,113.05,22.4667,江门市,新会银湖,,23,22,22,12,12,73,,57,57,18,18,6,6,0.5,0.6
2025-11-13T1400,1830A,113.1992,35.2590,焦作市,影视城,,,,123,,65,,,82,,,29,,10,,0.8
2025-11-13T1400,3335A,113.3137,35.2641,焦作市,马村街道办,细颗粒物(PM2.5),94,86,149,70,90,99,,50,50,18,32,12,10,0.6,0.8
2025-11-13T1400,3336A,113.2465,35.2373,焦作市,焦作技师学院,颗粒物(PM10),61,71,135,41,81,94,,,,22,39,8,6,0.4,0.7
2025-11-13T1400,3477A,113.1656,35.2539,焦作市,中站许衡医院,,48,,132,33,80,92,,55,55,19,31,10,13,0.4,0.8
2025-11-13T1400,3981A,113.2449,35.1803,焦作市,原李万街道办,颗粒物(PM10),64,78,151,31,79,79,,40,40,16,37,10,9,0.4,0.8
2025-11-13T1400,4264A,113.2340,35.2190,焦作市,新安路1731号,,,,157,,97,60,,35,35,13,36,,7,0.8,1.2
2025-11-13T1400,4295A,113.2722,35.2121,焦作市,人民路3066号,颗粒物(PM10),55,60,146,37,78,89,,42,42,15,35,8,6,0.4,0.9
2025-11-13T1400,1708A,116.3701,23.5345,揭阳市,新兴,,23,23,20,7,9,59,,,,7,9,7,7,0.5,0.5
2025-11-13T1400,1709A,116.3264,23.5443,揭阳市,西马,,20,20,13,3,7,54,,44,44,8,9,4,3,0.6,0.6
2025-11-13T1400,1710A,116.3611,23.5626,揭阳市,东兴,,31,31,19,7,6,48,,38,38,10,13,5,6,0.3,0.3
2025-11-13T1400,1711A,116.4151,23.5294,揭阳市,渔湖,,24,24,22,8,8,64,,,,8,11,5,5,0.4,0.6
2025-11-13T1400,3320A,116.403,23.5699,揭阳市,曲溪,,20,9,13,6,7,63,,48,48,5,10,2,1,0.4,0.4
2025-11-13T1400,1944A,102.1692,38.5167,金昌市,天庆家园,颗粒物(PM10),59,68,137,24,47,73,,40,40,8,27,4,28,0.5,0.9
2025-11-13T1400,4022A,102.1647,38.5371,金昌市,金川区人防中心,颗粒物(PM10),72,93,132,37,48,75,,40,40,6,21,4,20,0.6,0.9
2025-11-13T1400,4239A,102.1930,38.5319,金昌市,长春路96号,颗粒物(PM10),52,53,123,16,43,79,,40,40,5,24,6,27,0.5,0.9
2025-11-13T1400,1262A,119.647,29.077,金华市,十五中,,50,50,42,31,30,61,,24,24,37,35,3,3,0.6,0.6
2025-11-13T1400,1263A,119.686,29.1029,金华市,监测站,,,,40,,22,,,23,,,38,,2,,0.6
2025-11-13T1400,3659A,119.656,29.1131,金华市,气象局,,41,41,38,25,24,49,,26,26,28,34,4,4,0.7,0.7
2025-11-13T1400,1767A,121.1115,41.0879,锦州市,南山,,26,18,45,8,22,82,,45,45,9,23,8,10,0.5,0.6
2025-11-13T1400,1768A,121.0604,40.8428,锦州市,开发区,,25,25,80,16,38,51,,29,29,26,45,14,20,0.4,0.8
2025-11-13T1400,1769A,121.1836,41.1119,锦州市,百股街道,,26,25,45,7,21,82,,46,46,4,19,9,10,0.4,0.7
2025-11-13T1400,1770A,121.1178,41.1222,锦州市,天安街道,,26,18,38,9,16,83,,52,52,5,15,11,11,0.5,0.6
2025-11-13T1400,1771A,121.1303,41.1386,锦州市,北湖公园,,25,10,44,3,13,79,,46,46,8,18,8,10,0.4,0.5
2025-11-13T1400,2160A,112.85,35.5051,晋城市,自来水公司,,,81,87,24,39,76,,40,40,20,32,11,10,,1.1
2025-11-13T1400,2161A,112.8318,35.4936,晋城市,白云商贸,,37,37,85,9,25,80,,44,44,19,27,6,5,0.7,1
2025-11-13T1400,2162A,112.8508,35.4887,晋城市,市环保局,颗粒物(PM10),57,64,89,22,34,81,,42,42,14,26,9,8,0.7,1
2025-11-13T1400,2163A,112.8676,35.4897,晋城市,技术学院,,50,50,83,17,35,70,,35,35,20,35,10,8,0.7,1
2025-11-13T1400,2165A,112.8453,35.546,晋城市,白马寺,,42,42,61,19,33,88,,64,64,13,18,10,11,0.4,0.6
2025-11-13T1400,3620A,112.8271,35.4828,晋城市,泽州一中,颗粒物(PM10),52,54,79,14,34,90,,55,55,14,24,6,5,0.4,0.7
2025-11-13T1400,2173A,112.7249,37.7067,晋中市,南都小区,颗粒物(PM10),53,55,56,19,19,76,,40,40,27,36,29,11,0.6,0.5
2025-11-13T1400,2174A,112.6991,37.6982,晋中市,榆次区政府,颗粒物(PM10),58,66,57,23,21,76,,35,35,26,36,26,10,0.6,0.4
2025-11-13T1400,2865A,112.7195,37.6828,晋中市,榆次三中,颗粒物(PM10),59,68,62,22,17,77,,34,34,26,35,29,10,0.8,0.5
2025-11-13T1400,4200A,112.7478,37.6954,晋中市,迎宾街26号,颗粒物(PM10),62,73,54,31,18,79,,45,45,24,31,31,11,0.7,0.7
2025-11-13T1400,2439A,112.2014,31.0481,荆门市,竹园小学,颗粒物(PM10),65,80,85,42,44,113,,67,67,17,27,3,1,0.3,0.4
2025-11-13T1400,2440A,112.1969,30.9891,荆门市,掇刀,颗粒物(PM10),65,80,83,41,44,116,,73,73,13,20,1,1,0.4,0.5
2025-11-13T1400,2441A,112.2213,31.0386,荆门市,石化一小,颗粒物(PM10),74,97,98,42,44,108,,62,62,17,28,12,8,0.4,0.3
2025-11-13T1400,3012A,112.1849,31.0362,荆门市,西山林语,颗粒物(PM10),62,73,77,34,40,115,,73,73,13,18,9,9,0.6,0.6
2025-11-13T1400,3547A,112.1632,31.0138,荆门市,龙泉中学南校,颗粒物(PM10),67,84,87,34,40,118,,81,81,16,21,10,9,0.6,0.5
2025-11-13T1400,1844A,112.2494,30.3197,荆州市,市图书馆,颗粒物(PM10),61,72,56,41,45,124,,69,69,12,23,9,9,0.7,0.6
2025-11-13T1400,1845A,112.2008,30.3544,荆州市,市委党校,颗粒物(PM10),57,64,67,39,45,113,,56,56,14,29,10,9,0.6,0.6
2025-11-13T1400,3194A,112.2747,30.3122,荆州市,管委会,颗粒物(PM10),55,59,57,31,40,122,,66,66,11,21,10,9,0.6,0.5
2025-11-13T1400,4268A,112.1722,30.3366,荆州市,学苑路85号,颗粒物(PM10),57,63,70,34,43,135,,70,70,10,23,11,12,0.5,0.5
2025-11-13T1400,2342A,117.3102,29.3867,景德镇市,王港中学,,,,,,,,,,,,,,,,
2025-11-13T1400,2343A,117.2117,29.2933,景德镇市,老干部活动中心,,27,24,25,14,17,86,,68,68,2,3,4,4,0.5,0.5
2025-11-13T1400,2344A,117.1894,29.2789,景德镇市,兽医站,,41,41,33,13,13,100,,77,77,6,8,6,6,0.3,0.3
2025-11-13T1400,2346A,117.2461,29.2956,景德镇市,陶研所,,25,,11,10,8,79,,,,6,4,4,5,1.3,0.5
2025-11-13T1400,4289A,117.1542,29.2566,景德镇市,青少年活动中心,,32,32,27,19,16,99,,74,74,6,10,4,4,0.5,0.5
2025-11-13T1400,1803A,115.9872,29.6815,九江市,十里,,48,48,43,27,27,126,,94,94,14,20,7,7,0.6,0.6
2025-11-13T1400,1804A,115.9584,29.7046,九江市,茅山头,,41,41,39,21,24,110,,79,79,13,17,7,6,0.6,0.6
2025-11-13T1400,1805A,115.9877,29.7295,九江市,西园,,44,44,36,12,22,125,,92,92,23,28,5,4,0.6,0.6
2025-11-13T1400,1808A,115.9114,29.6038,九江市,综合工业园,,38,37,39,26,25,116,,83,83,22,25,4,4,0.4,0.4
2025-11-13T1400,1809A,116.0721,29.7535,九江市,石化总厂,颗粒物(PM10),53,56,48,21,21,119,,98,98,15,20,5,6,0.5,0.5
2025-11-13T1400,1810A,115.9773,29.5698,九江市,庐山气象台,,,,,,,,,,,,,,,,
2025-11-13T1400,3190A,116.0254,29.6994,九江市,外国语学校,,,,41,,21,95,,,,19,27,4,5,0.5,0.5
2025-11-13T1400,4253A,116.0102,29.6594,九江市,莲花大道8号,,42,42,44,17,17,108,,79,79,11,14,7,8,0.4,0.4
2025-11-13T1400,4240A,98.4958,39.7339,酒泉市,玉门东路5号,颗粒物(PM10),51,51,95,8,26,87,,62,62,12,22,17,12,0.4,0.5
2025-11-13T1400,4241A,98.5099,39.7506,酒泉市,北大街108号,颗粒物(PM10),65,80,98,16,26,76,,44,44,11,19,22,13,0.6,0.6
2025-11-13T1400,2698A,76.0072,39.4467,喀什地区,巡警大队,细颗粒物(PM2.5),179,282,273,135,112,64,,27,27,47,60,8,10,0.8,1.7
2025-11-13T1400,2699A,75.9755,39.4694,喀什地区,吾办,颗粒物(PM10),171,291,246,123,97,60,,19,19,56,60,8,8,1.1,1.6
2025-11-13T1400,4027A,75.9483,39.4689,喀什地区,老干局,颗粒物(PM10),164,278,270,71,86,61,,23,23,54,58,8,6,1.6,2.3
2025-11-13T1400,1824A,114.3389,34.7781,开封市,肿瘤医院,细颗粒物(PM2.5),74,94,97,54,55,92,,62,62,26,43,13,11,0.7,0.7
2025-11-13T1400,1826A,114.2885,34.7965,开封市,世纪星幼儿园,细颗粒物(PM2.5),99,,106,74,82,87,,48,48,29,46,11,10,0.7,0.7
2025-11-13T1400,3147A,114.3438,34.8106,开封市,龙亭公园,细颗粒物(PM2.5),94,79,100,70,80,88,,47,47,26,42,13,11,0.3,0.5
2025-11-13T1400,3210A,114.3644,34.7964,开封市,汴京公园,细颗粒物(PM2.5),98,108,111,73,70,82,,44,44,31,47,12,10,0.6,0.7
2025-11-13T1400,3473A,114.2485,34.8306,开封市,技师学院,细颗粒物(PM2.5),87,85,97,64,73,85,,49,49,24,36,12,11,0.8,0.9
2025-11-13T1400,3592A,114.4644,34.7556,开封市,祥符区生态环境局,细颗粒物(PM2.5),122,146,131,92,76,89,,44,44,37,51,10,8,0.8,0.8
2025-11-13T1400,1951A,84.895,45.6094,克拉玛依市,长征新村,颗粒物(PM10),55,60,38,15,15,29,,37,26,34,27,8,8,0.3,0.4
2025-11-13T1400,1952A,84.8988,45.5893,克拉玛依市,南林小区,,50,50,39,14,14,31,,17,17,18,26,5,5,0.4,0.6
2025-11-13T1400,1954A,84.905,44.3396,克拉玛依市,独山子区,颗粒物(PM10),67,83,54,30,28,45,,46,43,46,25,17,6,1.0,0.6
2025-11-13T1400,1955A,85.6979,46.098,克拉玛依市,乌尔禾区商贸楼,,33,33,35,18,13,33,,16,13,18,28,10,6,0.2,0.6
2025-11-13T1400,3612A,85.1045,45.6899,克拉玛依市,白碱滩区新站,颗粒物(PM10),56,62,44,15,15,24,,27,17,43,27,9,6,0.5,0.4
2025-11-13T1400,2697A,76.1454,39.7142,克孜勒苏柯尔克孜自治州,市人民政府,细颗粒物(PM2.5),188,229,213,141,98,86,,65,64,22,23,29,19,0.4,0.3
2025-11-13T1400,3665A,76.1658,39.7157,克孜勒苏柯尔克孜自治州,克州文化中心,细颗粒物(PM2.5),208,213,204,158,86,92,,57,54,16,27,12,17,0.5,0.6
2025-11-13T1400,1450A,102.8204,24.8886,昆明市,呈贡新区,,28,12,21,10,26,88,,55,55,4,12,1,4,0.5,0.7
2025-11-13T1400,1451A,102.6251,24.9608,昆明市,西山森林公园,,,,,,,,,,,,,,,,
2025-11-13T1400,1452A,102.7252,25.0902,昆明市,龙泉镇,,,,34,,25,,,56,,,18,,3,,0.5
2025-11-13T1400,1453A,102.7266,25.0375,昆明市,东风东路,,28,15,33,10,15,89,,51,51,8,18,2,2,0.3,0.5
2025-11-13T1400,1454A,102.6742,25.0669,昆明市,金鼎山,,28,,31,12,15,87,,47,47,6,15,2,2,0.3,0.5
2025-11-13T1400,1455A,102.6644,25.0401,昆明市,碧鸡广场,,25,14,35,11,19,79,,45,45,7,21,3,3,0.4,0.5
2025-11-13T1400,3179A,102.7494,25.0119,昆明市,官渡区博物馆,,27,,26,14,15,85,,46,46,6,22,3,3,0.2,0.4
2025-11-13T1400,3375A,102.8017,24.8336,昆明市,青年创业园,,,,26,12,16,81,,23,,2,12,2,2,,0.7
2025-11-13T1400,3550A,102.7997,24.9786,昆明市,昆明学院,,28,11,31,7,20,88,,53,53,6,18,1,2,0.4,0.6
2025-11-13T1400,3551A,102.5967,24.6736,昆明市,晋宁区生态环境分局,,,,30,12,18,80,,37,37,5,16,,9,,0.5
2025-11-13T1400,3552A,102.6678,24.9856,昆明市,云天化总部,,,,27,,18,82,,53,53,,19,6,5,0.5,0.6
2025-11-13T1400,1456A,91.1319,29.6514,拉萨市,八廓街,,30,22,21,9,13,95,,64,64,13,26,7,7,0.3,0.4
2025-11-13T1400,1457A,91.1221,29.6747,拉萨市,市环保局,,29,16,33,3,19,90,,48,48,12,26,7,8,0.5,0.9
2025-11-13T1400,1458A,91.0874,29.6475,拉萨市,区监测站,,29,14,21,8,11,90,,58,58,18,39,6,6,0.3,0.5
2025-11-13T1400,1459A,91.1774,29.6541,拉萨市,西藏大学,,29,12,17,7,10,92,,62,62,18,25,5,6,0.3,0.3
2025-11-13T1400,1460A,90.9798,29.6588,拉萨市,区辐射站,,27,27,53,15,24,71,,30,30,32,47,6,8,0.4,0.7
2025-11-13T1400,1461A,91.0834,29.6292,拉萨市,拉萨火车站,,25,12,23,3,13,77,,30,30,21,40,6,6,0.5,0.8
2025-11-13T1400,2520A,109.2203,23.7256,来宾市,来宾技工学校,,,,40,12,18,93,,76,76,5,7,11,10,0.3,0.5
2025-11-13T1400,3535A,109.1781,23.7297,来宾市,兴宾区政府,,31,28,40,15,21,97,,76,76,6,6,9,9,0.3,0.4
2025-11-13T1400,4002A,109.2416,23.7461,来宾市,中南小学,,38,38,44,13,23,98,,77,77,5,8,9,9,0.4,0.5
2025-11-13T1400,1477A,104.1373,35.9454,兰州市,榆中兰大校区,,,,,,,,,,,,,,,,
2025-11-13T1400,1479A,103.831,36.0464,兰州市,铁路设计院,,,,,,,,,,,,,,,,
2025-11-13T1400,3241A,103.7439,36.0842,兰州市,百合公园,,,82,80,41,35,77,,26,26,,36,,11,0.8,0.8
2025-11-13T1400,3242A,103.9611,35.998,兰州市,和平,颗粒物(PM10),69,87,75,44,33,75,,35,35,17,31,16,8,0.5,0.5
2025-11-13T1400,4236A,103.6293,36.0938,兰州市,庄浪东路808号,细颗粒物(PM2.5),102,115,85,76,40,123,,44,44,60,49,30,14,1.2,0.6
2025-11-13T1400,4237A,103.7251,36.1043,兰州市,安宁西路88号,颗粒物(PM10),73,95,96,52,44,84,,36,36,32,38,27,12,0.7,0.6
2025-11-13T1400,4238A,103.8470,36.0676,兰州市,北滨河东路1号,颗粒物(PM10),65,79,82,33,34,61,,24,24,39,46,26,13,1.0,0.9
2025-11-13T1400,3245A,103.6633,36.533,兰州新区,新区管委会,颗粒物(PM10),62,73,85,36,43,92,,46,46,11,20,14,16,0.4,0.5
2025-11-13T1400,3246A,103.6975,36.4789,兰州新区,舟曲中学,颗粒物(PM10),71,91,92,47,35,102,,49,49,12,27,11,18,0.3,0.4
2025-11-13T1400,1067A,116.6708,39.5111,廊坊市,药材公司,,23,16,41,3,17,71,,55,55,17,28,1,2,0.3,0.4
2025-11-13T1400,1068A,116.7214,39.5589,廊坊市,开发区,,24,17,40,6,17,76,,46,46,14,36,2,2,0.2,0.3
2025-11-13T1400,1070A,116.7244,39.5269,廊坊市,北华航天学院,,24,18,44,3,15,74,,52,52,14,30,2,3,0.2,0.3
2025-11-13T1400,2919A,116.7022,39.5453,廊坊市,河北工业大学,,23,14,44,3,18,72,,52,52,9,27,3,3,0.2,0.3
2025-11-13T1400,2535A,103.7723,29.5462,乐山市,花湖湾,,,,,,,,,,,,,,,,
2025-11-13T1400,2536A,103.7627,29.5844,乐山市,牛耳桥,,29,28,28,20,23,32,,16,16,17,26,7,6,0.6,0.6
2025-11-13T1400,2537A,103.7508,29.6006,乐山市,市第三水厂,,28,28,28,17,15,26,,18,14,24,27,6,6,0.6,0.7
2025-11-13T1400,2538A,103.7571,29.5664,乐山市,市监测站,,30,30,27,15,14,31,,22,22,14,21,8,7,0.8,0.8
2025-11-13T1400,3361A,103.7311,29.5628,乐山市,理工大学,,36,36,28,20,15,40,,25,25,13,20,13,8,0.6,0.6
2025-11-13T1400,2598A,100.2143,26.8576,丽江市,西南郊,,28,28,26,17,14,83,,50,50,2,10,8,7,0.6,0.7
2025-11-13T1400,2599A,100.2497,26.8802,丽江市,丽江古城,,29,29,32,16,16,82,,58,58,10,14,10,11,0.5,0.6
2025-11-13T1400,2600A,100.2203,26.8906,丽江市,市中心,,28,,20,14,12,88,,55,55,9,15,10,11,0.4,0.4
2025-11-13T1400,1267A,119.914,28.4514,丽水市,监测站大楼,,,,16,16,12,23,,21,,,20,,5,0.6,0.6
2025-11-13T1400,1268A,119.93,28.4586,丽水市,莲都小学,,27,27,20,12,11,20,,24,14,31,24,4,4,0.5,0.4
2025-11-13T1400,1269A,119.879,28.4231,丽水市,余庄前,,32,28,22,22,17,9,,14,7,34,25,4,3,0.5,0.4
2025-11-13T1400,1173A,119.176,34.5885,连云港市,市环境监测站,细颗粒物(PM2.5),89,107,99,66,59,98,,51,51,23,42,10,11,0.9,0.9
2025-11-13T1400,3000A,119.3581,34.6972,连云港市,德源药业,细颗粒物(PM2.5),94,127,107,70,52,84,,43,43,35,54,8,7,0.7,0.7
2025-11-13T1400,3007A,119.178,34.844,连云港市,新城一中,细颗粒物(PM2.5),125,140,99,95,70,104,,56,56,34,53,18,14,1.1,1
2025-11-13T1400,3008A,119.3608,34.7519,连云港市,胡沟管理处,细颗粒物(PM2.5),104,129,86,78,48,100,,55,55,30,40,10,12,0.8,0.7
2025-11-13T1400,3009A,119.1478,34.5911,连云港市,矿山设计院,细颗粒物(PM2.5),98,129,101,73,58,96,,44,44,18,25,6,7,0.8,0.7
2025-11-13T1400,3434A,119.2413,34.6539,连云港市,工贸学校,细颗粒物(PM2.5),115,148,98,87,58,85,,51,51,51,41,13,12,1.0,0.9
2025-11-13T1400,3664A,119.4172,34.7341,连云港市,连云街道,,,,87,,49,,,68,,,31,,10,,0.6
2025-11-13T1400,2571A,102.3431,27.8099,凉山彝族自治州,青龙寺,,,,,,,,,,,,,,,,
2025-11-13T1400,2572A,102.2721,27.8415,凉山彝族自治州,邛海宾馆,,9,8,11,3,6,26,,40,31,14,9,7,8,0.7,0.6
2025-11-13T1400,2573A,102.2625,27.898,凉山彝族自治州,西昌市政府,,29,,24,20,10,15,,34,24,31,13,15,10,1.3,0.8
2025-11-13T1400,2574A,102.2685,27.8851,凉山彝族自治州,凉山州政府,,28,28,17,15,14,14,,35,27,27,8,11,9,1.0,0.7
2025-11-13T1400,4229A,102.2342,27.8859,凉山彝族自治州,凯乐南路30号,,25,20,19,17,9,14,,40,24,36,14,15,10,1.3,0.5
2025-11-13T1400,2212A,123.2,41.1953,辽阳市,宏伟区,,37,37,82,22,47,80,,45,45,9,18,8,9,0.6,0.7
2025-11-13T1400,2213A,123.1683,41.2495,辽阳市,新华园,,45,45,92,16,45,73,,35,35,11,25,6,8,0.3,0.6
2025-11-13T1400,2214A,123.2354,41.2639,辽阳市,滨河路,,38,38,99,18,46,74,,37,37,10,25,4,9,0.5,0.8
2025-11-13T1400,2215A,123.149,41.2991,辽阳市,铁西工业园,,42,42,106,25,53,75,,37,37,10,25,10,10,0.5,0.8
2025-11-13T1400,2227A,125.1358,42.8845,辽源市,环保局,颗粒物(PM10),68,86,67,26,21,69,,61,61,12,16,4,5,0.5,0.6
2025-11-13T1400,3239A,125.0764,42.9078,辽源市,银鹰制药,,32,32,57,21,28,67,,51,51,11,20,5,5,0.3,0.5
2025-11-13T1400,1625A,115.9848,36.4372,聊城市,区政府,,45,45,97,18,58,65,,44,44,28,44,16,17,0.6,0.7
2025-11-13T1400,2878A,116.0072,36.4343,聊城市,聊大东校,,41,41,101,24,58,73,,50,50,29,47,17,15,0.7,0.7
2025-11-13T1400,3200A,115.9819,36.4978,聊城市,监控中心,,25,24,105,7,62,80,,47,47,13,46,13,14,0.6,0.7
2025-11-13T1400,3513A,116.0445,36.4361,聊城市,九州社区,,45,45,107,20,58,78,,57,57,16,38,11,8,0.6,0.6
2025-11-13T1400,4018A,116.0567,36.4608,聊城市,星美广场,,46,46,116,17,56,76,,50,50,19,52,13,12,0.5,0.6
2025-11-13T1400,2632A,94.3681,29.6376,林芝市,林芝监测站,,,11,11,3,5,77,,64,54,,4,3,4,0.2,0.3
2025-11-13T1400,2633A,94.3616,29.6616,林芝市,林芝人民医院,,22,9,15,3,6,69,,55,48,2,4,4,5,0.3,0.3
2025-11-13T1400,2603A,100.0781,23.8982,临沧市,市环保局,,22,15,27,7,22,70,,31,31,3,8,6,6,0.1,0.4
2025-11-13T1400,2604A,100.0894,23.8822,临沧市,市气象局,,,,19,6,9,69,,36,36,5,10,4,9,0.3,0.6
2025-11-13T1400,1733A,111.5531,36.0783,临汾市,临钢医院,,48,48,94,17,37,78,,39,39,17,32,10,11,0.5,0.9
2025-11-13T1400,1734A,111.5028,36.0714,临汾市,技工学校,,45,45,87,23,43,72,,34,34,18,38,9,12,0.4,0.8
2025-11-13T1400,1736A,111.5018,36.0855,临汾市,市委,颗粒物(PM10),53,55,99,14,39,75,,34,34,16,39,7,10,0.5,1
2025-11-13T1400,3018A,111.505,36.1014,临汾市,唐尧大酒店,颗粒物(PM10),53,56,101,18,39,76,,32,32,18,38,7,9,0.6,1
2025-11-13T1400,4244A,111.4879,36.0530,临汾市,启星学校,,34,34,81,10,36,81,,36,36,22,40,9,10,0.4,0.7
2025-11-13T1400,4271A,103.2464,35.6123,临夏回族自治州,滨河东路1号,颗粒物(PM10),63,76,102,41,56,72,,26,26,17,29,4,3,0.5,0.9
2025-11-13T1400,4310A,103.2093,35.5995,临夏回族自治州,新华街21号,细颗粒物(PM2.5),67,70,101,48,70,73,,28,28,8,20,13,10,0.5,0.9
2025-11-13T1400,1618A,118.3429,35.0532,临沂市,沂河小区,细颗粒物(PM2.5),72,80,108,52,81,93,,66,66,28,48,12,15,0.6,0.7
2025-11-13T1400,1619A,118.295,35.0583,临沂市,鲁南制药厂,细颗粒物(PM2.5),79,88,118,58,77,96,,58,58,29,63,14,18,0.7,0.8
2025-11-13T1400,1620A,118.2794,34.9976,临沂市,新光毛纺厂,细颗粒物(PM2.5),80,85,116,59,73,98,,50,50,30,64,13,17,0.7,0.8
2025-11-13T1400,1621A,118.3956,35.0888,临沂市,河东保险公司,颗粒物(PM10),64,78,97,39,61,92,,67,67,30,45,12,12,0.8,0.9
2025-11-13T1400,3370A,118.3564,35.0215,临沂市,十里堡居委,颗粒物(PM10),62,73,103,29,58,98,,70,70,31,60,14,19,0.7,0.8
2025-11-13T1400,3496A,118.3604,35.1084,临沂市,南坊新区,颗粒物(PM10),62,73,107,39,69,95,,68,68,26,47,13,16,0.4,0.7
2025-11-13T1400,3860A,118.3920,35.0300,临沂市,皇山花园小区,颗粒物(PM10),71,92,109,48,63,88,,64,64,30,49,15,17,0.6,0.8
2025-11-13T1400,1870A,109.4856,24.3895,柳州市,柳东小学,,32,32,39,17,22,92,,78,78,4,5,7,6,0.2,0.3
2025-11-13T1400,1871A,109.4157,24.3277,柳州市,环保监测站,,30,27,40,16,8,94,,76,76,7,8,12,10,0.5,0.5
2025-11-13T1400,1872A,109.389,24.341,柳州市,河西水厂,,36,36,47,14,23,100,,78,78,6,14,9,12,0.2,0.9
2025-11-13T1400,1873A,109.4311,24.2921,柳州市,市四中,,35,35,38,14,18,96,,78,78,9,9,11,9,0.6,0.5
2025-11-13T1400,1874A,109.4006,24.3631,柳州市,市九中,,32,32,46,22,22,98,,80,80,9,12,8,8,0.4,0.4
2025-11-13T1400,1875A,109.4958,24.3134,柳州市,古亭山,,43,43,38,12,15,88,,73,73,3,4,8,8,0.4,0.5
2025-11-13T1400,3402A,109.5422,24.3996,柳州市,市二中,,34,34,35,15,22,92,,70,70,6,10,7,7,0.3,0.4
2025-11-13T1400,2307A,116.5079,31.737,六安市,监测大楼,颗粒物(PM10),54,58,50,32,29,125,,80,80,11,22,5,4,0.3,0.3
2025-11-13T1400,2308A,116.4738,31.7643,六安市,皖西学院,颗粒物(PM10),60,70,61,42,31,129,,75,75,10,23,4,3,0.3,0.3
2025-11-13T1400,2309A,116.4996,31.7905,六安市,朝阳厂,颗粒物(PM10),58,65,55,39,29,126,,85,85,15,25,6,5,0.3,0.3
2025-11-13T1400,2310A,116.5567,31.7886,六安市,开发区,颗粒物(PM10),64,77,67,41,33,125,,75,75,15,34,3,3,0.4,0.4
2025-11-13T1400,2576A,104.8,26.5892,六盘水市,窑上,,,,26,,10,44,,40,37,7,6,6,2,0.6,0.5
2025-11-13T1400,2577A,104.83,26.5917,六盘水市,黄土坡,,17,17,16,8,10,41,,41,33,14,12,5,5,0.7,0.6
2025-11-13T1400,2578A,104.89,26.5939,六盘水市,水钢,,21,21,20,6,9,45,,38,36,8,9,6,6,0.5,0.6
2025-11-13T1400,2579A,104.8475,26.5894,六盘水市,民中,,19,19,17,7,7,39,,38,29,12,12,4,3,0.6,0.6
2025-11-13T1400,2580A,104.9544,26.5506,六盘水市,双水,,24,24,17,3,9,47,,41,40,10,7,4,3,0.5,0.5
2025-11-13T1400,2335A,117.0189,25.1181,龙岩市,龙岩师专,,,,,,,,,,,,,,,,
2025-11-13T1400,2336A,117.0217,25.1033,龙岩市,龙岩市监测站,,20,15,7,14,4,37,,39,39,9,8,7,9,0.4,0.3
2025-11-13T1400,2337A,117.0258,25.0661,龙岩市,闽西职业技术学院,,13,10,7,6,4,40,,40,36,5,5,4,6,0.4,0.3
2025-11-13T1400,2338A,117.0196,25.0306,龙岩市,龙岩学院,,14,8,7,8,5,42,,36,36,8,7,8,7,0.4,0.3
2025-11-13T1400,2665A,105.0822,33.3261,陇南市,汉王镇固水子,,,,,,,,,,,,,,,,
2025-11-13T1400,2885A,104.9339,33.3826,陇南市,滨江中学,颗粒物(PM10),51,51,72,24,32,76,,46,46,11,23,7,8,0.6,0.8
2025-11-13T1400,3247A,104.955,33.371,陇南市,市总工会,颗粒物(PM10),53,56,66,30,32,69,,36,36,12,22,7,7,0.6,0.6
2025-11-13T1400,2487A,111.9589,27.8901,娄底市,电视发射台,,,,,,,,,,,,,,,,
2025-11-13T1400,2488A,111.9975,27.725,娄底市,市监测站,,36,24,41,13,23,113,,75,75,2,16,10,14,0.5,0.6
2025-11-13T1400,2489A,112.0194,27.7314,娄底市,市委党校,,,31,41,16,23,96,,69,69,,14,4,6,0.3,0.4
2025-11-13T1400,2490A,111.9561,27.7569,娄底市,涟钢,,28,12,38,3,19,89,,65,65,6,10,5,8,0.4,0.5
2025-11-13T1400,2491A,111.9892,27.7044,娄底市,市政府,,33,15,34,9,22,104,,66,66,7,13,10,10,0.8,0.9
2025-11-13T1400,1893A,105.4324,28.9634,泸州市,九狮山,,,,,,,,,,,,,,,,
2025-11-13T1400,1894A,105.4427,28.9063,泸州市,小市上码头,,,22,15,12,9,55,,35,35,,12,8,8,0.4,0.7
2025-11-13T1400,1895A,105.4241,28.8573,泸州市,兰田宪桥,,17,15,15,7,8,54,,40,40,5,8,6,6,0.4,0.4
2025-11-13T1400,1896A,105.4379,28.8833,泸州市,市环监站,,19,17,13,13,9,48,,36,36,8,14,7,6,0.5,0.5
2025-11-13T1400,4272A,105.3689,28.7783,泸州市,纳溪中医医院,,17,17,19,11,10,51,,39,39,16,16,6,5,0.5,0.6
2025-11-13T1400,2183A,111.1406,37.5211,吕梁市,环保局,,45,45,76,20,20,63,,28,28,21,35,7,5,0.5,0.4
2025-11-13T1400,2185A,111.1297,37.5136,吕梁市,自来水公司,,,44,89,15,23,60,,28,28,25,35,,6,0.6,0.5
2025-11-13T1400,2867A,111.1283,37.51,吕梁市,马茂庄小学,颗粒物(PM10),53,56,78,20,20,50,,25,25,31,39,6,4,0.5,0.5
2025-11-13T1400,1812A,112.3931,34.6516,洛阳市,市委党校,细颗粒物(PM2.5),78,86,77,57,45,93,,42,42,25,33,14,11,0.7,0.7
2025-11-13T1400,1815A,112.494,34.6886,洛阳市,河南林校,细颗粒物(PM2.5),74,93,90,54,44,86,,37,37,34,43,13,10,0.6,0.7
2025-11-13T1400,1816A,112.3844,34.623,洛阳市,开发区管委会,颗粒物(PM10),72,93,78,51,43,99,,52,52,25,29,13,9,0.6,0.6
2025-11-13T1400,1817A,112.4267,34.6258,洛阳市,市委新办公区,颗粒物(PM10),72,93,80,37,37,83,,50,50,26,30,12,10,0.7,0.5
2025-11-13T1400,3340A,112.6005,34.6326,洛阳市,伊滨,细颗粒物(PM2.5),82,101,94,60,41,89,,37,37,31,30,14,10,0.5,0.5
2025-11-13T1400,3341A,112.4951,34.6332,洛阳市,中移产业园,细颗粒物(PM2.5),80,94,80,59,42,90,,38,38,28,30,12,10,0.5,0.5
2025-11-13T1400,3593A,112.5736,34.8993,洛阳市,吉利监测站,细颗粒物(PM2.5),88,86,78,65,44,83,,41,41,34,33,13,9,0.7,0.8
2025-11-13T1400,3635A,112.3677,34.662,洛阳市,河科大西苑校区,细颗粒物(PM2.5),70,85,78,51,39,101,,46,46,23,33,13,12,0.7,1.2
2025-11-13T1400,3636A,112.4388,34.6781,洛阳市,英才小学,,,,92,,53,,,53,,,47,,12,,0.9
2025-11-13T1400,4214A,112.4600,34.6949,洛阳市,春都路1号院,颗粒物(PM10),82,113,102,46,38,77,,38,38,29,34,14,12,0.7,0.9
2025-11-13T1400,2399A,114.051,33.5699,漯河市,三五一五工厂,细颗粒物(PM2.5),125,137,110,95,62,78,,36,36,26,39,8,8,0.5,0.5
2025-11-13T1400,2400A,114.0055,33.5698,漯河市,漯河大学,细颗粒物(PM2.5),122,143,104,92,66,89,,41,41,26,39,8,7,0.5,0.6
2025-11-13T1400,2401A,114.0138,33.5828,漯河市,市水利局,细颗粒物(PM2.5),117,129,99,88,63,84,,38,38,25,34,9,9,0.6,0.6
2025-11-13T1400,2402A,114.0261,33.5698,漯河市,市广电局,细颗粒物(PM2.5),125,142,105,95,64,84,,38,38,24,34,7,7,0.5,0.5
2025-11-13T1400,3478A,113.9749,33.5664,漯河市,市图书馆,细颗粒物(PM2.5),144,177,116,110,67,81,,36,36,26,32,6,6,0.6,0.5
2025-11-13T1400,4250A,114.0892,33.5882,漯河市,韶山路11号,细颗粒物(PM2.5),127,138,108,96,61,69,,32,32,30,39,9,9,0.6,0.7
2025-11-13T1400,1798A,118.5092,31.6837,马鞍山市,湖东路四小,,43,43,48,24,25,132,,76,76,23,30,10,7,0.7,0.6
2025-11-13T1400,1799A,118.5024,31.6449,马鞍山市,开发区,,43,43,48,25,25,130,,83,83,20,31,8,6,0.6,0.6
2025-11-13T1400,1802A,118.6245,31.7241,马鞍山市,濮塘,,,,,,,,,,,,,,,,
2025-11-13T1400,3633A,118.4918,31.6809,马鞍山市,雨山,颗粒物(PM10),55,59,48,27,25,132,,77,77,25,31,14,8,0.8,0.6
2025-11-13T1400,4191A,118.5274,31.72227,马鞍山市,慈湖高新区,颗粒物(PM10),54,58,63,37,33,135,,72,72,23,31,10,6,0.6,0.4
2025-11-13T1400,1686A,111.0286,21.4688,茂名市,电白南海,颗粒物(PM10),56,61,49,27,24,132,,81,81,12,11,12,11,0.7,0.7
2025-11-13T1400,1687A,110.9294,21.6533,茂名市,茂石化七小,,46,46,44,24,22,116,,80,80,8,11,11,11,0.8,0.8
2025-11-13T1400,1688A,110.9107,21.6687,茂名市,健康路,,41,41,40,19,20,119,,82,82,10,12,11,18,0.8,0.8
2025-11-13T1400,1689A,110.8592,21.6828,茂名市,高岭,,48,48,53,27,23,108,,73,73,10,14,10,17,0.7,0.7
2025-11-13T1400,3450A,111.01,21.5165,茂名市,电白水东,,48,48,48,29,22,125,,78,78,14,12,10,11,0.8,0.8
2025-11-13T1400,2539A,104.0308,30.0478,眉山市,黑龙滩水库,,,,,,,,,,,,,,,,
2025-11-13T1400,2540A,103.8416,30.0874,眉山市,气象局,,35,35,42,19,19,51,,24,24,14,28,9,9,0.4,0.5
2025-11-13T1400,3137A,103.8578,30.0744,眉山市,市委党校,,34,34,32,12,12,42,,26,26,14,27,6,7,0.5,0.7
2025-11-13T1400,3148A,103.8291,30.0564,眉山市,区人社局,,43,43,46,22,14,39,,21,21,17,27,7,6,1.0,1
2025-11-13T1400,1690A,116.1231,24.3284,梅州市,梅江月梅,,14,6,10,6,8,43,,44,44,13,14,6,5,0.6,0.5
2025-11-13T1400,1691A,116.0797,24.2719,梅州市,梅县新城,,16,7,9,6,6,51,,50,50,9,10,7,7,0.5,0.5
2025-11-13T1400,1692A,116.1248,24.2654,梅州市,环境监控中心,,16,8,12,7,10,50,,34,34,6,13,4,4,0.5,0.5
2025-11-13T1400,3315A,116.1233,24.2991,梅州市,梅龙,,15,7,10,3,6,48,,45,45,5,8,7,6,0.6,0.6
2025-11-13T1400,1878A,104.7778,31.4741,绵阳市,富乐山,,44,44,58,29,34,49,,19,19,15,25,10,9,0.6,0.9
2025-11-13T1400,1880A,104.6697,31.4668,绵阳市,高新区自来水公司,,42,38,93,29,50,49,,20,20,18,35,9,10,0.6,0.8
2025-11-13T1400,1881A,104.7287,31.5075,绵阳市,三水厂,,45,42,67,31,42,59,,18,18,14,27,9,9,0.6,0.9
2025-11-13T1400,3491A,104.69,31.5322,绵阳市,西科大附属小学,,37,37,80,21,40,63,,20,20,17,32,6,6,0.6,0.8
2025-11-13T1400,3492A,104.5648,31.5343,绵阳市,安州区旅游局,,43,43,75,24,53,61,,26,26,13,23,8,11,0.5,0.8
2025-11-13T1400,4226A,104.7651,31.4531,绵阳市,绵阳市气象局,,45,45,75,15,38,56,,16,16,12,30,7,8,0.5,0.9
2025-11-13T1400,1784A,129.61,44.561,牡丹江市,环保大楼,,40,40,67,8,52,70,,63,63,5,17,5,8,0.3,0.5
2025-11-13T1400,1785A,129.6115,44.5782,牡丹江市,文化广场,,30,30,65,7,47,71,,63,63,4,16,6,9,0.3,0.5
2025-11-13T1400,1786A,129.5904,44.5963,牡丹江市,第一医院,颗粒物(PM10),51,52,71,24,57,71,,64,64,4,14,3,5,0.2,0.4
2025-11-13T1400,1787A,129.6364,44.6075,牡丹江市,机车工厂,,29,29,64,19,45,69,,64,64,9,21,3,7,0.3,0.5
2025-11-13T1400,1788A,129.6386,44.5462,牡丹江市,第一中学,,21,19,71,13,50,67,,63,63,3,16,2,5,0.3,0.5
2025-11-13T1400,2531A,105.0703,29.61,内江市,市监测站,,,18,22,17,15,71,,48,48,,14,2,3,,0.8
2025-11-13T1400,2532A,105.0717,29.5947,内江市,东兴区政府,,23,23,22,13,11,58,,38,38,12,19,6,6,0.4,0.4
2025-11-13T1400,2533A,105.0653,29.5817,内江市,内江二中,,23,,26,16,18,59,,35,35,11,19,4,4,0.7,0.7
2025-11-13T1400,2534A,105.0406,29.5822,内江市,内江日报社,,29,29,24,16,17,62,,35,35,12,18,4,4,0.4,0.5
2025-11-13T1400,2628A,92.0657,31.4846,那曲市,那曲监测站,,,,53,53,35,,,37,37,,34,,14,,1.4
2025-11-13T1400,4243A,92.0515,31.4787,那曲市,那曲市委宣传部,,27,6,31,3,19,85,,40,40,8,25,6,10,0.5,1.1
2025-11-13T1400,1290A,115.8931,28.6843,南昌市,省外办,,45,45,41,29,24,108,,80,80,16,17,7,6,0.8,0.7
2025-11-13T1400,1291A,115.8886,28.7003,南昌市,省林业公司,,41,41,38,24,22,116,,87,87,11,15,5,5,0.7,0.7
2025-11-13T1400,1292A,115.8126,28.7442,南昌市,林科所,,39,39,36,19,18,118,,89,89,9,15,5,5,0.6,0.6
2025-11-13T1400,1294A,115.8518,28.687,南昌市,建工学校,,,,42,,19,,,79,,,20,,9,,0.5
2025-11-13T1400,1295A,115.8921,28.6424,南昌市,象湖,,41,41,42,27,22,114,,84,84,14,17,10,9,0.6,0.6
2025-11-13T1400,1296A,115.7423,28.7996,南昌市,武术学校,,,,,,,,,,,,,,,,
2025-11-13T1400,3046A,115.9084,28.6062,南昌市,机电学校,颗粒物(PM10),51,52,49,31,22,120,,91,91,13,16,9,8,0.5,0.5
2025-11-13T1400,3690A,115.9721,28.7031,南昌市,外国语学校,颗粒物(PM10),52,54,47,20,26,122,,88,88,19,20,10,10,0.6,0.6
2025-11-13T1400,4192A,115.9316,28.68677,南昌市,南京东路235号,,50,50,48,26,23,121,,90,90,15,17,8,8,0.6,0.5
2025-11-13T1400,1905A,106.056,30.8064,南充市,西山风景区,,,,,,,,,,,,,,,,
2025-11-13T1400,1906A,106.0789,30.8023,南充市,南充市委,细颗粒物(PM2.5),60,57,47,43,28,25,,8,8,23,18,3,4,0.5,0.5
2025-11-13T1400,1907A,106.1031,30.8217,南充市,南充炼油厂,细颗粒物(PM2.5),55,54,53,39,31,21,,5,5,16,16,6,6,0.5,0.5
2025-11-13T1400,4227A,106.1083,30.7884,南充市,梨树横街98号,颗粒物(PM10),51,51,45,32,22,27,,9,9,16,18,4,5,0.5,0.5
2025-11-13T1400,4304A,106.1172,30.843,南充市,清泉寺北路188号,,43,38,39,30,21,31,,7,7,13,18,7,7,0.5,0.5
2025-11-13T1400,4305A,106.067,30.7616,南充市,同庆路1号,,42,41,41,29,26,23,,10,10,19,18,6,7,0.5,0.5
2025-11-13T1400,1151A,118.8086,32.1065,南京市,迈皋桥,颗粒物(PM10),54,57,43,31,25,141,,76,76,14,31,5,4,0.1,0.2
2025-11-13T1400,1152A,118.7538,32.0551,南京市,草场门,颗粒物(PM10),59,68,55,36,25,133,,72,72,24,45,9,5,0.6,0.5
2025-11-13T1400,1153A,118.7794,32.0745,南京市,山西路,颗粒物(PM10),64,78,63,31,24,144,,78,78,15,44,4,4,0.5,0.4
2025-11-13T1400,1154A,118.7752,32.0023,南京市,中华门,,,68,55,31,27,143,,85,85,17,39,4,4,,0.5
2025-11-13T1400,1155A,118.8109,32.0309,南京市,瑞金路,颗粒物(PM10),59,68,51,34,26,111,,75,75,18,33,4,4,0.5,0.6
2025-11-13T1400,1156A,118.7997,32.0754,南京市,玄武湖,,50,50,47,35,26,131,,66,66,17,21,4,4,0.6,0.5
2025-11-13T1400,1157A,118.6414,32.0931,南京市,浦口,颗粒物(PM10),63,75,57,38,32,134,,81,81,16,30,11,9,0.5,0.4
2025-11-13T1400,1158A,118.7356,31.9996,南京市,奥体中心,,,72,57,41,27,156,,72,72,25,42,10,8,,0.6
2025-11-13T1400,1159A,118.9125,32.1028,南京市,仙林大学城,颗粒物(PM10),62,73,57,31,26,120,,63,63,15,42,9,6,0.5,0.5
2025-11-13T1400,3422A,118.8436,31.9198,南京市,江宁彩虹桥,颗粒物(PM10),58,65,45,29,22,146,,84,84,13,40,7,5,0.5,0.5
2025-11-13T1400,3427A,118.8554,32.3578,南京市,六合雄州,颗粒物(PM10),60,70,65,37,34,133,,72,72,23,32,10,6,0.5,0.4
2025-11-13T1400,4249A,118.8708,31.3402,南京市,汶溪路181号,,39,37,36,16,21,123,,79,79,17,30,6,6,0.4,0.4
2025-11-13T1400,4312A,119.019,31.6512,南京市,中山西路1号,,37,31,43,23,22,118,,67,67,10,25,4,4,0.5,0.5
2025-11-13T1400,1401A,108.3103,22.7881,南宁市,二十一中,颗粒物(PM10),52,54,30,12,10,102,,71,71,9,12,5,6,0.5,0.6
2025-11-13T1400,1402A,108.3141,22.8528,南宁市,北湖,,45,45,34,14,16,107,,73,73,8,18,9,10,0.4,0.5
2025-11-13T1400,1403A,108.3206,22.8225,南宁市,市监测站,颗粒物(PM10),52,54,35,16,14,93,,63,63,12,18,9,9,0.3,0.4
2025-11-13T1400,1404A,108.3829,22.8037,南宁市,大自然花园,,38,38,36,11,13,102,,71,71,8,12,7,8,0.3,0.4
2025-11-13T1400,1405A,108.4394,22.7904,南宁市,仙葫,,,,,,,,,,,,,,,,
2025-11-13T1400,1406A,108.2397,22.8467,南宁市,区农职院,,37,37,33,16,14,93,,70,70,7,11,5,5,0.5,0.5
2025-11-13T1400,1407A,108.3275,22.735,南宁市,英华嘉园,,47,47,36,19,19,101,,68,68,11,15,4,4,0.4,0.4
2025-11-13T1400,3401A,108.4834,22.7618,南宁市,红星社区,,,,29,,17,105,,68,68,5,12,4,6,,0.3
2025-11-13T1400,4221A,108.2177,22.7774,南宁市,乐贤路16号,,29,28,39,16,15,92,,57,57,6,18,7,9,0.3,0.4
2025-11-13T1400,2331A,118.0966,26.6761,南平市,茫荡山,,,,9,,,,,78,,,,,1,,0.3
2025-11-13T1400,2332A,118.1681,26.6369,南平市,南平市监测站,,14,9,5,8,3,42,,40,35,8,8,3,3,0.5,0.5
2025-11-13T1400,2333A,118.1825,26.6489,南平市,南平铝业有限公司,,13,13,5,3,3,41,,42,36,8,8,2,2,0.5,0.4
2025-11-13T1400,2334A,118.1756,26.6272,南平市,南平七中,,15,15,11,8,6,41,,33,33,6,8,3,5,0.4,0.5
2025-11-13T1400,1168A,120.9098,31.9663,南通市,狼山街道,,33,27,34,3,11,103,,77,77,10,18,4,3,0.5,0.5
2025-11-13T1400,1169A,120.86,32.0005,南通市,虹桥,,35,16,26,10,13,111,,81,81,10,18,4,4,0.5,0.5
2025-11-13T1400,1170A,120.87,32.02,南通市,城中,,32,25,39,8,14,102,,74,74,14,25,4,5,0.3,0.3
2025-11-13T1400,1171A,120.94,31.93,南通市,星湖花园,,31,19,35,9,14,97,,74,74,11,18,3,4,0.2,0.3
2025-11-13T1400,1172A,120.81,32.0417,南通市,紫琅学院,,,27,42,13,17,100,,64,64,,28,4,7,0.5,0.6
2025-11-13T1400,3291A,121.067,32.062,南通市,通州监测站,,35,12,23,3,13,109,,82,82,20,18,2,2,0.3,0.4
2025-11-13T1400,3432A,120.9348,31.9883,南通市,环境教育馆,,,17,33,7,16,106,,76,76,9,21,4,4,,0.4
2025-11-13T1400,2404A,112.5224,33.0122,南阳市,瓦房庄,细颗粒物(PM2.5),93,118,104,69,56,129,,63,63,14,33,10,9,0.6,0.8
2025-11-13T1400,2405A,112.5003,32.9735,南阳市,汉画馆,细颗粒物(PM2.5),92,109,98,68,53,123,,51,51,15,41,9,7,0.7,0.8
2025-11-13T1400,2406A,112.5573,33.027,南阳市,气象站,颗粒物(PM10),96,142,124,70,50,131,,59,59,16,41,10,8,0.6,0.6
2025-11-13T1400,2407A,112.5481,32.9689,南阳市,理工学院,颗粒物(PM10),88,126,110,42,46,131,,57,57,15,40,10,8,0.7,0.7
2025-11-13T1400,4008A,112.5234,32.9922,南阳市,卧龙区政府,细颗粒物(PM2.5),108,143,108,81,58,121,,53,53,16,41,10,8,0.7,0.7
2025-11-13T1400,1234A,121.8358,29.911,宁波市,区环保大楼,,31,27,21,13,11,98,,66,66,13,39,6,6,0.5,0.5
2025-11-13T1400,1235A,121.56,29.82,宁波市,万里学院,,30,18,20,8,14,96,,69,69,11,22,7,7,0.5,0.7
2025-11-13T1400,1236A,121.713,29.9572,宁波市,龙赛医院,,29,26,26,10,10,91,,70,70,13,18,4,4,0.5,0.5
2025-11-13T1400,1239A,121.633,29.7733,宁波市,钱湖水厂,,30,19,19,8,9,96,,71,71,12,21,7,6,0.3,0.4
2025-11-13T1400,1240A,121.5856,29.8635,宁波市,太古小学,,30,18,20,9,11,96,,71,71,8,18,4,4,0.4,0.6
2025-11-13T1400,1241A,121.524,29.8674,宁波市,市环境监测中心,,29,25,23,12,7,90,,63,63,13,22,6,9,0.4,0.5
2025-11-13T1400,2871A,121.6147,29.9017,宁波市,万里国际学校,,31,26,19,6,11,98,,75,75,11,15,5,5,0.5,0.6
2025-11-13T1400,3710A,121.5594,29.8975,宁波市,白沙活动中心,,28,18,16,3,5,89,,68,68,10,17,5,5,0.3,0.4
2025-11-13T1400,2339A,119.5001,26.6946,宁德市,金涵水库,,,,7,,5,,,32,,,8,,2,,0.3
2025-11-13T1400,2341A,119.5388,26.6612,宁德市,宁德市监测站,,22,11,9,3,4,68,,49,49,7,17,7,6,0.2,0.4
2025-11-13T1400,3209A,119.5231,26.6562,宁德市,宁德一中,,22,,7,10,7,70,,55,55,5,8,6,6,0.3,0.3
2025-11-13T1400,2618A,98.8601,25.8567,怒江傈僳族自治州,州监测站,,23,20,27,12,18,72,,35,35,4,11,5,6,0.3,0.3
2025-11-13T1400,2619A,98.8546,25.8417,怒江傈僳族自治州,泸水一中,,35,30,22,24,15,63,,26,26,7,19,6,6,0.3,0.6
2025-11-13T1400,1888A,101.6891,26.571,攀枝花市,弄弄坪,,23,14,34,10,17,72,,32,32,18,25,3,3,0.6,0.9
2025-11-13T1400,1889A,101.5769,26.5928,攀枝花市,河门口,,22,21,32,14,22,70,,30,30,8,17,13,19,0.8,1.2
2025-11-13T1400,1890A,101.7169,26.585,攀枝花市,炳草岗,,22,18,52,7,25,69,,28,28,8,34,8,20,0.6,1
2025-11-13T1400,1891A,101.7369,26.5008,攀枝花市,仁和,,22,10,26,6,15,68,,30,30,4,14,6,7,0.4,0.6
2025-11-13T1400,2835A,101.7227,26.567,攀枝花市,四十中小,,46,46,52,23,27,68,,32,32,6,34,11,63,0.6,1.2
2025-11-13T1400,1604A,122.0303,41.1489,盘锦市,开发区,,23,17,58,3,39,71,,44,44,12,26,5,6,0,0.3
2025-11-13T1400,1605A,122.0485,41.0883,盘锦市,兴隆台,,,,54,17,49,58,,37,,,32,14,9,0.6,0.6
2025-11-13T1400,1606A,121.8297,41.1028,盘锦市,新生街道,,22,22,39,6,30,70,,45,45,18,40,13,10,0.1,0.4
2025-11-13T1400,1832A,113.3257,33.742,平顶山市,新华旅馆,细颗粒物(PM2.5),125,154,108,95,57,123,,68,68,22,30,11,10,0.8,0.7
2025-11-13T1400,1833A,113.2919,33.737,平顶山市,规划设计院,细颗粒物(PM2.5),127,173,113,96,58,121,,64,64,22,32,9,9,0.5,0.6
2025-11-13T1400,1834A,113.182,33.774,平顶山市,平顶山工学院,细颗粒物(PM2.5),117,153,88,88,47,125,,66,66,24,27,10,10,0.5,0.4
2025-11-13T1400,3204A,113.3025,33.73,平顶山市,规划局,细颗粒物(PM2.5),115,163,112,87,55,127,,71,71,22,30,11,10,0.7,0.7
2025-11-13T1400,3594A,112.8867,33.9116,平顶山市,石龙区,颗粒物(PM10),85,119,94,56,38,124,,86,86,24,28,14,9,0.5,0.4
2025-11-13T1400,2656A,106.6692,35.5461,平凉市,聚贤嘉苑,颗粒物(PM10),52,54,58,24,22,83,,40,40,14,29,8,7,0.5,0.5
2025-11-13T1400,2657A,106.7021,35.5307,平凉市,博物馆,颗粒物(PM10),53,55,56,25,25,80,,40,40,15,26,10,16,0.3,0.7
2025-11-13T1400,2347A,114.0997,27.5002,萍乡市,武功山,,,,,,,,,,,,,,,,
2025-11-13T1400,2348A,113.8385,27.6434,萍乡市,中医院,颗粒物(PM10),54,57,57,26,31,86,,53,53,22,22,10,8,1.0,0.9
2025-11-13T1400,2349A,113.8493,27.6253,萍乡市,市政府车库,,47,47,51,31,28,88,,53,53,20,23,11,8,0.8,0.7
2025-11-13T1400,2350A,113.8676,27.6435,萍乡市,市环保局,颗粒物(PM10),56,62,49,34,29,82,,54,54,22,20,9,7,0.8,0.7
2025-11-13T1400,2351A,113.866,27.6198,萍乡市,安源区政府,细颗粒物(PM2.5),55,47,45,39,36,88,,55,55,18,19,15,13,0.8,0.7
2025-11-13T1400,2319A,119.0141,25.4325,莆田市,荔城区仓后路,,22,16,7,3,0,68,,65,62,6,5,3,4,0.4,0.3
2025-11-13T1400,2320A,119.0015,25.4553,莆田市,莆田市监测站,,24,8,4,3,0,76,,68,68,4,4,3,3,0.3,0.3
2025-11-13T1400,2321A,119.1119,25.4561,莆田市,涵江区六中,,25,,6,3,0,77,,68,68,5,4,2,2,0.5,0.4
2025-11-13T1400,2322A,119.1013,25.3215,莆田市,秀屿区政府,,25,14,7,3,1,80,,65,65,5,6,3,3,0.4,0.4
2025-11-13T1400,2323A,118.981,25.4792,莆田市,东圳水库,,,,2,,1,,,80,,,2,,3,,0.6
2025-11-13T1400,2392A,115.0312,35.7636,濮阳市,环保局,颗粒物(PM10),55,60,85,30,63,69,,41,41,33,55,10,10,0.4,0.7
2025-11-13T1400,2394A,115.0574,35.7609,濮阳市,油田运输公司,颗粒物(PM10),52,54,109,29,66,76,,44,44,20,45,11,11,0.5,0.8
2025-11-13T1400,3021A,115,35.7668,濮阳市,濮水河管理处,,50,50,112,31,75,73,,35,35,21,39,8,7,0.3,0.4
2025-11-13T1400,4216A,115.0924,35.7686,濮阳市,任丘路479号,,49,49,112,22,70,78,,38,38,17,53,10,10,0.6,0.7
2025-11-13T1400,2601A,100.98,22.7633,普洱市,市环保局,,21,21,26,9,14,60,,26,26,4,7,5,5,0.3,0.4
2025-11-13T1400,2602A,100.9817,22.8322,普洱市,普洱第二中学,,19,18,24,11,14,60,,26,26,3,11,5,5,0.2,0.3
2025-11-13T1400,2262A,131.0518,45.8751,七台河市,新一中,,,,,,,,,,,,,,,,
2025-11-13T1400,3345A,131.0577,45.7879,七台河市,中波台,,,,55,,29,60,,59,59,6,12,6,8,0.5,0.5
2025-11-13T1400,3637A,131.0176,45.7761,七台河市,人民广场,颗粒物(PM10),84,117,65,28,35,61,,58,58,7,14,6,8,0.4,0.5
2025-11-13T1400,3684A,130.8781,45.8222,七台河市,新建矿广场,颗粒物(PM10),144,237,68,22,32,58,,57,57,5,10,6,6,0.3,0.4
2025-11-13T1400,1779A,123.9305,47.3636,齐齐哈尔市,安居小区,细颗粒物(PM2.5),65,59,27,47,13,70,,60,60,7,7,5,5,0.5,0.4
2025-11-13T1400,1780A,123.9488,47.3386,齐齐哈尔市,中心广场,,,15,18,3,5,63,,61,,,10,,5,0.4,0.3
2025-11-13T1400,1781A,123.9483,47.3227,齐齐哈尔市,农牧车辆厂,,,31,34,3,8,60,,56,54,,8,8,9,0.4,0.4
2025-11-13T1400,1783A,123.945,47.2988,齐齐哈尔市,市环境监测站,,20,17,28,3,8,61,,55,55,5,8,5,6,0.3,0.3
2025-11-13T1400,3662A,123.6333,47.2075,齐齐哈尔市,富区青少年活动中心,,24,24,27,3,8,59,,56,55,11,13,4,6,0.3,0.4
2025-11-13T1400,2591A,107.9783,26.5747,黔东南苗族侗族自治州,市环境监测站,,27,17,29,8,17,85,,47,47,4,12,4,4,0.4,0.5
2025-11-13T1400,2881A,107.8908,26.5311,黔东南苗族侗族自治州,凯里学院,,31,31,28,14,15,89,,54,54,8,11,4,4,0.3,0.3
2025-11-13T1400,2593A,107.5228,26.2403,黔南布依族苗族自治州,小围寨,,,22,28,7,14,75,,38,38,3,8,6,6,,0.6
2025-11-13T1400,3538A,107.5175,26.2978,黔南布依族苗族自治州,沙坝,,25,17,29,9,19,80,,41,41,6,12,5,5,0.5,0.6
2025-11-13T1400,2589A,104.9022,25.0925,黔西南布依族苗族自治州,场坝街,,20,19,33,7,28,64,,37,37,11,13,6,5,0.5,0.6
2025-11-13T1400,2590A,104.8811,25.0992,黔西南布依族苗族自治州,坪东大道,,24,24,28,7,24,58,,32,32,10,11,2,2,0.4,0.6
2025-11-13T1400,2502A,108.6236,21.9667,钦州市,市环保站,,39,31,41,27,18,99,,76,76,7,12,4,5,0.5,0.9
2025-11-13T1400,2503A,108.6549,21.9481,钦州市,沙埠小学,颗粒物(PM10),53,55,43,10,12,105,,80,80,6,10,4,5,0.4,0.7
2025-11-13T1400,2504A,108.5989,21.7431,钦州市,港区一小,,42,42,48,20,19,97,,71,71,14,22,6,7,0.3,0.6
2025-11-13T1400,3404A,108.5959,21.9633,钦州市,北职校,,36,36,40,14,19,100,,74,74,5,9,6,7,0.4,0.6
2025-11-13T1400,1043A,119.7493,40.0116,秦皇岛市,第一关,,25,21,79,8,52,78,,42,42,10,55,6,8,0.1,0.6
2025-11-13T1400,1044A,119.5897,39.9499,秦皇岛市,监测站,,33,33,93,7,48,74,,44,44,19,52,7,10,0.4,0.9
2025-11-13T1400,1046A,119.5251,39.9041,秦皇岛市,建设大厦,,23,,81,16,48,69,,42,42,13,47,5,7,0.2,0.6
2025-11-13T1400,3132A,119.610547,39.943889,秦皇岛市,文明里,,23,23,82,3,47,67,,40,40,16,48,9,11,0.2,0.6
2025-11-13T1400,4198A,119.5090,39.8253,秦皇岛市,北戴河轮滑馆,,20,20,87,3,55,61,,50,43,18,33,4,6,0.2,0.7
2025-11-13T1400,1307A,120.6659,36.2403,青岛市,仰口,,,,,,,,,,,,,,,,
2025-11-13T1400,1310A,120.4134,36.0658,青岛市,市南区东部子站,细颗粒物(PM2.5),98,144,115,73,52,92,,48,48,46,37,13,12,0.9,0.7
2025-11-13T1400,1311A,120.3664,36.1032,青岛市,四方区子站,颗粒物(PM10),101,151,133,63,66,90,,49,49,32,42,11,9,0.6,0.8
2025-11-13T1400,1312A,120.2994,36.054,青岛市,市南区西部子站,颗粒物(PM10),92,134,72,59,32,94,,,,40,28,11,11,0.8,0.7
2025-11-13T1400,1313A,120.4581,36.0858,青岛市,崂山区子站,颗粒物(PM10),70,90,107,29,46,105,,62,62,18,34,10,12,0.6,0.8
2025-11-13T1400,1315A,120.3999,36.3083,青岛市,城阳区子站,颗粒物(PM10),56,61,99,17,41,97,,56,56,10,47,5,8,0.4,0.9
2025-11-13T1400,3362A,120.5014,36.4034,青岛市,即墨2号,颗粒物(PM10),60,70,101,17,49,86,,58,58,13,47,5,9,0.4,0.8
2025-11-13T1400,3642A,120.3503,36.0736,青岛市,市北区南部,颗粒物(PM10),105,160,105,51,50,85,,43,43,38,43,8,10,0.7,0.8
2025-11-13T1400,3643A,120.3948,36.1805,青岛市,李沧区北部,颗粒物(PM10),63,75,110,27,61,96,,57,57,17,44,8,10,0.4,0.9
2025-11-13T1400,4290A,120.1969,35.9546,青岛市,珠江路669号,颗粒物(PM10),84,117,101,44,55,77,,40,38,45,35,13,15,0.6,0.7
2025-11-13T1400,4291A,120.0424,35.8656,青岛市,黄岛区人民政府广场,颗粒物(PM10),86,122,105,53,53,111,,65,65,38,48,10,10,1.0,1.1
2025-11-13T1400,1702A,113.0426,23.691,清远市,环保大楼,,,,,,,,,,,,,,,,
2025-11-13T1400,1703A,113.0208,23.7106,清远市,凤城街办,,23,8,16,6,11,72,,71,68,12,14,6,6,0.6,0.6
2025-11-13T1400,3025A,113.0477,23.6344,清远市,技师学院,,25,14,18,7,9,79,,66,64,13,14,5,4,0.6,0.6
2025-11-13T1400,3318A,112.9903,23.7403,清远市,清新太和,,26,7,19,3,11,83,,81,78,8,9,9,10,0.2,0.3
2025-11-13T1400,3455A,113.076,23.7198,清远市,清城东城,,24,9,14,3,10,76,,69,68,12,13,6,6,0.6,0.5
2025-11-13T1400,2661A,107.6325,35.7357,庆阳市,庆阳五中,颗粒物(PM10),59,68,61,26,23,78,,54,48,20,20,6,5,0.4,0.4
2025-11-13T1400,2662A,107.6364,35.7067,庆阳市,市环保局,,45,,54,31,18,91,,60,60,16,18,4,5,0.3,0.7
2025-11-13T1400,1916A,103.7897,25.5035,曲靖市,环境监测站,,24,24,26,14,15,64,,44,44,9,10,5,4,0.5,0.6
2025-11-13T1400,1917A,103.8,25.5364,曲靖市,烟厂办公区,,,27,22,14,15,61,,42,42,9,10,,4,0.3,0.3
2025-11-13T1400,3376A,103.7947,25.462,曲靖市,南苑二区,,24,24,25,10,16,65,,47,46,7,8,3,4,0.5,0.5
2025-11-13T1400,3377A,103.7444,25.5261,曲靖市,曲靖师范学院,,30,,26,21,19,61,,47,47,8,10,2,3,0.4,0.4
2025-11-13T1400,1264A,118.8692,28.9398,衢州市,环保大楼,,35,35,44,17,23,66,,40,40,16,26,5,6,0.5,0.5
2025-11-13T1400,1265A,118.8709,28.9666,衢州市,实验学校,,34,34,39,21,24,67,,39,39,18,25,5,9,0.4,0.5
2025-11-13T1400,1266A,118.8621,28.9808,衢州市,衢州学院,,36,36,42,17,22,71,,42,42,13,22,7,6,0.4,0.4
2025-11-13T1400,1611A,118.5819,24.9117,泉州市,涂山街,,25,9,9,3,3,80,,63,63,4,6,3,3,0.3,0.3
2025-11-13T1400,1612A,118.5972,24.8978,泉州市,津头埔,,25,6,8,3,3,79,,60,60,3,6,2,2,0.2,0.3
2025-11-13T1400,1613A,118.6663,24.9424,泉州市,万安,,25,7,8,3,2,77,,62,62,5,8,2,2,0.3,0.2
2025-11-13T1400,1614A,118.6117,24.9604,泉州市,清源山,,,,3,,2,,,65,,,2,,3,,0.4
2025-11-13T1400,3529A,118.6333,24.9264,泉州市,城华南路,,25,6,4,3,2,79,,67,67,1,2,2,3,0.3,0.3
2025-11-13T1400,2626A,88.8876,29.2718,日喀则市,日喀则监测站,,32,9,18,3,7,100,,53,53,3,19,9,9,0.3,0.4
2025-11-13T1400,3726A,88.8781,29.2426,日喀则市,林业技术推广中心,,32,6,14,3,4,100,,66,56,3,6,6,6,0.3,0.3
2025-11-13T1400,1659A,119.471,35.4209,日照市,监测站,细颗粒物(PM2.5),84,112,91,62,51,108,,57,57,31,53,11,11,0.8,0.9
2025-11-13T1400,1660A,119.523,35.4216,日照市,市政府广场,颗粒物(PM10),75,100,100,49,49,109,,63,63,21,42,13,15,1.0,1.1
2025-11-13T1400,1661A,119.5587,35.4044,日照市,港务局,细颗粒物(PM2.5),130,144,107,99,68,117,,72,72,33,46,16,14,1.3,1.1
2025-11-13T1400,3507A,119.5328,35.4625,日照市,职业技术学院,颗粒物(PM10),85,119,104,58,49,111,,69,69,29,45,10,10,1.0,1
2025-11-13T1400,3604A,119.3266,35.1044,日照市,岚山环保分局,细颗粒物(PM2.5),108,161,106,81,57,101,,58,58,45,46,35,27,1.7,1.7
2025-11-13T1400,1835A,111.1922,34.7752,三门峡市,市政府,,47,47,91,21,62,87,,30,30,15,53,12,12,0.5,0.8
2025-11-13T1400,1836A,111.1587,34.7942,三门峡市,开发区,颗粒物(PM10),52,53,121,23,65,81,,33,33,16,49,16,12,0.4,0.6
2025-11-13T1400,1838A,111.143,34.7955,三门峡市,风景区,颗粒物(PM10),53,56,90,28,53,85,,33,33,15,42,16,11,0.6,0.8
2025-11-13T1400,3039A,111.1911,34.7829,三门峡市,三门峡市第一小学,颗粒物(PM10),53,56,101,18,58,92,,34,34,14,50,14,15,0.4,0.6
2025-11-13T1400,3598A,111.1,34.7167,三门峡市,富达温泉假日酒店,颗粒物(PM10),52,53,109,27,65,77,,30,30,27,38,17,16,0.6,0.8
2025-11-13T1400,2324A,117.6211,26.2625,三明市,三钢,,19,12,14,8,6,58,,48,48,8,10,1,1,0.6,0.6
2025-11-13T1400,2325A,117.635,26.2714,三明市,三明二中,,17,16,7,11,5,54,,41,41,5,10,6,5,0.5,0.6
2025-11-13T1400,2326A,117.6028,26.2378,三明市,三元区政府,,19,7,5,6,4,60,,50,50,7,9,2,2,0.6,0.9
2025-11-13T1400,2327A,117.7275,26.3108,三明市,洋溪,,,,5,,2,,,52,,,5,,10,,1.1
2025-11-13T1400,1876A,109.5078,18.2489,三亚市,河东子站,,29,18,23,11,11,92,,59,59,11,12,4,4,0.6,0.7
2025-11-13T1400,1877A,109.4964,18.2681,三亚市,河西子站,,32,25,26,12,12,101,,66,66,7,12,7,6,0.6,0.7
2025-11-13T1400,3540A,109.7348,18.3443,三亚市,君悦子站,,38,38,30,14,13,96,,75,75,6,8,5,5,0.6,0.7
2025-11-13T1400,2624A,91.7608,29.2313,山南市,山南监测站,,28,16,17,7,8,87,,43,43,6,18,5,5,0.2,0.3
2025-11-13T1400,2625A,91.7706,29.2436,山南市,山南人民医院,,27,8,17,3,8,84,,47,47,6,15,6,6,0.3,0.4
2025-11-13T1400,1674A,116.6794,23.3667,汕头市,金平子站,,26,26,18,11,7,63,,44,44,15,18,8,6,0.7,0.9
2025-11-13T1400,1675A,116.7244,23.3633,汕头市,龙湖子站,,32,32,17,10,8,66,,47,47,13,14,11,10,0.4,0.4
2025-11-13T1400,1676A,116.7258,23.2775,汕头市,濠江子站,,27,27,13,8,7,74,,43,43,9,12,8,7,0.7,0.8
2025-11-13T1400,1677A,116.7519,23.4714,汕头市,澄海子站,,,,14,,8,,,37,,,12,,6,,0.6
2025-11-13T1400,1678A,116.6092,23.2539,汕头市,潮阳子站,,27,22,14,13,7,84,,53,53,10,11,6,5,0.6,0.6
2025-11-13T1400,3444A,116.454,23.2684,汕头市,潮南峡山,,25,14,13,7,8,78,,51,51,6,8,8,8,0.6,0.6
2025-11-13T1400,3624A,116.4069,23.2533,汕头市,潮南子站,,20,16,19,6,9,64,,44,44,9,12,5,5,0.5,0.6
2025-11-13T1400,1693A,115.3653,22.775,汕尾市,市环保局,,19,11,10,3,6,60,,52,52,4,6,5,6,0.5,0.5
2025-11-13T1400,1694A,115.3706,22.7898,汕尾市,市政府,,20,13,8,8,5,63,,54,54,6,7,7,8,0.3,0.4
2025-11-13T1400,1695A,115.3622,22.7925,汕尾市,新城中学,,,33,9,3,4,59,,54,54,,4,7,7,,0.5
2025-11-13T1400,2645A,109.9154,33.8715,商洛市,监测站,,42,42,69,20,35,105,,59,59,12,22,4,4,0.4,0.5
2025-11-13T1400,3045A,109.9643,33.8471,商洛市,商州区中学,颗粒物(PM10),59,67,70,20,30,106,,50,50,11,33,6,5,0.4,0.5
2025-11-13T1400,2408A,115.6702,34.4285,商丘市,环境监测站,细颗粒物(PM2.5),135,135,83,103,61,126,,51,51,24,44,8,3,0.5,0.4
2025-11-13T1400,2409A,115.6458,34.4045,商丘市,粮食局,细颗粒物(PM2.5),99,121,74,74,53,122,,57,57,21,37,7,4,0.5,0.5
2025-11-13T1400,2410A,115.6293,34.3948,商丘市,睢阳区环保局,细颗粒物(PM2.5),113,116,84,85,58,131,,62,62,18,41,7,4,0.4,0.4
2025-11-13T1400,3171A,115.6071,34.4465,商丘市,梁园区档案局,细颗粒物(PM2.5),140,134,79,107,64,125,,52,52,27,52,10,5,0.6,0.5
2025-11-13T1400,1141A,121.4,31.238,上海市,普陀,,30,18,31,8,13,96,,75,75,13,25,5,6,0.5,0.6
2025-11-13T1400,1142A,121.478,31.2036,上海市,十五厂,,31,23,32,10,12,99,,78,78,10,19,8,8,0.4,0.5
2025-11-13T1400,1143A,121.467,31.3008,上海市,虹口,,29,18,30,11,12,90,,73,73,8,15,9,9,0.2,0.4
2025-11-13T1400,1147A,121.425,31.2261,上海市,静安监测站,,30,20,31,10,12,95,,78,78,12,19,5,5,0.1,0.2
2025-11-13T1400,1148A,121.703,31.1907,上海市,浦东川沙,,29,20,30,3,9,92,,70,70,9,21,10,10,0.4,0.5
2025-11-13T1400,1149A,121.533,31.2284,上海市,浦东新区监测站,,29,18,29,12,14,92,,73,73,13,24,6,7,0.5,0.6
2025-11-13T1400,1150A,121.577,31.2071,上海市,浦东张江,,33,19,29,10,9,105,,82,82,8,18,6,6,0.3,0.3
2025-11-13T1400,3265A,121.4316,31.3322,上海市,宝山庙行,,30,16,29,9,11,94,,74,74,10,22,9,10,0.5,0.5
2025-11-13T1400,3266A,121.8791,31.4662,上海市,崇明上实东滩,,33,23,23,13,10,104,,84,84,8,10,4,4,0.3,0.4
2025-11-13T1400,3268A,121.3162,31.2838,上海市,嘉定南翔,,31,24,31,15,16,98,,65,65,13,28,8,8,0.4,0.5
2025-11-13T1400,3269A,121.3359,30.7456,上海市,金山新城,,31,31,35,16,15,94,,61,61,16,26,5,6,0.3,0.5
2025-11-13T1400,3270A,121.4996,31.0739,上海市,闵行浦江,,39,31,33,10,11,124,,81,81,8,17,6,5,0.5,0.6
2025-11-13T1400,3271A,121.2886,31.1663,上海市,青浦徐泾,,33,24,36,17,16,104,,75,75,15,26,10,10,0.7,0.8
2025-11-13T1400,3272A,121.2186,31.0378,上海市,松江图书馆,,34,34,32,23,15,85,,58,58,39,36,8,6,0.6,0.5
2025-11-13T1400,3273A,121.3902,31.2059,上海市,长宁仙霞,,30,18,32,13,12,94,,73,73,9,19,6,7,0.4,0.5
