timepoint,stationcode,longitude,latitude,area,positionname,primarypollutant,aqi,pm10,pm10_24h,pm2_5,pm2_5_24h,o3,o3_24h,o3_8h,o3_8h_24h,no2,no2_24h,so2,so2_24h,co,co_24h
2025-08-19T2300,2566A,102.1879,31.914,阿坝藏族羌族自治州,州农科所,,15,14,14,6,8,48,,75,63,6,6,15,15,0,0
2025-08-19T2300,2568A,102.2502,31.8896,阿坝藏族羌族自治州,马师校,,33,,12,23,15,40,,67,48,8,7,7,7,0.6,0.5
2025-08-19T2300,3994A,102.2165,31.9024,阿坝藏族羌族自治州,马尔康中学西区,,26,,11,18,11,48,,79,63,4,4,8,8,0.5,0.5
2025-08-19T2300,2695A,80.292,41.1694,阿克苏地区,电视台,颗粒物(PM10),57,63,30,24,18,71,,109,102,17,9,6,6,0.7,0.6
2025-08-19T2300,2696A,80.2613,41.1551,阿克苏地区,艺术中心,颗粒物(PM10),72,94,34,31,20,42,,118,106,47,12,4,4,0.9,0.6
2025-08-19T2300,2204A,105.6467,38.8363,阿拉善盟,西城区西花园,,36,23,57,18,20,114,,133,131,9,11,5,7,0.7,0.7
2025-08-19T2300,2205A,105.6985,38.8411,阿拉善盟,蒙二幼,,30,23,63,15,18,95,,120,117,5,5,10,11,0.6,0.6
2025-08-19T2300,2206A,105.724,38.8516,阿拉善盟,环保局新楼,,34,25,40,14,18,108,,122,121,4,6,9,9,0.6,0.6
2025-08-19T2300,2708A,88.1264,47.8517,阿勒泰地区,市站,,32,32,20,10,4,62,,81,71,16,14,3,3,0.6,0.6
2025-08-19T2300,2630A,80.1161,32.5,阿里地区,阿里监测站,,32,6,5,3,2,101,,98,98,5,3,2,6,0.1,0.1
2025-08-19T2300,3192A,80.0903,32.5028,阿里地区,阿里藏医院,,35,8,7,3,2,111,,104,104,1,2,5,5,0.1,0.1
2025-08-19T2300,2642A,109.0318,32.6537,安康市,香溪洞,,,38,31,19,20,52,,87,78,14,8,7,6,,0.1
2025-08-19T2300,2644A,109.0072,32.6975,安康市,汉滨区检察院,,31,31,25,12,9,31,,86,62,13,8,4,5,0.4,0.4
2025-08-19T2300,4054A,109.0325,32.6913,安康市,市邮政管理局,,,37,22,17,11,34,,88,68,12,8,7,6,,0.6
2025-08-19T2300,2291A,117.0809,30.5177,安庆市,环科院,,25,25,23,8,13,31,,91,56,26,20,4,5,0.4,0.5
2025-08-19T2300,2292A,117.0331,30.5119,安庆市,马山宾馆,,21,20,25,7,15,13,,86,47,42,20,4,5,0.3,0.4
2025-08-19T2300,2294A,116.9896,30.6145,安庆市,安庆大学,,19,19,26,9,15,26,,105,69,33,20,5,4,0.4,0.4
2025-08-19T2300,3173A,117.0598,30.5351,安庆市,市人大,,19,19,23,11,14,42,,94,67,20,14,4,5,0.4,0.5
2025-08-19T2300,3122A,105.9606,26.2611,安顺市,伍家关,,,,,5,8,50,,49,49,5,5,6,7,0.5,0.5
2025-08-19T2300,3123A,105.9408,26.2431,安顺市,凤凰山,,15,9,13,9,8,45,,46,45,5,5,8,9,0.3,0.3
2025-08-19T2300,3124A,105.9439,26.2564,安顺市,金钟山,,16,8,11,7,8,50,,50,49,3,3,6,8,0.4,0.4
2025-08-19T2300,3125A,105.8983,26.2481,安顺市,娄家坡,,15,6,10,3,7,48,,46,44,4,5,7,10,0.4,0.4
2025-08-19T2300,1818A,114.4839,36.0621,安阳市,棉研所,,,,,,,,,,,,,,,,
2025-08-19T2300,1819A,114.3551,36.1017,安阳市,红庙街,颗粒物(PM10),52,53,47,19,18,101,,153,135,11,11,6,7,0.6,0.5
2025-08-19T2300,1820A,114.361,36.0681,安阳市,银杏小区,,49,49,45,25,22,105,,161,141,13,14,5,6,0.5,0.5
2025-08-19T2300,3141A,114.3922,36.0878,安阳市,信访局,,44,44,46,24,20,116,,171,151,7,10,5,6,0.7,0.7
2025-08-19T2300,3669A,114.4705,36.0637,安阳市,左辅环卫站,,34,34,41,14,13,98,,150,135,13,12,7,8,0.4,0.8
2025-08-19T2300,3703A,114.2917,36.0949,安阳市,安钢职工学校,,48,48,51,26,22,101,,158,136,7,7,4,5,0.7,0.6
2025-08-19T2300,1748A,123.044,41.1196,鞍山市,深沟寺,,21,21,29,9,18,59,,114,79,5,11,6,9,0.7,1.1
2025-08-19T2300,1749A,123.011,41.0931,鞍山市,太阳城,,20,14,32,7,18,62,,110,85,6,12,6,9,0.7,1.2
2025-08-19T2300,1750A,123.0485,41.1442,鞍山市,太平,,20,20,37,7,21,63,,116,86,7,13,5,10,0.7,1.2
2025-08-19T2300,1751A,122.9642,41.0971,鞍山市,铁西三道街,,27,27,35,13,20,50,,110,86,20,17,6,8,1.3,1.3
2025-08-19T2300,1753A,123.022,41.0821,鞍山市,明达新区,,21,19,29,6,16,66,,102,81,6,11,7,9,0.7,1.1
2025-08-19T2300,1754A,123.1289,41.0228,鞍山市,千山,,,,,,,,,,,,,,,,
2025-08-19T2300,4201A,122.9446,41.0826,鞍山市,兴盛南路290号,,24,24,33,12,18,48,,108,81,19,19,8,8,1.0,1.2
2025-08-19T2300,2195A,107.4212,40.761,巴彦淖尔市,附二中,,36,,18,22,12,113,,124,118,8,5,8,8,0.8,0.6
2025-08-19T2300,2196A,107.37,40.7372,巴彦淖尔市,市环保大楼,,43,39,27,20,15,136,,125,123,8,6,8,7,0.8,0.4
2025-08-19T2300,1956A,86.1472,41.7538,巴音郭楞蒙古自治州,孔雀公园,颗粒物(PM10),72,94,47,35,19,83,,102,98,8,8,3,5,0.2,0.2
2025-08-19T2300,1957A,86.1972,41.7166,巴音郭楞蒙古自治州,棉纺厂,颗粒物(PM10),85,119,58,11,10,87,,105,102,2,3,3,4,0.2,0.2
2025-08-19T2300,1958A,86.2357,41.7173,巴音郭楞蒙古自治州,经济开发区,颗粒物(PM10),74,97,41,24,10,94,,102,101,4,5,3,4,0.3,0.3
2025-08-19T2300,2914A,106.7677,31.8794,巴中市,苏山坪,,29,28,20,20,14,67,,92,79,10,8,4,4,0.6,0.5
2025-08-19T2300,3181A,106.7768,31.8526,巴中市,市五中,,40,40,29,26,16,28,,94,68,23,14,7,6,0.6,0.5
2025-08-19T2300,3183A,106.7418,31.8654,巴中市,圣泉水务公司,,32,28,24,22,18,26,,94,55,24,12,5,5,0.7,0.6
2025-08-19T2300,3616A,106.7616,31.8344,巴中市,市中心医院,,34,34,28,16,15,26,,91,62,24,16,5,6,0.5,0.4
2025-08-19T2300,2235A,122.7911,45.6077,白城市,洮北区环保局,,30,23,16,21,12,18,,72,46,32,9,3,5,0.4,0.3
2025-08-19T2300,2236A,122.8738,45.5725,白城市,市环保局,,34,34,17,11,8,11,,80,48,34,10,3,4,0.5,0.5
2025-08-19T2300,2231A,126.4219,41.9171,白山市,喜丰,,17,17,28,6,10,37,,94,69,11,10,5,5,0.6,0.6
2025-08-19T2300,2232A,126.4077,41.9419,白山市,环保局,,20,15,24,3,11,61,,99,80,9,10,5,6,0.7,0.7
2025-08-19T2300,2647A,104.1724,36.5446,白银市,第三小学,,35,35,24,12,12,55,,112,91,27,13,12,17,1.0,0.6
2025-08-19T2300,2648A,104.1465,36.5482,白银市,动力公司,,36,36,21,14,10,67,,110,100,17,10,5,5,0.5,0.6
2025-08-19T2300,2512A,106.6103,23.9011,百色市,市监测站,,10,7,9,3,4,29,,33,31,5,7,4,4,0.4,0.4
2025-08-19T2300,2513A,106.6538,23.8859,百色市,市中心血站,,9,6,10,3,6,28,,32,30,12,14,2,3,0.6,0.5
2025-08-19T2300,3406A,106.6085,23.8798,百色市,祈福高中,,8,8,8,3,4,25,,34,32,13,10,4,4,0.5,0.5
2025-08-19T2300,2270A,117.396,32.939,蚌埠市,工人疗养院,,39,39,40,9,10,96,,131,116,4,5,4,4,0.3,0.3
2025-08-19T2300,2271A,117.3605,32.9427,蚌埠市,百货大楼,,31,31,25,10,12,96,,120,112,7,6,6,6,0.4,0.4
2025-08-19T2300,2273A,117.4185,32.8911,蚌埠市,蚌埠学院,,34,34,27,14,13,90,,132,106,7,6,7,7,0.4,0.4
2025-08-19T2300,2274A,117.3533,32.9673,蚌埠市,淮上区政府,,35,27,26,17,13,109,,135,126,6,6,6,6,0.5,0.5
2025-08-19T2300,2275A,117.3145,32.8977,蚌埠市,高新区,,29,29,30,12,13,88,,124,106,14,11,7,11,0.5,0.5
2025-08-19T2300,3715A,117.3092,32.9314,蚌埠市,蚌埠田家炳中学,,35,35,34,12,13,97,,130,114,10,9,8,11,0.3,0.3
2025-08-19T2300,1585A,109.8756,40.6532,包头市,市环境监测站,,34,34,14,17,10,16,,130,87,61,16,8,5,1.0,0.6
2025-08-19T2300,1587A,109.9991,40.5842,包头市,包头八中,,33,33,15,23,8,19,,116,91,62,15,6,8,0.6,0.5
2025-08-19T2300,1588A,109.8538,40.6821,包头市,青山宾馆,,36,32,13,25,9,8,,133,93,65,18,4,4,0.7,0.5
2025-08-19T2300,1589A,109.8642,40.6288,包头市,惠龙物流,,29,24,15,20,8,33,,126,100,45,9,6,5,0.8,0.5
2025-08-19T2300,1590A,110.0377,40.5546,包头市,东河鸿龙湾,,32,32,13,21,6,47,,124,101,34,8,4,4,0.6,0.4
2025-08-19T2300,3283A,109.9154,40.5685,包头市,滨河大厦,,23,,8,16,7,42,,125,99,41,11,5,4,0.6,0.4
2025-08-19T2300,3419A,109.9447,40.6261,包头市,包头市委党校,,30,22,12,21,11,19,,130,98,58,14,8,9,0.6,0.4
2025-08-19T2300,3683A,109.8331,40.6576,包头市,昆区政府,,43,34,14,30,9,34,,133,106,50,13,8,6,0.8,0.6
2025-08-19T2300,1930A,107.185,34.3063,宝鸡市,庙沟村,,22,7,13,7,7,69,,84,75,7,6,4,4,0.5,0.3
2025-08-19T2300,1931A,107.0708,34.3017,宝鸡市,竹园沟,,18,13,17,12,8,42,,79,67,14,6,7,7,0.3,0.2
2025-08-19T2300,1932A,107.1906,34.3672,宝鸡市,三陆医院,,15,10,23,6,10,40,,82,66,29,17,7,7,0.5,0.5
2025-08-19T2300,1933A,107.1431,34.3547,宝鸡市,监测站,,23,16,23,12,11,72,,76,73,5,9,8,8,0.2,0.2
2025-08-19T2300,1934A,107.1186,34.3739,宝鸡市,技工学校,,37,37,25,22,11,57,,80,73,9,9,6,6,0.4,0.4
2025-08-19T2300,1936A,107.2058,34.3497,宝鸡市,文理学院,,34,34,22,14,10,28,,86,64,35,14,7,9,0.4,0.3
2025-08-19T2300,1937A,107.2386,34.3622,宝鸡市,三迪小学,,26,,20,18,10,42,,82,65,25,13,4,4,0.4,0.3
2025-08-19T2300,4308A,107.3898,34.3601,宝鸡市,陈仓区北开路21号,,23,,11,11,9,72,,86,72,6,11,5,5,0.4,0.4
2025-08-19T2300,1051A,115.493,38.8632,保定市,游泳馆,,29,29,32,9,16,70,,87,80,21,11,8,7,0.0,0
2025-08-19T2300,1052A,115.5213,38.8959,保定市,华电二区,,26,,31,18,19,83,,101,96,8,12,3,3,0.5,0.5
2025-08-19T2300,1053A,115.4713,38.9108,保定市,接待中心,,28,28,32,7,11,74,,96,90,11,15,2,2,0,0
2025-08-19T2300,1054A,115.4612,38.8416,保定市,地表水厂,,26,16,34,3,12,82,,101,93,10,13,3,3,0.4,0.5
2025-08-19T2300,3581A,115.31981,38.95208,保定市,满城区生态环境分局,,28,9,33,3,15,88,,85,85,7,13,2,2,0,0.1
2025-08-19T2300,3582A,115.47694,38.76408,保定市,清苑区第二中学,,34,34,31,3,17,71,,110,98,5,8,4,3,0.3,0.4
2025-08-19T2300,3583A,115.62909,39.02311,保定市,徐水物探局,,34,34,30,3,7,62,,99,87,15,10,8,8,0.4,0.4
2025-08-19T2300,4004A,115.4202,38.8656,保定市,双鹰农机,,36,,28,25,21,92,,97,93,6,11,3,4,0.1,0.2
2025-08-19T2300,4034A,115.5150,38.8590,保定市,植保所站,,30,26,24,15,16,95,,106,103,4,9,3,2,0.1,0.1
2025-08-19T2300,2594A,99.1678,25.1081,保山市,市环境监测站,,25,18,18,17,15,36,,56,50,6,7,7,6,0.4,0.4
2025-08-19T2300,2595A,99.1711,25.1328,保山市,市环保局,,15,14,19,10,11,47,,58,54,2,5,6,7,0.3,0.4
2025-08-19T2300,1866A,109.2262,21.588,北海市,牛尾岭水库,,14,14,11,3,6,25,,46,38,6,4,7,19,0.4,0.7
2025-08-19T2300,1867A,109.1436,21.4086,北海市,海滩公园,,26,26,45,3,5,54,,61,57,4,4,3,3,0.5,0.5
2025-08-19T2300,1868A,109.0981,21.4661,北海市,新市环保局,,14,13,14,3,10,44,,51,47,8,6,3,3,0.3,0.3
2025-08-19T2300,1869A,109.1778,21.5233,北海市,北海工业园,,15,14,16,10,6,37,,59,50,9,5,3,3,0.5,0.5
2025-08-19T2300,3400A,109.1911,21.4415,北海市,龙潭自来水厂,,15,15,13,7,6,44,,58,51,5,4,3,7,0.5,0.4
2025-08-19T2300,1001A,116.3621,39.8784,北京市,万寿西宫,,19,10,22,7,14,58,,84,67,3,8,2,2,0.5,0.5
2025-08-19T2300,1002A,116.2202,40.2915,北京市,定陵,,12,7,14,3,10,38,,74,58,2,2,2,2,0.4,0.4
2025-08-19T2300,1003A,116.4174,39.9289,北京市,东四,,20,11,20,8,13,62,,95,78,16,18,2,2,0.7,0.6
2025-08-19T2300,1004A,116.4072,39.8863,北京市,天坛,,18,12,21,7,14,55,,81,66,8,11,2,3,0.6,0.6
2025-08-19T2300,1005A,116.462,39.9365,北京市,农展馆,,16,16,21,10,12,39,,82,64,15,18,2,3,0.7,0.6
2025-08-19T2300,1006A,116.3392,39.9295,北京市,官园,,18,12,20,8,16,57,,93,73,13,14,4,5,0.5,0.5
2025-08-19T2300,1007A,116.2878,39.9611,北京市,海淀万柳,,12,12,21,7,13,32,,83,59,18,18,3,3,0.5,0.4
2025-08-19T2300,1008A,116.6636,40.135,北京市,顺义新城,,,,,,,,,,,,,,,,
2025-08-19T2300,1009A,116.6275,40.3275,北京市,怀柔镇,,14,12,18,6,12,44,,82,62,13,12,3,3,0.5,0.6
2025-08-19T2300,1010A,116.2296,40.217,北京市,昌平镇,,12,6,17,3,11,38,,72,57,6,10,4,4,0.5,0.6
2025-08-19T2300,1011A,116.3966,39.9821,北京市,奥体中心,,16,12,19,8,12,50,,85,70,13,14,4,4,0.5,0.5
2025-08-19T2300,3281A,115.9718,40.4529,北京市,延庆夏都,,11,11,15,3,9,32,,71,53,5,6,3,3,0.5,0.5
2025-08-19T2300,3418A,116.8336,40.4095,北京市,密云新城,,20,8,21,3,14,64,,62,58,2,7,1,1,0.4,0.4
2025-08-19T2300,3671A,116.088,39.9726,北京市,门头沟三家店,,10,6,17,3,8,31,,74,58,19,15,2,3,0.6,0.6
2025-08-19T2300,3672A,116.1541,39.8204,北京市,丰台云岗,,12,12,23,3,13,35,,63,55,11,13,3,3,0.5,0.5
2025-08-19T2300,3673A,116.6804,39.9081,北京市,通州东关,,33,33,29,19,16,35,,80,59,26,22,4,4,0.6,0.6
2025-08-19T2300,3674A,115.9577,39.7603,北京市,房山燕山,,12,9,17,3,12,38,,75,62,12,9,2,3,0.4,0.5
2025-08-19T2300,3675A,116.4672,39.7733,北京市,大兴旧宫,,30,30,22,18,14,45,,77,67,18,15,2,2,0.7,0.6
2025-08-19T2300,3694A,115.986,40.4563,北京市,延庆石河营,,10,10,14,3,10,15,,61,35,5,6,1,2,0.4,0.5
2025-08-19T2300,3695A,116.6151,40.3053,北京市,怀柔新城,,14,14,17,8,12,35,,78,58,10,7,2,2,0.6,0.6
2025-08-19T2300,3696A,116.2545,39.8768,北京市,丰台小屯,,12,11,22,6,14,38,,79,60,10,13,2,2,0.7,0.7
2025-08-19T2300,3697A,116.84,40.3844,北京市,密云镇,,20,8,21,3,13,64,,68,58,4,12,3,4,0.5,0.6
2025-08-19T2300,4182A,116.1942,39.9158,北京市,八角北路9号,,12,11,25,3,12,37,,88,64,16,16,1,1,0.5,0.6
2025-08-19T2300,4194A,117.0790,40.1518,北京市,洳河巡河路,,17,12,22,7,16,54,,75,74,9,6,3,3,0.6,0.5
2025-08-19T2300,1761A,123.8275,41.3064,本溪市,大峪,,22,22,31,6,11,46,,106,76,19,14,5,5,0.6,0.5
2025-08-19T2300,1762A,123.7567,41.3325,本溪市,溪湖,颗粒物(PM10),63,76,74,10,16,44,,94,73,17,13,10,10,1.5,1.4
2025-08-19T2300,1763A,123.7169,41.3094,本溪市,彩屯,,28,28,34,17,20,42,,87,65,17,19,9,9,1.1,1.6
2025-08-19T2300,1764A,123.7669,41.2864,本溪市,东明,,25,15,27,8,13,78,,98,84,10,11,4,4,0.6,0.7
2025-08-19T2300,1765A,123.7992,41.2664,本溪市,新立屯,,20,18,25,6,15,63,,101,80,19,10,4,4,0.8,0.9
2025-08-19T2300,1766A,123.8142,41.3472,本溪市,威宁,,,26,30,12,17,,,93,63,17,12,10,10,0.5,0.5
2025-08-19T2300,2587A,105.2864,27.3125,毕节市,八中,,18,,22,12,21,28,,61,50,11,10,7,7,0.5,0.5
2025-08-19T2300,2588A,105.31,27.2944,毕节市,师专,,16,16,23,10,16,28,,60,49,12,13,9,9,0.5,0.5
2025-08-19T2300,4263A,105.3688,27.3598,毕节市,工业大道,,11,11,23,7,17,35,,68,54,10,11,8,8,0.6,0.6
2025-08-19T2300,1629A,118.0018,37.3617,滨州市,第二水厂,,44,44,49,19,32,62,,146,109,27,12,2,2,0.5,0.7
2025-08-19T2300,1630A,117.9776,37.393,滨州市,北中新校,,41,41,54,14,30,86,,150,122,20,17,6,6,0.7,0.6
2025-08-19T2300,3514A,117.9378,37.3956,滨州市,中海酒店,,35,31,46,22,30,109,,150,130,8,10,3,3,0.5,0.7
2025-08-19T2300,3515A,117.9378,37.3553,滨州市,开发区一中,,48,48,52,22,30,78,,162,126,29,19,8,7,0.6,0.6
2025-08-19T2300,3516A,118.0917,37.694,滨州市,金海六路,,37,37,44,17,25,58,,147,111,44,14,4,4,0.4,0.5
2025-08-19T2300,4028A,117.9956,37.3753,滨州市,滨州市西街道办事处,,42,34,41,29,31,82,,165,127,22,13,2,2,0.3,0.5
2025-08-19T2300,2311A,115.8072,33.8399,亳州市,污水处理厂,,25,14,25,8,14,80,,119,102,10,10,4,5,0.5,0.6
2025-08-19T2300,2312A,115.7789,33.8518,亳州市,三国揽胜宫,,27,24,30,10,14,84,,124,107,8,6,2,3,0.6,0.7
2025-08-19T2300,3332A,115.7633,33.8034,亳州市,亳州学院,,23,20,22,10,14,72,,121,98,8,7,2,2,0.4,0.4
2025-08-19T2300,2693A,82.0485,44.8556,博尔塔拉蒙古自治州,市党校,,29,,17,13,15,92,,105,100,7,5,3,3,0.1,0.2
2025-08-19T2300,2694A,82.0806,44.8969,博尔塔拉蒙古自治州,市环保局,,37,37,26,15,13,84,,102,95,5,5,5,5,0.3,0.2
2025-08-19T2300,1071A,116.8842,38.2991,沧州市,沧县城建局,,43,43,34,24,17,88,,136,120,15,12,4,3,0.4,0.4
2025-08-19T2300,1072A,116.8584,38.3254,沧州市,电视转播站,颗粒物(PM10),55,59,47,22,18,98,,135,120,13,11,3,3,0.3,0.3
2025-08-19T2300,1073A,116.8709,38.3228,沧州市,市环保局,,45,44,39,31,24,94,,143,121,14,13,3,3,0.3,0.4
2025-08-19T2300,3324A,116.8136,38.3004,沧州市,河北水利电力学院,,44,44,30,24,22,96,,154,128,14,8,4,4,0.2,0.3
2025-08-19T2300,2622A,97.1806,31.1273,昌都市,昌都监测站,,19,19,15,11,5,40,,70,63,16,5,5,5,0.4,0.2
2025-08-19T2300,3719A,97.1714,31.1406,昌都市,昌都会议中心,,15,15,8,9,5,46,,74,66,9,5,3,3,0.2,0.1
2025-08-19T2300,2690A,88.1236,43.8886,昌吉回族自治州,天山天池,,12,10,7,8,4,32,,86,60,5,6,3,3,0.5,0.5
2025-08-19T2300,2692A,87.2717,44.0297,昌吉回族自治州,新区政务中心,,20,13,9,7,6,61,,111,102,31,9,2,1,0.4,0.3
2025-08-19T2300,3613A,87.3095,44.0142,昌吉回族自治州,亚心广场,,39,39,16,9,4,44,,104,92,52,11,7,7,0.6,0.3
2025-08-19T2300,1120A,125.2863,43.9027,长春市,客车厂,,33,33,29,19,17,25,,97,66,40,17,6,4,0.4,0.4
2025-08-19T2300,1121A,125.2841,43.8463,长春市,邮电学院,,22,22,27,15,19,39,,99,73,24,12,5,5,0.5,0.6
2025-08-19T2300,1122A,125.3716,43.8772,长春市,劳动公园,,38,38,37,11,20,46,,99,77,16,12,9,8,0.6,0.4
2025-08-19T2300,1123A,125.3297,43.8805,长春市,园林处,,21,21,28,10,16,42,,93,73,26,10,6,4,0.4,0.5
2025-08-19T2300,1124A,125.4605,43.79,长春市,净月潭,,26,26,29,12,18,27,,99,61,16,9,5,5,0.4,0.5
2025-08-19T2300,1125A,125.7194,43.515,长春市,甩湾子,,34,34,30,23,18,14,,104,67,18,9,3,3,0.7,0.7
2025-08-19T2300,1126A,125.3863,43.8447,长春市,经开区环卫处,,,,34,18,17,45,,102,80,19,12,4,3,0.4,0.5
2025-08-19T2300,1127A,125.245,43.7783,长春市,高新区管委会,,39,39,30,12,17,31,,102,70,40,10,4,3,0.5,0.5
2025-08-19T2300,1128A,125.1761,43.8325,长春市,岱山公园,,26,25,29,11,22,25,,93,60,52,20,4,3,0.4,0.4
2025-08-19T2300,4281A,125.3346,43.9164,长春市,北亚泰大街1068号,,28,28,32,15,17,32,,95,66,36,18,9,7,0.5,0.6
2025-08-19T2300,1335A,113.0833,28.2325,长沙市,经开区环保局,,13,13,15,3,4,41,,84,67,10,9,5,5,0.3,0.3
2025-08-19T2300,1336A,112.8872,28.2189,长沙市,高开区环保局,,15,15,14,3,3,47,,75,67,5,4,6,5,0.4,0.3
2025-08-19T2300,1337A,113.0792,28.2053,长沙市,马坡岭,,16,16,16,9,5,45,,90,74,8,5,5,5,0.5,0.4
2025-08-19T2300,1338A,112.9394,28.19,长沙市,湖南师范大学,,17,17,15,7,6,47,,88,72,12,9,4,5,0.2,0.2
2025-08-19T2300,1339A,113.0178,28.1322,长沙市,雨花区环保局,,,14,18,12,8,,,83,74,10,5,5,6,0.3,0.5
2025-08-19T2300,1340A,112.9792,28.2597,长沙市,伍家岭,,16,13,15,7,5,50,,88,72,6,6,2,3,0.2,0.3
2025-08-19T2300,1341A,113.0014,28.1944,长沙市,火车新站,,14,14,17,7,5,43,,87,71,10,5,6,6,0.4,0.4
2025-08-19T2300,1342A,112.9844,28.1178,长沙市,天心区环保局,,15,11,15,7,6,48,,88,73,10,6,4,5,0.3,0.3
2025-08-19T2300,1343A,112.8908,28.1308,长沙市,湖南中医药大学,,14,14,15,7,7,44,,74,62,7,6,5,4,0.5,0.5
2025-08-19T2300,1344A,112.9581,28.3611,长沙市,沙坪,,15,12,14,3,6,46,,99,82,16,8,3,4,0.3,0.3
2025-08-19T2300,1727A,113.1147,36.1547,长治市,清华站,,37,29,26,14,13,116,,130,126,7,6,6,7,0.5,0.6
2025-08-19T2300,1730A,113.0886,36.2125,长治市,审计局,,38,30,23,14,12,120,,130,128,8,8,5,5,0.7,0.6
2025-08-19T2300,1731A,113.0844,36.1856,长治市,长治八中,,39,38,28,27,20,124,,134,131,7,7,8,8,0.7,0.7
2025-08-19T2300,2845A,113.1569,36.1911,长治市,德盛苑,,35,26,26,17,13,112,,128,124,7,6,7,7,0.7,0.6
2025-08-19T2300,3568A,113.06,36.0464,长治市,向阳小学,颗粒物(PM10),68,85,64,32,25,116,,131,128,8,5,5,5,0.9,0.8
2025-08-19T2300,3569A,112.8792,36.3144,长治市,屯留一中,颗粒物(PM10),52,53,39,27,27,116,,134,131,14,13,9,9,0.4,0.6
2025-08-19T2300,4189A,113.1131,36.19948,长治市,英华南巷50号,,40,30,28,14,13,126,,136,134,9,7,8,8,0.7,0.6
2025-08-19T2300,4190A,113.2367,36.3344,长治市,学府街1号,,37,33,30,22,15,117,,127,124,6,8,2,2,0.5,0.5
2025-08-19T2300,1854A,111.6975,28.9703,常德市,市二中,,15,13,21,10,17,27,,70,52,20,10,3,4,0.4,0.4
2025-08-19T2300,1857A,111.7158,29.1456,常德市,白鹤山,,,,,,,,,,,,,,,,
2025-08-19T2300,3138A,111.7153,29.0289,常德市,武陵区永安,,15,15,27,9,14,39,,75,60,10,8,16,5,0.4,0.4
2025-08-19T2300,3139A,111.6892,28.9881,常德市,鼎城区玉霞,,16,16,24,9,15,30,,69,49,15,13,4,5,0.3,0.4
2025-08-19T2300,3140A,111.6625,29.0531,常德市,武陵区长庚,,23,,21,16,15,36,,73,54,11,9,4,5,0.5,0.5
2025-08-19T2300,1196A,119.9633,31.762,常州市,市监测站,,36,,40,15,18,115,,167,153,10,13,10,10,0.5,0.4
2025-08-19T2300,1200A,119.9468,31.7069,常州市,武进监测站,,36,30,26,9,14,113,,154,140,8,12,8,8,0.9,1
2025-08-19T2300,1201A,119.9255,31.9087,常州市,安家,,41,41,32,25,16,102,,152,125,19,15,9,9,0.9,0.9
2025-08-19T2300,3002A,119.9805,31.8174,常州市,行政中心,,37,36,35,17,16,117,,152,139,14,17,10,10,0.5,0.7
2025-08-19T2300,3003A,120.0522,31.7748,常州市,经开区,,36,34,35,9,16,114,,160,139,15,19,6,6,0.8,0.8
2025-08-19T2300,3010A,119.9025,31.7964,常州市,钟楼,,38,30,34,19,14,119,,152,141,10,13,6,6,0.4,0.4
2025-08-19T2300,3429A,119.8598,31.7066,常州市,武进经发区,,35,25,36,13,18,110,,173,142,10,12,11,10,0.8,0.8
2025-08-19T2300,3430A,119.5826,31.7245,常州市,金坛城区,,40,40,32,24,17,101,,153,116,22,13,9,9,0.6,0.5
2025-08-19T2300,2220A,120.4318,41.5881,朝阳市,西梁,,24,15,36,13,24,74,,92,84,10,15,6,7,0.7,1
2025-08-19T2300,2221A,120.4521,41.5646,朝阳市,河畔小区,,27,13,32,12,22,85,,97,90,7,10,5,6,0.6,0.9
2025-08-19T2300,2222A,120.4176,41.5648,朝阳市,八里堡,,24,,37,13,21,76,,97,84,9,16,6,7,0.7,0.9
2025-08-19T2300,2223A,120.3806,41.5969,朝阳市,农业园区,,23,17,31,16,25,43,,96,67,15,12,6,7,0.6,0.8
2025-08-19T2300,1705A,116.6367,23.6719,潮州市,西园路,,13,13,14,3,7,10,,43,22,12,10,3,4,0.4,0.3
2025-08-19T2300,3026A,116.6183,23.6608,潮州市,市政府,,16,16,16,6,5,11,,48,20,14,11,14,11,0.4,0.4
2025-08-19T2300,4036A,116.6461,23.6761,潮州市,金山,,18,,15,12,13,11,,47,21,6,8,4,5,0.4,0.5
2025-08-19T2300,2472A,113.0073,25.9061,郴州市,马头岭,,13,13,15,6,6,26,,41,35,10,9,4,6,0.4,0.4
2025-08-19T2300,2473A,113.0116,25.8226,郴州市,市职中,,13,12,11,7,5,40,,42,37,5,7,3,3,0.4,0.5
2025-08-19T2300,2475A,113.0383,25.8071,郴州市,市审计局,,10,10,10,3,4,32,,43,37,8,7,5,5,0.4,0.3
2025-08-19T2300,2476A,113.0348,25.7759,郴州市,市环保局,,16,,10,11,5,32,,43,36,8,9,2,2,0.2,0.2
2025-08-19T2300,4252A,113.0138,25.8011,郴州市,好美居路49号,,13,12,11,3,4,41,,42,40,6,6,6,4,0.3,0.2
2025-08-19T2300,1431A,103.9728,30.7236,成都市,金泉两河,,23,18,24,3,8,71,,168,140,18,17,2,2,0.6,0.6
2025-08-19T2300,1432A,104.176,30.6872,成都市,十里店,,25,19,30,3,14,79,,165,143,29,20,2,2,0.7,0.7
2025-08-19T2300,1433A,104.079,30.5706,成都市,三瓦窑,,42,29,28,29,17,82,,176,143,40,29,2,2,0.5,0.5
2025-08-19T2300,1434A,104.1114,30.63,成都市,沙河铺,,22,20,32,15,17,52,,158,114,13,16,3,3,0.8,0.9
2025-08-19T2300,1437A,104.0786,30.6531,成都市,君平街,,,26,31,19,17,101,,178,160,,11,2,5,0.6,0.7
2025-08-19T2300,1438A,103.613,31.0283,成都市,灵岩寺,,,,,,,,,,,,,,,,
2025-08-19T2300,2880A,104.0239,30.65639,成都市,大石西路,,32,26,28,22,17,86,,154,132,24,19,4,4,0.7,0.7
2025-08-19T2300,3136A,104.2725,30.5589,成都市,龙泉驿区区政府,,30,27,22,19,12,95,,169,141,19,16,5,5,0.6,0.5
2025-08-19T2300,3357A,104.0106,30.6931,成都市,金博路,,21,14,19,8,11,67,,159,132,24,19,4,4,0.6,0.6
2025-08-19T2300,3359A,104.0578,30.5225,成都市,华阳,,30,24,25,17,17,93,,164,131,26,22,4,4,0.7,0.6
2025-08-19T2300,3488A,104.3853,30.7453,成都市,青白江技师分院,,36,36,38,25,22,101,,159,120,18,24,7,9,0.7,0.7
2025-08-19T2300,3489A,104.0789,30.4072,成都市,科学城,,31,31,30,20,18,92,,143,120,19,15,4,4,0.6,0.5
2025-08-19T2300,4011A,103.8506,30.6947,成都市,光华大道三段,,37,21,24,19,12,117,,171,156,14,15,4,5,0.6,0.6
2025-08-19T2300,4224A,104.2433,30.5353,成都市,鲸龙路1057号,,43,41,34,30,23,102,,172,138,25,20,4,4,0.6,0.6
2025-08-19T2300,1062A,117.9531,40.9081,承德市,铁路,,23,21,35,8,18,23,,70,54,45,20,2,3,0.4,0.5
2025-08-19T2300,1063A,117.9392,40.9763,承德市,中国银行,,24,24,36,3,24,47,,71,60,10,13,3,2,0.4,0.5
2025-08-19T2300,1064A,117.9503,40.928,承德市,开发区,,21,21,36,13,16,60,,76,70,9,17,4,4,0.4,0.6
2025-08-19T2300,1066A,117.9268,41.0026,承德市,离宫,,20,20,32,6,11,40,,58,50,5,7,1,2,0.3,0.4
2025-08-19T2300,4274A,117.7994,40.9605,承德市,滨河大街98号,,23,,30,16,17,43,,78,63,9,11,2,2,0.3,0.4
2025-08-19T2300,2314A,117.47,30.6618,池州市,池州学院,,22,20,22,15,14,46,,95,64,13,10,6,6,0.5,0.6
2025-08-19T2300,3237A,117.4918,30.6617,池州市,展览馆,,20,20,22,11,12,52,,95,59,10,10,5,6,0.7,0.7
2025-08-19T2300,3333A,117.5627,30.695,池州市,第八中学,,29,29,29,16,14,45,,95,,13,10,6,6,0.7,0.5
2025-08-19T2300,3334A,117.5038,30.6243,池州市,第十二中学,,22,22,24,11,13,38,,90,57,16,16,5,5,1.2,0.9
2025-08-19T2300,1744A,118.9233,42.2816,赤峰市,松山一中,,29,29,22,8,10,48,,84,62,21,17,5,5,0.6,0.6
2025-08-19T2300,1745A,118.9576,42.2728,赤峰市,哈达街,,29,29,25,12,11,36,,80,57,28,15,12,12,0.6,0.6
2025-08-19T2300,1746A,118.8788,42.2554,赤峰市,天义路,,25,,15,17,14,47,,82,58,17,13,12,11,0.4,0.5
2025-08-19T2300,3058A,119.2658,42.0353,赤峰市,银河街,,34,34,36,17,20,34,,77,55,20,15,26,14,0.7,0.6
2025-08-19T2300,3286A,118.9359,42.3147,赤峰市,桥北物流园区,,20,20,22,8,10,29,,68,49,31,16,8,9,0.6,0.6
2025-08-19T2300,2521A,107.3476,22.4136,崇左市,市环保局江州分局,,15,15,10,3,4,24,,43,35,12,6,6,6,0.6,0.5
2025-08-19T2300,4256A,107.3750,22.3736,崇左市,石景林东路7号,,18,18,8,3,5,21,,48,41,14,7,3,4,0.5,0.4
2025-08-19T2300,2298A,118.3093,32.3153,滁州市,老年大学,,36,36,38,23,22,87,,126,111,11,11,7,8,0.3,0.4
2025-08-19T2300,2299A,118.3244,32.2786,滁州市,人大宾馆,,30,21,26,21,22,83,,130,113,6,6,5,7,0.3,0.4
2025-08-19T2300,3207A,118.3118,32.3038,滁州市,市政府原办公楼,,45,34,33,31,28,80,,123,104,11,9,6,9,0.4,0.4
2025-08-19T2300,3331A,118.3267,32.2634,滁州市,图书馆,,33,23,28,23,24,94,,128,114,6,8,10,12,0.3,0.3
2025-08-19T2300,2605A,101.5482,25.0441,楚雄彝族自治州,州环境监测站,,29,,24,20,16,12,,46,28,25,19,11,8,0.6,0.5
2025-08-19T2300,2606A,101.538,25.0492,楚雄彝族自治州,市经济开发区,,46,46,34,27,17,16,,60,36,29,22,13,10,0.7,0.8
2025-08-19T2300,2548A,107.5277,31.2827,达州市,达州职业技术学院,,50,50,38,15,13,15,,84,53,32,17,7,9,0.5,0.5
2025-08-19T2300,2549A,107.5086,31.2186,达州市,市环境监测站,,36,36,37,12,12,21,,74,53,33,27,6,7,0.4,0.4
2025-08-19T2300,2550A,107.4988,31.2132,达州市,凤凰小区,,31,31,31,19,16,22,,85,63,34,20,2,3,0.4,0.4
2025-08-19T2300,2551A,107.5082,31.1986,达州市,达县机关宾馆,颗粒物(PM10),54,58,36,35,17,5,,85,50,51,27,6,6,0.5,0.4
2025-08-19T2300,2552A,107.4644,31.2124,达州市,市政中心,颗粒物(PM10),52,54,40,27,16,11,,81,59,48,21,5,4,0.5,0.3
2025-08-19T2300,2614A,100.1542,25.7054,大理白族自治州,大理市环境监测站,,36,,13,25,18,46,,57,55,11,8,4,4,0.4,0.4
2025-08-19T2300,2615A,100.2171,25.5811,大理白族自治州,大理古城,,33,26,18,23,12,37,,72,49,12,9,6,6,0.6,0.6
2025-08-19T2300,1109A,121.612,38.9741,大连市,甘井子,,31,20,25,15,18,99,,125,116,13,16,8,8,0.3,0.1
2025-08-19T2300,1110A,121.565,38.9511,大连市,周水子,,33,27,23,20,19,104,,115,106,9,12,8,7,0.4,0.4
2025-08-19T2300,1111A,121.5637,38.8845,大连市,星海三站,,37,27,24,16,14,116,,112,112,9,12,4,4,0.4,0.4
2025-08-19T2300,1112A,121.6302,38.9117,大连市,青泥洼桥,,36,30,24,19,16,113,,123,114,6,8,6,6,0.6,0.6
2025-08-19T2300,1113A,121.6251,38.8638,大连市,傅家庄,,36,23,21,17,13,114,,108,108,6,8,7,7,0.4,0.5
2025-08-19T2300,1114A,121.5213,38.8661,大连市,七贤岭,,34,22,23,17,16,106,,120,115,4,7,11,11,0.5,0.5
2025-08-19T2300,1115A,121.2529,38.8061,大连市,旅顺,,36,26,20,22,17,114,,111,111,2,4,4,5,0.5,0.4
2025-08-19T2300,1116A,121.7485,39.1311,大连市,金州,,34,21,22,15,19,106,,119,111,12,16,10,10,0.2,0.3
2025-08-19T2300,1117A,121.7811,39.0496,大连市,开发区,,25,25,24,15,17,67,,101,88,15,20,6,6,0.4,0.5
2025-08-19T2300,1118A,121.9762,39.0631,大连市,双D港,,26,26,21,10,13,20,,95,63,4,8,7,8,0.3,0.4
2025-08-19T2300,1789A,124.81117,46.03138,大庆市,大同区,,28,28,18,14,9,32,,65,44,15,9,8,9,0.5,0.7
2025-08-19T2300,1790A,125.129,46.533,大庆市,龙凤区,,41,41,24,14,7,12,,77,48,41,18,7,8,0.7,0.6
2025-08-19T2300,1791A,124.902,46.408,大庆市,红岗区,,39,39,24,12,11,14,,72,48,26,13,8,8,0.6,0.5
2025-08-19T2300,1792A,125.153,46.586,大庆市,萨尔图区,颗粒物(PM10),60,70,34,37,12,4,,70,38,49,18,8,8,0.9,0.6
2025-08-19T2300,1793A,124.9042,46.6215,大庆市,让胡路区,,33,29,23,23,14,9,,76,51,44,13,6,6,0.6,0.4
2025-08-19T2300,3481A,125.141,46.634,大庆市,萨区政府监测点,,46,46,28,14,8,21,,77,46,37,14,7,7,0.5,0.3
2025-08-19T2300,1721A,113.3819,40.1097,大同市,果树场,,18,16,17,12,9,17,,73,63,14,22,7,8,0.4,0.7
2025-08-19T2300,1723A,113.2994,40.0758,大同市,云冈宾馆,,42,42,29,21,13,36,,91,84,27,25,3,4,0.7,1
2025-08-19T2300,1724A,113.3444,40.0917,大同市,大同大学,,22,22,18,13,10,33,,80,71,23,25,7,7,0.5,0.8
2025-08-19T2300,1725A,113.2661,40.1269,大同市,安家小村,,36,36,21,8,4,38,,94,84,38,23,8,8,0.9,0.7
2025-08-19T2300,1726A,113.2711,40.0844,大同市,教育学院,颗粒物(PM10),53,56,29,22,12,13,,87,74,52,29,8,8,0.8,0.8
2025-08-19T2300,3282A,113.3397,40.0597,大同市,大同市卫生学校,,48,48,22,21,13,47,,88,83,18,17,6,7,0.8,0.9
2025-08-19T2300,3565A,113.1367,40.1122,大同市,云冈站,,36,36,19,18,10,21,,84,68,14,10,5,4,0.8,0.9
2025-08-19T2300,3566A,113.1186,40.2556,大同市,图书馆,,17,17,15,10,8,19,,91,70,6,7,2,3,0.7,1
2025-08-19T2300,3567A,113.5931,40.0461,大同市,区一中,,21,,18,8,13,65,,84,83,4,6,9,10,0.6,0.6
2025-08-19T2300,4199A,113.2798,40.0997,大同市,魏都大道141号,,45,45,26,28,14,14,,91,79,49,27,2,4,1.1,1
2025-08-19T2300,2269A,124.1069,50.4097,大兴安岭地区,科技局,,26,26,25,11,11,7,,57,29,3,5,6,5,0.4,0.3
2025-08-19T2300,3663A,124.1164,50.4278,大兴安岭地区,红旗社区,,14,14,7,3,4,2,,51,22,4,4,4,4,0.3,0.3
2025-08-19T2300,1600A,124.3303,40.0625,丹东市,江湾东路,,19,10,17,3,10,60,,79,61,5,10,3,14,0.6,0.6
2025-08-19T2300,1601A,124.4256,40.1503,丹东市,临江后街,,19,19,18,8,8,50,,78,52,6,11,6,6,0.7,0.7
2025-08-19T2300,1602A,124.3933,40.1461,丹东市,元宝山,,15,13,16,8,10,48,,74,56,9,11,3,3,0.6,0.7
2025-08-19T2300,1603A,124.3633,40.1092,丹东市,民主桥,,16,16,17,7,9,51,,71,50,5,10,3,3,0.5,0.7
2025-08-19T2300,3541A,109.5726,19.5167,儋州市,第一中学子站,,14,14,12,3,4,29,,36,35,4,4,8,5,0.6,0.7
2025-08-19T2300,3542A,109.5567,19.5187,儋州市,东坡学校子站,,12,12,12,8,4,30,,40,38,3,3,7,6,0.6,0.6
2025-08-19T2300,2616A,98.5842,24.428,德宏傣族景颇族自治州,德宏州监测站,,30,30,26,14,11,36,,61,52,10,8,16,15,0.6,0.6
2025-08-19T2300,3677A,98.5881,24.4368,德宏傣族景颇族自治州,芒市人民政府综合楼,,17,17,22,9,10,32,,54,46,10,8,15,16,0.5,0.5
2025-08-19T2300,1901A,104.4239,31.1208,德阳市,东山公园,,45,42,33,31,21,87,,134,116,23,13,2,4,0.8,0.8
2025-08-19T2300,1902A,104.3826,31.1317,德阳市,西小区,,34,34,43,22,25,107,,153,124,16,23,1,5,0.7,0.8
2025-08-19T2300,1904A,104.3553,31.1091,德阳市,耐火材料厂,,32,27,43,17,27,100,,154,113,11,33,1,5,0.6,0.7
2025-08-19T2300,3639A,104.4019,31.1244,德阳市,市教育局,,48,43,38,33,22,96,,134,113,18,20,6,9,0.9,1
2025-08-19T2300,1622A,116.3032,37.4674,德州市,儿童乐园,颗粒物(PM10),57,63,42,12,20,115,,156,141,14,9,10,10,0.4,0.5
2025-08-19T2300,1624A,116.2991,37.4451,德州市,监理站,颗粒物(PM10),57,63,41,14,21,96,,156,139,13,9,7,7,0.4,0.5
2025-08-19T2300,3066A,116.2721,37.4379,德州市,九衢泉纯净水厂,颗粒物(PM10),56,61,43,19,26,77,,144,124,25,13,6,6,0.7,0.8
2025-08-19T2300,3371A,116.3728,37.4403,德州市,开发区人民医院,颗粒物(PM10),54,58,43,12,25,99,,153,130,13,13,12,12,0.9,1
2025-08-19T2300,3511A,116.5652,37.3319,德州市,陵城艺术中心,,,29,44,14,21,,,161,,22,13,14,7,0.7,1
2025-08-19T2300,4292A,116.3525,37.4209,德州市,新河东路,颗粒物(PM10),52,53,46,19,29,85,,147,126,13,11,9,9,0.8,1
2025-08-19T2300,2621A,99.7056,27.8317,迪庆藏族自治州,迪庆州站,,25,25,17,15,14,25,,45,34,8,7,7,7,0.5,0.4
2025-08-19T2300,3180A,99.7136,27.8094,迪庆藏族自治州,质量技术监督局,,16,14,16,11,8,38,,48,39,7,8,8,8,0.4,0.5
2025-08-19T2300,4257A,104.6092,35.5962,定西市,将台街,,39,39,25,22,17,84,,108,98,11,9,7,8,0.5,0.4
2025-08-19T2300,4309A,104.6159,35.5701,定西市,正龙路62号,,,42,27,20,15,84,,82,,,6,,5,,0.2
2025-08-19T2300,1389A,113.7547,23.0494,东莞市,莞城梨川,,38,35,21,26,16,2,,26,15,33,24,7,6,0.4,0.4
2025-08-19T2300,1390A,113.7944,23.0128,东莞市,东城石井,,20,20,17,13,10,2,,19,12,36,29,5,4,0.7,0.7
2025-08-19T2300,1391A,113.7383,22.9658,东莞市,南城西平,,33,33,18,16,9,5,,20,14,42,30,7,6,0.7,0.5
2025-08-19T2300,3319A,113.7338,23.0381,东莞市,万江金泰,,41,41,20,27,13,0,,24,16,38,26,6,5,0.6,0.8
2025-08-19T2300,3626A,113.7533,23.0202,东莞市,南城元岭,,,38,19,24,12,,,22,16,36,26,7,6,0.5,0.6
2025-08-19T2300,3627A,113.7875,23.0457,东莞市,东城主山,,39,39,21,23,13,1,,22,11,28,23,5,5,0.3,0.3
2025-08-19T2300,1666A,118.6614,37.4309,东营市,市环保局,,48,48,42,31,25,92,,157,121,24,19,10,7,0.4,0.4
2025-08-19T2300,3036A,118.6904,37.4338,东营市,开发区管委会,颗粒物(PM10),52,54,50,27,20,105,,165,132,23,18,7,7,0.5,0.4
2025-08-19T2300,3365A,118.5719,37.565,东营市,垦利区民丰路,,,48,48,,29,110,,168,135,19,16,13,13,0.8,1
2025-08-19T2300,3498A,118.5055,37.8612,东营市,河口城区,,,44,42,17,24,,,172,149,24,15,6,6,0.8,1.2
2025-08-19T2300,3646A,118.4978,37.4623,东营市,胜利站,颗粒物(PM10),51,51,48,34,28,93,,167,124,30,25,3,3,0.6,0.7
2025-08-19T2300,3734A,118.35,37.26,东营市,理想之城,,42,39,41,29,26,89,,160,117,26,20,2,4,0.4,0.6
2025-08-19T2300,1591A,110.0023,39.8129,鄂尔多斯市,综合楼,,30,19,9,12,3,96,,130,107,13,7,8,7,0.6,0.5
2025-08-19T2300,1592A,109.9486,39.8261,鄂尔多斯市,巴音孟克林场办事处,,30,22,11,9,4,95,,135,113,16,9,6,4,0.5,0.3
2025-08-19T2300,1593A,109.7736,39.5986,鄂尔多斯市,康泽苑,,24,24,16,3,2,60,,139,109,19,8,4,5,0.3,0.2
2025-08-19T2300,1594A,109.8119,39.5989,鄂尔多斯市,华泰汽车城,,24,24,13,9,6,36,,130,91,26,9,4,4,0.6,0.6
2025-08-19T2300,1595A,109.9734,39.7884,鄂尔多斯市,奥林花园,,24,24,16,7,5,69,,132,103,15,9,5,6,0.6,0.5
2025-08-19T2300,2436A,114.8938,30.3994,鄂州市,市政府,,25,25,30,10,12,50,,140,101,21,16,8,8,0.4,0.4
2025-08-19T2300,2437A,114.8989,30.3714,鄂州市,赵家坝,,35,35,36,9,11,44,,148,99,27,21,9,9,0.8,0.8
2025-08-19T2300,3654A,114.8094,30.4089,鄂州市,精准医疗中心,,28,28,27,6,8,48,,129,93,21,12,12,9,0.7,0.7
2025-08-19T2300,2454A,109.4978,30.2981,恩施土家族苗族自治州,湖北民院,,30,,23,21,15,21,,68,51,15,12,5,6,0.5,0.5
2025-08-19T2300,2455A,109.4707,30.2798,恩施土家族苗族自治州,州电力总公司,,23,23,21,9,14,26,,60,46,10,11,3,4,0.1,0.1
2025-08-19T2300,3549A,109.5061,30.3772,恩施土家族苗族自治州,龙凤新区,,,16,20,,11,37,,81,64,4,5,4,4,0.4,0.3
2025-08-19T2300,2499A,108.3411,21.6158,防城港市,沙万,,35,27,18,24,14,17,,45,27,32,15,5,3,0.4,0.4
2025-08-19T2300,2500A,108.3514,21.7731,防城港市,防城档案局,,18,18,13,3,5,24,,40,32,10,8,3,3,0.2,0.2
2025-08-19T2300,2501A,108.3506,21.6414,防城港市,大海花园,,19,19,17,9,7,36,,50,38,16,10,5,6,0.4,0.5
2025-08-19T2300,1371A,113.1294,23.0067,佛山市,湾梁,,36,36,18,18,11,1,,10,4,51,40,6,6,0.7,0.6
2025-08-19T2300,1372A,113.1083,23.0478,佛山市,华材职中,,31,31,16,15,10,2,,14,8,45,32,4,3,0.7,0.6
2025-08-19T2300,1373A,113.144,23.0453,佛山市,南海气象局,,35,35,21,16,9,1,,10,5,47,33,5,5,1.0,0.9
2025-08-19T2300,1374A,113.2881,22.8094,佛山市,顺德苏岗,,14,14,17,3,7,8,,6,5,24,32,5,5,0.6,0.7
2025-08-19T2300,1376A,112.8383,22.8678,佛山市,高明孔堂,,32,32,17,10,7,26,,31,25,20,30,5,5,0.7,0.6
2025-08-19T2300,1377A,112.8836,23.1588,佛山市,三水监测站,,29,29,15,15,11,0,,23,10,44,32,3,7,0.6,0.6
2025-08-19T2300,1378A,112.867,23.185,佛山市,三水云东海,,47,47,28,16,16,0,,22,8,49,35,2,2,0.8,0.7
2025-08-19T2300,3625A,113.2544,22.7642,佛山市,容桂街道办,,20,17,12,14,11,12,,18,14,32,29,6,5,0.7,0.7
2025-08-19T2300,1280A,119.3903,26.0543,福州市,鼓山,,,,,,,,,,,,,,,,
2025-08-19T2300,1282A,119.2681,26.0504,福州市,师大,,35,35,28,22,13,61,,83,76,16,10,6,5,0.3,0.2
2025-08-19T2300,1283A,119.2984,26.1028,福州市,五四北路,,28,28,29,16,12,60,,94,75,16,13,5,4,0.4,0.3
2025-08-19T2300,1284A,119.2648,26.0768,福州市,杨桥西路,,37,37,28,21,13,66,,92,80,16,10,5,4,0.3,0.3
2025-08-19T2300,1285A,119.317,26.0746,福州市,紫阳,,34,34,35,16,15,50,,90,74,15,13,4,4,0.2,0.2
2025-08-19T2300,3048A,119.5799,26.0936,福州市,九龙,,24,24,22,15,11,74,,111,101,7,6,5,5,0.2,0.2
2025-08-19T2300,3526A,119.5189,25.9664,福州市,吴航,,27,27,28,13,15,46,,118,97,12,9,9,7,0.4,0.4
2025-08-19T2300,1755A,123.7977,41.8491,抚顺市,望花区,,24,24,39,14,21,46,,125,78,26,21,4,6,0.6,0.9
2025-08-19T2300,1756A,123.9161,41.8822,抚顺市,顺城区,,20,14,38,8,18,63,,130,88,15,19,4,6,0.7,1.1
2025-08-19T2300,1757A,124.0436,41.8611,抚顺市,东洲区,,18,9,31,6,17,56,,125,96,10,10,4,6,0.6,0.8
2025-08-19T2300,1758A,123.9247,41.8642,抚顺市,新抚区,,19,19,36,8,20,54,,127,80,16,18,4,6,0.7,1
2025-08-19T2300,1759A,124.0972,41.8961,抚顺市,大伙房水库,,22,12,25,6,17,68,,127,96,10,11,8,8,0.7,0.8
2025-08-19T2300,1760A,123.7086,41.8391,抚顺市,沈抚新城,,36,36,33,20,24,24,,123,74,45,23,9,6,1.7,1.1
2025-08-19T2300,2376A,116.2127,28.0814,抚州市,桐源党溪,,27,27,22,13,8,30,,58,43,6,5,4,5,0.6,0.6
2025-08-19T2300,2377A,116.3544,27.9831,抚州市,市站,,22,22,18,9,7,39,,64,54,4,3,1,1,0.5,0.5
2025-08-19T2300,2378A,116.3565,27.963,抚州市,血防站,,21,21,18,11,9,34,,58,48,7,5,6,6,0.2,0.2
2025-08-19T2300,2379A,116.3564,28.0007,抚州市,采茶剧团,,22,22,18,10,8,35,,58,50,2,2,4,4,0.2,0.3
2025-08-19T2300,2380A,116.385,27.9647,抚州市,医学分院,,22,22,18,13,8,25,,58,50,1,3,5,4,0.4,0.4
2025-08-19T2300,2207A,121.6094,41.998,阜新市,工业园区,,32,32,54,17,34,58,,133,108,25,15,6,10,0.8,0.9
2025-08-19T2300,2208A,121.6697,42.0279,阜新市,长青街,,28,28,46,17,30,51,,129,101,16,10,5,10,1.1,0.9
2025-08-19T2300,2209A,121.6673,42.0705,阜新市,农业园区,,30,30,49,14,25,63,,129,99,13,9,4,5,1.0,0.9
2025-08-19T2300,2210A,121.6717,42.0224,阜新市,东苑,,41,41,52,22,34,60,,131,105,21,13,8,13,1.2,0.9
2025-08-19T2300,2211A,121.6506,42.0498,阜新市,玉龙新城,,27,27,46,14,24,43,,123,96,19,9,6,10,0.9,1.1
2025-08-19T2300,2301A,115.8277,32.8929,阜阳市,市监测站,,27,27,32,14,14,77,,115,92,13,14,4,4,0.5,0.5
2025-08-19T2300,2303A,115.8554,32.8605,阜阳市,开发区,,37,37,32,9,12,72,,118,96,14,11,6,6,0.2,0.3
2025-08-19T2300,2875A,115.784,32.8892,阜阳市,阜阳职业技术学院,,26,20,28,13,12,83,,122,96,9,8,4,5,0.3,0.3
2025-08-19T2300,3468A,115.7901,32.8613,阜阳市,市规划展馆,,35,35,33,18,18,61,,121,86,13,10,2,2,0.4,0.4
2025-08-19T2300,3469A,115.836,32.9183,阜阳市,枣园社区,,29,29,35,18,23,86,,120,94,10,12,2,3,0.3,0.3
2025-08-19T2300,2669A,102.9099,34.9841,甘南藏族自治州,州政府,,26,,8,18,12,23,,86,56,22,11,4,4,0.2,0.2
2025-08-19T2300,3380A,102.8914,34.9617,甘南藏族自治州,甘肃民族师范学院,颗粒物(PM10),54,58,18,14,7,0,,101,51,39,12,4,4,0.3,0.2
2025-08-19T2300,2570A,101.9603,30.0475,甘孜藏族自治州,水桥子,,17,6,8,3,6,53,,87,76,17,11,7,6,0.7,0.6
2025-08-19T2300,3065A,101.9533,29.9972,甘孜藏族自治州,州环保局,,19,19,8,3,5,41,,88,75,20,10,4,4,0.7,0.7
2025-08-19T2300,3414A,115.8347,28.932,赣江新区,桑海产业园,,20,14,16,3,5,64,,91,79,15,15,4,5,0.5,0.2
2025-08-19T2300,2362A,114.9017,25.9149,赣州市,通天岩,,26,,13,18,14,42,,52,46,2,3,16,16,1.3,0.9
2025-08-19T2300,2363A,114.9367,25.8664,赣州市,地委,,14,14,16,6,6,40,,59,49,7,7,6,6,0.5,0.6
2025-08-19T2300,2364A,114.9461,25.8481,赣州市,气象台,,,16,14,3,3,39,,56,46,4,5,,8,,0.3
2025-08-19T2300,2365A,114.9322,25.8333,赣州市,市图书馆,,12,,9,8,5,32,,50,41,5,5,4,4,0.5,0.4
2025-08-19T2300,2366A,114.8905,25.8471,赣州市,华坚鞋城,,16,11,14,11,6,37,,52,42,7,8,5,6,0.3,0.4
2025-08-19T2300,3109A,115.0093,25.8613,赣州市,赣县区卫计委,颗粒物(PM10),52,53,15,7,4,37,,50,44,4,6,6,6,0.3,0.3
2025-08-19T2300,2683A,106.2319,36.1417,固原市,马园,,,,,,,,,,,,,,,,
2025-08-19T2300,2684A,106.2792,36.0022,固原市,监测站,,34,34,17,16,9,29,,96,78,45,11,6,6,0.3,0.2
2025-08-19T2300,2685A,106.2375,36.0211,固原市,新区,,23,13,18,12,10,72,,92,81,11,9,7,7,0.4,0.4
2025-08-19T2300,3522A,106.2177,35.9959,固原市,原州区十五小,,26,16,15,10,10,82,,94,87,4,4,9,8,0.3,0.3
2025-08-19T2300,2543A,106.6308,30.5278,广安市,小平旧居,,,,,,,,,,,,,,,,
2025-08-19T2300,2544A,106.6303,30.4576,广安市,市委,,42,35,28,29,18,61,,95,92,24,14,1,5,0.4,0.3
2025-08-19T2300,2545A,106.6271,30.4663,广安市,友谊中学,,48,48,29,18,17,59,,104,98,24,15,3,4,0.8,0.7
2025-08-19T2300,2547A,106.6388,30.4551,广安市,广电花园,,,52,37,16,17,,,99,99,18,12,3,4,0.5,0.5
2025-08-19T2300,2902A,106.6351,30.4865,广安市,北辰小学,,28,28,32,17,17,56,,101,91,15,12,11,11,0.7,0.7
2025-08-19T2300,2523A,105.8945,32.4535,广元市,黑石坡,,29,29,25,18,16,64,,84,80,5,9,1,7,0.4,0.4
2025-08-19T2300,2524A,105.821,32.4444,广元市,老城,,,14,14,9,7,,,109,,7,15,8,8,0.5,0.7
2025-08-19T2300,2526A,105.8628,32.4287,广元市,监测站,,26,12,14,9,8,82,,100,97,8,11,4,7,0.7,0.7
2025-08-19T2300,3617A,105.8047,32.4166,广元市,经开区,,28,28,32,19,20,75,,95,90,9,16,5,12,0.6,0.8
2025-08-19T2300,1345A,113.2347,23.1423,广州市,广雅中学,,35,35,22,20,13,0,,14,7,54,39,4,3,0.6,0.5
2025-08-19T2300,1346A,113.2612,23.105,广州市,市五中,,34,34,20,21,13,0,,18,8,57,41,7,6,0.5,0.4
2025-08-19T2300,1348A,113.3478,23.0916,广州市,广东商学院,,,,21,,13,,,15,,,36,,5,,0.4
2025-08-19T2300,1349A,113.4332,23.1047,广州市,市八十六中,,23,19,10,16,9,1,,13,6,45,40,4,4,0.6,0.5
2025-08-19T2300,1350A,113.3505,22.9483,广州市,番禺中学,,35,35,21,19,15,1,,16,6,44,32,6,6,0.7,0.6
2025-08-19T2300,1351A,113.2146,23.3916,广州市,花都师范,,28,28,16,18,10,4,,24,15,44,30,5,4,0.5,0.5
2025-08-19T2300,1352A,113.2597,23.1331,广州市,市监测站,,35,35,22,16,12,1,,17,9,52,38,7,6,0.5,0.4
2025-08-19T2300,1353A,113.5618,23.312,广州市,九龙镇镇龙,,21,21,14,10,7,3,,30,22,29,17,8,6,0.5,0.5
2025-08-19T2300,1354A,113.2765,23.1544,广州市,麓湖,,32,32,18,21,12,1,,15,11,50,38,2,1,0.4,0.2
2025-08-19T2300,1355A,113.443,23.3035,广州市,帽峰山森林公园,,19,19,6,6,7,14,,34,28,25,13,7,8,0.5,0.4
2025-08-19T2300,2846A,113.3221,23.1322,广州市,体育西,,37,37,23,24,16,1,,16,9,53,43,5,4,0.7,0.6
2025-08-19T2300,3298A,113.5717,23.5491,广州市,从化街口,,19,18,11,13,6,26,,40,36,11,9,6,6,0.6,0.6
2025-08-19T2300,3299A,113.3472,23.3692,广州市,白云竹料,,32,32,17,16,8,11,,29,22,32,20,4,4,0.6,0.6
2025-08-19T2300,3300A,113.2981,23.237,广州市,白云嘉禾,颗粒物(PM10),54,57,19,24,12,0,,23,14,47,26,5,5,0.5,0.5
2025-08-19T2300,3301A,113.4256,23.1716,广州市,黄埔科学城,,26,26,17,17,11,0,,23,14,32,20,7,7,0.6,0.5
2025-08-19T2300,3302A,113.3942,23.0483,广州市,番禺大学城,,30,30,21,21,14,2,,14,7,47,38,12,10,0.5,0.4
2025-08-19T2300,3303A,113.4922,22.8168,广州市,南沙黄阁,,21,15,14,8,14,10,,15,15,42,44,2,3,0.2,0.2
2025-08-19T2300,3304A,113.5342,22.7896,广州市,南沙街,,27,27,18,8,10,2,,22,8,44,29,4,5,0.5,0.6
2025-08-19T2300,3443A,113.2902,23.5544,广州市,花都梯面,,19,19,11,12,6,20,,45,38,22,11,6,5,0.5,0.4
2025-08-19T2300,3445A,113.7858,23.7478,广州市,从化良口,,19,19,11,3,4,14,,32,23,7,7,4,4,0.5,0.5
2025-08-19T2300,3446A,113.8051,23.2614,广州市,增城荔城,,20,20,11,12,7,0,,28,17,20,12,8,8,0.5,0.4
2025-08-19T2300,2505A,109.568,23.1478,贵港市,德智高中,,,,,,,,,,,,,,,,
2025-08-19T2300,2506A,109.6047,23.0666,贵港市,江南子站,,29,29,25,14,11,19,,46,26,16,13,10,9,0.5,0.6
2025-08-19T2300,2508A,109.5669,23.1065,贵港市,荷城子站,,9,7,9,3,4,26,,50,35,12,7,8,8,0.7,0.5
2025-08-19T2300,3405A,109.5886,23.1172,贵港市,新世纪学校,,,12,9,3,7,,,51,38,12,9,3,3,0.5,0.6
2025-08-19T2300,4260A,109.5933,23.0951,贵港市,中山路155-3号,,17,17,19,10,9,27,,52,37,14,8,7,4,1.0,0.6
2025-08-19T2300,1439A,106.6899,26.5998,贵阳市,马鞍山,,,5,10,,,20,,40,29,11,8,3,3,0.3,0.2
2025-08-19T2300,1441A,106.6243,26.6266,贵阳市,鉴湖路,,22,22,18,3,2,30,,38,34,7,7,4,4,0.2,0.2
2025-08-19T2300,1442A,106.7487,26.6343,贵阳市,燕子冲,,14,14,6,3,8,15,,46,30,17,11,3,2,0,0
2025-08-19T2300,1443A,106.6555,26.4365,贵阳市,碧云窝,,27,27,22,3,3,25,,43,34,8,9,4,3,0.2,0.2
2025-08-19T2300,1445A,106.7109,26.6027,贵阳市,红边门,,14,14,14,9,9,19,,41,26,21,15,1,2,0.4,0.4
2025-08-19T2300,1446A,106.7164,26.5699,贵阳市,新华路,,17,17,11,7,10,18,,44,31,26,16,2,3,0.2,0.1
2025-08-19T2300,1447A,106.674,26.5424,贵阳市,太慈桥,,,9,10,3,4,,,40,,14,13,5,4,0.1,0.1
2025-08-19T2300,1552A,106.805,26.3003,贵阳市,桐木岭,,19,19,18,9,9,46,,46,46,2,2,1,1,1.0,0.9
2025-08-19T2300,4230A,106.6882,26.5695,贵阳市,花果园大街66号,,18,,2,12,8,21,,36,27,15,12,3,3,0.4,0.4
2025-08-19T2300,4231A,106.6873,26.5169,贵阳市,漓江路57号,,19,19,10,7,4,16,,43,28,18,12,4,3,0.4,0.3
2025-08-19T2300,1862A,110.4144,25.3167,桂林市,电子科大尧山校区,,,,,,,,,,,,,,,,
2025-08-19T2300,1864A,110.3089,25.2708,桂林市,龙隐路小学,,19,19,16,8,6,21,,52,34,8,8,5,5,0.3,0.3
2025-08-19T2300,1865A,110.2869,25.2178,桂林市,八中,,16,16,13,6,6,22,,54,36,12,10,9,7,0.7,0.7
2025-08-19T2300,3531A,110.296,25.1253,桂林市,旅游学院,,12,12,6,7,4,23,,51,37,9,5,14,4,0.4,0.3
2025-08-19T2300,4222A,110.1835,25.2444,桂林市,环湖路276号,,13,12,18,7,8,39,,52,44,2,6,4,11,0.2,0.3
2025-08-19T2300,4301A,110.2803,25.2773,桂林市,信义路13号,,13,12,13,9,9,31,,59,40,9,9,6,6,0.7,0.7
2025-08-19T2300,2674A,100.2561,34.4714,果洛藏族自治州,玛沁县大武镇,,32,28,18,22,11,62,,99,88,2,4,16,14,0.3,0.4
2025-08-19T2300,1129A,126.5422,45.755,哈尔滨市,岭北,,18,10,20,6,14,51,,91,72,36,16,9,9,0.8,0.7
2025-08-19T2300,1130A,126.561,45.8167,哈尔滨市,松北商大,,35,35,26,11,13,1,,52,34,58,18,6,6,0.6,0.5
2025-08-19T2300,1131A,126.979,45.5419,哈尔滨市,阿城会宁,,29,29,27,15,16,4,,81,46,41,12,8,7,1.1,0.6
2025-08-19T2300,1132A,126.599,45.7222,哈尔滨市,南岗学府路,,37,37,34,16,11,33,,72,57,30,22,6,6,0.7,0.6
2025-08-19T2300,1133A,126.689,45.7733,哈尔滨市,太平宏伟公园,,26,26,27,12,14,48,,72,59,14,14,7,7,0.6,0.6
2025-08-19T2300,1134A,126.635,45.7667,哈尔滨市,道外承德广场,,36,36,38,7,12,51,,70,58,15,18,8,8,0.4,0.4
2025-08-19T2300,1135A,126.685,45.7319,哈尔滨市,香坊红旗大街,,24,24,27,10,21,49,,76,62,17,17,9,10,0.6,0.6
2025-08-19T2300,1136A,126.6411,45.7258,哈尔滨市,动力和平路,,,21,32,14,12,,,78,,19,19,4,7,0.5,0.6
2025-08-19T2300,1137A,126.593,45.7478,哈尔滨市,道里建国路,,14,14,30,8,15,41,,74,57,26,18,8,9,0.4,0.9
2025-08-19T2300,1138A,126.615,45.61,哈尔滨市,平房东轻厂,,34,34,30,7,10,1,,70,30,57,21,11,8,0.5,0.5
2025-08-19T2300,1139A,126.595,45.9855,哈尔滨市,呼兰师专,,18,18,22,9,12,49,,74,58,14,15,8,8,0.4,0.5
2025-08-19T2300,1140A,126.6206,45.6842,哈尔滨市,省农科院,,35,35,49,7,12,32,,65,43,26,26,9,10,0.7,0.6
2025-08-19T2300,2688A,93.5128,42.8172,哈密市,地区监测站,,26,26,79,12,23,72,,82,75,9,16,4,4,0.1,0.2
2025-08-19T2300,2689A,93.4961,42.8328,哈密市,哈密师范学校,,26,22,70,15,21,81,,70,,8,20,4,4,0.5,0.5
2025-08-19T2300,2671A,100.9048,36.9639,海北藏族自治州,海晏县西海镇,,37,35,27,20,19,118,,132,128,5,7,10,9,0.4,0.6
2025-08-19T2300,3867A,102.0738,36.5056,海东市,平安区公安北苑,,44,44,30,28,18,85,,138,119,12,7,19,11,0.6,0.6
2025-08-19T2300,1409A,110.576,19.9507,海口市,东寨港,,19,19,13,6,7,39,,43,43,3,3,8,9,0.4,0.4
2025-08-19T2300,1410A,110.3232,20.0574,海口市,海南大学,,27,27,15,13,8,49,,50,44,4,4,3,3,0.4,0.3
2025-08-19T2300,1411A,110.283,20.0053,海口市,秀英海南医院,,24,24,16,9,7,33,,48,34,14,12,5,5,0.3,0.3
2025-08-19T2300,1412A,110.338,19.9969,海口市,海南师范大学,,24,24,17,10,6,44,,49,44,4,4,4,4,0.4,0.4
2025-08-19T2300,1413A,110.33,20.0356,海口市,龙华路环保局宿舍,,,21,15,8,6,46,,48,44,5,5,5,5,,0.3
2025-08-19T2300,3539A,110.5111,19.9736,海口市,桂林洋子站,,,26,18,10,8,38,,46,43,,4,3,3,0.2,0.2
2025-08-19T2300,2673A,100.6188,36.2866,海南藏族自治州,共和县恰卜恰镇,,30,24,25,13,14,96,,127,121,15,9,16,15,0.5,0.6
2025-08-19T2300,2676A,97.3731,37.3753,海西蒙古族藏族自治州,德令哈市,"颗粒物(PM10),细颗粒物(PM2.5)",500,3333,227,1049,82,103,,112,109,1,2,14,14,0.4,0.4
2025-08-19T2300,1048A,114.5302,36.6116,邯郸市,东污水处理厂,颗粒物(PM10),55,59,40,25,24,97,,147,136,12,7,4,5,0.5,0.4
2025-08-19T2300,1049A,114.4918,36.5713,邯郸市,矿院,,36,36,28,12,12,112,,156,145,10,7,3,4,0.5,0.4
2025-08-19T2300,1050A,114.484,36.6133,邯郸市,丛台公园,,39,36,31,22,21,122,,158,148,8,9,4,5,0.5,0.4
2025-08-19T2300,3458A,114.7895,36.5593,邯郸市,香泉濮院小区,,,38,37,6,2,119,,144,141,9,7,2,2,,0.4
2025-08-19T2300,3579A,114.50634,36.77178,邯郸市,永年区实验高中,颗粒物(PM10),53,56,53,32,27,124,,167,154,12,12,3,4,0.4,0.5
2025-08-19T2300,3580A,114.20016,36.44293,邯郸市,峰峰矿区临水派出所,,47,47,48,6,7,127,,187,166,9,6,4,5,0.1,0.3
2025-08-19T2300,2634A,106.9893,33.1842,汉中市,汉川机床厂子校,,18,15,22,12,12,56,,98,81,8,8,3,3,0.5,0.5
2025-08-19T2300,2635A,107.0154,33.0706,汉中市,市监测站,细颗粒物(PM2.5),65,49,28,47,15,44,,91,72,9,8,9,7,0.6,0.6
2025-08-19T2300,2636A,107.0089,33.1138,汉中市,鑫源开发区,,26,20,24,18,14,37,,90,67,11,9,6,7,0.5,0.5
2025-08-19T2300,2637A,107.007,33.0323,汉中市,南郑大河坎水厂,细颗粒物(PM2.5),54,,26,38,17,18,,86,66,30,11,7,6,0.5,0.4
2025-08-19T2300,1223A,120.2072,30.2111,杭州市,滨江,,32,32,31,17,14,84,,173,147,15,17,6,7,0.5,0.5
2025-08-19T2300,1224A,120.0633,30.2747,杭州市,西溪,,32,31,27,22,18,84,,154,137,20,13,9,8,0.5,0.4
2025-08-19T2300,1226A,120.3417,30.3150,杭州市,下沙,,28,28,24,16,13,73,,180,134,22,18,6,6,0.2,0.2
2025-08-19T2300,1227A,120.1269,30.2456,杭州市,卧龙桥,,32,32,27,20,19,51,,165,133,21,13,8,8,0.5,0.4
2025-08-19T2300,1228A,120.1903,30.2692,杭州市,浙江农大,颗粒物(PM10),52,53,36,13,15,87,,169,134,16,16,5,6,0.4,0.5
2025-08-19T2300,1230A,120.1197,30.3119,杭州市,和睦小学,,32,32,26,16,14,89,,165,148,18,13,6,6,0.5,0.4
2025-08-19T2300,1231A,120.3019,30.4183,杭州市,临平镇,,36,36,32,16,12,55,,172,129,25,12,7,6,0.4,0.3
2025-08-19T2300,1232A,120.2753,30.1839,杭州市,城厢镇,,48,48,42,18,17,91,,184,152,14,11,7,8,0.4,0.4
2025-08-19T2300,1233A,120.0883,30.1808,杭州市,云栖,,31,31,26,15,12,54,,165,131,31,21,9,10,0.8,0.7
2025-08-19T2300,3557A,119.9464,30.0494,杭州市,镇二中,细颗粒物(PM2.5),60,60,35,43,26,56,,133,118,34,21,4,5,0.5,0.4
2025-08-19T2300,3558A,119.7183,30.2367,杭州市,市府大楼,,48,48,34,30,19,80,,134,123,15,14,8,8,0.4,0.3
2025-08-19T2300,3656A,120.1556,30.2864,杭州市,消防大队,,28,28,27,17,15,89,,168,146,16,13,8,7,0.5,0.5
2025-08-19T2300,1270A,117.1959,31.7848,合肥市,明珠广场,,27,27,25,7,12,50,,110,88,22,16,7,7,0.5,0.5
2025-08-19T2300,1271A,117.3072,31.8764,合肥市,三里街,,22,22,29,7,14,66,,111,90,12,17,6,6,0.4,0.5
2025-08-19T2300,1272A,117.2588,31.8707,合肥市,琥珀山庄,,,22,28,12,16,,,120,108,11,12,7,8,0.4,0.4
2025-08-19T2300,1273A,117.1604,31.9052,合肥市,董铺水库,,19,19,22,7,12,59,,85,77,6,8,5,4,0.3,0.3
2025-08-19T2300,1274A,117.25,31.8571,合肥市,长江中路,,24,24,28,3,9,68,,113,96,11,13,7,7,0.3,0.4
2025-08-19T2300,1275A,117.266,31.9436,合肥市,庐阳区,,24,24,31,7,12,75,,112,100,10,18,6,7,0.3,0.4
2025-08-19T2300,1276A,117.3453,31.8616,合肥市,瑶海区,,,27,36,3,13,54,,112,86,,21,6,6,0.4,0.6
2025-08-19T2300,1277A,117.3027,31.7964,合肥市,包河区,,21,19,26,7,12,65,,113,95,10,15,6,6,0.4,0.5
2025-08-19T2300,1278A,117.2776,31.7385,合肥市,滨湖新区,,20,19,25,14,18,60,,106,88,9,10,10,9,0.3,0.4
2025-08-19T2300,1279A,117.1318,31.8403,合肥市,高新区,,24,19,24,3,12,74,,105,95,11,12,5,6,0.4,0.4
2025-08-19T2300,3464A,117.3803,31.9147,合肥市,高教基地,,20,19,28,12,18,63,,117,93,14,17,6,5,0.4,0.4
2025-08-19T2300,3614A,79.924,37.0877,和田地区,地区环保局,颗粒物(PM10),81,112,150,19,78,94,,124,120,13,6,1,2,0.8,0.7
2025-08-19T2300,3615A,79.9131,37.113,和田地区,市环保局,颗粒物(PM10),84,118,154,21,77,84,,116,109,22,10,3,2,0.3,0.2
2025-08-19T2300,2516A,108.2011,24.715,河池市,东仁乐园,,,,,,,,,,,,,,,,
2025-08-19T2300,2517A,108.0497,24.6947,河池市,市环保站,,13,8,13,8,8,40,,42,39,7,10,4,4,0.5,0.5
2025-08-19T2300,2518A,108.0983,24.6989,河池市,市疾控中心,,12,9,9,3,5,38,,43,39,10,11,5,5,0.5,0.5
2025-08-19T2300,1696A,114.6778,23.7569,河源市,源西,,14,14,13,3,4,2,,36,27,21,10,6,5,0.7,0.7
2025-08-19T2300,1697A,114.6944,23.7586,河源市,东埔,,12,11,4,8,7,19,,32,26,10,12,4,5,0.5,0.5
2025-08-19T2300,1698A,114.6892,23.7233,河源市,老城,,16,16,15,3,6,8,,34,22,16,10,5,5,0.6,0.6
2025-08-19T2300,1718A,115.4208,35.2464,菏泽市,气象局,,35,35,41,16,21,97,,136,117,12,10,4,4,0.3,0.3
2025-08-19T2300,3374A,115.5564,35.0891,菏泽市,定陶老年大学,,29,29,35,7,13,80,,121,104,10,9,5,5,0.2,0.3
2025-08-19T2300,4184A,115.4797,35.24401,菏泽市,永昌路1号,,42,42,43,17,22,93,,126,113,12,12,6,7,0.2,0.3
2025-08-19T2300,4193A,115.4715,35.2800,菏泽市,长城路999号,,32,30,37,13,13,102,,138,124,9,9,5,5,0.4,0.5
2025-08-19T2300,2514A,111.5264,24.4172,贺州市,环保小区,,15,15,12,10,6,47,,56,55,9,8,10,11,1.0,0.9
2025-08-19T2300,2515A,111.5608,24.4078,贺州市,政协大楼,,18,14,11,6,7,55,,65,63,9,8,6,8,0.7,0.7
2025-08-19T2300,3534A,111.4744,24.4553,贺州市,西湾,,19,,14,13,6,48,,50,50,11,10,9,9,0.6,0.7
2025-08-19T2300,2385A,114.17,35.9019,鹤壁市,市监测站,,46,42,37,32,25,104,,165,144,14,11,8,6,0.3,0.4
2025-08-19T2300,2386A,114.2956,35.7511,鹤壁市,市交警支队,细颗粒物(PM2.5),55,41,36,39,31,86,,148,122,10,13,6,5,0.4,0.5
2025-08-19T2300,2387A,114.2878,35.7306,鹤壁市,迎宾馆,,44,44,45,23,26,93,,150,126,10,11,4,5,0.6,0.6
2025-08-19T2300,3474A,114.2617,35.6822,鹤壁市,大新区,,46,46,43,24,21,81,,145,120,11,11,5,7,0.6,0.6
2025-08-19T2300,3596A,114.1572,35.9603,鹤壁市,南山宾馆,,49,49,40,25,17,105,,172,148,12,10,4,4,0.7,0.6
2025-08-19T2300,2244A,130.2537,47.3416,鹤岗市,哈啤分公司,,22,22,23,7,10,43,,78,57,3,6,12,12,0.5,0.5
2025-08-19T2300,2245A,130.2684,47.3086,鹤岗市,斯达机电,,26,26,19,10,11,40,,70,55,14,8,13,13,0.6,0.4
2025-08-19T2300,2246A,130.3114,47.3388,鹤岗市,东山纸板厂,,22,21,18,15,14,45,,82,54,11,12,13,13,0.5,0.5
2025-08-19T2300,2247A,130.1097,47.3382,鹤岗市,五号水库,,10,10,9,3,6,12,,69,40,20,10,6,7,0.4,0.4
2025-08-19T2300,2263A,127.4833,50.2524,黑河市,交通局,,19,19,19,10,10,11,,78,33,8,10,4,5,0.4,0.3
2025-08-19T2300,2264A,127.5144,50.2341,黑河市,环保局,,22,22,20,14,12,22,,80,44,9,10,6,6,0.4,0.3
2025-08-19T2300,2265A,127.5291,50.2472,黑河市,大黑河岛,,,,,,,16,,52,33,3,6,21,20,,
2025-08-19T2300,1074A,115.6838,37.7541,衡水市,电机北厂,,30,22,40,3,24,96,,145,121,6,9,6,5,0.0,0.4
2025-08-19T2300,1075A,115.6303,37.7316,衡水市,市监测站,,30,20,40,3,18,93,,140,115,1,4,7,8,0.4,0.6
2025-08-19T2300,3188A,115.6683,37.7217,衡水市,市城管局,,37,37,44,3,24,98,,143,120,3,7,3,3,0.1,0.3
2025-08-19T2300,3459A,115.5989,37.5491,衡水市,地表水厂,,35,35,49,3,13,95,,131,104,1,9,8,9,0.2,0.2
2025-08-19T2300,2456A,112.5003,26.9167,衡阳市,原169医院,,13,13,13,7,4,40,,67,56,3,3,10,4,0.5,0.4
2025-08-19T2300,2457A,112.6194,26.9258,衡阳市,衡阳化工总厂,,15,10,12,7,6,47,,61,55,5,4,3,3,0.7,0.7
2025-08-19T2300,2458A,112.6211,26.8956,衡阳市,珠晖区环保局,,15,10,11,9,9,48,,63,56,5,4,6,7,0.5,0.5
2025-08-19T2300,2459A,112.6197,26.8733,衡阳市,市委党校,,15,12,8,3,5,46,,61,54,7,5,9,10,0.3,0.3
2025-08-19T2300,2460A,112.6006,26.8919,衡阳市,市监测站,,15,,11,6,6,46,,61,55,6,6,3,4,0.5,0.5
2025-08-19T2300,2461A,112.5664,26.9056,衡阳市,真空机电公司,,15,15,14,10,9,36,,62,53,12,6,13,6,1.0,0.8
2025-08-19T2300,3399A,112.6703,26.882,衡阳市,师范学院,,18,,19,12,6,40,,56,48,8,7,8,8,0.7,0.7
2025-08-19T2300,2608A,103.3772,23.3993,红河哈尼族彝族自治州,污水处理厂,,40,30,30,28,23,74,,90,84,10,12,13,19,0.5,0.4
2025-08-19T2300,2609A,103.3861,23.35,红河哈尼族彝族自治州,监测站,,39,39,35,24,17,62,,91,82,4,8,9,19,0.1,0.2
2025-08-19T2300,3038A,103.3758,23.368,红河哈尼族彝族自治州,州图书馆,,32,32,22,22,20,65,,89,83,4,9,2,15,0.3,0.3
2025-08-19T2300,1090A,111.6507,40.7517,呼和浩特市,呼市一监,,34,34,11,19,9,23,,106,78,30,8,1,2,0.9,0.7
2025-08-19T2300,1091A,111.6572,40.8033,呼和浩特市,小召,,35,29,12,24,10,70,,109,95,29,15,9,9,0.7,0.6
2025-08-19T2300,1094A,111.7516,40.8369,呼和浩特市,如意水处理厂,,30,30,14,19,9,45,,128,103,32,12,5,5,0.5,0.4
2025-08-19T2300,1095A,111.7276,40.8062,呼和浩特市,二十九中,,44,44,15,21,10,58,,129,107,30,11,6,6,0.8,0.6
2025-08-19T2300,1096A,111.5512,40.7866,呼和浩特市,工大金川校区,,36,36,14,17,7,22,,110,77,45,14,5,5,0.5,0.5
2025-08-19T2300,1097A,111.717,40.7612,呼和浩特市,化肥厂生活区,,41,41,12,21,7,31,,121,94,40,12,5,5,0.6,0.5
2025-08-19T2300,3698A,111.5968,40.8178,呼和浩特市,红旗小学,,27,27,11,16,8,68,,127,113,26,14,4,4,0.4,0.3
2025-08-19T2300,3699A,111.6518,40.8389,呼和浩特市,海东办,,44,44,16,20,9,28,,133,98,58,17,5,5,0.5,0.4
2025-08-19T2300,2192A,119.7594,49.2261,呼伦贝尔市,区环保局,,49,49,24,23,14,14,,68,49,43,15,6,5,0.9,0.7
2025-08-19T2300,3061A,119.7512,49.1577,呼伦贝尔市,国华电力东,,34,34,18,18,10,11,,77,54,18,5,9,9,0.7,0.6
2025-08-19T2300,1250A,120.0751,30.8669,湖州市,城西水厂,,,28,29,15,17,87,,152,116,,15,7,7,0.4,0.4
2025-08-19T2300,2873A,120.0830,30.8929,湖州市,仁皇山新区,,27,26,30,12,16,86,,151,115,15,14,4,4,0.5,0.5
2025-08-19T2300,2907A,120.1844,30.8596,湖州市,吴兴区站,,27,27,29,11,17,68,,145,110,17,13,7,7,0.7,0.6
2025-08-19T2300,3562A,120.4148,30.8538,湖州市,南浔区站,,24,24,26,15,18,46,,157,118,17,11,6,6,0.6,0.6
2025-08-19T2300,1607A,120.9049,40.7211,葫芦岛市,龙港区,细颗粒物(PM2.5),79,80,60,58,41,62,,117,112,28,12,3,4,0.7,0.7
2025-08-19T2300,1608A,120.8392,40.7514,葫芦岛市,化工街,,25,17,36,17,25,41,,100,92,49,23,7,9,0.6,0.7
2025-08-19T2300,1609A,120.8341,40.7073,葫芦岛市,新区,细颗粒物(PM2.5),54,40,40,38,42,50,,112,107,40,19,3,3,0.8,0.9
2025-08-19T2300,1610A,120.8695,40.7677,葫芦岛市,东城区,细颗粒物(PM2.5),60,,39,43,56,52,,107,98,40,25,3,4,0.7,0.9
2025-08-19T2300,2482A,109.5981,27.5721,怀化市,林科所,,21,21,22,3,5,3,,52,30,4,5,4,4,0.6,0.6
2025-08-19T2300,2483A,109.9453,27.5444,怀化市,河西地税局,,22,22,20,10,10,2,,48,30,13,8,3,3,0.1,0.1
2025-08-19T2300,2484A,109.9781,27.5342,怀化市,市四医院,,44,44,28,11,14,2,,60,35,25,9,4,4,0.4,0.4
2025-08-19T2300,2485A,109.9972,27.5578,怀化市,监测楼,,31,31,25,13,13,10,,57,35,17,9,4,6,0.3,0.3
2025-08-19T2300,2486A,110.0394,27.583,怀化市,市委党校,,,33,22,9,11,,,52,26,18,8,7,7,0.2,0.2
2025-08-19T2300,1210A,119.036,33.5981,淮安市,钵池山,,43,31,35,30,24,118,,146,134,18,14,10,10,0.6,0.6
2025-08-19T2300,1211A,119.007,33.575,淮安市,北京南路,,37,29,37,20,20,117,,138,135,15,13,7,8,0.5,0.7
2025-08-19T2300,1212A,118.989,33.6067,淮安市,市监测站,,42,36,38,24,24,133,,146,144,11,12,9,10,0.5,0.6
2025-08-19T2300,1213A,119.135,33.5039,淮安市,楚州区监测站,颗粒物(PM10),55,59,50,22,21,69,,143,112,44,22,8,9,0.4,0.5
2025-08-19T2300,3426A,118.8755,33.2894,淮安市,新华书店,,29,29,30,20,20,79,,129,111,12,10,6,6,0.3,0.4
2025-08-19T2300,4206A,119.0288,33.6319,淮安市,承德北路606号,,40,39,41,20,23,126,,135,132,14,13,6,7,0.4,0.5
2025-08-19T2300,2282A,116.8004,33.975,淮北市,监测站,,35,35,34,16,17,91,,143,127,15,14,7,7,0.6,0.6
2025-08-19T2300,2283A,116.8091,33.9007,淮北市,烈山区政府,颗粒物(PM10),52,53,54,9,17,72,,141,116,18,13,9,9,0.5,0.5
2025-08-19T2300,3330A,116.8873,33.9836,淮北市,杜集区检察院,,37,37,34,20,20,80,,141,117,11,9,8,8,0.6,0.6
2025-08-19T2300,4017A,116.7923,33.9535,淮北市,市博物馆,,35,35,36,15,20,88,,143,124,11,11,9,10,0.4,0.5
2025-08-19T2300,2277A,116.8305,32.7727,淮南市,潘集区政府,,29,28,25,20,16,75,,100,92,13,11,3,3,0.3,0.2
2025-08-19T2300,2279A,116.8569,32.5951,淮南市,谢家集区政府,,28,28,32,14,16,71,,100,91,9,11,6,7,0.1,0.1
2025-08-19T2300,2280A,116.8281,32.633,淮南市,八公山区政府,,28,28,26,11,12,72,,101,89,9,9,4,4,0.2,0.3
2025-08-19T2300,2281A,116.6325,32.6201,淮南市,焦岗湖风景区管理处,,,,,,,,,,,,,,,,
2025-08-19T2300,2894A,117.0566,32.6531,淮南市,经济技术开发区消防队,,30,30,21,3,6,77,,105,97,16,10,9,9,0.2,0.2
2025-08-19T2300,3329A,117.0108,32.5893,淮南市,山南新区,,,11,19,6,7,,,106,101,17,9,5,5,0.5,0.5
2025-08-19T2300,4209A,117.0031,32.6445,淮南市,国庆中路369号,,27,20,24,12,14,85,,108,104,10,7,3,3,0.3,0.4
2025-08-19T2300,2446A,114.9028,30.4742,黄冈市,职工中心,,,21,28,13,18,,,163,128,17,16,10,10,0.4,0.6
2025-08-19T2300,2929A,114.8858,30.4519,黄冈市,红卫路,,32,32,31,17,20,52,,154,101,24,21,10,11,0.2,0.3
2025-08-19T2300,3398A,114.9136,30.4445,黄冈市,市林业局,,37,37,36,14,16,58,,153,106,21,24,9,10,0.3,0.5
2025-08-19T2300,2672A,102.0199,35.5102,黄南藏族自治州,同仁县隆务镇,,32,32,25,22,9,71,,110,100,8,6,10,10,0.3,0.3
2025-08-19T2300,2295A,118.2903,29.6963,黄山市,延安路89号,,28,28,24,10,9,28,,80,58,9,6,4,4,0.4,0.4
2025-08-19T2300,2297A,118.1371,30.2756,黄山市,黄山区政府5号楼,,39,34,27,27,14,24,,67,47,5,5,4,4,0.5,0.4
2025-08-19T2300,4210A,118.3354,29.7203,黄山市,滨江东路7-2号,,25,25,23,12,11,35,,81,49,6,7,2,2,0.4,0.3
2025-08-19T2300,2423A,115.0601,30.2313,黄石市,沈家营,,40,40,43,12,13,44,,123,76,21,18,13,8,0.5,0.4
2025-08-19T2300,2426A,114.8988,30.2019,黄石市,铁山,,28,28,32,14,11,23,,107,71,27,11,4,7,0.6,0.6
2025-08-19T2300,2427A,115.0307,30.2092,黄石市,团城山,,23,23,29,3,6,63,,126,90,4,9,8,10,0.5,0.6
2025-08-19T2300,3149A,115.0235,30.1578,黄石市,笔架山北路,,25,25,22,7,5,46,,95,76,13,9,6,8,0.4,0.5
2025-08-19T2300,4185A,115.0780,30.21118,黄石市,磁湖东路29号,,37,37,46,7,14,63,,112,78,1,16,9,12,0.5,0.6
2025-08-19T2300,1392A,114.4183,23.0528,惠州市,河南岸金山湖子站,,25,25,11,15,5,7,,27,18,22,14,7,6,0.6,0.5
2025-08-19T2300,1393A,114.4053,23.0822,惠州市,下埔横江三路子站,,26,26,12,14,7,15,,29,21,17,12,5,5,0.5,0.4
2025-08-19T2300,1394A,114.4103,23.1142,惠州市,江北云山西路子站,,22,22,11,13,5,13,,31,23,25,16,8,9,0.6,0.5
2025-08-19T2300,1395A,114.4645,22.7833,惠州市,惠阳区承修路船湖子站,,14,14,14,8,6,32,,37,29,10,12,7,6,0.5,0.5
2025-08-19T2300,1396A,114.5317,22.7422,惠州市,大亚湾管委会子站,,12,11,11,8,8,19,,39,29,20,12,8,7,0.4,0.4
2025-08-19T2300,3314A,114.4338,22.8134,惠州市,惠阳秋长,,17,17,11,9,8,22,,42,22,23,17,6,6,0.5,0.5
2025-08-19T2300,3452A,114.6517,22.775,惠州市,大亚湾霞涌,,13,13,11,8,4,14,,46,25,18,10,5,5,0.5,0.6
2025-08-19T2300,2240A,130.9762,45.3001,鸡西市,环保局,,33,33,22,17,12,31,,71,61,18,14,7,6,0.5,0.5
2025-08-19T2300,2243A,130.9429,45.3039,鸡西市,第一中学,,18,18,19,10,12,36,,71,62,18,12,8,8,0.6,0.6
2025-08-19T2300,3707A,131.0207,45.3073,鸡西市,欧美日汽修厂,,28,,23,19,16,32,,63,50,15,18,10,10,0.7,0.7
2025-08-19T2300,3709A,130.9967,45.3106,鸡西市,市政设施管理处,,20,20,22,11,13,31,,63,51,24,22,8,8,0.6,0.6
2025-08-19T2300,2367A,114.9754,27.0803,吉安市,红声器材厂,,15,10,17,3,5,45,,62,57,3,4,8,8,0.5,0.5
2025-08-19T2300,2368A,114.9658,27.0999,吉安市,市森林工业局,,14,13,15,3,5,43,,61,56,2,4,7,7,0.4,0.3
2025-08-19T2300,2369A,114.99,27.1312,吉安市,市环境监测站,,16,11,14,3,4,49,,68,64,1,1,11,11,0.5,0.5
2025-08-19T2300,2370A,115.0093,27.0968,吉安市,青原区法院,,16,10,13,3,4,49,,62,58,4,5,8,8,0.5,0.6
2025-08-19T2300,1772A,126.54,43.8622,吉林市,哈达湾,,45,45,28,19,19,52,,115,97,30,10,8,7,0.5,0.5
2025-08-19T2300,1773A,126.5844,43.8358,吉林市,东局子,颗粒物(PM10),52,53,30,24,22,2,,97,62,53,17,6,6,1.6,1
2025-08-19T2300,1774A,126.5052,43.8245,吉林市,电力学院,,45,45,31,24,21,24,,110,71,24,11,6,6,0.8,0.8
2025-08-19T2300,1775A,126.6133,43.8972,吉林市,江北,,32,30,31,22,22,25,,106,59,20,10,6,5,0.9,0.9
2025-08-19T2300,1776A,126.555,43.8306,吉林市,江南公园,,39,39,34,20,24,19,,110,76,38,13,2,2,0.6,0.6
2025-08-19T2300,1778A,126.7061,43.7133,吉林市,丰满,,26,20,23,18,21,61,,139,101,5,5,5,6,0.8,1
2025-08-19T2300,2868A,126.4739,43.953,吉林市,九站,,32,,36,22,21,12,,116,71,54,19,4,5,0.5,0.5
2025-08-19T2300,1299A,116.9862,36.6114,济南市,科干所,,36,31,30,15,20,114,,127,124,9,8,6,6,0.3,0.5
2025-08-19T2300,1300A,116.9376,36.665,济南市,农科所,,34,27,34,17,16,107,,125,119,13,12,8,8,0.3,0.3
2025-08-19T2300,1301A,117.1265,36.6734,济南市,开发区,,35,24,26,22,21,112,,125,121,7,9,8,8,0.5,0.6
2025-08-19T2300,1303A,117.0624,36.6868,济南市,省种子仓库,,34,29,33,14,15,108,,126,122,8,8,5,5,0.5,0.6
2025-08-19T2300,1304A,116.9489,36.6447,济南市,机床二厂,,34,29,34,15,15,107,,128,124,9,10,10,10,0.4,0.4
2025-08-19T2300,1305A,117.0495,36.663,济南市,市监测站,,34,24,29,12,17,107,,120,118,7,8,9,9,0.6,0.6
2025-08-19T2300,1306A,116.7675,36.5484,济南市,长清党校,,30,27,33,17,23,96,,131,121,19,11,5,5,0.7,0.7
2025-08-19T2300,1616A,117.6795,36.229,济南市,技术学院,,36,36,37,22,24,100,,127,123,18,16,24,13,0.7,0.8
2025-08-19T2300,1961A,117.532,36.6868,济南市,东山小学,,32,29,36,17,21,102,,129,111,13,13,6,7,0.2,0.3
2025-08-19T2300,3059A,117.7161,36.2049,济南市,泰兴公司,,39,39,40,22,26,93,,107,,23,19,26,15,0.7,0.6
2025-08-19T2300,3064A,117.6867,36.2171,济南市,莱芜战役纪念馆,,44,44,37,18,25,87,,128,114,23,16,13,8,0.7,0.8
2025-08-19T2300,3494A,117.1673,36.9782,济南市,济阳区政府,颗粒物(PM10),55,59,53,15,25,86,,137,116,19,18,8,7,0.3,0.4
2025-08-19T2300,3495A,117.1171,36.63,济南市,锦屏中学,,35,27,26,10,16,109,,120,117,9,9,9,9,0.6,0.6
2025-08-19T2300,3682A,116.9814,36.6819,济南市,济南四建,,36,22,30,15,19,113,,135,129,6,6,6,6,0.5,0.5
2025-08-19T2300,1653A,116.6251,35.4302,济宁市,火炬城,,35,35,35,17,16,84,,118,98,8,6,5,4,0.6,0.6
2025-08-19T2300,1655A,116.5491,35.4042,济宁市,电化厂,,41,41,35,22,17,91,,128,108,12,7,6,2,1.0,0.9
2025-08-19T2300,3500A,116.5814,35.3707,济宁市,北湖一中,,31,31,34,8,15,94,,125,108,4,3,6,6,0.4,0.3
2025-08-19T2300,3501A,116.8249,35.5593,济宁市,服务中心,,37,37,39,14,14,82,,120,103,11,8,2,2,0.5,0.6
2025-08-19T2300,3678A,116.5907,35.4054,济宁市,市第七中学,,33,33,36,12,10,95,,123,108,6,5,7,7,0.5,0.5
2025-08-19T2300,2255A,130.2751,46.8028,佳木斯市,佳纺,,19,19,20,10,9,42,,65,47,9,12,9,9,0.4,0.4
2025-08-19T2300,2256A,130.3995,46.8307,佳木斯市,发电厂,,15,11,18,8,9,47,,68,59,8,13,8,7,0.6,0.6
2025-08-19T2300,2257A,130.3258,46.7975,佳木斯市,环保局,,22,22,19,9,10,42,,65,49,12,14,9,8,0.6,0.6
2025-08-19T2300,2258A,130.3648,46.8032,佳木斯市,十一中,,14,13,13,8,8,43,,67,58,8,10,9,9,0.6,0.6
2025-08-19T2300,2259A,130.3794,46.7588,佳木斯市,四丰,,,12,10,,,5,,6,6,20,15,1,33,0.5,0.4
2025-08-19T2300,1252A,120.7436,30.778,嘉兴市,清河小学,,29,29,27,13,10,43,,143,105,15,12,6,6,0.7,0.7
2025-08-19T2300,1253A,120.726,30.7478,嘉兴市,嘉兴学院,,28,28,27,13,12,39,,148,105,14,10,5,5,0.3,0.3
2025-08-19T2300,2872A,120.7846,30.7525,嘉兴市,南湖区残联,,27,27,24,15,13,36,,146,103,16,12,7,6,0.5,0.5
2025-08-19T2300,3407A,120.6916,30.7739,嘉兴市,秀洲住建,,26,26,24,12,13,45,,151,108,15,12,6,6,0.6,0.6
2025-08-19T2300,1945A,98.2908,39.7711,嘉峪关市,气象局,,41,41,274,14,33,108,,126,121,5,9,6,22,0.5,0.5
2025-08-19T2300,2884A,98.2672,39.7978,嘉峪关市,酒钢宾馆,,44,44,294,17,37,128,,140,134,2,9,11,24,0.6,0.8
2025-08-19T2300,3248A,98.2643,39.7724,嘉峪关市,雄关区,,39,39,207,18,38,101,,117,109,10,14,10,17,0.3,0.5
2025-08-19T2300,1383A,113.1064,22.6058,江门市,北街,,17,17,20,8,13,26,,39,28,13,25,3,3,0.4,0.5
2025-08-19T2300,1384A,113.0731,22.5835,江门市,西区,,23,23,18,8,7,34,,52,38,14,24,6,6,0.4,0.5
2025-08-19T2300,1385A,113.0219,22.5311,江门市,圭峰西,,26,26,21,7,11,31,,51,34,12,14,2,2,0.6,0.6
2025-08-19T2300,1386A,113.0828,22.5947,江门市,东湖,,20,20,19,10,12,24,,37,28,12,20,7,7,0.4,0.5
2025-08-19T2300,3311A,113.1075,22.5647,江门市,江海富民,,43,43,35,12,12,36,,54,40,12,21,9,9,0.2,0.4
2025-08-19T2300,3449A,113.05,22.4667,江门市,新会银湖,,17,17,17,10,11,15,,28,19,18,18,1,2,0.5,0.5
2025-08-19T2300,1830A,113.1992,35.2590,焦作市,影视城,,,,18,,13,,,,,,4,,8,,0.6
2025-08-19T2300,3335A,113.3137,35.2641,焦作市,马村街道办,,50,50,47,14,25,97,,147,130,13,13,5,6,0.5,0.5
2025-08-19T2300,3336A,113.2465,35.2373,焦作市,焦作技师学院,,,52,45,17,15,,,143,140,15,14,4,6,0.7,0.6
2025-08-19T2300,3477A,113.1656,35.2539,焦作市,中站许衡医院,,40,34,37,28,23,109,,153,137,12,11,5,6,0.5,0.5
2025-08-19T2300,3981A,113.2449,35.1803,焦作市,原李万街道办,,43,43,35,14,14,93,,151,132,13,15,10,9,0.3,0.2
2025-08-19T2300,4264A,113.2340,35.2190,焦作市,新安路1731号,,46,46,43,14,18,106,,154,138,11,10,4,5,0.3,0.3
2025-08-19T2300,4295A,113.2722,35.2121,焦作市,人民路3066号,,43,43,43,19,21,96,,150,131,15,12,4,5,0.4,0.3
2025-08-19T2300,1708A,116.3701,23.5345,揭阳市,新兴,,31,31,19,10,9,3,,46,18,37,18,14,7,0.5,0.3
2025-08-19T2300,1709A,116.3264,23.5443,揭阳市,西马,,29,29,19,10,8,2,,47,14,24,15,3,4,0.7,0.6
2025-08-19T2300,1710A,116.3611,23.5626,揭阳市,东兴,,23,23,22,8,7,4,,43,14,24,17,5,6,0.6,0.5
2025-08-19T2300,1711A,116.4151,23.5294,揭阳市,渔湖,,24,24,16,3,7,1,,43,15,34,19,9,6,0.7,0.5
2025-08-19T2300,3320A,116.403,23.5699,揭阳市,曲溪,,20,20,19,9,7,8,,42,18,21,16,10,7,0.5,0.4
2025-08-19T2300,1944A,102.1692,38.5167,金昌市,天庆家园,颗粒物(PM10),63,75,63,17,25,62,,102,90,16,18,3,12,1.0,0.9
2025-08-19T2300,4022A,102.1647,38.5371,金昌市,金川区人防中心,颗粒物(PM10),55,60,64,19,37,69,,114,99,13,13,7,9,0.9,0.7
2025-08-19T2300,4239A,102.1930,38.5319,金昌市,长春路96号,颗粒物(PM10),59,67,66,18,21,66,,109,95,18,11,12,11,0.5,0.5
2025-08-19T2300,1262A,119.647,29.077,金华市,十五中,,25,21,26,13,13,78,,122,109,6,12,3,5,0.3,0.2
2025-08-19T2300,1263A,119.686,29.1029,金华市,监测站,,25,18,23,11,11,77,,129,,9,10,4,4,0.4,0.4
2025-08-19T2300,3659A,119.656,29.1131,金华市,气象局,,24,15,24,7,11,75,,130,112,8,11,3,3,0.4,0.3
2025-08-19T2300,1767A,121.1115,41.0879,锦州市,南山,,27,27,37,12,33,75,,92,86,7,17,4,5,0.6,0.9
2025-08-19T2300,1768A,121.0604,40.8428,锦州市,开发区,,44,44,50,15,27,64,,98,93,29,27,3,6,0.8,1
2025-08-19T2300,1769A,121.1836,41.1119,锦州市,百股街道,,29,29,37,14,26,83,,104,98,10,16,5,7,0.7,1
2025-08-19T2300,1770A,121.1178,41.1222,锦州市,天安街道,,36,36,42,17,32,88,,103,95,12,21,5,7,0.9,1.2
2025-08-19T2300,1771A,121.1303,41.1386,锦州市,北湖公园,,30,30,46,16,31,80,,92,87,9,16,3,5,0.8,1.1
2025-08-19T2300,2160A,112.85,35.5051,晋城市,自来水公司,,49,49,40,19,19,114,,151,144,11,11,2,2,0.4,0.3
2025-08-19T2300,2161A,112.8318,35.4936,晋城市,白云商贸,,,72,31,14,13,104,,127,,,11,6,4,0.1,0.5
2025-08-19T2300,2162A,112.8508,35.4887,晋城市,市环保局,颗粒物(PM10),51,52,33,19,17,96,,132,123,10,9,4,4,0.5,0.4
2025-08-19T2300,2163A,112.8676,35.4897,晋城市,技术学院,颗粒物(PM10),58,66,41,24,16,102,,132,126,11,10,5,5,0.6,0.6
2025-08-19T2300,2165A,112.8453,35.546,晋城市,白马寺,,42,,23,29,20,116,,151,145,7,5,7,7,0.6,0.6
2025-08-19T2300,3620A,112.8271,35.4828,晋城市,泽州一中,,34,32,39,22,16,107,,147,141,11,8,8,8,0.6,0.5
2025-08-19T2300,2173A,112.7249,37.7067,晋中市,南都小区,,33,33,37,18,21,88,,131,101,9,9,4,6,0.6,0.6
2025-08-19T2300,2174A,112.6991,37.6982,晋中市,榆次区政府,,28,17,33,16,20,88,,135,102,11,8,5,6,0.8,0.9
2025-08-19T2300,2865A,112.7195,37.6828,晋中市,榆次三中,,28,12,33,9,17,89,,132,102,5,8,6,8,0.4,0.6
2025-08-19T2300,4200A,112.7478,37.6954,晋中市,迎宾街26号,,29,12,32,7,15,91,,133,101,6,8,7,9,0.4,0.5
2025-08-19T2300,2439A,112.2014,31.0481,荆门市,竹园小学,,25,19,34,14,19,77,,114,89,10,13,1,2,0.3,0.5
2025-08-19T2300,2440A,112.1969,30.9891,荆门市,掇刀,,22,22,34,14,22,65,,113,84,11,12,2,2,0.5,0.5
2025-08-19T2300,2441A,112.2213,31.0386,荆门市,石化一小,,23,22,34,15,19,72,,112,86,15,14,6,6,0.8,0.8
2025-08-19T2300,3012A,112.1849,31.0362,荆门市,西山林语,,23,23,30,12,18,62,,105,82,8,7,9,8,0.4,0.4
2025-08-19T2300,3547A,112.1632,31.0138,荆门市,龙泉中学南校,,26,26,36,15,19,57,,111,81,10,13,4,4,0.7,0.7
2025-08-19T2300,1844A,112.2494,30.3197,荆州市,市图书馆,,22,10,20,6,12,69,,84,76,9,10,2,3,0.7,0.5
2025-08-19T2300,1845A,112.2008,30.3544,荆州市,市委党校,,22,17,21,15,13,69,,82,76,15,16,4,5,0.3,0.4
2025-08-19T2300,3194A,112.2747,30.3122,荆州市,管委会,,21,20,19,6,14,66,,81,75,12,13,6,7,0.5,0.5
2025-08-19T2300,4268A,112.1722,30.3366,荆州市,学苑路85号,,26,,21,18,18,66,,84,75,13,20,5,6,0.4,0.5
2025-08-19T2300,2342A,117.3102,29.3867,景德镇市,王港中学,,,,,,,,,,,,,,,,
2025-08-19T2300,2343A,117.2117,29.2933,景德镇市,老干部活动中心,,27,27,27,15,14,42,,88,68,15,14,6,9,0.6,0.6
2025-08-19T2300,2344A,117.1894,29.2789,景德镇市,兽医站,,24,24,28,14,13,44,,86,64,9,10,4,7,0.7,0.7
2025-08-19T2300,2346A,117.2461,29.2956,景德镇市,陶研所,,22,22,25,12,15,36,,94,66,11,11,9,10,0.5,0.8
2025-08-19T2300,4289A,117.1542,29.2566,景德镇市,青少年活动中心,,19,16,34,13,20,48,,79,65,16,19,13,12,0.4,0.6
2025-08-19T2300,1803A,115.9872,29.6815,九江市,十里,,26,,19,18,15,63,,86,83,10,13,4,4,0.5,0.5
2025-08-19T2300,1804A,115.9584,29.7046,九江市,茅山头,,19,6,15,3,10,58,,73,70,9,8,6,4,0.5,0.5
2025-08-19T2300,1805A,115.9877,29.7295,九江市,西园,,21,17,16,11,9,67,,98,89,20,23,6,7,0.3,0.4
2025-08-19T2300,1808A,115.9114,29.6038,九江市,综合工业园,,25,,16,3,8,80,,90,88,5,14,7,7,0.6,0.6
2025-08-19T2300,1809A,116.0721,29.7535,九江市,石化总厂,,20,14,20,13,10,61,,96,88,12,10,8,7,0.4,0.4
2025-08-19T2300,1810A,115.9773,29.5698,九江市,庐山气象台,,25,6,8,3,3,77,,93,91,4,4,6,6,0.8,0.8
2025-08-19T2300,3190A,116.0254,29.6994,九江市,外国语学校,,19,11,13,8,10,59,,94,89,12,8,10,9,0.7,0.6
2025-08-19T2300,4253A,116.0102,29.6594,九江市,莲花大道8号,,20,,11,8,11,61,,91,88,2,4,4,5,0.4,0.4
2025-08-19T2300,4240A,98.4958,39.7339,酒泉市,玉门东路5号,颗粒物(PM10),111,171,270,46,58,102,,117,112,4,7,6,30,0.1,0.2
2025-08-19T2300,4241A,98.5099,39.7506,酒泉市,北大街108号,颗粒物(PM10),70,90,285,32,56,96,,110,106,4,5,8,40,0.2,0.3
2025-08-19T2300,2698A,76.0072,39.4467,喀什地区,巡警大队,颗粒物(PM10),130,210,110,50,38,67,,134,124,58,32,4,4,0.5,0.6
2025-08-19T2300,2699A,75.9755,39.4694,喀什地区,吾办,颗粒物(PM10),72,93,109,35,37,68,,132,125,51,29,8,8,0.7,0.5
2025-08-19T2300,4027A,75.9483,39.4689,喀什地区,老干局,颗粒物(PM10),64,77,90,21,27,100,,132,130,24,22,5,5,0.1,0.1
2025-08-19T2300,1824A,114.3389,34.7781,开封市,肿瘤医院,,26,26,45,13,18,71,,144,120,14,15,3,3,0.4,0.5
2025-08-19T2300,1826A,114.2885,34.7965,开封市,世纪星幼儿园,,26,26,45,10,19,73,,148,123,10,11,3,3,0.5,0.6
2025-08-19T2300,3147A,114.3438,34.8106,开封市,龙亭公园,,,25,45,,18,68,,142,118,8,7,4,4,0.7,0.8
2025-08-19T2300,3210A,114.3644,34.7964,开封市,汴京公园,,34,34,47,18,20,71,,154,139,9,10,3,3,0.5,0.6
2025-08-19T2300,3473A,114.2485,34.8306,开封市,技师学院,,30,30,38,12,20,68,,144,120,6,6,5,5,0.9,0.9
2025-08-19T2300,3592A,114.4644,34.7556,开封市,祥符区生态环境局,,27,27,37,12,19,63,,132,106,14,15,2,3,0.5,0.6
2025-08-19T2300,1951A,84.895,45.6094,克拉玛依市,长征新村,,24,18,12,7,5,75,,91,87,10,4,3,3,0.2,0.2
2025-08-19T2300,1952A,84.8988,45.5893,克拉玛依市,南林小区,,32,32,16,18,6,69,,92,82,8,4,5,5,0.2,0.1
2025-08-19T2300,1954A,84.905,44.3396,克拉玛依市,独山子区,,28,24,14,6,6,89,,108,103,10,7,8,9,0.3,0.4
2025-08-19T2300,1955A,85.6979,46.098,克拉玛依市,乌尔禾区商贸楼,,29,22,17,11,10,91,,98,96,12,9,6,6,0.3,0.3
2025-08-19T2300,3612A,85.1045,45.6899,克拉玛依市,白碱滩区新站,,27,25,27,10,13,86,,100,98,4,5,8,8,0.4,0.4
2025-08-19T2300,2697A,76.1454,39.7142,克孜勒苏柯尔克孜自治州,市人民政府,,50,50,65,17,26,82,,124,119,40,14,4,9,0.2,0.1
2025-08-19T2300,3665A,76.1658,39.7157,克孜勒苏柯尔克孜自治州,克州文化中心,,38,38,59,15,27,85,,128,123,38,10,6,12,0.2,0.2
2025-08-19T2300,1450A,102.8204,24.8886,昆明市,呈贡新区,,39,,13,27,21,22,,85,63,35,16,3,4,0.5,0.4
2025-08-19T2300,1451A,102.6251,24.9608,昆明市,西山森林公园,,,,,,,,,,,,,,,,
2025-08-19T2300,1452A,102.7252,25.0902,昆明市,龙泉镇,,27,27,27,12,11,8,,66,42,27,16,1,2,0.5,0.4
2025-08-19T2300,1453A,102.7266,25.0375,昆明市,东风东路,,40,40,28,23,14,5,,72,49,48,19,3,3,0.7,0.4
2025-08-19T2300,1454A,102.6742,25.0669,昆明市,金鼎山,,,33,23,11,10,,,68,,28,14,1,1,,0.3
2025-08-19T2300,1455A,102.6644,25.0401,昆明市,碧鸡广场,,29,29,20,8,7,20,,68,52,26,16,7,7,0.5,0.4
2025-08-19T2300,3179A,102.7494,25.0119,昆明市,官渡区博物馆,,,45,24,16,12,,,71,,56,24,1,1,0.6,0.5
2025-08-19T2300,3375A,102.8017,24.8336,昆明市,青年创业园,,39,39,26,22,18,1,,90,59,42,12,3,3,0.8,0.5
2025-08-19T2300,3550A,102.7997,24.9786,昆明市,昆明学院,颗粒物(PM10),51,52,29,31,17,1,,76,49,45,19,7,7,0.5,0.3
2025-08-19T2300,3551A,102.5967,24.6736,昆明市,晋宁区生态环境分局,,48,48,26,29,16,23,,72,54,19,11,2,3,0.6,0.5
2025-08-19T2300,3552A,102.6678,24.9856,昆明市,云天化总部,,38,38,28,18,20,3,,75,49,49,17,5,4,0.5,0.3
2025-08-19T2300,1456A,91.1319,29.6514,拉萨市,八廓街,,20,9,9,3,6,62,,80,74,10,10,6,6,0.3,0.3
2025-08-19T2300,1457A,91.1221,29.6747,拉萨市,市环保局,,19,15,15,7,6,59,,80,74,9,7,8,7,0.2,0.4
2025-08-19T2300,1458A,91.0874,29.6475,拉萨市,区监测站,,22,8,7,3,6,68,,78,75,7,8,4,4,0.3,0.4
2025-08-19T2300,1459A,91.1774,29.6541,拉萨市,西藏大学,,18,11,8,7,6,57,,79,74,13,10,6,6,0.3,0.2
2025-08-19T2300,1460A,90.9798,29.6588,拉萨市,区辐射站,,18,12,8,6,6,57,,70,67,9,9,4,5,0.3,0.3
2025-08-19T2300,1461A,91.0834,29.6292,拉萨市,拉萨火车站,,21,8,7,6,5,65,,74,72,4,5,5,5,0.2,0.2
2025-08-19T2300,2520A,109.2203,23.7256,来宾市,来宾技工学校,,11,7,14,7,8,34,,54,39,4,7,7,7,0.6,0.6
2025-08-19T2300,3535A,109.1781,23.7297,来宾市,兴宾区政府,,14,14,15,9,7,33,,58,42,8,7,8,10,0.6,0.6
2025-08-19T2300,4002A,109.2416,23.7461,来宾市,中南小学,,11,6,12,3,5,34,,57,44,5,6,7,6,0.5,0.5
2025-08-19T2300,1477A,104.1373,35.9454,兰州市,榆中兰大校区,,,,,,,,,,,,,,,,
2025-08-19T2300,1479A,103.831,36.0464,兰州市,铁路设计院,颗粒物(PM10),71,92,49,34,26,9,,137,84,75,38,9,9,0.7,0.6
2025-08-19T2300,3241A,103.7439,36.0842,兰州市,百合公园,,48,48,30,21,14,32,,139,102,40,19,1,4,0.4,0.4
2025-08-19T2300,3242A,103.9611,35.998,兰州市,和平,,28,28,24,14,17,63,,137,105,9,13,6,8,0.2,0.7
2025-08-19T2300,4236A,103.6293,36.0938,兰州市,庄浪东路808号,,46,46,37,24,16,34,,148,93,63,28,12,12,0.5,0.3
2025-08-19T2300,4237A,103.7251,36.1043,兰州市,安宁西路88号,颗粒物(PM10),54,58,31,25,17,40,,164,128,44,14,6,6,0.5,0.4
2025-08-19T2300,4238A,103.8470,36.0676,兰州市,北滨河东路1号,,44,44,27,25,17,45,,157,111,40,25,8,8,0.4,0.5
2025-08-19T2300,3245A,103.6633,36.533,兰州新区,新区管委会,,32,31,30,22,18,66,,141,112,18,8,6,12,0.4,0.4
2025-08-19T2300,3246A,103.6975,36.4789,兰州新区,舟曲中学,,28,28,24,10,13,83,,131,108,19,12,7,13,0.3,0.4
2025-08-19T2300,1067A,116.6708,39.5111,廊坊市,药材公司,,28,24,29,8,14,89,,87,85,9,14,3,3,0.3,0.4
2025-08-19T2300,1068A,116.7214,39.5589,廊坊市,开发区,,28,11,26,8,14,89,,82,81,10,16,2,3,0.3,0.4
2025-08-19T2300,1070A,116.7244,39.5269,廊坊市,北华航天学院,,30,22,40,11,18,93,,88,88,5,15,3,4,0.3,0.4
2025-08-19T2300,2919A,116.7022,39.5453,廊坊市,河北工业大学,,29,28,40,7,13,91,,88,86,9,16,4,4,0.4,0.4
2025-08-19T2300,2535A,103.7723,29.5462,乐山市,花湖湾,,36,34,15,25,12,78,,118,110,20,9,2,2,0.6,0.4
2025-08-19T2300,2536A,103.7627,29.5844,乐山市,牛耳桥,,35,35,19,20,12,44,,129,107,35,11,5,5,0.7,0.6
2025-08-19T2300,2537A,103.7508,29.6006,乐山市,市第三水厂,,32,32,17,11,12,35,,125,105,37,14,3,3,0.8,0.7
2025-08-19T2300,2538A,103.7571,29.5664,乐山市,市监测站,,32,32,19,22,11,81,,116,106,15,9,7,6,0.9,0.7
2025-08-19T2300,3361A,103.7311,29.5628,乐山市,理工大学,,32,32,18,18,11,75,,126,106,16,10,7,6,0.8,0.7
2025-08-19T2300,2598A,100.2143,26.8576,丽江市,西南郊,,20,,25,14,16,30,,62,48,19,11,7,6,1.1,1.1
2025-08-19T2300,2599A,100.2497,26.8802,丽江市,丽江古城,,38,38,20,16,12,33,,63,49,15,14,9,9,0.7,0.5
2025-08-19T2300,2600A,100.2203,26.8906,丽江市,市中心,,,,15,24,12,36,,54,44,17,14,10,11,0.5,0.7
2025-08-19T2300,1267A,119.914,28.4514,丽水市,监测站大楼,,20,20,16,10,8,44,,94,67,10,8,4,4,0.4,0.3
2025-08-19T2300,1268A,119.93,28.4586,丽水市,莲都小学,,29,29,17,17,8,52,,90,68,18,9,4,3,0.4,0.3
2025-08-19T2300,1269A,119.879,28.4231,丽水市,余庄前,,29,27,17,20,10,1,,112,56,11,9,4,5,0.4,0.4
2025-08-19T2300,1173A,119.176,34.5885,连云港市,市环境监测站,,36,36,32,19,16,96,,158,130,13,10,1,2,0.5,0.5
2025-08-19T2300,3000A,119.3581,34.6972,连云港市,德源药业,,34,34,30,17,16,97,,152,121,16,13,4,4,0.8,0.6
2025-08-19T2300,3007A,119.178,34.844,连云港市,新城一中,,33,33,30,20,17,96,,155,131,25,13,3,4,1.3,1.2
2025-08-19T2300,3008A,119.3608,34.7519,连云港市,胡沟管理处,臭氧1小时,77,27,24,7,14,181,,149,146,10,11,8,9,1.0,0.5
2025-08-19T2300,3009A,119.1478,34.5911,连云港市,矿山设计院,,36,36,32,24,18,96,,145,122,13,10,4,4,0.7,0.7
2025-08-19T2300,3434A,119.2413,34.6539,连云港市,工贸学校,,33,30,30,22,19,104,,148,135,10,7,7,7,0.8,0.8
2025-08-19T2300,3664A,119.4172,34.7341,连云港市,连云街道,,40,35,31,18,19,127,,156,143,6,8,4,5,0.9,0.7
2025-08-19T2300,2571A,102.3431,27.8099,凉山彝族自治州,青龙寺,,21,21,16,7,7,38,,93,74,8,7,2,4,0.5,0.6
2025-08-19T2300,2572A,102.2721,27.8415,凉山彝族自治州,邛海宾馆,,21,21,17,13,10,49,,92,78,14,12,10,11,0.6,0.6
2025-08-19T2300,2573A,102.2625,27.898,凉山彝族自治州,西昌市政府,,15,14,17,7,14,48,,95,82,8,12,9,11,0.6,0.6
2025-08-19T2300,2574A,102.2685,27.8851,凉山彝族自治州,凉山州政府,,26,26,25,18,15,48,,91,78,14,19,11,14,0.7,0.8
2025-08-19T2300,4229A,102.2342,27.8859,凉山彝族自治州,凯乐南路30号,,23,23,21,15,10,49,,93,80,15,15,14,16,0.7,0.8
2025-08-19T2300,2212A,123.2,41.1953,辽阳市,宏伟区,,20,12,27,3,17,64,,117,87,5,9,2,2,0.7,0.8
2025-08-19T2300,2213A,123.1683,41.2495,辽阳市,新华园,,21,16,36,6,17,65,,129,89,11,13,5,6,0.5,0.8
2025-08-19T2300,2214A,123.2354,41.2639,辽阳市,滨河路,,25,25,30,11,16,52,,120,81,11,8,3,3,0.5,0.7
2025-08-19T2300,2215A,123.149,41.2991,辽阳市,铁西工业园,,23,23,46,3,20,54,,119,86,7,12,2,4,0.8,1.2
2025-08-19T2300,2227A,125.1358,42.8845,辽源市,环保局,,44,44,42,21,19,97,,132,110,6,5,8,8,0.7,0.8
2025-08-19T2300,3239A,125.0764,42.9078,辽源市,银鹰制药,,49,48,33,34,24,85,,134,103,13,12,8,8,0.9,0.8
2025-08-19T2300,1625A,115.9848,36.4372,聊城市,区政府,,30,29,36,16,19,93,,140,115,12,10,10,10,0.8,0.8
2025-08-19T2300,2878A,116.0072,36.4343,聊城市,聊大东校,,39,39,44,14,19,86,,134,112,15,42,8,8,0.4,0.5
2025-08-19T2300,3200A,115.9819,36.4978,聊城市,监控中心,,31,31,38,12,17,97,,141,118,10,9,7,7,0.6,0.6
2025-08-19T2300,3513A,116.0445,36.4361,聊城市,九州社区,,38,38,41,18,20,86,,140,115,13,10,5,4,0.2,0.3
2025-08-19T2300,4018A,116.0567,36.4608,聊城市,星美广场,,32,32,37,13,17,95,,149,124,10,8,2,3,0.5,0.6
2025-08-19T2300,2632A,94.3681,29.6376,林芝市,林芝监测站,,10,8,5,7,4,20,,55,36,6,4,6,6,0.4,0.4
2025-08-19T2300,2633A,94.3616,29.6616,林芝市,林芝人民医院,,12,12,10,8,5,16,,54,34,6,4,8,7,0.5,0.4
2025-08-19T2300,2603A,100.0781,23.8982,临沧市,市环保局,细颗粒物(PM2.5),64,,22,46,18,25,,54,46,12,9,3,8,0.4,0.4
2025-08-19T2300,2604A,100.0894,23.8822,临沧市,市气象局,,29,21,20,20,15,22,,49,40,11,9,7,7,0.3,0.3
2025-08-19T2300,1733A,111.5531,36.0783,临汾市,临钢医院,,42,42,39,14,12,105,,135,120,15,14,8,8,0.6,0.6
2025-08-19T2300,1734A,111.5028,36.0714,临汾市,技工学校,颗粒物(PM10),54,58,40,33,24,94,,138,119,13,9,8,7,0.6,0.6
2025-08-19T2300,1736A,111.5018,36.0855,临汾市,市委,颗粒物(PM10),53,56,52,14,14,106,,152,132,12,9,7,6,0.8,0.9
2025-08-19T2300,3018A,111.505,36.1014,临汾市,唐尧大酒店,颗粒物(PM10),58,66,56,7,16,96,,147,127,14,10,4,4,0.8,0.7
2025-08-19T2300,4244A,111.4879,36.0530,临汾市,启星学校,,43,41,40,30,27,94,,145,123,14,12,2,5,0.6,0.6
2025-08-19T2300,4271A,103.2464,35.6123,临夏回族自治州,滨河东路1号,颗粒物(PM10),72,93,33,43,21,6,,89,51,39,16,7,7,0.6,0.4
2025-08-19T2300,4310A,103.2093,35.5995,临夏回族自治州,新华街21号,细颗粒物(PM2.5),57,54,26,40,18,31,,105,78,26,12,6,6,0.5,0.3
2025-08-19T2300,1618A,118.3429,35.0532,临沂市,沂河小区,,36,36,43,24,27,91,,143,114,14,17,10,11,0.4,0.5
2025-08-19T2300,1619A,118.295,35.0583,临沂市,鲁南制药厂,,32,31,39,22,25,95,,155,119,14,15,8,9,0.4,0.4
2025-08-19T2300,1620A,118.2794,34.9976,临沂市,新光毛纺厂,,33,31,33,23,23,91,,160,116,21,21,8,9,0.4,0.4
2025-08-19T2300,1621A,118.3956,35.0888,临沂市,河东保险公司,,34,34,37,17,20,108,,152,132,13,16,8,7,0.3,0.3
2025-08-19T2300,3370A,118.3564,35.0215,临沂市,十里堡居委,,32,29,36,22,27,98,,149,117,14,14,13,12,0.4,0.5
2025-08-19T2300,3496A,118.3604,35.1084,临沂市,南坊新区,,34,34,40,14,19,96,,153,122,12,14,7,9,0.5,0.5
2025-08-19T2300,3860A,118.3920,35.0300,临沂市,皇山花园小区,,34,34,35,18,18,95,,143,122,13,13,9,9,0.6,0.5
2025-08-19T2300,1870A,109.4856,24.3895,柳州市,柳东小学,,13,9,13,7,6,40,,52,47,5,7,4,6,0.3,0.3
2025-08-19T2300,1871A,109.4157,24.3277,柳州市,环保监测站,,23,23,16,6,6,29,,49,34,8,7,6,8,0.4,0.4
2025-08-19T2300,1872A,109.389,24.341,柳州市,河西水厂,,27,27,17,3,8,14,,51,30,23,11,4,5,0.5,0.4
2025-08-19T2300,1873A,109.4311,24.2921,柳州市,市四中,,13,11,16,9,7,28,,48,34,13,12,6,8,0.6,0.6
2025-08-19T2300,1874A,109.4006,24.3631,柳州市,市九中,,25,25,22,11,8,14,,52,30,26,10,4,4,0.6,0.5
2025-08-19T2300,1875A,109.4958,24.3134,柳州市,古亭山,,13,6,15,3,4,39,,48,40,5,7,5,5,0.5,0.5
2025-08-19T2300,3402A,109.5422,24.3996,柳州市,市二中,,11,6,15,3,7,35,,49,40,6,9,5,8,0.6,0.6
2025-08-19T2300,2307A,116.5079,31.737,六安市,监测大楼,,19,,17,13,11,58,,95,78,4,5,4,4,0.2,0.2
2025-08-19T2300,2308A,116.4738,31.7643,六安市,皖西学院,,20,16,24,10,11,63,,102,86,5,6,3,3,0.2,0.3
2025-08-19T2300,2309A,116.4996,31.7905,六安市,朝阳厂,,20,13,18,11,12,61,,92,78,7,8,6,6,0.3,0.3
2025-08-19T2300,2310A,116.5567,31.7886,六安市,开发区,,41,41,27,23,17,37,,97,80,14,12,5,4,0.4,0.4
2025-08-19T2300,2576A,104.8,26.5892,六盘水市,窑上,,15,15,19,3,4,36,,57,49,3,4,4,5,0.2,0.2
2025-08-19T2300,2577A,104.83,26.5917,六盘水市,黄土坡,,13,,12,8,8,39,,59,51,7,8,11,12,0.4,0.3
2025-08-19T2300,2578A,104.89,26.5939,六盘水市,水钢,,33,26,20,23,16,38,,61,52,4,5,10,10,0.3,0.3
2025-08-19T2300,2579A,104.8475,26.5894,六盘水市,民中,,13,6,11,3,3,39,,61,52,5,5,8,9,0.3,0.2
2025-08-19T2300,2580A,104.9544,26.5506,六盘水市,双水,,10,,8,7,6,31,,56,46,7,7,6,6,0.0,0.1
2025-08-19T2300,2335A,117.0189,25.1181,龙岩市,龙岩师专,,,,,,,,,,,,,,,,
2025-08-19T2300,2336A,117.0217,25.1033,龙岩市,龙岩市监测站,,9,,22,3,9,26,,64,46,12,11,4,6,0.5,0.6
2025-08-19T2300,2337A,117.0258,25.0661,龙岩市,闽西职业技术学院,,17,17,16,3,7,9,,62,40,20,8,17,9,0.6,0.5
2025-08-19T2300,2338A,117.0196,25.0306,龙岩市,龙岩学院,,13,13,16,3,6,26,,60,42,3,6,9,9,0.3,0.4
2025-08-19T2300,2665A,105.0822,33.3261,陇南市,汉王镇固水子,,,,,,,,,,,,,,,,
2025-08-19T2300,2885A,104.9339,33.3826,陇南市,滨江中学,,40,40,31,21,13,86,,101,90,1,4,8,8,0.5,0.6
2025-08-19T2300,3247A,104.955,33.371,陇南市,市总工会,,35,35,35,14,12,93,,109,99,4,5,6,6,0.4,0.5
2025-08-19T2300,2487A,111.9589,27.8901,娄底市,电视发射台,,16,16,18,11,7,28,,70,51,5,6,5,6,0.3,0.5
2025-08-19T2300,2488A,111.9975,27.725,娄底市,市监测站,,15,11,18,10,11,46,,69,62,6,6,9,9,0.5,0.5
2025-08-19T2300,2489A,112.0194,27.7314,娄底市,市委党校,,23,18,15,16,9,49,,70,62,7,7,10,10,0.4,0.3
2025-08-19T2300,2490A,111.9561,27.7569,娄底市,涟钢,,29,28,21,20,10,36,,55,47,16,19,14,18,0.4,0.9
2025-08-19T2300,2491A,111.9892,27.7044,娄底市,市政府,,45,45,13,10,9,47,,68,60,2,3,6,6,0.7,0.6
2025-08-19T2300,1893A,105.4324,28.9634,泸州市,九狮山,细颗粒物(PM2.5),53,52,28,37,22,26,,114,70,19,9,9,8,0.4,0.3
2025-08-19T2300,1894A,105.4427,28.9063,泸州市,小市上码头,,24,24,23,12,9,39,,87,61,9,7,5,5,0.3,0.3
2025-08-19T2300,1895A,105.4241,28.8573,泸州市,兰田宪桥,,46,46,24,25,11,46,,110,81,10,8,7,7,0.2,0.2
2025-08-19T2300,1896A,105.4379,28.8833,泸州市,市环监站,,23,23,21,14,12,54,,103,77,7,9,4,5,0.1,0.1
2025-08-19T2300,4272A,105.3689,28.7783,泸州市,纳溪中医医院,,22,22,23,15,18,52,,130,83,13,13,1,7,0.4,0.5
2025-08-19T2300,2183A,111.1406,37.5211,吕梁市,环保局,,39,39,46,3,20,84,,110,102,6,18,1,2,0.5,0.6
2025-08-19T2300,2185A,111.1297,37.5136,吕梁市,自来水公司,,46,46,44,8,17,73,,102,94,6,17,2,2,0.5,0.6
2025-08-19T2300,2867A,111.1283,37.51,吕梁市,马茂庄小学,,35,35,43,9,17,82,,105,95,7,24,1,3,0.4,0.7
2025-08-19T2300,1812A,112.3931,34.6516,洛阳市,市委党校,,34,34,33,19,19,93,,122,106,10,9,11,8,0.5,0.5
2025-08-19T2300,1815A,112.494,34.6886,洛阳市,河南林校,,38,38,39,21,20,111,,130,117,7,11,8,8,0.5,0.5
2025-08-19T2300,1816A,112.3844,34.623,洛阳市,开发区管委会,,33,33,30,21,19,102,,133,118,8,7,5,7,0.6,0.6
2025-08-19T2300,1817A,112.4267,34.6258,洛阳市,市委新办公区,,33,32,29,23,21,96,,125,110,11,10,15,11,0.5,0.5
2025-08-19T2300,3340A,112.6005,34.6326,洛阳市,伊滨,细颗粒物(PM2.5),55,,29,39,17,98,,115,110,6,10,7,7,0.5,0.6
2025-08-19T2300,3341A,112.4951,34.6332,洛阳市,中移产业园,,35,35,34,19,18,102,,122,112,10,12,10,10,0.5,0.6
2025-08-19T2300,3593A,112.5736,34.8993,洛阳市,吉利监测站,,47,47,42,21,23,89,,135,110,12,13,5,6,0.3,0.3
2025-08-19T2300,3635A,112.3677,34.662,洛阳市,河科大西苑校区,,33,33,34,14,13,102,,130,112,11,12,9,10,0.5,0.5
2025-08-19T2300,3636A,112.4388,34.6781,洛阳市,英才小学,,48,48,38,16,17,95,,126,109,14,11,13,10,0.6,0.6
2025-08-19T2300,4214A,112.4600,34.6949,洛阳市,春都路1号院,,35,35,33,12,13,89,,114,100,7,7,12,8,0.7,0.6
2025-08-19T2300,2399A,114.051,33.5699,漯河市,三五一五工厂,,23,23,39,10,17,56,,127,78,12,15,6,5,0.4,0.5
2025-08-19T2300,2400A,114.0055,33.5698,漯河市,漯河大学,,19,15,29,3,13,59,,127,86,16,12,6,6,0.3,0.4
2025-08-19T2300,2401A,114.0138,33.5828,漯河市,市水利局,,20,17,32,3,16,61,,119,81,9,10,5,6,0.3,0.4
2025-08-19T2300,2402A,114.0261,33.5698,漯河市,市广电局,,21,,34,8,21,66,,133,88,10,11,6,4,0.3,0.4
2025-08-19T2300,3478A,113.9749,33.5664,漯河市,市图书馆,,25,19,40,17,21,61,,125,94,7,12,4,7,0.3,0.3
2025-08-19T2300,4250A,114.0892,33.5882,漯河市,韶山路11号,,23,23,37,3,15,61,,135,84,10,11,4,4,0.4,0.5
2025-08-19T2300,1798A,118.5092,31.6837,马鞍山市,湖东路四小,,31,31,39,16,22,70,,138,89,22,11,7,7,0.7,0.5
2025-08-19T2300,1799A,118.5024,31.6449,马鞍山市,开发区,,38,38,46,17,21,27,,139,75,53,19,8,8,0.6,0.6
2025-08-19T2300,1802A,118.6245,31.7241,马鞍山市,濮塘,,28,28,35,18,22,85,,138,,12,11,8,9,0.8,0.8
2025-08-19T2300,3633A,118.4918,31.6809,马鞍山市,雨山,,36,36,33,18,19,59,,129,83,27,13,7,7,0.6,0.5
2025-08-19T2300,4191A,118.5274,31.72227,马鞍山市,慈湖高新区,,49,49,37,22,20,30,,122,70,38,21,8,12,0.4,0.5
2025-08-19T2300,1686A,111.0286,21.4688,茂名市,电白南海,,,,26,,,43,,54,47,6,7,3,3,0.5,0.5
2025-08-19T2300,1687A,110.9294,21.6533,茂名市,茂石化七小,,27,27,27,7,6,35,,46,42,7,6,4,5,0.5,0.5
2025-08-19T2300,1688A,110.9107,21.6687,茂名市,健康路,,22,22,18,9,7,40,,52,47,7,7,4,5,0.5,0.5
2025-08-19T2300,1689A,110.8592,21.6828,茂名市,高岭,,27,27,24,3,4,37,,49,44,10,11,5,9,0.5,0.5
2025-08-19T2300,3450A,111.01,21.5165,茂名市,电白水东,,24,24,16,3,5,36,,53,47,10,6,4,4,0.5,0.5
2025-08-19T2300,2539A,104.0308,30.0478,眉山市,黑龙滩水库,臭氧1小时,68,26,13,26,10,174,,180,180,5,8,3,3,0.4,0.4
2025-08-19T2300,2540A,103.8416,30.0874,眉山市,气象局,颗粒物(PM10),51,51,26,29,11,66,,152,121,26,15,10,11,0.7,0.5
2025-08-19T2300,3137A,103.8578,30.0744,眉山市,市委党校,,29,22,17,17,6,92,,136,119,17,14,7,7,0.5,0.4
2025-08-19T2300,3148A,103.8291,30.0564,眉山市,区人社局,,47,47,29,19,5,83,,143,122,23,17,8,8,0.6,0.6
2025-08-19T2300,1690A,116.1231,24.3284,梅州市,梅江月梅,,14,14,16,3,8,17,,51,25,10,10,9,9,0.5,0.5
2025-08-19T2300,1691A,116.0797,24.2719,梅州市,梅县新城,,13,10,16,9,11,18,,45,27,11,9,8,7,0.4,0.4
2025-08-19T2300,1692A,116.1248,24.2654,梅州市,环境监控中心,,13,13,15,3,10,16,,43,23,8,12,7,6,0.5,0.5
2025-08-19T2300,3315A,116.1233,24.2991,梅州市,梅龙,,9,9,10,3,7,24,,50,30,5,7,7,8,0.6,0.6
2025-08-19T2300,1878A,104.7778,31.4741,绵阳市,富乐山,,35,35,31,22,20,46,,116,87,21,14,9,9,0.7,0.6
2025-08-19T2300,1880A,104.6697,31.4668,绵阳市,高新区自来水公司,,48,48,41,22,17,42,,112,78,35,27,8,8,0.5,0.5
2025-08-19T2300,1881A,104.7287,31.5075,绵阳市,三水厂,,48,48,38,29,23,23,,121,79,48,26,8,8,0.5,0.5
2025-08-19T2300,3491A,104.69,31.5322,绵阳市,西科大附属小学,颗粒物(PM10),52,54,44,31,22,22,,123,78,54,23,9,9,0.6,0.6
2025-08-19T2300,3492A,104.5648,31.5343,绵阳市,安州区旅游局,,35,35,31,17,15,68,,110,85,15,14,6,6,0.3,0.4
2025-08-19T2300,4226A,104.7651,31.4531,绵阳市,绵阳市气象局,,41,41,35,22,19,54,,115,92,28,20,8,8,0.5,0.4
2025-08-19T2300,1784A,129.61,44.561,牡丹江市,环保大楼,,26,26,21,14,13,27,,88,62,20,14,3,4,0.3,0.3
2025-08-19T2300,1785A,129.6115,44.5782,牡丹江市,文化广场,,,31,17,30,17,,,87,75,27,15,5,5,0.5,0.5
2025-08-19T2300,1786A,129.5904,44.5963,牡丹江市,第一医院,,25,25,17,10,17,29,,89,61,26,17,8,8,0.2,0.2
2025-08-19T2300,1787A,129.6364,44.6075,牡丹江市,机车工厂,,23,23,25,13,16,29,,80,60,17,17,6,6,0.5,0.6
2025-08-19T2300,1788A,129.6386,44.5462,牡丹江市,第一中学,,37,37,29,13,14,25,,91,54,12,16,6,6,0.2,0.3
2025-08-19T2300,2531A,105.0703,29.61,内江市,市监测站,细颗粒物(PM2.5),59,,21,42,20,48,,125,106,36,11,3,3,0.9,0.7
2025-08-19T2300,2532A,105.0717,29.5947,内江市,东兴区政府,,35,33,19,24,12,73,,117,104,17,10,7,7,0.6,0.6
2025-08-19T2300,2533A,105.0653,29.5817,内江市,内江二中,细颗粒物(PM2.5),59,,25,42,22,70,,116,102,21,12,4,4,0.6,0.6
2025-08-19T2300,2534A,105.0406,29.5822,内江市,内江日报社,,35,26,21,24,20,65,,126,112,31,11,8,7,0.4,0.4
2025-08-19T2300,2628A,92.0657,31.4846,那曲市,那曲监测站,,30,30,13,15,7,49,,77,64,17,11,16,15,0.4,0.3
2025-08-19T2300,4243A,92.0515,31.4787,那曲市,那曲市委宣传部,,17,17,9,10,5,54,,86,74,12,7,5,5,0.4,0.3
2025-08-19T2300,1290A,115.8931,28.6843,南昌市,省外办,,16,16,15,3,11,46,,77,65,6,6,4,5,0.4,0.4
2025-08-19T2300,1291A,115.8886,28.7003,南昌市,省林业公司,,14,12,11,3,8,43,,77,66,8,6,4,5,0.4,0.5
2025-08-19T2300,1292A,115.8126,28.7442,南昌市,林科所,,14,14,10,3,4,25,,73,65,17,14,4,4,0.6,0.5
2025-08-19T2300,1294A,115.8518,28.687,南昌市,建工学校,,16,,19,11,11,45,,75,64,11,14,6,6,0.5,0.5
2025-08-19T2300,1295A,115.8921,28.6424,南昌市,象湖,,18,18,14,3,6,42,,77,62,12,13,7,8,0.4,0.4
2025-08-19T2300,1296A,115.7423,28.7996,南昌市,武术学校,,13,10,13,9,11,29,,76,53,6,6,9,9,0.4,0.4
2025-08-19T2300,3046A,115.9084,28.6062,南昌市,机电学校,,25,25,21,7,7,33,,80,61,21,12,9,7,0.5,0.5
2025-08-19T2300,3690A,115.9721,28.7031,南昌市,外国语学校,,18,18,17,10,8,43,,83,66,13,9,8,7,0.2,0.3
2025-08-19T2300,4192A,115.9316,28.68677,南昌市,南京东路235号,,17,17,22,3,6,39,,76,62,15,11,11,10,0.6,0.5
2025-08-19T2300,1905A,106.056,30.8064,南充市,西山风景区,,,,,,,,,,,,,,,,
2025-08-19T2300,1906A,106.0789,30.8023,南充市,南充市委,,42,38,27,29,20,74,,87,87,14,10,5,6,0.4,0.4
2025-08-19T2300,1907A,106.1031,30.8217,南充市,南充炼油厂,,39,37,33,27,18,76,,86,86,11,10,6,6,0.3,0.3
2025-08-19T2300,4227A,106.1083,30.7884,南充市,梨树横街98号,,43,38,24,30,18,87,,101,100,14,12,6,6,0.3,0.2
2025-08-19T2300,4304A,106.1172,30.843,南充市,清泉寺北路188号,,34,34,27,23,19,84,,91,91,11,9,5,5,0.4,0.3
2025-08-19T2300,4305A,106.067,30.7616,南充市,同庆路1号,,47,47,34,31,22,75,,92,91,14,10,6,6,0.4,0.3
2025-08-19T2300,1151A,118.8086,32.1065,南京市,迈皋桥,,28,26,24,19,15,77,,160,126,24,15,4,4,0.7,0.6
2025-08-19T2300,1152A,118.7538,32.0551,南京市,草场门,,29,29,32,19,17,90,,144,110,14,14,4,4,0.8,0.7
2025-08-19T2300,1153A,118.7794,32.0745,南京市,山西路,,33,27,36,9,13,103,,152,126,19,18,4,4,0.7,0.6
2025-08-19T2300,1154A,118.7752,32.0023,南京市,中华门,,22,22,27,12,13,66,,138,99,22,12,4,4,1.0,1
2025-08-19T2300,1155A,118.8109,32.0309,南京市,瑞金路,,30,27,27,12,16,93,,155,122,30,23,7,6,0.6,0.5
2025-08-19T2300,1156A,118.7997,32.0754,南京市,玄武湖,,24,24,31,8,9,76,,138,114,11,10,4,4,0.5,0.5
2025-08-19T2300,1157A,118.6414,32.0931,南京市,浦口,,28,28,31,18,15,45,,133,94,24,13,5,6,0.6,0.6
2025-08-19T2300,1158A,118.7356,31.9996,南京市,奥体中心,,32,32,33,14,19,77,,137,104,19,16,8,8,0.5,0.6
2025-08-19T2300,1159A,118.9125,32.1028,南京市,仙林大学城,颗粒物(PM10),51,51,36,19,11,35,,150,111,42,12,9,9,0.9,0.7
2025-08-19T2300,3422A,118.8436,31.9198,南京市,江宁彩虹桥,,44,44,31,19,16,64,,153,113,24,13,3,4,0.5,0.5
2025-08-19T2300,3427A,118.8554,32.3578,南京市,六合雄州,颗粒物(PM10),51,51,41,19,20,34,,144,70,40,23,6,6,0.9,0.8
2025-08-19T2300,4249A,118.8708,31.3402,南京市,汶溪路181号,,38,,24,26,19,113,,143,133,10,9,9,7,0.6,0.4
2025-08-19T2300,4312A,119.019,31.6512,南京市,中山西路1号,,38,27,27,22,19,120,,159,151,11,15,3,4,0.6,0.5
2025-08-19T2300,1401A,108.3103,22.7881,南宁市,二十一中,,13,13,9,6,6,34,,46,40,6,6,4,3,0.6,0.5
2025-08-19T2300,1402A,108.3141,22.8528,南宁市,北湖,,21,21,12,3,6,34,,42,38,8,7,3,3,0.4,0.4
2025-08-19T2300,1403A,108.3206,22.8225,南宁市,市监测站,,12,12,10,3,6,33,,43,39,7,8,3,3,0.4,0.4
2025-08-19T2300,1404A,108.3829,22.8037,南宁市,大自然花园,,13,13,12,6,6,40,,49,44,4,7,4,4,0.5,0.5
2025-08-19T2300,1405A,108.4394,22.7904,南宁市,仙葫,,13,12,9,6,6,39,,46,42,5,7,4,4,0.4,0.3
2025-08-19T2300,1406A,108.2397,22.8467,南宁市,区农职院,,14,14,11,9,5,34,,44,40,13,11,5,4,0.3,0.2
2025-08-19T2300,1407A,108.3275,22.735,南宁市,英华嘉园,,17,17,12,9,9,32,,43,38,10,7,1,1,0.4,0.4
2025-08-19T2300,3401A,108.4834,22.7618,南宁市,红星社区,,16,16,12,6,4,37,,49,44,9,6,2,2,0.3,0.3
2025-08-19T2300,4221A,108.2177,22.7774,南宁市,乐贤路16号,,16,16,12,3,5,18,,42,33,24,14,8,6,0.7,0.6
2025-08-19T2300,2331A,118.0966,26.6761,南平市,茫荡山,,,,,,,,,,,,,,,,
2025-08-19T2300,2332A,118.1681,26.6369,南平市,南平市监测站,,18,14,14,12,13,31,,87,61,16,9,4,4,0.5,0.5
2025-08-19T2300,2333A,118.1825,26.6489,南平市,南平铝业有限公司,,20,20,19,6,10,28,,88,60,19,10,5,5,0.7,0.6
2025-08-19T2300,2334A,118.1756,26.6272,南平市,南平七中,,12,9,19,8,10,25,,86,67,17,7,3,4,0.6,0.6
2025-08-19T2300,1168A,120.9098,31.9663,南通市,狼山街道,,,20,22,14,10,,,139,,50,28,6,7,0.6,0.5
2025-08-19T2300,1169A,120.86,32.0005,南通市,虹桥,,19,19,20,13,12,55,,152,102,36,25,8,6,0.6,0.7
2025-08-19T2300,1170A,120.87,32.02,南通市,城中,,26,26,25,7,10,43,,143,98,39,24,14,7,0.4,0.5
2025-08-19T2300,1171A,120.94,31.93,南通市,星湖花园,,21,17,18,10,11,67,,165,109,27,22,5,8,0.5,0.5
2025-08-19T2300,1172A,120.81,32.0417,南通市,紫琅学院,,21,21,19,7,7,55,,142,100,37,28,9,6,0.5,0.6
2025-08-19T2300,3291A,121.067,32.062,南通市,通州监测站,,17,17,17,3,7,34,,165,113,20,14,1,2,0.5,0.6
2025-08-19T2300,3432A,120.9348,31.9883,南通市,环境教育馆,,24,24,27,3,7,54,,179,120,26,19,5,9,0.2,0.3
2025-08-19T2300,2404A,112.5224,33.0122,南阳市,瓦房庄,,36,36,36,10,15,68,,113,80,5,8,7,7,0.4,0.5
2025-08-19T2300,2405A,112.5003,32.9735,南阳市,汉画馆,,33,33,35,3,10,68,,114,79,8,8,8,8,0.5,0.6
2025-08-19T2300,2406A,112.5573,33.027,南阳市,气象站,,31,31,20,3,12,70,,122,85,7,8,8,8,0.3,0.4
2025-08-19T2300,2407A,112.5481,32.9689,南阳市,理工学院,,36,36,33,6,9,56,,112,77,16,9,9,8,0.4,0.4
2025-08-19T2300,4008A,112.5234,32.9922,南阳市,卧龙区政府,,28,28,37,11,16,68,,114,78,8,11,6,6,0.4,0.6
2025-08-19T2300,1234A,121.8358,29.911,宁波市,区环保大楼,,14,9,16,6,4,42,,65,50,7,7,4,4,0.4,0.4
2025-08-19T2300,1235A,121.56,29.82,宁波市,万里学院,,16,16,16,10,9,45,,79,57,11,9,7,7,0.4,0.4
2025-08-19T2300,1236A,121.713,29.9572,宁波市,龙赛医院,,13,12,14,6,6,39,,74,49,7,7,3,3,0.3,0.3
2025-08-19T2300,1239A,121.633,29.7733,宁波市,钱湖水厂,,14,7,10,3,4,42,,78,57,8,7,5,5,0.3,0.3
2025-08-19T2300,1240A,121.5856,29.8635,宁波市,太古小学,,15,6,13,3,7,45,,77,54,3,4,2,2,0.6,0.6
2025-08-19T2300,1241A,121.524,29.8674,宁波市,市环境监测中心,,14,13,13,3,3,44,,77,54,6,8,8,8,0.4,0.4
2025-08-19T2300,2871A,121.6147,29.9017,宁波市,万里国际学校,,16,12,11,3,6,50,,89,60,4,6,4,4,0.5,0.5
2025-08-19T2300,3710A,121.5594,29.8975,宁波市,白沙活动中心,,14,11,11,3,4,43,,84,56,11,8,6,6,0.5,0.5
2025-08-19T2300,2339A,119.5001,26.6946,宁德市,金涵水库,,,,,,,,,,,,,,,,
2025-08-19T2300,2341A,119.5388,26.6612,宁德市,宁德市监测站,,22,22,19,11,10,34,,88,46,18,9,2,3,0.5,0.5
2025-08-19T2300,3209A,119.5231,26.6562,宁德市,宁德一中,,19,16,18,13,9,35,,87,45,7,6,3,4,0.3,0.4
2025-08-19T2300,2618A,98.8601,25.8567,怒江傈僳族自治州,州监测站,,29,25,21,20,12,33,,65,54,9,7,7,7,0.4,0.4
2025-08-19T2300,2619A,98.8546,25.8417,怒江傈僳族自治州,泸水一中,,16,16,18,8,9,11,,50,36,14,10,4,4,0.4,0.4
2025-08-19T2300,1888A,101.6891,26.571,攀枝花市,弄弄坪,,30,30,33,13,13,70,,90,85,11,14,10,8,0.9,0.9
2025-08-19T2300,1889A,101.5769,26.5928,攀枝花市,河门口,,46,46,31,19,14,46,,94,80,13,15,8,10,0.9,0.9
2025-08-19T2300,1890A,101.7169,26.585,攀枝花市,炳草岗,颗粒物(PM10),51,51,29,17,17,39,,87,72,29,18,10,9,1.2,0.9
2025-08-19T2300,1891A,101.7369,26.5008,攀枝花市,仁和,,40,39,31,28,24,21,,85,60,12,10,7,12,0.9,0.8
2025-08-19T2300,2835A,101.7227,26.567,攀枝花市,四十中小,,26,26,22,17,12,64,,85,79,18,15,21,11,1.7,1
2025-08-19T2300,1604A,122.0303,41.1489,盘锦市,开发区,,33,8,23,3,18,105,,117,103,4,9,6,6,0.3,0.6
2025-08-19T2300,1605A,122.0485,41.0883,盘锦市,兴隆台,,31,11,23,11,14,98,,107,96,5,9,4,5,0.4,0.6
2025-08-19T2300,1606A,121.8297,41.1028,盘锦市,新生街道,,24,20,23,16,15,75,,119,96,16,9,3,4,0.6,0.8
2025-08-19T2300,1832A,113.3257,33.742,平顶山市,新华旅馆,,30,30,36,20,18,53,,117,83,11,10,4,4,0.3,0.4
2025-08-19T2300,1833A,113.2919,33.737,平顶山市,规划设计院,,26,26,28,10,16,58,,131,92,11,10,4,4,0.5,0.6
2025-08-19T2300,1834A,113.182,33.774,平顶山市,平顶山工学院,,22,22,25,7,12,61,,125,92,12,10,6,6,0.2,0.3
2025-08-19T2300,3204A,113.3025,33.73,平顶山市,规划局,,24,24,32,9,11,56,,133,94,14,11,3,4,0.2,0.2
2025-08-19T2300,3594A,112.8867,33.9116,平顶山市,石龙区,,33,33,34,13,18,76,,125,107,8,10,7,7,0.4,0.4
2025-08-19T2300,2656A,106.6692,35.5461,平凉市,聚贤嘉苑,,24,24,26,15,11,62,,97,79,19,12,9,9,0.4,0.5
2025-08-19T2300,2657A,106.7021,35.5307,平凉市,博物馆,颗粒物(PM10),53,55,41,9,10,41,,96,74,34,17,10,10,0.6,0.4
2025-08-19T2300,2347A,114.0997,27.5002,萍乡市,武功山,,5,6,3,3,3,15,,46,30,4,3,7,7,0.4,0.4
2025-08-19T2300,2348A,113.8385,27.6434,萍乡市,中医院,,26,26,14,15,7,7,,66,47,30,11,10,13,0.7,0.7
2025-08-19T2300,2349A,113.8493,27.6253,萍乡市,市政府车库,,9,6,7,3,6,26,,56,42,9,5,9,9,0.3,0.3
2025-08-19T2300,2350A,113.8676,27.6435,萍乡市,市环保局,,14,14,16,6,21,16,,63,42,20,8,17,17,0.7,0.6
2025-08-19T2300,2351A,113.866,27.6198,萍乡市,安源区政府,,22,22,34,7,9,21,,56,39,7,3,12,12,0.4,0.4
2025-08-19T2300,2319A,119.0141,25.4325,莆田市,荔城区仓后路,,22,22,24,10,12,44,,99,74,10,9,7,6,0.7,0.7
2025-08-19T2300,2320A,119.0015,25.4553,莆田市,莆田市监测站,,22,22,23,14,11,49,,107,87,10,8,5,5,0.4,0.4
2025-08-19T2300,2321A,119.1119,25.4561,莆田市,涵江区六中,,26,26,28,12,17,42,,127,74,16,15,6,7,0.5,0.5
2025-08-19T2300,2322A,119.1013,25.3215,莆田市,秀屿区政府,,21,21,26,10,15,40,,116,65,18,14,7,8,0.4,0.5
2025-08-19T2300,2323A,118.981,25.4792,莆田市,东圳水库,,,,,,,,,,,,,,,,
2025-08-19T2300,2392A,115.0312,35.7636,濮阳市,环保局,,33,33,33,19,20,98,,128,121,13,10,3,4,0.6,0.5
2025-08-19T2300,2394A,115.0574,35.7609,濮阳市,油田运输公司,,40,40,40,14,19,95,,129,121,11,10,2,2,0.5,0.5
2025-08-19T2300,3021A,115,35.7668,濮阳市,濮水河管理处,,,39,38,,,102,,129,125,9,7,2,2,0.4,0.5
2025-08-19T2300,4216A,115.0924,35.7686,濮阳市,任丘路479号,颗粒物(PM10),51,51,46,22,20,87,,121,112,12,9,2,2,0.5,0.5
2025-08-19T2300,2601A,100.98,22.7633,普洱市,市环保局,,36,36,30,10,14,44,,58,51,4,5,6,6,0.5,0.5
2025-08-19T2300,2602A,100.9817,22.8322,普洱市,普洱第二中学,,46,46,32,14,11,28,,56,43,12,7,6,6,0.6,0.5
2025-08-19T2300,2262A,131.0518,45.8751,七台河市,新一中,,20,19,24,12,15,64,,95,84,16,16,9,10,1.1,1
2025-08-19T2300,3345A,131.0577,45.7879,七台河市,中波台,,17,,8,8,7,54,,68,62,12,21,8,8,0.5,0.5
2025-08-19T2300,3637A,131.0176,45.7761,七台河市,人民广场,,26,26,25,17,16,54,,72,63,14,18,11,11,0.6,0.6
2025-08-19T2300,3684A,130.8781,45.8222,七台河市,新建矿广场,,16,,13,11,10,41,,66,57,13,18,10,10,0.4,0.4
2025-08-19T2300,1779A,123.9305,47.3636,齐齐哈尔市,安居小区,颗粒物(PM10),57,63,29,32,12,1,,59,39,47,15,9,9,1.0,0.5
2025-08-19T2300,1780A,123.9488,47.3386,齐齐哈尔市,中心广场,颗粒物(PM10),51,52,21,24,6,19,,64,48,45,15,6,6,0.8,0.5
2025-08-19T2300,1781A,123.9483,47.3227,齐齐哈尔市,农牧车辆厂,颗粒物(PM10),52,53,26,24,9,2,,63,38,49,15,6,6,1.1,0.4
2025-08-19T2300,1783A,123.945,47.2988,齐齐哈尔市,市环境监测站,,47,47,20,12,8,3,,63,42,40,13,6,6,0.7,0.4
2025-08-19T2300,3662A,123.6333,47.2075,齐齐哈尔市,富区青少年活动中心,,13,,19,9,7,19,,59,49,19,8,5,6,0.4,0.5
2025-08-19T2300,2591A,107.9783,26.5747,黔东南苗族侗族自治州,市环境监测站,,16,14,15,11,12,12,,41,30,18,8,2,2,0.3,0.3
2025-08-19T2300,2881A,107.8908,26.5311,黔东南苗族侗族自治州,凯里学院,,9,,6,6,6,27,,46,39,6,8,2,3,0.4,0.4
2025-08-19T2300,2593A,107.5228,26.2403,黔南布依族苗族自治州,小围寨,,12,12,4,3,0,15,,35,29,4,4,3,2,0.2,0.2
2025-08-19T2300,3538A,107.5175,26.2978,黔南布依族苗族自治州,沙坝,,,9,9,3,0,,,21,,6,5,4,3,0,0.2
2025-08-19T2300,2589A,104.9022,25.0925,黔西南布依族苗族自治州,场坝街,,14,14,13,9,6,36,,57,44,6,9,5,5,0.3,0.3
2025-08-19T2300,2590A,104.8811,25.0992,黔西南布依族苗族自治州,坪东大道,,15,15,19,7,9,35,,58,45,4,8,2,4,0.4,0.4
2025-08-19T2300,2502A,108.6236,21.9667,钦州市,市环保站,,12,12,8,3,2,30,,48,38,15,10,2,2,0.5,0.4
2025-08-19T2300,2503A,108.6549,21.9481,钦州市,沙埠小学,,22,22,11,3,4,29,,52,38,12,8,3,3,0.6,0.5
2025-08-19T2300,2504A,108.5989,21.7431,钦州市,港区一小,,20,20,21,6,9,46,,48,47,11,12,2,3,0.4,0.7
2025-08-19T2300,3404A,108.5959,21.9633,钦州市,北职校,,29,21,13,20,7,25,,49,37,17,7,3,2,0.6,0.4
2025-08-19T2300,1043A,119.7493,40.0116,秦皇岛市,第一关,,39,25,35,16,22,122,,116,98,5,25,5,6,0.3,0.5
2025-08-19T2300,1044A,119.5897,39.9499,秦皇岛市,监测站,,40,31,42,7,12,125,,129,124,6,14,4,8,0.3,0.6
2025-08-19T2300,1046A,119.5251,39.9041,秦皇岛市,建设大厦,,40,40,38,10,14,124,,131,130,4,10,5,8,0.4,0.6
2025-08-19T2300,3132A,119.610547,39.943889,秦皇岛市,文明里,,40,37,36,19,21,125,,128,126,4,13,4,7,0.2,0.5
2025-08-19T2300,4198A,119.5090,39.8253,秦皇岛市,北戴河轮滑馆,,38,38,35,20,17,120,,129,125,5,8,2,4,0.4,0.5
2025-08-19T2300,1307A,120.6659,36.2403,青岛市,仰口,,36,22,24,16,13,113,,130,124,4,5,9,9,0.9,0.8
2025-08-19T2300,1310A,120.4134,36.0658,青岛市,市南区东部子站,,30,22,23,9,11,95,,142,127,1,4,6,6,0.1,0.1
2025-08-19T2300,1311A,120.3664,36.1032,青岛市,四方区子站,,34,14,24,9,13,106,,154,143,2,3,5,5,0.2,0.3
2025-08-19T2300,1312A,120.2994,36.054,青岛市,市南区西部子站,,32,22,25,3,9,101,,146,130,3,10,4,5,0.6,0.6
2025-08-19T2300,1313A,120.4581,36.0858,青岛市,崂山区子站,,29,29,29,3,8,87,,119,111,5,8,7,7,0.2,0.2
2025-08-19T2300,1315A,120.3999,36.3083,青岛市,城阳区子站,,37,22,31,7,13,117,,167,149,5,9,7,7,0.5,0.6
2025-08-19T2300,1966A,120.0405,35.8735,青岛市,黄岛区4号,,40,22,25,3,11,126,,175,153,2,5,4,5,0.4,0.5
2025-08-19T2300,3362A,120.5014,36.4034,青岛市,即墨2号,,43,27,31,10,11,135,,161,153,5,7,3,3,0.2,0.2
2025-08-19T2300,3642A,120.3503,36.0736,青岛市,市北区南部,,31,28,23,9,10,99,,156,134,8,9,5,5,0.7,0.7
2025-08-19T2300,3643A,120.3948,36.1805,青岛市,李沧区北部,,29,,23,19,19,91,,146,128,4,7,8,9,0.3,0.4
2025-08-19T2300,4290A,120.1969,35.9546,青岛市,珠江路669号,,34,19,22,12,12,108,,168,152,3,3,5,5,0.4,0.5
2025-08-19T2300,1702A,113.0426,23.691,清远市,环保大楼,,29,29,12,12,9,24,,44,40,20,11,8,8,0.8,0.8
2025-08-19T2300,1703A,113.0208,23.7106,清远市,凤城街办,,26,26,12,12,6,21,,44,39,25,13,7,7,0.5,0.4
2025-08-19T2300,3025A,113.0477,23.6344,清远市,技师学院,,24,24,16,11,7,18,,37,32,20,15,6,8,0.4,0.4
2025-08-19T2300,3318A,112.9903,23.7403,清远市,清新太和,,23,23,12,12,7,29,,51,46,20,12,6,6,0.5,0.4
2025-08-19T2300,3455A,113.076,23.7198,清远市,清城东城,,20,20,13,10,6,21,,43,39,18,10,6,7,0.6,0.5
2025-08-19T2300,2661A,107.6325,35.7357,庆阳市,庆阳五中,,23,23,20,12,8,66,,84,78,9,7,7,7,0.4,0.4
2025-08-19T2300,2662A,107.6364,35.7067,庆阳市,市环保局,,26,26,20,8,7,70,,88,82,6,5,4,4,0.3,0.3
2025-08-19T2300,1916A,103.7897,25.5035,曲靖市,环境监测站,,31,31,23,13,11,56,,103,78,17,12,7,7,0.7,0.6
2025-08-19T2300,1917A,103.8,25.5364,曲靖市,烟厂办公区,,22,19,23,15,11,62,,104,83,14,12,3,5,0.7,0.7
2025-08-19T2300,3376A,103.7947,25.462,曲靖市,南苑二区,,29,29,18,13,10,55,,97,76,19,10,4,4,0.6,0.4
2025-08-19T2300,3377A,103.7444,25.5261,曲靖市,曲靖师范学院,,,24,19,14,14,,,101,,16,13,7,8,0.5,0.4
2025-08-19T2300,1264A,118.8692,28.9398,衢州市,环保大楼,,21,21,27,10,14,58,,111,82,10,15,3,3,0.3,0.4
2025-08-19T2300,1265A,118.8709,28.9666,衢州市,实验学校,,22,22,26,12,14,62,,110,86,6,12,6,3,0.3,0.3
2025-08-19T2300,1266A,118.8621,28.9808,衢州市,衢州学院,,20,18,22,11,13,64,,106,87,5,17,4,4,0.3,0.3
2025-08-19T2300,1611A,118.5819,24.9117,泉州市,涂山街,,20,20,26,8,12,33,,76,50,17,17,6,5,0.4,0.5
2025-08-19T2300,1612A,118.5972,24.8978,泉州市,津头埔,,18,18,26,7,11,29,,76,50,18,16,8,5,0.5,0.5
2025-08-19T2300,1613A,118.6663,24.9424,泉州市,万安,,,,27,6,11,,,69,,19,18,4,3,0.3,0.4
2025-08-19T2300,1614A,118.6117,24.9604,泉州市,清源山,,,,,,,,,,,,,,,,
2025-08-19T2300,3529A,118.6333,24.9264,泉州市,城华南路,,13,13,20,6,10,33,,73,50,15,16,5,4,0.4,0.4
2025-08-19T2300,2626A,88.8876,29.2718,日喀则市,日喀则监测站,,24,12,6,3,1,74,,79,73,4,5,11,11,0.3,0.3
2025-08-19T2300,3726A,88.8781,29.2426,日喀则市,林业技术推广中心,,22,16,11,3,2,70,,76,71,2,3,6,6,0.3,0.3
2025-08-19T2300,1659A,119.471,35.4209,日照市,监测站,,43,29,38,17,19,136,,190,155,9,16,6,9,0.6,0.6
2025-08-19T2300,1660A,119.523,35.4216,日照市,市政府广场,,39,31,40,10,15,122,,191,163,18,16,7,8,0.8,0.9
2025-08-19T2300,1661A,119.5587,35.4044,日照市,港务局,,42,36,39,29,28,132,,191,166,17,22,10,11,0.8,0.9
2025-08-19T2300,3507A,119.5328,35.4625,日照市,职业技术学院,,40,31,36,17,17,128,,191,165,15,16,6,6,0.7,0.8
2025-08-19T2300,3604A,119.3266,35.1044,日照市,岚山环保分局,,36,36,35,15,15,114,,193,158,10,11,8,9,1.0,0.8
2025-08-19T2300,1835A,111.1922,34.7752,三门峡市,市政府,,,,30,,15,,,105,,21,17,4,6,0.4,0.4
2025-08-19T2300,1836A,111.1587,34.7942,三门峡市,开发区,,40,40,32,19,19,68,,105,76,22,16,7,6,0.2,0.3
2025-08-19T2300,1838A,111.143,34.7955,三门峡市,风景区,,24,18,34,16,19,74,,106,77,12,9,5,5,0.4,0.4
2025-08-19T2300,3039A,111.1911,34.7829,三门峡市,三门峡市第一小学,,37,37,32,16,12,67,,106,80,12,13,8,7,0.5,0.5
2025-08-19T2300,3598A,111.1,34.7167,三门峡市,富达温泉假日酒店,,,,32,,15,,,78,,,9,,4,,0.4
2025-08-19T2300,2324A,117.6211,26.2625,三明市,三钢,,16,16,22,3,4,25,,79,52,17,14,10,9,1.5,1.4
2025-08-19T2300,2325A,117.635,26.2714,三明市,三明二中,,18,,20,12,13,25,,77,45,10,10,4,4,0.6,0.6
2025-08-19T2300,2326A,117.6028,26.2378,三明市,三元区政府,,16,16,20,7,13,26,,65,,13,14,2,3,0.4,0.5
2025-08-19T2300,2327A,117.7275,26.3108,三明市,洋溪,,,,,,,,,,,,,,,,
2025-08-19T2300,1876A,109.5078,18.2489,三亚市,河东子站,,12,11,16,8,7,36,,52,44,3,5,3,2,0.6,0.6
2025-08-19T2300,1877A,109.4964,18.2681,三亚市,河西子站,,17,17,20,3,2,26,,50,40,12,10,2,2,0.5,0.5
2025-08-19T2300,3540A,109.7348,18.3443,三亚市,君悦子站,,25,25,13,11,5,12,,50,38,17,7,2,1,0.5,0.4
2025-08-19T2300,2624A,91.7608,29.2313,山南市,山南监测站,,20,9,9,3,4,62,,70,68,1,4,3,2,0.2,0.3
2025-08-19T2300,2625A,91.7706,29.2436,山南市,山南人民医院,,19,7,8,3,7,59,,70,68,2,3,3,3,0.3,0.3
2025-08-19T2300,1674A,116.6794,23.3667,汕头市,金平子站,,26,26,14,9,6,7,,46,25,33,13,5,2,0.7,0.6
2025-08-19T2300,1675A,116.7244,23.3633,汕头市,龙湖子站,,18,18,13,3,6,13,,46,25,23,9,8,6,0.5,0.6
2025-08-19T2300,1676A,116.7258,23.2775,汕头市,濠江子站,,26,26,18,7,6,5,,45,21,26,10,7,5,0.8,0.6
2025-08-19T2300,1677A,116.7519,23.4714,汕头市,澄海子站,,13,13,14,6,8,18,,47,24,16,10,5,3,0.6,0.5
2025-08-19T2300,1678A,116.6092,23.2539,汕头市,潮阳子站,,29,29,14,3,5,7,,44,24,27,9,6,5,0.9,0.6
2025-08-19T2300,3444A,116.454,23.2684,汕头市,潮南峡山,,23,23,14,9,6,9,,42,23,18,9,6,6,0.8,0.6
2025-08-19T2300,3624A,116.4069,23.2533,汕头市,潮南子站,,20,20,16,7,6,13,,40,20,16,9,4,4,0.7,0.6
2025-08-19T2300,1693A,115.3653,22.775,汕尾市,市环保局,,12,10,14,8,7,16,,35,22,14,10,3,3,0.5,0.5
2025-08-19T2300,1694A,115.3706,22.7898,汕尾市,市政府,,16,16,12,3,6,11,,35,20,17,11,4,4,0.5,0.5
2025-08-19T2300,1695A,115.3622,22.7925,汕尾市,新城中学,,21,21,14,6,6,13,,35,21,13,11,4,4,0.5,0.4
2025-08-19T2300,2645A,109.9154,33.8715,商洛市,监测站,,37,37,31,16,19,7,,85,42,36,14,6,6,0.7,0.6
2025-08-19T2300,3045A,109.9643,33.8471,商洛市,商州区中学,颗粒物(PM10),56,61,36,24,17,12,,86,39,32,14,19,8,0.7,0.5
2025-08-19T2300,2408A,115.6702,34.4285,商丘市,环境监测站,,36,28,36,25,18,82,,125,112,8,7,1,1,0.4,0.5
2025-08-19T2300,2409A,115.6458,34.4045,商丘市,粮食局,,28,28,35,12,17,80,,125,111,8,5,3,3,0.4,0.4
2025-08-19T2300,2410A,115.6293,34.3948,商丘市,睢阳区环保局,,37,37,45,15,18,77,,118,105,8,8,3,3,0.3,0.4
2025-08-19T2300,3171A,115.6071,34.4465,商丘市,梁园区档案局,,25,24,35,17,17,75,,118,104,7,7,2,2,0.3,0.4
2025-08-19T2300,1141A,121.4,31.238,上海市,普陀,,19,19,21,3,7,36,,140,90,17,14,5,6,0.4,0.4
2025-08-19T2300,1142A,121.478,31.2036,上海市,十五厂,,18,18,19,8,9,35,,118,75,10,11,8,8,0.4,0.5
2025-08-19T2300,1143A,121.467,31.3008,上海市,虹口,,17,17,21,10,10,35,,122,78,11,11,5,5,0.7,0.7
2025-08-19T2300,1147A,121.425,31.2261,上海市,静安监测站,,18,18,21,8,9,37,,95,67,14,13,4,4,0.5,0.6
2025-08-19T2300,1148A,121.703,31.1907,上海市,浦东川沙,,18,18,19,6,8,32,,104,62,14,12,6,6,0.4,0.4
2025-08-19T2300,1149A,121.533,31.2284,上海市,浦东新区监测站,,21,21,18,11,12,36,,121,80,10,8,9,8,0.5,0.5
2025-08-19T2300,1150A,121.577,31.2071,上海市,浦东张江,,23,23,19,7,8,40,,128,85,14,12,6,6,0.5,0.6
2025-08-19T2300,3265A,121.4316,31.3322,上海市,宝山庙行,,13,13,21,3,9,33,,118,71,11,14,9,9,0.3,0.4
2025-08-19T2300,3266A,121.8791,31.4662,上海市,崇明上实东滩,,14,11,12,3,6,42,,69,52,11,10,4,4,0.1,0.2
2025-08-19T2300,3268A,121.3162,31.2838,上海市,嘉定南翔,,20,20,27,9,10,26,,129,82,26,19,5,5,0.2,0.2
2025-08-19T2300,3269A,121.3359,30.7456,上海市,金山新城,,20,20,15,8,9,36,,125,89,14,8,5,4,0.7,0.6
2025-08-19T2300,3270A,121.4996,31.0739,上海市,闵行浦江,,15,15,14,3,5,34,,107,73,10,8,4,5,0.8,0.8
2025-08-19T2300,3271A,121.2886,31.1663,上海市,青浦徐泾,,17,17,17,6,7,38,,134,88,15,12,7,7,0.5,0.5
2025-08-19T2300,3272A,121.2186,31.0378,上海市,松江图书馆,,23,18,15,16,14,31,,136,88,24,14,8,8,0.7,0.8
2025-08-19T2300,3273A,121.3902,31.2059,上海市,长宁仙霞,,17,17,21,3,7,34,,126,80,14,14,8,8,0.5,0.6
2025-08-19T2300,3274A,121.7965,31.0507,上海市,浦东惠南,,19,19,16,13,12,29,,94,58,16,12,10,10,0.7,0.6
2025-08-19T2300,3544A,121.4891,30.925,上海市,奉贤南桥新城,,18,18,17,11,7,38,,106,73,11,6,4,5,0.7,0.7
2025-08-19T2300,4183A,121.4174,31.16637,上海市,冠生园路458号,,17,17,18,3,8,37,,118,79,16,15,3,4,0.6,0.6
2025-08-19T2300,4205A,121.5419,31.2683,上海市,宁武路151号,,27,27,31,3,12,28,,108,68,21,19,3,3,0.2,0.2
2025-08-19T2300,2381A,118.005,28.4572,上饶市,百草园,,,,,,,,,,,,,,,,
2025-08-19T2300,2382A,117.9756,28.4436,上饶市,市监测站,,31,31,28,13,15,14,,114,60,34,13,20,13,0.6,0.4
2025-08-19T2300,2383A,117.9519,28.4628,上饶市,凤凰光学,,30,30,36,13,21,30,,104,54,17,13,13,19,1.0,1
2025-08-19T2300,3685A,117.897,28.4315,上饶市,双创科技城,,28,28,34,13,17,32,,105,56,16,17,8,14,0.4,0.4
2025-08-19T2300,4211A,118.1904,28.4448,上饶市,裕丰大道,,30,24,15,21,12,34,,97,64,13,9,17,18,0.4,0.4
2025-08-19T2300,1669A,113.5824,24.7733,韶关市,市八中,,17,17,20,7,7,25,,51,39,18,10,16,12,0.8,0.7
2025-08-19T2300,1671A,113.5917,24.7972,韶关市,园林处,,18,18,17,8,8,20,,49,38,20,9,12,11,0.5,0.5
2025-08-19T2300,1673A,113.5971,24.6863,韶关市,曲江监测站,,18,18,17,9,8,32,,45,38,15,16,6,10,0.6,0.6
2025-08-19T2300,2809A,113.6668,24.7756,韶关市,大学路288号,,22,22,32,9,9,28,,46,38,6,11,10,11,0.5,0.6
