timepoint,stationcode,longitude,latitude,area,positionname,primarypollutant,aqi,pm10,pm10_24h,pm2_5,pm2_5_24h,o3,o3_24h,o3_8h,o3_8h_24h,no2,no2_24h,so2,so2_24h,co,co_24h
2025-08-19T0000,2566A,102.1879,31.914,阿坝藏族羌族自治州,州农科所,,22,14,17,10,8,69,,86,78,2,4,14,19,0,0.1
2025-08-19T0000,2568A,102.2502,31.8896,阿坝藏族羌族自治州,马师校,,33,23,15,23,18,55,,83,70,8,6,7,7,0.5,0.5
2025-08-19T0000,3994A,102.2165,31.9024,阿坝藏族羌族自治州,马尔康中学西区,,25,,14,17,12,66,,94,81,4,4,8,8,0.5,0.5
2025-08-19T0000,2695A,80.292,41.1694,阿克苏地区,电视台,,44,44,42,23,24,63,,90,86,14,6,6,6,0.7,0.5
2025-08-19T0000,2696A,80.2613,41.1551,阿克苏地区,艺术中心,,45,45,49,24,28,59,,99,90,22,8,4,4,0.7,0.5
2025-08-19T0000,2204A,105.6467,38.8363,阿拉善盟,西城区西花园,颗粒物(PM10),126,201,83,47,21,107,,132,128,8,12,9,9,0.7,0.7
2025-08-19T0000,2205A,105.6985,38.8411,阿拉善盟,蒙二幼,颗粒物(PM10),166,282,95,41,20,95,,119,115,4,5,10,11,0.6,0.6
2025-08-19T0000,2206A,105.724,38.8516,阿拉善盟,环保局新楼,,42,,53,29,17,103,,117,116,6,5,10,10,0.6,0.5
2025-08-19T0000,2708A,88.1264,47.8517,阿勒泰地区,市站,,24,24,26,3,5,60,,98,88,17,11,3,3,0.5,0.4
2025-08-19T0000,2630A,80.1161,32.5,阿里地区,阿里监测站,,24,6,5,3,2,76,,92,88,2,4,6,5,0.2,0.2
2025-08-19T0000,3192A,80.0903,32.5028,阿里地区,阿里藏医院,,26,8,7,3,1,82,,,,1,2,5,5,0.1,0.1
2025-08-19T0000,2642A,109.0318,32.6537,安康市,香溪洞,,20,16,22,13,13,61,,97,82,5,6,7,8,0.3,0.4
2025-08-19T0000,2644A,109.0072,32.6975,安康市,汉滨区检察院,,18,18,26,3,8,28,,82,53,12,8,4,5,0.4,0.4
2025-08-19T0000,4054A,109.0325,32.6913,安康市,市邮政管理局,,21,21,24,11,10,34,,78,54,8,7,4,7,0.6,0.6
2025-08-19T0000,2291A,117.0809,30.5177,安庆市,环科院,,31,31,26,13,16,37,,101,66,35,22,4,8,0.5,0.7
2025-08-19T0000,2292A,117.0331,30.5119,安庆市,马山宾馆,,38,33,28,26,19,53,,106,74,15,20,4,7,0.5,0.6
2025-08-19T0000,2294A,116.9896,30.6145,安庆市,安庆大学,,31,31,26,18,16,40,,120,72,32,15,4,4,0.5,0.5
2025-08-19T0000,3173A,117.0598,30.5351,安庆市,市人大,,25,25,24,15,16,65,,107,78,16,15,4,5,0.5,0.6
2025-08-19T0000,3122A,105.9606,26.2611,安顺市,伍家关,,,,13,13,8,49,,76,60,7,9,12,10,0.6,0.6
2025-08-19T0000,3123A,105.9408,26.2431,安顺市,凤凰山,,23,19,19,16,15,43,,71,55,7,11,12,12,0.3,0.5
2025-08-19T0000,3124A,105.9439,26.2564,安顺市,金钟山,,18,18,16,11,12,49,,74,59,4,6,12,11,0.4,0.5
2025-08-19T0000,3125A,105.8983,26.2481,安顺市,娄家坡,,14,13,15,8,12,42,,68,52,6,8,9,11,0.4,0.5
2025-08-19T0000,1818A,114.4839,36.0621,安阳市,棉研所,,,,,,,,,,,,,,,,
2025-08-19T0000,1819A,114.3551,36.1017,安阳市,红庙街,,45,45,38,15,16,83,,135,116,16,10,8,6,0.8,0.4
2025-08-19T0000,1820A,114.361,36.0681,安阳市,银杏小区,,40,40,42,17,19,90,,140,120,16,13,8,6,0.7,0.5
2025-08-19T0000,3141A,114.3922,36.0878,安阳市,信访局,,35,35,37,19,17,110,,150,133,14,9,7,5,0.8,0.7
2025-08-19T0000,3669A,114.4705,36.0637,安阳市,左辅环卫站,,36,36,32,13,16,57,,137,105,20,13,7,7,0.9,0.8
2025-08-19T0000,3703A,114.2917,36.0949,安阳市,安钢职工学校,,42,42,49,16,21,96,,138,119,7,10,7,6,0.5,0.8
2025-08-19T0000,1748A,123.044,41.1196,鞍山市,深沟寺,,31,31,29,20,15,57,,110,80,21,13,11,9,1.8,1.2
2025-08-19T0000,1749A,123.011,41.0931,鞍山市,太阳城,,44,44,30,24,16,50,,105,77,24,15,13,9,2.0,1.3
2025-08-19T0000,1750A,123.0485,41.1442,鞍山市,太平,,45,45,37,22,18,60,,105,78,21,15,16,9,1.6,1.1
2025-08-19T0000,1751A,122.9642,41.0971,鞍山市,铁西三道街,,43,43,40,23,22,57,,100,74,21,21,8,7,1.4,1.4
2025-08-19T0000,1753A,123.022,41.0821,鞍山市,明达新区,,42,40,29,29,14,56,,97,75,20,13,15,11,1.9,1.3
2025-08-19T0000,1754A,123.1289,41.0228,鞍山市,千山,,,,,,,,,,,,,,,,
2025-08-19T0000,4201A,122.9446,41.0826,鞍山市,兴盛南路290号,,48,48,36,24,18,49,,100,72,20,23,8,9,1.3,1.2
2025-08-19T0000,2195A,107.4212,40.761,巴彦淖尔市,附二中,,30,17,28,8,18,96,,95,92,3,7,7,7,0.6,0.7
2025-08-19T0000,2196A,107.37,40.7372,巴彦淖尔市,市环保大楼,,27,25,31,13,15,84,,87,87,6,9,6,7,0.2,0.3
2025-08-19T0000,1956A,86.1472,41.7538,巴音郭楞蒙古自治州,孔雀公园,颗粒物(PM10),101,152,83,48,24,107,,105,102,1,7,4,4,0.2,0.2
2025-08-19T0000,1957A,86.1972,41.7166,巴音郭楞蒙古自治州,棉纺厂,颗粒物(PM10),127,203,72,49,15,103,,110,101,2,4,4,4,0.2,0.2
2025-08-19T0000,1958A,86.2357,41.7173,巴音郭楞蒙古自治州,经济开发区,颗粒物(PM10),102,153,49,37,12,103,,116,103,3,4,3,4,0.3,0.2
2025-08-19T0000,2914A,106.7677,31.8794,巴中市,苏山坪,,25,,13,8,12,79,,91,90,10,6,5,4,0.5,0.4
2025-08-19T0000,3181A,106.7768,31.8526,巴中市,市五中,,27,27,20,8,10,32,,91,69,20,11,6,6,0.4,0.4
2025-08-19T0000,3183A,106.7418,31.8654,巴中市,圣泉水务公司,,20,18,16,14,11,28,,94,68,23,7,5,6,0.6,0.5
2025-08-19T0000,3616A,106.7616,31.8344,巴中市,市中心医院,,26,26,18,8,12,17,,90,68,26,11,5,6,0.4,0.3
2025-08-19T0000,2235A,122.7911,45.6077,白城市,洮北区环保局,,16,14,13,3,13,50,,76,69,7,5,7,6,0.3,0.3
2025-08-19T0000,2236A,122.8738,45.5725,白城市,市环保局,,19,19,18,3,8,42,,71,56,11,9,3,3,0.4,0.4
2025-08-19T0000,2231A,126.4219,41.9171,白山市,喜丰,,23,23,29,10,6,4,,48,33,24,13,7,8,0.6,0.5
2025-08-19T0000,2232A,126.4077,41.9419,白山市,环保局,,23,23,22,3,8,7,,54,27,14,12,5,6,0.7,0.6
2025-08-19T0000,2647A,104.1724,36.5446,白银市,第三小学,,42,42,29,7,13,85,,134,97,6,10,4,14,0.4,0.4
2025-08-19T0000,2648A,104.1465,36.5482,白银市,动力公司,,38,38,25,8,10,75,,102,97,6,9,5,6,0.4,0.5
2025-08-19T0000,2512A,106.6103,23.9011,百色市,市监测站,,12,12,15,3,5,22,,51,32,6,8,5,5,0.4,0.4
2025-08-19T0000,2513A,106.6538,23.8859,百色市,市中心血站,,17,17,19,9,9,18,,56,29,18,15,3,4,0.5,0.5
2025-08-19T0000,3406A,106.6085,23.8798,百色市,祈福高中,,7,7,17,3,7,19,,48,29,8,11,4,4,0.6,0.6
2025-08-19T0000,2270A,117.396,32.939,蚌埠市,工人疗养院,,27,27,39,8,13,81,,134,110,4,5,3,5,0.3,0.3
2025-08-19T0000,2271A,117.3605,32.9427,蚌埠市,百货大楼,,26,16,28,10,15,82,,130,111,5,7,6,6,0.4,0.5
2025-08-19T0000,2273A,117.4185,32.8911,蚌埠市,蚌埠学院,,24,24,29,11,17,72,,129,102,7,6,6,7,0.4,0.4
2025-08-19T0000,2274A,117.3533,32.9673,蚌埠市,淮上区政府,,29,14,31,13,17,90,,144,121,5,8,5,6,0.5,0.6
2025-08-19T0000,2275A,117.3145,32.8977,蚌埠市,高新区,,25,22,33,9,16,77,,140,114,9,10,6,7,0.5,0.6
2025-08-19T0000,3715A,117.3092,32.9314,蚌埠市,蚌埠田家炳中学,,27,24,38,9,16,84,,144,123,6,8,8,10,0.3,0.4
2025-08-19T0000,1585A,109.8756,40.6532,包头市,市环境监测站,,30,19,22,10,13,94,,111,87,10,20,3,8,0.5,0.7
2025-08-19T0000,1587A,109.9991,40.5842,包头市,包头八中,,28,19,32,3,17,89,,106,88,14,22,4,16,0.4,0.8
2025-08-19T0000,1588A,109.8538,40.6821,包头市,青山宾馆,,32,12,24,3,15,101,,119,94,11,22,2,5,0.4,0.7
2025-08-19T0000,1589A,109.8642,40.6288,包头市,惠龙物流,,30,19,26,13,16,93,,106,88,6,13,6,8,0.5,0.7
2025-08-19T0000,1590A,110.0377,40.5546,包头市,东河鸿龙湾,,31,12,25,7,12,97,,113,98,12,16,4,6,0.5,0.6
2025-08-19T0000,3283A,109.9154,40.5685,包头市,滨河大厦,,28,9,23,3,16,87,,116,96,12,15,3,5,0.4,0.5
2025-08-19T0000,3419A,109.9447,40.6261,包头市,包头市委党校,,30,6,23,3,16,96,,116,98,10,19,5,13,0.3,0.6
2025-08-19T0000,3683A,109.8331,40.6576,包头市,昆区政府,,32,15,29,3,16,100,,116,96,8,16,4,8,0.5,0.7
2025-08-19T0000,1930A,107.185,34.3063,宝鸡市,庙沟村,,25,7,10,3,5,80,,79,76,4,6,4,5,0.2,0.2
2025-08-19T0000,1931A,107.0708,34.3017,宝鸡市,竹园沟,,16,14,16,7,10,51,,73,62,9,7,7,8,0.2,0.6
2025-08-19T0000,1932A,107.1906,34.3672,宝鸡市,三陆医院,,15,10,21,3,8,33,,82,58,30,20,7,9,0.6,0.5
2025-08-19T0000,1933A,107.1431,34.3547,宝鸡市,监测站,,13,,20,7,8,40,,77,60,14,11,8,8,0.2,0.4
2025-08-19T0000,1934A,107.1186,34.3739,宝鸡市,技工学校,,18,16,21,12,9,49,,82,63,14,10,8,6,0.5,0.5
2025-08-19T0000,1936A,107.2058,34.3497,宝鸡市,文理学院,,26,26,20,6,7,38,,82,60,24,14,7,8,0.4,0.4
2025-08-19T0000,1937A,107.2386,34.3622,宝鸡市,三迪小学,,18,,32,6,10,56,,91,66,15,19,4,6,0.3,0.4
2025-08-19T0000,4308A,107.3898,34.3601,宝鸡市,陈仓区北开路21号,,18,,10,12,8,57,,122,85,11,11,5,6,0.3,0.4
2025-08-19T0000,1051A,115.493,38.8632,保定市,游泳馆,,48,48,33,26,22,45,,103,83,19,18,6,6,0,0.1
2025-08-19T0000,1052A,115.5213,38.8959,保定市,华电二区,,43,43,36,28,19,64,,122,102,24,13,2,3,0.6,0.6
2025-08-19T0000,1053A,115.4713,38.9108,保定市,接待中心,,46,46,37,25,18,57,,116,101,30,17,2,2,0,0
2025-08-19T0000,1054A,115.4612,38.8416,保定市,地表水厂,颗粒物(PM10),55,59,48,20,17,66,,108,88,16,16,3,4,0.5,0.5
2025-08-19T0000,3581A,115.31981,38.95208,保定市,满城区生态环境分局,细颗粒物(PM2.5),55,58,47,39,26,46,,109,84,21,16,2,2,0.2,0.2
2025-08-19T0000,3582A,115.47694,38.76408,保定市,清苑区第二中学,,41,41,35,28,16,69,,111,88,12,10,3,3,0.4,0.4
2025-08-19T0000,3583A,115.62909,39.02311,保定市,徐水物探局,颗粒物(PM10),54,58,43,29,9,78,,121,101,14,12,7,7,0.5,0.4
2025-08-19T0000,4004A,115.4202,38.8656,保定市,双鹰农机,颗粒物(PM10),51,51,40,32,21,54,,112,90,26,16,4,4,0.3,0.3
2025-08-19T0000,4034A,115.5150,38.8590,保定市,植保所站,,39,39,34,23,18,70,,125,100,20,13,2,2,0.2,0.2
2025-08-19T0000,2594A,99.1678,25.1081,保山市,市环境监测站,,25,20,16,17,13,33,,66,55,5,6,8,8,0.4,0.4
2025-08-19T0000,2595A,99.1711,25.1328,保山市,市环保局,,15,15,16,8,9,37,,69,58,3,4,7,6,0.4,0.4
2025-08-19T0000,1866A,109.2262,21.588,北海市,牛尾岭水库,,10,,8,3,5,32,,39,30,2,3,3,3,0.3,0.4
2025-08-19T0000,1867A,109.1436,21.4086,北海市,海滩公园,,14,9,13,3,4,43,,50,44,4,6,3,4,0.4,0.5
2025-08-19T0000,1868A,109.0981,21.4661,北海市,新市环保局,,11,8,13,3,8,34,,50,35,5,8,3,4,0.2,0.3
2025-08-19T0000,1869A,109.1778,21.5233,北海市,北海工业园,,13,8,15,3,7,41,,49,34,4,8,2,6,0.4,0.5
2025-08-19T0000,3400A,109.1911,21.4415,北海市,龙潭自来水厂,,14,8,12,3,6,42,,43,40,3,6,7,8,0.4,0.4
2025-08-19T0000,1001A,116.3621,39.8784,北京市,万寿西宫,,43,43,32,27,22,90,,124,115,7,6,2,3,0.6,0.6
2025-08-19T0000,1002A,116.2202,40.2915,北京市,定陵,,29,29,36,19,25,33,,132,79,2,5,2,2,0.4,0.6
2025-08-19T0000,1003A,116.4174,39.9289,北京市,东四,,42,41,31,29,22,97,,135,123,15,14,2,4,0.7,0.7
2025-08-19T0000,1004A,116.4072,39.8863,北京市,天坛,,38,38,31,25,21,49,,116,83,6,6,3,4,0.6,0.6
2025-08-19T0000,1005A,116.462,39.9365,北京市,农展馆,颗粒物(PM10),51,52,25,28,23,95,,127,116,14,15,3,4,0.7,0.8
2025-08-19T0000,1006A,116.3392,39.9295,北京市,官园,细颗粒物(PM2.5),55,,28,39,15,103,,130,123,11,12,5,6,0.6,0.6
2025-08-19T0000,1007A,116.2878,39.9611,北京市,海淀万柳,,48,48,31,31,21,82,,121,107,17,12,3,4,0.4,0.4
2025-08-19T0000,1008A,116.6636,40.135,北京市,顺义新城,,,,,,,,,,,,,,,,
2025-08-19T0000,1009A,116.6275,40.3275,北京市,怀柔镇,,35,33,36,24,26,53,,136,104,13,14,3,4,0.7,0.8
2025-08-19T0000,1010A,116.2296,40.217,北京市,昌平镇,,35,35,36,20,23,65,,125,93,12,14,4,4,0.7,0.8
2025-08-19T0000,1011A,116.3966,39.9821,北京市,奥体中心,,41,41,29,27,20,105,,123,118,7,8,4,4,0.6,0.6
2025-08-19T0000,3281A,115.9718,40.4529,北京市,延庆夏都,,31,31,33,20,23,63,,116,94,7,8,3,3,0.6,0.7
2025-08-19T0000,3418A,116.8336,40.4095,北京市,密云新城,,33,33,36,22,24,42,,111,73,7,9,2,2,0.6,0.6
2025-08-19T0000,3671A,116.088,39.9726,北京市,门头沟三家店,,42,42,43,22,23,15,,118,70,25,17,3,3,0.8,0.8
2025-08-19T0000,3672A,116.1541,39.8204,北京市,丰台云岗,颗粒物(PM10),54,57,38,35,26,37,,118,89,27,10,4,4,0.6,0.6
2025-08-19T0000,3673A,116.6804,39.9081,北京市,通州东关,,46,46,38,24,24,42,,120,97,46,18,3,5,0.7,0.7
2025-08-19T0000,3674A,115.9577,39.7603,北京市,房山燕山,,40,36,40,28,30,35,,110,80,9,10,3,3,0.5,0.6
2025-08-19T0000,3675A,116.4672,39.7733,北京市,大兴旧宫,,39,39,33,24,23,54,,119,90,15,10,2,3,0.7,0.7
2025-08-19T0000,3694A,115.986,40.4563,北京市,延庆石河营,,35,32,31,24,23,55,,103,80,7,7,3,1,0.5,0.6
2025-08-19T0000,3695A,116.6151,40.3053,北京市,怀柔新城,,35,31,37,24,27,51,,122,91,5,10,2,3,0.7,0.7
2025-08-19T0000,3696A,116.2545,39.8768,北京市,丰台小屯,颗粒物(PM10),51,52,34,31,25,54,,111,89,25,14,2,2,0.7,0.7
2025-08-19T0000,3697A,116.84,40.3844,北京市,密云镇,,37,37,34,25,25,66,,118,93,14,10,4,4,0.6,0.7
2025-08-19T0000,4182A,116.1942,39.9158,北京市,八角北路9号,颗粒物(PM10),55,60,43,29,23,56,,132,107,25,10,1,2,0.6,0.4
2025-08-19T0000,4194A,117.0790,40.1518,北京市,洳河巡河路,,45,45,38,31,25,60,,114,86,7,9,2,3,0.6,0.6
2025-08-19T0000,1761A,123.8275,41.3064,本溪市,大峪,,18,18,19,3,6,28,,81,49,17,12,5,5,0.2,0.3
2025-08-19T0000,1762A,123.7567,41.3325,本溪市,溪湖,颗粒物(PM10),59,67,42,16,13,24,,101,68,17,12,9,9,1.6,1.1
2025-08-19T0000,1763A,123.7169,41.3094,本溪市,彩屯,,31,31,28,15,15,17,,92,57,23,18,8,9,0.8,1
2025-08-19T0000,1764A,123.7669,41.2864,本溪市,东明,,21,19,22,6,8,65,,81,66,18,16,4,5,0.7,0.7
2025-08-19T0000,1765A,123.7992,41.2664,本溪市,新立屯,,24,24,16,14,7,48,,74,32,16,13,3,4,0.9,0.8
2025-08-19T0000,1766A,123.8142,41.3472,本溪市,威宁,,19,19,28,10,11,4,,68,34,27,12,9,10,0.4,0.7
2025-08-19T0000,2587A,105.2864,27.3125,毕节市,八中,,36,27,20,25,18,46,,80,67,13,10,7,6,0.5,0.4
2025-08-19T0000,2588A,105.31,27.2944,毕节市,师专,,30,26,22,21,14,47,,84,70,17,12,7,7,0.5,0.6
2025-08-19T0000,4263A,105.3688,27.3598,毕节市,工业大道,,30,30,22,21,14,59,,88,77,12,13,9,8,0.6,0.6
2025-08-19T0000,1629A,118.0018,37.3617,滨州市,第二水厂,颗粒物(PM10),57,63,23,39,16,75,,108,100,18,14,2,3,0.9,0.6
2025-08-19T0000,1630A,117.9776,37.393,滨州市,北中新校,颗粒物(PM10),59,68,26,41,13,81,,109,105,22,18,4,5,0.9,0.5
2025-08-19T0000,3514A,117.9378,37.3956,滨州市,中海酒店,颗粒物(PM10),57,63,20,36,13,93,,116,113,14,11,5,2,0.9,0.5
2025-08-19T0000,3515A,117.9378,37.3553,滨州市,开发区一中,颗粒物(PM10),54,58,24,34,14,81,,121,113,23,16,8,6,0.7,0.5
2025-08-19T0000,3516A,118.0917,37.694,滨州市,金海六路,,37,37,18,24,8,71,,101,94,22,20,4,3,0.5,0.3
2025-08-19T0000,4028A,117.9956,37.3753,滨州市,滨州市西街道办事处,细颗粒物(PM2.5),58,48,15,41,15,74,,117,108,18,15,1,2,0.7,0.4
2025-08-19T0000,2311A,115.8072,33.8399,亳州市,污水处理厂,,36,36,22,18,11,90,,136,114,12,11,5,4,0.6,0.6
2025-08-19T0000,2312A,115.7789,33.8518,亳州市,三国揽胜宫,,44,44,29,20,13,96,,137,122,9,7,4,3,0.7,0.6
2025-08-19T0000,3332A,115.7633,33.8034,亳州市,亳州学院,,29,24,21,12,11,91,,132,119,9,7,2,2,0.5,0.5
2025-08-19T0000,2693A,82.0485,44.8556,博尔塔拉蒙古自治州,市党校,,35,35,20,3,14,90,,107,104,10,7,2,3,0.1,0.2
2025-08-19T0000,2694A,82.0806,44.8969,博尔塔拉蒙古自治州,市环保局,,40,40,28,10,12,57,,98,92,15,8,6,5,0.4,0.3
2025-08-19T0000,1071A,116.8842,38.2991,沧州市,沧县城建局,,32,21,27,18,10,100,,108,92,8,17,3,3,0.3,0.3
2025-08-19T0000,1072A,116.8584,38.3254,沧州市,电视转播站,,40,40,39,7,10,86,,96,86,10,18,3,2,0.2,0.3
2025-08-19T0000,1073A,116.8709,38.3228,沧州市,市环保局,,34,34,33,23,13,94,,105,92,11,14,3,3,0.2,0.3
2025-08-19T0000,3324A,116.8136,38.3004,沧州市,河北水利电力学院,,30,9,12,8,11,93,,115,105,7,9,3,3,0.2,0.2
2025-08-19T0000,2622A,97.1806,31.1273,昌都市,昌都监测站,,12,,13,7,8,38,,73,56,6,5,5,5,0.2,0.2
2025-08-19T0000,3719A,97.1714,31.1406,昌都市,昌都会议中心,,13,12,12,7,7,41,,77,62,8,5,4,3,0.0,0.1
2025-08-19T0000,2690A,88.1236,43.8886,昌吉回族自治州,天山天池,,25,12,20,11,11,79,,103,75,6,6,3,4,0.6,0.6
2025-08-19T0000,2692A,87.2717,44.0297,昌吉回族自治州,新区政务中心,,,,28,23,9,96,,101,,,13,1,10,0.1,0.4
2025-08-19T0000,3613A,87.3095,44.0142,昌吉回族自治州,亚心广场,,27,9,37,3,7,86,,92,86,6,16,6,9,0.2,0.3
2025-08-19T0000,1120A,125.2863,43.9027,长春市,客车厂,,48,48,34,23,16,80,,98,52,18,30,4,5,0.7,0.6
2025-08-19T0000,1121A,125.2841,43.8463,长春市,邮电学院,,49,49,27,26,10,87,,97,74,13,18,5,6,0.7,0.6
2025-08-19T0000,1122A,125.3716,43.8772,长春市,劳动公园,,50,50,35,30,17,82,,100,65,17,23,7,9,0.5,0.4
2025-08-19T0000,1123A,125.3297,43.8805,长春市,园林处,,48,48,28,24,10,86,,96,85,13,17,4,6,0.7,0.5
2025-08-19T0000,1124A,125.4605,43.79,长春市,净月潭,,42,39,23,29,12,48,,88,52,9,9,5,5,0.6,0.4
2025-08-19T0000,1125A,125.7194,43.515,长春市,甩湾子,,31,31,18,21,11,46,,78,51,11,10,3,3,0.7,0.5
2025-08-19T0000,1126A,125.3863,43.8447,长春市,经开区环卫处,颗粒物(PM10),54,57,35,20,11,69,,97,68,21,26,3,5,0.7,0.6
2025-08-19T0000,1127A,125.245,43.7783,长春市,高新区管委会,,45,45,29,23,10,75,,101,80,12,14,4,5,0.6,0.5
2025-08-19T0000,1128A,125.1761,43.8325,长春市,岱山公园,"颗粒物(PM10),细颗粒物(PM2.5)",52,53,33,36,13,65,,97,62,26,28,4,4,0.6,0.4
2025-08-19T0000,4281A,125.3346,43.9164,长春市,北亚泰大街1068号,颗粒物(PM10),56,62,45,31,18,77,,95,57,24,29,7,9,0.9,0.7
2025-08-19T0000,1335A,113.0833,28.2325,长沙市,经开区环保局,,18,16,30,12,17,43,,99,68,11,14,5,5,0.3,0.3
2025-08-19T0000,1336A,112.8872,28.2189,长沙市,高开区环保局,,18,18,33,9,15,41,,115,78,7,12,4,5,0.2,0.3
2025-08-19T0000,1337A,113.0792,28.2053,长沙市,马坡岭,,31,31,36,12,17,36,,113,78,13,15,5,6,0.4,0.4
2025-08-19T0000,1338A,112.9394,28.19,长沙市,湖南师范大学,,32,32,29,11,17,48,,118,76,13,17,3,4,0.1,0.2
2025-08-19T0000,1339A,113.0178,28.1322,长沙市,雨花区环保局,,23,23,29,12,14,36,,112,70,12,10,6,7,0.5,0.6
2025-08-19T0000,1340A,112.9792,28.2597,长沙市,伍家岭,,21,21,33,7,15,45,,115,72,11,16,3,3,0.2,0.3
2025-08-19T0000,1341A,113.0014,28.1944,长沙市,火车新站,,27,27,33,7,14,36,,111,66,15,12,6,7,0.4,0.4
2025-08-19T0000,1342A,112.9844,28.1178,长沙市,天心区环保局,,18,15,27,12,15,48,,112,70,8,10,4,5,0.2,0.3
2025-08-19T0000,1343A,112.8908,28.1308,长沙市,湖南中医药大学,,20,20,36,3,21,33,,122,66,13,18,4,5,0.5,0.6
2025-08-19T0000,1344A,112.9581,28.3611,长沙市,沙坪,,21,21,22,8,15,43,,112,66,18,13,5,4,0.3,0.3
2025-08-19T0000,1727A,113.1147,36.1547,长治市,清华站,,40,32,24,12,11,128,,130,130,6,6,7,7,0.6,0.7
2025-08-19T0000,1730A,113.0886,36.2125,长治市,审计局,,44,26,21,9,13,140,,134,134,6,7,5,5,0.6,0.7
2025-08-19T0000,1731A,113.0844,36.1856,长治市,长治八中,,45,30,24,26,19,142,,138,138,5,5,8,8,0.7,0.8
2025-08-19T0000,2845A,113.1569,36.1911,长治市,德盛苑,,39,26,25,17,13,123,,125,125,7,6,7,6,0.7,0.7
2025-08-19T0000,3568A,113.06,36.0464,长治市,向阳小学,颗粒物(PM10),56,61,61,30,25,120,,128,124,8,6,3,3,0.8,0.7
2025-08-19T0000,3569A,112.8792,36.3144,长治市,屯留一中,颗粒物(PM10),51,51,29,31,25,118,,121,121,12,10,7,7,0.4,0.5
2025-08-19T0000,4189A,113.1131,36.19948,长治市,英华南巷50号,,46,32,25,14,12,145,,141,141,7,7,6,6,0.7,0.7
2025-08-19T0000,4190A,113.2367,36.3344,长治市,学府街1号,,38,27,32,14,21,121,,106,103,7,9,1,3,0.7,0.7
2025-08-19T0000,1854A,111.6975,28.9703,常德市,市二中,,36,34,35,25,25,59,,109,79,27,17,5,8,0.5,0.5
2025-08-19T0000,1857A,111.7158,29.1456,常德市,白鹤山,,,,,,,,,,,,,,,,
2025-08-19T0000,3138A,111.7153,29.0289,常德市,武陵区永安,,32,31,32,22,19,64,,113,88,10,8,4,4,0.4,0.3
2025-08-19T0000,3139A,111.6892,28.9881,常德市,鼎城区玉霞,,34,32,38,21,24,15,,111,76,68,18,6,7,0.5,0.5
2025-08-19T0000,3140A,111.6625,29.0531,常德市,武陵区长庚,,32,30,30,22,21,91,,120,100,10,9,6,6,0.6,0.6
2025-08-19T0000,1196A,119.9633,31.762,常州市,市监测站,,22,,25,11,16,68,,135,117,14,10,10,10,0.4,0.3
2025-08-19T0000,1200A,119.9468,31.7069,常州市,武进监测站,,24,24,22,7,12,70,,130,120,11,8,8,9,1.1,0.9
2025-08-19T0000,1201A,119.9255,31.9087,常州市,安家,,24,19,29,9,13,75,,129,85,17,13,9,9,0.8,0.8
2025-08-19T0000,3002A,119.9805,31.8174,常州市,行政中心,,29,29,29,9,13,71,,122,107,18,13,10,8,0.6,0.6
2025-08-19T0000,3003A,120.0522,31.7748,常州市,经开区,,22,22,33,8,12,58,,120,103,20,13,6,7,0.7,0.8
2025-08-19T0000,3010A,119.9025,31.7964,常州市,钟楼,,24,15,26,3,10,74,,127,118,13,10,6,6,0.3,0.4
2025-08-19T0000,3429A,119.8598,31.7066,常州市,武进经发区,,21,14,25,7,14,67,,130,115,9,8,8,9,0.7,0.7
2025-08-19T0000,3430A,119.5826,31.7245,常州市,金坛城区,,22,16,21,3,18,70,,156,129,9,10,8,9,0.4,0.4
2025-08-19T0000,2220A,120.4318,41.5881,朝阳市,西梁,,42,35,33,29,17,63,,113,89,18,17,7,9,0.9,0.8
2025-08-19T0000,2221A,120.4521,41.5646,朝阳市,河畔小区,,29,29,30,18,14,68,,117,94,13,15,7,8,0.8,0.7
2025-08-19T0000,2222A,120.4176,41.5648,朝阳市,八里堡,,,30,42,26,17,,,112,,26,20,6,8,0.9,0.8
2025-08-19T0000,2223A,120.3806,41.5969,朝阳市,农业园区,,35,24,26,24,19,40,,114,76,15,13,7,8,0.8,0.7
2025-08-19T0000,1705A,116.6367,23.6719,潮州市,西园路,,24,24,14,7,9,23,,52,36,14,7,6,4,0.3,0.2
2025-08-19T0000,3026A,116.6183,23.6608,潮州市,市政府,,16,16,15,7,8,23,,52,33,11,7,13,9,0.3,0.3
2025-08-19T0000,4036A,116.6461,23.6761,潮州市,金山,,16,,15,11,15,20,,51,34,8,4,5,4,0.5,0.4
2025-08-19T0000,2472A,113.0073,25.9061,郴州市,马头岭,,,16,22,7,7,,,52,18,9,11,15,7,0.4,0.4
2025-08-19T0000,2473A,113.0116,25.8226,郴州市,市职中,,6,6,15,3,10,7,,59,16,8,9,3,4,0.5,0.5
2025-08-19T0000,2475A,113.0383,25.8071,郴州市,市审计局,,11,11,13,3,6,14,,61,23,8,8,5,6,0.3,0.3
2025-08-19T0000,2476A,113.0348,25.7759,郴州市,市环保局,,10,10,13,3,6,20,,53,22,9,9,2,2,0.2,0.2
2025-08-19T0000,4252A,113.0138,25.8011,郴州市,好美居路49号,,8,7,16,3,9,23,,58,24,5,9,4,6,0.4,0.3
2025-08-19T0000,1431A,103.9728,30.7236,成都市,金泉两河,,25,25,18,8,8,16,,145,89,41,16,2,2,0.8,0.6
2025-08-19T0000,1432A,104.176,30.6872,成都市,十里店,,28,28,23,3,12,67,,180,142,29,14,2,4,0.7,0.6
2025-08-19T0000,1433A,104.079,30.5706,成都市,三瓦窑,,31,23,21,10,12,41,,176,138,62,23,2,2,0.5,0.5
2025-08-19T0000,1434A,104.1114,30.63,成都市,沙河铺,,34,34,25,14,12,33,,164,123,28,14,3,3,1.0,0.7
2025-08-19T0000,1437A,104.0786,30.6531,成都市,君平街,,49,,26,34,16,54,,182,131,31,12,6,6,0.9,0.7
2025-08-19T0000,1438A,103.613,31.0283,成都市,灵岩寺,,,,,,,,,,,,,,,,
2025-08-19T0000,2880A,104.0239,30.65639,成都市,大石西路,,35,35,25,18,14,30,,154,106,39,20,4,4,0.9,0.7
2025-08-19T0000,3136A,104.2725,30.5589,成都市,龙泉驿区区政府,,26,22,13,14,6,81,,195,156,18,14,5,5,0.6,0.5
2025-08-19T0000,3357A,104.0106,30.6931,成都市,金博路,,28,22,16,16,9,11,,155,105,56,21,4,4,0.8,0.6
2025-08-19T0000,3359A,104.0578,30.5225,成都市,华阳,,32,24,17,22,11,57,,166,126,38,20,3,3,0.7,0.6
2025-08-19T0000,3488A,104.3853,30.7453,成都市,青白江技师分院,,36,35,25,25,14,41,,178,124,41,20,7,7,0.7,0.6
2025-08-19T0000,3489A,104.0789,30.4072,成都市,科学城,,25,25,13,14,7,37,,152,111,32,13,4,4,0.5,0.5
2025-08-19T0000,4011A,103.8506,30.6947,成都市,光华大道三段,,20,20,19,3,8,38,,141,92,24,14,4,4,0.6,0.6
2025-08-19T0000,4224A,104.2433,30.5353,成都市,鲸龙路1057号,,34,34,20,20,13,59,,188,151,40,19,4,3,0.6,0.5
2025-08-19T0000,1062A,117.9531,40.9081,承德市,铁路,,44,44,36,16,20,22,,101,55,11,13,2,4,0.5,0.5
2025-08-19T0000,1063A,117.9392,40.9763,承德市,中国银行,,45,45,33,29,21,6,,92,53,15,12,3,3,0.6,0.5
2025-08-19T0000,1064A,117.9503,40.928,承德市,开发区,,40,40,34,19,15,8,,100,53,24,15,5,7,0.6,0.6
2025-08-19T0000,1066A,117.9268,41.0026,承德市,离宫,,40,40,27,17,10,7,,78,35,8,6,3,3,0.3,0.4
2025-08-19T0000,4274A,117.7994,40.9605,承德市,滨河大街98号,,38,38,31,23,19,10,,90,46,11,10,2,10,0.4,0.5
2025-08-19T0000,2314A,117.47,30.6618,池州市,池州学院,,25,24,28,12,13,77,,115,92,12,12,8,7,0.9,0.6
2025-08-19T0000,3237A,117.4918,30.6617,池州市,展览馆,,27,27,26,15,14,49,,119,76,12,10,6,6,0.8,0.6
2025-08-19T0000,3333A,117.5627,30.695,池州市,第八中学,,40,40,28,18,13,67,,122,98,12,7,5,6,0.4,0.4
2025-08-19T0000,3334A,117.5038,30.6243,池州市,第十二中学,,23,23,27,14,16,56,,118,79,18,17,5,4,1.0,0.9
2025-08-19T0000,1744A,118.9233,42.2816,赤峰市,松山一中,,24,10,22,7,10,76,,114,89,9,15,6,5,0.6,0.6
2025-08-19T0000,1745A,118.9576,42.2728,赤峰市,哈达街,,22,22,27,11,11,69,,102,82,11,14,12,11,0.6,0.6
2025-08-19T0000,1746A,118.8788,42.2554,赤峰市,天义路,,24,12,19,12,14,76,,106,86,7,11,12,12,0.5,0.4
2025-08-19T0000,3058A,119.2658,42.0353,赤峰市,银河街,,26,26,37,15,20,52,,99,71,12,12,12,14,0.6,0.6
2025-08-19T0000,3286A,118.9359,42.3147,赤峰市,桥北物流园区,,20,20,22,10,15,61,,98,70,11,16,9,11,0.6,0.7
2025-08-19T0000,2521A,107.3476,22.4136,崇左市,市环保局江州分局,,12,7,17,3,9,36,,59,44,4,8,6,7,0.5,0.5
2025-08-19T0000,4256A,107.3750,22.3736,崇左市,石景林东路7号,,12,6,15,3,10,38,,64,49,7,9,3,4,0.4,0.4
2025-08-19T0000,2298A,118.3093,32.3153,滁州市,老年大学,,42,41,33,26,17,132,,128,98,13,12,5,7,0.3,0.3
2025-08-19T0000,2299A,118.3244,32.2786,滁州市,人大宾馆,,46,31,23,27,22,147,,137,111,4,6,5,5,0.3,0.3
2025-08-19T0000,3207A,118.3118,32.3038,滁州市,市政府原办公楼,,46,41,31,32,24,128,,126,96,11,9,6,7,0.3,0.3
2025-08-19T0000,3331A,118.3267,32.2634,滁州市,图书馆,,47,,23,32,21,148,,140,111,7,8,11,11,0.2,0.3
2025-08-19T0000,2605A,101.5482,25.0441,楚雄彝族自治州,州环境监测站,,28,24,17,19,11,18,,72,51,21,12,7,4,0.5,0.5
2025-08-19T0000,2606A,101.538,25.0492,楚雄彝族自治州,市经济开发区,颗粒物(PM10),52,54,27,23,12,8,,69,47,34,14,8,6,1.0,0.7
2025-08-19T0000,2548A,107.5277,31.2827,达州市,达州职业技术学院,,38,38,33,17,6,16,,93,48,27,16,7,8,0.5,0.5
2025-08-19T0000,2549A,107.5086,31.2186,达州市,市环境监测站,,37,37,29,7,4,17,,80,47,34,25,6,7,0.4,0.4
2025-08-19T0000,2550A,107.4988,31.2132,达州市,凤凰小区,,34,34,24,19,9,21,,91,57,32,19,2,2,0.4,0.3
2025-08-19T0000,2551A,107.5082,31.1986,达州市,达县机关宾馆,,41,41,26,13,10,4,,90,43,52,24,4,5,0.5,0.4
2025-08-19T0000,2552A,107.4644,31.2124,达州市,市政中心,,50,50,33,24,8,12,,95,52,43,20,4,4,0.5,0.3
2025-08-19T0000,2614A,100.1542,25.7054,大理白族自治州,大理市环境监测站,,23,,10,16,14,46,,68,63,12,10,4,4,0.4,0.4
2025-08-19T0000,2615A,100.2171,25.5811,大理白族自治州,大理古城,,20,20,20,10,9,49,,79,59,10,8,6,6,0.6,0.6
2025-08-19T0000,1109A,121.612,38.9741,大连市,甘井子,,31,28,25,20,17,98,,113,104,12,17,10,9,0.1,0.1
2025-08-19T0000,1110A,121.565,38.9511,大连市,周水子,,32,,22,21,18,102,,104,97,5,13,7,7,0.4,0.4
2025-08-19T0000,1111A,121.5637,38.8845,大连市,星海三站,,39,29,24,27,23,102,,119,108,13,15,4,4,0.5,0.4
2025-08-19T0000,1112A,121.6302,38.9117,大连市,青泥洼桥,,32,26,28,21,20,102,,126,113,4,8,6,6,0.6,0.6
2025-08-19T0000,1113A,121.6251,38.8638,大连市,傅家庄,,45,,20,31,22,114,,124,116,6,8,8,7,0.3,0.2
2025-08-19T0000,1114A,121.5213,38.8661,大连市,七贤岭,,38,26,22,26,20,111,,120,115,6,9,12,11,0.6,0.5
2025-08-19T0000,1115A,121.2529,38.8061,大连市,旅顺,,42,,22,29,18,94,,105,100,8,8,5,5,0.5,0.4
2025-08-19T0000,1116A,121.7485,39.1311,大连市,金州,,39,30,22,27,18,92,,121,95,14,15,9,10,0.3,0.3
2025-08-19T0000,1117A,121.7811,39.0496,大连市,开发区,,38,28,22,26,22,65,,109,90,38,20,7,6,0.5,0.5
2025-08-19T0000,1118A,121.9762,39.0631,大连市,双D港,,31,23,26,16,19,97,,109,99,8,7,8,8,0.5,0.4
2025-08-19T0000,1789A,124.81117,46.03138,大庆市,大同区,,23,23,23,10,7,34,,60,52,14,12,9,8,0.7,0.7
2025-08-19T0000,1790A,125.129,46.533,大庆市,龙凤区,,21,21,20,10,9,33,,48,42,17,16,8,8,0.5,0.5
2025-08-19T0000,1791A,124.902,46.408,大庆市,红岗区,,24,24,21,7,11,28,,57,47,12,8,8,8,0.6,0.5
2025-08-19T0000,1792A,125.153,46.586,大庆市,萨尔图区,,31,31,26,9,8,32,,52,43,15,14,8,8,0.5,0.5
2025-08-19T0000,1793A,124.9042,46.6215,大庆市,让胡路区,,28,26,23,19,14,46,,51,48,9,12,7,6,0.4,0.4
2025-08-19T0000,3481A,125.141,46.634,大庆市,萨区政府监测点,,23,23,24,7,5,43,,62,55,8,12,7,8,0.2,0.2
2025-08-19T0000,1721A,113.3819,40.1097,大同市,果树场,,18,18,25,3,16,5,,82,36,28,20,8,8,0.6,0.5
2025-08-19T0000,1723A,113.2994,40.0758,大同市,云冈宾馆,颗粒物(PM10),53,55,31,19,14,13,,107,62,48,25,7,5,0.9,0.7
2025-08-19T0000,1724A,113.3444,40.0917,大同市,大同大学,,30,30,26,12,12,25,,95,50,44,30,7,8,0.6,0.6
2025-08-19T0000,1725A,113.2661,40.1269,大同市,安家小村,,49,49,26,3,8,54,,104,63,28,21,9,8,0.6,0.4
2025-08-19T0000,1726A,113.2711,40.0844,大同市,教育学院,颗粒物(PM10),52,53,29,20,14,9,,101,62,57,25,9,9,0.8,0.6
2025-08-19T0000,3282A,113.3397,40.0597,大同市,大同市卫生学校,,33,33,26,12,12,55,,102,76,21,19,6,7,0.6,0.7
2025-08-19T0000,3565A,113.1367,40.1122,大同市,云冈站,,37,37,28,19,17,13,,88,50,17,10,4,4,1.0,0.8
2025-08-19T0000,3566A,113.1186,40.2556,大同市,图书馆,,24,24,25,9,13,19,,89,49,7,10,2,3,0.7,0.7
2025-08-19T0000,3567A,113.5931,40.0461,大同市,区一中,,24,13,19,8,11,74,,105,86,6,7,8,9,0.4,0.5
2025-08-19T0000,4199A,113.2798,40.0997,大同市,魏都大道141号,,42,42,27,16,16,14,,106,64,45,23,7,6,0.9,0.7
2025-08-19T0000,2269A,124.1069,50.4097,大兴安岭地区,科技局,,49,49,23,10,9,45,,46,46,3,4,5,5,0.3,0.3
2025-08-19T0000,3663A,124.1164,50.4278,大兴安岭地区,红旗社区,,15,6,9,3,7,46,,46,46,4,8,4,4,0.3,0.3
2025-08-19T0000,1600A,124.3303,40.0625,丹东市,江湾东路,,28,21,16,9,11,87,,86,82,5,8,4,5,0.6,0.6
2025-08-19T0000,1601A,124.4256,40.1503,丹东市,临江后街,,25,21,18,7,10,77,,85,78,5,7,6,7,0.6,0.6
2025-08-19T0000,1602A,124.3933,40.1461,丹东市,元宝山,,23,19,18,9,8,73,,79,73,4,7,3,3,0.6,0.6
2025-08-19T0000,1603A,124.3633,40.1092,丹东市,民主桥,,25,20,14,8,8,80,,81,76,3,7,3,3,0.5,0.6
2025-08-19T0000,3541A,109.5726,19.5167,儋州市,第一中学子站,,10,10,10,3,2,27,,23,23,3,3,4,5,0.7,0.7
2025-08-19T0000,3542A,109.5567,19.5187,儋州市,东坡学校子站,,10,8,8,3,3,31,,25,25,2,2,6,6,0.6,0.6
2025-08-19T0000,2616A,98.5842,24.428,德宏傣族景颇族自治州,德宏州监测站,,37,37,26,21,13,29,,76,55,11,7,10,10,0.8,0.6
2025-08-19T0000,3677A,98.5881,24.4368,德宏傣族景颇族自治州,芒市人民政府综合楼,,32,32,28,16,11,26,,64,46,8,6,8,8,0.5,0.5
2025-08-19T0000,1901A,104.4239,31.1208,德阳市,东山公园,,26,26,13,18,10,80,,148,124,16,11,2,5,0.8,0.8
2025-08-19T0000,1902A,104.3826,31.1317,德阳市,西小区,,45,45,23,26,13,70,,146,116,37,19,11,3,0.9,0.9
2025-08-19T0000,1904A,104.3553,31.1091,德阳市,耐火材料厂,,42,42,27,23,15,27,,136,92,50,20,3,3,0.7,0.6
2025-08-19T0000,3639A,104.4019,31.1244,德阳市,市教育局,,33,33,22,21,12,41,,142,106,41,14,7,7,1.0,0.9
2025-08-19T0000,1622A,116.3032,37.4674,德州市,儿童乐园,,,,,,,,,,,,,,,,
2025-08-19T0000,1624A,116.2991,37.4451,德州市,监理站,,48,48,16,31,12,84,,53,,11,10,6,8,0.6,0.5
2025-08-19T0000,3066A,116.2721,37.4379,德州市,九衢泉纯净水厂,细颗粒物(PM2.5),52,48,24,36,19,66,,134,110,22,12,7,7,0.9,0.7
2025-08-19T0000,3371A,116.3728,37.4403,德州市,开发区人民医院,细颗粒物(PM2.5),58,48,24,41,15,95,,137,118,15,14,12,12,1.1,0.9
2025-08-19T0000,3511A,116.5652,37.3319,德州市,陵城艺术中心,"颗粒物(PM10),细颗粒物(PM2.5)",58,66,25,41,12,98,,114,98,17,11,7,8,1.5,1.2
2025-08-19T0000,4292A,116.3525,37.4209,德州市,新河东路,细颗粒物(PM2.5),64,56,24,46,18,79,,138,112,16,12,9,11,1.1,0.9
2025-08-19T0000,2621A,99.7056,27.8317,迪庆藏族自治州,迪庆州站,,26,,17,18,11,36,,60,49,6,6,6,6,0.5,0.4
2025-08-19T0000,3180A,99.7136,27.8094,迪庆藏族自治州,质量技术监督局,,15,14,17,8,7,48,,62,54,8,9,8,8,0.6,0.6
2025-08-19T0000,4257A,104.6092,35.5962,定西市,将台街,,36,36,26,25,13,87,,100,94,9,11,7,7,0.4,0.5
2025-08-19T0000,4309A,104.6159,35.5701,定西市,正龙路62号,,35,35,26,22,15,82,,97,92,6,6,4,4,0.2,0.2
2025-08-19T0000,1389A,113.7547,23.0494,东莞市,莞城梨川,,16,15,12,11,8,24,,57,36,13,11,6,7,0.3,0.3
2025-08-19T0000,1390A,113.7944,23.0128,东莞市,东城石井,,13,13,6,7,3,20,,49,29,20,15,4,3,0.6,0.6
2025-08-19T0000,1391A,113.7383,22.9658,东莞市,南城西平,,17,17,12,7,6,17,,47,31,26,19,6,6,0.5,0.5
2025-08-19T0000,3319A,113.7338,23.0381,东莞市,万江金泰,,14,14,11,8,5,22,,56,34,16,13,5,4,0.8,0.8
2025-08-19T0000,3626A,113.7533,23.0202,东莞市,南城元岭,,15,14,11,10,7,20,,52,31,21,15,6,6,0.6,0.6
2025-08-19T0000,3627A,113.7875,23.0457,东莞市,东城主山,,13,13,15,7,7,21,,44,,13,12,4,5,0.2,0.2
2025-08-19T0000,1666A,118.6614,37.4309,东营市,市环保局,,39,34,46,27,19,84,,112,109,15,19,7,7,0.5,0.3
2025-08-19T0000,3036A,118.6904,37.4338,东营市,开发区管委会,,49,49,28,17,12,93,,120,118,17,20,8,7,0.5,0.3
2025-08-19T0000,3365A,118.5719,37.565,东营市,垦利区民丰路,,48,48,21,27,12,93,,104,104,13,15,12,12,1.1,0.8
2025-08-19T0000,3498A,118.5055,37.8612,东营市,河口城区,,33,24,17,20,8,103,,109,108,12,11,4,4,1.2,1
2025-08-19T0000,3646A,118.4978,37.4623,东营市,胜利站,,42,40,23,29,11,91,,118,115,20,20,3,3,0.8,0.6
2025-08-19T0000,3734A,118.35,37.26,东营市,理想之城,,46,46,20,29,13,75,,108,104,21,20,4,3,0.7,0.5
2025-08-19T0000,1591A,110.0023,39.8129,鄂尔多斯市,综合楼,,34,6,29,3,11,107,,113,95,4,11,7,8,0.6,0.7
2025-08-19T0000,1592A,109.9486,39.8261,鄂尔多斯市,巴音孟克林场办事处,,36,6,31,3,11,114,,123,102,5,11,2,4,0.2,0.3
2025-08-19T0000,1593A,109.7736,39.5986,鄂尔多斯市,康泽苑,,,17,30,3,8,78,,111,87,9,11,6,6,,0.3
2025-08-19T0000,1594A,109.8119,39.5989,鄂尔多斯市,华泰汽车城,,24,9,27,7,14,74,,102,77,9,11,4,5,0.6,0.7
2025-08-19T0000,1595A,109.9734,39.7884,鄂尔多斯市,奥林花园,,34,7,29,3,14,106,,110,95,7,15,5,6,0.5,0.7
2025-08-19T0000,2436A,114.8938,30.3994,鄂州市,市政府,,33,33,30,16,12,72,,154,104,18,16,9,8,0.4,0.4
2025-08-19T0000,2437A,114.8989,30.3714,鄂州市,赵家坝,,38,38,33,14,12,67,,143,99,24,19,9,9,0.8,0.8
2025-08-19T0000,3654A,114.8094,30.4089,鄂州市,精准医疗中心,,32,32,34,8,13,72,,160,104,15,20,12,17,1.0,1.5
2025-08-19T0000,2454A,109.4978,30.2981,恩施土家族苗族自治州,湖北民院,细颗粒物(PM2.5),53,45,24,37,14,28,,96,59,17,11,9,5,0.5,0.5
2025-08-19T0000,2455A,109.4707,30.2798,恩施土家族苗族自治州,州电力总公司,,30,30,24,19,16,13,,87,47,17,12,4,3,0.1,0.1
2025-08-19T0000,3549A,109.5061,30.3772,恩施土家族苗族自治州,龙凤新区,,43,43,22,29,12,39,,97,64,5,4,4,4,0.3,0.3
2025-08-19T0000,2499A,108.3411,21.6158,防城港市,沙万,,21,21,23,12,14,34,,48,36,10,10,2,3,0.4,0.4
2025-08-19T0000,2500A,108.3514,21.7731,防城港市,防城档案局,,9,8,30,3,10,26,,39,27,7,10,3,2,0.1,0.2
2025-08-19T0000,2501A,108.3506,21.6414,防城港市,大海花园,,14,14,19,9,12,32,,51,36,5,8,4,4,0.4,0.6
2025-08-19T0000,1371A,113.1294,23.0067,佛山市,湾梁,,19,12,8,8,8,6,,40,20,37,25,6,6,0.5,0.5
2025-08-19T0000,1372A,113.1083,23.0478,佛山市,华材职中,,13,12,8,8,8,13,,48,29,25,14,3,3,0.5,0.5
2025-08-19T0000,1373A,113.144,23.0453,佛山市,南海气象局,,14,10,12,7,8,8,,42,24,28,18,4,4,0.8,0.7
2025-08-19T0000,1374A,113.2881,22.8094,佛山市,顺德苏岗,,10,6,10,3,3,14,,24,16,20,20,5,5,0.6,0.5
2025-08-19T0000,1376A,112.8383,22.8678,佛山市,高明孔堂,,13,9,10,6,6,21,,59,39,25,17,5,6,0.5,0.6
2025-08-19T0000,1377A,112.8836,23.1588,佛山市,三水监测站,,13,,6,9,8,10,,46,25,26,16,4,4,0.5,0.5
2025-08-19T0000,1378A,112.867,23.185,佛山市,三水云东海,,18,18,18,10,7,7,,50,25,33,20,2,1,0.6,0.6
2025-08-19T0000,3625A,113.2544,22.7642,佛山市,容桂街道办,,14,,3,7,6,14,,36,24,27,17,5,5,0.6,0.6
2025-08-19T0000,1280A,119.3903,26.0543,福州市,鼓山,,,,,,,,,,,,,,,,
2025-08-19T0000,1282A,119.2681,26.0504,福州市,师大,,24,22,20,13,6,74,,85,63,5,7,5,5,0.2,0.2
2025-08-19T0000,1283A,119.2984,26.1028,福州市,五四北路,,18,18,18,8,7,57,,75,58,11,8,5,4,0.3,0.3
2025-08-19T0000,1284A,119.2648,26.0768,福州市,杨桥西路,,24,21,20,12,8,75,,89,65,6,7,4,4,0.3,0.3
2025-08-19T0000,1285A,119.317,26.0746,福州市,紫阳,,25,25,22,11,5,67,,74,57,8,8,5,4,0.2,0.2
2025-08-19T0000,3048A,119.5799,26.0936,福州市,九龙,,16,13,12,3,2,51,,60,59,6,6,4,5,0.2,0.2
2025-08-19T0000,3526A,119.5189,25.9664,福州市,吴航,,23,23,14,12,7,65,,72,72,5,4,6,6,0.3,0.3
2025-08-19T0000,1755A,123.7977,41.8491,抚顺市,望花区,,34,34,50,16,21,58,,124,79,20,23,9,7,1.0,0.8
2025-08-19T0000,1756A,123.9161,41.8822,抚顺市,顺城区,,29,29,31,16,13,54,,123,88,21,20,10,6,1.5,0.8
2025-08-19T0000,1757A,124.0436,41.8611,抚顺市,东洲区,,30,30,26,17,13,37,,105,76,19,10,9,7,0.8,0.8
2025-08-19T0000,1758A,123.9247,41.8642,抚顺市,新抚区,,30,30,33,13,11,48,,120,84,17,19,7,7,0.9,0.9
2025-08-19T0000,1759A,124.0972,41.8961,抚顺市,大伙房水库,,33,33,22,14,13,50,,108,89,17,13,8,8,0.9,0.6
2025-08-19T0000,1760A,123.7086,41.8391,抚顺市,沈抚新城,,28,28,40,13,23,43,,124,76,26,28,7,9,1.1,1.3
2025-08-19T0000,2376A,116.2127,28.0814,抚州市,桐源党溪,,,41,28,19,10,23,,80,49,19,7,5,5,,0.5
2025-08-19T0000,2377A,116.3544,27.9831,抚州市,市站,,21,21,21,11,8,48,,87,66,8,4,1,2,0.5,0.5
2025-08-19T0000,2378A,116.3565,27.963,抚州市,血防站,,27,27,20,12,8,48,,84,62,9,6,6,6,0.3,0.2
2025-08-19T0000,2379A,116.3564,28.0007,抚州市,采茶剧团,,26,26,21,14,8,44,,83,61,3,3,4,4,0.2,0.3
2025-08-19T0000,2380A,116.385,27.9647,抚州市,医学分院,,26,26,22,13,9,42,,83,60,6,3,4,4,0.4,0.4
2025-08-19T0000,2207A,121.6094,41.998,阜新市,工业园区,,46,36,36,32,19,82,,148,123,16,19,11,10,0.6,0.8
2025-08-19T0000,2208A,121.6697,42.0279,阜新市,长青街,,46,35,33,32,15,87,,141,121,11,15,18,14,0.6,0.8
2025-08-19T0000,2209A,121.6673,42.0705,阜新市,农业园区,颗粒物(PM10),51,51,35,12,10,93,,141,124,10,12,5,11,0.6,0.9
2025-08-19T0000,2210A,121.6717,42.0224,阜新市,东苑,,48,38,44,33,17,86,,142,122,15,19,22,16,0.7,0.8
2025-08-19T0000,2211A,121.6506,42.0498,阜新市,玉龙新城,,37,37,35,21,15,79,,137,112,9,16,8,11,0.7,1.8
2025-08-19T0000,2301A,115.8277,32.8929,阜阳市,市监测站,,27,27,36,12,15,59,,119,84,19,18,4,4,0.5,0.5
2025-08-19T0000,2303A,115.8554,32.8605,阜阳市,开发区,,23,23,33,16,12,65,,129,97,17,14,6,6,0.3,0.3
2025-08-19T0000,2875A,115.784,32.8892,阜阳市,阜阳职业技术学院,,28,28,29,15,12,82,,130,103,10,9,5,5,0.3,0.4
2025-08-19T0000,3468A,115.7901,32.8613,阜阳市,市规划展馆,,32,32,39,17,19,75,,132,82,11,10,2,2,0.4,0.4
2025-08-19T0000,3469A,115.836,32.9183,阜阳市,枣园社区,,34,34,35,14,16,69,,124,91,12,13,2,3,0.4,0.4
2025-08-19T0000,2669A,102.9099,34.9841,甘南藏族自治州,州政府,,23,,25,16,16,66,,76,74,12,11,4,4,0.2,0.2
2025-08-19T0000,3380A,102.8914,34.9617,甘南藏族自治州,甘肃民族师范学院,,19,,37,6,16,58,,90,84,15,12,4,4,0.2,0.2
2025-08-19T0000,2570A,101.9603,30.0475,甘孜藏族自治州,水桥子,,23,8,11,8,5,72,,87,76,10,14,6,6,0.6,0.6
2025-08-19T0000,3065A,101.9533,29.9972,甘孜藏族自治州,州环保局,,25,,14,15,5,77,,92,78,6,15,4,4,0.7,0.7
2025-08-19T0000,3414A,115.8347,28.932,赣江新区,桑海产业园,,41,41,27,11,11,14,,115,80,65,22,4,5,0.3,0.3
2025-08-19T0000,2362A,114.9017,25.9149,赣州市,通天岩,,18,16,19,12,14,30,,52,37,2,3,14,15,0.6,0.7
2025-08-19T0000,2363A,114.9367,25.8664,赣州市,地委,,17,17,21,8,12,41,,60,,7,8,7,7,0.5,0.5
2025-08-19T0000,2364A,114.9461,25.8481,赣州市,气象台,,13,13,17,3,7,40,,56,44,4,5,8,9,0.3,0.3
2025-08-19T0000,2365A,114.9322,25.8333,赣州市,市图书馆,,11,11,14,6,10,33,,53,37,6,6,4,5,0.4,0.4
2025-08-19T0000,2366A,114.8905,25.8471,赣州市,华坚鞋城,,14,14,20,8,9,32,,54,40,10,10,11,6,0.3,0.4
2025-08-19T0000,3109A,115.0093,25.8613,赣州市,赣县区卫计委,,8,,14,3,9,24,,55,38,8,6,6,6,0.3,0.3
2025-08-19T0000,2683A,106.2319,36.1417,固原市,马园,,,,,,,,,,,,,,,,
2025-08-19T0000,2684A,106.2792,36.0022,固原市,监测站,,17,,17,8,6,31,,84,62,34,12,6,6,0.2,0.2
2025-08-19T0000,2685A,106.2375,36.0211,固原市,新区,,15,11,14,10,7,43,,79,61,21,10,7,7,0.4,0.4
2025-08-19T0000,3522A,106.2177,35.9959,固原市,原州区十五小,,22,12,13,8,8,70,,80,69,8,8,8,8,0.2,0.3
2025-08-19T0000,2543A,106.6308,30.5278,广安市,小平旧居,,,,,,,,,,,,,,,,
2025-08-19T0000,2544A,106.6303,30.4576,广安市,市委,,43,42,29,30,20,50,,103,82,20,16,7,7,0.4,0.3
2025-08-19T0000,2545A,106.6271,30.4663,广安市,友谊中学,,35,32,30,24,15,61,,108,92,17,14,4,3,0.7,0.7
2025-08-19T0000,2547A,106.6388,30.4551,广安市,广电花园,颗粒物(PM10),51,51,37,27,14,45,,94,78,16,12,3,3,0.5,0.5
2025-08-19T0000,2902A,106.6351,30.4865,广安市,北辰小学,,49,49,34,24,15,37,,101,78,20,12,12,9,0.8,0.7
2025-08-19T0000,2523A,105.8945,32.4535,广元市,黑石坡,,30,29,26,21,17,58,,88,70,12,13,11,12,0.3,0.4
2025-08-19T0000,2524A,105.821,32.4444,广元市,老城,,17,12,17,6,7,53,,107,81,20,17,3,13,0.6,0.8
2025-08-19T0000,2526A,105.8628,32.4287,广元市,监测站,,20,16,16,6,9,64,,95,77,12,14,6,12,0.7,1
2025-08-19T0000,3617A,105.8047,32.4166,广元市,经开区,,20,20,24,13,15,43,,92,73,28,16,6,11,0.6,0.8
2025-08-19T0000,1345A,113.2347,23.1423,广州市,广雅中学,,22,22,15,15,9,4,,53,25,39,23,3,3,0.5,0.4
2025-08-19T0000,1346A,113.2612,23.105,广州市,市五中,,22,21,15,12,8,5,,52,26,43,25,7,5,0.4,0.4
2025-08-19T0000,1348A,113.3478,23.0916,广州市,广东商学院,,21,21,16,13,8,7,,52,24,36,26,5,4,0.4,0.4
2025-08-19T0000,1349A,113.4332,23.1047,广州市,市八十六中,,15,12,12,8,8,10,,47,20,29,26,4,3,0.4,0.3
2025-08-19T0000,1350A,113.3505,22.9483,广州市,番禺中学,,19,19,11,13,9,11,,47,25,27,16,6,6,0.5,0.5
2025-08-19T0000,1351A,113.2146,23.3916,广州市,花都师范,,24,24,17,12,9,15,,61,41,31,21,4,4,0.4,0.4
2025-08-19T0000,1352A,113.2597,23.1331,广州市,市监测站,,22,22,16,13,8,6,,54,28,35,22,6,6,0.4,0.4
2025-08-19T0000,1353A,113.5618,23.312,广州市,九龙镇镇龙,,10,10,11,3,6,21,,58,40,12,11,6,6,0.4,0.4
2025-08-19T0000,1354A,113.2765,23.1544,广州市,麓湖,,19,18,15,9,7,6,,53,24,38,26,1,1,0.1,0.2
2025-08-19T0000,1355A,113.443,23.3035,广州市,帽峰山森林公园,,12,,5,3,7,37,,63,46,8,8,8,8,0.4,0.4
2025-08-19T0000,2846A,113.3221,23.1322,广州市,体育西,,20,20,19,12,11,7,,52,25,38,28,4,3,0.6,0.5
2025-08-19T0000,3298A,113.5717,23.5491,广州市,从化街口,,11,6,8,3,4,35,,48,43,7,8,6,7,0.5,0.5
2025-08-19T0000,3299A,113.3472,23.3692,广州市,白云竹料,,10,10,10,3,5,26,,59,42,13,13,4,4,0.5,0.5
2025-08-19T0000,3300A,113.2981,23.237,广州市,白云嘉禾,,13,12,12,9,8,25,,59,35,17,17,4,4,0.5,0.5
2025-08-19T0000,3301A,113.4256,23.1716,广州市,黄埔科学城,,12,12,14,6,8,24,,61,34,13,12,5,5,0.5,0.5
2025-08-19T0000,3302A,113.3942,23.0483,广州市,番禺大学城,,21,21,19,13,8,12,,49,26,31,22,11,10,0.4,0.3
2025-08-19T0000,3303A,113.4922,22.8168,广州市,南沙黄阁,,,,6,,3,,,26,,,15,,5,,0.4
2025-08-19T0000,3304A,113.5342,22.7896,广州市,南沙街,,20,16,9,14,5,18,,42,30,24,14,5,5,0.5,0.5
2025-08-19T0000,3443A,113.2902,23.5544,广州市,花都梯面,,10,10,8,3,3,26,,61,50,12,9,5,5,0.4,0.4
2025-08-19T0000,3445A,113.7858,23.7478,广州市,从化良口,,11,8,8,3,4,34,,39,38,7,5,4,4,0.4,0.4
2025-08-19T0000,3446A,113.8051,23.2614,广州市,增城荔城,,9,9,7,3,4,26,,48,38,7,6,7,7,0.3,0.3
2025-08-19T0000,2505A,109.568,23.1478,贵港市,德智高中,,,,,,,,,,,,,,,,
2025-08-19T0000,2506A,109.6047,23.0666,贵港市,江南子站,,46,46,24,14,17,23,,45,27,17,12,11,11,0.5,0.7
2025-08-19T0000,2508A,109.5669,23.1065,贵港市,荷城子站,,12,7,11,3,4,37,,50,36,4,7,8,8,0.6,0.5
2025-08-19T0000,3405A,109.5886,23.1172,贵港市,新世纪学校,,11,6,13,3,9,35,,50,36,5,7,1,2,0.5,0.6
2025-08-19T0000,4260A,109.5933,23.0951,贵港市,中山路155-3号,,13,9,23,9,12,38,,54,37,5,10,4,5,0.5,0.5
2025-08-19T0000,1439A,106.6899,26.5998,贵阳市,马鞍山,,,12,16,,2,27,,59,29,5,12,3,3,0.2,0.2
2025-08-19T0000,1441A,106.6243,26.6266,贵阳市,鉴湖路,,19,19,26,3,5,29,,60,28,6,11,4,4,0.2,0.3
2025-08-19T0000,1442A,106.7487,26.6343,贵阳市,燕子冲,,13,,15,9,14,26,,64,42,11,15,1,2,0,0
2025-08-19T0000,1443A,106.6555,26.4365,贵阳市,碧云窝,,27,27,29,7,9,10,,59,29,17,11,4,4,0.2,0.2
2025-08-19T0000,1445A,106.7109,26.6027,贵阳市,红边门,,17,17,22,9,11,36,,62,34,10,21,3,3,0.2,0.3
2025-08-19T0000,1446A,106.7164,26.5699,贵阳市,新华路,,25,,20,17,14,39,,65,38,15,22,2,7,0.1,0.2
2025-08-19T0000,1447A,106.674,26.5424,贵阳市,太慈桥,,14,14,15,7,7,13,,64,23,19,14,4,4,0.1,0.1
2025-08-19T0000,1552A,106.805,26.3003,贵阳市,桐木岭,,14,14,24,9,13,38,,58,47,2,2,1,2,0.9,0.9
2025-08-19T0000,4230A,106.6882,26.5695,贵阳市,花果园大街66号,,23,,13,16,15,30,,67,27,14,24,3,3,0.4,0.5
2025-08-19T0000,4231A,106.6873,26.5169,贵阳市,漓江路57号,,14,14,22,7,12,31,,66,32,14,18,3,4,0.4,0.4
2025-08-19T0000,1862A,110.4144,25.3167,桂林市,电子科大尧山校区,,,,,,,,,,,,,,,,
2025-08-19T0000,1864A,110.3089,25.2708,桂林市,龙隐路小学,,10,10,20,3,9,16,,50,27,11,10,5,6,0.3,0.3
2025-08-19T0000,1865A,110.2869,25.2178,桂林市,八中,,9,8,20,6,9,17,,56,34,17,12,6,8,0.8,0.7
2025-08-19T0000,3531A,110.296,25.1253,桂林市,旅游学院,,7,6,10,3,6,16,,58,34,13,8,2,5,0.3,0.3
2025-08-19T0000,4222A,110.1835,25.2444,桂林市,环湖路276号,,25,24,23,17,12,18,,55,32,15,10,33,19,0.3,0.3
2025-08-19T0000,4301A,110.2803,25.2773,桂林市,信义路13号,,13,12,20,9,10,21,,58,33,15,11,5,6,0.8,0.7
2025-08-19T0000,2674A,100.2561,34.4714,果洛藏族自治州,玛沁县大武镇,,20,20,28,12,11,63,,94,86,3,6,18,16,0.6,0.6
2025-08-19T0000,1129A,126.5422,45.755,哈尔滨市,岭北,,24,16,19,8,9,76,,94,73,20,23,10,11,0.5,0.6
2025-08-19T0000,1130A,126.561,45.8167,哈尔滨市,松北商大,,26,26,29,10,9,24,,49,31,22,25,6,6,0.5,0.5
2025-08-19T0000,1131A,126.979,45.5419,哈尔滨市,阿城会宁,,21,21,30,8,10,27,,66,28,11,18,7,7,0.5,0.5
2025-08-19T0000,1132A,126.599,45.7222,哈尔滨市,南岗学府路,,42,42,38,12,10,4,,69,33,52,31,8,7,0.6,0.8
2025-08-19T0000,1133A,126.689,45.7733,哈尔滨市,太平宏伟公园,,34,34,47,14,12,23,,62,30,28,27,8,9,0.6,0.7
2025-08-19T0000,1134A,126.635,45.7667,哈尔滨市,道外承德广场,,35,35,36,10,10,25,,63,31,31,26,8,9,0.4,0.6
2025-08-19T0000,1135A,126.685,45.7319,哈尔滨市,香坊红旗大街,,34,34,43,6,12,20,,65,32,32,29,12,13,0.6,0.7
2025-08-19T0000,1136A,126.6411,45.7258,哈尔滨市,动力和平路,,42,36,32,29,14,18,,71,37,34,29,10,10,0.6,0.6
2025-08-19T0000,1137A,126.593,45.7478,哈尔滨市,道里建国路,,24,24,33,14,9,42,,69,39,24,28,10,11,1.3,2.4
2025-08-19T0000,1138A,126.615,45.61,哈尔滨市,平房东轻厂,,20,20,23,8,8,29,,66,28,17,22,6,7,0.4,0.5
2025-08-19T0000,1139A,126.595,45.9855,哈尔滨市,呼兰师专,,21,21,33,12,7,25,,54,32,23,27,9,9,0.5,0.5
2025-08-19T0000,1140A,126.6206,45.6842,哈尔滨市,省农科院,,50,50,48,13,12,3,,64,27,51,32,12,11,0.6,0.6
2025-08-19T0000,2688A,93.5128,42.8172,哈密市,地区监测站,颗粒物(PM10),81,111,80,16,26,102,,118,105,9,24,4,8,0.1,0.2
2025-08-19T0000,2689A,93.4961,42.8328,哈密市,哈密师范学校,颗粒物(PM10),51,52,80,19,22,106,,74,,7,28,4,8,0.4,0.6
2025-08-19T0000,2671A,100.9048,36.9639,海北藏族自治州,海晏县西海镇,,39,39,24,26,17,82,,112,109,15,4,14,8,0.6,0.8
2025-08-19T0000,3867A,102.0738,36.5056,海东市,平安区公安北苑,,31,31,37,17,17,62,,114,89,12,6,8,11,0.6,0.6
2025-08-19T0000,1409A,110.576,19.9507,海口市,东寨港,,,0,8,,6,26,,32,31,3,2,7,5,0.3,0.3
2025-08-19T0000,1410A,110.3232,20.0574,海口市,海南大学,,14,14,8,3,3,37,,37,37,3,3,2,2,0.3,0.3
2025-08-19T0000,1411A,110.283,20.0053,海口市,秀英海南医院,,15,15,8,3,3,23,,32,28,14,7,6,5,0.3,0.3
2025-08-19T0000,1412A,110.338,19.9969,海口市,海南师范大学,,14,14,8,3,3,32,,33,33,4,4,4,4,0.3,0.3
2025-08-19T0000,1413A,110.33,20.0356,海口市,龙华路环保局宿舍,,12,12,8,3,4,34,,34,34,4,5,5,5,0.3,0.3
2025-08-19T0000,3539A,110.5111,19.9736,海口市,桂林洋子站,,16,16,11,9,6,27,,34,33,5,4,2,2,0.2,0.3
2025-08-19T0000,2673A,100.6188,36.2866,海南藏族自治州,共和县恰卜恰镇,,39,39,26,20,13,60,,112,98,33,7,17,14,0.8,0.6
2025-08-19T0000,2676A,97.3731,37.3753,海西蒙古族藏族自治州,德令哈市,,37,14,18,14,11,117,,123,120,1,2,12,13,0.3,0.4
2025-08-19T0000,1048A,114.5302,36.6116,邯郸市,东污水处理厂,,46,46,35,21,24,72,,132,99,10,14,5,5,0.5,0.4
2025-08-19T0000,1049A,114.4918,36.5713,邯郸市,矿院,,26,19,28,12,14,83,,138,106,10,16,3,3,0.4,0.4
2025-08-19T0000,1050A,114.484,36.6133,邯郸市,丛台公园,,33,33,28,17,21,94,,139,116,10,12,4,4,0.4,0.4
2025-08-19T0000,3458A,114.7895,36.5593,邯郸市,香泉濮院小区,,40,40,32,3,4,85,,134,106,10,12,2,3,0.7,0.5
2025-08-19T0000,3579A,114.50634,36.77178,邯郸市,永年区实验高中,,,45,46,23,27,,,148,123,13,13,5,4,0.4,0.4
2025-08-19T0000,3580A,114.20016,36.44293,邯郸市,峰峰矿区临水派出所,,46,46,41,3,6,106,,164,132,2,4,3,4,0.7,0.3
2025-08-19T0000,2634A,106.9893,33.1842,汉中市,汉川机床厂子校,,33,33,17,12,9,77,,82,72,10,10,4,4,0.5,0.5
2025-08-19T0000,2635A,107.0154,33.0706,汉中市,市监测站,,41,41,21,21,11,57,,80,64,15,8,6,6,0.6,0.5
2025-08-19T0000,2636A,107.0089,33.1138,汉中市,鑫源开发区,,25,25,21,13,10,67,,77,66,11,9,6,6,0.4,0.4
2025-08-19T0000,2637A,107.007,33.0323,汉中市,南郑大河坎水厂,,33,33,20,22,11,54,,77,56,14,9,5,5,0.4,0.4
2025-08-19T0000,1223A,120.2072,30.2111,杭州市,滨江,,26,26,26,13,12,64,,139,99,13,14,6,7,0.5,0.5
2025-08-19T0000,1224A,120.0633,30.2747,杭州市,西溪,,29,29,26,13,16,48,,127,95,14,11,8,9,0.4,0.4
2025-08-19T0000,1226A,120.3417,30.3150,杭州市,下沙,,26,26,23,12,11,52,,132,83,19,17,6,6,0.2,0.2
2025-08-19T0000,1227A,120.1269,30.2456,杭州市,卧龙桥,,24,24,24,13,14,43,,122,81,15,10,8,8,0.5,0.5
2025-08-19T0000,1228A,120.1903,30.2692,杭州市,浙江农大,,21,21,34,13,14,62,,123,86,10,12,6,6,0.4,0.4
2025-08-19T0000,1230A,120.1197,30.3119,杭州市,和睦小学,,22,22,22,11,13,65,,132,93,14,12,6,6,0.4,0.4
2025-08-19T0000,1231A,120.3019,30.4183,杭州市,临平镇,,29,29,29,13,15,44,,141,83,14,11,6,6,0.3,0.3
2025-08-19T0000,1232A,120.2753,30.1839,杭州市,城厢镇,,27,27,28,14,13,62,,136,97,8,10,7,8,0.4,0.4
2025-08-19T0000,1233A,120.0883,30.1808,杭州市,云栖,,18,18,25,8,12,44,,142,93,23,18,10,9,0.7,0.6
2025-08-19T0000,3557A,119.9464,30.0494,杭州市,镇二中,,43,37,27,30,21,32,,114,88,41,16,4,4,0.5,0.4
2025-08-19T0000,3558A,119.7183,30.2367,杭州市,市府大楼,,36,36,30,19,19,70,,115,104,18,13,8,8,0.3,0.3
2025-08-19T0000,3656A,120.1556,30.2864,杭州市,消防大队,,25,25,27,12,13,71,,131,96,11,11,7,7,0.5,0.4
2025-08-19T0000,1270A,117.1959,31.7848,合肥市,明珠广场,,27,27,29,14,15,77,,121,88,20,16,6,7,0.5,0.6
2025-08-19T0000,1271A,117.3072,31.8764,合肥市,三里街,,31,31,32,14,16,72,,107,,27,17,6,7,0.5,0.5
2025-08-19T0000,1272A,117.2588,31.8707,合肥市,琥珀山庄,,24,24,34,14,19,76,,129,92,18,14,8,9,0.5,0.5
2025-08-19T0000,1273A,117.1604,31.9052,合肥市,董铺水库,,27,27,29,12,14,52,,98,70,11,13,4,5,0.4,0.4
2025-08-19T0000,1274A,117.25,31.8571,合肥市,长江中路,,26,22,34,10,14,83,,123,86,14,14,7,8,0.4,0.4
2025-08-19T0000,1275A,117.266,31.9436,合肥市,庐阳区,,34,34,38,9,15,74,,132,79,24,21,6,7,0.4,0.5
2025-08-19T0000,1276A,117.3453,31.8616,合肥市,瑶海区,,34,34,35,12,15,68,,115,75,31,20,6,7,0.7,0.6
2025-08-19T0000,1277A,117.3027,31.7964,合肥市,包河区,,31,31,32,3,16,37,,118,82,55,21,6,7,0.6,0.6
2025-08-19T0000,1278A,117.2776,31.7385,合肥市,滨湖新区,,29,19,29,14,21,91,,121,90,8,9,8,9,0.4,0.4
2025-08-19T0000,1279A,117.1318,31.8403,合肥市,高新区,,24,24,29,14,15,76,,120,94,20,15,6,7,0.5,0.5
2025-08-19T0000,3464A,117.3803,31.9147,合肥市,高教基地,,39,39,26,22,16,49,,109,77,30,14,5,5,0.5,0.4
2025-08-19T0000,3614A,79.924,37.0877,和田地区,地区环保局,细颗粒物(PM2.5),250,329,1855,200,499,82,,86,82,5,10,1,2,0.4,0.5
2025-08-19T0000,3615A,79.9131,37.113,和田地区,市环保局,细颗粒物(PM2.5),233,350,1669,183,456,15,,76,56,9,15,3,3,0.2,0.3
2025-08-19T0000,2516A,108.2011,24.715,河池市,东仁乐园,,,,,,,,,,,,,,,,
2025-08-19T0000,2517A,108.0497,24.6947,河池市,市环保站,,11,11,17,6,7,28,,42,31,6,8,5,4,0.5,0.5
2025-08-19T0000,2518A,108.0983,24.6989,河池市,市疾控中心,,12,12,16,7,9,19,,33,20,9,12,6,6,0.5,0.6
2025-08-19T0000,1696A,114.6778,23.7569,河源市,源西,,14,14,12,3,5,0,,28,12,14,6,4,5,0.7,0.7
2025-08-19T0000,1697A,114.6944,23.7586,河源市,东埔,,10,10,12,3,7,14,,35,20,12,9,4,5,0.5,0.5
2025-08-19T0000,1698A,114.6892,23.7233,河源市,老城,,13,13,13,9,7,9,,37,18,15,8,5,5,0.6,0.6
2025-08-19T0000,1718A,115.4208,35.2464,菏泽市,气象局,,36,30,37,18,21,113,,125,120,12,10,3,3,0.3,0.3
2025-08-19T0000,3374A,115.5564,35.0891,菏泽市,定陶老年大学,,32,31,32,14,14,102,,128,118,10,9,5,5,0.3,0.3
2025-08-19T0000,4184A,115.4797,35.24401,菏泽市,永昌路1号,,35,34,40,24,23,109,,122,116,15,15,7,7,0.3,0.3
2025-08-19T0000,4193A,115.4715,35.2800,菏泽市,长城路999号,,38,34,38,14,19,120,,132,129,12,13,5,6,0.4,0.5
2025-08-19T0000,2514A,111.5264,24.4172,贺州市,环保小区,,18,18,15,3,8,31,,42,38,10,10,12,12,1.0,1
2025-08-19T0000,2515A,111.5608,24.4078,贺州市,政协大楼,,18,18,13,10,8,32,,50,44,10,8,10,8,0.7,0.7
2025-08-19T0000,3534A,111.4744,24.4553,贺州市,西湾,,15,15,22,3,12,15,,34,30,18,11,9,9,0.7,0.7
2025-08-19T0000,2385A,114.17,35.9019,鹤壁市,市监测站,,36,36,34,23,27,110,,148,127,7,8,4,4,0.4,0.4
2025-08-19T0000,2386A,114.2956,35.7511,鹤壁市,市交警支队,,39,34,28,27,25,87,,131,106,14,12,6,6,0.7,0.6
2025-08-19T0000,2387A,114.2878,35.7306,鹤壁市,迎宾馆,,44,44,40,26,26,87,,138,109,13,7,3,5,0.7,0.7
2025-08-19T0000,3474A,114.2617,35.6822,鹤壁市,大新区,,30,30,39,17,19,55,,132,93,20,5,8,8,0.6,0.6
2025-08-19T0000,3596A,114.1572,35.9603,鹤壁市,南山宾馆,,34,34,30,15,19,107,,158,129,11,7,4,4,0.6,0.6
2025-08-19T0000,2244A,130.2537,47.3416,鹤岗市,哈啤分公司,,22,22,22,7,10,57,,77,58,3,8,12,12,0.4,0.5
2025-08-19T0000,2245A,130.2684,47.3086,鹤岗市,斯达机电,,26,26,32,15,9,67,,76,67,6,11,13,12,0.4,0.3
2025-08-19T0000,2246A,130.3114,47.3388,鹤岗市,东山纸板厂,,29,29,41,11,17,76,,78,59,4,16,13,13,0.3,0.4
2025-08-19T0000,2247A,130.1097,47.3382,鹤岗市,五号水库,,17,8,11,3,5,53,,69,44,8,10,8,8,0.4,0.3
2025-08-19T0000,2263A,127.4833,50.2524,黑河市,交通局,,19,15,24,13,12,36,,52,38,10,10,5,4,0.3,0.2
2025-08-19T0000,2264A,127.5144,50.2341,黑河市,环保局,,18,18,23,11,10,36,,59,44,9,10,5,5,0.2,0.3
2025-08-19T0000,2265A,127.5291,50.2472,黑河市,大黑河岛,,,,,,,24,,45,34,6,5,20,19,,
2025-08-19T0000,1074A,115.6838,37.7541,衡水市,电机北厂,细颗粒物(PM2.5),52,45,29,36,16,82,,116,100,15,13,4,6,0.7,0.4
2025-08-19T0000,1075A,115.6303,37.7316,衡水市,市监测站,,46,44,24,32,15,90,,114,105,8,6,8,8,0.6,0.6
2025-08-19T0000,3188A,115.6683,37.7217,衡水市,市城管局,,35,30,26,24,17,80,,115,100,14,11,3,3,0.5,0.4
2025-08-19T0000,3459A,115.5989,37.5491,衡水市,地表水厂,,,57,33,25,10,55,,115,82,,13,9,9,0.4,0.3
2025-08-19T0000,2456A,112.5003,26.9167,衡阳市,原169医院,,12,,21,3,9,37,,69,45,3,3,3,3,0.4,0.5
2025-08-19T0000,2457A,112.6194,26.9258,衡阳市,衡阳化工总厂,,12,7,22,6,12,38,,60,42,4,7,3,5,0.6,0.7
2025-08-19T0000,2458A,112.6211,26.8956,衡阳市,珠晖区环保局,,12,,19,8,13,35,,59,41,5,8,6,8,0.5,0.6
2025-08-19T0000,2459A,112.6197,26.8733,衡阳市,市委党校,,12,11,19,3,11,37,,57,42,6,8,9,11,0.3,0.3
2025-08-19T0000,2460A,112.6006,26.8919,衡阳市,市监测站,,12,12,19,7,13,37,,58,42,6,8,3,7,0.4,0.5
2025-08-19T0000,2461A,112.5664,26.9056,衡阳市,真空机电公司,,13,10,27,9,15,34,,62,41,4,7,4,6,0.6,0.8
2025-08-19T0000,3399A,112.6703,26.882,衡阳市,师范学院,,12,,26,7,13,36,,54,39,4,8,8,10,0.7,0.8
2025-08-19T0000,2608A,103.3772,23.3993,红河哈尼族彝族自治州,污水处理厂,颗粒物(PM10),51,52,38,27,26,45,,96,69,19,14,20,20,0.6,0.4
2025-08-19T0000,2609A,103.3861,23.35,红河哈尼族彝族自治州,监测站,,44,44,42,19,22,43,,96,72,12,8,12,28,0.2,0.1
2025-08-19T0000,3038A,103.3758,23.368,红河哈尼族彝族自治州,州图书馆,,36,32,31,25,23,50,,95,75,9,10,4,32,0.3,0.3
2025-08-19T0000,1090A,111.6507,40.7517,呼和浩特市,呼市一监,,23,12,19,10,13,72,,80,62,11,16,2,2,0.4,0.4
2025-08-19T0000,1091A,111.6572,40.8033,呼和浩特市,小召,,19,,18,13,14,54,,91,72,28,22,9,9,0.7,0.6
2025-08-19T0000,1094A,111.7516,40.8369,呼和浩特市,如意水处理厂,,25,25,23,14,12,46,,90,66,27,21,5,5,0.4,0.4
2025-08-19T0000,1095A,111.7276,40.8062,呼和浩特市,二十九中,,31,31,25,17,16,56,,97,78,27,19,5,5,0.7,0.6
2025-08-19T0000,1096A,111.5512,40.7866,呼和浩特市,工大金川校区,,24,16,24,8,12,75,,75,54,11,23,5,5,0.4,0.5
2025-08-19T0000,1097A,111.717,40.7612,呼和浩特市,化肥厂生活区,,23,23,25,14,14,71,,98,77,21,18,6,5,0.5,0.5
2025-08-19T0000,3698A,111.5968,40.8178,呼和浩特市,红旗小学,,20,14,18,9,11,61,,94,74,20,22,2,2,0.3,0.3
2025-08-19T0000,3699A,111.6518,40.8389,呼和浩特市,海东办,,22,12,27,10,12,69,,99,,19,29,4,5,0.5,0.5
2025-08-19T0000,2192A,119.7594,49.2261,呼伦贝尔市,区环保局,,27,27,27,9,11,48,,83,64,7,10,5,5,0.5,0.5
2025-08-19T0000,3061A,119.7512,49.1577,呼伦贝尔市,国华电力东,,16,16,17,9,11,45,,95,71,1,3,8,8,0.6,0.6
2025-08-19T0000,1250A,120.0751,30.8669,湖州市,城西水厂,,23,23,29,12,17,33,,172,112,18,10,7,7,0.3,0.4
2025-08-19T0000,2873A,120.0830,30.8929,湖州市,仁皇山新区,,23,23,28,10,16,27,,164,108,17,12,5,5,0.5,0.4
2025-08-19T0000,2907A,120.1844,30.8596,湖州市,吴兴区站,,25,25,28,10,16,20,,153,93,18,10,7,7,0.6,0.6
2025-08-19T0000,3562A,120.4148,30.8538,湖州市,南浔区站,,21,21,24,11,12,22,,136,80,15,10,6,6,0.6,0.5
2025-08-19T0000,1607A,120.9049,40.7211,葫芦岛市,龙港区,细颗粒物(PM2.5),72,67,48,52,24,100,,134,125,11,20,4,14,0.8,0.7
2025-08-19T0000,1608A,120.8392,40.7514,葫芦岛市,化工街,,42,36,36,29,18,68,,131,102,27,30,8,11,0.8,0.5
2025-08-19T0000,1609A,120.8341,40.7073,葫芦岛市,新区,细颗粒物(PM2.5),82,,38,60,28,87,,131,116,16,21,3,8,0.8,0.7
2025-08-19T0000,1610A,120.8695,40.7677,葫芦岛市,东城区,细颗粒物(PM2.5),113,,35,85,28,64,,126,102,32,21,4,7,1.0,0.7
2025-08-19T0000,2482A,109.5981,27.5721,怀化市,林科所,,26,26,34,3,9,16,,76,24,5,7,5,4,0.6,0.6
2025-08-19T0000,2483A,109.9453,27.5444,怀化市,河西地税局,,30,30,33,12,15,15,,67,24,9,10,3,3,0.1,0.2
2025-08-19T0000,2484A,109.9781,27.5342,怀化市,市四医院,,31,31,41,16,21,12,,76,31,16,13,4,5,0.4,0.5
2025-08-19T0000,2485A,109.9972,27.5578,怀化市,监测楼,,21,21,37,10,17,9,,72,32,16,13,3,5,0.3,0.3
2025-08-19T0000,2486A,110.0394,27.583,怀化市,市委党校,,9,9,34,3,16,13,,62,33,11,10,6,9,0.1,0.2
2025-08-19T0000,1210A,119.036,33.5981,淮安市,钵池山,,35,29,27,20,21,111,,136,125,15,14,10,10,0.6,0.6
2025-08-19T0000,1211A,119.007,33.575,淮安市,北京南路,,40,39,34,20,18,125,,135,127,14,14,8,8,0.8,0.8
2025-08-19T0000,1212A,118.989,33.6067,淮安市,市监测站,,44,36,35,22,23,139,,143,135,11,14,10,11,0.6,0.6
2025-08-19T0000,1213A,119.135,33.5039,淮安市,楚州区监测站,,44,44,48,21,22,84,,137,111,25,20,9,9,0.4,0.4
2025-08-19T0000,3426A,118.8755,33.2894,淮安市,新华书店,,35,29,31,20,21,110,,149,141,12,13,5,6,0.4,0.5
2025-08-19T0000,4206A,119.0288,33.6319,淮安市,承德北路606号,,44,44,39,15,22,109,,130,120,16,16,6,7,0.4,0.4
2025-08-19T0000,2282A,116.8004,33.975,淮北市,监测站,,48,48,38,27,26,116,,185,157,13,17,7,9,0.6,0.6
2025-08-19T0000,2283A,116.8091,33.9007,淮北市,烈山区政府,颗粒物(PM10),58,66,60,29,19,105,,177,146,12,14,8,10,0.6,0.6
2025-08-19T0000,3330A,116.8873,33.9836,淮北市,杜集区检察院,,38,30,35,26,24,116,,165,144,7,9,8,9,0.6,0.6
2025-08-19T0000,4017A,116.7923,33.9535,淮北市,市博物馆,颗粒物(PM10),53,56,38,33,25,116,,186,155,10,12,9,11,0.6,0.5
2025-08-19T0000,2277A,116.8305,32.7727,淮南市,潘集区政府,,32,28,33,22,20,63,,131,90,15,13,4,3,0.3,0.3
2025-08-19T0000,2279A,116.8569,32.5951,淮南市,谢家集区政府,,34,34,35,12,14,38,,128,76,35,12,8,8,0.3,0.3
2025-08-19T0000,2280A,116.8281,32.633,淮南市,八公山区政府,,26,26,33,15,16,60,,127,84,13,9,4,6,0.3,0.4
2025-08-19T0000,2281A,116.6325,32.6201,淮南市,焦岗湖风景区管理处,,,,,,,,,,,,,,,,
2025-08-19T0000,2894A,117.0566,32.6531,淮南市,经济技术开发区消防队,,24,21,30,6,8,76,,129,97,13,12,9,10,0.2,0.3
2025-08-19T0000,3329A,117.0108,32.5893,淮南市,山南新区,,24,18,23,3,10,75,,126,92,11,9,5,5,0.5,0.5
2025-08-19T0000,4209A,117.0031,32.6445,淮南市,国庆中路369号,,26,21,31,11,22,82,,139,102,8,8,3,5,0.4,0.5
2025-08-19T0000,2446A,114.9028,30.4742,黄冈市,职工中心,,36,36,29,20,19,77,,178,118,24,11,11,9,1.1,0.4
2025-08-19T0000,2929A,114.8858,30.4519,黄冈市,红卫路,,38,38,31,25,22,70,,164,99,24,17,12,12,0.3,0.4
2025-08-19T0000,3398A,114.9136,30.4445,黄冈市,市林业局,,44,44,35,19,18,71,,171,104,24,15,11,10,0.4,0.5
2025-08-19T0000,2672A,102.0199,35.5102,黄南藏族自治州,同仁县隆务镇,,17,17,27,6,15,52,,100,72,3,6,10,10,0.2,0.3
2025-08-19T0000,2295A,118.2903,29.6963,黄山市,延安路89号,,15,15,24,9,10,32,,87,54,8,6,4,4,0.4,0.3
2025-08-19T0000,2297A,118.1371,30.2756,黄山市,黄山区政府5号楼,,30,29,26,21,13,11,,78,43,10,5,4,4,0.5,0.4
2025-08-19T0000,4210A,118.3354,29.7203,黄山市,滨江东路7-2号,,22,22,24,10,7,31,,90,56,8,8,2,2,0.3,0.3
2025-08-19T0000,2423A,115.0601,30.2313,黄石市,沈家营,,46,46,44,17,14,78,,136,90,13,18,7,8,0.4,0.5
2025-08-19T0000,2426A,114.8988,30.2019,黄石市,铁山,,38,38,30,15,11,49,,104,84,15,10,5,9,0.5,0.5
2025-08-19T0000,2427A,115.0307,30.2092,黄石市,团城山,,37,37,31,7,8,91,,130,107,6,13,8,10,0.3,0.4
2025-08-19T0000,3149A,115.0235,30.1578,黄石市,笔架山北路,,32,32,22,9,7,66,,108,,16,7,8,8,0.4,0.5
2025-08-19T0000,4185A,115.0780,30.21118,黄石市,磁湖东路29号,颗粒物(PM10),53,56,45,16,15,82,,120,92,3,21,11,12,0.5,0.6
2025-08-19T0000,1392A,114.4183,23.0528,惠州市,河南岸金山湖子站,,13,13,8,9,4,15,,34,26,19,10,7,6,0.6,0.5
2025-08-19T0000,1393A,114.4053,23.0822,惠州市,下埔横江三路子站,,11,11,9,7,5,23,,38,32,12,8,10,5,0.4,0.3
2025-08-19T0000,1394A,114.4103,23.1142,惠州市,江北云山西路子站,,13,13,12,7,5,20,,41,33,19,11,11,10,0.6,0.5
2025-08-19T0000,1395A,114.4645,22.7833,惠州市,惠阳区承修路船湖子站,,13,13,10,3,5,34,,42,38,8,7,6,7,0.5,0.5
2025-08-19T0000,1396A,114.5317,22.7422,惠州市,大亚湾管委会子站,,16,16,11,9,6,38,,45,42,7,9,7,7,0.3,0.5
2025-08-19T0000,3314A,114.4338,22.8134,惠州市,惠阳秋长,,14,14,6,7,6,39,,44,39,9,9,6,6,0.4,0.4
2025-08-19T0000,3452A,114.6517,22.775,惠州市,大亚湾霞涌,,13,13,10,3,4,41,,52,49,7,7,5,5,0.7,0.7
2025-08-19T0000,2240A,130.9762,45.3001,鸡西市,环保局,,17,17,23,8,8,44,,67,40,8,14,6,7,0.4,0.4
2025-08-19T0000,2243A,130.9429,45.3039,鸡西市,第一中学,,14,12,25,6,8,43,,66,46,7,16,8,10,0.5,0.5
2025-08-19T0000,3707A,131.0207,45.3073,鸡西市,欧美日汽修厂,,28,28,24,3,10,15,,67,36,22,15,9,10,0.7,0.6
2025-08-19T0000,3709A,130.9967,45.3106,鸡西市,市政设施管理处,,20,20,27,12,8,24,,70,38,21,17,6,7,0.5,0.5
2025-08-19T0000,2367A,114.9754,27.0803,吉安市,红声器材厂,,22,22,26,9,11,40,,71,54,6,6,8,9,0.4,0.5
2025-08-19T0000,2368A,114.9658,27.0999,吉安市,市森林工业局,,17,17,24,11,10,40,,72,54,3,7,8,9,0.3,0.4
2025-08-19T0000,2369A,114.99,27.1312,吉安市,市环境监测站,,19,19,24,7,11,44,,81,62,2,5,10,13,0.5,0.5
2025-08-19T0000,2370A,115.0093,27.0968,吉安市,青原区法院,,14,14,19,7,10,41,,72,54,3,7,6,9,0.5,0.6
2025-08-19T0000,1772A,126.54,43.8622,吉林市,哈达湾,,23,22,20,16,11,38,,95,71,18,15,6,7,0.5,0.4
2025-08-19T0000,1773A,126.5844,43.8358,吉林市,东局子,,38,,18,26,15,19,,77,52,24,12,6,5,0.9,0.7
2025-08-19T0000,1774A,126.5052,43.8245,吉林市,电力学院,,28,27,25,19,15,20,,87,52,20,14,6,6,0.8,0.6
2025-08-19T0000,1775A,126.6133,43.8972,吉林市,江北,,27,27,20,14,11,27,,81,53,11,9,4,4,0.9,0.7
2025-08-19T0000,1776A,126.555,43.8306,吉林市,江南公园,,37,37,24,24,13,32,,90,64,17,11,2,2,0.5,0.5
2025-08-19T0000,1778A,126.7061,43.7133,吉林市,丰满,,19,16,11,13,8,40,,84,58,5,4,4,5,0.9,0.6
2025-08-19T0000,2868A,126.4739,43.953,吉林市,九站,颗粒物(PM10),54,57,35,25,12,8,,90,43,51,24,28,8,0.6,0.5
2025-08-19T0000,1299A,116.9862,36.6114,济南市,科干所,,35,34,34,22,26,109,,133,125,15,19,6,6,0.5,0.6
2025-08-19T0000,1300A,116.9376,36.665,济南市,农科所,,34,34,34,20,19,85,,128,105,14,28,8,8,0.4,0.4
2025-08-19T0000,1301A,117.1265,36.6734,济南市,开发区,,34,29,41,22,25,108,,137,113,14,31,8,7,0.6,0.7
2025-08-19T0000,1303A,117.0624,36.6868,济南市,省种子仓库,,38,36,48,22,22,119,,132,114,12,35,4,5,0.6,0.8
2025-08-19T0000,1304A,116.9489,36.6447,济南市,机床二厂,,37,37,39,17,18,100,,132,117,13,29,9,10,0.4,0.5
2025-08-19T0000,1305A,117.0495,36.663,济南市,市监测站,,38,32,41,15,22,121,,122,118,8,33,9,9,0.7,0.8
2025-08-19T0000,1306A,116.7675,36.5484,济南市,长清党校,,34,32,32,22,25,107,,128,118,14,17,5,5,0.8,0.6
2025-08-19T0000,1616A,117.6795,36.229,济南市,技术学院,,41,41,29,27,20,111,,148,141,19,14,13,9,0.8,0.8
2025-08-19T0000,1961A,117.532,36.6868,济南市,东山小学,,37,37,40,24,24,89,,135,106,21,20,6,6,0.3,0.5
2025-08-19T0000,3059A,117.7161,36.2049,济南市,泰兴公司,,44,44,33,27,19,78,,129,111,35,20,13,12,0.6,0.6
2025-08-19T0000,3064A,117.6867,36.2171,济南市,莱芜战役纪念馆,,46,46,33,28,22,91,,134,123,24,16,10,8,1.2,1
2025-08-19T0000,3494A,117.1673,36.9782,济南市,济阳区政府,细颗粒物(PM2.5),89,100,46,66,24,95,,154,134,20,15,8,8,0.8,0.5
2025-08-19T0000,3495A,117.1171,36.63,济南市,锦屏中学,,39,27,31,17,18,122,,108,,9,16,9,8,0.7,0.7
2025-08-19T0000,3682A,116.9814,36.6819,济南市,济南四建,,41,41,38,27,22,108,,146,129,12,27,5,5,0.6,0.6
2025-08-19T0000,1653A,116.6251,35.4302,济宁市,火炬城,,45,45,36,24,17,98,,136,119,9,9,4,5,0.7,0.7
2025-08-19T0000,1655A,116.5491,35.4042,济宁市,电化厂,,40,40,37,19,17,119,,149,140,9,8,4,2,1.0,0.9
2025-08-19T0000,3500A,116.5814,35.3707,济宁市,北湖一中,,45,45,35,17,16,110,,146,132,6,7,5,5,0.4,0.4
2025-08-19T0000,3501A,116.8249,35.5593,济宁市,服务中心,,,49,31,21,13,,,136,130,14,10,3,2,0.6,0.6
2025-08-19T0000,3678A,116.5907,35.4054,济宁市,市第七中学,,44,44,38,12,11,112,,140,130,9,8,6,6,0.5,0.5
2025-08-19T0000,2255A,130.2751,46.8028,佳木斯市,佳纺,,21,21,26,9,10,32,,63,38,15,20,9,9,0.4,0.4
2025-08-19T0000,2256A,130.3995,46.8307,佳木斯市,发电厂,,15,15,30,7,10,41,,61,44,12,22,6,8,0.6,0.6
2025-08-19T0000,2257A,130.3258,46.7975,佳木斯市,环保局,,26,26,27,10,12,35,,57,41,20,27,8,8,0.5,0.6
2025-08-19T0000,2258A,130.3648,46.8032,佳木斯市,十一中,,15,15,21,3,15,44,,69,53,12,20,9,9,0.6,0.6
2025-08-19T0000,2259A,130.3794,46.7588,佳木斯市,四丰,,,14,12,,,5,,6,5,18,23,1,1,0.5,0.5
2025-08-19T0000,1252A,120.7436,30.778,嘉兴市,清河小学,,25,25,19,8,7,25,,113,66,14,10,7,6,0.7,0.6
2025-08-19T0000,1253A,120.726,30.7478,嘉兴市,嘉兴学院,,28,28,23,11,9,19,,115,62,13,8,5,5,0.3,0.4
2025-08-19T0000,2872A,120.7846,30.7525,嘉兴市,南湖区残联,,23,23,17,11,9,22,,110,58,15,11,7,6,0.5,0.5
2025-08-19T0000,3407A,120.6916,30.7739,嘉兴市,秀洲住建,,23,23,20,11,9,26,,126,72,14,10,7,6,0.5,0.5
2025-08-19T0000,1945A,98.2908,39.7711,嘉峪关市,气象局,,31,31,45,12,14,97,,123,109,17,13,5,7,0.5,0.6
2025-08-19T0000,2884A,98.2672,39.7978,嘉峪关市,酒钢宾馆,,40,36,60,17,18,125,,137,129,9,17,11,26,0.5,1.1
2025-08-19T0000,3248A,98.2643,39.7724,嘉峪关市,雄关区,,34,34,43,16,17,95,,116,103,18,17,11,12,0.4,0.6
2025-08-19T0000,1383A,113.1064,22.6058,江门市,北街,,11,11,11,7,6,27,,49,34,18,14,3,3,0.4,0.4
2025-08-19T0000,1384A,113.0731,22.5835,江门市,西区,,11,10,12,3,5,26,,55,39,21,14,6,6,0.3,0.4
2025-08-19T0000,1385A,113.0219,22.5311,江门市,圭峰西,,13,13,11,7,5,29,,58,46,16,9,2,2,0.5,0.5
2025-08-19T0000,1386A,113.0828,22.5947,江门市,东湖,,9,8,10,3,5,23,,49,35,18,12,8,7,0.4,0.4
2025-08-19T0000,3311A,113.1075,22.5647,江门市,江海富民,,28,28,23,6,7,27,,56,40,18,12,10,8,0.2,0.3
2025-08-19T0000,3449A,113.05,22.4667,江门市,新会银湖,,14,14,11,6,6,19,,44,30,14,11,1,1,0.4,0.4
2025-08-19T0000,1830A,113.1992,35.2590,焦作市,影视城,,,,27,,22,,,,,,4,,7,,0.5
2025-08-19T0000,3335A,113.3137,35.2641,焦作市,马村街道办,细颗粒物(PM2.5),68,77,46,49,29,83,,174,148,22,13,9,6,0.6,0.6
2025-08-19T0000,3336A,113.2465,35.2373,焦作市,焦作技师学院,颗粒物(PM10),52,54,45,17,18,90,,168,142,20,14,7,7,0.6,0.7
2025-08-19T0000,3477A,113.1656,35.2539,焦作市,中站许衡医院,颗粒物(PM10),51,51,36,27,25,104,,172,156,14,11,6,5,0.5,0.6
2025-08-19T0000,3981A,113.2449,35.1803,焦作市,原李万街道办,,40,40,39,19,19,82,,176,141,23,15,9,8,0.2,0.3
2025-08-19T0000,4264A,113.2340,35.2190,焦作市,新安路1731号,颗粒物(PM10),54,57,47,13,22,93,,184,154,16,10,5,5,0.3,0.8
2025-08-19T0000,4295A,113.2722,35.2121,焦作市,人民路3066号,,45,45,48,27,27,87,,178,143,17,9,5,4,0.4,0.6
2025-08-19T0000,1708A,116.3701,23.5345,揭阳市,新兴,,11,10,18,7,9,20,,57,39,21,10,8,5,0.3,0.3
2025-08-19T0000,1709A,116.3264,23.5443,揭阳市,西马,,13,13,18,3,6,20,,59,37,14,7,4,3,0.8,0.5
2025-08-19T0000,1710A,116.3611,23.5626,揭阳市,东兴,,12,12,21,3,7,21,,58,39,16,8,4,5,0.5,0.5
2025-08-19T0000,1711A,116.4151,23.5294,揭阳市,渔湖,,12,9,20,7,6,16,,52,36,23,11,6,6,0.5,0.5
2025-08-19T0000,3320A,116.403,23.5699,揭阳市,曲溪,,12,12,15,3,9,16,,58,40,19,7,4,3,0.4,0.3
2025-08-19T0000,1944A,102.1692,38.5167,金昌市,天庆家园,,34,34,40,14,18,58,,107,88,18,17,5,11,1.1,0.9
2025-08-19T0000,4022A,102.1647,38.5371,金昌市,金川区人防中心,颗粒物(PM10),53,56,43,22,25,72,,116,103,16,14,7,14,0.7,0.6
2025-08-19T0000,4239A,102.1930,38.5319,金昌市,长春路96号,,44,44,46,19,20,68,,105,96,18,15,7,32,0.4,0.4
2025-08-19T0000,1262A,119.647,29.077,金华市,十五中,,25,25,26,14,12,76,,170,74,14,13,4,4,0.2,0.2
2025-08-19T0000,1263A,119.686,29.1029,金华市,监测站,,28,28,25,12,11,85,,101,81,10,10,4,4,0.4,0.4
2025-08-19T0000,3659A,119.656,29.1131,金华市,气象局,,25,20,19,12,10,79,,97,79,10,8,2,2,0.3,0.2
2025-08-19T0000,1767A,121.1115,41.0879,锦州市,南山,细颗粒物(PM2.5),94,,35,70,24,61,,138,98,17,13,4,7,0.9,0.6
2025-08-19T0000,1768A,121.0604,40.8428,锦州市,开发区,细颗粒物(PM2.5),55,49,46,39,20,83,,126,108,22,18,2,10,1.0,0.9
2025-08-19T0000,1769A,121.1836,41.1119,锦州市,百股街道,,41,41,33,24,12,74,,139,102,11,12,8,9,1.0,0.6
2025-08-19T0000,1770A,121.1178,41.1222,锦州市,天安街道,细颗粒物(PM2.5),53,46,39,37,18,63,,144,107,23,20,7,9,1.2,0.7
2025-08-19T0000,1771A,121.1303,41.1386,锦州市,北湖公园,细颗粒物(PM2.5),75,71,40,55,20,60,,130,94,17,13,6,7,1.1,0.7
2025-08-19T0000,2160A,112.85,35.5051,晋城市,自来水公司,颗粒物(PM10),56,62,47,24,22,124,,159,157,13,9,2,2,0.4,0.4
2025-08-19T0000,2161A,112.8318,35.4936,晋城市,白云商贸,,39,39,38,14,14,108,,142,140,13,8,3,3,0.6,0.5
2025-08-19T0000,2162A,112.8508,35.4887,晋城市,市环保局,,44,44,39,17,18,107,,137,135,10,6,4,4,0.5,0.5
2025-08-19T0000,2163A,112.8676,35.4897,晋城市,技术学院,,49,49,32,22,15,114,,135,133,10,8,4,3,0.6,0.6
2025-08-19T0000,2165A,112.8453,35.546,晋城市,白马寺,,43,,22,30,21,132,,143,,6,3,6,6,0.6,0.6
2025-08-19T0000,3620A,112.8271,35.4828,晋城市,泽州一中,,40,40,39,22,17,114,,155,152,12,6,14,5,0.6,0.6
2025-08-19T0000,2173A,112.7249,37.7067,晋中市,南都小区,,39,39,37,24,25,82,,110,85,10,10,4,4,0.7,0.7
2025-08-19T0000,2174A,112.6991,37.6982,晋中市,榆次区政府,,34,34,34,19,22,73,,107,82,11,9,5,5,0.7,0.8
2025-08-19T0000,2865A,112.7195,37.6828,晋中市,榆次三中,,36,36,33,17,20,66,,113,85,12,7,6,6,0.7,0.6
2025-08-19T0000,4200A,112.7478,37.6954,晋中市,迎宾街26号,,25,24,30,17,18,71,,113,86,11,8,7,7,0.6,0.6
2025-08-19T0000,2439A,112.2014,31.0481,荆门市,竹园小学,,33,33,34,18,19,94,,128,114,9,12,1,2,0.5,0.6
2025-08-19T0000,2440A,112.1969,30.9891,荆门市,掇刀,,34,34,35,20,19,87,,128,109,12,10,1,1,0.4,0.6
2025-08-19T0000,2441A,112.2213,31.0386,荆门市,石化一小,,36,36,37,12,21,91,,127,109,10,14,5,6,0.7,0.8
2025-08-19T0000,3012A,112.1849,31.0362,荆门市,西山林语,,29,29,26,20,17,70,,120,100,7,5,8,8,0.4,0.5
2025-08-19T0000,3547A,112.1632,31.0138,荆门市,龙泉中学南校,,39,36,32,27,17,56,,128,104,11,12,3,4,0.7,0.7
2025-08-19T0000,1844A,112.2494,30.3197,荆州市,市图书馆,,30,30,28,14,14,73,,126,89,13,16,2,3,0.5,0.5
2025-08-19T0000,1845A,112.2008,30.3544,荆州市,市委党校,,30,30,28,14,20,76,,124,88,19,19,4,7,0.3,0.4
2025-08-19T0000,3194A,112.2747,30.3122,荆州市,管委会,,28,22,28,19,19,62,,122,86,22,19,7,6,0.4,0.5
2025-08-19T0000,4268A,112.1722,30.3366,荆州市,学苑路85号,,36,30,24,25,22,28,,126,68,38,18,5,7,0.5,0.5
2025-08-19T0000,2342A,117.3102,29.3867,景德镇市,王港中学,,,,,,,,,,,,,,,,
2025-08-19T0000,2343A,117.2117,29.2933,景德镇市,老干部活动中心,,32,32,23,19,12,30,,97,70,21,13,7,9,0.6,0.5
2025-08-19T0000,2344A,117.1894,29.2789,景德镇市,兽医站,,36,36,29,18,13,52,,98,72,11,10,5,7,0.8,0.7
2025-08-19T0000,2346A,117.2461,29.2956,景德镇市,陶研所,,28,28,25,19,15,29,,105,69,14,10,7,7,0.9,0.9
2025-08-19T0000,4289A,117.1542,29.2566,景德镇市,青少年活动中心,颗粒物(PM10),59,67,38,27,18,20,,88,52,52,25,26,15,0.9,0.6
2025-08-19T0000,1803A,115.9872,29.6815,九江市,十里,,23,20,21,16,22,64,,113,102,17,17,4,5,0.7,0.6
2025-08-19T0000,1804A,115.9584,29.7046,九江市,茅山头,,21,20,25,11,18,67,,108,96,7,11,3,5,0.6,0.6
2025-08-19T0000,1805A,115.9877,29.7295,九江市,西园,,30,18,25,13,13,93,,126,110,10,31,3,11,0.4,0.5
2025-08-19T0000,1808A,115.9114,29.6038,九江市,综合工业园,,29,29,22,12,14,62,,112,104,26,18,7,7,0.6,0.7
2025-08-19T0000,1809A,116.0721,29.7535,九江市,石化总厂,,32,26,23,22,22,75,,109,102,15,19,7,6,0.4,0.6
2025-08-19T0000,1810A,115.9773,29.5698,九江市,庐山气象台,,29,15,12,3,6,91,,118,112,3,4,6,7,0.7,0.8
2025-08-19T0000,3190A,116.0254,29.6994,九江市,外国语学校,,27,,18,6,17,85,,111,106,4,13,8,11,0.6,0.7
2025-08-19T0000,4253A,116.0102,29.6594,九江市,莲花大道8号,,25,14,16,13,14,78,,116,109,2,5,4,5,0.4,0.5
2025-08-19T0000,4240A,98.4958,39.7339,酒泉市,玉门东路5号,,45,41,54,31,27,99,,116,102,12,17,8,11,0.2,0.3
2025-08-19T0000,4241A,98.5099,39.7506,酒泉市,北大街108号,二氧化硫,72,48,53,29,25,91,,108,97,7,10,304,34,0.2,0.3
2025-08-19T0000,2698A,76.0072,39.4467,喀什地区,巡警大队,细颗粒物(PM2.5),87,100,133,64,53,65,,99,90,24,16,3,3,0.8,0.5
2025-08-19T0000,2699A,75.9755,39.4694,喀什地区,吾办,颗粒物(PM10),87,124,139,42,57,61,,99,88,29,16,8,5,0.4,0.2
2025-08-19T0000,4027A,75.9483,39.4689,喀什地区,老干局,,,102,127,33,39,,,102,92,22,14,4,7,0.4,0.4
2025-08-19T0000,1824A,114.3389,34.7781,开封市,肿瘤医院,,50,50,40,25,20,79,,137,113,20,16,3,4,0.5,0.5
2025-08-19T0000,1826A,114.2885,34.7965,开封市,世纪星幼儿园,,37,37,42,18,20,92,,142,120,13,11,3,3,0.6,0.6
2025-08-19T0000,3147A,114.3438,34.8106,开封市,龙亭公园,,46,46,40,23,18,74,,134,111,16,10,4,4,1.0,0.8
2025-08-19T0000,3210A,114.3644,34.7964,开封市,汴京公园,颗粒物(PM10),57,64,46,23,21,77,,142,118,21,11,4,4,0.7,0.6
2025-08-19T0000,3473A,114.2485,34.8306,开封市,技师学院,,38,38,35,23,18,93,,137,119,9,8,5,5,0.9,1
2025-08-19T0000,3592A,114.4644,34.7556,开封市,祥符区生态环境局,,,,36,,18,55,,126,114,,19,6,6,,0.6
2025-08-19T0000,1951A,84.895,45.6094,克拉玛依市,长征新村,,30,12,24,10,9,94,,101,101,5,6,2,3,0.1,0.2
2025-08-19T0000,1952A,84.8988,45.5893,克拉玛依市,南林小区,,33,18,26,8,8,104,,104,104,6,9,5,5,0.2,0.2
2025-08-19T0000,1954A,84.905,44.3396,克拉玛依市,独山子区,,27,17,34,11,10,84,,95,91,6,9,10,10,0.4,0.4
2025-08-19T0000,1955A,85.6979,46.098,克拉玛依市,乌尔禾区商贸楼,,37,23,32,3,8,118,,101,101,5,9,6,7,0.3,0.3
2025-08-19T0000,3612A,85.1045,45.6899,克拉玛依市,白碱滩区新站,,32,24,36,17,16,101,,110,109,5,6,8,9,0.4,0.4
2025-08-19T0000,2697A,76.1454,39.7142,克孜勒苏柯尔克孜自治州,市人民政府,颗粒物(PM10),95,139,95,51,49,38,,102,89,45,12,4,5,0.3,0.1
2025-08-19T0000,3665A,76.1658,39.7157,克孜勒苏柯尔克孜自治州,克州文化中心,颗粒物(PM10),99,147,87,52,55,76,,109,102,15,6,5,8,0.3,0.2
2025-08-19T0000,1450A,102.8204,24.8886,昆明市,呈贡新区,,36,,12,25,15,42,,105,82,36,19,5,4,0.5,0.5
2025-08-19T0000,1451A,102.6251,24.9608,昆明市,西山森林公园,,,,,,,,,,,,,,,,
2025-08-19T0000,1452A,102.7252,25.0902,昆明市,龙泉镇,,33,33,20,10,10,40,,122,98,43,15,2,2,0.4,0.3
2025-08-19T0000,1453A,102.7266,25.0375,昆明市,东风东路,,29,29,23,18,12,76,,136,,19,16,4,4,0.4,0.3
2025-08-19T0000,1454A,102.6742,25.0669,昆明市,金鼎山,,25,21,22,9,6,77,,133,115,14,13,2,1,0.3,0.2
2025-08-19T0000,1455A,102.6644,25.0401,昆明市,碧鸡广场,,32,,19,22,11,71,,123,110,22,22,8,9,0.5,0.4
2025-08-19T0000,3179A,102.7494,25.0119,昆明市,官渡区博物馆,,25,25,24,12,12,51,,122,92,35,27,1,1,0.5,0.5
2025-08-19T0000,3375A,102.8017,24.8336,昆明市,青年创业园,,32,32,18,17,12,47,,106,82,27,13,1,3,0.4,0.4
2025-08-19T0000,3550A,102.7997,24.9786,昆明市,昆明学院,,27,27,23,14,13,63,,114,91,20,20,7,7,0.3,0.2
2025-08-19T0000,3551A,102.5967,24.6736,昆明市,晋宁区生态环境分局,,43,43,20,24,11,43,,101,80,17,10,1,3,0.5,0.4
2025-08-19T0000,3552A,102.6678,24.9856,昆明市,云天化总部,,49,42,20,34,12,73,,125,104,26,22,2,5,0.3,0.3
2025-08-19T0000,1456A,91.1319,29.6514,拉萨市,八廓街,,17,17,11,7,8,49,,90,78,24,11,6,6,0.4,0.3
2025-08-19T0000,1457A,91.1221,29.6747,拉萨市,市环保局,,17,14,10,6,6,54,,93,78,12,8,8,7,0.4,0.4
2025-08-19T0000,1458A,91.0874,29.6475,拉萨市,区监测站,,18,13,8,8,5,57,,86,75,19,10,4,4,0.4,0.3
2025-08-19T0000,1459A,91.1774,29.6541,拉萨市,西藏大学,,17,14,8,6,6,54,,88,79,19,11,5,6,0.3,0.2
2025-08-19T0000,1460A,90.9798,29.6588,拉萨市,区辐射站,,15,15,9,6,6,48,,81,70,20,7,5,4,0.4,0.3
2025-08-19T0000,1461A,91.0834,29.6292,拉萨市,拉萨火车站,,18,10,7,6,5,55,,84,70,12,6,5,6,0.2,0.2
2025-08-19T0000,2520A,109.2203,23.7256,来宾市,来宾技工学校,,,20,16,,9,29,,54,44,7,7,7,7,0.6,0.5
2025-08-19T0000,3535A,109.1781,23.7297,来宾市,兴宾区政府,,14,14,16,3,8,32,,58,44,8,9,12,6,0.5,0.5
2025-08-19T0000,4002A,109.2416,23.7461,来宾市,中南小学,,11,11,16,3,7,29,,57,46,7,8,8,9,0.6,0.5
2025-08-19T0000,1477A,104.1373,35.9454,兰州市,榆中兰大校区,,,,,,,,,,,,,,,,
2025-08-19T0000,1479A,103.831,36.0464,兰州市,铁路设计院,,30,26,35,21,21,55,,108,77,34,26,8,9,0.5,0.4
2025-08-19T0000,3241A,103.7439,36.0842,兰州市,百合公园,,28,28,30,12,15,66,,113,94,12,8,4,4,0.2,0.4
2025-08-19T0000,3242A,103.9611,35.998,兰州市,和平,,,11,22,,10,71,,110,95,9,8,7,7,0.7,0.6
2025-08-19T0000,4236A,103.6293,36.0938,兰州市,庄浪东路808号,,40,40,37,6,16,72,,126,93,18,22,11,12,0.4,0.4
2025-08-19T0000,4237A,103.7251,36.1043,兰州市,安宁西路88号,,32,27,33,22,16,90,,129,112,8,7,5,6,0.3,0.3
2025-08-19T0000,4238A,103.8470,36.0676,兰州市,北滨河东路1号,,25,25,26,15,17,68,,119,84,27,19,7,8,0.4,0.4
2025-08-19T0000,3245A,103.6633,36.533,兰州新区,新区管委会,,37,37,30,23,16,95,,130,106,7,8,6,15,0.3,0.4
2025-08-19T0000,3246A,103.6975,36.4789,兰州新区,舟曲中学,,26,26,27,10,12,82,,123,107,8,9,6,18,0.4,0.4
2025-08-19T0000,1067A,116.6708,39.5111,廊坊市,药材公司,,42,42,37,22,20,70,,115,91,15,14,4,5,0.4,0.4
2025-08-19T0000,1068A,116.7214,39.5589,廊坊市,开发区,,35,35,39,20,22,32,,122,96,18,15,3,3,0.5,0.5
2025-08-19T0000,1070A,116.7244,39.5269,廊坊市,北华航天学院,,49,49,55,24,23,51,,125,99,24,14,4,6,0.5,0.5
2025-08-19T0000,2919A,116.7022,39.5453,廊坊市,河北工业大学,颗粒物(PM10),53,55,50,21,19,81,,127,113,16,12,4,5,0.4,0.4
2025-08-19T0000,2535A,103.7723,29.5462,乐山市,花湖湾,,26,26,13,18,9,55,,111,99,16,10,2,2,0.5,0.4
2025-08-19T0000,2536A,103.7627,29.5844,乐山市,牛耳桥,,27,27,12,16,8,47,,123,100,16,10,5,4,0.6,0.6
2025-08-19T0000,2537A,103.7508,29.6006,乐山市,市第三水厂,,29,26,12,20,9,69,,116,100,17,10,4,3,0.8,0.7
2025-08-19T0000,2538A,103.7571,29.5664,乐山市,市监测站,,26,26,13,17,9,56,,119,99,13,9,5,6,0.8,0.8
2025-08-19T0000,3361A,103.7311,29.5628,乐山市,理工大学,,27,27,13,15,8,43,,120,95,18,10,6,6,0.7,0.7
2025-08-19T0000,2598A,100.2143,26.8576,丽江市,西南郊,,22,20,14,15,8,46,,71,56,12,10,6,7,0.9,0.9
2025-08-19T0000,2599A,100.2497,26.8802,丽江市,丽江古城,,,22,18,21,8,,,71,,16,14,10,10,0.5,0.5
2025-08-19T0000,2600A,100.2203,26.8906,丽江市,市中心,,19,,11,13,10,49,,69,51,14,13,10,11,0.7,0.6
2025-08-19T0000,1267A,119.914,28.4514,丽水市,监测站大楼,,11,11,16,6,7,34,,71,62,8,8,4,4,0.3,0.3
2025-08-19T0000,1268A,119.93,28.4586,丽水市,莲都小学,,13,13,17,6,7,34,,76,66,7,7,3,3,0.4,0.4
2025-08-19T0000,1269A,119.879,28.4231,丽水市,余庄前,,14,14,15,9,11,35,,75,62,8,7,5,5,0.3,0.4
2025-08-19T0000,1173A,119.176,34.5885,连云港市,市环境监测站,,24,24,32,9,17,62,,124,100,12,10,2,2,0.4,0.5
2025-08-19T0000,3000A,119.3581,34.6972,连云港市,德源药业,,22,22,31,9,18,64,,111,86,13,14,4,5,0.6,0.6
2025-08-19T0000,3007A,119.178,34.844,连云港市,新城一中,,28,28,34,15,21,51,,146,87,40,19,3,4,1.1,1.1
2025-08-19T0000,3008A,119.3608,34.7519,连云港市,胡沟管理处,,28,19,24,9,14,88,,121,90,11,14,8,9,0.5,0.5
2025-08-19T0000,3009A,119.1478,34.5911,连云港市,矿山设计院,,29,29,33,12,20,63,,123,99,14,10,4,5,0.7,0.7
2025-08-19T0000,3434A,119.2413,34.6539,连云港市,工贸学校,,26,19,34,10,22,81,,132,108,6,7,5,7,0.8,0.8
2025-08-19T0000,3664A,119.4172,34.7341,连云港市,连云街道,,30,30,32,14,20,80,,118,101,11,10,4,5,0.8,0.7
2025-08-19T0000,2571A,102.3431,27.8099,凉山彝族自治州,青龙寺,,17,17,15,6,7,35,,80,54,5,4,2,2,0.4,0.5
2025-08-19T0000,2572A,102.2721,27.8415,凉山彝族自治州,邛海宾馆,,19,18,21,10,14,60,,86,69,10,10,7,8,0.4,0.7
2025-08-19T0000,2573A,102.2625,27.898,凉山彝族自治州,西昌市政府,,15,6,17,3,14,48,,91,72,7,10,6,9,0.3,0.6
2025-08-19T0000,2574A,102.2685,27.8851,凉山彝族自治州,凉山州政府,,18,,20,12,16,46,,93,70,16,15,10,11,0.9,0.8
2025-08-19T0000,4229A,102.2342,27.8859,凉山彝族自治州,凯乐南路30号,,18,14,20,3,12,57,,88,68,15,14,15,13,0.8,0.8
2025-08-19T0000,2212A,123.2,41.1953,辽阳市,宏伟区,,24,20,27,14,13,75,,112,88,14,10,3,3,0.9,0.8
2025-08-19T0000,2213A,123.1683,41.2495,辽阳市,新华园,,39,39,34,14,14,64,,115,82,18,16,9,8,1.1,0.8
2025-08-19T0000,2214A,123.2354,41.2639,辽阳市,滨河路,,27,27,28,13,12,68,,113,87,13,12,4,4,1.0,0.7
2025-08-19T0000,2215A,123.149,41.2991,辽阳市,铁西工业园,颗粒物(PM10),59,67,44,27,15,53,,107,74,22,20,6,5,1.5,1.3
2025-08-19T0000,2227A,125.1358,42.8845,辽源市,环保局,,39,39,31,16,9,82,,109,96,6,12,9,8,0.8,0.6
2025-08-19T0000,3239A,125.0764,42.9078,辽源市,银鹰制药,,30,30,20,18,12,80,,116,104,12,17,8,9,0.7,0.6
2025-08-19T0000,1625A,115.9848,36.4372,聊城市,区政府,,33,33,34,19,22,101,,138,114,12,12,9,8,0.8,0.8
2025-08-19T0000,2878A,116.0072,36.4343,聊城市,聊大东校,,39,39,39,20,22,96,,148,116,29,17,7,7,0.4,0.5
2025-08-19T0000,3200A,115.9819,36.4978,聊城市,监控中心,,35,30,36,12,17,111,,141,119,10,16,6,6,0.7,0.6
2025-08-19T0000,3513A,116.0445,36.4361,聊城市,九州社区,,36,36,40,19,21,88,,140,106,13,15,5,5,0.3,0.3
2025-08-19T0000,4018A,116.0567,36.4608,聊城市,星美广场,,34,34,39,17,21,98,,146,113,11,16,2,3,0.6,0.7
2025-08-19T0000,2632A,94.3681,29.6376,林芝市,林芝监测站,,15,6,6,3,4,47,,65,45,2,3,6,6,0.4,0.4
2025-08-19T0000,2633A,94.3616,29.6616,林芝市,林芝人民医院,,16,6,9,6,5,50,,66,44,2,3,7,7,0.4,0.4
2025-08-19T0000,2603A,100.0781,23.8982,临沧市,市环保局,,,24,17,12,9,,,65,54,10,7,10,8,0.5,0.5
2025-08-19T0000,2604A,100.0894,23.8822,临沧市,市气象局,,25,20,16,17,13,29,,52,,10,7,7,6,0.3,0.3
2025-08-19T0000,1733A,111.5531,36.0783,临汾市,临钢医院,,44,44,35,17,10,100,,123,101,12,15,7,7,0.5,0.6
2025-08-19T0000,1734A,111.5028,36.0714,临汾市,技工学校,,46,46,40,32,23,93,,123,96,10,10,8,7,0.6,0.6
2025-08-19T0000,1736A,111.5018,36.0855,临汾市,市委,颗粒物(PM10),54,58,54,15,14,107,,135,108,8,10,5,5,0.8,0.9
2025-08-19T0000,3018A,111.505,36.1014,临汾市,唐尧大酒店,颗粒物(PM10),78,105,54,35,16,89,,125,100,10,11,4,4,0.7,0.7
2025-08-19T0000,4244A,111.4879,36.0530,临汾市,启星学校,,42,31,40,29,25,86,,122,93,14,13,6,6,0.6,0.7
2025-08-19T0000,4271A,103.2464,35.6123,临夏回族自治州,滨河东路1号,,40,33,52,28,26,30,,75,50,19,15,6,7,0.4,0.4
2025-08-19T0000,4310A,103.2093,35.5995,临夏回族自治州,新华街21号,,30,24,39,21,26,57,,91,80,12,12,4,6,0.4,0.3
2025-08-19T0000,1618A,118.3429,35.0532,临沂市,沂河小区,,38,36,42,26,30,97,,168,136,14,19,10,9,0.4,0.4
2025-08-19T0000,1619A,118.295,35.0583,临沂市,鲁南制药厂,,42,41,40,29,25,95,,174,136,18,16,12,9,0.4,0.4
2025-08-19T0000,1620A,118.2794,34.9976,临沂市,新光毛纺厂,,35,31,39,24,25,104,,177,139,13,18,8,9,0.4,0.4
2025-08-19T0000,1621A,118.3956,35.0888,临沂市,河东保险公司,,41,41,40,22,23,96,,167,131,20,19,7,7,0.3,0.3
2025-08-19T0000,3370A,118.3564,35.0215,临沂市,十里堡居委,,35,31,36,24,26,96,,172,136,13,15,16,10,0.5,0.4
2025-08-19T0000,3496A,118.3604,35.1084,临沂市,南坊新区,,36,36,42,22,21,97,,179,139,12,18,8,9,0.5,0.5
2025-08-19T0000,3860A,118.3920,35.0300,临沂市,皇山花园小区,,36,36,39,15,22,95,,170,132,12,15,8,9,0.5,0.5
2025-08-19T0000,1870A,109.4856,24.3895,柳州市,柳东小学,,13,13,13,9,8,28,,52,34,5,7,4,5,0.3,0.3
2025-08-19T0000,1871A,109.4157,24.3277,柳州市,环保监测站,,15,15,12,3,8,25,,53,33,8,6,7,8,0.4,0.4
2025-08-19T0000,1872A,109.389,24.341,柳州市,河西水厂,,16,16,18,3,9,32,,54,32,6,8,5,5,0.4,0.4
2025-08-19T0000,1873A,109.4311,24.2921,柳州市,市四中,,12,12,16,3,7,27,,52,33,12,11,9,9,0.6,0.5
2025-08-19T0000,1874A,109.4006,24.3631,柳州市,市九中,,13,13,21,7,13,28,,55,32,6,8,4,5,0.4,0.4
2025-08-19T0000,1875A,109.4958,24.3134,柳州市,古亭山,,12,12,14,3,5,22,,51,29,10,8,6,8,0.5,0.5
2025-08-19T0000,3402A,109.5422,24.3996,柳州市,市二中,,10,6,14,3,6,29,,52,32,7,11,5,9,0.6,0.6
2025-08-19T0000,2307A,116.5079,31.737,六安市,监测大楼,,20,,18,14,12,64,,91,82,6,7,4,3,0.2,0.3
2025-08-19T0000,2308A,116.4738,31.7643,六安市,皖西学院,,24,24,26,12,12,71,,102,94,7,6,4,4,0.2,0.3
2025-08-19T0000,2309A,116.4996,31.7905,六安市,朝阳厂,,33,33,20,14,13,60,,93,85,10,10,6,6,0.3,0.3
2025-08-19T0000,2310A,116.5567,31.7886,六安市,开发区,,47,47,20,23,18,52,,96,84,17,13,5,4,0.4,0.4
2025-08-19T0000,2576A,104.8,26.5892,六盘水市,窑上,,24,24,22,6,3,48,,76,66,5,6,4,5,0.2,0.2
2025-08-19T0000,2577A,104.83,26.5917,六盘水市,黄土坡,,21,21,15,6,8,55,,80,72,7,12,11,11,0.3,0.4
2025-08-19T0000,2578A,104.89,26.5939,六盘水市,水钢,,38,26,34,26,22,52,,82,72,6,13,10,11,0.3,0.5
2025-08-19T0000,2579A,104.8475,26.5894,六盘水市,民中,,16,14,17,9,5,51,,82,71,7,11,14,9,0.3,0.3
2025-08-19T0000,2580A,104.9544,26.5506,六盘水市,双水,,16,12,17,9,8,50,,78,68,6,9,6,6,0.1,0.1
2025-08-19T0000,2335A,117.0189,25.1181,龙岩市,龙岩师专,,,,,,,,,,,,,,,,
2025-08-19T0000,2336A,117.0217,25.1033,龙岩市,龙岩市监测站,,23,,22,16,13,9,,73,35,17,12,6,9,0.7,0.6
2025-08-19T0000,2337A,117.0258,25.0661,龙岩市,闽西职业技术学院,,19,15,24,13,10,14,,67,34,13,9,6,6,0.5,0.5
2025-08-19T0000,2338A,117.0196,25.0306,龙岩市,龙岩学院,,16,16,19,10,10,16,,67,36,10,8,8,11,0.4,0.4
2025-08-19T0000,2665A,105.0822,33.3261,陇南市,汉王镇固水子,,,,,,,,,,,,,,,,
2025-08-19T0000,2885A,104.9339,33.3826,陇南市,滨江中学,,32,31,29,22,12,95,,108,101,2,2,8,8,0.5,0.5
2025-08-19T0000,3247A,104.955,33.371,陇南市,市总工会,,38,38,32,10,9,103,,112,,6,5,6,6,0.4,0.5
2025-08-19T0000,2487A,111.9589,27.8901,娄底市,电视发射台,,25,25,28,17,13,29,,76,44,6,6,5,5,0.3,0.4
2025-08-19T0000,2488A,111.9975,27.725,娄底市,市监测站,,,,39,,20,38,,85,67,,15,6,8,0.4,0.6
2025-08-19T0000,2489A,112.0194,27.7314,娄底市,市委党校,,17,17,35,11,22,40,,86,62,9,11,11,11,0.3,0.4
2025-08-19T0000,2490A,111.9561,27.7569,娄底市,涟钢,,22,22,39,10,23,30,,72,47,16,21,16,19,0.8,1
2025-08-19T0000,2491A,111.9892,27.7044,娄底市,市政府,,13,,34,8,27,39,,82,59,3,7,5,6,0.6,0.7
2025-08-19T0000,1893A,105.4324,28.9634,泸州市,九狮山,,42,,41,29,32,37,,123,77,16,9,6,6,0.3,0.4
2025-08-19T0000,1894A,105.4427,28.9063,泸州市,小市上码头,,17,17,31,8,19,46,,97,65,4,11,4,5,0.2,0.3
2025-08-19T0000,1895A,105.4241,28.8573,泸州市,兰田宪桥,,19,19,33,11,20,48,,123,81,6,11,7,8,0.1,0.3
2025-08-19T0000,1896A,105.4379,28.8833,泸州市,市环监站,,19,18,31,11,19,60,,117,86,4,10,5,5,0,0.1
2025-08-19T0000,4272A,105.3689,28.7783,泸州市,纳溪中医医院,,23,22,29,16,21,51,,143,91,17,21,7,8,0.4,0.6
2025-08-19T0000,2183A,111.1406,37.5211,吕梁市,环保局,,39,39,48,18,23,61,,95,82,29,21,4,6,0.7,0.8
2025-08-19T0000,2185A,111.1297,37.5136,吕梁市,自来水公司,,43,43,52,19,20,68,,89,75,17,18,3,5,0.7,0.7
2025-08-19T0000,2867A,111.1283,37.51,吕梁市,马茂庄小学,颗粒物(PM10),57,63,51,24,22,33,,92,73,39,23,4,6,0.8,0.7
2025-08-19T0000,1812A,112.3931,34.6516,洛阳市,市委党校,,31,27,35,14,22,97,,143,114,7,8,7,7,0.4,0.5
2025-08-19T0000,1815A,112.494,34.6886,洛阳市,河南林校,,40,40,42,21,23,73,,164,117,17,12,7,7,0.6,0.6
2025-08-19T0000,1816A,112.3844,34.623,洛阳市,开发区管委会,,30,27,33,17,22,95,,158,119,8,7,4,7,0.5,0.6
2025-08-19T0000,1817A,112.4267,34.6258,洛阳市,市委新办公区,,33,25,38,15,28,103,,149,116,8,11,8,9,0.5,0.5
2025-08-19T0000,3340A,112.6005,34.6326,洛阳市,伊滨,,28,28,33,17,21,89,,140,105,14,11,7,7,0.6,0.6
2025-08-19T0000,3341A,112.4951,34.6332,洛阳市,中移产业园,,31,26,36,16,24,98,,149,116,15,13,8,8,0.6,0.7
2025-08-19T0000,3593A,112.5736,34.8993,洛阳市,吉利监测站,,44,44,44,26,28,57,,163,116,24,8,8,6,0.3,0.3
2025-08-19T0000,3635A,112.3677,34.662,洛阳市,河科大西苑校区,,31,29,36,14,17,98,,156,122,12,12,8,9,0.5,0.6
2025-08-19T0000,3636A,112.4388,34.6781,洛阳市,英才小学,,32,32,42,17,19,88,,148,114,14,11,7,8,0.6,0.7
2025-08-19T0000,4214A,112.4600,34.6949,洛阳市,春都路1号院,,32,32,34,14,17,71,,140,102,20,8,6,6,0.7,0.7
2025-08-19T0000,2399A,114.051,33.5699,漯河市,三五一五工厂,,41,41,31,18,16,51,,136,86,29,15,5,6,0.5,0.5
2025-08-19T0000,2400A,114.0055,33.5698,漯河市,漯河大学,,26,26,24,12,13,76,,148,102,14,12,4,5,0.4,0.4
2025-08-19T0000,2401A,114.0138,33.5828,漯河市,市水利局,,27,27,28,14,16,71,,137,95,13,10,5,6,0.4,0.4
2025-08-19T0000,2402A,114.0261,33.5698,漯河市,市广电局,,30,29,27,21,20,71,,151,101,15,10,3,3,0.4,0.4
2025-08-19T0000,3478A,113.9749,33.5664,漯河市,市图书馆,,38,38,36,26,19,70,,148,97,15,12,8,7,0.2,0.3
2025-08-19T0000,4250A,114.0892,33.5882,漯河市,韶山路11号,,33,33,32,20,17,49,,146,87,25,17,2,4,0.5,0.5
2025-08-19T0000,1798A,118.5092,31.6837,马鞍山市,湖东路四小,细颗粒物(PM2.5),64,,40,46,25,130,,155,135,14,14,13,9,0.5,0.5
2025-08-19T0000,1799A,118.5024,31.6449,马鞍山市,开发区,颗粒物(PM10),63,76,47,33,24,117,,172,126,20,18,13,11,0.7,0.6
2025-08-19T0000,1802A,118.6245,31.7241,马鞍山市,濮塘,,40,38,33,28,19,126,,140,121,12,8,14,9,0.7,0.7
2025-08-19T0000,3633A,118.4918,31.6809,马鞍山市,雨山,颗粒物(PM10),52,54,40,32,24,125,,154,136,14,13,11,9,0.6,0.5
2025-08-19T0000,4191A,118.5274,31.72227,马鞍山市,慈湖高新区,颗粒物(PM10),55,60,41,30,22,116,,147,117,24,20,20,10,0.5,0.4
2025-08-19T0000,1686A,111.0286,21.4688,茂名市,电白南海,,,27,14,,9,46,,40,40,5,7,3,3,0.5,0.4
2025-08-19T0000,1687A,110.9294,21.6533,茂名市,茂石化七小,,12,12,11,3,4,24,,32,27,7,7,4,4,0.4,0.4
2025-08-19T0000,1688A,110.9107,21.6687,茂名市,健康路,,10,7,7,3,4,29,,36,32,8,9,6,4,0.4,0.4
2025-08-19T0000,1689A,110.8592,21.6828,茂名市,高岭,,17,17,16,3,2,28,,36,34,15,11,10,8,0.5,0.5
2025-08-19T0000,3450A,111.01,21.5165,茂名市,电白水东,,13,7,7,3,2,41,,38,38,4,5,4,4,0.5,0.5
2025-08-19T0000,2539A,104.0308,30.0478,眉山市,黑龙滩水库,,49,16,9,10,8,156,,143,143,16,7,3,3,0.3,0.3
2025-08-19T0000,2540A,103.8416,30.0874,眉山市,气象局,,30,30,21,12,5,59,,151,112,23,11,10,12,0.5,0.5
2025-08-19T0000,3137A,103.8578,30.0744,眉山市,市委党校,,23,12,11,3,3,72,,139,107,15,11,9,8,0.4,0.4
2025-08-19T0000,3148A,103.8291,30.0564,眉山市,区人社局,,23,23,23,3,1,59,,148,109,23,14,7,8,0.5,0.5
2025-08-19T0000,1690A,116.1231,24.3284,梅州市,梅江月梅,,14,,16,9,10,43,,43,27,5,11,9,9,0.5,0.5
2025-08-19T0000,1691A,116.0797,24.2719,梅州市,梅县新城,,29,,18,20,11,6,,46,20,14,10,6,7,0.5,0.4
2025-08-19T0000,1692A,116.1248,24.2654,梅州市,环境监控中心,,26,25,19,18,12,2,,42,12,21,13,3,8,0.6,0.5
2025-08-19T0000,3315A,116.1233,24.2991,梅州市,梅龙,,12,7,14,3,8,37,,44,28,7,9,7,8,0.5,0.6
2025-08-19T0000,1878A,104.7778,31.4741,绵阳市,富乐山,,20,18,20,9,11,61,,142,103,14,11,9,8,0.6,0.6
2025-08-19T0000,1880A,104.6697,31.4668,绵阳市,高新区自来水公司,颗粒物(PM10),51,51,26,22,10,15,,122,76,57,22,9,8,0.5,0.4
2025-08-19T0000,1881A,104.7287,31.5075,绵阳市,三水厂,,31,31,25,18,12,12,,143,86,51,21,9,8,0.5,0.4
2025-08-19T0000,3491A,104.69,31.5322,绵阳市,西科大附属小学,,28,28,26,12,13,44,,138,89,25,20,9,8,0.5,0.5
2025-08-19T0000,3492A,104.5648,31.5343,绵阳市,安州区旅游局,,31,31,23,14,7,24,,108,64,16,16,6,10,0.4,0.5
2025-08-19T0000,4226A,104.7651,31.4531,绵阳市,绵阳市气象局,,30,30,18,9,10,52,,142,105,27,16,9,7,0.4,0.3
2025-08-19T0000,1784A,129.61,44.561,牡丹江市,环保大楼,,21,21,18,12,10,43,,74,56,10,11,4,4,0.3,0.3
2025-08-19T0000,1785A,129.6115,44.5782,牡丹江市,文化广场,,30,30,19,15,14,42,,70,52,11,12,5,5,0.4,0.4
2025-08-19T0000,1786A,129.5904,44.5963,牡丹江市,第一医院,,23,,17,16,16,38,,74,53,13,12,8,9,0.1,0.2
2025-08-19T0000,1787A,129.6364,44.6075,牡丹江市,机车工厂,,23,21,18,16,8,26,,68,49,23,12,6,5,0.6,0.4
2025-08-19T0000,1788A,129.6386,44.5462,牡丹江市,第一中学,,25,25,17,17,10,35,,69,46,14,12,6,6,0.2,0.2
2025-08-19T0000,2531A,105.0703,29.61,内江市,市监测站,,35,27,20,24,19,95,,146,116,12,10,4,3,0.8,0.7
2025-08-19T0000,2532A,105.0717,29.5947,内江市,东兴区政府,,29,,22,20,12,75,,135,111,10,10,8,7,0.6,0.6
2025-08-19T0000,2533A,105.0653,29.5817,内江市,内江二中,,42,35,28,29,20,76,,134,112,9,10,5,3,0.6,0.6
2025-08-19T0000,2534A,105.0406,29.5822,内江市,内江日报社,,45,39,22,31,21,96,,144,122,24,13,7,8,0.5,0.5
2025-08-19T0000,2628A,92.0657,31.4846,那曲市,那曲监测站,,23,6,13,3,8,71,,87,71,6,9,14,13,0.2,0.3
2025-08-19T0000,4243A,92.0515,31.4787,那曲市,那曲市委宣传部,,25,6,8,3,5,78,,97,80,5,5,4,4,0.3,0.3
2025-08-19T0000,1290A,115.8931,28.6843,南昌市,省外办,,25,23,19,17,16,64,,94,87,10,8,5,6,0.4,0.5
2025-08-19T0000,1291A,115.8886,28.7003,南昌市,省林业公司,,25,17,32,17,14,66,,94,86,7,14,3,4,0.5,0.6
2025-08-19T0000,1292A,115.8126,28.7442,南昌市,林科所,,22,22,20,14,9,11,,100,67,30,8,4,9,0.5,0.6
2025-08-19T0000,1294A,115.8518,28.687,南昌市,建工学校,,30,30,31,6,22,45,,89,80,32,15,6,6,0.6,0.5
2025-08-19T0000,1295A,115.8921,28.6424,南昌市,象湖,,23,23,17,14,10,51,,92,84,22,12,8,8,0.4,0.4
2025-08-19T0000,1296A,115.7423,28.7996,南昌市,武术学校,,20,,14,14,12,24,,87,50,7,6,8,10,0.4,0.4
2025-08-19T0000,3046A,115.9084,28.6062,南昌市,机电学校,,37,37,28,14,12,39,,99,80,31,13,8,7,0.6,0.5
2025-08-19T0000,3690A,115.9721,28.7031,南昌市,外国语学校,,29,29,24,14,11,64,,104,92,14,9,10,9,0.5,0.5
2025-08-19T0000,4192A,115.9316,28.68677,南昌市,南京东路235号,,,16,25,10,9,,,93,89,12,11,10,9,0.6,0.6
2025-08-19T0000,1905A,106.056,30.8064,南充市,西山风景区,,,,,,,,,,,,,,,,
2025-08-19T0000,1906A,106.0789,30.8023,南充市,南充市委,细颗粒物(PM2.5),55,52,34,39,21,77,,116,100,12,14,8,5,0.5,0.4
2025-08-19T0000,1907A,106.1031,30.8217,南充市,南充炼油厂,,42,40,38,29,22,70,,114,99,16,10,6,5,0.4,0.3
2025-08-19T0000,4227A,106.1083,30.7884,南充市,梨树横街98号,,46,42,32,32,24,88,,129,114,17,15,7,5,0.3,0.3
2025-08-19T0000,4304A,106.1172,30.843,南充市,清泉寺北路188号,,36,33,33,25,20,78,,125,111,14,11,5,5,0.4,0.3
2025-08-19T0000,4305A,106.067,30.7616,南充市,同庆路1号,"颗粒物(PM10),细颗粒物(PM2.5)",52,54,35,36,21,74,,121,101,10,13,7,6,0.4,0.4
2025-08-19T0000,1151A,118.8086,32.1065,南京市,迈皋桥,,47,28,24,22,16,149,,163,154,4,10,4,4,0.5,0.6
2025-08-19T0000,1152A,118.7538,32.0551,南京市,草场门,,39,36,34,24,18,124,,158,149,14,12,3,8,0.6,0.6
2025-08-19T0000,1153A,118.7794,32.0745,南京市,山西路,,44,36,35,19,14,138,,157,148,15,16,4,4,0.4,0.4
2025-08-19T0000,1154A,118.7752,32.0023,南京市,中华门,,39,34,26,27,15,119,,146,133,9,9,4,4,0.7,0.8
2025-08-19T0000,1155A,118.8109,32.0309,南京市,瑞金路,,40,36,26,24,17,128,,152,142,24,17,6,7,0.4,0.4
2025-08-19T0000,1156A,118.7997,32.0754,南京市,玄武湖,,40,32,31,15,9,127,,148,137,12,10,4,4,0.5,0.5
2025-08-19T0000,1157A,118.6414,32.0931,南京市,浦口,,35,32,31,16,15,109,,147,117,16,14,6,6,0.6,0.6
2025-08-19T0000,1158A,118.7356,31.9996,南京市,奥体中心,,42,34,33,24,20,132,,162,148,12,13,6,7,0.4,0.5
2025-08-19T0000,1159A,118.9125,32.1028,南京市,仙林大学城,,46,46,33,24,12,119,,137,130,10,6,9,8,0.6,0.6
2025-08-19T0000,3422A,118.8436,31.9198,南京市,江宁彩虹桥,,42,42,33,22,17,112,,133,126,11,9,4,4,0.4,0.4
2025-08-19T0000,3427A,118.8554,32.3578,南京市,六合雄州,,41,41,39,20,18,102,,165,108,17,17,6,5,0.7,0.7
2025-08-19T0000,4249A,118.8708,31.3402,南京市,汶溪路181号,,42,34,27,29,20,129,,140,137,12,10,7,7,0.4,0.4
2025-08-19T0000,4312A,119.019,31.6512,南京市,中山西路1号,,34,34,24,23,17,97,,120,119,20,15,4,4,0.4,0.4
2025-08-19T0000,1401A,108.3103,22.7881,南宁市,二十一中,,8,,15,3,9,25,,50,31,5,10,3,4,0.5,0.5
2025-08-19T0000,1402A,108.3141,22.8528,南宁市,北湖,,12,,17,8,12,20,,50,32,8,12,3,5,0.4,0.4
2025-08-19T0000,1403A,108.3206,22.8225,南宁市,市监测站,,15,,15,10,11,19,,48,29,10,12,3,4,0.4,0.4
2025-08-19T0000,1404A,108.3829,22.8037,南宁市,大自然花园,,12,,15,8,10,25,,52,34,7,8,4,5,0.5,0.5
2025-08-19T0000,1405A,108.4394,22.7904,南宁市,仙葫,,11,11,18,3,8,24,,49,35,6,9,4,5,0.3,0.4
2025-08-19T0000,1406A,108.2397,22.8467,南宁市,区农职院,,8,,16,3,7,21,,51,31,11,13,4,6,0.3,0.3
2025-08-19T0000,1407A,108.3275,22.735,南宁市,英华嘉园,,14,14,15,8,10,24,,50,34,8,7,1,2,0.4,0.4
2025-08-19T0000,3401A,108.4834,22.7618,南宁市,红星社区,,9,6,16,3,8,27,,54,37,5,7,2,3,0.3,0.3
2025-08-19T0000,4221A,108.2177,22.7774,南宁市,乐贤路16号,,11,11,19,7,10,18,,52,28,16,17,6,7,0.6,0.6
2025-08-19T0000,2331A,118.0966,26.6761,南平市,茫荡山,,,,,,,,,,,,,,,,
2025-08-19T0000,2332A,118.1681,26.6369,南平市,南平市监测站,,14,7,12,3,8,44,,57,36,11,8,4,4,0.5,0.4
2025-08-19T0000,2333A,118.1825,26.6489,南平市,南平铝业有限公司,,17,17,13,3,7,36,,55,36,15,11,5,6,0.6,0.6
2025-08-19T0000,2334A,118.1756,26.6272,南平市,南平七中,,13,13,14,3,7,39,,54,34,10,7,3,3,0.6,0.5
2025-08-19T0000,1168A,120.9098,31.9663,南通市,狼山街道,,17,17,18,8,6,11,,126,66,33,19,4,4,0.4,0.4
2025-08-19T0000,1169A,120.86,32.0005,南通市,虹桥,,19,12,16,7,9,13,,129,74,37,22,3,4,0.6,0.6
2025-08-19T0000,1170A,120.87,32.02,南通市,城中,,20,20,21,3,7,16,,125,71,34,19,5,5,0.3,0.3
2025-08-19T0000,1171A,120.94,31.93,南通市,星湖花园,,17,11,13,3,8,16,,124,67,33,18,4,4,0.4,0.5
2025-08-19T0000,1172A,120.81,32.0417,南通市,紫琅学院,,18,15,15,3,4,15,,125,73,35,20,5,5,0.4,0.5
2025-08-19T0000,3291A,121.067,32.062,南通市,通州监测站,,10,6,12,3,5,29,,122,70,14,10,1,2,0.5,0.5
2025-08-19T0000,3432A,120.9348,31.9883,南通市,环境教育馆,,17,17,21,3,4,18,,133,75,26,15,4,4,0.2,0.2
2025-08-19T0000,2404A,112.5224,33.0122,南阳市,瓦房庄,,39,39,32,16,14,75,,113,96,16,9,7,6,0.5,0.5
2025-08-19T0000,2405A,112.5003,32.9735,南阳市,汉画馆,,37,37,32,14,11,86,,114,98,11,12,7,8,0.6,0.6
2025-08-19T0000,2406A,112.5573,33.027,南阳市,气象站,,27,18,27,17,12,86,,121,103,13,11,8,8,0.4,0.4
2025-08-19T0000,2407A,112.5481,32.9689,南阳市,理工学院,,34,34,32,11,10,80,,116,94,13,10,7,8,0.5,0.5
2025-08-19T0000,4008A,112.5234,32.9922,南阳市,卧龙区政府,,33,33,30,20,16,86,,114,99,13,13,6,6,0.7,0.6
2025-08-19T0000,1234A,121.8358,29.911,宁波市,区环保大楼,,10,10,16,3,5,27,,44,35,5,6,4,4,0.4,0.4
2025-08-19T0000,1235A,121.56,29.82,宁波市,万里学院,,16,16,16,8,8,20,,64,40,21,7,7,6,0.5,0.4
2025-08-19T0000,1236A,121.713,29.9572,宁波市,龙赛医院,,9,7,11,6,6,27,,52,32,6,6,3,3,0.3,0.3
2025-08-19T0000,1239A,121.633,29.7733,宁波市,钱湖水厂,,9,7,10,3,4,28,,59,43,7,6,5,5,0.3,0.3
2025-08-19T0000,1240A,121.5856,29.8635,宁波市,太古小学,,9,6,11,6,8,28,,58,38,4,3,2,3,0.6,0.6
2025-08-19T0000,1241A,121.524,29.8674,宁波市,市环境监测中心,,13,13,14,3,4,29,,59,38,7,7,8,7,0.5,0.4
2025-08-19T0000,2871A,121.6147,29.9017,宁波市,万里国际学校,,11,9,12,3,7,35,,61,42,5,5,3,4,0.5,0.5
2025-08-19T0000,3710A,121.5594,29.8975,宁波市,白沙活动中心,,11,11,13,3,4,29,,64,39,8,7,6,5,0.5,0.5
2025-08-19T0000,2339A,119.5001,26.6946,宁德市,金涵水库,,,,,,,,,,,,,,,,
2025-08-19T0000,2341A,119.5388,26.6612,宁德市,宁德市监测站,,10,,13,7,9,26,,64,40,6,7,3,3,0.4,0.4
2025-08-19T0000,3209A,119.5231,26.6562,宁德市,宁德一中,,15,,13,10,10,23,,65,39,6,4,3,3,0.3,0.2
2025-08-19T0000,2618A,98.8601,25.8567,怒江傈僳族自治州,州监测站,,28,28,22,15,10,25,,58,43,8,6,8,6,0.4,0.4
2025-08-19T0000,2619A,98.8546,25.8417,怒江傈僳族自治州,泸水一中,,16,11,17,11,8,7,,44,28,14,9,4,4,0.4,0.4
2025-08-19T0000,1888A,101.6891,26.571,攀枝花市,弄弄坪,,47,47,40,17,18,37,,105,75,23,16,4,7,0.8,0.9
2025-08-19T0000,1889A,101.5769,26.5928,攀枝花市,河门口,,32,32,37,16,18,34,,108,71,15,15,7,13,0.6,0.9
2025-08-19T0000,1890A,101.7169,26.585,攀枝花市,炳草岗,,44,44,33,21,19,36,,103,73,24,18,8,9,0.8,0.9
2025-08-19T0000,1891A,101.7369,26.5008,攀枝花市,仁和,,46,42,35,32,23,28,,93,60,12,11,7,12,0.7,0.8
2025-08-19T0000,2835A,101.7227,26.567,攀枝花市,四十中小,,26,26,26,13,15,47,,102,78,14,14,9,16,0.9,1.2
2025-08-19T0000,1604A,122.0303,41.1489,盘锦市,开发区,,32,,22,19,16,102,,113,90,5,11,6,6,0.6,0.4
2025-08-19T0000,1605A,122.0485,41.0883,盘锦市,兴隆台,,31,,23,18,11,98,,101,82,6,14,5,7,0.7,0.5
2025-08-19T0000,1606A,121.8297,41.1028,盘锦市,新生街道,,35,22,30,12,11,110,,125,105,8,15,3,4,0.7,0.6
2025-08-19T0000,1832A,113.3257,33.742,平顶山市,新华旅馆,颗粒物(PM10),53,56,43,34,20,60,,135,101,19,13,6,6,0.7,0.6
2025-08-19T0000,1833A,113.2919,33.737,平顶山市,规划设计院,,35,35,30,16,18,71,,134,102,15,11,6,5,0.7,0.7
2025-08-19T0000,1834A,113.182,33.774,平顶山市,平顶山工学院,,36,36,28,19,13,55,,,,26,15,7,6,0.5,0.6
2025-08-19T0000,3204A,113.3025,33.73,平顶山市,规划局,,39,39,35,15,11,73,,138,106,16,12,6,5,0.4,0.3
2025-08-19T0000,3594A,112.8867,33.9116,平顶山市,石龙区,颗粒物(PM10),60,69,46,23,18,59,,118,92,26,16,7,7,0.5,0.5
2025-08-19T0000,2656A,106.6692,35.5461,平凉市,聚贤嘉苑,,24,24,27,7,8,51,,80,60,17,14,5,7,0.5,0.5
2025-08-19T0000,2657A,106.7021,35.5307,平凉市,博物馆,颗粒物(PM10),52,53,34,13,8,21,,81,57,45,15,12,11,0.9,0.4
2025-08-19T0000,2347A,114.0997,27.5002,萍乡市,武功山,,17,6,4,3,4,52,,41,41,3,4,6,7,0.4,0.5
2025-08-19T0000,2348A,113.8385,27.6434,萍乡市,中医院,,21,21,17,3,9,62,,72,61,6,12,9,14,0.3,0.5
2025-08-19T0000,2349A,113.8493,27.6253,萍乡市,市政府车库,,17,,18,10,15,54,,58,52,4,9,8,12,0.3,0.6
2025-08-19T0000,2350A,113.8676,27.6435,萍乡市,市环保局,细颗粒物(PM2.5),94,,24,70,24,61,,60,57,3,20,14,19,0.4,0.6
2025-08-19T0000,2351A,113.866,27.6198,萍乡市,安源区政府,颗粒物(PM10),72,93,27,9,12,56,,55,53,1,7,10,14,0.4,0.7
2025-08-19T0000,2319A,119.0141,25.4325,莆田市,荔城区仓后路,,18,6,24,3,8,55,,78,61,7,6,6,7,0.7,0.6
2025-08-19T0000,2320A,119.0015,25.4553,莆田市,莆田市监测站,,15,,20,6,6,45,,79,62,6,7,5,6,0.5,0.4
2025-08-19T0000,2321A,119.1119,25.4561,莆田市,涵江区六中,,20,13,18,6,7,63,,79,69,6,7,4,6,0.4,0.5
2025-08-19T0000,2322A,119.1013,25.3215,莆田市,秀屿区政府,,20,18,20,6,10,63,,78,73,11,9,5,5,0.4,0.4
2025-08-19T0000,2323A,118.981,25.4792,莆田市,东圳水库,,,,,,,,,,,,,,,,
2025-08-19T0000,2392A,115.0312,35.7636,濮阳市,环保局,,31,23,36,16,24,99,,126,112,9,10,4,5,0.4,0.4
2025-08-19T0000,2394A,115.0574,35.7609,濮阳市,油田运输公司,,35,35,42,11,22,91,,128,107,10,11,2,3,0.6,0.6
2025-08-19T0000,3021A,115,35.7668,濮阳市,濮水河管理处,,,32,29,,,98,,121,112,8,6,2,2,0.4,0.4
2025-08-19T0000,4216A,115.0924,35.7686,濮阳市,任丘路479号,,41,41,51,15,27,74,,121,96,12,10,2,3,0.5,0.6
2025-08-19T0000,2601A,100.98,22.7633,普洱市,市环保局,,39,39,28,22,19,16,,51,39,8,7,6,6,0.6,0.5
2025-08-19T0000,2602A,100.9817,22.8322,普洱市,普洱第二中学,,34,34,27,13,12,22,,54,40,6,8,6,6,0.5,0.5
2025-08-19T0000,2262A,131.0518,45.8751,七台河市,新一中,,18,18,15,12,10,23,,88,55,22,14,7,10,0.9,0.9
2025-08-19T0000,3345A,131.0577,45.7879,七台河市,中波台,,12,,18,8,6,25,,57,39,15,21,7,9,0.5,0.5
2025-08-19T0000,3637A,131.0176,45.7761,七台河市,人民广场,,18,18,23,12,10,26,,72,49,14,14,10,11,0.6,0.5
2025-08-19T0000,3684A,130.8781,45.8222,七台河市,新建矿广场,,13,7,22,7,7,13,,73,41,25,16,11,10,0.4,0.5
2025-08-19T0000,1779A,123.9305,47.3636,齐齐哈尔市,安居小区,,22,22,25,3,7,36,,56,52,15,13,9,8,0.4,0.4
2025-08-19T0000,1780A,123.9488,47.3386,齐齐哈尔市,中心广场,,17,17,17,7,4,40,,63,58,15,10,6,6,0.4,0.4
2025-08-19T0000,1781A,123.9483,47.3227,齐齐哈尔市,农牧车辆厂,,27,27,20,6,6,40,,60,54,11,8,6,6,0.4,0.4
2025-08-19T0000,1783A,123.945,47.2988,齐齐哈尔市,市环境监测站,,23,23,16,3,6,35,,62,55,14,9,6,6,0.3,0.3
2025-08-19T0000,3662A,123.6333,47.2075,齐齐哈尔市,富区青少年活动中心,,13,10,13,9,6,34,,59,53,8,6,4,4,0.4,0.4
2025-08-19T0000,2591A,107.9783,26.5747,黔东南苗族侗族自治州,市环境监测站,,18,13,15,12,12,19,,50,36,12,8,2,2,0.3,0.3
2025-08-19T0000,2881A,107.8908,26.5311,黔东南苗族侗族自治州,凯里学院,,9,,11,6,8,28,,58,40,8,8,3,3,0.4,0.5
2025-08-19T0000,2593A,107.5228,26.2403,黔南布依族苗族自治州,小围寨,,6,6,10,3,5,18,,42,33,5,6,1,2,0.3,0.3
2025-08-19T0000,3538A,107.5175,26.2978,黔南布依族苗族自治州,沙坝,,7,7,15,3,0,10,,44,29,6,5,3,3,0.3,0.3
2025-08-19T0000,2589A,104.9022,25.0925,黔西南布依族苗族自治州,场坝街,,30,30,18,3,7,33,,74,54,8,13,3,5,0.4,0.4
2025-08-19T0000,2590A,104.8811,25.0992,黔西南布依族苗族自治州,坪东大道,,18,18,18,6,11,33,,78,54,8,11,2,5,0.4,0.4
2025-08-19T0000,2502A,108.6236,21.9667,钦州市,市环保站,,12,12,17,3,7,33,,50,34,6,9,2,3,0.4,0.6
2025-08-19T0000,2503A,108.6549,21.9481,钦州市,沙埠小学,,11,11,18,3,8,34,,51,37,6,7,3,3,0.4,0.4
2025-08-19T0000,2504A,108.5989,21.7431,钦州市,港区一小,,17,17,24,6,10,29,,45,32,12,15,4,6,0.4,0.4
2025-08-19T0000,3404A,108.5959,21.9633,钦州市,北职校,,11,11,20,3,9,32,,49,35,4,6,2,2,0.4,0.4
2025-08-19T0000,1043A,119.7493,40.0116,秦皇岛市,第一关,,46,46,34,30,17,42,,146,101,54,30,5,5,0.6,0.4
2025-08-19T0000,1044A,119.5897,39.9499,秦皇岛市,监测站,颗粒物(PM10),53,55,41,17,9,104,,152,125,10,16,7,6,0.6,0.6
2025-08-19T0000,1046A,119.5251,39.9041,秦皇岛市,建设大厦,,41,41,48,20,11,80,,144,117,13,15,7,8,0.5,0.6
2025-08-19T0000,3132A,119.610547,39.943889,秦皇岛市,文明里,,46,42,43,32,15,102,,143,121,9,16,6,6,0.5,0.5
2025-08-19T0000,4198A,119.5090,39.8253,秦皇岛市,北戴河轮滑馆,,48,48,42,25,19,89,,145,123,10,12,3,3,0.5,0.5
2025-08-19T0000,1307A,120.6659,36.2403,青岛市,仰口,,19,14,32,7,19,59,,123,83,5,5,9,9,0.7,0.8
2025-08-19T0000,1310A,120.4134,36.0658,青岛市,市南区东部子站,,25,9,29,3,19,77,,113,75,2,4,6,6,0.0,0.1
2025-08-19T0000,1311A,120.3664,36.1032,青岛市,四方区子站,,28,19,30,9,23,87,,145,90,2,3,5,5,0.2,0.3
2025-08-19T0000,1312A,120.2994,36.054,青岛市,市南区西部子站,,24,17,33,3,18,76,,123,78,2,9,4,5,0.5,0.6
2025-08-19T0000,1313A,120.4581,36.0858,青岛市,崂山区子站,,,27,33,3,16,69,,99,67,,8,7,7,0.2,0.2
2025-08-19T0000,1315A,120.3999,36.3083,青岛市,城阳区子站,,22,17,36,3,17,70,,135,77,4,9,6,6,0.4,0.6
2025-08-19T0000,1966A,120.0405,35.8735,青岛市,黄岛区4号,,28,14,33,3,17,88,,150,102,2,6,4,6,0.4,0.6
2025-08-19T0000,3362A,120.5014,36.4034,青岛市,即墨2号,,19,17,34,6,21,59,,165,77,7,8,3,3,0.2,0.3
2025-08-19T0000,3642A,120.3503,36.0736,青岛市,市北区南部,,25,19,30,3,18,77,,141,82,7,10,5,5,0.6,0.7
2025-08-19T0000,3643A,120.3948,36.1805,青岛市,李沧区北部,,23,,27,9,23,73,,126,76,1,8,9,9,0.2,0.4
2025-08-19T0000,4290A,120.1969,35.9546,青岛市,珠江路669号,,25,14,28,7,21,77,,137,88,1,4,5,6,0.4,0.6
2025-08-19T0000,1702A,113.0426,23.691,清远市,环保大楼,,12,9,10,8,8,37,,43,43,9,10,8,8,0.7,0.8
2025-08-19T0000,1703A,113.0208,23.7106,清远市,凤城街办,,12,12,10,6,4,28,,54,45,13,12,7,7,0.4,0.4
2025-08-19T0000,3025A,113.0477,23.6344,清远市,技师学院,,17,17,14,7,6,21,,56,44,18,12,9,11,0.4,0.4
2025-08-19T0000,3318A,112.9903,23.7403,清远市,清新太和,,13,10,11,3,5,39,,59,50,9,11,7,7,0.4,0.4
2025-08-19T0000,3455A,113.076,23.7198,清远市,清城东城,,15,15,12,8,5,22,,48,38,14,10,7,7,0.5,0.5
2025-08-19T0000,2661A,107.6325,35.7357,庆阳市,庆阳五中,,25,22,22,7,7,77,,87,87,6,6,8,7,0.4,0.4
2025-08-19T0000,2662A,107.6364,35.7067,庆阳市,市环保局,,25,21,23,3,6,80,,94,93,4,4,4,4,0.2,0.2
2025-08-19T0000,1916A,103.7897,25.5035,曲靖市,环境监测站,,27,27,20,11,8,57,,87,78,11,13,6,6,0.5,0.5
2025-08-19T0000,1917A,103.8,25.5364,曲靖市,烟厂办公区,,23,23,20,12,11,66,,89,82,8,13,4,5,0.6,0.7
2025-08-19T0000,3376A,103.7947,25.462,曲靖市,南苑二区,,,15,16,13,9,,,92,,14,9,4,4,0.3,0.6
2025-08-19T0000,3377A,103.7444,25.5261,曲靖市,曲靖师范学院,,20,20,19,11,11,62,,95,82,11,12,7,10,0.3,0.3
2025-08-19T0000,1264A,118.8692,28.9398,衢州市,环保大楼,,37,37,26,22,14,50,,130,89,26,15,3,3,0.4,0.3
2025-08-19T0000,1265A,118.8709,28.9666,衢州市,实验学校,,47,47,25,23,12,33,,125,82,35,14,2,3,0.4,0.3
2025-08-19T0000,1266A,118.8621,28.9808,衢州市,衢州学院,,25,22,23,13,14,31,,120,79,49,15,3,4,0.3,0.3
2025-08-19T0000,1611A,118.5819,24.9117,泉州市,涂山街,,21,21,26,12,12,47,,94,66,14,12,4,4,0.4,0.5
2025-08-19T0000,1612A,118.5972,24.8978,泉州市,津头埔,,22,22,26,8,15,49,,99,67,10,10,4,4,0.4,0.5
2025-08-19T0000,1613A,118.6663,24.9424,泉州市,万安,,17,17,24,8,10,28,,81,54,19,11,2,2,0.4,0.5
2025-08-19T0000,1614A,118.6117,24.9604,泉州市,清源山,,,,,,,,,,,,,,,,
2025-08-19T0000,3529A,118.6333,24.9264,泉州市,城华南路,,14,12,18,6,11,42,,86,52,9,11,3,3,0.3,0.4
2025-08-19T0000,2626A,88.8876,29.2718,日喀则市,日喀则监测站,,25,6,6,3,1,80,,81,78,3,5,10,10,0.3,0.3
2025-08-19T0000,3726A,88.8781,29.2426,日喀则市,林业技术推广中心,,23,9,8,3,1,73,,76,75,2,2,6,5,0.2,0.2
2025-08-19T0000,1659A,119.471,35.4209,日照市,监测站,,28,17,41,6,21,88,,158,92,8,19,7,10,0.4,0.7
2025-08-19T0000,1660A,119.523,35.4216,日照市,市政府广场,,26,22,38,3,17,82,,153,106,8,16,6,8,0.7,0.8
2025-08-19T0000,1661A,119.5587,35.4044,日照市,港务局,,27,22,40,17,30,86,,159,103,10,19,9,11,0.6,0.8
2025-08-19T0000,3507A,119.5328,35.4625,日照市,职业技术学院,,27,17,38,7,21,86,,164,104,10,17,4,7,0.6,0.7
2025-08-19T0000,3604A,119.3266,35.1044,日照市,岚山环保分局,,23,17,35,8,17,72,,160,94,10,12,8,9,0.9,0.7
2025-08-19T0000,1835A,111.1922,34.7752,三门峡市,市政府,,36,36,43,17,25,66,,128,114,24,9,7,4,0.5,0.5
2025-08-19T0000,1836A,111.1587,34.7942,三门峡市,开发区,,34,34,43,21,29,80,,135,123,19,11,7,4,0.3,0.4
2025-08-19T0000,1838A,111.143,34.7955,三门峡市,风景区,,31,31,40,14,22,86,,140,128,14,7,5,4,0.4,0.5
2025-08-19T0000,3039A,111.1911,34.7829,三门峡市,三门峡市第一小学,,40,40,48,14,24,76,,131,120,16,8,8,6,0.5,0.6
2025-08-19T0000,3598A,111.1,34.7167,三门峡市,富达温泉假日酒店,,30,30,40,12,25,64,,130,111,18,8,3,4,0.4,0.4
2025-08-19T0000,2324A,117.6211,26.2625,三明市,三钢,,20,20,19,3,11,24,,73,46,22,11,10,3,1.2,0.6
2025-08-19T0000,2325A,117.635,26.2714,三明市,三明二中,,15,,15,10,8,19,,64,42,19,9,3,3,0.7,0.4
2025-08-19T0000,2326A,117.6028,26.2378,三明市,三元区政府,,29,29,19,9,10,20,,77,42,20,12,3,3,0.4,0.5
2025-08-19T0000,2327A,117.7275,26.3108,三明市,洋溪,,,,,,,,,,,,,,,,
2025-08-19T0000,1876A,109.5078,18.2489,三亚市,河东子站,,14,14,10,9,4,30,,50,46,5,5,3,2,0.6,0.6
2025-08-19T0000,1877A,109.4964,18.2681,三亚市,河西子站,,13,13,11,3,2,19,,52,45,14,9,2,2,0.5,0.5
2025-08-19T0000,3540A,109.7348,18.3443,三亚市,君悦子站,,10,10,6,6,3,30,,43,42,13,7,1,1,0.5,0.4
2025-08-19T0000,2624A,91.7608,29.2313,山南市,山南监测站,,20,6,6,3,4,61,,83,75,1,3,2,2,0.3,0.3
2025-08-19T0000,2625A,91.7706,29.2436,山南市,山南人民医院,,19,8,8,3,5,60,,85,75,1,4,3,3,0.2,0.2
2025-08-19T0000,1674A,116.6794,23.3667,汕头市,金平子站,,13,,11,3,5,41,,61,49,6,7,1,2,0.6,0.6
2025-08-19T0000,1675A,116.7244,23.3633,汕头市,龙湖子站,,11,9,12,3,6,34,,60,48,7,5,6,6,0.6,0.6
2025-08-19T0000,1676A,116.7258,23.2775,汕头市,濠江子站,,14,14,16,6,8,28,,53,43,5,7,5,5,0.5,0.5
2025-08-19T0000,1677A,116.7519,23.4714,汕头市,澄海子站,,10,,16,6,9,31,,52,39,9,6,2,2,0.5,0.5
2025-08-19T0000,1678A,116.6092,23.2539,汕头市,潮阳子站,,11,9,15,3,7,35,,52,43,5,6,4,4,0.5,0.5
2025-08-19T0000,3444A,116.454,23.2684,汕头市,潮南峡山,,17,17,11,8,5,24,,52,37,12,7,5,5,0.6,0.6
2025-08-19T0000,3624A,116.4069,23.2533,汕头市,潮南子站,,16,16,14,6,5,26,,48,34,8,7,4,4,0.6,0.6
2025-08-19T0000,1693A,115.3653,22.775,汕尾市,市环保局,,12,10,12,3,4,38,,44,41,5,5,3,3,0.5,0.4
2025-08-19T0000,1694A,115.3706,22.7898,汕尾市,市政府,,20,20,12,9,4,30,,44,40,8,8,4,4,0.5,0.5
2025-08-19T0000,1695A,115.3622,22.7925,汕尾市,新城中学,,16,16,12,3,3,30,,44,40,7,7,4,4,0.4,0.4
2025-08-19T0000,2645A,109.9154,33.8715,商洛市,监测站,,36,36,27,21,13,104,,94,94,13,12,19,8,0.7,0.6
2025-08-19T0000,3045A,109.9643,33.8471,商洛市,商州区中学,,39,39,32,18,12,86,,87,87,17,12,6,8,0.5,0.5
2025-08-19T0000,2408A,115.6702,34.4285,商丘市,环境监测站,,39,39,34,18,16,116,,140,129,11,8,2,2,0.5,0.5
2025-08-19T0000,2409A,115.6458,34.4045,商丘市,粮食局,,37,37,32,19,14,111,,141,133,9,6,3,3,0.5,0.4
2025-08-19T0000,2410A,115.6293,34.3948,商丘市,睢阳区环保局,,39,39,37,19,16,109,,133,128,10,8,5,5,0.4,0.4
2025-08-19T0000,3171A,115.6071,34.4465,商丘市,梁园区档案局,,39,35,29,18,15,122,,140,137,9,7,3,2,0.4,0.4
2025-08-19T0000,1141A,121.4,31.238,上海市,普陀,,16,16,16,3,5,26,,102,59,14,13,5,6,0.3,0.4
2025-08-19T0000,1142A,121.478,31.2036,上海市,十五厂,,14,14,16,3,8,24,,86,47,10,10,8,8,0.4,0.5
2025-08-19T0000,1143A,121.467,31.3008,上海市,虹口,,12,12,13,3,6,24,,82,50,10,8,5,5,0.7,0.7
2025-08-19T0000,1147A,121.425,31.2261,上海市,静安监测站,,14,14,16,3,8,20,,68,41,12,11,4,4,0.5,0.5
2025-08-19T0000,1148A,121.703,31.1907,上海市,浦东川沙,,14,14,17,3,6,24,,80,41,15,12,6,6,0.4,0.4
2025-08-19T0000,1149A,121.533,31.2284,上海市,浦东新区监测站,,16,16,14,8,7,27,,84,50,9,8,8,8,0.5,0.5
2025-08-19T0000,1150A,121.577,31.2071,上海市,浦东张江,,19,16,15,13,9,35,,93,56,11,10,6,6,0.5,0.5
2025-08-19T0000,3265A,121.4316,31.3322,上海市,宝山庙行,,9,9,13,3,7,24,,78,49,11,10,9,9,0.3,0.3
2025-08-19T0000,3266A,121.8791,31.4662,上海市,崇明上实东滩,,11,11,10,6,6,28,,57,43,12,8,4,5,0.2,0.2
2025-08-19T0000,3268A,121.3162,31.2838,上海市,嘉定南翔,,14,14,14,7,8,23,,96,57,17,15,4,4,0.2,0.2
2025-08-19T0000,3269A,121.3359,30.7456,上海市,金山新城,,,12,12,,7,26,,97,50,10,8,5,4,0.5,0.5
2025-08-19T0000,3270A,121.4996,31.0739,上海市,闵行浦江,,12,12,12,3,5,28,,86,49,8,8,4,4,0.8,0.7
2025-08-19T0000,3271A,121.2886,31.1663,上海市,青浦徐泾,,15,15,14,6,6,29,,100,60,11,10,6,6,0.5,0.5
2025-08-19T0000,3272A,121.2186,31.0378,上海市,松江图书馆,,19,,12,13,15,26,,107,58,18,12,8,8,0.7,0.8
2025-08-19T0000,3273A,121.3902,31.2059,上海市,长宁仙霞,,19,19,17,3,5,27,,91,53,12,13,8,8,0.5,0.5
2025-08-19T0000,3274A,121.7965,31.0507,上海市,浦东惠南,,20,,11,14,13,22,,79,42,16,10,10,10,0.5,0.5
2025-08-19T0000,3544A,121.4891,30.925,上海市,奉贤南桥新城,,13,13,15,7,9,32,,90,50,6,5,5,4,0.6,0.7
2025-08-19T0000,4183A,121.4174,31.16637,上海市,冠生园路458号,,17,17,15,6,7,30,,91,56,14,14,3,4,0.6,0.6
2025-08-19T0000,4205A,121.5419,31.2683,上海市,宁武路151号,,22,22,30,6,10,23,,72,44,16,17,3,3,0.2,0.2
2025-08-19T0000,2381A,118.005,28.4572,上饶市,百草园,,,,,,,,,,,,,,,,
2025-08-19T0000,2382A,117.9756,28.4436,上饶市,市监测站,,32,31,23,22,11,32,,97,69,19,10,13,7,0.5,0.4
2025-08-19T0000,2383A,117.9519,28.4628,上饶市,凤凰光学,,34,34,22,21,12,47,,92,75,12,10,5,11,0.9,0.8
2025-08-19T0000,3685A,117.897,28.4315,上饶市,双创科技城,,33,33,22,18,10,35,,101,74,31,9,19,12,0.5,0.4
2025-08-19T0000,4211A,118.1904,28.4448,上饶市,裕丰大道,,19,,8,13,7,42,,79,61,10,7,15,13,0.3,0.3
2025-08-19T0000,1669A,113.5824,24.7733,韶关市,市八中,,13,13,21,3,8,20,,52,32,6,10,8,11,0.6,0.6
