timepoint,stationcode,longitude,latitude,area,positionname,primarypollutant,aqi,pm10,pm10_24h,pm2_5,pm2_5_24h,o3,o3_24h,o3_8h,o3_8h_24h,no2,no2_24h,so2,so2_24h,co,co_24h
2023-07-01T11:00:00,1001A,116.3621,39.8784,北京市,万寿西宫,臭氧1小时,107,63,59,24,24,265,213,126,118,20,25,2,2,0.8,0.8
2023-07-01T11:00:00,1002A,116.2202,40.2915,北京市,定陵,臭氧1小时,117,57,51,32,22,319,234,178,146,14,11,1,2,0.6,0.5
2023-07-01T11:00:00,1003A,116.4174,39.9289,北京市,东四,臭氧1小时,122,72,59,33,22,283,243,143,133,21,23,4,4,0.6,0.6
2023-07-01T11:00:00,1004A,116.4072,39.8863,北京市,天坛,臭氧1小时,114,63,54,26,22,282,227,130,114,23,31,6,3,0.5,0.4
2023-07-01T11:00:00,1005A,116.462,39.9365,北京市,农展馆,臭氧1小时,117,72,55,28,21,281,234,141,126,23,28,3,2,0.6,0.5
2023-07-01T11:00:00,1006A,116.3392,39.9295,北京市,官园,臭氧1小时,112,77,63,27,26,274,223,134,107,25,26,5,4,0.6,0.4
2023-07-01T11:00:00,1007A,116.2878,39.9611,北京市,海淀万柳,臭氧1小时,111,86,67,37,25,267,222,126,106,36,32,3,3,0.6,0.5
2023-07-01T11:00:00,1008A,116.6636,40.135,北京市,顺义新城,臭氧1小时,111,50,51,23,20,291,221,110,110,20,25,4,3,0.6,0.5
2023-07-01T11:00:00,1009A,116.6275,40.3275,北京市,怀柔镇,臭氧1小时,110,59,47,28,21,298,219,129,129,20,22,4,1,0.5,0.6
2023-07-01T11:00:00,1010A,116.2296,40.217,北京市,昌平镇,臭氧1小时,122,76,55,40,24,317,243,182,144,15,17,4,2,0.5,0.4
2023-07-01T11:00:00,1011A,116.3966,39.9821,北京市,奥体中心,臭氧1小时,80,86,61,34,20,229,184,122,91,43,32,1,2,0.6,0.5
2023-07-01T11:00:00,1012A,116.184,39.9136,北京市,古城,臭氧1小时,102,82,66,27,25,253,203,115,108,30,29,2,2,0.6,0.5
2023-07-01T11:00:00,1015A,117.1444,39.1661,天津市,勤俭道,臭氧1小时,130,50,34,21,14,284,260,171,171,16,22,9,8,0.6,0.5
2023-07-01T11:00:00,1017A,117.237,39.1082,天津市,大直沽八号路,臭氧1小时,114,47,35,24,15,255,228,153,153,17,20,8,8,0.8,0.4
2023-07-01T11:00:00,1018A,117.202,39.0927,天津市,前进道,臭氧1小时,117,41,30,17,12,258,234,149,149,21,24,8,6,0.5,0.4
2023-07-01T11:00:00,1019A,117.1837,39.2133,天津市,淮河道,臭氧1小时,121,52,38,24,15,267,242,166,166,17,25,10,9,0.6,0.5
2023-07-01T11:00:00,1021A,117.307,39.0877,天津市,跃进路,臭氧1小时,118,44,32,16,13,267,236,159,159,13,20,8,8,0.5,0.4
2023-07-01T11:00:00,1023A,117.707,39.0343,天津市,第四大街,臭氧1小时,111,39,36,17,14,237,222,160,160,21,26,8,13,0.7,0.7
2023-07-01T11:00:00,1024A,117.457,38.8394,天津市,永明路,臭氧1小时,116,30,32,12,15,236,231,139,139,20,29,10,8,0.4,0.4
2023-07-01T11:00:00,1026A,117.764,39.1587,天津市,汉北路,臭氧1小时,119,46,37,20,16,248,237,168,168,24,24,10,7,1.2,0.8
2023-07-01T11:00:00,1027A,117.157,38.9194,天津市,团泊洼,臭氧1小时,108,35,26,19,12,234,216,142,142,16,21,4,5,0.9,0.9
2023-07-01T11:00:00,1029A,114.4422,38.0444,石家庄市,职工医院,,50,50,40,15,18,225,131,150,71,41,26,12,5,0.8,0.6
2023-07-01T11:00:00,1030A,114.6063,38.0266,石家庄市,高新区,颗粒物(PM10),60,70,58,22,21,222,160,107,89,33,31,22,7,1.3,0.5
2023-07-01T11:00:00,1031A,114.4898,38.1328,石家庄市,西北水源,,,67,50,,16,228,164,137,93,33,29,19,6,0.7,0.5
2023-07-01T11:00:00,1032A,114.4586,38.0058,石家庄市,西南高教,颗粒物(PM10),54,57,47,2,18,220,128,133,67,34,27,12,5,0.8,0.6
2023-07-01T11:00:00,1033A,114.5331,38.0178,石家庄市,世纪公园,颗粒物(PM10),53,55,48,25,22,229,153,116,82,30,27,12,9,0.9,0.6
2023-07-01T11:00:00,1034A,114.509,38.0457,石家庄市,人民会堂,颗粒物(PM10),62,74,52,31,18,242,151,157,110,41,24,15,12,0.8,0.5
2023-07-01T11:00:00,1035A,114.3524,37.8911,石家庄市,封龙山,臭氧1小时,83,22,33,12,22,216,186,197,176,8,10,8,8,0.8,0.7
2023-07-01T11:00:00,1037A,118.131,39.6363,唐山市,雷达站,臭氧1小时,124,59,54,30,24,302,247,156,156,16,22,6,6,0.5,0.6
2023-07-01T11:00:00,1038A,118.1725,39.6334,唐山市,物资局,臭氧1小时,123,46,52,29,25,301,245,147,147,18,24,8,7,0.5,0.7
2023-07-01T11:00:00,1040A,118.1705,39.6506,唐山市,十二中,臭氧1小时,120,50,48,30,31,294,240,142,142,14,19,6,5,0.5,0.6
2023-07-01T11:00:00,1041A,118.1869,39.622,唐山市,小山,臭氧1小时,126,50,50,38,23,306,252,148,148,10,18,7,8,0.4,0.7
2023-07-01T11:00:00,1042A,119.5134,39.8207,秦皇岛市,北戴河环保局,,,,33,,9,186,156,110,110,15,9,1,3,,0.6
2023-07-01T11:00:00,1043A,119.7493,40.0116,秦皇岛市,第一关,臭氧1小时,75,56,56,19,21,190,180,99,99,17,23,4,3,0.7,0.6
2023-07-01T11:00:00,1044A,119.5897,39.9499,秦皇岛市,监测站,臭氧1小时,93,72,41,15,20,204,194,134,134,21,17,7,4,0.8,0.7
2023-07-01T11:00:00,1046A,119.5251,39.9041,秦皇岛市,建设大厦,臭氧1小时,117,47,54,24,25,234,234,153,153,11,21,8,6,0.8,0.7
2023-07-01T11:00:00,1048A,114.5302,36.6116,邯郸市,东污水处理厂,臭氧1小时,80,53,39,31,23,226,184,118,118,12,18,6,6,0.6,0.5
2023-07-01T11:00:00,1049A,114.4918,36.5713,邯郸市,矿院,臭氧1小时,78,55,46,31,24,218,182,105,105,12,20,8,8,0.5,0.4
2023-07-01T11:00:00,1050A,114.484,36.6133,邯郸市,丛台公园,,,,41,,21,237,159,103,100,,19,14,10,0.9,0.6
2023-07-01T11:00:00,1051A,115.493,38.8632,保定市,游泳馆,臭氧1小时,116,37,37,36,19,273,232,136,136,11,13,25,14,1.0,0.4
2023-07-01T11:00:00,1052A,115.5213,38.8959,保定市,华电二区,臭氧1小时,110,56,43,13,16,259,219,140,133,11,11,18,11,1.1,0.6
2023-07-01T11:00:00,1053A,115.4713,38.9108,保定市,接待中心,臭氧1小时,104,64,55,19,20,252,208,131,131,8,9,4,4,0.9,0.6
2023-07-01T11:00:00,1054A,115.4612,38.8416,保定市,地表水厂,臭氧1小时,109,74,58,26,17,250,217,124,124,18,21,21,13,1.2,0.4
2023-07-01T11:00:00,1056A,115.5086,38.8639,保定市,监测站,臭氧1小时,114,59,51,29,26,262,228,137,129,15,16,26,12,0.9,0.4
2023-07-01T11:00:00,1057A,114.8883,40.8336,张家口市,人民公园,臭氧1小时,83,31,28,2,9,193,186,118,118,9,8,11,5,0.3,0.2
2023-07-01T11:00:00,1059A,114.8687,40.8042,张家口市,五金库,臭氧1小时,80,47,35,11,14,188,184,125,125,17,17,8,4,0.4,0.4
2023-07-01T11:00:00,1060A,114.8902,40.762,张家口市,世纪豪园,臭氧1小时,79,54,46,37,21,186,183,117,117,11,14,11,5,0.1,0.1
2023-07-01T11:00:00,1061A,114.8916,40.8661,张家口市,北泵房,臭氧1小时,92,30,29,7,8,199,193,124,124,8,8,16,12,0.6,0.5
2023-07-01T11:00:00,1062A,117.9531,40.9081,承德市,铁路,臭氧1小时,107,22,37,2,15,232,213,180,139,19,25,10,9,0.5,0.4
2023-07-01T11:00:00,1063A,117.9392,40.9763,承德市,中国银行,臭氧1小时,113,34,45,3,16,235,226,128,128,13,22,6,5,0.5,0.4
2023-07-01T11:00:00,1064A,117.9503,40.928,承德市,开发区,臭氧1小时,114,40,41,18,22,236,228,171,146,16,22,10,10,0.6,0.6
2023-07-01T11:00:00,1065A,117.8051,40.9655,承德市,文化中心,臭氧1小时,118,39,45,10,15,235,235,151,151,14,26,10,12,0.6,0.6
2023-07-01T11:00:00,1066A,117.9268,41.0026,承德市,离宫,臭氧1小时,110,27,34,9,19,225,219,148,148,6,11,9,7,0.5,0.6
2023-07-01T11:00:00,1067A,116.6708,39.5111,廊坊市,药材公司,臭氧1小时,116,71,61,16,24,269,231,128,127,18,24,10,8,0.6,0.5
2023-07-01T11:00:00,1068A,116.7214,39.5589,廊坊市,开发区,臭氧1小时,119,62,53,28,29,278,237,152,150,21,25,16,11,0.9,0.6
2023-07-01T11:00:00,1070A,116.7244,39.5269,廊坊市,北华航天学院,臭氧1小时,117,79,64,33,27,274,233,145,143,13,17,12,9,0.6,0.5
2023-07-01T11:00:00,1071A,116.8842,38.2991,沧州市,沧县城建局,臭氧1小时,114,58,46,15,18,229,228,149,149,20,24,12,11,0.6,0.5
2023-07-01T11:00:00,1072A,116.8584,38.3254,沧州市,电视转播站,臭氧1小时,113,45,45,22,18,238,226,157,157,20,25,6,7,0.4,0.4
2023-07-01T11:00:00,1073A,116.8709,38.3228,沧州市,市环保局,臭氧1小时,105,46,46,7,20,231,210,136,136,27,28,7,6,0.3,0.2
2023-07-01T11:00:00,1074A,115.6838,37.7541,衡水市,电机北厂,臭氧1小时,100,63,38,13,14,229,200,164,156,8,10,7,6,0.4,0.2
2023-07-01T11:00:00,1075A,115.6303,37.7316,衡水市,市监测站,臭氧1小时,88,63,45,30,16,220,190,142,141,13,14,7,7,0.5,0.4
2023-07-01T11:00:00,1077A,114.4704,37.0886,邢台市,达活泉,臭氧1小时,109,82,74,25,22,282,217,115,115,16,25,24,24,1.2,1.5
2023-07-01T11:00:00,1078A,114.5062,37.0349,邢台市,邢师高专,臭氧1小时,110,71,72,31,27,269,220,96,96,22,42,16,11,1.2,0.9
2023-07-01T11:00:00,1079A,114.5237,37.0851,邢台市,路桥公司,臭氧1小时,113,74,62,36,26,283,225,106,106,21,28,15,14,1.1,0.9
2023-07-01T11:00:00,1080A,114.4725,37.0719,邢台市,市环保局,臭氧1小时,110,95,77,37,26,292,220,113,113,22,28,17,18,1.1,1.3
2023-07-01T11:00:00,1081A,112.522,37.8873,太原市,尖草坪,臭氧1小时,95,88,64,38,25,226,196,104,104,30,32,30,8,1.9,0.7
2023-07-01T11:00:00,1083A,112.434,38.0108,太原市,上兰,,,,,,,,,,,,,,,,
2023-07-01T11:00:00,1084A,112.469,37.7124,太原市,晋源,臭氧1小时,83,84,52,40,28,243,186,112,112,31,37,18,19,1.2,0.7
2023-07-01T11:00:00,1085A,112.5583,37.7394,太原市,小店,臭氧1小时,92,80,67,34,28,235,193,60,60,24,61,10,11,0.7,0.8
2023-07-01T11:00:00,1086A,112.5369,37.8692,太原市,桃园,臭氧1小时,85,77,54,40,24,237,188,98,98,32,36,22,9,1.3,0.7
2023-07-01T11:00:00,1087A,112.57,37.8195,太原市,坞城,臭氧1小时,75,90,63,35,28,240,180,88,88,35,49,14,11,1.0,0.8
2023-07-01T11:00:00,1088A,112.549,37.9854,太原市,南寨,颗粒物(PM10),86,121,68,42,28,206,177,51,51,37,39,31,8,2.0,0.7
2023-07-01T11:00:00,1090A,111.6507,40.7517,呼和浩特市,呼市一监,颗粒物(PM10),58,66,67,22,21,171,139,62,62,22,40,14,8,0.6,0.5
2023-07-01T11:00:00,1091A,111.6572,40.8033,呼和浩特市,小召,颗粒物(PM10),82,114,63,34,19,178,131,79,79,32,46,19,12,0.9,0.5
2023-07-01T11:00:00,1094A,111.7516,40.8369,呼和浩特市,如意水处理厂,颗粒物(PM10),58,65,52,22,16,176,146,82,82,26,36,16,11,0.6,0.4
2023-07-01T11:00:00,1095A,111.7276,40.8062,呼和浩特市,二十九中,颗粒物(PM10),59,68,59,23,19,178,150,72,72,25,45,15,10,0.6,0.5
2023-07-01T11:00:00,1096A,111.5512,40.7866,呼和浩特市,工大金川校区,颗粒物(PM10),64,78,65,33,22,180,116,60,60,30,47,24,10,0.9,0.7
2023-07-01T11:00:00,1097A,111.717,40.7612,呼和浩特市,化肥厂生活区,颗粒物(PM10),67,84,71,26,19,164,139,62,62,34,43,15,7,0.5,0.5
2023-07-01T11:00:00,1098A,123.6836,41.9339,沈阳市,森林路,,,,,,,,,,,,,,,,
2023-07-01T11:00:00,1099A,123.505,41.7406,沈阳市,浑南东路,臭氧1小时,54,52,35,27,16,188,163,108,108,16,31,7,11,0.8,1
2023-07-01T11:00:00,1100A,123.4231,41.6989,沈阳市,新秀街,颗粒物(PM10),52,54,40,18,15,174,148,113,113,16,27,5,28,0.6,0.8
2023-07-01T11:00:00,1102A,123.5903,41.8411,沈阳市,东陵路,"颗粒物(PM10),臭氧1小时",53,56,40,27,17,187,162,90,90,17,28,8,11,0.9,1.1
2023-07-01T11:00:00,1103A,123.4264,41.8467,沈阳市,陵东街,,46,35,25,24,13,176,146,118,118,17,17,8,9,0.7,0.7
2023-07-01T11:00:00,1104A,123.4114,41.7653,沈阳市,文化路,颗粒物(PM10),52,54,33,32,18,185,160,123,123,18,18,5,12,0.7,0.8
2023-07-01T11:00:00,1105A,123.4678,41.7867,沈阳市,小河沿,,,68,28,,12,175,151,119,119,23,21,8,11,,0.8
2023-07-01T11:00:00,1106A,123.4017,41.7972,沈阳市,太原街,,50,43,29,34,16,183,159,125,125,25,19,8,11,0.7,0.8
2023-07-01T11:00:00,1108A,123.3783,41.9228,沈阳市,京沈街,,49,35,39,20,16,188,155,122,122,8,16,6,10,0.5,0.6
2023-07-01T11:00:00,1109A,121.612,38.9741,大连市,甘井子,,38,38,40,15,24,144,112,81,81,28,21,5,4,0.5,0.6
2023-07-01T11:00:00,1110A,121.565,38.9511,大连市,周水子,,35,30,27,15,21,133,111,93,81,25,19,6,6,0.6,0.6
2023-07-01T11:00:00,1111A,121.5637,38.8845,大连市,星海三站,,35,24,28,16,23,129,111,80,80,15,18,6,6,0.4,0.5
2023-07-01T11:00:00,1112A,121.6302,38.9117,大连市,青泥洼桥,,43,24,28,15,19,136,136,99,99,8,9,5,5,0.6,0.6
2023-07-01T11:00:00,1113A,121.6251,38.8638,大连市,傅家庄,,34,22,23,16,22,132,106,85,85,16,15,7,7,0.6,0.6
2023-07-01T11:00:00,1114A,121.5213,38.8661,大连市,七贤岭,,43,26,27,15,23,140,137,94,92,13,12,6,5,0.4,0.4
2023-07-01T11:00:00,1115A,121.2529,38.8061,大连市,旅顺,,40,21,21,18,15,133,126,86,86,20,23,4,4,0.4,0.4
2023-07-01T11:00:00,1116A,121.7485,39.1311,大连市,金州,,49,40,30,27,18,154,154,106,102,18,16,10,9,0.7,0.6
2023-07-01T11:00:00,1117A,121.7811,39.0496,大连市,开发区,,,26,27,14,21,164,118,76,76,,19,8,5,0.5,0.5
2023-07-01T11:00:00,1118A,121.9762,39.0631,大连市,双D港,,39,34,30,27,21,178,83,96,61,23,20,7,7,0.4,0.5
2023-07-01T11:00:00,1119A,125.3325,43.9166,长春市,食品厂,,36,24,30,11,14,140,114,95,95,17,26,6,6,0.4,0.4
2023-07-01T11:00:00,1120A,125.2863,43.9027,长春市,客车厂,,39,18,28,10,14,150,123,101,101,12,22,3,3,0.4,0.4
2023-07-01T11:00:00,1121A,125.2841,43.8463,长春市,邮电学院,,37,14,28,8,10,138,117,94,94,7,21,5,5,0.4,0.5
2023-07-01T11:00:00,1122A,125.3716,43.8772,长春市,劳动公园,,38,10,29,7,10,142,119,96,96,8,24,6,6,0.4,0.4
2023-07-01T11:00:00,1123A,125.3297,43.8805,长春市,园林处,,48,48,34,7,10,140,118,96,96,10,25,5,6,0.3,0.4
2023-07-01T11:00:00,1124A,125.4605,43.79,长春市,净月潭,,36,23,19,7,7,139,115,93,93,7,15,3,4,0.3,0.3
2023-07-01T11:00:00,1125A,125.7194,43.515,长春市,甩湾子,,41,41,25,12,8,155,116,95,95,10,28,5,5,0.7,0.8
2023-07-01T11:00:00,1126A,125.3863,43.8447,长春市,经开区环卫处,,37,8,26,5,8,136,116,89,89,9,24,6,6,0.3,0.4
2023-07-01T11:00:00,1127A,125.245,43.7783,长春市,高新区管委会,,37,17,28,9,11,139,117,88,88,6,22,5,5,0.3,0.3
2023-07-01T11:00:00,1128A,125.1761,43.8325,长春市,岱山公园,,37,28,29,6,9,131,116,84,84,10,27,4,4,0.3,0.4
2023-07-01T11:00:00,1129A,126.5422,45.755,哈尔滨市,岭北,,36,20,11,9,5,139,114,115,115,16,15,14,12,0.9,0.6
2023-07-01T11:00:00,1130A,126.561,45.8167,哈尔滨市,松北商大,,32,22,20,10,5,136,102,95,95,19,16,5,5,0.6,0.5
2023-07-01T11:00:00,1131A,126.979,45.5419,哈尔滨市,阿城会宁,,31,12,22,9,9,148,98,97,97,14,17,8,7,0.5,0.4
2023-07-01T11:00:00,1132A,126.599,45.7222,哈尔滨市,南岗学府路,,35,31,31,8,8,131,110,108,108,11,20,5,5,0.6,0.6
2023-07-01T11:00:00,1133A,126.689,45.7733,哈尔滨市,太平宏伟公园,,34,24,32,15,8,137,106,98,98,17,24,6,6,0.5,0.4
2023-07-01T11:00:00,1134A,126.635,45.7667,哈尔滨市,道外承德广场,,36,23,22,16,5,138,115,110,110,24,23,5,5,0.8,0.7
2023-07-01T11:00:00,1135A,126.685,45.7319,哈尔滨市,香坊红旗大街,,35,30,29,18,8,131,111,106,106,19,30,10,9,0.5,0.5
2023-07-01T11:00:00,1136A,126.6411,45.7258,哈尔滨市,动力和平路,,,38,26,,2,132,112,112,112,19,25,10,10,0.6,0.5
2023-07-01T11:00:00,1137A,126.593,45.7478,哈尔滨市,道里建国路,,42,42,24,12,9,128,103,110,110,28,28,7,7,0.5,1.2
2023-07-01T11:00:00,1138A,126.615,45.61,哈尔滨市,平房东轻厂,,32,32,22,10,7,134,97,109,109,10,15,7,7,0.4,0.4
2023-07-01T11:00:00,1139A,126.595,45.9855,哈尔滨市,呼兰师专,,40,16,26,8,4,130,128,113,113,16,21,5,5,0.4,0.4
2023-07-01T11:00:00,1140A,126.6206,45.6842,哈尔滨市,省农科院,,36,27,26,12,6,141,113,113,113,14,33,9,11,0.4,0.4
2023-07-01T11:00:00,1141A,121.4,31.238,上海市,普陀,,29,13,11,12,12,92,92,88,61,15,22,4,4,0.5,0.5
2023-07-01T11:00:00,1142A,121.478,31.2036,上海市,十五厂,,35,35,21,20,14,79,69,73,48,22,26,6,6,0.7,0.6
2023-07-01T11:00:00,1143A,121.467,31.3008,上海市,虹口,,28,28,20,15,11,77,77,73,51,18,21,5,5,0.6,0.6
2023-07-01T11:00:00,1144A,121.412,31.1654,上海市,徐汇上师大,,36,36,20,21,12,90,87,82,57,21,24,6,6,0.9,0.8
2023-07-01T11:00:00,1145A,121.536,31.2659,上海市,杨浦四漂,,29,17,11,20,13,82,73,78,52,11,15,5,5,1.0,0.8
2023-07-01T11:00:00,1147A,121.425,31.2261,上海市,静安监测站,,36,36,21,17,12,77,70,77,55,23,23,4,4,0.6,0.6
2023-07-01T11:00:00,1148A,121.703,31.1907,上海市,浦东川沙,,,38,24,,11,80,64,72,54,21,17,5,5,0.6,0.5
2023-07-01T11:00:00,1149A,121.533,31.2284,上海市,浦东新区监测站,,,37,17,23,12,91,65,91,59,,20,,6,0.6,0.5
2023-07-01T11:00:00,1150A,121.577,31.2071,上海市,浦东张江,,,31,23,20,12,180,56,74,44,20,20,5,5,,0.7
2023-07-01T11:00:00,1151A,118.8086,32.1065,南京市,迈皋桥,,,60,29,46,20,182,182,61,61,,19,,4,0.8,0.9
2023-07-01T11:00:00,1152A,118.7538,32.0551,南京市,草场门,细颗粒物(PM2.5),55,53,28,39,20,131,131,68,68,19,28,7,6,0.9,0.8
2023-07-01T11:00:00,1153A,118.7794,32.0745,南京市,山西路,臭氧1小时,52,44,30,29,18,161,161,80,80,13,23,4,4,0.5,0.6
2023-07-01T11:00:00,1154A,118.7752,32.0023,南京市,中华门,,45,34,24,27,18,142,142,66,66,10,19,4,4,0.9,1
2023-07-01T11:00:00,1155A,118.8109,32.0309,南京市,瑞金路,,,48,32,27,19,104,104,59,59,2,2,4,5,,0.6
2023-07-01T11:00:00,1156A,118.7997,32.0754,南京市,玄武湖,,48,48,28,33,19,143,143,61,61,14,19,7,6,0.6,0.7
2023-07-01T11:00:00,1157A,118.6414,32.0931,南京市,浦口,细颗粒物(PM2.5),62,66,32,44,18,140,140,72,72,18,11,7,3,1.3,0.8
2023-07-01T11:00:00,1158A,118.7356,31.9996,南京市,奥体中心,,,42,29,,21,131,131,61,61,13,24,6,7,0.3,0.4
2023-07-01T11:00:00,1159A,118.9125,32.1028,南京市,仙林大学城,细颗粒物(PM2.5),62,46,30,44,24,158,158,66,66,10,20,8,6,0.8,0.8
2023-07-01T11:00:00,1160A,120.561,31.2472,苏州市,上方山,,16,15,19,8,6,69,50,34,34,10,13,5,5,0.5,0.4
2023-07-01T11:00:00,1162A,120.591,31.3019,苏州市,彩香,,28,16,19,10,12,98,88,47,47,4,12,5,6,0.7,0.7
2023-07-01T11:00:00,1163A,120.596,31.3264,苏州市,轧钢厂,,,,,,,,,,,,,,,,
2023-07-01T11:00:00,1164A,120.613,31.2703,苏州市,吴中区,,31,12,19,11,14,108,97,56,56,8,15,8,8,0.8,0.8
2023-07-01T11:00:00,1165A,120.543,31.2994,苏州市,苏州新区,,29,14,17,9,13,105,92,55,55,5,12,6,6,0.8,0.7
2023-07-01T11:00:00,1166A,120.669,31.3097,苏州市,苏州工业园区,,28,24,18,19,13,94,77,55,49,18,16,8,8,0.8,0.7
2023-07-01T11:00:00,1167A,120.641,31.3708,苏州市,相城区,,,29,14,27,13,97,92,47,40,9,15,,7,0.8,0.7
2023-07-01T11:00:00,1168A,120.9098,31.9663,南通市,狼山街道,,35,30,17,24,11,84,70,32,32,28,30,10,8,1.3,1.1
2023-07-01T11:00:00,1169A,120.86,32.0005,南通市,虹桥,,38,27,17,26,15,111,111,45,45,8,28,8,8,0.9,0.9
2023-07-01T11:00:00,1170A,120.87,32.02,南通市,城中,,40,30,19,28,17,109,109,44,44,2,20,8,8,0.8,0.7
2023-07-01T11:00:00,1171A,120.94,31.93,南通市,星湖花园,,32,26,12,22,7,82,75,42,42,35,33,8,5,1.3,0.8
2023-07-01T11:00:00,1172A,120.81,32.0417,南通市,紫琅学院,,35,19,22,17,10,112,112,43,43,9,36,4,5,0.8,0.8
2023-07-01T11:00:00,1173A,119.176,34.5885,连云港市,市环境监测站,,40,34,31,22,14,187,128,86,86,11,14,6,6,0.3,0.4
2023-07-01T11:00:00,1177A,117.179,34.2761,徐州市,黄河新村,细颗粒物(PM2.5),53,44,49,37,42,184,156,109,97,8,12,6,7,0.6,0.6
2023-07-01T11:00:00,1178A,117.1918,34.2384,徐州市,淮塔,臭氧1小时,60,55,57,29,37,215,168,108,89,9,15,10,11,0.6,0.6
2023-07-01T11:00:00,1180A,117.256,34.2153,徐州市,新城区,颗粒物(PM10),55,59,66,35,38,217,160,98,92,5,13,6,7,0.6,0.6
2023-07-01T11:00:00,1181A,117.244,34.2911,徐州市,桃园路,细颗粒物(PM2.5),57,51,59,40,42,193,157,109,85,5,14,8,9,0.5,0.5
2023-07-01T11:00:00,1182A,117.2933,34.2778,徐州市,农科院,细颗粒物(PM2.5),53,48,54,37,38,197,160,108,76,7,26,6,7,0.6,0.6
2023-07-01T11:00:00,1186A,119.389,32.3761,扬州市,邗江监测站,细颗粒物(PM2.5),57,44,34,40,25,127,127,63,63,12,19,3,3,0.8,0.8
2023-07-01T11:00:00,1188A,120.269,31.4867,无锡市,雪浪,,33,12,9,7,6,110,104,70,61,2,5,4,3,0.6,0.5
2023-07-01T11:00:00,1189A,120.275,31.6219,无锡市,黄巷,,35,35,18,24,11,102,101,48,42,21,34,5,5,1.0,1
2023-07-01T11:00:00,1190A,120.294,31.56,无锡市,曹张,,29,19,13,17,12,92,92,45,44,5,18,3,2,0.5,0.5
2023-07-01T11:00:00,1191A,120.242,31.5031,无锡市,漆塘,,33,9,8,17,8,112,104,74,60,4,10,5,4,0.4,0.4
2023-07-01T11:00:00,1192A,120.3489,31.5863,无锡市,东亭,,35,34,16,24,12,107,94,46,46,22,30,9,9,0.9,0.9
2023-07-01T11:00:00,1193A,120.354,31.5475,无锡市,旺庄,,34,7,9,7,8,108,107,50,50,10,23,6,6,0.6,0.6
2023-07-01T11:00:00,1194A,120.245,31.5631,无锡市,荣巷,,33,17,14,12,10,104,104,62,54,6,14,8,7,0.4,0.4
2023-07-01T11:00:00,1195A,120.299,31.6817,无锡市,堰桥,,29,29,14,19,12,89,89,44,44,22,32,7,6,1.2,1
2023-07-01T11:00:00,1196A,119.9633,31.762,常州市,市监测站,,33,19,21,16,13,103,103,61,61,12,17,6,6,0.6,0.6
2023-07-01T11:00:00,1200A,119.9468,31.7069,常州市,武进监测站,,33,31,23,18,11,105,105,68,53,10,13,10,10,0.7,0.7
2023-07-01T11:00:00,1201A,119.9255,31.9087,常州市,安家,,40,31,26,26,17,125,125,58,58,9,21,6,5,0.7,0.7
2023-07-01T11:00:00,1203A,119.6707,32.1875,镇江市,新区办事处,,50,47,33,35,26,106,100,59,41,34,24,2,2,0.7,0.6
2023-07-01T11:00:00,1204A,119.4974,32.1968,镇江市,职教中心,,44,43,25,30,18,138,138,69,69,10,13,2,2,0.7,0.7
2023-07-01T11:00:00,1205A,119.4303,32.1328,镇江市,丹徒区监测站,,50,41,25,35,24,154,154,70,70,8,12,1,2,0.8,0.7
2023-07-01T11:00:00,1206A,119.905,32.4878,泰州市,公园路,细颗粒物(PM2.5),55,46,29,39,29,100,100,48,48,10,17,8,8,0.9,0.9
2023-07-01T11:00:00,1207A,119.9189,32.4625,泰州市,莲花,细颗粒物(PM2.5),67,46,35,48,31,102,102,57,57,8,18,10,8,0.6,0.6
2023-07-01T11:00:00,1209A,119.888,32.4639,泰州市,留学生创业园,,46,44,35,32,26,108,108,49,49,7,20,8,8,0.8,0.9
2023-07-01T11:00:00,1210A,119.036,33.5981,淮安市,钵池山,,34,22,26,16,19,148,107,62,62,8,11,7,7,0.7,0.7
2023-07-01T11:00:00,1211A,119.007,33.575,淮安市,北京南路,,31,31,33,20,22,135,99,56,56,12,15,8,8,0.8,0.8
2023-07-01T11:00:00,1212A,118.989,33.6067,淮安市,市监测站,,39,39,33,22,20,158,109,69,60,7,10,7,7,0.5,0.6
2023-07-01T11:00:00,1213A,119.135,33.5039,淮安市,楚州区监测站,,34,32,28,15,16,149,108,69,69,8,11,5,5,0.6,0.7
2023-07-01T11:00:00,1214A,119.0186,33.6297,淮安市,淮阴区监测站,,34,34,31,14,16,151,101,64,62,13,13,6,6,0.4,0.5
2023-07-01T11:00:00,1215A,120.118,33.4022,盐城市,盐城电厂,,32,22,22,12,11,123,101,80,80,4,5,3,4,0.3,0.3
2023-07-01T11:00:00,1216A,120.156,33.3942,盐城市,市监测站,,31,17,18,10,12,120,98,76,76,5,6,8,8,0.4,0.3
2023-07-01T11:00:00,1218A,120.2144,33.38,盐城市,开发区管委会,,31,22,17,9,12,122,99,79,79,5,6,6,6,0.3,0.3
2023-07-01T11:00:00,1220A,118.293,33.9528,宿迁市,宿迁学院,,40,35,33,28,36,187,116,75,61,7,15,6,6,0.5,0.6
2023-07-01T11:00:00,1221A,118.2442,33.9592,宿迁市,宿迁中学,,45,36,37,25,28,202,142,96,76,7,12,5,5,0.4,0.5
2023-07-01T11:00:00,1223A,120.2072,30.2111,杭州市,滨江,,25,22,25,13,17,135,79,50,40,14,18,6,7,0.7,0.7
2023-07-01T11:00:00,1224A,120.0633,30.2747,杭州市,西溪,,27,27,29,15,15,97,59,42,29,15,18,6,6,0.5,0.5
2023-07-01T11:00:00,1226A,120.3461,30.3153,杭州市,下沙,,24,21,26,11,12,102,76,41,32,10,25,3,3,0.4,0.4
2023-07-01T11:00:00,1227A,120.1269,30.2456,杭州市,卧龙桥,,22,21,25,12,17,100,69,33,31,10,15,5,6,0.6,0.6
2023-07-01T11:00:00,1228A,120.1903,30.2692,杭州市,浙江农大,,25,16,23,12,15,104,78,47,38,7,18,6,6,0.4,0.4
2023-07-01T11:00:00,1230A,120.1197,30.3119,杭州市,和睦小学,,29,21,27,20,18,90,68,44,37,9,17,6,6,0.6,0.6
2023-07-01T11:00:00,1231A,120.3019,30.4183,杭州市,临平镇,,26,22,25,14,13,100,81,49,40,13,15,4,4,0.5,0.5
2023-07-01T11:00:00,1232A,120.2697,30.1819,杭州市,城厢镇,,26,20,29,14,21,127,81,48,36,14,22,6,6,0.6,0.6
2023-07-01T11:00:00,1233A,120.0883,30.1808,杭州市,云栖,,25,19,30,9,14,106,80,29,29,9,16,4,4,0.4,0.5
2023-07-01T11:00:00,1234A,121.8358,29.911,宁波市,区环保大楼,,22,22,21,12,12,89,56,34,34,23,42,5,6,0.6,0.7
2023-07-01T11:00:00,1235A,121.56,29.82,宁波市,万里学院,,42,35,26,29,16,119,60,51,36,18,20,4,3,0.6,0.6
2023-07-01T11:00:00,1236A,121.713,29.9572,宁波市,龙赛医院,颗粒物(PM10),54,57,32,9,12,162,61,48,38,18,28,6,7,0.5,0.6
2023-07-01T11:00:00,1239A,121.633,29.7733,宁波市,钱湖水厂,,35,17,13,24,10,145,66,45,43,13,9,5,5,0.7,0.6
2023-07-01T11:00:00,1240A,121.5856,29.8635,宁波市,太古小学,,27,19,18,14,10,142,84,67,56,16,16,4,4,0.7,0.6
2023-07-01T11:00:00,1241A,121.524,29.8674,宁波市,市环境监测中心,,37,37,20,15,8,118,54,52,34,19,16,4,4,0.5,0.4
2023-07-01T11:00:00,1242A,120.634,28.0089,温州市,瓯海,,49,49,29,24,18,117,107,39,39,20,20,8,8,0.5,0.4
2023-07-01T11:00:00,1243A,120.6748,27.9939,温州市,南浦,,40,40,34,23,15,130,113,42,42,9,11,5,5,0.4,0.3
2023-07-01T11:00:00,1244A,120.76,27.9747,温州市,龙湾,,44,44,37,17,14,112,100,36,36,15,18,8,7,0.4,0.4
2023-07-01T11:00:00,1245A,120.6709,28.0167,温州市,市站,颗粒物(PM10),58,66,48,28,18,112,83,28,28,32,27,4,4,0.5,0.5
2023-07-01T11:00:00,1247A,120.6053,29.9928,绍兴市,城东开发委,,26,20,25,16,17,107,81,34,34,8,18,4,4,0.5,0.5
2023-07-01T11:00:00,1250A,120.0751,30.8669,湖州市,城西水厂,,28,21,15,7,8,89,89,38,38,15,27,5,4,0.6,0.6
2023-07-01T11:00:00,1252A,120.7436,30.778,嘉兴市,清河小学,,31,31,22,15,7,79,78,59,42,15,17,6,6,0.9,0.7
2023-07-01T11:00:00,1253A,120.726,30.7478,嘉兴市,嘉兴学院,,30,20,17,19,12,94,94,69,48,11,15,2,2,0.6,0.4
2023-07-01T11:00:00,1255A,121.273,28.6459,台州市,黄岩环保大楼,,38,38,27,23,14,113,85,45,45,8,7,5,5,0.5,0.4
2023-07-01T11:00:00,1256A,121.419,28.6542,台州市,台州环保大楼,,38,38,34,22,12,116,101,45,45,11,10,5,4,0.4,0.4
2023-07-01T11:00:00,1257A,121.377,28.5773,台州市,路桥田洋王,,35,17,20,24,16,122,82,43,43,12,11,5,4,0.5,0.4
2023-07-01T11:00:00,1258A,122.122,30.0203,舟山市,定海檀枫,,,,16,,8,78,28,46,44,14,11,,5,0.5,0.4
2023-07-01T11:00:00,1259A,122.3094,29.9558,舟山市,普陀东港,,32,32,21,19,9,76,25,50,44,12,13,4,4,0.3,0.3
2023-07-01T11:00:00,1260A,122.19,29.9944,舟山市,临城新区,,21,21,15,5,7,82,28,47,44,13,13,5,2,0.4,0.4
2023-07-01T11:00:00,1262A,119.647,29.077,金华市,十五中,颗粒物(PM10),56,61,49,37,25,126,126,41,41,27,25,4,4,0.5,0.5
2023-07-01T11:00:00,1263A,119.686,29.1029,金华市,监测站,颗粒物(PM10),54,57,40,34,26,121,116,33,33,23,25,7,6,0.6,0.5
2023-07-01T11:00:00,1264A,118.8692,28.9398,衢州市,环保大楼,,,,48,,27,73,5,18,6,,29,7,7,0.4,0.2
2023-07-01T11:00:00,1265A,118.8709,28.9666,衢州市,实验学校,颗粒物(PM10),66,81,48,8,10,73,4,17,5,32,25,12,6,0.6,0.3
2023-07-01T11:00:00,1266A,118.8621,28.9808,衢州市,衢州学院,细颗粒物(PM2.5),65,70,44,47,25,77,5,11,6,30,23,3,3,0.8,0.5
2023-07-01T11:00:00,1267A,119.914,28.4514,丽水市,监测站大楼,,37,37,31,4,19,70,70,23,23,11,20,5,5,0.4,0.4
2023-07-01T11:00:00,1268A,119.93,28.4586,丽水市,莲都小学,,,36,30,,9,78,78,25,25,10,18,5,5,0.4,0.4
2023-07-01T11:00:00,1269A,119.879,28.4231,丽水市,余庄前,,19,15,26,10,19,61,59,18,18,8,14,4,4,0.4,0.4
2023-07-01T11:00:00,1270A,117.1959,31.7848,合肥市,明珠广场,,45,44,26,31,17,127,127,63,63,11,24,5,5,0.7,0.6
2023-07-01T11:00:00,1271A,117.3072,31.8764,合肥市,三里街,颗粒物(PM10),51,51,38,31,25,123,123,48,48,17,35,4,4,0.6,0.6
2023-07-01T11:00:00,1272A,117.2588,31.8707,合肥市,琥珀山庄,颗粒物(PM10),51,51,34,31,23,146,146,69,69,12,20,4,4,0.6,0.6
2023-07-01T11:00:00,1273A,117.1604,31.9052,合肥市,董铺水库,,49,46,21,34,14,138,136,64,64,15,13,2,2,0.5,0.3
2023-07-01T11:00:00,1274A,117.25,31.8571,合肥市,长江中路,细颗粒物(PM2.5),64,53,38,46,28,141,141,69,69,11,20,9,9,0.7,0.6
2023-07-01T11:00:00,1275A,117.266,31.9436,合肥市,庐阳区,,49,48,35,34,25,139,139,64,60,15,21,3,3,0.6,0.5
2023-07-01T11:00:00,1276A,117.336,31.8586,合肥市,瑶海区,,46,46,40,31,20,120,120,47,47,12,33,8,7,0.9,0.8
2023-07-01T11:00:00,1277A,117.3027,31.7964,合肥市,包河区,细颗粒物(PM2.5),58,51,30,41,23,120,120,54,54,4,30,6,6,0.5,0.5
2023-07-01T11:00:00,1278A,117.2776,31.7385,合肥市,滨湖新区,,36,36,25,19,13,115,115,55,55,4,27,9,7,0.7,0.7
2023-07-01T11:00:00,1279A,117.1318,31.8403,合肥市,高新区,,46,46,24,30,17,136,131,70,70,15,16,7,8,0.6,0.5
2023-07-01T11:00:00,1280A,119.3903,26.0543,福州市,鼓山,,,,,,,,,,,,,,,,
2023-07-01T11:00:00,1282A,119.2681,26.0504,福州市,师大,,18,17,23,3,7,74,57,32,32,2,5,4,5,0.4,0.4
2023-07-01T11:00:00,1283A,119.2984,26.1028,福州市,五四北路,,23,23,22,4,7,74,57,34,34,7,10,3,3,0.3,0.2
2023-07-01T11:00:00,1284A,119.2648,26.0768,福州市,杨桥西路,,18,18,25,4,9,70,56,27,24,6,10,3,3,0.3,0.3
2023-07-01T11:00:00,1285A,119.317,26.0746,福州市,紫阳,,22,22,23,3,7,85,52,30,30,6,9,1,2,0.2,0.2
2023-07-01T11:00:00,1286A,118.1608,24.8169,厦门市,溪东,,,,,,,,,,,,,,,,
2023-07-01T11:00:00,1287A,118.1514,24.4767,厦门市,洪文,,11,8,11,3,6,55,34,29,27,3,3,3,3,0.2,0.2
2023-07-01T11:00:00,1288A,118.0661,24.4444,厦门市,鼓浪屿,,,7,11,3,6,39,32,23,23,,3,1,2,,0.2
2023-07-01T11:00:00,1290A,115.8931,28.6843,南昌市,省外办,,45,40,27,31,21,114,104,39,38,15,20,12,7,0.4,0.4
2023-07-01T11:00:00,1291A,115.8886,28.7003,南昌市,省林业公司,,39,39,24,27,18,110,105,34,34,17,28,10,7,0.5,0.4
2023-07-01T11:00:00,1292A,115.8126,28.7442,南昌市,林科所,,44,44,24,24,12,95,90,39,39,16,26,6,6,0.5,0.5
2023-07-01T11:00:00,1294A,115.8518,28.687,南昌市,建工学校,,36,36,29,25,16,104,98,34,34,9,23,1,2,0.6,0.6
2023-07-01T11:00:00,1295A,115.8921,28.6424,南昌市,象湖,,36,28,21,25,18,111,100,39,39,13,22,4,5,0.5,0.6
2023-07-01T11:00:00,1296A,115.7423,28.7996,南昌市,武术学校,,46,18,17,32,18,82,82,31,31,5,2,17,12,0.3,0.3
2023-07-01T11:00:00,1298A,115.9314,28.6842,南昌市,省站,,42,41,31,29,20,114,107,54,54,9,16,11,8,0.6,0.6
2023-07-01T11:00:00,1299A,116.9862,36.6114,济南市,科干所,臭氧1小时,104,51,39,29,18,249,207,177,177,16,21,8,7,0.6,0.5
2023-07-01T11:00:00,1300A,116.9376,36.665,济南市,农科所,臭氧1小时,93,42,31,27,13,258,194,154,146,15,23,4,4,0.4,0.3
2023-07-01T11:00:00,1301A,117.1265,36.6734,济南市,开发区,臭氧1小时,83,32,35,10,11,233,186,172,172,8,21,6,6,0.5,0.5
2023-07-01T11:00:00,1303A,117.0624,36.6868,济南市,省种子仓库,臭氧1小时,101,41,38,24,14,258,202,169,169,8,16,5,6,0.6,0.5
2023-07-01T11:00:00,1304A,116.9489,36.6447,济南市,机床二厂,臭氧1小时,101,44,44,22,14,256,202,162,158,10,20,6,6,0.6,0.6
2023-07-01T11:00:00,1305A,117.0495,36.663,济南市,市监测站,臭氧1小时,107,42,37,22,18,276,213,189,189,12,20,7,7,0.5,0.4
2023-07-01T11:00:00,1306A,116.7675,36.5484,济南市,长清党校,臭氧1小时,101,46,42,32,22,276,202,186,171,11,18,7,8,0.5,0.5
2023-07-01T11:00:00,1307A,120.6659,36.2403,青岛市,仰口,,36,36,21,14,14,101,94,71,71,6,8,5,4,0.3,0.4
2023-07-01T11:00:00,1310A,120.4134,36.0658,青岛市,市南区东部子站,,34,17,19,12,10,141,108,92,92,6,14,5,6,0.4,0.4
2023-07-01T11:00:00,1311A,120.3664,36.1032,青岛市,四方区子站,,39,36,19,14,13,155,123,99,95,16,17,4,3,0.6,0.6
2023-07-01T11:00:00,1312A,120.2994,36.054,青岛市,市南区西部子站,,34,19,19,15,12,142,106,95,95,23,21,7,6,0.6,0.5
2023-07-01T11:00:00,1313A,120.4581,36.0858,青岛市,崂山区子站,,37,12,16,14,12,135,117,87,87,12,15,8,8,0.3,0.3
2023-07-01T11:00:00,1314A,120.1983,35.9608,青岛市,黄岛区子站,,39,22,19,20,15,154,124,120,93,10,14,5,5,0.5,0.5
2023-07-01T11:00:00,1315A,120.3999,36.3083,青岛市,城阳区子站,臭氧1小时,90,44,23,15,11,192,192,97,97,20,17,5,5,0.5,0.4
2023-07-01T11:00:00,1316A,113.69031,34.76122,郑州市,烟厂,臭氧1小时,108,65,54,21,20,273,215,134,121,14,28,5,5,0.4,0.4
2023-07-01T11:00:00,1317A,113.65724,34.77134,郑州市,郑纺机,臭氧1小时,103,48,54,,15,258,205,129,123,11,24,5,5,0.4,0.5
2023-07-01T11:00:00,1318A,113.67526,34.80246,郑州市,银行学校,臭氧1小时,106,41,45,17,21,274,212,148,133,9,22,3,3,0.6,0.6
2023-07-01T11:00:00,1319A,113.56746,34.81334,郑州市,供水公司,臭氧1小时,85,46,48,21,18,238,188,125,125,15,25,7,7,0.7,0.8
2023-07-01T11:00:00,1320A,113.7329,34.7178,郑州市,经开区管委,臭氧1小时,88,43,53,23,23,245,190,107,92,10,24,1,2,0.9,0.9
2023-07-01T11:00:00,1321A,113.73961,34.77172,郑州市,四十七中,,,,51,,21,276,213,123,110,13,27,9,8,,0.4
2023-07-01T11:00:00,1322A,113.60532,34.74838,郑州市,市监测站,,,50,55,19,20,248,,,,13,25,6,6,0.8,0.8
2023-07-01T11:00:00,1323A,113.64164,34.7525,郑州市,河医大,臭氧1小时,100,42,54,18,17,248,200,128,122,6,21,8,8,0.4,0.5
2023-07-01T11:00:00,1324A,113.51488,34.91089,郑州市,岗李水库,臭氧1小时,108,36,38,20,15,239,216,95,95,11,22,6,5,0.4,0.5
2023-07-01T11:00:00,1325A,114.3677,30.5584,武汉市,东湖梨园,,29,29,30,15,16,120,59,56,48,15,16,4,4,0.9,0.6
2023-07-01T11:00:00,1326A,114.2529,30.558,武汉市,汉阳月湖,,36,36,32,14,12,110,55,60,36,23,24,8,8,0.9,0.6
2023-07-01T11:00:00,1327A,114.282,30.6189,武汉市,汉口花桥,,44,44,37,20,17,131,67,59,39,27,27,7,8,0.9,0.6
2023-07-01T11:00:00,1328A,114.3025,30.5332,武汉市,武昌紫阳,,29,29,30,14,13,120,59,82,46,17,21,4,4,0.9,0.6
2023-07-01T11:00:00,1329A,114.3646,30.6217,武汉市,青山钢花,,40,40,36,24,21,140,77,54,52,14,22,7,7,1.0,0.7
2023-07-01T11:00:00,1330A,114.1566,30.4825,武汉市,沌口新区,,46,46,29,10,11,99,65,53,49,16,21,5,5,0.8,0.5
2023-07-01T11:00:00,1331A,114.3014,30.5944,武汉市,汉口江滩,,38,29,25,26,17,114,74,46,40,20,33,5,5,0.9,0.6
2023-07-01T11:00:00,1333A,114.135,30.6319,武汉市,吴家山,,,,,,,,,,,,,,,,
2023-07-01T11:00:00,1334A,113.8454,30.2917,武汉市,沉湖七壕,,31,31,20,12,7,101,66,47,47,6,14,7,7,0.7,0.6
2023-07-01T11:00:00,1335A,113.0833,28.2325,长沙市,经开区环保局,,39,39,32,20,18,106,83,38,30,10,16,2,3,0.7,0.9
2023-07-01T11:00:00,1336A,112.8872,28.2189,长沙市,高开区环保局,,34,34,26,22,20,99,99,52,52,10,10,5,5,0.9,0.7
2023-07-01T11:00:00,1337A,113.0792,28.2053,长沙市,马坡岭,颗粒物(PM10),55,60,39,30,24,110,88,51,35,6,13,4,4,0.5,0.4
2023-07-01T11:00:00,1338A,112.9394,28.19,长沙市,湖南师范大学,,35,26,13,24,17,123,98,48,48,12,9,2,2,0.7,0.6
2023-07-01T11:00:00,1339A,113.0178,28.1322,长沙市,雨花区环保局,,33,6,13,21,16,103,103,34,34,10,21,4,4,0.6,0.5
2023-07-01T11:00:00,1340A,112.9792,28.2597,长沙市,伍家岭,颗粒物(PM10),51,51,35,22,25,114,97,39,39,13,14,3,3,0.5,0.4
2023-07-01T11:00:00,1341A,113.0014,28.1944,长沙市,火车新站,,35,23,18,24,13,97,88,40,40,14,12,4,4,0.8,0.7
2023-07-01T11:00:00,1342A,112.9844,28.1178,长沙市,天心区环保局,,36,28,27,22,17,114,114,37,37,11,18,4,2,0.5,0.6
2023-07-01T11:00:00,1343A,112.8908,28.1308,长沙市,湖南中医药大学,,45,39,28,31,18,127,127,43,43,2,4,3,1,1.0,0.8
2023-07-01T11:00:00,1344A,112.9581,28.3611,长沙市,沙坪,,35,22,38,24,15,89,89,32,32,14,9,6,6,0.7,0.7
2023-07-01T11:00:00,1345A,113.2347,23.1423,广州市,广雅中学,,20,20,22,9,14,147,52,27,27,14,19,3,3,0.7,0.7
2023-07-01T11:00:00,1346A,113.2612,23.105,广州市,市五中,,19,14,24,4,14,152,59,29,29,7,14,5,4,0.6,0.6
2023-07-01T11:00:00,1348A,113.3478,23.0916,广州市,广东商学院,,27,27,21,13,12,130,60,24,24,13,17,4,4,0.6,0.6
2023-07-01T11:00:00,1349A,113.4332,23.1047,广州市,市八十六中,,24,24,26,10,11,117,51,18,18,11,19,2,3,0.7,0.7
2023-07-01T11:00:00,1350A,113.3505,22.9483,广州市,番禺中学,,21,14,19,10,11,124,65,31,31,11,16,5,6,0.5,0.5
2023-07-01T11:00:00,1351A,113.2146,23.3916,广州市,花都师范,,21,21,25,9,15,164,60,26,26,12,17,8,7,0.5,0.5
2023-07-01T11:00:00,1352A,113.2597,23.1331,广州市,市监测站,,19,19,23,8,14,153,56,30,30,13,19,5,6,0.6,0.7
2023-07-01T11:00:00,1353A,113.5618,23.312,广州市,九龙镇镇龙,,,24,32,11,17,161,34,15,10,20,26,,5,0.6,0.7
2023-07-01T11:00:00,1354A,113.2765,23.1544,广州市,麓湖,,18,14,21,7,11,145,57,29,29,10,16,5,6,0.5,0.5
2023-07-01T11:00:00,1355A,113.443,23.3035,广州市,帽峰山森林公园,,20,12,22,6,12,171,61,23,23,9,19,6,7,0.3,0.3
2023-07-01T11:00:00,1356A,114.1063,22.5545,深圳市,通心岭子站,,11,8,14,5,8,51,35,23,23,4,12,3,4,0.5,0.5
2023-07-01T11:00:00,1357A,114.117,22.5625,深圳市,洪湖,,12,8,15,4,9,59,36,24,24,8,15,5,5,0.6,0.6
2023-07-01T11:00:00,1358A,113.987,22.5417,深圳市,华侨城,,10,10,12,0,10,45,23,21,17,11,12,6,6,0.9,0.8
2023-07-01T11:00:00,1359A,113.9181,22.5171,深圳市,南海子站,,14,14,18,7,9,48,25,25,17,21,17,4,4,0.9,0.8
2023-07-01T11:00:00,1360A,114.2458,22.5689,深圳市,盐田,,12,12,15,8,12,46,34,15,12,5,17,4,4,0.5,0.5
2023-07-01T11:00:00,1361A,114.2283,22.7244,深圳市,龙岗,,22,22,19,8,9,81,32,15,15,16,19,5,5,0.9,0.9
2023-07-01T11:00:00,1363A,114.494,22.5422,深圳市,南澳,,11,9,12,3,6,52,35,30,24,6,8,1,2,0.4,0.4
2023-07-01T11:00:00,1364A,114.41,22.6342,深圳市,葵涌,,10,10,15,6,8,52,31,26,16,5,10,4,4,0.5,0.5
2023-07-01T11:00:00,1365A,114.297,22.5978,深圳市,梅沙,,12,12,19,3,31,58,24,16,16,10,7,4,4,0.7,0.7
2023-07-01T11:00:00,1366A,114.0678,22.738,深圳市,观澜,,13,13,21,7,13,81,33,18,18,14,20,6,6,0.5,0.5
2023-07-01T11:00:00,1367A,113.5814,22.2618,珠海市,吉大,,13,10,15,8,8,58,41,29,26,10,9,3,3,0.5,0.4
2023-07-01T11:00:00,1368A,113.4881,22.2335,珠海市,前山,,14,9,11,7,6,58,42,34,28,14,7,6,5,0.3,0.2
2023-07-01T11:00:00,1369A,113.628,22.4251,珠海市,唐家,,12,10,14,2,8,64,36,36,27,2,4,7,7,0.1,0.1
2023-07-01T11:00:00,1370A,113.299,22.2281,珠海市,斗门,,13,12,9,5,9,56,39,28,27,12,6,4,4,0.6,0.5
2023-07-01T11:00:00,1371A,113.1294,23.0067,佛山市,湾梁,,24,17,18,8,12,129,74,34,34,4,8,5,5,0.2,0.3
2023-07-01T11:00:00,1372A,113.1083,23.0478,佛山市,华材职中,,23,17,15,5,8,132,72,37,37,10,11,7,7,0.5,0.5
2023-07-01T11:00:00,1373A,113.144,23.0453,佛山市,南海气象局,,18,18,23,8,13,104,56,26,26,9,15,5,5,0.4,0.5
2023-07-01T11:00:00,1374A,113.2881,22.8094,佛山市,顺德苏岗,,25,25,12,9,8,81,45,19,19,12,10,6,6,0.7,0.7
2023-07-01T11:00:00,1376A,112.8383,22.8678,佛山市,高明孔堂,,20,20,16,7,9,87,49,31,30,5,6,4,5,0.5,0.4
2023-07-01T11:00:00,1377A,112.8836,23.1588,佛山市,三水监测站,,17,12,18,10,17,119,53,17,17,10,19,4,4,0.6,0.6
2023-07-01T11:00:00,1378A,112.867,23.185,佛山市,三水云东海,,30,30,21,11,12,115,53,25,25,10,14,7,6,0.4,0.4
2023-07-01T11:00:00,1379A,113.3769,22.5211,中山市,华柏园,,10,3,14,6,9,83,30,30,27,10,8,6,6,0.4,0.3
2023-07-01T11:00:00,1380A,113.3881,22.5497,中山市,张溪,,23,16,20,16,11,91,39,33,30,8,6,4,5,0.5,0.4
2023-07-01T11:00:00,1381A,113.4075,22.5111,中山市,紫马岭,,,,21,3,8,76,38,31,26,3,4,4,5,0.3,0.3
2023-07-01T11:00:00,1382A,113.4411,22.4853,中山市,长江旅游区,,,,13,4,6,122,49,31,30,2,4,9,9,0.3,0.3
2023-07-01T11:00:00,1383A,113.1064,22.6058,江门市,北街,,18,18,16,9,8,69,47,26,26,11,8,4,4,0.5,0.4
2023-07-01T11:00:00,1384A,113.0731,22.5835,江门市,西区,,17,17,16,8,9,78,49,27,27,10,8,5,5,0.4,0.3
2023-07-01T11:00:00,1385A,113.0219,22.5311,江门市,圭峰西,,23,23,18,7,9,76,47,29,29,3,6,3,3,0.5,0.5
2023-07-01T11:00:00,1386A,113.0828,22.5947,江门市,东湖,,16,16,15,3,9,77,49,27,27,9,8,4,4,0.4,0.4
2023-07-01T11:00:00,1389A,113.7547,23.0494,东莞市,莞城梨川,,18,18,24,6,9,160,36,30,30,14,16,9,9,0.7,0.7
2023-07-01T11:00:00,1390A,113.7944,23.0128,东莞市,东城石井,,12,12,20,6,11,180,29,26,26,11,16,7,7,0.6,0.5
2023-07-01T11:00:00,1391A,113.7383,22.9658,东莞市,南城西平,,17,17,20,8,11,151,35,27,24,24,24,8,9,0.5,0.6
2023-07-01T11:00:00,1392A,114.4183,23.0528,惠州市,河南岸金山湖子站,,18,18,25,10,11,74,43,20,20,12,14,3,3,0.5,0.5
2023-07-01T11:00:00,1393A,114.4053,23.0822,惠州市,下埔横江三路子站,,22,22,20,11,10,84,40,22,22,14,13,4,4,0.6,0.6
2023-07-01T11:00:00,1394A,114.4103,23.1142,惠州市,江北云山西路子站,,,,24,,10,103,42,23,20,,10,,4,0.4,0.4
2023-07-01T11:00:00,1395A,114.4645,22.7833,惠州市,惠阳区承修路船湖子站,,22,22,18,12,11,97,46,32,30,10,13,4,4,0.5,0.8
2023-07-01T11:00:00,1396A,114.5317,22.7422,惠州市,大亚湾管委会子站,,38,38,20,11,11,86,41,37,17,10,16,1,2,0.5,0.5
2023-07-01T11:00:00,1397A,112.4267,23.0706,肇庆市,睦岗子站,,26,26,18,10,11,100,47,28,20,8,11,11,12,0.5,0.5
2023-07-01T11:00:00,1398A,112.4645,23.0475,肇庆市,城中子站,,16,16,18,8,11,93,39,27,22,12,15,11,12,0.4,0.4
2023-07-01T11:00:00,1399A,112.5544,23.1522,肇庆市,坑口子站,,,,20,4,13,100,42,24,18,13,15,,11,0.3,0.3
2023-07-01T11:00:00,1400A,112.4753,23.1,肇庆市,七星岩子站,,,,,,,,,,,,,,,,
2023-07-01T11:00:00,1401A,108.3103,22.7881,南宁市,二十一中,,29,18,28,14,13,90,90,61,61,5,6,4,4,0.7,0.7
2023-07-01T11:00:00,1402A,108.3141,22.8528,南宁市,北湖,,28,4,28,13,16,95,88,59,59,6,7,6,6,0.7,0.7
2023-07-01T11:00:00,1403A,108.3206,22.8225,南宁市,市监测站,,30,30,26,15,16,89,89,60,60,12,11,6,6,0.6,0.6
2023-07-01T11:00:00,1404A,108.3829,22.8037,南宁市,大自然花园,,25,16,24,13,13,78,77,53,53,6,7,5,5,0.6,0.7
2023-07-01T11:00:00,1405A,108.4394,22.7904,南宁市,仙葫,,24,20,24,16,13,87,74,56,56,7,9,5,5,0.7,0.8
2023-07-01T11:00:00,1406A,108.2397,22.8467,南宁市,区农职院,,28,19,30,13,17,96,87,59,59,11,13,6,6,0.7,0.8
2023-07-01T11:00:00,1407A,108.3275,22.735,南宁市,英华嘉园,,23,22,42,10,15,72,72,48,48,10,13,5,5,0.6,0.7
2023-07-01T11:00:00,1408A,108.2257,22.7757,南宁市,沙井镇街道办,,25,19,30,11,17,84,77,49,49,9,14,5,5,0.7,0.7
2023-07-01T11:00:00,1409A,110.576,19.9507,海口市,东寨港,,,,,,,,,,,,,,,,
2023-07-01T11:00:00,1410A,110.3232,20.0574,海口市,海南大学,,25,25,20,11,12,88,73,46,46,6,8,5,5,0.4,0.4
2023-07-01T11:00:00,1411A,110.283,20.0053,海口市,秀英海南医院,,30,30,22,12,13,91,73,46,46,14,15,6,6,0.3,0.3
2023-07-01T11:00:00,1412A,110.338,19.9969,海口市,海南师范大学,,,,21,,12,104,77,44,44,12,8,7,6,0.4,0.3
2023-07-01T11:00:00,1413A,110.33,20.0356,海口市,龙华路环保局宿舍,,24,16,19,11,11,100,76,49,49,7,8,6,6,0.3,0.3
2023-07-01T11:00:00,1414A,106.3787,29.8279,重庆市,缙云山,,30,9,42,9,25,136,93,106,93,13,18,8,9,0.2,0.3
2023-07-01T11:00:00,1416A,106.4213,29.8253,重庆市,天生,,37,37,46,23,32,128,45,34,34,18,25,5,5,1.0,1
2023-07-01T11:00:00,1417A,106.6263,29.7228,重庆市,两路,,30,30,40,15,24,146,36,46,46,36,41,4,4,1.1,1
2023-07-01T11:00:00,1418A,106.2953,29.5983,重庆市,虎溪,,25,22,36,17,31,134,47,40,40,27,27,4,5,0.8,0.7
2023-07-01T11:00:00,1419A,106.5777,29.5102,重庆市,南坪,,40,40,42,26,27,119,21,56,30,59,26,6,8,0.7,0.6
2023-07-01T11:00:00,1420A,106.6556,29.6277,重庆市,唐家沱,,24,24,40,16,27,110,34,22,22,38,35,7,7,0.8,0.8
2023-07-01T11:00:00,1421A,106.6349,29.4906,重庆市,茶园,,37,37,43,17,27,126,58,34,34,29,34,4,5,1.0,0.9
2023-07-01T11:00:00,1422A,106.3754,29.4572,重庆市,白市驿,,26,16,33,18,22,104,43,55,27,19,21,6,8,0.8,0.7
2023-07-01T11:00:00,1425A,106.6205,29.7166,重庆市,空港,,32,22,45,22,34,151,50,56,56,27,35,5,5,1.0,0.9
2023-07-01T11:00:00,1426A,106.4782,29.4875,重庆市,新山村,,42,42,46,26,25,124,46,47,24,38,36,8,10,0.6,0.5
2023-07-01T11:00:00,1427A,106.5616,29.6453,重庆市,礼嘉,,23,18,47,16,26,150,62,40,40,21,44,8,8,0.8,0.9
2023-07-01T11:00:00,1428A,106.4522,29.7091,重庆市,蔡家,,30,30,51,14,28,124,34,58,41,35,25,5,5,0.8,0.8
2023-07-01T11:00:00,1429A,106.5093,29.3917,重庆市,鱼新街,,35,34,37,24,24,128,41,54,24,42,35,5,6,1.2,1
2023-07-01T11:00:00,1431A,103.9728,30.7236,成都市,金泉两河,颗粒物(PM10),52,54,52,32,19,158,102,66,44,14,25,14,5,0.4,0.4
2023-07-01T11:00:00,1432A,104.176,30.6872,成都市,十里店,颗粒物(PM10),53,55,39,10,17,142,31,77,48,55,23,4,3,0.7,0.5
2023-07-01T11:00:00,1433A,104.079,30.5706,成都市,三瓦窑,,50,50,39,19,15,133,78,85,49,34,33,6,3,0.5,0.4
2023-07-01T11:00:00,1434A,104.1114,30.63,成都市,沙河铺,,48,48,36,14,14,141,53,59,51,35,22,3,2,0.6,0.5
2023-07-01T11:00:00,1437A,104.0786,30.6531,成都市,君平街,,32,23,38,3,18,160,100,81,60,24,25,11,6,0.5,0.5
2023-07-01T11:00:00,1438A,103.613,31.0283,成都市,灵岩寺,,30,29,30,18,19,171,94,151,88,7,8,7,8,0.5,0.5
2023-07-01T11:00:00,1439A,106.6899,26.5998,贵阳市,马鞍山,,24,24,21,9,9,72,69,61,56,7,11,5,5,0.4,0.5
2023-07-01T11:00:00,1440A,106.6971,26.5694,贵阳市,市环保站,,26,24,24,18,21,79,57,50,50,15,17,4,4,0.2,0.2
2023-07-01T11:00:00,1441A,106.6243,26.6266,贵阳市,鉴湖路,,29,29,29,12,16,71,63,56,54,5,10,4,4,0.2,0.3
2023-07-01T11:00:00,1442A,106.7487,26.6343,贵阳市,燕子冲,,32,24,23,22,20,85,68,60,60,10,12,6,6,0.6,0.7
2023-07-01T11:00:00,1443A,106.6555,26.4365,贵阳市,碧云窝,,31,31,31,14,13,96,55,47,47,7,10,6,5,0.5,0.6
2023-07-01T11:00:00,1444A,106.694,26.5161,贵阳市,中院村,,39,39,37,19,17,86,57,48,48,10,14,6,5,0.5,0.5
2023-07-01T11:00:00,1445A,106.7109,26.6027,贵阳市,红边门,,39,31,32,27,23,90,60,52,52,15,15,6,5,0.5,0.6
2023-07-01T11:00:00,1446A,106.7164,26.5699,贵阳市,新华路,,31,31,31,17,17,88,64,57,57,10,13,6,4,0.3,0.4
2023-07-01T11:00:00,1447A,106.674,26.5424,贵阳市,太慈桥,,39,39,32,9,11,77,63,58,53,10,14,6,5,0.4,0.5
2023-07-01T11:00:00,1450A,102.8204,24.8886,昆明市,呈贡新区,,26,17,23,13,12,86,83,62,62,7,10,6,6,0.6,0.6
2023-07-01T11:00:00,1451A,102.6251,24.9608,昆明市,西山森林公园,,27,15,16,13,11,95,84,84,84,10,9,7,7,0.7,0.7
2023-07-01T11:00:00,1452A,102.7252,25.0902,昆明市,龙泉镇,,23,18,21,12,11,89,72,54,54,13,14,8,9,0.6,0.6
2023-07-01T11:00:00,1453A,102.7266,25.0375,昆明市,东风东路,,27,27,23,13,10,86,72,48,48,14,16,4,5,0.4,0.5
2023-07-01T11:00:00,1454A,102.6742,25.0669,昆明市,金鼎山,,29,24,24,20,12,84,67,54,54,15,13,5,5,0.5,0.5
2023-07-01T11:00:00,1455A,102.6644,25.0401,昆明市,碧鸡广场,,29,29,23,16,10,86,71,52,52,13,14,5,6,0.4,0.4
2023-07-01T11:00:00,1456A,91.1319,29.6514,拉萨市,八廓街,,24,7,22,6,9,95,74,69,69,1,5,4,6,0.4,0.4
2023-07-01T11:00:00,1457A,91.1221,29.6747,拉萨市,市环保局,,22,8,10,6,6,92,69,59,57,8,9,6,6,0.2,0.2
2023-07-01T11:00:00,1458A,91.0874,29.6475,拉萨市,区监测站,,,7,12,7,6,87,70,63,59,,9,8,8,0.2,0.2
2023-07-01T11:00:00,1459A,91.1774,29.6541,拉萨市,西藏大学,,25,8,9,17,6,98,69,72,72,8,7,7,8,0.2,0.2
2023-07-01T11:00:00,1460A,90.9798,29.6588,拉萨市,区辐射站,,21,16,12,8,6,91,66,62,59,11,9,9,9,0.3,0.2
2023-07-01T11:00:00,1461A,91.0834,29.6292,拉萨市,拉萨火车站,,22,18,7,7,5,84,68,61,59,6,5,8,8,0.1,0.1
2023-07-01T11:00:00,1462A,108.882,34.2749,西安市,高压开关厂,颗粒物(PM10),59,68,40,25,19,236,88,98,91,40,29,12,9,0.6,0.4
2023-07-01T11:00:00,1463A,108.993,34.2629,西安市,兴庆小区,颗粒物(PM10),56,61,39,24,16,221,78,121,94,33,16,11,7,0.8,0.5
2023-07-01T11:00:00,1464A,109.06,34.2572,西安市,纺织城,颗粒物(PM10),53,55,37,18,16,226,88,127,104,41,17,9,5,0.7,0.5
2023-07-01T11:00:00,1465A,108.9356,34.2173,西安市,小寨,,,32,37,10,14,232,116,112,108,20,17,6,6,,0.3
2023-07-01T11:00:00,1466A,108.954,34.2713,西安市,市人民体育场,颗粒物(PM10),60,70,42,34,23,235,79,115,84,38,22,11,8,0.6,0.4
2023-07-01T11:00:00,1467A,108.8922,34.2322,西安市,高新西区,,49,49,36,18,18,250,90,118,105,37,20,9,7,0.8,0.6
2023-07-01T11:00:00,1468A,108.935,34.3474,西安市,经开区,颗粒物(PM10),52,53,45,29,18,216,85,110,82,29,16,7,4,0.4,0.2
2023-07-01T11:00:00,1469A,108.906,34.1546,西安市,长安区,颗粒物(PM10),70,89,52,23,20,241,68,66,64,50,27,5,5,0.6,0.5
2023-07-01T11:00:00,1471A,109.2186,34.3731,西安市,临潼区,颗粒物(PM10),60,69,46,39,22,208,92,156,78,32,21,11,8,0.7,0.5
2023-07-01T11:00:00,1472A,108.869,34.378,西安市,草滩,颗粒物(PM10),54,57,39,20,14,212,97,106,83,21,12,12,9,0.7,0.6
2023-07-01T11:00:00,1473A,108.985,34.1978,西安市,曲江文化产业集团,,37,37,41,13,14,236,104,121,110,34,17,6,5,0.5,0.4
2023-07-01T11:00:00,1474A,109.051,34.3213,西安市,广运潭,颗粒物(PM10),59,67,44,30,19,202,70,120,75,35,18,15,9,0.6,0.5
2023-07-01T11:00:00,1476A,103.631,36.1031,兰州市,兰炼宾馆,颗粒物(PM10),68,86,52,34,26,198,121,110,105,10,14,6,6,0.3,0.4
2023-07-01T11:00:00,1477A,104.1373,35.9454,兰州市,榆中兰大校区,,,,,,,,,,,,,,,,
2023-07-01T11:00:00,1478A,103.8412,36.0726,兰州市,生物制品所,颗粒物(PM10),78,105,59,37,25,184,122,117,111,10,17,10,8,0.5,0.5
2023-07-01T11:00:00,1479A,103.831,36.0464,兰州市,铁路设计院,颗粒物(PM10),68,85,49,39,22,155,99,106,97,28,17,10,7,0.4,0.4
2023-07-01T11:00:00,1483A,101.524,36.6867,西宁市,第五水厂,,,,,,,,,,,,,,,,
2023-07-01T11:00:00,1484A,105.9512,38.6016,银川市,贺兰山马莲口,臭氧1小时,62,31,29,24,14,204,169,133,130,19,12,7,5,0.4,0.3
2023-07-01T11:00:00,1488A,106.2328,38.4975,银川市,贺兰山东路,臭氧1小时,70,66,44,13,14,211,176,149,149,18,17,9,8,0.3,0.2
2023-07-01T11:00:00,1489A,106.1358,38.5036,银川市,学院路,臭氧1小时,65,42,45,24,15,204,172,137,137,16,16,11,12,0.5,0.4
2023-07-01T11:00:00,1490A,87.5801,43.8303,乌鲁木齐市,监测站,颗粒物(PM10),52,54,32,10,11,130,30,45,14,66,40,11,7,0.6,0.4
2023-07-01T11:00:00,1491A,87.6046,43.768,乌鲁木齐市,收费所,颗粒物(PM10),54,57,52,17,16,129,45,13,13,53,39,5,6,0.4,0.3
2023-07-01T11:00:00,1492A,87.4754,43.9469,乌鲁木齐市,新疆农科院农场,颗粒物(PM10),59,68,58,25,23,116,59,85,17,28,30,14,8,0.5,0.5
2023-07-01T11:00:00,1493A,87.5525,43.8711,乌鲁木齐市,铁路局,颗粒物(PM10),56,61,36,16,11,130,32,47,7,69,44,11,7,0.5,0.4
2023-07-01T11:00:00,1494A,87.6432,43.831,乌鲁木齐市,三十一中学,,41,41,30,17,10,138,60,90,40,36,21,7,4,0.4,0.3
2023-07-01T11:00:00,1496A,87.7216,44.1747,乌鲁木齐市,米东区环保局,,39,39,45,10,14,138,77,47,28,10,19,10,7,0.4,0.4
2023-07-01T11:00:00,1508A,112.9433,27.8614,湘潭市,板塘,颗粒物(PM10),55,59,40,29,21,103,103,34,34,14,19,7,8,0.5,0.3
2023-07-01T11:00:00,1511A,112.9118,27.8403,湘潭市,市监测站,,50,44,35,35,34,107,104,41,41,11,19,9,9,0.8,0.8
2023-07-01T11:00:00,1512A,112.8937,27.8728,湘潭市,江麓,,50,50,39,32,19,97,71,30,30,50,26,3,3,0.5,0.1
2023-07-01T11:00:00,1513A,112.9227,27.8159,湘潭市,岳塘,,45,45,40,31,22,109,109,37,37,10,19,6,6,0.2,0.2
2023-07-01T11:00:00,1514A,112.9074,27.9119,湘潭市,科大,颗粒物(PM10),57,64,40,32,26,107,105,32,32,24,13,5,5,1.5,0.5
2023-07-01T11:00:00,1515A,113.135,27.8244,株洲市,天台山庄,细颗粒物(PM2.5),52,39,38,36,24,118,103,48,48,7,12,6,6,0.5,0.5
2023-07-01T11:00:00,1518A,113.095,27.8867,株洲市,株冶医院,,43,43,40,22,19,109,101,45,45,8,15,3,4,0.5,0.4
2023-07-01T11:00:00,1519A,113.167,27.8667,株洲市,市四中,,38,37,38,26,20,110,90,44,44,6,8,8,7,0.5,0.4
2023-07-01T11:00:00,1520A,113.143,27.8381,株洲市,火车站,,43,38,39,30,23,116,97,45,45,8,10,7,6,0.5,0.5
2023-07-01T11:00:00,1524A,113.13,27.8528,株洲市,市监测站,,40,40,34,22,19,122,104,50,50,8,12,7,6,0.6,0.5
2023-07-01T11:00:00,1552A,106.805,26.3003,贵阳市,桐木岭,,,,,,,,,,,,,,,,
2023-07-01T11:00:00,1559A,113.251,27.8336,株洲市,大京风景区,,31,31,29,9,8,89,72,23,23,5,8,2,2,0.6,0.5
2023-07-01T11:00:00,1562A,113.0048,27.9153,湘潭市,昭山,,48,48,39,22,19,108,106,37,37,13,21,3,4,0.6,0.5
2023-07-01T11:00:00,1564A,112.4876,27.9164,湘潭市,韶山,,29,14,34,20,11,88,86,21,21,9,7,6,6,0.4,0.4
2023-07-01T11:00:00,1585A,109.8756,40.6532,包头市,市环境监测站,颗粒物(PM10),53,56,41,15,14,185,148,105,88,21,34,19,15,0.6,0.5
2023-07-01T11:00:00,1587A,109.9991,40.5842,包头市,包头八中,颗粒物(PM10),64,77,58,32,19,201,144,85,84,29,35,30,20,0.9,0.7
2023-07-01T11:00:00,1588A,109.8538,40.6821,包头市,青山宾馆,颗粒物(PM10),51,51,43,19,17,180,149,83,83,21,35,16,13,0.9,0.7
2023-07-01T11:00:00,1589A,109.8642,40.6288,包头市,惠龙物流,颗粒物(PM10),55,59,41,20,16,192,147,115,91,23,27,16,12,0.6,0.4
2023-07-01T11:00:00,1590A,110.0377,40.5546,包头市,东河鸿龙湾,颗粒物(PM10),61,72,49,12,13,198,131,76,76,26,26,22,15,1.0,0.8
2023-07-01T11:00:00,1591A,110.0023,39.8129,鄂尔多斯市,综合楼,颗粒物(PM10),67,83,61,24,16,162,162,116,106,17,23,13,15,0.7,0.6
2023-07-01T11:00:00,1592A,109.9486,39.8261,鄂尔多斯市,巴音孟克林场办事处,臭氧1小时,78,56,39,27,16,182,182,146,130,13,18,10,10,0.7,0.6
2023-07-01T11:00:00,1593A,109.7736,39.5986,鄂尔多斯市,康泽苑,臭氧1小时,63,46,35,14,7,170,170,123,111,13,17,8,8,0.6,0.5
2023-07-01T11:00:00,1594A,109.8119,39.5989,鄂尔多斯市,华泰汽车城,颗粒物(PM10),52,53,33,19,12,155,155,129,79,13,22,10,8,0.6,0.4
2023-07-01T11:00:00,1595A,109.9734,39.7884,鄂尔多斯市,奥林花园,颗粒物(PM10),63,75,62,24,21,167,167,101,94,12,24,11,12,0.8,0.6
2023-07-01T11:00:00,1597A,122.2703,40.7094,营口市,大庆路,,48,48,24,25,10,146,146,133,133,18,16,7,6,0.8,0.7
2023-07-01T11:00:00,1598A,122.2150,40.6511,营口市,镜湖西路,,49,33,20,24,10,154,154,138,138,13,11,7,6,0.6,0.4
2023-07-01T11:00:00,1599A,122.1658,40.6789,营口市,西炮台,,45,31,21,15,8,141,141,130,130,8,7,8,8,0.7,0.5
2023-07-01T11:00:00,1600A,124.3303,40.0625,丹东市,江湾东路,,37,14,32,9,20,153,118,83,82,6,11,6,7,0.6,0.7
2023-07-01T11:00:00,1601A,124.4256,40.1503,丹东市,临江后街,,32,15,33,8,19,150,102,79,66,2,7,5,5,0.7,0.9
2023-07-01T11:00:00,1602A,124.3933,40.1461,丹东市,元宝山,,36,15,57,12,25,192,114,85,84,6,12,5,19,0.9,1
2023-07-01T11:00:00,1603A,124.3633,40.1092,丹东市,民主桥,,,17,36,11,20,142,110,89,80,5,9,,6,0.4,0.6
2023-07-01T11:00:00,1604A,122.0303,41.1489,盘锦市,开发区,臭氧1小时,65,41,25,17,12,172,172,126,126,14,12,10,7,0.9,0.7
2023-07-01T11:00:00,1605A,122.0485,41.0883,盘锦市,兴隆台,,46,46,22,21,11,152,143,118,118,15,14,6,4,0.6,0.5
2023-07-01T11:00:00,1606A,121.8297,41.1028,盘锦市,新生街道,颗粒物(PM10),51,52,22,14,10,153,153,114,114,14,10,6,4,0.7,0.6
2023-07-01T11:00:00,1607A,120.9092,40.7136,葫芦岛市,龙港区,臭氧1小时,105,77,30,27,14,210,210,133,133,20,10,27,7,0.9,0.5
2023-07-01T11:00:00,1608A,120.8392,40.7514,葫芦岛市,化工街,臭氧1小时,112,66,41,31,18,224,224,123,123,21,22,21,8,0.9,0.6
2023-07-01T11:00:00,1609A,120.8341,40.7073,葫芦岛市,新区,臭氧1小时,75,61,36,25,16,184,180,135,120,13,13,12,6,0.7,0.7
2023-07-01T11:00:00,1610A,120.8695,40.7677,葫芦岛市,东城区,臭氧1小时,118,117,40,29,20,235,235,131,131,18,21,20,7,0.9,0.6
2023-07-01T11:00:00,1611A,118.5819,24.9117,泉州市,涂山街,,,,16,10,10,63,52,29,27,8,10,9,9,,0.4
2023-07-01T11:00:00,1612A,118.5972,24.8978,泉州市,津头埔,,17,12,16,5,9,61,52,29,28,10,12,7,7,0.5,0.4
2023-07-01T11:00:00,1613A,118.6663,24.9424,泉州市,万安,,17,17,18,6,6,66,54,34,29,11,10,8,7,0.5,0.5
2023-07-01T11:00:00,1614A,118.6117,24.9604,泉州市,清源山,,,,,,,,,,,,,,,,
2023-07-01T11:00:00,1616A,117.6795,36.229,济南市,技术学院,臭氧1小时,103,48,33,26,18,205,205,116,116,12,26,12,10,0.9,0.8
2023-07-01T11:00:00,1618A,118.3429,35.0532,临沂市,沂河小区,,44,24,36,9,20,176,140,71,71,8,15,8,9,0.2,0.3
2023-07-01T11:00:00,1619A,118.295,35.0583,临沂市,鲁南制药厂,,,,30,,16,183,156,71,70,,15,,8,0.5,0.7
2023-07-01T11:00:00,1620A,118.2794,34.9976,临沂市,新光毛纺厂,,44,24,29,15,18,182,138,71,71,9,13,7,7,0.3,0.4
2023-07-01T11:00:00,1621A,118.3956,35.0888,临沂市,河东保险公司,,44,19,31,13,19,170,140,56,56,4,18,5,5,0.2,0.3
2023-07-01T11:00:00,1622A,116.3032,37.4674,德州市,儿童乐园,臭氧1小时,117,66,42,27,17,233,233,168,168,7,13,12,10,0.7,0.5
2023-07-01T11:00:00,1624A,116.2991,37.4451,德州市,监理站,臭氧1小时,107,64,43,27,17,216,214,154,150,12,24,,7,0.5,0.4
2023-07-01T11:00:00,1625A,115.9848,36.4372,聊城市,区政府,臭氧1小时,88,46,46,19,21,232,190,140,140,12,22,8,11,0.7,0.7
2023-07-01T11:00:00,1628A,118.0062,37.3803,滨州市,市环保局,臭氧1小时,116,62,43,30,23,240,231,112,112,11,27,14,9,0.7,0.5
2023-07-01T11:00:00,1629A,118.0018,37.3617,滨州市,第二水厂,臭氧1小时,118,56,45,29,20,236,236,104,104,14,33,11,8,0.7,0.6
2023-07-01T11:00:00,1630A,117.9776,37.393,滨州市,北中新校,臭氧1小时,115,58,45,33,20,240,230,118,118,11,27,14,8,0.7,0.7
2023-07-01T11:00:00,1631A,118.0414,36.8103,淄博市,人民公园,臭氧1小时,103,34,36,14,15,266,205,143,143,18,26,13,13,0.5,0.5
2023-07-01T11:00:00,1633A,117.8525,36.4847,淄博市,双山,臭氧1小时,95,48,28,30,13,196,196,123,123,16,16,19,12,0.8,0.5
2023-07-01T11:00:00,1634A,117.9592,36.6331,淄博市,气象站,臭氧1小时,72,46,31,27,16,217,177,136,136,10,12,8,9,0.3,0.3
2023-07-01T11:00:00,1635A,118.3092,36.8194,淄博市,莆田园,臭氧1小时,98,27,34,17,19,219,198,142,142,17,21,11,12,0.2,0.6
2023-07-01T11:00:00,1637A,117.558,34.8438,枣庄市,市中区政府,细颗粒物(PM2.5),55,53,51,39,27,212,146,104,93,15,23,6,9,0.4,0.5
2023-07-01T11:00:00,1638A,117.2852,34.7837,枣庄市,薛城环保局,,,,65,,39,229,163,152,96,16,26,9,10,0.6,0.6
2023-07-01T11:00:00,1639A,117.5852,34.7745,枣庄市,峄城区政府,颗粒物(PM10),81,112,57,29,23,202,161,92,92,13,21,8,15,0.6,0.6
2023-07-01T11:00:00,1640A,117.7276,34.5578,枣庄市,台儿庄区环保局,,45,39,48,24,33,204,143,74,73,22,29,10,11,0.7,0.7
2023-07-01T11:00:00,1641A,117.4518,35.0992,枣庄市,山亭区环保局,,49,44,37,34,28,170,154,156,123,10,14,10,8,0.3,0.3
2023-07-01T11:00:00,1642A,121.2514,37.5639,烟台市,开发区,,,,,,,,,,,,,,,,
2023-07-01T11:00:00,1643A,121.3719,37.5433,烟台市,轴承厂,,48,22,27,12,15,152,152,104,104,4,7,2,2,0.2,0.3
2023-07-01T11:00:00,1644A,121.3181,37.5436,烟台市,西郊化工站,,45,24,29,7,18,144,144,106,106,8,14,4,4,0.4,0.5
2023-07-01T11:00:00,1645A,121.4478,37.4822,烟台市,莱山环保局,,,,20,,12,150,150,103,103,8,8,5,4,0.5,0.5
2023-07-01T11:00:00,1646A,121.2611,37.4967,烟台市,福山环保局,,45,34,37,9,11,174,144,88,88,11,20,6,6,0.4,0.4
2023-07-01T11:00:00,1650A,119.1437,36.7023,潍坊市,环保局,臭氧1小时,85,66,37,26,24,204,188,102,102,11,15,8,8,0.7,0.8
2023-07-01T11:00:00,1653A,116.6251,35.4302,济宁市,火炬城,臭氧1小时,72,72,55,22,28,256,177,132,115,4,15,5,7,0.6,0.6
2023-07-01T11:00:00,1655A,116.5491,35.4042,济宁市,电化厂,臭氧1小时,67,50,56,31,30,246,173,152,122,6,14,6,8,0.7,0.7
2023-07-01T11:00:00,1656A,117.1437,36.1937,泰安市,监测站,臭氧1小时,102,51,37,39,19,220,203,135,132,11,13,10,9,0.3,0.4
2023-07-01T11:00:00,1657A,117.0885,36.2017,泰安市,人口学校,臭氧1小时,101,51,46,48,29,210,202,152,152,12,12,12,10,0.4,0.5
2023-07-01T11:00:00,1658A,117.1089,36.1758,泰安市,电力学校,臭氧1小时,99,53,38,30,21,221,199,133,126,9,13,12,9,0.2,0.3
2023-07-01T11:00:00,1659A,119.471,35.4209,日照市,监测站,,44,44,33,26,25,150,82,93,71,44,25,7,5,0.5,0.6
2023-07-01T11:00:00,1660A,119.523,35.4216,日照市,市政府广场,,29,29,35,13,24,161,88,67,67,17,16,6,7,0.4,0.5
2023-07-01T11:00:00,1661A,119.5587,35.4044,日照市,港务局,,35,14,32,6,18,196,109,103,78,7,18,6,8,0.4,0.5
2023-07-01T11:00:00,1662A,122.1214,37.4236,威海市,华夏技校,,42,22,23,22,20,133,133,121,113,11,15,5,5,0.3,0.4
2023-07-01T11:00:00,1663A,122.0508,37.5236,威海市,山大分校,臭氧1小时,60,32,23,15,13,168,168,126,125,11,14,8,8,0.2,0.2
2023-07-01T11:00:00,1664A,122.1067,37.5072,威海市,市监测站,,42,34,26,29,20,123,110,80,77,29,22,6,5,0.6,0.6
2023-07-01T11:00:00,1666A,118.6614,37.4309,东营市,市环保局,臭氧1小时,109,48,29,27,17,218,218,103,103,14,16,13,10,0.4,0.3
2023-07-01T11:00:00,1669A,113.5824,24.7733,韶关市,市八中,,20,19,32,8,19,117,62,73,46,7,13,12,12,0.2,0.3
2023-07-01T11:00:00,1671A,113.5917,24.7972,韶关市,园林处,,,35,29,35,19,109,,78,52,3,9,7,8,,0.7
2023-07-01T11:00:00,1672A,113.6735,24.7791,韶关市,韶关学院,,26,26,32,11,23,103,59,62,51,9,12,12,9,0.5,0.4
2023-07-01T11:00:00,1673A,113.5971,24.6863,韶关市,曲江监测站,,20,6,27,10,19,121,63,85,49,4,7,7,7,0.5,0.5
2023-07-01T11:00:00,1674A,116.6794,23.3667,汕头市,金平子站,,20,14,18,14,13,77,42,46,36,6,4,4,4,0.6,0.6
2023-07-01T11:00:00,1675A,116.7244,23.3633,汕头市,龙湖子站,,20,9,10,6,4,84,62,61,47,6,8,4,4,0.6,0.6
2023-07-01T11:00:00,1676A,116.7258,23.2775,汕头市,濠江子站,,23,23,13,1,5,71,46,49,34,8,10,9,8,0.4,0.6
2023-07-01T11:00:00,1677A,116.7519,23.4714,汕头市,澄海子站,,20,14,12,5,5,76,62,57,46,10,11,4,4,0.6,0.6
2023-07-01T11:00:00,1678A,116.6092,23.2539,汕头市,潮阳子站,,18,8,11,2,6,78,55,51,42,4,9,9,9,0.5,0.5
2023-07-01T11:00:00,1680A,110.3539,21.2706,湛江市,湛江影剧院,,28,24,24,9,11,132,88,52,52,5,8,7,7,0.6,0.6
2023-07-01T11:00:00,1681A,110.3928,21.2228,湛江市,市环境监测站,,31,31,22,13,12,116,87,52,52,11,9,7,8,0.6,0.5
2023-07-01T11:00:00,1682A,110.4019,21.1997,湛江市,环保局宿舍,,28,22,22,13,13,100,87,50,50,10,11,5,5,0.5,0.5
2023-07-01T11:00:00,1683A,110.4111,21.2028,湛江市,霞山游泳场,,,,,,,,,,,,,,,,
2023-07-01T11:00:00,1684A,110.3316,21.2679,湛江市,麻章区环保局,,32,32,26,12,12,119,84,48,48,9,10,5,5,0.6,0.6
2023-07-01T11:00:00,1685A,110.4558,21.2567,湛江市,坡头区环保局,,,20,20,12,10,117,72,50,50,,7,7,6,0.7,0.5
2023-07-01T11:00:00,1686A,111.0286,21.4688,茂名市,电白南海,,22,22,19,14,12,66,66,62,62,4,3,3,4,0.6,0.5
2023-07-01T11:00:00,1687A,110.9294,21.6533,茂名市,茂石化七小,,22,21,16,15,10,70,70,47,47,5,6,6,5,0.5,0.4
2023-07-01T11:00:00,1688A,110.9107,21.6687,茂名市,健康路,,24,17,14,1,2,74,74,51,51,3,4,3,3,0.6,0.5
2023-07-01T11:00:00,1689A,110.8592,21.6828,茂名市,高岭,,36,36,30,17,12,74,74,52,52,4,7,5,4,0.5,0.4
2023-07-01T11:00:00,1690A,116.1231,24.3284,梅州市,梅江月梅,,,,19,,6,61,61,16,16,,14,,2,0.5,0.5
2023-07-01T11:00:00,1691A,116.0797,24.2719,梅州市,梅县新城,,20,19,18,10,7,64,64,20,20,7,13,3,3,0.5,0.5
2023-07-01T11:00:00,1692A,116.1248,24.2654,梅州市,环境监控中心,,23,23,21,14,12,62,62,18,18,9,18,3,3,0.6,0.6
2023-07-01T11:00:00,1693A,115.3653,22.775,汕尾市,市环保局,,11,8,12,6,6,55,33,38,31,7,5,6,6,0.7,0.6
2023-07-01T11:00:00,1694A,115.3706,22.7898,汕尾市,市政府,,10,4,9,2,4,60,32,39,29,4,4,4,4,0.5,0.5
2023-07-01T11:00:00,1695A,115.3622,22.7925,汕尾市,新城中学,,9,4,15,3,3,57,28,30,23,3,3,5,5,0.5,0.5
2023-07-01T11:00:00,1696A,114.6778,23.7569,河源市,源西,,26,26,19,10,21,118,53,42,34,9,9,4,4,0.5,0.5
2023-07-01T11:00:00,1697A,114.6944,23.7586,河源市,东埔,,23,23,18,8,13,117,51,40,33,9,9,5,5,0.5,0.5
2023-07-01T11:00:00,1698A,114.6892,23.7233,河源市,老城,,23,20,28,16,12,110,51,38,30,8,10,4,4,0.5,0.5
2023-07-01T11:00:00,1699A,111.9797,21.8593,阳江市,鸳鸯湖,,23,23,12,15,6,49,49,38,38,9,4,9,8,0.6,0.5
2023-07-01T11:00:00,1701A,111.9491,21.8658,阳江市,马南垌,,32,32,14,21,7,54,54,35,35,9,6,10,6,0.5,0.5
2023-07-01T11:00:00,1702A,113.0426,23.691,清远市,环保大楼,,21,21,27,13,17,124,50,38,19,8,16,8,7,0.4,0.5
2023-07-01T11:00:00,1703A,113.0208,23.7106,清远市,凤城街办,,23,23,27,16,18,115,50,39,21,6,13,8,7,0.4,0.4
2023-07-01T11:00:00,1705A,116.6367,23.6719,潮州市,西园路,,18,12,14,12,10,62,40,44,36,6,7,4,4,0.3,0.3
2023-07-01T11:00:00,1706A,116.6447,23.6706,潮州市,档案局,,29,29,12,7,8,70,51,47,40,6,6,4,5,0.6,0.4
2023-07-01T11:00:00,1708A,116.3701,23.5345,揭阳市,新兴,,17,17,24,10,10,67,51,24,23,6,14,6,5,0.7,0.7
2023-07-01T11:00:00,1709A,116.3264,23.5443,揭阳市,西马,,,,,,,,,,,,,,,,
2023-07-01T11:00:00,1710A,116.3611,23.5626,揭阳市,东兴,,,24,26,10,8,70,46,30,25,13,15,2,3,,0.8
2023-07-01T11:00:00,1711A,116.4151,23.5294,揭阳市,渔湖,,,,25,11,10,62,55,31,22,3,10,2,2,0.6,0.6
2023-07-01T11:00:00,1712A,112.0392,22.9169,云浮市,新市府,,13,10,16,6,10,56,40,29,22,1,4,4,4,0.6,0.6
2023-07-01T11:00:00,1714A,112.0539,22.9539,云浮市,牧羊,,23,23,24,11,12,77,43,34,22,12,12,8,25,0.4,0.4
2023-07-01T11:00:00,1715A,102.575,24.3711,玉溪市,东风水库,,23,19,24,10,12,71,71,45,45,10,11,8,8,0.7,0.7
2023-07-01T11:00:00,1718A,115.4208,35.2464,菏泽市,气象局,臭氧1小时,73,45,45,18,20,246,178,151,131,6,11,6,5,0.5,0.5
2023-07-01T11:00:00,1719A,115.4747,35.2375,菏泽市,市政协,臭氧1小时,80,45,42,30,21,251,184,173,138,6,10,9,7,0.1,0.1
2023-07-01T11:00:00,1721A,113.3819,40.1097,大同市,果树场,臭氧1小时,80,51,71,26,24,195,184,62,62,18,33,12,10,0.7,0.6
2023-07-01T11:00:00,1723A,113.2994,40.0758,大同市,云冈宾馆,臭氧1小时,106,80,91,19,34,211,211,67,67,18,45,12,13,0.4,0.6
2023-07-01T11:00:00,1724A,113.3444,40.0917,大同市,大同大学,臭氧1小时,72,77,85,25,24,199,177,69,69,23,38,19,17,0.7,0.6
2023-07-01T11:00:00,1725A,113.2661,40.1269,大同市,安家小村,臭氧1小时,73,83,87,38,31,188,178,78,78,21,25,18,23,0.4,0.7
2023-07-01T11:00:00,1726A,113.2711,40.0844,大同市,教育学院,,,83,86,,25,196,191,65,65,23,47,14,17,0.6,0.7
2023-07-01T11:00:00,1727A,113.1147,36.1547,长治市,清华站,臭氧1小时,103,39,43,12,16,236,205,170,140,6,16,10,11,0.5,0.7
2023-07-01T11:00:00,1728A,113.1031,36.1989,长治市,监测站,臭氧1小时,110,36,51,14,21,253,219,155,155,12,22,12,16,0.5,1
2023-07-01T11:00:00,1730A,113.0886,36.2125,长治市,审计局,,,,,,,,,,,,,,,,
2023-07-01T11:00:00,1731A,113.0844,36.1856,长治市,长治八中,臭氧1小时,109,54,50,17,21,249,217,173,147,8,15,10,13,0.5,0.6
2023-07-01T11:00:00,1733A,111.5531,36.0783,临汾市,临钢医院,臭氧1小时,67,61,60,39,36,193,173,83,83,15,25,7,8,0.8,0.8
2023-07-01T11:00:00,1734A,111.5028,36.0714,临汾市,技工学校,臭氧1小时,79,61,58,14,21,206,183,108,108,13,19,8,7,1.1,1.1
2023-07-01T11:00:00,1736A,111.5018,36.0855,临汾市,市委,臭氧1小时,93,47,62,30,26,208,194,113,113,13,21,7,5,0.8,0.8
2023-07-01T11:00:00,1738A,113.5758,37.8572,阳泉市,市中心,,,54,48,20,18,204,198,52,52,32,52,34,17,,0.7
2023-07-01T11:00:00,1739A,113.4894,37.8731,阳泉市,赛鱼,臭氧1小时,85,45,53,9,19,200,188,67,67,33,61,17,12,0.9,0.7
2023-07-01T11:00:00,1740A,113.5819,37.8486,阳泉市,南庄,臭氧1小时,93,64,48,25,24,210,194,87,87,38,34,40,16,1.3,0.8
2023-07-01T11:00:00,1742A,113.5614,37.8703,阳泉市,平坦,,,,49,30,17,202,190,78,78,32,53,,13,1.2,0.8
2023-07-01T11:00:00,1743A,113.5158,37.8392,阳泉市,大阳泉,臭氧1小时,89,48,27,27,23,198,191,168,164,24,15,21,11,1.0,0.7
2023-07-01T11:00:00,1744A,118.9233,42.2816,赤峰市,松山一中,,,,26,,7,116,93,61,44,27,35,31,10,,0.2
2023-07-01T11:00:00,1745A,118.9576,42.2728,赤峰市,哈达街,,36,36,24,4,6,129,98,59,46,26,28,44,18,0.5,0.4
2023-07-01T11:00:00,1746A,118.8788,42.2554,赤峰市,天义路,,34,28,16,8,5,124,107,68,50,18,27,18,15,0.2,0.2
2023-07-01T11:00:00,1748A,123.044,41.1196,鞍山市,深沟寺,臭氧1小时,74,50,30,28,13,202,179,160,160,12,12,12,11,0.6,0.6
2023-07-01T11:00:00,1749A,123.011,41.0931,鞍山市,太阳城,臭氧1小时,68,60,34,40,14,180,174,146,146,15,15,9,9,0.9,0.9
2023-07-01T11:00:00,1750A,123.0485,41.1442,鞍山市,太平,颗粒物(PM10),62,74,34,33,14,190,166,157,151,19,16,12,10,1.2,1
2023-07-01T11:00:00,1751A,122.9642,41.0971,鞍山市,铁西三道街,臭氧1小时,57,62,42,32,16,196,165,150,150,15,21,8,9,0.9,1.1
2023-07-01T11:00:00,1752A,122.9341,41.0833,鞍山市,铁西工业园区,颗粒物(PM10),52,53,36,28,15,185,155,152,147,12,17,8,8,0.9,1
2023-07-01T11:00:00,1753A,123.022,41.0821,鞍山市,明达新区,臭氧1小时,60,38,34,25,12,196,168,162,157,16,15,8,8,0.6,0.6
2023-07-01T11:00:00,1754A,123.1289,41.0228,鞍山市,千山,,,,,,,,,,,,,,,,
2023-07-01T11:00:00,1755A,123.7977,41.8491,抚顺市,望花区,,,58,63,31,25,197,,88,88,16,24,6,7,0.7,0.7
2023-07-01T11:00:00,1756A,123.9161,41.8822,抚顺市,顺城区,臭氧1小时,78,52,49,32,20,208,182,89,89,19,30,12,10,0.8,0.8
2023-07-01T11:00:00,1757A,124.0436,41.8611,抚顺市,东洲区,臭氧1小时,80,56,47,29,20,208,184,105,104,15,20,8,8,0.6,0.7
2023-07-01T11:00:00,1758A,123.9247,41.8642,抚顺市,新抚区,臭氧1小时,77,58,51,42,24,206,181,86,86,16,30,10,10,0.7,0.8
2023-07-01T11:00:00,1759A,124.0972,41.8961,抚顺市,大伙房水库,,,48,43,24,17,195,178,102,99,,12,11,7,0.6,0.6
2023-07-01T11:00:00,1760A,123.7086,41.8391,抚顺市,沈抚新城,臭氧1小时,63,51,42,37,18,182,170,94,94,17,31,9,13,0.7,0.8
2023-07-01T11:00:00,1761A,123.8275,41.3064,本溪市,大峪,臭氧1小时,72,32,35,18,12,203,177,101,101,15,23,8,6,0.8,0.8
2023-07-01T11:00:00,1762A,123.7567,41.3325,本溪市,溪湖,臭氧1小时,80,39,39,17,16,208,184,106,106,10,24,16,12,0.9,1.4
2023-07-01T11:00:00,1763A,123.7169,41.3094,本溪市,彩屯,臭氧1小时,62,26,36,14,20,195,169,85,85,12,28,8,8,0.9,1.6
2023-07-01T11:00:00,1764A,123.7669,41.2864,本溪市,东明,,,58,46,16,17,196,174,131,131,19,25,11,10,,1
2023-07-01T11:00:00,1765A,123.7992,41.2664,本溪市,新立屯,,,,36,,16,173,92,115,115,11,29,,8,0.9,0.9
2023-07-01T11:00:00,1766A,123.8142,41.3472,本溪市,威宁,臭氧1小时,62,54,52,22,19,190,169,79,79,19,22,16,8,1.1,0.7
2023-07-01T11:00:00,1767A,121.1115,41.0879,锦州市,南山,臭氧1小时,64,38,40,34,19,200,171,119,119,12,18,25,12,0.9,0.9
2023-07-01T11:00:00,1768A,121.0533,40.8434,锦州市,开发区,臭氧1小时,98,44,43,26,14,198,198,122,122,15,17,16,11,1.0,0.8
2023-07-01T11:00:00,1769A,121.1836,41.1119,锦州市,百股街道,臭氧1小时,67,37,34,22,19,183,173,123,112,10,16,26,9,0.6,1
2023-07-01T11:00:00,1770A,121.1178,41.1222,锦州市,天安街道,,49,25,47,21,19,184,154,106,104,21,28,26,12,1.3,1.1
2023-07-01T11:00:00,1771A,121.1303,41.1386,锦州市,北湖公园,颗粒物(PM10),67,84,46,20,19,198,168,115,108,9,18,23,10,1.1,0.9
2023-07-01T11:00:00,1772A,126.54,43.8622,吉林市,哈达湾,颗粒物(PM10),62,73,21,41,10,151,140,110,110,12,15,7,6,0.8,0.5
2023-07-01T11:00:00,1773A,126.5844,43.8358,吉林市,东局子,颗粒物(PM10),59,67,21,39,11,152,145,112,112,16,14,7,6,0.8,0.6
2023-07-01T11:00:00,1774A,126.5052,43.8245,吉林市,电力学院,颗粒物(PM10),57,63,23,27,12,148,141,90,90,12,26,6,6,0.9,0.6
2023-07-01T11:00:00,1775A,126.6133,43.8972,吉林市,江北,,,,,,,,,,,,,,,,
2023-07-01T11:00:00,1776A,126.555,43.8306,吉林市,江南公园,细颗粒物(PM2.5),59,57,20,42,11,147,142,110,110,17,18,5,4,0.9,0.6
2023-07-01T11:00:00,1778A,126.7061,43.7133,吉林市,丰满,,,,,,,,,,,,,,,,
2023-07-01T11:00:00,1779A,123.9305,47.3636,齐齐哈尔市,安居小区,,26,16,20,2,6,137,81,136,104,5,10,5,5,0.4,0.4
2023-07-01T11:00:00,1780A,123.9488,47.3386,齐齐哈尔市,中心广场,,26,5,10,2,3,139,83,139,106,9,9,10,10,0.2,0.2
2023-07-01T11:00:00,1781A,123.9483,47.3227,齐齐哈尔市,农牧车辆厂,,27,14,22,4,6,134,85,133,104,7,9,5,5,0.3,0.3
2023-07-01T11:00:00,1783A,123.945,47.2988,齐齐哈尔市,市环境监测站,,27,12,11,3,10,130,85,130,102,8,7,6,5,0.2,0.2
2023-07-01T11:00:00,1784A,129.61,44.561,牡丹江市,环保大楼,,33,15,20,11,14,129,103,58,56,10,15,5,5,0.4,0.4
2023-07-01T11:00:00,1785A,129.6115,44.5782,牡丹江市,文化广场,,28,11,20,8,16,126,89,48,48,20,20,8,5,0.5,0.5
2023-07-01T11:00:00,1786A,129.5904,44.5963,牡丹江市,第一医院,,,12,23,9,15,125,90,47,47,16,16,5,3,,0.3
2023-07-01T11:00:00,1787A,129.6364,44.6075,牡丹江市,机车工厂,,28,13,18,6,11,127,87,45,45,9,12,5,3,0.4,0.4
2023-07-01T11:00:00,1788A,129.6386,44.5462,牡丹江市,第一中学,,31,8,16,5,7,127,97,54,54,8,11,4,3,0.3,0.3
2023-07-01T11:00:00,1789A,124.81117,46.03138,大庆市,大同区,,36,4,15,6,8,134,114,114,112,6,12,6,7,0.1,0.2
2023-07-01T11:00:00,1790A,125.129,46.533,大庆市,龙凤区,,33,10,17,16,12,135,104,118,114,12,13,4,5,0.3,0.2
2023-07-01T11:00:00,1791A,124.902,46.408,大庆市,红岗区,,34,15,15,7,9,148,107,130,124,7,9,2,2,0.2,0.2
2023-07-01T11:00:00,1792A,125.153,46.586,大庆市,萨尔图区,,32,1,16,3,8,129,100,117,106,9,13,6,6,0.1,0.1
2023-07-01T11:00:00,1793A,124.9042,46.6215,大庆市,让胡路区,,,,14,,10,134,89,120,113,,11,5,4,,0.2
2023-07-01T11:00:00,1794A,118.3606,31.3519,芜湖市,监测站,,43,43,19,22,16,100,100,42,42,27,31,3,2,0.7,0.6
2023-07-01T11:00:00,1795A,118.3714,31.4134,芜湖市,科创中心,,48,48,21,33,17,104,104,58,58,27,26,6,5,0.6,0.7
2023-07-01T11:00:00,1796A,118.3673,31.3131,芜湖市,四水厂,颗粒物(PM10),69,88,25,29,16,109,109,48,44,20,27,4,2,0.8,0.8
2023-07-01T11:00:00,1798A,118.5092,31.6837,马鞍山市,湖东路四小,,46,44,26,32,24,116,116,59,59,13,16,12,9,1.1,1
2023-07-01T11:00:00,1799A,118.5024,31.6449,马鞍山市,开发区,颗粒物(PM10),60,69,26,33,20,111,111,44,44,13,22,9,7,1.3,0.9
2023-07-01T11:00:00,1800A,118.5228,31.7231,马鞍山市,慈湖,,43,19,32,30,20,120,120,54,54,12,23,10,9,1.2,0.9
2023-07-01T11:00:00,1802A,118.6245,31.7241,马鞍山市,濮塘,,45,30,8,31,12,103,103,48,48,5,5,6,6,0.8,0.5
2023-07-01T11:00:00,1803A,115.9872,29.6815,九江市,十里,,39,32,23,27,19,74,74,34,34,14,19,9,10,0.9,0.6
2023-07-01T11:00:00,1804A,115.9584,29.7046,九江市,茅山头,,28,25,22,19,16,63,63,36,36,21,18,10,8,0.8,0.7
2023-07-01T11:00:00,1805A,115.9877,29.7295,九江市,西园,,39,34,26,27,16,65,48,40,30,39,30,9,8,0.6,0.5
2023-07-01T11:00:00,1806A,116.0172,29.6547,九江市,五七二七厂,,22,22,18,12,9,62,62,32,32,4,4,8,7,0.5,0.5
2023-07-01T11:00:00,1808A,115.9114,29.6038,九江市,综合工业园,,30,29,22,21,11,62,58,19,19,25,30,9,9,1.0,1.1
2023-07-01T11:00:00,1809A,116.0721,29.7535,九江市,石化总厂,,34,34,26,20,16,79,79,36,36,5,18,9,10,0.6,0.7
2023-07-01T11:00:00,1810A,115.9773,29.5698,九江市,庐山气象台,,26,26,13,16,11,86,78,82,76,2,2,8,7,1.2,0.9
2023-07-01T11:00:00,1812A,112.3931,34.6516,洛阳市,市委党校,臭氧1小时,70,54,42,24,28,203,176,118,106,12,11,9,7,0.7,0.6
2023-07-01T11:00:00,1814A,112.4657,34.6871,洛阳市,豫西宾馆,臭氧1小时,87,61,47,24,19,197,189,129,96,11,14,3,3,0.6,0.6
2023-07-01T11:00:00,1815A,112.494,34.6886,洛阳市,河南林校,臭氧1小时,83,51,36,26,19,191,186,130,89,14,18,10,8,0.5,0.5
2023-07-01T11:00:00,1816A,112.3844,34.623,洛阳市,开发区管委会,臭氧1小时,80,51,39,25,20,201,184,99,91,10,14,12,9,0.4,0.3
2023-07-01T11:00:00,1817A,112.4267,34.6258,洛阳市,市委新办公区,臭氧1小时,75,53,42,29,25,211,180,118,98,13,15,7,5,0.6,0.6
2023-07-01T11:00:00,1818A,114.4839,36.0621,安阳市,棉研所,臭氧1小时,87,79,50,28,22,236,189,108,106,11,19,10,9,0.5,0.5
2023-07-01T11:00:00,1819A,114.3551,36.1017,安阳市,红庙街,臭氧1小时,90,68,61,29,24,227,192,104,104,15,19,6,9,0.6,0.6
2023-07-01T11:00:00,1820A,114.361,36.0681,安阳市,银杏小区,臭氧1小时,95,84,59,26,27,230,196,94,94,16,29,6,16,0.5,0.6
2023-07-01T11:00:00,1824A,114.3389,34.7781,开封市,肿瘤医院,臭氧1小时,67,53,51,22,23,234,173,106,101,7,15,6,8,0.2,0.2
2023-07-01T11:00:00,1826A,114.2885,34.7965,开封市,世纪星幼儿园,臭氧1小时,58,12,21,16,22,219,166,119,102,6,17,1,2,0.6,0.6
2023-07-01T11:00:00,1828A,113.227,35.2125,焦作市,市环保局,臭氧1小时,111,38,48,11,24,231,222,143,143,11,16,6,7,0.3,0.4
2023-07-01T11:00:00,1830A,113.1992,35.2590,焦作市,影视城,臭氧1小时,110,13,27,20,20,226,220,180,176,9,8,10,8,0.6,0.5
2023-07-01T11:00:00,1832A,113.3257,33.742,平顶山市,新华旅馆,臭氧1小时,70,40,42,15,22,212,176,132,113,10,16,3,2,0.5,0.5
2023-07-01T11:00:00,1833A,113.2919,33.737,平顶山市,规划设计院,臭氧1小时,70,36,35,13,16,214,176,132,116,9,17,9,9,0.6,0.5
2023-07-01T11:00:00,1834A,113.182,33.774,平顶山市,平顶山工学院,臭氧1小时,70,37,34,14,11,206,176,112,112,12,18,5,5,0.4,0.4
2023-07-01T11:00:00,1835A,111.1922,34.7752,三门峡市,市政府,,45,45,43,20,17,198,138,81,81,14,23,8,5,0.7,0.6
2023-07-01T11:00:00,1836A,111.1587,34.7942,三门峡市,开发区,,49,49,48,22,23,198,141,90,90,18,19,10,8,0.5,0.6
2023-07-01T11:00:00,1838A,111.143,34.7955,三门峡市,风景区,颗粒物(PM10),52,54,41,21,23,207,136,89,89,18,14,7,8,0.4,0.5
2023-07-01T11:00:00,1840A,111.2992,30.6981,宜昌市,白龙岗,,34,34,27,12,10,130,36,46,23,39,22,6,8,0.5,0.4
2023-07-01T11:00:00,1841A,111.3549,30.6465,宜昌市,伍家岗,,28,28,24,17,14,136,57,36,26,27,27,3,3,0.5,0.5
2023-07-01T11:00:00,1842A,111.2628,30.6961,宜昌市,点军区,,32,32,25,14,6,127,58,26,26,16,20,4,4,0.5,0.5
2023-07-01T11:00:00,1843A,111.3275,30.7819,宜昌市,夷陵区,,28,28,19,9,9,149,49,58,40,23,16,3,4,0.5,0.5
2023-07-01T11:00:00,1844A,112.2494,30.3197,荆州市,市图书馆,,37,31,24,7,12,148,116,76,74,10,12,7,7,0.6,0.6
2023-07-01T11:00:00,1845A,112.2008,30.3544,荆州市,市委党校,,,30,24,,10,131,107,73,65,16,12,8,7,0.6,0.6
2023-07-01T11:00:00,1847A,113.1094,29.3578,岳阳市,南湖风景区,,46,45,31,23,18,146,146,76,76,8,13,10,9,0.9,1
2023-07-01T11:00:00,1848A,113.1493,29.4251,岳阳市,城陵矶,,50,42,26,35,17,140,140,60,54,24,24,7,6,0.9,0.7
2023-07-01T11:00:00,1849A,113.1497,29.3575,岳阳市,开发区,,46,39,35,23,18,147,147,67,67,5,16,8,9,0.7,0.7
2023-07-01T11:00:00,1850A,113.2621,29.4758,岳阳市,云溪区,,40,37,24,26,15,126,126,48,48,7,5,7,7,0.7,0.6
2023-07-01T11:00:00,1851A,112.9943,29.4402,岳阳市,君山区,,,22,24,7,20,96,,66,61,8,11,10,6,0.5,0.4
2023-07-01T11:00:00,1852A,113.2117,29.355,岳阳市,金凤水库,,31,29,23,17,13,98,98,41,41,2,9,3,2,0.8,0.7
2023-07-01T11:00:00,1854A,111.6975,28.9703,常德市,市二中,细颗粒物(PM2.5),70,41,22,51,16,93,72,55,55,11,9,11,5,0.5,0.4
2023-07-01T11:00:00,1857A,111.7158,29.1456,常德市,白鹤山,,39,20,16,27,14,78,72,67,40,2,2,3,2,0.5,0.5
2023-07-01T11:00:00,1858A,110.5319,29.1217,张家界市,永定新区,,,,20,16,14,67,25,14,12,13,12,6,5,0.2,0.2
2023-07-01T11:00:00,1859A,110.4697,29.1242,张家界市,电业局,,33,33,21,18,13,64,22,26,15,17,12,7,5,0.4,0.3
2023-07-01T11:00:00,1860A,110.5594,29.3547,张家界市,未央路,,29,29,16,8,7,67,11,16,15,17,8,3,3,0.4,0.3
2023-07-01T11:00:00,1861A,110.4417,29.315,张家界市,袁家界,,16,16,7,7,3,65,44,41,40,12,5,5,5,0.5,0.5
2023-07-01T11:00:00,1862A,110.4144,25.3167,桂林市,电子科大尧山校区,,26,25,25,18,22,78,78,55,55,5,5,2,6,0.5,0.5
2023-07-01T11:00:00,1863A,110.2819,25.2697,桂林市,监测站,,30,30,33,21,20,90,74,53,53,6,12,5,6,0.5,0.5
2023-07-01T11:00:00,1864A,110.3089,25.2708,桂林市,龙隐路小学,,36,36,30,18,16,90,71,49,49,9,10,7,11,0.5,0.5
2023-07-01T11:00:00,1865A,110.2869,25.2178,桂林市,八中,,40,23,19,28,26,81,62,44,44,11,12,3,3,0.5,0.5
2023-07-01T11:00:00,1866A,109.2262,21.588,北海市,牛尾岭水库,,28,28,18,12,8,65,65,39,39,4,6,4,3,0.5,0.5
2023-07-01T11:00:00,1867A,109.1436,21.4086,北海市,海滩公园,,31,31,37,7,5,74,74,68,67,3,3,3,3,0.6,0.5
2023-07-01T11:00:00,1868A,109.0981,21.4661,北海市,新市环保局,,25,22,18,12,9,77,77,68,68,4,3,3,3,0.5,0.5
2023-07-01T11:00:00,1869A,109.1778,21.5233,北海市,北海工业园,,,38,29,10,10,72,72,58,58,5,5,,10,0.4,0.5
2023-07-01T11:00:00,1870A,109.4856,24.3895,柳州市,柳东小学,,36,31,22,25,16,98,82,60,54,6,8,6,6,0.5,0.5
2023-07-01T11:00:00,1871A,109.4157,24.3277,柳州市,环保监测站,,43,43,30,24,15,87,79,50,50,7,9,4,4,0.5,0.5
2023-07-01T11:00:00,1872A,109.389,24.341,柳州市,河西水厂,,44,44,29,18,14,79,78,50,50,10,11,7,6,0.4,0.5
2023-07-01T11:00:00,1873A,109.4311,24.2921,柳州市,市四中,,,31,24,,11,89,74,49,49,6,8,6,6,0.8,0.8
2023-07-01T11:00:00,1874A,109.4006,24.3631,柳州市,市九中,,37,37,32,21,15,88,78,52,52,9,10,6,6,0.7,0.7
2023-07-01T11:00:00,1875A,109.4958,24.3134,柳州市,古亭山,,36,36,20,10,11,92,78,53,49,8,10,3,2,0.4,0.3
2023-07-01T11:00:00,1876A,109.5078,18.2489,三亚市,河东子站,,22,17,17,8,9,72,69,69,52,5,4,3,4,0.3,0.3
2023-07-01T11:00:00,1877A,109.4964,18.2681,三亚市,河西子站,,20,20,18,8,9,69,62,65,46,5,6,3,3,0.3,0.3
2023-07-01T11:00:00,1878A,104.7778,31.4741,绵阳市,富乐山,,39,39,47,26,29,202,103,109,80,10,14,4,4,0.7,0.7
2023-07-01T11:00:00,1879A,104.7563,31.4535,绵阳市,市人大,,48,48,55,30,29,185,85,108,78,19,17,8,8,0.6,0.5
2023-07-01T11:00:00,1880A,104.6697,31.4668,绵阳市,高新区自来水公司,细颗粒物(PM2.5),63,60,55,45,32,190,74,102,74,28,19,7,7,0.8,0.7
2023-07-01T11:00:00,1881A,104.7287,31.5075,绵阳市,三水厂,颗粒物(PM10),57,64,55,36,30,210,84,118,55,18,22,6,6,0.8,0.8
2023-07-01T11:00:00,1882A,104.563,28.793,宜宾市,石马中学,,39,39,32,19,17,101,44,50,25,20,21,5,4,0.5,0.5
2023-07-01T11:00:00,1883A,104.6201,28.7728,宜宾市,市委,,48,48,40,25,20,99,32,20,16,29,25,9,8,0.6,0.6
2023-07-01T11:00:00,1884A,104.6055,28.793,宜宾市,宜宾四中,颗粒物(PM10),52,54,42,32,24,103,35,22,21,33,27,5,4,0.6,0.6
2023-07-01T11:00:00,1885A,104.639,28.7562,宜宾市,市政府,颗粒物(PM10),57,63,40,32,25,105,24,22,15,31,25,8,7,0.7,0.6
2023-07-01T11:00:00,1886A,104.5742,28.7199,宜宾市,黄金嘴,,49,49,36,31,20,91,40,25,16,24,23,8,5,0.7,0.6
2023-07-01T11:00:00,1888A,101.6891,26.571,攀枝花市,弄弄坪,,24,18,28,8,8,94,75,54,54,10,12,8,10,0.5,0.6
2023-07-01T11:00:00,1889A,101.5769,26.5928,攀枝花市,河门口,,36,36,29,16,13,112,79,54,49,18,18,31,23,1.4,1.3
2023-07-01T11:00:00,1890A,101.7169,26.585,攀枝花市,炳草岗,,26,25,30,10,11,106,81,61,57,10,13,3,9,0.7,0.8
2023-07-01T11:00:00,1891A,101.7369,26.5008,攀枝花市,仁和,,24,15,19,13,12,91,75,60,54,6,9,6,8,0.6,0.6
2023-07-01T11:00:00,1893A,105.4324,28.9634,泸州市,九狮山,,35,33,31,24,16,131,47,36,32,20,23,6,6,0.5,0.5
2023-07-01T11:00:00,1894A,105.4427,28.9063,泸州市,小市上码头,颗粒物(PM10),60,70,47,35,25,130,36,77,38,28,18,14,9,0.8,0.7
2023-07-01T11:00:00,1895A,105.4241,28.8573,泸州市,兰田宪桥,"颗粒物(PM10),细颗粒物(PM2.5)",58,65,47,41,26,144,49,55,30,20,16,9,5,0.8,0.8
2023-07-01T11:00:00,1896A,105.4379,28.8833,泸州市,市环监站,颗粒物(PM10),52,54,42,31,21,136,44,68,40,23,16,9,5,0.8,0.7
2023-07-01T11:00:00,1901A,104.4239,31.1208,德阳市,东山公园,颗粒物(PM10),51,51,37,32,23,212,65,88,60,20,16,3,5,0.6,0.5
2023-07-01T11:00:00,1902A,104.3826,31.1317,德阳市,西小区,颗粒物(PM10),61,72,54,32,25,224,66,72,46,28,27,4,3,0.7,0.5
2023-07-01T11:00:00,1904A,104.3553,31.1091,德阳市,耐火材料厂,颗粒物(PM10),55,60,48,35,27,234,68,72,49,28,24,2,2,0.7,0.6
2023-07-01T11:00:00,1905A,106.056,30.8064,南充市,西山风景区,颗粒物(PM10),68,85,81,45,33,132,59,107,68,18,9,7,8,0.6,0.5
2023-07-01T11:00:00,1906A,106.0789,30.8023,南充市,南充市委,颗粒物(PM10),64,78,50,42,30,138,82,114,75,27,16,7,10,0.8,0.6
2023-07-01T11:00:00,1907A,106.1031,30.8217,南充市,南充炼油厂,颗粒物(PM10),57,64,53,32,26,149,100,119,82,20,14,10,9,0.7,0.5
2023-07-01T11:00:00,1908A,106.1064,30.7856,南充市,高坪区监测站,颗粒物(PM10),57,64,50,38,30,139,91,110,73,21,15,10,9,0.6,0.5
2023-07-01T11:00:00,1909A,106.0642,30.7636,南充市,嘉陵区环保局,细颗粒物(PM2.5),67,60,50,48,36,133,95,109,79,23,18,7,9,0.6,0.5
2023-07-01T11:00:00,1910A,106.1087,30.8388,南充市,市环境监测站,颗粒物(PM10),64,78,48,45,33,149,82,118,74,32,19,9,7,0.5,0.4
2023-07-01T11:00:00,1911A,106.9222,27.6869,遵义市,丁字口,,22,17,25,7,11,94,68,32,32,12,20,4,4,0.8,0.8
2023-07-01T11:00:00,1912A,106.9242,27.7019,遵义市,凤凰山,,20,20,20,11,14,87,48,30,26,8,18,6,7,0.4,0.5
2023-07-01T11:00:00,1913A,106.8906,27.6486,遵义市,忠庄,,22,22,34,9,15,95,61,46,30,12,17,2,2,0.7,0.8
2023-07-01T11:00:00,1914A,106.9231,27.6506,遵义市,舟水桥,,22,13,28,15,16,101,60,20,20,7,16,1,1,0.6,0.7
2023-07-01T11:00:00,1915A,106.9178,27.72,遵义市,干田坝,,,16,18,11,10,98,74,24,24,9,16,,5,,0.7
2023-07-01T11:00:00,1916A,103.7897,25.5035,曲靖市,环境监测站,,22,7,23,7,8,104,68,49,44,5,8,8,9,0.4,0.4
2023-07-01T11:00:00,1917A,103.8,25.5364,曲靖市,烟厂办公区,,24,14,24,10,10,112,74,58,51,6,8,4,4,0.4,0.4
2023-07-01T11:00:00,1918A,108.7197,34.3956,咸阳市,气象站,,,,,,,,,,,,,,,,
2023-07-01T11:00:00,1919A,108.673,34.3155,咸阳市,实验中学,颗粒物(PM10),68,86,47,24,22,222,109,77,77,22,22,8,5,0.6,0.5
2023-07-01T11:00:00,1920A,108.7233,34.3617,咸阳市,师范学院,颗粒物(PM10),56,61,48,28,21,214,104,80,80,28,29,8,6,0.7,0.5
2023-07-01T11:00:00,1922A,109.0656,35.0994,铜川市,党校,,36,36,51,18,19,191,115,69,69,13,22,7,7,0.9,0.9
2023-07-01T11:00:00,1923A,109.0697,35.0697,铜川市,王益区政府,,38,38,40,21,22,206,120,54,54,12,23,8,5,0.5,0.5
2023-07-01T11:00:00,1924A,108.9344,34.9058,铜川市,新区管委会,颗粒物(PM10),51,52,42,25,23,222,100,110,84,25,19,11,9,0.7,0.6
2023-07-01T11:00:00,1926A,109.4131,36.6275,延安市,枣园,,43,34,35,14,16,180,137,42,42,21,31,6,6,0.6,0.4
2023-07-01T11:00:00,1927A,109.4761,36.6028,延安市,延大医附院,,48,46,36,22,16,194,151,43,43,24,38,6,4,0.4,0.4
2023-07-01T11:00:00,1929A,109.5056,36.6106,延安市,百米大道,臭氧1小时,64,46,53,19,17,192,171,53,53,25,38,10,10,0.6,0.5
2023-07-01T11:00:00,1930A,107.185,34.3063,宝鸡市,庙沟村,,35,35,46,17,16,170,70,106,78,6,7,7,8,0.3,0.3
2023-07-01T11:00:00,1931A,107.0708,34.3017,宝鸡市,竹园沟,,29,17,28,20,20,209,37,72,50,16,13,4,5,0.4,0.4
2023-07-01T11:00:00,1932A,107.1906,34.3672,宝鸡市,三陆医院,颗粒物(PM10),56,61,56,31,28,210,55,77,53,32,29,12,10,0.7,0.5
2023-07-01T11:00:00,1933A,107.1431,34.3547,宝鸡市,监测站,,40,38,38,28,23,199,62,91,64,22,19,8,8,0.4,0.4
2023-07-01T11:00:00,1934A,107.1186,34.3739,宝鸡市,技工学校,,45,45,42,25,23,203,63,89,69,14,18,4,5,0.5,0.4
2023-07-01T11:00:00,1935A,107.3906,34.3528,宝鸡市,陈仓区环保局家属楼,颗粒物(PM10),61,71,54,39,30,205,61,74,60,36,32,10,8,0.7,0.6
2023-07-01T11:00:00,1936A,107.2058,34.3497,宝鸡市,文理学院,,48,48,42,30,23,202,62,89,66,25,18,8,8,0.6,0.5
2023-07-01T11:00:00,1937A,107.2386,34.3622,宝鸡市,三迪小学,颗粒物(PM10),52,54,49,34,28,204,62,88,64,30,24,6,6,0.5,0.4
2023-07-01T11:00:00,1938A,109.5293,34.5101,渭南市,农科所,颗粒物(PM10),51,51,42,29,27,185,115,67,53,15,24,8,6,0.7,0.7
2023-07-01T11:00:00,1939A,109.4974,34.4877,渭南市,日报社,,46,46,42,28,28,203,122,48,48,17,38,10,7,0.6,0.6
2023-07-01T11:00:00,1940A,109.4636,34.493,渭南市,体育馆,,48,48,44,22,19,206,127,62,45,13,34,9,7,0.5,0.5
2023-07-01T11:00:00,1941A,109.4259,34.5023,渭南市,高新一小,,50,50,56,22,23,195,120,68,64,14,19,6,4,0.6,0.5
2023-07-01T11:00:00,1943A,102.1725,38.5339,金昌市,新川苑,,40,33,66,21,16,154,126,128,120,8,9,7,8,0.5,0.5
2023-07-01T11:00:00,1944A,102.1692,38.5167,金昌市,天庆家园,,42,21,47,9,12,162,133,136,125,4,6,6,7,0.4,0.5
2023-07-01T11:00:00,1945A,98.2908,39.7711,嘉峪关市,气象局,,43,22,34,17,15,139,135,107,99,7,22,7,15,0.2,0.4
2023-07-01T11:00:00,1947A,106.3394,38.817,石嘴山市,沙湖旅游区,臭氧1小时,72,42,49,15,13,203,177,129,129,12,13,19,17,0.6,0.5
2023-07-01T11:00:00,1948A,106.3668,39.0145,石嘴山市,大武口朝阳西街,臭氧1小时,88,57,52,27,14,205,190,140,140,14,16,21,15,0.7,0.3
2023-07-01T11:00:00,1949A,106.7704,39.2282,石嘴山市,惠农南大街,颗粒物(PM10),53,55,53,19,18,235,149,112,85,19,21,16,15,0.4,0.4
2023-07-01T11:00:00,1950A,106.7099,39.1325,石嘴山市,红果子镇惠新街,臭氧1小时,58,53,57,19,19,224,166,129,95,15,20,13,12,0.5,0.3
2023-07-01T11:00:00,1951A,84.895,45.6094,克拉玛依市,长征新村,,27,24,12,9,5,104,85,90,64,17,9,8,8,0.2,0.2
2023-07-01T11:00:00,1952A,84.8988,45.5893,克拉玛依市,南林小区,,31,29,12,15,14,106,97,86,43,12,15,5,4,0.1,0.2
2023-07-01T11:00:00,1954A,84.905,44.3396,克拉玛依市,独山子区,,27,19,12,13,9,138,86,90,77,8,7,5,6,0.3,0.3
2023-07-01T11:00:00,1955A,85.6979,46.098,克拉玛依市,乌尔禾区商贸楼,,,,12,,8,104,,75,33,,7,5,6,,0.3
2023-07-01T11:00:00,1956A,86.1472,41.7538,巴音郭楞州,孔雀公园,,41,41,56,15,15,132,84,121,109,23,7,4,5,0.3,0.2
2023-07-01T11:00:00,1957A,86.1972,41.7166,巴音郭楞州,棉纺厂,颗粒物(PM10),51,52,54,20,19,139,81,116,106,21,7,4,4,0.3,0.2
2023-07-01T11:00:00,1958A,86.2357,41.7173,巴音郭楞州,经济开发区,,35,9,35,24,16,136,101,121,113,10,5,4,4,0.4,0.2
2023-07-01T11:00:00,1961A,117.532,36.6868,济南市,东山小学,臭氧1小时,93,42,34,27,14,219,194,152,152,12,17,8,7,0.5,0.4
2023-07-01T11:00:00,1966A,120.0405,35.8735,青岛市,黄岛区4号,,40,22,27,24,22,169,128,108,92,5,10,6,6,0.6,0.5
2023-07-01T11:00:00,1982A,122.0693,37.2174,威海市,文登开发区,,39,22,26,7,15,158,123,119,106,9,9,6,6,0.2,0.3
2023-07-01T11:00:00,2031A,113.1817,27.9958,株洲市,云田中学,,37,37,37,24,25,123,110,50,50,11,12,10,7,0.6,0.4
2023-07-01T11:00:00,2054A,114.1099,32.1059,信阳市,平桥分局,,39,13,27,17,15,173,123,68,68,12,20,8,8,0.5,0.5
2023-07-01T11:00:00,2064A,113.9956,32.1271,信阳市,南湾水厂,,34,29,32,19,17,166,107,70,66,4,6,7,7,0.6,0.7
2023-07-01T11:00:00,2065A,114.0775,32.1195,信阳市,市酿酒公司,,38,22,25,24,20,177,121,69,69,6,14,7,7,0.5,0.5
2023-07-01T11:00:00,2066A,114.0609,32.1399,信阳市,审计局,,41,37,31,18,20,172,129,105,83,9,14,7,7,0.6,0.6
2023-07-01T11:00:00,2067A,114.6613,33.6128,周口市,市环境监测站,臭氧1小时,93,61,59,25,26,238,194,133,125,8,18,4,5,0.6,0.6
2023-07-01T11:00:00,2068A,114.6758,33.6347,周口市,周口师范,臭氧1小时,87,31,44,19,20,233,189,134,128,6,14,4,4,0.5,0.5
2023-07-01T11:00:00,2069A,114.6546,33.5979,周口市,市运管处,臭氧1小时,100,21,37,19,20,243,200,126,125,8,15,5,5,0.6,0.6
2023-07-01T11:00:00,2070A,114.6369,33.6406,周口市,川汇区环保局,臭氧1小时,89,49,46,17,15,218,191,132,129,5,14,3,4,0.5,0.5
2023-07-01T11:00:00,2075A,117.6336,24.4674,漳州市,九湖,,,,,,,,,,,,,,,,
2023-07-01T11:00:00,2160A,112.85,35.5051,晋城市,自来水公司,臭氧1小时,106,27,37,7,19,257,211,117,117,10,27,8,9,0.7,0.9
2023-07-01T11:00:00,2161A,112.8318,35.4936,晋城市,白云商贸,臭氧1小时,103,34,46,5,16,250,205,120,120,12,24,8,9,0.5,0.8
2023-07-01T11:00:00,2162A,112.8508,35.4887,晋城市,市环保局,臭氧1小时,89,35,43,17,19,228,191,93,93,12,31,8,9,0.7,0.9
2023-07-01T11:00:00,2163A,112.8676,35.4897,晋城市,技术学院,臭氧1小时,101,29,53,9,15,241,201,114,108,11,27,8,9,0.7,0.9
2023-07-01T11:00:00,2165A,112.8453,35.546,晋城市,白马寺,臭氧1小时,94,25,33,15,21,237,195,190,154,11,14,6,7,0.6,0.8
2023-07-01T11:00:00,2166A,112.4397,39.3522,朔州市,平朔,臭氧1小时,63,48,58,23,21,170,170,61,61,14,31,7,11,0.4,0.3
2023-07-01T11:00:00,2167A,112.4575,39.3617,朔州市,朔唯,臭氧1小时,75,56,82,25,25,180,180,52,52,15,36,12,16,0.5,0.5
2023-07-01T11:00:00,2168A,112.4258,39.3197,朔州市,区政府,臭氧1小时,72,53,53,28,19,177,177,85,85,9,22,6,10,0.4,0.4
2023-07-01T11:00:00,2169A,112.4072,39.3278,朔州市,市环保局,臭氧1小时,77,53,51,24,20,181,181,98,98,14,22,9,10,0.6,0.4
2023-07-01T11:00:00,2170A,112.4272,39.3681,朔州市,市二中,,,,,,,,,,,,,,,,
2023-07-01T11:00:00,2171A,112.7532,37.6945,晋中市,锦纶小区,臭氧1小时,108,52,49,20,19,251,216,115,115,18,26,16,12,0.7,0.6
2023-07-01T11:00:00,2173A,112.7249,37.7067,晋中市,南都小区,臭氧1小时,104,73,60,26,26,242,207,110,110,18,28,16,9,0.6,0.5
2023-07-01T11:00:00,2174A,112.6991,37.6982,晋中市,榆次区政府,臭氧1小时,102,67,52,25,23,236,204,124,109,18,27,16,12,0.7,0.6
2023-07-01T11:00:00,2175A,110.9956,35.0147,运城市,运城中学,,45,35,36,9,17,170,144,141,131,7,8,6,6,0.5,0.5
2023-07-01T11:00:00,2178A,110.9686,35.0303,运城市,地区技校,,,,32,12,19,175,,148,137,,6,,5,,0.5
2023-07-01T11:00:00,2179A,111.0414,35.1147,运城市,空港新区,臭氧1小时,53,47,48,16,22,192,162,138,108,6,12,8,8,0.5,0.6
2023-07-01T11:00:00,2181A,112.7383,38.4519,忻州市,开发区,颗粒物(PM10),51,51,49,22,22,233,160,85,79,21,38,14,12,0.6,0.5
2023-07-01T11:00:00,2182A,112.7003,38.4928,忻州市,会展中心,,50,50,51,28,21,229,128,54,54,24,46,13,10,0.7,0.4
2023-07-01T11:00:00,2183A,111.1406,37.5211,吕梁市,环保局,颗粒物(PM10),69,88,58,11,15,226,145,70,69,22,36,22,14,0.7,0.6
2023-07-01T11:00:00,2185A,111.1297,37.5136,吕梁市,自来水公司,颗粒物(PM10),69,88,81,18,15,216,147,58,58,19,33,18,15,0.7,0.6
2023-07-01T11:00:00,2187A,106.8174,39.6973,乌海市,市林业局,颗粒物(PM10),137,223,66,60,19,191,127,156,102,15,16,22,22,0.7,0.7
2023-07-01T11:00:00,2188A,106.7907,39.6667,乌海市,中海勃湾学校,颗粒物(PM10),115,180,59,32,20,216,127,151,103,17,16,26,23,0.8,0.5
2023-07-01T11:00:00,2191A,122.2532,43.6801,通辽市,艺术职业学校,,35,25,43,2,16,196,109,152,89,10,18,5,6,0.2,0.4
2023-07-01T11:00:00,2192A,119.7594,49.2261,呼伦贝尔市,区环保局,,32,25,31,17,19,100,100,52,52,14,22,7,5,0.2,0.3
2023-07-01T11:00:00,2195A,107.4212,40.761,巴彦淖尔市,附二中,颗粒物(PM10),66,81,61,17,20,192,132,136,104,16,16,8,7,0.6,0.6
2023-07-01T11:00:00,2196A,107.37,40.7372,巴彦淖尔市,市环保大楼,颗粒物(PM10),59,67,54,19,19,186,118,140,105,21,16,6,7,0.5,0.5
2023-07-01T11:00:00,2197A,113.1306,40.9923,乌兰察布市,集宁新区,臭氧1小时,63,36,34,14,14,170,170,106,91,5,19,13,14,0.3,0.3
2023-07-01T11:00:00,2200A,122.0392,46.0656,兴安盟,胜华新制药厂,,35,13,18,6,13,117,112,109,86,6,13,3,7,0.1,0.6
2023-07-01T11:00:00,2201A,121.9504,46.0741,兴安盟,科右前旗环保局,,36,21,18,12,10,130,113,101,82,2,5,2,3,0.0,0.1
2023-07-01T11:00:00,2202A,116.1042,43.9317,锡林郭勒盟,市环保监测站,,33,12,18,2,4,116,105,78,78,3,4,9,9,0.2,0.2
2023-07-01T11:00:00,2203A,116.0781,43.9311,锡林郭勒盟,市政府,,33,10,16,6,4,116,105,82,79,4,7,12,11,0.2,0.2
2023-07-01T11:00:00,2204A,105.6467,38.8363,阿拉善盟,西城区西花园,颗粒物(PM10),442,542,64,142,21,196,131,154,133,6,8,7,8,0.4,0.4
2023-07-01T11:00:00,2205A,105.6985,38.8411,阿拉善盟,蒙二幼,颗粒物(PM10),180,309,60,103,21,198,138,151,138,5,8,9,10,0.3,0.3
2023-07-01T11:00:00,2206A,105.724,38.8516,阿拉善盟,环保局新楼,颗粒物(PM10),79,107,32,27,16,209,143,169,144,5,7,9,11,0.4,0.5
2023-07-01T11:00:00,2207A,121.6094,41.998,阜新市,工业园区,,,28,43,,14,194,106,88,83,12,20,2,11,0.5,0.8
2023-07-01T11:00:00,2208A,121.6697,42.0279,阜新市,长青街,,35,24,35,3,17,206,111,102,98,7,15,8,18,0.4,0.7
2023-07-01T11:00:00,2209A,121.6673,42.0705,阜新市,农业园区,,35,20,35,3,18,204,110,120,101,6,12,7,12,0.3,0.8
2023-07-01T11:00:00,2210A,121.6717,42.0224,阜新市,东苑,,35,22,37,1,20,191,111,100,98,5,12,7,19,0.5,0.7
2023-07-01T11:00:00,2211A,121.6506,42.0498,阜新市,玉龙新城,,38,18,37,1,12,213,121,114,98,6,14,4,8,0.4,0.7
2023-07-01T11:00:00,2212A,123.2,41.1953,辽阳市,宏伟区,颗粒物(PM10),60,69,32,22,9,172,154,125,125,16,14,10,7,0.9,0.6
2023-07-01T11:00:00,2213A,123.1683,41.2495,辽阳市,新华园,臭氧1小时,65,74,45,21,12,189,172,136,136,19,17,12,7,1.4,0.8
2023-07-01T11:00:00,2214A,123.2354,41.2639,辽阳市,滨河路,臭氧1小时,65,65,42,28,16,184,172,123,123,23,19,14,13,1.5,0.8
2023-07-01T11:00:00,2215A,123.149,41.2991,辽阳市,铁西工业园,臭氧1小时,70,53,47,21,19,192,176,142,142,15,23,14,13,1.3,1.2
2023-07-01T11:00:00,2216A,123.8139,42.3022,铁岭市,汇工街西,,46,43,44,22,15,212,147,116,116,9,18,8,10,0.5,0.7
2023-07-01T11:00:00,2217A,123.8649,42.2923,铁岭市,水上乐园,颗粒物(PM10),52,54,38,22,19,218,141,118,118,14,25,8,8,0.6,0.7
2023-07-01T11:00:00,2218A,123.8486,42.2867,铁岭市,银州路东段,颗粒物(PM10),56,61,33,25,12,204,137,115,115,20,22,7,8,0.6,0.7
2023-07-01T11:00:00,2219A,123.7153,42.2217,铁岭市,金沙江路北,,43,42,43,22,16,200,137,105,105,13,28,8,9,0.5,0.8
2023-07-01T11:00:00,2220A,120.4318,41.5881,朝阳市,西梁,,38,17,38,4,19,256,120,234,141,7,14,10,13,0.5,0.9
2023-07-01T11:00:00,2221A,120.4521,41.5646,朝阳市,河畔小区,,40,12,35,7,15,245,126,232,160,5,10,8,9,0.4,0.8
2023-07-01T11:00:00,2222A,120.4176,41.5648,朝阳市,八里堡,,41,21,45,5,17,245,130,230,158,8,15,8,9,0.5,0.9
2023-07-01T11:00:00,2223A,120.3806,41.5969,朝阳市,农业园区,,40,18,41,5,20,238,126,235,144,7,14,8,9,0.4,0.7
2023-07-01T11:00:00,2225A,124.4002,43.1713,四平市,一商场,,35,31,42,20,24,192,109,107,92,10,24,7,9,0.3,0.6
2023-07-01T11:00:00,2226A,124.388,43.193,四平市,境园,,31,29,34,9,20,200,98,98,88,18,22,9,10,0.6,0.6
2023-07-01T11:00:00,2227A,125.1358,42.8845,辽源市,环保局,,49,24,24,17,15,184,155,103,103,7,28,7,7,1.0,1
2023-07-01T11:00:00,2229A,125.9358,41.7173,通化市,光明,,50,35,34,11,17,157,157,75,75,7,17,8,10,0.1,0.3
2023-07-01T11:00:00,2230A,125.9446,41.7325,通化市,铁路,,47,37,33,24,19,150,150,72,72,14,24,3,5,0.3,0.4
2023-07-01T11:00:00,2231A,126.4219,41.9171,白山市,喜丰,,,,,,,,,,,,,,,,
2023-07-01T11:00:00,2232A,126.4077,41.9419,白山市,环保局,臭氧1小时,59,36,46,12,17,167,167,59,59,7,21,9,8,0.7,0.7
2023-07-01T11:00:00,2233A,124.8006,45.1214,松原市,江南,,42,14,19,4,8,145,133,114,114,3,10,4,6,0.4,0.4
2023-07-01T11:00:00,2234A,124.7965,45.1722,松原市,江北,,43,15,14,8,10,144,135,116,116,8,14,3,3,0.3,0.4
2023-07-01T11:00:00,2235A,122.7911,45.6077,白城市,洮北区环保局,,39,12,15,7,4,156,122,126,106,8,10,6,4,0.1,0.1
2023-07-01T11:00:00,2236A,122.8738,45.5725,白城市,市环保局,,,,,,,,,,,,,,,,
2023-07-01T11:00:00,2237A,129.47,42.8883,延边朝鲜族自治州,妇幼医院,,21,21,18,7,7,131,56,40,40,9,11,7,8,0.6,0.6
2023-07-01T11:00:00,2238A,129.5055,42.9108,延边朝鲜族自治州,延边医院,,18,15,16,8,8,143,57,44,44,9,10,8,8,0.6,0.6
2023-07-01T11:00:00,2239A,129.3964,42.8881,延边朝鲜族自治州,朝阳川镇医院,,21,9,15,6,5,135,65,44,44,6,10,8,7,0.6,0.6
2023-07-01T11:00:00,2240A,130.9762,45.3001,鸡西市,环保局,,28,28,30,11,15,109,88,40,40,16,26,5,4,0.4,0.6
2023-07-01T11:00:00,2243A,130.9429,45.3039,鸡西市,第一中学,,31,12,22,8,13,137,99,48,48,13,17,5,5,0.3,0.3
2023-07-01T11:00:00,2244A,130.2537,47.3416,鹤岗市,哈啤分公司,,29,7,9,6,8,108,90,88,88,8,8,11,10,0.3,0.3
2023-07-01T11:00:00,2245A,130.2684,47.3086,鹤岗市,斯达机电,,28,7,12,4,8,106,88,89,89,6,10,8,8,0.3,0.4
2023-07-01T11:00:00,2246A,130.3114,47.3388,鹤岗市,东山纸板厂,,29,22,14,11,8,105,92,91,90,10,11,8,9,0.3,0.4
2023-07-01T11:00:00,2247A,130.1097,47.3382,鹤岗市,五号水库,,27,6,7,4,6,114,86,80,80,6,6,9,8,0.2,0.2
2023-07-01T11:00:00,2248A,131.1511,46.6937,双鸭山市,双合村,,31,28,29,17,13,120,98,73,73,8,13,8,9,0.2,0.4
2023-07-01T11:00:00,2249A,131.1652,46.6191,双鸭山市,南小市,,36,36,27,18,14,129,78,62,62,6,10,4,4,0.3,0.5
2023-07-01T11:00:00,2250A,131.1524,46.6554,双鸭山市,环保局,,26,15,27,9,13,116,82,54,54,10,18,9,9,0.3,0.8
2023-07-01T11:00:00,2251A,131.12,46.5656,双鸭山市,苗圃,,,,15,,5,106,84,61,61,6,9,3,4,0.4,0.7
2023-07-01T11:00:00,2252A,128.5159,47.4311,伊春市,环保局,,22,11,11,9,4,106,68,38,38,11,13,8,6,0.6,0.6
2023-07-01T11:00:00,2253A,128.9102,47.7412,伊春市,电力嘉园,,23,7,11,15,9,111,72,42,42,8,9,7,6,0.3,0.3
2023-07-01T11:00:00,2254A,129.5029,48.471,伊春市,汤旺河国家公园,,30,24,26,14,14,96,96,50,50,2,2,12,12,0,0.3
2023-07-01T11:00:00,2255A,130.2751,46.8028,佳木斯市,佳纺,,30,19,25,16,14,115,96,75,75,15,23,10,9,0.4,0.4
2023-07-01T11:00:00,2256A,130.3995,46.8307,佳木斯市,发电厂,,32,26,18,14,10,118,102,90,90,11,10,20,11,0.5,0.5
2023-07-01T11:00:00,2257A,130.3258,46.7975,佳木斯市,环保局,,30,30,26,20,13,103,89,79,79,20,21,7,6,0.5,0.5
2023-07-01T11:00:00,2258A,130.3648,46.8032,佳木斯市,十一中,,30,20,21,14,16,115,94,74,74,12,14,9,9,0.4,0.4
2023-07-01T11:00:00,2259A,130.3794,46.7588,佳木斯市,四丰,,40,15,16,10,12,172,128,91,91,7,17,1,9,0.4,0.4
2023-07-01T11:00:00,2262A,131.0518,45.8751,七台河市,新一中,,44,44,28,30,19,153,97,73,73,9,9,8,8,0.8,0.8
2023-07-01T11:00:00,2263A,127.4833,50.2524,黑河市,交通局,,25,5,7,6,8,142,78,84,42,7,9,6,6,0.6,0.5
2023-07-01T11:00:00,2264A,127.5144,50.2341,黑河市,环保局,,26,14,16,3,6,140,82,94,45,6,7,3,3,0.4,0.4
2023-07-01T11:00:00,2265A,127.5291,50.2472,黑河市,大黑河岛,,30,3,7,3,5,162,93,104,48,2,2,2,3,0.4,0.4
2023-07-01T11:00:00,2266A,126.9785,46.6365,绥化市,人和东街,,32,19,21,7,7,136,100,110,110,22,25,11,9,0.2,0.2
2023-07-01T11:00:00,2267A,126.964,46.6528,绥化市,党政办公中心,,35,16,16,10,5,138,109,114,114,18,24,9,8,0.4,0.3
2023-07-01T11:00:00,2269A,124.1069,50.4097,大兴安岭地区,科技局,,,5,10,,9,123,79,42,42,3,5,3,3,,0.1
2023-07-01T11:00:00,2270A,117.396,32.939,蚌埠市,工人疗养院,颗粒物(PM10),57,64,53,33,28,153,144,74,74,13,12,10,9,0.4,0.4
2023-07-01T11:00:00,2271A,117.3605,32.9427,蚌埠市,百货大楼,颗粒物(PM10),54,58,48,33,28,161,147,80,80,14,10,6,6,0.5,0.5
2023-07-01T11:00:00,2273A,117.4185,32.8911,蚌埠市,蚌埠学院,,46,46,44,32,32,144,132,69,69,14,13,9,8,0.4,0.4
2023-07-01T11:00:00,2274A,117.3533,32.9673,蚌埠市,淮上区政府,细颗粒物(PM2.5),55,51,44,39,32,155,151,65,65,10,18,6,7,0.4,0.5
2023-07-01T11:00:00,2275A,117.3145,32.8977,蚌埠市,高新区,,50,39,50,28,28,161,159,79,79,4,13,7,9,0.4,0.5
2023-07-01T11:00:00,2277A,116.8305,32.7727,淮南市,潘集区政府,,46,36,36,25,23,154,146,92,78,5,11,4,4,0.4,0.4
2023-07-01T11:00:00,2278A,117.0067,32.6524,淮南市,师范学院,,,,44,,24,163,139,84,79,2,6,,10,,0.4
2023-07-01T11:00:00,2279A,116.8569,32.5951,淮南市,谢家集区政府,,47,30,29,20,16,177,150,84,84,11,14,5,5,0.3,0.3
2023-07-01T11:00:00,2280A,116.8281,32.633,淮南市,八公山区政府,细颗粒物(PM2.5),53,51,43,37,31,171,152,115,87,7,8,7,6,0.4,0.3
2023-07-01T11:00:00,2281A,116.6325,32.6201,淮南市,焦岗湖风景区管理处,,42,26,35,12,22,161,133,72,65,7,11,5,5,0.4,0.3
2023-07-01T11:00:00,2282A,116.8004,33.975,淮北市,监测站,臭氧1小时,57,40,43,31,26,185,165,101,101,10,17,4,5,0.5,0.5
2023-07-01T11:00:00,2283A,116.8091,33.9007,淮北市,烈山区政府,臭氧1小时,73,35,47,38,37,209,178,95,95,8,18,6,8,0.5,0.6
2023-07-01T11:00:00,2285A,117.8177,30.9412,铜陵市,市第四中学,颗粒物(PM10),53,55,28,31,18,84,84,63,63,11,16,5,5,0.7,0.5
2023-07-01T11:00:00,2286A,117.8059,30.9273,铜陵市,市公路局,颗粒物(PM10),54,58,30,36,17,85,85,67,67,17,18,4,4,1.0,0.6
2023-07-01T11:00:00,2287A,117.7807,30.9413,铜陵市,市新民污水厂,颗粒物(PM10),58,66,32,34,13,91,91,65,60,23,18,12,7,1.1,0.6
2023-07-01T11:00:00,2288A,117.7439,30.8792,铜陵市,市第九中学,,40,40,38,13,15,86,83,68,48,20,26,7,7,0.8,1.1
2023-07-01T11:00:00,2289A,117.846,30.9413,铜陵市,车站新区,,34,34,32,12,9,86,86,62,62,7,18,1,2,0.6,0.5
2023-07-01T11:00:00,2290A,117.8483,30.97,铜陵市,市职教基地,,29,29,21,12,9,81,81,58,58,9,12,4,3,0.8,0.7
2023-07-01T11:00:00,2291A,117.0809,30.5177,安庆市,环科院,,36,19,13,25,16,88,85,63,58,22,13,10,8,0.8,0.5
2023-07-01T11:00:00,2292A,117.0331,30.5119,安庆市,马山宾馆,,30,24,15,21,12,86,83,64,62,26,13,7,5,0.9,0.5
2023-07-01T11:00:00,2294A,116.9896,30.6145,安庆市,安庆大学,,32,14,14,14,10,101,101,57,57,13,10,10,8,0.8,0.4
2023-07-01T11:00:00,2295A,118.2903,29.6963,黄山市,延安路89号,,17,16,29,1,5,66,53,27,27,6,5,5,5,0.3,0.3
2023-07-01T11:00:00,2296A,118.327,29.7178,黄山市,黄山东路89号,,,,27,,6,60,56,30,30,4,6,4,5,0.3,0.3
2023-07-01T11:00:00,2297A,118.1371,30.2756,黄山市,黄山区政府5号楼,,,,23,6,8,54,54,23,23,4,6,6,6,0.5,0.6
2023-07-01T11:00:00,2298A,118.3093,32.3153,滁州市,老年大学,,49,43,27,34,18,146,146,59,59,18,11,10,6,0.4,0.4
2023-07-01T11:00:00,2299A,118.3244,32.2786,滁州市,人大宾馆,细颗粒物(PM2.5),72,41,23,52,24,162,162,74,74,18,11,8,6,0.4,0.3
2023-07-01T11:00:00,2301A,115.8277,32.8929,阜阳市,市监测站,,50,32,30,22,18,193,158,93,80,9,19,8,8,0.6,0.6
2023-07-01T11:00:00,2303A,115.8554,32.8605,阜阳市,开发区,,49,35,34,4,10,189,155,96,71,7,17,5,5,0.5,0.5
2023-07-01T11:00:00,2307A,116.5079,31.737,六安市,监测大楼,,32,21,19,20,9,121,100,62,54,2,7,2,2,0.2,0.2
2023-07-01T11:00:00,2308A,116.4738,31.7643,六安市,皖西学院,,35,35,25,12,8,129,110,71,68,6,10,6,5,0.3,0.3
2023-07-01T11:00:00,2309A,116.4996,31.7905,六安市,朝阳厂,,40,40,18,12,10,148,107,79,63,5,9,7,6,0.5,0.5
2023-07-01T11:00:00,2310A,116.5567,31.7886,六安市,开发区,,45,45,29,26,18,124,98,50,50,5,8,12,8,0.2,0.4
2023-07-01T11:00:00,2311A,115.8072,33.8399,亳州市,污水处理厂,臭氧1小时,60,34,41,20,23,179,168,92,90,4,13,8,7,0.6,0.5
2023-07-01T11:00:00,2312A,115.7789,33.8518,亳州市,三国揽胜宫,,,36,30,18,18,175,165,124,107,6,8,,4,0.5,0.7
2023-07-01T11:00:00,2314A,117.47,30.6618,池州市,池州学院,,33,28,22,23,18,78,78,51,48,8,12,7,5,0.8,0.7
2023-07-01T11:00:00,2316A,118.7581,30.9454,宣城市,鳌峰子站,,27,15,11,13,8,87,84,66,66,12,14,4,4,0.6,0.5
2023-07-01T11:00:00,2317A,118.7385,30.9743,宣城市,敬亭山子站,,26,22,14,14,8,86,83,46,46,12,15,5,5,0.5,0.5
2023-07-01T11:00:00,2318A,118.7173,30.9427,宣城市,开发区子站,,27,13,8,7,8,91,84,61,61,6,14,5,5,0.5,0.4
2023-07-01T11:00:00,2319A,119.0141,25.4325,莆田市,荔城区仓后路,,15,15,23,4,8,87,46,27,27,8,10,7,7,0.6,0.6
2023-07-01T11:00:00,2320A,119.0015,25.4553,莆田市,莆田市监测站,,,,23,0,6,88,47,27,27,2,5,6,7,0.7,0.7
2023-07-01T11:00:00,2321A,119.1119,25.4561,莆田市,涵江区六中,,17,17,22,0,7,92,44,23,23,1,8,6,8,0.6,0.6
2023-07-01T11:00:00,2322A,119.1013,25.3215,莆田市,秀屿区政府,,15,10,18,4,8,84,46,32,28,4,6,14,12,0.6,0.6
2023-07-01T11:00:00,2323A,118.981,25.4792,莆田市,东圳水库,,,,,,,,,,,,,,,,
2023-07-01T11:00:00,2324A,117.6211,26.2625,三明市,三钢,,30,28,23,21,14,92,79,30,30,12,15,14,14,1.1,1
2023-07-01T11:00:00,2325A,117.635,26.2714,三明市,三明二中,,38,38,20,16,11,95,71,29,29,18,17,13,7,1.0,0.8
2023-07-01T11:00:00,2326A,117.6028,26.2378,三明市,三元区政府,,42,20,23,29,23,98,73,28,28,12,16,15,12,0.6,0.6
2023-07-01T11:00:00,2327A,117.7275,26.3108,三明市,洋溪,,,,,,,,,,,,,,,,
2023-07-01T11:00:00,2331A,118.0966,26.6761,南平市,茫荡山,,,,,,,,,,,,,,,,
2023-07-01T11:00:00,2332A,118.1681,26.6369,南平市,南平市监测站,,26,26,15,14,5,82,66,27,27,6,10,4,5,0.4,0.5
2023-07-01T11:00:00,2333A,118.1825,26.6489,南平市,南平铝业有限公司,,22,22,16,14,8,78,64,26,26,6,12,5,8,0.5,0.6
2023-07-01T11:00:00,2334A,118.1756,26.6272,南平市,南平七中,,27,27,15,12,7,82,64,25,25,3,5,5,5,0.5,0.5
2023-07-01T11:00:00,2335A,117.0189,25.1181,龙岩市,龙岩师专,,,,,,,,,,,,,,,,
2023-07-01T11:00:00,2336A,117.0217,25.1033,龙岩市,龙岩市监测站,,,39,21,6,9,61,58,22,22,,15,,6,0.4,0.5
2023-07-01T11:00:00,2337A,117.0258,25.0661,龙岩市,闽西职业技术学院,,17,17,18,7,6,59,49,22,22,7,10,8,7,0.3,0.4
2023-07-01T11:00:00,2338A,117.0196,25.0306,龙岩市,龙岩学院,,19,19,14,4,5,56,48,24,24,3,6,6,6,0.5,0.4
2023-07-01T11:00:00,2339A,119.5001,26.6946,宁德市,金涵水库,,,,,,,,,,,,,,,,
2023-07-01T11:00:00,2341A,119.5388,26.6612,宁德市,宁德市监测站,,17,12,16,11,10,57,52,37,34,2,5,7,7,0.4,0.5
2023-07-01T11:00:00,2342A,117.3102,29.3867,景德镇市,王港中学,,23,14,19,9,12,85,72,59,59,5,5,3,3,0.3,0.3
2023-07-01T11:00:00,2343A,117.2117,29.2933,景德镇市,老干部活动中心,,36,20,23,25,21,64,64,40,40,12,15,7,7,0.4,0.4
2023-07-01T11:00:00,2344A,117.1894,29.2789,景德镇市,兽医站,,22,22,23,15,20,65,65,43,43,10,15,18,13,0.6,0.4
2023-07-01T11:00:00,2345A,117.1547,29.2617,景德镇市,台达陶瓷,,37,37,31,19,18,64,64,43,43,16,20,16,25,0.5,0.4
2023-07-01T11:00:00,2346A,117.2461,29.2956,景德镇市,陶研所,,23,23,26,5,9,69,60,49,42,4,6,10,6,0.2,0.2
2023-07-01T11:00:00,2347A,114.0997,27.5002,萍乡市,武功山,,20,6,11,10,9,76,64,36,33,5,6,17,18,0.2,0.2
2023-07-01T11:00:00,2348A,113.8385,27.6434,萍乡市,中医院,,49,36,29,34,23,91,72,40,40,18,9,11,9,0.7,0.5
2023-07-01T11:00:00,2349A,113.8493,27.6253,萍乡市,市政府车库,,44,44,33,24,21,99,99,45,45,10,12,14,11,0.7,0.5
2023-07-01T11:00:00,2350A,113.8676,27.6435,萍乡市,市环保局,颗粒物(PM10),53,56,32,29,24,92,92,44,44,12,12,16,13,1.0,0.5
2023-07-01T11:00:00,2351A,113.866,27.6198,萍乡市,安源区政府,颗粒物(PM10),51,52,32,27,20,87,87,35,35,13,14,19,18,1.1,0.7
2023-07-01T11:00:00,2352A,115.0861,27.9317,新余市,北岗,,30,28,19,21,13,77,72,30,30,6,7,11,8,0.6,0.7
2023-07-01T11:00:00,2353A,114.9886,27.8431,新余市,飞宇,,44,44,37,20,17,93,77,36,36,6,13,6,7,0.5,0.7
2023-07-01T11:00:00,2354A,114.9231,27.8246,新余市,第二水厂,颗粒物(PM10),51,52,43,20,21,66,65,28,28,13,19,6,8,0.7,0.8
2023-07-01T11:00:00,2355A,114.9308,27.8036,新余市,市气象局,,,36,37,26,22,67,67,32,32,,15,5,8,0.8,1.3
2023-07-01T11:00:00,2357A,116.9822,28.1136,鹰潭市,龙虎山,,23,23,18,12,14,67,60,39,39,1,4,3,2,0.7,0.7
2023-07-01T11:00:00,2358A,117.0564,28.2642,鹰潭市,新监测站,,21,21,32,9,16,61,60,34,32,3,11,5,5,0.2,0.4
2023-07-01T11:00:00,2359A,117.0311,28.2475,鹰潭市,财苑宾馆,,20,19,29,2,15,64,64,36,36,2,13,5,6,0.2,0.4
2023-07-01T11:00:00,2360A,117.0222,28.2264,鹰潭市,体育馆,,38,38,34,8,16,62,62,38,38,4,14,2,2,0.4,0.6
2023-07-01T11:00:00,2361A,117.0017,28.2131,鹰潭市,三川水表,,21,14,27,3,9,67,67,40,40,1,10,2,2,0.1,0.5
2023-07-01T11:00:00,2362A,114.9017,25.9149,赣州市,通天岩,,,,,,,,,,,,,,,,
2023-07-01T11:00:00,2363A,114.9367,25.8664,赣州市,地委,,,,,,,,,,,,,,,,
2023-07-01T11:00:00,2364A,114.9461,25.8481,赣州市,气象台,颗粒物(PM10),72,93,26,7,11,100,96,74,74,5,4,5,6,0.5,0.6
2023-07-01T11:00:00,2365A,114.9322,25.8333,赣州市,市图书馆,颗粒物(PM10),54,58,32,20,16,108,108,77,77,9,9,5,7,1.2,1.3
2023-07-01T11:00:00,2366A,114.8905,25.8471,赣州市,华坚鞋城,,,35,30,13,14,109,109,75,75,,9,,7,0.6,0.8
2023-07-01T11:00:00,2367A,114.9754,27.0803,吉安市,红声器材厂,,41,41,44,18,24,104,89,52,52,6,10,9,7,0.7,0.7
2023-07-01T11:00:00,2368A,114.9658,27.0999,吉安市,市森林工业局,,31,31,39,18,22,101,86,50,50,4,8,7,7,0.6,0.6
2023-07-01T11:00:00,2369A,114.99,27.1312,吉安市,市环境监测站,,35,35,39,21,21,110,90,54,54,7,12,9,10,0.8,0.8
2023-07-01T11:00:00,2370A,115.0093,27.0968,吉安市,青原区法院,,36,36,37,16,23,106,89,58,58,6,10,10,10,0.5,0.5
2023-07-01T11:00:00,2371A,114.3408,27.8064,宜春市,槟榔水业,,33,33,34,19,19,92,81,34,33,7,9,1,2,0.8,0.8
2023-07-01T11:00:00,2373A,114.3956,27.7844,宜春市,市石油公司,,46,46,43,24,21,108,103,40,40,10,14,7,3,0.4,0.4
2023-07-01T11:00:00,2374A,114.3703,27.7914,宜春市,市气象局,,46,46,37,24,22,97,89,36,36,14,16,5,3,0.8,0.7
2023-07-01T11:00:00,2375A,114.4013,27.8074,宜春市,市广电局,,45,39,38,31,28,109,96,54,53,8,11,7,7,1.0,0.9
2023-07-01T11:00:00,2376A,116.2127,28.0814,抚州市,桐源党溪,,28,24,26,11,16,87,87,41,41,2,3,4,3,0.4,0.5
2023-07-01T11:00:00,2377A,116.3544,27.9831,抚州市,市站,,26,26,32,15,19,81,81,59,54,3,8,3,2,1.0,1.1
2023-07-01T11:00:00,2378A,116.3565,27.963,抚州市,血防站,颗粒物(PM10),53,56,35,12,16,70,70,52,50,5,9,2,2,0.7,0.9
2023-07-01T11:00:00,2379A,116.3564,28.0007,抚州市,采茶剧团,,22,21,34,12,21,69,69,50,50,5,10,5,5,0.5,0.7
2023-07-01T11:00:00,2380A,116.385,27.9647,抚州市,医学分院,,25,25,32,11,16,71,71,48,48,4,10,4,4,0.9,1
2023-07-01T11:00:00,2381A,118.005,28.4572,上饶市,百草园,,36,36,28,17,16,59,24,11,8,10,12,3,4,0.6,0.6
2023-07-01T11:00:00,2382A,117.9756,28.4436,上饶市,市监测站,,37,37,35,20,17,72,24,17,16,14,16,7,9,0.6,0.6
2023-07-01T11:00:00,2383A,117.9519,28.4628,上饶市,凤凰光学,颗粒物(PM10),53,56,43,30,19,77,27,10,10,24,23,14,18,0.6,0.6
2023-07-01T11:00:00,2385A,114.17,35.9019,鹤壁市,市监测站,臭氧1小时,90,52,55,27,28,234,192,131,103,20,23,11,8,0.5,0.6
2023-07-01T11:00:00,2386A,114.2956,35.7511,鹤壁市,市交警支队,臭氧1小时,80,65,61,38,24,226,184,102,102,18,32,17,16,0.6,0.6
2023-07-01T11:00:00,2387A,114.2878,35.7306,鹤壁市,迎宾馆,臭氧1小时,88,59,58,25,30,232,190,104,104,17,28,11,10,0.7,0.7
2023-07-01T11:00:00,2389A,113.836,35.311,新乡市,环保西院,臭氧1小时,103,51,50,23,21,223,206,124,113,13,21,9,10,0.5,0.6
2023-07-01T11:00:00,2390A,113.884,35.272,新乡市,开发区,臭氧1小时,103,45,38,19,20,223,205,145,105,9,16,4,4,0.7,0.7
2023-07-01T11:00:00,2391A,113.883,35.303,新乡市,环保东院,臭氧1小时,101,54,51,16,16,221,202,147,108,11,19,7,9,0.3,0.4
2023-07-01T11:00:00,2392A,115.0312,35.7636,濮阳市,环保局,臭氧1小时,74,52,39,23,20,227,179,160,134,9,16,6,7,0.7,0.6
2023-07-01T11:00:00,2394A,115.0574,35.7609,濮阳市,油田运输公司,臭氧1小时,75,72,39,21,21,220,180,145,132,9,18,9,8,0.5,0.4
2023-07-01T11:00:00,2395A,115.0866,35.7754,濮阳市,油田物探公司,臭氧1小时,80,54,40,23,23,223,184,135,129,8,14,3,4,0.5,0.4
2023-07-01T11:00:00,2396A,113.8276,34.0159,许昌市,监测站,臭氧1小时,99,42,43,16,21,230,199,96,96,6,21,2,4,0.4,0.5
2023-07-01T11:00:00,2398A,113.7906,33.9953,许昌市,开发区,臭氧1小时,93,34,44,20,17,219,194,75,75,6,28,3,4,0.5,0.5
2023-07-01T11:00:00,2399A,114.051,33.5699,漯河市,三五一五工厂,臭氧1小时,93,32,47,17,19,234,194,103,103,3,25,6,8,0.5,0.5
2023-07-01T11:00:00,2400A,114.0055,33.5698,漯河市,漯河大学,臭氧1小时,100,34,34,23,19,237,200,129,129,2,19,4,7,0.3,0.3
2023-07-01T11:00:00,2401A,114.0138,33.5828,漯河市,市水利局,臭氧1小时,92,31,43,19,16,229,193,127,127,4,16,6,8,0.3,0.3
2023-07-01T11:00:00,2402A,114.0261,33.5698,漯河市,市广电局,臭氧1小时,97,29,38,16,16,234,197,115,115,5,20,5,8,0.5,0.5
2023-07-01T11:00:00,2404A,112.5224,33.0122,南阳市,瓦房庄,,50,38,37,13,12,180,157,80,80,20,29,6,7,0.4,0.5
2023-07-01T11:00:00,2405A,112.5003,32.9735,南阳市,汉画馆,,45,41,35,26,19,174,144,76,76,24,22,7,7,0.5,0.5
2023-07-01T11:00:00,2406A,112.5573,33.027,南阳市,气象站,,46,43,45,17,18,183,147,77,68,21,29,5,4,0.5,0.5
2023-07-01T11:00:00,2407A,112.5481,32.9689,南阳市,理工学院,臭氧1小时,53,36,35,17,16,175,162,80,78,12,28,6,7,0.4,0.4
2023-07-01T11:00:00,2408A,115.6702,34.4285,商丘市,环境监测站,臭氧1小时,68,3,36,16,22,199,174,129,129,4,13,9,11,0.4,0.4
2023-07-01T11:00:00,2409A,115.6458,34.4045,商丘市,粮食局,,,,48,12,19,209,182,138,138,5,13,8,10,0.4,0.5
2023-07-01T11:00:00,2410A,115.6293,34.3948,商丘市,睢阳区环保局,,,,43,,22,210,179,119,119,9,19,,6,0.5,0.5
2023-07-01T11:00:00,2420A,114.0189,32.9656,驻马店市,市一纸厂,,50,28,33,16,16,197,158,105,102,1,12,2,4,0.3,0.6
2023-07-01T11:00:00,2421A,114.0114,33.015,驻马店市,市彩印厂,臭氧1小时,57,34,33,16,14,206,165,133,127,1,7,5,6,0.3,0.4
2023-07-01T11:00:00,2422A,113.9976,32.9771,驻马店市,天方二分厂,,50,23,26,26,16,197,159,122,122,1,7,4,5,0.2,0.4
2023-07-01T11:00:00,2423A,115.0601,30.2313,黄石市,沈家营,颗粒物(PM10),70,89,49,23,13,82,60,25,25,15,14,10,6,0.7,0.7
2023-07-01T11:00:00,2424A,115.0817,30.2006,黄石市,陈家湾,颗粒物(PM10),63,76,53,30,15,90,71,30,25,9,12,6,5,0.7,0.7
2023-07-01T11:00:00,2426A,114.8988,30.2019,黄石市,铁山,,33,33,21,23,11,103,74,42,42,15,13,7,9,0.8,0.8
2023-07-01T11:00:00,2427A,115.0307,30.2092,黄石市,团城山,颗粒物(PM10),56,61,38,23,12,84,71,28,25,8,13,10,7,0.7,0.8
2023-07-01T11:00:00,2428A,111.0419,32.395,十堰市,武当山,,31,13,14,4,8,121,98,108,105,5,5,8,7,0.6,0.5
2023-07-01T11:00:00,2429A,110.78,32.6494,十堰市,滨河新村,,,,,,,,,,,,,,,,
2023-07-01T11:00:00,2430A,110.7258,32.6389,十堰市,刘家沟,,38,30,26,19,10,153,120,44,43,6,6,8,6,0.5,0.5
2023-07-01T11:00:00,2431A,110.8839,32.5714,十堰市,铁二处,,39,30,24,4,10,164,123,57,57,4,4,8,5,0.5,0.5
2023-07-01T11:00:00,2432A,112.155,32.0197,襄阳市,襄城运动路,,39,39,34,17,13,175,120,74,74,7,16,7,9,0.7,0.7
2023-07-01T11:00:00,2433A,112.1392,32.0564,襄阳市,樊城新华路,,50,50,42,18,14,174,119,92,70,7,15,8,9,0.7,0.6
2023-07-01T11:00:00,2434A,112.1825,32.1142,襄阳市,高新管委会,,,58,34,29,17,185,125,108,66,,18,10,9,,0.6
2023-07-01T11:00:00,2435A,112.2106,32.0903,襄阳市,襄州航空路,,38,37,33,26,18,165,120,88,76,3,10,7,7,0.7,0.6
2023-07-01T11:00:00,2436A,114.8938,30.3994,鄂州市,市政府,颗粒物(PM10),61,71,41,32,16,106,63,48,36,13,14,3,4,1.2,0.9
2023-07-01T11:00:00,2437A,114.8989,30.3714,鄂州市,赵家坝,,48,48,32,27,14,114,50,38,24,18,12,4,4,0.9,0.9
2023-07-01T11:00:00,2439A,112.2014,31.0481,荆门市,竹园小学,颗粒物(PM10),53,55,32,28,20,158,135,118,77,11,11,15,12,0.5,0.5
2023-07-01T11:00:00,2440A,112.1969,30.9891,荆门市,掇刀,,40,36,27,16,11,158,128,95,76,7,11,8,9,0.6,0.6
2023-07-01T11:00:00,2441A,112.2213,31.0386,荆门市,石化一小,,42,38,29,23,12,160,133,107,67,19,16,16,11,0.5,0.5
2023-07-01T11:00:00,2443A,113.9153,30.9285,孝感市,文化路,,37,31,18,22,15,124,118,77,77,9,6,6,6,0.8,0.7
2023-07-01T11:00:00,2444A,113.942,30.9075,孝感市,东城区,,38,30,22,20,13,125,121,76,75,10,7,20,16,0.6,0.6
2023-07-01T11:00:00,2446A,114.9028,30.4742,黄冈市,职工中心,细颗粒物(PM2.5),53,44,35,37,25,126,64,50,48,9,5,4,3,0.9,0.8
2023-07-01T11:00:00,2447A,114.3175,29.8142,咸宁市,森林公园,,23,23,18,10,9,74,45,34,22,2,2,5,5,0.6,0.7
2023-07-01T11:00:00,2448A,114.3107,29.8454,咸宁市,市发改委,,19,7,22,13,12,84,54,55,38,4,6,3,3,0.5,0.7
2023-07-01T11:00:00,2449A,114.2936,29.8566,咸宁市,咸安区政府,,24,24,24,13,17,76,46,43,31,6,9,1,2,0.8,1
2023-07-01T11:00:00,2451A,113.3583,31.7275,随州市,市委党校,,36,34,31,25,21,145,98,77,70,1,5,6,7,0.6,0.6
2023-07-01T11:00:00,2452A,113.3833,31.6908,随州市,市林业局,,36,36,32,22,21,156,101,71,59,4,8,4,4,0.6,0.6
2023-07-01T11:00:00,2453A,113.3983,31.7308,随州市,市立交桥水厂,,32,29,26,20,16,151,102,95,62,4,11,6,7,0.6,0.6
2023-07-01T11:00:00,2454A,109.4978,30.2981,恩施土家族苗族自治州,湖北民院,,,24,32,13,12,97,51,43,43,16,10,,8,0.6,0.7
2023-07-01T11:00:00,2455A,109.4707,30.2798,恩施土家族苗族自治州,州电力总公司,,14,14,14,6,12,89,39,40,40,14,10,8,9,0.8,0.8
2023-07-01T11:00:00,2456A,112.5003,26.9167,衡阳市,原169医院,,42,42,38,11,11,87,81,36,33,4,11,7,5,0.4,0.4
2023-07-01T11:00:00,2457A,112.6194,26.9258,衡阳市,衡阳化工总厂,,50,49,48,35,34,103,90,36,36,8,15,20,12,0.6,0.6
2023-07-01T11:00:00,2458A,112.6211,26.8956,衡阳市,珠晖区环保局,,,41,40,,,105,93,59,41,5,12,16,8,0.6,0.6
2023-07-01T11:00:00,2459A,112.6197,26.8733,衡阳市,市委党校,,,36,42,,,100,94,44,44,5,11,20,12,0.7,0.6
2023-07-01T11:00:00,2460A,112.6006,26.8919,衡阳市,市监测站,,40,37,40,28,26,101,93,50,41,8,14,19,13,0.6,0.7
2023-07-01T11:00:00,2461A,112.5664,26.9056,衡阳市,真空机电公司,,,41,38,,,99,94,64,44,8,12,16,12,0.7,0.7
2023-07-01T11:00:00,2462A,111.5239,27.3033,邵阳市,市水土所,"颗粒物(PM10),细颗粒物(PM2.5)",54,57,32,38,30,93,70,22,22,9,7,14,13,0.6,0.6
