timepoint,stationcode,longitude,latitude,area,positionname,primarypollutant,aqi,pm10,pm10_24h,pm2_5,pm2_5_24h,o3,o3_24h,o3_8h,o3_8h_24h,no2,no2_24h,so2,so2_24h,co,co_24h
2025-04-25T1800,2566A,102.1879,31.914,阿坝藏族羌族自治州,州农科所,,24,11,17,8,9,74,,71,71,7,7,12,12,0.5,0.5
2025-04-25T1800,2568A,102.2502,31.8896,阿坝藏族羌族自治州,马师校,,26,13,14,13,14,83,,75,75,8,8,5,5,0.5,0.5
2025-04-25T1800,3994A,102.2165,31.9024,阿坝藏族羌族自治州,马尔康中学西区,,30,18,15,8,11,94,,83,83,3,5,4,4,0.4,0.4
2025-04-25T1800,2695A,80.292,41.1694,阿克苏地区,电视台,,48,48,55,21,26,132,,107,107,1,8,6,6,0.3,0.3
2025-04-25T1800,2696A,80.2613,41.1551,阿克苏地区,艺术中心,颗粒物(PM10),57,63,60,20,27,127,,106,106,4,12,3,4,0.2,0.2
2025-04-25T1800,2204A,105.6467,38.8363,阿拉善盟,西城区西花园,,41,36,52,9,13,131,,134,134,8,11,6,7,0.6,0.6
2025-04-25T1800,2205A,105.6985,38.8411,阿拉善盟,蒙二幼,,42,42,51,11,16,114,,116,116,9,8,7,8,0.5,0.5
2025-04-25T1800,2206A,105.724,38.8516,阿拉善盟,环保局新楼,,38,33,46,11,15,120,,122,121,4,4,8,8,0.4,0.4
2025-04-25T1800,2708A,88.1264,47.8517,阿勒泰地区,市站,,28,22,16,3,5,88,,80,80,4,7,3,3,0.4,0.4
2025-04-25T1800,2630A,80.1161,32.5,阿里地区,阿里监测站,,43,25,14,9,6,137,,126,126,3,4,6,6,0.3,0.4
2025-04-25T1800,3192A,80.0903,32.5028,阿里地区,阿里藏医院,,46,32,22,13,7,146,,136,136,1,2,6,6,0.3,0.3
2025-04-25T1800,2642A,109.0318,32.6537,安康市,香溪洞,颗粒物(PM10),57,64,75,29,31,132,,128,128,6,6,8,9,0.5,0.5
2025-04-25T1800,2644A,109.0072,32.6975,安康市,汉滨区检察院,颗粒物(PM10),57,64,79,28,31,129,,133,133,7,12,8,12,0.4,0.5
2025-04-25T1800,4054A,109.0325,32.6913,安康市,市邮政管理局,颗粒物(PM10),60,70,82,28,32,135,,132,132,7,12,7,11,0.4,0.4
2025-04-25T1800,2291A,117.0809,30.5177,安庆市,环科院,臭氧1小时,64,66,59,22,30,171,,155,155,16,17,3,3,0.7,0.7
2025-04-25T1800,2292A,117.0331,30.5119,安庆市,马山宾馆,臭氧1小时,60,58,56,20,29,168,,154,154,17,18,5,5,0.5,0.7
2025-04-25T1800,2294A,116.9896,30.6145,安庆市,安庆大学,臭氧1小时,65,66,57,28,26,172,,150,150,13,15,4,4,0.6,0.5
2025-04-25T1800,3173A,117.0598,30.5351,安庆市,市人大,,,70,62,23,30,168,,157,157,16,20,,9,0.4,0.5
2025-04-25T1800,3122A,105.9606,26.2611,安顺市,伍家关,,39,39,27,22,13,110,,110,110,8,8,5,6,0.4,0.3
2025-04-25T1800,3123A,105.9408,26.2431,安顺市,凤凰山,,41,41,26,23,17,106,,104,104,6,7,8,10,0.4,0.4
2025-04-25T1800,3124A,105.9439,26.2564,安顺市,金钟山,,,,23,,19,106,,107,107,6,7,6,8,,0.4
2025-04-25T1800,3125A,105.8983,26.2481,安顺市,娄家坡,,42,39,34,29,22,104,,104,104,9,10,6,9,0.4,0.4
2025-04-25T1800,1818A,114.4839,36.0621,安阳市,棉研所,,,,,,,,,,,,,,,,
2025-04-25T1800,1819A,114.3551,36.1017,安阳市,红庙街,颗粒物(PM10),104,157,82,38,26,172,,146,146,1,12,4,5,0.4,0.3
2025-04-25T1800,1820A,114.361,36.0681,安阳市,银杏小区,颗粒物(PM10),109,167,91,44,33,182,,155,155,3,20,,7,0.4,0.3
2025-04-25T1800,3141A,114.3922,36.0878,安阳市,信访局,颗粒物(PM10),137,224,104,43,35,188,,162,162,6,19,4,5,0.2,0.1
2025-04-25T1800,3669A,114.4705,36.0637,安阳市,左辅环卫站,颗粒物(PM10),98,146,92,38,30,181,,157,157,12,23,4,5,0.6,0.4
2025-04-25T1800,3703A,114.2917,36.0949,安阳市,安钢职工学校,颗粒物(PM10),132,213,109,49,36,177,,151,151,12,18,5,6,0.4,0.3
2025-04-25T1800,1748A,123.044,41.1196,鞍山市,深沟寺,,30,27,89,10,40,94,,93,93,12,22,8,19,0.4,1.3
2025-04-25T1800,1749A,123.011,41.0931,鞍山市,太阳城,,29,29,105,11,42,84,,92,92,15,19,9,10,0.6,0.8
2025-04-25T1800,1750A,123.0485,41.1442,鞍山市,太平,,31,31,109,10,41,80,,85,85,14,19,10,21,0.5,1.1
2025-04-25T1800,1751A,122.9642,41.0971,鞍山市,铁西三道街,,29,29,109,7,45,89,,93,93,18,31,5,7,0.4,0.7
2025-04-25T1800,1753A,123.022,41.0821,鞍山市,明达新区,,27,24,98,9,41,86,,92,92,13,18,12,9,0.5,0.6
2025-04-25T1800,1754A,123.1289,41.0228,鞍山市,千山,,,,63,,21,,,68,,,12,,5,,0.6
2025-04-25T1800,4201A,122.9446,41.0826,鞍山市,兴盛南路290号,,32,32,126,10,46,88,,91,91,19,39,9,12,0.4,0.7
2025-04-25T1800,2195A,107.4212,40.761,巴彦淖尔市,附二中,,40,40,59,8,17,122,,118,118,7,23,4,8,0.3,0.5
2025-04-25T1800,2196A,107.37,40.7372,巴彦淖尔市,市环保大楼,,38,32,54,25,28,121,,118,118,7,24,4,6,0.3,0.4
2025-04-25T1800,1956A,86.1472,41.7538,巴音郭楞蒙古自治州,孔雀公园,颗粒物(PM10),146,241,237,67,68,102,,92,92,3,11,6,6,0.2,0.2
2025-04-25T1800,1957A,86.1972,41.7166,巴音郭楞蒙古自治州,棉纺厂,颗粒物(PM10),160,269,265,66,58,102,,89,89,6,13,3,4,0.4,0.4
2025-04-25T1800,1958A,86.2357,41.7173,巴音郭楞蒙古自治州,经济开发区,颗粒物(PM10),142,234,199,52,50,102,,95,95,7,8,6,7,0.2,0.2
2025-04-25T1800,2914A,106.7677,31.8794,巴中市,苏山坪,,47,47,41,27,23,90,,93,93,13,11,3,4,0.3,0.3
2025-04-25T1800,3181A,106.7768,31.8526,巴中市,市五中,,50,50,48,22,21,94,,94,94,8,11,6,6,0.3,0.4
2025-04-25T1800,3183A,106.7418,31.8654,巴中市,圣泉水务公司,,47,47,40,25,21,92,,93,93,8,16,5,5,0.4,0.4
2025-04-25T1800,3616A,106.7616,31.8344,巴中市,市中心医院,,48,48,44,27,23,92,,90,90,6,13,4,3,0.5,0.5
2025-04-25T1800,2235A,122.7911,45.6077,白城市,洮北区环保局,,27,25,22,9,10,84,,89,89,9,7,5,4,0.3,0.3
2025-04-25T1800,2236A,122.8738,45.5725,白城市,市环保局,,27,22,18,12,10,86,,94,94,6,3,5,5,0.3,0.3
2025-04-25T1800,2231A,126.4219,41.9171,白山市,喜丰,细颗粒物(PM2.5),60,62,74,43,28,103,,103,103,15,9,11,10,0.6,0.6
2025-04-25T1800,2232A,126.4077,41.9419,白山市,环保局,细颗粒物(PM2.5),62,72,84,44,33,95,,93,93,8,7,8,7,0.6,0.6
2025-04-25T1800,2647A,104.1724,36.5446,白银市,第三小学,颗粒物(PM10),51,52,73,20,28,122,,113,113,7,18,56,61,0.6,0.8
2025-04-25T1800,2648A,104.1465,36.5482,白银市,动力公司,颗粒物(PM10),52,54,56,20,23,126,,118,118,8,15,25,18,0.5,0.6
2025-04-25T1800,2512A,106.6103,23.9011,百色市,市监测站,,27,26,29,9,15,85,,79,79,10,13,2,3,0.6,0.7
2025-04-25T1800,2513A,106.6538,23.8859,百色市,市中心血站,,40,40,38,6,20,89,,87,87,9,16,5,5,0.7,0.7
2025-04-25T1800,3406A,106.6085,23.8798,百色市,祈福高中,,43,43,35,12,19,88,,82,82,7,15,5,5,0.5,0.6
2025-04-25T1800,2270A,117.396,32.939,蚌埠市,工人疗养院,颗粒物(PM10),57,64,85,17,15,158,,140,140,6,22,5,7,0.5,0.5
2025-04-25T1800,2271A,117.3605,32.9427,蚌埠市,百货大楼,颗粒物(PM10),60,69,85,13,16,148,,135,135,15,23,6,7,0.4,0.4
2025-04-25T1800,2273A,117.4185,32.8911,蚌埠市,蚌埠学院,颗粒物(PM10),52,53,78,12,16,154,,142,142,11,16,3,5,0.4,0.4
2025-04-25T1800,2274A,117.3533,32.9673,蚌埠市,淮上区政府,颗粒物(PM10),56,61,82,16,19,149,,135,135,14,22,5,6,0.2,0.3
2025-04-25T1800,2275A,117.3145,32.8977,蚌埠市,高新区,颗粒物(PM10),58,66,71,11,13,147,,138,138,14,15,5,5,0.4,0.3
2025-04-25T1800,3715A,117.3092,32.9314,蚌埠市,蚌埠田家炳中学,颗粒物(PM10),63,75,82,24,17,154,,145,145,17,15,6,6,0.3,0.3
2025-04-25T1800,1585A,109.8756,40.6532,包头市,市环境监测站,,37,32,52,7,16,116,,112,112,11,39,9,15,0.5,0.7
2025-04-25T1800,1587A,109.9991,40.5842,包头市,包头八中,,42,42,63,10,28,119,,111,111,13,38,13,25,0.2,0.4
2025-04-25T1800,1588A,109.8538,40.6821,包头市,青山宾馆,,36,27,53,12,22,114,,110,110,7,43,10,16,0.4,0.8
2025-04-25T1800,1589A,109.8642,40.6288,包头市,惠龙物流,,37,36,52,14,25,117,,111,111,10,35,12,20,0.4,0.5
2025-04-25T1800,1590A,110.0377,40.5546,包头市,东河鸿龙湾,,37,25,66,3,19,118,,111,111,5,31,7,15,0.4,0.5
2025-04-25T1800,3283A,109.9154,40.5685,包头市,滨河大厦,,37,26,47,15,17,117,,111,111,5,37,10,16,0.4,0.5
2025-04-25T1800,3419A,109.9447,40.6261,包头市,包头市委党校,,39,35,47,12,16,123,,112,112,6,30,11,18,0.5,0.6
2025-04-25T1800,3683A,109.8331,40.6576,包头市,昆区政府,,37,22,54,22,25,116,,112,112,12,45,7,14,0.5,0.7
2025-04-25T1800,1930A,107.185,34.3063,宝鸡市,庙沟村,颗粒物(PM10),67,84,65,43,37,160,,139,139,13,15,9,9,0.5,0.5
2025-04-25T1800,1931A,107.0708,34.3017,宝鸡市,竹园沟,颗粒物(PM10),66,82,65,34,35,154,,140,140,16,17,10,9,0.4,0.4
2025-04-25T1800,1932A,107.1906,34.3672,宝鸡市,三陆医院,颗粒物(PM10),68,86,81,34,39,156,,140,140,22,34,8,9,0.5,0.5
2025-04-25T1800,1933A,107.1431,34.3547,宝鸡市,监测站,颗粒物(PM10),79,107,82,37,35,153,,134,134,24,26,10,10,0.4,0.5
2025-04-25T1800,1934A,107.1186,34.3739,宝鸡市,技工学校,颗粒物(PM10),69,87,78,34,33,154,,136,136,20,18,9,10,0.6,0.5
2025-04-25T1800,1935A,107.3906,34.3528,宝鸡市,陈仓区环保局家属楼,颗粒物(PM10),67,83,83,40,39,159,,142,142,26,34,10,11,0.5,0.6
2025-04-25T1800,1936A,107.2058,34.3497,宝鸡市,文理学院,颗粒物(PM10),69,87,78,44,44,160,,140,140,17,25,8,9,0.4,0.5
2025-04-25T1800,1937A,107.2386,34.3622,宝鸡市,三迪小学,颗粒物(PM10),69,88,87,37,39,155,,140,140,19,28,8,8,0.5,0.5
2025-04-25T1800,1051A,115.493,38.8632,保定市,游泳馆,颗粒物(PM10),74,97,76,47,29,164,,133,133,14,30,10,5,0.3,0.2
2025-04-25T1800,1052A,115.5213,38.8959,保定市,华电二区,颗粒物(PM10),63,75,61,41,31,169,,134,134,8,19,6,4,0.2,0.1
2025-04-25T1800,1053A,115.4713,38.9108,保定市,接待中心,颗粒物(PM10),65,79,70,46,28,167,,133,133,10,23,7,5,0.6,0.4
2025-04-25T1800,1054A,115.4612,38.8416,保定市,地表水厂,颗粒物(PM10),76,102,89,41,27,160,,134,134,16,28,8,6,0.4,0.3
2025-04-25T1800,3581A,115.31981,38.95208,保定市,满城区生态环境分局,颗粒物(PM10),76,102,90,44,33,177,,139,139,11,29,7,3,0.4,0.4
2025-04-25T1800,3582A,115.47694,38.76408,保定市,清苑区第二中学,颗粒物(PM10),67,84,92,38,31,166,,141,141,11,28,9,6,0.4,0.4
2025-04-25T1800,3583A,115.62909,39.02311,保定市,徐水物探局,颗粒物(PM10),69,88,79,44,21,172,,140,140,18,27,7,4,0.5,0.4
2025-04-25T1800,4004A,115.4202,38.8656,保定市,双鹰农机,颗粒物(PM10),59,67,69,38,30,164,,133,133,11,24,9,6,0.2,0.1
2025-04-25T1800,4034A,115.5150,38.8590,保定市,植保所站,颗粒物(PM10),74,97,77,39,39,166,,130,130,9,29,3,3,0.4,0.6
2025-04-25T1800,2594A,99.1678,25.1081,保山市,市环境监测站,颗粒物(PM10),56,61,81,16,38,124,,127,127,6,11,7,6,0.4,0.6
2025-04-25T1800,2595A,99.1711,25.1328,保山市,市环保局,颗粒物(PM10),59,68,90,24,35,136,,139,139,6,10,8,9,0.4,0.6
2025-04-25T1800,1866A,109.2262,21.588,北海市,牛尾岭水库,,,23,23,15,16,88,,71,71,,,7,7,0.9,0.9
2025-04-25T1800,1867A,109.1436,21.4086,北海市,海滩公园,,35,20,39,7,15,109,,92,92,6,11,5,6,0.6,0.6
2025-04-25T1800,1868A,109.0981,21.4661,北海市,新市环保局,,31,29,31,12,19,98,,90,90,11,12,4,4,0.8,0.7
2025-04-25T1800,1869A,109.1778,21.5233,北海市,北海工业园,,30,28,34,17,22,96,,90,90,10,12,9,10,0.7,0.6
2025-04-25T1800,3400A,109.1911,21.4415,北海市,龙潭自来水厂,,32,23,32,17,23,102,,86,86,7,10,7,8,0.5,0.5
2025-04-25T1800,1001A,116.3621,39.8784,北京市,万寿西宫,颗粒物(PM10),67,83,46,33,17,165,,125,125,11,28,8,7,0.6,0.5
2025-04-25T1800,1002A,116.2202,40.2915,北京市,定陵,,,,,,,,,,,,,,,,
2025-04-25T1800,1003A,116.4174,39.9289,北京市,东四,颗粒物(PM10),72,93,52,28,13,146,,112,112,13,30,5,3,0.5,0.4
2025-04-25T1800,1004A,116.4072,39.8863,北京市,天坛,颗粒物(PM10),68,85,44,28,14,149,,116,116,17,27,4,3,0.5,0.5
2025-04-25T1800,1005A,116.462,39.9365,北京市,农展馆,颗粒物(PM10),69,87,46,33,16,156,,118,118,18,33,10,8,0.7,0.6
2025-04-25T1800,1006A,116.3392,39.9295,北京市,官园,颗粒物(PM10),70,90,47,28,14,140,,108,108,14,27,7,6,0.4,0.4
2025-04-25T1800,1007A,116.2878,39.9611,北京市,海淀万柳,颗粒物(PM10),71,91,49,38,18,136,,104,104,12,27,7,5,0.5,0.5
2025-04-25T1800,1008A,116.6636,40.135,北京市,顺义新城,颗粒物(PM10),63,76,44,25,12,136,,105,105,14,20,8,7,0.5,0.4
2025-04-25T1800,1009A,116.6275,40.3275,北京市,怀柔镇,颗粒物(PM10),62,73,33,28,13,136,,97,97,15,14,5,3,0.4,0.3
2025-04-25T1800,1010A,116.2296,40.217,北京市,昌平镇,颗粒物(PM10),74,97,32,29,10,129,,99,99,19,12,5,3,0.3,0.2
2025-04-25T1800,1011A,116.3966,39.9821,北京市,奥体中心,颗粒物(PM10),65,79,45,29,16,137,,103,103,18,44,6,4,0.8,0.5
2025-04-25T1800,3281A,115.9718,40.4529,北京市,延庆夏都,颗粒物(PM10),63,75,26,28,10,136,,101,101,17,14,5,3,0.5,0.3
2025-04-25T1800,3418A,116.8336,40.4095,北京市,密云新城,颗粒物(PM10),66,82,36,30,12,135,,97,97,19,10,1,3,0.5,0.5
2025-04-25T1800,3671A,116.088,39.9726,北京市,门头沟三家店,颗粒物(PM10),91,132,76,48,23,137,,104,104,20,32,4,3,0.3,0.3
2025-04-25T1800,3672A,116.1541,39.8204,北京市,丰台云岗,颗粒物(PM10),80,110,57,37,18,150,,120,120,12,18,4,3,0.4,0.3
2025-04-25T1800,3673A,116.6804,39.9081,北京市,通州东关,颗粒物(PM10),68,85,54,38,21,149,,112,112,17,37,7,6,0.6,0.6
2025-04-25T1800,3674A,115.9577,39.7603,北京市,房山燕山,颗粒物(PM10),72,94,52,35,16,140,,111,111,11,14,7,6,0.4,0.3
2025-04-25T1800,3675A,116.4672,39.7733,北京市,大兴旧宫,颗粒物(PM10),65,80,47,28,13,153,,118,118,11,26,2,3,0.3,0.3
2025-04-25T1800,3694A,115.986,40.4563,北京市,延庆石河营,颗粒物(PM10),68,85,30,24,9,121,,92,92,14,14,5,3,0.5,0.3
2025-04-25T1800,3695A,116.6151,40.3053,北京市,怀柔新城,颗粒物(PM10),60,69,30,23,11,134,,95,95,14,12,3,3,0.5,0.4
2025-04-25T1800,3696A,116.2545,39.8768,北京市,丰台小屯,细颗粒物(PM2.5),78,79,48,57,21,135,,105,105,19,31,4,3,0.4,0.4
2025-04-25T1800,3697A,116.84,40.3844,北京市,密云镇,颗粒物(PM10),63,75,33,25,10,136,,96,96,13,16,7,5,0.4,0.3
2025-04-25T1800,4182A,116.1942,39.9158,北京市,八角北路9号,颗粒物(PM10),77,104,54,34,17,138,,110,110,17,31,6,5,0.6,0.5
2025-04-25T1800,4194A,117.0790,40.1518,北京市,洳河巡河路,颗粒物(PM10),55,59,34,22,11,151,,111,111,11,10,4,3,0.4,0.3
2025-04-25T1800,1761A,123.8275,41.3064,本溪市,大峪,,31,18,64,6,33,99,,102,102,11,14,8,7,0.4,0.6
2025-04-25T1800,1762A,123.7567,41.3325,本溪市,溪湖,,32,31,76,8,35,102,,102,102,10,12,7,7,0.5,0.5
2025-04-25T1800,1763A,123.7169,41.3094,本溪市,彩屯,,32,29,80,14,35,102,,102,102,12,14,10,11,0.6,0.7
2025-04-25T1800,1764A,123.7669,41.2864,本溪市,东明,,31,30,85,16,38,98,,97,97,14,19,10,13,1.0,1.4
2025-04-25T1800,1765A,123.7992,41.2664,本溪市,新立屯,,31,30,71,8,33,97,,100,100,15,23,9,10,0.8,1.1
2025-04-25T1800,1766A,123.8142,41.3472,本溪市,威宁,,41,41,93,6,33,98,,100,100,4,14,6,6,0.4,0.5
2025-04-25T1800,2587A,105.2864,27.3125,毕节市,八中,,35,35,26,21,17,76,,80,80,10,12,6,6,0.5,0.6
2025-04-25T1800,2588A,105.31,27.2944,毕节市,师专,,29,28,27,20,18,75,,84,84,10,14,9,10,0.5,0.5
2025-04-25T1800,4263A,105.3688,27.3598,毕节市,工业大道,,34,34,29,18,18,70,,83,83,12,13,8,7,0.6,0.5
2025-04-25T1800,1629A,118.0018,37.3617,滨州市,第二水厂,颗粒物(PM10),74,97,68,19,22,161,,151,151,10,28,10,11,0.5,0.4
2025-04-25T1800,1630A,117.9776,37.393,滨州市,北中新校,臭氧1小时,70,78,54,31,24,176,,164,164,14,32,9,6,0.3,0.5
2025-04-25T1800,3514A,117.9378,37.3956,滨州市,中海酒店,臭氧1小时,65,75,54,29,29,172,,162,162,13,25,10,11,0.6,0.7
2025-04-25T1800,3515A,117.9378,37.3553,滨州市,开发区一中,颗粒物(PM10),79,107,75,27,26,171,,162,162,16,41,6,7,0.5,0.5
2025-04-25T1800,3516A,118.0917,37.694,滨州市,金海六路,颗粒物(PM10),69,88,60,44,19,171,,165,165,17,45,10,12,0.1,0.2
2025-04-25T1800,4028A,117.9956,37.3753,滨州市,滨州市西街道办事处,细颗粒物(PM2.5),94,88,62,70,36,183,,170,170,11,28,7,9,0.5,0.5
2025-04-25T1800,2311A,115.8072,33.8399,亳州市,污水处理厂,颗粒物(PM10),57,64,70,12,15,159,,142,142,13,17,3,4,0.3,0.3
2025-04-25T1800,2312A,115.7789,33.8518,亳州市,三国揽胜宫,颗粒物(PM10),56,61,72,13,14,163,,146,146,10,16,5,6,0.3,0.2
2025-04-25T1800,3332A,115.7633,33.8034,亳州市,亳州学院,臭氧1小时,59,58,73,12,14,167,,152,152,12,14,3,4,0.4,0.3
2025-04-25T1800,2693A,82.0485,44.8556,博尔塔拉蒙古自治州,市党校,,35,16,25,8,9,111,,99,99,2,22,3,3,0.3,0.4
2025-04-25T1800,2694A,82.0806,44.8969,博尔塔拉蒙古自治州,市环保局,,,11,33,6,9,114,,101,101,,12,4,3,0.5,0.7
2025-04-25T1800,1071A,116.8842,38.2991,沧州市,沧县城建局,颗粒物(PM10),73,96,68,34,26,164,,133,133,16,29,6,6,0.4,0.3
2025-04-25T1800,1072A,116.8584,38.3254,沧州市,电视转播站,颗粒物(PM10),68,85,61,44,23,164,,131,131,17,25,8,6,0.3,0.3
2025-04-25T1800,1073A,116.8709,38.3228,沧州市,市环保局,颗粒物(PM10),79,107,68,45,28,176,,143,143,16,24,5,3,0.4,0.4
2025-04-25T1800,3324A,116.8136,38.3004,沧州市,河北水利电力学院,颗粒物(PM10),81,112,73,41,20,172,,138,138,15,22,10,8,0.4,0.4
2025-04-25T1800,2622A,97.1806,31.1273,昌都市,昌都监测站,,44,9,9,3,6,139,,130,130,3,4,3,3,0.3,0.3
2025-04-25T1800,3719A,97.1714,31.1406,昌都市,昌都会议中心,,39,14,13,14,10,124,,120,120,7,5,3,3,0.3,0.2
2025-04-25T1800,2690A,88.1236,43.8886,昌吉回族自治州,天山天池,,27,7,14,6,6,84,,73,73,5,6,5,5,0.5,0.6
2025-04-25T1800,2692A,87.2717,44.0297,昌吉回族自治州,新区政务中心,,,31,27,3,9,122,,107,107,7,7,6,8,,0.3
2025-04-25T1800,3613A,87.3095,44.0142,昌吉回族自治州,亚心广场,,39,22,30,3,7,124,,105,105,6,11,8,8,0.3,0.3
2025-04-25T1800,1119A,125.3325,43.9166,长春市,食品厂,,33,,36,23,14,73,,80,80,22,14,6,6,0.4,0.3
2025-04-25T1800,1120A,125.2863,43.9027,长春市,客车厂,,29,29,35,16,13,76,,83,83,22,16,5,4,0.3,0.2
2025-04-25T1800,1121A,125.2841,43.8463,长春市,邮电学院,,36,30,36,25,15,93,,89,89,6,9,6,5,0.3,0.2
2025-04-25T1800,1122A,125.3716,43.8772,长春市,劳动公园,,28,28,31,18,10,86,,88,88,10,8,6,5,0.2,0.2
2025-04-25T1800,1123A,125.3297,43.8805,长春市,园林处,,28,23,30,19,8,83,,84,84,10,10,6,6,0.3,0.3
2025-04-25T1800,1124A,125.4605,43.79,长春市,净月潭,,33,33,35,21,11,89,,86,86,7,9,6,6,0.2,0.1
2025-04-25T1800,1125A,125.7194,43.515,长春市,甩湾子,,,,,,,,,,,,,,,,
2025-04-25T1800,1126A,125.3863,43.8447,长春市,经开区环卫处,,38,38,40,15,12,84,,84,84,12,10,6,6,0.3,0.3
2025-04-25T1800,1127A,125.245,43.7783,长春市,高新区管委会,细颗粒物(PM2.5),63,50,35,45,13,86,,87,87,19,11,8,8,0.3,0.2
2025-04-25T1800,1128A,125.1761,43.8325,长春市,岱山公园,,,47,38,,16,96,,92,92,16,12,4,4,0.3,0.3
2025-04-25T1800,1335A,113.0833,28.2325,长沙市,经开区环保局,,41,28,38,14,21,130,,127,127,9,26,5,4,0.5,0.5
2025-04-25T1800,1336A,112.8872,28.2189,长沙市,高开区环保局,,42,35,48,9,25,134,,135,135,5,12,4,4,0.7,0.8
2025-04-25T1800,1337A,113.0792,28.2053,长沙市,马坡岭,,44,32,37,12,19,140,,137,137,11,24,3,3,0.4,0.5
2025-04-25T1800,1338A,112.9394,28.19,长沙市,湖南师范大学,,45,33,42,13,21,142,,143,143,12,16,1,3,0.4,0.5
2025-04-25T1800,1339A,113.0178,28.1322,长沙市,雨花区环保局,,42,29,37,13,20,134,,130,130,7,18,3,3,0.3,0.4
2025-04-25T1800,1340A,112.9792,28.2597,长沙市,伍家岭,,40,33,46,3,20,128,,125,125,7,17,2,2,0.4,0.5
2025-04-25T1800,1341A,113.0014,28.1944,长沙市,火车新站,,43,34,43,17,21,135,,135,135,11,22,7,6,0.4,0.5
2025-04-25T1800,1342A,112.9844,28.1178,长沙市,天心区环保局,,42,32,36,12,19,134,,132,132,12,18,3,3,0.4,0.5
2025-04-25T1800,1343A,112.8908,28.1308,长沙市,湖南中医药大学,,45,39,42,23,20,144,,138,138,8,13,2,2,0.4,0.5
2025-04-25T1800,1344A,112.9581,28.3611,长沙市,沙坪,,45,35,35,31,19,140,,126,126,12,13,5,5,0.5,0.5
2025-04-25T1800,1727A,113.1147,36.1547,长治市,清华站,颗粒物(PM10),61,71,51,19,14,148,,143,143,7,12,7,8,0.4,0.5
2025-04-25T1800,1730A,113.0886,36.2125,长治市,审计局,颗粒物(PM10),68,85,54,22,20,149,,146,146,14,19,9,11,0.3,0.5
2025-04-25T1800,1731A,113.0844,36.1856,长治市,长治八中,颗粒物(PM10),72,94,57,22,24,146,,142,142,11,15,10,12,0.8,1.1
2025-04-25T1800,2845A,113.1569,36.1911,长治市,德盛苑,颗粒物(PM10),60,69,46,19,18,143,,140,140,11,12,6,7,0.5,0.6
2025-04-25T1800,3568A,113.06,36.0464,长治市,向阳小学,颗粒物(PM10),71,92,72,22,20,160,,151,151,9,15,11,13,0.2,0.3
2025-04-25T1800,3569A,112.8792,36.3144,长治市,屯留一中,,,91,57,41,20,150,,139,139,,21,12,12,0.5,0.6
2025-04-25T1800,4189A,113.1131,36.19948,长治市,英华南巷50号,颗粒物(PM10),72,94,57,22,19,149,,84,,13,17,6,7,0.3,0.8
2025-04-25T1800,4190A,113.2367,36.3344,长治市,学府街1号,细颗粒物(PM2.5),69,84,63,50,28,145,,144,144,19,34,6,6,0.5,0.7
2025-04-25T1800,1854A,111.6975,28.9703,常德市,市二中,细颗粒物(PM2.5),68,74,65,49,33,125,,114,114,8,12,5,6,0.6,0.6
2025-04-25T1800,1857A,111.7158,29.1456,常德市,白鹤山,,,,,,,,,,,,,,,,
2025-04-25T1800,3138A,111.7153,29.0289,常德市,武陵区永安,颗粒物(PM10),63,76,72,35,30,140,,132,132,9,13,1,4,0.5,0.5
2025-04-25T1800,3139A,111.6892,28.9881,常德市,鼎城区玉霞,颗粒物(PM10),59,68,64,32,29,139,,129,129,4,15,3,4,0.7,0.6
2025-04-25T1800,3140A,111.6625,29.0531,常德市,武陵区长庚,颗粒物(PM10),60,70,66,30,29,146,,136,136,6,11,6,9,0.6,0.6
2025-04-25T1800,1196A,119.9633,31.762,常州市,市监测站,颗粒物(PM10),62,73,64,14,18,137,,123,123,20,22,10,13,0.5,0.7
2025-04-25T1800,1200A,119.9468,31.7069,常州市,武进监测站,颗粒物(PM10),60,70,69,13,18,125,,119,119,31,29,10,14,0.6,0.8
2025-04-25T1800,1201A,119.9255,31.9087,常州市,安家,,,71,61,18,16,,,51,,36,25,13,12,0.4,0.2
2025-04-25T1800,3002A,119.9805,31.8174,常州市,行政中心,,48,48,51,18,16,130,,120,120,19,22,14,15,0.4,0.5
2025-04-25T1800,3003A,120.0522,31.7748,常州市,经开区,颗粒物(PM10),63,75,74,14,14,134,,120,120,29,32,11,13,0.5,0.6
2025-04-25T1800,3010A,119.9025,31.7964,常州市,钟楼,颗粒物(PM10),67,83,63,16,17,122,,119,119,25,19,7,8,0.3,0.5
2025-04-25T1800,3429A,119.8598,31.7066,常州市,武进经发区,颗粒物(PM10),68,85,80,17,20,123,,120,120,23,23,9,11,0.4,0.6
2025-04-25T1800,3430A,119.5826,31.7245,常州市,金坛城区,颗粒物(PM10),68,86,69,20,18,134,,127,127,22,22,10,10,0.6,0.6
2025-04-25T1800,2220A,120.4318,41.5881,朝阳市,西梁,,27,24,43,3,24,85,,87,87,12,19,6,7,0.4,0.5
2025-04-25T1800,2221A,120.4521,41.5646,朝阳市,河畔小区,,28,22,40,8,22,88,,90,90,8,13,6,7,0.2,0.4
2025-04-25T1800,2222A,120.4176,41.5648,朝阳市,八里堡,,,52,48,23,18,84,,84,84,,19,7,6,0.3,0.6
2025-04-25T1800,2223A,120.3806,41.5969,朝阳市,农业园区,,44,44,39,11,22,84,,88,88,15,17,8,8,0.3,0.4
2025-04-25T1800,1705A,116.6367,23.6719,潮州市,西园路,,30,6,19,3,12,93,,88,88,12,11,3,3,0.6,0.6
2025-04-25T1800,3026A,116.6183,23.6608,潮州市,市政府,,31,,24,8,16,99,,95,95,9,13,2,6,0.7,0.6
2025-04-25T1800,4036A,116.6461,23.6761,潮州市,金山,,29,9,18,3,10,90,,83,83,12,12,5,6,0.6,0.6
2025-04-25T1800,2472A,113.0073,25.9061,郴州市,马头岭,,32,32,24,13,9,12,,21,17,16,11,8,8,0.4,0.3
2025-04-25T1800,2473A,113.0116,25.8226,郴州市,市职中,,31,31,23,21,14,47,,75,68,17,8,2,2,0.7,0.6
2025-04-25T1800,2475A,113.0383,25.8071,郴州市,市审计局,,33,29,21,23,15,47,,76,67,19,8,6,5,0.7,0.6
2025-04-25T1800,2476A,113.0348,25.7759,郴州市,市环保局,,33,31,25,23,13,47,,67,65,17,10,4,4,0.6,0.5
2025-04-25T1800,4252A,113.0138,25.8011,郴州市,好美居路49号,,31,31,21,20,13,52,,74,69,19,10,6,7,0.7,0.6
2025-04-25T1800,1431A,103.9728,30.7236,成都市,金泉两河,,42,42,47,21,12,65,,58,58,19,21,2,2,0.7,0.7
2025-04-25T1800,1432A,104.176,30.6872,成都市,十里店,,40,40,44,17,18,80,,79,79,11,24,3,3,0.6,0.6
2025-04-25T1800,1433A,104.079,30.5706,成都市,三瓦窑,,31,31,40,10,19,92,,93,93,13,21,4,4,0.4,0.4
2025-04-25T1800,1434A,104.1114,30.63,成都市,沙河铺,,50,50,42,24,20,74,,82,82,16,18,6,6,0.4,0.4
2025-04-25T1800,1437A,104.0786,30.6531,成都市,君平街,,47,47,43,28,23,62,,64,64,21,23,7,7,0.5,0.6
2025-04-25T1800,1438A,103.613,31.0283,成都市,灵岩寺,,,,,,,,,,,,,,,,
2025-04-25T1800,2880A,104.0239,30.65639,成都市,大石西路,,43,43,45,27,21,79,,85,85,19,20,5,5,0.3,0.4
2025-04-25T1800,3136A,104.2725,30.5589,成都市,龙泉驿区区政府,,24,24,26,9,12,70,,72,72,8,10,4,4,0.6,0.5
2025-04-25T1800,3357A,104.0106,30.6931,成都市,金博路,,30,30,32,8,10,76,,85,85,19,16,7,7,0,0
2025-04-25T1800,3359A,104.0578,30.5225,成都市,华阳,,26,19,34,12,25,81,,82,82,25,24,5,6,0.2,0.2
2025-04-25T1800,3488A,104.3853,30.7453,成都市,青白江技师分院,,42,42,42,28,19,67,,84,84,24,20,2,3,0.4,0.3
2025-04-25T1800,3489A,104.0789,30.4072,成都市,科学城,,,34,38,12,19,91,,86,86,12,12,4,4,,0.3
2025-04-25T1800,4011A,103.8506,30.6947,成都市,光华大道三段,颗粒物(PM10),54,58,47,28,23,80,,76,68,21,22,1,2,0.6,0.6
2025-04-25T1800,4224A,104.2433,30.5353,成都市,鲸龙路1057号,,28,28,37,16,19,79,,79,79,19,22,4,4,0.5,0.5
2025-04-25T1800,1062A,117.9531,40.9081,承德市,铁路,,31,15,24,3,6,99,,87,87,10,13,8,5,0.6,0.3
2025-04-25T1800,1063A,117.9392,40.9763,承德市,中国银行,,40,40,27,10,7,98,,89,89,11,9,28,6,0.6,0.3
2025-04-25T1800,1064A,117.9503,40.928,承德市,开发区,,33,23,24,14,14,104,,91,91,9,13,10,6,0.6,0.3
2025-04-25T1800,1065A,117.8051,40.9655,承德市,文化中心,,47,47,40,7,8,98,,92,92,18,17,54,13,0.4,0.5
2025-04-25T1800,1066A,117.9268,41.0026,承德市,离宫,,23,23,26,16,16,73,,58,58,3,6,8,4,0.3,0.3
2025-04-25T1800,2314A,117.47,30.6618,池州市,池州学院,臭氧1小时,52,52,61,19,32,161,,154,154,16,15,7,7,0.5,0.6
2025-04-25T1800,3237A,117.4918,30.6617,池州市,展览馆,,,48,56,18,30,164,,156,156,16,14,,6,0.5,0.6
2025-04-25T1800,3333A,117.5627,30.695,池州市,第八中学,,50,47,61,16,30,160,,157,157,17,14,7,6,0.5,0.7
2025-04-25T1800,3334A,117.5038,30.6243,池州市,第十二中学,臭氧1小时,54,49,60,17,29,163,,157,157,14,13,8,6,0.5,0.7
2025-04-25T1800,1744A,118.9233,42.2816,赤峰市,松山一中,,21,19,17,6,4,66,,76,76,33,25,10,10,0.4,0.3
2025-04-25T1800,1745A,118.9576,42.2728,赤峰市,哈达街,,24,21,16,9,6,76,,84,84,27,16,9,9,0.5,0.4
2025-04-25T1800,1746A,118.8788,42.2554,赤峰市,天义路,,25,,16,13,8,79,,84,84,22,14,7,9,0.6,0.5
2025-04-25T1800,3058A,119.2658,42.0353,赤峰市,银河街,,26,16,32,8,12,81,,86,86,11,14,16,18,0.4,0.5
2025-04-25T1800,3286A,118.9359,42.3147,赤峰市,桥北物流园区,,25,15,21,6,10,77,,75,75,18,25,8,7,0.5,0.5
2025-04-25T1800,2521A,107.3476,22.4136,崇左市,市环保局江州分局,,31,29,31,15,17,98,,76,76,7,10,5,6,0.6,0.6
2025-04-25T1800,4256A,107.3750,22.3736,崇左市,石景林东路7号,,32,25,30,9,11,102,,82,82,7,9,4,5,0.5,0.5
2025-04-25T1800,2298A,118.3093,32.3153,滁州市,老年大学,臭氧1小时,72,62,77,20,21,177,,149,149,16,20,5,4,0.5,0.4
2025-04-25T1800,2299A,118.3244,32.2786,滁州市,人大宾馆,臭氧1小时,68,61,56,20,16,174,,146,146,13,18,10,10,0.5,0.4
2025-04-25T1800,3207A,118.3118,32.3038,滁州市,市政府原办公楼,臭氧1小时,67,61,68,24,20,173,,147,147,14,18,8,7,0.5,0.3
2025-04-25T1800,3331A,118.3267,32.2634,滁州市,图书馆,臭氧1小时,67,72,79,24,21,173,,147,147,15,16,9,9,0.5,0.5
2025-04-25T1800,2605A,101.5482,25.0441,楚雄彝族自治州,州环境监测站,,50,50,63,25,35,139,,141,141,8,25,6,8,0.4,0.5
2025-04-25T1800,2606A,101.538,25.0492,楚雄彝族自治州,市经济开发区,,44,43,61,27,32,138,,142,142,7,20,7,9,0.5,0.6
2025-04-25T1800,2548A,107.5277,31.2827,达州市,达州职业技术学院,颗粒物(PM10),59,68,56,25,22,81,,75,75,17,22,6,5,0.6,0.5
2025-04-25T1800,2549A,107.5086,31.2186,达州市,市环境监测站,颗粒物(PM10),58,66,59,27,23,69,,61,61,22,25,6,5,0.3,0.3
2025-04-25T1800,2550A,107.4988,31.2132,达州市,凤凰小区,颗粒物(PM10),56,61,56,29,25,74,,69,69,21,25,8,7,0.5,0.5
2025-04-25T1800,2551A,107.5082,31.1986,达州市,达县机关宾馆,颗粒物(PM10),59,68,58,34,24,66,,64,64,28,28,6,5,0.5,0.5
2025-04-25T1800,2552A,107.4644,31.2124,达州市,市政中心,颗粒物(PM10),58,66,63,24,22,70,,62,62,18,27,3,2,0.3,0.4
2025-04-25T1800,2614A,100.1542,25.7054,大理白族自治州,大理市环境监测站,颗粒物(PM10),54,58,49,31,34,138,,140,140,6,13,8,8,0.5,0.6
2025-04-25T1800,2615A,100.2171,25.5811,大理白族自治州,大理古城,颗粒物(PM10),51,52,62,28,40,128,,130,130,6,11,8,8,0.6,0.7
2025-04-25T1800,1109A,121.612,38.9741,大连市,甘井子,,28,27,31,7,9,89,,100,99,23,24,10,7,0.3,0.3
2025-04-25T1800,1110A,121.565,38.9511,大连市,周水子,,36,36,32,3,7,85,,87,87,10,21,6,6,0.3,0.4
2025-04-25T1800,1111A,121.5637,38.8845,大连市,星海三站,,30,30,27,7,8,85,,89,89,25,21,5,4,0.2,0.3
2025-04-25T1800,1112A,121.6302,38.9117,大连市,青泥洼桥,,35,24,28,3,7,110,,103,103,9,18,6,6,0.2,0.4
2025-04-25T1800,1113A,121.6251,38.8638,大连市,傅家庄,,28,24,24,6,6,87,,81,81,31,23,9,9,0.2,0.2
2025-04-25T1800,1114A,121.5213,38.8661,大连市,七贤岭,,29,20,22,6,6,91,,93,93,17,13,5,5,0.5,0.5
2025-04-25T1800,1115A,121.2529,38.8061,大连市,旅顺,,26,26,24,8,8,67,,73,73,41,29,3,4,0.4,0.4
2025-04-25T1800,1116A,121.7485,39.1311,大连市,金州,,39,39,40,7,9,86,,90,90,20,26,8,10,0.2,0.3
2025-04-25T1800,1117A,121.7811,39.0496,大连市,开发区,,34,34,38,3,10,83,,83,83,18,27,3,5,0.3,0.3
2025-04-25T1800,1118A,121.9762,39.0631,大连市,双D港,,33,33,30,7,7,92,,99,98,26,14,9,8,0.4,0.3
2025-04-25T1800,1789A,124.81117,46.03138,大庆市,大同区,,26,26,18,14,15,78,,74,74,3,3,4,4,0.3,0.3
2025-04-25T1800,1790A,125.129,46.533,大庆市,龙凤区,,23,14,26,10,10,71,,70,70,9,7,3,3,0.3,0.4
2025-04-25T1800,1791A,124.902,46.408,大庆市,红岗区,,25,,16,14,11,80,,79,79,6,3,4,4,0.2,0.2
2025-04-25T1800,1792A,125.153,46.586,大庆市,萨尔图区,,26,26,19,6,6,62,,64,64,15,9,4,4,0.4,0.4
2025-04-25T1800,1793A,124.9042,46.6215,大庆市,让胡路区,,23,,14,16,13,71,,70,70,6,6,5,6,0.2,0.2
2025-04-25T1800,3481A,125.141,46.634,大庆市,萨区政府监测点,,25,14,15,3,0,78,,75,75,4,4,5,5,0.3,0.3
2025-04-25T1800,1721A,113.3819,40.1097,大同市,果树场,,37,37,39,3,11,116,,96,96,8,26,5,7,0.3,0.5
2025-04-25T1800,1723A,113.2994,40.0758,大同市,云冈宾馆,,40,30,41,8,14,126,,103,103,9,26,7,12,0.3,0.8
2025-04-25T1800,1724A,113.3444,40.0917,大同市,大同大学,,38,32,34,14,15,120,,101,101,6,24,8,15,0.4,0.5
2025-04-25T1800,1725A,113.2661,40.1269,大同市,安家小村,,38,27,51,9,14,120,,98,98,4,24,10,14,0.2,0.9
2025-04-25T1800,1726A,113.2711,40.0844,大同市,教育学院,,38,30,45,13,19,119,,101,101,13,27,8,12,0.3,0.9
2025-04-25T1800,3282A,113.3397,40.0597,大同市,大同市卫生学校,,37,27,31,12,12,117,,96,96,9,26,7,13,0.3,0.6
2025-04-25T1800,3565A,113.1367,40.1122,大同市,云冈站,,43,43,54,13,15,120,,100,100,6,27,9,15,0.3,0.5
2025-04-25T1800,3566A,113.1186,40.2556,大同市,图书馆,,37,37,28,13,12,115,,101,101,4,10,8,10,0.3,0.5
2025-04-25T1800,3567A,113.5931,40.0461,大同市,区一中,,47,47,27,7,9,120,,106,106,11,12,11,14,0.3,0.4
2025-04-25T1800,4199A,113.2798,40.0997,大同市,魏都大道141号,,40,36,52,11,15,125,,102,102,8,27,12,16,0.3,1
2025-04-25T1800,2269A,124.1069,50.4097,大兴安岭地区,科技局,,27,24,15,13,15,86,,81,81,6,6,4,4,0.3,0.3
2025-04-25T1800,3663A,124.1164,50.4278,大兴安岭地区,红旗社区,,27,,2,6,3,86,,84,84,2,2,4,4,0.3,0.2
2025-04-25T1800,1600A,124.3303,40.0625,丹东市,江湾东路,,44,44,56,12,22,85,,106,104,18,12,8,10,0.4,0.5
2025-04-25T1800,1601A,124.4256,40.1503,丹东市,临江后街,,38,38,86,9,22,90,,100,100,16,17,6,8,0.4,0.5
2025-04-25T1800,1602A,124.3933,40.1461,丹东市,元宝山,,30,30,46,17,24,92,,100,100,11,9,9,8,0.5,0.6
2025-04-25T1800,1603A,124.3633,40.1092,丹东市,民主桥,,43,43,54,13,19,85,,105,104,21,16,8,8,0.6,0.6
2025-04-25T1800,3541A,109.5726,19.5167,儋州市,第一中学子站,,31,23,37,12,23,97,,74,74,7,8,4,5,0.8,0.7
2025-04-25T1800,3542A,109.5567,19.5187,儋州市,东坡学校子站,,,41,37,12,23,109,,84,84,,10,,7,0.5,0.6
2025-04-25T1800,2616A,98.5842,24.428,德宏傣族景颇族自治州,德宏州监测站,颗粒物(PM10),72,93,113,33,63,146,,130,130,9,24,9,10,0.4,0.8
2025-04-25T1800,3677A,98.5881,24.4368,德宏傣族景颇族自治州,芒市人民政府综合楼,颗粒物(PM10),68,86,116,36,57,152,,146,146,9,16,9,9,0.4,0.7
2025-04-25T1800,1901A,104.4239,31.1208,德阳市,东山公园,,32,32,35,14,22,77,,81,81,10,12,3,4,0.6,0.6
2025-04-25T1800,1902A,104.3826,31.1317,德阳市,西小区,,44,44,46,18,22,74,,78,78,19,20,4,4,0.5,0.5
2025-04-25T1800,1904A,104.3553,31.1091,德阳市,耐火材料厂,,46,46,54,24,25,69,,60,60,20,28,5,6,0.5,0.5
2025-04-25T1800,3639A,104.4019,31.1244,德阳市,市教育局,,,,36,,22,,,121,,,19,,4,,0.4
2025-04-25T1800,1622A,116.3032,37.4674,德州市,儿童乐园,颗粒物(PM10),108,166,83,36,29,166,,148,148,13,25,8,8,0.5,0.5
2025-04-25T1800,1624A,116.2991,37.4451,德州市,监理站,颗粒物(PM10),85,119,76,36,26,161,,144,144,10,22,12,11,0.4,0.4
2025-04-25T1800,3066A,116.2721,37.4379,德州市,九衢泉纯净水厂,颗粒物(PM10),85,119,79,31,30,152,,138,138,15,40,7,8,0.7,0.6
2025-04-25T1800,3371A,116.3728,37.4403,德州市,开发区人民医院,颗粒物(PM10),101,151,82,31,25,154,,135,135,,26,,10,0.7,0.6
2025-04-25T1800,3372A,116.3572,37.4094,德州市,太阳城中学,颗粒物(PM10),98,146,88,31,33,170,,149,149,11,33,5,7,0.3,0.4
2025-04-25T1800,3511A,116.5652,37.3319,德州市,陵城艺术中心,颗粒物(PM10),91,132,77,24,25,165,,149,149,16,30,6,8,0.6,0.6
2025-04-25T1800,2621A,99.7056,27.8317,迪庆藏族自治州,迪庆州站,,44,44,34,18,18,117,,121,117,9,8,4,5,0.4,0.4
2025-04-25T1800,3180A,99.7136,27.8094,迪庆藏族自治州,质量技术监督局,,39,39,25,19,13,121,,128,121,10,9,3,3,0.5,0.5
2025-04-25T1800,4257A,104.6092,35.5962,定西市,将台街,颗粒物(PM10),55,59,61,24,24,129,,127,127,9,16,4,5,0.0,0.1
2025-04-25T1800,4309A,104.6159,35.5701,定西市,正龙路62号,颗粒物(PM10),64,78,54,19,20,131,,128,128,6,7,8,9,0.2,0.2
2025-04-25T1800,1389A,113.7547,23.0494,东莞市,莞城梨川,,16,,23,3,18,51,,64,51,18,20,5,6,0.7,0.6
2025-04-25T1800,1390A,113.7944,23.0128,东莞市,东城石井,,14,7,23,3,15,42,,53,53,23,25,3,4,0.6,0.5
2025-04-25T1800,1391A,113.7383,22.9658,东莞市,南城西平,,13,10,25,3,16,34,,52,51,25,26,3,4,0.7,0.6
2025-04-25T1800,3319A,113.7338,23.0381,东莞市,万江金泰,,13,6,22,3,14,41,,47,36,16,21,4,4,1.0,0.9
2025-04-25T1800,3626A,113.7533,23.0202,东莞市,南城元岭,,15,6,21,3,16,46,,57,50,15,18,6,6,0.7,0.7
2025-04-25T1800,3627A,113.7875,23.0457,东莞市,东城主山,,15,8,26,3,15,45,,58,48,20,23,3,4,0.5,0.5
2025-04-25T1800,1666A,118.6614,37.4309,东营市,市环保局,臭氧1小时,78,80,55,27,14,182,,157,157,27,35,10,11,0.5,0.5
2025-04-25T1800,3036A,118.6904,37.4338,东营市,开发区管委会,颗粒物(PM10),62,74,62,27,16,164,,154,154,26,30,7,12,0.6,0.6
2025-04-25T1800,3365A,118.5719,37.565,东营市,垦利区民丰路,,,102,58,34,22,198,,163,163,,37,10,6,0.9,0.8
2025-04-25T1800,3498A,118.5055,37.8612,东营市,河口城区,臭氧1小时,72,83,65,27,13,177,,147,147,16,23,12,8,0.5,0.6
2025-04-25T1800,3646A,118.4978,37.4623,东营市,胜利站,颗粒物(PM10),80,110,64,39,21,180,,155,155,43,37,15,13,0.8,0.6
2025-04-25T1800,3734A,118.35,37.26,东营市,理想之城,臭氧1小时,83,100,61,36,22,186,,152,152,22,35,10,8,0.7,0.6
2025-04-25T1800,1591A,110.0023,39.8129,鄂尔多斯市,综合楼,,46,46,51,7,10,129,,124,124,10,22,1,4,0.2,0.3
2025-04-25T1800,1592A,109.9486,39.8261,鄂尔多斯市,巴音孟克林场办事处,,41,41,47,17,16,123,,119,119,9,26,6,8,0.3,0.4
2025-04-25T1800,1593A,109.7736,39.5986,鄂尔多斯市,康泽苑,颗粒物(PM10),52,53,42,14,10,135,,126,126,8,15,5,4,0.3,0.3
2025-04-25T1800,1594A,109.8119,39.5989,鄂尔多斯市,华泰汽车城,颗粒物(PM10),52,53,44,14,12,126,,119,119,11,35,6,6,0.1,0.2
2025-04-25T1800,1595A,109.9734,39.7884,鄂尔多斯市,奥林花园,,41,41,61,9,15,126,,120,120,8,43,3,3,0,0.1
2025-04-25T1800,2436A,114.8938,30.3994,鄂州市,市政府,臭氧1小时,68,64,82,31,42,174,,154,154,13,24,8,8,0.8,0.9
2025-04-25T1800,2437A,114.8989,30.3714,鄂州市,赵家坝,臭氧1小时,63,66,79,32,37,170,,158,158,13,21,5,5,0.6,0.8
2025-04-25T1800,3654A,114.8094,30.4089,鄂州市,精准医疗中心,颗粒物(PM10),56,61,71,25,42,164,,152,152,11,23,3,5,0.5,0.9
2025-04-25T1800,2454A,109.4978,30.2981,恩施土家族苗族自治州,湖北民院,颗粒物(PM10),62,74,55,28,24,90,,76,76,4,10,6,5,0.3,0.4
2025-04-25T1800,2455A,109.4707,30.2798,恩施土家族苗族自治州,州电力总公司,颗粒物(PM10),58,66,50,31,25,98,,86,86,10,13,5,4,0.2,0.3
2025-04-25T1800,3549A,109.5061,30.3772,恩施土家族苗族自治州,龙凤新区,颗粒物(PM10),54,57,45,14,20,83,,75,75,6,8,6,6,0.4,0.4
2025-04-25T1800,2499A,108.3411,21.6158,防城港市,沙万,,33,33,27,19,18,94,,78,78,12,9,3,2,0.6,0.5
2025-04-25T1800,2500A,108.3514,21.7731,防城港市,防城档案局,,38,38,42,23,17,103,,79,79,8,12,2,2,0.5,0.6
2025-04-25T1800,2501A,108.3506,21.6414,防城港市,大海花园,,34,23,38,14,16,106,,84,84,6,7,2,2,0.5,0.5
2025-04-25T1800,1371A,113.1294,23.0067,佛山市,湾梁,,19,12,14,8,9,33,,51,24,37,26,7,7,0.8,0.6
2025-04-25T1800,1372A,113.1083,23.0478,佛山市,华材职中,,20,9,15,7,12,33,,37,21,39,32,7,7,0.7,0.7
2025-04-25T1800,1373A,113.144,23.0453,佛山市,南海气象局,,18,14,17,11,13,30,,40,21,35,25,6,6,0.8,0.7
2025-04-25T1800,1374A,113.2881,22.8094,佛山市,顺德苏岗,,20,18,23,9,12,21,,29,18,39,30,5,5,1.0,0.8
2025-04-25T1800,1376A,112.8383,22.8678,佛山市,高明孔堂,,23,23,23,9,13,25,,47,24,41,24,5,6,0.9,0.8
2025-04-25T1800,1377A,112.8836,23.1588,佛山市,三水监测站,,14,12,12,3,6,34,,37,34,27,25,3,4,0.8,0.6
2025-04-25T1800,1378A,112.867,23.185,佛山市,三水云东海,,,18,22,6,12,40,,37,36,25,27,,3,0.8,0.7
2025-04-25T1800,3625A,113.2544,22.7642,佛山市,容桂街道办,,25,22,15,17,16,22,,39,20,45,32,5,5,0.9,0.7
2025-04-25T1800,1280A,119.3903,26.0543,福州市,鼓山,,,,3,,1,,,130,,,5,,3,,0.4
2025-04-25T1800,1282A,119.2681,26.0504,福州市,师大,,24,16,12,6,4,75,,126,84,26,18,3,3,0.4,0.5
2025-04-25T1800,1283A,119.2984,26.1028,福州市,五四北路,,23,20,12,3,2,71,,128,92,26,16,3,3,0.6,0.7
2025-04-25T1800,1284A,119.2648,26.0768,福州市,杨桥西路,,24,14,11,3,3,75,,118,88,27,17,3,3,0.4,0.5
2025-04-25T1800,1285A,119.317,26.0746,福州市,紫阳,,24,24,16,8,4,57,,124,78,44,25,5,4,0.4,0.4
2025-04-25T1800,3048A,119.5799,26.0936,福州市,九龙,,28,15,9,3,1,89,,131,105,13,10,3,4,0.2,0.3
2025-04-25T1800,3526A,119.5189,25.9664,福州市,吴航,颗粒物(PM10),56,61,18,8,4,111,,137,113,12,10,3,3,0.4,0.5
2025-04-25T1800,1755A,123.7977,41.8491,抚顺市,望花区,,34,24,87,6,33,107,,108,108,11,16,2,7,0.4,0.8
2025-04-25T1800,1756A,123.9161,41.8822,抚顺市,顺城区,,31,24,81,6,31,99,,101,101,15,16,6,6,0.3,0.4
2025-04-25T1800,1757A,124.0436,41.8611,抚顺市,东洲区,,33,24,91,6,34,103,,102,102,14,19,6,8,0.3,0.6
2025-04-25T1800,1758A,123.9247,41.8642,抚顺市,新抚区,,32,20,80,3,32,100,,101,101,8,11,6,7,0.3,0.5
2025-04-25T1800,1759A,124.0972,41.8961,抚顺市,大伙房水库,,33,18,89,7,35,103,,103,103,6,14,7,8,0.3,0.5
2025-04-25T1800,1760A,123.7086,41.8391,抚顺市,沈抚新城,,31,11,83,3,32,97,,98,98,9,14,5,6,0.3,0.6
2025-04-25T1800,2376A,116.2127,28.0814,抚州市,桐源党溪,,38,21,28,12,11,120,,115,115,3,2,10,5,0.9,0.9
2025-04-25T1800,2377A,116.3544,27.9831,抚州市,市站,,28,22,23,7,11,89,,90,90,4,4,2,4,0.8,1
2025-04-25T1800,2378A,116.3565,27.963,抚州市,血防站,,30,23,28,9,11,96,,99,99,4,4,3,3,0.5,0.4
2025-04-25T1800,2379A,116.3564,28.0007,抚州市,采茶剧团,,30,18,21,8,11,94,,96,96,2,2,3,3,0.6,0.5
2025-04-25T1800,2380A,116.385,27.9647,抚州市,医学分院,,29,14,19,10,9,90,,94,94,2,2,3,4,0.6,0.6
2025-04-25T1800,2207A,121.6094,41.998,阜新市,工业园区,,28,22,67,3,38,87,,94,94,11,19,8,12,0.3,0.4
2025-04-25T1800,2208A,121.6697,42.0279,阜新市,长青街,,29,10,49,3,32,90,,95,95,8,14,6,8,0.3,0.4
2025-04-25T1800,2209A,121.6673,42.0705,阜新市,农业园区,,29,10,49,3,27,91,,95,95,5,8,7,8,0.3,0.4
2025-04-25T1800,2210A,121.6717,42.0224,阜新市,东苑,,29,15,61,6,34,91,,95,95,6,11,8,11,0.4,0.5
2025-04-25T1800,2211A,121.6506,42.0498,阜新市,玉龙新城,,28,15,66,3,33,87,,94,94,10,20,6,8,0.3,0.4
2025-04-25T1800,2301A,115.8277,32.8929,阜阳市,市监测站,颗粒物(PM10),61,72,72,28,26,158,,144,144,14,17,9,9,0.3,0.3
2025-04-25T1800,2303A,115.8554,32.8605,阜阳市,开发区,颗粒物(PM10),70,90,94,34,21,164,,148,148,16,20,8,8,0.2,0.3
2025-04-25T1800,2875A,115.784,32.8892,阜阳市,阜阳职业技术学院,颗粒物(PM10),62,73,72,27,25,149,,136,136,12,13,7,7,0.5,0.5
2025-04-25T1800,3468A,115.7901,32.8613,阜阳市,市规划展馆,颗粒物(PM10),61,71,81,31,25,164,,150,150,12,13,8,9,0.4,0.4
2025-04-25T1800,3469A,115.836,32.9183,阜阳市,枣园社区,颗粒物(PM10),65,79,76,31,25,162,,148,148,11,14,11,11,0.4,0.4
2025-04-25T1800,2669A,102.9099,34.9841,甘南藏族自治州,州政府,,,31,42,21,29,93,,87,87,,13,2,7,0.3,0.4
2025-04-25T1800,3380A,102.8914,34.9617,甘南藏族自治州,甘肃民族师范学院,,34,31,42,12,20,108,,101,101,5,17,8,8,0.4,0.5
2025-04-25T1800,2570A,101.9603,30.0475,甘孜藏族自治州,水桥子,,27,,15,8,7,84,,83,83,8,14,4,4,0.2,0.2
2025-04-25T1800,3065A,101.9533,29.9972,甘孜藏族自治州,州环保局,,25,13,18,3,6,78,,87,87,15,16,2,1,0.6,0.5
2025-04-25T1800,3414A,115.8347,28.932,赣江新区,桑海产业园,,41,36,29,15,14,131,,123,123,2,4,4,4,0.3,0.3
2025-04-25T1800,2362A,114.9017,25.9149,赣州市,通天岩,,29,29,23,3,5,74,,88,68,6,5,2,2,0.7,0.8
2025-04-25T1800,2363A,114.9367,25.8664,赣州市,地委,,32,32,25,8,9,73,,88,76,9,6,1,2,0.8,0.8
2025-04-25T1800,2364A,114.9461,25.8481,赣州市,气象台,,31,31,29,12,11,68,,87,72,18,12,6,7,0.4,0.5
2025-04-25T1800,2365A,114.9322,25.8333,赣州市,市图书馆,,22,,16,8,13,69,,87,72,12,7,4,4,1.0,0.9
2025-04-25T1800,2366A,114.8905,25.8471,赣州市,华坚鞋城,细颗粒物(PM2.5),54,,18,38,25,69,,60,60,18,11,4,4,0.7,0.9
2025-04-25T1800,3109A,115.0093,25.8613,赣州市,赣县区卫计委,,,24,16,14,13,,,87,,9,5,3,3,0.5,0.4
2025-04-25T1800,2683A,106.2319,36.1417,固原市,马园,颗粒物(PM10),58,65,91,14,21,116,,124,124,20,27,5,5,0.5,0.5
2025-04-25T1800,2684A,106.2792,36.0022,固原市,监测站,颗粒物(PM10),54,58,64,19,22,120,,121,121,8,11,5,5,0.2,0.3
2025-04-25T1800,2685A,106.2375,36.0211,固原市,新区,颗粒物(PM10),55,59,64,16,20,118,,117,117,9,11,5,5,0.2,0.2
2025-04-25T1800,3522A,106.2177,35.9959,固原市,原州区十五小,颗粒物(PM10),51,51,72,18,22,124,,122,122,6,9,6,7,0.3,0.3
2025-04-25T1800,2543A,106.6308,30.5278,广安市,小平旧居,,,,,,,,,,,,,,,,
2025-04-25T1800,2544A,106.6303,30.4576,广安市,市委,细颗粒物(PM2.5),60,65,69,43,41,68,,65,65,10,15,5,5,0.5,0.4
2025-04-25T1800,2545A,106.6271,30.4663,广安市,友谊中学,颗粒物(PM10),63,75,68,37,34,67,,64,64,17,16,4,4,0.7,0.7
2025-04-25T1800,2547A,106.6388,30.4551,广安市,广电花园,颗粒物(PM10),109,168,70,40,39,62,,62,62,18,17,6,5,0.4,0.4
2025-04-25T1800,2902A,106.6351,30.4865,广安市,北辰小学,颗粒物(PM10),61,72,66,39,36,65,,62,62,12,15,5,6,0.4,0.4
2025-04-25T1800,2523A,105.8945,32.4535,广元市,黑石坡,颗粒物(PM10),52,54,51,20,20,86,,90,90,10,10,7,4,0.3,0.2
2025-04-25T1800,2524A,105.821,32.4444,广元市,老城,,49,49,46,18,17,96,,97,97,5,10,1,2,0.4,0.5
2025-04-25T1800,2526A,105.8628,32.4287,广元市,监测站,,41,41,40,22,21,93,,99,99,9,10,8,7,0.4,0.4
2025-04-25T1800,3617A,105.8047,32.4166,广元市,经开区,,50,50,53,27,30,92,,96,96,14,20,4,5,0.5,0.5
2025-04-25T1800,1345A,113.2347,23.1423,广州市,广雅中学,,16,12,21,3,13,44,,43,28,31,31,3,3,0.6,0.5
2025-04-25T1800,1346A,113.2612,23.105,广州市,市五中,,13,11,17,7,12,41,,48,33,16,17,1,1,0.9,0.8
2025-04-25T1800,1348A,113.3478,23.0916,广州市,广东商学院,,14,10,18,6,11,39,,41,32,28,27,3,3,0.6,0.6
2025-04-25T1800,1349A,113.4332,23.1047,广州市,市八十六中,,16,11,17,6,10,32,,39,30,32,30,4,4,0.9,0.9
2025-04-25T1800,1350A,113.3505,22.9483,广州市,番禺中学,,15,14,21,8,14,43,,44,34,30,27,4,4,0.8,0.7
2025-04-25T1800,1351A,113.2146,23.3916,广州市,花都师范,,18,7,13,3,8,55,,53,43,13,14,4,4,0.8,0.8
2025-04-25T1800,1352A,113.2597,23.1331,广州市,市监测站,,16,6,17,3,11,34,,36,27,31,27,5,5,0.7,0.6
2025-04-25T1800,1353A,113.5618,23.312,广州市,九龙镇镇龙,,15,9,8,3,7,45,,49,44,12,14,4,4,0.6,0.5
2025-04-25T1800,1354A,113.2765,23.1544,广州市,麓湖,,13,6,18,3,11,40,,33,33,20,31,4,4,0.7,0.7
2025-04-25T1800,1355A,113.443,23.3035,广州市,帽峰山森林公园,,17,,4,3,5,54,,51,50,6,4,5,5,0.8,0.8
2025-04-25T1800,2846A,113.3221,23.1322,广州市,体育西,,18,17,18,12,13,46,,45,38,26,25,4,4,0.8,0.7
2025-04-25T1800,3298A,113.5717,23.5491,广州市,从化街口,,18,6,15,3,10,57,,53,53,7,15,5,5,0.7,0.7
2025-04-25T1800,3299A,113.3472,23.3692,广州市,白云竹料,,,6,14,3,10,64,,60,60,,13,,3,0.7,0.7
2025-04-25T1800,3300A,113.2981,23.237,广州市,白云嘉禾,,15,10,18,8,13,46,,44,41,27,28,4,5,0.9,0.9
2025-04-25T1800,3301A,113.4256,23.1716,广州市,黄埔科学城,,13,8,19,3,11,41,,40,35,18,18,2,3,0.6,0.5
2025-04-25T1800,3302A,113.3942,23.0483,广州市,番禺大学城,,17,10,21,7,12,36,,46,34,33,28,4,4,0.7,0.6
2025-04-25T1800,3303A,113.4922,22.8168,广州市,南沙黄阁,,24,23,22,15,20,24,,34,32,48,37,5,5,1.1,0.9
2025-04-25T1800,3304A,113.5342,22.7896,广州市,南沙街,,26,26,25,15,20,23,,47,44,44,27,5,4,0.9,0.7
2025-04-25T1800,3443A,113.2902,23.5544,广州市,花都梯面,,19,6,10,3,6,60,,54,54,7,11,4,5,0.6,0.6
2025-04-25T1800,3445A,113.7858,23.7478,广州市,从化良口,,16,6,7,3,4,51,,55,54,6,7,7,7,0.6,0.5
2025-04-25T1800,3446A,113.8051,23.2614,广州市,增城荔城,,16,6,11,3,5,50,,61,50,8,10,7,7,0.4,0.3
2025-04-25T1800,2505A,109.568,23.1478,贵港市,德智高中,,,,,,,,,,,,,,,,
2025-04-25T1800,2506A,109.6047,23.0666,贵港市,江南子站,,39,39,21,20,14,75,,64,64,13,12,4,4,0.7,0.6
2025-04-25T1800,2508A,109.5669,23.1065,贵港市,荷城子站,,,41,22,12,7,68,,44,,15,13,,6,0.3,0.4
2025-04-25T1800,3405A,109.5886,23.1172,贵港市,新世纪学校,,26,24,21,18,14,73,,66,66,12,11,4,3,0.7,0.7
2025-04-25T1800,4260A,109.5933,23.0951,贵港市,中山路155-3号,,44,44,24,20,13,74,,66,66,14,12,6,7,0.8,0.8
2025-04-25T1800,1439A,106.6899,26.5998,贵阳市,马鞍山,,,29,36,9,12,107,,115,115,,9,5,4,0.3,0.3
2025-04-25T1800,1441A,106.6243,26.6266,贵阳市,鉴湖路,颗粒物(PM10),53,56,47,19,19,119,,116,116,13,9,6,6,0.3,0.3
2025-04-25T1800,1442A,106.7487,26.6343,贵阳市,燕子冲,,41,41,35,19,21,116,,117,117,10,11,2,3,0.2,0.2
2025-04-25T1800,1443A,106.6555,26.4365,贵阳市,碧云窝,颗粒物(PM10),54,58,48,14,13,121,,121,121,9,10,4,4,0.4,0.3
2025-04-25T1800,1445A,106.7109,26.6027,贵阳市,红边门,颗粒物(PM10),53,56,41,14,20,117,,118,118,10,6,4,4,0.1,0.1
2025-04-25T1800,1446A,106.7164,26.5699,贵阳市,新华路,,44,44,40,22,19,119,,121,121,10,8,14,9,0.2,0.3
2025-04-25T1800,1447A,106.674,26.5424,贵阳市,太慈桥,,48,48,38,17,16,128,,121,121,16,12,6,5,0.2,0.2
2025-04-25T1800,1552A,106.805,26.3003,贵阳市,桐木岭,颗粒物(PM10),53,56,56,22,24,109,,114,114,2,2,5,4,0.6,0.5
2025-04-25T1800,4230A,106.6882,26.5695,贵阳市,花果园大街66号,,46,46,39,18,19,115,,110,110,16,11,4,4,0.4,0.4
2025-04-25T1800,4231A,106.6873,26.5169,贵阳市,漓江路57号,颗粒物(PM10),51,51,39,22,17,120,,122,122,14,9,8,8,0.4,0.3
2025-04-25T1800,1862A,110.4144,25.3167,桂林市,电子科大尧山校区,,,,,,,,,,,,,,,,
2025-04-25T1800,1864A,110.3089,25.2708,桂林市,龙隐路小学,,33,24,20,10,12,104,,100,100,4,5,11,10,0.4,0.4
2025-04-25T1800,1865A,110.2869,25.2178,桂林市,八中,,30,21,20,7,10,93,,91,91,12,11,3,3,0.4,0.4
2025-04-25T1800,3531A,110.296,25.1253,桂林市,旅游学院,,28,9,12,3,8,89,,91,91,5,7,1,3,0.8,0.8
2025-04-25T1800,4222A,110.1835,25.2444,桂林市,环湖路276号,,31,24,19,14,14,98,,95,95,5,6,8,9,0.4,0.4
2025-04-25T1800,4301A,110.2803,25.2773,桂林市,信义路13号,,32,19,21,6,11,100,,97,97,10,10,4,3,0.4,0.4
2025-04-25T1800,2674A,100.2561,34.4714,果洛藏族自治州,玛沁县大武镇,,32,23,31,15,17,101,,98,98,2,2,12,18,0.3,0.3
2025-04-25T1800,1129A,126.5422,45.755,哈尔滨市,岭北,,25,10,9,6,8,80,,78,78,10,8,11,14,0.7,0.8
2025-04-25T1800,1130A,126.561,45.8167,哈尔滨市,松北商大,,20,12,13,6,6,62,,65,65,13,8,5,5,0.5,0.4
2025-04-25T1800,1131A,126.979,45.5419,哈尔滨市,阿城会宁,,22,22,20,13,15,68,,70,70,16,9,6,6,0.4,0.5
2025-04-25T1800,1132A,126.599,45.7222,哈尔滨市,南岗学府路,,21,20,21,3,8,66,,68,68,14,10,7,7,0.4,0.4
2025-04-25T1800,1133A,126.689,45.7733,哈尔滨市,太平宏伟公园,,28,,13,19,11,72,,71,71,12,10,4,4,0.5,0.5
2025-04-25T1800,1134A,126.635,45.7667,哈尔滨市,道外承德广场,,20,,11,14,14,64,,63,63,14,13,6,5,0.4,0.4
2025-04-25T1800,1135A,126.685,45.7319,哈尔滨市,香坊红旗大街,,23,14,16,8,10,71,,70,70,12,12,6,6,0.4,0.4
2025-04-25T1800,1136A,126.6411,45.7258,哈尔滨市,动力和平路,,20,15,16,13,9,64,,64,64,14,11,7,7,0.4,0.4
2025-04-25T1800,1137A,126.593,45.7478,哈尔滨市,道里建国路,,20,13,15,9,9,62,,66,66,22,12,4,8,0.5,0.3
2025-04-25T1800,1138A,126.615,45.61,哈尔滨市,平房东轻厂,,21,21,18,12,15,66,,67,67,16,14,9,10,0.4,0.4
2025-04-25T1800,1139A,126.595,45.9855,哈尔滨市,呼兰师专,,19,11,21,9,7,58,,54,54,10,9,5,5,0.1,0.3
2025-04-25T1800,1140A,126.6206,45.6842,哈尔滨市,省农科院,,32,32,28,11,14,59,,61,61,17,16,5,6,0.5,0.5
2025-04-25T1800,2688A,93.5128,42.8172,哈密市,地区监测站,颗粒物(PM10),74,97,56,38,18,105,,103,103,8,14,3,4,0.1,0.3
2025-04-25T1800,2689A,93.4961,42.8328,哈密市,哈密师范学校,颗粒物(PM10),61,72,40,22,14,101,,96,96,6,15,5,4,0.3,0.4
2025-04-25T1800,2671A,100.9048,36.9639,海北藏族自治州,海晏县西海镇,,41,39,38,25,23,131,,126,126,6,11,12,10,0.5,0.4
2025-04-25T1800,3867A,102.0738,36.5056,海东市,平安区公安北苑,颗粒物(PM10),54,58,57,18,26,123,,97,97,6,13,5,9,0.7,0.9
2025-04-25T1800,1409A,110.576,19.9507,海口市,东寨港,,34,,15,6,11,107,,88,88,4,5,9,8,0.5,0.5
2025-04-25T1800,1410A,110.3232,20.0574,海口市,海南大学,,36,27,37,11,19,113,,91,91,8,17,2,2,0.4,0.4
2025-04-25T1800,1411A,110.283,20.0053,海口市,秀英海南医院,,35,20,32,8,18,112,,90,90,8,19,4,4,0.4,0.3
2025-04-25T1800,1412A,110.338,19.9969,海口市,海南师范大学,,,,32,,17,114,,94,94,,12,4,4,0.4,0.4
2025-04-25T1800,1413A,110.33,20.0356,海口市,龙华路环保局宿舍,,37,23,31,9,18,116,,93,93,8,12,4,4,0.4,0.4
2025-04-25T1800,3539A,110.5111,19.9736,海口市,桂林洋子站,,34,17,29,8,14,108,,93,93,15,14,4,3,0.3,0.3
2025-04-25T1800,2673A,100.6188,36.2866,海南藏族自治州,共和县恰卜恰镇,,49,49,43,23,23,118,,124,124,16,13,15,13,0.5,0.4
2025-04-25T1800,2676A,97.3731,37.3753,海西蒙古族藏族自治州,德令哈市,,47,47,45,21,17,115,,111,111,2,3,15,14,0.4,0.4
2025-04-25T1800,1048A,114.5302,36.6116,邯郸市,东污水处理厂,颗粒物(PM10),114,178,79,24,20,159,,126,126,16,29,2,4,0.5,0.5
2025-04-25T1800,1049A,114.4918,36.5713,邯郸市,矿院,颗粒物(PM10),109,168,74,34,25,148,,119,119,9,26,7,10,0.4,0.5
2025-04-25T1800,1050A,114.484,36.6133,邯郸市,丛台公园,颗粒物(PM10),134,218,96,32,22,162,,132,132,12,20,6,9,0.4,0.6
2025-04-25T1800,3458A,114.7895,36.5593,邯郸市,香泉濮院小区,颗粒物(PM10),101,151,93,19,16,159,,138,138,10,17,6,5,0.5,0.3
2025-04-25T1800,3579A,114.50634,36.77178,邯郸市,永年区实验高中,颗粒物(PM10),107,163,94,39,29,169,,134,134,10,25,6,9,0.4,0.7
2025-04-25T1800,3580A,114.20016,36.44293,邯郸市,峰峰矿区临水派出所,,,150,70,40,20,185,,160,160,,15,8,7,0.4,0.7
2025-04-25T1800,2634A,106.9893,33.1842,汉中市,汉川机床厂子校,颗粒物(PM10),58,65,53,26,30,108,,118,118,10,10,9,8,0.9,0.6
2025-04-25T1800,2635A,107.0154,33.0706,汉中市,市监测站,,46,46,62,27,30,111,,114,114,11,16,7,6,0.7,0.6
2025-04-25T1800,2636A,107.0089,33.1138,汉中市,鑫源开发区,,49,49,60,19,27,97,,114,112,20,22,8,8,1.0,0.6
2025-04-25T1800,2637A,107.007,33.0323,汉中市,南郑大河坎水厂,,42,42,57,25,31,100,,112,112,17,19,5,5,0.5,0.5
2025-04-25T1800,1223A,120.2072,30.2111,杭州市,滨江,颗粒物(PM10),62,74,46,21,20,132,,118,118,25,18,7,6,0.4,0.4
2025-04-25T1800,1224A,120.0633,30.2747,杭州市,西溪,,49,49,44,11,19,111,,108,108,16,15,6,5,0.5,0.7
2025-04-25T1800,1226A,120.3417,30.3150,杭州市,下沙,颗粒物(PM10),54,58,44,14,15,128,,110,110,23,23,7,6,0.3,0.5
2025-04-25T1800,1227A,120.1269,30.2456,杭州市,卧龙桥,颗粒物(PM10),52,54,42,16,23,138,,132,132,20,16,7,6,0.5,0.6
2025-04-25T1800,1228A,120.1903,30.2692,杭州市,浙江农大,颗粒物(PM10),55,60,41,21,22,126,,112,112,13,21,3,2,0.3,0.4
2025-04-25T1800,1230A,120.1197,30.3119,杭州市,和睦小学,颗粒物(PM10),56,62,49,14,21,127,,116,116,19,18,7,7,0.4,0.5
2025-04-25T1800,1231A,120.3019,30.4183,杭州市,临平镇,颗粒物(PM10),65,80,62,14,27,137,,116,116,17,19,6,6,0.4,0.6
2025-04-25T1800,1232A,120.2753,30.1839,杭州市,城厢镇,颗粒物(PM10),54,57,38,20,22,129,,119,119,25,20,8,7,0.3,0.5
2025-04-25T1800,1233A,120.0883,30.1808,杭州市,云栖,颗粒物(PM10),57,63,44,15,28,131,,130,130,26,20,7,6,0.5,0.6
2025-04-25T1800,3557A,119.9464,30.0494,杭州市,镇二中,,45,45,36,9,21,131,,131,131,28,23,4,3,0.4,0.5
2025-04-25T1800,3558A,119.7183,30.2367,杭州市,市府大楼,颗粒物(PM10),53,55,51,19,27,149,,148,148,20,18,8,7,0.3,0.5
2025-04-25T1800,3656A,120.1556,30.2864,杭州市,消防大队,颗粒物(PM10),55,59,48,13,21,130,,117,117,24,23,5,4,0.5,0.6
2025-04-25T1800,1270A,117.1959,31.7848,合肥市,明珠广场,,,61,75,17,19,169,,158,158,12,17,,3,0.3,0.4
2025-04-25T1800,1271A,117.3072,31.8764,合肥市,三里街,颗粒物(PM10),59,68,74,22,18,154,,140,140,19,22,6,6,0.4,0.4
2025-04-25T1800,1272A,117.2588,31.8707,合肥市,琥珀山庄,颗粒物(PM10),60,70,76,20,19,166,,152,152,14,18,5,5,0.4,0.4
2025-04-25T1800,1273A,117.1604,31.9052,合肥市,董铺水库,颗粒物(PM10),68,85,81,24,17,160,,142,142,13,15,3,2,0.4,0.4
2025-04-25T1800,1274A,117.25,31.8571,合肥市,长江中路,颗粒物(PM10),56,61,78,24,24,162,,149,149,15,17,10,10,0.5,0.5
2025-04-25T1800,1275A,117.266,31.9436,合肥市,庐阳区,颗粒物(PM10),62,73,79,24,17,167,,148,148,12,18,7,7,0.4,0.4
2025-04-25T1800,1276A,117.3453,31.8616,合肥市,瑶海区,颗粒物(PM10),60,70,80,17,17,153,,140,140,18,22,7,7,0.3,0.4
2025-04-25T1800,1277A,117.3027,31.7964,合肥市,包河区,臭氧1小时,63,66,84,22,21,170,,154,154,8,34,8,8,0.4,0.5
2025-04-25T1800,1278A,117.2776,31.7385,合肥市,滨湖新区,颗粒物(PM10),60,70,79,27,26,162,,147,147,10,8,8,8,0.5,0.5
2025-04-25T1800,1279A,117.1318,31.8403,合肥市,高新区,颗粒物(PM10),57,63,76,18,19,162,,148,148,14,19,4,4,0.3,0.3
2025-04-25T1800,3464A,117.3803,31.9147,合肥市,高教基地,"颗粒物(PM10),臭氧1小时",58,66,69,20,14,166,,150,150,8,9,7,6,0.5,0.4
2025-04-25T1800,3614A,79.924,37.0877,和田地区,地区环保局,颗粒物(PM10),69,88,299,12,48,108,,100,100,3,4,3,2,0.2,0.2
2025-04-25T1800,3615A,79.9131,37.113,和田地区,市环保局,颗粒物(PM10),55,60,276,3,42,109,,102,102,2,4,1,2,0.3,0.3
2025-04-25T1800,2516A,108.2011,24.715,河池市,东仁乐园,,,,,,,,,,,,,,,,
2025-04-25T1800,2517A,108.0497,24.6947,河池市,市环保站,,32,20,21,8,11,101,,96,96,4,6,6,7,0.4,0.4
2025-04-25T1800,2518A,108.0983,24.6989,河池市,市疾控中心,,31,25,21,10,12,98,,98,98,8,12,7,8,0.5,0.5
2025-04-25T1800,1696A,114.6778,23.7569,河源市,源西,,20,9,7,8,10,62,,65,65,11,12,4,3,0.7,0.7
2025-04-25T1800,1697A,114.6944,23.7586,河源市,东埔,,20,,5,10,10,63,,66,66,13,12,4,4,0.8,0.8
2025-04-25T1800,1698A,114.6892,23.7233,河源市,老城,,22,,13,15,10,64,,66,66,10,10,3,3,0.6,0.6
2025-04-25T1800,1718A,115.4208,35.2464,菏泽市,气象局,颗粒物(PM10),81,111,94,29,34,154,,138,138,11,36,5,4,0.4,0.4
2025-04-25T1800,3374A,115.5564,35.0891,菏泽市,定陶老年大学,颗粒物(PM10),67,83,77,27,22,150,,137,137,14,31,5,5,0.4,0.4
2025-04-25T1800,4184A,115.4797,35.24401,菏泽市,永昌路1号,颗粒物(PM10),76,101,82,28,36,151,,135,135,13,35,6,6,0.3,0.3
2025-04-25T1800,4193A,115.4715,35.2800,菏泽市,长城路999号,颗粒物(PM10),73,96,81,52,24,149,,134,134,16,33,6,6,0.2,0.2
2025-04-25T1800,2514A,111.5264,24.4172,贺州市,环保小区,,,,19,13,12,57,,55,55,13,12,6,7,0.7,0.7
2025-04-25T1800,2515A,111.5608,24.4078,贺州市,政协大楼,,24,24,18,11,11,51,,54,54,16,13,9,8,0.6,0.6
2025-04-25T1800,3534A,111.4744,24.4553,贺州市,西湾,,22,22,17,10,11,62,,55,55,10,9,6,6,0.7,0.7
2025-04-25T1800,2385A,114.17,35.9019,鹤壁市,市监测站,颗粒物(PM10),112,174,85,56,27,188,,162,162,14,13,10,9,0.6,0.5
2025-04-25T1800,2386A,114.2956,35.7511,鹤壁市,市交警支队,颗粒物(PM10),93,135,90,53,24,169,,150,150,13,28,7,8,0.7,0.6
2025-04-25T1800,2387A,114.2878,35.7306,鹤壁市,迎宾馆,颗粒物(PM10),95,139,95,32,16,174,,156,156,11,23,2,6,0.6,0.5
2025-04-25T1800,3474A,114.2617,35.6822,鹤壁市,大新区,颗粒物(PM10),83,116,84,37,30,164,,147,147,12,44,8,9,0.6,0.4
2025-04-25T1800,3596A,114.1572,35.9603,鹤壁市,南山宾馆,颗粒物(PM10),109,168,85,60,36,187,,161,161,18,13,7,5,0.5,0.5
2025-04-25T1800,2244A,130.2537,47.3416,鹤岗市,哈啤分公司,,30,21,31,21,25,69,,63,63,6,10,15,15,0.3,0.4
2025-04-25T1800,2245A,130.2684,47.3086,鹤岗市,斯达机电,,25,24,38,17,28,65,,63,63,12,12,12,12,0.2,0.2
2025-04-25T1800,2246A,130.3114,47.3388,鹤岗市,东山纸板厂,,33,26,66,23,34,70,,65,65,10,15,12,13,0.3,0.7
2025-04-25T1800,2247A,130.1097,47.3382,鹤岗市,五号水库,,,,,,,,,,,,,,,,
2025-04-25T1800,2263A,127.4833,50.2524,黑河市,交通局,,25,17,15,17,12,69,,70,70,6,6,7,7,0.3,0.3
2025-04-25T1800,2264A,127.5144,50.2341,黑河市,环保局,,25,,13,17,15,71,,66,66,5,8,3,4,0.3,0.3
2025-04-25T1800,2265A,127.5291,50.2472,黑河市,大黑河岛,,,,,,,,,,,,,,,,
2025-04-25T1800,1074A,115.6838,37.7541,衡水市,电机北厂,颗粒物(PM10),79,107,73,38,27,178,,156,156,11,17,6,6,0.4,0.3
2025-04-25T1800,1075A,115.6303,37.7316,衡水市,市监测站,颗粒物(PM10),80,110,69,38,21,170,,155,155,13,19,8,6,0.4,0.3
2025-04-25T1800,3188A,115.6683,37.7217,衡水市,市城管局,颗粒物(PM10),82,113,68,36,27,172,,153,153,11,19,4,5,0.5,0.4
2025-04-25T1800,3459A,115.5989,37.5491,衡水市,地表水厂,颗粒物(PM10),102,153,84,28,26,164,,158,158,14,28,6,10,0.5,0.4
2025-04-25T1800,2456A,112.5003,26.9167,衡阳市,原169医院,,41,13,24,12,13,131,,132,132,8,10,5,5,0.5,0.6
2025-04-25T1800,2457A,112.6194,26.9258,衡阳市,衡阳化工总厂,,37,26,30,9,14,117,,118,118,5,6,6,6,0.5,0.5
2025-04-25T1800,2458A,112.6211,26.8956,衡阳市,珠晖区环保局,,36,26,27,12,11,115,,119,119,10,13,7,7,0.6,0.6
2025-04-25T1800,2459A,112.6197,26.8733,衡阳市,市委党校,,35,23,26,10,11,112,,115,115,4,6,4,3,0.2,0.2
2025-04-25T1800,2460A,112.6006,26.8919,衡阳市,市监测站,,35,25,29,12,17,110,,116,116,9,8,8,9,0.5,0.5
2025-04-25T1800,2461A,112.5664,26.9056,衡阳市,真空机电公司,,36,16,26,14,14,113,,118,118,6,7,4,5,0.6,0.6
2025-04-25T1800,3399A,112.6703,26.882,衡阳市,师范学院,,35,24,29,11,14,111,,120,119,8,9,5,6,0.5,0.6
2025-04-25T1800,2608A,103.3772,23.3993,红河哈尼族彝族自治州,污水处理厂,颗粒物(PM10),62,74,45,27,29,103,,104,104,8,10,4,9,0.5,0.4
2025-04-25T1800,2609A,103.3861,23.35,红河哈尼族彝族自治州,监测站,颗粒物(PM10),58,65,54,33,33,99,,100,100,9,11,8,15,0.4,0.3
2025-04-25T1800,3038A,103.3758,23.368,红河哈尼族彝族自治州,州图书馆,,50,50,50,30,29,94,,92,92,6,9,3,10,0.3,0.3
2025-04-25T1800,1090A,111.6507,40.7517,呼和浩特市,呼市一监,,48,48,45,13,16,135,,118,118,4,13,7,5,0.4,0.5
2025-04-25T1800,1091A,111.6572,40.8033,呼和浩特市,小召,,46,46,48,12,17,111,,104,104,19,26,8,8,0.4,0.4
2025-04-25T1800,1094A,111.7516,40.8369,呼和浩特市,如意水处理厂,,38,35,44,16,19,120,,107,107,7,30,8,9,0.3,0.4
2025-04-25T1800,1095A,111.7276,40.8062,呼和浩特市,二十九中,,40,40,41,11,18,121,,105,105,5,18,6,6,0.3,0.5
2025-04-25T1800,1096A,111.5512,40.7866,呼和浩特市,工大金川校区,,44,44,51,10,21,126,,112,112,10,34,8,8,0.5,0.6
2025-04-25T1800,1097A,111.717,40.7612,呼和浩特市,化肥厂生活区,颗粒物(PM10),51,51,44,16,17,122,,109,109,15,19,11,10,0.3,0.5
2025-04-25T1800,3698A,111.5968,40.8178,呼和浩特市,红旗小学,颗粒物(PM10),52,53,50,12,17,126,,111,111,13,33,5,6,0.3,0.4
2025-04-25T1800,3699A,111.6518,40.8389,呼和浩特市,海东办,,41,41,47,12,20,124,,108,108,8,28,8,8,0.4,0.5
2025-04-25T1800,2192A,119.7594,49.2261,呼伦贝尔市,区环保局,,30,,36,20,33,94,,90,90,10,10,5,5,0.3,0.3
2025-04-25T1800,3061A,119.7512,49.1577,呼伦贝尔市,国华电力东,,31,23,38,14,20,99,,93,93,6,6,8,4,0.2,0.2
2025-04-25T1800,1250A,120.0751,30.8669,湖州市,城西水厂,颗粒物(PM10),69,87,74,21,25,136,,116,116,22,22,7,7,0.3,0.4
2025-04-25T1800,2873A,120.0830,30.8929,湖州市,仁皇山新区,颗粒物(PM10),77,103,78,26,25,140,,112,112,26,23,5,5,0.5,0.7
2025-04-25T1800,2907A,120.1844,30.8596,湖州市,吴兴区站,颗粒物(PM10),66,81,63,23,25,135,,115,115,19,20,7,7,0.3,0.4
2025-04-25T1800,3562A,120.4148,30.8538,湖州市,南浔区站,颗粒物(PM10),61,72,68,20,25,124,,113,113,24,23,4,5,0.3,0.5
2025-04-25T1800,1607A,120.9049,40.7211,葫芦岛市,龙港区,,32,32,42,18,12,84,,85,85,14,24,7,8,0.3,0.4
2025-04-25T1800,1608A,120.8392,40.7514,葫芦岛市,化工街,,27,27,44,3,13,84,,87,87,16,35,9,20,0.4,0.5
2025-04-25T1800,1609A,120.8341,40.7073,葫芦岛市,新区,,42,42,38,7,12,83,,84,84,17,31,6,7,0.4,0.4
2025-04-25T1800,1610A,120.8695,40.7677,葫芦岛市,东城区,,29,27,44,20,16,79,,85,85,15,33,4,22,0.4,0.5
2025-04-25T1800,2482A,109.5981,27.5721,怀化市,林科所,,39,39,37,11,19,76,,80,80,9,7,10,9,0.2,0.2
2025-04-25T1800,2483A,109.9453,27.5444,怀化市,河西地税局,,44,44,37,21,17,76,,88,88,20,12,4,3,0.6,0.5
2025-04-25T1800,2484A,109.9781,27.5342,怀化市,市四医院,,31,31,40,16,19,98,,93,93,6,7,3,7,0.5,0.5
2025-04-25T1800,2485A,109.9972,27.5578,怀化市,监测楼,,39,39,41,20,19,100,,93,93,6,8,3,6,0.5,0.5
2025-04-25T1800,2486A,110.0394,27.583,怀化市,市委党校,,41,41,39,19,21,97,,87,87,4,10,6,20,0.5,0.5
2025-04-25T1800,1210A,119.036,33.5981,淮安市,钵池山,颗粒物(PM10),53,56,63,13,16,120,,111,111,14,21,8,8,0.3,0.3
2025-04-25T1800,1211A,119.007,33.575,淮安市,北京南路,颗粒物(PM10),53,56,66,12,14,129,,118,118,9,18,8,8,0.4,0.4
2025-04-25T1800,1212A,118.989,33.6067,淮安市,市监测站,,46,46,58,14,13,117,,110,110,19,21,12,9,0.3,0.3
2025-04-25T1800,1213A,119.135,33.5039,淮安市,楚州区监测站,颗粒物(PM10),56,61,74,12,18,115,,106,106,7,16,8,9,0.5,0.5
2025-04-25T1800,3426A,118.8755,33.2894,淮安市,新华书店,颗粒物(PM10),55,59,67,14,13,130,,120,120,14,21,10,8,0.5,0.4
2025-04-25T1800,4206A,119.0288,33.6319,淮安市,承德北路606号,颗粒物(PM10),53,56,82,13,20,124,,113,113,10,25,7,8,0.3,0.4
2025-04-25T1800,2282A,116.8004,33.975,淮北市,监测站,,,,88,31,33,151,,134,134,16,18,7,8,0.6,0.7
2025-04-25T1800,2283A,116.8091,33.9007,淮北市,烈山区政府,颗粒物(PM10),61,71,98,20,16,144,,131,131,11,16,6,7,0.5,0.6
2025-04-25T1800,3330A,116.8873,33.9836,淮北市,杜集区检察院,颗粒物(PM10),60,70,84,19,18,148,,131,131,17,17,7,7,0.6,0.7
2025-04-25T1800,4017A,116.7923,33.9535,淮北市,市博物馆,颗粒物(PM10),52,54,76,22,22,148,,134,134,14,16,7,8,0.6,0.6
2025-04-25T1800,2277A,116.8305,32.7727,淮南市,潘集区政府,颗粒物(PM10),62,74,82,25,28,141,,127,127,14,19,6,7,0.3,0.3
2025-04-25T1800,2279A,116.8569,32.5951,淮南市,谢家集区政府,颗粒物(PM10),56,61,72,19,19,146,,130,130,14,14,5,6,0.3,0.3
2025-04-25T1800,2280A,116.8281,32.633,淮南市,八公山区政府,颗粒物(PM10),64,78,83,22,20,149,,130,130,9,13,6,6,0.3,0.3
2025-04-25T1800,2281A,116.6325,32.6201,淮南市,焦岗湖风景区管理处,,,,,,,,,,,,,,,,
2025-04-25T1800,2894A,117.0566,32.6531,淮南市,经济技术开发区消防队,颗粒物(PM10),54,58,67,19,25,144,,127,127,12,19,6,6,0.4,0.3
2025-04-25T1800,3329A,117.0108,32.5893,淮南市,山南新区,颗粒物(PM10),58,66,81,3,11,152,,138,138,10,12,8,8,0.3,0.3
2025-04-25T1800,4209A,117.0031,32.6445,淮南市,国庆中路369号,颗粒物(PM10),54,57,70,20,21,152,,137,137,7,9,7,7,0.4,0.4
2025-04-25T1800,2446A,114.9028,30.4742,黄冈市,职工中心,臭氧1小时,74,56,76,37,50,179,,166,166,6,20,8,7,0.7,0.7
2025-04-25T1800,2929A,114.8858,30.4519,黄冈市,红卫路,臭氧1小时,68,60,81,36,50,174,,161,161,10,17,7,7,0.7,0.7
2025-04-25T1800,3398A,114.9136,30.4445,黄冈市,市林业局,臭氧1小时,68,64,81,35,51,174,,160,160,10,17,9,8,0.6,0.7
2025-04-25T1800,2672A,102.0199,35.5102,黄南藏族自治州,同仁县隆务镇,,34,34,34,15,14,90,,91,91,2,3,5,5,0.2,0.2
2025-04-25T1800,2295A,118.2903,29.6963,黄山市,延安路89号,,38,27,22,22,14,119,,121,121,2,2,4,4,0.3,0.4
2025-04-25T1800,2297A,118.1371,30.2756,黄山市,黄山区政府5号楼,颗粒物(PM10),55,60,39,25,18,136,,130,130,6,5,4,3,0.6,0.6
2025-04-25T1800,4210A,118.3354,29.7203,黄山市,滨江东路7-2号,,46,46,29,13,11,121,,121,121,2,5,4,4,0.4,0.5
2025-04-25T1800,2423A,115.0601,30.2313,黄石市,沈家营,颗粒物(PM10),53,56,80,22,32,148,,159,158,24,19,6,7,0.7,0.9
2025-04-25T1800,2426A,114.8988,30.2019,黄石市,铁山,颗粒物(PM10),68,86,70,16,40,146,,147,147,22,19,8,7,0.4,0.3
2025-04-25T1800,2427A,115.0307,30.2092,黄石市,团城山,,49,40,73,17,31,155,,153,153,8,17,7,8,0.4,0.7
2025-04-25T1800,3149A,115.0235,30.1578,黄石市,笔架山北路,,49,32,57,9,27,156,,160,160,6,9,5,6,0.4,0.9
2025-04-25T1800,4185A,115.0780,30.21118,黄石市,磁湖东路29号,臭氧1小时,57,54,78,20,45,165,,166,166,3,16,7,7,0.7,0.8
2025-04-25T1800,1392A,114.4183,23.0528,惠州市,河南岸金山湖子站,,19,15,19,9,12,58,,64,59,17,14,8,8,0.6,0.5
2025-04-25T1800,1393A,114.4053,23.0822,惠州市,下埔横江三路子站,,19,16,20,8,12,59,,76,63,15,12,9,8,0.8,0.6
2025-04-25T1800,1394A,114.4103,23.1142,惠州市,江北云山西路子站,,19,18,18,10,11,59,,78,60,14,11,10,10,0.6,0.5
2025-04-25T1800,1395A,114.4645,22.7833,惠州市,惠阳区承修路船湖子站,,36,36,24,20,13,48,,73,65,22,15,8,7,0.9,0.6
2025-04-25T1800,1396A,114.5317,22.7422,惠州市,大亚湾管委会子站,,22,22,18,11,11,65,,81,74,20,13,8,8,0.6,0.6
2025-04-25T1800,3314A,114.4338,22.8134,惠州市,惠阳秋长,,22,22,18,14,15,65,,78,77,17,10,6,5,0.7,0.6
2025-04-25T1800,3452A,114.6517,22.775,惠州市,大亚湾霞涌,,32,30,13,22,9,58,,91,85,16,11,7,6,0.7,0.5
2025-04-25T1800,2240A,130.9762,45.3001,鸡西市,环保局,,23,22,46,6,32,71,,77,76,8,10,5,6,0.3,0.4
2025-04-25T1800,2243A,130.9429,45.3039,鸡西市,第一中学,,23,12,43,9,30,73,,76,76,4,6,5,6,0.3,0.4
2025-04-25T1800,3707A,131.0207,45.3073,鸡西市,欧美日汽修厂,,22,13,54,10,38,70,,74,73,8,12,4,6,0.4,0.5
2025-04-25T1800,3709A,130.9967,45.3106,鸡西市,市政设施管理处,,22,22,54,10,31,66,,74,72,11,15,6,7,0.4,0.4
2025-04-25T1800,2367A,114.9754,27.0803,吉安市,红声器材厂,,30,27,32,10,14,96,,97,97,6,8,10,12,0.5,0.5
2025-04-25T1800,2368A,114.9658,27.0999,吉安市,市森林工业局,,29,25,28,10,16,91,,98,98,7,7,8,11,0.5,0.3
2025-04-25T1800,2369A,114.99,27.1312,吉安市,市环境监测站,,34,34,26,16,16,94,,99,99,4,6,10,13,0.5,0.4
2025-04-25T1800,2370A,115.0093,27.0968,吉安市,青原区法院,,31,25,31,10,18,98,,97,97,5,8,10,13,0.4,0.4
2025-04-25T1800,1772A,126.54,43.8622,吉林市,哈达湾,,27,26,32,12,9,84,,83,83,12,9,6,6,0.3,0.3
2025-04-25T1800,1773A,126.5844,43.8358,吉林市,东局子,,32,32,54,13,10,76,,78,78,18,10,5,5,0.5,0.5
2025-04-25T1800,1774A,126.5052,43.8245,吉林市,电力学院,,27,23,25,14,10,86,,84,84,8,6,5,4,0.3,0.3
2025-04-25T1800,1775A,126.6133,43.8972,吉林市,江北,,36,36,33,12,8,74,,78,78,21,12,11,7,0.5,0.5
2025-04-25T1800,1776A,126.555,43.8306,吉林市,江南公园,,27,24,29,14,12,84,,83,83,10,7,5,5,0.3,0.3
2025-04-25T1800,1778A,126.7061,43.7133,吉林市,丰满,,,,,,,,,,,,,,,,
2025-04-25T1800,2868A,126.4739,43.953,吉林市,九站,,,,31,11,9,82,,82,82,9,6,48,9,0.9,0.9
2025-04-25T1800,1299A,116.9862,36.6114,济南市,科干所,颗粒物(PM10),68,85,61,22,17,163,,152,152,9,20,6,5,0.3,0.3
2025-04-25T1800,1300A,116.9376,36.665,济南市,农科所,颗粒物(PM10),74,98,81,3,20,153,,143,143,14,41,9,8,0.4,0.5
2025-04-25T1800,1301A,117.1265,36.6734,济南市,开发区,细颗粒物(PM2.5),89,76,58,66,20,158,,150,150,12,24,9,8,0.5,0.5
2025-04-25T1800,1303A,117.0624,36.6868,济南市,省种子仓库,颗粒物(PM10),104,158,82,27,21,160,,148,148,11,38,6,5,0.3,0.3
2025-04-25T1800,1304A,116.9489,36.6447,济南市,机床二厂,颗粒物(PM10),108,166,98,24,25,157,,143,143,16,46,10,9,0.4,0.5
2025-04-25T1800,1305A,117.0495,36.663,济南市,市监测站,颗粒物(PM10),80,110,66,22,23,152,,144,144,14,35,10,8,0.5,0.5
2025-04-25T1800,1306A,116.7675,36.5484,济南市,长清党校,颗粒物(PM10),81,112,70,37,24,162,,150,150,13,29,8,7,0.5,0.5
2025-04-25T1800,1616A,117.6795,36.229,济南市,技术学院,颗粒物(PM10),82,114,78,19,22,155,,142,142,14,34,11,12,0.6,0.6
2025-04-25T1800,1961A,117.532,36.6868,济南市,东山小学,颗粒物(PM10),79,107,79,24,17,160,,149,149,11,30,8,8,0.3,0.3
2025-04-25T1800,3059A,117.7161,36.2049,济南市,泰兴公司,颗粒物(PM10),64,78,68,22,21,157,,146,146,15,41,9,10,0.5,0.6
2025-04-25T1800,3064A,117.6867,36.2171,济南市,莱芜战役纪念馆,颗粒物(PM10),54,58,59,22,19,156,,144,144,17,34,7,6,0.0,0.1
2025-04-25T1800,3494A,117.1673,36.9782,济南市,济阳区政府,颗粒物(PM10),89,127,112,22,32,158,,161,161,17,14,10,10,0.4,0.4
2025-04-25T1800,3495A,117.1171,36.63,济南市,锦屏中学,颗粒物(PM10),72,93,49,20,14,160,,147,147,13,18,6,4,0.3,0.3
2025-04-25T1800,3682A,116.9814,36.6819,济南市,济南四建,颗粒物(PM10),84,117,81,27,25,164,,152,152,10,43,7,6,0.4,0.5
2025-04-25T1800,1653A,116.6251,35.4302,济宁市,火炬城,颗粒物(PM10),75,100,75,14,23,139,,136,136,7,24,4,5,0.3,0.3
2025-04-25T1800,1655A,116.5491,35.4042,济宁市,电化厂,颗粒物(PM10),58,66,68,17,26,133,,131,131,6,25,2,4,0.4,0.4
2025-04-25T1800,3500A,116.5814,35.3707,济宁市,北湖一中,,,80,70,,13,140,,138,138,12,23,3,4,0.3,0.3
2025-04-25T1800,3501A,116.8249,35.5593,济宁市,服务中心,颗粒物(PM10),79,107,90,23,25,133,,124,124,12,31,4,3,0.3,0.4
2025-04-25T1800,3678A,116.5907,35.4054,济宁市,市第七中学,颗粒物(PM10),69,87,81,14,18,148,,145,145,2,15,4,5,0.3,0.4
2025-04-25T1800,2255A,130.2751,46.8028,佳木斯市,佳纺,,26,15,39,13,29,83,,75,75,11,9,3,3,0.4,0.4
2025-04-25T1800,2256A,130.3995,46.8307,佳木斯市,发电厂,,25,21,34,17,30,77,,78,78,18,11,5,4,0.4,0.7
2025-04-25T1800,2257A,130.3258,46.7975,佳木斯市,环保局,,25,14,36,12,30,77,,75,75,18,10,4,4,0.4,0.4
2025-04-25T1800,2258A,130.3648,46.8032,佳木斯市,十一中,,23,16,36,14,31,72,,77,76,17,10,4,4,0.4,0.4
2025-04-25T1800,2259A,130.3794,46.7588,佳木斯市,四丰,,28,28,34,8,19,71,,65,65,13,7,1,1,0.4,0.9
2025-04-25T1800,1252A,120.7436,30.778,嘉兴市,清河小学,颗粒物(PM10),70,90,84,15,23,105,,98,98,22,22,6,5,0.6,0.8
2025-04-25T1800,1253A,120.726,30.7478,嘉兴市,嘉兴学院,颗粒物(PM10),58,65,67,14,24,113,,109,109,19,20,7,6,0.6,0.7
2025-04-25T1800,2872A,120.7846,30.7525,嘉兴市,南湖区残联,颗粒物(PM10),60,70,71,15,25,121,,114,114,20,21,8,6,0.4,0.6
2025-04-25T1800,3407A,120.6916,30.7739,嘉兴市,秀洲住建,颗粒物(PM10),53,55,68,19,24,125,,118,118,16,20,6,7,0.5,0.7
2025-04-25T1800,1945A,98.2908,39.7711,嘉峪关市,气象局,颗粒物(PM10),57,63,52,19,14,123,,114,114,10,18,20,22,0.5,0.4
2025-04-25T1800,2884A,98.2672,39.7978,嘉峪关市,酒钢宾馆,颗粒物(PM10),54,58,56,19,18,122,,111,111,6,14,29,28,0.3,0.4
2025-04-25T1800,3248A,98.2643,39.7724,嘉峪关市,雄关区,,46,46,43,14,15,124,,115,115,8,20,13,10,0.4,0.5
2025-04-25T1800,1383A,113.1064,22.6058,江门市,北街,,30,30,21,19,20,18,,47,25,52,29,2,2,0.7,0.5
2025-04-25T1800,1384A,113.0731,22.5835,江门市,西区,,27,17,19,14,9,20,,54,36,53,25,5,5,0.8,0.5
2025-04-25T1800,1385A,113.0219,22.5311,江门市,圭峰西,,41,41,16,15,6,19,,47,43,46,21,4,3,0.8,0.6
2025-04-25T1800,1386A,113.0828,22.5947,江门市,东湖,,29,29,27,18,16,20,,45,26,48,24,7,7,0.8,0.6
2025-04-25T1800,3311A,113.1075,22.5647,江门市,江海富民,,35,29,32,24,22,19,,48,37,47,22,7,7,0.8,0.5
2025-04-25T1800,3449A,113.05,22.4667,江门市,新会银湖,,39,,17,27,18,14,,46,42,42,24,2,2,0.8,0.5
2025-04-25T1800,1830A,113.1992,35.2590,焦作市,影视城,,,,26,,16,,,,,,12,,8,,0.3
2025-04-25T1800,3169A,113.2725,35.2067,焦作市,太极体育中心,颗粒物(PM10),84,118,95,54,37,171,,154,154,15,20,7,8,0.2,0.3
2025-04-25T1800,3335A,113.3137,35.2641,焦作市,马村街道办,颗粒物(PM10),89,128,81,42,29,188,,156,156,12,15,14,10,0.2,0.2
2025-04-25T1800,3336A,113.2465,35.2373,焦作市,焦作技师学院,,,,81,,22,184,,162,162,,13,10,9,,0.3
2025-04-25T1800,3477A,113.1656,35.2539,焦作市,中站许衡医院,颗粒物(PM10),91,132,80,36,31,185,,164,164,12,26,10,11,0.5,0.4
2025-04-25T1800,3981A,113.2449,35.1803,焦作市,原李万街道办,颗粒物(PM10),97,143,85,36,28,181,,163,163,13,21,10,12,0.3,0.4
2025-04-25T1800,4264A,113.2340,35.2190,焦作市,新安路1731号,颗粒物(PM10),85,120,75,41,33,184,,162,162,11,15,8,9,0.6,0.6
2025-04-25T1800,1708A,116.3701,23.5345,揭阳市,新兴,,31,,20,19,17,97,,100,100,20,13,4,6,0.7,0.7
2025-04-25T1800,1709A,116.3264,23.5443,揭阳市,西马,,30,20,24,20,13,95,,100,100,13,8,6,7,0.8,0.7
2025-04-25T1800,1710A,116.3611,23.5626,揭阳市,东兴,,31,16,21,13,12,97,,99,99,16,11,4,5,1.0,1
2025-04-25T1800,1711A,116.4151,23.5294,揭阳市,渔湖,,32,6,24,6,11,102,,102,102,18,12,3,4,0.7,0.7
2025-04-25T1800,3320A,116.403,23.5699,揭阳市,曲溪,,33,16,19,14,11,103,,106,106,19,14,2,5,0.6,0.5
2025-04-25T1800,1944A,102.1692,38.5167,金昌市,天庆家园,颗粒物(PM10),57,63,66,18,29,131,,132,132,8,18,15,35,0.6,0.8
2025-04-25T1800,4022A,102.1647,38.5371,金昌市,金川区人防中心,颗粒物(PM10),60,70,70,19,24,146,,139,139,8,13,33,42,0.5,0.5
2025-04-25T1800,4239A,102.1930,38.5319,金昌市,长春路96号,颗粒物(PM10),56,62,75,17,22,143,,135,135,3,15,17,16,0.6,0.7
2025-04-25T1800,1262A,119.647,29.077,金华市,十五中,,49,34,25,22,17,154,,136,136,20,21,2,2,0.4,0.4
2025-04-25T1800,1263A,119.686,29.1029,金华市,监测站,,48,30,26,22,22,152,,141,141,23,26,4,4,0.5,0.5
2025-04-25T1800,3659A,119.656,29.1131,金华市,气象局,,48,36,28,18,13,153,,142,142,20,27,1,1,0.5,0.4
2025-04-25T1800,1767A,121.1115,41.0879,锦州市,南山,,36,36,45,12,22,85,,88,88,15,26,5,12,0.4,0.6
2025-04-25T1800,1768A,121.0604,40.8428,锦州市,开发区,,39,39,62,7,17,77,,77,77,22,44,4,10,0.4,0.5
2025-04-25T1800,1769A,121.1836,41.1119,锦州市,百股街道,,31,31,37,3,14,86,,89,89,10,15,5,8,0.4,0.5
2025-04-25T1800,1770A,121.1178,41.1222,锦州市,天安街道,,48,48,38,12,17,85,,88,88,17,21,6,12,0.5,0.5
2025-04-25T1800,1771A,121.1303,41.1386,锦州市,北湖公园,,35,35,37,9,17,86,,88,88,14,15,8,13,0.5,0.5
2025-04-25T1800,2160A,112.85,35.5051,晋城市,自来水公司,臭氧1小时,90,128,72,36,18,192,,158,158,16,21,15,11,0.7,0.7
2025-04-25T1800,2161A,112.8318,35.4936,晋城市,白云商贸,臭氧1小时,93,128,74,39,21,194,,160,160,17,22,13,9,0.6,0.6
2025-04-25T1800,2162A,112.8508,35.4887,晋城市,市环保局,颗粒物(PM10),90,130,75,34,19,180,,149,149,16,22,12,8,0.3,0.3
2025-04-25T1800,2163A,112.8676,35.4897,晋城市,技术学院,颗粒物(PM10),91,132,79,29,21,182,,152,152,18,25,12,9,0.7,0.6
2025-04-25T1800,2165A,112.8453,35.546,晋城市,白马寺,,,,57,,28,,,114,,,12,,7,,0.4
2025-04-25T1800,3620A,112.8271,35.4828,晋城市,泽州一中,臭氧1小时,93,109,67,41,18,194,,159,159,15,20,11,6,0.5,0.4
2025-04-25T1800,2173A,112.7249,37.7067,晋中市,南都小区,颗粒物(PM10),53,55,51,15,15,155,,130,130,10,27,8,7,0.3,0.3
2025-04-25T1800,2174A,112.6991,37.6982,晋中市,榆次区政府,颗粒物(PM10),51,51,53,9,13,159,,136,136,13,27,9,10,0.2,0.3
2025-04-25T1800,2865A,112.7195,37.6828,晋中市,榆次三中,臭氧1小时,54,53,54,12,14,163,,138,138,8,25,7,8,0.2,0.3
2025-04-25T1800,4200A,112.7478,37.6954,晋中市,迎宾街26号,颗粒物(PM10),53,56,51,12,10,157,,132,132,8,21,7,7,0.3,0.3
2025-04-25T1800,2439A,112.2014,31.0481,荆门市,竹园小学,颗粒物(PM10),82,113,103,42,27,165,,164,164,11,18,7,8,0.4,0.6
2025-04-25T1800,2440A,112.1969,30.9891,荆门市,掇刀,,,,,,,,,,,10,10,13,13,0.3,0.3
2025-04-25T1800,2441A,112.2213,31.0386,荆门市,石化一小,颗粒物(PM10),85,120,97,46,30,162,,162,162,10,18,11,11,0.2,0.2
2025-04-25T1800,3012A,112.1849,31.0362,荆门市,西山林语,颗粒物(PM10),79,107,88,39,25,160,,163,163,6,9,8,9,0.4,0.5
2025-04-25T1800,3547A,112.1632,31.0138,荆门市,龙泉中学南校,颗粒物(PM10),85,119,99,42,29,152,,156,156,18,19,9,9,0.7,0.7
2025-04-25T1800,1844A,112.2494,30.3197,荆州市,市图书馆,颗粒物(PM10),80,109,92,49,39,149,,148,148,16,27,12,8,0.4,0.5
2025-04-25T1800,1845A,112.2008,30.3544,荆州市,市委党校,颗粒物(PM10),88,125,101,38,40,145,,139,139,12,20,18,9,0.5,0.5
2025-04-25T1800,3194A,112.2747,30.3122,荆州市,管委会,颗粒物(PM10),70,90,83,48,37,144,,143,143,11,22,14,9,0.6,0.6
2025-04-25T1800,4268A,112.1722,30.3366,荆州市,学苑路85号,颗粒物(PM10),72,94,87,49,41,144,,149,149,15,21,13,5,0.3,0.4
2025-04-25T1800,2342A,117.3102,29.3867,景德镇市,王港中学,,,,,,,,,,,,,,,,
2025-04-25T1800,2343A,117.2117,29.2933,景德镇市,老干部活动中心,,37,32,22,15,11,118,,117,117,8,7,6,6,0.4,0.4
2025-04-25T1800,2344A,117.1894,29.2789,景德镇市,兽医站,,37,34,29,8,10,116,,116,116,7,8,4,3,0.4,0.4
2025-04-25T1800,2345A,117.1547,29.2617,景德镇市,台达陶瓷,,34,31,25,14,12,107,,118,118,18,10,15,12,0.6,0.6
2025-04-25T1800,2346A,117.2461,29.2956,景德镇市,陶研所,,38,28,21,18,14,120,,120,120,5,6,25,6,0.9,0.2
2025-04-25T1800,1803A,115.9872,29.6815,九江市,十里,,48,42,43,25,28,151,,148,148,8,20,4,3,0.6,0.6
2025-04-25T1800,1804A,115.9584,29.7046,九江市,茅山头,,45,36,49,27,26,142,,144,144,9,20,6,5,0.5,0.5
2025-04-25T1800,1805A,115.9877,29.7295,九江市,西园,,44,43,53,17,23,139,,141,141,24,46,7,13,0.8,0.8
2025-04-25T1800,1808A,115.9114,29.6038,九江市,综合工业园,,,,44,,22,146,,146,146,26,31,10,9,,0.8
2025-04-25T1800,1809A,116.0721,29.7535,九江市,石化总厂,,49,49,56,12,36,125,,132,132,22,30,5,7,0.7,0.7
2025-04-25T1800,1810A,115.9773,29.5698,九江市,庐山气象台,,43,43,46,23,30,122,,124,124,8,9,6,6,0.7,0.8
2025-04-25T1800,3190A,116.0254,29.6994,九江市,外国语学校,,42,39,43,24,25,133,,135,135,16,27,4,4,0.9,1
2025-04-25T1800,4253A,116.0102,29.6594,九江市,莲花大道8号,颗粒物(PM10),53,56,48,28,29,142,,136,136,6,12,6,5,0.7,0.7
2025-04-25T1800,4240A,98.4958,39.7339,酒泉市,玉门东路5号,,41,41,52,19,21,124,,118,118,4,12,8,13,0.2,0.4
2025-04-25T1800,4241A,98.5099,39.7506,酒泉市,北大街108号,,,,50,,17,129,,121,121,2,14,10,15,,0.3
2025-04-25T1800,2698A,76.0072,39.4467,喀什地区,巡警大队,,42,26,67,3,9,133,,108,108,6,19,3,3,0.3,0.4
2025-04-25T1800,2699A,75.9755,39.4694,喀什地区,吾办,,42,20,50,13,31,133,,110,110,8,18,2,3,0.2,0.3
2025-04-25T1800,4027A,75.9483,39.4689,喀什地区,老干局,,42,23,57,3,14,134,,108,108,6,12,2,2,0.6,0.6
2025-04-25T1800,1824A,114.3389,34.7781,开封市,肿瘤医院,颗粒物(PM10),97,144,105,35,30,146,,148,148,10,33,7,9,0.5,0.5
2025-04-25T1800,1826A,114.2885,34.7965,开封市,世纪星幼儿园,颗粒物(PM10),93,135,108,43,41,152,,160,160,22,38,6,7,0.7,0.7
2025-04-25T1800,3147A,114.3438,34.8106,开封市,龙亭公园,颗粒物(PM10),87,123,100,39,38,152,,153,153,12,41,4,7,0.8,0.7
2025-04-25T1800,3210A,114.3644,34.7964,开封市,汴京公园,颗粒物(PM10),115,180,138,42,38,161,,163,163,10,36,4,7,0.8,0.7
2025-04-25T1800,3473A,114.2485,34.8306,开封市,技师学院,颗粒物(PM10),87,123,85,41,32,147,,148,148,13,48,6,6,0.8,0.7
2025-04-25T1800,3592A,114.4644,34.7556,开封市,祥符区生态环境局,颗粒物(PM10),79,108,103,46,42,144,,148,148,21,48,8,9,0.5,0.5
2025-04-25T1800,1951A,84.895,45.6094,克拉玛依市,长征新村,,33,18,12,12,6,105,,101,101,4,5,7,7,0.2,0.2
2025-04-25T1800,1952A,84.8988,45.5893,克拉玛依市,南林小区,,36,16,12,3,6,113,,107,107,2,4,2,2,0.2,0.2
2025-04-25T1800,1954A,84.905,44.3396,克拉玛依市,独山子区,,36,16,19,12,7,115,,105,105,3,3,7,7,0.3,0.3
2025-04-25T1800,1955A,85.6979,46.098,克拉玛依市,乌尔禾区商贸楼,,36,,17,9,7,114,,102,102,1,4,6,6,0.2,0.2
2025-04-25T1800,3612A,85.1045,45.6899,克拉玛依市,白碱滩区新站,,33,19,21,3,6,105,,100,100,2,2,9,10,0.1,0.1
2025-04-25T1800,2697A,76.1454,39.7142,克孜勒苏柯尔克孜自治州,市人民政府,,46,31,63,20,28,146,,123,123,2,5,5,13,0.3,0.2
2025-04-25T1800,3665A,76.1658,39.7157,克孜勒苏柯尔克孜自治州,克州文化中心,,44,42,83,12,23,139,,114,114,2,4,7,11,0.3,0.2
2025-04-25T1800,1450A,102.8204,24.8886,昆明市,呈贡新区,颗粒物(PM10),54,58,48,19,30,130,,128,128,15,15,4,6,0.5,0.7
2025-04-25T1800,1451A,102.6251,24.9608,昆明市,西山森林公园,,,,,,,,,,,,,,,,
2025-04-25T1800,1452A,102.7252,25.0902,昆明市,龙泉镇,颗粒物(PM10),51,52,31,23,21,123,,118,118,13,12,8,8,0.4,0.6
2025-04-25T1800,1453A,102.7266,25.0375,昆明市,东风东路,颗粒物(PM10),52,54,44,25,26,128,,125,125,16,17,8,8,0.4,0.5
2025-04-25T1800,1454A,102.6742,25.0669,昆明市,金鼎山,颗粒物(PM10),58,65,39,15,23,126,,123,123,19,15,4,3,0.4,0.4
2025-04-25T1800,1455A,102.6644,25.0401,昆明市,碧鸡广场,,39,37,42,17,23,123,,116,116,17,14,7,6,0.4,0.4
2025-04-25T1800,3179A,102.7494,25.0119,昆明市,官渡区博物馆,颗粒物(PM10),56,62,41,21,22,133,,128,128,12,17,7,7,0.4,0.5
2025-04-25T1800,3375A,102.8017,24.8336,昆明市,青年创业园,,45,34,49,24,31,142,,134,134,7,12,7,8,0.4,0.6
2025-04-25T1800,3550A,102.7997,24.9786,昆明市,昆明学院,,45,45,48,19,25,137,,131,131,11,18,6,6,0.3,0.4
2025-04-25T1800,3551A,102.5967,24.6736,昆明市,晋宁区生态环境分局,,46,46,38,29,26,136,,128,128,6,13,6,7,0.3,0.4
2025-04-25T1800,3552A,102.6678,24.9856,昆明市,云天化总部,,40,28,40,11,25,128,,118,118,10,14,8,6,0.3,0.5
2025-04-25T1800,1456A,91.1319,29.6514,拉萨市,八廓街,,45,25,28,8,10,144,,150,149,5,7,6,6,0.2,0.2
2025-04-25T1800,1457A,91.1221,29.6747,拉萨市,市环保局,,45,31,32,6,12,142,,147,147,7,10,4,4,0.4,0.4
2025-04-25T1800,1458A,91.0874,29.6475,拉萨市,区监测站,,43,34,28,8,11,137,,144,143,9,8,5,5,0.2,0.2
2025-04-25T1800,1459A,91.1774,29.6541,拉萨市,西藏大学,,42,29,32,7,12,132,,139,137,8,9,5,6,0.3,0.3
2025-04-25T1800,1460A,90.9798,29.6588,拉萨市,区辐射站,,45,45,40,9,14,135,,141,141,10,16,7,8,0.4,0.4
2025-04-25T1800,1461A,91.0834,29.6292,拉萨市,拉萨火车站,,43,26,27,8,10,135,,142,141,5,4,3,3,0.4,0.4
2025-04-25T1800,2520A,109.2203,23.7256,来宾市,来宾技工学校,,34,25,24,14,10,106,,95,95,10,13,5,7,0.4,0.4
2025-04-25T1800,3535A,109.1781,23.7297,来宾市,兴宾区政府,,30,25,21,14,11,93,,84,84,8,7,5,6,0.5,0.6
2025-04-25T1800,4002A,109.2416,23.7461,来宾市,中南小学,,32,24,27,9,12,101,,91,91,7,10,5,5,0.6,0.6
2025-04-25T1800,1477A,104.1373,35.9454,兰州市,榆中兰大校区,,,,,,,,,,,,,,,,
2025-04-25T1800,1479A,103.831,36.0464,兰州市,铁路设计院,颗粒物(PM10),60,70,69,17,24,112,,111,111,21,66,7,13,0.4,0.7
2025-04-25T1800,3241A,103.7439,36.0842,兰州市,百合公园,颗粒物(PM10),58,65,66,15,24,106,,105,105,6,49,3,10,0.3,0.6
2025-04-25T1800,3242A,103.9611,35.998,兰州市,和平,颗粒物(PM10),61,71,69,37,30,115,,116,116,7,22,9,13,0.4,0.5
2025-04-25T1800,4236A,103.6293,36.0938,兰州市,庄浪东路808号,,,71,75,33,33,120,,138,136,,42,12,29,,0.6
2025-04-25T1800,4237A,103.7251,36.1043,兰州市,安宁西路88号,颗粒物(PM10),99,147,89,25,30,128,,129,129,13,47,6,16,0.5,0.6
2025-04-25T1800,4238A,103.8470,36.0676,兰州市,北滨河东路1号,颗粒物(PM10),128,206,85,34,31,123,,117,117,13,59,8,14,0.6,0.9
2025-04-25T1800,3245A,103.6633,36.533,兰州新区,新区管委会,颗粒物(PM10),58,66,59,24,30,131,,125,125,9,15,10,14,0.3,0.4
2025-04-25T1800,3246A,103.6975,36.4789,兰州新区,舟曲中学,颗粒物(PM10),53,55,71,21,32,131,,130,130,12,20,7,23,0.3,0.4
2025-04-25T1800,1067A,116.6708,39.5111,廊坊市,药材公司,颗粒物(PM10),56,61,46,24,15,143,,122,122,12,18,6,5,0.3,0.2
2025-04-25T1800,1068A,116.7214,39.5589,廊坊市,开发区,颗粒物(PM10),60,69,45,34,14,146,,123,123,15,25,5,3,0.4,0.3
2025-04-25T1800,1070A,116.7244,39.5269,廊坊市,北华航天学院,颗粒物(PM10),63,76,55,33,17,139,,119,119,14,35,8,6,0.4,0.4
2025-04-25T1800,2919A,116.7022,39.5453,廊坊市,河北工业大学,颗粒物(PM10),64,78,60,28,15,146,,120,120,7,25,9,7,0.4,0.4
2025-04-25T1800,2535A,103.7723,29.5462,乐山市,花湖湾,,36,36,39,25,25,103,,81,81,11,11,7,6,0.5,0.4
2025-04-25T1800,2536A,103.7627,29.5844,乐山市,牛耳桥,,50,50,42,27,23,98,,84,84,14,12,7,7,0.5,0.4
2025-04-25T1800,2537A,103.7508,29.6006,乐山市,市第三水厂,,46,46,40,24,24,103,,85,85,8,10,4,5,0.5,0.4
2025-04-25T1800,2538A,103.7571,29.5664,乐山市,市监测站,,46,46,40,29,24,94,,76,76,11,11,7,7,0.6,0.5
2025-04-25T1800,3361A,103.7311,29.5628,乐山市,理工大学,,41,41,36,27,24,107,,86,86,9,11,4,5,0.4,0.4
2025-04-25T1800,2598A,100.2143,26.8576,丽江市,西南郊,,40,40,42,20,20,122,,126,125,2,3,4,5,0.4,0.4
2025-04-25T1800,2599A,100.2497,26.8802,丽江市,丽江古城,,35,35,40,21,23,108,,113,113,11,12,5,6,0.5,0.5
2025-04-25T1800,2600A,100.2203,26.8906,丽江市,市中心,,,,32,,19,98,,106,106,11,9,8,7,,0.5
2025-04-25T1800,1267A,119.914,28.4514,丽水市,监测站大楼,,,,13,,6,105,,96,96,13,12,3,2,0.4,0.3
2025-04-25T1800,1268A,119.93,28.4586,丽水市,莲都小学,,35,29,18,12,8,110,,98,98,10,10,3,3,0.3,0.3
2025-04-25T1800,1269A,119.879,28.4231,丽水市,余庄前,,32,32,14,14,8,92,,94,94,17,13,3,3,0.4,0.4
2025-04-25T1800,1173A,119.176,34.5885,连云港市,市环境监测站,,44,44,85,9,16,131,,118,118,11,23,6,7,0.5,0.5
2025-04-25T1800,3000A,119.3581,34.6972,连云港市,德源药业,,44,44,92,9,15,122,,108,108,14,31,9,9,0.2,0.3
2025-04-25T1800,3007A,119.178,34.844,连云港市,新城一中,颗粒物(PM10),60,70,90,20,19,129,,115,115,14,32,8,10,0.5,0.6
2025-04-25T1800,3008A,119.3608,34.7519,连云港市,胡沟管理处,,37,34,51,7,11,117,,102,102,17,34,13,14,0.7,0.7
2025-04-25T1800,3009A,119.1478,34.5911,连云港市,矿山设计院,,46,46,82,7,16,128,,114,114,16,31,9,10,0.4,0.5
2025-04-25T1800,3434A,119.2413,34.6539,连云港市,工贸学校,颗粒物(PM10),69,88,74,15,17,128,,113,113,15,18,8,9,0.3,0.5
2025-04-25T1800,3664A,119.4172,34.7341,连云港市,连云街道,,50,50,65,15,14,125,,112,112,17,22,8,8,0.3,0.4
2025-04-25T1800,2571A,102.3431,27.8099,凉山彝族自治州,青龙寺,,34,20,18,9,6,108,,80,80,4,6,4,7,0.6,0.4
2025-04-25T1800,2572A,102.2721,27.8415,凉山彝族自治州,邛海宾馆,,34,32,19,19,11,107,,85,85,11,11,6,6,0.6,0.5
2025-04-25T1800,2573A,102.2625,27.898,凉山彝族自治州,西昌市政府,,32,32,21,21,14,102,,78,78,14,11,12,9,0.7,0.6
2025-04-25T1800,2574A,102.2685,27.8851,凉山彝族自治州,凉山州政府,,45,44,26,31,17,100,,80,80,17,14,8,6,0.9,0.5
2025-04-25T1800,4229A,102.2342,27.8859,凉山彝族自治州,凯乐南路30号,,39,39,25,25,17,90,,73,73,18,15,10,11,0.7,0.6
2025-04-25T1800,2212A,123.2,41.1953,辽阳市,宏伟区,,38,38,90,7,38,94,,100,100,14,17,9,12,0.4,0.8
2025-04-25T1800,2213A,123.1683,41.2495,辽阳市,新华园,,43,43,85,15,39,95,,103,103,14,15,11,13,0.6,0.8
2025-04-25T1800,2214A,123.2354,41.2639,辽阳市,滨河路,,37,37,75,13,39,94,,98,98,16,13,10,9,0.6,0.6
2025-04-25T1800,2215A,123.149,41.2991,辽阳市,铁西工业园,颗粒物(PM10),52,53,91,16,48,89,,96,96,12,18,12,11,0.4,0.4
2025-04-25T1800,2227A,125.1358,42.8845,辽源市,环保局,细颗粒物(PM2.5),104,119,79,78,31,101,,106,106,21,10,7,6,0.5,0.3
2025-04-25T1800,3239A,125.0764,42.9078,辽源市,银鹰制药,细颗粒物(PM2.5),109,100,70,82,36,105,,110,110,19,9,6,5,0.5,0.3
2025-04-25T1800,1625A,115.9848,36.4372,聊城市,区政府,颗粒物(PM10),76,102,86,23,24,148,,142,142,11,32,5,7,0.5,0.6
2025-04-25T1800,2878A,116.0072,36.4343,聊城市,聊大东校,颗粒物(PM10),82,114,98,39,37,149,,140,140,8,27,7,8,0.3,0.4
2025-04-25T1800,3200A,115.9819,36.4978,聊城市,监控中心,颗粒物(PM10),85,119,84,34,31,151,,144,144,12,38,7,9,0.4,0.4
2025-04-25T1800,3513A,116.0445,36.4361,聊城市,九州社区,颗粒物(PM10),56,61,61,12,18,157,,150,150,8,32,5,6,0.4,0.4
2025-04-25T1800,4018A,116.0567,36.4608,聊城市,星美广场,颗粒物(PM10),73,95,82,13,19,152,,143,143,15,33,9,10,0.6,0.6
2025-04-25T1800,2632A,94.3681,29.6376,林芝市,林芝监测站,,37,11,5,3,4,118,,118,118,6,7,5,5,0.2,0.2
2025-04-25T1800,2633A,94.3616,29.6616,林芝市,林芝人民医院,,36,16,9,8,5,114,,108,108,2,5,5,5,0.3,0.5
2025-04-25T1800,2603A,100.0781,23.8982,临沧市,市环保局,颗粒物(PM10),66,82,75,46,38,132,,128,128,6,11,8,7,0.4,0.5
2025-04-25T1800,2604A,100.0894,23.8822,临沧市,市气象局,颗粒物(PM10),58,65,66,32,40,136,,131,131,7,14,8,7,0.5,0.6
2025-04-25T1800,1733A,111.5531,36.0783,临汾市,临钢医院,颗粒物(PM10),78,106,87,22,17,158,,148,148,10,22,5,7,0.6,0.6
2025-04-25T1800,1734A,111.5028,36.0714,临汾市,技工学校,颗粒物(PM10),78,105,71,35,22,167,,159,159,9,17,7,9,0.4,0.5
2025-04-25T1800,1736A,111.5018,36.0855,临汾市,市委,颗粒物(PM10),82,113,77,30,19,164,,156,156,8,18,8,10,0.4,0.6
2025-04-25T1800,3018A,111.505,36.1014,临汾市,唐尧大酒店,颗粒物(PM10),82,114,85,19,18,157,,151,151,11,21,5,6,0.4,0.5
2025-04-25T1800,4244A,111.4879,36.0530,临汾市,启星学校,颗粒物(PM10),83,115,84,27,25,162,,155,155,12,22,8,10,0.4,0.5
2025-04-25T1800,4271A,103.2464,35.6123,临夏回族自治州,滨河东路1号,,,64,94,16,34,105,,105,105,,19,,7,0.3,0.5
2025-04-25T1800,4310A,103.2093,35.5995,临夏回族自治州,新华街21号,颗粒物(PM10),59,68,75,30,33,117,,109,109,14,23,8,5,0.3,0.5
2025-04-25T1800,1618A,118.3429,35.0532,临沂市,沂河小区,颗粒物(PM10),62,73,112,21,42,142,,127,127,13,23,11,20,0.2,0.3
2025-04-25T1800,1619A,118.295,35.0583,临沂市,鲁南制药厂,颗粒物(PM10),64,78,112,37,36,166,,143,143,17,38,11,21,0.2,0.3
2025-04-25T1800,1620A,118.2794,34.9976,临沂市,新光毛纺厂,颗粒物(PM10),62,73,112,24,37,156,,135,135,17,31,10,21,0.2,0.3
2025-04-25T1800,1621A,118.3956,35.0888,临沂市,河东保险公司,颗粒物(PM10),60,70,104,15,31,159,,142,142,12,32,6,8,0.3,0.5
2025-04-25T1800,3370A,118.3564,35.0215,临沂市,十里堡居委,颗粒物(PM10),63,75,114,19,34,154,,134,134,15,30,6,16,0.3,0.4
2025-04-25T1800,3496A,118.3604,35.1084,临沂市,南坊新区,颗粒物(PM10),84,117,125,17,26,146,,132,132,13,24,8,14,0.1,0.3
2025-04-25T1800,3860A,118.3920,35.0300,临沂市,皇山花园小区,,,90,124,20,34,152,,132,132,,24,10,15,0.4,0.5
2025-04-25T1800,1870A,109.4856,24.3895,柳州市,柳东小学,,33,21,19,13,11,103,,88,88,10,11,11,10,0.6,0.5
2025-04-25T1800,1871A,109.4157,24.3277,柳州市,环保监测站,,32,25,23,19,13,100,,86,86,6,8,10,11,0.7,0.7
2025-04-25T1800,1872A,109.389,24.341,柳州市,河西水厂,,31,29,28,11,13,98,,84,84,7,14,6,13,0.7,1.2
2025-04-25T1800,1873A,109.4311,24.2921,柳州市,市四中,,31,23,19,12,9,97,,86,86,7,7,8,8,0.7,0.6
2025-04-25T1800,1874A,109.4006,24.3631,柳州市,市九中,,33,27,26,11,12,104,,87,87,5,9,9,11,0.4,0.7
2025-04-25T1800,1875A,109.4958,24.3134,柳州市,古亭山,,33,31,22,23,12,94,,83,83,10,6,10,8,0.7,0.6
2025-04-25T1800,3402A,109.5422,24.3996,柳州市,市二中,,31,22,17,17,11,99,,85,85,8,10,12,10,0.4,0.4
2025-04-25T1800,2307A,116.5079,31.737,六安市,监测大楼,颗粒物(PM10),60,69,70,30,24,155,,144,144,15,20,6,6,0.4,0.4
2025-04-25T1800,2308A,116.4738,31.7643,六安市,皖西学院,颗粒物(PM10),68,86,84,29,24,162,,146,146,12,20,6,7,0.2,0.2
2025-04-25T1800,2309A,116.4996,31.7905,六安市,朝阳厂,颗粒物(PM10),61,71,75,27,24,151,,137,137,16,22,5,5,0.4,0.4
2025-04-25T1800,2310A,116.5567,31.7886,六安市,开发区,颗粒物(PM10),60,70,86,32,28,155,,142,142,13,21,5,6,0.4,0.4
2025-04-25T1800,2576A,104.8,26.5892,六盘水市,窑上,,39,33,28,27,16,95,,92,92,9,6,5,5,0.3,0.2
2025-04-25T1800,2577A,104.83,26.5917,六盘水市,黄土坡,,45,45,28,23,16,107,,103,103,14,17,9,10,0.4,0.5
2025-04-25T1800,2578A,104.89,26.5939,六盘水市,水钢,,37,29,33,16,11,117,,108,108,7,14,8,9,0.3,0.9
2025-04-25T1800,2579A,104.8475,26.5894,六盘水市,民中,,35,35,26,19,11,108,,102,102,10,15,9,11,0.3,0.4
2025-04-25T1800,2580A,104.9544,26.5506,六盘水市,双水,,39,39,23,22,8,112,,104,104,12,12,8,10,0.4,0.3
2025-04-25T1800,2335A,117.0189,25.1181,龙岩市,龙岩师专,,,,,,,,,,,,,,,,
2025-04-25T1800,2336A,117.0217,25.1033,龙岩市,龙岩市监测站,,15,,9,6,3,48,,57,50,17,11,4,5,0.8,0.6
2025-04-25T1800,2337A,117.0258,25.0661,龙岩市,闽西职业技术学院,,26,9,14,6,5,83,,56,56,18,11,3,3,0.7,0.7
2025-04-25T1800,2338A,117.0196,25.0306,龙岩市,龙岩学院,,23,6,20,3,5,71,,56,56,20,9,6,6,0.6,0.6
2025-04-25T1800,2665A,105.0822,33.3261,陇南市,汉王镇固水子,,,,,,,,,,,,,,,,
2025-04-25T1800,2885A,104.9339,33.3826,陇南市,滨江中学,颗粒物(PM10),57,63,63,21,28,100,,112,112,6,8,8,8,0.5,0.5
2025-04-25T1800,3247A,104.955,33.371,陇南市,市总工会,,38,38,52,16,23,109,,116,116,5,6,5,6,0.2,0.3
2025-04-25T1800,2487A,111.9589,27.8901,娄底市,电视发射台,颗粒物(PM10),51,52,47,20,20,130,,121,121,3,3,5,4,0.3,0.2
2025-04-25T1800,2488A,111.9975,27.725,娄底市,市监测站,颗粒物(PM10),52,53,52,21,27,146,,126,126,12,16,7,7,0.6,0.7
2025-04-25T1800,2489A,112.0194,27.7314,娄底市,市委党校,,46,38,46,24,25,147,,125,125,7,11,4,4,0.4,0.5
2025-04-25T1800,2490A,111.9561,27.7569,娄底市,涟钢,,45,43,48,18,24,143,,123,123,7,10,16,7,0.1,0.3
2025-04-25T1800,2491A,111.9892,27.7044,娄底市,市政府,,47,29,39,22,23,150,,126,126,6,8,5,4,0.4,0.4
2025-04-25T1800,1893A,105.4324,28.9634,泸州市,九狮山,,,,,,,,,,,,,,,,
2025-04-25T1800,1894A,105.4427,28.9063,泸州市,小市上码头,,,60,57,20,16,30,,27,27,26,21,,6,0.5,0.5
2025-04-25T1800,1895A,105.4241,28.8573,泸州市,兰田宪桥,,46,46,40,26,24,74,,63,63,15,16,9,9,0.5,0.6
2025-04-25T1800,1896A,105.4379,28.8833,泸州市,市环监站,,,,,,,,,,,,,,,,
2025-04-25T1800,4272A,105.3689,28.7783,泸州市,纳溪中医医院,,36,36,37,20,17,69,,52,52,15,16,7,7,0.6,0.7
2025-04-25T1800,2183A,111.1406,37.5211,吕梁市,环保局,颗粒物(PM10),68,86,83,19,18,132,,123,123,8,29,2,3,0.4,0.4
2025-04-25T1800,2185A,111.1297,37.5136,吕梁市,自来水公司,,49,49,81,17,15,130,,120,120,10,27,1,3,0.4,0.4
2025-04-25T1800,2867A,111.1283,37.51,吕梁市,马茂庄小学,,,,86,15,16,135,,17,,9,36,3,4,0.4,0.3
2025-04-25T1800,1812A,112.3931,34.6516,洛阳市,市委党校,颗粒物(PM10),80,110,72,40,30,142,,133,133,9,23,6,8,0.5,0.4
2025-04-25T1800,1815A,112.494,34.6886,洛阳市,河南林校,颗粒物(PM10),78,105,81,38,29,147,,135,135,14,24,8,9,0.4,0.3
2025-04-25T1800,1816A,112.3844,34.623,洛阳市,开发区管委会,颗粒物(PM10),82,113,73,38,30,158,,146,146,14,24,7,9,0.5,0.4
2025-04-25T1800,1817A,112.4267,34.6258,洛阳市,市委新办公区,颗粒物(PM10),79,108,73,37,25,153,,139,139,12,23,8,9,0.6,0.7
2025-04-25T1800,3340A,112.6005,34.6326,洛阳市,伊滨,颗粒物(PM10),86,122,84,38,30,162,,147,147,14,26,9,8,0.6,0.5
2025-04-25T1800,3341A,112.4951,34.6332,洛阳市,中移产业园,颗粒物(PM10),96,142,86,39,30,158,,147,147,13,30,10,9,0.5,0.4
2025-04-25T1800,3593A,112.5736,34.8993,洛阳市,吉利监测站,颗粒物(PM10),90,130,78,39,36,161,,153,153,15,23,9,11,0.6,0.6
2025-04-25T1800,3635A,112.3677,34.662,洛阳市,河科大西苑校区,颗粒物(PM10),84,118,76,37,26,158,,148,148,14,25,10,12,0.5,0.5
2025-04-25T1800,3636A,112.4388,34.6781,洛阳市,英才小学,颗粒物(PM10),77,104,77,35,29,158,,150,150,16,29,8,8,0.7,0.6
2025-04-25T1800,4214A,112.4600,34.6949,洛阳市,春都路1号院,颗粒物(PM10),81,112,86,37,25,163,,154,154,11,23,7,7,0.5,0.5
2025-04-25T1800,2399A,114.051,33.5699,漯河市,三五一五工厂,颗粒物(PM10),78,106,83,42,33,132,,136,136,11,22,4,8,0.7,0.6
2025-04-25T1800,2400A,114.0055,33.5698,漯河市,漯河大学,颗粒物(PM10),79,107,87,41,30,144,,141,141,8,19,5,8,0.4,0.4
2025-04-25T1800,2401A,114.0138,33.5828,漯河市,市水利局,颗粒物(PM10),78,105,89,39,29,144,,142,142,7,16,4,7,0.4,0.4
2025-04-25T1800,2402A,114.0261,33.5698,漯河市,市广电局,,,100,86,35,33,141,,138,138,,25,4,8,0.8,0.7
2025-04-25T1800,3478A,113.9749,33.5664,漯河市,市图书馆,颗粒物(PM10),83,116,91,36,28,138,,140,140,12,20,4,6,0.5,0.5
2025-04-25T1800,4250A,114.0892,33.5882,漯河市,韶山路11号,颗粒物(PM10),81,112,88,44,32,131,,137,137,13,29,3,9,0.5,0.5
2025-04-25T1800,1798A,118.5092,31.6837,马鞍山市,湖东路四小,颗粒物(PM10),57,63,77,12,13,140,,132,132,13,15,8,9,0.4,0.5
2025-04-25T1800,1799A,118.5024,31.6449,马鞍山市,开发区,颗粒物(PM10),56,62,79,20,23,138,,131,131,15,20,8,9,0.4,0.7
2025-04-25T1800,1802A,118.6245,31.7241,马鞍山市,濮塘,颗粒物(PM10),51,52,69,21,16,141,,137,137,7,10,7,8,0.4,0.5
2025-04-25T1800,3633A,118.4918,31.6809,马鞍山市,雨山,颗粒物(PM10),55,60,80,13,15,134,,129,129,18,18,8,9,0.3,0.4
2025-04-25T1800,4191A,118.5274,31.72227,马鞍山市,慈湖高新区,颗粒物(PM10),58,66,60,18,20,140,,135,135,20,16,8,9,0.5,0.6
2025-04-25T1800,1686A,111.0286,21.4688,茂名市,电白南海,,29,24,26,12,15,92,,88,88,17,11,1,1,0.8,0.7
2025-04-25T1800,1687A,110.9294,21.6533,茂名市,茂石化七小,,25,22,27,7,11,78,,84,83,14,9,3,2,1.0,0.9
2025-04-25T1800,1688A,110.9107,21.6687,茂名市,健康路,,30,19,23,14,14,95,,96,96,9,6,4,4,1.0,0.8
2025-04-25T1800,1689A,110.8592,21.6828,茂名市,高岭,,,,32,,16,,,61,,,9,,7,,0.7
2025-04-25T1800,3450A,111.01,21.5165,茂名市,电白水东,,28,9,16,7,9,88,,85,85,7,6,1,2,0.9,0.9
2025-04-25T1800,2539A,104.0308,30.0478,眉山市,黑龙滩水库,,29,26,27,15,15,91,,88,88,3,4,2,2,0.3,0.3
2025-04-25T1800,2540A,103.8416,30.0874,眉山市,气象局,颗粒物(PM10),58,65,52,27,23,55,,89,85,30,17,3,4,0.6,0.5
2025-04-25T1800,3137A,103.8578,30.0744,眉山市,市委党校,,39,39,39,22,18,70,,84,84,23,14,6,7,0.6,0.5
2025-04-25T1800,3148A,103.8291,30.0564,眉山市,区人社局,,49,49,42,19,16,73,,84,83,30,16,6,8,0.6,0.8
2025-04-25T1800,1690A,116.1231,24.3284,梅州市,梅江月梅,,12,9,13,3,6,38,,44,44,10,10,4,5,0.7,0.7
2025-04-25T1800,1691A,116.0797,24.2719,梅州市,梅县新城,,15,8,11,3,4,48,,54,53,9,8,5,5,0.6,0.6
2025-04-25T1800,1692A,116.1248,24.2654,梅州市,环境监控中心,,14,10,9,7,7,44,,51,48,11,13,6,6,1.0,0.9
2025-04-25T1800,3315A,116.1233,24.2991,梅州市,梅龙,,14,12,11,6,6,44,,50,49,6,7,5,5,0.8,0.8
2025-04-25T1800,1878A,104.7778,31.4741,绵阳市,富乐山,,41,41,42,28,25,76,,69,69,12,12,7,8,0.3,0.3
2025-04-25T1800,1880A,104.6697,31.4668,绵阳市,高新区自来水公司,,49,49,51,14,23,79,,61,61,16,19,3,4,0.3,0.4
2025-04-25T1800,1881A,104.7287,31.5075,绵阳市,三水厂,颗粒物(PM10),53,56,50,25,24,78,,70,70,15,15,6,6,0.6,0.5
2025-04-25T1800,3491A,104.69,31.5322,绵阳市,西科大附属小学,,45,45,51,19,24,74,,67,67,18,21,6,7,0.4,0.4
2025-04-25T1800,3492A,104.5648,31.5343,绵阳市,安州区旅游局,,44,44,41,27,23,81,,61,61,19,20,10,10,0.4,0.3
2025-04-25T1800,4226A,104.7651,31.4531,绵阳市,绵阳市气象局,,37,37,45,22,24,67,,63,59,19,13,6,7,0.5,0.4
2025-04-25T1800,1784A,129.61,44.561,牡丹江市,环保大楼,,22,20,54,11,41,69,,75,75,10,12,5,5,0.3,0.4
2025-04-25T1800,1785A,129.6115,44.5782,牡丹江市,文化广场,,28,,58,19,44,64,,73,73,16,13,10,10,0.6,0.6
2025-04-25T1800,1786A,129.5904,44.5963,牡丹江市,第一医院,,30,,52,21,46,71,,75,75,7,10,6,8,0.3,0.4
2025-04-25T1800,1787A,129.6364,44.6075,牡丹江市,机车工厂,,23,23,49,11,38,61,,70,70,14,12,6,16,0.4,0.5
2025-04-25T1800,1788A,129.6386,44.5462,牡丹江市,第一中学,,23,,51,15,37,73,,77,77,5,8,7,6,0.5,0.5
2025-04-25T1800,2531A,105.0703,29.61,内江市,市监测站,,37,37,39,22,24,93,,70,70,10,14,8,7,0.8,0.8
2025-04-25T1800,2532A,105.0717,29.5947,内江市,东兴区政府,,33,33,36,13,17,86,,63,63,8,13,10,9,0.6,0.6
2025-04-25T1800,2533A,105.0653,29.5817,内江市,内江二中,,36,36,44,16,26,81,,66,66,16,20,5,5,0.4,0.4
2025-04-25T1800,2534A,105.0406,29.5822,内江市,内江日报社,,33,33,40,19,27,90,,64,64,8,17,12,9,0.2,0.3
2025-04-25T1800,2628A,92.0657,31.4846,那曲市,那曲监测站,,46,44,42,11,22,147,,130,130,6,23,6,8,0.5,0.8
2025-04-25T1800,4243A,92.0515,31.4787,那曲市,那曲市委宣传部,颗粒物(PM10),52,54,43,15,15,115,,121,121,6,15,7,6,0.2,0.4
2025-04-25T1800,1290A,115.8931,28.6843,南昌市,省外办,,39,30,26,19,19,122,,120,120,18,17,4,5,1.2,0.5
2025-04-25T1800,1291A,115.8886,28.7003,南昌市,省林业公司,,39,22,22,14,14,122,,120,120,5,9,6,7,0.5,0.5
2025-04-25T1800,1292A,115.8126,28.7442,南昌市,林科所,,41,27,19,12,12,131,,130,130,10,10,4,4,0.3,0.3
2025-04-25T1800,1294A,115.8518,28.687,南昌市,建工学校,,38,21,29,11,26,121,,120,120,10,13,2,2,0.5,0.5
2025-04-25T1800,1295A,115.8921,28.6424,南昌市,象湖,,42,25,26,9,14,132,,132,132,6,6,6,6,0.5,0.5
2025-04-25T1800,1296A,115.7423,28.7996,南昌市,武术学校,,40,21,23,3,7,125,,131,131,3,3,3,2,0.4,0.4
2025-04-25T1800,3046A,115.9084,28.6062,南昌市,机电学校,,40,31,27,14,14,128,,129,129,8,11,4,4,0.4,0.4
2025-04-25T1800,3690A,115.9721,28.7031,南昌市,外国语学校,,45,29,23,16,13,144,,138,138,6,6,7,8,0.2,0.2
2025-04-25T1800,4192A,115.9316,28.68677,南昌市,南京东路235号,,42,26,25,14,12,134,,132,132,9,11,8,9,0.5,0.6
2025-04-25T1800,1905A,106.056,30.8064,南充市,西山风景区,细颗粒物(PM2.5),52,49,40,36,24,75,,61,61,12,9,5,5,0.6,0.6
2025-04-25T1800,1906A,106.0789,30.8023,南充市,南充市委,颗粒物(PM10),59,67,62,40,35,74,,64,64,13,17,4,4,0.5,0.5
2025-04-25T1800,1907A,106.1031,30.8217,南充市,南充炼油厂,颗粒物(PM10),63,75,59,42,33,68,,65,65,14,13,4,4,0.4,0.4
2025-04-25T1800,4227A,106.1083,30.7884,南充市,梨树横街98号,颗粒物(PM10),64,77,69,35,28,72,,64,64,10,15,4,3,0.2,0.2
2025-04-25T1800,4304A,106.1172,30.843,南充市,清泉寺北路188号,颗粒物(PM10),58,65,58,40,35,77,,69,69,10,13,4,4,0.3,0.3
2025-04-25T1800,4305A,106.067,30.7616,南充市,同庆路1号,颗粒物(PM10),57,64,53,39,30,67,,64,64,15,14,3,3,0.6,0.5
2025-04-25T1800,1151A,118.8086,32.1065,南京市,迈皋桥,,46,41,56,17,14,147,,127,127,9,22,4,5,0.2,0.3
2025-04-25T1800,1152A,118.7538,32.0551,南京市,草场门,颗粒物(PM10),54,58,76,17,16,149,,130,130,21,21,2,3,0.2,0.2
2025-04-25T1800,1153A,118.7794,32.0745,南京市,山西路,颗粒物(PM10),54,58,88,14,11,159,,137,137,15,18,5,5,0.3,0.3
2025-04-25T1800,1154A,118.7752,32.0023,南京市,中华门,颗粒物(PM10),58,66,73,19,14,160,,144,144,10,14,4,6,0.3,0.3
2025-04-25T1800,1155A,118.8109,32.0309,南京市,瑞金路,颗粒物(PM10),59,68,75,14,16,158,,137,137,5,12,6,6,0.5,0.5
2025-04-25T1800,1156A,118.7997,32.0754,南京市,玄武湖,颗粒物(PM10),51,52,70,9,10,153,,130,130,9,11,10,11,0.5,0.5
2025-04-25T1800,1157A,118.6414,32.0931,南京市,浦口,颗粒物(PM10),56,61,82,15,13,155,,139,139,22,24,6,8,0.6,0.6
2025-04-25T1800,1158A,118.7356,31.9996,南京市,奥体中心,颗粒物(PM10),58,65,83,19,16,159,,145,145,15,19,9,10,0.2,0.2
2025-04-25T1800,1159A,118.9125,32.1028,南京市,仙林大学城,颗粒物(PM10),54,58,81,17,13,155,,134,134,11,15,10,11,0.4,0.4
2025-04-25T1800,3422A,118.8436,31.9198,南京市,江宁彩虹桥,颗粒物(PM10),59,67,77,14,16,146,,133,133,11,18,4,4,0.3,0.5
2025-04-25T1800,3427A,118.8554,32.3578,南京市,六合雄州,颗粒物(PM10),61,72,62,26,13,156,,138,138,32,27,7,7,0.4,0.3
2025-04-25T1800,4249A,118.8708,31.3402,南京市,汶溪路181号,,,56,77,15,21,124,,121,121,9,18,5,6,,0
2025-04-25T1800,4312A,119.019,31.6512,南京市,中山西路1号,颗粒物(PM10),54,58,61,20,19,138,,128,128,22,20,7,7,0.4,0.5
2025-04-25T1800,1401A,108.3103,22.7881,南宁市,二十一中,,44,38,33,18,18,138,,107,107,7,14,4,6,0.7,0.8
2025-04-25T1800,1402A,108.3141,22.8528,南宁市,北湖,,40,30,32,19,19,126,,109,109,13,17,6,8,0.6,0.5
2025-04-25T1800,1403A,108.3206,22.8225,南宁市,市监测站,,39,35,32,17,17,124,,99,99,12,16,6,7,0.5,0.5
2025-04-25T1800,1404A,108.3829,22.8037,南宁市,大自然花园,,44,39,29,15,17,138,,103,103,8,13,6,6,0.6,0.6
2025-04-25T1800,1405A,108.4394,22.7904,南宁市,仙葫,,37,37,26,21,16,116,,94,94,7,13,5,6,0.6,0.6
2025-04-25T1800,1406A,108.2397,22.8467,南宁市,区农职院,,42,26,37,15,17,132,,113,113,13,15,4,11,0.5,0.5
2025-04-25T1800,1407A,108.3275,22.735,南宁市,英华嘉园,,45,27,33,21,20,143,,106,106,11,16,7,9,0.5,0.5
2025-04-25T1800,3401A,108.4834,22.7618,南宁市,红星社区,,46,46,25,22,16,135,,104,104,6,11,9,9,0.4,0.4
2025-04-25T1800,4221A,108.2177,22.7774,南宁市,乐贤路16号,,42,39,39,21,21,134,,109,109,15,22,9,9,0.7,0.7
2025-04-25T1800,2331A,118.0966,26.6761,南平市,茫荡山,,,,,,,,,,,,,,,,
2025-04-25T1800,2332A,118.1681,26.6369,南平市,南平市监测站,,25,6,4,3,3,78,,95,94,12,8,3,4,0.7,0.7
2025-04-25T1800,2333A,118.1825,26.6489,南平市,南平铝业有限公司,,26,6,6,3,3,82,,96,95,6,8,2,3,0.8,0.8
2025-04-25T1800,2334A,118.1756,26.6272,南平市,南平七中,,24,7,4,3,4,76,,99,96,9,6,8,7,0.8,0.8
2025-04-25T1800,1168A,120.9098,31.9663,南通市,狼山街道,,44,44,68,12,13,118,,109,109,17,16,4,4,0.2,0.3
2025-04-25T1800,1169A,120.86,32.0005,南通市,虹桥,,36,36,55,15,13,114,,110,110,20,22,2,2,0.4,0.4
2025-04-25T1800,1170A,120.87,32.02,南通市,城中,,43,43,72,11,11,116,,116,116,21,20,3,4,0.4,0.4
2025-04-25T1800,1171A,120.94,31.93,南通市,星湖花园,,40,40,61,14,13,117,,109,109,19,16,2,2,0.5,0.5
2025-04-25T1800,1172A,120.81,32.0417,南通市,紫琅学院,颗粒物(PM10),54,58,68,12,9,106,,105,105,22,20,4,4,0.5,0.5
2025-04-25T1800,3291A,121.067,32.062,南通市,通州监测站,,41,41,60,14,10,114,,119,118,11,9,4,5,0.4,0.5
2025-04-25T1800,3432A,120.9348,31.9883,南通市,环境教育馆,,37,36,58,13,10,118,,119,119,12,15,2,2,0.2,0.1
2025-04-25T1800,2404A,112.5224,33.0122,南阳市,瓦房庄,颗粒物(PM10),83,115,87,38,23,153,,160,160,12,15,6,7,0.6,0.5
2025-04-25T1800,2405A,112.5003,32.9735,南阳市,汉画馆,颗粒物(PM10),79,108,76,33,21,148,,147,147,13,15,6,7,0.5,0.4
2025-04-25T1800,2406A,112.5573,33.027,南阳市,气象站,颗粒物(PM10),87,123,91,34,24,152,,153,153,10,16,6,6,0.6,0.5
2025-04-25T1800,2407A,112.5481,32.9689,南阳市,理工学院,颗粒物(PM10),80,109,81,40,25,150,,150,150,13,16,7,6,0.5,0.5
2025-04-25T1800,4008A,112.5234,32.9922,南阳市,卧龙区政府,颗粒物(PM10),86,121,85,41,27,153,,153,153,13,16,6,6,0.6,0.5
2025-04-25T1800,1234A,121.8358,29.911,宁波市,区环保大楼,,,73,58,28,26,120,,106,106,34,38,,9,0.5,0.7
2025-04-25T1800,1235A,121.56,29.82,宁波市,万里学院,颗粒物(PM10),51,52,50,14,30,133,,121,121,29,26,7,6,0.3,0.5
2025-04-25T1800,1236A,121.713,29.9572,宁波市,龙赛医院,颗粒物(PM10),69,88,63,19,24,131,,112,112,18,28,5,6,0.5,0.6
2025-04-25T1800,1239A,121.633,29.7733,宁波市,钱湖水厂,,50,50,50,10,23,133,,112,112,23,20,8,8,0.6,0.8
2025-04-25T1800,1240A,121.5856,29.8635,宁波市,太古小学,颗粒物(PM10),52,54,55,19,23,126,,119,119,25,24,8,7,0.5,0.8
2025-04-25T1800,1241A,121.524,29.8674,宁波市,市环境监测中心,颗粒物(PM10),52,54,48,21,20,134,,118,118,26,28,14,11,0.4,0.5
2025-04-25T1800,2871A,121.6147,29.9017,宁波市,万里国际学校,,45,45,43,21,20,120,,114,114,32,27,9,9,0.6,0.7
2025-04-25T1800,3710A,121.5594,29.8975,宁波市,白沙活动中心,颗粒物(PM10),51,52,42,23,20,134,,119,119,25,25,9,8,0.5,0.5
2025-04-25T1800,2339A,119.5001,26.6946,宁德市,金涵水库,,,,,,,,,,,,,,,,
2025-04-25T1800,2341A,119.5388,26.6612,宁德市,宁德市监测站,,25,,10,13,11,79,,135,94,25,19,4,4,0.6,0.5
2025-04-25T1800,3209A,119.5231,26.6562,宁德市,宁德一中,,26,14,11,7,9,82,,137,96,18,14,7,6,0.4,0.3
2025-04-25T1800,2618A,98.8601,25.8567,怒江傈僳族自治州,州监测站,颗粒物(PM10),56,61,29,28,15,103,,87,87,8,4,10,10,0.4,0.3
2025-04-25T1800,2619A,98.8546,25.8417,怒江傈僳族自治州,泸水一中,颗粒物(PM10),53,56,22,31,16,85,,73,73,16,8,7,6,0.4,0.3
2025-04-25T1800,1888A,101.6891,26.571,攀枝花市,弄弄坪,细颗粒物(PM2.5),57,56,35,40,17,147,,126,126,19,15,32,10,1.5,0.6
2025-04-25T1800,1889A,101.5769,26.5928,攀枝花市,河门口,,47,47,29,25,16,144,,127,127,11,16,13,21,0.6,1
2025-04-25T1800,1890A,101.7169,26.585,攀枝花市,炳草岗,颗粒物(PM10),51,51,31,26,13,155,,126,126,18,16,18,11,1.1,0.5
2025-04-25T1800,1891A,101.7369,26.5008,攀枝花市,仁和,,48,43,44,23,26,152,,127,127,16,17,16,16,0.7,0.5
2025-04-25T1800,2835A,101.7227,26.567,攀枝花市,四十中小,臭氧1小时,55,36,27,24,13,164,,132,132,18,10,24,11,1.6,0.7
2025-04-25T1800,1604A,122.0303,41.1489,盘锦市,开发区,,30,30,58,3,31,92,,97,97,11,25,4,7,0.2,0.3
2025-04-25T1800,1605A,122.0485,41.0883,盘锦市,兴隆台,,31,31,70,10,34,88,,91,91,12,32,6,15,0.4,0.5
2025-04-25T1800,1606A,121.8297,41.1028,盘锦市,新生街道,,32,13,47,3,27,100,,101,101,11,34,8,24,0.3,0.4
2025-04-25T1800,1832A,113.3257,33.742,平顶山市,新华旅馆,颗粒物(PM10),82,113,104,38,28,157,,151,151,12,31,5,9,0.7,0.6
2025-04-25T1800,1833A,113.2919,33.737,平顶山市,规划设计院,颗粒物(PM10),84,118,93,45,35,148,,148,148,14,31,5,8,0.3,0.5
2025-04-25T1800,1834A,113.182,33.774,平顶山市,平顶山工学院,颗粒物(PM10),86,121,87,39,27,150,,149,149,10,27,5,4,0.4,0.3
2025-04-25T1800,3204A,113.3025,33.73,平顶山市,规划局,颗粒物(PM10),89,127,107,35,33,150,,148,148,8,32,6,8,0.5,0.4
2025-04-25T1800,3594A,112.8867,33.9116,平顶山市,石龙区,颗粒物(PM10),95,139,132,46,39,164,,148,148,13,42,8,11,0.3,0.4
2025-04-25T1800,2656A,106.6692,35.5461,平凉市,聚贤嘉苑,颗粒物(PM10),56,62,82,38,28,126,,120,120,9,24,15,14,0.4,0.4
2025-04-25T1800,2657A,106.7021,35.5307,平凉市,博物馆,颗粒物(PM10),61,71,86,19,25,127,,122,122,7,28,12,12,0.3,0.5
2025-04-25T1800,2347A,114.0997,27.5002,萍乡市,武功山,,42,16,10,12,10,132,,122,122,6,5,13,12,1.0,1
2025-04-25T1800,2348A,113.8385,27.6434,萍乡市,中医院,,44,25,30,16,14,139,,132,132,8,6,8,9,0.5,0.5
2025-04-25T1800,2349A,113.8493,27.6253,萍乡市,市政府车库,,46,33,27,16,16,146,,138,138,10,9,6,7,0.6,0.6
2025-04-25T1800,2350A,113.8676,27.6435,萍乡市,市环保局,,45,30,30,16,16,143,,133,133,9,8,4,6,0.5,0.5
2025-04-25T1800,2351A,113.866,27.6198,萍乡市,安源区政府,,42,30,30,14,17,132,,125,125,10,10,6,10,0.6,0.9
2025-04-25T1800,2319A,119.0141,25.4325,莆田市,荔城区仓后路,,32,15,11,3,1,101,,113,105,18,17,3,3,0.6,0.6
2025-04-25T1800,2320A,119.0015,25.4553,莆田市,莆田市监测站,,30,13,10,3,2,96,,110,106,10,12,4,4,0.4,0.5
2025-04-25T1800,2321A,119.1119,25.4561,莆田市,涵江区六中,,32,23,12,3,2,101,,126,110,20,20,4,3,0.4,0.5
2025-04-25T1800,2322A,119.1013,25.3215,莆田市,秀屿区政府,,35,20,10,6,2,111,,141,116,12,10,4,4,0.4,0.6
2025-04-25T1800,2323A,118.981,25.4792,莆田市,东圳水库,,,,,,,,,,,,,,,,
2025-04-25T1800,2392A,115.0312,35.7636,濮阳市,环保局,颗粒物(PM10),73,96,69,18,20,155,,143,143,14,21,8,8,0.8,0.8
2025-04-25T1800,2394A,115.0574,35.7609,濮阳市,油田运输公司,颗粒物(PM10),75,99,82,22,25,155,,152,152,21,24,7,7,0.7,0.6
2025-04-25T1800,3021A,115,35.7668,濮阳市,濮水河管理处,颗粒物(PM10),75,99,73,24,25,160,,151,151,12,22,7,6,0.7,0.6
2025-04-25T1800,4216A,115.0924,35.7686,濮阳市,任丘路479号,颗粒物(PM10),77,103,75,23,25,160,,151,151,8,20,7,8,0.7,0.5
2025-04-25T1800,2601A,100.98,22.7633,普洱市,市环保局,颗粒物(PM10),65,79,92,27,45,135,,134,134,9,13,9,8,0.4,0.6
2025-04-25T1800,2602A,100.9817,22.8322,普洱市,普洱第二中学,颗粒物(PM10),56,62,71,23,32,140,,141,141,8,25,8,8,0.5,0.7
2025-04-25T1800,2262A,131.0518,45.8751,七台河市,新一中,,26,7,36,3,25,81,,84,84,7,11,11,11,0.8,0.8
2025-04-25T1800,3345A,131.0577,45.7879,七台河市,中波台,,20,11,42,6,29,64,,77,67,13,17,5,6,0.4,0.6
2025-04-25T1800,3637A,131.0176,45.7761,七台河市,人民广场,,24,17,48,12,34,76,,80,80,18,19,9,9,0.5,0.5
2025-04-25T1800,3684A,130.8781,45.8222,七台河市,新建矿广场,,22,14,52,9,29,69,,71,71,11,20,6,8,0.5,0.6
2025-04-25T1800,1779A,123.9305,47.3636,齐齐哈尔市,安居小区,,21,19,13,10,4,65,,77,76,14,8,1,2,0.3,0.2
2025-04-25T1800,1780A,123.9488,47.3386,齐齐哈尔市,中心广场,,31,31,16,3,2,66,,77,76,18,6,7,7,0.3,0.1
2025-04-25T1800,1781A,123.9483,47.3227,齐齐哈尔市,农牧车辆厂,,,24,15,11,6,72,,79,78,,6,4,4,0.2,0.1
2025-04-25T1800,1783A,123.945,47.2988,齐齐哈尔市,市环境监测站,,25,17,12,3,6,77,,80,80,8,5,2,2,0.2,0.2
2025-04-25T1800,3662A,123.6333,47.2075,齐齐哈尔市,富区青少年活动中心,,22,19,19,12,8,70,,76,75,9,8,2,2,0.4,0.3
2025-04-25T1800,2591A,107.9783,26.5747,黔东南苗族侗族自治州,市环境监测站,,28,27,31,14,17,89,,102,101,7,9,3,4,0.3,0.3
2025-04-25T1800,2881A,107.8908,26.5311,黔东南苗族侗族自治州,凯里学院,,30,,29,16,14,96,,108,108,5,8,2,2,0.5,0.4
2025-04-25T1800,2593A,107.5228,26.2403,黔南布依族苗族自治州,小围寨,,37,31,26,7,10,116,,125,125,5,6,2,4,0.5,0.5
2025-04-25T1800,3538A,107.5175,26.2978,黔南布依族苗族自治州,沙坝,,37,27,34,12,12,118,,124,124,6,8,3,4,0.8,0.5
2025-04-25T1800,2589A,104.9022,25.0925,黔西南布依族苗族自治州,场坝街,,34,31,29,16,14,107,,104,104,10,15,3,9,0.4,0.4
2025-04-25T1800,2590A,104.8811,25.0992,黔西南布依族苗族自治州,坪东大道,,32,18,24,14,16,101,,100,100,10,14,2,4,0.3,0.3
2025-04-25T1800,2502A,108.6236,21.9667,钦州市,市环保站,,34,34,26,12,11,104,,88,88,14,13,2,2,0.8,1.1
2025-04-25T1800,2503A,108.6549,21.9481,钦州市,沙埠小学,,35,30,33,18,16,111,,88,88,12,14,6,6,0.7,0.8
2025-04-25T1800,2504A,108.5989,21.7431,钦州市,港区一小,颗粒物(PM10),54,57,44,16,18,98,,82,82,20,19,7,8,0.6,0.8
2025-04-25T1800,3404A,108.5959,21.9633,钦州市,北职校,,33,31,30,15,18,104,,85,85,12,13,7,7,0.7,0.8
2025-04-25T1800,1043A,119.7493,40.0116,秦皇岛市,第一关,颗粒物(PM10),57,64,62,21,16,88,,90,90,21,38,6,4,0.5,0.3
2025-04-25T1800,1044A,119.5897,39.9499,秦皇岛市,监测站,颗粒物(PM10),51,52,62,14,15,94,,92,92,13,20,4,6,0.5,0.4
2025-04-25T1800,1046A,119.5251,39.9041,秦皇岛市,建设大厦,颗粒物(PM10),56,61,63,18,17,94,,91,91,19,29,4,8,0.4,0.4
2025-04-25T1800,3132A,119.610547,39.943889,秦皇岛市,文明里,颗粒物(PM10),58,66,71,16,15,87,,82,82,22,23,5,5,0.5,0.4
2025-04-25T1800,4198A,119.5090,39.8253,秦皇岛市,北戴河轮滑馆,,38,38,56,12,13,96,,86,86,14,17,2,3,0.5,0.3
2025-04-25T1800,1307A,120.6659,36.2403,青岛市,仰口,,43,40,36,12,14,137,,127,127,5,10,7,8,0.3,0.4
2025-04-25T1800,1310A,120.4134,36.0658,青岛市,市南区东部子站,,36,36,40,7,9,91,,73,73,28,37,8,9,0.5,0.6
2025-04-25T1800,1311A,120.3664,36.1032,青岛市,四方区子站,,39,39,40,14,12,110,,104,104,27,43,6,7,0.5,0.6
2025-04-25T1800,1312A,120.2994,36.054,青岛市,市南区西部子站,,34,34,46,3,11,88,,89,89,39,52,7,9,0.6,0.6
2025-04-25T1800,1313A,120.4581,36.0858,青岛市,崂山区子站,,29,24,29,3,5,90,,78,78,29,29,8,9,0.5,0.5
2025-04-25T1800,1315A,120.3999,36.3083,青岛市,城阳区子站,,48,48,58,7,14,103,,103,103,23,35,4,9,0.4,0.6
2025-04-25T1800,1966A,120.0405,35.8735,青岛市,黄岛区4号,,35,31,48,3,10,111,,98,98,17,30,8,10,0.6,0.7
2025-04-25T1800,3362A,120.5014,36.4034,青岛市,即墨2号,颗粒物(PM10),57,64,70,10,20,116,,119,119,13,29,8,10,0.5,0.6
2025-04-25T1800,3642A,120.3503,36.0736,青岛市,市北区南部,,33,29,40,7,8,103,,87,87,17,28,7,7,0.5,0.5
2025-04-25T1800,3643A,120.3948,36.1805,青岛市,李沧区北部,,48,48,47,9,18,93,,92,92,27,41,8,10,0.6,0.7
2025-04-25T1800,4290A,120.1969,35.9546,青岛市,珠江路669号,,41,41,47,15,20,106,,104,104,22,47,7,9,0.6,0.7
2025-04-25T1800,1702A,113.0426,23.691,清远市,环保大楼,,20,6,9,3,4,62,,55,55,13,13,6,6,0.9,0.8
2025-04-25T1800,1703A,113.0208,23.7106,清远市,凤城街办,,18,7,9,3,5,57,,46,45,14,14,3,4,0.8,0.7
2025-04-25T1800,3025A,113.0477,23.6344,清远市,技师学院,,17,7,10,3,6,53,,48,48,13,15,7,8,0.8,0.8
2025-04-25T1800,3318A,112.9903,23.7403,清远市,清新太和,,,6,11,3,6,53,,50,40,14,14,7,6,,0.7
2025-04-25T1800,3455A,113.076,23.7198,清远市,清城东城,,19,6,9,3,5,59,,52,52,10,11,8,8,0.9,0.8
2025-04-25T1800,2661A,107.6325,35.7357,庆阳市,庆阳五中,,,55,75,23,55,119,,121,121,,11,2,5,0.3,0.4
2025-04-25T1800,2662A,107.6364,35.7067,庆阳市,市环保局,颗粒物(PM10),52,54,72,19,23,122,,126,125,6,9,5,9,0.4,0.5
2025-04-25T1800,1916A,103.7897,25.5035,曲靖市,环境监测站,颗粒物(PM10),62,74,38,26,18,148,,128,128,11,15,5,9,0.4,0.5
2025-04-25T1800,1917A,103.8,25.5364,曲靖市,烟厂办公区,颗粒物(PM10),61,72,39,28,19,157,,132,132,8,13,5,5,0.4,0.6
2025-04-25T1800,3376A,103.7947,25.462,曲靖市,南苑二区,颗粒物(PM10),51,52,35,27,18,144,,126,126,11,14,4,8,0.4,0.5
2025-04-25T1800,3377A,103.7444,25.5261,曲靖市,曲靖师范学院,颗粒物(PM10),62,73,36,28,20,150,,123,123,10,15,7,8,0.4,0.4
2025-04-25T1800,1264A,118.8692,28.9398,衢州市,环保大楼,,46,42,23,24,14,146,,136,136,17,15,3,3,0.5,0.4
2025-04-25T1800,1265A,118.8709,28.9666,衢州市,实验学校,,45,34,18,22,13,141,,133,133,14,15,4,4,0.3,0.3
2025-04-25T1800,1266A,118.8621,28.9808,衢州市,衢州学院,,43,36,19,22,12,136,,127,127,15,19,3,3,0.3,0.3
2025-04-25T1800,1611A,118.5819,24.9117,泉州市,涂山街,,33,12,14,3,10,105,,122,113,16,15,3,3,0.6,0.8
2025-04-25T1800,1612A,118.5972,24.8978,泉州市,津头埔,,,17,12,6,10,103,,122,114,,17,2,2,0.6,0.8
2025-04-25T1800,1613A,118.6663,24.9424,泉州市,万安,,35,19,11,3,7,109,,129,117,13,10,3,3,0.6,0.7
2025-04-25T1800,1614A,118.6117,24.9604,泉州市,清源山,,,,,,,,,,,,,,,,
2025-04-25T1800,3529A,118.6333,24.9264,泉州市,城华南路,,33,9,10,3,8,105,,120,112,16,15,2,3,0.5,0.7
2025-04-25T1800,2626A,88.8876,29.2718,日喀则市,日喀则监测站,,41,25,20,8,10,130,,139,128,2,4,8,6,0.3,0.5
2025-04-25T1800,3726A,88.8781,29.2426,日喀则市,林业技术推广中心,,40,25,27,3,8,125,,133,123,2,2,5,6,0.3,0.3
2025-04-25T1800,1659A,119.471,35.4209,日照市,监测站,颗粒物(PM10),51,51,90,16,23,118,,120,120,19,46,6,10,0.5,0.8
2025-04-25T1800,1660A,119.523,35.4216,日照市,市政府广场,颗粒物(PM10),51,51,81,20,20,110,,113,113,21,43,6,10,0.5,0.7
2025-04-25T1800,1661A,119.5587,35.4044,日照市,港务局,颗粒物(PM10),63,75,99,20,26,103,,102,102,31,57,6,9,0.6,0.8
2025-04-25T1800,3507A,119.5328,35.4625,日照市,职业技术学院,颗粒物(PM10),53,56,84,14,19,113,,112,112,22,34,7,11,0.5,0.8
2025-04-25T1800,3604A,119.3266,35.1044,日照市,岚山环保分局,颗粒物(PM10),62,73,93,17,23,112,,114,114,20,29,5,9,0.5,0.6
2025-04-25T1800,1835A,111.1922,34.7752,三门峡市,市政府,颗粒物(PM10),77,103,77,43,30,156,,145,145,16,18,7,10,0.6,0.6
2025-04-25T1800,1836A,111.1587,34.7942,三门峡市,开发区,颗粒物(PM10),72,93,81,32,32,161,,147,147,16,17,8,10,0.6,0.6
2025-04-25T1800,1838A,111.143,34.7955,三门峡市,风景区,,,100,76,27,25,160,,147,147,,13,9,12,0.4,0.4
2025-04-25T1800,3039A,111.1911,34.7829,三门峡市,三门峡市第一小学,颗粒物(PM10),80,109,84,39,27,167,,153,153,14,15,8,11,0.5,0.5
