timepoint,stationcode,longitude,latitude,area,positionname,primarypollutant,aqi,pm10,pm10_24h,pm2_5,pm2_5_24h,o3,o3_24h,o3_8h,o3_8h_24h,no2,no2_24h,so2,so2_24h,co,co_24h
2025-04-25T1600,2566A,102.1879,31.914,阿坝藏族羌族自治州,州农科所,,24,20,18,6,9,76,,66,66,6,7,12,12,0.5,0.5
2025-04-25T1600,2568A,102.2502,31.8896,阿坝藏族羌族自治州,马师校,,26,,14,8,14,83,,66,66,7,8,5,5,0.5,0.5
2025-04-25T1600,3994A,102.2165,31.9024,阿坝藏族羌族自治州,马尔康中学西区,,28,10,14,3,11,88,,77,77,9,5,4,4,0.4,0.4
2025-04-25T1600,2695A,80.292,41.1694,阿克苏地区,电视台,,50,50,62,17,26,124,,88,88,2,8,6,6,0.3,0.3
2025-04-25T1600,2696A,80.2613,41.1551,阿克苏地区,艺术中心,,49,49,64,15,29,121,,88,88,2,12,3,4,0.2,0.2
2025-04-25T1600,2204A,105.6467,38.8363,阿拉善盟,西城区西花园,,42,40,53,6,14,134,,132,132,8,11,6,7,0.6,0.6
2025-04-25T1600,2205A,105.6985,38.8411,阿拉善盟,蒙二幼,,43,43,53,12,16,115,,114,114,7,8,8,8,0.4,0.5
2025-04-25T1600,2206A,105.724,38.8516,阿拉善盟,环保局新楼,,40,40,48,13,15,120,,122,122,4,4,8,8,0.4,0.4
2025-04-25T1600,2708A,88.1264,47.8517,阿勒泰地区,市站,,28,26,15,3,5,89,,68,68,3,7,3,3,0.5,0.4
2025-04-25T1600,2630A,80.1161,32.5,阿里地区,阿里监测站,,42,25,15,10,6,132,,118,117,5,4,6,6,0.4,0.3
2025-04-25T1600,3192A,80.0903,32.5028,阿里地区,阿里藏医院,,45,37,23,7,7,141,,128,128,1,2,6,6,0.3,0.3
2025-04-25T1600,2642A,109.0318,32.6537,安康市,香溪洞,颗粒物(PM10),56,61,76,29,31,132,,119,119,5,6,8,8,0.5,0.5
2025-04-25T1600,2644A,109.0072,32.6975,安康市,汉滨区检察院,颗粒物(PM10),57,64,80,29,31,133,,119,119,5,12,8,12,0.3,0.5
2025-04-25T1600,4054A,109.0325,32.6913,安康市,市邮政管理局,颗粒物(PM10),59,67,83,26,33,134,,119,119,5,12,6,11,0.3,0.4
2025-04-25T1600,2291A,117.0809,30.5177,安庆市,环科院,臭氧1小时,55,46,59,15,31,164,,134,134,9,18,2,3,0.5,0.8
2025-04-25T1600,2292A,117.0331,30.5119,安庆市,马山宾馆,臭氧1小时,53,47,56,13,31,162,,135,135,11,19,4,6,0.4,0.7
2025-04-25T1600,2294A,116.9896,30.6145,安庆市,安庆大学,颗粒物(PM10),51,52,59,18,26,159,,127,127,11,16,4,4,0.4,0.6
2025-04-25T1600,3173A,117.0598,30.5351,安庆市,市人大,,,46,62,15,32,166,,138,138,,21,8,9,0.3,0.5
2025-04-25T1600,3122A,105.9606,26.2611,安顺市,伍家关,,37,37,25,22,12,107,,104,104,12,8,4,6,0.4,0.3
2025-04-25T1600,3123A,105.9408,26.2431,安顺市,凤凰山,,35,34,24,16,16,111,,100,100,6,7,8,10,0.4,0.4
2025-04-25T1600,3124A,105.9439,26.2564,安顺市,金钟山,,35,30,22,19,18,112,,102,102,6,8,6,8,0.4,0.4
2025-04-25T1600,3125A,105.8983,26.2481,安顺市,娄家坡,,34,34,33,23,21,108,,99,99,9,10,7,8,0.4,0.4
2025-04-25T1600,1818A,114.4839,36.0621,安阳市,棉研所,,,,,,,,,,,,,,,,
2025-04-25T1600,1819A,114.3551,36.1017,安阳市,红庙街,颗粒物(PM10),98,146,75,47,24,170,,122,122,3,13,6,4,0.3,0.3
2025-04-25T1600,1820A,114.361,36.0681,安阳市,银杏小区,颗粒物(PM10),104,157,84,44,31,181,,131,131,6,20,8,7,0.4,0.3
2025-04-25T1600,3141A,114.3922,36.0878,安阳市,信访局,颗粒物(PM10),141,232,90,49,31,186,,132,132,11,19,5,5,0.2,0.1
2025-04-25T1600,3669A,114.4705,36.0637,安阳市,左辅环卫站,颗粒物(PM10),93,136,85,33,28,175,,133,133,9,23,5,4,0.5,0.4
2025-04-25T1600,3703A,114.2917,36.0949,安阳市,安钢职工学校,颗粒物(PM10),129,207,97,49,33,170,,129,129,10,17,7,5,0.4,0.3
2025-04-25T1600,1748A,123.044,41.1196,鞍山市,深沟寺,,30,20,94,9,41,96,,87,87,9,22,14,19,0.7,1.3
2025-04-25T1600,1749A,123.011,41.0931,鞍山市,太阳城,,,,110,,42,99,,89,89,5,19,6,11,0.4,0.9
2025-04-25T1600,1750A,123.0485,41.1442,鞍山市,太平,,28,21,116,7,41,89,,82,82,7,18,13,21,0.6,1.1
2025-04-25T1600,1751A,122.9642,41.0971,鞍山市,铁西三道街,,31,24,113,3,46,98,,88,88,11,31,4,7,0.3,0.7
2025-04-25T1600,1753A,123.022,41.0821,鞍山市,明达新区,,31,15,101,6,41,97,,87,87,6,18,7,9,0.3,0.6
2025-04-25T1600,1754A,123.1289,41.0228,鞍山市,千山,,,,64,,22,,,62,,,12,,5,,0.6
2025-04-25T1600,4201A,122.9446,41.0826,鞍山市,兴盛南路290号,,30,22,133,8,47,94,,87,87,17,39,8,12,0.3,0.7
2025-04-25T1600,2195A,107.4212,40.761,巴彦淖尔市,附二中,,40,38,60,6,17,126,,102,102,5,23,5,8,0.3,0.5
2025-04-25T1600,2196A,107.37,40.7372,巴彦淖尔市,市环保大楼,,40,27,56,25,28,126,,103,103,6,23,5,6,0.3,0.4
2025-04-25T1600,1956A,86.1472,41.7538,巴音郭楞蒙古自治州,孔雀公园,颗粒物(PM10),151,252,251,74,70,98,,86,86,4,11,6,6,0.2,0.2
2025-04-25T1600,1957A,86.1972,41.7166,巴音郭楞蒙古自治州,棉纺厂,颗粒物(PM10),151,251,276,61,59,97,,81,81,6,13,3,4,0.4,0.4
2025-04-25T1600,1958A,86.2357,41.7173,巴音郭楞蒙古自治州,经济开发区,颗粒物(PM10),119,188,208,49,52,101,,90,90,5,8,6,7,0.2,0.2
2025-04-25T1600,2914A,106.7677,31.8794,巴中市,苏山坪,,42,42,40,25,22,102,,85,85,6,10,3,4,0.3,0.3
2025-04-25T1600,3181A,106.7768,31.8526,巴中市,市五中,,44,44,47,20,21,102,,80,80,5,11,6,6,0.3,0.4
2025-04-25T1600,3183A,106.7418,31.8654,巴中市,圣泉水务公司,,43,43,39,23,20,101,,79,79,5,16,5,5,0.3,0.4
2025-04-25T1600,3616A,106.7616,31.8344,巴中市,市中心医院,,44,44,43,26,23,97,,75,75,4,13,3,4,0.4,0.5
2025-04-25T1600,2235A,122.7911,45.6077,白城市,洮北区环保局,,29,20,22,6,10,90,,88,88,8,7,5,4,0.3,0.3
2025-04-25T1600,2236A,122.8738,45.5725,白城市,市环保局,,30,17,18,8,10,94,,94,94,3,3,6,5,0.3,0.3
2025-04-25T1600,2231A,126.4219,41.9171,白山市,喜丰,细颗粒物(PM2.5),60,65,74,43,28,108,,98,98,11,9,10,10,0.7,0.6
2025-04-25T1600,2232A,126.4077,41.9419,白山市,环保局,细颗粒物(PM2.5),73,68,84,53,34,98,,88,88,8,7,7,7,0.7,0.6
2025-04-25T1600,2647A,104.1724,36.5446,白银市,第三小学,颗粒物(PM10),58,66,73,22,28,123,,101,101,6,18,36,56,0.5,0.8
2025-04-25T1600,2648A,104.1465,36.5482,白银市,动力公司,颗粒物(PM10),61,72,56,21,23,126,,108,108,8,15,10,16,0.5,0.6
2025-04-25T1600,2512A,106.6103,23.9011,百色市,市监测站,,27,23,31,10,17,86,,64,64,10,14,3,3,0.6,0.7
2025-04-25T1600,2513A,106.6538,23.8859,百色市,市中心血站,,34,34,39,8,22,98,,73,73,8,17,5,5,0.6,0.8
2025-04-25T1600,3406A,106.6085,23.8798,百色市,祈福高中,,29,22,36,12,19,90,,66,66,6,16,5,5,0.5,0.6
2025-04-25T1600,2270A,117.396,32.939,蚌埠市,工人疗养院,颗粒物(PM10),59,67,88,11,15,155,,128,128,6,23,5,7,0.5,0.5
2025-04-25T1600,2271A,117.3605,32.9427,蚌埠市,百货大楼,颗粒物(PM10),58,66,89,14,16,149,,121,121,14,23,6,7,0.4,0.4
2025-04-25T1600,2273A,117.4185,32.8911,蚌埠市,蚌埠学院,颗粒物(PM10),56,61,82,10,16,154,,128,128,8,16,4,5,0.4,0.4
2025-04-25T1600,2274A,117.3533,32.9673,蚌埠市,淮上区政府,颗粒物(PM10),58,66,86,17,19,149,,119,119,12,23,6,6,0.2,0.3
2025-04-25T1600,2275A,117.3145,32.8977,蚌埠市,高新区,颗粒物(PM10),53,56,73,13,14,150,,124,124,11,15,5,5,0.3,0.3
2025-04-25T1600,3715A,117.3092,32.9314,蚌埠市,蚌埠田家炳中学,颗粒物(PM10),60,70,84,12,17,159,,130,130,12,15,6,6,0.3,0.3
2025-04-25T1600,1585A,109.8756,40.6532,包头市,市环境监测站,,39,36,53,8,16,123,,92,92,9,39,12,15,0.5,0.7
2025-04-25T1600,1587A,109.9991,40.5842,包头市,包头八中,,42,42,64,13,29,129,,92,92,11,38,15,25,0.2,0.5
2025-04-25T1600,1588A,109.8538,40.6821,包头市,青山宾馆,,38,34,53,10,22,120,,91,91,4,43,10,16,0.3,0.8
2025-04-25T1600,1589A,109.8642,40.6288,包头市,惠龙物流,,41,41,53,15,25,125,,94,94,8,35,12,20,0.4,0.5
2025-04-25T1600,1590A,110.0377,40.5546,包头市,东河鸿龙湾,,40,30,68,3,19,127,,93,93,5,31,8,15,0.4,0.5
2025-04-25T1600,3283A,109.9154,40.5685,包头市,滨河大厦,,40,31,48,3,17,126,,96,96,4,38,12,16,0.4,0.5
2025-04-25T1600,3419A,109.9447,40.6261,包头市,包头市委党校,,40,31,47,6,16,128,,92,92,5,31,12,18,0.4,0.6
2025-04-25T1600,3683A,109.8331,40.6576,包头市,昆区政府,,38,28,54,12,24,119,,94,94,13,45,10,14,0.5,0.7
2025-04-25T1600,1930A,107.185,34.3063,宝鸡市,庙沟村,细颗粒物(PM2.5),75,80,65,55,37,168,,118,118,12,15,11,9,0.5,0.5
2025-04-25T1600,1931A,107.0708,34.3017,宝鸡市,竹园沟,颗粒物(PM10),72,94,65,44,35,166,,116,116,16,17,11,9,0.5,0.4
2025-04-25T1600,1932A,107.1906,34.3672,宝鸡市,三陆医院,颗粒物(PM10),76,101,81,44,39,161,,114,114,21,34,9,9,0.5,0.5
2025-04-25T1600,1933A,107.1431,34.3547,宝鸡市,监测站,颗粒物(PM10),85,119,83,40,34,156,,108,108,21,25,12,10,0.5,0.5
2025-04-25T1600,1934A,107.1186,34.3739,宝鸡市,技工学校,颗粒物(PM10),78,105,78,32,33,155,,114,114,18,18,10,10,0.6,0.5
2025-04-25T1600,1935A,107.3906,34.3528,宝鸡市,陈仓区环保局家属楼,颗粒物(PM10),72,94,83,46,40,163,,116,116,19,35,11,11,0.5,0.6
2025-04-25T1600,1936A,107.2058,34.3497,宝鸡市,文理学院,"颗粒物(PM10),细颗粒物(PM2.5)",69,87,79,50,43,164,,123,123,14,25,10,9,0.5,0.5
2025-04-25T1600,1937A,107.2386,34.3622,宝鸡市,三迪小学,颗粒物(PM10),83,115,88,49,38,160,,115,115,17,28,10,8,0.5,0.5
2025-04-25T1600,1051A,115.493,38.8632,保定市,游泳馆,颗粒物(PM10),62,74,73,40,27,160,,105,105,12,30,9,4,0.2,0.2
2025-04-25T1600,1052A,115.5213,38.8959,保定市,华电二区,颗粒物(PM10),51,52,60,28,30,159,,105,105,5,20,5,4,0.2,0.1
2025-04-25T1600,1053A,115.4713,38.9108,保定市,接待中心,细颗粒物(PM2.5),67,69,67,48,25,160,,105,105,11,23,7,4,0.5,0.4
2025-04-25T1600,1054A,115.4612,38.8416,保定市,地表水厂,颗粒物(PM10),72,94,87,31,25,162,,107,107,14,28,8,5,0.3,0.3
2025-04-25T1600,3581A,115.31981,38.95208,保定市,满城区生态环境分局,细颗粒物(PM2.5),67,78,86,48,32,167,,113,113,12,28,6,3,0.3,0.3
2025-04-25T1600,3582A,115.47694,38.76408,保定市,清苑区第二中学,颗粒物(PM10),68,85,91,37,29,172,,113,113,9,27,8,6,0.4,0.4
2025-04-25T1600,3583A,115.62909,39.02311,保定市,徐水物探局,,,80,80,34,19,159,,114,114,,26,11,3,0.4,0.3
2025-04-25T1600,4004A,115.4202,38.8656,保定市,双鹰农机,颗粒物(PM10),62,73,68,32,28,162,,106,106,10,24,8,6,0.1,0.1
2025-04-25T1600,4034A,115.5150,38.8590,保定市,植保所站,颗粒物(PM10),58,66,73,32,38,155,,100,100,7,28,5,2,0.3,0.6
2025-04-25T1600,2594A,99.1678,25.1081,保山市,市环境监测站,颗粒物(PM10),60,70,81,24,39,127,,127,127,6,11,5,6,0.5,0.6
2025-04-25T1600,2595A,99.1711,25.1328,保山市,市环保局,颗粒物(PM10),69,88,90,29,35,135,,118,118,11,10,8,9,0.5,0.6
2025-04-25T1600,1866A,109.2262,21.588,北海市,牛尾岭水库,,,36,25,22,17,77,,54,54,,,7,7,1.0,0.9
2025-04-25T1600,1867A,109.1436,21.4086,北海市,海滩公园,,35,33,42,10,17,112,,77,77,9,12,6,6,0.6,0.6
2025-04-25T1600,1868A,109.0981,21.4661,北海市,新市环保局,,38,28,32,17,20,119,,75,75,10,12,4,4,0.7,0.7
2025-04-25T1600,1869A,109.1778,21.5233,北海市,北海工业园,,37,37,35,22,23,117,,76,76,10,12,8,10,0.6,0.6
2025-04-25T1600,3400A,109.1911,21.4415,北海市,龙潭自来水厂,,33,25,34,21,24,103,,71,71,9,10,8,8,0.6,0.5
2025-04-25T1600,1001A,116.3621,39.8784,北京市,万寿西宫,颗粒物(PM10),69,88,41,30,15,146,,97,97,13,27,8,7,0.5,0.5
2025-04-25T1600,1002A,116.2202,40.2915,北京市,定陵,,,,,,,,,,,,,,,,
2025-04-25T1600,1003A,116.4174,39.9289,北京市,东四,颗粒物(PM10),69,87,46,26,11,133,,83,83,12,29,5,3,0.4,0.4
2025-04-25T1600,1004A,116.4072,39.8863,北京市,天坛,颗粒物(PM10),66,82,38,27,12,136,,88,88,16,26,4,2,0.5,0.5
2025-04-25T1600,1005A,116.462,39.9365,北京市,农展馆,颗粒物(PM10),66,81,41,28,13,144,,85,85,16,32,9,8,0.7,0.6
2025-04-25T1600,1006A,116.3392,39.9295,北京市,官园,颗粒物(PM10),73,95,41,28,12,126,,83,83,15,26,7,5,0.4,0.4
2025-04-25T1600,1007A,116.2878,39.9611,北京市,海淀万柳,颗粒物(PM10),73,95,43,34,14,123,,77,77,12,26,7,5,0.5,0.5
2025-04-25T1600,1008A,116.6636,40.135,北京市,顺义新城,颗粒物(PM10),63,75,39,41,10,137,,83,83,10,19,8,7,0.4,0.4
2025-04-25T1600,1009A,116.6275,40.3275,北京市,怀柔镇,颗粒物(PM10),55,59,28,23,9,119,,76,76,14,13,6,3,0.4,0.3
2025-04-25T1600,1010A,116.2296,40.217,北京市,昌平镇,颗粒物(PM10),67,83,26,23,8,124,,79,79,14,10,5,3,0.3,0.2
2025-04-25T1600,1011A,116.3966,39.9821,北京市,奥体中心,颗粒物(PM10),70,89,40,35,15,130,,74,74,16,43,5,4,0.9,0.5
2025-04-25T1600,3281A,115.9718,40.4529,北京市,延庆夏都,颗粒物(PM10),54,57,22,20,9,111,,85,85,2,13,6,3,0.5,0.3
2025-04-25T1600,3418A,116.8336,40.4095,北京市,密云新城,颗粒物(PM10),53,55,31,17,10,107,,79,79,17,9,2,3,0.5,0.4
2025-04-25T1600,3671A,116.088,39.9726,北京市,门头沟三家店,颗粒物(PM10),96,142,71,38,20,122,,82,82,20,31,4,3,0.3,0.3
2025-04-25T1600,3672A,116.1541,39.8204,北京市,丰台云岗,颗粒物(PM10),77,104,50,46,15,133,,95,95,10,17,4,3,0.4,0.3
2025-04-25T1600,3673A,116.6804,39.9081,北京市,通州东关,颗粒物(PM10),66,82,49,35,19,137,,85,85,15,37,7,5,0.6,0.6
2025-04-25T1600,3674A,115.9577,39.7603,北京市,房山燕山,颗粒物(PM10),69,87,50,31,15,131,,92,92,8,14,7,6,0.3,0.3
2025-04-25T1600,3675A,116.4672,39.7733,北京市,大兴旧宫,颗粒物(PM10),67,83,43,24,11,140,,90,90,10,25,2,3,0.3,0.3
2025-04-25T1600,3694A,115.986,40.4563,北京市,延庆石河营,颗粒物(PM10),55,59,25,15,7,104,,77,77,12,13,5,2,0.5,0.3
2025-04-25T1600,3695A,116.6151,40.3053,北京市,怀柔新城,颗粒物(PM10),53,55,25,18,9,119,,74,74,13,11,4,3,0.5,0.4
2025-04-25T1600,3696A,116.2545,39.8768,北京市,丰台小屯,细颗粒物(PM2.5),82,78,43,60,17,122,,83,83,18,30,4,3,0.4,0.3
2025-04-25T1600,3697A,116.84,40.3844,北京市,密云镇,,47,47,28,18,9,108,,76,76,12,16,7,5,0.4,0.3
2025-04-25T1600,4182A,116.1942,39.9158,北京市,八角北路9号,颗粒物(PM10),72,94,47,35,14,127,,88,88,13,30,6,4,0.5,0.4
2025-04-25T1600,4194A,117.0790,40.1518,北京市,洳河巡河路,,48,48,31,14,10,135,,87,87,10,10,5,3,0.4,0.3
2025-04-25T1600,1761A,123.8275,41.3064,本溪市,大峪,,35,17,67,6,34,110,,97,97,6,14,7,7,0.4,0.6
2025-04-25T1600,1762A,123.7567,41.3325,本溪市,溪湖,,35,33,80,8,37,109,,98,98,8,12,6,7,0.5,0.5
2025-04-25T1600,1763A,123.7169,41.3094,本溪市,彩屯,,34,27,85,13,36,108,,96,96,8,14,9,11,0.5,0.7
2025-04-25T1600,1764A,123.7669,41.2864,本溪市,东明,,38,38,91,17,39,101,,92,92,19,19,13,13,1.5,1.4
2025-04-25T1600,1765A,123.7992,41.2664,本溪市,新立屯,,34,24,77,6,34,107,,96,96,9,23,9,10,0.8,1.1
2025-04-25T1600,1766A,123.8142,41.3472,本溪市,威宁,颗粒物(PM10),56,62,98,7,35,108,,95,95,1,14,6,6,0.4,0.6
2025-04-25T1600,2587A,105.2864,27.3125,毕节市,八中,,31,26,25,14,16,98,,67,67,10,12,9,5,0.5,0.6
2025-04-25T1600,2588A,105.31,27.2944,毕节市,师专,,32,24,26,16,18,100,,71,71,10,14,16,9,0.4,0.5
2025-04-25T1600,4263A,105.3688,27.3598,毕节市,工业大道,,30,30,28,18,18,95,,76,76,12,13,9,7,0.5,0.5
2025-04-25T1600,1629A,118.0018,37.3617,滨州市,第二水厂,颗粒物(PM10),78,105,62,27,21,159,,129,129,10,27,10,11,0.5,0.4
2025-04-25T1600,1630A,117.9776,37.393,滨州市,北中新校,"颗粒物(PM10),臭氧1小时",65,80,49,29,22,172,,148,148,14,32,10,6,0.3,0.5
2025-04-25T1600,3514A,117.9378,37.3956,滨州市,中海酒店,颗粒物(PM10),87,124,50,27,27,168,,139,139,12,25,13,11,0.7,0.6
2025-04-25T1600,3515A,117.9378,37.3553,滨州市,开发区一中,颗粒物(PM10),80,110,68,36,24,166,,139,139,17,40,6,7,0.5,0.5
2025-04-25T1600,3516A,118.0917,37.694,滨州市,金海六路,"颗粒物(PM10),臭氧1小时",65,80,55,19,16,172,,144,144,14,45,11,11,0.2,0.2
2025-04-25T1600,4028A,117.9956,37.3753,滨州市,滨州市西街道办事处,,,102,56,,32,179,,144,144,12,28,7,9,0.5,0.4
2025-04-25T1600,2311A,115.8072,33.8399,亳州市,污水处理厂,颗粒物(PM10),56,61,70,13,15,155,,126,126,13,17,2,4,0.2,0.3
2025-04-25T1600,2312A,115.7789,33.8518,亳州市,三国揽胜宫,颗粒物(PM10),57,63,72,11,14,162,,133,133,8,16,5,6,0.2,0.2
2025-04-25T1600,3332A,115.7633,33.8034,亳州市,亳州学院,臭氧1小时,58,58,74,9,14,166,,137,137,10,14,3,4,0.3,0.3
2025-04-25T1600,2693A,82.0485,44.8556,博尔塔拉蒙古自治州,市党校,,35,14,28,12,9,110,,81,81,1,24,3,3,0.4,0.4
2025-04-25T1600,2694A,82.0806,44.8969,博尔塔拉蒙古自治州,市环保局,,36,27,35,11,10,115,,82,82,10,12,4,3,0.6,0.7
2025-04-25T1600,1071A,116.8842,38.2991,沧州市,沧县城建局,颗粒物(PM10),62,74,64,33,24,150,,112,112,12,29,7,6,0.4,0.3
2025-04-25T1600,1072A,116.8584,38.3254,沧州市,电视转播站,颗粒物(PM10),69,88,58,44,20,147,,109,109,15,25,6,6,0.2,0.2
2025-04-25T1600,1073A,116.8709,38.3228,沧州市,市环保局,颗粒物(PM10),72,93,63,34,26,160,,120,120,14,24,4,3,0.4,0.4
2025-04-25T1600,3324A,116.8136,38.3004,沧州市,河北水利电力学院,颗粒物(PM10),73,95,67,29,18,156,,120,120,12,22,9,8,0.4,0.3
2025-04-25T1600,2622A,97.1806,31.1273,昌都市,昌都监测站,,44,,9,3,7,140,,111,111,3,4,3,3,0.3,0.3
2025-04-25T1600,3719A,97.1714,31.1406,昌都市,昌都会议中心,,43,,14,13,10,135,,103,103,4,4,3,3,0.2,0.2
2025-04-25T1600,2690A,88.1236,43.8886,昌吉回族自治州,天山天池,,,0,16,,6,88,,65,65,6,6,5,5,0.5,0.6
2025-04-25T1600,2692A,87.2717,44.0297,昌吉回族自治州,新区政务中心,,,40,27,27,9,120,,94,94,,7,7,8,0.3,0.3
2025-04-25T1600,3613A,87.3095,44.0142,昌吉回族自治州,亚心广场,,38,22,32,3,7,119,,92,92,7,12,8,8,0.3,0.3
2025-04-25T1600,1119A,125.3325,43.9166,长春市,食品厂,,26,19,46,11,17,83,,78,78,12,14,6,6,0.3,0.3
2025-04-25T1600,1120A,125.2863,43.9027,长春市,客车厂,,27,19,45,9,16,84,,81,81,13,16,4,4,0.2,0.2
2025-04-25T1600,1121A,125.2841,43.8463,长春市,邮电学院,,29,20,46,12,16,92,,86,86,3,9,5,5,0.2,0.2
2025-04-25T1600,1122A,125.3716,43.8772,长春市,劳动公园,,29,14,42,8,10,92,,85,85,4,8,5,5,0.1,0.2
2025-04-25T1600,1123A,125.3297,43.8805,长春市,园林处,,28,19,40,9,8,88,,81,81,5,10,6,6,0.3,0.3
2025-04-25T1600,1124A,125.4605,43.79,长春市,净月潭,,28,16,49,10,12,89,,83,83,4,9,6,6,0.1,0.1
2025-04-25T1600,1125A,125.7194,43.515,长春市,甩湾子,,,,,,,,,,,,,,,,
2025-04-25T1600,1126A,125.3863,43.8447,长春市,经开区环卫处,,27,15,52,8,13,86,,81,81,8,10,5,6,0.2,0.3
2025-04-25T1600,1127A,125.245,43.7783,长春市,高新区管委会,,28,26,45,17,12,88,,84,84,11,10,7,7,0.2,0.2
2025-04-25T1600,1128A,125.1761,43.8325,长春市,岱山公园,,48,,47,33,17,93,,91,91,12,12,4,4,0.2,0.3
2025-04-25T1600,1335A,113.0833,28.2325,长沙市,经开区环保局,,41,33,39,12,21,131,,110,110,7,27,4,4,0.4,0.6
2025-04-25T1600,1336A,112.8872,28.2189,长沙市,高开区环保局,,45,32,49,9,25,141,,119,119,4,12,4,4,0.7,0.8
2025-04-25T1600,1337A,113.0792,28.2053,长沙市,马坡岭,,45,32,38,11,20,144,,120,120,8,24,3,3,0.3,0.5
2025-04-25T1600,1338A,112.9394,28.19,长沙市,湖南师范大学,,47,35,42,13,21,150,,126,126,10,16,2,3,0.4,0.5
2025-04-25T1600,1339A,113.0178,28.1322,长沙市,雨花区环保局,,46,29,38,14,21,145,,106,106,6,19,3,3,0.3,0.4
2025-04-25T1600,1340A,112.9792,28.2597,长沙市,伍家岭,,41,34,47,3,22,130,,112,112,6,17,2,2,0.4,0.5
2025-04-25T1600,1341A,113.0014,28.1944,长沙市,火车新站,,45,37,44,17,22,144,,118,118,11,22,7,6,0.4,0.5
2025-04-25T1600,1342A,112.9844,28.1178,长沙市,天心区环保局,,45,32,37,12,19,144,,112,112,9,18,2,3,0.3,0.5
2025-04-25T1600,1343A,112.8908,28.1308,长沙市,湖南中医药大学,,46,39,42,8,20,146,,121,121,6,13,2,2,0.4,0.5
2025-04-25T1600,1344A,112.9581,28.3611,长沙市,沙坪,,41,26,35,11,19,131,,105,105,8,12,5,5,0.4,0.5
2025-04-25T1600,1727A,113.1147,36.1547,长治市,清华站,,48,37,48,17,13,151,,135,135,10,12,10,7,0.5,0.5
2025-04-25T1600,1730A,113.0886,36.2125,长治市,审计局,,50,50,53,14,19,158,,136,136,13,19,12,11,0.5,0.5
2025-04-25T1600,1731A,113.0844,36.1856,长治市,长治八中,颗粒物(PM10),51,52,53,19,23,152,,133,133,10,15,13,12,1.0,1.1
2025-04-25T1600,2845A,113.1569,36.1911,长治市,德盛苑,,47,36,42,19,16,148,,132,132,8,11,8,7,0.6,0.5
2025-04-25T1600,3568A,113.06,36.0464,长治市,向阳小学,颗粒物(PM10),68,86,70,33,21,159,,140,140,11,15,13,13,0.3,0.3
2025-04-25T1600,3569A,112.8792,36.3144,长治市,屯留一中,,,51,52,20,17,150,,121,121,7,20,,11,0.6,0.6
2025-04-25T1600,4189A,113.1131,36.19948,长治市,英华南巷50号,,,43,52,17,17,,,84,,,17,,6,,0.8
2025-04-25T1600,4190A,113.2367,36.3344,长治市,学府街1号,,50,47,59,19,25,159,,128,128,6,33,4,6,0.4,0.6
2025-04-25T1600,1854A,111.6975,28.9703,常德市,市二中,颗粒物(PM10),59,67,63,33,31,124,,90,90,5,12,5,6,0.6,0.6
2025-04-25T1600,1857A,111.7158,29.1456,常德市,白鹤山,,,,,,,,,,,,,,,,
2025-04-25T1600,3138A,111.7153,29.0289,常德市,武陵区永安,颗粒物(PM10),63,75,72,36,30,139,,106,106,8,14,1,4,0.5,0.5
2025-04-25T1600,3139A,111.6892,28.9881,常德市,鼎城区玉霞,颗粒物(PM10),61,72,63,33,28,136,,111,111,3,16,2,5,0.6,0.6
2025-04-25T1600,3140A,111.6625,29.0531,常德市,武陵区长庚,颗粒物(PM10),61,72,66,31,29,146,,110,110,6,12,6,9,0.6,0.6
2025-04-25T1600,1196A,119.9633,31.762,常州市,市监测站,颗粒物(PM10),60,69,66,15,20,132,,110,110,21,22,11,13,0.5,0.7
2025-04-25T1600,1200A,119.9468,31.7069,常州市,武进监测站,颗粒物(PM10),63,75,71,17,19,127,,108,108,28,29,11,14,0.5,0.8
2025-04-25T1600,1201A,119.9255,31.9087,常州市,安家,,,63,62,10,17,,,51,,18,24,11,12,0.1,0.2
2025-04-25T1600,3002A,119.9805,31.8174,常州市,行政中心,颗粒物(PM10),52,53,53,16,17,125,,108,108,19,23,15,15,0.4,0.5
2025-04-25T1600,3003A,120.0522,31.7748,常州市,经开区,颗粒物(PM10),61,71,76,10,16,132,,106,106,24,31,10,13,0.5,0.6
2025-04-25T1600,3010A,119.9025,31.7964,常州市,钟楼,颗粒物(PM10),64,77,64,18,18,128,,109,109,20,19,8,9,0.3,0.5
2025-04-25T1600,3429A,119.8598,31.7066,常州市,武进经发区,颗粒物(PM10),74,98,82,18,25,132,,110,110,18,24,10,11,0.4,0.6
2025-04-25T1600,3430A,119.5826,31.7245,常州市,金坛城区,颗粒物(PM10),66,82,71,18,19,140,,114,114,18,22,10,10,0.5,0.6
2025-04-25T1600,2220A,120.4318,41.5881,朝阳市,西梁,,29,16,45,3,26,91,,79,79,7,19,6,7,0.4,0.5
2025-04-25T1600,2221A,120.4521,41.5646,朝阳市,河畔小区,,31,15,41,3,22,97,,82,82,4,13,5,6,0.2,0.4
2025-04-25T1600,2222A,120.4176,41.5648,朝阳市,八里堡,,,,48,,17,91,,78,78,5,18,6,6,0.3,0.6
2025-04-25T1600,2223A,120.3806,41.5969,朝阳市,农业园区,,29,21,39,6,23,90,,81,81,10,17,7,8,0.3,0.4
2025-04-25T1600,1705A,116.6367,23.6719,潮州市,西园路,,31,,22,8,14,98,,74,74,10,11,3,3,0.6,0.6
2025-04-25T1600,3026A,116.6183,23.6608,潮州市,市政府,,31,16,26,10,17,98,,85,85,9,13,3,6,0.6,0.6
2025-04-25T1600,4036A,116.6461,23.6761,潮州市,金山,,28,7,20,3,12,89,,72,72,14,12,5,6,0.6,0.6
2025-04-25T1600,2472A,113.0073,25.9061,郴州市,马头岭,,34,34,23,8,8,16,,21,19,13,11,10,8,0.4,0.3
2025-04-25T1600,2473A,113.0116,25.8226,郴州市,市职中,,37,37,22,14,13,57,,75,74,13,8,3,2,0.6,0.6
2025-04-25T1600,2475A,113.0383,25.8071,郴州市,市审计局,,27,27,20,18,14,61,,76,73,19,7,12,4,0.6,0.6
2025-04-25T1600,2476A,113.0348,25.7759,郴州市,市环保局,,31,31,24,17,12,67,,67,67,13,10,7,4,0.6,0.5
2025-04-25T1600,4252A,113.0138,25.8011,郴州市,好美居路49号,,34,34,19,23,12,69,,74,73,14,9,14,6,0.7,0.7
2025-04-25T1600,1431A,103.9728,30.7236,成都市,金泉两河,,29,29,47,3,12,82,,56,48,9,20,2,3,0.6,0.7
2025-04-25T1600,1432A,104.176,30.6872,成都市,十里店,,26,16,47,3,18,83,,72,72,13,24,3,3,0.6,0.6
2025-04-25T1600,1433A,104.079,30.5706,成都市,三瓦窑,,32,6,40,3,19,100,,87,87,10,21,4,4,0.4,0.4
2025-04-25T1600,1434A,104.1114,30.63,成都市,沙河铺,,27,19,43,8,19,86,,72,72,12,18,6,6,0.4,0.4
2025-04-25T1600,1437A,104.0786,30.6531,成都市,君平街,,23,23,43,15,23,73,,59,59,14,23,6,7,0.5,0.6
2025-04-25T1600,1438A,103.613,31.0283,成都市,灵岩寺,,,,,,,,,,,,,,,,
2025-04-25T1600,2880A,104.0239,30.65639,成都市,大石西路,,31,31,45,3,20,94,,80,80,11,20,4,5,0.3,0.4
2025-04-25T1600,3136A,104.2725,30.5589,成都市,龙泉驿区区政府,,25,7,27,3,12,78,,67,67,7,10,4,5,0.5,0.5
2025-04-25T1600,3357A,104.0106,30.6931,成都市,金博路,,30,19,33,3,11,96,,79,79,8,15,7,7,0,0
2025-04-25T1600,3359A,104.0578,30.5225,成都市,华阳,,26,17,35,12,26,81,,78,78,25,24,6,6,0.2,0.2
2025-04-25T1600,3488A,104.3853,30.7453,成都市,青白江技师分院,,39,39,42,24,19,84,,78,78,17,19,2,3,0.3,0.3
2025-04-25T1600,3489A,104.0789,30.4072,成都市,科学城,,,,38,,20,97,,76,76,,12,4,4,0.4,0.3
2025-04-25T1600,4011A,103.8506,30.6947,成都市,光华大道三段,,,,46,2,23,102,,76,61,11,21,1,2,,0.6
2025-04-25T1600,4224A,104.2433,30.5353,成都市,鲸龙路1057号,,27,16,37,8,20,84,,75,75,18,21,4,4,0.5,0.5
2025-04-25T1600,1062A,117.9531,40.9081,承德市,铁路,,30,24,26,3,6,93,,74,74,8,12,3,5,0.2,0.3
2025-04-25T1600,1063A,117.9392,40.9763,承德市,中国银行,,30,24,29,3,7,96,,78,78,2,9,8,5,0.4,0.3
2025-04-25T1600,1064A,117.9503,40.928,承德市,开发区,,32,12,25,10,14,100,,78,78,5,12,10,6,0.3,0.3
2025-04-25T1600,1065A,117.8051,40.9655,承德市,文化中心,,33,24,41,3,7,105,,78,78,6,16,20,10,0.3,0.5
2025-04-25T1600,1066A,117.9268,41.0026,承德市,离宫,,20,15,28,13,17,64,,52,52,2,6,5,3,0.3,0.3
2025-04-25T1600,2314A,117.47,30.6618,池州市,池州学院,臭氧1小时,75,67,63,32,34,180,,136,136,15,17,8,8,0.6,0.7
2025-04-25T1600,3237A,117.4918,30.6617,池州市,展览馆,臭氧1小时,75,59,57,28,32,180,,138,138,13,15,7,6,0.6,0.7
2025-04-25T1600,3333A,117.5627,30.695,池州市,第八中学,臭氧1小时,67,58,62,24,31,173,,139,139,16,16,8,6,0.6,0.7
2025-04-25T1600,3334A,117.5038,30.6243,池州市,第十二中学,臭氧1小时,77,69,61,29,30,181,,137,137,14,15,8,7,0.7,0.8
2025-04-25T1600,1744A,118.9233,42.2816,赤峰市,松山一中,,25,10,18,3,4,78,,71,71,18,24,9,10,0.2,0.3
2025-04-25T1600,1745A,118.9576,42.2728,赤峰市,哈达街,,28,8,17,6,6,87,,79,79,13,14,8,9,0.4,0.4
2025-04-25T1600,1746A,118.8788,42.2554,赤峰市,天义路,,27,9,18,3,8,84,,78,78,14,13,7,9,0.5,0.5
2025-04-25T1600,3058A,119.2658,42.0353,赤峰市,银河街,,29,16,33,3,13,90,,78,78,8,14,14,18,0.4,0.5
2025-04-25T1600,3286A,118.9359,42.3147,赤峰市,桥北物流园区,,25,14,22,7,10,80,,71,71,14,24,5,7,0.5,0.5
2025-04-25T1600,2521A,107.3476,22.4136,崇左市,市环保局江州分局,,33,33,33,16,18,85,,62,62,7,10,6,6,0.6,0.6
2025-04-25T1600,4256A,107.3750,22.3736,崇左市,石景林东路7号,,32,32,32,17,12,87,,71,71,7,10,4,5,0.5,0.5
2025-04-25T1600,2298A,118.3093,32.3153,滁州市,老年大学,臭氧1小时,67,64,80,23,21,173,,127,127,15,20,5,4,0.5,0.3
2025-04-25T1600,2299A,118.3244,32.2786,滁州市,人大宾馆,臭氧1小时,62,51,57,22,16,169,,124,124,13,19,12,10,0.5,0.3
2025-04-25T1600,3207A,118.3118,32.3038,滁州市,市政府原办公楼,臭氧1小时,63,60,70,22,21,170,,126,126,12,17,8,6,0.5,0.3
2025-04-25T1600,3331A,118.3267,32.2634,滁州市,图书馆,颗粒物(PM10),64,78,81,21,22,170,,126,126,14,16,10,9,0.6,0.5
2025-04-25T1600,2605A,101.5482,25.0441,楚雄彝族自治州,州环境监测站,颗粒物(PM10),55,60,62,26,34,137,,121,121,8,25,6,8,0.4,0.5
2025-04-25T1600,2606A,101.538,25.0492,楚雄彝族自治州,市经济开发区,,42,39,61,26,31,134,,123,123,9,20,7,9,0.5,0.6
2025-04-25T1600,2548A,107.5277,31.2827,达州市,达州职业技术学院,颗粒物(PM10),62,73,55,32,21,88,,60,60,13,22,6,5,0.7,0.5
2025-04-25T1600,2549A,107.5086,31.2186,达州市,市环境监测站,颗粒物(PM10),59,68,57,34,22,74,,46,46,18,24,5,5,0.3,0.3
2025-04-25T1600,2550A,107.4988,31.2132,达州市,凤凰小区,颗粒物(PM10),60,70,55,34,24,81,,56,56,18,24,8,7,0.5,0.5
2025-04-25T1600,2551A,107.5082,31.1986,达州市,达县机关宾馆,颗粒物(PM10),62,73,57,28,22,76,,53,53,20,28,6,5,0.5,0.5
2025-04-25T1600,2552A,107.4644,31.2124,达州市,市政中心,颗粒物(PM10),59,68,62,24,21,74,,48,48,16,27,3,2,0.4,0.4
2025-04-25T1600,2614A,100.1542,25.7054,大理白族自治州,大理市环境监测站,颗粒物(PM10),56,62,47,33,35,144,,119,119,7,13,8,8,0.5,0.6
2025-04-25T1600,2615A,100.2171,25.5811,大理白族自治州,大理古城,颗粒物(PM10),58,65,60,33,40,135,,125,125,6,11,8,8,0.6,0.7
2025-04-25T1600,1109A,121.612,38.9741,大连市,甘井子,,32,26,32,6,9,102,,99,99,13,24,7,7,0.3,0.3
2025-04-25T1600,1110A,121.565,38.9511,大连市,周水子,,39,39,31,3,7,87,,85,85,9,21,2,6,0.3,0.4
2025-04-25T1600,1111A,121.5637,38.8845,大连市,星海三站,,29,29,27,6,7,88,,87,87,20,20,4,4,0.2,0.3
2025-04-25T1600,1112A,121.6302,38.9117,大连市,青泥洼桥,,34,23,27,3,7,106,,96,96,2,18,5,6,0.1,0.4
2025-04-25T1600,1113A,121.6251,38.8638,大连市,傅家庄,,28,24,24,6,6,89,,81,79,29,22,9,9,0.2,0.2
2025-04-25T1600,1114A,121.5213,38.8661,大连市,七贤岭,,30,15,21,3,5,96,,92,92,7,12,5,5,0.4,0.5
2025-04-25T1600,1115A,121.2529,38.8061,大连市,旅顺,,25,24,24,6,8,79,,69,69,23,29,3,4,0.3,0.4
2025-04-25T1600,1116A,121.7485,39.1311,大连市,金州,,40,40,41,6,9,86,,86,86,15,26,9,10,0.2,0.3
2025-04-25T1600,1117A,121.7811,39.0496,大连市,开发区,,36,36,38,3,10,81,,79,79,18,26,4,5,0.3,0.3
2025-04-25T1600,1118A,121.9762,39.0631,大连市,双D港,,36,36,29,7,7,96,,99,99,22,12,10,8,0.4,0.3
2025-04-25T1600,1789A,124.81117,46.03138,大庆市,大同区,,25,18,19,16,16,77,,72,72,3,3,4,4,0.3,0.3
2025-04-25T1600,1790A,125.129,46.533,大庆市,龙凤区,,24,11,28,8,11,74,,69,69,6,7,4,3,0.3,0.4
2025-04-25T1600,1791A,124.902,46.408,大庆市,红岗区,,25,14,17,7,12,80,,77,77,5,3,4,4,0.3,0.3
2025-04-25T1600,1792A,125.153,46.586,大庆市,萨尔图区,,22,10,19,3,6,68,,63,63,9,9,5,5,0.4,0.4
2025-04-25T1600,1793A,124.9042,46.6215,大庆市,让胡路区,,23,,15,12,14,73,,68,68,5,6,6,6,0.2,0.2
2025-04-25T1600,3481A,125.141,46.634,大庆市,萨区政府监测点,,25,16,15,3,0,78,,73,73,3,4,5,5,0.3,0.3
2025-04-25T1600,1721A,113.3819,40.1097,大同市,果树场,,49,49,37,10,11,110,,77,77,10,27,5,7,0.3,0.5
2025-04-25T1600,1723A,113.2994,40.0758,大同市,云冈宾馆,,40,32,41,3,14,126,,82,82,9,26,8,12,0.3,0.8
2025-04-25T1600,1724A,113.3444,40.0917,大同市,大同大学,,48,48,32,20,14,118,,80,80,6,24,9,15,0.3,0.5
2025-04-25T1600,1725A,113.2661,40.1269,大同市,安家小村,,37,34,50,3,14,118,,77,77,3,24,10,14,0.2,0.9
2025-04-25T1600,1726A,113.2711,40.0844,大同市,教育学院,颗粒物(PM10),52,54,44,12,19,125,,82,82,7,26,8,12,0.2,0.9
2025-04-25T1600,3282A,113.3397,40.0597,大同市,大同市卫生学校,,39,39,30,10,12,114,,81,81,10,26,8,13,0.3,0.6
2025-04-25T1600,3565A,113.1367,40.1122,大同市,云冈站,颗粒物(PM10),54,57,52,12,15,118,,93,93,5,27,10,15,0.3,0.5
2025-04-25T1600,3566A,113.1186,40.2556,大同市,图书馆,,36,32,26,7,12,113,,84,84,3,10,8,10,0.3,0.5
2025-04-25T1600,3567A,113.5931,40.0461,大同市,区一中,颗粒物(PM10),53,55,25,9,8,113,,93,93,15,11,17,14,0.3,0.4
2025-04-25T1600,4199A,113.2798,40.0997,大同市,魏都大道141号,颗粒物(PM10),53,56,51,14,15,125,,82,82,6,27,13,16,0.3,1
2025-04-25T1600,2269A,124.1069,50.4097,大兴安岭地区,科技局,,27,17,15,14,15,84,,80,80,6,6,3,4,0.3,0.3
2025-04-25T1600,3663A,124.1164,50.4278,大兴安岭地区,红旗社区,,27,6,1,3,2,86,,82,82,1,2,4,4,0.2,0.2
2025-04-25T1600,1600A,124.3303,40.0625,丹东市,江湾东路,,46,46,56,15,22,108,,104,104,10,11,11,10,0.4,0.5
2025-04-25T1600,1601A,124.4256,40.1503,丹东市,临江后街,颗粒物(PM10),51,51,88,10,22,106,,96,96,9,16,7,8,0.4,0.5
2025-04-25T1600,1602A,124.3933,40.1461,丹东市,元宝山,,34,22,46,14,24,106,,96,96,3,9,8,8,0.5,0.5
2025-04-25T1600,1603A,124.3633,40.1092,丹东市,民主桥,,38,38,54,8,18,111,,102,102,11,16,9,8,0.6,0.6
2025-04-25T1600,3541A,109.5726,19.5167,儋州市,第一中学子站,,40,40,38,27,23,86,,60,60,4,8,4,5,0.8,0.7
2025-04-25T1600,3542A,109.5567,19.5187,儋州市,东坡学校子站,,42,42,36,29,23,96,,71,71,5,9,6,7,0.6,0.5
2025-04-25T1600,2616A,98.5842,24.428,德宏傣族景颇族自治州,德宏州监测站,颗粒物(PM10),75,100,112,42,62,138,,102,102,8,25,9,10,0.5,0.8
2025-04-25T1600,3677A,98.5881,24.4368,德宏傣族景颇族自治州,芒市人民政府综合楼,颗粒物(PM10),80,110,120,44,56,148,,116,116,8,16,9,9,0.4,0.7
2025-04-25T1600,1901A,104.4239,31.1208,德阳市,东山公园,,29,29,35,11,22,83,,70,70,8,12,3,4,0.6,0.6
2025-04-25T1600,1902A,104.3826,31.1317,德阳市,西小区,,38,38,46,17,23,83,,68,68,11,20,4,4,0.5,0.5
2025-04-25T1600,1904A,104.3553,31.1091,德阳市,耐火材料厂,,44,44,53,22,25,70,,50,50,19,27,4,6,0.5,0.5
2025-04-25T1600,3639A,104.4019,31.1244,德阳市,市教育局,,,,35,,22,,,117,,,17,,4,,0.4
2025-04-25T1600,1622A,116.3032,37.4674,德州市,儿童乐园,颗粒物(PM10),104,158,73,39,26,179,,124,124,12,25,9,8,0.5,0.4
2025-04-25T1600,1624A,116.2991,37.4451,德州市,监理站,颗粒物(PM10),95,139,69,41,24,174,,118,118,8,22,12,11,0.4,0.4
2025-04-25T1600,3066A,116.2721,37.4379,德州市,九衢泉纯净水厂,颗粒物(PM10),95,139,73,36,28,166,,114,114,14,40,8,9,0.7,0.6
2025-04-25T1600,3371A,116.3728,37.4403,德州市,开发区人民医院,颗粒物(PM10),102,153,74,29,22,163,,112,112,9,26,10,10,0.7,0.6
2025-04-25T1600,3372A,116.3572,37.4094,德州市,太阳城中学,颗粒物(PM10),100,149,82,46,31,176,,123,123,9,35,7,7,0.4,0.4
2025-04-25T1600,3511A,116.5652,37.3319,德州市,陵城艺术中心,颗粒物(PM10),96,141,70,36,23,178,,123,123,17,30,7,8,0.6,0.6
2025-04-25T1600,2621A,99.7056,27.8317,迪庆藏族自治州,迪庆州站,,36,31,31,21,17,115,,121,117,9,9,5,5,0.4,0.4
2025-04-25T1600,3180A,99.7136,27.8094,迪庆藏族自治州,质量技术监督局,,38,35,22,11,12,120,,128,120,10,10,3,3,0.5,0.5
2025-04-25T1600,4257A,104.6092,35.5962,定西市,将台街,颗粒物(PM10),55,59,59,12,24,132,,117,117,8,16,6,5,0.0,0.1
2025-04-25T1600,4309A,104.6159,35.5701,定西市,正龙路62号,颗粒物(PM10),51,52,53,15,20,131,,120,120,4,7,9,9,0.2,0.2
2025-04-25T1600,1389A,113.7547,23.0494,东莞市,莞城梨川,,15,,25,10,19,37,,64,52,20,19,5,6,0.8,0.6
2025-04-25T1600,1390A,113.7944,23.0128,东莞市,东城石井,,13,9,24,6,16,38,,53,53,25,24,3,4,0.7,0.5
2025-04-25T1600,1391A,113.7383,22.9658,东莞市,南城西平,,17,14,25,8,17,32,,52,52,33,25,4,4,0.7,0.5
2025-04-25T1600,3319A,113.7338,23.0381,东莞市,万江金泰,,12,10,23,8,14,29,,47,37,23,20,4,4,1.1,0.9
2025-04-25T1600,3626A,113.7533,23.0202,东莞市,南城元岭,,16,12,22,11,17,37,,57,51,21,17,7,6,0.8,0.7
2025-04-25T1600,3627A,113.7875,23.0457,东莞市,东城主山,,14,9,28,3,15,42,,58,49,16,22,4,4,0.6,0.5
2025-04-25T1600,1666A,118.6614,37.4309,东营市,市环保局,臭氧1小时,72,73,50,24,12,177,,135,135,22,34,10,11,0.5,0.5
2025-04-25T1600,3036A,118.6904,37.4338,东营市,开发区管委会,臭氧1小时,70,77,58,22,15,176,,134,134,18,29,9,12,0.6,0.6
2025-04-25T1600,3365A,118.5719,37.565,东营市,垦利区民丰路,,,80,51,31,20,185,,136,136,24,36,,6,0.8,0.8
2025-04-25T1600,3498A,118.5055,37.8612,东营市,河口城区,臭氧1小时,88,88,60,27,12,190,,122,122,14,23,10,8,0.5,0.6
2025-04-25T1600,3646A,118.4978,37.4623,东营市,胜利站,颗粒物(PM10),66,82,58,27,19,171,,130,130,34,37,14,13,0.7,0.6
2025-04-25T1600,3734A,118.35,37.26,东营市,理想之城,臭氧1小时,72,83,55,27,20,177,,125,125,20,34,11,8,0.7,0.6
2025-04-25T1600,1591A,110.0023,39.8129,鄂尔多斯市,综合楼,,41,36,50,7,9,129,,114,114,7,22,1,4,0.2,0.3
2025-04-25T1600,1592A,109.9486,39.8261,鄂尔多斯市,巴音孟克林场办事处,,39,34,46,14,15,122,,111,111,7,26,6,8,0.3,0.4
2025-04-25T1600,1593A,109.7736,39.5986,鄂尔多斯市,康泽苑,颗粒物(PM10),51,51,40,12,9,131,,109,109,6,15,5,4,0.3,0.3
2025-04-25T1600,1594A,109.8119,39.5989,鄂尔多斯市,华泰汽车城,颗粒物(PM10),51,51,42,12,11,125,,100,100,8,35,6,6,0.1,0.2
2025-04-25T1600,1595A,109.9734,39.7884,鄂尔多斯市,奥林花园,,39,34,60,7,15,122,,109,109,10,43,3,3,0,0.1
2025-04-25T1600,2436A,114.8938,30.3994,鄂州市,市政府,臭氧1小时,57,62,83,39,43,165,,123,123,11,25,7,8,0.8,0.9
2025-04-25T1600,2437A,114.8989,30.3714,鄂州市,赵家坝,臭氧1小时,63,61,79,27,38,170,,129,129,11,22,4,5,0.6,0.9
2025-04-25T1600,3654A,114.8094,30.4089,鄂州市,精准医疗中心,臭氧1小时,57,59,71,37,42,165,,125,125,9,24,4,5,0.6,0.9
2025-04-25T1600,2454A,109.4978,30.2981,恩施土家族苗族自治州,湖北民院,颗粒物(PM10),57,64,54,19,24,98,,60,60,2,10,5,5,0.3,0.4
2025-04-25T1600,2455A,109.4707,30.2798,恩施土家族苗族自治州,州电力总公司,颗粒物(PM10),54,58,49,23,24,108,,67,67,4,14,4,4,0.2,0.3
2025-04-25T1600,3549A,109.5061,30.3772,恩施土家族苗族自治州,龙凤新区,颗粒物(PM10),52,53,45,24,20,95,,58,58,3,8,6,6,0.4,0.4
2025-04-25T1600,2499A,108.3411,21.6158,防城港市,沙万,,29,29,29,14,20,90,,68,68,6,9,2,2,0.4,0.5
2025-04-25T1600,2500A,108.3514,21.7731,防城港市,防城档案局,,33,33,46,16,19,94,,64,64,6,13,2,2,0.5,0.6
2025-04-25T1600,2501A,108.3506,21.6414,防城港市,大海花园,,31,30,42,13,18,99,,71,71,4,8,2,2,0.5,0.5
2025-04-25T1600,1371A,113.1294,23.0067,佛山市,湾梁,,19,19,16,9,10,26,,51,24,30,24,7,6,0.8,0.6
2025-04-25T1600,1372A,113.1083,23.0478,佛山市,华材职中,,24,24,16,14,13,20,,37,20,36,30,7,7,0.8,0.6
2025-04-25T1600,1373A,113.144,23.0453,佛山市,南海气象局,,22,22,20,12,13,20,,40,19,30,23,6,6,0.8,0.7
2025-04-25T1600,1374A,113.2881,22.8094,佛山市,顺德苏岗,,21,16,25,12,13,13,,29,19,41,28,6,5,1.0,0.8
2025-04-25T1600,1376A,112.8383,22.8678,佛山市,高明孔堂,,23,23,24,12,13,30,,47,22,33,22,7,6,0.9,0.8
2025-04-25T1600,1377A,112.8836,23.1588,佛山市,三水监测站,,13,7,13,7,7,40,,37,31,24,24,4,3,0.7,0.6
2025-04-25T1600,1378A,112.867,23.185,佛山市,三水云东海,,13,8,24,7,12,38,,37,32,26,27,2,3,0.8,0.6
2025-04-25T1600,3625A,113.2544,22.7642,佛山市,容桂街道办,,23,17,16,14,16,18,,39,22,46,30,5,5,0.9,0.7
2025-04-25T1600,1280A,119.3903,26.0543,福州市,鼓山,,,,3,,1,,,133,,,6,,3,,0.4
2025-04-25T1600,1282A,119.2681,26.0504,福州市,师大,,26,13,11,3,4,81,,126,92,26,18,3,3,0.4,0.5
2025-04-25T1600,1283A,119.2984,26.1028,福州市,五四北路,,27,17,11,6,2,86,,128,103,19,16,3,3,0.7,0.7
2025-04-25T1600,1284A,119.2648,26.0768,福州市,杨桥西路,,25,15,11,3,3,79,,118,95,26,17,3,3,0.4,0.5
2025-04-25T1600,1285A,119.317,26.0746,福州市,紫阳,,29,28,15,7,4,49,,124,88,58,24,4,4,0.4,0.5
2025-04-25T1600,3048A,119.5799,26.0936,福州市,九龙,,,,9,,1,,,114,,,10,,4,,0.3
2025-04-25T1600,3526A,119.5189,25.9664,福州市,吴航,,50,50,13,6,4,112,,137,116,11,11,3,3,0.3,0.5
2025-04-25T1600,1755A,123.7977,41.8491,抚顺市,望花区,,35,22,100,8,38,112,,103,103,8,16,5,7,0.6,0.9
2025-04-25T1600,1756A,123.9161,41.8822,抚顺市,顺城区,,33,22,92,6,36,104,,96,96,9,16,6,6,0.3,0.4
2025-04-25T1600,1757A,124.0436,41.8611,抚顺市,东洲区,,33,29,102,6,38,104,,96,96,11,19,6,8,0.3,0.6
2025-04-25T1600,1758A,123.9247,41.8642,抚顺市,新抚区,,32,19,91,6,36,102,,96,96,6,11,6,7,0.4,0.5
2025-04-25T1600,1759A,124.0972,41.8961,抚顺市,大伙房水库,,33,27,101,7,39,105,,98,98,4,14,7,8,0.3,0.5
2025-04-25T1600,1760A,123.7086,41.8391,抚顺市,沈抚新城,,,22,98,6,38,101,,94,94,7,15,6,6,,0.6
2025-04-25T1600,2376A,116.2127,28.0814,抚州市,桐源党溪,,39,23,29,9,11,124,,108,108,3,2,9,4,0.9,0.9
2025-04-25T1600,2377A,116.3544,27.9831,抚州市,市站,,29,25,23,8,11,91,,90,90,3,4,2,4,0.8,1
2025-04-25T1600,2378A,116.3565,27.963,抚州市,血防站,,31,24,28,8,12,99,,92,92,3,4,1,3,0.4,0.4
2025-04-25T1600,2379A,116.3564,28.0007,抚州市,采茶剧团,,31,18,21,10,11,97,,90,90,2,2,3,3,0.6,0.5
2025-04-25T1600,2380A,116.385,27.9647,抚州市,医学分院,,30,9,20,7,9,95,,88,88,2,2,3,4,0.6,0.6
2025-04-25T1600,2207A,121.6094,41.998,阜新市,工业园区,,31,21,83,3,45,98,,89,89,6,19,8,12,0.3,0.4
2025-04-25T1600,2208A,121.6697,42.0279,阜新市,长青街,,31,15,62,3,37,99,,90,90,6,14,5,8,0.3,0.4
2025-04-25T1600,2209A,121.6673,42.0705,阜新市,农业园区,,32,17,51,3,32,100,,91,91,2,8,6,8,0.3,0.4
2025-04-25T1600,2210A,121.6717,42.0224,阜新市,东苑,,31,13,77,3,40,98,,90,90,4,11,8,11,0.4,0.5
2025-04-25T1600,2211A,121.6506,42.0498,阜新市,玉龙新城,,31,13,81,3,38,98,,90,90,4,20,6,8,0.3,0.4
2025-04-25T1600,2301A,115.8277,32.8929,阜阳市,市监测站,颗粒物(PM10),63,75,72,30,26,163,,125,125,12,17,9,9,0.3,0.3
2025-04-25T1600,2303A,115.8554,32.8605,阜阳市,开发区,颗粒物(PM10),60,69,94,31,19,166,,128,128,14,20,8,8,0.2,0.3
2025-04-25T1600,2875A,115.784,32.8892,阜阳市,阜阳职业技术学院,颗粒物(PM10),65,80,71,32,25,155,,119,119,9,12,8,7,0.5,0.5
2025-04-25T1600,3468A,115.7901,32.8613,阜阳市,市规划展馆,颗粒物(PM10),78,105,82,33,24,168,,131,131,11,13,10,9,0.5,0.4
2025-04-25T1600,3469A,115.836,32.9183,阜阳市,枣园社区,颗粒物(PM10),68,85,75,34,24,167,,128,128,10,14,11,11,0.4,0.4
2025-04-25T1600,2669A,102.9099,34.9841,甘南藏族自治州,州政府,,42,35,43,29,29,91,,68,68,1,12,2,8,0.3,0.4
2025-04-25T1600,3380A,102.8914,34.9617,甘南藏族自治州,甘肃民族师范学院,,33,30,50,9,20,104,,82,82,3,16,8,8,0.4,0.5
2025-04-25T1600,2570A,101.9603,30.0475,甘孜藏族自治州,水桥子,,27,14,16,3,7,86,,76,76,8,14,4,4,0.2,0.2
2025-04-25T1600,3065A,101.9533,29.9972,甘孜藏族自治州,州环保局,,27,15,19,6,6,85,,85,85,11,16,1,1,0.6,0.5
2025-04-25T1600,3414A,115.8347,28.932,赣江新区,桑海产业园,,40,31,28,14,13,125,,111,111,2,4,3,4,0.3,0.3
2025-04-25T1600,2362A,114.9017,25.9149,赣州市,通天岩,,25,25,22,11,5,69,,88,70,5,5,2,2,0.8,0.8
2025-04-25T1600,2363A,114.9367,25.8664,赣州市,地委,,31,31,24,9,9,66,,88,76,17,6,5,2,0.8,0.8
2025-04-25T1600,2364A,114.9461,25.8481,赣州市,气象台,,35,35,27,14,10,68,,87,72,18,12,7,8,0.5,0.5
2025-04-25T1600,2365A,114.9322,25.8333,赣州市,市图书馆,,23,,17,16,13,64,,87,74,13,6,4,4,0.9,0.9
2025-04-25T1600,2366A,114.8905,25.8471,赣州市,华坚鞋城,,,26,17,15,23,69,,56,56,,6,4,5,,0.9
2025-04-25T1600,3109A,115.0093,25.8613,赣州市,赣县区卫计委,,,22,14,20,12,,,87,78,11,4,4,3,0.4,0.4
2025-04-25T1600,2683A,106.2319,36.1417,固原市,马园,颗粒物(PM10),67,84,89,22,20,139,,117,117,6,27,5,5,0.5,0.5
2025-04-25T1600,2684A,106.2792,36.0022,固原市,监测站,颗粒物(PM10),52,54,66,19,22,126,,115,115,6,11,6,5,0.2,0.3
2025-04-25T1600,2685A,106.2375,36.0211,固原市,新区,颗粒物(PM10),55,59,65,18,20,120,,110,110,9,11,6,5,0.2,0.2
2025-04-25T1600,3522A,106.2177,35.9959,固原市,原州区十五小,颗粒物(PM10),55,59,73,20,22,128,,115,115,6,9,6,7,0.3,0.3
2025-04-25T1600,2543A,106.6308,30.5278,广安市,小平旧居,,,,,,,,,,,,,,,,
2025-04-25T1600,2544A,106.6303,30.4576,广安市,市委,颗粒物(PM10),61,72,68,39,40,70,,54,54,12,14,7,5,0.5,0.4
2025-04-25T1600,2545A,106.6271,30.4663,广安市,友谊中学,颗粒物(PM10),61,71,66,38,33,72,,56,56,16,16,7,4,0.7,0.6
2025-04-25T1600,2547A,106.6388,30.4551,广安市,广电花园,,,,61,,38,70,,52,52,14,16,,4,0.4,0.3
2025-04-25T1600,2902A,106.6351,30.4865,广安市,北辰小学,颗粒物(PM10),62,73,64,36,35,70,,52,52,13,14,9,6,0.4,0.4
2025-04-25T1600,2523A,105.8945,32.4535,广元市,黑石坡,颗粒物(PM10),53,56,52,28,19,90,,83,83,7,9,3,3,0.2,0.2
2025-04-25T1600,2524A,105.821,32.4444,广元市,老城,,37,37,46,16,16,102,,87,87,2,10,1,2,0.4,0.5
2025-04-25T1600,2526A,105.8628,32.4287,广元市,监测站,,38,38,39,20,21,105,,88,88,3,10,5,7,0.4,0.4
2025-04-25T1600,3617A,105.8047,32.4166,广元市,经开区,颗粒物(PM10),51,51,52,31,31,104,,86,86,6,20,5,5,0.5,0.5
2025-04-25T1600,1345A,113.2347,23.1423,广州市,广雅中学,,17,14,22,8,14,40,,43,26,33,30,3,3,0.5,0.5
2025-04-25T1600,1346A,113.2612,23.105,广州市,市五中,,14,14,18,9,13,44,,48,30,15,16,1,1,0.9,0.8
2025-04-25T1600,1348A,113.3478,23.0916,广州市,广东商学院,,13,13,20,7,12,40,,41,28,26,27,3,3,0.7,0.6
2025-04-25T1600,1349A,113.4332,23.1047,广州市,市八十六中,,13,13,19,7,10,37,,39,29,26,30,4,4,0.9,0.8
2025-04-25T1600,1350A,113.3505,22.9483,广州市,番禺中学,,18,18,23,12,15,31,,44,32,34,26,4,5,0.9,0.7
2025-04-25T1600,1351A,113.2146,23.3916,广州市,花都师范,,18,6,14,3,9,57,,53,38,12,13,4,4,0.8,0.8
2025-04-25T1600,1352A,113.2597,23.1331,广州市,市监测站,,14,9,18,6,11,38,,36,25,27,26,5,5,0.7,0.6
2025-04-25T1600,1353A,113.5618,23.312,广州市,九龙镇镇龙,,16,6,9,3,7,50,,49,46,16,14,4,4,0.6,0.5
2025-04-25T1600,1354A,113.2765,23.1544,广州市,麓湖,,15,9,20,6,11,45,,30,30,20,31,4,4,0.7,0.7
2025-04-25T1600,1355A,113.443,23.3035,广州市,帽峰山森林公园,,20,6,4,3,6,62,,51,46,2,4,5,5,0.8,0.8
2025-04-25T1600,2846A,113.3221,23.1322,广州市,体育西,,16,14,19,11,14,51,,45,33,20,24,4,4,0.7,0.7
2025-04-25T1600,3298A,113.5717,23.5491,广州市,从化街口,,19,6,15,3,10,59,,46,46,11,15,5,5,0.7,0.7
2025-04-25T1600,3299A,113.3472,23.3692,广州市,白云竹料,,23,6,15,3,10,72,,54,54,7,14,3,3,0.7,0.7
2025-04-25T1600,3300A,113.2981,23.237,广州市,白云嘉禾,,16,8,20,3,14,46,,44,37,31,28,5,5,0.9,0.9
2025-04-25T1600,3301A,113.4256,23.1716,广州市,黄埔科学城,,16,8,20,3,12,51,,40,32,16,18,3,3,0.6,0.5
2025-04-25T1600,3302A,113.3942,23.0483,广州市,番禺大学城,,17,17,22,8,12,41,,46,32,27,27,4,5,0.7,0.6
2025-04-25T1600,3303A,113.4922,22.8168,广州市,南沙黄阁,,31,31,24,18,20,29,,34,34,46,35,5,5,1.1,0.8
2025-04-25T1600,3304A,113.5342,22.7896,广州市,南沙街,,32,32,25,19,20,35,,46,46,41,25,5,4,0.9,0.6
2025-04-25T1600,3443A,113.2902,23.5544,广州市,花都梯面,,19,6,10,3,6,59,,48,48,8,12,4,5,0.6,0.6
2025-04-25T1600,3445A,113.7858,23.7478,广州市,从化良口,,20,6,7,3,5,61,,55,53,6,8,7,6,0.6,0.5
2025-04-25T1600,3446A,113.8051,23.2614,广州市,增城荔城,,19,6,12,3,6,58,,61,48,8,10,7,7,0.4,0.3
2025-04-25T1600,2505A,109.568,23.1478,贵港市,德智高中,,,,,,,,,,,,,,,,
2025-04-25T1600,2506A,109.6047,23.0666,贵港市,江南子站,,36,36,19,23,13,71,,59,59,14,12,5,4,0.7,0.6
2025-04-25T1600,2508A,109.5669,23.1065,贵港市,荷城子站,,38,38,19,7,7,70,,44,,10,13,31,7,0.8,0.4
2025-04-25T1600,3405A,109.5886,23.1172,贵港市,新世纪学校,,34,34,20,19,13,74,,58,58,11,11,4,3,0.7,0.7
2025-04-25T1600,4260A,109.5933,23.0951,贵港市,中山路155-3号,,35,35,22,17,12,75,,58,58,12,12,7,7,0.8,0.8
2025-04-25T1600,1439A,106.6899,26.5998,贵阳市,马鞍山,,40,39,34,7,11,127,,102,102,8,9,5,4,0.3,0.3
2025-04-25T1600,1441A,106.6243,26.6266,贵阳市,鉴湖路,颗粒物(PM10),54,58,44,17,17,127,,105,105,11,9,6,6,0.3,0.3
2025-04-25T1600,1442A,106.7487,26.6343,贵阳市,燕子冲,,46,46,33,22,20,131,,104,104,9,11,2,3,0.1,0.2
2025-04-25T1600,1443A,106.6555,26.4365,贵阳市,碧云窝,,48,48,45,12,12,126,,111,111,7,11,4,4,0.3,0.3
2025-04-25T1600,1445A,106.7109,26.6027,贵阳市,红边门,,44,44,38,19,20,131,,105,105,10,5,4,3,0.1,0.1
2025-04-25T1600,1446A,106.7164,26.5699,贵阳市,新华路,,44,44,38,19,18,129,,110,110,7,8,22,8,0.3,0.3
2025-04-25T1600,1447A,106.674,26.5424,贵阳市,太慈桥,,46,46,36,14,15,134,,109,109,9,12,6,5,0.2,0.2
2025-04-25T1600,1552A,106.805,26.3003,贵阳市,桐木岭,颗粒物(PM10),51,51,54,22,24,113,,112,112,1,3,4,4,0.5,0.6
2025-04-25T1600,4230A,106.6882,26.5695,贵阳市,花果园大街66号,,41,41,37,16,18,125,,98,98,10,11,3,4,0.3,0.4
2025-04-25T1600,4231A,106.6873,26.5169,贵阳市,漓江路57号,,48,48,37,12,16,131,,111,111,8,9,8,8,0.4,0.3
2025-04-25T1600,1862A,110.4144,25.3167,桂林市,电子科大尧山校区,,,,,,,,,,,,,,,,
2025-04-25T1600,1864A,110.3089,25.2708,桂林市,龙隐路小学,,32,18,20,10,13,102,,95,95,4,5,13,10,0.4,0.4
2025-04-25T1600,1865A,110.2869,25.2178,桂林市,八中,,28,17,21,8,11,89,,86,86,14,12,2,3,0.5,0.5
2025-04-25T1600,3531A,110.296,25.1253,桂林市,旅游学院,,29,7,12,7,8,90,,87,87,4,7,1,3,0.8,0.8
2025-04-25T1600,4222A,110.1835,25.2444,桂林市,环湖路276号,,31,19,20,17,14,97,,89,89,4,6,7,10,0.4,0.4
2025-04-25T1600,4301A,110.2803,25.2773,桂林市,信义路13号,,30,18,21,3,11,95,,94,94,10,10,3,3,0.4,0.4
2025-04-25T1600,2674A,100.2561,34.4714,果洛藏族自治州,玛沁县大武镇,,31,15,33,10,17,97,,96,96,1,2,12,19,0.3,0.3
2025-04-25T1600,1129A,126.5422,45.755,哈尔滨市,岭北,,26,7,11,6,10,82,,75,75,8,9,12,14,0.7,0.8
2025-04-25T1600,1130A,126.561,45.8167,哈尔滨市,松北商大,,23,17,16,3,9,72,,63,63,6,8,4,5,0.5,0.4
2025-04-25T1600,1131A,126.979,45.5419,哈尔滨市,阿城会宁,,23,20,22,7,18,73,,67,67,10,9,5,5,0.4,0.5
2025-04-25T1600,1132A,126.599,45.7222,哈尔滨市,南岗学府路,,23,22,25,3,10,73,,65,65,8,10,7,7,0.3,0.4
2025-04-25T1600,1133A,126.689,45.7733,哈尔滨市,太平宏伟公园,,24,13,17,11,13,76,,68,68,8,11,4,4,0.5,0.5
2025-04-25T1600,1134A,126.635,45.7667,哈尔滨市,道外承德广场,,22,,14,12,16,70,,60,60,8,14,6,5,0.4,0.4
2025-04-25T1600,1135A,126.685,45.7319,哈尔滨市,香坊红旗大街,,24,17,19,3,12,75,,67,67,8,12,6,6,0.4,0.4
2025-04-25T1600,1136A,126.6411,45.7258,哈尔滨市,动力和平路,,21,12,19,8,11,67,,61,61,8,12,7,7,0.4,0.4
2025-04-25T1600,1137A,126.593,45.7478,哈尔滨市,道里建国路,,23,11,18,7,12,72,,64,64,13,12,8,8,0.2,0.3
2025-04-25T1600,1138A,126.615,45.61,哈尔滨市,平房东轻厂,,24,,19,12,16,75,,66,66,8,14,9,10,0.4,0.4
2025-04-25T1600,1139A,126.595,45.9855,哈尔滨市,呼兰师专,,19,17,23,6,7,59,,51,51,7,9,5,5,0.1,0.3
2025-04-25T1600,1140A,126.6206,45.6842,哈尔滨市,省农科院,,29,29,31,10,16,64,,59,59,13,16,6,6,0.4,0.5
2025-04-25T1600,2688A,93.5128,42.8172,哈密市,地区监测站,颗粒物(PM10),60,70,49,24,16,106,,86,,8,15,3,4,0.2,0.3
2025-04-25T1600,2689A,93.4961,42.8328,哈密市,哈密师范学校,颗粒物(PM10),56,62,35,14,14,103,,87,87,7,15,4,4,0.6,0.4
2025-04-25T1600,2671A,100.9048,36.9639,海北藏族自治州,海晏县西海镇,,43,38,35,20,22,135,,107,107,6,11,11,10,0.4,0.4
2025-04-25T1600,3867A,102.0738,36.5056,海东市,平安区公安北苑,,40,35,56,13,26,125,,75,75,3,13,5,9,0.7,0.9
2025-04-25T1600,1409A,110.576,19.9507,海口市,东寨港,,35,6,18,6,13,111,,72,72,4,5,9,8,0.5,0.5
2025-04-25T1600,1410A,110.3232,20.0574,海口市,海南大学,,38,21,38,9,20,120,,66,66,6,17,2,2,0.4,0.4
2025-04-25T1600,1411A,110.283,20.0053,海口市,秀英海南医院,,36,27,34,8,19,114,,68,68,8,19,4,4,0.4,0.3
2025-04-25T1600,1412A,110.338,19.9969,海口市,海南师范大学,,37,25,33,8,17,118,,72,72,8,12,4,4,0.4,0.4
2025-04-25T1600,1413A,110.33,20.0356,海口市,龙华路环保局宿舍,,39,25,32,7,18,123,,68,68,6,12,4,4,0.4,0.4
2025-04-25T1600,3539A,110.5111,19.9736,海口市,桂林洋子站,,39,17,30,8,14,122,,74,74,7,14,3,3,0.3,0.3
2025-04-25T1600,2673A,100.6188,36.2866,海南藏族自治州,共和县恰卜恰镇,,39,31,42,18,24,123,,117,117,6,12,14,13,0.3,0.4
2025-04-25T1600,2676A,97.3731,37.3753,海西蒙古族藏族自治州,德令哈市,,42,42,42,11,16,113,,109,109,3,3,14,14,0.4,0.4
2025-04-25T1600,1048A,114.5302,36.6116,邯郸市,东污水处理厂,颗粒物(PM10),81,111,68,27,18,151,,100,100,14,29,3,4,0.4,0.5
2025-04-25T1600,1049A,114.4918,36.5713,邯郸市,矿院,颗粒物(PM10),88,125,64,39,23,139,,95,95,9,25,8,10,0.4,0.5
2025-04-25T1600,1050A,114.484,36.6133,邯郸市,丛台公园,颗粒物(PM10),102,154,84,29,20,155,,108,108,10,20,7,9,0.4,0.5
2025-04-25T1600,3458A,114.7895,36.5593,邯郸市,香泉濮院小区,颗粒物(PM10),111,171,82,20,14,157,,117,117,9,17,5,5,0.4,0.2
2025-04-25T1600,3579A,114.50634,36.77178,邯郸市,永年区实验高中,颗粒物(PM10),93,136,88,35,28,168,,104,104,9,25,7,8,0.4,0.7
2025-04-25T1600,3580A,114.20016,36.44293,邯郸市,峰峰矿区临水派出所,,,147,63,28,18,173,,130,130,,15,11,7,0.4,0.7
2025-04-25T1600,2634A,106.9893,33.1842,汉中市,汉川机床厂子校,颗粒物(PM10),51,51,53,30,30,124,,107,107,5,10,7,8,0.6,0.6
2025-04-25T1600,2635A,107.0154,33.0706,汉中市,市监测站,,50,50,62,27,30,121,,106,106,6,16,6,6,0.5,0.6
2025-04-25T1600,2636A,107.0089,33.1138,汉中市,鑫源开发区,颗粒物(PM10),53,55,61,18,28,121,,106,106,8,22,5,8,0.5,0.6
2025-04-25T1600,2637A,107.007,33.0323,汉中市,南郑大河坎水厂,颗粒物(PM10),52,54,58,26,32,120,,102,102,9,19,5,5,0.4,0.5
2025-04-25T1600,1223A,120.2072,30.2111,杭州市,滨江,颗粒物(PM10),61,72,46,18,21,133,,105,105,18,18,7,6,0.3,0.5
2025-04-25T1600,1224A,120.0633,30.2747,杭州市,西溪,,47,47,45,9,22,111,,97,97,13,16,6,5,0.5,0.7
2025-04-25T1600,1226A,120.3417,30.3150,杭州市,下沙,颗粒物(PM10),52,53,46,10,17,122,,98,98,15,26,7,6,0.3,0.5
2025-04-25T1600,1227A,120.1269,30.2456,杭州市,卧龙桥,,50,50,43,15,25,137,,119,119,15,17,7,6,0.5,0.6
2025-04-25T1600,1228A,120.1903,30.2692,杭州市,浙江农大,颗粒物(PM10),51,52,42,17,24,119,,100,100,14,23,3,2,0.3,0.4
2025-04-25T1600,1230A,120.1197,30.3119,杭州市,和睦小学,颗粒物(PM10),55,60,51,14,23,123,,105,105,16,20,7,7,0.4,0.5
2025-04-25T1600,1231A,120.3019,30.4183,杭州市,临平镇,颗粒物(PM10),63,75,61,11,28,128,,102,102,14,20,6,6,0.4,0.6
2025-04-25T1600,1232A,120.2753,30.1839,杭州市,城厢镇,颗粒物(PM10),54,58,39,22,24,125,,108,108,25,21,9,7,0.3,0.5
2025-04-25T1600,1233A,120.0883,30.1808,杭州市,云栖,颗粒物(PM10),55,59,44,17,32,137,,116,116,21,22,8,6,0.5,0.6
2025-04-25T1600,3557A,119.9464,30.0494,杭州市,镇二中,,49,47,35,10,23,154,,111,111,23,23,4,3,0.4,0.5
2025-04-25T1600,3558A,119.7183,30.2367,杭州市,市府大楼,臭氧1小时,58,50,53,23,29,166,,129,129,17,19,8,7,0.3,0.5
2025-04-25T1600,3656A,120.1556,30.2864,杭州市,消防大队,颗粒物(PM10),54,58,50,12,24,121,,106,106,21,25,4,4,0.5,0.7
2025-04-25T1600,1270A,117.1959,31.7848,合肥市,明珠广场,臭氧1小时,72,68,76,24,19,177,,140,140,10,18,5,3,0.4,0.4
2025-04-25T1600,1271A,117.3072,31.8764,合肥市,三里街,颗粒物(PM10),64,78,75,27,18,163,,122,122,18,22,7,6,0.5,0.4
2025-04-25T1600,1272A,117.2588,31.8707,合肥市,琥珀山庄,臭氧1小时,72,80,78,27,20,177,,132,132,14,19,6,5,0.5,0.4
2025-04-25T1600,1273A,117.1604,31.9052,合肥市,董铺水库,颗粒物(PM10),70,90,83,24,17,164,,121,121,12,15,3,2,0.4,0.4
2025-04-25T1600,1274A,117.25,31.8571,合肥市,长江中路,臭氧1小时,65,75,80,32,24,172,,129,129,15,18,11,10,0.5,0.5
2025-04-25T1600,1275A,117.266,31.9436,合肥市,庐阳区,颗粒物(PM10),65,80,82,29,18,167,,126,126,12,19,7,7,0.3,0.4
2025-04-25T1600,1276A,117.3453,31.8616,合肥市,瑶海区,颗粒物(PM10),64,78,82,17,17,159,,122,122,16,23,7,7,0.4,0.4
2025-04-25T1600,1277A,117.3027,31.7964,合肥市,包河区,颗粒物(PM10),70,90,85,22,21,171,,135,135,6,37,8,8,0.4,0.5
2025-04-25T1600,1278A,117.2776,31.7385,合肥市,滨湖新区,,,63,78,27,25,161,,128,128,,8,9,8,0.5,0.5
2025-04-25T1600,1279A,117.1318,31.8403,合肥市,高新区,臭氧1小时,64,75,79,24,20,171,,128,128,14,20,4,4,0.4,0.4
2025-04-25T1600,3464A,117.3803,31.9147,合肥市,高教基地,"颗粒物(PM10),臭氧1小时",54,58,72,15,14,163,,131,131,3,10,7,6,0.4,0.4
2025-04-25T1600,3614A,79.924,37.0877,和田地区,地区环保局,颗粒物(PM10),64,78,318,14,51,108,,93,93,2,5,3,2,0.2,0.2
2025-04-25T1600,3615A,79.9131,37.113,和田地区,市环保局,颗粒物(PM10),51,51,288,6,45,110,,94,93,1,5,3,2,0.3,0.3
2025-04-25T1600,2516A,108.2011,24.715,河池市,东仁乐园,,,,,,,,,,,,,,,,
2025-04-25T1600,2517A,108.0497,24.6947,河池市,市环保站,,32,20,20,9,10,101,,83,83,4,6,6,7,0.4,0.4
2025-04-25T1600,2518A,108.0983,24.6989,河池市,市疾控中心,,31,25,20,12,12,99,,88,88,8,12,7,8,0.5,0.5
2025-04-25T1600,1696A,114.6778,23.7569,河源市,源西,,21,,8,9,10,65,,61,61,7,12,3,3,0.7,0.6
2025-04-25T1600,1697A,114.6944,23.7586,河源市,东埔,,21,,5,10,10,66,,63,63,11,12,3,4,0.8,0.8
2025-04-25T1600,1698A,114.6892,23.7233,河源市,老城,,20,14,14,10,8,64,,61,61,9,10,3,3,0.6,0.6
2025-04-25T1600,1718A,115.4208,35.2464,菏泽市,气象局,颗粒物(PM10),78,105,89,27,32,151,,123,123,10,36,4,4,0.3,0.4
2025-04-25T1600,3374A,115.5564,35.0891,菏泽市,定陶老年大学,颗粒物(PM10),74,97,75,9,21,152,,120,120,14,31,5,5,0.3,0.4
2025-04-25T1600,4184A,115.4797,35.24401,菏泽市,永昌路1号,颗粒物(PM10),67,83,79,30,36,146,,124,124,11,35,5,5,0.3,0.3
2025-04-25T1600,4193A,115.4715,35.2800,菏泽市,长城路999号,,,86,78,,22,144,,120,120,14,33,5,6,0.2,0.2
2025-04-25T1600,2514A,111.5264,24.4172,贺州市,环保小区,,,13,19,,13,55,,54,54,15,11,6,7,0.7,0.7
2025-04-25T1600,2515A,111.5608,24.4078,贺州市,政协大楼,,19,16,19,13,10,50,,54,54,16,13,8,8,0.6,0.6
2025-04-25T1600,3534A,111.4744,24.4553,贺州市,西湾,,20,19,16,14,11,55,,53,53,12,9,6,6,0.7,0.7
2025-04-25T1600,2385A,114.17,35.9019,鹤壁市,市监测站,颗粒物(PM10),101,152,76,51,24,186,,140,140,13,12,10,8,0.5,0.4
2025-04-25T1600,2386A,114.2956,35.7511,鹤壁市,市交警支队,颗粒物(PM10),96,141,83,32,21,177,,128,128,14,28,9,8,0.9,0.6
2025-04-25T1600,2387A,114.2878,35.7306,鹤壁市,迎宾馆,颗粒物(PM10),94,138,87,31,15,185,,132,132,11,24,6,6,0.5,0.5
2025-04-25T1600,3474A,114.2617,35.6822,鹤壁市,大新区,颗粒物(PM10),75,100,78,40,27,176,,122,122,12,44,10,9,0.5,0.4
2025-04-25T1600,3596A,114.1572,35.9603,鹤壁市,南山宾馆,颗粒物(PM10),124,197,74,47,33,180,,145,145,17,12,8,5,0.5,0.5
2025-04-25T1600,2244A,130.2537,47.3416,鹤岗市,哈啤分公司,,25,23,32,17,26,63,,61,61,7,10,14,14,0.3,0.4
2025-04-25T1600,2245A,130.2684,47.3086,鹤岗市,斯达机电,,26,26,40,17,29,65,,61,61,7,12,11,12,0.1,0.2
2025-04-25T1600,2246A,130.3114,47.3388,鹤岗市,东山纸板厂,,,44,68,27,35,64,,62,62,,14,12,13,0.2,0.7
2025-04-25T1600,2247A,130.1097,47.3382,鹤岗市,五号水库,,,,,,,,,,,,,,,,
2025-04-25T1600,2263A,127.4833,50.2524,黑河市,交通局,,24,15,17,12,12,74,,66,66,3,6,7,7,0.3,0.3
2025-04-25T1600,2264A,127.5144,50.2341,黑河市,环保局,,25,,14,17,16,74,,60,60,4,8,3,4,0.2,0.3
2025-04-25T1600,2265A,127.5291,50.2472,黑河市,大黑河岛,,,,,,,,,,,,,,,,
2025-04-25T1600,1074A,115.6838,37.7541,衡水市,电机北厂,臭氧1小时,78,104,68,33,26,182,,128,128,11,17,7,6,0.4,0.3
2025-04-25T1600,1075A,115.6303,37.7316,衡水市,市监测站,臭氧1小时,78,92,63,33,19,182,,130,130,12,18,8,6,0.4,0.3
2025-04-25T1600,3188A,115.6683,37.7217,衡水市,市城管局,臭氧1小时,77,91,64,28,26,181,,126,126,10,19,4,5,0.4,0.4
2025-04-25T1600,3459A,115.5989,37.5491,衡水市,地表水厂,,,128,79,38,25,183,,134,134,,28,10,10,0.4,0.3
2025-04-25T1600,2456A,112.5003,26.9167,衡阳市,原169医院,,43,24,24,12,13,137,,122,122,6,10,5,5,0.5,0.6
2025-04-25T1600,2457A,112.6194,26.9258,衡阳市,衡阳化工总厂,,38,18,30,9,13,120,,112,112,4,6,5,6,0.5,0.5
2025-04-25T1600,2458A,112.6211,26.8956,衡阳市,珠晖区环保局,,38,25,26,13,11,119,,112,112,9,13,8,7,0.6,0.6
2025-04-25T1600,2459A,112.6197,26.8733,衡阳市,市委党校,,37,26,25,12,11,118,,108,108,4,7,4,3,0.2,0.2
2025-04-25T1600,2460A,112.6006,26.8919,衡阳市,市监测站,,37,20,28,15,17,118,,111,111,6,8,9,9,0.5,0.5
2025-04-25T1600,2461A,112.5664,26.9056,衡阳市,真空机电公司,,38,22,26,14,14,121,,113,113,4,6,5,5,0.6,0.6
2025-04-25T1600,3399A,112.6703,26.882,衡阳市,师范学院,,38,22,27,11,14,120,,115,115,8,9,6,6,0.6,0.6
2025-04-25T1600,2608A,103.3772,23.3993,红河哈尼族彝族自治州,污水处理厂,,35,6,43,3,30,109,,92,92,8,10,7,9,0.4,0.4
2025-04-25T1600,2609A,103.3861,23.35,红河哈尼族彝族自治州,监测站,颗粒物(PM10),57,64,54,24,34,100,,89,89,13,10,8,15,0.4,0.3
2025-04-25T1600,3038A,103.3758,23.368,红河哈尼族彝族自治州,州图书馆,,45,39,50,31,30,97,,80,80,6,9,3,10,0.3,0.3
2025-04-25T1600,1090A,111.6507,40.7517,呼和浩特市,呼市一监,颗粒物(PM10),51,51,45,14,16,135,,102,102,3,13,6,5,0.4,0.5
2025-04-25T1600,1091A,111.6572,40.8033,呼和浩特市,小召,颗粒物(PM10),53,56,47,16,17,122,,91,91,14,27,9,8,0.3,0.4
2025-04-25T1600,1094A,111.7516,40.8369,呼和浩特市,如意水处理厂,,44,44,44,17,19,125,,89,89,7,30,10,9,0.3,0.4
2025-04-25T1600,1095A,111.7276,40.8062,呼和浩特市,二十九中,,48,48,41,16,18,126,,89,89,5,18,6,6,0.3,0.5
2025-04-25T1600,1096A,111.5512,40.7866,呼和浩特市,工大金川校区,,46,46,50,20,21,131,,93,93,9,34,9,8,0.5,0.6
2025-04-25T1600,1097A,111.717,40.7612,呼和浩特市,化肥厂生活区,颗粒物(PM10),52,54,43,17,17,127,,93,93,10,19,10,10,0.3,0.5
2025-04-25T1600,3698A,111.5968,40.8178,呼和浩特市,红旗小学,颗粒物(PM10),52,53,49,17,18,132,,95,95,12,34,6,6,0.3,0.4
2025-04-25T1600,3699A,111.6518,40.8389,呼和浩特市,海东办,颗粒物(PM10),52,53,47,17,20,127,,92,92,8,29,9,8,0.4,0.5
2025-04-25T1600,2192A,119.7594,49.2261,呼伦贝尔市,区环保局,,35,,39,24,33,92,,86,86,8,10,6,6,0.2,0.3
2025-04-25T1600,3061A,119.7512,49.1577,呼伦贝尔市,国华电力东,,31,21,42,11,20,97,,89,89,5,6,5,4,0.2,0.2
2025-04-25T1600,1250A,120.0751,30.8669,湖州市,城西水厂,颗粒物(PM10),73,95,77,23,26,128,,102,102,21,24,8,7,0.3,0.4
2025-04-25T1600,2873A,120.0830,30.8929,湖州市,仁皇山新区,颗粒物(PM10),76,102,79,25,26,131,,97,97,25,23,5,5,0.5,0.7
2025-04-25T1600,2907A,120.1844,30.8596,湖州市,吴兴区站,颗粒物(PM10),67,83,64,23,26,128,,99,99,18,22,7,7,0.3,0.4
2025-04-25T1600,3562A,120.4148,30.8538,湖州市,南浔区站,颗粒物(PM10),65,79,71,25,27,136,,102,102,22,24,5,5,0.3,0.6
2025-04-25T1600,1607A,120.9049,40.7211,葫芦岛市,龙港区,,40,40,47,8,12,88,,80,80,10,24,6,8,0.3,0.4
2025-04-25T1600,1608A,120.8392,40.7514,葫芦岛市,化工街,,29,19,48,3,13,92,,82,82,12,34,9,20,0.4,0.5
2025-04-25T1600,1609A,120.8341,40.7073,葫芦岛市,新区,,39,39,42,6,12,91,,81,81,10,30,5,7,0.4,0.4
2025-04-25T1600,1610A,120.8695,40.7677,葫芦岛市,东城区,,29,29,48,3,16,88,,83,83,8,32,3,22,0.4,0.5
2025-04-25T1600,2482A,109.5981,27.5721,怀化市,林科所,,37,37,36,20,18,89,,73,73,7,7,10,9,0.2,0.2
2025-04-25T1600,2483A,109.9453,27.5444,怀化市,河西地税局,,35,35,36,20,16,99,,79,79,9,11,3,3,0.5,0.5
2025-04-25T1600,2484A,109.9781,27.5342,怀化市,市四医院,,39,39,39,18,20,103,,76,76,5,7,3,7,0.5,0.5
2025-04-25T1600,2485A,109.9972,27.5578,怀化市,监测楼,,36,36,40,16,18,104,,76,76,6,8,4,6,0.5,0.5
2025-04-25T1600,2486A,110.0394,27.583,怀化市,市委党校,,,39,37,26,20,100,,73,73,,10,8,20,0.5,0.5
2025-04-25T1600,1210A,119.036,33.5981,淮安市,钵池山,,46,46,66,12,16,118,,102,102,10,21,8,8,0.2,0.3
2025-04-25T1600,1211A,119.007,33.575,淮安市,北京南路,,44,44,69,11,14,130,,107,107,6,18,8,8,0.3,0.4
2025-04-25T1600,1212A,118.989,33.6067,淮安市,市监测站,,39,39,61,9,13,121,,101,101,13,21,9,9,0.2,0.3
2025-04-25T1600,1213A,119.135,33.5039,淮安市,楚州区监测站,,46,46,77,12,19,114,,97,97,3,17,8,9,0.4,0.5
2025-04-25T1600,3426A,118.8755,33.2894,淮安市,新华书店,颗粒物(PM10),52,54,70,13,12,130,,110,110,10,21,9,8,0.4,0.4
2025-04-25T1600,4206A,119.0288,33.6319,淮安市,承德北路606号,,41,41,86,13,20,120,,105,105,8,25,7,8,0.3,0.4
2025-04-25T1600,2282A,116.8004,33.975,淮北市,监测站,,,,87,23,34,147,,125,125,14,18,7,8,0.6,0.7
2025-04-25T1600,2283A,116.8091,33.9007,淮北市,烈山区政府,颗粒物(PM10),76,101,99,15,16,145,,118,118,9,16,6,7,0.5,0.6
2025-04-25T1600,3330A,116.8873,33.9836,淮北市,杜集区检察院,颗粒物(PM10),62,73,87,18,18,146,,119,119,15,17,8,7,0.7,0.7
2025-04-25T1600,4017A,116.7923,33.9535,淮北市,市博物馆,颗粒物(PM10),52,53,78,20,22,148,,120,120,12,16,7,8,0.6,0.6
2025-04-25T1600,2277A,116.8305,32.7727,淮南市,潘集区政府,颗粒物(PM10),62,73,84,24,29,142,,114,114,11,19,6,7,0.3,0.3
2025-04-25T1600,2279A,116.8569,32.5951,淮南市,谢家集区政府,颗粒物(PM10),62,74,75,17,20,145,,114,114,9,15,4,6,0.2,0.3
2025-04-25T1600,2280A,116.8281,32.633,淮南市,八公山区政府,颗粒物(PM10),59,68,85,20,20,141,,114,114,8,14,6,6,0.3,0.3
2025-04-25T1600,2281A,116.6325,32.6201,淮南市,焦岗湖风景区管理处,,,,,,,,,,,,,,,,
2025-04-25T1600,2894A,117.0566,32.6531,淮南市,经济技术开发区消防队,颗粒物(PM10),57,64,70,15,26,143,,121,121,8,20,6,6,0.3,0.3
2025-04-25T1600,3329A,117.0108,32.5893,淮南市,山南新区,颗粒物(PM10),63,76,85,3,13,153,,123,123,8,12,8,8,0.3,0.3
2025-04-25T1600,4209A,117.0031,32.6445,淮南市,国庆中路369号,颗粒物(PM10),54,58,74,13,22,152,,122,122,5,10,7,7,0.4,0.4
2025-04-25T1600,2446A,114.9028,30.4742,黄冈市,职工中心,臭氧1小时,75,57,76,36,50,180,,137,137,11,21,7,7,0.7,0.8
2025-04-25T1600,2929A,114.8858,30.4519,黄冈市,红卫路,臭氧1小时,64,65,82,33,50,171,,133,133,8,18,7,7,0.6,0.7
2025-04-25T1600,3398A,114.9136,30.4445,黄冈市,市林业局,臭氧1小时,68,67,82,31,51,174,,131,131,6,19,7,8,0.6,0.7
2025-04-25T1600,2672A,102.0199,35.5102,黄南藏族自治州,同仁县隆务镇,,30,30,35,17,14,91,,83,83,2,3,5,5,0.2,0.2
2025-04-25T1600,2295A,118.2903,29.6963,黄山市,延安路89号,,39,24,21,18,14,123,,117,117,2,2,4,4,0.3,0.4
2025-04-25T1600,2297A,118.1371,30.2756,黄山市,黄山区政府5号楼,颗粒物(PM10),57,63,39,22,17,138,,117,117,4,5,4,3,0.6,0.6
2025-04-25T1600,4210A,118.3354,29.7203,黄山市,滨江东路7-2号,,39,38,28,10,11,124,,117,117,2,6,4,4,0.4,0.5
2025-04-25T1600,2423A,115.0601,30.2313,黄石市,沈家营,臭氧1小时,68,67,83,29,33,174,,141,141,21,18,7,7,0.8,0.9
2025-04-25T1600,2426A,114.8988,30.2019,黄石市,铁山,,,,69,17,42,148,,130,130,11,20,6,7,,0.3
2025-04-25T1600,2427A,115.0307,30.2092,黄石市,团城山,臭氧1小时,59,49,77,24,32,167,,133,133,8,18,7,8,0.5,0.7
2025-04-25T1600,3149A,115.0235,30.1578,黄石市,笔架山北路,臭氧1小时,63,31,60,17,29,170,,141,141,3,11,7,6,0.5,0.9
2025-04-25T1600,4185A,115.0780,30.21118,黄石市,磁湖东路29号,臭氧1小时,79,56,80,34,46,183,,143,143,4,16,6,7,0.7,0.8
2025-04-25T1600,1392A,114.4183,23.0528,惠州市,河南岸金山湖子站,,23,14,20,9,13,73,,64,58,16,14,10,8,0.6,0.4
2025-04-25T1600,1393A,114.4053,23.0822,惠州市,下埔横江三路子站,,26,11,21,6,12,83,,76,65,10,13,9,8,0.7,0.6
2025-04-25T1600,1394A,114.4103,23.1142,惠州市,江北云山西路子站,,25,13,19,7,11,77,,78,64,11,11,11,10,0.6,0.5
2025-04-25T1600,1395A,114.4645,22.7833,惠州市,惠阳区承修路船湖子站,,35,35,23,20,13,54,,73,72,23,14,9,7,0.8,0.6
2025-04-25T1600,1396A,114.5317,22.7422,惠州市,大亚湾管委会子站,,23,20,17,13,11,72,,81,81,17,11,8,8,0.6,0.6
2025-04-25T1600,3314A,114.4338,22.8134,惠州市,惠阳秋长,,39,39,18,20,14,54,,78,78,21,9,6,5,0.7,0.6
2025-04-25T1600,3452A,114.6517,22.775,惠州市,大亚湾霞涌,,27,21,12,14,9,86,,91,91,11,11,6,6,0.6,0.5
2025-04-25T1600,2240A,130.9762,45.3001,鸡西市,环保局,,23,18,46,6,32,73,,77,77,7,11,7,6,0.3,0.4
2025-04-25T1600,2243A,130.9429,45.3039,鸡西市,第一中学,,24,14,43,3,31,74,,76,76,4,6,5,6,0.3,0.4
2025-04-25T1600,3707A,131.0207,45.3073,鸡西市,欧美日汽修厂,,23,17,55,9,38,72,,74,74,6,12,6,6,0.4,0.5
2025-04-25T1600,3709A,130.9967,45.3106,鸡西市,市政设施管理处,,22,19,54,3,32,69,,74,74,8,15,8,7,0.3,0.4
2025-04-25T1600,2367A,114.9754,27.0803,吉安市,红声器材厂,,34,28,32,11,14,107,,91,91,7,8,13,12,0.5,0.5
2025-04-25T1600,2368A,114.9658,27.0999,吉安市,市森林工业局,,34,21,28,12,16,106,,92,92,4,7,11,11,0.4,0.3
2025-04-25T1600,2369A,114.99,27.1312,吉安市,市环境监测站,,34,20,25,10,16,106,,94,94,2,6,15,13,0.3,0.4
2025-04-25T1600,2370A,115.0093,27.0968,吉安市,青原区法院,,34,22,30,6,18,108,,91,91,4,8,12,13,0.4,0.4
2025-04-25T1600,1772A,126.54,43.8622,吉林市,哈达湾,,27,19,48,6,16,84,,79,79,9,9,6,6,0.3,0.3
2025-04-25T1600,1773A,126.5844,43.8358,吉林市,东局子,,31,31,65,7,18,81,,76,76,11,11,5,5,0.5,0.5
2025-04-25T1600,1774A,126.5052,43.8245,吉林市,电力学院,,28,12,39,3,17,87,,82,82,6,7,4,4,0.3,0.3
2025-04-25T1600,1775A,126.6133,43.8972,吉林市,江北,,26,26,46,3,15,79,,76,76,14,12,7,7,0.5,0.6
2025-04-25T1600,1776A,126.555,43.8306,吉林市,江南公园,,28,17,44,8,20,87,,80,80,6,7,5,5,0.3,0.3
2025-04-25T1600,1778A,126.7061,43.7133,吉林市,丰满,,,,,,,,,,,,,,,,
2025-04-25T1600,2868A,126.4739,43.953,吉林市,九站,,27,17,45,3,16,86,,80,80,3,6,12,7,0.9,0.9
2025-04-25T1600,1299A,116.9862,36.6114,济南市,科干所,颗粒物(PM10),71,92,56,27,15,162,,135,135,8,20,6,4,0.3,0.3
2025-04-25T1600,1300A,116.9376,36.665,济南市,农科所,颗粒物(PM10),73,95,76,24,19,153,,126,126,11,41,8,8,0.4,0.5
2025-04-25T1600,1301A,117.1265,36.6734,济南市,开发区,颗粒物(PM10),73,95,53,22,17,158,,135,135,10,24,9,7,0.5,0.5
2025-04-25T1600,1303A,117.0624,36.6868,济南市,省种子仓库,颗粒物(PM10),84,117,72,29,19,155,,130,130,13,38,7,5,0.3,0.3
2025-04-25T1600,1304A,116.9489,36.6447,济南市,机床二厂,,,,93,22,23,149,,140,140,16,45,10,9,0.4,0.5
2025-04-25T1600,1305A,117.0495,36.663,济南市,市监测站,颗粒物(PM10),74,98,61,22,22,153,,129,129,12,34,10,8,0.5,0.5
2025-04-25T1600,1306A,116.7675,36.5484,济南市,长清党校,颗粒物(PM10),81,112,64,37,22,161,,134,134,12,29,8,6,0.5,0.5
2025-04-25T1600,1616A,117.6795,36.229,济南市,技术学院,颗粒物(PM10),73,95,71,22,21,154,,128,128,11,34,11,11,0.6,0.6
2025-04-25T1600,1961A,117.532,36.6868,济南市,东山小学,颗粒物(PM10),80,110,73,22,16,159,,132,132,7,30,8,8,0.3,0.3
2025-04-25T1600,3059A,117.7161,36.2049,济南市,泰兴公司,颗粒物(PM10),58,66,64,17,20,155,,130,130,13,41,10,10,0.5,0.5
2025-04-25T1600,3064A,117.6867,36.2171,济南市,莱芜战役纪念馆,,49,44,58,24,18,155,,128,128,14,34,7,6,0.1,0.2
2025-04-25T1600,3494A,117.1673,36.9782,济南市,济阳区政府,颗粒物(PM10),90,129,84,44,25,165,,,,13,12,11,9,0.4,0.3
2025-04-25T1600,3495A,117.1171,36.63,济南市,锦屏中学,颗粒物(PM10),63,76,43,22,13,154,,134,134,11,17,6,4,0.3,0.3
2025-04-25T1600,3682A,116.9814,36.6819,济南市,济南四建,颗粒物(PM10),74,97,75,27,24,160,,135,135,7,43,7,6,0.3,0.5
2025-04-25T1600,1653A,116.6251,35.4302,济宁市,火炬城,,,102,72,27,23,148,,120,120,9,24,6,5,,0.3
2025-04-25T1600,1655A,116.5491,35.4042,济宁市,电化厂,颗粒物(PM10),62,73,66,24,25,142,,119,119,6,26,2,4,0.4,0.4
2025-04-25T1600,3500A,116.5814,35.3707,济宁市,北湖一中,颗粒物(PM10),69,87,67,7,12,150,,127,127,11,23,5,4,0.3,0.3
2025-04-25T1600,3501A,116.8249,35.5593,济宁市,服务中心,颗粒物(PM10),81,112,85,28,25,136,,109,109,9,31,3,3,0.4,0.4
2025-04-25T1600,3678A,116.5907,35.4054,济宁市,市第七中学,颗粒物(PM10),80,110,78,27,17,156,,134,134,2,15,5,5,0.3,0.4
2025-04-25T1600,2255A,130.2751,46.8028,佳木斯市,佳纺,,25,8,44,6,31,80,,72,72,8,9,3,3,0.3,0.4
2025-04-25T1600,2256A,130.3995,46.8307,佳木斯市,发电厂,,27,,37,8,31,84,,74,74,9,11,3,4,0.3,0.8
2025-04-25T1600,2257A,130.3258,46.7975,佳木斯市,环保局,,26,14,40,9,32,82,,72,72,8,9,4,4,0.4,0.4
2025-04-25T1600,2258A,130.3648,46.8032,佳木斯市,十一中,,26,9,39,9,32,81,,59,,8,10,4,4,0.3,0.4
2025-04-25T1600,2259A,130.3794,46.7588,佳木斯市,四丰,,23,15,35,3,20,72,,63,63,9,6,1,1,0.3,1
2025-04-25T1600,1252A,120.7436,30.778,嘉兴市,清河小学,颗粒物(PM10),72,94,87,14,25,118,,86,86,20,24,6,5,0.6,0.9
2025-04-25T1600,1253A,120.726,30.7478,嘉兴市,嘉兴学院,颗粒物(PM10),59,67,70,14,26,131,,96,96,18,20,7,6,0.6,0.7
2025-04-25T1600,2872A,120.7846,30.7525,嘉兴市,南湖区残联,颗粒物(PM10),60,69,73,14,27,132,,100,100,20,23,7,6,0.4,0.6
2025-04-25T1600,3407A,120.6916,30.7739,嘉兴市,秀洲住建,颗粒物(PM10),58,65,73,22,25,143,,104,104,14,22,7,7,0.6,0.7
2025-04-25T1600,1945A,98.2908,39.7711,嘉峪关市,气象局,颗粒物(PM10),69,88,50,9,13,121,,106,106,6,18,16,20,0.5,0.4
2025-04-25T1600,2884A,98.2672,39.7978,嘉峪关市,酒钢宾馆,颗粒物(PM10),60,70,54,17,17,118,,102,102,5,14,22,27,0.5,0.4
2025-04-25T1600,3248A,98.2643,39.7724,嘉峪关市,雄关区,,38,38,42,9,15,121,,106,106,10,20,14,10,0.5,0.5
2025-04-25T1600,1383A,113.1064,22.6058,江门市,北街,,25,25,21,16,20,19,,47,31,45,25,2,2,0.7,0.5
2025-04-25T1600,1384A,113.0731,22.5835,江门市,西区,,17,17,21,8,9,53,,54,43,24,21,5,5,0.5,0.5
2025-04-25T1600,1385A,113.0219,22.5311,江门市,圭峰西,,25,25,18,6,7,53,,47,46,17,18,3,3,0.5,0.5
2025-04-25T1600,1386A,113.0828,22.5947,江门市,东湖,,28,20,27,19,15,23,,45,33,40,21,7,7,0.7,0.5
2025-04-25T1600,3311A,113.1075,22.5647,江门市,江海富民,,29,,32,20,21,28,,48,45,36,19,7,7,0.7,0.5
2025-04-25T1600,3449A,113.05,22.4667,江门市,新会银湖,,20,8,18,6,18,64,,46,46,9,22,2,2,0.5,0.5
2025-04-25T1600,1830A,113.1992,35.2590,焦作市,影视城,,,,26,,16,,,,,,12,,8,,0.3
2025-04-25T1600,3169A,113.2725,35.2067,焦作市,太极体育中心,细颗粒物(PM2.5),107,108,90,80,34,182,,129,129,13,19,8,8,0.2,0.3
2025-04-25T1600,3335A,113.3137,35.2641,焦作市,马村街道办,颗粒物(PM10),80,109,77,40,27,163,,132,132,31,14,11,9,0.2,0.2
2025-04-25T1600,3336A,113.2465,35.2373,焦作市,焦作技师学院,臭氧1小时,87,113,78,39,22,189,,139,139,11,13,11,10,0.3,0.3
2025-04-25T1600,3477A,113.1656,35.2539,焦作市,中站许衡医院,臭氧1小时,87,86,74,31,31,189,,143,143,11,26,11,11,0.4,0.4
2025-04-25T1600,3981A,113.2449,35.1803,焦作市,原李万街道办,臭氧1小时,90,110,78,34,25,192,,135,135,12,21,12,12,0.3,0.4
2025-04-25T1600,4264A,113.2340,35.2190,焦作市,新安路1731号,臭氧1小时,89,100,71,41,34,191,,138,138,11,15,9,9,0.6,0.6
2025-04-25T1600,1708A,116.3701,23.5345,揭阳市,新兴,,34,,21,17,16,107,,90,90,16,12,5,6,0.7,0.7
2025-04-25T1600,1709A,116.3264,23.5443,揭阳市,西马,,34,15,25,11,12,107,,89,89,9,8,6,7,0.8,0.7
2025-04-25T1600,1710A,116.3611,23.5626,揭阳市,东兴,,35,11,24,11,12,109,,88,88,11,10,5,5,1.0,1
2025-04-25T1600,1711A,116.4151,23.5294,揭阳市,渔湖,,35,19,26,7,12,109,,94,94,14,11,3,4,0.7,0.6
2025-04-25T1600,3320A,116.403,23.5699,揭阳市,曲溪,,35,12,19,10,12,110,,96,96,18,13,2,5,0.6,0.5
2025-04-25T1600,1944A,102.1692,38.5167,金昌市,天庆家园,颗粒物(PM10),53,56,65,25,29,129,,118,118,10,18,18,34,0.6,0.8
2025-04-25T1600,4022A,102.1647,38.5371,金昌市,金川区人防中心,颗粒物(PM10),55,60,68,18,24,147,,125,125,6,13,29,41,0.5,0.5
2025-04-25T1600,4239A,102.1930,38.5319,金昌市,长春路96号,,48,48,74,13,21,143,,123,123,3,15,27,14,0.6,0.7
2025-04-25T1600,1262A,119.647,29.077,金华市,十五中,,48,30,23,19,16,153,,112,112,17,22,2,1,0.4,0.4
2025-04-25T1600,1263A,119.686,29.1029,金华市,监测站,,50,33,25,26,20,159,,116,116,21,27,4,4,0.5,0.5
2025-04-25T1600,3659A,119.656,29.1131,金华市,气象局,臭氧1小时,52,37,26,19,12,161,,116,116,17,28,1,1,0.4,0.4
2025-04-25T1600,1767A,121.1115,41.0879,锦州市,南山,,39,39,45,14,22,88,,85,85,15,26,6,12,0.4,0.6
2025-04-25T1600,1768A,121.0604,40.8428,锦州市,开发区,颗粒物(PM10),52,54,68,3,17,83,,70,70,15,43,4,10,0.4,0.5
2025-04-25T1600,1769A,121.1836,41.1119,锦州市,百股街道,,29,26,40,3,14,91,,85,85,9,15,5,8,0.4,0.5
2025-04-25T1600,1770A,121.1178,41.1222,锦州市,天安街道,,41,41,38,13,17,85,,85,85,16,21,6,12,0.5,0.5
2025-04-25T1600,1771A,121.1303,41.1386,锦州市,北湖公园,,36,36,38,9,17,87,,84,84,13,15,8,13,0.4,0.5
2025-04-25T1600,2160A,112.85,35.5051,晋城市,自来水公司,颗粒物(PM10),70,90,70,19,17,171,,131,131,12,21,13,11,0.7,0.7
2025-04-25T1600,2161A,112.8318,35.4936,晋城市,白云商贸,颗粒物(PM10),81,112,70,31,18,173,,132,132,13,23,10,9,0.5,0.6
2025-04-25T1600,2162A,112.8508,35.4887,晋城市,市环保局,,,,74,,17,161,,127,127,12,22,9,8,0.3,0.3
2025-04-25T1600,2163A,112.8676,35.4897,晋城市,技术学院,颗粒物(PM10),82,113,75,22,19,164,,125,125,14,25,12,9,0.6,0.6
2025-04-25T1600,2165A,112.8453,35.546,晋城市,白马寺,颗粒物(PM10),67,84,55,44,27,169,,135,135,8,12,9,7,0.4,0.3
2025-04-25T1600,3620A,112.8271,35.4828,晋城市,泽州一中,颗粒物(PM10),72,93,65,24,16,172,,130,130,12,20,6,6,0.4,0.4
2025-04-25T1600,2173A,112.7249,37.7067,晋中市,南都小区,颗粒物(PM10),52,53,49,8,15,144,,122,122,7,27,6,7,0.2,0.3
2025-04-25T1600,2174A,112.6991,37.6982,晋中市,榆次区政府,颗粒物(PM10),51,51,52,7,12,147,,113,113,11,27,8,9,0.2,0.3
2025-04-25T1600,2865A,112.7195,37.6828,晋中市,榆次三中,颗粒物(PM10),51,51,52,9,13,150,,113,113,7,25,6,8,0.1,0.3
2025-04-25T1600,4200A,112.7478,37.6954,晋中市,迎宾街26号,颗粒物(PM10),51,51,49,7,9,142,,109,109,7,21,6,7,0.2,0.3
2025-04-25T1600,2439A,112.2014,31.0481,荆门市,竹园小学,颗粒物(PM10),86,121,105,37,26,172,,152,152,11,18,9,8,0.4,0.6
2025-04-25T1600,2440A,112.1969,30.9891,荆门市,掇刀,,,,,,,,,,,,,,,,
2025-04-25T1600,2441A,112.2213,31.0386,荆门市,石化一小,颗粒物(PM10),81,112,98,41,29,165,,145,145,10,18,12,11,0.2,0.1
2025-04-25T1600,3012A,112.1849,31.0362,荆门市,西山林语,颗粒物(PM10),86,121,88,33,24,170,,148,148,7,9,9,9,0.6,0.5
2025-04-25T1600,3547A,112.1632,31.0138,荆门市,龙泉中学南校,颗粒物(PM10),88,125,109,43,27,162,,144,144,16,19,10,9,0.7,0.6
2025-04-25T1600,1844A,112.2494,30.3197,荆州市,市图书馆,颗粒物(PM10),84,118,91,40,39,156,,130,130,14,27,7,7,0.4,0.5
2025-04-25T1600,1845A,112.2008,30.3544,荆州市,市委党校,颗粒物(PM10),84,117,100,46,40,148,,122,122,13,20,9,8,0.5,0.5
2025-04-25T1600,3194A,112.2747,30.3122,荆州市,管委会,颗粒物(PM10),74,98,83,40,37,152,,125,125,11,22,9,8,0.6,0.6
2025-04-25T1600,4268A,112.1722,30.3366,荆州市,学苑路85号,颗粒物(PM10),77,103,87,43,41,156,,132,132,16,21,6,4,0.3,0.4
2025-04-25T1600,2342A,117.3102,29.3867,景德镇市,王港中学,,,,,,,,,,,,,,,,
2025-04-25T1600,2343A,117.2117,29.2933,景德镇市,老干部活动中心,,39,28,24,14,11,122,,110,110,6,8,6,6,0.4,0.4
2025-04-25T1600,2344A,117.1894,29.2789,景德镇市,兽医站,,38,32,29,9,10,119,,106,106,5,8,3,3,0.3,0.4
2025-04-25T1600,2345A,117.1547,29.2617,景德镇市,台达陶瓷,,38,26,25,14,12,120,,110,110,11,10,7,12,0.6,0.6
2025-04-25T1600,2346A,117.2461,29.2956,景德镇市,陶研所,,39,26,20,17,14,124,,110,110,4,6,6,6,0.1,0.2
2025-04-25T1600,1803A,115.9872,29.6815,九江市,十里,臭氧1小时,54,44,42,29,27,163,,130,130,7,20,3,3,0.6,0.6
2025-04-25T1600,1804A,115.9584,29.7046,九江市,茅山头,,49,40,49,30,26,155,,127,127,8,23,5,5,0.5,0.5
2025-04-25T1600,1805A,115.9877,29.7295,九江市,西园,,,51,52,,24,145,,123,123,30,50,8,14,0.8,0.8
2025-04-25T1600,1808A,115.9114,29.6038,九江市,综合工业园,,50,48,43,34,22,159,,126,126,24,31,11,9,0.8,0.8
2025-04-25T1600,1809A,116.0721,29.7535,九江市,石化总厂,,50,50,56,15,37,143,,117,117,11,33,6,8,0.8,0.8
2025-04-25T1600,1810A,115.9773,29.5698,九江市,庐山气象台,细颗粒物(PM2.5),55,51,46,39,29,128,,122,122,14,9,6,6,0.8,0.8
2025-04-25T1600,3190A,116.0254,29.6994,九江市,外国语学校,,48,48,43,26,25,153,,118,118,14,28,4,4,1.0,1
2025-04-25T1600,4253A,116.0102,29.6594,九江市,莲花大道8号,细颗粒物(PM2.5),54,48,47,38,28,150,,117,117,8,12,5,5,0.7,0.6
2025-04-25T1600,4240A,98.4958,39.7339,酒泉市,玉门东路5号,,39,34,51,6,21,123,,111,111,2,12,9,13,0.2,0.4
2025-04-25T1600,4241A,98.5099,39.7506,酒泉市,北大街108号,,41,41,49,12,17,128,,113,113,4,15,8,15,0.2,0.3
2025-04-25T1600,2698A,76.0072,39.4467,喀什地区,巡警大队,,40,26,70,8,9,126,,81,81,8,20,3,3,0.3,0.4
2025-04-25T1600,2699A,75.9755,39.4694,喀什地区,吾办,,39,20,52,10,33,124,,84,84,7,18,1,3,0.2,0.3
2025-04-25T1600,4027A,75.9483,39.4689,喀什地区,老干局,,,,73,,9,,,114,,,7,,2,,0.6
2025-04-25T1600,1824A,114.3389,34.7781,开封市,肿瘤医院,颗粒物(PM10),96,142,97,35,28,161,,130,130,10,33,8,9,0.5,0.4
2025-04-25T1600,1826A,114.2885,34.7965,开封市,世纪星幼儿园,颗粒物(PM10),94,137,104,48,39,178,,141,141,16,38,6,8,0.6,0.7
2025-04-25T1600,3147A,114.3438,34.8106,开封市,龙亭公园,颗粒物(PM10),98,146,98,40,37,167,,136,136,12,41,5,7,0.7,0.7
2025-04-25T1600,3210A,114.3644,34.7964,开封市,汴京公园,颗粒物(PM10),127,204,131,45,37,178,,144,144,9,36,5,7,0.7,0.7
2025-04-25T1600,3473A,114.2485,34.8306,开封市,技师学院,颗粒物(PM10),95,139,79,33,30,163,,131,131,15,47,6,6,0.8,0.7
2025-04-25T1600,3592A,114.4644,34.7556,开封市,祥符区生态环境局,颗粒物(PM10),82,113,102,47,40,160,,130,130,19,48,9,9,0.5,0.4
2025-04-25T1600,1951A,84.895,45.6094,克拉玛依市,长征新村,,33,13,12,3,6,105,,97,97,5,5,7,7,0.2,0.2
2025-04-25T1600,1952A,84.8988,45.5893,克拉玛依市,南林小区,,36,13,12,6,6,114,,102,102,2,5,2,2,0.2,0.2
2025-04-25T1600,1954A,84.905,44.3396,克拉玛依市,独山子区,,,,20,,7,106,,98,98,2,3,7,7,0.3,0.3
2025-04-25T1600,1955A,85.6979,46.098,克拉玛依市,乌尔禾区商贸楼,,35,15,18,7,8,111,,90,90,2,4,6,6,0.2,0.2
2025-04-25T1600,3612A,85.1045,45.6899,克拉玛依市,白碱滩区新站,,32,14,20,3,6,100,,98,98,1,2,10,10,0.1,0.1
2025-04-25T1600,2697A,76.1454,39.7142,克孜勒苏柯尔克孜自治州,市人民政府,颗粒物(PM10),59,68,63,28,28,131,,106,106,2,5,5,13,0.2,0.2
2025-04-25T1600,3665A,76.1658,39.7157,克孜勒苏柯尔克孜自治州,克州文化中心,颗粒物(PM10),55,60,87,24,23,126,,105,99,2,4,7,11,0.2,0.2
2025-04-25T1600,1450A,102.8204,24.8886,昆明市,呈贡新区,颗粒物(PM10),63,75,49,21,30,141,,109,109,12,14,4,6,0.5,0.7
2025-04-25T1600,1451A,102.6251,24.9608,昆明市,西山森林公园,,,,,,,,,,,,,,,,
2025-04-25T1600,1452A,102.7252,25.0902,昆明市,龙泉镇,,49,49,31,23,21,132,,99,99,12,12,9,8,0.4,0.6
2025-04-25T1600,1453A,102.7266,25.0375,昆明市,东风东路,颗粒物(PM10),53,56,45,26,27,140,,106,106,16,17,9,8,0.5,0.5
2025-04-25T1600,1454A,102.6742,25.0669,昆明市,金鼎山,颗粒物(PM10),58,65,39,16,23,139,,104,104,15,15,4,3,0.4,0.4
2025-04-25T1600,1455A,102.6644,25.0401,昆明市,碧鸡广场,,42,34,43,17,23,132,,97,97,13,14,7,6,0.4,0.4
2025-04-25T1600,3179A,102.7494,25.0119,昆明市,官渡区博物馆,颗粒物(PM10),62,73,41,22,23,143,,107,107,11,17,8,7,0.4,0.5
2025-04-25T1600,3375A,102.8017,24.8336,昆明市,青年创业园,,47,32,49,23,31,148,,111,111,7,12,8,8,0.4,0.6
2025-04-25T1600,3550A,102.7997,24.9786,昆明市,昆明学院,,46,46,49,21,25,147,,109,109,10,18,6,6,0.3,0.4
2025-04-25T1600,3551A,102.5967,24.6736,昆明市,晋宁区生态环境分局,,44,44,38,22,26,140,,106,106,5,13,6,7,0.3,0.4
2025-04-25T1600,3552A,102.6678,24.9856,昆明市,云天化总部,,43,28,41,13,26,136,,98,98,9,14,8,6,0.3,0.5
2025-04-25T1600,1456A,91.1319,29.6514,拉萨市,八廓街,,47,22,27,6,10,150,,150,150,6,7,5,5,0.2,0.2
2025-04-25T1600,1457A,91.1221,29.6747,拉萨市,市环保局,,47,30,32,8,12,150,,144,144,7,10,3,4,0.4,0.4
2025-04-25T1600,1458A,91.0874,29.6475,拉萨市,区监测站,,45,25,28,8,11,143,,144,144,6,8,5,5,0.2,0.2
2025-04-25T1600,1459A,91.1774,29.6541,拉萨市,西藏大学,,43,33,31,6,12,137,,139,139,7,9,6,6,0.3,0.3
2025-04-25T1600,1460A,90.9798,29.6588,拉萨市,区辐射站,,45,45,40,3,13,143,,133,133,11,16,7,8,0.4,0.4
2025-04-25T1600,1461A,91.0834,29.6292,拉萨市,拉萨火车站,,45,23,27,3,10,142,,142,141,5,4,3,3,0.4,0.4
2025-04-25T1600,2520A,109.2203,23.7256,来宾市,来宾技工学校,,33,25,24,11,10,105,,84,84,9,13,6,8,0.4,0.4
2025-04-25T1600,3535A,109.1781,23.7297,来宾市,兴宾区政府,,30,23,21,11,12,96,,77,77,7,7,6,6,0.6,0.6
2025-04-25T1600,4002A,109.2416,23.7461,来宾市,中南小学,,32,32,27,8,13,101,,79,79,5,10,5,5,0.6,0.6
2025-04-25T1600,1477A,104.1373,35.9454,兰州市,榆中兰大校区,,,,,,,,,,,,,,,,
2025-04-25T1600,1479A,103.831,36.0464,兰州市,铁路设计院,颗粒物(PM10),51,52,68,20,24,119,,89,89,23,66,12,13,0.4,0.7
2025-04-25T1600,3241A,103.7439,36.0842,兰州市,百合公园,,40,40,64,10,24,118,,88,88,4,49,2,10,0.4,0.6
2025-04-25T1600,3242A,103.9611,35.998,兰州市,和平,,48,48,68,17,30,123,,100,100,6,22,9,13,0.4,0.5
2025-04-25T1600,4236A,103.6293,36.0938,兰州市,庄浪东路808号,,,54,73,21,33,139,,124,124,10,41,,28,0.3,0.5
2025-04-25T1600,4237A,103.7251,36.1043,兰州市,安宁西路88号,颗粒物(PM10),57,63,84,15,30,139,,113,113,16,46,10,16,0.5,0.6
2025-04-25T1600,4238A,103.8470,36.0676,兰州市,北滨河东路1号,颗粒物(PM10),51,51,77,26,31,136,,94,94,11,59,14,14,0.6,0.9
2025-04-25T1600,3245A,103.6633,36.533,兰州新区,新区管委会,,43,41,59,24,30,136,,112,112,6,15,12,14,0.3,0.4
2025-04-25T1600,3246A,103.6975,36.4789,兰州新区,舟曲中学,颗粒物(PM10),52,54,70,22,32,139,,115,115,9,20,23,22,0.4,0.3
2025-04-25T1600,1067A,116.6708,39.5111,廊坊市,药材公司,,43,40,44,25,13,136,,101,101,10,18,5,4,0.2,0.3
2025-04-25T1600,1068A,116.7214,39.5589,廊坊市,开发区,颗粒物(PM10),57,63,43,17,13,135,,102,102,14,25,4,3,0.3,0.3
2025-04-25T1600,1070A,116.7244,39.5269,廊坊市,北华航天学院,,,64,53,,16,132,,99,99,11,35,6,6,0.3,0.4
2025-04-25T1600,2919A,116.7022,39.5453,廊坊市,河北工业大学,,,79,60,23,14,136,,112,112,6,24,8,6,,0.4
2025-04-25T1600,2535A,103.7723,29.5462,乐山市,花湖湾,,35,35,38,23,24,100,,66,66,9,11,6,6,0.4,0.4
2025-04-25T1600,2536A,103.7627,29.5844,乐山市,牛耳桥,,39,39,40,22,22,104,,72,71,9,12,7,7,0.4,0.4
2025-04-25T1600,2537A,103.7508,29.6006,乐山市,市第三水厂,,39,39,39,23,22,105,,74,73,4,10,4,5,0.4,0.4
2025-04-25T1600,2538A,103.7571,29.5664,乐山市,市监测站,,45,45,39,30,23,96,,66,65,8,11,8,7,0.5,0.4
2025-04-25T1600,3361A,103.7311,29.5628,乐山市,理工大学,,40,40,35,28,24,103,,72,72,7,11,4,5,0.4,0.4
2025-04-25T1600,2598A,100.2143,26.8576,丽江市,西南郊,颗粒物(PM10),54,58,42,29,19,122,,126,123,3,3,5,5,0.4,0.4
2025-04-25T1600,2599A,100.2497,26.8802,丽江市,丽江古城,颗粒物(PM10),52,53,38,29,22,109,,109,109,14,12,5,6,0.5,0.5
2025-04-25T1600,2600A,100.2203,26.8906,丽江市,市中心,,,46,31,32,18,103,,105,101,10,9,8,6,,0.5
2025-04-25T1600,1267A,119.914,28.4514,丽水市,监测站大楼,,,30,14,11,6,108,,87,87,10,12,,2,0.2,0.3
2025-04-25T1600,1268A,119.93,28.4586,丽水市,莲都小学,,35,30,18,14,8,112,,89,89,7,11,3,3,0.3,0.3
2025-04-25T1600,1269A,119.879,28.4231,丽水市,余庄前,,34,26,14,13,8,107,,88,88,11,13,3,3,0.4,0.4
2025-04-25T1600,1173A,119.176,34.5885,连云港市,市环境监测站,,44,44,93,9,17,131,,108,108,10,23,6,7,0.5,0.6
2025-04-25T1600,3000A,119.3581,34.6972,连云港市,德源药业,,46,46,101,9,16,124,,99,99,13,31,9,9,0.2,0.3
2025-04-25T1600,3007A,119.178,34.844,连云港市,新城一中,颗粒物(PM10),62,73,94,19,19,127,,100,100,14,32,9,9,0.5,0.5
2025-04-25T1600,3008A,119.3608,34.7519,连云港市,胡沟管理处,,37,29,55,7,12,116,,89,89,16,36,12,14,0.7,0.7
2025-04-25T1600,3009A,119.1478,34.5911,连云港市,矿山设计院,,44,44,90,12,16,125,,103,103,16,31,9,10,0.4,0.5
2025-04-25T1600,3434A,119.2413,34.6539,连云港市,工贸学校,,41,41,79,17,17,131,,105,105,15,18,10,9,0.3,0.5
2025-04-25T1600,3664A,119.4172,34.7341,连云港市,连云街道,颗粒物(PM10),53,55,71,18,14,124,,102,102,17,22,7,8,0.4,0.4
2025-04-25T1600,2571A,102.3431,27.8099,凉山彝族自治州,青龙寺,,28,16,17,8,5,89,,64,64,2,6,3,7,0.5,0.4
2025-04-25T1600,2572A,102.2721,27.8415,凉山彝族自治州,邛海宾馆,,30,28,18,16,11,94,,74,74,7,12,5,6,0.5,0.5
2025-04-25T1600,2573A,102.2625,27.898,凉山彝族自治州,西昌市政府,,32,30,19,22,13,94,,63,63,7,10,10,9,0.5,0.6
2025-04-25T1600,2574A,102.2685,27.8851,凉山彝族自治州,凉山州政府,细颗粒物(PM2.5),54,50,23,38,14,94,,67,67,10,14,6,6,0.6,0.4
2025-04-25T1600,4229A,102.2342,27.8859,凉山彝族自治州,凯乐南路30号,,35,35,22,23,15,89,,64,64,13,14,9,11,0.6,0.6
2025-04-25T1600,2212A,123.2,41.1953,辽阳市,宏伟区,,33,20,96,15,39,105,,96,96,5,17,7,12,0.3,0.8
2025-04-25T1600,2213A,123.1683,41.2495,辽阳市,新华园,,35,17,91,10,40,109,,98,98,3,15,8,12,0.4,0.8
2025-04-25T1600,2214A,123.2354,41.2639,辽阳市,滨河路,,32,19,82,10,40,101,,93,93,5,13,6,9,0.3,0.6
2025-04-25T1600,2215A,123.149,41.2991,辽阳市,铁西工业园,,32,27,98,13,49,101,,91,91,8,18,9,11,0.2,0.4
2025-04-25T1600,2227A,125.1358,42.8845,辽源市,环保局,细颗粒物(PM2.5),107,126,86,80,32,110,,103,103,14,10,7,6,0.5,0.3
2025-04-25T1600,3239A,125.0764,42.9078,辽源市,银鹰制药,细颗粒物(PM2.5),93,97,78,69,36,114,,106,106,10,9,5,5,0.4,0.3
2025-04-25T1600,1625A,115.9848,36.4372,聊城市,区政府,颗粒物(PM10),81,112,80,34,23,157,,121,121,10,32,6,7,0.5,0.6
2025-04-25T1600,2878A,116.0072,36.4343,聊城市,聊大东校,颗粒物(PM10),87,124,93,42,35,156,,119,119,7,27,8,8,0.3,0.4
2025-04-25T1600,3200A,115.9819,36.4978,聊城市,监控中心,细颗粒物(PM2.5),110,123,78,83,29,160,,125,125,12,38,8,9,0.4,0.4
2025-04-25T1600,3513A,116.0445,36.4361,聊城市,九州社区,颗粒物(PM10),63,76,59,22,18,167,,127,127,6,32,6,6,0.4,0.5
2025-04-25T1600,4018A,116.0567,36.4608,聊城市,星美广场,颗粒物(PM10),80,110,78,17,19,159,,130,130,15,33,10,10,0.6,0.6
2025-04-25T1600,2632A,94.3681,29.6376,林芝市,林芝监测站,,39,14,5,10,4,124,,108,108,6,7,5,5,0.2,0.2
2025-04-25T1600,2633A,94.3616,29.6616,林芝市,林芝人民医院,,38,19,8,7,5,121,,92,92,2,5,5,5,0.3,0.5
2025-04-25T1600,2603A,100.0781,23.8982,临沧市,市环保局,颗粒物(PM10),65,79,74,32,38,141,,113,113,6,11,9,7,0.3,0.5
2025-04-25T1600,2604A,100.0894,23.8822,临沧市,市气象局,颗粒物(PM10),58,66,64,34,40,147,,112,112,9,14,8,7,0.4,0.6
2025-04-25T1600,1733A,111.5531,36.0783,临汾市,临钢医院,颗粒物(PM10),91,131,79,25,17,165,,123,123,9,22,7,6,0.7,0.6
2025-04-25T1600,1734A,111.5028,36.0714,临汾市,技工学校,臭氧1小时,72,88,64,26,20,177,,135,135,7,17,9,8,0.5,0.5
2025-04-25T1600,1736A,111.5018,36.0855,临汾市,市委,颗粒物(PM10),74,98,68,28,17,175,,143,143,7,18,10,9,0.5,0.6
2025-04-25T1600,3018A,111.505,36.1014,临汾市,唐尧大酒店,颗粒物(PM10),92,133,78,25,17,171,,128,128,10,21,7,6,0.5,0.5
2025-04-25T1600,4244A,111.4879,36.0530,临汾市,启星学校,颗粒物(PM10),79,108,75,32,23,172,,132,132,10,22,10,9,0.5,0.5
2025-04-25T1600,4271A,103.2464,35.6123,临夏回族自治州,滨河东路1号,颗粒物(PM10),62,73,92,20,34,108,,79,79,5,18,8,7,0.4,0.5
2025-04-25T1600,4310A,103.2093,35.5995,临夏回族自治州,新华街21号,颗粒物(PM10),56,62,72,21,32,123,,88,88,11,24,10,4,0.3,0.5
2025-04-25T1600,1618A,118.3429,35.0532,临沂市,沂河小区,颗粒物(PM10),63,75,116,25,42,143,,113,113,10,23,14,20,0.3,0.3
2025-04-25T1600,1619A,118.295,35.0583,临沂市,鲁南制药厂,颗粒物(PM10),64,78,116,24,35,160,,126,126,15,38,12,21,0.2,0.3
2025-04-25T1600,1620A,118.2794,34.9976,临沂市,新光毛纺厂,颗粒物(PM10),64,78,114,24,37,151,,119,119,14,32,10,21,0.3,0.3
2025-04-25T1600,1621A,118.3956,35.0888,临沂市,河东保险公司,颗粒物(PM10),58,66,106,19,31,160,,126,126,11,32,8,8,0.4,0.5
2025-04-25T1600,3370A,118.3564,35.0215,临沂市,十里堡居委,颗粒物(PM10),64,78,118,31,34,152,,118,118,16,30,10,16,0.4,0.4
2025-04-25T1600,3496A,118.3604,35.1084,临沂市,南坊新区,颗粒物(PM10),86,122,129,17,27,147,,120,120,11,24,11,14,0.2,0.3
2025-04-25T1600,3860A,118.3920,35.0300,临沂市,皇山花园小区,,,,126,,34,146,,112,112,7,23,,15,,0.5
2025-04-25T1600,1870A,109.4856,24.3895,柳州市,柳东小学,,33,18,19,8,10,103,,77,77,10,11,11,10,0.6,0.5
2025-04-25T1600,1871A,109.4157,24.3277,柳州市,环保监测站,,33,33,23,18,13,92,,77,77,6,9,9,12,0.6,0.7
2025-04-25T1600,1872A,109.389,24.341,柳州市,河西水厂,,28,23,28,11,13,88,,72,72,5,14,5,13,0.6,1.2
2025-04-25T1600,1873A,109.4311,24.2921,柳州市,市四中,,36,36,19,9,8,96,,78,78,5,7,8,8,0.7,0.6
2025-04-25T1600,1874A,109.4006,24.3631,柳州市,市九中,,29,17,26,14,12,91,,76,76,4,10,8,12,0.4,0.8
2025-04-25T1600,1875A,109.4958,24.3134,柳州市,古亭山,,39,39,20,22,11,97,,76,76,8,5,10,8,0.6,0.6
2025-04-25T1600,3402A,109.5422,24.3996,柳州市,市二中,,31,18,17,12,11,98,,71,71,7,10,11,10,0.4,0.3
2025-04-25T1600,2307A,116.5079,31.737,六安市,监测大楼,颗粒物(PM10),61,72,71,24,25,163,,124,124,13,21,7,6,0.4,0.4
2025-04-25T1600,2308A,116.4738,31.7643,六安市,皖西学院,颗粒物(PM10),70,90,86,23,25,164,,126,126,11,21,7,7,0.2,0.2
2025-04-25T1600,2309A,116.4996,31.7905,六安市,朝阳厂,颗粒物(PM10),65,79,77,24,24,152,,118,118,14,23,6,5,0.4,0.4
2025-04-25T1600,2310A,116.5567,31.7886,六安市,开发区,颗粒物(PM10),70,90,90,33,28,157,,123,123,13,22,7,6,0.4,0.4
2025-04-25T1600,2576A,104.8,26.5892,六盘水市,窑上,,33,33,27,17,15,99,,80,80,7,6,6,5,0.3,0.2
2025-04-25T1600,2577A,104.83,26.5917,六盘水市,黄土坡,,46,,26,32,14,107,,88,88,11,16,10,10,0.4,0.5
2025-04-25T1600,2578A,104.89,26.5939,六盘水市,水钢,,39,39,32,17,11,114,,98,98,7,14,8,9,0.2,0.9
2025-04-25T1600,2579A,104.8475,26.5894,六盘水市,民中,,34,25,25,14,10,108,,88,88,7,16,8,11,0.2,0.4
2025-04-25T1600,2580A,104.9544,26.5506,六盘水市,双水,,35,34,21,10,7,110,,94,94,8,12,9,9,0.3,0.3
2025-04-25T1600,2335A,117.0189,25.1181,龙岩市,龙岩师专,,,,,,,,,,,,,,,,
2025-04-25T1600,2336A,117.0217,25.1033,龙岩市,龙岩市监测站,,15,13,10,8,3,46,,57,52,16,11,4,5,0.7,0.6
2025-04-25T1600,2337A,117.0258,25.0661,龙岩市,闽西职业技术学院,,21,21,15,3,6,45,,51,50,12,11,2,4,0.8,0.7
2025-04-25T1600,2338A,117.0196,25.0306,龙岩市,龙岩学院,,19,18,21,7,6,60,,52,52,10,8,6,6,0.7,0.5
2025-04-25T1600,2665A,105.0822,33.3261,陇南市,汉王镇固水子,,,,,,,,,,,,,,,,
2025-04-25T1600,2885A,104.9339,33.3826,陇南市,滨江中学,颗粒物(PM10),51,52,62,25,27,110,,105,105,3,8,8,8,0.5,0.5
2025-04-25T1600,3247A,104.955,33.371,陇南市,市总工会,,41,41,53,26,23,114,,111,111,6,6,5,6,0.2,0.3
2025-04-25T1600,2487A,111.9589,27.8901,娄底市,电视发射台,颗粒物(PM10),54,58,46,30,20,130,,109,109,4,3,4,4,0.3,0.2
2025-04-25T1600,2488A,111.9975,27.725,娄底市,市监测站,颗粒物(PM10),51,52,52,35,27,141,,108,108,10,17,6,7,0.5,0.7
2025-04-25T1600,2489A,112.0194,27.7314,娄底市,市委党校,,44,42,47,24,24,138,,106,106,8,11,3,4,0.3,0.5
2025-04-25T1600,2490A,111.9561,27.7569,娄底市,涟钢,,45,45,47,25,23,131,,104,104,8,10,16,6,0.2,0.3
2025-04-25T1600,2491A,111.9892,27.7044,娄底市,市政府,,45,44,42,28,22,141,,106,106,6,8,4,4,0.3,0.4
2025-04-25T1600,1893A,105.4324,28.9634,泸州市,九狮山,,,,,,,,,,,,,,,,
2025-04-25T1600,1894A,105.4427,28.9063,泸州市,小市上码头,颗粒物(PM10),55,60,58,18,17,38,,20,20,21,21,5,6,0.5,0.5
2025-04-25T1600,1895A,105.4241,28.8573,泸州市,兰田宪桥,,38,38,40,26,24,87,,47,47,8,16,9,9,0.5,0.6
2025-04-25T1600,1896A,105.4379,28.8833,泸州市,市环监站,,,,,,,,,,,,,,,,
2025-04-25T1600,4272A,105.3689,28.7783,泸州市,纳溪中医医院,,37,37,37,19,16,67,,40,40,14,15,7,7,0.6,0.7
2025-04-25T1600,2183A,111.1406,37.5211,吕梁市,环保局,颗粒物(PM10),57,63,79,16,17,136,,100,100,6,29,1,3,0.4,0.4
2025-04-25T1600,2185A,111.1297,37.5136,吕梁市,自来水公司,,46,46,79,13,15,132,,99,99,8,26,1,3,0.3,0.4
2025-04-25T1600,2867A,111.1283,37.51,吕梁市,马茂庄小学,,,,79,10,15,136,,17,,6,35,3,4,0.4,0.3
2025-04-25T1600,1812A,112.3931,34.6516,洛阳市,市委党校,颗粒物(PM10),81,112,67,45,28,146,,113,113,8,24,6,8,0.4,0.4
2025-04-25T1600,1815A,112.494,34.6886,洛阳市,河南林校,颗粒物(PM10),81,112,77,33,28,151,,118,118,8,24,8,9,0.3,0.3
2025-04-25T1600,1816A,112.3844,34.623,洛阳市,开发区管委会,颗粒物(PM10),82,113,68,41,28,159,,124,124,12,25,9,9,0.4,0.4
2025-04-25T1600,1817A,112.4267,34.6258,洛阳市,市委新办公区,颗粒物(PM10),77,104,69,33,23,155,,118,118,11,23,8,9,0.5,0.7
2025-04-25T1600,3340A,112.6005,34.6326,洛阳市,伊滨,颗粒物(PM10),93,136,80,38,31,161,,122,122,12,26,8,8,0.5,0.5
2025-04-25T1600,3341A,112.4951,34.6332,洛阳市,中移产业园,颗粒物(PM10),93,135,81,30,28,162,,124,124,10,30,9,9,0.4,0.4
2025-04-25T1600,3593A,112.5736,34.8993,洛阳市,吉利监测站,颗粒物(PM10),81,111,73,39,34,173,,132,132,13,23,11,11,0.5,0.6
2025-04-25T1600,3635A,112.3677,34.662,洛阳市,河科大西苑校区,颗粒物(PM10),87,123,71,37,25,162,,126,126,13,26,10,12,0.4,0.5
2025-04-25T1600,3636A,112.4388,34.6781,洛阳市,英才小学,颗粒物(PM10),76,101,74,28,27,162,,126,126,13,30,6,8,0.6,0.6
2025-04-25T1600,4214A,112.4600,34.6949,洛阳市,春都路1号院,颗粒物(PM10),84,118,83,31,23,168,,131,131,8,23,6,7,0.4,0.5
2025-04-25T1600,2399A,114.051,33.5699,漯河市,三五一五工厂,颗粒物(PM10),78,106,79,41,31,150,,122,122,9,22,5,8,0.7,0.6
2025-04-25T1600,2400A,114.0055,33.5698,漯河市,漯河大学,颗粒物(PM10),80,110,83,36,29,155,,128,128,8,20,6,8,0.5,0.4
2025-04-25T1600,2401A,114.0138,33.5828,漯河市,市水利局,颗粒物(PM10),89,127,85,41,28,156,,128,128,6,16,5,8,0.5,0.4
2025-04-25T1600,2402A,114.0261,33.5698,漯河市,市广电局,,,112,82,41,32,155,,136,136,,23,5,8,0.8,0.7
2025-04-25T1600,3478A,113.9749,33.5664,漯河市,市图书馆,颗粒物(PM10),85,120,87,37,27,154,,128,128,12,20,4,6,0.6,0.5
2025-04-25T1600,4250A,114.0892,33.5882,漯河市,韶山路11号,颗粒物(PM10),87,123,84,46,30,152,,122,122,9,29,4,9,0.5,0.5
2025-04-25T1600,1798A,118.5092,31.6837,马鞍山市,湖东路四小,颗粒物(PM10),64,78,80,12,14,145,,120,120,13,16,9,10,0.5,0.5
2025-04-25T1600,1799A,118.5024,31.6449,马鞍山市,开发区,颗粒物(PM10),63,76,84,24,26,143,,120,120,13,22,8,9,0.4,0.8
2025-04-25T1600,1802A,118.6245,31.7241,马鞍山市,濮塘,颗粒物(PM10),52,54,72,11,17,154,,123,123,6,11,8,8,0.4,0.5
2025-04-25T1600,3633A,118.4918,31.6809,马鞍山市,雨山,颗粒物(PM10),65,79,85,16,17,141,,116,116,15,19,9,10,0.3,0.4
2025-04-25T1600,4191A,118.5274,31.72227,马鞍山市,慈湖高新区,颗粒物(PM10),56,61,60,17,21,150,,120,120,13,17,9,10,0.5,0.6
2025-04-25T1600,1686A,111.0286,21.4688,茂名市,电白南海,,36,36,26,14,15,86,,88,88,14,10,2,1,0.9,0.7
2025-04-25T1600,1687A,110.9294,21.6533,茂名市,茂石化七小,,25,9,29,9,11,79,,84,84,7,9,2,2,1.0,0.9
2025-04-25T1600,1688A,110.9107,21.6687,茂名市,健康路,,29,,25,12,14,92,,96,96,4,6,4,4,0.9,0.8
2025-04-25T1600,1689A,110.8592,21.6828,茂名市,高岭,,,17,34,,15,86,,85,85,12,10,5,7,0.8,0.7
2025-04-25T1600,3450A,111.01,21.5165,茂名市,电白水东,,27,9,17,9,9,85,,85,85,6,6,2,2,1.0,0.9
2025-04-25T1600,2539A,104.0308,30.0478,眉山市,黑龙滩水库,,32,26,26,12,15,101,,78,78,1,4,2,2,0.4,0.3
2025-04-25T1600,2540A,103.8416,30.0874,眉山市,气象局,颗粒物(PM10),56,61,50,24,23,67,,89,88,26,15,3,4,0.6,0.5
2025-04-25T1600,3137A,103.8578,30.0744,眉山市,市委党校,,39,39,37,14,17,75,,78,78,19,13,6,7,0.6,0.6
2025-04-25T1600,3148A,103.8291,30.0564,眉山市,区人社局,,,44,42,17,15,82,,84,84,,16,5,9,0.5,0.8
2025-04-25T1600,1690A,116.1231,24.3284,梅州市,梅江月梅,,14,9,15,3,6,42,,44,44,9,10,4,5,0.7,0.7
2025-04-25T1600,1691A,116.0797,24.2719,梅州市,梅县新城,,16,14,12,3,4,50,,54,52,6,8,5,5,0.6,0.6
2025-04-25T1600,1692A,116.1248,24.2654,梅州市,环境监控中心,,16,9,10,3,7,50,,51,47,8,12,6,6,0.9,0.9
2025-04-25T1600,3315A,116.1233,24.2991,梅州市,梅龙,,16,9,11,7,6,49,,50,49,4,6,5,5,0.8,0.7
2025-04-25T1600,1878A,104.7778,31.4741,绵阳市,富乐山,,38,38,42,21,24,85,,58,58,12,12,8,8,0.3,0.3
2025-04-25T1600,1880A,104.6697,31.4668,绵阳市,高新区自来水公司,颗粒物(PM10),53,56,50,22,22,85,,59,48,15,19,3,4,0.4,0.4
2025-04-25T1600,1881A,104.7287,31.5075,绵阳市,三水厂,颗粒物(PM10),54,57,48,29,24,90,,66,58,11,14,6,6,0.6,0.5
2025-04-25T1600,3491A,104.69,31.5322,绵阳市,西科大附属小学,,40,40,50,19,24,93,,52,52,10,21,6,7,0.4,0.4
2025-04-25T1600,3492A,104.5648,31.5343,绵阳市,安州区旅游局,,44,44,40,27,22,88,,58,50,14,20,11,10,0.3,0.3
2025-04-25T1600,4226A,104.7651,31.4531,绵阳市,绵阳市气象局,,34,34,44,17,24,74,,63,50,18,12,6,7,0.4,0.4
2025-04-25T1600,1784A,129.61,44.561,牡丹江市,环保大楼,,24,21,55,16,43,76,,73,73,6,12,5,5,0.2,0.4
2025-04-25T1600,1785A,129.6115,44.5782,牡丹江市,文化广场,,28,,61,19,45,75,,71,71,8,13,9,10,0.5,0.6
2025-04-25T1600,1786A,129.5904,44.5963,牡丹江市,第一医院,,,,55,22,47,78,,73,73,,10,6,8,0.3,0.4
2025-04-25T1600,1787A,129.6364,44.6075,牡丹江市,机车工厂,,23,21,50,9,41,73,,69,69,5,12,6,16,0.4,0.5
2025-04-25T1600,1788A,129.6386,44.5462,牡丹江市,第一中学,,25,,54,15,38,79,,75,75,2,9,7,6,0.4,0.5
2025-04-25T1600,2531A,105.0703,29.61,内江市,市监测站,,31,26,38,20,23,98,,56,56,7,14,7,7,0.7,0.8
2025-04-25T1600,2532A,105.0717,29.5947,内江市,东兴区政府,,28,23,36,11,17,89,,50,50,7,13,10,9,0.6,0.6
2025-04-25T1600,2533A,105.0653,29.5817,内江市,内江二中,,30,30,45,16,26,89,,52,52,9,20,6,5,0.4,0.4
2025-04-25T1600,2534A,105.0406,29.5822,内江市,内江日报社,,38,38,40,19,27,95,,47,47,8,18,11,9,0.2,0.3
2025-04-25T1600,2628A,92.0657,31.4846,那曲市,那曲监测站,颗粒物(PM10),57,64,39,13,22,131,,115,115,9,23,8,8,0.5,0.8
2025-04-25T1600,4243A,92.0515,31.4787,那曲市,那曲市委宣传部,,,73,40,14,14,,,118,118,6,15,7,6,0.2,0.4
2025-04-25T1600,1290A,115.8931,28.6843,南昌市,省外办,,,,25,,18,126,,117,117,14,18,4,5,,0.4
2025-04-25T1600,1291A,115.8886,28.7003,南昌市,省林业公司,,39,17,22,17,13,122,,113,113,3,10,6,7,0.5,0.5
2025-04-25T1600,1292A,115.8126,28.7442,南昌市,林科所,,43,14,19,14,12,135,,122,122,8,12,4,4,0.3,0.3
2025-04-25T1600,1294A,115.8518,28.687,南昌市,建工学校,,39,13,30,10,27,123,,114,114,9,14,3,2,0.5,0.5
2025-04-25T1600,1295A,115.8921,28.6424,南昌市,象湖,,43,16,26,9,14,135,,127,127,4,7,6,6,0.5,0.5
2025-04-25T1600,1296A,115.7423,28.7996,南昌市,武术学校,,43,19,23,8,7,135,,122,122,3,3,3,2,0.4,0.4
2025-04-25T1600,3046A,115.9084,28.6062,南昌市,机电学校,,42,32,27,14,13,132,,123,123,7,11,5,4,0.4,0.4
2025-04-25T1600,3690A,115.9721,28.7031,南昌市,外国语学校,,45,26,23,9,13,144,,132,132,5,7,8,8,0.2,0.2
2025-04-25T1600,4192A,115.9316,28.68677,南昌市,南京东路235号,,43,20,25,14,12,137,,126,126,8,12,9,9,0.5,0.6
2025-04-25T1600,1905A,106.056,30.8064,南充市,西山风景区,,44,44,39,30,23,82,,46,46,11,8,5,5,0.6,0.5
2025-04-25T1600,1906A,106.0789,30.8023,南充市,南充市委,颗粒物(PM10),58,66,60,38,34,81,,49,49,11,16,4,4,0.5,0.5
2025-04-25T1600,1907A,106.1031,30.8217,南充市,南充炼油厂,颗粒物(PM10),61,71,57,33,31,77,,54,54,9,13,4,4,0.4,0.4
2025-04-25T1600,4227A,106.1083,30.7884,南充市,梨树横街98号,颗粒物(PM10),64,78,67,38,26,79,,55,55,12,15,4,3,0.2,0.2
2025-04-25T1600,4304A,106.1172,30.843,南充市,清泉寺北路188号,颗粒物(PM10),59,68,56,38,33,83,,57,57,8,13,4,4,0.3,0.3
2025-04-25T1600,4305A,106.067,30.7616,南充市,同庆路1号,颗粒物(PM10),53,56,52,36,29,77,,56,56,11,14,3,3,0.5,0.5
2025-04-25T1600,1151A,118.8086,32.1065,南京市,迈皋桥,,44,40,60,19,15,140,,121,121,7,24,9,5,0.2,0.3
2025-04-25T1600,1152A,118.7538,32.0551,南京市,草场门,颗粒物(PM10),53,56,79,22,17,139,,114,114,17,21,1,3,0.1,0.2
2025-04-25T1600,1153A,118.7794,32.0745,南京市,山西路,颗粒物(PM10),53,56,92,7,12,144,,120,120,12,19,3,5,0.3,0.3
2025-04-25T1600,1154A,118.7752,32.0023,南京市,中华门,,49,48,77,12,15,155,,126,126,9,15,3,7,0.3,0.3
2025-04-25T1600,1155A,118.8109,32.0309,南京市,瑞金路,颗粒物(PM10),52,53,78,17,17,147,,119,119,2,13,7,6,0.5,0.5
2025-04-25T1600,1156A,118.7997,32.0754,南京市,玄武湖,颗粒物(PM10),52,54,73,7,11,139,,114,114,7,11,10,11,0.5,0.5
2025-04-25T1600,1157A,118.6414,32.0931,南京市,浦口,颗粒物(PM10),58,65,87,17,14,159,,122,122,18,25,7,9,0.5,0.7
2025-04-25T1600,1158A,118.7356,31.9996,南京市,奥体中心,颗粒物(PM10),57,63,86,12,17,157,,126,126,16,20,9,10,0.2,0.3
2025-04-25T1600,1159A,118.9125,32.1028,南京市,仙林大学城,颗粒物(PM10),57,63,84,12,15,146,,118,118,10,16,10,11,0.4,0.4
2025-04-25T1600,3422A,118.8436,31.9198,南京市,江宁彩虹桥,颗粒物(PM10),62,74,79,17,17,156,,122,122,11,20,3,4,0.4,0.5
2025-04-25T1600,3427A,118.8554,32.3578,南京市,六合雄州,,48,48,62,11,13,153,,118,118,23,26,6,7,0.3,0.3
2025-04-25T1600,4249A,118.8708,31.3402,南京市,汶溪路181号,,50,50,81,11,23,128,,109,109,10,20,5,6,0,0.1
2025-04-25T1600,4312A,119.019,31.6512,南京市,中山西路1号,,48,48,63,16,20,139,,115,115,14,20,7,7,0.3,0.5
2025-04-25T1600,1401A,108.3103,22.7881,南宁市,二十一中,,46,46,34,20,19,146,,78,78,7,15,6,6,0.7,0.8
2025-04-25T1600,1402A,108.3141,22.8528,南宁市,北湖,,44,32,33,19,20,138,,84,84,10,18,7,8,0.5,0.6
2025-04-25T1600,1403A,108.3206,22.8225,南宁市,市监测站,,41,40,34,16,18,130,,74,74,11,17,7,7,0.4,0.5
2025-04-25T1600,1404A,108.3829,22.8037,南宁市,大自然花园,,41,26,31,14,19,130,,74,74,6,13,6,6,0.5,0.6
2025-04-25T1600,1405A,108.4394,22.7904,南宁市,仙葫,,35,23,28,14,16,110,,67,67,6,13,5,6,0.5,0.6
2025-04-25T1600,1406A,108.2397,22.8467,南宁市,区农职院,,47,47,38,18,18,150,,85,85,12,15,6,11,0.4,0.6
2025-04-25T1600,1407A,108.3275,22.735,南宁市,英华嘉园,,45,27,35,17,21,144,,77,77,10,17,8,9,0.4,0.5
2025-04-25T1600,3401A,108.4834,22.7618,南宁市,红星社区,,43,25,25,16,16,135,,75,75,8,11,9,9,0.4,0.4
2025-04-25T1600,4221A,108.2177,22.7774,南宁市,乐贤路16号,,,42,40,19,22,150,,98,98,,23,9,9,0.6,0.7
2025-04-25T1600,2331A,118.0966,26.6761,南平市,茫荡山,,,,,,,,,,,,,,,,
2025-04-25T1600,2332A,118.1681,26.6369,南平市,南平市监测站,,30,6,4,3,4,96,,94,94,7,8,3,4,0.6,0.7
2025-04-25T1600,2333A,118.1825,26.6489,南平市,南平铝业有限公司,,30,9,7,3,4,94,,95,95,6,9,2,4,0.7,0.8
2025-04-25T1600,2334A,118.1756,26.6272,南平市,南平七中,,31,6,5,3,4,98,,99,99,7,6,9,6,0.8,0.8
2025-04-25T1600,1168A,120.9098,31.9663,南通市,狼山街道,颗粒物(PM10),52,53,70,12,14,116,,101,101,21,16,4,4,0.2,0.3
2025-04-25T1600,1169A,120.86,32.0005,南通市,虹桥,颗粒物(PM10),51,52,57,13,14,119,,101,101,32,22,3,2,0.4,0.5
2025-04-25T1600,1170A,120.87,32.02,南通市,城中,颗粒物(PM10),53,55,75,10,12,125,,106,106,21,19,5,4,0.4,0.5
2025-04-25T1600,1171A,120.94,31.93,南通市,星湖花园,,42,42,64,12,15,123,,101,101,11,16,2,2,0.5,0.5
2025-04-25T1600,1172A,120.81,32.0417,南通市,紫琅学院,颗粒物(PM10),55,59,69,18,10,116,,96,96,25,19,4,4,0.4,0.5
2025-04-25T1600,3291A,121.067,32.062,南通市,通州监测站,,38,36,63,9,11,121,,113,113,9,9,5,5,0.5,0.5
2025-04-25T1600,3432A,120.9348,31.9883,南通市,环境教育馆,,40,36,61,6,11,128,,118,118,8,15,2,2,0.1,0.1
2025-04-25T1600,2404A,112.5224,33.0122,南阳市,瓦房庄,颗粒物(PM10),88,125,83,36,21,171,,142,142,12,15,8,7,0.6,0.5
2025-04-25T1600,2405A,112.5003,32.9735,南阳市,汉画馆,颗粒物(PM10),81,112,74,36,20,160,,132,132,12,15,7,7,0.5,0.4
2025-04-25T1600,2406A,112.5573,33.027,南阳市,气象站,颗粒物(PM10),89,128,86,36,23,165,,142,142,10,16,6,5,0.5,0.4
2025-04-25T1600,2407A,112.5481,32.9689,南阳市,理工学院,颗粒物(PM10),82,114,78,40,24,163,,136,136,11,16,6,6,0.5,0.5
2025-04-25T1600,4008A,112.5234,32.9922,南阳市,卧龙区政府,颗粒物(PM10),91,132,81,43,25,167,,138,138,12,16,6,6,0.6,0.5
2025-04-25T1600,1234A,121.8358,29.911,宁波市,区环保大楼,颗粒物(PM10),56,62,63,24,28,123,,89,89,26,44,8,9,0.5,0.8
2025-04-25T1600,1235A,121.56,29.82,宁波市,万里学院,颗粒物(PM10),52,54,53,13,33,149,,105,105,24,28,8,7,0.3,0.5
2025-04-25T1600,1236A,121.713,29.9572,宁波市,龙赛医院,颗粒物(PM10),52,53,67,16,26,136,,95,95,13,34,6,6,0.4,0.6
2025-04-25T1600,1239A,121.633,29.7733,宁波市,钱湖水厂,,42,42,54,7,26,127,,97,97,21,21,8,8,0.6,0.8
2025-04-25T1600,1240A,121.5856,29.8635,宁波市,太古小学,,46,46,59,14,26,140,,105,105,16,26,8,7,0.5,0.8
2025-04-25T1600,1241A,121.524,29.8674,宁波市,市环境监测中心,,47,47,50,18,21,135,,102,102,20,29,14,11,0.3,0.5
2025-04-25T1600,2871A,121.6147,29.9017,宁波市,万里国际学校,,41,31,47,14,22,131,,100,100,21,29,10,9,0.5,0.7
2025-04-25T1600,3710A,121.5594,29.8975,宁波市,白沙活动中心,,44,43,44,16,22,138,,104,104,20,27,9,8,0.4,0.5
2025-04-25T1600,2339A,119.5001,26.6946,宁德市,金涵水库,,,,,,,,,,,,,,,,
2025-04-25T1600,2341A,119.5388,26.6612,宁德市,宁德市监测站,,29,,10,9,11,91,,135,102,21,19,4,4,0.4,0.5
2025-04-25T1600,3209A,119.5231,26.6562,宁德市,宁德一中,,28,9,12,8,10,89,,137,103,17,14,6,6,0.2,0.3
2025-04-25T1600,2618A,98.8601,25.8567,怒江傈僳族自治州,州监测站,颗粒物(PM10),56,61,25,23,14,98,,76,76,10,4,10,10,0.3,0.3
2025-04-25T1600,2619A,98.8546,25.8417,怒江傈僳族自治州,泸水一中,细颗粒物(PM2.5),52,51,19,36,14,86,,60,60,12,8,7,6,0.3,0.3
2025-04-25T1600,1888A,101.6891,26.571,攀枝花市,弄弄坪,细颗粒物(PM2.5),53,46,35,37,15,144,,102,102,14,15,14,9,0.7,0.6
2025-04-25T1600,1889A,101.5769,26.5928,攀枝花市,河门口,,50,40,31,27,15,158,,105,105,12,17,21,21,1.0,1.1
2025-04-25T1600,1890A,101.7169,26.585,攀枝花市,炳草岗,颗粒物(PM10),52,54,32,20,13,144,,103,103,14,16,6,11,0.5,0.5
2025-04-25T1600,1891A,101.7369,26.5008,攀枝花市,仁和,,47,34,43,18,25,148,,113,113,10,17,14,15,0.4,0.5
2025-04-25T1600,2835A,101.7227,26.567,攀枝花市,四十中小,,49,31,28,19,12,155,,110,110,11,9,11,10,0.7,0.6
2025-04-25T1600,1604A,122.0303,41.1489,盘锦市,开发区,,46,46,60,3,32,100,,94,94,7,24,4,7,0.2,0.3
2025-04-25T1600,1605A,122.0485,41.0883,盘锦市,兴隆台,,38,38,77,3,34,96,,87,87,9,32,6,15,0.4,0.5
2025-04-25T1600,1606A,121.8297,41.1028,盘锦市,新生街道,,33,20,50,3,27,105,,95,95,8,34,7,24,0.3,0.4
2025-04-25T1600,1832A,113.3257,33.742,平顶山市,新华旅馆,颗粒物(PM10),83,116,100,23,26,168,,130,130,12,31,5,9,0.7,0.6
2025-04-25T1600,1833A,113.2919,33.737,平顶山市,规划设计院,颗粒物(PM10),91,132,87,46,33,155,,122,122,11,31,5,8,0.4,0.5
2025-04-25T1600,1834A,113.182,33.774,平顶山市,平顶山工学院,,,112,82,36,25,145,,130,130,16,27,5,4,,0.3
2025-04-25T1600,3204A,113.3025,33.73,平顶山市,规划局,颗粒物(PM10),91,132,102,37,31,166,,126,126,6,32,6,8,0.5,0.4
2025-04-25T1600,3594A,112.8867,33.9116,平顶山市,石龙区,颗粒物(PM10),89,128,126,48,36,164,,126,126,12,42,8,12,0.3,0.4
2025-04-25T1600,2656A,106.6692,35.5461,平凉市,聚贤嘉苑,颗粒物(PM10),66,81,85,37,26,127,,106,106,7,24,14,14,0.3,0.4
2025-04-25T1600,2657A,106.7021,35.5307,平凉市,博物馆,颗粒物(PM10),53,55,88,20,25,126,,108,108,6,28,10,12,0.3,0.5
2025-04-25T1600,2347A,114.0997,27.5002,萍乡市,武功山,,40,17,9,3,10,128,,112,112,6,5,13,12,1.0,1
2025-04-25T1600,2348A,113.8385,27.6434,萍乡市,中医院,,44,36,31,8,14,139,,124,124,5,6,8,9,0.5,0.5
2025-04-25T1600,2349A,113.8493,27.6253,萍乡市,市政府车库,,46,22,26,11,16,146,,126,126,7,9,4,6,0.4,0.6
2025-04-25T1600,2350A,113.8676,27.6435,萍乡市,市环保局,,45,25,29,10,16,141,,120,120,7,8,4,6,0.5,0.5
2025-04-25T1600,2351A,113.866,27.6198,萍乡市,安源区政府,,41,28,30,9,17,131,,114,114,9,10,8,10,0.9,0.9
2025-04-25T1600,2319A,119.0141,25.4325,莆田市,荔城区仓后路,,31,14,11,3,1,97,,113,109,18,17,3,3,0.5,0.6
2025-04-25T1600,2320A,119.0015,25.4553,莆田市,莆田市监测站,,33,19,11,3,2,104,,110,110,11,13,4,4,0.4,0.5
2025-04-25T1600,2321A,119.1119,25.4561,莆田市,涵江区六中,,36,11,10,3,1,114,,126,116,18,21,3,3,0.4,0.5
2025-04-25T1600,2322A,119.1013,25.3215,莆田市,秀屿区政府,,37,11,10,3,2,116,,141,120,11,10,4,4,0.4,0.6
2025-04-25T1600,2323A,118.981,25.4792,莆田市,东圳水库,,,,,,,,,,,,,,,,
2025-04-25T1600,2392A,115.0312,35.7636,濮阳市,环保局,颗粒物(PM10),69,88,66,18,20,150,,127,127,11,21,7,9,0.8,0.8
2025-04-25T1600,2394A,115.0574,35.7609,濮阳市,油田运输公司,颗粒物(PM10),67,83,80,20,24,160,,136,136,14,23,7,8,0.6,0.6
2025-04-25T1600,3021A,115,35.7668,濮阳市,濮水河管理处,颗粒物(PM10),72,94,69,28,24,160,,137,137,8,22,6,6,0.6,0.6
2025-04-25T1600,4216A,115.0924,35.7686,濮阳市,任丘路479号,颗粒物(PM10),69,88,71,28,23,157,,139,139,6,21,8,9,0.6,0.5
2025-04-25T1600,2601A,100.98,22.7633,普洱市,市环保局,颗粒物(PM10),64,78,93,40,45,133,,117,117,7,13,9,8,0.4,0.6
2025-04-25T1600,2602A,100.9817,22.8322,普洱市,普洱第二中学,颗粒物(PM10),59,67,71,21,33,138,,120,120,6,25,8,8,0.5,0.7
2025-04-25T1600,2262A,131.0518,45.8751,七台河市,新一中,,27,10,37,3,27,85,,83,83,6,11,11,11,0.8,0.8
2025-04-25T1600,3345A,131.0577,45.7879,七台河市,中波台,,21,9,43,3,30,66,,77,77,8,17,5,6,0.4,0.6
2025-04-25T1600,3637A,131.0176,45.7761,七台河市,人民广场,,25,16,50,11,35,78,,80,80,12,19,9,9,0.4,0.5
2025-04-25T1600,3684A,130.8781,45.8222,七台河市,新建矿广场,,24,24,54,10,29,65,,71,71,12,20,8,8,0.5,0.6
2025-04-25T1600,1779A,123.9305,47.3636,齐齐哈尔市,安居小区,,25,22,13,3,4,78,,76,76,9,8,1,2,0.2,0.2
2025-04-25T1600,1780A,123.9488,47.3386,齐齐哈尔市,中心广场,,25,14,15,3,2,79,,77,77,6,5,7,7,0.1,0.1
2025-04-25T1600,1781A,123.9483,47.3227,齐齐哈尔市,农牧车辆厂,,25,19,14,9,6,79,,78,78,9,6,4,4,0.2,0.1
2025-04-25T1600,1783A,123.945,47.2988,齐齐哈尔市,市环境监测站,,26,17,12,7,6,81,,79,79,6,6,2,2,0.2,0.2
2025-04-25T1600,3662A,123.6333,47.2075,齐齐哈尔市,富区青少年活动中心,,24,21,20,3,8,76,,75,75,6,8,1,2,0.3,0.3
2025-04-25T1600,2591A,107.9783,26.5747,黔东南苗族侗族自治州,市环境监测站,,31,27,31,14,17,98,,99,99,4,10,3,4,0.3,0.3
2025-04-25T1600,2881A,107.8908,26.5311,黔东南苗族侗族自治州,凯里学院,,34,17,28,14,14,107,,101,101,4,8,2,2,0.5,0.4
2025-04-25T1600,2593A,107.5228,26.2403,黔南布依族苗族自治州,小围寨,,40,22,25,7,10,125,,114,114,4,6,3,4,0.5,0.5
2025-04-25T1600,3538A,107.5175,26.2978,黔南布依族苗族自治州,沙坝,,40,29,32,9,11,125,,111,111,5,8,3,4,0.9,0.4
2025-04-25T1600,2589A,104.9022,25.0925,黔西南布依族苗族自治州,场坝街,,35,15,29,3,14,110,,93,93,11,16,4,9,0.4,0.4
2025-04-25T1600,2590A,104.8811,25.0992,黔西南布依族苗族自治州,坪东大道,,33,14,25,13,16,105,,93,93,9,15,3,4,0.2,0.3
2025-04-25T1600,2502A,108.6236,21.9667,钦州市,市环保站,,33,19,30,14,13,103,,73,73,10,13,2,2,0.9,1.1
2025-04-25T1600,2503A,108.6549,21.9481,钦州市,沙埠小学,,33,30,37,16,18,104,,72,72,10,15,6,6,0.6,0.8
2025-04-25T1600,2504A,108.5989,21.7431,钦州市,港区一小,,42,42,45,16,20,104,,66,66,13,20,8,8,0.7,0.8
2025-04-25T1600,3404A,108.5959,21.9633,钦州市,北职校,,33,33,34,18,19,104,,68,68,10,13,8,7,0.9,0.8
2025-04-25T1600,1043A,119.7493,40.0116,秦皇岛市,第一关,颗粒物(PM10),65,79,60,11,15,94,,83,83,10,37,4,4,0.4,0.3
2025-04-25T1600,1044A,119.5897,39.9499,秦皇岛市,监测站,,49,49,61,9,15,96,,85,85,10,19,5,5,0.5,0.4
2025-04-25T1600,1046A,119.5251,39.9041,秦皇岛市,建设大厦,,45,45,62,21,16,93,,86,86,13,28,4,8,0.4,0.4
2025-04-25T1600,3132A,119.610547,39.943889,秦皇岛市,文明里,颗粒物(PM10),52,53,68,18,15,87,,76,76,17,22,4,5,0.4,0.3
2025-04-25T1600,4198A,119.5090,39.8253,秦皇岛市,北戴河轮滑馆,,50,50,56,8,13,94,,76,76,11,16,2,3,0.4,0.3
2025-04-25T1600,1307A,120.6659,36.2403,青岛市,仰口,颗粒物(PM10),56,62,36,17,14,152,,110,110,9,10,10,8,0.5,0.4
2025-04-25T1600,1310A,120.4134,36.0658,青岛市,市南区东部子站,,34,34,42,7,9,79,,61,61,31,35,8,8,0.5,0.6
2025-04-25T1600,1311A,120.3664,36.1032,青岛市,四方区子站,,34,34,40,3,11,102,,95,95,24,41,7,7,0.5,0.6
2025-04-25T1600,1312A,120.2994,36.054,青岛市,市南区西部子站,,34,34,47,7,11,84,,76,76,37,50,10,9,0.6,0.6
2025-04-25T1600,1313A,120.4581,36.0858,青岛市,崂山区子站,,27,27,30,3,5,86,,66,66,26,28,10,9,0.5,0.6
2025-04-25T1600,1315A,120.3999,36.3083,青岛市,城阳区子站,,48,48,57,7,14,115,,98,98,19,34,5,9,0.4,0.6
2025-04-25T1600,1966A,120.0405,35.8735,青岛市,黄岛区4号,,34,34,50,3,11,101,,83,83,23,30,9,10,0.6,0.7
2025-04-25T1600,3362A,120.5014,36.4034,青岛市,即墨2号,颗粒物(PM10),67,83,66,15,20,127,,108,108,16,28,10,10,0.5,0.6
2025-04-25T1600,3642A,120.3503,36.0736,青岛市,市北区南部,,32,32,45,3,8,85,,76,76,22,28,8,7,0.5,0.5
2025-04-25T1600,3643A,120.3948,36.1805,青岛市,李沧区北部,,31,29,47,14,18,97,,84,84,20,40,8,10,0.5,0.7
2025-04-25T1600,4290A,120.1969,35.9546,青岛市,珠江路669号,,36,36,48,17,20,111,,93,93,18,47,8,9,0.5,0.7
2025-04-25T1600,1702A,113.0426,23.691,清远市,环保大楼,,17,6,9,3,5,52,,51,51,16,13,6,6,0.9,0.8
2025-04-25T1600,1703A,113.0208,23.7106,清远市,凤城街办,,15,6,9,3,5,45,,46,43,16,14,5,4,0.7,0.7
2025-04-25T1600,3025A,113.0477,23.6344,清远市,技师学院,,17,6,11,3,7,53,,44,44,13,15,7,8,0.9,0.8
2025-04-25T1600,3318A,112.9903,23.7403,清远市,清新太和,,12,8,11,3,6,37,,50,44,19,15,7,6,0.7,0.7
2025-04-25T1600,3455A,113.076,23.7198,清远市,清城东城,,16,6,10,3,5,51,,49,49,13,11,8,7,0.9,0.8
2025-04-25T1600,2661A,107.6325,35.7357,庆阳市,庆阳五中,细颗粒物(PM2.5),182,,75,137,55,123,,120,120,,10,3,5,0.3,0.4
2025-04-25T1600,2662A,107.6364,35.7067,庆阳市,市环保局,颗粒物(PM10),54,57,72,18,23,126,,125,125,4,9,5,9,0.4,0.5
2025-04-25T1600,1916A,103.7897,25.5035,曲靖市,环境监测站,颗粒物(PM10),59,67,36,25,18,156,,93,93,13,16,5,9,0.4,0.5
2025-04-25T1600,1917A,103.8,25.5364,曲靖市,烟厂办公区,"颗粒物(PM10),臭氧1小时",57,63,37,26,18,165,,98,98,8,14,4,5,0.4,0.6
2025-04-25T1600,3376A,103.7947,25.462,曲靖市,南苑二区,臭氧1小时,55,50,34,27,18,164,,103,103,10,15,4,8,0.4,0.5
2025-04-25T1600,3377A,103.7444,25.5261,曲靖市,曲靖师范学院,颗粒物(PM10),53,56,34,31,19,159,,96,96,12,15,8,8,0.4,0.5
2025-04-25T1600,1264A,118.8692,28.9398,衢州市,环保大楼,,47,38,21,24,13,148,,118,118,16,15,3,3,0.5,0.4
2025-04-25T1600,1265A,118.8709,28.9666,衢州市,实验学校,,45,31,16,23,12,142,,115,115,11,15,4,4,0.3,0.3
2025-04-25T1600,1266A,118.8621,28.9808,衢州市,衢州学院,,43,32,17,20,11,135,,110,110,12,19,3,3,0.3,0.3
2025-04-25T1600,1611A,118.5819,24.9117,泉州市,涂山街,,35,18,14,6,11,109,,122,117,16,16,4,3,0.6,0.8
2025-04-25T1600,1612A,118.5972,24.8978,泉州市,津头埔,,,14,12,3,11,115,,122,119,17,18,,2,0.6,0.8
2025-04-25T1600,1613A,118.6663,24.9424,泉州市,万安,,38,9,11,3,8,119,,129,122,11,11,4,3,0.6,0.7
2025-04-25T1600,1614A,118.6117,24.9604,泉州市,清源山,,,,,,,,,,,,,,,,
2025-04-25T1600,3529A,118.6333,24.9264,泉州市,城华南路,,36,8,10,3,9,113,,120,116,13,16,3,3,0.5,0.7
2025-04-25T1600,2626A,88.8876,29.2718,日喀则市,日喀则监测站,,,6,21,3,10,115,,139,125,2,4,6,6,,0.5
2025-04-25T1600,3726A,88.8781,29.2426,日喀则市,林业技术推广中心,,39,26,26,3,7,122,,133,119,2,2,6,6,0.3,0.3
2025-04-25T1600,1659A,119.471,35.4209,日照市,监测站,颗粒物(PM10),63,75,94,24,24,134,,105,105,22,46,9,10,0.7,0.8
2025-04-25T1600,1660A,119.523,35.4216,日照市,市政府广场,颗粒物(PM10),56,61,83,13,20,120,,104,104,25,42,8,9,0.6,0.7
2025-04-25T1600,1661A,119.5587,35.4044,日照市,港务局,颗粒物(PM10),59,68,101,25,26,106,,90,90,32,56,8,9,0.7,0.8
2025-04-25T1600,3507A,119.5328,35.4625,日照市,职业技术学院,颗粒物(PM10),59,68,88,17,19,124,,103,103,19,33,9,11,0.6,0.8
2025-04-25T1600,3604A,119.3266,35.1044,日照市,岚山环保分局,颗粒物(PM10),58,66,99,22,23,117,,104,104,27,30,7,9,0.6,0.6
2025-04-25T1600,1835A,111.1922,34.7752,三门峡市,市政府,颗粒物(PM10),72,94,75,24,31,158,,128,128,15,17,7,10,0.6,0.6
2025-04-25T1600,1836A,111.1587,34.7942,三门峡市,开发区,颗粒物(PM10),68,85,81,31,31,158,,130,130,15,17,8,10,0.6,0.6
2025-04-25T1600,1838A,111.143,34.7955,三门峡市,风景区,颗粒物(PM10),75,100,76,26,26,159,,132,132,10,13,10,12,0.4,0.4
2025-04-25T1600,3039A,111.1911,34.7829,三门峡市,三门峡市第一小学,颗粒物(PM10),79,107,82,27,26,166,,136,136,12,15,9,11,0.5,0.5
2025-04-25T1600,3598A,111.1,34.7167,三门峡市,富达温泉假日酒店,颗粒物(PM10),68,86,78,25,28,161,,130,130,14,18,7,8,0.6,0.6
2025-04-25T1600,2324A,117.6211,26.2625,三明市,三钢,,29,,10,20,13,74,,64,64,8,13,3,5,0.5,1.3
2025-04-25T1600,2325A,117.635,26.2714,三明市,三明二中,,22,6,6,3,4,70,,61,61,7,10,2,2,0.6,0.9
2025-04-25T1600,2326A,117.6028,26.2378,三明市,三元区政府,,24,6,12,3,4,76,,65,65,9,13,2,3,0.7,0.7
2025-04-25T1600,2327A,117.7275,26.3108,三明市,洋溪,,,,,,,,,,,,,,,,
2025-04-25T1600,1876A,109.5078,18.2489,三亚市,河东子站,,20,16,21,11,11,64,,69,69,4,3,4,3,0.1,0.2
2025-04-25T1600,1877A,109.4964,18.2681,三亚市,河西子站,,21,19,20,10,10,65,,69,69,9,7,2,2,0.2,0.2
