timepoint,stationcode,longitude,latitude,area,positionname,primarypollutant,aqi,pm10,pm10_24h,pm2_5,pm2_5_24h,o3,o3_24h,o3_8h,o3_8h_24h,no2,no2_24h,so2,so2_24h,co,co_24h
2022-08-21T10:00:00,1001A,116.3621,39.8784,北京市,万寿西宫,颗粒物(PM10),51,52,37,26,17,137,70,64,55,24,19,3,3,0.4,0.3
2022-08-21T10:00:00,1002A,116.2202,40.2915,北京市,定陵(对照点),颗粒物(PM10),52,54,36,30,18,144,62,49,48,9,7,3,2,0.5,0.4
2022-08-21T10:00:00,1003A,116.4174,39.9289,北京市,东四,,46,46,35,22,15,146,87,79,64,18,15,3,3,0.5,0.4
2022-08-21T10:00:00,1004A,116.4072,39.8863,北京市,天坛,颗粒物(PM10),53,55,34,30,17,129,62,59,45,17,13,3,3,0.5,0.4
2022-08-21T10:00:00,1005A,116.462,39.9365,北京市,农展馆,,50,50,36,22,15,138,80,64,58,20,19,1,3,0.5,0.4
2022-08-21T10:00:00,1006A,116.3392,39.9295,北京市,官园,,50,50,39,25,16,147,77,71,58,20,15,4,3,0.5,0.4
2022-08-21T10:00:00,1007A,116.2878,39.9611,北京市,海淀万柳,颗粒物(PM10),53,56,45,26,20,147,75,60,47,21,22,3,3,0.5,0.4
2022-08-21T10:00:00,1008A,116.6636,40.135,北京市,顺义新城,颗粒物(PM10),55,59,41,24,16,137,52,43,35,21,20,1,3,0.4,0.3
2022-08-21T10:00:00,1009A,116.6275,40.3275,北京市,怀柔镇,颗粒物(PM10),51,52,36,23,17,151,60,56,43,23,22,1,1,0.4,0.4
2022-08-21T10:00:00,1010A,116.2296,40.217,北京市,昌平镇,,49,49,39,26,18,145,56,52,35,22,19,3,2,0.4,0.4
2022-08-21T10:00:00,1011A,116.3966,39.9821,北京市,奥体中心,颗粒物(PM10),51,52,37,24,15,134,75,74,59,14,11,3,3,0.5,0.4
2022-08-21T10:00:00,1012A,116.184,39.9136,北京市,古城,颗粒物(PM10),52,54,51,33,19,166,71,53,43,21,20,3,3,0.4,0.3
2022-08-21T10:00:00,1015A,117.1444,39.1661,天津市,勤俭道,颗粒物(PM10),55,60,27,28,11,165,91,73,73,25,21,14,8,0.8,0.6
2022-08-21T10:00:00,1017A,117.237,39.1082,天津市,大直沽八号路,颗粒物(PM10),51,52,27,26,11,157,81,59,59,19,14,8,6,0.5,0.4
2022-08-21T10:00:00,1018A,117.202,39.0927,天津市,前进道,,48,48,24,26,11,153,77,55,55,27,24,15,9,0.7,0.5
2022-08-21T10:00:00,1019A,117.1837,39.2133,天津市,淮河道,,,,,,,,,,,,,,,,
2022-08-21T10:00:00,1021A,117.307,39.0877,天津市,跃进路,颗粒物(PM10),54,58,29,26,10,161,88,48,48,25,32,19,10,0.6,0.4
2022-08-21T10:00:00,1023A,117.707,39.0343,天津市,第四大街,,36,36,19,16,7,98,74,55,55,30,31,8,6,0.8,0.6
2022-08-21T10:00:00,1024A,117.457,38.8394,天津市,永明路,,45,45,19,25,10,123,94,60,57,25,23,23,11,0.6,0.4
2022-08-21T10:00:00,1026A,117.764,39.1587,天津市,汉北路,,30,30,20,13,7,120,82,65,65,24,26,12,9,0.8,0.7
2022-08-21T10:00:00,1027A,117.157,38.9194,天津市,团泊洼(对照点),,49,49,24,25,12,136,82,45,45,24,24,18,9,1.0,0.7
2022-08-21T10:00:00,1029A,114.4422,38.0444,石家庄市,职工医院,,40,40,31,11,14,146,101,61,48,14,15,10,5,0.5,0.3
2022-08-21T10:00:00,1030A,114.6063,38.0266,石家庄市,高新区,颗粒物(PM10),59,68,36,30,17,150,104,83,54,26,19,21,6,1.3,0.4
2022-08-21T10:00:00,1031A,114.4898,38.1328,石家庄市,西北水源,颗粒物(PM10),56,61,46,23,13,174,59,84,28,41,20,6,4,0.6,0.4
2022-08-21T10:00:00,1032A,114.4586,38.0058,石家庄市,西南高教,颗粒物(PM10),59,68,38,26,17,142,95,46,40,16,17,14,5,1.0,0.5
2022-08-21T10:00:00,1033A,114.5331,38.0178,石家庄市,世纪公园,颗粒物(PM10),67,84,41,36,18,146,94,69,45,29,21,18,6,1.1,0.4
2022-08-21T10:00:00,1034A,114.509,38.0457,石家庄市,人民会堂,颗粒物(PM10),51,51,32,29,15,155,97,78,55,26,19,18,8,1.1,0.6
2022-08-21T10:00:00,1035A,114.3524,37.8911,石家庄市,封龙山(对照点),,37,37,38,20,19,142,94,117,112,8,11,17,15,0.9,0.7
2022-08-21T10:00:00,1037A,118.131,39.6363,唐山市,雷达站,颗粒物(PM10),51,51,34,22,10,155,62,53,41,44,23,12,6,1.5,0.8
2022-08-21T10:00:00,1038A,118.1725,39.6334,唐山市,物资局,颗粒物(PM10),53,55,40,14,16,150,82,52,52,35,24,12,8,1.2,0.8
2022-08-21T10:00:00,1040A,118.1705,39.6506,唐山市,十二中,,50,50,30,12,9,149,74,52,51,41,21,10,6,1.3,0.8
2022-08-21T10:00:00,1041A,118.1869,39.622,唐山市,小山,颗粒物(PM10),54,57,34,14,7,165,67,52,38,41,25,9,8,0.7,0.5
2022-08-21T10:00:00,1042A,119.5134,39.8207,秦皇岛市,北戴河环保局,,40,40,19,11,7,124,59,57,49,34,16,20,7,1.5,0.5
2022-08-21T10:00:00,1043A,119.7493,40.0116,秦皇岛市,第一关,颗粒物(PM10),51,51,29,14,8,122,62,70,45,34,32,18,10,1.4,0.7
2022-08-21T10:00:00,1044A,119.5897,39.9499,秦皇岛市,监测站,,41,41,28,13,9,115,55,73,48,30,18,18,8,1.2,0.6
2022-08-21T10:00:00,1046A,119.5251,39.9041,秦皇岛市,建设大厦,颗粒物(PM10),51,51,33,8,8,128,54,71,46,35,22,18,8,1.3,0.7
2022-08-21T10:00:00,1047A,114.5129,36.61763,邯郸市,环保局,,,,,,,,,,,,,,,,
2022-08-21T10:00:00,1048A,114.5302,36.6116,邯郸市,东污水处理厂,细颗粒物(PM2.5),52,39,39,36,22,123,123,92,56,13,19,12,9,1.1,0.8
2022-08-21T10:00:00,1049A,114.4918,36.5713,邯郸市,矿院,颗粒物(PM10),58,66,42,30,19,116,116,56,37,18,26,12,7,1.2,0.8
2022-08-21T10:00:00,1050A,114.484,36.6133,邯郸市,丛台公园,颗粒物(PM10),56,62,39,30,18,117,117,95,64,22,18,18,12,1.1,0.6
2022-08-21T10:00:00,1051A,115.493,38.8632,保定市,游泳馆,,39,39,28,26,11,132,109,69,69,17,19,12,6,0.7,0.4
2022-08-21T10:00:00,1052A,115.5213,38.8959,保定市,华电二区,,45,45,33,17,9,126,107,71,67,13,13,7,5,0.7,0.4
2022-08-21T10:00:00,1053A,115.4713,38.9108,保定市,接待中心,,43,43,30,9,8,133,108,75,70,16,15,11,7,0.5,0.3
2022-08-21T10:00:00,1054A,115.4612,38.8416,保定市,地表水厂,,50,50,39,13,12,123,102,60,58,13,14,9,5,0.4,0.2
2022-08-21T10:00:00,1055A,115.4323,38.8697,保定市,胶片厂,,33,33,26,22,9,132,101,56,56,16,16,13,9,0.5,0.3
2022-08-21T10:00:00,1056A,115.5086,38.8639,保定市,监测站,,38,38,35,15,9,136,110,64,64,16,16,9,5,0.6,0.3
2022-08-21T10:00:00,1057A,114.8883,40.8336,张家口市,人民公园,,24,24,19,12,2,124,74,91,59,14,11,6,6,0.4,0.4
2022-08-21T10:00:00,1059A,114.8687,40.8042,张家口市,五金库,,39,39,20,19,13,115,80,108,68,24,17,9,9,0.7,0.5
2022-08-21T10:00:00,1060A,114.8902,40.762,张家口市,世纪豪园,,39,39,23,19,11,121,84,105,80,22,13,5,4,0.3,0.2
2022-08-21T10:00:00,1061A,114.8916,40.8661,张家口市,北泵房(对照点),,,18,22,14,18,,,,,7,10,,,,
2022-08-21T10:00:00,1062A,117.9531,40.9081,承德市,铁路,,41,41,31,16,15,134,59,29,17,36,30,5,5,0.4,0.4
2022-08-21T10:00:00,1063A,117.9392,40.9763,承德市,中国银行,,36,36,24,16,10,127,82,22,22,22,18,12,9,0.6,0.5
2022-08-21T10:00:00,1064A,117.9503,40.928,承德市,开发区,,33,33,25,16,14,141,76,46,29,28,17,5,5,0.5,0.5
2022-08-21T10:00:00,1065A,117.8051,40.9655,承德市,文化中心,,41,41,34,21,17,133,89,36,36,14,20,13,16,0.7,0.6
2022-08-21T10:00:00,1066A,117.9268,41.0026,承德市,离宫(对照点),,39,39,25,5,11,118,73,18,18,11,10,6,5,0.6,0.4
2022-08-21T10:00:00,1067A,116.6708,39.5111,廊坊市,药材公司,,44,44,39,13,17,136,96,55,55,21,19,12,9,0.5,0.4
2022-08-21T10:00:00,1068A,116.7214,39.5589,廊坊市,开发区,,35,35,29,18,14,142,110,78,78,17,16,10,6,0.4,0.4
2022-08-21T10:00:00,1070A,116.7244,39.5269,廊坊市,北华航天学院,,,62,46,40,21,142,,65,65,18,16,,11,0.4,0.3
2022-08-21T10:00:00,1071A,116.8842,38.2991,沧州市,沧县城建局,,42,42,29,17,11,117,107,68,59,24,25,16,11,0.6,0.3
2022-08-21T10:00:00,1072A,116.8584,38.3254,沧州市,电视转播站,颗粒物(PM10),52,54,33,24,8,134,118,68,67,21,20,17,11,0.5,0.1
2022-08-21T10:00:00,1073A,116.8709,38.3228,沧州市,市环保局,颗粒物(PM10),51,51,30,18,12,132,120,68,68,23,23,14,12,0.4,0.1
2022-08-21T10:00:00,1074A,115.6838,37.7541,衡水市,电机北厂,颗粒物(PM10),52,53,27,20,10,130,130,111,95,14,11,12,9,0.6,0.5
2022-08-21T10:00:00,1075A,115.6303,37.7316,衡水市,市监测站,,42,42,32,24,10,120,120,79,77,15,14,13,11,0.6,0.4
2022-08-21T10:00:00,1077A,114.4704,37.0886,邢台市,达活泉,颗粒物(PM10),57,64,50,31,19,132,128,74,74,15,17,17,10,1.4,0.8
2022-08-21T10:00:00,1078A,114.5062,37.0349,邢台市,邢师高专,颗粒物(PM10),65,79,60,29,20,127,125,73,73,15,21,11,7,0.9,0.6
2022-08-21T10:00:00,1079A,114.5237,37.0851,邢台市,路桥公司,颗粒物(PM10),51,52,44,27,16,130,130,68,68,15,20,14,9,1.1,0.6
2022-08-21T10:00:00,1080A,114.4725,37.0719,邢台市,市环保局,颗粒物(PM10),51,52,44,27,21,128,127,70,70,15,20,14,10,1.2,0.7
2022-08-21T10:00:00,1081A,112.5139,37.8873,太原市,尖草坪,颗粒物(PM10),61,72,49,39,22,163,89,87,70,24,21,9,8,1.0,0.8
2022-08-21T10:00:00,1083A,112.434,38.0108,太原市,上兰(对照点),,,,,,,,,,,,,,,,
2022-08-21T10:00:00,1084A,112.469,37.7124,太原市,晋源,,,,51,,19,141,76,70,55,19,24,11,7,1.4,0.7
2022-08-21T10:00:00,1085A,112.5583,37.7394,太原市,小店,颗粒物(PM10),61,72,51,42,23,154,96,82,70,20,21,14,9,0.9,0.6
2022-08-21T10:00:00,1086A,112.5369,37.8692,太原市,桃园,颗粒物(PM10),66,81,53,40,20,157,86,91,72,28,23,9,8,1.2,0.9
2022-08-21T10:00:00,1087A,112.57,37.8195,太原市,坞城,颗粒物(PM10),65,79,54,44,20,156,95,89,68,20,20,10,8,0.9,0.7
2022-08-21T10:00:00,1088A,112.549,37.9854,太原市,南寨,颗粒物(PM10),55,59,45,34,22,153,91,73,62,24,24,13,6,1.4,0.8
2022-08-21T10:00:00,1089A,112.4701,37.782,太原市,金胜,,,,,,,,,,,,,,,,
2022-08-21T10:00:00,1090A,111.6507,40.7517,呼和浩特市,呼市一监,细颗粒物(PM2.5),53,51,55,37,25,157,57,62,52,18,16,7,8,0.7,0.6
2022-08-21T10:00:00,1091A,111.6572,40.8033,呼和浩特市,小召,细颗粒物(PM2.5),62,68,57,44,26,150,69,74,61,26,23,6,8,0.7,0.6
2022-08-21T10:00:00,1094A,111.7516,40.8369,呼和浩特市,如意水处理厂,颗粒物(PM10),78,105,78,42,22,159,65,53,46,20,24,1,4,0.8,0.6
2022-08-21T10:00:00,1095A,111.7276,40.8062,呼和浩特市,二十九中,细颗粒物(PM2.5),60,59,62,43,26,162,78,78,63,16,22,7,8,0.8,0.6
2022-08-21T10:00:00,1096A,111.5512,40.7866,呼和浩特市,工大金川校区,,,78,80,39,29,150,69,43,43,15,25,9,8,,0.6
2022-08-21T10:00:00,1097A,111.717,40.7612,呼和浩特市,化肥厂生活区,颗粒物(PM10),68,86,71,43,26,148,63,74,61,25,21,8,9,0.8,0.6
2022-08-21T10:00:00,1098A,123.6836,41.9339,沈阳市,森林路(对照点),,,,,,,,,,,,,,,,
2022-08-21T10:00:00,1099A,123.505,41.7406,沈阳市,浑南东路,,31,31,26,17,14,100,99,35,35,15,32,35,14,1.0,0.9
2022-08-21T10:00:00,1100A,123.4231,41.6989,沈阳市,新秀街,,43,43,28,12,11,104,96,56,56,16,35,29,24,1.0,0.9
2022-08-21T10:00:00,1102A,123.5903,41.8411,沈阳市,东陵路,,45,45,28,11,10,93,93,35,35,17,24,17,9,0.8,0.5
2022-08-21T10:00:00,1103A,123.4264,41.8467,沈阳市,陵东街,,39,39,38,11,11,91,91,38,38,19,32,16,8,1.0,0.9
2022-08-21T10:00:00,1104A,123.4114,41.7653,沈阳市,文化路,,38,38,32,14,9,93,92,60,60,17,30,22,28,0.9,0.7
2022-08-21T10:00:00,1105A,123.4678,41.7867,沈阳市,小河沿,,35,35,23,10,7,94,94,36,36,19,32,21,8,0.9,0.7
2022-08-21T10:00:00,1106A,123.4017,41.7972,沈阳市,太原街,,28,27,32,12,11,88,88,56,56,21,32,16,21,0.9,0.7
2022-08-21T10:00:00,1108A,123.3783,41.9228,沈阳市,京沈街,,50,50,36,13,10,94,94,46,46,17,34,17,15,0.7,0.6
2022-08-21T10:00:00,1109A,121.612,38.9741,大连市,甘井子,,25,10,12,5,5,96,80,67,56,14,17,4,4,0.3,0.4
2022-08-21T10:00:00,1110A,121.565,38.9511,大连市,周水子,,24,8,13,2,5,92,75,62,59,14,23,5,5,0.7,0.7
2022-08-21T10:00:00,1111A,121.5637,38.8845,大连市,星海三站,,25,20,16,6,5,129,79,75,75,32,26,5,5,0.4,0.3
2022-08-21T10:00:00,1112A,121.6302,38.9117,大连市,青泥洼桥,,24,10,17,4,6,100,76,59,56,18,29,7,8,0.3,0.3
2022-08-21T10:00:00,1113A,121.6251,38.8638,大连市,傅家庄,,22,12,13,4,6,100,68,72,72,15,14,8,10,0.2,0.2
2022-08-21T10:00:00,1114A,121.5213,38.8661,大连市,七贤岭,,29,10,13,3,3,129,92,62,62,10,8,3,4,0.4,0.4
2022-08-21T10:00:00,1115A,121.2529,38.8061,大连市,旅顺,,19,17,15,5,7,104,59,71,47,24,18,6,6,0.5,0.5
2022-08-21T10:00:00,1116A,121.7485,39.1311,大连市,金州,,24,10,18,9,8,94,76,62,62,15,14,4,5,0.3,0.3
2022-08-21T10:00:00,1117A,121.7811,39.0496,大连市,开发区,,25,18,14,8,9,107,70,65,58,50,28,10,9,0.7,0.7
2022-08-21T10:00:00,1118A,121.9762,39.0631,大连市,双D港,,,8,11,4,3,118,,78,55,23,14,9,8,0.2,0.2
2022-08-21T10:00:00,1119A,125.3325,43.9166,长春市,食品厂,,28,28,26,8,6,70,70,31,31,20,29,4,3,0.4,0.3
2022-08-21T10:00:00,1120A,125.2863,43.9027,长春市,客车厂,,35,35,26,7,8,81,81,38,38,18,30,5,4,0.5,0.3
2022-08-21T10:00:00,1121A,125.2841,43.8463,长春市,邮电学院,,31,31,22,7,8,81,81,36,36,12,22,5,4,0.6,0.4
2022-08-21T10:00:00,1122A,125.3716,43.8772,长春市,劳动公园,,25,21,24,6,6,78,78,34,34,11,25,7,6,0.5,0.4
2022-08-21T10:00:00,1123A,125.3297,43.8805,长春市,园林处,,25,24,23,5,6,77,77,39,39,17,28,5,4,0.5,0.3
2022-08-21T10:00:00,1124A,125.4605,43.79,长春市,净月潭,,28,24,15,4,3,89,89,42,42,4,6,5,4,0.3,0.2
2022-08-21T10:00:00,1125A,125.7194,43.515,长春市,甩湾子(对照点),,,,,,,,,,,,,,,,
2022-08-21T10:00:00,1126A,125.3863,43.8447,长春市,经开区环卫处,,26,26,21,7,6,76,76,38,38,13,22,4,4,0.4,0.3
2022-08-21T10:00:00,1127A,125.245,43.7783,长春市,高新区管委会,,28,24,23,4,9,89,89,38,38,8,21,5,4,0.5,0.3
2022-08-21T10:00:00,1128A,125.1761,43.8325,长春市,岱山公园,,33,33,31,8,7,89,89,38,38,12,26,7,5,0.5,0.3
2022-08-21T10:00:00,1129A,126.5422,45.755,哈尔滨市,岭北(对照点),,23,23,14,13,6,81,54,51,46,10,9,7,7,0.2,0.1
2022-08-21T10:00:00,1130A,126.561,45.8167,哈尔滨市,松北商大,,15,14,16,7,5,62,45,38,35,16,21,6,6,0.3,0.2
2022-08-21T10:00:00,1131A,126.979,45.5419,哈尔滨市,阿城会宁,,15,8,15,9,10,71,45,35,27,9,12,9,9,0.5,0.5
2022-08-21T10:00:00,1132A,126.599,45.7222,哈尔滨市,南岗学府路,,13,12,9,8,6,62,39,34,30,19,15,7,7,0.3,0.3
2022-08-21T10:00:00,1133A,126.689,45.7733,哈尔滨市,太平宏伟公园,,15,12,16,9,6,73,47,41,40,13,13,7,6,0.4,0.3
2022-08-21T10:00:00,1134A,126.635,45.7667,哈尔滨市,道外承德广场,,20,20,12,2,14,70,46,45,41,20,20,8,6,0.5,0.4
2022-08-21T10:00:00,1135A,126.685,45.7319,哈尔滨市,香坊红旗大街,,23,23,18,6,4,65,38,31,31,22,22,12,9,0.5,0.4
2022-08-21T10:00:00,1136A,126.6411,45.7258,哈尔滨市,动力和平路,,,16,21,,3,70,43,34,34,17,20,11,6,0.5,0.4
2022-08-21T10:00:00,1137A,126.593,45.7478,哈尔滨市,道里建国路,,21,21,15,12,7,70,46,41,38,7,7,10,7,1.1,0.5
2022-08-21T10:00:00,1138A,126.615,45.61,哈尔滨市,平房东轻厂,,15,12,13,5,4,69,47,38,38,11,17,4,3,0.5,0.4
2022-08-21T10:00:00,1139A,126.595,45.9855,哈尔滨市,呼兰师专,,21,21,14,8,4,73,33,42,35,26,14,6,6,0.6,0.4
2022-08-21T10:00:00,1140A,126.6206,45.6842,哈尔滨市,省农科院,,14,14,15,6,4,70,43,36,36,14,17,10,11,0.4,0.4
2022-08-21T10:00:00,1141A,121.4,31.238,上海市,普陀,颗粒物(PM10),52,53,38,26,23,252,106,93,76,25,23,3,4,0.8,0.7
2022-08-21T10:00:00,1142A,121.478,31.2036,上海市,十五厂,颗粒物(PM10),51,51,35,25,23,178,51,76,55,37,25,3,4,0.9,0.8
2022-08-21T10:00:00,1143A,121.467,31.3008,上海市,虹口,颗粒物(PM10),54,58,39,35,22,197,74,78,65,28,22,4,4,0.7,0.6
2022-08-21T10:00:00,1144A,121.412,31.1654,上海市,徐汇上师大,,,,51,,30,143,,113,,,13,,5,,0.6
2022-08-21T10:00:00,1145A,121.536,31.2659,上海市,杨浦四漂,,46,46,34,20,16,205,54,82,66,39,20,2,3,0.8,1
2022-08-21T10:00:00,1146A,120.978,31.0935,上海市,青浦淀山湖(对照点),,,,,,,,,,,,,,,,
2022-08-21T10:00:00,1147A,121.425,31.2261,上海市,静安监测站,颗粒物(PM10),56,62,39,28,21,170,70,70,59,28,23,3,3,0.9,0.8
2022-08-21T10:00:00,1148A,121.703,31.1907,上海市,浦东川沙,,42,42,38,21,23,178,76,81,67,14,17,6,5,0.6,0.7
2022-08-21T10:00:00,1149A,121.533,31.2284,上海市,浦东新区监测站,颗粒物(PM10),51,51,40,21,20,191,64,94,64,35,28,5,6,0.8,0.8
2022-08-21T10:00:00,1150A,121.577,31.2071,上海市,浦东张江,,40,40,28,26,24,182,63,79,62,23,19,4,4,0.8,0.8
2022-08-21T10:00:00,1151A,118.8086,32.1065,南京市,迈皋桥,,50,50,36,22,13,178,120,59,59,12,17,4,5,0.6,0.6
2022-08-21T10:00:00,1152A,118.7538,32.0551,南京市,草场门,颗粒物(PM10),51,51,32,22,14,135,87,50,50,29,15,5,3,0.7,0.6
2022-08-21T10:00:00,1153A,118.7794,32.0745,南京市,山西路,颗粒物(PM10),56,61,41,22,16,177,116,64,64,14,16,5,5,0.6,0.5
2022-08-21T10:00:00,1154A,118.7752,32.0023,南京市,中华门,颗粒物(PM10),52,53,38,14,11,164,104,56,56,12,9,3,3,1.3,1.1
2022-08-21T10:00:00,1155A,118.8109,32.0309,南京市,瑞金路,颗粒物(PM10),53,56,35,24,18,199,112,70,70,8,4,4,4,0.6,0.5
2022-08-21T10:00:00,1156A,118.7997,32.0754,南京市,玄武湖,,36,32,34,22,22,178,115,61,61,5,8,3,4,0.9,0.8
2022-08-21T10:00:00,1157A,118.6414,32.0931,南京市,浦口,,44,44,32,19,12,131,101,51,49,22,16,2,2,0.7,0.6
2022-08-21T10:00:00,1158A,118.7356,31.9996,南京市,奥体中心,颗粒物(PM10),57,63,40,34,23,157,112,63,62,17,14,4,2,0.7,0.5
2022-08-21T10:00:00,1159A,118.9125,32.1028,南京市,仙林大学城,,48,48,33,27,17,187,113,63,63,5,7,8,6,0.8,0.6
2022-08-21T10:00:00,1160A,120.561,31.2472,苏州市,上方山(对照点),颗粒物(PM10),66,81,48,26,24,169,89,58,46,25,18,7,7,0.7,0.6
2022-08-21T10:00:00,1161A,120.628,31.2864,苏州市,南门,,,,,,,,,,,,,,,,
2022-08-21T10:00:00,1162A,120.591,31.3019,苏州市,彩香,,48,45,37,33,26,176,83,66,57,17,14,6,7,1.0,0.9
2022-08-21T10:00:00,1163A,120.596,31.3264,苏州市,轧钢厂,,48,48,50,25,23,175,81,69,56,18,14,4,4,0.8,0.7
2022-08-21T10:00:00,1164A,120.613,31.2703,苏州市,吴中区,,50,47,36,35,24,176,82,60,60,27,18,2,2,0.8,0.6
2022-08-21T10:00:00,1165A,120.543,31.2994,苏州市,苏州新区,,,76,51,44,31,172,,68,52,29,26,5,5,1.0,0.9
2022-08-21T10:00:00,1166A,120.669,31.3097,苏州市,苏州工业园区,,40,40,34,28,23,170,84,59,56,17,16,5,5,1.0,0.9
2022-08-21T10:00:00,1167A,120.641,31.3708,苏州市,相城区,,46,46,41,27,28,191,100,62,59,6,12,3,4,0.7,0.7
2022-08-21T10:00:00,1168A,120.9098,31.9663,南通市,狼山街道,,30,29,34,9,10,160,93,92,86,10,9,8,8,0.7,0.7
2022-08-21T10:00:00,1169A,120.86,32.0005,南通市,虹桥,,36,36,33,18,18,159,85,78,69,10,7,8,8,0.6,0.6
2022-08-21T10:00:00,1170A,120.87,32.02,南通市,城中,,33,33,30,23,17,139,92,85,71,12,9,9,8,0.5,0.3
2022-08-21T10:00:00,1171A,120.94,31.93,南通市,星湖花园,,31,24,33,7,15,159,97,88,85,7,7,4,4,0.8,0.8
2022-08-21T10:00:00,1172A,120.81,32.0417,南通市,紫琅学院,,40,40,31,5,9,143,86,77,67,10,9,4,4,0.7,0.7
2022-08-21T10:00:00,1173A,119.176,34.5885,连云港市,市环境监测站,,38,27,26,5,8,165,119,86,86,7,9,3,3,0.3,0.2
2022-08-21T10:00:00,1177A,117.179,34.2761,徐州市,黄河新村,,48,48,34,16,14,144,93,106,82,16,16,7,7,0.8,0.7
2022-08-21T10:00:00,1178A,117.1918,34.2384,徐州市,淮塔,,47,47,41,19,17,151,95,101,78,16,17,8,9,0.7,0.6
2022-08-21T10:00:00,1180A,117.256,34.2153,徐州市,新城区,颗粒物(PM10),51,51,44,17,15,141,92,91,70,15,20,7,7,0.6,0.5
2022-08-21T10:00:00,1181A,117.244,34.2911,徐州市,桃园路,,36,36,38,5,6,150,106,117,85,9,13,8,8,0.6,0.6
2022-08-21T10:00:00,1182A,117.2933,34.2778,徐州市,农科院,,30,29,30,5,7,128,93,92,66,15,26,7,7,0.6,0.6
2022-08-21T10:00:00,1186A,119.389,32.3761,扬州市,邗江监测站,,46,46,30,25,16,125,83,67,67,17,9,6,4,0.9,0.7
2022-08-21T10:00:00,1188A,120.269,31.4867,无锡市,雪浪,颗粒物(PM10),51,51,40,34,23,184,108,63,59,5,9,6,7,1.0,1
2022-08-21T10:00:00,1189A,120.275,31.6219,无锡市,黄巷,颗粒物(PM10),64,77,51,29,28,250,97,59,58,23,20,5,4,0.9,1
2022-08-21T10:00:00,1190A,120.294,31.56,无锡市,曹张,颗粒物(PM10),51,51,44,31,26,223,73,59,49,23,18,6,8,0.8,0.8
2022-08-21T10:00:00,1191A,120.242,31.5031,无锡市,漆塘,,46,46,35,17,19,184,98,64,55,10,11,7,8,0.7,0.7
2022-08-21T10:00:00,1192A,120.3489,31.5863,无锡市,东亭,细颗粒物(PM2.5),62,68,48,44,28,239,81,59,51,19,21,7,9,0.7,0.9
2022-08-21T10:00:00,1193A,120.354,31.5475,无锡市,旺庄,颗粒物(PM10),51,52,39,27,23,242,68,63,52,27,19,6,8,1.0,1.2
2022-08-21T10:00:00,1194A,120.245,31.5631,无锡市,荣巷,颗粒物(PM10),51,51,37,27,26,218,92,52,51,15,13,7,8,0.8,0.9
2022-08-21T10:00:00,1195A,120.299,31.6817,无锡市,堰桥,颗粒物(PM10),59,68,52,27,24,238,90,61,56,18,18,7,9,0.5,0.7
2022-08-21T10:00:00,1196A,119.9633,31.762,常州市,市监测站,,50,50,42,35,24,208,84,54,47,33,17,14,9,1.3,0.8
2022-08-21T10:00:00,1200A,119.9468,31.7069,常州市,武进监测站,颗粒物(PM10),59,68,46,40,24,253,118,66,59,20,13,14,11,1.4,1
2022-08-21T10:00:00,1201A,119.9255,31.9087,常州市,安家,颗粒物(PM10),52,54,36,34,21,106,86,71,65,20,12,8,6,0.8,0.4
2022-08-21T10:00:00,1203A,119.6707,32.1875,镇江市,新区办事处,,44,44,27,24,17,176,88,80,75,18,15,10,5,0.8,0.5
2022-08-21T10:00:00,1204A,119.4974,32.1968,镇江市,职教中心,,48,48,29,14,11,154,82,64,60,26,15,5,4,0.8,0.5
2022-08-21T10:00:00,1205A,119.4303,32.1328,镇江市,丹徒区监测站,颗粒物(PM10),54,57,35,22,20,181,97,68,68,13,13,12,5,1.1,0.8
2022-08-21T10:00:00,1206A,119.905,32.4878,泰州市,公园路,,31,31,29,12,14,100,83,63,60,9,9,5,5,0.7,0.7
2022-08-21T10:00:00,1207A,119.9189,32.4625,泰州市,莲花,,29,29,24,19,17,111,89,76,70,8,11,7,7,0.8,0.8
2022-08-21T10:00:00,1209A,119.888,32.4639,泰州市,留学生创业园,,30,8,20,20,18,118,94,79,76,7,7,4,4,0.9,0.9
2022-08-21T10:00:00,1210A,119.036,33.5981,淮安市,钵池山,,30,24,23,9,13,111,96,78,78,10,9,5,5,0.5,0.5
2022-08-21T10:00:00,1211A,119.007,33.575,淮安市,北京南路,,31,29,28,12,15,113,97,79,78,10,11,8,8,0.5,0.5
2022-08-21T10:00:00,1212A,118.989,33.6067,淮安市,市监测站,,34,34,26,11,12,111,96,82,82,16,11,6,6,0.6,0.7
2022-08-21T10:00:00,1213A,119.135,33.5039,淮安市,楚州区监测站,,27,24,25,5,9,106,85,64,64,6,9,6,5,0.4,0.5
2022-08-21T10:00:00,1214A,119.0186,33.6297,淮安市,淮阴区监测站,,31,28,27,10,14,110,98,79,79,11,11,6,6,0.5,0.5
2022-08-21T10:00:00,1215A,120.118,33.4022,盐城市,盐城电厂,,35,22,25,9,12,112,112,79,77,9,10,6,6,0.3,0.4
2022-08-21T10:00:00,1216A,120.156,33.3942,盐城市,市监测站,,36,22,24,11,11,113,113,97,92,6,8,5,5,0.2,0.2
2022-08-21T10:00:00,1218A,120.2144,33.38,盐城市,开发区管委会,,32,20,16,3,7,103,102,78,76,9,11,7,9,0.3,0.3
2022-08-21T10:00:00,1220A,118.293,33.9528,宿迁市,宿迁学院,,29,29,24,14,17,144,91,102,69,18,15,8,6,0.6,0.5
2022-08-21T10:00:00,1221A,118.2442,33.9592,宿迁市,宿迁中学,,39,36,23,27,13,137,89,112,74,16,11,6,5,0.7,0.6
2022-08-21T10:00:00,1223A,120.2072,30.2111,杭州市,滨江,,50,50,35,26,22,154,110,45,45,24,23,5,6,0.8,0.6
2022-08-21T10:00:00,1224A,120.0633,30.2747,杭州市,西溪,,46,46,32,31,17,130,130,47,47,14,15,12,12,0.9,0.7
2022-08-21T10:00:00,1225A,119.026,29.635,杭州市,千岛湖(对照点),,,,,,,,,,,,,,,,
2022-08-21T10:00:00,1226A,120.3461,30.3153,杭州市,下沙,颗粒物(PM10),55,59,47,31,22,172,133,95,60,19,22,7,6,0.7,0.6
2022-08-21T10:00:00,1227A,120.1269,30.2456,杭州市,卧龙桥,细颗粒物(PM2.5),53,48,28,37,20,140,140,44,44,17,17,6,5,0.7,0.5
2022-08-21T10:00:00,1228A,120.1903,30.2692,杭州市,浙江农大,颗粒物(PM10),52,54,36,30,21,137,125,93,77,22,16,4,4,0.7,0.6
2022-08-21T10:00:00,1229A,120.157,30.2897,杭州市,朝晖五区,,,,,,,,,,,,,,,,
2022-08-21T10:00:00,1230A,120.1197,30.3119,杭州市,和睦小学,细颗粒物(PM2.5),69,63,46,50,30,140,133,74,65,27,22,9,7,1.0,0.8
2022-08-21T10:00:00,1231A,120.3019,30.4183,杭州市,临平镇,颗粒物(PM10),52,54,45,25,18,160,133,87,66,17,17,4,4,0.7,0.7
2022-08-21T10:00:00,1232A,120.2697,30.1819,杭州市,城厢镇,细颗粒物(PM2.5),68,60,37,49,25,156,120,48,48,26,22,6,7,0.8,0.6
2022-08-21T10:00:00,1233A,120.0883,30.1808,杭州市,云栖,颗粒物(PM10),57,63,31,32,14,125,124,31,31,20,14,7,7,0.6,0.5
2022-08-21T10:00:00,1234A,121.8358,29.911,宁波市,区环保大楼,,45,34,49,21,28,207,142,88,88,14,39,7,9,0.7,0.7
2022-08-21T10:00:00,1235A,121.56,29.82,宁波市,万里学院,臭氧1小时,54,27,40,25,31,182,163,104,104,16,16,5,5,1.0,0.8
2022-08-21T10:00:00,1236A,121.713,29.9572,宁波市,龙赛医院,,39,21,43,13,22,193,123,95,95,6,20,5,6,0.7,0.7
2022-08-21T10:00:00,1239A,121.633,29.7733,宁波市,钱湖水厂,臭氧1小时,82,31,35,21,18,194,185,84,84,21,17,3,4,0.8,0.6
2022-08-21T10:00:00,1240A,121.5856,29.8635,宁波市,太古小学,臭氧1小时,63,32,36,27,31,177,170,98,98,23,18,8,8,0.8,0.7
2022-08-21T10:00:00,1241A,121.524,29.8674,宁波市,市环境监测中心,臭氧1小时,59,36,44,15,23,171,167,100,92,16,12,4,5,0.5,0.4
2022-08-21T10:00:00,1242A,120.634,28.0089,温州市,瓯海,,34,34,44,14,17,153,100,37,35,15,26,7,7,0.3,0.4
2022-08-21T10:00:00,1243A,120.6748,27.9939,温州市,南浦,,30,27,44,10,18,152,95,45,37,9,22,6,6,0.4,0.4
2022-08-21T10:00:00,1244A,120.76,27.9747,温州市,龙湾,,35,35,46,12,14,144,101,40,36,18,24,6,7,0.4,0.4
2022-08-21T10:00:00,1245A,120.6709,28.0167,温州市,市站,,40,40,43,15,20,160,107,40,36,18,26,5,5,0.5,0.5
2022-08-21T10:00:00,1246A,120.598,30.0911,绍兴市,袍江站,,,,,,,,,,,,,,,,
2022-08-21T10:00:00,1247A,120.6053,29.9928,绍兴市,城东开发委,细颗粒物(PM2.5),60,45,33,43,19,155,122,70,70,12,10,6,6,0.7,0.6
2022-08-21T10:00:00,1250A,120.0751,30.8669,湖州市,城西水厂,颗粒物(PM10),59,67,37,38,20,143,143,63,54,25,20,8,5,0.7,0.6
2022-08-21T10:00:00,1252A,120.7436,30.778,嘉兴市,清河小学,,36,36,23,18,18,162,114,57,57,22,21,8,6,0.6,0.4
2022-08-21T10:00:00,1253A,120.726,30.7478,嘉兴市,嘉兴学院,,43,40,35,30,22,149,108,64,54,17,17,4,3,0.6,0.6
2022-08-21T10:00:00,1255A,121.273,28.6459,台州市,黄岩环保大楼,,45,42,39,18,14,152,142,67,67,18,15,6,5,0.5,0.4
2022-08-21T10:00:00,1256A,121.419,28.6542,台州市,台州环保大楼,,48,48,38,30,23,159,146,64,56,17,19,8,6,0.5,0.4
2022-08-21T10:00:00,1257A,121.377,28.5773,台州市,路桥田洋王,颗粒物(PM10),52,54,36,25,17,166,151,67,67,23,16,4,6,0.5,0.4
2022-08-21T10:00:00,1258A,122.122,30.0203,舟山市,定海檀枫,,36,26,36,13,20,178,114,112,88,9,11,2,2,0.6,0.5
2022-08-21T10:00:00,1259A,122.3094,29.9558,舟山市,普陀东港,,34,18,36,12,20,160,108,112,93,16,27,3,3,0.6,0.5
2022-08-21T10:00:00,1260A,122.19,29.9944,舟山市,临城新区,,37,23,37,10,17,186,116,118,98,10,16,2,3,0.6,0.5
2022-08-21T10:00:00,1261A,119.649,29.1131,金华市,四中(停运161031),,,,,,,,,,,,,,,,
2022-08-21T10:00:00,1262A,119.647,29.077,金华市,十五中,颗粒物(PM10),51,51,46,16,23,129,97,56,39,16,22,16,12,0.6,0.5
2022-08-21T10:00:00,1263A,119.686,29.1029,金华市,监测站,颗粒物(PM10),55,59,44,22,22,133,107,64,42,14,20,17,14,0.6,0.5
2022-08-21T10:00:00,1264A,118.8692,28.9398,衢州市,环保大楼,,39,39,43,18,22,109,83,30,30,13,17,10,9,0.5,0.5
2022-08-21T10:00:00,1265A,118.8709,28.9666,衢州市,实验学校,,46,46,40,17,17,115,82,26,26,18,24,15,14,0.4,0.4
2022-08-21T10:00:00,1266A,118.8621,28.9808,衢州市,衢州学院,,39,39,41,17,20,123,83,32,32,13,13,15,14,0.6,0.5
2022-08-21T10:00:00,1267A,119.914,28.4514,丽水市,监测站大楼,,41,41,23,10,13,120,120,32,32,14,19,9,10,0.5,0.4
2022-08-21T10:00:00,1268A,119.93,28.4586,丽水市,莲都小学,,46,46,25,17,9,128,128,46,46,15,14,8,6,0.5,0.4
2022-08-21T10:00:00,1269A,119.879,28.4231,丽水市,余庄前,,33,11,16,8,9,103,103,32,32,12,15,8,6,0.5,0.5
2022-08-21T10:00:00,1270A,117.1959,31.7848,合肥市,明珠广场,,48,48,43,31,23,171,113,74,62,14,19,9,8,0.8,0.7
2022-08-21T10:00:00,1271A,117.3072,31.8764,合肥市,三里街,颗粒物(PM10),55,60,42,31,19,164,99,81,54,21,20,7,6,0.9,0.8
2022-08-21T10:00:00,1272A,117.2588,31.8707,合肥市,琥珀山庄,颗粒物(PM10),51,51,40,27,22,159,111,83,61,11,14,6,5,1.0,0.9
2022-08-21T10:00:00,1273A,117.1604,31.9052,合肥市,董铺水库(对照点),,48,48,38,29,14,136,100,62,60,12,12,11,10,0.8,0.7
2022-08-21T10:00:00,1274A,117.25,31.8571,合肥市,长江中路,颗粒物(PM10),57,63,46,24,17,165,104,78,58,9,10,6,5,1.0,0.8
2022-08-21T10:00:00,1275A,117.266,31.9436,合肥市,庐阳区,颗粒物(PM10),53,56,41,29,23,153,104,69,52,14,16,6,6,0.9,0.8
2022-08-21T10:00:00,1276A,117.336,31.8586,合肥市,瑶海区,颗粒物(PM10),57,63,48,21,20,168,111,83,62,12,16,10,10,0.9,0.8
2022-08-21T10:00:00,1277A,117.3027,31.7964,合肥市,包河区,,44,44,45,29,20,164,113,65,62,11,23,4,3,0.9,0.7
2022-08-21T10:00:00,1278A,117.2776,31.7385,合肥市,滨湖新区,颗粒物(PM10),51,51,42,29,19,180,105,78,61,10,15,4,4,0.9,0.8
2022-08-21T10:00:00,1279A,117.1318,31.8403,合肥市,高新区,,44,44,40,14,20,166,120,80,70,10,14,5,5,0.7,0.6
2022-08-21T10:00:00,1280A,119.3903,26.0543,福州市,鼓山(对照点),,,,,,,,,,,,,,,,
2022-08-21T10:00:00,1282A,119.2681,26.0504,福州市,师大,,32,32,34,14,14,101,98,65,51,8,11,6,4,0.3,0.3
2022-08-21T10:00:00,1283A,119.2984,26.1028,福州市,五四北路,,30,25,34,12,11,97,94,46,45,11,19,5,4,0.3,0.4
2022-08-21T10:00:00,1284A,119.2648,26.0768,福州市,杨桥西路,,28,13,37,15,10,97,89,51,43,6,13,6,4,0.4,0.4
2022-08-21T10:00:00,1285A,119.317,26.0746,福州市,紫阳,,28,26,35,12,11,102,89,52,52,8,13,6,5,0.2,0.3
2022-08-21T10:00:00,1286A,118.1608,24.8169,厦门市,溪东(对照点),,,,,,,,,,,,,,,,
2022-08-21T10:00:00,1287A,118.1514,24.4767,厦门市,洪文,,37,37,18,8,5,70,52,38,32,17,8,5,3,0.3,0.3
2022-08-21T10:00:00,1288A,118.0661,24.4444,厦门市,鼓浪屿,,,,18,,7,54,54,32,25,10,6,2,3,4.8,0.4
2022-08-21T10:00:00,1290A,115.8931,28.6843,南昌市,省外办,,21,17,14,2,5,91,65,41,41,6,9,8,7,0.4,0.4
2022-08-21T10:00:00,1291A,115.8886,28.7003,南昌市,省林业公司,,21,19,12,0,0,94,67,41,41,9,14,7,7,0.6,0.6
2022-08-21T10:00:00,1292A,115.8126,28.7442,南昌市,林科所,,27,27,21,7,4,92,62,34,34,9,14,19,14,0.6,0.6
2022-08-21T10:00:00,1294A,115.8518,28.687,南昌市,建工学校,,,15,18,8,7,93,61,37,37,,13,12,12,0.5,0.5
2022-08-21T10:00:00,1295A,115.8921,28.6424,南昌市,象湖,,22,22,19,0,0,90,67,41,41,1,6,6,6,0.4,0.4
2022-08-21T10:00:00,1296A,115.7423,28.7996,南昌市,武术学校(对照点),,25,25,16,9,8,91,60,37,37,4,5,8,7,0.7,0.7
2022-08-21T10:00:00,1298A,115.9314,28.6842,南昌市,省站,,32,32,18,11,7,98,68,43,43,6,9,8,8,0.6,0.6
2022-08-21T10:00:00,1299A,116.9862,36.6114,济南市,科干所,,40,31,27,7,10,160,127,104,104,11,17,6,7,0.5,0.6
2022-08-21T10:00:00,1300A,116.9376,36.665,济南市,农科所,,35,29,31,5,7,142,109,59,59,17,29,7,8,0.4,0.4
2022-08-21T10:00:00,1301A,117.1265,36.6734,济南市,开发区,,40,27,31,0,6,153,125,58,58,15,34,5,6,0.5,0.5
2022-08-21T10:00:00,1303A,117.0624,36.6868,济南市,省种子仓库,,41,22,39,10,13,144,130,50,40,10,35,6,8,0.4,0.5
2022-08-21T10:00:00,1304A,116.9489,36.6447,济南市,机床二厂,,41,41,47,7,9,151,127,76,76,13,27,8,9,0.4,0.5
2022-08-21T10:00:00,1305A,117.0495,36.663,济南市,市监测站,,42,24,34,15,10,155,133,65,61,7,28,7,9,0.5,0.6
2022-08-21T10:00:00,1306A,116.7675,36.5484,济南市,长清党校,,38,29,32,12,13,174,121,84,84,12,23,8,7,0.4,0.4
2022-08-21T10:00:00,1307A,120.6659,36.2403,青岛市,仰口(对照点),,,,,,,,,,,,,,,,
2022-08-21T10:00:00,1308A,120.3905,36.1851,青岛市,李沧区子站,,,,,,,,,,,,,,,,
2022-08-21T10:00:00,1309A,120.3471,36.0699,青岛市,市北区子站,,,,,,,,,,,,,,,,
2022-08-21T10:00:00,1310A,120.4134,36.0658,青岛市,市南区东部子站,,34,7,22,7,8,131,106,57,39,10,26,9,8,0.1,0.2
2022-08-21T10:00:00,1311A,120.3664,36.1032,青岛市,四方区子站,,35,17,36,5,11,118,110,29,29,10,37,7,6,0.5,0.6
2022-08-21T10:00:00,1312A,120.2994,36.054,青岛市,市南区西部子站,,48,48,32,17,7,122,81,38,26,28,29,8,7,0.5,0.5
2022-08-21T10:00:00,1313A,120.4581,36.0858,青岛市,崂山区子站,,,,25,2,4,131,112,74,74,12,20,6,5,0.2,0.2
2022-08-21T10:00:00,1314A,120.1983,35.9608,青岛市,黄岛区子站,,38,31,28,15,13,128,119,46,46,16,32,8,7,0.6,0.5
2022-08-21T10:00:00,1315A,120.3999,36.3083,青岛市,城阳区子站,颗粒物(PM10),51,52,28,9,9,119,119,48,48,25,32,6,5,0.5,0.6
2022-08-21T10:00:00,1316A,113.69031,34.76122,郑州市,烟厂,细颗粒物(PM2.5),57,56,45,40,25,157,106,76,76,16,14,5,7,0.8,0.7
2022-08-21T10:00:00,1317A,113.65724,34.77134,郑州市,郑纺机,,,53,49,,,166,115,84,82,13,11,6,7,0.9,0.8
2022-08-21T10:00:00,1318A,113.67526,34.80246,郑州市,银行学校,细颗粒物(PM2.5),53,46,48,37,29,166,113,81,63,15,13,4,6,0.9,0.8
2022-08-21T10:00:00,1319A,113.56746,34.81334,郑州市,供水公司,颗粒物(PM10),55,59,54,32,23,176,112,85,56,16,14,4,5,0.9,0.8
2022-08-21T10:00:00,1320A,113.7329,34.7178,郑州市,经开区管委,颗粒物(PM10),53,55,52,36,26,177,113,82,80,10,11,2,4,0.8,0.7
2022-08-21T10:00:00,1321A,113.73961,34.77172,郑州市,四十七中,颗粒物(PM10),51,51,49,28,20,176,113,89,75,23,18,3,4,0.8,0.7
2022-08-21T10:00:00,1322A,113.60532,34.74838,郑州市,市监测站,,,55,49,,,182,114,96,96,23,16,3,4,0.8,0.7
2022-08-21T10:00:00,1323A,113.64164,34.7525,郑州市,河医大,,,55,51,,16,170,116,87,87,16,16,4,5,0.8,0.7
2022-08-21T10:00:00,1324A,113.51488,34.91089,郑州市,岗李水库(对照点),,,,,,,,,,,,,,,,
2022-08-21T10:00:00,1325A,114.3677,30.5584,武汉市,东湖梨园,,26,24,43,7,20,238,82,70,49,9,18,7,8,0.6,1.1
2022-08-21T10:00:00,1326A,114.2529,30.558,武汉市,汉阳月湖,,23,23,37,2,16,227,73,59,56,13,21,8,10,0.6,0.8
2022-08-21T10:00:00,1327A,114.282,30.6189,武汉市,汉口花桥,,26,26,48,12,22,242,82,70,63,10,17,7,6,0.5,0.8
2022-08-21T10:00:00,1328A,114.3025,30.5332,武汉市,武昌紫阳,,25,20,38,7,18,224,80,56,54,7,22,9,9,0.6,1
2022-08-21T10:00:00,1329A,114.3646,30.6217,武汉市,青山钢花,,39,39,52,12,28,230,78,66,46,13,25,8,10,0.6,1
2022-08-21T10:00:00,1330A,114.1566,30.4825,武汉市,沌口新区,,24,22,38,13,20,193,75,57,54,12,21,8,10,0.5,0.7
2022-08-21T10:00:00,1331A,114.3014,30.5944,武汉市,汉口江滩,,25,25,41,4,19,240,73,60,45,14,24,10,10,0.6,1
2022-08-21T10:00:00,1333A,114.135,30.6319,武汉市,吴家山,,30,30,46,10,22,234,81,63,56,10,18,6,6,0.7,0.8
2022-08-21T10:00:00,1334A,113.8454,30.2917,武汉市,沉湖七壕(对照点),,22,21,26,2,3,139,70,53,51,7,12,9,9,0.7,0.8
2022-08-21T10:00:00,1335A,113.0833,28.2325,长沙市,经开区环保局,,21,12,17,9,14,109,65,47,44,6,7,6,6,0.2,0.3
2022-08-21T10:00:00,1336A,112.8872,28.2189,长沙市,高开区环保局,,23,19,19,5,10,120,72,56,56,1,3,9,8,0.3,0.2
2022-08-21T10:00:00,1337A,113.0792,28.2053,长沙市,马坡岭,,22,20,24,11,12,116,69,46,46,4,6,7,7,0.5,0.5
2022-08-21T10:00:00,1338A,112.9394,28.19,长沙市,湖南师范大学,,20,0,23,0,4,102,61,39,39,3,5,11,6,0.6,0.5
2022-08-21T10:00:00,1339A,113.0178,28.1322,长沙市,雨花区环保局,,24,6,14,7,11,108,74,54,54,4,6,8,6,0.4,0.4
2022-08-21T10:00:00,1340A,112.9792,28.2597,长沙市,伍家岭,,23,11,18,8,11,120,72,48,48,3,5,10,8,0.3,0.2
2022-08-21T10:00:00,1341A,113.0014,28.1944,长沙市,火车新站,,21,5,15,8,10,104,66,48,48,3,4,10,7,0.5,0.4
2022-08-21T10:00:00,1342A,112.9844,28.1178,长沙市,天心区环保局,,20,16,18,8,10,104,63,42,42,3,4,6,4,0.5,0.4
2022-08-21T10:00:00,1343A,112.8908,28.1308,长沙市,湖南中医药大学,,22,21,26,7,9,107,68,47,47,2,9,6,6,0.5,0.7
2022-08-21T10:00:00,1344A,112.9581,28.3611,长沙市,沙坪(对照点),,26,26,27,4,9,121,68,46,46,8,11,10,5,1.2,1.1
2022-08-21T10:00:00,1345A,113.2347,23.1423,广州市,广雅中学,,24,24,19,12,8,86,31,11,11,28,26,5,5,0.7,0.7
2022-08-21T10:00:00,1346A,113.2612,23.105,广州市,市五中,,25,25,18,11,9,88,34,13,13,23,22,6,4,0.7,0.7
2022-08-21T10:00:00,1348A,113.3478,23.0916,广州市,广东商学院,,26,26,19,12,7,74,29,10,10,29,26,7,5,0.5,0.4
2022-08-21T10:00:00,1349A,113.4332,23.1047,广州市,市八十六中,,28,28,24,11,7,92,34,11,11,29,31,9,6,0.7,0.7
2022-08-21T10:00:00,1350A,113.3505,22.9483,广州市,番禺中学,,18,18,13,9,6,69,40,17,17,21,20,3,2,0.6,0.5
2022-08-21T10:00:00,1351A,113.2146,23.3916,广州市,花都师范,,21,21,20,10,9,128,35,12,12,17,26,6,5,0.6,0.6
2022-08-21T10:00:00,1352A,113.2597,23.1331,广州市,市监测站,,23,23,19,10,8,88,34,12,12,23,23,5,5,0.7,0.6
2022-08-21T10:00:00,1353A,113.5618,23.312,广州市,九龙镇镇龙,,22,22,20,10,8,94,30,14,14,14,18,4,4,0.5,0.5
2022-08-21T10:00:00,1354A,113.2765,23.1544,广州市,麓湖,,23,23,18,12,9,86,32,11,11,23,22,6,5,0.7,0.7
2022-08-21T10:00:00,1355A,113.443,23.3035,广州市,帽峰山森林公园(对照点),,15,15,14,6,5,104,29,23,23,11,14,5,5,0.6,0.6
2022-08-21T10:00:00,1356A,114.1063,22.5545,深圳市,通心岭子站,,11,10,12,2,3,59,35,35,30,6,5,3,3,0.6,0.6
2022-08-21T10:00:00,1357A,114.117,22.5625,深圳市,洪湖,,14,14,13,4,3,44,30,23,20,5,10,8,8,0.4,0.4
2022-08-21T10:00:00,1358A,113.987,22.5417,深圳市,华侨城,,17,17,24,3,5,56,31,29,27,12,11,6,5,0.5,0.5
2022-08-21T10:00:00,1359A,113.9181,22.5171,深圳市,南海子站,,15,15,13,6,5,57,29,32,28,8,8,3,2,0.6,0.6
2022-08-21T10:00:00,1360A,114.2458,22.5689,深圳市,盐田,,13,10,12,6,5,54,39,36,28,5,10,3,3,0.5,0.5
2022-08-21T10:00:00,1361A,114.2283,22.7244,深圳市,龙岗,,18,18,19,9,6,56,26,14,14,19,15,4,4,0.6,0.5
2022-08-21T10:00:00,1362A,113.8953,22.5861,深圳市,西乡,,,,,,,,,,,,,,,,
2022-08-21T10:00:00,1363A,114.494,22.5422,深圳市,南澳,,16,16,15,6,5,59,44,38,38,5,6,4,4,0.5,0.5
2022-08-21T10:00:00,1364A,114.41,22.6342,深圳市,葵涌,,16,16,19,3,4,49,34,23,20,2,4,5,5,0.6,0.6
2022-08-21T10:00:00,1365A,114.297,22.5978,深圳市,梅沙,,14,13,15,3,3,63,43,40,33,3,5,6,6,0.4,0.4
2022-08-21T10:00:00,1366A,114.0678,22.738,深圳市,观澜,,24,24,25,7,6,48,29,17,17,12,13,6,5,0.5,0.5
2022-08-21T10:00:00,1367A,113.5814,22.2618,珠海市,吉大,,12,10,9,8,4,54,38,39,37,1,2,7,7,0.4,0.4
2022-08-21T10:00:00,1368A,113.4881,22.2335,珠海市,前山,,12,11,7,4,6,52,37,36,29,10,13,9,9,0.4,0.4
2022-08-21T10:00:00,1369A,113.628,22.4251,珠海市,唐家,,16,14,11,11,8,67,47,46,42,3,4,6,6,0.3,0.2
2022-08-21T10:00:00,1370A,113.299,22.2281,珠海市,斗门,,12,12,6,4,3,51,34,38,29,6,5,5,5,0.5,0.4
2022-08-21T10:00:00,1371A,113.1294,23.0067,佛山市,湾梁,,10,7,10,6,5,69,32,12,12,15,20,8,7,0.3,0.3
2022-08-21T10:00:00,1372A,113.1083,23.0478,佛山市,华材职中,,12,9,10,8,7,68,26,15,10,20,20,5,5,0.3,0.3
2022-08-21T10:00:00,1373A,113.144,23.0453,佛山市,南海气象局,,28,28,18,8,8,62,25,7,7,24,23,6,5,0.4,0.4
2022-08-21T10:00:00,1374A,113.2881,22.8094,佛山市,顺德苏岗,,10,2,2,2,1,58,26,18,18,19,16,4,4,0.8,0.7
2022-08-21T10:00:00,1375A,113.2544,22.7642,佛山市,容桂街道办,,,,,,,,,,,,,,,,
2022-08-21T10:00:00,1376A,112.8383,22.8678,佛山市,高明孔堂,,22,22,13,9,3,78,25,40,24,21,9,5,5,0.5,0.4
2022-08-21T10:00:00,1377A,112.8836,23.1588,佛山市,三水监测站,,22,22,10,10,8,79,20,28,9,27,27,5,5,0.6,0.5
2022-08-21T10:00:00,1378A,112.867,23.185,佛山市,三水云东海,,17,17,15,11,6,85,19,26,11,24,19,5,5,0.6,0.5
2022-08-21T10:00:00,1379A,113.3769,22.5211,中山市,华柏园,,10,10,8,2,3,49,29,32,25,8,9,1,2,0.5,0.5
2022-08-21T10:00:00,1380A,113.3881,22.5497,中山市,张溪,,33,33,17,7,4,61,38,37,29,6,8,2,2,0.6,0.6
2022-08-21T10:00:00,1381A,113.4075,22.5111,中山市,紫马岭,,21,21,11,4,4,60,38,32,29,5,7,2,2,0.5,0.5
2022-08-21T10:00:00,1382A,113.4411,22.4853,中山市,长江旅游区(对照点),,15,15,9,8,3,59,36,37,34,4,4,7,7,0.4,0.4
2022-08-21T10:00:00,1383A,113.1064,22.6058,江门市,北街,,34,34,13,7,5,61,41,36,28,11,11,5,5,0.5,0.5
2022-08-21T10:00:00,1384A,113.0731,22.5835,江门市,西区,,25,25,12,7,6,62,37,33,27,15,13,4,4,0.6,0.5
2022-08-21T10:00:00,1385A,113.0219,22.5311,江门市,圭峰西,,28,28,14,2,3,65,36,39,30,9,9,4,4,0.4,0.6
2022-08-21T10:00:00,1386A,113.0828,22.5947,江门市,东湖,,21,21,14,10,5,65,38,32,24,13,12,6,6,0.6,0.6
2022-08-21T10:00:00,1387A,113.7875,23.0457,东莞市,东城主山,,,,,,,,,,,,,,,,
2022-08-21T10:00:00,1388A,113.7533,23.0202,东莞市,南城元岭,,,,,,,,,,,,,,,,
2022-08-21T10:00:00,1389A,113.7547,23.0494,东莞市,莞城梨川,,23,23,21,10,8,100,55,27,27,16,16,9,8,0.7,0.7
2022-08-21T10:00:00,1390A,113.7944,23.0128,东莞市,东城石井,,24,24,20,10,8,92,65,22,22,15,18,8,8,0.8,0.7
2022-08-21T10:00:00,1391A,113.7383,22.9658,东莞市,南城西平,,22,22,19,11,6,78,49,20,20,15,21,6,6,0.8,0.7
2022-08-21T10:00:00,1392A,114.4183,23.0528,惠州市,河南岸金山湖子站,,12,11,20,2,3,58,36,22,19,6,8,3,3,0.6,0.6
2022-08-21T10:00:00,1393A,114.4053,23.0822,惠州市,下埔横江三路子站,,27,27,13,4,3,65,40,34,24,11,11,4,3,0.4,0.3
2022-08-21T10:00:00,1394A,114.4103,23.1142,惠州市,江北云山西路子站,,31,31,17,9,6,66,42,17,16,7,8,7,7,0.5,0.5
2022-08-21T10:00:00,1395A,114.4645,22.7833,惠州市,惠阳区承修路船湖子站,,,23,17,,4,59,38,20,18,7,10,5,5,0.4,0.4
2022-08-21T10:00:00,1396A,114.5317,22.7422,惠州市,大亚湾管委会子站,,25,25,15,6,6,54,38,25,24,8,13,3,2,0.5,0.5
2022-08-21T10:00:00,1397A,112.4267,23.0706,肇庆市,睦岗子站,,27,27,13,17,6,90,26,42,22,24,19,6,5,0.3,0.3
2022-08-21T10:00:00,1398A,112.4645,23.0475,肇庆市,城中子站,,28,28,14,13,6,99,36,41,28,23,16,11,8,0.5,0.5
2022-08-21T10:00:00,1399A,112.5544,23.1522,肇庆市,坑口子站,,35,34,17,24,9,114,18,29,16,26,19,10,13,0.5,0.4
2022-08-21T10:00:00,1400A,112.4753,23.1,肇庆市,七星岩子站(对照点),,,,,,,,,,,,,,,,
2022-08-21T10:00:00,1401A,108.3103,22.7881,南宁市,二十一中,,27,27,17,11,11,104,29,27,27,11,12,6,5,0.6,0.6
2022-08-21T10:00:00,1402A,108.3141,22.8528,南宁市,北湖,,20,20,17,9,9,92,32,28,27,9,10,5,5,0.4,0.4
2022-08-21T10:00:00,1403A,108.3206,22.8225,南宁市,市监测站,,22,22,19,9,12,89,22,26,24,23,20,5,5,0.5,0.5
2022-08-21T10:00:00,1404A,108.3829,22.8037,南宁市,大自然花园,,21,21,18,9,8,99,32,26,25,9,11,6,6,0.6,0.6
2022-08-21T10:00:00,1405A,108.4394,22.7904,南宁市,仙葫(对照点),颗粒物(PM10),57,64,21,9,11,91,30,23,23,10,10,6,6,0.6,0.6
2022-08-21T10:00:00,1406A,108.2397,22.8467,南宁市,区农职院,,16,14,21,11,9,99,30,28,28,14,15,6,6,0.5,0.5
2022-08-21T10:00:00,1407A,108.3275,22.735,南宁市,英华嘉园,,25,25,19,10,8,102,28,27,27,10,12,6,5,0.6,0.6
2022-08-21T10:00:00,1408A,108.2257,22.7757,南宁市,沙井镇街道办,,22,22,22,9,13,118,30,24,22,15,22,6,6,0.6,0.6
2022-08-21T10:00:00,1409A,110.576,19.9507,海口市,东寨港(对照点),,,35,12,17,5,52,52,38,37,,,5,4,0.2,0.2
2022-08-21T10:00:00,1410A,110.3232,20.0574,海口市,海南大学,,26,26,13,7,7,50,50,40,40,6,5,4,4,0.5,0.5
2022-08-21T10:00:00,1411A,110.283,20.0053,海口市,秀英海南医院,,,32,12,7,5,43,,35,34,10,12,5,5,0.4,0.4
2022-08-21T10:00:00,1412A,110.338,19.9969,海口市,海南师范大学,,23,23,14,7,5,44,44,35,35,4,5,3,3,0.8,0.7
2022-08-21T10:00:00,1413A,110.33,20.0356,海口市,龙华路环保局宿舍,,24,24,11,8,4,51,51,41,41,6,5,2,2,0.6,0.5
2022-08-21T10:00:00,1414A,106.3787,29.8279,重庆市,缙云山(对照点),,24,11,12,6,6,162,75,64,64,13,14,7,7,0.3,0.3
2022-08-21T10:00:00,1416A,106.4213,29.8253,重庆市,天生,,23,15,20,8,10,153,73,57,57,9,14,6,5,0.6,0.6
2022-08-21T10:00:00,1417A,106.6263,29.7228,重庆市,两路,颗粒物(PM10),51,51,39,23,15,140,78,54,54,16,25,8,9,0.0,0.3
2022-08-21T10:00:00,1418A,106.2953,29.5983,重庆市,虎溪,,25,25,36,10,14,145,77,51,51,14,21,8,9,0.4,0.5
2022-08-21T10:00:00,1419A,106.5777,29.5102,重庆市,南坪,,26,23,27,6,15,142,81,76,71,7,8,4,3,0.4,0.4
2022-08-21T10:00:00,1420A,106.6556,29.6277,重庆市,唐家沱,,27,15,20,7,11,151,85,66,52,7,16,5,4,0.5,0.5
2022-08-21T10:00:00,1421A,106.6349,29.4906,重庆市,茶园,,28,26,30,9,12,147,88,71,54,13,30,6,6,0.3,0.3
2022-08-21T10:00:00,1422A,106.3754,29.4572,重庆市,白市驿,,32,32,25,17,15,136,75,65,64,11,10,9,9,0.5,0.5
2022-08-21T10:00:00,1425A,106.6205,29.7166,重庆市,空港,,25,17,25,10,16,144,80,58,58,10,14,5,7,1.0,0.7
2022-08-21T10:00:00,1426A,106.4782,29.4875,重庆市,新山村,,24,18,24,5,8,144,76,65,64,16,18,7,6,0.3,0.3
2022-08-21T10:00:00,1427A,106.5616,29.6453,重庆市,礼嘉,,24,7,15,4,7,144,76,62,52,12,25,5,6,0.4,0.5
2022-08-21T10:00:00,1428A,106.4522,29.7091,重庆市,蔡家,,24,13,15,5,12,150,75,61,61,10,13,5,4,0.5,0.5
2022-08-21T10:00:00,1429A,106.5093,29.3917,重庆市,鱼新街,,22,11,18,7,10,113,68,61,58,7,8,6,5,0.8,0.7
2022-08-21T10:00:00,1431A,103.9728,30.7236,成都市,金泉两河,,42,42,45,24,33,260,83,43,39,35,24,2,2,0.6,0.5
2022-08-21T10:00:00,1432A,104.1419,30.6764,成都市,十里店,,50,50,55,29,31,190,82,74,48,39,30,7,4,0.7,0.7
2022-08-21T10:00:00,1433A,104.0594,30.5767,成都市,三瓦窑,颗粒物(PM10),56,62,49,29,27,192,76,31,31,54,56,2,2,0.5,0.6
2022-08-21T10:00:00,1434A,104.1122,30.6306,成都市,沙河铺,颗粒物(PM10),52,53,48,31,27,203,94,33,33,32,34,6,4,0.7,0.7
2022-08-21T10:00:00,1437A,104.0431,30.6556,成都市,君平街,颗粒物(PM10),54,58,55,37,36,216,89,35,35,42,38,3,3,0.9,0.8
2022-08-21T10:00:00,1438A,103.6202,31.0201,成都市,灵岩寺(对照点),,28,21,28,18,22,161,89,104,93,1,2,6,4,0.6,0.7
2022-08-21T10:00:00,1439A,106.6899,26.5998,贵阳市,马鞍山,,15,7,13,2,6,108,47,61,56,9,7,4,4,0.2,0.3
2022-08-21T10:00:00,1440A,106.6971,26.5694,贵阳市,市环保站,,12,5,10,5,8,100,37,52,46,11,10,4,4,0.3,0.2
2022-08-21T10:00:00,1441A,106.6243,26.6266,贵阳市,鉴湖路,,14,12,17,5,7,109,44,59,52,6,6,4,3,0.2,0.3
2022-08-21T10:00:00,1442A,106.7487,26.6343,贵阳市,燕子冲,,12,9,18,7,14,98,36,50,44,6,6,6,7,0.3,0.4
2022-08-21T10:00:00,1443A,106.6555,26.4365,贵阳市,碧云窝,,,,,,,,,,,,,,,,
2022-08-21T10:00:00,1444A,106.694,26.5161,贵阳市,中院村,,14,14,22,2,7,87,40,54,46,7,9,3,2,0.3,0.4
2022-08-21T10:00:00,1445A,106.7109,26.6027,贵阳市,红边门,,14,14,20,5,12,108,36,48,44,14,15,3,5,0.4,0.4
2022-08-21T10:00:00,1446A,106.7164,26.5699,贵阳市,新华路,,14,7,13,5,9,98,42,53,49,3,5,2,4,0.3,0.3
2022-08-21T10:00:00,1447A,106.674,26.5424,贵阳市,太慈桥,,22,22,23,2,5,97,41,57,52,8,8,5,5,0.3,0.3
2022-08-21T10:00:00,1450A,102.8204,24.8886,昆明市,呈贡新区,,19,11,24,8,14,156,60,74,55,10,13,5,6,0.3,0.4
2022-08-21T10:00:00,1451A,102.6251,24.9608,昆明市,西山森林公园(对照点),,18,18,38,12,19,134,47,69,51,12,11,8,7,0.4,0.4
2022-08-21T10:00:00,1452A,102.7252,25.0902,昆明市,龙泉镇,,23,23,24,14,15,109,52,64,43,9,16,7,6,0.4,0.4
2022-08-21T10:00:00,1453A,102.7266,25.0375,昆明市,东风东路,,24,24,30,13,16,125,49,60,43,14,20,5,6,0.4,0.4
2022-08-21T10:00:00,1454A,102.6742,25.0669,昆明市,金鼎山,,26,21,28,18,20,128,46,66,42,11,14,6,7,0.3,0.4
2022-08-21T10:00:00,1455A,102.6644,25.0401,昆明市,碧鸡广场,,21,21,29,11,15,135,58,60,50,10,16,6,7,0.4,0.5
2022-08-21T10:00:00,1456A,91.1319,29.6514,拉萨市,八廓街,,,,,,,,,,,,,,,,
2022-08-21T10:00:00,1457A,91.1221,29.6747,拉萨市,市环保局,,18,4,5,6,3,93,56,63,58,6,6,7,7,0.1,0.1
2022-08-21T10:00:00,1458A,91.0874,29.6475,拉萨市,区监测站,,22,6,4,0,0,103,68,78,73,4,4,8,8,0.2,0.2
2022-08-21T10:00:00,1459A,91.1774,29.6541,拉萨市,西藏大学,,,7,6,4,2,94,,66,62,7,7,9,10,0.2,0.2
2022-08-21T10:00:00,1460A,90.9798,29.6588,拉萨市,区辐射站,,,,5,,2,79,,78,,,6,,9,,0.2
2022-08-21T10:00:00,1461A,91.0834,29.6292,拉萨市,拉萨火车站,,19,4,5,0,2,95,60,76,68,5,4,10,10,0.2,0.2
2022-08-21T10:00:00,1462A,108.882,34.2749,西安市,高压开关厂,颗粒物(PM10),57,64,51,27,23,184,102,83,83,26,20,8,5,0.7,0.6
2022-08-21T10:00:00,1463A,108.993,34.2629,西安市,兴庆小区,颗粒物(PM10),52,54,47,27,23,161,102,86,85,16,7,8,5,0.8,0.6
2022-08-21T10:00:00,1464A,109.06,34.2572,西安市,纺织城,颗粒物(PM10),59,67,48,27,23,140,97,91,78,30,17,7,5,0.9,0.6
2022-08-21T10:00:00,1465A,108.9356,34.2173,西安市,小寨,颗粒物(PM10),51,51,48,18,19,165,102,85,82,27,16,4,2,0.7,0.5
2022-08-21T10:00:00,1466A,108.954,34.2713,西安市,市人民体育场,颗粒物(PM10),55,59,49,21,23,176,110,90,90,21,16,8,6,0.6,0.4
2022-08-21T10:00:00,1467A,108.8922,34.2322,西安市,高新西区,颗粒物(PM10),51,52,40,26,23,191,106,83,83,20,12,10,8,0.8,0.6
2022-08-21T10:00:00,1468A,108.935,34.3474,西安市,经开区,颗粒物(PM10),53,55,55,28,24,166,107,93,93,14,13,9,6,0.7,0.5
2022-08-21T10:00:00,1469A,108.906,34.1546,西安市,长安区,颗粒物(PM10),56,61,49,22,22,155,99,80,57,29,16,6,5,0.6,0.3
2022-08-21T10:00:00,1470A,109.2,34.6575,西安市,阎良区,,,,,,,,,,,,,,,,
2022-08-21T10:00:00,1471A,109.2186,34.3731,西安市,临潼区,颗粒物(PM10),62,73,53,28,24,158,103,83,83,27,21,9,6,0.7,0.5
2022-08-21T10:00:00,1472A,108.869,34.378,西安市,草滩(对照点),颗粒物(PM10),54,58,53,26,26,148,102,87,87,15,15,10,8,1.0,0.9
2022-08-21T10:00:00,1473A,108.985,34.1978,西安市,曲江文化产业集团,颗粒物(PM10),61,72,47,24,21,143,102,91,82,24,12,6,4,0.8,0.6
2022-08-21T10:00:00,1474A,109.051,34.3213,西安市,广运潭,颗粒物(PM10),54,58,52,25,24,156,102,89,89,15,13,10,8,0.9,0.7
2022-08-21T10:00:00,1476A,103.631,36.1031,兰州市,兰炼宾馆,颗粒物(PM10),53,55,49,34,23,204,45,60,48,27,22,6,6,0.4,0.4
2022-08-21T10:00:00,1477A,104.1373,35.9454,兰州市,榆中兰大校区(对照点),,,,,,,,,,,,,,,,
2022-08-21T10:00:00,1478A,103.8412,36.0726,兰州市,生物制品所,,,27,33,27,25,124,,64,14,34,18,5,5,1.2,1
2022-08-21T10:00:00,1479A,103.831,36.0464,兰州市,铁路设计院,,37,37,42,22,17,129,40,64,39,38,26,12,8,0.9,0.7
2022-08-21T10:00:00,1480A,101.748,36.6428,西宁市,市环境监测站,,,,,,,,,,,,,,,,
2022-08-21T10:00:00,1482A,101.834,36.5819,西宁市,四陆医院,,,,,,,,,,,,,,,,
2022-08-21T10:00:00,1483A,101.524,36.6867,西宁市,第五水厂(对照点),,37,37,57,23,30,227,55,88,64,21,20,9,13,0.7,0.8
2022-08-21T10:00:00,1484A,105.9512,38.6016,银川市,贺兰山马莲口(对照点),颗粒物(PM10),72,94,56,31,20,172,82,113,88,20,10,10,13,1.3,0.7
2022-08-21T10:00:00,1488A,106.2328,38.4975,银川市,贺兰山东路,,,55,64,30,24,196,,69,56,,25,5,7,0.6,0.6
2022-08-21T10:00:00,1489A,106.1358,38.5036,银川市,学院路,,,72,71,39,33,159,,72,49,27,23,6,10,1.1,0.7
2022-08-21T10:00:00,1490A,87.5801,43.8303,乌鲁木齐市,监测站,,18,18,17,9,7,86,41,62,40,15,9,7,5,0.4,0.3
2022-08-21T10:00:00,1491A,87.6046,43.768,乌鲁木齐市,收费所,,17,15,17,9,5,90,54,66,50,5,3,10,9,0.3,0.2
2022-08-21T10:00:00,1492A,87.4754,43.9469,乌鲁木齐市,新疆农科院农场(对照点),,36,36,32,14,6,64,29,42,22,16,12,10,8,0.6,0.6
2022-08-21T10:00:00,1493A,87.5525,43.8711,乌鲁木齐市,铁路局,,22,22,20,11,6,86,40,58,36,15,8,6,4,0.4,0.3
2022-08-21T10:00:00,1494A,87.6432,43.831,乌鲁木齐市,三十一中学,,,27,22,,3,86,48,61,46,9,4,9,6,0.2,0.1
2022-08-21T10:00:00,1496A,87.7216,44.1747,乌鲁木齐市,米东区环保局,,45,45,25,7,8,79,24,51,21,16,9,6,5,0.3,0.2
2022-08-21T10:00:00,1508A,112.9433,27.8614,湘潭市,板塘,,22,14,23,5,10,85,69,51,51,7,10,4,7,0.3,0.4
2022-08-21T10:00:00,1511A,112.9118,27.8403,湘潭市,市监测站,,20,7,9,4,10,82,64,46,46,7,9,12,9,0.6,0.6
2022-08-21T10:00:00,1512A,112.8937,27.8728,湘潭市,江麓,颗粒物(PM10),55,60,44,8,9,80,53,24,24,13,17,29,24,1.0,1.1
2022-08-21T10:00:00,1513A,112.9227,27.8159,湘潭市,岳塘,,22,18,19,5,8,82,69,49,49,5,6,5,5,0.3,0.3
2022-08-21T10:00:00,1514A,112.9074,27.9119,湘潭市,科大,,39,39,28,5,7,92,63,37,37,9,11,22,18,0.6,0.6
2022-08-21T10:00:00,1515A,113.135,27.8244,株洲市,天台山庄,,21,10,13,2,9,83,65,49,49,4,5,5,5,0.2,0.3
2022-08-21T10:00:00,1518A,113.095,27.8867,株洲市,株冶医院,,18,7,5,5,8,71,55,41,41,5,5,5,7,0.3,0.3
2022-08-21T10:00:00,1519A,113.167,27.8667,株洲市,市四中,,27,27,13,3,11,90,69,54,54,5,7,3,3,0.3,0.3
2022-08-21T10:00:00,1520A,113.143,27.8381,株洲市,火车站,,21,17,13,3,6,83,65,50,50,7,9,3,5,0.2,0.1
2022-08-21T10:00:00,1524A,113.13,27.8528,株洲市,市监测站,,23,17,14,7,8,92,71,55,55,4,4,3,4,0.2,0.3
2022-08-21T10:00:00,1552A,106.805,26.3003,贵阳市,桐木岭(对照点),,,,,,,,,,,,,,,,
2022-08-21T10:00:00,1559A,113.251,27.8336,株洲市,大京风景区(对照点),,16,7,14,2,9,84,49,37,37,3,5,4,4,0.5,0.5
2022-08-21T10:00:00,1562A,113.0048,27.9153,湘潭市,昭山,,20,9,12,7,11,90,63,44,44,7,9,7,5,0.4,0.3
2022-08-21T10:00:00,1564A,112.4876,27.9164,湘潭市,韶山(对照点),,21,15,15,5,5,94,66,59,55,8,8,8,10,0.8,0.8
2022-08-21T10:00:00,1585A,109.8756,40.6532,包头市,市环境监测站,,,,62,,25,152,67,78,75,29,22,9,15,0.9,0.8
2022-08-21T10:00:00,1587A,109.9991,40.5842,包头市,包头八中,细颗粒物(PM2.5),65,53,67,47,36,149,63,73,67,18,16,7,9,1.0,0.7
2022-08-21T10:00:00,1588A,109.8538,40.6821,包头市,青山宾馆,细颗粒物(PM2.5),62,55,61,44,34,163,74,80,77,20,19,10,17,1.1,0.9
2022-08-21T10:00:00,1589A,109.8642,40.6288,包头市,惠龙物流,颗粒物(PM10),60,69,63,38,25,160,75,76,74,16,17,10,12,1.0,0.8
2022-08-21T10:00:00,1590A,110.0377,40.5546,包头市,东河鸿龙湾,颗粒物(PM10),56,62,66,34,24,156,68,75,66,15,19,5,12,1.0,0.8
2022-08-21T10:00:00,1591A,110.0023,39.8129,鄂尔多斯市,综合楼,颗粒物(PM10),58,65,67,32,25,150,86,101,86,19,16,7,11,0.9,0.8
2022-08-21T10:00:00,1592A,109.9486,39.8261,鄂尔多斯市,巴音孟克林场办事处,"颗粒物(PM10),细颗粒物(PM2.5)",64,78,83,46,34,141,73,94,77,20,17,6,9,1.4,1.2
2022-08-21T10:00:00,1593A,109.7736,39.5986,鄂尔多斯市,康泽苑,颗粒物(PM10),53,56,68,31,27,141,96,111,94,11,10,3,6,0.9,0.8
2022-08-21T10:00:00,1594A,109.8119,39.5989,鄂尔多斯市,华泰汽车城,"颗粒物(PM10),细颗粒物(PM2.5)",52,53,67,36,32,138,98,109,94,7,9,8,10,1.0,1
2022-08-21T10:00:00,1595A,109.9734,39.7884,鄂尔多斯市,奥林花园,颗粒物(PM10),65,80,81,39,33,142,81,91,78,19,18,8,10,1.3,1.1
2022-08-21T10:00:00,1596A,122.2414,40.6592,营口市,学府南路,,,,,,,,,,,,,,,,
2022-08-21T10:00:00,1597A,122.2703,40.7094,营口市,大庆路,,31,21,21,9,6,106,99,80,80,13,20,6,6,0.6,0.5
2022-08-21T10:00:00,1598A,122.215,40.6511,营口市,镜湖西路,,31,22,19,6,8,102,97,76,76,17,27,6,5,0.9,0.7
2022-08-21T10:00:00,1599A,122.167,40.6655,营口市,西炮台,,30,17,24,7,12,112,96,81,81,9,22,8,8,1.1,1
2022-08-21T10:00:00,1600A,124.3303,40.0625,丹东市,江湾东路,,26,21,15,18,9,80,61,35,35,9,16,11,10,0.7,0.6
2022-08-21T10:00:00,1601A,124.4256,40.1503,丹东市,临江后街,,,,,,,,,,,,,,,,
2022-08-21T10:00:00,1602A,124.3933,40.1461,丹东市,元宝山,,18,16,16,11,7,79,56,62,33,16,15,6,5,0.5,0.3
2022-08-21T10:00:00,1603A,124.3633,40.1092,丹东市,民主桥,,20,19,13,9,4,77,62,58,40,13,22,12,8,0.7,0.6
2022-08-21T10:00:00,1604A,122.0303,41.1489,盘锦市,开发区,,29,29,20,7,8,89,87,75,68,18,22,7,6,1.1,0.7
2022-08-21T10:00:00,1605A,122.0485,41.0883,盘锦市,兴隆台,,29,29,20,9,6,104,88,77,70,6,19,12,10,1.0,0.6
2022-08-21T10:00:00,1606A,121.8297,41.1028,盘锦市,新生街道,,,34,32,7,9,93,,84,78,18,27,10,7,0.8,0.5
2022-08-21T10:00:00,1607A,120.9092,40.7136,葫芦岛市,龙港区,,29,26,21,15,10,137,91,90,90,20,15,15,13,1.0,0.5
2022-08-21T10:00:00,1608A,120.8392,40.7514,葫芦岛市,化工街,,46,46,26,19,12,150,83,58,58,33,26,7,6,1.0,0.5
2022-08-21T10:00:00,1609A,120.8341,40.7073,葫芦岛市,新区,,30,28,23,8,9,149,95,73,73,24,20,12,10,1.1,0.7
2022-08-21T10:00:00,1610A,120.8695,40.7677,葫芦岛市,东城区,,38,38,33,9,9,137,78,63,63,34,28,10,10,0.8,0.4
2022-08-21T10:00:00,1611A,118.5819,24.9117,泉州市,涂山街,,48,48,38,21,11,97,87,27,27,15,22,10,18,0.6,0.5
2022-08-21T10:00:00,1612A,118.5972,24.8978,泉州市,津头埔,,42,42,34,22,11,83,79,22,22,22,27,14,15,0.5,0.4
2022-08-21T10:00:00,1613A,118.6663,24.9424,泉州市,万安,,41,41,33,24,11,107,79,20,20,14,20,8,12,0.6,0.6
2022-08-21T10:00:00,1614A,118.6117,24.9604,泉州市,清源山(对照点),,,,,,,,,,,,,,,,
2022-08-21T10:00:00,1616A,117.6795,36.229,济南市,技术学院,,33,31,26,15,12,136,104,52,50,21,24,9,6,0.8,0.6
2022-08-21T10:00:00,1618A,118.3429,35.0532,临沂市,沂河小区,,40,36,30,13,9,125,125,114,84,16,19,18,18,0.4,0.3
2022-08-21T10:00:00,1619A,118.295,35.0583,临沂市,鲁南制药厂,,41,34,24,13,7,133,131,123,90,18,20,21,14,0.6,0.6
2022-08-21T10:00:00,1620A,118.2794,34.9976,临沂市,新光毛纺厂,,38,31,27,15,9,126,121,96,85,23,22,14,11,0.5,0.4
2022-08-21T10:00:00,1621A,118.3956,35.0888,临沂市,河东保险公司,,46,31,30,16,11,145,145,86,48,13,25,10,6,0.6,0.6
2022-08-21T10:00:00,1622A,116.3032,37.4674,德州市,儿童乐园,颗粒物(PM10),53,55,33,27,14,131,122,116,80,23,22,18,12,0.5,0.3
2022-08-21T10:00:00,1624A,116.2991,37.4451,德州市,监理站,颗粒物(PM10),54,58,31,33,16,135,121,96,72,21,18,23,15,0.7,0.4
2022-08-21T10:00:00,1625A,115.9848,36.4372,聊城市,区政府,,40,40,39,20,12,154,121,73,73,8,24,8,10,0.7,0.7
2022-08-21T10:00:00,1628A,118.0062,37.3803,滨州市,市环保局,,50,50,28,19,14,121,106,44,44,28,26,15,14,0.7,0.5
2022-08-21T10:00:00,1629A,118.0018,37.3617,滨州市,第二水厂,,47,47,35,23,13,114,100,36,36,29,32,14,12,1.1,0.7
2022-08-21T10:00:00,1630A,117.9776,37.393,滨州市,北中新校,,45,45,26,18,10,122,105,45,45,27,23,15,12,0.8,0.5
2022-08-21T10:00:00,1631A,118.0414,36.8103,淄博市,人民公园,,39,39,42,20,18,126,102,29,29,23,31,14,14,0.7,0.9
2022-08-21T10:00:00,1632A,118.0253,36.8406,淄博市,东风化工厂,,,,,,,,,,,,,,,,
2022-08-21T10:00:00,1633A,117.8525,36.4847,淄博市,双山,,38,22,27,7,8,142,119,58,58,12,20,14,12,0.6,0.4
2022-08-21T10:00:00,1634A,117.9592,36.6331,淄博市,气象站,,36,36,30,17,11,150,112,74,74,19,20,15,14,0.4,0.3
2022-08-21T10:00:00,1635A,118.3092,36.8194,淄博市,莆田园,,44,44,36,19,14,119,103,49,49,23,29,15,11,1.5,1.5
2022-08-21T10:00:00,1636A,117.8661,36.805,淄博市,三金集团,,,,,,,,,,,,,,,,
2022-08-21T10:00:00,1637A,117.558,34.8438,枣庄市,市中区政府,,41,34,42,14,15,161,130,84,84,15,24,7,10,0.2,0.3
2022-08-21T10:00:00,1638A,117.2852,34.7837,枣庄市,薛城环保局,,37,37,44,9,14,139,108,90,85,14,24,13,17,0.4,0.4
2022-08-21T10:00:00,1639A,117.5852,34.7745,枣庄市,峄城区政府,,39,39,43,19,18,171,124,98,98,14,18,11,15,0.4,0.4
2022-08-21T10:00:00,1640A,117.7276,34.5578,枣庄市,台儿庄区环保局,,35,34,27,12,11,156,110,90,72,14,16,15,11,0.6,0.7
2022-08-21T10:00:00,1641A,117.4518,35.0992,枣庄市,山亭区环保局,,41,17,22,12,9,143,131,109,109,10,12,14,14,0.6,0.6
2022-08-21T10:00:00,1642A,121.2514,37.5639,烟台市,开发区,,41,41,30,7,7,120,71,37,26,21,19,11,10,0.6,0.6
2022-08-21T10:00:00,1643A,121.3719,37.5433,烟台市,轴承厂,,27,24,21,9,8,117,84,52,52,16,13,7,8,0.1,0.1
2022-08-21T10:00:00,1644A,121.3181,37.5436,烟台市,西郊化工站,,29,29,23,5,4,115,79,54,50,18,17,8,9,0.4,0.4
2022-08-21T10:00:00,1645A,121.4478,37.4822,烟台市,莱山环保局,,29,24,17,5,5,124,90,52,40,12,12,8,8,0.2,0.2
2022-08-21T10:00:00,1646A,121.2611,37.4967,烟台市,福山环保局,,31,31,30,5,6,110,76,26,26,22,22,6,6,0.1,0.1
2022-08-21T10:00:00,1648A,119.12,36.7019,潍坊市,仲裁委,,,,,,,,,,,,,,,,
2022-08-21T10:00:00,1650A,119.1437,36.7023,潍坊市,环保局,,39,39,23,11,11,100,91,31,31,19,21,6,4,0.4,0.3
2022-08-21T10:00:00,1652A,119.1936,36.7729,潍坊市,寒亭监测站,,,,,,,,,,,,,,,,
2022-08-21T10:00:00,1653A,116.6251,35.4302,济宁市,火炬城,,43,28,37,9,13,172,135,112,92,8,19,11,11,0.5,0.6
2022-08-21T10:00:00,1655A,116.5491,35.4042,济宁市,电化厂,,43,39,34,14,14,172,137,123,97,11,16,16,11,0.9,0.8
2022-08-21T10:00:00,1656A,117.1437,36.1937,泰安市,监测站,,39,39,31,22,13,153,108,78,65,16,13,14,10,0.6,0.5
2022-08-21T10:00:00,1657A,117.0885,36.2017,泰安市,人口学校,,39,39,23,19,8,127,106,92,72,16,11,14,9,0.4,0.2
2022-08-21T10:00:00,1658A,117.1089,36.1758,泰安市,电力学校,,48,48,34,14,12,148,102,78,48,16,15,12,9,0.5,0.4
2022-08-21T10:00:00,1659A,119.471,35.4209,日照市,监测站,,34,34,21,21,9,109,101,25,25,27,28,12,7,1.0,0.4
2022-08-21T10:00:00,1660A,119.523,35.4216,日照市,市政府广场,,48,48,18,26,7,118,116,76,51,36,22,29,6,2.7,0.4
2022-08-21T10:00:00,1661A,119.5587,35.4044,日照市,港务局,,,,19,,7,78,,80,,,18,,4,,0.3
2022-08-21T10:00:00,1662A,122.1214,37.4236,威海市,华夏技校,,30,17,18,9,11,129,96,61,61,7,8,6,6,0.2,0.2
2022-08-21T10:00:00,1663A,122.0508,37.5236,威海市,山大分校,,27,17,11,15,7,145,86,64,58,16,12,9,7,0.2,0.2
2022-08-21T10:00:00,1664A,122.1067,37.5072,威海市,市监测站,,24,20,20,15,9,136,75,60,46,18,11,7,6,0.3,0.3
2022-08-21T10:00:00,1665A,118.5019,37.4658,东营市,西城阳光环保公司,,,,,,,,,,,,,,,,
2022-08-21T10:00:00,1666A,118.6614,37.4309,东营市,市环保局,,38,31,16,14,6,119,119,66,66,19,15,14,11,0.5,0.3
2022-08-21T10:00:00,1669A,113.5824,24.7733,韶关市,市八中,,28,28,18,11,6,70,43,18,17,15,14,21,10,0.7,0.5
2022-08-21T10:00:00,1670A,113.5556,24.8082,韶关市,碧湖山庄,,,,,,,,,,,,,,,,
2022-08-21T10:00:00,1671A,113.5917,24.7972,韶关市,园林处,,45,45,22,18,8,67,35,15,13,12,12,20,13,0.8,0.6
2022-08-21T10:00:00,1672A,113.6735,24.7791,韶关市,韶关学院,,27,27,15,4,5,61,34,16,14,12,9,15,8,0.5,0.3
2022-08-21T10:00:00,1673A,113.5971,24.6863,韶关市,曲江监测站,,28,28,19,6,6,71,36,13,12,11,12,14,9,0.4,0.5
2022-08-21T10:00:00,1674A,116.6794,23.3667,汕头市,金平子站,,42,42,23,9,5,61,60,38,32,7,9,11,9,0.5,0.4
2022-08-21T10:00:00,1675A,116.7244,23.3633,汕头市,龙湖子站,,26,26,18,7,3,63,58,38,36,9,9,11,9,0.8,0.6
2022-08-21T10:00:00,1676A,116.7258,23.2775,汕头市,濠江子站,,,,16,,6,66,57,33,28,,9,11,10,0.7,0.6
2022-08-21T10:00:00,1677A,116.7519,23.4714,汕头市,澄海子站,,20,20,20,13,7,61,60,35,26,15,12,13,7,0.8,0.7
2022-08-21T10:00:00,1678A,116.6092,23.2539,汕头市,潮阳子站,,20,20,21,9,6,61,60,35,32,4,6,11,10,0.5,0.6
2022-08-21T10:00:00,1679A,116.4069,23.2533,汕头市,潮南子站,,,,,,,,,,,,,,,,
2022-08-21T10:00:00,1680A,110.3539,21.2706,湛江市,湛江影剧院,,14,13,12,7,4,59,43,47,45,11,6,5,5,0.4,0.4
2022-08-21T10:00:00,1681A,110.3928,21.2228,湛江市,市环境监测站,,18,18,12,11,4,58,44,49,46,9,6,5,5,0.4,0.4
2022-08-21T10:00:00,1682A,110.4019,21.1997,湛江市,环保局宿舍,,15,15,12,7,4,62,48,48,44,5,5,4,5,0.5,0.6
2022-08-21T10:00:00,1683A,110.4111,21.2028,湛江市,霞山游泳场,,20,20,10,7,5,61,52,52,50,4,4,5,5,0.4,0.4
2022-08-21T10:00:00,1684A,110.3316,21.2679,湛江市,麻章区环保局,,15,15,12,6,4,61,41,45,40,8,6,3,3,0.5,0.5
2022-08-21T10:00:00,1685A,110.4558,21.2567,湛江市,坡头区环保局,,17,16,14,9,5,56,54,50,49,4,4,5,5,0.5,0.5
2022-08-21T10:00:00,1686A,111.0286,21.4688,茂名市,电白南海,,29,29,18,12,4,55,51,50,45,4,10,4,4,0.4,0.4
2022-08-21T10:00:00,1687A,110.9294,21.6533,茂名市,茂石化七小,,12,12,11,7,4,51,36,37,35,8,6,5,5,0.8,0.6
2022-08-21T10:00:00,1688A,110.9107,21.6687,茂名市,健康路,,13,5,7,3,0,55,41,43,40,6,5,8,8,0.8,0.7
2022-08-21T10:00:00,1689A,110.8592,21.6828,茂名市,高岭,,20,9,7,14,9,58,48,42,41,11,8,11,11,0.6,0.5
2022-08-21T10:00:00,1690A,116.1231,24.3284,梅州市,梅江月梅,,23,23,18,9,8,70,57,17,17,7,9,4,4,0.3,0.3
2022-08-21T10:00:00,1691A,116.0797,24.2719,梅州市,梅县新城,,42,42,20,7,8,69,51,16,16,11,14,5,5,0.5,0.5
2022-08-21T10:00:00,1692A,116.1248,24.2654,梅州市,环境监控中心,,,33,18,10,5,65,,20,11,10,12,5,5,0.3,0.3
2022-08-21T10:00:00,1693A,115.3653,22.775,汕尾市,市环保局,,30,30,13,4,4,57,42,27,27,6,8,6,6,0.5,0.5
2022-08-21T10:00:00,1694A,115.3706,22.7898,汕尾市,市政府,,24,24,13,9,4,61,47,27,27,7,8,6,5,0.6,0.5
2022-08-21T10:00:00,1695A,115.3622,22.7925,汕尾市,新城中学,,22,22,16,4,5,63,45,33,32,6,4,6,6,0.5,0.5
2022-08-21T10:00:00,1696A,114.6778,23.7569,河源市,源西(对照点),,14,12,21,4,5,91,43,14,14,4,10,3,3,0.6,0.6
2022-08-21T10:00:00,1697A,114.6944,23.7586,河源市,东埔,,14,14,15,3,6,58,44,32,12,6,10,4,4,0.5,0.5
2022-08-21T10:00:00,1698A,114.6892,23.7233,河源市,老城,颗粒物(PM10),87,124,27,7,3,61,46,15,15,6,9,2,3,0.6,0.7
2022-08-21T10:00:00,1699A,111.9797,21.8593,阳江市,鸳鸯湖(对照点),,,,,,,,,,,,,,,,
2022-08-21T10:00:00,1700A,111.9508,21.8536,阳江市,南恩路,,,,,,,,,,,,,,,,
2022-08-21T10:00:00,1701A,111.9491,21.8658,阳江市,马南垌,,11,11,11,3,4,54,32,34,31,10,6,5,5,0.7,0.4
2022-08-21T10:00:00,1702A,113.0426,23.691,清远市,环保大楼(对照点),,15,15,13,5,6,108,43,42,30,8,10,5,4,0.4,0.4
2022-08-21T10:00:00,1703A,113.0208,23.7106,清远市,凤城街办,,13,13,14,6,6,90,33,33,23,9,11,5,5,0.6,0.6
2022-08-21T10:00:00,1705A,116.6367,23.6719,潮州市,西园路(对照点),,23,23,21,6,7,70,50,20,20,8,8,5,5,0.9,0.8
2022-08-21T10:00:00,1706A,116.6447,23.6706,潮州市,档案局,,23,23,21,8,9,73,52,19,19,6,10,7,7,0.6,0.7
2022-08-21T10:00:00,1708A,116.3701,23.5345,揭阳市,新兴,,31,31,22,9,8,63,58,20,20,2,7,6,6,0.6,0.6
2022-08-21T10:00:00,1709A,116.3264,23.5443,揭阳市,西马,,22,22,24,8,9,64,47,19,15,5,7,6,5,0.5,0.5
2022-08-21T10:00:00,1710A,116.3611,23.5626,揭阳市,东兴,,26,26,29,7,7,63,51,22,18,6,9,6,5,0.6,0.6
2022-08-21T10:00:00,1711A,116.4151,23.5294,揭阳市,渔湖,,34,34,24,9,10,61,54,20,20,5,8,5,4,0.5,0.5
2022-08-21T10:00:00,1712A,112.0392,22.9169,云浮市,新市府(对照点),,,,,,,,,,,,,,,,
2022-08-21T10:00:00,1713A,112.0369,22.9394,云浮市,市监测站,,,,,,,,,,,,,,,,
2022-08-21T10:00:00,1714A,112.0539,22.9539,云浮市,牧羊,,18,18,16,5,3,61,25,36,24,14,10,9,7,0.5,0.6
2022-08-21T10:00:00,1715A,102.575,24.3711,玉溪市,东风水库,,24,24,22,9,12,104,52,34,21,10,14,5,4,0.8,0.7
2022-08-21T10:00:00,1718A,115.4208,35.2464,菏泽市,气象局,,46,46,43,27,21,165,119,112,99,10,15,6,8,0.5,0.5
2022-08-21T10:00:00,1719A,115.4747,35.2375,菏泽市,市政协,颗粒物(PM10),53,55,50,16,15,168,124,104,95,11,16,6,8,0.4,0.4
2022-08-21T10:00:00,1720A,115.455,35.27,菏泽市,菏泽学院,,,,,,,,,,,,,,,,
2022-08-21T10:00:00,1721A,113.3819,40.1097,大同市,果树场(对照点),,,,,,,,,,,,,,,,
2022-08-21T10:00:00,1723A,113.2994,40.0758,大同市,云冈宾馆,颗粒物(PM10),69,88,58,22,15,118,62,49,49,38,33,15,16,0.9,0.6
2022-08-21T10:00:00,1724A,113.3444,40.0917,大同市,大同大学,,48,48,39,20,11,125,81,65,65,17,17,7,7,0.7,0.6
2022-08-21T10:00:00,1725A,113.2661,40.1269,大同市,安家小村,颗粒物(PM10),66,81,64,24,15,132,82,47,47,27,29,19,16,0.8,0.5
2022-08-21T10:00:00,1726A,113.2711,40.0844,大同市,教育学院,颗粒物(PM10),61,72,53,15,16,119,76,87,59,26,23,20,23,0.8,0.6
2022-08-21T10:00:00,1727A,113.1147,36.1547,长治市,清华站,,42,42,27,24,13,114,114,104,104,10,12,9,9,0.7,0.8
2022-08-21T10:00:00,1728A,113.1031,36.1989,长治市,监测站,,43,43,27,29,14,119,119,112,112,10,12,10,9,0.9,0.9
2022-08-21T10:00:00,1730A,113.0886,36.2125,长治市,审计局,,46,46,25,29,12,129,129,119,119,12,11,9,9,1.0,1.1
2022-08-21T10:00:00,1731A,113.0844,36.1856,长治市,长治八中,细颗粒物(PM2.5),52,51,28,36,13,113,113,101,101,13,15,8,8,0.7,0.7
2022-08-21T10:00:00,1733A,111.5531,36.0783,临汾市,临钢医院,,36,31,26,18,13,119,113,91,86,13,22,3,3,0.7,0.7
2022-08-21T10:00:00,1734A,111.5028,36.0714,临汾市,技工学校,,43,37,28,30,16,125,115,95,95,15,21,4,6,0.7,0.8
2022-08-21T10:00:00,1735A,111.5169,36.0822,临汾市,工商学校,,,,,,,,,,,,,,,,
2022-08-21T10:00:00,1736A,111.5018,36.0855,临汾市,市委,,46,46,35,31,17,126,113,91,91,12,19,4,5,0.5,0.5
2022-08-21T10:00:00,1738A,113.5758,37.8572,阳泉市,市中心,颗粒物(PM10),59,68,54,17,14,168,82,81,28,26,25,12,16,1.0,0.8
2022-08-21T10:00:00,1739A,113.4894,37.8731,阳泉市,赛鱼,,40,40,46,6,12,154,75,41,24,21,19,7,11,0.8,0.7
2022-08-21T10:00:00,1740A,113.5819,37.8486,阳泉市,南庄,颗粒物(PM10),61,71,55,22,17,164,86,68,45,24,19,23,18,1.1,0.9
2022-08-21T10:00:00,1741A,113.6292,37.8531,阳泉市,白羊墅,,,,,,,,,,,,,,,,
2022-08-21T10:00:00,1742A,113.5614,37.8703,阳泉市,平坦,颗粒物(PM10),53,56,56,5,9,165,83,99,25,25,30,12,19,1.2,1
2022-08-21T10:00:00,1743A,113.5158,37.8392,阳泉市,大阳泉,,32,30,37,9,15,156,100,108,78,11,16,7,13,0.8,0.8
2022-08-21T10:00:00,1744A,118.9233,42.2816,赤峰市,松山一中,,36,36,30,8,7,129,100,129,107,21,17,11,10,0.5,0.4
2022-08-21T10:00:00,1745A,118.9576,42.2728,赤峰市,哈达街,,33,32,20,10,7,134,104,134,113,22,15,10,10,0.4,0.3
2022-08-21T10:00:00,1746A,118.8788,42.2554,赤峰市,天义路,,32,28,17,3,6,131,101,128,108,18,14,10,11,0.4,0.3
2022-08-21T10:00:00,1748A,123.044,41.1196,鞍山市,深沟寺,,32,25,17,15,9,102,102,90,90,14,12,10,8,0.7,0.4
2022-08-21T10:00:00,1749A,123.011,41.0931,鞍山市,太阳城,,29,27,19,20,7,90,88,83,83,17,15,10,8,1.3,0.7
2022-08-21T10:00:00,1750A,123.0485,41.1442,鞍山市,太平,,37,37,21,13,9,94,94,81,81,17,18,11,9,1.1,0.8
2022-08-21T10:00:00,1751A,122.9642,41.0971,鞍山市,铁西三道街,,49,49,38,18,12,93,92,72,72,16,27,11,15,1.0,1.1
2022-08-21T10:00:00,1752A,122.9341,41.0833,鞍山市,铁西工业园区,,37,37,34,16,12,94,93,82,82,15,27,11,9,1.1,0.9
2022-08-21T10:00:00,1753A,123.022,41.0821,鞍山市,明达新区,,31,27,19,10,7,97,97,89,89,16,16,10,8,0.8,0.6
2022-08-21T10:00:00,1754A,123.1289,41.0228,鞍山市,千山(对照点),,,,,,,,,,,,,,,,
2022-08-21T10:00:00,1755A,123.7977,41.8491,抚顺市,望花区,,49,49,40,12,14,96,95,37,37,26,25,14,7,0.9,0.6
2022-08-21T10:00:00,1756A,123.9161,41.8822,抚顺市,顺城区,颗粒物(PM10),56,61,28,9,10,108,108,30,30,17,18,13,10,0.8,0.5
2022-08-21T10:00:00,1757A,124.0436,41.8611,抚顺市,东洲区,,37,35,21,8,7,117,117,51,51,11,10,12,9,0.7,0.5
2022-08-21T10:00:00,1758A,123.9247,41.8642,抚顺市,新抚区,,46,46,33,8,11,110,110,30,30,17,22,8,6,0.7,0.4
2022-08-21T10:00:00,1759A,124.0972,41.8961,抚顺市,大伙房水库,,37,22,18,7,6,116,116,40,40,11,11,9,6,0.6,0.4
2022-08-21T10:00:00,1760A,123.7086,41.8391,抚顺市,沈抚新城,颗粒物(PM10),53,56,33,11,11,101,100,47,47,17,22,12,7,0.9,0.5
2022-08-21T10:00:00,1761A,123.8275,41.3064,本溪市,大峪,,30,26,20,12,8,118,94,34,29,20,16,7,6,0.8,0.6
2022-08-21T10:00:00,1762A,123.7567,41.3325,本溪市,溪湖,,39,39,40,9,13,127,75,18,18,23,25,12,9,0.9,1
2022-08-21T10:00:00,1763A,123.7169,41.3094,本溪市,彩屯,颗粒物(PM10),52,54,44,20,23,120,65,16,16,44,26,45,12,2.5,1.3
2022-08-21T10:00:00,1764A,123.7669,41.2864,本溪市,东明,,34,34,32,9,14,130,102,33,33,14,24,7,7,0.5,0.5
2022-08-21T10:00:00,1765A,123.7992,41.2664,本溪市,新立屯,,33,22,22,8,11,128,103,36,33,10,19,6,6,0.6,0.5
2022-08-21T10:00:00,1766A,123.8142,41.3472,本溪市,威宁,,37,37,25,9,8,113,43,16,16,17,17,14,10,0.8,0.6
2022-08-21T10:00:00,1767A,121.1115,41.0879,锦州市,南山,,35,35,23,13,10,103,102,70,70,18,25,6,9,0.7,0.4
2022-08-21T10:00:00,1768A,121.0533,40.8434,锦州市,开发区,颗粒物(PM10),65,79,34,9,11,117,102,82,78,25,21,48,14,1.4,0.8
2022-08-21T10:00:00,1769A,121.1836,41.1119,锦州市,百股街道,,34,34,21,12,9,112,108,87,87,21,16,6,7,0.8,0.5
2022-08-21T10:00:00,1770A,121.1178,41.1222,锦州市,天安街道,,34,27,26,9,10,108,108,62,62,17,24,10,14,1.1,0.7
2022-08-21T10:00:00,1771A,121.1303,41.1386,锦州市,北湖公园,,37,37,22,11,10,104,104,69,69,15,20,7,10,0.7,0.5
2022-08-21T10:00:00,1772A,126.54,43.8622,吉林市,哈达湾,,22,11,13,4,6,81,68,44,44,7,10,5,5,0.4,0.4
2022-08-21T10:00:00,1773A,126.5844,43.8358,吉林市,东局子,,22,12,15,4,6,83,68,47,47,7,12,5,5,0.5,0.5
2022-08-21T10:00:00,1774A,126.5052,43.8245,吉林市,电力学院,,22,11,17,5,8,86,69,41,41,8,13,7,7,0.5,0.5
2022-08-21T10:00:00,1775A,126.6133,43.8972,吉林市,江北,,22,6,15,3,7,79,70,46,40,6,12,5,6,0.6,0.6
2022-08-21T10:00:00,1776A,126.555,43.8306,吉林市,江南公园,,22,14,16,8,6,81,68,46,46,10,14,4,4,0.6,0.6
2022-08-21T10:00:00,1778A,126.7061,43.7133,吉林市,丰满(对照点),,,,,,,,,,,,,,,,
2022-08-21T10:00:00,1779A,123.9305,47.3636,齐齐哈尔市,安居小区,,16,11,19,11,6,64,39,60,46,8,10,5,5,0.4,0.4
2022-08-21T10:00:00,1780A,123.9488,47.3386,齐齐哈尔市,中心广场,,22,22,13,2,3,67,43,64,51,8,9,4,4,0.2,0.2
2022-08-21T10:00:00,1781A,123.9483,47.3227,齐齐哈尔市,农牧车辆厂,,29,29,26,2,3,62,42,59,46,7,8,4,4,0.3,0.3
2022-08-21T10:00:00,1783A,123.945,47.2988,齐齐哈尔市,市环境监测站,,,24,14,6,6,65,45,62,47,9,8,,1,0.3,0.2
2022-08-21T10:00:00,1784A,129.61,44.561,牡丹江市,环保大楼,,21,8,14,4,8,73,67,36,36,7,9,5,5,0.2,0.2
2022-08-21T10:00:00,1785A,129.6115,44.5782,牡丹江市,文化广场,,21,15,18,6,9,73,67,37,37,7,11,2,2,0.3,0.3
2022-08-21T10:00:00,1786A,129.5904,44.5963,牡丹江市,第一医院,,19,10,14,4,9,70,59,30,30,8,10,4,4,0.5,0.5
2022-08-21T10:00:00,1787A,129.6364,44.6075,牡丹江市,机车工厂,,21,12,22,6,7,72,67,35,35,7,12,4,4,0.2,0.2
2022-08-21T10:00:00,1788A,129.6386,44.5462,牡丹江市,第一中学,,,5,20,6,11,76,76,39,39,,11,4,4,0.4,0.2
2022-08-21T10:00:00,1789A,124.81117,46.03138,大庆市,大同区,,14,14,13,2,5,71,41,58,43,6,9,5,4,0.2,0.2
2022-08-21T10:00:00,1790A,125.129,46.533,大庆市,龙凤区,,20,16,19,6,9,74,64,62,62,8,15,2,2,0.3,0.4
2022-08-21T10:00:00,1791A,124.902,46.408,大庆市,红岗区,,19,10,12,6,7,67,60,52,52,8,9,3,4,0.3,0.3
2022-08-21T10:00:00,1792A,125.153,46.586,大庆市,萨尔图区,,23,12,18,3,7,81,73,64,64,8,14,6,5,0.2,0.2
2022-08-21T10:00:00,1793A,124.9042,46.6215,大庆市,让胡路区,,23,12,14,5,8,73,73,59,59,4,10,1,2,0.3,0.2
2022-08-21T10:00:00,1794A,118.3606,31.3519,芜湖市,监测站,,41,41,41,23,24,156,104,76,58,16,21,4,4,0.8,0.7
2022-08-21T10:00:00,1795A,118.3714,31.4134,芜湖市,科创中心,,49,49,37,27,25,134,119,74,61,15,17,9,8,0.9,0.7
2022-08-21T10:00:00,1796A,118.3673,31.3131,芜湖市,四水厂,颗粒物(PM10),51,51,37,28,24,160,105,74,57,14,22,4,4,0.8,0.7
2022-08-21T10:00:00,1797A,118.4022,31.3839,芜湖市,济民医院(对照点),,,,,,,,,,,,,,,,
2022-08-21T10:00:00,1798A,118.5092,31.6837,马鞍山市,湖东路四小,,39,39,36,16,18,172,123,71,64,14,16,3,4,1.0,0.9
2022-08-21T10:00:00,1799A,118.5024,31.6449,马鞍山市,开发区,,46,39,45,32,29,178,116,60,54,13,18,6,7,1.1,1
2022-08-21T10:00:00,1800A,118.5228,31.7231,马鞍山市,慈湖,,38,36,40,25,26,160,120,66,61,14,18,5,7,1.0,1
2022-08-21T10:00:00,1801A,118.48,31.6928,马鞍山市,马钢动力厂,,,,,,,,,,,,,,,,
2022-08-21T10:00:00,1802A,118.6245,31.7241,马鞍山市,濮塘(对照点),,36,36,37,24,19,178,109,61,59,8,9,6,5,0.9,0.8
2022-08-21T10:00:00,1803A,115.9872,29.6815,九江市,十里,,26,25,20,9,10,120,83,50,50,10,11,8,8,0.6,0.7
2022-08-21T10:00:00,1804A,115.9584,29.7046,九江市,茅山头,,24,17,17,10,8,109,74,51,50,9,8,6,6,0.6,0.6
2022-08-21T10:00:00,1805A,115.9877,29.7295,九江市,西园,,26,20,20,8,6,116,82,49,49,13,17,12,12,0.7,0.7
2022-08-21T10:00:00,1806A,116.0172,29.6547,九江市,五七二七厂,,31,21,15,9,5,123,97,49,49,11,8,10,6,0.5,0.5
2022-08-21T10:00:00,1808A,115.9114,29.6038,九江市,综合工业园,,22,22,17,5,7,112,70,56,44,12,8,8,7,0.8,0.6
2022-08-21T10:00:00,1809A,116.0721,29.7535,九江市,石化总厂,,27,18,25,4,8,121,86,43,40,12,15,13,15,0.7,0.7
2022-08-21T10:00:00,1810A,115.9773,29.5698,九江市,庐山气象台(对照点),,19,6,9,5,6,118,60,56,56,3,4,1,7,0.5,0.4
2022-08-21T10:00:00,1811A,112.3628,34.6692,洛阳市,中信二小,,,,,,,,,,,,,,,,
2022-08-21T10:00:00,1812A,112.3931,34.6516,洛阳市,市委党校,颗粒物(PM10),60,69,51,31,20,178,125,113,90,15,11,13,9,0.9,0.7
2022-08-21T10:00:00,1814A,112.4657,34.6871,洛阳市,豫西宾馆,细颗粒物(PM2.5),62,60,52,44,25,164,100,93,71,20,17,13,8,0.7,0.5
2022-08-21T10:00:00,1815A,112.494,34.6886,洛阳市,河南林校,颗粒物(PM10),59,68,48,29,19,167,109,96,76,14,10,9,6,0.8,0.5
2022-08-21T10:00:00,1816A,112.3844,34.623,洛阳市,开发区管委会,颗粒物(PM10),59,67,51,39,23,174,118,107,84,13,8,7,3,0.8,0.6
2022-08-21T10:00:00,1817A,112.4267,34.6258,洛阳市,市委新办公区,颗粒物(PM10),65,80,54,40,24,157,105,93,72,16,11,16,10,1.0,0.7
2022-08-21T10:00:00,1818A,114.4839,36.0621,安阳市,棉研所(对照点),,,,,,,,,,,,,,,,
2022-08-21T10:00:00,1819A,114.3551,36.1017,安阳市,红庙街,颗粒物(PM10),54,58,50,23,19,131,115,68,68,22,29,11,13,0.8,0.8
2022-08-21T10:00:00,1820A,114.361,36.0681,安阳市,银杏小区,,,,51,26,26,133,110,52,52,14,34,,12,0.6,0.7
2022-08-21T10:00:00,1824A,114.3389,34.7781,开封市,肿瘤医院,颗粒物(PM10),53,56,46,23,19,170,104,80,80,11,13,4,4,0.7,0.6
2022-08-21T10:00:00,1826A,114.2885,34.7965,开封市,世纪星幼儿园,颗粒物(PM10),55,59,52,29,23,159,104,84,84,14,16,5,5,0.6,0.6
2022-08-21T10:00:00,1828A,113.227,35.2125,焦作市,市环保局,,,49,41,29,13,165,88,78,78,,12,15,8,0.6,0.6
2022-08-21T10:00:00,1829A,113.2464,35.1764,焦作市,高新区政府（停运20220628）,,,,,,,,,,,,,,,,
2022-08-21T10:00:00,1830A,113.1992,35.2590,焦作市,影视城(对照点),,,,,,,,,,,,,,,,
2022-08-21T10:00:00,1832A,113.3257,33.742,平顶山市,新华旅馆,颗粒物(PM10),55,60,51,38,30,172,90,94,74,14,15,6,23,0.5,0.4
2022-08-21T10:00:00,1833A,113.2919,33.737,平顶山市,规划设计院,颗粒物(PM10),61,72,58,34,25,166,94,89,75,16,16,9,17,0.5,0.4
2022-08-21T10:00:00,1834A,113.182,33.774,平顶山市,平顶山工学院,颗粒物(PM10),55,60,60,36,29,176,102,105,75,14,17,6,8,0.6,0.5
2022-08-21T10:00:00,1835A,111.1922,34.7752,三门峡市,市政府,细颗粒物(PM2.5),58,63,49,41,27,157,106,133,107,10,10,4,6,0.9,0.8
2022-08-21T10:00:00,1836A,111.1587,34.7942,三门峡市,开发区,颗粒物(PM10),62,73,55,33,22,162,116,142,117,10,10,4,5,0.6,0.5
2022-08-21T10:00:00,1838A,111.143,34.7955,三门峡市,风景区(对照点),,,,,,,,,,,,,,,,
2022-08-21T10:00:00,1839A,111.3009,30.7157,宜昌市,四零三,,,,,,,,,,,,,,,,
2022-08-21T10:00:00,1840A,111.2992,30.6981,宜昌市,白龙岗,,36,36,30,19,16,161,78,44,43,27,18,5,5,0.9,0.8
2022-08-21T10:00:00,1841A,111.3549,30.6465,宜昌市,伍家岗,,42,42,33,22,20,143,96,42,42,20,22,6,6,0.8,0.7
2022-08-21T10:00:00,1842A,111.2628,30.6961,宜昌市,点军区,,,,25,,14,107,,96,,,,,3,,0.2
2022-08-21T10:00:00,1843A,111.3275,30.7819,宜昌市,夷陵区,,39,39,32,22,15,164,107,64,53,17,16,7,5,0.5,0.5
2022-08-21T10:00:00,1844A,112.2494,30.3197,荆州市,市图书馆,,33,33,32,13,18,161,80,93,53,9,13,11,10,0.7,0.6
2022-08-21T10:00:00,1845A,112.2008,30.3544,荆州市,市委党校,,38,38,37,13,18,154,79,92,56,10,14,10,10,0.6,0.6
2022-08-21T10:00:00,1847A,113.1094,29.3578,岳阳市,南湖风景区,,26,16,18,8,16,140,82,68,56,8,9,6,6,0.5,0.5
2022-08-21T10:00:00,1848A,113.1493,29.4251,岳阳市,城陵矶,,26,21,24,11,13,131,83,68,56,6,16,17,14,0.6,0.5
2022-08-21T10:00:00,1849A,113.1497,29.3575,岳阳市,开发区,,26,19,18,9,16,145,83,56,52,6,11,8,8,0.4,0.4
2022-08-21T10:00:00,1850A,113.2621,29.4758,岳阳市,云溪区,,26,18,21,8,13,136,82,69,59,6,8,9,10,0.8,0.8
2022-08-21T10:00:00,1851A,112.9943,29.4402,岳阳市,君山区,,25,25,21,11,13,131,79,52,50,5,9,10,11,0.5,0.6
2022-08-21T10:00:00,1852A,113.2117,29.355,岳阳市,金凤水库(对照点),,25,14,20,7,12,125,78,48,48,5,9,5,4,0.1,0.1
2022-08-21T10:00:00,1854A,111.6975,28.9703,常德市,市二中,,22,16,23,9,11,119,70,66,55,7,10,8,7,0.4,0.4
2022-08-21T10:00:00,1857A,111.7158,29.1456,常德市,白鹤山(对照点),,27,25,22,12,12,149,86,56,52,4,5,6,4,0.4,0.4
2022-08-21T10:00:00,1858A,110.5319,29.1217,张家界市,永定新区,,35,35,21,14,10,117,93,60,54,15,9,4,3,0.3,0.2
2022-08-21T10:00:00,1859A,110.4697,29.1242,张家界市,电业局,,35,35,22,12,7,126,94,81,58,13,7,5,4,0.4,0.3
2022-08-21T10:00:00,1860A,110.5594,29.3547,张家界市,未央路,,23,17,16,8,10,95,71,44,42,11,7,4,3,0.2,0.2
2022-08-21T10:00:00,1861A,110.4417,29.315,张家界市,袁家界(对照点),,29,16,15,10,8,140,92,107,80,5,6,8,8,0.6,0.6
2022-08-21T10:00:00,1862A,110.4144,25.3167,桂林市,电子科大尧山校区(对照点),,19,7,16,6,11,86,59,39,30,4,6,15,14,0.5,0.4
2022-08-21T10:00:00,1863A,110.2819,25.2697,桂林市,监测站,,20,16,14,3,7,94,61,53,50,4,5,6,5,0.5,0.5
2022-08-21T10:00:00,1864A,110.3089,25.2708,桂林市,龙隐路小学,,19,12,12,6,9,90,58,51,48,6,6,10,7,0.9,0.5
2022-08-21T10:00:00,1865A,110.2869,25.2178,桂林市,八中,,23,23,12,3,5,83,56,45,44,6,7,7,6,0.5,0.5
2022-08-21T10:00:00,1866A,109.2262,21.588,北海市,牛尾岭水库(对照点),,18,18,14,5,6,58,30,35,27,7,7,8,6,0.5,0.5
2022-08-21T10:00:00,1867A,109.1436,21.4086,北海市,海滩公园,,16,14,9,7,2,64,49,46,46,2,2,4,4,0.5,0.5
2022-08-21T10:00:00,1868A,109.0981,21.4661,北海市,新市环保局,,20,20,10,5,4,65,30,43,39,9,5,5,4,0.7,0.6
2022-08-21T10:00:00,1869A,109.1778,21.5233,北海市,北海工业园,,24,24,16,7,7,59,28,43,27,8,8,8,6,0.6,0.6
2022-08-21T10:00:00,1870A,109.4856,24.3895,柳州市,柳东小学,,15,13,12,7,9,84,46,48,40,5,6,5,4,0.5,0.5
2022-08-21T10:00:00,1871A,109.4157,24.3277,柳州市,环保监测站,,14,8,11,5,9,98,43,41,39,6,8,5,5,0.6,0.6
2022-08-21T10:00:00,1872A,109.389,24.341,柳州市,河西水厂,,14,9,13,3,7,109,42,40,36,8,11,9,9,0.9,0.8
2022-08-21T10:00:00,1873A,109.4311,24.2921,柳州市,市四中,,12,12,17,4,7,92,38,40,34,9,8,6,6,0.5,0.6
2022-08-21T10:00:00,1874A,109.4006,24.3631,柳州市,市九中,,19,19,14,0,7,107,44,44,42,7,7,6,6,0.6,0.7
2022-08-21T10:00:00,1875A,109.4958,24.3134,柳州市,古亭山,,13,11,13,2,6,79,39,26,26,6,10,5,5,0.4,0.4
2022-08-21T10:00:00,1876A,109.5078,18.2489,三亚市,河东子站,,20,20,11,8,6,53,37,47,47,2,4,2,2,0.4,0.4
2022-08-21T10:00:00,1877A,109.4964,18.2681,三亚市,河西子站,,17,17,9,6,3,54,37,46,46,2,3,1,1,0.5,0.5
2022-08-21T10:00:00,1878A,104.7778,31.4741,绵阳市,富乐山,,43,43,38,30,26,187,100,131,78,13,12,4,3,0.4,0.4
2022-08-21T10:00:00,1879A,104.7563,31.4535,绵阳市,市人大,细颗粒物(PM2.5),55,40,42,39,28,169,88,105,76,13,18,5,6,0.4,0.5
2022-08-21T10:00:00,1880A,104.6697,31.4668,绵阳市,高新区自来水公司,,42,42,54,28,33,212,105,97,90,14,21,8,6,0.6,0.7
2022-08-21T10:00:00,1881A,104.7287,31.5075,绵阳市,三水厂,,46,41,34,32,30,194,93,100,87,20,25,1,2,0.7,0.7
2022-08-21T10:00:00,1882A,104.563,28.793,宜宾市,石马中学(对照点),,27,27,42,17,27,183,85,46,46,10,20,11,8,0.5,0.6
2022-08-21T10:00:00,1883A,104.6201,28.7728,宜宾市,市委,,40,40,42,22,26,158,62,30,30,34,29,14,9,0.6,0.6
2022-08-21T10:00:00,1884A,104.6055,28.793,宜宾市,宜宾四中,,,35,43,22,24,195,85,46,46,,24,13,10,,0.6
2022-08-21T10:00:00,1885A,104.639,28.7562,宜宾市,市政府,,48,48,44,25,23,184,69,63,42,36,30,17,11,0.6,0.5
2022-08-21T10:00:00,1886A,104.5742,28.7199,宜宾市,黄金嘴,,35,35,44,22,27,180,89,43,43,16,22,14,11,0.4,0.4
2022-08-21T10:00:00,1888A,101.6891,26.571,攀枝花市,弄弄坪,颗粒物(PM10),56,61,86,12,28,174,77,85,76,11,23,5,10,1.0,2
2022-08-21T10:00:00,1889A,101.5769,26.5928,攀枝花市,河门口,,22,14,28,10,18,151,69,72,72,14,13,6,8,0.9,1.1
2022-08-21T10:00:00,1890A,101.7169,26.585,攀枝花市,炳草岗,,23,23,38,10,26,176,72,65,65,18,27,11,15,0.9,1.3
2022-08-21T10:00:00,1891A,101.7369,26.5008,攀枝花市,仁和,颗粒物(PM10),51,51,50,30,32,201,46,89,53,46,18,18,15,4.0,2
2022-08-21T10:00:00,1893A,105.4324,28.9634,泸州市,九狮山(对照点),,22,22,22,15,13,142,59,46,34,17,20,6,5,0.3,0.3
2022-08-21T10:00:00,1894A,105.4427,28.9063,泸州市,小市上码头,,24,23,25,15,16,165,76,79,54,18,15,7,6,0.5,0.5
2022-08-21T10:00:00,1895A,105.4241,28.8573,泸州市,兰田宪桥,,22,19,24,7,13,155,69,62,41,7,13,8,8,0.5,0.5
2022-08-21T10:00:00,1896A,105.4379,28.8833,泸州市,市环监站,,23,22,22,12,15,162,71,79,56,10,9,4,4,0.4,0.4
2022-08-21T10:00:00,1897A,104.7547,29.3628,自贡市,大塘山(对照点),,,,,,,,,,,,,,,,
2022-08-21T10:00:00,1900A,104.7692,29.3411,自贡市,春华路,,,,,,,,,,,,,,,,
2022-08-21T10:00:00,1901A,104.4239,31.1208,德阳市,东山公园,颗粒物(PM10),54,57,51,31,25,259,110,122,82,18,14,6,4,0.6,0.6
2022-08-21T10:00:00,1902A,104.3826,31.1317,德阳市,西小区,颗粒物(PM10),60,69,56,31,25,248,101,71,55,22,20,8,8,0.6,0.6
2022-08-21T10:00:00,1903A,104.4053,31.1167,德阳市,市检察院,,,,,,,,,,,,,,,,
2022-08-21T10:00:00,1904A,104.3553,31.1091,德阳市,耐火材料厂,颗粒物(PM10),55,59,60,31,25,284,97,54,46,26,22,8,7,0.7,0.7
2022-08-21T10:00:00,1905A,106.056,30.8064,南充市,西山风景区(对照点),,39,39,39,22,28,115,86,73,66,16,15,1,2,0.9,0.9
2022-08-21T10:00:00,1906A,106.0789,30.8023,南充市,南充市委,,37,37,51,15,26,155,83,64,64,12,16,3,3,0.4,0.5
2022-08-21T10:00:00,1907A,106.1031,30.8217,南充市,南充炼油厂,,,,53,,30,117,,109,,,10,,5,,0.4
2022-08-21T10:00:00,1908A,106.1064,30.7856,南充市,高坪区监测站,,41,41,42,24,27,165,74,65,56,5,9,1,2,0.3,0.4
2022-08-21T10:00:00,1909A,106.0642,30.7636,南充市,嘉陵区环保局,,40,40,46,14,27,167,78,63,60,5,10,5,6,0.4,0.5
2022-08-21T10:00:00,1910A,106.1087,30.8388,南充市,市环境监测站,,35,35,47,21,32,148,85,69,66,8,11,4,3,0.3,0.4
2022-08-21T10:00:00,1911A,106.9222,27.6869,遵义市,丁字口,,25,25,22,13,17,109,73,67,62,5,6,10,8,0.7,0.6
2022-08-21T10:00:00,1912A,106.9242,27.7019,遵义市,凤凰山,,23,17,21,7,14,109,71,71,61,8,8,4,4,0.5,0.5
2022-08-21T10:00:00,1913A,106.8906,27.6486,遵义市,忠庄,,20,18,24,8,10,106,64,64,48,8,10,6,4,0.3,0.3
2022-08-21T10:00:00,1914A,106.9231,27.6506,遵义市,舟水桥,,25,25,20,8,8,104,65,46,46,7,11,5,2,0.4,0.4
2022-08-21T10:00:00,1915A,106.9178,27.72,遵义市,干田坝,,23,14,16,11,14,112,73,66,59,6,7,7,6,0.6,0.6
2022-08-21T10:00:00,1916A,103.7897,25.5035,曲靖市,环境监测站,,19,13,30,13,18,107,54,44,32,10,15,6,5,0.4,0.6
2022-08-21T10:00:00,1917A,103.8,25.5364,曲靖市,烟厂办公区,,,,29,,17,134,,47,25,,12,,6,,0.6
2022-08-21T10:00:00,1918A,108.7197,34.3956,咸阳市,气象站(对照点),颗粒物(PM10),58,65,65,26,28,161,110,94,94,16,16,7,6,0.9,0.7
2022-08-21T10:00:00,1919A,108.673,34.3155,咸阳市,实验中学,颗粒物(PM10),53,55,58,28,29,194,119,94,94,16,18,11,7,0.8,0.6
2022-08-21T10:00:00,1920A,108.7233,34.3617,咸阳市,师范学院,,50,50,57,26,28,180,117,94,94,13,16,11,9,0.9,0.8
2022-08-21T10:00:00,1922A,109.0656,35.0994,铜川市,党校(对照点),,31,31,45,19,27,115,81,86,82,9,10,5,4,0.9,0.9
2022-08-21T10:00:00,1923A,109.0697,35.0697,铜川市,王益区政府,,39,39,47,19,27,147,98,99,86,6,7,4,4,0.6,0.7
2022-08-21T10:00:00,1924A,108.9344,34.9058,铜川市,新区管委会,颗粒物(PM10),53,56,56,25,29,163,108,94,88,19,15,6,6,0.8,0.8
2022-08-21T10:00:00,1925A,108.9589,34.8731,铜川市,新区兰芝公司,,,,,,,,,,,,,,,,
2022-08-21T10:00:00,1926A,109.4131,36.6275,延安市,枣园(对照点),,41,41,60,22,32,123,84,52,36,13,15,4,4,0.9,0.9
2022-08-21T10:00:00,1927A,109.4761,36.6028,延安市,延大医附院,,,36,64,21,41,121,90,58,54,10,13,4,4,,0.8
2022-08-21T10:00:00,1928A,109.4824,36.5767,延安市,市监测站,,,,,,,,,,,,,,,,
2022-08-21T10:00:00,1929A,109.5056,36.6106,延安市,百米大道,,39,39,69,22,36,111,85,47,39,19,22,5,4,0.9,0.9
2022-08-21T10:00:00,1930A,107.185,34.3063,宝鸡市,庙沟村(对照点),,43,43,63,26,27,226,80,83,59,9,12,3,3,0.6,0.6
2022-08-21T10:00:00,1931A,107.0708,34.3017,宝鸡市,竹园沟,,47,47,64,26,37,262,103,68,61,16,18,10,7,0.6,0.5
2022-08-21T10:00:00,1932A,107.1906,34.3672,宝鸡市,三陆医院,颗粒物(PM10),53,55,71,22,26,258,103,94,85,14,14,8,6,0.6,0.5
2022-08-21T10:00:00,1933A,107.1431,34.3547,宝鸡市,监测站,,43,43,67,28,31,256,99,96,83,17,17,9,7,0.7,0.6
2022-08-21T10:00:00,1934A,107.1186,34.3739,宝鸡市,技工学校,,49,49,66,30,33,262,104,98,87,18,17,8,6,0.5,0.5
2022-08-21T10:00:00,1935A,107.3906,34.3528,宝鸡市,陈仓区环保局家属楼,颗粒物(PM10),55,60,74,25,32,291,107,84,76,14,18,10,8,0.7,0.6
2022-08-21T10:00:00,1936A,107.2058,34.3497,宝鸡市,文理学院,,49,49,69,27,31,269,107,101,88,17,17,10,7,0.6,0.5
2022-08-21T10:00:00,1937A,107.2386,34.3622,宝鸡市,三迪小学,颗粒物(PM10),53,56,72,28,36,240,99,90,79,17,18,9,7,0.6,0.6
2022-08-21T10:00:00,1938A,109.5293,34.5101,渭南市,农科所(对照点),,,,,,,,,,,,,,,,
2022-08-21T10:00:00,1939A,109.4974,34.4877,渭南市,日报社,细颗粒物(PM2.5),52,51,54,36,31,183,121,115,111,10,12,10,10,0.7,0.6
2022-08-21T10:00:00,1940A,109.4636,34.493,渭南市,体育馆,细颗粒物(PM2.5),57,44,48,40,29,175,120,114,111,10,11,8,8,0.7,0.5
2022-08-21T10:00:00,1941A,109.4259,34.5023,渭南市,高新一小,细颗粒物(PM2.5),63,57,53,45,27,158,114,106,103,11,12,6,5,0.6,0.5
2022-08-21T10:00:00,1943A,102.1725,38.5339,金昌市,新川苑,,39,39,59,21,18,145,77,95,94,22,15,7,7,0.7,0.7
2022-08-21T10:00:00,1944A,102.1692,38.5167,金昌市,天庆家园,,46,46,55,11,11,145,74,100,99,21,15,8,8,1.0,0.8
2022-08-21T10:00:00,1945A,98.2908,39.7711,嘉峪关市,气象局,颗粒物(PM10),68,85,75,19,21,118,46,104,72,57,26,89,38,2.0,0.9
2022-08-21T10:00:00,1947A,106.3394,38.817,石嘴山市,沙湖旅游区(对照点),颗粒物(PM10),54,57,81,35,26,170,88,69,38,12,23,6,11,0.6,0.7
2022-08-21T10:00:00,1948A,106.3668,39.0145,石嘴山市,大武口朝阳西街,细颗粒物(PM2.5),52,51,68,36,28,166,71,92,44,17,22,12,24,0.3,0.8
2022-08-21T10:00:00,1949A,106.7704,39.2282,石嘴山市,惠农南大街,,43,43,55,29,22,151,67,70,54,12,15,6,8,0.6,0.5
2022-08-21T10:00:00,1950A,106.7099,39.1325,石嘴山市,红果子镇惠新街,颗粒物(PM10),56,62,74,39,29,171,65,58,48,17,15,10,11,1.2,0.6
2022-08-21T10:00:00,1951A,84.895,45.6094,克拉玛依市,长征新村,,35,35,21,4,5,80,28,62,40,23,6,11,8,0.2,0.2
2022-08-21T10:00:00,1952A,84.8988,45.5893,克拉玛依市,南林小区,,41,41,27,8,8,78,26,61,33,35,15,8,3,0.1,0.1
2022-08-21T10:00:00,1953A,85.1186,45.6886,克拉玛依市,白碱滩区,,,,,,,,,,,,,,,,
2022-08-21T10:00:00,1954A,84.905,44.3396,克拉玛依市,独山子区,,19,14,24,11,8,90,59,78,60,7,6,8,8,0.2,0.2
2022-08-21T10:00:00,1955A,85.6979,46.098,克拉玛依市,乌尔禾区商贸楼,,43,43,25,8,9,68,25,26,14,17,9,2,2,0.2,0.2
2022-08-21T10:00:00,1956A,86.1472,41.7538,巴音郭楞州,孔雀公园,,28,16,32,0,10,130,87,116,103,6,3,3,3,0.2,0.2
2022-08-21T10:00:00,1957A,86.1972,41.7166,巴音郭楞州,棉纺厂,,26,14,34,15,15,128,83,116,96,4,5,3,4,0.2,0.2
2022-08-21T10:00:00,1958A,86.2357,41.7173,巴音郭楞州,经济开发区,,,,44,,13,122,,112,,,4,,6,,0.2
2022-08-21T10:00:00,1959A,118.746,36.881,寿光市,监测站,,,,,,,,,,,,,,,,
2022-08-21T10:00:00,1960A,118.780,36.864,寿光市,世纪学校,,,,,,,,,,,,,,,,
2022-08-21T10:00:00,1961A,117.532,36.6868,济南市,东山小学,,34,22,36,2,7,148,108,48,48,9,30,6,6,0.4,0.4
2022-08-21T10:00:00,1962A,117.541,36.710,章丘市,明水开发区,,,,,,,,,,,,,,,,
2022-08-21T10:00:00,1963A,120.610,36.440,即墨市,环保局子站,,,,,,,,,,,,,,,,
2022-08-21T10:00:00,1964A,120.470,36.390,即墨市,开发区子站,,,,,,,,,,,,,,,,
2022-08-21T10:00:00,1965A,120.005,35.878,胶南市,JN子站,,,,,,,,,,,,,,,,
2022-08-21T10:00:00,1966A,120.0405,35.8735,青岛市,黄岛区4号,,39,39,29,12,7,139,113,60,56,23,20,9,6,0.8,0.5
2022-08-21T10:00:00,1967A,120.008,36.283,胶州市,胶州环保局,,,,,,,,,,,,,,,,
2022-08-21T10:00:00,1968A,120.014,36.253,胶州市,胶州一中,,,,,,,,,,,,,,,,
2022-08-21T10:00:00,1969A,120.537,36.865,莱西市,环保局子站,,,,,,,,,,,,,,,,
2022-08-21T10:00:00,1970A,120.515,36.885,莱西市,人民广场子站,,,,,,,,,,,,,,,,
2022-08-21T10:00:00,1971A,119.952,36.792,平度市,1号,,,,,,,,,,,,,,,,
2022-08-21T10:00:00,1972A,119.976,36.799,平度市,2号,,,,,,,,,,,,,,,,
2022-08-21T10:00:00,1973A,120.747,37.825,蓬莱市,蓬莱环保局,,,,,,,,,,,,,,,,
2022-08-21T10:00:00,1974A,120.773,37.809,蓬莱市,蓬莱博物馆,,,,,,,,,,,,,,,,
2022-08-21T10:00:00,1975A,120.399,37.374,招远市,招远环保局,,,,,,,,,,,,,,,,
2022-08-21T10:00:00,1976A,120.394,37.364,招远市,招远教育局,,,,,,,,,,,,,,,,
2022-08-21T10:00:00,1977A,119.941,37.177,莱州市,莱州环保局,,,,,,,,,,,,,,,,
2022-08-21T10:00:00,1978A,119.959,37.180,莱州市,莱州外经委,,,,,,,,,,,,,,,,
2022-08-21T10:00:00,1979A,122.471,37.154,荣成市,荣成市环保局办公楼,,,,,,,,,,,,,,,,
2022-08-21T10:00:00,1980A,122.410,37.161,荣成市,山东成山轮胎公司,,,,,,,,,,,,,,,,
2022-08-21T10:00:00,1981A,122.038,37.197,文登市,文登市环保局,,,,,,,,,,,,,,,,
2022-08-21T10:00:00,1982A,122.0693,37.2174,威海市,文登开发区,,34,34,21,12,7,125,91,60,45,25,18,7,5,0.8,0.7
2022-08-21T10:00:00,1983A,121.531,36.913,乳山市,乳山市环保局,,,,,,,,,,,,,,,,
2022-08-21T10:00:00,1984A,121.544,36.907,乳山市,乳山市气象局,,,,,,,,,,,,,,,,
2022-08-21T10:00:00,1985A,120.636,31.155,吴江市,吴江市环保局,,,,,,,,,,,,,,,,
2022-08-21T10:00:00,1986A,120.635,31.170,吴江市,教师进修学校,,,,,,,,,,,,,,,,
2022-08-21T10:00:00,1987A,120.658,31.172,吴江市,吴江开发区,,,,,,,,,,,,,,,,
2022-08-21T10:00:00,1988A,120.953,31.388,昆山市,昆山实验小学,,,,,,,,,,,,,,,,
2022-08-21T10:00:00,1989A,120.999,31.381,昆山市,震川中学,,,,,,,,,,,,,,,,
2022-08-21T10:00:00,1990A,120.758,31.670,常熟市,海虞子站,,,,,,,,,,,,,,,,
2022-08-21T10:00:00,1991A,120.721,31.671,常熟市,兴福子站,,,,,,,,,,,,,,,,
2022-08-21T10:00:00,1992A,120.734,31.656,常熟市,菱塘子站,,,,,,,,,,,,,,,,
2022-08-21T10:00:00,1993A,120.526,31.874,张家港市,张家港市监测站,,,,,,,,,,,,,,,,
2022-08-21T10:00:00,1994A,120.550,31.882,张家港市,城北小学,,,,,,,,,,,,,,,,
2022-08-21T10:00:00,1995A,121.115,31.453,太仓市,太仓市监测站,,,,,,,,,,,,,,,,
2022-08-21T10:00:00,1996A,121.140,31.422,太仓市,科教新城实小,,,,,,,,,,,,,,,,
2022-08-21T10:00:00,1997A,119.146,31.955,句容市,消防指挥中心,,,,,,,,,,,,,,,,
2022-08-21T10:00:00,1998A,119.180,31.955,句容市,房家坝,,,,,,,,,,,,,,,,
2022-08-21T10:00:00,1999A,120.268,31.920,江阴市,虹桥邮政,,,,,,,,,,,,,,,,
2022-08-21T10:00:00,2000A,120.237,31.909,江阴市,五星公园,,,,,,,,,,,,,,,,
2022-08-21T10:00:00,2001A,120.302,31.920,江阴市,第二实验小学,,,,,,,,,,,,,,,,
2022-08-21T10:00:00,2002A,119.818,31.354,宜兴市,宜兴市环保局,,,,,,,,,,,,,,,,
2022-08-21T10:00:00,2003A,119.794,31.371,宜兴市,宜园,,,,,,,,,,,,,,,,
2022-08-21T10:00:00,2004A,119.579,31.751,金坛市,金坛市环境监测站,,,,,,,,,,,,,,,,
2022-08-21T10:00:00,2005A,119.579,31.737,金坛市,金坛市自来水公司,,,,,,,,,,,,,,,,
2022-08-21T10:00:00,2006A,119.460,31.400,溧阳市,溧阳市东门子站,,,,,,,,,,,,,,,,
2022-08-21T10:00:00,2007A,119.438,31.317,溧阳市,燕山子站,,,,,,,,,,,,,,,,
2022-08-21T10:00:00,2008A,121.173,31.896,海门市,海门市监测站,,,,,,,,,,,,,,,,
2022-08-21T10:00:00,2009A,121.1518,31.89708,海门市,社会福利院,,,,,,,,,,,,,,,,
2022-08-21T10:00:00,2010A,119.7183,30.2366,临安市,市政府,,,,,,,,,,,,,,,,
2022-08-21T10:00:00,2011A,119.6942,30.2311,临安市,四中,,,,,,,,,,,,,,,,
2022-08-21T10:00:00,2012A,119.954,30.054,富阳市,监测站,,,,,,,,,,,,,,,,
2022-08-21T10:00:00,2013A,119.946,30.049,富阳市,富春二小,,,,,,,,,,,,,,,,
2022-08-21T10:00:00,2014A,120.091,29.305,义乌市,江东,,,,,,,,,,,,,,,,
2022-08-21T10:00:00,2015A,120.040,29.334,义乌市,北苑,,,,,,,,,,,,,,,,
2022-08-21T10:00:00,2016A,120.251,29.719,诸暨市,图书馆,,,,,,,,,,,,,,,,
2022-08-21T10:00:00,2017A,120.209,29.732,诸暨市,富林印务,,,,,,,,,,,,,,,,
2022-08-21T10:00:00,2018A,121.989,39.625,瓦房店市,抱龙山庄,,,,,,,,,,,,,,,,
2022-08-21T10:00:00,2019A,122.011,39.617,瓦房店市,东山公园,,,,,,,,,,,,,,,,
2022-08-21T10:00:00,2031A,113.1817,27.9958,株洲市,云田中学,,22,17,19,3,10,112,69,48,48,4,6,1,2,0.4,0.4
2022-08-21T10:00:00,2054A,114.1099,32.1059,信阳市,平桥分局,,48,48,48,19,26,148,105,107,80,8,10,8,8,0.7,0.7
2022-08-21T10:00:00,2064A,113.9956,32.1271,信阳市,南湾水厂,,34,29,34,19,20,140,107,118,71,7,10,8,8,0.6,0.7
2022-08-21T10:00:00,2065A,114.0775,32.1195,信阳市,市酿酒公司,,34,34,34,18,23,146,102,115,79,7,8,8,7,0.7,0.8
2022-08-21T10:00:00,2066A,114.0609,32.1399,信阳市,审计局,,34,34,34,20,23,140,101,106,74,6,8,10,10,0.8,0.9
2022-08-21T10:00:00,2067A,114.6613,33.6128,周口市,市环境监测站,颗粒物(PM10),51,52,54,22,25,152,94,94,71,11,9,8,9,0.7,0.7
2022-08-21T10:00:00,2068A,114.6758,33.6347,周口市,周口师范,,37,37,51,19,23,155,95,98,76,7,7,5,8,0.8,0.8
2022-08-21T10:00:00,2069A,114.6546,33.5979,周口市,市运管处,颗粒物(PM10),56,62,61,27,27,150,94,96,71,8,10,5,9,0.9,0.8
2022-08-21T10:00:00,2070A,114.6369,33.6406,周口市,川汇区环保局,,35,33,49,24,22,144,95,101,76,5,5,7,8,0.8,0.8
2022-08-21T10:00:00,2075A,117.6336,24.4674,漳州市,九湖(对照点),,,,,,,,,,,,,,,,
2022-08-21T10:00:00,2160A,112.85,35.5051,晋城市,自来水公司,,42,37,34,22,15,164,133,141,139,7,8,6,6,0.6,0.6
2022-08-21T10:00:00,2161A,112.8318,35.4936,晋城市,白云商贸,,,,,,,,,,,,,,,,
2022-08-21T10:00:00,2162A,112.8508,35.4887,晋城市,市环保局,,41,33,29,24,18,163,131,139,136,7,9,6,6,0.6,0.6
2022-08-21T10:00:00,2163A,112.8676,35.4897,晋城市,技术学院,,38,31,25,19,12,154,119,129,125,8,9,3,4,0.5,0.5
2022-08-21T10:00:00,2164A,112.8271,35.4828,晋城市,泽州一中,,,,,,,,,,,,,,,,
2022-08-21T10:00:00,2165A,112.8453,35.546,晋城市,白马寺 (对照点),,,,,,,,,,,,,,,,
2022-08-21T10:00:00,2166A,112.4397,39.3522,朔州市,平朔,颗粒物(PM10),60,70,46,35,23,141,91,86,86,15,13,11,12,0.8,0.8
2022-08-21T10:00:00,2167A,112.4575,39.3617,朔州市,朔唯,颗粒物(PM10),60,70,46,35,25,138,95,83,83,17,16,11,10,0.8,0.7
2022-08-21T10:00:00,2168A,112.4258,39.3197,朔州市,区政府,颗粒物(PM10),66,82,54,33,24,140,86,106,86,20,16,6,7,0.9,0.8
2022-08-21T10:00:00,2169A,112.4072,39.3278,朔州市,市环保局,,,,45,31,17,135,,106,85,,14,,7,,0.5
2022-08-21T10:00:00,2170A,112.4272,39.3681,朔州市,市二中,颗粒物(PM10),55,59,46,35,24,131,91,87,87,14,14,7,9,0.8,0.8
2022-08-21T10:00:00,2171A,112.7532,37.6945,晋中市,锦纶小区,颗粒物(PM10),60,70,41,39,19,136,100,96,82,17,14,8,7,0.7,0.5
2022-08-21T10:00:00,2173A,112.7249,37.7067,晋中市,南都小区,"颗粒物(PM10),细颗粒物(PM2.5)",58,66,40,41,20,136,103,93,85,16,14,10,9,0.8,0.6
2022-08-21T10:00:00,2174A,112.6991,37.6982,晋中市,榆次区政府,颗粒物(PM10),58,65,42,32,20,130,95,86,74,11,13,8,7,0.8,0.7
2022-08-21T10:00:00,2175A,110.9956,35.0147,运城市,运城中学,,,60,52,44,30,155,107,142,114,5,6,5,7,,0.8
2022-08-21T10:00:00,2176A,111.0233,35.0611,运城市,禹都开发区,,,,,,,,,,,,,,,,
2022-08-21T10:00:00,2178A,110.9686,35.0303,运城市,地区技校,颗粒物(PM10),51,52,49,31,22,160,114,148,121,5,6,5,7,0.6,0.6
2022-08-21T10:00:00,2179A,111.0414,35.1147,运城市,空港新区,颗粒物(PM10),55,59,62,38,27,161,112,151,119,6,7,8,9,0.7,0.6
2022-08-21T10:00:00,2181A,112.7383,38.4519,忻州市,开发区,颗粒物(PM10),58,65,42,36,29,140,88,122,94,20,14,21,15,0.9,0.7
2022-08-21T10:00:00,2182A,112.7003,38.4928,忻州市,会展中心,颗粒物(PM10),52,53,41,22,20,133,93,116,97,19,17,16,12,0.7,0.6
2022-08-21T10:00:00,2183A,111.1406,37.5211,吕梁市,环保局,颗粒物(PM10),60,70,68,24,18,113,83,24,24,25,47,4,8,0.5,0.6
2022-08-21T10:00:00,2185A,111.1297,37.5136,吕梁市,自来水公司,颗粒物(PM10),54,58,70,22,19,111,82,33,33,24,35,6,9,0.5,0.6
2022-08-21T10:00:00,2186A,106.8288,39.6778,乌海市,聚英学校,,,,,,,,,,,,,,,,
2022-08-21T10:00:00,2187A,106.8174,39.6973,乌海市,市林业局,颗粒物(PM10),63,76,69,39,26,151,64,101,76,40,21,13,14,1.0,0.8
2022-08-21T10:00:00,2188A,106.7907,39.6667,乌海市,中海勃湾学校,颗粒物(PM10),61,71,64,33,27,155,50,99,69,48,24,12,19,0.9,0.7
2022-08-21T10:00:00,2191A,122.2532,43.6801,通辽市,艺术职业学校,,26,26,26,10,6,79,72,75,65,11,13,7,6,0.2,0.2
2022-08-21T10:00:00,2192A,119.7594,49.2261,呼伦贝尔市,区环保局,,31,31,23,12,16,71,44,49,31,11,8,5,4,0.3,0.2
2022-08-21T10:00:00,2194A,107.5936,40.916,巴彦淖尔市,秋林养殖基地(对照点),,,,,,,,,,,,,,,,
2022-08-21T10:00:00,2195A,107.4212,40.761,巴彦淖尔市,附二中,颗粒物(PM10),65,80,75,42,29,140,62,68,57,11,12,4,8,0.8,0.6
2022-08-21T10:00:00,2196A,107.37,40.7372,巴彦淖尔市,市环保大楼,颗粒物(PM10),84,118,84,47,30,137,62,79,65,15,14,5,8,0.9,0.7
2022-08-21T10:00:00,2197A,113.1306,40.9923,乌兰察布市,集宁新区,颗粒物(PM10),56,61,42,36,23,140,63,86,68,24,14,9,12,0.7,0.5
2022-08-21T10:00:00,2200A,122.0392,46.0656,兴安盟,胜华新制药厂,,21,19,18,8,8,67,67,50,47,3,6,2,2,0.2,0.3
2022-08-21T10:00:00,2201A,121.9504,46.0741,兴安盟,科右前旗环保局,,23,5,15,8,13,71,71,52,46,5,6,3,3,0,0.2
2022-08-21T10:00:00,2202A,116.1042,43.9317,锡林郭勒盟,市环保监测站,,26,26,37,5,4,123,58,96,62,12,11,10,8,0.3,0.3
2022-08-21T10:00:00,2203A,116.0781,43.9311,锡林郭勒盟,市政府,,25,25,30,4,4,125,63,96,62,7,11,9,10,0.2,0.2
2022-08-21T10:00:00,2204A,105.6467,38.8363,阿拉善盟,西城区西花园(对照点),颗粒物(PM10),51,51,45,16,18,132,107,124,86,10,12,5,5,0.5,0.4
2022-08-21T10:00:00,2205A,105.6985,38.8411,阿拉善盟,蒙二幼,颗粒物(PM10),53,56,42,31,22,141,117,136,96,8,7,8,8,0.4,0.4
2022-08-21T10:00:00,2206A,105.724,38.8516,阿拉善盟,环保局新楼,,36,22,21,18,16,141,113,141,103,10,8,10,8,0.5,0.5
2022-08-21T10:00:00,2207A,121.6094,41.998,阜新市,工业园区,,38,38,31,18,11,102,102,75,62,16,19,15,15,0.8,0.5
2022-08-21T10:00:00,2208A,121.6697,42.0279,阜新市,长青街,,34,34,22,11,8,116,102,76,73,17,14,16,14,0.6,0.3
2022-08-21T10:00:00,2209A,121.6673,42.0705,阜新市,农业园区,,42,42,23,25,16,98,97,78,67,13,11,12,11,0.8,0.5
2022-08-21T10:00:00,2210A,121.6717,42.0224,阜新市,东苑,,50,50,39,16,11,108,93,69,68,18,16,13,12,0.6,0.4
2022-08-21T10:00:00,2211A,121.6506,42.0498,阜新市,玉龙新城,颗粒物(PM10),55,59,30,29,8,111,111,81,69,13,12,14,12,0.7,0.4
2022-08-21T10:00:00,2212A,123.2,41.1953,辽阳市,宏伟区,,32,32,19,10,6,100,100,79,79,10,11,8,6,0.6,0.5
2022-08-21T10:00:00,2213A,123.1683,41.2495,辽阳市,新华园,,30,29,29,8,8,97,95,59,59,13,21,10,6,0.6,0.4
2022-08-21T10:00:00,2214A,123.2354,41.2639,辽阳市,滨河路,,31,28,29,5,14,107,99,74,74,15,18,14,9,0.8,0.6
2022-08-21T10:00:00,2215A,123.149,41.2991,辽阳市,铁西工业园,,50,50,33,16,15,100,92,63,63,23,23,10,6,0.9,0.6
2022-08-21T10:00:00,2216A,123.8139,42.3022,铁岭市,汇工街西,,42,42,28,9,10,100,100,69,69,16,15,13,11,0.8,0.4
2022-08-21T10:00:00,2217A,123.8649,42.2923,铁岭市,水上乐园,,33,33,23,9,7,99,99,56,56,16,17,10,6,0.6,0.2
2022-08-21T10:00:00,2218A,123.8486,42.2867,铁岭市,银州路东段,,36,36,26,7,9,95,95,55,55,19,21,8,6,0.9,0.5
2022-08-21T10:00:00,2219A,123.7153,42.2217,铁岭市,金沙江路北,,45,45,22,7,4,92,92,62,62,25,22,12,6,1.0,0.5
2022-08-21T10:00:00,2220A,120.4318,41.5881,朝阳市,西梁,,36,36,29,12,9,106,100,92,92,14,12,10,11,0.8,0.9
2022-08-21T10:00:00,2221A,120.4521,41.5646,朝阳市,河畔小区,,35,35,23,13,10,102,102,92,90,14,9,9,10,0.7,0.6
2022-08-21T10:00:00,2222A,120.4176,41.5648,朝阳市,八里堡,颗粒物(PM10),55,60,33,13,11,89,80,77,77,29,15,26,11,2.2,1
2022-08-21T10:00:00,2223A,120.3806,41.5969,朝阳市,农业园区,,37,37,26,13,10,100,97,93,93,6,12,8,8,0.8,0.7
2022-08-21T10:00:00,2225A,124.4002,43.1713,四平市,一商场,,30,30,18,8,7,93,93,58,58,16,19,7,3,0.6,0.4
2022-08-21T10:00:00,2226A,124.388,43.193,四平市,境园,,32,32,15,3,4,97,97,56,56,13,13,10,6,0.6,0.3
2022-08-21T10:00:00,2227A,125.1358,42.8845,辽源市,环保局,,28,18,21,9,13,89,89,36,36,10,13,13,8,0.6,0.4
2022-08-21T10:00:00,2229A,125.9358,41.7173,通化市,光明,,38,38,19,13,9,84,32,14,14,24,18,12,10,0.5,0.4
2022-08-21T10:00:00,2230A,125.9446,41.7325,通化市,铁路,,36,36,19,17,10,92,34,15,15,15,14,15,10,0.7,0.6
2022-08-21T10:00:00,2231A,126.4219,41.9171,白山市,喜丰,,33,33,26,14,9,74,39,13,13,10,13,14,9,0.6,0.6
2022-08-21T10:00:00,2232A,126.4077,41.9419,白山市,环保局,,28,28,25,16,9,78,34,17,14,19,11,12,7,0.6,0.4
2022-08-21T10:00:00,2233A,124.8006,45.1214,松原市,江南,,20,15,13,7,5,71,64,57,52,11,8,4,3,0.3,0.3
2022-08-21T10:00:00,2234A,124.7965,45.1722,松原市,江北,,22,10,5,2,4,77,69,58,55,8,8,1,1,0.3,0.3
2022-08-21T10:00:00,2235A,122.7911,45.6077,白城市,洮北区环保局,,23,12,13,8,4,80,72,71,70,9,8,4,4,0.1,0.1
2022-08-21T10:00:00,2236A,122.8738,45.5725,白城市,市环保局,,21,15,20,12,8,70,65,61,59,5,6,9,2,0.1,0
2022-08-21T10:00:00,2237A,129.47,42.8883,延边朝鲜族自治州,妇幼医院,,17,17,17,10,6,71,50,37,28,13,10,7,7,0.4,0.4
2022-08-21T10:00:00,2238A,129.5055,42.9108,延边朝鲜族自治州,延边医院,,17,14,20,8,4,75,54,32,32,11,12,8,8,0.5,0.4
2022-08-21T10:00:00,2239A,129.3964,42.8881,延边朝鲜族自治州,朝阳川镇医院,,17,15,15,5,2,74,54,28,28,9,7,9,9,0.3,0.3
2022-08-21T10:00:00,2240A,130.9762,45.3001,鸡西市,环保局,,20,20,18,8,5,60,34,54,40,16,9,4,2,0.4,0.3
2022-08-21T10:00:00,2243A,130.9429,45.3039,鸡西市,第一中学,,22,22,14,5,6,77,47,63,51,5,3,4,3,0.3,0.3
2022-08-21T10:00:00,2244A,130.2537,47.3416,鹤岗市,哈啤分公司,,17,11,11,6,7,65,52,32,32,4,5,4,5,0.3,0.4
2022-08-21T10:00:00,2245A,130.2684,47.3086,鹤岗市,斯达机电,,16,6,17,5,8,65,50,34,34,4,5,5,7,0.3,0.2
2022-08-21T10:00:00,2246A,130.3114,47.3388,鹤岗市,东山纸板厂,,18,7,16,6,12,70,57,32,32,2,6,10,11,0.2,0.3
2022-08-21T10:00:00,2247A,130.1097,47.3382,鹤岗市,五号水库(对照点),,18,5,9,4,6,70,57,40,40,5,6,4,5,0.2,0.2
2022-08-21T10:00:00,2248A,131.1511,46.6937,双鸭山市,双合村,,18,4,13,10,5,72,56,58,45,6,8,6,6,0.2,0.3
2022-08-21T10:00:00,2249A,131.1652,46.6191,双鸭山市,南小市,,29,29,21,2,6,69,59,52,42,5,6,6,5,0.1,0.1
2022-08-21T10:00:00,2250A,131.1524,46.6554,双鸭山市,环保局,,16,10,18,7,13,68,51,32,32,7,10,5,4,0.2,0.2
2022-08-21T10:00:00,2251A,131.12,46.5656,双鸭山市,苗圃(对照点),,20,6,16,8,10,71,62,47,44,2,3,3,3,0.4,0.3
2022-08-21T10:00:00,2252A,128.5159,47.4311,伊春市,环保局,,13,11,15,6,3,56,39,20,19,7,6,4,4,0.3,0.3
2022-08-21T10:00:00,2253A,128.9102,47.7412,伊春市,电力嘉园,,20,12,17,14,15,60,38,29,20,11,7,5,6,0.4,0.4
2022-08-21T10:00:00,2254A,129.5029,48.471,伊春市,汤旺河国家公园(对照点),,12,11,12,8,3,50,35,16,13,2,2,5,5,0.2,0.2
2022-08-21T10:00:00,2255A,130.2751,46.8028,佳木斯市,佳纺,,27,27,18,12,6,66,60,43,42,4,5,3,3,0.2,0.2
2022-08-21T10:00:00,2256A,130.3995,46.8307,佳木斯市,发电厂,,21,21,18,3,6,62,57,46,40,4,4,1,1,0.3,0.3
2022-08-21T10:00:00,2257A,130.3258,46.7975,佳木斯市,环保局,,21,21,15,9,6,64,59,43,40,5,8,1,1,0.3,0.3
2022-08-21T10:00:00,2258A,130.3648,46.8032,佳木斯市,十一中,,31,31,22,12,8,65,60,48,43,9,12,4,4,0.3,0.3
2022-08-21T10:00:00,2259A,130.3794,46.7588,佳木斯市,四丰(对照点),,24,13,12,4,4,80,74,72,57,6,7,1,1,0.4,0.4
2022-08-21T10:00:00,2262A,131.0518,45.8751,七台河市,新一中(对照点),,24,7,10,3,7,85,74,74,56,5,6,7,8,0.4,0.4
2022-08-21T10:00:00,2263A,127.4833,50.2524,黑河市,交通局,,12,6,7,4,5,55,38,39,31,2,2,5,5,0.3,0.3
2022-08-21T10:00:00,2264A,127.5144,50.2341,黑河市,环保局,,14,7,10,5,6,61,43,44,35,2,2,5,6,0.3,0.3
2022-08-21T10:00:00,2265A,127.5291,50.2472,黑河市,大黑河岛(对照点),,13,3,9,4,5,57,40,42,31,1,1,5,6,0.2,0.2
2022-08-21T10:00:00,2266A,126.9785,46.6365,绥化市,人和东街,,29,11,19,5,8,90,90,57,57,4,7,6,6,0.4,0.4
2022-08-21T10:00:00,2267A,126.964,46.6528,绥化市,党政办公中心,,28,6,12,4,7,88,88,57,57,5,9,5,5,0.4,0.4
2022-08-21T10:00:00,2269A,124.1069,50.4097,大兴安岭地区,科技局,,9,4,5,2,4,51,28,11,11,3,5,2,2,0.3,0.3
2022-08-21T10:00:00,2270A,117.396,32.939,蚌埠市,工人疗养院,,35,34,31,24,23,123,65,74,47,21,7,14,10,0.5,0.5
2022-08-21T10:00:00,2271A,117.3605,32.9427,蚌埠市,百货大楼,,31,31,36,16,18,123,74,71,42,17,13,12,9,0.4,0.4
2022-08-21T10:00:00,2273A,117.4185,32.8911,蚌埠市,蚌埠学院,,,41,33,19,18,128,75,57,57,12,15,,23,0.4,0.5
2022-08-21T10:00:00,2274A,117.3533,32.9673,蚌埠市,淮上区政府,,46,46,35,14,19,127,58,68,50,19,6,12,9,0.5,0.4
2022-08-21T10:00:00,2275A,117.3145,32.8977,蚌埠市,高新区,,,,32,22,22,130,82,62,62,8,12,9,7,0.6,0.6
2022-08-21T10:00:00,2277A,116.8305,32.7727,淮南市,潘集区政府,细颗粒物(PM2.5),53,54,34,37,24,113,78,63,42,9,6,5,5,0.7,0.4
2022-08-21T10:00:00,2278A,117.0067,32.6524,淮南市,师范学院,颗粒物(PM10),63,76,44,19,18,130,86,78,56,7,8,10,7,0.5,0.4
2022-08-21T10:00:00,2279A,116.8569,32.5951,淮南市,谢家集区政府,,35,34,31,24,18,129,92,91,57,8,8,12,10,0.5,0.5
2022-08-21T10:00:00,2280A,116.8281,32.633,淮南市,八公山区政府,,,38,31,18,21,125,84,76,53,,10,10,6,0.6,0.6
2022-08-21T10:00:00,2281A,116.6325,32.6201,淮南市,焦岗湖风景区管理处(对照点),,44,44,33,16,14,115,79,57,51,9,13,6,5,0.3,0.3
2022-08-21T10:00:00,2282A,116.8004,33.975,淮北市,监测站,颗粒物(PM10),54,57,35,16,14,163,94,108,98,9,9,8,8,0.5,0.5
2022-08-21T10:00:00,2283A,116.8091,33.9007,淮北市,烈山区政府,,31,28,31,12,15,153,98,106,90,7,8,12,10,0.7,0.7
2022-08-21T10:00:00,2284A,116.7856,33.9477,淮北市,职业技术学院,,33,33,31,18,13,149,93,106,94,8,8,6,6,0.7,0.7
2022-08-21T10:00:00,2285A,117.8177,30.9412,铜陵市,市第四中学,,40,40,34,23,21,150,89,58,53,18,18,16,8,0.6,0.5
2022-08-21T10:00:00,2286A,117.8059,30.9273,铜陵市,市公路局,,41,41,45,18,27,156,94,57,48,11,17,18,14,1.0,1
2022-08-21T10:00:00,2287A,117.7807,30.9413,铜陵市,市新民污水厂,,,37,32,19,18,142,82,20,20,16,26,5,5,,0.3
2022-08-21T10:00:00,2288A,117.7439,30.8792,铜陵市,市第九中学,颗粒物(PM10),51,52,52,16,22,152,98,25,25,16,35,3,7,0.7,0.7
2022-08-21T10:00:00,2289A,117.846,30.9413,铜陵市,车站新区,,37,37,40,12,18,144,73,37,37,8,19,7,10,0.3,0.6
2022-08-21T10:00:00,2290A,117.8483,30.97,铜陵市,市职教基地,,47,47,33,19,19,152,81,47,41,15,15,17,12,0.9,0.8
2022-08-21T10:00:00,2291A,117.0809,30.5177,安庆市,环科院,,30,7,35,7,22,148,96,79,51,6,15,7,8,0.4,0.5
2022-08-21T10:00:00,2292A,117.0331,30.5119,安庆市,马山宾馆,,24,14,33,5,19,135,76,64,42,7,14,5,5,0.5,0.6
2022-08-21T10:00:00,2294A,116.9896,30.6145,安庆市,安庆大学,,27,24,26,10,17,136,85,77,44,10,11,7,6,0.5,0.5
2022-08-21T10:00:00,2295A,118.2903,29.6963,黄山市,延安路89号,,22,22,22,8,8,89,67,33,32,1,5,6,6,0.3,0.3
2022-08-21T10:00:00,2296A,118.327,29.7178,黄山市,黄山东路89号,,22,21,20,14,8,86,68,38,30,3,7,6,6,0.3,0.4
2022-08-21T10:00:00,2297A,118.1371,30.2756,黄山市,黄山区政府5号楼,,27,27,27,14,14,102,69,27,27,2,6,8,7,0.2,0.4
2022-08-21T10:00:00,2298A,118.3093,32.3153,滁州市,老年大学,,42,42,31,24,15,132,107,72,54,22,12,8,6,0.5,0.3
2022-08-21T10:00:00,2299A,118.3244,32.2786,滁州市,人大宾馆,,41,41,24,18,14,132,98,69,50,23,13,9,5,0.8,0.4
2022-08-21T10:00:00,2301A,115.8277,32.8929,阜阳市,市监测站,,31,31,32,7,18,176,90,79,58,10,9,9,8,0.7,0.8
2022-08-21T10:00:00,2303A,115.8554,32.8605,阜阳市,开发区,,38,38,40,16,19,167,88,75,52,15,13,6,5,0.6,0.7
2022-08-21T10:00:00,2306A,116.989,33.6306,宿州市,火车站,,,,,,,,,,,,,,,,
2022-08-21T10:00:00,2307A,116.5079,31.737,六安市,监测大楼,,30,30,31,10,16,128,76,61,42,10,9,6,7,0.3,0.4
2022-08-21T10:00:00,2308A,116.4738,31.7643,六安市,皖西学院,,28,22,29,15,13,137,89,57,57,7,7,6,6,0.2,0.3
2022-08-21T10:00:00,2309A,116.4996,31.7905,六安市,朝阳厂,,26,21,23,3,12,134,82,60,52,8,6,10,10,0.3,0.5
2022-08-21T10:00:00,2310A,116.5567,31.7886,六安市,开发区,颗粒物(PM10),56,61,39,20,20,126,81,54,35,7,10,8,8,0.4,0.5
2022-08-21T10:00:00,2311A,115.8072,33.8399,亳州市,污水处理厂,,30,30,28,12,14,143,89,72,70,10,10,7,9,1.0,0.8
2022-08-21T10:00:00,2312A,115.7789,33.8518,亳州市,三国揽胜宫,,35,35,36,11,18,143,90,82,73,7,7,5,5,0.9,0.9
2022-08-21T10:00:00,2314A,117.47,30.6618,池州市,池州学院,,27,15,34,6,17,137,84,44,44,3,11,6,6,0.4,0.8
2022-08-21T10:00:00,2315A,117.4974,30.6539,池州市,平天湖(对照点),,,,,,,,,,,,,,,,
2022-08-21T10:00:00,2316A,118.7581,30.9454,宣城市,鳌峰子站,,28,25,31,16,16,141,87,60,50,11,13,5,7,0.3,0.4
2022-08-21T10:00:00,2317A,118.7385,30.9743,宣城市,敬亭山子站,,29,29,31,11,14,136,81,52,39,19,19,6,8,0.3,0.4
2022-08-21T10:00:00,2318A,118.7173,30.9427,宣城市,开发区子站,,37,37,28,12,15,145,80,57,44,11,14,5,9,0.5,0.5
2022-08-21T10:00:00,2319A,119.0141,25.4325,莆田市,荔城区仓后路,颗粒物(PM10),57,63,36,18,10,109,76,29,29,18,16,6,5,0.8,0.8
2022-08-21T10:00:00,2320A,119.0015,25.4553,莆田市,莆田市监测站,,45,45,27,14,11,121,79,32,31,13,6,9,7,0.8,0.7
2022-08-21T10:00:00,2321A,119.1119,25.4561,莆田市,涵江区六中,,33,32,28,23,13,123,92,34,34,9,15,8,8,0.6,0.6
2022-08-21T10:00:00,2322A,119.1013,25.3215,莆田市,秀屿区政府,,45,40,29,31,12,120,98,34,34,12,12,11,9,0.8,0.8
2022-08-21T10:00:00,2323A,118.981,25.4792,莆田市,东圳水库(对照点),,,,,,,,,,,,,,,,
2022-08-21T10:00:00,2324A,117.6211,26.2625,三明市,三钢,,29,29,26,17,10,78,72,28,28,11,17,7,11,0.5,1.1
2022-08-21T10:00:00,2325A,117.635,26.2714,三明市,三明二中,,37,37,20,11,9,86,73,30,30,8,13,7,6,0.6,0.6
2022-08-21T10:00:00,2326A,117.6028,26.2378,三明市,三元区政府,,25,25,21,11,12,87,69,31,31,10,13,12,9,0.5,0.5
2022-08-21T10:00:00,2327A,117.7275,26.3108,三明市,洋溪(对照点),,,,,,,,,,,,,,,,
2022-08-21T10:00:00,2331A,118.0966,26.6761,南平市,茫荡山(对照点),,,,,,,,,,,,,,,,
2022-08-21T10:00:00,2332A,118.1681,26.6369,南平市,南平市监测站,,27,15,17,12,8,84,84,27,27,6,14,9,6,0.5,0.5
2022-08-21T10:00:00,2333A,118.1825,26.6489,南平市,南平铝业有限公司,,27,24,25,15,14,85,85,31,31,5,11,8,6,0.6,0.6
2022-08-21T10:00:00,2334A,118.1756,26.6272,南平市,南平七中,,29,29,19,11,9,86,86,30,30,5,11,9,6,0.5,0.4
2022-08-21T10:00:00,2335A,117.0189,25.1181,龙岩市,龙岩师专(对照点),,,,,,,,,,,,,,,,
2022-08-21T10:00:00,2336A,117.0217,25.1033,龙岩市,龙岩市监测站,,23,23,20,8,7,63,42,30,17,16,15,9,8,0.5,0.5
2022-08-21T10:00:00,2337A,117.0258,25.0661,龙岩市,闽西职业技术学院,,30,30,23,6,8,58,45,13,13,11,14,9,12,0.4,0.5
2022-08-21T10:00:00,2338A,117.0196,25.0306,龙岩市,龙岩学院,,18,4,11,5,5,57,56,31,29,5,8,5,4,0.5,0.4
2022-08-21T10:00:00,2339A,119.5001,26.6946,宁德市,金涵水库(对照点),,,,,,,,,,,,,,,,
2022-08-21T10:00:00,2341A,119.5388,26.6612,宁德市,宁德市监测站,,,68,33,14,11,91,76,28,26,18,18,11,12,,0.4
2022-08-21T10:00:00,2342A,117.3102,29.3867,景德镇市,王港中学(对照点),,34,24,27,15,13,135,107,70,69,10,9,7,4,0.5,0.4
2022-08-21T10:00:00,2343A,117.2117,29.2933,景德镇市,老干部活动中心,,32,32,44,20,16,99,63,25,25,10,19,12,12,0.4,0.4
2022-08-21T10:00:00,2344A,117.1894,29.2789,景德镇市,兽医站,,25,25,25,7,12,96,68,38,38,13,16,7,11,0.4,0.2
2022-08-21T10:00:00,2345A,117.1547,29.2617,景德镇市,台达陶瓷,,36,36,37,7,14,98,67,34,34,10,17,16,26,0.4,0.4
2022-08-21T10:00:00,2346A,117.2461,29.2956,景德镇市,陶研所,,21,10,35,13,13,104,67,29,29,4,10,6,8,0.4,0.4
2022-08-21T10:00:00,2347A,114.0997,27.5002,萍乡市,武功山(对照点),,15,3,6,4,4,95,47,33,28,4,6,18,14,0.1,0.2
2022-08-21T10:00:00,2348A,113.8385,27.6434,萍乡市,中医院,,18,11,15,2,10,124,57,50,46,5,8,7,12,0.2,0.4
2022-08-21T10:00:00,2349A,113.8493,27.6253,萍乡市,市政府车库,,19,14,21,0,12,155,58,53,44,7,10,8,15,0.5,0.5
2022-08-21T10:00:00,2350A,113.8676,27.6435,萍乡市,市环保局,,18,18,14,7,11,137,55,52,44,5,6,7,10,0.3,0.4
2022-08-21T10:00:00,2351A,113.866,27.6198,萍乡市,安源区政府,,18,10,19,2,11,149,56,51,43,2,6,10,15,0.2,0.3
2022-08-21T10:00:00,2352A,115.0861,27.9317,新余市,北岗(对照点),,19,13,12,6,8,74,58,36,36,6,5,14,10,0.7,0.6
2022-08-21T10:00:00,2353A,114.9886,27.8431,新余市,飞宇,,32,32,24,9,8,62,39,34,33,19,8,31,8,1.3,0.4
2022-08-21T10:00:00,2354A,114.9231,27.8246,新余市,第二水厂,,38,38,29,7,9,71,58,37,34,15,18,14,15,0.7,1
2022-08-21T10:00:00,2355A,114.9308,27.8036,新余市,市气象局,,41,41,35,25,18,66,34,21,19,28,16,56,26,2.3,1.3
2022-08-21T10:00:00,2357A,116.9822,28.1136,鹰潭市,龙虎山(对照点),,,,,,,,,,,,,,,,
2022-08-21T10:00:00,2358A,117.0564,28.2642,鹰潭市,新监测站,,19,7,12,3,4,83,58,50,50,2,2,1,2,0.3,0.2
2022-08-21T10:00:00,2359A,117.0311,28.2475,鹰潭市,财苑宾馆,,17,8,13,7,4,80,54,46,46,2,2,1,1,0.1,0.1
2022-08-21T10:00:00,2360A,117.0222,28.2264,鹰潭市,体育馆,,19,9,10,2,4,78,60,52,52,2,2,2,1,0.2,0.2
2022-08-21T10:00:00,2361A,117.0017,28.2131,鹰潭市,三川水表,,,18,13,,1,77,56,48,48,2,2,3,2,0.3,0.3
2022-08-21T10:00:00,2362A,114.9017,25.9149,赣州市,通天岩(对照点),,20,12,12,6,5,66,61,36,36,5,7,6,6,0.3,0.3
2022-08-21T10:00:00,2363A,114.9367,25.8664,赣州市,地委,,22,8,11,15,6,59,49,38,35,9,8,5,5,0.8,0.8
2022-08-21T10:00:00,2364A,114.9461,25.8481,赣州市,气象台,,17,6,10,2,5,65,53,41,41,7,7,10,8,0.5,0.6
2022-08-21T10:00:00,2365A,114.9322,25.8333,赣州市,市图书馆,,18,12,8,3,5,70,57,47,44,8,9,6,6,1.0,1
2022-08-21T10:00:00,2366A,114.8905,25.8471,赣州市,华坚鞋城,,20,12,19,8,9,69,61,39,39,6,7,5,6,0.9,0.9
2022-08-21T10:00:00,2367A,114.9754,27.0803,吉安市,红声器材厂,,28,28,22,8,7,68,60,45,44,5,5,8,7,0.4,0.4
2022-08-21T10:00:00,2368A,114.9658,27.0999,吉安市,市森林工业局,,24,24,20,5,8,69,62,48,48,5,5,7,6,0.3,0.3
2022-08-21T10:00:00,2369A,114.99,27.1312,吉安市,市环境监测站,,26,26,26,17,10,67,61,47,45,6,6,7,7,0.4,0.5
2022-08-21T10:00:00,2370A,115.0093,27.0968,吉安市,青原区法院,,21,21,18,8,7,67,60,46,45,4,5,9,11,0.2,0.4
2022-08-21T10:00:00,2371A,114.3408,27.8064,宜春市,槟榔水业(对照点),,,,,,,,,,,,,,,,
2022-08-21T10:00:00,2373A,114.3956,27.7844,宜春市,市石油公司,颗粒物(PM10),51,51,22,17,12,72,71,58,32,17,14,20,6,1.3,0.9
2022-08-21T10:00:00,2374A,114.3703,27.7914,宜春市,市气象局,,37,37,26,19,11,78,74,63,34,14,12,20,7,1.2,0.8
2022-08-21T10:00:00,2375A,114.4013,27.8074,宜春市,市广电局,,37,37,23,22,10,82,80,64,43,10,7,18,6,1.2,0.7
2022-08-21T10:00:00,2376A,116.2127,28.0814,抚州市,桐源党溪(对照点),,28,28,14,4,6,76,68,45,45,3,4,2,2,0.7,0.7
2022-08-21T10:00:00,2377A,116.3544,27.9831,抚州市,市站,,20,18,17,7,8,74,64,52,50,4,4,5,5,0.6,0.6
2022-08-21T10:00:00,2378A,116.3565,27.963,抚州市,血防站,,19,19,17,11,8,67,60,48,45,5,7,1,2,0.6,0.6
2022-08-21T10:00:00,2379A,116.3564,28.0007,抚州市,采茶剧团,,20,17,16,10,7,72,61,52,49,2,4,3,4,0.5,0.5
2022-08-21T10:00:00,2380A,116.385,27.9647,抚州市,医学分院,,23,23,16,9,6,74,63,53,49,5,5,5,4,0.4,0.4
2022-08-21T10:00:00,2381A,118.005,28.4572,上饶市,百草园(对照点),,,,,,,,,,,,,,,,
2022-08-21T10:00:00,2382A,117.9756,28.4436,上饶市,市监测站,,40,40,36,17,14,118,72,27,27,2,9,11,9,0.5,0.5
2022-08-21T10:00:00,2383A,117.9519,28.4628,上饶市,凤凰光学,,25,25,30,12,10,102,64,33,33,4,13,16,18,0.6,0.6
