timepoint,stationcode,longitude,latitude,area,positionname,primarypollutant,aqi,pm10,pm10_24h,pm2_5,pm2_5_24h,o3,o3_24h,o3_8h,o3_8h_24h,no2,no2_24h,so2,so2_24h,co,co_24h
2022-08-16T02:00:00,1001A,116.3621,39.8784,北京市,万寿西宫,,19,4,14,1,7,112,59,63,61,10,16,3,2,0.2,0.7
2022-08-16T02:00:00,1002A,116.2202,40.2915,北京市,定陵(对照点),,19,5,8,1,4,85,59,65,62,2,2,3,3,0.2,0.4
2022-08-16T02:00:00,1003A,116.4174,39.9289,北京市,东四,,17,4,14,1,10,116,53,63,58,20,20,3,3,0.2,0.5
2022-08-16T02:00:00,1004A,116.4072,39.8863,北京市,天坛,,13,2,12,0,9,112,40,55,48,17,16,3,3,0.2,0.5
2022-08-16T02:00:00,1005A,116.462,39.9365,北京市,农展馆,,14,4,15,0,9,100,42,54,48,27,24,3,3,0.2,0.5
2022-08-16T02:00:00,1006A,116.3392,39.9295,北京市,官园,,16,3,12,1,9,112,49,57,53,20,19,2,2,0.2,0.6
2022-08-16T02:00:00,1007A,116.2878,39.9611,北京市,海淀万柳,,17,7,16,2,11,108,21,27,24,33,24,3,3,0.3,0.6
2022-08-16T02:00:00,1008A,116.6636,40.135,北京市,顺义新城,,10,7,8,1,4,79,32,43,38,18,10,3,3,0.2,0.4
2022-08-16T02:00:00,1009A,116.6275,40.3275,北京市,怀柔镇,,15,3,5,1,3,78,48,55,52,8,10,3,3,0.2,0.4
2022-08-16T02:00:00,1010A,116.2296,40.217,北京市,昌平镇,,18,2,10,1,6,84,57,61,59,8,12,3,3,0.2,0.5
2022-08-16T02:00:00,1011A,116.3966,39.9821,北京市,奥体中心,,23,6,15,1,8,88,20,44,32,46,19,3,3,0.2,0.5
2022-08-16T02:00:00,1012A,116.184,39.9136,北京市,古城,,16,2,12,1,8,96,50,72,61,23,18,3,3,0.1,0.4
2022-08-16T02:00:00,1015A,117.1444,39.1661,天津市,勤俭道,,15,6,18,2,13,138,45,50,48,23,17,4,4,0.5,0.8
2022-08-16T02:00:00,1017A,117.237,39.1082,天津市,大直沽八号路,,13,8,18,3,12,124,41,47,44,26,18,5,6,0.1,0.3
2022-08-16T02:00:00,1018A,117.202,39.0927,天津市,前进道,,16,8,19,3,13,135,49,56,52,19,17,6,6,0.4,0.7
2022-08-16T02:00:00,1019A,117.1837,39.2133,天津市,淮河道,,,,,,,,,,,,,,,,
2022-08-16T02:00:00,1021A,117.307,39.0877,天津市,跃进路,,16,10,18,3,12,130,27,37,32,31,21,7,6,0.3,0.5
2022-08-16T02:00:00,1023A,117.707,39.0343,天津市,第四大街,颗粒物(PM10),53,56,19,26,14,80,30,26,26,37,24,5,5,0.9,1
2022-08-16T02:00:00,1024A,117.457,38.8394,天津市,永明路,,19,13,21,4,16,136,24,40,32,38,22,9,4,1.3,0.8
2022-08-16T02:00:00,1026A,117.764,39.1587,天津市,汉北路,颗粒物(PM10),65,79,19,35,12,119,45,41,41,15,18,7,7,1.2,0.8
2022-08-16T02:00:00,1027A,117.157,38.9194,天津市,团泊洼(对照点),,18,5,23,2,11,134,55,53,53,10,8,6,5,0.8,1.1
2022-08-16T02:00:00,1029A,114.4422,38.0444,石家庄市,职工医院,,33,33,36,19,17,121,8,10,9,32,32,2,4,0.4,0.7
2022-08-16T02:00:00,1030A,114.6063,38.0266,石家庄市,高新区,颗粒物(PM10),53,55,48,23,22,124,44,26,26,23,46,4,6,0.3,0.7
2022-08-16T02:00:00,1031A,114.4898,38.1328,石家庄市,西北水源,,43,43,41,10,12,140,24,28,26,28,35,1,2,0.4,0.7
2022-08-16T02:00:00,1032A,114.4586,38.0058,石家庄市,西南高教,,41,41,42,12,14,103,19,12,12,19,30,2,3,0.6,1
2022-08-16T02:00:00,1033A,114.5331,38.0178,石家庄市,世纪公园,颗粒物(PM10),51,51,47,27,21,124,33,22,22,32,36,4,6,0.4,0.8
2022-08-16T02:00:00,1034A,114.509,38.0457,石家庄市,人民会堂,,43,43,42,13,18,149,36,31,31,35,42,3,6,0.6,0.9
2022-08-16T02:00:00,1035A,114.3524,37.8911,石家庄市,封龙山(对照点),,40,40,25,18,15,106,63,68,66,20,8,16,13,0.5,0.5
2022-08-16T02:00:00,1037A,118.131,39.6363,唐山市,雷达站,,38,38,37,12,14,113,71,70,70,10,15,3,2,0.7,0.6
2022-08-16T02:00:00,1038A,118.1725,39.6334,唐山市,物资局,,38,38,37,16,20,113,58,71,64,13,14,4,3,1.1,0.8
2022-08-16T02:00:00,1040A,118.1705,39.6506,唐山市,十二中,,36,36,31,19,21,111,54,57,56,16,19,2,2,0.9,0.6
2022-08-16T02:00:00,1041A,118.1869,39.622,唐山市,小山,,26,21,27,18,15,119,63,67,65,15,22,4,4,0.7,0.6
2022-08-16T02:00:00,1042A,119.5134,39.8207,秦皇岛市,北戴河环保局,,15,11,24,5,9,111,46,58,52,13,5,3,2,0.2,0.4
2022-08-16T02:00:00,1043A,119.7493,40.0116,秦皇岛市,第一关,,30,30,27,0,7,115,10,8,8,46,25,4,5,0.3,0.5
2022-08-16T02:00:00,1044A,119.5897,39.9499,秦皇岛市,监测站,,34,34,33,17,23,122,22,31,26,26,14,13,6,0.2,0.5
2022-08-16T02:00:00,1046A,119.5251,39.9041,秦皇岛市,建设大厦,,35,35,33,20,18,123,10,10,10,58,23,6,3,0.9,0.6
2022-08-16T02:00:00,1047A,114.5129,36.61763,邯郸市,环保局,,,,,,,,,,,,,,,,
2022-08-16T02:00:00,1048A,114.5302,36.6116,邯郸市,东污水处理厂,颗粒物(PM10),59,68,69,20,42,144,28,29,28,41,33,11,7,0.9,1.2
2022-08-16T02:00:00,1049A,114.4918,36.5713,邯郸市,矿院,颗粒物(PM10),55,60,79,19,38,90,30,28,28,46,35,8,4,0.8,1.7
2022-08-16T02:00:00,1050A,114.484,36.6133,邯郸市,丛台公园,颗粒物(PM10),60,69,69,28,41,153,44,44,44,29,24,42,11,2.0,1.3
2022-08-16T02:00:00,1051A,115.493,38.8632,保定市,游泳馆,,,39,31,4,9,121,50,48,48,25,32,6,7,,0.3
2022-08-16T02:00:00,1052A,115.5213,38.8959,保定市,华电二区,,24,24,37,6,9,121,36,36,36,32,31,5,4,0.3,0.6
2022-08-16T02:00:00,1053A,115.4713,38.9108,保定市,接待中心,,34,34,34,14,10,118,45,44,44,24,30,6,6,0.1,0.4
2022-08-16T02:00:00,1054A,115.4612,38.8416,保定市,地表水厂,,39,39,41,8,12,113,53,48,48,14,24,4,4,0.1,0.4
2022-08-16T02:00:00,1055A,115.4323,38.8697,保定市,胶片厂,,43,43,30,0,7,116,52,48,48,20,25,7,8,0.2,0.4
2022-08-16T02:00:00,1056A,115.5086,38.8639,保定市,监测站,,44,44,40,11,11,124,51,48,48,17,27,1,3,0.0,0.4
2022-08-16T02:00:00,1057A,114.8883,40.8336,张家口市,人民公园,,15,8,15,2,2,98,47,60,54,10,8,6,6,0.2,0.3
2022-08-16T02:00:00,1059A,114.8687,40.8042,张家口市,五金库,,17,5,9,2,3,91,54,60,57,8,12,8,8,0.3,0.4
2022-08-16T02:00:00,1060A,114.8902,40.762,张家口市,世纪豪园,,25,25,15,8,6,97,27,48,38,33,13,4,4,0.2,0.2
2022-08-16T02:00:00,1061A,114.8916,40.8661,张家口市,北泵房(对照点),,,16,20,4,14,89,,,,6,10,,10,,
2022-08-16T02:00:00,1062A,117.9531,40.9081,承德市,铁路,,23,12,19,16,15,89,22,22,22,21,13,4,4,0.2,0.3
2022-08-16T02:00:00,1063A,117.9392,40.9763,承德市,中国银行,,17,17,13,2,7,79,6,10,8,24,10,7,7,0.2,0.3
2022-08-16T02:00:00,1064A,117.9503,40.928,承德市,开发区,,23,23,29,12,15,93,6,13,10,36,13,4,4,0.2,0.3
2022-08-16T02:00:00,1065A,117.8051,40.9655,承德市,文化中心,,19,19,15,8,11,89,9,8,8,33,15,7,7,0.3,0.4
2022-08-16T02:00:00,1066A,117.9268,41.0026,承德市,离宫(对照点),,,,,21,22,78,10,18,14,16,6,3,3,0.1,0.2
2022-08-16T02:00:00,1067A,116.6708,39.5111,廊坊市,药材公司,,18,8,21,3,16,126,56,54,54,16,18,6,6,0.2,0.5
2022-08-16T02:00:00,1068A,116.7214,39.5589,廊坊市,开发区,,16,16,25,3,14,130,44,51,48,22,16,8,14,0.3,0.7
2022-08-16T02:00:00,1070A,116.7244,39.5269,廊坊市,北华航天学院,,22,22,29,2,21,136,49,54,52,18,16,8,8,0.2,0.5
2022-08-16T02:00:00,1071A,116.8842,38.2991,沧州市,沧县城建局,,35,35,33,10,16,132,30,50,40,38,22,9,7,0.7,0.8
2022-08-16T02:00:00,1072A,116.8584,38.3254,沧州市,电视转播站,,35,35,32,5,12,138,37,44,40,28,18,3,2,0.4,0.6
2022-08-16T02:00:00,1073A,116.8709,38.3228,沧州市,市环保局,,39,39,36,15,16,142,34,48,41,38,25,7,6,0.3,0.3
2022-08-16T02:00:00,1074A,115.6838,37.7541,衡水市,电机北厂,,48,48,38,11,15,155,4,9,6,57,15,10,6,0.8,0.8
2022-08-16T02:00:00,1075A,115.6303,37.7316,衡水市,市监测站,颗粒物(PM10),59,67,58,10,15,153,5,5,5,53,20,9,9,0.3,0.5
2022-08-16T02:00:00,1077A,114.4704,37.0886,邢台市,达活泉,颗粒物(PM10),52,53,58,18,22,163,26,34,30,32,21,8,7,1.2,0.9
2022-08-16T02:00:00,1078A,114.5062,37.0349,邢台市,邢师高专,,47,47,49,12,21,145,17,15,15,40,25,5,3,1.5,0.8
2022-08-16T02:00:00,1079A,114.5237,37.0851,邢台市,路桥公司,,47,47,57,12,21,153,22,14,14,34,23,5,6,0.7,1
2022-08-16T02:00:00,1080A,114.4725,37.0719,邢台市,市环保局,,38,38,51,9,24,160,32,38,35,28,23,5,4,0.6,0.9
2022-08-16T02:00:00,1081A,112.5139,37.8873,太原市,尖草坪,,32,32,30,10,12,101,39,36,36,31,24,4,6,0.5,0.6
2022-08-16T02:00:00,1083A,112.434,38.0108,太原市,上兰(对照点),,,,,,,,,,,,,,,,
2022-08-16T02:00:00,1084A,112.469,37.7124,太原市,晋源,颗粒物(PM10),53,56,38,24,21,128,5,46,26,59,37,7,8,0.5,0.4
2022-08-16T02:00:00,1085A,112.5583,37.7394,太原市,小店,颗粒物(PM10),68,85,47,19,16,100,2,3,2,67,47,13,8,0.7,0.6
2022-08-16T02:00:00,1086A,112.5369,37.8692,太原市,桃园,,34,34,31,9,11,100,27,22,22,43,28,4,6,0.6,0.6
2022-08-16T02:00:00,1087A,112.57,37.8195,太原市,坞城,颗粒物(PM10),54,58,39,24,18,106,3,4,4,69,35,16,8,1.1,0.6
2022-08-16T02:00:00,1088A,112.549,37.9854,太原市,南寨,颗粒物(PM10),51,52,47,11,17,70,1,1,1,36,32,2,2,0.5,0.5
2022-08-16T02:00:00,1089A,112.4701,37.782,太原市,金胜,,,,,,,,,,,,,,,,
2022-08-16T02:00:00,1090A,111.6507,40.7517,呼和浩特市,呼市一监,,19,19,13,3,3,108,41,39,39,27,13,9,5,0.4,0.4
2022-08-16T02:00:00,1091A,111.6572,40.8033,呼和浩特市,小召,,17,12,14,4,3,106,52,50,50,22,15,6,4,0.3,0.3
2022-08-16T02:00:00,1094A,111.7516,40.8369,呼和浩特市,如意水处理厂,,,,,,,,,,,,,,,,
2022-08-16T02:00:00,1095A,111.7276,40.8062,呼和浩特市,二十九中,,16,16,15,8,4,105,40,45,42,27,14,8,6,0.5,0.4
2022-08-16T02:00:00,1096A,111.5512,40.7866,呼和浩特市,工大金川校区,,22,22,14,4,3,104,39,51,45,25,12,4,4,0.4,0.4
2022-08-16T02:00:00,1097A,111.717,40.7612,呼和浩特市,化肥厂生活区,,17,12,21,4,6,101,53,47,47,15,17,10,5,0.3,0.4
2022-08-16T02:00:00,1098A,123.6836,41.9339,沈阳市,森林路(对照点),,,,,,,,,,,,,,,,
2022-08-16T02:00:00,1099A,123.505,41.7406,沈阳市,浑南东路,,15,15,14,8,10,52,39,47,43,12,17,7,7,0.5,0.6
2022-08-16T02:00:00,1100A,123.4231,41.6989,沈阳市,新秀街,,19,16,17,8,10,57,12,18,15,37,21,7,7,0.7,0.7
2022-08-16T02:00:00,1102A,123.5903,41.8411,沈阳市,东陵路,,21,21,18,8,9,38,5,16,10,28,16,5,5,0.4,0.5
2022-08-16T02:00:00,1103A,123.4264,41.8467,沈阳市,陵东街,,13,13,9,6,7,48,14,18,16,9,16,4,4,0.4,0.5
2022-08-16T02:00:00,1104A,123.4114,41.7653,沈阳市,文化路,,15,15,14,9,10,58,34,39,36,11,11,5,5,0.5,0.6
2022-08-16T02:00:00,1105A,123.4678,41.7867,沈阳市,小河沿,,12,6,16,8,8,51,35,41,38,14,17,4,4,0.4,0.5
2022-08-16T02:00:00,1106A,123.4017,41.7972,沈阳市,太原街,,18,16,15,9,10,43,11,24,18,36,28,2,3,0.5,0.6
2022-08-16T02:00:00,1108A,123.3783,41.9228,沈阳市,京沈街,,14,14,15,9,9,58,38,42,40,9,8,8,7,0.4,0.4
2022-08-16T02:00:00,1109A,121.612,38.9741,大连市,甘井子,,20,4,13,3,10,96,62,62,62,10,12,3,3,0.4,0.5
2022-08-16T02:00:00,1110A,121.565,38.9511,大连市,周水子,,21,8,16,6,12,96,66,66,66,7,15,6,7,0.7,0.8
2022-08-16T02:00:00,1111A,121.5637,38.8845,大连市,星海三站,,27,12,18,2,10,120,84,80,80,14,18,5,6,0.3,0.4
2022-08-16T02:00:00,1112A,121.6302,38.9117,大连市,青泥洼桥,,21,10,12,6,11,105,65,64,64,10,18,6,6,0.4,0.6
2022-08-16T02:00:00,1113A,121.6251,38.8638,大连市,傅家庄,,23,12,20,9,12,113,73,72,72,12,14,7,8,0.7,0.8
2022-08-16T02:00:00,1114A,121.5213,38.8661,大连市,七贤岭,,27,8,15,2,9,129,84,84,84,4,6,2,3,0.6,0.6
2022-08-16T02:00:00,1115A,121.2529,38.8061,大连市,旅顺,,21,19,22,6,10,101,65,65,65,5,10,4,5,0.5,0.6
2022-08-16T02:00:00,1116A,121.7485,39.1311,大连市,金州,,19,13,15,9,12,88,58,53,53,9,10,7,5,0.3,0.5
2022-08-16T02:00:00,1117A,121.7811,39.0496,大连市,开发区,,21,15,19,14,10,99,65,69,67,12,15,6,6,0.7,0.8
2022-08-16T02:00:00,1118A,121.9762,39.0631,大连市,双D港,,16,8,12,3,8,92,51,50,50,12,11,6,6,0.7,0.8
2022-08-16T02:00:00,1119A,125.3325,43.9166,长春市,食品厂,,20,16,14,14,8,68,26,31,28,27,15,3,2,0.4,0.5
2022-08-16T02:00:00,1120A,125.2863,43.9027,长春市,客车厂,,16,4,14,5,7,71,50,50,50,13,21,4,4,0.3,0.4
2022-08-16T02:00:00,1121A,125.2841,43.8463,长春市,邮电学院,,14,11,13,8,6,68,42,42,42,15,12,4,4,0.4,0.4
2022-08-16T02:00:00,1122A,125.3716,43.8772,长春市,劳动公园,,15,6,14,3,6,67,48,50,49,12,14,5,5,0.5,0.6
2022-08-16T02:00:00,1123A,125.3297,43.8805,长春市,园林处,,14,11,13,6,3,70,42,42,42,16,14,3,3,0.4,0.5
2022-08-16T02:00:00,1124A,125.4605,43.79,长春市,净月潭,,14,6,11,3,4,61,44,49,46,4,4,4,4,0.2,0.3
2022-08-16T02:00:00,1125A,125.7194,43.515,长春市,甩湾子(对照点),,,,,,,,,,,,,,,,
2022-08-16T02:00:00,1126A,125.3863,43.8447,长春市,经开区环卫处,,16,12,13,4,6,69,49,49,49,10,14,5,4,0.4,0.4
2022-08-16T02:00:00,1127A,125.245,43.7783,长春市,高新区管委会,,15,12,15,8,8,68,48,47,47,14,20,3,2,0.3,0.4
2022-08-16T02:00:00,1128A,125.1761,43.8325,长春市,岱山公园,,13,11,17,0,5,69,39,47,43,18,26,5,5,0.4,0.4
2022-08-16T02:00:00,1129A,126.5422,45.755,哈尔滨市,岭北(对照点),,32,32,26,11,10,83,30,44,37,37,16,9,8,0.4,0.4
2022-08-16T02:00:00,1130A,126.561,45.8167,哈尔滨市,松北商大,颗粒物(PM10),55,60,29,12,8,69,4,4,4,48,23,6,6,0.8,0.8
2022-08-16T02:00:00,1131A,126.979,45.5419,哈尔滨市,阿城会宁,颗粒物(PM10),53,55,25,2,6,57,5,5,5,19,15,9,10,0.5,0.5
2022-08-16T02:00:00,1132A,126.599,45.7222,哈尔滨市,南岗学府路,,35,35,15,15,9,63,0,2,1,53,22,6,6,0.5,0.5
2022-08-16T02:00:00,1133A,126.689,45.7733,哈尔滨市,太平宏伟公园,颗粒物(PM10),54,58,35,7,8,68,2,2,2,47,24,8,8,0.6,0.4
2022-08-16T02:00:00,1134A,126.635,45.7667,哈尔滨市,道外承德广场,,41,41,45,6,10,62,8,19,14,46,27,8,9,0.5,0.5
2022-08-16T02:00:00,1135A,126.685,45.7319,哈尔滨市,香坊红旗大街,,34,34,22,6,6,62,4,4,4,49,26,10,10,0.6,0.5
2022-08-16T02:00:00,1136A,126.6411,45.7258,哈尔滨市,动力和平路,,,38,26,,10,70,2,14,8,49,24,14,11,0.7,0.6
2022-08-16T02:00:00,1137A,126.593,45.7478,哈尔滨市,道里建国路,,39,39,24,11,10,72,4,12,8,45,18,3,3,0.9,1.1
2022-08-16T02:00:00,1138A,126.615,45.61,哈尔滨市,平房东轻厂,,47,47,30,10,8,71,3,3,3,45,27,4,5,0.6,0.5
2022-08-16T02:00:00,1139A,126.595,45.9855,哈尔滨市,呼兰师专,,23,23,32,10,10,63,5,7,6,27,20,8,8,0.5,0.6
2022-08-16T02:00:00,1140A,126.6206,45.6842,哈尔滨市,省农科院,,36,36,26,11,8,71,3,4,4,42,22,9,9,0.7,0.4
2022-08-16T02:00:00,1141A,121.4,31.238,上海市,普陀,,18,17,36,12,17,248,42,46,44,23,20,6,6,0.6,0.6
2022-08-16T02:00:00,1142A,121.478,31.2036,上海市,十五厂,,20,16,33,14,19,199,29,32,30,18,18,4,5,0.7,0.7
2022-08-16T02:00:00,1143A,121.467,31.3008,上海市,虹口,,22,22,36,9,15,227,33,37,35,21,17,6,5,0.4,0.4
2022-08-16T02:00:00,1144A,121.412,31.1654,上海市,徐汇上师大,,28,28,36,11,19,202,37,37,37,16,20,5,7,0.7,0.7
2022-08-16T02:00:00,1145A,121.536,31.2659,上海市,杨浦四漂,,22,22,31,13,20,220,36,36,36,14,14,3,4,0.9,0.8
2022-08-16T02:00:00,1146A,120.978,31.0935,上海市,青浦淀山湖(对照点),,,,,,,,,,,,,,,,
2022-08-16T02:00:00,1147A,121.425,31.2261,上海市,静安监测站,,27,27,36,12,19,203,25,28,26,28,20,4,3,0.6,0.6
2022-08-16T02:00:00,1148A,121.703,31.1907,上海市,浦东川沙,,23,23,37,10,15,180,30,32,31,16,15,6,6,0.5,0.5
2022-08-16T02:00:00,1149A,121.533,31.2284,上海市,浦东新区监测站,,22,22,36,12,18,213,31,32,32,21,21,5,6,0.7,0.7
2022-08-16T02:00:00,1150A,121.577,31.2071,上海市,浦东张江,,18,17,25,12,15,190,32,35,34,18,19,4,5,0.8,0.8
2022-08-16T02:00:00,1151A,118.8086,32.1065,南京市,迈皋桥,,28,28,38,14,12,163,77,80,78,19,18,6,8,0.3,0.5
2022-08-16T02:00:00,1152A,118.7538,32.0551,南京市,草场门,,29,29,36,12,13,135,69,72,70,22,24,9,8,0.7,0.5
2022-08-16T02:00:00,1153A,118.7794,32.0745,南京市,山西路,,34,34,38,12,13,160,102,100,100,16,19,5,8,0.3,0.4
2022-08-16T02:00:00,1154A,118.7752,32.0023,南京市,中华门,,41,41,37,12,10,142,50,44,44,37,19,9,5,1.0,1
2022-08-16T02:00:00,1155A,118.8109,32.0309,南京市,瑞金路,,37,37,38,12,16,159,71,62,62,23,15,15,8,0.4,0.5
2022-08-16T02:00:00,1156A,118.7997,32.0754,南京市,玄武湖,,31,31,30,19,16,152,54,86,70,19,10,4,7,0.8,0.9
2022-08-16T02:00:00,1157A,118.6414,32.0931,南京市,浦口,,32,32,38,9,11,155,69,84,76,20,16,6,6,0.3,0.4
2022-08-16T02:00:00,1158A,118.7356,31.9996,南京市,奥体中心,颗粒物(PM10),65,80,47,27,18,148,39,38,38,58,24,14,8,0.6,0.6
2022-08-16T02:00:00,1159A,118.9125,32.1028,南京市,仙林大学城,,36,36,42,17,17,157,51,54,52,29,19,16,9,0.8,0.6
2022-08-16T02:00:00,1160A,120.561,31.2472,苏州市,上方山(对照点),,42,42,47,24,26,205,40,48,44,28,18,11,9,0.4,0.4
2022-08-16T02:00:00,1161A,120.628,31.2864,苏州市,南门,,,,,,,,,,,,,,,,
2022-08-16T02:00:00,1162A,120.591,31.3019,苏州市,彩香,,30,8,33,21,21,201,43,43,43,17,14,9,8,0.9,0.7
2022-08-16T02:00:00,1163A,120.596,31.3264,苏州市,轧钢厂,,38,38,40,15,17,192,47,50,48,18,14,8,8,0.5,0.5
2022-08-16T02:00:00,1164A,120.613,31.2703,苏州市,吴中区,,38,38,32,12,20,220,30,45,38,33,22,8,9,0.6,0.5
2022-08-16T02:00:00,1165A,120.543,31.2994,苏州市,苏州新区,,38,26,35,26,34,186,57,59,58,23,19,7,7,0.7,0.7
2022-08-16T02:00:00,1166A,120.669,31.3097,苏州市,苏州工业园区,,30,30,36,13,19,205,35,42,38,21,18,6,6,0.6,0.6
2022-08-16T02:00:00,1167A,120.641,31.3708,苏州市,相城区,,32,32,37,18,23,199,34,45,40,18,12,7,7,0.6,0.6
2022-08-16T02:00:00,1168A,120.9098,31.9663,南通市,狼山街道,,36,36,39,12,15,257,53,59,56,33,26,11,10,0.7,0.6
2022-08-16T02:00:00,1169A,120.86,32.0005,南通市,虹桥,,35,35,36,20,20,246,72,72,72,25,22,12,11,0.8,0.6
2022-08-16T02:00:00,1170A,120.87,32.02,南通市,城中,,41,41,39,23,25,248,85,80,80,30,25,13,11,0.7,0.4
2022-08-16T02:00:00,1171A,120.94,31.93,南通市,星湖花园,,33,33,45,17,22,257,52,52,52,28,24,13,11,0.9,0.9
2022-08-16T02:00:00,1172A,120.81,32.0417,南通市,紫琅学院,颗粒物(PM10),53,55,45,9,16,255,86,84,84,25,32,6,7,0.9,0.9
2022-08-16T02:00:00,1173A,119.176,34.5885,连云港市,市环境监测站,,34,7,32,0,15,148,106,104,104,4,7,3,2,0.2,0.3
2022-08-16T02:00:00,1177A,117.179,34.2761,徐州市,黄河新村,,23,22,36,8,16,140,73,85,79,12,14,4,6,0.8,0.8
2022-08-16T02:00:00,1178A,117.1918,34.2384,徐州市,淮塔,,19,19,36,9,18,149,60,82,71,9,12,6,7,0.6,0.7
2022-08-16T02:00:00,1180A,117.256,34.2153,徐州市,新城区,,25,22,43,7,16,140,77,86,82,17,18,4,6,0.5,0.5
2022-08-16T02:00:00,1181A,117.244,34.2911,徐州市,桃园路,,41,41,46,12,11,140,57,77,67,31,17,5,6,0.7,0.6
2022-08-16T02:00:00,1182A,117.2933,34.2778,徐州市,农科院,,27,27,34,2,8,122,48,52,50,38,24,4,6,0.6,0.6
2022-08-16T02:00:00,1186A,119.389,32.3761,扬州市,邗江监测站,颗粒物(PM10),60,70,45,25,19,179,37,33,33,47,22,7,7,0.7,0.7
2022-08-16T02:00:00,1188A,120.269,31.4867,无锡市,雪浪,,34,22,37,19,21,193,107,109,108,2,5,5,7,0.5,0.5
2022-08-16T02:00:00,1189A,120.275,31.6219,无锡市,黄巷,,31,31,41,19,20,164,67,90,78,32,17,7,8,1.3,1.1
2022-08-16T02:00:00,1190A,120.294,31.56,无锡市,曹张,,26,26,36,12,21,170,82,84,83,11,8,8,7,0.8,0.8
2022-08-16T02:00:00,1191A,120.242,31.5031,无锡市,漆塘,,39,39,35,17,18,198,108,114,111,6,8,7,9,0.5,0.5
2022-08-16T02:00:00,1192A,120.3489,31.5863,无锡市,东亭,,39,39,40,17,20,171,94,110,102,14,14,8,9,0.8,0.8
2022-08-16T02:00:00,1193A,120.354,31.5475,无锡市,旺庄,,35,35,37,17,18,166,107,109,108,14,16,5,6,0.8,0.8
2022-08-16T02:00:00,1194A,120.245,31.5631,无锡市,荣巷,,29,29,35,17,22,181,85,84,84,10,7,7,8,0.5,0.5
2022-08-16T02:00:00,1195A,120.299,31.6817,无锡市,堰桥,,22,22,41,12,18,152,51,73,62,29,18,6,8,0.8,0.5
2022-08-16T02:00:00,1196A,119.9633,31.762,常州市,市监测站,,36,36,32,18,19,128,94,94,94,17,12,12,10,1.1,0.6
2022-08-16T02:00:00,1200A,119.9468,31.7069,常州市,武进监测站,,35,29,34,13,19,143,112,120,116,10,8,15,15,0.7,0.6
2022-08-16T02:00:00,1201A,119.9255,31.9087,常州市,安家,,28,26,35,17,21,155,88,111,100,17,14,5,5,0.8,0.7
2022-08-16T02:00:00,1203A,119.6707,32.1875,镇江市,新区办事处,,39,31,29,27,21,152,79,82,80,31,30,31,14,0.3,0.2
2022-08-16T02:00:00,1204A,119.4974,32.1968,镇江市,职教中心,,39,39,32,12,10,192,64,69,66,19,14,5,3,0.6,0.6
2022-08-16T02:00:00,1205A,119.4303,32.1328,镇江市,丹徒区监测站,,46,46,32,22,20,161,67,77,72,23,13,5,5,0.7,0.6
2022-08-16T02:00:00,1206A,119.905,32.4878,泰州市,公园路,,48,48,39,29,22,176,13,29,21,62,20,6,6,0.8,0.8
2022-08-16T02:00:00,1207A,119.9189,32.4625,泰州市,莲花,,44,44,40,27,26,199,38,30,30,55,29,12,11,0.9,0.9
2022-08-16T02:00:00,1209A,119.888,32.4639,泰州市,留学生创业园,颗粒物(PM10),54,57,44,28,22,202,23,21,21,68,25,6,7,1.2,1.1
2022-08-16T02:00:00,1210A,119.036,33.5981,淮安市,钵池山,,34,14,30,11,15,162,108,111,110,5,10,4,6,0.6,0.8
2022-08-16T02:00:00,1211A,119.007,33.575,淮安市,北京南路,,35,7,42,15,18,162,112,116,114,5,15,7,13,0.4,0.8
2022-08-16T02:00:00,1212A,118.989,33.6067,淮安市,市监测站,,30,5,33,8,16,150,95,111,103,10,14,5,7,0.5,0.6
2022-08-16T02:00:00,1213A,119.135,33.5039,淮安市,楚州区监测站,,37,37,42,5,14,166,105,105,105,5,14,8,10,0.4,0.5
2022-08-16T02:00:00,1214A,119.0186,33.6297,淮安市,淮阴区监测站,,30,7,34,8,17,151,94,110,102,14,11,5,7,0.4,0.6
2022-08-16T02:00:00,1215A,120.118,33.4022,盐城市,盐城电厂,,33,19,44,18,26,154,105,110,108,8,14,5,9,0.3,0.5
2022-08-16T02:00:00,1216A,120.156,33.3942,盐城市,市监测站,,32,25,37,12,24,145,102,103,102,5,10,4,8,0.3,0.5
2022-08-16T02:00:00,1218A,120.2144,33.38,盐城市,开发区管委会,,35,17,36,8,23,158,109,116,112,8,14,9,10,0.5,0.6
2022-08-16T02:00:00,1220A,118.293,33.9528,宿迁市,宿迁学院,,37,11,34,0,17,150,117,117,117,5,11,4,6,0.3,0.4
2022-08-16T02:00:00,1221A,118.2442,33.9592,宿迁市,宿迁中学,,35,8,36,0,18,138,111,110,110,6,12,4,6,0.4,0.4
2022-08-16T02:00:00,1223A,120.2072,30.2111,杭州市,滨江,,38,33,41,26,31,178,62,61,61,19,21,6,6,0.5,0.6
2022-08-16T02:00:00,1224A,120.0633,30.2747,杭州市,西溪,,45,45,40,26,22,152,35,34,34,28,16,10,10,0.8,0.7
2022-08-16T02:00:00,1225A,119.026,29.635,杭州市,千岛湖(对照点),,,,,,,,,,,,,,,,
2022-08-16T02:00:00,1226A,120.3461,30.3153,杭州市,下沙,,36,36,44,14,20,184,65,60,60,17,18,6,6,0.6,0.6
2022-08-16T02:00:00,1227A,120.1269,30.2456,杭州市,卧龙桥,,42,37,35,29,24,166,9,24,16,46,21,5,5,0.7,0.6
2022-08-16T02:00:00,1228A,120.1903,30.2692,杭州市,浙江农大,,35,35,39,23,24,183,58,69,64,18,17,5,5,0.6,0.6
2022-08-16T02:00:00,1229A,120.157,30.2897,杭州市,朝晖五区,,,,,,,,,,,,,,,,
2022-08-16T02:00:00,1230A,120.1197,30.3119,杭州市,和睦小学,颗粒物(PM10),52,54,47,28,28,167,50,49,49,33,24,8,8,0.7,0.7
2022-08-16T02:00:00,1231A,120.3019,30.4183,杭州市,临平镇,颗粒物(PM10),53,55,49,26,20,198,46,57,52,35,21,4,4,0.8,0.8
2022-08-16T02:00:00,1232A,120.2697,30.1819,杭州市,城厢镇,,35,35,39,21,21,176,64,66,65,16,17,7,8,0.4,0.5
2022-08-16T02:00:00,1233A,120.0883,30.1808,杭州市,云栖,,41,41,36,21,19,166,14,20,17,43,23,6,7,0.5,0.5
2022-08-16T02:00:00,1234A,121.8358,29.911,宁波市,区环保大楼,,11,10,15,4,9,97,33,35,34,4,8,5,6,0.4,0.4
2022-08-16T02:00:00,1235A,121.56,29.82,宁波市,万里学院,,9,7,17,5,8,125,28,32,30,7,6,8,6,0.6,0.6
2022-08-16T02:00:00,1236A,121.713,29.9572,宁波市,龙赛医院,,10,9,12,5,6,120,32,33,32,6,8,6,6,0.5,0.4
2022-08-16T02:00:00,1239A,121.633,29.7733,宁波市,钱湖水厂,,10,2,8,2,8,110,29,32,30,6,9,3,3,0.4,0.3
2022-08-16T02:00:00,1240A,121.5856,29.8635,宁波市,太古小学,,13,13,17,6,9,113,29,32,30,8,11,6,7,0.5,0.6
2022-08-16T02:00:00,1241A,121.524,29.8674,宁波市,市环境监测中心,,17,17,19,3,7,111,21,20,20,8,7,6,4,0.3,0.3
2022-08-16T02:00:00,1242A,120.634,28.0089,温州市,瓯海,,17,17,25,4,10,107,22,26,24,12,15,6,6,0.4,0.5
2022-08-16T02:00:00,1243A,120.6748,27.9939,温州市,南浦,,12,12,20,3,8,101,26,27,26,3,9,4,5,0.2,0.2
2022-08-16T02:00:00,1244A,120.76,27.9747,温州市,龙湾,,18,18,26,3,8,92,18,24,21,16,18,5,6,0.3,0.4
2022-08-16T02:00:00,1245A,120.6709,28.0167,温州市,市站,,10,10,21,0,8,109,23,28,26,14,18,5,6,0.4,0.4
2022-08-16T02:00:00,1246A,120.598,30.0911,绍兴市,袍江站,,,,,,,,,,,,,,,,
2022-08-16T02:00:00,1247A,120.6053,29.9928,绍兴市,城东开发委,,20,20,25,7,14,121,64,65,64,4,6,6,6,0.5,0.6
2022-08-16T02:00:00,1250A,120.0751,30.8669,湖州市,城西水厂,,38,38,45,21,24,187,29,24,24,37,29,5,5,0.5,0.4
2022-08-16T02:00:00,1252A,120.7436,30.778,嘉兴市,清河小学,,25,25,37,11,16,226,54,59,56,15,17,5,6,0.6,0.7
2022-08-16T02:00:00,1253A,120.726,30.7478,嘉兴市,嘉兴学院,,32,32,38,12,20,227,51,54,52,14,16,3,3,0.4,0.5
2022-08-16T02:00:00,1255A,121.273,28.6459,台州市,黄岩环保大楼,,9,7,12,3,5,90,28,26,26,6,9,5,6,0.4,0.4
2022-08-16T02:00:00,1256A,121.419,28.6542,台州市,台州环保大楼,,14,14,16,1,6,88,28,28,28,6,8,4,4,0.3,0.4
2022-08-16T02:00:00,1257A,121.377,28.5773,台州市,路桥田洋王,,9,8,17,3,8,84,28,29,28,6,8,4,5,0.3,0.4
2022-08-16T02:00:00,1258A,122.122,30.0203,舟山市,定海檀枫,,16,16,15,4,5,74,24,22,22,9,10,1,2,0.2,0.2
2022-08-16T02:00:00,1259A,122.3094,29.9558,舟山市,普陀东港,,9,9,12,5,5,48,27,28,28,12,16,2,3,0.3,0.3
2022-08-16T02:00:00,1260A,122.19,29.9944,舟山市,临城新区,,13,13,14,3,4,65,25,24,24,10,15,2,3,0.3,0.3
2022-08-16T02:00:00,1261A,119.649,29.1131,金华市,四中(停运161031),,,,,,,,,,,,,,,,
2022-08-16T02:00:00,1262A,119.647,29.077,金华市,十五中,,24,24,33,15,19,166,61,65,63,10,11,4,5,0.3,0.4
2022-08-16T02:00:00,1263A,119.686,29.1029,金华市,监测站,,28,26,32,19,18,168,61,67,64,11,10,4,4,0.5,0.5
2022-08-16T02:00:00,1264A,118.8692,28.9398,衢州市,环保大楼,,42,37,46,29,27,142,39,45,42,15,18,8,19,0.6,0.7
2022-08-16T02:00:00,1265A,118.8709,28.9666,衢州市,实验学校,,37,37,40,20,20,159,48,50,49,13,19,7,12,0.4,0.5
2022-08-16T02:00:00,1266A,118.8621,28.9808,衢州市,衢州学院,,50,46,43,35,26,159,51,53,52,17,20,14,12,0.8,0.8
2022-08-16T02:00:00,1267A,119.914,28.4514,丽水市,监测站大楼,,11,6,19,5,11,91,33,35,34,6,8,6,6,0.3,0.4
2022-08-16T02:00:00,1268A,119.93,28.4586,丽水市,莲都小学,,12,9,19,4,10,108,38,38,38,5,7,6,6,0.4,0.4
2022-08-16T02:00:00,1269A,119.879,28.4231,丽水市,余庄前,,16,16,21,9,10,127,40,42,41,7,8,5,7,0.4,0.4
2022-08-16T02:00:00,1270A,117.1959,31.7848,合肥市,明珠广场,,41,41,35,19,17,143,71,71,71,28,20,8,8,0.6,0.6
2022-08-16T02:00:00,1271A,117.3072,31.8764,合肥市,三里街,,27,27,32,17,10,131,70,75,72,22,19,6,6,0.6,0.5
2022-08-16T02:00:00,1272A,117.2588,31.8707,合肥市,琥珀山庄,,36,36,34,17,15,141,67,83,75,22,13,5,5,0.5,0.5
2022-08-16T02:00:00,1273A,117.1604,31.9052,合肥市,董铺水库(对照点),颗粒物(PM10),76,102,41,19,10,130,58,68,63,21,13,10,10,0.4,0.7
2022-08-16T02:00:00,1274A,117.25,31.8571,合肥市,长江中路,,41,41,40,10,11,134,72,78,75,7,9,9,10,0.6,0.5
2022-08-16T02:00:00,1275A,117.266,31.9436,合肥市,庐阳区,颗粒物(PM10),51,51,39,22,18,134,56,70,63,23,12,6,7,0.4,0.3
2022-08-16T02:00:00,1276A,117.336,31.8586,合肥市,瑶海区,,39,39,43,15,14,136,78,74,74,15,16,9,10,0.5,0.5
2022-08-16T02:00:00,1277A,117.3027,31.7964,合肥市,包河区,颗粒物(PM10),57,63,44,22,17,141,74,66,66,25,21,10,11,0.5,0.5
2022-08-16T02:00:00,1278A,117.2776,31.7385,合肥市,滨湖新区,,36,36,36,19,11,133,52,66,59,48,21,9,9,0.5,0.4
2022-08-16T02:00:00,1279A,117.1318,31.8403,合肥市,高新区,颗粒物(PM10),54,58,38,19,15,140,76,81,78,17,14,5,5,0.4,0.4
2022-08-16T02:00:00,1280A,119.3903,26.0543,福州市,鼓山(对照点),,,,,,,,,,,,,,,,
2022-08-16T02:00:00,1282A,119.2681,26.0504,福州市,师大,,32,32,27,12,10,149,36,42,39,16,11,5,4,0.2,0.2
2022-08-16T02:00:00,1283A,119.2984,26.1028,福州市,五四北路,,15,1,17,10,8,142,40,40,40,8,10,3,3,0.2,0.3
2022-08-16T02:00:00,1284A,119.2648,26.0768,福州市,杨桥西路,,19,19,25,10,9,146,34,38,36,11,9,4,4,0.2,0.3
2022-08-16T02:00:00,1285A,119.317,26.0746,福州市,紫阳,,,,23,,6,141,,,,,8,6,5,,0.3
2022-08-16T02:00:00,1286A,118.1608,24.8169,厦门市,溪东(对照点),,,,,,,,,,,,,,,,
2022-08-16T02:00:00,1287A,118.1514,24.4767,厦门市,洪文,,17,5,17,6,8,100,54,61,58,4,12,1,4,0.3,0.4
2022-08-16T02:00:00,1288A,118.0661,24.4444,厦门市,鼓浪屿,,16,9,15,2,7,93,51,45,45,5,17,1,5,0.2,0.3
2022-08-16T02:00:00,1290A,115.8931,28.6843,南昌市,省外办,,36,36,36,9,13,148,40,45,42,21,18,5,14,0.6,0.6
2022-08-16T02:00:00,1291A,115.8886,28.7003,南昌市,省林业公司,颗粒物(PM10),51,51,37,7,11,150,31,45,38,38,25,5,14,0.6,0.6
2022-08-16T02:00:00,1292A,115.8126,28.7442,南昌市,林科所,,21,19,35,12,16,151,33,23,23,42,32,8,12,0.5,0.5
2022-08-16T02:00:00,1294A,115.8518,28.687,南昌市,建工学校,,47,47,41,19,17,148,24,37,30,44,24,8,15,0.6,0.6
2022-08-16T02:00:00,1295A,115.8921,28.6424,南昌市,象湖,,43,43,44,6,8,148,30,28,28,22,16,5,12,0.5,0.5
2022-08-16T02:00:00,1296A,115.7423,28.7996,南昌市,武术学校(对照点),,28,17,23,19,14,141,26,26,26,11,9,4,5,0.5,0.6
2022-08-16T02:00:00,1298A,115.9314,28.6842,南昌市,省站,,30,30,32,18,20,141,44,48,46,18,14,7,16,0.7,0.7
2022-08-16T02:00:00,1299A,116.9862,36.6114,济南市,科干所,,25,22,36,7,18,130,78,69,69,23,19,4,5,0.6,0.8
2022-08-16T02:00:00,1300A,116.9376,36.665,济南市,农科所,,22,22,32,5,12,121,43,51,47,34,21,4,6,0.4,0.5
2022-08-16T02:00:00,1301A,117.1265,36.6734,济南市,开发区,,34,34,38,10,11,132,37,34,34,54,26,3,5,0.6,0.6
2022-08-16T02:00:00,1303A,117.0624,36.6868,济南市,省种子仓库,,36,36,41,14,17,123,54,62,58,43,18,4,4,0.6,0.6
2022-08-16T02:00:00,1304A,116.9489,36.6447,济南市,机床二厂,,47,47,48,10,14,144,78,84,81,33,19,6,6,0.4,0.4
2022-08-16T02:00:00,1305A,117.0495,36.663,济南市,市监测站,,34,34,36,17,16,134,42,83,62,40,18,6,7,0.8,0.7
2022-08-16T02:00:00,1306A,116.7675,36.5484,济南市,长清党校,,42,42,42,12,19,132,42,40,40,44,22,4,7,0.5,0.6
2022-08-16T02:00:00,1307A,120.6659,36.2403,青岛市,仰口(对照点),,,,,,,,,,,,,,,,
2022-08-16T02:00:00,1308A,120.3905,36.1851,青岛市,李沧区子站,,,,,,,,,,,,,,,,
2022-08-16T02:00:00,1309A,120.3471,36.0699,青岛市,市北区子站,,,,,,,,,,,,,,,,
2022-08-16T02:00:00,1310A,120.4134,36.0658,青岛市,市南区东部子站,,34,34,44,19,24,154,100,108,104,8,19,7,9,0.7,0.5
2022-08-16T02:00:00,1311A,120.3664,36.1032,青岛市,四方区子站,,45,39,43,31,24,169,92,106,99,7,19,8,8,1.0,0.8
2022-08-16T02:00:00,1312A,120.2994,36.054,青岛市,市南区西部子站,,32,31,47,20,20,148,102,104,103,7,26,7,8,1.1,0.8
2022-08-16T02:00:00,1313A,120.4581,36.0858,青岛市,崂山区子站,,35,22,43,12,20,178,109,124,116,10,21,5,7,0.7,0.5
2022-08-16T02:00:00,1314A,120.1983,35.9608,青岛市,黄岛区子站,,44,44,40,24,23,169,79,79,79,40,24,6,6,1.0,0.7
2022-08-16T02:00:00,1315A,120.3999,36.3083,青岛市,城阳区子站,,38,32,37,26,19,172,80,92,86,10,18,5,6,1.0,0.9
2022-08-16T02:00:00,1316A,113.69031,34.76122,郑州市,烟厂,,34,34,59,17,27,163,82,70,70,12,21,7,4,0.7,0.8
2022-08-16T02:00:00,1317A,113.65724,34.77134,郑州市,郑纺机,,,42,60,,19,156,76,68,68,13,18,7,7,0.7,0.8
2022-08-16T02:00:00,1318A,113.67526,34.80246,郑州市,银行学校,,34,34,56,15,26,163,70,65,65,15,16,4,3,0.7,0.8
2022-08-16T02:00:00,1319A,113.56746,34.81334,郑州市,供水公司,,39,39,58,16,25,144,53,55,54,18,18,2,3,0.4,0.5
2022-08-16T02:00:00,1320A,113.7329,34.7178,郑州市,经开区管委,颗粒物(PM10),51,51,64,21,30,168,67,58,58,20,22,5,4,0.6,0.7
2022-08-16T02:00:00,1321A,113.73961,34.77172,郑州市,四十七中,,50,50,58,15,23,168,58,44,44,23,23,3,1,0.5,0.7
2022-08-16T02:00:00,1322A,113.60532,34.74838,郑州市,市监测站,,,57,71,,,163,64,48,48,23,28,5,3,0.4,0.5
2022-08-16T02:00:00,1323A,113.64164,34.7525,郑州市,河医大,,47,47,67,19,29,147,66,41,41,20,22,5,2,0.6,0.7
2022-08-16T02:00:00,1324A,113.51488,34.91089,郑州市,岗李水库(对照点),,,,,,,,,,,,,,,,
2022-08-16T02:00:00,1325A,114.3677,30.5584,武汉市,东湖梨园,,39,39,24,20,12,141,27,26,26,41,15,6,7,0.8,0.7
2022-08-16T02:00:00,1326A,114.2529,30.558,武汉市,汉阳月湖,,29,28,25,9,10,113,16,18,17,58,24,6,6,0.8,0.7
2022-08-16T02:00:00,1327A,114.282,30.6189,武汉市,汉口花桥,,22,20,26,15,16,111,65,75,70,19,13,5,6,0.5,0.5
2022-08-16T02:00:00,1328A,114.3025,30.5332,武汉市,武昌紫阳,,25,24,26,11,11,137,26,37,32,49,15,7,8,0.7,0.7
2022-08-16T02:00:00,1329A,114.3646,30.6217,武汉市,青山钢花,,41,41,30,22,18,129,28,35,32,50,20,13,8,0.7,0.6
2022-08-16T02:00:00,1330A,114.1566,30.4825,武汉市,沌口新区,颗粒物(PM10),57,64,36,26,19,112,17,13,13,70,29,7,7,0.8,0.8
2022-08-16T02:00:00,1331A,114.3014,30.5944,武汉市,汉口江滩,,34,28,25,17,13,129,24,16,16,68,27,10,10,0.8,0.7
2022-08-16T02:00:00,1333A,114.135,30.6319,武汉市,吴家山,,32,32,35,17,12,112,34,41,38,49,20,6,5,0.8,0.8
2022-08-16T02:00:00,1334A,113.8454,30.2917,武汉市,沉湖七壕(对照点),,32,32,21,4,2,109,19,12,12,41,18,8,9,0.9,0.8
2022-08-16T02:00:00,1335A,113.0833,28.2325,长沙市,经开区环保局,,26,26,25,17,20,122,44,46,45,16,13,6,7,0.4,0.4
2022-08-16T02:00:00,1336A,112.8872,28.2189,长沙市,高开区环保局,,24,24,24,6,16,105,71,85,78,18,10,10,9,0.3,0.3
2022-08-16T02:00:00,1337A,113.0792,28.2053,长沙市,马坡岭,,37,37,33,21,20,137,27,32,30,21,14,6,8,0.6,0.7
2022-08-16T02:00:00,1338A,112.9394,28.19,长沙市,湖南师范大学,,30,30,35,14,10,111,39,49,44,22,10,4,5,0.6,0.5
2022-08-16T02:00:00,1339A,113.0178,28.1322,长沙市,雨花区环保局,细颗粒物(PM2.5),84,77,27,62,15,139,52,31,31,32,16,10,9,0.6,0.6
2022-08-16T02:00:00,1340A,112.9792,28.2597,长沙市,伍家岭,颗粒物(PM10),52,54,31,13,20,114,41,38,38,35,18,5,6,0.2,0.2
2022-08-16T02:00:00,1341A,113.0014,28.1944,长沙市,火车新站,,39,39,25,18,17,121,29,28,28,42,15,8,9,0.5,0.5
2022-08-16T02:00:00,1342A,112.9844,28.1178,长沙市,天心区环保局,,37,37,28,15,16,126,30,38,34,41,15,6,6,0.6,0.5
2022-08-16T02:00:00,1343A,112.8908,28.1308,长沙市,湖南中医药大学,颗粒物(PM10),51,52,39,18,20,98,21,13,13,37,21,5,5,0.5,0.4
2022-08-16T02:00:00,1344A,112.9581,28.3611,长沙市,沙坪(对照点),,,37,32,,17,100,19,28,24,33,18,3,5,0.6,0.5
2022-08-16T02:00:00,1345A,113.2347,23.1423,广州市,广雅中学,,18,18,25,7,11,182,24,30,27,23,20,5,5,0.7,0.7
2022-08-16T02:00:00,1346A,113.2612,23.105,广州市,市五中,,16,16,21,9,12,182,32,32,32,18,16,6,6,0.6,0.6
2022-08-16T02:00:00,1348A,113.3478,23.0916,广州市,广东商学院,,16,16,22,6,10,183,19,20,20,32,24,3,3,0.4,0.5
2022-08-16T02:00:00,1349A,113.4332,23.1047,广州市,市八十六中,,18,18,25,6,11,235,17,22,20,36,9,5,5,0.6,0.8
2022-08-16T02:00:00,1350A,113.3505,22.9483,广州市,番禺中学,,16,16,20,8,10,173,26,25,25,20,15,10,10,0.5,0.5
2022-08-16T02:00:00,1351A,113.2146,23.3916,广州市,花都师范,,23,23,31,8,14,237,22,20,20,27,26,5,6,0.6,0.6
2022-08-16T02:00:00,1352A,113.2597,23.1331,广州市,市监测站,,16,16,24,8,11,181,32,33,32,16,16,4,4,0.6,0.7
2022-08-16T02:00:00,1353A,113.5618,23.312,广州市,九龙镇镇龙,,,,38,,18,46,,18,,,27,,8,,0.7
2022-08-16T02:00:00,1354A,113.2765,23.1544,广州市,麓湖,,14,14,22,6,11,177,34,35,34,8,10,4,4,0.6,0.7
2022-08-16T02:00:00,1355A,113.443,23.3035,广州市,帽峰山森林公园(对照点),,13,13,22,5,10,202,35,33,33,15,13,9,8,0.5,0.6
2022-08-16T02:00:00,1356A,114.1063,22.5545,深圳市,通心岭子站,,14,14,16,5,7,120,26,28,27,12,15,3,3,0.6,0.6
2022-08-16T02:00:00,1357A,114.117,22.5625,深圳市,洪湖,,26,26,23,5,8,91,15,28,22,26,20,8,8,0.5,0.6
2022-08-16T02:00:00,1358A,113.987,22.5417,深圳市,华侨城,,19,19,20,0,6,86,20,20,20,23,17,6,6,0.5,0.6
2022-08-16T02:00:00,1359A,113.9181,22.5171,深圳市,南海子站,,10,9,21,7,10,122,29,33,31,17,23,4,4,0.5,0.6
2022-08-16T02:00:00,1360A,114.2458,22.5689,深圳市,盐田,,16,16,15,6,7,89,27,44,36,19,18,4,5,0.6,0.6
2022-08-16T02:00:00,1361A,114.2283,22.7244,深圳市,龙岗,,13,13,20,6,7,157,24,26,25,22,20,4,4,0.3,0.4
2022-08-16T02:00:00,1362A,113.8953,22.5861,深圳市,西乡,,,,,,,,,,,,,,,,
2022-08-16T02:00:00,1363A,114.494,22.5422,深圳市,南澳,,13,13,13,9,7,78,24,31,28,6,7,7,4,0.8,0.7
2022-08-16T02:00:00,1364A,114.41,22.6342,深圳市,葵涌,,18,18,16,8,6,63,27,36,32,11,9,8,9,0.6,0.6
2022-08-16T02:00:00,1365A,114.297,22.5978,深圳市,梅沙,,,,17,,4,16,,14,,,18,,7,,0.5
2022-08-16T02:00:00,1366A,114.0678,22.738,深圳市,观澜,,22,22,35,4,12,166,13,12,12,18,18,5,5,0.5,0.5
2022-08-16T02:00:00,1367A,113.5814,22.2618,珠海市,吉大,,13,4,10,2,6,72,41,42,42,2,4,7,7,0.3,0.3
2022-08-16T02:00:00,1368A,113.4881,22.2335,珠海市,前山,,12,9,12,8,6,89,24,37,30,20,16,9,9,0.3,0.4
2022-08-16T02:00:00,1369A,113.628,22.4251,珠海市,唐家,,14,6,8,7,5,74,42,48,45,6,4,6,6,0.3,0.3
2022-08-16T02:00:00,1370A,113.299,22.2281,珠海市,斗门,,9,7,11,2,8,102,28,33,30,6,9,5,5,0.4,0.5
2022-08-16T02:00:00,1371A,113.1294,23.0067,佛山市,湾梁,,16,12,18,11,11,150,26,29,28,11,12,9,5,0.3,0.3
2022-08-16T02:00:00,1372A,113.1083,23.0478,佛山市,华材职中,,13,9,20,9,12,176,29,35,32,13,13,7,5,0.4,0.4
2022-08-16T02:00:00,1373A,113.144,23.0453,佛山市,南海气象局,,20,10,25,14,15,168,30,30,30,13,16,8,5,0.5,0.4
2022-08-16T02:00:00,1374A,113.2881,22.8094,佛山市,顺德苏岗,,10,1,11,0,9,210,30,35,32,12,14,4,5,0.5,0.6
2022-08-16T02:00:00,1375A,113.2544,22.7642,佛山市,容桂街道办,,,,,,,,,,,,,,,,
2022-08-16T02:00:00,1376A,112.8383,22.8678,佛山市,高明孔堂,,17,17,20,7,10,116,41,49,45,6,8,6,6,0.6,0.6
2022-08-16T02:00:00,1377A,112.8836,23.1588,佛山市,三水监测站,,27,27,30,14,20,202,30,28,28,20,29,7,10,0.6,0.5
2022-08-16T02:00:00,1378A,112.867,23.185,佛山市,三水云东海,,24,24,31,11,16,165,35,38,36,16,20,7,8,0.5,0.5
2022-08-16T02:00:00,1379A,113.3769,22.5211,中山市,华柏园,,9,6,17,5,9,117,26,29,28,6,8,2,2,0.5,0.7
2022-08-16T02:00:00,1380A,113.3881,22.5497,中山市,张溪,,12,9,23,2,10,135,37,40,38,6,12,2,2,0.6,0.6
2022-08-16T02:00:00,1381A,113.4075,22.5111,中山市,紫马岭,,12,12,20,5,9,118,19,34,26,12,11,6,6,0.6,0.6
2022-08-16T02:00:00,1382A,113.4411,22.4853,中山市,长江旅游区(对照点),,17,17,16,6,10,101,18,25,22,7,7,7,7,0.2,0.3
2022-08-16T02:00:00,1383A,113.1064,22.6058,江门市,北街,,13,13,19,5,7,149,27,32,30,12,9,5,5,0.5,0.5
2022-08-16T02:00:00,1384A,113.0731,22.5835,江门市,西区,,22,22,20,6,9,128,30,28,28,14,15,6,6,0.5,0.6
2022-08-16T02:00:00,1385A,113.0219,22.5311,江门市,圭峰西,,18,18,20,4,8,116,30,31,30,8,11,4,4,0.5,0.5
2022-08-16T02:00:00,1386A,113.0828,22.5947,江门市,东湖,,16,16,17,3,10,137,28,30,29,16,13,7,7,0.5,0.5
2022-08-16T02:00:00,1387A,113.7875,23.0457,东莞市,东城主山,,,,,,,,,,,,,,,,
2022-08-16T02:00:00,1388A,113.7533,23.0202,东莞市,南城元岭,,,,,,,,,,,,,,,,
2022-08-16T02:00:00,1389A,113.7547,23.0494,东莞市,莞城梨川,,17,11,17,7,9,204,23,24,24,34,21,8,8,0.8,0.8
2022-08-16T02:00:00,1390A,113.7944,23.0128,东莞市,东城石井,,27,27,22,9,8,229,9,22,16,35,20,8,7,0.7,0.7
2022-08-16T02:00:00,1391A,113.7383,22.9658,东莞市,南城西平,,15,15,19,1,16,186,26,30,28,27,17,7,7,0.7,0.6
2022-08-16T02:00:00,1392A,114.4183,23.0528,惠州市,河南岸金山湖子站,,20,20,25,8,8,142,30,37,34,12,15,3,3,0.6,0.6
2022-08-16T02:00:00,1393A,114.4053,23.0822,惠州市,下埔横江三路子站,,,18,20,,6,149,43,45,44,11,15,3,3,0.3,0.4
2022-08-16T02:00:00,1394A,114.4103,23.1142,惠州市,江北云山西路子站,,18,18,20,6,7,162,42,45,44,10,11,5,6,0.4,0.4
2022-08-16T02:00:00,1395A,114.4645,22.7833,惠州市,惠阳区承修路船湖子站,,19,15,21,13,11,174,45,47,46,7,11,5,5,0.4,0.4
2022-08-16T02:00:00,1396A,114.5317,22.7422,惠州市,大亚湾管委会子站,,14,14,23,6,8,168,32,46,39,17,16,7,7,0.5,0.5
2022-08-16T02:00:00,1397A,112.4267,23.0706,肇庆市,睦岗子站,,14,14,26,6,13,133,30,33,32,19,18,11,16,0.3,0.4
2022-08-16T02:00:00,1398A,112.4645,23.0475,肇庆市,城中子站,,14,14,24,6,13,135,23,24,24,17,19,10,11,0.3,0.6
2022-08-16T02:00:00,1399A,112.5544,23.1522,肇庆市,坑口子站,,10,9,23,7,15,134,30,37,34,14,14,8,9,0.4,0.5
2022-08-16T02:00:00,1400A,112.4753,23.1,肇庆市,七星岩子站(对照点),,,,,,,,,,,,,,,,
2022-08-16T02:00:00,1401A,108.3103,22.7881,南宁市,二十一中,,23,23,22,11,13,101,23,21,21,23,12,12,11,0.9,0.7
2022-08-16T02:00:00,1402A,108.3141,22.8528,南宁市,北湖,,16,16,23,11,13,105,20,32,26,22,9,11,5,1.0,0.6
2022-08-16T02:00:00,1403A,108.3206,22.8225,南宁市,市监测站,,23,23,25,13,14,89,16,22,19,32,16,14,6,1.0,0.6
2022-08-16T02:00:00,1404A,108.3829,22.8037,南宁市,大自然花园,,21,21,21,8,14,92,29,34,32,14,8,9,7,0.8,0.7
2022-08-16T02:00:00,1405A,108.4394,22.7904,南宁市,仙葫(对照点),,15,13,22,10,14,78,33,36,34,10,9,8,8,0.6,0.5
2022-08-16T02:00:00,1406A,108.2397,22.8467,南宁市,区农职院,,21,21,21,10,12,119,19,25,22,30,16,13,8,1.0,0.6
2022-08-16T02:00:00,1407A,108.3275,22.735,南宁市,英华嘉园,,25,22,28,17,16,89,13,18,16,30,16,8,6,0.9,0.6
2022-08-16T02:00:00,1408A,108.2257,22.7757,南宁市,沙井镇街道办,,34,34,34,14,15,85,10,18,14,35,16,11,7,0.9,0.6
2022-08-16T02:00:00,1409A,110.576,19.9507,海口市,东寨港(对照点),,,17,20,,,37,7,6,6,,,4,4,0.2,0.2
2022-08-16T02:00:00,1410A,110.3232,20.0574,海口市,海南大学,,,14,15,,,93,16,16,16,15,8,4,4,0.7,0.7
2022-08-16T02:00:00,1411A,110.283,20.0053,海口市,秀英海南医院,,11,11,16,7,8,101,22,20,20,11,15,5,5,0.3,0.3
2022-08-16T02:00:00,1412A,110.338,19.9969,海口市,海南师范大学,,14,14,18,3,9,83,18,16,16,9,7,3,3,0.6,0.6
2022-08-16T02:00:00,1413A,110.33,20.0356,海口市,龙华路环保局宿舍,,9,5,16,6,8,98,22,24,23,10,6,3,3,0.4,0.5
2022-08-16T02:00:00,1414A,106.3787,29.8279,重庆市,缙云山(对照点),,24,21,16,6,7,181,75,103,89,30,18,7,8,0.3,0.3
2022-08-16T02:00:00,1416A,106.4213,29.8253,重庆市,天生,,27,27,37,10,16,175,28,38,33,42,29,6,6,0.7,0.7
2022-08-16T02:00:00,1417A,106.6263,29.7228,重庆市,两路,,39,39,27,20,16,138,24,51,38,62,40,12,10,0.5,0.5
2022-08-16T02:00:00,1418A,106.2953,29.5983,重庆市,虎溪,,37,37,40,13,13,208,45,45,45,48,36,6,9,0.5,0.5
2022-08-16T02:00:00,1419A,106.5777,29.5102,重庆市,南坪,,28,28,32,17,12,208,78,82,80,9,17,5,4,0.4,0.4
2022-08-16T02:00:00,1420A,106.6556,29.6277,重庆市,唐家沱,,40,40,21,7,8,186,28,28,28,57,29,4,5,0.6,0.6
2022-08-16T02:00:00,1421A,106.6349,29.4906,重庆市,茶园,,21,21,40,11,13,191,58,52,52,38,40,6,7,0.4,0.4
2022-08-16T02:00:00,1422A,106.3754,29.4572,重庆市,白市驿,,25,19,27,17,14,209,74,74,74,11,15,20,11,0.8,0.8
2022-08-16T02:00:00,1425A,106.6205,29.7166,重庆市,空港,颗粒物(PM10),51,52,29,24,15,141,24,57,40,57,26,8,10,0.8,0.6
2022-08-16T02:00:00,1426A,106.4782,29.4875,重庆市,新山村,,43,43,24,17,10,158,19,16,16,76,37,14,7,0.5,0.4
2022-08-16T02:00:00,1427A,106.5616,29.6453,重庆市,礼嘉,,33,18,18,7,7,155,25,18,18,66,46,9,9,0.9,0.7
2022-08-16T02:00:00,1428A,106.4522,29.7091,重庆市,蔡家,,22,22,24,14,11,190,49,53,51,30,27,4,4,0.6,0.6
2022-08-16T02:00:00,1429A,106.5093,29.3917,重庆市,鱼新街,,42,42,32,20,17,176,26,34,30,44,19,11,7,0.9,0.8
2022-08-16T02:00:00,1431A,103.9728,30.7236,成都市,金泉两河,,43,39,40,30,28,228,43,52,48,23,17,2,2,0.5,0.5
2022-08-16T02:00:00,1432A,104.1419,30.6764,成都市,十里店,颗粒物(PM10),51,52,48,30,28,196,48,75,62,30,23,4,5,0.7,0.7
2022-08-16T02:00:00,1433A,104.0594,30.5767,成都市,三瓦窑,颗粒物(PM10),51,51,49,17,25,291,0,9,4,81,31,2,2,1.3,0.5
2022-08-16T02:00:00,1434A,104.1122,30.6306,成都市,沙河铺,,38,38,46,21,27,246,61,75,68,23,22,5,5,0.6,0.6
2022-08-16T02:00:00,1437A,104.0431,30.6556,成都市,君平街,细颗粒物(PM2.5),59,60,52,42,34,254,35,72,54,38,23,4,4,0.7,0.6
2022-08-16T02:00:00,1438A,103.6202,31.0201,成都市,灵岩寺(对照点),,36,34,27,25,21,153,104,106,105,2,2,2,6,0.5,0.5
2022-08-16T02:00:00,1439A,106.6899,26.5998,贵阳市,马鞍山,,20,19,18,14,10,118,50,50,50,11,9,6,5,0.5,0.3
2022-08-16T02:00:00,1440A,106.6971,26.5694,贵阳市,市环保站,,19,19,19,13,12,103,42,41,41,10,15,5,5,0.3,0.4
2022-08-16T02:00:00,1441A,106.6243,26.6266,贵阳市,鉴湖路,,18,17,23,7,10,118,55,52,52,5,8,4,3,0.1,0.3
2022-08-16T02:00:00,1442A,106.7487,26.6343,贵阳市,燕子冲,,27,27,24,14,15,119,52,52,52,7,9,7,7,0.5,0.5
2022-08-16T02:00:00,1443A,106.6555,26.4365,贵阳市,碧云窝,,29,29,30,12,8,90,54,51,51,5,12,5,5,0.3,0.4
2022-08-16T02:00:00,1444A,106.694,26.5161,贵阳市,中院村,,29,29,24,12,10,95,39,38,38,11,12,3,3,0.5,0.4
2022-08-16T02:00:00,1445A,106.7109,26.6027,贵阳市,红边门,,41,41,26,17,15,111,46,46,46,11,17,5,5,0.3,0.5
2022-08-16T02:00:00,1446A,106.7164,26.5699,贵阳市,新华路,,19,19,21,12,11,108,41,42,42,10,9,6,4,0.4,0.4
2022-08-16T02:00:00,1447A,106.674,26.5424,贵阳市,太慈桥,,36,36,36,9,9,98,40,40,40,17,14,6,6,0.4,0.4
2022-08-16T02:00:00,1450A,102.8204,24.8886,昆明市,呈贡新区,,27,27,28,18,14,185,63,65,64,13,19,11,11,0.4,0.5
2022-08-16T02:00:00,1451A,102.6251,24.9608,昆明市,西山森林公园(对照点),,21,19,15,14,12,166,66,66,66,14,12,10,8,0.5,0.5
2022-08-16T02:00:00,1452A,102.7252,25.0902,昆明市,龙泉镇,,36,36,22,18,10,122,28,40,34,23,17,6,6,0.4,0.4
2022-08-16T02:00:00,1453A,102.7266,25.0375,昆明市,东风东路,,,36,26,,14,128,35,42,38,34,25,6,5,0.4,0.4
2022-08-16T02:00:00,1454A,102.6742,25.0669,昆明市,金鼎山,,40,40,26,28,17,125,35,45,40,22,15,4,13,0.4,0.5
2022-08-16T02:00:00,1455A,102.6644,25.0401,昆明市,碧鸡广场,颗粒物(PM10),51,52,27,19,14,124,34,34,34,42,21,10,9,0.5,0.5
2022-08-16T02:00:00,1456A,91.1319,29.6514,拉萨市,八廓街,,17,4,5,11,9,91,54,65,60,11,10,8,7,0.1,0.1
2022-08-16T02:00:00,1457A,91.1221,29.6747,拉萨市,市环保局,,18,6,4,3,2,91,56,62,59,7,6,7,7,0.1,0.1
2022-08-16T02:00:00,1458A,91.0874,29.6475,拉萨市,区监测站,,22,5,3,0,0,101,68,72,70,4,3,8,8,0.1,0.2
2022-08-16T02:00:00,1459A,91.1774,29.6541,拉萨市,西藏大学,,20,8,7,5,3,93,61,67,64,7,6,9,9,0.1,0.2
2022-08-16T02:00:00,1460A,90.9798,29.6588,拉萨市,区辐射站,,19,5,5,2,2,89,59,60,60,5,5,9,9,0.2,0.2
2022-08-16T02:00:00,1461A,91.0834,29.6292,拉萨市,拉萨火车站,,18,6,5,4,3,92,56,60,58,4,4,10,10,0.2,0.2
2022-08-16T02:00:00,1462A,108.882,34.2749,西安市,高压开关厂,颗粒物(PM10),55,60,66,18,16,167,53,52,52,36,24,10,9,0.5,0.5
2022-08-16T02:00:00,1463A,108.993,34.2629,西安市,兴庆小区,,45,45,53,15,16,179,60,80,70,28,22,6,6,0.3,0.5
2022-08-16T02:00:00,1464A,109.06,34.2572,西安市,纺织城,,,,59,,16,185,16,16,16,61,35,5,6,0.3,0.3
2022-08-16T02:00:00,1465A,108.9356,34.2173,西安市,小寨,颗粒物(PM10),56,62,48,11,11,164,32,70,51,48,20,4,4,0.5,0.4
2022-08-16T02:00:00,1466A,108.954,34.2713,西安市,市人民体育场,,43,43,56,13,16,176,72,77,74,20,19,8,7,0.4,0.4
2022-08-16T02:00:00,1467A,108.8922,34.2322,西安市,高新西区,颗粒物(PM10),68,85,56,24,17,165,27,40,34,43,17,7,10,0.5,0.5
2022-08-16T02:00:00,1468A,108.935,34.3474,西安市,经开区,颗粒物(PM10),52,54,55,17,16,190,51,50,50,26,17,8,5,0.3,0.2
2022-08-16T02:00:00,1469A,108.906,34.1546,西安市,长安区,颗粒物(PM10),67,83,62,15,13,166,49,53,51,33,14,5,6,0.4,0.4
2022-08-16T02:00:00,1470A,109.2,34.6575,西安市,阎良区,,,,,,,,,,,,,,,,
2022-08-16T02:00:00,1471A,109.2186,34.3731,西安市,临潼区,颗粒物(PM10),57,63,57,16,17,206,51,78,64,38,21,8,6,0.4,0.4
2022-08-16T02:00:00,1472A,108.869,34.378,西安市,草滩(对照点),,43,43,58,15,16,158,20,33,26,41,29,8,9,0.6,0.6
2022-08-16T02:00:00,1473A,108.985,34.1978,西安市,曲江文化产业集团,颗粒物(PM10),60,70,57,12,10,167,37,52,44,45,23,6,6,0.5,0.5
2022-08-16T02:00:00,1474A,109.051,34.3213,西安市,广运潭,颗粒物(PM10),56,61,57,15,17,198,39,49,44,39,24,14,8,0.5,0.5
2022-08-16T02:00:00,1476A,103.631,36.1031,兰州市,兰炼宾馆,,45,45,50,22,28,153,23,22,22,54,41,5,16,0.3,0.4
2022-08-16T02:00:00,1477A,104.1373,35.9454,兰州市,榆中兰大校区(对照点),,,,,,,,,,,,,,,,
2022-08-16T02:00:00,1478A,103.8412,36.0726,兰州市,生物制品所,,50,50,44,26,24,125,2,5,4,76,34,7,9,1.0,0.9
2022-08-16T02:00:00,1479A,103.831,36.0464,兰州市,铁路设计院,颗粒物(PM10),64,78,55,17,23,115,18,22,20,70,45,5,11,0.6,0.6
2022-08-16T02:00:00,1480A,101.748,36.6428,西宁市,市环境监测站,,,,,,,,,,,,,,,,
2022-08-16T02:00:00,1482A,101.834,36.5819,西宁市,四陆医院,,,,,,,,,,,,,,,,
2022-08-16T02:00:00,1483A,101.524,36.6867,西宁市,第五水厂(对照点),,,,,,,,,,,,,,,,
2022-08-16T02:00:00,1484A,105.9512,38.6016,银川市,贺兰山马莲口(对照点),,36,27,27,20,13,142,114,112,112,7,11,8,12,0.3,0.3
2022-08-16T02:00:00,1488A,106.2328,38.4975,银川市,贺兰山东路,,28,19,31,16,14,140,88,97,92,24,25,24,12,0.4,0.4
2022-08-16T02:00:00,1489A,106.1358,38.5036,银川市,学院路,,42,34,42,25,19,139,47,81,64,84,29,18,17,0.6,0.5
2022-08-16T02:00:00,1490A,87.5801,43.8303,乌鲁木齐市,监测站,,30,30,24,11,12,179,61,63,62,26,12,5,6,0.4,0.3
2022-08-16T02:00:00,1491A,87.6046,43.768,乌鲁木齐市,收费所,,22,20,25,15,12,179,65,83,74,10,4,8,8,0.3,0.3
2022-08-16T02:00:00,1492A,87.4754,43.9469,乌鲁木齐市,新疆农科院农场(对照点),颗粒物(PM10),53,55,46,20,11,153,9,8,8,76,28,9,10,0.8,0.8
2022-08-16T02:00:00,1493A,87.5525,43.8711,乌鲁木齐市,铁路局,,27,27,26,17,11,188,54,54,54,35,13,4,5,0.6,0.5
2022-08-16T02:00:00,1494A,87.6432,43.831,乌鲁木齐市,三十一中学,,,33,30,,,177,93,104,98,10,6,6,6,0.4,0.3
2022-08-16T02:00:00,1496A,87.7216,44.1747,乌鲁木齐市,米东区环保局,,44,44,41,20,18,138,64,54,54,27,19,9,7,0.3,0.3
2022-08-16T02:00:00,1508A,112.9433,27.8614,湘潭市,板塘,,26,26,35,15,17,120,56,52,52,16,16,4,6,0.3,0.6
2022-08-16T02:00:00,1511A,112.9118,27.8403,湘潭市,市监测站,,32,27,25,22,20,107,48,60,54,22,19,9,21,0.9,0.9
2022-08-16T02:00:00,1512A,112.8937,27.8728,湘潭市,江麓,,,,41,,23,37,,37,,,18,,19,,1.0
2022-08-16T02:00:00,1513A,112.9227,27.8159,湘潭市,岳塘,,36,36,32,6,17,117,44,54,49,21,12,11,12,0.7,0.5
2022-08-16T02:00:00,1514A,112.9074,27.9119,湘潭市,科大,,43,43,35,12,17,116,60,62,61,14,13,14,12,0.4,0.5
2022-08-16T02:00:00,1515A,113.135,27.8244,株洲市,天台山庄,,24,24,19,12,18,119,46,50,48,16,11,4,7,0.4,0.4
2022-08-16T02:00:00,1518A,113.095,27.8867,株洲市,株冶医院,,25,19,18,17,14,131,39,48,44,32,19,6,7,0.4,0.4
2022-08-16T02:00:00,1519A,113.167,27.8667,株洲市,市四中,,26,22,24,18,17,120,54,69,62,22,13,4,4,0.6,0.5
2022-08-16T02:00:00,1520A,113.143,27.8381,株洲市,火车站,,27,27,24,13,16,114,40,44,42,18,14,6,7,0.3,0.3
2022-08-16T02:00:00,1524A,113.13,27.8528,株洲市,市监测站,,27,27,25,15,18,129,54,59,56,16,10,4,5,0.4,0.4
2022-08-16T02:00:00,1552A,106.805,26.3003,贵阳市,桐木岭(对照点),,,,,,,,,,,,,,,,
2022-08-16T02:00:00,1559A,113.251,27.8336,株洲市,大京风景区(对照点),,13,9,18,9,13,93,20,21,20,11,7,4,5,0.6,0.5
2022-08-16T02:00:00,1562A,113.0048,27.9153,湘潭市,昭山,,34,34,23,21,19,116,22,50,36,37,16,9,9,0.6,0.5
2022-08-16T02:00:00,1564A,112.4876,27.9164,湘潭市,韶山(对照点),,18,18,22,5,9,106,29,30,30,22,12,8,10,0.9,0.7
2022-08-16T02:00:00,1585A,109.8756,40.6532,包头市,市环境监测站,,48,48,17,14,6,120,21,24,22,50,22,4,3,0.5,0.5
2022-08-16T02:00:00,1587A,109.9991,40.5842,包头市,包头八中,,35,35,28,14,5,124,15,39,27,60,25,6,3,0.5,0.4
2022-08-16T02:00:00,1588A,109.8538,40.6821,包头市,青山宾馆,,15,15,14,5,3,116,34,50,42,26,19,1,3,0.4,0.4
2022-08-16T02:00:00,1589A,109.8642,40.6288,包头市,惠龙物流,,46,46,16,4,7,121,40,30,30,41,21,6,6,0.6,0.5
2022-08-16T02:00:00,1590A,110.0377,40.5546,包头市,东河鸿龙湾,颗粒物(PM10),52,53,32,6,6,113,21,17,17,39,23,3,3,0.7,0.6
2022-08-16T02:00:00,1591A,110.0023,39.8129,鄂尔多斯市,综合楼,,38,38,24,5,4,145,86,82,82,32,23,10,15,0.6,0.5
2022-08-16T02:00:00,1592A,109.9486,39.8261,鄂尔多斯市,巴音孟克林场办事处,,46,46,26,17,8,144,83,85,84,41,25,10,11,0.8,0.6
2022-08-16T02:00:00,1593A,109.7736,39.5986,鄂尔多斯市,康泽苑,,29,29,20,7,4,139,25,27,26,23,13,4,4,0.5,0.5
2022-08-16T02:00:00,1594A,109.8119,39.5989,鄂尔多斯市,华泰汽车城,,36,36,25,12,9,141,16,14,14,53,24,6,6,0.7,0.7
2022-08-16T02:00:00,1595A,109.9734,39.7884,鄂尔多斯市,奥林花园,颗粒物(PM10),59,68,31,22,9,141,4,17,10,91,32,7,9,0.9,0.6
2022-08-16T02:00:00,1596A,122.2414,40.6592,营口市,学府南路,,,,,,,,,,,,,,,,
2022-08-16T02:00:00,1597A,122.2703,40.7094,营口市,大庆路,,17,17,20,2,8,101,51,49,49,15,10,5,4,0.4,0.6
2022-08-16T02:00:00,1598A,122.215,40.6511,营口市,镜湖西路,,17,12,14,10,6,93,53,53,53,12,11,3,3,0.6,0.5
2022-08-16T02:00:00,1599A,122.167,40.6655,营口市,西炮台,,18,12,13,7,7,96,57,56,56,9,8,9,8,0.9,0.8
2022-08-16T02:00:00,1600A,124.3303,40.0625,丹东市,江湾东路,,16,5,9,5,7,97,51,54,52,10,10,7,9,0.5,0.7
2022-08-16T02:00:00,1601A,124.4256,40.1503,丹东市,临江后街,,22,22,13,11,6,98,56,56,56,11,11,6,5,0.6,0.7
2022-08-16T02:00:00,1602A,124.3933,40.1461,丹东市,元宝山,,19,19,8,8,6,92,54,54,54,9,10,4,4,0.9,0.9
2022-08-16T02:00:00,1603A,124.3633,40.1092,丹东市,民主桥,,17,12,10,7,6,90,54,56,55,10,13,7,7,0.6,0.6
2022-08-16T02:00:00,1604A,122.0303,41.1489,盘锦市,开发区,,17,15,12,9,6,72,54,54,54,16,15,5,5,0.7,0.8
2022-08-16T02:00:00,1605A,122.0485,41.0883,盘锦市,兴隆台,,13,13,13,5,6,72,39,49,44,24,18,7,7,0.4,0.5
2022-08-16T02:00:00,1606A,121.8297,41.1028,盘锦市,新生街道,,,,,,,,,,,,,,,,
2022-08-16T02:00:00,1607A,120.9092,40.7136,葫芦岛市,龙港区,,20,15,15,2,3,79,64,67,66,6,11,12,14,0.3,0.4
2022-08-16T02:00:00,1608A,120.8392,40.7514,葫芦岛市,化工街,,18,12,13,4,13,79,56,54,54,12,13,5,5,0.5,0.6
2022-08-16T02:00:00,1609A,120.8341,40.7073,葫芦岛市,新区,,18,14,12,2,4,88,56,66,61,21,10,8,8,0.5,0.6
2022-08-16T02:00:00,1610A,120.8695,40.7677,葫芦岛市,东城区,,19,11,14,1,2,65,59,65,62,12,11,6,5,0.2,0.3
2022-08-16T02:00:00,1611A,118.5819,24.9117,泉州市,涂山街,,30,30,33,14,15,172,33,51,42,32,17,17,11,0.6,0.6
2022-08-16T02:00:00,1612A,118.5972,24.8978,泉州市,津头埔,,23,23,31,9,16,155,32,46,39,30,20,11,9,0.4,0.4
2022-08-16T02:00:00,1613A,118.6663,24.9424,泉州市,万安,,17,17,29,11,14,154,26,20,20,20,12,10,10,0.5,0.5
2022-08-16T02:00:00,1614A,118.6117,24.9604,泉州市,清源山(对照点),,,,,,,,,,,,,,,,
2022-08-16T02:00:00,1616A,117.6795,36.229,济南市,技术学院,,25,19,38,14,19,176,77,87,82,27,13,13,8,0.7,0.9
2022-08-16T02:00:00,1618A,118.3429,35.0532,临沂市,沂河小区,细颗粒物(PM2.5),55,41,38,39,24,128,60,75,68,21,18,15,9,0.5,0.4
2022-08-16T02:00:00,1619A,118.295,35.0583,临沂市,鲁南制药厂,,34,34,33,20,21,141,78,91,84,22,17,12,9,0.8,0.7
2022-08-16T02:00:00,1620A,118.2794,34.9976,临沂市,新光毛纺厂,,30,29,34,21,20,139,72,91,82,22,19,6,7,0.6,0.5
2022-08-16T02:00:00,1621A,118.3956,35.0888,临沂市,河东保险公司,,31,31,32,20,18,142,41,48,44,29,14,12,8,0.6,0.5
2022-08-16T02:00:00,1622A,116.3032,37.4674,德州市,儿童乐园,颗粒物(PM10),51,51,32,18,17,144,11,12,12,62,18,14,8,0.6,0.7
2022-08-16T02:00:00,1624A,116.2991,37.4451,德州市,监理站,,50,50,31,27,15,154,27,44,36,49,12,16,12,0.7,0.7
2022-08-16T02:00:00,1625A,115.9848,36.4372,聊城市,区政府,,42,42,40,12,16,118,27,51,39,60,17,7,7,1.0,0.9
2022-08-16T02:00:00,1628A,118.0062,37.3803,滨州市,市环保局,,27,24,31,14,20,145,85,84,84,16,12,9,6,0.1,0.3
2022-08-16T02:00:00,1629A,118.0018,37.3617,滨州市,第二水厂,,27,8,35,3,12,100,86,89,88,15,10,3,4,0.6,0.6
2022-08-16T02:00:00,1630A,117.9776,37.393,滨州市,北中新校,,32,32,24,12,12,136,53,69,61,14,8,8,7,0.4,0.5
2022-08-16T02:00:00,1631A,118.0414,36.8103,淄博市,人民公园,,32,22,37,22,24,144,63,72,68,19,13,11,15,0.4,0.6
2022-08-16T02:00:00,1632A,118.0253,36.8406,淄博市,东风化工厂,,,,,,,,,,,,,,,,
2022-08-16T02:00:00,1633A,117.8525,36.4847,淄博市,双山,,39,39,41,15,19,169,46,52,49,35,19,17,15,0.6,0.7
2022-08-16T02:00:00,1634A,117.9592,36.6331,淄博市,气象站,,39,39,39,14,20,170,45,72,58,33,18,21,16,0.4,0.5
2022-08-16T02:00:00,1635A,118.3092,36.8194,淄博市,莆田园,,39,39,37,12,23,146,44,88,66,42,21,14,15,0.1,0.2
2022-08-16T02:00:00,1636A,117.8661,36.805,淄博市,三金集团,,,,,,,,,,,,,,,,
2022-08-16T02:00:00,1637A,117.558,34.8438,枣庄市,市中区政府,,41,41,43,14,15,136,85,95,90,24,21,26,11,0.5,0.4
2022-08-16T02:00:00,1638A,117.2852,34.7837,枣庄市,薛城环保局,,46,46,47,19,22,129,91,83,83,18,21,13,13,0.5,0.5
2022-08-16T02:00:00,1639A,117.5852,34.7745,枣庄市,峄城区政府,颗粒物(PM10),56,61,46,27,21,128,79,83,81,17,17,6,8,0.5,0.5
2022-08-16T02:00:00,1640A,117.7276,34.5578,枣庄市,台儿庄区环保局,,33,17,32,5,13,155,104,113,108,10,14,10,12,0.7,0.8
2022-08-16T02:00:00,1641A,117.4518,35.0992,枣庄市,山亭区环保局,,40,29,44,15,24,192,128,126,126,9,14,13,16,0.6,0.7
2022-08-16T02:00:00,1642A,121.2514,37.5639,烟台市,开发区,,26,12,25,5,13,129,81,92,86,4,10,9,9,0.5,0.7
2022-08-16T02:00:00,1643A,121.3719,37.5433,烟台市,轴承厂,,21,12,26,6,18,131,67,80,74,12,10,7,8,0.2,0.3
2022-08-16T02:00:00,1644A,121.3181,37.5436,烟台市,西郊化工站,,25,14,25,7,13,137,80,85,82,9,16,8,15,0.3,0.5
2022-08-16T02:00:00,1645A,121.4478,37.4822,烟台市,莱山环保局,,24,9,22,3,15,125,74,81,78,7,6,8,8,0.3,0.5
2022-08-16T02:00:00,1646A,121.2611,37.4967,烟台市,福山环保局,,24,17,34,5,15,122,74,78,76,12,20,8,8,0.1,0.3
2022-08-16T02:00:00,1648A,119.12,36.7019,潍坊市,仲裁委,,,,,,,,,,,,,,,,
2022-08-16T02:00:00,1650A,119.1437,36.7023,潍坊市,环保局,,43,24,35,20,20,160,135,146,140,8,13,6,8,0.7,0.7
2022-08-16T02:00:00,1652A,119.1936,36.7729,潍坊市,寒亭监测站,,,,,,,,,,,,,,,,
2022-08-16T02:00:00,1653A,116.6251,35.4302,济宁市,火炬城,,31,31,47,14,25,204,67,62,62,14,10,6,6,0.7,0.8
2022-08-16T02:00:00,1655A,116.5491,35.4042,济宁市,电化厂,,31,31,47,17,26,216,86,82,82,6,6,8,11,0.8,0.9
2022-08-16T02:00:00,1656A,117.1437,36.1937,泰安市,监测站,,32,12,36,10,22,153,100,108,104,5,10,7,8,0.3,0.4
2022-08-16T02:00:00,1657A,117.0885,36.2017,泰安市,人口学校,,26,12,35,8,18,130,83,82,82,8,12,7,9,0.1,0.3
2022-08-16T02:00:00,1658A,117.1089,36.1758,泰安市,电力学校,,29,29,39,9,20,136,74,107,90,23,9,7,8,0.2,0.2
2022-08-16T02:00:00,1659A,119.471,35.4209,日照市,监测站,,29,29,34,16,21,140,5,9,7,48,28,7,7,0.4,0.4
2022-08-16T02:00:00,1660A,119.523,35.4216,日照市,市政府广场,,27,27,33,16,18,134,66,60,60,13,20,5,6,0.7,0.6
2022-08-16T02:00:00,1661A,119.5587,35.4044,日照市,港务局,,33,27,39,11,17,156,103,70,70,8,26,5,6,0.5,0.5
2022-08-16T02:00:00,1662A,122.1214,37.4236,威海市,华夏技校,,22,5,24,7,21,142,69,75,72,6,5,5,4,0.2,0.4
2022-08-16T02:00:00,1663A,122.0508,37.5236,威海市,山大分校,,24,5,21,2,16,159,74,81,78,9,9,6,6,0.2,0.4
2022-08-16T02:00:00,1664A,122.1067,37.5072,威海市,市监测站,,22,5,29,7,16,148,70,77,74,5,8,5,6,0.4,0.6
2022-08-16T02:00:00,1665A,118.5019,37.4658,东营市,西城阳光环保公司,,,,,,,,,,,,,,,,
2022-08-16T02:00:00,1666A,118.6614,37.4309,东营市,市环保局,,34,34,27,14,15,183,45,60,52,30,10,14,10,0.4,0.5
2022-08-16T02:00:00,1669A,113.5824,24.7733,韶关市,市八中,,50,50,41,13,14,182,67,67,67,20,19,11,10,0.6,0.6
2022-08-16T02:00:00,1670A,113.5556,24.8082,韶关市,碧湖山庄,,,,,,,,,,,,,,,,
2022-08-16T02:00:00,1671A,113.5917,24.7972,韶关市,园林处,,33,31,42,23,20,158,42,55,48,27,19,12,11,0.7,0.7
2022-08-16T02:00:00,1672A,113.6735,24.7791,韶关市,韶关学院,,40,40,42,23,23,159,60,58,58,14,15,6,10,0.2,0.5
2022-08-16T02:00:00,1673A,113.5971,24.6863,韶关市,曲江监测站,,40,40,38,16,20,154,46,46,46,23,19,9,10,0.6,0.7
2022-08-16T02:00:00,1674A,116.6794,23.3667,汕头市,金平子站,,14,7,15,9,11,138,43,46,44,6,8,7,9,0.3,0.4
2022-08-16T02:00:00,1675A,116.7244,23.3633,汕头市,龙湖子站,,14,14,24,5,8,128,40,48,44,8,10,8,9,0.5,0.6
2022-08-16T02:00:00,1676A,116.7258,23.2775,汕头市,濠江子站,,13,7,18,8,8,136,40,42,41,6,8,10,11,0.5,0.6
2022-08-16T02:00:00,1677A,116.7519,23.4714,汕头市,澄海子站,,15,8,22,8,11,137,47,54,50,6,10,5,7,0.6,0.6
2022-08-16T02:00:00,1678A,116.6092,23.2539,汕头市,潮阳子站,,14,14,25,9,11,110,39,42,40,4,8,10,12,0.6,0.7
2022-08-16T02:00:00,1679A,116.4069,23.2533,汕头市,潮南子站,,,,,,,,,,,,,,,,
2022-08-16T02:00:00,1680A,110.3539,21.2706,湛江市,湛江影剧院,,25,25,24,4,10,94,32,30,30,15,17,6,6,0.6,0.6
2022-08-16T02:00:00,1681A,110.3928,21.2228,湛江市,市环境监测站,,19,19,19,6,7,85,38,38,38,10,14,5,6,0.6,0.6
2022-08-16T02:00:00,1682A,110.4019,21.1997,湛江市,环保局宿舍,,16,16,19,6,10,83,37,40,38,10,13,5,5,0.6,0.6
2022-08-16T02:00:00,1683A,110.4111,21.2028,湛江市,霞山游泳场,,14,14,18,8,10,73,42,40,40,8,15,6,6,0.4,0.5
2022-08-16T02:00:00,1684A,110.3316,21.2679,湛江市,麻章区环保局,,32,31,28,22,11,103,26,26,26,17,17,4,6,0.6,0.6
2022-08-16T02:00:00,1685A,110.4558,21.2567,湛江市,坡头区环保局,,19,19,19,6,9,80,32,38,35,15,12,6,7,0.5,0.5
2022-08-16T02:00:00,1686A,111.0286,21.4688,茂名市,电白南海,,14,14,19,5,8,70,37,38,38,5,6,4,4,0.4,0.4
2022-08-16T02:00:00,1687A,110.9294,21.6533,茂名市,茂石化七小,,25,22,20,17,12,75,26,28,27,10,8,6,6,0.7,0.7
2022-08-16T02:00:00,1688A,110.9107,21.6687,茂名市,健康路,,17,17,18,6,6,100,33,38,36,7,6,9,7,0.7,0.7
2022-08-16T02:00:00,1689A,110.8592,21.6828,茂名市,高岭,,28,19,26,19,18,112,23,27,25,14,13,18,14,0.6,0.5
2022-08-16T02:00:00,1690A,116.1231,24.3284,梅州市,梅江月梅,,32,32,25,21,13,98,45,65,55,15,8,4,6,0.4,0.5
2022-08-16T02:00:00,1691A,116.0797,24.2719,梅州市,梅县新城,,32,32,27,22,15,104,56,64,60,15,13,10,6,0.6,0.6
2022-08-16T02:00:00,1692A,116.1248,24.2654,梅州市,环境监控中心,,28,28,26,17,13,103,48,67,58,21,13,5,5,0.5,0.4
2022-08-16T02:00:00,1693A,115.3653,22.775,汕尾市,市环保局,,15,9,11,4,5,61,45,46,46,4,6,5,5,0.5,0.5
2022-08-16T02:00:00,1694A,115.3706,22.7898,汕尾市,市政府,,15,2,10,3,4,64,45,50,48,6,6,6,6,0.5,0.5
2022-08-16T02:00:00,1695A,115.3622,22.7925,汕尾市,新城中学,,13,10,22,4,4,65,40,53,46,4,3,6,6,0.5,0.5
2022-08-16T02:00:00,1696A,114.6778,23.7569,河源市,源西(对照点),,16,13,27,5,9,116,49,51,50,3,9,3,3,0.5,0.6
2022-08-16T02:00:00,1697A,114.6944,23.7586,河源市,东埔,,21,21,25,7,11,121,44,47,46,10,13,5,5,0.5,0.6
2022-08-16T02:00:00,1698A,114.6892,23.7233,河源市,老城,,15,14,28,3,10,114,46,48,47,9,12,3,3,0.6,0.7
2022-08-16T02:00:00,1699A,111.9797,21.8593,阳江市,鸳鸯湖(对照点),,,,,,,,,,,,,,,,
2022-08-16T02:00:00,1700A,111.9508,21.8536,阳江市,南恩路,,,,,,,,,,,,,,,,
2022-08-16T02:00:00,1701A,111.9491,21.8658,阳江市,马南垌,,16,12,16,11,11,86,27,34,30,6,7,5,5,0.5,0.6
2022-08-16T02:00:00,1702A,113.0426,23.691,清远市,环保大楼(对照点),,33,33,33,23,21,190,56,74,65,22,20,7,7,0.6,0.6
2022-08-16T02:00:00,1703A,113.0208,23.7106,清远市,凤城街办,,45,45,30,18,17,140,43,46,44,21,18,6,7,0.8,0.7
2022-08-16T02:00:00,1705A,116.6367,23.6719,潮州市,西园路(对照点),,16,13,25,11,11,120,41,45,43,10,9,5,5,0.8,0.9
2022-08-16T02:00:00,1706A,116.6447,23.6706,潮州市,档案局,,23,23,25,13,11,148,44,51,48,14,10,9,8,0.5,0.6
2022-08-16T02:00:00,1708A,116.3701,23.5345,揭阳市,新兴,,17,17,24,7,12,103,50,50,50,4,6,5,6,0.4,0.5
2022-08-16T02:00:00,1709A,116.3264,23.5443,揭阳市,西马,,28,28,26,11,13,100,44,46,45,10,6,5,5,0.5,0.5
2022-08-16T02:00:00,1710A,116.3611,23.5626,揭阳市,东兴,,17,14,27,8,10,104,54,55,54,5,7,4,5,0.5,0.5
2022-08-16T02:00:00,1711A,116.4151,23.5294,揭阳市,渔湖,,22,22,24,7,13,114,48,58,53,5,8,4,4,0.4,0.4
2022-08-16T02:00:00,1712A,112.0392,22.9169,云浮市,新市府(对照点),,,,,,,,,,,,,,,,
2022-08-16T02:00:00,1713A,112.0369,22.9394,云浮市,市监测站,,,,,,,,,,,,,,,,
2022-08-16T02:00:00,1714A,112.0539,22.9539,云浮市,牧羊,,29,29,35,8,13,109,24,39,32,14,14,6,12,0.6,0.6
2022-08-16T02:00:00,1715A,102.575,24.3711,玉溪市,东风水库,,30,30,24,17,11,98,40,55,48,12,14,7,6,0.7,1
2022-08-16T02:00:00,1718A,115.4208,35.2464,菏泽市,气象局,颗粒物(PM10),51,51,51,28,27,184,70,72,71,19,13,10,7,0.7,0.6
2022-08-16T02:00:00,1719A,115.4747,35.2375,菏泽市,市政协,,45,45,56,20,22,187,89,88,88,14,12,8,8,0.5,0.4
2022-08-16T02:00:00,1720A,115.455,35.27,菏泽市,菏泽学院,,,,,,,,,,,,,,,,
2022-08-16T02:00:00,1721A,113.3819,40.1097,大同市,果树场(对照点),,,,,,,,,,,,,,,,
2022-08-16T02:00:00,1723A,113.2994,40.0758,大同市,云冈宾馆,,36,36,25,14,4,114,25,28,26,32,20,61,23,0.7,0.5
2022-08-16T02:00:00,1724A,113.3444,40.0917,大同市,大同大学,,25,25,27,7,4,110,41,36,36,16,15,46,20,0.5,0.5
2022-08-16T02:00:00,1725A,113.2661,40.1269,大同市,安家小村,颗粒物(PM10),71,92,32,5,7,119,12,20,16,39,16,16,12,0.4,0.4
2022-08-16T02:00:00,1726A,113.2711,40.0844,大同市,教育学院,,35,35,31,14,8,106,27,34,30,26,19,22,12,0.5,0.4
2022-08-16T02:00:00,1727A,113.1147,36.1547,长治市,清华站,颗粒物(PM10),52,54,54,17,22,149,16,22,19,42,32,9,10,0.9,0.9
2022-08-16T02:00:00,1728A,113.1031,36.1989,长治市,监测站,,46,46,47,12,22,142,22,16,16,53,29,9,9,0.8,1.1
2022-08-16T02:00:00,1730A,113.0886,36.2125,长治市,审计局,,42,42,46,12,20,149,14,10,10,58,30,8,9,0.9,1.1
2022-08-16T02:00:00,1731A,113.0844,36.1856,长治市,长治八中,,46,46,51,10,19,127,21,17,17,59,33,14,12,0.7,0.9
2022-08-16T02:00:00,1733A,111.5531,36.0783,临汾市,临钢医院,,42,42,40,15,22,160,18,16,16,45,30,2,2,0.7,1.1
2022-08-16T02:00:00,1734A,111.5028,36.0714,临汾市,技工学校,,28,28,45,16,21,200,37,30,30,33,33,5,5,0.5,1.1
2022-08-16T02:00:00,1735A,111.5169,36.0822,临汾市,工商学校,,,,,,,,,,,,,,,,
2022-08-16T02:00:00,1736A,111.5018,36.0855,临汾市,市委,,,,49,,35,79,,66,,,26,,7,,1.0
2022-08-16T02:00:00,1738A,113.5758,37.8572,阳泉市,市中心,颗粒物(PM10),53,56,55,7,13,96,4,4,4,55,43,10,14,0.6,0.9
2022-08-16T02:00:00,1739A,113.4894,37.8731,阳泉市,赛鱼,颗粒物(PM10),55,59,42,10,14,84,2,2,2,50,40,8,11,0.6,0.7
2022-08-16T02:00:00,1740A,113.5819,37.8486,阳泉市,南庄,颗粒物(PM10),53,56,41,22,21,101,5,5,5,45,35,11,13,0.9,1
2022-08-16T02:00:00,1741A,113.6292,37.8531,阳泉市,白羊墅,,,,,,,,,,,,,,,,
2022-08-16T02:00:00,1742A,113.5614,37.8703,阳泉市,平坦,,46,46,46,5,13,95,9,9,9,62,45,14,14,0.7,0.9
2022-08-16T02:00:00,1743A,113.5158,37.8392,阳泉市,大阳泉,,21,21,20,9,11,99,61,66,64,31,23,9,7,0.5,0.6
2022-08-16T02:00:00,1744A,118.9233,42.2816,赤峰市,松山一中,,20,9,6,3,4,75,64,68,66,11,16,9,9,0.3,0.4
2022-08-16T02:00:00,1745A,118.9576,42.2728,赤峰市,哈达街,,20,4,5,2,3,81,64,69,66,14,19,8,10,0.1,0.2
2022-08-16T02:00:00,1746A,118.8788,42.2554,赤峰市,天义路,,19,5,8,2,4,69,60,60,60,10,19,10,10,0.4,0.5
2022-08-16T02:00:00,1748A,123.044,41.1196,鞍山市,深沟寺,,26,24,18,18,12,72,42,43,42,16,14,18,8,0.9,0.8
2022-08-16T02:00:00,1749A,123.011,41.0931,鞍山市,太阳城,,28,28,24,19,15,72,30,26,26,24,23,15,10,1.4,1.8
2022-08-16T02:00:00,1750A,123.0485,41.1442,鞍山市,太平,,24,24,19,12,10,69,46,47,46,7,12,9,7,0.8,0.8
2022-08-16T02:00:00,1751A,122.9642,41.0971,鞍山市,铁西三道街,,29,27,20,20,12,75,28,34,31,21,13,11,9,0.7,1
2022-08-16T02:00:00,1752A,122.9341,41.0833,鞍山市,铁西工业园区,,22,22,19,12,10,71,33,32,32,13,15,4,8,0.6,0.8
2022-08-16T02:00:00,1753A,123.022,41.0821,鞍山市,明达新区,,22,22,20,11,13,67,34,30,30,22,22,12,8,1.0,1.2
2022-08-16T02:00:00,1754A,123.1289,41.0228,鞍山市,千山(对照点),,,,,,,,,,,,,,,,
2022-08-16T02:00:00,1755A,123.7977,41.8491,抚顺市,望花区,,24,24,12,14,8,48,39,45,42,15,13,4,4,0.4,0.4
2022-08-16T02:00:00,1756A,123.9161,41.8822,抚顺市,顺城区,,31,31,15,17,9,50,43,47,45,18,21,7,7,0.3,0.3
2022-08-16T02:00:00,1757A,124.0436,41.8611,抚顺市,东洲区,,25,25,16,15,8,46,28,29,28,26,19,4,5,0.5,0.6
2022-08-16T02:00:00,1758A,123.9247,41.8642,抚顺市,新抚区,,23,23,14,15,8,48,48,47,47,9,14,2,2,0.4,0.5
2022-08-16T02:00:00,1759A,124.0972,41.8961,抚顺市,大伙房水库,,19,16,12,13,5,46,23,20,20,20,13,6,6,0.4,0.5
2022-08-16T02:00:00,1760A,123.7086,41.8391,抚顺市,沈抚新城,,15,11,16,10,9,47,22,32,27,22,14,5,5,0.3,0.5
2022-08-16T02:00:00,1761A,123.8275,41.3064,本溪市,大峪,,17,17,13,10,8,49,36,34,34,15,21,4,6,0.6,0.7
2022-08-16T02:00:00,1762A,123.7567,41.3325,本溪市,溪湖,,19,16,19,10,11,60,59,58,58,8,19,6,7,0.6,0.9
2022-08-16T02:00:00,1763A,123.7169,41.3094,本溪市,彩屯,,19,19,19,11,12,51,42,42,42,15,17,7,6,0.4,0.7
2022-08-16T02:00:00,1764A,123.7669,41.2864,本溪市,东明,,22,22,21,9,10,69,55,52,52,10,20,5,6,0.4,0.7
2022-08-16T02:00:00,1765A,123.7992,41.2664,本溪市,新立屯,,20,20,23,11,12,66,44,42,42,9,15,5,6,0.5,0.8
2022-08-16T02:00:00,1766A,123.8142,41.3472,本溪市,威宁,,13,10,11,9,5,48,38,34,34,14,21,8,8,0.5,0.6
2022-08-16T02:00:00,1767A,121.1115,41.0879,锦州市,南山,,21,6,11,9,5,72,65,66,66,9,9,10,5,0.4,0.4
2022-08-16T02:00:00,1768A,121.0533,40.8434,锦州市,开发区,,23,23,17,9,7,83,62,58,58,11,13,10,11,0.6,0.7
2022-08-16T02:00:00,1769A,121.1836,41.1119,锦州市,百股街道,,22,12,10,10,5,75,68,68,68,6,6,4,4,0.4,0.5
2022-08-16T02:00:00,1770A,121.1178,41.1222,锦州市,天安街道,,22,5,11,7,8,74,70,70,70,6,7,7,7,0.5,0.6
2022-08-16T02:00:00,1771A,121.1303,41.1386,锦州市,北湖公园,,21,1,11,3,5,70,66,67,66,4,3,5,4,0.3,0.4
2022-08-16T02:00:00,1772A,126.54,43.8622,吉林市,哈达湾,,16,16,12,11,6,73,38,49,44,15,9,14,6,0.8,0.5
2022-08-16T02:00:00,1773A,126.5844,43.8358,吉林市,东局子,,14,13,13,8,6,69,43,46,44,9,10,6,5,0.5,0.6
2022-08-16T02:00:00,1774A,126.5052,43.8245,吉林市,电力学院,,13,13,14,9,8,73,41,43,42,14,10,16,8,0.7,0.6
2022-08-16T02:00:00,1775A,126.6133,43.8972,吉林市,江北,,13,12,12,5,5,72,40,47,44,6,7,11,10,0.6,0.6
2022-08-16T02:00:00,1776A,126.555,43.8306,吉林市,江南公园,,14,11,12,9,8,71,44,44,44,13,14,6,5,0.6,0.6
2022-08-16T02:00:00,1778A,126.7061,43.7133,吉林市,丰满(对照点),,,,,,,,,,,,,,,,
2022-08-16T02:00:00,1779A,123.9305,47.3636,齐齐哈尔市,安居小区,,30,30,35,12,12,69,19,23,21,18,20,5,5,0.4,0.4
2022-08-16T02:00:00,1780A,123.9488,47.3386,齐齐哈尔市,中心广场,,14,9,22,4,7,73,44,43,43,9,15,3,4,0.3,0.4
2022-08-16T02:00:00,1781A,123.9483,47.3227,齐齐哈尔市,农牧车辆厂,,31,31,34,6,7,74,30,36,33,7,8,3,4,0.4,0.4
2022-08-16T02:00:00,1783A,123.945,47.2988,齐齐哈尔市,市环境监测站,,33,33,26,16,10,78,41,42,42,10,14,2,2,0.4,0.4
2022-08-16T02:00:00,1784A,129.61,44.561,牡丹江市,环保大楼,,9,9,14,6,7,46,26,27,26,7,11,6,6,0.3,0.3
2022-08-16T02:00:00,1785A,129.6115,44.5782,牡丹江市,文化广场,,32,32,23,7,9,42,26,25,25,7,14,2,3,0.4,0.5
2022-08-16T02:00:00,1786A,129.5904,44.5963,牡丹江市,第一医院,,14,14,6,7,7,41,21,27,24,12,12,4,4,0.6,0.6
2022-08-16T02:00:00,1787A,129.6364,44.6075,牡丹江市,机车工厂,,16,16,16,5,7,45,11,11,11,14,10,6,9,0.3,0.3
2022-08-16T02:00:00,1788A,129.6386,44.5462,牡丹江市,第一中学,,10,9,14,7,9,45,28,28,28,6,9,3,4,0.4,0.4
2022-08-16T02:00:00,1789A,124.81117,46.03138,大庆市,大同区,,19,12,18,13,8,69,27,27,27,9,7,5,5,0.3,0.3
2022-08-16T02:00:00,1790A,125.129,46.533,大庆市,龙凤区,,11,9,14,4,7,63,34,42,38,7,7,3,3,0.2,0.2
2022-08-16T02:00:00,1791A,124.902,46.408,大庆市,红岗区,,10,6,11,7,5,69,27,30,28,12,9,3,7,0.3,0.4
2022-08-16T02:00:00,1792A,125.153,46.586,大庆市,萨尔图区,,15,15,15,4,9,61,34,37,36,7,7,4,4,0.2,0.2
2022-08-16T02:00:00,1793A,124.9042,46.6215,大庆市,让胡路区,,25,10,14,17,8,62,31,33,32,4,7,2,3,0.4,0.4
2022-08-16T02:00:00,1794A,118.3606,31.3519,芜湖市,监测站,,36,36,40,24,21,138,68,77,72,22,27,10,7,0.6,0.6
2022-08-16T02:00:00,1795A,118.3714,31.4134,芜湖市,科创中心,,40,40,40,28,22,136,62,58,58,27,26,16,11,0.7,0.6
2022-08-16T02:00:00,1796A,118.3673,31.3131,芜湖市,四水厂,,42,42,40,23,20,146,66,78,72,23,26,7,9,0.8,0.8
2022-08-16T02:00:00,1797A,118.4022,31.3839,芜湖市,济民医院(对照点),,,,,,,,,,,,,,,,
2022-08-16T02:00:00,1798A,118.5092,31.6837,马鞍山市,湖东路四小,,45,45,33,21,18,144,61,93,77,31,18,5,6,0.8,0.7
2022-08-16T02:00:00,1799A,118.5024,31.6449,马鞍山市,开发区,颗粒物(PM10),59,67,34,38,23,152,45,68,56,44,22,7,8,0.9,0.9
2022-08-16T02:00:00,1800A,118.5228,31.7231,马鞍山市,慈湖,,45,45,39,27,22,145,76,96,86,21,20,6,12,0.8,1
2022-08-16T02:00:00,1801A,118.48,31.6928,马鞍山市,马钢动力厂,,,,,,,,,,,,,,,,
2022-08-16T02:00:00,1802A,118.6245,31.7241,马鞍山市,濮塘(对照点),,28,27,27,19,18,138,62,84,73,23,15,6,4,0.6,0.5
2022-08-16T02:00:00,1803A,115.9872,29.6815,九江市,十里,,34,34,25,22,16,132,57,56,56,19,14,7,8,0.9,0.8
2022-08-16T02:00:00,1804A,115.9584,29.7046,九江市,茅山头,,40,36,25,28,15,125,87,86,86,14,13,7,7,0.7,0.7
2022-08-16T02:00:00,1805A,115.9877,29.7295,九江市,西园,,46,46,33,23,14,126,14,10,10,83,21,17,12,0.8,0.8
2022-08-16T02:00:00,1806A,116.0172,29.6547,九江市,五七二七厂,,25,19,20,15,15,132,78,82,80,9,8,5,5,0.5,0.6
2022-08-16T02:00:00,1808A,115.9114,29.6038,九江市,综合工业园,,35,32,28,24,17,122,77,87,82,17,11,9,8,0.8,0.7
2022-08-16T02:00:00,1809A,116.0721,29.7535,九江市,石化总厂,颗粒物(PM10),52,54,38,22,16,151,46,59,52,28,21,21,18,0.8,0.6
2022-08-16T02:00:00,1810A,115.9773,29.5698,九江市,庐山气象台(对照点),,38,20,19,20,14,143,119,117,117,4,4,3,5,0.5,0.5
2022-08-16T02:00:00,1811A,112.3628,34.6692,洛阳市,中信二小,,,,,,,,,,,,,,,,
2022-08-16T02:00:00,1812A,112.3931,34.6516,洛阳市,市委党校,,42,42,44,22,28,140,63,58,58,17,14,4,4,0.5,0.5
2022-08-16T02:00:00,1814A,112.4657,34.6871,洛阳市,豫西宾馆,颗粒物(PM10),51,51,57,22,40,138,47,51,49,24,24,3,4,0.5,0.5
2022-08-16T02:00:00,1815A,112.494,34.6886,洛阳市,河南林校,,40,40,48,18,27,143,53,52,52,15,15,2,3,0.5,0.5
2022-08-16T02:00:00,1816A,112.3844,34.623,洛阳市,开发区管委会,,41,41,42,23,25,134,43,42,42,17,9,8,9,0.5,0.6
2022-08-16T02:00:00,1817A,112.4267,34.6258,洛阳市,市委新办公区,,36,36,41,21,22,140,52,50,50,15,11,6,8,0.6,0.6
2022-08-16T02:00:00,1818A,114.4839,36.0621,安阳市,棉研所(对照点),,,,,,,,,,,,,,,,
2022-08-16T02:00:00,1819A,114.3551,36.1017,安阳市,红庙街,颗粒物(PM10),65,80,77,34,37,177,61,56,56,29,26,11,10,1.8,1.8
2022-08-16T02:00:00,1820A,114.361,36.0681,安阳市,银杏小区,颗粒物(PM10),66,81,72,39,40,188,23,40,32,44,23,5,7,2.2,1.9
2022-08-16T02:00:00,1824A,114.3389,34.7781,开封市,肿瘤医院,,47,47,51,15,18,180,64,78,71,20,14,10,5,0.5,0.5
2022-08-16T02:00:00,1826A,114.2885,34.7965,开封市,世纪星幼儿园,,42,42,50,14,16,180,57,65,61,23,17,5,5,0.8,0.7
2022-08-16T02:00:00,1828A,113.227,35.2125,焦作市,市环保局,颗粒物(PM10),52,53,56,17,21,158,20,16,16,26,18,8,5,0.6,0.7
2022-08-16T02:00:00,1829A,113.2464,35.1764,焦作市,高新区政府（停运20220628）,,,,,,,,,,,,,,,,
2022-08-16T02:00:00,1830A,113.1992,35.2590,焦作市,影视城(对照点),,,,,,,,,,,,,,,,
2022-08-16T02:00:00,1832A,113.3257,33.742,平顶山市,新华旅馆,,38,38,35,18,19,158,78,95,86,16,11,9,3,0.5,0.3
2022-08-16T02:00:00,1833A,113.2919,33.737,平顶山市,规划设计院,,42,42,41,12,14,151,85,96,90,10,9,6,4,0.4,0.3
2022-08-16T02:00:00,1834A,113.182,33.774,平顶山市,平顶山工学院,颗粒物(PM10),51,52,40,22,19,160,83,84,84,17,11,31,7,0.6,0.5
2022-08-16T02:00:00,1835A,111.1922,34.7752,三门峡市,市政府,颗粒物(PM10),53,56,50,19,21,151,53,68,60,29,17,8,7,0.5,0.6
2022-08-16T02:00:00,1836A,111.1587,34.7942,三门峡市,开发区,颗粒物(PM10),53,55,50,20,23,153,66,78,72,11,11,5,5,0.6,0.6
2022-08-16T02:00:00,1838A,111.143,34.7955,三门峡市,风景区(对照点),,,,,,,,,,,,,,,,
2022-08-16T02:00:00,1839A,111.3009,30.7157,宜昌市,四零三,,,,,,,,,,,,,,,,
2022-08-16T02:00:00,1840A,111.2992,30.6981,宜昌市,白龙岗,,22,22,28,12,14,175,42,54,48,17,18,4,4,0.7,0.7
2022-08-16T02:00:00,1841A,111.3549,30.6465,宜昌市,伍家岗,,34,34,36,19,18,175,45,62,54,20,19,5,5,0.6,0.6
2022-08-16T02:00:00,1842A,111.2628,30.6961,宜昌市,点军区,,29,29,36,9,14,183,36,52,44,17,20,5,5,0.5,0.5
2022-08-16T02:00:00,1843A,111.3275,30.7819,宜昌市,夷陵区,,22,22,32,12,14,167,44,47,46,14,14,4,4,0.5,0.5
2022-08-16T02:00:00,1844A,112.2494,30.3197,荆州市,市图书馆,,34,34,28,18,17,118,58,80,69,17,12,10,10,0.6,0.6
2022-08-16T02:00:00,1845A,112.2008,30.3544,荆州市,市委党校,,30,30,34,13,20,112,44,84,64,17,10,11,9,0.7,0.6
2022-08-16T02:00:00,1847A,113.1094,29.3578,岳阳市,南湖风景区,,44,44,23,26,19,134,64,64,64,19,12,15,11,0.6,0.6
2022-08-16T02:00:00,1848A,113.1493,29.4251,岳阳市,城陵矶,,39,35,27,27,20,116,68,74,71,16,13,11,16,0.5,0.5
2022-08-16T02:00:00,1849A,113.1497,29.3575,岳阳市,开发区,,22,22,23,15,21,139,68,70,69,16,14,9,11,0.4,0.4
2022-08-16T02:00:00,1850A,113.2621,29.4758,岳阳市,云溪区,,26,24,23,14,13,137,81,87,84,7,7,7,8,0.3,0.3
2022-08-16T02:00:00,1851A,112.9943,29.4402,岳阳市,君山区,,34,34,26,20,16,126,62,70,66,14,10,16,12,0.7,0.7
2022-08-16T02:00:00,1852A,113.2117,29.355,岳阳市,金凤水库(对照点),,24,24,21,15,14,130,55,57,56,13,10,4,6,1.0,0.9
2022-08-16T02:00:00,1854A,111.6975,28.9703,常德市,市二中,,29,22,23,20,14,105,50,62,56,15,12,14,7,0.5,0.4
2022-08-16T02:00:00,1857A,111.7158,29.1456,常德市,白鹤山(对照点),,34,34,22,21,13,94,48,54,51,12,5,7,7,0.5,0.4
2022-08-16T02:00:00,1858A,110.5319,29.1217,张家界市,永定新区,,,18,14,6,7,85,30,41,36,,12,4,3,0.4,0.4
2022-08-16T02:00:00,1859A,110.4697,29.1242,张家界市,电业局,,22,22,20,4,5,76,29,29,29,10,9,4,4,0.3,0.3
2022-08-16T02:00:00,1860A,110.5594,29.3547,张家界市,未央路,,14,14,11,8,7,78,28,28,28,7,9,2,2,0.1,0.1
2022-08-16T02:00:00,1861A,110.4417,29.315,张家界市,袁家界(对照点),,23,14,13,8,11,94,71,71,71,5,5,6,6,0.6,0.6
2022-08-16T02:00:00,1862A,110.4144,25.3167,桂林市,电子科大尧山校区(对照点),,26,21,25,18,16,108,26,27,26,10,6,7,15,0.5,0.5
2022-08-16T02:00:00,1863A,110.2819,25.2697,桂林市,监测站,,17,17,22,4,11,91,54,59,56,7,11,7,6,0.5,0.4
2022-08-16T02:00:00,1864A,110.3089,25.2708,桂林市,龙隐路小学,,24,24,23,14,14,100,45,44,44,8,10,8,7,0.5,0.5
2022-08-16T02:00:00,1865A,110.2869,25.2178,桂林市,八中,,17,17,21,11,11,91,45,45,45,9,11,8,6,0.5,0.5
2022-08-16T02:00:00,1866A,109.2262,21.588,北海市,牛尾岭水库(对照点),,,,,0,6,53,24,22,22,3,3,4,5,0.6,0.6
2022-08-16T02:00:00,1867A,109.1436,21.4086,北海市,海滩公园,,19,7,21,5,3,73,60,60,60,3,2,4,4,0.7,0.7
2022-08-16T02:00:00,1868A,109.0981,21.4661,北海市,新市环保局,,17,14,12,7,7,65,54,54,54,3,3,3,3,0.6,0.6
2022-08-16T02:00:00,1869A,109.1778,21.5233,北海市,北海工业园,,15,9,17,7,8,59,45,47,46,3,3,5,4,0.7,0.7
2022-08-16T02:00:00,1870A,109.4856,24.3895,柳州市,柳东小学,,31,31,21,19,15,110,75,73,73,11,8,4,3,0.6,0.5
2022-08-16T02:00:00,1871A,109.4157,24.3277,柳州市,环保监测站,细颗粒物(PM2.5),53,28,25,37,13,95,70,72,71,12,11,5,5,0.7,0.7
2022-08-16T02:00:00,1872A,109.389,24.341,柳州市,河西水厂,,33,33,26,14,12,96,68,64,64,15,12,9,9,0.8,0.5
2022-08-16T02:00:00,1873A,109.4311,24.2921,柳州市,市四中,,50,50,32,21,12,97,57,57,57,17,11,6,6,0.6,0.6
2022-08-16T02:00:00,1874A,109.4006,24.3631,柳州市,市九中,,40,40,29,10,13,98,72,70,70,9,9,7,7,0.8,0.7
2022-08-16T02:00:00,1875A,109.4958,24.3134,柳州市,古亭山,,34,34,21,12,12,90,38,44,41,18,12,5,5,0.6,0.6
2022-08-16T02:00:00,1876A,109.5078,18.2489,三亚市,河东子站,,16,16,13,7,7,52,35,32,32,3,4,2,2,0.4,0.4
2022-08-16T02:00:00,1877A,109.4964,18.2681,三亚市,河西子站,,12,12,10,4,9,55,37,32,32,3,3,1,2,0.4,0.4
2022-08-16T02:00:00,1878A,104.7778,31.4741,绵阳市,富乐山,,36,36,32,20,18,130,69,76,72,9,10,3,3,0.6,0.6
2022-08-16T02:00:00,1879A,104.7563,31.4535,绵阳市,市人大,,33,33,36,17,19,123,68,68,68,4,11,4,4,0.5,0.5
2022-08-16T02:00:00,1880A,104.6697,31.4668,绵阳市,高新区自来水公司,,38,36,34,26,24,133,66,70,68,11,13,6,6,0.6,0.6
2022-08-16T02:00:00,1881A,104.7287,31.5075,绵阳市,三水厂,,36,28,28,25,24,123,68,66,66,10,21,1,5,0.6,0.6
2022-08-16T02:00:00,1882A,104.563,28.793,宜宾市,石马中学(对照点),颗粒物(PM10),56,61,50,35,30,175,38,38,38,33,23,7,7,0.8,0.6
2022-08-16T02:00:00,1883A,104.6201,28.7728,宜宾市,市委,颗粒物(PM10),55,59,42,35,27,155,62,58,58,31,25,10,9,0.6,0.5
2022-08-16T02:00:00,1884A,104.6055,28.793,宜宾市,宜宾四中,颗粒物(PM10),59,67,48,38,27,188,71,58,58,30,24,12,10,0.6,0.6
2022-08-16T02:00:00,1885A,104.639,28.7562,宜宾市,市政府,颗粒物(PM10),60,70,54,37,25,198,54,48,48,46,31,10,10,0.8,0.7
2022-08-16T02:00:00,1886A,104.5742,28.7199,宜宾市,黄金嘴,,48,48,46,30,24,197,72,68,68,22,19,13,11,0.6,0.5
2022-08-16T02:00:00,1888A,101.6891,26.571,攀枝花市,弄弄坪,细颗粒物(PM2.5),59,44,36,42,25,171,69,58,58,22,23,8,5,1.0,1
2022-08-16T02:00:00,1889A,101.5769,26.5928,攀枝花市,河门口,颗粒物(PM10),51,52,43,30,25,180,42,51,46,29,25,16,22,1.0,1.4
2022-08-16T02:00:00,1890A,101.7169,26.585,攀枝花市,炳草岗,颗粒物(PM10),74,97,50,17,22,168,75,66,66,17,26,16,17,0.8,0.9
2022-08-16T02:00:00,1891A,101.7369,26.5008,攀枝花市,仁和,,34,34,39,20,24,140,71,63,63,10,13,8,13,0.8,0.9
2022-08-16T02:00:00,1893A,105.4324,28.9634,泸州市,九狮山(对照点),,40,39,29,28,20,160,17,25,21,42,22,8,10,0.3,0.5
2022-08-16T02:00:00,1894A,105.4427,28.9063,泸州市,小市上码头,细颗粒物(PM2.5),63,71,49,45,31,199,44,57,50,41,21,12,10,0.8,0.7
2022-08-16T02:00:00,1895A,105.4241,28.8573,泸州市,兰田宪桥,细颗粒物(PM2.5),73,60,49,53,30,191,53,53,53,20,22,12,13,0.7,0.5
2022-08-16T02:00:00,1896A,105.4379,28.8833,泸州市,市环监站,细颗粒物(PM2.5),62,59,46,44,29,192,78,74,74,14,19,8,9,0.4,0.5
2022-08-16T02:00:00,1897A,104.7547,29.3628,自贡市,大塘山(对照点),,,,,,,,,,,,,,,,
2022-08-16T02:00:00,1900A,104.7692,29.3411,自贡市,春华路,,,,,,,,,,,,,,,,
2022-08-16T02:00:00,1901A,104.4239,31.1208,德阳市,东山公园,,39,39,38,24,20,163,84,85,84,11,12,2,3,0.5,0.5
2022-08-16T02:00:00,1902A,104.3826,31.1317,德阳市,西小区,,46,46,48,16,18,155,63,72,68,21,17,6,7,0.5,0.5
2022-08-16T02:00:00,1903A,104.4053,31.1167,德阳市,市检察院,,,,,,,,,,,,,,,,
2022-08-16T02:00:00,1904A,104.3553,31.1091,德阳市,耐火材料厂,,40,40,41,18,15,149,42,66,54,28,15,6,7,0.6,0.5
2022-08-16T02:00:00,1905A,106.056,30.8064,南充市,西山风景区(对照点),颗粒物(PM10),52,53,37,34,28,138,78,78,78,10,12,1,2,1.0,1
2022-08-16T02:00:00,1906A,106.0789,30.8023,南充市,南充市委,颗粒物(PM10),53,56,44,34,21,159,60,62,61,16,17,5,3,0.6,0.5
2022-08-16T02:00:00,1907A,106.1031,30.8217,南充市,南充炼油厂,颗粒物(PM10),56,61,50,33,26,173,37,55,46,20,12,7,6,0.5,0.4
2022-08-16T02:00:00,1908A,106.1064,30.7856,南充市,高坪区监测站,颗粒物(PM10),65,80,46,31,27,155,51,51,51,29,14,2,5,0.6,0.5
2022-08-16T02:00:00,1909A,106.0642,30.7636,南充市,嘉陵区环保局,,50,50,40,33,27,128,58,60,59,22,13,4,5,0.7,0.5
2022-08-16T02:00:00,1910A,106.1087,30.8388,南充市,市环境监测站,颗粒物(PM10),52,54,51,33,33,142,56,63,60,13,12,4,4,0.5,0.4
2022-08-16T02:00:00,1911A,106.9222,27.6869,遵义市,丁字口,,38,24,22,26,16,118,45,46,46,20,12,6,8,0.8,0.8
2022-08-16T02:00:00,1912A,106.9242,27.7019,遵义市,凤凰山,,28,28,25,11,11,116,72,76,74,10,10,4,5,0.6,0.6
2022-08-16T02:00:00,1913A,106.8906,27.6486,遵义市,忠庄,,33,33,26,15,13,108,53,59,56,14,13,3,3,0.4,0.4
2022-08-16T02:00:00,1914A,106.9231,27.6506,遵义市,舟水桥,,31,31,24,16,8,107,37,39,38,16,12,1,4,0.4,0.4
2022-08-16T02:00:00,1915A,106.9178,27.72,遵义市,干田坝,,26,26,22,12,13,128,14,16,15,28,16,5,6,0.7,0.7
2022-08-16T02:00:00,1916A,103.7897,25.5035,曲靖市,环境监测站,,46,46,36,27,22,125,35,42,38,20,17,12,8,1.0,0.7
2022-08-16T02:00:00,1917A,103.8,25.5364,曲靖市,烟厂办公区,,40,40,33,18,20,141,43,44,44,17,13,16,10,1.1,0.8
2022-08-16T02:00:00,1918A,108.7197,34.3956,咸阳市,气象站(对照点),颗粒物(PM10),52,54,47,20,19,161,36,34,34,42,24,7,6,1.3,1.2
2022-08-16T02:00:00,1919A,108.673,34.3155,咸阳市,实验中学,颗粒物(PM10),54,58,52,19,14,147,18,48,33,45,20,4,4,0.4,0.3
2022-08-16T02:00:00,1920A,108.7233,34.3617,咸阳市,师范学院,颗粒物(PM10),51,52,54,17,15,153,39,45,42,33,17,9,6,0.5,0.4
2022-08-16T02:00:00,1922A,109.0656,35.0994,铜川市,党校(对照点),,32,32,47,9,11,48,12,11,11,46,30,4,4,0.6,0.7
2022-08-16T02:00:00,1923A,109.0697,35.0697,铜川市,王益区政府,,32,32,44,10,13,99,32,35,34,32,20,3,3,0.3,0.4
2022-08-16T02:00:00,1924A,108.9344,34.9058,铜川市,新区管委会,,25,25,38,10,11,107,72,76,74,15,16,5,5,0.4,0.4
2022-08-16T02:00:00,1925A,108.9589,34.8731,铜川市,新区兰芝公司,,,,,,,,,,,,,,,,
2022-08-16T02:00:00,1926A,109.4131,36.6275,延安市,枣园(对照点),,45,45,42,12,12,80,4,4,4,29,21,2,3,0.5,0.5
2022-08-16T02:00:00,1927A,109.4761,36.6028,延安市,延大医附院,,46,46,44,11,13,94,3,2,2,40,25,3,3,0.4,0.4
2022-08-16T02:00:00,1928A,109.4824,36.5767,延安市,市监测站,,,,,,,,,,,,,,,,
2022-08-16T02:00:00,1929A,109.5056,36.6106,延安市,百米大道,颗粒物(PM10),52,54,47,16,15,92,10,13,12,44,26,5,5,0.5,0.5
2022-08-16T02:00:00,1930A,107.185,34.3063,宝鸡市,庙沟村(对照点),,24,17,35,9,11,116,76,75,75,9,12,4,4,0.3,0.3
2022-08-16T02:00:00,1931A,107.0708,34.3017,宝鸡市,竹园沟,,21,18,25,8,9,131,65,64,64,18,15,4,6,0.2,0.2
2022-08-16T02:00:00,1932A,107.1906,34.3672,宝鸡市,三陆医院,,42,42,42,14,12,122,40,45,42,26,18,6,5,0.4,0.4
2022-08-16T02:00:00,1933A,107.1431,34.3547,宝鸡市,监测站,,29,29,34,9,15,121,57,63,60,17,17,5,6,0.3,0.3
2022-08-16T02:00:00,1934A,107.1186,34.3739,宝鸡市,技工学校,,32,32,40,16,17,126,52,57,54,14,12,3,4,0.2,0.3
2022-08-16T02:00:00,1935A,107.3906,34.3528,宝鸡市,陈仓区环保局家属楼,,44,44,42,11,14,117,51,51,51,29,16,5,7,0.3,0.3
2022-08-16T02:00:00,1936A,107.2058,34.3497,宝鸡市,文理学院,,33,33,38,13,13,128,57,59,58,20,18,5,5,0.2,0.2
2022-08-16T02:00:00,1937A,107.2386,34.3622,宝鸡市,三迪小学,,35,35,42,16,14,114,57,56,56,17,21,4,5,0.3,0.3
2022-08-16T02:00:00,1938A,109.5293,34.5101,渭南市,农科所(对照点),,,,,,,,,,,,,,,,
2022-08-16T02:00:00,1939A,109.4974,34.4877,渭南市,日报社,,46,46,51,26,20,191,59,61,60,20,23,14,10,0.4,0.4
2022-08-16T02:00:00,1940A,109.4636,34.493,渭南市,体育馆,颗粒物(PM10),52,53,49,26,20,181,33,44,38,48,26,11,8,0.3,0.4
2022-08-16T02:00:00,1941A,109.4259,34.5023,渭南市,高新一小,颗粒物(PM10),55,59,59,18,18,165,44,52,48,34,22,7,5,0.3,0.4
2022-08-16T02:00:00,1943A,102.1725,38.5339,金昌市,新川苑,颗粒物(PM10),51,51,36,12,12,126,39,43,41,37,25,10,15,0.7,0.7
2022-08-16T02:00:00,1944A,102.1692,38.5167,金昌市,天庆家园,,43,43,31,7,7,131,41,58,50,42,22,6,11,0.8,0.7
2022-08-16T02:00:00,1945A,98.2908,39.7711,嘉峪关市,气象局,,25,22,27,7,10,149,45,32,32,50,26,2,12,0.5,0.6
2022-08-16T02:00:00,1947A,106.3394,38.817,石嘴山市,沙湖旅游区(对照点),颗粒物(PM10),59,67,50,25,17,172,32,71,52,37,20,6,9,0.5,0.4
2022-08-16T02:00:00,1948A,106.3668,39.0145,石嘴山市,大武口朝阳西街,颗粒物(PM10),54,57,45,21,13,168,32,59,46,52,23,11,20,0.7,0.7
2022-08-16T02:00:00,1949A,106.7704,39.2282,石嘴山市,惠农南大街,,36,36,56,17,16,195,41,66,54,37,24,12,30,0.3,0.9
2022-08-16T02:00:00,1950A,106.7099,39.1325,石嘴山市,红果子镇惠新街,颗粒物(PM10),60,69,68,32,19,184,60,71,66,26,17,15,37,0.7,0.8
2022-08-16T02:00:00,1951A,84.895,45.6094,克拉玛依市,长征新村,,36,12,25,7,5,138,113,112,112,4,12,9,9,0.2,0.2
2022-08-16T02:00:00,1952A,84.8988,45.5893,克拉玛依市,南林小区,,25,11,22,12,10,128,79,67,67,23,29,4,4,0.1,0.2
2022-08-16T02:00:00,1953A,85.1186,45.6886,克拉玛依市,白碱滩区,,,,,,,,,,,,,,,,
2022-08-16T02:00:00,1954A,84.905,44.3396,克拉玛依市,独山子区,,30,25,22,13,10,146,96,99,98,10,10,8,10,0.5,0.3
2022-08-16T02:00:00,1955A,85.6979,46.098,克拉玛依市,乌尔禾区商贸楼,,49,49,30,8,12,119,86,89,88,2,6,4,4,0.3,0.3
2022-08-16T02:00:00,1956A,86.1472,41.7538,巴音郭楞州,孔雀公园,颗粒物(PM10),86,121,126,45,42,108,17,45,31,36,20,3,3,0.4,0.3
2022-08-16T02:00:00,1957A,86.1972,41.7166,巴音郭楞州,棉纺厂,颗粒物(PM10),104,158,155,43,44,113,54,56,55,17,12,5,5,0.2,0.2
2022-08-16T02:00:00,1958A,86.2357,41.7173,巴音郭楞州,经济开发区,颗粒物(PM10),98,145,146,38,37,113,58,73,66,11,9,4,5,0.2,0.2
2022-08-16T02:00:00,1959A,118.746,36.881,寿光市,监测站,,,,,,,,,,,,,,,,
2022-08-16T02:00:00,1960A,118.780,36.864,寿光市,世纪学校,,,,,,,,,,,,,,,,
2022-08-16T02:00:00,1961A,117.532,36.6868,济南市,东山小学,颗粒物(PM10),55,59,41,12,13,146,17,19,18,58,17,5,5,0.3,0.6
2022-08-16T02:00:00,1962A,117.541,36.710,章丘市,明水开发区,,,,,,,,,,,,,,,,
2022-08-16T02:00:00,1963A,120.610,36.440,即墨市,环保局子站,,,,,,,,,,,,,,,,
2022-08-16T02:00:00,1964A,120.470,36.390,即墨市,开发区子站,,,,,,,,,,,,,,,,
2022-08-16T02:00:00,1965A,120.005,35.878,胶南市,JN子站,,,,,,,,,,,,,,,,
2022-08-16T02:00:00,1966A,120.0405,35.8735,青岛市,黄岛区4号,,41,41,42,27,19,163,109,122,116,12,17,5,5,1.1,0.9
2022-08-16T02:00:00,1967A,120.008,36.283,胶州市,胶州环保局,,,,,,,,,,,,,,,,
2022-08-16T02:00:00,1968A,120.014,36.253,胶州市,胶州一中,,,,,,,,,,,,,,,,
2022-08-16T02:00:00,1969A,120.537,36.865,莱西市,环保局子站,,,,,,,,,,,,,,,,
2022-08-16T02:00:00,1970A,120.515,36.885,莱西市,人民广场子站,,,,,,,,,,,,,,,,
2022-08-16T02:00:00,1971A,119.952,36.792,平度市,1号,,,,,,,,,,,,,,,,
2022-08-16T02:00:00,1972A,119.976,36.799,平度市,2号,,,,,,,,,,,,,,,,
2022-08-16T02:00:00,1973A,120.747,37.825,蓬莱市,蓬莱环保局,,,,,,,,,,,,,,,,
2022-08-16T02:00:00,1974A,120.773,37.809,蓬莱市,蓬莱博物馆,,,,,,,,,,,,,,,,
2022-08-16T02:00:00,1975A,120.399,37.374,招远市,招远环保局,,,,,,,,,,,,,,,,
2022-08-16T02:00:00,1976A,120.394,37.364,招远市,招远教育局,,,,,,,,,,,,,,,,
2022-08-16T02:00:00,1977A,119.941,37.177,莱州市,莱州环保局,,,,,,,,,,,,,,,,
2022-08-16T02:00:00,1978A,119.959,37.180,莱州市,莱州外经委,,,,,,,,,,,,,,,,
2022-08-16T02:00:00,1979A,122.471,37.154,荣成市,荣成市环保局办公楼,,,,,,,,,,,,,,,,
2022-08-16T02:00:00,1980A,122.410,37.161,荣成市,山东成山轮胎公司,,,,,,,,,,,,,,,,
2022-08-16T02:00:00,1981A,122.038,37.197,文登市,文登市环保局,,,,,,,,,,,,,,,,
2022-08-16T02:00:00,1982A,122.0693,37.2174,威海市,文登开发区,,24,9,29,5,17,154,74,77,76,8,10,4,4,0.7,0.8
2022-08-16T02:00:00,1983A,121.531,36.913,乳山市,乳山市环保局,,,,,,,,,,,,,,,,
2022-08-16T02:00:00,1984A,121.544,36.907,乳山市,乳山市气象局,,,,,,,,,,,,,,,,
2022-08-16T02:00:00,1985A,120.636,31.155,吴江市,吴江市环保局,,,,,,,,,,,,,,,,
2022-08-16T02:00:00,1986A,120.635,31.170,吴江市,教师进修学校,,,,,,,,,,,,,,,,
2022-08-16T02:00:00,1987A,120.658,31.172,吴江市,吴江开发区,,,,,,,,,,,,,,,,
2022-08-16T02:00:00,1988A,120.953,31.388,昆山市,昆山实验小学,,,,,,,,,,,,,,,,
2022-08-16T02:00:00,1989A,120.999,31.381,昆山市,震川中学,,,,,,,,,,,,,,,,
2022-08-16T02:00:00,1990A,120.758,31.670,常熟市,海虞子站,,,,,,,,,,,,,,,,
2022-08-16T02:00:00,1991A,120.721,31.671,常熟市,兴福子站,,,,,,,,,,,,,,,,
2022-08-16T02:00:00,1992A,120.734,31.656,常熟市,菱塘子站,,,,,,,,,,,,,,,,
2022-08-16T02:00:00,1993A,120.526,31.874,张家港市,张家港市监测站,,,,,,,,,,,,,,,,
2022-08-16T02:00:00,1994A,120.550,31.882,张家港市,城北小学,,,,,,,,,,,,,,,,
2022-08-16T02:00:00,1995A,121.115,31.453,太仓市,太仓市监测站,,,,,,,,,,,,,,,,
2022-08-16T02:00:00,1996A,121.140,31.422,太仓市,科教新城实小,,,,,,,,,,,,,,,,
2022-08-16T02:00:00,1997A,119.146,31.955,句容市,消防指挥中心,,,,,,,,,,,,,,,,
2022-08-16T02:00:00,1998A,119.180,31.955,句容市,房家坝,,,,,,,,,,,,,,,,
2022-08-16T02:00:00,1999A,120.268,31.920,江阴市,虹桥邮政,,,,,,,,,,,,,,,,
2022-08-16T02:00:00,2000A,120.237,31.909,江阴市,五星公园,,,,,,,,,,,,,,,,
2022-08-16T02:00:00,2001A,120.302,31.920,江阴市,第二实验小学,,,,,,,,,,,,,,,,
2022-08-16T02:00:00,2002A,119.818,31.354,宜兴市,宜兴市环保局,,,,,,,,,,,,,,,,
2022-08-16T02:00:00,2003A,119.794,31.371,宜兴市,宜园,,,,,,,,,,,,,,,,
2022-08-16T02:00:00,2004A,119.579,31.751,金坛市,金坛市环境监测站,,,,,,,,,,,,,,,,
2022-08-16T02:00:00,2005A,119.579,31.737,金坛市,金坛市自来水公司,,,,,,,,,,,,,,,,
2022-08-16T02:00:00,2006A,119.460,31.400,溧阳市,溧阳市东门子站,,,,,,,,,,,,,,,,
2022-08-16T02:00:00,2007A,119.438,31.317,溧阳市,燕山子站,,,,,,,,,,,,,,,,
2022-08-16T02:00:00,2008A,121.173,31.896,海门市,海门市监测站,,,,,,,,,,,,,,,,
2022-08-16T02:00:00,2009A,121.1518,31.89708,海门市,社会福利院,,,,,,,,,,,,,,,,
2022-08-16T02:00:00,2010A,119.7183,30.2366,临安市,市政府,,,,,,,,,,,,,,,,
2022-08-16T02:00:00,2011A,119.6942,30.2311,临安市,四中,,,,,,,,,,,,,,,,
2022-08-16T02:00:00,2012A,119.954,30.054,富阳市,监测站,,,,,,,,,,,,,,,,
2022-08-16T02:00:00,2013A,119.946,30.049,富阳市,富春二小,,,,,,,,,,,,,,,,
2022-08-16T02:00:00,2014A,120.091,29.305,义乌市,江东,,,,,,,,,,,,,,,,
2022-08-16T02:00:00,2015A,120.040,29.334,义乌市,北苑,,,,,,,,,,,,,,,,
2022-08-16T02:00:00,2016A,120.251,29.719,诸暨市,图书馆,,,,,,,,,,,,,,,,
2022-08-16T02:00:00,2017A,120.209,29.732,诸暨市,富林印务,,,,,,,,,,,,,,,,
2022-08-16T02:00:00,2018A,121.989,39.625,瓦房店市,抱龙山庄,,,,,,,,,,,,,,,,
2022-08-16T02:00:00,2019A,122.011,39.617,瓦房店市,东山公园,,,,,,,,,,,,,,,,
2022-08-16T02:00:00,2031A,113.1817,27.9958,株洲市,云田中学,,27,27,26,6,21,125,46,52,49,9,9,4,6,0.8,0.7
2022-08-16T02:00:00,2054A,114.1099,32.1059,信阳市,平桥分局,,25,22,31,17,17,132,75,80,78,12,9,7,7,0.6,0.6
2022-08-16T02:00:00,2064A,113.9956,32.1271,信阳市,南湾水厂,,22,22,28,5,13,136,68,82,75,6,5,6,7,0.5,0.5
2022-08-16T02:00:00,2065A,114.0775,32.1195,信阳市,市酿酒公司,,25,13,22,10,15,132,77,80,78,7,7,6,7,0.5,0.4
2022-08-16T02:00:00,2066A,114.0609,32.1399,信阳市,审计局,,23,23,29,10,16,133,60,77,68,11,5,8,9,0.7,0.7
2022-08-16T02:00:00,2067A,114.6613,33.6128,周口市,市环境监测站,,28,16,33,13,32,176,89,86,86,2,5,4,5,0.5,0.4
2022-08-16T02:00:00,2068A,114.6758,33.6347,周口市,周口师范,,26,19,34,8,15,175,82,76,76,7,7,2,3,0.9,0.6
2022-08-16T02:00:00,2069A,114.6546,33.5979,周口市,市运管处,,33,33,34,14,14,176,88,86,86,5,6,2,3,0.8,0.6
2022-08-16T02:00:00,2070A,114.6369,33.6406,周口市,川汇区环保局,,24,18,34,8,13,166,76,74,74,6,5,3,4,0.7,0.6
2022-08-16T02:00:00,2075A,117.6336,24.4674,漳州市,九湖(对照点),,,,,,,,,,,,,,,,
2022-08-16T02:00:00,2160A,112.85,35.5051,晋城市,自来水公司,颗粒物(PM10),54,58,53,17,19,156,19,30,24,51,27,8,9,0.8,0.9
2022-08-16T02:00:00,2161A,112.8318,35.4936,晋城市,白云商贸,颗粒物(PM10),51,52,44,9,17,146,29,53,41,42,21,5,5,1.0,0.8
2022-08-16T02:00:00,2162A,112.8508,35.4887,晋城市,市环保局,,50,50,40,19,24,155,19,38,28,55,27,8,10,0.9,1
2022-08-16T02:00:00,2163A,112.8676,35.4897,晋城市,技术学院,颗粒物(PM10),51,51,49,12,16,150,7,26,16,63,31,2,2,0.7,1
2022-08-16T02:00:00,2164A,112.8271,35.4828,晋城市,泽州一中,,,,,,,,,,,,,,,,
2022-08-16T02:00:00,2165A,112.8453,35.546,晋城市,白马寺 (对照点),,,,,,,,,,,,,,,,
2022-08-16T02:00:00,2166A,112.4397,39.3522,朔州市,平朔,颗粒物(PM10),65,80,41,18,9,144,7,10,8,62,27,14,10,0.6,0.5
2022-08-16T02:00:00,2167A,112.4575,39.3617,朔州市,朔唯,颗粒物(PM10),65,80,42,18,8,147,8,22,15,66,32,13,9,0.7,0.6
2022-08-16T02:00:00,2168A,112.4258,39.3197,朔州市,区政府,颗粒物(PM10),55,59,40,11,10,146,34,35,34,45,24,13,11,0.6,0.6
2022-08-16T02:00:00,2169A,112.4072,39.3278,朔州市,市环保局,颗粒物(PM10),66,81,50,14,7,139,26,25,25,44,27,11,10,0.2,0.3
2022-08-16T02:00:00,2170A,112.4272,39.3681,朔州市,市二中,颗粒物(PM10),70,89,47,24,11,142,2,9,6,66,26,11,8,0.7,0.7
2022-08-16T02:00:00,2171A,112.7532,37.6945,晋中市,锦纶小区,,36,36,48,9,18,128,12,9,9,39,34,5,8,0.3,0.6
2022-08-16T02:00:00,2173A,112.7249,37.7067,晋中市,南都小区,,34,34,49,8,20,123,24,16,16,35,40,7,9,0.3,0.6
2022-08-16T02:00:00,2174A,112.6991,37.6982,晋中市,榆次区政府,,33,33,45,19,22,116,21,14,14,33,32,8,10,0.5,0.8
2022-08-16T02:00:00,2175A,110.9956,35.0147,运城市,运城中学,颗粒物(PM10),57,63,53,29,26,133,60,62,61,14,12,9,9,0.6,0.7
2022-08-16T02:00:00,2176A,111.0233,35.0611,运城市,禹都开发区,,,,,,,,,,,,,,,,
2022-08-16T02:00:00,2178A,110.9686,35.0303,运城市,地区技校,颗粒物(PM10),59,67,61,16,21,132,57,59,58,8,9,7,7,0.6,0.6
2022-08-16T02:00:00,2179A,111.0414,35.1147,运城市,空港新区,颗粒物(PM10),74,98,78,24,27,142,35,46,40,34,26,12,8,0.8,0.8
2022-08-16T02:00:00,2181A,112.7383,38.4519,忻州市,开发区,,33,33,28,17,17,110,39,43,41,26,18,10,9,0.6,0.6
2022-08-16T02:00:00,2182A,112.7003,38.4928,忻州市,会展中心,,34,34,30,13,14,114,12,15,14,35,22,9,9,0.4,0.3
2022-08-16T02:00:00,2183A,111.1406,37.5211,吕梁市,环保局,颗粒物(PM10),59,68,56,25,19,98,1,0,0,39,29,3,3,0.4,0.5
2022-08-16T02:00:00,2185A,111.1297,37.5136,吕梁市,自来水公司,颗粒物(PM10),71,91,57,17,12,89,2,5,4,38,21,5,5,0.6,0.6
2022-08-16T02:00:00,2186A,106.8288,39.6778,乌海市,聚英学校,,,,,,,,,,,,,,,,
2022-08-16T02:00:00,2187A,106.8174,39.6973,乌海市,市林业局,颗粒物(PM10),81,111,49,31,16,169,82,83,82,41,13,78,18,1.0,0.6
2022-08-16T02:00:00,2188A,106.7907,39.6667,乌海市,中海勃湾学校,颗粒物(PM10),63,76,43,31,16,191,77,86,82,44,22,58,16,1.0,0.5
2022-08-16T02:00:00,2191A,122.2532,43.6801,通辽市,艺术职业学校,,21,21,18,6,6,74,36,41,38,10,8,5,5,0.2,0.2
2022-08-16T02:00:00,2192A,119.7594,49.2261,呼伦贝尔市,区环保局,,33,30,36,23,20,84,63,58,58,8,19,4,5,0.4,0.5
2022-08-16T02:00:00,2194A,107.5936,40.916,巴彦淖尔市,秋林养殖基地(对照点),,,,,,,,,,,,,,,,
2022-08-16T02:00:00,2195A,107.4212,40.761,巴彦淖尔市,附二中,,32,32,53,6,13,129,48,76,62,21,10,25,13,0.4,0.4
2022-08-16T02:00:00,2196A,107.37,40.7372,巴彦淖尔市,市环保大楼,,30,24,47,13,19,132,93,93,93,10,9,2,3,0.5,0.5
2022-08-16T02:00:00,2197A,113.1306,40.9923,乌兰察布市,集宁新区,,21,21,18,14,12,97,43,41,41,16,6,24,12,0.5,0.4
2022-08-16T02:00:00,2200A,122.0392,46.0656,兴安盟,胜华新制药厂,,28,12,15,19,12,67,21,22,22,8,5,2,2,0.2,0.3
2022-08-16T02:00:00,2201A,121.9504,46.0741,兴安盟,科右前旗环保局,,18,18,11,11,14,61,13,15,14,10,7,3,3,0.3,0.2
2022-08-16T02:00:00,2202A,116.1042,43.9317,锡林郭勒盟,市环保监测站,,13,9,15,5,4,76,18,32,25,26,10,10,8,0.2,0.2
2022-08-16T02:00:00,2203A,116.0781,43.9311,锡林郭勒盟,市政府,,21,21,14,2,3,75,14,10,10,28,12,8,7,0.2,0.2
2022-08-16T02:00:00,2204A,105.6467,38.8363,阿拉善盟,西城区西花园(对照点),,35,33,23,14,10,130,109,108,108,8,9,4,4,0.4,0.4
2022-08-16T02:00:00,2205A,105.6985,38.8411,阿拉善盟,蒙二幼,,36,26,21,20,17,136,113,114,114,4,7,7,7,0.4,0.2
2022-08-16T02:00:00,2206A,105.724,38.8516,阿拉善盟,环保局新楼,,35,20,16,11,11,123,112,118,115,5,9,7,7,0.4,0.4
2022-08-16T02:00:00,2207A,121.6094,41.998,阜新市,工业园区,,17,8,12,6,4,69,53,54,54,8,10,5,6,0.4,0.6
2022-08-16T02:00:00,2208A,121.6697,42.0279,阜新市,长青街,,19,10,12,8,8,73,60,66,63,5,5,6,6,0.3,0.3
2022-08-16T02:00:00,2209A,121.6673,42.0705,阜新市,农业园区,,18,11,8,6,4,67,56,62,59,7,6,5,5,0.4,0.5
2022-08-16T02:00:00,2210A,121.6717,42.0224,阜新市,东苑,,19,13,12,8,7,73,59,64,62,9,5,1,2,0.3,0.4
2022-08-16T02:00:00,2211A,121.6506,42.0498,阜新市,玉龙新城,,20,14,10,7,3,79,64,67,66,6,8,6,6,0.4,0.4
2022-08-16T02:00:00,2212A,123.2,41.1953,辽阳市,宏伟区,,19,19,14,7,7,71,35,34,34,13,11,6,4,0.2,0.3
2022-08-16T02:00:00,2213A,123.1683,41.2495,辽阳市,新华园,,28,28,18,12,9,57,33,34,34,11,9,4,3,0.4,0.5
2022-08-16T02:00:00,2214A,123.2354,41.2639,辽阳市,滨河路,,24,24,18,15,13,61,42,49,46,10,10,7,7,0.6,0.7
2022-08-16T02:00:00,2215A,123.149,41.2991,辽阳市,铁西工业园,,23,23,14,9,11,58,25,34,30,16,11,4,4,0.7,0.6
2022-08-16T02:00:00,2216A,123.8139,42.3022,铁岭市,汇工街西,,15,14,9,6,4,74,47,47,47,6,7,5,8,0.3,0.4
2022-08-16T02:00:00,2217A,123.8649,42.2923,铁岭市,水上乐园,,14,8,11,6,6,68,44,47,46,17,22,5,6,0.1,0.2
2022-08-16T02:00:00,2218A,123.8486,42.2867,铁岭市,银州路东段,,19,19,13,2,3,65,47,50,48,12,17,4,4,0.3,0.4
2022-08-16T02:00:00,2219A,123.7153,42.2217,铁岭市,金沙江路北,,13,8,10,6,5,63,41,46,44,12,12,6,5,0.4,0.4
2022-08-16T02:00:00,2220A,120.4318,41.5881,朝阳市,西梁,,16,16,14,7,6,67,50,46,46,11,8,7,7,0.6,0.6
2022-08-16T02:00:00,2221A,120.4521,41.5646,朝阳市,河畔小区,,19,13,10,5,4,68,58,59,58,10,7,8,8,0.5,0.5
2022-08-16T02:00:00,2222A,120.4176,41.5648,朝阳市,八里堡,,19,11,11,8,8,71,60,62,61,5,5,3,4,0.5,0.5
2022-08-16T02:00:00,2223A,120.3806,41.5969,朝阳市,农业园区,,16,9,7,3,4,60,49,54,52,7,6,5,5,0.7,0.7
2022-08-16T02:00:00,2225A,124.4002,43.1713,四平市,一商场,,20,20,14,11,9,69,46,47,46,4,11,2,2,0.2,0.5
2022-08-16T02:00:00,2226A,124.388,43.193,四平市,境园,,15,14,9,7,6,64,47,46,46,3,8,5,5,0.4,0.7
2022-08-16T02:00:00,2227A,125.1358,42.8845,辽源市,环保局,颗粒物(PM10),59,68,19,15,9,76,36,40,38,10,12,5,8,0.6,0.7
2022-08-16T02:00:00,2229A,125.9358,41.7173,通化市,光明,,15,15,8,7,4,48,17,23,20,12,17,9,10,0.4,0.7
2022-08-16T02:00:00,2230A,125.9446,41.7325,通化市,铁路,,8,8,8,0,2,48,16,15,15,12,13,7,8,0.6,0.7
2022-08-16T02:00:00,2231A,126.4219,41.9171,白山市,喜丰,,14,14,13,5,4,39,30,32,31,7,12,8,8,0.8,0.9
2022-08-16T02:00:00,2232A,126.4077,41.9419,白山市,环保局,,16,16,18,7,5,50,28,29,28,8,12,6,6,0.5,0.7
2022-08-16T02:00:00,2233A,124.8006,45.1214,松原市,江南,,15,15,14,7,7,86,31,41,36,10,11,2,3,0.3,0.4
2022-08-16T02:00:00,2234A,124.7965,45.1722,松原市,江北,,14,14,17,5,7,84,30,28,28,13,15,1,2,0.3,0.4
2022-08-16T02:00:00,2235A,122.7911,45.6077,白城市,洮北区环保局,,16,16,19,1,5,80,35,35,35,6,7,9,3,0,0
2022-08-16T02:00:00,2236A,122.8738,45.5725,白城市,市环保局,,18,18,23,4,7,84,53,56,54,8,7,6,5,0.0,0
2022-08-16T02:00:00,2237A,129.47,42.8883,延边朝鲜族自治州,妇幼医院,,21,10,6,3,5,79,65,64,64,2,9,6,7,0.4,0.5
2022-08-16T02:00:00,2238A,129.5055,42.9108,延边朝鲜族自治州,延边医院,,21,7,7,0,3,72,66,69,68,3,8,7,7,0.5,0.5
2022-08-16T02:00:00,2239A,129.3964,42.8881,延边朝鲜族自治州,朝阳川镇医院,,20,6,7,1,2,81,61,67,64,8,5,9,9,0.3,0.4
2022-08-16T02:00:00,2240A,130.9762,45.3001,鸡西市,环保局,,35,35,32,19,12,43,7,16,12,20,22,3,3,0.6,0.5
2022-08-16T02:00:00,2243A,130.9429,45.3039,鸡西市,第一中学,,20,20,31,13,10,44,33,32,32,6,16,4,4,0.5,0.5
2022-08-16T02:00:00,2244A,130.2537,47.3416,鹤岗市,哈啤分公司,,9,7,9,6,5,140,20,18,18,5,6,6,7,0.3,0.3
2022-08-16T02:00:00,2245A,130.2684,47.3086,鹤岗市,斯达机电,,10,10,14,5,5,70,24,25,24,4,7,3,4,0.3,0.3
2022-08-16T02:00:00,2246A,130.3114,47.3388,鹤岗市,东山纸板厂,颗粒物(PM10),71,91,43,24,11,75,12,12,12,10,9,8,8,0.6,0.3
2022-08-16T02:00:00,2247A,130.1097,47.3382,鹤岗市,五号水库(对照点),,8,4,7,5,4,82,23,25,24,5,7,3,4,0.0,0.1
2022-08-16T02:00:00,2248A,131.1511,46.6937,双鸭山市,双合村,,33,33,32,11,13,75,3,3,3,16,14,6,12,0.5,0.9
2022-08-16T02:00:00,2249A,131.1652,46.6191,双鸭山市,南小市,,26,14,18,18,8,80,6,7,6,10,8,4,5,0.4,0.1
2022-08-16T02:00:00,2250A,131.1524,46.6554,双鸭山市,环保局,,29,29,21,8,8,74,5,5,5,13,12,4,5,0.6,0.6
2022-08-16T02:00:00,2251A,131.12,46.5656,双鸭山市,苗圃(对照点),,28,19,15,19,14,79,10,11,10,4,4,3,3,0.6,0.4
2022-08-16T02:00:00,2252A,128.5159,47.4311,伊春市,环保局,,13,13,11,6,6,45,2,2,2,6,8,4,4,0.3,0.3
2022-08-16T02:00:00,2253A,128.9102,47.7412,伊春市,电力嘉园,,12,5,9,8,5,47,4,5,4,6,6,4,6,0.4,0.4
2022-08-16T02:00:00,2254A,129.5029,48.471,伊春市,汤旺河国家公园(对照点),,15,15,14,4,4,42,0,0,0,2,2,5,5,0.2,0.2
2022-08-16T02:00:00,2255A,130.2751,46.8028,佳木斯市,佳纺,,18,17,26,12,10,80,7,20,14,19,13,1,2,0.3,0.3
2022-08-16T02:00:00,2256A,130.3995,46.8307,佳木斯市,发电厂,,28,28,26,12,10,81,15,12,12,8,7,1,1,0.4,0.4
2022-08-16T02:00:00,2257A,130.3258,46.7975,佳木斯市,环保局,,26,26,30,18,14,74,7,17,12,19,20,1,2,0.4,0.6
2022-08-16T02:00:00,2258A,130.3648,46.8032,佳木斯市,十一中,,23,23,24,16,14,83,11,21,16,24,13,5,5,0.4,0.3
2022-08-16T02:00:00,2259A,130.3794,46.7588,佳木斯市,四丰(对照点),,,21,21,14,13,92,22,24,23,19,16,1,2,,
2022-08-16T02:00:00,2262A,131.0518,45.8751,七台河市,新一中(对照点),,10,4,11,7,7,75,13,16,14,14,10,7,7,0.6,0.6
2022-08-16T02:00:00,2263A,127.4833,50.2524,黑河市,交通局,,8,8,18,4,8,67,14,17,16,2,10,5,5,0.4,0.5
2022-08-16T02:00:00,2264A,127.5144,50.2341,黑河市,环保局,,18,8,17,12,11,64,21,24,22,2,12,5,5,0.4,0.5
2022-08-16T02:00:00,2265A,127.5291,50.2472,黑河市,大黑河岛(对照点),,,4,20,2,9,62,,,,2,4,5,5,0.3,0.3
2022-08-16T02:00:00,2266A,126.9785,46.6365,绥化市,人和东街,,17,17,20,7,8,67,14,14,14,13,12,5,8,0.4,0.4
2022-08-16T02:00:00,2267A,126.964,46.6528,绥化市,党政办公中心,,16,16,21,7,9,81,20,21,20,10,12,5,6,0.4,0.4
2022-08-16T02:00:00,2269A,124.1069,50.4097,大兴安岭地区,科技局,,12,4,6,8,5,50,8,6,6,4,6,3,4,0.3,0.3
2022-08-16T02:00:00,2270A,117.396,32.939,蚌埠市,工人疗养院,颗粒物(PM10),53,56,39,6,16,145,88,98,93,3,6,9,12,0.3,0.3
2022-08-16T02:00:00,2271A,117.3605,32.9427,蚌埠市,百货大楼,颗粒物(PM10),52,53,39,9,11,143,85,90,88,8,11,9,13,0.4,0.5
2022-08-16T02:00:00,2273A,117.4185,32.8911,蚌埠市,蚌埠学院,,42,42,46,7,14,144,90,103,96,4,8,5,9,0.3,0.4
2022-08-16T02:00:00,2274A,117.3533,32.9673,蚌埠市,淮上区政府,,49,49,52,9,12,144,87,96,92,4,10,9,14,0.3,0.4
2022-08-16T02:00:00,2275A,117.3145,32.8977,蚌埠市,高新区,,45,45,54,14,19,139,86,98,92,14,14,11,12,0.4,0.5
2022-08-16T02:00:00,2277A,116.8305,32.7727,淮南市,潘集区政府,,30,21,42,7,14,126,93,101,97,4,11,7,8,0.1,0.1
2022-08-16T02:00:00,2278A,117.0067,32.6524,淮南市,师范学院,颗粒物(PM10),57,64,43,16,17,122,97,96,96,2,6,5,7,0.2,0.2
2022-08-16T02:00:00,2279A,116.8569,32.5951,淮南市,谢家集区政府,,50,50,34,2,8,125,100,98,98,4,6,8,7,0.2,0.2
2022-08-16T02:00:00,2280A,116.8281,32.633,淮南市,八公山区政府,颗粒物(PM10),53,56,31,8,12,125,99,98,98,5,6,6,6,0.3,0.3
2022-08-16T02:00:00,2281A,116.6325,32.6201,淮南市,焦岗湖风景区管理处(对照点),,41,41,34,6,8,116,88,86,86,12,9,4,6,0.1,0.1
2022-08-16T02:00:00,2282A,116.8004,33.975,淮北市,监测站,,33,14,34,8,18,148,105,96,96,2,6,6,8,0.4,0.4
2022-08-16T02:00:00,2283A,116.8091,33.9007,淮北市,烈山区政府,,26,5,27,6,15,137,81,82,82,7,7,7,9,0.8,0.7
2022-08-16T02:00:00,2284A,116.7856,33.9477,淮北市,职业技术学院,,28,14,34,7,17,140,88,83,83,4,5,5,6,0.6,0.5
2022-08-16T02:00:00,2285A,117.8177,30.9412,铜陵市,市第四中学,一氧化碳,51,39,39,29,22,133,35,50,42,38,24,31,16,5.1,1.1
2022-08-16T02:00:00,2286A,117.8059,30.9273,铜陵市,市公路局,,48,48,47,28,26,138,59,62,60,13,17,15,13,1.0,0.9
2022-08-16T02:00:00,2287A,117.7807,30.9413,铜陵市,市新民污水厂,,35,35,34,21,20,135,41,36,36,31,29,21,17,0.3,0.3
2022-08-16T02:00:00,2288A,117.7439,30.8792,铜陵市,市第九中学,颗粒物(PM10),67,84,52,36,23,139,14,39,26,44,29,4,5,0.6,0.6
2022-08-16T02:00:00,2289A,117.846,30.9413,铜陵市,车站新区,,30,30,36,18,14,119,52,60,56,15,16,13,12,0.4,0.6
2022-08-16T02:00:00,2290A,117.8483,30.97,铜陵市,市职教基地,颗粒物(PM10),51,51,40,23,17,137,23,43,33,32,17,17,16,1.7,1
2022-08-16T02:00:00,2291A,117.0809,30.5177,安庆市,环科院,,27,27,30,14,19,160,69,66,66,18,16,6,7,0.4,0.4
2022-08-16T02:00:00,2292A,117.0331,30.5119,安庆市,马山宾馆,,26,26,29,12,17,149,42,36,36,20,22,5,5,0.4,0.5
2022-08-16T02:00:00,2294A,116.9896,30.6145,安庆市,安庆大学,,22,22,29,14,17,142,54,60,57,15,14,12,10,0.4,0.4
2022-08-16T02:00:00,2295A,118.2903,29.6963,黄山市,延安路89号,,24,24,27,2,12,94,32,40,36,10,5,6,7,0.4,0.4
2022-08-16T02:00:00,2296A,118.327,29.7178,黄山市,黄山东路89号,,20,20,27,6,10,92,36,54,45,8,6,5,6,0.4,0.4
2022-08-16T02:00:00,2297A,118.1371,30.2756,黄山市,黄山区政府5号楼,,39,39,29,15,13,94,30,30,30,7,6,7,7,0.5,0.4
2022-08-16T02:00:00,2298A,118.3093,32.3153,滁州市,老年大学,,35,30,29,20,15,150,112,112,112,7,7,10,11,0.2,0.2
2022-08-16T02:00:00,2299A,118.3244,32.2786,滁州市,人大宾馆,,30,30,26,13,11,149,90,90,90,13,11,7,7,0.4,0.3
2022-08-16T02:00:00,2301A,115.8277,32.8929,阜阳市,市监测站,,33,7,23,3,10,128,105,103,103,5,9,9,9,0.4,0.4
2022-08-16T02:00:00,2303A,115.8554,32.8605,阜阳市,开发区,,32,4,35,5,9,127,101,100,100,7,11,6,6,0.4,0.5
2022-08-16T02:00:00,2306A,116.989,33.6306,宿州市,火车站,,,,,,,,,,,,,,,,
2022-08-16T02:00:00,2307A,116.5079,31.737,六安市,监测大楼,,34,34,24,13,10,108,86,83,83,6,6,7,7,0.3,0.3
2022-08-16T02:00:00,2308A,116.4738,31.7643,六安市,皖西学院,,,,24,,10,95,,94,,,5,,6,,0.2
2022-08-16T02:00:00,2309A,116.4996,31.7905,六安市,朝阳厂,,37,37,21,11,7,107,61,79,70,12,6,10,11,0.4,0.3
2022-08-16T02:00:00,2310A,116.5567,31.7886,六安市,开发区,,,,25,,14,93,,89,,,8,,8,,0.3
2022-08-16T02:00:00,2311A,115.8072,33.8399,亳州市,污水处理厂,,11,3,22,0,8,145,35,44,40,14,10,6,9,0.7,0.7
2022-08-16T02:00:00,2312A,115.7789,33.8518,亳州市,三国揽胜宫,,21,6,27,8,8,150,66,68,67,7,6,7,9,0.6,0.6
2022-08-16T02:00:00,2314A,117.47,30.6618,池州市,池州学院,,26,26,30,17,19,144,56,60,58,9,7,7,8,0.7,0.6
2022-08-16T02:00:00,2315A,117.4974,30.6539,池州市,平天湖(对照点),,,,,,,,,,,,,,,,
2022-08-16T02:00:00,2316A,118.7581,30.9454,宣城市,鳌峰子站,,26,26,30,13,16,115,52,54,53,10,14,5,6,0.3,0.3
2022-08-16T02:00:00,2317A,118.7385,30.9743,宣城市,敬亭山子站,,26,24,28,18,17,97,46,53,50,13,15,9,9,0.3,0.4
2022-08-16T02:00:00,2318A,118.7173,30.9427,宣城市,开发区子站,,29,29,27,14,15,114,39,64,52,23,15,5,6,0.3,0.3
2022-08-16T02:00:00,2319A,119.0141,25.4325,莆田市,荔城区仓后路,,22,22,29,7,11,113,36,44,40,18,13,5,4,0.7,0.7
2022-08-16T02:00:00,2320A,119.0015,25.4553,莆田市,莆田市监测站,,29,29,27,13,13,128,40,42,41,8,5,7,7,0.8,0.7
2022-08-16T02:00:00,2321A,119.1119,25.4561,莆田市,涵江区六中,,25,25,25,15,15,112,36,47,42,22,10,9,6,0.7,0.6
2022-08-16T02:00:00,2322A,119.1013,25.3215,莆田市,秀屿区政府,,29,22,25,20,13,107,35,41,38,13,5,7,7,0.7,0.7
2022-08-16T02:00:00,2323A,118.981,25.4792,莆田市,东圳水库(对照点),,,,,,,,,,,,,,,,
2022-08-16T02:00:00,2324A,117.6211,26.2625,三明市,三钢,,43,43,47,25,26,171,30,29,29,22,20,4,7,1.0,1.1
2022-08-16T02:00:00,2325A,117.635,26.2714,三明市,三明二中,,43,43,42,30,37,166,36,34,34,16,19,5,9,0.9,1.1
2022-08-16T02:00:00,2326A,117.6028,26.2378,三明市,三元区政府,颗粒物(PM10),51,52,45,22,28,148,26,32,29,21,17,8,8,0.5,0.6
2022-08-16T02:00:00,2327A,117.7275,26.3108,三明市,洋溪(对照点),,,,,,,,,,,,,,,,
2022-08-16T02:00:00,2331A,118.0966,26.6761,南平市,茫荡山(对照点),,,,,,,,,,,,,,,,
2022-08-16T02:00:00,2332A,118.1681,26.6369,南平市,南平市监测站,,25,23,29,15,18,124,77,78,78,8,9,6,6,0.5,0.6
2022-08-16T02:00:00,2333A,118.1825,26.6489,南平市,南平铝业有限公司,,28,28,36,14,18,121,61,63,62,12,10,8,7,0.7,0.7
2022-08-16T02:00:00,2334A,118.1756,26.6272,南平市,南平七中,,27,27,29,16,21,122,79,82,80,7,7,7,6,0.5,0.5
2022-08-16T02:00:00,2335A,117.0189,25.1181,龙岩市,龙岩师专(对照点),,,,,,,,,,,,,,,,
2022-08-16T02:00:00,2336A,117.0217,25.1033,龙岩市,龙岩市监测站,,35,35,28,20,14,87,19,17,17,26,19,19,7,0.7,0.5
2022-08-16T02:00:00,2337A,117.0258,25.0661,龙岩市,闽西职业技术学院,,38,38,34,20,15,76,31,34,32,18,13,9,8,0.5,0.5
2022-08-16T02:00:00,2338A,117.0196,25.0306,龙岩市,龙岩学院,,21,21,24,14,14,71,28,33,30,17,10,5,4,0.5,0.4
2022-08-16T02:00:00,2339A,119.5001,26.6946,宁德市,金涵水库(对照点),,,,,,,,,,,,,,,,
2022-08-16T02:00:00,2341A,119.5388,26.6612,宁德市,宁德市监测站,,12,6,23,8,11,89,37,48,42,5,8,7,8,0.4,0.5
2022-08-16T02:00:00,2342A,117.3102,29.3867,景德镇市,王港中学(对照点),,40,40,36,6,18,139,34,35,34,8,8,5,4,0.2,0.3
2022-08-16T02:00:00,2343A,117.2117,29.2933,景德镇市,老干部活动中心,颗粒物(PM10),51,52,44,26,21,116,24,37,30,22,14,8,10,0.4,0.5
2022-08-16T02:00:00,2344A,117.1894,29.2789,景德镇市,兽医站,,34,34,35,15,20,117,38,42,40,9,13,5,8,0.6,0.5
2022-08-16T02:00:00,2345A,117.1547,29.2617,景德镇市,台达陶瓷,,31,31,44,20,23,109,39,33,33,16,18,10,20,0.3,0.6
2022-08-16T02:00:00,2346A,117.2461,29.2956,景德镇市,陶研所,,30,30,31,12,19,119,30,37,34,10,9,8,8,0.4,0.5
2022-08-16T02:00:00,2347A,114.0997,27.5002,萍乡市,武功山(对照点),,12,2,5,1,5,82,37,37,37,6,6,19,19,0.2,0.3
2022-08-16T02:00:00,2348A,113.8385,27.6434,萍乡市,中医院,,23,15,22,16,15,96,38,38,38,25,15,12,10,0.5,0.5
2022-08-16T02:00:00,2349A,113.8493,27.6253,萍乡市,市政府车库,,22,22,18,12,12,95,37,42,40,22,13,13,8,0.4,0.4
2022-08-16T02:00:00,2350A,113.8676,27.6435,萍乡市,市环保局,,35,25,18,24,15,97,24,23,23,28,14,43,10,0.6,0.4
2022-08-16T02:00:00,2351A,113.866,27.6198,萍乡市,安源区政府,,13,12,12,9,12,92,32,37,34,13,9,17,17,0.2,0.2
2022-08-16T02:00:00,2352A,115.0861,27.9317,新余市,北岗(对照点),颗粒物(PM10),69,88,39,24,19,131,15,17,16,24,11,10,10,0.8,0.9
2022-08-16T02:00:00,2353A,114.9886,27.8431,新余市,飞宇,颗粒物(PM10),51,52,42,34,22,97,27,27,27,24,17,11,14,0.6,0.6
2022-08-16T02:00:00,2354A,114.9231,27.8246,新余市,第二水厂,,38,38,41,15,22,105,53,51,51,21,22,12,14,0.8,0.9
2022-08-16T02:00:00,2355A,114.9308,27.8036,新余市,市气象局,颗粒物(PM10),52,54,48,25,27,83,26,34,30,25,22,40,35,2.5,1.5
2022-08-16T02:00:00,2357A,116.9822,28.1136,鹰潭市,龙虎山(对照点),,25,19,23,17,11,106,28,29,28,6,4,8,8,0.2,0.2
2022-08-16T02:00:00,2358A,117.0564,28.2642,鹰潭市,新监测站,,32,18,27,22,15,105,27,27,27,5,3,4,3,0.2,0.3
2022-08-16T02:00:00,2359A,117.0311,28.2475,鹰潭市,财苑宾馆,颗粒物(PM10),56,62,40,19,10,99,27,26,26,5,6,2,2,0.4,0.3
2022-08-16T02:00:00,2360A,117.0222,28.2264,鹰潭市,体育馆,,20,15,28,14,11,110,30,37,34,3,3,1,2,0.5,0.6
2022-08-16T02:00:00,2361A,117.0017,28.2131,鹰潭市,三川水表,,36,36,35,17,10,104,32,32,32,2,2,3,2,0.5,0.6
2022-08-16T02:00:00,2362A,114.9017,25.9149,赣州市,通天岩(对照点),,32,32,31,15,17,136,39,43,41,17,12,10,8,0.4,0.4
2022-08-16T02:00:00,2363A,114.9367,25.8664,赣州市,地委,,28,19,27,19,16,143,49,52,50,10,11,17,16,0.8,0.8
2022-08-16T02:00:00,2364A,114.9461,25.8481,赣州市,气象台,,20,20,24,14,15,143,57,57,57,8,8,10,10,0.5,0.6
2022-08-16T02:00:00,2365A,114.9322,25.8333,赣州市,市图书馆,,25,17,24,17,15,159,54,64,59,12,13,12,10,0.9,0.9
2022-08-16T02:00:00,2366A,114.8905,25.8471,赣州市,华坚鞋城,,30,28,34,21,20,156,50,53,52,10,11,9,8,1.0,0.9
2022-08-16T02:00:00,2367A,114.9754,27.0803,吉安市,红声器材厂,,39,39,37,25,18,129,47,49,48,6,8,17,9,0.5,0.5
2022-08-16T02:00:00,2368A,114.9658,27.0999,吉安市,市森林工业局,,37,37,35,25,21,123,51,52,52,12,9,11,9,0.5,0.4
2022-08-16T02:00:00,2369A,114.99,27.1312,吉安市,市环境监测站,,43,43,36,28,22,129,54,56,55,9,8,17,10,0.7,0.5
2022-08-16T02:00:00,2370A,115.0093,27.0968,吉安市,青原区法院,,39,39,33,17,17,129,56,57,56,6,6,23,15,0.5,0.4
2022-08-16T02:00:00,2371A,114.3408,27.8064,宜春市,槟榔水业(对照点),,,,,,,,,,,,,,,,
2022-08-16T02:00:00,2373A,114.3956,27.7844,宜春市,市石油公司,,49,49,36,22,17,119,26,34,30,17,14,6,7,1.0,1
2022-08-16T02:00:00,2374A,114.3703,27.7914,宜春市,市气象局,,44,44,39,19,16,118,46,51,48,14,15,5,8,0.8,0.9
2022-08-16T02:00:00,2375A,114.4013,27.8074,宜春市,市广电局,,34,34,34,21,18,121,52,52,52,10,12,4,6,0.8,0.8
2022-08-16T02:00:00,2376A,116.2127,28.0814,抚州市,桐源党溪(对照点),,16,16,19,11,10,103,29,36,32,12,6,1,2,0.8,0.8
2022-08-16T02:00:00,2377A,116.3544,27.9831,抚州市,市站,,28,28,27,17,13,82,30,35,32,10,8,8,6,0.6,0.5
2022-08-16T02:00:00,2378A,116.3565,27.963,抚州市,血防站,,36,36,26,22,15,88,30,32,31,4,5,3,2,0.7,0.5
2022-08-16T02:00:00,2379A,116.3564,28.0007,抚州市,采茶剧团,,25,25,25,17,13,94,40,44,42,6,6,5,4,0.6,0.5
2022-08-16T02:00:00,2380A,116.385,27.9647,抚州市,医学分院,,28,28,27,14,13,95,39,43,41,7,7,4,4,0.5,0.5
2022-08-16T02:00:00,2381A,118.005,28.4572,上饶市,百草园(对照点),,,,,,,,,,,,,,,,
2022-08-16T02:00:00,2382A,117.9756,28.4436,上饶市,市监测站,,39,39,42,19,22,134,16,22,19,21,12,9,8,0.6,0.6
2022-08-16T02:00:00,2383A,117.9519,28.4628,上饶市,凤凰光学,,38,38,42,22,25,109,29,34,32,13,12,14,10,0.6,0.6
2022-08-16T02:00:00,2385A,114.17,35.9019,鹤壁市,市监测站,颗粒物(PM10),60,70,70,32,41,195,78,70,70,22,27,12,14,1.0,1.9
2022-08-16T02:00:00,2386A,114.2956,35.7511,鹤壁市,市交警支队,,49,49,74,27,40,180,75,72,72,18,27,14,17,1.2,1.8
2022-08-16T02:00:00,2387A,114.2878,35.7306,鹤壁市,迎宾馆,颗粒物(PM10),51,52,75,24,35,181,74,72,72,14,23,12,17,1.1,1.8
2022-08-16T02:00:00,2389A,113.836,35.311,新乡市,环保西院,,37,37,54,19,30,159,30,45,38,33,21,11,6,0.8,0.9
2022-08-16T02:00:00,2390A,113.884,35.272,新乡市,开发区,,25,24,53,17,33,155,38,52,45,26,16,8,7,0.7,0.9
2022-08-16T02:00:00,2391A,113.883,35.303,新乡市,环保东院,,41,41,62,19,29,165,52,70,61,23,17,11,9,0.7,0.8
2022-08-16T02:00:00,2392A,115.0312,35.7636,濮阳市,环保局,,38,38,51,21,31,116,94,94,94,15,15,6,6,0.9,0.9
