timepoint,stationcode,longitude,latitude,area,positionname,primarypollutant,aqi,pm10,pm10_24h,pm2_5,pm2_5_24h,o3,o3_24h,o3_8h,o3_8h_24h,no2,no2_24h,so2,so2_24h,co,co_24h
2024-06-15T2000,2566A,102.1879,31.914,阿坝藏族羌族自治州,州农科所,,27,27,28,11,9,18,,27,27,23,13,4,3,0,0
2024-06-15T2000,2568A,102.2502,31.8896,阿坝藏族羌族自治州,马师校,,23,,12,16,14,26,,53,53,13,15,5,5,0.4,0.4
2024-06-15T2000,3994A,102.2165,31.9024,阿坝藏族羌族自治州,马尔康中学西区,,24,24,20,13,13,43,,61,61,7,6,5,6,0.4,0.3
2024-06-15T2000,2695A,80.292,41.1694,阿克苏地区,电视台,,49,46,42,10,16,154,,153,153,8,15,3,4,0.4,0.5
2024-06-15T2000,2696A,80.2613,41.1551,阿克苏地区,艺术中心,,49,39,40,20,16,155,,146,146,9,19,4,4,0.3,0.4
2024-06-15T2000,2204A,105.6467,38.8363,阿拉善盟,西城区西花园,颗粒物(PM10),51,52,53,23,17,158,,154,154,11,10,11,12,0.8,0.8
2024-06-15T2000,2205A,105.6985,38.8411,阿拉善盟,蒙二幼,颗粒物(PM10),53,56,59,15,18,154,,149,149,10,9,14,14,0.5,0.6
2024-06-15T2000,2206A,105.724,38.8516,阿拉善盟,环保局新楼,臭氧1小时,54,45,54,16,20,163,,154,154,8,7,13,13,0.6,0.6
2024-06-15T2000,2708A,88.1264,47.8517,阿勒泰地区,市站,,37,15,26,6,7,118,,108,108,8,13,6,6,0.4,0.4
2024-06-15T2000,2630A,80.1161,32.5,阿里地区,阿里监测站,,,,22,,16,165,,173,171,4,9,7,6,,0.5
2024-06-15T2000,3192A,80.0903,32.5028,阿里地区,阿里藏医院,臭氧1小时,65,16,24,9,12,172,,174,174,4,4,7,7,0.4,0.5
2024-06-15T2000,2642A,109.0318,32.6537,安康市,香溪洞,,39,28,31,17,16,123,,136,134,5,7,6,8,0.5,0.5
2024-06-15T2000,2643A,109.0281,32.6939,安康市,安康市监测站,,37,25,31,12,16,117,,137,134,5,8,6,8,0.4,0.5
2024-06-15T2000,2644A,109.0072,32.6975,安康市,汉滨区检察院,,38,24,28,13,15,119,,140,138,7,9,8,8,0.4,0.4
2024-06-15T2000,2291A,117.0809,30.5177,安庆市,环科院,臭氧1小时,77,46,39,30,19,181,,178,178,16,13,5,5,0.6,0.6
2024-06-15T2000,2292A,117.0331,30.5119,安庆市,马山宾馆,臭氧1小时,77,43,26,30,18,181,,179,179,21,22,9,8,0.8,0.7
2024-06-15T2000,2294A,116.9896,30.6145,安庆市,安庆大学,,42,40,30,25,20,134,,168,167,18,13,7,9,0.6,0.5
2024-06-15T2000,3173A,117.0598,30.5351,安庆市,市人大,臭氧1小时,64,46,27,34,21,171,,178,178,22,12,6,7,0.6,0.5
2024-06-15T2000,3122A,105.9606,26.2611,安顺市,伍家关,,,,,,,,,,,,,,,,
2024-06-15T2000,3123A,105.9408,26.2431,安顺市,凤凰山,,42,35,29,29,22,107,,123,121,11,18,5,7,0.9,0.8
2024-06-15T2000,3124A,105.9439,26.2564,安顺市,金钟山,,49,36,25,34,20,113,,120,120,9,9,5,6,0.7,0.6
2024-06-15T2000,3125A,105.8983,26.2481,安顺市,娄家坡,颗粒物(PM10),51,51,32,32,22,114,,120,119,9,10,4,6,0.9,0.8
2024-06-15T2000,1818A,114.4839,36.0621,安阳市,棉研所,,,,,,,,,,,,,,,,
2024-06-15T2000,1819A,114.3551,36.1017,安阳市,红庙街,臭氧1小时,89,49,56,21,24,191,,209,206,10,10,4,9,0.4,0.7
2024-06-15T2000,1820A,114.361,36.0681,安阳市,银杏小区,臭氧1小时,80,53,53,27,27,184,,202,200,26,18,8,11,0.7,1.1
2024-06-15T2000,3141A,114.3922,36.0878,安阳市,信访局,臭氧1小时,79,56,55,15,22,183,,204,201,16,7,6,9,0.6,1
2024-06-15T2000,3669A,114.4705,36.0637,安阳市,左辅环卫站,臭氧1小时,77,68,45,32,27,181,,202,201,19,12,4,5,0.4,0.7
2024-06-15T2000,3703A,114.2917,36.0949,安阳市,安钢职工学校,臭氧1小时,80,42,63,25,31,184,,188,187,10,16,5,5,0.5,1
2024-06-15T2000,1748A,123.044,41.1196,鞍山市,深沟寺,,35,8,30,3,17,109,,111,111,11,12,8,9,0.4,0.6
2024-06-15T2000,1749A,123.011,41.0931,鞍山市,太阳城,,34,16,36,9,22,107,,113,113,13,13,7,8,0.6,1
2024-06-15T2000,1750A,123.0485,41.1442,鞍山市,太平,,34,14,34,7,18,106,,112,112,19,13,6,7,0.7,1
2024-06-15T2000,1751A,122.9642,41.0971,鞍山市,铁西三道街,,32,21,36,10,22,102,,112,112,22,19,10,11,0.8,1.1
2024-06-15T2000,1752A,122.9341,41.0833,鞍山市,铁西工业园区,,31,17,32,8,19,98,,112,111,19,14,5,8,0.4,0.9
2024-06-15T2000,1753A,123.022,41.0821,鞍山市,明达新区,,31,17,30,6,16,99,,104,104,13,13,7,8,0.4,0.8
2024-06-15T2000,1754A,123.1289,41.0228,鞍山市,千山,,,,,,,,,,,,,,,,
2024-06-15T2000,2195A,107.4212,40.761,巴彦淖尔市,附二中,,45,26,38,15,20,141,,137,137,8,13,6,10,0.4,0.4
2024-06-15T2000,2196A,107.37,40.7372,巴彦淖尔市,市环保大楼,,42,33,36,15,10,134,,130,130,9,10,2,3,0.4,0.4
2024-06-15T2000,1956A,86.1472,41.7538,巴音郭楞蒙古自治州,孔雀公园,,,56,62,15,18,108,,118,110,,10,3,2,0.3,0.2
2024-06-15T2000,1957A,86.1972,41.7166,巴音郭楞蒙古自治州,棉纺厂,颗粒物(PM10),54,57,55,17,20,117,,115,115,8,11,4,4,0.2,0.2
2024-06-15T2000,1958A,86.2357,41.7173,巴音郭楞蒙古自治州,经济开发区,颗粒物(PM10),51,52,53,13,19,126,,124,124,4,6,2,2,0.2,0.2
2024-06-15T2000,2914A,106.7677,31.8794,巴中市,苏山坪,,43,43,38,27,26,118,,130,128,12,11,5,5,0.6,0.7
2024-06-15T2000,3182A,106.7656,31.8545,巴中市,丽阳花园,细颗粒物(PM2.5),54,56,41,38,29,64,,142,128,42,24,6,6,0.8,0.6
2024-06-15T2000,3183A,106.7418,31.8654,巴中市,圣泉水务公司,,43,43,36,27,25,70,,140,128,37,23,5,5,0.7,0.6
2024-06-15T2000,3616A,106.7616,31.8344,巴中市,市中心医院,颗粒物(PM10),56,62,43,36,28,62,,135,122,36,24,6,6,0.7,0.6
2024-06-15T2000,2235A,122.7911,45.6077,白城市,洮北区环保局,,24,22,12,12,5,76,,80,80,12,8,1,1,0.1,0.1
2024-06-15T2000,2236A,122.8738,45.5725,白城市,市环保局,,25,14,8,9,5,78,,80,80,9,6,4,4,0.2,0.1
2024-06-15T2000,2231A,126.4219,41.9171,白山市,喜丰,,28,28,20,3,6,61,,94,92,13,7,7,8,0.7,0.8
2024-06-15T2000,2232A,126.4077,41.9419,白山市,环保局,,38,38,22,3,7,53,,91,89,14,9,8,9,0.7,0.7
2024-06-15T2000,2647A,104.1724,36.5446,白银市,第三小学,,44,21,72,10,27,138,,133,133,12,29,7,105,0.3,0.7
2024-06-15T2000,2648A,104.1465,36.5482,白银市,动力公司,,43,34,51,9,20,137,,136,135,8,16,8,43,0.2,0.4
2024-06-15T2000,2512A,106.6103,23.9011,百色市,市监测站,,28,28,39,15,16,73,,90,90,7,15,6,10,0.7,0.8
2024-06-15T2000,2513A,106.6538,23.8859,百色市,市中心血站,,44,44,45,21,21,91,,101,101,8,16,6,8,0.7,0.8
2024-06-15T2000,3406A,106.6085,23.8798,百色市,祈福高中,颗粒物(PM10),53,56,41,26,19,86,,97,97,8,13,9,9,0.8,0.8
2024-06-15T2000,2270A,117.396,32.939,蚌埠市,工人疗养院,臭氧1小时,107,56,60,19,24,214,,206,206,20,14,9,9,0.5,0.5
2024-06-15T2000,2271A,117.3605,32.9427,蚌埠市,百货大楼,臭氧1小时,108,46,60,21,28,215,,208,208,19,11,10,7,0.5,0.6
2024-06-15T2000,2273A,117.4185,32.8911,蚌埠市,蚌埠学院,臭氧1小时,105,44,55,22,28,210,,207,207,16,11,6,7,0.5,0.6
2024-06-15T2000,2274A,117.3533,32.9673,蚌埠市,淮上区政府,臭氧1小时,109,53,59,24,30,218,,206,206,12,11,6,6,0.4,0.5
2024-06-15T2000,2275A,117.3145,32.8977,蚌埠市,高新区,臭氧1小时,107,41,52,18,26,214,,203,203,10,6,6,7,0.5,0.6
2024-06-15T2000,3715A,117.3092,32.9314,蚌埠市,蚌埠田家炳中学,臭氧1小时,112,41,54,21,25,224,,216,216,10,6,6,7,0.4,0.5
2024-06-15T2000,1585A,109.8756,40.6532,包头市,市环境监测站,,39,17,20,7,11,122,,127,127,12,19,9,15,0.4,0.5
2024-06-15T2000,1587A,109.9991,40.5842,包头市,包头八中,,43,17,26,13,10,136,,133,133,12,25,8,14,0.3,0.4
2024-06-15T2000,1588A,109.8538,40.6821,包头市,青山宾馆,,36,11,20,8,8,114,,123,122,18,18,8,11,0.3,0.4
2024-06-15T2000,1589A,109.8642,40.6288,包头市,惠龙物流,,40,6,18,3,8,126,,129,129,11,18,10,14,0.4,0.5
2024-06-15T2000,1590A,110.0377,40.5546,包头市,东河鸿龙湾,,45,18,24,11,7,143,,132,132,16,18,11,12,0.5,0.5
2024-06-15T2000,3283A,109.9154,40.5685,包头市,滨河大厦,,40,9,18,7,8,128,,130,130,10,24,9,12,0.5,0.5
2024-06-15T2000,3419A,109.9447,40.6261,包头市,包头市委党校,,40,19,21,3,7,126,,127,127,12,24,10,16,0.3,0.4
2024-06-15T2000,3683A,109.8331,40.6576,包头市,昆区政府,,39,10,19,3,8,123,,126,126,12,17,7,10,0.5,0.6
2024-06-15T2000,1930A,107.185,34.3063,宝鸡市,庙沟村,,50,50,54,23,23,109,,155,153,6,8,9,10,0.4,0.3
2024-06-15T2000,1931A,107.0708,34.3017,宝鸡市,竹园沟,颗粒物(PM10),56,61,55,37,27,93,,160,146,21,16,8,8,0.5,0.4
2024-06-15T2000,1932A,107.1906,34.3672,宝鸡市,三陆医院,"颗粒物(PM10),细颗粒物(PM2.5)",58,66,70,41,28,133,,175,172,41,31,8,11,0.7,0.5
2024-06-15T2000,1933A,107.1431,34.3547,宝鸡市,监测站,细颗粒物(PM2.5),58,64,56,41,28,110,,182,176,34,22,8,9,0.5,0.4
2024-06-15T2000,1934A,107.1186,34.3739,宝鸡市,技工学校,颗粒物(PM10),59,67,59,36,28,117,,192,186,25,16,8,9,0.7,0.5
2024-06-15T2000,1935A,107.3906,34.3528,宝鸡市,陈仓区环保局家属楼,颗粒物(PM10),58,66,66,32,28,160,,192,192,34,30,8,24,0.5,0.8
2024-06-15T2000,1936A,107.2058,34.3497,宝鸡市,文理学院,颗粒物(PM10),60,70,59,22,26,113,,185,179,38,19,8,9,0.6,0.4
2024-06-15T2000,1937A,107.2386,34.3622,宝鸡市,三迪小学,颗粒物(PM10),52,54,67,21,25,149,,184,183,32,27,8,10,0.6,0.5
2024-06-15T2000,1051A,115.493,38.8632,保定市,游泳馆,颗粒物(PM10),55,60,64,19,32,129,,144,144,6,10,2,4,0.1,0.2
2024-06-15T2000,1052A,115.5213,38.8959,保定市,华电二区,,44,44,43,22,18,133,,147,147,11,13,2,2,0.0,0.1
2024-06-15T2000,1053A,115.4713,38.9108,保定市,接待中心,,43,37,42,23,32,135,,144,144,6,13,2,3,0.2,0.2
2024-06-15T2000,1054A,115.4612,38.8416,保定市,地表水厂,颗粒物(PM10),55,60,54,17,25,131,,145,145,8,19,3,2,0.2,0.3
2024-06-15T2000,3581A,115.31981,38.95208,保定市,满城区生态环境分局,颗粒物(PM10),60,70,55,14,17,146,,154,154,9,9,2,2,0.2,0.2
2024-06-15T2000,3582A,115.47694,38.76408,保定市,清苑区第二中学,颗粒物(PM10),96,142,56,14,17,124,,148,147,15,15,3,4,0.2,0.3
2024-06-15T2000,3583A,115.62909,39.02311,保定市,徐水物探局,颗粒物(PM10),66,82,68,3,15,132,,152,152,14,18,3,2,0.4,0.3
2024-06-15T2000,4004A,115.4202,38.8656,保定市,双鹰农机,,45,44,54,17,25,143,,156,156,4,15,2,2,0.0,0
2024-06-15T2000,4034A,115.5150,38.8590,保定市,植保所站,颗粒物(PM10),65,80,58,38,30,120,,145,145,18,13,2,3,0.3,0.5
2024-06-15T2000,2594A,99.1678,25.1081,保山市,市环境监测站,,26,16,14,3,4,82,,76,76,4,8,5,5,0.5,0.5
2024-06-15T2000,2595A,99.1711,25.1328,保山市,市环保局,,27,19,18,9,8,85,,80,80,3,5,5,5,0.3,0.3
2024-06-15T2000,1866A,109.2262,21.588,北海市,牛尾岭水库,,,,,,,,,,,,,,,,
2024-06-15T2000,1867A,109.1436,21.4086,北海市,海滩公园,,39,39,41,7,7,36,,79,50,16,7,3,3,0.6,0.6
2024-06-15T2000,1868A,109.0981,21.4661,北海市,新市环保局,,42,42,26,27,10,38,,78,47,20,7,5,5,0.9,0.7
2024-06-15T2000,1869A,109.1778,21.5233,北海市,北海工业园,,30,30,26,15,12,26,,73,40,18,8,5,5,0.7,0.7
2024-06-15T2000,3400A,109.1911,21.4415,北海市,龙潭自来水厂,,32,32,24,22,15,20,,72,35,15,6,5,5,0.6,0.8
2024-06-15T2000,1001A,116.3621,39.8784,北京市,万寿西宫,,44,12,29,7,16,138,,129,129,17,17,3,2,0.2,0.4
2024-06-15T2000,1002A,116.2202,40.2915,北京市,定陵,,21,15,10,6,4,67,,94,92,13,11,3,3,0.2,0.1
2024-06-15T2000,1003A,116.4174,39.9289,北京市,东四,,41,8,32,3,18,130,,126,126,17,24,3,4,0.3,0.4
2024-06-15T2000,1004A,116.4072,39.8863,北京市,天坛,,39,7,27,3,17,122,,126,126,16,21,3,2,0.2,0.4
2024-06-15T2000,1005A,116.462,39.9365,北京市,农展馆,,42,9,37,3,22,134,,136,136,20,27,5,5,0.4,0.6
2024-06-15T2000,1006A,116.3392,39.9295,北京市,官园,,47,11,25,3,12,148,,131,131,16,21,3,3,0.0,0.2
2024-06-15T2000,1007A,116.2878,39.9611,北京市,海淀万柳,,44,21,21,3,7,139,,121,121,14,25,4,4,0.2,0.2
2024-06-15T2000,1008A,116.6636,40.135,北京市,顺义新城,,30,10,32,3,16,95,,109,108,19,15,1,2,0.2,0.4
2024-06-15T2000,1009A,116.6275,40.3275,北京市,怀柔镇,,34,17,15,10,8,108,,110,110,16,9,3,3,0.3,0.3
2024-06-15T2000,1010A,116.2296,40.217,北京市,昌平镇,,31,20,14,8,6,99,,97,97,13,11,1,1,0.2,0.2
2024-06-15T2000,1011A,116.3966,39.9821,北京市,奥体中心,,39,10,31,3,18,122,,107,107,15,29,3,2,0.1,0.3
2024-06-15T2000,1012A,116.184,39.9136,北京市,古城,,40,37,21,7,5,128,,121,121,22,15,1,1,0.2,0.1
2024-06-15T2000,3281A,115.9718,40.4529,北京市,延庆夏都,,31,22,21,7,7,99,,107,107,8,15,1,2,0.2,0.2
2024-06-15T2000,3417A,117.0709,40.1465,北京市,平谷新城,,29,15,13,8,7,91,,94,94,17,5,1,3,0.2,0.2
2024-06-15T2000,3418A,116.8336,40.4095,北京市,密云新城,,33,31,17,11,7,104,,112,112,13,13,3,3,0.2,0.2
2024-06-15T2000,3671A,116.088,39.9726,北京市,门头沟三家店,,,,,,,,,,,,,,,,
2024-06-15T2000,3672A,116.1541,39.8204,北京市,丰台云岗,,31,26,18,10,7,99,,113,113,26,12,3,3,0.2,0.2
2024-06-15T2000,3673A,116.6804,39.9081,北京市,通州东关,,35,17,50,7,25,110,,108,108,14,17,3,3,0.2,0.5
2024-06-15T2000,3674A,115.9577,39.7603,北京市,房山燕山,,36,36,20,9,6,112,,109,109,12,6,2,1,0.2,0.2
2024-06-15T2000,3675A,116.4672,39.7733,北京市,大兴旧宫,,31,11,37,3,18,98,,109,109,15,23,3,2,0.2,0.4
2024-06-15T2000,3694A,115.986,40.4563,北京市,延庆石河营,,30,15,18,3,6,94,,99,99,12,21,3,3,0.2,0.2
2024-06-15T2000,3695A,116.6151,40.3053,北京市,怀柔新城,,29,15,14,8,7,92,,101,101,18,8,3,2,0.2,0.3
2024-06-15T2000,3696A,116.2545,39.8768,北京市,丰台小屯,,38,16,21,3,7,119,,113,113,14,17,1,2,0.2,0.3
2024-06-15T2000,3697A,116.84,40.3844,北京市,密云镇,,34,18,19,10,9,108,,108,108,13,20,3,3,0.2,0.2
2024-06-15T2000,1761A,123.8275,41.3064,本溪市,大峪,,27,6,29,3,12,85,,107,106,10,13,10,10,0.4,0.8
2024-06-15T2000,1762A,123.7567,41.3325,本溪市,溪湖,,26,18,39,6,23,81,,117,111,15,21,9,10,0.5,1.9
2024-06-15T2000,1763A,123.7169,41.3094,本溪市,彩屯,,22,22,30,7,20,45,,99,94,36,23,7,9,0.4,1.1
2024-06-15T2000,1764A,123.7669,41.2864,本溪市,东明,,31,20,35,7,16,98,,111,111,22,23,8,8,0.4,0.9
2024-06-15T2000,1765A,123.7992,41.2664,本溪市,新立屯,,20,19,22,9,11,61,,113,108,33,17,12,12,0.6,0.8
2024-06-15T2000,1766A,123.8142,41.3472,本溪市,威宁,,30,30,27,15,16,70,,108,105,26,18,7,7,0.4,0.5
2024-06-15T2000,2587A,105.2864,27.3125,毕节市,八中,细颗粒物(PM2.5),54,48,32,38,24,115,,136,135,18,14,13,8,0.5,0.5
2024-06-15T2000,2588A,105.31,27.2944,毕节市,师专,,48,48,37,32,25,111,,130,129,14,18,10,8,0.7,0.7
2024-06-15T2000,3537A,105.3631,27.3533,毕节市,长征村,,49,47,39,34,27,126,,138,138,9,11,8,7,0.5,0.5
2024-06-15T2000,1629A,118.0018,37.3617,滨州市,第二水厂,,44,34,53,19,33,138,,164,159,10,15,4,4,0.6,0.8
2024-06-15T2000,1630A,117.9776,37.393,滨州市,北中新校,,41,39,54,17,28,130,,166,159,12,13,3,4,0.5,0.6
2024-06-15T2000,3514A,117.9378,37.3956,滨州市,中海酒店,,44,44,51,27,32,139,,169,164,13,16,6,4,0.1,0.3
2024-06-15T2000,3515A,117.9378,37.3553,滨州市,开发区一中,颗粒物(PM10),51,51,62,24,30,137,,170,164,10,15,8,9,0.9,0.9
2024-06-15T2000,3516A,118.0917,37.694,滨州市,金海六路,,43,34,43,12,24,137,,146,145,6,7,10,6,0.5,0.6
2024-06-15T2000,4028A,117.9956,37.3753,滨州市,滨州市西街道办事处,,42,34,48,22,36,133,,166,159,11,14,3,4,0.5,0.6
2024-06-15T2000,2311A,115.8072,33.8399,亳州市,污水处理厂,臭氧1小时,89,58,74,28,29,191,,222,221,11,10,5,5,0.5,0.5
2024-06-15T2000,2312A,115.7789,33.8518,亳州市,三国揽胜宫,臭氧1小时,95,60,69,27,28,196,,217,217,10,11,5,5,0.5,0.5
2024-06-15T2000,3332A,115.7633,33.8034,亳州市,亳州学院,臭氧1小时,101,56,75,21,27,202,,220,220,9,9,5,5,0.5,0.5
2024-06-15T2000,2693A,82.0485,44.8556,博尔塔拉蒙古自治州,市党校,,39,,20,14,10,124,,125,125,9,11,10,10,0.3,0.3
2024-06-15T2000,2694A,82.0806,44.8969,博尔塔拉蒙古自治州,市环保局,,40,25,25,11,14,125,,126,126,11,20,8,9,0.3,0.3
2024-06-15T2000,1071A,116.8842,38.2991,沧州市,沧县城建局,,45,45,57,14,30,136,,176,173,17,18,4,3,0.4,0.5
2024-06-15T2000,1072A,116.8584,38.3254,沧州市,电视转播站,,46,46,51,22,34,141,,168,167,17,13,6,3,0.4,0.5
2024-06-15T2000,1073A,116.8709,38.3228,沧州市,市环保局,,48,48,64,27,38,134,,177,173,21,18,8,7,0.5,0.5
2024-06-15T2000,3324A,116.8136,38.3004,沧州市,河北水利电力学院,,46,41,48,30,40,145,,178,177,19,13,7,6,0.4,0.4
2024-06-15T2000,2622A,97.1806,31.1273,昌都市,昌都监测站,,,,10,,6,102,,101,101,,7,9,9,0.4,0.4
2024-06-15T2000,3719A,97.1714,31.1406,昌都市,昌都会议中心,,33,9,9,6,6,103,,104,103,7,6,5,5,0.3,0.3
2024-06-15T2000,2690A,88.1236,43.8886,昌吉回族自治州,天山天池,,37,16,14,16,6,116,,125,125,6,7,8,8,0.6,0.6
2024-06-15T2000,2692A,87.2717,44.0297,昌吉回族自治州,新区政务中心,,36,29,27,3,8,113,,121,120,8,10,10,9,0.3,0.3
2024-06-15T2000,3613A,87.3095,44.0142,昌吉回族自治州,亚心广场,,38,36,27,3,6,119,,123,123,16,16,9,8,0.2,0.2
2024-06-15T2000,1119A,125.3325,43.9166,长春市,食品厂,,36,36,20,13,10,63,,78,78,23,18,6,6,0.3,0.3
2024-06-15T2000,1120A,125.2863,43.9027,长春市,客车厂,,22,22,16,10,8,47,,79,76,37,16,4,3,0.3,0.2
2024-06-15T2000,1121A,125.2841,43.8463,长春市,邮电学院,,22,22,12,11,8,70,,81,81,17,13,7,6,0.2,0.3
2024-06-15T2000,1122A,125.3716,43.8772,长春市,劳动公园,,28,28,13,7,4,76,,88,88,16,12,4,4,0.3,0.3
2024-06-15T2000,1123A,125.3297,43.8805,长春市,园林处,,22,17,12,12,9,69,,81,80,16,11,7,6,0.3,0.3
2024-06-15T2000,1124A,125.4605,43.79,长春市,净月潭,,21,18,12,3,3,66,,83,82,10,8,4,4,0.2,0.2
2024-06-15T2000,1125A,125.7194,43.515,长春市,甩湾子,,,,,,,,,,,,,,,,
2024-06-15T2000,1126A,125.3863,43.8447,长春市,经开区环卫处,,25,17,15,6,5,78,,88,88,14,13,4,4,0.3,0.3
2024-06-15T2000,1127A,125.245,43.7783,长春市,高新区管委会,,22,21,13,10,6,70,,88,86,17,11,7,7,0.3,0.4
2024-06-15T2000,1128A,125.1761,43.8325,长春市,岱山公园,,22,18,13,3,3,68,,84,83,18,14,4,4,0.2,0.3
2024-06-15T2000,1335A,113.0833,28.2325,长沙市,经开区环保局,,29,29,25,16,13,85,,94,94,9,11,3,4,0.5,0.5
2024-06-15T2000,1336A,112.8872,28.2189,长沙市,高开区环保局,,32,29,26,13,12,100,,126,124,10,11,4,4,0.6,0.6
2024-06-15T2000,1337A,113.0792,28.2053,长沙市,马坡岭,,26,23,24,3,12,82,,100,96,6,6,7,7,0.6,0.6
2024-06-15T2000,1338A,112.9394,28.19,长沙市,湖南师范大学,,33,26,30,23,18,90,,118,110,9,12,5,4,0.8,0.6
2024-06-15T2000,1339A,113.0178,28.1322,长沙市,雨花区环保局,,34,34,25,12,11,74,,104,98,10,7,2,3,0.9,0.6
2024-06-15T2000,1340A,112.9792,28.2597,长沙市,伍家岭,,35,32,30,24,17,82,,109,105,13,11,5,5,0.5,0.3
2024-06-15T2000,1341A,113.0014,28.1944,长沙市,火车新站,,37,37,28,17,13,83,,106,101,15,13,3,2,0.7,0.5
2024-06-15T2000,1342A,112.9844,28.1178,长沙市,天心区环保局,,25,23,26,17,15,66,,102,96,13,9,2,2,0.8,0.5
2024-06-15T2000,1343A,112.8908,28.1308,长沙市,湖南中医药大学,,31,31,28,11,13,82,,119,112,10,9,7,7,1.0,0.9
2024-06-15T2000,1344A,112.9581,28.3611,长沙市,沙坪,,32,23,18,22,12,93,,106,106,12,6,7,7,0.4,0.4
2024-06-15T2000,1727A,113.1147,36.1547,长治市,清华站,,40,31,53,17,33,127,,184,172,21,18,10,11,0.5,0.6
2024-06-15T2000,1728A,113.1031,36.1989,长治市,监测站,,41,34,55,14,29,130,,190,175,21,23,5,6,1.0,1
2024-06-15T2000,1730A,113.0886,36.2125,长治市,审计局,,,35,48,,31,137,,198,184,23,22,3,5,,0.6
2024-06-15T2000,1731A,113.0844,36.1856,长治市,长治八中,,39,37,58,15,27,123,,198,174,25,23,3,6,0.6,0.7
2024-06-15T2000,2845A,113.1569,36.1911,长治市,德盛苑,,45,25,42,14,26,144,,188,178,12,13,7,9,0.7,0.8
2024-06-15T2000,3568A,113.06,36.0464,长治市,向阳小学,,,,88,40,52,135,,195,179,13,23,2,3,0.8,1.1
2024-06-15T2000,3569A,112.8792,36.3144,长治市,屯留一中,,45,43,48,28,38,142,,199,185,13,18,8,14,0.6,0.9
2024-06-15T2000,3570A,113.235,36.3489,长治市,潞城四中,臭氧1小时,73,38,64,22,33,178,,193,192,10,16,6,6,0.3,0.5
2024-06-15T2000,1854A,111.6975,28.9703,常德市,市二中,,42,37,33,20,24,134,,134,134,5,11,8,8,0.5,0.5
2024-06-15T2000,1857A,111.7158,29.1456,常德市,白鹤山,,,,,,,,,,,,,,,,
2024-06-15T2000,3138A,111.7153,29.0289,常德市,武陵区永安,,44,38,33,27,21,139,,131,131,3,6,6,6,0.4,0.3
2024-06-15T2000,3139A,111.6892,28.9881,常德市,鼎城区玉霞,,46,38,35,23,23,147,,138,138,2,16,5,6,0.4,0.5
2024-06-15T2000,3140A,111.6625,29.0531,常德市,武陵区长庚,,46,46,32,28,22,142,,140,140,4,8,8,8,0.6,0.6
2024-06-15T2000,1196A,119.9633,31.762,常州市,市监测站,,,,43,33,32,163,,224,220,21,23,,9,0.6,0.7
2024-06-15T2000,1200A,119.9468,31.7069,常州市,武进监测站,,,33,42,,26,185,,238,236,13,11,12,10,0.7,0.8
2024-06-15T2000,1201A,119.9255,31.9087,常州市,安家,,43,22,49,21,34,135,,194,188,27,23,8,10,0.5,0.7
2024-06-15T2000,3002A,119.9805,31.8174,常州市,行政中心,,44,29,48,23,28,140,,202,197,26,25,10,11,0.4,0.6
2024-06-15T2000,3003A,120.0522,31.7748,常州市,经开区,颗粒物(PM10),60,69,48,16,30,150,,217,212,32,28,8,8,0.7,0.7
2024-06-15T2000,3010A,119.9025,31.7964,常州市,钟楼,,50,20,37,18,28,159,,216,212,20,17,6,6,0.7,0.8
2024-06-15T2000,3429A,119.8598,31.7066,常州市,武进经发区,臭氧1小时,84,39,46,24,27,187,,235,233,23,16,11,9,0.4,0.3
2024-06-15T2000,3430A,119.5826,31.7245,常州市,金坛城区,臭氧1小时,59,36,40,16,19,167,,232,229,18,8,8,7,0.8,0.9
2024-06-15T2000,2220A,120.4318,41.5881,朝阳市,西梁,,28,18,18,7,10,87,,96,96,16,15,7,8,0.4,0.5
2024-06-15T2000,2221A,120.4521,41.5646,朝阳市,河畔小区,,30,23,14,3,5,96,,105,105,8,9,7,8,0.4,0.5
2024-06-15T2000,2222A,120.4176,41.5648,朝阳市,八里堡,,33,33,20,3,9,82,,101,100,22,16,7,8,0.6,0.6
2024-06-15T2000,2223A,120.3806,41.5969,朝阳市,农业园区,,28,28,16,10,5,62,,98,95,32,16,8,8,0.5,0.5
2024-06-15T2000,1705A,116.6367,23.6719,潮州市,西园路,,15,,24,10,12,28,,46,43,16,13,1,2,0.6,0.5
2024-06-15T2000,3026A,116.6183,23.6608,潮州市,市政府,,21,21,29,12,13,31,,56,52,17,12,11,6,0.9,0.9
2024-06-15T2000,4036A,116.6461,23.6761,潮州市,金山,,16,16,26,7,11,32,,51,49,14,13,6,6,0.8,0.7
2024-06-15T2000,2472A,113.0073,25.9061,郴州市,马头岭,,23,,13,16,7,40,,52,50,6,5,8,9,0.6,0.6
2024-06-15T2000,2473A,113.0116,25.8226,郴州市,市职中,,19,,12,13,7,49,,57,56,7,7,12,11,0.6,0.6
2024-06-15T2000,2474A,113.0161,25.8001,郴州市,兴隆步行街,,19,19,14,8,7,49,,55,55,6,7,35,17,0.6,0.6
2024-06-15T2000,2475A,113.0383,25.8071,郴州市,市审计局,,26,12,11,9,8,46,,52,52,10,10,76,21,0.4,0.4
2024-06-15T2000,2476A,113.0348,25.7759,郴州市,市环保局,,35,7,13,3,8,40,,49,49,13,16,103,31,0.5,0.4
2024-06-15T2000,1431A,103.9728,30.7236,成都市,金泉两河,臭氧1小时,63,64,55,34,36,170,,185,184,20,19,2,3,0.7,0.7
2024-06-15T2000,1432A,104.176,30.6872,成都市,十里店,细颗粒物(PM2.5),59,64,66,42,38,149,,196,186,31,28,3,4,0.8,0.8
2024-06-15T2000,1433A,104.079,30.5706,成都市,三瓦窑,细颗粒物(PM2.5),73,64,76,53,53,150,,190,185,24,37,2,5,0.5,0.6
2024-06-15T2000,1434A,104.1114,30.63,成都市,沙河铺,,45,40,58,24,38,144,,192,184,22,27,1,2,0.5,0.9
2024-06-15T2000,1437A,104.0786,30.6531,成都市,君平街,臭氧1小时,68,54,65,42,41,174,,199,196,29,36,1,3,0.6,0.5
2024-06-15T2000,1438A,103.613,31.0283,成都市,灵岩寺,,,,,,,,,,,,,,,,
2024-06-15T2000,2880A,104.0239,30.65639,成都市,大石西路,臭氧1小时,80,52,63,28,34,184,,195,195,19,33,3,5,0.7,0.7
2024-06-15T2000,3136A,104.2725,30.5589,成都市,龙泉驿区区政府,,44,44,42,24,26,72,,178,138,16,13,3,5,0.5,0.5
2024-06-15T2000,3357A,104.0106,30.6931,成都市,金博路,颗粒物(PM10),55,60,58,22,35,154,,182,181,22,30,2,2,0.6,0.6
2024-06-15T2000,3359A,104.0578,30.5225,成都市,华阳,,45,44,57,31,42,125,,186,178,27,19,2,4,0.9,0.9
2024-06-15T2000,3487A,104.2394,30.5319,成都市,车城东七路,"颗粒物(PM10),细颗粒物(PM2.5)",52,54,54,36,36,123,,178,158,19,11,2,4,0.7,0.6
2024-06-15T2000,3488A,104.3853,30.7453,成都市,青白江技师分院,,49,49,49,23,32,119,,192,159,22,33,4,6,0.8,0.8
2024-06-15T2000,3489A,104.0789,30.4072,成都市,科学城,,47,39,56,22,36,148,,191,183,14,17,3,5,0.5,0.6
2024-06-15T2000,4011A,103.8506,30.6947,成都市,光华大道三段,臭氧1小时,94,57,53,39,30,195,,187,187,18,17,4,5,0.6,0.6
2024-06-15T2000,1062A,117.9531,40.9081,承德市,铁路,颗粒物(PM10),53,56,18,21,5,54,,103,94,39,16,8,8,0.3,0.2
2024-06-15T2000,1063A,117.9392,40.9763,承德市,中国银行,,48,48,18,23,5,69,,104,100,18,13,5,5,0.4,0.2
2024-06-15T2000,1064A,117.9503,40.928,承德市,开发区,,25,19,22,13,10,77,,106,103,16,15,7,6,0.2,0.2
2024-06-15T2000,1065A,117.8051,40.9655,承德市,文化中心,颗粒物(PM10),52,54,28,22,7,69,,108,103,22,20,8,8,0.3,0.2
2024-06-15T2000,1066A,117.9268,41.0026,承德市,离宫,,26,26,15,14,11,74,,102,96,3,7,2,2,0.3,0.2
2024-06-15T2000,2314A,117.47,30.6618,池州市,池州学院,臭氧1小时,93,59,35,35,21,194,,193,193,11,6,6,7,0.8,0.6
2024-06-15T2000,3237A,117.4918,30.6617,池州市,展览馆,,50,50,33,23,21,156,,180,180,9,8,4,3,0.6,0.6
2024-06-15T2000,3333A,117.5627,30.695,池州市,第八中学,臭氧1小时,78,62,36,35,23,182,,193,193,11,10,4,4,0.5,0.4
2024-06-15T2000,3334A,117.5038,30.6243,池州市,第十二中学,,49,42,31,30,19,156,,185,185,18,14,5,5,0.7,0.8
2024-06-15T2000,1744A,118.9233,42.2816,赤峰市,松山一中,,23,10,8,3,4,73,,91,89,30,16,8,9,0.5,0.4
2024-06-15T2000,1745A,118.9576,42.2728,赤峰市,哈达街,,23,9,10,3,5,72,,85,84,22,13,9,10,0.5,0.5
2024-06-15T2000,1746A,118.8788,42.2554,赤峰市,天义路,,23,14,10,6,5,72,,95,92,29,17,5,6,0.2,0.2
2024-06-15T2000,3058A,119.2658,42.0353,赤峰市,银河街,,24,13,16,11,7,76,,96,94,24,16,10,14,0.4,0.3
2024-06-15T2000,3286A,118.9359,42.3147,赤峰市,桥北物流园区,,25,15,10,12,5,78,,91,90,24,13,5,6,0.5,0.5
2024-06-15T2000,2521A,107.3476,22.4136,崇左市,市环保局江州分局,,35,35,22,18,12,70,,72,72,8,8,6,4,0.7,0.5
2024-06-15T2000,2522A,107.3702,22.3707,崇左市,城南新区,,38,34,20,26,11,69,,70,70,8,6,4,4,0.7,0.5
2024-06-15T2000,2298A,118.3093,32.3153,滁州市,老年大学,臭氧1小时,84,51,63,23,34,187,,215,215,14,21,8,7,0.5,0.7
2024-06-15T2000,2299A,118.3244,32.2786,滁州市,人大宾馆,臭氧1小时,78,43,57,23,37,182,,212,212,17,24,6,7,0.6,0.7
2024-06-15T2000,3207A,118.3118,32.3038,滁州市,市政府原办公楼,臭氧1小时,80,43,60,29,40,184,,210,210,13,24,7,9,0.6,0.8
2024-06-15T2000,3331A,118.3267,32.2634,滁州市,图书馆,臭氧1小时,74,44,59,22,37,179,,209,209,12,20,8,9,0.8,1
2024-06-15T2000,2605A,101.5482,25.0441,楚雄彝族自治州,州环境监测站,,15,10,12,8,13,47,,75,71,15,12,4,4,0.6,0.6
2024-06-15T2000,2606A,101.538,25.0492,楚雄彝族自治州,市经济开发区,,18,12,14,12,11,41,,71,67,17,12,5,6,0.8,0.7
2024-06-15T2000,2548A,107.5277,31.2827,达州市,达州职业技术学院,,27,21,46,14,21,86,,140,134,11,25,4,6,0.2,0.3
2024-06-15T2000,2549A,107.5086,31.2186,达州市,市环境监测站,,40,29,48,9,23,127,,168,164,13,34,5,8,0.5,0.7
2024-06-15T2000,2550A,107.4988,31.2132,达州市,凤凰小区,,41,24,48,14,27,131,,176,172,12,30,6,10,0.4,0.7
2024-06-15T2000,2551A,107.5082,31.1986,达州市,达县机关宾馆,,40,36,50,17,27,126,,172,168,15,41,4,7,0.3,0.5
2024-06-15T2000,2552A,107.4644,31.2124,达州市,市政中心,,45,33,52,12,26,142,,182,178,15,39,6,10,0.3,0.7
2024-06-15T2000,2614A,100.1542,25.7054,大理白族自治州,大理市环境监测站,,20,20,14,6,8,38,,68,65,18,8,4,4,0.6,0.6
2024-06-15T2000,2615A,100.2171,25.5811,大理白族自治州,大理古城,,36,28,16,25,11,58,,68,68,20,11,7,7,0.9,0.9
2024-06-15T2000,1109A,121.612,38.9741,大连市,甘井子,,30,14,22,3,15,94,,126,117,14,20,5,6,0.4,0.5
2024-06-15T2000,1110A,121.565,38.9511,大连市,周水子,,,17,22,,15,80,,114,106,24,23,4,7,0.5,0.6
2024-06-15T2000,1111A,121.5637,38.8845,大连市,星海三站,,32,16,20,7,10,100,,140,132,14,13,6,6,0.5,0.6
2024-06-15T2000,1112A,121.6302,38.9117,大连市,青泥洼桥,,25,18,23,11,14,79,,124,114,23,16,8,8,0.5,0.6
2024-06-15T2000,1113A,121.6251,38.8638,大连市,傅家庄,,37,19,16,8,13,117,,133,133,15,10,7,8,0.6,0.5
2024-06-15T2000,1114A,121.5213,38.8661,大连市,七贤岭,,29,20,22,6,12,91,,132,123,15,14,5,5,0.4,0.4
2024-06-15T2000,1115A,121.2529,38.8061,大连市,旅顺,,35,22,22,10,12,112,,140,132,12,11,8,8,0.5,0.3
2024-06-15T2000,1116A,121.7485,39.1311,大连市,金州,,27,19,22,6,17,86,,123,113,19,17,8,9,0.4,0.5
2024-06-15T2000,1117A,121.7811,39.0496,大连市,开发区,,29,22,28,3,16,92,,135,126,17,27,4,5,0.4,0.4
2024-06-15T2000,1118A,121.9762,39.0631,大连市,双D港,,29,19,22,3,13,90,,143,114,18,18,7,7,0.5,0.5
2024-06-15T2000,1789A,124.81117,46.03138,大庆市,大同区,,22,,7,12,11,70,,66,,9,5,5,4,0.3,0.2
2024-06-15T2000,1790A,125.129,46.533,大庆市,龙凤区,,20,17,15,14,10,62,,65,65,12,8,5,5,0.3,0.2
2024-06-15T2000,1791A,124.902,46.408,大庆市,红岗区,,23,16,15,13,12,72,,79,79,9,4,5,5,0.3,0.3
2024-06-15T2000,1792A,125.153,46.586,大庆市,萨尔图区,,17,14,7,3,4,54,,56,56,13,7,6,6,0.3,0.3
2024-06-15T2000,1793A,124.9042,46.6215,大庆市,让胡路区,,23,23,16,9,14,63,,72,72,11,4,4,4,0.1,0.1
2024-06-15T2000,3481A,125.141,46.634,大庆市,萨区政府监测点,,19,14,12,3,4,60,,61,61,7,6,5,5,0.1,0.1
2024-06-15T2000,1721A,113.3819,40.1097,大同市,果树场,,,,,,,,,,,,,,,,
2024-06-15T2000,1723A,113.2994,40.0758,大同市,云冈宾馆,,39,39,27,14,9,111,,124,124,13,17,6,10,0.3,0.6
2024-06-15T2000,1724A,113.3444,40.0917,大同市,大同大学,,34,11,21,11,13,106,,114,114,10,14,7,13,0.2,0.4
2024-06-15T2000,1725A,113.2661,40.1269,大同市,安家小村,,30,19,24,3,6,94,,116,114,16,12,10,12,0.3,0.6
2024-06-15T2000,1726A,113.2711,40.0844,大同市,教育学院,,35,23,28,8,11,112,,123,123,14,17,8,10,0.4,0.6
2024-06-15T2000,3282A,113.3397,40.0597,大同市,大同市卫生学校,,38,25,24,11,9,119,,127,127,9,15,8,13,0.2,0.5
2024-06-15T2000,3565A,113.1367,40.1122,大同市,云冈站,,34,16,32,8,12,108,,121,121,8,22,8,17,0.3,0.4
2024-06-15T2000,3566A,113.1186,40.2556,大同市,图书馆,,35,17,25,9,11,111,,117,117,11,14,9,13,0.3,0.5
2024-06-15T2000,3567A,113.5931,40.0461,大同市,区一中,,36,18,21,9,6,113,,120,120,8,10,3,4,0.3,0.3
2024-06-15T2000,3676A,113.2802,40.0995,大同市,第二人民医院,,35,16,28,13,12,109,,121,121,13,14,11,12,0.3,0.6
2024-06-15T2000,2269A,124.1069,50.4097,大兴安岭地区,科技局,,37,37,21,24,15,71,,88,85,10,6,6,6,0.4,0.3
2024-06-15T2000,3663A,124.1164,50.4278,大兴安岭地区,红旗社区,,25,17,14,17,15,74,,91,89,8,9,4,5,0.4,0.4
2024-06-15T2000,1600A,124.3303,40.0625,丹东市,江湾东路,,22,22,20,14,16,61,,108,97,35,14,7,8,0.5,0.4
2024-06-15T2000,1601A,124.4256,40.1503,丹东市,临江后街,,34,17,19,6,13,106,,107,101,18,11,12,12,0.6,0.7
2024-06-15T2000,1602A,124.3933,40.1461,丹东市,元宝山,,33,13,25,3,16,105,,80,80,12,14,9,8,0.3,0.5
2024-06-15T2000,1603A,124.3633,40.1092,丹东市,民主桥,,24,24,24,14,15,66,,94,88,38,13,6,7,0.6,0.5
2024-06-15T2000,3541A,109.5726,19.5167,儋州市,第一中学子站,,17,15,19,7,16,54,,66,64,3,3,5,5,0.4,0.4
2024-06-15T2000,3542A,109.5567,19.5187,儋州市,东坡学校子站,,17,17,20,7,12,52,,65,63,4,3,4,4,0.5,0.5
2024-06-15T2000,2616A,98.5842,24.428,德宏傣族景颇族自治州,德宏州监测站,,23,23,23,14,9,56,,62,62,9,13,2,8,0.8,0.7
2024-06-15T2000,3677A,98.5881,24.4368,德宏傣族景颇族自治州,芒市人民政府综合楼,,25,22,24,17,14,57,,62,62,8,11,8,11,0.6,0.6
2024-06-15T2000,1901A,104.4239,31.1208,德阳市,东山公园,,49,49,58,24,27,106,,164,140,27,17,5,5,0.5,0.5
2024-06-15T2000,1902A,104.3826,31.1317,德阳市,西小区,,49,49,58,31,35,131,,158,145,26,36,3,5,0.5,0.6
2024-06-15T2000,1904A,104.3553,31.1091,德阳市,耐火材料厂,颗粒物(PM10),53,55,62,27,33,117,,180,161,37,39,6,6,0.7,0.8
2024-06-15T2000,3639A,104.4019,31.1244,德阳市,市教育局,,49,49,55,27,29,98,,162,137,42,34,4,4,0.6,0.6
2024-06-15T2000,1622A,116.3032,37.4674,德州市,儿童乐园,臭氧1小时,72,61,58,19,34,177,,164,164,14,15,7,8,0.5,0.7
2024-06-15T2000,1624A,116.2991,37.4451,德州市,监理站,臭氧1小时,87,66,58,17,31,189,,169,169,15,15,10,12,0.5,0.6
2024-06-15T2000,3066A,116.2721,37.4379,德州市,九衢泉纯净水厂,臭氧1小时,89,63,60,19,30,191,,167,167,14,15,4,6,0.5,0.6
2024-06-15T2000,3371A,116.3728,37.4403,德州市,开发区人民医院,臭氧1小时,70,63,66,19,31,176,,163,163,13,11,8,9,0.4,0.5
2024-06-15T2000,3372A,116.3572,37.4094,德州市,太阳城中学,臭氧1小时,74,58,60,19,30,179,,163,163,20,17,5,8,0.6,0.6
2024-06-15T2000,3511A,116.5652,37.3319,德州市,陵城艺术中心,臭氧1小时,70,70,69,12,35,176,,162,162,18,15,4,6,0.5,0.6
2024-06-15T2000,2621A,99.7056,27.8317,迪庆藏族自治州,迪庆州站,,18,18,15,7,8,56,,59,58,8,8,10,10,0.4,0.4
2024-06-15T2000,3180A,99.7136,27.8094,迪庆藏族自治州,质量技术监督局,,20,20,16,3,7,54,,57,56,9,7,8,8,0.5,0.5
2024-06-15T2000,2663A,104.6241,35.5734,定西市,东关小学,颗粒物(PM10),52,53,60,22,21,130,,133,133,8,18,8,7,0.2,0.2
2024-06-15T2000,2664A,104.6194,35.5934,定西市,供电公司,,41,41,53,23,26,123,,129,128,9,21,3,3,0.2,0.2
2024-06-15T2000,1389A,113.7547,23.0494,东莞市,莞城梨川,,14,11,20,6,9,44,,60,60,14,14,9,8,0.6,0.6
2024-06-15T2000,1390A,113.7944,23.0128,东莞市,东城石井,,14,12,24,3,10,43,,60,60,21,14,3,3,0.5,0.5
2024-06-15T2000,1391A,113.7383,22.9658,东莞市,南城西平,,16,16,25,8,10,41,,66,66,19,7,3,3,0.6,0.6
2024-06-15T2000,3319A,113.7338,23.0381,东莞市,万江金泰,,16,16,21,10,10,46,,65,65,16,14,3,4,0.6,0.6
2024-06-15T2000,3626A,113.7533,23.0202,东莞市,南城元岭,,12,10,21,3,8,38,,53,53,16,13,6,6,0.7,0.7
2024-06-15T2000,3627A,113.7875,23.0457,东莞市,东城主山,,14,13,20,8,10,42,,58,58,17,14,8,8,0.6,0.6
2024-06-15T2000,1666A,118.6614,37.4309,东营市,市环保局,,,,28,,26,,,103,,,13,,9,,0.3
2024-06-15T2000,3036A,118.6904,37.4338,东营市,开发区管委会,,42,21,32,7,18,133,,118,118,8,10,5,6,0.1,0.2
2024-06-15T2000,3365A,118.5719,37.565,东营市,垦利区民丰路,,39,22,33,12,24,122,,130,130,14,12,10,10,0.5,0.6
2024-06-15T2000,3498A,118.5055,37.8612,东营市,河口城区,,41,22,25,7,17,129,,128,128,8,7,7,7,0.4,0.5
2024-06-15T2000,3646A,118.4978,37.4623,东营市,胜利站,,39,21,30,12,22,123,,142,137,7,11,7,7,0.4,0.5
2024-06-15T2000,3734A,118.35,37.26,东营市,理想之城,,35,17,32,9,22,112,,108,108,7,10,5,6,0.4,0.5
2024-06-15T2000,1591A,110.0023,39.8129,鄂尔多斯市,综合楼,臭氧1小时,54,46,44,12,7,163,,150,150,16,29,13,10,0.5,0.4
2024-06-15T2000,1592A,109.9486,39.8261,鄂尔多斯市,巴音孟克林场办事处,,47,39,40,14,10,148,,132,132,13,28,11,9,0.5,0.4
2024-06-15T2000,1593A,109.7736,39.5986,鄂尔多斯市,康泽苑,,47,36,30,7,10,148,,147,147,12,14,11,10,0.5,0.4
2024-06-15T2000,1594A,109.8119,39.5989,鄂尔多斯市,华泰汽车城,,43,29,29,17,15,136,,136,136,11,19,10,9,0.4,0.4
2024-06-15T2000,1595A,109.9734,39.7884,鄂尔多斯市,奥林花园,,47,36,31,17,9,150,,137,137,13,22,9,7,0.6,0.4
2024-06-15T2000,2436A,114.8938,30.3994,鄂州市,市政府,颗粒物(PM10),58,66,44,3,15,118,,139,138,7,13,6,7,0.3,0.6
2024-06-15T2000,2437A,114.8989,30.3714,鄂州市,赵家坝,,44,44,41,8,15,131,,149,147,6,14,6,9,0.3,0.5
2024-06-15T2000,3654A,114.8094,30.4089,鄂州市,精准医疗中心,颗粒物(PM10),54,57,48,8,18,129,,149,148,6,22,3,10,0.4,0.6
2024-06-15T2000,2454A,109.4978,30.2981,恩施土家族苗族自治州,湖北民院,,37,36,40,23,28,118,,154,151,6,12,9,9,0.6,0.7
2024-06-15T2000,2455A,109.4707,30.2798,恩施土家族苗族自治州,州电力总公司,,36,30,40,21,25,113,,155,151,14,20,8,8,0.6,0.7
2024-06-15T2000,3549A,109.5061,30.3772,恩施土家族苗族自治州,龙凤新区,,42,42,34,17,22,86,,142,135,25,14,6,6,0.7,0.7
2024-06-15T2000,2499A,108.3411,21.6158,防城港市,沙万,,48,48,25,21,11,18,,50,41,40,16,39,14,1.1,0.7
2024-06-15T2000,2500A,108.3514,21.7731,防城港市,防城档案局,,36,36,24,15,10,31,,50,45,20,11,6,5,0.8,0.7
2024-06-15T2000,2501A,108.3506,21.6414,防城港市,大海花园,颗粒物(PM10),51,51,28,21,10,22,,51,41,22,10,26,12,1.1,0.8
2024-06-15T2000,1371A,113.1294,23.0067,佛山市,湾梁,,14,9,19,9,10,32,,66,65,27,29,7,7,0.7,0.7
2024-06-15T2000,1372A,113.1083,23.0478,佛山市,华材职中,,15,,15,10,11,32,,65,63,26,32,5,6,0.5,0.5
2024-06-15T2000,1373A,113.144,23.0453,佛山市,南海气象局,,15,10,23,10,12,30,,65,65,20,26,6,6,0.5,0.6
2024-06-15T2000,1374A,113.2881,22.8094,佛山市,顺德苏岗,,12,7,16,7,10,33,,51,51,23,19,5,5,0.5,0.6
2024-06-15T2000,1376A,112.8383,22.8678,佛山市,高明孔堂,,15,9,24,3,10,48,,60,59,9,24,6,7,0.5,0.6
2024-06-15T2000,1377A,112.8836,23.1588,佛山市,三水监测站,,20,12,17,3,11,15,,58,56,39,34,5,6,0.6,0.6
2024-06-15T2000,1378A,112.867,23.185,佛山市,三水云东海,,27,27,22,8,16,15,,61,59,44,33,3,3,0.6,0.6
2024-06-15T2000,3625A,113.2544,22.7642,佛山市,容桂街道办,,12,7,16,7,11,35,,57,57,24,21,6,6,0.5,0.5
2024-06-15T2000,1280A,119.3903,26.0543,福州市,鼓山,,,,,,,,,,,,,,,,
2024-06-15T2000,1282A,119.2681,26.0504,福州市,师大,,23,20,21,16,9,44,,60,60,16,18,3,3,0.4,0.4
2024-06-15T2000,1283A,119.2984,26.1028,福州市,五四北路,,34,34,22,19,12,52,,70,70,15,18,3,3,0.4,0.4
2024-06-15T2000,1284A,119.2648,26.0768,福州市,杨桥西路,,27,27,22,16,9,48,,62,62,16,17,3,3,0.3,0.4
2024-06-15T2000,1285A,119.317,26.0746,福州市,紫阳,,25,25,21,16,10,44,,62,62,16,19,2,2,0.4,0.4
2024-06-15T2000,3048A,119.5799,26.0936,福州市,九龙,,,,22,12,9,37,,54,54,6,9,4,4,0.3,0.3
2024-06-15T2000,3526A,119.5189,25.9664,福州市,吴航,,17,10,22,3,10,52,,68,68,2,8,3,4,0.4,0.4
2024-06-15T2000,1755A,123.7977,41.8491,抚顺市,望花区,,33,16,21,8,14,105,,110,110,18,16,7,4,0.3,0.3
2024-06-15T2000,1756A,123.9161,41.8822,抚顺市,顺城区,,32,32,26,14,13,54,,107,102,58,26,6,7,0.3,0.4
2024-06-15T2000,1757A,124.0436,41.8611,抚顺市,东洲区,,24,16,27,11,13,76,,101,99,21,14,8,8,0.2,0.3
2024-06-15T2000,1758A,123.9247,41.8642,抚顺市,新抚区,,30,12,19,9,12,93,,103,103,20,13,4,6,0.3,0.4
2024-06-15T2000,1759A,124.0972,41.8961,抚顺市,大伙房水库,,27,17,24,7,9,86,,96,96,11,15,7,8,0.2,0.4
2024-06-15T2000,1760A,123.7086,41.8391,抚顺市,沈抚新城,,,,18,9,13,94,,108,108,22,19,6,8,0.2,0.3
2024-06-15T2000,2376A,116.2127,28.0814,抚州市,桐源党溪,,28,28,23,9,10,37,,59,58,12,6,6,5,0.3,0.3
2024-06-15T2000,2377A,116.3544,27.9831,抚州市,市站,,18,18,19,8,9,49,,57,57,7,9,6,5,0.5,0.5
2024-06-15T2000,2378A,116.3565,27.963,抚州市,血防站,,15,15,20,8,9,42,,50,50,10,11,1,3,0.8,0.7
2024-06-15T2000,2379A,116.3564,28.0007,抚州市,采茶剧团,,15,7,17,6,8,48,,55,55,4,8,2,2,0.7,0.7
2024-06-15T2000,2380A,116.385,27.9647,抚州市,医学分院,,15,12,21,6,8,46,,55,55,6,8,4,4,0.8,0.8
2024-06-15T2000,2207A,121.6094,41.998,阜新市,工业园区,,28,28,17,11,8,61,,109,104,42,19,9,9,0.4,0.4
2024-06-15T2000,2208A,121.6697,42.0279,阜新市,长青街,,,22,18,6,8,75,,101,98,,9,5,9,0.5,0.6
2024-06-15T2000,2209A,121.6673,42.0705,阜新市,农业园区,,20,20,17,7,9,57,,93,88,25,19,5,7,0.2,0.3
2024-06-15T2000,2210A,121.6717,42.0224,阜新市,东苑,,26,22,19,6,6,83,,101,99,22,16,3,8,0.2,0.5
2024-06-15T2000,2211A,121.6506,42.0498,阜新市,玉龙新城,,34,34,21,10,6,44,,98,92,48,23,5,7,0.7,0.6
2024-06-15T2000,2301A,115.8277,32.8929,阜阳市,市监测站,臭氧1小时,77,56,68,32,27,181,,205,204,19,16,8,11,0.6,0.5
2024-06-15T2000,2303A,115.8554,32.8605,阜阳市,开发区,臭氧1小时,84,70,69,28,23,187,,205,205,17,16,6,8,0.5,0.4
2024-06-15T2000,2875A,115.784,32.8892,阜阳市,阜阳职业技术学院,臭氧1小时,101,60,68,22,24,201,,212,212,12,16,6,7,0.5,0.5
2024-06-15T2000,3468A,115.7901,32.8613,阜阳市,市规划展馆,臭氧1小时,93,50,71,32,31,194,,202,202,14,17,4,5,0.5,0.5
2024-06-15T2000,3469A,115.836,32.9183,阜阳市,枣园社区,臭氧1小时,83,38,63,37,32,186,,200,200,15,19,6,8,0.6,0.5
2024-06-15T2000,2669A,102.9099,34.9841,甘南藏族自治州,州政府,,35,,31,21,22,110,,111,110,11,14,4,4,0.8,0.8
2024-06-15T2000,3380A,102.8914,34.9617,甘南藏族自治州,甘肃民族师范学院,,34,25,34,16,14,106,,114,113,7,20,8,8,0.6,0.6
2024-06-15T2000,2570A,101.9603,30.0475,甘孜藏族自治州,水桥子,,33,,18,23,11,42,,93,88,25,21,3,3,0.5,0.3
2024-06-15T2000,3065A,101.9533,29.9972,甘孜藏族自治州,州环保局,,21,21,26,6,7,30,,89,78,38,29,2,2,0.3,0.2
2024-06-15T2000,3414A,115.8347,28.932,赣江新区,桑海产业园,,24,24,22,12,10,62,,78,78,24,22,8,10,0.4,0.4
2024-06-15T2000,2362A,114.9017,25.9149,赣州市,通天岩,,,,,,,,,,,,,,,,
2024-06-15T2000,2363A,114.9367,25.8664,赣州市,地委,,16,12,15,8,8,50,,53,52,5,8,8,8,1.1,1.1
2024-06-15T2000,2364A,114.9461,25.8481,赣州市,气象台,,15,14,12,8,7,45,,49,49,4,8,5,9,0.5,0.4
2024-06-15T2000,2365A,114.9322,25.8333,赣州市,市图书馆,,15,9,12,6,5,47,,50,50,6,6,10,7,0.8,0.8
2024-06-15T2000,2366A,114.8905,25.8471,赣州市,华坚鞋城,,15,15,15,3,9,42,,49,48,6,7,18,5,0.5,0.4
2024-06-15T2000,3109A,115.0093,25.8613,赣州市,赣县区卫计委,,23,23,14,9,6,48,,52,52,10,13,7,7,0.5,0.5
2024-06-15T2000,2683A,106.2319,36.1417,固原市,马园,颗粒物(PM10),55,60,64,26,30,114,,139,137,28,34,7,6,0.5,0.4
2024-06-15T2000,2684A,106.2792,36.0022,固原市,监测站,颗粒物(PM10),56,61,57,19,21,110,,139,135,20,21,6,6,0.5,0.4
2024-06-15T2000,2685A,106.2375,36.0211,固原市,新区,颗粒物(PM10),51,52,56,19,18,98,,138,132,26,25,4,5,0.4,0.3
2024-06-15T2000,3522A,106.2177,35.9959,固原市,原州区十五小,颗粒物(PM10),53,56,59,26,23,130,,138,138,12,16,2,7,0.4,0.3
2024-06-15T2000,2543A,106.6308,30.5278,广安市,小平旧居,,,,,,,,,,,,,,,,
2024-06-15T2000,2544A,106.6303,30.4576,广安市,市委,颗粒物(PM10),52,54,52,30,32,144,,178,173,16,22,11,10,0.6,0.6
2024-06-15T2000,2545A,106.6271,30.4663,广安市,友谊中学,,46,42,43,27,30,146,,183,177,18,24,7,8,0.6,0.7
2024-06-15T2000,2547A,106.6388,30.4551,广安市,广电花园,颗粒物(PM10),51,51,46,31,31,140,,171,166,15,22,12,11,0.6,0.6
2024-06-15T2000,2902A,106.6351,30.4865,广安市,北辰小学,颗粒物(PM10),53,55,51,31,30,138,,181,176,16,20,12,12,0.5,0.6
2024-06-15T2000,2523A,105.8945,32.4535,广元市,黑石坡,,29,29,23,20,12,89,,146,142,23,13,16,16,0.6,0.4
2024-06-15T2000,2524A,105.821,32.4444,广元市,老城,,42,42,38,16,15,64,,149,134,50,42,8,9,0.5,0.5
2024-06-15T2000,2526A,105.8628,32.4287,广元市,监测站,颗粒物(PM10),54,58,30,35,18,82,,160,149,21,15,7,10,0.7,0.6
2024-06-15T2000,3617A,105.8047,32.4166,广元市,经开区,颗粒物(PM10),53,55,48,28,23,92,,144,133,24,31,5,11,0.8,0.7
2024-06-15T2000,1345A,113.2347,23.1423,广州市,广雅中学,,19,17,22,13,14,28,,63,62,35,35,4,4,0.6,0.7
2024-06-15T2000,1346A,113.2612,23.105,广州市,市五中,,19,19,21,12,12,39,,70,69,29,28,4,4,0.6,0.7
2024-06-15T2000,1348A,113.3478,23.0916,广州市,广东商学院,,22,22,25,14,12,25,,51,50,32,33,3,3,0.4,0.4
2024-06-15T2000,1349A,113.4332,23.1047,广州市,市八十六中,,18,14,20,8,11,28,,45,45,36,39,3,3,0.6,0.6
2024-06-15T2000,1350A,113.3505,22.9483,广州市,番禺中学,颗粒物(PM10),59,67,29,8,9,31,,64,63,30,23,6,6,0.7,0.7
2024-06-15T2000,1351A,113.2146,23.3916,广州市,花都师范,,20,15,16,10,10,20,,54,52,39,29,5,5,0.5,0.5
2024-06-15T2000,1352A,113.2597,23.1331,广州市,市监测站,,18,18,23,12,13,32,,58,58,28,28,4,4,0.3,0.4
2024-06-15T2000,1353A,113.5618,23.312,广州市,九龙镇镇龙,,12,10,18,7,10,38,,64,64,24,25,6,6,0.4,0.4
2024-06-15T2000,1354A,113.2765,23.1544,广州市,麓湖,,17,17,21,10,11,28,,54,54,20,25,2,3,0.4,0.4
2024-06-15T2000,1355A,113.443,23.3035,广州市,帽峰山森林公园,,14,6,12,3,6,44,,65,65,18,16,1,2,0.6,0.6
2024-06-15T2000,2846A,113.3221,23.1322,广州市,体育西,,23,23,23,15,14,27,,54,53,30,25,3,3,0.6,0.6
2024-06-15T2000,3298A,113.5717,23.5491,广州市,从化街口,,17,17,14,9,7,40,,54,54,20,19,7,7,0.7,0.7
2024-06-15T2000,3299A,113.3472,23.3692,广州市,白云竹料,,23,16,17,9,10,13,,48,45,46,27,4,4,0.7,0.6
2024-06-15T2000,3300A,113.2981,23.237,广州市,白云嘉禾,,20,20,19,12,10,32,,55,55,32,37,5,5,0.8,0.9
2024-06-15T2000,3301A,113.4256,23.1716,广州市,黄埔科学城,,19,15,21,7,9,20,,48,46,38,32,4,4,0.7,0.7
2024-06-15T2000,3302A,113.3942,23.0483,广州市,番禺大学城,,16,16,19,11,10,26,,44,44,32,30,5,5,0.5,0.5
2024-06-15T2000,3303A,113.4922,22.8168,广州市,南沙黄阁,,13,6,24,3,11,40,,61,59,24,16,5,5,0.6,0.6
2024-06-15T2000,3304A,113.5342,22.7896,广州市,南沙街,,14,8,23,3,9,44,,56,56,15,14,7,7,0.5,0.6
2024-06-15T2000,3443A,113.2902,23.5544,广州市,花都梯面,,14,11,16,3,7,42,,55,55,18,18,4,3,0.6,0.6
2024-06-15T2000,3445A,113.7858,23.7478,广州市,从化良口,,17,6,9,3,4,54,,54,54,9,10,4,4,0.6,0.6
2024-06-15T2000,3446A,113.8051,23.2614,广州市,增城荔城,,15,11,18,3,8,48,,80,80,16,14,5,5,0.6,0.6
2024-06-15T2000,2505A,109.568,23.1478,贵港市,德智高中,,,,,,,,,,,,,,,,
2024-06-15T2000,2506A,109.6047,23.0666,贵港市,江南子站,颗粒物(PM10),51,51,22,15,14,23,,43,41,30,17,8,8,0.7,0.7
2024-06-15T2000,2507A,109.6014,23.0948,贵港市,贵城子站,,43,43,27,15,17,30,,42,41,24,16,8,8,0.8,0.7
2024-06-15T2000,2508A,109.5669,23.1065,贵港市,荷城子站,,27,27,18,7,6,42,,44,44,19,14,10,11,0.7,0.6
2024-06-15T2000,3405A,109.5886,23.1172,贵港市,新世纪学校,,41,41,21,17,14,39,,45,45,20,15,12,11,1.0,0.7
2024-06-15T2000,1439A,106.6899,26.5998,贵阳市,马鞍山,,,,30,,15,90,,88,83,14,16,6,6,0.6,0.7
2024-06-15T2000,1440A,106.6971,26.5694,贵阳市,市环保站,颗粒物(PM10),56,61,56,29,34,71,,102,96,82,50,5,5,0.8,1
2024-06-15T2000,1441A,106.6243,26.6266,贵阳市,鉴湖路,,39,39,31,14,16,112,,98,98,9,14,4,4,0.4,0.5
2024-06-15T2000,1442A,106.7487,26.6343,贵阳市,燕子冲,,,,20,24,21,96,,100,98,15,16,7,8,0.6,0.6
2024-06-15T2000,1443A,106.6555,26.4365,贵阳市,碧云窝,,36,36,38,19,18,74,,116,106,24,17,4,5,0.5,0.6
2024-06-15T2000,1444A,106.694,26.5161,贵阳市,中院村,,,53,46,29,24,51,,106,95,,35,,7,0.7,0.7
2024-06-15T2000,1445A,106.7109,26.6027,贵阳市,红边门,,49,36,41,34,33,107,,110,110,27,25,5,7,0.6,0.6
2024-06-15T2000,1446A,106.7164,26.5699,贵阳市,新华路,,48,48,42,22,27,103,,118,115,30,33,4,6,0.5,0.7
2024-06-15T2000,1447A,106.674,26.5424,贵阳市,太慈桥,,31,31,29,19,18,48,,97,86,31,22,5,5,0.6,0.5
2024-06-15T2000,1552A,106.805,26.3003,贵阳市,桐木岭,,,,,,,,,,,,,,,,
2024-06-15T2000,1862A,110.4144,25.3167,桂林市,电子科大尧山校区,,17,14,18,11,10,53,,60,60,3,4,10,4,0.5,0.5
2024-06-15T2000,1863A,110.2819,25.2697,桂林市,监测站,,24,24,19,16,11,54,,103,101,10,9,13,5,0.8,0.8
2024-06-15T2000,1864A,110.3089,25.2708,桂林市,龙隐路小学,,,22,14,11,10,53,,97,95,,8,,4,0.7,0.7
2024-06-15T2000,1865A,110.2869,25.2178,桂林市,八中,,,19,17,7,6,46,,92,90,,7,7,4,0.7,0.6
2024-06-15T2000,3403A,110.1764,25.2381,桂林市,创业大厦,,20,17,12,14,8,62,,86,86,8,10,11,7,0.6,0.6
2024-06-15T2000,3531A,110.296,25.1253,桂林市,旅游学院,,21,9,5,9,5,66,,80,80,6,6,9,9,0.6,0.6
2024-06-15T2000,2674A,100.2561,34.4714,果洛藏族自治州,玛沁县大武镇,,31,,15,12,10,99,,105,104,16,17,9,8,0.4,0.2
2024-06-15T2000,1129A,126.5422,45.755,哈尔滨市,岭北,,17,6,6,3,4,53,,52,52,12,11,11,11,0,0
2024-06-15T2000,1130A,126.561,45.8167,哈尔滨市,松北商大,,15,15,10,3,4,15,,35,32,19,15,5,5,0.5,0.4
2024-06-15T2000,1131A,126.979,45.5419,哈尔滨市,阿城会宁,,15,13,10,9,5,46,,49,46,18,12,6,6,0.5,0.4
2024-06-15T2000,1132A,126.599,45.7222,哈尔滨市,南岗学府路,,18,18,17,6,5,49,,45,45,10,12,7,8,0.6,0.5
2024-06-15T2000,1133A,126.689,45.7733,哈尔滨市,太平宏伟公园,,22,19,12,15,6,47,,48,48,20,16,5,6,0.5,0.3
2024-06-15T2000,1134A,126.635,45.7667,哈尔滨市,道外承德广场,,16,16,11,3,2,41,,44,44,24,19,8,9,0.5,0.5
2024-06-15T2000,1135A,126.685,45.7319,哈尔滨市,香坊红旗大街,,22,17,14,15,8,49,,46,46,16,15,5,7,0.5,0.4
2024-06-15T2000,1136A,126.6411,45.7258,哈尔滨市,动力和平路,,,20,13,,3,43,,44,44,21,18,6,6,0.4,0.3
2024-06-15T2000,1137A,126.593,45.7478,哈尔滨市,道里建国路,,14,8,11,3,3,44,,43,43,19,18,8,8,0.3,0.4
2024-06-15T2000,1138A,126.615,45.61,哈尔滨市,平房东轻厂,,15,15,10,3,4,42,,49,46,18,11,8,8,0.1,0.1
2024-06-15T2000,1139A,126.595,45.9855,哈尔滨市,呼兰师专,,16,16,13,3,3,50,,48,48,12,11,6,6,0.4,0.3
2024-06-15T2000,1140A,126.6206,45.6842,哈尔滨市,省农科院,,18,15,13,12,4,44,,47,45,19,19,6,6,0.4,0.4
2024-06-15T2000,2688A,93.5128,42.8172,哈密市,地区监测站,颗粒物(PM10),55,60,57,18,23,118,,127,127,16,11,3,5,0.3,0.3
2024-06-15T2000,2689A,93.4961,42.8328,哈密市,哈密师范学校,颗粒物(PM10),52,53,52,19,17,126,,128,128,10,11,4,5,0.3,0.4
2024-06-15T2000,2671A,100.9048,36.9639,海北藏族自治州,海晏县西海镇,,43,34,32,20,19,137,,140,140,12,10,12,16,0.4,0.4
2024-06-15T2000,3867A,102.0738,36.5056,海东市,平安区公安北苑,,45,41,35,9,18,141,,143,143,10,13,4,10,0.3,0.4
2024-06-15T2000,1409A,110.576,19.9507,海口市,东寨港,,,,,,,,,,,,,,,,
2024-06-15T2000,1410A,110.3232,20.0574,海口市,海南大学,,22,21,24,15,13,51,,81,75,12,9,6,6,0.4,0.4
2024-06-15T2000,1411A,110.283,20.0053,海口市,秀英海南医院,,18,15,26,12,15,38,,70,64,18,9,6,6,0.2,0.3
2024-06-15T2000,1412A,110.338,19.9969,海口市,海南师范大学,,22,18,22,15,13,53,,73,68,14,8,6,6,0.5,0.4
2024-06-15T2000,1413A,110.33,20.0356,海口市,龙华路环保局宿舍,,30,30,24,18,13,46,,73,67,14,8,6,6,0.3,0.3
2024-06-15T2000,3539A,110.5111,19.9736,海口市,桂林洋子站,,17,13,24,9,12,54,,71,67,5,5,6,6,0.3,0.3
2024-06-15T2000,2673A,100.6188,36.2866,海南藏族自治州,共和县恰卜恰镇,,40,30,26,8,14,125,,123,123,7,16,16,17,0.6,0.5
2024-06-15T2000,2676A,97.3731,37.3753,海西蒙古族藏族自治州,德令哈市,,41,17,20,8,13,129,,127,127,12,12,12,11,0.5,0.6
2024-06-15T2000,1048A,114.5302,36.6116,邯郸市,东污水处理厂,臭氧1小时,60,54,54,31,30,168,,194,193,25,19,2,7,0.3,1.1
2024-06-15T2000,1049A,114.4918,36.5713,邯郸市,矿院,臭氧1小时,78,54,47,27,24,182,,202,202,15,20,4,12,0.4,1.3
2024-06-15T2000,1050A,114.484,36.6133,邯郸市,丛台公园,臭氧1小时,84,53,52,27,25,187,,202,202,15,19,3,11,0.4,1.2
2024-06-15T2000,3458A,114.7895,36.5593,邯郸市,香泉濮院小区,颗粒物(PM10),66,82,66,28,30,164,,208,203,28,20,2,5,0.2,0.8
2024-06-15T2000,3579A,114.50634,36.77178,邯郸市,永年区实验高中,臭氧1小时,87,57,53,23,19,189,,218,218,22,12,2,7,0.3,0.9
2024-06-15T2000,3580A,114.20016,36.44293,邯郸市,峰峰矿区临水派出所,臭氧1小时,74,50,54,13,19,179,,201,201,12,7,4,9,0.4,0.5
2024-06-15T2000,2634A,106.9893,33.1842,汉中市,汉川机床厂子校,,40,31,38,28,17,110,,138,135,10,10,4,4,0.4,0.4
2024-06-15T2000,2635A,107.0154,33.0706,汉中市,市监测站,,35,31,36,16,17,112,,137,134,12,15,7,9,0.7,0.7
2024-06-15T2000,2636A,107.0089,33.1138,汉中市,鑫源开发区,,32,32,32,16,15,93,,137,129,22,15,8,9,0.5,0.4
2024-06-15T2000,2637A,107.007,33.0323,汉中市,南郑大河坎水厂,,32,32,35,22,19,89,,143,136,18,13,8,8,0.6,0.6
2024-06-15T2000,1223A,120.2072,30.2111,杭州市,滨江,臭氧1小时,105,68,52,38,28,210,,251,250,20,21,6,5,0.7,0.7
2024-06-15T2000,1224A,120.0633,30.2747,杭州市,西溪,臭氧1小时,92,62,41,49,30,193,,220,220,22,18,6,6,0.7,0.7
2024-06-15T2000,1226A,120.3461,30.3153,杭州市,下沙,臭氧1小时,95,60,49,34,26,196,,241,241,25,24,7,6,0.6,0.6
2024-06-15T2000,1227A,120.1269,30.2456,杭州市,卧龙桥,细颗粒物(PM2.5),60,55,42,43,32,152,,219,215,25,14,6,5,0.8,0.7
2024-06-15T2000,1228A,120.1903,30.2692,杭州市,浙江农大,臭氧1小时,88,55,36,39,27,190,,227,227,22,21,8,6,0.6,0.6
2024-06-15T2000,1230A,120.1197,30.3119,杭州市,和睦小学,臭氧1小时,98,57,38,36,25,198,,239,238,23,20,6,4,0.7,0.6
2024-06-15T2000,1231A,120.3019,30.4183,杭州市,临平镇,臭氧1小时,97,51,46,26,28,197,,239,237,20,19,6,5,0.6,0.6
2024-06-15T2000,1232A,120.2697,30.1819,杭州市,城厢镇,臭氧1小时,99,55,49,41,37,199,,243,242,19,20,7,6,0.6,0.7
2024-06-15T2000,1233A,120.0883,30.1808,杭州市,云栖,颗粒物(PM10),56,62,48,29,33,111,,242,217,39,20,6,6,0.6,0.6
2024-06-15T2000,3557A,119.9464,30.0494,杭州市,镇二中,臭氧1小时,113,72,44,43,31,225,,240,240,24,18,8,8,0.7,0.8
2024-06-15T2000,3558A,119.7183,30.2367,杭州市,市府大楼,臭氧1小时,110,50,48,37,39,220,,244,244,25,19,7,7,0.7,0.8
2024-06-15T2000,3656A,120.1556,30.2864,杭州市,消防大队,臭氧1小时,67,68,43,39,27,173,,210,209,25,20,7,6,0.9,0.9
2024-06-15T2000,1270A,117.1959,31.7848,合肥市,明珠广场,臭氧1小时,113,66,53,46,36,225,,207,207,17,18,7,7,0.6,0.5
2024-06-15T2000,1271A,117.3072,31.8764,合肥市,三里街,臭氧1小时,103,75,62,41,33,206,,204,204,24,22,7,6,0.6,0.5
2024-06-15T2000,1272A,117.2588,31.8707,合肥市,琥珀山庄,臭氧1小时,110,68,57,39,31,220,,218,218,16,14,6,5,0.9,0.8
2024-06-15T2000,1273A,117.1604,31.9052,合肥市,董铺水库,臭氧1小时,82,66,57,36,30,185,,177,177,9,14,2,1,0.6,0.5
2024-06-15T2000,1274A,117.25,31.8571,合肥市,长江中路,臭氧1小时,108,78,64,48,37,215,,210,210,17,13,7,6,0.9,0.8
2024-06-15T2000,1275A,117.266,31.9436,合肥市,庐阳区,臭氧1小时,104,75,67,41,35,207,,223,223,22,19,10,9,0.6,0.5
2024-06-15T2000,1276A,117.336,31.8586,合肥市,瑶海区,臭氧1小时,87,73,64,40,35,189,,198,198,20,20,10,9,0.7,0.6
2024-06-15T2000,1277A,117.3027,31.7964,合肥市,包河区,臭氧1小时,114,66,50,36,31,227,,204,204,13,15,6,6,0.8,0.7
2024-06-15T2000,1278A,117.2776,31.7385,合肥市,滨湖新区,臭氧1小时,113,61,49,46,37,225,,202,202,10,10,8,7,0.8,0.6
2024-06-15T2000,1279A,117.1318,31.8403,合肥市,高新区,臭氧1小时,105,61,54,37,33,209,,201,201,12,15,8,8,0.9,0.8
2024-06-15T2000,3464A,117.3803,31.9147,合肥市,高教基地,臭氧1小时,84,60,56,36,33,187,,196,196,17,14,6,6,0.7,0.6
2024-06-15T2000,3614A,79.924,37.0877,和田地区,地区环保局,颗粒物(PM10),128,205,312,45,81,121,,129,129,6,9,7,8,0.5,0.5
2024-06-15T2000,3615A,79.9131,37.113,和田地区,市环保局,颗粒物(PM10),122,193,282,54,77,111,,126,125,18,23,6,7,0.5,0.6
2024-06-15T2000,2516A,108.2011,24.715,河池市,东仁乐园,,45,45,35,20,15,45,,59,59,1,2,1,1,0.8,0.8
2024-06-15T2000,2517A,108.0497,24.6947,河池市,市环保站,,22,21,24,11,11,69,,70,70,10,10,8,8,0.6,0.6
2024-06-15T2000,2518A,108.0983,24.6989,河池市,市疾控中心,,21,21,23,11,12,67,,72,72,8,12,5,6,0.6,0.6
2024-06-15T2000,1696A,114.6778,23.7569,河源市,源西,,20,,84,14,12,45,,58,58,18,18,3,3,0.5,0.5
2024-06-15T2000,1697A,114.6944,23.7586,河源市,东埔,,34,34,30,6,8,48,,63,62,15,17,6,6,0.5,0.6
2024-06-15T2000,1698A,114.6892,23.7233,河源市,老城,,16,7,17,3,6,49,,68,66,11,14,4,5,0.5,0.5
2024-06-15T2000,1718A,115.4208,35.2464,菏泽市,气象局,臭氧1小时,84,46,81,31,35,187,,205,204,18,18,4,9,0.4,0.4
2024-06-15T2000,1719A,115.4747,35.2375,菏泽市,市政协,臭氧1小时,75,47,78,22,37,180,,205,203,15,12,4,9,0.2,0.3
2024-06-15T2000,3374A,115.5564,35.0891,菏泽市,定陶老年大学,臭氧1小时,54,53,71,19,33,163,,192,189,21,16,5,7,0.3,0.4
2024-06-15T2000,3647A,115.4702,35.2706,菏泽市,菏泽医专,臭氧1小时,79,51,75,18,32,183,,204,203,15,14,3,8,0.4,0.5
2024-06-15T2000,2514A,111.5264,24.4172,贺州市,环保小区,,15,11,11,3,6,46,,61,61,9,11,6,6,0.6,0.6
2024-06-15T2000,2515A,111.5608,24.4078,贺州市,政协大楼,,26,24,17,18,7,46,,57,57,12,13,6,6,0.7,0.6
2024-06-15T2000,3534A,111.4744,24.4553,贺州市,西湾,,15,13,13,10,6,41,,64,64,15,14,9,8,0.6,0.5
2024-06-15T2000,2385A,114.17,35.9019,鹤壁市,市监测站,,,49,54,44,37,200,,201,201,20,15,,10,0.7,0.8
2024-06-15T2000,2386A,114.2956,35.7511,鹤壁市,市交警支队,臭氧1小时,84,47,52,32,30,187,,208,208,20,14,7,10,0.5,0.7
2024-06-15T2000,2387A,114.2878,35.7306,鹤壁市,迎宾馆,臭氧1小时,80,,42,34,34,184,,209,207,25,20,10,12,0.4,0.7
2024-06-15T2000,3474A,114.2617,35.6822,鹤壁市,大新区,臭氧1小时,57,43,47,24,25,165,,189,187,30,16,6,9,0.5,0.6
2024-06-15T2000,3596A,114.1572,35.9603,鹤壁市,南山宾馆,臭氧1小时,106,55,42,34,27,211,,205,205,10,6,10,8,0.6,0.9
2024-06-15T2000,2244A,130.2537,47.3416,鹤岗市,哈啤分公司,,14,14,11,8,6,28,,42,32,4,4,16,15,0.3,0.4
2024-06-15T2000,2245A,130.2684,47.3086,鹤岗市,斯达机电,,14,14,13,3,5,26,,40,30,6,6,12,12,0.3,0.3
2024-06-15T2000,2246A,130.3114,47.3388,鹤岗市,东山纸板厂,,10,,9,7,5,17,,39,29,9,5,16,16,0.4,0.3
2024-06-15T2000,2247A,130.1097,47.3382,鹤岗市,五号水库,,15,15,11,3,6,27,,44,34,6,4,9,9,0.1,0.1
2024-06-15T2000,2263A,127.4833,50.2524,黑河市,交通局,,39,39,31,26,17,68,,82,82,10,15,6,12,0.4,0.3
2024-06-15T2000,2264A,127.5144,50.2341,黑河市,环保局,,39,38,28,27,15,71,,86,86,7,14,4,7,0.2,0.3
2024-06-15T2000,2265A,127.5291,50.2472,黑河市,大黑河岛,颗粒物(PM10),65,80,29,12,16,87,,123,120,13,15,5,10,0.5,0.5
2024-06-15T2000,1074A,115.6838,37.7541,衡水市,电机北厂,臭氧1小时,68,51,52,28,35,174,,170,170,11,20,5,6,0.4,0.4
2024-06-15T2000,1075A,115.6303,37.7316,衡水市,市监测站,臭氧1小时,75,54,57,28,27,180,,173,173,12,22,2,2,0.5,0.6
2024-06-15T2000,3188A,115.6683,37.7217,衡水市,市城管局,臭氧1小时,68,60,60,22,31,174,,170,170,18,21,2,4,0.4,0.4
2024-06-15T2000,3459A,115.5989,37.5491,衡水市,地表水厂,臭氧1小时,68,61,58,24,23,174,,166,166,14,24,4,5,0.2,0.3
2024-06-15T2000,2456A,112.5003,26.9167,衡阳市,原169医院,,19,19,21,10,12,37,,62,59,20,15,3,4,0.7,0.8
2024-06-15T2000,2457A,112.6194,26.9258,衡阳市,衡阳化工总厂,,20,12,23,6,10,62,,66,65,5,9,6,6,0.4,0.5
2024-06-15T2000,2458A,112.6211,26.8956,衡阳市,珠晖区环保局,,19,19,24,10,12,56,,66,64,8,8,5,7,0.6,0.7
2024-06-15T2000,2459A,112.6197,26.8733,衡阳市,市委党校,,19,13,18,6,10,60,,68,67,6,9,5,9,0.5,0.6
2024-06-15T2000,2460A,112.6006,26.8919,衡阳市,市监测站,,25,17,20,17,13,57,,70,68,10,9,7,9,0.6,0.6
2024-06-15T2000,2461A,112.5664,26.9056,衡阳市,真空机电公司,,18,16,22,11,12,57,,64,63,9,10,6,7,0.8,0.8
2024-06-15T2000,3399A,112.6703,26.882,衡阳市,师范学院,,19,10,21,7,10,58,,65,64,5,8,7,10,0.6,0.7
2024-06-15T2000,2608A,103.3772,23.3993,红河哈尼族彝族自治州,污水处理厂,,18,18,14,10,10,25,,41,37,15,9,5,6,0.5,0.4
2024-06-15T2000,2609A,103.3861,23.35,红河哈尼族彝族自治州,监测站,,12,12,12,3,9,25,,39,37,10,8,6,7,0.4,0.4
2024-06-15T2000,3038A,103.3758,23.368,红河哈尼族彝族自治州,州图书馆,,10,10,10,3,4,28,,40,38,12,8,2,4,0.3,0.3
2024-06-15T2000,1090A,111.6507,40.7517,呼和浩特市,呼市一监,,36,12,14,3,7,115,,120,120,4,8,8,8,0.4,0.4
2024-06-15T2000,1091A,111.6572,40.8033,呼和浩特市,小召,,35,17,16,3,7,111,,114,114,11,16,7,6,0.3,0.3
2024-06-15T2000,1094A,111.7516,40.8369,呼和浩特市,如意水处理厂,,32,12,20,3,8,102,,109,109,11,17,5,5,0.3,0.3
2024-06-15T2000,1095A,111.7276,40.8062,呼和浩特市,二十九中,,35,13,18,3,7,112,,116,116,11,16,2,2,0.4,0.4
2024-06-15T2000,1096A,111.5512,40.7866,呼和浩特市,工大金川校区,,31,11,15,6,6,97,,108,107,16,16,4,5,0.3,0.3
2024-06-15T2000,1097A,111.717,40.7612,呼和浩特市,化肥厂生活区,,35,19,25,7,8,111,,115,115,9,13,8,9,0.4,0.4
2024-06-15T2000,3698A,111.5968,40.8178,呼和浩特市,红旗小学,,35,9,11,6,7,111,,118,118,10,14,4,4,0.3,0.3
2024-06-15T2000,3699A,111.6518,40.8389,呼和浩特市,海东办,,35,9,13,3,8,112,,117,117,8,13,4,4,0.4,0.4
2024-06-15T2000,2192A,119.7594,49.2261,呼伦贝尔市,区环保局,颗粒物(PM10),58,65,29,30,19,70,,96,93,36,14,5,5,0.6,0.4
2024-06-15T2000,3061A,119.7512,49.1577,呼伦贝尔市,国华电力东,,32,26,18,22,12,101,,104,104,7,6,3,3,0.4,0.4
2024-06-15T2000,1250A,120.0751,30.8669,湖州市,城西水厂,臭氧1小时,115,49,37,28,22,229,,238,238,20,19,4,5,0.5,0.5
2024-06-15T2000,2873A,120.0875,30.8955,湖州市,仁皇山新区,臭氧1小时,104,49,36,30,26,207,,240,240,38,24,5,6,0.8,0.7
2024-06-15T2000,2907A,120.1844,30.8596,湖州市,吴兴区站,臭氧1小时,106,51,34,27,24,211,,226,226,23,16,7,7,0.6,0.5
2024-06-15T2000,3562A,120.4148,30.8538,湖州市,南浔区站,臭氧1小时,58,47,34,33,25,166,,215,215,18,16,4,5,0.6,0.5
2024-06-15T2000,1607A,120.9092,40.7136,葫芦岛市,龙港区,,36,16,24,13,15,113,,113,113,10,20,6,17,0.4,0.5
2024-06-15T2000,1608A,120.8392,40.7514,葫芦岛市,化工街,,34,19,20,3,7,106,,106,106,20,21,11,14,0.5,0.6
2024-06-15T2000,1609A,120.8341,40.7073,葫芦岛市,新区,,38,19,22,9,9,121,,120,120,16,27,6,7,0.4,0.4
2024-06-15T2000,1610A,120.8695,40.7677,葫芦岛市,东城区,,37,28,22,14,9,116,,119,119,25,22,7,14,0.6,0.6
2024-06-15T2000,2482A,109.5981,27.5721,怀化市,林科所,,28,27,21,11,10,87,,121,118,2,7,4,5,0.6,0.6
2024-06-15T2000,2483A,109.9453,27.5444,怀化市,河西地税局,,40,40,23,21,16,69,,98,96,18,8,10,10,0.8,0.7
2024-06-15T2000,2484A,109.9781,27.5342,怀化市,市四医院,,27,,27,17,19,84,,94,94,6,10,4,4,0.8,0.7
2024-06-15T2000,2485A,109.9972,27.5578,怀化市,监测楼,,33,29,28,23,19,89,,100,100,4,8,8,8,0.7,0.7
2024-06-15T2000,2486A,110.0394,27.583,怀化市,市委党校,,31,31,24,16,18,84,,98,98,7,7,4,8,0.6,0.7
2024-06-15T2000,1210A,119.036,33.5981,淮安市,钵池山,臭氧1小时,101,58,50,24,25,201,,218,218,19,17,8,8,0.5,0.5
2024-06-15T2000,1211A,119.007,33.575,淮安市,北京南路,臭氧1小时,93,66,54,26,24,194,,221,221,21,16,8,9,0.6,0.7
2024-06-15T2000,1212A,118.989,33.6067,淮安市,市监测站,臭氧1小时,101,73,52,36,26,201,,226,226,28,19,9,9,0.7,0.8
2024-06-15T2000,1213A,119.135,33.5039,淮安市,楚州区监测站,臭氧1小时,88,68,71,23,25,190,,219,219,20,18,6,6,0.5,0.5
2024-06-15T2000,1214A,119.0186,33.6297,淮安市,淮阴区监测站,臭氧1小时,95,68,53,30,31,196,,218,218,29,21,9,10,0.5,0.6
2024-06-15T2000,3426A,118.8755,33.2894,淮安市,新华书店,臭氧1小时,75,45,44,22,22,180,,214,214,24,14,7,7,0.5,0.5
2024-06-15T2000,2282A,116.8004,33.975,淮北市,监测站,臭氧1小时,85,25,62,15,26,188,,191,191,14,7,5,6,0.3,0.5
2024-06-15T2000,2283A,116.8091,33.9007,淮北市,烈山区政府,臭氧1小时,89,36,75,10,23,191,,193,193,11,7,4,5,0.4,0.6
2024-06-15T2000,3330A,116.8873,33.9836,淮北市,杜集区检察院,臭氧1小时,107,36,71,15,29,213,,205,205,14,8,8,7,0.3,0.5
2024-06-15T2000,4017A,116.7923,33.9535,淮北市,市博物馆,臭氧1小时,98,37,64,16,28,198,,197,197,11,6,4,5,0.4,0.6
2024-06-15T2000,2277A,116.8305,32.7727,淮南市,潘集区政府,臭氧1小时,93,72,62,35,27,194,,200,200,11,13,8,7,0.4,0.4
2024-06-15T2000,2278A,117.0067,32.6524,淮南市,师范学院,,,56,62,25,30,176,,177,177,,10,8,10,0.3,0.3
2024-06-15T2000,2279A,116.8569,32.5951,淮南市,谢家集区政府,臭氧1小时,88,44,56,14,15,190,,196,196,12,13,34,8,0.5,0.3
2024-06-15T2000,2280A,116.8281,32.633,淮南市,八公山区政府,臭氧1小时,85,62,61,34,28,188,,195,195,10,10,3,4,0.6,0.5
2024-06-15T2000,2281A,116.6325,32.6201,淮南市,焦岗湖风景区管理处,,43,43,47,21,15,129,,123,123,18,18,8,8,0.4,0.4
2024-06-15T2000,2894A,117.0566,32.6531,淮南市,经济技术开发区消防队,臭氧1小时,82,35,52,16,24,185,,184,184,16,17,4,5,0.3,0.4
2024-06-15T2000,3329A,117.0108,32.5893,淮南市,山南新区,臭氧1小时,103,58,70,28,29,206,,200,200,14,14,7,7,0.5,0.5
2024-06-15T2000,2446A,114.9028,30.4742,黄冈市,职工中心,,41,26,40,14,22,131,,146,145,2,13,6,9,0.5,0.6
2024-06-15T2000,2929A,114.8858,30.4519,黄冈市,红卫路,,43,20,42,18,23,136,,156,154,5,16,6,12,0.5,0.6
2024-06-15T2000,3398A,114.9136,30.4445,黄冈市,市林业局,,43,20,44,15,25,135,,153,152,4,18,2,8,0.6,0.6
2024-06-15T2000,2672A,102.0199,35.5102,黄南藏族自治州,同仁县隆务镇,,,25,26,12,11,,,104,104,4,3,11,10,0.7,0.6
2024-06-15T2000,2295A,118.2903,29.6963,黄山市,延安路89号,,50,50,37,10,10,92,,130,126,5,4,6,5,0.6,0.5
2024-06-15T2000,2296A,118.327,29.7178,黄山市,黄山东路89号,,30,24,23,19,10,93,,124,121,4,6,6,6,0.4,0.4
2024-06-15T2000,2297A,118.1371,30.2756,黄山市,黄山区政府5号楼,颗粒物(PM10),54,58,38,33,21,98,,144,142,11,6,6,6,0.6,0.5
2024-06-15T2000,2423A,115.0601,30.2313,黄石市,沈家营,,44,44,46,9,16,124,,139,137,16,30,5,15,0.4,0.7
2024-06-15T2000,2424A,115.0817,30.2006,黄石市,陈家湾,,41,37,44,11,18,131,,140,140,6,16,3,7,0.6,0.7
2024-06-15T2000,2426A,114.8988,30.2019,黄石市,铁山,,42,40,40,8,16,133,,150,147,2,14,12,11,0.3,0.3
2024-06-15T2000,2427A,115.0307,30.2092,黄石市,团城山,,44,37,45,7,14,140,,154,152,5,16,10,16,0.4,0.7
2024-06-15T2000,3149A,115.0235,30.1578,黄石市,笔架山北路,,41,38,55,6,15,131,,143,143,1,16,6,8,0.4,0.7
2024-06-15T2000,1392A,114.4183,23.0528,惠州市,河南岸金山湖子站,,18,9,19,3,12,56,,62,60,7,10,4,3,0.4,0.5
2024-06-15T2000,1393A,114.4053,23.0822,惠州市,下埔横江三路子站,,19,9,22,6,11,59,,70,68,7,11,5,6,0.5,0.6
2024-06-15T2000,1394A,114.4103,23.1142,惠州市,江北云山西路子站,,20,6,21,6,12,64,,74,73,1,9,7,8,0.4,0.5
2024-06-15T2000,1395A,114.4645,22.7833,惠州市,惠阳区承修路船湖子站,,16,12,19,8,9,49,,51,51,14,13,2,2,0.6,0.6
2024-06-15T2000,1396A,114.5317,22.7422,惠州市,大亚湾管委会子站,,,,21,,10,49,,68,53,14,15,4,6,,0.7
2024-06-15T2000,3314A,114.4338,22.8134,惠州市,惠阳秋长,,20,17,24,3,10,62,,64,64,10,16,5,5,0.6,0.6
2024-06-15T2000,3452A,114.6517,22.775,惠州市,大亚湾霞涌,,18,12,18,12,10,43,,54,44,10,11,3,3,0.5,0.5
2024-06-15T2000,2240A,130.9762,45.3001,鸡西市,环保局,,19,15,18,7,8,59,,68,64,11,8,6,7,0.4,0.4
2024-06-15T2000,2243A,130.9429,45.3039,鸡西市,第一中学,,20,17,16,8,7,61,,80,73,8,6,7,8,0.4,0.4
2024-06-15T2000,3707A,131.0207,45.3073,鸡西市,欧美日汽修厂,,17,14,19,10,9,54,,68,64,14,9,6,6,0.5,0.5
2024-06-15T2000,3709A,130.9967,45.3106,鸡西市,市政设施管理处,,19,15,18,9,8,59,,70,64,9,11,7,7,0.5,0.5
2024-06-15T2000,2367A,114.9754,27.0803,吉安市,红声器材厂,,30,27,19,21,10,42,,58,57,18,11,16,13,0.5,0.4
2024-06-15T2000,2368A,114.9658,27.0999,吉安市,市森林工业局,,29,29,17,20,11,32,,53,50,18,10,17,13,0.7,0.6
2024-06-15T2000,2369A,114.99,27.1312,吉安市,市环境监测站,,28,28,18,14,10,55,,58,58,7,8,22,16,0.6,0.5
2024-06-15T2000,2370A,115.0093,27.0968,吉安市,青原区法院,,36,34,20,25,12,27,,45,44,24,14,16,18,0.5,0.4
2024-06-15T2000,1772A,126.54,43.8622,吉林市,哈达湾,,26,15,15,6,7,82,,79,79,11,9,4,4,0.4,0.4
2024-06-15T2000,1773A,126.5844,43.8358,吉林市,东局子,,18,18,17,9,8,46,,76,71,36,12,4,4,0.5,0.4
2024-06-15T2000,1774A,126.5052,43.8245,吉林市,电力学院,,29,29,18,14,8,53,,81,78,21,11,8,7,0.5,0.3
2024-06-15T2000,1775A,126.6133,43.8972,吉林市,江北,颗粒物(PM10),51,51,19,19,10,32,,70,64,40,16,7,6,0.7,0.5
2024-06-15T2000,1776A,126.555,43.8306,吉林市,江南公园,,23,20,12,16,8,69,,76,76,20,12,4,3,0.5,0.5
2024-06-15T2000,1778A,126.7061,43.7133,吉林市,丰满,,,,,,,,,,,,,,,,
2024-06-15T2000,2868A,126.4739,43.953,吉林市,九站,,26,24,15,15,9,32,,80,72,52,13,6,5,0.6,0.5
2024-06-15T2000,1299A,116.9862,36.6114,济南市,科干所,,47,41,60,20,31,148,,171,167,24,20,8,9,0.3,0.4
2024-06-15T2000,1300A,116.9376,36.665,济南市,农科所,颗粒物(PM10),62,73,66,20,28,166,,178,173,26,24,8,8,0.5,0.5
2024-06-15T2000,1301A,117.1265,36.6734,济南市,开发区,臭氧1小时,60,68,62,27,32,168,,174,170,22,21,8,10,0.4,0.5
2024-06-15T2000,1303A,117.0624,36.6868,济南市,省种子仓库,颗粒物(PM10),69,88,77,34,38,166,,175,169,31,21,9,9,0.4,0.5
2024-06-15T2000,1304A,116.9489,36.6447,济南市,机床二厂,臭氧1小时,64,66,70,17,27,171,,187,183,21,19,10,11,0.3,0.4
2024-06-15T2000,1305A,117.0495,36.663,济南市,市监测站,臭氧1小时,65,76,70,27,34,172,,180,175,28,25,12,13,0.4,0.6
2024-06-15T2000,1306A,116.7675,36.5484,济南市,长清党校,颗粒物(PM10),52,54,76,15,33,155,,192,185,16,18,8,9,0.4,0.7
2024-06-15T2000,1616A,117.6795,36.229,济南市,技术学院,颗粒物(PM10),56,61,43,24,25,158,,184,179,27,18,15,10,0.5,0.7
2024-06-15T2000,1961A,117.532,36.6868,济南市,东山小学,颗粒物(PM10),58,66,59,24,25,151,,178,170,20,22,7,7,0.6,0.8
2024-06-15T2000,3059A,117.7161,36.2049,济南市,泰兴公司,,50,44,37,24,22,158,,186,182,17,14,10,9,0.4,0.6
2024-06-15T2000,3064A,117.6867,36.2171,济南市,莱芜战役纪念馆,颗粒物(PM10),59,68,44,19,21,161,,184,180,18,15,12,9,0.5,0.7
2024-06-15T2000,3494A,117.1673,36.9782,济南市,济阳区政府,臭氧1小时,59,63,71,29,35,167,,169,168,14,21,9,11,0.6,0.6
2024-06-15T2000,3495A,117.1171,36.63,济南市,锦屏中学,臭氧1小时,72,54,68,22,35,177,,181,178,10,11,7,8,0.2,0.4
2024-06-15T2000,3682A,116.9814,36.6819,济南市,济南四建,颗粒物(PM10),58,66,63,22,34,160,,174,169,18,19,8,9,0.5,0.7
2024-06-15T2000,1653A,116.6251,35.4302,济宁市,火炬城,,,88,56,22,28,166,,188,187,,11,8,10,,0.7
2024-06-15T2000,1655A,116.5491,35.4042,济宁市,电化厂,颗粒物(PM10),51,52,61,22,29,154,,200,195,20,16,4,7,0.3,0.6
2024-06-15T2000,3500A,116.5814,35.3707,济宁市,北湖一中,,47,33,48,12,24,149,,191,188,28,18,8,10,0.4,0.7
2024-06-15T2000,3501A,116.8249,35.5593,济宁市,服务中心,臭氧1小时,77,43,47,21,25,181,,186,186,19,16,3,2,0.6,0.7
2024-06-15T2000,3678A,116.5907,35.4054,济宁市,市第七中学,臭氧1小时,58,38,57,12,24,166,,200,197,11,15,5,6,0.4,0.7
2024-06-15T2000,2255A,130.2751,46.8028,佳木斯市,佳纺,,13,13,8,8,7,28,,38,32,11,8,1,4,0.4,0.4
2024-06-15T2000,2256A,130.3995,46.8307,佳木斯市,发电厂,,15,8,17,7,6,47,,41,41,2,4,4,6,0.4,0.4
2024-06-15T2000,2257A,130.3258,46.7975,佳木斯市,环保局,,19,19,12,10,7,23,,33,24,16,14,6,6,0.6,0.5
2024-06-15T2000,2258A,130.3648,46.8032,佳木斯市,十一中,,14,13,8,8,7,44,,40,39,8,8,6,6,0.4,0.4
2024-06-15T2000,2259A,130.3794,46.7588,佳木斯市,四丰,,11,8,6,3,6,17,,31,25,21,10,1,1,0.6,0.6
2024-06-15T2000,1252A,120.7436,30.778,嘉兴市,清河小学,,31,31,28,15,18,95,,213,204,34,17,7,5,0.6,0.7
2024-06-15T2000,1253A,120.726,30.7478,嘉兴市,嘉兴学院,,32,32,28,19,19,93,,189,182,20,16,4,4,0.6,0.5
2024-06-15T2000,2872A,120.7846,30.7525,嘉兴市,南湖区残联,,32,26,31,22,21,90,,215,207,28,15,6,6,0.5,0.5
2024-06-15T2000,3407A,120.6916,30.7739,嘉兴市,秀洲住建,,,32,29,18,19,112,,220,213,16,11,6,5,,0.6
2024-06-15T2000,1945A,98.2908,39.7711,嘉峪关市,气象局,颗粒物(PM10),68,85,104,36,32,119,,121,121,8,19,7,15,0.4,0.6
2024-06-15T2000,2884A,98.2672,39.7978,嘉峪关市,酒钢宾馆,颗粒物(PM10),70,90,129,48,40,120,,117,117,13,26,10,52,0.0,0.8
2024-06-15T2000,3248A,98.2643,39.7724,嘉峪关市,雄关区,颗粒物(PM10),66,82,92,27,28,114,,114,114,12,28,10,17,0.3,0.5
2024-06-15T2000,1383A,113.1064,22.6058,江门市,北街,,15,7,19,3,9,45,,56,56,16,11,3,2,0.5,0.5
2024-06-15T2000,1384A,113.0731,22.5835,江门市,西区,,14,,20,8,10,44,,59,59,18,12,6,6,0.5,0.5
2024-06-15T2000,1385A,113.0219,22.5311,江门市,圭峰西,,16,,21,3,8,49,,58,58,4,7,3,4,0.2,0.3
2024-06-15T2000,1386A,113.0828,22.5947,江门市,东湖,,13,11,19,3,6,41,,58,58,15,12,5,6,0.4,0.4
2024-06-15T2000,3311A,113.1075,22.5647,江门市,江海富民,,14,13,29,3,14,44,,60,60,19,12,5,4,0.5,0.5
2024-06-15T2000,3449A,113.05,22.4667,江门市,新会银湖,,10,8,19,3,9,31,,57,54,19,7,5,4,0.5,0.5
2024-06-15T2000,1828A,113.227,35.2125,焦作市,市环保局,臭氧1小时,80,50,58,32,34,184,,207,207,13,12,6,5,0.4,0.5
2024-06-15T2000,1830A,113.1992,35.2590,焦作市,影视城,,,,,,,,,,,,,,,,
2024-06-15T2000,3169A,113.2725,35.2067,焦作市,太极体育中心,臭氧1小时,78,35,61,28,34,182,,202,202,13,13,4,8,0.6,0.7
2024-06-15T2000,3335A,113.3137,35.2641,焦作市,马村街道办,臭氧1小时,68,50,63,22,25,174,,197,196,14,14,3,5,0.4,0.5
2024-06-15T2000,3336A,113.2465,35.2373,焦作市,焦作技师学院,臭氧1小时,75,63,58,27,29,180,,200,200,14,13,3,4,0.5,0.6
2024-06-15T2000,3477A,113.1656,35.2539,焦作市,中站许衡医院,臭氧1小时,74,50,37,21,28,179,,193,193,16,14,7,7,0.4,0.5
2024-06-15T2000,3981A,113.2449,35.1803,焦作市,原李万街道办,臭氧1小时,77,66,53,24,29,181,,199,199,14,13,8,10,0.5,0.6
2024-06-15T2000,1708A,116.3701,23.5345,揭阳市,新兴,,20,,33,14,17,43,,54,53,8,21,3,7,0.6,0.7
2024-06-15T2000,1709A,116.3264,23.5443,揭阳市,西马,,13,10,28,8,12,39,,52,49,9,16,2,3,0.7,0.8
2024-06-15T2000,1710A,116.3611,23.5626,揭阳市,东兴,,16,,31,11,12,47,,57,57,7,19,2,2,0.7,0.8
2024-06-15T2000,1711A,116.4151,23.5294,揭阳市,渔湖,,,,39,4,12,45,,54,54,12,24,4,7,0.5,0.7
2024-06-15T2000,3320A,116.403,23.5699,揭阳市,曲溪,,17,17,24,11,14,44,,64,64,13,21,3,7,0.5,0.6
2024-06-15T2000,1944A,102.1692,38.5167,金昌市,天庆家园,颗粒物(PM10),75,100,84,39,39,141,,155,155,11,11,6,12,0.6,0.5
2024-06-15T2000,3170A,102.1864,38.5253,金昌市,市委党校,颗粒物(PM10),99,148,103,42,36,139,,152,152,6,7,8,14,0.5,0.6
2024-06-15T2000,4022A,102.1647,38.5371,金昌市,金川区人防中心,颗粒物(PM10),89,128,92,48,33,148,,164,164,8,9,10,12,0.5,0.5
2024-06-15T2000,1262A,119.647,29.077,金华市,十五中,,37,26,33,15,20,116,,160,158,10,12,4,4,0.5,0.5
2024-06-15T2000,1263A,119.686,29.1029,金华市,监测站,,42,32,33,20,20,132,,161,161,15,12,2,3,0.5,0.5
2024-06-15T2000,3659A,119.656,29.1131,金华市,气象局,,45,34,32,22,14,143,,169,169,17,14,6,6,0.4,0.4
2024-06-15T2000,1767A,121.1115,41.0879,锦州市,南山,,39,32,16,10,8,122,,114,114,20,14,6,7,0.4,0.5
2024-06-15T2000,1768A,121.0533,40.8434,锦州市,开发区,,43,43,27,16,15,98,,113,113,36,26,19,13,0.8,0.6
2024-06-15T2000,1769A,121.1836,41.1119,锦州市,百股街道,,39,26,17,3,5,123,,116,116,18,16,9,11,0.6,0.7
2024-06-15T2000,1770A,121.1178,41.1222,锦州市,天安街道,,34,31,18,7,11,107,,104,104,20,15,5,7,0.6,0.2
2024-06-15T2000,1771A,121.1303,41.1386,锦州市,北湖公园,,35,8,14,7,10,111,,105,105,17,10,8,10,0.5,0.5
2024-06-15T2000,2160A,112.85,35.5051,晋城市,自来水公司,臭氧1小时,104,49,67,22,31,208,,209,209,16,22,8,14,0.7,1.4
2024-06-15T2000,2161A,112.8318,35.4936,晋城市,白云商贸,,,,76,17,34,213,,213,213,16,23,9,12,0.6,1.2
2024-06-15T2000,2162A,112.8508,35.4887,晋城市,市环保局,臭氧1小时,104,49,72,24,33,207,,209,209,19,25,8,11,0.5,1.2
2024-06-15T2000,2163A,112.8676,35.4897,晋城市,技术学院,臭氧1小时,103,46,63,22,34,205,,206,206,20,28,9,10,0.6,1.1
2024-06-15T2000,2165A,112.8453,35.546,晋城市,白马寺,,,,,,,,,,,,,,,,
2024-06-15T2000,3620A,112.8271,35.4828,晋城市,泽州一中,臭氧1小时,95,48,68,22,31,196,,197,197,16,24,9,10,0.6,1.1
2024-06-15T2000,2171A,112.7532,37.6945,晋中市,锦纶小区,臭氧1小时,57,46,41,12,15,165,,181,181,14,17,9,10,0.2,0.3
2024-06-15T2000,2173A,112.7249,37.7067,晋中市,南都小区,臭氧1小时,60,49,47,22,21,168,,186,186,12,17,9,9,0.4,0.3
2024-06-15T2000,2174A,112.6991,37.6982,晋中市,榆次区政府,臭氧1小时,60,48,44,26,21,168,,186,186,17,21,9,9,0.2,0.3
2024-06-15T2000,2865A,112.7195,37.6828,晋中市,榆次三中,臭氧1小时,63,51,39,19,14,170,,190,190,14,15,8,9,0.4,0.4
2024-06-15T2000,2439A,112.2014,31.0481,荆门市,竹园小学,颗粒物(PM10),58,66,54,33,24,147,,188,181,19,15,14,12,0.7,0.7
2024-06-15T2000,2440A,112.1969,30.9891,荆门市,掇刀,颗粒物(PM10),58,66,47,28,24,154,,186,180,18,15,11,10,0.7,0.7
2024-06-15T2000,2441A,112.2213,31.0386,荆门市,石化一小,颗粒物(PM10),57,64,53,25,20,148,,194,186,20,20,21,19,0.6,0.6
2024-06-15T2000,3012A,112.1849,31.0362,荆门市,西山林语,颗粒物(PM10),55,59,45,32,25,141,,194,186,12,10,7,9,0.7,0.7
2024-06-15T2000,3547A,112.1632,31.0138,荆门市,龙泉中学南校,颗粒物(PM10),55,60,48,24,23,152,,192,185,14,19,8,10,0.6,0.7
2024-06-15T2000,1844A,112.2494,30.3197,荆州市,市图书馆,,49,42,40,32,29,156,,185,184,9,20,6,7,0.6,0.6
2024-06-15T2000,1845A,112.2008,30.3544,荆州市,市委党校,臭氧1小时,69,49,43,49,33,175,,191,191,19,21,5,8,0.5,0.5
2024-06-15T2000,3194A,112.2747,30.3122,荆州市,管委会,,48,44,41,25,29,153,,183,183,12,19,4,5,0.6,0.6
2024-06-15T2000,3548A,112.1655,30.3364,荆州市,学苑路,,,47,46,33,37,173,,196,196,12,16,,6,,0.6
2024-06-15T2000,2342A,117.3102,29.3867,景德镇市,王港中学,,,,,,,,,,,,,,,,
2024-06-15T2000,2343A,117.2117,29.2933,景德镇市,老干部活动中心,,27,27,14,17,9,63,,88,85,10,7,6,6,0.5,0.5
2024-06-15T2000,2344A,117.1894,29.2789,景德镇市,兽医站,,22,22,18,10,8,57,,96,91,22,7,14,6,0.7,0.5
2024-06-15T2000,2345A,117.1547,29.2617,景德镇市,台达陶瓷,,39,32,18,27,14,55,,89,85,15,10,13,9,0.3,0.3
2024-06-15T2000,2346A,117.2461,29.2956,景德镇市,陶研所,,21,20,16,9,6,65,,90,87,2,4,4,4,0.2,0.2
2024-06-15T2000,1803A,115.9872,29.6815,九江市,十里,,,25,23,14,14,84,,88,88,15,22,11,11,,0.7
2024-06-15T2000,1804A,115.9584,29.7046,九江市,茅山头,,36,36,24,17,13,85,,102,99,16,22,6,8,0.6,0.6
2024-06-15T2000,1805A,115.9877,29.7295,九江市,西园,,26,18,19,13,12,61,,106,100,52,37,11,13,0.7,0.7
2024-06-15T2000,1806A,116.0172,29.6547,九江市,五七二七厂,,24,18,14,11,11,76,,93,93,9,10,8,8,0.6,0.6
2024-06-15T2000,1808A,115.9114,29.6038,九江市,综合工业园,,33,33,24,18,12,73,,102,100,19,21,8,10,0.5,0.5
2024-06-15T2000,1809A,116.0721,29.7535,九江市,石化总厂,,27,27,24,18,13,86,,93,93,17,25,10,13,0.7,0.7
2024-06-15T2000,1810A,115.9773,29.5698,九江市,庐山气象台,,35,22,14,16,12,110,,107,107,2,2,7,9,1.3,1
2024-06-15T2000,3190A,116.0254,29.6994,九江市,外国语学校,,,,18,,12,,,49,,,26,,16,,0.5
2024-06-15T2000,2658A,98.5061,39.7443,酒泉市,仓门街子站,颗粒物(PM10),69,88,93,17,17,109,,118,118,16,18,5,10,0.3,0.3
2024-06-15T2000,2659A,98.4989,39.7256,酒泉市,油田生活基地,颗粒物(PM10),71,92,100,25,17,114,,123,123,19,22,4,27,0.2,0.2
2024-06-15T2000,2698A,76.0072,39.4467,喀什地区,巡警大队,颗粒物(PM10),81,112,95,3,9,109,,122,122,20,14,3,3,0.1,0.1
2024-06-15T2000,2699A,75.9755,39.4694,喀什地区,吾办,颗粒物(PM10),67,84,97,16,17,112,,124,124,9,11,2,2,0.2,0.3
2024-06-15T2000,4027A,75.9483,39.4689,喀什地区,老干局,颗粒物(PM10),69,87,181,14,16,113,,127,127,7,15,4,4,0.2,0.1
2024-06-15T2000,1824A,114.3389,34.7781,开封市,肿瘤医院,臭氧1小时,87,61,70,22,22,189,,199,199,12,10,2,3,0.5,0.6
2024-06-15T2000,1826A,114.2885,34.7965,开封市,世纪星幼儿园,臭氧1小时,103,55,63,24,29,205,,209,209,10,11,3,4,0.5,0.6
2024-06-15T2000,3147A,114.3438,34.8106,开封市,龙亭公园,,,,,,,,,,,,,,,,
2024-06-15T2000,3210A,114.3644,34.7964,开封市,汴京公园,臭氧1小时,100,60,67,23,31,200,,208,208,14,13,2,4,0.5,0.7
2024-06-15T2000,3473A,114.2485,34.8306,开封市,技师学院,臭氧1小时,100,43,63,38,33,200,,211,211,14,14,3,6,0.6,0.8
2024-06-15T2000,3592A,114.4644,34.7556,开封市,祥符区生态环境局,臭氧1小时,62,64,78,26,32,169,,198,195,40,21,3,7,0.6,0.8
2024-06-15T2000,1951A,84.895,45.6094,克拉玛依市,长征新村,,39,12,12,8,5,122,,124,124,4,6,9,9,0.1,0.1
2024-06-15T2000,1952A,84.8988,45.5893,克拉玛依市,南林小区,,39,15,11,8,9,123,,126,126,4,6,10,10,0.1,0.1
2024-06-15T2000,1954A,84.905,44.3396,克拉玛依市,独山子区,,44,19,18,6,6,139,,132,132,6,8,9,9,0.3,0.2
2024-06-15T2000,1955A,85.6979,46.098,克拉玛依市,乌尔禾区商贸楼,,40,21,13,8,6,125,,124,124,5,4,8,10,0.2,0.2
2024-06-15T2000,3612A,85.1045,45.6899,克拉玛依市,白碱滩区新站,,41,18,17,11,14,131,,134,134,4,5,9,9,0,0
2024-06-15T2000,2697A,76.1454,39.7142,克孜勒苏柯尔克孜自治州,市人民政府,,39,27,72,12,18,124,,133,133,4,4,7,8,0.3,0.3
2024-06-15T2000,3665A,76.1658,39.7157,克孜勒苏柯尔克孜自治州,克州文化中心,,40,13,86,12,19,126,,136,135,3,2,9,10,0.2,0.2
2024-06-15T2000,1450A,102.8204,24.8886,昆明市,呈贡新区,,31,31,29,16,18,95,,95,95,10,11,11,10,0.6,0.7
2024-06-15T2000,1451A,102.6251,24.9608,昆明市,西山森林公园,,,,,,,,,,,,,,,,
2024-06-15T2000,1452A,102.7252,25.0902,昆明市,龙泉镇,,27,22,16,14,10,85,,97,97,13,8,6,6,0.6,0.6
2024-06-15T2000,1453A,102.7266,25.0375,昆明市,东风东路,,29,23,23,14,13,90,,92,92,16,10,2,3,0.6,0.6
2024-06-15T2000,1454A,102.6742,25.0669,昆明市,金鼎山,,31,31,22,10,10,93,,101,101,20,10,10,10,0.5,0.4
2024-06-15T2000,1455A,102.6644,25.0401,昆明市,碧鸡广场,,30,18,23,6,11,94,,102,102,22,10,2,2,0.6,0.5
2024-06-15T2000,3179A,102.7494,25.0119,昆明市,官渡区博物馆,,29,21,24,10,12,90,,98,98,22,17,8,8,0.5,0.5
2024-06-15T2000,3375A,102.8017,24.8336,昆明市,青年创业园,,27,17,24,15,16,85,,99,99,11,11,7,8,0.5,0.5
2024-06-15T2000,3550A,102.7997,24.9786,昆明市,昆明学院,,30,27,33,14,20,94,,100,100,23,20,8,9,0.6,0.6
2024-06-15T2000,3551A,102.5967,24.6736,昆明市,晋宁区生态环境分局,,20,20,29,3,16,59,,114,111,9,13,1,2,0.5,0.5
2024-06-15T2000,3552A,102.6678,24.9856,昆明市,云天化总部,,33,16,24,12,18,103,,101,101,16,14,6,6,0.6,0.6
2024-06-15T2000,1456A,91.1319,29.6514,拉萨市,八廓街,,45,14,22,10,10,142,,135,135,10,22,9,8,0.3,0.3
2024-06-15T2000,1457A,91.1221,29.6747,拉萨市,市环保局,,40,8,20,8,9,128,,131,131,18,17,7,7,0.5,0.4
2024-06-15T2000,1458A,91.0874,29.6475,拉萨市,区监测站,,38,19,18,7,9,121,,124,124,21,18,6,6,0.5,0.4
2024-06-15T2000,1459A,91.1774,29.6541,拉萨市,西藏大学,,45,,18,9,9,144,,137,137,8,13,7,7,0.3,0.3
2024-06-15T2000,1460A,90.9798,29.6588,拉萨市,区辐射站,,38,22,15,3,7,119,,124,124,17,11,7,7,0.4,0.4
2024-06-15T2000,1461A,91.0834,29.6292,拉萨市,拉萨火车站,,40,6,16,6,8,127,,125,125,15,12,8,7,0.2,0.2
2024-06-15T2000,2520A,109.2203,23.7256,来宾市,来宾技工学校,,28,28,28,16,15,45,,67,65,9,12,5,5,0.9,0.8
2024-06-15T2000,3535A,109.1781,23.7297,来宾市,兴宾区政府,,23,23,19,16,13,46,,69,68,15,8,5,5,0.8,0.7
2024-06-15T2000,4002A,109.2416,23.7461,来宾市,中南小学,,29,25,27,20,14,50,,70,68,9,13,1,1,1.1,1
2024-06-15T2000,1476A,103.631,36.1031,兰州市,兰炼宾馆,,45,45,53,26,29,111,,168,160,19,34,8,30,0.3,0.5
2024-06-15T2000,1477A,104.1373,35.9454,兰州市,榆中兰大校区,,,,,,,,,,,,,,,,
2024-06-15T2000,1478A,103.8412,36.0726,兰州市,生物制品所,颗粒物(PM10),53,56,52,29,29,95,,142,135,31,37,9,15,0.4,0.4
2024-06-15T2000,1479A,103.831,36.0464,兰州市,铁路设计院,,40,40,50,24,23,110,,144,140,26,44,8,14,0.3,0.4
2024-06-15T2000,3186A,103.7158,36.1058,兰州市,教育港,颗粒物(PM10),55,59,47,28,25,115,,161,158,17,34,9,20,0.3,0.5
2024-06-15T2000,3241A,103.7439,36.0842,兰州市,百合公园,,39,39,47,21,20,108,,148,145,19,39,3,13,0.3,0.3
2024-06-15T2000,3242A,103.9611,35.998,兰州市,和平,,47,47,43,25,21,126,,146,144,13,19,8,9,0.4,0.4
2024-06-15T2000,3245A,103.6633,36.533,兰州新区,新区管委会,颗粒物(PM10),60,69,43,22,22,132,,155,153,8,20,5,21,0.3,0.4
2024-06-15T2000,3246A,103.6975,36.4789,兰州新区,舟曲中学,颗粒物(PM10),62,74,61,19,22,135,,154,152,11,25,8,19,0.4,0.4
2024-06-15T2000,1067A,116.6708,39.5111,廊坊市,药材公司,,36,36,43,17,22,102,,115,114,18,13,3,3,0.5,0.5
2024-06-15T2000,1068A,116.7214,39.5589,廊坊市,开发区,,33,30,54,17,26,104,,114,114,20,17,3,2,0.2,0.4
2024-06-15T2000,1070A,116.7244,39.5269,廊坊市,北华航天学院,,49,49,53,20,27,112,,112,112,18,16,1,3,0.3,0.4
2024-06-15T2000,2919A,116.7022,39.5453,廊坊市,河北工业大学,,48,48,53,23,24,113,,113,113,13,13,2,2,0.4,0.4
2024-06-15T2000,2535A,103.7723,29.5462,乐山市,花湖湾,,46,,43,26,34,147,,173,171,12,24,4,7,0.2,0.6
2024-06-15T2000,2536A,103.7627,29.5844,乐山市,牛耳桥,,46,35,49,22,33,147,,179,176,17,32,3,6,0.5,0.7
2024-06-15T2000,2537A,103.7508,29.6006,乐山市,市第三水厂,,48,36,51,21,31,152,,182,180,14,33,4,6,0.5,0.7
2024-06-15T2000,2538A,103.7571,29.5664,乐山市,市监测站,,48,34,54,24,32,153,,187,184,15,27,4,12,0.4,1
2024-06-15T2000,3361A,103.7311,29.5628,乐山市,理工大学,,45,34,49,22,31,142,,191,187,18,27,6,14,0.4,1
2024-06-15T2000,2598A,100.2143,26.8576,丽江市,西南郊,,,,,,,,,,,,,,,,
2024-06-15T2000,2599A,100.2497,26.8802,丽江市,丽江古城,,20,17,16,13,8,62,,74,74,11,10,6,6,0.6,0.5
2024-06-15T2000,2600A,100.2203,26.8906,丽江市,市中心,,21,,10,13,7,65,,81,79,11,7,8,8,0.6,0.5
2024-06-15T2000,1267A,119.914,28.4514,丽水市,监测站大楼,,22,,20,15,16,67,,112,93,9,10,3,3,0.4,0.5
2024-06-15T2000,1268A,119.93,28.4586,丽水市,莲都小学,,23,11,14,3,6,72,,109,98,6,9,4,3,0.4,0.4
2024-06-15T2000,1269A,119.879,28.4231,丽水市,余庄前,,15,12,13,3,6,46,,81,73,8,9,2,2,0.4,0.4
2024-06-15T2000,1173A,119.176,34.5885,连云港市,市环境监测站,臭氧1小时,90,39,29,31,18,192,,201,201,18,16,8,7,0.7,0.6
2024-06-15T2000,3000A,119.3581,34.6972,连云港市,德源药业,,47,29,22,24,13,150,,172,172,13,15,5,6,0.5,0.6
2024-06-15T2000,3007A,119.178,34.844,连云港市,新城一中,,50,31,33,19,18,160,,176,174,9,12,5,6,0.8,1
2024-06-15T2000,3008A,119.3608,34.7519,连云港市,胡沟管理处,颗粒物(PM10),51,51,31,19,14,148,,141,141,28,18,11,10,0.7,0.8
2024-06-15T2000,3009A,119.1478,34.5911,连云港市,矿山设计院,臭氧1小时,83,41,28,22,16,186,,196,196,20,18,6,5,0.7,0.5
2024-06-15T2000,3434A,119.2413,34.6539,连云港市,工贸学校,臭氧1小时,94,40,29,25,16,195,,210,209,14,10,10,9,0.9,0.8
2024-06-15T2000,3664A,119.4172,34.7341,连云港市,连云街道,,43,43,33,20,15,128,,160,160,26,21,4,6,0.6,0.8
2024-06-15T2000,2571A,102.3431,27.8099,凉山彝族自治州,青龙寺,,26,15,19,10,13,83,,108,108,6,6,10,10,0.5,0.5
2024-06-15T2000,2572A,102.2721,27.8415,凉山彝族自治州,邛海宾馆,,29,29,19,16,12,86,,109,109,15,11,13,9,0.7,0.6
2024-06-15T2000,2573A,102.2625,27.898,凉山彝族自治州,西昌市政府,,31,19,25,10,15,97,,114,114,10,9,17,9,0.6,0.5
2024-06-15T2000,2574A,102.2685,27.8851,凉山彝族自治州,凉山州政府,,31,23,23,18,14,97,,115,115,9,11,19,10,0.7,0.7
2024-06-15T2000,2575A,102.237,27.8914,凉山彝族自治州,长安,,30,30,23,17,15,94,,113,113,14,13,21,12,0.9,0.7
2024-06-15T2000,2212A,123.2,41.1953,辽阳市,宏伟区,,30,16,27,3,14,95,,106,106,20,15,10,11,0.4,0.7
2024-06-15T2000,2213A,123.1683,41.2495,辽阳市,新华园,,33,15,35,3,14,105,,114,114,15,17,6,9,0.3,0.7
2024-06-15T2000,2214A,123.2354,41.2639,辽阳市,滨河路,,31,13,26,7,14,98,,109,109,22,21,8,10,0.6,0.8
2024-06-15T2000,2215A,123.149,41.2991,辽阳市,铁西工业园,,30,23,54,10,17,95,,112,112,17,16,16,14,0.7,1.1
2024-06-15T2000,2227A,125.1358,42.8845,辽源市,环保局,,23,14,14,6,6,72,,101,97,20,11,6,10,0.5,0.5
2024-06-15T2000,3239A,125.0764,42.9078,辽源市,银鹰制药,,44,44,13,12,6,72,,100,96,25,18,6,7,0.5,0.6
2024-06-15T2000,1625A,115.9848,36.4372,聊城市,区政府,颗粒物(PM10),51,51,72,24,34,160,,181,179,21,18,7,9,0.5,0.6
2024-06-15T2000,2878A,116.0072,36.4343,聊城市,聊大东校,颗粒物(PM10),51,52,70,23,40,160,,187,184,26,17,5,7,0.5,0.5
2024-06-15T2000,3200A,115.9819,36.4978,聊城市,监控中心,颗粒物(PM10),59,67,77,27,32,136,,175,171,37,22,9,11,0.8,0.8
2024-06-15T2000,3513A,116.0445,36.4361,聊城市,九州社区,颗粒物(PM10),59,68,85,17,32,143,,182,176,24,19,6,8,0.4,0.4
2024-06-15T2000,4018A,116.0567,36.4608,聊城市,星美广场,,,76,85,19,32,,,153,,29,27,9,9,0.5,0.6
2024-06-15T2000,2632A,94.3681,29.6376,林芝市,林芝监测站,,,8,5,3,8,90,,81,81,3,4,,7,0.5,0.5
2024-06-15T2000,2633A,94.3616,29.6616,林芝市,林芝人民医院,,30,,9,6,5,93,,82,82,4,6,8,8,0.2,0.2
2024-06-15T2000,2603A,100.0781,23.8982,临沧市,市环保局,,20,18,16,14,16,36,,50,47,12,9,4,4,0.5,0.5
2024-06-15T2000,2604A,100.0894,23.8822,临沧市,市气象局,,25,,16,17,13,38,,49,46,11,8,7,8,0.6,0.5
2024-06-15T2000,1733A,111.5531,36.0783,临汾市,临钢医院,臭氧1小时,82,100,101,31,42,185,,223,218,12,14,10,11,0.8,0.8
2024-06-15T2000,1734A,111.5028,36.0714,临汾市,技工学校,臭氧1小时,88,98,91,44,47,190,,236,231,20,17,8,11,0.7,0.8
2024-06-15T2000,1736A,111.5018,36.0855,临汾市,市委,臭氧1小时,95,106,92,26,40,196,,245,239,10,8,6,9,1.0,1.1
2024-06-15T2000,3018A,111.505,36.1014,临汾市,唐尧大酒店,臭氧1小时,85,81,78,31,40,188,,231,225,16,15,9,12,0.7,0.8
2024-06-15T2000,3668A,111.5036,36.0414,临汾市,城南,臭氧1小时,98,104,89,48,54,198,,248,240,11,10,6,10,0.8,0.9
2024-06-15T2000,2667A,103.2069,35.5993,临夏回族自治州,环保局,,42,,30,29,26,120,,120,120,2,12,6,7,0.3,0.4
2024-06-15T2000,2668A,103.2417,35.6057,临夏回族自治州,建设大厦,,38,28,30,26,22,114,,115,115,8,14,6,7,0.4,0.4
2024-06-15T2000,1618A,118.3429,35.0532,临沂市,沂河小区,臭氧1小时,68,41,33,21,19,174,,208,205,28,19,11,9,0.3,0.4
2024-06-15T2000,1619A,118.295,35.0583,临沂市,鲁南制药厂,臭氧1小时,62,44,36,12,21,169,,215,208,16,8,10,8,0.4,0.6
2024-06-15T2000,1620A,118.2794,34.9976,临沂市,新光毛纺厂,,49,34,30,14,18,154,,217,207,32,16,4,5,0.6,0.7
2024-06-15T2000,1621A,118.3956,35.0888,临沂市,河东保险公司,,47,27,27,10,16,149,,189,181,20,10,6,5,0.3,0.5
2024-06-15T2000,3370A,118.3564,35.0215,临沂市,十里堡居委,臭氧1小时,74,39,27,12,19,179,,213,209,18,11,9,8,0.5,0.6
2024-06-15T2000,3496A,118.3604,35.1084,临沂市,南坊新区,,48,39,42,17,14,151,,197,187,23,14,9,7,0.6,0.7
2024-06-15T2000,3860A,118.3920,35.0300,临沂市,皇山花园小区,臭氧1小时,53,51,32,21,20,162,,206,201,26,18,7,18,0.6,0.8
2024-06-15T2000,1870A,109.4856,24.3895,柳州市,柳东小学,,29,21,24,20,11,75,,79,79,13,13,6,6,0.7,0.7
2024-06-15T2000,1871A,109.4157,24.3277,柳州市,环保监测站,细颗粒物(PM2.5),67,,25,48,19,73,,84,84,11,16,7,7,0.6,0.6
2024-06-15T2000,1872A,109.389,24.341,柳州市,河西水厂,,23,21,32,13,21,72,,88,88,9,17,6,8,0.5,0.7
2024-06-15T2000,1873A,109.4311,24.2921,柳州市,市四中,,33,33,28,18,11,79,,94,94,10,13,5,6,0.5,0.6
2024-06-15T2000,1874A,109.4006,24.3631,柳州市,市九中,,28,28,37,16,14,70,,87,87,14,20,7,8,0.6,0.7
2024-06-15T2000,1875A,109.4958,24.3134,柳州市,古亭山,,24,24,27,14,12,73,,80,80,10,16,6,6,0.6,0.5
2024-06-15T2000,3402A,109.5422,24.3996,柳州市,市二中,,32,32,26,13,15,67,,82,82,9,17,8,6,0.5,0.5
2024-06-15T2000,2307A,116.5079,31.737,六安市,监测大楼,臭氧1小时,73,47,31,30,21,178,,175,175,8,11,5,5,0.6,0.5
2024-06-15T2000,2308A,116.4738,31.7643,六安市,皖西学院,臭氧1小时,88,56,37,26,19,190,,181,181,6,8,3,3,0.6,0.5
2024-06-15T2000,2309A,116.4996,31.7905,六安市,朝阳厂,臭氧1小时,65,51,31,26,20,172,,171,171,6,6,7,7,0.6,0.4
2024-06-15T2000,2310A,116.5567,31.7886,六安市,开发区,臭氧1小时,74,52,47,25,24,179,,170,170,8,13,12,14,0.7,0.7
2024-06-15T2000,2576A,104.8,26.5892,六盘水市,窑上,,,,,,,,,,,,,,,,
2024-06-15T2000,2577A,104.83,26.5917,六盘水市,黄土坡,,35,21,27,17,18,112,,146,145,9,14,6,8,0.5,0.6
2024-06-15T2000,2578A,104.89,26.5939,六盘水市,水钢,,39,,29,16,19,123,,142,141,5,15,12,17,0.3,0.6
2024-06-15T2000,2579A,104.8475,26.5894,六盘水市,民中,,36,24,26,19,17,115,,144,143,10,18,7,9,0.6,0.7
2024-06-15T2000,2580A,104.9544,26.5506,六盘水市,双水,,38,27,31,15,16,121,,137,136,9,13,7,8,0.3,0.3
2024-06-15T2000,2335A,117.0189,25.1181,龙岩市,龙岩师专,,,,,,,,,,,,,,,,
2024-06-15T2000,2336A,117.0217,25.1033,龙岩市,龙岩市监测站,,28,28,16,14,9,6,,42,32,32,12,2,2,0.9,0.5
2024-06-15T2000,2337A,117.0258,25.0661,龙岩市,闽西职业技术学院,,24,24,18,8,8,18,,43,36,21,11,2,2,0.5,0.4
2024-06-15T2000,2338A,117.0196,25.0306,龙岩市,龙岩学院,,18,18,13,9,7,35,,46,39,5,4,4,3,0.4,0.4
2024-06-15T2000,2665A,105.0822,33.3261,陇南市,汉王镇固水子,,,,,,,,,,,,,,,,
2024-06-15T2000,2885A,104.9339,33.3826,陇南市,滨江中学,颗粒物(PM10),57,63,63,16,18,96,,127,124,12,12,7,14,0.4,0.4
2024-06-15T2000,3247A,104.955,33.371,陇南市,市总工会,,43,43,39,15,13,96,,127,124,12,7,3,10,0.4,0.4
2024-06-15T2000,2487A,111.9589,27.8901,娄底市,电视发射台,,32,32,30,19,13,37,,101,95,5,4,6,6,0.7,0.7
2024-06-15T2000,2488A,111.9975,27.725,娄底市,市监测站,,28,24,43,19,24,83,,96,96,3,12,6,7,0.6,0.9
2024-06-15T2000,2489A,112.0194,27.7314,娄底市,市委党校,,26,,33,18,21,76,,86,86,3,11,8,8,0.7,0.9
2024-06-15T2000,2490A,111.9561,27.7569,娄底市,涟钢,,,,43,5,24,59,,77,75,29,21,14,5,0.7,1.1
2024-06-15T2000,2491A,111.9892,27.7044,娄底市,市政府,,27,18,33,18,21,84,,100,98,7,10,6,6,0.6,0.7
2024-06-15T2000,1893A,105.4324,28.9634,泸州市,九狮山,,38,,41,26,27,83,,147,136,24,23,5,7,0.3,0.3
2024-06-15T2000,1894A,105.4427,28.9063,泸州市,小市上码头,,34,34,54,18,37,86,,153,143,40,21,7,20,0.3,0.5
2024-06-15T2000,1895A,105.4241,28.8573,泸州市,兰田宪桥,,31,27,46,19,36,98,,161,155,17,20,4,4,0.2,0.4
2024-06-15T2000,1896A,105.4379,28.8833,泸州市,市环监站,,33,29,50,19,35,104,,150,144,18,23,5,9,0.5,0.6
2024-06-15T2000,3490A,105.3617,28.7703,泸州市,纳溪区环保局,,32,25,47,14,29,100,,179,172,21,22,3,3,0.4,0.6
2024-06-15T2000,2183A,111.1406,37.5211,吕梁市,环保局,臭氧1小时,57,40,45,9,13,165,,167,166,8,22,4,4,0.3,0.3
2024-06-15T2000,2185A,111.1297,37.5136,吕梁市,自来水公司,,48,33,63,16,22,151,,160,158,17,22,4,6,0.4,0.3
2024-06-15T2000,2867A,111.1283,37.51,吕梁市,马茂庄小学,臭氧1小时,62,40,54,12,16,169,,172,172,12,25,4,5,0.4,0.3
2024-06-15T2000,1812A,112.3931,34.6516,洛阳市,市委党校,臭氧1小时,105,56,58,30,32,210,,220,220,13,11,4,5,0.7,0.8
2024-06-15T2000,1814A,112.4657,34.6871,洛阳市,豫西宾馆,臭氧1小时,98,75,68,27,29,198,,218,218,20,15,5,5,0.6,0.7
2024-06-15T2000,1815A,112.494,34.6886,洛阳市,河南林校,臭氧1小时,93,66,55,26,29,194,,214,214,18,16,6,6,0.4,0.5
2024-06-15T2000,1816A,112.3844,34.623,洛阳市,开发区管委会,臭氧1小时,102,58,57,28,30,204,,214,214,11,12,4,4,0.4,0.5
2024-06-15T2000,1817A,112.4267,34.6258,洛阳市,市委新办公区,臭氧1小时,103,63,55,30,34,205,,213,213,17,12,6,7,0.5,0.5
2024-06-15T2000,3340A,112.6005,34.6326,洛阳市,伊滨,臭氧1小时,104,58,57,32,30,207,,211,211,20,19,8,8,0.3,0.4
2024-06-15T2000,3341A,112.4951,34.6332,洛阳市,中移产业园,臭氧1小时,107,58,58,33,35,213,,213,213,9,13,6,7,0.6,0.7
2024-06-15T2000,3593A,112.5736,34.8993,洛阳市,吉利监测站,臭氧1小时,98,62,64,36,43,198,,207,207,17,22,5,6,0.3,0.5
2024-06-15T2000,3635A,112.3677,34.662,洛阳市,河科大西苑校区,臭氧1小时,101,62,70,24,28,201,,218,218,16,17,5,8,0.7,0.7
2024-06-15T2000,3636A,112.4388,34.6781,洛阳市,英才小学,臭氧1小时,93,70,65,19,22,194,,210,210,13,9,2,4,0.4,0.5
2024-06-15T2000,2399A,114.051,33.5699,漯河市,三五一五工厂,臭氧1小时,103,95,84,26,28,206,,249,245,14,15,6,8,0.6,0.6
2024-06-15T2000,2400A,114.0055,33.5698,漯河市,漯河大学,臭氧1小时,110,89,86,19,35,220,,255,252,16,17,6,8,0.6,0.5
2024-06-15T2000,2401A,114.0138,33.5828,漯河市,市水利局,臭氧1小时,108,88,87,27,31,215,,247,245,12,15,7,8,0.7,0.7
2024-06-15T2000,2402A,114.0261,33.5698,漯河市,市广电局,臭氧1小时,108,81,88,29,30,216,,248,246,12,14,4,6,0.6,0.6
2024-06-15T2000,3478A,113.9749,33.5664,漯河市,市图书馆,臭氧1小时,112,77,76,30,32,224,,252,250,7,11,1,4,0.5,0.5
2024-06-15T2000,3479A,114.0967,33.5906,漯河市,召陵区卫健委,臭氧1小时,77,91,82,26,33,181,,240,234,31,23,6,6,0.4,0.5
2024-06-15T2000,1798A,118.5092,31.6837,马鞍山市,湖东路四小,臭氧1小时,100,56,65,22,40,200,,247,245,20,15,8,9,0.8,0.8
2024-06-15T2000,1799A,118.5024,31.6449,马鞍山市,开发区,臭氧1小时,90,64,76,29,38,192,,249,246,25,23,8,9,0.7,0.7
2024-06-15T2000,1800A,118.5228,31.7231,马鞍山市,慈湖,臭氧1小时,93,49,69,30,46,194,,252,249,25,22,7,7,0.8,0.9
2024-06-15T2000,1802A,118.6245,31.7241,马鞍山市,濮塘,臭氧1小时,93,46,51,31,36,194,,226,226,10,11,3,3,0.9,1
2024-06-15T2000,3633A,118.4918,31.6809,马鞍山市,雨山,臭氧1小时,103,64,77,32,38,205,,246,246,15,13,5,5,1.0,1
2024-06-15T2000,1686A,111.0286,21.4688,茂名市,电白南海,,24,24,26,9,15,28,,70,58,24,7,4,4,0.6,0.6
2024-06-15T2000,1687A,110.9294,21.6533,茂名市,茂石化七小,,20,14,29,14,19,40,,63,55,12,11,12,8,0.5,0.5
2024-06-15T2000,1688A,110.9107,21.6687,茂名市,健康路,,17,17,28,3,10,43,,66,57,15,10,13,9,0.5,0.5
2024-06-15T2000,1689A,110.8592,21.6828,茂名市,高岭,,25,22,33,17,17,21,,54,42,26,16,8,10,0.7,0.6
2024-06-15T2000,3450A,111.01,21.5165,茂名市,电白水东,,17,17,20,7,11,43,,67,59,13,10,6,3,0.5,0.5
2024-06-15T2000,2539A,104.0308,30.0478,眉山市,黑龙滩水库,,44,40,39,25,25,138,,173,169,5,13,5,5,0.3,0.3
2024-06-15T2000,2540A,103.8416,30.0874,眉山市,气象局,,48,40,43,22,39,153,,190,190,7,52,7,8,0.3,0.6
2024-06-15T2000,3137A,103.8578,30.0744,眉山市,市委党校,,50,34,56,14,32,159,,186,186,5,35,7,8,0.5,0.6
2024-06-15T2000,3148A,103.8291,30.0564,眉山市,区人社局,臭氧1小时,57,38,44,22,36,165,,192,190,14,40,6,10,0.4,0.5
2024-06-15T2000,1690A,116.1231,24.3284,梅州市,梅江月梅,,19,19,21,3,10,44,,57,57,5,9,4,4,0.4,0.4
2024-06-15T2000,1691A,116.0797,24.2719,梅州市,梅县新城,,17,17,17,9,9,39,,54,53,12,11,3,4,0.4,0.4
2024-06-15T2000,1692A,116.1248,24.2654,梅州市,环境监控中心,,29,29,26,10,10,20,,46,45,23,18,4,5,0.7,0.6
2024-06-15T2000,3315A,116.1233,24.2991,梅州市,梅龙,,15,14,18,10,11,43,,53,53,7,8,8,8,0.6,0.6
2024-06-15T2000,1878A,104.7778,31.4741,绵阳市,富乐山,颗粒物(PM10),52,54,49,35,32,138,,188,183,33,21,8,8,0.6,0.6
2024-06-15T2000,1879A,104.7563,31.4535,绵阳市,市人大,细颗粒物(PM2.5),54,54,59,38,33,109,,170,164,60,41,7,8,0.5,0.5
2024-06-15T2000,1880A,104.6697,31.4668,绵阳市,高新区自来水公司,颗粒物(PM10),65,80,58,29,25,146,,192,187,37,36,6,6,0.5,0.5
2024-06-15T2000,1881A,104.7287,31.5075,绵阳市,三水厂,颗粒物(PM10),62,74,72,36,35,133,,178,174,37,54,12,7,0.5,0.5
2024-06-15T2000,3491A,104.69,31.5322,绵阳市,西科大附属小学,,50,50,52,30,31,111,,182,175,45,36,8,8,0.6,0.4
2024-06-15T2000,3492A,104.5648,31.5343,绵阳市,安州区旅游局,,50,50,48,34,27,128,,184,180,29,21,12,12,1.0,0.7
2024-06-15T2000,1784A,129.61,44.561,牡丹江市,环保大楼,,25,21,12,17,8,63,,76,63,8,8,6,6,0.3,0.3
2024-06-15T2000,1785A,129.6115,44.5782,牡丹江市,文化广场,,25,24,20,17,16,59,,69,56,10,11,5,6,0.3,0.4
2024-06-15T2000,1786A,129.5904,44.5963,牡丹江市,第一医院,,27,27,12,15,12,53,,70,58,12,9,4,4,0.4,0.4
2024-06-15T2000,1787A,129.6364,44.6075,牡丹江市,机车工厂,,39,29,16,27,9,56,,70,58,6,8,26,6,0.4,0.4
2024-06-15T2000,1788A,129.6386,44.5462,牡丹江市,第一中学,,22,15,14,3,7,69,,79,66,7,9,4,4,0.3,0.3
2024-06-15T2000,2531A,105.0703,29.61,内江市,市监测站,,50,,39,34,37,159,,171,168,26,24,6,8,0.6,0.6
2024-06-15T2000,2532A,105.0717,29.5947,内江市,东兴区政府,,46,46,48,26,28,144,,158,158,9,9,10,11,0.8,0.8
2024-06-15T2000,2533A,105.0653,29.5817,内江市,内江二中,,42,36,38,23,29,134,,144,144,11,17,8,8,0.5,0.6
2024-06-15T2000,2534A,105.0406,29.5822,内江市,内江日报社,,49,39,41,24,31,156,,168,168,17,23,10,12,0.6,0.7
2024-06-15T2000,2628A,92.0657,31.4846,那曲市,那曲监测站,,43,12,14,3,6,137,,140,140,6,6,7,7,0.5,0.5
2024-06-15T2000,3128A,92.0506,31.4797,那曲市,那曲会议中心,,43,28,17,11,8,136,,135,135,5,5,2,3,0.4,0.4
2024-06-15T2000,1290A,115.8931,28.6843,南昌市,省外办,,21,19,19,9,14,67,,78,76,9,14,4,5,0.5,0.5
2024-06-15T2000,1291A,115.8886,28.7003,南昌市,省林业公司,,21,19,16,7,9,67,,79,77,11,20,4,4,0.4,0.4
2024-06-15T2000,1292A,115.8126,28.7442,南昌市,林科所,,17,12,14,7,8,53,,88,84,27,18,6,6,0.6,0.2
2024-06-15T2000,1294A,115.8518,28.687,南昌市,建工学校,,26,26,19,14,12,66,,85,82,10,12,5,5,0.5,0.5
2024-06-15T2000,1295A,115.8921,28.6424,南昌市,象湖,,22,12,15,7,10,70,,88,84,8,12,4,4,0.4,0.5
2024-06-15T2000,1296A,115.7423,28.7996,南昌市,武术学校,,49,,15,34,18,36,,79,74,3,2,16,12,0.6,0.6
2024-06-15T2000,1298A,115.9314,28.6842,南昌市,省站,,22,22,20,11,11,68,,82,80,12,15,7,6,0.8,0.7
2024-06-15T2000,3046A,115.9084,28.6062,南昌市,机电学校,,21,20,20,9,10,65,,82,79,6,10,7,8,0.5,0.6
2024-06-15T2000,3690A,115.9721,28.7031,南昌市,外国语学校,,23,23,14,10,10,65,,78,74,11,6,7,4,0.7,0.3
2024-06-15T2000,1905A,106.056,30.8064,南充市,西山风景区,,50,45,36,25,33,160,,160,160,12,16,4,6,0.5,0.6
2024-06-15T2000,1906A,106.0789,30.8023,南充市,南充市委,,50,45,52,29,36,160,,166,166,15,17,5,5,0.4,0.5
2024-06-15T2000,1907A,106.1031,30.8217,南充市,南充炼油厂,臭氧1小时,64,56,56,36,38,171,,184,182,18,19,8,10,0.4,0.4
2024-06-15T2000,1908A,106.1064,30.7856,南充市,高坪区监测站,臭氧1小时,60,55,52,37,34,168,,178,176,24,19,8,12,0.4,0.5
2024-06-15T2000,1909A,106.0642,30.7636,南充市,嘉陵区环保局,,50,44,50,31,36,159,,166,165,12,16,7,7,0.4,0.4
2024-06-15T2000,1910A,106.1087,30.8388,南充市,市环境监测站,颗粒物(PM10),57,64,58,26,34,148,,175,170,36,30,7,8,0.7,0.8
2024-06-15T2000,1151A,118.8086,32.1065,南京市,迈皋桥,臭氧1小时,64,34,42,22,27,171,,224,224,19,11,7,6,0.4,0.6
2024-06-15T2000,1152A,118.7538,32.0551,南京市,草场门,臭氧1小时,85,46,50,27,31,188,,229,229,33,19,5,4,0.6,0.7
2024-06-15T2000,1153A,118.7794,32.0745,南京市,山西路,臭氧1小时,82,44,54,22,30,185,,237,237,21,13,5,4,0.4,0.5
2024-06-15T2000,1154A,118.7752,32.0023,南京市,中华门,臭氧1小时,102,41,44,24,28,203,,221,221,17,12,8,6,0.5,0.6
2024-06-15T2000,1155A,118.8109,32.0309,南京市,瑞金路,臭氧1小时,103,57,56,29,32,205,,230,230,22,11,10,8,0.4,0.4
2024-06-15T2000,1156A,118.7997,32.0754,南京市,玄武湖,,49,45,50,21,28,155,,207,207,25,16,10,9,0.7,0.8
2024-06-15T2000,1157A,118.6414,32.0931,南京市,浦口,臭氧1小时,82,29,49,17,30,185,,225,225,12,15,6,6,0.2,0.7
2024-06-15T2000,1158A,118.7356,31.9996,南京市,奥体中心,臭氧1小时,119,53,54,29,34,238,,250,250,19,12,8,6,0.5,0.5
2024-06-15T2000,1159A,118.9125,32.1028,南京市,仙林大学城,臭氧1小时,69,44,47,19,27,175,,225,224,27,15,7,7,0.5,0.6
2024-06-15T2000,3422A,118.8436,31.9198,南京市,江宁彩虹桥,臭氧1小时,107,52,51,22,31,214,,224,224,19,13,3,4,0.5,0.6
2024-06-15T2000,3423A,119.0138,31.6494,南京市,溧水永阳,臭氧1小时,103,39,45,32,26,206,,221,220,22,17,3,4,0.4,0.6
2024-06-15T2000,3424A,118.879,31.3302,南京市,高淳老职中,臭氧1小时,114,60,54,25,31,227,,231,231,14,13,5,5,0.5,0.6
2024-06-15T2000,3427A,118.8554,32.3578,南京市,六合雄州,臭氧1小时,59,38,45,9,29,167,,192,191,19,27,1,2,0.6,0.7
2024-06-15T2000,1401A,108.3103,22.7881,南宁市,二十一中,,28,28,22,13,15,49,,61,61,15,20,2,2,0.8,0.8
2024-06-15T2000,1402A,108.3141,22.8528,南宁市,北湖,,33,33,33,20,19,45,,60,60,20,29,2,8,0.8,0.7
2024-06-15T2000,1403A,108.3206,22.8225,南宁市,市监测站,,25,25,23,15,18,54,,60,60,15,27,2,4,0.8,0.8
2024-06-15T2000,1404A,108.3829,22.8037,南宁市,大自然花园,,22,22,19,14,11,46,,59,59,15,14,4,4,0.4,0.4
2024-06-15T2000,1405A,108.4394,22.7904,南宁市,仙葫,,,31,32,16,10,,,,,6,6,3,4,0.4,0.5
2024-06-15T2000,1406A,108.2397,22.8467,南宁市,区农职院,,34,34,28,7,15,44,,64,64,28,23,4,7,0.9,0.8
2024-06-15T2000,1407A,108.3275,22.735,南宁市,英华嘉园,,40,40,32,10,12,39,,50,50,17,25,5,5,0.6,0.6
2024-06-15T2000,1408A,108.2257,22.7757,南宁市,沙井镇街道办,,43,43,33,19,18,25,,62,57,36,24,3,3,0.9,0.7
2024-06-15T2000,3401A,108.4834,22.7618,南宁市,红星社区,,23,23,21,14,13,51,,60,60,8,15,4,4,0.6,0.6
2024-06-15T2000,2331A,118.0966,26.6761,南平市,茫荡山,,,,,,,,,,,,,,,,
2024-06-15T2000,2332A,118.1681,26.6369,南平市,南平市监测站,,21,21,17,3,8,31,,35,35,10,10,3,3,0.7,0.7
2024-06-15T2000,2333A,118.1825,26.6489,南平市,南平铝业有限公司,,12,6,15,3,12,38,,36,36,9,12,4,5,0.6,0.7
2024-06-15T2000,2334A,118.1756,26.6272,南平市,南平七中,,22,18,17,15,9,28,,42,39,12,8,5,4,0.9,0.7
2024-06-15T2000,1168A,120.9098,31.9663,南通市,狼山街道,,33,26,22,3,8,104,,162,152,11,9,10,11,0.5,0.6
2024-06-15T2000,1169A,120.86,32.0005,南通市,虹桥,,33,25,27,3,11,105,,159,150,12,11,6,6,0.5,0.6
2024-06-15T2000,1170A,120.87,32.02,南通市,城中,,33,30,31,12,16,103,,157,147,16,12,6,7,0.4,0.5
2024-06-15T2000,1171A,120.94,31.93,南通市,星湖花园,,32,18,16,6,9,102,,165,154,20,16,8,8,0.5,0.6
2024-06-15T2000,1172A,120.81,32.0417,南通市,紫琅学院,,37,26,19,6,13,117,,170,161,14,14,6,7,0.6,0.7
2024-06-15T2000,3291A,121.067,32.062,南通市,通州监测站,,32,24,26,3,5,102,,136,126,3,4,9,10,0.5,0.5
2024-06-15T2000,3432A,120.9348,31.9883,南通市,环境教育馆,,31,27,28,8,12,97,,156,145,23,20,8,8,0.5,0.6
2024-06-15T2000,2404A,112.5224,33.0122,南阳市,瓦房庄,臭氧1小时,124,82,62,41,27,248,,254,254,14,16,5,8,0.7,0.6
2024-06-15T2000,2405A,112.5003,32.9735,南阳市,汉画馆,臭氧1小时,106,101,72,42,29,212,,246,243,32,23,6,6,0.8,0.6
2024-06-15T2000,2406A,112.5573,33.027,南阳市,气象站,臭氧1小时,119,86,60,44,26,237,,255,254,24,18,3,4,0.7,0.5
2024-06-15T2000,2407A,112.5481,32.9689,南阳市,理工学院,臭氧1小时,122,75,60,32,24,244,,258,257,21,21,6,7,0.6,0.6
2024-06-15T2000,4008A,112.5234,32.9922,南阳市,卧龙区政府,臭氧1小时,117,75,61,39,30,234,,248,248,29,24,6,8,0.8,0.6
2024-06-15T2000,1234A,121.8358,29.911,宁波市,区环保大楼,颗粒物(PM10),54,57,37,27,15,116,,155,152,28,32,6,8,0.7,0.7
2024-06-15T2000,1235A,121.56,29.82,宁波市,万里学院,,,,29,32,19,142,,180,176,19,15,4,5,0.7,0.7
2024-06-15T2000,1236A,121.713,29.9572,宁波市,龙赛医院,,,,23,,12,77,,138,135,56,20,7,5,0.6,0.4
2024-06-15T2000,1239A,121.633,29.7733,宁波市,钱湖水厂,,49,49,28,23,19,135,,179,174,13,11,4,4,0.8,0.7
2024-06-15T2000,1240A,121.5856,29.8635,宁波市,太古小学,颗粒物(PM10),60,70,23,42,17,129,,166,162,19,12,5,5,0.7,0.7
2024-06-15T2000,1241A,121.524,29.8674,宁波市,市环境监测中心,,47,47,27,32,14,150,,186,184,24,14,4,4,0.8,0.7
2024-06-15T2000,2871A,121.6147,29.9017,宁波市,万里国际学校,,39,39,23,25,15,124,,174,171,33,16,6,5,0.5,0.5
2024-06-15T2000,3710A,121.5594,29.8975,宁波市,白沙活动中心,,45,42,27,10,10,144,,179,176,24,10,9,8,0.6,0.5
2024-06-15T2000,2339A,119.5001,26.6946,宁德市,金涵水库,,,,,,,,,,,,,,,,
2024-06-15T2000,2341A,119.5388,26.6612,宁德市,宁德市监测站,,32,32,19,21,12,5,,14,11,36,26,4,4,2.0,1.1
2024-06-15T2000,3209A,119.5231,26.6562,宁德市,宁德一中,,33,29,23,23,19,12,,14,12,17,19,4,4,1.5,1.1
2024-06-15T2000,2618A,98.8601,25.8567,怒江傈僳族自治州,州监测站,,26,26,19,15,14,48,,67,66,7,11,9,10,0.5,0.5
2024-06-15T2000,2619A,98.8546,25.8417,怒江傈僳族自治州,泸水一中,,16,,21,11,7,39,,60,58,13,11,5,5,0.5,0.4
2024-06-15T2000,1888A,101.6891,26.571,攀枝花市,弄弄坪,,35,35,32,20,15,101,,101,101,10,13,13,12,0.6,0.7
2024-06-15T2000,1889A,101.5769,26.5928,攀枝花市,河门口,,35,35,24,19,15,96,,93,93,12,16,9,12,0.6,0.9
2024-06-15T2000,1890A,101.7169,26.585,攀枝花市,炳草岗,,33,23,30,23,18,97,,104,104,15,19,20,22,0.8,0.9
2024-06-15T2000,1891A,101.7369,26.5008,攀枝花市,仁和,,43,43,27,29,19,84,,103,101,28,13,17,13,0.8,0.6
2024-06-15T2000,2835A,101.7227,26.567,攀枝花市,四十中小,,32,30,21,16,13,102,,105,105,14,16,8,11,0.8,1.1
2024-06-15T2000,1604A,122.0303,41.1489,盘锦市,开发区,,31,31,16,7,12,95,,116,116,34,16,6,6,0.2,0.2
2024-06-15T2000,1605A,122.0485,41.0883,盘锦市,兴隆台,,32,19,17,11,13,100,,113,113,32,18,6,6,0.3,0.3
2024-06-15T2000,1606A,121.8297,41.1028,盘锦市,新生街道,,30,30,17,7,13,79,,109,107,18,18,5,6,0.2,0.3
2024-06-15T2000,1832A,113.3257,33.742,平顶山市,新华旅馆,臭氧1小时,113,79,72,36,43,225,,240,239,18,16,8,10,0.5,0.5
2024-06-15T2000,1833A,113.2919,33.737,平顶山市,规划设计院,臭氧1小时,111,68,64,40,29,222,,226,226,19,19,6,8,0.7,0.6
2024-06-15T2000,1834A,113.182,33.774,平顶山市,平顶山工学院,臭氧1小时,108,72,67,34,31,215,,228,228,18,16,7,9,0.7,0.7
2024-06-15T2000,3204A,113.3025,33.73,平顶山市,规划局,臭氧1小时,124,85,74,37,33,248,,241,241,13,18,6,8,0.5,0.5
2024-06-15T2000,3594A,112.8867,33.9116,平顶山市,石龙区,臭氧1小时,110,90,97,37,42,219,,220,220,9,26,6,8,0.7,0.6
2024-06-15T2000,2656A,106.6692,35.5461,平凉市,聚贤嘉苑,臭氧1小时,73,73,63,19,19,178,,171,171,14,22,8,8,0.4,0.4
2024-06-15T2000,2657A,106.7021,35.5307,平凉市,博物馆,臭氧1小时,78,61,55,25,19,182,,175,175,18,21,18,12,0.5,0.3
2024-06-15T2000,2347A,114.0997,27.5002,萍乡市,武功山,,11,6,3,3,3,33,,57,54,3,3,19,17,0.5,0.5
2024-06-15T2000,2348A,113.8385,27.6434,萍乡市,中医院,,17,16,27,7,20,54,,58,58,2,7,14,21,0.6,1.1
2024-06-15T2000,2349A,113.8493,27.6253,萍乡市,市政府车库,,22,,18,15,18,54,,60,60,4,10,16,16,0.5,1.2
2024-06-15T2000,2350A,113.8676,27.6435,萍乡市,市环保局,,17,10,27,8,20,53,,55,55,5,12,11,16,0.4,0.9
2024-06-15T2000,2351A,113.866,27.6198,萍乡市,安源区政府,,15,,27,7,12,47,,53,53,8,10,17,16,1.1,0.6
2024-06-15T2000,2319A,119.0141,25.4325,莆田市,荔城区仓后路,,15,,25,6,11,48,,64,63,9,11,6,6,0.6,0.6
2024-06-15T2000,2320A,119.0015,25.4553,莆田市,莆田市监测站,,22,22,24,3,9,30,,63,60,6,9,8,8,0.6,0.6
2024-06-15T2000,2321A,119.1119,25.4561,莆田市,涵江区六中,,14,7,26,3,11,44,,63,58,9,14,8,8,0.6,0.6
2024-06-15T2000,2322A,119.1013,25.3215,莆田市,秀屿区政府,,20,20,23,3,13,37,,56,51,9,10,8,9,0.7,0.7
2024-06-15T2000,2323A,118.981,25.4792,莆田市,东圳水库,,,,,,,,,,,,,,,,
2024-06-15T2000,2392A,115.0312,35.7636,濮阳市,环保局,臭氧1小时,75,26,48,16,25,180,,196,196,16,15,9,11,0.5,0.7
2024-06-15T2000,2394A,115.0574,35.7609,濮阳市,油田运输公司,,,48,58,18,26,179,,206,204,,15,10,11,0.5,0.8
2024-06-15T2000,2395A,115.0866,35.7754,濮阳市,油田物探公司,臭氧1小时,82,42,56,22,28,185,,205,204,17,11,9,9,0.4,0.7
2024-06-15T2000,3021A,115,35.7668,濮阳市,濮水河管理处,,47,34,46,20,26,148,,183,180,21,12,8,10,0.4,0.6
2024-06-15T2000,2601A,100.98,22.7633,普洱市,市环保局,,35,,15,24,13,44,,55,53,8,5,6,6,0.4,0.4
2024-06-15T2000,2602A,100.9817,22.8322,普洱市,普洱第二中学,,26,19,17,18,19,36,,56,52,11,7,8,8,0.5,0.4
2024-06-15T2000,2262A,131.0518,45.8751,七台河市,新一中,,20,12,10,7,9,64,,89,85,7,7,10,9,1.0,0.9
2024-06-15T2000,3345A,131.0577,45.7879,七台河市,中波台,,19,,8,6,5,59,,77,75,16,14,7,7,0.4,0.4
2024-06-15T2000,3637A,131.0176,45.7761,七台河市,人民广场,,22,15,16,15,13,54,,76,74,19,16,10,10,0.5,0.5
2024-06-15T2000,3684A,130.8781,45.8222,七台河市,新建矿广场,,25,17,12,17,14,55,,74,72,13,19,5,7,0.2,0.2
2024-06-15T2000,1779A,123.9305,47.3636,齐齐哈尔市,安居小区,,27,27,16,10,4,66,,83,80,21,7,6,6,0.4,0.3
2024-06-15T2000,1780A,123.9488,47.3386,齐齐哈尔市,中心广场,,31,31,10,12,7,62,,81,78,23,7,8,8,0.3,0.2
2024-06-15T2000,1781A,123.9483,47.3227,齐齐哈尔市,农牧车辆厂,,29,29,20,3,4,72,,84,82,15,6,7,7,0.3,0.2
2024-06-15T2000,1783A,123.945,47.2988,齐齐哈尔市,市环境监测站,,30,30,14,11,6,58,,83,80,25,7,5,5,0.4,0.3
2024-06-15T2000,3662A,123.6333,47.2075,齐齐哈尔市,富区青少年活动中心,,27,27,13,6,3,73,,88,85,12,6,4,4,0.3,0.2
2024-06-15T2000,2591A,107.9783,26.5747,黔东南苗族侗族自治州,市环境监测站,,29,24,22,18,14,92,,103,102,19,15,3,3,0.3,0.4
2024-06-15T2000,2881A,107.8908,26.5311,黔东南苗族侗族自治州,凯里学院,,29,26,22,16,14,92,,116,115,14,7,3,3,0.3,0.4
2024-06-15T2000,2593A,107.5228,26.2403,黔南布依族苗族自治州,小围寨,,,,22,24,14,88,,116,115,,9,4,5,0.5,0.5
2024-06-15T2000,3538A,107.5175,26.2978,黔南布依族苗族自治州,沙坝,,28,22,20,3,8,89,,111,111,5,8,3,4,0.6,0.5
2024-06-15T2000,2589A,104.9022,25.0925,黔西南布依族苗族自治州,场坝街,,41,41,21,10,8,108,,123,123,11,16,2,4,0.4,0.4
2024-06-15T2000,2590A,104.8811,25.0992,黔西南布依族苗族自治州,坪东大道,,33,13,20,7,7,105,,122,122,10,17,6,9,0.3,0.2
2024-06-15T2000,2502A,108.6236,21.9667,钦州市,市环保站,,27,27,21,7,7,35,,44,41,9,11,6,7,0.6,0.7
2024-06-15T2000,2503A,108.6549,21.9481,钦州市,沙埠小学,,20,20,24,11,11,36,,45,41,11,17,4,3,0.7,0.8
2024-06-15T2000,2504A,108.5989,21.7431,钦州市,港区一小,颗粒物(PM10),57,64,40,20,13,24,,40,35,30,19,8,7,0.6,0.6
2024-06-15T2000,3404A,108.5959,21.9633,钦州市,北职校,,22,21,24,15,14,36,,46,43,11,13,6,7,0.6,0.8
2024-06-15T2000,1042A,119.5134,39.8207,秦皇岛市,北戴河环保局,,,19,23,12,7,123,,137,136,10,10,,3,,0.3
2024-06-15T2000,1043A,119.7493,40.0116,秦皇岛市,第一关,,41,41,32,12,11,116,,120,120,8,27,1,2,0.3,0.3
2024-06-15T2000,1044A,119.5897,39.9499,秦皇岛市,监测站,,42,42,36,14,11,111,,117,116,13,11,3,3,0.4,0.4
2024-06-15T2000,1046A,119.5251,39.9041,秦皇岛市,建设大厦,,36,23,25,17,13,115,,122,122,10,16,2,2,0.1,0.1
2024-06-15T2000,3132A,119.610547,39.943889,秦皇岛市,文明里,,37,37,31,23,20,110,,123,121,12,9,4,2,0.4,0.4
2024-06-15T2000,1307A,120.6659,36.2403,青岛市,仰口,,,,16,,19,,,,,,6,,4,,0.2
2024-06-15T2000,1310A,120.4134,36.0658,青岛市,市南区东部子站,,26,9,9,7,9,82,,72,72,5,9,6,8,0.4,0.3
2024-06-15T2000,1311A,120.3664,36.1032,青岛市,四方区子站,,30,17,15,12,12,95,,85,85,17,13,8,9,0.6,0.5
2024-06-15T2000,1312A,120.2994,36.054,青岛市,市南区西部子站,,34,31,15,7,9,106,,68,68,13,16,6,7,0.4,0.4
2024-06-15T2000,1313A,120.4581,36.0858,青岛市,崂山区子站,,27,7,11,3,7,85,,72,72,7,12,8,8,0.4,0.4
2024-06-15T2000,1314A,120.1983,35.9608,青岛市,黄岛区子站,,24,7,14,3,12,76,,83,82,9,13,6,6,0.4,0.4
2024-06-15T2000,1315A,120.3999,36.3083,青岛市,城阳区子站,,22,14,20,12,13,69,,124,112,22,15,7,7,0.5,0.5
2024-06-15T2000,1966A,120.0405,35.8735,青岛市,黄岛区4号,,26,14,13,3,6,83,,88,87,11,10,8,8,0.4,0.4
2024-06-15T2000,3362A,120.5014,36.4034,青岛市,即墨2号,,26,10,14,8,13,82,,109,100,8,9,6,6,0.4,0.4
2024-06-15T2000,3642A,120.3503,36.0736,青岛市,市北区南部,,29,17,18,3,7,90,,82,82,11,11,6,7,0.4,0.5
2024-06-15T2000,3643A,120.3948,36.1805,青岛市,李沧区北部,,29,29,16,17,12,75,,103,96,39,19,7,9,0.6,0.5
2024-06-15T2000,1702A,113.0426,23.691,清远市,环保大楼,,12,12,24,8,10,36,,51,51,18,17,4,5,0.6,0.6
2024-06-15T2000,1703A,113.0208,23.7106,清远市,凤城街办,,,7,23,3,13,26,,38,38,16,17,,4,0.4,0.4
2024-06-15T2000,3025A,113.0477,23.6344,清远市,技师学院,,22,22,21,12,11,34,,69,68,35,19,4,4,0.6,0.6
2024-06-15T2000,3318A,112.9903,23.7403,清远市,清新太和,,10,,21,3,12,30,,38,38,18,20,5,6,0.7,0.7
2024-06-15T2000,3455A,113.076,23.7198,清远市,清城东城,,13,9,18,3,11,39,,51,51,11,12,5,5,0.6,0.6
2024-06-15T2000,2661A,107.6325,35.7357,庆阳市,庆阳五中,臭氧1小时,72,62,52,28,20,177,,178,178,13,12,4,3,0.3,0.3
2024-06-15T2000,2662A,107.6364,35.7067,庆阳市,市环保局,臭氧1小时,65,58,47,19,16,172,,174,174,11,9,5,5,0.3,0.3
2024-06-15T2000,1916A,103.7897,25.5035,曲靖市,环境监测站,,33,33,31,15,15,79,,92,92,10,10,2,6,0.6,0.7
2024-06-15T2000,1917A,103.8,25.5364,曲靖市,烟厂办公区,,31,31,24,16,14,86,,95,95,7,8,4,4,0.4,0.5
2024-06-15T2000,3376A,103.7947,25.462,曲靖市,南苑二区,,31,31,30,13,17,84,,94,94,12,12,4,7,0.6,1
2024-06-15T2000,3377A,103.7444,25.5261,曲靖市,曲靖师范学院,,30,30,22,16,19,88,,99,98,9,16,5,7,0.5,0.7
2024-06-15T2000,1264A,118.8692,28.9398,衢州市,环保大楼,,23,23,18,13,11,71,,143,138,13,13,4,4,0.3,0.3
2024-06-15T2000,1265A,118.8709,28.9666,衢州市,实验学校,,26,26,19,15,12,76,,150,144,13,11,4,4,0.2,0.2
2024-06-15T2000,1266A,118.8621,28.9808,衢州市,衢州学院,,29,28,20,17,12,90,,151,147,12,7,5,5,0.5,0.5
2024-06-15T2000,1611A,118.5819,24.9117,泉州市,涂山街,,,18,27,,9,45,,58,54,7,15,1,3,0.5,0.5
2024-06-15T2000,1612A,118.5972,24.8978,泉州市,津头埔,,23,23,27,11,13,42,,55,51,11,16,1,2,0.5,0.5
2024-06-15T2000,1613A,118.6663,24.9424,泉州市,万安,,27,27,25,3,12,41,,58,54,5,10,2,2,0.5,0.5
2024-06-15T2000,1614A,118.6117,24.9604,泉州市,清源山,,,,,,,,,,,,,,,,
2024-06-15T2000,3529A,118.6333,24.9264,泉州市,城华南路,,20,20,22,6,7,38,,53,48,10,14,2,2,0.4,0.3
2024-06-15T2000,2626A,88.8876,29.2718,日喀则市,日喀则监测站,,44,14,10,3,4,138,,149,149,5,6,6,6,0.5,0.5
2024-06-15T2000,3726A,88.8781,29.2426,日喀则市,林业技术推广中心,,43,19,13,3,4,137,,146,146,6,7,6,5,0.6,0.6
2024-06-15T2000,1659A,119.471,35.4209,日照市,监测站,,34,22,21,12,16,106,,140,132,23,18,10,9,0.4,0.4
2024-06-15T2000,1660A,119.523,35.4216,日照市,市政府广场,,31,22,21,10,11,97,,116,112,10,11,9,10,0.5,0.5
2024-06-15T2000,1661A,119.5587,35.4044,日照市,港务局,,34,14,20,7,8,106,,112,112,6,10,6,7,0.5,0.4
2024-06-15T2000,3507A,119.5328,35.4625,日照市,职业技术学院,,31,14,22,12,13,99,,118,113,12,13,7,8,0.5,0.6
2024-06-15T2000,3604A,119.3266,35.1044,日照市,岚山环保分局,,41,29,35,17,18,129,,145,143,20,20,13,14,0.5,1.3
2024-06-15T2000,1835A,111.1922,34.7752,三门峡市,市政府,臭氧1小时,104,67,68,30,31,208,,212,212,16,19,11,12,0.5,0.6
2024-06-15T2000,1836A,111.1587,34.7942,三门峡市,开发区,臭氧1小时,111,74,77,31,35,221,,237,236,25,19,13,14,0.8,0.8
2024-06-15T2000,1838A,111.143,34.7955,三门峡市,风景区,,,,,,,,,,,,,,,,
2024-06-15T2000,3039A,111.1911,34.7829,三门峡市,三门峡市第一小学,臭氧1小时,109,66,70,31,33,217,,221,221,13,14,10,9,0.6,0.7
2024-06-15T2000,3598A,111.1,34.7167,三门峡市,富达温泉假日酒店,臭氧1小时,105,72,76,30,40,209,,211,211,12,18,13,14,0.5,0.6
2024-06-15T2000,2324A,117.6211,26.2625,三明市,三钢,,30,30,28,18,18,29,,57,55,19,16,9,8,0.7,1.2
2024-06-15T2000,2325A,117.635,26.2714,三明市,三明二中,,25,23,24,17,14,32,,59,57,16,16,11,8,0.6,0.9
2024-06-15T2000,2326A,117.6028,26.2378,三明市,三元区政府,,33,33,32,20,20,28,,59,55,21,14,12,4,1.0,0.6
2024-06-15T2000,2327A,117.7275,26.3108,三明市,洋溪,,,,,,,,,,,,,,,,
2024-06-15T2000,1876A,109.5078,18.2489,三亚市,河东子站,,34,34,32,17,15,81,,91,85,2,3,3,3,0.4,0.4
2024-06-15T2000,1877A,109.4964,18.2681,三亚市,河西子站,,,29,27,22,17,77,,87,81,4,5,1,1,,0.3
2024-06-15T2000,3540A,109.7348,18.3443,三亚市,君悦子站,,30,30,31,15,13,75,,80,76,4,7,2,2,0.3,0.4
2024-06-15T2000,2624A,91.7608,29.2313,山南市,山南监测站,,39,11,9,7,4,122,,120,120,4,4,4,5,0.3,0.3
2024-06-15T2000,2625A,91.7706,29.2436,山南市,山南人民医院,,39,13,18,6,6,124,,117,117,7,7,6,6,0.3,0.4
2024-06-15T2000,1674A,116.6794,23.3667,汕头市,金平子站,,18,18,22,11,13,46,,64,58,8,7,2,2,0.7,0.7
2024-06-15T2000,1675A,116.7244,23.3633,汕头市,龙湖子站,,36,36,24,9,10,41,,61,55,13,10,5,5,0.6,0.7
2024-06-15T2000,1676A,116.7258,23.2775,汕头市,濠江子站,,15,15,27,3,11,41,,64,58,10,8,4,4,0.7,0.7
2024-06-15T2000,1677A,116.7519,23.4714,汕头市,澄海子站,,39,39,30,10,12,30,,50,,17,11,5,4,0.8,0.7
2024-06-15T2000,1678A,116.6092,23.2539,汕头市,潮阳子站,,28,28,25,3,12,43,,59,54,4,3,4,4,0.5,0.5
2024-06-15T2000,3444A,116.454,23.2684,汕头市,潮南峡山,,16,16,27,3,13,46,,52,48,6,6,4,4,0.7,0.8
2024-06-15T2000,3624A,116.4069,23.2533,汕头市,潮南子站,,18,18,26,3,13,54,,60,55,2,4,6,6,0.6,0.7
2024-06-15T2000,1693A,115.3653,22.775,汕尾市,市环保局,,15,,22,8,10,47,,66,60,10,3,4,4,0.7,0.6
2024-06-15T2000,1694A,115.3706,22.7898,汕尾市,市政府,,15,7,22,3,12,47,,65,59,8,2,7,6,0.5,0.5
2024-06-15T2000,1695A,115.3622,22.7925,汕尾市,新城中学,,16,9,29,3,8,51,,74,60,11,5,4,4,0.4,0.5
2024-06-15T2000,2645A,109.9154,33.8715,商洛市,监测站,,,50,41,25,16,133,,157,154,,15,,5,0.7,0.4
2024-06-15T2000,3045A,109.9643,33.8471,商洛市,商州区中学,颗粒物(PM10),54,58,50,27,18,142,,160,155,12,22,20,7,0.7,0.4
2024-06-15T2000,2408A,115.6702,34.4285,商丘市,环境监测站,,,50,80,21,31,166,,210,206,18,12,8,11,,0.4
2024-06-15T2000,2409A,115.6458,34.4045,商丘市,粮食局,颗粒物(PM10),51,51,77,24,29,159,,201,197,12,11,5,6,0.2,0.4
2024-06-15T2000,2410A,115.6293,34.3948,商丘市,睢阳区环保局,臭氧1小时,70,56,84,21,34,176,,216,212,8,11,5,6,0.2,0.4
