timepoint,stationcode,longitude,latitude,area,positionname,primarypollutant,aqi,pm10,pm10_24h,pm2_5,pm2_5_24h,o3,o3_24h,o3_8h,o3_8h_24h,no2,no2_24h,so2,so2_24h,co,co_24h
2025-10-23T2000,2566A,102.1879,31.914,阿坝藏族羌族自治州,州农科所,,,,,,,,,,,,,,,,
2025-10-23T2000,2568A,102.2502,31.8896,阿坝藏族羌族自治州,马师校,颗粒物(PM10),53,55,21,30,15,10,,56,51,43,15,5,5,0.7,0.6
2025-10-23T2000,3994A,102.2165,31.9024,阿坝藏族羌族自治州,马尔康中学西区,,39,29,15,27,13,44,,69,68,19,13,4,4,0.6,0.6
2025-10-23T2000,2695A,80.292,41.1694,阿克苏地区,电视台,颗粒物(PM10),116,181,199,41,52,70,,72,72,27,37,6,6,0.8,1.1
2025-10-23T2000,2696A,80.2613,41.1551,阿克苏地区,艺术中心,颗粒物(PM10),104,158,172,67,58,51,,60,60,36,46,3,4,0.2,0.8
2025-10-23T2000,2204A,105.6467,38.8363,阿拉善盟,西城区西花园,,,,,,,,,,,,,,,,
2025-10-23T2000,2205A,105.6985,38.8411,阿拉善盟,蒙二幼,"颗粒物(PM10),细颗粒物(PM2.5)",54,57,55,38,35,78,,85,85,17,13,12,9,0.9,0.7
2025-10-23T2000,2206A,105.724,38.8516,阿拉善盟,环保局新楼,细颗粒物(PM2.5),53,46,46,37,39,89,,87,87,16,13,12,9,0.8,0.8
2025-10-23T2000,2708A,88.1264,47.8517,阿勒泰地区,市站,颗粒物(PM10),55,59,38,12,5,42,,98,71,52,13,3,3,0.3,0.4
2025-10-23T2000,2630A,80.1161,32.5,阿里地区,阿里监测站,,,6,3,3,3,,,106,106,2,14,5,6,0.4,0.5
2025-10-23T2000,3192A,80.0903,32.5028,阿里地区,阿里藏医院,,34,10,10,3,4,108,,111,111,1,3,9,9,0.2,0.2
2025-10-23T2000,2642A,109.0318,32.6537,安康市,香溪洞,,,,,,,,,,,,,,,,
2025-10-23T2000,2644A,109.0072,32.6975,安康市,汉滨区检察院,,40,38,35,28,27,74,,70,70,12,10,5,5,0.5,0.4
2025-10-23T2000,4054A,109.0325,32.6913,安康市,市邮政管理局,,43,43,37,30,26,66,,64,64,17,13,6,6,0.6,0.5
2025-10-23T2000,2291A,117.0809,30.5177,安庆市,环科院,,42,42,29,22,17,100,,113,113,11,9,8,9,0.4,0.4
2025-10-23T2000,2292A,117.0331,30.5119,安庆市,马山宾馆,,35,35,28,19,13,101,,111,111,14,12,6,8,0.2,0.3
2025-10-23T2000,2294A,116.9896,30.6145,安庆市,安庆大学,,38,33,28,26,18,102,,111,111,9,8,6,6,0.2,0.2
2025-10-23T2000,3173A,117.0598,30.5351,安庆市,市人大,,36,36,29,17,14,95,,109,109,18,14,8,8,0.3,0.3
2025-10-23T2000,3122A,105.9606,26.2611,安顺市,伍家关,细颗粒物(PM2.5),69,86,50,50,22,47,,62,62,14,6,28,9,0.5,0.4
2025-10-23T2000,3123A,105.9408,26.2431,安顺市,凤凰山,细颗粒物(PM2.5),110,,34,83,32,41,,54,54,14,6,34,10,0.5,0.4
2025-10-23T2000,3124A,105.9439,26.2564,安顺市,金钟山,细颗粒物(PM2.5),98,,30,73,30,47,,60,60,12,6,30,13,0.6,0.5
2025-10-23T2000,3125A,105.8983,26.2481,安顺市,娄家坡,细颗粒物(PM2.5),100,77,36,75,33,40,,53,52,15,8,14,14,0.6,0.5
2025-10-23T2000,1818A,114.4839,36.0621,安阳市,棉研所,,,,,,,,,,,,,,,,
2025-10-23T2000,1819A,114.3551,36.1017,安阳市,红庙街,细颗粒物(PM2.5),84,83,79,62,58,25,,48,47,60,51,7,6,0.5,0.7
2025-10-23T2000,1820A,114.361,36.0681,安阳市,银杏小区,细颗粒物(PM2.5),87,88,78,64,59,35,,54,52,47,47,7,8,0.5,0.7
2025-10-23T2000,3141A,114.3922,36.0878,安阳市,信访局,细颗粒物(PM2.5),83,73,75,61,58,37,,52,52,42,45,6,9,0.2,0.4
2025-10-23T2000,3669A,114.4705,36.0637,安阳市,左辅环卫站,细颗粒物(PM2.5),85,113,96,63,57,46,,57,57,35,44,4,9,0.5,0.8
2025-10-23T2000,3703A,114.2917,36.0949,安阳市,安钢职工学校,细颗粒物(PM2.5),92,72,83,68,61,34,,48,48,45,46,6,6,0.6,0.8
2025-10-23T2000,1748A,123.044,41.1196,鞍山市,深沟寺,颗粒物(PM10),59,67,77,37,46,39,,64,61,38,45,8,13,0.8,0.9
2025-10-23T2000,1749A,123.011,41.0931,鞍山市,太阳城,,50,50,59,28,37,55,,67,67,25,38,10,18,0.5,0.7
2025-10-23T2000,1750A,123.0485,41.1442,鞍山市,太平,颗粒物(PM10),71,91,97,42,43,38,,62,60,43,43,13,13,0.7,1
2025-10-23T2000,1751A,122.9642,41.0971,鞍山市,铁西三道街,颗粒物(PM10),73,95,90,52,49,18,,57,52,72,46,47,24,3.6,1.5
2025-10-23T2000,1753A,123.022,41.0821,鞍山市,明达新区,颗粒物(PM10),54,58,63,30,37,43,,64,62,26,29,12,20,0.7,0.9
2025-10-23T2000,1754A,123.1289,41.0228,鞍山市,千山,,,,24,,20,,,49,,,23,,6,,0.2
2025-10-23T2000,4201A,122.9446,41.0826,鞍山市,兴盛南路290号,颗粒物(PM10),64,77,109,40,59,19,,57,53,76,58,59,27,2.5,1.8
2025-10-23T2000,2195A,107.4212,40.761,巴彦淖尔市,附二中,细颗粒物(PM2.5),98,124,48,73,27,36,,72,69,44,12,17,9,0.9,0.4
2025-10-23T2000,2196A,107.37,40.7372,巴彦淖尔市,市环保大楼,细颗粒物(PM2.5),70,86,43,51,24,47,,74,71,42,15,9,10,0.8,0.5
2025-10-23T2000,1956A,86.1472,41.7538,巴音郭楞蒙古自治州,孔雀公园,颗粒物(PM10),104,157,155,39,42,74,,86,86,21,54,8,9,0.6,0.8
2025-10-23T2000,1957A,86.1972,41.7166,巴音郭楞蒙古自治州,棉纺厂,颗粒物(PM10),116,181,192,48,50,74,,92,92,22,29,6,6,0.5,0.8
2025-10-23T2000,1958A,86.2357,41.7173,巴音郭楞蒙古自治州,经济开发区,颗粒物(PM10),106,162,151,37,33,53,,89,86,36,22,6,6,0.7,0.7
2025-10-23T2000,2914A,106.7677,31.8794,巴中市,苏山坪,,,,,,,,,,,,,,,,
2025-10-23T2000,3181A,106.7768,31.8526,巴中市,市五中,,19,18,15,13,10,9,,32,29,22,13,7,7,0.7,0.7
2025-10-23T2000,3183A,106.7418,31.8654,巴中市,圣泉水务公司,,14,14,10,8,7,18,,26,25,12,11,10,8,0.7,0.6
2025-10-23T2000,3616A,106.7616,31.8344,巴中市,市中心医院,,16,16,15,3,8,16,,30,27,26,31,11,10,0.8,0.7
2025-10-23T2000,2235A,122.7911,45.6077,白城市,洮北区环保局,细颗粒物(PM2.5),103,104,61,77,50,7,,57,46,73,39,7,6,1.0,0.7
2025-10-23T2000,2236A,122.8738,45.5725,白城市,市环保局,颗粒物(PM10),68,85,59,38,38,3,,63,51,86,44,10,6,0.4,0.5
2025-10-23T2000,2231A,126.4219,41.9171,白山市,喜丰,颗粒物(PM10),68,86,112,38,32,35,,95,88,51,32,8,15,0.8,0.6
2025-10-23T2000,2232A,126.4077,41.9419,白山市,环保局,细颗粒物(PM2.5),68,72,48,49,35,47,,96,90,36,18,10,10,1.0,0.6
2025-10-23T2000,2647A,104.1724,36.5446,白银市,第三小学,,39,39,30,19,17,34,,64,56,32,22,7,29,0.5,0.7
2025-10-23T2000,2648A,104.1465,36.5482,白银市,动力公司,,22,22,25,11,14,59,,104,74,17,21,7,16,0.4,0.5
2025-10-23T2000,2512A,106.6103,23.9011,百色市,市监测站,,42,42,23,20,11,34,,62,59,25,14,15,12,0.6,0.4
2025-10-23T2000,2513A,106.6538,23.8859,百色市,市中心血站,,,49,20,24,10,38,,59,57,33,16,24,11,,0.5
2025-10-23T2000,3406A,106.6085,23.8798,百色市,祈福高中,颗粒物(PM10),51,52,27,20,12,47,,57,57,20,17,9,9,0.5,0.4
2025-10-23T2000,2270A,117.396,32.939,蚌埠市,工人疗养院,颗粒物(PM10),61,71,50,26,22,67,,98,93,27,19,5,6,0.4,0.4
2025-10-23T2000,2271A,117.3605,32.9427,蚌埠市,百货大楼,颗粒物(PM10),52,53,42,18,20,78,,98,96,22,20,8,8,0.3,0.3
2025-10-23T2000,2273A,117.4185,32.8911,蚌埠市,蚌埠学院,颗粒物(PM10),56,61,43,27,25,32,,101,90,69,26,9,6,0.4,0.3
2025-10-23T2000,2274A,117.3533,32.9673,蚌埠市,淮上区政府,颗粒物(PM10),57,63,48,24,26,74,,101,96,41,25,6,6,0.3,0.3
2025-10-23T2000,2275A,117.3145,32.8977,蚌埠市,高新区,,48,48,42,24,24,52,,97,90,41,29,7,9,0.4,0.4
2025-10-23T2000,3715A,117.3092,32.9314,蚌埠市,蚌埠田家炳中学,颗粒物(PM10),58,66,54,26,26,65,,100,96,31,23,4,5,0.3,0.3
2025-10-23T2000,1585A,109.8756,40.6532,包头市,市环境监测站,细颗粒物(PM2.5),64,69,51,46,23,6,,63,58,91,28,10,13,1.2,0.9
2025-10-23T2000,1587A,109.9991,40.5842,包头市,包头八中,细颗粒物(PM2.5),99,79,45,74,36,3,,66,56,88,35,9,11,1.1,0.9
2025-10-23T2000,1588A,109.8538,40.6821,包头市,青山宾馆,细颗粒物(PM2.5),82,73,41,60,35,2,,59,52,92,30,11,16,1.3,1.1
2025-10-23T2000,1589A,109.8642,40.6288,包头市,惠龙物流,细颗粒物(PM2.5),63,71,37,45,26,42,,71,71,58,25,10,14,1.1,0.9
2025-10-23T2000,1590A,110.0377,40.5546,包头市,东河鸿龙湾,细颗粒物(PM2.5),117,104,42,88,32,7,,63,55,84,37,18,14,2.1,1
2025-10-23T2000,3283A,109.9154,40.5685,包头市,滨河大厦,细颗粒物(PM2.5),60,59,29,43,22,14,,76,71,72,22,10,11,1.0,0.6
2025-10-23T2000,3419A,109.9447,40.6261,包头市,包头市委党校,"颗粒物(PM10),细颗粒物(PM2.5)",59,68,40,42,23,2,,73,66,89,31,10,11,1.1,0.8
2025-10-23T2000,3683A,109.8331,40.6576,包头市,昆区政府,细颗粒物(PM2.5),83,75,46,61,36,12,,63,60,82,25,13,17,1.3,1.1
2025-10-23T2000,1930A,107.185,34.3063,宝鸡市,庙沟村,,,,,,,,,,,,,,,,
2025-10-23T2000,1931A,107.0708,34.3017,宝鸡市,竹园沟,,32,23,30,22,27,35,,46,44,22,15,7,7,0.6,0.5
2025-10-23T2000,1932A,107.1906,34.3672,宝鸡市,三陆医院,,49,,47,34,53,30,,39,38,32,28,5,5,0.6,0.6
2025-10-23T2000,1933A,107.1431,34.3547,宝鸡市,监测站,,42,42,48,28,39,21,,40,38,36,24,4,4,0.6,0.6
2025-10-23T2000,1934A,107.1186,34.3739,宝鸡市,技工学校,细颗粒物(PM2.5),78,,43,57,52,29,,39,39,30,26,4,4,0.7,0.7
2025-10-23T2000,1936A,107.2058,34.3497,宝鸡市,文理学院,,43,38,41,30,39,28,,44,43,36,27,5,5,0.7,0.6
2025-10-23T2000,1937A,107.2386,34.3622,宝鸡市,三迪小学,细颗粒物(PM2.5),59,,46,42,52,27,,42,40,37,29,4,4,0.6,0.5
2025-10-23T2000,4308A,107.3898,34.3601,宝鸡市,陈仓区北开路21号,细颗粒物(PM2.5),68,51,56,49,50,36,,42,42,17,20,5,5,0.5,0.5
2025-10-23T2000,1051A,115.493,38.8632,保定市,游泳馆,细颗粒物(PM2.5),110,107,75,83,56,6,,36,34,63,52,2,4,0.5,0.5
2025-10-23T2000,1052A,115.5213,38.8959,保定市,华电二区,细颗粒物(PM2.5),117,97,68,88,59,1,,32,27,60,40,4,6,,0.4
2025-10-23T2000,1053A,115.4713,38.9108,保定市,接待中心,细颗粒物(PM2.5),108,101,72,81,56,0,,32,28,57,39,4,5,0.6,0.4
2025-10-23T2000,1054A,115.4612,38.8416,保定市,地表水厂,细颗粒物(PM2.5),90,92,76,67,54,4,,36,33,59,40,8,9,0.5,0.4
2025-10-23T2000,3581A,115.31981,38.95208,保定市,满城区生态环境分局,细颗粒物(PM2.5),107,127,81,80,53,6,,34,32,51,38,3,2,0.6,0.3
2025-10-23T2000,3582A,115.47694,38.76408,保定市,清苑区第二中学,细颗粒物(PM2.5),83,104,67,61,46,3,,31,27,62,41,3,2,0.6,0.5
2025-10-23T2000,3583A,115.62909,39.02311,保定市,徐水物探局,细颗粒物(PM2.5),115,92,58,87,61,3,,21,18,52,42,4,4,0.9,0.6
2025-10-23T2000,4004A,115.4202,38.8656,保定市,双鹰农机,细颗粒物(PM2.5),119,119,82,90,55,6,,41,38,70,44,3,2,0.6,0.5
2025-10-23T2000,4034A,115.5150,38.8590,保定市,植保所站,细颗粒物(PM2.5),128,105,83,97,56,0,,25,21,68,43,5,4,0.8,0.7
2025-10-23T2000,2594A,99.1678,25.1081,保山市,市环境监测站,,25,25,23,3,14,46,,79,77,8,8,6,6,0.5,0.5
2025-10-23T2000,2595A,99.1711,25.1328,保山市,市环保局,,30,30,24,12,15,55,,85,83,4,5,6,6,0.6,0.6
2025-10-23T2000,1866A,109.2262,21.588,北海市,牛尾岭水库,,32,24,21,22,11,54,,61,61,14,11,3,3,0.6,0.6
2025-10-23T2000,1867A,109.1436,21.4086,北海市,海滩公园,,40,40,25,15,15,69,,70,70,10,9,6,6,0.4,0.2
2025-10-23T2000,1868A,109.0981,21.4661,北海市,新市环保局,,39,32,23,27,18,71,,76,76,8,7,8,5,0.4,0.4
2025-10-23T2000,1869A,109.1778,21.5233,北海市,北海工业园,,38,38,26,22,16,68,,73,73,13,11,6,5,0.4,0.4
2025-10-23T2000,3400A,109.1911,21.4415,北海市,龙潭自来水厂,,40,39,24,28,16,71,,74,74,8,6,7,7,0.4,0.4
2025-10-23T2000,1001A,116.3621,39.8784,北京市,万寿西宫,细颗粒物(PM2.5),83,84,69,61,51,27,,56,52,46,32,2,3,0.7,0.6
2025-10-23T2000,1002A,116.2202,40.2915,北京市,定陵,,,,,,,,,,,,,,,,
2025-10-23T2000,1003A,116.4174,39.9289,北京市,东四,细颗粒物(PM2.5),79,82,70,58,50,36,,61,59,35,28,4,4,0.8,0.7
2025-10-23T2000,1004A,116.4072,39.8863,北京市,天坛,细颗粒物(PM2.5),72,64,61,52,45,14,,57,50,27,29,1,2,0.6,0.5
2025-10-23T2000,1005A,116.462,39.9365,北京市,农展馆,细颗粒物(PM2.5),77,77,63,56,48,35,,63,61,39,31,4,4,0.5,0.4
2025-10-23T2000,1006A,116.3392,39.9295,北京市,官园,细颗粒物(PM2.5),78,79,67,57,50,26,,60,55,49,32,7,7,0.7,0.6
2025-10-23T2000,1007A,116.2878,39.9611,北京市,海淀万柳,,,81,65,59,50,,,54,52,66,41,3,4,0.9,0.6
2025-10-23T2000,1008A,116.6636,40.135,北京市,顺义新城,细颗粒物(PM2.5),73,77,58,53,42,24,,75,67,41,24,3,3,0.8,0.6
2025-10-23T2000,1009A,116.6275,40.3275,北京市,怀柔镇,细颗粒物(PM2.5),67,59,47,48,39,39,,69,64,38,24,4,4,0.9,0.7
2025-10-23T2000,1010A,116.2296,40.217,北京市,昌平镇,细颗粒物(PM2.5),64,62,52,46,40,29,,59,55,38,22,4,5,0.8,0.6
2025-10-23T2000,1011A,116.3966,39.9821,北京市,奥体中心,细颗粒物(PM2.5),73,75,61,53,46,25,,57,54,52,36,5,5,0.7,0.5
2025-10-23T2000,3281A,115.9718,40.4529,北京市,延庆夏都,细颗粒物(PM2.5),58,60,46,41,35,42,,61,59,34,23,2,2,0.5,0.5
2025-10-23T2000,3418A,116.8336,40.4095,北京市,密云新城,细颗粒物(PM2.5),65,66,51,47,39,22,,75,68,43,22,2,2,0.7,0.5
2025-10-23T2000,3671A,116.088,39.9726,北京市,门头沟三家店,细颗粒物(PM2.5),67,77,63,48,43,5,,58,46,55,32,3,2,0.8,0.6
2025-10-23T2000,3672A,116.1541,39.8204,北京市,丰台云岗,细颗粒物(PM2.5),83,93,74,61,52,1,,55,44,69,34,3,4,0.7,0.6
2025-10-23T2000,3673A,116.6804,39.9081,北京市,通州东关,细颗粒物(PM2.5),73,79,71,53,47,37,,66,64,43,37,4,4,0.5,0.4
2025-10-23T2000,3674A,115.9577,39.7603,北京市,房山燕山,细颗粒物(PM2.5),69,71,64,50,46,21,,43,38,30,27,3,3,0.5,0.6
2025-10-23T2000,3675A,116.4672,39.7733,北京市,大兴旧宫,"颗粒物(PM10),细颗粒物(PM2.5)",60,70,71,43,44,13,,59,52,36,35,2,3,0.7,0.6
2025-10-23T2000,3694A,115.986,40.4563,北京市,延庆石河营,细颗粒物(PM2.5),55,55,42,39,32,34,,57,54,33,23,2,2,0.6,0.5
2025-10-23T2000,3695A,116.6151,40.3053,北京市,怀柔新城,细颗粒物(PM2.5),62,58,48,44,38,46,,69,64,30,20,4,4,0.6,0.5
2025-10-23T2000,3696A,116.2545,39.8768,北京市,丰台小屯,细颗粒物(PM2.5),70,86,69,51,47,1,,52,42,65,35,4,4,0.8,0.7
2025-10-23T2000,3697A,116.84,40.3844,北京市,密云镇,细颗粒物(PM2.5),80,85,58,59,44,1,,77,68,74,27,6,6,0.9,0.5
2025-10-23T2000,4182A,116.1942,39.9158,北京市,八角北路9号,细颗粒物(PM2.5),89,98,70,66,50,2,,51,41,32,31,3,2,0.9,0.4
2025-10-23T2000,4194A,117.0790,40.1518,北京市,洳河巡河路,细颗粒物(PM2.5),84,96,59,62,42,28,,79,70,38,16,3,4,0.8,0.5
2025-10-23T2000,1761A,123.8275,41.3064,本溪市,大峪,细颗粒物(PM2.5),59,61,51,42,30,60,,82,79,19,30,8,9,0.2,0.4
2025-10-23T2000,1762A,123.7567,41.3325,本溪市,溪湖,细颗粒物(PM2.5),59,60,71,42,31,61,,84,81,26,34,8,2,0.5,0.6
2025-10-23T2000,1763A,123.7169,41.3094,本溪市,彩屯,细颗粒物(PM2.5),72,71,61,52,36,34,,71,64,46,33,14,9,1.0,0.8
2025-10-23T2000,1764A,123.7669,41.2864,本溪市,东明,细颗粒物(PM2.5),94,75,59,70,33,38,,80,74,49,36,9,8,0.9,0.8
2025-10-23T2000,1765A,123.7992,41.2664,本溪市,新立屯,细颗粒物(PM2.5),80,76,35,59,23,6,,82,65,73,40,7,7,0.8,0.6
2025-10-23T2000,1766A,123.8142,41.3472,本溪市,威宁,细颗粒物(PM2.5),74,85,61,54,35,16,,76,65,58,32,5,5,0.8,0.7
2025-10-23T2000,2587A,105.2864,27.3125,毕节市,八中,细颗粒物(PM2.5),53,47,24,37,19,30,,47,45,11,8,9,9,0.6,0.5
2025-10-23T2000,2588A,105.31,27.2944,毕节市,师专,,46,41,21,32,16,37,,47,47,13,10,8,9,0.7,0.7
2025-10-23T2000,4263A,105.3688,27.3598,毕节市,工业大道,,49,44,21,34,16,25,,42,39,13,8,10,10,0.6,0.6
2025-10-23T2000,1629A,118.0018,37.3617,滨州市,第二水厂,颗粒物(PM10),57,63,41,25,21,33,,59,43,39,35,8,10,0.5,0.2
2025-10-23T2000,1630A,117.9776,37.393,滨州市,北中新校,颗粒物(PM10),60,70,42,29,20,25,,62,42,48,35,7,7,0.6,0.4
2025-10-23T2000,3514A,117.9378,37.3956,滨州市,中海酒店,颗粒物(PM10),65,80,43,36,24,14,,60,43,60,33,6,5,1.0,0.6
2025-10-23T2000,3515A,117.9378,37.3553,滨州市,开发区一中,颗粒物(PM10),71,92,46,48,22,25,,75,54,61,31,8,6,1.0,0.5
2025-10-23T2000,3516A,118.0917,37.694,滨州市,金海六路,,49,49,40,14,20,50,,64,46,27,32,4,6,0.6,0.8
2025-10-23T2000,4028A,117.9956,37.3753,滨州市,滨州市西街道办事处,颗粒物(PM10),57,63,38,31,25,37,,63,45,39,33,8,9,0.6,0.4
2025-10-23T2000,2311A,115.8072,33.8399,亳州市,污水处理厂,细颗粒物(PM2.5),75,83,83,55,59,66,,105,102,32,27,10,14,0.5,0.5
2025-10-23T2000,2312A,115.7789,33.8518,亳州市,三国揽胜宫,颗粒物(PM10),61,72,77,37,46,86,,108,108,28,24,8,10,0.6,0.6
2025-10-23T2000,3332A,115.7633,33.8034,亳州市,亳州学院,颗粒物(PM10),62,73,85,36,56,99,,112,112,19,20,8,11,0.4,0.5
2025-10-23T2000,2693A,82.0485,44.8556,博尔塔拉蒙古自治州,市党校,颗粒物(PM10),79,108,80,42,48,66,,75,75,30,21,5,7,0.2,0.3
2025-10-23T2000,2694A,82.0806,44.8969,博尔塔拉蒙古自治州,市环保局,颗粒物(PM10),89,128,85,31,31,53,,73,73,41,32,10,10,0.7,0.8
2025-10-23T2000,1071A,116.8842,38.2991,沧州市,沧县城建局,细颗粒物(PM2.5),87,117,66,64,54,17,,59,56,75,44,6,7,1.6,0.6
2025-10-23T2000,1072A,116.8584,38.3254,沧州市,电视转播站,细颗粒物(PM2.5),92,101,66,68,52,19,,52,50,56,47,4,4,0.7,0.7
2025-10-23T2000,1073A,116.8709,38.3228,沧州市,市环保局,细颗粒物(PM2.5),88,97,71,65,58,31,,55,54,48,48,5,4,0.7,0.8
2025-10-23T2000,3324A,116.8136,38.3004,沧州市,河北水利电力学院,颗粒物(PM10),67,83,62,46,41,36,,56,56,44,39,3,4,0.5,0.5
2025-10-23T2000,2622A,97.1806,31.1273,昌都市,昌都监测站,,35,22,16,6,9,109,,108,108,2,15,3,3,0.3,0.4
2025-10-23T2000,3719A,97.1714,31.1406,昌都市,昌都会议中心,,33,9,21,3,8,104,,109,109,1,6,2,2,0.1,0.3
2025-10-23T2000,2690A,88.1236,43.8886,昌吉回族自治州,天山天池,,,,,,,,,,,,,,,,
2025-10-23T2000,2692A,87.2717,44.0297,昌吉回族自治州,新区政务中心,颗粒物(PM10),102,154,122,73,52,,,106,106,31,42,15,11,0.8,0.7
2025-10-23T2000,3613A,87.3095,44.0142,昌吉回族自治州,亚心广场,细颗粒物(PM2.5),140,207,177,107,77,104,,105,105,33,41,19,12,0.8,0.8
2025-10-23T2000,1120A,125.2863,43.9027,长春市,客车厂,细颗粒物(PM2.5),62,54,59,44,43,20,,68,59,62,45,9,8,0.5,0.6
2025-10-23T2000,1121A,125.2841,43.8463,长春市,邮电学院,,36,35,45,25,32,38,,70,66,34,36,7,7,0.4,0.5
2025-10-23T2000,1122A,125.3716,43.8772,长春市,劳动公园,颗粒物(PM10),57,64,59,35,33,30,,64,57,50,43,11,10,0.6,0.7
2025-10-23T2000,1123A,125.3297,43.8805,长春市,园林处,,36,36,42,25,29,28,,65,60,50,41,7,7,0.3,0.4
2025-10-23T2000,1124A,125.4605,43.79,长春市,净月潭,,37,37,40,23,26,53,,71,67,15,35,6,6,0.3,0.4
2025-10-23T2000,1125A,125.7194,43.515,长春市,甩湾子,细颗粒物(PM2.5),70,,44,51,36,55,,81,78,24,23,5,5,0.6,0.5
2025-10-23T2000,1126A,125.3863,43.8447,长春市,经开区环卫处,,48,48,61,25,33,26,,64,57,46,43,7,8,0.5,0.7
2025-10-23T2000,1127A,125.245,43.7783,长春市,高新区管委会,颗粒物(PM10),53,55,72,26,47,16,,66,52,59,43,8,8,0.5,0.6
2025-10-23T2000,1128A,125.1761,43.8325,长春市,岱山公园,颗粒物(PM10),66,81,71,46,52,7,,60,47,83,53,11,9,0.6,0.6
2025-10-23T2000,4281A,125.3346,43.9164,长春市,北亚泰大街1068号,细颗粒物(PM2.5),70,60,52,51,43,5,,60,50,76,47,11,10,0.7,0.6
2025-10-23T2000,1335A,113.0833,28.2325,长沙市,经开区环保局,,48,48,39,27,22,99,,103,103,17,18,7,6,0.4,0.4
2025-10-23T2000,1336A,112.8872,28.2189,长沙市,高开区环保局,,46,46,41,26,25,102,,104,104,17,17,6,6,0.3,0.3
2025-10-23T2000,1337A,113.0792,28.2053,长沙市,马坡岭,,45,45,41,26,23,105,,110,110,16,14,7,6,0.4,0.4
2025-10-23T2000,1338A,112.9394,28.19,长沙市,湖南师范大学,,40,40,42,21,23,106,,106,106,18,16,5,5,0.5,0.5
2025-10-23T2000,1339A,113.0178,28.1322,长沙市,雨花区环保局,颗粒物(PM10),51,51,39,24,21,104,,102,102,16,17,8,8,0.4,0.3
2025-10-23T2000,1340A,112.9792,28.2597,长沙市,伍家岭,,47,47,39,21,20,104,,106,106,16,18,5,5,0.4,0.4
2025-10-23T2000,1341A,113.0014,28.1944,长沙市,火车新站,,42,42,41,29,26,108,,108,108,18,18,10,10,0.4,0.4
2025-10-23T2000,1342A,112.9844,28.1178,长沙市,天心区环保局,,43,43,39,22,22,114,,112,112,14,15,6,6,0.4,0.4
2025-10-23T2000,1343A,112.8908,28.1308,长沙市,湖南中医药大学,颗粒物(PM10),53,56,44,21,21,102,,105,105,13,13,5,6,0.6,0.5
2025-10-23T2000,1344A,112.9581,28.3611,长沙市,沙坪,,,,,,,,,,,,,,,,
2025-10-23T2000,1727A,113.1147,36.1547,长治市,清华站,细颗粒物(PM2.5),89,,54,66,46,50,,71,68,32,26,12,18,1.1,0.8
2025-10-23T2000,1730A,113.0886,36.2125,长治市,审计局,细颗粒物(PM2.5),104,,41,78,53,55,,68,67,26,23,9,11,0.9,0.8
2025-10-23T2000,1731A,113.0844,36.1856,长治市,长治八中,细颗粒物(PM2.5),88,76,67,65,52,47,,67,65,27,20,9,12,1.0,0.7
2025-10-23T2000,2845A,113.1569,36.1911,长治市,德盛苑,细颗粒物(PM2.5),85,63,53,63,46,49,,72,70,23,19,6,14,1.1,1.1
2025-10-23T2000,3568A,113.06,36.0464,长治市,向阳小学,细颗粒物(PM2.5),84,107,78,62,44,72,,85,78,45,29,8,22,0.7,0.6
2025-10-23T2000,3569A,112.8792,36.3144,长治市,屯留一中,,,,66,,44,43,,69,68,,20,12,11,1.7,1.9
2025-10-23T2000,4189A,113.1131,36.19948,长治市,英华南巷50号,细颗粒物(PM2.5),98,73,62,73,51,44,,66,63,35,26,8,12,1.3,1.3
2025-10-23T2000,4190A,113.2367,36.3344,长治市,学府街1号,细颗粒物(PM2.5),99,,66,74,61,41,,69,64,36,26,14,13,1.4,1
2025-10-23T2000,1854A,111.6975,28.9703,常德市,市二中,颗粒物(PM10),54,58,50,31,29,107,,108,108,10,10,6,6,0.3,0.3
2025-10-23T2000,1857A,111.7158,29.1456,常德市,白鹤山,,,,,,,,,,,,,,,,
2025-10-23T2000,3138A,111.7153,29.0289,常德市,武陵区永安,颗粒物(PM10),52,54,47,25,24,103,,108,108,14,13,6,6,0.5,0.4
2025-10-23T2000,3139A,111.6892,28.9881,常德市,鼎城区玉霞,颗粒物(PM10),51,52,46,30,29,109,,112,112,8,8,6,7,0.6,0.5
2025-10-23T2000,3140A,111.6625,29.0531,常德市,武陵区长庚,颗粒物(PM10),52,53,50,28,28,116,,116,116,9,9,4,4,0.2,0.2
2025-10-23T2000,1196A,119.9633,31.762,常州市,市监测站,,38,38,28,12,12,78,,92,91,17,16,8,8,0.5,0.4
2025-10-23T2000,1200A,119.9468,31.7069,常州市,武进监测站,,32,32,26,10,8,81,,92,91,19,20,10,7,0.4,0.3
2025-10-23T2000,1201A,119.9255,31.9087,常州市,安家,,,29,27,16,9,79,,93,91,,26,21,10,,0.4
2025-10-23T2000,3002A,119.9805,31.8174,常州市,行政中心,,48,48,33,21,15,76,,90,89,20,19,4,5,0.6,0.6
2025-10-23T2000,3003A,120.0522,31.7748,常州市,经开区,,50,50,35,17,10,70,,91,88,25,23,6,8,0.5,0.5
2025-10-23T2000,3010A,119.9025,31.7964,常州市,钟楼,,32,32,29,12,12,85,,90,90,19,23,8,9,0.6,0.6
2025-10-23T2000,3429A,119.8598,31.7066,常州市,武进经发区,,34,34,31,16,14,79,,83,82,27,32,11,11,0.7,0.6
2025-10-23T2000,3430A,119.5826,31.7245,常州市,金坛城区,,33,33,29,19,15,72,,90,87,19,18,10,10,0.5,0.5
2025-10-23T2000,2220A,120.4318,41.5881,朝阳市,西梁,,,148,62,,26,8,,72,63,74,40,15,8,1.9,0.7
2025-10-23T2000,2221A,120.4521,41.5646,朝阳市,河畔小区,颗粒物(PM10),58,66,52,28,27,45,,75,72,29,33,7,7,0.6,0.6
2025-10-23T2000,2222A,120.4176,41.5648,朝阳市,八里堡,细颗粒物(PM2.5),98,122,56,73,31,6,,74,63,77,41,9,8,1.4,0.8
2025-10-23T2000,2223A,120.3806,41.5969,朝阳市,农业园区,细颗粒物(PM2.5),60,47,37,43,21,16,,72,63,59,32,7,7,0.6,0.4
2025-10-23T2000,1705A,116.6367,23.6719,潮州市,西园路,,,,,,,,,,,,,,,,
2025-10-23T2000,3026A,116.6183,23.6608,潮州市,市政府,,19,19,18,12,8,57,,59,59,1,2,2,2,0.1,0.1
2025-10-23T2000,4036A,116.6461,23.6761,潮州市,金山,,22,18,19,15,9,50,,52,52,5,4,2,3,0.4,0.4
2025-10-23T2000,2472A,113.0073,25.9061,郴州市,马头岭,,,,,,,,,,,,,,,,
2025-10-23T2000,2473A,113.0116,25.8226,郴州市,市职中,,,51,32,32,23,2,,44,36,26,16,3,3,,0.7
2025-10-23T2000,2475A,113.0383,25.8071,郴州市,市审计局,,45,38,32,31,23,28,,43,40,14,13,9,10,0.3,0.3
2025-10-23T2000,2476A,113.0348,25.7759,郴州市,市环保局,颗粒物(PM10),58,66,40,27,21,4,,42,36,35,16,2,1,0.6,0.4
2025-10-23T2000,4252A,113.0138,25.8011,郴州市,好美居路49号,颗粒物(PM10),51,51,32,32,24,8,,47,40,42,20,9,9,0.8,0.5
2025-10-23T2000,1431A,103.9728,30.7236,成都市,金泉两河,,10,7,10,3,3,13,,22,16,20,17,2,2,0.4,0.5
2025-10-23T2000,1432A,104.176,30.6872,成都市,十里店,,15,15,12,6,6,42,,32,31,15,18,2,3,0.4,0.4
2025-10-23T2000,1433A,104.079,30.5706,成都市,三瓦窑,,26,25,20,18,17,28,,37,34,22,19,4,4,0.6,0.6
2025-10-23T2000,1434A,104.1114,30.63,成都市,沙河铺,,23,19,25,16,17,28,,23,23,23,24,1,4,0.5,0.5
2025-10-23T2000,1437A,104.0786,30.6531,成都市,君平街,,19,19,18,3,11,4,,18,15,27,18,3,4,0.6,0.5
2025-10-23T2000,1438A,103.613,31.0283,成都市,灵岩寺,,,,,,,,,,,,,,,,
2025-10-23T2000,2880A,104.0239,30.65639,成都市,大石西路,,22,,16,15,11,6,,21,17,28,22,2,2,0.5,0.5
2025-10-23T2000,3136A,104.2725,30.5589,成都市,龙泉驿区区政府,,15,7,4,3,3,48,,46,46,13,13,5,5,0.5,0.5
2025-10-23T2000,3357A,104.0106,30.6931,成都市,金博路,,14,7,7,3,4,7,,18,13,27,23,6,6,0.6,0.6
2025-10-23T2000,3359A,104.0578,30.5225,成都市,华阳,,,,13,,12,35,,28,28,,21,4,4,,0.6
2025-10-23T2000,3488A,104.3880,30.7467,成都市,青石路225号,,26,21,15,18,8,38,,37,37,18,14,2,2,0.7,0.6
2025-10-23T2000,3489A,104.0789,30.4072,成都市,科学城,,16,13,13,11,9,45,,40,37,11,13,4,4,0.5,0.5
2025-10-23T2000,4011A,103.8506,30.6947,成都市,光华大道三段,,19,19,16,3,5,11,,24,18,24,19,1,1,0.7,0.6
2025-10-23T2000,4224A,104.2433,30.5353,成都市,鲸龙路1057号,,15,,9,10,9,43,,40,40,21,19,4,5,0.5,0.6
2025-10-23T2000,1062A,117.9531,40.9081,承德市,铁路,颗粒物(PM10),63,75,52,42,27,16,,65,57,53,32,3,3,0.8,0.6
2025-10-23T2000,1063A,117.9392,40.9763,承德市,中国银行,颗粒物(PM10),61,72,47,31,20,13,,72,63,50,29,1,3,0.7,0.5
2025-10-23T2000,1064A,117.9503,40.928,承德市,开发区,颗粒物(PM10),71,92,60,34,29,13,,74,58,56,35,3,3,0.7,0.5
2025-10-23T2000,1066A,117.9268,41.0026,承德市,离宫,,,,,,,,,,,,,,,,
2025-10-23T2000,4274A,117.7994,40.9605,承德市,滨河大街98号,颗粒物(PM10),57,64,44,33,28,17,,73,66,49,29,1,3,0.7,0.5
2025-10-23T2000,2314A,117.47,30.6618,池州市,池州学院,,50,50,38,31,20,73,,94,94,38,27,10,12,0.6,0.6
2025-10-23T2000,3237A,117.4918,30.6617,池州市,展览馆,,47,47,38,24,19,60,,95,92,35,29,8,12,0.8,0.7
2025-10-23T2000,3333A,117.5627,30.695,池州市,第八中学,,48,48,37,24,18,66,,93,91,29,27,7,10,0.5,0.7
2025-10-23T2000,3334A,117.5038,30.6243,池州市,第十二中学,,37,37,34,18,18,76,,96,95,29,29,7,9,0.5,0.6
2025-10-23T2000,1744A,118.9233,42.2816,赤峰市,松山一中,,46,46,53,22,26,14,,58,53,71,47,8,16,0.7,0.8
2025-10-23T2000,1745A,118.9576,42.2728,赤峰市,哈达街,颗粒物(PM10),64,78,65,38,33,17,,47,44,68,48,23,22,0.9,0.9
2025-10-23T2000,1746A,118.8788,42.2554,赤峰市,天义路,,48,38,40,33,32,37,,51,43,47,44,11,21,0.5,0.7
2025-10-23T2000,3058A,119.2658,42.0353,赤峰市,银河街,颗粒物(PM10),53,56,51,18,23,43,,64,59,28,29,20,21,0.3,0.3
2025-10-23T2000,3286A,118.9359,42.3147,赤峰市,桥北物流园区,细颗粒物(PM2.5),58,48,46,41,29,33,,64,56,45,36,12,14,0.5,0.6
2025-10-23T2000,2521A,107.3476,22.4136,崇左市,市环保局江州分局,,21,21,16,13,7,28,,43,38,12,6,2,2,0.6,0.5
2025-10-23T2000,4256A,107.3750,22.3736,崇左市,石景林东路7号,,,,12,11,7,44,,53,52,10,7,,6,0.5,0.5
2025-10-23T2000,2298A,118.3093,32.3153,滁州市,老年大学,,50,50,31,24,20,78,,100,98,18,12,10,10,0.2,0.2
2025-10-23T2000,2299A,118.3244,32.2786,滁州市,人大宾馆,,41,41,29,20,14,82,,97,96,17,9,7,5,0.2,0.2
2025-10-23T2000,3207A,118.3118,32.3038,滁州市,市政府原办公楼,,46,46,31,25,17,82,,99,97,24,15,6,6,0.4,0.3
2025-10-23T2000,3331A,118.3267,32.2634,滁州市,图书馆,,40,40,27,27,15,80,,100,98,24,13,9,7,0.3,0.2
2025-10-23T2000,2605A,101.5482,25.0441,楚雄彝族自治州,州环境监测站,,19,15,18,13,14,58,,53,53,6,8,7,9,0.6,0.7
2025-10-23T2000,2606A,101.538,25.0492,楚雄彝族自治州,市经济开发区,,28,28,24,19,15,56,,52,52,10,11,6,8,0.7,0.8
2025-10-23T2000,2548A,107.5277,31.2827,达州市,达州职业技术学院,,,,,,,,,,,,,,,,
2025-10-23T2000,2549A,107.5086,31.2186,达州市,市环境监测站,,,27,26,,4,10,,45,40,41,25,6,9,0.5,0.4
2025-10-23T2000,2550A,107.4988,31.2132,达州市,凤凰小区,,34,34,19,17,7,18,,51,47,37,22,4,7,0.4,0.3
2025-10-23T2000,2551A,107.5082,31.1986,达州市,达县机关宾馆,,24,24,19,3,5,18,,44,41,32,25,4,8,0.4,0.4
2025-10-23T2000,2552A,107.4644,31.2124,达州市,市政中心,,38,38,26,12,5,19,,51,48,34,19,5,10,0.4,0.4
2025-10-23T2000,2614A,100.1542,25.7054,大理白族自治州,大理市环境监测站,,24,24,20,10,11,58,,73,71,11,10,5,5,0.6,0.7
2025-10-23T2000,2615A,100.2171,25.5811,大理白族自治州,大理古城,,36,36,20,21,15,63,,83,83,10,9,7,7,1.0,0.9
2025-10-23T2000,1109A,121.612,38.9741,大连市,甘井子,颗粒物(PM10),51,51,41,18,18,67,,69,69,22,26,6,10,0.2,0.6
2025-10-23T2000,1110A,121.565,38.9511,大连市,周水子,,32,32,29,16,18,68,,77,76,30,27,7,8,0.3,0.4
2025-10-23T2000,1111A,121.5637,38.8845,大连市,星海三站,,30,30,27,17,18,72,,76,76,13,13,6,8,0.3,0.4
2025-10-23T2000,1112A,121.6302,38.9117,大连市,青泥洼桥,,41,41,36,18,18,62,,60,60,26,24,10,12,0.2,0.3
2025-10-23T2000,1113A,121.6251,38.8638,大连市,傅家庄,,39,39,33,17,17,65,,67,67,19,18,6,7,0.5,0.6
2025-10-23T2000,1114A,121.5213,38.8661,大连市,七贤岭,,33,33,30,16,15,75,,76,76,14,15,6,8,0.4,0.6
2025-10-23T2000,1115A,121.2529,38.8061,大连市,旅顺,,25,25,22,14,14,75,,72,72,7,9,9,9,0.3,0.3
2025-10-23T2000,1116A,121.7485,39.1311,大连市,金州,,42,42,37,23,22,76,,78,78,22,25,8,11,0.3,0.4
2025-10-23T2000,1117A,121.7811,39.0496,大连市,开发区,,35,35,25,22,15,69,,69,69,17,15,6,6,0.5,0.5
2025-10-23T2000,1118A,121.9762,39.0631,大连市,双D港,颗粒物(PM10),53,55,39,36,21,70,,77,74,19,15,9,9,0.6,1
2025-10-23T2000,1789A,124.81117,46.03138,大庆市,大同区,细颗粒物(PM2.5),84,86,40,62,19,27,,60,46,44,26,15,9,1.1,0.6
2025-10-23T2000,1790A,125.129,46.533,大庆市,龙凤区,颗粒物(PM10),63,76,36,22,19,26,,63,49,48,25,12,11,0.8,0.6
2025-10-23T2000,1791A,124.902,46.408,大庆市,红岗区,颗粒物(PM10),58,66,36,17,18,9,,68,50,19,11,5,6,0.7,0.6
2025-10-23T2000,1792A,125.153,46.586,大庆市,萨尔图区,颗粒物(PM10),58,66,33,33,18,5,,65,46,78,24,10,9,0.9,0.3
2025-10-23T2000,1793A,124.9042,46.6215,大庆市,让胡路区,颗粒物(PM10),53,55,36,35,25,11,,64,52,64,27,6,6,0.8,0.5
2025-10-23T2000,3481A,125.141,46.634,大庆市,萨区政府监测点,,,44,30,14,10,,,70,66,,12,8,8,0.5,0.3
2025-10-23T2000,1721A,113.3819,40.1097,大同市,果树场,,46,,31,32,28,8,,32,29,38,29,7,8,0.9,0.9
2025-10-23T2000,1723A,113.2994,40.0758,大同市,云冈宾馆,,49,43,38,34,30,21,,30,29,36,27,4,6,0.9,1
2025-10-23T2000,1724A,113.3444,40.0917,大同市,大同大学,,40,40,32,22,28,24,,36,36,31,28,6,7,0.6,0.8
2025-10-23T2000,1725A,113.2661,40.1269,大同市,安家小村,,48,48,38,32,27,26,,34,33,34,29,4,5,0.4,0.7
2025-10-23T2000,1726A,113.2711,40.0844,大同市,教育学院,颗粒物(PM10),55,59,41,27,29,19,,26,26,35,31,4,6,0.7,0.8
2025-10-23T2000,3282A,113.3397,40.0597,大同市,大同市卫生学校,颗粒物(PM10),52,53,39,27,27,14,,30,28,40,29,6,5,0.7,0.8
2025-10-23T2000,3565A,113.1367,40.1122,大同市,云冈站,"颗粒物(PM10),细颗粒物(PM2.5)",60,70,48,43,38,5,,31,25,38,29,6,8,0.9,1
2025-10-23T2000,3566A,113.1186,40.2556,大同市,图书馆,细颗粒物(PM2.5),74,68,48,54,38,2,,40,30,39,32,8,19,0.8,1.4
2025-10-23T2000,3567A,113.5931,40.0461,大同市,区一中,颗粒物(PM10),82,114,39,35,30,43,,53,52,18,18,3,3,0.8,0.6
2025-10-23T2000,4199A,113.2798,40.0997,大同市,魏都大道141号,,49,49,40,28,30,27,,29,29,31,33,4,5,0.6,0.6
2025-10-23T2000,2269A,124.1069,50.4097,大兴安岭地区,科技局,颗粒物(PM10),58,66,29,37,18,21,,62,51,28,8,6,4,0.5,0.3
2025-10-23T2000,3663A,124.1164,50.4278,大兴安岭地区,红旗社区,颗粒物(PM10),64,78,19,42,10,9,,60,47,43,17,10,4,0.7,0.4
2025-10-23T2000,1600A,124.3303,40.0625,丹东市,江湾东路,,46,40,36,32,26,73,,86,81,24,20,10,9,0.6,0.6
2025-10-23T2000,1601A,124.4256,40.1503,丹东市,临江后街,,30,30,33,18,20,80,,86,82,12,16,5,8,0.4,0.5
2025-10-23T2000,1602A,124.3933,40.1461,丹东市,元宝山,,33,33,30,21,21,67,,87,83,20,16,10,10,0.5,0.4
2025-10-23T2000,1603A,124.3633,40.1092,丹东市,民主桥,,40,40,36,25,20,72,,85,79,22,21,7,7,0.5,0.5
2025-10-23T2000,3541A,109.5726,19.5167,儋州市,第一中学子站,,36,36,23,20,12,44,,38,38,8,6,2,2,0.4,0.8
2025-10-23T2000,3542A,109.5567,19.5187,儋州市,东坡学校子站,,28,21,18,19,11,54,,45,45,8,8,2,2,0.5,0.5
2025-10-23T2000,2616A,98.5842,24.428,德宏傣族景颇族自治州,德宏州监测站,,35,35,24,22,17,35,,58,58,27,16,16,12,0.7,0.5
2025-10-23T2000,3677A,98.5881,24.4368,德宏傣族景颇族自治州,芒市人民政府综合楼,,32,32,31,22,15,39,,57,57,15,13,9,9,0.7,0.5
2025-10-23T2000,1901A,104.4239,31.1208,德阳市,东山公园,,10,,3,7,8,23,,30,23,10,7,1,1,0.7,0.7
2025-10-23T2000,1902A,104.3826,31.1317,德阳市,西小区,,,17,16,8,7,18,,32,21,17,12,3,3,,0.5
2025-10-23T2000,1904A,104.3553,31.1091,德阳市,耐火材料厂,,13,13,13,6,7,12,,24,16,20,16,1,2,0.8,0.8
2025-10-23T2000,3639A,104.4019,31.1244,德阳市,市教育局,,12,8,9,8,7,13,,26,16,19,12,3,3,0.8,0.8
2025-10-23T2000,1622A,116.3032,37.4674,德州市,儿童乐园,颗粒物(PM10),75,100,80,48,46,29,,51,50,60,49,11,13,0.8,0.7
2025-10-23T2000,1624A,116.2991,37.4451,德州市,监理站,细颗粒物(PM2.5),73,80,67,53,44,40,,60,59,64,54,17,17,0.8,0.7
2025-10-23T2000,3066A,116.2721,37.4379,德州市,九衢泉纯净水厂,颗粒物(PM10),69,88,77,44,39,31,,48,46,60,50,15,15,0.7,0.6
2025-10-23T2000,3371A,116.3728,37.4403,德州市,开发区人民医院,,,75,71,41,36,22,,47,44,68,53,,16,0.8,0.8
2025-10-23T2000,3511A,116.5652,37.3319,德州市,陵城艺术中心,细颗粒物(PM2.5),89,95,75,66,45,32,,56,52,42,41,11,13,0.9,0.7
2025-10-23T2000,4292A,116.3525,37.4209,德州市,新河东路,"颗粒物(PM10),细颗粒物(PM2.5)",62,73,73,44,38,35,,54,53,61,55,10,12,0.9,0.8
2025-10-23T2000,2621A,99.7056,27.8317,迪庆藏族自治州,迪庆州站,,31,31,21,18,15,82,,92,91,12,7,6,6,0.5,0.4
2025-10-23T2000,3180A,99.7136,27.8094,迪庆藏族自治州,质量技术监督局,,27,21,25,14,14,84,,92,90,15,11,8,7,0.4,0.5
2025-10-23T2000,4257A,104.6092,35.5962,定西市,将台街,,32,31,27,22,19,51,,63,59,16,18,7,7,0.4,0.4
2025-10-23T2000,4309A,104.6159,35.5701,定西市,正龙路62号,,44,44,38,24,21,43,,58,52,12,11,4,4,0.4,0.4
2025-10-23T2000,1389A,113.7547,23.0494,东莞市,莞城梨川,,22,22,16,12,10,70,,75,75,12,12,5,5,0.4,0.5
2025-10-23T2000,1390A,113.7944,23.0128,东莞市,东城石井,,25,25,16,15,11,64,,72,71,16,14,7,6,0.5,0.5
2025-10-23T2000,1391A,113.7383,22.9658,东莞市,南城西平,,23,23,17,13,10,63,,72,72,20,18,6,7,0.6,0.5
2025-10-23T2000,3319A,113.7338,23.0381,东莞市,万江金泰,,23,23,15,15,10,65,,72,72,10,10,3,3,0.7,0.7
2025-10-23T2000,3626A,113.7533,23.0202,东莞市,南城元岭,,26,24,17,18,12,72,,77,77,12,11,6,6,0.3,0.3
2025-10-23T2000,3627A,113.7875,23.0457,东莞市,东城主山,,28,28,16,14,9,70,,76,76,15,12,3,2,0.3,0.3
2025-10-23T2000,1666A,118.6614,37.4309,东营市,市环保局,,26,19,30,3,8,81,,76,76,18,23,6,7,0.5,0.6
2025-10-23T2000,3036A,118.6904,37.4338,东营市,开发区管委会,,28,21,27,7,14,87,,81,81,9,17,5,6,0.4,0.4
2025-10-23T2000,3365A,118.5719,37.565,东营市,垦利区民丰路,,19,19,30,7,13,58,,66,65,24,28,4,4,0.4,0.5
2025-10-23T2000,3498A,118.5055,37.8612,东营市,河口城区,,34,34,40,3,17,75,,69,64,23,27,6,7,0.3,0.4
2025-10-23T2000,3646A,118.4978,37.4623,东营市,胜利站,,,,38,9,14,72,,70,67,23,31,8,9,0.4,0.4
2025-10-23T2000,3734A,118.35,37.26,东营市,理想之城,,29,29,33,9,15,68,,64,64,26,38,2,3,0.3,0.4
2025-10-23T2000,1591A,110.0023,39.8129,鄂尔多斯市,综合楼,颗粒物(PM10),51,51,34,27,19,54,,75,73,50,30,8,8,0.6,0.7
2025-10-23T2000,1592A,109.9486,39.8261,鄂尔多斯市,巴音孟克林场办事处,颗粒物(PM10),67,83,35,36,26,18,,72,68,75,31,15,10,1.3,0.6
2025-10-23T2000,1593A,109.7736,39.5986,鄂尔多斯市,康泽苑,,48,48,32,24,22,40,,76,75,45,19,4,5,0.7,0.5
2025-10-23T2000,1594A,109.8119,39.5989,鄂尔多斯市,华泰汽车城,颗粒物(PM10),56,61,31,29,21,7,,69,61,66,26,5,5,0.9,0.6
2025-10-23T2000,1595A,109.9734,39.7884,鄂尔多斯市,奥林花园,颗粒物(PM10),70,90,40,29,22,1,,69,57,80,33,7,6,0.9,0.7
2025-10-23T2000,2436A,114.8938,30.3994,鄂州市,市政府,颗粒物(PM10),53,55,30,29,19,64,,85,82,27,17,9,8,0.5,0.3
2025-10-23T2000,2437A,114.8989,30.3714,鄂州市,赵家坝,颗粒物(PM10),51,52,30,31,15,78,,109,106,20,9,8,8,0.7,0.5
2025-10-23T2000,3654A,114.8094,30.4089,鄂州市,精准医疗中心,,39,39,33,14,17,72,,108,104,26,14,14,7,0.3,0.3
2025-10-23T2000,2454A,109.4978,30.2981,恩施土家族苗族自治州,湖北民院,,19,19,16,10,10,31,,47,43,12,9,6,6,0.4,0.3
2025-10-23T2000,2455A,109.4707,30.2798,恩施土家族苗族自治州,州电力总公司,,,29,14,22,9,20,,40,38,,7,,5,,0.5
2025-10-23T2000,3549A,109.5061,30.3772,恩施土家族苗族自治州,龙凤新区,,18,18,14,12,10,14,,40,35,11,6,6,6,0.4,0.4
2025-10-23T2000,2499A,108.3411,21.6158,防城港市,沙万,,26,24,21,18,11,56,,59,59,8,6,4,4,0.3,0.3
2025-10-23T2000,2500A,108.3514,21.7731,防城港市,防城档案局,,31,31,32,14,11,51,,53,53,12,8,6,6,0.6,0.5
2025-10-23T2000,2501A,108.3506,21.6414,防城港市,大海花园,,26,19,19,18,11,59,,62,62,9,6,4,15,0.4,0.4
2025-10-23T2000,1371A,113.1294,23.0067,佛山市,湾梁,,31,31,20,17,12,52,,63,63,26,23,8,7,0.6,0.5
2025-10-23T2000,1372A,113.1083,23.0478,佛山市,华材职中,,31,31,20,20,13,55,,66,66,21,15,6,6,0.7,0.6
2025-10-23T2000,1373A,113.144,23.0453,佛山市,南海气象局,,31,31,21,15,9,58,,66,66,24,19,8,8,0.5,0.4
2025-10-23T2000,1374A,113.2881,22.8094,佛山市,顺德苏岗,,38,38,20,12,11,49,,64,62,24,19,7,7,0.4,0.4
2025-10-23T2000,1376A,112.8383,22.8678,佛山市,高明孔堂,,34,34,20,17,11,58,,76,75,24,17,3,4,0.5,0.5
2025-10-23T2000,1377A,112.8836,23.1588,佛山市,三水监测站,,39,39,18,18,9,52,,61,61,28,20,5,8,0.5,0.5
2025-10-23T2000,1378A,112.867,23.185,佛山市,三水云东海,,47,47,16,26,9,30,,62,57,31,13,4,4,0.5,0.4
2025-10-23T2000,3625A,113.2544,22.7642,佛山市,容桂街道办,,29,29,18,19,12,52,,68,67,24,19,6,6,0.7,0.7
2025-10-23T2000,1280A,119.3903,26.0543,福州市,鼓山,,34,30,18,12,8,106,,105,105,11,8,2,1,0.7,0.7
2025-10-23T2000,1282A,119.2681,26.0504,福州市,师大,,46,46,23,19,8,60,,89,89,21,12,6,5,0.4,0.3
2025-10-23T2000,1283A,119.2984,26.1028,福州市,五四北路,,40,40,22,15,8,97,,98,98,17,13,4,4,0.4,0.4
2025-10-23T2000,1284A,119.2648,26.0768,福州市,杨桥西路,,44,44,22,23,8,48,,88,85,25,11,4,3,0.4,0.3
2025-10-23T2000,1285A,119.317,26.0746,福州市,紫阳,,39,39,28,17,9,95,,94,94,14,13,7,6,0.4,0.3
2025-10-23T2000,3048A,119.5799,26.0936,福州市,九龙,,33,26,22,13,9,105,,111,111,8,9,4,4,0.4,0.4
2025-10-23T2000,3526A,119.5189,25.9664,福州市,吴航,,34,32,21,15,11,107,,108,108,8,7,5,5,0.3,0.3
2025-10-23T2000,1755A,123.7977,41.8491,抚顺市,望花区,细颗粒物(PM2.5),57,62,90,40,48,53,,79,74,27,37,8,10,0.6,0.8
2025-10-23T2000,1756A,123.9161,41.8822,抚顺市,顺城区,细颗粒物(PM2.5),65,67,61,47,35,16,,76,68,65,36,9,9,0.8,0.7
2025-10-23T2000,1757A,124.0436,41.8611,抚顺市,东洲区,细颗粒物(PM2.5),69,81,70,50,47,68,,82,80,22,29,11,7,0.8,0.8
2025-10-23T2000,1758A,123.9247,41.8642,抚顺市,新抚区,颗粒物(PM10),54,57,65,31,38,24,,80,73,48,31,8,7,0.9,0.9
2025-10-23T2000,1759A,124.0972,41.8961,抚顺市,大伙房水库,细颗粒物(PM2.5),69,65,60,50,46,76,,86,85,22,34,11,11,0.6,0.6
2025-10-23T2000,1760A,123.7086,41.8391,抚顺市,沈抚新城,,49,47,48,34,40,48,,77,71,27,30,8,8,0.4,0.5
2025-10-23T2000,2376A,116.2127,28.0814,抚州市,桐源党溪,,,,,,,,,,,,,,,,
2025-10-23T2000,2377A,116.3544,27.9831,抚州市,市站,细颗粒物(PM2.5),68,73,48,49,25,108,,107,107,10,7,5,4,0.7,0.6
2025-10-23T2000,2378A,116.3565,27.963,抚州市,血防站,,,73,46,41,24,113,,111,111,,8,4,8,0.6,0.5
2025-10-23T2000,2379A,116.3564,28.0007,抚州市,采茶剧团,细颗粒物(PM2.5),68,78,50,49,26,109,,110,110,8,5,4,3,0.6,0.5
2025-10-23T2000,2380A,116.385,27.9647,抚州市,医学分院,细颗粒物(PM2.5),62,72,51,44,23,109,,109,109,6,6,6,12,0.7,0.6
2025-10-23T2000,2207A,121.6094,41.998,阜新市,工业园区,细颗粒物(PM2.5),64,68,45,46,22,17,,75,65,61,33,12,8,1.7,0.6
2025-10-23T2000,2208A,121.6697,42.0279,阜新市,长青街,细颗粒物(PM2.5),88,,40,65,24,26,,73,64,48,34,11,10,0.7,1.4
2025-10-23T2000,2209A,121.6673,42.0705,阜新市,农业园区,,37,21,20,14,8,60,,74,70,17,10,7,5,3.7,1
2025-10-23T2000,2210A,121.6717,42.0224,阜新市,东苑,颗粒物(PM10),66,82,62,36,26,22,,73,61,55,38,14,13,0.6,1.4
2025-10-23T2000,2211A,121.6506,42.0498,阜新市,玉龙新城,,50,50,47,29,20,28,,74,60,50,36,10,8,1.6,0.8
2025-10-23T2000,2301A,115.8277,32.8929,阜阳市,市监测站,细颗粒物(PM2.5),63,70,64,45,40,19,,108,96,103,53,6,6,0.4,0.4
2025-10-23T2000,2303A,115.8554,32.8605,阜阳市,开发区,,,95,73,36,38,67,,109,104,,30,9,10,,0.6
2025-10-23T2000,2875A,115.784,32.8892,阜阳市,阜阳职业技术学院,颗粒物(PM10),59,67,50,34,40,73,,112,109,34,27,7,8,0.4,0.4
2025-10-23T2000,3468A,115.7901,32.8613,阜阳市,市规划展馆,,48,48,48,28,30,95,,126,124,26,23,6,7,0.2,0.4
2025-10-23T2000,3469A,115.836,32.9183,阜阳市,枣园社区,"颗粒物(PM10),细颗粒物(PM2.5)",73,95,68,53,43,39,,114,101,71,39,10,10,0.4,0.3
2025-10-23T2000,2669A,102.9099,34.9841,甘南藏族自治州,州政府,,26,19,19,18,20,53,,72,63,16,7,4,4,0.4,0.3
2025-10-23T2000,3380A,102.8914,34.9617,甘南藏族自治州,甘肃民族师范学院,,17,12,14,3,13,54,,70,66,7,9,4,4,0.3,0.2
2025-10-23T2000,2570A,101.9603,30.0475,甘孜藏族自治州,水桥子,,16,6,6,6,5,49,,50,50,7,12,7,7,0.9,0.8
2025-10-23T2000,3065A,101.9533,29.9972,甘孜藏族自治州,州环保局,,15,,6,7,6,47,,52,52,14,11,5,5,0.9,0.8
2025-10-23T2000,3414A,115.8347,28.932,赣江新区,桑海产业园,,36,36,38,14,19,96,,109,109,12,15,8,8,0.0,0.2
2025-10-23T2000,2362A,114.9017,25.9149,赣州市,通天岩,,38,38,36,20,19,77,,104,102,7,6,17,17,0.4,0.4
2025-10-23T2000,2363A,114.9367,25.8664,赣州市,地委,颗粒物(PM10),53,55,45,22,20,88,,94,94,13,12,6,6,0.6,0.6
2025-10-23T2000,2364A,114.9461,25.8481,赣州市,气象台,颗粒物(PM10),51,52,45,18,17,89,,94,94,12,11,6,7,0.6,0.6
2025-10-23T2000,2365A,114.9322,25.8333,赣州市,市图书馆,,43,43,37,21,23,95,,101,101,12,12,3,4,0.5,0.5
2025-10-23T2000,2366A,114.8905,25.8471,赣州市,华坚鞋城,,42,42,37,27,18,85,,91,91,17,13,5,6,0.4,0.5
2025-10-23T2000,3109A,115.0093,25.8613,赣州市,赣县区卫计委,,45,43,34,31,27,88,,99,99,10,6,7,7,0.5,0.5
2025-10-23T2000,2683A,106.2319,36.1417,固原市,马园,,,,,,,,,,,,,,,,
2025-10-23T2000,2684A,106.2792,36.0022,固原市,监测站,,9,6,13,6,10,25,,31,26,12,11,4,4,0.6,0.5
2025-10-23T2000,2685A,106.2375,36.0211,固原市,新区,,8,6,13,3,9,19,,28,22,15,12,3,3,0.5,0.4
2025-10-23T2000,3522A,106.2177,35.9959,固原市,原州区十五小,,10,7,16,3,10,17,,27,24,20,13,5,5,0.8,0.7
2025-10-23T2000,2543A,106.6308,30.5278,广安市,小平旧居,,,,,,,,,,,,,,,,
2025-10-23T2000,2544A,106.6303,30.4576,广安市,市委,,23,23,23,13,15,43,,50,50,11,11,3,4,0.5,0.5
2025-10-23T2000,2545A,106.6271,30.4663,广安市,友谊中学,,20,20,20,11,12,44,,51,51,13,12,5,5,0.4,0.7
2025-10-23T2000,2547A,106.6388,30.4551,广安市,广电花园,,18,15,18,12,12,41,,46,46,10,13,8,8,0.5,0.6
2025-10-23T2000,2902A,106.6351,30.4865,广安市,北辰小学,,22,22,19,11,11,45,,50,50,9,10,7,7,0.5,0.5
2025-10-23T2000,2523A,105.8945,32.4535,广元市,黑石坡,,,,,,,,,,,,,,,,
2025-10-23T2000,2524A,105.821,32.4444,广元市,老城,,13,13,12,6,5,37,,38,38,18,12,4,4,0.6,0.6
2025-10-23T2000,2526A,105.8628,32.4287,广元市,监测站,,,,13,8,10,28,,30,30,20,13,3,3,0.7,0.7
2025-10-23T2000,3617A,105.8047,32.4166,广元市,经开区,,12,9,8,3,4,37,,32,32,12,13,2,2,0.5,0.5
2025-10-23T2000,1345A,113.2347,23.1423,广州市,广雅中学,,44,44,29,24,16,41,,61,57,33,24,8,6,0.8,0.7
2025-10-23T2000,1346A,113.2612,23.105,广州市,市五中,,42,42,24,25,16,59,,78,75,36,23,8,7,0.8,0.7
2025-10-23T2000,1348A,113.3478,23.0916,广州市,广东商学院,,33,33,21,22,17,55,,75,71,29,20,6,5,0.3,0.2
2025-10-23T2000,1349A,113.4332,23.1047,广州市,市八十六中,,30,30,23,19,14,56,,64,61,24,24,6,6,0.3,0.4
2025-10-23T2000,1350A,113.3505,22.9483,广州市,番禺中学,,33,33,22,20,13,60,,76,73,18,16,6,6,0.4,0.4
2025-10-23T2000,1351A,113.2146,23.3916,广州市,花都师范,,40,40,29,23,13,65,,67,67,17,14,5,6,0.4,0.4
2025-10-23T2000,1352A,113.2597,23.1331,广州市,市监测站,,,41,26,22,13,49,,71,68,32,18,8,7,,0.8
2025-10-23T2000,1353A,113.5618,23.312,广州市,九龙镇镇龙,,36,36,21,18,12,51,,63,62,20,13,5,5,0.6,0.6
2025-10-23T2000,1354A,113.2765,23.1544,广州市,麓湖,,33,33,21,22,14,50,,67,64,24,19,8,7,0.3,0.3
2025-10-23T2000,1355A,113.443,23.3035,广州市,帽峰山森林公园,,,,,,,,,,,,,,,,
2025-10-23T2000,2846A,113.3221,23.1322,广州市,体育西,,38,32,19,26,17,51,,64,64,25,16,9,6,0.7,0.5
2025-10-23T2000,3298A,113.5717,23.5491,广州市,从化街口,,22,22,21,13,13,66,,68,68,8,8,7,7,0.5,0.5
2025-10-23T2000,3299A,113.3472,23.3692,广州市,白云竹料,,33,33,22,20,14,66,,74,74,14,10,7,7,0.4,0.4
2025-10-23T2000,3300A,113.2981,23.237,广州市,白云嘉禾,,45,45,25,24,15,56,,73,70,24,14,7,7,0.4,0.3
2025-10-23T2000,3301A,113.4256,23.1716,广州市,黄埔科学城,,28,28,20,17,14,67,,80,76,15,10,6,5,0.5,0.6
2025-10-23T2000,3302A,113.3942,23.0483,广州市,番禺大学城,,29,29,16,18,12,55,,74,70,22,22,4,4,0.4,0.5
2025-10-23T2000,3303A,113.4922,22.8168,广州市,南沙黄阁,,42,42,25,21,14,47,,72,69,32,24,9,7,0.3,0.2
2025-10-23T2000,3304A,113.5342,22.7896,广州市,南沙街,,37,37,23,16,13,56,,70,69,20,19,8,6,0.4,0.4
2025-10-23T2000,3443A,113.2902,23.5544,广州市,花都梯面,,26,26,17,18,13,67,,70,70,10,9,14,10,0.4,0.3
2025-10-23T2000,3445A,113.7858,23.7478,广州市,从化良口,,25,22,19,13,12,80,,78,78,8,8,6,6,0.2,0.2
2025-10-23T2000,3446A,113.8051,23.2614,广州市,增城荔城,,24,24,15,13,11,68,,73,73,10,10,6,6,0.5,0.5
2025-10-23T2000,2505A,109.568,23.1478,贵港市,德智高中,,,,,,,,,,,,,,,,
2025-10-23T2000,2506A,109.6047,23.0666,贵港市,江南子站,,31,31,24,19,14,74,,77,77,9,7,4,4,0.5,0.5
2025-10-23T2000,2508A,109.5669,23.1065,贵港市,荷城子站,,27,27,22,17,11,70,,71,71,8,8,2,4,0.5,0.5
2025-10-23T2000,3405A,109.5886,23.1172,贵港市,新世纪学校,,32,31,27,22,14,76,,77,77,5,5,2,2,0.4,0.4
2025-10-23T2000,4260A,109.5933,23.0951,贵港市,中山路155-3号,,27,27,22,15,13,75,,76,76,7,6,3,3,0.5,0.4
2025-10-23T2000,1439A,106.6899,26.5998,贵阳市,马鞍山,,45,36,14,31,16,50,,51,51,10,6,4,3,0.3,0.2
2025-10-23T2000,1441A,106.6243,26.6266,贵阳市,鉴湖路,颗粒物(PM10),51,51,29,34,14,47,,48,48,11,8,4,4,0.3,0.3
2025-10-23T2000,1442A,106.7487,26.6343,贵阳市,燕子冲,细颗粒物(PM2.5),52,41,18,36,18,54,,55,55,10,8,4,4,0.2,0.2
2025-10-23T2000,1443A,106.6555,26.4365,贵阳市,碧云窝,颗粒物(PM10),56,61,34,29,12,47,,54,54,17,10,4,4,0.3,0.2
2025-10-23T2000,1445A,106.7109,26.6027,贵阳市,红边门,细颗粒物(PM2.5),55,41,18,39,15,47,,54,54,20,13,4,2,0.5,0.4
2025-10-23T2000,1446A,106.7164,26.5699,贵阳市,新华路,,48,48,21,29,11,45,,49,48,13,8,12,6,0.4,0.4
2025-10-23T2000,1447A,106.674,26.5424,贵阳市,太慈桥,,,,9,,4,,,46,,,7,,2,,0.3
2025-10-23T2000,1552A,106.805,26.3003,贵阳市,桐木岭,,39,39,33,27,20,64,,70,70,4,2,6,5,0.5,0.5
2025-10-23T2000,4230A,106.6882,26.5695,贵阳市,花果园大街66号,,48,39,13,33,15,52,,51,51,11,7,2,2,0.3,0.3
2025-10-23T2000,4231A,106.6873,26.5169,贵阳市,漓江路57号,,49,44,19,34,13,52,,56,56,11,6,8,7,0.3,0.3
2025-10-23T2000,1862A,110.4144,25.3167,桂林市,电子科大尧山校区,,,,,,,,,,,,,,,,
2025-10-23T2000,1864A,110.3089,25.2708,桂林市,龙隐路小学,,42,36,28,29,21,73,,75,75,8,6,6,5,0.4,0.3
2025-10-23T2000,1865A,110.2869,25.2178,桂林市,八中,,46,37,29,32,22,74,,76,76,10,8,7,8,0,0.3
2025-10-23T2000,3531A,110.296,25.1253,桂林市,旅游学院,,36,36,22,22,16,77,,85,84,10,8,4,4,0.6,0.5
2025-10-23T2000,4222A,110.1835,25.2444,桂林市,环湖路276号,,45,39,26,31,22,74,,72,72,11,9,7,6,0.2,0.1
2025-10-23T2000,4301A,110.2803,25.2773,桂林市,信义路13号,,38,34,30,26,20,71,,74,74,10,7,6,7,0.4,0.4
2025-10-23T2000,2674A,100.2561,34.4714,果洛藏族自治州,玛沁县大武镇,,,40,31,,19,,,83,79,7,4,11,10,0.5,0.3
2025-10-23T2000,1129A,126.5422,45.755,哈尔滨市,岭北,,,,,,,,,,,,,,,,
2025-10-23T2000,1130A,126.561,45.8167,哈尔滨市,松北商大,细颗粒物(PM2.5),70,53,41,51,31,5,,67,46,61,38,4,5,0.7,0.6
2025-10-23T2000,1131A,126.979,45.5419,哈尔滨市,阿城会宁,细颗粒物(PM2.5),122,181,76,92,42,8,,14,,68,43,6,12,0.8,0.7
2025-10-23T2000,1132A,126.599,45.7222,哈尔滨市,南岗学府路,,46,46,40,20,15,14,,67,61,60,33,8,10,0.8,0.4
2025-10-23T2000,1133A,126.689,45.7733,哈尔滨市,太平宏伟公园,细颗粒物(PM2.5),52,46,45,36,29,25,,68,58,51,31,9,10,0.6,0.5
2025-10-23T2000,1134A,126.635,45.7667,哈尔滨市,道外承德广场,颗粒物(PM10),55,60,55,30,24,16,,65,59,57,33,7,8,1.0,0.6
2025-10-23T2000,1135A,126.685,45.7319,哈尔滨市,香坊红旗大街,颗粒物(PM10),97,144,47,29,19,6,,66,56,76,38,4,5,1.0,0.5
2025-10-23T2000,1136A,126.6411,45.7258,哈尔滨市,动力和平路,,38,38,35,23,21,16,,68,60,62,31,6,8,0.7,0.5
2025-10-23T2000,1137A,126.593,45.7478,哈尔滨市,道里建国路,,47,47,38,31,26,16,,66,59,67,35,6,7,0.6,0.3
2025-10-23T2000,1138A,126.615,45.61,哈尔滨市,平房东轻厂,颗粒物(PM10),63,76,62,38,36,3,,53,36,81,55,15,14,0.9,0.6
2025-10-23T2000,1139A,126.595,45.9855,哈尔滨市,呼兰师专,细颗粒物(PM2.5),68,78,44,49,34,4,,64,50,75,27,11,7,0.6,0.4
2025-10-23T2000,1140A,126.6206,45.6842,哈尔滨市,省农科院,颗粒物(PM10),78,106,47,32,24,2,,59,48,80,41,10,13,0.8,0.6
2025-10-23T2000,2688A,93.5128,42.8172,哈密市,地区监测站,颗粒物(PM10),97,144,92,33,31,21,,71,68,63,36,8,8,0.2,0.3
2025-10-23T2000,2689A,93.4961,42.8328,哈密市,哈密师范学校,,,109,85,24,30,29,,73,71,,40,5,12,0.7,0.8
2025-10-23T2000,2671A,100.9048,36.9639,海北藏族自治州,海晏县西海镇,,25,18,22,12,18,78,,89,88,6,9,5,7,0.3,0.6
2025-10-23T2000,3867A,102.0738,36.5056,海东市,平安区公安北苑,,22,22,31,15,19,50,,66,65,19,11,15,12,0.8,1
2025-10-23T2000,1409A,110.576,19.9507,海口市,东寨港,,,,,,,,,,,,,,,,
2025-10-23T2000,1410A,110.3232,20.0574,海口市,海南大学,,28,28,22,16,10,56,,61,61,9,6,7,5,0.4,0.3
2025-10-23T2000,1411A,110.283,20.0053,海口市,秀英海南医院,,,25,20,18,11,47,,53,53,18,10,8,7,,0.3
2025-10-23T2000,1412A,110.338,19.9969,海口市,海南师范大学,,28,24,18,19,10,59,,66,66,10,7,7,5,0.5,0.4
2025-10-23T2000,1413A,110.33,20.0356,海口市,龙华路环保局宿舍,,25,25,19,17,11,56,,64,64,12,8,9,7,0.2,0.1
2025-10-23T2000,3539A,110.5111,19.9736,海口市,桂林洋子站,,26,26,23,14,10,72,,66,66,6,7,6,6,0.3,0.3
2025-10-23T2000,2673A,100.6188,36.2866,海南藏族自治州,共和县恰卜恰镇,,31,31,27,7,13,72,,84,82,10,8,13,14,0.6,0.6
2025-10-23T2000,2676A,97.3731,37.3753,海西蒙古族藏族自治州,德令哈市,,37,37,33,18,16,77,,97,96,16,9,17,17,0.7,0.5
2025-10-23T2000,1048A,114.5302,36.6116,邯郸市,东污水处理厂,细颗粒物(PM2.5),97,,57,72,63,19,,53,48,55,42,15,21,0.6,0.6
2025-10-23T2000,1049A,114.4918,36.5713,邯郸市,矿院,细颗粒物(PM2.5),104,,58,78,65,36,,56,55,47,48,18,15,0.5,0.5
2025-10-23T2000,1050A,114.484,36.6133,邯郸市,丛台公园,细颗粒物(PM2.5),94,79,64,70,58,33,,57,55,47,45,9,11,0.5,0.5
2025-10-23T2000,3458A,114.7895,36.5593,邯郸市,香泉濮院小区,细颗粒物(PM2.5),93,104,79,69,59,26,,54,51,45,39,7,7,0.7,0.6
2025-10-23T2000,3579A,114.50634,36.77178,邯郸市,永年区实验高中,细颗粒物(PM2.5),70,81,66,51,37,30,,60,56,51,44,2,4,0.6,0.6
2025-10-23T2000,3580A,114.20016,36.44293,邯郸市,峰峰矿区临水派出所,细颗粒物(PM2.5),89,71,62,66,63,54,,64,64,37,43,8,8,0.6,0.8
2025-10-23T2000,2634A,106.9893,33.1842,汉中市,汉川机床厂子校,,,,,,,,,,,,,,,,
2025-10-23T2000,2635A,107.0154,33.0706,汉中市,市监测站,,25,23,22,17,16,44,,46,46,12,9,4,4,0.5,0.5
2025-10-23T2000,2636A,107.0089,33.1138,汉中市,鑫源开发区,,22,22,22,13,17,42,,44,44,15,10,4,4,0.7,0.7
2025-10-23T2000,2637A,107.007,33.0323,汉中市,南郑大河坎水厂,,30,30,23,17,19,40,,42,40,12,10,8,8,0.5,0.5
2025-10-23T2000,1223A,120.2072,30.2111,杭州市,滨江,,37,37,36,13,13,72,,94,92,31,26,10,10,0.6,0.6
2025-10-23T2000,1224A,120.0633,30.2747,杭州市,西溪,,36,36,31,3,12,57,,93,90,24,19,8,8,0.4,0.4
2025-10-23T2000,1226A,120.3417,30.3150,杭州市,下沙,,32,32,30,15,14,67,,95,92,27,21,10,10,0.3,0.3
2025-10-23T2000,1227A,120.1269,30.2456,杭州市,卧龙桥,,31,31,31,13,14,65,,90,88,21,19,9,9,0.5,0.5
2025-10-23T2000,1228A,120.1903,30.2692,杭州市,浙江农大,,38,38,31,18,17,63,,93,91,37,26,7,7,0.5,0.4
2025-10-23T2000,1230A,120.1197,30.3119,杭州市,和睦小学,,36,36,29,13,15,66,,98,95,28,19,8,8,0.6,0.5
2025-10-23T2000,1231A,120.3019,30.4183,杭州市,临平镇,,34,34,34,16,14,71,,94,92,22,18,6,7,0.3,0.3
2025-10-23T2000,1232A,120.2753,30.1839,杭州市,城厢镇,,34,34,35,15,17,76,,97,95,30,26,6,7,0.4,0.4
2025-10-23T2000,1233A,120.0883,30.1808,杭州市,云栖,,32,32,29,14,15,56,,96,91,27,23,6,6,0.4,0.5
2025-10-23T2000,3557A,119.9464,30.0494,杭州市,镇二中,颗粒物(PM10),51,51,33,23,15,70,,84,84,25,16,5,6,0.5,0.5
2025-10-23T2000,3558A,119.7183,30.2367,杭州市,市府大楼,,40,40,29,27,16,73,,98,96,22,15,9,9,0.4,0.3
2025-10-23T2000,3656A,120.1556,30.2864,杭州市,消防大队,,36,36,35,18,17,66,,92,90,31,26,9,10,0.2,0.2
2025-10-23T2000,1270A,117.1959,31.7848,合肥市,明珠广场,,28,27,27,17,13,88,,100,99,23,19,7,7,0.4,0.5
2025-10-23T2000,1271A,117.3072,31.8764,合肥市,三里街,,34,34,29,12,12,74,,92,90,31,21,6,6,0.4,0.4
2025-10-23T2000,1272A,117.2588,31.8707,合肥市,琥珀山庄,,29,29,29,16,15,91,,98,97,16,16,5,5,0.4,0.3
2025-10-23T2000,1273A,117.1604,31.9052,合肥市,董铺水库,,,,,,,,,,,,,,,,
2025-10-23T2000,1274A,117.25,31.8571,合肥市,长江中路,,31,31,34,18,14,95,,99,99,18,15,6,6,0.4,0.4
2025-10-23T2000,1275A,117.266,31.9436,合肥市,庐阳区,颗粒物(PM10),51,51,35,22,14,75,,94,92,32,22,4,4,0.3,0.3
2025-10-23T2000,1276A,117.3453,31.8616,合肥市,瑶海区,,31,31,27,10,11,87,,96,96,25,20,8,7,0.3,0.3
2025-10-23T2000,1277A,117.3027,31.7964,合肥市,包河区,,34,34,32,12,12,53,,82,78,57,41,5,5,0.3,0.3
2025-10-23T2000,1278A,117.2776,31.7385,合肥市,滨湖新区,,29,29,31,17,16,87,,99,98,19,15,3,3,0.4,0.4
2025-10-23T2000,1279A,117.1318,31.8403,合肥市,高新区,,34,34,35,17,16,83,,95,94,26,24,6,5,0.4,0.5
2025-10-23T2000,3464A,117.3803,31.9147,合肥市,高教基地,,39,39,27,13,12,85,,95,94,18,15,6,6,0.4,0.4
2025-10-23T2000,3614A,79.924,37.0877,和田地区,地区环保局,,,149,166,51,64,,,102,102,17,25,6,8,0.2,0.8
2025-10-23T2000,3615A,79.9131,37.113,和田地区,市环保局,颗粒物(PM10),95,139,225,39,70,87,,99,99,25,46,3,10,0.2,1.2
2025-10-23T2000,2516A,108.2011,24.715,河池市,东仁乐园,,,,,,,,,,,,,,,,
2025-10-23T2000,2517A,108.0497,24.6947,河池市,市环保站,,23,,12,16,9,69,,71,70,7,6,6,6,0.6,0.6
2025-10-23T2000,2518A,108.0983,24.6989,河池市,市疾控中心,,23,18,11,16,10,64,,65,65,6,6,8,8,0.5,0.5
2025-10-23T2000,1696A,114.6778,23.7569,河源市,源西,,,,,,,,,,,,,,,,
2025-10-23T2000,1697A,114.6944,23.7586,河源市,东埔,,30,27,21,21,34,77,,79,79,9,9,6,5,0.7,0.7
2025-10-23T2000,1698A,114.6892,23.7233,河源市,老城,,39,39,24,22,17,80,,82,82,7,7,6,5,0.5,0.5
2025-10-23T2000,1718A,115.4208,35.2464,菏泽市,气象局,细颗粒物(PM2.5),114,150,123,86,79,40,,77,71,46,36,7,8,0.7,0.6
2025-10-23T2000,3374A,115.5564,35.0891,菏泽市,定陶老年大学,细颗粒物(PM2.5),107,127,101,80,67,36,,91,73,49,42,10,15,0.5,0.6
2025-10-23T2000,4184A,115.4797,35.24401,菏泽市,永昌路1号,细颗粒物(PM2.5),119,138,110,90,72,50,,78,75,39,35,7,10,0.5,0.6
2025-10-23T2000,4193A,115.4715,35.2800,菏泽市,长城路999号,细颗粒物(PM2.5),113,150,116,85,71,38,,67,62,50,45,13,17,0.7,0.7
2025-10-23T2000,2514A,111.5264,24.4172,贺州市,环保小区,,,34,22,20,15,68,,77,76,12,7,4,5,,0.4
2025-10-23T2000,2515A,111.5608,24.4078,贺州市,政协大楼,,44,44,27,24,14,55,,66,65,14,9,5,4,0.4,0.4
2025-10-23T2000,3534A,111.4744,24.4553,贺州市,西湾,,35,35,22,24,15,67,,71,71,11,7,3,3,0.5,0.4
2025-10-23T2000,2385A,114.17,35.9019,鹤壁市,市监测站,细颗粒物(PM2.5),107,109,85,80,63,33,,41,41,41,41,7,7,1.0,1
2025-10-23T2000,2386A,114.2956,35.7511,鹤壁市,市交警支队,细颗粒物(PM2.5),97,109,96,72,57,35,,41,41,46,49,8,8,0.7,0.9
2025-10-23T2000,2387A,114.2878,35.7306,鹤壁市,迎宾馆,细颗粒物(PM2.5),100,128,104,75,55,33,,42,42,42,44,8,10,0.8,0.9
2025-10-23T2000,3474A,114.2617,35.6822,鹤壁市,大新区,细颗粒物(PM2.5),100,84,78,75,53,30,,40,40,40,39,8,8,0.9,0.8
2025-10-23T2000,3596A,114.1572,35.9603,鹤壁市,南山宾馆,细颗粒物(PM2.5),109,119,90,82,60,37,,46,46,44,38,8,7,0.8,0.7
2025-10-23T2000,2244A,130.2537,47.3416,鹤岗市,哈啤分公司,,38,38,23,17,14,69,,82,71,6,6,10,10,0.4,0.4
2025-10-23T2000,2245A,130.2684,47.3086,鹤岗市,斯达机电,,26,24,19,18,12,69,,78,71,11,7,11,10,0.5,0.4
2025-10-23T2000,2246A,130.3114,47.3388,鹤岗市,东山纸板厂,,,,44,39,20,23,,80,54,36,21,10,11,0.6,0.6
2025-10-23T2000,2247A,130.1097,47.3382,鹤岗市,五号水库,,,,,,,,,,,,,,,,
2025-10-23T2000,2263A,127.4833,50.2524,黑河市,交通局,,,84,26,24,17,9,,66,44,51,17,,5,0.8,0.5
2025-10-23T2000,2264A,127.5144,50.2341,黑河市,环保局,颗粒物(PM10),63,75,28,25,14,16,,58,41,51,18,41,10,0.7,0.4
2025-10-23T2000,2265A,127.5291,50.2472,黑河市,大黑河岛,,,,,,,,,,,,,,,,
2025-10-23T2000,1074A,115.6838,37.7541,衡水市,电机北厂,细颗粒物(PM2.5),75,76,65,55,52,0,,18,18,69,45,10,9,0.5,0.5
2025-10-23T2000,1075A,115.6303,37.7316,衡水市,市监测站,细颗粒物(PM2.5),80,72,55,59,48,2,,19,18,68,48,7,7,0.5,0.5
2025-10-23T2000,3188A,115.6683,37.7217,衡水市,市城管局,细颗粒物(PM2.5),73,70,57,53,45,11,,27,27,64,47,9,8,0.5,0.5
2025-10-23T2000,3459A,115.5989,37.5491,衡水市,地表水厂,细颗粒物(PM2.5),73,68,66,53,51,17,,27,27,50,50,5,6,0.4,0.5
2025-10-23T2000,2456A,112.5003,26.9167,衡阳市,原169医院,,,,,,,,,,,,,,,,
2025-10-23T2000,2457A,112.6194,26.9258,衡阳市,衡阳化工总厂,颗粒物(PM10),63,75,41,19,22,92,,97,97,24,16,7,7,0.9,0.7
2025-10-23T2000,2458A,112.6211,26.8956,衡阳市,珠晖区环保局,,43,43,34,24,21,98,,95,95,22,22,9,9,0.9,0.8
2025-10-23T2000,2459A,112.6197,26.8733,衡阳市,市委党校,,40,40,35,19,15,102,,102,102,11,10,5,4,0.6,0.5
2025-10-23T2000,2460A,112.6006,26.8919,衡阳市,市监测站,颗粒物(PM10),51,52,38,34,22,99,,98,98,17,13,6,5,0.8,0.7
2025-10-23T2000,2461A,112.5664,26.9056,衡阳市,真空机电公司,,43,43,34,30,19,98,,97,97,13,10,8,6,0.7,0.6
2025-10-23T2000,3399A,112.6703,26.882,衡阳市,师范学院,,,,36,,23,,,56,,,15,,8,,0.8
2025-10-23T2000,2608A,103.3772,23.3993,红河哈尼族彝族自治州,污水处理厂,,,45,24,26,23,55,,80,73,,6,8,8,0.2,0.2
2025-10-23T2000,2609A,103.3861,23.35,红河哈尼族彝族自治州,监测站,,39,39,25,26,20,54,,78,72,7,3,3,2,0.3,0.2
2025-10-23T2000,3038A,103.3758,23.368,红河哈尼族彝族自治州,州图书馆,细颗粒物(PM2.5),55,,17,39,25,54,,78,72,8,4,4,3,0.3,0.3
2025-10-23T2000,1090A,111.6507,40.7517,呼和浩特市,呼市一监,,,,23,,21,,,36,,,16,,3,,0.7
2025-10-23T2000,1091A,111.6572,40.8033,呼和浩特市,小召,细颗粒物(PM2.5),62,66,33,44,26,45,,67,65,39,22,6,6,0.8,0.6
2025-10-23T2000,1094A,111.7516,40.8369,呼和浩特市,如意水处理厂,,49,48,30,34,23,44,,70,68,42,23,9,9,0.6,0.4
2025-10-23T2000,1095A,111.7276,40.8062,呼和浩特市,二十九中,"颗粒物(PM10),细颗粒物(PM2.5)",53,55,30,37,23,60,,76,76,29,18,8,8,0.7,0.5
2025-10-23T2000,1096A,111.5512,40.7866,呼和浩特市,工大金川校区,颗粒物(PM10),58,66,37,34,22,22,,63,58,53,22,5,6,0.4,0.3
2025-10-23T2000,1097A,111.717,40.7612,呼和浩特市,化肥厂生活区,颗粒物(PM10),52,54,31,34,23,33,,72,68,56,26,5,5,0.6,0.4
2025-10-23T2000,3698A,111.5968,40.8178,呼和浩特市,红旗小学,颗粒物(PM10),58,66,32,35,22,30,,65,60,51,20,2,3,0.5,0.4
2025-10-23T2000,3699A,111.6518,40.8389,呼和浩特市,海东办,颗粒物(PM10),63,75,30,37,22,16,,73,67,70,21,6,6,0.7,0.4
2025-10-23T2000,2192A,119.7594,49.2261,呼伦贝尔市,区环保局,,,,,,,,,,,,,,,,
2025-10-23T2000,3061A,119.7512,49.1577,呼伦贝尔市,国华电力东,,22,22,22,15,14,41,,61,60,15,17,5,5,0.6,0.6
2025-10-23T2000,1250A,120.0751,30.8669,湖州市,城西水厂,,28,28,29,18,17,74,,100,95,31,23,8,9,0.4,0.5
2025-10-23T2000,2873A,120.0830,30.8929,湖州市,仁皇山新区,,25,24,28,10,14,80,,96,95,20,18,7,7,0.3,0.3
2025-10-23T2000,2907A,120.1844,30.8596,湖州市,吴兴区站,,31,31,30,10,15,71,,86,85,23,27,7,7,0.4,0.4
2025-10-23T2000,3562A,120.4148,30.8538,湖州市,南浔区站,,24,21,27,10,14,74,,89,88,22,20,8,9,0.4,0.4
2025-10-23T2000,1607A,120.9049,40.7211,葫芦岛市,龙港区,颗粒物(PM10),56,62,66,27,30,40,,75,67,38,39,44,26,0.5,0.7
2025-10-23T2000,1608A,120.8392,40.7514,葫芦岛市,化工街,颗粒物(PM10),58,66,70,24,26,30,,69,56,53,45,4,32,0.5,0.6
2025-10-23T2000,1609A,120.8341,40.7073,葫芦岛市,新区,颗粒物(PM10),60,70,56,31,26,42,,70,59,44,46,28,15,0.6,0.7
2025-10-23T2000,1610A,120.8695,40.7677,葫芦岛市,东城区,,,107,62,36,26,11,,74,56,82,43,11,18,,0.7
2025-10-23T2000,2482A,109.5981,27.5721,怀化市,林科所,,,,,,,,,,,,,,,,
2025-10-23T2000,2483A,109.9453,27.5444,怀化市,河西地税局,,40,40,34,28,23,84,,85,85,13,10,1,6,0.3,0.3
2025-10-23T2000,2484A,109.9781,27.5342,怀化市,市四医院,颗粒物(PM10),52,54,43,27,27,97,,98,98,10,7,7,8,0.2,0.2
2025-10-23T2000,2485A,109.9972,27.5578,怀化市,监测楼,,45,41,38,31,24,89,,95,95,11,7,2,3,0.2,0.2
2025-10-23T2000,2486A,110.0394,27.583,怀化市,市委党校,,48,48,39,32,25,87,,92,92,15,12,9,14,0.1,0.1
2025-10-23T2000,1210A,119.036,33.5981,淮安市,钵池山,,39,39,34,17,18,58,,84,81,29,27,7,8,0.5,0.5
2025-10-23T2000,1211A,119.007,33.575,淮安市,北京南路,,31,31,34,14,16,69,,87,86,24,27,7,8,0.4,0.4
2025-10-23T2000,1212A,118.989,33.6067,淮安市,市监测站,,27,27,33,17,20,74,,88,88,21,34,6,7,0.5,0.8
2025-10-23T2000,1213A,119.135,33.5039,淮安市,楚州区监测站,,34,34,36,15,17,74,,91,90,22,24,9,9,0.4,0.5
2025-10-23T2000,3426A,118.8755,33.2894,淮安市,新华书店,,46,46,39,22,21,61,,85,82,33,30,9,10,0.5,0.6
2025-10-23T2000,4206A,119.0288,33.6319,淮安市,承德北路606号,,41,41,39,20,19,58,,85,82,30,30,7,8,0.4,0.5
2025-10-23T2000,2282A,116.8004,33.975,淮北市,监测站,颗粒物(PM10),52,54,61,27,32,71,,96,94,36,32,11,10,0.6,0.8
2025-10-23T2000,2283A,116.8091,33.9007,淮北市,烈山区政府,颗粒物(PM10),54,57,51,29,35,49,,103,96,48,32,8,9,0.5,0.6
2025-10-23T2000,3330A,116.8873,33.9836,淮北市,杜集区检察院,颗粒物(PM10),71,92,60,35,36,53,,102,95,33,27,5,6,0.3,0.3
2025-10-23T2000,4017A,116.7923,33.9535,淮北市,市博物馆,颗粒物(PM10),58,66,62,36,38,58,,96,91,48,33,10,10,0.7,0.5
2025-10-23T2000,2277A,116.8305,32.7727,淮南市,潘集区政府,颗粒物(PM10),62,73,57,42,34,66,,94,81,27,29,6,6,0.3,0.4
2025-10-23T2000,2279A,116.8569,32.5951,淮南市,谢家集区政府,颗粒物(PM10),59,67,39,31,22,61,,102,98,30,19,8,9,0.4,0.3
2025-10-23T2000,2280A,116.8281,32.633,淮南市,八公山区政府,颗粒物(PM10),52,53,45,27,23,67,,105,101,20,17,9,8,0.4,0.3
2025-10-23T2000,2281A,116.6325,32.6201,淮南市,焦岗湖风景区管理处,,,,,,,,,,,,,,,,
2025-10-23T2000,2894A,117.0566,32.6531,淮南市,经济技术开发区消防队,颗粒物(PM10),60,69,50,29,20,53,,92,85,41,28,10,10,0.2,0.2
2025-10-23T2000,3329A,117.0108,32.5893,淮南市,山南新区,颗粒物(PM10),51,51,39,3,7,76,,106,103,32,25,5,5,0.1,0.1
2025-10-23T2000,4209A,117.0031,32.6445,淮南市,国庆中路369号,颗粒物(PM10),55,60,42,24,25,60,,103,97,39,26,7,6,0.5,0.3
2025-10-23T2000,2446A,114.9028,30.4742,黄冈市,职工中心,,39,39,29,23,16,77,,105,103,24,12,5,4,0.5,0.4
2025-10-23T2000,2929A,114.8858,30.4519,黄冈市,红卫路,,38,38,26,25,17,79,,108,104,24,13,5,5,0.5,0.3
2025-10-23T2000,3398A,114.9136,30.4445,黄冈市,市林业局,,42,42,28,18,19,83,,110,108,26,12,3,3,0.4,0.3
2025-10-23T2000,2672A,102.0199,35.5102,黄南藏族自治州,同仁县隆务镇,,,,30,,16,,,69,69,2,6,10,10,0.3,0.4
2025-10-23T2000,2295A,118.2903,29.6963,黄山市,延安路89号,,,,33,6,12,93,,103,102,8,6,4,4,0.3,0.3
2025-10-23T2000,2297A,118.1371,30.2756,黄山市,黄山区政府5号楼,,29,29,27,8,16,63,,95,91,8,6,6,6,0.4,0.4
2025-10-23T2000,4210A,118.3354,29.7203,黄山市,滨江东路7-2号,,41,41,37,21,14,88,,97,96,8,8,4,4,0.3,0.3
2025-10-23T2000,2423A,115.0601,30.2313,黄石市,沈家营,,32,32,30,22,13,72,,110,106,15,11,7,8,0.4,0.4
2025-10-23T2000,2426A,114.8988,30.2019,黄石市,铁山,颗粒物(PM10),51,52,39,18,16,61,,96,90,17,20,4,4,0.4,0.5
2025-10-23T2000,2427A,115.0307,30.2092,黄石市,团城山,细颗粒物(PM2.5),64,,31,46,17,67,,105,101,26,12,7,7,0.5,0.3
2025-10-23T2000,3149A,115.0235,30.1578,黄石市,笔架山北路,,,,46,,13,,,62,,,17,,7,,0.4
2025-10-23T2000,4185A,115.0780,30.21118,黄石市,磁湖东路29号,颗粒物(PM10),51,51,32,29,20,70,,102,99,20,14,8,8,0.6,0.5
2025-10-23T2000,1392A,114.4183,23.0528,惠州市,河南岸金山湖子站,,29,29,18,18,10,65,,72,72,14,13,10,9,0.6,0.5
2025-10-23T2000,1393A,114.4053,23.0822,惠州市,下埔横江三路子站,,36,36,21,21,13,70,,80,80,12,11,5,5,0.5,0.4
2025-10-23T2000,1394A,114.4103,23.1142,惠州市,江北云山西路子站,,36,36,22,19,13,73,,84,83,14,11,6,5,0.6,0.6
2025-10-23T2000,1395A,114.4645,22.7833,惠州市,惠阳区承修路船湖子站,,34,34,24,21,14,74,,79,79,11,11,9,9,0.5,0.5
2025-10-23T2000,1396A,114.5317,22.7422,惠州市,大亚湾管委会子站,,30,30,17,18,11,67,,68,68,14,14,10,9,0.6,0.6
2025-10-23T2000,3314A,114.4338,22.8134,惠州市,惠阳秋长,,36,36,21,19,12,78,,82,82,9,7,8,13,0.5,0.6
2025-10-23T2000,3452A,114.6517,22.775,惠州市,大亚湾霞涌,,31,31,19,19,13,64,,65,65,9,8,7,6,0.3,0.3
2025-10-23T2000,2240A,130.9762,45.3001,鸡西市,环保局,颗粒物(PM10),54,58,53,31,32,6,,68,56,61,23,11,9,1.1,0.6
2025-10-23T2000,2243A,130.9429,45.3039,鸡西市,第一中学,,48,48,55,29,31,56,,67,65,16,19,7,8,0.7,0.7
2025-10-23T2000,3707A,131.0207,45.3073,鸡西市,欧美日汽修厂,,,,80,,50,22,,61,49,50,33,25,14,1.2,0.9
2025-10-23T2000,3709A,130.9967,45.3106,鸡西市,市政设施管理处,细颗粒物(PM2.5),59,63,65,42,33,18,,71,59,50,32,12,10,0.7,0.5
2025-10-23T2000,2367A,114.9754,27.0803,吉安市,红声器材厂,,44,44,42,22,18,116,,121,121,20,16,12,12,0.5,0.5
2025-10-23T2000,2368A,114.9658,27.0999,吉安市,市森林工业局,,48,48,41,26,19,118,,122,122,20,15,9,9,0.4,0.4
2025-10-23T2000,2369A,114.99,27.1312,吉安市,市环境监测站,,45,45,41,31,20,113,,118,118,20,13,10,11,0.4,0.3
2025-10-23T2000,2370A,115.0093,27.0968,吉安市,青原区法院,,48,48,40,30,19,119,,119,119,13,14,10,11,0.7,0.7
2025-10-23T2000,1772A,126.54,43.8622,吉林市,哈达湾,颗粒物(PM10),53,56,56,33,35,49,,77,70,40,30,12,12,0.5,0.6
2025-10-23T2000,1773A,126.5844,43.8358,吉林市,东局子,细颗粒物(PM2.5),78,82,65,57,42,34,,74,61,40,34,8,11,0.9,0.9
2025-10-23T2000,1774A,126.5052,43.8245,吉林市,电力学院,细颗粒物(PM2.5),142,172,73,108,51,9,,70,62,63,35,12,12,1.8,0.9
2025-10-23T2000,1775A,126.6133,43.8972,吉林市,江北,细颗粒物(PM2.5),98,99,82,73,57,29,,81,61,41,37,6,7,1.2,1
2025-10-23T2000,1776A,126.555,43.8306,吉林市,江南公园,细颗粒物(PM2.5),70,81,62,51,46,15,,71,60,68,37,8,9,0.7,0.6
2025-10-23T2000,1778A,126.7061,43.7133,吉林市,丰满,,42,33,38,29,34,77,,114,101,20,16,24,11,0.4,0.5
2025-10-23T2000,2868A,126.4739,43.953,吉林市,九站,颗粒物(PM10),86,122,79,63,77,8,,65,57,83,45,11,13,1.1,0.8
2025-10-23T2000,1299A,116.9862,36.6114,济南市,科干所,颗粒物(PM10),53,56,51,27,26,41,,68,66,42,43,8,9,0.5,0.5
2025-10-23T2000,1300A,116.9376,36.665,济南市,农科所,颗粒物(PM10),58,66,71,22,25,34,,60,59,45,53,9,9,0.7,0.7
2025-10-23T2000,1301A,117.1265,36.6734,济南市,开发区,颗粒物(PM10),58,66,59,32,29,38,,68,64,42,40,4,5,0.6,0.6
2025-10-23T2000,1303A,117.0624,36.6868,济南市,省种子仓库,颗粒物(PM10),63,75,77,31,31,42,,73,71,39,52,8,9,0.8,0.8
2025-10-23T2000,1304A,116.9489,36.6447,济南市,机床二厂,颗粒物(PM10),61,71,76,32,36,40,,63,61,38,54,9,10,0.7,0.8
2025-10-23T2000,1305A,117.0495,36.663,济南市,市监测站,颗粒物(PM10),59,68,63,34,30,38,,68,67,40,48,5,5,0.8,0.8
2025-10-23T2000,1306A,116.7675,36.5484,济南市,长清党校,颗粒物(PM10),58,66,62,29,27,44,,64,64,40,51,8,8,0.6,0.7
2025-10-23T2000,1616A,117.6795,36.229,济南市,技术学院,细颗粒物(PM2.5),58,56,36,41,24,57,,88,80,29,30,10,9,0.7,0.6
2025-10-23T2000,1961A,117.532,36.6868,济南市,东山小学,颗粒物(PM10),61,71,48,34,21,32,,83,73,49,38,8,9,0.5,0.4
2025-10-23T2000,3059A,117.7161,36.2049,济南市,泰兴公司,细颗粒物(PM2.5),62,66,36,44,24,45,,86,80,35,33,8,7,0.5,0.4
2025-10-23T2000,3064A,117.6867,36.2171,济南市,莱芜战役纪念馆,细颗粒物(PM2.5),63,70,45,45,28,52,,87,81,33,29,12,10,0.3,0.2
2025-10-23T2000,3494A,117.1673,36.9782,济南市,济阳区政府,颗粒物(PM10),68,85,58,46,25,29,,72,63,46,29,8,12,0.6,0.4
2025-10-23T2000,3495A,117.1171,36.63,济南市,锦屏中学,颗粒物(PM10),53,56,38,24,19,40,,76,70,40,26,6,5,0.7,0.6
2025-10-23T2000,3682A,116.9814,36.6819,济南市,济南四建,颗粒物(PM10),58,66,68,29,30,22,,64,61,50,52,6,8,0.7,0.7
2025-10-23T2000,1653A,116.6251,35.4302,济宁市,火炬城,,,80,74,46,53,,,86,86,37,40,7,7,0.5,0.3
2025-10-23T2000,1655A,116.5491,35.4042,济宁市,电化厂,颗粒物(PM10),76,102,91,51,50,28,,85,78,62,42,4,7,0.2,0.2
2025-10-23T2000,3500A,116.5814,35.3707,济宁市,北湖一中,细颗粒物(PM2.5),70,56,57,51,48,50,,89,79,34,34,6,4,0.4,0.3
2025-10-23T2000,3501A,116.8249,35.5593,济宁市,服务中心,颗粒物(PM10),60,69,67,41,33,13,,70,63,56,36,10,9,0.6,0.4
2025-10-23T2000,3678A,116.5907,35.4054,济宁市,市第七中学,细颗粒物(PM2.5),67,82,74,48,43,46,,87,80,38,34,10,9,0.6,0.4
2025-10-23T2000,2255A,130.2751,46.8028,佳木斯市,佳纺,颗粒物(PM10),78,106,37,43,17,6,,57,38,59,29,6,5,0.9,0.5
2025-10-23T2000,2256A,130.3995,46.8307,佳木斯市,发电厂,"颗粒物(PM10),细颗粒物(PM2.5)",69,87,33,50,14,33,,62,54,32,18,7,6,0.7,0.4
2025-10-23T2000,2257A,130.3258,46.7975,佳木斯市,环保局,颗粒物(PM10),66,82,32,34,13,4,,60,41,67,29,7,4,0.9,0.5
2025-10-23T2000,2258A,130.3648,46.8032,佳木斯市,十一中,颗粒物(PM10),67,83,27,46,13,11,,68,51,65,22,9,20,1.2,0.5
2025-10-23T2000,2259A,130.3794,46.7588,佳木斯市,四丰,,,,,,,,,,,,,,,,
2025-10-23T2000,1252A,120.7436,30.778,嘉兴市,清河小学,,27,27,32,11,13,59,,79,76,28,22,8,8,0.4,0.5
2025-10-23T2000,1253A,120.726,30.7478,嘉兴市,嘉兴学院,,29,29,33,10,14,60,,83,79,27,23,5,6,0.4,0.8
2025-10-23T2000,2872A,120.7846,30.7525,嘉兴市,南湖区残联,,28,28,33,12,15,55,,92,85,35,21,6,7,0.4,0.5
2025-10-23T2000,3407A,120.6916,30.7739,嘉兴市,秀洲住建,,32,32,34,12,16,66,,91,87,22,18,8,8,0.7,0.9
2025-10-23T2000,1945A,98.2908,39.7711,嘉峪关市,气象局,,,110,92,53,41,,,118,118,18,25,6,11,0.8,0.9
2025-10-23T2000,2884A,98.2672,39.7978,嘉峪关市,酒钢宾馆,颗粒物(PM10),79,107,100,41,44,83,,104,104,25,24,13,19,0.7,0.9
2025-10-23T2000,3248A,98.2643,39.7724,嘉峪关市,雄关区,颗粒物(PM10),68,85,75,46,38,88,,110,110,26,34,12,16,0.9,0.5
2025-10-23T2000,1383A,113.1064,22.6058,江门市,北街,,34,34,24,20,16,49,,74,72,33,22,6,6,0.6,0.5
2025-10-23T2000,1384A,113.0731,22.5835,江门市,西区,颗粒物(PM10),53,55,26,17,12,52,,69,68,28,20,6,5,0.4,0.4
2025-10-23T2000,1385A,113.0219,22.5311,江门市,圭峰西,,26,26,24,18,15,57,,73,73,25,19,7,6,0.6,0.5
2025-10-23T2000,1386A,113.0828,22.5947,江门市,东湖,,37,37,27,21,14,51,,66,65,27,19,6,6,0.3,0.2
2025-10-23T2000,3311A,113.1075,22.5647,江门市,江海富民,,35,35,23,14,12,48,,72,71,33,25,9,8,0.4,0.5
2025-10-23T2000,3449A,113.05,22.4667,江门市,新会银湖,,33,26,23,23,17,45,,65,64,33,22,5,5,0.5,0.5
2025-10-23T2000,1830A,113.1992,35.2590,焦作市,影视城,,,,66,,38,,,78,,,18,,11,,0.5
2025-10-23T2000,3335A,113.3137,35.2641,焦作市,马村街道办,细颗粒物(PM2.5),94,117,85,70,54,67,,105,97,33,24,8,7,0.6,0.5
2025-10-23T2000,3336A,113.2465,35.2373,焦作市,焦作技师学院,细颗粒物(PM2.5),104,114,82,78,56,66,,101,96,41,29,13,12,0.7,0.6
2025-10-23T2000,3477A,113.1656,35.2539,焦作市,中站许衡医院,细颗粒物(PM2.5),105,124,82,79,57,71,,105,99,35,27,8,7,0.7,0.5
2025-10-23T2000,3981A,113.2449,35.1803,焦作市,原李万街道办,细颗粒物(PM2.5),89,106,88,66,54,71,,107,103,25,21,13,11,0.9,0.8
2025-10-23T2000,4264A,113.2340,35.2190,焦作市,新安路1731号,细颗粒物(PM2.5),107,111,91,80,59,68,,99,95,30,21,10,10,0.7,0.6
2025-10-23T2000,4295A,113.2722,35.2121,焦作市,人民路3066号,细颗粒物(PM2.5),87,108,86,64,52,68,,117,109,35,25,11,12,0.6,0.7
2025-10-23T2000,1708A,116.3701,23.5345,揭阳市,新兴,,34,34,24,18,48,38,,52,51,24,13,7,6,0.6,0.5
2025-10-23T2000,1709A,116.3264,23.5443,揭阳市,西马,,40,40,23,18,12,43,,50,50,17,11,4,3,0.7,0.6
2025-10-23T2000,1710A,116.3611,23.5626,揭阳市,东兴,,34,34,27,21,11,38,,46,45,20,16,5,6,0.5,0.4
2025-10-23T2000,1711A,116.4151,23.5294,揭阳市,渔湖,,22,21,24,15,13,53,,56,56,14,16,6,7,0.6,0.6
2025-10-23T2000,3320A,116.403,23.5699,揭阳市,曲溪,,32,27,24,22,14,55,,60,60,11,13,2,4,0.4,0.4
2025-10-23T2000,1944A,102.1692,38.5167,金昌市,天庆家园,颗粒物(PM10),97,144,102,49,60,43,,73,70,39,24,5,5,0.9,0.9
2025-10-23T2000,4022A,102.1647,38.5371,金昌市,金川区人防中心,颗粒物(PM10),83,116,87,54,60,31,,69,65,43,19,5,6,0.7,0.8
2025-10-23T2000,4239A,102.1930,38.5319,金昌市,长春路96号,颗粒物(PM10),62,73,97,34,54,53,,65,65,24,22,5,10,0.6,0.7
2025-10-23T2000,1262A,119.647,29.077,金华市,十五中,,26,23,24,14,14,81,,93,93,17,14,1,2,0.3,0.3
2025-10-23T2000,1263A,119.686,29.1029,金华市,监测站,,30,30,31,15,15,85,,101,99,21,15,2,2,0.3,0.3
2025-10-23T2000,3659A,119.656,29.1131,金华市,气象局,,32,32,29,16,14,68,,90,85,38,23,4,4,0.5,0.4
2025-10-23T2000,1767A,121.1115,41.0879,锦州市,南山,,45,45,48,30,31,48,,78,72,29,35,50,17,0.5,0.8
2025-10-23T2000,1768A,121.0604,40.8428,锦州市,开发区,颗粒物(PM10),55,59,63,29,32,21,,75,67,27,39,8,30,0.6,0.7
2025-10-23T2000,1769A,121.1836,41.1119,锦州市,百股街道,细颗粒物(PM2.5),67,76,57,48,30,14,,80,66,62,31,13,21,1.0,1
2025-10-23T2000,1770A,121.1178,41.1222,锦州市,天安街道,"颗粒物(PM10),细颗粒物(PM2.5)",78,105,64,57,38,5,,77,61,72,40,10,15,1.4,1.3
2025-10-23T2000,1771A,121.1303,41.1386,锦州市,北湖公园,细颗粒物(PM2.5),110,125,58,83,30,22,,72,59,52,33,11,12,1.0,0.8
2025-10-23T2000,2160A,112.85,35.5051,晋城市,自来水公司,,,118,92,68,53,94,,102,102,,25,8,8,0.5,0.5
2025-10-23T2000,2161A,112.8318,35.4936,晋城市,白云商贸,颗粒物(PM10),88,126,105,58,43,94,,103,103,25,23,5,5,0.4,0.3
2025-10-23T2000,2162A,112.8508,35.4887,晋城市,市环保局,颗粒物(PM10),89,127,97,56,43,91,,104,104,19,17,6,7,0.8,0.7
2025-10-23T2000,2163A,112.8676,35.4897,晋城市,技术学院,颗粒物(PM10),80,110,88,58,46,83,,93,93,28,26,8,7,0.9,0.8
2025-10-23T2000,2165A,112.8453,35.546,晋城市,白马寺,细颗粒物(PM2.5),83,95,77,61,50,111,,116,116,18,16,10,10,0.7,0.6
2025-10-23T2000,3620A,112.8271,35.4828,晋城市,泽州一中,细颗粒物(PM2.5),89,124,99,66,54,97,,110,110,25,21,5,5,0.6,0.5
2025-10-23T2000,2173A,112.7249,37.7067,晋中市,南都小区,细颗粒物(PM2.5),83,89,71,61,46,40,,67,64,39,38,6,13,1.0,1.1
2025-10-23T2000,2174A,112.6991,37.6982,晋中市,榆次区政府,细颗粒物(PM2.5),97,88,75,72,58,37,,62,60,40,38,7,11,1.2,1.2
2025-10-23T2000,2865A,112.7195,37.6828,晋中市,榆次三中,细颗粒物(PM2.5),89,100,79,66,50,46,,64,63,32,37,9,13,0.8,0.9
2025-10-23T2000,4200A,112.7478,37.6954,晋中市,迎宾街26号,细颗粒物(PM2.5),100,100,68,75,50,46,,61,60,36,34,6,10,0.8,0.9
2025-10-23T2000,2439A,112.2014,31.0481,荆门市,竹园小学,,,72,65,35,40,104,,116,116,21,19,,1,0.1,0.1
2025-10-23T2000,2440A,112.1969,30.9891,荆门市,掇刀,颗粒物(PM10),59,67,66,40,42,111,,122,122,17,12,2,2,0.4,0.4
2025-10-23T2000,2441A,112.2213,31.0386,荆门市,石化一小,颗粒物(PM10),69,88,71,48,49,84,,106,106,24,18,5,5,0.3,0.5
2025-10-23T2000,3012A,112.1849,31.0362,荆门市,西山林语,颗粒物(PM10),57,64,63,35,41,109,,114,114,14,14,5,5,0.4,0.5
2025-10-23T2000,3547A,112.1632,31.0138,荆门市,龙泉中学南校,颗粒物(PM10),67,83,63,37,42,119,,120,120,14,14,6,7,0.2,0.3
2025-10-23T2000,1844A,112.2494,30.3197,荆州市,市图书馆,,,52,43,39,35,92,,108,107,,21,9,8,0.5,0.4
2025-10-23T2000,1845A,112.2008,30.3544,荆州市,市委党校,颗粒物(PM10),51,51,46,30,34,92,,101,101,25,20,10,9,0.5,0.5
2025-10-23T2000,3194A,112.2747,30.3122,荆州市,管委会,,48,48,43,31,36,94,,104,103,23,16,9,9,0.4,0.4
2025-10-23T2000,4268A,112.1722,30.3366,荆州市,学苑路85号,细颗粒物(PM2.5),54,51,45,38,32,93,,114,113,19,13,8,10,0.3,0.2
2025-10-23T2000,2342A,117.3102,29.3867,景德镇市,王港中学,,,,,,,,,,,,,,,,
2025-10-23T2000,2343A,117.2117,29.2933,景德镇市,老干部活动中心,,36,36,25,14,15,72,,86,85,14,5,3,4,0.7,0.7
2025-10-23T2000,2344A,117.1894,29.2789,景德镇市,兽医站,,30,30,30,12,12,87,,90,90,8,7,6,6,0.5,0.5
2025-10-23T2000,2346A,117.2461,29.2956,景德镇市,陶研所,,26,25,23,17,19,81,,91,91,7,5,6,6,0.6,0.5
2025-10-23T2000,4289A,117.1542,29.2566,景德镇市,青少年活动中心,,29,14,24,10,16,91,,92,92,6,8,3,3,0.7,0.7
2025-10-23T2000,1803A,115.9872,29.6815,九江市,十里,,33,33,29,23,16,104,,117,116,18,15,5,5,0.5,0.5
2025-10-23T2000,1804A,115.9584,29.7046,九江市,茅山头,细颗粒物(PM2.5),57,51,24,40,17,88,,98,97,16,13,4,4,0.5,0.5
2025-10-23T2000,1805A,115.9877,29.7295,九江市,西园,,44,44,27,26,14,94,,110,109,33,22,6,5,0.4,0.4
2025-10-23T2000,1808A,115.9114,29.6038,九江市,综合工业园,,40,40,28,23,19,99,,111,111,15,19,3,3,0.4,0.3
2025-10-23T2000,1809A,116.0721,29.7535,九江市,石化总厂,,45,45,32,16,18,82,,103,98,29,24,2,3,0.4,0.4
2025-10-23T2000,1810A,115.9773,29.5698,九江市,庐山气象台,,,,,,,,,,,,,,,,
2025-10-23T2000,3190A,116.0254,29.6994,九江市,外国语学校,,36,29,31,25,17,89,,102,100,22,20,4,2,0.5,0.5
2025-10-23T2000,4253A,116.0102,29.6594,九江市,莲花大道8号,,38,38,31,20,17,92,,104,103,13,11,6,6,0.3,0.3
2025-10-23T2000,4240A,98.4958,39.7339,酒泉市,玉门东路5号,颗粒物(PM10),84,117,94,42,36,68,,94,94,30,23,10,12,0.8,0.7
2025-10-23T2000,4241A,98.5099,39.7506,酒泉市,北大街108号,,,,81,,36,47,,92,89,39,22,8,9,0.6,0.6
2025-10-23T2000,2698A,76.0072,39.4467,喀什地区,巡警大队,颗粒物(PM10),120,189,285,65,93,103,,89,89,20,53,5,6,0.3,1
2025-10-23T2000,2699A,75.9755,39.4694,喀什地区,吾办,颗粒物(PM10),116,181,258,65,98,67,,84,84,53,52,9,7,0.5,1.1
2025-10-23T2000,4027A,75.9483,39.4689,喀什地区,老干局,颗粒物(PM10),115,179,272,48,74,97,,99,99,18,44,2,3,0.3,1
2025-10-23T2000,1824A,114.3389,34.7781,开封市,肿瘤医院,颗粒物(PM10),79,107,102,57,65,36,,96,87,46,44,12,14,0.8,0.8
2025-10-23T2000,1826A,114.2885,34.7965,开封市,世纪星幼儿园,细颗粒物(PM2.5),90,96,94,67,73,40,,93,88,47,48,9,11,0.6,0.6
2025-10-23T2000,3147A,114.3438,34.8106,开封市,龙亭公园,细颗粒物(PM2.5),98,102,111,73,83,31,,89,81,48,50,14,12,0.8,0.8
2025-10-23T2000,3210A,114.3644,34.7964,开封市,汴京公园,细颗粒物(PM2.5),95,116,111,71,72,35,,96,88,50,50,9,11,0.6,0.6
2025-10-23T2000,3473A,114.2485,34.8306,开封市,技师学院,细颗粒物(PM2.5),93,98,104,69,71,33,,82,78,49,52,11,13,0.8,0.8
2025-10-23T2000,3592A,114.4644,34.7556,开封市,祥符区生态环境局,细颗粒物(PM2.5),92,126,127,68,75,27,,91,84,51,46,7,10,0.7,0.7
2025-10-23T2000,1951A,84.895,45.6094,克拉玛依市,长征新村,颗粒物(PM10),58,65,72,14,21,32,,65,62,42,25,4,3,0.5,0.4
2025-10-23T2000,1952A,84.8988,45.5893,克拉玛依市,南林小区,,,,72,,21,91,,68,68,,27,,4,1.1,0.6
2025-10-23T2000,1954A,84.905,44.3396,克拉玛依市,独山子区,颗粒物(PM10),79,108,129,40,47,57,,96,92,38,31,11,12,0.4,0.7
2025-10-23T2000,1955A,85.6979,46.098,克拉玛依市,乌尔禾区商贸楼,颗粒物(PM10),68,85,64,17,15,41,,68,65,37,20,9,6,0.5,0.4
2025-10-23T2000,3612A,85.1045,45.6899,克拉玛依市,白碱滩区新站,颗粒物(PM10),69,87,97,22,25,53,,64,64,19,23,6,6,0.5,0.4
2025-10-23T2000,2697A,76.1454,39.7142,克孜勒苏柯尔克孜自治州,市人民政府,颗粒物(PM10),126,202,219,89,89,84,,107,107,35,21,7,7,0.2,0.2
2025-10-23T2000,3665A,76.1658,39.7157,克孜勒苏柯尔克孜自治州,克州文化中心,颗粒物(PM10),136,221,226,84,81,97,,108,108,22,25,8,9,0.4,0.4
2025-10-23T2000,1450A,102.8204,24.8886,昆明市,呈贡新区,,28,24,16,19,15,65,,68,68,10,10,1,4,0.5,0.6
2025-10-23T2000,1451A,102.6251,24.9608,昆明市,西山森林公园,,,,,,,,,,,,,,,,
2025-10-23T2000,1452A,102.7252,25.0902,昆明市,龙泉镇,,27,27,19,11,10,52,,61,60,15,12,2,2,0.6,0.6
2025-10-23T2000,1453A,102.7266,25.0375,昆明市,东风东路,,39,39,28,20,14,51,,62,61,21,15,1,1,0.5,0.5
2025-10-23T2000,1454A,102.6742,25.0669,昆明市,金鼎山,,31,31,24,15,13,58,,64,63,19,12,1,1,0.4,0.4
2025-10-23T2000,1455A,102.6644,25.0401,昆明市,碧鸡广场,,23,23,23,16,15,54,,59,59,22,17,8,8,0.4,0.4
2025-10-23T2000,3179A,102.7494,25.0119,昆明市,官渡区博物馆,,22,22,18,11,14,37,,60,58,35,19,2,2,0.5,0.5
2025-10-23T2000,3375A,102.8017,24.8336,昆明市,青年创业园,,26,26,14,14,10,40,,64,62,18,9,1,2,0.6,0.5
2025-10-23T2000,3550A,102.7997,24.9786,昆明市,昆明学院,,33,33,20,20,12,50,,66,65,25,14,8,8,0.6,0.6
2025-10-23T2000,3551A,102.5967,24.6736,昆明市,晋宁区生态环境分局,,36,36,16,19,11,57,,71,71,21,8,2,2,0.4,0.3
2025-10-23T2000,3552A,102.6678,24.9856,昆明市,云天化总部,,21,21,19,13,12,51,,64,62,20,14,4,4,0.5,0.5
2025-10-23T2000,1456A,91.1319,29.6514,拉萨市,八廓街,,36,12,16,3,10,114,,122,122,5,18,5,5,0.1,0.2
2025-10-23T2000,1457A,91.1221,29.6747,拉萨市,市环保局,,33,23,18,6,10,103,,118,118,11,17,7,8,0.3,0.4
2025-10-23T2000,1458A,91.0874,29.6475,拉萨市,区监测站,,35,9,12,3,8,110,,117,117,10,27,4,4,0.3,0.4
2025-10-23T2000,1459A,91.1774,29.6541,拉萨市,西藏大学,,35,10,14,7,8,109,,116,116,10,19,6,6,0.4,0.3
2025-10-23T2000,1460A,90.9798,29.6588,拉萨市,区辐射站,,27,24,20,7,9,86,,102,101,23,21,5,5,0.3,0.3
2025-10-23T2000,1461A,91.0834,29.6292,拉萨市,拉萨火车站,,35,14,11,10,7,110,,118,118,6,10,5,5,0.2,0.2
2025-10-23T2000,2520A,109.2203,23.7256,来宾市,来宾技工学校,,42,36,24,29,17,58,,72,70,9,7,8,8,0.5,0.6
2025-10-23T2000,3535A,109.1781,23.7297,来宾市,兴宾区政府,,35,32,22,24,14,58,,69,68,8,6,8,7,0.5,0.4
2025-10-23T2000,4002A,109.2416,23.7461,来宾市,中南小学,,33,33,25,20,15,55,,67,66,10,9,7,7,0.6,0.5
2025-10-23T2000,1477A,104.1373,35.9454,兰州市,榆中兰大校区,,,,,,,,,,,,,,,,
2025-10-23T2000,1479A,103.831,36.0464,兰州市,铁路设计院,,,,,,,,,,,,,,,,
2025-10-23T2000,3241A,103.7439,36.0842,兰州市,百合公园,,,,28,25,17,43,,61,58,23,14,8,8,0.7,0.7
2025-10-23T2000,3242A,103.9611,35.998,兰州市,和平,,,41,20,22,10,30,,65,61,,13,3,3,,0.5
2025-10-23T2000,4236A,103.6293,36.0938,兰州市,庄浪东路808号,,44,44,34,28,23,10,,60,52,67,36,7,7,0.7,0.5
2025-10-23T2000,4237A,103.7251,36.1043,兰州市,安宁西路88号,,48,46,36,33,31,53,,73,67,25,13,1,2,0.4,0.4
2025-10-23T2000,4238A,103.8470,36.0676,兰州市,北滨河东路1号,,33,31,27,23,21,41,,68,64,32,22,6,8,0.5,0.8
2025-10-23T2000,3245A,103.6633,36.533,兰州新区,新区管委会,,34,34,35,19,25,62,,87,85,14,14,5,13,0.3,0.4
2025-10-23T2000,3246A,103.6975,36.4789,兰州新区,舟曲中学,,27,27,23,13,12,54,,92,88,24,15,4,16,0.3,0.4
2025-10-23T2000,1067A,116.6708,39.5111,廊坊市,药材公司,细颗粒物(PM2.5),88,83,71,65,52,21,,47,44,43,43,2,2,0.6,0.6
2025-10-23T2000,1068A,116.7214,39.5589,廊坊市,开发区,细颗粒物(PM2.5),85,82,71,63,53,14,,53,49,36,39,1,2,0.5,0.5
2025-10-23T2000,1070A,116.7244,39.5269,廊坊市,北华航天学院,细颗粒物(PM2.5),87,122,80,64,53,3,,52,47,58,43,7,8,1.0,0.5
2025-10-23T2000,2919A,116.7022,39.5453,廊坊市,河北工业大学,细颗粒物(PM2.5),85,95,77,63,53,11,,52,49,48,39,2,4,0.7,0.5
2025-10-23T2000,2535A,103.7723,29.5462,乐山市,花湖湾,,,,,,,,,,,,,,,,
2025-10-23T2000,2536A,103.7627,29.5844,乐山市,牛耳桥,,22,18,16,15,12,36,,29,29,21,18,6,6,0.5,0.7
2025-10-23T2000,2537A,103.7508,29.6006,乐山市,市第三水厂,,18,17,15,12,9,40,,30,30,16,16,5,5,0.6,0.6
2025-10-23T2000,2538A,103.7571,29.5664,乐山市,市监测站,,19,17,15,13,11,44,,29,29,12,13,5,5,0.6,0.6
2025-10-23T2000,3361A,103.7311,29.5628,乐山市,理工大学,,18,17,13,12,10,48,,34,34,12,13,7,6,0.6,0.6
2025-10-23T2000,2598A,100.2143,26.8576,丽江市,西南郊,,29,29,20,14,11,81,,88,88,7,4,7,7,0.8,0.7
2025-10-23T2000,2599A,100.2497,26.8802,丽江市,丽江古城,,32,32,27,6,6,74,,84,84,14,11,10,10,0.6,0.6
2025-10-23T2000,2600A,100.2203,26.8906,丽江市,市中心,,29,,21,20,17,81,,92,92,15,11,11,11,0.6,0.5
2025-10-23T2000,1267A,119.914,28.4514,丽水市,监测站大楼,,39,39,33,10,13,71,,86,85,22,12,5,5,0.3,0.2
2025-10-23T2000,1268A,119.93,28.4586,丽水市,莲都小学,,43,43,39,16,14,81,,86,86,18,13,4,4,0.3,0.3
2025-10-23T2000,1269A,119.879,28.4231,丽水市,余庄前,,30,30,34,15,17,32,,78,67,23,18,3,4,0.3,0.3
2025-10-23T2000,1173A,119.176,34.5885,连云港市,市环境监测站,颗粒物(PM10),51,51,39,24,20,64,,89,86,33,34,9,10,0.7,0.8
2025-10-23T2000,3000A,119.3581,34.6972,连云港市,德源药业,颗粒物(PM10),53,56,40,19,11,60,,79,76,40,32,6,6,0.4,0.3
2025-10-23T2000,3007A,119.178,34.844,连云港市,新城一中,,,48,45,28,25,30,,88,73,79,41,8,10,,0.9
2025-10-23T2000,3008A,119.3608,34.7519,连云港市,胡沟管理处,,36,36,25,14,7,87,,92,92,15,16,12,13,0.8,0.9
2025-10-23T2000,3009A,119.1478,34.5911,连云港市,矿山设计院,,46,46,41,24,18,54,,94,88,32,33,5,5,0.6,0.8
2025-10-23T2000,3434A,119.2413,34.6539,连云港市,工贸学校,,46,46,32,22,15,77,,93,92,28,24,12,11,0.8,0.7
2025-10-23T2000,3664A,119.4172,34.7341,连云港市,连云街道,,44,44,30,20,13,76,,92,90,32,22,4,4,0.4,0.3
2025-10-23T2000,2571A,102.3431,27.8099,凉山彝族自治州,青龙寺,,,,,,,,,,,,,,,,
2025-10-23T2000,2572A,102.2721,27.8415,凉山彝族自治州,邛海宾馆,,33,33,22,21,15,64,,66,66,12,10,11,10,0.6,0.6
2025-10-23T2000,2573A,102.2625,27.898,凉山彝族自治州,西昌市政府,,32,27,18,22,14,64,,64,64,7,7,9,6,0.5,0.6
2025-10-23T2000,2574A,102.2685,27.8851,凉山彝族自治州,凉山州政府,,31,31,20,16,15,65,,65,65,5,5,9,9,0.7,0.7
2025-10-23T2000,4229A,102.2342,27.8859,凉山彝族自治州,凯乐南路30号,,38,31,24,26,14,70,,72,72,14,14,18,8,0.6,0.6
2025-10-23T2000,2212A,123.2,41.1953,辽阳市,宏伟区,颗粒物(PM10),60,70,83,35,39,38,,60,57,30,34,7,10,0.6,0.7
2025-10-23T2000,2213A,123.1683,41.2495,辽阳市,新华园,颗粒物(PM10),56,61,83,34,50,43,,61,60,34,38,5,8,0.4,0.8
2025-10-23T2000,2214A,123.2354,41.2639,辽阳市,滨河路,,,96,87,46,46,,,64,60,43,36,6,9,0.6,0.9
2025-10-23T2000,2215A,123.149,41.2991,辽阳市,铁西工业园,颗粒物(PM10),69,87,92,43,63,7,,53,46,53,42,5,9,0.6,0.9
2025-10-23T2000,2227A,125.1358,42.8845,辽源市,环保局,颗粒物(PM10),83,115,128,48,62,28,,69,62,52,32,9,5,0.8,0.9
2025-10-23T2000,3239A,125.0764,42.9078,辽源市,银鹰制药,细颗粒物(PM2.5),102,86,90,76,64,25,,78,68,55,31,9,9,0.7,0.7
2025-10-23T2000,1625A,115.9848,36.4372,聊城市,区政府,颗粒物(PM10),53,56,74,23,38,46,,73,73,38,48,11,14,0.4,0.6
2025-10-23T2000,2878A,116.0072,36.4343,聊城市,聊大东校,颗粒物(PM10),57,63,83,29,42,48,,76,76,38,48,10,14,0.5,0.6
2025-10-23T2000,3200A,115.9819,36.4978,聊城市,监控中心,颗粒物(PM10),58,66,76,36,41,37,,72,70,40,46,11,16,0.6,0.7
2025-10-23T2000,3513A,116.0445,36.4361,聊城市,九州社区,颗粒物(PM10),60,69,80,28,38,39,,73,72,40,42,1,9,0.4,0.6
2025-10-23T2000,4018A,116.0567,36.4608,聊城市,星美广场,颗粒物(PM10),60,70,88,30,38,29,,63,61,43,50,8,15,0.4,0.6
2025-10-23T2000,2632A,94.3681,29.6376,林芝市,林芝监测站,,28,8,12,7,6,89,,96,94,4,3,3,3,0.3,0.3
2025-10-23T2000,2633A,94.3616,29.6616,林芝市,林芝人民医院,,28,11,14,7,5,89,,94,94,2,3,5,4,0.3,0.4
2025-10-23T2000,2603A,100.0781,23.8982,临沧市,市环保局,细颗粒物(PM2.5),62,,20,44,30,55,,66,65,6,5,5,4,1.0,1
2025-10-23T2000,2604A,100.0894,23.8822,临沧市,市气象局,,28,21,22,19,16,53,,66,64,8,6,6,6,0.6,0.6
2025-10-23T2000,1733A,111.5531,36.0783,临汾市,临钢医院,细颗粒物(PM2.5),84,97,79,62,49,23,,46,45,39,29,7,8,1.0,1
2025-10-23T2000,1734A,111.5028,36.0714,临汾市,技工学校,细颗粒物(PM2.5),84,98,90,62,53,24,,48,48,49,36,7,8,1.0,0.9
2025-10-23T2000,1736A,111.5018,36.0855,临汾市,市委,颗粒物(PM10),87,123,99,58,55,33,,54,54,43,34,7,8,0.9,0.8
2025-10-23T2000,3018A,111.505,36.1014,临汾市,唐尧大酒店,颗粒物(PM10),83,115,101,56,55,32,,56,53,36,30,4,4,1.0,0.9
2025-10-23T2000,4244A,111.4879,36.0530,临汾市,启星学校,颗粒物(PM10),85,120,86,61,51,23,,52,50,56,40,6,7,1.0,0.9
2025-10-23T2000,4271A,103.2464,35.6123,临夏回族自治州,滨河东路1号,颗粒物(PM10),51,52,54,21,24,21,,48,45,25,18,7,6,0.5,0.5
2025-10-23T2000,4310A,103.2093,35.5995,临夏回族自治州,新华街21号,,47,47,34,31,22,35,,67,61,30,15,6,7,0.5,0.5
2025-10-23T2000,1618A,118.3429,35.0532,临沂市,沂河小区,颗粒物(PM10),70,90,45,50,30,56,,86,84,36,22,7,8,0.5,0.4
2025-10-23T2000,1619A,118.295,35.0583,临沂市,鲁南制药厂,颗粒物(PM10),64,78,40,40,23,66,,92,90,32,24,7,8,0.6,0.5
2025-10-23T2000,1620A,118.2794,34.9976,临沂市,新光毛纺厂,细颗粒物(PM2.5),60,68,35,43,24,63,,87,85,38,25,8,8,0.5,0.3
2025-10-23T2000,1621A,118.3956,35.0888,临沂市,河东保险公司,细颗粒物(PM2.5),79,90,47,58,23,43,,89,83,52,30,7,7,0.7,0.6
2025-10-23T2000,3370A,118.3564,35.0215,临沂市,十里堡居委,颗粒物(PM10),78,105,41,53,15,48,,94,89,49,31,9,8,0.5,0.3
2025-10-23T2000,3496A,118.3604,35.1084,临沂市,南坊新区,细颗粒物(PM2.5),64,75,44,46,23,57,,89,85,38,28,8,9,0.6,0.6
2025-10-23T2000,3860A,118.3920,35.0300,临沂市,皇山花园小区,细颗粒物(PM2.5),90,124,54,67,26,43,,94,87,51,28,10,9,0.7,0.5
2025-10-23T2000,1870A,109.4856,24.3895,柳州市,柳东小学,,30,29,20,21,15,64,,79,78,8,5,5,5,0.3,0.3
2025-10-23T2000,1871A,109.4157,24.3277,柳州市,环保监测站,,38,38,22,18,12,58,,66,66,9,6,7,7,0.4,0.4
2025-10-23T2000,1872A,109.389,24.341,柳州市,河西水厂,,,,31,,20,45,,62,59,24,19,12,14,0.9,1.3
2025-10-23T2000,1873A,109.4311,24.2921,柳州市,市四中,,35,35,24,18,13,58,,67,67,10,8,8,8,0.3,0.2
2025-10-23T2000,1874A,109.4006,24.3631,柳州市,市九中,,42,42,28,25,21,61,,67,66,13,10,3,3,0.3,0.4
2025-10-23T2000,1875A,109.4958,24.3134,柳州市,古亭山,,32,32,21,20,13,61,,74,74,5,3,7,6,0.4,0.4
2025-10-23T2000,3402A,109.5422,24.3996,柳州市,市二中,,30,29,20,21,15,64,,79,78,12,8,7,7,0.3,0.3
2025-10-23T2000,2307A,116.5079,31.737,六安市,监测大楼,,50,50,35,26,19,88,,101,101,20,18,4,4,0.3,0.3
2025-10-23T2000,2308A,116.4738,31.7643,六安市,皖西学院,颗粒物(PM10),51,52,36,27,20,82,,107,106,26,16,4,3,0.4,0.3
2025-10-23T2000,2309A,116.4996,31.7905,六安市,朝阳厂,颗粒物(PM10),52,53,39,29,21,82,,98,98,28,23,5,3,0.3,0.4
2025-10-23T2000,2310A,116.5567,31.7886,六安市,开发区,颗粒物(PM10),63,75,54,43,26,64,,98,95,33,21,2,2,0.3,0.3
2025-10-23T2000,2576A,104.8,26.5892,六盘水市,窑上,,28,28,29,15,15,45,,70,68,5,6,1,2,0.4,0.5
2025-10-23T2000,2577A,104.83,26.5917,六盘水市,黄土坡,,28,28,21,11,13,61,,68,68,9,11,4,5,0.6,0.7
2025-10-23T2000,2578A,104.89,26.5939,六盘水市,水钢,,42,42,26,18,12,55,,68,67,13,10,3,4,0.5,0.6
2025-10-23T2000,2579A,104.8475,26.5894,六盘水市,民中,,20,20,21,12,13,57,,66,66,12,10,2,3,0.4,0.6
2025-10-23T2000,2580A,104.9544,26.5506,六盘水市,双水,,29,29,21,20,14,57,,66,65,10,8,3,3,0.4,0.5
2025-10-23T2000,2335A,117.0189,25.1181,龙岩市,龙岩师专,,,,,,,,,,,,,,,,
2025-10-23T2000,2336A,117.0217,25.1033,龙岩市,龙岩市监测站,,21,14,16,12,12,66,,69,69,8,8,6,6,0.3,0.3
2025-10-23T2000,2337A,117.0258,25.0661,龙岩市,闽西职业技术学院,,22,13,13,10,7,68,,74,73,4,3,5,5,0.4,0.4
2025-10-23T2000,2338A,117.0196,25.0306,龙岩市,龙岩学院,,22,20,14,13,12,68,,72,72,7,6,9,9,0.4,0.4
2025-10-23T2000,2665A,105.0822,33.3261,陇南市,汉王镇固水子,,,,,,,,,,,,,,,,
2025-10-23T2000,2885A,104.9339,33.3826,陇南市,滨江中学,,,,33,,13,,,28,28,9,8,6,6,0.7,0.7
2025-10-23T2000,3247A,104.955,33.371,陇南市,市总工会,,28,28,29,13,9,27,,29,29,8,9,6,6,1.0,1
2025-10-23T2000,2487A,111.9589,27.8901,娄底市,电视发射台,,,,,,,,,,,,,,,,
2025-10-23T2000,2488A,111.9975,27.725,娄底市,市监测站,,46,43,35,32,23,105,,109,109,17,14,12,10,0.4,0.3
2025-10-23T2000,2489A,112.0194,27.7314,娄底市,市委党校,,45,45,34,31,21,107,,104,104,11,9,3,2,0.4,0.3
2025-10-23T2000,2490A,111.9561,27.7569,娄底市,涟钢,,49,49,33,28,22,89,,90,90,16,11,9,6,0.7,0.6
2025-10-23T2000,2491A,111.9892,27.7044,娄底市,市政府,,36,35,32,25,22,110,,108,108,11,10,7,7,0.6,0.5
2025-10-23T2000,1893A,105.4324,28.9634,泸州市,九狮山,,,,,,,,,,,,,,,,
2025-10-23T2000,1894A,105.4427,28.9063,泸州市,小市上码头,,40,40,28,21,16,55,,68,67,16,16,9,9,0.7,0.7
2025-10-23T2000,1895A,105.4241,28.8573,泸州市,兰田宪桥,,35,30,103,24,16,49,,61,60,10,12,5,5,0.4,0.4
2025-10-23T2000,1896A,105.4379,28.8833,泸州市,市环监站,,40,40,35,18,15,41,,58,56,18,20,9,9,0.4,0.4
2025-10-23T2000,4272A,105.3689,28.7783,泸州市,纳溪中医医院,,35,35,27,21,17,48,,60,60,16,16,6,6,0.5,0.6
2025-10-23T2000,2183A,111.1406,37.5211,吕梁市,环保局,颗粒物(PM10),53,55,74,32,27,60,,57,57,35,43,9,4,0.7,0.6
2025-10-23T2000,2185A,111.1297,37.5136,吕梁市,自来水公司,"颗粒物(PM10),细颗粒物(PM2.5)",54,58,68,38,27,51,,54,54,37,41,8,4,0.8,0.7
2025-10-23T2000,2867A,111.1283,37.51,吕梁市,马茂庄小学,颗粒物(PM10),64,78,101,39,31,45,,52,52,47,44,10,6,0.9,0.7
2025-10-23T2000,1812A,112.3931,34.6516,洛阳市,市委党校,细颗粒物(PM2.5),92,102,87,68,63,86,,90,90,42,44,6,6,0.6,0.6
2025-10-23T2000,1815A,112.494,34.6886,洛阳市,河南林校,细颗粒物(PM2.5),104,107,87,78,68,75,,90,90,55,40,10,11,0.5,0.6
2025-10-23T2000,1816A,112.3844,34.623,洛阳市,开发区管委会,细颗粒物(PM2.5),98,109,94,73,67,98,,97,97,32,36,9,8,0.6,0.7
2025-10-23T2000,1817A,112.4267,34.6258,洛阳市,市委新办公区,,,120,94,64,51,,,91,91,38,33,10,9,0.7,0.7
2025-10-23T2000,3340A,112.6005,34.6326,洛阳市,伊滨,细颗粒物(PM2.5),108,125,101,81,69,75,,88,88,37,42,6,6,0.5,0.6
2025-10-23T2000,3341A,112.4951,34.6332,洛阳市,中移产业园,细颗粒物(PM2.5),112,116,97,84,69,80,,90,90,42,42,9,10,0.5,0.5
2025-10-23T2000,3593A,112.5736,34.8993,洛阳市,吉利监测站,细颗粒物(PM2.5),85,96,93,63,67,87,,100,100,34,37,10,9,0.5,0.9
2025-10-23T2000,3635A,112.3677,34.662,洛阳市,河科大西苑校区,细颗粒物(PM2.5),95,117,90,71,62,87,,94,94,46,43,10,10,0.8,0.8
2025-10-23T2000,3636A,112.4388,34.6781,洛阳市,英才小学,颗粒物(PM10),91,131,110,56,47,60,,79,79,54,42,9,9,0.6,0.6
2025-10-23T2000,4214A,112.4600,34.6949,洛阳市,春都路1号院,颗粒物(PM10),84,117,92,61,50,58,,74,74,48,37,10,10,0.7,0.8
2025-10-23T2000,2399A,114.051,33.5699,漯河市,三五一五工厂,细颗粒物(PM2.5),104,117,96,78,62,103,,122,122,22,24,10,9,0.6,0.5
2025-10-23T2000,2400A,114.0055,33.5698,漯河市,漯河大学,细颗粒物(PM2.5),104,129,97,78,59,108,,126,125,22,27,9,8,0.6,0.6
2025-10-23T2000,2401A,114.0138,33.5828,漯河市,市水利局,细颗粒物(PM2.5),98,134,97,73,60,102,,117,116,25,29,9,9,0.6,0.6
2025-10-23T2000,2402A,114.0261,33.5698,漯河市,市广电局,颗粒物(PM10),92,134,94,58,57,104,,129,129,22,22,8,8,0.6,0.6
2025-10-23T2000,3478A,113.9749,33.5664,漯河市,市图书馆,细颗粒物(PM2.5),90,121,104,67,58,96,,112,112,25,25,7,7,0.6,0.5
2025-10-23T2000,4250A,114.0892,33.5882,漯河市,韶山路11号,细颗粒物(PM2.5),93,124,100,69,62,82,,113,110,33,36,9,9,0.7,0.7
2025-10-23T2000,1798A,118.5092,31.6837,马鞍山市,湖东路四小,,38,38,30,10,11,85,,97,96,22,23,4,4,0.4,0.4
2025-10-23T2000,1799A,118.5024,31.6449,马鞍山市,开发区,,30,30,28,14,11,88,,99,98,20,20,6,6,0.5,0.4
2025-10-23T2000,1802A,118.6245,31.7241,马鞍山市,濮塘,,,,,,,,,,,,,,,,
2025-10-23T2000,3633A,118.4918,31.6809,马鞍山市,雨山,,37,37,31,13,12,87,,100,99,23,24,6,7,0.5,0.6
2025-10-23T2000,4191A,118.5274,31.72227,马鞍山市,慈湖高新区,,36,36,33,16,15,81,,98,96,23,21,2,4,0.4,0.4
2025-10-23T2000,1686A,111.0286,21.4688,茂名市,电白南海,,,34,23,,12,44,,54,51,13,10,7,8,,0.8
2025-10-23T2000,1687A,110.9294,21.6533,茂名市,茂石化七小,,39,34,23,27,14,40,,48,46,18,13,13,8,0.3,0.3
2025-10-23T2000,1688A,110.9107,21.6687,茂名市,健康路,,29,29,17,19,15,43,,54,53,19,12,22,18,1.0,0.7
2025-10-23T2000,1689A,110.8592,21.6828,茂名市,高岭,,36,36,24,14,8,37,,49,46,16,12,7,7,0.8,0.7
2025-10-23T2000,3450A,111.01,21.5165,茂名市,电白水东,,,29,17,22,9,,,53,,18,11,10,7,0.7,0.6
2025-10-23T2000,2539A,104.0308,30.0478,眉山市,黑龙滩水库,,,,,,,,,,,,,,,,
2025-10-23T2000,2540A,103.8416,30.0874,眉山市,气象局,,20,18,20,14,8,38,,33,33,13,15,6,7,0.4,0.4
2025-10-23T2000,3137A,103.8578,30.0744,眉山市,市委党校,,12,12,8,7,4,33,,34,30,13,13,5,5,0.5,0.5
2025-10-23T2000,3148A,103.8291,30.0564,眉山市,区人社局,,34,34,26,3,4,38,,35,35,16,16,4,4,1.0,0.9
2025-10-23T2000,1690A,116.1231,24.3284,梅州市,梅江月梅,,25,19,18,17,12,58,,62,62,14,11,8,6,0.4,0.4
2025-10-23T2000,1691A,116.0797,24.2719,梅州市,梅县新城,,,,17,24,10,62,,63,63,,6,7,7,,0.5
2025-10-23T2000,1692A,116.1248,24.2654,梅州市,环境监控中心,,24,24,16,16,11,57,,60,60,12,11,6,4,0.6,0.5
2025-10-23T2000,3315A,116.1233,24.2991,梅州市,梅龙,,27,27,19,18,10,49,,53,52,11,8,7,6,0.5,0.5
2025-10-23T2000,1878A,104.7778,31.4741,绵阳市,富乐山,,9,7,7,3,4,27,,29,26,7,7,7,7,0.6,0.6
2025-10-23T2000,1880A,104.6697,31.4668,绵阳市,高新区自来水公司,,13,,6,9,5,25,,29,23,12,11,7,7,0.6,0.6
2025-10-23T2000,1881A,104.7287,31.5075,绵阳市,三水厂,,10,9,8,3,6,31,,30,28,6,7,6,5,0.4,0.4
2025-10-23T2000,3491A,104.69,31.5322,绵阳市,西科大附属小学,,9,6,7,3,3,27,,30,26,16,13,9,9,0.2,0.2
2025-10-23T2000,3492A,104.5648,31.5343,绵阳市,安州区旅游局,,10,6,6,3,3,31,,33,31,11,10,8,8,0.5,0.6
2025-10-23T2000,4226A,104.7651,31.4531,绵阳市,绵阳市气象局,,9,9,6,3,4,21,,27,20,10,8,7,14,0.4,0.4
2025-10-23T2000,1784A,129.61,44.561,牡丹江市,环保大楼,颗粒物(PM10),68,86,42,37,26,9,,72,57,61,28,6,7,0.6,0.4
2025-10-23T2000,1785A,129.6115,44.5782,牡丹江市,文化广场,颗粒物(PM10),67,83,45,42,32,9,,73,64,69,32,8,7,0.8,0.4
2025-10-23T2000,1786A,129.5904,44.5963,牡丹江市,第一医院,细颗粒物(PM2.5),103,83,55,77,41,8,,71,59,64,31,5,5,0.9,0.6
2025-10-23T2000,1787A,129.6364,44.6075,牡丹江市,机车工厂,细颗粒物(PM2.5),53,50,62,37,35,30,,72,61,30,29,5,6,0.4,0.5
2025-10-23T2000,1788A,129.6386,44.5462,牡丹江市,第一中学,,49,49,42,31,21,30,,73,59,34,27,3,4,0.4,0.3
2025-10-23T2000,2531A,105.0703,29.61,内江市,市监测站,,32,30,25,22,16,33,,43,43,14,12,6,4,0.5,0.4
2025-10-23T2000,2532A,105.0717,29.5947,内江市,东兴区政府,,30,30,18,12,11,43,,47,47,16,13,10,10,0.3,0.3
2025-10-23T2000,2533A,105.0653,29.5817,内江市,内江二中,,29,29,20,18,16,45,,46,46,14,12,3,1,0.6,0.6
2025-10-23T2000,2534A,105.0406,29.5822,内江市,内江日报社,,25,24,18,17,14,48,,50,50,14,14,6,4,0.5,0.5
2025-10-23T2000,2628A,92.0657,31.4846,那曲市,那曲监测站,,34,34,47,16,25,89,,111,110,23,21,10,9,0.6,0.6
2025-10-23T2000,4243A,92.0515,31.4787,那曲市,那曲市委宣传部,,30,22,25,7,14,93,,112,111,14,17,4,5,0.3,0.4
2025-10-23T2000,1290A,115.8931,28.6843,南昌市,省外办,,39,37,35,27,23,93,,104,104,18,16,6,6,0.7,0.7
2025-10-23T2000,1291A,115.8886,28.7003,南昌市,省林业公司,,36,36,30,24,21,98,,112,112,16,17,4,4,0.6,0.6
2025-10-23T2000,1292A,115.8126,28.7442,南昌市,林科所,,31,31,30,17,16,98,,108,108,15,14,7,7,0.4,0.4
2025-10-23T2000,1294A,115.8518,28.687,南昌市,建工学校,颗粒物(PM10),53,55,41,26,21,94,,106,106,18,15,11,11,0.3,0.3
2025-10-23T2000,1295A,115.8921,28.6424,南昌市,象湖,,47,47,40,19,21,97,,110,110,16,15,8,9,0.5,0.5
2025-10-23T2000,1296A,115.7423,28.7996,南昌市,武术学校,,,,,,,,,,,,,,,,
2025-10-23T2000,3046A,115.9084,28.6062,南昌市,机电学校,,50,50,44,24,22,104,,117,117,15,14,8,8,0.4,0.4
2025-10-23T2000,3690A,115.9721,28.7031,南昌市,外国语学校,细颗粒物(PM2.5),52,41,43,36,28,98,,113,113,22,20,8,8,0.4,0.4
2025-10-23T2000,4192A,115.9316,28.68677,南昌市,南京东路235号,颗粒物(PM10),53,55,42,27,21,98,,112,112,20,19,6,6,0.5,0.5
2025-10-23T2000,1905A,106.056,30.8064,南充市,西山风景区,,,,,,,,,,,,,,,,
2025-10-23T2000,1906A,106.0789,30.8023,南充市,南充市委,,29,29,24,20,16,18,,33,32,20,16,4,4,0.4,0.4
2025-10-23T2000,1907A,106.1031,30.8217,南充市,南充炼油厂,,34,34,28,17,17,23,,34,34,8,8,6,6,0.4,0.4
2025-10-23T2000,4227A,106.1083,30.7884,南充市,梨树横街98号,,26,26,22,15,11,23,,40,39,13,10,4,4,0.4,0.4
2025-10-23T2000,4304A,106.1172,30.843,南充市,清泉寺北路188号,,23,23,17,13,13,26,,38,37,8,8,6,6,0.4,0.4
2025-10-23T2000,4305A,106.067,30.7616,南充市,同庆路1号,,21,21,18,12,12,18,,26,26,18,16,6,6,0.4,0.4
2025-10-23T2000,1151A,118.8086,32.1065,南京市,迈皋桥,,23,23,20,12,9,49,,87,83,25,12,4,4,0.5,0.5
2025-10-23T2000,1152A,118.7538,32.0551,南京市,草场门,,36,36,24,19,11,72,,86,86,28,23,2,3,0.3,0.3
2025-10-23T2000,1153A,118.7794,32.0745,南京市,山西路,,36,36,28,9,7,77,,97,96,21,13,4,4,0.5,0.5
2025-10-23T2000,1154A,118.7752,32.0023,南京市,中华门,,29,29,24,9,9,80,,97,96,25,20,3,4,0.4,0.4
2025-10-23T2000,1155A,118.8109,32.0309,南京市,瑞金路,,,,22,,9,84,,95,95,,7,6,6,0.6,0.6
2025-10-23T2000,1156A,118.7997,32.0754,南京市,玄武湖,,28,28,24,7,4,64,,89,87,16,15,4,4,0.5,0.5
2025-10-23T2000,1157A,118.6414,32.0931,南京市,浦口,,34,34,29,12,12,78,,90,89,21,21,8,8,0.2,0.6
2025-10-23T2000,1158A,118.7356,31.9996,南京市,奥体中心,,30,30,26,9,10,91,,102,102,24,19,4,4,0.3,0.3
2025-10-23T2000,1159A,118.9125,32.1028,南京市,仙林大学城,,34,34,29,9,6,64,,94,89,34,21,7,7,0.4,0.4
2025-10-23T2000,3422A,118.8436,31.9198,南京市,江宁彩虹桥,,26,24,25,14,8,81,,93,92,20,21,5,5,0.4,0.4
2025-10-23T2000,3427A,118.8554,32.3578,南京市,六合雄州,,,,29,,12,69,,102,94,13,19,5,5,0.3,0.2
2025-10-23T2000,4249A,118.8708,31.3402,南京市,汶溪路181号,,29,25,22,20,13,76,,99,97,32,25,4,4,0.5,0.4
2025-10-23T2000,4312A,119.019,31.6512,南京市,中山西路1号,,31,31,23,18,12,65,,84,82,20,15,4,4,0.4,0.4
2025-10-23T2000,1401A,108.3103,22.7881,南宁市,二十一中,,26,21,16,18,11,46,,52,52,19,9,6,4,0.5,0.4
2025-10-23T2000,1402A,108.3141,22.8528,南宁市,北湖,,33,33,18,15,10,42,,58,56,26,13,20,7,0.5,0.4
2025-10-23T2000,1403A,108.3206,22.8225,南宁市,市监测站,,29,29,20,15,12,41,,50,50,25,14,10,6,0.4,0.5
2025-10-23T2000,1404A,108.3829,22.8037,南宁市,大自然花园,,24,24,17,16,12,52,,58,58,15,8,5,5,0.4,0.3
2025-10-23T2000,1405A,108.4394,22.7904,南宁市,仙葫,,,,,,,,,,,,,,,,
2025-10-23T2000,1406A,108.2397,22.8467,南宁市,区农职院,,34,34,23,19,13,28,,53,50,23,13,3,5,0.7,0.7
2025-10-23T2000,1407A,108.3275,22.735,南宁市,英华嘉园,,24,24,13,16,8,55,,58,58,14,8,2,2,0.5,0.4
2025-10-23T2000,3401A,108.4834,22.7618,南宁市,红星社区,,27,27,18,10,11,59,,65,65,11,7,7,4,0.3,0.2
2025-10-23T2000,4221A,108.2177,22.7774,南宁市,乐贤路16号,,45,45,21,18,12,32,,53,50,24,11,18,10,0.4,0.4
2025-10-23T2000,2331A,118.0966,26.6761,南平市,茫荡山,,,26,18,,,103,,99,99,,,1,1,,
2025-10-23T2000,2332A,118.1681,26.6369,南平市,南平市监测站,,,,20,58,21,34,,65,58,,12,3,3,,0.5
2025-10-23T2000,2333A,118.1825,26.6489,南平市,南平铝业有限公司,,33,33,24,23,13,33,,71,63,24,12,2,3,0.7,0.6
2025-10-23T2000,2334A,118.1756,26.6272,南平市,南平七中,,28,26,24,19,13,37,,68,65,16,10,4,4,0.6,0.5
2025-10-23T2000,1168A,120.9098,31.9663,南通市,狼山街道,,36,36,24,13,9,88,,93,93,13,11,4,4,0.5,0.4
2025-10-23T2000,1169A,120.86,32.0005,南通市,虹桥,,28,28,22,16,9,84,,89,89,14,12,4,4,0.6,0.5
2025-10-23T2000,1170A,120.87,32.02,南通市,城中,,44,44,29,14,8,78,,87,86,20,17,4,5,0.6,0.5
2025-10-23T2000,1171A,120.94,31.93,南通市,星湖花园,,38,38,25,15,10,82,,88,87,15,12,4,4,0.6,0.5
2025-10-23T2000,1172A,120.81,32.0417,南通市,紫琅学院,,41,41,29,13,9,70,,87,85,20,15,9,5,0.6,0.6
2025-10-23T2000,3291A,121.067,32.062,南通市,通州监测站,,27,19,15,14,10,85,,96,96,13,13,1,1,0.3,0.2
2025-10-23T2000,3432A,120.9348,31.9883,南通市,环境教育馆,,,39,28,11,8,90,,95,94,13,12,,4,0.4,0.3
2025-10-23T2000,2404A,112.5224,33.0122,南阳市,瓦房庄,细颗粒物(PM2.5),83,105,84,61,50,102,,112,112,18,17,11,11,0.6,0.6
2025-10-23T2000,2405A,112.5003,32.9735,南阳市,汉画馆,细颗粒物(PM2.5),84,87,68,62,48,102,,110,110,22,20,10,10,0.6,0.5
2025-10-23T2000,2406A,112.5573,33.027,南阳市,气象站,细颗粒物(PM2.5),89,113,84,66,49,94,,112,112,26,21,11,11,0.7,0.6
2025-10-23T2000,2407A,112.5481,32.9689,南阳市,理工学院,颗粒物(PM10),80,110,83,38,29,105,,112,112,19,17,14,14,0.6,0.6
2025-10-23T2000,4008A,112.5234,32.9922,南阳市,卧龙区政府,颗粒物(PM10),76,101,78,34,28,100,,108,108,21,19,11,11,0.7,0.7
2025-10-23T2000,1234A,121.8358,29.911,宁波市,区环保大楼,,28,28,32,11,26,78,,91,90,24,16,5,5,0.3,0.4
2025-10-23T2000,1235A,121.56,29.82,宁波市,万里学院,,,30,30,13,16,88,,101,101,,16,6,7,0.4,0.4
2025-10-23T2000,1236A,121.713,29.9572,宁波市,龙赛医院,,26,26,33,8,8,82,,90,90,15,15,5,6,0.4,0.4
2025-10-23T2000,1239A,121.633,29.7733,宁波市,钱湖水厂,,26,26,30,10,13,83,,97,97,16,14,7,6,0.4,0.4
2025-10-23T2000,1240A,121.5856,29.8635,宁波市,太古小学,,30,30,33,9,14,88,,99,99,14,14,3,3,0.4,0.4
2025-10-23T2000,1241A,121.524,29.8674,宁波市,市环境监测中心,,28,28,32,11,9,78,,91,90,22,21,6,6,0.4,0.5
2025-10-23T2000,2871A,121.6147,29.9017,宁波市,万里国际学校,,28,28,27,7,12,89,,101,101,14,14,5,5,0.3,0.3
2025-10-23T2000,3710A,121.5594,29.8975,宁波市,白沙活动中心,,28,25,26,10,10,87,,99,99,10,8,4,5,0.4,0.5
2025-10-23T2000,2339A,119.5001,26.6946,宁德市,金涵水库,,22,22,21,11,10,56,,58,58,2,3,2,2,0.3,0.3
2025-10-23T2000,2341A,119.5388,26.6612,宁德市,宁德市监测站,,25,,19,17,11,75,,86,86,14,14,4,5,0.4,0.5
2025-10-23T2000,3209A,119.5231,26.6562,宁德市,宁德一中,,26,25,20,17,14,81,,87,87,8,9,5,5,0.4,0.4
2025-10-23T2000,2618A,98.8601,25.8567,怒江傈僳族自治州,州监测站,,34,34,29,21,18,56,,67,67,10,10,7,6,0.5,0.4
2025-10-23T2000,2619A,98.8546,25.8417,怒江傈僳族自治州,泸水一中,,25,24,23,17,16,27,,49,47,22,16,5,5,0.5,0.6
2025-10-23T2000,1888A,101.6891,26.571,攀枝花市,弄弄坪,,,26,43,16,23,68,,69,69,10,21,4,16,,0.9
2025-10-23T2000,1889A,101.5769,26.5928,攀枝花市,河门口,,28,27,33,19,22,70,,75,75,10,15,10,20,0.8,1.2
2025-10-23T2000,1890A,101.7169,26.585,攀枝花市,炳草岗,,25,24,42,17,27,62,,71,71,18,25,5,19,0.8,1
2025-10-23T2000,1891A,101.7369,26.5008,攀枝花市,仁和,,24,24,27,16,17,64,,69,69,10,11,6,6,0.7,0.8
2025-10-23T2000,2835A,101.7227,26.567,攀枝花市,四十中小,,28,28,38,19,22,72,,71,71,8,20,7,27,0.7,0.9
2025-10-23T2000,1604A,122.0303,41.1489,盘锦市,开发区,,39,39,38,21,25,49,,69,66,26,25,2,4,0.5,0.6
2025-10-23T2000,1605A,122.0485,41.0883,盘锦市,兴隆台,,31,31,32,19,19,56,,68,66,26,29,6,7,0.4,0.5
2025-10-23T2000,1606A,121.8297,41.1028,盘锦市,新生街道,,47,47,28,19,16,35,,68,61,41,34,8,8,0.2,0.2
2025-10-23T2000,1832A,113.3257,33.742,平顶山市,新华旅馆,颗粒物(PM10),83,115,98,39,44,100,,105,105,24,30,7,8,0.6,0.5
2025-10-23T2000,1833A,113.2919,33.737,平顶山市,规划设计院,,,122,98,74,61,,,108,108,34,34,6,7,0.5,0.4
2025-10-23T2000,1834A,113.182,33.774,平顶山市,平顶山工学院,细颗粒物(PM2.5),94,108,90,70,58,91,,103,103,28,28,7,9,0.5,0.5
2025-10-23T2000,3204A,113.3025,33.73,平顶山市,规划局,细颗粒物(PM2.5),100,124,102,75,54,107,,112,112,25,29,8,10,0.6,0.6
2025-10-23T2000,3594A,112.8867,33.9116,平顶山市,石龙区,颗粒物(PM10),90,129,102,66,56,26,,106,97,64,34,7,8,0.7,0.6
2025-10-23T2000,2656A,106.6692,35.5461,平凉市,聚贤嘉苑,,38,27,38,26,26,8,,21,17,29,20,8,10,0.7,0.6
2025-10-23T2000,2657A,106.7021,35.5307,平凉市,博物馆,,,40,47,24,26,,,22,20,26,20,8,9,0.6,0.9
2025-10-23T2000,2347A,114.0997,27.5002,萍乡市,武功山,,,,,,,,,,,,,,,,
2025-10-23T2000,2348A,113.8385,27.6434,萍乡市,中医院,颗粒物(PM10),57,64,37,25,16,43,,101,93,48,21,4,4,1.0,0.5
2025-10-23T2000,2349A,113.8493,27.6253,萍乡市,市政府车库,,45,45,39,18,21,63,,102,98,34,19,13,13,0.8,0.5
2025-10-23T2000,2350A,113.8676,27.6435,萍乡市,市环保局,,35,35,33,24,19,83,,104,101,22,11,4,5,0.4,0.3
2025-10-23T2000,2351A,113.866,27.6198,萍乡市,安源区政府,细颗粒物(PM2.5),54,49,33,38,21,64,,100,96,25,16,9,9,0.6,0.5
2025-10-23T2000,2319A,119.0141,25.4325,莆田市,荔城区仓后路,,,51,27,,7,104,,89,89,11,8,6,6,0.6,0.6
2025-10-23T2000,2320A,119.0015,25.4553,莆田市,莆田市监测站,,34,26,16,15,6,107,,95,95,9,6,5,4,0.6,0.6
2025-10-23T2000,2321A,119.1119,25.4561,莆田市,涵江区六中,,37,33,19,13,7,117,,103,103,8,8,5,5,0.5,0.5
2025-10-23T2000,2322A,119.1013,25.3215,莆田市,秀屿区政府,,35,30,23,18,10,109,,98,98,8,10,4,5,0.5,0.5
2025-10-23T2000,2323A,118.981,25.4792,莆田市,东圳水库,,35,19,14,14,8,112,,104,104,9,6,6,6,0.1,0.3
2025-10-23T2000,2392A,115.0312,35.7636,濮阳市,环保局,细颗粒物(PM2.5),93,86,95,69,77,28,,35,35,56,57,11,12,0.6,0.7
2025-10-23T2000,2394A,115.0574,35.7609,濮阳市,油田运输公司,细颗粒物(PM2.5),85,113,122,63,81,30,,37,37,56,60,11,11,0.8,1
2025-10-23T2000,3021A,115,35.7668,濮阳市,濮水河管理处,"颗粒物(PM10),细颗粒物(PM2.5)",77,103,137,56,94,7,,26,25,35,42,8,9,0.6,0.8
2025-10-23T2000,4216A,115.0924,35.7686,濮阳市,任丘路479号,颗粒物(PM10),94,137,138,69,90,10,,33,32,71,59,9,10,0.9,0.9
2025-10-23T2000,2601A,100.98,22.7633,普洱市,市环保局,,42,42,30,15,19,47,,72,68,11,8,6,6,0.5,0.5
2025-10-23T2000,2602A,100.9817,22.8322,普洱市,普洱第二中学,,,,22,,11,,,58,58,8,6,5,4,0.3,0.4
2025-10-23T2000,2262A,131.0518,45.8751,七台河市,新一中,,,,,,,,,,,,,,,,
2025-10-23T2000,3345A,131.0577,45.7879,七台河市,中波台,颗粒物(PM10),72,93,63,47,38,13,,56,52,60,31,6,8,1.0,0.7
2025-10-23T2000,3637A,131.0176,45.7761,七台河市,人民广场,颗粒物(PM10),81,111,77,54,41,16,,73,60,54,28,6,8,0.8,0.6
2025-10-23T2000,3684A,130.8781,45.8222,七台河市,新建矿广场,颗粒物(PM10),96,141,83,47,36,5,,58,41,59,29,8,8,0.5,0.5
2025-10-23T2000,1779A,123.9305,47.3636,齐齐哈尔市,安居小区,颗粒物(PM10),61,72,41,31,17,41,,67,58,44,24,7,3,0.6,0.4
2025-10-23T2000,1780A,123.9488,47.3386,齐齐哈尔市,中心广场,颗粒物(PM10),61,72,37,36,17,46,,68,61,38,26,12,4,0.5,0.5
2025-10-23T2000,1781A,123.9483,47.3227,齐齐哈尔市,农牧车辆厂,颗粒物(PM10),56,61,44,26,15,53,,67,62,25,23,7,5,0.6,0.6
2025-10-23T2000,1783A,123.945,47.2988,齐齐哈尔市,市环境监测站,颗粒物(PM10),55,59,47,29,21,54,,66,61,24,26,7,7,0.5,0.5
2025-10-23T2000,3662A,123.6333,47.2075,齐齐哈尔市,富区青少年活动中心,颗粒物(PM10),69,88,50,48,24,48,,62,61,16,20,5,5,0.6,0.6
2025-10-23T2000,2591A,107.9783,26.5747,黔东南苗族侗族自治州,市环境监测站,,44,44,29,28,22,68,,76,74,10,6,4,4,0.4,0.4
2025-10-23T2000,2881A,107.8908,26.5311,黔东南苗族侗族自治州,凯里学院,,45,39,25,31,26,56,,70,67,17,9,3,3,0.5,0.5
2025-10-23T2000,2593A,107.5228,26.2403,黔南布依族苗族自治州,小围寨,,,34,19,27,13,64,,73,72,6,4,,3,0.7,0.6
2025-10-23T2000,3538A,107.5175,26.2978,黔南布依族苗族自治州,沙坝,,46,46,25,31,19,57,,69,67,8,5,5,4,0.5,0.4
2025-10-23T2000,2589A,104.9022,25.0925,黔西南布依族苗族自治州,场坝街,,47,47,35,32,27,58,,67,67,11,10,5,20,0.5,0.5
2025-10-23T2000,2590A,104.8811,25.0992,黔西南布依族苗族自治州,坪东大道,细颗粒物(PM2.5),53,,32,37,29,56,,68,68,11,10,4,10,0.6,0.6
2025-10-23T2000,2502A,108.6236,21.9667,钦州市,市环保站,,29,29,24,17,10,60,,62,62,9,8,3,3,0.4,0.6
2025-10-23T2000,2503A,108.6549,21.9481,钦州市,沙埠小学,,38,31,27,26,13,59,,65,65,14,8,4,3,0.8,0.5
2025-10-23T2000,2504A,108.5989,21.7431,钦州市,港区一小,,44,44,30,24,21,38,,50,48,32,23,8,8,0.4,0.5
2025-10-23T2000,3404A,108.5959,21.9633,钦州市,北职校,,30,30,19,19,13,59,,63,63,7,4,5,4,0.5,0.5
2025-10-23T2000,1043A,119.7493,40.0116,秦皇岛市,第一关,细颗粒物(PM2.5),52,40,32,36,26,26,,79,61,60,43,9,7,0.3,0.3
2025-10-23T2000,1044A,119.5897,39.9499,秦皇岛市,监测站,颗粒物(PM10),68,85,48,32,18,5,,70,54,73,39,7,7,0.8,0.4
2025-10-23T2000,1046A,119.5251,39.9041,秦皇岛市,建设大厦,颗粒物(PM10),73,96,44,41,18,6,,73,61,72,33,7,5,0.8,0.3
2025-10-23T2000,3132A,119.610547,39.943889,秦皇岛市,文明里,颗粒物(PM10),58,65,38,25,18,16,,72,61,61,30,10,9,0.6,0.3
2025-10-23T2000,4198A,119.5090,39.8253,秦皇岛市,北戴河轮滑馆,颗粒物(PM10),54,58,35,15,11,19,,69,61,41,26,2,4,0.5,0.3
2025-10-23T2000,1307A,120.6659,36.2403,青岛市,仰口,,,,,,,,,,,,,,,,
2025-10-23T2000,1310A,120.4134,36.0658,青岛市,市南区东部子站,,34,34,28,14,10,70,,80,80,17,13,7,7,0.3,0.3
2025-10-23T2000,1311A,120.3664,36.1032,青岛市,四方区子站,,41,41,29,14,17,60,,84,81,23,15,3,2,0.2,0.2
2025-10-23T2000,1312A,120.2994,36.054,青岛市,市南区西部子站,,39,39,36,10,12,72,,83,83,25,25,7,8,0.3,0.4
2025-10-23T2000,1313A,120.4581,36.0858,青岛市,崂山区子站,,29,29,24,9,6,76,,88,87,18,14,9,9,0.3,0.3
2025-10-23T2000,1315A,120.3999,36.3083,青岛市,城阳区子站,,44,44,38,20,17,78,,95,94,17,19,5,5,0.5,0.4
2025-10-23T2000,3362A,120.5014,36.4034,青岛市,即墨2号,,44,44,33,25,25,64,,85,82,29,23,5,5,0.3,0.3
2025-10-23T2000,3642A,120.3503,36.0736,青岛市,市北区南部,,33,33,35,14,12,60,,76,74,27,23,4,4,0.2,0.2
2025-10-23T2000,3643A,120.3948,36.1805,青岛市,李沧区北部,,48,48,33,22,19,60,,85,82,27,17,7,6,0.4,0.3
2025-10-23T2000,4290A,120.1969,35.9546,青岛市,珠江路669号,,36,36,38,15,15,67,,86,83,34,41,11,11,0.2,0.3
2025-10-23T2000,4291A,120.0424,35.8656,青岛市,黄岛区人民政府广场,颗粒物(PM10),56,61,31,29,9,51,,87,81,36,19,8,7,0.7,0.5
2025-10-23T2000,1702A,113.0426,23.691,清远市,环保大楼,,,,,,,,,,,,,,,,
2025-10-23T2000,1703A,113.0208,23.7106,清远市,凤城街办,,23,23,15,12,9,65,,69,69,13,12,7,6,0.5,0.5
2025-10-23T2000,3025A,113.0477,23.6344,清远市,技师学院,,31,31,20,14,11,66,,68,68,16,16,5,4,0.5,0.5
2025-10-23T2000,3318A,112.9903,23.7403,清远市,清新太和,,29,28,11,20,8,71,,77,77,14,12,10,6,0.6,0.6
2025-10-23T2000,3455A,113.076,23.7198,清远市,清城东城,,31,31,17,13,9,72,,75,75,10,12,6,5,0.5,0.5
2025-10-23T2000,2661A,107.6325,35.7357,庆阳市,庆阳五中,颗粒物(PM10),60,70,38,29,30,29,,44,38,15,11,1,1,0.6,0.4
2025-10-23T2000,2662A,107.6364,35.7067,庆阳市,市环保局,,29,24,33,20,29,44,,50,44,13,12,3,3,0.4,0.5
2025-10-23T2000,1916A,103.7897,25.5035,曲靖市,环境监测站,,32,32,21,14,10,49,,62,62,15,13,4,4,0.4,0.5
2025-10-23T2000,1917A,103.8,25.5364,曲靖市,烟厂办公区,,,,20,,12,44,,60,60,,13,,4,0.5,0.6
2025-10-23T2000,3376A,103.7947,25.462,曲靖市,南苑二区,,18,15,18,12,12,51,,68,66,13,11,4,4,0.4,0.5
2025-10-23T2000,3377A,103.7444,25.5261,曲靖市,曲靖师范学院,,27,27,20,13,13,47,,65,65,16,13,2,4,0.4,0.5
2025-10-23T2000,1264A,118.8692,28.9398,衢州市,环保大楼,,42,42,35,20,17,80,,96,94,20,16,5,5,0.4,0.4
2025-10-23T2000,1265A,118.8709,28.9666,衢州市,实验学校,颗粒物(PM10),51,51,34,25,17,57,,99,91,32,15,4,4,0.3,0.3
2025-10-23T2000,1266A,118.8621,28.9808,衢州市,衢州学院,,39,39,32,21,15,61,,98,92,28,14,6,6,0.3,0.3
2025-10-23T2000,1611A,118.5819,24.9117,泉州市,涂山街,,33,33,18,17,10,96,,92,92,10,5,3,3,0.4,0.4
2025-10-23T2000,1612A,118.5972,24.8978,泉州市,津头埔,,36,36,18,18,10,96,,87,87,15,9,3,2,0.4,0.4
2025-10-23T2000,1613A,118.6663,24.9424,泉州市,万安,,40,40,22,17,10,101,,89,89,9,6,4,3,0.4,0.3
2025-10-23T2000,1614A,118.6117,24.9604,泉州市,清源山,,31,28,14,9,7,98,,91,91,9,5,1,1,0.4,0.3
2025-10-23T2000,3529A,118.6333,24.9264,泉州市,城华南路,,32,28,16,14,9,100,,90,90,13,10,3,3,0.2,0.2
2025-10-23T2000,2626A,88.8876,29.2718,日喀则市,日喀则监测站,,32,29,18,3,4,100,,113,112,8,15,15,13,0.2,0.3
2025-10-23T2000,3726A,88.8781,29.2426,日喀则市,林业技术推广中心,,35,19,16,3,4,111,,114,114,2,3,6,5,0.4,0.3
2025-10-23T2000,1659A,119.471,35.4209,日照市,监测站,,41,41,30,23,12,70,,93,90,27,21,7,8,0.6,0.5
2025-10-23T2000,1660A,119.523,35.4216,日照市,市政府广场,,34,34,26,12,12,84,,96,96,13,14,8,7,0.7,0.6
2025-10-23T2000,1661A,119.5587,35.4044,日照市,港务局,,39,39,28,24,18,83,,95,95,18,17,10,9,0.6,0.5
2025-10-23T2000,3507A,119.5328,35.4625,日照市,职业技术学院,,41,41,28,14,9,81,,96,95,16,13,7,7,0.6,0.5
2025-10-23T2000,3604A,119.3266,35.1044,日照市,岚山环保分局,颗粒物(PM10),53,56,44,27,28,56,,91,87,44,28,52,33,3.8,2.4
2025-10-23T2000,1835A,111.1922,34.7752,三门峡市,市政府,细颗粒物(PM2.5),94,,60,70,59,83,,98,98,31,22,16,13,0.5,0.5
2025-10-23T2000,1836A,111.1587,34.7942,三门峡市,开发区,细颗粒物(PM2.5),94,102,89,70,63,80,,95,95,39,28,14,11,0.6,0.5
2025-10-23T2000,1838A,111.143,34.7955,三门峡市,风景区,,,,61,,51,86,,101,101,25,18,16,13,0.7,0.6
2025-10-23T2000,3039A,111.1911,34.7829,三门峡市,三门峡市第一小学,细颗粒物(PM2.5),99,76,64,74,62,76,,90,90,29,19,14,14,0.5,0.5
2025-10-23T2000,3598A,111.1,34.7167,三门峡市,富达温泉假日酒店,细颗粒物(PM2.5),85,85,73,63,60,94,,96,96,26,29,10,10,0.4,0.7
2025-10-23T2000,2324A,117.6211,26.2625,三明市,三钢,,33,26,23,23,14,55,,71,70,19,12,2,2,0.5,0.4
2025-10-23T2000,2325A,117.635,26.2714,三明市,三明二中,颗粒物(PM10),65,79,29,39,16,53,,67,66,14,7,2,2,0.5,0.4
2025-10-23T2000,2326A,117.6028,26.2378,三明市,三元区政府,,24,24,23,16,13,72,,75,75,11,11,3,3,0.6,0.5
2025-10-23T2000,2327A,117.7275,26.3108,三明市,洋溪,,23,22,17,16,14,45,,70,65,9,9,7,7,1.0,1
2025-10-23T2000,1876A,109.5078,18.2489,三亚市,河东子站,,17,,5,3,2,52,,60,60,8,7,3,3,0.5,0.5
2025-10-23T2000,1877A,109.4964,18.2681,三亚市,河西子站,,16,6,6,3,1,50,,62,62,9,6,6,6,0.6,0.6
2025-10-23T2000,3540A,109.7348,18.3443,三亚市,君悦子站,,19,11,11,7,3,60,,56,56,6,6,4,4,0.5,0.6
2025-10-23T2000,2624A,91.7608,29.2313,山南市,山南监测站,,30,22,12,8,4,96,,113,112,4,5,5,4,0.3,0.3
2025-10-23T2000,2625A,91.7706,29.2436,山南市,山南人民医院,,31,22,17,7,6,99,,114,114,3,5,4,4,0.3,0.3
2025-10-23T2000,1674A,116.6794,23.3667,汕头市,金平子站,,44,44,30,21,13,42,,50,49,25,20,8,6,0.7,0.6
2025-10-23T2000,1675A,116.7244,23.3633,汕头市,龙湖子站,,36,36,25,20,12,42,,52,51,20,16,9,9,0.6,0.4
2025-10-23T2000,1676A,116.7258,23.2775,汕头市,濠江子站,,45,45,27,24,15,40,,52,51,20,15,8,8,0.7,0.6
2025-10-23T2000,1677A,116.7519,23.4714,汕头市,澄海子站,,32,32,25,16,10,44,,49,49,14,13,4,5,0.6,0.6
2025-10-23T2000,1678A,116.6092,23.2539,汕头市,潮阳子站,,31,31,22,14,9,52,,58,58,11,11,8,7,0.7,0.6
2025-10-23T2000,3444A,116.454,23.2684,汕头市,潮南峡山,颗粒物(PM10),51,51,25,31,14,41,,58,56,17,11,8,8,0.7,0.7
2025-10-23T2000,3624A,116.4069,23.2533,汕头市,潮南子站,,,50,29,27,11,33,,51,49,28,14,5,5,,0.6
