timepoint,stationcode,longitude,latitude,area,positionname,primarypollutant,aqi,pm10,pm10_24h,pm2_5,pm2_5_24h,o3,o3_24h,o3_8h,o3_8h_24h,no2,no2_24h,so2,so2_24h,co,co_24h
2025-10-23T1400,2566A,102.1879,31.914,阿坝藏族羌族自治州,州农科所,,,,,,,,,,,,,,,,
2025-10-23T1400,2568A,102.2502,31.8896,阿坝藏族羌族自治州,马师校,,23,,17,8,14,72,,31,31,6,13,5,5,0.6,0.6
2025-10-23T1400,3994A,102.2165,31.9024,阿坝藏族羌族自治州,马尔康中学西区,,25,,13,7,12,78,,35,35,5,14,5,5,0.6,0.6
2025-10-23T1400,2695A,80.292,41.1694,阿克苏地区,电视台,颗粒物(PM10),122,194,201,40,54,44,,31,27,32,37,6,6,0.9,1.1
2025-10-23T1400,2696A,80.2613,41.1551,阿克苏地区,艺术中心,颗粒物(PM10),114,178,171,36,53,28,,26,25,41,45,4,4,0.6,0.8
2025-10-23T1400,2204A,105.6467,38.8363,阿拉善盟,西城区西花园,,,,,,,,,,,,,,,,
2025-10-23T1400,2205A,105.6985,38.8411,阿拉善盟,蒙二幼,,,83,56,37,35,85,,71,70,,14,10,9,0.6,0.8
2025-10-23T1400,2206A,105.724,38.8516,阿拉善盟,环保局新楼,细颗粒物(PM2.5),62,53,49,44,40,86,,79,76,13,13,9,9,0.8,0.8
2025-10-23T1400,2708A,88.1264,47.8517,阿勒泰地区,市站,,,,38,,6,80,,98,92,14,14,,3,0.1,0.5
2025-10-23T1400,2630A,80.1161,32.5,阿里地区,阿里监测站,,35,6,3,3,3,109,,76,76,1,14,4,6,0.4,0.5
2025-10-23T1400,3192A,80.0903,32.5028,阿里地区,阿里藏医院,,36,6,10,3,3,115,,98,98,1,3,8,8,0.2,0.2
2025-10-23T1400,2642A,109.0318,32.6537,安康市,香溪洞,,,,,,,,,,,,,,,,
2025-10-23T1400,2644A,109.0072,32.6975,安康市,汉滨区检察院,,36,30,34,25,26,64,,48,48,7,10,5,5,0.4,0.4
2025-10-23T1400,4054A,109.0325,32.6913,安康市,市邮政管理局,,40,33,35,28,24,58,,41,41,9,13,6,6,0.5,0.5
2025-10-23T1400,2291A,117.0809,30.5177,安庆市,环科院,,36,21,30,11,16,115,,83,83,4,9,8,9,0.4,0.4
2025-10-23T1400,2292A,117.0331,30.5119,安庆市,马山宾馆,,36,25,27,3,13,115,,85,85,7,12,7,8,0.3,0.3
2025-10-23T1400,2294A,116.9896,30.6145,安庆市,安庆大学,,35,20,29,11,16,110,,81,81,5,8,6,6,0.1,0.2
2025-10-23T1400,3173A,117.0598,30.5351,安庆市,市人大,,36,26,28,11,14,115,,86,86,8,13,8,8,0.4,0.3
2025-10-23T1400,3122A,105.9606,26.2611,安顺市,伍家关,,42,42,36,19,19,61,,48,48,5,5,15,7,0.4,0.4
2025-10-23T1400,3123A,105.9408,26.2431,安顺市,凤凰山,细颗粒物(PM2.5),58,,28,41,25,53,,39,39,6,5,18,8,0.4,0.4
2025-10-23T1400,3124A,105.9439,26.2564,安顺市,金钟山,,49,,24,34,23,58,,42,42,5,5,18,11,0.5,0.5
2025-10-23T1400,3125A,105.8983,26.2481,安顺市,娄家坡,细颗粒物(PM2.5),54,38,30,38,24,50,,36,35,6,7,6,16,0.5,0.5
2025-10-23T1400,1818A,114.4839,36.0621,安阳市,棉研所,,,,,,,,,,,,,,,,
2025-10-23T1400,1819A,114.3551,36.1017,安阳市,红庙街,细颗粒物(PM2.5),79,65,77,58,54,51,,23,23,32,49,8,5,0.7,0.7
2025-10-23T1400,1820A,114.361,36.0681,安阳市,银杏小区,细颗粒物(PM2.5),88,,76,65,55,52,,26,26,32,46,10,7,0.8,0.7
2025-10-23T1400,3141A,114.3922,36.0878,安阳市,信访局,细颗粒物(PM2.5),85,66,70,63,55,54,,25,25,30,43,11,8,0.6,0.4
2025-10-23T1400,3669A,114.4705,36.0637,安阳市,左辅环卫站,颗粒物(PM10),75,99,89,54,52,58,,28,28,30,44,9,8,0.7,0.8
2025-10-23T1400,3703A,114.2917,36.0949,安阳市,安钢职工学校,细颗粒物(PM2.5),89,,81,66,57,48,,23,23,25,43,5,5,0.7,0.8
2025-10-23T1400,1748A,123.044,41.1196,鞍山市,深沟寺,,49,49,74,27,45,67,,38,38,27,44,8,14,0.6,0.9
2025-10-23T1400,1749A,123.011,41.0931,鞍山市,太阳城,,48,48,56,27,36,66,,38,38,25,38,12,18,0.4,0.7
2025-10-23T1400,1750A,123.0485,41.1442,鞍山市,太平,,,62,99,28,44,66,,44,44,27,44,10,13,,1
2025-10-23T1400,1751A,122.9642,41.0971,鞍山市,铁西三道街,颗粒物(PM10),55,60,83,31,44,61,,35,35,34,42,23,19,1.2,1.3
2025-10-23T1400,1753A,123.022,41.0821,鞍山市,明达新区,,46,46,60,29,36,65,,39,39,18,28,12,20,0.6,0.9
2025-10-23T1400,1754A,123.1289,41.0228,鞍山市,千山,,,,22,,18,,,51,,,22,,5,,0.2
2025-10-23T1400,4201A,122.9446,41.0826,鞍山市,兴盛南路290号,颗粒物(PM10),55,59,107,31,58,67,,33,33,35,57,19,23,0.9,1.6
2025-10-23T1400,2195A,107.4212,40.761,巴彦淖尔市,附二中,,41,41,51,24,26,68,,52,52,8,10,15,8,0.5,0.4
2025-10-23T1400,2196A,107.37,40.7372,巴彦淖尔市,市环保大楼,,44,44,47,26,24,72,,55,55,12,13,9,9,0.6,0.4
2025-10-23T1400,1956A,86.1472,41.7538,巴音郭楞蒙古自治州,孔雀公园,颗粒物(PM10),88,125,150,39,41,80,,31,31,25,54,11,9,0.6,0.8
2025-10-23T1400,1957A,86.1972,41.7166,巴音郭楞蒙古自治州,棉纺厂,颗粒物(PM10),106,162,182,59,43,84,,61,61,14,28,6,6,0.6,0.8
2025-10-23T1400,1958A,86.2357,41.7173,巴音郭楞蒙古自治州,经济开发区,颗粒物(PM10),88,125,150,28,32,79,,61,61,9,24,7,6,0.7,0.8
2025-10-23T1400,2914A,106.7677,31.8794,巴中市,苏山坪,,,,,,,,,,,,,,,,
2025-10-23T1400,3181A,106.7768,31.8526,巴中市,市五中,,15,10,14,10,9,41,,23,23,6,12,7,7,0.6,0.6
2025-10-23T1400,3183A,106.7418,31.8654,巴中市,圣泉水务公司,,11,11,10,7,7,31,,20,20,7,11,8,8,0.6,0.6
2025-10-23T1400,3616A,106.7616,31.8344,巴中市,市中心医院,,16,12,14,11,8,37,,22,22,25,28,10,10,0.6,0.7
2025-10-23T1400,2235A,122.7911,45.6077,白城市,洮北区环保局,,24,24,63,12,51,70,,39,39,12,37,3,5,0.3,0.7
2025-10-23T1400,2236A,122.8738,45.5725,白城市,市环保局,,29,29,54,14,35,75,,41,41,10,41,4,6,0.3,0.5
2025-10-23T1400,2231A,126.4219,41.9171,白山市,喜丰,,44,44,106,22,28,100,,53,53,13,33,8,16,0.4,0.6
2025-10-23T1400,2232A,126.4077,41.9419,白山市,环保局,细颗粒物(PM2.5),53,39,43,37,30,99,,61,61,9,19,8,9,0.5,0.6
2025-10-23T1400,2647A,104.1724,36.5446,白银市,第三小学,,40,30,33,28,20,68,,47,47,28,22,67,38,0.8,0.7
2025-10-23T1400,2648A,104.1465,36.5482,白银市,动力公司,,30,24,28,19,16,93,,37,,19,22,34,20,0.6,0.6
2025-10-23T1400,2512A,106.6103,23.9011,百色市,市监测站,,23,23,20,12,9,64,,45,45,10,13,14,11,0.4,0.4
2025-10-23T1400,2513A,106.6538,23.8859,百色市,市中心血站,,,25,17,10,8,62,,46,44,10,15,,8,0.5,0.5
2025-10-23T1400,3406A,106.6085,23.8798,百色市,祈福高中,,31,31,26,11,10,61,,43,43,11,17,13,8,0.4,0.4
2025-10-23T1400,2270A,117.396,32.939,蚌埠市,工人疗养院,,41,41,48,13,21,108,,70,70,10,17,5,6,0.3,0.4
2025-10-23T1400,2271A,117.3605,32.9427,蚌埠市,百货大楼,,34,31,40,15,20,107,,72,72,10,19,8,8,0.2,0.3
2025-10-23T1400,2273A,117.4185,32.8911,蚌埠市,蚌埠学院,,34,22,40,14,24,108,,75,75,8,23,6,6,0.2,0.3
2025-10-23T1400,2274A,117.3533,32.9673,蚌埠市,淮上区政府,,41,41,44,14,25,115,,75,75,10,23,6,6,0.2,0.3
2025-10-23T1400,2275A,117.3145,32.8977,蚌埠市,高新区,,34,31,40,15,24,106,,67,67,13,27,8,9,0.3,0.3
2025-10-23T1400,3715A,117.3092,32.9314,蚌埠市,蚌埠田家炳中学,,38,38,52,17,26,110,,69,69,8,22,4,4,0.2,0.3
2025-10-23T1400,1585A,109.8756,40.6532,包头市,市环境监测站,细颗粒物(PM2.5),94,96,40,70,18,64,,36,35,35,25,38,11,2.0,0.9
2025-10-23T1400,1587A,109.9991,40.5842,包头市,包头八中,,,,35,,30,61,,29,29,18,34,18,9,0.8,0.9
2025-10-23T1400,1588A,109.8538,40.6821,包头市,青山宾馆,细颗粒物(PM2.5),134,118,29,102,28,58,,42,37,46,26,40,13,2.7,1.1
2025-10-23T1400,1589A,109.8642,40.6288,包头市,惠龙物流,细颗粒物(PM2.5),85,84,28,63,20,69,,38,36,25,24,37,12,1.6,0.9
2025-10-23T1400,1590A,110.0377,40.5546,包头市,东河鸿龙湾,细颗粒物(PM2.5),63,50,30,45,23,57,,30,30,25,35,31,11,0.9,1
2025-10-23T1400,3283A,109.9154,40.5685,包头市,滨河大厦,细颗粒物(PM2.5),52,38,20,36,18,73,,40,40,15,21,24,10,0.7,0.7
2025-10-23T1400,3419A,109.9447,40.6261,包头市,包头市委党校,"颗粒物(PM10),细颗粒物(PM2.5)",52,53,37,36,19,74,,34,34,19,30,18,11,0.9,0.8
2025-10-23T1400,3683A,109.8331,40.6576,包头市,昆区政府,细颗粒物(PM2.5),123,130,35,93,30,58,,40,34,34,24,45,14,2.3,1.1
2025-10-23T1400,1930A,107.185,34.3063,宝鸡市,庙沟村,,,,,,,,,,,,,,,,
2025-10-23T1400,1931A,107.0708,34.3017,宝鸡市,竹园沟,,38,36,30,26,28,47,,36,36,17,14,7,7,0.5,0.5
2025-10-23T1400,1932A,107.1906,34.3672,宝鸡市,三陆医院,细颗粒物(PM2.5),77,,46,56,52,36,,37,37,31,26,5,5,0.6,0.6
2025-10-23T1400,1933A,107.1431,34.3547,宝鸡市,监测站,细颗粒物(PM2.5),59,58,46,42,40,41,,34,34,22,23,4,4,0.6,0.5
2025-10-23T1400,1934A,107.1186,34.3739,宝鸡市,技工学校,细颗粒物(PM2.5),68,,43,49,49,38,,32,32,24,26,4,4,0.7,0.6
2025-10-23T1400,1936A,107.2058,34.3497,宝鸡市,文理学院,细颗粒物(PM2.5),59,54,39,42,39,45,,37,37,25,26,5,5,0.5,0.5
2025-10-23T1400,1937A,107.2386,34.3622,宝鸡市,三迪小学,细颗粒物(PM2.5),75,63,48,55,51,41,,37,37,30,28,5,4,0.5,0.5
2025-10-23T1400,4308A,107.3898,34.3601,宝鸡市,陈仓区北开路21号,细颗粒物(PM2.5),75,68,56,55,48,44,,36,35,16,22,6,5,0.5,0.5
2025-10-23T1400,1051A,115.493,38.8632,保定市,游泳馆,细颗粒物(PM2.5),93,75,66,69,50,40,,17,17,37,54,5,4,0.5,0.5
2025-10-23T1400,1052A,115.5213,38.8959,保定市,华电二区,细颗粒物(PM2.5),80,62,60,59,53,38,,16,16,25,41,7,6,0.4,0.4
2025-10-23T1400,1053A,115.4713,38.9108,保定市,接待中心,细颗粒物(PM2.5),92,78,62,68,47,33,,17,17,29,37,6,5,0.3,0.4
2025-10-23T1400,1054A,115.4612,38.8416,保定市,地表水厂,细颗粒物(PM2.5),87,74,68,64,48,44,,19,19,25,42,11,8,0.4,0.4
2025-10-23T1400,3581A,115.31981,38.95208,保定市,满城区生态环境分局,细颗粒物(PM2.5),73,85,70,53,45,30,,17,17,31,37,2,3,0.3,0.3
2025-10-23T1400,3582A,115.47694,38.76408,保定市,清苑区第二中学,细颗粒物(PM2.5),65,77,59,47,40,34,,16,16,30,41,2,2,0.6,0.5
2025-10-23T1400,3583A,115.62909,39.02311,保定市,徐水物探局,细颗粒物(PM2.5),89,,51,66,54,20,,12,12,40,42,4,4,0.6,0.6
2025-10-23T1400,4004A,115.4202,38.8656,保定市,双鹰农机,细颗粒物(PM2.5),78,90,72,57,48,39,,23,23,33,44,2,2,0.5,0.5
2025-10-23T1400,4034A,115.5150,38.8590,保定市,植保所站,细颗粒物(PM2.5),72,80,73,52,49,32,,12,12,27,42,3,4,0.7,0.7
2025-10-23T1400,2594A,99.1678,25.1081,保山市,市环境监测站,,28,25,21,19,17,88,,54,54,8,8,6,7,0.5,0.5
2025-10-23T1400,2595A,99.1711,25.1328,保山市,市环保局,,30,25,22,16,13,96,,58,58,7,5,7,6,0.6,0.6
2025-10-23T1400,1866A,109.2262,21.588,北海市,牛尾岭水库,,29,29,18,17,10,64,,45,45,7,10,3,3,0.6,0.6
2025-10-23T1400,1867A,109.1436,21.4086,北海市,海滩公园,,25,25,23,17,12,66,,49,49,8,9,7,6,0.3,0.2
2025-10-23T1400,1868A,109.0981,21.4661,北海市,新市环保局,,32,32,20,17,16,73,,54,54,6,7,6,5,0.4,0.4
2025-10-23T1400,1869A,109.1778,21.5233,北海市,北海工业园,,30,30,22,15,14,74,,52,52,8,10,5,5,0.4,0.4
2025-10-23T1400,3400A,109.1911,21.4415,北海市,龙潭自来水厂,,26,26,21,17,14,71,,53,53,4,6,7,7,0.4,0.4
2025-10-23T1400,1001A,116.3621,39.8784,北京市,万寿西宫,细颗粒物(PM2.5),74,70,69,54,48,70,,35,35,19,33,5,2,0.6,0.6
2025-10-23T1400,1002A,116.2202,40.2915,北京市,定陵,,,,,,,,,,,,,,,,
2025-10-23T1400,1003A,116.4174,39.9289,北京市,东四,细颗粒物(PM2.5),73,74,69,53,48,70,,35,35,18,29,6,4,0.7,0.7
2025-10-23T1400,1004A,116.4072,39.8863,北京市,天坛,细颗粒物(PM2.5),67,65,60,48,43,73,,34,34,23,31,5,2,0.6,0.5
2025-10-23T1400,1005A,116.462,39.9365,北京市,农展馆,细颗粒物(PM2.5),68,64,63,49,45,72,,34,34,25,31,7,4,0.5,0.4
2025-10-23T1400,1006A,116.3392,39.9295,北京市,官园,细颗粒物(PM2.5),72,69,67,52,47,68,,35,35,20,33,9,7,0.6,0.5
2025-10-23T1400,1007A,116.2878,39.9611,北京市,海淀万柳,细颗粒物(PM2.5),68,60,65,49,48,64,,30,30,24,41,6,4,0.5,0.6
2025-10-23T1400,1008A,116.6636,40.135,北京市,顺义新城,细颗粒物(PM2.5),59,50,61,42,41,85,,45,45,14,28,5,3,0.6,0.6
2025-10-23T1400,1009A,116.6275,40.3275,北京市,怀柔镇,细颗粒物(PM2.5),55,47,50,39,38,78,,43,43,24,27,8,4,0.9,0.7
2025-10-23T1400,1010A,116.2296,40.217,北京市,昌平镇,细颗粒物(PM2.5),54,51,55,38,40,71,,36,36,18,24,6,5,0.5,0.6
2025-10-23T1400,1011A,116.3966,39.9821,北京市,奥体中心,细颗粒物(PM2.5),64,60,61,46,44,66,,29,29,23,37,6,5,0.6,0.5
2025-10-23T1400,3281A,115.9718,40.4529,北京市,延庆夏都,,35,28,47,24,35,74,,37,37,10,24,2,2,0.3,0.4
2025-10-23T1400,3418A,116.8336,40.4095,北京市,密云新城,细颗粒物(PM2.5),57,48,54,40,38,85,,42,42,23,25,5,3,0.6,0.5
2025-10-23T1400,3671A,116.088,39.9726,北京市,门头沟三家店,细颗粒物(PM2.5),62,58,65,44,42,60,,36,36,27,33,3,2,0.6,0.6
2025-10-23T1400,3672A,116.1541,39.8204,北京市,丰台云岗,细颗粒物(PM2.5),77,70,74,56,50,68,,35,35,19,32,7,4,0.6,0.6
2025-10-23T1400,3673A,116.6804,39.9081,北京市,通州东关,细颗粒物(PM2.5),67,69,72,48,46,77,,33,33,20,39,5,4,0.3,0.4
2025-10-23T1400,3674A,115.9577,39.7603,北京市,房山燕山,细颗粒物(PM2.5),63,63,64,45,43,50,,28,28,21,27,5,2,0.6,0.6
2025-10-23T1400,3675A,116.4672,39.7733,北京市,大兴旧宫,细颗粒物(PM2.5),69,76,70,50,42,62,,32,32,24,35,4,3,0.6,0.6
2025-10-23T1400,3694A,115.986,40.4563,北京市,延庆石河营,,32,28,43,22,32,66,,33,33,14,24,2,2,0.4,0.5
2025-10-23T1400,3695A,116.6151,40.3053,北京市,怀柔新城,,50,46,53,35,39,83,,49,49,21,22,6,4,0.6,0.5
2025-10-23T1400,3696A,116.2545,39.8768,北京市,丰台小屯,细颗粒物(PM2.5),70,68,68,51,45,60,,31,31,24,35,5,3,0.6,0.6
2025-10-23T1400,3697A,116.84,40.3844,北京市,密云镇,细颗粒物(PM2.5),63,54,61,45,43,85,,39,39,19,30,8,6,0.5,0.5
2025-10-23T1400,4182A,116.1942,39.9158,北京市,八角北路9号,细颗粒物(PM2.5),75,67,70,55,47,56,,31,31,20,36,3,2,0.6,0.4
2025-10-23T1400,4194A,117.0790,40.1518,北京市,洳河巡河路,细颗粒物(PM2.5),53,52,60,37,41,88,,47,47,11,21,5,4,0.5,0.4
2025-10-23T1400,1761A,123.8275,41.3064,本溪市,大峪,,31,31,48,18,28,87,,47,47,10,33,9,9,0.1,0.4
2025-10-23T1400,1762A,123.7567,41.3325,本溪市,溪湖,颗粒物(PM10),51,51,72,20,31,93,,48,48,12,39,1,2,0.3,0.6
2025-10-23T1400,1763A,123.7169,41.3094,本溪市,彩屯,,42,42,64,19,38,86,,42,42,16,38,8,8,0.7,0.8
2025-10-23T1400,1764A,123.7669,41.2864,本溪市,东明,,38,38,61,14,33,90,,48,48,10,41,8,8,0.5,0.9
2025-10-23T1400,1765A,123.7992,41.2664,本溪市,新立屯,,30,30,33,17,20,93,,53,53,8,42,7,7,0.4,0.6
2025-10-23T1400,1766A,123.8142,41.3472,本溪市,威宁,,30,30,62,18,35,86,,44,44,8,36,5,5,0.4,0.7
2025-10-23T1400,2587A,105.2864,27.3125,毕节市,八中,,22,16,20,15,16,61,,32,32,10,7,10,9,0.5,0.5
2025-10-23T1400,2588A,105.31,27.2944,毕节市,师专,,19,18,18,13,14,58,,29,29,12,9,11,8,0.7,0.7
2025-10-23T1400,4263A,105.3688,27.3598,毕节市,工业大道,,26,26,17,18,13,48,,34,34,8,8,10,9,0.7,0.6
2025-10-23T1400,1629A,118.0018,37.3617,滨州市,第二水厂,,32,31,32,22,16,58,,53,53,21,30,8,9,0.2,0.2
2025-10-23T1400,1630A,117.9776,37.393,滨州市,北中新校,,34,34,35,19,16,63,,54,54,18,30,7,6,0.3,0.3
2025-10-23T1400,3514A,117.9378,37.3956,滨州市,中海酒店,,28,27,34,19,19,64,,47,47,14,27,4,5,0.6,0.5
2025-10-23T1400,3515A,117.9378,37.3553,滨州市,开发区一中,,39,39,38,19,16,73,,69,69,20,27,4,5,0.4,0.4
2025-10-23T1400,3516A,118.0917,37.694,滨州市,金海六路,颗粒物(PM10),52,54,34,34,18,46,,64,62,29,29,5,6,0.9,0.7
2025-10-23T1400,4028A,117.9956,37.3753,滨州市,滨州市西街道办事处,,36,36,29,19,19,62,,57,57,22,28,8,8,0.4,0.3
2025-10-23T1400,2311A,115.8072,33.8399,亳州市,污水处理厂,细颗粒物(PM2.5),54,55,81,38,59,115,,67,67,14,27,9,14,0.4,0.5
2025-10-23T1400,2312A,115.7789,33.8518,亳州市,三国揽胜宫,颗粒物(PM10),53,56,76,28,46,115,,67,67,13,23,9,10,0.5,0.6
2025-10-23T1400,3332A,115.7633,33.8034,亳州市,亳州学院,颗粒物(PM10),53,55,85,33,55,119,,82,82,13,20,10,11,0.4,0.5
2025-10-23T1400,2693A,82.0485,44.8556,博尔塔拉蒙古自治州,市党校,细颗粒物(PM2.5),67,80,72,48,45,73,,34,34,14,20,7,7,0.2,0.4
2025-10-23T1400,2694A,82.0806,44.8969,博尔塔拉蒙古自治州,市环保局,颗粒物(PM10),61,72,76,31,29,57,,24,24,35,31,26,10,0.6,0.8
2025-10-23T1400,1071A,116.8842,38.2991,沧州市,沧县城建局,细颗粒物(PM2.5),73,59,66,53,51,70,,33,33,23,46,9,6,0.7,0.5
2025-10-23T1400,1072A,116.8584,38.3254,沧州市,电视转播站,细颗粒物(PM2.5),67,59,66,48,51,55,,20,20,34,51,8,4,0.8,0.7
2025-10-23T1400,1073A,116.8709,38.3228,沧州市,市环保局,细颗粒物(PM2.5),70,63,73,51,57,60,,26,26,31,52,6,4,0.8,0.8
2025-10-23T1400,3324A,116.8136,38.3004,沧州市,河北水利电力学院,颗粒物(PM10),57,63,64,30,40,60,,31,31,31,43,7,4,0.6,0.5
2025-10-23T1400,2622A,97.1806,31.1273,昌都市,昌都监测站,,35,6,16,3,10,109,,74,74,5,15,3,3,0.3,0.4
2025-10-23T1400,3719A,97.1714,31.1406,昌都市,昌都会议中心,,38,6,21,3,8,121,,81,81,1,6,2,2,0.1,0.3
2025-10-23T1400,2690A,88.1236,43.8886,昌吉回族自治州,天山天池,,,,,,,,,,,,,,,,
2025-10-23T1400,2692A,87.2717,44.0297,昌吉回族自治州,新区政务中心,颗粒物(PM10),92,133,111,60,44,95,,49,49,27,40,18,9,0.6,0.7
2025-10-23T1400,3613A,87.3095,44.0142,昌吉回族自治州,亚心广场,颗粒物(PM10),122,193,163,88,66,90,,42,41,30,41,15,9,0.8,0.7
2025-10-23T1400,1120A,125.2863,43.9027,长春市,客车厂,,25,23,62,13,44,77,,45,45,13,49,6,8,0.2,0.7
2025-10-23T1400,1121A,125.2841,43.8463,长春市,邮电学院,,25,16,45,14,33,78,,46,46,9,38,7,7,0.3,0.5
2025-10-23T1400,1122A,125.3716,43.8772,长春市,劳动公园,,23,22,59,9,34,72,,38,38,11,44,8,10,0.2,0.7
2025-10-23T1400,1123A,125.3297,43.8805,长春市,园林处,,23,23,49,15,31,72,,37,37,13,43,5,7,0.1,0.4
2025-10-23T1400,1124A,125.4605,43.79,长春市,净月潭,,24,17,40,10,26,74,,43,43,10,37,6,6,0.2,0.4
2025-10-23T1400,1125A,125.7194,43.515,长春市,甩湾子,,27,15,47,12,38,86,,47,47,11,26,5,5,0.3,0.5
2025-10-23T1400,1126A,125.3863,43.8447,长春市,经开区环卫处,,23,23,61,12,34,70,,37,37,12,47,7,8,0.3,0.8
2025-10-23T1400,1127A,125.245,43.7783,长春市,高新区管委会,,25,18,71,11,49,77,,43,43,10,42,6,7,0.2,0.6
2025-10-23T1400,1128A,125.1761,43.8325,长春市,岱山公园,,,,67,,54,75,,4,,14,52,6,9,0.2,0.7
2025-10-23T1400,4281A,125.3346,43.9164,长春市,北亚泰大街1068号,细颗粒物(PM2.5),84,,54,62,44,71,,34,34,9,49,6,9,0.2,0.6
2025-10-23T1400,1335A,113.0833,28.2325,长沙市,经开区环保局,,37,37,36,12,20,105,,66,66,9,19,6,6,0.3,0.5
2025-10-23T1400,1336A,112.8872,28.2189,长沙市,高开区环保局,,48,48,40,29,24,97,,56,56,14,18,6,6,0.3,0.3
2025-10-23T1400,1337A,113.0792,28.2053,长沙市,马坡岭,,40,40,38,18,21,116,,62,62,5,14,6,6,0.3,0.4
2025-10-23T1400,1338A,112.9394,28.19,长沙市,湖南师范大学,颗粒物(PM10),52,54,41,25,22,98,,66,66,15,16,5,5,0.5,0.5
2025-10-23T1400,1339A,113.0178,28.1322,长沙市,雨花区环保局,颗粒物(PM10),51,51,37,21,19,91,,62,62,12,18,7,7,0.3,0.3
2025-10-23T1400,1340A,112.9792,28.2597,长沙市,伍家岭,,41,41,36,17,19,99,,62,62,12,18,4,5,0.4,0.4
2025-10-23T1400,1341A,113.0014,28.1944,长沙市,火车新站,颗粒物(PM10),52,53,37,24,24,101,,65,65,14,19,9,9,0.4,0.4
2025-10-23T1400,1342A,112.9844,28.1178,长沙市,天心区环保局,,43,43,37,24,21,103,,67,67,12,15,6,6,0.4,0.3
2025-10-23T1400,1343A,112.8908,28.1308,长沙市,湖南中医药大学,颗粒物(PM10),51,51,43,24,21,101,,62,62,10,14,6,5,0.5,0.5
2025-10-23T1400,1344A,112.9581,28.3611,长沙市,沙坪,,,,,,,,,,,,,,,,
2025-10-23T1400,1727A,113.1147,36.1547,长治市,清华站,细颗粒物(PM2.5),70,59,50,51,40,70,,51,51,28,26,19,18,0.6,0.8
2025-10-23T1400,1730A,113.0886,36.2125,长治市,审计局,细颗粒物(PM2.5),73,,38,53,46,72,,48,48,23,23,11,10,0.5,0.8
2025-10-23T1400,1731A,113.0844,36.1856,长治市,长治八中,细颗粒物(PM2.5),77,75,62,56,47,69,,49,49,20,20,11,12,0.6,0.8
2025-10-23T1400,2845A,113.1569,36.1911,长治市,德盛苑,颗粒物(PM10),65,80,50,46,41,75,,56,56,16,19,19,15,0.7,1
2025-10-23T1400,3568A,113.06,36.0464,长治市,向阳小学,细颗粒物(PM2.5),60,65,74,43,42,84,,62,62,26,28,7,23,0.5,0.7
2025-10-23T1400,3569A,112.8792,36.3144,长治市,屯留一中,颗粒物(PM10),53,55,58,30,38,69,,54,48,15,18,9,11,1.9,1.8
2025-10-23T1400,4189A,113.1131,36.19948,长治市,英华南巷50号,细颗粒物(PM2.5),64,60,57,46,45,69,,47,47,24,26,17,12,0.8,1.3
2025-10-23T1400,4190A,113.2367,36.3344,长治市,学府街1号,细颗粒物(PM2.5),77,59,65,56,58,63,,49,49,19,26,17,12,0.9,1
2025-10-23T1400,1854A,111.6975,28.9703,常德市,市二中,,42,42,46,24,27,107,,88,88,8,10,6,6,0.2,0.3
2025-10-23T1400,1857A,111.7158,29.1456,常德市,白鹤山,,,,,,,,,,,,,,,,
2025-10-23T1400,3138A,111.7153,29.0289,常德市,武陵区永安,,37,37,45,19,23,107,,86,86,9,13,6,6,0.4,0.4
2025-10-23T1400,3139A,111.6892,28.9881,常德市,鼎城区玉霞,,42,42,43,20,27,110,,90,90,3,8,6,6,0.3,0.5
2025-10-23T1400,3140A,111.6625,29.0531,常德市,武陵区长庚,,44,44,49,20,27,115,,84,84,5,8,4,4,0.2,0.2
2025-10-23T1400,1196A,119.9633,31.762,常州市,市监测站,,30,23,25,11,12,96,,70,70,7,15,6,8,0.3,0.4
2025-10-23T1400,1200A,119.9468,31.7069,常州市,武进监测站,,31,17,24,3,7,97,,69,69,8,19,8,6,0.3,0.3
2025-10-23T1400,1201A,119.9255,31.9087,常州市,安家,,31,24,26,3,8,97,,72,72,17,26,8,10,0.3,0.4
2025-10-23T1400,3002A,119.9805,31.8174,常州市,行政中心,,29,28,30,16,14,92,,65,65,8,19,4,5,0.5,0.6
2025-10-23T1400,3003A,120.0522,31.7748,常州市,经开区,,30,22,33,6,11,95,,69,69,10,22,8,8,0.4,0.4
2025-10-23T1400,3010A,119.9025,31.7964,常州市,钟楼,,30,28,27,8,12,93,,66,66,13,23,8,9,0.6,0.6
2025-10-23T1400,3429A,119.8598,31.7066,常州市,武进经发区,,29,22,29,8,13,90,,69,69,19,31,11,11,0.6,0.6
2025-10-23T1400,3430A,119.5826,31.7245,常州市,金坛城区,,31,20,29,8,14,97,,73,73,9,17,9,10,0.4,0.5
2025-10-23T1400,2220A,120.4318,41.5881,朝阳市,西梁,,30,30,60,7,31,80,,40,40,11,43,6,8,0.3,0.7
2025-10-23T1400,2221A,120.4521,41.5646,朝阳市,河畔小区,,27,27,48,8,28,80,,43,43,10,34,7,7,0.3,0.7
2025-10-23T1400,2222A,120.4176,41.5648,朝阳市,八里堡,,26,25,62,13,34,82,,46,46,10,44,7,8,0.4,1
2025-10-23T1400,2223A,120.3806,41.5969,朝阳市,农业园区,,26,20,40,13,22,82,,45,45,11,34,7,7,0.3,0.5
2025-10-23T1400,1705A,116.6367,23.6719,潮州市,西园路,,,,,,,,,,,,,,,,
2025-10-23T1400,3026A,116.6183,23.6608,潮州市,市政府,,28,28,16,12,7,61,,46,46,2,2,2,3,0.1,0.1
2025-10-23T1400,4036A,116.6461,23.6761,潮州市,金山,,28,28,16,15,6,54,,40,40,3,4,3,3,0.4,0.4
2025-10-23T1400,2472A,113.0073,25.9061,郴州市,马头岭,,,,,,,,,,,,,,,,
2025-10-23T1400,2473A,113.0116,25.8226,郴州市,市职中,,29,29,29,18,23,57,,36,36,11,15,3,2,0.7,0.7
2025-10-23T1400,2475A,113.0383,25.8071,郴州市,市审计局,,32,32,31,22,22,48,,33,33,11,13,11,9,0.3,0.4
2025-10-23T1400,2476A,113.0348,25.7759,郴州市,市环保局,,43,43,36,18,23,46,,30,30,12,14,2,1,0.4,0.3
2025-10-23T1400,4252A,113.0138,25.8011,郴州市,好美居路49号,,38,34,29,26,24,44,,40,40,17,19,10,8,0.6,0.5
2025-10-23T1400,1431A,103.9728,30.7236,成都市,金泉两河,,10,6,13,3,3,18,,22,18,20,19,2,2,0.5,0.5
2025-10-23T1400,1432A,104.176,30.6872,成都市,十里店,,13,,14,3,7,40,,29,29,14,18,3,3,0.4,0.5
2025-10-23T1400,1433A,104.079,30.5706,成都市,三瓦窑,,12,8,23,8,17,38,,31,31,16,20,4,4,0.6,0.6
2025-10-23T1400,1434A,104.1114,30.63,成都市,沙河铺,,14,14,26,3,16,25,,20,18,21,24,4,4,0.5,0.5
2025-10-23T1400,1437A,104.0786,30.6531,成都市,君平街,,8,6,20,3,11,25,,18,16,15,17,4,4,0.6,0.5
2025-10-23T1400,1438A,103.613,31.0283,成都市,灵岩寺,,,,,,,,,,,,,,,,
2025-10-23T1400,2880A,104.0239,30.65639,成都市,大石西路,,19,,17,13,12,22,,21,17,23,22,3,2,0.5,0.5
2025-10-23T1400,3136A,104.2725,30.5589,成都市,龙泉驿区区政府,,13,6,4,3,4,39,,39,39,13,14,5,5,0.5,0.5
2025-10-23T1400,3357A,104.0106,30.6931,成都市,金博路,,12,6,9,3,5,15,,18,14,24,22,5,6,0.6,0.5
2025-10-23T1400,3359A,104.0578,30.5225,成都市,华阳,,20,,14,14,12,26,,26,26,20,21,4,4,0.6,0.6
2025-10-23T1400,3488A,104.3880,30.7467,成都市,青石路225号,,11,6,16,6,9,35,,30,30,12,15,2,2,0.7,0.7
2025-10-23T1400,3489A,104.0789,30.4072,成都市,科学城,,12,7,13,3,9,37,,38,38,10,14,4,4,0.5,0.5
2025-10-23T1400,4011A,103.8506,30.6947,成都市,光华大道三段,,10,6,18,3,6,19,,24,18,19,20,1,1,0.6,0.6
2025-10-23T1400,4224A,104.2433,30.5353,成都市,鲸龙路1057号,,11,,10,6,10,34,,35,35,18,20,5,5,0.6,0.6
2025-10-23T1400,1062A,117.9531,40.9081,承德市,铁路,,36,36,49,21,25,78,,36,36,16,31,4,3,0.4,0.6
2025-10-23T1400,1063A,117.9392,40.9763,承德市,中国银行,,,30,42,,17,84,,40,40,11,28,5,3,0.4,0.5
2025-10-23T1400,1064A,117.9503,40.928,承德市,开发区,,37,37,58,25,26,89,,46,46,10,32,5,3,0.4,0.5
2025-10-23T1400,1066A,117.9268,41.0026,承德市,离宫,,,,,,,,,,,,,,,,
2025-10-23T1400,4274A,117.7994,40.9605,承德市,滨河大街98号,,35,35,39,19,24,85,,42,42,13,28,4,3,0.5,0.5
2025-10-23T1400,2314A,117.47,30.6618,池州市,池州学院,,30,30,37,17,19,92,,59,59,20,26,8,12,0.6,0.6
2025-10-23T1400,3237A,117.4918,30.6617,池州市,展览馆,,32,32,36,14,19,92,,65,65,21,28,10,11,0.7,0.7
2025-10-23T1400,3333A,117.5627,30.695,池州市,第八中学,,30,30,37,16,18,92,,60,60,20,27,9,10,0.7,0.6
2025-10-23T1400,3334A,117.5038,30.6243,池州市,第十二中学,,30,28,34,13,18,93,,62,62,22,29,7,9,0.6,0.6
2025-10-23T1400,1744A,118.9233,42.2816,赤峰市,松山一中,,38,38,50,22,24,60,,32,32,37,48,42,20,0.9,0.8
2025-10-23T1400,1745A,118.9576,42.2728,赤峰市,哈达街,颗粒物(PM10),51,52,59,19,32,61,,32,32,38,46,45,23,1.0,0.9
2025-10-23T1400,1746A,118.8788,42.2554,赤峰市,天义路,,38,28,37,26,30,56,,33,33,39,42,40,18,0.9,0.7
2025-10-23T1400,3058A,119.2658,42.0353,赤峰市,银河街,,27,27,52,15,25,69,,46,46,12,30,11,21,0.2,0.3
2025-10-23T1400,3286A,118.9359,42.3147,赤峰市,桥北物流园区,,38,,45,26,29,62,,39,39,30,35,38,12,1.1,0.6
2025-10-23T1400,2521A,107.3476,22.4136,崇左市,市环保局江州分局,,21,21,15,3,6,43,,43,39,5,5,2,2,0.5,0.5
2025-10-23T1400,4256A,107.3750,22.3736,崇左市,石景林东路7号,,17,15,11,8,6,52,,52,50,6,8,6,6,0.4,0.5
2025-10-23T1400,2298A,118.3093,32.3153,滁州市,老年大学,,32,23,29,14,19,101,,70,70,5,12,10,10,0.1,0.2
2025-10-23T1400,2299A,118.3244,32.2786,滁州市,人大宾馆,,31,17,28,7,14,99,,72,72,2,8,5,5,0.1,0.1
2025-10-23T1400,3207A,118.3118,32.3038,滁州市,市政府原办公楼,,33,22,31,12,17,105,,75,75,6,15,7,6,0.2,0.3
2025-10-23T1400,3331A,118.3267,32.2634,滁州市,图书馆,,33,19,26,7,14,103,,75,75,5,12,7,7,0.2,0.2
2025-10-23T1400,2605A,101.5482,25.0441,楚雄彝族自治州,州环境监测站,,18,16,18,12,13,52,,24,24,5,9,8,9,0.7,0.8
2025-10-23T1400,2606A,101.538,25.0492,楚雄彝族自治州,市经济开发区,,30,30,22,19,15,51,,23,23,8,11,6,8,0.8,0.8
2025-10-23T1400,2548A,107.5277,31.2827,达州市,达州职业技术学院,,,,,,,,,,,,,,,,
2025-10-23T1400,2549A,107.5086,31.2186,达州市,市环境监测站,,17,16,25,3,4,52,,24,24,13,24,6,9,0.3,0.4
2025-10-23T1400,2550A,107.4988,31.2132,达州市,凤凰小区,,18,17,17,3,6,56,,30,30,11,20,5,7,0.2,0.3
2025-10-23T1400,2551A,107.5082,31.1986,达州市,达县机关宾馆,,17,17,18,3,5,50,,22,22,13,25,4,8,0.3,0.4
2025-10-23T1400,2552A,107.4644,31.2124,达州市,市政中心,,25,25,24,7,3,58,,28,28,8,18,5,10,0.3,0.3
2025-10-23T1400,2614A,100.1542,25.7054,大理白族自治州,大理市环境监测站,,25,19,20,3,10,77,,54,51,8,11,5,5,0.5,0.8
2025-10-23T1400,2615A,100.2171,25.5811,大理白族自治州,大理古城,,28,17,18,11,13,89,,64,64,6,10,7,7,0.9,0.9
2025-10-23T1400,1109A,121.612,38.9741,大连市,甘井子,颗粒物(PM10),51,52,37,21,16,70,,58,58,19,27,8,10,0.4,0.7
2025-10-23T1400,1110A,121.565,38.9511,大连市,周水子,,35,35,27,18,16,78,,64,64,23,29,10,6,0.5,0.4
2025-10-23T1400,1111A,121.5637,38.8845,大连市,星海三站,,31,31,25,18,16,75,,61,61,13,13,9,7,0.5,0.4
2025-10-23T1400,1112A,121.6302,38.9117,大连市,青泥洼桥,,45,45,33,19,16,57,,58,56,34,23,12,12,0.5,0.3
2025-10-23T1400,1113A,121.6251,38.8638,大连市,傅家庄,,39,39,31,20,16,66,,58,58,18,19,7,7,0.7,0.6
2025-10-23T1400,1114A,121.5213,38.8661,大连市,七贤岭,,32,32,28,16,14,75,,66,66,14,15,7,8,0.6,0.6
2025-10-23T1400,1115A,121.2529,38.8061,大连市,旅顺,,27,27,21,17,14,69,,62,62,11,10,9,9,0.4,0.3
2025-10-23T1400,1116A,121.7485,39.1311,大连市,金州,,48,48,35,29,21,74,,64,64,26,25,9,11,0.5,0.4
2025-10-23T1400,1117A,121.7811,39.0496,大连市,开发区,,28,26,23,19,14,66,,64,62,21,15,7,6,0.6,0.5
2025-10-23T1400,1118A,121.9762,39.0631,大连市,双D港,,39,37,34,27,16,81,,74,74,14,13,9,9,0.5,1.1
2025-10-23T1400,1789A,124.81117,46.03138,大庆市,大同区,,21,20,30,10,15,67,,43,43,7,20,7,8,0.4,0.5
2025-10-23T1400,1790A,125.129,46.533,大庆市,龙凤区,,26,26,36,10,19,69,,49,49,7,23,10,10,0.5,0.6
2025-10-23T1400,1791A,124.902,46.408,大庆市,红岗区,,23,22,33,3,19,72,,50,50,6,10,6,7,0.4,0.6
2025-10-23T1400,1792A,125.153,46.586,大庆市,萨尔图区,,23,,31,7,16,71,,53,53,9,18,9,9,0.2,0.3
2025-10-23T1400,1793A,124.9042,46.6215,大庆市,让胡路区,,23,16,36,12,25,71,,46,46,5,25,5,7,0.3,0.4
2025-10-23T1400,3481A,125.141,46.634,大庆市,萨区政府监测点,,23,13,28,3,9,72,,55,55,4,10,7,8,0.2,0.3
2025-10-23T1400,1721A,113.3819,40.1097,大同市,果树场,,39,28,27,27,27,39,,18,18,21,29,10,8,0.9,0.8
2025-10-23T1400,1723A,113.2994,40.0758,大同市,云冈宾馆,细颗粒物(PM2.5),54,46,40,38,29,28,,22,21,26,24,5,5,1.3,0.9
2025-10-23T1400,1724A,113.3444,40.0917,大同市,大同大学,,39,33,26,27,27,36,,18,18,23,26,7,6,1.0,0.9
2025-10-23T1400,1725A,113.2661,40.1269,大同市,安家小村,,44,44,37,26,25,32,,20,20,26,29,5,4,0.7,0.6
2025-10-23T1400,1726A,113.2711,40.0844,大同市,教育学院,,50,50,41,33,28,28,,16,16,29,29,6,5,0.9,0.8
2025-10-23T1400,3282A,113.3397,40.0597,大同市,大同市卫生学校,,41,41,38,26,26,28,,15,15,28,29,6,4,1.0,0.7
2025-10-23T1400,3565A,113.1367,40.1122,大同市,云冈站,,46,37,47,32,37,37,,21,21,18,28,16,8,0.9,0.9
2025-10-23T1400,3566A,113.1186,40.2556,大同市,图书馆,,,58,48,28,37,43,,26,26,17,30,20,23,,1.5
2025-10-23T1400,3567A,113.5931,40.0461,大同市,区一中,,32,26,37,22,31,63,,42,42,13,18,4,3,0.6,0.6
2025-10-23T1400,4199A,113.2798,40.0997,大同市,魏都大道141号,细颗粒物(PM2.5),54,52,33,38,29,27,,18,18,34,33,5,5,0.7,0.6
2025-10-23T1400,2269A,124.1069,50.4097,大兴安岭地区,科技局,,22,11,19,9,14,68,,47,47,4,6,4,4,0.2,0.3
2025-10-23T1400,3663A,124.1164,50.4278,大兴安岭地区,红旗社区,,22,6,16,3,10,70,,47,47,3,15,3,4,0.3,0.3
2025-10-23T1400,1600A,124.3303,40.0625,丹东市,江湾东路,,32,28,33,22,23,96,,78,78,12,20,8,10,0.5,0.6
2025-10-23T1400,1601A,124.4256,40.1503,丹东市,临江后街,,30,25,30,14,18,94,,74,74,8,16,6,8,0.3,0.5
2025-10-23T1400,1602A,124.3933,40.1461,丹东市,元宝山,,30,24,28,16,19,93,,72,72,10,16,8,10,0.3,0.4
2025-10-23T1400,1603A,124.3633,40.1092,丹东市,民主桥,,,31,34,16,19,95,,74,74,,24,6,7,0.4,0.6
2025-10-23T1400,3541A,109.5726,19.5167,儋州市,第一中学子站,,,19,22,13,11,30,,28,28,6,6,2,2,,0.9
2025-10-23T1400,3542A,109.5567,19.5187,儋州市,东坡学校子站,,16,15,18,11,11,36,,34,33,8,8,2,2,0.5,0.4
2025-10-23T1400,2616A,98.5842,24.428,德宏傣族景颇族自治州,德宏州监测站,,22,19,24,15,16,54,,37,37,8,16,15,10,0.5,0.5
2025-10-23T1400,3677A,98.5881,24.4368,德宏傣族景颇族自治州,芒市人民政府综合楼,,26,26,30,13,14,54,,30,30,8,12,13,7,0.5,0.5
2025-10-23T1400,1901A,104.4239,31.1208,德阳市,东山公园,,8,,4,3,8,24,,30,28,8,7,1,1,0.7,0.7
2025-10-23T1400,1902A,104.3826,31.1317,德阳市,西小区,,18,18,17,3,8,24,,32,27,12,11,3,3,0.6,0.5
2025-10-23T1400,1904A,104.3553,31.1091,德阳市,耐火材料厂,,10,10,14,3,8,21,,24,21,14,15,3,3,0.8,0.8
2025-10-23T1400,3639A,104.4019,31.1244,德阳市,市教育局,,9,8,10,6,8,20,,26,22,12,10,2,3,0.8,0.8
2025-10-23T1400,1622A,116.3032,37.4674,德州市,儿童乐园,颗粒物(PM10),54,58,79,34,43,43,,27,27,42,48,16,14,0.8,0.7
2025-10-23T1400,1624A,116.2991,37.4451,德州市,监理站,"颗粒物(PM10),细颗粒物(PM2.5)",52,53,66,36,41,54,,38,38,45,52,18,17,0.7,0.7
2025-10-23T1400,3066A,116.2721,37.4379,德州市,九衢泉纯净水厂,,,66,73,34,36,31,,22,22,,49,16,15,0.6,0.5
2025-10-23T1400,3371A,116.3728,37.4403,德州市,开发区人民医院,颗粒物(PM10),54,58,67,24,33,39,,22,22,43,53,18,16,0.8,0.7
2025-10-23T1400,3511A,116.5652,37.3319,德州市,陵城艺术中心,,39,39,75,22,42,50,,31,31,35,42,12,15,0.6,0.7
2025-10-23T1400,4292A,116.3525,37.4209,德州市,新河东路,颗粒物(PM10),53,56,70,27,36,47,,35,35,46,52,15,12,0.8,0.8
2025-10-23T1400,2621A,99.7056,27.8317,迪庆藏族自治州,迪庆州站,,30,16,21,9,16,94,,59,59,4,7,6,6,0.3,0.4
2025-10-23T1400,3180A,99.7136,27.8094,迪庆藏族自治州,质量技术监督局,,29,24,22,7,13,91,,62,62,11,10,7,7,0.4,0.5
2025-10-23T1400,4257A,104.6092,35.5962,定西市,将台街,,24,24,29,15,18,67,,50,50,13,17,6,7,0.4,0.4
2025-10-23T1400,4309A,104.6159,35.5701,定西市,正龙路62号,,36,35,38,25,21,66,,56,56,8,10,4,4,0.4,0.4
2025-10-23T1400,1389A,113.7547,23.0494,东莞市,莞城梨川,,26,20,13,13,8,81,,56,56,8,12,5,5,0.5,0.5
2025-10-23T1400,1390A,113.7944,23.0128,东莞市,东城石井,,26,24,12,15,8,82,,59,59,8,13,7,6,0.5,0.5
2025-10-23T1400,1391A,113.7383,22.9658,东莞市,南城西平,,25,23,14,16,9,79,,56,56,13,18,7,7,0.6,0.5
2025-10-23T1400,3319A,113.7338,23.0381,东莞市,万江金泰,,26,22,12,18,6,78,,54,54,6,10,4,3,0.6,0.7
2025-10-23T1400,3626A,113.7533,23.0202,东莞市,南城元岭,,28,22,13,19,9,85,,60,60,8,10,6,5,0.3,0.3
2025-10-23T1400,3627A,113.7875,23.0457,东莞市,东城主山,,26,21,12,12,6,83,,60,60,8,12,2,2,0.3,0.3
2025-10-23T1400,1666A,118.6614,37.4309,东营市,市环保局,颗粒物(PM10),58,66,26,9,8,74,,59,59,24,23,8,6,0.6,0.6
2025-10-23T1400,3036A,118.6904,37.4338,东营市,开发区管委会,,30,30,27,14,14,80,,65,65,10,17,8,6,0.5,0.4
2025-10-23T1400,3365A,118.5719,37.565,东营市,垦利区民丰路,,39,39,28,19,12,66,,64,64,16,31,5,4,0.7,0.5
2025-10-23T1400,3498A,118.5055,37.8612,东营市,河口城区,细颗粒物(PM2.5),62,70,38,44,17,50,,69,62,34,25,8,8,0.6,0.4
2025-10-23T1400,3646A,118.4978,37.4623,东营市,胜利站,,45,45,35,14,11,74,,66,66,21,30,11,9,0.5,0.4
2025-10-23T1400,3734A,118.35,37.26,东营市,理想之城,,36,36,31,9,14,66,,52,52,23,40,4,2,0.5,0.4
2025-10-23T1400,1591A,110.0023,39.8129,鄂尔多斯市,综合楼,,39,39,31,19,19,74,,43,43,19,30,5,8,0.4,0.8
2025-10-23T1400,1592A,109.9486,39.8261,鄂尔多斯市,巴音孟克林场办事处,,42,41,32,29,25,67,,42,42,24,29,16,9,0.5,0.6
2025-10-23T1400,1593A,109.7736,39.5986,鄂尔多斯市,康泽苑,,41,41,31,22,22,79,,47,47,16,19,5,4,0.5,0.5
2025-10-23T1400,1594A,109.8119,39.5989,鄂尔多斯市,华泰汽车城,,41,41,28,27,22,76,,37,37,18,23,5,5,0.4,0.6
2025-10-23T1400,1595A,109.9734,39.7884,鄂尔多斯市,奥林花园,,44,44,35,24,21,71,,38,38,19,29,7,6,0.6,0.7
2025-10-23T1400,2436A,114.8938,30.3994,鄂州市,市政府,,27,25,29,16,17,85,,72,72,15,16,8,8,0.2,0.2
2025-10-23T1400,2437A,114.8989,30.3714,鄂州市,赵家坝,,36,28,29,11,12,114,,86,86,6,8,8,9,0.4,0.5
2025-10-23T1400,3654A,114.8094,30.4089,鄂州市,精准医疗中心,,35,27,31,15,16,109,,77,77,9,12,7,7,0.4,0.3
2025-10-23T1400,2454A,109.4978,30.2981,恩施土家族苗族自治州,湖北民院,,18,15,16,8,9,55,,39,39,8,8,6,6,0.3,0.3
2025-10-23T1400,2455A,109.4707,30.2798,恩施土家族苗族自治州,州电力总公司,,16,11,13,3,8,49,,28,28,5,7,6,5,0.5,0.5
2025-10-23T1400,3549A,109.5061,30.3772,恩施土家族苗族自治州,龙凤新区,,16,9,13,6,8,50,,31,31,3,4,7,6,0.3,0.4
2025-10-23T1400,2499A,108.3411,21.6158,防城港市,沙万,,,23,20,14,9,60,,54,54,5,5,4,4,,0.3
2025-10-23T1400,2500A,108.3514,21.7731,防城港市,防城档案局,,42,42,31,12,10,56,,49,49,8,8,6,6,0.5,0.5
2025-10-23T1400,2501A,108.3506,21.6414,防城港市,大海花园,,39,39,19,7,10,63,,57,57,6,6,4,15,0.3,0.4
2025-10-23T1400,1371A,113.1294,23.0067,佛山市,湾梁,,27,27,16,16,11,67,,49,49,21,24,8,7,0.5,0.5
2025-10-23T1400,1372A,113.1083,23.0478,佛山市,华材职中,,23,22,17,14,12,72,,49,49,8,15,6,6,0.6,0.6
2025-10-23T1400,1373A,113.144,23.0453,佛山市,南海气象局,,30,30,16,10,8,70,,49,49,16,20,8,7,0.5,0.4
2025-10-23T1400,1374A,113.2881,22.8094,佛山市,顺德苏岗,,31,31,16,12,9,72,,51,51,14,18,8,7,0.4,0.4
2025-10-23T1400,1376A,112.8383,22.8678,佛山市,高明孔堂,,25,23,17,14,9,79,,51,51,11,17,3,4,0.4,0.4
2025-10-23T1400,1377A,112.8836,23.1588,佛山市,三水监测站,,22,22,13,10,10,62,,42,42,17,19,8,8,0.5,0.5
2025-10-23T1400,1378A,112.867,23.185,佛山市,三水云东海,,22,,12,11,8,69,,45,45,8,12,5,4,0.4,0.4
2025-10-23T1400,3625A,113.2544,22.7642,佛山市,容桂街道办,,31,31,12,19,9,76,,53,53,15,19,7,6,0.7,0.7
2025-10-23T1400,1280A,119.3903,26.0543,福州市,鼓山,,30,21,15,10,6,95,,81,81,6,8,2,1,0.7,0.6
2025-10-23T1400,1282A,119.2681,26.0504,福州市,师大,,25,25,19,8,7,77,,52,52,11,12,5,5,0.3,0.3
2025-10-23T1400,1283A,119.2984,26.1028,福州市,五四北路,,30,27,21,8,6,96,,66,66,8,13,4,4,0.4,0.4
2025-10-23T1400,1284A,119.2648,26.0768,福州市,杨桥西路,,25,18,17,10,6,78,,57,57,8,11,4,3,0.3,0.3
2025-10-23T1400,1285A,119.317,26.0746,福州市,紫阳,,43,43,23,10,8,87,,67,67,14,13,7,6,0.4,0.3
2025-10-23T1400,3048A,119.5799,26.0936,福州市,九龙,,32,25,18,12,7,100,,78,78,8,10,6,4,0.4,0.4
2025-10-23T1400,3526A,119.5189,25.9664,福州市,吴航,,30,20,17,10,9,94,,77,77,6,7,6,5,0.4,0.3
2025-10-23T1400,1755A,123.7977,41.8491,抚顺市,望花区,,39,33,86,27,45,86,,41,41,12,39,8,10,0.4,0.8
2025-10-23T1400,1756A,123.9161,41.8822,抚顺市,顺城区,,30,30,65,15,35,86,,45,45,11,38,6,9,0.4,0.7
2025-10-23T1400,1757A,124.0436,41.8611,抚顺市,东洲区,,28,24,68,16,43,89,,49,49,7,31,6,7,0.5,0.8
2025-10-23T1400,1758A,123.9247,41.8642,抚顺市,新抚区,,29,29,62,16,37,90,,47,47,8,32,7,7,0.6,0.9
2025-10-23T1400,1759A,124.0972,41.8961,抚顺市,大伙房水库,,29,27,62,15,46,92,,55,55,9,37,9,11,0.4,0.6
2025-10-23T1400,1760A,123.7086,41.8391,抚顺市,沈抚新城,,39,32,48,27,40,85,,48,48,9,31,8,9,0.3,0.5
2025-10-23T1400,2376A,116.2127,28.0814,抚州市,桐源党溪,,,,,,,,,,,,,,,,
2025-10-23T1400,2377A,116.3544,27.9831,抚州市,市站,,36,36,45,15,22,103,,81,81,5,7,4,6,0.5,0.6
2025-10-23T1400,2378A,116.3565,27.963,抚州市,血防站,,35,35,42,15,22,107,,84,84,6,8,8,12,0.4,0.4
2025-10-23T1400,2379A,116.3564,28.0007,抚州市,采茶剧团,,39,39,44,14,23,107,,84,84,3,5,3,3,0.4,0.4
2025-10-23T1400,2380A,116.385,27.9647,抚州市,医学分院,,37,37,47,15,21,105,,82,82,5,6,4,13,0.5,0.6
2025-10-23T1400,2207A,121.6094,41.998,阜新市,工业园区,,26,16,48,3,25,82,,46,46,6,37,7,8,0.2,0.5
2025-10-23T1400,2208A,121.6697,42.0279,阜新市,长青街,,25,10,40,6,22,78,,47,47,6,34,7,10,0.5,1.4
2025-10-23T1400,2209A,121.6673,42.0705,阜新市,农业园区,,25,17,19,3,7,78,,65,65,5,9,4,5,0.4,0.7
2025-10-23T1400,2210A,121.6717,42.0224,阜新市,东苑,,25,21,67,12,27,78,,44,44,8,40,6,13,0.4,1.6
2025-10-23T1400,2211A,121.6506,42.0498,阜新市,玉龙新城,,26,22,51,3,21,81,,48,48,6,38,7,8,0.3,0.7
2025-10-23T1400,2301A,115.8277,32.8929,阜阳市,市监测站,,49,49,61,28,38,116,,75,75,19,51,7,6,0.3,0.4
2025-10-23T1400,2303A,115.8554,32.8605,阜阳市,开发区,颗粒物(PM10),53,55,70,28,37,118,,74,74,14,30,11,10,0.6,0.6
2025-10-23T1400,2875A,115.784,32.8892,阜阳市,阜阳职业技术学院,,44,44,48,24,38,120,,78,78,12,28,9,8,0.3,0.4
2025-10-23T1400,3468A,115.7901,32.8613,阜阳市,市规划展馆,,45,44,43,31,27,131,,94,94,14,23,8,7,0.3,0.5
2025-10-23T1400,3469A,115.836,32.9183,阜阳市,枣园社区,,49,37,64,34,41,123,,72,72,13,39,11,10,0.3,0.4
2025-10-23T1400,2669A,102.9099,34.9841,甘南藏族自治州,州政府,,23,20,21,16,20,68,,72,72,7,6,4,4,0.3,0.3
2025-10-23T1400,3380A,102.8914,34.9617,甘南藏族自治州,甘肃民族师范学院,,24,13,15,11,13,74,,68,68,7,10,4,4,0.1,0.2
2025-10-23T1400,2570A,101.9603,30.0475,甘孜藏族自治州,水桥子,,17,6,7,3,5,52,,36,34,6,11,7,7,0.8,0.7
2025-10-23T1400,3065A,101.9533,29.9972,甘孜藏族自治州,州环保局,,18,,6,6,5,57,,42,42,8,10,5,5,0.8,0.7
2025-10-23T1400,3414A,115.8347,28.932,赣江新区,桑海产业园,,34,34,37,12,18,108,,75,75,10,14,8,8,0.0,0.2
2025-10-23T1400,2362A,114.9017,25.9149,赣州市,通天岩,,39,39,32,20,18,105,,85,85,5,7,18,17,0.4,0.4
2025-10-23T1400,2363A,114.9367,25.8664,赣州市,地委,,46,46,41,21,19,95,,76,76,10,12,6,6,0.6,0.6
2025-10-23T1400,2364A,114.9461,25.8481,赣州市,气象台,,39,39,44,15,16,97,,76,76,8,12,8,7,0.6,0.6
2025-10-23T1400,2365A,114.9322,25.8333,赣州市,市图书馆,,35,35,38,16,21,101,,79,79,9,13,3,4,0.5,0.4
2025-10-23T1400,2366A,114.8905,25.8471,赣州市,华坚鞋城,,35,35,36,15,18,91,,73,73,10,13,5,5,0.5,0.5
2025-10-23T1400,3109A,115.0093,25.8613,赣州市,赣县区卫计委,,43,35,30,30,25,103,,80,80,4,6,7,7,0.5,0.5
2025-10-23T1400,2683A,106.2319,36.1417,固原市,马园,,,,,,,,,,,,,,,,
2025-10-23T1400,2684A,106.2792,36.0022,固原市,监测站,,18,18,15,12,11,28,,31,28,9,11,4,4,0.6,0.6
2025-10-23T1400,2685A,106.2375,36.0211,固原市,新区,,19,17,16,13,10,26,,28,23,10,12,3,3,0.4,0.4
2025-10-23T1400,3522A,106.2177,35.9959,固原市,原州区十五小,,22,22,18,15,11,27,,27,22,10,14,5,5,0.7,0.7
2025-10-23T1400,2543A,106.6308,30.5278,广安市,小平旧居,,,,,,,,,,,,,,,,
2025-10-23T1400,2544A,106.6303,30.4576,广安市,市委,,29,29,20,18,14,53,,34,34,10,11,4,4,0.5,0.6
2025-10-23T1400,2545A,106.6271,30.4663,广安市,友谊中学,,28,28,17,16,10,55,,37,37,11,12,5,5,0.4,0.8
2025-10-23T1400,2547A,106.6388,30.4551,广安市,广电花园,,21,21,17,14,10,48,,30,30,13,13,9,8,0.5,0.6
2025-10-23T1400,2902A,106.6351,30.4865,广安市,北辰小学,,25,25,17,14,10,55,,33,33,9,10,8,7,0.5,0.5
2025-10-23T1400,2523A,105.8945,32.4535,广元市,黑石坡,,,,,,,,,,,,,,,,
2025-10-23T1400,2524A,105.821,32.4444,广元市,老城,,15,15,12,8,4,36,,36,35,13,12,4,4,0.6,0.6
2025-10-23T1400,2526A,105.8628,32.4287,广元市,监测站,,13,13,13,7,11,33,,30,29,12,13,3,3,0.7,0.7
2025-10-23T1400,3617A,105.8047,32.4166,广元市,经开区,,11,8,8,3,4,34,,29,26,10,13,2,2,0.5,0.5
2025-10-23T1400,1345A,113.2347,23.1423,广州市,广雅中学,,28,28,24,18,14,68,,51,51,15,23,7,6,0.8,0.6
2025-10-23T1400,1346A,113.2612,23.105,广州市,市五中,,28,28,20,18,13,82,,64,64,19,23,7,6,0.7,0.7
2025-10-23T1400,1348A,113.3478,23.0916,广州市,广东商学院,,26,24,17,17,15,81,,63,63,15,19,5,5,0.2,0.2
2025-10-23T1400,1349A,113.4332,23.1047,广州市,市八十六中,,27,27,19,18,11,71,,54,54,22,21,6,5,0.3,0.4
2025-10-23T1400,1350A,113.3505,22.9483,广州市,番禺中学,,26,26,18,17,10,81,,64,64,11,16,6,6,0.4,0.4
2025-10-23T1400,1351A,113.2146,23.3916,广州市,花都师范,,28,28,27,15,12,73,,51,51,11,14,5,6,0.4,0.4
2025-10-23T1400,1352A,113.2597,23.1331,广州市,市监测站,,28,28,21,14,11,79,,59,59,12,18,7,6,0.8,0.8
2025-10-23T1400,1353A,113.5618,23.312,广州市,九龙镇镇龙,,30,30,17,16,10,69,,55,55,10,12,5,5,0.6,0.6
2025-10-23T1400,1354A,113.2765,23.1544,广州市,麓湖,,26,26,17,15,12,70,,52,52,11,19,7,7,0.3,0.3
2025-10-23T1400,1355A,113.443,23.3035,广州市,帽峰山森林公园,,,,,,,,,,,,,,,,
2025-10-23T1400,2846A,113.3221,23.1322,广州市,体育西,,28,23,17,19,15,75,,39,39,9,16,7,5,0.5,0.5
2025-10-23T1400,3298A,113.5717,23.5491,广州市,从化街口,,26,26,15,15,10,71,,63,63,7,8,7,7,0.5,0.5
2025-10-23T1400,3299A,113.3472,23.3692,广州市,白云竹料,,26,26,17,16,12,79,,65,65,9,10,6,6,0.4,0.4
2025-10-23T1400,3300A,113.2981,23.237,广州市,白云嘉禾,,29,29,20,15,12,79,,63,63,12,14,7,7,0.3,0.3
2025-10-23T1400,3301A,113.4256,23.1716,广州市,黄埔科学城,,27,24,17,17,11,85,,71,71,8,9,5,5,0.5,0.7
2025-10-23T1400,3302A,113.3942,23.0483,广州市,番禺大学城,,25,25,11,12,9,80,,64,64,10,24,4,3,0.4,0.5
2025-10-23T1400,3303A,113.4922,22.8168,广州市,南沙黄阁,,35,33,20,24,11,82,,56,56,18,24,8,7,0.2,0.2
2025-10-23T1400,3304A,113.5342,22.7896,广州市,南沙街,,32,32,17,17,11,81,,53,53,14,19,7,6,0.4,0.4
2025-10-23T1400,3443A,113.2902,23.5544,广州市,花都梯面,,23,19,15,14,11,72,,54,54,6,9,9,9,0.4,0.3
2025-10-23T1400,3445A,113.7858,23.7478,广州市,从化良口,,25,23,15,14,10,80,,70,70,7,8,6,6,0.2,0.2
2025-10-23T1400,3446A,113.8051,23.2614,广州市,增城荔城,,25,18,12,9,9,79,,58,58,8,10,7,6,0.5,0.5
2025-10-23T1400,2505A,109.568,23.1478,贵港市,德智高中,,,,,,,,,,,,,,,,
2025-10-23T1400,2506A,109.6047,23.0666,贵港市,江南子站,,25,24,22,14,13,78,,64,64,5,7,4,4,0.5,0.5
2025-10-23T1400,2508A,109.5669,23.1065,贵港市,荷城子站,,34,34,21,9,9,71,,59,59,8,8,8,4,0.5,0.5
2025-10-23T1400,3405A,109.5886,23.1172,贵港市,新世纪学校,,29,29,24,16,13,78,,64,64,4,4,2,1,0.4,0.4
2025-10-23T1400,4260A,109.5933,23.0951,贵港市,中山路155-3号,,25,22,19,14,12,77,,62,62,4,5,4,3,0.5,0.4
2025-10-23T1400,1439A,106.6899,26.5998,贵阳市,马鞍山,,35,,12,24,14,52,,46,42,6,5,4,3,0.2,0.2
2025-10-23T1400,1441A,106.6243,26.6266,贵阳市,鉴湖路,,49,44,26,34,11,48,,37,35,9,7,4,4,0.5,0.3
2025-10-23T1400,1442A,106.7487,26.6343,贵阳市,燕子冲,,39,27,14,27,14,52,,46,40,7,7,4,4,0.2,0.2
2025-10-23T1400,1443A,106.6555,26.4365,贵阳市,碧云窝,,41,41,30,19,9,52,,43,38,8,9,4,4,0.2,0.2
2025-10-23T1400,1445A,106.7109,26.6027,贵阳市,红边门,,39,27,15,27,12,57,,49,42,13,13,3,2,0.4,0.4
2025-10-23T1400,1446A,106.7164,26.5699,贵阳市,新华路,,,,18,,8,52,,38,38,7,7,9,3,,0.3
2025-10-23T1400,1447A,106.674,26.5424,贵阳市,太慈桥,,,,14,,7,,,50,,,8,,2,,0.3
2025-10-23T1400,1552A,106.805,26.3003,贵阳市,桐木岭,,34,34,30,20,18,72,,47,47,2,2,5,4,0.4,0.5
2025-10-23T1400,4230A,106.6882,26.5695,贵阳市,花果园大街66号,,30,24,10,21,13,54,,44,38,6,7,1,1,0.3,0.3
2025-10-23T1400,4231A,106.6873,26.5169,贵阳市,漓江路57号,,28,27,16,19,11,54,,47,40,6,6,8,7,0.2,0.3
2025-10-23T1400,1862A,110.4144,25.3167,桂林市,电子科大尧山校区,,,,,,,,,,,,,,,,
2025-10-23T1400,1864A,110.3089,25.2708,桂林市,龙隐路小学,,40,40,25,20,21,77,,66,66,6,6,5,5,0.3,0.3
2025-10-23T1400,1865A,110.2869,25.2178,桂林市,八中,,,40,25,22,20,79,,66,66,8,8,7,8,,0.3
2025-10-23T1400,3531A,110.296,25.1253,桂林市,旅游学院,,28,24,18,17,14,87,,77,77,7,8,4,3,0.5,0.5
2025-10-23T1400,4222A,110.1835,25.2444,桂林市,环湖路276号,,32,29,24,22,20,74,,64,64,8,8,6,6,0.1,0.1
2025-10-23T1400,4301A,110.2803,25.2773,桂林市,信义路13号,,35,35,28,22,18,76,,64,64,6,7,6,6,0.4,0.4
2025-10-23T1400,2674A,100.2561,34.4714,果洛藏族自治州,玛沁县大武镇,,25,21,32,6,20,79,,83,79,2,4,5,10,0.4,0.3
2025-10-23T1400,1129A,126.5422,45.755,哈尔滨市,岭北,,,,,,,,,,,,,,,,
2025-10-23T1400,1130A,126.561,45.8167,哈尔滨市,松北商大,,23,18,42,12,30,73,,41,41,8,37,4,5,0.3,0.6
2025-10-23T1400,1131A,126.979,45.5419,哈尔滨市,阿城会宁,,,,71,,42,,,38,,,43,,13,,0.7
2025-10-23T1400,1132A,126.599,45.7222,哈尔滨市,南岗学府路,,26,26,42,6,16,74,,42,42,10,35,10,10,0.2,0.3
2025-10-23T1400,1133A,126.689,45.7733,哈尔滨市,太平宏伟公园,,41,41,45,20,28,72,,44,44,9,29,10,10,0.2,0.5
2025-10-23T1400,1134A,126.635,45.7667,哈尔滨市,道外承德广场,,33,33,53,12,22,70,,42,42,12,30,8,8,0.2,0.5
2025-10-23T1400,1135A,126.685,45.7319,哈尔滨市,香坊红旗大街,,22,22,44,12,21,70,,48,48,18,40,5,6,0.3,0.5
2025-10-23T1400,1136A,126.6411,45.7258,哈尔滨市,动力和平路,,23,14,36,10,22,73,,48,48,9,31,6,8,0.3,0.5
2025-10-23T1400,1137A,126.593,45.7478,哈尔滨市,道里建国路,,24,24,40,16,27,72,,46,46,10,38,8,8,0.6,0.3
2025-10-23T1400,1138A,126.615,45.61,哈尔滨市,平房东轻厂,,28,28,62,18,35,61,,36,36,21,53,12,14,0.3,0.6
2025-10-23T1400,1139A,126.595,45.9855,哈尔滨市,呼兰师专,,25,25,40,6,32,70,,47,47,8,27,4,7,0.3,0.4
2025-10-23T1400,1140A,126.6206,45.6842,哈尔滨市,省农科院,,21,21,57,10,33,63,,40,40,15,44,12,13,0.4,0.6
2025-10-23T1400,2688A,93.5128,42.8172,哈密市,地区监测站,颗粒物(PM10),55,60,86,22,30,78,,46,46,10,34,9,8,0.0,0.3
2025-10-23T1400,2689A,93.4961,42.8328,哈密市,哈密师范学校,,46,46,80,25,31,80,,39,39,11,39,16,12,0.4,0.8
2025-10-23T1400,2671A,100.9048,36.9639,海北藏族自治州,海晏县西海镇,,,,29,10,22,88,,74,69,4,9,6,8,,0.6
2025-10-23T1400,3867A,102.0738,36.5056,海东市,平安区公安北苑,,34,34,38,10,22,67,,66,55,11,10,13,13,0.9,1
2025-10-23T1400,1409A,110.576,19.9507,海口市,东寨港,,,,,,,,,,,,,,,,
2025-10-23T1400,1410A,110.3232,20.0574,海口市,海南大学,,27,27,22,14,9,50,,45,41,7,6,6,5,0.4,0.3
2025-10-23T1400,1411A,110.283,20.0053,海口市,秀英海南医院,,21,21,19,14,10,44,,44,36,14,9,7,6,0.3,0.3
2025-10-23T1400,1412A,110.338,19.9969,海口市,海南师范大学,,20,18,18,10,9,64,,49,49,5,7,5,5,0.4,0.4
2025-10-23T1400,1413A,110.33,20.0356,海口市,龙华路环保局宿舍,,20,18,18,11,9,64,,46,45,7,8,6,6,0.1,0.2
2025-10-23T1400,3539A,110.5111,19.9736,海口市,桂林洋子站,,23,23,22,11,9,61,,48,48,6,7,5,5,0.3,0.3
2025-10-23T1400,2673A,100.6188,36.2866,海南藏族自治州,共和县恰卜恰镇,,27,,29,14,16,85,,84,72,2,9,16,14,0.5,0.6
2025-10-23T1400,2676A,97.3731,37.3753,海西蒙古族藏族自治州,德令哈市,,41,41,35,3,18,99,,75,75,2,12,15,18,0.4,0.5
2025-10-23T1400,1048A,114.5302,36.6116,邯郸市,东污水处理厂,细颗粒物(PM2.5),95,,55,71,60,50,,32,32,29,40,16,21,0.6,0.6
2025-10-23T1400,1049A,114.4918,36.5713,邯郸市,矿院,细颗粒物(PM2.5),94,,56,70,62,56,,33,33,30,47,8,14,0.6,0.6
2025-10-23T1400,1050A,114.484,36.6133,邯郸市,丛台公园,细颗粒物(PM2.5),85,,61,63,54,56,,35,35,29,44,8,10,0.5,0.5
2025-10-23T1400,3458A,114.7895,36.5593,邯郸市,香泉濮院小区,细颗粒物(PM2.5),82,77,72,60,57,55,,30,30,24,38,8,8,0.5,0.6
2025-10-23T1400,3579A,114.50634,36.77178,邯郸市,永年区实验高中,颗粒物(PM10),54,58,63,37,35,61,,44,44,31,42,4,2,0.6,0.6
2025-10-23T1400,3580A,114.20016,36.44293,邯郸市,峰峰矿区临水派出所,细颗粒物(PM2.5),107,,60,80,59,60,,36,36,26,40,8,7,0.7,0.8
2025-10-23T1400,2634A,106.9893,33.1842,汉中市,汉川机床厂子校,,,,,,,,,,,,,,,,
2025-10-23T1400,2635A,107.0154,33.0706,汉中市,市监测站,,39,33,19,27,13,48,,45,40,9,7,4,4,0.5,0.4
2025-10-23T1400,2636A,107.0089,33.1138,汉中市,鑫源开发区,,31,31,19,20,15,47,,41,38,9,9,4,4,0.7,0.6
2025-10-23T1400,2637A,107.007,33.0323,汉中市,南郑大河坎水厂,,36,27,19,25,17,42,,40,37,11,9,9,8,0.5,0.5
2025-10-23T1400,1223A,120.2072,30.2111,杭州市,滨江,,35,35,37,13,13,94,,72,72,21,27,10,10,0.6,0.6
2025-10-23T1400,1224A,120.0633,30.2747,杭州市,西溪,,29,28,32,9,13,92,,73,73,12,20,8,8,0.3,0.4
2025-10-23T1400,1226A,120.3417,30.3150,杭州市,下沙,,31,29,30,14,13,99,,77,77,14,21,10,10,0.3,0.3
2025-10-23T1400,1227A,120.1269,30.2456,杭州市,卧龙桥,,29,29,32,13,15,91,,71,71,14,19,9,9,0.4,0.5
2025-10-23T1400,1228A,120.1903,30.2692,杭州市,浙江农大,,31,28,32,16,17,97,,70,70,18,27,7,7,0.4,0.4
2025-10-23T1400,1230A,120.1197,30.3119,杭州市,和睦小学,,31,26,29,13,15,99,,74,74,10,19,7,8,0.5,0.5
2025-10-23T1400,1231A,120.3019,30.4183,杭州市,临平镇,,35,35,35,13,14,98,,76,76,14,18,7,7,0.3,0.2
2025-10-23T1400,1232A,120.2753,30.1839,杭州市,城厢镇,,36,36,35,17,18,100,,77,77,21,26,6,7,0.4,0.4
2025-10-23T1400,1233A,120.0883,30.1808,杭州市,云栖,,30,26,30,12,16,96,,77,77,18,24,6,6,0.4,0.5
2025-10-23T1400,3557A,119.9464,30.0494,杭州市,镇二中,,27,24,32,10,14,85,,72,72,11,16,5,6,0.4,0.5
2025-10-23T1400,3558A,119.7183,30.2367,杭州市,市府大楼,,32,21,30,11,16,101,,72,72,8,15,9,9,0.3,0.3
2025-10-23T1400,3656A,120.1556,30.2864,杭州市,消防大队,,33,33,34,16,17,93,,71,71,17,26,10,10,0.2,0.2
2025-10-23T1400,1270A,117.1959,31.7848,合肥市,明珠广场,,32,22,28,12,13,101,,78,78,13,18,7,6,0.3,0.5
2025-10-23T1400,1271A,117.3072,31.8764,合肥市,三里街,,30,19,28,3,12,95,,68,68,10,20,6,6,0.3,0.4
2025-10-23T1400,1272A,117.2588,31.8707,合肥市,琥珀山庄,,32,22,29,8,15,102,,76,76,6,16,5,5,0.3,0.3
2025-10-23T1400,1273A,117.1604,31.9052,合肥市,董铺水库,,,,,,,,,,,,,,,,
2025-10-23T1400,1274A,117.25,31.8571,合肥市,长江中路,,32,27,35,6,14,102,,76,76,8,15,6,5,0.3,0.4
2025-10-23T1400,1275A,117.266,31.9436,合肥市,庐阳区,,31,22,34,3,15,99,,73,73,10,21,4,4,0.3,0.3
2025-10-23T1400,1276A,117.3453,31.8616,合肥市,瑶海区,,31,12,27,3,11,97,,73,73,11,20,7,7,0.3,0.3
2025-10-23T1400,1277A,117.3027,31.7964,合肥市,包河区,,29,22,32,3,12,90,,64,64,12,42,4,5,0.3,0.4
2025-10-23T1400,1278A,117.2776,31.7385,合肥市,滨湖新区,,32,22,30,12,17,101,,80,80,7,15,3,3,0.4,0.4
2025-10-23T1400,1279A,117.1318,31.8403,合肥市,高新区,,32,29,35,11,18,100,,72,72,9,25,4,5,0.4,0.6
2025-10-23T1400,3464A,117.3803,31.9147,合肥市,高教基地,,31,19,27,7,12,98,,71,71,10,15,6,6,0.4,0.4
2025-10-23T1400,3614A,79.924,37.0877,和田地区,地区环保局,颗粒物(PM10),106,161,160,78,62,105,,71,71,12,24,14,8,0.8,0.8
2025-10-23T1400,3615A,79.9131,37.113,和田地区,市环保局,颗粒物(PM10),117,183,220,66,68,98,,46,46,15,45,11,10,0.1,1.2
2025-10-23T1400,2516A,108.2011,24.715,河池市,东仁乐园,,,,,,,,,,,,,,,,
2025-10-23T1400,2517A,108.0497,24.6947,河池市,市环保站,,23,18,11,13,7,72,,66,66,6,6,6,6,0.6,0.6
2025-10-23T1400,2518A,108.0983,24.6989,河池市,市疾控中心,,21,11,9,9,9,65,,59,59,6,6,8,8,0.5,0.5
2025-10-23T1400,1696A,114.6778,23.7569,河源市,源西,,,,,,,,,,,,,,,,
2025-10-23T1400,1697A,114.6944,23.7586,河源市,东埔,,28,26,16,19,30,78,,67,67,8,10,5,4,0.7,0.6
2025-10-23T1400,1698A,114.6892,23.7233,河源市,老城,,29,29,18,15,12,81,,69,69,6,8,6,5,0.5,0.5
2025-10-23T1400,1718A,115.4208,35.2464,菏泽市,气象局,细颗粒物(PM2.5),99,113,115,74,74,104,,53,53,31,33,10,8,0.6,0.6
2025-10-23T1400,3374A,115.5564,35.0891,菏泽市,定陶老年大学,细颗粒物(PM2.5),89,97,89,66,59,105,,67,67,25,37,20,14,0.5,0.6
2025-10-23T1400,4184A,115.4797,35.24401,菏泽市,永昌路1号,细颗粒物(PM2.5),87,100,104,64,67,95,,53,53,27,33,12,10,0.6,0.6
2025-10-23T1400,4193A,115.4715,35.2800,菏泽市,长城路999号,细颗粒物(PM2.5),73,90,109,53,66,86,,45,45,33,41,16,17,0.7,0.7
2025-10-23T1400,2514A,111.5264,24.4172,贺州市,环保小区,,25,21,20,7,13,78,,65,65,6,8,5,5,0.4,0.4
2025-10-23T1400,2515A,111.5608,24.4078,贺州市,政协大楼,,22,11,26,11,13,68,,55,55,11,10,4,4,0.3,0.3
2025-10-23T1400,3534A,111.4744,24.4553,贺州市,西湾,,24,22,17,9,13,74,,62,62,6,7,3,3,0.4,0.4
2025-10-23T1400,2385A,114.17,35.9019,鹤壁市,市监测站,细颗粒物(PM2.5),94,88,78,70,56,39,,20,20,39,38,8,6,1.0,0.9
2025-10-23T1400,2386A,114.2956,35.7511,鹤壁市,市交警支队,细颗粒物(PM2.5),88,96,87,65,48,32,,16,16,47,47,13,8,1.2,0.8
2025-10-23T1400,2387A,114.2878,35.7306,鹤壁市,迎宾馆,细颗粒物(PM2.5),93,112,94,69,48,34,,18,18,43,41,16,9,1.2,0.8
2025-10-23T1400,3474A,114.2617,35.6822,鹤壁市,大新区,细颗粒物(PM2.5),92,84,70,68,44,35,,19,19,43,36,12,7,1.1,0.7
2025-10-23T1400,3596A,114.1572,35.9603,鹤壁市,南山宾馆,细颗粒物(PM2.5),87,95,86,64,54,44,,23,23,34,34,7,7,0.8,0.6
2025-10-23T1400,2244A,130.2537,47.3416,鹤岗市,哈啤分公司,,25,10,22,7,13,80,,77,77,1,5,10,10,0.3,0.4
2025-10-23T1400,2245A,130.2684,47.3086,鹤岗市,斯达机电,,25,9,20,9,12,78,,73,73,3,7,10,10,0.4,0.4
2025-10-23T1400,2246A,130.3114,47.3388,鹤岗市,东山纸板厂,,25,23,46,12,16,80,,68,68,3,18,9,11,0.4,0.6
2025-10-23T1400,2247A,130.1097,47.3382,鹤岗市,五号水库,,,,,,,,,,,,,,,,
2025-10-23T1400,2263A,127.4833,50.2524,黑河市,交通局,,23,18,25,13,17,72,,62,62,8,13,5,4,0.5,0.5
2025-10-23T1400,2264A,127.5144,50.2341,黑河市,环保局,,24,24,23,9,14,59,,58,58,18,13,18,6,0.4,0.4
2025-10-23T1400,2265A,127.5291,50.2472,黑河市,大黑河岛,,,,,,,,,,,,,,,,
2025-10-23T1400,1074A,115.6838,37.7541,衡水市,电机北厂,细颗粒物(PM2.5),67,73,66,48,50,3,,1,1,46,43,9,8,0.6,0.5
2025-10-23T1400,1075A,115.6303,37.7316,衡水市,市监测站,细颗粒物(PM2.5),64,56,55,46,45,7,,6,6,47,46,7,8,0.5,0.5
2025-10-23T1400,3188A,115.6683,37.7217,衡水市,市城管局,,,79,59,50,43,12,,23,14,48,45,,8,0.6,0.5
2025-10-23T1400,3459A,115.5989,37.5491,衡水市,地表水厂,细颗粒物(PM2.5),79,64,67,58,48,17,,16,16,41,48,6,7,0.5,0.5
2025-10-23T1400,2456A,112.5003,26.9167,衡阳市,原169医院,,,,,,,,,,,,,,,,
2025-10-23T1400,2457A,112.6194,26.9258,衡阳市,衡阳化工总厂,,30,,40,20,22,95,,74,74,13,17,6,7,0.7,0.7
2025-10-23T1400,2458A,112.6211,26.8956,衡阳市,珠晖区环保局,,41,41,31,19,20,93,,71,71,20,21,9,9,0.8,0.8
2025-10-23T1400,2459A,112.6197,26.8733,衡阳市,市委党校,,36,36,33,14,15,100,,76,76,7,10,4,4,0.5,0.5
2025-10-23T1400,2460A,112.6006,26.8919,衡阳市,市监测站,,48,48,35,27,21,95,,76,76,10,13,6,5,0.7,0.7
2025-10-23T1400,2461A,112.5664,26.9056,衡阳市,真空机电公司,,40,40,32,15,19,94,,75,75,7,9,7,6,0.6,0.6
2025-10-23T1400,3399A,112.6703,26.882,衡阳市,师范学院,,,,35,,23,,,55,,,15,,7,,0.8
2025-10-23T1400,2608A,103.3772,23.3993,红河哈尼族彝族自治州,污水处理厂,,30,,20,21,21,88,,71,71,6,6,11,8,0.2,0.2
2025-10-23T1400,2609A,103.3861,23.35,红河哈尼族彝族自治州,监测站,,27,17,23,11,19,86,,71,71,2,3,2,2,0.2,0.3
2025-10-23T1400,3038A,103.3758,23.368,红河哈尼族彝族自治州,州图书馆,,29,,16,20,23,84,,70,70,4,5,4,3,0.3,0.3
2025-10-23T1400,1090A,111.6507,40.7517,呼和浩特市,呼市一监,,38,27,19,26,18,74,,45,45,12,18,5,3,0.7,0.7
2025-10-23T1400,1091A,111.6572,40.8033,呼和浩特市,小召,,49,41,22,34,20,68,,53,53,21,22,6,6,0.7,0.6
2025-10-23T1400,1094A,111.7516,40.8369,呼和浩特市,如意水处理厂,,35,30,24,24,18,73,,46,46,15,24,10,9,0.4,0.5
2025-10-23T1400,1095A,111.7276,40.8062,呼和浩特市,二十九中,,33,27,24,23,18,78,,49,49,13,20,8,7,0.6,0.6
2025-10-23T1400,1096A,111.5512,40.7866,呼和浩特市,工大金川校区,,49,49,28,31,18,64,,41,41,21,21,7,6,0.3,0.3
2025-10-23T1400,1097A,111.717,40.7612,呼和浩特市,化肥厂生活区,,33,32,23,23,18,77,,45,45,16,26,6,4,0.4,0.5
2025-10-23T1400,3698A,111.5968,40.8178,呼和浩特市,红旗小学,,46,41,22,32,18,66,,50,50,19,17,3,3,0.5,0.4
2025-10-23T1400,3699A,111.6518,40.8389,呼和浩特市,海东办,,38,31,21,26,17,74,,51,51,18,20,7,6,0.6,0.4
2025-10-23T1400,2192A,119.7594,49.2261,呼伦贝尔市,区环保局,,,,,,,,,,,,,,,,
2025-10-23T1400,3061A,119.7512,49.1577,呼伦贝尔市,国华电力东,,22,11,24,6,15,70,,40,40,8,18,5,5,0.6,0.6
2025-10-23T1400,1250A,120.0751,30.8669,湖州市,城西水厂,,35,31,30,22,17,112,,86,86,19,22,10,9,0.4,0.5
2025-10-23T1400,2873A,120.0830,30.8929,湖州市,仁皇山新区,,33,28,29,14,14,104,,77,77,15,18,6,7,0.2,0.3
2025-10-23T1400,2907A,120.1844,30.8596,湖州市,吴兴区站,,31,27,30,15,15,98,,66,66,17,27,7,8,0.4,0.4
2025-10-23T1400,3562A,120.4148,30.8538,湖州市,南浔区站,,30,30,28,16,14,96,,75,75,20,20,10,10,0.4,0.4
2025-10-23T1400,1607A,120.9049,40.7211,葫芦岛市,龙港区,颗粒物(PM10),53,55,66,12,33,82,,54,54,14,38,25,19,0.4,0.8
2025-10-23T1400,1608A,120.8392,40.7514,葫芦岛市,化工街,,24,24,76,3,28,75,,47,47,9,46,10,33,0.4,0.6
2025-10-23T1400,1609A,120.8341,40.7073,葫芦岛市,新区,,30,30,57,6,28,78,,50,50,12,48,13,14,0.5,0.7
2025-10-23T1400,1610A,120.8695,40.7677,葫芦岛市,东城区,,30,30,64,6,32,82,,60,60,12,44,13,19,0.5,0.8
2025-10-23T1400,2482A,109.5981,27.5721,怀化市,林科所,,,,,,,,,,,,,,,,
2025-10-23T1400,2483A,109.9453,27.5444,怀化市,河西地税局,,33,33,33,21,23,81,,61,61,9,9,2,6,0.3,0.3
2025-10-23T1400,2484A,109.9781,27.5342,怀化市,市四医院,,35,35,43,21,27,97,,63,63,6,7,9,8,0.1,0.2
2025-10-23T1400,2485A,109.9972,27.5578,怀化市,监测楼,,30,30,37,19,24,96,,62,62,4,7,4,3,0.1,0.2
2025-10-23T1400,2486A,110.0394,27.583,怀化市,市委党校,,37,37,38,19,25,93,,60,60,8,11,14,13,0.0,0.1
2025-10-23T1400,1210A,119.036,33.5981,淮安市,钵池山,,28,22,34,15,18,89,,57,57,12,26,8,8,0.3,0.5
2025-10-23T1400,1211A,119.007,33.575,淮安市,北京南路,,29,27,32,16,15,91,,60,60,12,26,8,8,0.3,0.4
2025-10-23T1400,1212A,118.989,33.6067,淮安市,市监测站,,,22,31,12,19,96,,51,51,13,34,,7,0.6,0.8
2025-10-23T1400,1213A,119.135,33.5039,淮安市,楚州区监测站,,30,29,36,10,17,96,,63,63,10,24,10,9,0.3,0.5
2025-10-23T1400,3426A,118.8755,33.2894,淮安市,新华书店,,28,27,37,16,20,89,,60,60,17,29,9,10,0.5,0.6
2025-10-23T1400,4206A,119.0288,33.6319,淮安市,承德北路606号,,30,29,37,17,18,93,,57,57,11,29,8,7,0.3,0.5
2025-10-23T1400,2282A,116.8004,33.975,淮北市,监测站,,36,36,61,20,33,104,,65,65,19,32,10,10,0.7,0.8
2025-10-23T1400,2283A,116.8091,33.9007,淮北市,烈山区政府,,34,33,51,18,35,107,,73,73,13,29,10,10,0.4,0.6
2025-10-23T1400,3330A,116.8873,33.9836,淮北市,杜集区检察院,,34,34,61,18,39,106,,68,68,14,26,5,6,0.2,0.4
2025-10-23T1400,4017A,116.7923,33.9535,淮北市,市博物馆,,32,31,61,19,38,101,,71,71,16,31,10,10,0.4,0.5
2025-10-23T1400,2277A,116.8305,32.7727,淮南市,潘集区政府,,44,44,53,24,33,104,,73,73,10,26,6,6,0.3,0.4
2025-10-23T1400,2279A,116.8569,32.5951,淮南市,谢家集区政府,,35,35,36,21,21,109,,68,68,12,18,9,9,0.3,0.3
2025-10-23T1400,2280A,116.8281,32.633,淮南市,八公山区政府,,35,35,44,18,22,108,,69,69,12,17,8,8,0.3,0.3
2025-10-23T1400,2281A,116.6325,32.6201,淮南市,焦岗湖风景区管理处,,,,,,,,,,,,,,,,
2025-10-23T1400,2894A,117.0566,32.6531,淮南市,经济技术开发区消防队,,43,43,48,19,20,99,,63,63,13,27,9,10,0.1,0.2
2025-10-23T1400,3329A,117.0108,32.5893,淮南市,山南新区,,35,35,38,9,7,112,,83,83,17,24,5,5,0.1,0.1
2025-10-23T1400,4209A,117.0031,32.6445,淮南市,国庆中路369号,,35,28,42,22,25,111,,68,68,13,25,7,6,0.2,0.3
2025-10-23T1400,2446A,114.9028,30.4742,黄冈市,职工中心,,35,25,28,14,15,112,,79,79,9,12,4,4,0.4,0.4
2025-10-23T1400,2929A,114.8858,30.4519,黄冈市,红卫路,,36,24,25,17,16,115,,88,88,7,11,4,5,0.4,0.2
2025-10-23T1400,3398A,114.9136,30.4445,黄冈市,市林业局,,36,28,26,15,18,115,,86,86,9,10,3,3,0.3,0.3
2025-10-23T1400,2672A,102.0199,35.5102,黄南藏族自治州,同仁县隆务镇,,25,25,31,14,17,72,,61,60,8,6,10,10,0.4,0.4
2025-10-23T1400,2295A,118.2903,29.6963,黄山市,延安路89号,,33,27,35,15,14,105,,81,81,4,6,3,4,0.2,0.3
2025-10-23T1400,2297A,118.1371,30.2756,黄山市,黄山区政府5号楼,,32,19,28,17,17,100,,70,70,4,6,6,5,0.3,0.4
2025-10-23T1400,4210A,118.3354,29.7203,黄山市,滨江东路7-2号,,40,40,39,3,14,100,,75,75,5,9,4,4,0.2,0.3
2025-10-23T1400,2423A,115.0601,30.2313,黄石市,沈家营,,35,25,29,8,12,112,,78,78,9,10,9,8,0.4,0.4
2025-10-23T1400,2426A,114.8988,30.2019,黄石市,铁山,,33,31,35,12,15,105,,82,82,4,18,5,4,0.4,0.5
2025-10-23T1400,2427A,115.0307,30.2092,黄石市,团城山,,34,23,29,8,14,107,,72,72,3,11,7,7,0.2,0.2
2025-10-23T1400,3149A,115.0235,30.1578,黄石市,笔架山北路,,33,29,45,3,13,103,,72,72,2,16,6,7,0.3,0.4
2025-10-23T1400,4185A,115.0780,30.21118,黄石市,磁湖东路29号,,33,20,31,16,17,104,,76,76,8,13,9,8,0.4,0.5
2025-10-23T1400,1392A,114.4183,23.0528,惠州市,河南岸金山湖子站,,,,14,,7,,,41,,,13,,9,,0.5
2025-10-23T1400,1393A,114.4053,23.0822,惠州市,下埔横江三路子站,,27,27,16,15,10,84,,64,64,9,11,5,5,0.5,0.4
2025-10-23T1400,1394A,114.4103,23.1142,惠州市,江北云山西路子站,,30,30,17,15,10,87,,68,68,10,11,6,5,0.6,0.6
2025-10-23T1400,1395A,114.4645,22.7833,惠州市,惠阳区承修路船湖子站,,31,31,20,18,11,80,,62,62,10,11,8,8,0.5,0.5
2025-10-23T1400,1396A,114.5317,22.7422,惠州市,大亚湾管委会子站,,26,26,13,18,8,70,,52,52,12,14,10,9,0.6,0.6
2025-10-23T1400,3314A,114.4338,22.8134,惠州市,惠阳秋长,,31,31,14,15,10,82,,66,66,6,8,8,16,0.5,0.6
2025-10-23T1400,3452A,114.6517,22.775,惠州市,大亚湾霞涌,,33,28,14,23,10,66,,50,50,7,8,7,6,0.3,0.3
2025-10-23T1400,2240A,130.9762,45.3001,鸡西市,环保局,,24,24,54,13,31,72,,53,53,6,22,8,9,0.4,0.6
2025-10-23T1400,2243A,130.9429,45.3039,鸡西市,第一中学,,37,37,55,11,33,72,,56,56,5,19,8,8,0.6,0.7
2025-10-23T1400,3707A,131.0207,45.3073,鸡西市,欧美日汽修厂,,29,29,83,11,51,68,,46,46,7,30,7,14,0.4,0.9
2025-10-23T1400,3709A,130.9967,45.3106,鸡西市,市政设施管理处,,25,24,65,8,33,79,,56,56,7,30,8,10,0.2,0.5
2025-10-23T1400,2367A,114.9754,27.0803,吉安市,红声器材厂,,37,32,41,12,17,117,,90,90,13,17,10,12,0.5,0.5
2025-10-23T1400,2368A,114.9658,27.0999,吉安市,市森林工业局,,37,37,38,16,18,115,,86,86,12,15,7,9,0.4,0.4
2025-10-23T1400,2369A,114.99,27.1312,吉安市,市环境监测站,,36,32,39,13,19,114,,86,86,8,13,6,12,0.3,0.3
2025-10-23T1400,2370A,115.0093,27.0968,吉安市,青原区法院,,42,42,37,15,18,114,,84,84,10,14,9,11,0.6,0.7
2025-10-23T1400,1772A,126.54,43.8622,吉林市,哈达湾,,46,46,54,31,34,84,,53,53,16,30,16,11,0.5,0.6
2025-10-23T1400,1773A,126.5844,43.8358,吉林市,东局子,,42,42,65,24,44,79,,49,49,17,35,20,10,0.6,0.9
2025-10-23T1400,1774A,126.5052,43.8245,吉林市,电力学院,,36,29,70,25,50,84,,44,44,12,37,14,11,0.5,0.9
2025-10-23T1400,1775A,126.6133,43.8972,吉林市,江北,,38,38,80,19,56,82,,63,63,12,42,6,7,0.5,0.9
2025-10-23T1400,1776A,126.555,43.8306,吉林市,江南公园,细颗粒物(PM2.5),53,44,60,37,44,79,,45,45,18,33,12,11,0.4,0.6
2025-10-23T1400,1778A,126.7061,43.7133,吉林市,丰满,细颗粒物(PM2.5),58,41,36,41,32,121,,95,95,16,15,12,10,0.5,0.5
2025-10-23T1400,2868A,126.4739,43.953,吉林市,九站,细颗粒物(PM2.5),84,,82,62,71,78,,39,39,16,46,7,14,0.5,0.8
2025-10-23T1400,1299A,116.9862,36.6114,济南市,科干所,颗粒物(PM10),58,66,51,32,26,74,,43,43,38,44,13,9,0.5,0.5
2025-10-23T1400,1300A,116.9376,36.665,济南市,农科所,颗粒物(PM10),56,61,71,24,25,70,,32,32,34,54,12,10,0.6,0.8
2025-10-23T1400,1301A,117.1265,36.6734,济南市,开发区,颗粒物(PM10),55,59,61,29,32,83,,50,50,28,42,8,5,0.6,0.6
2025-10-23T1400,1303A,117.0624,36.6868,济南市,省种子仓库,颗粒物(PM10),57,63,80,36,31,88,,43,43,27,55,14,10,0.7,0.9
2025-10-23T1400,1304A,116.9489,36.6447,济南市,机床二厂,颗粒物(PM10),59,68,77,37,37,69,,36,36,35,56,13,10,0.7,0.8
2025-10-23T1400,1305A,117.0495,36.663,济南市,市监测站,颗粒物(PM10),53,56,66,34,30,82,,41,41,31,52,8,5,0.8,0.8
2025-10-23T1400,1306A,116.7675,36.5484,济南市,长清党校,颗粒物(PM10),58,66,61,34,27,68,,35,35,38,52,9,9,0.7,0.7
2025-10-23T1400,1616A,117.6795,36.229,济南市,技术学院,,,,33,,22,86,,55,55,10,30,,9,0.4,0.6
2025-10-23T1400,1961A,117.532,36.6868,济南市,东山小学,,42,42,50,22,20,90,,59,59,23,40,10,10,0.3,0.4
2025-10-23T1400,3059A,117.7161,36.2049,济南市,泰兴公司,,29,17,34,9,21,90,,58,58,9,34,7,6,0.3,0.4
2025-10-23T1400,3064A,117.6867,36.2171,济南市,莱芜战役纪念馆,,28,19,43,11,26,87,,61,61,12,30,11,10,0.0,0.2
2025-10-23T1400,3494A,117.1673,36.9782,济南市,济阳区政府,,37,37,55,12,23,82,,56,56,13,26,8,12,0.3,0.4
2025-10-23T1400,3495A,117.1171,36.63,济南市,锦屏中学,,44,44,38,20,19,83,,60,60,28,27,9,5,0.6,0.6
2025-10-23T1400,3682A,116.9814,36.6819,济南市,济南四建,,,51,70,32,31,76,,38,38,23,55,,8,0.6,0.7
2025-10-23T1400,1653A,116.6251,35.4302,济宁市,火炬城,细颗粒物(PM2.5),62,72,72,44,53,92,,52,52,19,38,8,8,0.2,0.3
2025-10-23T1400,1655A,116.5491,35.4042,济宁市,电化厂,,,90,90,,50,98,,48,48,,41,7,7,,0.3
2025-10-23T1400,3500A,116.5814,35.3707,济宁市,北湖一中,细颗粒物(PM2.5),68,70,56,49,49,100,,60,60,20,33,9,4,0.3,0.3
2025-10-23T1400,3501A,116.8249,35.5593,济宁市,服务中心,,42,42,66,14,32,85,,44,44,11,33,7,9,0.2,0.4
2025-10-23T1400,3678A,116.5907,35.4054,济宁市,市第七中学,颗粒物(PM10),63,75,75,41,44,100,,58,58,17,35,10,9,0.3,0.5
2025-10-23T1400,2255A,130.2751,46.8028,佳木斯市,佳纺,,21,18,32,8,15,66,,44,44,8,24,4,5,0.4,0.5
2025-10-23T1400,2256A,130.3995,46.8307,佳木斯市,发电厂,,21,12,31,8,13,66,,51,51,15,16,6,7,0.3,0.3
2025-10-23T1400,2257A,130.3258,46.7975,佳木斯市,环保局,,23,18,29,10,12,71,,44,44,5,23,3,4,0.4,0.4
2025-10-23T1400,2258A,130.3648,46.8032,佳木斯市,十一中,,26,26,24,10,11,72,,52,52,5,17,5,20,0.3,0.4
2025-10-23T1400,2259A,130.3794,46.7588,佳木斯市,四丰,,,,,,,,,,,,,,,,
2025-10-23T1400,1252A,120.7436,30.778,嘉兴市,清河小学,,28,26,33,12,13,87,,66,66,13,21,8,8,0.4,0.5
2025-10-23T1400,1253A,120.726,30.7478,嘉兴市,嘉兴学院,,31,31,32,11,14,90,,70,70,13,22,5,6,0.4,0.9
2025-10-23T1400,2872A,120.7846,30.7525,嘉兴市,南湖区残联,,32,27,36,11,15,101,,78,78,11,20,6,7,0.4,0.5
2025-10-23T1400,3407A,120.6916,30.7739,嘉兴市,秀洲住建,,31,26,34,11,17,99,,76,76,9,17,7,8,0.8,0.9
2025-10-23T1400,1945A,98.2908,39.7711,嘉峪关市,气象局,,,88,96,39,43,115,,56,56,12,25,,11,0.8,0.9
2025-10-23T1400,2884A,98.2672,39.7978,嘉峪关市,酒钢宾馆,颗粒物(PM10),71,92,103,36,44,109,,55,55,11,23,18,18,0.7,0.9
2025-10-23T1400,3248A,98.2643,39.7724,嘉峪关市,雄关区,颗粒物(PM10),59,68,76,30,42,112,,54,54,20,34,16,16,0.0,0.5
2025-10-23T1400,1383A,113.1064,22.6058,江门市,北街,,35,35,20,20,14,83,,56,56,18,22,6,6,0.5,0.5
2025-10-23T1400,1384A,113.0731,22.5835,江门市,西区,,30,30,20,15,11,78,,52,52,17,20,5,5,0.4,0.3
2025-10-23T1400,1385A,113.0219,22.5311,江门市,圭峰西,,28,28,18,19,12,76,,52,52,19,19,6,6,0.6,0.5
2025-10-23T1400,1386A,113.0828,22.5947,江门市,东湖,,,,23,,12,,,41,,,18,,6,,0.2
2025-10-23T1400,3311A,113.1075,22.5647,江门市,江海富民,,33,26,21,23,11,79,,55,55,22,25,8,8,0.4,0.5
2025-10-23T1400,3449A,113.05,22.4667,江门市,新会银湖,,40,32,21,28,13,70,,49,49,21,21,5,5,0.5,0.5
2025-10-23T1400,1830A,113.1992,35.2590,焦作市,影视城,,,,59,,37,,,73,,,16,,10,,0.5
2025-10-23T1400,3335A,113.3137,35.2641,焦作市,马村街道办,,,,78,58,50,119,,69,69,18,23,10,7,0.5,0.4
2025-10-23T1400,3336A,113.2465,35.2373,焦作市,焦作技师学院,细颗粒物(PM2.5),89,97,76,66,52,115,,68,68,23,27,17,12,0.6,0.5
2025-10-23T1400,3477A,113.1656,35.2539,焦作市,中站许衡医院,细颗粒物(PM2.5),82,109,74,60,52,117,,79,79,22,27,11,7,0.5,0.5
2025-10-23T1400,3981A,113.2449,35.1803,焦作市,原李万街道办,细颗粒物(PM2.5),79,92,78,58,48,121,,70,70,17,19,11,10,0.7,0.7
2025-10-23T1400,4264A,113.2340,35.2190,焦作市,新安路1731号,细颗粒物(PM2.5),77,93,80,56,53,113,,68,68,16,20,14,9,0.6,0.5
2025-10-23T1400,4295A,113.2722,35.2121,焦作市,人民路3066号,细颗粒物(PM2.5),73,90,78,53,46,136,,77,77,19,24,15,11,0.5,0.6
2025-10-23T1400,1708A,116.3701,23.5345,揭阳市,新兴,,37,37,21,11,50,57,,43,43,10,12,6,6,0.4,0.5
2025-10-23T1400,1709A,116.3264,23.5443,揭阳市,西马,,31,31,20,13,10,55,,41,41,9,11,3,3,0.6,0.5
2025-10-23T1400,1710A,116.3611,23.5626,揭阳市,东兴,,34,34,23,15,8,51,,39,39,13,15,6,6,0.4,0.4
2025-10-23T1400,1711A,116.4151,23.5294,揭阳市,渔湖,,35,35,22,16,11,60,,43,43,12,17,7,7,0.6,0.7
2025-10-23T1400,3320A,116.403,23.5699,揭阳市,曲溪,,34,34,21,18,12,60,,44,44,8,14,3,4,0.4,0.4
2025-10-23T1400,1944A,102.1692,38.5167,金昌市,天庆家园,颗粒物(PM10),67,83,108,38,66,72,,56,56,14,25,6,6,0.6,0.9
2025-10-23T1400,4022A,102.1647,38.5371,金昌市,金川区人防中心,颗粒物(PM10),65,79,93,38,65,68,,54,54,11,20,5,6,0.6,0.9
2025-10-23T1400,4239A,102.1930,38.5319,金昌市,长春路96号,颗粒物(PM10),57,63,108,34,59,63,,50,50,11,23,7,11,0.5,0.7
2025-10-23T1400,1262A,119.647,29.077,金华市,十五中,,31,18,25,11,15,97,,81,81,6,16,1,3,0.3,0.3
2025-10-23T1400,1263A,119.686,29.1029,金华市,监测站,,33,26,33,11,16,103,,83,83,8,15,2,3,0.3,0.3
2025-10-23T1400,3659A,119.656,29.1131,金华市,气象局,,30,23,30,10,14,96,,80,80,12,22,4,4,0.4,0.4
2025-10-23T1400,1767A,121.1115,41.0879,锦州市,南山,,26,19,51,9,34,81,,52,52,11,38,9,14,0.5,0.8
2025-10-23T1400,1768A,121.0604,40.8428,锦州市,开发区,,25,20,67,15,33,80,,52,52,13,48,8,32,0.4,0.8
2025-10-23T1400,1769A,121.1836,41.1119,锦州市,百股街道,,40,40,56,7,32,84,,57,57,6,31,9,22,0.4,1.1
2025-10-23T1400,1770A,121.1178,41.1222,锦州市,天安街道,,27,26,65,11,39,85,,49,49,7,41,9,16,0.7,1.3
2025-10-23T1400,1771A,121.1303,41.1386,锦州市,北湖公园,,25,19,55,6,28,77,,47,47,9,34,8,13,0.4,0.7
2025-10-23T1400,2160A,112.85,35.5051,晋城市,自来水公司,颗粒物(PM10),57,63,80,36,48,101,,56,56,15,25,9,7,0.3,0.5
2025-10-23T1400,2161A,112.8318,35.4936,晋城市,白云商贸,颗粒物(PM10),63,76,91,27,37,102,,58,58,13,24,6,4,0.2,0.3
2025-10-23T1400,2162A,112.8508,35.4887,晋城市,市环保局,颗粒物(PM10),69,87,87,34,40,104,,59,59,7,17,9,6,0.6,0.7
2025-10-23T1400,2163A,112.8676,35.4897,晋城市,技术学院,,,74,80,31,42,92,,51,51,14,25,,7,0.7,0.8
2025-10-23T1400,2165A,112.8453,35.546,晋城市,白马寺,细颗粒物(PM2.5),53,50,70,37,47,112,,85,85,10,16,9,9,0.5,0.6
2025-10-23T1400,3620A,112.8271,35.4828,晋城市,泽州一中,细颗粒物(PM2.5),62,72,89,44,49,110,,65,65,14,21,6,4,0.4,0.5
2025-10-23T1400,2173A,112.7249,37.7067,晋中市,南都小区,细颗粒物(PM2.5),64,67,66,46,43,96,,42,42,22,39,16,12,1.0,1
2025-10-23T1400,2174A,112.6991,37.6982,晋中市,榆次区政府,细颗粒物(PM2.5),90,95,71,67,55,87,,36,36,28,39,17,10,1.2,1.2
2025-10-23T1400,2865A,112.7195,37.6828,晋中市,榆次三中,颗粒物(PM10),68,85,74,48,45,94,,36,36,19,38,18,12,0.7,0.8
2025-10-23T1400,4200A,112.7478,37.6954,晋中市,迎宾街26号,细颗粒物(PM2.5),70,75,61,51,45,91,,37,37,19,35,13,10,0.8,0.9
2025-10-23T1400,2439A,112.2014,31.0481,荆门市,竹园小学,颗粒物(PM10),54,58,60,36,40,119,,74,74,15,19,2,1,0.0,0.1
2025-10-23T1400,2440A,112.1969,30.9891,荆门市,掇刀,颗粒物(PM10),57,64,63,38,40,123,,82,82,10,10,1,2,0.4,0.4
2025-10-23T1400,2441A,112.2213,31.0386,荆门市,石化一小,,,,66,39,47,112,,66,66,,17,,5,0.5,0.5
2025-10-23T1400,3012A,112.1849,31.0362,荆门市,西山林语,颗粒物(PM10),56,61,60,35,41,115,,76,76,14,14,8,5,0.4,0.5
2025-10-23T1400,3547A,112.1632,31.0138,荆门市,龙泉中学南校,颗粒物(PM10),62,73,55,42,41,122,,91,91,13,13,10,6,0.2,0.4
2025-10-23T1400,1844A,112.2494,30.3197,荆州市,市图书馆,,40,,42,28,34,112,,76,76,15,21,8,8,0.3,0.4
2025-10-23T1400,1845A,112.2008,30.3544,荆州市,市委党校,,46,33,45,32,34,104,,68,68,13,20,10,9,0.4,0.5
2025-10-23T1400,3194A,112.2747,30.3122,荆州市,管委会,,49,37,42,34,34,109,,74,74,9,15,10,9,0.4,0.4
2025-10-23T1400,4268A,112.1722,30.3366,荆州市,学苑路85号,,40,40,43,28,31,118,,80,80,10,14,10,10,0.2,0.2
2025-10-23T1400,2342A,117.3102,29.3867,景德镇市,王港中学,,,,,,,,,,,,,,,,
2025-10-23T1400,2343A,117.2117,29.2933,景德镇市,老干部活动中心,,28,25,24,16,15,87,,68,68,1,5,4,4,0.6,0.7
2025-10-23T1400,2344A,117.1894,29.2789,景德镇市,兽医站,,29,28,29,14,12,91,,72,72,5,7,5,6,0.5,0.5
2025-10-23T1400,2346A,117.2461,29.2956,景德镇市,陶研所,,29,18,22,13,18,92,,66,66,2,5,6,6,0.4,0.5
2025-10-23T1400,4289A,117.1542,29.2566,景德镇市,青少年活动中心,,29,,28,16,17,91,,71,71,4,8,3,3,0.6,0.7
2025-10-23T1400,1803A,115.9872,29.6815,九江市,十里,,39,19,28,12,16,123,,94,94,11,15,5,5,0.5,0.5
2025-10-23T1400,1804A,115.9584,29.7046,九江市,茅山头,,32,,23,3,16,102,,79,79,8,13,4,4,0.5,0.4
2025-10-23T1400,1805A,115.9877,29.7295,九江市,西园,,36,21,27,7,13,114,,90,90,15,21,5,5,0.4,0.4
2025-10-23T1400,1808A,115.9114,29.6038,九江市,综合工业园,,37,20,28,16,19,116,,80,80,12,20,3,3,0.4,0.4
2025-10-23T1400,1809A,116.0721,29.7535,九江市,石化总厂,,,,29,4,17,110,,87,87,17,23,2,2,0.4,0.4
2025-10-23T1400,1810A,115.9773,29.5698,九江市,庐山气象台,,,,,,,,,,,,,,,,
2025-10-23T1400,3190A,116.0254,29.6994,九江市,外国语学校,,,,32,2,17,107,,82,82,13,20,2,2,0.5,0.5
2025-10-23T1400,4253A,116.0102,29.6594,九江市,莲花大道8号,,35,22,33,17,17,109,,84,84,7,11,6,6,0.3,0.3
2025-10-23T1400,4240A,98.4958,39.7339,酒泉市,玉门东路5号,颗粒物(PM10),67,83,93,26,39,100,,46,46,10,23,10,12,0.4,0.7
2025-10-23T1400,4241A,98.5099,39.7506,酒泉市,北大街108号,颗粒物(PM10),70,90,87,24,38,98,,44,44,17,22,8,9,0.6,0.7
2025-10-23T1400,2698A,76.0072,39.4467,喀什地区,巡警大队,颗粒物(PM10),168,285,297,87,96,58,,17,17,48,54,7,6,0.7,1
2025-10-23T1400,2699A,75.9755,39.4694,喀什地区,吾办,颗粒物(PM10),154,257,272,90,103,62,,22,22,44,51,9,7,0.7,1.1
2025-10-23T1400,4027A,75.9483,39.4689,喀什地区,老干局,颗粒物(PM10),149,248,281,65,76,88,,32,32,24,45,4,3,0.5,1
2025-10-23T1400,1824A,114.3389,34.7781,开封市,肿瘤医院,细颗粒物(PM2.5),75,83,89,55,57,113,,60,60,24,40,15,14,0.8,0.8
2025-10-23T1400,1826A,114.2885,34.7965,开封市,世纪星幼儿园,细颗粒物(PM2.5),102,,84,76,65,119,,54,54,25,45,13,11,0.6,0.6
2025-10-23T1400,3147A,114.3438,34.8106,开封市,龙亭公园,细颗粒物(PM2.5),102,,96,76,74,110,,51,51,22,47,14,12,0.8,0.7
2025-10-23T1400,3210A,114.3644,34.7964,开封市,汴京公园,细颗粒物(PM2.5),99,76,97,74,63,112,,55,55,28,47,14,11,0.7,0.6
2025-10-23T1400,3473A,114.2485,34.8306,开封市,技师学院,细颗粒物(PM2.5),99,76,94,74,64,107,,45,45,26,51,15,13,0.8,0.7
2025-10-23T1400,3592A,114.4644,34.7556,开封市,祥符区生态环境局,细颗粒物(PM2.5),119,136,115,90,69,110,,46,46,25,43,12,10,0.7,0.7
2025-10-23T1400,1951A,84.895,45.6094,克拉玛依市,长征新村,颗粒物(PM10),64,78,71,19,21,60,,63,56,26,24,4,3,0.3,0.4
2025-10-23T1400,1952A,84.8988,45.5893,克拉玛依市,南林小区,颗粒物(PM10),61,72,72,21,20,58,,47,40,20,27,5,4,0.4,0.5
2025-10-23T1400,1954A,84.905,44.3396,克拉玛依市,独山子区,颗粒物(PM10),109,168,123,54,39,108,,68,68,31,30,44,10,1.4,0.6
2025-10-23T1400,1955A,85.6979,46.098,克拉玛依市,乌尔禾区商贸楼,颗粒物(PM10),55,59,65,25,16,64,,47,47,14,19,6,6,0.2,0.4
2025-10-23T1400,3612A,85.1045,45.6899,克拉玛依市,白碱滩区新站,颗粒物(PM10),69,87,101,17,27,68,,51,37,17,24,6,6,0.4,0.4
2025-10-23T1400,2697A,76.1454,39.7142,克孜勒苏柯尔克孜自治州,市人民政府,颗粒物(PM10),135,219,226,98,91,98,,74,74,12,20,7,7,0.2,0.2
2025-10-23T1400,3665A,76.1658,39.7157,克孜勒苏柯尔克孜自治州,克州文化中心,颗粒物(PM10),137,224,229,88,83,95,,68,63,9,25,9,9,0.3,0.4
2025-10-23T1400,1450A,102.8204,24.8886,昆明市,呈贡新区,,23,16,18,10,18,71,,56,56,5,10,4,4,0.5,0.7
2025-10-23T1400,1451A,102.6251,24.9608,昆明市,西山森林公园,,,,,,,,,,,,,,,,
2025-10-23T1400,1452A,102.7252,25.0902,昆明市,龙泉镇,,20,16,21,6,11,64,,56,56,9,13,2,2,0.6,0.7
2025-10-23T1400,1453A,102.7266,25.0375,昆明市,东风东路,,22,21,30,10,14,68,,56,56,10,16,3,1,0.4,0.5
2025-10-23T1400,1454A,102.6742,25.0669,昆明市,金鼎山,,21,18,25,12,13,65,,57,57,8,12,1,1,0.4,0.5
2025-10-23T1400,1455A,102.6644,25.0401,昆明市,碧鸡广场,,19,18,24,12,15,59,,56,56,14,19,7,8,0.4,0.5
2025-10-23T1400,3179A,102.7494,25.0119,昆明市,官渡区博物馆,,20,16,20,13,14,63,,53,53,12,21,2,2,0.4,0.5
2025-10-23T1400,3375A,102.8017,24.8336,昆明市,青年创业园,,23,,14,9,11,71,,59,59,3,9,4,2,0.5,0.5
2025-10-23T1400,3550A,102.7997,24.9786,昆明市,昆明学院,,22,14,23,8,14,69,,60,60,10,14,7,8,0.5,0.6
2025-10-23T1400,3551A,102.5967,24.6736,昆明市,晋宁区生态环境分局,,22,13,14,9,11,68,,68,65,6,8,2,2,0.3,0.4
2025-10-23T1400,3552A,102.6678,24.9856,昆明市,云天化总部,,21,16,22,10,13,65,,61,61,11,15,4,4,0.5,0.6
2025-10-23T1400,1456A,91.1319,29.6514,拉萨市,八廓街,,40,,17,6,10,127,,89,89,2,20,4,5,0.1,0.2
2025-10-23T1400,1457A,91.1221,29.6747,拉萨市,市环保局,,39,8,19,7,10,124,,85,77,5,18,7,8,0.2,0.4
2025-10-23T1400,1458A,91.0874,29.6475,拉萨市,区监测站,,39,,13,6,8,123,,97,86,7,30,3,4,0.3,0.4
2025-10-23T1400,1459A,91.1774,29.6541,拉萨市,西藏大学,,39,6,14,3,8,123,,93,93,7,20,5,6,0.2,0.3
2025-10-23T1400,1460A,90.9798,29.6588,拉萨市,区辐射站,,35,9,20,8,10,109,,88,67,8,23,4,5,0.2,0.3
2025-10-23T1400,1461A,91.0834,29.6292,拉萨市,拉萨火车站,,39,6,10,3,6,123,,113,102,3,11,5,5,0.2,0.2
2025-10-23T1400,2520A,109.2203,23.7256,来宾市,来宾技工学校,,38,28,21,26,11,78,,62,62,6,6,9,8,0.5,0.6
2025-10-23T1400,3535A,109.1781,23.7297,来宾市,兴宾区政府,,26,26,18,16,11,75,,61,61,6,6,8,7,0.4,0.4
2025-10-23T1400,4002A,109.2416,23.7461,来宾市,中南小学,,30,30,23,13,13,74,,58,58,8,9,8,6,0.6,0.5
2025-10-23T1400,1477A,104.1373,35.9454,兰州市,榆中兰大校区,,,,,,,,,,,,,,,,
2025-10-23T1400,1479A,103.831,36.0464,兰州市,铁路设计院,,,,,,,,,,,,,,,,
2025-10-23T1400,3241A,103.7439,36.0842,兰州市,百合公园,,28,28,31,14,18,66,,53,53,6,13,4,7,0.7,0.7
2025-10-23T1400,3242A,103.9611,35.998,兰州市,和平,,23,15,24,6,12,72,,60,60,8,14,3,3,0.4,0.5
2025-10-23T1400,4236A,103.6293,36.0938,兰州市,庄浪东路808号,,32,27,36,22,25,66,,56,56,23,30,7,7,0.6,0.5
2025-10-23T1400,4237A,103.7251,36.1043,兰州市,安宁西路88号,,,34,38,,32,81,,63,63,3,10,2,2,0.4,0.4
2025-10-23T1400,4238A,103.8470,36.0676,兰州市,北滨河东路1号,,32,25,30,22,24,69,,45,45,12,21,8,7,0.5,0.8
2025-10-23T1400,3245A,103.6633,36.533,兰州新区,新区管委会,,29,20,41,12,30,91,,62,62,10,15,4,13,0.2,0.5
2025-10-23T1400,3246A,103.6975,36.4789,兰州新区,舟曲中学,,31,12,28,6,17,98,,67,67,5,16,3,21,0.3,0.5
2025-10-23T1400,1067A,116.6708,39.5111,廊坊市,药材公司,细颗粒物(PM2.5),79,71,68,58,47,54,,24,24,33,45,3,3,0.5,0.6
2025-10-23T1400,1068A,116.7214,39.5589,廊坊市,开发区,细颗粒物(PM2.5),70,70,66,51,49,65,,26,26,26,41,4,3,0.4,0.4
2025-10-23T1400,1070A,116.7244,39.5269,廊坊市,北华航天学院,细颗粒物(PM2.5),77,77,73,56,49,61,,26,26,27,42,9,8,0.4,0.5
2025-10-23T1400,2919A,116.7022,39.5453,廊坊市,河北工业大学,细颗粒物(PM2.5),79,74,72,58,48,61,,27,27,20,41,4,4,0.4,0.5
2025-10-23T1400,2535A,103.7723,29.5462,乐山市,花湖湾,,,,,,,,,,,,,,,,
2025-10-23T1400,2536A,103.7627,29.5844,乐山市,牛耳桥,,18,14,16,12,11,30,,28,28,16,19,6,6,0.5,0.7
2025-10-23T1400,2537A,103.7508,29.6006,乐山市,市第三水厂,,13,11,15,9,8,32,,27,27,16,16,5,5,0.6,0.6
2025-10-23T1400,2538A,103.7571,29.5664,乐山市,市监测站,,15,12,14,10,10,29,,27,27,13,14,5,5,0.6,0.6
2025-10-23T1400,3361A,103.7311,29.5628,乐山市,理工大学,,13,10,13,9,10,33,,32,32,10,15,6,6,0.6,0.6
2025-10-23T1400,2598A,100.2143,26.8576,丽江市,西南郊,,27,20,18,9,9,86,,68,68,2,4,7,8,0.7,0.7
2025-10-23T1400,2599A,100.2497,26.8802,丽江市,丽江古城,,26,26,27,8,6,83,,63,63,9,11,8,10,0.6,0.6
2025-10-23T1400,2600A,100.2203,26.8906,丽江市,市中心,,33,,20,23,16,91,,68,68,8,11,10,12,0.5,0.5
2025-10-23T1400,1267A,119.914,28.4514,丽水市,监测站大楼,,28,26,33,8,15,87,,74,74,11,12,5,5,0.3,0.2
2025-10-23T1400,1268A,119.93,28.4586,丽水市,莲都小学,,35,35,39,12,14,87,,73,73,11,16,4,4,0.3,0.3
2025-10-23T1400,1269A,119.879,28.4231,丽水市,余庄前,,32,32,33,16,16,87,,65,65,10,19,4,4,0.3,0.3
2025-10-23T1400,1173A,119.176,34.5885,连云港市,市环境监测站,,29,24,38,14,19,92,,63,63,11,35,8,10,0.5,0.8
2025-10-23T1400,3000A,119.3581,34.6972,连云港市,德源药业,,44,44,38,9,10,85,,68,68,20,32,6,6,0.1,0.3
2025-10-23T1400,3007A,119.178,34.844,连云港市,新城一中,,40,40,42,15,23,89,,63,63,22,38,8,10,0.5,0.9
2025-10-23T1400,3008A,119.3608,34.7519,连云港市,胡沟管理处,,30,24,22,9,5,95,,78,78,12,16,12,12,0.8,0.8
2025-10-23T1400,3009A,119.1478,34.5911,连云港市,矿山设计院,,30,27,39,7,17,96,,68,68,12,34,4,5,0.5,0.8
2025-10-23T1400,3434A,119.2413,34.6539,连云港市,工贸学校,,30,29,28,15,13,95,,75,75,14,22,10,10,0.5,0.7
2025-10-23T1400,3664A,119.4172,34.7341,连云港市,连云街道,,32,31,27,15,11,101,,80,80,14,21,3,4,0.3,0.3
2025-10-23T1400,2571A,102.3431,27.8099,凉山彝族自治州,青龙寺,,,,,,,,,,,,,,,,
2025-10-23T1400,2572A,102.2721,27.8415,凉山彝族自治州,邛海宾馆,,23,23,18,15,12,66,,46,46,4,10,10,10,0.5,0.6
2025-10-23T1400,2573A,102.2625,27.898,凉山彝族自治州,西昌市政府,,23,22,16,16,13,62,,43,43,6,8,7,6,0.6,0.6
2025-10-23T1400,2574A,102.2685,27.8851,凉山彝族自治州,凉山州政府,,22,21,17,15,14,63,,44,44,4,5,9,8,0.6,0.7
2025-10-23T1400,4229A,102.2342,27.8859,凉山彝族自治州,凯乐南路30号,,25,23,22,17,12,72,,39,39,7,15,7,7,0.5,0.6
2025-10-23T1400,2212A,123.2,41.1953,辽阳市,宏伟区,颗粒物(PM10),54,58,84,27,37,65,,37,37,22,34,7,10,0.4,0.7
2025-10-23T1400,2213A,123.1683,41.2495,辽阳市,新华园,颗粒物(PM10),53,56,80,24,49,64,,36,36,20,37,4,9,0.1,0.8
2025-10-23T1400,2214A,123.2354,41.2639,辽阳市,滨河路,,42,42,81,24,43,67,,38,38,19,35,6,9,0.5,0.8
2025-10-23T1400,2215A,123.149,41.2991,辽阳市,铁西工业园,,43,43,94,26,63,63,,29,29,19,43,6,9,0.4,0.9
2025-10-23T1400,2227A,125.1358,42.8845,辽源市,环保局,颗粒物(PM10),59,68,126,8,62,80,,42,42,12,34,4,5,0.3,0.9
2025-10-23T1400,3239A,125.0764,42.9078,辽源市,银鹰制药,,28,28,98,15,68,87,,51,51,10,34,3,10,0.3,0.7
2025-10-23T1400,1625A,115.9848,36.4372,聊城市,区政府,颗粒物(PM10),59,68,73,33,37,82,,36,36,30,49,18,14,0.7,0.6
2025-10-23T1400,2878A,116.0072,36.4343,聊城市,聊大东校,细颗粒物(PM2.5),72,83,81,52,42,79,,36,36,32,49,21,13,0.9,0.6
2025-10-23T1400,3200A,115.9819,36.4978,聊城市,监控中心,颗粒物(PM10),53,55,77,34,42,87,,38,38,20,49,16,16,0.7,0.7
2025-10-23T1400,3513A,116.0445,36.4361,聊城市,九州社区,颗粒物(PM10),69,87,78,45,36,82,,40,40,27,43,2,11,0.8,0.6
2025-10-23T1400,4018A,116.0567,36.4608,聊城市,星美广场,颗粒物(PM10),65,80,87,34,36,81,,35,35,22,53,19,14,0.7,0.6
2025-10-23T1400,2632A,94.3681,29.6376,林芝市,林芝监测站,,,12,11,3,5,99,,75,75,,3,,3,0.3,0.2
2025-10-23T1400,2633A,94.3616,29.6616,林芝市,林芝人民医院,,31,12,15,3,5,97,,69,69,1,3,4,4,0.3,0.4
2025-10-23T1400,2603A,100.0781,23.8982,临沧市,市环保局,,21,14,20,14,30,67,,45,45,3,5,6,4,0.9,1
2025-10-23T1400,2604A,100.0894,23.8822,临沧市,市气象局,,23,21,20,16,16,65,,45,45,4,6,6,6,0.5,0.6
2025-10-23T1400,1733A,111.5531,36.0783,临汾市,临钢医院,细颗粒物(PM2.5),78,86,80,57,48,49,,22,22,22,31,9,8,1.0,1
2025-10-23T1400,1734A,111.5028,36.0714,临汾市,技工学校,细颗粒物(PM2.5),72,69,88,52,53,47,,19,19,21,37,10,8,0.8,0.9
2025-10-23T1400,1736A,111.5018,36.0855,临汾市,市委,细颗粒物(PM2.5),79,92,99,58,55,47,,20,20,21,36,8,8,0.7,0.8
2025-10-23T1400,3018A,111.505,36.1014,临汾市,唐尧大酒店,,,85,103,57,55,44,,17,17,,32,4,4,0.8,0.9
2025-10-23T1400,4244A,111.4879,36.0530,临汾市,启星学校,细颗粒物(PM2.5),67,64,84,48,50,55,,22,22,23,41,8,7,0.8,0.9
2025-10-23T1400,4271A,103.2464,35.6123,临夏回族自治州,滨河东路1号,,21,21,52,13,26,50,,32,32,9,17,7,6,0.3,0.5
2025-10-23T1400,4310A,103.2093,35.5995,临夏回族自治州,新华街21号,,22,19,39,14,24,68,,55,55,8,14,7,8,0.3,0.5
2025-10-23T1400,1618A,118.3429,35.0532,临沂市,沂河小区,,34,34,42,23,28,91,,68,68,16,21,9,8,0.3,0.4
2025-10-23T1400,1619A,118.295,35.0583,临沂市,鲁南制药厂,,36,36,38,20,22,98,,75,75,17,24,9,8,0.5,0.5
2025-10-23T1400,1620A,118.2794,34.9976,临沂市,新光毛纺厂,,31,31,33,21,23,90,,68,68,20,24,9,8,0.3,0.3
2025-10-23T1400,1621A,118.3956,35.0888,临沂市,河东保险公司,,36,36,45,12,22,97,,68,68,18,30,8,7,0.5,0.6
2025-10-23T1400,3370A,118.3564,35.0215,临沂市,十里堡居委,,,,38,,14,98,,73,73,22,31,,8,0.2,0.3
2025-10-23T1400,3496A,118.3604,35.1084,临沂市,南坊新区,,36,36,42,12,21,97,,71,71,14,28,10,9,0.4,0.5
2025-10-23T1400,3860A,118.3920,35.0300,临沂市,皇山花园小区,,39,39,51,14,25,102,,74,74,13,28,10,9,0.3,0.4
2025-10-23T1400,1870A,109.4856,24.3895,柳州市,柳东小学,,25,18,18,14,12,79,,67,67,4,5,5,5,0.3,0.3
2025-10-23T1400,1871A,109.4157,24.3277,柳州市,环保监测站,,26,26,20,12,10,68,,58,58,6,6,7,7,0.4,0.4
2025-10-23T1400,1872A,109.389,24.341,柳州市,河西水厂,,30,30,29,15,17,66,,50,50,9,19,8,14,0.8,1.4
2025-10-23T1400,1873A,109.4311,24.2921,柳州市,市四中,,32,32,21,13,12,69,,57,57,7,7,8,8,0.2,0.2
2025-10-23T1400,1874A,109.4006,24.3631,柳州市,市九中,细颗粒物(PM2.5),53,,25,37,17,71,,62,62,9,10,3,3,0.3,0.4
2025-10-23T1400,1875A,109.4958,24.3134,柳州市,古亭山,,29,29,19,13,10,76,,61,61,3,3,7,6,0.4,0.4
2025-10-23T1400,3402A,109.5422,24.3996,柳州市,市二中,,26,25,16,16,13,81,,64,64,8,7,8,6,0.3,0.3
2025-10-23T1400,2307A,116.5079,31.737,六安市,监测大楼,,33,22,35,3,20,103,,70,70,10,17,4,3,0.2,0.3
2025-10-23T1400,2308A,116.4738,31.7643,六安市,皖西学院,,35,31,37,7,20,109,,71,71,6,16,3,3,0.3,0.3
2025-10-23T1400,2309A,116.4996,31.7905,六安市,朝阳厂,,31,21,39,7,22,99,,65,65,11,22,5,2,0.2,0.4
2025-10-23T1400,2310A,116.5567,31.7886,六安市,开发区,,33,23,54,11,27,105,,64,64,8,20,2,2,0.2,0.3
2025-10-23T1400,2576A,104.8,26.5892,六盘水市,窑上,,41,41,28,11,16,82,,50,50,4,7,2,2,0.5,0.6
2025-10-23T1400,2577A,104.83,26.5917,六盘水市,黄土坡,,32,,20,22,14,80,,50,50,8,12,5,6,0.7,0.8
2025-10-23T1400,2578A,104.89,26.5939,六盘水市,水钢,,25,24,25,10,13,77,,50,50,6,11,3,4,0.5,0.7
2025-10-23T1400,2579A,104.8475,26.5894,六盘水市,民中,,25,17,19,3,13,78,,46,46,5,12,3,4,0.5,0.7
2025-10-23T1400,2580A,104.9544,26.5506,六盘水市,双水,,23,,21,14,14,72,,50,50,6,9,3,4,0.4,0.5
2025-10-23T1400,2335A,117.0189,25.1181,龙岩市,龙岩师专,,,,,,,,,,,,,,,,
2025-10-23T1400,2336A,117.0217,25.1033,龙岩市,龙岩市监测站,,23,23,14,15,10,73,,61,61,7,8,5,6,0.3,0.3
2025-10-23T1400,2337A,117.0258,25.0661,龙岩市,闽西职业技术学院,,25,18,11,8,6,77,,68,68,2,4,4,4,0.4,0.4
2025-10-23T1400,2338A,117.0196,25.0306,龙岩市,龙岩学院,,24,12,12,11,11,75,,66,66,5,6,10,8,0.4,0.4
2025-10-23T1400,2665A,105.0822,33.3261,陇南市,汉王镇固水子,,,,,,,,,,,,,,,,
2025-10-23T1400,2885A,104.9339,33.3826,陇南市,滨江中学,,36,36,33,12,14,29,,25,21,7,9,6,6,0.7,0.7
2025-10-23T1400,3247A,104.955,33.371,陇南市,市总工会,,25,25,30,11,10,31,,24,20,5,10,6,6,1.0,1
2025-10-23T1400,2487A,111.9589,27.8901,娄底市,电视发射台,,,,,,,,,,,,,,,,
2025-10-23T1400,2488A,111.9975,27.725,娄底市,市监测站,,35,35,35,24,22,108,,91,91,7,14,8,10,0.3,0.3
2025-10-23T1400,2489A,112.0194,27.7314,娄底市,市委党校,,36,36,33,18,21,100,,85,85,8,8,3,2,0.3,0.3
2025-10-23T1400,2490A,111.9561,27.7569,娄底市,涟钢,颗粒物(PM10),51,51,32,21,21,92,,82,82,9,8,8,4,0.7,0.5
2025-10-23T1400,2491A,111.9892,27.7044,娄底市,市政府,,33,25,31,16,22,105,,91,91,7,10,6,6,0.5,0.5
2025-10-23T1400,1893A,105.4324,28.9634,泸州市,九狮山,,,,,,,,,,,,,,,,
2025-10-23T1400,1894A,105.4427,28.9063,泸州市,小市上码头,,23,18,29,8,16,72,,48,48,15,17,7,9,0.7,0.7
2025-10-23T1400,1895A,105.4241,28.8573,泸州市,兰田宪桥,,21,,115,14,15,66,,36,36,6,13,5,5,0.4,0.5
2025-10-23T1400,1896A,105.4379,28.8833,泸州市,市环监站,,19,15,37,7,16,60,,33,33,9,22,8,9,0.4,0.5
2025-10-23T1400,4272A,105.3689,28.7783,泸州市,纳溪中医医院,,21,20,28,9,18,67,,30,30,10,17,6,6,0.5,0.6
2025-10-23T1400,2183A,111.1406,37.5211,吕梁市,环保局,,45,45,76,11,27,61,,21,21,19,48,2,4,0.5,0.6
2025-10-23T1400,2185A,111.1297,37.5136,吕梁市,自来水公司,,41,41,68,14,27,58,,21,21,19,42,2,4,0.6,0.7
2025-10-23T1400,2867A,111.1283,37.51,吕梁市,马茂庄小学,,,,104,15,30,50,,17,17,28,49,,5,0.7,0.7
2025-10-23T1400,1812A,112.3931,34.6516,洛阳市,市委党校,细颗粒物(PM2.5),78,78,83,57,60,100,,43,43,27,43,6,6,0.5,0.6
2025-10-23T1400,1815A,112.494,34.6886,洛阳市,河南林校,细颗粒物(PM2.5),94,86,82,70,63,86,,45,45,36,37,13,11,0.5,0.6
2025-10-23T1400,1816A,112.3844,34.623,洛阳市,开发区管委会,细颗粒物(PM2.5),92,92,88,68,63,99,,48,48,26,36,11,8,0.5,0.7
2025-10-23T1400,1817A,112.4267,34.6258,洛阳市,市委新办公区,,,98,88,43,49,97,,44,44,26,33,11,9,,0.7
2025-10-23T1400,3340A,112.6005,34.6326,洛阳市,伊滨,细颗粒物(PM2.5),85,98,95,63,65,97,,39,39,26,41,10,6,0.4,0.5
2025-10-23T1400,3341A,112.4951,34.6332,洛阳市,中移产业园,细颗粒物(PM2.5),93,90,93,69,65,97,,40,40,30,41,12,9,0.4,0.4
2025-10-23T1400,3593A,112.5736,34.8993,洛阳市,吉利监测站,细颗粒物(PM2.5),88,94,81,65,63,102,,55,55,24,36,12,8,0.4,0.9
2025-10-23T1400,3635A,112.3677,34.662,洛阳市,河科大西苑校区,细颗粒物(PM2.5),82,92,84,60,59,101,,46,46,29,42,12,9,0.7,0.8
2025-10-23T1400,3636A,112.4388,34.6781,洛阳市,英才小学,颗粒物(PM10),87,123,94,41,45,82,,35,35,32,40,12,9,0.5,0.6
2025-10-23T1400,4214A,112.4600,34.6949,洛阳市,春都路1号院,颗粒物(PM10),77,104,85,49,47,71,,36,36,33,35,12,10,0.7,0.8
2025-10-23T1400,2399A,114.051,33.5699,漯河市,三五一五工厂,细颗粒物(PM2.5),82,85,86,60,57,128,,71,71,11,24,11,9,0.5,0.5
2025-10-23T1400,2400A,114.0055,33.5698,漯河市,漯河大学,细颗粒物(PM2.5),77,83,87,56,52,130,,75,75,12,27,10,8,0.5,0.5
2025-10-23T1400,2401A,114.0138,33.5828,漯河市,市水利局,细颗粒物(PM2.5),73,73,88,53,55,124,,70,70,20,28,11,9,0.5,0.6
2025-10-23T1400,2402A,114.0261,33.5698,漯河市,市广电局,细颗粒物(PM2.5),79,81,85,58,52,133,,74,74,9,21,10,8,0.6,0.6
2025-10-23T1400,3478A,113.9749,33.5664,漯河市,市图书馆,细颗粒物(PM2.5),84,96,94,62,52,114,,64,64,15,25,8,6,0.5,0.5
2025-10-23T1400,4250A,114.0892,33.5882,漯河市,韶山路11号,细颗粒物(PM2.5),78,78,88,57,55,124,,64,64,13,36,10,8,0.6,0.6
2025-10-23T1400,1798A,118.5092,31.6837,马鞍山市,湖东路四小,,,,28,,11,98,,76,76,,23,4,4,0.3,0.4
2025-10-23T1400,1799A,118.5024,31.6449,马鞍山市,开发区,,32,26,27,9,10,100,,83,83,11,20,6,6,0.4,0.4
2025-10-23T1400,1802A,118.6245,31.7241,马鞍山市,濮塘,,,,,,,,,,,,,,,,
2025-10-23T1400,3633A,118.4918,31.6809,马鞍山市,雨山,,32,25,30,10,12,100,,74,74,14,24,7,7,0.5,0.6
2025-10-23T1400,4191A,118.5274,31.72227,马鞍山市,慈湖高新区,,31,25,31,11,16,98,,69,69,11,21,3,4,0.3,0.4
2025-10-23T1400,1686A,111.0286,21.4688,茂名市,电白南海,,,27,19,14,10,61,,48,48,8,8,7,8,,0.8
2025-10-23T1400,1687A,110.9294,21.6533,茂名市,茂石化七小,,29,29,20,14,12,53,,42,42,10,12,9,7,0.2,0.3
2025-10-23T1400,1688A,110.9107,21.6687,茂名市,健康路,,28,19,15,19,14,58,,46,46,10,11,15,17,0.7,0.7
2025-10-23T1400,1689A,110.8592,21.6828,茂名市,高岭,,24,24,22,12,7,54,,44,44,10,11,7,6,0.7,0.7
2025-10-23T1400,3450A,111.01,21.5165,茂名市,电白水东,,27,27,13,17,7,58,,46,46,9,9,8,6,0.6,0.6
2025-10-23T1400,2539A,104.0308,30.0478,眉山市,黑龙滩水库,,,,,,,,,,,,,,,,
2025-10-23T1400,2540A,103.8416,30.0874,眉山市,气象局,,20,20,24,7,8,32,,32,31,12,15,6,7,0.4,0.4
2025-10-23T1400,3137A,103.8578,30.0744,眉山市,市委党校,,9,7,8,3,4,28,,34,28,9,14,5,5,0.5,0.5
2025-10-23T1400,3148A,103.8291,30.0564,眉山市,区人社局,,19,19,26,3,4,35,,35,31,13,17,3,3,0.9,0.9
2025-10-23T1400,1690A,116.1231,24.3284,梅州市,梅江月梅,,22,20,15,15,9,67,,55,55,10,10,6,6,0.4,0.4
2025-10-23T1400,1691A,116.0797,24.2719,梅州市,梅县新城,,21,19,14,13,6,65,,54,54,4,6,7,6,0.5,0.5
2025-10-23T1400,1692A,116.1248,24.2654,梅州市,环境监控中心,,21,19,12,14,8,65,,52,52,9,10,4,4,0.5,0.5
2025-10-23T1400,3315A,116.1233,24.2991,梅州市,梅龙,,,,14,,9,,,35,,,7,,6,,0.5
2025-10-23T1400,1878A,104.7778,31.4741,绵阳市,富乐山,,9,6,7,3,5,28,,29,26,6,7,7,7,0.6,0.6
2025-10-23T1400,1880A,104.6697,31.4668,绵阳市,高新区自来水公司,,10,,7,7,6,24,,29,21,12,12,7,7,0.6,0.6
2025-10-23T1400,1881A,104.7287,31.5075,绵阳市,三水厂,,10,8,9,3,7,30,,30,26,5,7,5,5,0.4,0.4
2025-10-23T1400,3491A,104.69,31.5322,绵阳市,西科大附属小学,,8,6,8,3,3,24,,30,24,13,13,9,9,0.2,0.2
2025-10-23T1400,3492A,104.5648,31.5343,绵阳市,安州区旅游局,,10,6,6,3,4,29,,33,27,10,10,8,7,0.5,0.6
2025-10-23T1400,4226A,104.7651,31.4531,绵阳市,绵阳市气象局,,7,6,7,3,5,21,,27,21,8,7,7,14,0.4,0.4
2025-10-23T1400,1784A,129.61,44.561,牡丹江市,环保大楼,,38,34,37,26,25,82,,52,52,8,27,4,7,0.2,0.4
2025-10-23T1400,1785A,129.6115,44.5782,牡丹江市,文化广场,,35,35,43,23,30,79,,50,50,16,31,7,7,0.3,0.4
2025-10-23T1400,1786A,129.5904,44.5963,牡丹江市,第一医院,,45,38,55,31,38,83,,49,49,12,30,3,5,0.4,0.6
2025-10-23T1400,1787A,129.6364,44.6075,牡丹江市,机车工厂,,45,45,58,23,31,84,,48,48,12,28,4,6,0.2,0.6
2025-10-23T1400,1788A,129.6386,44.5462,牡丹江市,第一中学,,38,38,39,25,22,84,,50,50,7,27,2,4,0.2,0.3
2025-10-23T1400,2531A,105.0703,29.61,内江市,市监测站,,25,,28,17,15,48,,20,20,11,13,4,4,0.4,0.4
2025-10-23T1400,2532A,105.0717,29.5947,内江市,东兴区政府,,21,21,17,14,10,47,,22,22,11,13,9,9,0.3,0.3
2025-10-23T1400,2533A,105.0653,29.5817,内江市,内江二中,,25,,19,17,16,46,,23,23,10,12,2,1,0.5,0.6
2025-10-23T1400,2534A,105.0406,29.5822,内江市,内江日报社,,26,26,18,16,14,51,,24,24,10,14,4,4,0.4,0.5
2025-10-23T1400,2628A,92.0657,31.4846,那曲市,那曲监测站,颗粒物(PM10),53,56,50,12,28,113,,76,68,8,23,6,9,0.2,0.6
2025-10-23T1400,4243A,92.0515,31.4787,那曲市,那曲市委宣传部,,36,30,28,3,14,114,,78,69,4,17,3,5,0.2,0.4
2025-10-23T1400,1290A,115.8931,28.6843,南昌市,省外办,,32,31,35,19,23,100,,71,71,11,17,6,6,0.6,0.6
2025-10-23T1400,1291A,115.8886,28.7003,南昌市,省林业公司,,35,24,29,14,20,109,,77,77,11,17,4,4,0.6,0.5
2025-10-23T1400,1292A,115.8126,28.7442,南昌市,林科所,,34,27,30,12,17,106,,77,77,12,14,7,7,0.3,0.4
2025-10-23T1400,1294A,115.8518,28.687,南昌市,建工学校,,34,23,40,20,20,106,,74,74,10,16,11,11,0.3,0.3
2025-10-23T1400,1295A,115.8921,28.6424,南昌市,象湖,,42,42,39,24,21,108,,75,75,12,15,9,9,0.5,0.4
2025-10-23T1400,1296A,115.7423,28.7996,南昌市,武术学校,,,,,,,,,,,,,,,,
2025-10-23T1400,3046A,115.9084,28.6062,南昌市,机电学校,,,48,42,27,21,115,,82,82,10,13,8,8,,0.4
2025-10-23T1400,3690A,115.9721,28.7031,南昌市,外国语学校,,41,41,41,26,26,112,,78,78,16,19,8,8,0.4,0.4
2025-10-23T1400,4192A,115.9316,28.68677,南昌市,南京东路235号,,43,43,41,24,21,110,,77,77,16,19,6,6,0.5,0.5
2025-10-23T1400,1905A,106.056,30.8064,南充市,西山风景区,,,,,,,,,,,,,,,,
2025-10-23T1400,1906A,106.0789,30.8023,南充市,南充市委,,26,24,21,18,15,43,,21,21,10,16,4,4,0.4,0.4
2025-10-23T1400,1907A,106.1031,30.8217,南充市,南充炼油厂,,25,25,28,14,17,43,,19,19,4,8,5,6,0.3,0.4
2025-10-23T1400,4227A,106.1083,30.7884,南充市,梨树横街98号,,20,20,20,3,10,49,,23,23,7,11,4,4,0.3,0.4
2025-10-23T1400,4304A,106.1172,30.843,南充市,清泉寺北路188号,,,,15,,12,,,38,,,8,,6,,0.4
2025-10-23T1400,4305A,106.067,30.7616,南充市,同庆路1号,,15,15,17,7,11,33,,14,14,15,15,6,6,0.4,0.4
2025-10-23T1400,1151A,118.8086,32.1065,南京市,迈皋桥,,29,10,18,3,8,90,,66,66,1,12,4,4,0.4,0.4
2025-10-23T1400,1152A,118.7538,32.0551,南京市,草场门,,28,14,23,3,10,87,,65,65,13,23,2,3,0.2,0.3
2025-10-23T1400,1153A,118.7794,32.0745,南京市,山西路,,32,14,28,3,6,100,,73,73,2,13,4,4,0.5,0.5
2025-10-23T1400,1154A,118.7752,32.0023,南京市,中华门,,33,17,24,3,8,103,,72,72,10,20,3,4,0.3,0.4
2025-10-23T1400,1155A,118.8109,32.0309,南京市,瑞金路,,30,12,21,3,8,95,,69,69,2,8,6,6,0.6,0.6
2025-10-23T1400,1156A,118.7997,32.0754,南京市,玄武湖,,,13,24,,4,89,,65,65,11,14,4,4,0.4,0.5
2025-10-23T1400,1157A,118.6414,32.0931,南京市,浦口,,29,18,26,7,10,92,,71,71,14,20,9,8,0.3,0.7
2025-10-23T1400,1158A,118.7356,31.9996,南京市,奥体中心,,33,17,24,3,9,104,,82,82,10,19,4,4,0.2,0.3
2025-10-23T1400,1159A,118.9125,32.1028,南京市,仙林大学城,,31,31,28,3,5,98,,70,70,6,21,6,7,0.3,0.3
2025-10-23T1400,3422A,118.8436,31.9198,南京市,江宁彩虹桥,,30,28,24,3,8,95,,71,71,7,20,4,5,0.4,0.4
2025-10-23T1400,3427A,118.8554,32.3578,南京市,六合雄州,,35,13,26,3,11,110,,80,80,11,19,6,5,0.1,0.2
2025-10-23T1400,4249A,118.8708,31.3402,南京市,汶溪路181号,,32,,21,8,13,102,,82,82,18,24,3,4,0.4,0.4
2025-10-23T1400,4312A,119.019,31.6512,南京市,中山西路1号,,28,17,21,8,12,87,,68,68,7,14,4,4,0.3,0.4
2025-10-23T1400,1401A,108.3103,22.7881,南宁市,二十一中,,42,42,14,16,8,53,,50,47,13,8,5,4,0.4,0.4
2025-10-23T1400,1402A,108.3141,22.8528,南宁市,北湖,,,28,16,10,10,60,,53,53,,12,7,6,0.4,0.4
2025-10-23T1400,1403A,108.3206,22.8225,南宁市,市监测站,,25,20,18,17,10,52,,49,46,17,12,7,6,0.4,0.5
2025-10-23T1400,1404A,108.3829,22.8037,南宁市,大自然花园,,23,21,15,16,10,61,,52,52,7,7,5,5,0.3,0.3
2025-10-23T1400,1405A,108.4394,22.7904,南宁市,仙葫,,,,,,,,,,,,,,,,
2025-10-23T1400,1406A,108.2397,22.8467,南宁市,区农职院,,20,20,20,13,10,60,,49,48,9,11,4,5,0.7,0.7
2025-10-23T1400,1407A,108.3275,22.735,南宁市,英华嘉园,,21,21,11,14,7,60,,53,53,9,7,2,2,0.4,0.4
2025-10-23T1400,3401A,108.4834,22.7618,南宁市,红星社区,,33,33,15,20,9,66,,56,56,6,7,4,4,0.3,0.2
2025-10-23T1400,4221A,108.2177,22.7774,南宁市,乐贤路16号,,28,28,18,10,11,60,,50,48,9,10,10,9,0.4,0.3
2025-10-23T1400,2331A,118.0966,26.6761,南平市,茫荡山,,,23,15,,,91,,84,84,,,1,1,,
2025-10-23T1400,2332A,118.1681,26.6369,南平市,南平市监测站,,,,17,,9,,,53,50,,11,,3,,0.5
2025-10-23T1400,2333A,118.1825,26.6489,南平市,南平铝业有限公司,,28,28,21,14,11,78,,60,60,7,11,3,3,0.5,0.6
2025-10-23T1400,2334A,118.1756,26.6272,南平市,南平七中,,34,34,20,15,10,77,,56,56,7,10,4,4,0.5,0.5
2025-10-23T1400,1168A,120.9098,31.9663,南通市,狼山街道,,29,16,23,3,9,92,,76,76,6,11,3,4,0.3,0.4
2025-10-23T1400,1169A,120.86,32.0005,南通市,虹桥,,29,12,22,3,9,90,,71,71,6,12,3,5,0.4,0.5
2025-10-23T1400,1170A,120.87,32.02,南通市,城中,,28,22,28,3,9,88,,69,69,10,18,3,5,0.4,0.5
2025-10-23T1400,1171A,120.94,31.93,南通市,星湖花园,,28,17,25,3,10,88,,72,72,7,12,3,4,0.4,0.5
2025-10-23T1400,1172A,120.81,32.0417,南通市,紫琅学院,,28,21,29,3,9,88,,70,70,8,15,3,5,0.3,0.6
2025-10-23T1400,3291A,121.067,32.062,南通市,通州监测站,,31,12,15,3,10,99,,76,76,8,13,1,1,0.1,0.2
2025-10-23T1400,3432A,120.9348,31.9883,南通市,环境教育馆,,30,19,27,3,9,96,,77,77,6,12,3,4,0.2,0.3
2025-10-23T1400,2404A,112.5224,33.0122,南阳市,瓦房庄,细颗粒物(PM2.5),73,84,75,53,43,118,,82,82,12,17,11,10,0.6,0.6
2025-10-23T1400,2405A,112.5003,32.9735,南阳市,汉画馆,细颗粒物(PM2.5),74,70,61,54,42,115,,82,82,17,20,10,10,0.5,0.5
2025-10-23T1400,2406A,112.5573,33.027,南阳市,气象站,细颗粒物(PM2.5),73,79,74,53,43,118,,80,80,16,21,12,10,0.6,0.6
2025-10-23T1400,2407A,112.5481,32.9689,南阳市,理工学院,颗粒物(PM10),69,88,73,25,25,118,,85,85,14,17,14,13,0.6,0.5
2025-10-23T1400,4008A,112.5234,32.9922,南阳市,卧龙区政府,颗粒物(PM10),69,88,68,30,24,115,,81,81,13,19,11,10,0.7,0.6
2025-10-23T1400,1234A,121.8358,29.911,宁波市,区环保大楼,,33,33,31,16,25,97,,80,80,12,15,5,5,0.3,0.4
2025-10-23T1400,1235A,121.56,29.82,宁波市,万里学院,,,25,29,11,15,105,,80,80,10,15,7,7,,0.4
2025-10-23T1400,1236A,121.713,29.9572,宁波市,龙赛医院,,31,31,32,11,7,92,,68,68,12,15,6,6,0.4,0.4
2025-10-23T1400,1239A,121.633,29.7733,宁波市,钱湖水厂,,32,22,30,9,13,100,,71,71,8,14,6,6,0.3,0.4
2025-10-23T1400,1240A,121.5856,29.8635,宁波市,太古小学,,33,28,31,14,14,104,,76,76,8,14,3,4,0.4,0.4
2025-10-23T1400,1241A,121.524,29.8674,宁波市,市环境监测中心,,31,31,31,10,8,96,,69,69,14,20,6,6,0.4,0.5
2025-10-23T1400,2871A,121.6147,29.9017,宁波市,万里国际学校,,34,24,26,11,11,107,,78,78,8,14,4,5,0.2,0.3
2025-10-23T1400,3710A,121.5594,29.8975,宁波市,白沙活动中心,,34,24,27,8,9,108,,80,80,2,8,4,5,0.4,0.5
2025-10-23T1400,2339A,119.5001,26.6946,宁德市,金涵水库,,19,16,17,9,9,60,,34,34,2,3,2,2,0.3,0.3
2025-10-23T1400,2341A,119.5388,26.6612,宁德市,宁德市监测站,,34,34,16,10,10,91,,55,55,8,15,4,5,0.4,0.4
2025-10-23T1400,3209A,119.5231,26.6562,宁德市,宁德一中,,29,20,18,17,11,92,,62,62,6,8,6,5,0.4,0.4
2025-10-23T1400,2618A,98.8601,25.8567,怒江傈僳族自治州,州监测站,,22,18,27,13,17,70,,38,38,6,10,7,6,0.4,0.4
2025-10-23T1400,2619A,98.8546,25.8417,怒江傈僳族自治州,泸水一中,,28,28,22,14,15,61,,28,28,7,16,5,5,0.4,0.6
2025-10-23T1400,1888A,101.6891,26.571,攀枝花市,弄弄坪,,43,43,44,24,22,63,,34,34,15,23,13,16,0.8,0.9
2025-10-23T1400,1889A,101.5769,26.5928,攀枝花市,河门口,,30,30,34,19,21,71,,47,47,11,16,18,22,1.1,1.2
2025-10-23T1400,1890A,101.7169,26.585,攀枝花市,炳草岗,,33,28,44,23,26,69,,38,38,13,26,13,20,0.9,1
2025-10-23T1400,1891A,101.7369,26.5008,攀枝花市,仁和,,23,23,26,16,17,65,,41,41,7,11,7,6,0.7,0.8
2025-10-23T1400,2835A,101.7227,26.567,攀枝花市,四十中小,,38,38,38,24,22,65,,40,40,16,24,16,29,0.9,1
2025-10-23T1400,1604A,122.0303,41.1489,盘锦市,开发区,,23,22,44,9,26,72,,52,52,6,28,1,4,0.3,0.7
2025-10-23T1400,1605A,122.0485,41.0883,盘锦市,兴隆台,,23,23,33,11,19,73,,53,53,10,34,5,7,0.3,0.6
2025-10-23T1400,1606A,121.8297,41.1028,盘锦市,新生街道,,25,25,27,7,15,75,,52,52,10,33,8,8,0.1,0.2
2025-10-23T1400,1832A,113.3257,33.742,平顶山市,新华旅馆,颗粒物(PM10),70,89,86,39,43,107,,63,63,18,28,8,8,0.6,0.5
2025-10-23T1400,1833A,113.2919,33.737,平顶山市,规划设计院,细颗粒物(PM2.5),80,93,87,59,55,106,,64,64,22,33,9,7,0.4,0.4
2025-10-23T1400,1834A,113.182,33.774,平顶山市,平顶山工学院,细颗粒物(PM2.5),73,88,85,53,55,97,,60,60,24,28,10,9,0.5,0.5
2025-10-23T1400,3204A,113.3025,33.73,平顶山市,规划局,颗粒物(PM10),75,100,92,52,47,112,,66,66,17,27,10,10,0.6,0.5
2025-10-23T1400,3594A,112.8867,33.9116,平顶山市,石龙区,"颗粒物(PM10),细颗粒物(PM2.5)",69,87,94,50,52,115,,63,63,17,31,10,8,0.7,0.6
2025-10-23T1400,2656A,106.6692,35.5461,平凉市,聚贤嘉苑,,39,39,38,19,27,23,,17,17,13,18,8,10,0.6,0.6
2025-10-23T1400,2657A,106.7021,35.5307,平凉市,博物馆,,,42,46,19,25,24,,20,20,14,19,,9,0.8,0.9
2025-10-23T1400,2347A,114.0997,27.5002,萍乡市,武功山,,,,,,,,,,,,,,,,
2025-10-23T1400,2348A,113.8385,27.6434,萍乡市,中医院,,32,25,33,18,15,102,,68,68,10,20,2,4,0.3,0.5
2025-10-23T1400,2349A,113.8493,27.6253,萍乡市,市政府车库,,32,31,37,3,20,102,,68,68,10,19,12,13,0.4,0.5
2025-10-23T1400,2350A,113.8676,27.6435,萍乡市,市环保局,颗粒物(PM10),51,51,29,19,17,105,,72,72,4,10,3,5,0.3,0.3
2025-10-23T1400,2351A,113.866,27.6198,萍乡市,安源区政府,,31,31,30,16,19,99,,66,66,9,17,7,8,0.5,0.5
2025-10-23T1400,2319A,119.0141,25.4325,莆田市,荔城区仓后路,,,23,19,10,6,82,,72,72,,8,5,7,0.5,0.6
2025-10-23T1400,2320A,119.0015,25.4553,莆田市,莆田市监测站,,29,26,14,8,4,90,,80,80,6,5,5,4,0.6,0.5
2025-10-23T1400,2321A,119.1119,25.4561,莆田市,涵江区六中,,30,26,15,8,5,94,,82,82,8,8,5,5,0.5,0.5
2025-10-23T1400,2322A,119.1013,25.3215,莆田市,秀屿区政府,,28,26,26,12,8,88,,75,75,10,10,5,5,0.5,0.5
2025-10-23T1400,2323A,118.981,25.4792,莆田市,东圳水库,,32,17,11,12,5,101,,92,92,6,5,6,5,0.3,0.3
2025-10-23T1400,2392A,115.0312,35.7636,濮阳市,环保局,细颗粒物(PM2.5),83,83,90,61,76,28,,14,14,48,53,12,14,0.6,0.8
2025-10-23T1400,2394A,115.0574,35.7609,濮阳市,油田运输公司,细颗粒物(PM2.5),89,109,123,66,79,27,,14,14,52,60,12,13,0.9,1.1
2025-10-23T1400,3021A,115,35.7668,濮阳市,濮水河管理处,细颗粒物(PM2.5),79,106,130,58,93,27,,10,10,39,40,10,9,0.6,0.8
2025-10-23T1400,4216A,115.0924,35.7686,濮阳市,任丘路479号,,,106,130,63,85,28,,13,13,,54,11,12,0.8,0.9
2025-10-23T1400,2601A,100.98,22.7633,普洱市,市环保局,,32,,28,22,16,74,,56,56,5,8,6,6,0.4,0.5
2025-10-23T1400,2602A,100.9817,22.8322,普洱市,普洱第二中学,,19,10,23,9,13,60,,49,,4,5,5,4,0.4,0.4
2025-10-23T1400,2262A,131.0518,45.8751,七台河市,新一中,,,,,,,,,,,,,,,,
2025-10-23T1400,3345A,131.0577,45.7879,七台河市,中波台,,,24,62,14,40,60,,38,38,,31,4,8,0.5,0.7
2025-10-23T1400,3637A,131.0176,45.7761,七台河市,人民广场,,25,23,83,10,43,80,,53,53,7,30,6,8,0.4,0.6
2025-10-23T1400,3684A,130.8781,45.8222,七台河市,新建矿广场,,31,31,78,8,39,66,,45,45,6,30,4,8,0.3,0.5
2025-10-23T1400,1779A,123.9305,47.3636,齐齐哈尔市,安居小区,,24,24,40,12,17,73,,46,46,8,25,2,2,0.3,0.4
2025-10-23T1400,1780A,123.9488,47.3386,齐齐哈尔市,中心广场,,,,34,7,15,74,,47,47,8,27,6,2,,0.5
2025-10-23T1400,1781A,123.9483,47.3227,齐齐哈尔市,农牧车辆厂,,24,24,39,14,14,72,,44,44,9,23,4,4,0.5,0.6
2025-10-23T1400,1783A,123.945,47.2988,齐齐哈尔市,市环境监测站,,30,30,43,7,20,70,,43,43,9,26,9,7,0.4,0.5
2025-10-23T1400,3662A,123.6333,47.2075,齐齐哈尔市,富区青少年活动中心,,40,40,49,7,24,69,,43,43,6,24,5,5,0.5,0.6
2025-10-23T1400,2591A,107.9783,26.5747,黔东南苗族侗族自治州,市环境监测站,,,35,24,25,19,78,,75,75,,5,3,3,0.4,0.4
2025-10-23T1400,2881A,107.8908,26.5311,黔东南苗族侗族自治州,凯里学院,,38,34,19,26,28,71,,68,68,9,9,2,2,0.5,0.4
2025-10-23T1400,2593A,107.5228,26.2403,黔南布依族苗族自治州,小围寨,,,34,13,22,9,76,,68,68,5,3,,3,0.7,0.6
2025-10-23T1400,3538A,107.5175,26.2978,黔南布依族苗族自治州,沙坝,,42,34,17,29,14,72,,64,64,6,5,3,4,0.5,0.4
2025-10-23T1400,2589A,104.9022,25.0925,黔西南布依族苗族自治州,场坝街,,22,11,31,7,21,70,,47,47,8,10,10,20,0.4,0.5
2025-10-23T1400,2590A,104.8811,25.0992,黔西南布依族苗族自治州,坪东大道,,23,12,30,3,25,71,,52,49,7,10,9,10,0.5,0.5
2025-10-23T1400,2502A,108.6236,21.9667,钦州市,市环保站,,29,29,24,9,9,63,,53,53,7,9,3,3,0.6,0.6
2025-10-23T1400,2503A,108.6549,21.9481,钦州市,沙埠小学,,36,36,23,19,9,68,,56,56,6,8,3,3,0.6,0.5
2025-10-23T1400,2504A,108.5989,21.7431,钦州市,港区一小,,,,31,31,18,55,,44,44,,21,6,8,0.4,0.6
2025-10-23T1400,3404A,108.5959,21.9633,钦州市,北职校,,22,22,18,15,12,63,,54,54,4,4,4,4,0.5,0.5
2025-10-23T1400,1043A,119.7493,40.0116,秦皇岛市,第一关,,27,17,26,12,24,84,,61,61,5,42,7,7,0.2,0.3
2025-10-23T1400,1044A,119.5897,39.9499,秦皇岛市,监测站,,33,33,43,7,16,71,,56,56,14,38,7,7,0.2,0.4
2025-10-23T1400,1046A,119.5251,39.9041,秦皇岛市,建设大厦,,42,42,40,12,17,75,,57,57,8,32,5,5,0.2,0.4
2025-10-23T1400,3132A,119.610547,39.943889,秦皇岛市,文明里,,41,41,33,8,19,71,,64,64,10,31,9,9,0.2,0.3
2025-10-23T1400,4198A,119.5090,39.8253,秦皇岛市,北戴河轮滑馆,,36,36,33,3,11,70,,65,65,6,26,4,4,0.2,0.3
2025-10-23T1400,1307A,120.6659,36.2403,青岛市,仰口,,,,,,,,,,,,,,,,
2025-10-23T1400,1310A,120.4134,36.0658,青岛市,市南区东部子站,,31,31,26,12,10,82,,66,66,11,14,7,7,0.3,0.3
2025-10-23T1400,1311A,120.3664,36.1032,青岛市,四方区子站,,31,31,27,17,17,87,,59,59,4,15,3,2,0.2,0.2
2025-10-23T1400,1312A,120.2994,36.054,青岛市,市南区西部子站,,31,31,35,12,12,82,,64,64,16,26,7,8,0.3,0.4
2025-10-23T1400,1313A,120.4581,36.0858,青岛市,崂山区子站,,31,31,23,7,6,89,,74,74,12,14,9,9,0.3,0.3
2025-10-23T1400,1315A,120.3999,36.3083,青岛市,城阳区子站,,31,27,37,7,16,97,,68,68,5,20,4,5,0.3,0.4
2025-10-23T1400,3362A,120.5014,36.4034,青岛市,即墨2号,,29,22,33,11,24,91,,67,67,10,23,4,5,0.2,0.3
2025-10-23T1400,3642A,120.3503,36.0736,青岛市,市北区南部,,41,41,34,3,11,77,,54,54,15,23,5,4,0.1,0.2
2025-10-23T1400,3643A,120.3948,36.1805,青岛市,李沧区北部,,28,27,30,14,18,89,,61,61,6,16,6,6,0.3,0.3
2025-10-23T1400,4290A,120.1969,35.9546,青岛市,珠江路669号,,29,29,36,12,14,91,,59,59,13,41,10,11,0.2,0.3
2025-10-23T1400,4291A,120.0424,35.8656,青岛市,黄岛区人民政府广场,,28,24,29,3,7,88,,70,70,10,19,6,6,0.4,0.5
2025-10-23T1400,1702A,113.0426,23.691,清远市,环保大楼,,,,,,,,,,,,,,,,
2025-10-23T1400,1703A,113.0208,23.7106,清远市,凤城街办,,22,18,12,12,7,69,,51,51,11,12,6,6,0.5,0.5
2025-10-23T1400,3025A,113.0477,23.6344,清远市,技师学院,,24,21,15,12,9,74,,47,47,12,16,4,4,0.5,0.5
2025-10-23T1400,3318A,112.9903,23.7403,清远市,清新太和,,24,17,9,12,5,75,,56,56,12,11,6,5,0.6,0.6
2025-10-23T1400,3455A,113.076,23.7198,清远市,清城东城,,24,20,13,11,7,75,,52,52,11,12,5,5,0.5,0.5
2025-10-23T1400,2661A,107.6325,35.7357,庆阳市,庆阳五中,,40,38,31,28,26,43,,44,42,9,12,1,1,0.5,0.4
2025-10-23T1400,2662A,107.6364,35.7067,庆阳市,市环保局,细颗粒物(PM2.5),62,,30,44,23,50,,49,47,10,12,3,3,0.4,0.6
2025-10-23T1400,1916A,103.7897,25.5035,曲靖市,环境监测站,,22,6,20,3,10,70,,40,40,5,13,2,5,0.3,0.5
2025-10-23T1400,1917A,103.8,25.5364,曲靖市,烟厂办公区,,21,9,20,6,12,67,,37,37,6,13,4,4,0.4,0.6
2025-10-23T1400,3376A,103.7947,25.462,曲靖市,南苑二区,,25,,19,17,12,71,,39,39,6,11,4,4,0.4,0.5
2025-10-23T1400,3377A,103.7444,25.5261,曲靖市,曲靖师范学院,,23,9,19,9,13,73,,40,40,6,12,2,4,0.4,0.5
2025-10-23T1400,1264A,118.8692,28.9398,衢州市,环保大楼,,32,32,35,14,17,102,,84,84,11,17,5,5,0.4,0.4
2025-10-23T1400,1265A,118.8709,28.9666,衢州市,实验学校,,33,32,32,16,16,103,,84,84,8,15,4,4,0.3,0.2
2025-10-23T1400,1266A,118.8621,28.9808,衢州市,衢州学院,,32,29,32,13,15,101,,83,83,8,15,6,6,0.3,0.3
2025-10-23T1400,1611A,118.5819,24.9117,泉州市,涂山街,,29,22,16,11,8,92,,78,78,4,4,3,3,0.4,0.4
2025-10-23T1400,1612A,118.5972,24.8978,泉州市,津头埔,,28,18,15,9,8,88,,73,73,8,8,2,2,0.4,0.4
2025-10-23T1400,1613A,118.6663,24.9424,泉州市,万安,,27,23,19,11,8,86,,71,71,6,6,3,2,0.4,0.3
2025-10-23T1400,1614A,118.6117,24.9604,泉州市,清源山,,29,14,11,8,6,90,,76,76,4,5,1,1,0.4,0.3
2025-10-23T1400,3529A,118.6333,24.9264,泉州市,城华南路,,28,17,14,8,8,88,,73,73,9,9,3,3,0.2,0.2
2025-10-23T1400,2626A,88.8876,29.2718,日喀则市,日喀则监测站,,37,11,17,3,4,117,,85,80,4,17,13,13,0.2,0.3
2025-10-23T1400,3726A,88.8781,29.2426,日喀则市,林业技术推广中心,,,10,13,3,2,118,,98,98,2,4,,5,0.1,0.3
2025-10-23T1400,1659A,119.471,35.4209,日照市,监测站,,34,27,28,7,11,108,,77,77,13,20,7,8,0.5,0.5
2025-10-23T1400,1660A,119.523,35.4216,日照市,市政府广场,,33,17,25,10,12,104,,79,79,8,14,7,7,0.6,0.6
2025-10-23T1400,1661A,119.5587,35.4044,日照市,港务局,,32,24,25,20,17,101,,84,84,14,17,7,8,0.5,0.5
2025-10-23T1400,3507A,119.5328,35.4625,日照市,职业技术学院,,33,31,25,7,7,103,,84,84,9,14,6,6,0.5,0.5
2025-10-23T1400,3604A,119.3266,35.1044,日照市,岚山环保分局,,48,48,41,18,28,91,,70,70,18,28,12,30,0.8,2.2
2025-10-23T1400,1835A,111.1922,34.7752,三门峡市,市政府,细颗粒物(PM2.5),75,74,58,55,57,92,,65,65,19,21,12,12,0.4,0.4
2025-10-23T1400,1836A,111.1587,34.7942,三门峡市,开发区,细颗粒物(PM2.5),84,89,86,62,62,92,,62,62,25,27,10,10,0.5,0.5
2025-10-23T1400,1838A,111.143,34.7955,三门峡市,风景区,细颗粒物(PM2.5),80,,59,59,50,98,,66,66,16,17,13,27,0.6,0.6
2025-10-23T1400,3039A,111.1911,34.7829,三门峡市,三门峡市第一小学,细颗粒物(PM2.5),79,69,61,58,61,86,,58,58,17,19,15,14,0.5,0.5
2025-10-23T1400,3598A,111.1,34.7167,三门峡市,富达温泉假日酒店,细颗粒物(PM2.5),77,58,70,56,59,85,,59,59,20,29,12,10,0.4,0.8
2025-10-23T1400,2324A,117.6211,26.2625,三明市,三钢,,30,30,21,10,13,76,,64,64,10,12,2,2,0.4,0.4
2025-10-23T1400,2325A,117.635,26.2714,三明市,三明二中,,30,30,23,17,14,70,,60,60,6,6,2,1,0.4,0.4
2025-10-23T1400,2326A,117.6028,26.2378,三明市,三元区政府,,28,28,21,14,11,79,,68,68,9,11,3,3,0.4,0.6
2025-10-23T1400,2327A,117.7275,26.3108,三明市,洋溪,,25,20,15,16,12,77,,58,58,9,9,9,7,1.0,1
2025-10-23T1400,1876A,109.5078,18.2489,三亚市,河东子站,,21,8,5,3,2,65,,51,51,6,7,3,3,0.5,0.6
2025-10-23T1400,1877A,109.4964,18.2681,三亚市,河西子站,,22,11,5,3,1,68,,49,49,4,6,6,6,0.6,0.6
2025-10-23T1400,3540A,109.7348,18.3443,三亚市,君悦子站,,32,32,7,7,2,56,,44,44,5,6,4,4,0.5,0.6
2025-10-23T1400,2624A,91.7608,29.2313,山南市,山南监测站,,38,12,12,3,4,119,,101,91,4,6,4,4,0.3,0.3
2025-10-23T1400,2625A,91.7706,29.2436,山南市,山南人民医院,,38,9,16,3,5,120,,98,90,3,6,4,4,0.3,0.3
2025-10-23T1400,1674A,116.6794,23.3667,汕头市,金平子站,,44,44,27,18,11,62,,41,41,20,19,8,6,0.6,0.6
2025-10-23T1400,1675A,116.7244,23.3633,汕头市,龙湖子站,,47,47,23,19,10,59,,41,41,19,15,12,9,0.5,0.4
2025-10-23T1400,1676A,116.7258,23.2775,汕头市,濠江子站,,43,43,24,20,13,60,,41,41,15,14,10,8,0.6,0.6
2025-10-23T1400,1677A,116.7519,23.4714,汕头市,澄海子站,,33,33,21,10,8,57,,40,40,11,12,5,5,0.6,0.6
2025-10-23T1400,1678A,116.6092,23.2539,汕头市,潮阳子站,,32,32,19,13,7,67,,43,43,11,10,6,7,0.6,0.6
2025-10-23T1400,3444A,116.454,23.2684,汕头市,潮南峡山,,30,30,20,18,11,67,,45,45,8,10,8,8,0.7,0.7
2025-10-23T1400,3624A,116.4069,23.2533,汕头市,潮南子站,,38,38,25,16,8,61,,41,41,13,14,5,5,0.5,0.6
2025-10-23T1400,1693A,115.3653,22.775,汕尾市,市环保局,,33,33,12,13,9,64,,53,53,5,6,5,5,0.7,0.7
2025-10-23T1400,1694A,115.3706,22.7898,汕尾市,市政府,,30,25,11,21,13,63,,52,52,8,9,7,6,0.3,0.3
2025-10-23T1400,1695A,115.3622,22.7925,汕尾市,新城中学,,,42,19,13,8,61,,52,52,7,7,8,7,,0.7
2025-10-23T1400,2645A,109.9154,33.8715,商洛市,监测站,,28,27,45,19,34,64,,52,52,10,22,2,5,0.4,0.5
2025-10-23T1400,3045A,109.9643,33.8471,商洛市,商州区中学,,50,50,53,19,38,70,,46,46,9,24,4,6,0.6,0.7
2025-10-23T1400,2408A,115.6702,34.4285,商丘市,环境监测站,,,46,73,31,54,115,,58,58,15,37,,4,,0.5
2025-10-23T1400,2409A,115.6458,34.4045,商丘市,粮食局,颗粒物(PM10),52,54,64,27,48,107,,62,62,13,25,4,6,0.5,0.6
2025-10-23T1400,2410A,115.6293,34.3948,商丘市,睢阳区环保局,,46,46,66,31,48,109,,64,64,15,27,7,9,0.4,0.6
2025-10-23T1400,3171A,115.6071,34.4465,商丘市,梁园区档案局,,41,41,61,25,49,106,,63,63,16,43,8,10,0.4,0.5
2025-10-23T1400,1141A,121.4,31.238,上海市,普陀,,29,25,32,10,12,90,,72,72,14,23,7,7,0.5,0.5
2025-10-23T1400,1142A,121.478,31.2036,上海市,十五厂,,30,27,29,10,11,95,,79,79,9,14,7,7,0.6,0.6
2025-10-23T1400,1143A,121.467,31.3008,上海市,虹口,,29,24,29,12,10,92,,77,77,8,15,8,8,0.3,0.4
2025-10-23T1400,1147A,121.425,31.2261,上海市,静安监测站,,31,31,33,13,13,92,,70,70,11,20,4,5,0.5,0.2
2025-10-23T1400,1148A,121.703,31.1907,上海市,浦东川沙,,30,28,30,10,9,94,,77,77,7,15,9,9,0.1,0.2
2025-10-23T1400,1149A,121.533,31.2284,上海市,浦东新区监测站,,27,26,27,16,14,86,,74,74,10,14,6,6,0.5,0.6
2025-10-23T1400,1150A,121.577,31.2071,上海市,浦东张江,,33,24,28,13,11,103,,88,88,10,14,6,6,0.5,0.4
2025-10-23T1400,3265A,121.4316,31.3322,上海市,宝山庙行,,,25,31,,12,86,,72,72,13,23,10,10,0.5,0.7
2025-10-23T1400,3266A,121.8791,31.4662,上海市,崇明上实东滩,,30,20,21,8,9,96,,82,82,4,4,4,4,0.4,0.4
2025-10-23T1400,3268A,121.3162,31.2838,上海市,嘉定南翔,,33,33,31,10,12,90,,73,73,15,22,6,6,0.3,0.3
2025-10-23T1400,3269A,121.3359,30.7456,上海市,金山新城,,28,24,35,16,16,88,,62,62,12,22,6,6,0.4,0.5
2025-10-23T1400,3270A,121.4996,31.0739,上海市,闵行浦江,,30,28,30,11,10,94,,73,73,8,15,5,5,0.7,0.7
2025-10-23T1400,3271A,121.2886,31.1663,上海市,青浦徐泾,,30,22,31,3,8,96,,70,70,5,18,7,8,0.4,0.5
2025-10-23T1400,3272A,121.2186,31.0378,上海市,松江图书馆,,29,29,29,13,10,89,,68,68,19,26,5,5,0.3,0.4
2025-10-23T1400,3273A,121.3902,31.2059,上海市,长宁仙霞,,28,26,32,11,12,89,,71,71,12,22,6,6,0.6,0.6
2025-10-23T1400,3274A,121.7965,31.0507,上海市,浦东惠南,,30,24,26,11,9,93,,75,75,10,17,8,8,0.3,0.4
2025-10-23T1400,3544A,121.4891,30.925,上海市,奉贤南桥新城,,30,23,32,10,14,96,,72,72,11,23,4,4,0.4,0.5
2025-10-23T1400,4183A,121.4174,31.16637,上海市,冠生园路458号,,30,24,29,8,12,94,,75,75,13,20,6,6,0.5,0.6
2025-10-23T1400,4205A,121.5419,31.2683,上海市,宁武路151号,,29,24,28,8,11,90,,77,77,12,15,6,6,0.3,0.4
2025-10-23T1400,2381A,118.005,28.4572,上饶市,百草园,,,,,,,,,,,,,,,,
