timepoint,stationcode,longitude,latitude,area,positionname,primarypollutant,aqi,pm10,pm10_24h,pm2_5,pm2_5_24h,o3,o3_24h,o3_8h,o3_8h_24h,no2,no2_24h,so2,so2_24h,co,co_24h
2022-08-11T22:00:00,1001A,116.3621,39.8784,北京市,万寿西宫,,31,26,38,14,18,158,98,144,136,20,21,3,3,0.6,0.7
2022-08-11T22:00:00,1002A,116.2202,40.2915,北京市,定陵(对照点),,42,40,30,12,12,235,132,192,181,28,8,69,19,1.8,0.7
2022-08-11T22:00:00,1003A,116.4174,39.9289,北京市,东四,,,29,39,11,18,186,,174,173,15,21,3,3,0.4,0.5
2022-08-11T22:00:00,1004A,116.4072,39.8863,北京市,天坛,,27,27,34,11,20,148,77,136,122,16,14,3,3,0.4,0.5
2022-08-11T22:00:00,1005A,116.462,39.9365,北京市,农展馆,,33,28,47,10,20,159,103,146,134,16,20,3,3,0.5,0.6
2022-08-11T22:00:00,1006A,116.3392,39.9295,北京市,官园,,,,37,13,19,163,110,152,140,13,13,4,3,0.6,0.5
2022-08-11T22:00:00,1007A,116.2878,39.9611,北京市,海淀万柳,,39,39,38,15,19,164,98,151,138,23,21,3,3,0.4,0.4
2022-08-11T22:00:00,1008A,116.6636,40.135,北京市,顺义新城,,41,41,50,10,20,197,81,155,136,26,24,3,3,0.4,0.4
2022-08-11T22:00:00,1009A,116.6275,40.3275,北京市,怀柔镇,,,38,34,,20,249,107,179,170,20,14,3,3,0.6,0.5
2022-08-11T22:00:00,1010A,116.2296,40.217,北京市,昌平镇,颗粒物(PM10),53,56,33,19,16,218,97,175,159,32,16,3,3,0.6,0.4
2022-08-11T22:00:00,1011A,116.3966,39.9821,北京市,奥体中心,,37,30,42,12,17,171,118,148,140,11,16,3,3,0.4,0.4
2022-08-11T22:00:00,1012A,116.184,39.9136,北京市,古城,,42,42,39,18,18,160,98,143,130,21,19,3,3,0.4,0.4
2022-08-11T22:00:00,1015A,117.1444,39.1661,天津市,勤俭道,,43,43,36,23,19,154,98,149,138,18,13,6,6,0.7,0.8
2022-08-11T22:00:00,1017A,117.237,39.1082,天津市,大直沽八号路,颗粒物(PM10),54,57,32,34,21,158,88,152,136,22,13,5,5,0.5,0.5
2022-08-11T22:00:00,1018A,117.202,39.0927,天津市,前进道,颗粒物(PM10),52,53,31,31,19,147,78,141,123,19,13,5,5,0.7,0.7
2022-08-11T22:00:00,1019A,117.1837,39.2133,天津市,淮河道,,40,40,39,20,19,159,105,151,142,19,18,8,7,0.7,0.7
2022-08-11T22:00:00,1021A,117.307,39.0877,天津市,跃进路,,49,49,34,28,19,166,85,148,132,19,14,7,8,0.4,0.4
2022-08-11T22:00:00,1023A,117.707,39.0343,天津市,第四大街,颗粒物(PM10),54,57,38,36,24,144,63,129,104,21,22,5,5,0.9,1
2022-08-11T22:00:00,1024A,117.457,38.8394,天津市,永明路,细颗粒物(PM2.5),62,53,32,44,25,153,81,142,130,16,16,7,5,0.7,0.7
2022-08-11T22:00:00,1026A,117.764,39.1587,天津市,汉北路,颗粒物(PM10),55,60,38,35,22,196,85,171,140,22,17,7,8,0.7,0.7
2022-08-11T22:00:00,1027A,117.157,38.9194,天津市,团泊洼(对照点),,35,35,33,21,20,153,74,148,130,20,14,5,7,0.9,1
2022-08-11T22:00:00,1029A,114.4422,38.0444,石家庄市,职工医院,细颗粒物(PM2.5),105,71,25,79,22,159,106,139,138,13,12,5,5,1.1,0.6
2022-08-11T22:00:00,1030A,114.6063,38.0266,石家庄市,高新区,细颗粒物(PM2.5),77,77,31,56,29,152,98,134,131,13,18,5,5,1.0,0.6
2022-08-11T22:00:00,1031A,114.4898,38.1328,石家庄市,西北水源,颗粒物(PM10),72,94,33,48,14,171,123,152,149,11,16,4,4,1.5,0.7
2022-08-11T22:00:00,1032A,114.4586,38.0058,石家庄市,西南高教,颗粒物(PM10),61,72,30,41,19,148,76,122,119,19,12,4,5,1.4,0.8
2022-08-11T22:00:00,1033A,114.5331,38.0178,石家庄市,世纪公园,细颗粒物(PM2.5),72,87,41,52,25,158,98,135,132,19,19,7,7,1.1,0.6
2022-08-11T22:00:00,1034A,114.509,38.0457,石家庄市,人民会堂,细颗粒物(PM2.5),69,79,32,50,21,163,112,146,144,18,19,6,7,1.4,0.7
2022-08-11T22:00:00,1035A,114.3524,37.8911,石家庄市,封龙山(对照点),,33,28,20,23,10,133,102,108,108,4,6,11,12,0.7,0.7
2022-08-11T22:00:00,1037A,118.131,39.6363,唐山市,雷达站,细颗粒物(PM2.5),58,64,45,41,20,189,123,170,165,14,16,6,3,0.6,0.4
2022-08-11T22:00:00,1038A,118.1725,39.6334,唐山市,物资局,颗粒物(PM10),64,77,49,43,30,177,122,156,152,14,16,7,4,0.6,0.5
2022-08-11T22:00:00,1040A,118.1705,39.6506,唐山市,十二中,颗粒物(PM10),55,59,34,36,20,178,122,161,157,15,17,5,2,0.5,0.4
2022-08-11T22:00:00,1041A,118.1869,39.622,唐山市,小山,细颗粒物(PM2.5),59,55,32,42,17,192,113,164,156,24,17,9,4,0.6,0.4
2022-08-11T22:00:00,1042A,119.5134,39.8207,秦皇岛市,北戴河环保局,颗粒物(PM10),63,76,48,37,23,200,147,177,176,14,16,8,8,0.4,0.7
2022-08-11T22:00:00,1043A,119.7493,40.0116,秦皇岛市,第一关,颗粒物(PM10),64,77,57,34,27,207,125,179,167,16,24,5,8,0.8,1
2022-08-11T22:00:00,1044A,119.5897,39.9499,秦皇岛市,监测站,颗粒物(PM10),53,55,51,30,30,212,142,184,173,16,18,7,10,0.6,0.8
2022-08-11T22:00:00,1046A,119.5251,39.9041,秦皇岛市,建设大厦,颗粒物(PM10),51,52,50,24,24,211,124,183,168,22,20,4,7,0.6,0.9
2022-08-11T22:00:00,1047A,114.5129,36.61763,邯郸市,环保局,,,,,,,,,,,,,,,,
2022-08-11T22:00:00,1048A,114.5302,36.6116,邯郸市,东污水处理厂,细颗粒物(PM2.5),87,80,49,64,41,111,49,100,94,40,20,5,10,0.9,0.8
2022-08-11T22:00:00,1049A,114.4918,36.5713,邯郸市,矿院,细颗粒物(PM2.5),68,80,52,49,28,112,37,95,89,40,20,4,7,0.9,0.7
2022-08-11T22:00:00,1050A,114.484,36.6133,邯郸市,丛台公园,细颗粒物(PM2.5),75,57,61,55,34,110,75,101,99,20,16,6,8,0.6,0.6
2022-08-11T22:00:00,1051A,115.493,38.8632,保定市,游泳馆,,40,40,19,25,11,141,102,135,123,18,17,5,7,0.5,0.2
2022-08-11T22:00:00,1052A,115.5213,38.8959,保定市,华电二区,,40,40,25,15,9,140,102,136,125,7,7,7,5,0.9,0.7
2022-08-11T22:00:00,1053A,115.4713,38.9108,保定市,接待中心,,35,35,24,11,9,140,111,134,127,11,12,6,7,0.7,0.5
2022-08-11T22:00:00,1054A,115.4612,38.8416,保定市,地表水厂,,49,49,34,19,13,137,98,130,118,12,9,4,3,0.6,0.3
2022-08-11T22:00:00,1055A,115.4323,38.8697,保定市,胶片厂,,35,35,23,19,10,133,101,130,124,13,14,7,7,0.4,0.3
2022-08-11T22:00:00,1056A,115.5086,38.8639,保定市,监测站,,34,31,22,17,13,149,106,144,134,12,11,4,5,0.4,0.2
2022-08-11T22:00:00,1057A,114.8883,40.8336,张家口市,人民公园,颗粒物(PM10),51,52,27,6,4,168,96,157,142,17,13,7,7,0.5,0.4
2022-08-11T22:00:00,1059A,114.8687,40.8042,张家口市,五金库,,41,41,28,19,11,155,73,145,122,35,20,10,9,0.5,0.4
2022-08-11T22:00:00,1060A,114.8902,40.762,张家口市,世纪豪园,,36,36,31,20,10,165,102,155,139,18,16,9,7,0.3,0.2
2022-08-11T22:00:00,1061A,114.8916,40.8661,张家口市,北泵房(对照点),颗粒物(PM10),52,53,35,29,16,171,69,157,130,21,10,7,8,0.3,0.1
2022-08-11T22:00:00,1062A,117.9531,40.9081,承德市,铁路,,39,39,36,26,17,162,107,137,121,30,25,4,9,0.4,0.5
2022-08-11T22:00:00,1063A,117.9392,40.9763,承德市,中国银行,,35,34,28,16,8,183,109,156,137,13,20,7,12,0.5,0.5
2022-08-11T22:00:00,1064A,117.9503,40.928,承德市,开发区,,44,44,33,19,12,179,120,151,134,17,21,5,9,0.4,0.5
2022-08-11T22:00:00,1065A,117.8051,40.9655,承德市,文化中心,,49,34,41,34,19,181,85,159,137,28,25,8,23,0.5,0.8
2022-08-11T22:00:00,1066A,117.9268,41.0026,承德市,离宫(对照点),,30,22,27,21,17,179,57,155,105,10,18,2,8,0.4,0.4
2022-08-11T22:00:00,1067A,116.6708,39.5111,廊坊市,药材公司,,37,37,22,14,15,153,91,135,126,18,12,7,6,0.4,0.3
2022-08-11T22:00:00,1068A,116.7214,39.5589,廊坊市,开发区,,42,42,23,18,13,164,107,145,141,20,12,5,5,0.6,0.5
2022-08-11T22:00:00,1070A,116.7244,39.5269,廊坊市,北华航天学院,,49,49,31,17,14,159,104,145,140,15,9,7,8,0.4,0.3
2022-08-11T22:00:00,1071A,116.8842,38.2991,沧州市,沧县城建局,,36,36,18,23,12,118,52,108,93,27,13,7,5,0.2,0.2
2022-08-11T22:00:00,1072A,116.8584,38.3254,沧州市,电视转播站,,34,34,24,18,16,134,70,127,116,21,13,2,3,0.4,0.4
2022-08-11T22:00:00,1073A,116.8709,38.3228,沧州市,市环保局,,33,33,30,17,15,135,75,125,112,25,20,6,6,0.3,0.4
2022-08-11T22:00:00,1074A,115.6838,37.7541,衡水市,电机北厂,细颗粒物(PM2.5),60,58,34,43,22,134,96,125,118,11,8,6,7,0.9,0.8
2022-08-11T22:00:00,1075A,115.6303,37.7316,衡水市,市监测站,颗粒物(PM10),63,76,41,36,19,130,78,116,108,14,13,9,10,0.9,0.7
2022-08-11T22:00:00,1077A,114.4704,37.0886,邢台市,达活泉,细颗粒物(PM2.5),84,92,68,62,39,150,74,137,128,26,21,8,12,1.0,1.3
2022-08-11T22:00:00,1078A,114.5062,37.0349,邢台市,邢师高专,细颗粒物(PM2.5),83,89,58,61,37,137,59,122,112,33,26,4,9,0.8,0.9
2022-08-11T22:00:00,1079A,114.5237,37.0851,邢台市,路桥公司,颗粒物(PM10),75,100,67,52,36,134,65,117,110,25,24,7,9,1.0,1
2022-08-11T22:00:00,1080A,114.4725,37.0719,邢台市,市环保局,颗粒物(PM10),86,122,87,63,41,147,72,131,122,30,24,6,10,0.9,1.2
2022-08-11T22:00:00,1081A,112.5139,37.8873,太原市,尖草坪,细颗粒物(PM2.5),109,99,40,82,29,190,63,147,141,61,28,6,7,1.9,1
2022-08-11T22:00:00,1083A,112.434,38.0108,太原市,上兰(对照点),,,,,,,,,,,,,,,,
2022-08-11T22:00:00,1084A,112.469,37.7124,太原市,晋源,,,87,54,51,35,185,,158,158,72,36,5,8,1.7,1.1
2022-08-11T22:00:00,1085A,112.5583,37.7394,太原市,小店,细颗粒物(PM2.5),77,92,41,56,29,168,79,137,133,39,34,7,9,1.1,1
2022-08-11T22:00:00,1086A,112.5369,37.8692,太原市,桃园,细颗粒物(PM2.5),92,84,33,68,27,180,88,142,139,45,32,7,8,1.7,1.1
2022-08-11T22:00:00,1087A,112.57,37.8195,太原市,坞城,细颗粒物(PM2.5),80,59,29,59,25,180,96,139,137,33,24,5,5,1.3,0.9
2022-08-11T22:00:00,1088A,112.549,37.9854,太原市,南寨,,,,28,59,28,162,17,130,112,43,34,4,6,1.5,0.9
2022-08-11T22:00:00,1089A,112.4701,37.782,太原市,金胜,,,,,,,,,,,,,,,,
2022-08-11T22:00:00,1090A,111.6507,40.7517,呼和浩特市,呼市一监,颗粒物(PM10),87,124,55,19,24,158,53,141,114,45,22,8,7,0.6,0.6
2022-08-11T22:00:00,1091A,111.6572,40.8033,呼和浩特市,小召,颗粒物(PM10),69,88,56,16,24,165,53,150,120,55,30,6,9,0.8,0.6
2022-08-11T22:00:00,1094A,111.7516,40.8369,呼和浩特市,如意水处理厂,,45,45,46,11,21,170,37,150,118,65,27,4,5,0.5,0.5
2022-08-11T22:00:00,1095A,111.7276,40.8062,呼和浩特市,二十九中,颗粒物(PM10),61,72,45,23,24,160,26,139,113,78,30,10,9,0.8,0.6
2022-08-11T22:00:00,1096A,111.5512,40.7866,呼和浩特市,工大金川校区,,46,46,50,7,19,152,49,134,107,35,22,5,6,0.4,0.5
2022-08-11T22:00:00,1097A,111.717,40.7612,呼和浩特市,化肥厂生活区,颗粒物(PM10),77,104,57,31,24,140,22,132,106,74,25,7,7,0.9,0.6
2022-08-11T22:00:00,1098A,123.6836,41.9339,沈阳市,森林路(对照点),,,,,,,,,,,,,,,,
2022-08-11T22:00:00,1099A,123.505,41.7406,沈阳市,浑南东路,颗粒物(PM10),62,74,43,42,25,135,24,125,80,68,31,6,11,1.1,1.1
2022-08-11T22:00:00,1100A,123.4231,41.6989,沈阳市,新秀街,颗粒物(PM10),57,63,46,27,18,126,62,120,82,52,33,6,21,1.0,1.2
2022-08-11T22:00:00,1102A,123.5903,41.8411,沈阳市,东陵路,,50,50,47,30,21,133,12,114,76,54,26,5,9,0.9,1
2022-08-11T22:00:00,1103A,123.4264,41.8467,沈阳市,陵东街,细颗粒物(PM2.5),63,44,30,45,24,131,25,122,80,32,18,4,7,1.1,1
2022-08-11T22:00:00,1104A,123.4114,41.7653,沈阳市,文化路,细颗粒物(PM2.5),67,71,47,48,29,141,42,130,87,57,22,5,14,1.1,1.1
2022-08-11T22:00:00,1105A,123.4678,41.7867,沈阳市,小河沿,细颗粒物(PM2.5),57,46,42,40,25,134,30,118,69,41,24,3,9,1.1,1
2022-08-11T22:00:00,1106A,123.4017,41.7972,沈阳市,太原街,细颗粒物(PM2.5),72,63,38,52,27,143,26,126,68,80,35,3,9,1.3,1.1
2022-08-11T22:00:00,1108A,123.3783,41.9228,沈阳市,京沈街,细颗粒物(PM2.5),68,74,45,49,26,143,61,136,114,52,19,10,11,0.9,0.9
2022-08-11T22:00:00,1109A,121.612,38.9741,大连市,甘井子,"颗粒物(PM10),细颗粒物(PM2.5)",55,59,32,39,18,140,111,133,127,18,17,4,4,0.6,0.6
2022-08-11T22:00:00,1110A,121.565,38.9511,大连市,周水子,颗粒物(PM10),82,113,37,56,17,137,109,135,123,12,16,25,9,1.0,0.8
2022-08-11T22:00:00,1111A,121.5637,38.8845,大连市,星海三站,细颗粒物(PM2.5),72,50,21,52,23,196,151,171,169,24,22,7,8,0.5,0.4
2022-08-11T22:00:00,1112A,121.6302,38.9117,大连市,青泥洼桥,细颗粒物(PM2.5),77,46,24,56,26,157,91,138,127,23,19,6,6,0.5,0.3
2022-08-11T22:00:00,1113A,121.6251,38.8638,大连市,傅家庄,,43,33,19,28,12,192,135,161,161,7,6,7,8,0.9,0.8
2022-08-11T22:00:00,1114A,121.5213,38.8661,大连市,七贤岭,颗粒物(PM10),53,56,34,33,19,190,146,167,165,12,9,3,3,0.8,0.6
2022-08-11T22:00:00,1115A,121.2529,38.8061,大连市,旅顺,,45,28,19,25,17,147,144,133,133,15,28,5,6,0.9,0.9
2022-08-11T22:00:00,1116A,121.7485,39.1311,大连市,金州,,49,49,29,34,18,154,89,140,132,13,12,9,8,0.6,0.5
2022-08-11T22:00:00,1117A,121.7811,39.0496,大连市,开发区,细颗粒物(PM2.5),55,41,26,39,19,164,131,155,146,28,29,7,7,0.9,0.9
2022-08-11T22:00:00,1118A,121.9762,39.0631,大连市,双D港,臭氧1小时,87,39,23,38,14,233,189,208,174,12,17,7,8,0.7,0.7
2022-08-11T22:00:00,1119A,125.3325,43.9166,长春市,食品厂,颗粒物(PM10),61,71,27,21,11,89,11,76,42,50,20,2,2,0.7,0.5
2022-08-11T22:00:00,1120A,125.2863,43.9027,长春市,客车厂,,49,49,24,13,8,96,18,82,46,50,22,4,3,0.5,0.4
2022-08-11T22:00:00,1121A,125.2841,43.8463,长春市,邮电学院,,26,26,20,14,10,97,28,84,57,27,14,4,4,0.5,0.5
2022-08-11T22:00:00,1122A,125.3716,43.8772,长春市,劳动公园,,35,35,19,11,9,98,30,83,57,30,13,5,5,0.5,0.4
2022-08-11T22:00:00,1123A,125.3297,43.8805,长春市,园林处,,24,24,21,3,6,90,27,78,47,29,18,3,3,0.5,0.5
2022-08-11T22:00:00,1124A,125.4605,43.79,长春市,净月潭,,19,19,26,7,7,104,24,94,61,11,6,4,4,0.3,0.3
2022-08-11T22:00:00,1125A,125.7194,43.515,长春市,甩湾子(对照点),,,,,,,,,,,,,,,,
2022-08-11T22:00:00,1126A,125.3863,43.8447,长春市,经开区环卫处,,21,21,19,12,6,103,34,92,66,23,11,4,3,0.4,0.3
2022-08-11T22:00:00,1127A,125.245,43.7783,长春市,高新区管委会,颗粒物(PM10),53,56,20,16,9,100,4,91,53,53,14,2,2,0.4,0.4
2022-08-11T22:00:00,1128A,125.1761,43.8325,长春市,岱山公园,,49,49,22,12,11,97,7,80,47,60,21,5,5,0.4,0.3
2022-08-11T22:00:00,1129A,126.5422,45.755,哈尔滨市,岭北(对照点),,22,22,32,9,9,81,50,73,60,11,15,6,7,0.4,0.5
2022-08-11T22:00:00,1130A,126.561,45.8167,哈尔滨市,松北商大,,16,16,29,4,8,74,41,63,47,18,22,6,6,0.7,0.7
2022-08-11T22:00:00,1131A,126.979,45.5419,哈尔滨市,阿城会宁,细颗粒物(PM2.5),58,45,25,41,14,86,41,72,47,21,16,13,10,0.5,0.4
2022-08-11T22:00:00,1132A,126.599,45.7222,哈尔滨市,南岗学府路,,14,10,22,8,9,76,44,68,55,8,14,4,5,0.5,0.5
2022-08-11T22:00:00,1133A,126.689,45.7733,哈尔滨市,太平宏伟公园,,35,35,36,8,10,79,40,70,55,14,16,10,12,0.6,0.5
2022-08-11T22:00:00,1134A,126.635,45.7667,哈尔滨市,道外承德广场,,,,39,,16,77,,68,60,,22,,8,,0.4
2022-08-11T22:00:00,1135A,126.685,45.7319,哈尔滨市,香坊红旗大街,,25,25,31,9,10,72,41,62,51,13,20,8,9,0.4,0.4
2022-08-11T22:00:00,1136A,126.6411,45.7258,哈尔滨市,动力和平路,,,22,30,,4,75,43,67,54,13,18,8,10,0.6,0.6
2022-08-11T22:00:00,1137A,126.593,45.7478,哈尔滨市,道里建国路,,19,19,27,4,10,71,37,65,49,16,16,10,10,0.9,0.9
2022-08-11T22:00:00,1138A,126.615,45.61,哈尔滨市,平房东轻厂,,26,25,26,6,8,80,7,68,35,52,23,4,4,0.6,0.5
2022-08-11T22:00:00,1139A,126.595,45.9855,哈尔滨市,呼兰师专,,27,27,24,4,8,77,29,67,51,16,17,6,6,0.5,0.5
2022-08-11T22:00:00,1140A,126.6206,45.6842,哈尔滨市,省农科院,,17,17,33,4,7,76,47,66,54,6,14,8,9,0.5,0.3
2022-08-11T22:00:00,1141A,121.4,31.238,上海市,普陀,颗粒物(PM10),56,61,40,34,21,208,157,199,172,29,23,6,4,0.7,0.6
2022-08-11T22:00:00,1142A,121.478,31.2036,上海市,十五厂,颗粒物(PM10),60,69,41,36,21,212,114,175,131,37,28,5,6,0.7,0.7
2022-08-11T22:00:00,1143A,121.467,31.3008,上海市,虹口,颗粒物(PM10),53,56,41,32,19,265,119,187,151,43,31,5,6,0.6,0.5
2022-08-11T22:00:00,1144A,121.412,31.1654,上海市,徐汇上师大,颗粒物(PM10),64,77,47,35,21,269,141,201,162,43,24,4,2,0.7,0.5
2022-08-11T22:00:00,1145A,121.536,31.2659,上海市,杨浦四漂,颗粒物(PM10),58,66,39,38,22,267,70,202,109,74,37,4,4,0.9,0.7
2022-08-11T22:00:00,1146A,120.978,31.0935,上海市,青浦淀山湖(对照点),,,,,,,,,,,,,,,,
2022-08-11T22:00:00,1147A,121.425,31.2261,上海市,静安监测站,颗粒物(PM10),53,56,42,32,22,179,129,160,139,40,33,2,3,0.4,0.4
2022-08-11T22:00:00,1148A,121.703,31.1907,上海市,浦东川沙,颗粒物(PM10),77,104,46,32,20,204,56,155,79,60,29,6,6,0.8,0.6
2022-08-11T22:00:00,1149A,121.533,31.2284,上海市,浦东新区监测站,颗粒物(PM10),59,67,40,38,23,260,77,190,121,66,34,5,6,0.9,0.7
2022-08-11T22:00:00,1150A,121.577,31.2071,上海市,浦东张江,颗粒物(PM10),58,66,33,37,21,213,26,168,76,93,39,4,5,1.0,0.9
2022-08-11T22:00:00,1151A,118.8086,32.1065,南京市,迈皋桥,,33,33,36,12,13,171,105,150,126,17,24,4,4,0.1,0.2
2022-08-11T22:00:00,1152A,118.7538,32.0551,南京市,草场门,,44,44,37,14,16,144,83,120,99,22,30,3,3,0.4,0.3
2022-08-11T22:00:00,1153A,118.7794,32.0745,南京市,山西路,,39,39,45,19,16,172,104,152,129,23,27,4,4,0.2,0.2
2022-08-11T22:00:00,1154A,118.7752,32.0023,南京市,中华门,,,,46,12,13,156,61,138,106,28,30,4,4,0.7,0.8
2022-08-11T22:00:00,1155A,118.8109,32.0309,南京市,瑞金路,,50,50,40,22,17,167,82,145,117,23,14,8,5,0.6,0.4
2022-08-11T22:00:00,1156A,118.7997,32.0754,南京市,玄武湖,,31,31,31,18,18,154,93,136,117,11,15,5,5,0.7,0.6
2022-08-11T22:00:00,1157A,118.6414,32.0931,南京市,浦口,,32,32,31,9,12,161,93,134,109,10,9,3,3,0.3,0.4
2022-08-11T22:00:00,1158A,118.7356,31.9996,南京市,奥体中心,,,,,,,,,,,,,,,,
2022-08-11T22:00:00,1159A,118.9125,32.1028,南京市,仙林大学城,,29,29,44,14,18,167,84,149,120,20,34,9,7,0.7,0.6
2022-08-11T22:00:00,1160A,120.561,31.2472,苏州市,上方山(对照点),颗粒物(PM10),61,71,56,32,28,220,121,170,148,40,21,8,8,0.5,0.5
2022-08-11T22:00:00,1161A,120.628,31.2864,苏州市,南门,,,,,,,,,,,,,,,,
2022-08-11T22:00:00,1162A,120.591,31.3019,苏州市,彩香,颗粒物(PM10),54,57,41,26,25,211,142,159,151,22,19,8,8,0.7,0.7
2022-08-11T22:00:00,1163A,120.596,31.3264,苏州市,轧钢厂,颗粒物(PM10),61,71,49,28,23,199,143,156,142,23,19,7,7,0.6,0.6
2022-08-11T22:00:00,1164A,120.613,31.2703,苏州市,吴中区,颗粒物(PM10),56,61,45,26,26,241,151,188,160,30,30,8,7,0.6,0.6
2022-08-11T22:00:00,1165A,120.543,31.2994,苏州市,苏州新区,颗粒物(PM10),51,52,42,24,28,199,130,167,157,32,22,5,6,0.8,0.8
2022-08-11T22:00:00,1166A,120.669,31.3097,苏州市,苏州工业园区,,50,50,41,30,24,242,130,170,139,30,25,6,5,0.7,0.6
2022-08-11T22:00:00,1167A,120.641,31.3708,苏州市,相城区,,45,45,42,28,26,224,123,165,136,28,22,8,7,0.7,0.7
2022-08-11T22:00:00,1168A,120.9098,31.9663,南通市,狼山街道,,,53,39,24,18,304,,222,137,23,26,8,8,0.6,0.6
2022-08-11T22:00:00,1169A,120.86,32.0005,南通市,虹桥,,44,44,47,21,32,280,114,218,128,33,26,10,11,0.7,0.7
2022-08-11T22:00:00,1170A,120.87,32.02,南通市,城中,,,,46,,24,78,,79,,,34,,9,,0.8
2022-08-11T22:00:00,1171A,120.94,31.93,南通市,星湖花园,,45,45,46,27,23,274,128,211,136,19,26,9,11,0.9,1
2022-08-11T22:00:00,1172A,120.81,32.0417,南通市,紫琅学院,颗粒物(PM10),52,54,49,22,18,241,99,194,114,45,30,6,8,0.9,0.9
2022-08-11T22:00:00,1173A,119.176,34.5885,连云港市,市环境监测站,颗粒物(PM10),56,61,70,34,36,174,89,157,142,12,14,1,2,0.9,0.9
2022-08-11T22:00:00,1177A,117.179,34.2761,徐州市,黄河新村,,44,44,75,23,41,183,106,161,134,15,16,8,8,0.8,1
2022-08-11T22:00:00,1178A,117.1918,34.2384,徐州市,淮塔,,43,43,77,27,47,190,105,167,134,15,14,9,7,0.7,0.8
2022-08-11T22:00:00,1180A,117.256,34.2153,徐州市,新城区,颗粒物(PM10),56,61,91,22,49,181,85,164,136,25,19,6,5,0.6,0.8
2022-08-11T22:00:00,1181A,117.244,34.2911,徐州市,桃园路,颗粒物(PM10),70,90,97,19,40,181,97,160,133,20,19,6,4,0.6,0.8
2022-08-11T22:00:00,1182A,117.2933,34.2778,徐州市,农科院,颗粒物(PM10),62,73,76,19,36,167,95,150,126,23,28,6,6,0.7,0.9
2022-08-11T22:00:00,1186A,119.389,32.3761,扬州市,邗江监测站,,36,36,43,19,23,214,90,187,131,18,17,4,3,0.6,0.7
2022-08-11T22:00:00,1188A,120.269,31.4867,无锡市,雪浪,颗粒物(PM10),54,58,44,29,23,188,93,171,142,29,12,7,7,1.1,0.8
2022-08-11T22:00:00,1189A,120.275,31.6219,无锡市,黄巷,,45,44,48,31,25,192,108,171,128,43,26,12,10,1.0,0.9
2022-08-11T22:00:00,1190A,120.294,31.56,无锡市,曹张,颗粒物(PM10),53,56,40,31,27,207,107,184,154,36,13,10,9,1.1,0.9
2022-08-11T22:00:00,1191A,120.242,31.5031,无锡市,漆塘,颗粒物(PM10),54,58,42,29,22,209,109,189,155,26,13,10,10,0.9,0.6
2022-08-11T22:00:00,1192A,120.3489,31.5863,无锡市,东亭,颗粒物(PM10),56,61,51,29,27,199,78,176,131,54,22,10,9,1.1,0.8
2022-08-11T22:00:00,1193A,120.354,31.5475,无锡市,旺庄,颗粒物(PM10),51,51,47,24,25,191,87,179,134,50,25,7,7,1.2,1
2022-08-11T22:00:00,1194A,120.245,31.5631,无锡市,荣巷,,48,48,42,29,27,199,96,181,145,27,11,10,9,0.9,0.7
2022-08-11T22:00:00,1195A,120.299,31.6817,无锡市,堰桥,颗粒物(PM10),53,56,52,27,23,192,77,178,124,55,26,8,8,0.5,0.4
2022-08-11T22:00:00,1196A,119.9633,31.762,常州市,市监测站,,36,36,42,14,19,149,100,138,123,15,18,8,9,0.5,0.6
2022-08-11T22:00:00,1200A,119.9468,31.7069,常州市,武进监测站,颗粒物(PM10),52,54,47,24,25,169,144,151,134,16,15,9,9,0.8,0.8
2022-08-11T22:00:00,1201A,119.9255,31.9087,常州市,安家,细颗粒物(PM2.5),55,53,49,39,31,183,59,168,129,40,27,7,8,1.2,0.8
2022-08-11T22:00:00,1203A,119.6707,32.1875,镇江市,新区办事处,,,,49,22,29,218,93,194,161,30,50,11,11,0.4,0.3
2022-08-11T22:00:00,1204A,119.4974,32.1968,镇江市,职教中心,,36,36,42,17,18,198,92,180,154,23,24,5,4,0.6,0.7
2022-08-11T22:00:00,1205A,119.4303,32.1328,镇江市,丹徒区监测站,,43,38,42,30,25,221,94,189,158,24,18,6,7,0.7,0.7
2022-08-11T22:00:00,1206A,119.905,32.4878,泰州市,公园路,颗粒物(PM10),56,61,43,29,28,208,94,185,157,16,14,9,10,0.8,0.8
2022-08-11T22:00:00,1207A,119.9189,32.4625,泰州市,莲花,,46,46,46,31,32,218,99,196,169,22,18,8,8,0.9,0.9
2022-08-11T22:00:00,1209A,119.888,32.4639,泰州市,留学生创业园,,49,49,54,24,33,235,104,209,177,16,21,4,6,1.0,0.9
2022-08-11T22:00:00,1210A,119.036,33.5981,淮安市,钵池山,,41,41,41,23,27,151,113,141,137,12,14,4,5,0.6,0.7
2022-08-11T22:00:00,1211A,119.007,33.575,淮安市,北京南路,,41,41,49,26,30,149,78,135,124,34,20,8,7,0.5,0.6
2022-08-11T22:00:00,1212A,118.989,33.6067,淮安市,市监测站,,46,46,52,24,32,144,105,133,130,21,20,6,6,0.8,0.9
2022-08-11T22:00:00,1213A,119.135,33.5039,淮安市,楚州区监测站,,37,37,46,19,23,132,80,125,110,20,13,7,8,0.5,0.5
2022-08-11T22:00:00,1214A,119.0186,33.6297,淮安市,淮阴区监测站,,41,41,50,22,29,146,119,140,138,10,16,5,5,0.6,0.7
2022-08-11T22:00:00,1215A,120.118,33.4022,盐城市,盐城电厂,,46,46,44,11,22,146,76,132,107,27,13,5,5,0.3,0.4
2022-08-11T22:00:00,1216A,120.156,33.3942,盐城市,市监测站,,50,50,36,18,24,138,36,128,94,30,12,4,4,0.5,0.5
2022-08-11T22:00:00,1218A,120.2144,33.38,盐城市,开发区管委会,颗粒物(PM10),52,54,35,34,22,146,59,134,96,30,19,6,6,0.5,0.4
2022-08-11T22:00:00,1220A,118.293,33.9528,宿迁市,宿迁学院,,39,32,45,26,32,153,123,146,132,13,14,7,7,0.5,0.6
2022-08-11T22:00:00,1221A,118.2442,33.9592,宿迁市,宿迁中学,,32,32,43,20,22,147,102,140,123,16,11,3,3,0.4,0.4
2022-08-11T22:00:00,1223A,120.2072,30.2111,杭州市,滨江,,45,44,40,31,21,208,93,193,170,40,23,5,6,0.8,0.7
2022-08-11T22:00:00,1224A,120.0633,30.2747,杭州市,西溪,,37,37,38,23,19,171,58,157,131,18,16,8,9,0.7,0.7
2022-08-11T22:00:00,1225A,119.026,29.635,杭州市,千岛湖(对照点),,,,,,,,,,,,,,,,
2022-08-11T22:00:00,1226A,120.3461,30.3153,杭州市,下沙,颗粒物(PM10),54,58,53,29,26,221,93,204,164,53,25,5,6,0.7,0.7
2022-08-11T22:00:00,1227A,120.1269,30.2456,杭州市,卧龙桥,,43,34,33,30,23,208,61,182,151,17,19,4,5,0.6,0.6
2022-08-11T22:00:00,1228A,120.1903,30.2692,杭州市,浙江农大,,47,47,41,24,21,227,100,187,168,21,19,4,5,0.7,0.6
2022-08-11T22:00:00,1229A,120.157,30.2897,杭州市,朝晖五区,,,,,,,,,,,,,,,,
2022-08-11T22:00:00,1230A,120.1197,30.3119,杭州市,和睦小学,颗粒物(PM10),54,58,46,31,29,190,68,164,154,63,29,6,7,0.7,0.6
2022-08-11T22:00:00,1231A,120.3019,30.4183,杭州市,临平镇,颗粒物(PM10),59,68,52,13,17,205,124,185,178,25,26,4,5,0.6,0.7
2022-08-11T22:00:00,1232A,120.2697,30.1819,杭州市,城厢镇,细颗粒物(PM2.5),52,49,41,36,26,212,112,196,173,27,22,7,8,0.8,0.7
2022-08-11T22:00:00,1233A,120.0883,30.1808,杭州市,云栖,,39,39,33,15,18,194,64,176,136,22,20,6,7,0.4,0.5
2022-08-11T22:00:00,1234A,121.8358,29.911,宁波市,区环保大楼,,24,24,25,10,11,165,39,141,97,32,18,11,8,0.4,0.5
2022-08-11T22:00:00,1235A,121.56,29.82,宁波市,万里学院,,29,28,24,20,16,196,79,164,137,14,9,5,6,0.6,0.6
2022-08-11T22:00:00,1236A,121.713,29.9572,宁波市,龙赛医院,,29,29,26,16,14,239,89,186,145,15,14,5,9,0.5,0.5
2022-08-11T22:00:00,1239A,121.633,29.7733,宁波市,钱湖水厂,,21,17,14,11,11,141,65,129,112,6,3,3,3,0.4,0.4
2022-08-11T22:00:00,1240A,121.5856,29.8635,宁波市,太古小学,,27,27,23,16,17,202,73,159,135,17,16,6,9,0.6,0.6
2022-08-11T22:00:00,1241A,121.524,29.8674,宁波市,市环境监测中心,,38,38,27,22,14,213,78,173,138,14,11,3,4,0.4,0.3
2022-08-11T22:00:00,1242A,120.634,28.0089,温州市,瓯海,,30,29,39,17,18,173,96,151,116,9,17,6,6,0.5,0.5
2022-08-11T22:00:00,1243A,120.6748,27.9939,温州市,南浦,,30,26,35,17,19,160,93,141,110,5,12,4,5,0.4,0.3
2022-08-11T22:00:00,1244A,120.76,27.9747,温州市,龙湾,,29,29,31,15,13,142,90,116,94,13,17,6,6,0.4,0.4
2022-08-11T22:00:00,1245A,120.6709,28.0167,温州市,市站,,33,33,35,10,19,169,92,144,106,13,22,5,5,0.5,0.5
2022-08-11T22:00:00,1246A,120.598,30.0911,绍兴市,袍江站,,,,,,,,,,,,,,,,
2022-08-11T22:00:00,1247A,120.6053,29.9928,绍兴市,城东开发委,细颗粒物(PM2.5),62,54,32,44,23,219,113,177,170,14,9,6,6,0.5,0.4
2022-08-11T22:00:00,1250A,120.0751,30.8669,湖州市,城西水厂,,38,38,42,16,21,174,44,146,122,48,31,5,5,0.4,0.4
2022-08-11T22:00:00,1252A,120.7436,30.778,嘉兴市,清河小学,,,42,41,25,20,197,,170,160,25,20,7,6,0.7,0.5
2022-08-11T22:00:00,1253A,120.726,30.7478,嘉兴市,嘉兴学院,,48,45,40,29,25,183,151,166,157,21,21,2,3,0.6,0.5
2022-08-11T22:00:00,1255A,121.273,28.6459,台州市,黄岩环保大楼,,25,25,28,13,12,149,66,129,106,11,12,6,5,0.5,0.5
2022-08-11T22:00:00,1256A,121.419,28.6542,台州市,台州环保大楼,,23,23,23,11,14,124,56,107,76,9,10,4,4,0.4,0.4
2022-08-11T22:00:00,1257A,121.377,28.5773,台州市,路桥田洋王,,26,26,25,11,12,136,57,112,82,12,10,4,5,0.4,0.4
2022-08-11T22:00:00,1258A,122.122,30.0203,舟山市,定海檀枫,,18,18,22,11,11,126,44,117,79,14,15,2,2,0.2,0.3
2022-08-11T22:00:00,1259A,122.3094,29.9558,舟山市,普陀东港,,15,15,18,8,9,88,36,76,50,21,21,2,3,0.3,0.3
2022-08-11T22:00:00,1260A,122.19,29.9944,舟山市,临城新区,,19,15,20,9,8,130,24,106,75,37,20,6,3,0.3,0.4
2022-08-11T22:00:00,1261A,119.649,29.1131,金华市,四中(停运161031),,,,,,,,,,,,,,,,
2022-08-11T22:00:00,1262A,119.647,29.077,金华市,十五中,颗粒物(PM10),57,63,38,38,25,151,82,143,123,23,14,6,5,0.6,0.4
2022-08-11T22:00:00,1263A,119.686,29.1029,金华市,监测站,细颗粒物(PM2.5),67,62,41,48,25,150,46,143,117,46,14,5,5,0.6,0.5
2022-08-11T22:00:00,1264A,118.8692,28.9398,衢州市,环保大楼,颗粒物(PM10),59,68,48,39,30,119,61,114,99,28,16,16,8,0.6,0.5
2022-08-11T22:00:00,1265A,118.8709,28.9666,衢州市,实验学校,颗粒物(PM10),51,51,44,24,26,138,65,125,105,28,19,7,7,0.3,0.3
2022-08-11T22:00:00,1266A,118.8621,28.9808,衢州市,衢州学院,细颗粒物(PM2.5),59,58,47,42,28,138,53,126,106,36,22,5,8,0.5,0.4
2022-08-11T22:00:00,1267A,119.914,28.4514,丽水市,监测站大楼,,34,34,26,18,13,143,46,108,70,26,12,6,6,0.3,0.3
2022-08-11T22:00:00,1268A,119.93,28.4586,丽水市,莲都小学,,34,34,29,13,12,154,54,114,80,20,10,6,6,0.4,0.4
2022-08-11T22:00:00,1269A,119.879,28.4231,丽水市,余庄前,,29,29,30,20,20,155,36,131,84,19,11,6,7,0.4,0.4
2022-08-11T22:00:00,1270A,117.1959,31.7848,合肥市,明珠广场,,44,44,42,22,18,123,64,114,94,27,25,7,8,0.5,0.5
2022-08-11T22:00:00,1271A,117.3072,31.8764,合肥市,三里街,,32,32,41,9,15,127,63,114,94,26,25,5,5,0.5,0.5
2022-08-11T22:00:00,1272A,117.2588,31.8707,合肥市,琥珀山庄,,41,41,36,19,16,128,67,119,103,17,12,5,5,0.5,0.5
2022-08-11T22:00:00,1273A,117.1604,31.9052,合肥市,董铺水库(对照点),,44,44,41,9,12,108,64,96,90,16,16,9,9,0.6,0.6
2022-08-11T22:00:00,1274A,117.25,31.8571,合肥市,长江中路,,44,44,41,10,12,121,56,113,94,24,14,8,8,0.5,0.4
2022-08-11T22:00:00,1275A,117.266,31.9436,合肥市,庐阳区,,39,39,42,12,9,124,59,110,99,23,20,6,6,0.3,0.3
2022-08-11T22:00:00,1276A,117.336,31.8586,合肥市,瑶海区,,44,44,55,12,18,138,46,116,91,37,27,9,9,0.5,0.5
2022-08-11T22:00:00,1277A,117.3027,31.7964,合肥市,包河区,颗粒物(PM10),51,51,50,12,19,137,58,116,90,38,41,6,7,0.3,0.6
2022-08-11T22:00:00,1278A,117.2776,31.7385,合肥市,滨湖新区,,29,29,40,9,14,117,77,107,92,13,21,9,8,0.3,0.3
2022-08-11T22:00:00,1279A,117.1318,31.8403,合肥市,高新区,,36,36,41,12,16,112,76,106,98,14,17,5,5,0.4,0.4
2022-08-11T22:00:00,1280A,119.3903,26.0543,福州市,鼓山(对照点),,,,,,,,,,,,,,,,
2022-08-11T22:00:00,1282A,119.2681,26.0504,福州市,师大,,,42,42,13,19,160,,141,118,20,15,5,4,0.2,0.2
2022-08-11T22:00:00,1283A,119.2984,26.1028,福州市,五四北路,,42,42,32,11,14,140,48,127,102,20,13,4,4,0.3,0.3
2022-08-11T22:00:00,1284A,119.2648,26.0768,福州市,杨桥西路,,,35,40,18,16,160,,138,116,19,13,5,5,0.2,0.2
2022-08-11T22:00:00,1285A,119.317,26.0746,福州市,紫阳,,38,38,40,15,24,154,49,137,108,16,14,6,6,0.3,0.3
2022-08-11T22:00:00,1286A,118.1608,24.8169,厦门市,溪东(对照点),,,,,,,,,,,,,,,,
2022-08-11T22:00:00,1287A,118.1514,24.4767,厦门市,洪文,,16,15,15,6,6,78,49,61,49,4,5,1,3,0.3,0.4
2022-08-11T22:00:00,1288A,118.0661,24.4444,厦门市,鼓浪屿,,19,19,17,11,12,64,38,50,41,11,13,3,3,0.2,0.2
2022-08-11T22:00:00,1290A,115.8931,28.6843,南昌市,省外办,,22,22,25,6,5,98,63,88,85,11,12,6,10,0.5,0.6
2022-08-11T22:00:00,1291A,115.8886,28.7003,南昌市,省林业公司,,20,17,20,2,2,93,61,86,82,16,18,5,9,0.4,0.5
2022-08-11T22:00:00,1292A,115.8126,28.7442,南昌市,林科所,,34,34,24,7,6,108,2,98,69,59,22,9,9,0.5,0.5
2022-08-11T22:00:00,1294A,115.8518,28.687,南昌市,建工学校,,29,29,25,6,11,91,53,84,79,19,18,7,11,0.7,0.6
2022-08-11T22:00:00,1295A,115.8921,28.6424,南昌市,象湖,,43,43,39,3,2,93,48,88,80,16,15,5,9,0.5,0.4
2022-08-11T22:00:00,1296A,115.7423,28.7996,南昌市,武术学校(对照点),,21,21,14,11,10,90,33,75,63,8,6,4,5,0.4,0.5
2022-08-11T22:00:00,1298A,115.9314,28.6842,南昌市,省站,,31,31,28,6,11,97,61,91,88,7,9,7,10,0.6,0.6
2022-08-11T22:00:00,1299A,116.9862,36.6114,济南市,科干所,细颗粒物(PM2.5),70,70,53,51,35,130,42,111,97,36,18,4,3,1.2,0.9
2022-08-11T22:00:00,1300A,116.9376,36.665,济南市,农科所,颗粒物(PM10),57,63,44,39,28,111,28,96,80,42,25,5,5,1.1,0.7
2022-08-11T22:00:00,1301A,117.1265,36.6734,济南市,开发区,颗粒物(PM10),66,81,52,34,24,129,69,120,114,47,24,3,3,1.0,0.9
2022-08-11T22:00:00,1303A,117.0624,36.6868,济南市,省种子仓库,"颗粒物(PM10),细颗粒物(PM2.5)",65,80,56,47,37,140,90,121,117,36,19,3,3,1.0,0.8
2022-08-11T22:00:00,1304A,116.9489,36.6447,济南市,机床二厂,颗粒物(PM10),74,98,65,49,34,138,60,119,108,47,20,6,5,1.0,0.7
2022-08-11T22:00:00,1305A,117.0495,36.663,济南市,市监测站,细颗粒物(PM2.5),74,81,51,54,37,139,77,116,111,34,18,6,6,1.1,0.9
2022-08-11T22:00:00,1306A,116.7675,36.5484,济南市,长清党校,细颗粒物(PM2.5),62,71,49,44,36,125,61,109,101,36,16,5,4,1.0,0.9
2022-08-11T22:00:00,1307A,120.6659,36.2403,青岛市,仰口(对照点),,,,,,,,,,,,,,,,
2022-08-11T22:00:00,1308A,120.3905,36.1851,青岛市,李沧区子站,,,,,,,,,,,,,,,,
2022-08-11T22:00:00,1309A,120.3471,36.0699,青岛市,市北区子站,,,,,,,,,,,,,,,,
2022-08-11T22:00:00,1310A,120.4134,36.0658,青岛市,市南区东部子站,,32,27,20,22,16,65,65,29,29,18,37,7,8,0.5,0.4
2022-08-11T22:00:00,1311A,120.3664,36.1032,青岛市,四方区子站,颗粒物(PM10),52,53,17,34,12,45,7,33,22,69,34,9,5,1.2,0.7
2022-08-11T22:00:00,1312A,120.2994,36.054,青岛市,市南区西部子站,,36,36,15,22,7,59,38,46,41,47,27,7,6,1.1,0.8
2022-08-11T22:00:00,1313A,120.4581,36.0858,青岛市,崂山区子站,,27,12,14,14,10,84,84,50,50,12,33,5,5,0.6,0.5
2022-08-11T22:00:00,1314A,120.1983,35.9608,青岛市,黄岛区子站,,50,46,27,29,18,22,13,17,17,99,55,14,7,0.9,0.7
2022-08-11T22:00:00,1315A,120.3999,36.3083,青岛市,城阳区子站,,43,43,21,22,13,67,6,48,41,76,36,5,5,1.3,0.8
2022-08-11T22:00:00,1316A,113.69031,34.76122,郑州市,烟厂,颗粒物(PM10),70,89,61,42,33,184,107,167,157,27,20,4,4,0.8,0.6
2022-08-11T22:00:00,1317A,113.65724,34.77134,郑州市,郑纺机,,,96,59,,,201,111,175,160,23,16,4,5,0.9,0.7
2022-08-11T22:00:00,1318A,113.67526,34.80246,郑州市,银行学校,颗粒物(PM10),72,94,59,43,31,219,124,192,177,22,18,2,2,0.8,0.7
2022-08-11T22:00:00,1319A,113.56746,34.81334,郑州市,供水公司,,,91,66,41,31,201,,187,187,16,21,3,2,0.6,0.6
2022-08-11T22:00:00,1320A,113.7329,34.7178,郑州市,经开区管委,颗粒物(PM10),67,84,59,40,29,190,91,168,150,33,21,1,2,0.8,0.6
2022-08-11T22:00:00,1321A,113.73961,34.77172,郑州市,四十七中,颗粒物(PM10),80,110,60,39,27,220,101,193,163,35,25,1,1,0.6,0.5
2022-08-11T22:00:00,1322A,113.60532,34.74838,郑州市,市监测站,,,,68,,20,186,109,164,151,,27,3,3,0.6,0.5
2022-08-11T22:00:00,1323A,113.64164,34.7525,郑州市,河医大,颗粒物(PM10),73,96,67,39,21,206,93,181,161,37,19,2,2,0.9,0.7
2022-08-11T22:00:00,1324A,113.51488,34.91089,郑州市,岗李水库(对照点),,,,,,,,,,,,,,,,
2022-08-11T22:00:00,1325A,114.3677,30.5584,武汉市,东湖梨园,,33,33,21,15,8,113,60,103,93,29,13,7,8,0.7,0.7
2022-08-11T22:00:00,1326A,114.2529,30.558,武汉市,汉阳月湖,,30,30,19,12,7,108,63,92,87,36,19,8,8,0.7,0.6
2022-08-11T22:00:00,1327A,114.282,30.6189,武汉市,汉口花桥,,29,29,26,15,12,114,66,98,92,34,15,7,7,0.7,0.5
2022-08-11T22:00:00,1328A,114.3025,30.5332,武汉市,武昌紫阳,,33,33,22,6,8,122,84,107,104,15,12,7,7,0.6,0.6
2022-08-11T22:00:00,1329A,114.3646,30.6217,武汉市,青山钢花,,39,39,31,22,15,109,59,101,84,48,20,9,7,0.8,0.5
2022-08-11T22:00:00,1330A,114.1566,30.4825,武汉市,沌口新区,,28,28,26,13,14,110,61,93,87,36,22,6,8,0.7,0.9
2022-08-11T22:00:00,1331A,114.3014,30.5944,武汉市,汉口江滩,,47,33,26,13,9,104,17,96,72,93,33,8,9,0.8,0.7
2022-08-11T22:00:00,1333A,114.135,30.6319,武汉市,吴家山,,26,26,27,12,9,106,70,95,88,24,19,5,6,0.7,0.7
2022-08-11T22:00:00,1334A,113.8454,30.2917,武汉市,沉湖七壕(对照点),,,,19,,6,43,,54,,,17,,8,,0.7
2022-08-11T22:00:00,1335A,113.0833,28.2325,长沙市,经开区环保局,,18,17,14,12,11,85,39,79,69,17,8,6,5,0.3,0.2
2022-08-11T22:00:00,1336A,112.8872,28.2189,长沙市,高开区环保局,,24,24,16,6,9,100,58,93,84,9,7,7,9,0.0,0.1
2022-08-11T22:00:00,1337A,113.0792,28.2053,长沙市,马坡岭,,22,22,17,9,11,73,37,69,60,12,7,7,6,0.6,0.5
2022-08-11T22:00:00,1338A,112.9394,28.19,长沙市,湖南师范大学,,24,24,24,7,2,92,44,82,71,8,5,2,3,0.5,0.4
2022-08-11T22:00:00,1339A,113.0178,28.1322,长沙市,雨花区环保局,,18,7,9,11,7,91,55,86,78,9,7,6,7,0.5,0.5
2022-08-11T22:00:00,1340A,112.9792,28.2597,长沙市,伍家岭,,18,11,12,9,11,97,56,89,80,9,8,5,5,0.3,0.3
2022-08-11T22:00:00,1341A,113.0014,28.1944,长沙市,火车新站,,28,25,10,19,10,80,46,76,67,10,7,6,7,0.4,0.3
2022-08-11T22:00:00,1342A,112.9844,28.1178,长沙市,天心区环保局,,20,20,16,9,9,82,35,75,65,20,8,4,5,0.4,0.4
2022-08-11T22:00:00,1343A,112.8908,28.1308,长沙市,湖南中医药大学,,25,25,19,13,10,91,30,85,65,27,12,5,6,0.3,0.4
2022-08-11T22:00:00,1344A,112.9581,28.3611,长沙市,沙坪(对照点),,23,23,20,16,9,68,25,62,54,16,10,6,7,0.4,0.3
2022-08-11T22:00:00,1345A,113.2347,23.1423,广州市,广雅中学,,25,25,15,13,9,68,12,48,35,46,27,4,4,0.8,0.7
2022-08-11T22:00:00,1346A,113.2612,23.105,广州市,市五中,,27,27,15,15,9,75,10,49,37,45,25,8,6,0.7,0.6
2022-08-11T22:00:00,1348A,113.3478,23.0916,广州市,广东商学院,,26,26,15,14,9,72,6,45,32,44,28,4,4,0.7,0.7
2022-08-11T22:00:00,1349A,113.4332,23.1047,广州市,市八十六中,,22,22,18,13,10,64,6,44,30,43,31,6,6,0.8,0.8
2022-08-11T22:00:00,1350A,113.3505,22.9483,广州市,番禺中学,,18,18,14,11,7,68,10,44,34,31,23,9,10,0.5,0.6
2022-08-11T22:00:00,1351A,113.2146,23.3916,广州市,花都师范,,15,15,13,9,9,67,18,47,30,30,25,5,5,0.6,0.6
2022-08-11T22:00:00,1352A,113.2597,23.1331,广州市,市监测站,,25,25,15,13,8,73,13,48,36,41,25,5,4,0.7,0.7
2022-08-11T22:00:00,1353A,113.5618,23.312,广州市,九龙镇镇龙,,16,15,14,5,5,51,6,41,28,31,17,7,7,0.6,0.5
2022-08-11T22:00:00,1354A,113.2765,23.1544,广州市,麓湖,,26,24,14,18,10,77,8,46,30,34,22,3,3,0.8,0.7
2022-08-11T22:00:00,1355A,113.443,23.3035,广州市,帽峰山森林公园(对照点),,12,12,7,5,4,56,27,42,40,14,10,5,6,0.4,0.5
2022-08-11T22:00:00,1356A,114.1063,22.5545,深圳市,通心岭子站,,8,8,11,2,2,45,23,42,34,16,5,3,3,0.5,0.5
2022-08-11T22:00:00,1357A,114.117,22.5625,深圳市,洪湖,,11,6,11,2,3,48,24,45,34,21,10,8,8,0.6,0.6
2022-08-11T22:00:00,1358A,113.987,22.5417,深圳市,华侨城,,16,16,16,5,3,39,19,35,28,15,10,5,5,0.4,0.4
2022-08-11T22:00:00,1359A,113.9181,22.5171,深圳市,南海子站,,13,13,9,8,4,45,22,42,32,20,11,2,2,0.6,0.6
2022-08-11T22:00:00,1360A,114.2458,22.5689,深圳市,盐田,,18,10,13,2,2,47,7,40,18,36,17,4,3,0.6,0.7
2022-08-11T22:00:00,1361A,114.2283,22.7244,深圳市,龙岗,,18,15,13,6,4,46,6,39,24,35,14,3,3,0.4,0.3
2022-08-11T22:00:00,1362A,113.8953,22.5861,深圳市,西乡,,,,,,,,,,,,,,,,
2022-08-11T22:00:00,1363A,114.494,22.5422,深圳市,南澳,,15,15,14,1,2,53,30,50,42,5,4,6,6,0.5,0.6
2022-08-11T22:00:00,1364A,114.41,22.6342,深圳市,葵涌,,17,17,12,0,1,44,12,42,29,14,4,8,8,0.6,0.6
2022-08-11T22:00:00,1365A,114.297,22.5978,深圳市,梅沙,,11,9,14,0,2,52,34,48,42,4,4,6,6,0.4,0.4
2022-08-11T22:00:00,1366A,114.0678,22.738,深圳市,观澜,,26,26,17,8,5,40,10,32,22,14,13,9,9,0.4,0.4
2022-08-11T22:00:00,1367A,113.5814,22.2618,珠海市,吉大,,,8,12,2,3,51,,51,35,8,6,,6,0.4,0.4
2022-08-11T22:00:00,1368A,113.4881,22.2335,珠海市,前山,,11,7,8,4,4,48,24,45,32,22,16,9,8,0.3,0.3
2022-08-11T22:00:00,1369A,113.628,22.4251,珠海市,唐家,,15,7,10,3,3,52,14,46,28,30,11,6,6,0.3,0.3
2022-08-11T22:00:00,1370A,113.299,22.2281,珠海市,斗门,,8,6,7,3,4,49,23,47,33,16,8,5,4,0.4,0.4
2022-08-11T22:00:00,1371A,113.1294,23.0067,佛山市,湾梁,,27,24,10,9,6,40,10,35,29,54,24,5,3,0.5,0.3
2022-08-11T22:00:00,1372A,113.1083,23.0478,佛山市,华材职中,,29,29,10,12,6,47,15,40,34,44,23,7,5,0.5,0.3
2022-08-11T22:00:00,1373A,113.144,23.0453,佛山市,南海气象局,,26,26,17,8,8,44,6,35,29,49,27,6,5,0.6,0.4
2022-08-11T22:00:00,1374A,113.2881,22.8094,佛山市,顺德苏岗,,14,3,2,5,3,42,14,33,25,27,22,4,4,0.5,0.5
2022-08-11T22:00:00,1375A,113.2544,22.7642,佛山市,容桂街道办,,,,,,,,,,,,,,,,
2022-08-11T22:00:00,1376A,112.8383,22.8678,佛山市,高明孔堂,,12,12,12,6,5,92,24,68,52,19,14,5,5,0.5,0.5
2022-08-11T22:00:00,1377A,112.8836,23.1588,佛山市,三水监测站,,28,22,12,19,11,50,8,45,34,47,28,5,5,0.6,0.6
2022-08-11T22:00:00,1378A,112.867,23.185,佛山市,三水云东海,,,27,16,11,9,56,,43,36,27,22,5,5,0.5,0.5
2022-08-11T22:00:00,1379A,113.3769,22.5211,中山市,华柏园,,14,7,15,6,4,41,7,37,22,27,9,2,1,0.6,0.6
2022-08-11T22:00:00,1380A,113.3881,22.5497,中山市,张溪,,17,7,16,3,4,57,11,46,32,33,11,2,2,0.6,0.5
2022-08-11T22:00:00,1381A,113.4075,22.5111,中山市,紫马岭,,15,7,11,3,22,55,18,49,33,30,11,6,6,0.5,0.6
2022-08-11T22:00:00,1382A,113.4411,22.4853,中山市,长江旅游区(对照点),,13,3,8,3,5,50,14,44,29,25,9,7,7,0.2,0.2
2022-08-11T22:00:00,1383A,113.1064,22.6058,江门市,北街,,19,14,11,5,4,74,6,55,40,38,14,5,4,0.6,0.5
2022-08-11T22:00:00,1384A,113.0731,22.5835,江门市,西区,,21,19,12,9,7,66,3,52,37,42,18,6,6,0.6,0.5
2022-08-11T22:00:00,1385A,113.0219,22.5311,江门市,圭峰西,,15,15,12,6,4,70,15,56,43,23,12,3,4,0.6,0.5
2022-08-11T22:00:00,1386A,113.0828,22.5947,江门市,东湖,,18,15,12,10,9,70,6,53,39,36,13,5,6,0.6,0.5
2022-08-11T22:00:00,1387A,113.7875,23.0457,东莞市,东城主山,,,,,,,,,,,,,,,,
2022-08-11T22:00:00,1388A,113.7533,23.0202,东莞市,南城元岭,,,,,,,,,,,,,,,,
2022-08-11T22:00:00,1389A,113.7547,23.0494,东莞市,莞城梨川,,22,22,15,12,8,66,15,56,44,30,15,8,8,0.8,0.8
2022-08-11T22:00:00,1390A,113.7944,23.0128,东莞市,东城石井,,21,21,15,7,6,76,4,62,43,26,19,2,2,0.6,0.6
2022-08-11T22:00:00,1391A,113.7383,22.9658,东莞市,南城西平,,18,18,15,9,10,71,14,48,37,28,20,6,6,0.8,0.8
2022-08-11T22:00:00,1392A,114.4183,23.0528,惠州市,河南岸金山湖子站,,19,19,17,9,14,59,24,46,36,12,9,5,3,0.6,0.6
2022-08-11T22:00:00,1393A,114.4053,23.0822,惠州市,下埔横江三路子站,,19,19,14,6,4,67,26,52,38,16,12,2,3,0.4,0.3
2022-08-11T22:00:00,1394A,114.4103,23.1142,惠州市,江北云山西路子站,,17,17,15,3,5,74,18,56,38,17,10,5,7,0.4,0.4
2022-08-11T22:00:00,1395A,114.4645,22.7833,惠州市,惠阳区承修路船湖子站,,12,12,11,3,4,55,22,49,39,22,9,5,5,0.3,0.3
2022-08-11T22:00:00,1396A,114.5317,22.7422,惠州市,大亚湾管委会子站,,14,12,12,6,6,54,15,46,32,28,14,9,8,0.4,0.5
2022-08-11T22:00:00,1397A,112.4267,23.0706,肇庆市,睦岗子站,,13,11,16,7,12,85,41,73,64,20,19,10,10,0.3,0.3
2022-08-11T22:00:00,1398A,112.4645,23.0475,肇庆市,城中子站,,16,16,17,7,10,78,24,68,54,30,19,10,8,0.5,0.5
2022-08-11T22:00:00,1399A,112.5544,23.1522,肇庆市,坑口子站,,16,15,21,11,13,79,37,63,58,19,26,7,10,0.3,0.3
2022-08-11T22:00:00,1400A,112.4753,23.1,肇庆市,七星岩子站(对照点),,,,,,,,,,,,,,,,
2022-08-11T22:00:00,1401A,108.3103,22.7881,南宁市,二十一中,,18,18,10,7,6,63,39,55,51,14,8,4,4,0.6,0.4
2022-08-11T22:00:00,1402A,108.3141,22.8528,南宁市,北湖,,20,20,11,12,7,64,40,55,52,9,7,5,5,0.6,0.4
2022-08-11T22:00:00,1403A,108.3206,22.8225,南宁市,市监测站,,16,14,11,11,8,61,39,52,49,14,11,5,6,0.6,0.5
2022-08-11T22:00:00,1404A,108.3829,22.8037,南宁市,大自然花园,,19,11,8,13,7,60,43,54,51,11,7,6,6,0.6,0.5
2022-08-11T22:00:00,1405A,108.4394,22.7904,南宁市,仙葫(对照点),,18,18,9,8,6,57,40,51,50,11,6,7,7,0.4,0.5
2022-08-11T22:00:00,1406A,108.2397,22.8467,南宁市,区农职院,,14,7,12,9,7,73,42,61,58,13,11,6,6,0.5,0.5
2022-08-11T22:00:00,1407A,108.3275,22.735,南宁市,英华嘉园,,12,10,10,6,6,54,36,47,45,8,8,5,5,0.5,0.5
2022-08-11T22:00:00,1408A,108.2257,22.7757,南宁市,沙井镇街道办,,15,14,23,10,8,69,34,54,50,21,13,6,6,0.6,0.5
2022-08-11T22:00:00,1409A,110.576,19.9507,海口市,东寨港(对照点),,,13,14,6,4,46,30,41,36,,,6,7,0.5,0.5
2022-08-11T22:00:00,1410A,110.3232,20.0574,海口市,海南大学,,17,17,15,5,6,50,35,47,43,6,6,4,4,0.7,0.7
2022-08-11T22:00:00,1411A,110.283,20.0053,海口市,秀英海南医院,,22,22,25,12,8,35,34,31,31,9,13,3,3,0.5,0.7
2022-08-11T22:00:00,1412A,110.338,19.9969,海口市,海南师范大学,,24,24,19,9,5,44,27,42,38,7,4,3,3,0.7,0.7
2022-08-11T22:00:00,1413A,110.33,20.0356,海口市,龙华路环保局宿舍,,24,24,16,6,4,51,35,49,43,6,4,2,2,0.5,0.5
2022-08-11T22:00:00,1414A,106.3787,29.8279,重庆市,缙云山(对照点),,28,8,12,9,6,153,89,136,134,18,16,5,6,0.2,0.2
2022-08-11T22:00:00,1416A,106.4213,29.8253,重庆市,天生,颗粒物(PM10),66,82,36,11,14,153,55,132,114,36,30,5,6,0.6,0.6
2022-08-11T22:00:00,1417A,106.6263,29.7228,重庆市,两路,,35,35,26,14,16,117,29,106,78,60,34,7,10,0.7,0.5
2022-08-11T22:00:00,1418A,106.2953,29.5983,重庆市,虎溪,,31,31,23,13,10,141,36,128,106,38,32,9,9,0.4,0.4
2022-08-11T22:00:00,1419A,106.5777,29.5102,重庆市,南坪,,33,33,26,13,13,156,54,131,104,16,14,3,4,0.7,0.7
2022-08-11T22:00:00,1420A,106.6556,29.6277,重庆市,唐家沱,,25,25,10,14,6,128,42,118,97,32,22,3,4,0.5,0.6
2022-08-11T22:00:00,1421A,106.6349,29.4906,重庆市,茶园,,36,36,51,11,14,163,42,132,88,41,39,6,7,0.4,0.7
2022-08-11T22:00:00,1422A,106.3754,29.4572,重庆市,白市驿,,20,14,20,13,10,109,62,101,90,6,11,11,10,0.7,0.7
2022-08-11T22:00:00,1425A,106.6205,29.7166,重庆市,空港,,39,39,22,21,12,126,35,116,94,38,15,9,8,0.5,0.5
2022-08-11T22:00:00,1426A,106.4782,29.4875,重庆市,新山村,,22,22,17,4,7,139,42,118,99,30,23,7,6,0.3,0.4
2022-08-11T22:00:00,1427A,106.5616,29.6453,重庆市,礼嘉,,37,37,23,18,10,188,36,143,102,46,44,7,6,0.8,0.8
2022-08-11T22:00:00,1428A,106.4522,29.7091,重庆市,蔡家,,20,19,22,8,11,164,46,146,119,39,26,4,4,0.6,0.6
2022-08-11T22:00:00,1429A,106.5093,29.3917,重庆市,鱼新街,,30,30,17,20,12,123,47,98,85,11,13,5,6,0.7,0.8
2022-08-11T22:00:00,1431A,103.9728,30.7236,成都市,金泉两河,,49,49,50,32,33,278,101,208,160,18,20,1,3,0.6,0.6
2022-08-11T22:00:00,1432A,104.1419,30.6764,成都市,十里店,,38,38,52,25,31,215,90,179,146,34,33,3,3,0.6,0.7
2022-08-11T22:00:00,1433A,104.0594,30.5767,成都市,三瓦窑,,35,32,56,21,35,217,43,166,123,70,47,2,2,0.5,0.5
2022-08-11T22:00:00,1434A,104.1122,30.6306,成都市,沙河铺,,34,34,47,23,31,221,36,178,135,46,30,4,3,0.7,0.6
2022-08-11T22:00:00,1437A,104.0431,30.6556,成都市,君平街,细颗粒物(PM2.5),55,52,54,39,38,255,71,197,148,56,29,3,3,0.7,0.6
2022-08-11T22:00:00,1438A,103.6202,31.0201,成都市,灵岩寺(对照点),,42,28,26,18,17,147,134,133,133,2,2,3,4,0.4,0.4
2022-08-11T22:00:00,1439A,106.6899,26.5998,贵阳市,马鞍山,,18,14,18,7,14,76,57,68,64,10,11,4,4,0.6,0.6
2022-08-11T22:00:00,1440A,106.6971,26.5694,贵阳市,市环保站,,17,17,19,9,12,78,43,68,61,17,17,4,4,0.3,0.3
2022-08-11T22:00:00,1441A,106.6243,26.6266,贵阳市,鉴湖路,,24,24,30,7,19,80,51,70,64,9,13,4,4,0.3,0.5
2022-08-11T22:00:00,1442A,106.7487,26.6343,贵阳市,燕子冲,,20,17,22,14,18,81,56,73,69,10,10,6,6,0.6,0.7
2022-08-11T22:00:00,1443A,106.6555,26.4365,贵阳市,碧云窝,,22,22,30,0,9,77,56,70,65,6,10,4,4,0.3,0.4
2022-08-11T22:00:00,1444A,106.694,26.5161,贵阳市,中院村,,29,29,37,17,21,75,42,69,62,16,16,2,2,0.4,0.5
2022-08-11T22:00:00,1445A,106.7109,26.6027,贵阳市,红边门,,39,39,34,17,24,73,44,64,54,17,20,3,6,0.5,0.5
2022-08-11T22:00:00,1446A,106.7164,26.5699,贵阳市,新华路,,16,14,22,9,17,76,49,69,63,8,12,6,5,0.3,0.4
2022-08-11T22:00:00,1447A,106.674,26.5424,贵阳市,太慈桥,颗粒物(PM10),53,56,39,9,14,65,53,61,56,5,14,5,6,0.3,0.4
2022-08-11T22:00:00,1450A,102.8204,24.8886,昆明市,呈贡新区,,20,20,23,12,13,83,47,68,61,14,14,12,9,0.4,0.4
2022-08-11T22:00:00,1451A,102.6251,24.9608,昆明市,西山森林公园(对照点),,18,11,16,1,10,87,56,79,67,11,11,6,11,0.4,0.4
2022-08-11T22:00:00,1452A,102.7252,25.0902,昆明市,龙泉镇,,,15,20,10,12,72,54,67,65,,18,7,6,,0.2
2022-08-11T22:00:00,1453A,102.7266,25.0375,昆明市,东风东路,,29,29,21,8,10,71,51,66,63,14,17,4,5,0.4,0.4
2022-08-11T22:00:00,1454A,102.6742,25.0669,昆明市,金鼎山,,18,13,20,8,14,75,57,68,66,5,9,3,10,0.3,0.3
2022-08-11T22:00:00,1455A,102.6644,25.0401,昆明市,碧鸡广场,,18,14,21,9,13,76,56,70,66,13,15,6,9,0.3,0.3
2022-08-11T22:00:00,1456A,91.1319,29.6514,拉萨市,八廓街,,33,10,8,16,10,137,104,133,130,17,11,8,7,0.1,0.1
2022-08-11T22:00:00,1457A,91.1221,29.6747,拉萨市,市环保局,,25,21,12,7,5,134,80,129,121,26,12,7,7,0.3,0.2
2022-08-11T22:00:00,1458A,91.0874,29.6475,拉萨市,区监测站,,31,14,8,1,0,147,99,142,136,24,11,8,8,0.3,0.2
2022-08-11T22:00:00,1459A,91.1774,29.6541,拉萨市,西藏大学,,37,16,9,4,4,138,116,132,131,14,11,9,9,0.2,0.2
2022-08-11T22:00:00,1460A,90.9798,29.6588,拉萨市,区辐射站,,34,13,11,7,6,130,108,124,122,9,15,9,9,0.2,0.2
2022-08-11T22:00:00,1461A,91.0834,29.6292,拉萨市,拉萨火车站,,35,4,11,6,3,138,111,133,131,12,9,10,10,0.3,0.3
2022-08-11T22:00:00,1462A,108.882,34.2749,西安市,高压开关厂,颗粒物(PM10),62,74,59,32,31,198,112,168,152,26,21,8,9,0.9,0.8
2022-08-11T22:00:00,1463A,108.993,34.2629,西安市,兴庆小区,颗粒物(PM10),56,62,57,37,33,185,112,169,156,26,23,5,7,0.8,0.9
2022-08-11T22:00:00,1464A,109.06,34.2572,西安市,纺织城,颗粒物(PM10),59,68,66,27,30,174,23,147,115,74,37,5,7,0.7,0.7
2022-08-11T22:00:00,1465A,108.9356,34.2173,西安市,小寨,,48,48,56,25,26,216,116,178,162,26,29,2,3,0.7,0.7
2022-08-11T22:00:00,1466A,108.954,34.2713,西安市,市人民体育场,颗粒物(PM10),61,71,61,27,31,194,99,173,157,39,23,5,6,0.7,0.7
2022-08-11T22:00:00,1467A,108.8922,34.2322,西安市,高新西区,颗粒物(PM10),58,66,56,30,33,216,118,180,164,22,22,7,6,0.9,1
2022-08-11T22:00:00,1468A,108.935,34.3474,西安市,经开区,颗粒物(PM10),55,60,53,27,29,166,102,153,143,23,15,2,5,0.6,0.6
2022-08-11T22:00:00,1469A,108.906,34.1546,西安市,长安区,颗粒物(PM10),54,58,71,35,32,266,134,218,200,39,31,5,5,0.7,0.6
2022-08-11T22:00:00,1470A,109.2,34.6575,西安市,阎良区,,,,,,,,,,,,,,,,
2022-08-11T22:00:00,1471A,109.2186,34.3731,西安市,临潼区,颗粒物(PM10),51,51,63,30,31,153,108,142,134,21,27,4,5,0.7,0.7
2022-08-11T22:00:00,1472A,108.869,34.378,西安市,草滩(对照点),颗粒物(PM10),59,67,49,36,31,147,57,132,121,29,17,6,6,1.2,1
2022-08-11T22:00:00,1473A,108.985,34.1978,西安市,曲江文化产业集团,颗粒物(PM10),52,54,64,24,31,227,106,184,166,33,30,6,7,0.9,1
2022-08-11T22:00:00,1474A,109.051,34.3213,西安市,广运潭,颗粒物(PM10),66,81,61,39,30,167,85,153,142,32,17,8,9,0.8,0.8
2022-08-11T22:00:00,1476A,103.631,36.1031,兰州市,兰炼宾馆,,42,42,38,16,23,167,89,146,124,16,16,4,8,0.2,0.4
2022-08-11T22:00:00,1477A,104.1373,35.9454,兰州市,榆中兰大校区(对照点),,,,,,,,,,,,,,,,
2022-08-11T22:00:00,1478A,103.8412,36.0726,兰州市,生物制品所,,47,47,33,26,24,145,87,132,113,24,18,6,8,0.7,0.8
2022-08-11T22:00:00,1479A,103.831,36.0464,兰州市,铁路设计院,,37,37,38,14,15,142,101,126,112,16,23,5,8,0.4,0.6
2022-08-11T22:00:00,1480A,101.748,36.6428,西宁市,市环境监测站,,,,,,,,,,,,,,,,
2022-08-11T22:00:00,1482A,101.834,36.5819,西宁市,四陆医院,,,,,,,,,,,,,,,,
2022-08-11T22:00:00,1483A,101.524,36.6867,西宁市,第五水厂(对照点),,,,,,,,,,,,,,,,
2022-08-11T22:00:00,1484A,105.9512,38.6016,银川市,贺兰山马莲口(对照点),,36,15,35,25,32,140,102,132,125,8,15,7,11,0.5,0.7
2022-08-11T22:00:00,1488A,106.2328,38.4975,银川市,贺兰山东路,,48,35,43,33,33,137,99,127,123,16,19,4,4,0.9,0.9
2022-08-11T22:00:00,1489A,106.1358,38.5036,银川市,学院路,颗粒物(PM10),52,54,68,33,42,141,93,123,120,19,20,6,7,0.9,1.2
2022-08-11T22:00:00,1490A,87.5801,43.8303,乌鲁木齐市,监测站,,30,16,21,13,12,115,94,105,99,16,13,5,5,0.3,0.3
2022-08-11T22:00:00,1491A,87.6046,43.768,乌鲁木齐市,收费所,,26,15,26,12,9,115,82,107,84,9,5,6,7,0.4,0.3
2022-08-11T22:00:00,1492A,87.4754,43.9469,乌鲁木齐市,新疆农科院农场(对照点),颗粒物(PM10),55,60,42,8,12,92,24,80,64,51,23,7,9,0.8,0.8
2022-08-11T22:00:00,1493A,87.5525,43.8711,乌鲁木齐市,铁路局,,26,20,19,9,10,119,82,104,95,16,12,3,4,0.6,0.6
2022-08-11T22:00:00,1494A,87.6432,43.831,乌鲁木齐市,三十一中学,,34,14,24,12,12,112,108,103,97,7,8,4,5,0.3,0.3
2022-08-11T22:00:00,1496A,87.7216,44.1747,乌鲁木齐市,米东区环保局,,33,33,24,14,17,127,56,118,103,28,11,5,5,0.6,0.5
2022-08-11T22:00:00,1508A,112.9433,27.8614,湘潭市,板塘,,23,23,18,16,10,74,46,69,64,18,11,5,3,0.5,0.4
2022-08-11T22:00:00,1511A,112.9118,27.8403,湘潭市,市监测站,,26,24,7,18,8,70,39,67,59,26,11,9,8,0.7,0.6
2022-08-11T22:00:00,1512A,112.8937,27.8728,湘潭市,江麓,,,,19,5,11,132,46,66,55,,10,3,10,0.5,0.6
2022-08-11T22:00:00,1513A,112.9227,27.8159,湘潭市,岳塘,,26,26,15,8,7,78,51,70,67,11,6,12,10,0.5,0.4
2022-08-11T22:00:00,1514A,112.9074,27.9119,湘潭市,科大,,28,28,17,7,10,78,52,73,68,9,5,5,6,0.3,0.3
2022-08-11T22:00:00,1515A,113.135,27.8244,株洲市,天台山庄,,36,14,8,25,10,70,45,66,63,15,6,5,5,0.6,0.3
2022-08-11T22:00:00,1518A,113.095,27.8867,株洲市,株冶医院,,19,17,4,9,6,78,58,74,70,8,7,7,6,0.5,0.4
2022-08-11T22:00:00,1519A,113.167,27.8667,株洲市,市四中,,31,31,11,16,7,77,48,72,66,15,10,5,4,0.5,0.4
2022-08-11T22:00:00,1520A,113.143,27.8381,株洲市,火车站,,36,36,14,11,8,71,48,68,64,16,11,7,6,0.3,0.2
2022-08-11T22:00:00,1524A,113.13,27.8528,株洲市,市监测站,,34,34,14,21,9,77,56,74,70,12,6,4,4,0.4,0.2
2022-08-11T22:00:00,1552A,106.805,26.3003,贵阳市,桐木岭(对照点),,,,,,,,,,,,,,,,
2022-08-11T22:00:00,1559A,113.251,27.8336,株洲市,大京风景区(对照点),,22,22,6,6,8,60,20,58,44,7,5,3,5,0.4,0.4
2022-08-11T22:00:00,1562A,113.0048,27.9153,湘潭市,昭山,,18,14,6,12,7,68,23,66,55,32,12,8,7,0.4,0.3
2022-08-11T22:00:00,1564A,112.4876,27.9164,湘潭市,韶山(对照点),,23,23,15,8,6,79,49,73,70,13,12,9,8,0.7,0.7
2022-08-11T22:00:00,1585A,109.8756,40.6532,包头市,市环境监测站,,46,23,30,12,17,162,13,146,108,91,36,6,5,1.1,0.8
2022-08-11T22:00:00,1587A,109.9991,40.5842,包头市,包头八中,,46,30,32,18,21,167,12,148,121,91,26,6,8,0.7,0.8
2022-08-11T22:00:00,1588A,109.8538,40.6821,包头市,青山宾馆,,39,26,34,20,17,170,21,150,104,78,38,8,5,1.0,0.8
2022-08-11T22:00:00,1589A,109.8642,40.6288,包头市,惠龙物流,,36,27,35,11,18,160,32,148,119,71,28,9,10,0.7,0.8
2022-08-11T22:00:00,1590A,110.0377,40.5546,包头市,东河鸿龙湾,,30,26,28,21,13,148,40,137,116,51,17,8,4,0.8,0.7
2022-08-11T22:00:00,1591A,110.0023,39.8129,鄂尔多斯市,综合楼,,35,35,40,7,14,148,88,138,129,32,25,8,9,0.6,0.8
2022-08-11T22:00:00,1592A,109.9486,39.8261,鄂尔多斯市,巴音孟克林场办事处,,44,44,53,17,19,143,94,137,128,32,30,8,9,0.9,1.1
2022-08-11T22:00:00,1593A,109.7736,39.5986,鄂尔多斯市,康泽苑,,48,48,43,17,21,198,110,167,160,16,14,5,5,0.9,0.9
2022-08-11T22:00:00,1594A,109.8119,39.5989,鄂尔多斯市,华泰汽车城,,44,44,43,27,25,190,112,162,155,16,15,10,9,0.9,1
2022-08-11T22:00:00,1595A,109.9734,39.7884,鄂尔多斯市,奥林花园,颗粒物(PM10),52,53,45,14,19,148,57,128,116,41,27,5,5,0.8,1
2022-08-11T22:00:00,1596A,122.2414,40.6592,营口市,学府南路,,,,,,,,,,,,,,,,
2022-08-11T22:00:00,1597A,122.2703,40.7094,营口市,大庆路,细颗粒物(PM2.5),53,38,27,37,16,198,161,175,174,10,15,4,6,0.9,0.6
2022-08-11T22:00:00,1598A,122.215,40.6511,营口市,镜湖西路,,50,32,25,33,16,183,160,167,166,11,14,3,4,1.2,0.8
2022-08-11T22:00:00,1599A,122.167,40.6655,营口市,西炮台,臭氧1小时,83,49,26,30,14,186,186,176,176,6,8,8,8,1.4,1.1
2022-08-11T22:00:00,1600A,124.3303,40.0625,丹东市,江湾东路,,26,26,26,10,17,127,40,104,81,26,16,9,9,0.6,0.6
2022-08-11T22:00:00,1601A,124.4256,40.1503,丹东市,临江后街,,34,34,24,17,14,134,57,113,90,16,15,5,5,1.1,0.6
2022-08-11T22:00:00,1602A,124.3933,40.1461,丹东市,元宝山,,21,18,22,11,15,115,67,100,84,14,17,4,4,0.7,0.8
2022-08-11T22:00:00,1603A,124.3633,40.1092,丹东市,民主桥,,33,33,26,18,15,118,66,103,88,19,22,12,13,0.7,0.6
2022-08-11T22:00:00,1604A,122.0303,41.1489,盘锦市,开发区,细颗粒物(PM2.5),82,66,33,60,22,184,123,161,156,34,18,5,5,1.3,1
2022-08-11T22:00:00,1605A,122.0485,41.0883,盘锦市,兴隆台,细颗粒物(PM2.5),53,48,31,37,20,176,105,155,149,39,18,5,6,1.2,0.8
2022-08-11T22:00:00,1606A,121.8297,41.1028,盘锦市,新生街道,,,,,,,,,,,,,,,,
2022-08-11T22:00:00,1607A,120.9092,40.7136,葫芦岛市,龙港区,,45,27,38,13,21,202,144,185,177,3,8,7,10,0.6,1.1
2022-08-11T22:00:00,1608A,120.8392,40.7514,葫芦岛市,化工街,,50,43,47,35,34,215,130,195,183,18,19,5,5,0.8,0.9
2022-08-11T22:00:00,1609A,120.8341,40.7073,葫芦岛市,新区,,47,43,40,31,43,213,148,192,182,8,13,7,9,0.8,1.1
2022-08-11T22:00:00,1610A,120.8695,40.7677,葫芦岛市,东城区,,46,43,43,32,27,203,124,180,170,18,18,2,2,0.8,0.8
2022-08-11T22:00:00,1611A,118.5819,24.9117,泉州市,涂山街,,30,30,38,13,13,146,28,109,61,24,20,10,15,0.5,0.5
2022-08-11T22:00:00,1612A,118.5972,24.8978,泉州市,津头埔,,24,24,36,10,12,132,21,95,51,28,25,7,14,0.5,0.5
2022-08-11T22:00:00,1613A,118.6663,24.9424,泉州市,万安,,30,30,35,9,13,154,21,105,57,19,14,8,12,0.5,0.5
2022-08-11T22:00:00,1614A,118.6117,24.9604,泉州市,清源山(对照点),,,,,,,,,,,,,,,,
2022-08-11T22:00:00,1616A,117.6795,36.229,济南市,技术学院,颗粒物(PM10),57,63,50,38,26,126,42,113,100,45,21,5,7,1.4,1.6
2022-08-11T22:00:00,1618A,118.3429,35.0532,临沂市,沂河小区,颗粒物(PM10),64,78,98,40,62,168,135,155,146,18,29,9,10,0.6,0.7
2022-08-11T22:00:00,1619A,118.295,35.0583,临沂市,鲁南制药厂,颗粒物(PM10),60,70,86,41,49,186,132,168,160,24,32,12,11,1.0,1
2022-08-11T22:00:00,1620A,118.2794,34.9976,临沂市,新光毛纺厂,颗粒物(PM10),70,90,100,44,46,191,116,171,153,30,32,13,9,0.8,0.8
2022-08-11T22:00:00,1621A,118.3956,35.0888,临沂市,河东保险公司,颗粒物(PM10),69,88,70,42,29,172,68,158,137,56,27,9,7,0.9,0.8
2022-08-11T22:00:00,1622A,116.3032,37.4674,德州市,儿童乐园,细颗粒物(PM2.5),69,63,34,50,30,123,96,117,114,15,9,8,9,0.9,0.7
2022-08-11T22:00:00,1624A,116.2991,37.4451,德州市,监理站,颗粒物(PM10),60,69,34,41,23,128,95,118,114,20,11,7,9,1.0,0.7
2022-08-11T22:00:00,1625A,115.9848,36.4372,聊城市,区政府,颗粒物(PM10),57,64,39,31,25,108,47,102,87,21,12,4,3,0.9,0.6
2022-08-11T22:00:00,1628A,118.0062,37.3803,滨州市,市环保局,细颗粒物(PM2.5),57,55,38,40,34,125,84,113,108,16,12,4,5,0.6,0.5
2022-08-11T22:00:00,1629A,118.0018,37.3617,滨州市,第二水厂,,43,41,31,30,27,127,66,114,106,19,8,5,6,0.7,0.6
2022-08-11T22:00:00,1630A,117.9776,37.393,滨州市,北中新校,细颗粒物(PM2.5),58,48,33,41,30,123,35,105,92,29,11,6,7,0.6,0.4
2022-08-11T22:00:00,1631A,118.0414,36.8103,淄博市,人民公园,颗粒物(PM10),75,100,50,54,33,132,65,112,107,43,27,6,7,1.0,0.8
2022-08-11T22:00:00,1632A,118.0253,36.8406,淄博市,东风化工厂,,,,,,,,,,,,,,,,
2022-08-11T22:00:00,1633A,117.8525,36.4847,淄博市,双山,颗粒物(PM10),51,51,60,32,38,84,29,67,58,28,31,9,10,1.0,1
2022-08-11T22:00:00,1634A,117.9592,36.6331,淄博市,气象站,细颗粒物(PM2.5),83,81,59,61,46,99,20,81,72,50,31,12,10,1.1,0.9
2022-08-11T22:00:00,1635A,118.3092,36.8194,淄博市,莆田园,细颗粒物(PM2.5),79,88,57,58,52,181,35,151,132,45,32,5,6,1.1,0.7
2022-08-11T22:00:00,1636A,117.8661,36.805,淄博市,三金集团,,,,,,,,,,,,,,,,
2022-08-11T22:00:00,1637A,117.558,34.8438,枣庄市,市中区政府,颗粒物(PM10),78,105,89,56,45,177,156,171,165,28,31,18,24,0.7,0.7
2022-08-11T22:00:00,1638A,117.2852,34.7837,枣庄市,薛城环保局,细颗粒物(PM2.5),77,93,75,56,45,177,112,162,135,29,25,11,12,0.8,0.6
2022-08-11T22:00:00,1639A,117.5852,34.7745,枣庄市,峄城区政府,细颗粒物(PM2.5),94,114,111,70,60,190,149,176,164,19,21,8,11,0.8,0.9
2022-08-11T22:00:00,1640A,117.7276,34.5578,枣庄市,台儿庄区环保局,颗粒物(PM10),108,166,98,78,60,222,46,190,154,67,22,12,13,1.0,1
2022-08-11T22:00:00,1641A,117.4518,35.0992,枣庄市,山亭区环保局,颗粒物(PM10),56,61,72,34,49,198,128,187,175,18,17,12,13,0.8,0.9
2022-08-11T22:00:00,1642A,121.2514,37.5639,烟台市,开发区,,,,22,,14,133,,125,123,33,12,6,6,0.7,0.6
2022-08-11T22:00:00,1643A,121.3719,37.5433,烟台市,轴承厂,,39,36,24,27,19,138,68,125,109,13,10,6,7,0.3,0.2
2022-08-11T22:00:00,1644A,121.3181,37.5436,烟台市,西郊化工站,,31,22,21,19,12,123,97,116,109,10,16,7,9,0.4,0.4
2022-08-11T22:00:00,1645A,121.4478,37.4822,烟台市,莱山环保局,,27,27,14,16,11,136,86,128,120,14,7,7,7,0.4,0.3
2022-08-11T22:00:00,1646A,121.2611,37.4967,烟台市,福山环保局,颗粒物(PM10),54,58,27,29,15,111,43,101,78,45,21,13,11,0.3,0.1
2022-08-11T22:00:00,1648A,119.12,36.7019,潍坊市,仲裁委,,,,,,,,,,,,,,,,
2022-08-11T22:00:00,1650A,119.1437,36.7023,潍坊市,环保局,,42,36,26,29,21,128,59,107,103,15,21,4,4,0.8,0.8
2022-08-11T22:00:00,1652A,119.1936,36.7729,潍坊市,寒亭监测站,,,,,,,,,,,,,,,,
2022-08-11T22:00:00,1653A,116.6251,35.4302,济宁市,火炬城,细颗粒物(PM2.5),73,94,58,53,37,159,84,147,132,21,14,4,5,0.8,0.8
2022-08-11T22:00:00,1655A,116.5491,35.4042,济宁市,电化厂,颗粒物(PM10),65,80,52,46,35,167,115,156,147,15,8,8,8,1.1,0.9
2022-08-11T22:00:00,1656A,117.1437,36.1937,泰安市,监测站,"颗粒物(PM10),细颗粒物(PM2.5)",57,63,44,40,28,124,60,115,100,18,17,6,6,0.6,0.5
2022-08-11T22:00:00,1657A,117.0885,36.2017,泰安市,人口学校,颗粒物(PM10),52,53,39,34,24,112,66,107,100,14,12,7,7,0.4,0.4
2022-08-11T22:00:00,1658A,117.1089,36.1758,泰安市,电力学校,"颗粒物(PM10),细颗粒物(PM2.5)",60,70,47,43,26,115,52,104,88,20,15,6,6,0.5,0.4
2022-08-11T22:00:00,1659A,119.471,35.4209,日照市,监测站,颗粒物(PM10),59,68,71,38,49,136,54,113,111,20,26,5,4,0.7,0.9
2022-08-11T22:00:00,1660A,119.523,35.4216,日照市,市政府广场,,48,48,74,29,43,144,55,116,112,22,27,5,6,0.8,1
2022-08-11T22:00:00,1661A,119.5587,35.4044,日照市,港务局,,32,29,72,22,39,170,49,130,120,22,24,4,5,0.6,0.9
2022-08-11T22:00:00,1662A,122.1214,37.4236,威海市,华夏技校,,25,19,14,14,15,122,77,109,106,16,11,6,6,0.3,0.3
2022-08-11T22:00:00,1663A,122.0508,37.5236,威海市,山大分校,,42,42,15,24,11,151,92,139,135,26,12,6,6,0.4,0.3
2022-08-11T22:00:00,1664A,122.1067,37.5072,威海市,市监测站,,39,29,20,27,19,121,79,111,107,26,14,5,5,0.6,0.5
2022-08-11T22:00:00,1665A,118.5019,37.4658,东营市,西城阳光环保公司,,,,,,,,,,,,,,,,
2022-08-11T22:00:00,1666A,118.6614,37.4309,东营市,市环保局,细颗粒物(PM2.5),85,68,35,63,31,122,102,112,112,17,12,10,11,1.0,0.6
2022-08-11T22:00:00,1669A,113.5824,24.7733,韶关市,市八中,,17,17,19,3,9,67,34,48,39,14,9,12,7,0.4,0.4
2022-08-11T22:00:00,1670A,113.5556,24.8082,韶关市,碧湖山庄,,,,,,,,,,,,,,,,
2022-08-11T22:00:00,1671A,113.5917,24.7972,韶关市,园林处,,22,12,18,15,10,60,29,45,40,16,10,15,8,0.6,0.4
2022-08-11T22:00:00,1672A,113.6735,24.7791,韶关市,韶关学院,,17,17,19,10,8,50,16,41,30,15,12,9,7,0.5,0.5
2022-08-11T22:00:00,1673A,113.5971,24.6863,韶关市,曲江监测站,,42,42,28,11,10,70,13,49,34,25,14,7,11,0.5,0.7
2022-08-11T22:00:00,1674A,116.6794,23.3667,汕头市,金平子站,,21,21,18,4,9,71,44,64,58,8,12,7,8,0.6,0.7
2022-08-11T22:00:00,1675A,116.7244,23.3633,汕头市,龙湖子站,,13,10,17,2,6,66,41,62,57,10,10,7,8,0.5,0.5
2022-08-11T22:00:00,1676A,116.7258,23.2775,汕头市,濠江子站,,20,20,15,7,6,66,39,60,54,7,7,10,9,0.6,0.5
2022-08-11T22:00:00,1677A,116.7519,23.4714,汕头市,澄海子站,,14,9,15,8,8,67,42,59,55,12,10,5,6,0.7,0.6
2022-08-11T22:00:00,1678A,116.6092,23.2539,汕头市,潮阳子站,,17,17,19,5,9,57,41,51,46,5,9,10,12,0.5,0.6
2022-08-11T22:00:00,1679A,116.4069,23.2533,汕头市,潮南子站,,,,,,,,,,,,,,,,
2022-08-11T22:00:00,1680A,110.3539,21.2706,湛江市,湛江影剧院,,18,4,17,4,8,73,57,66,63,4,5,5,5,0.4,0.5
2022-08-11T22:00:00,1681A,110.3928,21.2228,湛江市,市环境监测站,,18,4,16,10,13,68,56,64,62,3,6,5,5,0.5,0.5
2022-08-11T22:00:00,1682A,110.4019,21.1997,湛江市,环保局宿舍,,17,8,15,5,9,63,53,61,59,3,6,4,5,0.5,0.6
2022-08-11T22:00:00,1683A,110.4111,21.2028,湛江市,霞山游泳场,,17,10,16,8,10,64,54,62,60,4,5,5,5,0.4,0.5
2022-08-11T22:00:00,1684A,110.3316,21.2679,湛江市,麻章区环保局,,17,10,18,6,9,69,54,62,60,4,7,4,4,0.4,0.5
2022-08-11T22:00:00,1685A,110.4558,21.2567,湛江市,坡头区环保局,,18,9,13,5,7,72,55,67,64,4,4,5,5,0.4,0.4
2022-08-11T22:00:00,1686A,111.0286,21.4688,茂名市,电白南海,,24,24,25,14,8,74,30,70,50,14,9,5,4,0.5,0.4
2022-08-11T22:00:00,1687A,110.9294,21.6533,茂名市,茂石化七小,,14,14,12,7,7,67,32,63,44,8,6,5,5,0.7,0.6
2022-08-11T22:00:00,1688A,110.9107,21.6687,茂名市,健康路,,13,12,8,3,1,71,39,68,54,5,4,9,7,0.7,0.6
2022-08-11T22:00:00,1689A,110.8592,21.6828,茂名市,高岭,,18,9,12,12,13,69,41,66,49,11,9,13,8,0.6,0.5
2022-08-11T22:00:00,1690A,116.1231,24.3284,梅州市,梅江月梅,,21,21,19,10,7,56,19,50,40,13,7,4,5,0.5,0.4
2022-08-11T22:00:00,1691A,116.0797,24.2719,梅州市,梅县新城,,28,28,17,17,10,62,8,54,44,27,12,5,5,0.7,0.5
2022-08-11T22:00:00,1692A,116.1248,24.2654,梅州市,环境监控中心,,17,17,16,9,8,60,14,53,40,19,11,4,7,0.6,0.5
2022-08-11T22:00:00,1693A,115.3653,22.775,汕尾市,市环保局,,17,17,13,9,5,54,29,49,38,11,6,5,6,0.6,0.5
2022-08-11T22:00:00,1694A,115.3706,22.7898,汕尾市,市政府,,23,23,12,6,5,60,27,52,38,8,6,6,6,0.5,0.5
2022-08-11T22:00:00,1695A,115.3622,22.7925,汕尾市,新城中学,,20,20,13,6,4,60,24,52,38,6,3,6,6,0.5,0.5
2022-08-11T22:00:00,1696A,114.6778,23.7569,河源市,源西(对照点),,13,13,16,4,4,60,8,50,36,24,10,3,3,0.6,0.5
2022-08-11T22:00:00,1697A,114.6944,23.7586,河源市,东埔,,10,8,12,3,3,56,29,46,37,12,10,4,5,0.5,0.5
2022-08-11T22:00:00,1698A,114.6892,23.7233,河源市,老城,,12,1,14,2,3,68,37,50,40,7,10,2,4,0.6,0.6
2022-08-11T22:00:00,1699A,111.9797,21.8593,阳江市,鸳鸯湖(对照点),,,,,,,,,,,,,,,,
2022-08-11T22:00:00,1700A,111.9508,21.8536,阳江市,南恩路,,,,,,,,,,,,,,,,
2022-08-11T22:00:00,1701A,111.9491,21.8658,阳江市,马南垌,,18,10,15,12,8,68,29,57,40,8,5,5,5,0.6,0.5
2022-08-11T22:00:00,1702A,113.0426,23.691,清远市,环保大楼(对照点),,14,8,9,3,4,82,42,70,60,8,8,4,4,0.4,0.4
2022-08-11T22:00:00,1703A,113.0208,23.7106,清远市,凤城街办,,11,10,10,5,4,65,33,56,47,10,9,4,4,0.6,0.6
2022-08-11T22:00:00,1705A,116.6367,23.6719,潮州市,西园路(对照点),,23,23,20,4,6,70,36,59,55,12,8,5,5,0.9,0.8
2022-08-11T22:00:00,1706A,116.6447,23.6706,潮州市,档案局,,20,20,18,6,9,76,39,68,60,13,9,8,7,0.6,0.5
2022-08-11T22:00:00,1708A,116.3701,23.5345,揭阳市,新兴,,16,16,22,8,12,78,28,64,50,9,11,5,7,0.8,0.7
2022-08-11T22:00:00,1709A,116.3264,23.5443,揭阳市,西马,,18,18,23,6,9,79,29,62,48,9,11,4,5,0.7,0.7
2022-08-11T22:00:00,1710A,116.3611,23.5626,揭阳市,东兴,,28,28,22,5,8,72,40,63,56,15,14,3,5,1.0,0.9
2022-08-11T22:00:00,1711A,116.4151,23.5294,揭阳市,渔湖,,27,27,24,11,11,81,30,69,50,9,12,5,8,0.6,0.6
2022-08-11T22:00:00,1712A,112.0392,22.9169,云浮市,新市府(对照点),,,,,,,,,,,,,,,,
2022-08-11T22:00:00,1713A,112.0369,22.9394,云浮市,市监测站,,,,,,,,,,,,,,,,
2022-08-11T22:00:00,1714A,112.0539,22.9539,云浮市,牧羊,,26,26,13,9,7,59,50,56,54,14,12,7,6,0.5,0.5
2022-08-11T22:00:00,1715A,102.575,24.3711,玉溪市,东风水库,,19,12,13,5,7,82,59,72,66,6,8,4,4,0.5,0.6
2022-08-11T22:00:00,1718A,115.4208,35.2464,菏泽市,气象局,细颗粒物(PM2.5),69,73,51,50,36,155,108,134,129,14,13,4,5,0.5,0.5
2022-08-11T22:00:00,1719A,115.4747,35.2375,菏泽市,市政协,颗粒物(PM10),70,89,59,42,29,144,106,132,123,17,13,4,5,0.4,0.3
2022-08-11T22:00:00,1720A,115.455,35.27,菏泽市,菏泽学院,,,,,,,,,,,,,,,,
2022-08-11T22:00:00,1721A,113.3819,40.1097,大同市,果树场(对照点),,,,,,,,,,,,,,,,
2022-08-11T22:00:00,1723A,113.2994,40.0758,大同市,云冈宾馆,颗粒物(PM10),77,104,72,31,25,171,81,140,125,41,37,29,20,0.9,0.9
2022-08-11T22:00:00,1724A,113.3444,40.0917,大同市,大同大学,颗粒物(PM10),66,81,58,17,21,187,33,153,125,59,30,9,16,0.5,0.6
2022-08-11T22:00:00,1725A,113.2661,40.1269,大同市,安家小村,颗粒物(PM10),73,96,72,16,22,207,99,174,154,30,23,16,29,0.5,0.7
2022-08-11T22:00:00,1726A,113.2711,40.0844,大同市,教育学院,颗粒物(PM10),84,118,72,22,25,182,54,155,130,58,30,22,28,1.1,0.7
2022-08-11T22:00:00,1727A,113.1147,36.1547,长治市,清华站,细颗粒物(PM2.5),67,79,44,48,32,75,6,60,44,52,23,9,10,1.4,1
2022-08-11T22:00:00,1728A,113.1031,36.1989,长治市,监测站,颗粒物(PM10),61,71,44,39,31,64,15,59,46,36,21,9,9,1.5,1.2
2022-08-11T22:00:00,1730A,113.0886,36.2125,长治市,审计局,细颗粒物(PM2.5),64,67,41,46,33,77,16,65,50,39,19,9,9,1.4,1.1
2022-08-11T22:00:00,1731A,113.0844,36.1856,长治市,长治八中,细颗粒物(PM2.5),62,69,47,44,30,78,34,63,49,36,23,8,8,1.6,1.4
2022-08-11T22:00:00,1733A,111.5531,36.0783,临汾市,临钢医院,,,54,60,36,43,188,140,141,141,,39,2,3,1.4,1.4
2022-08-11T22:00:00,1734A,111.5028,36.0714,临汾市,技工学校,颗粒物(PM10),53,56,62,24,47,182,76,122,118,32,26,3,7,1.0,1.2
2022-08-11T22:00:00,1735A,111.5169,36.0822,临汾市,工商学校,,,,,,,,,,,,,,,,
2022-08-11T22:00:00,1736A,111.5018,36.0855,临汾市,市委,细颗粒物(PM2.5),57,59,65,40,56,182,72,121,117,31,29,4,9,0.8,1
2022-08-11T22:00:00,1738A,113.5758,37.8572,阳泉市,市中心,,46,46,33,21,13,153,57,134,122,30,24,7,7,1.0,0.9
2022-08-11T22:00:00,1739A,113.4894,37.8731,阳泉市,赛鱼,,42,23,27,29,9,147,45,110,98,13,26,7,9,0.8,0.8
2022-08-11T22:00:00,1740A,113.5819,37.8486,阳泉市,南庄,,35,28,30,24,18,155,62,136,123,17,20,9,11,0.9,1
2022-08-11T22:00:00,1741A,113.6292,37.8531,阳泉市,白羊墅,,,,,,,,,,,,,,,,
2022-08-11T22:00:00,1742A,113.5614,37.8703,阳泉市,平坦,颗粒物(PM10),54,57,38,27,13,145,51,125,115,55,29,14,10,1.1,0.9
2022-08-11T22:00:00,1743A,113.5158,37.8392,阳泉市,大阳泉,,37,19,16,16,11,140,118,113,113,9,17,7,6,0.8,0.7
2022-08-11T22:00:00,1744A,118.9233,42.2816,赤峰市,松山一中,颗粒物(PM10),51,52,20,15,5,101,37,93,69,46,22,13,13,0.7,0.5
2022-08-11T22:00:00,1745A,118.9576,42.2728,赤峰市,哈达街,颗粒物(PM10),64,77,21,41,7,114,45,105,70,50,28,46,28,0.5,0.3
2022-08-11T22:00:00,1746A,118.8788,42.2554,赤峰市,天义路,,37,37,16,13,5,93,27,89,74,63,22,56,14,0.4,0.2
2022-08-11T22:00:00,1748A,123.044,41.1196,鞍山市,深沟寺,"颗粒物(PM10),细颗粒物(PM2.5)",57,64,39,40,24,162,109,149,140,20,16,8,11,1.7,1
2022-08-11T22:00:00,1749A,123.011,41.0931,鞍山市,太阳城,细颗粒物(PM2.5),62,60,40,44,21,164,112,154,148,25,19,8,10,1.3,1.2
2022-08-11T22:00:00,1750A,123.0485,41.1442,鞍山市,太平,颗粒物(PM10),67,84,49,46,24,141,113,130,120,24,24,9,13,1.2,1.1
2022-08-11T22:00:00,1751A,122.9642,41.0971,鞍山市,铁西三道街,细颗粒物(PM2.5),69,78,58,50,30,166,135,149,146,12,18,7,11,1.4,1.2
2022-08-11T22:00:00,1752A,122.9341,41.0833,鞍山市,铁西工业园区,细颗粒物(PM2.5),67,73,52,48,28,162,99,147,137,20,17,4,8,0.7,1.2
2022-08-11T22:00:00,1753A,123.022,41.0821,鞍山市,明达新区,细颗粒物(PM2.5),62,72,43,44,21,159,110,151,143,34,18,6,9,0.8,0.9
2022-08-11T22:00:00,1754A,123.1289,41.0228,鞍山市,千山(对照点),,,,,,,,,,,,,,,,
2022-08-11T22:00:00,1755A,123.7977,41.8491,抚顺市,望花区,细颗粒物(PM2.5),68,51,47,49,29,148,13,129,87,54,34,9,14,1.2,1.1
2022-08-11T22:00:00,1756A,123.9161,41.8822,抚顺市,顺城区,细颗粒物(PM2.5),82,91,51,60,27,149,5,134,81,67,37,10,13,1.0,0.7
2022-08-11T22:00:00,1757A,124.0436,41.8611,抚顺市,东洲区,,50,47,39,35,22,149,48,132,98,24,20,13,10,0.9,0.9
2022-08-11T22:00:00,1758A,123.9247,41.8642,抚顺市,新抚区,颗粒物(PM10),54,57,51,36,28,148,15,134,86,33,23,2,7,1.2,0.9
2022-08-11T22:00:00,1759A,124.0972,41.8961,抚顺市,大伙房水库,,49,49,34,31,18,146,58,132,106,5,5,6,7,0.9,0.8
2022-08-11T22:00:00,1760A,123.7086,41.8391,抚顺市,沈抚新城,细颗粒物(PM2.5),60,57,46,43,25,143,34,125,95,61,29,4,7,0.9,0.8
2022-08-11T22:00:00,1761A,123.8275,41.3064,本溪市,大峪,颗粒物(PM10),56,62,36,35,17,173,59,152,126,25,22,6,8,1.2,0.8
2022-08-11T22:00:00,1762A,123.7567,41.3325,本溪市,溪湖,颗粒物(PM10),70,90,57,36,22,191,42,156,129,37,26,8,14,1.1,1.4
2022-08-11T22:00:00,1763A,123.7169,41.3094,本溪市,彩屯,细颗粒物(PM2.5),59,56,47,42,24,180,40,153,113,30,26,6,13,1.0,1.6
2022-08-11T22:00:00,1764A,123.7669,41.2864,本溪市,东明,颗粒物(PM10),89,128,50,47,15,177,60,149,134,55,32,14,14,2.3,1.1
2022-08-11T22:00:00,1765A,123.7992,41.2664,本溪市,新立屯,,39,39,32,23,13,164,65,137,117,44,24,10,9,1.6,0.9
2022-08-11T22:00:00,1766A,123.8142,41.3472,本溪市,威宁,颗粒物(PM10),59,68,54,27,15,172,21,142,109,37,21,9,15,1.0,0.9
2022-08-11T22:00:00,1767A,121.1115,41.0879,锦州市,南山,细颗粒物(PM2.5),67,31,42,48,42,202,124,185,174,17,14,12,6,1.1,0.9
2022-08-11T22:00:00,1768A,121.0533,40.8434,锦州市,开发区,颗粒物(PM10),63,76,53,44,52,229,142,206,191,33,21,65,38,1.6,1.4
2022-08-11T22:00:00,1769A,121.1836,41.1119,锦州市,百股街道,细颗粒物(PM2.5),63,40,43,45,42,216,95,202,180,27,15,3,5,0.9,1
2022-08-11T22:00:00,1770A,121.1178,41.1222,锦州市,天安街道,颗粒物(PM10),53,55,47,32,31,200,125,192,180,21,17,25,9,1.3,1.1
2022-08-11T22:00:00,1771A,121.1303,41.1386,锦州市,北湖公园,细颗粒物(PM2.5),58,42,47,41,35,191,119,186,171,17,13,8,6,1.0,0.9
2022-08-11T22:00:00,1772A,126.54,43.8622,吉林市,哈达湾,,21,21,18,9,10,112,54,100,77,12,8,5,5,0.4,0.5
2022-08-11T22:00:00,1773A,126.5844,43.8358,吉林市,东局子,,38,38,23,25,12,108,20,101,72,41,13,6,5,0.8,0.7
2022-08-11T22:00:00,1774A,126.5052,43.8245,吉林市,电力学院,,31,31,20,16,11,110,19,101,71,24,9,6,6,0.7,0.6
2022-08-11T22:00:00,1775A,126.6133,43.8972,吉林市,江北,,29,29,22,16,12,110,24,100,65,23,11,12,10,0.8,0.7
2022-08-11T22:00:00,1776A,126.555,43.8306,吉林市,江南公园,,26,26,21,13,13,112,37,102,76,23,9,4,4,0.6,0.6
2022-08-11T22:00:00,1778A,126.7061,43.7133,吉林市,丰满(对照点),,,,,,,,,,,,,,,,
2022-08-11T22:00:00,1779A,123.9305,47.3636,齐齐哈尔市,安居小区,,37,37,25,15,9,40,6,39,27,31,12,6,5,0.5,0.3
2022-08-11T22:00:00,1780A,123.9488,47.3386,齐齐哈尔市,中心广场,,44,44,21,21,5,43,17,39,31,23,12,5,4,0.9,0.5
2022-08-11T22:00:00,1781A,123.9483,47.3227,齐齐哈尔市,农牧车辆厂,颗粒物(PM10),51,51,32,11,5,42,17,39,31,11,8,5,4,0.5,0.4
2022-08-11T22:00:00,1783A,123.945,47.2988,齐齐哈尔市,市环境监测站,,42,42,23,14,7,46,13,41,30,26,14,6,4,0.6,0.4
2022-08-11T22:00:00,1784A,129.61,44.561,牡丹江市,环保大楼,,19,19,17,13,8,93,43,90,68,17,13,5,5,0.4,0.4
2022-08-11T22:00:00,1785A,129.6115,44.5782,牡丹江市,文化广场,,26,26,20,10,9,91,49,88,70,16,13,2,2,0.5,0.3
2022-08-11T22:00:00,1786A,129.5904,44.5963,牡丹江市,第一医院,,25,15,13,17,9,83,30,80,63,16,14,4,4,0.7,0.6
2022-08-11T22:00:00,1787A,129.6364,44.6075,牡丹江市,机车工厂,,28,28,31,10,11,92,36,88,70,17,15,7,5,0.3,0.4
2022-08-11T22:00:00,1788A,129.6386,44.5462,牡丹江市,第一中学,,15,12,20,10,8,86,31,84,63,15,14,4,4,0.4,0.4
2022-08-11T22:00:00,1789A,124.81117,46.03138,大庆市,大同区,,29,29,15,5,6,55,13,52,42,29,8,5,5,0.4,0.3
2022-08-11T22:00:00,1790A,125.129,46.533,大庆市,龙凤区,,26,26,22,7,8,60,24,56,45,20,14,4,4,0.5,0.4
2022-08-11T22:00:00,1791A,124.902,46.408,大庆市,红岗区,,17,17,16,6,7,55,39,52,47,8,10,3,4,0.4,0.4
2022-08-11T22:00:00,1792A,125.153,46.586,大庆市,萨尔图区,,22,22,24,4,9,56,18,51,38,23,17,5,6,0.4,0.3
2022-08-11T22:00:00,1793A,124.9042,46.6215,大庆市,让胡路区,,24,24,20,8,7,58,20,52,42,20,14,2,2,0.7,0.6
2022-08-11T22:00:00,1794A,118.3606,31.3519,芜湖市,监测站,,37,37,46,20,24,145,45,126,85,47,43,6,8,0.6,0.7
2022-08-11T22:00:00,1795A,118.3714,31.4134,芜湖市,科创中心,,40,39,42,28,23,145,26,127,92,64,30,9,10,0.7,0.6
2022-08-11T22:00:00,1796A,118.3673,31.3131,芜湖市,四水厂,,35,35,39,15,25,149,80,130,92,22,32,12,11,0.7,0.7
2022-08-11T22:00:00,1797A,118.4022,31.3839,芜湖市,济民医院(对照点),,,,,,,,,,,,,,,,
2022-08-11T22:00:00,1798A,118.5092,31.6837,马鞍山市,湖东路四小,,32,30,34,18,22,137,102,135,123,12,21,2,4,0.6,0.7
2022-08-11T22:00:00,1799A,118.5024,31.6449,马鞍山市,开发区,,38,38,35,25,24,144,62,138,114,42,31,4,6,0.7,0.7
2022-08-11T22:00:00,1800A,118.5228,31.7231,马鞍山市,慈湖,,32,31,56,20,27,140,100,136,120,13,27,3,8,0.6,0.8
2022-08-11T22:00:00,1801A,118.48,31.6928,马鞍山市,马钢动力厂,,,,,,,,,,,,,,,,
2022-08-11T22:00:00,1802A,118.6245,31.7241,马鞍山市,濮塘(对照点),,29,29,28,13,18,139,84,133,116,13,15,3,5,0.5,0.5
2022-08-11T22:00:00,1803A,115.9872,29.6815,九江市,十里,,26,26,25,14,14,93,53,81,78,19,16,7,7,0.9,0.8
2022-08-11T22:00:00,1804A,115.9584,29.7046,九江市,茅山头,,20,20,19,12,13,84,64,78,77,14,14,6,6,0.6,0.6
2022-08-11T22:00:00,1805A,115.9877,29.7295,九江市,西园,,34,34,28,14,11,91,57,82,80,24,20,10,10,0.5,0.7
2022-08-11T22:00:00,1806A,116.0172,29.6547,九江市,五七二七厂,,26,23,17,8,9,102,81,91,91,8,8,5,5,0.5,0.5
2022-08-11T22:00:00,1808A,115.9114,29.6038,九江市,综合工业园,,34,34,24,17,12,91,84,85,85,9,17,7,8,0.7,0.7
2022-08-11T22:00:00,1809A,116.0721,29.7535,九江市,石化总厂,,36,36,32,20,13,108,75,98,96,22,15,12,13,0.6,0.6
2022-08-11T22:00:00,1810A,115.9773,29.5698,九江市,庐山气象台(对照点),,31,16,11,9,10,111,99,100,92,5,4,2,7,0.3,0.4
2022-08-11T22:00:00,1811A,112.3628,34.6692,洛阳市,中信二小,,,,,,,,,,,,,,,,
2022-08-11T22:00:00,1812A,112.3931,34.6516,洛阳市,市委党校,细颗粒物(PM2.5),70,70,90,51,44,182,135,158,158,15,14,6,5,0.7,0.7
2022-08-11T22:00:00,1814A,112.4657,34.6871,洛阳市,豫西宾馆,,,78,89,51,59,194,109,181,165,9,7,,5,0.5,0.5
2022-08-11T22:00:00,1815A,112.494,34.6886,洛阳市,河南林校,细颗粒物(PM2.5),63,72,80,45,48,194,108,181,165,20,11,3,3,0.6,0.6
2022-08-11T22:00:00,1816A,112.3844,34.623,洛阳市,开发区管委会,细颗粒物(PM2.5),64,70,85,46,46,206,137,187,183,10,12,7,8,0.7,0.7
2022-08-11T22:00:00,1817A,112.4267,34.6258,洛阳市,市委新办公区,细颗粒物(PM2.5),65,75,92,47,51,198,120,178,171,17,10,7,7,0.7,0.7
2022-08-11T22:00:00,1818A,114.4839,36.0621,安阳市,棉研所(对照点),,,,,,,,,,,,,,,,
2022-08-11T22:00:00,1819A,114.3551,36.1017,安阳市,红庙街,颗粒物(PM10),65,79,56,38,28,158,70,121,113,23,23,11,8,0.7,0.7
2022-08-11T22:00:00,1820A,114.361,36.0681,安阳市,银杏小区,,,67,54,,15,169,83,129,122,16,20,9,7,0.6,0.6
2022-08-11T22:00:00,1824A,114.3389,34.7781,开封市,肿瘤医院,颗粒物(PM10),63,75,54,36,24,172,89,152,146,30,14,2,3,0.9,0.8
2022-08-11T22:00:00,1826A,114.2885,34.7965,开封市,世纪星幼儿园,,,67,54,,26,183,117,161,158,24,15,3,4,0.7,0.6
2022-08-11T22:00:00,1828A,113.227,35.2125,焦作市,市环保局,细颗粒物(PM2.5),79,95,70,58,40,170,133,161,155,8,6,4,4,0.8,0.8
2022-08-11T22:00:00,1829A,113.2464,35.1764,焦作市,高新区政府（停运20220628）,,,,,,,,,,,,,,,,
2022-08-11T22:00:00,1830A,113.1992,35.2590,焦作市,影视城(对照点),,,,,,,,,,,,,,,,
2022-08-11T22:00:00,1832A,113.3257,33.742,平顶山市,新华旅馆,,28,28,50,9,27,151,68,130,100,11,17,1,14,0.1,0.4
2022-08-11T22:00:00,1833A,113.2919,33.737,平顶山市,规划设计院,,35,35,57,9,24,142,56,127,98,18,13,3,10,0.1,0.3
2022-08-11T22:00:00,1834A,113.182,33.774,平顶山市,平顶山工学院,,26,26,58,13,28,144,78,127,107,9,16,3,5,0.3,0.5
2022-08-11T22:00:00,1835A,111.1922,34.7752,三门峡市,市政府,"颗粒物(PM10),细颗粒物(PM2.5)",62,73,41,44,26,143,139,134,134,15,10,6,4,0.9,0.8
2022-08-11T22:00:00,1836A,111.1587,34.7942,三门峡市,开发区,颗粒物(PM10),69,88,46,38,28,150,149,142,142,12,10,7,2,0.8,0.7
2022-08-11T22:00:00,1838A,111.143,34.7955,三门峡市,风景区(对照点),,,,,,,,,,,,,,,,
2022-08-11T22:00:00,1839A,111.3009,30.7157,宜昌市,四零三,,,,,,,,,,,,,,,,
2022-08-11T22:00:00,1840A,111.2992,30.6981,宜昌市,白龙岗,,29,29,25,7,9,152,73,128,101,17,18,5,6,0.7,0.6
2022-08-11T22:00:00,1841A,111.3549,30.6465,宜昌市,伍家岗,,,,24,,11,132,,123,111,17,22,6,7,0.6,0.5
2022-08-11T22:00:00,1842A,111.2628,30.6961,宜昌市,点军区,,27,27,31,7,9,160,79,133,104,16,19,5,5,0.4,0.4
2022-08-11T22:00:00,1843A,111.3275,30.7819,宜昌市,夷陵区,,27,24,26,9,8,166,84,136,109,13,14,5,5,0.4,0.4
2022-08-11T22:00:00,1844A,112.2494,30.3197,荆州市,市图书馆,,25,25,33,15,17,112,63,101,89,14,14,9,10,0.5,0.6
2022-08-11T22:00:00,1845A,112.2008,30.3544,荆州市,市委党校,,34,34,34,15,15,111,62,100,89,16,14,9,9,0.5,0.6
2022-08-11T22:00:00,1847A,113.1094,29.3578,岳阳市,南湖风景区,,24,17,17,16,12,125,76,107,101,10,10,7,12,0.6,0.6
2022-08-11T22:00:00,1848A,113.1493,29.4251,岳阳市,城陵矶,,26,11,24,10,16,123,81,108,103,7,7,39,13,0.4,0.4
2022-08-11T22:00:00,1849A,113.1497,29.3575,岳阳市,开发区,,24,14,13,8,8,119,76,105,98,8,10,6,7,0.3,0.3
2022-08-11T22:00:00,1850A,113.2621,29.4758,岳阳市,云溪区,,18,18,17,12,10,115,48,102,89,29,8,7,7,0.4,0.4
2022-08-11T22:00:00,1851A,112.9943,29.4402,岳阳市,君山区,,23,23,19,10,9,119,69,109,98,10,7,9,11,0.5,0.5
2022-08-11T22:00:00,1852A,113.2117,29.355,岳阳市,金凤水库(对照点),,29,29,18,16,9,112,68,97,90,6,8,4,4,0.8,0.7
2022-08-11T22:00:00,1854A,111.6975,28.9703,常德市,市二中,,27,27,18,14,10,92,60,79,76,9,11,9,8,0.4,0.5
2022-08-11T22:00:00,1857A,111.7158,29.1456,常德市,白鹤山(对照点),,29,29,21,14,12,106,54,98,85,8,5,6,8,0.4,0.4
2022-08-11T22:00:00,1858A,110.5319,29.1217,张家界市,永定新区,,12,10,12,5,5,93,36,72,54,20,11,3,3,0.3,0.3
2022-08-11T22:00:00,1859A,110.4697,29.1242,张家界市,电业局,,37,37,18,11,9,80,38,59,49,11,8,2,3,0.3,0.2
2022-08-11T22:00:00,1860A,110.5594,29.3547,张家界市,未央路,,9,7,9,4,5,68,15,64,41,17,8,2,3,0.2,0.2
2022-08-11T22:00:00,1861A,110.4417,29.315,张家界市,袁家界(对照点),,21,5,10,5,5,91,67,84,75,4,5,6,6,0.5,0.5
2022-08-11T22:00:00,1862A,110.4144,25.3167,桂林市,电子科大尧山校区(对照点),,21,21,17,10,9,73,41,66,60,5,5,7,19,0.5,0.5
2022-08-11T22:00:00,1863A,110.2819,25.2697,桂林市,监测站,,19,13,17,10,8,83,58,71,71,8,9,6,8,0.5,0.5
2022-08-11T22:00:00,1864A,110.3089,25.2708,桂林市,龙隐路小学,,18,8,16,10,9,77,56,68,66,7,8,7,9,0.5,0.6
2022-08-11T22:00:00,1865A,110.2869,25.2178,桂林市,八中,,17,12,16,8,7,74,54,66,65,6,11,7,9,0.5,0.5
2022-08-11T22:00:00,1866A,109.2262,21.588,北海市,牛尾岭水库(对照点),,,,12,5,10,56,,54,,,3,,4,,0.5
2022-08-11T22:00:00,1867A,109.1436,21.4086,北海市,海滩公园,,,,,2,5,70,54,66,63,5,2,5,4,0.7,0.7
2022-08-11T22:00:00,1868A,109.0981,21.4661,北海市,新市环保局,,15,14,11,5,4,69,45,64,61,8,3,5,3,0.7,0.5
2022-08-11T22:00:00,1869A,109.1778,21.5233,北海市,北海工业园,,,21,12,2,5,68,39,62,56,,,6,4,0.7,0.7
2022-08-11T22:00:00,1870A,109.4856,24.3895,柳州市,柳东小学,,15,8,8,9,8,70,47,67,62,6,5,4,5,0.5,0.5
2022-08-11T22:00:00,1871A,109.4157,24.3277,柳州市,环保监测站,,40,20,9,28,5,68,42,63,58,12,6,5,5,0.6,0.5
2022-08-11T22:00:00,1872A,109.389,24.341,柳州市,河西水厂,,19,18,11,13,5,68,42,64,59,13,7,8,8,0.8,0.6
2022-08-11T22:00:00,1873A,109.4311,24.2921,柳州市,市四中,,36,36,11,23,5,65,40,62,57,10,6,6,6,1.0,0.7
2022-08-11T22:00:00,1874A,109.4006,24.3631,柳州市,市九中,,21,21,12,14,5,65,44,62,58,8,6,6,7,0.6,0.6
2022-08-11T22:00:00,1875A,109.4958,24.3134,柳州市,古亭山,,12,10,7,3,4,63,37,58,51,9,6,5,5,0.5,0.5
2022-08-11T22:00:00,1876A,109.5078,18.2489,三亚市,河东子站,,14,14,14,6,9,72,39,66,43,4,4,2,2,0.4,0.4
2022-08-11T22:00:00,1877A,109.4964,18.2681,三亚市,河西子站,,14,11,11,7,8,71,44,66,47,3,3,1,2,0.4,0.4
2022-08-11T22:00:00,1878A,104.7778,31.4741,绵阳市,富乐山,,49,38,41,27,27,207,154,182,174,12,13,4,4,0.6,0.6
2022-08-11T22:00:00,1879A,104.7563,31.4535,绵阳市,市人大,颗粒物(PM10),55,59,45,38,30,192,131,170,163,41,17,5,6,0.7,0.6
2022-08-11T22:00:00,1880A,104.6697,31.4668,绵阳市,高新区自来水公司,颗粒物(PM10),74,97,57,48,35,256,138,200,194,59,24,7,5,0.8,0.7
2022-08-11T22:00:00,1881A,104.7287,31.5075,绵阳市,三水厂,细颗粒物(PM2.5),75,55,31,55,37,225,105,185,162,61,27,5,6,0.9,0.7
2022-08-11T22:00:00,1882A,104.563,28.793,宜宾市,石马中学(对照点),,37,37,34,19,18,169,44,134,104,34,17,6,7,0.3,0.3
2022-08-11T22:00:00,1883A,104.6201,28.7728,宜宾市,市委,,31,31,34,18,19,152,56,118,95,30,22,6,10,0.3,0.4
2022-08-11T22:00:00,1884A,104.6055,28.793,宜宾市,宜宾四中,,40,40,34,19,19,173,34,137,99,56,20,10,12,0.6,0.5
2022-08-11T22:00:00,1885A,104.639,28.7562,宜宾市,市政府,,40,40,46,16,21,177,34,136,101,62,27,10,10,0.6,0.6
2022-08-11T22:00:00,1886A,104.5742,28.7199,宜宾市,黄金嘴,,41,41,31,20,17,150,41,128,104,33,15,8,11,0.5,0.4
2022-08-11T22:00:00,1888A,101.6891,26.571,攀枝花市,弄弄坪,,36,36,37,24,25,180,73,150,135,29,26,12,14,1.1,1.5
2022-08-11T22:00:00,1889A,101.5769,26.5928,攀枝花市,河门口,颗粒物(PM10),57,63,43,31,25,170,70,142,129,20,17,12,11,0.5,1
2022-08-11T22:00:00,1890A,101.7169,26.585,攀枝花市,炳草岗,颗粒物(PM10),57,64,47,30,23,182,26,142,116,73,38,12,17,1.1,1.1
2022-08-11T22:00:00,1891A,101.7369,26.5008,攀枝花市,仁和,细颗粒物(PM2.5),60,68,43,43,28,187,61,158,131,18,15,9,13,1.0,1.1
2022-08-11T22:00:00,1893A,105.4324,28.9634,泸州市,九狮山(对照点),,28,28,22,19,14,80,18,68,54,30,18,5,7,0.5,0.3
2022-08-11T22:00:00,1894A,105.4427,28.9063,泸州市,小市上码头,,42,42,30,21,17,118,53,102,94,34,25,9,10,0.5,0.5
2022-08-11T22:00:00,1895A,105.4241,28.8573,泸州市,兰田宪桥,,19,14,30,12,19,101,58,88,83,14,18,5,9,0.4,0.4
2022-08-11T22:00:00,1896A,105.4379,28.8833,泸州市,市环监站,,20,20,26,13,17,101,62,91,86,17,25,4,7,0.4,0.4
2022-08-11T22:00:00,1897A,104.7547,29.3628,自贡市,大塘山(对照点),,,,,,,,,,,,,,,,
2022-08-11T22:00:00,1900A,104.7692,29.3411,自贡市,春华路,,,,,,,,,,,,,,,,
2022-08-11T22:00:00,1901A,104.4239,31.1208,德阳市,东山公园,,44,41,45,20,26,243,138,210,198,25,17,4,11,0.6,0.7
2022-08-11T22:00:00,1902A,104.3826,31.1317,德阳市,西小区,颗粒物(PM10),54,58,57,30,29,277,111,230,212,30,27,8,12,0.6,0.7
2022-08-11T22:00:00,1903A,104.4053,31.1167,德阳市,市检察院,,,,,,,,,,,,,,,,
2022-08-11T22:00:00,1904A,104.3553,31.1091,德阳市,耐火材料厂,颗粒物(PM10),60,69,60,26,26,284,90,235,214,36,24,4,15,0.7,0.7
2022-08-11T22:00:00,1905A,106.056,30.8064,南充市,西山风景区(对照点),,29,27,34,17,24,106,92,98,98,20,18,1,2,0.8,0.8
2022-08-11T22:00:00,1906A,106.0789,30.8023,南充市,南充市委,,36,36,41,25,18,123,65,116,104,38,22,9,4,0.7,0.5
2022-08-11T22:00:00,1907A,106.1031,30.8217,南充市,南充炼油厂,,38,38,48,15,22,148,98,133,131,18,12,7,6,0.4,0.3
2022-08-11T22:00:00,1908A,106.1064,30.7856,南充市,高坪区监测站,,33,33,36,19,20,126,61,115,110,34,14,1,2,0.6,0.4
2022-08-11T22:00:00,1909A,106.0642,30.7636,南充市,嘉陵区环保局,颗粒物(PM10),52,53,36,33,21,137,42,122,114,45,16,11,9,0.6,0.5
2022-08-11T22:00:00,1910A,106.1087,30.8388,南充市,市环境监测站,,37,37,42,24,29,119,86,111,108,24,15,4,4,0.5,0.4
2022-08-11T22:00:00,1911A,106.9222,27.6869,遵义市,丁字口,,28,14,13,19,13,78,54,73,68,9,8,7,7,0.6,0.6
2022-08-11T22:00:00,1912A,106.9242,27.7019,遵义市,凤凰山,,20,18,12,12,11,78,62,74,72,8,8,4,3,0.3,0.4
2022-08-11T22:00:00,1913A,106.8906,27.6486,遵义市,忠庄,,17,16,19,9,9,74,52,70,66,10,10,1,3,0.3,0.3
2022-08-11T22:00:00,1914A,106.9231,27.6506,遵义市,舟水桥,,,,31,,21,77,,73,72,,11,2,2,0.4,0.4
2022-08-11T22:00:00,1915A,106.9178,27.72,遵义市,干田坝,,20,17,13,14,13,76,53,72,66,9,10,5,5,0.6,0.6
2022-08-11T22:00:00,1916A,103.7897,25.5035,曲靖市,环境监测站,,22,22,16,10,9,72,59,71,61,10,11,2,4,0.4,0.4
2022-08-11T22:00:00,1917A,103.8,25.5364,曲靖市,烟厂办公区,,19,16,15,6,9,69,60,69,63,4,7,5,7,0.4,0.4
2022-08-11T22:00:00,1918A,108.7197,34.3956,咸阳市,气象站(对照点),颗粒物(PM10),63,76,58,31,34,197,83,160,151,48,21,4,5,1.6,1.6
2022-08-11T22:00:00,1919A,108.673,34.3155,咸阳市,实验中学,颗粒物(PM10),57,64,55,33,32,194,122,172,164,29,17,3,6,0.8,0.7
2022-08-11T22:00:00,1920A,108.7233,34.3617,咸阳市,师范学院,颗粒物(PM10),64,78,59,33,32,204,101,164,154,39,21,5,8,1.0,1
2022-08-11T22:00:00,1922A,109.0656,35.0994,铜川市,党校(对照点),颗粒物(PM10),59,68,44,31,21,102,27,70,44,27,19,4,4,0.9,0.9
2022-08-11T22:00:00,1923A,109.0697,35.0697,铜川市,王益区政府,颗粒物(PM10),56,62,41,22,21,132,69,127,111,18,11,3,2,0.7,0.7
2022-08-11T22:00:00,1924A,108.9344,34.9058,铜川市,新区管委会,颗粒物(PM10),63,75,56,34,31,143,111,136,132,23,18,4,5,0.8,0.8
2022-08-11T22:00:00,1925A,108.9589,34.8731,铜川市,新区兰芝公司,,,,,,,,,,,,,,,,
2022-08-11T22:00:00,1926A,109.4131,36.6275,延安市,枣园(对照点),,43,43,35,18,14,117,12,95,63,24,15,2,2,0.7,0.7
2022-08-11T22:00:00,1927A,109.4761,36.6028,延安市,延大医附院,,49,49,36,16,16,126,6,108,68,43,20,3,3,0.5,0.5
2022-08-11T22:00:00,1928A,109.4824,36.5767,延安市,市监测站,,,,,,,,,,,,,,,,
2022-08-11T22:00:00,1929A,109.5056,36.6106,延安市,百米大道,,46,46,37,18,16,113,38,102,80,32,23,4,3,0.9,0.8
2022-08-11T22:00:00,1930A,107.185,34.3063,宝鸡市,庙沟村(对照点),,31,31,53,19,25,131,60,110,93,19,12,3,3,0.6,0.8
2022-08-11T22:00:00,1931A,107.0708,34.3017,宝鸡市,竹园沟,,34,34,48,23,29,189,78,167,140,17,16,6,6,0.5,0.6
2022-08-11T22:00:00,1932A,107.1906,34.3672,宝鸡市,三陆医院,颗粒物(PM10),52,54,64,28,30,182,128,168,160,24,16,4,4,0.8,0.8
2022-08-11T22:00:00,1933A,107.1431,34.3547,宝鸡市,监测站,,42,42,55,24,31,182,68,165,142,28,20,5,6,0.6,0.7
2022-08-11T22:00:00,1934A,107.1186,34.3739,宝鸡市,技工学校,,45,45,56,25,35,192,90,173,155,22,16,5,4,0.6,0.7
2022-08-11T22:00:00,1935A,107.3906,34.3528,宝鸡市,陈仓区环保局家属楼,颗粒物(PM10),60,70,67,32,32,194,133,174,166,21,22,5,7,0.6,0.7
2022-08-11T22:00:00,1936A,107.2058,34.3497,宝鸡市,文理学院,颗粒物(PM10),54,58,59,22,27,189,60,175,155,38,19,8,9,0.5,0.6
2022-08-11T22:00:00,1937A,107.2386,34.3622,宝鸡市,三迪小学,颗粒物(PM10),53,55,62,34,34,168,144,157,151,25,24,5,5,0.7,0.7
2022-08-11T22:00:00,1938A,109.5293,34.5101,渭南市,农科所(对照点),,,,,,,,,,,,,,,,
2022-08-11T22:00:00,1939A,109.4974,34.4877,渭南市,日报社,细颗粒物(PM2.5),57,61,46,40,36,166,82,152,142,39,15,9,9,0.7,0.6
2022-08-11T22:00:00,1940A,109.4636,34.493,渭南市,体育馆,细颗粒物(PM2.5),57,51,45,40,34,180,100,162,156,35,13,5,5,0.7,0.6
2022-08-11T22:00:00,1941A,109.4259,34.5023,渭南市,高新一小,,,,56,,34,99,,88,,,14,,5,,0.7
2022-08-11T22:00:00,1943A,102.1725,38.5339,金昌市,新川苑,,42,42,24,26,15,106,57,101,94,43,15,9,9,1.1,0.9
2022-08-11T22:00:00,1944A,102.1692,38.5167,金昌市,天庆家园,,,68,27,28,13,115,50,108,98,47,14,10,12,,1
2022-08-11T22:00:00,1945A,98.2908,39.7711,嘉峪关市,气象局,,29,29,24,14,11,112,74,109,102,24,12,3,3,0.4,0.4
2022-08-11T22:00:00,1947A,106.3394,38.817,石嘴山市,沙湖旅游区(对照点),,40,35,69,28,50,157,55,135,117,33,24,3,34,0.6,1.3
2022-08-11T22:00:00,1948A,106.3668,39.0145,石嘴山市,大武口朝阳西街,,32,32,35,16,27,130,83,122,112,17,21,9,12,0.7,0.9
2022-08-11T22:00:00,1949A,106.7704,39.2282,石嘴山市,惠农南大街,,26,7,26,18,17,100,83,94,92,16,22,4,10,0.5,0.7
2022-08-11T22:00:00,1950A,106.7099,39.1325,石嘴山市,红果子镇惠新街,,29,25,29,14,20,130,90,116,110,9,18,9,10,0.5,0.5
2022-08-11T22:00:00,1951A,84.895,45.6094,克拉玛依市,长征新村,,33,33,33,2,8,128,104,122,120,15,10,8,10,0.3,0.3
2022-08-11T22:00:00,1952A,84.8988,45.5893,克拉玛依市,南林小区,,,,40,8,11,156,156,156,156,,21,,10,,0.5
2022-08-11T22:00:00,1953A,85.1186,45.6886,克拉玛依市,白碱滩区,,,,,,,,,,,,,,,,
2022-08-11T22:00:00,1954A,84.905,44.3396,克拉玛依市,独山子区,,30,25,16,11,8,164,96,136,119,14,9,8,8,0.4,0.3
2022-08-11T22:00:00,1955A,85.6979,46.098,克拉玛依市,乌尔禾区商贸楼,,30,25,13,20,8,116,96,112,110,12,6,13,12,0.3,0.2
2022-08-11T22:00:00,1956A,86.1472,41.7538,巴音郭楞州,孔雀公园,,43,43,59,10,16,129,119,126,125,4,6,3,3,0.3,0.3
2022-08-11T22:00:00,1957A,86.1972,41.7166,巴音郭楞州,棉纺厂,颗粒物(PM10),51,52,61,8,20,130,107,126,122,10,9,4,4,0.3,0.2
2022-08-11T22:00:00,1958A,86.2357,41.7173,巴音郭楞州,经济开发区,,,38,59,14,16,134,,132,130,7,5,,5,0.4,0.2
2022-08-11T22:00:00,1959A,118.746,36.881,寿光市,监测站,,,,,,,,,,,,,,,,
2022-08-11T22:00:00,1960A,118.780,36.864,寿光市,世纪学校,,,,,,,,,,,,,,,,
2022-08-11T22:00:00,1961A,117.532,36.6868,济南市,东山小学,颗粒物(PM10),58,66,49,32,26,117,26,100,83,38,23,3,4,0.8,0.8
2022-08-11T22:00:00,1962A,117.541,36.710,章丘市,明水开发区,,,,,,,,,,,,,,,,
2022-08-11T22:00:00,1963A,120.610,36.440,即墨市,环保局子站,,,,,,,,,,,,,,,,
2022-08-11T22:00:00,1964A,120.470,36.390,即墨市,开发区子站,,,,,,,,,,,,,,,,
2022-08-11T22:00:00,1965A,120.005,35.878,胶南市,JN子站,,,,,,,,,,,,,,,,
2022-08-11T22:00:00,1966A,120.0405,35.8735,青岛市,黄岛区4号,,44,34,28,27,20,60,7,37,34,88,32,10,5,1.0,0.8
2022-08-11T22:00:00,1967A,120.008,36.283,胶州市,胶州环保局,,,,,,,,,,,,,,,,
2022-08-11T22:00:00,1968A,120.014,36.253,胶州市,胶州一中,,,,,,,,,,,,,,,,
2022-08-11T22:00:00,1969A,120.537,36.865,莱西市,环保局子站,,,,,,,,,,,,,,,,
2022-08-11T22:00:00,1970A,120.515,36.885,莱西市,人民广场子站,,,,,,,,,,,,,,,,
2022-08-11T22:00:00,1971A,119.952,36.792,平度市,1号,,,,,,,,,,,,,,,,
2022-08-11T22:00:00,1972A,119.976,36.799,平度市,2号,,,,,,,,,,,,,,,,
2022-08-11T22:00:00,1973A,120.747,37.825,蓬莱市,蓬莱环保局,,,,,,,,,,,,,,,,
2022-08-11T22:00:00,1974A,120.773,37.809,蓬莱市,蓬莱博物馆,,,,,,,,,,,,,,,,
2022-08-11T22:00:00,1975A,120.399,37.374,招远市,招远环保局,,,,,,,,,,,,,,,,
2022-08-11T22:00:00,1976A,120.394,37.364,招远市,招远教育局,,,,,,,,,,,,,,,,
2022-08-11T22:00:00,1977A,119.941,37.177,莱州市,莱州环保局,,,,,,,,,,,,,,,,
2022-08-11T22:00:00,1978A,119.959,37.180,莱州市,莱州外经委,,,,,,,,,,,,,,,,
2022-08-11T22:00:00,1979A,122.471,37.154,荣成市,荣成市环保局办公楼,,,,,,,,,,,,,,,,
2022-08-11T22:00:00,1980A,122.410,37.161,荣成市,山东成山轮胎公司,,,,,,,,,,,,,,,,
2022-08-11T22:00:00,1981A,122.038,37.197,文登市,文登市环保局,,,,,,,,,,,,,,,,
2022-08-11T22:00:00,1982A,122.0693,37.2174,威海市,文登开发区,,24,24,7,12,3,117,48,95,90,17,10,4,4,0.7,0.6
2022-08-11T22:00:00,1983A,121.531,36.913,乳山市,乳山市环保局,,,,,,,,,,,,,,,,
2022-08-11T22:00:00,1984A,121.544,36.907,乳山市,乳山市气象局,,,,,,,,,,,,,,,,
2022-08-11T22:00:00,1985A,120.636,31.155,吴江市,吴江市环保局,,,,,,,,,,,,,,,,
2022-08-11T22:00:00,1986A,120.635,31.170,吴江市,教师进修学校,,,,,,,,,,,,,,,,
2022-08-11T22:00:00,1987A,120.658,31.172,吴江市,吴江开发区,,,,,,,,,,,,,,,,
2022-08-11T22:00:00,1988A,120.953,31.388,昆山市,昆山实验小学,,,,,,,,,,,,,,,,
2022-08-11T22:00:00,1989A,120.999,31.381,昆山市,震川中学,,,,,,,,,,,,,,,,
2022-08-11T22:00:00,1990A,120.758,31.670,常熟市,海虞子站,,,,,,,,,,,,,,,,
2022-08-11T22:00:00,1991A,120.721,31.671,常熟市,兴福子站,,,,,,,,,,,,,,,,
2022-08-11T22:00:00,1992A,120.734,31.656,常熟市,菱塘子站,,,,,,,,,,,,,,,,
2022-08-11T22:00:00,1993A,120.526,31.874,张家港市,张家港市监测站,,,,,,,,,,,,,,,,
2022-08-11T22:00:00,1994A,120.550,31.882,张家港市,城北小学,,,,,,,,,,,,,,,,
2022-08-11T22:00:00,1995A,121.115,31.453,太仓市,太仓市监测站,,,,,,,,,,,,,,,,
2022-08-11T22:00:00,1996A,121.140,31.422,太仓市,科教新城实小,,,,,,,,,,,,,,,,
2022-08-11T22:00:00,1997A,119.146,31.955,句容市,消防指挥中心,,,,,,,,,,,,,,,,
2022-08-11T22:00:00,1998A,119.180,31.955,句容市,房家坝,,,,,,,,,,,,,,,,
2022-08-11T22:00:00,1999A,120.268,31.920,江阴市,虹桥邮政,,,,,,,,,,,,,,,,
2022-08-11T22:00:00,2000A,120.237,31.909,江阴市,五星公园,,,,,,,,,,,,,,,,
2022-08-11T22:00:00,2001A,120.302,31.920,江阴市,第二实验小学,,,,,,,,,,,,,,,,
2022-08-11T22:00:00,2002A,119.818,31.354,宜兴市,宜兴市环保局,,,,,,,,,,,,,,,,
2022-08-11T22:00:00,2003A,119.794,31.371,宜兴市,宜园,,,,,,,,,,,,,,,,
2022-08-11T22:00:00,2004A,119.579,31.751,金坛市,金坛市环境监测站,,,,,,,,,,,,,,,,
2022-08-11T22:00:00,2005A,119.579,31.737,金坛市,金坛市自来水公司,,,,,,,,,,,,,,,,
2022-08-11T22:00:00,2006A,119.460,31.400,溧阳市,溧阳市东门子站,,,,,,,,,,,,,,,,
2022-08-11T22:00:00,2007A,119.438,31.317,溧阳市,燕山子站,,,,,,,,,,,,,,,,
2022-08-11T22:00:00,2008A,121.173,31.896,海门市,海门市监测站,,,,,,,,,,,,,,,,
2022-08-11T22:00:00,2009A,121.1518,31.89708,海门市,社会福利院,,,,,,,,,,,,,,,,
2022-08-11T22:00:00,2010A,119.7183,30.2366,临安市,市政府,,,,,,,,,,,,,,,,
2022-08-11T22:00:00,2011A,119.6942,30.2311,临安市,四中,,,,,,,,,,,,,,,,
2022-08-11T22:00:00,2012A,119.954,30.054,富阳市,监测站,,,,,,,,,,,,,,,,
2022-08-11T22:00:00,2013A,119.946,30.049,富阳市,富春二小,,,,,,,,,,,,,,,,
2022-08-11T22:00:00,2014A,120.091,29.305,义乌市,江东,,,,,,,,,,,,,,,,
2022-08-11T22:00:00,2015A,120.040,29.334,义乌市,北苑,,,,,,,,,,,,,,,,
2022-08-11T22:00:00,2016A,120.251,29.719,诸暨市,图书馆,,,,,,,,,,,,,,,,
2022-08-11T22:00:00,2017A,120.209,29.732,诸暨市,富林印务,,,,,,,,,,,,,,,,
2022-08-11T22:00:00,2018A,121.989,39.625,瓦房店市,抱龙山庄,,,,,,,,,,,,,,,,
2022-08-11T22:00:00,2019A,122.011,39.617,瓦房店市,东山公园,,,,,,,,,,,,,,,,
2022-08-11T22:00:00,2031A,113.1817,27.9958,株洲市,云田中学,,24,24,14,7,12,76,37,73,62,16,6,4,5,0.6,0.6
2022-08-11T22:00:00,2054A,114.1099,32.1059,信阳市,平桥分局,,24,24,39,7,12,97,63,96,84,14,12,6,7,0.4,0.5
2022-08-11T22:00:00,2064A,113.9956,32.1271,信阳市,南湾水厂,,23,19,32,5,15,108,73,103,91,5,8,6,6,0.4,0.5
2022-08-11T22:00:00,2065A,114.0775,32.1195,信阳市,市酿酒公司,,24,11,30,5,15,101,74,96,86,5,11,7,7,0.4,0.5
2022-08-11T22:00:00,2066A,114.0609,32.1399,信阳市,审计局,,25,17,40,4,18,98,77,95,87,4,12,9,8,0.5,0.7
2022-08-11T22:00:00,2067A,114.6613,33.6128,周口市,市环境监测站,,32,32,51,11,22,136,73,124,104,18,11,5,8,0.4,0.5
2022-08-11T22:00:00,2068A,114.6758,33.6347,周口市,周口师范,,26,26,47,9,21,138,83,125,109,7,8,2,9,0.4,0.5
2022-08-11T22:00:00,2069A,114.6546,33.5979,周口市,市运管处,,32,32,51,12,20,132,75,120,102,8,8,2,5,0.5,0.6
2022-08-11T22:00:00,2070A,114.6369,33.6406,周口市,川汇区环保局,,26,25,47,18,27,129,76,119,103,6,7,2,11,0.5,0.7
2022-08-11T22:00:00,2075A,117.6336,24.4674,漳州市,九湖(对照点),,,,,,,,,,,,,,,,
2022-08-11T22:00:00,2160A,112.85,35.5051,晋城市,自来水公司,颗粒物(PM10),73,96,68,46,39,179,137,151,151,17,13,5,5,0.9,1.1
2022-08-11T22:00:00,2161A,112.8318,35.4936,晋城市,白云商贸,细颗粒物(PM2.5),64,70,51,46,34,174,138,150,150,15,10,3,3,0.8,1
2022-08-11T22:00:00,2162A,112.8508,35.4887,晋城市,市环保局,细颗粒物(PM2.5),67,65,59,48,42,180,138,159,159,19,13,5,6,0.9,1.1
2022-08-11T22:00:00,2163A,112.8676,35.4897,晋城市,技术学院,细颗粒物(PM2.5),55,57,47,39,32,175,120,153,151,18,13,4,2,0.8,1
2022-08-11T22:00:00,2164A,112.8271,35.4828,晋城市,泽州一中,,,,,,,,,,,,,,,,
2022-08-11T22:00:00,2165A,112.8453,35.546,晋城市,白马寺 (对照点),,,,,,,,,,,,,,,,
2022-08-11T22:00:00,2166A,112.4397,39.3522,朔州市,平朔,颗粒物(PM10),64,78,56,30,21,142,46,128,110,32,25,10,12,1.0,0.8
2022-08-11T22:00:00,2167A,112.4575,39.3617,朔州市,朔唯,颗粒物(PM10),68,85,52,29,22,146,45,132,113,39,28,10,11,0.8,0.7
2022-08-11T22:00:00,2168A,112.4258,39.3197,朔州市,区政府,颗粒物(PM10),69,88,50,34,20,138,46,128,112,45,25,10,13,0.9,0.8
2022-08-11T22:00:00,2169A,112.4072,39.3278,朔州市,市环保局,颗粒物(PM10),98,146,53,34,17,137,43,123,104,39,25,10,12,0.5,0.6
2022-08-11T22:00:00,2170A,112.4272,39.3681,朔州市,市二中,颗粒物(PM10),66,82,63,32,23,148,36,126,106,34,26,7,9,0.9,0.8
2022-08-11T22:00:00,2171A,112.7532,37.6945,晋中市,锦纶小区,颗粒物(PM10),71,91,47,45,29,146,57,133,125,54,32,4,7,1.1,0.8
2022-08-11T22:00:00,2173A,112.7249,37.7067,晋中市,南都小区,"颗粒物(PM10),细颗粒物(PM2.5)",60,69,43,43,31,155,94,142,139,39,31,6,6,1.1,0.8
2022-08-11T22:00:00,2174A,112.6991,37.6982,晋中市,榆次区政府,"颗粒物(PM10),细颗粒物(PM2.5)",64,77,42,46,30,142,74,128,123,35,26,7,7,1.3,0.9
2022-08-11T22:00:00,2175A,110.9956,35.0147,运城市,运城中学,颗粒物(PM10),54,57,45,24,30,148,110,138,132,5,9,5,7,0.6,0.7
2022-08-11T22:00:00,2176A,111.0233,35.0611,运城市,禹都开发区,,,,,,,,,,,,,,,,
2022-08-11T22:00:00,2178A,110.9686,35.0303,运城市,地区技校,,38,38,40,18,22,154,113,141,134,6,7,5,7,0.6,0.8
2022-08-11T22:00:00,2179A,111.0414,35.1147,运城市,空港新区,颗粒物(PM10),57,63,54,34,33,177,94,152,138,15,18,5,8,0.9,1.2
2022-08-11T22:00:00,2181A,112.7383,38.4519,忻州市,开发区,颗粒物(PM10),64,77,33,34,28,112,23,101,89,49,16,7,8,1.0,0.7
2022-08-11T22:00:00,2182A,112.7003,38.4928,忻州市,会展中心,细颗粒物(PM2.5),55,58,29,39,16,116,6,100,80,60,23,8,7,0.7,0.4
2022-08-11T22:00:00,2183A,111.1406,37.5211,吕梁市,环保局,,50,50,29,24,14,133,37,106,92,39,25,2,2,0.6,0.6
2022-08-11T22:00:00,2185A,111.1297,37.5136,吕梁市,自来水公司,颗粒物(PM10),56,62,29,19,9,122,46,100,89,26,21,3,3,0.7,0.7
2022-08-11T22:00:00,2186A,106.8288,39.6778,乌海市,聚英学校,,,,,,,,,,,,,,,,
2022-08-11T22:00:00,2187A,106.8174,39.6973,乌海市,市林业局,,35,28,40,12,17,130,109,118,117,8,22,5,11,0.7,0.7
2022-08-11T22:00:00,2188A,106.7907,39.6667,乌海市,中海勃湾学校,,47,47,50,21,17,128,97,121,116,22,33,9,21,0.6,0.8
2022-08-11T22:00:00,2191A,122.2532,43.6801,通辽市,艺术职业学校,颗粒物(PM10),73,95,31,23,9,80,17,75,54,50,19,9,6,0.1,0.2
2022-08-11T22:00:00,2192A,119.7594,49.2261,呼伦贝尔市,区环保局,,47,47,29,20,16,65,28,54,44,24,11,5,5,0.4,0.4
2022-08-11T22:00:00,2194A,107.5936,40.916,巴彦淖尔市,秋林养殖基地(对照点),,,,,,,,,,,,,,,,
2022-08-11T22:00:00,2195A,107.4212,40.761,巴彦淖尔市,附二中,颗粒物(PM10),57,63,27,25,13,151,102,144,137,13,10,10,5,0.7,0.6
2022-08-11T22:00:00,2196A,107.37,40.7372,巴彦淖尔市,市环保大楼,颗粒物(PM10),56,61,41,31,15,154,125,146,144,14,12,5,3,0.7,0.5
2022-08-11T22:00:00,2197A,113.1306,40.9923,乌兰察布市,集宁新区,,27,26,30,12,21,137,86,123,108,10,10,14,12,0.5,0.4
2022-08-11T22:00:00,2200A,122.0392,46.0656,兴安盟,胜华新制药厂,颗粒物(PM10),58,65,36,28,14,48,3,44,25,28,11,4,2,0.4,0.2
2022-08-11T22:00:00,2201A,121.9504,46.0741,兴安盟,科右前旗环保局,,42,38,18,29,14,48,4,45,28,29,12,4,3,0.3,0.1
2022-08-11T22:00:00,2202A,116.1042,43.9317,锡林郭勒盟,市环保监测站,,23,23,20,8,5,109,70,100,92,2,13,9,10,0.2,0.2
2022-08-11T22:00:00,2203A,116.0781,43.9311,锡林郭勒盟,市政府,,22,21,19,6,3,108,69,100,92,4,12,8,9,0.2,0.2
2022-08-11T22:00:00,2204A,105.6467,38.8363,阿拉善盟,西城区西花园(对照点),,37,33,31,25,21,125,117,120,117,6,8,4,4,0.6,0.5
2022-08-11T22:00:00,2205A,105.6985,38.8411,阿拉善盟,蒙二幼,细颗粒物(PM2.5),55,32,26,39,22,133,120,126,122,5,7,7,7,0.4,0.5
2022-08-11T22:00:00,2206A,105.724,38.8516,阿拉善盟,环保局新楼,,38,18,16,19,17,132,119,122,120,7,9,6,7,0.4,0.4
2022-08-11T22:00:00,2207A,121.6094,41.998,阜新市,工业园区,颗粒物(PM10),60,70,42,37,25,135,54,117,83,29,14,16,12,1.0,0.9
2022-08-11T22:00:00,2208A,121.6697,42.0279,阜新市,长青街,,46,46,45,30,27,132,31,116,80,42,13,10,12,0.8,0.7
2022-08-11T22:00:00,2209A,121.6673,42.0705,阜新市,农业园区,,34,34,38,19,27,113,54,98,70,18,12,11,9,0.8,0.8
2022-08-11T22:00:00,2210A,121.6717,42.0224,阜新市,东苑,颗粒物(PM10),62,74,52,34,35,134,33,114,83,42,13,10,10,0.9,0.8
2022-08-11T22:00:00,2211A,121.6506,42.0498,阜新市,玉龙新城,,,,40,,28,132,12,116,71,31,13,6,7,0.6,0.8
2022-08-11T22:00:00,2212A,123.2,41.1953,辽阳市,宏伟区,颗粒物(PM10),63,76,44,36,16,150,76,140,125,35,16,9,9,1.5,0.7
2022-08-11T22:00:00,2213A,123.1683,41.2495,辽阳市,新华园,颗粒物(PM10),59,68,48,39,21,129,101,124,116,20,21,7,11,1.0,1
2022-08-11T22:00:00,2214A,123.2354,41.2639,辽阳市,滨河路,颗粒物(PM10),67,84,46,31,19,160,98,148,138,38,20,14,11,1.2,1.1
2022-08-11T22:00:00,2215A,123.149,41.2991,辽阳市,铁西工业园,细颗粒物(PM2.5),80,62,47,59,28,142,85,139,127,28,22,17,11,1.3,1.1
2022-08-11T22:00:00,2216A,123.8139,42.3022,铁岭市,汇工街西,颗粒物(PM10),60,70,51,42,26,150,45,133,114,28,23,23,13,0.7,0.9
2022-08-11T22:00:00,2217A,123.8649,42.2923,铁岭市,水上乐园,颗粒物(PM10),59,68,51,36,24,128,52,119,102,28,26,7,8,0.6,0.6
2022-08-11T22:00:00,2218A,123.8486,42.2867,铁岭市,银州路东段,,49,39,32,34,26,135,35,122,101,39,28,5,5,0.8,0.7
2022-08-11T22:00:00,2219A,123.7153,42.2217,铁岭市,金沙江路北,细颗粒物(PM2.5),52,46,44,36,25,147,24,132,104,54,28,3,8,0.9,0.9
2022-08-11T22:00:00,2220A,120.4318,41.5881,朝阳市,西梁,颗粒物(PM10),56,62,42,20,20,126,46,115,94,28,12,10,9,0.7,1
2022-08-11T22:00:00,2221A,120.4521,41.5646,朝阳市,河畔小区,颗粒物(PM10),81,111,37,32,20,134,97,118,102,15,9,9,10,0.9,0.9
2022-08-11T22:00:00,2222A,120.4176,41.5648,朝阳市,八里堡,颗粒物(PM10),74,98,49,36,21,146,116,128,109,16,11,4,6,1.2,0.6
2022-08-11T22:00:00,2223A,120.3806,41.5969,朝阳市,农业园区,颗粒物(PM10),57,63,34,18,19,122,23,110,83,40,12,7,8,0.8,1
2022-08-11T22:00:00,2225A,124.4002,43.1713,四平市,一商场,细颗粒物(PM2.5),54,50,26,38,20,108,41,102,83,40,13,5,3,0.9,0.6
2022-08-11T22:00:00,2226A,124.388,43.193,四平市,境园,,36,36,23,23,12,100,49,97,79,20,9,5,5,0.7,0.6
2022-08-11T22:00:00,2227A,125.1358,42.8845,辽源市,环保局,,48,41,25,33,18,115,31,105,89,19,12,5,6,1.0,0.8
2022-08-11T22:00:00,2229A,125.9358,41.7173,通化市,光明,,30,30,23,13,8,91,24,86,57,24,19,11,11,0.6,0.7
2022-08-11T22:00:00,2230A,125.9446,41.7325,通化市,铁路,,29,29,22,5,9,100,25,88,62,19,20,9,10,0.5,0.6
2022-08-11T22:00:00,2231A,126.4219,41.9171,白山市,喜丰,,39,39,44,14,13,118,6,87,66,24,19,8,9,1.0,0.9
2022-08-11T22:00:00,2232A,126.4077,41.9419,白山市,环保局,,36,36,39,22,15,111,34,85,69,14,18,6,8,0.6,0.6
2022-08-11T22:00:00,2233A,124.8006,45.1214,松原市,江南,,15,15,13,6,6,76,29,76,50,16,7,2,3,0.4,0.4
2022-08-11T22:00:00,2234A,124.7965,45.1722,松原市,江北,,26,26,11,7,4,80,22,80,52,17,8,2,1,0.4,0.3
2022-08-11T22:00:00,2235A,122.7911,45.6077,白城市,洮北区环保局,,40,40,25,18,7,62,5,54,32,41,15,33,18,0.4,0.1
2022-08-11T22:00:00,2236A,122.8738,45.5725,白城市,市环保局,,50,50,27,20,10,66,4,56,29,37,16,25,10,0.3,0.3
2022-08-11T22:00:00,2237A,129.47,42.8883,延边朝鲜族自治州,妇幼医院,,18,11,19,12,15,70,21,62,48,15,14,6,7,0.5,0.5
2022-08-11T22:00:00,2238A,129.5055,42.9108,延边朝鲜族自治州,延边医院,,39,39,28,17,14,73,12,62,50,38,24,7,7,0.6,0.6
2022-08-11T22:00:00,2239A,129.3964,42.8881,延边朝鲜族自治州,朝阳川镇医院,,29,29,20,10,11,80,14,69,50,20,13,8,8,0.5,0.5
2022-08-11T22:00:00,2240A,130.9762,45.3001,鸡西市,环保局,,13,13,21,8,12,85,35,76,50,15,16,3,3,0.4,0.4
2022-08-11T22:00:00,2243A,130.9429,45.3039,鸡西市,第一中学,,15,11,21,8,10,99,46,88,59,3,7,3,5,0.4,0.4
2022-08-11T22:00:00,2244A,130.2537,47.3416,鹤岗市,哈啤分公司,,8,3,6,5,6,51,17,44,32,8,8,7,7,0.5,0.4
2022-08-11T22:00:00,2245A,130.2684,47.3086,鹤岗市,斯达机电,,12,12,15,7,7,48,22,39,32,8,9,4,6,0.3,0.3
2022-08-11T22:00:00,2246A,130.3114,47.3388,鹤岗市,东山纸板厂,,15,9,19,10,10,54,24,43,32,10,14,8,10,0.8,0.4
2022-08-11T22:00:00,2247A,130.1097,47.3382,鹤岗市,五号水库(对照点),,8,5,7,5,6,52,25,47,36,6,6,4,4,0.2,0.1
2022-08-11T22:00:00,2248A,131.1511,46.6937,双鸭山市,双合村,,42,42,24,18,12,72,12,65,38,22,13,12,8,1.5,0.7
2022-08-11T22:00:00,2249A,131.1652,46.6191,双鸭山市,南小市,,10,7,15,5,9,81,29,72,44,6,9,4,4,0.1,0.1
2022-08-11T22:00:00,2250A,131.1524,46.6554,双鸭山市,环保局,,9,9,16,5,8,78,28,68,41,9,11,4,6,0.4,0.4
2022-08-11T22:00:00,2251A,131.12,46.5656,双鸭山市,苗圃(对照点),,,,,,,,,,,,,,,,
2022-08-11T22:00:00,2252A,128.5159,47.4311,伊春市,环保局,,23,23,16,13,8,49,8,36,22,9,8,3,6,0.3,0.4
2022-08-11T22:00:00,2253A,128.9102,47.7412,伊春市,电力嘉园,,17,17,11,10,6,53,11,40,28,12,7,5,6,0.6,0.5
2022-08-11T22:00:00,2254A,129.5029,48.471,伊春市,汤旺河国家公园(对照点),,11,11,14,6,3,33,5,28,14,2,2,5,5,0.2,0.2
2022-08-11T22:00:00,2255A,130.2751,46.8028,佳木斯市,佳纺,,45,45,26,9,8,70,22,62,32,17,15,3,3,0.4,0.4
2022-08-11T22:00:00,2256A,130.3995,46.8307,佳木斯市,发电厂,,25,25,22,12,10,69,15,55,33,17,14,1,2,0.5,0.5
2022-08-11T22:00:00,2257A,130.3258,46.7975,佳木斯市,环保局,,31,31,20,8,8,70,24,63,30,16,16,1,2,0.5,0.4
2022-08-11T22:00:00,2258A,130.3648,46.8032,佳木斯市,十一中,,28,28,24,12,10,71,30,62,36,18,21,3,4,0.3,0.3
2022-08-11T22:00:00,2259A,130.3794,46.7588,佳木斯市,四丰(对照点),,10,10,17,2,8,72,22,62,38,16,11,1,1,0.2,0.2
2022-08-11T22:00:00,2262A,131.0518,45.8751,七台河市,新一中(对照点),,12,12,9,6,8,89,33,78,60,12,11,7,8,0.6,0.6
2022-08-11T22:00:00,2263A,127.4833,50.2524,黑河市,交通局,,12,12,7,5,7,41,18,38,28,7,5,5,6,0.4,0.4
2022-08-11T22:00:00,2264A,127.5144,50.2341,黑河市,环保局,,15,8,11,10,7,42,23,36,30,9,8,10,7,0.5,0.4
2022-08-11T22:00:00,2265A,127.5291,50.2472,黑河市,大黑河岛(对照点),,16,16,10,11,5,42,14,34,26,3,3,5,6,0.3,0.3
2022-08-11T22:00:00,2266A,126.9785,46.6365,绥化市,人和东街,,31,31,28,7,5,65,29,58,44,10,13,6,11,0.5,0.4
2022-08-11T22:00:00,2267A,126.964,46.6528,绥化市,党政办公中心,,23,23,30,7,9,69,27,58,46,16,15,5,7,0.4,0.3
2022-08-11T22:00:00,2269A,124.1069,50.4097,大兴安岭地区,科技局,,32,15,6,22,5,43,14,35,31,14,6,5,4,0.4,0.3
2022-08-11T22:00:00,2270A,117.396,32.939,蚌埠市,工人疗养院,,35,35,59,10,29,174,73,148,124,10,7,17,11,0.6,0.4
2022-08-11T22:00:00,2271A,117.3605,32.9427,蚌埠市,百货大楼,,31,31,51,9,28,170,83,147,122,11,10,12,10,0.4,0.5
2022-08-11T22:00:00,2273A,117.4185,32.8911,蚌埠市,蚌埠学院,,24,24,58,9,27,173,66,147,117,14,12,5,6,0.3,0.4
2022-08-11T22:00:00,2274A,117.3533,32.9673,蚌埠市,淮上区政府,颗粒物(PM10),52,53,53,14,28,166,65,142,114,24,9,14,10,0.3,0.5
2022-08-11T22:00:00,2275A,117.3145,32.8977,蚌埠市,高新区,,39,39,54,19,32,170,52,148,110,27,17,14,8,0.5,0.6
2022-08-11T22:00:00,2277A,116.8305,32.7727,淮南市,潘集区政府,,,45,49,15,27,143,65,120,96,,13,10,7,0.3,0.3
2022-08-11T22:00:00,2278A,117.0067,32.6524,淮南市,师范学院,颗粒物(PM10),53,56,51,8,27,132,93,112,98,7,7,6,7,0.1,0.3
2022-08-11T22:00:00,2279A,116.8569,32.5951,淮南市,谢家集区政府,,28,28,39,11,20,123,74,109,92,14,9,6,10,0.0,0.2
2022-08-11T22:00:00,2280A,116.8281,32.633,淮南市,八公山区政府,,22,20,36,12,25,126,69,110,88,10,10,4,9,0.3,0.3
2022-08-11T22:00:00,2281A,116.6325,32.6201,淮南市,焦岗湖风景区管理处(对照点),,24,24,43,2,16,126,65,112,92,7,12,8,10,0.2,0.2
2022-08-11T22:00:00,2282A,116.8004,33.975,淮北市,监测站,颗粒物(PM10),58,65,56,14,29,168,89,156,129,14,10,9,6,0.6,0.7
2022-08-11T22:00:00,2283A,116.8091,33.9007,淮北市,烈山区政府,,37,37,48,13,34,165,67,151,121,20,9,10,8,0.7,0.9
2022-08-11T22:00:00,2284A,116.7856,33.9477,淮北市,职业技术学院,,42,42,52,14,28,163,81,148,123,12,8,7,5,0.6,0.7
2022-08-11T22:00:00,2285A,117.8177,30.9412,铜陵市,市第四中学,,35,34,42,24,22,124,64,114,93,28,25,18,17,1.2,1
2022-08-11T22:00:00,2286A,117.8059,30.9273,铜陵市,市公路局,,48,48,45,16,25,117,67,111,92,16,18,8,11,0.5,1.1
2022-08-11T22:00:00,2287A,117.7807,30.9413,铜陵市,市新民污水厂,,44,44,39,20,20,113,53,105,85,34,22,53,21,0.2,0.3
2022-08-11T22:00:00,2288A,117.7439,30.8792,铜陵市,市第九中学,颗粒物(PM10),52,54,55,15,20,114,31,104,71,46,31,4,35,0.5,0.6
2022-08-11T22:00:00,2289A,117.846,30.9413,铜陵市,车站新区,,44,44,36,16,13,112,66,105,87,16,17,9,11,0.4,0.5
2022-08-11T22:00:00,2290A,117.8483,30.97,铜陵市,市职教基地,,32,32,39,15,16,115,62,108,93,12,11,23,16,1.5,0.9
2022-08-11T22:00:00,2291A,117.0809,30.5177,安庆市,环科院,,24,24,30,15,16,111,53,105,90,15,15,6,6,0.4,0.5
2022-08-11T22:00:00,2292A,117.0331,30.5119,安庆市,马山宾馆,,25,25,26,17,18,112,45,99,73,17,16,5,5,0.5,0.5
2022-08-11T22:00:00,2294A,116.9896,30.6145,安庆市,安庆大学,,33,33,28,16,15,116,49,106,86,21,16,15,8,0.4,0.4
2022-08-11T22:00:00,2295A,118.2903,29.6963,黄山市,延安路89号,,,,27,,11,103,41,96,68,6,10,5,7,0.2,0.5
2022-08-11T22:00:00,2296A,118.327,29.7178,黄山市,黄山东路89号,,30,30,25,15,11,108,48,95,84,7,6,5,5,0.4,0.4
2022-08-11T22:00:00,2297A,118.1371,30.2756,黄山市,黄山区政府5号楼,,24,24,27,16,12,103,42,92,76,8,5,6,6,0.6,0.5
2022-08-11T22:00:00,2298A,118.3093,32.3153,滁州市,老年大学,,29,19,41,13,22,141,91,119,111,8,9,13,10,0.2,0.2
2022-08-11T22:00:00,2299A,118.3244,32.2786,滁州市,人大宾馆,,25,22,36,11,21,151,80,130,112,13,11,5,5,0.3,0.4
2022-08-11T22:00:00,2301A,115.8277,32.8929,阜阳市,市监测站,,31,31,36,9,21,137,84,126,106,10,10,9,10,0.5,0.6
2022-08-11T22:00:00,2303A,115.8554,32.8605,阜阳市,开发区,,25,17,39,6,19,138,77,117,92,14,15,5,4,0.4,0.5
2022-08-11T22:00:00,2306A,116.989,33.6306,宿州市,火车站,,,,,,,,,,,,,,,,
2022-08-11T22:00:00,2307A,116.5079,31.737,六安市,监测大楼,,24,24,23,9,11,99,68,93,85,12,8,6,9,0.3,0.3
2022-08-11T22:00:00,2308A,116.4738,31.7643,六安市,皖西学院,颗粒物(PM10),51,52,22,6,11,120,74,102,94,17,6,7,9,0.3,0.3
2022-08-11T22:00:00,2309A,116.4996,31.7905,六安市,朝阳厂,,32,9,18,22,12,107,63,97,84,13,6,10,10,0.3,0.3
2022-08-11T22:00:00,2310A,116.5567,31.7886,六安市,开发区,,36,36,28,22,16,108,48,101,81,15,8,7,8,0.3,0.3
2022-08-11T22:00:00,2311A,115.8072,33.8399,亳州市,污水处理厂,,26,20,42,10,24,122,82,116,106,8,12,10,14,0.5,0.7
2022-08-11T22:00:00,2312A,115.7789,33.8518,亳州市,三国揽胜宫,,29,24,44,7,22,126,90,118,111,7,7,16,14,1.1,0.7
2022-08-11T22:00:00,2314A,117.47,30.6618,池州市,池州学院,,39,39,39,21,21,117,59,107,89,16,8,8,7,0.4,0.5
2022-08-11T22:00:00,2315A,117.4974,30.6539,池州市,平天湖(对照点),,,,,,,,,,,,,,,,
2022-08-11T22:00:00,2316A,118.7581,30.9454,宣城市,鳌峰子站,,45,45,30,21,19,104,81,100,94,17,13,5,5,0.4,0.3
2022-08-11T22:00:00,2317A,118.7385,30.9743,宣城市,敬亭山子站,,42,42,27,17,18,108,65,101,88,19,16,11,9,0.5,0.3
2022-08-11T22:00:00,2318A,118.7173,30.9427,宣城市,开发区子站,,37,37,25,19,18,109,75,101,98,19,12,9,6,0.4,0.3
2022-08-11T22:00:00,2319A,119.0141,25.4325,莆田市,荔城区仓后路,,36,36,43,14,14,126,36,98,72,19,18,5,7,0.7,0.7
2022-08-11T22:00:00,2320A,119.0015,25.4553,莆田市,莆田市监测站,,39,39,32,12,18,138,39,105,85,11,7,8,9,0.7,0.6
2022-08-11T22:00:00,2321A,119.1119,25.4561,莆田市,涵江区六中,,47,47,36,15,19,141,20,116,72,28,17,10,12,0.6,0.5
2022-08-11T22:00:00,2322A,119.1013,25.3215,莆田市,秀屿区政府,,24,24,31,7,12,139,34,105,62,8,11,7,10,0.7,0.7
2022-08-11T22:00:00,2323A,118.981,25.4792,莆田市,东圳水库(对照点),,,,,,,,,,,,,,,,
2022-08-11T22:00:00,2324A,117.6211,26.2625,三明市,三钢,,28,28,29,13,14,124,29,97,78,31,19,4,10,0.9,1
2022-08-11T22:00:00,2325A,117.635,26.2714,三明市,三明二中,,23,20,22,16,12,126,26,101,78,35,16,6,12,1.1,1
2022-08-11T22:00:00,2326A,117.6028,26.2378,三明市,三元区政府,,,,,,,,,,,,,,,,
2022-08-11T22:00:00,2327A,117.7275,26.3108,三明市,洋溪(对照点),,,,,,,,,,,,,,,,
2022-08-11T22:00:00,2331A,118.0966,26.6761,南平市,茫荡山(对照点),,,,,,,,,,,,,,,,
2022-08-11T22:00:00,2332A,118.1681,26.6369,南平市,南平市监测站,,26,26,20,13,13,95,38,85,72,17,12,5,6,0.7,0.5
2022-08-11T22:00:00,2333A,118.1825,26.6489,南平市,南平铝业有限公司,,,31,23,14,16,93,28,86,71,22,10,8,5,,0.6
2022-08-11T22:00:00,2334A,118.1756,26.6272,南平市,南平七中,,42,21,21,29,43,95,46,84,73,10,10,5,5,0.4,0.4
2022-08-11T22:00:00,2335A,117.0189,25.1181,龙岩市,龙岩师专(对照点),,,,,,,,,,,,,,,,
2022-08-11T22:00:00,2336A,117.0217,25.1033,龙岩市,龙岩市监测站,,12,7,29,8,12,78,22,67,49,15,14,5,8,0.4,0.5
2022-08-11T22:00:00,2337A,117.0258,25.0661,龙岩市,闽西职业技术学院,,11,9,21,7,8,75,33,66,49,5,10,5,10,0.4,0.5
2022-08-11T22:00:00,2338A,117.0196,25.0306,龙岩市,龙岩学院,,16,10,19,11,8,71,37,61,47,5,10,2,3,0.4,0.5
2022-08-11T22:00:00,2339A,119.5001,26.6946,宁德市,金涵水库(对照点),,,,,,,,,,,,,,,,
2022-08-11T22:00:00,2341A,119.5388,26.6612,宁德市,宁德市监测站,,34,34,38,18,19,125,92,117,115,20,12,7,8,0.6,0.6
2022-08-11T22:00:00,2342A,117.3102,29.3867,景德镇市,王港中学(对照点),,47,47,42,30,20,127,38,112,82,15,10,5,4,0.4,0.4
2022-08-11T22:00:00,2343A,117.2117,29.2933,景德镇市,老干部活动中心,细颗粒物(PM2.5),52,51,50,36,25,109,56,97,80,15,15,11,12,0.7,0.7
2022-08-11T22:00:00,2344A,117.1894,29.2789,景德镇市,兽医站,,45,45,37,24,21,99,45,92,72,14,12,9,8,0.6,0.4
2022-08-11T22:00:00,2345A,117.1547,29.2617,景德镇市,台达陶瓷,,42,42,50,14,25,91,58,86,75,10,20,20,29,0.4,0.5
2022-08-11T22:00:00,2346A,117.2461,29.2956,景德镇市,陶研所,,44,44,39,22,23,112,49,100,79,11,12,8,10,0.5,0.5
2022-08-11T22:00:00,2347A,114.0997,27.5002,萍乡市,武功山(对照点),,9,3,3,1,3,81,28,53,48,6,5,12,16,0.2,0.2
2022-08-11T22:00:00,2348A,113.8385,27.6434,萍乡市,中医院,,14,4,9,8,8,78,44,65,64,8,8,5,8,0.4,0.4
2022-08-11T22:00:00,2349A,113.8493,27.6253,萍乡市,市政府车库,,16,16,12,11,9,80,38,59,57,11,10,6,8,0.3,0.4
2022-08-11T22:00:00,2350A,113.8676,27.6435,萍乡市,市环保局,,12,7,13,8,9,94,32,74,70,15,8,9,9,0.3,0.4
2022-08-11T22:00:00,2351A,113.866,27.6198,萍乡市,安源区政府,,15,10,14,10,11,84,40,64,61,6,8,14,13,0.2,0.2
2022-08-11T22:00:00,2352A,115.0861,27.9317,新余市,北岗(对照点),颗粒物(PM10),62,73,21,18,8,75,24,72,59,24,6,8,9,0.7,0.7
2022-08-11T22:00:00,2353A,114.9886,27.8431,新余市,飞宇,,33,33,26,16,12,66,36,65,55,22,11,11,8,0.9,0.4
2022-08-11T22:00:00,2354A,114.9231,27.8246,新余市,第二水厂,细颗粒物(PM2.5),55,32,33,39,21,62,34,55,51,43,27,15,21,1.2,1.2
2022-08-11T22:00:00,2355A,114.9308,27.8036,新余市,市气象局,,32,31,42,22,20,64,41,59,54,17,18,19,44,1.1,1.8
2022-08-11T22:00:00,2357A,116.9822,28.1136,鹰潭市,龙虎山(对照点),,21,21,19,9,8,80,42,68,64,5,4,8,8,0.1,0.1
2022-08-11T22:00:00,2358A,117.0564,28.2642,鹰潭市,新监测站,,36,36,26,14,14,85,65,80,78,7,6,1,2,0.2,0.2
2022-08-11T22:00:00,2359A,117.0311,28.2475,鹰潭市,财苑宾馆,颗粒物(PM10),55,60,31,14,11,80,69,76,76,6,5,2,1,0.3,0.4
2022-08-11T22:00:00,2360A,117.0222,28.2264,鹰潭市,体育馆,,49,49,24,11,10,84,43,81,76,10,4,1,2,0.6,0.6
