timepoint,stationcode,longitude,latitude,area,positionname,primarypollutant,aqi,pm10,pm10_24h,pm2_5,pm2_5_24h,o3,o3_24h,o3_8h,o3_8h_24h,no2,no2_24h,so2,so2_24h,co,co_24h
2024-10-05T1600,2566A,102.1879,31.914,阿坝藏族羌族自治州,州农科所,,21,21,40,6,11,61,,46,46,15,17,8,9,0,0
2024-10-05T1600,2568A,102.2502,31.8896,阿坝藏族羌族自治州,马师校,,26,,16,18,14,57,,41,41,3,7,4,5,0.2,0.3
2024-10-05T1600,3994A,102.2165,31.9024,阿坝藏族羌族自治州,马尔康中学西区,,19,19,22,12,18,55,,38,38,5,10,8,7,0.4,0.4
2024-10-05T1600,2695A,80.292,41.1694,阿克苏地区,电视台,颗粒物(PM10),62,73,75,10,32,113,,73,73,7,32,9,4,0.4,0.7
2024-10-05T1600,2696A,80.2613,41.1551,阿克苏地区,艺术中心,颗粒物(PM10),63,76,79,18,31,122,,74,74,6,35,3,4,0.4,0.8
2024-10-05T1600,2204A,105.6467,38.8363,阿拉善盟,西城区西花园,,41,32,39,23,26,130,,97,97,8,17,12,10,0.8,0.8
2024-10-05T1600,2205A,105.6985,38.8411,阿拉善盟,蒙二幼,,37,27,36,11,16,118,,96,96,9,12,9,8,0.6,0.7
2024-10-05T1600,2206A,105.724,38.8516,阿拉善盟,环保局新楼,,38,29,32,12,14,119,,104,104,10,10,10,9,0.5,0.5
2024-10-05T1600,2708A,88.1264,47.8517,阿勒泰地区,市站,,25,25,43,6,8,80,,54,54,8,19,8,8,0.1,0.3
2024-10-05T1600,2630A,80.1161,32.5,阿里地区,阿里监测站,,38,6,22,3,9,120,,85,85,2,22,5,8,0.3,0.4
2024-10-05T1600,3192A,80.0903,32.5028,阿里地区,阿里藏医院,,38,,16,16,6,119,,86,86,3,12,5,6,0.3,0.3
2024-10-05T1600,2642A,109.0318,32.6537,安康市,香溪洞,,47,47,44,23,25,98,,77,77,8,10,10,11,0.4,0.4
2024-10-05T1600,2643A,109.0281,32.6939,安康市,安康市监测站,,48,48,49,25,27,106,,79,79,15,16,10,15,0.5,0.5
2024-10-05T1600,2644A,109.0072,32.6975,安康市,汉滨区检察院,,47,47,45,28,26,103,,72,72,19,18,10,10,0.5,0.4
2024-10-05T1600,2291A,117.0809,30.5177,安庆市,环科院,,33,26,40,15,26,104,,103,103,13,18,9,10,0.4,0.5
2024-10-05T1600,2292A,117.0331,30.5119,安庆市,马山宾馆,,36,29,38,22,26,114,,113,113,14,19,10,12,0.5,0.5
2024-10-05T1600,2294A,116.9896,30.6145,安庆市,安庆大学,,39,39,41,25,29,109,,108,108,14,12,9,10,0.6,0.7
2024-10-05T1600,3173A,117.0598,30.5351,安庆市,市人大,,33,28,36,21,26,105,,105,105,11,15,10,12,0.7,0.7
2024-10-05T1600,3123A,105.9408,26.2431,安顺市,凤凰山,,32,29,39,18,26,101,,94,94,4,9,5,19,0.4,0.4
2024-10-05T1600,3124A,105.9439,26.2564,安顺市,金钟山,,33,26,36,18,28,103,,97,97,4,8,8,21,0.5,0.5
2024-10-05T1600,3125A,105.8983,26.2481,安顺市,娄家坡,,34,33,40,22,28,108,,96,96,4,9,8,16,0.6,0.6
2024-10-05T1600,1819A,114.3551,36.1017,安阳市,红庙街,,47,41,70,18,40,148,,113,113,6,28,3,4,0.4,0.6
2024-10-05T1600,1820A,114.361,36.0681,安阳市,银杏小区,,46,42,71,16,42,146,,110,110,5,29,3,4,0.3,0.5
2024-10-05T1600,3141A,114.3922,36.0878,安阳市,信访局,,46,41,68,18,34,146,,108,108,8,29,3,3,0.1,0.2
2024-10-05T1600,3669A,114.4705,36.0637,安阳市,左辅环卫站,颗粒物(PM10),56,62,96,16,41,140,,106,106,15,52,4,5,0.7,0.8
2024-10-05T1600,3703A,114.2917,36.0949,安阳市,安钢职工学校,,46,46,67,19,42,144,,104,104,11,25,9,10,0.3,0.5
2024-10-05T1600,1748A,123.044,41.1196,鞍山市,深沟寺,臭氧1小时,70,50,38,32,23,176,,161,161,18,12,10,8,0.7,0.6
2024-10-05T1600,1749A,123.011,41.0931,鞍山市,太阳城,臭氧1小时,79,57,40,35,23,183,,165,165,18,14,12,10,0.5,0.5
2024-10-05T1600,1750A,123.0485,41.1442,鞍山市,太平,臭氧1小时,63,62,43,36,23,170,,159,159,28,19,17,12,1.0,0.8
2024-10-05T1600,1751A,122.9642,41.0971,鞍山市,铁西三道街,臭氧1小时,63,63,60,35,28,170,,157,157,23,24,9,10,0.7,0.8
2024-10-05T1600,1752A,122.9341,41.0833,鞍山市,铁西工业园区,臭氧1小时,73,52,48,29,30,178,,166,166,18,19,12,12,0.5,0.6
2024-10-05T1600,1753A,123.022,41.0821,鞍山市,明达新区,细颗粒物(PM2.5),57,60,43,40,26,164,,153,153,18,13,10,9,0.6,0.5
2024-10-05T1600,2195A,107.4212,40.761,巴彦淖尔市,附二中,颗粒物(PM10),61,71,78,34,32,98,,72,72,23,30,10,9,0.6,0.6
2024-10-05T1600,2196A,107.37,40.7372,巴彦淖尔市,市环保大楼,颗粒物(PM10),63,75,60,31,22,96,,71,71,18,22,6,5,0.5,0.5
2024-10-05T1600,1956A,86.1472,41.7538,巴音郭楞蒙古自治州,孔雀公园,,48,48,49,14,15,112,,88,88,4,20,6,6,0.2,0.3
2024-10-05T1600,1957A,86.1972,41.7166,巴音郭楞蒙古自治州,棉纺厂,,37,37,52,3,16,113,,81,81,5,21,5,5,0.2,0.3
2024-10-05T1600,1958A,86.2357,41.7173,巴音郭楞蒙古自治州,经济开发区,,35,34,56,12,18,112,,85,78,3,15,7,7,0.2,0.3
2024-10-05T1600,2914A,106.7677,31.8794,巴中市,苏山坪,,33,29,37,16,23,103,,80,80,11,12,4,4,0.3,0.4
2024-10-05T1600,3182A,106.7656,31.8545,巴中市,丽阳花园,,32,24,41,15,28,100,,70,70,14,24,6,5,0.4,0.5
2024-10-05T1600,3183A,106.7418,31.8654,巴中市,圣泉水务公司,,33,25,38,16,25,104,,75,75,9,22,6,5,0.3,0.4
2024-10-05T1600,3616A,106.7616,31.8344,巴中市,市中心医院,,32,27,43,17,29,102,,70,70,8,22,6,5,0.4,0.5
2024-10-05T1600,2235A,122.7911,45.6077,白城市,洮北区环保局,,31,31,40,11,21,85,,86,77,5,12,8,6,0.5,0.6
2024-10-05T1600,2236A,122.8738,45.5725,白城市,市环保局,,27,27,40,17,19,82,,80,75,8,16,5,6,0.4,0.5
2024-10-05T1600,2231A,126.4219,41.9171,白山市,喜丰,,38,28,48,3,14,120,,95,95,11,25,7,9,0.4,0.5
2024-10-05T1600,2232A,126.4077,41.9419,白山市,环保局,,37,22,40,15,17,116,,85,85,8,23,9,9,0.6,0.7
2024-10-05T1600,2647A,104.1724,36.5446,白银市,第三小学,二氧化硫,65,61,44,37,23,81,,79,52,32,20,252,92,1.3,1.1
2024-10-05T1600,2648A,104.1465,36.5482,白银市,动力公司,,,40,38,19,21,53,,42,42,27,23,95,52,,1
2024-10-05T1600,2512A,106.6103,23.9011,百色市,市监测站,臭氧1小时,85,66,51,35,27,188,,117,117,13,17,28,10,0.8,0.7
2024-10-05T1600,2513A,106.6538,23.8859,百色市,市中心血站,臭氧1小时,69,71,71,48,37,175,,107,107,12,22,17,13,0.7,0.7
2024-10-05T1600,3406A,106.6085,23.8798,百色市,祈福高中,臭氧1小时,70,80,74,36,34,176,,113,113,15,27,26,9,0.7,0.7
2024-10-05T1600,2270A,117.396,32.939,蚌埠市,工人疗养院,,38,28,32,6,14,119,,102,102,5,14,5,6,0.3,0.3
2024-10-05T1600,2271A,117.3605,32.9427,蚌埠市,百货大楼,,36,26,34,9,14,115,,98,98,5,17,5,6,0.2,0.3
2024-10-05T1600,2273A,117.4185,32.8911,蚌埠市,蚌埠学院,,36,27,27,12,16,114,,104,104,9,23,7,8,0.2,0.3
2024-10-05T1600,2274A,117.3533,32.9673,蚌埠市,淮上区政府,,37,27,35,13,20,116,,99,99,6,18,6,7,0.3,0.4
2024-10-05T1600,2275A,117.3145,32.8977,蚌埠市,高新区,,36,24,27,9,15,114,,102,102,14,33,8,11,0.2,0.3
2024-10-05T1600,3715A,117.3092,32.9314,蚌埠市,蚌埠田家炳中学,,37,27,31,10,16,116,,100,100,7,18,5,8,0.1,0.2
2024-10-05T1600,1585A,109.8756,40.6532,包头市,市环境监测站,,39,39,64,24,31,96,,69,69,28,61,24,17,1.0,1
2024-10-05T1600,1587A,109.9991,40.5842,包头市,包头八中,,50,50,72,23,32,102,,72,72,21,49,11,14,0.8,1
2024-10-05T1600,1588A,109.8538,40.6821,包头市,青山宾馆,,30,30,59,20,34,88,,66,66,35,54,19,17,1.3,1
2024-10-05T1600,1589A,109.8642,40.6288,包头市,惠龙物流,,46,46,65,16,24,100,,72,72,26,46,22,17,0.8,0.7
2024-10-05T1600,1590A,110.0377,40.5546,包头市,东河鸿龙湾,,34,32,63,14,25,108,,77,77,18,45,12,16,0.6,0.7
2024-10-05T1600,3283A,109.9154,40.5685,包头市,滨河大厦,,34,33,55,15,24,107,,76,76,22,45,16,14,0.7,0.7
2024-10-05T1600,3419A,109.9447,40.6261,包头市,包头市委党校,,42,42,60,20,27,109,,73,73,22,48,14,26,0.6,0.8
2024-10-05T1600,3683A,109.8331,40.6576,包头市,昆区政府,,38,38,61,24,33,93,,69,69,30,44,20,18,0.9,0.8
2024-10-05T1600,1930A,107.185,34.3063,宝鸡市,庙沟村,细颗粒物(PM2.5),74,87,57,54,38,81,,65,65,26,21,9,8,0.8,0.7
2024-10-05T1600,1931A,107.0708,34.3017,宝鸡市,竹园沟,细颗粒物(PM2.5),98,90,57,73,47,89,,68,68,28,22,12,9,0.7,0.5
2024-10-05T1600,1932A,107.1906,34.3672,宝鸡市,三陆医院,细颗粒物(PM2.5),123,112,82,93,62,99,,62,62,43,48,11,12,0.8,0.5
2024-10-05T1600,1933A,107.1431,34.3547,宝鸡市,监测站,细颗粒物(PM2.5),103,100,72,77,54,82,,56,56,38,30,11,8,0.8,0.7
2024-10-05T1600,1934A,107.1186,34.3739,宝鸡市,技工学校,细颗粒物(PM2.5),107,91,73,80,56,77,,56,56,45,30,10,8,0.8,0.7
2024-10-05T1600,1935A,107.3906,34.3528,宝鸡市,陈仓区环保局家属楼,细颗粒物(PM2.5),110,101,81,83,65,102,,75,75,38,43,14,11,0.7,0.7
2024-10-05T1600,1936A,107.2058,34.3497,宝鸡市,文理学院,细颗粒物(PM2.5),118,104,75,89,49,105,,64,64,35,34,13,11,0.7,0.6
2024-10-05T1600,1937A,107.2386,34.3622,宝鸡市,三迪小学,细颗粒物(PM2.5),122,98,77,92,60,109,,68,68,40,42,14,11,0.8,0.7
2024-10-05T1600,1051A,115.493,38.8632,保定市,游泳馆,臭氧1小时,94,92,91,64,56,195,,126,126,15,30,9,4,0.6,0.5
2024-10-05T1600,1052A,115.5213,38.8959,保定市,华电二区,细颗粒物(PM2.5),84,88,89,62,61,182,,105,105,21,35,7,5,0.4,0.3
2024-10-05T1600,1053A,115.4713,38.9108,保定市,接待中心,细颗粒物(PM2.5),84,98,91,62,61,181,,108,108,20,33,10,6,0.5,0.4
2024-10-05T1600,1054A,115.4612,38.8416,保定市,地表水厂,细颗粒物(PM2.5),93,104,94,69,64,186,,119,119,18,36,9,6,0.2,0.1
2024-10-05T1600,3581A,115.31981,38.95208,保定市,满城区生态环境分局,细颗粒物(PM2.5),107,132,103,80,60,164,,114,114,33,35,11,6,0.8,0.7
2024-10-05T1600,3582A,115.47694,38.76408,保定市,清苑区第二中学,臭氧1小时,98,94,98,72,61,198,,128,128,17,37,10,6,0.7,0.5
2024-10-05T1600,3583A,115.62909,39.02311,保定市,徐水物探局,细颗粒物(PM2.5),85,91,94,63,62,177,,109,109,21,45,10,7,0.4,0.5
2024-10-05T1600,4004A,115.4202,38.8656,保定市,双鹰农机,臭氧1小时,95,93,93,60,57,196,,126,126,27,39,9,6,0.6,0.5
2024-10-05T1600,4034A,115.5150,38.8590,保定市,植保所站,"细颗粒物(PM2.5),臭氧1小时",93,78,94,69,60,194,,114,114,22,47,9,8,0.5,0.4
2024-10-05T1600,2594A,99.1678,25.1081,保山市,市环境监测站,,18,18,18,3,10,36,,28,28,5,6,5,5,0.3,0.4
2024-10-05T1600,2595A,99.1711,25.1328,保山市,市环保局,,14,13,20,3,6,42,,33,33,3,5,7,6,0.4,0.5
2024-10-05T1600,1867A,109.1436,21.4086,北海市,海滩公园,臭氧1小时,105,62,60,22,27,209,,157,157,11,12,10,10,0.9,0.7
2024-10-05T1600,1868A,109.0981,21.4661,北海市,新市环保局,臭氧1小时,84,36,56,29,32,187,,147,147,12,13,9,9,0.9,0.8
2024-10-05T1600,1869A,109.1778,21.5233,北海市,北海工业园,,44,33,56,17,32,138,,132,132,8,14,8,10,0.7,0.7
2024-10-05T1600,3400A,109.1911,21.4415,北海市,龙潭自来水厂,,47,36,56,21,37,150,,139,139,9,13,8,11,0.5,0.6
2024-10-05T1600,1001A,116.3621,39.8784,北京市,万寿西宫,细颗粒物(PM2.5),100,97,83,75,60,140,,49,,31,37,6,3,0.7,0.7
2024-10-05T1600,1002A,116.2202,40.2915,北京市,定陵,细颗粒物(PM2.5),95,90,82,71,64,148,,112,112,18,17,3,3,0.5,0.6
2024-10-05T1600,1003A,116.4174,39.9289,北京市,东四,细颗粒物(PM2.5),92,110,102,68,62,149,,117,117,29,37,6,4,0.7,0.7
2024-10-05T1600,1004A,116.4072,39.8863,北京市,天坛,细颗粒物(PM2.5),89,93,81,66,60,141,,113,113,30,29,3,3,0.6,0.6
2024-10-05T1600,1005A,116.462,39.9365,北京市,农展馆,细颗粒物(PM2.5),89,99,89,66,56,132,,98,98,35,41,2,3,0.6,0.7
2024-10-05T1600,1006A,116.3392,39.9295,北京市,官园,细颗粒物(PM2.5),85,96,95,63,59,152,,118,118,24,35,3,3,0.7,0.7
2024-10-05T1600,1007A,116.2878,39.9611,北京市,海淀万柳,细颗粒物(PM2.5),73,81,96,53,61,146,,107,107,26,40,5,4,0.5,0.6
2024-10-05T1600,1008A,116.6636,40.135,北京市,顺义新城,细颗粒物(PM2.5),79,89,85,58,56,135,,100,100,33,34,4,3,0.4,0.5
2024-10-05T1600,1009A,116.6275,40.3275,北京市,怀柔镇,细颗粒物(PM2.5),74,84,76,54,55,169,,119,119,12,12,4,3,0.5,0.6
2024-10-05T1600,1010A,116.2296,40.217,北京市,昌平镇,颗粒物(PM10),69,87,94,49,56,143,,108,108,21,23,6,5,0.6,0.6
2024-10-05T1600,1011A,116.3966,39.9821,北京市,奥体中心,细颗粒物(PM2.5),85,91,90,63,59,147,,106,106,27,45,4,3,0.6,0.7
2024-10-05T1600,1012A,116.184,39.9136,北京市,古城,颗粒物(PM10),81,111,123,58,70,154,,110,110,22,46,5,4,0.7,0.8
2024-10-05T1600,3281A,115.9718,40.4529,北京市,延庆夏都,细颗粒物(PM2.5),70,73,90,51,63,138,,100,100,14,25,1,2,0.5,0.5
2024-10-05T1600,3417A,117.0709,40.1465,北京市,平谷新城,细颗粒物(PM2.5),87,97,81,64,53,165,,121,121,19,17,3,3,0.5,0.5
2024-10-05T1600,3418A,116.8336,40.4095,北京市,密云新城,颗粒物(PM10),64,78,91,44,50,162,,122,122,17,21,4,2,0.4,0.5
2024-10-05T1600,3671A,116.088,39.9726,北京市,门头沟三家店,细颗粒物(PM2.5),83,101,94,61,60,155,,112,112,23,22,4,2,0.5,0.5
2024-10-05T1600,3672A,116.1541,39.8204,北京市,丰台云岗,细颗粒物(PM2.5),82,86,102,60,67,122,,99,99,30,38,5,4,0.5,0.6
2024-10-05T1600,3673A,116.6804,39.9081,北京市,通州东关,细颗粒物(PM2.5),94,113,112,70,65,164,,92,92,20,41,4,3,0.5,0.5
2024-10-05T1600,3674A,115.9577,39.7603,北京市,房山燕山,细颗粒物(PM2.5),85,90,78,63,58,147,,115,115,22,16,2,2,0.5,0.5
2024-10-05T1600,3675A,116.4672,39.7733,北京市,大兴旧宫,细颗粒物(PM2.5),84,90,83,62,53,160,,94,94,19,38,2,2,0.5,0.5
2024-10-05T1600,3694A,115.986,40.4563,北京市,延庆石河营,细颗粒物(PM2.5),69,74,87,50,60,126,,98,98,13,24,3,3,0.6,0.5
2024-10-05T1600,3695A,116.6151,40.3053,北京市,怀柔新城,细颗粒物(PM2.5),78,89,78,57,56,156,,112,112,20,16,2,3,0.5,0.5
2024-10-05T1600,3696A,116.2545,39.8768,北京市,丰台小屯,细颗粒物(PM2.5),78,81,91,57,58,132,,103,103,26,49,3,2,0.6,0.7
2024-10-05T1600,3697A,116.84,40.3844,北京市,密云镇,细颗粒物(PM2.5),72,78,75,52,50,160,,115,115,14,38,6,4,0.4,0.5
2024-10-05T1600,1761A,123.8275,41.3064,本溪市,大峪,,49,33,39,19,17,154,,128,128,13,28,13,10,0.8,0.6
2024-10-05T1600,1762A,123.7567,41.3325,本溪市,溪湖,,49,30,41,16,20,156,,132,132,16,24,13,11,0.7,0.9
2024-10-05T1600,1763A,123.7169,41.3094,本溪市,彩屯,,47,30,40,19,25,149,,125,125,17,28,12,13,0.8,1.2
2024-10-05T1600,1764A,123.7669,41.2864,本溪市,东明,,46,37,32,15,16,147,,135,135,24,24,12,7,1.2,0.8
2024-10-05T1600,1765A,123.7992,41.2664,本溪市,新立屯,,44,25,22,8,9,140,,142,142,17,22,8,6,0.5,0.4
2024-10-05T1600,1766A,123.8142,41.3472,本溪市,威宁,,48,48,49,18,20,140,,124,124,26,28,13,9,0.9,0.6
2024-10-05T1600,2587A,105.2864,27.3125,毕节市,八中,细颗粒物(PM2.5),72,82,62,52,39,66,,56,56,12,12,9,8,0.5,0.4
2024-10-05T1600,2588A,105.31,27.2944,毕节市,师专,细颗粒物(PM2.5),74,82,59,54,38,66,,58,58,11,10,14,12,0.6,0.5
2024-10-05T1600,3537A,105.3631,27.3533,毕节市,长征村,细颗粒物(PM2.5),110,108,74,83,55,68,,59,59,11,10,17,12,0.6,0.5
2024-10-05T1600,1629A,118.0018,37.3617,滨州市,第二水厂,臭氧1小时,93,66,92,36,50,194,,149,149,16,48,11,20,0.2,0.3
2024-10-05T1600,1630A,117.9776,37.393,滨州市,北中新校,臭氧1小时,104,61,89,34,48,208,,165,165,16,49,13,21,0.4,0.7
2024-10-05T1600,3514A,117.9378,37.3956,滨州市,中海酒店,臭氧1小时,107,48,87,29,52,214,,174,174,10,42,10,18,0.5,0.7
2024-10-05T1600,3515A,117.9378,37.3553,滨州市,开发区一中,臭氧1小时,107,63,99,27,52,213,,162,162,16,54,13,35,0.7,0.9
2024-10-05T1600,3516A,118.0917,37.694,滨州市,金海六路,臭氧1小时,101,54,89,29,48,201,,157,157,17,48,8,10,0.4,0.6
2024-10-05T1600,4028A,117.9956,37.3753,滨州市,滨州市西街道办事处,臭氧1小时,110,66,90,34,59,220,,169,169,15,47,13,24,0.6,0.9
2024-10-05T1600,2311A,115.8072,33.8399,亳州市,污水处理厂,,41,34,50,13,20,129,,111,111,11,21,6,13,0.3,0.3
2024-10-05T1600,2312A,115.7789,33.8518,亳州市,三国揽胜宫,,39,31,50,8,26,123,,103,103,9,18,5,9,0.3,0.4
2024-10-05T1600,3332A,115.7633,33.8034,亳州市,亳州学院,,41,40,47,10,15,130,,110,110,10,16,2,5,0.3,0.3
2024-10-05T1600,2693A,82.0485,44.8556,博尔塔拉蒙古自治州,市党校,,48,48,41,12,14,101,,72,72,6,11,9,6,0.3,0.3
2024-10-05T1600,2694A,82.0806,44.8969,博尔塔拉蒙古自治州,市环保局,,31,31,49,14,16,98,,64,64,7,18,5,6,0.4,0.6
2024-10-05T1600,1071A,116.8842,38.2991,沧州市,沧县城建局,臭氧1小时,65,43,73,20,44,172,,135,135,12,33,6,7,0.4,0.5
2024-10-05T1600,1072A,116.8584,38.3254,沧州市,电视转播站,臭氧1小时,72,46,73,22,47,177,,146,146,10,32,9,12,0.4,0.5
2024-10-05T1600,1073A,116.8709,38.3228,沧州市,市环保局,臭氧1小时,73,53,74,27,52,178,,142,142,14,33,6,8,0.3,0.4
2024-10-05T1600,3324A,116.8136,38.3004,沧州市,河北水利电力学院,臭氧1小时,73,58,88,37,52,178,,142,142,9,26,6,8,0.3,0.5
2024-10-05T1600,2622A,97.1806,31.1273,昌都市,昌都监测站,,15,13,11,3,4,46,,28,28,3,8,8,8,0.6,0.6
2024-10-05T1600,3719A,97.1714,31.1406,昌都市,昌都会议中心,,16,6,8,3,4,49,,33,33,4,7,8,8,0.4,0.5
2024-10-05T1600,2690A,88.1236,43.8886,昌吉回族自治州,天山天池,,32,,14,13,9,101,,82,82,4,4,9,8,0.5,0.4
2024-10-05T1600,2692A,87.2717,44.0297,昌吉回族自治州,新区政务中心,,37,37,44,10,19,110,,64,64,9,34,7,6,0.6,0.9
2024-10-05T1600,3613A,87.3095,44.0142,昌吉回族自治州,亚心广场,,41,41,58,9,15,110,,64,64,13,44,6,5,0.6,0.9
2024-10-05T1600,1119A,125.3325,43.9166,长春市,食品厂,颗粒物(PM10),53,55,48,30,24,159,,140,140,22,22,9,7,0.6,0.5
2024-10-05T1600,1120A,125.2863,43.9027,长春市,客车厂,颗粒物(PM10),55,60,44,31,26,151,,134,134,19,19,10,9,0.6,0.5
2024-10-05T1600,1121A,125.2841,43.8463,长春市,邮电学院,颗粒物(PM10),53,56,46,22,19,161,,145,145,18,18,10,9,0.6,0.5
2024-10-05T1600,1122A,125.3716,43.8772,长春市,劳动公园,臭氧1小时,69,59,52,22,23,175,,150,150,16,20,11,9,0.5,0.5
2024-10-05T1600,1123A,125.3297,43.8805,长春市,园林处,臭氧1小时,54,49,47,26,23,163,,144,144,16,18,9,7,0.6,0.5
2024-10-05T1600,1124A,125.4605,43.79,长春市,净月潭,臭氧1小时,57,46,34,20,21,165,,142,142,15,12,9,7,0.5,0.4
2024-10-05T1600,1126A,125.3863,43.8447,长春市,经开区环卫处,臭氧1小时,57,38,43,17,19,165,,141,141,17,20,12,10,0.7,0.6
2024-10-05T1600,1127A,125.245,43.7783,长春市,高新区管委会,臭氧1小时,58,43,41,21,23,166,,154,154,12,14,10,8,0.6,0.5
2024-10-05T1600,1128A,125.1761,43.8325,长春市,岱山公园,颗粒物(PM10),51,52,43,20,23,159,,142,142,11,23,8,7,0.6,0.5
2024-10-05T1600,1335A,113.0833,28.2325,长沙市,经开区环保局,臭氧1小时,79,59,52,33,30,183,,141,141,17,28,8,7,0.5,0.4
2024-10-05T1600,1336A,112.8872,28.2189,长沙市,高开区环保局,臭氧1小时,68,50,63,41,39,174,,134,134,10,26,7,7,0.3,0.3
2024-10-05T1600,1337A,113.0792,28.2053,长沙市,马坡岭,臭氧1小时,90,59,53,37,33,192,,145,145,10,21,8,7,0.6,0.6
2024-10-05T1600,1338A,112.9394,28.19,长沙市,湖南师范大学,臭氧1小时,80,53,59,28,38,184,,142,142,8,20,6,6,0.6,0.6
2024-10-05T1600,1339A,113.0178,28.1322,长沙市,雨花区环保局,臭氧1小时,79,45,52,27,26,183,,140,140,9,24,9,8,0.5,0.5
2024-10-05T1600,1340A,112.9792,28.2597,长沙市,伍家岭,臭氧1小时,69,51,63,32,32,175,,133,133,9,31,7,5,0.7,0.7
2024-10-05T1600,1341A,113.0014,28.1944,长沙市,火车新站,臭氧1小时,70,52,57,31,33,176,,135,135,12,26,8,7,0.4,0.5
2024-10-05T1600,1342A,112.9844,28.1178,长沙市,天心区环保局,臭氧1小时,63,54,64,19,35,170,,125,125,12,34,7,6,0.7,0.7
2024-10-05T1600,1343A,112.8908,28.1308,长沙市,湖南中医药大学,臭氧1小时,75,51,65,30,38,180,,150,150,6,15,8,8,0.8,0.9
2024-10-05T1600,1344A,112.9581,28.3611,长沙市,沙坪,臭氧1小时,65,36,36,32,31,172,,134,134,6,9,11,9,0.6,0.6
2024-10-05T1600,1727A,113.1147,36.1547,长治市,清华站,,47,45,47,29,29,149,,118,118,20,23,10,9,0.7,0.6
2024-10-05T1600,1728A,113.1031,36.1989,长治市,监测站,细颗粒物(PM2.5),52,48,46,36,35,139,,113,113,25,25,12,11,0.6,0.6
2024-10-05T1600,1730A,113.0886,36.2125,长治市,审计局,细颗粒物(PM2.5),52,49,48,36,34,144,,110,110,18,21,9,8,0.3,0.3
2024-10-05T1600,1731A,113.0844,36.1856,长治市,长治八中,颗粒物(PM10),57,63,63,26,27,148,,110,110,18,25,9,9,0.6,0.6
2024-10-05T1600,2845A,113.1569,36.1911,长治市,德盛苑,,50,49,44,34,31,157,,126,122,19,18,8,6,0.9,0.7
2024-10-05T1600,3568A,113.06,36.0464,长治市,向阳小学,颗粒物(PM10),56,61,61,31,37,145,,125,125,21,24,8,7,0.5,0.4
2024-10-05T1600,3569A,112.8792,36.3144,长治市,屯留一中,细颗粒物(PM2.5),58,62,61,41,43,163,,118,118,18,28,12,14,1.1,1.2
2024-10-05T1600,3570A,113.235,36.3489,长治市,潞城四中,细颗粒物(PM2.5),63,70,74,45,45,150,,126,126,21,38,13,11,0.8,0.8
2024-10-05T1600,1854A,111.6975,28.9703,常德市,市二中,细颗粒物(PM2.5),77,60,93,56,71,165,,129,129,13,27,13,13,0.8,0.9
2024-10-05T1600,3138A,111.7153,29.0289,常德市,武陵区永安,细颗粒物(PM2.5),75,66,81,55,58,166,,139,139,14,19,14,15,1.0,0.9
2024-10-05T1600,3139A,111.6892,28.9881,常德市,鼎城区玉霞,细颗粒物(PM2.5),75,64,102,55,68,173,,140,140,12,26,15,15,0.8,0.8
2024-10-05T1600,3140A,111.6625,29.0531,常德市,武陵区长庚,细颗粒物(PM2.5),72,62,85,52,59,169,,142,142,16,21,13,12,0.6,0.6
2024-10-05T1600,1196A,119.9633,31.762,常州市,市监测站,,32,31,41,17,22,102,,94,94,10,17,8,9,0.4,0.5
2024-10-05T1600,1200A,119.9468,31.7069,常州市,武进监测站,,37,37,32,18,17,106,,96,96,8,14,11,13,0.7,0.8
2024-10-05T1600,1201A,119.9255,31.9087,常州市,安家,,29,28,38,14,20,91,,93,93,16,19,6,7,0.3,0.3
2024-10-05T1600,3002A,119.9805,31.8174,常州市,行政中心,,30,24,41,8,23,95,,88,88,11,18,8,6,0.1,0.2
2024-10-05T1600,3003A,120.0522,31.7748,常州市,经开区,,30,25,43,12,22,95,,90,90,18,32,8,8,0.1,0.2
2024-10-05T1600,3010A,119.9025,31.7964,常州市,钟楼,,38,38,35,15,22,96,,85,85,14,19,8,9,0.5,0.5
2024-10-05T1600,3429A,119.8598,31.7066,常州市,武进经发区,,35,35,40,20,21,100,,86,86,15,21,8,8,0.5,0.5
2024-10-05T1600,3430A,119.5826,31.7245,常州市,金坛城区,,37,29,32,18,19,118,,104,104,7,12,8,9,0.6,0.6
2024-10-05T1600,2220A,120.4318,41.5881,朝阳市,西梁,,50,42,52,23,39,159,,134,134,10,20,9,9,0.7,0.9
2024-10-05T1600,2221A,120.4521,41.5646,朝阳市,河畔小区,,49,42,50,28,35,156,,139,139,11,17,11,11,0.6,0.6
2024-10-05T1600,2222A,120.4176,41.5648,朝阳市,八里堡,臭氧1小时,57,42,56,23,36,165,,141,141,14,29,11,12,0.7,0.9
2024-10-05T1600,2223A,120.3806,41.5969,朝阳市,农业园区,,50,48,47,27,44,160,,146,146,12,14,10,9,0.6,0.7
2024-10-05T1600,1705A,116.6367,23.6719,潮州市,西园路,,32,,20,17,17,101,,64,64,14,11,4,3,0.5,0.4
2024-10-05T1600,3026A,116.6183,23.6608,潮州市,市政府,,34,24,22,11,12,106,,72,72,10,8,6,5,0.6,0.5
2024-10-05T1600,4036A,116.6461,23.6761,潮州市,金山,,35,21,19,20,16,111,,72,72,11,7,8,7,0.5,0.5
2024-10-05T1600,2472A,113.0073,25.9061,郴州市,马头岭,,42,42,49,11,21,134,,116,116,7,14,9,10,0.6,0.7
2024-10-05T1600,2473A,113.0116,25.8226,郴州市,市职中,,45,26,49,21,37,143,,125,125,9,18,10,9,0.5,0.6
2024-10-05T1600,2474A,113.0161,25.8001,郴州市,兴隆步行街,,48,39,53,25,34,151,,132,132,10,19,14,9,0.3,0.4
2024-10-05T1600,2475A,113.0383,25.8071,郴州市,市审计局,,47,34,51,24,37,148,,126,126,2,12,12,8,0.4,0.6
2024-10-05T1600,2476A,113.0348,25.7759,郴州市,市环保局,,44,38,58,18,36,138,,116,116,7,25,18,12,0.5,0.6
2024-10-05T1600,1431A,103.9728,30.7236,成都市,金泉两河,,30,30,26,10,8,71,,52,52,23,17,3,3,0.4,0.3
2024-10-05T1600,1432A,104.176,30.6872,成都市,十里店,,32,28,27,22,19,94,,63,63,12,17,2,1,0.5,0.6
2024-10-05T1600,1433A,104.079,30.5706,成都市,三瓦窑,颗粒物(PM10),51,51,33,34,20,54,,53,53,30,28,3,3,0.6,0.5
2024-10-05T1600,1434A,104.1114,30.63,成都市,沙河铺,,46,46,38,17,20,82,,61,61,20,20,2,2,0.5,0.5
2024-10-05T1600,1437A,104.0786,30.6531,成都市,君平街,,36,36,31,22,20,82,,58,58,25,24,4,4,0.5,0.5
2024-10-05T1600,2880A,104.0239,30.65639,成都市,大石西路,,46,46,34,15,17,74,,51,51,22,18,3,2,0.3,0.4
2024-10-05T1600,3136A,104.2725,30.5589,成都市,龙泉驿区区政府,,39,39,27,19,19,92,,65,65,16,22,2,1,0.4,0.5
2024-10-05T1600,3357A,104.0106,30.6931,成都市,金博路,,43,42,26,30,14,66,,44,44,23,20,1,2,0.6,0.5
2024-10-05T1600,3359A,104.0578,30.5225,成都市,华阳,,44,44,33,27,23,65,,43,41,16,19,3,3,0.5,0.6
2024-10-05T1600,3487A,104.2394,30.5319,成都市,车城东七路,,29,29,34,18,21,90,,64,64,9,19,2,2,0.4,0.5
2024-10-05T1600,3488A,104.3853,30.7453,成都市,青白江技师分院,,39,39,31,16,21,102,,64,64,7,20,2,2,0.5,0.7
2024-10-05T1600,3489A,104.0789,30.4072,成都市,科学城,,29,29,33,19,24,92,,61,61,9,16,4,4,0.4,0.5
2024-10-05T1600,4011A,103.8506,30.6947,成都市,光华大道三段,,49,49,33,8,13,88,,64,64,20,13,3,6,0.6,0.6
2024-10-05T1600,1062A,117.9531,40.9081,承德市,铁路,颗粒物(PM10),61,72,65,25,38,130,,99,99,43,31,14,11,0.5,0.5
2024-10-05T1600,1063A,117.9392,40.9763,承德市,中国银行,颗粒物(PM10),63,75,65,38,33,156,,144,144,21,26,17,8,0.9,0.6
2024-10-05T1600,1064A,117.9503,40.928,承德市,开发区,颗粒物(PM10),64,77,75,33,38,158,,114,114,21,27,12,9,0.5,0.5
2024-10-05T1600,1065A,117.8051,40.9655,承德市,文化中心,颗粒物(PM10),73,96,87,43,44,157,,98,98,37,40,169,24,1.7,1
2024-10-05T1600,1066A,117.9268,41.0026,承德市,离宫,细颗粒物(PM2.5),65,78,68,47,46,114,,94,94,13,14,13,6,0.9,0.6
2024-10-05T1600,2314A,117.47,30.6618,池州市,池州学院,,34,34,38,22,24,91,,92,92,17,16,8,7,0.4,0.5
2024-10-05T1600,3237A,117.4918,30.6617,池州市,展览馆,,30,30,39,14,22,91,,92,92,16,12,5,6,0.4,0.5
2024-10-05T1600,3333A,117.5627,30.695,池州市,第八中学,,30,30,37,14,20,90,,88,88,14,12,4,5,0.5,0.6
2024-10-05T1600,3334A,117.5038,30.6243,池州市,第十二中学,,32,21,36,16,26,102,,88,88,10,17,5,5,0.6,0.6
2024-10-05T1600,1744A,118.9233,42.2816,赤峰市,松山一中,,44,44,53,12,27,111,,126,118,23,23,12,12,0.5,0.5
2024-10-05T1600,1745A,118.9576,42.2728,赤峰市,哈达街,,44,44,60,12,30,101,,124,113,22,17,12,10,0.5,0.6
2024-10-05T1600,1746A,118.8788,42.2554,赤峰市,天义路,,35,30,51,16,31,110,,120,120,23,20,12,9,0.4,0.4
2024-10-05T1600,3058A,119.2658,42.0353,赤峰市,银河街,,50,50,68,19,35,135,,117,117,16,22,15,18,0.4,0.6
2024-10-05T1600,3286A,118.9359,42.3147,赤峰市,桥北物流园区,,43,43,56,10,31,124,,120,120,17,32,13,11,0.2,0.2
2024-10-05T1600,2521A,107.3476,22.4136,崇左市,市环保局江州分局,,45,45,62,22,28,144,,121,121,8,12,5,5,0.5,0.6
2024-10-05T1600,2522A,107.3702,22.3707,崇左市,城南新区,臭氧1小时,58,35,48,25,28,166,,136,136,7,16,7,5,0.5,0.5
2024-10-05T1600,2298A,118.3093,32.3153,滁州市,老年大学,,35,18,27,10,15,109,,105,105,9,16,6,6,0.3,0.3
2024-10-05T1600,2299A,118.3244,32.2786,滁州市,人大宾馆,,33,26,30,14,16,103,,106,106,16,20,6,7,0.2,0.2
2024-10-05T1600,3207A,118.3118,32.3038,滁州市,市政府原办公楼,,32,22,27,17,18,102,,103,103,13,16,5,6,0.2,0.3
2024-10-05T1600,3331A,118.3267,32.2634,滁州市,图书馆,,34,22,28,11,14,106,,109,109,13,16,4,5,0.2,0.3
2024-10-05T1600,2605A,101.5482,25.0441,楚雄彝族自治州,州环境监测站,,14,8,7,3,5,43,,41,41,2,3,6,6,0.5,0.6
2024-10-05T1600,2606A,101.538,25.0492,楚雄彝族自治州,市经济开发区,,14,9,11,3,6,44,,40,40,3,5,5,5,0.6,0.7
2024-10-05T1600,2548A,107.5277,31.2827,达州市,达州职业技术学院,,41,41,44,25,25,71,,43,43,20,34,6,6,0.7,0.7
2024-10-05T1600,2549A,107.5086,31.2186,达州市,市环境监测站,,44,44,48,17,22,82,,49,49,22,30,6,6,0.3,0.4
2024-10-05T1600,2550A,107.4988,31.2132,达州市,凤凰小区,,39,39,42,22,22,94,,59,59,16,29,7,8,0.3,0.5
2024-10-05T1600,2551A,107.5082,31.1986,达州市,达县机关宾馆,,34,34,48,22,28,88,,58,58,19,41,5,6,0.3,0.4
2024-10-05T1600,2552A,107.4644,31.2124,达州市,市政中心,,42,42,50,17,24,86,,57,57,19,31,5,5,0.4,0.5
2024-10-05T1600,2614A,100.1542,25.7054,大理白族自治州,大理市环境监测站,,20,20,13,9,8,39,,36,36,3,5,6,6,0.6,0.6
2024-10-05T1600,2615A,100.2171,25.5811,大理白族自治州,大理古城,,14,9,13,8,8,43,,40,40,4,8,7,7,0.5,0.5
2024-10-05T1600,1109A,121.612,38.9741,大连市,甘井子,臭氧1小时,55,32,33,16,18,164,,140,140,18,22,10,9,0.7,0.7
2024-10-05T1600,1110A,121.565,38.9511,大连市,周水子,臭氧1小时,59,39,36,18,21,167,,138,138,17,36,14,11,0.6,0.6
2024-10-05T1600,1111A,121.5637,38.8845,大连市,星海三站,臭氧1小时,64,28,28,16,18,171,,146,146,9,15,9,8,0.4,0.4
2024-10-05T1600,1112A,121.6302,38.9117,大连市,青泥洼桥,臭氧1小时,57,24,24,17,13,165,,144,144,10,13,9,8,0.4,0.4
2024-10-05T1600,1113A,121.6251,38.8638,大连市,傅家庄,臭氧1小时,55,30,24,20,14,164,,144,144,8,10,8,9,0.5,0.5
2024-10-05T1600,1114A,121.5213,38.8661,大连市,七贤岭,臭氧1小时,75,24,26,19,17,180,,152,152,12,18,10,8,0.6,0.6
2024-10-05T1600,1115A,121.2529,38.8061,大连市,旅顺,臭氧1小时,60,44,35,22,19,168,,146,146,17,20,8,9,0.5,0.5
2024-10-05T1600,1116A,121.7485,39.1311,大连市,金州,臭氧1小时,58,32,27,22,20,166,,146,146,18,19,8,7,0.6,0.6
2024-10-05T1600,1117A,121.7811,39.0496,大连市,开发区,臭氧1小时,59,31,32,15,21,167,,144,144,10,25,10,12,0.4,0.5
2024-10-05T1600,1118A,121.9762,39.0631,大连市,双D港,臭氧1小时,67,23,20,17,12,173,,152,152,14,17,8,8,0.6,0.6
2024-10-05T1600,1789A,124.81117,46.03138,大庆市,大同区,,25,18,49,16,28,78,,86,79,5,11,4,4,0.3,0.5
2024-10-05T1600,1790A,125.129,46.533,大庆市,龙凤区,,43,43,49,22,25,73,,94,74,10,14,2,4,0.3,0.5
2024-10-05T1600,1791A,124.902,46.408,大庆市,红岗区,,35,35,48,11,17,78,,94,80,7,13,6,7,0.3,0.5
2024-10-05T1600,1792A,125.153,46.586,大庆市,萨尔图区,,33,33,50,9,19,68,,97,70,14,14,6,7,0.2,0.4
2024-10-05T1600,1793A,124.9042,46.6215,大庆市,让胡路区,,39,39,48,20,26,70,,96,73,6,11,4,5,0.3,0.5
2024-10-05T1600,3481A,125.141,46.634,大庆市,萨区政府监测点,,24,19,41,3,22,76,,101,75,6,12,5,7,0.2,0.4
2024-10-05T1600,1721A,113.3819,40.1097,大同市,果树场,,50,50,63,17,33,114,,88,88,13,29,10,9,0.6,0.8
2024-10-05T1600,1723A,113.2994,40.0758,大同市,云冈宾馆,,45,45,65,19,26,120,,91,91,21,38,12,11,0.6,0.8
2024-10-05T1600,1724A,113.3444,40.0917,大同市,大同大学,,37,33,64,19,28,117,,92,92,15,41,14,15,0.6,0.8
2024-10-05T1600,1725A,113.2661,40.1269,大同市,安家小村,,50,50,68,18,24,120,,94,94,18,34,16,16,0.5,0.7
2024-10-05T1600,1726A,113.2711,40.0844,大同市,教育学院,,50,50,76,18,28,114,,88,88,25,45,13,14,0.6,1
2024-10-05T1600,3282A,113.3397,40.0597,大同市,大同市卫生学校,,45,45,76,24,31,121,,92,92,14,43,12,11,0.6,0.8
2024-10-05T1600,3565A,113.1367,40.1122,大同市,云冈站,颗粒物(PM10),61,72,70,28,26,118,,98,98,22,28,15,13,0.6,0.6
2024-10-05T1600,3566A,113.1186,40.2556,大同市,图书馆,,46,46,72,21,26,115,,88,88,23,27,14,13,0.6,0.6
2024-10-05T1600,3567A,113.5931,40.0461,大同市,区一中,,39,32,54,3,17,122,,105,105,17,23,10,12,0.5,0.6
2024-10-05T1600,3676A,113.2802,40.0995,大同市,第二人民医院,,43,43,75,25,28,122,,96,96,20,38,16,17,0.6,1
2024-10-05T1600,2269A,124.1069,50.4097,大兴安岭地区,科技局,,25,17,22,17,18,72,,71,71,3,6,7,8,0.3,0.3
2024-10-05T1600,3663A,124.1164,50.4278,大兴安岭地区,红旗社区,,22,9,11,7,7,70,,68,68,3,4,2,2,0.2,0.3
2024-10-05T1600,1600A,124.3303,40.0625,丹东市,江湾东路,,35,33,45,18,29,112,,85,85,8,24,14,9,0.5,0.7
2024-10-05T1600,1601A,124.4256,40.1503,丹东市,临江后街,,40,27,49,14,26,126,,96,96,7,16,7,7,0.6,0.9
2024-10-05T1600,1602A,124.3933,40.1461,丹东市,元宝山,,37,23,38,11,20,117,,86,86,6,14,5,5,0.5,0.8
2024-10-05T1600,1603A,124.3633,40.1092,丹东市,民主桥,,38,34,39,15,22,121,,100,100,7,24,7,6,0.5,0.7
2024-10-05T1600,3541A,109.5726,19.5167,儋州市,第一中学子站,,48,30,44,22,25,151,,130,130,6,7,7,7,0.6,0.6
2024-10-05T1600,3542A,109.5567,19.5187,儋州市,东坡学校子站,,50,31,43,22,24,160,,144,144,6,7,7,7,0.6,0.7
2024-10-05T1600,2616A,98.5842,24.428,德宏傣族景颇族自治州,德宏州监测站,,12,11,20,3,9,30,,31,31,10,15,34,17,0.3,0.4
2024-10-05T1600,3677A,98.5881,24.4368,德宏傣族景颇族自治州,芒市人民政府综合楼,,14,14,18,3,8,34,,33,33,7,14,13,12,0.4,0.5
2024-10-05T1600,1901A,104.4239,31.1208,德阳市,东山公园,,32,31,34,16,19,102,,64,64,9,21,2,2,0.4,0.5
2024-10-05T1600,1902A,104.3826,31.1317,德阳市,西小区,,39,39,43,21,26,101,,67,67,10,24,1,2,0.4,0.5
2024-10-05T1600,1904A,104.3553,31.1091,德阳市,耐火材料厂,,40,34,40,28,22,99,,70,70,10,18,3,3,0.2,0.3
2024-10-05T1600,3639A,104.4019,31.1244,德阳市,市教育局,,37,37,41,24,23,101,,64,64,10,24,2,2,0.3,0.4
2024-10-05T1600,1622A,116.3032,37.4674,德州市,儿童乐园,臭氧1小时,68,56,82,19,41,174,,144,144,17,29,9,13,0.4,0.5
2024-10-05T1600,1624A,116.2991,37.4451,德州市,监理站,臭氧1小时,77,44,76,22,41,181,,146,146,15,31,8,11,0.4,0.5
2024-10-05T1600,3066A,116.2721,37.4379,德州市,九衢泉纯净水厂,臭氧1小时,68,48,85,24,41,174,,137,137,14,39,7,12,0.4,0.6
2024-10-05T1600,3371A,116.3728,37.4403,德州市,开发区人民医院,臭氧1小时,77,51,82,22,38,181,,142,142,8,32,9,14,0.4,0.6
2024-10-05T1600,3372A,116.3572,37.4094,德州市,太阳城中学,臭氧1小时,74,58,87,22,41,179,,138,138,16,47,8,12,0.4,0.6
2024-10-05T1600,3511A,116.5652,37.3319,德州市,陵城艺术中心,臭氧1小时,70,51,75,19,40,176,,138,138,16,41,8,12,0.5,0.6
2024-10-05T1600,2621A,99.7056,27.8317,迪庆藏族自治州,迪庆州站,,15,15,14,7,9,38,,40,36,13,10,9,9,0.4,0.4
2024-10-05T1600,3180A,99.7136,27.8094,迪庆藏族自治州,质量技术监督局,,20,20,13,11,8,42,,46,38,10,8,6,6,0.5,0.5
2024-10-05T1600,2663A,104.6241,35.5734,定西市,东关小学,,35,33,34,24,26,61,,55,51,10,10,6,6,0.3,0.2
2024-10-05T1600,2664A,104.6194,35.5934,定西市,供电公司,,38,38,34,16,20,67,,50,50,4,10,7,7,0.3,0.4
2024-10-05T1600,1389A,113.7547,23.0494,东莞市,莞城梨川,,36,23,35,12,19,113,,110,110,9,16,7,8,0.6,0.6
2024-10-05T1600,1390A,113.7944,23.0128,东莞市,东城石井,,44,34,33,21,19,140,,119,119,11,15,7,8,0.7,0.7
2024-10-05T1600,1391A,113.7383,22.9658,东莞市,南城西平,,42,34,36,27,19,133,,120,120,13,22,2,3,0.6,0.7
2024-10-05T1600,3319A,113.7338,23.0381,东莞市,万江金泰,,35,24,35,14,19,110,,107,107,8,15,5,6,0.5,0.5
2024-10-05T1600,3626A,113.7533,23.0202,东莞市,南城元岭,,38,28,34,18,19,120,,116,116,6,12,8,8,0.6,0.6
2024-10-05T1600,3627A,113.7875,23.0457,东莞市,东城主山,,45,45,38,17,20,114,,116,116,22,20,8,8,0.5,0.5
2024-10-05T1600,1666A,118.6614,37.4309,东营市,市环保局,臭氧1小时,121,75,85,41,46,241,,181,181,16,37,10,12,0.6,0.7
2024-10-05T1600,3036A,118.6904,37.4338,东营市,开发区管委会,臭氧1小时,120,80,88,41,49,240,,177,177,21,36,11,11,0.3,0.5
2024-10-05T1600,3365A,118.5719,37.565,东营市,垦利区民丰路,臭氧1小时,109,73,82,56,48,217,,178,178,25,57,12,16,0.7,0.5
2024-10-05T1600,3498A,118.5055,37.8612,东营市,河口城区,臭氧1小时,103,63,89,34,50,206,,154,154,21,37,9,10,0.3,0.4
2024-10-05T1600,3646A,118.4978,37.4623,东营市,胜利站,臭氧1小时,114,85,95,36,51,227,,170,170,19,52,16,27,0.5,0.7
2024-10-05T1600,3734A,118.35,37.26,东营市,理想之城,臭氧1小时,112,66,85,36,51,224,,169,169,21,43,11,10,0.5,0.6
2024-10-05T1600,1591A,110.0023,39.8129,鄂尔多斯市,综合楼,,,,60,,16,113,,98,98,,29,3,12,0.8,0.7
2024-10-05T1600,1592A,109.9486,39.8261,鄂尔多斯市,巴音孟克林场办事处,,34,34,52,22,20,103,,81,81,22,28,8,10,0.6,0.7
2024-10-05T1600,1593A,109.7736,39.5986,鄂尔多斯市,康泽苑,,48,48,44,19,19,124,,83,83,18,27,10,8,0.7,0.6
2024-10-05T1600,1594A,109.8119,39.5989,鄂尔多斯市,华泰汽车城,,41,41,43,24,22,119,,79,79,12,31,12,10,0.6,0.6
2024-10-05T1600,1595A,109.9734,39.7884,鄂尔多斯市,奥林花园,颗粒物(PM10),52,53,56,22,22,103,,80,80,17,33,8,7,0.7,0.7
2024-10-05T1600,2436A,114.8938,30.3994,鄂州市,市政府,,50,28,38,17,22,158,,126,126,18,25,11,12,0.8,0.7
2024-10-05T1600,2437A,114.8989,30.3714,鄂州市,赵家坝,臭氧1小时,54,27,44,14,22,163,,126,126,16,27,12,13,0.6,0.6
2024-10-05T1600,3654A,114.8094,30.4089,鄂州市,精准医疗中心,臭氧1小时,63,33,40,22,21,170,,140,140,12,17,6,6,0.6,0.6
2024-10-05T1600,2454A,109.4978,30.2981,恩施土家族苗族自治州,湖北民院,,42,42,46,25,35,100,,63,63,11,21,9,10,0.6,0.6
2024-10-05T1600,2455A,109.4707,30.2798,恩施土家族苗族自治州,州电力总公司,,32,28,45,22,33,96,,63,63,15,24,7,7,0.7,0.7
2024-10-05T1600,3549A,109.5061,30.3772,恩施土家族苗族自治州,龙凤新区,,35,35,47,16,33,102,,55,55,14,21,5,6,0.6,0.8
2024-10-05T1600,2499A,108.3411,21.6158,防城港市,沙万,,46,46,52,25,27,144,,136,136,10,14,10,11,0.6,0.6
2024-10-05T1600,2500A,108.3514,21.7731,防城港市,防城档案局,,43,43,99,26,38,134,,126,126,12,29,11,11,0.5,0.6
2024-10-05T1600,2501A,108.3506,21.6414,防城港市,大海花园,,50,50,54,23,29,140,,133,133,8,12,8,9,0.6,0.9
2024-10-05T1600,1371A,113.1294,23.0067,佛山市,湾梁,臭氧1小时,60,34,38,20,21,168,,136,136,19,26,8,10,0.6,0.6
2024-10-05T1600,1372A,113.1083,23.0478,佛山市,华材职中,,46,34,44,24,24,146,,132,132,18,33,8,11,0.5,0.6
2024-10-05T1600,1373A,113.144,23.0453,佛山市,南海气象局,臭氧1小时,53,42,37,21,22,162,,132,132,13,24,8,10,0.6,0.6
2024-10-05T1600,1374A,113.2881,22.8094,佛山市,顺德苏岗,,46,18,29,7,15,147,,127,127,12,19,8,9,0.6,0.6
2024-10-05T1600,1376A,112.8383,22.8678,佛山市,高明孔堂,臭氧1小时,53,30,44,24,29,162,,137,137,11,25,8,10,0.6,0.6
2024-10-05T1600,1377A,112.8836,23.1588,佛山市,三水监测站,,45,31,43,21,26,143,,127,127,13,28,7,9,0.4,0.5
2024-10-05T1600,1378A,112.867,23.185,佛山市,三水云东海,,44,28,35,18,25,138,,123,123,14,29,10,11,0.5,0.6
2024-10-05T1600,3625A,113.2544,22.7642,佛山市,容桂街道办,,50,24,29,14,19,160,,130,130,13,20,7,8,0.6,0.7
2024-10-05T1600,1282A,119.2681,26.0504,福州市,师大,,18,17,10,7,3,56,,54,54,6,7,1,2,0.3,0.3
2024-10-05T1600,1283A,119.2984,26.1028,福州市,五四北路,,16,14,11,8,3,51,,52,52,10,11,3,3,0.4,0.3
2024-10-05T1600,1284A,119.2648,26.0768,福州市,杨桥西路,,17,17,11,8,3,54,,55,55,9,9,3,3,0.4,0.4
2024-10-05T1600,1285A,119.317,26.0746,福州市,紫阳,,20,20,12,12,5,33,,44,44,31,13,6,6,0.5,0.5
2024-10-05T1600,3048A,119.5799,26.0936,福州市,九龙,,13,12,10,3,0,40,,50,49,16,5,6,6,0.4,0.4
2024-10-05T1600,3526A,119.5189,25.9664,福州市,吴航,,18,15,11,12,9,49,,44,44,16,17,6,6,0.5,0.5
2024-10-05T1600,1755A,123.7977,41.8491,抚顺市,望花区,臭氧1小时,63,66,57,29,28,170,,141,141,26,28,15,10,0.7,0.7
2024-10-05T1600,1756A,123.9161,41.8822,抚顺市,顺城区,臭氧1小时,77,68,50,30,26,181,,142,142,20,30,14,9,0.7,0.7
2024-10-05T1600,1757A,124.0436,41.8611,抚顺市,东洲区,颗粒物(PM10),53,55,40,22,25,159,,140,140,12,17,10,9,0.5,0.6
2024-10-05T1600,1758A,123.9247,41.8642,抚顺市,新抚区,臭氧1小时,78,62,53,28,25,182,,146,146,20,27,12,6,0.6,0.6
2024-10-05T1600,1759A,124.0972,41.8961,抚顺市,大伙房水库,臭氧1小时,65,55,34,22,21,172,,145,145,10,10,11,9,0.5,0.5
2024-10-05T1600,1760A,123.7086,41.8391,抚顺市,沈抚新城,臭氧1小时,82,70,51,29,25,185,,158,158,22,25,15,12,0.5,0.4
2024-10-05T1600,2376A,116.2127,28.0814,抚州市,桐源党溪,,45,32,44,14,22,142,,122,122,2,6,5,6,0.7,0.7
2024-10-05T1600,2377A,116.3544,27.9831,抚州市,市站,,36,29,37,10,19,114,,98,98,6,9,2,4,0.4,0.7
2024-10-05T1600,2378A,116.3565,27.963,抚州市,血防站,,40,28,38,14,18,128,,112,112,9,12,1,4,0.5,0.6
2024-10-05T1600,2379A,116.3564,28.0007,抚州市,采茶剧团,,40,27,38,8,20,125,,105,105,4,6,4,5,0.6,0.6
2024-10-05T1600,2380A,116.385,27.9647,抚州市,医学分院,,43,18,41,8,18,137,,117,117,4,9,3,5,0.7,0.7
2024-10-05T1600,2207A,121.6094,41.998,阜新市,工业园区,臭氧1小时,80,51,66,21,33,184,,145,145,18,29,23,20,0.9,1
2024-10-05T1600,2208A,121.6697,42.0279,阜新市,长青街,颗粒物(PM10),58,65,76,22,36,161,,141,141,18,22,17,19,0.7,0.8
2024-10-05T1600,2209A,121.6673,42.0705,阜新市,农业园区,臭氧1小时,58,51,73,39,72,166,,140,140,17,23,16,20,0.7,0.8
2024-10-05T1600,2210A,121.6717,42.0224,阜新市,东苑,臭氧1小时,54,53,61,18,32,163,,137,137,25,32,21,26,0.9,0.9
2024-10-05T1600,2211A,121.6506,42.0498,阜新市,玉龙新城,臭氧1小时,83,44,65,27,35,186,,149,149,16,26,20,16,0.5,0.7
2024-10-05T1600,2301A,115.8277,32.8929,阜阳市,市监测站,,43,40,44,16,21,136,,113,113,11,16,7,8,0.3,0.4
2024-10-05T1600,2303A,115.8554,32.8605,阜阳市,开发区,,46,46,66,14,24,136,,112,112,14,21,7,8,0.3,0.4
2024-10-05T1600,2875A,115.784,32.8892,阜阳市,阜阳职业技术学院,,49,49,45,15,21,137,,112,112,11,17,6,8,0.3,0.3
2024-10-05T1600,3468A,115.7901,32.8613,阜阳市,市规划展馆,,44,33,40,13,20,140,,116,116,15,18,7,9,0.5,0.5
2024-10-05T1600,3469A,115.836,32.9183,阜阳市,枣园社区,,42,33,42,12,21,133,,110,110,11,18,7,9,0.4,0.4
2024-10-05T1600,2669A,102.9099,34.9841,甘南藏族自治州,州政府,,28,,26,17,17,88,,74,74,6,22,10,11,0.3,0.5
2024-10-05T1600,3380A,102.8914,34.9617,甘南藏族自治州,甘肃民族师范学院,,31,,50,8,19,99,,72,72,5,28,3,5,0.4,0.5
2024-10-05T1600,2570A,101.9603,30.0475,甘孜藏族自治州,水桥子,,12,8,4,3,5,36,,30,30,6,13,6,6,0.3,0.3
2024-10-05T1600,3065A,101.9533,29.9972,甘孜藏族自治州,州环保局,,15,7,7,3,4,45,,36,36,6,16,3,3,0.3,0.3
2024-10-05T1600,3414A,115.8347,28.932,赣江新区,桑海产业园,,45,29,39,10,20,143,,115,115,11,20,12,12,0.4,0.5
2024-10-05T1600,2362A,114.9017,25.9149,赣州市,通天岩,,45,28,32,20,23,141,,137,137,6,8,19,18,0.4,0.4
2024-10-05T1600,2363A,114.9367,25.8664,赣州市,地委,,40,31,30,18,21,125,,120,120,10,11,2,2,1.2,1.1
2024-10-05T1600,2364A,114.9461,25.8481,赣州市,气象台,,42,29,33,17,21,132,,123,123,9,8,4,4,0.6,0.6
2024-10-05T1600,2365A,114.9322,25.8333,赣州市,市图书馆,,43,26,30,14,17,136,,131,131,6,7,5,6,0.7,0.6
2024-10-05T1600,2366A,114.8905,25.8471,赣州市,华坚鞋城,,40,27,32,9,18,128,,120,120,8,8,5,6,0.4,0.4
2024-10-05T1600,3109A,115.0093,25.8613,赣州市,赣县区卫计委,,36,31,35,18,19,115,,119,119,8,15,7,7,0.5,0.6
2024-10-05T1600,2683A,106.2319,36.1417,固原市,马园,,26,26,30,10,14,83,,58,58,11,22,6,6,0.5,0.6
2024-10-05T1600,2684A,106.2792,36.0022,固原市,监测站,,22,22,26,14,16,69,,56,56,13,22,6,6,0.4,0.5
2024-10-05T1600,2685A,106.2375,36.0211,固原市,新区,,24,23,25,11,14,74,,60,60,8,21,5,5,0.4,0.4
2024-10-05T1600,3522A,106.2177,35.9959,固原市,原州区十五小,,28,28,23,16,14,71,,62,62,11,15,6,4,0.5,0.6
2024-10-05T1600,2544A,106.6303,30.4576,广安市,市委,细颗粒物(PM2.5),72,83,72,52,45,113,,81,81,22,25,6,8,0.5,0.4
2024-10-05T1600,2545A,106.6271,30.4663,广安市,友谊中学,细颗粒物(PM2.5),70,78,57,51,41,100,,70,70,28,26,9,8,0.6,0.6
2024-10-05T1600,2547A,106.6388,30.4551,广安市,广电花园,细颗粒物(PM2.5),82,80,63,60,46,105,,76,76,25,24,9,10,0.6,0.6
2024-10-05T1600,2902A,106.6351,30.4865,广安市,北辰小学,细颗粒物(PM2.5),65,77,61,47,38,108,,70,70,22,23,11,11,0.5,0.5
2024-10-05T1600,2523A,105.8945,32.4535,广元市,黑石坡,,25,25,26,13,17,78,,35,35,10,10,15,14,0.4,0.4
2024-10-05T1600,2524A,105.821,32.4444,广元市,老城,,37,37,31,15,13,87,,48,48,14,24,8,2,0.6,0.6
2024-10-05T1600,2526A,105.8628,32.4287,广元市,监测站,,43,43,30,18,20,88,,47,47,15,22,3,3,0.5,0.6
2024-10-05T1600,3617A,105.8047,32.4166,广元市,经开区,细颗粒物(PM2.5),63,73,46,45,24,74,,45,45,23,28,55,10,1.3,0.7
2024-10-05T1600,1345A,113.2347,23.1423,广州市,广雅中学,,45,42,50,17,23,143,,123,123,18,32,7,9,0.8,0.9
2024-10-05T1600,1346A,113.2612,23.105,广州市,市五中,,49,35,42,26,26,154,,132,132,10,19,4,6,0.6,0.6
2024-10-05T1600,1348A,113.3478,23.0916,广州市,广东商学院,,42,36,45,21,24,133,,116,116,18,21,5,6,0.6,0.6
2024-10-05T1600,1349A,113.4332,23.1047,广州市,市八十六中,,41,29,35,15,19,131,,114,114,11,20,4,5,0.5,0.6
2024-10-05T1600,1350A,113.3505,22.9483,广州市,番禺中学,,36,31,35,23,24,113,,94,94,13,19,6,7,0.5,0.6
2024-10-05T1600,1351A,113.2146,23.3916,广州市,花都师范,,45,31,36,19,21,141,,126,126,8,12,8,10,0.7,0.5
2024-10-05T1600,1352A,113.2597,23.1331,广州市,市监测站,,45,32,40,17,21,143,,127,127,15,28,5,7,0.7,0.8
2024-10-05T1600,1353A,113.5618,23.312,广州市,九龙镇镇龙,,34,24,44,22,25,106,,102,102,10,22,7,7,0.5,0.7
2024-10-05T1600,1354A,113.2765,23.1544,广州市,麓湖,,45,34,39,19,21,144,,128,128,12,22,7,8,0.5,0.6
2024-10-05T1600,1355A,113.443,23.3035,广州市,帽峰山森林公园,,42,20,25,16,19,132,,124,124,6,9,7,8,0.6,0.7
2024-10-05T1600,2846A,113.3221,23.1322,广州市,体育西,,41,30,37,22,26,130,,118,118,12,21,4,6,0.6,0.6
2024-10-05T1600,3298A,113.5717,23.5491,广州市,从化街口,,35,26,39,18,24,110,,104,104,6,21,10,10,0.5,0.6
2024-10-05T1600,3299A,113.3472,23.3692,广州市,白云竹料,,41,34,40,15,21,130,,124,124,9,15,7,8,0.6,0.6
2024-10-05T1600,3300A,113.2981,23.237,广州市,白云嘉禾,,44,44,52,19,24,129,,120,120,15,21,6,7,0.6,0.7
2024-10-05T1600,3301A,113.4256,23.1716,广州市,黄埔科学城,,41,26,35,15,17,129,,116,116,10,18,8,9,0.7,0.7
2024-10-05T1600,3302A,113.3942,23.0483,广州市,番禺大学城,,41,33,35,16,20,130,,116,116,14,26,11,12,0.0,0.2
2024-10-05T1600,3303A,113.4922,22.8168,广州市,南沙黄阁,,47,43,43,25,23,148,,128,128,22,32,10,10,0.7,0.7
2024-10-05T1600,3304A,113.5342,22.7896,广州市,南沙街,,45,32,41,18,21,143,,126,126,16,28,13,11,0.7,0.7
2024-10-05T1600,3443A,113.2902,23.5544,广州市,花都梯面,,40,32,35,17,21,125,,113,113,6,16,9,11,0.5,0.6
2024-10-05T1600,3445A,113.7858,23.7478,广州市,从化良口,,36,24,26,18,18,113,,101,101,5,8,9,8,0.6,0.6
2024-10-05T1600,3446A,113.8051,23.2614,广州市,增城荔城,,33,26,31,18,20,104,,100,100,7,12,6,7,0.5,0.6
2024-10-05T1600,2506A,109.6047,23.0666,贵港市,江南子站,臭氧1小时,57,44,88,20,43,165,,127,127,7,27,10,12,0.6,0.8
2024-10-05T1600,2507A,109.6014,23.0948,贵港市,贵城子站,,50,45,70,20,38,159,,141,141,7,21,9,10,0.6,0.8
2024-10-05T1600,2508A,109.5669,23.1065,贵港市,荷城子站,,46,39,58,17,25,146,,136,136,11,15,11,12,0.6,0.6
2024-10-05T1600,3405A,109.5886,23.1172,贵港市,新世纪学校,,45,34,58,19,25,144,,136,136,8,12,8,10,0.5,0.6
2024-10-05T1600,1439A,106.6899,26.5998,贵阳市,马鞍山,,49,44,33,12,13,155,,115,115,13,12,4,4,0.6,0.5
2024-10-05T1600,1440A,106.6971,26.5694,贵阳市,市环保站,臭氧1小时,67,46,36,28,26,173,,125,125,9,10,6,6,0.4,0.4
2024-10-05T1600,1441A,106.6243,26.6266,贵阳市,鉴湖路,,46,46,40,27,19,143,,109,109,9,9,5,5,0.4,0.4
2024-10-05T1600,1442A,106.7487,26.6343,贵阳市,燕子冲,,47,41,30,22,22,150,,117,117,8,7,8,7,0.4,0.3
2024-10-05T1600,1443A,106.6555,26.4365,贵阳市,碧云窝,,41,41,45,17,18,130,,111,111,7,11,9,7,0.4,0.3
2024-10-05T1600,1444A,106.694,26.5161,贵阳市,中院村,,40,34,35,19,19,127,,108,108,9,13,10,9,0.7,0.6
2024-10-05T1600,1445A,106.7109,26.6027,贵阳市,红边门,细颗粒物(PM2.5),52,51,38,36,25,160,,116,116,15,14,7,7,0.5,0.4
2024-10-05T1600,1446A,106.7164,26.5699,贵阳市,新华路,,50,44,33,19,19,157,,115,115,10,10,7,7,0.4,0.3
2024-10-05T1600,1447A,106.674,26.5424,贵阳市,太慈桥,,46,46,38,17,17,146,,116,116,10,11,8,7,0.3,0.3
2024-10-05T1600,1862A,110.4144,25.3167,桂林市,电子科大尧山校区,,48,36,45,24,28,151,,141,141,6,8,6,10,0.5,0.6
2024-10-05T1600,1863A,110.2819,25.2697,桂林市,监测站,,50,45,45,30,30,158,,146,146,11,13,11,12,0.3,0.4
2024-10-05T1600,1864A,110.3089,25.2708,桂林市,龙隐路小学,臭氧1小时,59,,41,33,31,167,,152,152,6,8,11,17,0.6,0.6
2024-10-05T1600,1865A,110.2869,25.2178,桂林市,八中,,50,39,43,32,31,158,,146,146,10,15,11,13,0.6,0.6
2024-10-05T1600,3403A,110.1764,25.2381,桂林市,创业大厦,臭氧1小时,53,31,55,29,34,162,,145,145,8,11,8,21,0.4,0.3
2024-10-05T1600,3531A,110.296,25.1253,桂林市,旅游学院,臭氧1小时,60,31,42,27,28,168,,142,142,8,16,10,14,0.4,0.5
2024-10-05T1600,2674A,100.2561,34.4714,果洛藏族自治州,玛沁县大武镇,,35,17,18,8,14,109,,102,102,2,3,9,9,0.3,0.4
2024-10-05T1600,1129A,126.5422,45.755,哈尔滨市,岭北,,46,32,45,25,29,145,,144,144,12,17,9,11,0.3,0.4
2024-10-05T1600,1130A,126.561,45.8167,哈尔滨市,松北商大,颗粒物(PM10),55,59,46,26,20,112,,117,117,19,18,10,10,0.5,0.5
2024-10-05T1600,1131A,126.979,45.5419,哈尔滨市,阿城会宁,,48,48,41,25,23,147,,126,126,17,14,13,9,0.7,0.6
2024-10-05T1600,1132A,126.599,45.7222,哈尔滨市,南岗学府路,颗粒物(PM10),60,70,59,26,23,133,,124,124,14,17,9,8,0.5,0.5
2024-10-05T1600,1133A,126.689,45.7733,哈尔滨市,太平宏伟公园,颗粒物(PM10),60,70,53,32,23,126,,117,117,14,19,6,6,0.5,0.6
2024-10-05T1600,1134A,126.635,45.7667,哈尔滨市,道外承德广场,颗粒物(PM10),76,102,64,31,25,120,,114,114,21,22,7,7,0.9,0.7
2024-10-05T1600,1135A,126.685,45.7319,哈尔滨市,香坊红旗大街,颗粒物(PM10),53,56,61,29,27,130,,119,119,14,23,9,9,0.8,0.7
2024-10-05T1600,1136A,126.6411,45.7258,哈尔滨市,动力和平路,颗粒物(PM10),63,75,52,43,32,127,,122,122,15,19,11,11,0.7,0.6
2024-10-05T1600,1137A,126.593,45.7478,哈尔滨市,道里建国路,颗粒物(PM10),59,68,52,30,27,120,,118,118,20,18,14,14,1.1,0.9
2024-10-05T1600,1138A,126.615,45.61,哈尔滨市,平房东轻厂,颗粒物(PM10),58,66,47,28,18,127,,121,121,19,15,8,7,0.7,0.7
2024-10-05T1600,1139A,126.595,45.9855,哈尔滨市,呼兰师专,颗粒物(PM10),59,67,51,23,28,91,,106,106,19,25,6,6,0.5,0.6
2024-10-05T1600,1140A,126.6206,45.6842,哈尔滨市,省农科院,细颗粒物(PM2.5),68,80,78,49,36,112,,109,109,25,31,6,6,0.6,0.6
2024-10-05T1600,2688A,93.5128,42.8172,哈密市,地区监测站,,36,36,50,10,19,110,,88,88,6,20,8,7,0.3,0.4
2024-10-05T1600,2689A,93.4961,42.8328,哈密市,哈密师范学校,,34,22,49,13,21,108,,84,84,7,23,8,6,0.3,0.5
2024-10-05T1600,2671A,100.9048,36.9639,海北藏族自治州,海晏县西海镇,,34,12,27,12,23,107,,95,95,7,8,11,11,0.6,0.5
2024-10-05T1600,3867A,102.0738,36.5056,海东市,平安区公安北苑,,34,31,54,13,36,107,,57,57,11,20,15,19,0.4,0.8
2024-10-05T1600,1410A,110.3232,20.0574,海口市,海南大学,,47,31,39,17,20,150,,145,145,7,9,6,5,0.5,0.5
2024-10-05T1600,1411A,110.283,20.0053,海口市,秀英海南医院,,46,35,39,19,22,147,,144,144,9,12,8,8,0.3,0.4
2024-10-05T1600,1412A,110.338,19.9969,海口市,海南师范大学,,47,34,40,18,20,150,,145,145,8,10,9,9,0.5,0.5
2024-10-05T1600,1413A,110.33,20.0356,海口市,龙华路环保局宿舍,,48,34,39,18,20,151,,144,144,6,8,6,7,0.4,0.4
2024-10-05T1600,3539A,110.5111,19.9736,海口市,桂林洋子站,臭氧1小时,52,35,40,20,22,161,,148,148,6,8,9,9,0.4,0.4
2024-10-05T1600,2673A,100.6188,36.2866,海南藏族自治州,共和县恰卜恰镇,,31,23,41,11,20,98,,83,83,6,14,10,12,0.6,0.5
2024-10-05T1600,2676A,97.3731,37.3753,海西蒙古族藏族自治州,德令哈市,,35,32,37,8,17,111,,91,91,6,12,10,10,0.4,0.5
2024-10-05T1600,1048A,114.5302,36.6116,邯郸市,东污水处理厂,,42,39,68,14,38,134,,102,102,10,28,3,3,0.4,0.5
2024-10-05T1600,1049A,114.4918,36.5713,邯郸市,矿院,,48,48,76,9,38,137,,96,96,7,25,4,6,0.3,0.4
2024-10-05T1600,1050A,114.484,36.6133,邯郸市,丛台公园,,50,50,62,13,38,133,,95,95,10,27,3,3,0.3,0.4
2024-10-05T1600,3458A,114.7895,36.5593,邯郸市,香泉濮院小区,颗粒物(PM10),52,54,118,10,53,143,,114,114,11,24,4,7,0.2,0.5
2024-10-05T1600,3579A,114.50634,36.77178,邯郸市,永年区实验高中,臭氧1小时,55,55,83,32,42,164,,117,117,6,29,5,7,0.4,0.6
2024-10-05T1600,3580A,114.20016,36.44293,邯郸市,峰峰矿区临水派出所,,45,40,47,21,30,143,,110,110,10,16,5,7,0.3,0.6
2024-10-05T1600,2634A,106.9893,33.1842,汉中市,汉川机床厂子校,,37,36,34,14,19,116,,82,82,7,9,6,6,0.6,0.6
2024-10-05T1600,2635A,107.0154,33.0706,汉中市,市监测站,,36,33,54,24,31,113,,81,81,6,23,9,12,0.5,0.6
2024-10-05T1600,2636A,107.0089,33.1138,汉中市,鑫源开发区,,40,40,58,20,24,118,,84,84,8,26,11,14,0.3,0.5
2024-10-05T1600,2637A,107.007,33.0323,汉中市,南郑大河坎水厂,,38,35,50,26,31,105,,74,74,11,21,9,9,0.5,0.6
2024-10-05T1600,1223A,120.2072,30.2111,杭州市,滨江,,26,26,29,13,11,59,,67,56,29,23,4,5,0.7,0.6
2024-10-05T1600,1224A,120.0633,30.2747,杭州市,西溪,,28,28,32,13,18,70,,63,55,22,23,5,6,0.8,0.7
2024-10-05T1600,1226A,120.3461,30.3153,杭州市,下沙,,35,24,30,24,18,63,,68,65,34,33,6,7,0.8,0.6
2024-10-05T1600,1227A,120.1269,30.2456,杭州市,卧龙桥,,27,27,26,17,16,67,,68,61,24,20,5,6,0.6,0.4
2024-10-05T1600,1228A,120.1903,30.2692,杭州市,浙江农大,,19,17,24,13,14,60,,68,51,23,22,8,9,0.6,0.5
2024-10-05T1600,1230A,120.1197,30.3119,杭州市,和睦小学,,28,22,27,19,18,75,,70,65,26,26,7,7,0.6,0.5
2024-10-05T1600,1231A,120.3019,30.4183,杭州市,临平镇,,36,36,35,18,11,75,,74,74,22,22,4,5,0.7,0.5
2024-10-05T1600,1232A,120.2697,30.1819,杭州市,城厢镇,,29,24,32,20,16,66,,69,64,23,22,6,6,0.7,0.5
2024-10-05T1600,1233A,120.0883,30.1808,杭州市,云栖,,19,,19,13,14,56,,61,54,19,19,6,6,0.7,0.6
2024-10-05T1600,3557A,119.9464,30.0494,杭州市,镇二中,,23,,31,16,22,52,,63,61,28,23,8,8,0.6,0.7
2024-10-05T1600,3558A,119.7183,30.2367,杭州市,市府大楼,,26,26,40,9,20,64,,84,76,19,19,6,6,0.6,0.6
2024-10-05T1600,3656A,120.1556,30.2864,杭州市,消防大队,,36,36,36,21,17,70,,74,63,25,21,8,9,0.5,0.3
2024-10-05T1600,1270A,117.1959,31.7848,合肥市,明珠广场,,42,36,30,19,14,134,,116,116,15,23,12,12,0.5,0.5
2024-10-05T1600,1271A,117.3072,31.8764,合肥市,三里街,,37,29,30,17,14,116,,103,103,10,18,5,5,0.5,0.5
2024-10-05T1600,1272A,117.2588,31.8707,合肥市,琥珀山庄,,40,31,30,17,17,126,,114,114,15,20,8,8,0.5,0.5
2024-10-05T1600,1273A,117.1604,31.9052,合肥市,董铺水库,,39,27,30,7,12,124,,106,106,10,16,5,5,0.4,0.4
2024-10-05T1600,1274A,117.25,31.8571,合肥市,长江中路,,44,44,36,21,20,120,,109,109,16,18,9,9,0.8,0.8
2024-10-05T1600,1275A,117.266,31.9436,合肥市,庐阳区,,41,36,35,9,15,131,,116,116,12,20,4,4,0.5,0.5
2024-10-05T1600,1276A,117.336,31.8586,合肥市,瑶海区,,37,34,32,11,14,116,,106,106,16,23,6,7,0.4,0.4
2024-10-05T1600,1277A,117.3027,31.7964,合肥市,包河区,,38,34,37,14,16,119,,109,109,15,41,6,6,0.6,0.6
2024-10-05T1600,1278A,117.2776,31.7385,合肥市,滨湖新区,,41,39,31,19,14,129,,112,112,11,18,6,6,0.4,0.4
2024-10-05T1600,1279A,117.1318,31.8403,合肥市,高新区,,41,29,28,15,14,129,,110,110,15,19,8,8,0.7,0.6
2024-10-05T1600,3464A,117.3803,31.9147,合肥市,高教基地,,38,30,30,15,16,119,,109,109,9,12,5,5,0.4,0.4
2024-10-05T1600,3614A,79.924,37.0877,和田地区,地区环保局,颗粒物(PM10),79,108,181,42,58,96,,74,74,5,17,6,7,0.3,0.5
2024-10-05T1600,3615A,79.9131,37.113,和田地区,市环保局,颗粒物(PM10),87,123,172,42,57,102,,68,68,4,26,6,8,0.2,0.5
2024-10-05T1600,2516A,108.2011,24.715,河池市,东仁乐园,颗粒物(PM10),53,56,48,29,26,140,,105,105,6,10,6,4,0.6,0.6
2024-10-05T1600,2517A,108.0497,24.6947,河池市,市环保站,,46,42,46,26,28,147,,112,112,8,16,13,17,0.6,0.6
2024-10-05T1600,2518A,108.0983,24.6989,河池市,市疾控中心,,49,42,49,26,30,154,,110,110,12,20,13,13,0.5,0.5
2024-10-05T1600,1696A,114.6778,23.7569,河源市,源西,,32,17,30,17,21,102,,101,101,8,14,6,8,0.5,0.5
2024-10-05T1600,1697A,114.6944,23.7586,河源市,东埔,,35,35,33,11,18,104,,104,104,9,14,4,6,0.7,0.7
2024-10-05T1600,1698A,114.6892,23.7233,河源市,老城,,35,32,32,17,19,111,,108,108,11,14,4,6,0.6,0.6
2024-10-05T1600,1718A,115.4208,35.2464,菏泽市,气象局,,45,39,45,17,20,144,,123,123,18,21,4,5,0.3,0.3
2024-10-05T1600,1719A,115.4747,35.2375,菏泽市,市政协,,45,40,45,22,24,143,,120,120,10,20,5,5,0.2,0.3
2024-10-05T1600,3374A,115.5564,35.0891,菏泽市,定陶老年大学,,42,41,44,9,21,133,,107,107,9,17,7,8,0.2,0.2
2024-10-05T1600,3647A,115.4702,35.2706,菏泽市,菏泽医专,,45,35,47,12,22,144,,120,120,12,24,9,9,0.6,0.7
2024-10-05T1600,2514A,111.5264,24.4172,贺州市,环保小区,,48,46,46,32,30,152,,135,135,10,16,8,8,0.5,0.5
2024-10-05T1600,2515A,111.5608,24.4078,贺州市,政协大楼,臭氧1小时,52,41,51,23,28,161,,138,138,10,18,7,7,0.7,0.6
2024-10-05T1600,3534A,111.4744,24.4553,贺州市,西湾,,44,42,50,28,32,138,,128,128,10,15,7,7,0.5,0.6
2024-10-05T1600,2385A,114.17,35.9019,鹤壁市,市监测站,,48,48,63,23,33,144,,114,114,21,37,5,5,0.6,0.7
2024-10-05T1600,2386A,114.2956,35.7511,鹤壁市,市交警支队,,48,48,68,24,35,132,,109,109,16,42,1,3,0.3,0.4
2024-10-05T1600,2387A,114.2878,35.7306,鹤壁市,迎宾馆,,48,48,71,19,38,133,,109,109,20,42,7,6,0.5,0.6
2024-10-05T1600,3474A,114.2617,35.6822,鹤壁市,大新区,,46,46,69,26,42,126,,105,105,14,44,5,3,0.2,0.3
2024-10-05T1600,3596A,114.1572,35.9603,鹤壁市,南山宾馆,,47,47,61,23,40,135,,102,102,12,19,3,2,0.4,0.4
2024-10-05T1600,2244A,130.2537,47.3416,鹤岗市,哈啤分公司,,50,50,40,22,21,112,,89,89,16,20,17,18,0.6,0.6
2024-10-05T1600,2245A,130.2684,47.3086,鹤岗市,斯达机电,,50,50,41,24,23,115,,101,101,18,20,18,16,0.5,0.4
2024-10-05T1600,2246A,130.3114,47.3388,鹤岗市,东山纸板厂,,50,49,70,35,26,108,,95,95,20,26,19,18,0.4,0.8
2024-10-05T1600,2247A,130.1097,47.3382,鹤岗市,五号水库,,42,34,21,16,9,132,,109,109,8,8,11,9,0.1,0.1
2024-10-05T1600,2263A,127.4833,50.2524,黑河市,交通局,,31,31,34,13,22,61,,64,64,11,13,7,7,0.3,0.4
2024-10-05T1600,2264A,127.5144,50.2341,黑河市,环保局,,23,19,27,16,18,66,,70,69,7,8,5,4,0.3,0.4
2024-10-05T1600,2265A,127.5291,50.2472,黑河市,大黑河岛,,,,,10,19,53,,57,53,22,17,10,5,0.1,0.2
2024-10-05T1600,1074A,115.6838,37.7541,衡水市,电机北厂,臭氧1小时,57,59,68,21,35,165,,134,134,7,20,7,9,0.3,0.4
2024-10-05T1600,1075A,115.6303,37.7316,衡水市,市监测站,臭氧1小时,62,52,69,25,31,169,,135,135,14,29,8,9,0.4,0.5
2024-10-05T1600,3188A,115.6683,37.7217,衡水市,市城管局,臭氧1小时,68,53,68,25,35,174,,138,138,10,29,7,8,0.3,0.4
2024-10-05T1600,3459A,115.5989,37.5491,衡水市,地表水厂,臭氧1小时,60,48,69,20,38,168,,134,134,10,36,4,5,0.3,0.4
2024-10-05T1600,2456A,112.5003,26.9167,衡阳市,原169医院,臭氧1小时,62,43,47,26,29,169,,137,137,18,20,16,14,0.6,0.7
2024-10-05T1600,2457A,112.6194,26.9258,衡阳市,衡阳化工总厂,臭氧1小时,54,51,54,22,39,163,,138,138,4,14,7,11,0.5,0.7
2024-10-05T1600,2458A,112.6211,26.8956,衡阳市,珠晖区环保局,,48,40,53,33,36,153,,133,133,15,25,10,13,0.6,0.7
2024-10-05T1600,2459A,112.6197,26.8733,衡阳市,市委党校,臭氧1小时,57,38,50,20,32,165,,140,140,8,16,12,15,0.6,0.7
2024-10-05T1600,2460A,112.6006,26.8919,衡阳市,市监测站,臭氧1小时,62,38,55,24,40,169,,145,145,8,17,10,13,0.6,0.8
2024-10-05T1600,2461A,112.5664,26.9056,衡阳市,真空机电公司,臭氧1小时,55,39,52,28,35,164,,142,142,10,16,7,8,0.6,0.7
2024-10-05T1600,3399A,112.6703,26.882,衡阳市,师范学院,臭氧1小时,57,34,54,17,32,165,,138,138,11,16,10,13,0.5,0.6
2024-10-05T1600,2608A,103.3772,23.3993,红河哈尼族彝族自治州,污水处理厂,,26,17,26,11,17,81,,80,80,7,6,6,5,0.4,0.4
2024-10-05T1600,2609A,103.3861,23.35,红河哈尼族彝族自治州,监测站,,,,31,8,20,74,,80,74,4,6,8,9,0.4,0.5
2024-10-05T1600,3038A,103.3758,23.368,红河哈尼族彝族自治州,州图书馆,,21,13,26,13,15,67,,74,69,4,6,6,8,0.3,0.4
2024-10-05T1600,1090A,111.6507,40.7517,呼和浩特市,呼市一监,颗粒物(PM10),53,56,67,19,32,110,,75,75,14,41,10,8,0.6,0.7
2024-10-05T1600,1091A,111.6572,40.8033,呼和浩特市,小召,颗粒物(PM10),53,56,62,26,35,92,,68,68,28,47,12,9,0.6,0.7
2024-10-05T1600,1094A,111.7516,40.8369,呼和浩特市,如意水处理厂,颗粒物(PM10),51,51,68,19,28,97,,70,70,22,46,11,9,0.5,0.5
2024-10-05T1600,1095A,111.7276,40.8062,呼和浩特市,二十九中,颗粒物(PM10),52,53,65,24,35,105,,74,74,22,46,9,7,0.6,0.7
2024-10-05T1600,1096A,111.5512,40.7866,呼和浩特市,工大金川校区,颗粒物(PM10),53,56,73,24,35,104,,68,68,20,53,8,6,0.7,0.7
2024-10-05T1600,1097A,111.717,40.7612,呼和浩特市,化肥厂生活区,颗粒物(PM10),51,51,78,20,36,106,,75,75,20,42,12,10,0.5,0.7
2024-10-05T1600,3698A,111.5968,40.8178,呼和浩特市,红旗小学,颗粒物(PM10),54,58,78,25,37,104,,69,69,24,55,12,7,0.6,0.7
2024-10-05T1600,3699A,111.6518,40.8389,呼和浩特市,海东办,颗粒物(PM10),54,58,66,28,35,103,,72,72,23,56,12,7,0.8,0.8
2024-10-05T1600,2192A,119.7594,49.2261,呼伦贝尔市,区环保局,,28,28,28,17,21,69,,66,66,8,9,5,5,0.1,0.1
2024-10-05T1600,3061A,119.7512,49.1577,呼伦贝尔市,国华电力东,,25,19,25,17,18,71,,69,69,4,5,3,3,0.3,0.3
2024-10-05T1600,1250A,120.0751,30.8669,湖州市,城西水厂,,43,43,25,30,15,92,,89,80,25,21,4,5,0.9,0.6
2024-10-05T1600,2873A,120.0875,30.8955,湖州市,仁皇山新区,细颗粒物(PM2.5),52,47,26,36,16,83,,85,85,29,16,7,7,0.9,0.5
2024-10-05T1600,2907A,120.1844,30.8596,湖州市,吴兴区站,细颗粒物(PM2.5),65,52,28,47,15,71,,80,77,34,16,5,6,0.9,0.5
2024-10-05T1600,3562A,120.4148,30.8538,湖州市,南浔区站,,25,6,20,6,12,80,,76,74,6,14,1,3,0.4,0.4
2024-10-05T1600,1607A,120.9092,40.7136,葫芦岛市,龙港区,臭氧1小时,102,74,49,50,35,203,,167,167,18,18,17,17,1.2,0.8
2024-10-05T1600,1608A,120.8392,40.7514,葫芦岛市,化工街,臭氧1小时,94,83,65,34,32,195,,154,154,24,27,22,18,1.0,0.6
2024-10-05T1600,1609A,120.8341,40.7073,葫芦岛市,新区,臭氧1小时,102,77,49,47,37,203,,167,167,22,27,14,13,1.2,0.8
2024-10-05T1600,1610A,120.8695,40.7677,葫芦岛市,东城区,臭氧1小时,97,66,51,41,38,197,,155,155,24,33,14,13,1.0,0.7
2024-10-05T1600,2482A,109.5981,27.5721,怀化市,林科所,,45,41,35,24,20,142,,117,117,14,15,12,15,0.6,0.7
2024-10-05T1600,2483A,109.9453,27.5444,怀化市,河西地税局,颗粒物(PM10),51,51,50,34,31,143,,117,117,10,13,13,14,0.5,0.5
2024-10-05T1600,2484A,109.9781,27.5342,怀化市,市四医院,"颗粒物(PM10),细颗粒物(PM2.5)",52,54,61,36,35,137,,110,110,6,10,11,19,0.6,0.6
2024-10-05T1600,2485A,109.9972,27.5578,怀化市,监测楼,颗粒物(PM10),53,55,59,32,31,146,,113,113,9,14,8,18,0.5,0.5
2024-10-05T1600,2486A,110.0394,27.583,怀化市,市委党校,细颗粒物(PM2.5),77,,64,56,36,144,,113,113,8,16,12,25,0.5,0.4
2024-10-05T1600,1210A,119.036,33.5981,淮安市,钵池山,,31,17,29,13,21,97,,90,90,6,18,4,4,0.5,0.6
2024-10-05T1600,1211A,119.007,33.575,淮安市,北京南路,,31,29,35,13,18,99,,95,95,12,21,6,6,0.3,0.4
2024-10-05T1600,1212A,118.989,33.6067,淮安市,市监测站,,34,17,23,9,19,106,,101,101,11,20,6,7,0.4,0.5
2024-10-05T1600,1213A,119.135,33.5039,淮安市,楚州区监测站,,32,27,31,11,19,100,,97,97,11,21,6,6,0.4,0.4
2024-10-05T1600,1214A,119.0186,33.6297,淮安市,淮阴区监测站,,32,22,36,14,23,100,,94,94,18,34,2,3,0.2,0.1
2024-10-05T1600,3426A,118.8755,33.2894,淮安市,新华书店,,34,17,32,8,15,106,,103,103,12,23,8,9,0.2,0.5
2024-10-05T1600,2282A,116.8004,33.975,淮北市,监测站,,36,21,31,9,15,115,,104,104,9,12,6,7,0.4,0.5
2024-10-05T1600,2283A,116.8091,33.9007,淮北市,烈山区政府,,40,23,29,10,13,126,,111,111,5,12,5,5,0.1,0.2
2024-10-05T1600,3330A,116.8873,33.9836,淮北市,杜集区检察院,,38,30,35,10,15,120,,110,110,7,11,2,7,0.2,0.4
2024-10-05T1600,4017A,116.7923,33.9535,淮北市,市博物馆,,38,27,29,9,13,121,,109,109,10,14,8,9,0.5,0.5
2024-10-05T1600,2277A,116.8305,32.7727,淮南市,潘集区政府,,41,32,54,17,34,131,,106,106,10,20,7,8,0.3,0.4
2024-10-05T1600,2278A,117.0067,32.6524,淮南市,师范学院,,38,23,33,14,17,120,,114,114,7,13,6,6,0.2,0.3
2024-10-05T1600,2279A,116.8569,32.5951,淮南市,谢家集区政府,,38,34,26,16,16,121,,111,111,10,15,6,9,0.2,0.3
2024-10-05T1600,2280A,116.8281,32.633,淮南市,八公山区政府,,40,34,39,15,14,125,,111,111,6,14,9,8,0.2,0.3
2024-10-05T1600,2281A,116.6325,32.6201,淮南市,焦岗湖风景区管理处,,42,33,22,11,10,132,,111,111,8,12,8,7,0.0,0
2024-10-05T1600,2894A,117.0566,32.6531,淮南市,经济技术开发区消防队,,38,24,32,7,9,119,,112,112,5,13,4,5,0.2,0.3
2024-10-05T1600,3329A,117.0108,32.5893,淮南市,山南新区,,39,29,35,8,14,123,,116,116,11,14,2,3,0.3,0.4
2024-10-05T1600,2446A,114.9028,30.4742,黄冈市,职工中心,臭氧1小时,64,48,44,27,25,171,,139,139,14,20,10,9,0.6,0.6
2024-10-05T1600,2929A,114.8858,30.4519,黄冈市,红卫路,臭氧1小时,62,40,36,20,22,169,,139,139,13,17,8,8,0.7,0.6
2024-10-05T1600,3398A,114.9136,30.4445,黄冈市,市林业局,臭氧1小时,60,53,51,22,24,168,,138,138,8,14,9,9,0.5,0.5
2024-10-05T1600,2672A,102.0199,35.5102,黄南藏族自治州,同仁县隆务镇,,42,42,50,19,26,93,,72,72,8,6,10,8,0.5,0.5
2024-10-05T1600,2295A,118.2903,29.6963,黄山市,延安路89号,,38,38,38,16,13,112,,107,107,6,10,6,6,0.3,0.3
2024-10-05T1600,2296A,118.327,29.7178,黄山市,黄山东路89号,,30,19,31,7,10,95,,95,95,4,9,5,5,0.3,0.3
2024-10-05T1600,2297A,118.1371,30.2756,黄山市,黄山区政府5号楼,,37,37,36,16,20,99,,88,88,7,9,7,7,0.4,0.4
2024-10-05T1600,2423A,115.0601,30.2313,黄石市,沈家营,,49,23,29,9,16,156,,139,139,8,15,7,13,0.5,0.6
2024-10-05T1600,2424A,115.0817,30.2006,黄石市,陈家湾,,48,29,30,9,20,153,,134,134,13,17,10,16,0.4,0.6
2024-10-05T1600,2426A,114.8988,30.2019,黄石市,铁山,臭氧1小时,78,29,33,20,19,182,,145,145,11,17,12,12,0.2,0.2
2024-10-05T1600,2427A,115.0307,30.2092,黄石市,团城山,臭氧1小时,55,34,36,14,16,164,,140,140,11,16,12,13,0.6,0.6
2024-10-05T1600,3149A,115.0235,30.1578,黄石市,笔架山北路,臭氧1小时,53,26,29,7,14,162,,143,143,13,14,10,11,0.5,0.5
2024-10-05T1600,1392A,114.4183,23.0528,惠州市,河南岸金山湖子站,,36,29,34,18,18,114,,110,110,8,12,7,9,0.5,0.5
2024-10-05T1600,1393A,114.4053,23.0822,惠州市,下埔横江三路子站,,40,27,32,13,18,125,,119,119,8,12,13,15,0.6,0.6
2024-10-05T1600,1394A,114.4103,23.1142,惠州市,江北云山西路子站,,38,23,31,20,19,120,,117,117,5,9,6,7,0.6,0.6
2024-10-05T1600,1395A,114.4645,22.7833,惠州市,惠阳区承修路船湖子站,,35,33,38,18,18,111,,101,101,13,15,8,9,0.6,0.5
2024-10-05T1600,1396A,114.5317,22.7422,惠州市,大亚湾管委会子站,,34,33,31,19,19,108,,99,99,16,14,9,9,0.4,0.4
2024-10-05T1600,3314A,114.4338,22.8134,惠州市,惠阳秋长,,36,27,26,20,19,113,,103,103,8,10,7,7,0.4,0.5
2024-10-05T1600,3452A,114.6517,22.775,惠州市,大亚湾霞涌,,41,41,28,17,18,105,,91,91,7,8,6,6,0.4,0.5
2024-10-05T1600,2240A,130.9762,45.3001,鸡西市,环保局,,32,32,64,10,26,93,,85,85,10,28,6,7,0.3,0.6
2024-10-05T1600,2243A,130.9429,45.3039,鸡西市,第一中学,,33,26,47,8,17,104,,93,93,12,24,6,6,0.1,0.2
2024-10-05T1600,3707A,131.0207,45.3073,鸡西市,欧美日汽修厂,,32,32,72,15,31,88,,80,80,30,30,7,8,0.2,0.4
2024-10-05T1600,3709A,130.9967,45.3106,鸡西市,市政设施管理处,,40,40,75,14,24,90,,84,84,24,35,6,7,0.3,0.4
2024-10-05T1600,2367A,114.9754,27.0803,吉安市,红声器材厂,臭氧1小时,55,43,41,23,20,164,,126,126,16,18,13,13,0.5,0.4
2024-10-05T1600,2368A,114.9658,27.0999,吉安市,市森林工业局,,48,40,39,24,20,153,,126,126,14,18,13,15,0.6,0.7
2024-10-05T1600,2369A,114.99,27.1312,吉安市,市环境监测站,,48,41,38,19,19,152,,126,126,17,17,18,19,0.4,0.4
2024-10-05T1600,2370A,115.0093,27.0968,吉安市,青原区法院,臭氧1小时,55,42,41,16,20,164,,129,129,15,21,18,23,0.6,0.5
2024-10-05T1600,1772A,126.54,43.8622,吉林市,哈达湾,,46,29,33,15,20,146,,134,134,12,24,8,8,0.6,0.7
2024-10-05T1600,1773A,126.5844,43.8358,吉林市,东局子,,46,32,29,17,14,147,,135,135,15,20,7,6,0.6,0.6
2024-10-05T1600,1774A,126.5052,43.8245,吉林市,电力学院,,46,30,44,18,27,145,,132,132,12,28,7,6,0.6,0.8
2024-10-05T1600,1775A,126.6133,43.8972,吉林市,江北,,44,31,33,14,12,139,,130,130,14,18,9,8,0.8,0.8
2024-10-05T1600,1776A,126.555,43.8306,吉林市,江南公园,,47,35,34,24,18,148,,134,134,11,21,8,7,0.6,0.6
2024-10-05T1600,1778A,126.7061,43.7133,吉林市,丰满,,45,24,16,20,15,142,,116,116,14,6,8,6,0.5,0.3
2024-10-05T1600,2868A,126.4739,43.953,吉林市,九站,,46,37,35,15,17,146,,137,137,14,18,8,8,0.7,0.7
2024-10-05T1600,1299A,116.9862,36.6114,济南市,科干所,臭氧1小时,64,36,48,15,24,171,,154,154,17,25,7,7,0.7,0.7
2024-10-05T1600,1300A,116.9376,36.665,济南市,农科所,臭氧1小时,63,42,67,17,30,170,,140,140,20,51,6,5,0.6,0.8
2024-10-05T1600,1301A,117.1265,36.6734,济南市,开发区,臭氧1小时,79,59,57,32,34,183,,154,154,25,33,6,6,0.5,0.5
2024-10-05T1600,1303A,117.0624,36.6868,济南市,省种子仓库,臭氧1小时,89,58,63,22,28,191,,153,153,15,41,4,4,0.3,0.4
2024-10-05T1600,1304A,116.9489,36.6447,济南市,机床二厂,臭氧1小时,73,39,73,12,33,178,,151,151,24,57,5,5,0.7,0.8
2024-10-05T1600,1305A,117.0495,36.663,济南市,市监测站,臭氧1小时,92,54,51,22,28,193,,154,154,22,40,6,5,0.5,0.6
2024-10-05T1600,1306A,116.7675,36.5484,济南市,长清党校,臭氧1小时,85,46,51,29,28,188,,160,160,17,33,8,7,0.6,0.6
2024-10-05T1600,1616A,117.6795,36.229,济南市,技术学院,,50,29,67,17,41,160,,154,154,12,32,12,11,0.7,0.8
2024-10-05T1600,1961A,117.532,36.6868,济南市,东山小学,臭氧1小时,93,46,63,27,33,194,,167,167,19,36,6,5,0.6,0.6
2024-10-05T1600,3059A,117.7161,36.2049,济南市,泰兴公司,,48,31,72,17,41,152,,147,147,16,56,12,11,0.6,0.6
2024-10-05T1600,3064A,117.6867,36.2171,济南市,莱芜战役纪念馆,,48,39,81,17,42,153,,152,152,19,44,9,9,0.7,0.8
2024-10-05T1600,3494A,117.1673,36.9782,济南市,济阳区政府,臭氧1小时,85,44,78,20,39,188,,146,146,14,43,3,4,0.3,0.4
2024-10-05T1600,3495A,117.1171,36.63,济南市,锦屏中学,臭氧1小时,78,54,35,22,22,182,,156,156,23,20,6,5,0.4,0.4
2024-10-05T1600,3682A,116.9814,36.6819,济南市,济南四建,臭氧1小时,72,41,61,24,36,177,,140,140,21,64,4,4,0.4,0.7
2024-10-05T1600,1653A,116.6251,35.4302,济宁市,火炬城,,45,31,47,9,30,142,,127,127,12,21,10,11,0.5,0.7
2024-10-05T1600,1655A,116.5491,35.4042,济宁市,电化厂,,43,39,65,14,32,135,,118,118,17,26,8,9,0.6,0.8
2024-10-05T1600,3500A,116.5814,35.3707,济宁市,北湖一中,,46,27,48,7,33,145,,126,126,11,28,7,8,0.3,0.5
2024-10-05T1600,3501A,116.8249,35.5593,济宁市,服务中心,,40,23,73,9,36,125,,115,115,8,43,7,8,0.4,0.7
2024-10-05T1600,3678A,116.5907,35.4054,济宁市,市第七中学,,45,32,54,9,36,141,,122,122,9,28,8,11,0.5,0.7
2024-10-05T1600,2255A,130.2751,46.8028,佳木斯市,佳纺,,43,40,30,19,16,135,,129,129,6,10,4,4,0.6,0.5
2024-10-05T1600,2256A,130.3995,46.8307,佳木斯市,发电厂,,47,47,37,22,19,132,,126,126,12,16,9,8,0.6,0.5
2024-10-05T1600,2257A,130.3258,46.7975,佳木斯市,环保局,,44,44,28,19,14,130,,124,124,10,8,10,9,0.6,0.4
2024-10-05T1600,2258A,130.3648,46.8032,佳木斯市,十一中,,49,49,31,21,14,130,,125,125,16,18,9,8,0.6,0.5
2024-10-05T1600,2259A,130.3794,46.7588,佳木斯市,四丰,,43,28,18,16,9,135,,127,127,10,8,1,1,0.3,0.2
2024-10-05T1600,1252A,120.7436,30.778,嘉兴市,清河小学,,27,12,23,7,10,86,,78,78,14,20,4,4,0.6,0.7
2024-10-05T1600,1253A,120.726,30.7478,嘉兴市,嘉兴学院,,27,16,25,7,13,85,,76,76,11,16,3,4,0.3,0.4
2024-10-05T1600,2872A,120.7846,30.7525,嘉兴市,南湖区残联,,30,16,23,3,13,93,,82,81,6,14,5,5,0.3,0.3
2024-10-05T1600,3407A,120.6916,30.7739,嘉兴市,秀洲住建,,27,7,23,3,11,84,,74,74,10,16,5,6,0.3,0.4
2024-10-05T1600,1945A,98.2908,39.7711,嘉峪关市,气象局,,46,46,60,17,20,111,,96,96,8,24,6,29,0.3,0.5
2024-10-05T1600,2884A,98.2672,39.7978,嘉峪关市,酒钢宾馆,颗粒物(PM10),62,73,66,19,24,98,,85,85,29,27,102,60,1.0,0.8
2024-10-05T1600,3248A,98.2643,39.7724,嘉峪关市,雄关区,,50,50,55,28,24,102,,90,90,15,28,13,20,0.5,0.4
2024-10-05T1600,1383A,113.1064,22.6058,江门市,北街,臭氧1小时,89,42,47,26,26,191,,140,140,14,26,6,8,0.8,0.8
2024-10-05T1600,1384A,113.0731,22.5835,江门市,西区,臭氧1小时,92,51,50,28,38,193,,141,141,15,26,7,9,0.4,0.5
2024-10-05T1600,1385A,113.0219,22.5311,江门市,圭峰西,臭氧1小时,93,42,40,24,25,194,,141,141,16,23,5,6,0.8,0.8
2024-10-05T1600,1386A,113.0828,22.5947,江门市,东湖,臭氧1小时,88,44,45,24,24,190,,138,138,14,25,6,7,0.5,0.6
2024-10-05T1600,3311A,113.1075,22.5647,江门市,江海富民,臭氧1小时,87,40,49,13,19,189,,142,142,14,25,7,9,0.3,0.4
2024-10-05T1600,3449A,113.05,22.4667,江门市,新会银湖,臭氧1小时,83,43,45,22,27,186,,141,141,12,24,5,7,0.5,0.6
2024-10-05T1600,1828A,113.227,35.2125,焦作市,市环保局,颗粒物(PM10),64,78,73,42,41,112,,91,91,29,28,16,11,0.4,0.3
2024-10-05T1600,1830A,113.1992,35.2590,焦作市,影视城,细颗粒物(PM2.5),65,62,51,47,37,128,,135,120,19,14,9,7,0.4,0.3
2024-10-05T1600,3169A,113.2725,35.2067,焦作市,太极体育中心,颗粒物(PM10),66,82,83,39,37,99,,83,83,36,35,11,11,0.3,0.4
2024-10-05T1600,3335A,113.3137,35.2641,焦作市,马村街道办,颗粒物(PM10),64,78,70,43,36,105,,100,100,30,24,14,6,0.4,0.3
2024-10-05T1600,3336A,113.2465,35.2373,焦作市,焦作技师学院,颗粒物(PM10),72,94,72,48,39,109,,96,96,29,24,15,6,0.7,0.5
2024-10-05T1600,3477A,113.1656,35.2539,焦作市,中站许衡医院,颗粒物(PM10),60,69,57,38,34,121,,121,106,19,16,8,6,0.5,0.5
2024-10-05T1600,3981A,113.2449,35.1803,焦作市,原李万街道办,颗粒物(PM10),75,100,77,52,46,99,,85,84,28,25,7,10,0.3,0.4
2024-10-05T1600,1708A,116.3701,23.5345,揭阳市,新兴,,42,36,23,14,13,132,,96,96,10,10,8,5,0.6,0.5
2024-10-05T1600,1709A,116.3264,23.5443,揭阳市,西马,,42,32,27,16,16,134,,106,106,6,8,7,6,0.6,0.6
2024-10-05T1600,1710A,116.3611,23.5626,揭阳市,东兴,,36,25,24,13,15,113,,98,98,6,11,4,4,0.6,0.7
2024-10-05T1600,1711A,116.4151,23.5294,揭阳市,渔湖,,43,40,23,14,12,136,,100,100,13,13,9,12,0.6,0.5
2024-10-05T1600,3320A,116.403,23.5699,揭阳市,曲溪,,37,22,19,9,11,116,,88,88,13,14,2,2,0.5,0.4
2024-10-05T1600,1944A,102.1692,38.5167,金昌市,天庆家园,,30,30,55,7,30,85,,65,65,11,30,10,23,0.6,0.8
2024-10-05T1600,3170A,102.1864,38.5253,金昌市,市委党校,,31,31,67,8,29,98,,81,81,6,31,7,13,0.4,0.8
2024-10-05T1600,4022A,102.1647,38.5371,金昌市,金川区人防中心,,36,36,62,7,24,98,,82,82,6,19,8,17,0.4,0.6
2024-10-05T1600,1262A,119.647,29.077,金华市,十五中,颗粒物(PM10),99,148,54,27,17,70,,80,66,25,21,2,2,0.5,0.4
2024-10-05T1600,1263A,119.686,29.1029,金华市,监测站,,37,37,33,24,17,65,,80,66,23,18,2,3,0.6,0.5
2024-10-05T1600,3659A,119.656,29.1131,金华市,气象局,,46,41,33,32,13,58,,77,60,28,26,3,4,0.3,0.3
2024-10-05T1600,1767A,121.1115,41.0879,锦州市,南山,细颗粒物(PM2.5),77,71,49,56,53,178,,141,141,27,29,16,13,1.2,0.8
2024-10-05T1600,1768A,121.0533,40.8434,锦州市,开发区,细颗粒物(PM2.5),80,103,87,59,49,174,,136,136,42,45,13,19,1.2,1
2024-10-05T1600,1769A,121.1836,41.1119,锦州市,百股街道,臭氧1小时,83,57,47,41,39,186,,146,146,18,25,15,13,1.3,0.9
2024-10-05T1600,1770A,121.1178,41.1222,锦州市,天安街道,臭氧1小时,79,75,57,54,51,183,,140,140,26,30,17,13,1.2,0.8
2024-10-05T1600,1771A,121.1303,41.1386,锦州市,北湖公园,臭氧1小时,94,66,55,52,48,195,,150,150,24,26,17,13,1.2,0.8
2024-10-05T1600,2160A,112.85,35.5051,晋城市,自来水公司,,44,38,61,14,34,139,,122,122,19,32,10,11,0.6,0.7
2024-10-05T1600,2161A,112.8318,35.4936,晋城市,白云商贸,,50,50,74,12,32,135,,114,114,22,39,6,7,0.6,0.7
2024-10-05T1600,2162A,112.8508,35.4887,晋城市,市环保局,,43,42,70,22,35,137,,120,120,22,38,7,8,0.7,0.7
2024-10-05T1600,2163A,112.8676,35.4897,晋城市,技术学院,颗粒物(PM10),54,57,70,14,32,139,,112,112,24,39,6,8,0.7,0.8
2024-10-05T1600,2165A,112.8453,35.546,晋城市,白马寺,,41,37,44,23,24,130,,,,18,18,9,10,0.6,0.7
2024-10-05T1600,3620A,112.8271,35.4828,晋城市,泽州一中,,41,38,63,17,33,130,,108,108,25,39,10,11,0.7,0.8
2024-10-05T1600,2171A,112.7532,37.6945,晋中市,锦纶小区,臭氧1小时,74,68,86,36,41,179,,124,124,18,37,11,10,0.6,0.6
2024-10-05T1600,2173A,112.7249,37.7067,晋中市,南都小区,颗粒物(PM10),58,65,87,34,43,164,,122,122,19,50,9,9,0.8,0.8
2024-10-05T1600,2174A,112.6991,37.6982,晋中市,榆次区政府,颗粒物(PM10),69,88,89,33,38,167,,124,124,24,39,11,10,0.5,0.5
2024-10-05T1600,2865A,112.7195,37.6828,晋中市,榆次三中,臭氧1小时,73,73,85,34,38,178,,129,129,18,34,13,13,0.6,0.6
2024-10-05T1600,2439A,112.2014,31.0481,荆门市,竹园小学,细颗粒物(PM2.5),68,73,66,49,34,135,,122,122,21,29,18,13,0.5,0.5
2024-10-05T1600,2440A,112.1969,30.9891,荆门市,掇刀,颗粒物(PM10),59,68,56,39,33,140,,130,130,24,24,16,11,0.5,0.6
2024-10-05T1600,2441A,112.2213,31.0386,荆门市,石化一小,细颗粒物(PM2.5),72,76,68,52,36,134,,125,125,21,28,23,17,0.5,0.4
2024-10-05T1600,3012A,112.1849,31.0362,荆门市,西山林语,颗粒物(PM10),60,70,55,40,29,139,,133,133,21,23,16,11,0.6,0.5
2024-10-05T1600,3547A,112.1632,31.0138,荆门市,龙泉中学南校,颗粒物(PM10),59,68,54,40,32,139,,137,137,23,22,14,10,0.5,0.5
2024-10-05T1600,1844A,112.2494,30.3197,荆州市,市图书馆,细颗粒物(PM2.5),55,55,65,39,49,160,,128,128,22,29,13,14,0.7,0.6
2024-10-05T1600,1845A,112.2008,30.3544,荆州市,市委党校,细颗粒物(PM2.5),59,48,47,42,46,156,,130,130,17,27,10,10,0.6,0.6
2024-10-05T1600,3194A,112.2747,30.3122,荆州市,管委会,臭氧1小时,54,46,60,37,51,163,,131,131,17,30,11,12,0.7,0.7
2024-10-05T1600,3548A,112.1655,30.3364,荆州市,学苑路,颗粒物(PM10),60,70,68,39,43,160,,138,138,17,24,7,8,0.6,0.6
2024-10-05T1600,2343A,117.2117,29.2933,景德镇市,老干部活动中心,,27,10,24,8,16,84,,83,83,4,10,7,9,0.2,0.3
2024-10-05T1600,2344A,117.1894,29.2789,景德镇市,兽医站,,29,17,24,11,12,90,,90,90,2,5,6,7,0.2,0.2
2024-10-05T1600,2345A,117.1547,29.2617,景德镇市,台达陶瓷,,28,23,29,10,15,87,,88,88,9,16,6,12,0.3,0.5
2024-10-05T1600,2346A,117.2461,29.2956,景德镇市,陶研所,,29,16,24,8,9,90,,88,88,8,13,7,6,0.3,0.3
2024-10-05T1600,1803A,115.9872,29.6815,九江市,十里,,45,24,39,19,21,142,,130,130,9,17,9,11,0.5,0.6
2024-10-05T1600,1804A,115.9584,29.7046,九江市,茅山头,,41,18,32,9,20,131,,118,118,11,16,4,9,0.6,0.6
2024-10-05T1600,1805A,115.9877,29.7295,九江市,西园,,47,24,33,11,21,150,,134,134,13,16,9,10,0.4,0.5
2024-10-05T1600,1806A,116.0172,29.6547,九江市,五七二七厂,,42,28,35,18,24,134,,123,123,10,13,9,11,0.5,0.6
2024-10-05T1600,1808A,115.9114,29.6038,九江市,综合工业园,,40,17,36,12,24,126,,128,128,16,18,7,13,0.3,0.4
2024-10-05T1600,1809A,116.0721,29.7535,九江市,石化总厂,,44,29,40,18,25,139,,124,124,13,15,9,9,0.6,0.6
2024-10-05T1600,1810A,115.9773,29.5698,九江市,庐山气象台,,43,30,27,20,17,135,,120,120,5,4,6,6,0.8,0.6
2024-10-05T1600,3190A,116.0254,29.6994,九江市,外国语学校,,40,27,40,12,24,128,,117,117,12,18,9,10,0.3,0.3
2024-10-05T1600,2658A,98.5061,39.7443,酒泉市,仓门街子站,,48,48,49,21,20,107,,90,90,5,13,3,7,0.4,0.4
2024-10-05T1600,2659A,98.4989,39.7256,酒泉市,油田生活基地,颗粒物(PM10),57,63,56,24,24,109,,90,90,8,16,3,9,0.3,0.4
2024-10-05T1600,2698A,76.0072,39.4467,喀什地区,巡警大队,颗粒物(PM10),70,89,124,3,26,107,,81,81,6,38,4,5,0.3,0.7
2024-10-05T1600,2699A,75.9755,39.4694,喀什地区,吾办,,,72,114,26,41,105,,68,68,11,43,4,4,,0.8
2024-10-05T1600,4027A,75.9483,39.4689,喀什地区,老干局,颗粒物(PM10),66,81,128,11,20,100,,71,71,9,35,5,5,0.4,0.6
2024-10-05T1600,1824A,114.3389,34.7781,开封市,肿瘤医院,,40,40,76,24,46,127,,106,106,8,26,3,3,0.4,0.5
2024-10-05T1600,1826A,114.2885,34.7965,开封市,世纪星幼儿园,,40,35,63,19,34,126,,105,105,13,28,1,2,0.3,0.4
2024-10-05T1600,3147A,114.3438,34.8106,开封市,龙亭公园,,42,42,74,27,47,122,,109,109,14,29,2,7,0.3,0.6
2024-10-05T1600,3210A,114.3644,34.7964,开封市,汴京公园,,50,50,75,27,41,120,,98,98,11,28,3,5,0.3,0.4
2024-10-05T1600,3473A,114.2485,34.8306,开封市,技师学院,,45,45,57,19,30,118,,106,106,14,20,3,5,0.4,0.4
2024-10-05T1600,3592A,114.4644,34.7556,开封市,祥符区生态环境局,颗粒物(PM10),53,55,82,29,38,127,,102,102,16,46,8,8,0.4,0.5
2024-10-05T1600,1951A,84.895,45.6094,克拉玛依市,长征新村,,30,27,33,10,8,95,,73,72,3,11,6,6,0.2,0.2
2024-10-05T1600,1952A,84.8988,45.5893,克拉玛依市,南林小区,,30,25,29,6,14,94,,62,62,5,17,2,2,0.1,0.1
2024-10-05T1600,1954A,84.905,44.3396,克拉玛依市,独山子区,,34,28,22,9,9,106,,80,80,10,14,9,10,0.4,0.4
2024-10-05T1600,1955A,85.6979,46.098,克拉玛依市,乌尔禾区商贸楼,,30,17,32,6,11,95,,64,64,4,22,1,2,0.2,0.3
2024-10-05T1600,3612A,85.1045,45.6899,克拉玛依市,白碱滩区新站,,30,22,29,3,7,96,,81,81,8,9,8,8,0.1,0.1
2024-10-05T1600,2697A,76.1454,39.7142,克孜勒苏柯尔克孜自治州,市人民政府,细颗粒物(PM2.5),79,70,69,58,30,122,,87,87,2,14,3,9,0.7,0.8
2024-10-05T1600,3665A,76.1658,39.7157,克孜勒苏柯尔克孜自治州,克州文化中心,颗粒物(PM10),56,62,61,21,22,116,,95,95,2,13,5,11,0.2,0.3
2024-10-05T1600,1450A,102.8204,24.8886,昆明市,呈贡新区,,24,24,24,11,11,58,,46,46,8,11,8,5,0.6,0.6
2024-10-05T1600,1452A,102.7252,25.0902,昆明市,龙泉镇,,16,12,16,11,8,48,,41,41,10,13,7,7,0.6,0.7
2024-10-05T1600,1453A,102.7266,25.0375,昆明市,东风东路,,17,17,14,10,9,46,,41,41,9,10,6,6,0.4,0.5
2024-10-05T1600,1454A,102.6742,25.0669,昆明市,金鼎山,,15,15,15,7,5,48,,42,42,11,15,3,4,0.5,0.6
2024-10-05T1600,1455A,102.6644,25.0401,昆明市,碧鸡广场,,18,18,18,3,9,44,,39,39,12,17,6,8,0.4,0.5
2024-10-05T1600,3179A,102.7494,25.0119,昆明市,官渡区博物馆,,18,18,16,9,8,53,,48,48,8,10,6,7,0.5,0.5
2024-10-05T1600,3375A,102.8017,24.8336,昆明市,青年创业园,,18,15,14,9,10,57,,45,45,6,11,5,4,0.6,0.5
2024-10-05T1600,3550A,102.7997,24.9786,昆明市,昆明学院,,18,15,12,9,8,57,,49,49,10,9,6,6,0.5,0.5
2024-10-05T1600,3551A,102.5967,24.6736,昆明市,晋宁区生态环境分局,,18,,17,12,12,56,,51,51,6,8,2,1,0.6,0.8
2024-10-05T1600,3552A,102.6678,24.9856,昆明市,云天化总部,,17,15,13,10,9,54,,46,46,6,9,5,6,0.4,0.4
2024-10-05T1600,1456A,91.1319,29.6514,拉萨市,八廓街,,35,13,12,7,6,109,,86,86,6,11,8,9,0.2,0.3
2024-10-05T1600,1457A,91.1221,29.6747,拉萨市,市环保局,,34,8,11,3,6,108,,86,86,8,10,6,7,0.3,0.2
2024-10-05T1600,1458A,91.0874,29.6475,拉萨市,区监测站,,32,7,11,7,6,102,,78,78,6,11,6,6,0.3,0.3
2024-10-05T1600,1459A,91.1774,29.6541,拉萨市,西藏大学,,34,7,9,3,6,106,,86,86,5,7,6,9,0.2,0.2
2024-10-05T1600,1460A,90.9798,29.6588,拉萨市,区辐射站,,31,6,11,3,6,97,,73,73,6,11,9,8,0.2,0.2
2024-10-05T1600,1461A,91.0834,29.6292,拉萨市,拉萨火车站,,31,7,9,3,6,98,,74,74,5,8,6,6,0.2,0.3
2024-10-05T1600,2520A,109.2203,23.7256,来宾市,来宾技工学校,臭氧1小时,58,55,62,28,32,166,,134,134,10,18,10,14,0.7,0.9
2024-10-05T1600,3535A,109.1781,23.7297,来宾市,兴宾区政府,臭氧1小时,59,51,57,36,33,167,,138,138,9,12,11,11,0.6,0.7
2024-10-05T1600,4002A,109.2416,23.7461,来宾市,中南小学,,,58,70,40,34,168,,136,136,,27,12,14,0.8,1
2024-10-05T1600,1476A,103.631,36.1031,兰州市,兰炼宾馆,颗粒物(PM10),51,52,52,32,32,65,,38,38,40,38,18,10,0.9,0.6
2024-10-05T1600,1478A,103.8412,36.0726,兰州市,生物制品所,,42,42,41,27,28,59,,33,33,32,31,24,18,0.5,0.7
2024-10-05T1600,1479A,103.831,36.0464,兰州市,铁路设计院,颗粒物(PM10),51,51,49,33,32,39,,27,27,53,44,19,12,0.7,0.8
2024-10-05T1600,3186A,103.7158,36.1058,兰州市,教育港,颗粒物(PM10),57,64,49,36,31,56,,37,37,28,32,22,14,0.6,0.7
2024-10-05T1600,3241A,103.7439,36.0842,兰州市,百合公园,,45,45,44,25,24,49,,30,30,27,34,18,12,0.6,0.8
2024-10-05T1600,3242A,103.9611,35.998,兰州市,和平,,,38,42,20,21,83,,51,51,15,26,18,11,,0.6
2024-10-05T1600,3245A,103.6633,36.533,兰州新区,新区管委会,颗粒物(PM10),54,57,49,27,25,45,,39,39,20,24,24,16,0.7,0.6
2024-10-05T1600,3246A,103.6975,36.4789,兰州新区,舟曲中学,颗粒物(PM10),60,70,47,38,22,48,,41,38,20,25,24,27,0.7,0.5
2024-10-05T1600,1067A,116.6708,39.5111,廊坊市,药材公司,臭氧1小时,68,71,113,44,72,174,,122,122,17,36,7,9,0.4,0.5
2024-10-05T1600,1068A,116.7214,39.5589,廊坊市,开发区,臭氧1小时,70,81,95,47,58,176,,118,118,17,36,4,4,0.4,0.5
2024-10-05T1600,1070A,116.7244,39.5269,廊坊市,北华航天学院,臭氧1小时,77,77,104,24,56,181,,128,128,15,37,5,6,0.4,0.5
2024-10-05T1600,2919A,116.7022,39.5453,廊坊市,河北工业大学,"颗粒物(PM10),臭氧1小时",73,96,96,50,65,178,,122,122,17,36,6,8,0.4,0.5
2024-10-05T1600,2535A,103.7723,29.5462,乐山市,花湖湾,,31,31,35,18,22,46,,46,46,24,19,3,2,0.7,0.7
2024-10-05T1600,2536A,103.7627,29.5844,乐山市,牛耳桥,,38,38,36,26,25,54,,53,53,23,24,4,7,0.4,0.4
2024-10-05T1600,2537A,103.7508,29.6006,乐山市,市第三水厂,,43,43,36,27,23,63,,63,63,14,19,4,7,0.6,0.6
2024-10-05T1600,2538A,103.7571,29.5664,乐山市,市监测站,,37,37,37,22,21,54,,53,53,20,21,5,7,0.5,0.5
2024-10-05T1600,3361A,103.7311,29.5628,乐山市,理工大学,,36,34,34,25,26,62,,54,54,17,20,4,5,0.4,0.5
2024-10-05T1600,2599A,100.2497,26.8802,丽江市,丽江古城,,19,19,18,8,11,41,,35,35,10,11,9,9,0.6,0.6
2024-10-05T1600,2600A,100.2203,26.8906,丽江市,市中心,,15,,16,6,13,45,,35,35,7,8,6,7,0.5,0.8
2024-10-05T1600,1267A,119.914,28.4514,丽水市,监测站大楼,,30,30,32,20,26,75,,69,69,21,20,6,6,0.5,0.4
2024-10-05T1600,1268A,119.93,28.4586,丽水市,莲都小学,,35,35,38,24,23,86,,76,76,16,18,4,4,0.5,0.4
2024-10-05T1600,1269A,119.879,28.4231,丽水市,余庄前,,28,28,34,17,22,71,,69,69,12,12,4,4,0.4,0.3
2024-10-05T1600,1173A,119.176,34.5885,连云港市,市环境监测站,,37,9,22,3,11,118,,108,108,6,16,6,7,0.2,0.3
2024-10-05T1600,3000A,119.3581,34.6972,连云港市,德源药业,,37,7,20,3,11,117,,99,99,5,21,6,6,0.1,0.2
2024-10-05T1600,3007A,119.178,34.844,连云港市,新城一中,,37,28,39,3,15,118,,108,108,13,30,4,8,0.3,0.6
2024-10-05T1600,3008A,119.3608,34.7519,连云港市,胡沟管理处,,34,9,14,3,6,106,,93,93,12,14,3,2,0.2,0.3
2024-10-05T1600,3009A,119.1478,34.5911,连云港市,矿山设计院,,37,9,27,3,16,117,,104,104,6,18,5,6,0.4,0.6
2024-10-05T1600,3434A,119.2413,34.6539,连云港市,工贸学校,,38,6,12,3,7,119,,104,104,6,12,6,7,0.3,0.4
2024-10-05T1600,3664A,119.4172,34.7341,连云港市,连云街道,,36,7,9,3,4,115,,102,102,9,11,4,5,0.2,0.2
2024-10-05T1600,2571A,102.3431,27.8099,凉山彝族自治州,青龙寺,,21,16,19,6,7,67,,46,46,3,9,6,6,0.6,0.8
2024-10-05T1600,2572A,102.2721,27.8415,凉山彝族自治州,邛海宾馆,,23,23,25,14,15,55,,38,38,6,21,8,10,0.6,0.8
2024-10-05T1600,2573A,102.2625,27.898,凉山彝族自治州,西昌市政府,,24,24,26,12,16,57,,34,34,5,20,9,9,0.6,0.8
2024-10-05T1600,2574A,102.2685,27.8851,凉山彝族自治州,凉山州政府,,27,27,24,15,15,63,,39,39,5,19,6,8,0.5,0.8
2024-10-05T1600,2575A,102.237,27.8914,凉山彝族自治州,长安,,22,22,23,11,11,57,,31,31,6,21,10,11,0.7,0.9
2024-10-05T1600,2212A,123.2,41.1953,辽阳市,宏伟区,臭氧1小时,60,54,31,21,16,168,,152,152,21,14,10,7,0.7,0.6
2024-10-05T1600,2213A,123.1683,41.2495,辽阳市,新华园,颗粒物(PM10),52,54,33,30,20,154,,142,142,21,17,19,14,1.1,0.9
2024-10-05T1600,2214A,123.2354,41.2639,辽阳市,滨河路,细颗粒物(PM2.5),52,47,31,36,18,157,,137,137,16,14,15,12,0.9,0.8
2024-10-05T1600,2215A,123.149,41.2991,辽阳市,铁西工业园,,49,43,39,23,17,154,,136,136,14,17,18,15,0.8,0.8
2024-10-05T1600,2227A,125.1358,42.8845,辽源市,环保局,臭氧1小时,62,28,34,16,20,169,,150,150,9,21,10,9,0.7,0.8
2024-10-05T1600,3239A,125.0764,42.9078,辽源市,银鹰制药,臭氧1小时,58,30,43,16,21,166,,144,144,13,27,8,7,0.8,0.8
2024-10-05T1600,1625A,115.9848,36.4372,聊城市,区政府,臭氧1小时,58,45,69,20,32,166,,138,138,15,25,8,11,0.4,0.5
2024-10-05T1600,2878A,116.0072,36.4343,聊城市,聊大东校,臭氧1小时,64,48,75,28,41,171,,142,142,16,29,8,10,0.6,0.7
2024-10-05T1600,3200A,115.9819,36.4978,聊城市,监控中心,臭氧1小时,55,46,64,22,35,164,,140,140,17,24,8,10,0.6,0.6
2024-10-05T1600,3513A,116.0445,36.4361,聊城市,九州社区,臭氧1小时,60,47,65,20,32,168,,138,138,8,25,3,7,0.4,0.4
2024-10-05T1600,4018A,116.0567,36.4608,聊城市,星美广场,臭氧1小时,64,43,70,19,32,171,,142,142,8,18,10,7,0.5,0.5
2024-10-05T1600,2632A,94.3681,29.6376,林芝市,林芝监测站,,15,6,4,3,4,46,,27,27,2,3,10,10,0.2,0.2
2024-10-05T1600,2633A,94.3616,29.6616,林芝市,林芝人民医院,,15,6,5,3,3,48,,30,30,5,6,5,5,0.3,0.3
2024-10-05T1600,2603A,100.0781,23.8982,临沧市,市环保局,,20,15,13,14,12,29,,27,27,7,8,4,4,0.4,0.5
2024-10-05T1600,2604A,100.0894,23.8822,临沧市,市气象局,,12,10,12,8,11,36,,26,26,7,9,3,3,0.5,0.6
2024-10-05T1600,1733A,111.5531,36.0783,临汾市,临钢医院,颗粒物(PM10),74,98,96,46,44,153,,120,120,25,46,6,6,0.6,0.7
2024-10-05T1600,1734A,111.5028,36.0714,临汾市,技工学校,颗粒物(PM10),68,86,92,45,51,168,,138,138,28,43,7,7,0.6,0.7
2024-10-05T1600,1736A,111.5018,36.0855,临汾市,市委,臭氧1小时,70,73,92,49,42,176,,149,149,20,34,8,7,0.6,0.7
2024-10-05T1600,3018A,111.505,36.1014,临汾市,唐尧大酒店,细颗粒物(PM2.5),72,76,86,52,43,165,,136,136,19,35,7,6,0.6,0.7
2024-10-05T1600,3668A,111.5036,36.0414,临汾市,城南,颗粒物(PM10),74,98,94,52,51,167,,142,142,26,39,9,7,0.6,0.7
2024-10-05T1600,2667A,103.2069,35.5993,临夏回族自治州,环保局,,40,40,58,20,28,84,,44,44,8,27,15,12,0.4,0.7
2024-10-05T1600,2668A,103.2417,35.6057,临夏回族自治州,建设大厦,,42,38,53,29,30,83,,45,45,9,23,6,3,0.4,0.6
2024-10-05T1600,1618A,118.3429,35.0532,临沂市,沂河小区,,39,22,55,13,31,123,,116,116,10,19,6,13,0.2,0.4
2024-10-05T1600,1619A,118.295,35.0583,临沂市,鲁南制药厂,,41,12,50,8,26,130,,122,122,4,22,5,10,0.2,0.5
2024-10-05T1600,1620A,118.2794,34.9976,临沂市,新光毛纺厂,,38,14,57,9,38,121,,115,115,13,34,4,10,0.4,0.7
2024-10-05T1600,1621A,118.3956,35.0888,临沂市,河东保险公司,,41,22,63,7,42,130,,120,120,19,40,7,9,0.7,0.8
2024-10-05T1600,3370A,118.3564,35.0215,临沂市,十里堡居委,,39,7,44,7,32,123,,116,116,10,26,4,15,0.4,0.7
2024-10-05T1600,3496A,118.3604,35.1084,临沂市,南坊新区,,42,22,56,7,38,133,,120,120,10,23,8,10,0.5,0.7
2024-10-05T1600,1870A,109.4856,24.3895,柳州市,柳东小学,,45,37,52,27,32,144,,124,124,5,9,9,12,0.6,0.6
2024-10-05T1600,1871A,109.4157,24.3277,柳州市,环保监测站,,49,49,70,28,39,147,,122,122,7,20,10,11,0.6,0.8
2024-10-05T1600,1872A,109.389,24.341,柳州市,河西水厂,,49,49,82,24,43,146,,120,120,10,23,11,16,0.7,0.8
2024-10-05T1600,1873A,109.4311,24.2921,柳州市,市四中,颗粒物(PM10),53,56,59,33,35,159,,134,134,7,18,9,12,0.8,0.9
2024-10-05T1600,1874A,109.4006,24.3631,柳州市,市九中,,47,45,77,25,41,150,,124,124,6,22,6,10,0.9,1
2024-10-05T1600,1875A,109.4958,24.3134,柳州市,古亭山,颗粒物(PM10),51,51,45,32,27,150,,135,135,8,29,10,11,0.7,0.7
2024-10-05T1600,3402A,109.5422,24.3996,柳州市,市二中,,47,39,46,23,31,148,,128,128,8,16,10,11,0.6,0.6
2024-10-05T1600,2307A,116.5079,31.737,六安市,监测大楼,,46,36,38,17,23,145,,112,112,11,18,6,6,0.4,0.4
2024-10-05T1600,2308A,116.4738,31.7643,六安市,皖西学院,颗粒物(PM10),51,51,51,15,26,145,,108,108,11,22,6,6,0.5,0.5
2024-10-05T1600,2309A,116.4996,31.7905,六安市,朝阳厂,,46,34,36,20,23,147,,110,110,11,21,1,2,0.4,0.4
2024-10-05T1600,2310A,116.5567,31.7886,六安市,开发区,,47,46,50,15,27,149,,112,112,11,21,2,2,0.4,0.5
2024-10-05T1600,2578A,104.89,26.5939,六盘水市,水钢,颗粒物(PM10),51,52,37,11,16,91,,91,87,7,7,6,6,0.2,0.2
2024-10-05T1600,2579A,104.8475,26.5894,六盘水市,民中,,35,33,30,24,18,84,,88,80,11,11,7,7,0.4,0.5
2024-10-05T1600,2580A,104.9544,26.5506,六盘水市,双水,,44,44,35,28,19,87,,87,87,5,5,6,6,0.4,0.4
2024-10-05T1600,2336A,117.0217,25.1033,龙岩市,龙岩市监测站,,25,,13,17,14,70,,67,67,7,9,8,8,0.4,0.4
2024-10-05T1600,2337A,117.0258,25.0661,龙岩市,闽西职业技术学院,,22,17,13,10,11,69,,70,70,3,5,5,6,0.5,0.5
2024-10-05T1600,2338A,117.0196,25.0306,龙岩市,龙岩学院,,22,19,13,11,10,69,,71,71,6,7,6,6,0.4,0.4
2024-10-05T1600,2885A,104.9339,33.3826,陇南市,滨江中学,,39,39,35,11,16,67,,62,62,8,8,8,9,0.5,0.4
2024-10-05T1600,3247A,104.955,33.371,陇南市,市总工会,,38,38,31,9,5,68,,67,67,9,8,3,4,0.3,0.3
2024-10-05T1600,2487A,111.9589,27.8901,娄底市,电视发射台,,46,42,46,22,24,146,,125,125,7,7,8,7,1.0,0.9
2024-10-05T1600,2488A,111.9975,27.725,娄底市,市监测站,,50,48,64,24,41,157,,132,132,9,23,8,19,0.5,0.9
2024-10-05T1600,2489A,112.0194,27.7314,娄底市,市委党校,,49,49,67,30,42,146,,122,122,8,21,7,12,0.5,0.7
2024-10-05T1600,2490A,111.9561,27.7569,娄底市,涟钢,,39,31,58,20,39,123,,104,104,16,17,16,10,1.0,0.9
2024-10-05T1600,2491A,111.9892,27.7044,娄底市,市政府,,47,37,56,22,39,150,,127,127,7,15,7,8,0.4,0.6
2024-10-05T1600,1893A,105.4324,28.9634,泸州市,九狮山,,41,41,48,24,25,71,,58,58,18,19,4,4,0.8,0.8
2024-10-05T1600,1894A,105.4427,28.9063,泸州市,小市上码头,颗粒物(PM10),54,57,48,28,25,83,,63,63,15,19,4,4,0.5,0.5
2024-10-05T1600,1895A,105.4241,28.8573,泸州市,兰田宪桥,颗粒物(PM10),52,53,40,30,27,82,,64,64,17,16,4,4,0.4,0.5
2024-10-05T1600,1896A,105.4379,28.8833,泸州市,市环监站,细颗粒物(PM2.5),52,50,46,36,33,73,,54,54,16,20,4,3,0.5,0.6
2024-10-05T1600,3490A,105.3617,28.7703,泸州市,纳溪区环保局,,45,45,41,31,29,82,,64,64,16,17,6,6,0.4,0.4
2024-10-05T1600,2183A,111.1406,37.5211,吕梁市,环保局,颗粒物(PM10),52,54,90,30,30,129,,101,101,13,36,6,6,0.5,0.6
2024-10-05T1600,2185A,111.1297,37.5136,吕梁市,自来水公司,颗粒物(PM10),52,53,77,24,28,128,,96,96,14,31,4,5,0.5,0.6
2024-10-05T1600,2867A,111.1283,37.51,吕梁市,马茂庄小学,颗粒物(PM10),59,67,88,27,29,136,,103,103,14,42,4,6,0.4,0.5
2024-10-05T1600,1812A,112.3931,34.6516,洛阳市,市委党校,细颗粒物(PM2.5),80,85,92,59,61,105,,86,86,37,43,14,14,0.6,0.6
2024-10-05T1600,1814A,112.4657,34.6871,洛阳市,豫西宾馆,颗粒物(PM10),70,89,92,49,49,102,,72,72,24,35,14,15,0.7,0.7
2024-10-05T1600,1815A,112.494,34.6886,洛阳市,河南林校,细颗粒物(PM2.5),88,79,79,65,53,112,,92,92,26,33,10,10,0.5,0.6
2024-10-05T1600,1816A,112.3844,34.623,洛阳市,开发区管委会,细颗粒物(PM2.5),80,96,93,59,62,121,,91,91,28,36,12,10,0.5,0.5
2024-10-05T1600,1817A,112.4267,34.6258,洛阳市,市委新办公区,细颗粒物(PM2.5),82,95,94,60,60,107,,84,84,29,35,8,7,0.4,0.4
2024-10-05T1600,3340A,112.6005,34.6326,洛阳市,伊滨,细颗粒物(PM2.5),65,73,86,47,58,104,,76,76,30,38,15,12,0.4,0.5
2024-10-05T1600,3341A,112.4951,34.6332,洛阳市,中移产业园,细颗粒物(PM2.5),72,72,81,52,57,121,,90,90,31,39,9,8,0.5,0.5
2024-10-05T1600,3593A,112.5736,34.8993,洛阳市,吉利监测站,颗粒物(PM10),61,71,78,39,42,106,,86,86,32,53,11,12,0.3,0.4
2024-10-05T1600,3635A,112.3677,34.662,洛阳市,河科大西苑校区,细颗粒物(PM2.5),77,87,94,56,61,114,,87,87,37,49,14,12,0.6,0.7
2024-10-05T1600,3636A,112.4388,34.6781,洛阳市,英才小学,颗粒物(PM10),73,95,98,42,47,111,,80,80,34,44,7,8,0.5,0.5
2024-10-05T1600,2399A,114.051,33.5699,漯河市,三五一五工厂,颗粒物(PM10),51,51,92,20,47,133,,98,98,11,26,8,10,0.4,0.5
2024-10-05T1600,2400A,114.0055,33.5698,漯河市,漯河大学,颗粒物(PM10),52,54,84,22,37,135,,100,100,10,20,7,8,0.5,0.6
2024-10-05T1600,2401A,114.0138,33.5828,漯河市,市水利局,,41,41,85,17,40,131,,96,96,8,21,7,9,0.7,0.7
2024-10-05T1600,2402A,114.0261,33.5698,漯河市,市广电局,颗粒物(PM10),52,54,82,22,44,133,,100,100,10,21,10,11,0.6,0.5
2024-10-05T1600,3478A,113.9749,33.5664,漯河市,市图书馆,,46,46,76,19,35,137,,105,105,11,20,8,6,0.4,0.4
2024-10-05T1600,3479A,114.0967,33.5906,漯河市,召陵区卫健委,,46,46,105,16,55,132,,95,95,9,36,8,14,0.5,0.7
2024-10-05T1600,1798A,118.5092,31.6837,马鞍山市,湖东路四小,,34,22,29,15,14,107,,98,98,12,15,6,7,0.6,0.6
2024-10-05T1600,1799A,118.5024,31.6449,马鞍山市,开发区,,33,22,28,15,16,104,,95,95,15,21,6,7,0.5,0.7
2024-10-05T1600,1800A,118.5228,31.7231,马鞍山市,慈湖,,33,33,21,18,16,102,,98,98,12,12,7,8,0.6,0.5
2024-10-05T1600,1802A,118.6245,31.7241,马鞍山市,濮塘,,30,25,24,18,16,94,,93,93,2,4,8,9,0.9,0.9
2024-10-05T1600,3633A,118.4918,31.6809,马鞍山市,雨山,,33,29,27,15,15,104,,95,95,12,16,6,6,0.7,0.6
2024-10-05T1600,1686A,111.0286,21.4688,茂名市,电白南海,臭氧1小时,58,41,57,22,24,166,,134,134,12,20,12,17,0.7,0.7
2024-10-05T1600,1687A,110.9294,21.6533,茂名市,茂石化七小,,38,29,45,19,24,120,,111,111,6,13,10,18,0.6,0.7
2024-10-05T1600,1688A,110.9107,21.6687,茂名市,健康路,,40,27,47,12,26,125,,118,118,4,13,12,34,0.6,0.7
2024-10-05T1600,1689A,110.8592,21.6828,茂名市,高岭,,40,27,58,14,31,128,,120,120,7,19,10,18,0.7,0.8
2024-10-05T1600,3450A,111.01,21.5165,茂名市,电白水东,,41,29,41,17,25,131,,113,113,7,12,8,20,0.6,0.7
2024-10-05T1600,2539A,104.0308,30.0478,眉山市,黑龙滩水库,,31,29,35,18,24,98,,77,77,4,6,4,4,0.5,0.5
2024-10-05T1600,2540A,103.8416,30.0874,眉山市,气象局,,45,43,28,31,22,93,,64,64,13,20,6,8,0.4,0.4
2024-10-05T1600,3137A,103.8578,30.0744,眉山市,市委党校,,41,41,28,19,15,95,,65,65,12,19,6,9,0.4,0.4
2024-10-05T1600,3148A,103.8291,30.0564,眉山市,区人社局,,47,47,30,24,16,90,,61,61,19,24,8,9,0.5,0.5
2024-10-05T1600,1690A,116.1231,24.3284,梅州市,梅江月梅,,31,19,22,14,18,98,,76,76,6,11,8,8,0.6,0.6
2024-10-05T1600,1691A,116.0797,24.2719,梅州市,梅县新城,,30,23,21,17,21,95,,80,80,6,13,5,5,0.5,0.6
2024-10-05T1600,1692A,116.1248,24.2654,梅州市,环境监控中心,,32,24,25,17,19,101,,77,77,8,16,5,6,0.5,0.5
2024-10-05T1600,3315A,116.1233,24.2991,梅州市,梅龙,,33,22,18,11,14,104,,78,78,6,9,10,10,0.5,0.6
2024-10-05T1600,1878A,104.7778,31.4741,绵阳市,富乐山,,31,26,36,20,23,98,,78,78,13,19,2,3,0.4,0.5
2024-10-05T1600,1879A,104.7563,31.4535,绵阳市,市人大,,34,25,48,13,32,107,,78,78,13,21,11,11,0.4,0.5
2024-10-05T1600,1880A,104.6697,31.4668,绵阳市,高新区自来水公司,,34,23,49,14,23,108,,83,83,9,22,6,6,0.4,0.5
2024-10-05T1600,1881A,104.7287,31.5075,绵阳市,三水厂,,,33,42,14,29,104,,72,72,13,27,,7,0.3,0.4
2024-10-05T1600,3491A,104.69,31.5322,绵阳市,西科大附属小学,,33,29,42,23,26,105,,76,76,14,27,4,5,0.4,0.5
2024-10-05T1600,3492A,104.5648,31.5343,绵阳市,安州区旅游局,,35,28,35,17,27,112,,74,74,11,18,7,8,0.4,0.5
2024-10-05T1600,1784A,129.61,44.561,牡丹江市,环保大楼,,36,29,33,17,20,113,,87,87,10,21,8,7,0.3,0.4
2024-10-05T1600,1785A,129.6115,44.5782,牡丹江市,文化广场,,31,30,53,20,27,99,,78,78,17,32,9,10,0.4,0.6
2024-10-05T1600,1786A,129.5904,44.5963,牡丹江市,第一医院,,34,34,48,14,29,104,,83,83,14,24,8,8,0.4,0.5
2024-10-05T1600,1787A,129.6364,44.6075,牡丹江市,机车工厂,,33,27,50,22,27,105,,84,84,15,23,7,18,0.3,0.4
2024-10-05T1600,1788A,129.6386,44.5462,牡丹江市,第一中学,,38,21,27,14,15,120,,96,96,9,19,8,7,0.3,0.3
2024-10-05T1600,2531A,105.0703,29.61,内江市,市监测站,,42,38,37,29,25,80,,60,60,17,19,8,7,0.3,0.3
2024-10-05T1600,2532A,105.0717,29.5947,内江市,东兴区政府,,47,47,37,26,23,84,,65,65,24,23,7,6,0.5,0.5
2024-10-05T1600,2533A,105.0653,29.5817,内江市,内江二中,,40,40,37,28,28,85,,66,66,20,23,6,5,0.5,0.5
2024-10-05T1600,2534A,105.0406,29.5822,内江市,内江日报社,,42,34,39,29,26,77,,66,66,32,25,3,2,0.4,0.4
2024-10-05T1600,2628A,92.0657,31.4846,那曲市,那曲监测站,,34,17,23,7,11,107,,86,85,5,6,7,6,0.2,0.3
2024-10-05T1600,3128A,92.0506,31.4797,那曲市,那曲会议中心,颗粒物(PM10),56,61,33,9,10,118,,88,88,2,9,3,3,0.4,0.4
2024-10-05T1600,1290A,115.8931,28.6843,南昌市,省外办,,47,32,40,22,29,149,,125,125,19,24,11,12,0.6,0.6
2024-10-05T1600,1291A,115.8886,28.7003,南昌市,省林业公司,,50,31,43,17,24,160,,132,132,11,19,8,9,0.6,0.7
2024-10-05T1600,1292A,115.8126,28.7442,南昌市,林科所,,47,22,29,12,18,150,,136,136,12,17,9,10,0.6,0.6
2024-10-05T1600,1294A,115.8518,28.687,南昌市,建工学校,,47,32,42,3,22,150,,130,130,11,15,9,10,0.5,0.6
2024-10-05T1600,1295A,115.8921,28.6424,南昌市,象湖,臭氧1小时,57,24,36,12,22,165,,139,139,14,21,9,10,0.5,0.6
2024-10-05T1600,1296A,115.7423,28.7996,南昌市,武术学校,,42,15,19,13,21,134,,113,113,6,8,3,3,0.4,0.5
2024-10-05T1600,1298A,115.9314,28.6842,南昌市,省站,,46,34,45,19,26,145,,120,120,16,18,10,12,0.6,0.7
2024-10-05T1600,3046A,115.9084,28.6062,南昌市,机电学校,,46,29,48,14,24,145,,128,128,13,21,8,10,0.6,0.6
2024-10-05T1600,3690A,115.9721,28.7031,南昌市,外国语学校,,47,39,42,8,23,148,,124,124,10,17,7,8,0.5,0.5
2024-10-05T1600,1905A,106.056,30.8064,南充市,西山风景区,,40,,33,28,27,80,,64,58,11,12,3,6,0.8,0.8
2024-10-05T1600,1906A,106.0789,30.8023,南充市,南充市委,,49,49,50,34,33,85,,45,45,14,26,4,5,0.4,0.4
2024-10-05T1600,1907A,106.1031,30.8217,南充市,南充炼油厂,颗粒物(PM10),54,57,57,35,37,85,,60,60,15,22,6,7,0.4,0.4
2024-10-05T1600,1908A,106.1064,30.7856,南充市,高坪区监测站,,48,48,58,30,40,87,,62,62,18,29,8,8,0.4,0.5
2024-10-05T1600,1909A,106.0642,30.7636,南充市,嘉陵区环保局,颗粒物(PM10),56,62,59,29,33,71,,46,46,19,35,4,6,0.4,0.5
2024-10-05T1600,1910A,106.1087,30.8388,南充市,市环境监测站,颗粒物(PM10),53,56,58,33,37,84,,53,53,13,28,6,6,0.2,0.3
2024-10-05T1600,1151A,118.8086,32.1065,南京市,迈皋桥,,32,21,22,14,11,100,,85,85,19,25,3,4,0.4,0.3
2024-10-05T1600,1152A,118.7538,32.0551,南京市,草场门,,34,34,24,14,10,78,,85,85,33,25,4,6,0.4,0.2
2024-10-05T1600,1153A,118.7794,32.0745,南京市,山西路,,35,34,27,24,14,83,,87,87,24,19,3,4,0.5,0.4
2024-10-05T1600,1154A,118.7752,32.0023,南京市,中华门,,32,29,25,22,11,74,,85,84,24,18,4,6,0.5,0.4
2024-10-05T1600,1155A,118.8109,32.0309,南京市,瑞金路,,41,41,25,22,12,71,,84,82,25,18,4,4,0.5,0.4
2024-10-05T1600,1156A,118.7997,32.0754,南京市,玄武湖,,42,42,29,20,11,74,,76,76,34,39,5,6,0.5,0.4
2024-10-05T1600,1157A,118.6414,32.0931,南京市,浦口,,,30,25,18,14,74,,80,80,25,19,5,6,,0.3
2024-10-05T1600,1158A,118.7356,31.9996,南京市,奥体中心,,39,33,26,27,16,84,,94,94,26,21,5,6,0.4,0.3
2024-10-05T1600,3422A,118.8436,31.9198,南京市,江宁彩虹桥,,38,38,27,19,10,83,,92,92,20,15,4,4,0.4,0.4
2024-10-05T1600,3423A,119.0138,31.6494,南京市,溧水永阳,,29,14,23,7,15,91,,85,85,10,16,3,4,0.6,0.6
2024-10-05T1600,3424A,118.879,31.3302,南京市,高淳老职中,,30,10,21,9,18,96,,96,96,13,16,4,4,0.6,0.6
2024-10-05T1600,3427A,118.8554,32.3578,南京市,六合雄州,,31,17,29,7,16,97,,93,93,12,17,7,8,0.3,0.3
2024-10-05T1600,1401A,108.3103,22.7881,南宁市,二十一中,臭氧1小时,90,54,69,22,43,192,,140,140,13,35,10,15,0.8,0.9
2024-10-05T1600,1402A,108.3141,22.8528,南宁市,北湖,,50,38,68,25,36,159,,137,137,10,40,8,20,0.8,0.9
2024-10-05T1600,1403A,108.3206,22.8225,南宁市,市监测站,颗粒物(PM10),55,59,71,27,38,157,,140,140,21,37,12,20,0.7,0.8
2024-10-05T1600,1404A,108.3829,22.8037,南宁市,大自然花园,臭氧1小时,60,45,56,24,37,168,,135,135,10,22,11,12,0.5,0.7
2024-10-05T1600,1405A,108.4394,22.7904,南宁市,仙葫,,47,45,60,23,40,150,,125,125,10,25,10,19,0.7,0.8
2024-10-05T1600,1406A,108.2397,22.8467,南宁市,区农职院,臭氧1小时,63,43,64,26,36,170,,133,133,7,20,8,19,0.6,0.7
2024-10-05T1600,1407A,108.3275,22.735,南宁市,英华嘉园,臭氧1小时,73,34,63,23,40,178,,128,128,14,31,9,10,0.6,0.7
2024-10-05T1600,1408A,108.2257,22.7757,南宁市,沙井镇街道办,臭氧1小时,103,62,76,31,41,206,,138,138,16,41,12,9,0.7,0.8
2024-10-05T1600,3401A,108.4834,22.7618,南宁市,红星社区,臭氧1小时,54,39,57,26,33,163,,134,134,8,22,7,12,0.5,0.6
2024-10-05T1600,2332A,118.1681,26.6369,南平市,南平市监测站,,28,21,23,19,17,54,,78,78,16,13,5,5,0.3,0.4
2024-10-05T1600,2333A,118.1825,26.6489,南平市,南平铝业有限公司,,27,21,22,16,17,84,,78,78,10,10,5,4,0.4,0.5
2024-10-05T1600,2334A,118.1756,26.6272,南平市,南平七中,,29,19,21,11,15,91,,82,82,4,11,4,3,0.4,0.5
2024-10-05T1600,1168A,120.9098,31.9663,南通市,狼山街道,,34,19,22,3,9,106,,99,99,4,10,6,6,0.3,0.3
2024-10-05T1600,1169A,120.86,32.0005,南通市,虹桥,,30,24,20,11,12,94,,94,94,7,11,6,7,0.4,0.4
2024-10-05T1600,1170A,120.87,32.02,南通市,城中,,31,23,25,3,9,98,,95,95,11,14,6,6,0.4,0.4
2024-10-05T1600,1171A,120.94,31.93,南通市,星湖花园,,34,16,15,6,9,106,,98,98,8,14,6,6,0.5,0.4
2024-10-05T1600,1172A,120.81,32.0417,南通市,紫琅学院,,27,10,19,7,12,86,,90,90,8,14,7,8,0.4,0.3
2024-10-05T1600,3291A,121.067,32.062,南通市,通州监测站,,35,12,18,3,7,111,,104,104,6,8,2,2,0.5,0.5
2024-10-05T1600,3432A,120.9348,31.9883,南通市,环境教育馆,,35,19,23,3,9,111,,102,102,5,14,3,3,0.4,0.4
2024-10-05T1600,2404A,112.5224,33.0122,南阳市,瓦房庄,颗粒物(PM10),52,54,72,33,50,136,,118,118,16,21,6,6,0.6,0.6
2024-10-05T1600,2405A,112.5003,32.9735,南阳市,汉画馆,,47,47,64,32,43,129,,113,113,18,21,8,8,0.5,0.5
2024-10-05T1600,2406A,112.5573,33.027,南阳市,气象站,颗粒物(PM10),51,52,78,24,46,134,,115,115,18,24,9,10,0.6,0.6
2024-10-05T1600,2407A,112.5481,32.9689,南阳市,理工学院,,48,48,72,29,49,132,,114,114,17,22,8,9,0.6,0.6
2024-10-05T1600,4008A,112.5234,32.9922,南阳市,卧龙区政府,颗粒物(PM10),51,51,69,33,43,135,,117,117,19,24,6,6,0.6,0.6
2024-10-05T1600,1234A,121.8358,29.911,宁波市,区环保大楼,,25,7,15,3,4,77,,76,76,12,17,6,6,0.6,0.6
2024-10-05T1600,1235A,121.56,29.82,宁波市,万里学院,,26,11,18,3,7,83,,73,73,10,13,6,6,0.5,0.5
2024-10-05T1600,1236A,121.713,29.9572,宁波市,龙赛医院,,25,12,18,3,4,77,,86,79,17,12,8,7,0.5,0.6
2024-10-05T1600,1239A,121.633,29.7733,宁波市,钱湖水厂,,24,8,15,3,6,74,,68,68,16,16,9,8,0.5,0.5
2024-10-05T1600,1240A,121.5856,29.8635,宁波市,太古小学,,25,10,17,6,9,80,,76,76,15,17,7,7,0.6,0.7
2024-10-05T1600,1241A,121.524,29.8674,宁波市,市环境监测中心,,26,21,18,3,4,83,,72,72,13,14,4,4,0.5,0.5
2024-10-05T1600,2871A,121.6147,29.9017,宁波市,万里国际学校,,27,14,25,9,12,85,,82,82,15,20,7,7,0.5,0.5
2024-10-05T1600,3710A,121.5594,29.8975,宁波市,白沙活动中心,,25,12,24,3,5,79,,76,76,18,15,8,8,0.3,0.3
2024-10-05T1600,2341A,119.5388,26.6612,宁德市,宁德市监测站,,17,17,15,8,10,47,,41,41,19,22,7,6,0.6,0.6
2024-10-05T1600,3209A,119.5231,26.6562,宁德市,宁德一中,,29,,18,20,14,44,,44,44,18,13,5,6,0.5,0.5
2024-10-05T1600,2618A,98.8601,25.8567,怒江傈僳族自治州,州监测站,,33,,17,23,12,39,,27,27,6,9,5,6,0.3,0.4
2024-10-05T1600,2619A,98.8546,25.8417,怒江傈僳族自治州,泸水一中,,12,12,15,3,8,38,,24,24,8,12,6,6,0.3,0.4
2024-10-05T1600,1888A,101.6891,26.571,攀枝花市,弄弄坪,,22,22,51,8,24,70,,48,48,10,27,11,14,0.5,0.7
2024-10-05T1600,1889A,101.5769,26.5928,攀枝花市,河门口,,24,17,27,9,15,74,,48,48,13,19,26,16,1.1,1.1
2024-10-05T1600,1890A,101.7169,26.585,攀枝花市,炳草岗,,25,23,42,3,21,78,,51,51,5,25,15,16,0.4,0.7
2024-10-05T1600,1891A,101.7369,26.5008,攀枝花市,仁和,,17,7,15,3,9,54,,42,42,7,12,8,6,0.4,0.5
2024-10-05T1600,2835A,101.7227,26.567,攀枝花市,四十中小,,28,28,35,19,24,71,,53,53,7,15,10,12,0.7,0.9
2024-10-05T1600,1604A,122.0303,41.1489,盘锦市,开发区,臭氧1小时,88,59,35,27,28,190,,168,168,17,15,14,14,0.6,0.4
2024-10-05T1600,1605A,122.0485,41.0883,盘锦市,兴隆台,臭氧1小时,83,46,31,30,26,186,,162,162,18,19,7,6,0.6,0.4
2024-10-05T1600,1606A,121.8297,41.1028,盘锦市,新生街道,臭氧1小时,108,52,35,33,27,215,,182,182,18,17,13,10,0.7,0.5
2024-10-05T1600,1832A,113.3257,33.742,平顶山市,新华旅馆,颗粒物(PM10),74,98,120,45,57,94,,87,87,37,37,12,11,0.6,0.5
2024-10-05T1600,1833A,113.2919,33.737,平顶山市,规划设计院,颗粒物(PM10),63,76,101,40,53,111,,99,99,27,33,12,12,0.6,0.6
2024-10-05T1600,1834A,113.182,33.774,平顶山市,平顶山工学院,颗粒物(PM10),66,81,98,39,48,115,,75,75,21,39,8,9,0.5,0.5
2024-10-05T1600,3204A,113.3025,33.73,平顶山市,规划局,细颗粒物(PM2.5),82,88,116,60,64,106,,92,92,28,34,10,12,0.6,0.5
2024-10-05T1600,3594A,112.8867,33.9116,平顶山市,石龙区,颗粒物(PM10),56,62,123,25,52,124,,70,70,18,64,12,17,0.6,0.8
2024-10-05T1600,2656A,106.6692,35.5461,平凉市,聚贤嘉苑,颗粒物(PM10),63,76,62,43,35,79,,66,66,32,28,12,10,0.5,0.5
2024-10-05T1600,2657A,106.7021,35.5307,平凉市,博物馆,颗粒物(PM10),69,88,69,45,36,84,,74,74,44,37,14,15,0.5,0.5
2024-10-05T1600,2347A,114.0997,27.5002,萍乡市,武功山,,44,15,17,12,9,138,,110,110,7,6,8,6,0.4,0.3
2024-10-05T1600,2348A,113.8385,27.6434,萍乡市,中医院,,46,32,43,21,24,147,,126,126,5,14,10,14,0.6,0.7
2024-10-05T1600,2349A,113.8493,27.6253,萍乡市,市政府车库,,46,26,43,16,30,147,,117,117,5,17,14,17,0.7,0.9
2024-10-05T1600,2350A,113.8676,27.6435,萍乡市,市环保局,,43,32,44,18,29,137,,111,111,4,13,11,17,0.7,0.7
2024-10-05T1600,2351A,113.866,27.6198,萍乡市,安源区政府,,47,33,47,16,22,149,,118,118,10,27,12,14,0.4,0.5
2024-10-05T1600,2319A,119.0141,25.4325,莆田市,荔城区仓后路,,15,8,7,3,0,48,,56,55,8,8,7,7,0.5,0.4
2024-10-05T1600,2320A,119.0015,25.4553,莆田市,莆田市监测站,,16,7,7,7,1,49,,64,57,6,5,6,6,0.4,0.4
2024-10-05T1600,2321A,119.1119,25.4561,莆田市,涵江区六中,,19,11,11,3,2,58,,62,62,6,10,8,8,0.6,0.6
2024-10-05T1600,2322A,119.1013,25.3215,莆田市,秀屿区政府,,20,11,19,3,2,64,,66,66,9,10,6,7,0.6,0.6
2024-10-05T1600,2392A,115.0312,35.7636,濮阳市,环保局,,45,32,51,16,32,142,,116,116,9,23,3,4,0.4,0.4
2024-10-05T1600,2394A,115.0574,35.7609,濮阳市,油田运输公司,,46,35,56,17,36,145,,128,128,10,24,3,4,0.4,0.5
2024-10-05T1600,2395A,115.0866,35.7754,濮阳市,油田物探公司,,47,37,58,23,36,150,,118,118,8,22,2,3,0.3,0.4
2024-10-05T1600,3021A,115,35.7668,濮阳市,濮水河管理处,,42,36,45,16,28,133,,112,112,9,17,2,2,0.2,0.3
2024-10-05T1600,2601A,100.98,22.7633,普洱市,市环保局,,20,20,20,9,12,48,,44,44,5,5,4,4,0.4,0.4
2024-10-05T1600,2602A,100.9817,22.8322,普洱市,普洱第二中学,,21,21,25,8,8,50,,44,44,4,9,4,4,0.5,0.5
2024-10-05T1600,2262A,131.0518,45.8751,七台河市,新一中,,38,31,23,13,12,121,,118,118,17,12,10,9,1.2,1.2
2024-10-05T1600,3345A,131.0577,45.7879,七台河市,中波台,,31,31,31,6,9,94,,91,91,19,20,7,7,0.5,0.6
2024-10-05T1600,3637A,131.0176,45.7761,七台河市,人民广场,,31,25,38,18,18,99,,93,93,18,26,8,8,0.4,0.5
2024-10-05T1600,3684A,130.8781,45.8222,七台河市,新建矿广场,,39,39,105,20,24,92,,94,94,21,35,8,9,0.4,0.5
2024-10-05T1600,1779A,123.9305,47.3636,齐齐哈尔市,安居小区,,26,26,40,16,16,72,,72,70,6,12,8,11,0.3,0.5
2024-10-05T1600,1780A,123.9488,47.3386,齐齐哈尔市,中心广场,,22,22,40,9,8,66,,76,66,10,11,2,3,0.2,0.3
2024-10-05T1600,1781A,123.9483,47.3227,齐齐哈尔市,农牧车辆厂,,29,29,44,3,9,69,,72,67,5,8,7,8,0.2,0.2
2024-10-05T1600,1783A,123.945,47.2988,齐齐哈尔市,市环境监测站,,24,19,35,3,14,74,,78,71,5,8,8,8,0.2,0.3
2024-10-05T1600,3662A,123.6333,47.2075,齐齐哈尔市,富区青少年活动中心,,31,31,41,3,8,73,,69,69,6,12,4,6,0.3,0.4
2024-10-05T1600,2591A,107.9783,26.5747,黔东南苗族侗族自治州,市环境监测站,,40,35,35,24,22,128,,112,112,12,17,6,6,0.4,0.4
2024-10-05T1600,2881A,107.8908,26.5311,黔东南苗族侗族自治州,凯里学院,,44,29,33,20,20,140,,126,126,9,13,4,4,0.5,0.4
2024-10-05T1600,2593A,107.5228,26.2403,黔南布依族苗族自治州,小围寨,,45,27,29,14,18,141,,119,119,5,6,7,7,0.4,0.4
2024-10-05T1600,3538A,107.5175,26.2978,黔南布依族苗族自治州,沙坝,,44,38,34,14,18,139,,117,117,6,11,6,6,0.4,0.5
2024-10-05T1600,2589A,104.9022,25.0925,黔西南布依族苗族自治州,场坝街,,29,17,27,11,18,90,,98,97,5,6,3,4,0.2,0.3
2024-10-05T1600,2590A,104.8811,25.0992,黔西南布依族苗族自治州,坪东大道,,27,18,28,10,18,84,,96,95,6,6,7,8,0.3,0.3
2024-10-05T1600,2502A,108.6236,21.9667,钦州市,市环保站,颗粒物(PM10),58,66,83,24,34,148,,132,132,10,19,9,14,0.7,1
2024-10-05T1600,2503A,108.6549,21.9481,钦州市,沙埠小学,颗粒物(PM10),56,62,90,30,44,152,,139,139,10,27,8,12,0.7,1.2
2024-10-05T1600,2504A,108.5989,21.7431,钦州市,港区一小,颗粒物(PM10),67,84,91,29,35,163,,140,140,17,28,9,10,0.6,0.7
2024-10-05T1600,3404A,108.5959,21.9633,钦州市,北职校,颗粒物(PM10),54,58,70,27,38,158,,139,139,10,16,9,9,0.8,0.8
2024-10-05T1600,1042A,119.5134,39.8207,秦皇岛市,北戴河环保局,颗粒物(PM10),67,84,74,35,39,156,,136,136,23,23,5,6,0.6,0.8
2024-10-05T1600,1043A,119.7493,40.0116,秦皇岛市,第一关,颗粒物(PM10),71,91,86,47,52,176,,150,150,22,45,11,10,0.8,0.9
2024-10-05T1600,1044A,119.5897,39.9499,秦皇岛市,监测站,臭氧1小时,72,59,73,41,51,177,,154,154,23,28,7,13,0.6,1
2024-10-05T1600,1046A,119.5251,39.9041,秦皇岛市,建设大厦,臭氧1小时,69,70,81,30,42,175,,152,152,16,25,4,12,0.5,1
2024-10-05T1600,3132A,119.610547,39.943889,秦皇岛市,文明里,臭氧1小时,67,74,84,37,45,173,,152,152,26,29,5,12,0.6,1.2
2024-10-05T1600,1307A,120.6659,36.2403,青岛市,仰口,,34,6,12,3,10,107,,107,106,4,6,5,6,0.8,0.8
2024-10-05T1600,1310A,120.4134,36.0658,青岛市,市南区东部子站,,36,7,12,3,6,114,,116,116,6,12,5,6,0.4,0.5
2024-10-05T1600,1311A,120.3664,36.1032,青岛市,四方区子站,,38,6,19,3,10,119,,121,121,14,30,8,9,0.3,0.4
2024-10-05T1600,1312A,120.2994,36.054,青岛市,市南区西部子站,,39,9,14,3,3,122,,120,120,7,9,8,8,0.4,0.4
2024-10-05T1600,1313A,120.4581,36.0858,青岛市,崂山区子站,,39,6,4,3,2,122,,119,119,7,13,8,8,0.5,0.5
2024-10-05T1600,1314A,120.1983,35.9608,青岛市,黄岛区子站,,41,,12,3,10,129,,112,112,3,16,8,9,0.4,0.4
2024-10-05T1600,1315A,120.3999,36.3083,青岛市,城阳区子站,,39,17,20,7,10,124,,123,123,16,26,7,7,0.4,0.5
2024-10-05T1600,1966A,120.0405,35.8735,青岛市,黄岛区4号,,41,6,16,3,7,130,,117,117,6,17,6,6,0.4,0.4
2024-10-05T1600,3362A,120.5014,36.4034,青岛市,即墨2号,,37,6,14,3,8,117,,114,114,4,10,6,6,0.3,0.4
2024-10-05T1600,3642A,120.3503,36.0736,青岛市,市北区南部,,37,9,17,3,5,116,,119,119,14,19,6,7,0.5,0.5
2024-10-05T1600,3643A,120.3948,36.1805,青岛市,李沧区北部,,37,7,17,3,10,118,,126,126,13,25,9,9,0.5,0.6
2024-10-05T1600,1702A,113.0426,23.691,清远市,环保大楼,,41,24,27,18,20,130,,119,119,10,14,8,11,0.7,0.7
2024-10-05T1600,1703A,113.0208,23.7106,清远市,凤城街办,,40,30,32,21,18,126,,116,116,5,8,9,10,0.7,0.7
2024-10-05T1600,3025A,113.0477,23.6344,清远市,技师学院,,40,33,37,17,18,125,,117,117,7,13,8,11,0.6,0.7
2024-10-05T1600,3318A,112.9903,23.7403,清远市,清新太和,,38,28,31,18,18,121,,114,114,4,8,5,6,0.5,0.5
2024-10-05T1600,3455A,113.076,23.7198,清远市,清城东城,,42,38,34,19,17,133,,122,122,4,5,6,8,0.4,0.5
2024-10-05T1600,2661A,107.6325,35.7357,庆阳市,庆阳五中,颗粒物(PM10),54,58,56,29,36,98,,115,108,17,14,8,8,0.5,0.5
2024-10-05T1600,2662A,107.6364,35.7067,庆阳市,市环保局,颗粒物(PM10),51,51,53,27,32,97,,115,108,16,14,6,7,0.4,0.4
2024-10-05T1600,1916A,103.7897,25.5035,曲靖市,环境监测站,,19,11,34,3,17,59,,50,50,6,15,1,6,0.2,0.5
2024-10-05T1600,1917A,103.8,25.5364,曲靖市,烟厂办公区,,20,12,35,10,20,61,,52,52,4,14,4,5,0.4,0.6
2024-10-05T1600,3376A,103.7947,25.462,曲靖市,南苑二区,,21,10,33,10,20,65,,56,56,5,12,9,14,0.5,0.8
2024-10-05T1600,3377A,103.7444,25.5261,曲靖市,曲靖师范学院,,20,6,25,3,18,64,,54,54,5,11,6,9,0.4,0.5
2024-10-05T1600,1264A,118.8692,28.9398,衢州市,环保大楼,,34,34,39,21,22,76,,81,81,17,19,6,6,0.6,0.6
2024-10-05T1600,1265A,118.8709,28.9666,衢州市,实验学校,,33,31,36,23,23,82,,87,87,12,16,4,4,0.3,0.3
2024-10-05T1600,1266A,118.8621,28.9808,衢州市,衢州学院,,32,,33,22,21,82,,92,92,16,23,7,8,0.3,0.3
2024-10-05T1600,1611A,118.5819,24.9117,泉州市,涂山街,,24,13,16,3,8,75,,70,70,7,11,2,2,0.3,0.4
2024-10-05T1600,1612A,118.5972,24.8978,泉州市,津头埔,,21,19,18,6,8,65,,66,66,11,11,4,4,0.4,0.4
2024-10-05T1600,1613A,118.6663,24.9424,泉州市,万安,,26,18,15,8,6,82,,70,70,6,8,2,2,0.4,0.4
2024-10-05T1600,3529A,118.6333,24.9264,泉州市,城华南路,,23,12,11,3,4,72,,66,66,5,4,3,3,0.3,0.3
2024-10-05T1600,2626A,88.8876,29.2718,日喀则市,日喀则监测站,,26,9,15,7,7,83,,64,64,8,13,4,5,0.4,0.4
2024-10-05T1600,3726A,88.8781,29.2426,日喀则市,林业技术推广中心,,31,7,13,3,2,98,,74,74,5,7,7,7,0.4,0.4
2024-10-05T1600,1659A,119.471,35.4209,日照市,监测站,,38,7,33,3,23,120,,113,113,8,58,10,12,0.4,0.7
2024-10-05T1600,1660A,119.523,35.4216,日照市,市政府广场,,40,6,34,3,20,126,,119,119,6,39,5,6,0.3,0.5
2024-10-05T1600,1661A,119.5587,35.4044,日照市,港务局,,40,9,31,6,24,127,,119,119,6,32,8,9,0.4,0.6
2024-10-05T1600,3507A,119.5328,35.4625,日照市,职业技术学院,,40,9,21,3,12,126,,117,117,5,21,9,9,0.4,0.5
2024-10-05T1600,3604A,119.3266,35.1044,日照市,岚山环保分局,,38,7,25,3,18,121,,114,114,6,17,8,13,0.4,0.9
2024-10-05T1600,1835A,111.1922,34.7752,三门峡市,市政府,"颗粒物(PM10),细颗粒物(PM2.5)",60,70,57,43,38,120,,118,110,26,23,20,19,0.7,0.6
2024-10-05T1600,1836A,111.1587,34.7942,三门峡市,开发区,颗粒物(PM10),67,83,72,45,39,122,,113,111,28,24,20,17,0.7,0.6
2024-10-05T1600,1838A,111.143,34.7955,三门峡市,风景区,细颗粒物(PM2.5),62,70,61,44,42,134,,123,122,24,20,20,21,0.9,0.7
2024-10-05T1600,3039A,111.1911,34.7829,三门峡市,三门峡市第一小学,细颗粒物(PM2.5),63,69,59,45,39,114,,117,104,24,22,18,16,0.7,0.6
2024-10-05T1600,3598A,111.1,34.7167,三门峡市,富达温泉假日酒店,"颗粒物(PM10),细颗粒物(PM2.5)",74,98,78,54,45,117,,115,102,23,23,23,16,0.7,0.7
2024-10-05T1600,2324A,117.6211,26.2625,三明市,三钢,,29,19,20,6,18,90,,86,86,4,11,1,6,0.3,0.5
2024-10-05T1600,2325A,117.635,26.2714,三明市,三明二中,,33,33,19,15,15,88,,81,81,8,12,3,4,0.4,0.4
2024-10-05T1600,2326A,117.6028,26.2378,三明市,三元区政府,,27,25,22,16,13,86,,80,80,12,14,3,3,0.4,0.5
2024-10-05T1600,1876A,109.5078,18.2489,三亚市,河东子站,,48,48,38,15,18,142,,126,126,6,10,5,5,0.4,0.4
2024-10-05T1600,1877A,109.4964,18.2681,三亚市,河西子站,,43,42,33,20,20,136,,119,119,8,9,5,5,0.4,0.5
2024-10-05T1600,3540A,109.7348,18.3443,三亚市,君悦子站,臭氧1小时,52,40,40,18,19,161,,125,125,8,8,3,3,0.6,0.6
2024-10-05T1600,2624A,91.7608,29.2313,山南市,山南监测站,,25,13,10,3,6,80,,59,59,2,7,9,9,0.3,0.4
2024-10-05T1600,2625A,91.7706,29.2436,山南市,山南人民医院,,26,17,11,3,6,83,,59,59,8,9,9,9,0.4,0.4
2024-10-05T1600,1674A,116.6794,23.3667,汕头市,金平子站,,36,26,24,10,16,113,,93,93,13,17,6,7,0.5,0.5
2024-10-05T1600,1675A,116.7244,23.3633,汕头市,龙湖子站,,33,32,20,17,11,104,,86,86,6,6,8,10,0.7,0.8
2024-10-05T1600,1676A,116.7258,23.2775,汕头市,濠江子站,,34,26,19,15,14,108,,82,82,8,9,7,7,0.8,0.8
2024-10-05T1600,1677A,116.7519,23.4714,汕头市,澄海子站,,35,29,22,15,16,111,,91,91,10,13,8,10,0.8,0.8
2024-10-05T1600,1678A,116.6092,23.2539,汕头市,潮阳子站,,34,25,21,12,11,106,,88,88,6,8,6,7,0.5,0.5
2024-10-05T1600,3444A,116.454,23.2684,汕头市,潮南峡山,,40,31,24,19,11,127,,99,99,8,7,8,8,0.8,0.7
2024-10-05T1600,3624A,116.4069,23.2533,汕头市,潮南子站,,44,44,29,12,13,127,,97,97,14,15,7,7,0.7,0.7
2024-10-05T1600,1693A,115.3653,22.775,汕尾市,市环保局,,34,23,20,9,15,107,,82,82,7,9,8,9,0.4,0.4
2024-10-05T1600,1694A,115.3706,22.7898,汕尾市,市政府,,,26,19,21,17,96,,77,77,7,9,,8,0.6,0.5
2024-10-05T1600,1695A,115.3622,22.7925,汕尾市,新城中学,,30,26,19,14,14,96,,78,78,4,5,7,7,0.7,0.7
2024-10-05T1600,2645A,109.9154,33.8715,商洛市,监测站,,46,46,45,27,23,135,,109,109,17,23,8,5,0.4,0.5
2024-10-05T1600,3045A,109.9643,33.8471,商洛市,商州区中学,,42,42,50,25,25,129,,101,101,22,32,14,11,0.4,0.4
2024-10-05T1600,2408A,115.6702,34.4285,商丘市,环境监测站,,40,28,52,18,36,126,,106,106,12,25,5,5,0.5,0.6
2024-10-05T1600,2409A,115.6458,34.4045,商丘市,粮食局,,43,37,42,26,32,136,,116,116,7,14,5,5,0.6,0.7
2024-10-05T1600,2410A,115.6293,34.3948,商丘市,睢阳区环保局,,42,31,47,21,25,133,,112,112,9,21,7,8,0.3,0.4
