timepoint,stationcode,longitude,latitude,area,positionname,primarypollutant,aqi,pm10,pm10_24h,pm2_5,pm2_5_24h,o3,o3_24h,o3_8h,o3_8h_24h,no2,no2_24h,so2,so2_24h,co,co_24h
2024-10-05T1200,2566A,102.1879,31.914,阿坝藏族羌族自治州,州农科所,,24,24,37,11,11,52,,22,22,10,16,8,9,0,0
2024-10-05T1200,2568A,102.2502,31.8896,阿坝藏族羌族自治州,马师校,,18,15,18,12,15,47,,13,13,4,8,5,5,0.2,0.3
2024-10-05T1200,3994A,102.2165,31.9024,阿坝藏族羌族自治州,马尔康中学西区,,16,,23,11,19,43,,12,12,5,11,6,7,0.4,0.4
2024-10-05T1200,2695A,80.292,41.1694,阿克苏地区,电视台,颗粒物(PM10),68,85,69,28,32,54,,47,47,29,32,7,4,0.7,0.7
2024-10-05T1200,2696A,80.2613,41.1551,阿克苏地区,艺术中心,颗粒物(PM10),67,84,73,26,30,23,,46,44,40,35,5,4,0.8,0.8
2024-10-05T1200,2204A,105.6467,38.8363,阿拉善盟,西城区西花园,,28,28,39,19,25,83,,79,72,10,16,11,10,0.8,0.8
2024-10-05T1200,2205A,105.6985,38.8411,阿拉善盟,蒙二幼,,34,34,36,16,16,94,,76,75,10,12,8,8,0.7,0.7
2024-10-05T1200,2206A,105.724,38.8516,阿拉善盟,环保局新楼,,41,41,31,19,14,91,,94,94,12,10,9,9,0.6,0.5
2024-10-05T1200,2708A,88.1264,47.8517,阿勒泰地区,市站,,45,45,45,12,9,60,,29,29,17,19,8,8,0.2,0.4
2024-10-05T1200,2630A,80.1161,32.5,阿里地区,阿里监测站,,30,15,22,3,8,94,,53,53,8,22,6,8,0.3,0.4
2024-10-05T1200,3192A,80.0903,32.5028,阿里地区,阿里藏医院,,29,20,16,12,6,92,,79,63,10,12,8,6,0.3,0.3
2024-10-05T1200,2642A,109.0318,32.6537,安康市,香溪洞,,49,47,44,34,25,68,,60,58,12,10,10,11,0.4,0.4
2024-10-05T1200,2643A,109.0281,32.6939,安康市,安康市监测站,,50,50,49,28,26,85,,50,50,15,16,13,15,0.5,0.5
2024-10-05T1200,2644A,109.0072,32.6975,安康市,汉滨区检察院,,50,50,43,34,25,68,,48,46,19,16,12,10,0.5,0.4
2024-10-05T1200,2291A,117.0809,30.5177,安庆市,环科院,,38,38,39,23,26,115,,81,81,16,18,10,10,0.5,0.5
2024-10-05T1200,2292A,117.0331,30.5119,安庆市,马山宾馆,,41,37,37,26,25,130,,91,91,15,19,12,12,0.5,0.5
2024-10-05T1200,2294A,116.9896,30.6145,安庆市,安庆大学,,39,35,39,20,27,122,,73,73,12,12,11,10,0.6,0.7
2024-10-05T1200,3173A,117.0598,30.5351,安庆市,市人大,,38,35,34,26,25,120,,86,86,13,14,12,12,0.7,0.8
2024-10-05T1200,3123A,105.9408,26.2431,安顺市,凤凰山,,43,43,38,30,25,105,,85,80,8,9,10,19,0.5,0.4
2024-10-05T1200,3124A,105.9439,26.2564,安顺市,金钟山,,46,42,36,32,27,108,,87,82,8,8,13,21,0.5,0.5
2024-10-05T1200,3125A,105.8983,26.2481,安顺市,娄家坡,,36,36,38,25,27,104,,86,81,6,9,12,15,0.6,0.6
2024-10-05T1200,1819A,114.3551,36.1017,安阳市,红庙街,,48,48,70,23,41,117,,60,60,11,28,4,4,0.5,0.6
2024-10-05T1200,1820A,114.361,36.0681,安阳市,银杏小区,,41,41,74,21,43,113,,51,51,11,29,5,4,0.4,0.4
2024-10-05T1200,3141A,114.3922,36.0878,安阳市,信访局,,44,44,70,21,36,114,,60,60,12,29,4,3,0.1,0.1
2024-10-05T1200,3669A,114.4705,36.0637,安阳市,左辅环卫站,,50,50,98,19,42,108,,53,53,17,52,5,5,0.7,0.7
2024-10-05T1200,3703A,114.2917,36.0949,安阳市,安钢职工学校,,50,50,68,25,42,116,,57,57,14,25,12,10,0.4,0.5
2024-10-05T1200,1748A,123.044,41.1196,鞍山市,深沟寺,臭氧1小时,52,42,34,25,20,161,,137,137,13,11,10,8,0.7,0.6
2024-10-05T1200,1749A,123.011,41.0931,鞍山市,太阳城,臭氧1小时,54,50,35,30,19,163,,136,136,15,13,13,10,0.5,0.5
2024-10-05T1200,1750A,123.0485,41.1442,鞍山市,太平,颗粒物(PM10),51,51,38,28,20,159,,132,132,19,18,14,12,0.8,0.8
2024-10-05T1200,1751A,122.9642,41.0971,鞍山市,铁西三道街,颗粒物(PM10),56,61,56,30,25,160,,125,125,17,24,13,10,0.6,0.8
2024-10-05T1200,1752A,122.9341,41.0833,鞍山市,铁西工业园区,臭氧1小时,65,47,44,28,27,172,,124,124,12,18,16,12,0.5,0.6
2024-10-05T1200,1753A,123.022,41.0821,鞍山市,明达新区,颗粒物(PM10),51,51,39,33,23,151,,132,132,13,12,10,8,0.6,0.5
2024-10-05T1200,2195A,107.4212,40.761,巴彦淖尔市,附二中,,45,45,79,20,33,73,,42,39,13,30,7,10,0.5,0.6
2024-10-05T1200,2196A,107.37,40.7372,巴彦淖尔市,市环保大楼,,47,47,64,8,23,72,,45,37,13,22,5,5,0.4,0.5
2024-10-05T1200,1956A,86.1472,41.7538,巴音郭楞蒙古自治州,孔雀公园,,32,32,49,7,14,93,,87,72,9,20,6,6,0.2,0.3
2024-10-05T1200,1957A,86.1972,41.7166,巴音郭楞蒙古自治州,棉纺厂,,48,48,56,15,15,97,,79,66,9,21,5,6,0.3,0.3
2024-10-05T1200,1958A,86.2357,41.7173,巴音郭楞蒙古自治州,经济开发区,,44,44,60,20,19,95,,85,65,8,15,7,8,0.3,0.3
2024-10-05T1200,2914A,106.7677,31.8794,巴中市,苏山坪,,39,39,36,25,23,82,,63,57,15,12,4,4,0.4,0.4
2024-10-05T1200,3182A,106.7656,31.8545,巴中市,丽阳花园,,40,40,41,27,28,78,,33,33,20,24,6,5,0.5,0.5
2024-10-05T1200,3183A,106.7418,31.8654,巴中市,圣泉水务公司,,38,38,38,25,25,83,,31,31,15,22,6,4,0.4,0.5
2024-10-05T1200,3616A,106.7616,31.8344,巴中市,市中心医院,,39,39,43,24,29,76,,25,25,15,22,6,5,0.5,0.5
2024-10-05T1200,2235A,122.7911,45.6077,白城市,洮北区环保局,,25,18,42,8,21,79,,86,71,6,12,7,6,0.4,0.6
2024-10-05T1200,2236A,122.8738,45.5725,白城市,市环保局,,25,9,43,3,19,78,,80,68,7,16,6,6,0.3,0.5
2024-10-05T1200,2231A,126.4219,41.9171,白山市,喜丰,,35,35,49,9,15,109,,38,38,7,25,8,9,0.4,0.5
2024-10-05T1200,2232A,126.4077,41.9419,白山市,环保局,,32,,40,9,16,101,,35,35,10,22,9,9,0.6,0.7
2024-10-05T1200,2647A,104.1724,36.5446,白银市,第三小学,,44,44,40,27,20,45,,79,44,22,17,34,70,1.1,1
2024-10-05T1200,2648A,104.1465,36.5482,白银市,动力公司,,,46,37,28,20,34,,29,29,24,21,,39,1.2,1
2024-10-05T1200,2512A,106.6103,23.9011,百色市,市监测站,颗粒物(PM10),55,59,51,27,26,110,,42,42,11,17,11,10,0.7,0.7
2024-10-05T1200,2513A,106.6538,23.8859,百色市,市中心血站,细颗粒物(PM2.5),60,50,69,43,34,98,,42,42,16,22,9,12,0.7,0.7
2024-10-05T1200,3406A,106.6085,23.8798,百色市,祈福高中,颗粒物(PM10),53,56,75,29,33,112,,43,43,13,27,9,10,0.7,0.7
2024-10-05T1200,2270A,117.396,32.939,蚌埠市,工人疗养院,,35,27,32,10,14,109,,81,81,11,14,7,6,0.3,0.3
2024-10-05T1200,2271A,117.3605,32.9427,蚌埠市,百货大楼,,33,33,33,9,14,104,,78,78,12,18,8,6,0.3,0.3
2024-10-05T1200,2273A,117.4185,32.8911,蚌埠市,蚌埠学院,,37,12,25,6,15,116,,59,59,3,23,7,8,0.3,0.3
2024-10-05T1200,2274A,117.3533,32.9673,蚌埠市,淮上区政府,,,31,35,11,20,104,,72,72,10,18,7,7,,0.4
2024-10-05T1200,2275A,117.3145,32.8977,蚌埠市,高新区,,37,22,27,12,14,116,,52,52,7,33,6,11,0.3,0.3
2024-10-05T1200,3715A,117.3092,32.9314,蚌埠市,蚌埠田家炳中学,,35,27,31,15,16,110,,82,82,9,19,6,8,0.2,0.2
2024-10-05T1200,1585A,109.8756,40.6532,包头市,市环境监测站,颗粒物(PM10),55,59,65,32,31,70,,25,25,30,61,13,16,0.8,1
2024-10-05T1200,1587A,109.9991,40.5842,包头市,包头八中,颗粒物(PM10),56,62,71,34,33,68,,30,30,31,51,14,15,0.9,1
2024-10-05T1200,1588A,109.8538,40.6821,包头市,青山宾馆,"颗粒物(PM10),细颗粒物(PM2.5)",55,60,59,39,35,70,,23,23,34,53,18,16,0.8,1
2024-10-05T1200,1589A,109.8642,40.6288,包头市,惠龙物流,颗粒物(PM10),57,64,65,22,25,78,,29,29,27,46,13,16,0.6,0.7
2024-10-05T1200,1590A,110.0377,40.5546,包头市,东河鸿龙湾,颗粒物(PM10),58,66,64,25,25,74,,29,29,25,45,17,15,0.7,0.7
2024-10-05T1200,3283A,109.9154,40.5685,包头市,滨河大厦,颗粒物(PM10),51,51,57,20,24,75,,30,30,28,45,20,14,0.8,0.6
2024-10-05T1200,3419A,109.9447,40.6261,包头市,包头市委党校,颗粒物(PM10),60,70,61,32,28,72,,25,25,30,48,14,26,0.6,0.8
2024-10-05T1200,3683A,109.8331,40.6576,包头市,昆区政府,"颗粒物(PM10),细颗粒物(PM2.5)",54,57,61,38,34,72,,30,30,30,44,13,17,0.6,0.7
2024-10-05T1200,1930A,107.185,34.3063,宝鸡市,庙沟村,"颗粒物(PM10),细颗粒物(PM2.5)",57,64,55,40,35,61,,47,47,17,19,8,7,0.7,0.7
2024-10-05T1200,1931A,107.0708,34.3017,宝鸡市,竹园沟,细颗粒物(PM2.5),84,76,54,62,43,76,,33,33,26,21,13,8,0.6,0.5
2024-10-05T1200,1932A,107.1906,34.3672,宝鸡市,三陆医院,细颗粒物(PM2.5),94,84,75,70,55,56,,24,24,41,46,14,12,0.5,0.5
2024-10-05T1200,1933A,107.1431,34.3547,宝鸡市,监测站,,,104,66,72,48,62,,33,33,31,28,14,8,,0.7
2024-10-05T1200,1934A,107.1186,34.3739,宝鸡市,技工学校,细颗粒物(PM2.5),79,93,68,58,50,58,,39,38,45,28,14,8,0.8,0.6
2024-10-05T1200,1935A,107.3906,34.3528,宝鸡市,陈仓区环保局家属楼,细颗粒物(PM2.5),90,77,74,67,57,77,,37,37,34,40,14,11,0.7,0.6
2024-10-05T1200,1936A,107.2058,34.3497,宝鸡市,文理学院,细颗粒物(PM2.5),75,80,69,55,42,49,,26,26,35,32,15,10,0.7,0.6
2024-10-05T1200,1937A,107.2386,34.3622,宝鸡市,三迪小学,细颗粒物(PM2.5),92,75,71,68,51,69,,31,31,41,39,14,10,0.7,0.7
2024-10-05T1200,1051A,115.493,38.8632,保定市,游泳馆,细颗粒物(PM2.5),94,105,86,70,54,111,,64,64,34,28,7,4,0.7,0.5
2024-10-05T1200,1052A,115.5213,38.8959,保定市,华电二区,细颗粒物(PM2.5),99,95,87,74,60,101,,43,43,33,34,6,5,0.4,0.3
2024-10-05T1200,1053A,115.4713,38.9108,保定市,接待中心,细颗粒物(PM2.5),99,89,87,74,57,100,,49,47,30,32,8,6,0.6,0.4
2024-10-05T1200,1054A,115.4612,38.8416,保定市,地表水厂,细颗粒物(PM2.5),102,98,89,76,62,110,,54,54,33,34,8,6,0.3,0.1
2024-10-05T1200,3581A,115.31981,38.95208,保定市,满城区生态环境分局,细颗粒物(PM2.5),94,114,97,70,55,114,,51,51,30,34,6,6,0.6,0.6
2024-10-05T1200,3582A,115.47694,38.76408,保定市,清苑区第二中学,细颗粒物(PM2.5),93,112,96,69,58,118,,58,58,37,36,9,6,0.6,0.5
2024-10-05T1200,3583A,115.62909,39.02311,保定市,徐水物探局,细颗粒物(PM2.5),113,103,90,85,59,91,,27,27,43,44,13,7,0.5,0.5
2024-10-05T1200,4004A,115.4202,38.8656,保定市,双鹰农机,细颗粒物(PM2.5),84,107,87,62,55,122,,59,59,34,37,9,6,0.7,0.5
2024-10-05T1200,4034A,115.5150,38.8590,保定市,植保所站,细颗粒物(PM2.5),94,118,92,70,58,96,,44,44,50,46,11,8,0.5,0.3
2024-10-05T1200,2594A,99.1678,25.1081,保山市,市环境监测站,,43,,18,30,9,26,,14,14,9,6,4,4,0.5,0.4
2024-10-05T1200,2595A,99.1711,25.1328,保山市,市环保局,,20,20,20,3,7,32,,22,22,6,5,6,6,0.5,0.5
2024-10-05T1200,1867A,109.1436,21.4086,北海市,海滩公园,颗粒物(PM10),54,58,61,22,28,143,,125,125,10,12,10,10,0.6,0.7
2024-10-05T1200,1868A,109.0981,21.4661,北海市,新市环保局,颗粒物(PM10),54,58,57,34,32,154,,114,114,11,13,9,9,0.8,0.8
2024-10-05T1200,1869A,109.1778,21.5233,北海市,北海工业园,颗粒物(PM10),55,60,56,32,32,149,,111,111,10,14,10,10,0.8,0.7
2024-10-05T1200,3400A,109.1911,21.4415,北海市,龙潭自来水厂,细颗粒物(PM2.5),54,56,58,38,37,139,,96,96,7,13,9,11,0.6,0.6
2024-10-05T1200,1001A,116.3621,39.8784,北京市,万寿西宫,细颗粒物(PM2.5),95,84,84,71,59,120,,49,49,16,34,4,4,0.6,0.7
2024-10-05T1200,1002A,116.2202,40.2915,北京市,定陵,细颗粒物(PM2.5),97,87,80,72,62,109,,56,56,19,18,2,3,0.6,0.6
2024-10-05T1200,1003A,116.4174,39.9289,北京市,东四,细颗粒物(PM2.5),98,115,99,73,60,110,,52,52,26,37,5,5,0.7,0.7
2024-10-05T1200,1004A,116.4072,39.8863,北京市,天坛,细颗粒物(PM2.5),98,100,80,73,58,114,,46,46,26,28,3,3,0.6,0.6
2024-10-05T1200,1005A,116.462,39.9365,北京市,农展馆,细颗粒物(PM2.5),103,108,87,77,55,91,,36,36,35,40,1,4,0.6,0.7
2024-10-05T1200,1006A,116.3392,39.9295,北京市,官园,细颗粒物(PM2.5),89,100,95,66,59,111,,48,48,20,35,3,3,0.7,0.7
2024-10-05T1200,1007A,116.2878,39.9611,北京市,海淀万柳,细颗粒物(PM2.5),88,96,96,65,60,103,,45,45,31,41,5,4,0.5,0.6
2024-10-05T1200,1008A,116.6636,40.135,北京市,顺义新城,细颗粒物(PM2.5),90,92,86,67,56,97,,37,37,27,34,5,3,0.4,0.5
2024-10-05T1200,1009A,116.6275,40.3275,北京市,怀柔镇,细颗粒物(PM2.5),72,76,77,52,56,118,,63,63,13,13,3,3,0.5,0.6
2024-10-05T1200,1010A,116.2296,40.217,北京市,昌平镇,细颗粒物(PM2.5),77,88,94,56,55,109,,65,65,20,25,6,5,0.5,0.6
2024-10-05T1200,1011A,116.3966,39.9821,北京市,奥体中心,细颗粒物(PM2.5),95,88,91,71,57,93,,43,43,30,46,4,4,0.6,0.7
2024-10-05T1200,1012A,116.184,39.9136,北京市,古城,细颗粒物(PM2.5),110,147,121,83,68,102,,53,53,30,47,5,4,0.8,0.8
2024-10-05T1200,3281A,115.9718,40.4529,北京市,延庆夏都,细颗粒物(PM2.5),95,100,86,71,59,110,,36,36,15,26,2,2,0.5,0.5
2024-10-05T1200,3417A,117.0709,40.1465,北京市,平谷新城,细颗粒物(PM2.5),77,86,79,56,51,118,,58,58,16,17,2,3,0.3,0.5
2024-10-05T1200,3418A,116.8336,40.4095,北京市,密云新城,细颗粒物(PM2.5),62,70,92,44,51,121,,60,60,14,22,3,2,0.4,0.5
2024-10-05T1200,3671A,116.088,39.9726,北京市,门头沟三家店,细颗粒物(PM2.5),85,98,93,63,59,96,,60,60,26,23,3,2,0.6,0.5
2024-10-05T1200,3672A,116.1541,39.8204,北京市,丰台云岗,细颗粒物(PM2.5),97,103,102,72,66,98,,48,48,28,38,6,5,0.6,0.5
2024-10-05T1200,3673A,116.6804,39.9081,北京市,通州东关,细颗粒物(PM2.5),123,150,107,93,62,85,,27,27,35,40,3,3,0.5,0.5
2024-10-05T1200,3674A,115.9577,39.7603,北京市,房山燕山,细颗粒物(PM2.5),97,92,77,72,56,121,,62,62,21,17,1,2,0.6,0.5
2024-10-05T1200,3675A,116.4672,39.7733,北京市,大兴旧宫,细颗粒物(PM2.5),109,117,80,82,51,99,,30,30,33,36,1,3,0.4,0.5
2024-10-05T1200,3694A,115.986,40.4563,北京市,延庆石河营,细颗粒物(PM2.5),100,101,83,75,56,108,,34,34,15,24,3,2,0.5,0.5
2024-10-05T1200,3695A,116.6151,40.3053,北京市,怀柔新城,细颗粒物(PM2.5),73,78,78,53,56,106,,69,69,17,17,3,3,0.5,0.5
2024-10-05T1200,3696A,116.2545,39.8768,北京市,丰台小屯,细颗粒物(PM2.5),90,95,92,67,58,108,,40,40,26,49,3,2,0.7,0.7
2024-10-05T1200,3697A,116.84,40.3844,北京市,密云镇,细颗粒物(PM2.5),78,75,75,57,50,121,,44,44,12,39,5,4,0.4,0.5
2024-10-05T1200,1761A,123.8275,41.3064,本溪市,大峪,,44,32,37,17,15,140,,68,68,10,27,12,10,0.7,0.6
2024-10-05T1200,1762A,123.7567,41.3325,本溪市,溪湖,,40,34,40,18,18,127,,83,83,19,24,18,11,1.2,0.9
2024-10-05T1200,1763A,123.7169,41.3094,本溪市,彩屯,,38,34,38,20,23,119,,68,68,24,27,18,12,1.5,1.2
2024-10-05T1200,1764A,123.7669,41.2864,本溪市,东明,,43,28,30,13,15,137,,77,77,13,24,7,7,0.8,0.8
2024-10-05T1200,1765A,123.7992,41.2664,本溪市,新立屯,,45,22,20,8,9,141,,122,122,12,21,8,6,0.5,0.4
2024-10-05T1200,1766A,123.8142,41.3472,本溪市,威宁,,45,34,46,15,19,143,,63,63,12,27,9,8,0.5,0.6
2024-10-05T1200,2587A,105.2864,27.3125,毕节市,八中,颗粒物(PM10),56,62,58,39,37,52,,54,50,21,12,12,8,0.5,0.4
2024-10-05T1200,2588A,105.31,27.2944,毕节市,师专,颗粒物(PM10),51,52,55,34,35,55,,58,53,17,10,21,12,0.5,0.5
2024-10-05T1200,3537A,105.3631,27.3533,毕节市,长征村,细颗粒物(PM2.5),83,81,66,61,48,62,,54,53,14,10,16,12,0.5,0.5
2024-10-05T1200,1629A,118.0018,37.3617,滨州市,第二水厂,臭氧1小时,60,63,89,24,48,168,,60,60,13,48,15,19,0.3,0.3
2024-10-05T1200,1630A,117.9776,37.393,滨州市,北中新校,臭氧1小时,78,63,84,19,46,182,,69,69,14,49,14,20,0.4,0.6
2024-10-05T1200,3514A,117.9378,37.3956,滨州市,中海酒店,臭氧1小时,79,48,83,39,49,183,,84,84,14,42,12,17,0.4,0.7
2024-10-05T1200,3515A,117.9378,37.3553,滨州市,开发区一中,臭氧1小时,78,75,94,36,50,182,,64,64,24,54,21,33,0.7,0.9
2024-10-05T1200,3516A,118.0917,37.694,滨州市,金海六路,,50,34,88,9,47,160,,73,73,13,48,6,10,0.3,0.6
2024-10-05T1200,4028A,117.9956,37.3753,滨州市,滨州市西街道办事处,臭氧1小时,84,56,86,39,57,187,,68,68,13,47,15,23,0.6,0.8
2024-10-05T1200,2311A,115.8072,33.8399,亳州市,污水处理厂,,36,25,50,8,20,115,,69,69,7,21,6,13,0.3,0.3
2024-10-05T1200,2312A,115.7789,33.8518,亳州市,三国揽胜宫,,34,29,51,11,27,108,,67,67,10,18,5,9,0.3,0.4
2024-10-05T1200,3332A,115.7633,33.8034,亳州市,亳州学院,,36,29,47,9,16,115,,79,79,8,16,3,5,0.3,0.3
2024-10-05T1200,2693A,82.0485,44.8556,博尔塔拉蒙古自治州,市党校,,43,43,39,14,15,78,,43,43,10,11,7,6,0.3,0.4
2024-10-05T1200,2694A,82.0806,44.8969,博尔塔拉蒙古自治州,市环保局,,42,42,50,13,16,76,,33,33,10,19,6,7,0.4,0.6
2024-10-05T1200,1071A,116.8842,38.2991,沧州市,沧县城建局,,50,50,73,18,44,139,,83,83,15,33,7,7,0.5,0.5
2024-10-05T1200,1072A,116.8584,38.3254,沧州市,电视转播站,颗粒物(PM10),51,52,73,27,47,145,,89,89,15,32,10,12,0.5,0.5
2024-10-05T1200,1073A,116.8709,38.3228,沧州市,市环保局,颗粒物(PM10),53,55,74,34,52,142,,81,81,18,34,6,8,0.4,0.4
2024-10-05T1200,3324A,116.8136,38.3004,沧州市,河北水利电力学院,颗粒物(PM10),60,70,88,30,52,142,,84,84,11,26,7,8,0.4,0.5
2024-10-05T1200,2622A,97.1806,31.1273,昌都市,昌都监测站,,24,24,11,3,4,33,,10,10,6,9,8,8,0.6,0.6
2024-10-05T1200,3719A,97.1714,31.1406,昌都市,昌都会议中心,,13,6,8,3,4,41,,16,16,5,8,8,8,0.5,0.5
2024-10-05T1200,2690A,88.1236,43.8886,昌吉回族自治州,天山天池,,,,18,,9,80,,62,62,1,4,8,8,0.4,0.5
2024-10-05T1200,2692A,87.2717,44.0297,昌吉回族自治州,新区政务中心,,50,50,45,14,19,73,,20,20,21,34,7,6,0.7,0.9
2024-10-05T1200,3613A,87.3095,44.0142,昌吉回族自治州,亚心广场,颗粒物(PM10),52,53,60,7,15,62,,18,18,31,45,5,5,0.7,0.9
2024-10-05T1200,1119A,125.3325,43.9166,长春市,食品厂,,48,48,44,20,21,147,,99,99,18,21,9,7,0.5,0.4
2024-10-05T1200,1120A,125.2863,43.9027,长春市,客车厂,,48,48,41,22,23,139,,100,100,16,18,10,9,0.6,0.5
2024-10-05T1200,1121A,125.2841,43.8463,长春市,邮电学院,,48,44,42,22,16,151,,103,103,15,17,10,8,0.5,0.4
2024-10-05T1200,1122A,125.3716,43.8772,长春市,劳动公园,,49,46,47,24,21,155,,106,106,16,19,11,8,0.5,0.4
2024-10-05T1200,1123A,125.3297,43.8805,长春市,园林处,颗粒物(PM10),51,52,42,28,20,151,,100,100,15,17,9,7,0.5,0.4
2024-10-05T1200,1124A,125.4605,43.79,长春市,净月潭,,45,28,31,18,19,142,,105,105,10,12,8,7,0.4,0.4
2024-10-05T1200,1126A,125.3863,43.8447,长春市,经开区环卫处,,46,42,41,18,18,146,,97,97,14,20,11,9,0.6,0.6
2024-10-05T1200,1127A,125.245,43.7783,长春市,高新区管委会,,,45,39,28,21,152,,106,106,12,13,,8,0.5,0.4
2024-10-05T1200,1128A,125.1761,43.8325,长春市,岱山公园,,46,43,41,29,22,147,,98,98,11,23,8,6,0.6,0.5
2024-10-05T1200,1335A,113.0833,28.2325,长沙市,经开区环保局,,48,48,49,22,28,139,,78,78,17,27,6,6,0.4,0.4
2024-10-05T1200,1336A,112.8872,28.2189,长沙市,高开区环保局,颗粒物(PM10),57,63,62,34,39,140,,77,77,13,26,8,6,0.3,0.3
2024-10-05T1200,1337A,113.0792,28.2053,长沙市,马坡岭,,50,50,50,28,31,150,,84,84,9,20,6,7,0.5,0.6
2024-10-05T1200,1338A,112.9394,28.19,长沙市,湖南师范大学,,50,50,58,33,36,141,,82,82,17,20,7,6,0.7,0.6
2024-10-05T1200,1339A,113.0178,28.1322,长沙市,雨花区环保局,颗粒物(PM10),54,57,50,28,24,144,,75,75,12,24,9,8,0.6,0.5
2024-10-05T1200,1340A,112.9792,28.2597,长沙市,伍家岭,颗粒物(PM10),59,68,61,26,32,132,,54,54,17,31,8,5,0.7,0.7
2024-10-05T1200,1341A,113.0014,28.1944,长沙市,火车新站,颗粒物(PM10),53,55,55,29,32,132,,68,68,17,26,9,6,0.4,0.5
2024-10-05T1200,1342A,112.9844,28.1178,长沙市,天心区环保局,,,,60,31,34,136,,48,48,16,35,7,6,0.7,0.7
2024-10-05T1200,1343A,112.8908,28.1308,长沙市,湖南中医药大学,颗粒物(PM10),57,64,63,30,37,155,,92,92,9,15,8,8,0.9,0.9
2024-10-05T1200,1344A,112.9581,28.3611,长沙市,沙坪,,45,36,36,31,30,134,,81,81,10,9,13,9,0.7,0.6
2024-10-05T1200,1727A,113.1147,36.1547,长治市,清华站,颗粒物(PM10),54,58,44,29,26,126,,88,87,27,21,9,9,0.7,0.6
2024-10-05T1200,1728A,113.1031,36.1989,长治市,监测站,,,,42,36,31,121,,81,78,28,24,12,11,0.7,0.6
2024-10-05T1200,1730A,113.0886,36.2125,长治市,审计局,颗粒物(PM10),52,53,46,34,32,122,,92,80,19,21,9,8,0.4,0.3
2024-10-05T1200,1731A,113.0844,36.1856,长治市,长治八中,颗粒物(PM10),61,71,59,31,25,117,,93,76,30,23,10,9,0.7,0.6
2024-10-05T1200,2845A,113.1569,36.1911,长治市,德盛苑,颗粒物(PM10),55,59,41,34,28,118,,126,109,26,17,6,6,0.7,0.6
2024-10-05T1200,3568A,113.06,36.0464,长治市,向阳小学,颗粒物(PM10),61,72,58,33,35,119,,101,101,32,23,8,7,0.5,0.4
2024-10-05T1200,3569A,112.8792,36.3144,长治市,屯留一中,"颗粒物(PM10),细颗粒物(PM2.5)",62,74,59,44,41,120,,54,54,34,27,31,13,1.3,1.2
2024-10-05T1200,3570A,113.235,36.3489,长治市,潞城四中,细颗粒物(PM2.5),79,97,69,58,40,132,,75,75,36,36,38,8,2.0,0.6
2024-10-05T1200,1854A,111.6975,28.9703,常德市,市二中,细颗粒物(PM2.5),63,60,94,45,71,150,,71,71,12,27,13,13,0.8,0.8
2024-10-05T1200,3138A,111.7153,29.0289,常德市,武陵区永安,"颗粒物(PM10),细颗粒物(PM2.5)",57,64,82,40,58,145,,90,90,13,19,13,15,0.9,0.9
2024-10-05T1200,3139A,111.6892,28.9881,常德市,鼎城区玉霞,细颗粒物(PM2.5),57,60,102,40,68,160,,80,80,11,26,14,15,0.7,0.8
2024-10-05T1200,3140A,111.6625,29.0531,常德市,武陵区长庚,颗粒物(PM10),57,64,85,39,59,157,,93,93,14,21,12,12,0.6,0.6
2024-10-05T1200,1196A,119.9633,31.762,常州市,市监测站,颗粒物(PM10),54,57,38,27,20,91,,70,70,15,16,8,9,0.5,0.5
2024-10-05T1200,1200A,119.9468,31.7069,常州市,武进监测站,,41,41,28,22,15,84,,72,72,17,14,13,12,0.8,0.7
2024-10-05T1200,1201A,119.9255,31.9087,常州市,安家,,30,26,35,18,19,94,,72,72,14,19,7,7,0.3,0.3
2024-10-05T1200,3002A,119.9805,31.8174,常州市,行政中心,颗粒物(PM10),51,51,38,29,22,90,,67,67,14,18,6,6,0.2,0.2
2024-10-05T1200,3003A,120.0522,31.7748,常州市,经开区,,44,44,40,19,20,95,,60,60,17,32,7,8,0.1,0.2
2024-10-05T1200,3010A,119.9025,31.7964,常州市,钟楼,,34,34,33,17,21,86,,72,68,17,18,9,9,0.5,0.5
2024-10-05T1200,3429A,119.8598,31.7066,常州市,武进经发区,,41,41,37,24,18,81,,66,65,20,20,7,7,0.5,0.5
2024-10-05T1200,3430A,119.5826,31.7245,常州市,金坛城区,,31,20,31,9,18,99,,78,78,6,12,8,9,0.5,0.6
2024-10-05T1200,2220A,120.4318,41.5881,朝阳市,西梁,细颗粒物(PM2.5),54,46,50,38,37,139,,94,94,15,20,13,9,1.0,0.9
2024-10-05T1200,2221A,120.4521,41.5646,朝阳市,河畔小区,细颗粒物(PM2.5),58,60,49,41,33,146,,106,106,18,17,18,11,0.9,0.6
2024-10-05T1200,2222A,120.4176,41.5648,朝阳市,八里堡,细颗粒物(PM2.5),54,51,56,38,35,142,,88,88,25,29,20,12,1.3,0.9
2024-10-05T1200,2223A,120.3806,41.5969,朝阳市,农业园区,细颗粒物(PM2.5),59,56,44,42,42,147,,106,106,11,13,10,9,0.7,0.7
2024-10-05T1200,1705A,116.6367,23.6719,潮州市,西园路,,24,24,22,16,18,63,,46,46,10,11,3,2,0.3,0.4
2024-10-05T1200,3026A,116.6183,23.6608,潮州市,市政府,,22,22,22,8,12,69,,53,53,5,8,6,6,0.5,0.5
2024-10-05T1200,4036A,116.6461,23.6761,潮州市,金山,,27,27,20,12,17,68,,53,53,5,7,7,7,0.5,0.5
2024-10-05T1200,2472A,113.0073,25.9061,郴州市,马头岭,颗粒物(PM10),52,53,51,21,20,126,,63,63,11,14,12,11,0.6,0.7
2024-10-05T1200,2473A,113.0116,25.8226,郴州市,市职中,,49,49,50,32,37,140,,67,67,10,18,10,8,0.6,0.6
2024-10-05T1200,2474A,113.0161,25.8001,郴州市,兴隆步行街,,46,46,54,26,34,144,,72,72,12,19,9,8,0.3,0.4
2024-10-05T1200,2475A,113.0383,25.8071,郴州市,市审计局,,45,45,52,28,36,140,,66,66,5,13,7,7,0.4,0.6
2024-10-05T1200,2476A,113.0348,25.7759,郴州市,市环保局,颗粒物(PM10),53,55,59,24,36,132,,51,51,12,25,14,11,0.5,0.6
2024-10-05T1200,1431A,103.9728,30.7236,成都市,金泉两河,,22,22,24,12,8,54,,46,38,26,15,3,3,0.4,0.3
2024-10-05T1200,1432A,104.176,30.6872,成都市,十里店,,29,29,27,10,18,50,,52,50,24,17,2,1,0.6,0.6
2024-10-05T1200,1433A,104.079,30.5706,成都市,三瓦窑,,34,34,31,12,18,70,,35,35,20,27,3,3,0.5,0.5
2024-10-05T1200,1434A,104.1114,30.63,成都市,沙河铺,,38,32,36,26,18,51,,50,48,26,20,3,2,0.6,0.5
2024-10-05T1200,1437A,104.0786,30.6531,成都市,君平街,,28,28,30,16,19,66,,47,44,27,23,4,4,0.5,0.5
2024-10-05T1200,2880A,104.0239,30.65639,成都市,大石西路,,36,36,33,19,16,54,,48,42,24,16,2,2,0.4,0.4
2024-10-05T1200,3136A,104.2725,30.5589,成都市,龙泉驿区区政府,,34,34,25,19,17,52,,52,52,27,22,2,1,0.6,0.4
2024-10-05T1200,3357A,104.0106,30.6931,成都市,金博路,,14,13,23,9,12,42,,37,33,28,18,1,2,0.6,0.5
2024-10-05T1200,3359A,104.0578,30.5225,成都市,华阳,,39,31,30,27,21,36,,43,35,24,18,3,3,0.7,0.6
2024-10-05T1200,3487A,104.2394,30.5319,成都市,车城东七路,,36,36,33,22,21,50,,52,51,23,19,2,2,0.5,0.5
2024-10-05T1200,3488A,104.3853,30.7453,成都市,青白江技师分院,,26,20,29,18,21,53,,37,37,14,19,2,2,0.7,0.7
2024-10-05T1200,3489A,104.0789,30.4072,成都市,科学城,,38,33,33,26,24,50,,47,44,16,16,4,4,0.5,0.5
2024-10-05T1200,4011A,103.8506,30.6947,成都市,光华大道三段,,32,32,30,17,13,55,,49,40,20,12,3,6,0.6,0.6
2024-10-05T1200,1062A,117.9531,40.9081,承德市,铁路,颗粒物(PM10),59,67,62,35,35,120,,37,37,31,30,15,10,0.5,0.5
2024-10-05T1200,1063A,117.9392,40.9763,承德市,中国银行,,,,59,,29,145,,45,45,,25,13,7,0.6,0.6
2024-10-05T1200,1064A,117.9503,40.928,承德市,开发区,颗粒物(PM10),65,79,71,41,36,132,,41,41,27,27,19,8,0.6,0.5
2024-10-05T1200,1065A,117.8051,40.9655,承德市,文化中心,颗粒物(PM10),70,89,77,41,38,108,,31,31,36,36,31,13,1.6,0.8
2024-10-05T1200,1066A,117.9268,41.0026,承德市,离宫,"颗粒物(PM10),细颗粒物(PM2.5)",62,74,64,44,45,113,,37,37,12,13,8,5,0.6,0.5
2024-10-05T1200,2314A,117.47,30.6618,池州市,池州学院,,33,21,36,13,23,104,,69,69,8,15,6,7,0.4,0.5
2024-10-05T1200,3237A,117.4918,30.6617,池州市,展览馆,,32,22,38,11,22,102,,68,68,6,12,5,6,0.3,0.5
2024-10-05T1200,3333A,117.5627,30.695,池州市,第八中学,,31,21,35,10,20,97,,64,64,6,12,4,5,0.4,0.6
2024-10-05T1200,3334A,117.5038,30.6243,池州市,第十二中学,,31,26,36,18,26,97,,65,65,11,17,5,6,0.6,0.6
2024-10-05T1200,1744A,118.9233,42.2816,赤峰市,松山一中,颗粒物(PM10),54,57,51,30,27,122,,126,118,22,22,11,11,0.5,0.5
2024-10-05T1200,1745A,118.9576,42.2728,赤峰市,哈达街,颗粒物(PM10),60,70,59,32,27,130,,124,117,14,16,9,9,0.5,0.6
2024-10-05T1200,1746A,118.8788,42.2554,赤峰市,天义路,颗粒物(PM10),59,68,48,33,30,120,,119,115,24,19,8,8,0.4,0.4
2024-10-05T1200,3058A,119.2658,42.0353,赤峰市,银河街,颗粒物(PM10),67,84,68,38,35,135,,58,58,19,22,19,18,0.6,0.6
2024-10-05T1200,3286A,118.9359,42.3147,赤峰市,桥北物流园区,颗粒物(PM10),57,64,55,31,34,127,,114,109,26,33,11,10,0.2,0.2
2024-10-05T1200,2521A,107.3476,22.4136,崇左市,市环保局江州分局,颗粒物(PM10),56,62,61,26,27,136,,70,70,7,11,7,5,0.5,0.6
2024-10-05T1200,2522A,107.3702,22.3707,崇左市,城南新区,颗粒物(PM10),53,56,49,27,28,152,,75,75,9,16,7,5,0.5,0.5
2024-10-05T1200,2298A,118.3093,32.3153,滁州市,老年大学,,35,22,27,12,15,110,,72,72,11,16,7,7,0.3,0.3
2024-10-05T1200,2299A,118.3244,32.2786,滁州市,人大宾馆,,36,24,29,12,15,114,,74,74,14,20,8,7,0.3,0.2
2024-10-05T1200,3207A,118.3118,32.3038,滁州市,市政府原办公楼,,35,25,26,15,18,112,,75,75,9,16,7,6,0.3,0.3
2024-10-05T1200,3331A,118.3267,32.2634,滁州市,图书馆,,36,24,28,10,13,114,,76,76,12,16,7,5,0.4,0.3
2024-10-05T1200,2605A,101.5482,25.0441,楚雄彝族自治州,州环境监测站,,14,6,7,3,5,43,,39,39,3,4,6,6,0.5,0.6
2024-10-05T1200,2606A,101.538,25.0492,楚雄彝族自治州,市经济开发区,,14,,10,3,6,42,,38,37,3,5,5,5,0.7,0.7
2024-10-05T1200,2548A,107.5277,31.2827,达州市,达州职业技术学院,颗粒物(PM10),52,54,44,33,24,38,,15,15,26,33,11,5,0.7,0.7
2024-10-05T1200,2549A,107.5086,31.2186,达州市,市环境监测站,颗粒物(PM10),55,60,47,29,21,43,,20,20,28,30,10,6,0.5,0.4
2024-10-05T1200,2550A,107.4988,31.2132,达州市,凤凰小区,颗粒物(PM10),53,56,41,29,21,53,,28,28,27,29,12,7,0.6,0.4
2024-10-05T1200,2551A,107.5082,31.1986,达州市,达县机关宾馆,颗粒物(PM10),51,51,46,35,27,50,,19,19,26,40,9,5,0.5,0.4
2024-10-05T1200,2552A,107.4644,31.2124,达州市,市政中心,颗粒物(PM10),52,53,48,31,23,56,,26,26,25,31,10,5,0.6,0.5
2024-10-05T1200,2614A,100.1542,25.7054,大理白族自治州,大理市环境监测站,,18,18,12,12,8,36,,36,36,4,5,6,6,0.6,0.6
2024-10-05T1200,2615A,100.2171,25.5811,大理白族自治州,大理古城,,20,18,12,14,7,42,,29,29,6,9,7,7,0.5,0.5
2024-10-05T1200,1109A,121.612,38.9741,大连市,甘井子,,47,32,32,18,16,149,,111,111,16,21,10,9,0.7,0.7
2024-10-05T1200,1110A,121.565,38.9511,大连市,周水子,,,41,34,16,20,148,,93,93,15,36,,11,0.5,0.6
2024-10-05T1200,1111A,121.5637,38.8845,大连市,星海三站,,49,27,27,16,17,154,,114,114,8,14,9,9,0.3,0.4
2024-10-05T1200,1112A,121.6302,38.9117,大连市,青泥洼桥,,47,27,22,16,12,150,,115,115,11,13,9,9,0.4,0.4
2024-10-05T1200,1113A,121.6251,38.8638,大连市,傅家庄,,48,30,22,17,12,152,,119,119,9,9,9,9,0.5,0.5
2024-10-05T1200,1114A,121.5213,38.8661,大连市,七贤岭,臭氧1小时,52,21,26,17,16,161,,86,86,11,18,8,8,0.5,0.6
2024-10-05T1200,1115A,121.2529,38.8061,大连市,旅顺,,47,31,32,18,18,150,,114,112,19,19,10,9,0.5,0.5
2024-10-05T1200,1116A,121.7485,39.1311,大连市,金州,,50,31,25,22,18,158,,102,102,16,19,8,7,0.6,0.5
2024-10-05T1200,1117A,121.7811,39.0496,大连市,开发区,,49,33,30,19,19,155,,78,78,11,24,10,13,0.4,0.5
2024-10-05T1200,1118A,121.9762,39.0631,大连市,双D港,臭氧1小时,54,28,18,19,10,163,,111,111,17,17,10,8,0.6,0.6
2024-10-05T1200,1789A,124.81117,46.03138,大庆市,大同区,,40,36,54,28,28,78,,86,79,7,11,4,4,0.4,0.5
2024-10-05T1200,1790A,125.129,46.533,大庆市,龙凤区,颗粒物(PM10),51,51,53,19,26,71,,94,78,10,18,3,5,0.3,0.5
2024-10-05T1200,1791A,124.902,46.408,大庆市,红岗区,,36,36,49,15,18,77,,94,83,8,13,7,7,0.4,0.5
2024-10-05T1200,1792A,125.153,46.586,大庆市,萨尔图区,,28,22,54,19,20,66,,97,80,12,14,6,7,0.3,0.4
2024-10-05T1200,1793A,124.9042,46.6215,大庆市,让胡路区,,,,50,19,26,72,,96,79,6,11,4,6,,0.5
2024-10-05T1200,3481A,125.141,46.634,大庆市,萨区政府监测点,,36,36,43,3,23,71,,101,83,7,13,5,7,0.2,0.4
2024-10-05T1200,1721A,113.3819,40.1097,大同市,果树场,颗粒物(PM10),63,75,65,34,34,92,,39,39,29,28,13,9,0.8,0.8
2024-10-05T1200,1723A,113.2994,40.0758,大同市,云冈宾馆,颗粒物(PM10),72,93,66,29,26,87,,37,37,40,38,15,12,0.7,0.8
2024-10-05T1200,1724A,113.3444,40.0917,大同市,大同大学,颗粒物(PM10),57,63,64,29,27,94,,39,39,31,40,18,15,0.8,0.8
2024-10-05T1200,1725A,113.2661,40.1269,大同市,安家小村,颗粒物(PM10),64,78,68,27,24,94,,46,46,33,34,20,16,0.7,0.7
2024-10-05T1200,1726A,113.2711,40.0844,大同市,教育学院,颗粒物(PM10),68,85,77,32,29,78,,36,36,45,44,17,14,0.7,1
2024-10-05T1200,3282A,113.3397,40.0597,大同市,大同市卫生学校,颗粒物(PM10),59,68,77,26,31,94,,39,39,30,43,14,11,0.8,0.7
2024-10-05T1200,3565A,113.1367,40.1122,大同市,云冈站,颗粒物(PM10),65,79,72,32,28,113,,46,46,16,29,15,13,0.5,0.5
2024-10-05T1200,3566A,113.1186,40.2556,大同市,图书馆,颗粒物(PM10),51,52,78,23,28,107,,35,35,16,28,18,14,0.6,0.6
2024-10-05T1200,3567A,113.5931,40.0461,大同市,区一中,颗粒物(PM10),51,51,53,18,16,108,,67,67,26,22,16,12,0.6,0.6
2024-10-05T1200,3676A,113.2802,40.0995,大同市,第二人民医院,颗粒物(PM10),64,77,76,29,28,92,,44,44,36,38,20,17,0.8,1
2024-10-05T1200,2269A,124.1069,50.4097,大兴安岭地区,科技局,,21,13,23,13,17,67,,64,64,3,7,7,8,0.3,0.3
2024-10-05T1200,3663A,124.1164,50.4278,大兴安岭地区,红旗社区,,20,6,13,3,6,64,,65,65,2,4,3,3,0.3,0.3
2024-10-05T1200,1600A,124.3303,40.0625,丹东市,江湾东路,,39,39,44,16,28,94,,41,41,6,24,9,9,0.5,0.7
2024-10-05T1200,1601A,124.4256,40.1503,丹东市,临江后街,,48,48,49,28,26,97,,47,47,12,16,8,7,1.0,0.9
2024-10-05T1200,1602A,124.3933,40.1461,丹东市,元宝山,,37,37,37,18,20,90,,34,34,12,14,7,5,0.8,0.8
2024-10-05T1200,1603A,124.3633,40.1092,丹东市,民主桥,,,39,38,18,21,93,,35,35,10,24,,6,,0.6
2024-10-05T1200,3541A,109.5726,19.5167,儋州市,第一中学子站,,42,28,46,17,26,134,,96,94,3,8,6,7,0.6,0.6
2024-10-05T1200,3542A,109.5567,19.5187,儋州市,东坡学校子站,,44,30,45,16,25,139,,99,99,4,8,7,7,0.6,0.7
2024-10-05T1200,2616A,98.5842,24.428,德宏傣族景颇族自治州,德宏州监测站,,13,12,21,9,9,31,,19,19,12,15,14,14,0.4,0.4
2024-10-05T1200,3677A,98.5881,24.4368,德宏傣族景颇族自治州,芒市人民政府综合楼,,14,14,19,6,9,32,,21,21,11,14,10,11,0.5,0.5
2024-10-05T1200,1901A,104.4239,31.1208,德阳市,东山公园,,35,35,33,13,18,52,,34,34,26,20,2,2,0.5,0.5
2024-10-05T1200,1902A,104.3826,31.1317,德阳市,西小区,,47,47,41,28,24,65,,43,43,26,22,1,2,0.5,0.5
2024-10-05T1200,1904A,104.3553,31.1091,德阳市,耐火材料厂,,40,40,38,16,19,72,,42,42,17,18,3,3,0.2,0.3
2024-10-05T1200,3639A,104.4019,31.1244,德阳市,市教育局,,41,41,39,20,21,63,,39,39,25,22,2,2,0.4,0.4
2024-10-05T1200,1622A,116.3032,37.4674,德州市,儿童乐园,颗粒物(PM10),54,58,84,24,41,143,,101,101,15,29,11,13,0.6,0.5
2024-10-05T1200,1624A,116.2991,37.4451,德州市,监理站,颗粒物(PM10),52,53,79,27,42,148,,97,97,14,31,9,11,0.4,0.5
2024-10-05T1200,3066A,116.2721,37.4379,德州市,九衢泉纯净水厂,颗粒物(PM10),51,51,88,24,41,138,,82,82,16,40,10,12,0.5,0.6
2024-10-05T1200,3371A,116.3728,37.4403,德州市,开发区人民医院,颗粒物(PM10),54,58,84,24,39,144,,89,89,12,32,11,14,0.5,0.6
2024-10-05T1200,3372A,116.3572,37.4094,德州市,太阳城中学,颗粒物(PM10),56,61,89,22,41,144,,76,76,17,47,11,12,0.5,0.6
2024-10-05T1200,3511A,116.5652,37.3319,德州市,陵城艺术中心,颗粒物(PM10),54,58,77,24,41,139,,88,88,21,42,13,12,0.6,0.6
2024-10-05T1200,2621A,99.7056,27.8317,迪庆藏族自治州,迪庆州站,,16,,14,11,9,37,,40,35,11,10,9,9,0.5,0.4
2024-10-05T1200,3180A,99.7136,27.8094,迪庆藏族自治州,质量技术监督局,,13,11,14,6,7,39,,46,38,9,8,6,6,0.5,0.5
2024-10-05T1200,2663A,104.6241,35.5734,定西市,东关小学,,36,36,33,22,26,57,,55,48,12,9,6,6,0.3,0.2
2024-10-05T1200,2664A,104.6194,35.5934,定西市,供电公司,,38,38,33,20,19,57,,49,38,10,10,7,7,0.4,0.4
2024-10-05T1200,1389A,113.7547,23.0494,东莞市,莞城梨川,,38,32,35,20,19,121,,90,90,11,16,8,8,0.6,0.6
2024-10-05T1200,1390A,113.7944,23.0128,东莞市,东城石井,,40,36,33,21,18,125,,92,92,13,15,10,7,0.7,0.7
2024-10-05T1200,1391A,113.7383,22.9658,东莞市,南城西平,,41,41,36,24,18,127,,91,91,14,22,3,3,0.7,0.8
2024-10-05T1200,3319A,113.7338,23.0381,东莞市,万江金泰,,38,33,35,19,19,119,,85,85,10,15,6,6,0.5,0.5
2024-10-05T1200,3626A,113.7533,23.0202,东莞市,南城元岭,,40,39,34,24,18,128,,93,93,10,12,10,8,0.6,0.6
2024-10-05T1200,3627A,113.7875,23.0457,东莞市,东城主山,,42,39,37,21,19,132,,93,93,18,19,9,8,0.5,0.5
2024-10-05T1200,1666A,118.6614,37.4309,东营市,市环保局,臭氧1小时,95,70,80,39,43,196,,80,80,20,37,13,11,0.7,0.7
2024-10-05T1200,3036A,118.6904,37.4338,东营市,开发区管委会,臭氧1小时,85,89,84,41,46,188,,78,78,23,36,11,10,0.5,0.4
2024-10-05T1200,3365A,118.5719,37.565,东营市,垦利区民丰路,臭氧1小时,82,68,78,41,44,185,,65,65,24,57,11,16,0.6,0.5
2024-10-05T1200,3498A,118.5055,37.8612,东营市,河口城区,颗粒物(PM10),53,56,87,27,49,157,,69,69,18,37,9,10,0.3,0.4
2024-10-05T1200,3646A,118.4978,37.4623,东营市,胜利站,臭氧1小时,94,89,88,34,47,195,,67,67,20,52,18,26,0.5,0.7
2024-10-05T1200,3734A,118.35,37.26,东营市,理想之城,臭氧1小时,89,78,79,48,47,191,,72,72,25,43,16,9,0.7,0.5
2024-10-05T1200,1591A,110.0023,39.8129,鄂尔多斯市,综合楼,颗粒物(PM10),62,73,58,17,16,92,,59,59,22,28,6,13,1.5,0.7
2024-10-05T1200,1592A,109.9486,39.8261,鄂尔多斯市,巴音孟克林场办事处,颗粒物(PM10),54,58,52,24,20,84,,56,56,23,27,12,10,0.7,0.6
2024-10-05T1200,1593A,109.7736,39.5986,鄂尔多斯市,康泽苑,颗粒物(PM10),51,51,42,17,18,92,,33,33,19,26,9,7,0.6,0.6
2024-10-05T1200,1594A,109.8119,39.5989,鄂尔多斯市,华泰汽车城,,48,48,42,22,21,90,,26,26,17,30,14,10,0.7,0.5
2024-10-05T1200,1595A,109.9734,39.7884,鄂尔多斯市,奥林花园,颗粒物(PM10),54,58,54,31,22,84,,39,39,22,32,12,6,0.7,0.7
2024-10-05T1200,2436A,114.8938,30.3994,鄂州市,市政府,,39,30,37,14,22,123,,90,90,18,24,12,12,0.6,0.7
2024-10-05T1200,2437A,114.8989,30.3714,鄂州市,赵家坝,,41,36,44,9,21,129,,81,81,13,26,12,13,0.5,0.6
2024-10-05T1200,3654A,114.8094,30.4089,鄂州市,精准医疗中心,,42,40,38,18,20,133,,106,106,15,16,12,6,0.6,0.6
2024-10-05T1200,2454A,109.4978,30.2981,恩施土家族苗族自治州,湖北民院,细颗粒物(PM2.5),52,48,46,36,35,45,,30,27,24,23,10,10,0.7,0.6
2024-10-05T1200,2455A,109.4707,30.2798,恩施土家族苗族自治州,州电力总公司,颗粒物(PM10),53,56,46,35,32,43,,26,26,24,25,7,7,0.8,0.8
2024-10-05T1200,3549A,109.5061,30.3772,恩施土家族苗族自治州,龙凤新区,,44,44,47,30,33,30,,21,20,32,23,6,6,0.8,0.8
2024-10-05T1200,2499A,108.3411,21.6158,防城港市,沙万,颗粒物(PM10),54,58,54,27,27,139,,124,124,13,14,12,11,0.7,0.6
2024-10-05T1200,2500A,108.3514,21.7731,防城港市,防城档案局,颗粒物(PM10),57,64,100,36,38,132,,105,105,15,29,12,11,0.6,0.6
2024-10-05T1200,2501A,108.3506,21.6414,防城港市,大海花园,颗粒物(PM10),51,51,55,27,29,137,,117,117,10,13,9,9,0.9,0.9
2024-10-05T1200,1371A,113.1294,23.0067,佛山市,湾梁,,44,44,37,19,20,130,,99,99,26,26,10,10,0.6,0.6
2024-10-05T1200,1372A,113.1083,23.0478,佛山市,华材职中,,41,39,44,22,24,129,,89,89,23,33,11,10,0.6,0.6
2024-10-05T1200,1373A,113.144,23.0453,佛山市,南海气象局,,44,44,36,20,22,129,,96,96,22,25,10,10,0.7,0.6
2024-10-05T1200,1374A,113.2881,22.8094,佛山市,顺德苏岗,,39,23,31,17,16,124,,93,93,15,20,9,9,0.6,0.7
2024-10-05T1200,1376A,112.8383,22.8678,佛山市,高明孔堂,,44,39,46,25,28,139,,93,93,17,25,9,10,0.6,0.6
2024-10-05T1200,1377A,112.8836,23.1588,佛山市,三水监测站,,41,39,43,25,26,129,,87,87,17,29,7,10,0.4,0.5
2024-10-05T1200,1378A,112.867,23.185,佛山市,三水云东海,,40,28,35,20,24,127,,76,76,17,29,10,11,0.5,0.6
2024-10-05T1200,3625A,113.2544,22.7642,佛山市,容桂街道办,,42,31,29,17,19,132,,92,92,17,20,8,8,0.7,0.7
2024-10-05T1200,1282A,119.2681,26.0504,福州市,师大,,17,13,8,3,3,52,,48,48,8,7,2,2,0.3,0.3
2024-10-05T1200,1283A,119.2984,26.1028,福州市,五四北路,,17,12,11,7,2,52,,41,41,11,12,3,3,0.4,0.3
2024-10-05T1200,1284A,119.2648,26.0768,福州市,杨桥西路,,17,7,11,6,3,52,,50,50,9,9,3,3,0.4,0.4
2024-10-05T1200,1285A,119.317,26.0746,福州市,紫阳,,16,16,12,9,5,45,,41,41,16,12,6,6,0.5,0.5
2024-10-05T1200,3048A,119.5799,26.0936,福州市,九龙,,17,7,11,3,0,52,,49,49,7,4,6,6,0.4,0.4
2024-10-05T1200,3526A,119.5189,25.9664,福州市,吴航,,15,12,10,10,8,41,,33,33,16,15,6,6,0.6,0.5
2024-10-05T1200,1755A,123.7977,41.8491,抚顺市,望花区,,50,50,57,30,26,149,,73,73,18,27,11,9,0.5,0.7
2024-10-05T1200,1756A,123.9161,41.8822,抚顺市,顺城区,颗粒物(PM10),51,52,48,30,23,153,,76,76,16,30,10,9,0.6,0.6
2024-10-05T1200,1757A,124.0436,41.8611,抚顺市,东洲区,细颗粒物(PM2.5),52,50,37,36,22,144,,92,92,10,17,10,9,0.6,0.6
2024-10-05T1200,1758A,123.9247,41.8642,抚顺市,新抚区,颗粒物(PM10),51,51,52,29,23,156,,66,66,14,26,9,6,0.6,0.6
2024-10-05T1200,1759A,124.0972,41.8961,抚顺市,大伙房水库,,49,47,31,33,18,154,,100,100,10,10,11,8,0.6,0.5
2024-10-05T1200,1760A,123.7086,41.8391,抚顺市,沈抚新城,"颗粒物(PM10),臭氧1小时",54,58,49,30,22,163,,106,106,16,24,16,12,0.4,0.4
2024-10-05T1200,2376A,116.2127,28.0814,抚州市,桐源党溪,颗粒物(PM10),51,52,43,21,20,132,,76,76,3,6,6,6,0.7,0.7
2024-10-05T1200,2377A,116.3544,27.9831,抚州市,市站,,36,36,37,17,18,109,,72,72,7,9,6,4,0.5,0.7
2024-10-05T1200,2378A,116.3565,27.963,抚州市,血防站,,39,35,37,18,17,124,,82,82,10,12,2,4,0.5,0.6
2024-10-05T1200,2379A,116.3564,28.0007,抚州市,采茶剧团,,38,38,38,20,19,117,,73,73,4,6,6,5,0.6,0.6
2024-10-05T1200,2380A,116.385,27.9647,抚州市,医学分院,,43,43,41,19,18,128,,90,90,6,9,5,5,0.7,0.6
2024-10-05T1200,2207A,121.6094,41.998,阜新市,工业园区,颗粒物(PM10),55,60,67,35,33,160,,67,67,20,28,23,18,0.9,1
2024-10-05T1200,2208A,121.6697,42.0279,阜新市,长青街,颗粒物(PM10),62,74,74,34,36,166,,83,83,20,21,22,18,0.7,0.8
2024-10-05T1200,2209A,121.6673,42.0705,阜新市,农业园区,细颗粒物(PM2.5),153,,71,117,70,149,,101,101,24,22,22,19,0.8,0.8
2024-10-05T1200,2210A,121.6717,42.0224,阜新市,东苑,颗粒物(PM10),60,70,61,31,32,156,,85,85,28,31,29,24,0.9,0.9
2024-10-05T1200,2211A,121.6506,42.0498,阜新市,玉龙新城,颗粒物(PM10),60,69,65,35,35,166,,65,65,22,26,25,15,0.7,0.7
2024-10-05T1200,2301A,115.8277,32.8929,阜阳市,市监测站,,35,30,42,16,21,112,,73,73,8,15,12,7,0.4,0.3
2024-10-05T1200,2303A,115.8554,32.8605,阜阳市,开发区,,47,47,63,17,24,111,,68,68,12,20,9,8,0.4,0.4
2024-10-05T1200,2875A,115.784,32.8892,阜阳市,阜阳职业技术学院,,35,33,42,22,20,111,,75,75,10,17,8,8,0.3,0.3
2024-10-05T1200,3468A,115.7901,32.8613,阜阳市,市规划展馆,,36,23,39,14,19,115,,78,78,12,18,7,9,0.5,0.4
2024-10-05T1200,3469A,115.836,32.9183,阜阳市,枣园社区,,40,40,41,16,20,110,,69,69,10,18,15,9,0.5,0.4
2024-10-05T1200,2669A,102.9099,34.9841,甘南藏族自治州,州政府,,29,25,27,20,16,82,,37,37,8,22,10,11,0.4,0.5
2024-10-05T1200,3380A,102.8914,34.9617,甘南藏族自治州,甘肃民族师范学院,,26,13,52,3,22,82,,25,25,12,29,4,6,0.4,0.6
2024-10-05T1200,2570A,101.9603,30.0475,甘孜藏族自治州,水桥子,,10,9,5,6,5,31,,23,23,7,13,6,6,0.4,0.4
2024-10-05T1200,3065A,101.9533,29.9972,甘孜藏族自治州,州环保局,,11,8,6,3,5,34,,27,27,7,16,3,3,0.3,0.3
2024-10-05T1200,3414A,115.8347,28.932,赣江新区,桑海产业园,,37,27,39,11,20,117,,87,87,19,20,11,12,0.4,0.5
2024-10-05T1200,2362A,114.9017,25.9149,赣州市,通天岩,,45,37,31,26,23,143,,109,109,10,8,23,18,0.3,0.4
2024-10-05T1200,2363A,114.9367,25.8664,赣州市,地委,,38,28,31,21,21,120,,101,101,9,11,5,3,1.1,1
2024-10-05T1200,2364A,114.9461,25.8481,赣州市,气象台,,40,36,33,18,21,125,,101,101,8,8,5,4,0.5,0.6
2024-10-05T1200,2365A,114.9322,25.8333,赣州市,市图书馆,,42,30,32,18,17,133,,114,114,6,8,4,6,0.6,0.6
2024-10-05T1200,2366A,114.8905,25.8471,赣州市,华坚鞋城,,39,27,32,24,18,122,,103,103,8,8,6,6,0.4,0.4
2024-10-05T1200,3109A,115.0093,25.8613,赣州市,赣县区卫计委,,50,50,34,23,19,121,,94,94,11,15,10,7,0.5,0.6
2024-10-05T1200,2683A,106.2319,36.1417,固原市,马园,,21,13,28,10,13,66,,23,23,14,21,6,6,0.6,0.6
2024-10-05T1200,2684A,106.2792,36.0022,固原市,监测站,,28,28,24,18,15,64,,25,25,13,22,6,6,0.4,0.5
2024-10-05T1200,2685A,106.2375,36.0211,固原市,新区,,24,24,24,13,13,66,,27,27,8,22,4,5,0.4,0.4
2024-10-05T1200,3522A,106.2177,35.9959,固原市,原州区十五小,,,26,21,16,13,61,,41,39,,15,4,4,0.5,0.6
2024-10-05T1200,2544A,106.6303,30.4576,广安市,市委,细颗粒物(PM2.5),72,77,68,52,40,71,,50,50,29,24,7,7,0.5,0.4
2024-10-05T1200,2545A,106.6271,30.4663,广安市,友谊中学,细颗粒物(PM2.5),75,69,52,55,37,65,,42,42,30,25,10,8,0.7,0.6
2024-10-05T1200,2547A,106.6388,30.4551,广安市,广电花园,细颗粒物(PM2.5),68,65,59,49,42,71,,48,48,26,23,11,9,0.6,0.6
2024-10-05T1200,2902A,106.6351,30.4865,广安市,北辰小学,"颗粒物(PM10),细颗粒物(PM2.5)",65,80,57,47,34,80,,37,36,25,21,18,10,0.6,0.5
2024-10-05T1200,2523A,105.8945,32.4535,广元市,黑石坡,,26,26,27,3,18,20,,28,20,20,10,15,14,0.7,0.4
2024-10-05T1200,2524A,105.821,32.4444,广元市,老城,,27,27,31,3,13,39,,26,26,17,25,2,3,0.7,0.6
2024-10-05T1200,2526A,105.8628,32.4287,广元市,监测站,,33,33,28,22,19,37,,23,21,24,22,3,3,0.8,0.6
2024-10-05T1200,3617A,105.8047,32.4166,广元市,经开区,,47,47,41,21,21,38,,23,20,23,28,5,5,0.7,0.6
2024-10-05T1200,1345A,113.2347,23.1423,广州市,广雅中学,颗粒物(PM10),51,51,49,25,23,130,,87,87,20,32,8,9,0.8,0.8
2024-10-05T1200,1346A,113.2612,23.105,广州市,市五中,,43,42,42,23,25,136,,102,102,13,19,5,6,0.6,0.6
2024-10-05T1200,1348A,113.3478,23.0916,广州市,广东商学院,,39,38,46,20,24,124,,95,95,16,21,7,6,0.6,0.6
2024-10-05T1200,1349A,113.4332,23.1047,广州市,市八十六中,,41,41,35,21,19,118,,95,95,16,20,5,5,0.6,0.6
2024-10-05T1200,1350A,113.3505,22.9483,广州市,番禺中学,,42,42,35,22,24,94,,74,74,16,20,7,7,0.6,0.6
2024-10-05T1200,1351A,113.2146,23.3916,广州市,花都师范,,42,33,36,21,20,132,,102,102,8,12,9,10,0.7,0.4
2024-10-05T1200,1352A,113.2597,23.1331,广州市,市监测站,,42,41,39,22,21,132,,94,94,15,27,7,7,0.8,0.8
2024-10-05T1200,1353A,113.5618,23.312,广州市,九龙镇镇龙,,,33,45,18,25,112,,89,89,,22,7,7,0.5,0.7
2024-10-05T1200,1354A,113.2765,23.1544,广州市,麓湖,,42,42,39,23,21,132,,90,90,14,22,8,8,0.5,0.6
2024-10-05T1200,1355A,113.443,23.3035,广州市,帽峰山森林公园,,43,31,24,22,18,136,,102,102,8,9,8,8,0.6,0.6
2024-10-05T1200,2846A,113.3221,23.1322,广州市,体育西,,39,39,36,27,25,117,,88,88,17,21,5,6,0.6,0.6
2024-10-05T1200,3298A,113.5717,23.5491,广州市,从化街口,,35,31,39,19,23,111,,88,88,8,22,10,10,0.5,0.6
2024-10-05T1200,3299A,113.3472,23.3692,广州市,白云竹料,,41,29,40,16,21,129,,107,107,9,15,8,8,0.6,0.6
2024-10-05T1200,3300A,113.2981,23.237,广州市,白云嘉禾,,42,42,52,22,23,126,,97,97,18,22,8,7,0.6,0.7
2024-10-05T1200,3301A,113.4256,23.1716,广州市,黄埔科学城,,38,33,35,21,17,121,,95,95,12,18,9,8,0.7,0.7
2024-10-05T1200,3302A,113.3942,23.0483,广州市,番禺大学城,,38,33,36,20,20,119,,92,92,19,26,12,12,0.1,0.2
2024-10-05T1200,3303A,113.4922,22.8168,广州市,南沙黄阁,颗粒物(PM10),54,58,44,25,23,136,,83,83,27,33,14,10,0.7,0.7
2024-10-05T1200,3304A,113.5342,22.7896,广州市,南沙街,,44,42,42,24,21,138,,84,84,21,28,10,11,0.8,0.7
2024-10-05T1200,3443A,113.2902,23.5544,广州市,花都梯面,,38,28,35,17,21,120,,85,85,6,17,11,11,0.6,0.6
2024-10-05T1200,3445A,113.7858,23.7478,广州市,从化良口,,31,23,27,17,19,99,,81,81,6,8,8,8,0.6,0.5
2024-10-05T1200,3446A,113.8051,23.2614,广州市,增城荔城,,33,29,31,19,20,104,,89,89,9,12,7,7,0.6,0.6
2024-10-05T1200,2506A,109.6047,23.0666,贵港市,江南子站,颗粒物(PM10),56,61,89,26,44,139,,50,50,17,27,17,11,0.8,0.8
2024-10-05T1200,2507A,109.6014,23.0948,贵港市,贵城子站,颗粒物(PM10),57,63,70,32,39,147,,98,98,14,21,13,10,0.7,0.8
2024-10-05T1200,2508A,109.5669,23.1065,贵港市,荷城子站,颗粒物(PM10),53,56,59,22,25,148,,112,112,12,14,13,12,0.6,0.6
2024-10-05T1200,3405A,109.5886,23.1172,贵港市,新世纪学校,颗粒物(PM10),52,53,59,21,26,147,,108,108,11,12,10,10,0.5,0.6
2024-10-05T1200,1439A,106.6899,26.5998,贵阳市,马鞍山,,33,31,31,17,12,104,,79,79,13,12,4,4,0.6,0.5
2024-10-05T1200,1440A,106.6971,26.5694,贵阳市,市环保站,,44,44,34,28,24,107,,98,95,13,10,6,6,0.4,0.3
2024-10-05T1200,1441A,106.6243,26.6266,贵阳市,鉴湖路,,36,36,40,19,17,98,,87,87,12,9,5,5,0.5,0.4
2024-10-05T1200,1442A,106.7487,26.6343,贵阳市,燕子冲,,39,39,30,27,22,106,,88,88,8,7,8,7,0.4,0.3
2024-10-05T1200,1443A,106.6555,26.4365,贵阳市,碧云窝,颗粒物(PM10),51,51,44,22,17,110,,95,92,12,11,7,7,0.3,0.3
2024-10-05T1200,1444A,106.694,26.5161,贵阳市,中院村,,46,46,35,24,18,101,,95,91,16,12,9,9,0.7,0.6
2024-10-05T1200,1445A,106.7109,26.6027,贵阳市,红边门,细颗粒物(PM2.5),52,41,38,36,23,102,,86,86,14,14,7,6,0.5,0.4
2024-10-05T1200,1446A,106.7164,26.5699,贵阳市,新华路,,34,34,32,22,18,96,,88,86,14,9,8,7,0.4,0.3
2024-10-05T1200,1447A,106.674,26.5424,贵阳市,太慈桥,颗粒物(PM10),54,58,36,22,17,105,,96,92,15,11,7,7,0.3,0.3
2024-10-05T1200,1862A,110.4144,25.3167,桂林市,电子科大尧山校区,,46,43,45,32,27,142,,112,112,7,8,8,10,0.6,0.6
2024-10-05T1200,1863A,110.2819,25.2697,桂林市,监测站,颗粒物(PM10),54,57,46,35,30,151,,121,121,11,13,12,12,0.4,0.4
2024-10-05T1200,1864A,110.3089,25.2708,桂林市,龙隐路小学,细颗粒物(PM2.5),57,56,41,40,30,158,,124,124,9,8,14,17,0.7,0.6
2024-10-05T1200,1865A,110.2869,25.2178,桂林市,八中,细颗粒物(PM2.5),54,53,43,38,30,151,,110,110,12,15,14,13,0.7,0.6
2024-10-05T1200,3403A,110.1764,25.2381,桂林市,创业大厦,细颗粒物(PM2.5),52,48,55,36,34,152,,115,115,8,12,12,21,0.4,0.3
2024-10-05T1200,3531A,110.296,25.1253,桂林市,旅游学院,,48,39,42,24,27,151,,81,81,7,16,12,14,0.5,0.5
2024-10-05T1200,2674A,100.2561,34.4714,果洛藏族自治州,玛沁县大武镇,,33,11,20,11,15,103,,90,90,1,3,9,9,0.3,0.4
2024-10-05T1200,1129A,126.5422,45.755,哈尔滨市,岭北,细颗粒物(PM2.5),54,49,42,38,26,147,,126,126,12,16,12,11,0.4,0.5
2024-10-05T1200,1130A,126.561,45.8167,哈尔滨市,松北商大,,,,44,27,17,120,,102,102,14,17,11,10,0.6,0.5
2024-10-05T1200,1131A,126.979,45.5419,哈尔滨市,阿城会宁,,50,50,38,29,21,131,,100,100,13,13,11,8,0.6,0.6
2024-10-05T1200,1132A,126.599,45.7222,哈尔滨市,南岗学府路,颗粒物(PM10),56,61,56,27,20,125,,101,101,13,17,10,8,0.6,0.5
2024-10-05T1200,1133A,126.689,45.7733,哈尔滨市,太平宏伟公园,颗粒物(PM10),56,61,49,30,21,118,,96,96,15,20,8,6,0.6,0.6
2024-10-05T1200,1134A,126.635,45.7667,哈尔滨市,道外承德广场,颗粒物(PM10),59,68,57,31,21,114,,97,97,22,22,8,6,0.8,0.7
2024-10-05T1200,1135A,126.685,45.7319,哈尔滨市,香坊红旗大街,颗粒物(PM10),53,56,58,32,24,122,,93,93,16,24,11,9,0.8,0.7
2024-10-05T1200,1136A,126.6411,45.7258,哈尔滨市,动力和平路,细颗粒物(PM2.5),65,54,48,47,28,125,,98,98,13,19,12,11,0.7,0.6
2024-10-05T1200,1137A,126.593,45.7478,哈尔滨市,道里建国路,颗粒物(PM10),55,59,49,34,24,122,,103,103,18,17,16,14,1.0,0.9
2024-10-05T1200,1138A,126.615,45.61,哈尔滨市,平房东轻厂,颗粒物(PM10),59,68,44,28,17,122,,95,95,16,14,9,7,0.7,0.7
2024-10-05T1200,1139A,126.595,45.9855,哈尔滨市,呼兰师专,细颗粒物(PM2.5),54,46,47,38,26,110,,92,92,16,26,7,6,0.7,0.5
2024-10-05T1200,1140A,126.6206,45.6842,哈尔滨市,省农科院,颗粒物(PM10),79,107,82,44,32,115,,87,87,17,30,6,5,0.7,0.6
2024-10-05T1200,2688A,93.5128,42.8172,哈密市,地区监测站,,40,40,54,17,20,87,,75,75,8,20,14,7,0.2,0.4
2024-10-05T1200,2689A,93.4961,42.8328,哈密市,哈密师范学校,,31,31,51,18,22,86,,65,65,9,23,12,6,0.4,0.5
2024-10-05T1200,2671A,100.9048,36.9639,海北藏族自治州,海晏县西海镇,,29,14,28,13,23,90,,85,85,3,8,11,11,0.3,0.5
2024-10-05T1200,3867A,102.0738,36.5056,海东市,平安区公安北苑,细颗粒物(PM2.5),70,72,57,51,38,41,,37,26,33,20,42,18,1.1,0.8
2024-10-05T1200,1410A,110.3232,20.0574,海口市,海南大学,,48,44,40,25,20,151,,140,140,8,9,8,5,0.5,0.5
2024-10-05T1200,1411A,110.283,20.0053,海口市,秀英海南医院,,47,43,38,29,22,150,,140,140,12,12,12,8,0.4,0.3
2024-10-05T1200,1412A,110.338,19.9969,海口市,海南师范大学,,48,46,40,26,20,151,,142,142,9,10,13,9,0.5,0.5
2024-10-05T1200,1413A,110.33,20.0356,海口市,龙华路环保局宿舍,,47,45,39,26,20,149,,140,138,8,8,11,7,0.4,0.4
2024-10-05T1200,3539A,110.5111,19.9736,海口市,桂林洋子站,,47,38,41,22,22,148,,142,142,7,8,11,9,0.4,0.4
2024-10-05T1200,2673A,100.6188,36.2866,海南藏族自治州,共和县恰卜恰镇,,33,33,41,19,22,84,,79,76,5,14,10,11,0.6,0.5
2024-10-05T1200,2676A,97.3731,37.3753,海西蒙古族藏族自治州,德令哈市,,38,38,38,9,17,92,,71,70,16,13,13,10,0.5,0.5
2024-10-05T1200,1048A,114.5302,36.6116,邯郸市,东污水处理厂,颗粒物(PM10),52,54,67,34,38,99,,57,57,16,27,5,3,0.4,0.5
2024-10-05T1200,1049A,114.4918,36.5713,邯郸市,矿院,颗粒物(PM10),54,57,77,27,39,91,,47,47,16,25,6,6,0.4,0.3
2024-10-05T1200,1050A,114.484,36.6133,邯郸市,丛台公园,颗粒物(PM10),53,56,64,36,40,84,,56,56,25,29,4,3,0.4,0.4
2024-10-05T1200,3458A,114.7895,36.5593,邯郸市,香泉濮院小区,,43,43,121,11,54,112,,70,70,11,24,3,7,0.2,0.5
2024-10-05T1200,3579A,114.50634,36.77178,邯郸市,永年区实验高中,颗粒物(PM10),65,80,82,30,39,116,,53,53,20,29,11,7,0.6,0.6
2024-10-05T1200,3580A,114.20016,36.44293,邯郸市,峰峰矿区临水派出所,颗粒物(PM10),55,59,46,34,29,113,,110,87,22,15,12,7,0.9,0.5
2024-10-05T1200,2634A,106.9893,33.1842,汉中市,汉川机床厂子校,,46,46,33,30,18,80,,45,45,10,9,6,6,0.6,0.6
2024-10-05T1200,2635A,107.0154,33.0706,汉中市,市监测站,颗粒物(PM10),51,51,53,34,30,85,,35,35,12,24,11,12,0.6,0.6
2024-10-05T1200,2636A,107.0089,33.1138,汉中市,鑫源开发区,颗粒物(PM10),51,52,67,22,24,80,,34,34,13,27,13,14,0.4,0.6
2024-10-05T1200,2637A,107.007,33.0323,汉中市,南郑大河坎水厂,颗粒物(PM10),53,56,49,28,30,82,,31,31,14,21,10,9,0.5,0.6
2024-10-05T1200,1223A,120.2072,30.2111,杭州市,滨江,,21,21,28,10,10,52,,67,60,30,21,4,5,0.6,0.5
2024-10-05T1200,1224A,120.0633,30.2747,杭州市,西溪,,29,29,31,12,17,50,,63,61,22,21,5,6,0.7,0.7
2024-10-05T1200,1226A,120.3461,30.3153,杭州市,下沙,,36,,30,25,16,64,,67,67,30,31,6,7,0.7,0.6
2024-10-05T1200,1227A,120.1269,30.2456,杭州市,卧龙桥,,24,24,25,12,15,58,,68,67,19,18,5,6,0.5,0.4
2024-10-05T1200,1228A,120.1903,30.2692,杭州市,浙江农大,,18,17,25,12,13,44,,68,57,30,20,8,9,0.6,0.5
2024-10-05T1200,1230A,120.1197,30.3119,杭州市,和睦小学,,28,21,26,19,17,57,,70,68,30,24,7,7,0.6,0.5
2024-10-05T1200,1231A,120.3019,30.4183,杭州市,临平镇,,36,36,35,12,10,73,,74,73,20,20,5,6,0.6,0.5
2024-10-05T1200,1232A,120.2697,30.1819,杭州市,城厢镇,,25,24,31,17,14,59,,69,66,26,20,6,7,0.6,0.5
2024-10-05T1200,1233A,120.0883,30.1808,杭州市,云栖,,18,13,20,12,13,52,,61,61,18,18,6,6,0.6,0.6
2024-10-05T1200,3557A,119.9464,30.0494,杭州市,镇二中,,21,,32,14,21,66,,61,61,19,22,8,8,0.7,0.6
2024-10-05T1200,3558A,119.7183,30.2367,杭州市,市府大楼,,38,38,38,19,19,82,,83,83,15,17,6,7,0.6,0.6
2024-10-05T1200,3656A,120.1556,30.2864,杭州市,消防大队,,35,35,34,19,15,54,,74,68,28,19,8,9,0.4,0.3
2024-10-05T1200,1270A,117.1959,31.7848,合肥市,明珠广场,,37,31,28,7,12,118,,75,75,15,23,13,12,0.5,0.5
2024-10-05T1200,1271A,117.3072,31.8764,合肥市,三里街,,34,22,29,9,13,108,,66,66,10,18,5,5,0.5,0.5
2024-10-05T1200,1272A,117.2588,31.8707,合肥市,琥珀山庄,,38,27,28,12,16,119,,77,77,13,20,8,8,0.5,0.5
2024-10-05T1200,1273A,117.1604,31.9052,合肥市,董铺水库,,33,27,28,9,12,105,,68,68,13,16,5,5,0.4,0.4
2024-10-05T1200,1274A,117.25,31.8571,合肥市,长江中路,,36,29,33,14,18,114,,72,72,11,18,9,9,0.8,0.8
2024-10-05T1200,1275A,117.266,31.9436,合肥市,庐阳区,,38,29,32,14,14,121,,76,76,11,19,4,4,0.5,0.5
2024-10-05T1200,1276A,117.336,31.8586,合肥市,瑶海区,,35,29,30,6,12,111,,70,70,14,23,7,7,0.4,0.4
2024-10-05T1200,1277A,117.3027,31.7964,合肥市,包河区,,36,27,36,7,15,113,,57,57,15,41,7,6,0.7,0.6
2024-10-05T1200,1278A,117.2776,31.7385,合肥市,滨湖新区,,36,27,28,9,13,113,,77,77,9,18,6,6,0.4,0.4
2024-10-05T1200,1279A,117.1318,31.8403,合肥市,高新区,,34,27,26,11,13,108,,73,73,13,19,8,8,0.6,0.6
2024-10-05T1200,3464A,117.3803,31.9147,合肥市,高教基地,,37,21,29,8,16,116,,72,72,6,12,6,5,0.4,0.4
2024-10-05T1200,3614A,79.924,37.0877,和田地区,地区环保局,颗粒物(PM10),123,195,185,68,58,69,,61,61,15,17,6,8,0.5,0.5
2024-10-05T1200,3615A,79.9131,37.113,和田地区,市环保局,颗粒物(PM10),103,156,174,59,57,60,,50,47,21,25,9,8,0.5,0.4
2024-10-05T1200,2516A,108.2011,24.715,河池市,东仁乐园,颗粒物(PM10),58,65,49,28,25,115,,51,51,8,10,7,4,0.6,0.6
2024-10-05T1200,2517A,108.0497,24.6947,河池市,市环保站,颗粒物(PM10),55,60,47,29,28,130,,58,58,10,16,14,16,0.6,0.6
2024-10-05T1200,2518A,108.0983,24.6989,河池市,市疾控中心,颗粒物(PM10),51,52,50,25,30,113,,46,46,19,20,14,13,0.5,0.5
2024-10-05T1200,1696A,114.6778,23.7569,河源市,源西,,33,19,30,18,20,105,,95,95,9,14,8,8,0.5,0.5
2024-10-05T1200,1697A,114.6944,23.7586,河源市,东埔,,37,37,34,15,18,108,,99,99,12,14,6,6,0.7,0.7
2024-10-05T1200,1698A,114.6892,23.7233,河源市,老城,,36,36,32,19,19,112,,99,99,14,14,6,6,0.6,0.5
2024-10-05T1200,1718A,115.4208,35.2464,菏泽市,气象局,,40,32,46,14,20,127,,102,100,12,20,4,5,0.2,0.3
2024-10-05T1200,1719A,115.4747,35.2375,菏泽市,市政协,,40,33,45,8,24,125,,88,88,8,19,4,5,0.2,0.4
2024-10-05T1200,3374A,115.5564,35.0891,菏泽市,定陶老年大学,,36,24,44,7,21,115,,78,76,6,17,7,8,0.2,0.2
2024-10-05T1200,3647A,115.4702,35.2706,菏泽市,菏泽医专,,40,28,48,12,21,126,,94,93,10,24,8,8,0.6,0.7
2024-10-05T1200,2514A,111.5264,24.4172,贺州市,环保小区,颗粒物(PM10),57,63,46,36,29,146,,86,86,14,16,9,8,0.6,0.5
2024-10-05T1200,2515A,111.5608,24.4078,贺州市,政协大楼,颗粒物(PM10),51,51,50,28,28,147,,79,79,12,18,8,6,0.7,0.6
2024-10-05T1200,3534A,111.4744,24.4553,贺州市,西湾,颗粒物(PM10),62,73,50,40,32,143,,82,82,11,15,9,8,0.6,0.6
2024-10-05T1200,2385A,114.17,35.9019,鹤壁市,市监测站,颗粒物(PM10),52,54,66,26,33,122,,56,56,22,37,6,5,0.7,0.6
2024-10-05T1200,2386A,114.2956,35.7511,鹤壁市,市交警支队,,49,49,68,17,35,113,,64,64,15,42,3,3,0.3,0.3
2024-10-05T1200,2387A,114.2878,35.7306,鹤壁市,迎宾馆,颗粒物(PM10),52,53,71,23,38,114,,62,62,19,43,8,6,0.5,0.6
2024-10-05T1200,3474A,114.2617,35.6822,鹤壁市,大新区,颗粒物(PM10),54,57,70,27,43,118,,51,51,14,44,6,2,0.2,0.3
2024-10-05T1200,3596A,114.1572,35.9603,鹤壁市,南山宾馆,颗粒物(PM10),51,52,62,35,39,104,,77,68,17,20,3,2,0.5,0.3
2024-10-05T1200,2244A,130.2537,47.3416,鹤岗市,哈啤分公司,,43,43,39,12,20,95,,46,46,21,20,24,18,0.5,0.5
2024-10-05T1200,2245A,130.2684,47.3086,鹤岗市,斯达机电,,46,46,39,10,22,106,,60,60,11,19,15,16,0.4,0.4
2024-10-05T1200,2246A,130.3114,47.3388,鹤岗市,东山纸板厂,颗粒物(PM10),53,55,67,22,25,102,,46,46,14,25,19,18,0.3,0.7
2024-10-05T1200,2247A,130.1097,47.3382,鹤岗市,五号水库,,36,21,20,12,8,115,,58,58,6,7,10,8,0.0,0.1
2024-10-05T1200,2263A,127.4833,50.2524,黑河市,交通局,,28,23,34,19,21,69,,57,57,8,14,7,7,0.3,0.4
2024-10-05T1200,2264A,127.5144,50.2341,黑河市,环保局,,28,,28,19,18,72,,70,66,6,9,5,4,0.3,0.4
2024-10-05T1200,2265A,127.5291,50.2472,黑河市,大黑河岛,,,,,16,19,62,,57,56,14,16,5,3,0.1,0.2
2024-10-05T1200,1074A,115.6838,37.7541,衡水市,电机北厂,,44,44,67,11,37,135,,96,96,9,20,8,9,0.4,0.4
2024-10-05T1200,1075A,115.6303,37.7316,衡水市,市监测站,颗粒物(PM10),53,56,68,14,31,139,,94,94,16,29,8,9,0.4,0.5
2024-10-05T1200,3188A,115.6683,37.7217,衡水市,市城管局,颗粒物(PM10),52,53,67,13,35,142,,89,89,13,28,8,8,0.3,0.4
2024-10-05T1200,3459A,115.5989,37.5491,衡水市,地表水厂,颗粒物(PM10),51,51,69,21,39,139,,74,74,10,36,5,6,0.4,0.5
2024-10-05T1200,2456A,112.5003,26.9167,衡阳市,原169医院,,46,44,48,27,30,145,,89,89,19,20,16,14,0.7,0.6
2024-10-05T1200,2457A,112.6194,26.9258,衡阳市,衡阳化工总厂,颗粒物(PM10),52,54,55,31,40,150,,77,77,4,14,11,11,0.6,0.7
2024-10-05T1200,2458A,112.6211,26.8956,衡阳市,珠晖区环保局,,47,47,54,30,36,145,,72,72,10,25,12,13,0.6,0.7
2024-10-05T1200,2459A,112.6197,26.8733,衡阳市,市委党校,颗粒物(PM10),51,51,52,21,33,151,,95,95,9,16,14,15,0.6,0.7
2024-10-05T1200,2460A,112.6006,26.8919,衡阳市,市监测站,,49,47,56,28,41,156,,86,86,11,17,14,13,0.7,0.7
2024-10-05T1200,2461A,112.5664,26.9056,衡阳市,真空机电公司,颗粒物(PM10),56,61,54,33,34,156,,87,87,10,16,12,8,0.8,0.7
2024-10-05T1200,3399A,112.6703,26.882,衡阳市,师范学院,,48,46,55,33,32,151,,91,91,12,16,12,13,0.6,0.6
2024-10-05T1200,2608A,103.3772,23.3993,红河哈尼族彝族自治州,污水处理厂,,27,27,25,14,17,84,,80,80,7,6,5,5,0.4,0.4
2024-10-05T1200,2609A,103.3861,23.35,红河哈尼族彝族自治州,监测站,,30,29,32,21,20,78,,80,78,6,6,8,9,0.5,0.5
2024-10-05T1200,1090A,111.6507,40.7517,呼和浩特市,呼市一监,颗粒物(PM10),53,56,65,25,33,75,,33,33,22,40,12,8,0.7,0.7
2024-10-05T1200,1091A,111.6572,40.8033,呼和浩特市,小召,颗粒物(PM10),57,63,62,28,35,66,,29,29,31,47,12,9,0.7,0.7
2024-10-05T1200,1094A,111.7516,40.8369,呼和浩特市,如意水处理厂,颗粒物(PM10),54,58,69,25,29,72,,31,31,26,45,12,9,0.6,0.5
2024-10-05T1200,1095A,111.7276,40.8062,呼和浩特市,二十九中,颗粒物(PM10),53,55,66,29,35,76,,36,36,28,46,10,7,0.7,0.7
2024-10-05T1200,1096A,111.5512,40.7866,呼和浩特市,工大金川校区,颗粒物(PM10),62,74,72,37,35,65,,29,29,36,52,14,6,0.8,0.7
2024-10-05T1200,1097A,111.717,40.7612,呼和浩特市,化肥厂生活区,颗粒物(PM10),55,60,79,26,36,75,,39,39,28,42,15,10,0.5,0.7
2024-10-05T1200,3698A,111.5968,40.8178,呼和浩特市,红旗小学,颗粒物(PM10),64,78,76,33,36,69,,37,37,35,54,11,6,0.7,0.6
2024-10-05T1200,3699A,111.6518,40.8389,呼和浩特市,海东办,颗粒物(PM10),54,58,66,31,34,75,,28,28,29,55,10,6,0.7,0.8
2024-10-05T1200,2192A,119.7594,49.2261,呼伦贝尔市,区环保局,,21,,30,14,20,67,,60,60,7,9,6,5,0.1,0.2
2024-10-05T1200,3061A,119.7512,49.1577,呼伦贝尔市,国华电力东,,23,17,25,10,18,72,,62,62,3,5,3,3,0.3,0.3
2024-10-05T1200,1250A,120.0751,30.8669,湖州市,城西水厂,,31,21,23,12,13,97,,89,83,16,18,5,5,0.7,0.6
2024-10-05T1200,2873A,120.0875,30.8955,湖州市,仁皇山新区,,30,23,23,14,13,93,,85,84,12,14,7,7,0.6,0.5
2024-10-05T1200,2907A,120.1844,30.8596,湖州市,吴兴区站,,28,25,22,11,11,87,,79,79,13,13,6,6,0.6,0.5
2024-10-05T1200,3562A,120.4148,30.8538,湖州市,南浔区站,,22,20,21,13,12,70,,76,73,13,14,2,3,0.4,0.3
2024-10-05T1200,1607A,120.9092,40.7136,葫芦岛市,龙港区,细颗粒物(PM2.5),62,70,45,44,32,163,,133,132,24,17,22,16,1.4,0.7
2024-10-05T1200,1608A,120.8392,40.7514,葫芦岛市,化工街,颗粒物(PM10),53,56,62,29,31,147,,102,102,20,26,18,17,0.4,0.5
2024-10-05T1200,1609A,120.8341,40.7073,葫芦岛市,新区,,50,47,47,29,36,158,,104,104,21,26,15,12,0.7,0.6
2024-10-05T1200,1610A,120.8695,40.7677,葫芦岛市,东城区,颗粒物(PM10),59,67,49,28,37,147,,89,89,23,32,12,13,0.4,0.6
2024-10-05T1200,2482A,109.5981,27.5721,怀化市,林科所,,42,42,33,23,17,110,,100,100,16,14,12,15,0.9,0.7
2024-10-05T1200,2483A,109.9453,27.5444,怀化市,河西地税局,细颗粒物(PM2.5),59,61,48,42,28,115,,87,87,11,13,15,14,0.5,0.5
2024-10-05T1200,2484A,109.9781,27.5342,怀化市,市四医院,细颗粒物(PM2.5),67,78,58,48,32,106,,78,78,11,10,14,19,0.7,0.6
2024-10-05T1200,2485A,109.9972,27.5578,怀化市,监测楼,颗粒物(PM10),65,80,56,44,29,113,,70,70,13,14,10,18,0.6,0.5
2024-10-05T1200,2486A,110.0394,27.583,怀化市,市委党校,"颗粒物(PM10),细颗粒物(PM2.5)",53,55,63,37,34,117,,64,64,10,16,14,25,0.5,0.4
2024-10-05T1200,1210A,119.036,33.5981,淮安市,钵池山,,31,,29,14,21,99,,65,65,4,18,4,4,0.5,0.6
2024-10-05T1200,1211A,119.007,33.575,淮安市,北京南路,,33,22,35,12,18,103,,71,71,10,21,6,6,0.3,0.4
2024-10-05T1200,1212A,118.989,33.6067,淮安市,市监测站,,34,14,24,7,19,107,,70,70,10,20,7,7,0.4,0.4
2024-10-05T1200,1213A,119.135,33.5039,淮安市,楚州区监测站,,33,17,31,9,20,103,,80,80,9,21,6,6,0.4,0.4
2024-10-05T1200,1214A,119.0186,33.6297,淮安市,淮阴区监测站,,33,17,37,16,24,103,,63,63,16,34,2,3,0.3,0.1
2024-10-05T1200,3426A,118.8755,33.2894,淮安市,新华书店,,,13,32,3,15,108,,72,72,9,23,,9,,0.5
2024-10-05T1200,2282A,116.8004,33.975,淮北市,监测站,,34,26,32,8,16,108,,83,83,6,12,6,7,0.4,0.5
2024-10-05T1200,2283A,116.8091,33.9007,淮北市,烈山区政府,,36,,29,7,14,114,,89,89,4,13,4,5,0.1,0.2
2024-10-05T1200,3330A,116.8873,33.9836,淮北市,杜集区检察院,,,,37,,15,109,,89,89,,11,2,8,0.2,0.4
2024-10-05T1200,4017A,116.7923,33.9535,淮北市,市博物馆,,35,19,31,6,14,112,,88,88,7,14,8,9,0.5,0.5
2024-10-05T1200,2277A,116.8305,32.7727,淮南市,潘集区政府,,38,38,53,22,33,104,,75,75,12,21,8,8,0.5,0.4
2024-10-05T1200,2278A,117.0067,32.6524,淮南市,师范学院,,40,30,31,13,17,126,,93,93,7,12,6,6,0.3,0.3
2024-10-05T1200,2279A,116.8569,32.5951,淮南市,谢家集区政府,,37,34,24,18,15,116,,89,89,10,15,7,9,0.3,0.3
2024-10-05T1200,2280A,116.8281,32.633,淮南市,八公山区政府,,41,41,37,19,13,118,,83,83,7,14,9,9,0.3,0.3
2024-10-05T1200,2281A,116.6325,32.6201,淮南市,焦岗湖风景区管理处,,34,20,21,6,9,108,,87,87,6,11,8,7,0.0,0
2024-10-05T1200,2894A,117.0566,32.6531,淮南市,经济技术开发区消防队,,38,33,31,7,9,121,,85,85,5,13,4,5,0.3,0.3
2024-10-05T1200,3329A,117.0108,32.5893,淮南市,山南新区,,40,33,33,7,13,127,,96,96,9,14,2,3,0.4,0.4
2024-10-05T1200,2446A,114.9028,30.4742,黄冈市,职工中心,,48,48,41,26,24,146,,105,105,20,18,9,9,0.6,0.6
2024-10-05T1200,2929A,114.8858,30.4519,黄冈市,红卫路,,44,38,35,14,21,140,,106,106,16,16,8,8,0.6,0.6
2024-10-05T1200,3398A,114.9136,30.4445,黄冈市,市林业局,,44,44,50,16,24,137,,106,106,12,14,9,9,0.5,0.5
2024-10-05T1200,2672A,102.0199,35.5102,黄南藏族自治州,同仁县隆务镇,颗粒物(PM10),59,67,50,35,25,72,,64,64,14,5,9,8,0.6,0.5
2024-10-05T1200,2295A,118.2903,29.6963,黄山市,延安路89号,,46,46,34,13,11,114,,69,69,9,10,7,6,0.3,0.3
2024-10-05T1200,2296A,118.327,29.7178,黄山市,黄山东路89号,,47,47,31,3,9,107,,72,72,10,9,6,5,0.4,0.3
2024-10-05T1200,2297A,118.1371,30.2756,黄山市,黄山区政府5号楼,,42,42,35,18,21,102,,51,51,9,8,7,7,0.4,0.4
2024-10-05T1200,2423A,115.0601,30.2313,黄石市,沈家营,,45,31,29,8,15,143,,102,102,10,15,14,12,0.6,0.6
2024-10-05T1200,2424A,115.0817,30.2006,黄石市,陈家湾,,46,29,30,27,20,146,,85,85,15,16,18,15,0.7,0.5
2024-10-05T1200,2426A,114.8988,30.2019,黄石市,铁山,,46,28,33,17,18,147,,101,101,11,16,16,11,0.2,0.2
2024-10-05T1200,2427A,115.0307,30.2092,黄石市,团城山,,46,37,35,15,15,145,,93,93,17,16,26,12,0.8,0.6
2024-10-05T1200,3149A,115.0235,30.1578,黄石市,笔架山北路,,45,27,27,12,13,144,,107,107,9,14,10,10,0.5,0.5
2024-10-05T1200,1392A,114.4183,23.0528,惠州市,河南岸金山湖子站,,36,36,34,21,17,111,,95,95,11,12,8,8,0.5,0.5
2024-10-05T1200,1393A,114.4053,23.0822,惠州市,下埔横江三路子站,,38,36,32,20,18,121,,102,102,11,12,14,15,0.6,0.6
2024-10-05T1200,1394A,114.4103,23.1142,惠州市,江北云山西路子站,,38,35,31,22,19,120,,102,102,8,9,7,7,0.6,0.6
2024-10-05T1200,1395A,114.4645,22.7833,惠州市,惠阳区承修路船湖子站,,43,43,38,20,18,107,,86,86,14,15,9,9,0.5,0.5
2024-10-05T1200,1396A,114.5317,22.7422,惠州市,大亚湾管委会子站,,34,34,31,20,19,107,,85,85,12,14,9,9,0.4,0.4
2024-10-05T1200,3314A,114.4338,22.8134,惠州市,惠阳秋长,,33,27,25,18,18,104,,92,92,9,10,8,7,0.5,0.5
2024-10-05T1200,3452A,114.6517,22.775,惠州市,大亚湾霞涌,,36,36,28,13,18,92,,76,76,8,8,7,6,0.5,0.6
2024-10-05T1200,2240A,130.9762,45.3001,鸡西市,环保局,,42,42,62,13,25,103,,48,48,4,28,7,6,0.3,0.6
2024-10-05T1200,2243A,130.9429,45.3039,鸡西市,第一中学,,41,41,45,11,16,109,,56,56,5,24,6,6,0.1,0.2
2024-10-05T1200,3707A,131.0207,45.3073,鸡西市,欧美日汽修厂,,50,50,70,14,30,107,,39,39,11,29,8,8,0.2,0.4
2024-10-05T1200,3709A,130.9967,45.3106,鸡西市,市政设施管理处,颗粒物(PM10),56,62,72,12,23,112,,38,38,8,35,8,7,0.2,0.4
2024-10-05T1200,2367A,114.9754,27.0803,吉安市,红声器材厂,颗粒物(PM10),51,52,39,20,18,136,,80,80,18,18,20,13,0.5,0.4
2024-10-05T1200,2368A,114.9658,27.0999,吉安市,市森林工业局,,47,47,37,27,18,136,,85,85,20,17,22,14,0.7,0.6
2024-10-05T1200,2369A,114.99,27.1312,吉安市,市环境监测站,,48,48,36,26,18,134,,87,87,18,16,28,18,0.4,0.4
2024-10-05T1200,2370A,115.0093,27.0968,吉安市,青原区法院,,48,48,38,19,19,136,,71,71,19,21,26,22,0.6,0.4
2024-10-05T1200,1772A,126.54,43.8622,吉林市,哈达湾,,45,32,31,18,19,144,,92,92,10,23,9,7,0.6,0.6
2024-10-05T1200,1773A,126.5844,43.8358,吉林市,东局子,,45,38,25,17,12,142,,95,95,10,20,7,5,0.6,0.5
2024-10-05T1200,1774A,126.5052,43.8245,吉林市,电力学院,,45,29,41,18,26,143,,80,80,8,27,8,6,0.6,0.8
2024-10-05T1200,1775A,126.6133,43.8972,吉林市,江北,,44,38,31,12,11,138,,85,85,11,17,10,8,0.8,0.7
2024-10-05T1200,1776A,126.555,43.8306,吉林市,江南公园,,46,46,30,32,16,146,,91,91,9,20,9,7,0.6,0.6
2024-10-05T1200,1778A,126.7061,43.7133,吉林市,丰满,细颗粒物(PM2.5),53,,14,37,13,126,,75,75,9,5,8,6,0.4,0.3
2024-10-05T1200,2868A,126.4739,43.953,吉林市,九站,,46,46,32,20,15,146,,97,97,9,17,9,8,0.7,0.7
2024-10-05T1200,1299A,116.9862,36.6114,济南市,科干所,,48,29,50,22,25,152,,122,122,12,25,8,8,0.6,0.7
2024-10-05T1200,1300A,116.9376,36.665,济南市,农科所,,47,37,68,17,31,149,,67,67,17,52,6,6,0.6,0.8
2024-10-05T1200,1301A,117.1265,36.6734,济南市,开发区,,49,37,56,27,33,154,,112,112,14,32,6,6,0.5,0.5
2024-10-05T1200,1303A,117.0624,36.6868,济南市,省种子仓库,,50,39,61,19,29,157,,95,95,7,41,4,4,0.3,0.4
2024-10-05T1200,1304A,116.9489,36.6447,济南市,机床二厂,,50,37,76,15,34,160,,80,80,20,57,6,5,0.7,0.8
2024-10-05T1200,1305A,117.0495,36.663,济南市,市监测站,,50,34,52,15,29,157,,114,114,12,40,5,5,0.5,0.6
2024-10-05T1200,1306A,116.7675,36.5484,济南市,长清党校,臭氧1小时,55,34,53,22,28,164,,109,109,16,33,7,8,0.6,0.6
2024-10-05T1200,1616A,117.6795,36.229,济南市,技术学院,臭氧1小时,58,63,68,34,42,166,,115,115,20,31,16,11,1.2,0.7
2024-10-05T1200,1961A,117.532,36.6868,济南市,东山小学,臭氧1小时,63,44,62,22,32,170,,119,119,18,35,5,5,0.5,0.5
2024-10-05T1200,3059A,117.7161,36.2049,济南市,泰兴公司,臭氧1小时,58,61,72,29,42,166,,84,84,25,55,18,10,1.1,0.5
2024-10-05T1200,3064A,117.6867,36.2171,济南市,莱芜战役纪念馆,颗粒物(PM10),56,61,82,31,42,164,,93,93,24,43,16,8,1.2,0.7
2024-10-05T1200,3494A,117.1673,36.9782,济南市,济阳区政府,,48,39,78,12,39,152,,91,91,17,43,4,4,0.3,0.4
2024-10-05T1200,3495A,117.1171,36.63,济南市,锦屏中学,,48,22,35,17,22,152,,117,117,14,19,7,5,0.4,0.4
2024-10-05T1200,3682A,116.9814,36.6819,济南市,济南四建,,47,22,60,15,36,150,,66,66,12,64,4,4,0.4,0.7
2024-10-05T1200,1653A,116.6251,35.4302,济宁市,火炬城,,43,24,49,17,32,137,,93,93,12,22,11,11,0.6,0.7
2024-10-05T1200,1655A,116.5491,35.4042,济宁市,电化厂,颗粒物(PM10),56,62,70,17,34,125,,85,85,20,27,10,10,0.7,0.8
2024-10-05T1200,3500A,116.5814,35.3707,济宁市,北湖一中,,43,21,50,14,35,137,,85,85,10,28,6,8,0.3,0.5
2024-10-05T1200,3501A,116.8249,35.5593,济宁市,服务中心,,43,25,78,15,39,135,,62,62,10,44,8,9,0.5,0.7
2024-10-05T1200,3678A,116.5907,35.4054,济宁市,市第七中学,,42,34,57,12,38,134,,82,82,9,28,9,11,0.5,0.7
2024-10-05T1200,2255A,130.2751,46.8028,佳木斯市,佳纺,,43,34,27,16,14,137,,98,98,5,9,6,3,0.6,0.4
2024-10-05T1200,2256A,130.3995,46.8307,佳木斯市,发电厂,,44,44,34,20,18,131,,83,83,9,15,10,9,0.6,0.4
2024-10-05T1200,2257A,130.3258,46.7975,佳木斯市,环保局,,42,38,25,22,12,132,,98,98,8,8,10,9,0.6,0.4
2024-10-05T1200,2258A,130.3648,46.8032,佳木斯市,十一中,,42,42,27,16,13,131,,92,92,13,18,10,8,0.6,0.5
2024-10-05T1200,2259A,130.3794,46.7588,佳木斯市,四丰,,42,23,16,15,8,133,,95,95,10,8,1,1,0.3,0.2
2024-10-05T1200,1252A,120.7436,30.778,嘉兴市,清河小学,,25,22,23,9,10,78,,76,74,17,19,4,4,0.7,0.7
2024-10-05T1200,1253A,120.726,30.7478,嘉兴市,嘉兴学院,,25,25,26,14,13,73,,76,74,16,16,3,4,0.4,0.4
2024-10-05T1200,2872A,120.7846,30.7525,嘉兴市,南湖区残联,,25,21,23,11,13,80,,82,80,14,14,5,5,0.4,0.3
2024-10-05T1200,3407A,120.6916,30.7739,嘉兴市,秀洲住建,,23,23,23,10,11,68,,74,72,16,15,6,6,0.4,0.3
2024-10-05T1200,1945A,98.2908,39.7711,嘉峪关市,气象局,颗粒物(PM10),59,68,65,27,22,97,,75,75,18,25,61,31,0.7,0.5
2024-10-05T1200,2884A,98.2672,39.7978,嘉峪关市,酒钢宾馆,颗粒物(PM10),70,90,66,34,24,84,,72,72,42,25,217,49,3.0,0.7
2024-10-05T1200,3248A,98.2643,39.7724,嘉峪关市,雄关区,颗粒物(PM10),54,58,57,24,23,88,,66,66,25,28,44,20,1.2,0.5
2024-10-05T1200,1383A,113.1064,22.6058,江门市,北街,颗粒物(PM10),52,54,46,30,25,137,,91,91,23,26,8,8,0.8,0.8
2024-10-05T1200,1384A,113.0731,22.5835,江门市,西区,,48,48,50,30,38,139,,87,87,21,26,9,9,0.4,0.5
2024-10-05T1200,1385A,113.0219,22.5311,江门市,圭峰西,颗粒物(PM10),51,52,39,27,24,139,,92,92,21,22,6,6,0.8,0.8
2024-10-05T1200,1386A,113.0828,22.5947,江门市,东湖,,,48,43,21,25,136,,85,85,20,25,,7,0.5,0.6
2024-10-05T1200,3311A,113.1075,22.5647,江门市,江海富民,颗粒物(PM10),51,51,48,16,19,143,,89,89,22,25,10,9,0.4,0.4
2024-10-05T1200,3449A,113.05,22.4667,江门市,新会银湖,颗粒物(PM10),51,52,45,26,26,144,,85,85,16,24,6,8,0.6,0.6
2024-10-05T1200,1828A,113.227,35.2125,焦作市,市环保局,颗粒物(PM10),71,92,68,48,38,93,,90,71,33,26,19,10,0.4,0.3
2024-10-05T1200,1830A,113.1992,35.2590,焦作市,影视城,细颗粒物(PM2.5),72,73,48,52,34,121,,135,120,26,11,10,7,0.5,0.3
2024-10-05T1200,3169A,113.2725,35.2067,焦作市,太极体育中心,颗粒物(PM10),79,108,80,47,34,87,,71,63,36,32,24,10,0.6,0.3
2024-10-05T1200,3335A,113.3137,35.2641,焦作市,马村街道办,颗粒物(PM10),60,70,66,39,35,114,,95,83,20,22,7,5,0.2,0.3
2024-10-05T1200,3336A,113.2465,35.2373,焦作市,焦作技师学院,颗粒物(PM10),70,89,66,44,36,105,,95,81,26,22,8,5,0.5,0.4
2024-10-05T1200,3477A,113.1656,35.2539,焦作市,中站许衡医院,颗粒物(PM10),58,66,51,40,30,110,,121,99,25,14,8,5,0.6,0.4
2024-10-05T1200,3981A,113.2449,35.1803,焦作市,原李万街道办,细颗粒物(PM2.5),72,87,73,52,42,87,,85,68,27,22,16,9,0.5,0.3
2024-10-05T1200,1708A,116.3701,23.5345,揭阳市,新兴,,37,37,22,12,14,105,,59,59,11,10,6,5,0.5,0.5
2024-10-05T1200,1709A,116.3264,23.5443,揭阳市,西马,,45,45,25,16,16,115,,62,62,7,8,6,6,0.6,0.6
2024-10-05T1200,1710A,116.3611,23.5626,揭阳市,东兴,,35,35,23,16,15,104,,59,59,10,12,4,4,0.7,0.6
2024-10-05T1200,1711A,116.4151,23.5294,揭阳市,渔湖,,30,23,21,13,13,94,,64,64,8,13,8,11,0.5,0.5
2024-10-05T1200,3320A,116.403,23.5699,揭阳市,曲溪,,30,22,19,15,12,95,,62,62,10,14,2,2,0.4,0.4
2024-10-05T1200,1944A,102.1692,38.5167,金昌市,天庆家园,颗粒物(PM10),60,69,58,19,32,72,,42,38,22,30,15,28,0.4,0.8
2024-10-05T1200,3170A,102.1864,38.5253,金昌市,市委党校,颗粒物(PM10),52,54,70,18,31,83,,48,48,12,32,8,15,0.4,0.8
2024-10-05T1200,4022A,102.1647,38.5371,金昌市,金川区人防中心,颗粒物(PM10),61,71,66,21,27,75,,62,62,27,20,10,20,0.5,0.6
2024-10-05T1200,1262A,119.647,29.077,金华市,十五中,,,,37,20,15,66,,80,72,24,19,2,2,0.5,0.4
2024-10-05T1200,1263A,119.686,29.1029,金华市,监测站,,36,36,30,20,15,68,,80,73,18,15,2,3,0.5,0.5
2024-10-05T1200,3659A,119.656,29.1131,金华市,气象局,,40,40,29,21,10,63,,77,66,23,24,3,4,0.3,0.3
2024-10-05T1200,1767A,121.1115,41.0879,锦州市,南山,细颗粒物(PM2.5),62,,48,44,52,147,,96,96,13,29,13,13,0.7,0.8
2024-10-05T1200,1768A,121.0533,40.8434,锦州市,开发区,颗粒物(PM10),78,105,92,54,47,132,,79,79,38,43,25,18,1.2,0.8
2024-10-05T1200,1769A,121.1836,41.1119,锦州市,百股街道,,46,41,47,31,38,147,,95,95,13,24,13,12,0.8,0.9
2024-10-05T1200,1770A,121.1178,41.1222,锦州市,天安街道,细颗粒物(PM2.5),57,43,57,40,50,150,,80,80,13,30,14,13,0.7,0.8
2024-10-05T1200,1771A,121.1303,41.1386,锦州市,北湖公园,细颗粒物(PM2.5),55,47,54,39,47,159,,95,95,12,26,14,13,0.7,0.8
2024-10-05T1200,2160A,112.85,35.5051,晋城市,自来水公司,颗粒物(PM10),59,68,61,29,34,120,,85,85,30,31,12,12,0.7,0.7
2024-10-05T1200,2161A,112.8318,35.4936,晋城市,白云商贸,颗粒物(PM10),62,74,74,31,32,122,,77,77,28,39,7,7,0.8,0.7
2024-10-05T1200,2162A,112.8508,35.4887,晋城市,市环保局,颗粒物(PM10),60,70,71,31,35,115,,80,80,33,38,7,8,0.8,0.7
2024-10-05T1200,2163A,112.8676,35.4897,晋城市,技术学院,颗粒物(PM10),68,85,67,24,33,108,,71,71,38,39,7,8,0.9,0.8
2024-10-05T1200,3620A,112.8271,35.4828,晋城市,泽州一中,颗粒物(PM10),62,74,63,27,33,106,,73,73,26,39,11,12,0.8,0.8
2024-10-05T1200,2171A,112.7532,37.6945,晋中市,锦纶小区,颗粒物(PM10),79,107,80,56,38,120,,48,48,32,36,20,9,0.9,0.6
2024-10-05T1200,2173A,112.7249,37.7067,晋中市,南都小区,颗粒物(PM10),77,104,81,49,40,114,,45,45,39,48,18,8,1.1,0.8
2024-10-05T1200,2174A,112.6991,37.6982,晋中市,榆次区政府,颗粒物(PM10),90,129,82,41,34,120,,50,50,40,38,17,9,0.8,0.5
2024-10-05T1200,2865A,112.7195,37.6828,晋中市,榆次三中,颗粒物(PM10),74,97,80,46,35,131,,53,53,27,33,20,12,1.1,0.6
2024-10-05T1200,2439A,112.2014,31.0481,荆门市,竹园小学,颗粒物(PM10),56,61,63,33,33,127,,99,99,22,27,14,13,0.5,0.5
2024-10-05T1200,2440A,112.1969,30.9891,荆门市,掇刀,颗粒物(PM10),54,58,54,31,33,131,,118,118,22,23,9,11,0.5,0.5
2024-10-05T1200,2441A,112.2213,31.0386,荆门市,石化一小,颗粒物(PM10),64,77,64,39,35,131,,101,101,18,27,15,18,0.4,0.4
2024-10-05T1200,3012A,112.1849,31.0362,荆门市,西山林语,颗粒物(PM10),54,57,52,29,27,130,,108,108,24,22,12,10,0.4,0.5
2024-10-05T1200,3547A,112.1632,31.0138,荆门市,龙泉中学南校,颗粒物(PM10),52,53,52,31,32,138,,118,118,20,22,8,10,0.5,0.5
2024-10-05T1200,1844A,112.2494,30.3197,荆州市,市图书馆,细颗粒物(PM2.5),67,58,62,48,46,143,,88,88,19,28,14,13,0.6,0.6
2024-10-05T1200,1845A,112.2008,30.3544,荆州市,市委党校,细颗粒物(PM2.5),70,57,41,51,43,142,,90,90,17,27,11,10,0.6,0.5
2024-10-05T1200,3194A,112.2747,30.3122,荆州市,管委会,细颗粒物(PM2.5),74,,56,54,48,148,,82,82,16,30,13,12,0.7,0.7
2024-10-05T1200,3548A,112.1655,30.3364,荆州市,学苑路,颗粒物(PM10),62,74,62,42,39,157,,98,98,16,23,7,9,0.6,0.6
2024-10-05T1200,2343A,117.2117,29.2933,景德镇市,老干部活动中心,,28,17,24,10,15,88,,75,75,5,10,8,9,0.3,0.3
2024-10-05T1200,2344A,117.1894,29.2789,景德镇市,兽医站,,30,19,25,11,11,95,,83,83,3,5,7,7,0.2,0.2
2024-10-05T1200,2345A,117.1547,29.2617,景德镇市,台达陶瓷,,34,34,28,9,15,93,,81,81,10,16,6,13,0.4,0.5
2024-10-05T1200,2346A,117.2461,29.2956,景德镇市,陶研所,,30,18,24,3,9,94,,70,70,7,13,7,6,0.3,0.3
2024-10-05T1200,1803A,115.9872,29.6815,九江市,十里,,46,43,39,24,20,147,,100,100,13,17,11,10,0.6,0.6
2024-10-05T1200,1804A,115.9584,29.7046,九江市,茅山头,,40,32,33,25,20,128,,93,93,13,16,11,9,0.6,0.7
2024-10-05T1200,1805A,115.9877,29.7295,九江市,西园,,46,39,32,26,22,145,,104,104,12,16,10,10,0.5,0.4
2024-10-05T1200,1806A,116.0172,29.6547,九江市,五七二七厂,,43,41,34,22,23,135,,98,98,14,13,9,11,0.6,0.6
2024-10-05T1200,1808A,115.9114,29.6038,九江市,综合工业园,,45,39,35,29,25,143,,100,100,22,18,15,13,0.5,0.4
2024-10-05T1200,1809A,116.0721,29.7535,九江市,石化总厂,颗粒物(PM10),51,51,38,29,24,133,,94,94,10,14,10,9,0.6,0.6
2024-10-05T1200,1810A,115.9773,29.5698,九江市,庐山气象台,,37,23,28,15,17,118,,110,110,4,4,7,6,0.8,0.6
2024-10-05T1200,3190A,116.0254,29.6994,九江市,外国语学校,,42,42,38,26,24,130,,87,87,17,18,8,10,0.3,0.4
2024-10-05T1200,2658A,98.5061,39.7443,酒泉市,仓门街子站,,36,36,50,14,20,100,,71,69,4,13,2,8,0.3,0.4
2024-10-05T1200,2659A,98.4989,39.7256,酒泉市,油田生活基地,,39,39,57,13,24,102,,72,64,7,16,2,10,0.3,0.4
2024-10-05T1200,2698A,76.0072,39.4467,喀什地区,巡警大队,颗粒物(PM10),100,150,118,18,25,76,,66,66,28,38,5,5,0.5,0.7
2024-10-05T1200,2699A,75.9755,39.4694,喀什地区,吾办,颗粒物(PM10),91,132,107,38,39,69,,46,46,30,41,4,4,0.6,0.8
2024-10-05T1200,4027A,75.9483,39.4689,喀什地区,老干局,颗粒物(PM10),110,170,122,24,19,71,,54,54,24,35,5,5,0.5,0.6
2024-10-05T1200,1824A,114.3389,34.7781,开封市,肿瘤医院,细颗粒物(PM2.5),52,42,74,36,46,104,,68,68,10,26,4,3,0.3,0.5
2024-10-05T1200,1826A,114.2885,34.7965,开封市,世纪星幼儿园,,44,44,63,20,36,106,,75,75,15,28,1,3,0.3,0.5
2024-10-05T1200,3147A,114.3438,34.8106,开封市,龙亭公园,,,51,75,24,47,104,,68,68,14,29,2,8,,0.6
2024-10-05T1200,3210A,114.3644,34.7964,开封市,汴京公园,,47,47,75,24,41,98,,58,58,12,28,4,4,0.3,0.4
2024-10-05T1200,3473A,114.2485,34.8306,开封市,技师学院,颗粒物(PM10),52,53,57,24,31,105,,95,89,11,20,4,5,0.4,0.4
2024-10-05T1200,3592A,114.4644,34.7556,开封市,祥符区生态环境局,,43,43,81,23,38,107,,47,47,14,46,7,8,0.4,0.4
2024-10-05T1200,1951A,84.895,45.6094,克拉玛依市,长征新村,,31,31,32,3,8,71,,73,66,5,11,6,6,0.2,0.2
2024-10-05T1200,1952A,84.8988,45.5893,克拉玛依市,南林小区,,45,45,29,14,14,64,,62,51,12,17,2,2,0.1,0.1
2024-10-05T1200,1954A,84.905,44.3396,克拉玛依市,独山子区,,25,18,20,8,10,80,,63,63,10,15,10,10,0.5,0.4
2024-10-05T1200,1955A,85.6979,46.098,克拉玛依市,乌尔禾区商贸楼,,26,26,32,7,11,71,,40,40,8,22,2,2,0.3,0.3
2024-10-05T1200,3612A,85.1045,45.6899,克拉玛依市,白碱滩区新站,,28,28,29,3,8,78,,78,74,6,9,8,8,0.2,0.1
2024-10-05T1200,2697A,76.1454,39.7142,克孜勒苏柯尔克孜自治州,市人民政府,颗粒物(PM10),78,105,70,39,23,63,,76,69,16,14,26,9,0.9,0.8
2024-10-05T1200,3665A,76.1658,39.7157,克孜勒苏柯尔克孜自治州,克州文化中心,颗粒物(PM10),57,64,63,34,23,106,,83,81,9,14,6,11,0.2,0.3
2024-10-05T1200,1450A,102.8204,24.8886,昆明市,呈贡新区,,26,26,24,11,11,50,,34,34,5,11,6,5,0.5,0.6
2024-10-05T1200,1452A,102.7252,25.0902,昆明市,龙泉镇,,13,13,17,8,9,39,,31,31,9,13,7,7,0.6,0.7
2024-10-05T1200,1453A,102.7266,25.0375,昆明市,东风东路,,16,16,14,8,10,41,,30,30,9,11,7,6,0.5,0.5
2024-10-05T1200,1454A,102.6742,25.0669,昆明市,金鼎山,,14,14,16,6,6,38,,31,31,12,15,4,4,0.5,0.6
2024-10-05T1200,1455A,102.6644,25.0401,昆明市,碧鸡广场,,21,21,19,8,10,36,,26,26,11,17,8,7,0.4,0.5
2024-10-05T1200,3179A,102.7494,25.0119,昆明市,官渡区博物馆,,15,14,16,9,9,47,,36,36,7,10,8,6,0.5,0.5
2024-10-05T1200,3375A,102.8017,24.8336,昆明市,青年创业园,,15,14,14,9,10,46,,28,28,5,11,4,4,0.5,0.5
2024-10-05T1200,3550A,102.7997,24.9786,昆明市,昆明学院,,17,9,13,3,8,52,,37,37,5,9,6,6,0.4,0.5
2024-10-05T1200,3551A,102.5967,24.6736,昆明市,晋宁区生态环境分局,,22,22,17,14,12,52,,39,39,7,7,1,1,0.8,0.8
2024-10-05T1200,3552A,102.6678,24.9856,昆明市,云天化总部,,15,15,13,10,9,46,,35,35,6,8,7,6,0.4,0.4
2024-10-05T1200,1456A,91.1319,29.6514,拉萨市,八廓街,,25,13,12,8,6,80,,72,72,9,12,8,9,0.3,0.2
2024-10-05T1200,1457A,91.1221,29.6747,拉萨市,市环保局,,25,7,11,6,6,80,,71,71,8,10,7,7,0.3,0.2
2024-10-05T1200,1458A,91.0874,29.6475,拉萨市,区监测站,,23,11,11,6,6,72,,60,60,7,11,6,6,0.3,0.3
2024-10-05T1200,1459A,91.1774,29.6541,拉萨市,西藏大学,,25,7,9,6,5,80,,75,75,8,6,10,9,0.3,0.2
2024-10-05T1200,1460A,90.9798,29.6588,拉萨市,区辐射站,,22,14,12,6,6,68,,66,59,11,11,9,8,0.2,0.2
2024-10-05T1200,1461A,91.0834,29.6292,拉萨市,拉萨火车站,,22,8,10,7,6,70,,61,60,9,8,7,6,0.3,0.3
2024-10-05T1200,2520A,109.2203,23.7256,来宾市,来宾技工学校,颗粒物(PM10),51,52,63,30,32,139,,72,72,12,18,14,14,0.8,0.9
2024-10-05T1200,3535A,109.1781,23.7297,来宾市,兴宾区政府,,49,47,58,34,33,149,,78,78,11,12,16,10,0.8,0.7
2024-10-05T1200,4002A,109.2416,23.7461,来宾市,中南小学,,,56,73,36,32,139,,78,78,7,24,,14,0.9,1
2024-10-05T1200,1476A,103.631,36.1031,兰州市,兰炼宾馆,颗粒物(PM10),52,53,48,30,30,34,,21,20,32,34,14,9,0.8,0.5
2024-10-05T1200,1478A,103.8412,36.0726,兰州市,生物制品所,,46,41,39,32,27,34,,25,21,22,27,26,16,0.6,0.7
2024-10-05T1200,1479A,103.831,36.0464,兰州市,铁路设计院,,,51,47,32,31,24,,22,,36,42,,10,,0.7
2024-10-05T1200,3186A,103.7158,36.1058,兰州市,教育港,,44,44,48,30,30,36,,25,22,25,30,22,12,0.7,0.6
2024-10-05T1200,3241A,103.7439,36.0842,兰州市,百合公园,,45,45,42,22,22,32,,27,19,29,32,17,10,0.9,0.7
2024-10-05T1200,3242A,103.9611,35.998,兰州市,和平,颗粒物(PM10),51,52,40,12,19,38,,20,20,23,25,18,10,0.9,0.5
2024-10-05T1200,3245A,103.6633,36.533,兰州新区,新区管委会,颗粒物(PM10),55,59,49,20,24,29,,33,32,31,23,18,14,0.7,0.5
2024-10-05T1200,3246A,103.6975,36.4789,兰州新区,舟曲中学,颗粒物(PM10),55,59,43,29,21,32,,41,33,28,23,28,24,0.7,0.5
2024-10-05T1200,1067A,116.6708,39.5111,廊坊市,药材公司,细颗粒物(PM2.5),92,96,113,68,72,123,,51,51,27,37,9,9,0.5,0.6
2024-10-05T1200,1068A,116.7214,39.5589,廊坊市,开发区,细颗粒物(PM2.5),88,112,96,65,57,128,,40,40,31,36,6,5,0.5,0.5
2024-10-05T1200,1070A,116.7244,39.5269,廊坊市,北华航天学院,颗粒物(PM10),77,104,106,43,57,137,,47,47,23,38,7,7,0.5,0.6
2024-10-05T1200,2919A,116.7022,39.5453,廊坊市,河北工业大学,细颗粒物(PM2.5),90,94,96,67,65,127,,44,44,26,36,8,9,0.5,0.5
2024-10-05T1200,2535A,103.7723,29.5462,乐山市,花湖湾,,32,32,32,20,20,49,,24,24,16,17,2,2,0.6,0.7
2024-10-05T1200,2536A,103.7627,29.5844,乐山市,牛耳桥,,43,36,33,30,23,63,,36,36,19,23,5,7,0.4,0.4
2024-10-05T1200,2537A,103.7508,29.6006,乐山市,市第三水厂,,30,30,33,20,22,80,,44,44,9,19,5,7,0.5,0.6
2024-10-05T1200,2538A,103.7571,29.5664,乐山市,市监测站,,36,36,34,23,19,55,,33,33,17,20,5,7,0.5,0.5
2024-10-05T1200,3361A,103.7311,29.5628,乐山市,理工大学,,41,41,32,26,25,58,,30,30,17,19,5,4,0.4,0.5
2024-10-05T1200,2599A,100.2497,26.8802,丽江市,丽江古城,,18,16,18,12,11,35,,26,26,8,11,9,9,0.6,0.6
2024-10-05T1200,2600A,100.2203,26.8906,丽江市,市中心,,,31,16,13,12,33,,21,21,,8,7,7,,0.8
2024-10-05T1200,1267A,119.914,28.4514,丽水市,监测站大楼,,45,45,31,26,25,68,,60,57,20,19,6,6,0.4,0.4
2024-10-05T1200,1268A,119.93,28.4586,丽水市,莲都小学,,47,47,35,24,21,74,,72,69,19,17,4,4,0.5,0.4
2024-10-05T1200,1269A,119.879,28.4231,丽水市,余庄前,,30,30,32,20,20,73,,42,42,10,11,4,4,0.3,0.3
2024-10-05T1200,1173A,119.176,34.5885,连云港市,市环境监测站,,37,7,28,3,14,116,,69,69,6,17,6,8,0.2,0.4
2024-10-05T1200,3000A,119.3581,34.6972,连云港市,德源药业,,36,7,24,3,12,115,,59,59,3,22,6,7,0.1,0.2
2024-10-05T1200,3007A,119.178,34.844,连云港市,新城一中,,37,34,41,3,17,117,,79,79,13,30,5,9,0.3,0.7
2024-10-05T1200,3008A,119.3608,34.7519,连云港市,胡沟管理处,,30,7,20,3,9,96,,93,80,13,15,3,3,0.2,0.4
2024-10-05T1200,3009A,119.1478,34.5911,连云港市,矿山设计院,,36,12,32,7,18,113,,68,68,7,19,5,7,0.5,0.6
2024-10-05T1200,3434A,119.2413,34.6539,连云港市,工贸学校,,35,6,17,3,10,112,,84,82,8,13,7,8,0.3,0.5
2024-10-05T1200,3664A,119.4172,34.7341,连云港市,连云街道,,35,6,15,3,7,111,,96,92,9,13,4,6,0.2,0.3
2024-10-05T1200,2571A,102.3431,27.8099,凉山彝族自治州,青龙寺,,21,21,18,7,7,39,,16,16,11,9,9,6,0.8,0.8
2024-10-05T1200,2572A,102.2721,27.8415,凉山彝族自治州,邛海宾馆,,25,25,25,13,16,30,,15,15,16,20,13,10,0.8,0.8
2024-10-05T1200,2573A,102.2625,27.898,凉山彝族自治州,西昌市政府,,18,18,27,8,18,23,,15,15,20,19,12,9,0.9,0.8
2024-10-05T1200,2574A,102.2685,27.8851,凉山彝族自治州,凉山州政府,,26,26,24,12,15,27,,20,20,20,19,11,8,0.9,0.8
2024-10-05T1200,2575A,102.237,27.8914,凉山彝族自治州,长安,,24,24,24,11,12,21,,16,16,22,21,13,11,1.0,0.9
2024-10-05T1200,2212A,123.2,41.1953,辽阳市,宏伟区,,49,43,29,19,15,156,,124,124,12,13,8,7,0.6,0.5
2024-10-05T1200,2213A,123.1683,41.2495,辽阳市,新华园,,46,46,30,24,19,146,,111,111,14,16,14,13,1.0,0.8
2024-10-05T1200,2214A,123.2354,41.2639,辽阳市,滨河路,,45,44,29,21,15,144,,105,105,12,14,14,12,0.8,0.7
2024-10-05T1200,2215A,123.149,41.2991,辽阳市,铁西工业园,颗粒物(PM10),54,58,37,17,15,137,,104,104,17,16,18,14,0.9,0.8
2024-10-05T1200,2227A,125.1358,42.8845,辽源市,环保局,,49,28,34,15,20,155,,95,95,5,20,10,9,0.6,0.8
2024-10-05T1200,3239A,125.0764,42.9078,辽源市,银鹰制药,,46,28,42,15,20,146,,87,87,10,27,7,7,0.7,0.7
2024-10-05T1200,1625A,115.9848,36.4372,聊城市,区政府,,45,45,72,17,32,143,,95,95,14,26,10,11,0.5,0.5
2024-10-05T1200,2878A,116.0072,36.4343,聊城市,聊大东校,,47,44,78,27,41,150,,94,94,14,30,9,10,0.5,0.7
2024-10-05T1200,3200A,115.9819,36.4978,聊城市,监控中心,,48,48,67,27,35,144,,100,100,14,24,9,10,0.6,0.6
2024-10-05T1200,3513A,116.0445,36.4361,聊城市,九州社区,,48,48,68,20,31,146,,95,95,7,25,4,7,0.4,0.4
2024-10-05T1200,4018A,116.0567,36.4608,聊城市,星美广场,颗粒物(PM10),51,52,72,25,32,150,,102,102,6,18,10,8,0.4,0.5
2024-10-05T1200,2632A,94.3681,29.6376,林芝市,林芝监测站,,8,6,4,3,4,23,,17,15,4,3,10,10,0.2,0.2
2024-10-05T1200,2633A,94.3616,29.6616,林芝市,林芝人民医院,,8,6,5,3,3,24,,19,18,7,6,5,5,0.3,0.3
2024-10-05T1200,2603A,100.0781,23.8982,临沧市,市环保局,,12,10,13,8,12,33,,12,12,6,8,4,4,0.4,0.5
2024-10-05T1200,2604A,100.0894,23.8822,临沧市,市气象局,,13,13,12,8,11,30,,12,12,10,9,3,3,0.5,0.6
2024-10-05T1200,1733A,111.5531,36.0783,临汾市,临钢医院,颗粒物(PM10),58,65,91,39,42,130,,60,60,19,47,9,6,0.7,0.7
2024-10-05T1200,1734A,111.5028,36.0714,临汾市,技工学校,颗粒物(PM10),59,67,89,39,49,136,,90,90,30,42,8,6,0.7,0.7
2024-10-05T1200,1736A,111.5018,36.0855,临汾市,市委,颗粒物(PM10),60,70,89,41,39,150,,97,97,17,33,10,7,0.6,0.7
2024-10-05T1200,3018A,111.505,36.1014,临汾市,唐尧大酒店,颗粒物(PM10),60,70,83,41,41,143,,86,86,18,34,9,6,0.7,0.7
2024-10-05T1200,3668A,111.5036,36.0414,临汾市,城南,细颗粒物(PM2.5),62,69,91,44,49,148,,82,82,16,38,10,7,0.6,0.6
2024-10-05T1200,2667A,103.2069,35.5993,临夏回族自治州,环保局,,44,44,56,29,26,32,,12,12,21,27,14,12,0.6,0.7
2024-10-05T1200,2668A,103.2417,35.6057,临夏回族自治州,建设大厦,细颗粒物(PM2.5),53,48,51,37,27,35,,16,16,22,22,3,3,0.6,0.6
2024-10-05T1200,1618A,118.3429,35.0532,临沂市,沂河小区,,38,36,56,26,32,121,,81,81,15,19,10,13,0.4,0.4
2024-10-05T1200,1619A,118.295,35.0583,临沂市,鲁南制药厂,,40,36,51,23,28,127,,67,67,11,22,8,11,0.4,0.4
2024-10-05T1200,1620A,118.2794,34.9976,临沂市,新光毛纺厂,,38,29,58,26,38,121,,66,66,21,33,9,10,0.6,0.7
2024-10-05T1200,1621A,118.3956,35.0888,临沂市,河东保险公司,,41,39,63,23,42,130,,67,67,21,39,9,9,0.8,0.8
2024-10-05T1200,3370A,118.3564,35.0215,临沂市,十里堡居委,,38,36,45,19,32,121,,80,80,17,26,8,15,0.7,0.7
2024-10-05T1200,3496A,118.3604,35.1084,临沂市,南坊新区,,40,34,56,17,38,127,,76,76,14,23,10,10,0.7,0.6
2024-10-05T1200,3860A,118.3920,35.0300,临沂市,皇山花园小区,,42,39,61,29,46,120,,64,64,16,30,10,11,0.7,0.7
2024-10-05T1200,1870A,109.4856,24.3895,柳州市,柳东小学,,46,46,53,29,31,129,,99,99,6,9,11,12,0.6,0.6
2024-10-05T1200,1871A,109.4157,24.3277,柳州市,环保监测站,,45,41,72,31,39,135,,74,74,9,20,11,11,0.7,0.8
2024-10-05T1200,1872A,109.389,24.341,柳州市,河西水厂,,45,44,84,31,43,133,,66,66,9,23,11,16,0.6,0.8
2024-10-05T1200,1873A,109.4311,24.2921,柳州市,市四中,颗粒物(PM10),55,60,60,33,33,142,,98,98,8,18,10,12,0.8,0.9
2024-10-05T1200,1874A,109.4006,24.3631,柳州市,市九中,细颗粒物(PM2.5),54,56,78,38,42,138,,71,71,8,22,8,10,0.9,1
2024-10-05T1200,1875A,109.4958,24.3134,柳州市,古亭山,颗粒物(PM10),55,59,46,32,26,138,,113,113,10,30,11,11,0.8,0.7
2024-10-05T1200,3402A,109.5422,24.3996,柳州市,市二中,,47,47,50,28,31,140,,84,84,10,16,13,11,0.6,0.6
2024-10-05T1200,2307A,116.5079,31.737,六安市,监测大楼,,36,23,36,7,23,113,,67,67,8,18,7,6,0.4,0.4
2024-10-05T1200,2308A,116.4738,31.7643,六安市,皖西学院,,41,41,50,9,27,112,,53,53,8,24,7,6,0.5,0.6
2024-10-05T1200,2309A,116.4996,31.7905,六安市,朝阳厂,,35,22,34,7,23,112,,58,58,10,21,3,2,0.4,0.4
2024-10-05T1200,2310A,116.5567,31.7886,六安市,开发区,,37,33,46,17,27,116,,61,61,11,21,3,2,0.5,0.5
2024-10-05T1200,2577A,104.83,26.5917,六盘水市,黄土坡,,42,42,32,21,21,72,,86,80,11,10,5,6,0.4,0.4
2024-10-05T1200,2578A,104.89,26.5939,六盘水市,水钢,,49,49,35,16,18,83,,91,88,8,7,6,6,0.2,0.2
2024-10-05T1200,2579A,104.8475,26.5894,六盘水市,民中,,35,33,30,24,17,75,,88,81,13,12,7,8,0.5,0.5
2024-10-05T1200,2580A,104.9544,26.5506,六盘水市,双水,颗粒物(PM10),52,53,33,34,18,87,,87,86,4,5,6,7,0.4,0.4
2024-10-05T1200,2336A,117.0217,25.1033,龙岩市,龙岩市监测站,,25,19,14,12,14,77,,55,54,8,9,9,8,0.4,0.4
2024-10-05T1200,2337A,117.0258,25.0661,龙岩市,闽西职业技术学院,,25,13,13,3,11,80,,58,58,3,5,7,6,0.5,0.5
2024-10-05T1200,2338A,117.0196,25.0306,龙岩市,龙岩学院,,25,12,13,3,10,79,,55,55,5,7,8,5,0.4,0.4
2024-10-05T1200,2885A,104.9339,33.3826,陇南市,滨江中学,,34,34,34,10,17,62,,54,53,9,8,10,9,0.5,0.4
2024-10-05T1200,3247A,104.955,33.371,陇南市,市总工会,,,,29,,4,66,,56,56,8,7,5,4,0.4,0.3
2024-10-05T1200,2487A,111.9589,27.8901,娄底市,电视发射台,颗粒物(PM10),51,52,46,23,24,132,,97,97,7,7,8,7,1.0,0.9
2024-10-05T1200,2488A,111.9975,27.725,娄底市,市监测站,颗粒物(PM10),57,64,64,36,41,159,,75,75,11,22,12,19,0.6,0.9
2024-10-05T1200,2489A,112.0194,27.7314,娄底市,市委党校,颗粒物(PM10),59,68,66,37,42,142,,67,67,14,21,10,12,0.6,0.7
2024-10-05T1200,2490A,111.9561,27.7569,娄底市,涟钢,,39,39,59,27,38,114,,69,69,14,17,16,10,1.1,0.8
2024-10-05T1200,2491A,111.9892,27.7044,娄底市,市政府,颗粒物(PM10),52,53,55,30,38,152,,68,68,12,14,11,8,0.5,0.5
2024-10-05T1200,1893A,105.4324,28.9634,泸州市,九狮山,,35,35,45,21,25,57,,48,48,17,19,4,5,0.8,0.8
2024-10-05T1200,1894A,105.4427,28.9063,泸州市,小市上码头,颗粒物(PM10),52,53,46,25,24,54,,57,56,26,19,4,4,0.5,0.5
2024-10-05T1200,1895A,105.4241,28.8573,泸州市,兰田宪桥,,43,42,36,30,26,53,,57,57,27,14,3,4,0.5,0.5
2024-10-05T1200,1896A,105.4379,28.8833,泸州市,市环监站,细颗粒物(PM2.5),53,47,44,37,31,41,,51,50,31,20,3,3,0.6,0.6
2024-10-05T1200,3490A,105.3617,28.7703,泸州市,纳溪区环保局,,47,47,39,31,27,66,,55,55,12,16,7,7,0.4,0.4
2024-10-05T1200,2183A,111.1406,37.5211,吕梁市,环保局,颗粒物(PM10),55,60,90,23,30,119,,38,38,13,37,7,7,0.5,0.6
2024-10-05T1200,2185A,111.1297,37.5136,吕梁市,自来水公司,颗粒物(PM10),52,53,77,20,28,114,,32,32,16,32,5,6,0.5,0.6
2024-10-05T1200,2867A,111.1283,37.51,吕梁市,马茂庄小学,颗粒物(PM10),55,60,88,22,27,127,,37,37,14,43,6,6,0.5,0.5
2024-10-05T1200,1812A,112.3931,34.6516,洛阳市,市委党校,细颗粒物(PM2.5),88,101,90,65,59,95,,50,50,33,40,18,12,0.6,0.6
2024-10-05T1200,1814A,112.4657,34.6871,洛阳市,豫西宾馆,颗粒物(PM10),73,95,89,51,47,73,,46,46,34,32,16,14,0.8,0.7
2024-10-05T1200,1815A,112.494,34.6886,洛阳市,河南林校,,,,75,,51,96,,61,61,28,31,,9,0.5,0.7
2024-10-05T1200,1816A,112.3844,34.623,洛阳市,开发区管委会,细颗粒物(PM2.5),88,103,88,65,58,90,,57,57,35,34,21,6,0.6,0.4
2024-10-05T1200,1817A,112.4267,34.6258,洛阳市,市委新办公区,细颗粒物(PM2.5),89,104,90,66,57,92,,51,51,30,33,13,6,0.5,0.4
2024-10-05T1200,3340A,112.6005,34.6326,洛阳市,伊滨,细颗粒物(PM2.5),93,100,83,69,54,74,,35,35,38,35,18,12,0.6,0.4
2024-10-05T1200,3341A,112.4951,34.6332,洛阳市,中移产业园,细颗粒物(PM2.5),82,83,77,60,54,93,,54,54,35,36,9,7,0.6,0.5
2024-10-05T1200,3593A,112.5736,34.8993,洛阳市,吉利监测站,颗粒物(PM10),72,94,72,51,39,78,,37,37,44,49,19,11,0.5,0.4
2024-10-05T1200,3635A,112.3677,34.662,洛阳市,河科大西苑校区,细颗粒物(PM2.5),85,101,90,63,59,92,,49,49,44,46,19,10,0.7,0.6
2024-10-05T1200,3636A,112.4388,34.6781,洛阳市,英才小学,颗粒物(PM10),79,107,94,50,45,77,,47,47,48,41,9,7,0.6,0.5
2024-10-05T1200,2399A,114.051,33.5699,漯河市,三五一五工厂,颗粒物(PM10),63,76,97,19,47,93,,55,55,16,26,8,9,0.5,0.5
2024-10-05T1200,2400A,114.0055,33.5698,漯河市,漯河大学,颗粒物(PM10),74,97,88,22,37,91,,72,66,15,20,7,7,0.6,0.6
2024-10-05T1200,2401A,114.0138,33.5828,漯河市,市水利局,颗粒物(PM10),68,85,90,24,40,87,,60,52,14,21,9,9,0.7,0.7
2024-10-05T1200,2402A,114.0261,33.5698,漯河市,市广电局,颗粒物(PM10),66,81,86,33,44,92,,68,66,16,21,11,10,0.5,0.5
2024-10-05T1200,3478A,113.9749,33.5664,漯河市,市图书馆,颗粒物(PM10),63,76,74,33,33,94,,75,72,13,20,7,6,0.4,0.4
2024-10-05T1200,3479A,114.0967,33.5906,漯河市,召陵区卫健委,颗粒物(PM10),55,60,106,24,55,96,,37,37,10,36,10,14,0.5,0.6
2024-10-05T1200,1798A,118.5092,31.6837,马鞍山市,湖东路四小,,38,38,28,17,12,97,,81,81,15,15,7,7,0.7,0.5
2024-10-05T1200,1799A,118.5024,31.6449,马鞍山市,开发区,,33,33,27,23,15,92,,79,79,20,21,7,7,0.6,0.7
2024-10-05T1200,1800A,118.5228,31.7231,马鞍山市,慈湖,,32,19,18,14,15,100,,87,87,13,12,8,7,0.6,0.5
2024-10-05T1200,1802A,118.6245,31.7241,马鞍山市,濮塘,,31,25,23,16,15,98,,78,78,6,4,9,9,1.0,0.9
2024-10-05T1200,3633A,118.4918,31.6809,马鞍山市,雨山,,31,31,26,19,14,96,,81,81,15,15,6,6,0.7,0.6
2024-10-05T1200,1686A,111.0286,21.4688,茂名市,电白南海,颗粒物(PM10),52,53,59,19,23,138,,84,84,8,20,14,17,0.6,0.7
2024-10-05T1200,1687A,110.9294,21.6533,茂名市,茂石化七小,,39,36,46,24,24,122,,88,88,8,14,16,18,0.6,0.7
2024-10-05T1200,1688A,110.9107,21.6687,茂名市,健康路,,41,39,47,14,26,130,,86,86,5,13,16,34,0.6,0.7
2024-10-05T1200,1689A,110.8592,21.6828,茂名市,高岭,,42,39,60,22,31,132,,71,71,8,19,13,18,0.8,0.8
2024-10-05T1200,3450A,111.01,21.5165,茂名市,电白水东,,39,27,42,22,25,123,,88,88,8,12,8,20,0.6,0.6
2024-10-05T1200,2539A,104.0308,30.0478,眉山市,黑龙滩水库,,40,40,35,21,24,85,,49,49,4,6,4,4,0.5,0.5
2024-10-05T1200,2540A,103.8416,30.0874,眉山市,气象局,,42,,25,29,20,51,,44,44,25,19,11,7,0.5,0.4
2024-10-05T1200,3137A,103.8578,30.0744,眉山市,市委党校,,39,39,25,24,13,49,,56,56,30,19,12,9,0.5,0.4
2024-10-05T1200,3148A,103.8291,30.0564,眉山市,区人社局,,33,33,27,22,14,46,,53,50,32,23,11,8,0.6,0.5
2024-10-05T1200,1690A,116.1231,24.3284,梅州市,梅江月梅,,33,33,24,20,18,75,,48,48,12,11,8,8,0.6,0.6
2024-10-05T1200,1691A,116.0797,24.2719,梅州市,梅县新城,,28,26,23,19,22,84,,54,54,10,14,6,5,0.5,0.6
2024-10-05T1200,1692A,116.1248,24.2654,梅州市,环境监控中心,,24,24,26,16,20,73,,54,54,13,17,6,6,0.5,0.5
2024-10-05T1200,3315A,116.1233,24.2991,梅州市,梅龙,,24,19,19,15,15,76,,53,53,9,9,10,10,0.6,0.6
2024-10-05T1200,1878A,104.7778,31.4741,绵阳市,富乐山,,,33,34,,20,69,,48,48,25,18,,3,0.5,0.5
2024-10-05T1200,1879A,104.7563,31.4535,绵阳市,市人大,,41,41,47,22,31,69,,48,48,26,21,11,11,0.6,0.5
2024-10-05T1200,1880A,104.6697,31.4668,绵阳市,高新区自来水公司,,43,43,49,24,22,76,,50,50,13,23,6,6,0.5,0.5
2024-10-05T1200,1881A,104.7287,31.5075,绵阳市,三水厂,,43,43,40,29,28,58,,32,32,20,26,9,7,0.5,0.4
2024-10-05T1200,3491A,104.69,31.5322,绵阳市,西科大附属小学,,44,44,42,21,25,66,,39,39,12,26,8,5,0.5,0.5
2024-10-05T1200,3492A,104.5648,31.5343,绵阳市,安州区旅游局,细颗粒物(PM2.5),58,53,33,41,26,60,,34,34,14,17,12,8,0.5,0.5
2024-10-05T1200,1784A,129.61,44.561,牡丹江市,环保大楼,,33,33,31,9,20,97,,37,37,9,22,8,7,0.4,0.4
2024-10-05T1200,1785A,129.6115,44.5782,牡丹江市,文化广场,,29,29,53,9,27,87,,32,32,12,32,9,10,0.4,0.6
2024-10-05T1200,1786A,129.5904,44.5963,牡丹江市,第一医院,,33,33,46,15,30,93,,34,34,9,24,8,7,0.4,0.5
2024-10-05T1200,1787A,129.6364,44.6075,牡丹江市,机车工厂,,29,25,48,15,27,91,,33,33,11,23,7,18,0.3,0.4
2024-10-05T1200,1788A,129.6386,44.5462,牡丹江市,第一中学,,34,13,27,10,15,107,,40,40,8,19,8,6,0.3,0.3
2024-10-05T1200,2531A,105.0703,29.61,内江市,市监测站,,44,44,34,29,23,59,,43,40,26,18,7,7,0.3,0.3
2024-10-05T1200,2532A,105.0717,29.5947,内江市,东兴区政府,,46,46,33,28,21,58,,50,50,36,22,5,6,0.5,0.5
2024-10-05T1200,2533A,105.0653,29.5817,内江市,内江二中,,45,,35,31,26,58,,49,49,27,21,5,5,0.5,0.5
2024-10-05T1200,2534A,105.0406,29.5822,内江市,内江日报社,,43,32,36,30,24,55,,46,46,30,24,2,3,0.4,0.4
2024-10-05T1200,2628A,92.0657,31.4846,那曲市,那曲监测站,,29,24,24,12,10,92,,86,80,5,6,6,6,0.2,0.3
2024-10-05T1200,3128A,92.0506,31.4797,那曲市,那曲会议中心,,44,44,33,11,10,95,,82,79,7,9,4,3,0.4,0.4
2024-10-05T1200,1290A,115.8931,28.6843,南昌市,省外办,,41,30,40,24,28,131,,92,92,18,24,11,12,0.6,0.6
2024-10-05T1200,1291A,115.8886,28.7003,南昌市,省林业公司,,44,34,42,17,23,138,,94,94,12,19,8,8,0.6,0.7
2024-10-05T1200,1292A,115.8126,28.7442,南昌市,林科所,,45,29,29,12,17,142,,111,111,15,17,10,10,0.6,0.6
2024-10-05T1200,1294A,115.8518,28.687,南昌市,建工学校,,43,35,39,23,22,137,,100,100,10,15,10,10,0.5,0.6
2024-10-05T1200,1295A,115.8921,28.6424,南昌市,象湖,,46,34,35,11,22,147,,105,105,15,21,9,10,0.5,0.6
2024-10-05T1200,1296A,115.7423,28.7996,南昌市,武术学校,,38,,19,26,20,117,,59,59,8,8,3,3,0.5,0.5
2024-10-05T1200,1298A,115.9314,28.6842,南昌市,省站,,40,40,42,20,25,126,,89,89,14,19,11,12,0.6,0.6
2024-10-05T1200,3046A,115.9084,28.6062,南昌市,机电学校,,44,41,46,19,23,138,,95,95,15,20,8,10,0.6,0.6
2024-10-05T1200,3690A,115.9721,28.7031,南昌市,外国语学校,,40,38,40,22,22,128,,89,89,11,17,7,8,0.5,0.5
2024-10-05T1200,1905A,106.056,30.8064,南充市,西山风景区,,46,36,32,32,26,48,,64,55,17,12,4,6,0.8,0.8
2024-10-05T1200,1906A,106.0789,30.8023,南充市,南充市委,细颗粒物(PM2.5),62,64,47,44,31,41,,31,24,28,25,5,5,0.5,0.4
2024-10-05T1200,1907A,106.1031,30.8217,南充市,南充炼油厂,"颗粒物(PM10),细颗粒物(PM2.5)",57,64,57,40,36,51,,42,37,23,22,7,7,0.4,0.4
2024-10-05T1200,1908A,106.1064,30.7856,南充市,高坪区监测站,细颗粒物(PM2.5),75,64,56,55,38,50,,40,40,28,28,8,8,0.6,0.5
2024-10-05T1200,1909A,106.0642,30.7636,南充市,嘉陵区环保局,颗粒物(PM10),55,59,57,36,32,51,,26,24,25,34,6,6,0.5,0.5
2024-10-05T1200,1910A,106.1087,30.8388,南充市,市环境监测站,细颗粒物(PM2.5),62,60,57,44,36,48,,32,32,16,29,7,6,0.3,0.3
2024-10-05T1200,1151A,118.8086,32.1065,南京市,迈皋桥,,30,17,21,7,10,96,,58,58,14,23,4,4,0.3,0.3
2024-10-05T1200,1152A,118.7538,32.0551,南京市,草场门,,30,19,21,7,9,95,,75,75,16,23,5,6,0.2,0.2
2024-10-05T1200,1153A,118.7794,32.0745,南京市,山西路,,32,22,25,9,12,101,,72,72,9,17,4,4,0.3,0.4
2024-10-05T1200,1154A,118.7752,32.0023,南京市,中华门,,30,27,22,7,9,94,,76,76,8,16,6,6,0.4,0.4
2024-10-05T1200,1155A,118.8109,32.0309,南京市,瑞金路,,29,27,22,12,10,91,,80,80,14,17,4,4,0.4,0.4
2024-10-05T1200,1156A,118.7997,32.0754,南京市,玄武湖,,28,20,27,6,10,89,,63,63,17,37,6,6,0.3,0.3
2024-10-05T1200,1157A,118.6414,32.0931,南京市,浦口,,,,24,10,13,83,,61,61,15,17,,6,0.2,0.3
2024-10-05T1200,1158A,118.7356,31.9996,南京市,奥体中心,,32,27,24,17,14,100,,88,88,15,19,6,6,0.3,0.3
2024-10-05T1200,1159A,118.9125,32.1028,南京市,仙林大学城,,31,24,28,12,12,97,,67,67,14,24,6,6,0.4,0.4
2024-10-05T1200,3422A,118.8436,31.9198,南京市,江宁彩虹桥,,32,32,25,14,9,101,,77,77,6,14,4,4,0.4,0.3
2024-10-05T1200,3423A,119.0138,31.6494,南京市,溧水永阳,,27,27,24,10,15,78,,69,69,12,15,4,4,0.8,0.6
2024-10-05T1200,3424A,118.879,31.3302,南京市,高淳老职中,,,,23,11,19,97,,82,82,12,16,2,5,0.6,0.6
2024-10-05T1200,3427A,118.8554,32.3578,南京市,六合雄州,,33,11,28,7,16,105,,62,62,9,17,8,8,0.3,0.3
2024-10-05T1200,1401A,108.3103,22.7881,南宁市,二十一中,颗粒物(PM10),53,55,70,27,43,157,,59,59,15,34,11,15,0.9,0.9
2024-10-05T1200,1402A,108.3141,22.8528,南宁市,北湖,颗粒物(PM10),55,60,70,34,36,141,,70,70,25,41,17,20,0.9,0.9
2024-10-05T1200,1403A,108.3206,22.8225,南宁市,市监测站,颗粒物(PM10),62,73,72,33,37,153,,65,65,21,37,14,19,0.8,0.8
2024-10-05T1200,1404A,108.3829,22.8037,南宁市,大自然花园,,49,49,58,34,35,146,,60,60,10,22,11,12,0.6,0.7
2024-10-05T1200,1405A,108.4394,22.7904,南宁市,仙葫,,47,47,61,26,41,137,,66,66,10,25,12,19,0.8,0.8
2024-10-05T1200,1406A,108.2397,22.8467,南宁市,区农职院,颗粒物(PM10),61,71,66,35,36,137,,62,62,23,20,20,19,0.7,0.7
2024-10-05T1200,1407A,108.3275,22.735,南宁市,英华嘉园,颗粒物(PM10),52,54,65,25,39,143,,67,67,14,31,10,10,0.5,0.6
2024-10-05T1200,1408A,108.2257,22.7757,南宁市,沙井镇街道办,颗粒物(PM10),72,93,77,46,41,120,,51,51,34,41,16,9,0.9,0.8
2024-10-05T1200,3401A,108.4834,22.7618,南宁市,红星社区,,45,42,58,22,33,143,,79,79,10,22,8,12,0.6,0.6
2024-10-05T1200,2332A,118.1681,26.6369,南平市,南平市监测站,,36,34,23,25,16,88,,54,54,7,9,6,5,0.4,0.4
2024-10-05T1200,2333A,118.1825,26.6489,南平市,南平铝业有限公司,,27,27,22,13,16,85,,48,48,8,10,5,5,0.4,0.5
2024-10-05T1200,2334A,118.1756,26.6272,南平市,南平七中,,41,41,20,15,15,84,,45,45,5,12,5,3,0.4,0.6
2024-10-05T1200,1168A,120.9098,31.9663,南通市,狼山街道,,32,12,20,3,9,100,,88,88,4,10,6,6,0.3,0.3
2024-10-05T1200,1169A,120.86,32.0005,南通市,虹桥,,30,15,20,6,11,96,,84,84,5,11,6,7,0.4,0.4
2024-10-05T1200,1170A,120.87,32.02,南通市,城中,,31,14,24,3,10,98,,84,84,9,13,5,6,0.4,0.4
2024-10-05T1200,1171A,120.94,31.93,南通市,星湖花园,,31,8,14,3,9,99,,84,84,9,14,6,6,0.5,0.4
2024-10-05T1200,1172A,120.81,32.0417,南通市,紫琅学院,,30,8,19,3,12,93,,82,82,6,14,7,8,0.3,0.3
2024-10-05T1200,3291A,121.067,32.062,南通市,通州监测站,,32,14,19,3,9,102,,94,94,6,8,3,2,0.5,0.4
2024-10-05T1200,3432A,120.9348,31.9883,南通市,环境教育馆,,33,14,23,3,9,103,,86,86,6,14,3,3,0.4,0.4
2024-10-05T1200,2404A,112.5224,33.0122,南阳市,瓦房庄,细颗粒物(PM2.5),62,67,69,44,48,121,,93,93,19,21,8,6,0.6,0.6
2024-10-05T1200,2405A,112.5003,32.9735,南阳市,汉画馆,"颗粒物(PM10),细颗粒物(PM2.5)",54,58,61,38,42,115,,92,92,20,20,9,7,0.6,0.5
2024-10-05T1200,2406A,112.5573,33.027,南阳市,气象站,颗粒物(PM10),57,64,74,31,44,118,,87,87,22,24,10,10,0.6,0.6
2024-10-05T1200,2407A,112.5481,32.9689,南阳市,理工学院,颗粒物(PM10),55,60,69,37,46,117,,90,90,20,22,11,8,0.6,0.6
2024-10-05T1200,4008A,112.5234,32.9922,南阳市,卧龙区政府,细颗粒物(PM2.5),58,62,66,41,41,118,,93,93,23,23,8,6,0.7,0.6
2024-10-05T1200,1234A,121.8358,29.911,宁波市,区环保大楼,,28,17,18,3,5,88,,69,69,12,16,6,6,0.6,0.6
2024-10-05T1200,1235A,121.56,29.82,宁波市,万里学院,,25,15,19,8,8,79,,73,65,17,13,6,6,0.5,0.5
2024-10-05T1200,1236A,121.713,29.9572,宁波市,龙赛医院,,26,15,21,3,4,82,,86,81,18,11,8,7,0.6,0.6
2024-10-05T1200,1239A,121.633,29.7733,宁波市,钱湖水厂,,24,8,17,3,7,75,,64,60,18,15,8,8,0.6,0.5
2024-10-05T1200,1240A,121.5856,29.8635,宁波市,太古小学,,26,18,20,3,11,83,,72,69,17,17,7,7,0.7,0.6
2024-10-05T1200,1241A,121.524,29.8674,宁波市,市环境监测中心,,26,14,18,3,5,82,,71,63,16,14,4,5,0.5,0.5
2024-10-05T1200,2871A,121.6147,29.9017,宁波市,万里国际学校,,29,22,25,11,12,90,,80,78,15,20,7,8,0.5,0.5
2024-10-05T1200,3710A,121.5594,29.8975,宁波市,白沙活动中心,,26,18,24,3,5,83,,70,68,18,15,8,8,0.3,0.3
2024-10-05T1200,2341A,119.5388,26.6612,宁德市,宁德市监测站,,16,13,13,8,10,49,,24,24,20,22,7,6,0.6,0.6
2024-10-05T1200,3209A,119.5231,26.6562,宁德市,宁德一中,,25,17,16,17,13,56,,27,27,15,12,6,6,0.5,0.5
2024-10-05T1200,2618A,98.8601,25.8567,怒江傈僳族自治州,州监测站,,17,17,18,9,13,24,,19,19,9,9,6,6,0.4,0.4
2024-10-05T1200,2619A,98.8546,25.8417,怒江傈僳族自治州,泸水一中,,15,13,15,10,8,22,,13,13,9,12,6,6,0.4,0.4
2024-10-05T1200,1888A,101.6891,26.571,攀枝花市,弄弄坪,,37,37,54,14,26,47,,17,17,15,29,18,16,0.6,0.7
2024-10-05T1200,1889A,101.5769,26.5928,攀枝花市,河门口,,23,23,31,14,18,47,,19,19,15,20,23,18,1.2,1.2
2024-10-05T1200,1890A,101.7169,26.585,攀枝花市,炳草岗,,32,32,44,11,23,52,,19,19,12,26,21,16,0.6,0.7
2024-10-05T1200,1891A,101.7369,26.5008,攀枝花市,仁和,,14,9,19,3,13,43,,20,20,6,13,7,7,0.4,0.5
2024-10-05T1200,2835A,101.7227,26.567,攀枝花市,四十中小,,36,35,36,25,25,53,,23,23,13,16,26,12,0.9,0.9
2024-10-05T1200,1604A,122.0303,41.1489,盘锦市,开发区,臭氧1小时,65,56,34,32,26,172,,125,125,14,15,30,13,0.6,0.4
2024-10-05T1200,1605A,122.0485,41.0883,盘锦市,兴隆台,臭氧1小时,52,32,29,32,24,161,,124,124,17,19,8,6,0.5,0.4
2024-10-05T1200,1606A,121.8297,41.1028,盘锦市,新生街道,臭氧1小时,78,58,33,36,24,182,,129,129,17,16,12,9,0.6,0.5
2024-10-05T1200,1832A,113.3257,33.742,平顶山市,新华旅馆,颗粒物(PM10),64,78,116,43,55,94,,59,59,23,34,16,10,0.5,0.5
2024-10-05T1200,1833A,113.2919,33.737,平顶山市,规划设计院,细颗粒物(PM2.5),68,84,96,49,50,105,,74,74,21,30,22,10,0.6,0.6
2024-10-05T1200,1834A,113.182,33.774,平顶山市,平顶山工学院,细颗粒物(PM2.5),94,119,92,70,45,67,,44,44,37,36,10,8,0.6,0.5
2024-10-05T1200,3204A,113.3025,33.73,平顶山市,规划局,细颗粒物(PM2.5),72,78,112,52,59,95,,64,64,22,32,19,10,0.5,0.5
2024-10-05T1200,3594A,112.8867,33.9116,平顶山市,石龙区,,,142,118,72,47,,,16,16,52,61,,15,1.0,0.7
2024-10-05T1200,2656A,106.6692,35.5461,平凉市,聚贤嘉苑,细颗粒物(PM2.5),70,78,58,51,32,78,,62,53,21,25,10,10,0.5,0.4
2024-10-05T1200,2657A,106.7021,35.5307,平凉市,博物馆,颗粒物(PM10),71,91,63,49,32,83,,67,59,31,34,13,14,0.5,0.4
2024-10-05T1200,2347A,114.0997,27.5002,萍乡市,武功山,,35,6,17,3,9,109,,67,67,4,6,7,6,0.3,0.3
2024-10-05T1200,2348A,113.8385,27.6434,萍乡市,中医院,,40,37,42,19,23,126,,68,68,10,14,17,13,0.6,0.7
2024-10-05T1200,2349A,113.8493,27.6253,萍乡市,市政府车库,,45,45,42,18,30,128,,65,65,9,17,16,16,0.8,0.9
2024-10-05T1200,2350A,113.8676,27.6435,萍乡市,市环保局,,47,47,43,25,29,122,,65,65,6,13,15,17,0.7,0.7
2024-10-05T1200,2351A,113.866,27.6198,萍乡市,安源区政府,,40,27,46,13,22,126,,64,64,10,26,12,13,0.3,0.5
2024-10-05T1200,2319A,119.0141,25.4325,莆田市,荔城区仓后路,,18,6,7,3,1,57,,56,53,8,8,7,7,0.5,0.4
2024-10-05T1200,2320A,119.0015,25.4553,莆田市,莆田市监测站,,18,8,5,3,0,56,,64,59,6,5,6,6,0.4,0.4
2024-10-05T1200,2321A,119.1119,25.4561,莆田市,涵江区六中,,21,9,11,3,2,67,,54,51,5,11,8,8,0.6,0.6
2024-10-05T1200,2322A,119.1013,25.3215,莆田市,秀屿区政府,,39,39,20,6,2,66,,56,56,9,10,7,7,0.6,0.6
2024-10-05T1200,2392A,115.0312,35.7636,濮阳市,环保局,,39,39,53,16,33,120,,80,80,12,23,5,4,0.4,0.4
2024-10-05T1200,2394A,115.0574,35.7609,濮阳市,油田运输公司,,38,34,58,26,37,116,,75,75,10,24,4,4,0.4,0.4
2024-10-05T1200,2395A,115.0866,35.7754,濮阳市,油田物探公司,,38,36,61,21,36,120,,79,79,7,23,2,3,0.3,0.3
2024-10-05T1200,3021A,115,35.7668,濮阳市,濮水河管理处,,,40,46,,28,115,,72,72,9,17,4,2,,0.3
2024-10-05T1200,2601A,100.98,22.7633,普洱市,市环保局,,25,25,19,8,12,47,,33,33,4,5,4,4,0.4,0.4
2024-10-05T1200,2602A,100.9817,22.8322,普洱市,普洱第二中学,,24,24,23,11,9,48,,21,21,5,10,5,4,0.5,0.5
2024-10-05T1200,2262A,131.0518,45.8751,七台河市,新一中,,44,29,21,12,11,139,,65,65,8,11,8,9,1.3,1.2
2024-10-05T1200,3345A,131.0577,45.7879,七台河市,中波台,,35,33,29,6,8,109,,50,50,11,20,7,7,0.5,0.6
2024-10-05T1200,3637A,131.0176,45.7761,七台河市,人民广场,,36,36,36,18,17,108,,49,49,11,25,9,8,0.4,0.5
2024-10-05T1200,3684A,130.8781,45.8222,七台河市,新建矿广场,,39,39,102,15,23,104,,46,46,13,35,7,8,0.4,0.5
2024-10-05T1200,1779A,123.9305,47.3636,齐齐哈尔市,安居小区,,30,30,43,9,15,69,,72,61,5,13,8,11,0.3,0.5
2024-10-05T1200,1780A,123.9488,47.3386,齐齐哈尔市,中心广场,,23,23,44,7,8,66,,76,65,7,12,2,3,0.2,0.3
2024-10-05T1200,1781A,123.9483,47.3227,齐齐哈尔市,农牧车辆厂,颗粒物(PM10),67,83,46,6,11,67,,72,63,5,8,7,9,0.2,0.2
2024-10-05T1200,1783A,123.945,47.2988,齐齐哈尔市,市环境监测站,,34,34,38,8,14,70,,78,67,5,8,8,9,0.2,0.3
2024-10-05T1200,3662A,123.6333,47.2075,齐齐哈尔市,富区青少年活动中心,,38,38,45,11,8,72,,58,57,5,12,4,6,0.3,0.5
2024-10-05T1200,2591A,107.9783,26.5747,黔东南苗族侗族自治州,市环境监测站,,39,38,35,27,21,116,,92,92,14,17,6,6,0.5,0.4
2024-10-05T1200,2881A,107.8908,26.5311,黔东南苗族侗族自治州,凯里学院,,44,44,32,21,19,130,,102,102,11,13,5,4,0.5,0.4
2024-10-05T1200,2593A,107.5228,26.2403,黔南布依族苗族自治州,小围寨,,44,44,29,19,17,122,,84,84,5,6,8,7,0.4,0.4
2024-10-05T1200,3538A,107.5175,26.2978,黔南布依族苗族自治州,沙坝,,38,27,34,19,18,119,,75,75,9,10,6,5,0.4,0.5
2024-10-05T1200,2589A,104.9022,25.0925,黔西南布依族苗族自治州,场坝街,,32,29,26,16,17,100,,96,96,6,6,5,4,0.3,0.3
2024-10-05T1200,2590A,104.8811,25.0992,黔西南布依族苗族自治州,坪东大道,,31,24,26,13,17,98,,93,93,6,6,8,8,0.4,0.3
2024-10-05T1200,2502A,108.6236,21.9667,钦州市,市环保站,颗粒物(PM10),64,78,86,27,34,137,,101,101,13,19,10,14,0.6,1
2024-10-05T1200,2503A,108.6549,21.9481,钦州市,沙埠小学,颗粒物(PM10),59,67,93,37,43,148,,93,93,13,28,10,12,0.7,1.2
2024-10-05T1200,2504A,108.5989,21.7431,钦州市,港区一小,颗粒物(PM10),66,81,93,34,35,146,,103,103,17,28,10,10,0.7,0.7
2024-10-05T1200,3404A,108.5959,21.9633,钦州市,北职校,颗粒物(PM10),54,57,71,33,39,146,,102,102,12,16,10,10,0.7,0.8
2024-10-05T1200,1042A,119.5134,39.8207,秦皇岛市,北戴河环保局,颗粒物(PM10),66,82,70,45,37,144,,98,94,21,22,6,6,1.1,0.8
2024-10-05T1200,1043A,119.7493,40.0116,秦皇岛市,第一关,细颗粒物(PM2.5),75,94,82,55,51,160,,82,82,22,44,13,9,1.0,0.8
2024-10-05T1200,1044A,119.5897,39.9499,秦皇岛市,监测站,细颗粒物(PM2.5),70,79,70,51,49,155,,109,109,30,27,16,13,1.2,1
2024-10-05T1200,1046A,119.5251,39.9041,秦皇岛市,建设大厦,颗粒物(PM10),72,94,76,43,40,153,,105,105,22,24,16,12,1.2,1
2024-10-05T1200,3132A,119.610547,39.943889,秦皇岛市,文明里,颗粒物(PM10),71,92,82,46,43,155,,107,107,31,28,19,11,1.4,1.1
2024-10-05T1200,1307A,120.6659,36.2403,青岛市,仰口,,36,,13,11,10,113,,107,103,4,7,6,6,0.8,0.8
2024-10-05T1200,1310A,120.4134,36.0658,青岛市,市南区东部子站,,37,7,15,3,7,118,,93,93,5,14,6,6,0.4,0.5
2024-10-05T1200,1311A,120.3664,36.1032,青岛市,四方区子站,,41,12,21,7,11,129,,94,94,9,30,9,9,0.3,0.4
2024-10-05T1200,1312A,120.2994,36.054,青岛市,市南区西部子站,,39,7,16,3,4,122,,117,114,6,10,8,9,0.4,0.4
2024-10-05T1200,1313A,120.4581,36.0858,青岛市,崂山区子站,,39,6,6,3,3,124,,110,110,8,14,8,8,0.5,0.5
2024-10-05T1200,1314A,120.1983,35.9608,青岛市,黄岛区子站,,38,,16,3,11,121,,90,84,6,16,8,10,0.4,0.4
2024-10-05T1200,1315A,120.3999,36.3083,青岛市,城阳区子站,,42,12,23,3,12,133,,81,81,11,27,7,8,0.4,0.5
2024-10-05T1200,1966A,120.0405,35.8735,青岛市,黄岛区4号,,40,6,19,3,8,125,,101,101,6,18,6,6,0.4,0.4
2024-10-05T1200,3362A,120.5014,36.4034,青岛市,即墨2号,,38,6,16,3,8,121,,96,96,4,10,6,6,0.3,0.4
2024-10-05T1200,3642A,120.3503,36.0736,青岛市,市北区南部,,39,15,20,3,7,122,,96,96,10,20,6,7,0.5,0.5
2024-10-05T1200,3643A,120.3948,36.1805,青岛市,李沧区北部,,43,14,19,9,11,137,,101,101,17,25,9,9,0.5,0.6
2024-10-05T1200,1702A,113.0426,23.691,清远市,环保大楼,,39,28,27,20,20,122,,102,102,12,15,10,11,0.7,0.7
2024-10-05T1200,1703A,113.0208,23.7106,清远市,凤城街办,,36,32,32,16,18,115,,107,107,6,8,9,11,0.7,0.7
2024-10-05T1200,3025A,113.0477,23.6344,清远市,技师学院,,39,39,37,20,18,121,,99,99,11,13,10,10,0.6,0.7
2024-10-05T1200,3318A,112.9903,23.7403,清远市,清新太和,,35,29,31,18,18,111,,110,108,4,8,6,6,0.5,0.5
2024-10-05T1200,3455A,113.076,23.7198,清远市,清城东城,,40,37,33,21,16,125,,107,107,5,5,7,8,0.4,0.5
2024-10-05T1200,2661A,107.6325,35.7357,庆阳市,庆阳五中,细颗粒物(PM2.5),60,68,53,43,34,107,,115,115,15,13,11,8,0.5,0.4
2024-10-05T1200,2662A,107.6364,35.7067,庆阳市,市环保局,"颗粒物(PM10),细颗粒物(PM2.5)",59,67,51,42,31,104,,115,114,17,14,9,7,0.4,0.4
2024-10-05T1200,1916A,103.7897,25.5035,曲靖市,环境监测站,,38,38,35,26,17,55,,39,39,12,15,4,6,0.4,0.6
2024-10-05T1200,1917A,103.8,25.5364,曲靖市,烟厂办公区,,43,43,36,22,20,57,,41,41,11,14,4,5,0.6,0.6
2024-10-05T1200,3376A,103.7947,25.462,曲靖市,南苑二区,,38,30,33,26,19,58,,47,47,9,12,14,14,0.7,0.8
2024-10-05T1200,3377A,103.7444,25.5261,曲靖市,曲靖师范学院,,18,13,26,11,19,55,,50,43,6,11,7,9,0.4,0.5
2024-10-05T1200,1264A,118.8692,28.9398,衢州市,环保大楼,,36,36,39,20,21,90,,74,74,13,19,6,7,0.6,0.6
2024-10-05T1200,1265A,118.8709,28.9666,衢州市,实验学校,,32,32,36,21,22,96,,76,76,10,16,5,5,0.3,0.3
2024-10-05T1200,1266A,118.8621,28.9808,衢州市,衢州学院,,,52,34,20,20,96,,78,78,,21,8,7,0.3,0.3
2024-10-05T1200,1611A,118.5819,24.9117,泉州市,涂山街,,25,21,16,8,8,79,,51,51,11,11,3,2,0.3,0.4
2024-10-05T1200,1612A,118.5972,24.8978,泉州市,津头埔,,24,23,17,8,9,76,,49,49,9,11,4,4,0.4,0.4
2024-10-05T1200,1613A,118.6663,24.9424,泉州市,万安,,24,18,15,6,6,76,,55,55,7,9,2,2,0.4,0.4
2024-10-05T1200,3529A,118.6333,24.9264,泉州市,城华南路,,24,,12,9,4,74,,53,53,2,4,3,3,0.3,0.2
2024-10-05T1200,2626A,88.8876,29.2718,日喀则市,日喀则监测站,,24,11,16,10,7,76,,58,42,5,12,5,5,0.4,0.4
2024-10-05T1200,3726A,88.8781,29.2426,日喀则市,林业技术推广中心,,25,9,14,3,3,78,,69,53,6,7,7,7,0.4,0.4
2024-10-05T1200,1659A,119.471,35.4209,日照市,监测站,,37,6,38,3,26,118,,62,62,8,60,12,12,0.4,0.7
2024-10-05T1200,1660A,119.523,35.4216,日照市,市政府广场,,39,7,38,3,22,124,,79,79,9,40,5,6,0.3,0.6
2024-10-05T1200,1661A,119.5587,35.4044,日照市,港务局,,39,7,35,6,26,124,,72,72,5,33,10,9,0.5,0.7
2024-10-05T1200,3507A,119.5328,35.4625,日照市,职业技术学院,,39,6,25,3,13,122,,76,76,6,22,9,9,0.4,0.5
2024-10-05T1200,3604A,119.3266,35.1044,日照市,岚山环保分局,,38,12,30,3,21,121,,96,96,6,19,9,13,0.4,0.9
2024-10-05T1200,1835A,111.1922,34.7752,三门峡市,市政府,细颗粒物(PM2.5),64,67,56,46,36,109,,118,107,27,22,24,18,0.7,0.5
2024-10-05T1200,1836A,111.1587,34.7942,三门峡市,开发区,细颗粒物(PM2.5),70,88,71,51,38,110,,113,106,29,22,22,17,0.7,0.5
2024-10-05T1200,1838A,111.143,34.7955,三门峡市,风景区,细颗粒物(PM2.5),65,77,61,47,41,121,,123,115,25,19,23,20,0.9,0.7
2024-10-05T1200,3039A,111.1911,34.7829,三门峡市,三门峡市第一小学,细颗粒物(PM2.5),67,74,57,48,37,104,,117,104,26,20,20,16,0.7,0.5
2024-10-05T1200,3598A,111.1,34.7167,三门峡市,富达温泉假日酒店,,,104,71,63,41,101,,115,103,,22,16,15,0.6,0.7
2024-10-05T1200,2324A,117.6211,26.2625,三明市,三钢,,,16,20,9,19,90,,63,63,,12,1,6,,0.5
2024-10-05T1200,2325A,117.635,26.2714,三明市,三明二中,,28,16,19,12,14,88,,61,61,8,12,3,4,0.4,0.4
2024-10-05T1200,2326A,117.6028,26.2378,三明市,三元区政府,,28,17,22,13,13,89,,61,61,10,14,3,3,0.4,0.5
2024-10-05T1200,1876A,109.5078,18.2489,三亚市,河东子站,,39,26,38,13,18,122,,90,90,6,10,6,5,0.5,0.4
2024-10-05T1200,1877A,109.4964,18.2681,三亚市,河西子站,,37,20,33,13,19,116,,80,80,5,9,5,5,0.5,0.5
2024-10-05T1200,3540A,109.7348,18.3443,三亚市,君悦子站,,41,33,40,14,19,131,,88,88,5,8,4,3,0.6,0.6
2024-10-05T1200,2624A,91.7608,29.2313,山南市,山南监测站,,20,17,11,3,7,63,,42,32,4,7,9,9,0.3,0.4
2024-10-05T1200,2625A,91.7706,29.2436,山南市,山南人民医院,,19,19,11,3,6,60,,54,39,11,9,9,9,0.4,0.4
2024-10-05T1200,1674A,116.6794,23.3667,汕头市,金平子站,,40,40,23,11,17,94,,63,63,13,17,6,7,0.5,0.5
2024-10-05T1200,1675A,116.7244,23.3633,汕头市,龙湖子站,,28,28,19,11,12,84,,60,60,2,6,8,10,0.7,0.8
2024-10-05T1200,1676A,116.7258,23.2775,汕头市,濠江子站,,25,19,19,6,15,80,,58,58,5,9,6,8,0.7,0.8
2024-10-05T1200,1677A,116.7519,23.4714,汕头市,澄海子站,,29,28,21,6,15,90,,62,62,7,13,7,10,0.8,0.8
2024-10-05T1200,1678A,116.6092,23.2539,汕头市,潮阳子站,,30,22,24,9,12,95,,61,61,6,8,7,7,0.5,0.5
2024-10-05T1200,3444A,116.454,23.2684,汕头市,潮南峡山,,30,20,23,8,11,96,,64,64,6,7,8,8,0.7,0.7
2024-10-05T1200,3624A,116.4069,23.2533,汕头市,潮南子站,,29,24,27,9,13,91,,61,61,12,15,7,7,0.7,0.7
2024-10-05T1200,1693A,115.3653,22.775,汕尾市,市环保局,,,16,20,,14,84,,66,65,8,9,9,9,0.4,0.4
2024-10-05T1200,1694A,115.3706,22.7898,汕尾市,市政府,,32,,19,22,16,78,,62,62,7,9,9,8,0.5,0.5
2024-10-05T1200,1695A,115.3622,22.7925,汕尾市,新城中学,,25,22,20,11,14,79,,64,63,4,6,7,7,0.7,0.7
2024-10-05T1200,2645A,109.9154,33.8715,商洛市,监测站,颗粒物(PM10),53,56,43,32,20,114,,44,44,24,22,10,4,0.6,0.5
2024-10-05T1200,3045A,109.9643,33.8471,商洛市,商州区中学,臭氧1小时,62,61,51,30,24,169,,53,53,37,31,26,10,0.8,0.4
2024-10-05T1200,2408A,115.6702,34.4285,商丘市,环境监测站,,37,14,53,10,35,116,,58,58,10,26,4,5,0.5,0.6
2024-10-05T1200,2409A,115.6458,34.4045,商丘市,粮食局,,39,24,42,20,32,123,,78,78,6,14,5,5,0.6,0.7
2024-10-05T1200,2410A,115.6293,34.3948,商丘市,睢阳区环保局,,37,27,49,8,25,118,,78,78,9,21,7,8,0.3,0.4
