timepoint,stationcode,longitude,latitude,area,positionname,primarypollutant,aqi,pm10,pm10_24h,pm2_5,pm2_5_24h,o3,o3_24h,o3_8h,o3_8h_24h,no2,no2_24h,so2,so2_24h,co,co_24h
2024-11-19T1300,2566A,102.1879,31.914,阿坝藏族羌族自治州,州农科所,,22,16,28,7,10,68,,40,40,5,12,9,10,0.1,0.1
2024-11-19T1300,2568A,102.2502,31.8896,阿坝藏族羌族自治州,马师校,,,,16,,17,65,,30,30,7,20,4,4,0.5,0.5
2024-11-19T1300,3994A,102.2165,31.9024,阿坝藏族羌族自治州,马尔康中学西区,,20,13,25,9,11,62,,33,33,6,16,4,5,0.5,0.5
2024-11-19T1300,2695A,80.292,41.1694,阿克苏地区,电视台,颗粒物(PM10),78,106,146,34,65,26,,26,26,43,45,4,5,0.8,1.4
2024-11-19T1300,2696A,80.2613,41.1551,阿克苏地区,艺术中心,颗粒物(PM10),68,86,113,34,41,48,,36,36,30,44,4,4,0.7,1
2024-11-19T1300,2204A,105.6467,38.8363,阿拉善盟,西城区西花园,,29,23,44,20,29,79,,59,59,9,16,8,9,0.9,0.9
2024-11-19T1300,2205A,105.6985,38.8411,阿拉善盟,蒙二幼,,25,25,44,17,23,78,,56,56,11,17,7,6,0.7,0.7
2024-11-19T1300,2206A,105.724,38.8516,阿拉善盟,环保局新楼,,,,45,,21,78,,66,66,12,14,8,9,0.6,0.7
2024-11-19T1300,2708A,88.1264,47.8517,阿勒泰地区,市站,,23,9,8,9,5,72,,77,69,13,16,8,8,0.3,0.3
2024-11-19T1300,2630A,80.1161,32.5,阿里地区,阿里监测站,,23,7,11,3,7,71,,70,67,5,14,3,6,0.4,0.5
2024-11-19T1300,3192A,80.0903,32.5028,阿里地区,阿里藏医院,,23,11,18,10,13,72,,51,51,8,15,6,9,0.5,0.6
2024-11-19T1300,2642A,109.0318,32.6537,安康市,香溪洞,,18,18,12,3,6,44,,60,50,10,6,8,8,0.3,0.2
2024-11-19T1300,2644A,109.0072,32.6975,安康市,汉滨区检察院,,18,,12,7,7,57,,36,36,7,14,7,6,0.6,0.6
2024-11-19T1300,4054A,109.0325,32.6913,安康市,市邮政管理局,,,10,9,3,4,52,,36,30,8,14,6,6,,0.5
2024-11-19T1300,2291A,117.0809,30.5177,安庆市,环科院,,42,42,36,27,16,41,,34,34,24,24,10,10,0.7,0.6
2024-11-19T1300,2292A,117.0331,30.5119,安庆市,马山宾馆,,47,47,36,28,16,46,,37,37,25,25,7,7,0.4,0.3
2024-11-19T1300,2294A,116.9896,30.6145,安庆市,安庆大学,,38,38,32,21,13,47,,41,41,23,22,8,8,0.5,0.4
2024-11-19T1300,3173A,117.0598,30.5351,安庆市,市人大,,44,44,34,12,7,42,,32,32,22,25,11,10,0.5,0.4
2024-11-19T1300,3122A,105.9606,26.2611,安顺市,伍家关,,18,12,17,12,15,27,,29,29,12,12,12,7,0.7,0.7
2024-11-19T1300,3123A,105.9408,26.2431,安顺市,凤凰山,,,,26,,16,27,,26,26,10,12,15,11,,0.6
2024-11-19T1300,3124A,105.9439,26.2564,安顺市,金钟山,,18,12,22,12,17,28,,28,28,11,12,16,10,0.6,0.6
2024-11-19T1300,3125A,105.8983,26.2481,安顺市,娄家坡,,18,14,22,12,19,31,,25,25,7,12,11,11,0.5,0.6
2024-11-19T1300,1818A,114.4839,36.0621,安阳市,棉研所,颗粒物(PM10),57,63,62,37,35,51,,22,22,25,43,9,9,0.5,0.5
2024-11-19T1300,1819A,114.3551,36.1017,安阳市,红庙街,,,52,55,37,28,52,,24,24,13,33,,4,0.4,0.7
2024-11-19T1300,1820A,114.361,36.0681,安阳市,银杏小区,颗粒物(PM10),54,57,56,32,31,58,,27,27,11,32,4,3,0.6,0.6
2024-11-19T1300,3141A,114.3922,36.0878,安阳市,信访局,,48,48,56,32,30,58,,29,29,9,31,5,5,0.3,0.4
2024-11-19T1300,3669A,114.4705,36.0637,安阳市,左辅环卫站,颗粒物(PM10),61,72,69,37,33,50,,15,15,16,35,4,4,0.5,0.5
2024-11-19T1300,3703A,114.2917,36.0949,安阳市,安钢职工学校,颗粒物(PM10),57,63,64,34,34,54,,26,26,15,35,8,9,0.2,0.4
2024-11-19T1300,1748A,123.044,41.1196,鞍山市,深沟寺,,46,46,34,22,17,56,,45,45,10,20,5,4,0.5,0.6
2024-11-19T1300,1749A,123.011,41.0931,鞍山市,太阳城,,39,39,30,16,15,57,,52,52,12,19,10,8,0.6,0.4
2024-11-19T1300,1750A,123.0485,41.1442,鞍山市,太平,,43,43,41,20,22,56,,40,40,14,30,12,13,0.5,0.5
2024-11-19T1300,1751A,122.9642,41.0971,鞍山市,铁西三道街,,49,49,44,20,23,52,,28,28,16,33,9,14,0.6,0.8
2024-11-19T1300,1752A,122.9341,41.0833,鞍山市,铁西工业园区,,43,43,60,15,29,54,,35,35,13,38,9,12,0.8,1.2
2024-11-19T1300,1753A,123.022,41.0821,鞍山市,明达新区,,40,40,32,16,17,56,,51,51,10,19,8,9,0.5,0.6
2024-11-19T1300,1754A,123.1289,41.0228,鞍山市,千山,,,,22,,10,,,38,,,12,,4,,0.5
2024-11-19T1300,2195A,107.4212,40.761,巴彦淖尔市,附二中,颗粒物(PM10),58,65,113,33,43,53,,27,27,21,44,6,8,0.5,0.7
2024-11-19T1300,2196A,107.37,40.7372,巴彦淖尔市,市环保大楼,颗粒物(PM10),63,75,97,34,40,53,,25,25,18,41,4,5,0.5,0.6
2024-11-19T1300,1956A,86.1472,41.7538,巴音郭楞蒙古自治州,孔雀公园,颗粒物(PM10),70,90,111,28,34,40,,11,11,47,55,5,6,0.4,0.7
2024-11-19T1300,1957A,86.1972,41.7166,巴音郭楞蒙古自治州,棉纺厂,颗粒物(PM10),87,123,138,15,35,60,,30,30,20,43,2,3,0.2,0.6
2024-11-19T1300,1958A,86.2357,41.7173,巴音郭楞蒙古自治州,经济开发区,颗粒物(PM10),73,96,134,29,30,59,,29,26,24,36,2,2,0.4,0.4
2024-11-19T1300,2914A,106.7677,31.8794,巴中市,苏山坪,,12,11,4,8,3,19,,24,22,12,7,5,5,0.5,0.5
2024-11-19T1300,3182A,106.7656,31.8545,巴中市,丽阳花园,,18,18,10,12,5,24,,21,19,19,15,3,3,0.5,0.4
2024-11-19T1300,3183A,106.7418,31.8654,巴中市,圣泉水务公司,,13,13,4,6,2,17,,21,20,17,12,3,3,0.5,0.5
2024-11-19T1300,3616A,106.7616,31.8344,巴中市,市中心医院,,19,19,10,8,5,20,,20,18,17,14,4,5,0.5,0.4
2024-11-19T1300,2235A,122.7911,45.6077,白城市,洮北区环保局,,37,37,28,12,14,50,,48,47,12,12,4,4,0.3,0.3
2024-11-19T1300,2236A,122.8738,45.5725,白城市,市环保局,,36,36,33,15,15,51,,45,45,11,15,8,6,0.5,0.5
2024-11-19T1300,2231A,126.4219,41.9171,白山市,喜丰,,27,27,48,11,18,60,,28,28,12,22,13,14,0.4,0.5
2024-11-19T1300,2232A,126.4077,41.9419,白山市,环保局,,38,38,54,11,14,52,,31,31,15,11,14,8,0.6,0.4
2024-11-19T1300,2647A,104.1724,36.5446,白银市,第三小学,细颗粒物(PM2.5),64,68,50,46,36,40,,42,32,37,24,37,43,1.2,0.9
2024-11-19T1300,2648A,104.1465,36.5482,白银市,动力公司,细颗粒物(PM2.5),59,63,42,42,35,50,,36,36,29,23,24,21,1.2,0.8
2024-11-19T1300,2512A,106.6103,23.9011,百色市,市监测站,,26,26,41,15,25,61,,41,41,8,16,7,10,0.6,0.8
2024-11-19T1300,2513A,106.6538,23.8859,百色市,市中心血站,,25,24,49,17,26,58,,45,45,8,17,7,13,0.6,0.8
2024-11-19T1300,3406A,106.6085,23.8798,百色市,祈福高中,,,,61,,34,,,38,38,7,21,5,8,0.6,0.8
2024-11-19T1300,2270A,117.396,32.939,蚌埠市,工人疗养院,,20,19,28,7,11,62,,41,41,7,14,4,3,0.2,0.2
2024-11-19T1300,2271A,117.3605,32.9427,蚌埠市,百货大楼,,23,23,27,8,11,59,,36,36,6,13,4,4,0.3,0.3
2024-11-19T1300,2273A,117.4185,32.8911,蚌埠市,蚌埠学院,,22,22,27,6,14,68,,34,34,14,36,7,10,0.2,0.2
2024-11-19T1300,2274A,117.3533,32.9673,蚌埠市,淮上区政府,,29,29,30,10,15,60,,38,37,9,16,4,3,0.2,0.2
2024-11-19T1300,2275A,117.3145,32.8977,蚌埠市,高新区,,22,22,22,8,11,63,,47,44,13,20,6,5,0.2,0.2
2024-11-19T1300,3715A,117.3092,32.9314,蚌埠市,蚌埠田家炳中学,,30,30,28,6,13,56,,41,41,14,17,5,4,0.2,0.2
2024-11-19T1300,1585A,109.8756,40.6532,包头市,市环境监测站,颗粒物(PM10),52,53,52,34,22,46,,29,29,27,49,34,17,1.1,0.7
2024-11-19T1300,1587A,109.9991,40.5842,包头市,包头八中,细颗粒物(PM2.5),55,44,67,39,34,46,,31,31,17,44,11,17,0.7,0.9
2024-11-19T1300,1588A,109.8538,40.6821,包头市,青山宾馆,细颗粒物(PM2.5),73,53,41,53,34,34,,31,24,37,46,30,18,1.3,0.7
2024-11-19T1300,1589A,109.8642,40.6288,包头市,惠龙物流,颗粒物(PM10),51,52,46,20,22,44,,26,26,22,47,24,14,0.8,0.8
2024-11-19T1300,1590A,110.0377,40.5546,包头市,东河鸿龙湾,,33,24,62,23,25,53,,24,24,8,43,10,16,0.7,0.9
2024-11-19T1300,3283A,109.9154,40.5685,包头市,滨河大厦,,38,34,48,26,21,52,,34,34,14,44,15,15,0.6,0.8
2024-11-19T1300,3419A,109.9447,40.6261,包头市,包头市委党校,,44,44,52,24,21,50,,36,36,18,44,14,15,0.8,0.9
2024-11-19T1300,3683A,109.8331,40.6576,包头市,昆区政府,,,69,47,53,33,41,,31,24,,47,27,19,0.6,0.8
2024-11-19T1300,1930A,107.185,34.3063,宝鸡市,庙沟村,,,,20,,15,26,,32,27,14,23,,8,1.0,0.6
2024-11-19T1300,1931A,107.0708,34.3017,宝鸡市,竹园沟,细颗粒物(PM2.5),62,44,29,44,34,27,,35,32,17,16,6,6,0.8,0.7
2024-11-19T1300,1932A,107.1906,34.3672,宝鸡市,三陆医院,细颗粒物(PM2.5),68,49,35,49,38,22,,32,24,22,21,4,4,0.7,0.6
2024-11-19T1300,1933A,107.1431,34.3547,宝鸡市,监测站,细颗粒物(PM2.5),67,52,36,48,32,22,,36,26,23,20,6,6,0.7,0.6
2024-11-19T1300,1934A,107.1186,34.3739,宝鸡市,技工学校,细颗粒物(PM2.5),57,51,36,40,30,23,,32,24,27,25,5,6,0.7,0.6
2024-11-19T1300,1935A,107.3906,34.3528,宝鸡市,陈仓区环保局家属楼,细颗粒物(PM2.5),62,,36,44,38,30,,32,26,15,21,6,6,0.8,0.7
2024-11-19T1300,1936A,107.2058,34.3497,宝鸡市,文理学院,细颗粒物(PM2.5),62,,35,44,32,23,,35,25,25,26,6,5,0.7,0.6
2024-11-19T1300,1937A,107.2386,34.3622,宝鸡市,三迪小学,,,61,38,42,34,24,,34,27,29,23,,6,0.7,0.7
2024-11-19T1300,1051A,115.493,38.8632,保定市,游泳馆,颗粒物(PM10),56,62,78,35,37,33,,13,13,34,44,3,3,0.7,0.5
2024-11-19T1300,1052A,115.5213,38.8959,保定市,华电二区,颗粒物(PM10),73,96,89,20,44,24,,9,9,46,55,6,6,0.5,0.4
2024-11-19T1300,1053A,115.4713,38.9108,保定市,接待中心,颗粒物(PM10),60,69,83,39,38,29,,10,10,38,52,8,5,0.5,0.4
2024-11-19T1300,1054A,115.4612,38.8416,保定市,地表水厂,颗粒物(PM10),63,76,98,43,44,28,,11,11,36,47,5,2,0.5,0.3
2024-11-19T1300,3581A,115.31981,38.95208,保定市,满城区生态环境分局,颗粒物(PM10),68,85,97,34,40,30,,12,12,48,63,4,3,0.4,0.5
2024-11-19T1300,3582A,115.47694,38.76408,保定市,清苑区第二中学,,,109,113,51,52,,,9,9,43,43,8,5,0.7,0.6
2024-11-19T1300,3583A,115.62909,39.02311,保定市,徐水物探局,颗粒物(PM10),57,64,82,36,33,28,,10,10,26,19,4,3,0.4,0.5
2024-11-19T1300,4004A,115.4202,38.8656,保定市,双鹰农机,颗粒物(PM10),53,56,85,21,39,36,,14,14,36,49,6,3,0.6,0.5
2024-11-19T1300,4034A,115.5150,38.8590,保定市,植保所站,颗粒物(PM10),55,60,86,26,49,26,,10,10,42,49,5,4,0.9,0.7
2024-11-19T1300,2594A,99.1678,25.1081,保山市,市环境监测站,,41,41,30,13,13,63,,33,33,15,10,5,5,0.4,0.3
2024-11-19T1300,2595A,99.1711,25.1328,保山市,市环保局,,45,45,28,12,13,68,,45,40,15,8,5,4,0.5,0.4
2024-11-19T1300,1866A,109.2262,21.588,北海市,牛尾岭水库,,,38,30,,20,77,,56,56,,8,5,11,0.5,0.9
2024-11-19T1300,1867A,109.1436,21.4086,北海市,海滩公园,,30,28,41,15,22,96,,68,68,9,11,8,9,0.6,0.7
2024-11-19T1300,1868A,109.0981,21.4661,北海市,新市环保局,,29,25,40,14,23,92,,67,67,10,12,7,8,0.7,0.8
2024-11-19T1300,1869A,109.1778,21.5233,北海市,北海工业园,,44,44,43,12,27,79,,62,61,10,14,6,9,0.6,0.8
2024-11-19T1300,3400A,109.1911,21.4415,北海市,龙潭自来水厂,,30,26,40,10,28,94,,66,66,7,11,10,10,0.7,0.8
2024-11-19T1300,1001A,116.3621,39.8784,北京市,万寿西宫,颗粒物(PM10),67,83,51,42,21,22,,10,10,44,37,5,5,0.7,0.6
2024-11-19T1300,1002A,116.2202,40.2915,北京市,定陵,细颗粒物(PM2.5),60,65,47,43,25,8,,,,26,25,4,3,0.7,0.6
2024-11-19T1300,1003A,116.4174,39.9289,北京市,东四,颗粒物(PM10),63,76,49,41,21,31,,14,14,33,33,5,5,0.8,0.7
2024-11-19T1300,1004A,116.4072,39.8863,北京市,天坛,颗粒物(PM10),60,70,43,38,21,29,,12,12,35,28,3,2,0.7,0.5
2024-11-19T1300,1005A,116.462,39.9365,北京市,农展馆,颗粒物(PM10),62,73,47,37,19,30,,12,12,33,34,4,3,0.7,0.6
2024-11-19T1300,1006A,116.3392,39.9295,北京市,官园,颗粒物(PM10),59,68,48,33,20,27,,11,11,37,35,2,2,0.6,0.5
2024-11-19T1300,1007A,116.2878,39.9611,北京市,海淀万柳,颗粒物(PM10),61,72,50,40,23,31,,17,17,28,31,5,4,0.7,0.7
2024-11-19T1300,1008A,116.6636,40.135,北京市,顺义新城,颗粒物(PM10),61,71,48,39,24,25,,14,14,36,31,5,3,0.6,0.5
2024-11-19T1300,1009A,116.6275,40.3275,北京市,怀柔镇,颗粒物(PM10),57,63,41,38,20,31,,28,25,24,17,2,2,0.7,0.7
2024-11-19T1300,1010A,116.2296,40.217,北京市,昌平镇,颗粒物(PM10),64,77,53,36,22,20,,15,11,29,27,7,6,0.6,0.6
2024-11-19T1300,1011A,116.3966,39.9821,北京市,奥体中心,颗粒物(PM10),63,75,47,42,21,27,,14,14,35,38,3,3,0.7,0.6
2024-11-19T1300,1012A,116.184,39.9136,北京市,古城,颗粒物(PM10),64,77,56,40,25,27,,13,13,29,40,6,5,0.5,0.6
2024-11-19T1300,3281A,115.9718,40.4529,北京市,延庆夏都,颗粒物(PM10),62,74,59,43,29,25,,10,10,24,24,5,3,0.6,0.5
2024-11-19T1300,3417A,117.0709,40.1465,北京市,平谷新城,颗粒物(PM10),59,68,43,36,18,29,,15,14,20,20,5,3,0.4,0.5
2024-11-19T1300,3418A,116.8336,40.4095,北京市,密云新城,颗粒物(PM10),63,75,49,43,22,38,,20,20,20,24,2,3,0.4,0.4
2024-11-19T1300,3671A,116.088,39.9726,北京市,门头沟三家店,颗粒物(PM10),64,78,66,37,27,23,,12,12,36,47,9,8,0.5,0.6
2024-11-19T1300,3672A,116.1541,39.8204,北京市,丰台云岗,颗粒物(PM10),62,73,55,41,25,28,,11,11,34,39,5,3,0.5,0.5
2024-11-19T1300,3673A,116.6804,39.9081,北京市,通州东关,细颗粒物(PM2.5),67,82,52,48,22,28,,14,14,27,30,5,2,0.5,0.5
2024-11-19T1300,3674A,115.9577,39.7603,北京市,房山燕山,颗粒物(PM10),62,74,55,42,29,36,,15,15,41,34,2,3,0.6,0.5
2024-11-19T1300,3675A,116.4672,39.7733,北京市,大兴旧宫,颗粒物(PM10),57,64,41,35,18,24,,10,10,32,28,1,2,0.6,0.5
2024-11-19T1300,3694A,115.986,40.4563,北京市,延庆石河营,颗粒物(PM10),61,72,54,42,29,24,,8,8,28,26,2,3,0.6,0.5
2024-11-19T1300,3695A,116.6151,40.3053,北京市,怀柔新城,颗粒物(PM10),57,63,43,36,22,27,,25,25,22,18,4,3,0.4,0.4
2024-11-19T1300,3696A,116.2545,39.8768,北京市,丰台小屯,颗粒物(PM10),59,68,47,36,21,25,,14,14,35,35,4,3,0.6,0.6
2024-11-19T1300,3697A,116.84,40.3844,北京市,密云镇,颗粒物(PM10),67,84,51,43,22,35,,16,16,20,23,3,3,0.5,0.5
2024-11-19T1300,1761A,123.8275,41.3064,本溪市,大峪,颗粒物(PM10),63,75,40,26,33,13,,14,14,50,31,15,12,1.1,1.1
2024-11-19T1300,1762A,123.7567,41.3325,本溪市,溪湖,,47,47,43,17,20,46,,19,19,21,31,11,10,0.8,0.8
2024-11-19T1300,1763A,123.7169,41.3094,本溪市,彩屯,,39,39,51,25,30,28,,14,14,42,42,20,14,2.7,1.6
2024-11-19T1300,1764A,123.7669,41.2864,本溪市,东明,,40,40,45,12,25,57,,22,22,14,34,9,9,0.7,0.9
2024-11-19T1300,1765A,123.7992,41.2664,本溪市,新立屯,,30,30,24,15,9,55,,31,31,16,26,6,6,0.7,0.9
2024-11-19T1300,1766A,123.8142,41.3472,本溪市,威宁,颗粒物(PM10),75,100,63,40,24,12,,11,11,47,36,16,10,0.7,0.5
2024-11-19T1300,2587A,105.2864,27.3125,毕节市,八中,,18,,8,12,6,30,,36,31,11,10,6,6,0.4,0.4
2024-11-19T1300,2588A,105.31,27.2944,毕节市,师专,,12,,8,8,6,29,,36,30,11,11,6,5,0.5,0.4
2024-11-19T1300,3537A,105.3631,27.3533,毕节市,长征村,,12,,4,8,4,32,,35,30,6,7,6,7,0.5,0.5
2024-11-19T1300,1629A,118.0018,37.3617,滨州市,第二水厂,,48,48,42,19,18,58,,22,22,17,34,10,10,0.5,0.5
2024-11-19T1300,1630A,117.9776,37.393,滨州市,北中新校,颗粒物(PM10),52,53,47,17,17,57,,22,22,23,38,9,10,0.5,0.6
2024-11-19T1300,3514A,117.9378,37.3956,滨州市,中海酒店,颗粒物(PM10),54,58,40,31,21,65,,33,33,16,25,8,9,0.6,0.7
2024-11-19T1300,3515A,117.9378,37.3553,滨州市,开发区一中,颗粒物(PM10),51,51,44,22,18,62,,27,27,19,33,9,10,0.4,0.5
2024-11-19T1300,3516A,118.0917,37.694,滨州市,金海六路,,49,49,39,22,16,54,,26,26,19,17,9,8,0.6,0.5
2024-11-19T1300,4028A,117.9956,37.3753,滨州市,滨州市西街道办事处,,48,48,39,27,23,62,,24,24,19,35,8,8,0.5,0.6
2024-11-19T1300,2311A,115.8072,33.8399,亳州市,污水处理厂,,30,30,26,8,5,47,,33,33,12,12,7,5,0.5,0.4
2024-11-19T1300,2312A,115.7789,33.8518,亳州市,三国揽胜宫,,39,39,28,13,8,47,,36,33,20,20,6,5,0.4,0.3
2024-11-19T1300,3332A,115.7633,33.8034,亳州市,亳州学院,,38,38,28,7,7,48,,40,37,17,15,4,3,0.5,0.5
2024-11-19T1300,2693A,82.0485,44.8556,博尔塔拉蒙古自治州,市党校,细颗粒物(PM2.5),65,71,67,47,39,25,,10,10,16,17,9,5,0.4,0.4
2024-11-19T1300,2694A,82.0806,44.8969,博尔塔拉蒙古自治州,市环保局,颗粒物(PM10),73,95,94,34,33,21,,8,8,20,20,5,5,0.6,0.7
2024-11-19T1300,1071A,116.8842,38.2991,沧州市,沧县城建局,颗粒物(PM10),51,51,54,24,26,57,,21,21,21,36,6,6,0.5,0.5
2024-11-19T1300,1072A,116.8584,38.3254,沧州市,电视转播站,颗粒物(PM10),53,55,52,24,22,62,,22,22,18,36,5,4,0.5,0.5
2024-11-19T1300,1073A,116.8709,38.3228,沧州市,市环保局,颗粒物(PM10),53,55,47,25,30,57,,19,19,9,24,5,5,0.3,0.3
2024-11-19T1300,3324A,116.8136,38.3004,沧州市,河北水利电力学院,,46,46,53,25,30,60,,22,22,13,29,6,6,0.3,0.4
2024-11-19T1300,2622A,97.1806,31.1273,昌都市,昌都监测站,,18,15,29,8,17,56,,30,30,12,30,7,7,0.5,0.9
2024-11-19T1300,3719A,97.1714,31.1406,昌都市,昌都会议中心,,19,11,14,10,13,59,,40,40,12,12,6,6,0.6,0.6
2024-11-19T1300,2690A,88.1236,43.8886,昌吉回族自治州,天山天池,,,,3,,1,77,,73,73,1,1,3,3,0.5,0.5
2024-11-19T1300,2692A,87.2717,44.0297,昌吉回族自治州,新区政务中心,颗粒物(PM10),69,88,90,42,41,22,,6,6,41,43,9,10,1.1,1
2024-11-19T1300,3613A,87.3095,44.0142,昌吉回族自治州,亚心广场,细颗粒物(PM2.5),83,95,82,61,45,39,,16,16,29,45,11,12,1.0,1.1
2024-11-19T1300,1119A,125.3325,43.9166,长春市,食品厂,,,41,138,18,143,,,36,30,17,33,9,11,0.4,0.6
2024-11-19T1300,1120A,125.2863,43.9027,长春市,客车厂,,,45,134,16,155,43,,34,33,,39,,21,0.6,1
2024-11-19T1300,1121A,125.2841,43.8463,长春市,邮电学院,,48,48,156,26,150,55,,47,46,15,27,12,12,0.4,0.6
2024-11-19T1300,1122A,125.3716,43.8772,长春市,劳动公园,,45,45,148,19,150,63,,44,42,15,31,11,14,0.6,0.9
2024-11-19T1300,1123A,125.3297,43.8805,长春市,园林处,,48,48,140,26,137,55,,42,40,13,27,10,11,0.5,0.7
2024-11-19T1300,1124A,125.4605,43.79,长春市,净月潭,,,30,117,19,107,60,,50,48,10,13,8,7,,0.6
2024-11-19T1300,1125A,125.7194,43.515,长春市,甩湾子,,,,,,,,,,,,,,,,
2024-11-19T1300,1126A,125.3863,43.8447,长春市,经开区环卫处,,49,49,148,18,134,54,,37,36,16,32,11,12,0.4,0.6
2024-11-19T1300,1127A,125.245,43.7783,长春市,高新区管委会,,43,43,152,16,164,57,,43,43,14,32,10,10,0.1,0.5
2024-11-19T1300,1128A,125.1761,43.8325,长春市,岱山公园,,38,38,168,20,155,45,,34,34,14,41,10,10,0.5,0.8
2024-11-19T1300,1335A,113.0833,28.2325,长沙市,经开区环保局,,30,30,24,16,13,20,,23,19,20,22,1,1,0.3,0.3
2024-11-19T1300,1336A,112.8872,28.2189,长沙市,高开区环保局,,24,24,22,16,20,27,,30,25,12,12,4,4,0.4,0.4
2024-11-19T1300,1337A,113.0792,28.2053,长沙市,马坡岭,,29,29,22,18,10,20,,22,19,19,22,3,2,0.5,0.5
2024-11-19T1300,1338A,112.9394,28.19,长沙市,湖南师范大学,,26,24,21,18,12,26,,28,24,19,17,4,3,0.7,0.7
2024-11-19T1300,1339A,113.0178,28.1322,长沙市,雨花区环保局,,33,31,19,23,18,21,,24,22,19,19,4,4,0.4,0.4
2024-11-19T1300,1340A,112.9792,28.2597,长沙市,伍家岭,,28,26,23,19,17,20,,24,20,20,19,2,2,0.6,0.6
2024-11-19T1300,1341A,113.0014,28.1944,长沙市,火车新站,,42,,22,29,15,21,,25,22,19,17,1,1,0.6,0.6
2024-11-19T1300,1342A,112.9844,28.1178,长沙市,天心区环保局,,28,28,21,18,13,18,,18,17,15,19,1,3,0.4,0.1
2024-11-19T1300,1343A,112.8908,28.1308,长沙市,湖南中医药大学,,24,24,23,13,15,27,,30,24,16,18,6,6,0.7,0.7
2024-11-19T1300,1344A,112.9581,28.3611,长沙市,沙坪,,20,20,15,10,12,26,,26,23,13,14,6,6,0.2,0.3
2024-11-19T1300,1727A,113.1147,36.1547,长治市,清华站,,39,35,39,27,17,47,,51,46,20,21,9,11,0.8,0.7
2024-11-19T1300,1728A,113.1031,36.1989,长治市,监测站,,42,32,45,29,21,45,,44,43,15,18,12,12,0.6,0.5
2024-11-19T1300,1730A,113.0886,36.2125,长治市,审计局,,39,33,38,27,25,43,,41,41,9,12,7,8,0.4,0.3
2024-11-19T1300,1731A,113.0844,36.1856,长治市,长治八中,,50,,47,35,27,46,,44,43,17,20,9,9,0.8,0.7
2024-11-19T1300,2845A,113.1569,36.1911,长治市,德盛苑,,42,42,43,29,21,49,,46,46,15,18,4,5,0.6,0.5
2024-11-19T1300,3568A,113.06,36.0464,长治市,向阳小学,,45,36,53,31,26,52,,46,43,14,19,6,7,0.4,0.4
2024-11-19T1300,3569A,112.8792,36.3144,长治市,屯留一中,,28,28,35,17,22,51,,56,51,13,14,6,6,0.7,0.6
2024-11-19T1300,3570A,113.235,36.3489,长治市,潞城四中,细颗粒物(PM2.5),53,48,58,37,34,48,,45,45,17,22,8,9,0.7,0.7
2024-11-19T1300,1854A,111.6975,28.9703,常德市,市二中,,33,33,18,18,10,45,,40,40,11,10,3,3,0.5,0.5
2024-11-19T1300,1857A,111.7158,29.1456,常德市,白鹤山,,,,,,,,,,,,,,,,
2024-11-19T1300,3138A,111.7153,29.0289,常德市,武陵区永安,,29,29,16,19,11,44,,39,39,9,19,3,4,0.3,0.4
2024-11-19T1300,3139A,111.6892,28.9881,常德市,鼎城区玉霞,,34,34,18,17,10,45,,40,40,20,19,5,5,0.6,0.5
2024-11-19T1300,3140A,111.6625,29.0531,常德市,武陵区长庚,,36,36,18,18,10,42,,38,38,21,19,2,2,0.5,0.5
2024-11-19T1300,1196A,119.9633,31.762,常州市,市监测站,,28,28,26,13,12,63,,58,58,18,14,9,8,0.2,0.2
2024-11-19T1300,1200A,119.9468,31.7069,常州市,武进监测站,,26,26,26,7,10,55,,53,53,28,23,10,6,0.4,0.4
2024-11-19T1300,1201A,119.9255,31.9087,常州市,安家,,28,28,28,13,10,64,,59,59,17,16,8,7,0.4,0.4
2024-11-19T1300,3002A,119.9805,31.8174,常州市,行政中心,,29,29,25,12,10,63,,56,56,18,17,3,3,0.2,0.1
2024-11-19T1300,3003A,120.0522,31.7748,常州市,经开区,,30,30,30,7,8,64,,56,56,22,23,9,8,0.5,0.4
2024-11-19T1300,3010A,119.9025,31.7964,常州市,钟楼,,32,32,27,11,10,63,,60,60,21,18,8,6,0.4,0.3
2024-11-19T1300,3429A,119.8598,31.7066,常州市,武进经发区,,38,38,32,15,10,57,,52,52,21,18,7,6,0.5,0.4
2024-11-19T1300,3430A,119.5826,31.7245,常州市,金坛城区,,30,30,31,14,7,66,,59,59,11,11,8,7,0.3,0.3
2024-11-19T1300,2220A,120.4318,41.5881,朝阳市,西梁,颗粒物(PM10),56,61,41,38,25,45,,24,24,12,13,10,9,1.1,0.9
2024-11-19T1300,2221A,120.4521,41.5646,朝阳市,河畔小区,,,62,29,32,17,42,,31,26,,14,,12,1.1,0.7
2024-11-19T1300,2222A,120.4176,41.5648,朝阳市,八里堡,颗粒物(PM10),54,58,34,28,17,47,,28,28,19,18,18,14,1.3,0.9
2024-11-19T1300,2223A,120.3806,41.5969,朝阳市,农业园区,细颗粒物(PM2.5),59,58,40,42,33,48,,29,29,15,25,10,8,1.1,0.9
2024-11-19T1300,1705A,116.6367,23.6719,潮州市,西园路,,15,,15,10,7,45,,50,44,8,10,4,4,0.5,0.5
2024-11-19T1300,3026A,116.6183,23.6608,潮州市,市政府,,15,14,15,9,9,46,,55,47,9,9,6,6,0.5,0.5
2024-11-19T1300,4036A,116.6461,23.6761,潮州市,金山,,15,14,16,10,6,42,,53,44,6,7,4,5,0.6,0.5
2024-11-19T1300,2472A,113.0073,25.9061,郴州市,马头岭,,16,16,12,3,7,29,,24,24,12,14,7,7,0.5,0.6
2024-11-19T1300,2473A,113.0116,25.8226,郴州市,市职中,,8,,8,3,7,22,,19,17,13,14,4,4,0.5,0.5
2024-11-19T1300,2474A,113.0161,25.8001,郴州市,兴隆步行街,,24,24,10,6,7,16,,15,12,14,14,4,4,0.5,0.5
2024-11-19T1300,2475A,113.0383,25.8071,郴州市,市审计局,,11,11,9,7,6,20,,16,15,12,13,4,3,0.6,0.6
2024-11-19T1300,2476A,113.0348,25.7759,郴州市,市环保局,,15,12,11,10,6,19,,18,16,12,12,6,6,0.7,0.7
2024-11-19T1300,1431A,103.9728,30.7236,成都市,金泉两河,,15,15,16,3,4,33,,24,23,17,18,2,2,0.4,0.4
2024-11-19T1300,1432A,104.176,30.6872,成都市,十里店,,10,7,6,3,3,31,,32,27,20,15,2,2,0.4,0.3
2024-11-19T1300,1433A,104.079,30.5706,成都市,三瓦窑,,24,24,13,3,5,23,,31,28,26,13,2,2,0.4,0.3
2024-11-19T1300,1434A,104.1114,30.63,成都市,沙河铺,,16,16,17,3,5,27,,34,28,28,18,4,3,0.4,0.4
2024-11-19T1300,1437A,104.0786,30.6531,成都市,君平街,,12,,12,3,5,36,,28,26,20,19,5,3,0.3,0.2
2024-11-19T1300,1438A,103.613,31.0283,成都市,灵岩寺,,,,,,,,,,,,,,,,
2024-11-19T1300,2880A,104.0239,30.65639,成都市,大石西路,,13,13,15,3,4,30,,27,25,20,15,4,4,0.5,0.4
2024-11-19T1300,3136A,104.2725,30.5589,成都市,龙泉驿区区政府,,14,14,6,7,3,36,,30,27,16,15,4,3,0.5,0.4
2024-11-19T1300,3357A,104.0106,30.6931,成都市,金博路,,11,6,10,3,3,33,,25,23,16,19,3,3,0.3,0.3
2024-11-19T1300,3359A,104.0578,30.5225,成都市,华阳,,22,22,9,3,3,23,,29,27,20,10,1,1,0.4,0.5
2024-11-19T1300,3487A,104.2394,30.5319,成都市,车城东七路,,17,17,12,9,7,33,,28,26,19,18,5,4,0.4,0.4
2024-11-19T1300,3488A,104.3853,30.7453,成都市,青白江技师分院,,14,6,7,3,2,43,,34,33,10,11,4,4,0.5,0.5
2024-11-19T1300,3489A,104.0789,30.4072,成都市,科学城,,12,12,9,7,6,28,,30,28,22,16,4,4,0.4,0.4
2024-11-19T1300,4011A,103.8506,30.6947,成都市,光华大道三段,,12,6,12,3,5,36,,29,25,18,20,2,2,0.4,0.5
2024-11-19T1300,1062A,117.9531,40.9081,承德市,铁路,颗粒物(PM10),60,70,55,38,22,25,,9,9,31,34,17,6,0.8,0.7
2024-11-19T1300,1063A,117.9392,40.9763,承德市,中国银行,,,,47,32,25,34,,11,11,,33,33,4,0.8,0.7
2024-11-19T1300,1064A,117.9503,40.928,承德市,开发区,颗粒物(PM10),62,74,52,33,23,30,,12,12,26,24,18,5,0.9,0.7
2024-11-19T1300,1065A,117.8051,40.9655,承德市,文化中心,颗粒物(PM10),63,76,56,28,24,32,,14,14,28,30,61,8,1.3,0.8
2024-11-19T1300,1066A,117.9268,41.0026,承德市,离宫,细颗粒物(PM2.5),57,62,43,40,33,30,,10,10,24,23,11,5,0.6,0.6
2024-11-19T1300,2314A,117.47,30.6618,池州市,池州学院,,40,40,36,16,14,46,,32,32,13,19,7,7,0.4,0.4
2024-11-19T1300,3237A,117.4918,30.6617,池州市,展览馆,,41,41,36,19,14,45,,34,34,16,21,6,6,0.4,0.4
2024-11-19T1300,3333A,117.5627,30.695,池州市,第八中学,,39,39,36,19,16,44,,33,33,13,19,5,5,0.4,0.4
2024-11-19T1300,3334A,117.5038,30.6243,池州市,第十二中学,,41,41,34,19,13,43,,34,34,16,18,3,4,0.5,0.5
2024-11-19T1300,1744A,118.9233,42.2816,赤峰市,松山一中,,39,39,54,20,22,55,,34,34,19,29,11,17,0.6,0.9
2024-11-19T1300,1745A,118.9576,42.2728,赤峰市,哈达街,颗粒物(PM10),52,53,45,27,21,53,,32,32,20,23,6,10,0.6,0.8
2024-11-19T1300,1746A,118.8788,42.2554,赤峰市,天义路,,44,44,40,22,19,53,,34,34,24,27,7,10,0.4,0.5
2024-11-19T1300,3058A,119.2658,42.0353,赤峰市,银河街,细颗粒物(PM2.5),104,101,69,78,30,42,,19,19,20,29,20,26,0.7,1
2024-11-19T1300,3286A,118.9359,42.3147,赤峰市,桥北物流园区,,48,48,48,17,29,55,,32,32,20,32,10,29,0.8,1.1
2024-11-19T1300,2521A,107.3476,22.4136,崇左市,市环保局江州分局,,,44,52,18,25,98,,47,47,7,18,,6,0.6,0.8
2024-11-19T1300,2522A,107.3702,22.3707,崇左市,城南新区,,39,39,38,20,29,107,,57,57,8,16,10,7,0.7,0.8
2024-11-19T1300,2298A,118.3093,32.3153,滁州市,老年大学,,33,33,29,10,10,64,,50,49,14,17,1,2,0.3,0.2
2024-11-19T1300,2299A,118.3244,32.2786,滁州市,人大宾馆,,28,28,28,9,9,65,,47,47,15,21,6,6,0.3,0.3
2024-11-19T1300,3207A,118.3118,32.3038,滁州市,市政府原办公楼,,26,26,25,14,13,60,,48,47,18,19,5,4,0.3,0.2
2024-11-19T1300,3331A,118.3267,32.2634,滁州市,图书馆,,25,25,27,7,7,66,,51,51,11,13,4,4,0.2,0.2
2024-11-19T1300,2605A,101.5482,25.0441,楚雄彝族自治州,州环境监测站,,23,16,22,11,18,71,,32,32,3,16,6,15,0.5,0.5
2024-11-19T1300,2606A,101.538,25.0492,楚雄彝族自治州,市经济开发区,,22,16,27,12,19,70,,32,32,4,17,5,13,0.4,0.7
2024-11-19T1300,2548A,107.5277,31.2827,达州市,达州职业技术学院,,15,15,8,6,7,34,,24,22,19,16,9,6,0.7,0.6
2024-11-19T1300,2549A,107.5086,31.2186,达州市,市环境监测站,,27,27,15,3,1,23,,24,22,21,20,7,9,0.5,0.5
2024-11-19T1300,2550A,107.4988,31.2132,达州市,凤凰小区,,19,19,7,7,3,25,,29,26,20,17,9,10,0.4,0.4
2024-11-19T1300,2551A,107.5082,31.1986,达州市,达县机关宾馆,,12,12,9,3,7,20,,16,12,24,27,8,8,0.5,0.5
2024-11-19T1300,2552A,107.4644,31.2124,达州市,市政中心,,19,19,14,3,1,23,,26,21,19,18,12,10,0.4,0.4
2024-11-19T1300,2614A,100.1542,25.7054,大理白族自治州,大理市环境监测站,,23,16,21,15,17,72,,69,64,6,7,6,6,0.4,0.4
2024-11-19T1300,2615A,100.2171,25.5811,大理白族自治州,大理古城,,28,22,23,3,11,87,,57,57,7,15,6,6,0.4,0.4
2024-11-19T1300,1109A,121.612,38.9741,大连市,甘井子,,,40,29,26,17,31,,25,22,40,36,,9,0.6,0.6
2024-11-19T1300,1110A,121.565,38.9511,大连市,周水子,,39,39,30,24,20,35,,17,17,31,40,10,11,0.4,0.5
2024-11-19T1300,1111A,121.5637,38.8845,大连市,星海三站,,38,38,27,26,16,44,,28,26,15,24,10,11,0.6,0.6
2024-11-19T1300,1112A,121.6302,38.9117,大连市,青泥洼桥,,35,35,32,18,14,44,,33,33,11,21,11,12,0.4,0.4
2024-11-19T1300,1113A,121.6251,38.8638,大连市,傅家庄,,30,30,25,18,13,55,,53,53,14,24,10,13,0.6,0.7
2024-11-19T1300,1114A,121.5213,38.8661,大连市,七贤岭,,34,34,23,16,13,47,,37,33,18,19,8,8,0.6,0.8
2024-11-19T1300,1115A,121.2529,38.8061,大连市,旅顺,,38,38,17,22,11,58,,54,52,15,13,9,9,0.5,0.6
2024-11-19T1300,1116A,121.7485,39.1311,大连市,金州,,38,32,28,26,20,33,,35,35,22,14,5,6,0.5,0.6
2024-11-19T1300,1117A,121.7811,39.0496,大连市,开发区,,46,46,30,25,21,32,,18,18,34,36,8,14,0.6,0.8
2024-11-19T1300,1118A,121.9762,39.0631,大连市,双D港,,18,,23,12,13,52,,60,58,17,15,6,9,0.5,0.6
2024-11-19T1300,1789A,124.81117,46.03138,大庆市,大同区,,,64,50,31,37,,,36,36,11,11,6,4,0.4,0.4
2024-11-19T1300,1790A,125.129,46.533,大庆市,龙凤区,颗粒物(PM10),51,51,60,29,38,46,,37,37,10,14,7,7,0.5,0.5
2024-11-19T1300,1791A,124.902,46.408,大庆市,红岗区,,42,39,42,29,26,47,,35,35,10,11,8,6,0.4,0.4
2024-11-19T1300,1792A,125.153,46.586,大庆市,萨尔图区,颗粒物(PM10),56,61,60,34,36,45,,38,38,16,18,8,7,0.5,0.5
2024-11-19T1300,1793A,124.9042,46.6215,大庆市,让胡路区,,42,33,35,29,30,44,,37,36,14,13,8,6,0.5,0.4
2024-11-19T1300,3481A,125.141,46.634,大庆市,萨区政府监测点,,40,40,37,19,23,41,,34,34,14,15,7,7,0.5,0.5
2024-11-19T1300,1721A,113.3819,40.1097,大同市,果树场,颗粒物(PM10),58,65,74,36,43,36,,13,13,30,51,10,14,0.6,0.9
2024-11-19T1300,1723A,113.2994,40.0758,大同市,云冈宾馆,,49,49,95,33,44,44,,21,20,17,42,9,18,0.6,0.8
2024-11-19T1300,1724A,113.3444,40.0917,大同市,大同大学,颗粒物(PM10),62,73,82,23,35,34,,16,16,25,39,12,19,0.6,0.8
2024-11-19T1300,1725A,113.2661,40.1269,大同市,安家小村,,32,32,84,21,34,48,,32,31,19,34,12,23,0.5,0.7
2024-11-19T1300,1726A,113.2711,40.0844,大同市,教育学院,颗粒物(PM10),59,68,97,19,36,40,,21,21,19,45,8,18,0.6,0.9
2024-11-19T1300,3282A,113.3397,40.0597,大同市,大同市卫生学校,颗粒物(PM10),69,88,101,30,39,27,,10,10,36,46,12,18,0.2,0.5
2024-11-19T1300,3565A,113.1367,40.1122,大同市,云冈站,,44,44,86,21,36,48,,24,24,18,38,10,18,0.5,0.6
2024-11-19T1300,3566A,113.1186,40.2556,大同市,图书馆,细颗粒物(PM2.5),54,,79,38,40,46,,29,29,14,29,9,16,0.6,0.7
2024-11-19T1300,3567A,113.5931,40.0461,大同市,区一中,颗粒物(PM10),58,66,88,26,23,41,,14,14,21,41,39,35,0.8,1
2024-11-19T1300,3676A,113.2802,40.0995,大同市,第二人民医院,颗粒物(PM10),54,57,95,26,35,46,,31,31,21,40,11,21,0.6,0.8
2024-11-19T1300,2269A,124.1069,50.4097,大兴安岭地区,科技局,,20,20,16,9,14,55,,47,43,4,7,5,5,0.3,0.4
2024-11-19T1300,3663A,124.1164,50.4278,大兴安岭地区,红旗社区,,15,14,20,3,12,46,,32,24,12,16,1,5,0.4,0.5
2024-11-19T1300,1600A,124.3303,40.0625,丹东市,江湾东路,,44,44,22,27,16,57,,42,41,14,16,18,12,0.9,0.6
2024-11-19T1300,1601A,124.4256,40.1503,丹东市,临江后街,,46,46,24,24,12,59,,32,31,13,15,12,8,0.6,0.5
2024-11-19T1300,1602A,124.3933,40.1461,丹东市,元宝山,,,42,20,18,9,48,,31,24,23,16,8,7,,1
2024-11-19T1300,1603A,124.3633,40.1092,丹东市,民主桥,,38,38,24,22,9,52,,38,31,23,20,21,9,1.3,0.7
2024-11-19T1300,3541A,109.5726,19.5167,儋州市,第一中学子站,,29,29,35,16,20,58,,87,58,8,7,6,6,0.6,0.6
2024-11-19T1300,3542A,109.5567,19.5187,儋州市,东坡学校子站,,29,29,35,16,19,62,,95,62,9,8,4,5,0.6,0.6
2024-11-19T1300,2616A,98.5842,24.428,德宏傣族景颇族自治州,德宏州监测站,,43,43,41,28,25,39,,15,15,20,24,19,15,0.7,0.8
2024-11-19T1300,3677A,98.5881,24.4368,德宏傣族景颇族自治州,芒市人民政府综合楼,颗粒物(PM10),52,54,37,30,21,33,,20,13,21,17,15,12,0.7,0.7
2024-11-19T1300,1901A,104.4239,31.1208,德阳市,东山公园,,16,16,14,3,5,44,,34,31,10,10,1,1,0.4,0.4
2024-11-19T1300,1902A,104.3826,31.1317,德阳市,西小区,,14,14,12,6,7,42,,31,30,12,12,2,1,0.3,0.5
2024-11-19T1300,1904A,104.3553,31.1091,德阳市,耐火材料厂,,14,12,10,6,6,42,,31,31,10,14,2,2,0.5,0.4
2024-11-19T1300,3639A,104.4019,31.1244,德阳市,市教育局,,16,16,12,3,7,41,,33,31,15,14,2,2,0.5,0.5
2024-11-19T1300,1622A,116.3032,37.4674,德州市,儿童乐园,颗粒物(PM10),59,68,62,29,28,64,,31,31,22,45,13,14,0.5,0.6
2024-11-19T1300,1624A,116.2991,37.4451,德州市,监理站,颗粒物(PM10),53,56,49,27,24,66,,33,33,21,42,13,11,0.5,0.6
2024-11-19T1300,3066A,116.2721,37.4379,德州市,九衢泉纯净水厂,颗粒物(PM10),56,61,56,27,28,65,,27,27,20,45,13,13,0.5,0.7
2024-11-19T1300,3371A,116.3728,37.4403,德州市,开发区人民医院,颗粒物(PM10),53,56,60,24,29,63,,29,29,14,41,12,12,0.6,0.7
2024-11-19T1300,3372A,116.3572,37.4094,德州市,太阳城中学,颗粒物(PM10),58,66,62,31,32,66,,30,30,24,48,12,10,0.5,0.6
2024-11-19T1300,3511A,116.5652,37.3319,德州市,陵城艺术中心,,,56,67,29,34,57,,27,27,27,43,,15,0.5,0.7
2024-11-19T1300,2621A,99.7056,27.8317,迪庆藏族自治州,迪庆州站,,32,18,25,18,15,102,,68,68,11,14,2,3,0.3,0.4
2024-11-19T1300,3180A,99.7136,27.8094,迪庆藏族自治州,质量技术监督局,,,42,31,9,19,104,,56,56,9,17,7,7,,0.7
2024-11-19T1300,2663A,104.6241,35.5734,定西市,东关小学,,50,50,49,34,30,53,,15,15,14,20,5,5,0.5,0.5
2024-11-19T1300,2664A,104.6194,35.5934,定西市,供电公司,,49,49,44,30,30,54,,20,20,15,21,7,7,0.4,0.4
2024-11-19T1300,1389A,113.7547,23.0494,东莞市,莞城梨川,,13,13,17,9,10,30,,34,26,15,13,7,8,0.6,0.7
2024-11-19T1300,1390A,113.7944,23.0128,东莞市,东城石井,,15,15,18,8,10,34,,32,26,16,15,8,9,0.7,0.7
2024-11-19T1300,1391A,113.7383,22.9658,东莞市,南城西平,,13,13,17,9,10,28,,27,23,20,20,9,10,0.5,0.6
2024-11-19T1300,3319A,113.7338,23.0381,东莞市,万江金泰,,14,14,16,7,9,28,,32,25,12,10,6,7,0.6,0.6
2024-11-19T1300,3626A,113.7533,23.0202,东莞市,南城元岭,,13,13,16,7,9,28,,33,25,10,8,7,7,0.7,0.7
2024-11-19T1300,3627A,113.7875,23.0457,东莞市,东城主山,,13,12,17,9,10,25,,31,22,18,15,6,7,0.6,0.7
2024-11-19T1300,1666A,118.6614,37.4309,东营市,市环保局,,,58,32,31,14,56,,29,29,40,32,20,8,,0.3
2024-11-19T1300,3036A,118.6904,37.4338,东营市,开发区管委会,颗粒物(PM10),56,61,38,34,16,60,,34,34,29,23,17,7,0.4,0.2
2024-11-19T1300,3365A,118.5719,37.565,东营市,垦利区民丰路,颗粒物(PM10),56,61,35,29,14,51,,29,29,28,27,9,7,0.5,0.5
2024-11-19T1300,3498A,118.5055,37.8612,东营市,河口城区,颗粒物(PM10),53,56,34,29,13,60,,34,34,23,19,5,4,0.5,0.4
2024-11-19T1300,3646A,118.4978,37.4623,东营市,胜利站,颗粒物(PM10),58,65,39,31,16,52,,27,27,31,30,11,7,0.6,0.4
2024-11-19T1300,3734A,118.35,37.26,东营市,理想之城,颗粒物(PM10),54,58,39,36,17,60,,28,28,27,34,13,5,0.5,0.5
2024-11-19T1300,1591A,110.0023,39.8129,鄂尔多斯市,综合楼,,36,36,38,19,21,62,,56,56,19,19,4,5,0.6,0.5
2024-11-19T1300,1592A,109.9486,39.8261,鄂尔多斯市,巴音孟克林场办事处,,,41,35,22,23,,,48,,,22,8,8,0.6,0.5
2024-11-19T1300,1593A,109.7736,39.5986,鄂尔多斯市,康泽苑,,,34,35,29,24,,,50,,11,16,8,8,0.5,0.5
2024-11-19T1300,1594A,109.8119,39.5989,鄂尔多斯市,华泰汽车城,,45,41,36,31,24,60,,50,48,12,12,6,6,0.5,0.5
2024-11-19T1300,1595A,109.9734,39.7884,鄂尔多斯市,奥林花园,,39,39,40,19,21,53,,46,46,15,18,5,6,0.4,0.5
2024-11-19T1300,2436A,114.8938,30.3994,鄂州市,市政府,颗粒物(PM10),60,70,25,18,10,28,,31,23,24,22,6,5,0.6,0.6
2024-11-19T1300,2437A,114.8989,30.3714,鄂州市,赵家坝,,32,25,23,22,10,32,,37,26,20,18,6,4,0.4,0.4
2024-11-19T1300,3654A,114.8094,30.4089,鄂州市,精准医疗中心,,26,26,28,18,10,29,,31,28,19,18,4,7,0.5,0.5
2024-11-19T1300,2454A,109.4978,30.2981,恩施土家族苗族自治州,湖北民院,,16,16,16,6,6,28,,32,29,13,8,6,6,0.1,0
2024-11-19T1300,2455A,109.4707,30.2798,恩施土家族苗族自治州,州电力总公司,,11,7,9,3,5,34,,36,32,13,12,7,7,0.5,0.4
2024-11-19T1300,3549A,109.5061,30.3772,恩施土家族苗族自治州,龙凤新区,,13,13,8,6,4,36,,24,24,23,11,6,5,0.4,0.4
2024-11-19T1300,2499A,108.3411,21.6158,防城港市,沙万,,29,28,33,10,21,90,,67,63,11,15,6,6,0.4,0.5
2024-11-19T1300,2500A,108.3514,21.7731,防城港市,防城档案局,,26,21,54,16,21,83,,54,54,12,22,7,6,0.6,0.7
2024-11-19T1300,2501A,108.3506,21.6414,防城港市,大海花园,颗粒物(PM10),52,53,37,15,18,91,,68,62,10,13,4,5,0.7,0.7
2024-11-19T1300,1371A,113.1294,23.0067,佛山市,湾梁,,13,12,21,8,9,40,,42,37,21,20,7,8,0.7,0.7
2024-11-19T1300,1372A,113.1083,23.0478,佛山市,华材职中,,15,,25,10,10,38,,42,35,23,19,8,9,0.6,0.6
2024-11-19T1300,1373A,113.144,23.0453,佛山市,南海气象局,,17,17,20,8,11,34,,39,32,21,18,7,8,0.5,0.5
2024-11-19T1300,1374A,113.2881,22.8094,佛山市,顺德苏岗,,12,8,21,7,8,19,,34,20,23,17,7,7,0.6,0.7
2024-11-19T1300,1376A,112.8383,22.8678,佛山市,高明孔堂,,22,22,25,8,11,29,,41,31,26,16,6,7,0.6,0.6
2024-11-19T1300,1377A,112.8836,23.1588,佛山市,三水监测站,,19,19,17,10,8,45,,36,31,16,17,8,8,0.6,0.7
2024-11-19T1300,1378A,112.867,23.185,佛山市,三水云东海,,14,,18,9,10,44,,34,30,14,16,9,9,0.7,0.8
2024-11-19T1300,3625A,113.2544,22.7642,佛山市,容桂街道办,,12,6,13,3,9,21,,37,24,24,19,6,7,0.7,0.7
2024-11-19T1300,1280A,119.3903,26.0543,福州市,鼓山,,,,14,,3,,,67,,,7,,3,,0.4
2024-11-19T1300,1282A,119.2681,26.0504,福州市,师大,,20,12,19,3,4,63,,64,61,7,7,2,3,0.5,0.5
2024-11-19T1300,1283A,119.2984,26.1028,福州市,五四北路,,19,10,18,3,4,59,,60,58,7,8,3,2,0.4,0.5
2024-11-19T1300,1284A,119.2648,26.0768,福州市,杨桥西路,,20,12,18,3,4,62,,64,61,7,7,1,2,0.4,0.4
2024-11-19T1300,1285A,119.317,26.0746,福州市,紫阳,,17,16,21,6,5,53,,57,52,12,11,4,4,0.2,0.2
2024-11-19T1300,3048A,119.5799,26.0936,福州市,九龙,,,,18,,5,50,,59,52,,6,2,2,0.3,0.2
2024-11-19T1300,3526A,119.5189,25.9664,福州市,吴航,,18,16,17,10,7,57,,62,57,10,8,3,3,0.3,0.1
2024-11-19T1300,1755A,123.7977,41.8491,抚顺市,望花区,颗粒物(PM10),75,100,55,27,26,25,,16,16,37,30,13,9,0.9,0.7
2024-11-19T1300,1756A,123.9161,41.8822,抚顺市,顺城区,,,58,38,23,20,17,,19,19,,28,,6,0.5,0.4
2024-11-19T1300,1757A,124.0436,41.8611,抚顺市,东洲区,,,41,25,19,16,33,,36,36,21,13,9,7,,0.4
2024-11-19T1300,1758A,123.9247,41.8642,抚顺市,新抚区,颗粒物(PM10),57,64,41,31,24,16,,17,17,41,27,6,5,0.6,0.4
2024-11-19T1300,1759A,124.0972,41.8961,抚顺市,大伙房水库,,,32,24,15,15,50,,36,36,,10,8,8,0.5,0.4
2024-11-19T1300,1760A,123.7086,41.8391,抚顺市,沈抚新城,颗粒物(PM10),63,75,56,22,33,33,,15,15,26,32,14,11,0.8,0.8
2024-11-19T1300,2376A,116.2127,28.0814,抚州市,桐源党溪,,45,45,36,11,10,61,,41,41,3,4,5,5,0.5,0.5
2024-11-19T1300,2377A,116.3544,27.9831,抚州市,市站,,38,38,31,14,10,63,,46,46,11,14,5,4,0.9,1
2024-11-19T1300,2378A,116.3565,27.963,抚州市,血防站,,34,34,34,8,9,60,,43,43,9,11,12,14,0.8,0.8
2024-11-19T1300,2379A,116.3564,28.0007,抚州市,采茶剧团,,34,34,33,6,8,60,,42,42,7,8,7,7,0.6,0.6
2024-11-19T1300,2380A,116.385,27.9647,抚州市,医学分院,,32,32,31,12,9,63,,45,45,9,10,7,8,0.6,0.6
2024-11-19T1300,2207A,121.6094,41.998,阜新市,工业园区,,,54,46,20,21,52,,24,24,,22,24,27,0.9,0.7
2024-11-19T1300,2208A,121.6697,42.0279,阜新市,长青街,颗粒物(PM10),51,51,40,31,22,50,,27,27,26,24,18,25,0.8,0.6
2024-11-19T1300,2209A,121.6673,42.0705,阜新市,农业园区,颗粒物(PM10),67,83,40,36,23,51,,34,34,22,26,22,20,1.0,0.8
2024-11-19T1300,2210A,121.6717,42.0224,阜新市,东苑,颗粒物(PM10),51,52,46,35,34,44,,26,26,20,29,18,32,0.6,0.5
2024-11-19T1300,2211A,121.6506,42.0498,阜新市,玉龙新城,,49,36,56,34,28,53,,28,28,19,32,26,19,0.9,0.5
2024-11-19T1300,2301A,115.8277,32.8929,阜阳市,市监测站,,30,30,26,16,19,42,,31,31,15,18,5,5,0.3,0.5
2024-11-19T1300,2303A,115.8554,32.8605,阜阳市,开发区,,46,46,38,16,16,40,,32,28,22,19,7,6,0.5,0.5
2024-11-19T1300,2875A,115.784,32.8892,阜阳市,阜阳职业技术学院,,31,31,27,20,18,44,,33,32,14,15,6,6,0.3,0.3
2024-11-19T1300,3468A,115.7901,32.8613,阜阳市,市规划展馆,,32,32,27,15,13,46,,40,37,18,18,7,6,0.4,0.4
2024-11-19T1300,3469A,115.836,32.9183,阜阳市,枣园社区,,32,32,28,14,15,47,,32,32,16,19,7,7,0.2,0.2
2024-11-19T1300,2669A,102.9099,34.9841,甘南藏族自治州,州政府,,33,33,34,13,14,46,,32,32,12,20,4,3,0.5,0.7
2024-11-19T1300,3380A,102.8914,34.9617,甘南藏族自治州,甘肃民族师范学院,,16,16,19,7,17,50,,26,26,16,27,5,5,0.4,0.5
2024-11-19T1300,2570A,101.9603,30.0475,甘孜藏族自治州,水桥子,,14,,10,6,5,42,,28,26,10,15,7,7,0.4,0.3
2024-11-19T1300,3065A,101.9533,29.9972,甘孜藏族自治州,州环保局,,14,14,14,7,6,43,,35,32,13,17,3,4,0.3,0.3
2024-11-19T1300,3414A,115.8347,28.932,赣江新区,桑海产业园,,48,48,39,26,16,34,,29,29,19,18,9,7,0.1,0.2
2024-11-19T1300,2362A,114.9017,25.9149,赣州市,通天岩,,26,26,18,12,14,33,,30,30,7,7,1,1,0.6,0.7
2024-11-19T1300,2363A,114.9367,25.8664,赣州市,地委,,32,,18,22,14,48,,37,37,8,10,6,6,0.6,0.6
2024-11-19T1300,2364A,114.9461,25.8481,赣州市,气象台,,,25,13,11,17,40,,30,30,,16,2,2,,0.5
2024-11-19T1300,2365A,114.9322,25.8333,赣州市,市图书馆,,19,19,21,13,12,44,,31,31,12,14,3,4,0.4,0.4
2024-11-19T1300,2366A,114.8905,25.8471,赣州市,华坚鞋城,,27,27,18,10,10,40,,32,32,12,12,3,3,0.3,0.3
2024-11-19T1300,3109A,115.0093,25.8613,赣州市,赣县区卫计委,,24,24,15,13,10,34,,30,30,12,12,4,4,0.4,0.4
2024-11-19T1300,2683A,106.2319,36.1417,固原市,马园,,38,35,22,26,16,50,,24,24,12,20,7,6,1.0,1
2024-11-19T1300,2684A,106.2792,36.0022,固原市,监测站,,35,32,16,24,16,60,,40,40,13,13,5,4,0.5,0.5
2024-11-19T1300,2685A,106.2375,36.0211,固原市,新区,,29,29,17,20,14,57,,36,36,11,14,4,3,0.3,0.4
2024-11-19T1300,3522A,106.2177,35.9959,固原市,原州区十五小,,38,34,23,26,18,64,,38,38,8,17,4,4,0.9,1
2024-11-19T1300,2543A,106.6308,30.5278,广安市,小平旧居,,,,,,,,,,,,,,,,
2024-11-19T1300,2544A,106.6303,30.4576,广安市,市委,,20,20,14,8,8,25,,35,29,15,12,2,2,0.5,0.4
2024-11-19T1300,2545A,106.6271,30.4663,广安市,友谊中学,,13,10,9,9,8,22,,31,25,14,12,2,2,0.5,0.4
2024-11-19T1300,2547A,106.6388,30.4551,广安市,广电花园,,14,14,9,3,7,24,,33,25,14,13,7,7,0.5,0.4
2024-11-19T1300,2902A,106.6351,30.4865,广安市,北辰小学,,19,19,11,7,6,29,,33,28,9,9,3,2,0.6,0.5
2024-11-19T1300,2523A,105.8945,32.4535,广元市,黑石坡,,14,11,15,3,7,44,,32,32,2,6,5,5,0.4,0.4
2024-11-19T1300,2524A,105.821,32.4444,广元市,老城,,17,13,15,3,7,53,,53,50,8,8,3,2,0.4,0.3
2024-11-19T1300,2526A,105.8628,32.4287,广元市,监测站,,18,14,14,3,8,56,,54,54,9,12,3,2,0.5,0.5
2024-11-19T1300,3617A,105.8047,32.4166,广元市,经开区,,18,18,10,6,3,54,,52,51,9,9,4,3,0.5,0.4
2024-11-19T1300,1345A,113.2347,23.1423,广州市,广雅中学,,36,36,30,18,15,30,,34,29,25,21,6,7,0.6,0.7
2024-11-19T1300,1346A,113.2612,23.105,广州市,市五中,,25,23,21,17,14,41,,42,36,13,13,4,5,0.7,0.7
2024-11-19T1300,1348A,113.3478,23.0916,广州市,广东商学院,,14,14,17,7,9,32,,40,30,14,13,3,3,0.4,0.5
2024-11-19T1300,1349A,113.4332,23.1047,广州市,市八十六中,,,58,34,15,17,20,,36,,20,14,,4,0.6,0.7
2024-11-19T1300,1350A,113.3505,22.9483,广州市,番禺中学,,16,16,20,8,7,33,,40,29,21,19,6,6,0.6,0.6
2024-11-19T1300,1351A,113.2146,23.3916,广州市,花都师范,,16,13,16,6,7,49,,41,38,14,14,6,7,0.8,0.8
2024-11-19T1300,1352A,113.2597,23.1331,广州市,市监测站,,19,19,20,12,10,35,,40,32,9,8,5,6,0.5,0.5
2024-11-19T1300,1353A,113.5618,23.312,广州市,九龙镇镇龙,,12,12,12,8,7,29,,36,27,10,11,5,6,0.6,0.6
2024-11-19T1300,1354A,113.2765,23.1544,广州市,麓湖,,16,16,19,11,11,35,,37,31,16,16,3,4,0.6,0.6
2024-11-19T1300,1355A,113.443,23.3035,广州市,帽峰山森林公园,,11,6,9,6,6,35,,44,34,12,10,4,4,0.7,0.7
2024-11-19T1300,2846A,113.3221,23.1322,广州市,体育西,,20,20,20,12,9,32,,36,29,9,9,3,3,0.6,0.6
2024-11-19T1300,3298A,113.5717,23.5491,广州市,从化街口,,14,14,13,8,8,38,,38,35,9,8,8,8,0.7,0.7
2024-11-19T1300,3299A,113.3472,23.3692,广州市,白云竹料,,25,25,16,14,9,43,,44,40,16,12,6,6,0.6,0.6
2024-11-19T1300,3300A,113.2981,23.237,广州市,白云嘉禾,,27,27,22,13,10,30,,42,32,26,19,6,7,0.9,0.9
2024-11-19T1300,3301A,113.4256,23.1716,广州市,黄埔科学城,,17,17,16,11,10,25,,41,27,18,13,6,6,0.8,0.8
2024-11-19T1300,3302A,113.3942,23.0483,广州市,番禺大学城,,17,17,18,10,11,20,,37,26,20,16,7,7,0.8,0.9
2024-11-19T1300,3303A,113.4922,22.8168,广州市,南沙黄阁,,19,14,24,13,13,31,,29,23,23,30,8,8,0.8,0.8
2024-11-19T1300,3304A,113.5342,22.7896,广州市,南沙街,,16,,22,11,12,19,,29,22,23,20,4,7,0.6,0.6
2024-11-19T1300,3443A,113.2902,23.5544,广州市,花都梯面,,16,13,15,9,10,51,,40,38,6,9,8,9,0.6,0.7
2024-11-19T1300,3445A,113.7858,23.7478,广州市,从化良口,,12,8,10,7,7,37,,33,32,7,7,5,5,0.6,0.7
2024-11-19T1300,3446A,113.8051,23.2614,广州市,增城荔城,,12,12,15,8,8,33,,36,31,10,12,6,7,0.6,0.6
2024-11-19T1300,2505A,109.568,23.1478,贵港市,德智高中,,,,,,,,,,,,,,,,
2024-11-19T1300,2506A,109.6047,23.0666,贵港市,江南子站,,26,17,32,6,15,83,,55,55,8,14,7,8,0.6,0.7
2024-11-19T1300,2507A,109.6014,23.0948,贵港市,贵城子站,,25,17,28,9,14,77,,51,51,8,13,7,8,0.6,0.7
2024-11-19T1300,2508A,109.5669,23.1065,贵港市,荷城子站,,27,27,29,7,8,77,,52,52,12,12,12,11,0.6,0.6
2024-11-19T1300,3405A,109.5886,23.1172,贵港市,新世纪学校,,24,17,30,6,12,76,,49,49,10,12,8,9,0.6,0.6
2024-11-19T1300,1439A,106.6899,26.5998,贵阳市,马鞍山,,10,7,8,3,4,29,,26,25,10,9,4,4,0.5,0.4
2024-11-19T1300,1440A,106.6971,26.5694,贵阳市,市环保站,,,19,11,12,10,31,,33,31,,9,5,4,0.4,0.5
2024-11-19T1300,1441A,106.6243,26.6266,贵阳市,鉴湖路,,14,14,10,7,7,28,,24,24,9,8,4,4,0.5,0.4
2024-11-19T1300,1442A,106.7487,26.6343,贵阳市,燕子冲,,13,,5,9,9,29,,28,27,8,7,6,7,0.4,0.4
2024-11-19T1300,1443A,106.6555,26.4365,贵阳市,碧云窝,,19,19,22,9,8,31,,27,25,11,16,7,5,0.5,0.5
2024-11-19T1300,1444A,106.694,26.5161,贵阳市,中院村,,14,14,16,3,8,33,,30,30,9,11,4,4,0.5,0.5
2024-11-19T1300,1445A,106.7109,26.6027,贵阳市,红边门,,13,,14,9,10,30,,27,26,11,12,15,13,0.4,0.4
2024-11-19T1300,1446A,106.7164,26.5699,贵阳市,新华路,,14,14,11,7,5,34,,34,32,10,9,4,4,0.4,0.4
2024-11-19T1300,1447A,106.674,26.5424,贵阳市,太慈桥,,,,10,,6,28,,27,27,,11,7,6,0.4,0.4
2024-11-19T1300,1552A,106.805,26.3003,贵阳市,桐木岭,,20,20,22,12,12,28,,25,25,3,4,8,6,0.7,0.7
2024-11-19T1300,1862A,110.4144,25.3167,桂林市,电子科大尧山校区,,49,49,14,9,9,54,,45,42,8,8,4,4,0.5,0.5
2024-11-19T1300,1863A,110.2819,25.2697,桂林市,监测站,,26,26,13,13,13,56,,44,40,9,9,11,11,0.7,0.7
2024-11-19T1300,1864A,110.3089,25.2708,桂林市,龙隐路小学,,19,,11,13,13,59,,46,44,8,9,11,12,0.6,0.6
2024-11-19T1300,1865A,110.2869,25.2178,桂林市,八中,,18,11,13,8,8,55,,41,39,11,11,10,10,0.6,0.6
2024-11-19T1300,3403A,110.1764,25.2381,桂林市,创业大厦,,20,14,14,7,11,61,,43,43,8,9,8,8,0.4,0.4
2024-11-19T1300,3531A,110.296,25.1253,桂林市,旅游学院,,21,6,9,3,6,65,,47,47,7,8,7,8,0.7,0.7
2024-11-19T1300,2674A,100.2561,34.4714,果洛藏族自治州,玛沁县大武镇,,30,13,33,7,16,94,,70,70,2,2,14,14,0.4,0.4
2024-11-19T1300,1129A,126.5422,45.755,哈尔滨市,岭北,,32,30,76,22,64,71,,64,64,15,20,10,9,0.7,1
2024-11-19T1300,1130A,126.561,45.8167,哈尔滨市,松北商大,,42,40,79,29,62,54,,45,45,14,24,10,11,0.7,0.8
2024-11-19T1300,1131A,126.979,45.5419,哈尔滨市,阿城会宁,,40,40,71,23,52,66,,50,50,6,16,3,5,0.4,0.7
2024-11-19T1300,1132A,126.599,45.7222,哈尔滨市,南岗学府路,颗粒物(PM10),54,58,90,28,62,56,,44,44,14,22,8,9,0.4,0.5
2024-11-19T1300,1133A,126.689,45.7733,哈尔滨市,太平宏伟公园,,,70,83,39,56,53,,32,,,27,9,12,0.7,0.7
2024-11-19T1300,1134A,126.635,45.7667,哈尔滨市,道外承德广场,,,52,84,24,67,51,,44,43,,33,12,9,0.3,0.6
2024-11-19T1300,1135A,126.685,45.7319,哈尔滨市,香坊红旗大街,颗粒物(PM10),57,63,95,38,73,54,,37,37,16,26,6,8,0.6,0.7
2024-11-19T1300,1136A,126.6411,45.7258,哈尔滨市,动力和平路,颗粒物(PM10),57,64,90,28,71,51,,34,34,22,29,9,10,0.5,0.6
2024-11-19T1300,1137A,126.593,45.7478,哈尔滨市,道里建国路,颗粒物(PM10),54,57,78,22,68,54,,46,46,17,25,14,10,0.4,0.5
2024-11-19T1300,1138A,126.615,45.61,哈尔滨市,平房东轻厂,,45,45,71,31,54,65,,47,47,8,24,8,9,0.5,0.6
2024-11-19T1300,1139A,126.595,45.9855,哈尔滨市,呼兰师专,,43,43,84,30,71,45,,40,40,28,28,13,12,0.3,0.3
2024-11-19T1300,1140A,126.6206,45.6842,哈尔滨市,省农科院,颗粒物(PM10),56,62,95,30,73,47,,33,33,27,34,9,13,0.5,0.7
2024-11-19T1300,2688A,93.5128,42.8172,哈密市,地区监测站,颗粒物(PM10),78,106,105,33,39,45,,28,28,27,43,14,10,0.7,0.8
2024-11-19T1300,2689A,93.4961,42.8328,哈密市,哈密师范学校,细颗粒物(PM2.5),62,68,102,44,46,47,,21,21,32,50,18,11,1.1,1.3
2024-11-19T1300,2671A,100.9048,36.9639,海北藏族自治州,海晏县西海镇,细颗粒物(PM2.5),53,43,30,37,23,62,,48,48,13,10,29,11,0.7,0.5
2024-11-19T1300,3867A,102.0738,36.5056,海东市,平安区公安北苑,细颗粒物(PM2.5),73,59,62,53,42,50,,35,35,19,28,23,20,0.7,0.7
2024-11-19T1300,1409A,110.576,19.9507,海口市,东寨港,,,,,,,,,,,,,,,,
2024-11-19T1300,1410A,110.3232,20.0574,海口市,海南大学,,28,28,36,13,18,65,,76,57,11,14,5,5,0.5,0.6
2024-11-19T1300,1411A,110.283,20.0053,海口市,秀英海南医院,,29,29,36,15,18,65,,80,58,12,12,6,7,0.4,0.5
2024-11-19T1300,1412A,110.338,19.9969,海口市,海南师范大学,,30,30,36,14,17,67,,78,58,7,9,6,7,0.5,0.6
2024-11-19T1300,1413A,110.33,20.0356,海口市,龙华路环保局宿舍,,31,31,37,14,17,66,,78,58,10,12,5,6,0.4,0.5
2024-11-19T1300,3539A,110.5111,19.9736,海口市,桂林洋子站,,28,28,40,15,20,62,,77,56,6,8,6,7,0.4,0.5
2024-11-19T1300,2673A,100.6188,36.2866,海南藏族自治州,共和县恰卜恰镇,,28,,31,19,20,66,,36,36,5,24,11,11,0.5,0.6
2024-11-19T1300,2676A,97.3731,37.3753,海西蒙古族藏族自治州,德令哈市,,28,20,20,7,12,89,,83,81,5,5,16,16,0.4,0.4
2024-11-19T1300,1048A,114.5302,36.6116,邯郸市,东污水处理厂,,,,,,,,,,,,,,,,
2024-11-19T1300,1049A,114.4918,36.5713,邯郸市,矿院,,31,31,50,19,28,49,,18,18,19,36,5,3,0.5,0.4
2024-11-19T1300,1050A,114.484,36.6133,邯郸市,丛台公园,,38,38,43,21,25,48,,22,22,17,31,5,3,0.6,0.5
2024-11-19T1300,3458A,114.7895,36.5593,邯郸市,香泉濮院小区,颗粒物(PM10),52,53,52,18,26,59,,27,27,7,24,7,7,0.6,0.6
2024-11-19T1300,3579A,114.50634,36.77178,邯郸市,永年区实验高中,颗粒物(PM10),55,60,70,20,25,57,,34,34,14,36,11,7,0.4,0.7
2024-11-19T1300,3580A,114.20016,36.44293,邯郸市,峰峰矿区临水派出所,,21,21,51,13,26,57,,26,26,6,28,7,7,0.1,0.3
2024-11-19T1300,2634A,106.9893,33.1842,汉中市,汉川机床厂子校,,18,13,9,10,7,56,,44,42,8,7,5,5,0.4,0.4
2024-11-19T1300,2635A,107.0154,33.0706,汉中市,市监测站,,19,19,10,3,5,55,,44,44,7,9,9,9,0.5,0.6
2024-11-19T1300,2636A,107.0089,33.1138,汉中市,鑫源开发区,,18,17,9,10,9,57,,42,41,9,12,10,10,0.3,0.3
2024-11-19T1300,2637A,107.007,33.0323,汉中市,南郑大河坎水厂,,21,8,11,8,9,66,,46,46,8,14,8,9,0.5,0.5
2024-11-19T1300,1223A,120.2072,30.2111,杭州市,滨江,,41,41,37,12,12,49,,45,45,30,23,6,6,0.3,0.3
2024-11-19T1300,1224A,120.0633,30.2747,杭州市,西溪,,,40,32,16,7,42,,43,43,,25,8,7,0.6,0.6
2024-11-19T1300,1226A,120.3461,30.3153,杭州市,下沙,,30,30,39,9,10,60,,43,43,22,32,7,7,0.6,0.6
2024-11-19T1300,1227A,120.1269,30.2456,杭州市,卧龙桥,,36,36,36,13,9,47,,51,51,26,21,8,7,0.5,0.5
2024-11-19T1300,1228A,120.1903,30.2692,杭州市,浙江农大,,,33,33,12,10,49,,44,44,,21,5,5,0.5,0.5
2024-11-19T1300,1230A,120.1197,30.3119,杭州市,和睦小学,,30,30,28,10,9,51,,49,49,32,25,6,6,0.5,0.4
2024-11-19T1300,1231A,120.3019,30.4183,杭州市,临平镇,,36,36,35,9,8,60,,52,52,24,23,6,6,0.4,0.4
2024-11-19T1300,1232A,120.2697,30.1819,杭州市,城厢镇,,31,31,31,12,11,57,,46,46,25,27,6,6,0.4,0.4
2024-11-19T1300,1233A,120.0883,30.1808,杭州市,云栖,,22,22,22,10,8,41,,41,41,33,27,7,7,0.6,0.5
2024-11-19T1300,3557A,119.9464,30.0494,杭州市,镇二中,,29,29,27,9,8,45,,43,43,24,21,6,6,0.5,0.5
2024-11-19T1300,3558A,119.7183,30.2367,杭州市,市府大楼,,29,29,27,14,11,53,,46,46,26,25,7,6,0.5,0.5
2024-11-19T1300,3656A,120.1556,30.2864,杭州市,消防大队,,38,38,34,13,11,50,,50,50,33,27,8,8,0.3,0.3
2024-11-19T1300,1270A,117.1959,31.7848,合肥市,明珠广场,,36,36,29,9,8,41,,40,36,24,20,7,7,0.5,0.4
2024-11-19T1300,1271A,117.3072,31.8764,合肥市,三里街,,27,27,26,7,9,40,,38,34,21,18,6,5,0.4,0.3
2024-11-19T1300,1272A,117.2588,31.8707,合肥市,琥珀山庄,,29,29,26,13,9,50,,46,45,18,15,9,9,0.4,0.3
2024-11-19T1300,1273A,117.1604,31.9052,合肥市,董铺水库,,27,27,26,3,5,49,,44,43,16,12,5,4,0.4,0.3
2024-11-19T1300,1274A,117.25,31.8571,合肥市,长江中路,,34,34,27,11,12,46,,42,42,22,20,6,8,0.6,0.4
2024-11-19T1300,1275A,117.266,31.9436,合肥市,庐阳区,,31,31,26,7,8,53,,47,45,13,10,2,2,0.4,0.4
2024-11-19T1300,1276A,117.336,31.8586,合肥市,瑶海区,,27,27,27,6,7,46,,43,40,27,23,3,3,0.5,0.4
2024-11-19T1300,1277A,117.3027,31.7964,合肥市,包河区,,31,31,31,7,9,30,,29,23,35,31,3,2,0.5,0.5
2024-11-19T1300,1278A,117.2776,31.7385,合肥市,滨湖新区,,29,29,29,9,9,44,,38,37,18,17,5,4,0.4,0.3
2024-11-19T1300,1279A,117.1318,31.8403,合肥市,高新区,,29,29,28,15,10,42,,40,38,24,20,3,3,0.7,0.6
2024-11-19T1300,3464A,117.3803,31.9147,合肥市,高教基地,,26,26,24,10,9,52,,43,43,16,14,6,5,0.4,0.3
2024-11-19T1300,3614A,79.924,37.0877,和田地区,地区环保局,颗粒物(PM10),127,204,181,69,54,54,,41,41,26,26,13,11,0.7,0.7
2024-11-19T1300,3615A,79.9131,37.113,和田地区,市环保局,颗粒物(PM10),111,172,155,55,57,54,,28,28,25,31,11,9,0.9,1.2
2024-11-19T1300,2516A,108.2011,24.715,河池市,东仁乐园,,25,25,17,6,9,47,,41,41,4,5,3,3,0.9,0.9
2024-11-19T1300,2517A,108.0497,24.6947,河池市,市环保站,,,24,14,6,7,,,44,44,8,8,8,8,0.4,0.5
2024-11-19T1300,2518A,108.0983,24.6989,河池市,市疾控中心,,15,12,14,6,10,47,,42,42,9,9,9,9,0.5,0.5
2024-11-19T1300,1696A,114.6778,23.7569,河源市,源西,,,,14,10,10,29,,28,26,10,10,,5,0.6,0.6
2024-11-19T1300,1697A,114.6944,23.7586,河源市,东埔,,,,10,,13,30,,27,25,10,11,3,4,0.5,0.6
2024-11-19T1300,1698A,114.6892,23.7233,河源市,老城,,14,14,15,9,8,28,,26,24,10,10,3,3,0.5,0.6
2024-11-19T1300,1718A,115.4208,35.2464,菏泽市,气象局,颗粒物(PM10),54,57,57,33,30,60,,44,44,17,21,6,4,0.4,0.4
2024-11-19T1300,1719A,115.4747,35.2375,菏泽市,市政协,颗粒物(PM10),54,58,56,29,31,55,,40,40,17,23,6,5,0.4,0.4
2024-11-19T1300,3374A,115.5564,35.0891,菏泽市,定陶老年大学,颗粒物(PM10),58,66,45,31,22,41,,30,27,29,25,7,6,0.4,0.3
2024-11-19T1300,3647A,115.4702,35.2706,菏泽市,菏泽医专,颗粒物(PM10),53,55,62,22,26,56,,39,39,23,33,12,10,0.3,0.3
2024-11-19T1300,2514A,111.5264,24.4172,贺州市,环保小区,,18,17,20,6,11,55,,36,36,9,11,5,6,0.5,0.5
2024-11-19T1300,2515A,111.5608,24.4078,贺州市,政协大楼,,,22,24,3,8,55,,35,35,,11,6,6,0.6,0.6
2024-11-19T1300,3534A,111.4744,24.4553,贺州市,西湾,,21,21,26,9,10,48,,35,35,12,12,6,7,0.5,0.5
2024-11-19T1300,2385A,114.17,35.9019,鹤壁市,市监测站,,,,65,22,28,60,,32,32,6,43,1,3,0.3,0.2
2024-11-19T1300,2386A,114.2956,35.7511,鹤壁市,市交警支队,,47,47,60,13,24,56,,26,26,20,44,8,4,0.4,0.5
2024-11-19T1300,2387A,114.2878,35.7306,鹤壁市,迎宾馆,颗粒物(PM10),64,78,72,22,25,58,,25,25,15,40,1,4,0.5,0.6
2024-11-19T1300,3474A,114.2617,35.6822,鹤壁市,大新区,颗粒物(PM10),58,66,68,40,34,56,,20,20,11,36,4,4,0.4,0.5
2024-11-19T1300,3596A,114.1572,35.9603,鹤壁市,南山宾馆,,20,16,58,3,24,63,,26,26,1,27,2,3,0.0,0.2
2024-11-19T1300,2244A,130.2537,47.3416,鹤岗市,哈啤分公司,,,,23,,18,,,42,42,6,6,15,14,0.3,0.5
2024-11-19T1300,2245A,130.2684,47.3086,鹤岗市,斯达机电,,48,34,28,33,17,66,,42,42,15,18,25,15,0.1,0
2024-11-19T1300,2246A,130.3114,47.3388,鹤岗市,东山纸板厂,,33,24,28,23,17,63,,38,38,8,13,15,15,0.6,0.6
2024-11-19T1300,2247A,130.1097,47.3382,鹤岗市,五号水库,,40,37,21,28,12,85,,65,65,4,4,11,9,0.6,0.6
2024-11-19T1300,2263A,127.4833,50.2524,黑河市,交通局,,48,46,27,33,20,50,,53,45,19,11,6,7,0.5,0.4
2024-11-19T1300,2264A,127.5144,50.2341,黑河市,环保局,,,30,27,26,19,54,,55,45,13,12,,7,0.4,0.4
2024-11-19T1300,2265A,127.5291,50.2472,黑河市,大黑河岛,,48,47,22,33,21,38,,46,29,22,11,2,2,0.7,0.6
2024-11-19T1300,1074A,115.6838,37.7541,衡水市,电机北厂,,,74,41,18,24,56,,32,32,,28,7,6,,0.5
2024-11-19T1300,1075A,115.6303,37.7316,衡水市,市监测站,颗粒物(PM10),53,55,42,13,21,58,,27,27,25,40,5,5,0.4,0.4
2024-11-19T1300,3188A,115.6683,37.7217,衡水市,市城管局,颗粒物(PM10),55,60,45,19,22,56,,30,30,24,37,3,2,0.5,0.5
2024-11-19T1300,3459A,115.5989,37.5491,衡水市,地表水厂,颗粒物(PM10),53,55,42,27,26,66,,24,24,15,39,4,4,0.4,0.5
2024-11-19T1300,2456A,112.5003,26.9167,衡阳市,原169医院,,27,27,9,11,10,21,,22,22,7,10,7,8,0.4,0.4
2024-11-19T1300,2457A,112.6194,26.9258,衡阳市,衡阳化工总厂,,29,26,16,20,9,30,,26,26,18,17,7,6,0.6,0.6
2024-11-19T1300,2458A,112.6211,26.8956,衡阳市,珠晖区环保局,,26,26,13,12,8,28,,25,25,17,15,7,7,0.6,0.6
2024-11-19T1300,2459A,112.6197,26.8733,衡阳市,市委党校,,26,26,15,8,5,35,,27,27,15,14,10,10,0.5,0.5
2024-11-19T1300,2460A,112.6006,26.8919,衡阳市,市监测站,,,39,13,26,8,24,,26,25,,14,8,8,0.6,0.5
2024-11-19T1300,2461A,112.5664,26.9056,衡阳市,真空机电公司,,,23,10,8,6,27,,28,28,6,12,4,4,,0.6
2024-11-19T1300,3399A,112.6703,26.882,衡阳市,师范学院,,49,,10,34,9,33,,28,28,9,13,8,8,0.5,0.5
2024-11-19T1300,2608A,103.3772,23.3993,红河哈尼族彝族自治州,污水处理厂,,30,20,47,19,42,93,,85,85,5,9,5,8,0.4,0.5
2024-11-19T1300,2609A,103.3861,23.35,红河哈尼族彝族自治州,监测站,,38,30,52,26,42,93,,88,88,8,9,6,8,0.3,0.4
2024-11-19T1300,3038A,103.3758,23.368,红河哈尼族彝族自治州,州图书馆,,28,20,44,11,33,87,,86,84,7,7,5,6,0.3,0.4
2024-11-19T1300,1090A,111.6507,40.7517,呼和浩特市,呼市一监,细颗粒物(PM2.5),65,,65,47,38,23,,13,13,22,40,9,11,0.7,0.7
2024-11-19T1300,1091A,111.6572,40.8033,呼和浩特市,小召,细颗粒物(PM2.5),74,61,67,54,40,34,,24,24,25,45,11,17,0.7,0.7
2024-11-19T1300,1094A,111.7516,40.8369,呼和浩特市,如意水处理厂,细颗粒物(PM2.5),68,75,76,49,36,27,,15,15,25,47,7,10,0.4,0.5
2024-11-19T1300,1095A,111.7276,40.8062,呼和浩特市,二十九中,,,63,64,59,39,29,,25,25,20,38,6,10,,0.7
2024-11-19T1300,1096A,111.5512,40.7866,呼和浩特市,工大金川校区,细颗粒物(PM2.5),74,62,74,54,38,24,,14,14,28,49,8,13,0.7,0.8
2024-11-19T1300,1097A,111.717,40.7612,呼和浩特市,化肥厂生活区,细颗粒物(PM2.5),65,69,74,47,37,25,,20,20,26,43,8,11,0.7,0.7
2024-11-19T1300,3698A,111.5968,40.8178,呼和浩特市,红旗小学,细颗粒物(PM2.5),73,58,74,53,35,28,,10,10,23,54,7,13,0.6,0.7
2024-11-19T1300,3699A,111.6518,40.8389,呼和浩特市,海东办,细颗粒物(PM2.5),69,,65,50,35,34,,12,12,22,51,8,12,0.6,0.7
2024-11-19T1300,2192A,119.7594,49.2261,呼伦贝尔市,区环保局,,22,22,26,11,13,47,,35,30,7,13,8,6,0.3,0.4
2024-11-19T1300,3061A,119.7512,49.1577,呼伦贝尔市,国华电力东,,19,16,24,13,11,50,,40,37,3,16,4,4,0.2,0.3
2024-11-19T1300,1250A,120.0751,30.8669,湖州市,城西水厂,,26,26,28,3,4,74,,69,69,16,14,6,6,0.3,0.3
2024-11-19T1300,2873A,120.0875,30.8955,湖州市,仁皇山新区,,28,28,30,7,7,75,,69,69,18,18,6,5,0.4,0.3
2024-11-19T1300,2907A,120.1844,30.8596,湖州市,吴兴区站,,22,22,25,9,9,60,,55,55,17,17,6,6,0.3,0.3
2024-11-19T1300,3562A,120.4148,30.8538,湖州市,南浔区站,,26,26,29,10,10,60,,54,54,30,23,5,4,0.3,0.3
2024-11-19T1300,1607A,120.9092,40.7136,葫芦岛市,龙港区,颗粒物(PM10),51,52,40,28,23,45,,43,43,28,29,12,16,0.7,0.8
2024-11-19T1300,1608A,120.8392,40.7514,葫芦岛市,化工街,颗粒物(PM10),54,58,58,27,30,39,,31,31,19,27,14,23,0.6,0.7
2024-11-19T1300,1609A,120.8341,40.7073,葫芦岛市,新区,颗粒物(PM10),51,52,35,33,24,40,,28,28,28,37,15,15,0.6,0.7
2024-11-19T1300,1610A,120.8695,40.7677,葫芦岛市,东城区,颗粒物(PM10),63,75,59,34,31,39,,34,34,25,34,13,24,0.7,0.8
2024-11-19T1300,2482A,109.5981,27.5721,怀化市,林科所,,11,7,6,7,5,35,,38,36,10,10,7,14,0.7,0.7
2024-11-19T1300,2483A,109.9453,27.5444,怀化市,河西地税局,,18,16,12,12,6,34,,38,35,14,14,12,12,0.8,0.8
2024-11-19T1300,2484A,109.9781,27.5342,怀化市,市四医院,,13,13,10,6,5,31,,35,34,10,9,13,10,0.6,0.6
2024-11-19T1300,2485A,109.9972,27.5578,怀化市,监测楼,,12,12,9,3,5,35,,37,34,11,12,6,5,0.3,0.3
2024-11-19T1300,2486A,110.0394,27.583,怀化市,市委党校,,16,,8,11,6,33,,36,33,8,8,3,4,0.2,0.3
2024-11-19T1300,1210A,119.036,33.5981,淮安市,钵池山,,21,17,23,9,10,65,,53,53,14,19,5,5,0.4,0.5
2024-11-19T1300,1211A,119.007,33.575,淮安市,北京南路,,,,23,,9,,,53,53,16,18,6,6,0.2,0.2
2024-11-19T1300,1212A,118.989,33.6067,淮安市,市监测站,,21,17,22,9,12,65,,52,52,17,20,4,4,0.5,0.5
2024-11-19T1300,1213A,119.135,33.5039,淮安市,楚州区监测站,,22,22,25,9,11,64,,52,52,14,20,6,6,0.6,0.5
2024-11-19T1300,1214A,119.0186,33.6297,淮安市,淮阴区监测站,,24,24,28,10,10,65,,48,48,17,26,4,4,0.4,0.4
2024-11-19T1300,3426A,118.8755,33.2894,淮安市,新华书店,,21,15,22,7,9,65,,53,53,17,22,5,6,0.4,0.5
2024-11-19T1300,2282A,116.8004,33.975,淮北市,监测站,,34,34,35,13,15,57,,38,38,12,19,4,4,0.5,0.5
2024-11-19T1300,2283A,116.8091,33.9007,淮北市,烈山区政府,,36,36,27,14,15,53,,44,44,23,23,6,3,0.4,0.4
2024-11-19T1300,3330A,116.8873,33.9836,淮北市,杜集区检察院,,42,42,45,16,15,58,,43,43,14,19,4,4,0.4,0.5
2024-11-19T1300,4017A,116.7923,33.9535,淮北市,市博物馆,,,,33,,15,59,,42,42,,19,8,7,,0.7
2024-11-19T1300,2277A,116.8305,32.7727,淮南市,潘集区政府,,32,32,34,19,20,49,,35,35,18,20,7,7,0.2,0.2
2024-11-19T1300,2278A,117.0067,32.6524,淮南市,师范学院,,27,27,32,9,12,54,,45,45,11,15,10,10,0.4,0.4
2024-11-19T1300,2279A,116.8569,32.5951,淮南市,谢家集区政府,,25,25,26,11,11,56,,48,48,17,20,8,8,0.3,0.3
2024-11-19T1300,2280A,116.8281,32.633,淮南市,八公山区政府,,28,28,26,10,11,55,,47,47,14,16,6,7,0.2,0.2
2024-11-19T1300,2281A,116.6325,32.6201,淮南市,焦岗湖风景区管理处,,28,28,24,11,13,50,,32,32,11,18,4,4,0,0
2024-11-19T1300,2894A,117.0566,32.6531,淮南市,经济技术开发区消防队,,28,28,27,10,11,56,,48,48,6,13,4,4,0.2,0.2
2024-11-19T1300,3329A,117.0108,32.5893,淮南市,山南新区,,23,23,25,9,6,59,,52,52,5,11,4,3,0.3,0.2
2024-11-19T1300,2446A,114.9028,30.4742,黄冈市,职工中心,,37,37,27,23,15,26,,30,24,14,14,8,7,0.5,0.5
2024-11-19T1300,2929A,114.8858,30.4519,黄冈市,红卫路,,35,35,25,24,15,30,,33,26,17,17,6,6,0.4,0.4
2024-11-19T1300,3398A,114.9136,30.4445,黄冈市,市林业局,,35,35,33,22,14,37,,40,32,17,16,7,7,0.5,0.5
2024-11-19T1300,2672A,102.0199,35.5102,黄南藏族自治州,同仁县隆务镇,细颗粒物(PM2.5),54,44,56,38,41,59,,36,36,10,12,5,6,0.5,0.6
2024-11-19T1300,2295A,118.2903,29.6963,黄山市,延安路89号,,42,,30,29,13,40,,36,33,11,9,7,6,0.3,0.2
2024-11-19T1300,2296A,118.327,29.7178,黄山市,黄山东路89号,,32,32,35,3,8,46,,38,38,8,9,5,5,0.2,0.1
2024-11-19T1300,2297A,118.1371,30.2756,黄山市,黄山区政府5号楼,,36,36,32,23,11,38,,30,30,9,9,7,8,0.3,0.3
2024-11-19T1300,2423A,115.0601,30.2313,黄石市,沈家营,,40,40,27,16,10,31,,36,29,23,17,5,7,0.6,0.6
2024-11-19T1300,2424A,115.0817,30.2006,黄石市,陈家湾,,43,43,26,26,13,30,,36,29,21,18,17,9,0.5,0.4
2024-11-19T1300,2426A,114.8988,30.2019,黄石市,铁山,,,37,25,17,14,32,,40,29,,11,16,8,0.8,0.9
2024-11-19T1300,2427A,115.0307,30.2092,黄石市,团城山,,33,33,29,20,9,32,,38,31,18,14,6,7,0.5,0.5
2024-11-19T1300,3149A,115.0235,30.1578,黄石市,笔架山北路,,27,27,19,14,7,32,,37,30,21,18,7,7,0.4,0.4
2024-11-19T1300,1392A,114.4183,23.0528,惠州市,河南岸金山湖子站,,13,13,19,8,11,28,,28,24,9,10,6,6,0.5,0.6
2024-11-19T1300,1393A,114.4053,23.0822,惠州市,下埔横江三路子站,,15,11,17,10,12,32,,30,27,11,11,5,5,0.6,0.6
2024-11-19T1300,1394A,114.4103,23.1142,惠州市,江北云山西路子站,,12,12,17,7,10,30,,30,26,11,11,5,6,0.7,0.7
2024-11-19T1300,1395A,114.4645,22.7833,惠州市,惠阳区承修路船湖子站,,10,10,23,3,11,23,,24,20,12,12,7,7,0.5,0.6
2024-11-19T1300,1396A,114.5317,22.7422,惠州市,大亚湾管委会子站,,9,6,19,3,11,27,,27,22,11,14,5,6,0.7,0.7
2024-11-19T1300,3314A,114.4338,22.8134,惠州市,惠阳秋长,,9,6,15,3,10,26,,26,23,7,7,5,6,0.6,0.6
2024-11-19T1300,3452A,114.6517,22.775,惠州市,大亚湾霞涌,,11,11,20,3,13,28,,26,23,8,10,5,6,0.5,0.6
2024-11-19T1300,2240A,130.9762,45.3001,鸡西市,环保局,,40,38,32,28,17,61,,49,49,5,4,6,6,0.3,0.3
2024-11-19T1300,2243A,130.9429,45.3039,鸡西市,第一中学,,30,30,28,18,17,66,,57,57,5,5,6,5,0.2,0.2
2024-11-19T1300,3707A,131.0207,45.3073,鸡西市,欧美日汽修厂,,40,40,42,20,25,57,,35,35,13,17,12,12,0.7,0.7
2024-11-19T1300,3709A,130.9967,45.3106,鸡西市,市政设施管理处,颗粒物(PM10),52,53,48,18,18,58,,40,40,11,14,4,5,0.4,0.4
2024-11-19T1300,2367A,114.9754,27.0803,吉安市,红声器材厂,,44,44,43,12,15,38,,32,30,22,23,14,13,0.5,0.5
2024-11-19T1300,2368A,114.9658,27.0999,吉安市,市森林工业局,,,38,35,18,14,45,,37,37,16,18,11,11,,0.6
2024-11-19T1300,2369A,114.99,27.1312,吉安市,市环境监测站,,33,33,32,14,14,44,,35,34,18,19,15,13,0.5,0.5
2024-11-19T1300,2370A,115.0093,27.0968,吉安市,青原区法院,,41,41,37,12,14,44,,31,30,21,24,12,11,0.5,0.4
2024-11-19T1300,1772A,126.54,43.8622,吉林市,哈达湾,,22,22,35,7,22,65,,46,46,9,22,7,7,0.4,0.6
2024-11-19T1300,1773A,126.5844,43.8358,吉林市,东局子,,22,11,28,11,20,68,,51,51,8,18,6,6,0.4,0.5
2024-11-19T1300,1774A,126.5052,43.8245,吉林市,电力学院,,20,,51,14,43,62,,36,36,8,27,6,8,0.4,0.8
2024-11-19T1300,1775A,126.6133,43.8972,吉林市,江北,,20,18,45,9,24,62,,46,46,10,24,10,10,0.6,0.7
2024-11-19T1300,1776A,126.555,43.8306,吉林市,江南公园,,,14,38,10,27,61,,44,44,,6,9,9,0.4,0.5
2024-11-19T1300,1778A,126.7061,43.7133,吉林市,丰满,,,,12,,12,,,48,,,4,,8,,0
2024-11-19T1300,2868A,126.4739,43.953,吉林市,九站,,29,29,46,12,33,61,,49,49,10,25,5,7,0.5,0.6
2024-11-19T1300,1299A,116.9862,36.6114,济南市,科干所,,44,44,39,20,14,73,,61,61,19,25,8,5,0.6,0.7
2024-11-19T1300,1300A,116.9376,36.665,济南市,农科所,,46,46,50,15,14,64,,44,44,22,41,8,7,0.6,0.7
2024-11-19T1300,1301A,117.1265,36.6734,济南市,开发区,,37,37,38,20,19,70,,57,57,25,35,8,7,0.6,0.5
2024-11-19T1300,1303A,117.0624,36.6868,济南市,省种子仓库,,41,41,44,14,18,69,,56,56,15,29,5,5,0.3,0.4
2024-11-19T1300,1304A,116.9489,36.6447,济南市,机床二厂,颗粒物(PM10),52,54,55,22,18,72,,48,48,16,41,8,7,0.4,0.6
2024-11-19T1300,1305A,117.0495,36.663,济南市,市监测站,,39,39,40,12,16,73,,61,61,16,26,7,5,0.3,0.4
2024-11-19T1300,1306A,116.7675,36.5484,济南市,长清党校,,39,39,45,17,22,74,,54,54,18,35,7,8,0.7,0.8
2024-11-19T1300,1616A,117.6795,36.229,济南市,技术学院,,32,31,34,22,19,65,,36,36,17,29,9,7,0.6,0.4
2024-11-19T1300,1961A,117.532,36.6868,济南市,东山小学,,32,32,50,7,17,70,,49,49,15,39,8,8,0.2,0.4
2024-11-19T1300,3059A,117.7161,36.2049,济南市,泰兴公司,,34,34,42,14,19,70,,38,38,16,37,8,7,0.2,0.3
2024-11-19T1300,3064A,117.6867,36.2171,济南市,莱芜战役纪念馆,,46,46,40,19,16,66,,38,38,21,32,8,6,0.4,0.4
2024-11-19T1300,3494A,117.1673,36.9782,济南市,济阳区政府,,,56,68,15,26,60,,23,23,19,41,,11,0.4,0.5
2024-11-19T1300,3495A,117.1171,36.63,济南市,锦屏中学,,32,32,32,10,15,74,,62,62,22,29,7,7,0.3,0.3
2024-11-19T1300,3682A,116.9814,36.6819,济南市,济南四建,,39,39,40,20,17,64,,49,49,17,36,6,6,0.3,0.4
2024-11-19T1300,1653A,116.6251,35.4302,济宁市,火炬城,,34,34,40,22,22,57,,40,40,20,30,4,3,0.5,0.5
2024-11-19T1300,1655A,116.5491,35.4042,济宁市,电化厂,颗粒物(PM10),56,61,45,24,23,49,,40,40,31,29,10,8,0.7,0.6
2024-11-19T1300,3500A,116.5814,35.3707,济宁市,北湖一中,,47,47,36,24,22,54,,38,38,25,30,9,5,0.4,0.4
2024-11-19T1300,3501A,116.8249,35.5593,济宁市,服务中心,,,50,49,21,21,58,,34,34,,38,10,9,0.9,0.9
2024-11-19T1300,3678A,116.5907,35.4054,济宁市,市第七中学,,42,42,38,17,19,60,,42,42,20,27,8,6,0.6,0.6
2024-11-19T1300,2255A,130.2751,46.8028,佳木斯市,佳纺,细颗粒物(PM2.5),80,62,35,59,23,73,,53,53,11,12,7,5,0.4,0.7
2024-11-19T1300,2256A,130.3995,46.8307,佳木斯市,发电厂,细颗粒物(PM2.5),88,,25,65,22,74,,54,54,10,8,6,5,0.5,0.5
2024-11-19T1300,2257A,130.3258,46.7975,佳木斯市,环保局,细颗粒物(PM2.5),89,67,34,66,25,72,,51,51,10,12,11,10,0.4,0.4
2024-11-19T1300,2258A,130.3648,46.8032,佳木斯市,十一中,细颗粒物(PM2.5),83,64,30,61,23,73,,54,54,12,10,4,4,0.5,0.4
2024-11-19T1300,2259A,130.3794,46.7588,佳木斯市,四丰,,,,,,,,,,,,,,,,
2024-11-19T1300,1252A,120.7436,30.778,嘉兴市,清河小学,,26,26,30,6,9,61,,56,56,18,18,9,8,0.4,0.4
2024-11-19T1300,1253A,120.726,30.7478,嘉兴市,嘉兴学院,,27,27,29,9,8,58,,56,56,26,25,6,5,0.4,0.4
2024-11-19T1300,2872A,120.7846,30.7525,嘉兴市,南湖区残联,,29,29,30,8,8,64,,61,61,21,18,7,6,0.5,0.4
2024-11-19T1300,3407A,120.6916,30.7739,嘉兴市,秀洲住建,,31,31,26,12,10,61,,54,54,11,12,8,8,0.4,0.3
2024-11-19T1300,1945A,98.2908,39.7711,嘉峪关市,气象局,,41,41,48,19,19,73,,38,37,26,32,33,21,1.1,0.7
2024-11-19T1300,2884A,98.2672,39.7978,嘉峪关市,酒钢宾馆,,41,41,58,19,20,67,,40,40,24,36,41,58,1.2,0.8
2024-11-19T1300,3248A,98.2643,39.7724,嘉峪关市,雄关区,,33,33,49,10,23,75,,35,35,30,39,22,18,0.9,0.4
2024-11-19T1300,1383A,113.1064,22.6058,江门市,北街,,15,,23,10,12,33,,38,32,20,21,4,5,0.7,0.7
2024-11-19T1300,1384A,113.0731,22.5835,江门市,西区,,23,23,29,8,14,33,,37,30,20,22,6,7,0.6,0.5
2024-11-19T1300,1385A,113.0219,22.5311,江门市,圭峰西,,16,13,23,11,12,38,,37,31,17,21,3,4,0.6,0.6
2024-11-19T1300,1386A,113.0828,22.5947,江门市,东湖,,18,18,25,3,11,32,,36,29,18,19,6,6,0.5,0.5
2024-11-19T1300,3311A,113.1075,22.5647,江门市,江海富民,,21,21,29,11,14,28,,37,28,22,21,6,7,0.6,0.7
2024-11-19T1300,3449A,113.05,22.4667,江门市,新会银湖,,16,,23,11,14,25,,36,26,22,22,5,6,0.5,0.5
2024-11-19T1300,1828A,113.227,35.2125,焦作市,市环保局,"颗粒物(PM10),细颗粒物(PM2.5)",52,53,61,36,29,55,,35,35,22,30,6,4,0.3,0.2
2024-11-19T1300,1830A,113.1992,35.2590,焦作市,影视城,颗粒物(PM10),63,76,61,39,30,54,,28,28,21,18,18,10,1.0,0.7
2024-11-19T1300,3169A,113.2725,35.2067,焦作市,太极体育中心,颗粒物(PM10),51,52,53,30,26,50,,36,36,22,28,6,4,0.7,0.6
2024-11-19T1300,3335A,113.3137,35.2641,焦作市,马村街道办,细颗粒物(PM2.5),58,51,60,41,32,56,,34,34,17,24,7,7,0.4,0.3
2024-11-19T1300,3336A,113.2465,35.2373,焦作市,焦作技师学院,颗粒物(PM10),53,55,64,34,28,55,,33,33,16,24,8,9,0.8,0.6
2024-11-19T1300,3477A,113.1656,35.2539,焦作市,中站许衡医院,颗粒物(PM10),72,94,69,43,33,48,,22,22,19,29,16,8,0.7,0.5
2024-11-19T1300,3981A,113.2449,35.1803,焦作市,原李万街道办,,,62,59,26,19,53,,25,25,19,26,,5,0.6,0.5
2024-11-19T1300,1708A,116.3701,23.5345,揭阳市,新兴,,27,27,20,14,14,42,,54,50,19,16,5,6,0.5,0.4
2024-11-19T1300,1709A,116.3264,23.5443,揭阳市,西马,,22,22,24,14,14,47,,58,49,11,11,6,7,0.7,0.7
2024-11-19T1300,1710A,116.3611,23.5626,揭阳市,东兴,,31,31,24,11,12,44,,55,50,13,12,7,8,0.7,0.6
2024-11-19T1300,1711A,116.4151,23.5294,揭阳市,渔湖,,17,12,21,7,10,52,,54,50,11,14,6,8,0.5,0.5
2024-11-19T1300,3320A,116.403,23.5699,揭阳市,曲溪,,19,15,25,13,13,51,,58,51,12,16,2,5,0.5,0.5
2024-11-19T1300,1944A,102.1692,38.5167,金昌市,天庆家园,,45,45,56,22,37,85,,53,53,12,23,23,15,0.0,0.8
2024-11-19T1300,3170A,102.1864,38.5253,金昌市,市委党校,颗粒物(PM10),52,53,75,17,34,83,,49,49,12,25,17,14,0.5,0.9
2024-11-19T1300,4022A,102.1647,38.5371,金昌市,金川区人防中心,颗粒物(PM10),53,55,67,30,34,83,,53,53,11,18,17,12,0.6,0.8
2024-11-19T1300,1262A,119.647,29.077,金华市,十五中,,,46,40,14,10,40,,34,31,30,25,,4,0.3,0.4
2024-11-19T1300,1263A,119.686,29.1029,金华市,监测站,,41,41,38,17,14,35,,28,27,25,22,4,4,0.4,0.3
2024-11-19T1300,3659A,119.656,29.1131,金华市,气象局,,42,42,37,16,11,39,,30,28,28,26,4,4,0.5,0.4
2024-11-19T1300,1767A,121.1115,41.0879,锦州市,南山,颗粒物(PM10),54,58,32,37,21,55,,25,25,11,27,12,22,0.7,0.8
2024-11-19T1300,1768A,121.0533,40.8434,锦州市,开发区,颗粒物(PM10),78,106,82,36,24,39,,17,17,30,41,11,16,0.8,0.8
2024-11-19T1300,1769A,121.1836,41.1119,锦州市,百股街道,,,,42,29,27,50,,21,21,16,40,11,65,0.8,0.9
2024-11-19T1300,1770A,121.1178,41.1222,锦州市,天安街道,,,44,37,37,22,48,,18,18,,39,14,29,,0.6
2024-11-19T1300,1771A,121.1303,41.1386,锦州市,北湖公园,细颗粒物(PM2.5),57,42,34,40,25,48,,22,22,16,34,13,46,0.7,0.7
2024-11-19T1300,2160A,112.85,35.5051,晋城市,自来水公司,,39,36,47,27,18,52,,57,51,26,23,5,5,0.7,0.6
2024-11-19T1300,2161A,112.8318,35.4936,晋城市,白云商贸,,41,41,55,22,15,51,,57,50,27,24,5,5,0.7,0.6
2024-11-19T1300,2162A,112.8508,35.4887,晋城市,市环保局,,38,38,44,24,20,52,,58,51,26,24,6,5,0.7,0.6
2024-11-19T1300,2163A,112.8676,35.4897,晋城市,技术学院,,48,48,55,17,16,53,,54,49,28,25,5,5,0.6,0.6
2024-11-19T1300,2165A,112.8453,35.546,晋城市,白马寺,,,,44,,19,,,66,,,18,,9,,0.6
2024-11-19T1300,3620A,112.8271,35.4828,晋城市,泽州一中,,42,33,40,29,17,52,,59,51,28,25,5,4,0.7,0.5
2024-11-19T1300,2171A,112.7532,37.6945,晋中市,锦纶小区,细颗粒物(PM2.5),83,78,82,61,48,48,,37,36,25,30,6,10,0.6,0.6
2024-11-19T1300,2173A,112.7249,37.7067,晋中市,南都小区,细颗粒物(PM2.5),70,68,82,51,44,45,,37,37,24,28,5,10,0.7,0.6
2024-11-19T1300,2174A,112.6991,37.6982,晋中市,榆次区政府,细颗粒物(PM2.5),78,80,79,57,42,46,,34,34,22,28,6,10,0.8,0.7
2024-11-19T1300,2865A,112.7195,37.6828,晋中市,榆次三中,细颗粒物(PM2.5),73,80,82,53,46,47,,33,33,23,29,8,13,1.1,0.9
2024-11-19T1300,2439A,112.2014,31.0481,荆门市,竹园小学,颗粒物(PM10),51,51,36,24,24,56,,52,48,15,16,10,9,0.4,0.4
2024-11-19T1300,2440A,112.1969,30.9891,荆门市,掇刀,,,43,34,22,23,57,,57,53,15,17,,5,0.4,0.4
2024-11-19T1300,2441A,112.2213,31.0386,荆门市,石化一小,,,39,38,26,26,60,,55,52,14,15,,7,0.3,0.3
2024-11-19T1300,3012A,112.1849,31.0362,荆门市,西山林语,,49,49,31,20,19,59,,57,55,13,14,4,5,0.4,0.4
2024-11-19T1300,3547A,112.1632,31.0138,荆门市,龙泉中学南校,,46,46,32,20,23,57,,56,53,15,16,7,8,0.4,0.4
2024-11-19T1300,1844A,112.2494,30.3197,荆州市,市图书馆,细颗粒物(PM2.5),53,,25,37,21,41,,45,43,18,18,4,3,0.5,0.5
2024-11-19T1300,1845A,112.2008,30.3544,荆州市,市委党校,,50,45,30,35,21,45,,49,48,19,20,4,4,0.6,0.6
2024-11-19T1300,3194A,112.2747,30.3122,荆州市,管委会,细颗粒物(PM2.5),53,44,23,37,21,43,,48,46,18,17,8,8,0.6,0.6
2024-11-19T1300,3548A,112.1655,30.3364,荆州市,学苑路,,50,44,26,35,24,44,,48,46,20,20,6,6,0.7,0.7
2024-11-19T1300,2342A,117.3102,29.3867,景德镇市,王港中学,,,,,,,,,,,,,,,,
2024-11-19T1300,2343A,117.2117,29.2933,景德镇市,老干部活动中心,,24,24,23,12,13,55,,43,43,6,8,6,6,0.2,0.2
2024-11-19T1300,2344A,117.1894,29.2789,景德镇市,兽医站,,22,22,28,6,9,55,,44,44,2,5,6,6,0.1,0.1
2024-11-19T1300,2345A,117.1547,29.2617,景德镇市,台达陶瓷,,27,27,26,10,9,56,,43,43,7,8,11,8,0.3,0.4
2024-11-19T1300,2346A,117.2461,29.2956,景德镇市,陶研所,,19,19,21,10,8,42,,42,39,6,6,9,9,0.3,0.2
2024-11-19T1300,1803A,115.9872,29.6815,九江市,十里,,38,38,35,20,14,43,,38,37,18,18,7,6,0.5,0.4
2024-11-19T1300,1804A,115.9584,29.7046,九江市,茅山头,,47,47,34,20,13,41,,36,35,17,17,9,9,0.5,0.5
2024-11-19T1300,1805A,115.9877,29.7295,九江市,西园,,42,42,32,18,13,49,,41,40,14,16,8,7,0.3,0.3
2024-11-19T1300,1806A,116.0172,29.6547,九江市,五七二七厂,,34,34,33,15,13,44,,40,38,19,19,8,9,0.7,0.5
2024-11-19T1300,1808A,115.9114,29.6038,九江市,综合工业园,,34,34,31,15,15,41,,40,36,23,19,12,9,0.2,0.2
2024-11-19T1300,1809A,116.0721,29.7535,九江市,石化总厂,,36,36,36,15,16,38,,32,32,20,19,9,8,0.6,0.5
2024-11-19T1300,1810A,115.9773,29.5698,九江市,庐山气象台,,28,20,10,19,11,36,,53,45,7,6,7,9,1.7,1.5
2024-11-19T1300,3190A,116.0254,29.6994,九江市,外国语学校,,28,28,31,10,12,40,,34,33,25,25,13,13,0.3,0.3
2024-11-19T1300,2658A,98.5061,39.7443,酒泉市,仓门街子站,颗粒物(PM10),65,80,58,26,26,75,,51,51,24,25,88,13,0.6,0.5
2024-11-19T1300,2659A,98.4989,39.7256,酒泉市,油田生活基地,颗粒物(PM10),58,66,63,23,33,80,,42,41,20,30,44,11,0.5,0.5
2024-11-19T1300,2698A,76.0072,39.4467,喀什地区,巡警大队,颗粒物(PM10),154,257,176,109,60,8,,5,5,107,60,6,4,4.0,2.1
2024-11-19T1300,2699A,75.9755,39.4694,喀什地区,吾办,颗粒物(PM10),129,207,144,92,63,12,,8,8,77,49,2,3,2.3,1.6
2024-11-19T1300,4027A,75.9483,39.4689,喀什地区,老干局,颗粒物(PM10),155,259,160,98,70,13,,5,5,80,47,6,4,2.3,1.7
2024-11-19T1300,1824A,114.3389,34.7781,开封市,肿瘤医院,,46,46,36,31,26,44,,47,36,20,21,4,3,0.4,0.4
2024-11-19T1300,1826A,114.2885,34.7965,开封市,世纪星幼儿园,,,38,35,28,27,44,,47,42,21,22,,3,0.3,0.4
2024-11-19T1300,3147A,114.3438,34.8106,开封市,龙亭公园,,45,45,32,27,26,47,,40,38,18,20,3,3,0.5,0.4
2024-11-19T1300,3210A,114.3644,34.7964,开封市,汴京公园,,,,,,,,,,,,,,,,
2024-11-19T1300,3473A,114.2485,34.8306,开封市,技师学院,,39,39,38,26,28,45,,36,33,15,21,2,3,0.5,0.5
2024-11-19T1300,3592A,114.4644,34.7556,开封市,祥符区生态环境局,,45,45,46,29,32,44,,31,31,19,23,3,3,0.2,0.3
2024-11-19T1300,1951A,84.895,45.6094,克拉玛依市,长征新村,,,,51,,24,36,,14,13,,33,6,6,,0.6
2024-11-19T1300,1952A,84.8988,45.5893,克拉玛依市,南林小区,,43,43,52,30,32,25,,10,10,26,35,4,5,0.6,1
2024-11-19T1300,1954A,84.905,44.3396,克拉玛依市,独山子区,细颗粒物(PM2.5),83,82,66,61,46,51,,28,28,19,25,9,6,0.6,0.6
2024-11-19T1300,1955A,85.6979,46.098,克拉玛依市,乌尔禾区商贸楼,细颗粒物(PM2.5),52,42,32,36,16,27,,15,15,31,31,4,4,0.7,0.7
2024-11-19T1300,3612A,85.1045,45.6899,克拉玛依市,白碱滩区新站,颗粒物(PM10),70,90,51,41,21,13,,20,11,57,35,9,8,0.8,0.5
2024-11-19T1300,2697A,76.1454,39.7142,克孜勒苏柯尔克孜自治州,市人民政府,颗粒物(PM10),96,142,86,63,40,32,,49,38,34,18,15,6,0.8,0.7
2024-11-19T1300,3665A,76.1658,39.7157,克孜勒苏柯尔克孜自治州,克州文化中心,颗粒物(PM10),85,119,84,45,36,46,,53,34,38,26,10,9,0.7,0.6
2024-11-19T1300,1450A,102.8204,24.8886,昆明市,呈贡新区,,27,13,26,9,18,84,,34,34,7,23,4,6,0.5,0.7
2024-11-19T1300,1451A,102.6251,24.9608,昆明市,西山森林公园,,,,,,,,,,,,,,,,
2024-11-19T1300,1452A,102.7252,25.0902,昆明市,龙泉镇,,25,,29,11,18,79,,27,27,12,28,7,7,0.5,0.7
2024-11-19T1300,1453A,102.7266,25.0375,昆明市,东风东路,,25,24,33,16,21,77,,27,27,13,27,9,9,0.3,0.5
2024-11-19T1300,1454A,102.6742,25.0669,昆明市,金鼎山,,26,24,34,12,18,83,,35,35,16,32,4,4,0.5,0.7
2024-11-19T1300,1455A,102.6644,25.0401,昆明市,碧鸡广场,,29,29,33,7,19,81,,32,32,13,31,7,5,0.5,0.5
2024-11-19T1300,3179A,102.7494,25.0119,昆明市,官渡区博物馆,,28,19,34,15,19,87,,33,33,8,25,9,8,0.4,0.7
2024-11-19T1300,3375A,102.8017,24.8336,昆明市,青年创业园,,28,19,26,14,16,89,,35,35,2,21,4,7,0.4,0.5
2024-11-19T1300,3550A,102.7997,24.9786,昆明市,昆明学院,,34,34,46,19,25,87,,36,36,11,26,10,9,0.4,0.6
2024-11-19T1300,3551A,102.5967,24.6736,昆明市,晋宁区生态环境分局,,26,,37,17,28,82,,44,44,8,22,2,2,0.3,0.5
2024-11-19T1300,3552A,102.6678,24.9856,昆明市,云天化总部,,30,21,27,13,18,93,,44,44,8,26,7,7,0.1,0.2
2024-11-19T1300,1456A,91.1319,29.6514,拉萨市,八廓街,,28,28,35,12,17,66,,50,50,12,32,6,7,0.2,0.6
2024-11-19T1300,1457A,91.1221,29.6747,拉萨市,市环保局,,27,27,45,11,20,79,,43,43,16,28,7,9,0.4,0.8
2024-11-19T1300,1458A,91.0874,29.6475,拉萨市,区监测站,,24,24,27,9,10,69,,42,42,14,35,5,6,0.4,0.6
2024-11-19T1300,1459A,91.1774,29.6541,拉萨市,西藏大学,,23,21,35,3,12,71,,51,51,9,25,3,4,0.6,0.7
2024-11-19T1300,1460A,90.9798,29.6588,拉萨市,区辐射站,,38,38,42,15,17,59,,46,38,25,32,8,9,0.5,0.6
2024-11-19T1300,1461A,91.0834,29.6292,拉萨市,拉萨火车站,,25,25,28,8,10,61,,41,29,25,30,5,5,0.5,0.6
2024-11-19T1300,2520A,109.2203,23.7256,来宾市,来宾技工学校,,33,33,29,12,13,83,,48,48,11,13,8,8,0.7,0.8
2024-11-19T1300,3535A,109.1781,23.7297,来宾市,兴宾区政府,,26,19,28,9,15,81,,50,50,8,11,8,8,0.7,0.7
2024-11-19T1300,4002A,109.2416,23.7461,来宾市,中南小学,,34,34,31,11,12,83,,46,46,6,10,11,11,0.7,0.8
2024-11-19T1300,1476A,103.631,36.1031,兰州市,兰炼宾馆,细颗粒物(PM2.5),59,58,62,42,44,57,,38,36,29,40,18,13,0.6,0.6
2024-11-19T1300,1477A,104.1373,35.9454,兰州市,榆中兰大校区,,,,,,,,,,,,,,,,
2024-11-19T1300,1478A,103.8412,36.0726,兰州市,生物制品所,颗粒物(PM10),55,60,55,34,37,45,,36,36,26,33,23,14,0.9,0.6
2024-11-19T1300,1479A,103.831,36.0464,兰州市,铁路设计院,细颗粒物(PM2.5),63,61,55,45,44,31,,26,23,44,46,23,13,1.0,0.7
2024-11-19T1300,3186A,103.7158,36.1058,兰州市,教育港,细颗粒物(PM2.5),55,54,60,39,41,54,,44,44,24,28,19,14,0.8,0.6
2024-11-19T1300,3241A,103.7439,36.0842,兰州市,百合公园,颗粒物(PM10),51,51,53,29,34,50,,25,25,29,42,20,11,1.0,0.8
2024-11-19T1300,3242A,103.9611,35.998,兰州市,和平,"颗粒物(PM10),细颗粒物(PM2.5)",67,84,65,48,41,40,,22,22,33,36,27,15,1.4,0.8
2024-11-19T1300,3245A,103.6633,36.533,兰州新区,新区管委会,颗粒物(PM10),63,76,63,42,37,51,,42,35,27,23,46,15,0.9,0.7
2024-11-19T1300,3246A,103.6975,36.4789,兰州新区,舟曲中学,颗粒物(PM10),53,55,55,33,36,66,,51,50,17,19,26,21,0.9,0.6
2024-11-19T1300,1067A,116.6708,39.5111,廊坊市,药材公司,细颗粒物(PM2.5),79,82,50,58,27,32,,11,11,48,42,7,5,0.7,0.6
2024-11-19T1300,1068A,116.7214,39.5589,廊坊市,开发区,颗粒物(PM10),70,90,44,48,21,23,,8,8,47,39,6,3,0.6,0.6
2024-11-19T1300,1070A,116.7244,39.5269,廊坊市,北华航天学院,颗粒物(PM10),66,82,46,46,20,31,,11,11,52,41,10,5,0.7,0.6
2024-11-19T1300,2919A,116.7022,39.5453,廊坊市,河北工业大学,细颗粒物(PM2.5),69,81,49,50,24,31,,12,12,39,33,8,6,0.6,0.6
2024-11-19T1300,2535A,103.7723,29.5462,乐山市,花湖湾,,25,25,17,17,13,29,,18,16,15,12,4,3,0.6,0.5
2024-11-19T1300,2536A,103.7627,29.5844,乐山市,牛耳桥,,26,26,19,18,15,27,,19,15,19,21,6,5,0.4,0.3
2024-11-19T1300,2537A,103.7508,29.6006,乐山市,市第三水厂,,27,27,37,16,14,35,,22,22,19,22,6,4,0.4,0.3
2024-11-19T1300,2538A,103.7571,29.5664,乐山市,市监测站,,23,22,17,16,12,29,,21,18,13,12,7,5,0.5,0.4
2024-11-19T1300,3361A,103.7311,29.5628,乐山市,理工大学,,25,24,17,17,12,34,,25,22,17,16,7,5,0.5,0.4
2024-11-19T1300,2598A,100.2143,26.8576,丽江市,西南郊,,30,24,24,18,14,93,,71,71,2,9,5,16,0.6,0.9
2024-11-19T1300,2599A,100.2497,26.8802,丽江市,丽江古城,,27,21,24,3,11,84,,67,66,7,11,9,9,0.5,0.6
2024-11-19T1300,2600A,100.2203,26.8906,丽江市,市中心,,27,16,11,8,9,86,,70,70,8,10,7,8,0.5,0.5
2024-11-19T1300,1267A,119.914,28.4514,丽水市,监测站大楼,,21,21,25,9,6,49,,45,42,11,11,4,4,0.1,0.1
2024-11-19T1300,1268A,119.93,28.4586,丽水市,莲都小学,,21,21,26,10,10,50,,43,41,10,12,4,4,0.3,0.2
2024-11-19T1300,1269A,119.879,28.4231,丽水市,余庄前,,19,19,21,10,9,48,,32,32,12,10,6,5,0.1,0.1
2024-11-19T1300,1173A,119.176,34.5885,连云港市,市环境监测站,,23,22,24,7,6,73,,63,63,12,22,7,8,0.5,0.6
2024-11-19T1300,3000A,119.3581,34.6972,连云港市,德源药业,,22,22,21,3,5,69,,63,63,23,23,7,8,0.2,0.1
2024-11-19T1300,3007A,119.178,34.844,连云港市,新城一中,,28,28,28,7,12,72,,58,58,14,27,7,12,0.6,0.8
2024-11-19T1300,3008A,119.3608,34.7519,连云港市,胡沟管理处,,22,17,17,3,4,69,,66,66,9,10,4,4,0.1,0.4
2024-11-19T1300,3009A,119.1478,34.5911,连云港市,矿山设计院,,23,22,25,3,8,73,,64,64,15,20,6,7,0.5,0.6
2024-11-19T1300,3434A,119.2413,34.6539,连云港市,工贸学校,,24,24,19,8,6,74,,67,67,12,13,7,7,0.4,0.4
2024-11-19T1300,3664A,119.4172,34.7341,连云港市,连云街道,,22,22,23,8,8,69,,63,63,8,12,6,6,0.1,0.1
2024-11-19T1300,2571A,102.3431,27.8099,凉山彝族自治州,青龙寺,,25,15,17,8,7,79,,47,46,16,21,6,4,0.7,0.6
2024-11-19T1300,2572A,102.2721,27.8415,凉山彝族自治州,邛海宾馆,,25,22,23,14,14,79,,47,47,6,15,8,10,0.5,0.6
2024-11-19T1300,2573A,102.2625,27.898,凉山彝族自治州,西昌市政府,,33,33,27,22,19,77,,42,40,13,16,13,10,0.9,0.8
2024-11-19T1300,2574A,102.2685,27.8851,凉山彝族自治州,凉山州政府,,,28,30,15,16,78,,35,35,,19,,11,0.4,0.7
2024-11-19T1300,2575A,102.237,27.8914,凉山彝族自治州,长安,,34,34,35,20,18,72,,23,23,16,23,16,11,0.6,0.5
2024-11-19T1300,2212A,123.2,41.1953,辽阳市,宏伟区,,41,41,28,16,15,49,,42,42,7,18,8,10,0.5,0.5
2024-11-19T1300,2213A,123.1683,41.2495,辽阳市,新华园,,34,34,37,20,21,43,,30,30,17,32,9,11,0.6,0.8
2024-11-19T1300,2214A,123.2354,41.2639,辽阳市,滨河路,,26,26,36,14,21,46,,40,40,16,29,10,13,0.7,0.7
2024-11-19T1300,2215A,123.149,41.2991,辽阳市,铁西工业园,,35,35,44,20,28,38,,24,24,17,30,14,14,0.6,0.6
2024-11-19T1300,2227A,125.1358,42.8845,辽源市,环保局,,21,21,41,7,21,64,,41,41,8,21,8,9,0.4,0.7
2024-11-19T1300,3239A,125.0764,42.9078,辽源市,银鹰制药,,23,23,35,9,22,62,,39,39,9,26,10,9,0.5,0.7
2024-11-19T1300,1625A,115.9848,36.4372,聊城市,区政府,颗粒物(PM10),51,52,50,27,23,64,,34,34,18,42,9,8,0.3,0.4
2024-11-19T1300,2878A,116.0072,36.4343,聊城市,聊大东校,颗粒物(PM10),59,68,64,33,30,64,,33,33,18,45,12,11,0.5,0.6
2024-11-19T1300,3200A,115.9819,36.4978,聊城市,监控中心,颗粒物(PM10),55,59,63,29,29,65,,40,40,23,58,11,11,0.5,0.6
2024-11-19T1300,3513A,116.0445,36.4361,聊城市,九州社区,,,62,55,20,22,,,16,16,,50,13,13,0.4,0.7
2024-11-19T1300,4018A,116.0567,36.4608,聊城市,星美广场,颗粒物(PM10),57,63,65,25,28,69,,36,36,19,38,8,8,0.5,0.6
2024-11-19T1300,2632A,94.3681,29.6376,林芝市,林芝监测站,,26,16,10,3,6,82,,86,74,4,3,6,7,0.4,0.4
2024-11-19T1300,2633A,94.3616,29.6616,林芝市,林芝人民医院,,26,9,8,3,6,82,,80,65,4,6,6,6,0.5,0.4
2024-11-19T1300,2603A,100.0781,23.8982,临沧市,市环保局,,33,33,22,11,16,52,,25,25,14,12,8,8,0.5,0.5
2024-11-19T1300,2604A,100.0894,23.8822,临沧市,市气象局,,,38,28,28,21,51,,23,23,13,12,8,9,,0.6
2024-11-19T1300,1733A,111.5531,36.0783,临汾市,临钢医院,,45,44,43,31,27,43,,25,21,16,19,5,3,0.9,0.5
2024-11-19T1300,1734A,111.5028,36.0714,临汾市,技工学校,,35,34,41,24,29,46,,31,22,17,23,7,5,0.9,0.5
2024-11-19T1300,1736A,111.5018,36.0855,临汾市,市委,,43,35,46,30,22,47,,35,29,15,19,7,6,0.7,0.4
2024-11-19T1300,3018A,111.505,36.1014,临汾市,唐尧大酒店,,,42,45,34,26,47,,35,33,,17,5,4,0.9,0.6
2024-11-19T1300,3668A,111.5036,36.0414,临汾市,城南,,49,49,44,27,32,40,,16,14,21,23,8,5,0.8,0.5
2024-11-19T1300,2667A,103.2069,35.5993,临夏回族自治州,环保局,,47,47,64,9,16,52,,17,17,11,24,8,6,0.6,1
2024-11-19T1300,2668A,103.2417,35.6057,临夏回族自治州,建设大厦,,32,32,50,10,19,52,,19,19,11,21,8,6,0.6,0.8
2024-11-19T1300,1618A,118.3429,35.0532,临沂市,沂河小区,,36,36,43,19,21,65,,39,39,19,27,9,8,0.5,0.4
2024-11-19T1300,1619A,118.295,35.0583,临沂市,鲁南制药厂,,31,31,35,11,27,63,,35,35,21,41,8,6,0.7,0.7
2024-11-19T1300,1620A,118.2794,34.9976,临沂市,新光毛纺厂,,36,36,34,17,15,62,,40,40,19,29,7,7,0.4,0.7
2024-11-19T1300,1621A,118.3956,35.0888,临沂市,河东保险公司,,36,36,43,15,23,72,,30,30,13,32,6,4,0.7,0.7
2024-11-19T1300,3370A,118.3564,35.0215,临沂市,十里堡居委,,24,24,34,12,18,69,,34,34,18,29,8,7,0.5,0.4
2024-11-19T1300,3496A,118.3604,35.1084,临沂市,南坊新区,,34,34,42,17,19,74,,36,36,19,37,6,6,0.5,0.5
2024-11-19T1300,3860A,118.3920,35.0300,临沂市,皇山花园小区,,31,31,47,16,21,64,,28,28,19,41,5,4,0.5,0.5
2024-11-19T1300,1870A,109.4856,24.3895,柳州市,柳东小学,,,24,20,3,11,,,45,43,5,8,9,9,0.5,0.6
2024-11-19T1300,1871A,109.4157,24.3277,柳州市,环保监测站,,,,24,,12,66,,42,41,,10,14,10,,0.7
2024-11-19T1300,1872A,109.389,24.341,柳州市,河西水厂,,39,39,29,13,14,61,,38,38,8,13,13,12,1.1,1.2
2024-11-19T1300,1873A,109.4311,24.2921,柳州市,市四中,,38,38,17,6,8,73,,49,49,9,10,11,8,0.8,0.7
2024-11-19T1300,1874A,109.4006,24.3631,柳州市,市九中,,37,37,27,13,12,64,,42,42,10,10,16,8,1.3,0.9
2024-11-19T1300,1875A,109.4958,24.3134,柳州市,古亭山,,24,12,15,9,8,74,,52,52,10,12,10,10,0.7,0.7
2024-11-19T1300,3402A,109.5422,24.3996,柳州市,市二中,,25,25,17,8,8,66,,46,46,12,13,10,10,0.5,0.5
2024-11-19T1300,2307A,116.5079,31.737,六安市,监测大楼,,21,21,26,12,11,33,,36,33,23,19,5,4,0.4,0.3
2024-11-19T1300,2308A,116.4738,31.7643,六安市,皖西学院,,35,35,27,10,10,35,,36,34,26,22,6,5,0.4,0.4
2024-11-19T1300,2309A,116.4996,31.7905,六安市,朝阳厂,,38,38,23,6,10,32,,34,32,21,17,2,2,0.4,0.4
2024-11-19T1300,2310A,116.5567,31.7886,六安市,开发区,,20,20,30,13,13,42,,39,38,19,16,4,3,0.4,0.3
2024-11-19T1300,2576A,104.8,26.5892,六盘水市,窑上,细颗粒物(PM2.5),63,61,47,45,32,12,,23,19,18,11,3,3,0.9,0.6
2024-11-19T1300,2577A,104.83,26.5917,六盘水市,黄土坡,颗粒物(PM10),57,63,36,38,18,13,,26,22,18,14,8,7,1.3,0.8
2024-11-19T1300,2578A,104.89,26.5939,六盘水市,水钢,颗粒物(PM10),55,59,42,28,27,17,,23,22,15,14,4,3,0.6,0.5
2024-11-19T1300,2579A,104.8475,26.5894,六盘水市,民中,细颗粒物(PM2.5),55,53,34,39,24,14,,26,19,18,15,8,8,0.8,0.6
2024-11-19T1300,2580A,104.9544,26.5506,六盘水市,双水,,,,37,,25,16,,21,19,17,10,6,6,,0.4
2024-11-19T1300,2335A,117.0189,25.1181,龙岩市,龙岩师专,,,,,,,,,,,,,,,,
2024-11-19T1300,2336A,117.0217,25.1033,龙岩市,龙岩市监测站,,28,,12,19,10,55,,64,57,10,9,2,3,0.5,0.4
2024-11-19T1300,2337A,117.0258,25.0661,龙岩市,闽西职业技术学院,,17,13,15,11,8,54,,67,59,7,5,3,2,0.5,0.4
2024-11-19T1300,2338A,117.0196,25.0306,龙岩市,龙岩学院,,,15,16,11,9,50,,67,56,11,8,,3,0.4,0.4
2024-11-19T1300,2665A,105.0822,33.3261,陇南市,汉王镇固水子,,,,,,,,,,,,,,,,
2024-11-19T1300,2885A,104.9339,33.3826,陇南市,滨江中学,,34,34,33,12,16,33,,30,24,15,14,7,7,0.6,0.6
2024-11-19T1300,3247A,104.955,33.371,陇南市,市总工会,,34,34,26,16,6,32,,33,26,18,12,7,3,0.6,0.5
2024-11-19T1300,2487A,111.9589,27.8901,娄底市,电视发射台,,11,8,4,3,2,33,,39,36,9,9,5,6,0.7,0.7
2024-11-19T1300,2488A,111.9975,27.725,娄底市,市监测站,,32,,10,22,6,29,,35,32,14,12,5,4,0.4,0.5
2024-11-19T1300,2489A,112.0194,27.7314,娄底市,市委党校,,19,16,9,13,6,29,,36,32,20,19,4,4,0.5,0.5
2024-11-19T1300,2490A,111.9561,27.7569,娄底市,涟钢,,25,24,11,17,6,30,,34,28,16,16,1,2,1.0,0.9
2024-11-19T1300,2491A,111.9892,27.7044,娄底市,市政府,,23,,8,16,5,30,,35,32,15,15,7,6,0.5,0.4
2024-11-19T1300,1893A,105.4324,28.9634,泸州市,九狮山,,16,,15,11,10,23,,12,12,14,16,5,5,0.5,0.4
2024-11-19T1300,1894A,105.4427,28.9063,泸州市,小市上码头,,21,21,19,10,12,33,,23,22,14,16,3,3,0.4,0.4
2024-11-19T1300,1895A,105.4241,28.8573,泸州市,兰田宪桥,,22,22,19,15,14,31,,24,22,12,16,3,3,0.4,0.4
2024-11-19T1300,1896A,105.4379,28.8833,泸州市,市环监站,,22,19,19,15,13,31,,22,22,13,17,4,5,0.4,0.4
2024-11-19T1300,3490A,105.3617,28.7703,泸州市,纳溪区环保局,,28,,20,19,15,27,,22,20,14,15,4,4,0.4,0.5
2024-11-19T1300,2183A,111.1406,37.5211,吕梁市,环保局,,38,35,51,26,29,35,,25,23,22,30,2,4,0.4,0.4
2024-11-19T1300,2185A,111.1297,37.5136,吕梁市,自来水公司,,46,46,51,26,28,35,,39,35,22,23,3,3,0.5,0.5
2024-11-19T1300,2867A,111.1283,37.51,吕梁市,马茂庄小学,,,52,55,32,29,,,19,14,,39,,5,,0.5
2024-11-19T1300,1812A,112.3931,34.6516,洛阳市,市委党校,,42,41,51,29,38,60,,35,35,14,27,9,3,0.4,0.6
2024-11-19T1300,1814A,112.4657,34.6871,洛阳市,豫西宾馆,,46,46,48,28,31,61,,40,40,13,22,9,2,0.4,0.4
2024-11-19T1300,1815A,112.494,34.6886,洛阳市,河南林校,,34,34,40,23,30,58,,38,38,14,24,6,2,0.4,0.5
2024-11-19T1300,1816A,112.3844,34.623,洛阳市,开发区管委会,,,,52,,36,65,,33,33,,27,4,5,0.2,0.3
2024-11-19T1300,1817A,112.4267,34.6258,洛阳市,市委新办公区,,49,41,52,34,36,57,,34,34,17,26,12,2,0.3,0.3
2024-11-19T1300,3340A,112.6005,34.6326,洛阳市,伊滨,,36,36,54,19,31,57,,34,34,6,18,4,3,0.3,0.4
2024-11-19T1300,3341A,112.4951,34.6332,洛阳市,中移产业园,,39,34,42,27,35,61,,39,39,18,29,12,3,0.4,0.5
2024-11-19T1300,3593A,112.5736,34.8993,洛阳市,吉利监测站,,43,38,39,30,30,60,,30,30,8,21,4,2,0.2,0.2
2024-11-19T1300,3635A,112.3677,34.662,洛阳市,河科大西苑校区,,46,39,48,32,37,59,,32,32,8,26,8,2,0.4,0.4
2024-11-19T1300,3636A,112.4388,34.6781,洛阳市,英才小学,,43,40,52,30,31,56,,30,30,16,27,10,2,0.4,0.5
2024-11-19T1300,2399A,114.051,33.5699,漯河市,三五一五工厂,,,39,25,25,19,52,,52,44,14,15,6,5,,0.5
2024-11-19T1300,2400A,114.0055,33.5698,漯河市,漯河大学,颗粒物(PM10),53,56,37,24,18,50,,54,45,18,17,6,4,0.3,0.3
2024-11-19T1300,2401A,114.0138,33.5828,漯河市,市水利局,,,,25,24,17,48,,48,41,11,12,6,5,,0.7
2024-11-19T1300,2402A,114.0261,33.5698,漯河市,市广电局,,39,39,23,27,20,52,,53,45,16,16,6,5,0.4,0.4
2024-11-19T1300,3478A,113.9749,33.5664,漯河市,市图书馆,,44,44,28,17,14,50,,48,42,15,16,4,3,0.5,0.4
2024-11-19T1300,3479A,114.0967,33.5906,漯河市,召陵区卫健委,,42,42,30,22,17,52,,46,41,10,12,9,8,0.5,0.5
2024-11-19T1300,1798A,118.5092,31.6837,马鞍山市,湖东路四小,,28,28,27,9,9,64,,56,56,10,10,4,4,0.5,0.5
2024-11-19T1300,1799A,118.5024,31.6449,马鞍山市,开发区,,33,33,32,10,9,57,,50,50,25,23,7,7,0.6,0.5
2024-11-19T1300,1800A,118.5228,31.7231,马鞍山市,慈湖,,19,17,19,10,11,58,,56,56,20,15,7,7,0.7,0.7
2024-11-19T1300,1802A,118.6245,31.7241,马鞍山市,濮塘,,22,22,26,8,9,66,,58,58,16,15,8,8,0.5,0.5
2024-11-19T1300,3633A,118.4918,31.6809,马鞍山市,雨山,,30,30,29,11,10,63,,54,54,13,13,5,5,0.6,0.6
2024-11-19T1300,1686A,111.0286,21.4688,茂名市,电白南海,,29,29,36,17,18,53,,54,50,17,17,6,8,0.7,0.7
2024-11-19T1300,1687A,110.9294,21.6533,茂名市,茂石化七小,,,39,32,14,20,59,,56,51,12,14,8,16,,0.8
2024-11-19T1300,1688A,110.9107,21.6687,茂名市,健康路,,24,24,27,7,15,68,,57,57,7,10,10,18,0.6,0.6
2024-11-19T1300,1689A,110.8592,21.6828,茂名市,高岭,,24,24,37,9,19,64,,50,50,12,16,11,22,0.6,0.9
2024-11-19T1300,3450A,111.01,21.5165,茂名市,电白水东,,32,31,31,22,19,53,,52,50,11,12,9,10,0.7,0.7
2024-11-19T1300,2539A,104.0308,30.0478,眉山市,黑龙滩水库,,30,30,23,20,19,26,,24,19,10,6,1,2,0.3,0.2
2024-11-19T1300,2540A,103.8416,30.0874,眉山市,气象局,,,37,27,17,14,20,,17,17,21,19,5,7,,0.5
2024-11-19T1300,3137A,103.8578,30.0744,眉山市,市委党校,,22,22,15,9,7,22,,22,22,22,20,4,3,0.5,0.4
2024-11-19T1300,3148A,103.8291,30.0564,眉山市,区人社局,,20,20,19,14,7,23,,22,22,27,25,2,2,0.4,0.4
2024-11-19T1300,1690A,116.1231,24.3284,梅州市,梅江月梅,,16,16,24,10,13,46,,26,26,9,28,7,9,0.5,0.6
2024-11-19T1300,1691A,116.0797,24.2719,梅州市,梅县新城,,13,12,19,9,7,39,,35,35,12,11,5,6,0.5,0.6
2024-11-19T1300,1692A,116.1248,24.2654,梅州市,环境监控中心,,,13,21,6,6,34,,29,29,,18,5,6,0.4,0.4
2024-11-19T1300,3315A,116.1233,24.2991,梅州市,梅龙,,18,12,22,12,15,41,,27,27,13,26,6,6,0.5,0.6
2024-11-19T1300,1878A,104.7778,31.4741,绵阳市,富乐山,,14,11,4,3,4,42,,38,35,11,10,1,2,0.5,0.5
2024-11-19T1300,1879A,104.7563,31.4535,绵阳市,市人大,,18,18,7,7,4,38,,40,33,18,14,3,3,0.3,0.3
2024-11-19T1300,1880A,104.6697,31.4668,绵阳市,高新区自来水公司,,14,12,9,9,4,42,,39,37,13,14,3,2,0.4,0.4
2024-11-19T1300,1881A,104.7287,31.5075,绵阳市,三水厂,,15,15,12,3,4,43,,41,39,11,12,6,5,0.5,0.5
2024-11-19T1300,3491A,104.69,31.5322,绵阳市,西科大附属小学,,16,16,10,6,6,42,,37,36,9,11,5,4,0.6,0.5
2024-11-19T1300,3492A,104.5648,31.5343,绵阳市,安州区旅游局,,14,10,8,7,9,43,,28,27,8,10,3,5,0.4,0.4
2024-11-19T1300,1784A,129.61,44.561,牡丹江市,环保大楼,,21,21,36,8,20,54,,31,31,10,17,6,7,0.3,0.3
2024-11-19T1300,1785A,129.6115,44.5782,牡丹江市,文化广场,,28,28,38,16,25,50,,31,31,12,19,8,9,0.3,0.4
2024-11-19T1300,1786A,129.5904,44.5963,牡丹江市,第一医院,,23,23,36,6,31,57,,36,36,10,16,5,6,0.4,0.4
2024-11-19T1300,1787A,129.6364,44.6075,牡丹江市,机车工厂,,26,25,34,18,25,49,,30,30,13,18,8,9,0.4,0.4
2024-11-19T1300,1788A,129.6386,44.5462,牡丹江市,第一中学,,29,,32,20,23,58,,36,36,9,15,5,5,0.3,0.3
2024-11-19T1300,2531A,105.0703,29.61,内江市,市监测站,,25,22,17,17,14,30,,29,24,9,8,6,5,0.6,0.6
2024-11-19T1300,2532A,105.0717,29.5947,内江市,东兴区政府,,10,8,14,7,6,31,,32,27,10,11,5,5,0.4,0.4
2024-11-19T1300,2533A,105.0653,29.5817,内江市,内江二中,,19,,16,13,10,28,,30,23,19,17,6,6,0.5,0.4
2024-11-19T1300,2534A,105.0406,29.5822,内江市,内江日报社,,,16,21,10,9,23,,26,20,12,14,9,4,,0.5
2024-11-19T1300,2628A,92.0657,31.4846,那曲市,那曲监测站,,49,49,63,30,34,82,,40,40,20,24,10,10,0.6,1.3
2024-11-19T1300,3128A,92.0506,31.4797,那曲市,那曲会议中心,,,59,73,23,31,,,24,20,15,20,,6,1.2,1.3
2024-11-19T1300,1290A,115.8931,28.6843,南昌市,省外办,,43,43,42,27,22,50,,36,36,25,25,7,6,0.4,0.4
2024-11-19T1300,1291A,115.8886,28.7003,南昌市,省林业公司,,39,39,39,17,17,52,,35,35,14,16,8,7,0.4,0.5
2024-11-19T1300,1292A,115.8126,28.7442,南昌市,林科所,,,95,36,,14,48,,35,34,,19,,5,,0.3
2024-11-19T1300,1294A,115.8518,28.687,南昌市,建工学校,,43,43,46,12,18,51,,34,34,11,18,7,6,0.5,0.5
2024-11-19T1300,1295A,115.8921,28.6424,南昌市,象湖,,35,35,40,24,19,53,,38,38,21,25,8,7,0.6,0.5
2024-11-19T1300,1296A,115.7423,28.7996,南昌市,武术学校,,39,39,36,12,9,32,,25,25,17,14,1,1,0.4,0.5
2024-11-19T1300,1298A,115.9314,28.6842,南昌市,省站,颗粒物(PM10),58,65,60,20,20,48,,35,35,20,23,8,7,0.7,0.6
2024-11-19T1300,3046A,115.9084,28.6062,南昌市,机电学校,颗粒物(PM10),52,54,48,22,17,49,,34,34,21,26,9,8,0.7,0.6
2024-11-19T1300,3690A,115.9721,28.7031,南昌市,外国语学校,,47,47,45,26,17,45,,36,36,18,21,8,7,0.6,0.5
2024-11-19T1300,1905A,106.056,30.8064,南充市,西山风景区,,10,,5,7,8,24,,24,19,6,6,1,1,0.8,0.8
2024-11-19T1300,1906A,106.0789,30.8023,南充市,南充市委,,15,15,7,8,5,23,,25,20,12,12,5,3,0.4,0.3
2024-11-19T1300,1907A,106.1031,30.8217,南充市,南充炼油厂,,15,15,22,3,9,26,,25,19,9,12,2,3,0.4,0.4
2024-11-19T1300,1908A,106.1064,30.7856,南充市,高坪区监测站,,21,21,12,11,8,20,,26,21,14,12,2,2,0.3,0.2
2024-11-19T1300,1909A,106.0642,30.7636,南充市,嘉陵区环保局,,27,27,13,7,6,18,,23,16,14,11,3,2,0.4,0.2
2024-11-19T1300,1910A,106.1087,30.8388,南充市,市环境监测站,,19,13,12,13,11,27,,24,21,6,7,3,4,0.2,0.2
2024-11-19T1300,1151A,118.8086,32.1065,南京市,迈皋桥,,19,19,21,7,7,58,,52,52,16,16,3,4,0.5,0.5
2024-11-19T1300,1152A,118.7538,32.0551,南京市,草场门,,29,29,25,7,8,54,,49,49,28,27,4,4,0.3,0.2
2024-11-19T1300,1153A,118.7794,32.0745,南京市,山西路,,31,31,28,12,10,64,,61,61,13,7,4,4,0.1,0.1
2024-11-19T1300,1154A,118.7752,32.0023,南京市,中华门,,22,22,25,7,8,55,,47,47,23,25,3,3,0.3,0.3
2024-11-19T1300,1155A,118.8109,32.0309,南京市,瑞金路,,24,24,26,7,9,51,,47,47,13,10,7,6,0.6,0.6
2024-11-19T1300,1156A,118.7997,32.0754,南京市,玄武湖,,,28,29,3,2,,,39,39,26,31,6,6,0.5,0.4
2024-11-19T1300,1157A,118.6414,32.0931,南京市,浦口,,24,24,30,8,10,45,,45,45,24,18,7,6,0.3,0.2
2024-11-19T1300,1158A,118.7356,31.9996,南京市,奥体中心,,25,25,30,3,9,60,,52,52,23,23,7,7,0.2,0.2
2024-11-19T1300,1159A,118.9125,32.1028,南京市,仙林大学城,,29,29,27,3,6,56,,53,53,21,17,6,5,0.4,0.3
2024-11-19T1300,3422A,118.8436,31.9198,南京市,江宁彩虹桥,,31,31,30,9,8,60,,48,48,16,15,4,4,0.7,0.6
2024-11-19T1300,3423A,119.0138,31.6494,南京市,溧水永阳,,22,22,25,8,11,59,,52,52,16,14,4,3,0.3,0.2
2024-11-19T1300,3424A,118.879,31.3302,南京市,高淳老职中,,,27,27,,13,40,,46,45,21,17,,4,0.3,0.2
2024-11-19T1300,3427A,118.8554,32.3578,南京市,六合雄州,,22,22,23,3,5,56,,48,46,6,4,8,7,0.7,0.7
2024-11-19T1300,1401A,108.3103,22.7881,南宁市,二十一中,,33,33,32,15,17,105,,61,61,16,21,4,6,0.9,0.9
2024-11-19T1300,1402A,108.3141,22.8528,南宁市,北湖,,37,37,35,19,20,91,,58,58,10,17,6,8,0.8,0.7
2024-11-19T1300,1403A,108.3206,22.8225,南宁市,市监测站,,44,44,34,17,20,92,,56,56,12,18,8,11,0.7,0.7
2024-11-19T1300,1404A,108.3829,22.8037,南宁市,大自然花园,,,34,29,16,26,91,,60,60,,16,9,9,0.5,0.6
2024-11-19T1300,1405A,108.4394,22.7904,南宁市,仙葫,,25,22,27,6,16,78,,52,52,10,13,6,8,0.6,0.7
2024-11-19T1300,1406A,108.2397,22.8467,南宁市,区农职院,,30,16,39,11,19,93,,52,52,7,22,6,13,0.6,0.8
2024-11-19T1300,1407A,108.3275,22.735,南宁市,英华嘉园,,40,40,34,19,18,96,,56,56,16,21,7,9,0.7,0.7
2024-11-19T1300,1408A,108.2257,22.7757,南宁市,沙井镇街道办,,34,34,46,18,24,93,,49,49,12,31,6,8,0.5,0.7
2024-11-19T1300,3401A,108.4834,22.7618,南宁市,红星社区,,,,29,10,18,81,,58,57,8,13,7,10,0.7,0.8
2024-11-19T1300,2331A,118.0966,26.6761,南平市,茫荡山,,,,,,,,,,,,,,,,
2024-11-19T1300,2332A,118.1681,26.6369,南平市,南平市监测站,,19,10,6,7,4,60,,46,46,5,8,3,3,0.2,0.3
2024-11-19T1300,2333A,118.1825,26.6489,南平市,南平铝业有限公司,,19,8,8,3,3,58,,45,45,5,8,3,3,0.2,0.3
2024-11-19T1300,2334A,118.1756,26.6272,南平市,南平七中,,,15,10,3,5,61,,47,47,3,7,5,6,,0.6
2024-11-19T1300,1168A,120.9098,31.9663,南通市,狼山街道,,25,10,24,3,6,78,,70,70,6,9,7,7,0.3,0.4
2024-11-19T1300,1169A,120.86,32.0005,南通市,虹桥,,23,19,26,3,9,72,,65,65,10,14,5,5,0.3,0.3
2024-11-19T1300,1170A,120.87,32.02,南通市,城中,,24,18,28,3,7,75,,67,67,11,16,6,6,0.3,0.3
2024-11-19T1300,1171A,120.94,31.93,南通市,星湖花园,,23,16,22,3,7,72,,65,65,10,12,4,4,0.4,0.4
2024-11-19T1300,1172A,120.81,32.0417,南通市,紫琅学院,,23,12,24,3,5,72,,61,61,10,17,4,3,0.3,0.3
2024-11-19T1300,3291A,121.067,32.062,南通市,通州监测站,,25,14,24,7,6,78,,72,72,10,10,2,1,0.2,0.3
2024-11-19T1300,3432A,120.9348,31.9883,南通市,环境教育馆,,26,14,25,3,7,81,,69,69,5,10,3,3,0.3,0.3
2024-11-19T1300,2404A,112.5224,33.0122,南阳市,瓦房庄,,42,39,33,29,29,60,,62,60,13,13,4,3,0.6,0.5
2024-11-19T1300,2405A,112.5003,32.9735,南阳市,汉画馆,,36,36,32,23,26,61,,63,60,11,12,4,4,0.5,0.4
2024-11-19T1300,2406A,112.5573,33.027,南阳市,气象站,,35,35,34,22,21,63,,62,61,14,16,4,4,0.6,0.5
2024-11-19T1300,2407A,112.5481,32.9689,南阳市,理工学院,,43,30,31,30,26,59,,60,57,13,13,4,4,0.3,0.4
2024-11-19T1300,4008A,112.5234,32.9922,南阳市,卧龙区政府,,,43,36,30,28,56,,61,56,,17,4,4,0.4,0.5
2024-11-19T1300,1234A,121.8358,29.911,宁波市,区环保大楼,,23,22,26,6,8,73,,68,68,10,12,6,6,0.5,0.5
2024-11-19T1300,1235A,121.56,29.82,宁波市,万里学院,,,22,26,,8,73,,66,66,16,16,,6,0.4,0.4
2024-11-19T1300,1236A,121.713,29.9572,宁波市,龙赛医院,,28,28,31,3,7,82,,72,72,10,12,9,9,0.4,0.4
2024-11-19T1300,1239A,121.633,29.7733,宁波市,钱湖水厂,,25,22,27,7,9,80,,67,67,8,10,6,6,0.5,0.5
2024-11-19T1300,1240A,121.5856,29.8635,宁波市,太古小学,,25,22,29,3,6,78,,69,69,12,11,8,8,0.5,0.5
2024-11-19T1300,1241A,121.524,29.8674,宁波市,市环境监测中心,,26,16,23,3,5,83,,70,70,12,14,7,6,0.4,0.5
2024-11-19T1300,2871A,121.6147,29.9017,宁波市,万里国际学校,,,15,19,7,8,76,,69,69,17,19,,7,0.4,0.4
2024-11-19T1300,3710A,121.5594,29.8975,宁波市,白沙活动中心,,26,19,21,7,7,81,,71,71,11,12,9,9,0.3,0.3
2024-11-19T1300,2339A,119.5001,26.6946,宁德市,金涵水库,,,,,,,,,,,,,,,,
2024-11-19T1300,2341A,119.5388,26.6612,宁德市,宁德市监测站,,17,17,16,11,10,44,,51,47,14,13,2,3,0.5,0.4
2024-11-19T1300,3209A,119.5231,26.6562,宁德市,宁德一中,,18,10,17,8,8,55,,57,56,8,11,1,2,0.3,0.3
2024-11-19T1300,2618A,98.8601,25.8567,怒江傈僳族自治州,州监测站,,21,21,27,9,16,66,,48,48,4,10,5,6,0.4,0.4
2024-11-19T1300,2619A,98.8546,25.8417,怒江傈僳族自治州,泸水一中,,24,24,24,15,14,56,,26,26,8,16,6,6,0.4,0.5
2024-11-19T1300,1888A,101.6891,26.571,攀枝花市,弄弄坪,,46,46,48,30,29,47,,19,19,45,34,31,23,2.5,1.8
2024-11-19T1300,1889A,101.5769,26.5928,攀枝花市,河门口,,21,21,36,12,26,67,,30,30,18,23,8,12,0.5,1.1
2024-11-19T1300,1890A,101.7169,26.585,攀枝花市,炳草岗,,46,46,69,20,41,59,,18,18,33,41,16,15,1.4,1.4
2024-11-19T1300,1891A,101.7369,26.5008,攀枝花市,仁和,,36,36,42,22,26,81,,26,26,29,27,27,15,2.3,1.4
2024-11-19T1300,2835A,101.7227,26.567,攀枝花市,四十中小,颗粒物(PM10),58,65,53,35,36,59,,20,20,33,43,15,10,1.7,1.6
2024-11-19T1300,1604A,122.0303,41.1489,盘锦市,开发区,,37,37,28,20,18,53,,31,31,21,22,9,9,0.5,0.5
2024-11-19T1300,1605A,122.0485,41.0883,盘锦市,兴隆台,,,51,31,25,18,50,,28,28,,29,18,6,0.6,0.7
2024-11-19T1300,1606A,121.8297,41.1028,盘锦市,新生街道,,49,39,27,34,17,58,,31,31,24,33,11,10,0.7,0.7
2024-11-19T1300,1832A,113.3257,33.742,平顶山市,新华旅馆,,46,34,47,32,37,55,,52,49,9,15,6,6,0.6,0.6
2024-11-19T1300,1833A,113.2919,33.737,平顶山市,规划设计院,,36,36,36,24,23,62,,60,57,11,14,6,5,0.4,0.4
2024-11-19T1300,1834A,113.182,33.774,平顶山市,平顶山工学院,,30,30,32,19,21,59,,48,48,6,12,6,5,0.6,0.5
2024-11-19T1300,3204A,113.3025,33.73,平顶山市,规划局,,44,44,35,24,25,57,,57,52,15,17,7,6,0.5,0.4
2024-11-19T1300,3594A,112.8867,33.9116,平顶山市,石龙区,,44,44,36,23,25,54,,40,40,10,12,10,8,0.7,0.5
2024-11-19T1300,2656A,106.6692,35.5461,平凉市,聚贤嘉苑,,47,47,32,26,21,44,,26,26,20,25,10,9,0.6,0.6
2024-11-19T1300,2657A,106.7021,35.5307,平凉市,博物馆,,41,41,33,19,19,49,,39,34,6,9,3,8,0.3,0.3
2024-11-19T1300,2347A,114.0997,27.5002,萍乡市,武功山,,29,29,23,7,6,44,,40,40,6,7,8,9,0.2,0.2
2024-11-19T1300,2348A,113.8385,27.6434,萍乡市,中医院,,44,44,32,22,17,52,,39,39,10,10,14,15,0.5,0.5
2024-11-19T1300,2349A,113.8493,27.6253,萍乡市,市政府车库,,40,40,28,15,14,53,,42,40,11,11,15,12,0.4,0.5
2024-11-19T1300,2350A,113.8676,27.6435,萍乡市,市环保局,,35,35,26,14,14,54,,40,40,6,7,16,13,0.4,0.4
2024-11-19T1300,2351A,113.866,27.6198,萍乡市,安源区政府,,40,40,28,17,13,52,,39,39,11,13,14,15,0.5,1.3
2024-11-19T1300,2319A,119.0141,25.4325,莆田市,荔城区仓后路,,20,20,16,3,4,60,,64,59,9,7,1,1,0.3,0.3
2024-11-19T1300,2320A,119.0015,25.4553,莆田市,莆田市监测站,,20,9,13,3,4,64,,66,64,6,5,2,2,0.4,0.3
2024-11-19T1300,2321A,119.1119,25.4561,莆田市,涵江区六中,,22,11,15,3,3,68,,68,67,7,6,2,2,0.3,0.3
2024-11-19T1300,2322A,119.1013,25.3215,莆田市,秀屿区政府,,21,21,22,3,6,58,,62,59,11,7,2,2,0.3,0.3
2024-11-19T1300,2323A,118.981,25.4792,莆田市,东圳水库,,,,,,,,,,,,,,,,
2024-11-19T1300,2392A,115.0312,35.7636,濮阳市,环保局,颗粒物(PM10),60,69,47,26,27,58,,34,34,11,22,4,7,0.4,0.4
2024-11-19T1300,2394A,115.0574,35.7609,濮阳市,油田运输公司,,42,42,55,25,29,60,,33,33,12,29,2,6,0.2,0.2
2024-11-19T1300,2395A,115.0866,35.7754,濮阳市,油田物探公司,,44,44,58,26,33,59,,35,35,9,28,4,8,0.2,0.3
2024-11-19T1300,3021A,115,35.7668,濮阳市,濮水河管理处,颗粒物(PM10),52,53,57,28,28,56,,27,27,8,27,4,5,0.4,0.4
2024-11-19T1300,2601A,100.98,22.7633,普洱市,市环保局,,36,36,35,18,26,89,,46,46,6,11,6,5,0.4,0.5
2024-11-19T1300,2602A,100.9817,22.8322,普洱市,普洱第二中学,,,36,38,12,18,,,19,,6,17,,8,0.3,0.4
2024-11-19T1300,2262A,131.0518,45.8751,七台河市,新一中,,24,21,27,10,17,74,,50,50,10,12,16,11,1.2,1.1
2024-11-19T1300,3345A,131.0577,45.7879,七台河市,中波台,,35,35,33,16,15,52,,47,47,19,17,13,11,0.7,0.7
2024-11-19T1300,3637A,131.0176,45.7761,七台河市,人民广场,,43,39,37,30,21,61,,49,49,15,16,8,8,0.8,0.8
2024-11-19T1300,3684A,130.8781,45.8222,七台河市,新建矿广场,,22,22,26,12,23,62,,47,47,14,15,5,6,0.5,0.5
2024-11-19T1300,1779A,123.9305,47.3636,齐齐哈尔市,安居小区,,46,46,38,15,11,44,,45,40,14,14,8,6,0.3,0.3
2024-11-19T1300,1780A,123.9488,47.3386,齐齐哈尔市,中心广场,,47,47,31,19,11,37,,39,33,17,14,5,3,0.4,0.4
2024-11-19T1300,1781A,123.9483,47.3227,齐齐哈尔市,农牧车辆厂,,46,46,36,14,11,42,,41,37,14,14,6,5,0.3,0.3
2024-11-19T1300,1783A,123.945,47.2988,齐齐哈尔市,市环境监测站,,,43,33,18,11,44,,44,40,,11,4,3,0.2,0.4
2024-11-19T1300,3662A,123.6333,47.2075,齐齐哈尔市,富区青少年活动中心,,36,36,34,15,10,44,,41,39,9,7,6,5,0.4,0.3
2024-11-19T1300,2591A,107.9783,26.5747,黔东南苗族侗族自治州,市环境监测站,,10,10,10,6,7,30,,34,30,13,12,4,4,0.3,0.3
2024-11-19T1300,2881A,107.8908,26.5311,黔东南苗族侗族自治州,凯里学院,,9,,4,6,6,28,,31,27,6,7,4,4,0.3,0.3
2024-11-19T1300,2593A,107.5228,26.2403,黔南布依族苗族自治州,小围寨,,10,6,3,3,3,31,,28,28,4,6,3,4,0.7,0.6
2024-11-19T1300,3538A,107.5175,26.2978,黔南布依族苗族自治州,沙坝,,12,6,7,3,1,38,,36,36,6,9,4,4,0.5,0.5
2024-11-19T1300,2589A,104.9022,25.0925,黔西南布依族苗族自治州,场坝街,细颗粒物(PM2.5),52,39,39,36,27,54,,77,69,12,6,5,4,0.5,0.4
2024-11-19T1300,2590A,104.8811,25.0992,黔西南布依族苗族自治州,坪东大道,,50,41,36,35,32,56,,74,64,11,7,4,2,0.4,0.3
2024-11-19T1300,2502A,108.6236,21.9667,钦州市,市环保站,,36,36,47,12,18,85,,61,59,12,17,8,9,0.8,0.9
2024-11-19T1300,2503A,108.6549,21.9481,钦州市,沙埠小学,,37,37,45,9,17,87,,61,61,12,19,6,7,0.7,0.9
2024-11-19T1300,2504A,108.5989,21.7431,钦州市,港区一小,颗粒物(PM10),53,56,59,14,22,87,,56,56,14,20,8,9,0.6,0.7
2024-11-19T1300,3404A,108.5959,21.9633,钦州市,北职校,,27,26,41,15,23,84,,59,59,10,15,9,9,0.9,1
2024-11-19T1300,1042A,119.5134,39.8207,秦皇岛市,北戴河环保局,,40,40,26,19,13,59,,49,49,18,26,3,2,0.6,0.5
2024-11-19T1300,1043A,119.7493,40.0116,秦皇岛市,第一关,细颗粒物(PM2.5),59,55,35,42,24,53,,27,27,25,42,14,7,1.0,0.5
2024-11-19T1300,1044A,119.5897,39.9499,秦皇岛市,监测站,颗粒物(PM10),51,52,38,32,24,50,,33,33,20,28,20,8,1.5,0.7
2024-11-19T1300,1046A,119.5251,39.9041,秦皇岛市,建设大厦,颗粒物(PM10),56,61,48,22,27,47,,31,31,30,36,18,6,1.6,0.7
2024-11-19T1300,3132A,119.610547,39.943889,秦皇岛市,文明里,颗粒物(PM10),68,85,40,33,22,48,,34,34,33,34,18,6,1.5,0.6
2024-11-19T1300,1307A,120.6659,36.2403,青岛市,仰口,,,,17,,14,,,62,62,5,5,7,7,,0.4
2024-11-19T1300,1310A,120.4134,36.0658,青岛市,市南区东部子站,,39,39,28,17,8,63,,49,46,21,18,11,9,0.6,0.6
2024-11-19T1300,1311A,120.3664,36.1032,青岛市,四方区子站,,24,24,24,12,10,74,,47,44,15,23,9,9,0.4,0.4
2024-11-19T1300,1312A,120.2994,36.054,青岛市,市南区西部子站,,22,22,24,10,6,66,,47,47,14,20,10,10,0.4,0.5
2024-11-19T1300,1313A,120.4581,36.0858,青岛市,崂山区子站,,44,44,19,9,4,61,,54,45,26,18,10,9,0.6,0.6
2024-11-19T1300,1314A,120.1983,35.9608,青岛市,黄岛区子站,,,46,27,15,10,,,20,19,,44,8,9,0.7,0.6
2024-11-19T1300,1315A,120.3999,36.3083,青岛市,城阳区子站,颗粒物(PM10),51,51,28,20,11,61,,47,44,26,17,10,9,0.6,0.6
2024-11-19T1300,1966A,120.0405,35.8735,青岛市,黄岛区4号,,29,29,31,7,8,69,,41,41,19,29,9,9,0.4,0.4
2024-11-19T1300,3362A,120.5014,36.4034,青岛市,即墨2号,,33,33,26,16,11,65,,46,46,15,14,8,8,0.4,0.5
2024-11-19T1300,3642A,120.3503,36.0736,青岛市,市北区南部,颗粒物(PM10),51,52,26,9,6,66,,47,47,22,23,9,9,0.5,0.5
2024-11-19T1300,3643A,120.3948,36.1805,青岛市,李沧区北部,,36,36,28,19,14,60,,46,35,25,23,10,10,0.6,0.6
2024-11-19T1300,1702A,113.0426,23.691,清远市,环保大楼,,19,8,10,7,9,59,,44,44,8,10,5,5,0.5,0.6
2024-11-19T1300,1703A,113.0208,23.7106,清远市,凤城街办,,18,12,13,7,8,55,,41,40,8,8,9,9,0.7,0.7
2024-11-19T1300,3025A,113.0477,23.6344,清远市,技师学院,,18,12,16,6,8,57,,39,37,8,11,9,8,0.4,0.6
2024-11-19T1300,3318A,112.9903,23.7403,清远市,清新太和,,19,8,10,6,6,60,,46,45,5,5,5,4,0.7,0.7
2024-11-19T1300,3455A,113.076,23.7198,清远市,清城东城,,18,8,13,3,8,55,,39,39,6,6,6,6,0.8,0.8
2024-11-19T1300,2661A,107.6325,35.7357,庆阳市,庆阳五中,,29,23,19,20,18,32,,34,29,21,25,7,8,0.3,0.3
2024-11-19T1300,2662A,107.6364,35.7067,庆阳市,市环保局,,34,34,26,20,16,32,,38,30,8,7,4,4,0.6,0.5
2024-11-19T1300,1916A,103.7897,25.5035,曲靖市,环境监测站,,27,18,35,8,19,84,,52,52,6,16,4,8,0.5,0.6
2024-11-19T1300,1917A,103.8,25.5364,曲靖市,烟厂办公区,,27,17,38,12,24,85,,47,47,6,23,4,8,0.3,0.5
2024-11-19T1300,3376A,103.7947,25.462,曲靖市,南苑二区,,28,,32,19,21,88,,56,56,3,9,4,8,0.5,0.6
2024-11-19T1300,3377A,103.7444,25.5261,曲靖市,曲靖师范学院,,29,18,37,12,26,91,,48,48,8,22,8,15,0.4,0.6
2024-11-19T1300,1264A,118.8692,28.9398,衢州市,环保大楼,,47,47,38,22,14,41,,34,34,23,21,4,4,0.4,0.4
2024-11-19T1300,1265A,118.8709,28.9666,衢州市,实验学校,,42,42,36,21,13,40,,34,32,21,20,5,4,0.5,0.4
2024-11-19T1300,1266A,118.8621,28.9808,衢州市,衢州学院,,43,43,37,21,14,49,,41,41,18,18,8,8,0.4,0.4
2024-11-19T1300,1611A,118.5819,24.9117,泉州市,涂山街,,20,20,16,12,7,60,,66,60,8,6,1,3,0.4,0.3
2024-11-19T1300,1612A,118.5972,24.8978,泉州市,津头埔,,19,17,18,11,9,60,,65,60,9,7,1,2,0.4,0.3
2024-11-19T1300,1613A,118.6663,24.9424,泉州市,万安,,20,20,22,10,8,61,,64,58,8,7,1,1,0.4,0.4
2024-11-19T1300,1614A,118.6117,24.9604,泉州市,清源山,,,,,,,,,,,,,,,,
2024-11-19T1300,3529A,118.6333,24.9264,泉州市,城华南路,,20,15,17,3,7,62,,65,61,4,4,3,1,0.2,0.2
2024-11-19T1300,2626A,88.8876,29.2718,日喀则市,日喀则监测站,,25,16,28,6,10,77,,48,42,8,21,4,4,0.5,0.6
2024-11-19T1300,3726A,88.8781,29.2426,日喀则市,林业技术推广中心,,22,19,26,3,5,70,,63,44,6,7,7,6,0.5,0.5
2024-11-19T1300,1659A,119.471,35.4209,日照市,监测站,,24,24,30,11,14,61,,35,35,19,29,5,6,0.3,0.3
2024-11-19T1300,1660A,119.523,35.4216,日照市,市政府广场,,24,24,28,13,12,68,,40,40,6,19,4,5,0.4,0.5
2024-11-19T1300,1661A,119.5587,35.4044,日照市,港务局,,,39,30,12,14,58,,44,44,21,29,4,9,,0.6
2024-11-19T1300,3507A,119.5328,35.4625,日照市,职业技术学院,,22,22,27,9,10,70,,42,42,14,25,5,5,0.3,0.3
2024-11-19T1300,3604A,119.3266,35.1044,日照市,岚山环保分局,,29,29,44,10,17,70,,47,47,14,33,6,23,0.2,2.2
2024-11-19T1300,1835A,111.1922,34.7752,三门峡市,市政府,,36,,24,25,27,49,,41,41,13,20,2,2,0.3,0.3
2024-11-19T1300,1836A,111.1587,34.7942,三门峡市,开发区,,35,32,47,24,33,46,,39,39,13,19,2,2,0.3,0.3
2024-11-19T1300,1838A,111.143,34.7955,三门峡市,风景区,,33,,26,23,29,47,,40,40,16,20,8,8,0.4,0.5
2024-11-19T1300,3039A,111.1911,34.7829,三门峡市,三门峡市第一小学,,35,,24,24,29,48,,40,40,8,14,4,3,0.5,0.5
2024-11-19T1300,3598A,111.1,34.7167,三门峡市,富达温泉假日酒店,,39,29,30,27,24,41,,38,34,19,21,1,3,0.6,0.6
2024-11-19T1300,2324A,117.6211,26.2625,三明市,三钢,,17,17,11,9,10,51,,43,40,10,11,3,4,0.3,0.3
2024-11-19T1300,2325A,117.635,26.2714,三明市,三明二中,,19,19,12,6,6,50,,40,39,10,12,2,4,0.3,0.3
2024-11-19T1300,2326A,117.6028,26.2378,三明市,三元区政府,,16,13,13,6,4,49,,42,40,10,12,3,4,0.4,0.5
2024-11-19T1300,2327A,117.7275,26.3108,三明市,洋溪,,,,,,,,,,,,,,,,
2024-11-19T1300,1876A,109.5078,18.2489,三亚市,河东子站,,24,18,24,9,13,76,,90,75,7,5,2,2,0.6,0.5
2024-11-19T1300,1877A,109.4964,18.2681,三亚市,河西子站,,,,22,,12,68,,85,67,8,7,,4,0.6,0.4
2024-11-19T1300,3540A,109.7348,18.3443,三亚市,君悦子站,,36,36,36,14,14,70,,92,73,7,6,2,2,0.6,0.5
2024-11-19T1300,2624A,91.7608,29.2313,山南市,山南监测站,,22,22,21,10,7,67,,55,50,9,9,6,5,0.4,0.4
2024-11-19T1300,2625A,91.7706,29.2436,山南市,山南人民医院,,,27,31,3,14,62,,59,53,10,10,,5,0.5,0.5
2024-11-19T1300,1674A,116.6794,23.3667,汕头市,金平子站,,22,15,20,9,7,68,,64,60,10,13,8,7,0.4,0.4
2024-11-19T1300,1675A,116.7244,23.3633,汕头市,龙湖子站,,31,31,20,7,7,58,,60,55,14,12,9,8,0.6,0.5
2024-11-19T1300,1676A,116.7258,23.2775,汕头市,濠江子站,,24,24,18,11,6,74,,69,65,8,8,3,4,0.5,0.4
2024-11-19T1300,1677A,116.7519,23.4714,汕头市,澄海子站,,20,14,19,7,7,63,,61,60,8,10,8,9,0.6,0.6
2024-11-19T1300,1678A,116.6092,23.2539,汕头市,潮阳子站,,21,20,21,8,6,66,,65,61,7,6,7,6,0.6,0.6
2024-11-19T1300,3444A,116.454,23.2684,汕头市,潮南峡山,,18,18,19,3,4,56,,60,53,11,12,7,7,0.5,0.5
2024-11-19T1300,3624A,116.4069,23.2533,汕头市,潮南子站,,,,24,,10,51,,56,49,,14,,7,0.6,0.5
2024-11-19T1300,1693A,115.3653,22.775,汕尾市,市环保局,,9,9,22,3,18,21,,33,20,10,11,7,7,0.8,0.8
2024-11-19T1300,1694A,115.3706,22.7898,汕尾市,市政府,,10,6,22,3,9,30,,39,28,9,12,7,8,0.6,0.6
2024-11-19T1300,1695A,115.3622,22.7925,汕尾市,新城中学,,10,9,23,3,16,32,,37,30,8,11,6,6,0.7,0.7
2024-11-19T1300,2645A,109.9154,33.8715,商洛市,监测站,,26,24,19,18,16,53,,49,46,10,20,4,4,0.8,0.9
2024-11-19T1300,3045A,109.9643,33.8471,商洛市,商州区中学,,37,37,22,22,16,60,,45,45,21,25,8,7,0.9,0.9
2024-11-19T1300,2408A,115.6702,34.4285,商丘市,环境监测站,,30,30,33,13,16,58,,33,31,16,25,6,5,0.3,0.2
2024-11-19T1300,2409A,115.6458,34.4045,商丘市,粮食局,,28,24,29,19,20,59,,40,37,17,22,1,2,0.7,0.6
2024-11-19T1300,2410A,115.6293,34.3948,商丘市,睢阳区环保局,,38,38,35,15,16,55,,37,35,16,22,8,7,0.4,0.4
2024-11-19T1300,3171A,115.6071,34.4465,商丘市,梁园区档案局,,34,34,32,7,16,62,,39,38,13,22,5,5,0.2,0.3
2024-11-19T1300,1141A,121.4,31.238,上海市,普陀,,25,25,27,3,4,69,,66,66,14,14,4,4,0.4,0.4
2024-11-19T1300,1142A,121.478,31.2036,上海市,十五厂,,33,33,29,8,8,70,,68,68,19,18,8,8,0.4,0.4
2024-11-19T1300,1143A,121.467,31.3008,上海市,虹口,,24,23,12,9,9,74,,67,67,16,19,9,8,0.5,0.5
2024-11-19T1300,1144A,121.412,31.1654,上海市,徐汇上师大,,29,29,26,9,11,70,,69,68,21,20,8,9,0.5,0.5
2024-11-19T1300,1145A,121.536,31.2659,上海市,杨浦四漂,,28,28,28,7,6,72,,67,67,12,12,9,8,0.5,0.5
2024-11-19T1300,1147A,121.425,31.2261,上海市,静安监测站,,26,26,26,6,6,70,,66,66,18,18,7,7,0.3,0.3
2024-11-19T1300,1148A,121.703,31.1907,上海市,浦东川沙,,26,26,29,6,7,77,,70,69,14,16,6,5,0.4,0.4
2024-11-19T1300,1149A,121.533,31.2284,上海市,浦东新区监测站,,25,25,25,6,6,66,,64,64,20,18,8,7,0.4,0.4
2024-11-19T1300,1150A,121.577,31.2071,上海市,浦东张江,,23,23,25,14,8,72,,72,72,18,19,5,5,0.3,0.3
2024-11-19T1300,3265A,121.4316,31.3322,上海市,宝山庙行,,26,26,29,6,6,73,,65,65,12,16,10,10,0.3,0.3
2024-11-19T1300,3266A,121.8791,31.4662,上海市,崇明上实东滩,,25,9,21,3,8,80,,71,71,5,6,8,9,0.5,0.5
2024-11-19T1300,3268A,121.3162,31.2838,上海市,嘉定南翔,,27,27,27,7,9,67,,60,60,16,18,8,8,0.7,0.6
2024-11-19T1300,3269A,121.3359,30.7456,上海市,金山新城,,23,23,26,8,9,69,,63,63,15,15,4,4,0.3,0.3
2024-11-19T1300,3270A,121.4996,31.0739,上海市,闵行浦江,,30,30,28,3,7,71,,68,68,17,16,6,6,0.5,0.5
2024-11-19T1300,3271A,121.2886,31.1663,上海市,青浦徐泾,,23,23,24,6,7,71,,66,66,17,20,7,7,0.5,0.4
2024-11-19T1300,3272A,121.2186,31.0378,上海市,松江图书馆,,27,27,27,3,7,72,,68,68,18,17,6,6,0.4,0.4
2024-11-19T1300,3273A,121.3902,31.2059,上海市,长宁仙霞,,28,28,28,6,7,74,,72,72,17,16,8,7,0.2,0.3
2024-11-19T1300,3274A,121.7965,31.0507,上海市,浦东惠南,,25,20,25,3,6,80,,74,74,11,12,6,6,0.5,0.5
