timepoint,stationcode,longitude,latitude,area,positionname,primarypollutant,aqi,pm10,pm10_24h,pm2_5,pm2_5_24h,o3,o3_24h,o3_8h,o3_8h_24h,no2,no2_24h,so2,so2_24h,co,co_24h
2025-05-26T0000,2566A,102.1879,31.914,阿坝藏族羌族自治州,州农科所,,26,26,18,13,9,59,,105,80,7,8,11,12,0.7,0.7
2025-05-26T0000,2568A,102.2502,31.8896,阿坝藏族羌族自治州,马师校,,40,38,22,28,15,44,,105,72,18,10,5,5,0.5,0.5
2025-05-26T0000,3994A,102.2165,31.9024,阿坝藏族羌族自治州,马尔康中学西区,,32,29,19,22,16,54,,106,81,9,7,5,5,0.5,0.5
2025-05-26T0000,2695A,80.292,41.1694,阿克苏地区,电视台,颗粒物(PM10),75,99,88,48,34,93,,102,98,16,14,7,8,0.5,0.4
2025-05-26T0000,2696A,80.2613,41.1551,阿克苏地区,艺术中心,颗粒物(PM10),76,101,98,48,32,86,,106,99,15,8,4,4,0.7,0.6
2025-05-26T0000,2204A,105.6467,38.8363,阿拉善盟,西城区西花园,,40,,28,25,28,127,,154,139,9,10,6,6,1.0,0.9
2025-05-26T0000,2205A,105.6985,38.8411,阿拉善盟,蒙二幼,,35,31,35,20,18,110,,137,123,8,8,9,9,0.5,0.5
2025-05-26T0000,2206A,105.724,38.8516,阿拉善盟,环保局新楼,,38,30,28,20,18,121,,135,128,4,5,9,9,0.8,0.7
2025-05-26T0000,2708A,88.1264,47.8517,阿勒泰地区,市站,,40,40,26,8,5,90,,121,110,4,6,2,2,0.2,0.3
2025-05-26T0000,2630A,80.1161,32.5,阿里地区,阿里监测站,,38,38,20,15,9,110,,116,116,3,8,2,5,0.3,0.4
2025-05-26T0000,3192A,80.0903,32.5028,阿里地区,阿里藏医院,,38,26,24,11,7,121,,127,127,2,2,6,6,0.4,0.4
2025-05-26T0000,2642A,109.0318,32.6537,安康市,香溪洞,,43,,52,30,37,107,,143,116,5,7,8,9,0.6,0.6
2025-05-26T0000,2644A,109.0072,32.6975,安康市,汉滨区检察院,颗粒物(PM10),52,54,55,27,32,93,,146,102,8,10,9,13,0.6,0.6
2025-05-26T0000,4054A,109.0325,32.6913,安康市,市邮政管理局,,50,50,55,26,33,90,,144,103,7,10,8,16,0.6,0.5
2025-05-26T0000,2291A,117.0809,30.5177,安庆市,环科院,细颗粒物(PM2.5),102,77,59,76,46,40,,178,124,78,21,4,4,0.9,0.7
2025-05-26T0000,2292A,117.0331,30.5119,安庆市,马山宾馆,细颗粒物(PM2.5),102,,56,76,50,22,,177,118,99,23,6,5,0.8,0.7
2025-05-26T0000,2294A,116.9896,30.6145,安庆市,安庆大学,细颗粒物(PM2.5),70,67,53,51,42,80,,166,128,25,15,3,3,0.5,0.4
2025-05-26T0000,3173A,117.0598,30.5351,安庆市,市人大,细颗粒物(PM2.5),87,75,61,64,49,78,,191,149,52,18,11,9,0.7,0.6
2025-05-26T0000,3122A,105.9606,26.2611,安顺市,伍家关,,,,32,,23,,,89,70,,8,,3,,0.4
2025-05-26T0000,3123A,105.9408,26.2431,安顺市,凤凰山,,48,35,38,33,26,64,,102,77,10,7,12,7,0.5,0.5
2025-05-26T0000,3124A,105.9439,26.2564,安顺市,金钟山,,48,33,42,33,28,57,,93,70,9,6,11,6,0.3,0.3
2025-05-26T0000,3125A,105.8983,26.2481,安顺市,娄家坡,,32,25,35,22,26,64,,95,73,6,6,9,8,0.5,0.5
2025-05-26T0000,1818A,114.4839,36.0621,安阳市,棉研所,,,,,,,,,,,,,,,,
2025-05-26T0000,1819A,114.3551,36.1017,安阳市,红庙街,颗粒物(PM10),64,77,69,43,34,50,,144,98,25,16,4,6,0.7,0.6
2025-05-26T0000,1820A,114.361,36.0681,安阳市,银杏小区,细颗粒物(PM2.5),74,83,64,54,34,39,,139,93,39,23,3,7,0.5,0.5
2025-05-26T0000,3141A,114.3922,36.0878,安阳市,信访局,颗粒物(PM10),72,93,68,43,30,49,,150,105,37,19,4,7,0.7,0.6
2025-05-26T0000,3669A,114.4705,36.0637,安阳市,左辅环卫站,细颗粒物(PM2.5),78,96,81,57,40,65,,139,100,26,26,2,4,0.8,0.7
2025-05-26T0000,3703A,114.2917,36.0949,安阳市,安钢职工学校,细颗粒物(PM2.5),77,80,71,56,36,46,,135,91,27,20,6,7,0.7,0.5
2025-05-26T0000,1748A,123.044,41.1196,鞍山市,深沟寺,,32,32,37,21,22,43,,128,95,37,22,8,10,0.8,0.8
2025-05-26T0000,1749A,123.011,41.0931,鞍山市,太阳城,,23,23,35,11,22,71,,127,106,20,19,8,11,0.6,0.6
2025-05-26T0000,1750A,123.0485,41.1442,鞍山市,太平,,40,40,51,15,24,62,,125,91,29,27,10,12,0.9,1
2025-05-26T0000,1751A,122.9642,41.0971,鞍山市,铁西三道街,,46,46,51,20,26,46,,123,78,42,35,4,8,0.7,0.7
2025-05-26T0000,1753A,123.022,41.0821,鞍山市,明达新区,,32,32,40,13,23,56,,120,92,24,19,7,9,0.5,0.6
2025-05-26T0000,1754A,123.1289,41.0228,鞍山市,千山,,,,28,,15,,,112,,,15,,6,,0.5
2025-05-26T0000,4201A,122.9446,41.0826,鞍山市,兴盛南路290号,颗粒物(PM10),57,63,55,20,24,36,,122,73,58,38,6,11,0.5,0.7
2025-05-26T0000,2195A,107.4212,40.761,巴彦淖尔市,附二中,颗粒物(PM10),67,84,50,33,33,115,,155,142,8,14,6,8,0.5,0.5
2025-05-26T0000,2196A,107.37,40.7372,巴彦淖尔市,市环保大楼,颗粒物(PM10),60,69,50,38,38,117,,161,151,17,17,6,7,0.3,0.3
2025-05-26T0000,1956A,86.1472,41.7538,巴音郭楞蒙古自治州,孔雀公园,颗粒物(PM10),76,102,84,37,24,100,,107,96,8,7,7,8,0.2,0.2
2025-05-26T0000,1957A,86.1972,41.7166,巴音郭楞蒙古自治州,棉纺厂,颗粒物(PM10),85,119,104,32,20,69,,110,95,39,13,3,5,0.2,0.2
2025-05-26T0000,1958A,86.2357,41.7173,巴音郭楞蒙古自治州,经济开发区,颗粒物(PM10),78,105,76,18,16,90,,105,95,6,6,7,9,0.1,0.1
2025-05-26T0000,2914A,106.7677,31.8794,巴中市,苏山坪,,49,49,49,33,30,100,,125,114,14,8,4,5,0.4,0.3
2025-05-26T0000,3181A,106.7768,31.8526,巴中市,市五中,"颗粒物(PM10),细颗粒物(PM2.5)",55,60,58,39,28,66,,130,107,18,14,7,7,0.6,0.5
2025-05-26T0000,3183A,106.7418,31.8654,巴中市,圣泉水务公司,颗粒物(PM10),53,56,52,35,28,43,,132,100,44,16,5,5,0.6,0.5
2025-05-26T0000,3616A,106.7616,31.8344,巴中市,市中心医院,颗粒物(PM10),58,65,53,35,30,47,,124,98,31,14,6,6,0.7,0.6
2025-05-26T0000,2235A,122.7911,45.6077,白城市,洮北区环保局,,38,38,30,19,14,80,,103,89,11,20,3,4,0.3,0.3
2025-05-26T0000,2236A,122.8738,45.5725,白城市,市环保局,,38,36,27,26,14,76,,104,89,11,13,10,9,0.4,0.4
2025-05-26T0000,2231A,126.4219,41.9171,白山市,喜丰,颗粒物(PM10),53,56,35,20,17,3,,104,59,60,21,6,7,0.6,0.6
2025-05-26T0000,2232A,126.4077,41.9419,白山市,环保局,,34,34,36,11,14,45,,93,76,13,14,1,6,0.4,0.6
2025-05-26T0000,2647A,104.1724,36.5446,白银市,第三小学,颗粒物(PM10),60,70,32,19,20,92,,135,121,25,13,81,40,1.4,1
2025-05-26T0000,2648A,104.1465,36.5482,白银市,动力公司,颗粒物(PM10),52,54,29,14,17,75,,138,119,21,14,14,23,0.5,0.5
2025-05-26T0000,2512A,106.6103,23.9011,百色市,市监测站,,35,35,39,21,22,49,,92,66,13,14,5,7,0.9,0.8
2025-05-26T0000,2513A,106.6538,23.8859,百色市,市中心血站,,49,49,46,30,30,52,,92,70,21,18,13,11,0.8,0.7
2025-05-26T0000,3406A,106.6085,23.8798,百色市,祈福高中,,25,22,42,17,22,52,,88,74,15,14,4,6,0.5,0.5
2025-05-26T0000,2270A,117.396,32.939,蚌埠市,工人疗养院,细颗粒物(PM2.5),87,107,72,64,36,131,,193,169,27,22,44,8,0.8,0.5
2025-05-26T0000,2271A,117.3605,32.9427,蚌埠市,百货大楼,细颗粒物(PM2.5),118,128,76,89,42,128,,199,173,27,23,13,11,0.8,0.4
2025-05-26T0000,2273A,117.4185,32.8911,蚌埠市,蚌埠学院,细颗粒物(PM2.5),89,90,74,66,46,134,,198,169,22,24,5,5,0.5,0.5
2025-05-26T0000,2274A,117.3533,32.9673,蚌埠市,淮上区政府,细颗粒物(PM2.5),115,136,76,87,45,128,,200,175,30,29,10,9,0.8,0.4
2025-05-26T0000,2275A,117.3145,32.8977,蚌埠市,高新区,细颗粒物(PM2.5),137,158,80,104,50,84,,189,147,51,33,12,9,0.7,0.5
2025-05-26T0000,3715A,117.3092,32.9314,蚌埠市,蚌埠田家炳中学,细颗粒物(PM2.5),117,151,75,88,43,92,,193,156,32,15,11,8,0.6,0.4
2025-05-26T0000,1585A,109.8756,40.6532,包头市,市环境监测站,,49,49,52,19,34,56,,140,99,39,33,9,16,1.2,1.4
2025-05-26T0000,1587A,109.9991,40.5842,包头市,包头八中,,44,44,50,21,34,60,,127,96,35,32,10,15,0.7,1
2025-05-26T0000,1588A,109.8538,40.6821,包头市,青山宾馆,,47,47,51,19,36,45,,140,94,49,33,10,16,0.7,1.1
2025-05-26T0000,1589A,109.8642,40.6288,包头市,惠龙物流,,39,39,55,23,36,56,,143,104,41,36,8,16,0.5,0.9
2025-05-26T0000,1590A,110.0377,40.5546,包头市,东河鸿龙湾,,39,39,54,7,21,40,,124,88,43,31,9,9,0.6,0.8
2025-05-26T0000,3283A,109.9154,40.5685,包头市,滨河大厦,,38,38,47,13,29,60,,137,101,38,37,9,12,0.6,0.9
2025-05-26T0000,3419A,109.9447,40.6261,包头市,包头市委党校,,33,33,46,3,27,55,,134,98,36,29,9,15,0.4,0.8
2025-05-26T0000,3683A,109.8331,40.6576,包头市,昆区政府,,44,44,53,22,38,54,,147,103,48,33,8,19,0.7,1.1
2025-05-26T0000,1930A,107.185,34.3063,宝鸡市,庙沟村,,36,17,29,14,24,114,,164,142,14,10,7,7,0.6,0.6
2025-05-26T0000,1931A,107.0708,34.3017,宝鸡市,竹园沟,,23,22,30,15,24,73,,157,124,15,10,4,4,0.4,0.5
2025-05-26T0000,1932A,107.1906,34.3672,宝鸡市,三陆医院,,29,26,35,20,25,86,,157,138,36,15,7,7,0.4,0.4
2025-05-26T0000,1933A,107.1431,34.3547,宝鸡市,监测站,,31,31,35,18,27,43,,155,123,48,14,6,6,0.3,0.3
2025-05-26T0000,1934A,107.1186,34.3739,宝鸡市,技工学校,,37,37,36,23,28,90,,159,137,16,9,6,6,0.6,0.6
2025-05-26T0000,1935A,107.3906,34.3528,宝鸡市,陈仓区环保局家属楼,,38,34,37,26,24,90,,153,133,21,11,5,5,0.6,0.6
2025-05-26T0000,1936A,107.2058,34.3497,宝鸡市,文理学院,,33,33,33,12,24,77,,158,137,22,11,7,8,0.5,0.5
2025-05-26T0000,1937A,107.2386,34.3622,宝鸡市,三迪小学,,40,30,40,28,29,106,,155,137,18,12,8,8,0.4,0.4
2025-05-26T0000,1051A,115.493,38.8632,保定市,游泳馆,细颗粒物(PM2.5),79,87,70,58,37,112,,170,149,27,27,6,5,0.5,0.4
2025-05-26T0000,1052A,115.5213,38.8959,保定市,华电二区,细颗粒物(PM2.5),65,76,54,47,34,112,,174,147,22,16,6,4,0.6,0.4
2025-05-26T0000,1053A,115.4713,38.9108,保定市,接待中心,细颗粒物(PM2.5),74,83,61,54,33,97,,168,141,40,21,4,2,0.6,0.4
2025-05-26T0000,1054A,115.4612,38.8416,保定市,地表水厂,颗粒物(PM10),67,83,79,45,29,113,,171,150,25,28,6,5,0.5,0.4
2025-05-26T0000,3581A,115.31981,38.95208,保定市,满城区生态环境分局,颗粒物(PM10),59,68,64,29,27,64,,175,138,34,22,1,3,0.1,0.1
2025-05-26T0000,3582A,115.47694,38.76408,保定市,清苑区第二中学,颗粒物(PM10),78,106,77,56,36,104,,169,149,30,23,6,6,0.6,0.5
2025-05-26T0000,3583A,115.62909,39.02311,保定市,徐水物探局,颗粒物(PM10),79,108,67,46,25,110,,156,134,23,19,3,2,0.5,0.3
2025-05-26T0000,4004A,115.4202,38.8656,保定市,双鹰农机,细颗粒物(PM2.5),62,70,56,44,29,113,,176,152,21,21,5,4,0.5,0.3
2025-05-26T0000,4034A,115.5150,38.8590,保定市,植保所站,颗粒物(PM10),71,91,67,47,35,108,,169,145,24,19,6,5,0.6,0.4
2025-05-26T0000,2594A,99.1678,25.1081,保山市,市环境监测站,,16,14,10,6,12,50,,73,69,6,8,8,8,0.4,0.5
2025-05-26T0000,2595A,99.1711,25.1328,保山市,市环保局,,30,14,12,10,10,96,,85,85,3,6,7,7,0.4,0.5
2025-05-26T0000,1866A,109.2262,21.588,北海市,牛尾岭水库,,,,18,,11,,,69,69,,9,,6,,0.7
2025-05-26T0000,1867A,109.1436,21.4086,北海市,海滩公园,,26,22,22,15,11,83,,79,79,7,8,5,5,0.6,0.6
2025-05-26T0000,1868A,109.0981,21.4661,北海市,新市环保局,,32,25,20,19,14,100,,97,97,8,8,3,4,0.7,0.7
2025-05-26T0000,1869A,109.1778,21.5233,北海市,北海工业园,,30,24,20,20,15,96,,92,92,8,9,8,9,0.8,0.8
2025-05-26T0000,3400A,109.1911,21.4415,北海市,龙潭自来水厂,,35,25,20,24,16,90,,89,89,10,9,4,4,0.5,0.5
2025-05-26T0000,1001A,116.3621,39.8784,北京市,万寿西宫,颗粒物(PM10),56,62,64,35,30,110,,186,164,29,32,5,7,0.6,0.6
2025-05-26T0000,1002A,116.2202,40.2915,北京市,定陵,,,,,,,,,,,,,,,,
2025-05-26T0000,1003A,116.4174,39.9289,北京市,东四,颗粒物(PM10),57,64,66,33,29,108,,181,160,22,25,5,7,0.5,0.5
2025-05-26T0000,1004A,116.4072,39.8863,北京市,天坛,,49,49,58,31,28,65,,180,148,18,25,2,6,0.5,0.6
2025-05-26T0000,1005A,116.462,39.9365,北京市,农展馆,颗粒物(PM10),53,55,60,32,29,86,,164,142,29,28,4,7,0.7,0.6
2025-05-26T0000,1006A,116.3392,39.9295,北京市,官园,颗粒物(PM10),54,57,62,35,32,116,,172,158,22,28,8,9,0.4,0.4
2025-05-26T0000,1007A,116.2878,39.9611,北京市,海淀万柳,颗粒物(PM10),54,58,71,32,30,93,,171,150,33,32,4,5,0.5,0.5
2025-05-26T0000,1008A,116.6636,40.135,北京市,顺义新城,颗粒物(PM10),57,64,57,37,31,79,,157,132,22,24,5,7,0.6,0.5
2025-05-26T0000,1009A,116.6275,40.3275,北京市,怀柔镇,颗粒物(PM10),57,63,47,38,28,97,,164,140,16,17,3,4,0.8,0.6
2025-05-26T0000,1010A,116.2296,40.217,北京市,昌平镇,颗粒物(PM10),54,57,46,37,26,105,,160,127,19,24,5,5,0.9,0.7
2025-05-26T0000,1011A,116.3966,39.9821,北京市,奥体中心,,50,50,52,30,28,100,,154,140,27,30,4,6,0.7,0.7
2025-05-26T0000,3281A,115.9718,40.4529,北京市,延庆夏都,,,,45,,31,,,164,,,23,,5,,0.6
2025-05-26T0000,3418A,116.8336,40.4095,北京市,密云新城,颗粒物(PM10),58,66,50,34,26,87,,154,135,12,12,1,3,0.6,0.4
2025-05-26T0000,3671A,116.088,39.9726,北京市,门头沟三家店,,36,36,56,17,25,60,,180,127,28,23,2,3,0.4,0.4
2025-05-26T0000,3672A,116.1541,39.8204,北京市,丰台云岗,颗粒物(PM10),59,68,68,32,30,96,,174,150,31,28,6,6,0.5,0.4
2025-05-26T0000,3673A,116.6804,39.9081,北京市,通州东关,颗粒物(PM10),60,69,69,38,32,101,,172,146,38,33,4,6,0.8,0.8
2025-05-26T0000,3674A,115.9577,39.7603,北京市,房山燕山,"颗粒物(PM10),细颗粒物(PM2.5)",60,69,50,43,32,110,,155,137,15,16,2,4,0.7,0.6
2025-05-26T0000,3675A,116.4672,39.7733,北京市,大兴旧宫,颗粒物(PM10),53,55,62,30,30,83,,174,150,17,24,2,4,0.7,0.7
2025-05-26T0000,3694A,115.986,40.4563,北京市,延庆石河营,,50,50,46,29,28,82,,159,142,20,19,2,2,0.6,0.5
2025-05-26T0000,3695A,116.6151,40.3053,北京市,怀柔新城,颗粒物(PM10),57,63,50,38,29,99,,159,133,14,13,2,3,0.7,0.6
2025-05-26T0000,3696A,116.2545,39.8768,北京市,丰台小屯,颗粒物(PM10),54,58,63,31,29,70,,166,144,46,38,3,4,0.4,0.5
2025-05-26T0000,3697A,116.84,40.3844,北京市,密云镇,颗粒物(PM10),64,77,48,39,27,91,,160,145,23,18,7,8,0.6,0.5
2025-05-26T0000,4182A,116.1942,39.9158,北京市,八角北路9号,颗粒物(PM10),62,73,71,37,32,74,,166,143,41,31,4,5,0.5,0.4
2025-05-26T0000,4194A,117.0790,40.1518,北京市,洳河巡河路,颗粒物(PM10),61,72,55,40,29,100,,154,136,10,9,5,6,0.7,0.6
2025-05-26T0000,1761A,123.8275,41.3064,本溪市,大峪,,25,25,34,9,18,44,,112,84,28,18,6,7,0.5,0.6
2025-05-26T0000,1762A,123.7567,41.3325,本溪市,溪湖,颗粒物(PM10),59,68,64,19,24,46,,114,79,28,25,5,6,0.6,0.8
2025-05-26T0000,1763A,123.7169,41.3094,本溪市,彩屯,,38,38,42,21,25,47,,113,79,28,25,9,12,0.6,0.7
2025-05-26T0000,1764A,123.7669,41.2864,本溪市,东明,,43,43,49,18,23,37,,114,81,40,28,6,8,0.8,1
2025-05-26T0000,1765A,123.7992,41.2664,本溪市,新立屯,,19,15,37,9,23,59,,110,75,37,29,5,8,0.5,1.1
2025-05-26T0000,1766A,123.8142,41.3472,本溪市,威宁,,46,46,54,11,21,40,,110,71,33,27,5,5,0.4,0.5
2025-05-26T0000,2587A,105.2864,27.3125,毕节市,八中,细颗粒物(PM2.5),63,56,41,45,30,14,,63,45,18,12,5,6,0.8,0.6
2025-05-26T0000,2588A,105.31,27.2944,毕节市,师专,细颗粒物(PM2.5),54,50,37,38,27,22,,64,49,23,15,5,5,0.5,0.4
2025-05-26T0000,4263A,105.3688,27.3598,毕节市,工业大道,细颗粒物(PM2.5),55,51,34,39,24,10,,72,49,27,13,7,6,0.7,0.6
2025-05-26T0000,1629A,118.0018,37.3617,滨州市,第二水厂,颗粒物(PM10),62,73,54,36,22,97,,166,133,28,22,17,10,0.5,0.2
2025-05-26T0000,1630A,117.9776,37.393,滨州市,北中新校,颗粒物(PM10),52,53,40,34,22,83,,152,115,29,21,7,12,0.7,0.7
2025-05-26T0000,3514A,117.9378,37.3956,滨州市,中海酒店,"颗粒物(PM10),细颗粒物(PM2.5)",52,53,49,36,27,89,,166,121,32,22,11,10,0.7,0.6
2025-05-26T0000,3515A,117.9378,37.3553,滨州市,开发区一中,颗粒物(PM10),63,75,55,39,24,64,,152,106,50,36,7,6,0.7,0.5
2025-05-26T0000,3516A,118.0917,37.694,滨州市,金海六路,颗粒物(PM10),62,73,47,29,17,25,,159,88,97,37,8,9,0.3,0.2
2025-05-26T0000,4028A,117.9956,37.3753,滨州市,滨州市西街道办事处,细颗粒物(PM2.5),62,58,44,44,28,57,,173,119,34,20,8,7,0.8,0.4
2025-05-26T0000,2311A,115.8072,33.8399,亳州市,污水处理厂,,48,48,53,30,30,132,,164,147,8,11,2,5,0.3,0.4
2025-05-26T0000,2312A,115.7789,33.8518,亳州市,三国揽胜宫,,46,43,56,32,34,121,,160,148,12,13,3,6,0.5,0.5
2025-05-26T0000,3332A,115.7633,33.8034,亳州市,亳州学院,,45,45,50,30,32,125,,165,148,11,12,2,4,0.4,0.4
2025-05-26T0000,2693A,82.0485,44.8556,博尔塔拉蒙古自治州,市党校,,31,31,22,12,10,73,,119,111,24,9,3,3,0.4,0.4
2025-05-26T0000,2694A,82.0806,44.8969,博尔塔拉蒙古自治州,市环保局,,40,40,26,15,11,70,,113,102,26,11,3,3,0.6,0.4
2025-05-26T0000,1071A,116.8842,38.2991,沧州市,沧县城建局,颗粒物(PM10),65,80,49,46,23,84,,148,112,49,23,2,3,0.5,0.3
2025-05-26T0000,1072A,116.8584,38.3254,沧州市,电视转播站,颗粒物(PM10),73,96,49,46,26,56,,147,109,49,19,2,3,0.5,0.3
2025-05-26T0000,1073A,116.8709,38.3228,沧州市,市环保局,颗粒物(PM10),80,109,63,53,29,65,,144,108,45,17,2,2,0.5,0.4
2025-05-26T0000,3324A,116.8136,38.3004,沧州市,河北水利电力学院,"颗粒物(PM10),细颗粒物(PM2.5)",63,75,46,45,23,97,,158,124,43,22,6,6,0.6,0.3
2025-05-26T0000,2622A,97.1806,31.1273,昌都市,昌都监测站,,33,32,21,23,14,34,,112,74,31,10,4,3,0.4,0.3
2025-05-26T0000,3719A,97.1714,31.1406,昌都市,昌都会议中心,,26,26,24,15,13,69,,114,95,9,6,3,3,0.2,0.2
2025-05-26T0000,2690A,88.1236,43.8886,昌吉回族自治州,天山天池,,26,26,23,7,8,49,,108,82,5,6,7,6,0.6,0.6
2025-05-26T0000,2692A,87.2717,44.0297,昌吉回族自治州,新区政务中心,,46,46,22,11,8,17,,131,107,61,8,9,9,0.9,0.5
2025-05-26T0000,3613A,87.3095,44.0142,昌吉回族自治州,亚心广场,颗粒物(PM10),56,61,28,19,6,36,,134,108,63,15,8,9,0.8,0.4
2025-05-26T0000,1119A,125.3325,43.9166,长春市,食品厂,颗粒物(PM10),51,52,37,19,15,82,,103,72,18,36,5,5,0.3,0.3
2025-05-26T0000,1120A,125.2863,43.9027,长春市,客车厂,,44,44,38,18,15,82,,105,73,17,32,5,5,0.3,0.3
2025-05-26T0000,1121A,125.2841,43.8463,长春市,邮电学院,,46,46,28,14,14,91,,112,87,9,22,6,6,0.2,0.2
2025-05-26T0000,1122A,125.3716,43.8772,长春市,劳动公园,,42,42,33,10,13,83,,108,85,11,21,6,7,0.3,0.4
2025-05-26T0000,1123A,125.3297,43.8805,长春市,园林处,,45,45,33,12,11,88,,110,85,12,21,6,7,0.3,0.3
2025-05-26T0000,1124A,125.4605,43.79,长春市,净月潭,,31,31,23,11,11,88,,112,84,8,15,6,6,0.3,0.3
2025-05-26T0000,1125A,125.7194,43.515,长春市,甩湾子,,,,,,,,,,,,,,,,
2025-05-26T0000,1126A,125.3863,43.8447,长春市,经开区环卫处,,49,49,39,9,11,84,,110,88,13,22,6,6,0.3,0.3
2025-05-26T0000,1127A,125.245,43.7783,长春市,高新区管委会,,49,49,30,15,17,78,,110,82,14,25,6,6,0.2,0.2
2025-05-26T0000,1128A,125.1761,43.8325,长春市,岱山公园,,50,50,25,14,16,72,,110,79,21,26,4,5,0.3,0.3
2025-05-26T0000,1335A,113.0833,28.2325,长沙市,经开区环保局,细颗粒物(PM2.5),79,73,58,58,40,85,,164,134,28,21,5,6,0.9,0.9
2025-05-26T0000,1336A,112.8872,28.2189,长沙市,高开区环保局,细颗粒物(PM2.5),73,55,56,53,41,101,,160,136,12,13,8,7,0.7,0.6
2025-05-26T0000,1337A,113.0792,28.2053,长沙市,马坡岭,细颗粒物(PM2.5),77,78,63,56,46,63,,155,119,41,20,4,6,0.6,0.5
2025-05-26T0000,1338A,112.9394,28.19,长沙市,湖南师范大学,细颗粒物(PM2.5),60,65,58,43,39,88,,155,132,27,19,5,6,0.8,0.7
2025-05-26T0000,1339A,113.0178,28.1322,长沙市,雨花区环保局,细颗粒物(PM2.5),69,63,56,50,38,87,,155,132,21,16,7,7,1.3,1.2
2025-05-26T0000,1340A,112.9792,28.2597,长沙市,伍家岭,细颗粒物(PM2.5),60,64,60,43,35,95,,154,131,17,14,4,4,0.8,0.7
2025-05-26T0000,1341A,113.0014,28.1944,长沙市,火车新站,细颗粒物(PM2.5),55,56,60,39,38,97,,151,130,16,18,10,8,0.6,0.6
2025-05-26T0000,1342A,112.9844,28.1178,长沙市,天心区环保局,细颗粒物(PM2.5),68,65,59,49,43,87,,156,132,21,19,4,4,0.9,0.7
2025-05-26T0000,1343A,112.8908,28.1308,长沙市,湖南中医药大学,细颗粒物(PM2.5),67,63,60,48,42,70,,147,114,28,20,3,3,0.8,0.6
2025-05-26T0000,1344A,112.9581,28.3611,长沙市,沙坪,颗粒物(PM10),55,59,50,38,37,74,,147,99,15,17,3,4,0.8,0.6
2025-05-26T0000,1727A,113.1147,36.1547,长治市,清华站,,38,28,42,12,24,119,,160,140,13,25,8,9,0.6,0.7
2025-05-26T0000,1730A,113.0886,36.2125,长治市,审计局,,35,20,36,14,27,112,,158,140,18,26,10,10,0.5,0.5
2025-05-26T0000,1731A,113.0844,36.1856,长治市,长治八中,,32,24,47,18,33,101,,149,132,18,25,12,12,0.3,0.2
2025-05-26T0000,2845A,113.1569,36.1911,长治市,德盛苑,,34,27,36,14,23,107,,148,132,12,14,7,8,0.6,0.7
2025-05-26T0000,3568A,113.06,36.0464,长治市,向阳小学,,36,36,60,20,29,107,,158,135,18,19,7,6,0.5,0.6
2025-05-26T0000,3569A,112.8792,36.3144,长治市,屯留一中,,39,33,32,27,27,87,,155,132,35,28,8,9,0.2,0.2
2025-05-26T0000,4189A,113.1131,36.19948,长治市,英华南巷50号,,30,29,41,17,28,95,,154,134,20,21,8,10,0.7,0.7
2025-05-26T0000,4190A,113.2367,36.3344,长治市,学府街1号,,37,37,51,14,32,98,,175,151,29,39,4,10,0.6,0.7
2025-05-26T0000,1854A,111.6975,28.9703,常德市,市二中,细颗粒物(PM2.5),59,54,64,42,51,75,,123,102,14,14,7,6,1.0,1.1
2025-05-26T0000,1857A,111.7158,29.1456,常德市,白鹤山,,,,,,,,,,,,,,,,
2025-05-26T0000,3138A,111.7153,29.0289,常德市,武陵区永安,细颗粒物(PM2.5),64,69,67,46,49,86,,135,92,14,19,11,9,0.7,0.7
2025-05-26T0000,3139A,111.6892,28.9881,常德市,鼎城区玉霞,细颗粒物(PM2.5),55,53,67,39,42,61,,130,102,22,18,4,4,0.6,0.7
2025-05-26T0000,3140A,111.6625,29.0531,常德市,武陵区长庚,颗粒物(PM10),54,57,63,36,40,90,,137,113,12,12,8,8,0.7,0.7
2025-05-26T0000,1196A,119.9633,31.762,常州市,市监测站,颗粒物(PM10),59,67,63,30,41,131,,220,181,19,33,8,10,0.6,0.6
2025-05-26T0000,1200A,119.9468,31.7069,常州市,武进监测站,颗粒物(PM10),58,66,68,35,43,128,,219,184,24,32,9,10,0.8,0.8
2025-05-26T0000,1201A,119.9255,31.9087,常州市,安家,颗粒物(PM10),52,54,71,28,42,29,,177,,28,38,10,12,0.3,0.4
2025-05-26T0000,3002A,119.9805,31.8174,常州市,行政中心,,,45,56,36,42,,,212,196,,29,,8,,0.6
2025-05-26T0000,3003A,120.0522,31.7748,常州市,经开区,颗粒物(PM10),54,57,59,31,36,146,,237,188,24,33,7,6,0.7,0.7
2025-05-26T0000,3010A,119.9025,31.7964,常州市,钟楼,颗粒物(PM10),59,67,69,30,43,137,,214,189,19,40,9,10,0.7,0.7
2025-05-26T0000,3429A,119.8598,31.7066,常州市,武进经发区,细颗粒物(PM2.5),73,84,71,53,48,129,,222,182,26,24,17,10,0.9,0.9
2025-05-26T0000,3430A,119.5826,31.7245,常州市,金坛城区,颗粒物(PM10),72,93,65,50,44,133,,212,184,33,25,14,11,0.7,0.6
2025-05-26T0000,2220A,120.4318,41.5881,朝阳市,西梁,,35,35,39,24,24,64,,122,108,38,25,7,9,0.4,0.3
2025-05-26T0000,2221A,120.4521,41.5646,朝阳市,河畔小区,,35,18,30,14,19,109,,122,118,14,14,8,10,0.3,0.4
2025-05-26T0000,2222A,120.4176,41.5648,朝阳市,八里堡,,38,38,52,26,24,82,,129,110,29,20,7,8,0.4,0.4
2025-05-26T0000,2223A,120.3806,41.5969,朝阳市,农业园区,,33,25,35,23,23,57,,123,91,32,19,6,8,0.3,0.3
2025-05-26T0000,1705A,116.6367,23.6719,潮州市,西园路,,19,8,19,8,17,59,,71,67,5,5,3,3,0.4,0.6
2025-05-26T0000,3026A,116.6183,23.6608,潮州市,市政府,,25,18,21,8,15,79,,79,79,4,5,3,3,0.6,0.7
2025-05-26T0000,4036A,116.6461,23.6761,潮州市,金山,,22,14,21,3,21,68,,72,72,4,5,5,5,0.5,0.7
2025-05-26T0000,2472A,113.0073,25.9061,郴州市,马头岭,颗粒物(PM10),53,56,59,31,28,59,,105,73,10,12,7,9,0.5,0.5
2025-05-26T0000,2473A,113.0116,25.8226,郴州市,市职中,细颗粒物(PM2.5),63,48,54,45,45,74,,124,91,9,11,1,4,0.8,0.8
2025-05-26T0000,2475A,113.0383,25.8071,郴州市,市审计局,细颗粒物(PM2.5),59,42,53,42,43,88,,127,99,8,10,4,6,0.8,0.9
2025-05-26T0000,2476A,113.0348,25.7759,郴州市,市环保局,细颗粒物(PM2.5),67,52,61,48,45,93,,128,103,9,14,2,4,0.7,0.7
2025-05-26T0000,4252A,113.0138,25.8011,郴州市,好美居路49号,细颗粒物(PM2.5),52,44,52,36,40,90,,128,102,8,11,8,11,0.7,0.7
2025-05-26T0000,1431A,103.9728,30.7236,成都市,金泉两河,颗粒物(PM10),54,58,53,24,19,116,,162,131,12,18,4,3,0.4,0.4
2025-05-26T0000,1432A,104.176,30.6872,成都市,十里店,细颗粒物(PM2.5),65,53,49,47,22,120,,144,132,16,20,5,4,0.5,0.4
2025-05-26T0000,1433A,104.079,30.5706,成都市,三瓦窑,"颗粒物(PM10),细颗粒物(PM2.5)",53,56,51,37,24,116,,145,128,14,19,6,4,0.6,0.6
2025-05-26T0000,1434A,104.1114,30.63,成都市,沙河铺,颗粒物(PM10),55,60,51,27,25,93,,121,105,15,15,8,7,0.4,0.3
2025-05-26T0000,1437A,104.0786,30.6531,成都市,君平街,细颗粒物(PM2.5),59,56,55,42,27,107,,134,120,17,18,9,8,0.6,0.6
2025-05-26T0000,1438A,103.613,31.0283,成都市,灵岩寺,,,,,,,,,,,,,,,,
2025-05-26T0000,2880A,104.0239,30.65639,成都市,大石西路,,,64,55,50,27,118,,147,134,16,15,6,3,,0.5
2025-05-26T0000,3136A,104.2725,30.5589,成都市,龙泉驿区区政府,,44,44,39,27,22,113,,136,129,11,10,6,5,0.5,0.5
2025-05-26T0000,3357A,104.0106,30.6931,成都市,金博路,细颗粒物(PM2.5),65,58,46,47,21,114,,150,128,13,18,8,8,0.4,0.4
2025-05-26T0000,3359A,104.0578,30.5225,成都市,华阳,细颗粒物(PM2.5),58,56,44,41,31,103,,132,117,14,16,8,10,0.6,0.5
2025-05-26T0000,3488A,104.3853,30.7453,成都市,青白江技师分院,颗粒物(PM10),55,59,49,31,26,114,,133,130,19,19,4,4,0.4,0.4
2025-05-26T0000,3489A,104.0789,30.4072,成都市,科学城,颗粒物(PM10),51,51,50,35,28,111,,136,130,10,11,6,4,0.5,0.5
2025-05-26T0000,4011A,103.8506,30.6947,成都市,光华大道三段,细颗粒物(PM2.5),62,66,54,44,34,122,,196,159,14,14,11,6,0.7,0.7
2025-05-26T0000,4224A,104.2433,30.5353,成都市,鲸龙路1057号,颗粒物(PM10),56,61,55,33,30,111,,136,130,10,14,8,7,0.5,0.5
2025-05-26T0000,1062A,117.9531,40.9081,承德市,铁路,颗粒物(PM10),51,52,40,32,20,98,,136,126,28,20,4,4,0.5,0.4
2025-05-26T0000,1063A,117.9392,40.9763,承德市,中国银行,细颗粒物(PM2.5),59,49,39,42,24,58,,137,116,14,10,3,2,0.7,0.4
2025-05-26T0000,1064A,117.9503,40.928,承德市,开发区,细颗粒物(PM2.5),52,43,40,36,30,98,,140,132,14,15,2,2,0.5,0.4
2025-05-26T0000,1065A,117.8051,40.9655,承德市,文化中心,颗粒物(PM10),59,67,48,30,26,85,,134,121,22,17,6,6,0.5,0.4
2025-05-26T0000,1066A,117.9268,41.0026,承德市,离宫,细颗粒物(PM2.5),60,54,44,43,34,73,,128,102,16,9,1,2,0.5,0.3
2025-05-26T0000,2314A,117.47,30.6618,池州市,池州学院,,45,40,54,31,40,89,,166,125,13,14,5,6,0.8,0.8
2025-05-26T0000,3237A,117.4918,30.6617,池州市,展览馆,,44,44,52,28,36,85,,166,116,12,13,5,5,0.9,0.8
2025-05-26T0000,3333A,117.5627,30.695,池州市,第八中学,,40,40,51,28,35,87,,168,129,17,13,6,6,0.6,0.6
2025-05-26T0000,3334A,117.5038,30.6243,池州市,第十二中学,,41,41,56,28,38,75,,168,109,17,20,3,4,1.0,0.9
2025-05-26T0000,1744A,118.9233,42.2816,赤峰市,松山一中,,49,49,37,21,20,18,,118,81,78,28,14,11,0.9,0.5
2025-05-26T0000,1745A,118.9576,42.2728,赤峰市,哈达街,,37,37,42,23,25,50,,108,84,42,26,8,9,0.5,0.5
2025-05-26T0000,1746A,118.8788,42.2554,赤峰市,天义路,细颗粒物(PM2.5),54,47,26,38,25,15,,127,90,64,20,11,10,0.7,0.5
2025-05-26T0000,3058A,119.2658,42.0353,赤峰市,银河街,颗粒物(PM10),55,59,47,26,24,40,,101,72,31,15,14,21,0.9,0.7
2025-05-26T0000,3286A,118.9359,42.3147,赤峰市,桥北物流园区,,47,47,39,25,27,40,,112,75,47,22,22,13,0.5,0.5
2025-05-26T0000,2521A,107.3476,22.4136,崇左市,市环保局江州分局,,30,,31,12,17,96,,115,106,4,6,5,6,0.4,0.3
2025-05-26T0000,4256A,107.3750,22.3736,崇左市,石景林东路7号,,31,,28,14,16,98,,117,109,5,6,3,3,0.6,0.6
2025-05-26T0000,2298A,118.3093,32.3153,滁州市,老年大学,细颗粒物(PM2.5),53,53,54,37,38,81,,190,152,17,15,3,3,0.4,0.4
2025-05-26T0000,2299A,118.3244,32.2786,滁州市,人大宾馆,细颗粒物(PM2.5),64,69,57,46,36,98,,181,140,28,18,4,4,0.5,0.4
2025-05-26T0000,3207A,118.3118,32.3038,滁州市,市政府原办公楼,细颗粒物(PM2.5),57,53,50,40,37,152,,198,169,12,13,5,4,0.5,0.4
2025-05-26T0000,3331A,118.3267,32.2634,滁州市,图书馆,细颗粒物(PM2.5),67,65,50,48,41,108,,190,158,26,14,8,8,0.5,0.4
2025-05-26T0000,2605A,101.5482,25.0441,楚雄彝族自治州,州环境监测站,,20,,5,14,4,49,,72,65,16,10,7,6,0.7,0.6
2025-05-26T0000,2606A,101.538,25.0492,楚雄彝族自治州,市经济开发区,,22,,6,15,6,44,,69,58,17,11,7,7,0.7,0.6
2025-05-26T0000,2548A,107.5277,31.2827,达州市,达州职业技术学院,颗粒物(PM10),53,56,57,25,23,20,,134,75,43,24,5,6,0.8,0.9
2025-05-26T0000,2549A,107.5086,31.2186,达州市,市环境监测站,颗粒物(PM10),55,60,60,22,24,35,,132,83,43,28,5,5,0.4,0.3
2025-05-26T0000,2550A,107.4988,31.2132,达州市,凤凰小区,颗粒物(PM10),58,66,58,34,28,29,,138,96,53,22,7,7,0.6,0.4
2025-05-26T0000,2551A,107.5082,31.1986,达州市,达县机关宾馆,颗粒物(PM10),53,56,63,19,23,4,,134,63,75,35,5,5,0.4,0.4
2025-05-26T0000,2552A,107.4644,31.2124,达州市,市政中心,颗粒物(PM10),55,59,66,27,25,45,,130,90,46,22,3,3,0.5,0.4
2025-05-26T0000,2614A,100.1542,25.7054,大理白族自治州,大理市环境监测站,,33,27,8,23,15,36,,84,78,28,9,7,7,0.4,0.4
2025-05-26T0000,2615A,100.2171,25.5811,大理白族自治州,大理古城,,21,12,11,7,8,65,,77,76,9,9,8,8,0.2,0.4
2025-05-26T0000,1109A,121.612,38.9741,大连市,甘井子,细颗粒物(PM2.5),69,68,56,50,35,98,,156,125,34,29,6,6,0.7,0.5
2025-05-26T0000,1110A,121.565,38.9511,大连市,周水子,细颗粒物(PM2.5),70,66,61,51,38,38,,146,114,68,30,7,8,0.7,0.6
2025-05-26T0000,1111A,121.5637,38.8845,大连市,星海三站,细颗粒物(PM2.5),57,54,58,40,42,72,,149,128,23,15,4,6,0.7,0.6
2025-05-26T0000,1112A,121.6302,38.9117,大连市,青泥洼桥,细颗粒物(PM2.5),59,62,44,42,32,101,,162,141,25,16,9,9,0.6,0.5
2025-05-26T0000,1113A,121.6251,38.8638,大连市,傅家庄,臭氧1小时,64,44,58,28,37,171,,160,160,10,19,8,7,0.3,0.4
2025-05-26T0000,1114A,121.5213,38.8661,大连市,七贤岭,,46,46,59,29,38,111,,166,134,14,18,5,6,0.8,0.8
2025-05-26T0000,1115A,121.2529,38.8061,大连市,旅顺,,48,35,39,33,32,126,,157,149,20,16,10,9,0.5,0.5
2025-05-26T0000,1116A,121.7485,39.1311,大连市,金州,,47,47,46,27,27,140,,154,138,18,24,10,11,0.4,0.4
2025-05-26T0000,1117A,121.7811,39.0496,大连市,开发区,细颗粒物(PM2.5),64,61,52,46,32,70,,144,122,44,27,6,7,0.7,0.5
2025-05-26T0000,1118A,121.9762,39.0631,大连市,双D港,,42,28,39,22,30,133,,150,137,12,19,8,8,0.4,0.5
2025-05-26T0000,1789A,124.81117,46.03138,大庆市,大同区,,48,,29,33,22,57,,95,69,16,12,4,5,0.5,0.5
2025-05-26T0000,1790A,125.129,46.533,大庆市,龙凤区,颗粒物(PM10),51,52,45,33,25,52,,110,68,16,21,6,7,0.4,0.4
2025-05-26T0000,1791A,124.902,46.408,大庆市,红岗区,细颗粒物(PM2.5),53,47,38,37,23,38,,101,66,22,14,8,7,0.4,0.3
2025-05-26T0000,1792A,125.153,46.586,大庆市,萨尔图区,细颗粒物(PM2.5),82,79,48,60,22,36,,94,54,39,25,8,7,0.7,0.5
2025-05-26T0000,1793A,124.9042,46.6215,大庆市,让胡路区,细颗粒物(PM2.5),60,52,37,43,28,35,,73,65,30,12,7,7,0.3,0.2
2025-05-26T0000,3481A,125.141,46.634,大庆市,萨区政府监测点,颗粒物(PM10),55,60,39,31,14,61,,101,75,22,18,7,6,0.6,0.5
2025-05-26T0000,1721A,113.3819,40.1097,大同市,果树场,,,,,,,,,,,,,,,,
2025-05-26T0000,1723A,113.2994,40.0758,大同市,云冈宾馆,,36,36,44,18,25,81,,121,97,29,27,7,8,0.4,0.9
2025-05-26T0000,1724A,113.3444,40.0917,大同市,大同大学,,33,33,40,12,23,67,,118,90,33,27,9,11,0.5,0.7
2025-05-26T0000,1725A,113.2661,40.1269,大同市,安家小村,,46,46,46,17,20,66,,117,91,22,18,8,10,0.6,1.1
2025-05-26T0000,1726A,113.2711,40.0844,大同市,教育学院,,50,50,45,18,25,64,,111,90,33,26,8,10,0.1,0.3
2025-05-26T0000,3282A,113.3397,40.0597,大同市,大同市卫生学校,,48,48,45,15,25,65,,110,85,31,25,9,11,0.6,0.7
2025-05-26T0000,3565A,113.1367,40.1122,大同市,云冈站,颗粒物(PM10),57,63,49,25,24,31,,110,82,38,21,10,8,0.5,0.5
2025-05-26T0000,3566A,113.1186,40.2556,大同市,图书馆,,38,38,30,20,20,63,,113,90,18,11,8,7,0.5,0.5
2025-05-26T0000,3567A,113.5931,40.0461,大同市,区一中,,19,14,49,12,30,59,,118,92,19,23,11,18,0.3,0.4
2025-05-26T0000,4199A,113.2798,40.0997,大同市,魏都大道141号,颗粒物(PM10),51,51,50,20,26,55,,109,86,34,24,7,9,0.6,1.1
2025-05-26T0000,2269A,124.1069,50.4097,大兴安岭地区,科技局,,29,29,30,16,17,69,,84,79,3,7,7,7,0.3,0.3
2025-05-26T0000,3663A,124.1164,50.4278,大兴安岭地区,红旗社区,,20,12,19,10,15,63,,88,79,6,9,5,5,0.3,0.4
2025-05-26T0000,1600A,124.3303,40.0625,丹东市,江湾东路,颗粒物(PM10),52,54,47,34,27,66,,135,106,18,14,7,9,0.8,0.7
2025-05-26T0000,1601A,124.4256,40.1503,丹东市,临江后街,细颗粒物(PM2.5),104,,38,78,32,54,,126,105,37,18,11,9,1.5,0.7
2025-05-26T0000,1602A,124.3933,40.1461,丹东市,元宝山,颗粒物(PM10),62,74,44,24,21,85,,118,113,18,14,9,8,0.6,0.4
2025-05-26T0000,1603A,124.3633,40.1092,丹东市,民主桥,,45,45,44,20,22,53,,128,105,36,19,7,9,0.5,0.5
2025-05-26T0000,3541A,109.5726,19.5167,儋州市,第一中学子站,,36,29,25,21,15,113,,105,105,5,4,5,5,0.8,0.7
2025-05-26T0000,3542A,109.5567,19.5187,儋州市,东坡学校子站,,37,34,24,21,14,118,,109,109,5,5,4,5,0.6,0.5
2025-05-26T0000,2616A,98.5842,24.428,德宏傣族景颇族自治州,德宏州监测站,,26,26,16,17,11,30,,52,43,9,11,6,6,0.8,0.8
2025-05-26T0000,3677A,98.5881,24.4368,德宏傣族景颇族自治州,芒市人民政府综合楼,,33,33,25,13,10,34,,52,44,9,10,7,6,0.5,0.6
2025-05-26T0000,1901A,104.4239,31.1208,德阳市,东山公园,细颗粒物(PM2.5),53,44,43,37,27,99,,123,107,12,8,8,5,0.9,0.8
2025-05-26T0000,1902A,104.3826,31.1317,德阳市,西小区,,50,44,66,35,30,121,,147,125,10,14,4,4,0.9,0.9
2025-05-26T0000,1904A,104.3553,31.1091,德阳市,耐火材料厂,颗粒物(PM10),52,54,58,32,28,107,,138,118,12,14,6,8,0.5,0.5
2025-05-26T0000,3639A,104.4019,31.1244,德阳市,市教育局,,46,46,47,23,27,109,,136,115,10,12,8,7,0.7,0.7
2025-05-26T0000,1622A,116.3032,37.4674,德州市,儿童乐园,颗粒物(PM10),56,61,48,29,20,128,,169,156,24,12,7,7,0.5,0.4
2025-05-26T0000,1624A,116.2991,37.4451,德州市,监理站,颗粒物(PM10),56,61,45,29,21,125,,166,151,25,16,7,7,0.4,0.3
2025-05-26T0000,3066A,116.2721,37.4379,德州市,九衢泉纯净水厂,颗粒物(PM10),54,58,49,36,23,73,,152,121,63,26,6,7,0.5,0.4
2025-05-26T0000,3371A,116.3728,37.4403,德州市,开发区人民医院,颗粒物(PM10),56,61,50,29,21,133,,158,140,19,19,8,8,0.5,0.4
2025-05-26T0000,3372A,116.3572,37.4094,德州市,太阳城中学,颗粒物(PM10),54,58,53,29,24,127,,160,141,18,18,5,5,0.4,0.4
2025-05-26T0000,3511A,116.5652,37.3319,德州市,陵城艺术中心,颗粒物(PM10),54,58,48,27,19,144,,169,161,17,15,8,9,0.7,0.7
2025-05-26T0000,2621A,99.7056,27.8317,迪庆藏族自治州,迪庆州站,,24,24,23,13,12,68,,99,90,8,8,6,6,0.6,0.6
2025-05-26T0000,3180A,99.7136,27.8094,迪庆藏族自治州,质量技术监督局,,26,,17,17,9,83,,96,89,7,10,5,5,0.6,0.6
2025-05-26T0000,4257A,104.6092,35.5962,定西市,将台街,,50,50,36,18,18,64,,147,120,32,13,4,4,0.4,0.4
2025-05-26T0000,4309A,104.6159,35.5701,定西市,正龙路62号,,40,40,30,19,16,81,,144,126,17,8,6,6,0.2,0.2
2025-05-26T0000,1389A,113.7547,23.0494,东莞市,莞城梨川,颗粒物(PM10),51,51,49,30,33,97,,121,111,15,14,9,8,0.5,0.5
2025-05-26T0000,1390A,113.7944,23.0128,东莞市,东城石井,,44,44,46,30,31,86,,111,100,14,14,4,4,0.6,0.6
2025-05-26T0000,1391A,113.7383,22.9658,东莞市,南城西平,,46,46,47,30,28,86,,118,100,26,23,3,2,0.6,0.6
2025-05-26T0000,3319A,113.7338,23.0381,东莞市,万江金泰,,45,42,43,31,31,85,,112,102,13,11,3,2,0.9,0.9
2025-05-26T0000,3626A,113.7533,23.0202,东莞市,南城元岭,,40,38,41,28,29,97,,122,111,17,15,6,6,0.6,0.6
2025-05-26T0000,3627A,113.7875,23.0457,东莞市,东城主山,,43,43,61,27,31,96,,116,106,11,11,6,6,0.6,0.7
2025-05-26T0000,1666A,118.6614,37.4309,东营市,市环保局,,44,44,45,22,18,136,,166,160,21,25,9,9,0.5,0.5
2025-05-26T0000,3036A,118.6904,37.4338,东营市,开发区管委会,颗粒物(PM10),51,51,50,34,23,150,,188,182,25,30,8,9,0.6,0.5
2025-05-26T0000,3365A,118.5719,37.565,东营市,垦利区民丰路,颗粒物(PM10),53,56,47,27,19,117,,173,155,42,27,8,8,0.8,0.7
2025-05-26T0000,3498A,118.5055,37.8612,东营市,河口城区,,47,44,43,24,22,148,,157,154,15,21,9,10,0.7,0.6
2025-05-26T0000,3646A,118.4978,37.4623,东营市,胜利站,颗粒物(PM10),59,68,48,27,18,137,,164,159,24,26,16,11,0.7,0.6
2025-05-26T0000,3734A,118.35,37.26,东营市,理想之城,细颗粒物(PM2.5),55,56,47,39,24,110,,173,159,40,34,11,6,0.6,0.5
2025-05-26T0000,1591A,110.0023,39.8129,鄂尔多斯市,综合楼,,36,36,46,17,21,90,,124,106,21,24,9,7,0.5,0.5
2025-05-26T0000,1592A,109.9486,39.8261,鄂尔多斯市,巴音孟克林场办事处,,39,39,47,19,23,106,,132,116,18,19,12,8,0.5,0.5
2025-05-26T0000,1593A,109.7736,39.5986,鄂尔多斯市,康泽苑,,33,24,47,14,21,105,,143,118,12,15,10,10,0.2,0.3
2025-05-26T0000,1594A,109.8119,39.5989,鄂尔多斯市,华泰汽车城,,31,31,45,14,21,54,,134,101,34,21,5,6,0.4,0.4
2025-05-26T0000,1595A,109.9734,39.7884,鄂尔多斯市,奥林花园,,39,39,47,17,26,38,,130,96,52,30,5,6,0.6,0.6
2025-05-26T0000,2436A,114.8938,30.3994,鄂州市,市政府,细颗粒物(PM2.5),60,52,48,43,37,102,,188,150,20,18,7,8,0.5,0.5
2025-05-26T0000,2437A,114.8989,30.3714,鄂州市,赵家坝,,50,49,39,35,28,133,,180,158,18,16,6,6,0.6,0.7
2025-05-26T0000,3654A,114.8094,30.4089,鄂州市,精准医疗中心,颗粒物(PM10),59,67,52,40,36,101,,185,141,29,23,5,5,0.8,0.8
2025-05-26T0000,2454A,109.4978,30.2981,恩施土家族苗族自治州,湖北民院,,45,45,49,28,28,88,,120,109,5,5,7,6,0.2,0.2
2025-05-26T0000,2455A,109.4707,30.2798,恩施土家族苗族自治州,州电力总公司,,38,38,42,26,27,75,,110,96,6,6,6,7,0.2,0.2
2025-05-26T0000,3549A,109.5061,30.3772,恩施土家族苗族自治州,龙凤新区,,39,39,43,25,25,59,,122,102,9,7,7,6,0.3,0.3
2025-05-26T0000,2499A,108.3411,21.6158,防城港市,沙万,,40,39,31,28,18,88,,101,96,10,8,2,2,0.3,0.3
2025-05-26T0000,2500A,108.3514,21.7731,防城港市,防城档案局,,45,45,44,26,20,71,,96,87,18,15,2,2,0.6,0.6
2025-05-26T0000,2501A,108.3506,21.6414,防城港市,大海花园,,50,50,34,27,19,93,,108,102,13,10,3,3,0.6,0.6
2025-05-26T0000,1371A,113.1294,23.0067,佛山市,湾梁,细颗粒物(PM2.5),68,68,44,49,27,44,,108,76,45,27,9,9,0.8,0.7
2025-05-26T0000,1372A,113.1083,23.0478,佛山市,华材职中,细颗粒物(PM2.5),69,78,49,50,27,38,,116,82,64,35,6,7,0.7,0.5
2025-05-26T0000,1373A,113.144,23.0453,佛山市,南海气象局,颗粒物(PM10),62,73,45,38,24,47,,104,76,41,26,4,3,0.8,0.7
2025-05-26T0000,1374A,113.2881,22.8094,佛山市,顺德苏岗,,44,44,40,29,24,55,,114,87,30,20,7,6,0.7,0.7
2025-05-26T0000,1376A,112.8383,22.8678,佛山市,高明孔堂,细颗粒物(PM2.5),58,64,45,41,23,49,,114,81,38,27,8,9,0.8,0.7
2025-05-26T0000,1377A,112.8836,23.1588,佛山市,三水监测站,,43,39,43,30,23,82,,94,58,24,37,5,6,0.6,0.6
2025-05-26T0000,1378A,112.867,23.185,佛山市,三水云东海,,48,45,47,33,29,95,,87,50,20,36,4,2,0.8,0.9
2025-05-26T0000,3625A,113.2544,22.7642,佛山市,容桂街道办,,49,48,37,34,26,54,,121,97,39,24,6,6,0.8,0.8
2025-05-26T0000,1280A,119.3903,26.0543,福州市,鼓山,,,,42,,20,,,159,,,6,,1,,0.3
2025-05-26T0000,1282A,119.2681,26.0504,福州市,师大,细颗粒物(PM2.5),62,48,43,44,35,106,,134,129,11,12,4,4,0.4,0.4
2025-05-26T0000,1283A,119.2984,26.1028,福州市,五四北路,细颗粒物(PM2.5),53,,41,37,35,117,,140,130,11,12,4,4,0.5,0.6
2025-05-26T0000,1284A,119.2648,26.0768,福州市,杨桥西路,细颗粒物(PM2.5),54,45,51,38,35,112,,138,132,10,11,4,4,0.4,0.4
2025-05-26T0000,1285A,119.317,26.0746,福州市,紫阳,细颗粒物(PM2.5),57,40,57,40,39,117,,142,137,11,12,5,5,0.4,0.5
2025-05-26T0000,3048A,119.5799,26.0936,福州市,九龙,,,41,41,32,31,,,151,136,12,9,4,4,0.4,0.4
2025-05-26T0000,3526A,119.5189,25.9664,福州市,吴航,,32,32,45,22,32,82,,152,118,13,11,4,4,0.2,0.3
2025-05-26T0000,1755A,123.7977,41.8491,抚顺市,望花区,细颗粒物(PM2.5),69,79,51,50,6,15,,125,72,62,34,6,5,0.7,0.6
2025-05-26T0000,1756A,123.9161,41.8822,抚顺市,顺城区,颗粒物(PM10),67,83,48,28,22,2,,115,50,69,40,8,8,0.6,0.5
2025-05-26T0000,1757A,124.0436,41.8611,抚顺市,东洲区,,28,23,29,19,16,52,,116,87,18,17,8,8,0.4,0.4
2025-05-26T0000,1758A,123.9247,41.8642,抚顺市,新抚区,颗粒物(PM10),59,68,46,18,20,0,,117,60,63,34,8,8,0.6,0.5
2025-05-26T0000,1759A,124.0972,41.8961,抚顺市,大伙房水库,,18,14,21,12,17,44,,120,89,33,22,7,7,0.4,0.4
2025-05-26T0000,1760A,123.7086,41.8391,抚顺市,沈抚新城,颗粒物(PM10),65,79,37,40,21,2,,121,66,68,33,8,6,0.7,0.6
2025-05-26T0000,2376A,116.2127,28.0814,抚州市,桐源党溪,细颗粒物(PM2.5),59,62,61,42,39,37,,98,55,2,2,4,5,0.9,0.9
2025-05-26T0000,2377A,116.3544,27.9831,抚州市,市站,细颗粒物(PM2.5),59,52,61,42,46,62,,91,81,11,10,1,18,0.5,0.6
2025-05-26T0000,2378A,116.3565,27.963,抚州市,血防站,细颗粒物(PM2.5),67,67,68,48,48,52,,92,80,20,11,4,15,0.5,0.5
2025-05-26T0000,2379A,116.3564,28.0007,抚州市,采茶剧团,细颗粒物(PM2.5),58,57,64,41,44,65,,94,83,5,7,3,13,0.2,0.3
2025-05-26T0000,2380A,116.385,27.9647,抚州市,医学分院,颗粒物(PM10),55,60,67,37,41,58,,96,81,16,9,5,16,0.9,0.9
2025-05-26T0000,2207A,121.6094,41.998,阜新市,工业园区,,39,39,39,25,20,54,,128,85,34,27,24,11,0.4,0.5
2025-05-26T0000,2208A,121.6697,42.0279,阜新市,长青街,细颗粒物(PM2.5),59,47,22,42,21,67,,120,90,33,24,32,11,0.5,0.4
2025-05-26T0000,2209A,121.6673,42.0705,阜新市,农业园区,颗粒物(PM10),55,59,35,24,12,62,,121,94,34,14,22,8,0.4,0.4
2025-05-26T0000,2210A,121.6717,42.0224,阜新市,东苑,,41,41,41,22,20,84,,126,92,25,23,24,14,0.6,0.5
2025-05-26T0000,2211A,121.6506,42.0498,阜新市,玉龙新城,颗粒物(PM10),58,66,49,28,21,8,,117,55,73,31,14,9,0.5,1
2025-05-26T0000,2301A,115.8277,32.8929,阜阳市,市监测站,细颗粒物(PM2.5),63,59,64,45,43,71,,162,129,47,24,8,11,0.4,0.4
2025-05-26T0000,2303A,115.8554,32.8605,阜阳市,开发区,颗粒物(PM10),66,81,79,46,38,96,,174,145,32,23,7,7,0.4,0.3
2025-05-26T0000,2875A,115.784,32.8892,阜阳市,阜阳职业技术学院,颗粒物(PM10),64,77,64,45,39,92,,181,146,31,23,4,7,0.5,0.4
2025-05-26T0000,3468A,115.7901,32.8613,阜阳市,市规划展馆,细颗粒物(PM2.5),68,79,64,49,41,95,,175,147,23,17,6,8,0.7,0.6
2025-05-26T0000,3469A,115.836,32.9183,阜阳市,枣园社区,颗粒物(PM10),53,56,67,34,40,90,,173,139,26,22,4,6,0.4,0.4
2025-05-26T0000,2669A,102.9099,34.9841,甘南藏族自治州,州政府,,27,27,31,16,19,82,,116,104,2,7,2,2,0.2,0.3
2025-05-26T0000,3380A,102.8914,34.9617,甘南藏族自治州,甘肃民族师范学院,颗粒物(PM10),94,137,41,25,15,38,,127,108,43,13,7,8,0.4,0.4
2025-05-26T0000,2570A,101.9603,30.0475,甘孜藏族自治州,水桥子,,20,16,19,14,7,50,,82,70,22,14,4,4,0.5,0.4
2025-05-26T0000,3065A,101.9533,29.9972,甘孜藏族自治州,州环保局,,30,30,21,13,7,25,,88,58,37,19,1,2,0.4,0.3
2025-05-26T0000,3414A,115.8347,28.932,赣江新区,桑海产业园,颗粒物(PM10),58,66,53,39,34,33,,162,102,67,25,4,5,0.7,0.6
2025-05-26T0000,2362A,114.9017,25.9149,赣州市,通天岩,,46,46,55,9,12,67,,122,73,5,6,3,5,0.8,0.8
2025-05-26T0000,2363A,114.9367,25.8664,赣州市,地委,细颗粒物(PM2.5),54,54,56,38,38,84,,113,102,8,10,1,2,0.4,0.5
2025-05-26T0000,2364A,114.9461,25.8481,赣州市,气象台,,49,48,60,34,34,84,,116,102,10,12,9,10,0.5,0.5
2025-05-26T0000,2365A,114.9322,25.8333,赣州市,市图书馆,,45,39,53,31,38,96,,120,110,6,8,4,5,0.5,0.6
2025-05-26T0000,2366A,114.8905,25.8471,赣州市,华坚鞋城,,40,38,51,28,35,110,,125,117,8,10,2,5,0.2,0.3
2025-05-26T0000,3109A,115.0093,25.8613,赣州市,赣县区卫计委,,36,,46,25,36,74,,94,87,8,11,2,3,0.7,0.8
2025-05-26T0000,2683A,106.2319,36.1417,固原市,马园,,33,33,24,14,11,100,,130,117,31,19,5,5,0.5,0.3
2025-05-26T0000,2684A,106.2792,36.0022,固原市,监测站,,35,19,16,15,9,112,,128,126,10,10,6,6,0.3,0.3
2025-05-26T0000,2685A,106.2375,36.0211,固原市,新区,,34,23,19,16,9,107,,124,120,11,9,4,4,0.4,0.4
2025-05-26T0000,3522A,106.2177,35.9959,固原市,原州区十五小,,35,30,23,18,12,110,,128,122,12,10,10,9,0.3,0.2
2025-05-26T0000,2543A,106.6308,30.5278,广安市,小平旧居,,,,,,,,,,,,,,,,
2025-05-26T0000,2544A,106.6303,30.4576,广安市,市委,,50,50,60,35,32,101,,137,123,17,12,1,2,0.4,0.4
2025-05-26T0000,2545A,106.6271,30.4663,广安市,友谊中学,,39,39,52,26,28,104,,141,130,18,15,6,6,0.6,0.7
2025-05-26T0000,2547A,106.6388,30.4551,广安市,广电花园,,46,45,54,32,29,98,,138,120,21,15,6,7,0.4,0.5
2025-05-26T0000,2902A,106.6351,30.4865,广安市,北辰小学,,49,49,56,25,28,88,,143,128,22,14,10,11,0.6,0.6
2025-05-26T0000,2523A,105.8945,32.4535,广元市,黑石坡,颗粒物(PM10),54,57,61,33,28,94,,118,107,12,10,7,5,0.4,0.3
2025-05-26T0000,2524A,105.821,32.4444,广元市,老城,颗粒物(PM10),73,95,50,36,20,78,,126,112,21,9,3,2,0.7,0.5
2025-05-26T0000,2526A,105.8628,32.4287,广元市,监测站,细颗粒物(PM2.5),69,55,40,50,25,89,,130,116,12,8,2,3,0.5,0.4
2025-05-26T0000,3617A,105.8047,32.4166,广元市,经开区,细颗粒物(PM2.5),70,70,62,51,39,84,,130,120,26,14,9,5,0.5,0.3
2025-05-26T0000,1345A,113.2347,23.1423,广州市,广雅中学,细颗粒物(PM2.5),69,75,56,50,36,30,,111,69,56,35,4,4,0.6,0.5
2025-05-26T0000,1346A,113.2612,23.105,广州市,市五中,细颗粒物(PM2.5),63,67,42,45,31,34,,113,85,52,23,3,3,0.8,0.5
2025-05-26T0000,1348A,113.3478,23.0916,广州市,广东商学院,细颗粒物(PM2.5),53,50,43,37,29,72,,114,89,24,18,5,5,0.7,0.6
2025-05-26T0000,1349A,113.4332,23.1047,广州市,市八十六中,颗粒物(PM10),51,52,44,33,31,64,,117,80,28,23,4,3,0.8,0.7
2025-05-26T0000,1350A,113.3505,22.9483,广州市,番禺中学,,48,48,40,23,16,55,,120,90,40,26,6,6,1.3,0.8
2025-05-26T0000,1351A,113.2146,23.3916,广州市,花都师范,细颗粒物(PM2.5),53,52,47,37,29,99,,105,79,15,24,4,6,0.6,0.6
2025-05-26T0000,1352A,113.2597,23.1331,广州市,市监测站,颗粒物(PM10),63,75,51,44,31,13,,97,67,80,39,5,6,0.7,0.5
2025-05-26T0000,1353A,113.5618,23.312,广州市,九龙镇镇龙,细颗粒物(PM2.5),55,56,44,39,29,28,,92,68,32,20,5,5,0.6,0.5
2025-05-26T0000,1354A,113.2765,23.1544,广州市,麓湖,细颗粒物(PM2.5),64,61,43,46,31,4,,97,52,84,41,4,5,0.8,0.6
2025-05-26T0000,1355A,113.443,23.3035,广州市,帽峰山森林公园,,45,41,33,31,30,46,,92,59,18,14,4,5,0.7,0.6
2025-05-26T0000,2846A,113.3221,23.1322,广州市,体育西,细颗粒物(PM2.5),60,61,49,43,30,59,,112,88,37,24,4,4,0.5,0.4
2025-05-26T0000,3298A,113.5717,23.5491,广州市,从化街口,细颗粒物(PM2.5),58,55,50,41,36,63,,98,48,20,20,6,7,0.8,0.7
2025-05-26T0000,3299A,113.3472,23.3692,广州市,白云竹料,细颗粒物(PM2.5),59,56,50,42,36,86,,128,96,20,18,3,4,0.7,0.7
2025-05-26T0000,3300A,113.2981,23.237,广州市,白云嘉禾,细颗粒物(PM2.5),73,82,54,53,36,16,,101,59,65,36,7,8,0.9,0.7
2025-05-26T0000,3301A,113.4256,23.1716,广州市,黄埔科学城,细颗粒物(PM2.5),55,55,46,39,33,36,,103,58,32,18,3,4,0.6,0.5
2025-05-26T0000,3302A,113.3942,23.0483,广州市,番禺大学城,细颗粒物(PM2.5),54,53,35,38,27,61,,123,90,37,28,6,3,0.7,0.7
2025-05-26T0000,3303A,113.4922,22.8168,广州市,南沙黄阁,"颗粒物(PM10),细颗粒物(PM2.5)",52,53,50,36,33,59,,117,98,36,23,8,8,0.8,0.8
2025-05-26T0000,3304A,113.5342,22.7896,广州市,南沙街,细颗粒物(PM2.5),52,44,47,36,34,85,,116,107,21,20,4,8,0.5,0.8
2025-05-26T0000,3443A,113.2902,23.5544,广州市,花都梯面,细颗粒物(PM2.5),55,50,46,39,32,76,,97,68,13,17,5,10,0.6,0.5
2025-05-26T0000,3445A,113.7858,23.7478,广州市,从化良口,细颗粒物(PM2.5),52,43,43,36,33,74,,105,71,11,9,7,7,0.4,0.4
2025-05-26T0000,3446A,113.8051,23.2614,广州市,增城荔城,细颗粒物(PM2.5),55,51,45,39,33,73,,99,84,13,11,8,8,0.7,0.7
2025-05-26T0000,2505A,109.568,23.1478,贵港市,德智高中,,,,,,,,,,,,,,,,
2025-05-26T0000,2506A,109.6047,23.0666,贵港市,江南子站,,46,36,42,32,24,86,,95,88,10,19,2,4,0.7,0.8
2025-05-26T0000,2508A,109.5669,23.1065,贵港市,荷城子站,,49,49,48,29,22,77,,88,81,10,15,4,5,0.5,0.5
2025-05-26T0000,3405A,109.5886,23.1172,贵港市,新世纪学校,,46,46,40,31,27,78,,91,84,6,10,1,1,0.9,0.9
2025-05-26T0000,4260A,109.5933,23.0951,贵港市,中山路155-3号,,48,46,42,33,29,88,,103,95,10,15,3,5,0.7,0.8
2025-05-26T0000,1439A,106.6899,26.5998,贵阳市,马鞍山,,19,19,26,9,12,53,,83,68,10,10,3,3,0.2,0.2
2025-05-26T0000,1441A,106.6243,26.6266,贵阳市,鉴湖路,,25,14,33,7,17,80,,93,84,13,16,6,6,0.3,0.3
2025-05-26T0000,1442A,106.7487,26.6343,贵阳市,燕子冲,,35,27,33,24,28,79,,92,76,12,13,4,4,0.3,0.3
2025-05-26T0000,1443A,106.6555,26.4365,贵阳市,碧云窝,,29,29,35,12,18,66,,97,83,17,16,5,5,0.2,0.3
2025-05-26T0000,1445A,106.7109,26.6027,贵阳市,红边门,,25,24,30,14,23,78,,93,80,5,8,8,8,0.1,0.2
2025-05-26T0000,1446A,106.7164,26.5699,贵阳市,新华路,,25,19,29,9,18,79,,94,78,8,10,7,7,0.3,0.4
2025-05-26T0000,1447A,106.674,26.5424,贵阳市,太慈桥,,20,19,27,14,16,64,,93,76,19,15,4,4,0.2,0.3
2025-05-26T0000,1552A,106.805,26.3003,贵阳市,桐木岭,,,,40,,25,,,110,87,,3,,1,,0.4
2025-05-26T0000,4230A,106.6882,26.5695,贵阳市,花果园大街66号,,26,24,27,18,23,73,,87,78,11,10,3,3,0.3,0.4
2025-05-26T0000,4231A,106.6873,26.5169,贵阳市,漓江路57号,,25,22,29,17,21,70,,90,77,9,10,3,2,0.2,0.3
2025-05-26T0000,1862A,110.4144,25.3167,桂林市,电子科大尧山校区,,,,,,,,,,,,,,,,
2025-05-26T0000,1864A,110.3089,25.2708,桂林市,龙隐路小学,,45,,44,31,32,87,,130,100,7,10,8,10,0.5,0.5
2025-05-26T0000,1865A,110.2869,25.2178,桂林市,八中,,39,32,45,27,32,90,,126,102,11,13,6,8,0.6,0.7
2025-05-26T0000,3531A,110.296,25.1253,桂林市,旅游学院,,25,19,37,14,29,78,,115,86,4,10,1,2,0.3,0.4
2025-05-26T0000,4222A,110.1835,25.2444,桂林市,环湖路276号,,49,39,51,34,39,63,,101,83,14,12,5,18,0.5,0.5
2025-05-26T0000,4301A,110.2803,25.2773,桂林市,信义路13号,,42,32,48,29,34,80,,126,101,12,12,2,4,0.5,0.5
2025-05-26T0000,2674A,100.2561,34.4714,果洛藏族自治州,玛沁县大武镇,,50,50,42,19,15,65,,132,106,11,6,23,24,0.3,0.4
2025-05-26T0000,1129A,126.5422,45.755,哈尔滨市,岭北,,31,19,24,12,15,98,,124,108,15,25,14,13,0.5,0.5
2025-05-26T0000,1130A,126.561,45.8167,哈尔滨市,松北商大,,24,24,30,14,15,51,,113,89,32,27,7,7,0.4,0.4
2025-05-26T0000,1131A,126.979,45.5419,哈尔滨市,阿城会宁,,26,26,32,15,16,74,,106,86,16,20,6,8,0.3,0.4
2025-05-26T0000,1132A,126.599,45.7222,哈尔滨市,南岗学府路,,27,24,39,12,15,84,,113,96,14,27,6,7,0.4,0.5
2025-05-26T0000,1133A,126.689,45.7733,哈尔滨市,太平宏伟公园,,28,20,32,11,17,88,,110,96,17,27,5,5,0.4,0.4
2025-05-26T0000,1134A,126.635,45.7667,哈尔滨市,道外承德广场,,28,18,27,8,16,89,,108,93,16,28,6,6,0.3,0.3
2025-05-26T0000,1135A,126.685,45.7319,哈尔滨市,香坊红旗大街,,32,24,36,22,15,82,,110,95,24,31,5,7,0.6,0.6
2025-05-26T0000,1136A,126.6411,45.7258,哈尔滨市,动力和平路,,26,26,34,7,18,78,,106,92,22,28,8,8,0.4,0.5
2025-05-26T0000,1137A,126.593,45.7478,哈尔滨市,道里建国路,,28,17,30,9,17,88,,111,95,13,28,20,13,0.7,0.8
2025-05-26T0000,1138A,126.615,45.61,哈尔滨市,平房东轻厂,,28,14,35,6,16,87,,116,95,10,28,8,10,0.4,0.5
2025-05-26T0000,1139A,126.595,45.9855,哈尔滨市,呼兰师专,,24,21,24,9,14,74,,98,84,20,20,7,7,0.5,0.5
2025-05-26T0000,1140A,126.6206,45.6842,哈尔滨市,省农科院,,31,31,50,11,21,75,,107,91,23,29,10,11,0.6,0.6
2025-05-26T0000,2688A,93.5128,42.8172,哈密市,地区监测站,颗粒物(PM10),54,57,50,21,19,98,,114,108,14,10,3,5,0.0,0
2025-05-26T0000,2689A,93.4961,42.8328,哈密市,哈密师范学校,,42,42,34,16,10,100,,114,109,14,11,4,4,0.3,0.3
2025-05-26T0000,2671A,100.9048,36.9639,海北藏族自治州,海晏县西海镇,,37,29,19,18,11,117,,133,124,5,5,11,10,0.4,0.4
2025-05-26T0000,3867A,102.0738,36.5056,海东市,平安区公安北苑,,39,39,28,24,14,112,,131,124,15,6,10,8,1.5,0.7
2025-05-26T0000,1409A,110.576,19.9507,海口市,东寨港,颗粒物(PM10),57,64,30,16,10,117,,134,133,5,4,14,10,0.6,0.6
2025-05-26T0000,1410A,110.3232,20.0574,海口市,海南大学,颗粒物(PM10),53,56,40,36,21,120,,147,142,7,6,3,3,0.6,0.6
2025-05-26T0000,1411A,110.283,20.0053,海口市,秀英海南医院,细颗粒物(PM2.5),57,46,30,40,24,120,,141,138,7,6,5,5,0.5,0.4
2025-05-26T0000,1412A,110.338,19.9969,海口市,海南师范大学,细颗粒物(PM2.5),52,45,30,36,20,130,,152,149,6,6,4,4,0.5,0.5
2025-05-26T0000,1413A,110.33,20.0356,海口市,龙华路环保局宿舍,细颗粒物(PM2.5),52,48,31,36,20,127,,149,146,7,7,5,5,0.5,0.5
2025-05-26T0000,3539A,110.5111,19.9736,海口市,桂林洋子站,颗粒物(PM10),51,52,40,34,22,131,,151,150,8,6,4,4,0.4,0.4
2025-05-26T0000,2673A,100.6188,36.2866,海南藏族自治州,共和县恰卜恰镇,,41,41,28,11,11,116,,138,123,15,11,22,14,0.5,0.4
2025-05-26T0000,2676A,97.3731,37.3753,海西蒙古族藏族自治州,德令哈市,,35,22,30,10,13,110,,129,118,1,3,8,10,0.4,0.3
2025-05-26T0000,1048A,114.5302,36.6116,邯郸市,东污水处理厂,颗粒物(PM10),62,74,57,36,19,62,,150,117,48,29,7,8,0.6,0.7
2025-05-26T0000,1049A,114.4918,36.5713,邯郸市,矿院,颗粒物(PM10),60,70,50,39,22,76,,139,113,25,27,12,9,0.6,0.7
2025-05-26T0000,1050A,114.484,36.6133,邯郸市,丛台公园,颗粒物(PM10),64,78,54,44,26,79,,140,118,25,22,6,6,0.6,0.6
2025-05-26T0000,3458A,114.7895,36.5593,邯郸市,香泉濮院小区,颗粒物(PM10),78,106,66,46,21,96,,150,129,19,17,5,5,0.6,0.5
2025-05-26T0000,3579A,114.50634,36.77178,邯郸市,永年区实验高中,颗粒物(PM10),71,92,69,50,34,47,,144,113,50,25,4,8,0.6,0.8
2025-05-26T0000,3580A,114.20016,36.44293,邯郸市,峰峰矿区临水派出所,颗粒物(PM10),60,70,40,37,18,68,,155,111,33,17,10,9,0.6,0.6
2025-05-26T0000,2634A,106.9893,33.1842,汉中市,汉川机床厂子校,细颗粒物(PM2.5),65,,42,47,32,106,,154,130,11,8,8,7,0.7,0.6
2025-05-26T0000,2635A,107.0154,33.0706,汉中市,市监测站,颗粒物(PM10),57,64,50,31,26,94,,140,115,12,8,7,6,0.6,0.4
2025-05-26T0000,2636A,107.0089,33.1138,汉中市,鑫源开发区,细颗粒物(PM2.5),57,60,45,40,24,94,,138,115,15,9,7,6,0.7,0.5
2025-05-26T0000,2637A,107.007,33.0323,汉中市,南郑大河坎水厂,细颗粒物(PM2.5),55,53,52,39,39,84,,138,112,15,10,6,6,0.6,0.6
2025-05-26T0000,1223A,120.2072,30.2111,杭州市,滨江,颗粒物(PM10),67,83,67,40,40,141,,194,166,30,28,10,7,1.0,1
2025-05-26T0000,1224A,120.0633,30.2747,杭州市,西溪,细颗粒物(PM2.5),60,52,53,43,43,56,,166,116,35,18,4,4,0.5,0.5
2025-05-26T0000,1226A,120.3417,30.3150,杭州市,下沙,颗粒物(PM10),71,91,64,51,38,128,,193,161,32,32,8,8,0.8,0.7
2025-05-26T0000,1227A,120.1269,30.2456,杭州市,卧龙桥,细颗粒物(PM2.5),53,49,55,37,43,65,,176,100,14,13,8,9,0.6,0.7
2025-05-26T0000,1228A,120.1903,30.2692,杭州市,浙江农大,细颗粒物(PM2.5),100,98,60,75,47,75,,173,127,72,34,11,10,0.7,0.6
2025-05-26T0000,1230A,120.1197,30.3119,杭州市,和睦小学,颗粒物(PM10),68,86,59,46,41,116,,196,162,34,21,9,8,0.6,0.5
2025-05-26T0000,1231A,120.3019,30.4183,杭州市,临平镇,细颗粒物(PM2.5),92,99,72,68,39,114,,191,158,36,23,7,7,0.9,0.7
2025-05-26T0000,1232A,120.2753,30.1839,杭州市,城厢镇,细颗粒物(PM2.5),78,72,64,57,47,145,,198,158,32,32,9,8,0.6,0.6
2025-05-26T0000,1233A,120.0883,30.1808,杭州市,云栖,,50,50,59,30,35,70,,176,105,27,23,6,6,0.4,0.5
2025-05-26T0000,3557A,119.9464,30.0494,杭州市,镇二中,细颗粒物(PM2.5),65,54,55,47,44,72,,183,132,41,29,3,4,0.7,0.7
2025-05-26T0000,3558A,119.7183,30.2367,杭州市,市府大楼,颗粒物(PM10),66,81,54,39,40,93,,182,133,26,23,8,8,0.8,0.7
2025-05-26T0000,3656A,120.1556,30.2864,杭州市,消防大队,细颗粒物(PM2.5),85,80,62,63,44,109,,196,155,45,29,6,5,0.8,0.7
2025-05-26T0000,1270A,117.1959,31.7848,合肥市,明珠广场,细颗粒物(PM2.5),62,68,68,44,44,143,,183,171,24,27,6,5,0.5,0.5
2025-05-26T0000,1271A,117.3072,31.8764,合肥市,三里街,"颗粒物(PM10),细颗粒物(PM2.5)",58,66,64,41,40,123,,165,152,36,22,6,6,0.7,0.6
2025-05-26T0000,1272A,117.2588,31.8707,合肥市,琥珀山庄,细颗粒物(PM2.5),58,53,61,41,41,113,,173,161,31,21,5,6,0.7,0.6
2025-05-26T0000,1273A,117.1604,31.9052,合肥市,董铺水库,颗粒物(PM10),53,56,64,36,37,133,,177,168,13,11,2,2,0.5,0.4
2025-05-26T0000,1274A,117.25,31.8571,合肥市,长江中路,细颗粒物(PM2.5),58,63,64,41,44,146,,171,168,24,20,6,6,0.6,0.6
2025-05-26T0000,1275A,117.266,31.9436,合肥市,庐阳区,细颗粒物(PM2.5),64,70,67,46,43,134,,176,169,27,17,6,6,0.5,0.3
2025-05-26T0000,1276A,117.3453,31.8616,合肥市,瑶海区,,,70,68,49,40,,,160,151,28,23,6,6,0.6,0.5
2025-05-26T0000,1277A,117.3027,31.7964,合肥市,包河区,颗粒物(PM10),56,61,60,39,42,148,,174,171,21,29,6,8,0.6,0.5
2025-05-26T0000,1278A,117.2776,31.7385,合肥市,滨湖新区,细颗粒物(PM2.5),62,58,67,44,50,141,,177,171,17,26,5,5,0.6,0.6
2025-05-26T0000,1279A,117.1318,31.8403,合肥市,高新区,颗粒物(PM10),63,75,66,44,42,142,,174,169,24,20,6,5,0.6,0.5
2025-05-26T0000,3464A,117.3803,31.9147,合肥市,高教基地,颗粒物(PM10),54,58,67,34,40,136,,192,164,22,20,6,6,0.8,0.5
2025-05-26T0000,3614A,79.924,37.0877,和田地区,地区环保局,颗粒物(PM10),454,554,539,109,136,62,,78,74,17,14,1,2,0.5,0.6
2025-05-26T0000,3615A,79.9131,37.113,和田地区,市环保局,颗粒物(PM10),286,410,472,89,127,55,,72,67,7,8,1,2,0.2,0.2
2025-05-26T0000,2516A,108.2011,24.715,河池市,东仁乐园,,,,,,,,,,,,,,,,
2025-05-26T0000,2517A,108.0497,24.6947,河池市,市环保站,,30,26,31,21,23,58,,101,76,8,8,7,9,0.5,0.5
2025-05-26T0000,2518A,108.0983,24.6989,河池市,市疾控中心,,32,23,34,22,23,59,,103,80,13,14,6,7,0.6,0.6
2025-05-26T0000,1696A,114.6778,23.7569,河源市,源西,,43,36,45,30,34,61,,106,90,23,15,4,5,0.6,0.6
2025-05-26T0000,1697A,114.6944,23.7586,河源市,东埔,,49,38,48,34,35,87,,112,98,10,13,5,5,0.8,0.7
2025-05-26T0000,1698A,114.6892,23.7233,河源市,老城,,43,37,48,30,36,82,,98,89,10,12,10,5,0.6,0.6
2025-05-26T0000,1718A,115.4208,35.2464,菏泽市,气象局,颗粒物(PM10),67,84,65,40,35,128,,182,150,21,21,4,4,0.4,0.4
2025-05-26T0000,3374A,115.5564,35.0891,菏泽市,定陶老年大学,颗粒物(PM10),54,58,55,31,30,112,,153,135,15,21,11,5,0.4,0.4
2025-05-26T0000,4184A,115.4797,35.24401,菏泽市,永昌路1号,细颗粒物(PM2.5),69,67,56,50,41,121,,171,143,23,21,6,6,0.3,0.3
2025-05-26T0000,4193A,115.4715,35.2800,菏泽市,长城路999号,颗粒物(PM10),62,74,52,35,26,122,,171,150,28,20,12,13,0.3,0.2
2025-05-26T0000,2514A,111.5264,24.4172,贺州市,环保小区,细颗粒物(PM2.5),63,,40,45,29,59,,96,83,13,12,8,7,0.5,0.6
2025-05-26T0000,2515A,111.5608,24.4078,贺州市,政协大楼,,33,26,38,23,27,44,,94,75,18,13,9,8,0.8,0.9
2025-05-26T0000,3534A,111.4744,24.4553,贺州市,西湾,,33,33,41,22,26,58,,88,66,10,12,5,5,0.7,0.7
2025-05-26T0000,2385A,114.17,35.9019,鹤壁市,市监测站,颗粒物(PM10),79,107,65,54,36,12,,132,70,54,27,3,5,0.7,0.7
2025-05-26T0000,2386A,114.2956,35.7511,鹤壁市,市交警支队,细颗粒物(PM2.5),65,77,69,47,37,42,,121,81,50,33,14,12,0.7,0.6
2025-05-26T0000,2387A,114.2878,35.7306,鹤壁市,迎宾馆,颗粒物(PM10),68,86,73,47,38,41,,124,83,45,29,6,8,0.7,0.6
2025-05-26T0000,3474A,114.2617,35.6822,鹤壁市,大新区,细颗粒物(PM2.5),82,67,63,60,40,30,,119,73,53,37,7,10,0.6,0.5
2025-05-26T0000,3596A,114.1572,35.9603,鹤壁市,南山宾馆,细颗粒物(PM2.5),87,116,75,64,43,28,,137,79,50,25,5,7,0.9,0.8
2025-05-26T0000,2244A,130.2537,47.3416,鹤岗市,哈啤分公司,,33,28,18,23,20,42,,84,67,11,6,12,12,0.4,0.3
2025-05-26T0000,2245A,130.2684,47.3086,鹤岗市,斯达机电,,43,30,23,30,17,52,,84,70,12,8,12,12,0.3,0.3
2025-05-26T0000,2246A,130.3114,47.3388,鹤岗市,东山纸板厂,颗粒物(PM10),65,79,38,23,12,19,,86,50,21,12,14,14,0.7,0.5
2025-05-26T0000,2247A,130.1097,47.3382,鹤岗市,五号水库,,,,,,,,,,,,,,,,
2025-05-26T0000,2263A,127.4833,50.2524,黑河市,交通局,,30,30,24,15,14,52,,76,61,5,7,6,7,0.2,0.1
2025-05-26T0000,2264A,127.5144,50.2341,黑河市,环保局,,37,37,26,17,12,64,,95,80,10,8,4,5,0.2,0.2
2025-05-26T0000,2265A,127.5291,50.2472,黑河市,大黑河岛,,,47,22,,,76,,91,80,10,5,3,3,0.3,0.2
2025-05-26T0000,1074A,115.6838,37.7541,衡水市,电机北厂,颗粒物(PM10),55,59,48,30,24,134,,164,151,16,14,14,14,0.4,0.5
2025-05-26T0000,1075A,115.6303,37.7316,衡水市,市监测站,颗粒物(PM10),57,64,49,33,19,116,,163,143,17,13,9,11,0.4,0.4
2025-05-26T0000,3188A,115.6683,37.7217,衡水市,市城管局,,49,48,51,34,24,122,,163,141,18,16,9,7,0.5,0.5
2025-05-26T0000,3459A,115.5989,37.5491,衡水市,地表水厂,颗粒物(PM10),58,66,64,23,24,69,,154,107,47,25,9,10,0.5,0.4
2025-05-26T0000,2456A,112.5003,26.9167,衡阳市,原169医院,,49,42,46,34,35,83,,125,105,8,9,6,5,0.7,0.7
2025-05-26T0000,2457A,112.6194,26.9258,衡阳市,衡阳化工总厂,细颗粒物(PM2.5),57,48,61,40,41,87,,122,103,10,12,5,5,0.6,0.7
2025-05-26T0000,2458A,112.6211,26.8956,衡阳市,珠晖区环保局,颗粒物(PM10),51,52,51,33,34,93,,133,108,16,15,9,8,1.0,0.8
2025-05-26T0000,2459A,112.6197,26.8733,衡阳市,市委党校,颗粒物(PM10),51,51,52,33,31,75,,127,99,19,14,5,5,0.7,0.8
2025-05-26T0000,2460A,112.6006,26.8919,衡阳市,市监测站,细颗粒物(PM2.5),55,43,52,39,40,91,,120,98,12,13,8,8,0.5,0.5
2025-05-26T0000,2461A,112.5664,26.9056,衡阳市,真空机电公司,,47,47,54,32,35,90,,119,100,7,11,5,5,0.6,0.6
2025-05-26T0000,3399A,112.6703,26.882,衡阳市,师范学院,颗粒物(PM10),54,57,57,36,37,69,,128,102,18,14,8,8,0.8,0.8
2025-05-26T0000,2608A,103.3772,23.3993,红河哈尼族彝族自治州,污水处理厂,,39,39,31,25,22,84,,84,81,12,8,14,11,0.5,0.3
2025-05-26T0000,2609A,103.3861,23.35,红河哈尼族彝族自治州,监测站,,29,29,34,17,20,68,,79,76,12,9,53,13,0.5,0.3
2025-05-26T0000,3038A,103.3758,23.368,红河哈尼族彝族自治州,州图书馆,,26,22,30,18,21,67,,83,77,12,9,40,13,0.4,0.3
2025-05-26T0000,1090A,111.6507,40.7517,呼和浩特市,呼市一监,,,,,,,,,,,,,,,,
2025-05-26T0000,1091A,111.6572,40.8033,呼和浩特市,小召,,39,39,36,13,23,55,,113,85,37,27,7,9,0.9,0.8
2025-05-26T0000,1094A,111.7516,40.8369,呼和浩特市,如意水处理厂,,21,15,31,7,20,67,,112,91,26,23,5,6,0.2,0.3
2025-05-26T0000,1095A,111.7276,40.8062,呼和浩特市,二十九中,,25,21,37,10,23,77,,112,93,18,19,4,5,0.6,0.6
2025-05-26T0000,1096A,111.5512,40.7866,呼和浩特市,工大金川校区,,22,21,35,8,25,70,,116,90,30,33,5,6,0.5,0.6
2025-05-26T0000,1097A,111.717,40.7612,呼和浩特市,化肥厂生活区,,21,18,39,11,26,66,,118,90,29,28,6,7,0.4,0.5
2025-05-26T0000,3698A,111.5968,40.8178,呼和浩特市,红旗小学,,25,19,33,8,24,78,,120,102,31,30,3,5,0.4,0.5
2025-05-26T0000,3699A,111.6518,40.8389,呼和浩特市,海东办,,22,22,33,9,24,61,,104,81,34,34,8,9,0.5,0.5
2025-05-26T0000,2192A,119.7594,49.2261,呼伦贝尔市,区环保局,细颗粒物(PM2.5),134,141,51,102,38,50,,101,72,39,17,8,6,0.6,0.3
2025-05-26T0000,3061A,119.7512,49.1577,呼伦贝尔市,国华电力东,细颗粒物(PM2.5),113,116,44,85,29,83,,107,99,14,8,2,3,0.6,0.3
2025-05-26T0000,1250A,120.0751,30.8669,湖州市,城西水厂,细颗粒物(PM2.5),64,73,70,46,44,133,,198,171,32,33,8,8,0.6,0.6
2025-05-26T0000,2873A,120.0830,30.8929,湖州市,仁皇山新区,细颗粒物(PM2.5),99,115,63,74,45,130,,196,170,29,34,11,7,0.8,0.8
2025-05-26T0000,2907A,120.1844,30.8596,湖州市,吴兴区站,细颗粒物(PM2.5),58,59,59,41,43,117,,192,166,31,31,7,9,0.5,0.5
2025-05-26T0000,3562A,120.4148,30.8538,湖州市,南浔区站,颗粒物(PM10),52,54,59,31,38,128,,208,173,17,23,4,6,0.5,0.6
2025-05-26T0000,1607A,120.9049,40.7211,葫芦岛市,龙港区,,29,29,42,18,24,62,,144,118,49,28,9,18,0.4,0.4
2025-05-26T0000,1608A,120.8392,40.7514,葫芦岛市,化工街,二氧化氮,55,39,43,22,21,4,,128,74,109,38,8,16,0.5,0.5
2025-05-26T0000,1609A,120.8341,40.7073,葫芦岛市,新区,,48,32,33,22,22,22,,138,106,96,30,7,13,0.4,0.5
2025-05-26T0000,1610A,120.8695,40.7677,葫芦岛市,东城区,颗粒物(PM10),69,88,41,34,24,2,,131,81,98,37,117,20,0.6,0.6
2025-05-26T0000,2482A,109.5981,27.5721,怀化市,林科所,,34,34,43,22,30,68,,98,79,10,10,4,4,0.4,0.5
2025-05-26T0000,2483A,109.9453,27.5444,怀化市,河西地税局,,38,38,40,22,31,50,,97,70,14,10,3,3,0.2,0.4
2025-05-26T0000,2484A,109.9781,27.5342,怀化市,市四医院,颗粒物(PM10),53,55,54,35,40,53,,107,78,13,11,6,4,0.7,0.7
2025-05-26T0000,2485A,109.9972,27.5578,怀化市,监测楼,,46,46,51,30,39,59,,108,82,10,9,4,3,0.3,0.3
2025-05-26T0000,2486A,110.0394,27.583,怀化市,市委党校,,40,,43,28,36,53,,101,75,6,7,6,5,0.7,0.7
2025-05-26T0000,1210A,119.036,33.5981,淮安市,钵池山,,48,46,51,33,34,103,,176,156,31,21,9,8,0.7,0.7
2025-05-26T0000,1211A,119.007,33.575,淮安市,北京南路,颗粒物(PM10),53,56,56,32,34,106,,176,158,27,21,9,9,0.7,0.8
2025-05-26T0000,1212A,118.989,33.6067,淮安市,市监测站,细颗粒物(PM2.5),52,51,52,36,36,104,,167,154,28,18,14,10,0.6,0.5
2025-05-26T0000,1213A,119.135,33.5039,淮安市,楚州区监测站,细颗粒物(PM2.5),54,49,72,38,43,70,,160,118,34,27,8,9,0.8,1
2025-05-26T0000,3426A,118.8755,33.2894,淮安市,新华书店,细颗粒物(PM2.5),62,55,43,44,31,112,,166,153,35,14,10,9,0.9,0.8
2025-05-26T0000,4206A,119.0288,33.6319,淮安市,承德北路606号,颗粒物(PM10),54,58,59,31,35,104,,171,151,29,19,9,8,0.5,0.5
2025-05-26T0000,2282A,116.8004,33.975,淮北市,监测站,"颗粒物(PM10),细颗粒物(PM2.5)",58,66,60,41,28,136,,171,157,16,11,8,7,0.8,0.7
2025-05-26T0000,2283A,116.8091,33.9007,淮北市,烈山区政府,细颗粒物(PM2.5),78,101,56,57,36,84,,172,134,46,24,8,7,0.9,0.8
2025-05-26T0000,3330A,116.8873,33.9836,淮北市,杜集区检察院,颗粒物(PM10),66,81,68,44,36,93,,175,143,16,15,8,9,0.9,0.7
2025-05-26T0000,4017A,116.7923,33.9535,淮北市,市博物馆,细颗粒物(PM2.5),65,67,49,47,42,120,,178,160,29,19,9,8,0.7,0.6
2025-05-26T0000,2277A,116.8305,32.7727,淮南市,潘集区政府,细颗粒物(PM2.5),80,92,80,59,46,138,,179,150,19,25,4,5,0.5,0.4
2025-05-26T0000,2279A,116.8569,32.5951,淮南市,谢家集区政府,细颗粒物(PM2.5),74,76,63,54,37,113,,174,151,28,19,6,8,0.4,0.4
2025-05-26T0000,2280A,116.8281,32.633,淮南市,八公山区政府,细颗粒物(PM2.5),88,103,70,65,36,126,,172,155,18,14,5,7,0.4,0.3
2025-05-26T0000,2281A,116.6325,32.6201,淮南市,焦岗湖风景区管理处,,,,,,,,,,,,,,,,
2025-05-26T0000,2894A,117.0566,32.6531,淮南市,经济技术开发区消防队,细颗粒物(PM2.5),113,103,73,85,52,136,,182,166,21,16,7,7,0.6,0.4
2025-05-26T0000,3329A,117.0108,32.5893,淮南市,山南新区,细颗粒物(PM2.5),87,99,74,64,45,154,,189,172,17,15,9,9,0.6,0.4
2025-05-26T0000,4209A,117.0031,32.6445,淮南市,国庆中路369号,细颗粒物(PM2.5),73,86,79,53,47,148,,180,164,13,17,4,6,0.8,0.7
2025-05-26T0000,2446A,114.9028,30.4742,黄冈市,职工中心,细颗粒物(PM2.5),64,54,43,46,35,126,,190,170,10,6,11,6,0.7,0.6
2025-05-26T0000,2929A,114.8858,30.4519,黄冈市,红卫路,细颗粒物(PM2.5),65,55,43,47,40,119,,191,158,11,6,3,2,0.7,0.6
2025-05-26T0000,3398A,114.9136,30.4445,黄冈市,市林业局,细颗粒物(PM2.5),62,59,50,44,36,115,,185,154,15,10,10,8,1.0,0.9
2025-05-26T0000,2672A,102.0199,35.5102,黄南藏族自治州,同仁县隆务镇,,34,34,33,11,11,108,,126,119,2,4,4,4,0.2,0.1
2025-05-26T0000,2295A,118.2903,29.6963,黄山市,延安路89号,细颗粒物(PM2.5),57,42,48,40,35,37,,131,79,18,11,5,5,0.4,0.4
2025-05-26T0000,2297A,118.1371,30.2756,黄山市,黄山区政府5号楼,细颗粒物(PM2.5),60,,50,43,35,34,,140,78,7,7,3,4,0.3,0.4
2025-05-26T0000,4210A,118.3354,29.7203,黄山市,滨江东路7-2号,颗粒物(PM10),52,53,52,35,37,41,,130,79,12,9,4,5,0.4,0.3
2025-05-26T0000,2423A,115.0601,30.2313,黄石市,沈家营,,47,47,42,31,30,132,,158,145,4,10,7,7,0.7,0.7
2025-05-26T0000,2426A,114.8988,30.2019,黄石市,铁山,"颗粒物(PM10),细颗粒物(PM2.5)",52,54,46,36,31,94,,164,129,13,12,4,4,0.2,0.8
2025-05-26T0000,2427A,115.0307,30.2092,黄石市,团城山,颗粒物(PM10),51,52,45,33,27,139,,171,160,9,7,6,7,0.5,0.5
2025-05-26T0000,3149A,115.0235,30.1578,黄石市,笔架山北路,,46,44,34,32,25,126,,158,143,20,15,8,8,0.8,0.8
2025-05-26T0000,4185A,115.0780,30.21118,黄石市,磁湖东路29号,细颗粒物(PM2.5),59,58,46,42,36,143,,164,158,4,10,7,7,1.5,0.9
2025-05-26T0000,1392A,114.4183,23.0528,惠州市,河南岸金山湖子站,,38,37,44,26,32,68,,92,80,12,12,8,9,0.6,0.7
2025-05-26T0000,1393A,114.4053,23.0822,惠州市,下埔横江三路子站,,35,34,48,24,34,79,,96,87,12,14,6,6,0.3,0.3
2025-05-26T0000,1394A,114.4103,23.1142,惠州市,江北云山西路子站,,32,31,48,22,36,80,,95,86,9,11,5,8,0.4,0.5
2025-05-26T0000,1395A,114.4645,22.7833,惠州市,惠阳区承修路船湖子站,,31,31,47,20,30,77,,82,80,14,14,13,8,0.5,0.6
2025-05-26T0000,1396A,114.5317,22.7422,惠州市,大亚湾管委会子站,,30,21,38,14,26,93,,96,95,20,15,8,8,0.4,0.5
2025-05-26T0000,3314A,114.4338,22.8134,惠州市,惠阳秋长,,31,29,44,16,32,98,,102,99,7,8,11,11,0.5,0.6
2025-05-26T0000,3452A,114.6517,22.775,惠州市,大亚湾霞涌,,28,28,34,15,25,87,,94,94,8,9,6,7,0.4,0.5
2025-05-26T0000,2240A,130.9762,45.3001,鸡西市,环保局,,39,39,20,19,11,31,,78,52,21,16,5,5,0.5,0.4
2025-05-26T0000,2243A,130.9429,45.3039,鸡西市,第一中学,,28,28,18,17,11,38,,81,64,14,9,7,6,0.2,0.2
2025-05-26T0000,3707A,131.0207,45.3073,鸡西市,欧美日汽修厂,,41,41,21,23,15,19,,76,47,21,13,6,5,0.5,0.3
2025-05-26T0000,3709A,130.9967,45.3106,鸡西市,市政设施管理处,,49,49,21,22,12,13,,73,39,38,20,5,5,0.6,0.5
2025-05-26T0000,2367A,114.9754,27.0803,吉安市,红声器材厂,颗粒物(PM10),54,58,54,36,35,58,,118,93,17,14,11,13,0.7,0.6
2025-05-26T0000,2368A,114.9658,27.0999,吉安市,市森林工业局,细颗粒物(PM2.5),57,53,51,40,38,71,,110,92,13,12,12,13,0.5,0.5
2025-05-26T0000,2369A,114.99,27.1312,吉安市,市环境监测站,,29,24,50,20,35,73,,118,105,9,8,18,21,0.7,0.7
2025-05-26T0000,2370A,115.0093,27.0968,吉安市,青原区法院,细颗粒物(PM2.5),58,50,57,41,41,50,,120,83,18,14,7,9,0.5,0.5
2025-05-26T0000,1772A,126.54,43.8622,吉林市,哈达湾,,37,37,37,18,20,79,,118,87,16,20,8,12,0.3,0.4
2025-05-26T0000,1773A,126.5844,43.8358,吉林市,东局子,,30,28,30,21,20,69,,116,86,18,20,8,6,0.7,0.7
2025-05-26T0000,1774A,126.5052,43.8245,吉林市,电力学院,,31,31,33,18,21,77,,115,72,16,18,8,8,0.4,0.4
2025-05-26T0000,1775A,126.6133,43.8972,吉林市,江北,,31,31,32,16,15,70,,111,80,15,16,7,8,0.4,0.4
2025-05-26T0000,1776A,126.555,43.8306,吉林市,江南公园,,33,33,30,18,19,69,,114,82,17,19,8,7,0.3,0.4
2025-05-26T0000,1778A,126.7061,43.7133,吉林市,丰满,,,,,,,,,,,,,,,,
2025-05-26T0000,2868A,126.4739,43.953,吉林市,九站,,36,36,41,20,24,70,,111,84,30,27,10,14,0.4,0.4
2025-05-26T0000,1299A,116.9862,36.6114,济南市,科干所,,50,41,32,20,17,160,,175,171,11,10,4,5,0.1,0.1
2025-05-26T0000,1300A,116.9376,36.665,济南市,农科所,,39,39,49,17,15,116,,164,143,20,19,7,7,0.2,0.2
2025-05-26T0000,1301A,117.1265,36.6734,济南市,开发区,,42,34,29,22,20,134,,165,160,16,8,7,7,0.6,0.6
2025-05-26T0000,1303A,117.0624,36.6868,济南市,省种子仓库,颗粒物(PM10),51,51,42,22,17,130,,173,158,32,18,5,5,0.4,0.4
2025-05-26T0000,1304A,116.9489,36.6447,济南市,机床二厂,颗粒物(PM10),63,76,60,29,20,64,,165,138,76,34,5,4,0.5,0.5
2025-05-26T0000,1305A,117.0495,36.663,济南市,市监测站,,43,42,38,20,17,137,,161,152,15,14,8,9,0.5,0.5
2025-05-26T0000,1306A,116.7675,36.5484,济南市,长清党校,,45,39,35,17,20,142,,171,162,15,15,6,6,0.5,0.4
2025-05-26T0000,1616A,117.6795,36.229,济南市,技术学院,颗粒物(PM10),56,61,46,29,28,37,,172,134,99,38,11,13,1.4,1
2025-05-26T0000,1961A,117.532,36.6868,济南市,东山小学,,44,44,36,17,16,130,,166,156,18,15,5,5,0.6,0.4
2025-05-26T0000,3059A,117.7161,36.2049,济南市,泰兴公司,二氧化氮,60,56,48,31,25,2,,171,111,119,45,7,8,0.5,0.4
2025-05-26T0000,3064A,117.6867,36.2171,济南市,莱芜战役纪念馆,颗粒物(PM10),60,70,51,36,28,43,,178,138,84,35,6,8,1.1,1.1
2025-05-26T0000,3494A,117.1673,36.9782,济南市,济阳区政府,颗粒物(PM10),70,90,53,39,22,77,,181,149,47,24,7,9,0.6,0.4
2025-05-26T0000,3495A,117.1171,36.63,济南市,锦屏中学,,42,29,26,17,13,133,,166,156,10,10,8,8,0.5,0.5
2025-05-26T0000,3682A,116.9814,36.6819,济南市,济南四建,,45,39,42,29,27,144,,182,170,21,17,5,5,0.5,0.4
2025-05-26T0000,1653A,116.6251,35.4302,济宁市,火炬城,,44,44,42,29,24,112,,163,143,13,16,5,6,0.4,0.3
2025-05-26T0000,1655A,116.5491,35.4042,济宁市,电化厂,颗粒物(PM10),51,52,52,22,25,110,,155,128,19,20,1,3,0.4,0.4
2025-05-26T0000,3500A,116.5814,35.3707,济宁市,北湖一中,,49,49,60,25,29,116,,169,148,15,28,4,7,0.2,0.5
2025-05-26T0000,3501A,116.8249,35.5593,济宁市,服务中心,颗粒物(PM10),55,60,46,19,22,95,,165,138,32,24,1,2,0.3,0.3
2025-05-26T0000,3678A,116.5907,35.4054,济宁市,市第七中学,,42,39,56,29,30,107,,158,137,14,11,5,6,0.4,0.3
2025-05-26T0000,2255A,130.2751,46.8028,佳木斯市,佳纺,,23,23,17,16,7,23,,85,52,30,11,3,3,0.3,0.3
2025-05-26T0000,2256A,130.3995,46.8307,佳木斯市,发电厂,,40,40,15,22,8,11,,84,51,44,12,4,4,0.5,0.4
2025-05-26T0000,2257A,130.3258,46.7975,佳木斯市,环保局,,29,29,18,17,8,38,,78,54,20,13,2,2,0.3,0.3
2025-05-26T0000,2258A,130.3648,46.8032,佳木斯市,十一中,,44,44,14,23,8,7,,80,45,48,14,4,3,0.6,0.4
2025-05-26T0000,2259A,130.3794,46.7588,佳木斯市,四丰,,,18,13,9,7,,,,,11,10,1,1,0.4,0.4
2025-05-26T0000,1252A,120.7436,30.778,嘉兴市,清河小学,,42,42,51,26,29,105,,171,139,18,25,7,7,0.6,0.7
2025-05-26T0000,1253A,120.726,30.7478,嘉兴市,嘉兴学院,,44,44,55,26,33,113,,184,150,18,32,5,7,0.6,0.7
2025-05-26T0000,2872A,120.7846,30.7525,嘉兴市,南湖区残联,,43,36,48,30,33,112,,188,152,15,23,6,7,0.4,0.5
2025-05-26T0000,3407A,120.6916,30.7739,嘉兴市,秀洲住建,,45,45,53,19,32,112,,191,154,17,28,7,7,0.2,0.3
2025-05-26T0000,1945A,98.2908,39.7711,嘉峪关市,气象局,,34,34,89,9,21,97,,133,115,20,13,1,3,0.2,0.1
2025-05-26T0000,2884A,98.2672,39.7978,嘉峪关市,酒钢宾馆,,44,44,92,27,47,90,,124,112,30,11,31,12,2.0,0.7
2025-05-26T0000,3248A,98.2643,39.7724,嘉峪关市,雄关区,,,46,78,24,23,83,,128,113,28,16,9,8,,0.5
2025-05-26T0000,1383A,113.1064,22.6058,江门市,北街,,42,42,39,29,27,76,,127,106,26,25,5,5,0.5,0.4
2025-05-26T0000,1384A,113.0731,22.5835,江门市,西区,,43,43,40,24,23,67,,122,102,25,20,8,8,0.5,0.5
2025-05-26T0000,1385A,113.0219,22.5311,江门市,圭峰西,,40,37,38,28,27,73,,113,96,18,17,6,6,0.5,0.5
2025-05-26T0000,1386A,113.0828,22.5947,江门市,东湖,,43,43,40,26,26,64,,115,96,28,22,8,8,0.8,0.7
2025-05-26T0000,3311A,113.1075,22.5647,江门市,江海富民,,40,40,42,28,22,69,,119,97,27,23,11,10,0.7,0.7
2025-05-26T0000,3449A,113.05,22.4667,江门市,新会银湖,,49,48,43,34,30,57,,106,83,30,23,3,3,0.5,0.5
2025-05-26T0000,1830A,113.1992,35.2590,焦作市,影视城,,,,30,,16,,,,,,6,,10,,0.5
2025-05-26T0000,3169A,113.2725,35.2067,焦作市,太极体育中心,颗粒物(PM10),72,94,70,51,38,37,,90,72,59,29,9,9,0.6,0.4
2025-05-26T0000,3335A,113.3137,35.2641,焦作市,马村街道办,颗粒物(PM10),59,68,65,36,32,62,,113,80,32,26,10,11,0.7,0.7
2025-05-26T0000,3336A,113.2465,35.2373,焦作市,焦作技师学院,颗粒物(PM10),54,57,58,31,30,63,,102,71,24,18,6,8,0.5,0.4
2025-05-26T0000,3477A,113.1656,35.2539,焦作市,中站许衡医院,,45,45,50,29,31,107,,109,95,15,30,7,9,0.5,0.5
2025-05-26T0000,3981A,113.2449,35.1803,焦作市,原李万街道办,颗粒物(PM10),89,127,71,58,33,6,,82,63,83,34,17,13,0.7,0.6
2025-05-26T0000,4264A,113.2340,35.2190,焦作市,新安路1731号,颗粒物(PM10),64,77,66,35,32,49,,93,65,41,26,7,10,0.6,0.5
2025-05-26T0000,1708A,116.3701,23.5345,揭阳市,新兴,,35,28,32,24,22,46,,80,67,21,9,8,5,0.6,0.6
2025-05-26T0000,1709A,116.3264,23.5443,揭阳市,西马,,28,28,31,18,25,56,,75,62,15,12,7,7,0.6,0.7
2025-05-26T0000,1710A,116.3611,23.5626,揭阳市,东兴,,23,23,31,14,23,59,,72,68,13,13,4,3,0.7,0.7
2025-05-26T0000,1711A,116.4151,23.5294,揭阳市,渔湖,,31,31,25,10,17,50,,77,75,26,15,11,4,0.7,0.7
2025-05-26T0000,3320A,116.403,23.5699,揭阳市,曲溪,,27,27,23,9,18,64,,84,80,15,9,4,3,0.5,0.4
2025-05-26T0000,1944A,102.1692,38.5167,金昌市,天庆家园,颗粒物(PM10),51,51,32,21,12,52,,136,108,40,11,9,9,1.1,0.7
2025-05-26T0000,4022A,102.1647,38.5371,金昌市,金川区人防中心,颗粒物(PM10),54,57,35,20,13,46,,144,106,33,11,10,8,0.7,0.5
2025-05-26T0000,4239A,102.1930,38.5319,金昌市,长春路96号,颗粒物(PM10),54,58,34,26,12,89,,138,121,23,6,9,11,0.7,0.5
2025-05-26T0000,1262A,119.647,29.077,金华市,十五中,细颗粒物(PM2.5),74,77,66,54,41,81,,183,136,35,24,2,2,0.8,0.7
2025-05-26T0000,1263A,119.686,29.1029,金华市,监测站,细颗粒物(PM2.5),79,81,66,58,46,70,,202,148,34,23,2,3,0.7,0.6
2025-05-26T0000,3659A,119.656,29.1131,金华市,气象局,细颗粒物(PM2.5),69,82,64,50,40,68,,167,121,39,32,3,3,0.7,0.6
2025-05-26T0000,1767A,121.1115,41.0879,锦州市,南山,颗粒物(PM10),98,145,55,32,28,47,,130,103,38,20,35,11,0.9,0.7
2025-05-26T0000,1768A,121.0604,40.8428,锦州市,开发区,二氧化氮,63,61,41,27,25,2,,142,82,125,38,8,11,0.6,0.6
2025-05-26T0000,1769A,121.1836,41.1119,锦州市,百股街道,,42,,44,29,21,77,,132,108,20,19,28,14,1.1,0.8
2025-05-26T0000,1770A,121.1178,41.1222,锦州市,天安街道,,39,39,39,25,25,79,,132,102,29,25,22,12,0.7,0.7
2025-05-26T0000,1771A,121.1303,41.1386,锦州市,北湖公园,,40,40,45,24,23,72,,133,110,26,16,30,13,0.8,0.7
2025-05-26T0000,2160A,112.85,35.5051,晋城市,自来水公司,颗粒物(PM10),59,68,55,22,24,45,,142,112,52,25,3,3,0.3,0.3
2025-05-26T0000,2161A,112.8318,35.4936,晋城市,白云商贸,颗粒物(PM10),56,61,52,12,15,52,,134,107,43,24,6,7,0.5,0.6
2025-05-26T0000,2162A,112.8508,35.4887,晋城市,市环保局,颗粒物(PM10),61,71,56,22,22,43,,123,100,32,23,5,5,0.5,0.6
2025-05-26T0000,2163A,112.8676,35.4897,晋城市,技术学院,颗粒物(PM10),56,62,62,12,18,66,,146,123,46,24,7,8,0.7,0.7
2025-05-26T0000,2165A,112.8453,35.546,晋城市,白马寺,,46,30,37,21,26,146,,149,144,8,11,7,6,0.4,0.6
2025-05-26T0000,3620A,112.8271,35.4828,晋城市,泽州一中,,26,26,70,17,19,70,,124,116,33,27,10,9,0.5,0.5
2025-05-26T0000,2173A,112.7249,37.7067,晋中市,南都小区,,50,50,59,17,30,84,,156,126,19,25,6,11,0.3,0.4
2025-05-26T0000,2174A,112.6991,37.6982,晋中市,榆次区政府,,41,41,57,22,27,70,,146,115,29,28,8,11,0.0,0.2
2025-05-26T0000,2865A,112.7195,37.6828,晋中市,榆次三中,,46,46,53,14,27,82,,149,122,22,27,5,9,0.3,0.5
2025-05-26T0000,4200A,112.7478,37.6954,晋中市,迎宾街26号,,48,48,52,27,31,83,,143,115,23,24,4,9,0.5,0.7
2025-05-26T0000,2439A,112.2014,31.0481,荆门市,竹园小学,细颗粒物(PM2.5),74,85,78,54,57,146,,178,171,17,16,11,8,0.6,0.6
2025-05-26T0000,2440A,112.1969,30.9891,荆门市,掇刀,细颗粒物(PM2.5),73,72,74,53,59,142,,172,164,12,12,4,8,0.7,0.6
2025-05-26T0000,2441A,112.2213,31.0386,荆门市,石化一小,细颗粒物(PM2.5),73,92,91,53,64,117,,164,149,31,22,20,11,0.2,0.4
2025-05-26T0000,3012A,112.1849,31.0362,荆门市,西山林语,细颗粒物(PM2.5),62,67,64,44,50,122,,162,155,11,10,10,10,0.4,0.4
2025-05-26T0000,3547A,112.1632,31.0138,荆门市,龙泉中学南校,细颗粒物(PM2.5),57,50,54,40,40,140,,167,162,8,10,5,5,0.8,0.7
2025-05-26T0000,1844A,112.2494,30.3197,荆州市,市图书馆,细颗粒物(PM2.5),60,,54,43,41,127,,180,154,16,19,6,7,0.8,0.8
2025-05-26T0000,1845A,112.2008,30.3544,荆州市,市委党校,细颗粒物(PM2.5),67,54,55,48,42,108,,155,136,15,16,9,9,0.9,0.9
2025-05-26T0000,3194A,112.2747,30.3122,荆州市,管委会,细颗粒物(PM2.5),59,50,49,42,39,127,,170,148,13,17,11,13,0.8,0.8
2025-05-26T0000,4268A,112.1722,30.3366,荆州市,学苑路85号,细颗粒物(PM2.5),74,,49,54,48,102,,168,141,29,27,5,6,0.4,0.4
2025-05-26T0000,2342A,117.3102,29.3867,景德镇市,王港中学,,,,,,,,,,,,,,,,
2025-05-26T0000,2343A,117.2117,29.2933,景德镇市,老干部活动中心,细颗粒物(PM2.5),58,51,52,41,36,64,,141,108,17,10,11,9,0.8,0.6
2025-05-26T0000,2344A,117.1894,29.2789,景德镇市,兽医站,颗粒物(PM10),60,69,64,41,36,75,,137,98,13,15,5,7,0.8,0.7
2025-05-26T0000,2345A,117.1547,29.2617,景德镇市,台达陶瓷,颗粒物(PM10),58,66,58,40,40,70,,140,107,26,16,13,14,0.6,0.6
2025-05-26T0000,2346A,117.2461,29.2956,景德镇市,陶研所,细颗粒物(PM2.5),62,61,53,44,41,60,,141,100,17,11,4,3,0.4,0.3
2025-05-26T0000,1803A,115.9872,29.6815,九江市,十里,细颗粒物(PM2.5),79,60,51,58,46,38,,168,115,49,15,3,5,0.7,0.6
2025-05-26T0000,1804A,115.9584,29.7046,九江市,茅山头,细颗粒物(PM2.5),65,65,60,47,46,84,,173,131,32,16,5,6,0.7,0.6
2025-05-26T0000,1805A,115.9877,29.7295,九江市,西园,细颗粒物(PM2.5),69,73,60,50,41,92,,168,134,40,30,5,6,1.0,0.9
2025-05-26T0000,1808A,115.9114,29.6038,九江市,综合工业园,细颗粒物(PM2.5),55,56,63,39,44,82,,169,116,48,33,5,7,0.7,0.7
2025-05-26T0000,1809A,116.0721,29.7535,九江市,石化总厂,细颗粒物(PM2.5),74,67,61,54,51,108,,161,149,25,18,4,3,0.8,0.8
2025-05-26T0000,1810A,115.9773,29.5698,九江市,庐山气象台,,49,41,47,34,51,128,,129,128,6,11,6,6,0.5,0.9
2025-05-26T0000,3190A,116.0254,29.6994,九江市,外国语学校,细颗粒物(PM2.5),65,61,54,47,44,18,,162,125,102,22,10,11,1.0,0.8
2025-05-26T0000,4253A,116.0102,29.6594,九江市,莲花大道8号,细颗粒物(PM2.5),65,52,56,47,41,104,,153,126,6,8,4,6,0.7,0.7
2025-05-26T0000,4240A,98.4958,39.7339,酒泉市,玉门东路5号,,42,34,111,29,33,86,,123,107,13,9,12,13,0.2,0.2
2025-05-26T0000,4241A,98.5099,39.7506,酒泉市,北大街108号,,39,39,90,20,26,82,,134,115,22,11,9,16,0.3,0.2
2025-05-26T0000,2698A,76.0072,39.4467,喀什地区,巡警大队,颗粒物(PM10),146,242,176,56,36,27,,120,97,81,20,6,4,0.8,0.3
2025-05-26T0000,2699A,75.9755,39.4694,喀什地区,吾办,颗粒物(PM10),135,220,163,79,54,49,,105,93,41,19,14,10,0.6,0.2
2025-05-26T0000,4027A,75.9483,39.4689,喀什地区,老干局,颗粒物(PM10),138,226,156,62,33,50,,106,92,46,14,6,6,0.6,0.3
2025-05-26T0000,1824A,114.3389,34.7781,开封市,肿瘤医院,颗粒物(PM10),61,72,77,40,45,84,,135,111,26,30,11,10,0.4,0.4
2025-05-26T0000,1826A,114.2885,34.7965,开封市,世纪星幼儿园,颗粒物(PM10),71,92,85,48,54,84,,140,117,35,38,11,11,0.8,0.8
2025-05-26T0000,3147A,114.3438,34.8106,开封市,龙亭公园,颗粒物(PM10),64,77,73,31,40,95,,146,126,27,30,5,5,0.8,0.8
2025-05-26T0000,3210A,114.3644,34.7964,开封市,汴京公园,细颗粒物(PM2.5),68,84,82,49,54,87,,140,116,29,32,8,8,1.0,1
2025-05-26T0000,3473A,114.2485,34.8306,开封市,技师学院,颗粒物(PM10),70,89,70,49,42,74,,144,124,38,23,12,11,1.1,0.9
2025-05-26T0000,3592A,114.4644,34.7556,开封市,祥符区生态环境局,颗粒物(PM10),52,53,74,29,45,104,,147,111,25,43,10,11,1.0,1
2025-05-26T0000,1951A,84.895,45.6094,克拉玛依市,长征新村,,45,,6,31,8,33,,109,84,47,10,8,6,0.6,0.2
2025-05-26T0000,1952A,84.8988,45.5893,克拉玛依市,南林小区,颗粒物(PM10),61,71,24,42,10,4,,104,66,66,12,12,11,1.1,0.4
2025-05-26T0000,1954A,84.905,44.3396,克拉玛依市,独山子区,,34,34,22,12,10,88,,131,123,16,8,8,7,0.3,0.4
2025-05-26T0000,1955A,85.6979,46.098,克拉玛依市,乌尔禾区商贸楼,颗粒物(PM10),59,68,23,20,6,34,,110,89,42,7,3,2,0.6,0.2
2025-05-26T0000,3612A,85.1045,45.6899,克拉玛依市,白碱滩区新站,,35,35,30,18,18,85,,121,104,7,7,12,12,0.0,0.2
2025-05-26T0000,2697A,76.1454,39.7142,克孜勒苏柯尔克孜自治州,市人民政府,颗粒物(PM10),122,193,124,64,41,52,,120,101,39,11,2,2,0.5,0.3
2025-05-26T0000,3665A,76.1658,39.7157,克孜勒苏柯尔克孜自治州,克州文化中心,颗粒物(PM10),113,175,122,55,40,81,,122,111,28,7,4,6,0.4,0.3
2025-05-26T0000,1450A,102.8204,24.8886,昆明市,呈贡新区,,20,14,20,10,12,33,,87,63,40,16,3,3,0.5,0.4
2025-05-26T0000,1451A,102.6251,24.9608,昆明市,西山森林公园,,,,,,,,,,,,,,,,
2025-05-26T0000,1452A,102.7252,25.0902,昆明市,龙泉镇,,19,19,11,9,5,49,,70,58,20,11,3,2,0.4,0.4
2025-05-26T0000,1453A,102.7266,25.0375,昆明市,东风东路,,32,32,23,17,12,47,,86,66,30,18,7,6,0.4,0.4
2025-05-26T0000,1454A,102.6742,25.0669,昆明市,金鼎山,,19,13,12,13,8,60,,78,66,22,15,1,2,0.3,0.3
2025-05-26T0000,1455A,102.6644,25.0401,昆明市,碧鸡广场,,36,28,14,25,8,54,,79,66,30,19,5,5,0.5,0.4
2025-05-26T0000,3179A,102.7494,25.0119,昆明市,官渡区博物馆,,16,,15,11,8,45,,78,44,27,24,6,6,0.6,0.6
2025-05-26T0000,3375A,102.8017,24.8336,昆明市,青年创业园,,19,10,14,8,9,59,,86,61,18,14,7,7,0.3,0.6
2025-05-26T0000,3550A,102.7997,24.9786,昆明市,昆明学院,,26,24,19,18,12,60,,88,58,23,22,4,4,0.1,0.1
2025-05-26T0000,3551A,102.5967,24.6736,昆明市,晋宁区生态环境分局,,24,18,18,12,11,75,,90,83,10,11,4,5,0.4,0.5
2025-05-26T0000,3552A,102.6678,24.9856,昆明市,云天化总部,,16,13,15,10,11,51,,83,54,28,19,3,2,0.4,0.3
2025-05-26T0000,1456A,91.1319,29.6514,拉萨市,八廓街,,34,11,12,8,8,106,,127,118,11,11,6,6,0.3,0.3
2025-05-26T0000,1457A,91.1221,29.6747,拉萨市,市环保局,,33,9,14,3,8,103,,121,112,8,10,5,4,0.2,0.2
2025-05-26T0000,1458A,91.0874,29.6475,拉萨市,区监测站,,36,9,11,6,7,114,,122,118,8,12,6,6,0.2,0.2
2025-05-26T0000,1459A,91.1774,29.6541,拉萨市,西藏大学,,,12,12,3,7,99,,123,115,12,11,6,5,,0.3
2025-05-26T0000,1460A,90.9798,29.6588,拉萨市,区辐射站,,32,12,14,8,8,100,,117,106,10,14,6,6,0.3,0.3
2025-05-26T0000,1461A,91.0834,29.6292,拉萨市,拉萨火车站,,37,8,10,6,8,116,,124,121,4,7,3,3,0.1,0.1
2025-05-26T0000,2520A,109.2203,23.7256,来宾市,来宾技工学校,,33,29,36,23,23,99,,121,112,8,11,6,6,1.0,0.9
2025-05-26T0000,3535A,109.1781,23.7297,来宾市,兴宾区政府,,30,27,36,21,23,79,,103,92,6,8,4,4,0.6,0.6
2025-05-26T0000,4002A,109.2416,23.7461,来宾市,中南小学,,29,29,42,18,22,92,,116,106,11,12,4,4,0.8,0.6
2025-05-26T0000,1477A,104.1373,35.9454,兰州市,榆中兰大校区,,,,,,,,,,,,,,,,
2025-05-26T0000,1479A,103.831,36.0464,兰州市,铁路设计院,颗粒物(PM10),63,76,40,35,25,5,,136,96,108,36,10,10,0.9,0.5
2025-05-26T0000,3241A,103.7439,36.0842,兰州市,百合公园,颗粒物(PM10),58,65,32,27,16,28,,139,108,72,22,6,4,0.3,0.4
2025-05-26T0000,3242A,103.9611,35.998,兰州市,和平,,45,45,27,19,14,87,,138,117,17,13,6,8,0.2,0.3
2025-05-26T0000,4236A,103.6293,36.0938,兰州市,庄浪东路808号,,46,46,37,29,26,76,,155,110,38,25,10,12,0.3,0.4
2025-05-26T0000,4237A,103.7251,36.1043,兰州市,安宁西路88号,细颗粒物(PM2.5),60,58,43,43,33,41,,154,122,67,18,7,8,0.4,0.3
2025-05-26T0000,4238A,103.8470,36.0676,兰州市,北滨河东路1号,颗粒物(PM10),53,56,35,30,21,27,,146,109,78,33,8,9,0.7,0.6
2025-05-26T0000,3245A,103.6633,36.533,兰州新区,新区管委会,,39,39,31,26,23,91,,148,132,12,8,27,18,0.4,0.4
2025-05-26T0000,3246A,103.6975,36.4789,兰州新区,舟曲中学,,33,33,29,10,16,98,,155,136,27,14,9,24,0.2,0.3
2025-05-26T0000,1067A,116.6708,39.5111,廊坊市,药材公司,颗粒物(PM10),63,76,66,43,37,88,,174,146,33,19,7,7,0.6,0.6
2025-05-26T0000,1068A,116.7214,39.5589,廊坊市,开发区,颗粒物(PM10),57,64,65,36,31,72,,172,137,39,23,4,6,0.6,0.5
2025-05-26T0000,1070A,116.7244,39.5269,廊坊市,北华航天学院,颗粒物(PM10),62,74,70,40,32,71,,167,135,44,24,7,8,0.6,0.5
2025-05-26T0000,2919A,116.7022,39.5453,廊坊市,河北工业大学,颗粒物(PM10),62,74,70,41,33,85,,173,144,34,20,7,8,0.6,0.6
2025-05-26T0000,2535A,103.7723,29.5462,乐山市,花湖湾,颗粒物(PM10),59,68,57,39,31,92,,141,122,13,15,4,8,0.4,0.4
2025-05-26T0000,2536A,103.7627,29.5844,乐山市,牛耳桥,颗粒物(PM10),56,62,59,39,32,94,,135,115,11,16,8,11,0.7,0.7
2025-05-26T0000,2537A,103.7508,29.6006,乐山市,市第三水厂,颗粒物(PM10),55,60,56,34,32,95,,148,124,14,21,7,9,1.0,0.8
2025-05-26T0000,2538A,103.7571,29.5664,乐山市,市监测站,颗粒物(PM10),56,62,56,36,29,89,,132,113,10,14,9,12,1.0,1
2025-05-26T0000,3361A,103.7311,29.5628,乐山市,理工大学,细颗粒物(PM2.5),57,59,54,40,32,92,,139,117,16,22,8,10,0.7,0.7
2025-05-26T0000,2598A,100.2143,26.8576,丽江市,西南郊,,26,17,7,11,7,83,,91,90,7,6,5,5,1.1,1.1
2025-05-26T0000,2599A,100.2497,26.8802,丽江市,丽江古城,,26,22,14,16,11,82,,90,90,11,12,10,9,0.5,0.5
2025-05-26T0000,2600A,100.2203,26.8906,丽江市,市中心,,27,,8,14,9,86,,83,83,12,17,10,9,0.4,0.4
2025-05-26T0000,1267A,119.914,28.4514,丽水市,监测站大楼,颗粒物(PM10),55,60,56,35,36,42,,115,72,27,21,3,4,0.5,0.5
2025-05-26T0000,1268A,119.93,28.4586,丽水市,莲都小学,颗粒物(PM10),52,54,60,30,34,48,,116,70,26,24,3,4,0.5,0.5
2025-05-26T0000,1269A,119.879,28.4231,丽水市,余庄前,细颗粒物(PM2.5),59,58,54,42,38,10,,94,34,13,14,3,3,0.5,0.5
2025-05-26T0000,1173A,119.176,34.5885,连云港市,市环境监测站,,44,44,50,24,31,98,,134,116,19,27,6,6,0.4,0.5
2025-05-26T0000,3000A,119.3581,34.6972,连云港市,德源药业,,41,41,41,19,21,87,,136,110,26,31,9,9,1.0,1
2025-05-26T0000,3007A,119.178,34.844,连云港市,新城一中,,49,49,52,26,29,43,,142,98,88,32,9,10,0.7,0.7
2025-05-26T0000,3008A,119.3608,34.7519,连云港市,胡沟管理处,,42,29,32,17,18,134,,140,136,14,28,12,11,0.6,0.7
2025-05-26T0000,3009A,119.1478,34.5911,连云港市,矿山设计院,颗粒物(PM10),53,56,53,27,29,92,,129,111,19,24,6,6,0.5,0.5
2025-05-26T0000,3434A,119.2413,34.6539,连云港市,工贸学校,,42,38,30,29,18,134,,141,136,12,14,14,9,0.5,0.5
2025-05-26T0000,3664A,119.4172,34.7341,连云港市,连云街道,,50,50,32,21,14,138,,150,145,16,24,10,9,0.4,0.4
2025-05-26T0000,2571A,102.3431,27.8099,凉山彝族自治州,青龙寺,,25,25,20,7,7,33,,76,59,14,6,5,6,0.7,0.6
2025-05-26T0000,2572A,102.2721,27.8415,凉山彝族自治州,邛海宾馆,,25,25,32,14,18,36,,68,60,20,19,8,8,0.8,0.9
2025-05-26T0000,2573A,102.2625,27.898,凉山彝族自治州,西昌市政府,,18,18,25,9,19,46,,69,61,12,19,12,12,1.0,1
2025-05-26T0000,2574A,102.2685,27.8851,凉山彝族自治州,凉山州政府,,15,15,25,9,18,44,,71,64,16,19,10,9,1.2,1.1
2025-05-26T0000,4229A,102.2342,27.8859,凉山彝族自治州,凯乐南路30号,,26,23,28,11,15,22,,65,54,51,25,9,11,1.0,1
2025-05-26T0000,2212A,123.2,41.1953,辽阳市,宏伟区,,32,32,46,15,27,67,,135,104,25,27,8,13,0.5,0.6
2025-05-26T0000,2213A,123.1683,41.2495,辽阳市,新华园,颗粒物(PM10),54,57,57,31,34,38,,144,95,43,29,12,12,0.6,0.6
2025-05-26T0000,2214A,123.2354,41.2639,辽阳市,滨河路,颗粒物(PM10),53,56,50,27,31,43,,122,81,48,30,10,11,0.3,0.5
2025-05-26T0000,2215A,123.149,41.2991,辽阳市,铁西工业园,颗粒物(PM10),64,77,55,45,32,10,,122,70,55,29,6,9,0.6,0.5
2025-05-26T0000,2227A,125.1358,42.8845,辽源市,环保局,,34,34,34,15,13,90,,125,109,20,20,3,3,0.4,0.5
2025-05-26T0000,3239A,125.0764,42.9078,辽源市,银鹰制药,,37,19,27,3,14,116,,130,112,13,21,4,4,0.3,0.4
2025-05-26T0000,1625A,115.9848,36.4372,聊城市,区政府,颗粒物(PM10),61,72,42,33,22,125,,164,146,20,17,8,7,0.7,0.6
2025-05-26T0000,2878A,116.0072,36.4343,聊城市,聊大东校,颗粒物(PM10),58,66,46,40,29,110,,162,140,20,15,8,8,0.3,0.2
2025-05-26T0000,3200A,115.9819,36.4978,聊城市,监控中心,颗粒物(PM10),59,67,43,41,21,109,,166,148,27,17,9,8,0.7,0.6
2025-05-26T0000,3513A,116.0445,36.4361,聊城市,九州社区,颗粒物(PM10),61,72,47,30,22,117,,159,137,18,13,6,5,0.6,0.4
2025-05-26T0000,4018A,116.0567,36.4608,聊城市,星美广场,颗粒物(PM10),61,71,49,33,19,119,,164,135,20,14,8,8,0.7,0.6
2025-05-26T0000,2632A,94.3681,29.6376,林芝市,林芝监测站,,30,,16,8,8,94,,104,99,3,6,3,3,0.5,0.4
2025-05-26T0000,2633A,94.3616,29.6616,林芝市,林芝人民医院,,29,14,18,8,8,92,,102,97,1,3,6,6,0.3,0.2
2025-05-26T0000,2603A,100.0781,23.8982,临沧市,市环保局,,45,,12,31,19,54,,55,53,8,9,2,2,0.6,0.6
2025-05-26T0000,2604A,100.0894,23.8822,临沧市,市气象局,,,,13,,9,,,57,,,10,,8,,0.6
2025-05-26T0000,1733A,111.5531,36.0783,临汾市,临钢医院,颗粒物(PM10),63,75,56,34,26,86,,167,140,26,24,16,7,0.8,0.8
2025-05-26T0000,1734A,111.5028,36.0714,临汾市,技工学校,颗粒物(PM10),59,67,56,36,34,81,,179,142,25,22,5,7,0.6,0.7
2025-05-26T0000,1736A,111.5018,36.0855,临汾市,市委,颗粒物(PM10),65,79,62,24,25,81,,163,132,25,24,8,8,0.7,0.8
2025-05-26T0000,3018A,111.505,36.1014,临汾市,唐尧大酒店,颗粒物(PM10),61,72,65,29,28,77,,168,137,25,21,6,8,0.8,0.8
2025-05-26T0000,4244A,111.4879,36.0530,临汾市,启星学校,颗粒物(PM10),57,63,54,38,32,73,,168,129,28,27,5,6,0.8,0.8
2025-05-26T0000,4271A,103.2464,35.6123,临夏回族自治州,滨河东路1号,颗粒物(PM10),70,89,38,42,17,34,,125,91,45,18,6,5,0.6,0.3
2025-05-26T0000,4310A,103.2093,35.5995,临夏回族自治州,新华街21号,颗粒物(PM10),51,51,37,21,20,73,,130,114,29,15,7,5,0.4,0.3
2025-05-26T0000,1618A,118.3429,35.0532,临沂市,沂河小区,细颗粒物(PM2.5),62,56,62,44,44,116,,165,143,16,33,11,9,0.4,0.4
2025-05-26T0000,1619A,118.295,35.0583,临沂市,鲁南制药厂,"颗粒物(PM10),细颗粒物(PM2.5)",53,56,76,37,41,92,,178,142,52,53,14,11,0.4,0.5
2025-05-26T0000,1620A,118.2794,34.9976,临沂市,新光毛纺厂,颗粒物(PM10),62,73,68,39,39,96,,173,140,36,44,14,11,0.4,0.4
2025-05-26T0000,1621A,118.3956,35.0888,临沂市,河东保险公司,细颗粒物(PM2.5),69,75,52,50,30,80,,178,138,36,32,51,11,0.5,0.5
2025-05-26T0000,3370A,118.3564,35.0215,临沂市,十里堡居委,颗粒物(PM10),57,63,66,27,36,104,,184,159,24,45,15,12,0.4,0.5
2025-05-26T0000,3496A,118.3604,35.1084,临沂市,南坊新区,颗粒物(PM10),51,51,58,29,33,104,,167,139,22,33,14,11,0.4,0.5
2025-05-26T0000,3860A,118.3920,35.0300,临沂市,皇山花园小区,颗粒物(PM10),54,58,58,31,35,100,,173,141,36,43,15,12,0.5,0.5
2025-05-26T0000,1870A,109.4856,24.3895,柳州市,柳东小学,,48,39,43,33,31,62,,99,82,8,9,13,12,0.4,0.4
2025-05-26T0000,1871A,109.4157,24.3277,柳州市,环保监测站,,43,43,52,30,34,72,,104,91,14,18,3,5,0.7,0.6
2025-05-26T0000,1872A,109.389,24.341,柳州市,河西水厂,,33,33,54,22,31,71,,101,88,11,20,4,10,0.6,0.7
2025-05-26T0000,1873A,109.4311,24.2921,柳州市,市四中,,35,30,46,24,26,70,,99,87,16,18,9,11,0.8,0.6
2025-05-26T0000,1874A,109.4006,24.3631,柳州市,市九中,,46,46,51,26,33,66,,100,85,17,20,11,12,0.9,0.7
2025-05-26T0000,1875A,109.4958,24.3134,柳州市,古亭山,细颗粒物(PM2.5),57,45,42,40,51,61,,97,82,5,10,7,6,0.5,0.5
2025-05-26T0000,3402A,109.5422,24.3996,柳州市,市二中,,46,37,37,32,30,61,,102,83,11,15,10,10,0.5,0.6
2025-05-26T0000,2307A,116.5079,31.737,六安市,监测大楼,细颗粒物(PM2.5),58,55,52,41,40,123,,154,142,11,9,7,4,0.5,0.4
2025-05-26T0000,2308A,116.4738,31.7643,六安市,皖西学院,"颗粒物(PM10),细颗粒物(PM2.5)",55,59,55,39,37,142,,170,159,7,6,6,5,0.5,0.4
2025-05-26T0000,2309A,116.4996,31.7905,六安市,朝阳厂,细颗粒物(PM2.5),60,60,49,43,38,105,,140,127,20,18,5,5,0.4,0.3
2025-05-26T0000,2310A,116.5567,31.7886,六安市,开发区,细颗粒物(PM2.5),80,89,63,59,38,112,,166,146,16,11,5,4,0.6,0.5
2025-05-26T0000,2576A,104.8,26.5892,六盘水市,窑上,,,,30,,18,,,58,40,,9,,3,,0.4
2025-05-26T0000,2577A,104.83,26.5917,六盘水市,黄土坡,,36,36,21,24,15,15,,72,47,29,18,8,8,0.4,0.3
2025-05-26T0000,2578A,104.89,26.5939,六盘水市,水钢,,24,24,23,11,10,45,,87,60,12,10,8,8,0.3,0.3
2025-05-26T0000,2579A,104.8475,26.5894,六盘水市,民中,,30,30,21,17,13,18,,80,51,37,16,8,8,0.5,0.4
2025-05-26T0000,2580A,104.9544,26.5506,六盘水市,双水,,19,9,13,6,6,60,,94,69,9,9,8,8,0.3,0.3
2025-05-26T0000,2335A,117.0189,25.1181,龙岩市,龙岩师专,,,,,,,,,,,,,,,,
2025-05-26T0000,2336A,117.0217,25.1033,龙岩市,龙岩市监测站,,18,18,22,11,14,37,,90,67,20,11,5,5,0.4,0.5
2025-05-26T0000,2337A,117.0258,25.0661,龙岩市,闽西职业技术学院,,23,23,23,10,14,41,,90,67,14,10,4,4,0.4,0.5
2025-05-26T0000,2338A,117.0196,25.0306,龙岩市,龙岩学院,,20,20,21,12,16,30,,83,60,13,7,6,5,0.4,0.5
2025-05-26T0000,2665A,105.0822,33.3261,陇南市,汉王镇固水子,,,,,,,,,,,,,,,,
2025-05-26T0000,2885A,104.9339,33.3826,陇南市,滨江中学,颗粒物(PM10),65,79,43,30,19,106,,110,108,5,5,7,7,0.5,0.4
2025-05-26T0000,3247A,104.955,33.371,陇南市,市总工会,,50,50,40,25,15,109,,110,109,4,5,7,7,0.5,0.5
2025-05-26T0000,2487A,111.9589,27.8901,娄底市,电视发射台,,49,49,62,30,36,56,,114,80,4,3,6,8,0.3,0.3
2025-05-26T0000,2488A,111.9975,27.725,娄底市,市监测站,颗粒物(PM10),52,54,64,26,45,60,,127,103,30,26,10,15,0.8,0.9
2025-05-26T0000,2489A,112.0194,27.7314,娄底市,市委党校,细颗粒物(PM2.5),59,56,67,42,48,82,,133,115,8,12,3,5,0.7,0.9
2025-05-26T0000,2490A,111.9561,27.7569,娄底市,涟钢,细颗粒物(PM2.5),59,58,65,42,45,85,,116,97,10,13,6,10,0.7,0.8
2025-05-26T0000,2491A,111.9892,27.7044,娄底市,市政府,细颗粒物(PM2.5),68,65,60,49,47,68,,126,98,12,13,4,5,0.5,0.6
2025-05-26T0000,1893A,105.4324,28.9634,泸州市,九狮山,细颗粒物(PM2.5),58,48,49,41,35,62,,105,77,26,22,6,5,0.7,0.8
2025-05-26T0000,1894A,105.4427,28.9063,泸州市,小市上码头,,49,49,50,25,23,56,,88,71,9,7,14,11,0.4,0.5
2025-05-26T0000,1895A,105.4241,28.8573,泸州市,兰田宪桥,颗粒物(PM10),59,68,53,37,26,38,,97,73,22,15,9,9,0.5,0.4
2025-05-26T0000,1896A,105.4379,28.8833,泸州市,市环监站,,,,46,33,30,59,,97,76,16,14,6,7,0.5,0.5
2025-05-26T0000,4272A,105.3689,28.7783,泸州市,纳溪中医医院,细颗粒物(PM2.5),59,59,51,42,32,20,,90,57,34,22,8,8,0.8,0.7
2025-05-26T0000,2183A,111.1406,37.5211,吕梁市,环保局,,45,35,45,31,29,113,,154,141,19,20,4,5,0.3,0.3
2025-05-26T0000,2185A,111.1297,37.5136,吕梁市,自来水公司,,35,26,35,19,25,112,,152,138,16,18,5,7,0.4,0.4
2025-05-26T0000,2867A,111.1283,37.51,吕梁市,马茂庄小学,,45,39,50,31,25,103,,152,139,25,20,2,3,0.5,0.5
2025-05-26T0000,1812A,112.3931,34.6516,洛阳市,市委党校,颗粒物(PM10),54,57,46,37,32,56,,116,105,35,20,6,7,0.7,0.5
2025-05-26T0000,1815A,112.494,34.6886,洛阳市,河南林校,颗粒物(PM10),57,63,48,38,34,36,,120,104,46,28,7,9,0.9,0.8
2025-05-26T0000,1816A,112.3844,34.623,洛阳市,开发区管委会,颗粒物(PM10),53,55,46,34,34,38,,120,97,43,17,4,6,0.6,0.5
2025-05-26T0000,1817A,112.4267,34.6258,洛阳市,市委新办公区,细颗粒物(PM2.5),58,63,56,41,33,65,,121,106,28,19,7,8,0.8,0.7
2025-05-26T0000,3340A,112.6005,34.6326,洛阳市,伊滨,颗粒物(PM10),70,90,63,44,37,44,,124,98,34,25,2,3,0.6,0.6
2025-05-26T0000,3341A,112.4951,34.6332,洛阳市,中移产业园,颗粒物(PM10),51,52,49,30,30,90,,122,106,23,22,7,7,0.3,0.3
2025-05-26T0000,3593A,112.5736,34.8993,洛阳市,吉利监测站,颗粒物(PM10),54,57,48,30,27,39,,136,106,46,20,9,10,0.5,0.5
2025-05-26T0000,3635A,112.3677,34.662,洛阳市,河科大西苑校区,细颗粒物(PM2.5),59,65,49,42,29,51,,123,103,37,24,9,10,0.7,0.6
2025-05-26T0000,3636A,112.4388,34.6781,洛阳市,英才小学,颗粒物(PM10),59,68,54,39,33,52,,120,107,51,27,11,9,0.7,0.5
2025-05-26T0000,4214A,112.4600,34.6949,洛阳市,春都路1号院,颗粒物(PM10),55,59,56,32,30,61,,134,116,38,27,8,9,0.6,0.5
2025-05-26T0000,2399A,114.051,33.5699,漯河市,三五一五工厂,颗粒物(PM10),53,55,73,31,44,88,,163,137,33,23,6,6,0.7,0.6
2025-05-26T0000,2400A,114.0055,33.5698,漯河市,漯河大学,颗粒物(PM10),55,59,77,27,39,101,,162,136,26,22,4,5,0.5,0.5
2025-05-26T0000,2401A,114.0138,33.5828,漯河市,市水利局,,41,41,73,27,37,112,,160,136,19,21,5,6,0.6,0.6
2025-05-26T0000,2402A,114.0261,33.5698,漯河市,市广电局,颗粒物(PM10),52,54,73,30,37,98,,166,140,34,23,6,5,0.6,0.5
2025-05-26T0000,3478A,113.9749,33.5664,漯河市,市图书馆,颗粒物(PM10),60,69,73,34,40,82,,160,126,37,24,4,5,0.6,0.6
2025-05-26T0000,4250A,114.0892,33.5882,漯河市,韶山路11号,细颗粒物(PM2.5),62,70,76,44,40,86,,162,134,39,27,10,7,0.7,0.5
2025-05-26T0000,1798A,118.5092,31.6837,马鞍山市,湖东路四小,颗粒物(PM10),51,52,69,31,39,146,,203,175,18,28,6,6,0.7,0.6
2025-05-26T0000,1799A,118.5024,31.6449,马鞍山市,开发区,颗粒物(PM10),69,87,69,42,41,87,,200,160,45,36,6,6,0.8,0.7
2025-05-26T0000,1802A,118.6245,31.7241,马鞍山市,濮塘,细颗粒物(PM2.5),63,57,55,45,44,140,,197,164,14,9,9,9,0.8,0.8
2025-05-26T0000,3633A,118.4918,31.6809,马鞍山市,雨山,颗粒物(PM10),60,70,67,37,42,132,,199,169,26,28,8,8,0.5,0.6
2025-05-26T0000,4191A,118.5274,31.72227,马鞍山市,慈湖高新区,细颗粒物(PM2.5),68,67,72,49,58,137,,202,159,26,28,9,10,0.7,0.8
2025-05-26T0000,1686A,111.0286,21.4688,茂名市,电白南海,,34,34,33,22,21,99,,107,94,8,9,3,5,0.7,0.8
2025-05-26T0000,1687A,110.9294,21.6533,茂名市,茂石化七小,,32,29,33,22,19,91,,90,74,8,12,7,12,0.4,0.5
2025-05-26T0000,1688A,110.9107,21.6687,茂名市,健康路,,27,27,29,17,21,77,,101,75,13,13,18,18,0.5,0.7
2025-05-26T0000,1689A,110.8592,21.6828,茂名市,高岭,,36,36,36,17,14,67,,88,71,15,12,22,17,0.3,0.4
2025-05-26T0000,3450A,111.01,21.5165,茂名市,电白水东,,29,29,28,17,17,86,,99,82,17,16,6,8,0.3,0.4
2025-05-26T0000,2539A,104.0308,30.0478,眉山市,黑龙滩水库,,34,34,35,18,14,108,,130,127,2,5,1,2,0.3,0.3
2025-05-26T0000,2540A,103.8416,30.0874,眉山市,气象局,,48,48,56,31,27,108,,148,134,10,28,3,2,0.4,0.3
2025-05-26T0000,3137A,103.8578,30.0744,眉山市,市委党校,颗粒物(PM10),56,61,47,39,22,93,,136,121,14,20,9,9,0.5,0.4
2025-05-26T0000,3148A,103.8291,30.0564,眉山市,区人社局,颗粒物(PM10),51,52,47,27,22,106,,145,128,11,25,11,12,0.3,0.3
2025-05-26T0000,1690A,116.1231,24.3284,梅州市,梅江月梅,,19,19,34,12,27,47,,90,69,14,8,5,5,0.6,0.7
2025-05-26T0000,1691A,116.0797,24.2719,梅州市,梅县新城,,22,20,34,12,21,70,,103,86,11,13,6,6,0.5,0.6
2025-05-26T0000,1692A,116.1248,24.2654,梅州市,环境监控中心,,24,20,32,12,23,74,,98,85,12,14,8,9,0.6,0.7
2025-05-26T0000,3315A,116.1233,24.2991,梅州市,梅龙,,20,17,32,12,26,63,,97,80,11,8,6,7,0.5,0.6
2025-05-26T0000,1878A,104.7778,31.4741,绵阳市,富乐山,颗粒物(PM10),53,55,58,35,34,106,,126,115,12,10,9,8,0.5,0.4
2025-05-26T0000,1880A,104.6697,31.4668,绵阳市,高新区自来水公司,细颗粒物(PM2.5),62,68,61,44,34,84,,121,100,15,14,5,5,0.6,0.6
2025-05-26T0000,1881A,104.7287,31.5075,绵阳市,三水厂,颗粒物(PM10),51,52,57,32,33,103,,126,112,11,14,9,9,0.5,0.5
2025-05-26T0000,3491A,104.69,31.5322,绵阳市,西科大附属小学,颗粒物(PM10),57,63,69,38,42,101,,130,110,14,20,10,9,0.5,0.5
2025-05-26T0000,3492A,104.5648,31.5343,绵阳市,安州区旅游局,颗粒物(PM10),57,63,65,39,34,90,,133,106,16,16,6,5,0.7,0.6
2025-05-26T0000,4226A,104.7651,31.4531,绵阳市,绵阳市气象局,细颗粒物(PM2.5),52,47,54,36,32,99,,117,107,9,9,6,6,0.4,0.3
2025-05-26T0000,1784A,129.61,44.561,牡丹江市,环保大楼,,20,18,14,14,12,40,,84,66,14,7,6,6,0.3,0.2
2025-05-26T0000,1785A,129.6115,44.5782,牡丹江市,文化广场,,45,45,30,22,16,28,,82,54,28,15,10,10,0.6,0.4
2025-05-26T0000,1786A,129.5904,44.5963,牡丹江市,第一医院,,21,21,16,12,11,48,,85,60,11,9,5,3,0.4,0.4
2025-05-26T0000,1787A,129.6364,44.6075,牡丹江市,机车工厂,,36,36,27,11,8,34,,81,58,19,10,9,9,0.4,0.3
2025-05-26T0000,1788A,129.6386,44.5462,牡丹江市,第一中学,,25,,14,17,11,44,,89,65,13,7,5,5,0.4,0.4
2025-05-26T0000,2531A,105.0703,29.61,内江市,市监测站,,41,41,49,27,31,67,,116,104,30,14,2,3,1.0,0.9
2025-05-26T0000,2532A,105.0717,29.5947,内江市,东兴区政府,,,37,44,28,27,70,,68,,26,17,,13,0.5,0.7
2025-05-26T0000,2533A,105.0653,29.5817,内江市,内江二中,,,42,47,39,32,74,,118,111,,23,7,8,0.5,0.4
2025-05-26T0000,2534A,105.0406,29.5822,内江市,内江日报社,,46,39,42,32,30,72,,113,102,16,10,5,6,0.6,0.5
2025-05-26T0000,2628A,92.0657,31.4846,那曲市,那曲监测站,,29,18,40,8,15,91,,111,98,7,14,8,7,0.6,0.6
2025-05-26T0000,4243A,92.0515,31.4787,那曲市,那曲市委宣传部,,28,12,30,7,13,88,,120,105,6,9,6,6,0.3,0.3
2025-05-26T0000,1290A,115.8931,28.6843,南昌市,省外办,细颗粒物(PM2.5),67,59,49,48,40,97,,145,120,22,16,9,10,0.5,0.5
2025-05-26T0000,1291A,115.8886,28.7003,南昌市,省林业公司,细颗粒物(PM2.5),64,70,53,46,38,56,,146,117,41,15,8,10,0.6,0.5
2025-05-26T0000,1292A,115.8126,28.7442,南昌市,林科所,细颗粒物(PM2.5),62,51,45,44,35,59,,155,104,48,15,4,5,0.4,0.5
2025-05-26T0000,1294A,115.8518,28.687,南昌市,建工学校,细颗粒物(PM2.5),77,88,60,56,54,62,,151,118,52,19,5,6,0.6,0.5
2025-05-26T0000,1295A,115.8921,28.6424,南昌市,象湖,颗粒物(PM10),58,66,56,39,34,91,,139,114,23,15,7,8,0.8,0.7
2025-05-26T0000,1296A,115.7423,28.7996,南昌市,武术学校,,45,32,36,31,23,20,,142,71,6,6,6,7,0.7,0.7
2025-05-26T0000,3046A,115.9084,28.6062,南昌市,机电学校,细颗粒物(PM2.5),73,72,61,53,39,64,,136,105,30,22,4,5,0.6,0.5
2025-05-26T0000,3690A,115.9721,28.7031,南昌市,外国语学校,细颗粒物(PM2.5),68,66,51,49,38,87,,144,123,19,15,5,6,0.4,0.3
2025-05-26T0000,4192A,115.9316,28.68677,南昌市,南京东路235号,细颗粒物(PM2.5),77,84,60,56,37,86,,136,113,22,15,9,8,1.0,0.7
2025-05-26T0000,1905A,106.056,30.8064,南充市,西山风景区,,,,,,,,,,,,,,,,
2025-05-26T0000,1906A,106.0789,30.8023,南充市,南充市委,,45,45,60,26,33,113,,148,142,17,14,8,6,0.4,0.4
2025-05-26T0000,1907A,106.1031,30.8217,南充市,南充炼油厂,,47,47,61,32,36,119,,146,142,13,12,10,6,0.4,0.4
2025-05-26T0000,4227A,106.1083,30.7884,南充市,梨树横街98号,颗粒物(PM10),54,58,66,36,32,114,,144,140,13,13,6,5,0.3,0.3
2025-05-26T0000,4304A,106.1172,30.843,南充市,清泉寺北路188号,,45,43,56,31,31,116,,142,140,14,12,7,6,0.3,0.3
2025-05-26T0000,4305A,106.067,30.7616,南充市,同庆路1号,,44,44,56,29,33,108,,139,133,11,12,7,5,0.2,0.2
2025-05-26T0000,1151A,118.8086,32.1065,南京市,迈皋桥,细颗粒物(PM2.5),52,49,47,36,35,134,,215,170,19,27,4,7,0.6,0.6
2025-05-26T0000,1152A,118.7538,32.0551,南京市,草场门,颗粒物(PM10),53,56,56,34,37,149,,219,184,24,39,2,2,0.4,0.5
2025-05-26T0000,1153A,118.7794,32.0745,南京市,山西路,臭氧1小时,53,51,59,29,31,162,,228,188,14,16,4,4,0.4,0.4
2025-05-26T0000,1154A,118.7752,32.0023,南京市,中华门,,48,48,51,29,32,137,,191,155,12,16,4,4,0.6,0.6
2025-05-26T0000,1155A,118.8109,32.0309,南京市,瑞金路,细颗粒物(PM2.5),52,51,49,36,31,125,,192,156,20,17,6,6,0.5,0.5
2025-05-26T0000,1156A,118.7997,32.0754,南京市,玄武湖,颗粒物(PM10),53,55,51,26,26,149,,212,176,11,13,4,4,0.5,0.5
2025-05-26T0000,1157A,118.6414,32.0931,南京市,浦口,细颗粒物(PM2.5),60,62,50,43,30,95,,192,151,25,16,4,4,0.5,0.5
2025-05-26T0000,1158A,118.7356,31.9996,南京市,奥体中心,臭氧1小时,58,52,58,31,36,166,,218,183,20,36,7,6,0.4,0.4
2025-05-26T0000,1159A,118.9125,32.1028,南京市,仙林大学城,颗粒物(PM10),53,56,55,31,28,139,,196,166,19,30,12,11,0.6,0.6
2025-05-26T0000,3422A,118.8436,31.9198,南京市,江宁彩虹桥,颗粒物(PM10),52,54,51,31,31,116,,194,153,32,32,3,3,0.5,0.5
2025-05-26T0000,3427A,118.8554,32.3578,南京市,六合雄州,"颗粒物(PM10),细颗粒物(PM2.5)",57,63,52,40,33,125,,192,168,40,37,9,7,0.5,0.5
2025-05-26T0000,4249A,118.8708,31.3402,南京市,汶溪路181号,,46,35,62,28,41,145,,191,178,18,19,5,3,0.2,0.3
2025-05-26T0000,4312A,119.019,31.6512,南京市,中山西路1号,臭氧1小时,62,39,44,30,35,169,,192,184,20,28,7,7,0.5,0.5
2025-05-26T0000,1401A,108.3103,22.7881,南宁市,二十一中,,29,25,32,20,19,76,,122,92,19,17,3,3,0.8,0.7
2025-05-26T0000,1402A,108.3141,22.8528,南宁市,北湖,,26,26,35,18,24,71,,116,84,18,17,10,11,0.6,0.5
2025-05-26T0000,1403A,108.3206,22.8225,南宁市,市监测站,,37,37,34,21,19,62,,101,74,15,12,7,7,0.5,0.4
2025-05-26T0000,1404A,108.3829,22.8037,南宁市,大自然花园,,35,35,34,24,20,88,,122,96,11,11,6,6,0.6,0.6
2025-05-26T0000,1405A,108.4394,22.7904,南宁市,仙葫,,36,,39,25,26,98,,113,102,11,14,8,9,0.6,0.6
2025-05-26T0000,1406A,108.2397,22.8467,南宁市,区农职院,,20,20,32,13,20,63,,92,71,10,11,4,5,0.9,0.9
2025-05-26T0000,1407A,108.3275,22.735,南宁市,英华嘉园,,36,35,40,25,23,87,,128,99,13,16,8,8,0.4,0.4
2025-05-26T0000,3401A,108.4834,22.7618,南宁市,红星社区,,38,,33,21,19,120,,140,127,4,6,8,10,0.2,0.3
2025-05-26T0000,4221A,108.2177,22.7774,南宁市,乐贤路16号,,38,38,37,24,22,66,,110,80,16,15,8,10,0.5,0.5
2025-05-26T0000,2331A,118.0966,26.6761,南平市,茫荡山,,,,,,,,,,,,,,,,
2025-05-26T0000,2332A,118.1681,26.6369,南平市,南平市监测站,,43,42,33,30,18,61,,102,72,8,9,4,5,0.8,0.7
2025-05-26T0000,2333A,118.1825,26.6489,南平市,南平铝业有限公司,细颗粒物(PM2.5),62,,38,44,25,61,,100,74,12,11,5,5,0.6,0.6
2025-05-26T0000,2334A,118.1756,26.6272,南平市,南平七中,,38,37,40,26,18,62,,87,73,6,8,4,5,0.6,0.6
2025-05-26T0000,1168A,120.9098,31.9663,南通市,狼山街道,,26,21,40,16,26,81,,157,111,12,19,3,4,0.5,0.6
2025-05-26T0000,1169A,120.86,32.0005,南通市,虹桥,,29,28,45,19,32,92,,159,118,20,29,2,5,0.2,0.2
2025-05-26T0000,1170A,120.87,32.02,南通市,城中,,34,34,50,20,29,89,,154,115,19,24,5,7,0.5,0.6
2025-05-26T0000,1171A,120.94,31.93,南通市,星湖花园,,30,,34,21,27,92,,148,105,16,25,3,4,0.2,0.4
2025-05-26T0000,1172A,120.81,32.0417,南通市,紫琅学院,,29,29,50,18,28,86,,153,112,19,22,5,8,0.4,0.5
2025-05-26T0000,3291A,121.067,32.062,南通市,通州监测站,细颗粒物(PM2.5),77,66,52,56,35,95,,153,122,16,22,8,7,0.3,0.3
2025-05-26T0000,3432A,120.9348,31.9883,南通市,环境教育馆,细颗粒物(PM2.5),62,61,49,44,30,36,,160,96,59,24,4,4,0.4,0.4
2025-05-26T0000,2404A,112.5224,33.0122,南阳市,瓦房庄,颗粒物(PM10),52,54,70,25,34,95,,148,132,15,14,7,7,0.5,0.4
2025-05-26T0000,2405A,112.5003,32.9735,南阳市,汉画馆,,46,46,63,23,32,52,,142,118,32,26,5,6,0.6,0.5
2025-05-26T0000,2406A,112.5573,33.027,南阳市,气象站,,49,49,67,29,32,91,,146,134,17,18,2,3,0.4,0.5
2025-05-26T0000,2407A,112.5481,32.9689,南阳市,理工学院,颗粒物(PM10),58,65,68,27,34,78,,140,127,21,20,5,5,0.6,0.6
2025-05-26T0000,4008A,112.5234,32.9922,南阳市,卧龙区政府,,46,46,65,26,38,76,,139,122,25,23,5,6,0.5,0.5
2025-05-26T0000,1234A,121.8358,29.911,宁波市,区环保大楼,颗粒物(PM10),57,64,56,32,32,63,,185,97,50,35,11,11,0.5,0.6
2025-05-26T0000,1235A,121.56,29.82,宁波市,万里学院,,37,37,43,25,32,68,,181,129,36,23,5,6,0.5,0.6
2025-05-26T0000,1236A,121.713,29.9572,宁波市,龙赛医院,颗粒物(PM10),61,72,57,24,26,56,,187,113,41,22,10,9,0.6,0.6
2025-05-26T0000,1239A,121.633,29.7733,宁波市,钱湖水厂,颗粒物(PM10),52,54,55,28,32,71,,183,130,23,20,8,9,0.6,0.7
2025-05-26T0000,1240A,121.5856,29.8635,宁波市,太古小学,,50,50,46,20,26,47,,190,133,60,23,9,8,0.4,0.4
2025-05-26T0000,1241A,121.524,29.8674,宁波市,市环境监测中心,,33,33,44,19,26,72,,173,130,27,19,7,8,0.5,0.6
2025-05-26T0000,2871A,121.6147,29.9017,宁波市,万里国际学校,,38,38,41,23,28,63,,179,123,45,35,8,8,0.3,0.3
2025-05-26T0000,3710A,121.5594,29.8975,宁波市,白沙活动中心,,33,33,40,18,25,64,,177,125,33,17,9,10,0.4,0.5
2025-05-26T0000,2339A,119.5001,26.6946,宁德市,金涵水库,,,,,,,,,,,,,,,,
2025-05-26T0000,2341A,119.5388,26.6612,宁德市,宁德市监测站,细颗粒物(PM2.5),58,44,41,41,33,80,,150,119,14,13,4,5,0.5,0.5
2025-05-26T0000,3209A,119.5231,26.6562,宁德市,宁德一中,,38,38,44,22,23,84,,150,122,5,6,3,4,0.8,0.8
2025-05-26T0000,2618A,98.8601,25.8567,怒江傈僳族自治州,州监测站,,31,31,17,12,10,24,,53,44,6,4,6,7,0.4,0.3
2025-05-26T0000,2619A,98.8546,25.8417,怒江傈僳族自治州,泸水一中,,29,,14,20,9,9,,41,31,11,9,6,6,0.5,0.3
2025-05-26T0000,1888A,101.6891,26.571,攀枝花市,弄弄坪,细颗粒物(PM2.5),112,112,49,84,34,23,,64,46,42,25,50,23,1.4,1
2025-05-26T0000,1889A,101.5769,26.5928,攀枝花市,河门口,,11,11,19,3,13,23,,70,48,13,15,5,11,0.5,0.7
2025-05-26T0000,1890A,101.7169,26.585,攀枝花市,炳草岗,细颗粒物(PM2.5),92,85,52,68,58,11,,62,43,51,32,27,38,1.3,1.3
2025-05-26T0000,1891A,101.7369,26.5008,攀枝花市,仁和,细颗粒物(PM2.5),79,98,50,58,34,15,,68,45,17,15,16,12,0.9,0.8
2025-05-26T0000,2835A,101.7227,26.567,攀枝花市,四十中小,细颗粒物(PM2.5),75,68,47,55,36,24,,71,55,47,27,54,42,1.7,1.7
2025-05-26T0000,1604A,122.0303,41.1489,盘锦市,开发区,,,,30,20,21,85,,128,106,27,23,12,11,0.6,0.5
2025-05-26T0000,1605A,122.0485,41.0883,盘锦市,兴隆台,,39,28,35,27,20,63,,130,99,51,27,7,9,0.5,0.4
2025-05-26T0000,1606A,121.8297,41.1028,盘锦市,新生街道,,48,,25,33,19,85,,133,101,32,24,15,10,0.5,0.3
2025-05-26T0000,1832A,113.3257,33.742,平顶山市,新华旅馆,颗粒物(PM10),71,91,86,37,39,38,,132,108,58,33,5,6,0.6,0.6
2025-05-26T0000,1833A,113.2919,33.737,平顶山市,规划设计院,颗粒物(PM10),58,66,79,34,38,32,,129,109,56,32,4,6,0.9,0.8
2025-05-26T0000,1834A,113.182,33.774,平顶山市,平顶山工学院,颗粒物(PM10),55,60,73,31,36,84,,130,113,27,28,4,7,0.5,0.5
2025-05-26T0000,3204A,113.3025,33.73,平顶山市,规划局,,46,46,74,27,34,78,,125,112,26,31,4,7,0.5,0.5
2025-05-26T0000,3594A,112.8867,33.9116,平顶山市,石龙区,颗粒物(PM10),88,126,88,36,33,12,,130,88,95,50,8,11,0.6,0.6
2025-05-26T0000,2656A,106.6692,35.5461,平凉市,聚贤嘉苑,,37,37,40,21,26,36,,134,94,42,20,14,12,0.7,0.7
2025-05-26T0000,2657A,106.7021,35.5307,平凉市,博物馆,颗粒物(PM10),52,53,43,28,24,44,,140,103,49,19,10,9,1.3,0.7
2025-05-26T0000,2347A,114.0997,27.5002,萍乡市,武功山,,36,27,28,25,28,45,,110,71,5,6,6,6,1.0,1
2025-05-26T0000,2348A,113.8385,27.6434,萍乡市,中医院,细颗粒物(PM2.5),55,48,53,39,36,70,,123,103,8,12,9,13,0.7,0.9
2025-05-26T0000,2349A,113.8493,27.6253,萍乡市,市政府车库,细颗粒物(PM2.5),59,,42,42,39,46,,105,80,12,14,5,8,0.5,0.5
2025-05-26T0000,2350A,113.8676,27.6435,萍乡市,市环保局,细颗粒物(PM2.5),58,53,54,41,40,52,,116,93,11,16,3,12,0.7,0.8
2025-05-26T0000,2351A,113.866,27.6198,萍乡市,安源区政府,颗粒物(PM10),54,58,53,33,34,33,,97,72,11,12,2,5,0.6,0.6
2025-05-26T0000,2319A,119.0141,25.4325,莆田市,荔城区仓后路,,40,34,46,26,37,128,,136,136,9,11,4,4,0.6,0.7
2025-05-26T0000,2320A,119.0015,25.4553,莆田市,莆田市监测站,,41,34,44,25,35,129,,143,142,8,7,3,3,0.4,0.5
2025-05-26T0000,2321A,119.1119,25.4561,莆田市,涵江区六中,,44,36,47,22,36,140,,152,150,10,11,3,3,0.5,0.6
2025-05-26T0000,2322A,119.1013,25.3215,莆田市,秀屿区政府,,44,27,45,20,38,138,,144,143,11,13,4,4,0.5,0.6
2025-05-26T0000,2323A,118.981,25.4792,莆田市,东圳水库,,,,,,,,,,,,,,,,
2025-05-26T0000,2392A,115.0312,35.7636,濮阳市,环保局,细颗粒物(PM2.5),57,53,49,40,32,120,,156,142,20,23,10,9,0.7,0.6
2025-05-26T0000,2394A,115.0574,35.7609,濮阳市,油田运输公司,"颗粒物(PM10),细颗粒物(PM2.5)",60,69,59,43,32,111,,153,136,21,21,8,8,0.7,0.6
2025-05-26T0000,3021A,115,35.7668,濮阳市,濮水河管理处,细颗粒物(PM2.5),68,69,60,49,37,103,,147,128,20,25,7,7,0.7,0.6
2025-05-26T0000,4216A,115.0924,35.7686,濮阳市,任丘路479号,细颗粒物(PM2.5),63,72,63,45,19,108,,155,133,18,19,8,8,0.7,0.6
2025-05-26T0000,2601A,100.98,22.7633,普洱市,市环保局,,43,43,22,9,13,43,,60,48,12,8,4,4,0.8,0.7
2025-05-26T0000,2602A,100.9817,22.8322,普洱市,普洱第二中学,,20,,11,12,12,64,,65,65,8,10,5,5,0.5,0.5
2025-05-26T0000,2262A,131.0518,45.8751,七台河市,新一中,,14,14,12,7,8,31,,80,54,6,7,8,9,0.8,0.8
2025-05-26T0000,3345A,131.0577,45.7879,七台河市,中波台,,41,41,12,21,9,35,,64,42,23,14,10,6,0.5,0.4
2025-05-26T0000,3637A,131.0176,45.7761,七台河市,人民广场,,36,36,19,19,14,29,,67,41,17,12,10,10,0.5,0.5
2025-05-26T0000,3684A,130.8781,45.8222,七台河市,新建矿广场,颗粒物(PM10),53,56,18,8,7,18,,68,46,16,12,9,12,0.2,0.2
2025-05-26T0000,1779A,123.9305,47.3636,齐齐哈尔市,安居小区,,46,46,35,31,20,53,,86,62,19,18,3,3,0.5,0.4
2025-05-26T0000,1780A,123.9488,47.3386,齐齐哈尔市,中心广场,颗粒物(PM10),59,68,44,34,19,62,,87,67,22,21,7,5,0.5,0.4
2025-05-26T0000,1781A,123.9483,47.3227,齐齐哈尔市,农牧车辆厂,颗粒物(PM10),51,51,44,35,19,56,,87,63,18,20,6,6,0.2,0.4
2025-05-26T0000,1783A,123.945,47.2988,齐齐哈尔市,市环境监测站,细颗粒物(PM2.5),54,47,40,38,22,50,,91,64,20,18,3,4,0.4,0.2
2025-05-26T0000,3662A,123.6333,47.2075,齐齐哈尔市,富区青少年活动中心,细颗粒物(PM2.5),67,,56,48,36,61,,89,70,16,19,3,4,0.5,0.5
2025-05-26T0000,2591A,107.9783,26.5747,黔东南苗族侗族自治州,市环境监测站,,26,22,37,18,27,74,,82,77,6,8,3,3,0.4,0.6
2025-05-26T0000,2881A,107.8908,26.5311,黔东南苗族侗族自治州,凯里学院,,25,22,25,17,23,72,,88,81,6,6,2,2,0.4,0.5
2025-05-26T0000,2593A,107.5228,26.2403,黔南布依族苗族自治州,小围寨,,20,12,21,12,14,61,,84,71,5,6,3,1,0.3,0.3
2025-05-26T0000,3538A,107.5175,26.2978,黔南布依族苗族自治州,沙坝,,24,24,27,12,15,62,,82,72,6,7,3,3,0.2,0.3
2025-05-26T0000,2589A,104.9022,25.0925,黔西南布依族苗族自治州,场坝街,,26,13,26,3,13,82,,94,85,8,13,2,6,0.3,0.3
2025-05-26T0000,2590A,104.8811,25.0992,黔西南布依族苗族自治州,坪东大道,,21,12,24,8,12,65,,79,66,6,11,1,2,0.1,0.1
2025-05-26T0000,2502A,108.6236,21.9667,钦州市,市环保站,颗粒物(PM10),51,51,38,31,21,88,,93,84,15,13,5,5,1.4,0.8
2025-05-26T0000,2503A,108.6549,21.9481,钦州市,沙埠小学,颗粒物(PM10),60,70,33,34,22,85,,97,87,16,11,5,6,0.5,0.4
2025-05-26T0000,2504A,108.5989,21.7431,钦州市,港区一小,细颗粒物(PM2.5),53,52,36,37,23,75,,89,84,19,16,8,8,0.6,0.5
2025-05-26T0000,3404A,108.5959,21.9633,钦州市,北职校,颗粒物(PM10),54,57,38,35,26,91,,98,86,8,10,6,7,0.7,0.9
2025-05-26T0000,1043A,119.7493,40.0116,秦皇岛市,第一关,,50,48,40,28,23,2,,132,68,100,33,5,5,0.3,0.2
2025-05-26T0000,1044A,119.5897,39.9499,秦皇岛市,监测站,颗粒物(PM10),56,61,51,17,20,56,,133,87,48,27,4,5,0.3,0.4
2025-05-26T0000,1046A,119.5251,39.9041,秦皇岛市,建设大厦,颗粒物(PM10),62,73,53,21,20,6,,128,81,97,27,8,5,0.4,0.4
2025-05-26T0000,3132A,119.610547,39.943889,秦皇岛市,文明里,颗粒物(PM10),53,55,47,14,18,58,,133,106,42,17,4,5,0.3,0.3
2025-05-26T0000,4198A,119.5090,39.8253,秦皇岛市,北戴河轮滑馆,,43,43,37,28,24,19,,131,108,70,20,3,6,0.4,0.4
2025-05-26T0000,1307A,120.6659,36.2403,青岛市,仰口,,47,28,25,22,17,148,,176,169,4,7,9,9,0.4,0.4
2025-05-26T0000,1310A,120.4134,36.0658,青岛市,市南区东部子站,,39,22,33,3,18,122,,161,140,13,37,7,11,0.3,0.5
2025-05-26T0000,1311A,120.3664,36.1032,青岛市,四方区子站,,41,17,27,12,17,131,,176,149,11,25,3,7,0.6,0.6
2025-05-26T0000,1312A,120.2994,36.054,青岛市,市南区西部子站,,35,24,40,10,16,110,,147,128,24,50,8,11,0.6,0.7
2025-05-26T0000,1313A,120.4581,36.0858,青岛市,崂山区子站,,36,9,29,9,12,115,,172,145,14,22,7,10,0.4,0.5
2025-05-26T0000,1315A,120.3999,36.3083,青岛市,城阳区子站,,38,22,32,7,14,119,,165,128,13,26,5,7,0.4,0.5
2025-05-26T0000,1966A,120.0405,35.8735,青岛市,黄岛区4号,,40,19,25,14,11,127,,154,136,13,20,9,10,0.5,0.6
2025-05-26T0000,3362A,120.5014,36.4034,青岛市,即墨2号,,41,25,43,21,22,129,,158,137,8,21,8,10,0.6,0.7
2025-05-26T0000,3642A,120.3503,36.0736,青岛市,市北区南部,,38,18,39,3,16,120,,154,135,8,28,8,10,0.3,0.5
2025-05-26T0000,3643A,120.3948,36.1805,青岛市,李沧区北部,,36,19,34,17,19,113,,152,124,22,34,7,9,0.5,0.6
2025-05-26T0000,4290A,120.1969,35.9546,青岛市,珠江路669号,,37,19,36,7,14,118,,161,140,11,26,7,9,0.5,0.6
2025-05-26T0000,1702A,113.0426,23.691,清远市,环保大楼,,45,32,43,31,27,115,,121,97,11,18,7,9,0.8,0.9
2025-05-26T0000,1703A,113.0208,23.7106,清远市,凤城街办,,32,30,40,21,26,101,,109,89,14,19,9,9,0.6,0.6
2025-05-26T0000,3025A,113.0477,23.6344,清远市,技师学院,,36,32,43,25,30,98,,105,80,9,16,6,10,0.8,0.9
2025-05-26T0000,3318A,112.9903,23.7403,清远市,清新太和,,30,30,41,21,28,78,,109,83,7,12,8,11,0.6,0.6
2025-05-26T0000,3455A,113.076,23.7198,清远市,清城东城,,38,37,46,26,30,82,,108,82,11,13,6,8,0.6,0.7
2025-05-26T0000,2661A,107.6325,35.7357,庆阳市,庆阳五中,,37,28,29,19,21,118,,127,113,10,9,3,3,0.4,0.4
2025-05-26T0000,2662A,107.6364,35.7067,庆阳市,市环保局,,37,31,32,14,17,118,,130,115,6,8,9,9,0.4,0.4
2025-05-26T0000,1916A,103.7897,25.5035,曲靖市,环境监测站,,29,17,21,14,10,90,,81,64,7,16,4,5,0.3,0.4
2025-05-26T0000,1917A,103.8,25.5364,曲靖市,烟厂办公区,,27,16,20,3,11,86,,88,69,9,15,4,4,0.5,0.7
2025-05-26T0000,3376A,103.7947,25.462,曲靖市,南苑二区,,32,,16,7,9,102,,93,80,7,12,3,4,0.3,0.4
2025-05-26T0000,3377A,103.7444,25.5261,曲靖市,曲靖师范学院,,27,16,16,10,14,86,,87,72,12,14,5,7,0.4,0.5
2025-05-26T0000,1264A,118.8692,28.9398,衢州市,环保大楼,细颗粒物(PM2.5),93,98,74,69,51,65,,167,119,35,25,5,4,0.7,0.6
