timepoint,stationcode,longitude,latitude,area,positionname,primarypollutant,aqi,pm10,pm10_24h,pm2_5,pm2_5_24h,o3,o3_24h,o3_8h,o3_8h_24h,no2,no2_24h,so2,so2_24h,co,co_24h
2025-05-26T2000,2566A,102.1879,31.914,阿坝藏族羌族自治州,州农科所,,21,21,23,13,8,66,,81,81,7,8,11,15,0.7,0.7
2025-05-26T2000,2568A,102.2502,31.8896,阿坝藏族羌族自治州,马师校,,30,30,22,13,16,77,,104,103,10,11,5,5,0.4,0.5
2025-05-26T2000,3994A,102.2165,31.9024,阿坝藏族羌族自治州,马尔康中学西区,,26,18,19,17,15,83,,103,103,6,7,5,5,0.5,0.4
2025-05-26T2000,2695A,80.292,41.1694,阿克苏地区,电视台,颗粒物(PM10),500,972,157,163,49,99,,103,103,10,12,7,4,0.4,0.4
2025-05-26T2000,2696A,80.2613,41.1551,阿克苏地区,艺术中心,颗粒物(PM10),500,1837,209,300,54,98,,101,101,6,8,4,4,0.6,0.6
2025-05-26T2000,2204A,105.6467,38.8363,阿拉善盟,西城区西花园,臭氧1小时,68,,28,28,27,174,,174,174,11,11,6,6,1.0,1
2025-05-26T2000,2205A,105.6985,38.8411,阿拉善盟,蒙二幼,,50,38,33,20,20,157,,156,156,12,9,11,10,0.5,0.5
2025-05-26T2000,2206A,105.724,38.8516,阿拉善盟,环保局新楼,臭氧1小时,54,29,30,18,20,163,,156,156,6,5,9,9,0.7,0.7
2025-05-26T2000,2708A,88.1264,47.8517,阿勒泰地区,市站,,32,10,21,3,5,101,,96,90,3,6,2,2,0.3,0.3
2025-05-26T2000,2630A,80.1161,32.5,阿里地区,阿里监测站,,,,15,,7,,,133,133,,6,,4,,0.4
2025-05-26T2000,3192A,80.0903,32.5028,阿里地区,阿里藏医院,,50,12,18,3,6,159,,146,146,2,3,6,6,0.3,0.4
2025-05-26T2000,2642A,109.0318,32.6537,安康市,香溪洞,,50,50,38,33,29,127,,125,125,6,6,21,10,0.5,0.6
2025-05-26T2000,2644A,109.0072,32.6975,安康市,汉滨区检察院,,50,50,48,30,31,100,,129,128,20,9,10,20,0.8,0.6
2025-05-26T2000,4054A,109.0325,32.6913,安康市,市邮政管理局,"颗粒物(PM10),细颗粒物(PM2.5)",55,60,46,39,29,89,,128,126,21,9,32,27,0.9,0.6
2025-05-26T2000,2291A,117.0809,30.5177,安庆市,环科院,,,69,65,46,44,,,164,,30,28,4,4,0.9,0.8
2025-05-26T2000,2292A,117.0331,30.5119,安庆市,马山宾馆,细颗粒物(PM2.5),69,62,60,50,47,134,,168,164,28,31,6,5,0.8,0.7
2025-05-26T2000,2294A,116.9896,30.6145,安庆市,安庆大学,细颗粒物(PM2.5),63,72,60,45,48,117,,163,158,34,20,3,4,0.5,0.5
2025-05-26T2000,3173A,117.0598,30.5351,安庆市,市人大,细颗粒物(PM2.5),62,66,64,44,46,168,,178,178,11,22,10,10,0.7,0.7
2025-05-26T2000,3122A,105.9606,26.2611,安顺市,伍家关,,21,12,19,6,11,66,,90,85,6,7,2,2,0.4,0.4
2025-05-26T2000,3123A,105.9408,26.2431,安顺市,凤凰山,,26,21,21,16,13,81,,110,104,7,7,6,6,0.5,0.4
2025-05-26T2000,3124A,105.9439,26.2564,安顺市,金钟山,,24,15,20,14,16,76,,104,97,7,6,5,5,0.3,0.3
2025-05-26T2000,3125A,105.8983,26.2481,安顺市,娄家坡,,25,,17,17,14,78,,104,98,4,4,8,8,0.4,0.4
2025-05-26T2000,1818A,114.4839,36.0621,安阳市,棉研所,,,,,,,,,,,,,,,,
2025-05-26T2000,1819A,114.3551,36.1017,安阳市,红庙街,,47,44,82,18,46,150,,200,191,2,17,2,10,0.5,0.9
2025-05-26T2000,1820A,114.361,36.0681,安阳市,银杏小区,,46,37,81,16,48,145,,192,186,8,28,2,8,0.3,0.8
2025-05-26T2000,3141A,114.3922,36.0878,安阳市,信访局,,49,42,80,30,46,154,,202,192,9,24,3,8,0.5,0.8
2025-05-26T2000,3669A,114.4705,36.0637,安阳市,左辅环卫站,,42,37,89,13,48,132,,188,182,15,24,1,6,0.6,0.9
2025-05-26T2000,3703A,114.2917,36.0949,安阳市,安钢职工学校,,48,48,86,17,44,142,,193,186,8,24,4,11,0.3,1
2025-05-26T2000,1748A,123.044,41.1196,鞍山市,深沟寺,臭氧1小时,69,53,39,30,25,175,,181,181,18,20,8,10,0.7,0.8
2025-05-26T2000,1749A,123.011,41.0931,鞍山市,太阳城,颗粒物(PM10),56,61,46,33,25,162,,169,169,17,19,11,11,0.6,0.8
2025-05-26T2000,1750A,123.0485,41.1442,鞍山市,太平,颗粒物(PM10),60,70,59,32,23,157,,164,164,24,25,10,12,0.9,1
2025-05-26T2000,1751A,122.9642,41.0971,鞍山市,铁西三道街,颗粒物(PM10),55,59,64,31,28,150,,168,168,26,39,5,8,0.5,0.9
2025-05-26T2000,1753A,123.022,41.0821,鞍山市,明达新区,颗粒物(PM10),57,63,46,38,26,156,,166,166,20,21,9,10,0.5,0.6
2025-05-26T2000,1754A,123.1289,41.0228,鞍山市,千山,,,,22,,13,,,115,,,11,,7,,0.4
2025-05-26T2000,4201A,122.9446,41.0826,鞍山市,兴盛南路290号,颗粒物(PM10),62,73,81,35,31,143,,168,167,29,43,6,11,0.5,0.9
2025-05-26T2000,2195A,107.4212,40.761,巴彦淖尔市,附二中,臭氧1小时,84,46,52,32,28,187,,178,178,16,11,9,9,0.6,0.5
2025-05-26T2000,2196A,107.37,40.7372,巴彦淖尔市,市环保大楼,臭氧1小时,82,51,52,30,29,185,,187,187,20,16,8,8,0.4,0.3
2025-05-26T2000,1956A,86.1472,41.7538,巴音郭楞蒙古自治州,孔雀公园,颗粒物(PM10),94,138,111,38,34,76,,92,92,7,17,7,8,0.2,0.3
2025-05-26T2000,1957A,86.1972,41.7166,巴音郭楞蒙古自治州,棉纺厂,颗粒物(PM10),124,197,141,39,25,87,,99,98,10,26,3,4,0.2,0.2
2025-05-26T2000,1958A,86.2357,41.7173,巴音郭楞蒙古自治州,经济开发区,,,133,107,23,23,85,,94,93,,8,8,8,0.0,0.1
2025-05-26T2000,2914A,106.7677,31.8794,巴中市,苏山坪,,44,44,44,29,29,124,,132,129,7,8,5,5,0.3,0.3
2025-05-26T2000,3181A,106.7768,31.8526,巴中市,市五中,颗粒物(PM10),51,52,52,28,31,106,,137,131,14,15,7,7,0.6,0.6
2025-05-26T2000,3183A,106.7418,31.8654,巴中市,圣泉水务公司,,45,45,46,27,28,120,,140,135,15,20,6,5,0.5,0.5
2025-05-26T2000,3616A,106.7616,31.8344,巴中市,市中心医院,,,45,49,27,32,98,,132,127,,17,6,6,,0.6
2025-05-26T2000,2235A,122.7911,45.6077,白城市,洮北区环保局,,49,48,42,34,27,105,,127,125,17,13,3,3,0.4,0.3
2025-05-26T2000,2236A,122.8738,45.5725,白城市,市环保局,,49,41,37,34,31,88,,99,,24,12,11,9,0.4,0.5
2025-05-26T2000,2231A,126.4219,41.9171,白山市,喜丰,,44,44,44,14,14,99,,121,118,24,26,8,8,0.6,0.6
2025-05-26T2000,2232A,126.4077,41.9419,白山市,环保局,,33,28,36,23,13,98,,118,116,20,17,12,5,0.5,0.5
2025-05-26T2000,2647A,104.1724,36.5446,白银市,第三小学,,38,38,56,18,27,104,,110,110,16,18,17,95,0.8,1.1
2025-05-26T2000,2648A,104.1465,36.5482,白银市,动力公司,,37,36,42,19,23,118,,120,120,10,19,18,57,0.4,0.6
2025-05-26T2000,2512A,106.6103,23.9011,百色市,市监测站,,31,31,27,16,16,51,,86,81,16,11,14,6,0.8,0.9
2025-05-26T2000,2513A,106.6538,23.8859,百色市,市中心血站,,49,49,34,32,24,88,,89,88,14,16,14,8,0.8,0.7
2025-05-26T2000,3406A,106.6085,23.8798,百色市,祈福高中,"颗粒物(PM10),细颗粒物(PM2.5)",54,57,28,38,20,86,,95,94,17,12,14,6,0.5,0.5
2025-05-26T2000,2270A,117.396,32.939,蚌埠市,工人疗养院,颗粒物(PM10),72,93,92,50,55,117,,140,127,32,24,4,8,0.6,0.6
2025-05-26T2000,2271A,117.3605,32.9427,蚌埠市,百货大楼,细颗粒物(PM2.5),84,105,89,62,59,101,,138,125,48,26,8,9,0.7,0.6
2025-05-26T2000,2273A,117.4185,32.8911,蚌埠市,蚌埠学院,细颗粒物(PM2.5),74,80,80,54,61,123,,153,147,48,26,4,6,0.5,0.5
2025-05-26T2000,2274A,117.3533,32.9673,蚌埠市,淮上区政府,细颗粒物(PM2.5),78,95,88,57,62,55,,132,118,108,33,6,7,0.7,0.6
2025-05-26T2000,2275A,117.3145,32.8977,蚌埠市,高新区,细颗粒物(PM2.5),73,73,91,53,65,128,,137,136,36,32,6,9,0.6,0.6
2025-05-26T2000,3715A,117.3092,32.9314,蚌埠市,蚌埠田家炳中学,细颗粒物(PM2.5),77,90,99,56,63,138,,133,133,19,19,6,10,0.6,0.5
2025-05-26T2000,1585A,109.8756,40.6532,包头市,市环境监测站,,45,32,36,13,17,144,,148,148,22,27,10,10,0.5,1
2025-05-26T2000,1587A,109.9991,40.5842,包头市,包头八中,,46,38,42,23,22,145,,147,147,26,28,10,12,0.5,1
2025-05-26T2000,1588A,109.8538,40.6821,包头市,青山宾馆,,46,,34,29,20,145,,145,145,20,29,10,11,0.6,0.7
2025-05-26T2000,1589A,109.8642,40.6288,包头市,惠龙物流,,46,33,35,21,19,146,,154,154,24,25,8,9,0.4,0.5
2025-05-26T2000,1590A,110.0377,40.5546,包头市,东河鸿龙湾,,40,31,37,23,14,128,,143,143,24,29,8,9,0.6,0.7
2025-05-26T2000,3283A,109.9154,40.5685,包头市,滨河大厦,,45,30,36,22,19,142,,151,151,22,29,8,10,0.5,0.9
2025-05-26T2000,3419A,109.9447,40.6261,包头市,包头市委党校,,44,,30,28,17,138,,148,148,26,23,10,11,0.3,0.6
2025-05-26T2000,3683A,109.8331,40.6576,包头市,昆区政府,细颗粒物(PM2.5),53,,37,37,26,153,,151,151,24,32,9,11,0.5,0.7
2025-05-26T2000,1930A,107.185,34.3063,宝鸡市,庙沟村,,,58,28,26,19,149,,163,163,19,13,12,8,,0.6
2025-05-26T2000,1931A,107.0708,34.3017,宝鸡市,竹园沟,,41,40,30,17,21,129,,156,156,16,14,5,5,0.5,0.4
2025-05-26T2000,1932A,107.1906,34.3672,宝鸡市,三陆医院,,49,40,39,28,26,155,,157,157,19,25,8,10,0.5,0.4
2025-05-26T2000,1933A,107.1431,34.3547,宝鸡市,监测站,颗粒物(PM10),52,54,37,27,24,149,,154,154,22,20,6,7,0.4,0.3
2025-05-26T2000,1934A,107.1186,34.3739,宝鸡市,技工学校,,47,47,37,28,24,143,,156,156,22,13,6,7,0.7,0.6
2025-05-26T2000,1935A,107.3906,34.3528,宝鸡市,陈仓区环保局家属楼,,50,50,37,31,24,160,,159,159,17,17,6,5,0.6,0.6
2025-05-26T2000,1936A,107.2058,34.3497,宝鸡市,文理学院,臭氧1小时,53,46,35,29,25,162,,160,160,16,16,8,9,0.5,0.5
2025-05-26T2000,1937A,107.2386,34.3622,宝鸡市,三迪小学,,48,44,37,32,28,153,,156,156,20,19,9,9,0.5,0.4
2025-05-26T2000,1051A,115.493,38.8632,保定市,游泳馆,颗粒物(PM10),55,60,80,38,49,162,,182,182,16,22,3,5,0.2,0.4
2025-05-26T2000,1052A,115.5213,38.8959,保定市,华电二区,臭氧1小时,69,50,62,34,39,175,,187,187,8,18,2,4,0.4,0.5
2025-05-26T2000,1053A,115.4713,38.9108,保定市,接待中心,颗粒物(PM10),57,63,67,39,40,164,,181,180,15,23,3,3,0.4,0.5
2025-05-26T2000,1054A,115.4612,38.8416,保定市,地表水厂,颗粒物(PM10),68,86,85,31,39,155,,181,180,22,21,4,5,0.3,0.5
2025-05-26T2000,3581A,115.31981,38.95208,保定市,满城区生态环境分局,颗粒物(PM10),60,70,65,29,28,151,,188,188,17,21,2,2,0.1,0.1
2025-05-26T2000,3582A,115.47694,38.76408,保定市,清苑区第二中学,颗粒物(PM10),67,83,100,45,52,149,,200,196,16,20,3,5,0.4,0.6
2025-05-26T2000,3583A,115.62909,39.02311,保定市,徐水物探局,颗粒物(PM10),72,93,85,31,38,144,,175,173,22,21,2,3,0.4,0.5
2025-05-26T2000,4004A,115.4202,38.8656,保定市,双鹰农机,颗粒物(PM10),61,71,67,35,37,153,,186,183,23,17,4,5,0.3,0.4
2025-05-26T2000,4034A,115.5150,38.8590,保定市,植保所站,细颗粒物(PM2.5),58,62,78,41,45,152,,182,182,14,20,5,6,0.4,0.6
2025-05-26T2000,2594A,99.1678,25.1081,保山市,市环境监测站,,19,15,12,10,12,58,,72,70,16,9,8,7,0.5,0.4
2025-05-26T2000,2595A,99.1711,25.1328,保山市,市环保局,,,,14,,14,59,,76,74,,6,7,7,0.5,0.4
2025-05-26T2000,1866A,109.2262,21.588,北海市,牛尾岭水库,,26,26,28,17,21,61,,85,84,16,10,6,6,0.7,0.7
2025-05-26T2000,1867A,109.1436,21.4086,北海市,海滩公园,,50,50,33,29,21,85,,96,96,14,8,6,5,0.7,0.6
2025-05-26T2000,1868A,109.0981,21.4661,北海市,新市环保局,,45,42,34,31,28,85,,100,100,10,9,4,4,0.8,0.8
2025-05-26T2000,1869A,109.1778,21.5233,北海市,北海工业园,细颗粒物(PM2.5),62,47,37,44,29,77,,98,97,16,10,8,8,0.7,0.7
2025-05-26T2000,3400A,109.1911,21.4415,北海市,龙潭自来水厂,细颗粒物(PM2.5),63,52,31,45,28,88,,104,104,16,10,5,4,0.6,0.5
2025-05-26T2000,1001A,116.3621,39.8784,北京市,万寿西宫,臭氧1小时,101,79,64,40,38,202,,201,201,23,37,5,6,0.7,0.7
2025-05-26T2000,1002A,116.2202,40.2915,北京市,定陵,,,,,,,,,,,,,,,,
2025-05-26T2000,1003A,116.4174,39.9289,北京市,东四,臭氧1小时,103,75,70,36,38,206,,201,201,24,34,5,6,0.6,0.6
2025-05-26T2000,1004A,116.4072,39.8863,北京市,天坛,臭氧1小时,82,60,61,27,35,185,,194,194,15,29,3,4,0.6,0.7
2025-05-26T2000,1005A,116.462,39.9365,北京市,农展馆,臭氧1小时,79,66,63,31,35,183,,181,181,18,38,5,6,0.7,0.8
2025-05-26T2000,1006A,116.3392,39.9295,北京市,官园,臭氧1小时,80,72,65,40,36,184,,178,178,21,36,7,8,0.6,0.5
2025-05-26T2000,1007A,116.2878,39.9611,北京市,海淀万柳,臭氧1小时,73,70,61,35,32,178,,175,175,26,40,4,4,0.6,0.5
2025-05-26T2000,1008A,116.6636,40.135,北京市,顺义新城,臭氧1小时,59,63,67,32,38,167,,177,177,21,30,8,8,0.6,0.6
2025-05-26T2000,1009A,116.6275,40.3275,北京市,怀柔镇,,35,13,54,3,35,112,,186,182,11,17,2,4,0.5,0.8
2025-05-26T2000,1010A,116.2296,40.217,北京市,昌平镇,,41,41,51,22,32,122,,179,179,15,24,4,5,0.7,0.8
2025-05-26T2000,1011A,116.3966,39.9821,北京市,奥体中心,,50,48,56,26,32,159,,166,166,24,38,4,5,0.7,0.8
2025-05-26T2000,3281A,115.9718,40.4529,北京市,延庆夏都,,26,17,37,9,24,83,,110,108,16,17,3,4,0.4,0.6
2025-05-26T2000,3418A,116.8336,40.4095,北京市,密云新城,,34,9,55,6,32,107,,168,163,11,18,2,4,0.3,0.6
2025-05-26T2000,3671A,116.088,39.9726,北京市,门头沟三家店,颗粒物(PM10),67,83,47,34,18,94,,172,169,39,20,2,2,0.6,0.4
2025-05-26T2000,3672A,116.1541,39.8204,北京市,丰台云岗,颗粒物(PM10),67,83,58,45,30,159,,178,178,23,23,5,6,0.5,0.4
2025-05-26T2000,3673A,116.6804,39.9081,北京市,通州东关,臭氧1小时,75,65,75,33,40,180,,192,192,24,33,3,6,0.6,0.8
2025-05-26T2000,3674A,115.9577,39.7603,北京市,房山燕山,颗粒物(PM10),53,56,58,25,34,115,,178,161,24,17,2,3,0.6,0.7
2025-05-26T2000,3675A,116.4672,39.7733,北京市,大兴旧宫,臭氧1小时,60,65,65,30,35,168,,197,197,20,31,4,4,0.7,0.8
2025-05-26T2000,3694A,115.986,40.4563,北京市,延庆石河营,,26,16,37,9,24,81,,105,104,15,17,2,2,0.3,0.5
2025-05-26T2000,3695A,116.6151,40.3053,北京市,怀柔新城,,36,17,54,8,36,115,,186,182,11,13,1,3,0.4,0.7
2025-05-26T2000,3696A,116.2545,39.8768,北京市,丰台小屯,臭氧1小时,62,68,62,30,32,169,,173,173,26,41,3,4,0.5,0.5
2025-05-26T2000,3697A,116.84,40.3844,北京市,密云镇,,35,14,54,7,35,109,,175,170,10,22,6,9,0.3,0.6
2025-05-26T2000,4182A,116.1942,39.9158,北京市,八角北路9号,颗粒物(PM10),71,91,60,37,30,159,,168,168,23,23,4,4,0.5,0.4
2025-05-26T2000,4194A,117.0790,40.1518,北京市,洳河巡河路,臭氧1小时,74,60,69,30,41,179,,190,190,10,10,7,8,0.7,0.7
2025-05-26T2000,1761A,123.8275,41.3064,本溪市,大峪,,45,37,34,16,14,141,,155,154,7,18,6,9,0.5,0.7
2025-05-26T2000,1762A,123.7567,41.3325,本溪市,溪湖,,43,43,61,21,22,131,,158,156,14,26,7,10,0.8,1.1
2025-05-26T2000,1763A,123.7169,41.3094,本溪市,彩屯,,50,50,47,27,26,112,,155,150,30,25,22,18,2.1,1.5
2025-05-26T2000,1764A,123.7669,41.2864,本溪市,东明,,44,44,45,20,17,133,,152,151,14,28,6,9,0.7,1
2025-05-26T2000,1765A,123.7992,41.2664,本溪市,新立屯,,40,29,26,18,14,128,,144,142,15,26,6,8,0.6,0.7
2025-05-26T2000,1766A,123.8142,41.3472,本溪市,威宁,,44,44,52,22,18,134,,154,153,16,28,6,7,0.4,0.7
2025-05-26T2000,2587A,105.2864,27.3125,毕节市,八中,,29,26,35,20,28,80,,97,96,14,12,7,6,0.5,0.6
2025-05-26T2000,2588A,105.31,27.2944,毕节市,师专,,26,24,31,13,21,82,,99,99,16,17,6,6,0.4,0.5
2025-05-26T2000,4263A,105.3688,27.3598,毕节市,工业大道,,28,17,27,11,19,89,,105,105,15,16,9,7,0.5,0.6
2025-05-26T2000,1629A,118.0018,37.3617,滨州市,第二水厂,臭氧1小时,60,58,62,19,31,168,,181,180,13,25,10,11,0.3,0.3
2025-05-26T2000,1630A,117.9776,37.393,滨州市,北中新校,,48,41,50,24,30,151,,169,168,20,23,6,8,0.6,0.7
2025-05-26T2000,3514A,117.9378,37.3956,滨州市,中海酒店,,50,44,54,19,34,158,,187,184,16,23,8,11,0.7,0.7
2025-05-26T2000,3515A,117.9378,37.3553,滨州市,开发区一中,细颗粒物(PM2.5),52,48,62,36,35,154,,168,167,21,43,7,8,0.6,0.7
2025-05-26T2000,3516A,118.0917,37.694,滨州市,金海六路,颗粒物(PM10),52,54,60,19,29,131,,181,174,48,39,9,9,0.3,0.3
2025-05-26T2000,4028A,117.9956,37.3753,滨州市,滨州市西街道办事处,臭氧1小时,67,46,54,27,35,173,,190,189,13,23,7,8,0.5,0.6
2025-05-26T2000,2311A,115.8072,33.8399,亳州市,污水处理厂,颗粒物(PM10),56,61,45,28,29,162,,181,180,9,7,4,3,0.4,0.4
2025-05-26T2000,2312A,115.7789,33.8518,亳州市,三国揽胜宫,细颗粒物(PM2.5),54,51,47,38,33,153,,178,175,14,9,4,4,0.6,0.5
2025-05-26T2000,3332A,115.7633,33.8034,亳州市,亳州学院,臭氧1小时,52,51,42,30,32,161,,182,180,10,9,4,4,0.5,0.4
2025-05-26T2000,2693A,82.0485,44.8556,博尔塔拉蒙古自治州,市党校,,41,41,28,6,11,101,,104,104,7,10,3,3,0.3,0.3
2025-05-26T2000,2694A,82.0806,44.8969,博尔塔拉蒙古自治州,市环保局,颗粒物(PM10),53,56,37,14,13,95,,100,100,10,14,3,3,0.4,0.5
2025-05-26T2000,1071A,116.8842,38.2991,沧州市,沧县城建局,,47,47,65,21,35,141,,176,171,24,38,3,3,0.3,0.4
2025-05-26T2000,1072A,116.8584,38.3254,沧州市,电视转播站,颗粒物(PM10),51,52,67,22,39,156,,174,173,14,28,6,4,0.3,0.4
2025-05-26T2000,1073A,116.8709,38.3228,沧州市,市环保局,"颗粒物(PM10),细颗粒物(PM2.5)",54,57,80,38,42,147,,175,172,16,29,2,2,0.5,0.4
2025-05-26T2000,3324A,116.8136,38.3004,沧州市,河北水利电力学院,,48,48,63,33,36,150,,186,182,24,34,6,6,0.3,0.4
2025-05-26T2000,2622A,97.1806,31.1273,昌都市,昌都监测站,,27,,22,6,13,84,,93,93,2,12,4,4,0.2,0.3
2025-05-26T2000,3719A,97.1714,31.1406,昌都市,昌都会议中心,,27,10,24,6,12,85,,95,95,2,7,3,3,0.2,0.2
2025-05-26T2000,2690A,88.1236,43.8886,昌吉回族自治州,天山天池,颗粒物(PM10),54,57,38,15,9,102,,126,125,6,6,7,7,0.5,0.6
2025-05-26T2000,2692A,87.2717,44.0297,昌吉回族自治州,新区政务中心,,,134,54,24,12,110,,125,124,,14,8,9,0.3,0.5
2025-05-26T2000,3613A,87.3095,44.0142,昌吉回族自治州,亚心广场,颗粒物(PM10),93,136,73,19,16,103,,116,115,4,24,8,9,0.2,0.4
2025-05-26T2000,1119A,125.3325,43.9166,长春市,食品厂,,45,45,40,20,17,100,,116,116,40,30,6,5,0.4,0.3
2025-05-26T2000,1120A,125.2863,43.9027,长春市,客车厂,,46,46,45,26,18,97,,119,119,39,28,7,6,0.4,0.3
2025-05-26T2000,1121A,125.2841,43.8463,长春市,邮电学院,,46,46,39,24,19,112,,124,124,28,22,8,7,0.3,0.2
2025-05-26T2000,1122A,125.3716,43.8772,长春市,劳动公园,,46,46,34,20,15,110,,120,120,25,20,9,7,0.5,0.4
2025-05-26T2000,1123A,125.3297,43.8805,长春市,园林处,,36,33,36,22,16,114,,121,121,26,22,9,7,0.4,0.4
2025-05-26T2000,1124A,125.4605,43.79,长春市,净月潭,,42,42,33,15,15,114,,115,115,16,19,7,7,0.5,0.4
2025-05-26T2000,1125A,125.7194,43.515,长春市,甩湾子,,,,,,,,,,,,,,,,
2025-05-26T2000,1126A,125.3863,43.8447,长春市,经开区环卫处,颗粒物(PM10),57,63,46,22,13,107,,117,117,28,24,7,7,0.4,0.3
2025-05-26T2000,1127A,125.245,43.7783,长春市,高新区管委会,,43,43,41,21,20,104,,120,120,31,25,8,7,0.3,0.3
2025-05-26T2000,1128A,125.1761,43.8325,长春市,岱山公园,,45,45,33,31,22,53,,120,114,83,29,7,5,0.4,0.3
2025-05-26T2000,1335A,113.0833,28.2325,长沙市,经开区环保局,臭氧1小时,58,47,57,25,42,166,,183,183,17,20,4,6,0.8,0.9
2025-05-26T2000,1336A,112.8872,28.2189,长沙市,高开区环保局,臭氧1小时,73,46,56,27,42,178,,190,190,14,13,6,10,0.5,0.7
2025-05-26T2000,1337A,113.0792,28.2053,长沙市,马坡岭,,48,47,57,28,42,152,,174,174,18,22,4,5,0.3,0.5
2025-05-26T2000,1338A,112.9394,28.19,长沙市,湖南师范大学,颗粒物(PM10),52,54,56,28,31,142,,188,185,21,18,6,9,0.5,0.7
2025-05-26T2000,1339A,113.0178,28.1322,长沙市,雨花区环保局,臭氧1小时,55,37,51,25,38,164,,174,174,10,13,5,7,1.1,1.2
2025-05-26T2000,1340A,112.9792,28.2597,长沙市,伍家岭,,50,50,57,24,30,137,,180,178,25,14,3,5,0.6,0.7
2025-05-26T2000,1341A,113.0014,28.1944,长沙市,火车新站,颗粒物(PM10),54,57,56,31,36,136,,167,166,22,16,7,10,0.5,0.6
2025-05-26T2000,1342A,112.9844,28.1178,长沙市,天心区环保局,臭氧1小时,54,40,52,28,38,163,,184,184,18,16,3,5,0.7,0.9
2025-05-26T2000,1343A,112.8908,28.1308,长沙市,湖南中医药大学,细颗粒物(PM2.5),59,44,57,42,40,141,,179,177,40,20,3,4,0.6,0.8
2025-05-26T2000,1344A,112.9581,28.3611,长沙市,沙坪,细颗粒物(PM2.5),57,,53,40,35,138,,198,195,15,16,4,5,0.6,0.7
2025-05-26T2000,1727A,113.1147,36.1547,长治市,清华站,,50,46,40,22,23,159,,184,182,23,24,9,10,0.7,0.7
2025-05-26T2000,1730A,113.0886,36.2125,长治市,审计局,,50,43,36,31,25,160,,181,181,25,23,12,11,0.5,0.5
2025-05-26T2000,1731A,113.0844,36.1856,长治市,长治八中,,49,47,46,34,28,147,,166,165,24,22,11,13,0.2,0.2
2025-05-26T2000,2845A,113.1569,36.1911,长治市,德盛苑,,49,49,36,31,24,155,,172,172,19,14,11,8,0.7,0.7
2025-05-26T2000,3568A,113.06,36.0464,长治市,向阳小学,,,,55,37,31,167,,172,172,22,19,4,6,0.5,0.6
2025-05-26T2000,3569A,112.8792,36.3144,长治市,屯留一中,,44,30,38,25,34,140,,198,192,24,30,8,12,0.3,0.3
2025-05-26T2000,4189A,113.1131,36.19948,长治市,英华南巷50号,,49,45,42,31,28,154,,179,178,24,20,11,11,0.7,0.7
2025-05-26T2000,4190A,113.2367,36.3344,长治市,学府街1号,,,,44,23,26,173,,190,187,,35,6,8,0.6,0.8
2025-05-26T2000,1854A,111.6975,28.9703,常德市,市二中,细颗粒物(PM2.5),62,58,43,44,32,140,,127,127,17,11,8,6,1.1,0.9
2025-05-26T2000,1857A,111.7158,29.1456,常德市,白鹤山,,,,,,,,,,,,,,,,
2025-05-26T2000,3138A,111.7153,29.0289,常德市,武陵区永安,细颗粒物(PM2.5),55,53,46,39,35,155,,136,136,13,15,8,9,0.7,0.6
2025-05-26T2000,3139A,111.6892,28.9881,常德市,鼎城区玉霞,细颗粒物(PM2.5),57,57,44,40,28,158,,140,140,12,12,5,3,0.7,0.6
2025-05-26T2000,3140A,111.6625,29.0531,常德市,武陵区长庚,臭氧1小时,64,47,42,35,28,171,,143,143,8,8,8,8,0.7,0.6
2025-05-26T2000,1196A,119.9633,31.762,常州市,市监测站,颗粒物(PM10),51,52,50,32,29,139,,166,166,23,19,7,8,0.3,0.4
2025-05-26T2000,1200A,119.9468,31.7069,常州市,武进监测站,,43,43,49,28,27,133,,159,159,30,22,7,7,0.6,0.7
2025-05-26T2000,1201A,119.9255,31.9087,常州市,安家,颗粒物(PM10),51,51,54,27,27,128,,143,143,23,21,11,11,0.2,0.4
2025-05-26T2000,3002A,119.9805,31.8174,常州市,行政中心,,46,38,38,31,27,145,,164,164,20,19,6,7,0.5,0.6
2025-05-26T2000,3003A,120.0522,31.7748,常州市,经开区,,48,48,49,29,25,147,,179,178,27,26,4,6,0.6,0.7
2025-05-26T2000,3010A,119.9025,31.7964,常州市,钟楼,,50,50,47,22,24,150,,163,163,18,16,8,8,0.5,0.6
2025-05-26T2000,3429A,119.8598,31.7066,常州市,武进经发区,颗粒物(PM10),51,52,54,32,33,135,,163,162,22,19,13,13,0.7,0.8
2025-05-26T2000,3430A,119.5826,31.7245,常州市,金坛城区,细颗粒物(PM2.5),53,46,56,37,28,160,,172,172,16,19,8,10,0.4,0.5
2025-05-26T2000,2220A,120.4318,41.5881,朝阳市,西梁,颗粒物(PM10),52,53,47,34,29,158,,156,156,16,27,9,10,0.5,0.5
2025-05-26T2000,2221A,120.4521,41.5646,朝阳市,河畔小区,臭氧1小时,59,40,36,26,21,167,,161,161,10,17,9,8,0.4,0.4
2025-05-26T2000,2222A,120.4176,41.5648,朝阳市,八里堡,颗粒物(PM10),69,88,66,30,26,161,,166,166,18,24,8,8,0.5,0.6
2025-05-26T2000,2223A,120.3806,41.5969,朝阳市,农业园区,,48,42,44,30,33,151,,158,158,17,22,8,8,0.5,0.5
2025-05-26T2000,1705A,116.6367,23.6719,潮州市,西园路,,35,35,18,24,11,91,,81,81,13,6,6,3,0.7,0.5
2025-05-26T2000,3026A,116.6183,23.6608,潮州市,市政府,细颗粒物(PM2.5),57,48,23,40,13,109,,86,86,14,5,6,3,0.9,0.7
2025-05-26T2000,4036A,116.6461,23.6761,潮州市,金山,,45,34,22,31,11,80,,77,77,11,6,8,6,0.7,0.6
2025-05-26T2000,2472A,113.0073,25.9061,郴州市,马头岭,颗粒物(PM10),53,55,53,23,28,93,,114,114,12,10,8,9,0.4,0.4
2025-05-26T2000,2473A,113.0116,25.8226,郴州市,市职中,细颗粒物(PM2.5),57,52,46,40,40,66,,124,120,20,10,3,3,0.7,0.7
2025-05-26T2000,2475A,113.0383,25.8071,郴州市,市审计局,,48,48,46,29,41,106,,128,128,11,8,6,7,0.7,0.8
2025-05-26T2000,2476A,113.0348,25.7759,郴州市,市环保局,,47,47,52,32,42,101,,130,130,13,8,4,5,0.6,0.7
2025-05-26T2000,4252A,113.0138,25.8011,郴州市,好美居路49号,,43,42,46,30,35,80,,126,123,32,10,9,9,0.7,0.7
2025-05-26T2000,1431A,103.9728,30.7236,成都市,金泉两河,颗粒物(PM10),56,62,64,32,32,117,,156,154,14,14,4,4,0.4,0.4
2025-05-26T2000,1432A,104.176,30.6872,成都市,十里店,细颗粒物(PM2.5),64,72,65,46,40,129,,172,163,18,15,7,6,0.5,0.5
2025-05-26T2000,1433A,104.079,30.5706,成都市,三瓦窑,细颗粒物(PM2.5),79,86,63,58,36,135,,167,166,19,17,7,6,1.0,0.7
2025-05-26T2000,1434A,104.1114,30.63,成都市,沙河铺,"颗粒物(PM10),细颗粒物(PM2.5)",62,74,64,44,33,112,,138,137,20,17,10,9,0.4,0.4
2025-05-26T2000,1437A,104.0786,30.6531,成都市,君平街,细颗粒物(PM2.5),68,79,69,49,39,115,,151,150,23,19,10,9,0.7,0.6
2025-05-26T2000,1438A,103.613,31.0283,成都市,灵岩寺,,,,,,,,,,,,,,,,
2025-05-26T2000,2880A,104.0239,30.65639,成都市,大石西路,细颗粒物(PM2.5),74,89,74,54,42,125,,163,162,17,17,7,6,0.6,0.6
2025-05-26T2000,3136A,104.2725,30.5589,成都市,龙泉驿区区政府,颗粒物(PM10),64,78,48,41,27,137,,148,148,17,11,8,6,0.6,0.6
2025-05-26T2000,3357A,104.0106,30.6931,成都市,金博路,颗粒物(PM10),56,62,58,37,32,110,,155,152,23,15,9,9,0.5,0.4
2025-05-26T2000,3359A,104.0578,30.5225,成都市,华阳,细颗粒物(PM2.5),67,70,54,48,40,128,,153,152,20,14,9,8,0.7,0.6
2025-05-26T2000,3488A,104.3853,30.7453,成都市,青白江技师分院,细颗粒物(PM2.5),87,88,59,64,35,134,,165,163,22,17,6,5,0.6,0.5
2025-05-26T2000,3489A,104.0789,30.4072,成都市,科学城,颗粒物(PM10),66,81,54,43,35,156,,158,158,18,11,6,5,0.7,0.6
2025-05-26T2000,4011A,103.8506,30.6947,成都市,光华大道三段,细颗粒物(PM2.5),67,66,70,48,44,96,,157,152,20,14,6,7,0.8,0.7
2025-05-26T2000,4224A,104.2433,30.5353,成都市,鲸龙路1057号,细颗粒物(PM2.5),75,95,63,55,37,136,,145,145,23,14,10,8,0.7,0.6
2025-05-26T2000,1062A,117.9531,40.9081,承德市,铁路,,30,30,49,15,27,82,,149,132,27,20,3,6,0.3,0.5
2025-05-26T2000,1063A,117.9392,40.9763,承德市,中国银行,,36,36,50,16,28,85,,144,134,13,14,3,6,0.3,0.6
2025-05-26T2000,1064A,117.9503,40.928,承德市,开发区,,40,40,48,24,33,88,,149,138,18,15,2,5,0.3,0.5
2025-05-26T2000,1065A,117.8051,40.9655,承德市,文化中心,,,38,75,3,30,86,,141,130,14,20,1,17,,0.7
2025-05-26T2000,1066A,117.9268,41.0026,承德市,离宫,细颗粒物(PM2.5),57,,49,40,38,60,,146,130,12,11,3,5,0.3,0.5
2025-05-26T2000,2314A,117.47,30.6618,池州市,池州学院,细颗粒物(PM2.5),69,66,50,50,38,154,,163,163,14,12,8,5,0.7,0.8
2025-05-26T2000,3237A,117.4918,30.6617,池州市,展览馆,细颗粒物(PM2.5),65,62,49,47,35,159,,164,164,10,11,6,5,0.7,0.8
2025-05-26T2000,3333A,117.5627,30.695,池州市,第八中学,细颗粒物(PM2.5),58,61,49,41,34,151,,166,166,15,12,6,6,0.5,0.6
2025-05-26T2000,3334A,117.5038,30.6243,池州市,第十二中学,细颗粒物(PM2.5),65,68,53,47,34,124,,170,166,33,17,5,4,0.7,0.8
2025-05-26T2000,1744A,118.9233,42.2816,赤峰市,松山一中,,43,43,42,21,20,112,,136,132,12,30,9,12,0.4,0.6
2025-05-26T2000,1745A,118.9576,42.2728,赤峰市,哈达街,颗粒物(PM10),54,58,43,21,26,97,,128,122,18,26,8,10,0.5,0.5
2025-05-26T2000,1746A,118.8788,42.2554,赤峰市,天义路,,36,35,35,25,29,108,,133,131,10,24,9,12,0.5,0.5
2025-05-26T2000,3058A,119.2658,42.0353,赤峰市,银河街,颗粒物(PM10),56,61,60,26,29,99,,126,122,9,19,14,20,0.9,0.9
2025-05-26T2000,3286A,118.9359,42.3147,赤峰市,桥北物流园区,颗粒物(PM10),71,91,47,14,32,93,,130,123,19,28,8,15,0.6,0.6
2025-05-26T2000,2521A,107.3476,22.4136,崇左市,市环保局江州分局,,47,47,26,25,16,108,,110,110,7,5,6,6,0.4,0.3
2025-05-26T2000,4256A,107.3750,22.3736,崇左市,石景林东路7号,,40,40,29,27,18,117,,120,120,8,7,3,4,0.6,0.6
2025-05-26T2000,2298A,118.3093,32.3153,滁州市,老年大学,细颗粒物(PM2.5),58,46,56,41,41,159,,198,190,14,19,3,2,0.4,0.5
2025-05-26T2000,2299A,118.3244,32.2786,滁州市,人大宾馆,细颗粒物(PM2.5),60,51,59,43,40,163,,184,181,20,22,4,5,0.5,0.5
2025-05-26T2000,3207A,118.3118,32.3038,滁州市,市政府原办公楼,细颗粒物(PM2.5),58,50,53,41,39,161,,202,194,13,14,4,5,0.5,0.5
2025-05-26T2000,3331A,118.3267,32.2634,滁州市,图书馆,细颗粒物(PM2.5),62,45,54,44,43,156,,189,184,14,17,8,9,0.5,0.6
2025-05-26T2000,2605A,101.5482,25.0441,楚雄彝族自治州,州环境监测站,,18,,11,11,12,56,,91,82,20,12,6,7,0.7,0.6
2025-05-26T2000,2606A,101.538,25.0492,楚雄彝族自治州,市经济开发区,,18,18,13,11,13,52,,85,78,23,13,6,8,0.7,0.6
2025-05-26T2000,2548A,107.5277,31.2827,达州市,达州职业技术学院,,49,49,53,11,22,52,,116,106,51,24,5,6,0.3,0.8
2025-05-26T2000,2549A,107.5086,31.2186,达州市,市环境监测站,,39,39,51,14,21,99,,125,122,24,28,5,5,0.3,0.4
2025-05-26T2000,2550A,107.4988,31.2132,达州市,凤凰小区,,36,36,48,14,24,102,,129,126,17,23,6,7,0.4,0.4
2025-05-26T2000,2551A,107.5082,31.1986,达州市,达县机关宾馆,,39,39,52,10,22,90,,126,122,27,34,5,5,0.4,0.4
2025-05-26T2000,2552A,107.4644,31.2124,达州市,市政中心,,39,39,51,14,22,93,,119,116,22,24,2,3,0.4,0.5
2025-05-26T2000,2614A,100.1542,25.7054,大理白族自治州,大理市环境监测站,,23,,12,16,15,72,,86,84,17,14,6,7,0.5,0.4
2025-05-26T2000,2615A,100.2171,25.5811,大理白族自治州,大理古城,,23,,12,16,9,70,,89,85,14,10,8,8,0.4,0.3
2025-05-26T2000,1109A,121.612,38.9741,大连市,甘井子,颗粒物(PM10),51,51,60,26,39,104,,169,152,21,30,5,6,0.4,0.5
2025-05-26T2000,1110A,121.565,38.9511,大连市,周水子,细颗粒物(PM2.5),55,58,55,39,39,131,,177,169,22,35,7,8,0.5,0.6
2025-05-26T2000,1111A,121.5637,38.8845,大连市,星海三站,颗粒物(PM10),51,52,52,28,38,119,,164,152,8,16,3,5,0.5,0.6
2025-05-26T2000,1112A,121.6302,38.9117,大连市,青泥洼桥,颗粒物(PM10),57,64,49,37,33,121,,190,173,13,16,7,9,0.4,0.4
2025-05-26T2000,1113A,121.6251,38.8638,大连市,傅家庄,,44,44,46,24,32,119,,172,158,13,14,5,7,0.2,0.3
2025-05-26T2000,1114A,121.5213,38.8661,大连市,七贤岭,颗粒物(PM10),54,58,49,30,33,135,,190,176,8,17,5,6,0.8,0.8
2025-05-26T2000,1115A,121.2529,38.8061,大连市,旅顺,,50,50,40,27,35,139,,155,155,14,17,3,8,0.4,0.4
2025-05-26T2000,1116A,121.7485,39.1311,大连市,金州,颗粒物(PM10),52,53,49,30,32,123,,176,164,36,26,10,11,0.5,0.4
2025-05-26T2000,1117A,121.7811,39.0496,大连市,开发区,颗粒物(PM10),57,63,57,32,39,85,,174,147,40,35,7,7,0.5,0.6
2025-05-26T2000,1118A,121.9762,39.0631,大连市,双D港,,28,25,39,19,32,79,,158,142,6,19,6,8,0.5,0.6
2025-05-26T2000,1789A,124.81117,46.03138,大庆市,大同区,细颗粒物(PM2.5),53,48,34,37,30,99,,118,118,20,14,5,4,0.6,0.5
2025-05-26T2000,1790A,125.129,46.533,大庆市,龙凤区,,45,40,44,31,26,92,,118,114,23,16,7,6,0.4,0.4
2025-05-26T2000,1791A,124.902,46.408,大庆市,红岗区,,48,43,38,33,27,95,,127,124,24,14,7,8,0.4,0.4
2025-05-26T2000,1792A,125.153,46.586,大庆市,萨尔图区,颗粒物(PM10),65,79,55,32,30,69,,103,96,40,24,7,7,0.6,0.6
2025-05-26T2000,1793A,124.9042,46.6215,大庆市,让胡路区,,48,37,40,33,35,91,,113,111,20,15,7,7,0.2,0.2
2025-05-26T2000,3481A,125.141,46.634,大庆市,萨区政府监测点,,46,46,45,14,24,103,,116,112,14,15,5,6,0.4,0.5
2025-05-26T2000,1721A,113.3819,40.1097,大同市,果树场,,,,,,,,,,,,,,,,
2025-05-26T2000,1723A,113.2994,40.0758,大同市,云冈宾馆,,,,46,,19,118,,137,137,12,26,4,8,,0.5
2025-05-26T2000,1724A,113.3444,40.0917,大同市,大同大学,,40,40,41,12,19,119,,139,139,12,26,13,15,0.3,0.6
2025-05-26T2000,1725A,113.2661,40.1269,大同市,安家小村,颗粒物(PM10),56,61,45,13,18,120,,138,138,10,17,8,10,0.4,0.8
2025-05-26T2000,1726A,113.2711,40.0844,大同市,教育学院,颗粒物(PM10),51,51,48,17,25,116,,133,133,11,25,6,10,0.1,0.3
2025-05-26T2000,3282A,113.3397,40.0597,大同市,大同市卫生学校,颗粒物(PM10),53,55,43,11,22,109,,128,128,10,24,8,11,0.4,0.6
2025-05-26T2000,3565A,113.1367,40.1122,大同市,云冈站,,46,46,48,22,24,122,,132,132,9,19,5,9,0.4,0.5
2025-05-26T2000,3566A,113.1186,40.2556,大同市,图书馆,,35,33,32,15,20,111,,132,131,13,12,6,8,0.5,0.5
2025-05-26T2000,3567A,113.5931,40.0461,大同市,区一中,,37,33,37,15,21,117,,135,135,12,18,11,16,0.3,0.3
2025-05-26T2000,4199A,113.2798,40.0997,大同市,魏都大道141号,,37,37,52,21,22,111,,128,128,10,23,5,8,0.5,0.8
2025-05-26T2000,2269A,124.1069,50.4097,大兴安岭地区,科技局,,38,38,26,15,18,72,,89,87,6,4,8,7,0.3,0.3
2025-05-26T2000,3663A,124.1164,50.4278,大兴安岭地区,红旗社区,,23,17,17,9,14,72,,92,90,8,6,5,5,0.3,0.3
2025-05-26T2000,1600A,124.3303,40.0625,丹东市,江湾东路,细颗粒物(PM2.5),57,54,55,40,32,114,,146,140,20,15,61,13,0.8,0.7
2025-05-26T2000,1601A,124.4256,40.1503,丹东市,临江后街,细颗粒物(PM2.5),84,,41,62,44,105,,134,130,22,21,8,9,0.9,0.8
2025-05-26T2000,1602A,124.3933,40.1461,丹东市,元宝山,颗粒物(PM10),57,64,60,28,24,110,,136,133,18,16,10,9,0.6,0.5
2025-05-26T2000,1603A,124.3633,40.1092,丹东市,民主桥,颗粒物(PM10),51,52,49,28,27,113,,143,138,16,20,20,10,0.6,0.6
2025-05-26T2000,3541A,109.5726,19.5167,儋州市,第一中学子站,,32,32,36,19,22,97,,92,85,5,5,4,5,0.9,0.8
2025-05-26T2000,3542A,109.5567,19.5187,儋州市,东坡学校子站,,32,,36,21,23,101,,96,88,6,6,5,5,0.6,0.6
2025-05-26T2000,2616A,98.5842,24.428,德宏傣族景颇族自治州,德宏州监测站,,23,22,19,16,12,33,,44,43,25,14,6,7,1.0,0.8
2025-05-26T2000,3677A,98.5881,24.4368,德宏傣族景颇族自治州,芒市人民政府综合楼,,24,24,22,13,11,35,,45,44,23,13,6,7,0.7,0.6
2025-05-26T2000,1901A,104.4239,31.1208,德阳市,东山公园,细颗粒物(PM2.5),162,,60,123,40,111,,119,119,21,13,12,7,1.4,1
2025-05-26T2000,1902A,104.3826,31.1317,德阳市,西小区,,,69,59,62,38,110,,128,127,,17,,5,0.8,1
2025-05-26T2000,1904A,104.3553,31.1091,德阳市,耐火材料厂,颗粒物(PM10),54,58,63,33,34,102,,119,118,14,17,6,8,0.5,0.5
2025-05-26T2000,3639A,104.4019,31.1244,德阳市,市教育局,细颗粒物(PM2.5),143,,61,109,38,110,,126,125,22,14,12,8,1.1,0.8
2025-05-26T2000,1622A,116.3032,37.4674,德州市,儿童乐园,臭氧1小时,64,41,64,22,33,171,,186,185,12,19,7,9,0.5,0.5
2025-05-26T2000,1624A,116.2991,37.4451,德州市,监理站,,50,41,58,22,33,160,,184,182,15,20,6,8,0.4,0.4
2025-05-26T2000,3066A,116.2721,37.4379,德州市,九衢泉纯净水厂,颗粒物(PM10),53,56,64,19,34,94,,171,159,61,40,7,8,0.4,0.5
2025-05-26T2000,3371A,116.3728,37.4403,德州市,开发区人民医院,颗粒物(PM10),52,53,65,22,29,150,,178,176,26,25,7,9,0.5,0.5
2025-05-26T2000,3372A,116.3572,37.4094,德州市,太阳城中学,颗粒物(PM10),52,53,67,24,35,158,,183,181,19,25,4,7,0.4,0.5
2025-05-26T2000,3511A,116.5652,37.3319,德州市,陵城艺术中心,,,,59,19,30,175,,190,189,16,18,5,8,0.2,0.7
2025-05-26T2000,2621A,99.7056,27.8317,迪庆藏族自治州,迪庆州站,,21,21,22,13,13,47,,79,62,9,8,6,6,0.6,0.6
2025-05-26T2000,3180A,99.7136,27.8094,迪庆藏族自治州,质量技术监督局,,16,12,17,6,10,51,,81,60,9,9,4,5,0.6,0.6
2025-05-26T2000,4257A,104.6092,35.5962,定西市,将台街,颗粒物(PM10),55,60,45,24,19,126,,124,124,6,22,4,4,0.4,0.4
2025-05-26T2000,4309A,104.6159,35.5701,定西市,正龙路62号,,39,39,37,17,22,123,,122,122,7,12,6,6,0.2,0.2
2025-05-26T2000,1389A,113.7547,23.0494,东莞市,莞城梨川,,50,50,45,34,35,80,,124,114,17,14,6,8,0.6,0.5
2025-05-26T2000,1390A,113.7944,23.0128,东莞市,东城石井,,45,45,44,31,31,78,,115,106,16,15,4,4,0.7,0.6
2025-05-26T2000,1391A,113.7383,22.9658,东莞市,南城西平,,41,41,44,24,31,88,,127,118,20,22,4,3,0.7,0.6
2025-05-26T2000,3319A,113.7338,23.0381,东莞市,万江金泰,,46,44,45,32,34,77,,115,107,14,12,3,2,0.5,0.9
2025-05-26T2000,3626A,113.7533,23.0202,东莞市,南城元岭,,42,42,45,28,34,88,,125,116,19,17,5,5,0.7,0.7
2025-05-26T2000,3627A,113.7875,23.0457,东莞市,东城主山,,44,44,51,28,33,88,,118,109,9,11,5,6,0.7,0.7
2025-05-26T2000,1666A,118.6614,37.4309,东营市,市环保局,颗粒物(PM10),62,73,86,27,32,159,,183,180,23,22,6,10,0.5,0.5
2025-05-26T2000,3036A,118.6904,37.4338,东营市,开发区管委会,臭氧1小时,102,57,57,29,33,204,,205,205,25,25,6,9,0.6,0.6
2025-05-26T2000,3365A,118.5719,37.565,东营市,垦利区民丰路,臭氧1小时,63,36,52,12,26,170,,198,195,18,24,8,9,0.7,0.7
2025-05-26T2000,3498A,118.5055,37.8612,东营市,河口城区,,,,50,,26,136,,172,167,,18,,10,0.5,0.6
2025-05-26T2000,3646A,118.4978,37.4623,东营市,胜利站,,50,48,54,17,28,157,,180,178,19,25,8,12,0.6,0.7
2025-05-26T2000,3734A,118.35,37.26,东营市,理想之城,,50,41,58,24,34,158,,197,192,36,32,4,7,0.5,0.6
2025-05-26T2000,1591A,110.0023,39.8129,鄂尔多斯市,综合楼,,44,44,37,17,17,136,,143,143,20,20,6,9,0.5,0.5
2025-05-26T2000,1592A,109.9486,39.8261,鄂尔多斯市,巴音孟克林场办事处,,48,48,39,19,20,144,,150,150,20,18,7,9,0.5,0.5
2025-05-26T2000,1593A,109.7736,39.5986,鄂尔多斯市,康泽苑,,49,36,40,22,18,154,,163,162,14,14,10,10,0.3,0.3
2025-05-26T2000,1594A,109.8119,39.5989,鄂尔多斯市,华泰汽车城,,45,34,39,19,19,142,,152,150,12,22,7,6,0.3,0.4
2025-05-26T2000,1595A,109.9734,39.7884,鄂尔多斯市,奥林花园,,48,48,39,19,18,124,,148,146,24,27,4,5,0.4,0.5
2025-05-26T2000,2436A,114.8938,30.3994,鄂州市,市政府,细颗粒物(PM2.5),65,68,69,47,49,166,,168,168,21,20,9,10,0.6,0.6
2025-05-26T2000,2437A,114.8989,30.3714,鄂州市,赵家坝,臭氧1小时,62,60,60,41,40,169,,197,197,27,20,7,7,0.7,0.7
2025-05-26T2000,3654A,114.8094,30.4089,鄂州市,精准医疗中心,臭氧1小时,55,52,62,35,40,164,,174,174,21,22,6,6,0.9,1
2025-05-26T2000,2454A,109.4978,30.2981,恩施土家族苗族自治州,湖北民院,,35,33,41,9,24,109,,124,124,1,5,6,6,0.2,0.2
2025-05-26T2000,2455A,109.4707,30.2798,恩施土家族苗族自治州,州电力总公司,,31,28,39,16,24,98,,117,116,4,7,6,7,0.2,0.2
2025-05-26T2000,3549A,109.5061,30.3772,恩施土家族苗族自治州,龙凤新区,,31,31,37,8,25,96,,130,127,11,7,7,6,0.3,0.3
2025-05-26T2000,2499A,108.3411,21.6158,防城港市,沙万,,40,34,36,28,23,92,,96,96,11,8,2,2,0.3,0.3
2025-05-26T2000,2500A,108.3514,21.7731,防城港市,防城档案局,颗粒物(PM10),54,57,49,35,25,79,,92,91,20,16,2,2,0.7,0.6
2025-05-26T2000,2501A,108.3506,21.6414,防城港市,大海花园,,50,50,37,27,21,98,,103,103,13,11,2,3,0.7,0.7
2025-05-26T2000,1371A,113.1294,23.0067,佛山市,湾梁,颗粒物(PM10),52,53,50,32,33,111,,129,127,24,26,8,8,0.7,0.7
2025-05-26T2000,1372A,113.1083,23.0478,佛山市,华材职中,颗粒物(PM10),51,51,52,33,34,106,,145,141,30,32,5,10,0.6,0.5
2025-05-26T2000,1373A,113.144,23.0453,佛山市,南海气象局,,48,40,49,33,33,97,,123,120,22,25,2,2,0.7,0.7
2025-05-26T2000,1374A,113.2881,22.8094,佛山市,顺德苏岗,,,,47,,32,89,,136,132,,24,,7,0.8,0.7
2025-05-26T2000,1376A,112.8383,22.8678,佛山市,高明孔堂,颗粒物(PM10),59,68,57,38,36,129,,170,170,28,27,8,9,0.8,0.7
2025-05-26T2000,1377A,112.8836,23.1588,佛山市,三水监测站,颗粒物(PM10),54,58,50,36,32,96,,126,125,27,28,3,4,0.7,0.6
2025-05-26T2000,1378A,112.867,23.185,佛山市,三水云东海,细颗粒物(PM2.5),55,50,56,39,37,78,,132,126,25,26,2,3,0.9,0.9
2025-05-26T2000,3625A,113.2544,22.7642,佛山市,容桂街道办,细颗粒物(PM2.5),55,56,47,39,35,102,,151,149,30,29,5,6,0.7,0.8
2025-05-26T2000,1280A,119.3903,26.0543,福州市,鼓山,,,,31,,15,,,129,,,9,,2,,0.4
2025-05-26T2000,1282A,119.2681,26.0504,福州市,师大,细颗粒物(PM2.5),53,53,38,37,30,120,,135,135,27,12,5,4,0.5,0.4
2025-05-26T2000,1283A,119.2984,26.1028,福州市,五四北路,颗粒物(PM10),51,52,34,35,29,122,,126,126,26,14,4,4,0.6,0.6
2025-05-26T2000,1284A,119.2648,26.0768,福州市,杨桥西路,颗粒物(PM10),57,63,42,34,29,109,,132,132,24,11,4,4,0.5,0.4
2025-05-26T2000,1285A,119.317,26.0746,福州市,紫阳,,48,48,38,32,29,128,,128,128,27,17,6,5,0.5,0.5
2025-05-26T2000,3048A,119.5799,26.0936,福州市,九龙,,48,38,33,33,27,108,,138,133,9,10,4,5,0.4,0.4
2025-05-26T2000,3526A,119.5189,25.9664,福州市,吴航,,38,38,35,26,24,98,,133,132,19,17,4,5,0.3,0.3
2025-05-26T2000,1755A,123.7977,41.8491,抚顺市,望花区,颗粒物(PM10),55,60,76,26,31,118,,172,166,38,41,10,10,0.9,0.8
2025-05-26T2000,1756A,123.9161,41.8822,抚顺市,顺城区,颗粒物(PM10),53,56,57,25,26,90,,162,156,47,43,8,11,0.6,0.7
2025-05-26T2000,1757A,124.0436,41.8611,抚顺市,东洲区,颗粒物(PM10),61,72,42,24,20,110,,164,159,28,18,13,11,0.5,0.4
2025-05-26T2000,1758A,123.9247,41.8642,抚顺市,新抚区,,49,49,57,20,24,112,,166,161,24,36,8,10,0.7,0.7
2025-05-26T2000,1759A,124.0972,41.8961,抚顺市,大伙房水库,颗粒物(PM10),63,75,37,27,21,126,,164,161,27,24,11,10,0.7,0.5
2025-05-26T2000,1760A,123.7086,41.8391,抚顺市,沈抚新城,,49,49,58,31,29,126,,164,160,28,40,6,11,0.5,0.8
2025-05-26T2000,2376A,116.2127,28.0814,抚州市,桐源党溪,细颗粒物(PM2.5),62,61,59,44,41,87,,143,136,3,2,5,8,0.8,0.9
2025-05-26T2000,2377A,116.3544,27.9831,抚州市,市站,细颗粒物(PM2.5),52,49,54,36,40,108,,118,118,6,7,9,4,0.6,0.6
2025-05-26T2000,2378A,116.3565,27.963,抚州市,血防站,细颗粒物(PM2.5),57,60,62,40,43,105,,120,120,8,11,7,5,0.4,0.5
2025-05-26T2000,2379A,116.3564,28.0007,抚州市,采茶剧团,"颗粒物(PM10),细颗粒物(PM2.5)",52,53,55,36,38,98,,115,114,10,5,21,5,0.1,0.2
2025-05-26T2000,2380A,116.385,27.9647,抚州市,医学分院,颗粒物(PM10),59,68,59,39,36,105,,123,122,3,7,12,6,0.7,0.8
2025-05-26T2000,2207A,121.6094,41.998,阜新市,工业园区,颗粒物(PM10),59,68,69,17,33,150,,168,168,9,31,12,18,0.4,0.5
2025-05-26T2000,2208A,121.6697,42.0279,阜新市,长青街,,44,44,63,28,27,136,,156,154,14,26,11,19,0.3,0.5
2025-05-26T2000,2209A,121.6673,42.0705,阜新市,农业园区,,47,46,52,19,20,150,,170,168,10,20,9,19,0.1,0.3
2025-05-26T2000,2210A,121.6717,42.0224,阜新市,东苑,颗粒物(PM10),57,64,62,17,26,140,,163,161,14,29,19,18,0.4,0.7
2025-05-26T2000,2211A,121.6506,42.0498,阜新市,玉龙新城,颗粒物(PM10),56,62,80,26,29,138,,157,155,9,38,9,13,0.4,0.6
2025-05-26T2000,2301A,115.8277,32.8929,阜阳市,市监测站,颗粒物(PM10),85,120,84,61,52,143,,166,166,27,25,10,9,0.6,0.5
2025-05-26T2000,2303A,115.8554,32.8605,阜阳市,开发区,颗粒物(PM10),100,149,102,56,48,164,,175,175,28,26,7,7,0.4,0.4
2025-05-26T2000,2875A,115.784,32.8892,阜阳市,阜阳职业技术学院,细颗粒物(PM2.5),77,100,77,56,42,167,,183,183,22,23,6,5,0.6,0.5
2025-05-26T2000,3468A,115.7901,32.8613,阜阳市,市规划展馆,细颗粒物(PM2.5),75,98,86,55,57,164,,176,176,22,18,8,7,0.7,0.7
2025-05-26T2000,3469A,115.836,32.9183,阜阳市,枣园社区,细颗粒物(PM2.5),77,102,84,56,52,159,,173,173,20,25,7,5,0.5,0.5
2025-05-26T2000,2669A,102.9099,34.9841,甘南藏族自治州,州政府,,36,36,44,19,20,95,,105,105,2,13,2,3,0.2,0.2
2025-05-26T2000,3380A,102.8914,34.9617,甘南藏族自治州,甘肃民族师范学院,,39,39,58,24,18,108,,118,118,4,17,8,8,0.4,0.4
2025-05-26T2000,2570A,101.9603,30.0475,甘孜藏族自治州,水桥子,,26,25,20,17,11,81,,79,79,8,14,4,4,0.5,0.5
2025-05-26T2000,3065A,101.9533,29.9972,甘孜藏族自治州,州环保局,,24,20,24,6,7,76,,82,82,14,16,2,2,0.5,0.4
2025-05-26T2000,3414A,115.8347,28.932,赣江新区,桑海产业园,"颗粒物(PM10),细颗粒物(PM2.5)",57,63,66,40,43,147,,191,186,15,30,5,5,0.7,0.7
2025-05-26T2000,2362A,114.9017,25.9149,赣州市,通天岩,,40,40,41,6,9,79,,130,128,6,5,4,4,0.7,0.7
2025-05-26T2000,2363A,114.9367,25.8664,赣州市,地委,,43,43,45,26,31,89,,124,121,29,10,2,2,0.7,0.6
2025-05-26T2000,2364A,114.9461,25.8481,赣州市,气象台,,46,46,46,20,28,103,,129,127,23,12,7,8,0.4,0.4
2025-05-26T2000,2365A,114.9322,25.8333,赣州市,市图书馆,细颗粒物(PM2.5),54,52,38,38,30,112,,133,133,20,10,10,4,0.6,0.5
2025-05-26T2000,2366A,114.8905,25.8471,赣州市,华坚鞋城,,42,42,40,25,28,94,,128,125,40,12,2,4,0.3,0.3
2025-05-26T2000,3109A,115.0093,25.8613,赣州市,赣县区卫计委,,46,,35,32,29,66,,111,108,29,9,2,3,0.8,0.7
2025-05-26T2000,2683A,106.2319,36.1417,固原市,马园,,50,50,40,15,19,106,,128,127,30,22,5,5,0.4,0.4
2025-05-26T2000,2684A,106.2792,36.0022,固原市,监测站,,37,35,26,14,17,117,,132,132,14,11,6,6,0.3,0.3
2025-05-26T2000,2685A,106.2375,36.0211,固原市,新区,,35,30,27,22,20,112,,125,125,17,13,4,4,0.4,0.4
2025-05-26T2000,3522A,106.2177,35.9959,固原市,原州区十五小,,41,41,38,19,20,119,,132,132,15,13,11,10,0.3,0.2
2025-05-26T2000,2543A,106.6308,30.5278,广安市,小平旧居,,,,,,,,,,,,,,,,
2025-05-26T2000,2544A,106.6303,30.4576,广安市,市委,,42,35,41,22,26,133,,140,140,11,11,4,2,0.4,0.4
2025-05-26T2000,2545A,106.6271,30.4663,广安市,友谊中学,,42,35,36,24,22,134,,144,144,16,15,6,6,0.7,0.7
2025-05-26T2000,2547A,106.6388,30.4551,广安市,广电花园,,41,38,39,28,23,131,,142,142,16,16,8,7,0.5,0.5
2025-05-26T2000,2902A,106.6351,30.4865,广安市,北辰小学,,41,40,40,23,22,131,,148,148,13,14,12,11,0.6,0.6
2025-05-26T2000,2523A,105.8945,32.4535,广元市,黑石坡,颗粒物(PM10),53,55,61,25,29,96,,110,110,16,14,6,7,0.4,0.4
2025-05-26T2000,2524A,105.821,32.4444,广元市,老城,细颗粒物(PM2.5),62,65,60,44,32,96,,117,117,19,17,1,2,0.7,0.8
2025-05-26T2000,2526A,105.8628,32.4287,广元市,监测站,,46,39,47,32,34,101,,121,120,16,14,4,5,0.6,0.6
2025-05-26T2000,3617A,105.8047,32.4166,广元市,经开区,细颗粒物(PM2.5),59,62,68,42,46,108,,123,123,15,22,5,6,0.5,0.5
2025-05-26T2000,1345A,113.2347,23.1423,广州市,广雅中学,,48,48,54,32,36,85,,126,119,20,29,2,3,0.6,0.6
2025-05-26T2000,1346A,113.2612,23.105,广州市,市五中,,45,44,50,31,35,85,,122,116,15,21,3,3,0.6,0.6
2025-05-26T2000,1348A,113.3478,23.0916,广州市,广东商学院,,,49,49,40,37,82,,110,104,18,19,4,5,,0.7
2025-05-26T2000,1349A,113.4332,23.1047,广州市,市八十六中,,46,46,49,30,32,73,,111,104,26,23,3,3,0.7,0.7
2025-05-26T2000,1350A,113.3505,22.9483,广州市,番禺中学,,48,48,48,32,22,79,,123,117,29,28,6,7,0,0.5
2025-05-26T2000,1351A,113.2146,23.3916,广州市,花都师范,细颗粒物(PM2.5),59,57,49,42,36,91,,122,116,14,18,6,5,0.7,0.6
2025-05-26T2000,1352A,113.2597,23.1331,广州市,市监测站,,47,47,51,30,32,76,,113,107,22,29,4,5,0.6,0.6
2025-05-26T2000,1353A,113.5618,23.312,广州市,九龙镇镇龙,细颗粒物(PM2.5),57,53,48,40,36,74,,100,94,11,13,5,6,0.6,0.6
2025-05-26T2000,1354A,113.2765,23.1544,广州市,麓湖,,45,40,46,31,34,71,,108,101,15,28,3,4,0.6,0.6
2025-05-26T2000,1355A,113.443,23.3035,广州市,帽峰山森林公园,,46,32,35,32,31,62,,102,92,14,14,5,5,0.6,0.6
2025-05-26T2000,2846A,113.3221,23.1322,广州市,体育西,细颗粒物(PM2.5),57,52,51,40,38,75,,115,108,23,21,4,4,0.4,0.4
2025-05-26T2000,3298A,113.5717,23.5491,广州市,从化街口,细颗粒物(PM2.5),65,60,50,47,39,78,,106,99,11,15,7,7,0.8,0.7
2025-05-26T2000,3299A,113.3472,23.3692,广州市,白云竹料,细颗粒物(PM2.5),67,59,48,48,37,98,,134,128,16,12,3,3,0.7,0.6
2025-05-26T2000,3300A,113.2981,23.237,广州市,白云嘉禾,细颗粒物(PM2.5),63,62,58,45,40,77,,115,107,30,30,7,7,0.8,0.7
2025-05-26T2000,3301A,113.4256,23.1716,广州市,黄埔科学城,,49,49,49,33,36,78,,104,96,14,17,4,4,0.5,0.5
2025-05-26T2000,3302A,113.3942,23.0483,广州市,番禺大学城,颗粒物(PM10),52,54,53,32,37,82,,123,115,26,29,5,5,0.7,0.7
2025-05-26T2000,3303A,113.4922,22.8168,广州市,南沙黄阁,颗粒物(PM10),55,60,55,37,39,75,,138,127,28,25,10,9,0.9,0.9
2025-05-26T2000,3304A,113.5342,22.7896,广州市,南沙街,颗粒物(PM10),56,62,52,38,37,78,,151,137,28,20,3,5,0,0.1
2025-05-26T2000,3443A,113.2902,23.5544,广州市,花都梯面,细颗粒物(PM2.5),62,56,47,44,37,67,,103,96,17,16,10,7,0.7,0.5
2025-05-26T2000,3445A,113.7858,23.7478,广州市,从化良口,细颗粒物(PM2.5),60,49,42,43,36,39,,99,88,12,8,6,7,0.5,0.4
2025-05-26T2000,3446A,113.8051,23.2614,广州市,增城荔城,细颗粒物(PM2.5),52,50,51,36,39,80,,98,87,11,11,8,8,0.7,0.7
2025-05-26T2000,2505A,109.568,23.1478,贵港市,德智高中,,,,,,,,,,,,,,,,
2025-05-26T2000,2506A,109.6047,23.0666,贵港市,江南子站,,38,36,39,26,29,108,,115,115,15,12,4,3,0.7,0.7
2025-05-26T2000,2508A,109.5669,23.1065,贵港市,荷城子站,,41,41,41,22,23,99,,97,97,15,11,6,4,0.5,0.5
2025-05-26T2000,3405A,109.5886,23.1172,贵港市,新世纪学校,,44,44,39,30,29,99,,104,104,9,6,3,2,1.0,0.9
2025-05-26T2000,4260A,109.5933,23.0951,贵港市,中山路155-3号,,49,49,41,32,30,111,,120,120,16,10,4,3,0.5,0.6
2025-05-26T2000,1439A,106.6899,26.5998,贵阳市,马鞍山,,,9,17,,6,84,,96,96,8,10,3,3,0.2,0.2
2025-05-26T2000,1441A,106.6243,26.6266,贵阳市,鉴湖路,,24,19,25,9,11,76,,94,94,18,15,8,9,0.3,0.3
2025-05-26T2000,1442A,106.7487,26.6343,贵阳市,燕子冲,,30,19,24,17,19,93,,107,107,12,13,4,4,0.2,0.3
2025-05-26T2000,1443A,106.6555,26.4365,贵阳市,碧云窝,,29,19,25,7,11,90,,102,102,10,14,8,6,0.3,0.3
2025-05-26T2000,1445A,106.7109,26.6027,贵阳市,红边门,,28,24,22,3,15,89,,100,100,4,7,10,10,0.2,0.2
2025-05-26T2000,1446A,106.7164,26.5699,贵阳市,新华路,,31,31,22,7,10,85,,97,97,10,10,15,12,0.2,0.3
2025-05-26T2000,1447A,106.674,26.5424,贵阳市,太慈桥,,27,14,22,3,9,84,,96,96,16,16,5,5,0.2,0.2
2025-05-26T2000,1552A,106.805,26.3003,贵阳市,桐木岭,,45,44,31,31,17,94,,104,100,5,3,2,2,0.3,0.3
2025-05-26T2000,4230A,106.6882,26.5695,贵阳市,花果园大街66号,,28,,17,13,17,88,,100,100,12,13,3,3,0.2,0.3
2025-05-26T2000,4231A,106.6873,26.5169,贵阳市,漓江路57号,,26,12,20,3,12,82,,95,95,9,9,2,2,0.2,0.2
2025-05-26T2000,1862A,110.4144,25.3167,桂林市,电子科大尧山校区,,,,,,,,,,,,,,,,
2025-05-26T2000,1864A,110.3089,25.2708,桂林市,龙隐路小学,,31,24,28,20,25,98,,123,121,10,8,8,8,0.5,0.5
2025-05-26T2000,1865A,110.2869,25.2178,桂林市,八中,,32,17,30,13,22,102,,122,119,11,11,6,6,0.6,0.6
2025-05-26T2000,3531A,110.296,25.1253,桂林市,旅游学院,,30,19,20,17,18,94,,106,105,5,5,3,1,0.4,0.3
2025-05-26T2000,4222A,110.1835,25.2444,桂林市,环湖路276号,,28,22,36,19,32,77,,93,92,8,9,2,18,0.4,0.5
2025-05-26T2000,4301A,110.2803,25.2773,桂林市,信义路13号,,32,23,31,15,24,102,,116,116,9,10,2,2,0.4,0.5
2025-05-26T2000,2674A,100.2561,34.4714,果洛藏族自治州,玛沁县大武镇,颗粒物(PM10),53,55,41,19,14,119,,113,113,1,4,24,23,0.4,0.4
2025-05-26T2000,1129A,126.5422,45.755,哈尔滨市,岭北,,33,27,24,16,16,105,,120,118,16,15,14,14,0.6,0.5
2025-05-26T2000,1130A,126.561,45.8167,哈尔滨市,松北商大,,48,39,25,33,18,87,,111,108,16,17,7,7,0.5,0.4
2025-05-26T2000,1131A,126.979,45.5419,哈尔滨市,阿城会宁,,36,35,26,25,17,84,,105,103,14,16,6,6,0.4,0.4
2025-05-26T2000,1132A,126.599,45.7222,哈尔滨市,南岗学府路,颗粒物(PM10),55,60,33,30,15,90,,111,109,23,14,7,7,0.5,0.4
2025-05-26T2000,1133A,126.689,45.7733,哈尔滨市,太平宏伟公园,细颗粒物(PM2.5),53,45,29,37,24,101,,114,113,18,16,5,5,0.5,0.4
2025-05-26T2000,1134A,126.635,45.7667,哈尔滨市,道外承德广场,颗粒物(PM10),55,59,28,22,16,89,,107,106,24,19,6,6,0.3,0.3
2025-05-26T2000,1135A,126.685,45.7319,哈尔滨市,香坊红旗大街,细颗粒物(PM2.5),58,46,29,41,24,93,,108,108,26,23,7,5,0.7,0.6
2025-05-26T2000,1136A,126.6411,45.7258,哈尔滨市,动力和平路,细颗粒物(PM2.5),55,44,28,39,24,94,,102,102,21,19,7,8,0.5,0.5
2025-05-26T2000,1137A,126.593,45.7478,哈尔滨市,道里建国路,,35,35,26,24,18,95,,107,106,17,16,8,17,0.9,0.7
2025-05-26T2000,1138A,126.615,45.61,哈尔滨市,平房东轻厂,,32,30,21,20,12,101,,114,114,13,12,9,8,0.4,0.4
2025-05-26T2000,1139A,126.595,45.9855,哈尔滨市,呼兰师专,,38,38,26,21,20,103,,108,108,16,19,6,7,0.5,0.5
2025-05-26T2000,1140A,126.6206,45.6842,哈尔滨市,省农科院,颗粒物(PM10),66,81,48,32,22,82,,105,103,28,21,10,10,0.7,0.6
2025-05-26T2000,2688A,93.5128,42.8172,哈密市,地区监测站,颗粒物(PM10),51,51,61,3,23,104,,115,115,13,17,3,4,0.0,0
2025-05-26T2000,2689A,93.4961,42.8328,哈密市,哈密师范学校,,50,50,45,16,15,83,,114,112,23,20,4,4,0.5,0.4
2025-05-26T2000,2671A,100.9048,36.9639,海北藏族自治州,海晏县西海镇,,,22,29,14,17,113,,120,115,,7,10,11,0.3,0.4
2025-05-26T2000,3867A,102.0738,36.5056,海东市,平安区公安北苑,,33,33,39,15,23,105,,122,122,13,10,5,9,0.7,0.8
2025-05-26T2000,1409A,110.576,19.9507,海口市,东寨港,,40,25,35,19,18,128,,124,124,4,4,3,9,0.6,0.6
2025-05-26T2000,1410A,110.3232,20.0574,海口市,海南大学,臭氧1小时,53,45,48,28,30,162,,155,155,7,7,3,3,0.6,0.6
2025-05-26T2000,1411A,110.283,20.0053,海口市,秀英海南医院,,49,46,43,26,30,154,,148,148,8,7,5,5,0.5,0.5
2025-05-26T2000,1412A,110.338,19.9969,海口市,海南师范大学,臭氧1小时,53,44,42,25,28,162,,161,161,7,6,4,4,0.5,0.5
2025-05-26T2000,1413A,110.33,20.0356,海口市,龙华路环保局宿舍,臭氧1小时,55,46,42,27,29,164,,160,160,7,7,4,5,0.4,0.4
2025-05-26T2000,3539A,110.5111,19.9736,海口市,桂林洋子站,,47,36,42,21,27,150,,144,144,6,7,4,4,0.4,0.4
2025-05-26T2000,2673A,100.6188,36.2866,海南藏族自治州,共和县恰卜恰镇,,36,36,40,7,13,114,,122,120,5,11,13,19,0.4,0.4
2025-05-26T2000,2676A,97.3731,37.3753,海西蒙古族藏族自治州,德令哈市,颗粒物(PM10),55,60,41,18,14,111,,113,113,3,3,13,10,0.6,0.5
2025-05-26T2000,1048A,114.5302,36.6116,邯郸市,东污水处理厂,,46,46,79,14,40,145,,166,166,20,33,7,7,0.5,0.6
2025-05-26T2000,1049A,114.4918,36.5713,邯郸市,矿院,,,49,70,17,42,140,,156,156,11,31,,9,0.5,0.6
2025-05-26T2000,1050A,114.484,36.6133,邯郸市,丛台公园,颗粒物(PM10),51,51,74,22,45,144,,155,155,13,24,6,6,0.6,0.6
2025-05-26T2000,3458A,114.7895,36.5593,邯郸市,香泉濮院小区,颗粒物(PM10),62,74,90,21,39,146,,162,161,17,18,5,5,0.3,0.4
2025-05-26T2000,3579A,114.50634,36.77178,邯郸市,永年区实验高中,颗粒物(PM10),59,68,90,36,51,136,,141,141,19,34,4,5,0.5,0.6
2025-05-26T2000,3580A,114.20016,36.44293,邯郸市,峰峰矿区临水派出所,臭氧1小时,54,34,60,12,32,163,,194,194,12,22,8,14,0.4,0.8
2025-05-26T2000,2634A,106.9893,33.1842,汉中市,汉川机床厂子校,,46,42,46,32,34,111,,137,134,11,8,7,7,0.6,0.6
2025-05-26T2000,2635A,107.0154,33.0706,汉中市,市监测站,颗粒物(PM10),51,51,47,24,26,110,,122,121,10,7,5,5,0.6,0.6
2025-05-26T2000,2636A,107.0089,33.1138,汉中市,鑫源开发区,,50,50,45,27,25,108,,122,120,11,9,5,5,0.6,0.6
2025-05-26T2000,2637A,107.007,33.0323,汉中市,南郑大河坎水厂,颗粒物(PM10),51,51,48,34,35,99,,120,116,15,10,5,6,0.7,0.6
2025-05-26T2000,1223A,120.2072,30.2111,杭州市,滨江,颗粒物(PM10),51,52,67,25,34,134,,185,181,36,35,8,9,0.2,0.7
2025-05-26T2000,1224A,120.0633,30.2747,杭州市,西溪,,50,44,52,20,38,160,,190,190,18,24,5,5,0.4,0.5
2025-05-26T2000,1226A,120.3417,30.3150,杭州市,下沙,颗粒物(PM10),51,52,59,25,32,138,,178,178,27,31,7,8,0.4,0.6
2025-05-26T2000,1227A,120.1269,30.2456,杭州市,卧龙桥,,50,46,55,30,39,159,,197,197,16,15,9,9,0.5,0.6
2025-05-26T2000,1228A,120.1903,30.2692,杭州市,浙江农大,颗粒物(PM10),61,71,62,28,43,116,,164,160,36,42,9,11,0.5,0.6
2025-05-26T2000,1230A,120.1197,30.3119,杭州市,和睦小学,,47,42,54,28,38,149,,194,192,24,27,8,9,0.4,0.5
2025-05-26T2000,1231A,120.3019,30.4183,杭州市,临平镇,,48,48,55,33,37,144,,174,173,22,23,6,7,0.6,0.6
2025-05-26T2000,1232A,120.2753,30.1839,杭州市,城厢镇,细颗粒物(PM2.5),52,51,56,36,42,130,,175,171,38,40,9,9,0.5,0.6
2025-05-26T2000,1233A,120.0883,30.1808,杭州市,云栖,,49,49,53,28,34,152,,187,186,28,26,8,7,0.3,0.4
2025-05-26T2000,3557A,119.9464,30.0494,杭州市,镇二中,,46,38,41,20,36,145,,167,167,21,28,4,4,0.5,0.6
2025-05-26T2000,3558A,119.7183,30.2367,杭州市,市府大楼,臭氧1小时,64,39,49,25,34,171,,186,186,24,23,8,8,0.5,0.6
2025-05-26T2000,3656A,120.1556,30.2864,杭州市,消防大队,,47,47,62,26,42,149,,193,191,27,36,5,6,0.6,0.7
2025-05-26T2000,1270A,117.1959,31.7848,合肥市,明珠广场,细颗粒物(PM2.5),58,58,64,41,42,133,,167,154,30,27,5,6,0.5,0.5
2025-05-26T2000,1271A,117.3072,31.8764,合肥市,三里街,颗粒物(PM10),56,61,66,39,41,134,,153,147,22,27,5,6,0.6,0.6
2025-05-26T2000,1272A,117.2588,31.8707,合肥市,琥珀山庄,细颗粒物(PM2.5),59,51,60,42,44,138,,165,157,24,24,5,6,0.6,0.6
2025-05-26T2000,1273A,117.1604,31.9052,合肥市,董铺水库,颗粒物(PM10),77,104,62,24,33,136,,166,154,24,15,1,1,0.5,0.5
2025-05-26T2000,1274A,117.25,31.8571,合肥市,长江中路,细颗粒物(PM2.5),60,61,65,43,44,147,,165,159,21,22,5,5,0.7,0.6
2025-05-26T2000,1275A,117.266,31.9436,合肥市,庐阳区,,,,69,39,41,133,,163,154,24,28,6,6,0.7,0.5
2025-05-26T2000,1276A,117.3453,31.8616,合肥市,瑶海区,细颗粒物(PM2.5),62,58,70,44,43,133,,154,148,28,29,5,6,0.6,0.6
2025-05-26T2000,1277A,117.3027,31.7964,合肥市,包河区,细颗粒物(PM2.5),58,61,65,41,44,113,,154,140,48,51,4,5,0.6,0.6
2025-05-26T2000,1278A,117.2776,31.7385,合肥市,滨湖新区,细颗粒物(PM2.5),67,58,61,48,46,137,,156,151,20,15,6,5,0.6,0.6
2025-05-26T2000,1279A,117.1318,31.8403,合肥市,高新区,细颗粒物(PM2.5),58,53,68,41,43,132,,164,148,23,24,5,6,0.5,0.6
2025-05-26T2000,3464A,117.3803,31.9147,合肥市,高教基地,细颗粒物(PM2.5),60,53,62,43,39,87,,158,140,15,23,5,6,0.5,0.6
2025-05-26T2000,3614A,79.924,37.0877,和田地区,地区环保局,颗粒物(PM10),69,88,258,20,71,86,,87,87,8,11,2,2,0.6,0.6
2025-05-26T2000,3615A,79.9131,37.113,和田地区,市环保局,颗粒物(PM10),66,81,232,31,79,84,,84,84,2,8,1,2,0.2,0.2
2025-05-26T2000,2516A,108.2011,24.715,河池市,东仁乐园,,,,,,,,,,,,,,,,
2025-05-26T2000,2517A,108.0497,24.6947,河池市,市环保站,,19,16,22,13,16,55,,77,73,6,7,6,7,0.4,0.5
2025-05-26T2000,2518A,108.0983,24.6989,河池市,市疾控中心,,23,17,22,16,17,68,,75,74,9,12,6,6,0.5,0.6
2025-05-26T2000,1696A,114.6778,23.7569,河源市,源西,细颗粒物(PM2.5),55,45,40,39,36,51,,75,72,21,15,4,4,0.7,0.6
2025-05-26T2000,1697A,114.6944,23.7586,河源市,东埔,细颗粒物(PM2.5),57,50,44,40,36,55,,80,77,20,12,4,5,0.8,0.7
2025-05-26T2000,1698A,114.6892,23.7233,河源市,老城,细颗粒物(PM2.5),63,46,41,45,37,54,,77,74,18,10,4,5,0.6,0.5
2025-05-26T2000,1718A,115.4208,35.2464,菏泽市,气象局,臭氧1小时,90,52,74,33,42,192,,199,199,13,22,3,4,0.5,0.4
2025-05-26T2000,3374A,115.5564,35.0891,菏泽市,定陶老年大学,,48,36,54,31,38,153,,170,168,15,14,4,6,0.4,0.4
2025-05-26T2000,4184A,115.4797,35.24401,菏泽市,永昌路1号,臭氧1小时,65,57,64,36,43,172,,188,187,18,19,5,6,0.3,0.3
2025-05-26T2000,4193A,115.4715,35.2800,菏泽市,长城路999号,臭氧1小时,73,50,57,23,30,178,,189,189,15,19,8,11,0.3,0.2
2025-05-26T2000,2514A,111.5264,24.4172,贺州市,环保小区,,40,40,31,23,24,66,,88,88,15,10,8,7,0.7,0.5
2025-05-26T2000,2515A,111.5608,24.4078,贺州市,政协大楼,,39,39,30,15,23,62,,84,84,14,12,12,10,0.7,0.7
2025-05-26T2000,3534A,111.4744,24.4553,贺州市,西湾,,39,34,30,27,22,69,,92,92,22,10,6,5,0.9,0.7
2025-05-26T2000,2385A,114.17,35.9019,鹤壁市,市监测站,颗粒物(PM10),52,54,82,35,48,152,,198,195,20,32,5,9,0.4,0.8
2025-05-26T2000,2386A,114.2956,35.7511,鹤壁市,市交警支队,,45,45,68,14,41,128,,160,156,23,32,7,10,0.5,0.7
2025-05-26T2000,2387A,114.2878,35.7306,鹤壁市,迎宾馆,,49,40,75,34,47,141,,175,171,23,30,1,7,0.4,0.7
2025-05-26T2000,3474A,114.2617,35.6822,鹤壁市,大新区,,39,36,64,16,49,124,,172,168,26,31,6,8,0.4,0.5
2025-05-26T2000,3596A,114.1572,35.9603,鹤壁市,南山宾馆,细颗粒物(PM2.5),59,64,85,42,53,158,,206,201,17,26,6,11,0.7,1.1
2025-05-26T2000,2244A,130.2537,47.3416,鹤岗市,哈啤分公司,,32,,21,22,24,78,,88,85,5,9,12,12,0.3,0.3
2025-05-26T2000,2245A,130.2684,47.3086,鹤岗市,斯达机电,,42,37,33,29,20,82,,90,86,9,10,12,12,0.4,0.3
2025-05-26T2000,2246A,130.3114,47.3388,鹤岗市,东山纸板厂,,25,17,43,13,17,78,,92,87,10,17,12,14,0.8,0.8
2025-05-26T2000,2247A,130.1097,47.3382,鹤岗市,五号水库,,,,,,,,,,,,,,,,
2025-05-26T2000,2263A,127.4833,50.2524,黑河市,交通局,,38,38,23,19,11,57,,79,76,13,6,7,7,0.1,0.1
2025-05-26T2000,2264A,127.5144,50.2341,黑河市,环保局,,47,47,25,17,12,80,,97,93,15,9,5,9,0.3,0.2
2025-05-26T2000,2265A,127.5291,50.2472,黑河市,大黑河岛,,,7,24,,,90,,89,89,18,8,2,5,0.2,0.2
2025-05-26T2000,1074A,115.6838,37.7541,衡水市,电机北厂,臭氧1小时,62,46,64,35,35,169,,191,190,10,20,4,7,0.3,0.4
2025-05-26T2000,1075A,115.6303,37.7316,衡水市,市监测站,,50,50,66,34,32,157,,193,190,13,19,6,8,0.4,0.4
2025-05-26T2000,3188A,115.6683,37.7217,衡水市,市城管局,臭氧1小时,59,57,64,28,35,167,,193,192,12,28,5,7,0.4,0.5
2025-05-26T2000,3459A,115.5989,37.5491,衡水市,地表水厂,颗粒物(PM10),59,68,70,31,35,121,,184,176,36,37,10,11,0.4,0.4
2025-05-26T2000,2456A,112.5003,26.9167,衡阳市,原169医院,,42,41,44,29,30,115,,165,162,21,9,4,6,0.7,0.7
2025-05-26T2000,2457A,112.6194,26.9258,衡阳市,衡阳化工总厂,,47,47,53,31,36,117,,154,150,9,10,6,6,0.5,0.8
2025-05-26T2000,2458A,112.6211,26.8956,衡阳市,珠晖区环保局,,42,38,60,29,33,124,,159,155,10,12,7,9,0.7,1.2
2025-05-26T2000,2459A,112.6197,26.8733,衡阳市,市委党校,,43,37,50,30,30,120,,143,142,9,12,4,5,0.5,0.7
2025-05-26T2000,2460A,112.6006,26.8919,衡阳市,市监测站,,50,38,48,35,38,115,,151,147,11,14,8,9,0.5,0.8
2025-05-26T2000,2461A,112.5664,26.9056,衡阳市,真空机电公司,颗粒物(PM10),52,53,50,31,31,119,,161,157,11,10,5,6,0.5,0.9
2025-05-26T2000,3399A,112.6703,26.882,衡阳市,师范学院,细颗粒物(PM2.5),68,,53,49,35,110,,142,138,10,12,7,8,0.8,0.8
2025-05-26T2000,2608A,103.3772,23.3993,红河哈尼族彝族自治州,污水处理厂,,25,,18,17,13,41,,74,61,12,7,5,7,0.3,0.3
2025-05-26T2000,2609A,103.3861,23.35,红河哈尼族彝族自治州,监测站,,26,21,20,18,14,37,,65,56,13,8,10,11,0.3,0.4
2025-05-26T2000,3038A,103.3758,23.368,红河哈尼族彝族自治州,州图书馆,,14,,14,9,13,44,,68,59,11,9,3,7,0.3,0.3
2025-05-26T2000,1090A,111.6507,40.7517,呼和浩特市,呼市一监,,38,31,34,26,33,121,,,,11,11,9,8,0.3,0.6
2025-05-26T2000,1091A,111.6572,40.8033,呼和浩特市,小召,,39,22,29,10,13,123,,129,129,17,27,8,8,0.4,0.6
2025-05-26T2000,1094A,111.7516,40.8369,呼和浩特市,如意水处理厂,,30,20,26,10,13,95,,129,127,25,22,6,6,0.3,0.3
2025-05-26T2000,1095A,111.7276,40.8062,呼和浩特市,二十九中,,,,27,,12,,,74,,,23,,4,,0.6
2025-05-26T2000,1096A,111.5512,40.7866,呼和浩特市,工大金川校区,,34,21,25,13,15,107,,130,129,28,26,6,6,0.5,0.5
2025-05-26T2000,1097A,111.717,40.7612,呼和浩特市,化肥厂生活区,,40,24,30,13,17,127,,142,142,20,24,7,7,0.4,0.4
2025-05-26T2000,3698A,111.5968,40.8178,呼和浩特市,红旗小学,,36,24,23,11,14,114,,136,136,23,23,3,4,0.4,0.4
2025-05-26T2000,3699A,111.6518,40.8389,呼和浩特市,海东办,,36,27,23,16,17,115,,124,124,15,25,8,9,0.4,0.4
2025-05-26T2000,2192A,119.7594,49.2261,呼伦贝尔市,区环保局,,50,46,73,35,60,96,,111,108,20,23,5,6,0.3,0.4
2025-05-26T2000,3061A,119.7512,49.1577,呼伦贝尔市,国华电力东,,33,33,65,21,54,90,,116,113,15,14,3,3,0.3,0.4
2025-05-26T2000,1250A,120.0751,30.8669,湖州市,城西水厂,臭氧1小时,62,41,51,23,33,169,,176,176,27,26,7,7,0.5,0.5
2025-05-26T2000,2873A,120.0830,30.8929,湖州市,仁皇山新区,臭氧1小时,62,38,47,25,31,169,,171,171,26,22,6,6,0.6,0.7
2025-05-26T2000,2907A,120.1844,30.8596,湖州市,吴兴区站,,49,44,45,24,29,156,,163,163,29,24,8,8,0.4,0.4
2025-05-26T2000,3562A,120.4148,30.8538,湖州市,南浔区站,,45,42,50,22,29,143,,163,163,32,20,7,5,0.5,0.5
2025-05-26T2000,1607A,120.9049,40.7211,葫芦岛市,龙港区,细颗粒物(PM2.5),87,71,44,64,27,180,,182,182,18,23,11,9,0.6,0.4
2025-05-26T2000,1608A,120.8392,40.7514,葫芦岛市,化工街,颗粒物(PM10),57,63,54,39,29,161,,160,160,20,52,11,15,0.7,0.5
2025-05-26T2000,1609A,120.8341,40.7073,葫芦岛市,新区,细颗粒物(PM2.5),84,64,37,62,27,157,,168,168,22,32,11,7,0.7,0.5
2025-05-26T2000,1610A,120.8695,40.7677,葫芦岛市,东城区,细颗粒物(PM2.5),114,,58,86,34,139,,158,158,31,51,,32,,0.5
2025-05-26T2000,2482A,109.5981,27.5721,怀化市,林科所,,32,,29,22,19,97,,112,111,6,9,7,6,0.6,0.6
2025-05-26T2000,2483A,109.9453,27.5444,怀化市,河西地税局,,30,30,28,21,20,70,,107,104,18,9,2,3,0.2,0.2
2025-05-26T2000,2484A,109.9781,27.5342,怀化市,市四医院,,31,31,38,13,27,96,,117,115,10,11,3,4,0.6,0.6
2025-05-26T2000,2485A,109.9972,27.5578,怀化市,监测楼,,28,24,35,18,23,87,,114,111,8,8,3,4,0.2,0.2
2025-05-26T2000,2486A,110.0394,27.583,怀化市,市委党校,,27,27,28,13,21,86,,112,109,10,5,2,3,0.4,0.5
2025-05-26T2000,1210A,119.036,33.5981,淮安市,钵池山,,47,31,51,25,36,150,,174,168,17,22,6,8,0.6,0.7
2025-05-26T2000,1211A,119.007,33.575,淮安市,北京南路,,49,39,56,24,35,156,,184,173,12,19,7,9,0.6,0.7
2025-05-26T2000,1212A,118.989,33.6067,淮安市,市监测站,,46,36,55,24,39,145,,169,160,14,20,10,15,0.4,0.7
2025-05-26T2000,1213A,119.135,33.5039,淮安市,楚州区监测站,颗粒物(PM10),66,81,66,44,45,117,,159,147,22,25,10,9,1.0,0.9
2025-05-26T2000,3426A,118.8755,33.2894,淮安市,新华书店,,45,45,55,22,38,127,,180,168,22,21,8,10,0.9,1
2025-05-26T2000,4206A,119.0288,33.6319,淮安市,承德北路606号,,46,46,61,26,34,144,,170,162,14,19,6,9,0.4,0.6
2025-05-26T2000,2282A,116.8004,33.975,淮北市,监测站,臭氧1小时,74,44,61,31,36,179,,178,178,12,10,7,7,0.8,0.7
2025-05-26T2000,2283A,116.8091,33.9007,淮北市,烈山区政府,臭氧1小时,79,48,57,30,38,183,,178,178,13,19,4,5,0.8,0.8
2025-05-26T2000,3330A,116.8873,33.9836,淮北市,杜集区检察院,臭氧1小时,69,55,57,32,40,175,,177,177,14,14,8,8,0.8,0.8
2025-05-26T2000,4017A,116.7923,33.9535,淮北市,市博物馆,臭氧1小时,82,45,48,33,40,185,,183,183,16,16,6,7,0.7,0.7
2025-05-26T2000,2277A,116.8305,32.7727,淮南市,潘集区政府,颗粒物(PM10),69,87,87,47,58,140,,150,147,28,26,13,6,0.7,0.6
2025-05-26T2000,2279A,116.8569,32.5951,淮南市,谢家集区政府,颗粒物(PM10),59,68,78,40,48,152,,171,168,20,22,5,6,0.3,0.4
2025-05-26T2000,2280A,116.8281,32.633,淮南市,八公山区政府,细颗粒物(PM2.5),67,78,86,48,49,161,,166,165,14,16,5,6,0.4,0.4
2025-05-26T2000,2281A,116.6325,32.6201,淮南市,焦岗湖风景区管理处,,,,,,,,,,,,,,,,
2025-05-26T2000,2894A,117.0566,32.6531,淮南市,经济技术开发区消防队,细颗粒物(PM2.5),70,59,84,51,62,143,,157,154,22,21,5,7,0.4,0.5
2025-05-26T2000,3329A,117.0108,32.5893,淮南市,山南新区,颗粒物(PM10),71,92,90,45,63,175,,185,183,16,18,8,8,0.5,0.5
2025-05-26T2000,4209A,117.0031,32.6445,淮南市,国庆中路369号,细颗粒物(PM2.5),79,78,76,58,54,158,,164,162,16,15,3,4,0.7,0.7
2025-05-26T2000,2446A,114.9028,30.4742,黄冈市,职工中心,臭氧1小时,89,56,67,44,53,191,,201,201,10,13,9,12,0.8,0.8
2025-05-26T2000,2929A,114.8858,30.4519,黄冈市,红卫路,臭氧1小时,80,62,67,51,54,184,,201,201,13,15,4,7,0.9,0.8
2025-05-26T2000,3398A,114.9136,30.4445,黄冈市,市林业局,臭氧1小时,88,64,72,44,52,190,,200,200,12,19,10,14,1.1,1.1
2025-05-26T2000,2672A,102.0199,35.5102,黄南藏族自治州,同仁县隆务镇,,43,43,31,13,12,118,,126,125,10,5,4,4,0.2,0.2
2025-05-26T2000,2295A,118.2903,29.6963,黄山市,延安路89号,,46,44,40,32,29,123,,155,151,13,10,6,5,0.4,0.3
2025-05-26T2000,2297A,118.1371,30.2756,黄山市,黄山区政府5号楼,细颗粒物(PM2.5),54,50,45,38,34,78,,131,123,9,6,3,3,0.3,0.3
2025-05-26T2000,4210A,118.3354,29.7203,黄山市,滨江东路7-2号,颗粒物(PM10),54,58,50,27,31,96,,156,148,18,9,5,5,0.3,0.3
2025-05-26T2000,2423A,115.0601,30.2313,黄石市,沈家营,细颗粒物(PM2.5),59,44,64,42,41,158,,178,178,27,19,8,8,1.0,0.8
2025-05-26T2000,2426A,114.8988,30.2019,黄石市,铁山,臭氧1小时,69,56,51,41,34,175,,182,182,7,13,4,4,0.4,0.4
2025-05-26T2000,2427A,115.0307,30.2092,黄石市,团城山,臭氧1小时,103,58,60,34,35,205,,197,197,10,14,9,8,0.6,0.6
2025-05-26T2000,3149A,115.0235,30.1578,黄石市,笔架山北路,臭氧1小时,74,43,48,29,32,179,,184,184,10,17,9,9,0.7,0.9
2025-05-26T2000,4185A,115.0780,30.21118,黄石市,磁湖东路29号,臭氧1小时,75,59,65,47,47,180,,185,185,15,21,8,9,0.9,1.6
2025-05-26T2000,1392A,114.4183,23.0528,惠州市,河南岸金山湖子站,,46,44,35,32,26,67,,85,82,14,12,9,9,0.7,0.6
2025-05-26T2000,1393A,114.4053,23.0822,惠州市,下埔横江三路子站,,,48,36,34,25,80,,95,93,12,11,4,6,,0.3
2025-05-26T2000,1394A,114.4103,23.1142,惠州市,江北云山西路子站,,45,44,34,31,25,79,,95,93,12,9,6,6,0.5,0.5
2025-05-26T2000,1395A,114.4645,22.7833,惠州市,惠阳区承修路船湖子站,,45,45,32,26,19,71,,102,97,17,14,8,9,0.7,0.6
2025-05-26T2000,1396A,114.5317,22.7422,惠州市,大亚湾管委会子站,,36,36,30,21,19,86,,109,108,2,18,8,9,0.5,0.5
2025-05-26T2000,3314A,114.4338,22.8134,惠州市,惠阳秋长,,41,41,30,28,20,89,,124,119,9,8,11,10,0.6,0.5
2025-05-26T2000,3452A,114.6517,22.775,惠州市,大亚湾霞涌,,33,33,26,15,15,66,,103,99,16,9,9,8,0.6,0.5
2025-05-26T2000,2240A,130.9762,45.3001,鸡西市,环保局,,25,22,24,8,11,80,,98,95,15,15,5,5,0.4,0.4
2025-05-26T2000,2243A,130.9429,45.3039,鸡西市,第一中学,,28,28,20,10,12,78,,96,95,12,9,6,6,0.6,0.3
2025-05-26T2000,3707A,131.0207,45.3073,鸡西市,欧美日汽修厂,,43,43,28,21,14,73,,95,92,13,12,6,6,0.4,0.4
2025-05-26T2000,3709A,130.9967,45.3106,鸡西市,市政设施管理处,,33,33,30,17,13,63,,92,86,28,19,6,5,0.5,0.5
2025-05-26T2000,2367A,114.9754,27.0803,吉安市,红声器材厂,颗粒物(PM10),51,52,55,35,37,140,,153,153,13,11,13,13,0.6,0.6
2025-05-26T2000,2368A,114.9658,27.0999,吉安市,市森林工业局,细颗粒物(PM2.5),58,53,55,41,41,122,,149,147,13,9,11,11,0.7,0.5
2025-05-26T2000,2369A,114.99,27.1312,吉安市,市环境监测站,细颗粒物(PM2.5),57,54,49,40,36,130,,146,146,9,6,16,15,0.7,0.7
2025-05-26T2000,2370A,115.0093,27.0968,吉安市,青原区法院,"颗粒物(PM10),细颗粒物(PM2.5)",54,58,54,38,42,121,,152,151,15,11,8,8,0.4,0.5
2025-05-26T2000,1772A,126.54,43.8622,吉林市,哈达湾,,41,41,36,19,18,81,,95,93,29,20,7,7,0.5,0.4
2025-05-26T2000,1773A,126.5844,43.8358,吉林市,东局子,,30,30,27,15,20,84,,94,92,21,18,5,6,0.7,0.7
2025-05-26T2000,1774A,126.5052,43.8245,吉林市,电力学院,细颗粒物(PM2.5),80,84,36,59,24,51,,94,85,45,23,5,5,0.7,0.4
2025-05-26T2000,1775A,126.6133,43.8972,吉林市,江北,颗粒物(PM10),55,60,34,30,19,42,,91,80,36,19,7,7,0.7,0.5
2025-05-26T2000,1776A,126.555,43.8306,吉林市,江南公园,,32,32,30,20,21,78,,88,85,18,18,6,6,0.5,0.4
2025-05-26T2000,1778A,126.7061,43.7133,吉林市,丰满,,,,,,,,,,,,,,,,
2025-05-26T2000,2868A,126.4739,43.953,吉林市,九站,,46,46,43,23,24,40,,92,83,34,24,5,9,0.3,0.3
2025-05-26T2000,1299A,116.9862,36.6114,济南市,科干所,臭氧1小时,92,46,44,20,23,193,,196,196,10,18,4,4,0.1,0.1
2025-05-26T2000,1300A,116.9376,36.665,济南市,农科所,臭氧1小时,57,54,52,22,22,165,,189,187,17,24,7,7,0.3,0.3
2025-05-26T2000,1301A,117.1265,36.6734,济南市,开发区,,,,42,,24,127,,178,165,27,18,6,7,,0.6
2025-05-26T2000,1303A,117.0624,36.6868,济南市,省种子仓库,臭氧1小时,84,61,54,27,24,187,,192,192,14,27,5,5,0.5,0.4
2025-05-26T2000,1304A,116.9489,36.6447,济南市,机床二厂,,,61,63,22,26,158,,179,177,,36,4,5,0.5,0.5
2025-05-26T2000,1305A,117.0495,36.663,济南市,市监测站,臭氧1小时,68,51,48,27,23,174,,179,179,13,21,8,8,0.6,0.5
2025-05-26T2000,1306A,116.7675,36.5484,济南市,长清党校,臭氧1小时,78,49,44,29,28,182,,190,190,15,17,4,6,0.5,0.5
2025-05-26T2000,1616A,117.6795,36.229,济南市,技术学院,,46,24,60,17,32,147,,195,192,20,37,9,13,0.6,1
2025-05-26T2000,1961A,117.532,36.6868,济南市,东山小学,臭氧1小时,55,39,47,22,21,164,,191,189,12,18,5,5,0.7,0.7
2025-05-26T2000,3059A,117.7161,36.2049,济南市,泰兴公司,,39,29,54,17,30,124,,193,183,29,47,4,7,0.4,0.5
2025-05-26T2000,3064A,117.6867,36.2171,济南市,莱芜战役纪念馆,,49,24,60,24,34,154,,200,193,16,35,6,8,1.0,1.2
2025-05-26T2000,3494A,117.1673,36.9782,济南市,济阳区政府,臭氧1小时,57,61,67,20,27,165,,202,199,19,35,9,8,0.4,0.5
2025-05-26T2000,3495A,117.1171,36.63,济南市,锦屏中学,颗粒物(PM10),51,51,36,27,19,54,,179,144,26,12,8,9,0.7,0.5
2025-05-26T2000,3682A,116.9814,36.6819,济南市,济南四建,臭氧1小时,79,56,51,22,27,183,,119,,15,27,3,5,1.0,0.6
2025-05-26T2000,1653A,116.6251,35.4302,济宁市,火炬城,臭氧1小时,67,39,46,29,31,173,,183,183,8,15,4,5,0.4,0.4
2025-05-26T2000,1655A,116.5491,35.4042,济宁市,电化厂,,47,42,56,24,28,149,,170,169,15,23,3,4,0.5,0.5
2025-05-26T2000,3500A,116.5814,35.3707,济宁市,北湖一中,臭氧1小时,60,43,48,26,33,168,,182,182,6,14,3,5,0.4,0.3
2025-05-26T2000,3501A,116.8249,35.5593,济宁市,服务中心,臭氧1小时,72,42,57,24,26,177,,184,184,12,29,3,3,0.4,0.4
2025-05-26T2000,3678A,116.5907,35.4054,济宁市,市第七中学,臭氧1小时,62,31,48,19,30,169,,175,175,5,13,5,6,0.4,0.4
2025-05-26T2000,2255A,130.2751,46.8028,佳木斯市,佳纺,,26,25,25,10,13,81,,92,90,6,17,3,3,0.3,0.3
2025-05-26T2000,2256A,130.3995,46.8307,佳木斯市,发电厂,,28,28,27,11,14,86,,99,96,12,20,4,4,0.4,0.4
2025-05-26T2000,2257A,130.3258,46.7975,佳木斯市,环保局,,34,34,26,7,18,81,,95,90,10,15,2,2,0.3,0.3
2025-05-26T2000,2258A,130.3648,46.8032,佳木斯市,十一中,,28,28,32,13,15,80,,95,91,17,23,3,4,0.5,0.4
2025-05-26T2000,2259A,130.3794,46.7588,佳木斯市,四丰,,,18,14,3,8,,,,,13,9,1,1,0.4,0.4
2025-05-26T2000,1252A,120.7436,30.778,嘉兴市,清河小学,,38,36,38,22,22,120,,142,140,29,21,8,7,0.6,0.6
2025-05-26T2000,1253A,120.726,30.7478,嘉兴市,嘉兴学院,,41,37,39,21,24,131,,155,153,27,20,7,7,0.7,0.6
2025-05-26T2000,2872A,120.7846,30.7525,嘉兴市,南湖区残联,颗粒物(PM10),51,52,39,19,25,124,,156,153,27,19,9,7,0.4,0.4
2025-05-26T2000,3407A,120.6916,30.7739,嘉兴市,秀洲住建,,43,43,42,20,23,136,,162,160,27,21,9,7,0.5,0.2
2025-05-26T2000,1945A,98.2908,39.7711,嘉峪关市,气象局,,46,24,26,7,9,146,,163,163,8,13,4,6,0.1,0.2
2025-05-26T2000,2884A,98.2672,39.7978,嘉峪关市,酒钢宾馆,,43,24,31,14,16,136,,148,148,11,13,14,21,0.7,0.8
2025-05-26T2000,3248A,98.2643,39.7724,嘉峪关市,雄关区,,45,28,30,12,14,142,,155,155,9,17,9,10,0.2,0.3
2025-05-26T2000,1383A,113.1064,22.6058,江门市,北街,"颗粒物(PM10),细颗粒物(PM2.5)",58,66,54,41,40,111,,162,160,38,28,4,5,0.6,0.5
2025-05-26T2000,1384A,113.0731,22.5835,江门市,西区,颗粒物(PM10),61,72,54,40,34,120,,165,164,38,26,8,8,0.7,0.6
2025-05-26T2000,1385A,113.0219,22.5311,江门市,圭峰西,细颗粒物(PM2.5),63,60,51,45,41,129,,156,156,28,21,5,5,0.6,0.6
2025-05-26T2000,1386A,113.0828,22.5947,江门市,东湖,"颗粒物(PM10),细颗粒物(PM2.5)",59,67,58,42,36,115,,156,154,18,22,9,9,0.6,0.7
2025-05-26T2000,3311A,113.1075,22.5647,江门市,江海富民,颗粒物(PM10),55,60,55,35,35,113,,162,161,38,26,10,10,0.8,0.7
2025-05-26T2000,3449A,113.05,22.4667,江门市,新会银湖,"颗粒物(PM10),细颗粒物(PM2.5)",62,74,57,44,42,109,,157,156,42,25,4,3,0.7,0.6
2025-05-26T2000,1830A,113.1992,35.2590,焦作市,影视城,,,,23,,12,,,,,,8,,9,,0.5
2025-05-26T2000,3169A,113.2725,35.2067,焦作市,太极体育中心,臭氧1小时,52,46,61,28,38,161,,184,184,30,26,7,7,0.3,0.4
2025-05-26T2000,3335A,113.3137,35.2641,焦作市,马村街道办,,,,74,36,40,166,,195,195,22,24,10,11,0.6,0.7
2025-05-26T2000,3336A,113.2465,35.2373,焦作市,焦作技师学院,颗粒物(PM10),57,64,58,31,30,160,,184,184,12,17,8,8,0.4,0.5
2025-05-26T2000,3477A,113.1656,35.2539,焦作市,中站许衡医院,颗粒物(PM10),59,67,46,35,29,148,,183,183,39,19,8,8,0.5,0.5
2025-05-26T2000,3981A,113.2449,35.1803,焦作市,原李万街道办,臭氧1小时,68,68,68,22,33,174,,187,187,21,32,14,14,0.6,0.6
2025-05-26T2000,4264A,113.2340,35.2190,焦作市,新安路1731号,颗粒物(PM10),66,81,63,39,33,166,,178,178,14,24,7,8,0.4,0.6
2025-05-26T2000,1708A,116.3701,23.5345,揭阳市,新兴,颗粒物(PM10),52,53,39,30,22,120,,106,106,16,14,7,7,0.7,0.6
2025-05-26T2000,1709A,116.3264,23.5443,揭阳市,西马,颗粒物(PM10),65,79,35,34,21,126,,110,110,14,17,8,7,0.8,0.7
2025-05-26T2000,1710A,116.3611,23.5626,揭阳市,东兴,颗粒物(PM10),51,52,36,34,18,122,,103,103,16,16,5,4,0.9,0.7
2025-05-26T2000,1711A,116.4151,23.5294,揭阳市,渔湖,,48,48,31,30,15,122,,114,114,23,19,5,6,0.8,0.7
2025-05-26T2000,3320A,116.403,23.5699,揭阳市,曲溪,,,60,27,30,14,124,,104,104,18,17,,5,0.6,0.4
2025-05-26T2000,1944A,102.1692,38.5167,金昌市,天庆家园,颗粒物(PM10),51,51,55,12,18,151,,147,147,9,22,14,16,0.6,0.8
2025-05-26T2000,4022A,102.1647,38.5371,金昌市,金川区人防中心,颗粒物(PM10),53,56,60,14,20,156,,156,156,10,19,9,11,0.5,0.6
2025-05-26T2000,4239A,102.1930,38.5319,金昌市,长春路96号,,48,41,54,11,20,152,,148,148,4,16,24,13,0.4,0.7
2025-05-26T2000,1262A,119.647,29.077,金华市,十五中,臭氧1小时,79,63,66,42,46,183,,208,208,26,25,1,2,0.7,0.7
2025-05-26T2000,1263A,119.686,29.1029,金华市,监测站,细颗粒物(PM2.5),64,73,71,46,47,170,,218,218,44,30,3,3,0.6,0.6
2025-05-26T2000,3659A,119.656,29.1131,金华市,气象局,颗粒物(PM10),63,76,66,42,40,156,,194,194,34,36,3,4,0.6,0.6
2025-05-26T2000,1767A,121.1115,41.0879,锦州市,南山,细颗粒物(PM2.5),62,61,70,44,35,157,,151,151,20,30,18,28,1.3,1
2025-05-26T2000,1768A,121.0604,40.8428,锦州市,开发区,细颗粒物(PM2.5),83,,64,61,34,152,,166,166,34,59,8,12,0.8,0.7
2025-05-26T2000,1769A,121.1836,41.1119,锦州市,百股街道,,49,42,48,29,24,154,,155,155,19,22,14,15,0.7,0.7
2025-05-26T2000,1770A,121.1178,41.1222,锦州市,天安街道,细颗粒物(PM2.5),58,55,56,41,33,152,,145,145,20,31,14,25,1.1,0.9
2025-05-26T2000,1771A,121.1303,41.1386,锦州市,北湖公园,臭氧1小时,58,,52,36,29,166,,155,155,18,25,16,25,1.1,1
2025-05-26T2000,2160A,112.85,35.5051,晋城市,自来水公司,臭氧1小时,99,40,64,29,28,199,,205,205,16,26,3,5,0.3,0.5
2025-05-26T2000,2161A,112.8318,35.4936,晋城市,白云商贸,臭氧1小时,74,65,61,27,20,179,,192,192,21,25,9,10,0.7,0.8
2025-05-26T2000,2162A,112.8508,35.4887,晋城市,市环保局,颗粒物(PM10),62,74,73,29,27,165,,176,176,17,24,5,5,0.5,0.7
2025-05-26T2000,2163A,112.8676,35.4897,晋城市,技术学院,,,,68,,21,199,,209,209,15,24,,10,0.8,0.9
2025-05-26T2000,2165A,112.8453,35.546,晋城市,白马寺,臭氧1小时,98,67,44,34,29,198,,201,201,13,11,8,8,0.5,0.7
2025-05-26T2000,3620A,112.8271,35.4828,晋城市,泽州一中,臭氧1小时,87,41,49,29,29,189,,204,204,22,27,12,14,0.5,0.7
2025-05-26T2000,2173A,112.7249,37.7067,晋中市,南都小区,颗粒物(PM10),59,68,59,32,26,162,,173,173,18,22,11,8,0.5,0.4
2025-05-26T2000,2174A,112.6991,37.6982,晋中市,榆次区政府,颗粒物(PM10),59,68,58,35,23,145,,160,160,25,29,12,10,0.3,0.2
2025-05-26T2000,2865A,112.7195,37.6828,晋中市,榆次三中,颗粒物(PM10),64,78,58,41,27,147,,164,164,24,24,10,7,0.6,0.5
2025-05-26T2000,4200A,112.7478,37.6954,晋中市,迎宾街26号,颗粒物(PM10),52,53,56,34,27,145,,159,159,18,22,9,7,0.8,0.7
2025-05-26T2000,2439A,112.2014,31.0481,荆门市,竹园小学,细颗粒物(PM2.5),82,93,95,60,61,165,,174,174,12,12,5,8,0.5,0.5
2025-05-26T2000,2440A,112.1969,30.9891,荆门市,掇刀,细颗粒物(PM2.5),78,92,80,57,62,158,,173,173,8,10,10,8,0.6,0.6
2025-05-26T2000,2441A,112.2213,31.0386,荆门市,石化一小,细颗粒物(PM2.5),73,82,88,53,61,147,,165,165,15,16,10,13,0.0,0.1
2025-05-26T2000,3012A,112.1849,31.0362,荆门市,西山林语,细颗粒物(PM2.5),78,66,69,57,53,149,,162,162,10,8,9,10,0.4,0.4
2025-05-26T2000,3547A,112.1632,31.0138,荆门市,龙泉中学南校,细颗粒物(PM2.5),69,61,58,50,43,152,,161,161,9,8,5,5,0.8,0.8
2025-05-26T2000,1844A,112.2494,30.3197,荆州市,市图书馆,细颗粒物(PM2.5),77,70,62,56,47,153,,174,174,20,19,5,7,0.8,0.8
2025-05-26T2000,1845A,112.2008,30.3544,荆州市,市委党校,细颗粒物(PM2.5),72,66,61,52,50,133,,152,152,13,14,8,9,0.9,0.9
2025-05-26T2000,3194A,112.2747,30.3122,荆州市,管委会,细颗粒物(PM2.5),75,69,57,55,47,139,,165,165,20,16,9,12,0.8,0.8
2025-05-26T2000,4268A,112.1722,30.3366,荆州市,学苑路85号,细颗粒物(PM2.5),75,,48,55,55,147,,168,168,22,25,4,6,0.5,0.5
2025-05-26T2000,2342A,117.3102,29.3867,景德镇市,王港中学,,,,,,,,,,,,,,,,
2025-05-26T2000,2343A,117.2117,29.2933,景德镇市,老干部活动中心,细颗粒物(PM2.5),57,54,54,40,39,99,,161,154,12,14,8,11,0.7,0.7
2025-05-26T2000,2344A,117.1894,29.2789,景德镇市,兽医站,颗粒物(PM10),60,69,64,38,39,105,,150,145,9,17,4,8,0.9,0.9
2025-05-26T2000,2345A,117.1547,29.2617,景德镇市,台达陶瓷,颗粒物(PM10),62,73,63,42,43,114,,153,149,19,20,24,23,0.8,0.7
2025-05-26T2000,2346A,117.2461,29.2956,景德镇市,陶研所,细颗粒物(PM2.5),63,54,54,45,41,89,,160,147,11,13,1,3,0.4,0.4
2025-05-26T2000,1803A,115.9872,29.6815,九江市,十里,细颗粒物(PM2.5),72,,52,52,47,144,,163,160,9,19,3,3,0.8,0.8
2025-05-26T2000,1804A,115.9584,29.7046,九江市,茅山头,细颗粒物(PM2.5),73,62,56,53,42,154,,170,168,11,15,3,4,0.6,0.6
2025-05-26T2000,1805A,115.9877,29.7295,九江市,西园,细颗粒物(PM2.5),57,56,57,40,41,148,,161,159,22,37,5,8,0.7,0.8
2025-05-26T2000,1808A,115.9114,29.6038,九江市,综合工业园,细颗粒物(PM2.5),67,54,51,48,38,130,,164,161,26,28,6,6,0.9,0.7
2025-05-26T2000,1809A,116.0721,29.7535,九江市,石化总厂,细颗粒物(PM2.5),78,64,64,57,51,135,,152,152,18,19,3,5,0.8,0.9
2025-05-26T2000,1810A,115.9773,29.5698,九江市,庐山气象台,细颗粒物(PM2.5),58,48,42,41,40,135,,137,137,9,8,6,6,0.7,0.7
2025-05-26T2000,3190A,116.0254,29.6994,九江市,外国语学校,细颗粒物(PM2.5),68,56,55,49,46,142,,153,153,9,28,9,11,0.9,0.9
2025-05-26T2000,4253A,116.0102,29.6594,九江市,莲花大道8号,细颗粒物(PM2.5),60,62,56,43,43,150,,150,150,2,8,4,5,0.6,0.7
2025-05-26T2000,4240A,98.4958,39.7339,酒泉市,玉门东路5号,,45,,36,29,22,142,,149,149,5,11,7,13,0.3,0.3
2025-05-26T2000,4241A,98.5099,39.7506,酒泉市,北大街108号,,48,17,30,11,16,151,,161,160,8,14,10,11,0.2,0.2
2025-05-26T2000,2698A,76.0072,39.4467,喀什地区,巡警大队,颗粒物(PM10),122,193,220,18,49,102,,112,112,15,33,4,6,0.2,0.4
2025-05-26T2000,2699A,75.9755,39.4694,喀什地区,吾办,颗粒物(PM10),131,211,225,63,78,89,,100,100,18,28,9,11,0.1,0.3
2025-05-26T2000,4027A,75.9483,39.4689,喀什地区,老干局,颗粒物(PM10),111,172,210,40,52,86,,93,93,10,19,7,6,0.3,0.4
2025-05-26T2000,1824A,114.3389,34.7781,开封市,肿瘤医院,,50,39,66,18,37,158,,182,180,12,20,8,9,0.2,0.3
2025-05-26T2000,1826A,114.2885,34.7965,开封市,世纪星幼儿园,颗粒物(PM10),57,63,71,25,40,160,,202,198,24,27,8,9,0.7,0.7
2025-05-26T2000,3147A,114.3438,34.8106,开封市,龙亭公园,,,,67,,32,153,,195,191,15,26,,4,0.6,0.7
2025-05-26T2000,3210A,114.3644,34.7964,开封市,汴京公园,颗粒物(PM10),53,56,74,21,43,147,,185,181,20,29,6,7,0.8,0.9
2025-05-26T2000,3473A,114.2485,34.8306,开封市,技师学院,,50,33,61,29,33,159,,192,190,17,17,8,10,0.7,0.8
2025-05-26T2000,3592A,114.4644,34.7556,开封市,祥符区生态环境局,,50,50,52,26,34,111,,177,169,62,33,7,8,1.0,0.8
2025-05-26T2000,1951A,84.895,45.6094,克拉玛依市,长征新村,,31,6,18,3,7,98,,98,97,4,12,5,6,0.1,0.2
2025-05-26T2000,1952A,84.8988,45.5893,克拉玛依市,南林小区,,32,,30,9,12,100,,102,101,3,19,11,11,0.2,0.5
2025-05-26T2000,1954A,84.905,44.3396,克拉玛依市,独山子区,,32,30,30,16,12,101,,108,106,6,8,6,7,0.2,0.3
2025-05-26T2000,1955A,85.6979,46.098,克拉玛依市,乌尔禾区商贸楼,,33,16,28,8,6,103,,103,103,1,11,2,2,0.2,0.3
2025-05-26T2000,3612A,85.1045,45.6899,克拉玛依市,白碱滩区新站,,36,30,41,14,17,114,,115,113,1,5,13,13,0,0.1
2025-05-26T2000,2697A,76.1454,39.7142,克孜勒苏柯尔克孜自治州,市人民政府,颗粒物(PM10),87,124,204,34,68,101,,107,107,9,11,3,19,0.3,0.4
2025-05-26T2000,3665A,76.1658,39.7157,克孜勒苏柯尔克孜自治州,克州文化中心,细颗粒物(PM2.5),83,112,202,61,72,110,,112,112,4,10,5,18,0.3,0.4
2025-05-26T2000,1450A,102.8204,24.8886,昆明市,呈贡新区,,23,23,17,10,12,51,,84,81,27,19,4,4,0.5,0.5
2025-05-26T2000,1451A,102.6251,24.9608,昆明市,西山森林公园,,,,,,,,,,,,,,,,
2025-05-26T2000,1452A,102.7252,25.0902,昆明市,龙泉镇,,17,16,12,11,8,54,,75,74,21,15,3,2,0.5,0.4
2025-05-26T2000,1453A,102.7266,25.0375,昆明市,东风东路,,23,18,19,15,13,72,,85,85,28,21,6,6,0.5,0.4
2025-05-26T2000,1454A,102.6742,25.0669,昆明市,金鼎山,,22,19,15,3,10,68,,82,82,27,17,1,1,0.4,0.3
2025-05-26T2000,1455A,102.6644,25.0401,昆明市,碧鸡广场,,23,14,14,3,9,71,,86,86,24,18,5,5,0.5,0.4
2025-05-26T2000,3179A,102.7494,25.0119,昆明市,官渡区博物馆,,21,18,15,3,9,66,,87,86,17,23,7,6,0.5,0.5
2025-05-26T2000,3375A,102.8017,24.8336,昆明市,青年创业园,,19,16,13,13,10,59,,96,89,19,15,7,7,0.6,0.4
2025-05-26T2000,3550A,102.7997,24.9786,昆明市,昆明学院,,23,14,19,9,14,71,,83,82,22,26,4,5,0.3,0.2
2025-05-26T2000,3551A,102.5967,24.6736,昆明市,晋宁区生态环境分局,,22,21,15,3,8,70,,95,90,14,10,4,5,0.6,0.4
2025-05-26T2000,3552A,102.6678,24.9856,昆明市,云天化总部,,28,10,13,8,9,87,,90,90,8,16,3,3,0.3,0.3
2025-05-26T2000,1456A,91.1319,29.6514,拉萨市,八廓街,,35,14,10,6,6,112,,126,114,14,10,6,6,0.4,0.3
2025-05-26T2000,1457A,91.1221,29.6747,拉萨市,市环保局,,32,18,9,9,6,102,,110,106,17,11,5,4,0.3,0.2
2025-05-26T2000,1458A,91.0874,29.6475,拉萨市,区监测站,,30,17,8,6,6,94,,118,108,29,12,6,6,0.3,0.2
2025-05-26T2000,1459A,91.1774,29.6541,拉萨市,西藏大学,,36,13,9,8,5,114,,119,111,10,10,8,7,0.3,0.3
2025-05-26T2000,1460A,90.9798,29.6588,拉萨市,区辐射站,,35,13,10,6,6,109,,112,108,19,12,6,6,0.3,0.3
2025-05-26T2000,1461A,91.0834,29.6292,拉萨市,拉萨火车站,,32,14,7,9,6,102,,125,110,19,7,3,3,0.3,0.2
2025-05-26T2000,2520A,109.2203,23.7256,来宾市,来宾技工学校,,44,44,34,30,28,76,,100,99,13,8,8,6,0.9,0.9
2025-05-26T2000,3535A,109.1781,23.7297,来宾市,兴宾区政府,,35,31,32,24,26,69,,86,84,9,7,4,4,0.6,0.6
2025-05-26T2000,4002A,109.2416,23.7461,来宾市,中南小学,,43,43,37,30,26,72,,97,96,14,9,5,4,0.6,0.7
2025-05-26T2000,1477A,104.1373,35.9454,兰州市,榆中兰大校区,,,,,,,,,,,,,,,,
2025-05-26T2000,1479A,103.831,36.0464,兰州市,铁路设计院,,45,45,56,30,31,85,,92,92,59,59,11,16,0.7,0.7
2025-05-26T2000,3241A,103.7439,36.0842,兰州市,百合公园,,35,35,47,10,21,98,,100,100,32,38,6,12,0.5,0.5
2025-05-26T2000,3242A,103.9611,35.998,兰州市,和平,颗粒物(PM10),52,54,57,28,24,114,,100,100,30,31,12,12,0.4,0.4
2025-05-26T2000,4236A,103.6293,36.0938,兰州市,庄浪东路808号,细颗粒物(PM2.5),57,60,52,40,31,100,,110,110,49,39,17,25,0.5,0.5
2025-05-26T2000,4237A,103.7251,36.1043,兰州市,安宁西路88号,颗粒物(PM10),56,61,63,33,36,112,,114,114,36,37,11,17,0.6,0.5
2025-05-26T2000,4238A,103.8470,36.0676,兰州市,北滨河东路1号,,43,43,57,26,26,125,,105,105,26,54,10,15,0.6,0.8
2025-05-26T2000,3245A,103.6633,36.533,兰州新区,新区管委会,,45,45,40,24,26,137,,127,127,8,12,8,18,0.4,0.4
2025-05-26T2000,3246A,103.6975,36.4789,兰州新区,舟曲中学,,44,29,44,16,20,140,,134,134,12,22,8,41,0.3,0.3
2025-05-26T2000,1067A,116.6708,39.5111,廊坊市,药材公司,颗粒物(PM10),75,100,75,48,47,166,,196,196,26,25,3,5,0.5,0.6
2025-05-26T2000,1068A,116.7214,39.5589,廊坊市,开发区,臭氧1小时,95,75,73,37,41,196,,202,202,18,30,4,5,0.6,0.5
2025-05-26T2000,1070A,116.7244,39.5269,廊坊市,北华航天学院,臭氧1小时,78,95,84,41,50,182,,192,192,17,30,4,7,0.6,0.6
2025-05-26T2000,2919A,116.7022,39.5453,廊坊市,河北工业大学,臭氧1小时,97,91,80,37,49,197,,204,204,16,27,5,7,0.6,0.6
2025-05-26T2000,2535A,103.7723,29.5462,乐山市,花湖湾,,48,47,56,28,34,152,,154,154,15,12,4,6,0.4,0.5
2025-05-26T2000,2536A,103.7627,29.5844,乐山市,牛耳桥,颗粒物(PM10),52,54,59,32,36,133,,142,142,21,15,9,8,0.7,0.7
2025-05-26T2000,2537A,103.7508,29.6006,乐山市,市第三水厂,,50,50,54,30,34,135,,149,149,29,16,7,7,0.9,0.9
2025-05-26T2000,2538A,103.7571,29.5664,乐山市,市监测站,,45,45,58,29,35,140,,139,139,13,11,9,10,1.0,1
2025-05-26T2000,3361A,103.7311,29.5628,乐山市,理工大学,,43,43,58,29,40,137,,142,142,21,18,8,12,0.7,0.8
2025-05-26T2000,2598A,100.2143,26.8576,丽江市,西南郊,,26,,16,18,12,69,,94,88,23,8,5,5,1.3,1.1
2025-05-26T2000,2599A,100.2497,26.8802,丽江市,丽江古城,,30,,21,21,17,79,,94,90,17,12,9,9,0.6,0.5
2025-05-26T2000,2600A,100.2203,26.8906,丽江市,市中心,,29,,14,20,14,64,,83,79,28,16,11,10,0.6,0.4
2025-05-26T2000,1267A,119.914,28.4514,丽水市,监测站大楼,颗粒物(PM10),55,60,52,26,31,71,,135,130,29,20,2,3,0.5,0.5
2025-05-26T2000,1268A,119.93,28.4586,丽水市,莲都小学,颗粒物(PM10),51,52,54,30,32,74,,135,130,34,21,3,3,0.5,0.5
2025-05-26T2000,1269A,119.879,28.4231,丽水市,余庄前,,35,34,49,24,37,62,,130,122,11,13,4,3,0.4,0.5
2025-05-26T2000,1173A,119.176,34.5885,连云港市,市环境监测站,臭氧1小时,92,63,61,44,39,193,,191,191,18,20,8,8,0.6,0.5
2025-05-26T2000,3000A,119.3581,34.6972,连云港市,德源药业,颗粒物(PM10),68,85,62,41,34,110,,178,173,48,22,13,10,1.1,1
2025-05-26T2000,3007A,119.178,34.844,连云港市,新城一中,细颗粒物(PM2.5),59,64,58,42,38,161,,188,187,21,26,8,11,0.8,0.7
2025-05-26T2000,3008A,119.3608,34.7519,连云港市,胡沟管理处,"颗粒物(PM10),臭氧1小时",52,53,44,31,29,161,,180,180,28,18,10,12,0.8,0.7
2025-05-26T2000,3009A,119.1478,34.5911,连云港市,矿山设计院,臭氧1小时,74,68,68,39,39,179,,184,184,20,19,6,8,0.7,0.6
2025-05-26T2000,3434A,119.2413,34.6539,连云港市,工贸学校,臭氧1小时,68,54,51,38,40,174,,185,185,13,15,9,11,0.7,0.7
2025-05-26T2000,3664A,119.4172,34.7341,连云港市,连云街道,臭氧1小时,65,63,62,39,33,172,,185,185,20,22,8,9,0.6,0.5
2025-05-26T2000,2571A,102.3431,27.8099,凉山彝族自治州,青龙寺,,30,21,21,9,7,93,,101,101,5,8,5,6,0.5,0.7
2025-05-26T2000,2572A,102.2721,27.8415,凉山彝族自治州,邛海宾馆,,40,40,31,20,16,96,,100,100,9,15,13,9,0.8,0.8
2025-05-26T2000,2573A,102.2625,27.898,凉山彝族自治州,西昌市政府,,28,26,23,19,16,85,,98,97,18,17,18,15,1.3,1.1
2025-05-26T2000,2574A,102.2685,27.8851,凉山彝族自治州,凉山州政府,,28,27,22,18,14,89,,96,96,14,17,16,13,1.1,1.2
2025-05-26T2000,4229A,102.2342,27.8859,凉山彝族自治州,凯乐南路30号,,29,29,26,16,13,85,,92,92,12,24,11,14,0.8,1.1
2025-05-26T2000,2212A,123.2,41.1953,辽阳市,宏伟区,臭氧1小时,54,29,38,22,17,163,,186,186,19,18,10,10,0.6,0.6
2025-05-26T2000,2213A,123.1683,41.2495,辽阳市,新华园,臭氧1小时,73,74,55,41,29,178,,185,185,20,27,10,12,0.7,0.7
2025-05-26T2000,2214A,123.2354,41.2639,辽阳市,滨河路,,44,44,52,23,23,137,,167,166,16,24,10,12,0.5,0.5
2025-05-26T2000,2215A,123.149,41.2991,辽阳市,铁西工业园,颗粒物(PM10),57,63,64,38,31,151,,157,157,20,29,8,12,0.5,0.8
2025-05-26T2000,2227A,125.1358,42.8845,辽源市,环保局,颗粒物(PM10),52,53,34,23,12,93,,148,141,31,18,4,4,0.9,0.5
2025-05-26T2000,3239A,125.0764,42.9078,辽源市,银鹰制药,颗粒物(PM10),59,67,25,24,13,78,,157,145,65,19,9,7,0.7,0.4
2025-05-26T2000,1625A,115.9848,36.4372,聊城市,区政府,臭氧1小时,73,58,60,27,30,178,,186,186,13,17,5,7,0.7,0.7
2025-05-26T2000,2878A,116.0072,36.4343,聊城市,聊大东校,臭氧1小时,75,53,63,27,37,180,,184,184,9,14,6,8,0.3,0.3
2025-05-26T2000,3200A,115.9819,36.4978,聊城市,监控中心,臭氧1小时,84,48,58,24,31,187,,188,188,10,18,6,9,0.6,0.7
2025-05-26T2000,3513A,116.0445,36.4361,聊城市,九州社区,臭氧1小时,65,51,60,27,29,172,,180,180,5,13,5,6,0.5,0.5
2025-05-26T2000,4018A,116.0567,36.4608,聊城市,星美广场,臭氧1小时,79,63,66,19,28,183,,190,190,8,15,8,8,0.7,0.7
2025-05-26T2000,2632A,94.3681,29.6376,林芝市,林芝监测站,,23,14,10,3,6,73,,84,84,4,4,4,3,0.6,0.5
2025-05-26T2000,2633A,94.3616,29.6616,林芝市,林芝人民医院,,22,8,12,3,6,70,,82,82,2,2,6,6,0.3,0.3
2025-05-26T2000,2603A,100.0781,23.8982,临沧市,市环保局,,,,11,18,18,37,,60,56,,8,4,2,0.5,0.6
2025-05-26T2000,2604A,100.0894,23.8822,临沧市,市气象局,,,12,12,8,8,33,,,,,,9,9,,
2025-05-26T2000,1733A,111.5531,36.0783,临汾市,临钢医院,颗粒物(PM10),55,59,58,22,28,140,,172,172,23,23,4,8,0.6,0.7
2025-05-26T2000,1734A,111.5028,36.0714,临汾市,技工学校,颗粒物(PM10),61,72,58,40,38,165,,189,189,22,21,7,7,0.6,0.7
2025-05-26T2000,1736A,111.5018,36.0855,临汾市,市委,颗粒物(PM10),56,61,68,17,29,152,,175,175,23,23,6,8,0.6,0.8
2025-05-26T2000,3018A,111.505,36.1014,临汾市,唐尧大酒店,颗粒物(PM10),51,52,69,19,30,148,,174,174,18,21,5,8,0.6,0.8
2025-05-26T2000,4244A,111.4879,36.0530,临汾市,启星学校,颗粒物(PM10),61,71,57,32,37,146,,179,178,28,24,6,6,0.7,0.8
2025-05-26T2000,4271A,103.2464,35.6123,临夏回族自治州,滨河东路1号,,38,38,57,13,23,102,,111,110,9,19,6,7,0.3,0.4
2025-05-26T2000,4310A,103.2093,35.5995,临夏回族自治州,新华街21号,,45,45,49,17,23,103,,121,119,12,18,5,8,0.3,0.3
2025-05-26T2000,1618A,118.3429,35.0532,临沂市,沂河小区,,,58,71,42,52,168,,169,169,14,23,,13,0.4,0.4
2025-05-26T2000,1619A,118.295,35.0583,临沂市,鲁南制药厂,臭氧1小时,65,53,70,37,44,172,,180,179,20,42,7,13,0.5,0.4
2025-05-26T2000,1620A,118.2794,34.9976,临沂市,新光毛纺厂,细颗粒物(PM2.5),58,48,72,41,45,160,,176,176,21,33,11,15,0.4,0.4
2025-05-26T2000,1621A,118.3956,35.0888,临沂市,河东保险公司,臭氧1小时,74,44,72,30,44,179,,180,180,12,27,7,22,0.5,0.5
2025-05-26T2000,3370A,118.3564,35.0215,临沂市,十里堡居委,臭氧1小时,57,58,64,29,36,165,,174,173,21,27,8,14,0.5,0.5
2025-05-26T2000,3496A,118.3604,35.1084,临沂市,南坊新区,,50,48,71,31,43,159,,166,166,16,25,8,18,0.5,0.5
2025-05-26T2000,3860A,118.3920,35.0300,临沂市,皇山花园小区,臭氧1小时,62,41,70,30,43,169,,178,178,23,39,8,19,0.6,0.6
2025-05-26T2000,1870A,109.4856,24.3895,柳州市,柳东小学,,50,41,44,35,32,117,,118,118,11,8,11,13,0.5,0.5
2025-05-26T2000,1871A,109.4157,24.3277,柳州市,环保监测站,,50,50,46,35,38,96,,111,111,16,13,3,5,0.8,0.8
2025-05-26T2000,1872A,109.389,24.341,柳州市,河西水厂,,42,42,44,29,31,97,,113,113,20,13,6,7,0.9,0.8
2025-05-26T2000,1873A,109.4311,24.2921,柳州市,市四中,,45,43,42,31,30,94,,114,114,15,13,9,10,0.7,0.7
2025-05-26T2000,1874A,109.4006,24.3631,柳州市,市九中,,49,40,49,34,34,97,,111,111,20,14,11,14,0.8,0.9
2025-05-26T2000,1875A,109.4958,24.3134,柳州市,古亭山,,36,36,44,25,35,83,,117,116,13,7,6,7,0.5,0.5
2025-05-26T2000,3402A,109.5422,24.3996,柳州市,市二中,,40,38,38,28,31,116,,120,120,17,11,12,11,0.6,0.6
2025-05-26T2000,2307A,116.5079,31.737,六安市,监测大楼,细颗粒物(PM2.5),62,56,51,44,40,136,,157,155,22,11,6,7,0.5,0.5
2025-05-26T2000,2308A,116.4738,31.7643,六安市,皖西学院,细颗粒物(PM2.5),58,61,54,41,38,156,,173,172,11,6,5,5,0.5,0.5
2025-05-26T2000,2309A,116.4996,31.7905,六安市,朝阳厂,细颗粒物(PM2.5),64,56,54,46,38,126,,144,142,24,18,5,5,0.4,0.4
2025-05-26T2000,2310A,116.5567,31.7886,六安市,开发区,"颗粒物(PM10),细颗粒物(PM2.5)",57,63,69,40,45,142,,172,168,17,12,4,5,0.6,0.6
2025-05-26T2000,2576A,104.8,26.5892,六盘水市,窑上,,,,27,23,18,69,,90,80,8,6,2,3,0.4,0.4
2025-05-26T2000,2577A,104.83,26.5917,六盘水市,黄土坡,,25,21,22,16,17,77,,100,91,13,18,8,9,0.3,0.4
2025-05-26T2000,2578A,104.89,26.5939,六盘水市,水钢,,32,32,24,12,10,80,,97,94,10,9,8,8,0.2,0.2
2025-05-26T2000,2579A,104.8475,26.5894,六盘水市,民中,,25,20,22,9,11,77,,95,89,8,17,8,8,0.3,0.4
2025-05-26T2000,2580A,104.9544,26.5506,六盘水市,双水,,26,9,11,3,5,82,,95,94,10,9,9,8,0.3,0.3
2025-05-26T2000,2335A,117.0189,25.1181,龙岩市,龙岩师专,,,,,,,,,,,,,,,,
2025-05-26T2000,2336A,117.0217,25.1033,龙岩市,龙岩市监测站,,33,29,28,23,21,72,,89,88,16,13,6,8,0.7,0.5
2025-05-26T2000,2337A,117.0258,25.0661,龙岩市,闽西职业技术学院,,33,29,26,23,19,68,,85,85,15,13,6,6,0.7,0.5
2025-05-26T2000,2338A,117.0196,25.0306,龙岩市,龙岩学院,,32,29,26,22,20,50,,84,82,9,11,7,7,0.6,0.5
2025-05-26T2000,2665A,105.0822,33.3261,陇南市,汉王镇固水子,,,,,,,,,,,,,,,,
2025-05-26T2000,2885A,104.9339,33.3826,陇南市,滨江中学,,46,46,52,24,28,98,,108,106,7,7,8,8,0.5,0.5
2025-05-26T2000,3247A,104.955,33.371,陇南市,市总工会,,43,43,49,22,25,98,,106,105,6,6,7,8,0.5,0.5
2025-05-26T2000,2487A,111.9589,27.8901,娄底市,电视发射台,,48,48,51,19,29,76,,142,134,2,4,7,10,0.2,0.4
2025-05-26T2000,2488A,111.9975,27.725,娄底市,市监测站,细颗粒物(PM2.5),59,,54,42,38,116,,138,137,14,23,9,13,0.7,0.9
2025-05-26T2000,2489A,112.0194,27.7314,娄底市,市委党校,细颗粒物(PM2.5),54,48,50,38,38,116,,138,136,5,8,3,4,0.6,0.7
2025-05-26T2000,2490A,111.9561,27.7569,娄底市,涟钢,,45,,56,31,37,115,,133,133,8,17,13,16,0.7,1.1
2025-05-26T2000,2491A,111.9892,27.7044,娄底市,市政府,细颗粒物(PM2.5),55,,48,39,37,114,,134,132,8,10,5,5,0.5,0.5
2025-05-26T2000,1893A,105.4324,28.9634,泸州市,九狮山,细颗粒物(PM2.5),67,,46,48,39,135,,136,136,20,20,6,6,0.9,0.6
2025-05-26T2000,1894A,105.4427,28.9063,泸州市,小市上码头,,41,41,47,25,27,127,,116,116,16,9,11,11,0.6,0.5
2025-05-26T2000,1895A,105.4241,28.8573,泸州市,兰田宪桥,,47,47,49,26,31,138,,135,135,16,15,10,10,0.5,0.4
2025-05-26T2000,1896A,105.4379,28.8833,泸州市,市环监站,颗粒物(PM10),60,69,86,29,33,139,,126,126,11,17,8,8,0.5,0.5
2025-05-26T2000,4272A,105.3689,28.7783,泸州市,纳溪中医医院,,45,45,50,29,37,125,,130,130,27,23,10,8,0.7,0.7
2025-05-26T2000,2183A,111.1406,37.5211,吕梁市,环保局,,47,47,45,32,28,136,,167,164,28,18,5,6,0.4,0.3
2025-05-26T2000,2185A,111.1297,37.5136,吕梁市,自来水公司,,44,,31,30,22,140,,166,163,22,14,6,7,0.7,0.5
2025-05-26T2000,2867A,111.1283,37.51,吕梁市,马茂庄小学,,50,43,45,25,24,159,,168,168,17,17,3,4,0.5,0.5
2025-05-26T2000,1812A,112.3931,34.6516,洛阳市,市委党校,,46,38,41,25,30,147,,167,167,19,17,6,5,0.5,0.5
2025-05-26T2000,1815A,112.494,34.6886,洛阳市,河南林校,,50,46,40,35,31,143,,171,171,26,24,8,7,0.7,0.8
2025-05-26T2000,1816A,112.3844,34.623,洛阳市,开发区管委会,,44,39,41,30,31,140,,174,173,14,16,6,5,0.2,0.5
2025-05-26T2000,1817A,112.4267,34.6258,洛阳市,市委新办公区,,48,48,46,26,31,130,,168,167,31,18,6,7,0.6,0.6
2025-05-26T2000,3340A,112.6005,34.6326,洛阳市,伊滨,颗粒物(PM10),62,73,59,30,34,145,,169,169,23,21,4,3,0.5,0.6
2025-05-26T2000,3341A,112.4951,34.6332,洛阳市,中移产业园,,50,50,46,23,28,139,,171,171,26,19,6,7,0.3,0.3
2025-05-26T2000,3593A,112.5736,34.8993,洛阳市,吉利监测站,臭氧1小时,57,61,47,24,20,165,,181,181,21,20,17,11,0.6,0.5
2025-05-26T2000,3635A,112.3677,34.662,洛阳市,河科大西苑校区,,48,35,41,21,28,151,,175,175,17,18,7,7,0.6,0.6
2025-05-26T2000,3636A,112.4388,34.6781,洛阳市,英才小学,,45,40,51,22,30,144,,174,174,21,27,7,8,0.5,0.5
2025-05-26T2000,4214A,112.4600,34.6949,洛阳市,春都路1号院,颗粒物(PM10),54,57,53,21,29,155,,195,195,28,27,7,7,0.5,0.5
2025-05-26T2000,2399A,114.051,33.5699,漯河市,三五一五工厂,"颗粒物(PM10),细颗粒物(PM2.5)",54,58,64,38,36,162,,184,181,18,22,4,6,0.5,0.6
2025-05-26T2000,2400A,114.0055,33.5698,漯河市,漯河大学,颗粒物(PM10),65,79,70,36,33,162,,188,185,20,23,4,5,0.4,0.5
2025-05-26T2000,2401A,114.0138,33.5828,漯河市,市水利局,颗粒物(PM10),65,80,67,31,32,169,,186,184,16,22,4,6,0.6,0.6
2025-05-26T2000,2402A,114.0261,33.5698,漯河市,市广电局,颗粒物(PM10),62,73,63,26,34,166,,184,182,18,23,4,5,0.5,0.6
2025-05-26T2000,3478A,113.9749,33.5664,漯河市,市图书馆,颗粒物(PM10),55,59,76,29,35,159,,188,184,23,30,3,4,0.5,0.6
2025-05-26T2000,4250A,114.0892,33.5882,漯河市,韶山路11号,颗粒物(PM10),61,72,70,35,36,148,,177,173,27,27,6,8,0.5,0.5
2025-05-26T2000,1798A,118.5092,31.6837,马鞍山市,湖东路四小,细颗粒物(PM2.5),62,51,58,44,37,118,,184,170,25,16,6,7,0.7,0.7
2025-05-26T2000,1799A,118.5024,31.6449,马鞍山市,开发区,细颗粒物(PM2.5),62,57,69,44,40,128,,185,173,25,24,6,7,0.8,0.8
2025-05-26T2000,1802A,118.6245,31.7241,马鞍山市,濮塘,,46,36,54,32,44,96,,170,146,2,9,6,9,0.8,0.8
2025-05-26T2000,3633A,118.4918,31.6809,马鞍山市,雨山,颗粒物(PM10),59,67,61,31,37,118,,182,166,22,17,8,9,0.7,0.6
2025-05-26T2000,4191A,118.5274,31.72227,马鞍山市,慈湖高新区,细颗粒物(PM2.5),69,65,69,50,52,88,,175,158,44,26,8,10,0.8,0.8
2025-05-26T2000,1686A,111.0286,21.4688,茂名市,电白南海,,,53,44,,30,100,,116,113,18,11,4,4,0.9,0.9
2025-05-26T2000,1687A,110.9294,21.6533,茂名市,茂石化七小,,,,42,,26,84,,99,98,15,12,3,14,0.6,0.5
2025-05-26T2000,1688A,110.9107,21.6687,茂名市,健康路,细颗粒物(PM2.5),52,46,38,36,30,94,,108,107,18,15,4,23,0.6,0.6
2025-05-26T2000,1689A,110.8592,21.6828,茂名市,高岭,颗粒物(PM10),54,58,48,34,24,80,,97,96,22,15,5,14,0.5,0.4
2025-05-26T2000,3450A,111.01,21.5165,茂名市,电白水东,,46,46,38,29,25,90,,107,104,17,16,4,7,0.4,0.4
2025-05-26T2000,2539A,104.0308,30.0478,眉山市,黑龙滩水库,臭氧1小时,57,29,33,15,20,165,,158,158,11,3,2,2,0.4,0.3
2025-05-26T2000,2540A,103.8416,30.0874,眉山市,气象局,颗粒物(PM10),70,89,60,48,33,173,,181,181,20,14,5,2,0.5,0.4
2025-05-26T2000,3137A,103.8578,30.0744,眉山市,市委党校,颗粒物(PM10),71,92,54,44,27,165,,166,166,21,13,11,9,0.5,0.4
2025-05-26T2000,3148A,103.8291,30.0564,眉山市,区人社局,"颗粒物(PM10),细颗粒物(PM2.5)",64,78,53,46,27,165,,171,171,26,15,17,13,0.5,0.4
2025-05-26T2000,1690A,116.1231,24.3284,梅州市,梅江月梅,,34,34,23,18,13,52,,67,66,12,9,6,5,0.7,0.7
2025-05-26T2000,1691A,116.0797,24.2719,梅州市,梅县新城,,34,34,23,21,15,56,,72,71,19,12,7,7,0.7,0.6
2025-05-26T2000,1692A,116.1248,24.2654,梅州市,环境监控中心,,30,30,22,18,14,35,,66,64,29,13,3,8,0.8,0.7
2025-05-26T2000,3315A,116.1233,24.2991,梅州市,梅龙,,35,29,22,24,14,58,,69,68,15,8,7,7,0.7,0.5
2025-05-26T2000,1878A,104.7778,31.4741,绵阳市,富乐山,细颗粒物(PM2.5),69,73,60,50,38,110,,127,126,20,14,9,9,0.5,0.5
2025-05-26T2000,1880A,104.6697,31.4668,绵阳市,高新区自来水公司,,44,44,56,24,31,98,,117,115,19,15,4,5,0.6,0.6
2025-05-26T2000,1881A,104.7287,31.5075,绵阳市,三水厂,颗粒物(PM10),60,69,60,42,38,97,,114,113,20,16,9,9,0.6,0.6
2025-05-26T2000,3491A,104.69,31.5322,绵阳市,西科大附属小学,,49,49,64,27,38,100,,120,119,20,20,8,9,0.6,0.5
2025-05-26T2000,3492A,104.5648,31.5343,绵阳市,安州区旅游局,颗粒物(PM10),62,73,64,24,34,88,,105,105,20,17,4,5,0.6,0.7
2025-05-26T2000,4226A,104.7651,31.4531,绵阳市,绵阳市气象局,颗粒物(PM10),58,66,60,39,40,96,,113,112,25,15,4,6,0.5,0.4
2025-05-26T2000,1784A,129.61,44.561,牡丹江市,环保大楼,,35,,16,24,13,80,,100,95,14,9,6,6,0.2,0.3
2025-05-26T2000,1785A,129.6115,44.5782,牡丹江市,文化广场,,39,27,30,27,17,79,,100,96,19,18,8,9,0.5,0.4
2025-05-26T2000,1786A,129.5904,44.5963,牡丹江市,第一医院,,34,34,23,15,12,78,,103,98,20,13,4,5,0.5,0.4
2025-05-26T2000,1787A,129.6364,44.6075,牡丹江市,机车工厂,,29,29,28,11,10,74,,99,94,18,14,4,7,0.3,0.3
2025-05-26T2000,1788A,129.6386,44.5462,牡丹江市,第一中学,,33,33,16,19,12,70,,104,97,26,9,5,5,0.5,0.4
2025-05-26T2000,2531A,105.0703,29.61,内江市,市监测站,,40,24,34,20,30,127,,130,130,14,16,5,4,1.0,1
2025-05-26T2000,2532A,105.0717,29.5947,内江市,东兴区政府,,40,33,38,14,24,128,,130,130,13,16,8,6,0.5,0.5
2025-05-26T2000,2533A,105.0653,29.5817,内江市,内江二中,,38,35,40,20,34,121,,132,132,21,19,7,7,0.4,0.5
2025-05-26T2000,2534A,105.0406,29.5822,内江市,内江日报社,,39,,36,20,31,122,,133,133,17,13,18,7,0.6,0.6
2025-05-26T2000,2628A,92.0657,31.4846,那曲市,那曲监测站,,33,18,25,6,10,105,,120,119,14,12,7,7,0.7,0.6
2025-05-26T2000,4243A,92.0515,31.4787,那曲市,那曲市委宣传部,,35,25,19,9,8,112,,124,124,6,8,6,6,0.2,0.3
2025-05-26T2000,1290A,115.8931,28.6843,南昌市,省外办,细颗粒物(PM2.5),70,64,64,51,52,150,,171,170,15,23,11,11,1.0,0.7
2025-05-26T2000,1291A,115.8886,28.7003,南昌市,省林业公司,细颗粒物(PM2.5),67,68,71,48,49,150,,178,176,11,26,9,10,0.7,0.6
2025-05-26T2000,1292A,115.8126,28.7442,南昌市,林科所,细颗粒物(PM2.5),62,66,59,44,44,140,,186,180,18,23,6,6,0.8,0.6
2025-05-26T2000,1294A,115.8518,28.687,南昌市,建工学校,细颗粒物(PM2.5),102,79,77,76,76,155,,167,166,18,33,7,6,0.6,0.6
2025-05-26T2000,1295A,115.8921,28.6424,南昌市,象湖,颗粒物(PM10),60,69,70,39,45,163,,177,177,14,26,8,9,0.8,0.8
2025-05-26T2000,1296A,115.7423,28.7996,南昌市,武术学校,,,,27,52,26,102,,179,173,11,6,6,7,0.8,0.7
2025-05-26T2000,3046A,115.9084,28.6062,南昌市,机电学校,细颗粒物(PM2.5),67,73,79,48,53,149,,175,173,25,32,4,6,0.6,0.6
2025-05-26T2000,3690A,115.9721,28.7031,南昌市,外国语学校,细颗粒物(PM2.5),64,52,70,46,49,147,,172,170,13,17,8,8,0.3,0.5
2025-05-26T2000,4192A,115.9316,28.68677,南昌市,南京东路235号,颗粒物(PM10),66,82,87,46,56,144,,163,162,14,24,7,10,0.7,0.9
2025-05-26T2000,1905A,106.056,30.8064,南充市,西山风景区,,,,,,,,,,,,,,,,
2025-05-26T2000,1906A,106.0789,30.8023,南充市,南充市委,,43,31,44,21,28,136,,138,138,14,14,6,7,0.4,0.4
2025-05-26T2000,1907A,106.1031,30.8217,南充市,南充炼油厂,,43,43,45,26,32,129,,130,130,12,11,5,7,0.4,0.4
2025-05-26T2000,4227A,106.1083,30.7884,南充市,梨树横街98号,颗粒物(PM10),52,53,48,21,28,130,,132,132,12,12,4,6,0.3,0.3
2025-05-26T2000,4304A,106.1172,30.843,南充市,清泉寺北路188号,,42,33,40,15,25,134,,131,131,9,12,6,7,0.4,0.3
2025-05-26T2000,4305A,106.067,30.7616,南充市,同庆路1号,,,41,43,,29,127,,130,130,,11,,6,0.3,0.3
2025-05-26T2000,1151A,118.8086,32.1065,南京市,迈皋桥,,49,35,43,34,32,141,,181,172,13,15,4,6,0.5,0.5
2025-05-26T2000,1152A,118.7538,32.0551,南京市,草场门,细颗粒物(PM2.5),55,51,59,39,34,146,,186,178,22,22,1,3,0.4,0.4
2025-05-26T2000,1153A,118.7794,32.0745,南京市,山西路,颗粒物(PM10),56,61,57,31,29,155,,194,186,14,10,5,5,0.4,0.3
2025-05-26T2000,1154A,118.7752,32.0023,南京市,中华门,,45,41,51,31,31,128,,172,161,23,16,4,4,0.7,0.6
2025-05-26T2000,1155A,118.8109,32.0309,南京市,瑞金路,颗粒物(PM10),51,51,49,34,30,130,,172,163,14,12,6,6,0.5,0.5
2025-05-26T2000,1156A,118.7997,32.0754,南京市,玄武湖,,46,46,48,25,23,142,,182,173,10,8,4,4,0.6,0.5
2025-05-26T2000,1157A,118.6414,32.0931,南京市,浦口,颗粒物(PM10),57,64,56,36,33,131,,170,162,26,22,9,5,0.9,0.6
2025-05-26T2000,1158A,118.7356,31.9996,南京市,奥体中心,,49,49,54,34,33,144,,191,182,23,21,5,7,0.5,0.4
2025-05-26T2000,1159A,118.9125,32.1028,南京市,仙林大学城,颗粒物(PM10),56,61,58,34,29,152,,160,158,17,17,6,10,0.5,0.5
2025-05-26T2000,3422A,118.8436,31.9198,南京市,江宁彩虹桥,颗粒物(PM10),51,52,54,34,32,126,,173,164,30,22,3,4,0.5,0.5
2025-05-26T2000,3427A,118.8554,32.3578,南京市,六合雄州,颗粒物(PM10),64,78,54,37,32,166,,178,170,26,36,7,8,0.6,0.5
2025-05-26T2000,4249A,118.8708,31.3402,南京市,汶溪路181号,,47,,46,30,34,148,,180,172,20,18,1,3,0.2,0.3
2025-05-26T2000,4312A,119.019,31.6512,南京市,中山西路1号,臭氧1小时,52,44,40,26,28,161,,159,158,24,22,8,8,0.4,0.5
2025-05-26T2000,1401A,108.3103,22.7881,南宁市,二十一中,,42,35,36,29,23,83,,103,102,26,19,2,5,0.7,0.7
2025-05-26T2000,1402A,108.3141,22.8528,南宁市,北湖,,42,40,35,29,24,95,,105,103,14,18,5,12,0.6,0.6
2025-05-26T2000,1403A,108.3206,22.8225,南宁市,市监测站,,42,40,36,29,24,80,,92,91,13,12,5,8,0.8,0.5
2025-05-26T2000,1404A,108.3829,22.8037,南宁市,大自然花园,,43,43,35,28,24,100,,111,109,10,10,6,6,0.6,0.6
2025-05-26T2000,1405A,108.4394,22.7904,南宁市,仙葫,,43,,33,30,28,91,,106,102,10,12,9,9,0.7,0.6
2025-05-26T2000,1406A,108.2397,22.8467,南宁市,区农职院,,37,37,35,24,19,71,,85,84,12,11,4,5,0.9,1
2025-05-26T2000,1407A,108.3275,22.735,南宁市,英华嘉园,,45,39,39,31,26,98,,122,117,13,12,7,8,0.5,0.4
2025-05-26T2000,3401A,108.4834,22.7618,南宁市,红星社区,,41,41,33,24,23,112,,123,120,7,5,8,10,0.4,0.3
2025-05-26T2000,4221A,108.2177,22.7774,南宁市,乐贤路16号,,45,39,40,31,25,75,,100,98,21,14,6,8,0.5,0.5
2025-05-26T2000,2331A,118.0966,26.6761,南平市,茫荡山,,,,,,,,,,,,,,,,
2025-05-26T2000,2332A,118.1681,26.6369,南平市,南平市监测站,,45,39,40,31,32,58,,106,96,18,8,5,5,1.0,0.8
2025-05-26T2000,2333A,118.1825,26.6489,南平市,南平铝业有限公司,,49,43,42,34,36,50,,105,95,18,9,4,4,0.7,0.6
2025-05-26T2000,2334A,118.1756,26.6272,南平市,南平七中,,38,34,42,26,27,69,,106,101,11,6,4,5,0.6,0.6
2025-05-26T2000,1168A,120.9098,31.9663,南通市,狼山街道,颗粒物(PM10),51,51,36,33,23,145,,167,165,15,19,5,5,0.5,0.6
2025-05-26T2000,1169A,120.86,32.0005,南通市,虹桥,细颗粒物(PM2.5),59,57,39,42,27,148,,160,160,21,31,3,4,0.2,0.2
2025-05-26T2000,1170A,120.87,32.02,南通市,城中,颗粒物(PM10),53,56,41,31,26,144,,165,164,19,20,5,5,0.6,0.5
2025-05-26T2000,1171A,120.94,31.93,南通市,星湖花园,细颗粒物(PM2.5),58,48,32,41,23,124,,153,151,26,21,4,4,0.3,0.3
2025-05-26T2000,1172A,120.81,32.0417,南通市,紫琅学院,,43,43,42,29,21,137,,149,149,19,33,6,7,0.5,0.5
2025-05-26T2000,3291A,121.067,32.062,南通市,通州监测站,细颗粒物(PM2.5),73,70,44,53,32,140,,167,165,18,12,7,6,0.3,0.2
2025-05-26T2000,3432A,120.9348,31.9883,南通市,环境教育馆,细颗粒物(PM2.5),63,68,44,45,28,121,,169,165,32,26,4,4,0.4,0.3
2025-05-26T2000,2404A,112.5224,33.0122,南阳市,瓦房庄,颗粒物(PM10),56,61,54,18,25,144,,181,178,12,7,6,8,0.4,0.4
2025-05-26T2000,2405A,112.5003,32.9735,南阳市,汉画馆,颗粒物(PM10),54,58,47,22,23,140,,181,177,23,19,6,6,0.4,0.5
2025-05-26T2000,2406A,112.5573,33.027,南阳市,气象站,颗粒物(PM10),63,76,46,17,23,140,,176,174,18,9,5,3,0.3,0.4
2025-05-26T2000,2407A,112.5481,32.9689,南阳市,理工学院,颗粒物(PM10),62,74,51,21,22,138,,177,175,26,12,5,5,0.5,0.6
2025-05-26T2000,4008A,112.5234,32.9922,南阳市,卧龙区政府,颗粒物(PM10),57,63,47,28,28,144,,177,174,22,15,4,5,0.4,0.5
2025-05-26T2000,1234A,121.8358,29.911,宁波市,区环保大楼,,30,27,34,16,20,96,,105,105,17,30,8,9,0.4,0.4
2025-05-26T2000,1235A,121.56,29.82,宁波市,万里学院,,34,23,34,14,23,107,,122,120,13,22,3,4,0.4,0.5
2025-05-26T2000,1236A,121.713,29.9572,宁波市,龙赛医院,,32,20,39,13,19,100,,97,97,6,26,7,10,0.3,0.5
2025-05-26T2000,1239A,121.633,29.7733,宁波市,钱湖水厂,,35,25,33,14,20,110,,121,120,9,13,8,9,0.5,0.5
2025-05-26T2000,1240A,121.5856,29.8635,宁波市,太古小学,,31,22,34,8,19,97,,122,119,20,20,6,7,0.3,0.3
2025-05-26T2000,1241A,121.524,29.8674,宁波市,市环境监测中心,,30,23,32,14,18,96,,113,111,15,17,6,7,0.4,0.5
2025-05-26T2000,2871A,121.6147,29.9017,宁波市,万里国际学校,,31,21,26,11,18,99,,118,116,22,25,6,7,0.2,0.2
2025-05-26T2000,3710A,121.5594,29.8975,宁波市,白沙活动中心,,31,22,30,12,18,97,,117,115,13,15,8,10,0.3,0.4
2025-05-26T2000,2339A,119.5001,26.6946,宁德市,金涵水库,,,,,,,,,,,,,,,,
2025-05-26T2000,2341A,119.5388,26.6612,宁德市,宁德市监测站,细颗粒物(PM2.5),60,46,43,43,36,132,,149,149,13,13,4,5,0.6,0.5
2025-05-26T2000,3209A,119.5231,26.6562,宁德市,宁德一中,颗粒物(PM10),51,51,42,25,26,120,,147,147,7,7,4,4,0.5,0.8
2025-05-26T2000,2618A,98.8601,25.8567,怒江傈僳族自治州,州监测站,,24,,23,14,12,74,,72,72,6,6,8,7,0.4,0.4
2025-05-26T2000,2619A,98.8546,25.8417,怒江傈僳族自治州,泸水一中,,20,20,17,3,11,50,,55,55,21,11,6,6,0.3,0.4
2025-05-26T2000,1888A,101.6891,26.571,攀枝花市,弄弄坪,,45,45,58,27,37,27,,75,68,45,28,8,23,0.8,1
2025-05-26T2000,1889A,101.5769,26.5928,攀枝花市,河门口,,32,32,28,19,16,45,,80,75,25,17,7,9,0.8,0.7
2025-05-26T2000,1890A,101.7169,26.585,攀枝花市,炳草岗,,49,,61,34,48,47,,81,73,35,31,16,40,0.9,1.3
2025-05-26T2000,1891A,101.7369,26.5008,攀枝花市,仁和,,30,30,44,21,31,40,,80,68,21,13,9,14,0.8,0.8
2025-05-26T2000,2835A,101.7227,26.567,攀枝花市,四十中小,,47,47,58,29,41,50,,85,78,32,26,12,54,1.1,1.6
2025-05-26T2000,1604A,122.0303,41.1489,盘锦市,开发区,臭氧1小时,99,44,34,28,18,199,,190,190,16,25,12,15,0.8,0.7
2025-05-26T2000,1605A,122.0485,41.0883,盘锦市,兴隆台,臭氧1小时,75,46,43,46,29,180,,177,177,20,30,8,11,0.6,0.5
2025-05-26T2000,1606A,121.8297,41.1028,盘锦市,新生街道,臭氧1小时,102,,27,33,26,204,,184,184,21,29,10,15,0.5,0.4
2025-05-26T2000,1832A,113.3257,33.742,平顶山市,新华旅馆,颗粒物(PM10),74,97,73,22,35,150,,184,182,17,30,6,6,0.5,0.5
2025-05-26T2000,1833A,113.2919,33.737,平顶山市,规划设计院,颗粒物(PM10),64,77,64,37,34,146,,183,180,18,30,5,6,0.7,0.8
2025-05-26T2000,1834A,113.182,33.774,平顶山市,平顶山工学院,颗粒物(PM10),60,70,57,24,30,159,,186,186,14,20,4,7,0.4,0.5
2025-05-26T2000,3204A,113.3025,33.73,平顶山市,规划局,颗粒物(PM10),70,90,62,22,30,151,,182,181,14,25,5,6,0.4,0.5
2025-05-26T2000,3594A,112.8867,33.9116,平顶山市,石龙区,颗粒物(PM10),59,68,84,20,27,144,,171,170,28,46,8,11,0.5,0.6
2025-05-26T2000,2656A,106.6692,35.5461,平凉市,聚贤嘉苑,,48,48,49,30,28,114,,123,123,19,29,13,12,0.7,0.7
2025-05-26T2000,2657A,106.7021,35.5307,平凉市,博物馆,颗粒物(PM10),51,52,52,26,27,122,,128,128,17,27,14,11,0.6,0.7
2025-05-26T2000,2347A,114.0997,27.5002,萍乡市,武功山,,33,28,30,23,24,100,,145,141,7,5,7,6,1.1,1
2025-05-26T2000,2348A,113.8385,27.6434,萍乡市,中医院,颗粒物(PM10),52,54,49,34,33,159,,171,171,9,9,10,10,0.8,0.8
2025-05-26T2000,2349A,113.8493,27.6253,萍乡市,市政府车库,颗粒物(PM10),51,52,40,34,34,136,,154,153,15,10,10,7,4.7,0.8
2025-05-26T2000,2350A,113.8676,27.6435,萍乡市,市环保局,细颗粒物(PM2.5),59,55,48,42,36,151,,162,162,9,9,4,4,0.7,0.8
2025-05-26T2000,2351A,113.866,27.6198,萍乡市,安源区政府,颗粒物(PM10),64,77,45,38,31,124,,146,146,11,9,3,3,0.6,0.6
2025-05-26T2000,2319A,119.0141,25.4325,莆田市,荔城区仓后路,,47,47,34,27,24,81,,119,110,17,11,4,4,0.8,0.6
2025-05-26T2000,2320A,119.0015,25.4553,莆田市,莆田市监测站,,29,22,30,19,22,92,,124,109,8,8,3,3,0.4,0.4
2025-05-26T2000,2321A,119.1119,25.4561,莆田市,涵江区六中,,45,45,34,27,23,128,,130,130,19,12,3,3,0.6,0.6
2025-05-26T2000,2322A,119.1013,25.3215,莆田市,秀屿区政府,,50,39,34,35,28,126,,130,130,22,14,4,5,0.6,0.6
2025-05-26T2000,2323A,118.981,25.4792,莆田市,东圳水库,,,,,,,,,,,,,,,,
2025-05-26T2000,2392A,115.0312,35.7636,濮阳市,环保局,臭氧1小时,54,37,48,20,32,163,,166,166,21,17,7,9,0.6,0.6
2025-05-26T2000,2394A,115.0574,35.7609,濮阳市,油田运输公司,臭氧1小时,52,50,59,25,35,161,,165,165,16,17,6,8,0.6,0.6
2025-05-26T2000,3021A,115,35.7668,濮阳市,濮水河管理处,,45,45,57,20,37,110,,156,150,31,19,6,7,0.6,0.6
2025-05-26T2000,4216A,115.0924,35.7686,濮阳市,任丘路479号,,,,65,22,36,155,,166,166,,16,6,8,0.6,0.7
2025-05-26T2000,2601A,100.98,22.7633,普洱市,市环保局,,24,24,22,3,8,34,,48,42,4,7,3,4,0.7,0.8
2025-05-26T2000,2602A,100.9817,22.8322,普洱市,普洱第二中学,,35,,8,24,11,17,,52,40,20,9,4,5,0.6,0.5
2025-05-26T2000,2262A,131.0518,45.8751,七台河市,新一中,,23,20,13,9,6,71,,102,96,16,8,10,9,0.7,0.7
2025-05-26T2000,3345A,131.0577,45.7879,七台河市,中波台,,40,40,19,9,9,32,,84,75,50,20,8,6,0.5,0.5
2025-05-26T2000,3637A,131.0176,45.7761,七台河市,人民广场,颗粒物(PM10),51,52,29,27,18,44,,86,78,30,17,12,12,0.6,0.5
2025-05-26T2000,3684A,130.8781,45.8222,七台河市,新建矿广场,颗粒物(PM10),63,75,38,21,11,40,,78,72,26,14,10,17,0.5,0.3
2025-05-26T2000,1779A,123.9305,47.3636,齐齐哈尔市,安居小区,颗粒物(PM10),56,61,40,37,25,98,,123,120,26,17,6,4,0.6,0.5
2025-05-26T2000,1780A,123.9488,47.3386,齐齐哈尔市,中心广场,颗粒物(PM10),52,54,49,24,26,104,,126,123,25,21,8,6,0.5,0.5
2025-05-26T2000,1781A,123.9483,47.3227,齐齐哈尔市,农牧车辆厂,,44,44,48,26,26,101,,125,122,15,18,8,6,0.1,0.3
2025-05-26T2000,1783A,123.945,47.2988,齐齐哈尔市,市环境监测站,,34,34,43,18,29,107,,133,130,12,15,7,4,0.2,0.3
2025-05-26T2000,3662A,123.6333,47.2075,齐齐哈尔市,富区青少年活动中心,,45,40,48,31,46,99,,111,110,12,14,4,7,0.5,0.6
2025-05-26T2000,2591A,107.9783,26.5747,黔东南苗族侗族自治州,市环境监测站,,28,16,20,12,15,88,,93,93,6,6,3,3,0.4,0.4
2025-05-26T2000,2881A,107.8908,26.5311,黔东南苗族侗族自治州,凯里学院,,30,,14,12,14,96,,100,100,2,6,2,2,0.4,0.4
2025-05-26T2000,2593A,107.5228,26.2403,黔南布依族苗族自治州,小围寨,,23,7,9,3,5,73,,81,81,10,4,2,1,0.3,0.3
2025-05-26T2000,3538A,107.5175,26.2978,黔南布依族苗族自治州,沙坝,,21,9,15,3,5,66,,84,83,6,5,3,3,0.5,0.3
2025-05-26T2000,2589A,104.9022,25.0925,黔西南布依族苗族自治州,场坝街,,22,13,13,8,6,70,,86,80,10,9,2,2,0.3,0.3
2025-05-26T2000,2590A,104.8811,25.0992,黔西南布依族苗族自治州,坪东大道,,19,17,16,3,6,59,,71,67,8,8,1,1,0.2,0.1
2025-05-26T2000,2502A,108.6236,21.9667,钦州市,市环保站,,,58,42,34,24,96,,100,100,,12,,5,0.7,0.8
2025-05-26T2000,2503A,108.6549,21.9481,钦州市,沙埠小学,细颗粒物(PM2.5),57,52,46,40,31,100,,104,104,16,14,6,7,0.5,0.7
2025-05-26T2000,2504A,108.5989,21.7431,钦州市,港区一小,颗粒物(PM10),62,74,52,39,30,92,,97,97,22,21,9,9,0.7,0.6
2025-05-26T2000,3404A,108.5959,21.9633,钦州市,北职校,,50,50,43,24,28,94,,98,98,13,9,6,7,0.7,0.9
2025-05-26T2000,1043A,119.7493,40.0116,秦皇岛市,第一关,细颗粒物(PM2.5),115,,58,87,35,172,,170,170,19,53,7,6,0.6,0.4
2025-05-26T2000,1044A,119.5897,39.9499,秦皇岛市,监测站,细颗粒物(PM2.5),87,98,62,64,27,173,,177,176,24,38,5,6,0.6,0.4
2025-05-26T2000,1046A,119.5251,39.9041,秦皇岛市,建设大厦,"颗粒物(PM10),细颗粒物(PM2.5)",70,90,61,51,26,166,,169,168,27,44,5,6,0.6,0.5
2025-05-26T2000,3132A,119.610547,39.943889,秦皇岛市,文明里,颗粒物(PM10),73,96,69,49,24,173,,166,166,19,31,6,5,0.6,0.4
2025-05-26T2000,4198A,119.5090,39.8253,秦皇岛市,北戴河轮滑馆,细颗粒物(PM2.5),113,,50,85,35,185,,173,173,21,33,4,5,0.6,0.4
2025-05-26T2000,1307A,120.6659,36.2403,青岛市,仰口,臭氧1小时,82,39,42,35,29,185,,197,197,6,9,8,10,0.5,0.5
2025-05-26T2000,1310A,120.4134,36.0658,青岛市,市南区东部子站,臭氧1小时,90,90,53,56,28,192,,195,195,26,23,11,11,0.5,0.5
2025-05-26T2000,1311A,120.3664,36.1032,青岛市,四方区子站,臭氧1小时,110,73,43,48,29,219,,224,224,26,28,6,7,0.8,0.8
2025-05-26T2000,1312A,120.2994,36.054,青岛市,市南区西部子站,臭氧1小时,92,85,53,49,27,193,,187,187,32,34,8,10,0.9,0.9
2025-05-26T2000,1313A,120.4581,36.0858,青岛市,崂山区子站,臭氧1小时,103,83,45,51,23,206,,199,199,16,21,9,10,0.5,0.5
2025-05-26T2000,1315A,120.3999,36.3083,青岛市,城阳区子站,臭氧1小时,68,63,44,27,19,174,,198,198,29,24,6,8,0.6,0.6
2025-05-26T2000,1966A,120.0405,35.8735,青岛市,黄岛区4号,臭氧1小时,114,63,50,39,26,228,,206,206,18,29,10,12,0.8,0.8
2025-05-26T2000,3362A,120.5014,36.4034,青岛市,即墨2号,臭氧1小时,92,72,56,37,29,193,,205,205,18,19,9,11,0.7,0.8
2025-05-26T2000,3642A,120.3503,36.0736,青岛市,市北区南部,臭氧1小时,99,72,45,61,29,199,,193,193,16,19,10,11,0.7,0.6
2025-05-26T2000,3643A,120.3948,36.1805,青岛市,李沧区北部,臭氧1小时,75,88,48,51,28,180,,202,202,41,28,9,10,0.8,0.7
2025-05-26T2000,4290A,120.1969,35.9546,青岛市,珠江路669号,臭氧1小时,113,73,52,51,31,225,,215,215,15,16,9,11,0.8,0.8
2025-05-26T2000,1702A,113.0426,23.691,清远市,环保大楼,细颗粒物(PM2.5),54,52,43,38,35,104,,116,115,15,15,9,8,0.9,0.8
2025-05-26T2000,1703A,113.0208,23.7106,清远市,凤城街办,细颗粒物(PM2.5),58,51,40,41,32,95,,108,107,17,15,7,9,0.7,0.6
2025-05-26T2000,3025A,113.0477,23.6344,清远市,技师学院,细颗粒物(PM2.5),54,56,45,38,33,82,,91,91,15,19,8,10,1.0,0.9
2025-05-26T2000,3318A,112.9903,23.7403,清远市,清新太和,,45,45,39,30,27,73,,102,100,7,11,9,9,0.7,0.6
2025-05-26T2000,3455A,113.076,23.7198,清远市,清城东城,细颗粒物(PM2.5),58,54,42,41,30,85,,104,103,15,12,8,8,0.7,0.6
2025-05-26T2000,2661A,107.6325,35.7357,庆阳市,庆阳五中,,40,39,31,22,18,128,,135,134,18,12,4,5,0.5,0.4
2025-05-26T2000,2662A,107.6364,35.7067,庆阳市,市环保局,,41,39,31,24,15,129,,139,138,16,9,8,10,0.5,0.4
2025-05-26T2000,1916A,103.7897,25.5035,曲靖市,环境监测站,,18,13,16,3,9,55,,85,78,19,13,5,6,0.5,0.4
2025-05-26T2000,1917A,103.8,25.5364,曲靖市,烟厂办公区,,20,13,20,7,10,62,,90,83,16,13,3,4,0.6,0.6
2025-05-26T2000,3376A,103.7947,25.462,曲靖市,南苑二区,,22,21,16,10,11,69,,94,86,15,10,4,4,0.5,0.4
2025-05-26T2000,3377A,103.7444,25.5261,曲靖市,曲靖师范学院,,21,10,16,3,11,65,,88,81,7,10,5,9,0.4,0.4
2025-05-26T2000,1264A,118.8692,28.9398,衢州市,环保大楼,细颗粒物(PM2.5),64,68,76,46,53,148,,187,185,30,24,4,5,0.6,0.6
2025-05-26T2000,1265A,118.8709,28.9666,衢州市,实验学校,细颗粒物(PM2.5),79,82,69,58,52,152,,183,181,28,23,4,3,0.5,0.5
