timepoint,stationcode,longitude,latitude,area,positionname,primarypollutant,aqi,pm10,pm10_24h,pm2_5,pm2_5_24h,o3,o3_24h,o3_8h,o3_8h_24h,no2,no2_24h,so2,so2_24h,co,co_24h
2025-04-18T1800,2566A,102.1879,31.914,阿坝藏族羌族自治州,州农科所,,25,,22,15,8,79,,89,89,1,8,11,12,0.4,0.4
2025-04-18T1800,2568A,102.2502,31.8896,阿坝藏族羌族自治州,马师校,颗粒物(PM10),56,61,22,20,15,97,,97,97,4,13,5,5,0.3,0.4
2025-04-18T1800,3994A,102.2165,31.9024,阿坝藏族羌族自治州,马尔康中学西区,颗粒物(PM10),55,59,20,17,11,115,,118,118,3,5,4,4,0.4,0.3
2025-04-18T1800,2695A,80.292,41.1694,阿克苏地区,电视台,"颗粒物(PM10),细颗粒物(PM2.5)",500,3534,3515,623,603,85,,90,87,4,5,3,6,0.4,0.4
2025-04-18T1800,2696A,80.2613,41.1551,阿克苏地区,艺术中心,"颗粒物(PM10),细颗粒物(PM2.5)",500,4041,4040,759,757,86,,91,88,6,7,3,3,0.5,0.5
2025-04-18T1800,2204A,105.6467,38.8363,阿拉善盟,西城区西花园,颗粒物(PM10),68,85,410,20,116,117,,106,106,8,9,5,6,0.7,0.7
2025-04-18T1800,2205A,105.6985,38.8411,阿拉善盟,蒙二幼,颗粒物(PM10),78,105,378,24,105,101,,92,92,8,6,7,8,0.5,0.6
2025-04-18T1800,2206A,105.724,38.8516,阿拉善盟,环保局新楼,颗粒物(PM10),68,85,254,28,88,100,,95,95,5,5,10,10,0.6,0.6
2025-04-18T1800,2708A,88.1264,47.8517,阿勒泰地区,市站,,26,26,24,3,5,83,,90,90,3,7,3,3,0.3,0.3
2025-04-18T1800,2630A,80.1161,32.5,阿里地区,阿里监测站,,38,10,17,3,8,121,,103,103,2,12,5,6,0.4,0.5
2025-04-18T1800,3192A,80.0903,32.5028,阿里地区,阿里藏医院,,,17,16,3,6,113,,107,107,1,6,,6,0.3,0.4
2025-04-18T1800,2642A,109.0318,32.6537,安康市,香溪洞,颗粒物(PM10),67,84,72,40,40,153,,144,144,5,7,7,8,0.5,0.5
2025-04-18T1800,2644A,109.0072,32.6975,安康市,汉滨区检察院,颗粒物(PM10),63,76,78,36,34,149,,145,145,7,12,8,11,0.5,0.5
2025-04-18T1800,4054A,109.0325,32.6913,安康市,市邮政管理局,颗粒物(PM10),62,74,85,39,39,150,,148,148,7,17,6,17,0.4,0.6
2025-04-18T1800,2291A,117.0809,30.5177,安庆市,环科院,颗粒物(PM10),71,91,78,34,37,131,,132,132,15,24,9,10,0.5,0.6
2025-04-18T1800,2292A,117.0331,30.5119,安庆市,马山宾馆,颗粒物(PM10),66,81,72,31,35,132,,129,129,6,28,6,6,0.5,0.5
2025-04-18T1800,2294A,116.9896,30.6145,安庆市,安庆大学,颗粒物(PM10),70,90,79,32,37,128,,135,135,22,16,11,5,0.4,0.4
2025-04-18T1800,3173A,117.0598,30.5351,安庆市,市人大,颗粒物(PM10),71,92,80,45,39,139,,136,136,10,14,13,10,0.6,0.4
2025-04-18T1800,3123A,105.9408,26.2431,安顺市,凤凰山,,44,40,54,15,32,140,,136,136,7,9,6,11,0.4,0.5
2025-04-18T1800,3124A,105.9439,26.2564,安顺市,金钟山,,44,37,52,18,33,139,,138,138,8,9,5,10,0.5,0.6
2025-04-18T1800,3125A,105.8983,26.2481,安顺市,娄家坡,,45,33,51,17,32,141,,137,137,7,9,5,9,0.5,0.6
2025-04-18T1800,1819A,114.3551,36.1017,安阳市,红庙街,颗粒物(PM10),94,138,201,24,68,66,,91,76,10,15,3,6,0.5,0.6
2025-04-18T1800,1820A,114.361,36.0681,安阳市,银杏小区,颗粒物(PM10),63,76,212,30,79,73,,97,84,9,16,6,8,0.3,0.5
2025-04-18T1800,3141A,114.3922,36.0878,安阳市,信访局,颗粒物(PM10),60,69,209,26,76,77,,104,88,12,22,3,5,0.0,0.2
2025-04-18T1800,3669A,114.4705,36.0637,安阳市,左辅环卫站,颗粒物(PM10),70,90,211,34,81,82,,103,88,12,20,3,6,0.2,0.4
2025-04-18T1800,3703A,114.2917,36.0949,安阳市,安钢职工学校,颗粒物(PM10),70,90,219,33,81,69,,94,80,15,21,5,6,0.5,0.6
2025-04-18T1800,1748A,123.044,41.1196,鞍山市,深沟寺,,26,24,42,16,30,83,,94,94,21,18,9,13,0.5,0.8
2025-04-18T1800,1749A,123.011,41.0931,鞍山市,太阳城,,29,23,41,15,30,90,,92,92,16,15,4,6,0.5,0.9
2025-04-18T1800,1750A,123.0485,41.1442,鞍山市,太平,,39,39,52,17,30,87,,89,89,20,18,9,11,0.5,0.7
2025-04-18T1800,1751A,122.9642,41.0971,鞍山市,铁西三道街,,32,32,49,15,31,86,,88,88,30,28,5,13,0.5,1.1
2025-04-18T1800,1753A,123.022,41.0821,鞍山市,明达新区,,29,22,41,14,30,92,,95,95,18,15,7,8,0.3,0.6
2025-04-18T1800,4201A,122.9446,41.0826,鞍山市,兴盛南路290号,,32,32,48,16,31,80,,83,83,37,27,8,13,0.4,0.9
2025-04-18T1800,2195A,107.4212,40.761,巴彦淖尔市,附二中,颗粒物(PM10),69,87,43,18,16,106,,96,96,5,8,4,6,0.4,0.4
2025-04-18T1800,2196A,107.37,40.7372,巴彦淖尔市,市环保大楼,颗粒物(PM10),68,85,46,23,22,104,,95,95,6,11,4,5,0.2,0.3
2025-04-18T1800,1956A,86.1472,41.7538,巴音郭楞蒙古自治州,孔雀公园,颗粒物(PM10),500,1532,1124,232,142,89,,92,92,5,7,5,6,0.2,0.2
2025-04-18T1800,1957A,86.1972,41.7166,巴音郭楞蒙古自治州,棉纺厂,颗粒物(PM10),500,1769,1215,297,146,88,,91,91,7,11,3,2,0.2,0.2
2025-04-18T1800,1958A,86.2357,41.7173,巴音郭楞蒙古自治州,经济开发区,颗粒物(PM10),500,1782,1112,257,139,89,,87,87,7,9,6,6,0.1,0.1
2025-04-18T1800,2914A,106.7677,31.8794,巴中市,苏山坪,颗粒物(PM10),52,54,93,27,42,150,,164,152,8,7,4,8,0.4,0.4
2025-04-18T1800,3181A,106.7768,31.8526,巴中市,市五中,颗粒物(PM10),53,55,97,26,42,141,,150,150,21,22,6,7,0.8,0.9
2025-04-18T1800,3183A,106.7418,31.8654,巴中市,圣泉水务公司,颗粒物(PM10),54,57,88,32,42,159,,159,159,8,23,4,5,0.5,0.6
2025-04-18T1800,3616A,106.7616,31.8344,巴中市,市中心医院,颗粒物(PM10),51,52,89,30,48,151,,151,151,11,25,7,8,0.7,0.8
2025-04-18T1800,2235A,122.7911,45.6077,白城市,洮北区环保局,,26,12,26,9,22,83,,88,88,10,9,1,2,0.2,0.3
2025-04-18T1800,2236A,122.8738,45.5725,白城市,市环保局,,30,12,19,3,20,93,,95,95,3,5,3,3,0.3,0.3
2025-04-18T1800,2231A,126.4219,41.9171,白山市,喜丰,,29,20,46,10,24,90,,99,99,9,12,12,14,0.9,1.2
2025-04-18T1800,2232A,126.4077,41.9419,白山市,环保局,,40,40,51,8,25,101,,100,100,9,16,4,4,0.6,0.9
2025-04-18T1800,2647A,104.1724,36.5446,白银市,第三小学,颗粒物(PM10),103,156,433,61,100,96,,100,100,8,6,14,17,0.5,0.4
2025-04-18T1800,2648A,104.1465,36.5482,白银市,动力公司,颗粒物(PM10),104,158,367,56,96,102,,105,104,11,8,15,13,0.5,0.5
2025-04-18T1800,2512A,106.6103,23.9011,百色市,市监测站,颗粒物(PM10),53,56,85,23,46,106,,120,120,10,13,5,11,0.5,0.7
2025-04-18T1800,2513A,106.6538,23.8859,百色市,市中心血站,颗粒物(PM10),69,87,95,38,56,101,,115,115,10,12,6,11,0.6,0.8
2025-04-18T1800,3406A,106.6085,23.8798,百色市,祈福高中,颗粒物(PM10),57,64,94,22,48,96,,111,111,8,15,8,14,0.8,0.9
2025-04-18T1800,2270A,117.396,32.939,蚌埠市,工人疗养院,颗粒物(PM10),84,118,106,45,42,174,,181,180,16,14,5,6,0.7,0.6
2025-04-18T1800,2271A,117.3605,32.9427,蚌埠市,百货大楼,颗粒物(PM10),84,118,109,45,43,170,,173,173,17,19,8,8,0.6,0.6
2025-04-18T1800,2273A,117.4185,32.8911,蚌埠市,蚌埠学院,颗粒物(PM10),84,117,105,39,42,160,,171,171,28,15,8,6,0.7,0.6
2025-04-18T1800,2274A,117.3533,32.9673,蚌埠市,淮上区政府,颗粒物(PM10),84,117,107,50,45,179,,177,177,17,20,7,7,0.6,0.6
2025-04-18T1800,2275A,117.3145,32.8977,蚌埠市,高新区,颗粒物(PM10),84,117,105,45,45,176,,177,177,20,16,11,8,0.7,0.6
2025-04-18T1800,3715A,117.3092,32.9314,蚌埠市,蚌埠田家炳中学,臭氧1小时,90,114,113,39,45,192,,188,188,10,18,7,12,0.5,0.5
2025-04-18T1800,1585A,109.8756,40.6532,包头市,市环境监测站,细颗粒物(PM2.5),94,87,40,70,25,49,,50,50,49,27,14,14,1.4,0.8
2025-04-18T1800,1587A,109.9991,40.5842,包头市,包头八中,细颗粒物(PM2.5),75,58,42,55,27,70,,66,66,33,24,19,24,0.9,0.6
2025-04-18T1800,1588A,109.8538,40.6821,包头市,青山宾馆,颗粒物(PM10),59,67,35,37,25,53,,52,48,37,26,12,12,1.0,0.9
2025-04-18T1800,1589A,109.8642,40.6288,包头市,惠龙物流,细颗粒物(PM2.5),72,59,32,52,21,56,,63,63,45,23,16,18,1.6,0.7
2025-04-18T1800,1590A,110.0377,40.5546,包头市,东河鸿龙湾,,40,38,34,28,13,79,,71,71,20,18,12,14,0.7,0.4
2025-04-18T1800,3283A,109.9154,40.5685,包头市,滨河大厦,,29,29,26,16,16,78,,66,66,22,21,16,14,0.7,0.5
2025-04-18T1800,3419A,109.9447,40.6261,包头市,包头市委党校,细颗粒物(PM2.5),74,73,38,54,21,54,,60,60,42,24,13,15,1.0,0.5
2025-04-18T1800,3683A,109.8331,40.6576,包头市,昆区政府,颗粒物(PM10),66,82,38,45,29,59,,52,49,43,31,13,14,1.3,1.1
2025-04-18T1800,1930A,107.185,34.3063,宝鸡市,庙沟村,颗粒物(PM10),190,330,182,132,67,96,,109,95,7,12,7,10,0.5,0.5
2025-04-18T1800,1931A,107.0708,34.3017,宝鸡市,竹园沟,颗粒物(PM10),194,338,171,116,58,86,,82,82,8,20,7,7,0.4,0.4
2025-04-18T1800,1932A,107.1906,34.3672,宝鸡市,三陆医院,细颗粒物(PM2.5),196,327,198,147,79,94,,85,85,14,34,4,7,0.5,0.5
2025-04-18T1800,1933A,107.1431,34.3547,宝鸡市,监测站,颗粒物(PM10),242,379,223,136,79,80,,79,79,24,28,8,9,0.3,0.3
2025-04-18T1800,1934A,107.1186,34.3739,宝鸡市,技工学校,颗粒物(PM10),219,363,206,134,74,98,,92,92,9,18,6,10,0.5,0.6
2025-04-18T1800,1935A,107.3906,34.3528,宝鸡市,陈仓区环保局家属楼,颗粒物(PM10),202,351,219,125,81,99,,83,83,11,29,7,38,0.4,0.5
2025-04-18T1800,1936A,107.2058,34.3497,宝鸡市,文理学院,颗粒物(PM10),196,341,214,129,78,100,,88,88,10,25,6,7,0.4,0.5
2025-04-18T1800,1937A,107.2386,34.3622,宝鸡市,三迪小学,颗粒物(PM10),248,383,257,140,75,97,,85,85,17,31,5,7,0.4,0.5
2025-04-18T1800,1051A,115.493,38.8632,保定市,游泳馆,,39,39,109,15,46,66,,104,71,18,22,3,3,0.0,0.4
2025-04-18T1800,1052A,115.5213,38.8959,保定市,华电二区,,33,27,91,23,52,67,,110,71,14,19,2,4,0.4,0.7
2025-04-18T1800,1053A,115.4713,38.9108,保定市,接待中心,,33,33,94,16,45,64,,106,69,15,18,1,4,0.4,0.6
2025-04-18T1800,1054A,115.4612,38.8416,保定市,地表水厂,,37,37,105,12,38,66,,114,75,18,22,2,5,0.2,0.5
2025-04-18T1800,3581A,115.31981,38.95208,保定市,满城区生态环境分局,,18,12,80,12,36,50,,103,73,21,16,9,11,0.3,0.5
2025-04-18T1800,3582A,115.47694,38.76408,保定市,清苑区第二中学,,26,26,114,18,47,66,,107,76,20,24,3,6,0.2,0.5
2025-04-18T1800,3583A,115.62909,39.02311,保定市,徐水物探局,,38,38,105,9,32,56,,107,68,22,21,5,4,0.3,0.4
2025-04-18T1800,4004A,115.4202,38.8656,保定市,双鹰农机,,27,27,94,10,40,63,,110,73,24,24,3,6,0.2,0.4
2025-04-18T1800,4034A,115.5150,38.8590,保定市,植保所站,,35,30,99,24,50,55,,108,58,19,20,3,3,0.1,0.7
2025-04-18T1800,2594A,99.1678,25.1081,保山市,市环境监测站,,35,,26,24,18,95,,113,112,8,7,8,7,0.5,0.4
2025-04-18T1800,2595A,99.1711,25.1328,保山市,市环保局,,32,25,26,18,15,101,,124,123,7,6,7,6,0.5,0.5
2025-04-18T1800,1867A,109.1436,21.4086,北海市,海滩公园,颗粒物(PM10),76,101,108,34,29,123,,103,103,10,12,6,6,1.0,0.8
2025-04-18T1800,1868A,109.0981,21.4661,北海市,新市环保局,颗粒物(PM10),58,66,99,29,30,113,,102,102,9,13,3,4,0.6,0.6
2025-04-18T1800,1869A,109.1778,21.5233,北海市,北海工业园,颗粒物(PM10),64,77,114,39,40,113,,105,105,13,17,8,10,0.9,0.9
2025-04-18T1800,3400A,109.1911,21.4415,北海市,龙潭自来水厂,颗粒物(PM10),63,75,93,33,36,120,,101,101,6,10,6,6,0.5,0.4
2025-04-18T1800,1001A,116.3621,39.8784,北京市,万寿西宫,,19,18,29,8,10,60,,76,63,20,19,6,6,0.5,0.5
2025-04-18T1800,1003A,116.4174,39.9289,北京市,东四,,21,17,28,7,10,66,,76,68,20,17,6,6,0.6,0.5
2025-04-18T1800,1004A,116.4072,39.8863,北京市,天坛,,19,17,28,9,12,58,,72,58,23,21,2,2,0.7,0.6
2025-04-18T1800,1005A,116.462,39.9365,北京市,农展馆,,23,13,25,7,10,71,,72,64,13,19,6,6,0.8,0.6
2025-04-18T1800,1006A,116.3392,39.9295,北京市,官园,,21,21,27,9,10,55,,72,62,15,11,5,5,0.5,0.4
2025-04-18T1800,1007A,116.2878,39.9611,北京市,海淀万柳,,20,18,23,9,10,61,,77,64,21,19,4,4,0.5,0.4
2025-04-18T1800,1008A,116.6636,40.135,北京市,顺义新城,,25,7,20,3,7,79,,77,69,4,15,5,5,0.2,0.2
2025-04-18T1800,1009A,116.6275,40.3275,北京市,怀柔镇,,20,12,18,3,8,63,,65,65,4,11,2,3,0.4,0.4
2025-04-18T1800,1010A,116.2296,40.217,北京市,昌平镇,,20,10,18,6,8,61,,75,63,4,21,3,3,0.1,0.1
2025-04-18T1800,1011A,116.3966,39.9821,北京市,奥体中心,,20,12,24,7,10,63,,65,58,19,24,3,3,0.7,0.5
2025-04-18T1800,3281A,115.9718,40.4529,北京市,延庆夏都,,25,12,16,6,7,77,,87,85,10,10,2,2,0.4,0.3
2025-04-18T1800,3418A,116.8336,40.4095,北京市,密云新城,,21,12,14,3,6,67,,77,72,13,9,4,4,0.4,0.4
2025-04-18T1800,3671A,116.088,39.9726,北京市,门头沟三家店,,20,19,46,7,16,63,,58,58,14,26,2,2,0.3,0.3
2025-04-18T1800,3672A,116.1541,39.8204,北京市,丰台云岗,,19,19,27,3,12,57,,60,51,14,19,3,3,0.4,0.3
2025-04-18T1800,3673A,116.6804,39.9081,北京市,通州东关,,18,11,32,7,14,55,,74,66,23,21,4,4,0.5,0.4
2025-04-18T1800,3674A,115.9577,39.7603,北京市,房山燕山,,23,23,30,13,10,50,,72,62,18,11,4,4,0.4,0.3
2025-04-18T1800,3675A,116.4672,39.7733,北京市,大兴旧宫,,18,14,49,8,20,56,,67,59,20,19,3,3,0.3,0.4
2025-04-18T1800,3694A,115.986,40.4563,北京市,延庆石河营,,22,11,17,3,7,70,,72,69,9,9,2,2,0.4,0.3
2025-04-18T1800,3695A,116.6151,40.3053,北京市,怀柔新城,,20,13,15,3,7,62,,68,66,3,7,1,2,0.6,0.5
2025-04-18T1800,3696A,116.2545,39.8768,北京市,丰台小屯,,19,19,31,9,10,49,,67,54,22,17,1,1,0.3,0.3
2025-04-18T1800,3697A,116.84,40.3844,北京市,密云镇,,20,12,14,3,6,61,,73,67,6,9,4,5,0.3,0.2
2025-04-18T1800,4182A,116.1942,39.9158,北京市,八角北路9号,,27,27,30,10,11,57,,67,62,19,19,4,4,0.4,0.2
2025-04-18T1800,4194A,117.0790,40.1518,北京市,洳河巡河路,,19,11,28,7,15,60,,82,64,9,10,2,3,0.3,0.4
2025-04-18T1800,1761A,123.8275,41.3064,本溪市,大峪,,36,36,63,21,38,82,,92,92,28,25,6,8,0.5,0.8
2025-04-18T1800,1762A,123.7567,41.3325,本溪市,溪湖,,46,43,73,32,45,91,,86,86,22,23,3,8,0.6,0.9
2025-04-18T1800,1763A,123.7169,41.3094,本溪市,彩屯,细颗粒物(PM2.5),54,52,65,38,48,87,,92,92,30,24,11,12,0.8,0.8
2025-04-18T1800,1764A,123.7669,41.2864,本溪市,东明,颗粒物(PM10),51,52,53,27,33,81,,85,85,26,21,6,9,0.7,1
2025-04-18T1800,1765A,123.7992,41.2664,本溪市,新立屯,细颗粒物(PM2.5),85,,54,63,55,83,,89,89,32,27,12,11,0.7,0.9
2025-04-18T1800,1766A,123.8142,41.3472,本溪市,威宁,,44,44,72,23,46,87,,91,91,13,13,5,5,0.5,0.7
2025-04-18T1800,2587A,105.2864,27.3125,毕节市,八中,,46,35,40,18,27,146,,142,142,11,14,8,6,0.5,0.6
2025-04-18T1800,2588A,105.31,27.2944,毕节市,师专,臭氧1小时,52,29,52,19,32,161,,150,150,11,21,11,9,0.3,0.5
2025-04-18T1800,4263A,105.3688,27.3598,毕节市,工业大道,,46,44,52,24,31,147,,139,139,12,23,9,8,0.7,0.8
2025-04-18T1800,1629A,118.0018,37.3617,滨州市,第二水厂,颗粒物(PM10),56,61,90,34,32,81,,88,88,18,18,7,9,0.4,0.6
2025-04-18T1800,1630A,117.9776,37.393,滨州市,北中新校,颗粒物(PM10),52,53,78,19,34,84,,97,92,22,22,6,8,0.4,0.8
2025-04-18T1800,3514A,117.9378,37.3956,滨州市,中海酒店,颗粒物(PM10),59,68,78,34,38,91,,103,97,14,14,8,9,0.6,0.6
2025-04-18T1800,3515A,117.9378,37.3553,滨州市,开发区一中,颗粒物(PM10),56,61,91,31,36,86,,94,90,20,20,4,5,0.5,0.4
2025-04-18T1800,3516A,118.0917,37.694,滨州市,金海六路,,34,34,89,14,40,93,,94,,16,18,6,11,0.4,0.5
2025-04-18T1800,4028A,117.9956,37.3753,滨州市,滨州市西街道办事处,细颗粒物(PM2.5),55,48,80,39,36,94,,102,102,16,17,5,6,0.5,0.6
2025-04-18T1800,2311A,115.8072,33.8399,亳州市,污水处理厂,臭氧1小时,78,92,94,42,39,182,,176,176,8,13,4,6,0.5,0.5
2025-04-18T1800,2312A,115.7789,33.8518,亳州市,三国揽胜宫,臭氧1小时,83,102,108,42,43,186,,178,178,8,12,5,7,0.5,0.6
2025-04-18T1800,3332A,115.7633,33.8034,亳州市,亳州学院,臭氧1小时,77,87,99,33,36,181,,178,178,8,11,3,4,0.6,0.5
2025-04-18T1800,2693A,82.0485,44.8556,博尔塔拉蒙古自治州,市党校,,34,34,31,19,14,106,,86,86,20,40,3,3,0.3,0.2
2025-04-18T1800,2694A,82.0806,44.8969,博尔塔拉蒙古自治州,市环保局,,,45,51,9,12,101,,89,89,13,20,,2,0.7,0.5
2025-04-18T1800,1071A,116.8842,38.2991,沧州市,沧县城建局,,46,46,86,17,38,74,,104,82,15,22,1,3,0.2,0.4
2025-04-18T1800,1072A,116.8584,38.3254,沧州市,电视转播站,,37,37,89,9,38,72,,106,82,18,23,1,7,0.1,0.4
2025-04-18T1800,1073A,116.8709,38.3228,沧州市,市环保局,,35,35,80,21,42,70,,107,82,16,19,5,9,0.3,0.5
2025-04-18T1800,3324A,116.8136,38.3004,沧州市,河北水利电力学院,,29,29,83,6,33,81,,124,88,16,23,6,8,0.2,0.4
2025-04-18T1800,2622A,97.1806,31.1273,昌都市,昌都监测站,,,43,22,23,15,129,,111,111,4,10,2,2,,0.5
2025-04-18T1800,3719A,97.1714,31.1406,昌都市,昌都会议中心,,48,48,24,24,19,127,,105,105,2,6,2,2,0.2,0.2
2025-04-18T1800,2690A,88.1236,43.8886,昌吉回族自治州,天山天池,,35,21,7,10,4,112,,106,106,9,5,7,5,0.6,0.5
2025-04-18T1800,2692A,87.2717,44.0297,昌吉回族自治州,新区政务中心,,44,26,33,14,11,138,,110,110,8,16,9,7,0.3,0.4
2025-04-18T1800,3613A,87.3095,44.0142,昌吉回族自治州,亚心广场,,41,36,37,7,12,129,,108,108,11,23,10,9,0.3,0.4
2025-04-18T1800,1119A,125.3325,43.9166,长春市,食品厂,,25,22,33,11,33,79,,85,84,17,14,7,7,0.2,0.4
2025-04-18T1800,1120A,125.2863,43.9027,长春市,客车厂,,27,10,29,10,34,84,,87,86,17,15,5,5,0.2,0.4
2025-04-18T1800,1121A,125.2841,43.8463,长春市,邮电学院,,29,11,26,9,36,90,,94,93,11,9,5,5,0.2,0.3
2025-04-18T1800,1122A,125.3716,43.8772,长春市,劳动公园,,28,17,30,3,33,89,,91,90,8,9,6,6,0.5,0.5
2025-04-18T1800,1123A,125.3297,43.8805,长春市,园林处,,27,11,29,3,31,84,,87,86,10,9,6,6,0.1,0.3
2025-04-18T1800,1124A,125.4605,43.79,长春市,净月潭,,28,10,32,7,29,88,,90,89,9,12,5,6,0.1,0.3
2025-04-18T1800,1126A,125.3863,43.8447,长春市,经开区环卫处,,26,13,33,8,31,83,,88,86,11,11,6,6,0.2,0.3
2025-04-18T1800,1127A,125.245,43.7783,长春市,高新区管委会,,27,17,29,6,31,86,,88,88,11,11,7,7,0.3,0.4
2025-04-18T1800,1128A,125.1761,43.8325,长春市,岱山公园,,28,16,29,12,38,87,,94,93,14,13,4,5,0.3,0.4
2025-04-18T1800,1335A,113.0833,28.2325,长沙市,经开区环保局,颗粒物(PM10),75,100,100,44,40,143,,150,150,11,16,8,8,0.5,0.5
2025-04-18T1800,1336A,112.8872,28.2189,长沙市,高开区环保局,颗粒物(PM10),75,99,103,45,39,149,,154,154,6,12,6,8,0.8,0.8
2025-04-18T1800,1337A,113.0792,28.2053,长沙市,马坡岭,颗粒物(PM10),81,111,109,43,44,137,,144,144,8,13,4,5,0.5,0.5
2025-04-18T1800,1338A,112.9394,28.19,长沙市,湖南师范大学,颗粒物(PM10),77,104,101,45,46,134,,145,145,9,15,5,5,0.5,0.5
2025-04-18T1800,1339A,113.0178,28.1322,长沙市,雨花区环保局,颗粒物(PM10),73,95,99,42,42,142,,146,146,8,16,6,7,0.4,0.4
2025-04-18T1800,1340A,112.9792,28.2597,长沙市,伍家岭,颗粒物(PM10),77,103,109,42,40,138,,146,146,11,19,3,4,0.5,0.5
2025-04-18T1800,1341A,113.0014,28.1944,长沙市,火车新站,颗粒物(PM10),75,100,106,44,40,135,,143,143,15,20,8,8,0.7,0.6
2025-04-18T1800,1342A,112.9844,28.1178,长沙市,天心区环保局,颗粒物(PM10),74,98,100,42,44,140,,148,148,9,16,3,4,0.7,0.6
2025-04-18T1800,1343A,112.8908,28.1308,长沙市,湖南中医药大学,颗粒物(PM10),75,99,105,48,42,134,,149,149,12,23,2,4,0.6,0.7
2025-04-18T1800,1344A,112.9581,28.3611,长沙市,沙坪,颗粒物(PM10),70,89,94,42,43,135,,145,145,10,14,8,8,0.6,0.5
2025-04-18T1800,1727A,113.1147,36.1547,长治市,清华站,颗粒物(PM10),95,140,167,34,56,89,,131,128,16,15,8,9,0.9,0.6
2025-04-18T1800,1730A,113.0886,36.2125,长治市,审计局,颗粒物(PM10),76,101,156,34,65,89,,137,133,21,20,10,12,0.7,0.6
2025-04-18T1800,1731A,113.0844,36.1856,长治市,长治八中,颗粒物(PM10),87,124,174,55,74,91,,137,134,19,18,11,12,0.9,0.7
2025-04-18T1800,2845A,113.1569,36.1911,长治市,德盛苑,颗粒物(PM10),83,115,135,24,51,87,,134,131,14,12,6,7,0.9,0.7
2025-04-18T1800,3568A,113.06,36.0464,长治市,向阳小学,颗粒物(PM10),74,98,154,51,63,99,,144,143,22,17,13,14,0.8,0.6
2025-04-18T1800,3569A,112.8792,36.3144,长治市,屯留一中,颗粒物(PM10),51,52,153,32,59,91,,131,128,19,25,9,15,0.3,0.8
2025-04-18T1800,4189A,113.1131,36.19948,长治市,英华南巷50号,颗粒物(PM10),87,123,165,34,61,88,,134,129,20,23,6,7,1.1,0.8
2025-04-18T1800,4190A,113.2367,36.3344,长治市,学府街1号,颗粒物(PM10),74,97,190,36,83,91,,137,133,16,18,5,13,0.9,1
2025-04-18T1800,1854A,111.6975,28.9703,常德市,市二中,,,,91,48,51,135,,153,153,20,18,9,9,0.8,0.8
2025-04-18T1800,3138A,111.7153,29.0289,常德市,武陵区永安,颗粒物(PM10),84,117,106,42,46,143,,160,160,13,16,6,9,0.6,0.7
2025-04-18T1800,3139A,111.6892,28.9881,常德市,鼎城区玉霞,颗粒物(PM10),78,106,98,45,48,143,,158,158,8,21,7,9,0.7,0.8
2025-04-18T1800,3140A,111.6625,29.0531,常德市,武陵区长庚,颗粒物(PM10),81,112,101,41,47,159,,167,167,11,20,8,11,0.7,0.8
2025-04-18T1800,1196A,119.9633,31.762,常州市,市监测站,臭氧1小时,111,90,97,38,40,222,,199,199,24,30,10,12,0.7,0.7
2025-04-18T1800,1200A,119.9468,31.7069,常州市,武进监测站,臭氧1小时,114,75,85,36,35,227,,198,198,21,26,9,18,0.5,0.5
2025-04-18T1800,1201A,119.9255,31.9087,常州市,安家,臭氧1小时,106,93,105,39,35,211,,191,191,23,34,11,14,0.7,0.7
2025-04-18T1800,3002A,119.9805,31.8174,常州市,行政中心,臭氧1小时,111,85,87,40,38,221,,199,199,21,25,17,18,0.6,0.5
2025-04-18T1800,3003A,120.0522,31.7748,常州市,经开区,臭氧1小时,113,87,85,33,34,225,,205,205,26,32,15,11,1.0,0.8
2025-04-18T1800,3010A,119.9025,31.7964,常州市,钟楼,臭氧1小时,111,85,89,36,34,221,,190,190,18,24,7,13,0.5,0.5
2025-04-18T1800,3429A,119.8598,31.7066,常州市,武进经发区,臭氧1小时,111,84,90,44,42,222,,193,193,22,26,12,15,0.9,0.9
2025-04-18T1800,3430A,119.5826,31.7245,常州市,金坛城区,臭氧1小时,113,75,88,38,38,226,,195,195,14,21,9,11,0.6,0.6
2025-04-18T1800,2220A,120.4318,41.5881,朝阳市,西梁,,27,17,31,6,9,85,,94,94,13,25,4,6,0.4,0.5
2025-04-18T1800,2221A,120.4521,41.5646,朝阳市,河畔小区,,28,22,25,7,9,87,,93,93,17,18,9,9,0.4,0.5
2025-04-18T1800,2222A,120.4176,41.5648,朝阳市,八里堡,,27,26,31,11,12,86,,92,92,14,25,6,9,0.6,0.7
2025-04-18T1800,2223A,120.3806,41.5969,朝阳市,农业园区,,24,24,25,10,9,76,,97,95,27,21,8,8,0.8,0.6
2025-04-18T1800,1705A,116.6367,23.6719,潮州市,西园路,,,,77,33,32,60,,95,95,19,20,4,7,0.8,0.6
2025-04-18T1800,3026A,116.6183,23.6608,潮州市,市政府,颗粒物(PM10),68,86,77,34,29,46,,88,87,41,26,5,9,0.7,0.6
2025-04-18T1800,4036A,116.6461,23.6761,潮州市,金山,颗粒物(PM10),70,90,73,37,35,65,,99,99,21,24,8,10,0.7,0.7
2025-04-18T1800,2472A,113.0073,25.9061,郴州市,马头岭,颗粒物(PM10),59,67,80,19,20,83,,96,95,10,13,7,9,0.8,0.8
2025-04-18T1800,2473A,113.0116,25.8226,郴州市,市职中,颗粒物(PM10),55,60,78,35,33,92,,111,108,8,14,3,4,0.6,0.6
2025-04-18T1800,2475A,113.0383,25.8071,郴州市,市审计局,颗粒物(PM10),53,56,71,29,32,93,,110,108,8,12,2,3,0.4,0.4
2025-04-18T1800,2476A,113.0348,25.7759,郴州市,市环保局,颗粒物(PM10),58,66,85,30,34,89,,109,106,9,9,4,4,0.5,0.5
2025-04-18T1800,4252A,113.0138,25.8011,郴州市,好美居路49号,颗粒物(PM10),52,53,73,31,36,89,,111,108,10,11,3,8,0.6,0.5
2025-04-18T1800,1431A,103.9728,30.7236,成都市,金泉两河,臭氧1小时,97,87,80,37,36,197,,208,208,11,39,4,5,0.7,1
2025-04-18T1800,1432A,104.176,30.6872,成都市,十里店,臭氧1小时,69,78,93,25,41,175,,184,184,12,39,5,6,0.7,0.9
2025-04-18T1800,1433A,104.079,30.5706,成都市,三瓦窑,臭氧1小时,73,84,92,38,44,178,,184,184,16,50,6,6,0.6,0.8
2025-04-18T1800,1434A,104.1114,30.63,成都市,沙河铺,细颗粒物(PM2.5),74,85,89,54,42,160,,172,172,14,35,8,7,0.7,1
2025-04-18T1800,1437A,104.0786,30.6531,成都市,君平街,颗粒物(PM10),62,73,86,33,46,160,,172,172,15,48,8,8,0.7,0.9
2025-04-18T1800,2880A,104.0239,30.65639,成都市,大石西路,臭氧1小时,84,82,92,32,46,187,,199,199,15,46,6,6,0.4,0.6
2025-04-18T1800,3136A,104.2725,30.5589,成都市,龙泉驿区区政府,颗粒物(PM10),58,66,84,24,31,165,,181,181,12,18,6,5,0.6,0.7
2025-04-18T1800,3357A,104.0106,30.6931,成都市,金博路,颗粒物(PM10),67,83,79,21,33,139,,148,148,14,47,8,9,0.6,0.9
2025-04-18T1800,3359A,104.0578,30.5225,成都市,华阳,臭氧1小时,77,73,83,39,50,181,,191,191,15,39,8,7,0.5,0.9
2025-04-18T1800,3488A,104.3853,30.7453,成都市,青白江技师分院,臭氧1小时,87,69,87,30,41,189,,209,209,11,33,8,8,0.3,0.4
2025-04-18T1800,3489A,104.0789,30.4072,成都市,科学城,臭氧1小时,79,84,74,40,39,183,,188,188,12,25,5,5,0.4,0.4
2025-04-18T1800,4011A,103.8506,30.6947,成都市,光华大道三段,臭氧1小时,102,74,79,31,44,203,,212,212,18,36,3,3,0.7,0.9
2025-04-18T1800,4224A,104.2433,30.5353,成都市,鲸龙路1057号,臭氧1小时,69,79,95,31,42,175,,195,195,14,34,6,6,0.5,0.7
2025-04-18T1800,1062A,117.9531,40.9081,承德市,铁路,,41,41,27,16,10,67,,70,70,20,17,9,6,0.4,0.2
2025-04-18T1800,1063A,117.9392,40.9763,承德市,中国银行,,44,44,25,17,9,73,,77,77,16,11,17,4,0.8,0.3
2025-04-18T1800,1064A,117.9503,40.928,承德市,开发区,,30,25,26,21,18,75,,77,77,16,16,7,4,0.4,0.2
2025-04-18T1800,1065A,117.8051,40.9655,承德市,文化中心,颗粒物(PM10),53,56,36,19,8,70,,78,78,22,17,31,7,0.7,0.2
2025-04-18T1800,1066A,117.9268,41.0026,承德市,离宫,,39,39,29,23,24,57,,58,58,10,10,25,24,0.3,0.2
2025-04-18T1800,2314A,117.47,30.6618,池州市,池州学院,颗粒物(PM10),69,87,75,34,37,155,,151,151,9,11,7,6,0.5,0.5
2025-04-18T1800,3237A,117.4918,30.6617,池州市,展览馆,颗粒物(PM10),69,87,74,34,36,157,,153,153,10,11,7,5,0.6,0.5
2025-04-18T1800,3333A,117.5627,30.695,池州市,第八中学,颗粒物(PM10),67,84,75,32,37,156,,153,153,17,15,22,11,0.4,0.5
2025-04-18T1800,3334A,117.5038,30.6243,池州市,第十二中学,颗粒物(PM10),71,91,75,38,39,129,,131,131,10,16,8,6,0.8,0.9
2025-04-18T1800,1744A,118.9233,42.2816,赤峰市,松山一中,,22,12,21,3,7,70,,85,85,27,21,10,10,0.5,0.5
2025-04-18T1800,1745A,118.9576,42.2728,赤峰市,哈达街,,27,13,14,10,20,85,,94,94,15,17,9,10,0.5,0.4
2025-04-18T1800,1746A,118.8788,42.2554,赤峰市,天义路,,26,10,16,8,9,83,,92,92,16,16,7,9,0.6,0.5
2025-04-18T1800,3058A,119.2658,42.0353,赤峰市,银河街,,31,31,29,12,14,73,,84,84,18,14,17,18,0.5,0.4
2025-04-18T1800,3286A,118.9359,42.3147,赤峰市,桥北物流园区,,28,21,27,19,10,75,,84,84,22,18,5,7,0.5,0.5
2025-04-18T1800,2521A,107.3476,22.4136,崇左市,市环保局江州分局,细颗粒物(PM2.5),59,64,80,42,45,137,,112,112,5,8,6,6,0.6,0.6
2025-04-18T1800,4256A,107.3750,22.3736,崇左市,石景林东路7号,细颗粒物(PM2.5),68,72,71,49,44,147,,123,123,8,10,5,5,0.7,0.7
2025-04-18T1800,2298A,118.3093,32.3153,滁州市,老年大学,臭氧1小时,87,87,76,37,42,189,,195,195,9,9,5,6,0.3,0.4
2025-04-18T1800,2299A,118.3244,32.2786,滁州市,人大宾馆,臭氧1小时,83,69,69,39,43,186,,195,195,10,14,9,10,0.3,0.3
2025-04-18T1800,3207A,118.3118,32.3038,滁州市,市政府原办公楼,臭氧1小时,82,81,76,37,44,185,,193,193,4,3,6,6,0.3,0.3
2025-04-18T1800,3331A,118.3267,32.2634,滁州市,图书馆,臭氧1小时,73,80,81,44,41,178,,186,186,4,7,9,9,0.4,0.4
2025-04-18T1800,2605A,101.5482,25.0441,楚雄彝族自治州,州环境监测站,,41,18,15,15,13,131,,135,135,6,8,8,8,0.4,0.4
2025-04-18T1800,2606A,101.538,25.0492,楚雄彝族自治州,市经济开发区,,41,17,18,15,13,129,,133,133,7,10,6,7,0.5,0.5
2025-04-18T1800,2548A,107.5277,31.2827,达州市,达州职业技术学院,颗粒物(PM10),53,55,96,27,42,133,,139,139,16,32,6,8,0.8,0.9
2025-04-18T1800,2549A,107.5086,31.2186,达州市,市环境监测站,颗粒物(PM10),55,59,102,22,43,142,,143,143,23,42,6,7,0.3,0.5
2025-04-18T1800,2550A,107.4988,31.2132,达州市,凤凰小区,颗粒物(PM10),56,61,102,27,45,129,,125,125,30,44,11,11,0.6,0.7
2025-04-18T1800,2551A,107.5082,31.1986,达州市,达县机关宾馆,,,,105,,44,121,,140,140,33,55,6,7,0.6,0.7
2025-04-18T1800,2552A,107.4644,31.2124,达州市,市政中心,颗粒物(PM10),56,61,100,27,43,141,,144,144,26,47,5,5,0.5,0.7
2025-04-18T1800,2614A,100.1542,25.7054,大理白族自治州,大理市环境监测站,,41,17,18,12,20,131,,130,130,7,7,6,7,0.5,0.5
2025-04-18T1800,2615A,100.2171,25.5811,大理白族自治州,大理古城,,39,,20,19,17,122,,127,127,7,11,7,7,0.4,0.5
2025-04-18T1800,1109A,121.612,38.9741,大连市,甘井子,,33,33,52,16,22,78,,81,81,32,27,12,8,0.3,0.3
2025-04-18T1800,1110A,121.565,38.9511,大连市,周水子,,36,36,53,21,24,68,,70,70,31,24,9,8,0.4,0.4
2025-04-18T1800,1111A,121.5637,38.8845,大连市,星海三站,,28,26,49,14,25,87,,84,84,19,18,8,8,0.2,0.3
2025-04-18T1800,1112A,121.6302,38.9117,大连市,青泥洼桥,,32,20,45,14,24,100,,87,87,8,19,7,9,0.4,0.6
2025-04-18T1800,1113A,121.6251,38.8638,大连市,傅家庄,,29,27,46,16,21,91,,81,81,17,21,9,9,0.1,0.2
2025-04-18T1800,1114A,121.5213,38.8661,大连市,七贤岭,,29,22,48,11,22,91,,86,86,18,20,6,7,0.6,0.6
2025-04-18T1800,1115A,121.2529,38.8061,大连市,旅顺,,21,19,36,13,24,66,,77,76,32,18,7,7,0.5,0.5
2025-04-18T1800,1116A,121.7485,39.1311,大连市,金州,,43,43,37,16,22,36,,80,73,60,21,14,10,0.3,0.3
2025-04-18T1800,1117A,121.7811,39.0496,大连市,开发区,,26,26,49,12,21,70,,75,73,31,19,10,9,0.4,0.5
2025-04-18T1800,1118A,121.9762,39.0631,大连市,双D港,,31,18,33,11,21,98,,91,91,13,12,8,8,0.2,0.3
2025-04-18T1800,1789A,124.81117,46.03138,大庆市,大同区,,25,25,38,13,36,80,,85,79,8,8,4,4,0.4,0.5
2025-04-18T1800,1790A,125.129,46.533,大庆市,龙凤区,,33,33,41,14,24,76,,88,79,14,13,7,6,0.5,0.4
2025-04-18T1800,1791A,124.902,46.408,大庆市,红岗区,,27,15,32,11,23,86,,90,86,7,9,7,7,0.3,0.4
2025-04-18T1800,1792A,125.153,46.586,大庆市,萨尔图区,,23,20,37,7,25,72,,78,74,14,14,8,8,0.6,0.4
2025-04-18T1800,1793A,124.9042,46.6215,大庆市,让胡路区,,25,12,31,11,31,78,,80,78,9,9,5,5,0.3,0.3
2025-04-18T1800,3481A,125.141,46.634,大庆市,萨区政府监测点,,26,20,37,3,17,82,,85,81,6,8,5,5,0.3,0.4
2025-04-18T1800,1723A,113.2994,40.0758,大同市,云冈宾馆,,46,46,37,22,15,68,,79,65,24,17,8,8,0.6,0.5
2025-04-18T1800,1724A,113.3444,40.0917,大同市,大同大学,,24,19,25,16,17,76,,81,74,12,8,12,13,0.9,0.5
2025-04-18T1800,1725A,113.2661,40.1269,大同市,安家小村,,33,,27,23,18,67,,68,66,18,11,11,11,0.5,0.5
2025-04-18T1800,1726A,113.2711,40.0844,大同市,教育学院,,35,25,28,24,14,68,,76,64,19,14,8,8,0.5,0.4
2025-04-18T1800,3282A,113.3397,40.0597,大同市,大同市卫生学校,,26,18,24,18,13,70,,78,62,16,12,8,7,0.7,0.6
2025-04-18T1800,3565A,113.1367,40.1122,大同市,云冈站,,39,31,25,27,14,67,,69,63,24,14,10,11,0.5,0.5
2025-04-18T1800,3566A,113.1186,40.2556,大同市,图书馆,细颗粒物(PM2.5),53,,27,37,15,59,,58,58,24,12,9,10,1.0,0.8
2025-04-18T1800,3567A,113.5931,40.0461,大同市,区一中,,28,20,22,19,17,77,,77,74,16,10,11,10,0.6,0.5
2025-04-18T1800,4199A,113.2798,40.0997,大同市,魏都大道141号,,42,29,30,29,16,70,,77,68,20,15,12,12,0.9,0.7
2025-04-18T1800,2269A,124.1069,50.4097,大兴安岭地区,科技局,,25,18,19,17,18,75,,74,74,8,6,3,4,0.3,0.3
2025-04-18T1800,3663A,124.1164,50.4278,大兴安岭地区,红旗社区,,26,,7,6,7,82,,82,81,2,5,4,7,0.3,0.3
2025-04-18T1800,1600A,124.3303,40.0625,丹东市,江湾东路,,34,34,63,17,33,96,,110,110,24,16,9,9,0.5,0.4
2025-04-18T1800,1601A,124.4256,40.1503,丹东市,临江后街,,30,28,52,14,26,93,,103,103,25,13,6,6,0.5,0.5
2025-04-18T1800,1602A,124.3933,40.1461,丹东市,元宝山,,31,20,52,14,28,97,,100,100,9,10,7,7,0.4,0.4
2025-04-18T1800,1603A,124.3633,40.1092,丹东市,民主桥,,30,30,63,11,26,87,,106,105,36,17,9,8,0.6,0.6
2025-04-18T1800,3541A,109.5726,19.5167,儋州市,第一中学子站,,34,34,76,14,33,83,,102,102,6,8,4,5,0.5,0.6
2025-04-18T1800,3542A,109.5567,19.5187,儋州市,东坡学校子站,,34,34,80,16,34,79,,101,98,6,9,4,6,0.6,0.7
2025-04-18T1800,2616A,98.5842,24.428,德宏傣族景颇族自治州,德宏州监测站,,32,31,37,22,24,99,,100,100,9,17,7,7,0.5,0.5
2025-04-18T1800,3677A,98.5881,24.4368,德宏傣族景颇族自治州,芒市人民政府综合楼,颗粒物(PM10),53,56,48,19,24,107,,114,114,11,15,7,7,0.5,0.5
2025-04-18T1800,1901A,104.4239,31.1208,德阳市,东山公园,颗粒物(PM10),59,68,85,33,38,165,,177,177,8,14,5,8,0.4,0.6
2025-04-18T1800,1902A,104.3826,31.1317,德阳市,西小区,颗粒物(PM10),63,75,94,39,43,161,,179,179,11,22,6,7,0.6,0.8
2025-04-18T1800,1904A,104.3553,31.1091,德阳市,耐火材料厂,"颗粒物(PM10),臭氧1小时",59,68,102,32,51,167,,186,186,7,36,6,12,0.5,0.7
2025-04-18T1800,3639A,104.4019,31.1244,德阳市,市教育局,颗粒物(PM10),58,66,83,36,41,165,,184,184,11,38,6,7,0.4,0.6
2025-04-18T1800,1622A,116.3032,37.4674,德州市,儿童乐园,颗粒物(PM10),80,110,117,9,32,84,,104,86,20,20,6,9,0.4,0.6
2025-04-18T1800,1624A,116.2991,37.4451,德州市,监理站,颗粒物(PM10),69,88,102,3,28,82,,106,84,15,14,8,10,0.3,0.4
2025-04-18T1800,3066A,116.2721,37.4379,德州市,九衢泉纯净水厂,颗粒物(PM10),57,63,82,9,23,78,,81,81,22,18,5,8,0.6,0.6
2025-04-18T1800,3371A,116.3728,37.4403,德州市,开发区人民医院,颗粒物(PM10),64,78,100,7,28,73,,97,76,20,20,8,9,0.4,0.6
2025-04-18T1800,3372A,116.3572,37.4094,德州市,太阳城中学,颗粒物(PM10),68,85,98,17,32,82,,106,82,14,17,5,7,0.8,0.6
2025-04-18T1800,3511A,116.5652,37.3319,德州市,陵城艺术中心,颗粒物(PM10),60,70,97,9,31,80,,95,80,14,17,3,5,0.5,0.6
2025-04-18T1800,2621A,99.7056,27.8317,迪庆藏族自治州,迪庆州站,,32,29,27,10,16,102,,99,99,9,10,9,9,0.4,0.4
2025-04-18T1800,3180A,99.7136,27.8094,迪庆藏族自治州,质量技术监督局,,33,24,24,9,12,104,,103,103,10,10,9,9,0.4,0.4
2025-04-18T1800,4257A,104.6092,35.5962,定西市,将台街,颗粒物(PM10),310,428,424,119,108,96,,101,99,9,9,5,6,0.1,0.1
2025-04-18T1800,4309A,104.6159,35.5701,定西市,正龙路62号,颗粒物(PM10),348,458,462,108,102,102,,102,102,5,6,8,9,0.2,0.2
2025-04-18T1800,1389A,113.7547,23.0494,东莞市,莞城梨川,,48,48,77,25,25,39,,50,50,15,19,4,4,0.5,0.5
2025-04-18T1800,1390A,113.7944,23.0128,东莞市,东城石井,,44,44,70,19,24,41,,46,46,16,25,5,5,0.4,0.5
2025-04-18T1800,1391A,113.7383,22.9658,东莞市,南城西平,,48,48,58,22,18,41,,62,59,14,11,3,4,0.5,0.4
2025-04-18T1800,3319A,113.7338,23.0381,东莞市,万江金泰,颗粒物(PM10),54,58,72,31,23,37,,45,45,16,19,2,2,0.4,0.6
2025-04-18T1800,3626A,113.7533,23.0202,东莞市,南城元岭,,46,46,70,25,23,35,,47,47,14,17,5,6,0.8,0.7
2025-04-18T1800,3627A,113.7875,23.0457,东莞市,东城主山,颗粒物(PM10),51,51,74,20,23,37,,40,37,20,28,3,3,0.5,0.5
2025-04-18T1800,1666A,118.6614,37.4309,东营市,市环保局,,29,19,55,9,21,91,,99,95,22,21,4,5,0.3,0.4
2025-04-18T1800,3036A,118.6904,37.4338,东营市,开发区管委会,,,38,61,9,28,95,,104,98,,28,3,4,0.4,0.5
2025-04-18T1800,3365A,118.5719,37.565,东营市,垦利区民丰路,,31,31,58,9,26,87,,91,91,19,21,3,3,0.5,0.6
2025-04-18T1800,3498A,118.5055,37.8612,东营市,河口城区,,34,34,73,10,26,88,,93,93,20,19,5,6,1.0,1.1
2025-04-18T1800,3646A,118.4978,37.4623,东营市,胜利站,,,,68,,29,92,,97,97,19,19,8,9,,0.9
2025-04-18T1800,3734A,118.35,37.26,东营市,理想之城,,34,34,74,12,28,93,,96,96,20,19,5,6,0.4,0.5
2025-04-18T1800,1591A,110.0023,39.8129,鄂尔多斯市,综合楼,颗粒物(PM10),71,92,65,12,16,105,,88,88,10,20,2,6,0.2,0.3
2025-04-18T1800,1592A,109.9486,39.8261,鄂尔多斯市,巴音孟克林场办事处,颗粒物(PM10),62,73,59,9,18,103,,78,78,7,19,5,8,0.5,0.5
2025-04-18T1800,1593A,109.7736,39.5986,鄂尔多斯市,康泽苑,颗粒物(PM10),62,73,60,12,19,108,,87,87,6,14,1,2,0.3,0.4
2025-04-18T1800,1594A,109.8119,39.5989,鄂尔多斯市,华泰汽车城,颗粒物(PM10),60,70,58,12,18,99,,77,77,8,16,4,5,0.3,0.4
2025-04-18T1800,1595A,109.9734,39.7884,鄂尔多斯市,奥林花园,颗粒物(PM10),68,85,64,12,17,101,,81,81,18,20,8,7,0.4,0.5
2025-04-18T1800,2436A,114.8938,30.3994,鄂州市,市政府,颗粒物(PM10),71,91,88,32,37,175,,177,177,8,10,7,8,0.4,0.5
2025-04-18T1800,2437A,114.8989,30.3714,鄂州市,赵家坝,颗粒物(PM10),69,88,95,31,34,168,,170,170,10,11,5,5,0.7,0.7
2025-04-18T1800,3654A,114.8094,30.4089,鄂州市,精准医疗中心,颗粒物(PM10),65,80,94,36,50,169,,169,169,12,21,16,26,0.6,1.8
2025-04-18T1800,2454A,109.4978,30.2981,恩施土家族苗族自治州,湖北民院,颗粒物(PM10),64,78,78,40,43,136,,137,137,4,17,7,7,0.4,0.5
2025-04-18T1800,2455A,109.4707,30.2798,恩施土家族苗族自治州,州电力总公司,,,83,75,42,45,126,,121,121,,36,5,5,0.8,0.9
2025-04-18T1800,3549A,109.5061,30.3772,恩施土家族苗族自治州,龙凤新区,细颗粒物(PM2.5),74,68,62,54,37,130,,128,128,12,12,6,6,0.4,0.4
2025-04-18T1800,2499A,108.3411,21.6158,防城港市,沙万,颗粒物(PM10),58,66,110,33,39,64,,73,72,24,19,3,3,0.7,0.6
2025-04-18T1800,2500A,108.3514,21.7731,防城港市,防城档案局,颗粒物(PM10),59,68,111,39,40,95,,86,86,4,7,3,4,0.4,0.5
2025-04-18T1800,2501A,108.3506,21.6414,防城港市,大海花园,颗粒物(PM10),59,67,122,30,33,97,,92,92,6,13,2,4,0.5,0.5
2025-04-18T1800,1371A,113.1294,23.0067,佛山市,湾梁,,46,46,65,18,21,27,,37,34,38,28,7,7,0.7,0.6
2025-04-18T1800,1372A,113.1083,23.0478,佛山市,华材职中,,39,39,65,22,25,30,,42,38,34,27,6,6,0.6,0.5
2025-04-18T1800,1373A,113.144,23.0453,佛山市,南海气象局,颗粒物(PM10),53,56,90,25,26,22,,34,31,40,29,6,6,0.7,0.5
2025-04-18T1800,1374A,113.2881,22.8094,佛山市,顺德苏岗,颗粒物(PM10),56,61,73,22,19,25,,43,35,32,21,5,5,0.8,0.7
2025-04-18T1800,1376A,112.8383,22.8678,佛山市,高明孔堂,,36,36,65,20,24,46,,46,46,8,12,5,5,0.6,0.6
2025-04-18T1800,1377A,112.8836,23.1588,佛山市,三水监测站,,46,46,73,22,35,6,,31,28,58,40,4,4,0.6,0.5
2025-04-18T1800,1378A,112.867,23.185,佛山市,三水云东海,,46,46,73,32,31,4,,40,35,47,37,2,2,0.7,0.5
2025-04-18T1800,3625A,113.2544,22.7642,佛山市,容桂街道办,,39,39,55,24,22,22,,48,33,34,23,5,5,0.7,0.6
2025-04-18T1800,1282A,119.2681,26.0504,福州市,师大,颗粒物(PM10),65,79,71,25,31,126,,139,139,16,20,5,4,0.4,0.3
2025-04-18T1800,1283A,119.2984,26.1028,福州市,五四北路,颗粒物(PM10),59,67,64,32,31,130,,139,138,17,22,5,4,0.5,0.5
2025-04-18T1800,1284A,119.2648,26.0768,福州市,杨桥西路,颗粒物(PM10),68,85,72,24,31,129,,141,141,16,20,5,4,0.4,0.4
2025-04-18T1800,1285A,119.317,26.0746,福州市,紫阳,颗粒物(PM10),67,83,68,25,29,107,,123,123,34,23,6,6,0.4,0.4
2025-04-18T1800,3048A,119.5799,26.0936,福州市,九龙,颗粒物(PM10),57,64,60,26,29,109,,123,123,7,11,4,6,0.2,0.4
2025-04-18T1800,3526A,119.5189,25.9664,福州市,吴航,颗粒物(PM10),51,52,63,20,30,110,,124,124,9,15,5,7,0.4,0.6
2025-04-18T1800,1755A,123.7977,41.8491,抚顺市,望花区,,32,27,52,9,44,102,,107,107,19,20,7,8,0.4,0.5
2025-04-18T1800,1756A,123.9161,41.8822,抚顺市,顺城区,,34,17,53,6,27,106,,106,106,16,22,7,8,0.4,0.6
2025-04-18T1800,1757A,124.0436,41.8611,抚顺市,东洲区,,30,24,55,13,46,96,,99,99,21,20,5,6,0.6,0.6
2025-04-18T1800,1758A,123.9247,41.8642,抚顺市,新抚区,,29,24,47,13,36,92,,99,99,20,18,8,7,0.5,0.7
2025-04-18T1800,1759A,124.0972,41.8961,抚顺市,大伙房水库,,33,23,48,8,53,105,,106,106,10,14,8,9,0.4,0.7
2025-04-18T1800,1760A,123.7086,41.8391,抚顺市,沈抚新城,,,19,52,6,36,107,,103,103,,24,6,6,0.3,0.7
2025-04-18T1800,2376A,116.2127,28.0814,抚州市,桐源党溪,颗粒物(PM10),68,85,71,21,26,112,,114,114,3,4,5,10,0.6,0.6
2025-04-18T1800,2377A,116.3544,27.9831,抚州市,市站,,,76,78,26,26,108,,102,102,,12,,8,1.2,1.2
2025-04-18T1800,2378A,116.3565,27.963,抚州市,血防站,颗粒物(PM10),59,68,75,25,28,112,,106,106,4,10,9,7,1.2,1.2
2025-04-18T1800,2379A,116.3564,28.0007,抚州市,采茶剧团,颗粒物(PM10),61,71,80,22,24,111,,102,102,4,7,2,2,1.2,1.1
2025-04-18T1800,2380A,116.385,27.9647,抚州市,医学分院,颗粒物(PM10),60,70,74,26,23,103,,99,99,6,10,5,4,0.9,1
2025-04-18T1800,2207A,121.6094,41.998,阜新市,工业园区,,33,33,21,7,6,100,,99,99,11,13,15,9,0.4,0.5
2025-04-18T1800,2208A,121.6697,42.0279,阜新市,长青街,,30,21,17,9,8,96,,99,99,17,12,12,6,0.4,0.3
2025-04-18T1800,2209A,121.6673,42.0705,阜新市,农业园区,,30,18,8,3,7,93,,93,93,12,7,10,7,0.3,0.3
2025-04-18T1800,2210A,121.6717,42.0224,阜新市,东苑,,29,28,18,6,6,92,,97,97,19,12,15,10,0.4,0.3
2025-04-18T1800,2211A,121.6506,42.0498,阜新市,玉龙新城,,30,22,19,3,5,94,,98,98,16,15,10,8,0.4,0.4
2025-04-18T1800,2301A,115.8277,32.8929,阜阳市,市监测站,臭氧1小时,69,77,93,41,46,175,,166,166,13,15,8,9,0.5,0.5
2025-04-18T1800,2303A,115.8554,32.8605,阜阳市,开发区,颗粒物(PM10),78,106,112,30,37,178,,171,171,14,18,7,7,0.2,0.3
2025-04-18T1800,2875A,115.784,32.8892,阜阳市,阜阳职业技术学院,颗粒物(PM10),67,84,94,36,39,171,,162,162,9,12,6,7,0.3,0.4
2025-04-18T1800,3468A,115.7901,32.8613,阜阳市,市规划展馆,臭氧1小时,84,80,105,40,49,187,,174,174,8,11,8,8,0.4,0.6
2025-04-18T1800,3469A,115.836,32.9183,阜阳市,枣园社区,臭氧1小时,77,98,112,47,51,181,,171,171,10,20,10,10,0.4,0.5
2025-04-18T1800,2669A,102.9099,34.9841,甘南藏族自治州,州政府,颗粒物(PM10),74,98,153,28,44,110,,102,102,2,20,9,11,0.3,0.5
2025-04-18T1800,3380A,102.8914,34.9617,甘南藏族自治州,甘肃民族师范学院,颗粒物(PM10),82,114,207,27,59,118,,107,107,1,24,6,9,0.2,0.5
2025-04-18T1800,2570A,101.9603,30.0475,甘孜藏族自治州,水桥子,,36,18,31,14,10,113,,89,89,8,36,6,5,0.4,0.4
2025-04-18T1800,3065A,101.9533,29.9972,甘孜藏族自治州,州环保局,,32,29,26,14,8,102,,103,103,8,14,2,1,0.4,0.3
2025-04-18T1800,3414A,115.8347,28.932,赣江新区,桑海产业园,颗粒物(PM10),75,100,92,32,34,164,,150,150,14,34,9,10,0.4,0.4
2025-04-18T1800,2363A,114.9367,25.8664,赣州市,地委,颗粒物(PM10),51,51,63,18,23,82,,112,108,9,16,5,9,1.0,0.9
2025-04-18T1800,2364A,114.9461,25.8481,赣州市,气象台,颗粒物(PM10),53,56,67,20,23,80,,110,107,10,20,7,11,0.6,0.6
2025-04-18T1800,2365A,114.9322,25.8333,赣州市,市图书馆,颗粒物(PM10),54,58,69,22,24,64,,97,94,12,20,5,6,0.8,0.7
2025-04-18T1800,2366A,114.8905,25.8471,赣州市,华坚鞋城,颗粒物(PM10),54,57,73,15,25,82,,112,109,8,19,4,8,0.4,0.4
2025-04-18T1800,3109A,115.0093,25.8613,赣州市,赣县区卫计委,,49,49,65,21,26,70,,93,93,3,11,4,6,0.5,0.4
2025-04-18T1800,2683A,106.2319,36.1417,固原市,马园,颗粒物(PM10),134,218,363,75,96,88,,89,89,14,24,5,6,0.5,0.5
2025-04-18T1800,2684A,106.2792,36.0022,固原市,监测站,颗粒物(PM10),134,217,317,84,109,91,,88,88,6,14,5,5,0.3,0.3
2025-04-18T1800,2685A,106.2375,36.0211,固原市,新区,颗粒物(PM10),140,229,299,87,87,86,,85,85,8,13,5,5,0.3,0.4
2025-04-18T1800,3522A,106.2177,35.9959,固原市,原州区十五小,颗粒物(PM10),159,267,268,99,79,91,,90,90,6,9,9,9,0.3,0.3
2025-04-18T1800,2544A,106.6303,30.4576,广安市,市委,颗粒物(PM10),65,80,110,37,46,164,,158,158,8,24,14,11,0.5,0.6
2025-04-18T1800,2545A,106.6271,30.4663,广安市,友谊中学,颗粒物(PM10),66,81,94,43,43,168,,164,164,17,26,5,5,0.6,0.7
2025-04-18T1800,2547A,106.6388,30.4551,广安市,广电花园,颗粒物(PM10),63,76,108,40,47,145,,161,161,37,29,7,7,0.4,0.5
2025-04-18T1800,2902A,106.6351,30.4865,广安市,北辰小学,颗粒物(PM10),66,82,100,41,40,169,,160,160,9,19,8,8,0.3,0.3
2025-04-18T1800,2523A,105.8945,32.4535,广元市,黑石坡,颗粒物(PM10),85,119,94,32,30,142,,148,148,8,13,2,4,0.3,0.4
2025-04-18T1800,2524A,105.821,32.4444,广元市,老城,颗粒物(PM10),70,90,79,32,31,131,,151,151,17,29,3,2,0.6,0.8
2025-04-18T1800,2526A,105.8628,32.4287,广元市,监测站,颗粒物(PM10),63,76,62,31,30,152,,156,156,6,14,6,9,0.5,0.5
2025-04-18T1800,3617A,105.8047,32.4166,广元市,经开区,颗粒物(PM10),73,96,91,44,43,140,,165,162,15,33,4,11,0.5,0.6
2025-04-18T1800,1345A,113.2347,23.1423,广州市,广雅中学,,45,45,76,20,24,26,,38,37,33,29,2,3,0.8,0.7
2025-04-18T1800,1346A,113.2612,23.105,广州市,市五中,颗粒物(PM10),52,54,73,23,25,98,,95,95,38,26,1,2,0.8,0.7
2025-04-18T1800,1348A,113.3478,23.0916,广州市,广东商学院,颗粒物(PM10),54,57,70,31,25,14,,38,34,48,32,3,4,0.6,0.5
2025-04-18T1800,1349A,113.4332,23.1047,广州市,市八十六中,颗粒物(PM10),51,52,68,20,19,7,,36,20,56,44,4,4,0.6,0.5
2025-04-18T1800,1350A,113.3505,22.9483,广州市,番禺中学,颗粒物(PM10),52,54,67,22,23,23,,48,37,36,26,4,4,0.6,0.5
2025-04-18T1800,1351A,113.2146,23.3916,广州市,花都师范,颗粒物(PM10),58,65,89,31,31,10,,28,23,69,42,4,4,0.9,0.7
2025-04-18T1800,1352A,113.2597,23.1331,广州市,市监测站,,49,49,72,23,25,22,,36,35,42,31,4,4,0.7,0.6
2025-04-18T1800,1353A,113.5618,23.312,广州市,九龙镇镇龙,颗粒物(PM10),61,71,87,39,32,30,,45,45,46,35,4,6,0.6,0.5
2025-04-18T1800,1354A,113.2765,23.1544,广州市,麓湖,,44,44,68,20,22,25,,46,42,35,25,3,4,0.6,0.5
2025-04-18T1800,1355A,113.443,23.3035,广州市,帽峰山森林公园,,24,24,80,14,23,28,,36,36,30,32,6,8,0.7,0.5
2025-04-18T1800,2846A,113.3221,23.1322,广州市,体育西,颗粒物(PM10),53,56,77,24,27,14,,39,32,45,32,4,4,0.7,0.5
2025-04-18T1800,3298A,113.5717,23.5491,广州市,从化街口,颗粒物(PM10),69,87,97,38,32,41,,56,55,28,20,9,9,0.7,0.7
2025-04-18T1800,3299A,113.3472,23.3692,广州市,白云竹料,颗粒物(PM10),89,127,113,49,37,21,,31,31,58,39,3,4,0.8,0.7
2025-04-18T1800,3300A,113.2981,23.237,广州市,白云嘉禾,颗粒物(PM10),52,53,78,24,28,23,,42,36,42,35,4,4,0.9,0.7
2025-04-18T1800,3301A,113.4256,23.1716,广州市,黄埔科学城,,44,44,81,23,27,16,,38,35,45,38,6,7,0.3,0.2
2025-04-18T1800,3302A,113.3942,23.0483,广州市,番禺大学城,颗粒物(PM10),55,60,74,23,24,10,,45,36,48,31,8,9,0.6,0.5
2025-04-18T1800,3303A,113.4922,22.8168,广州市,南沙黄阁,颗粒物(PM10),54,57,70,29,25,31,,52,39,26,21,4,4,0.7,0.6
2025-04-18T1800,3304A,113.5342,22.7896,广州市,南沙街,颗粒物(PM10),57,64,74,30,24,30,,47,38,29,21,5,4,0.4,0.5
2025-04-18T1800,3443A,113.2902,23.5544,广州市,花都梯面,颗粒物(PM10),63,75,107,29,34,32,,38,38,38,31,4,5,0.8,0.7
2025-04-18T1800,3445A,113.7858,23.7478,广州市,从化良口,,34,34,55,22,22,49,,62,62,14,15,6,7,0.3,0.4
2025-04-18T1800,3446A,113.8051,23.2614,广州市,增城荔城,颗粒物(PM10),74,97,91,46,34,22,,49,47,30,24,7,7,0.4,0.3
2025-04-18T1800,2506A,109.6047,23.0666,贵港市,江南子站,颗粒物(PM10),59,68,107,39,49,115,,98,98,6,15,4,6,0.6,0.7
2025-04-18T1800,2508A,109.5669,23.1065,贵港市,荷城子站,颗粒物(PM10),62,73,119,29,38,100,,83,83,11,17,4,8,0.3,0.3
2025-04-18T1800,3405A,109.5886,23.1172,贵港市,新世纪学校,颗粒物(PM10),58,66,109,38,42,102,,86,86,16,21,5,7,0.7,0.8
2025-04-18T1800,4260A,109.5933,23.0951,贵港市,中山路155-3号,颗粒物(PM10),62,73,113,37,46,111,,94,94,9,18,6,11,0.5,0.5
2025-04-18T1800,1439A,106.6899,26.5998,贵阳市,马鞍山,,39,36,54,9,26,124,,120,120,10,12,6,5,0.4,0.5
2025-04-18T1800,1441A,106.6243,26.6266,贵阳市,鉴湖路,颗粒物(PM10),53,56,82,22,34,131,,118,118,10,14,11,12,0.4,0.5
2025-04-18T1800,1442A,106.7487,26.6343,贵阳市,燕子冲,,40,39,59,19,37,128,,123,123,13,14,3,3,0.2,0.4
2025-04-18T1800,1443A,106.6555,26.4365,贵阳市,碧云窝,,48,48,79,17,35,136,,127,127,7,11,7,8,0.4,0.5
2025-04-18T1800,1445A,106.7109,26.6027,贵阳市,红边门,,48,48,75,24,45,129,,123,123,24,27,4,5,0.3,0.5
2025-04-18T1800,1446A,106.7164,26.5699,贵阳市,新华路,颗粒物(PM10),51,51,79,27,41,119,,122,122,16,24,55,28,0.5,0.5
2025-04-18T1800,1447A,106.674,26.5424,贵阳市,太慈桥,,48,48,68,17,34,127,,117,117,16,27,6,6,0.2,0.3
2025-04-18T1800,4230A,106.6882,26.5695,贵阳市,花果园大街66号,,44,31,71,23,42,139,,131,131,12,20,6,8,0.3,0.5
2025-04-18T1800,4231A,106.6873,26.5169,贵阳市,漓江路57号,,41,41,70,19,39,129,,124,124,8,18,9,10,0.2,0.4
2025-04-18T1800,1864A,110.3089,25.2708,桂林市,龙隐路小学,"颗粒物(PM10),细颗粒物(PM2.5)",87,124,120,64,68,120,,92,92,12,21,9,9,0.8,0.8
2025-04-18T1800,1865A,110.2869,25.2178,桂林市,八中,颗粒物(PM10),93,135,125,62,59,100,,76,76,27,30,1,2,1.0,0.9
2025-04-18T1800,3531A,110.296,25.1253,桂林市,旅游学院,颗粒物(PM10),84,117,111,56,50,120,,94,94,25,21,3,3,0.8,0.7
2025-04-18T1800,4222A,110.1835,25.2444,桂林市,环湖路276号,颗粒物(PM10),84,117,126,56,55,90,,69,69,14,34,7,8,0.5,0.5
2025-04-18T1800,4301A,110.2803,25.2773,桂林市,信义路13号,颗粒物(PM10),91,132,125,63,59,115,,89,89,22,27,2,2,1.2,1.2
2025-04-18T1800,2674A,100.2561,34.4714,果洛藏族自治州,玛沁县大武镇,颗粒物(PM10),60,69,75,22,22,147,,147,147,2,2,10,11,0.3,0.3
2025-04-18T1800,1129A,126.5422,45.755,哈尔滨市,岭北,,28,9,101,8,100,87,,91,87,11,28,10,17,0.6,1
2025-04-18T1800,1130A,126.561,45.8167,哈尔滨市,松北商大,,24,14,103,8,97,74,,79,77,13,27,8,13,0.5,0.8
2025-04-18T1800,1131A,126.979,45.5419,哈尔滨市,阿城会宁,,47,47,170,16,122,77,,86,85,17,37,11,15,0.3,0.8
2025-04-18T1800,1132A,126.599,45.7222,哈尔滨市,南岗学府路,,25,20,142,6,92,79,,83,80,14,32,7,12,0.5,0.8
2025-04-18T1800,1133A,126.689,45.7733,哈尔滨市,太平宏伟公园,,27,18,120,14,108,86,,90,87,10,32,4,9,0.5,0.9
2025-04-18T1800,1134A,126.635,45.7667,哈尔滨市,道外承德广场,,24,15,104,14,102,75,,79,77,16,32,5,10,0.6,0.9
2025-04-18T1800,1135A,126.685,45.7319,哈尔滨市,香坊红旗大街,,32,,120,22,99,81,,87,83,14,33,6,13,0.5,0.8
2025-04-18T1800,1136A,126.6411,45.7258,哈尔滨市,动力和平路,,24,18,123,7,123,74,,79,75,15,30,5,14,0.3,0.7
2025-04-18T1800,1137A,126.593,45.7478,哈尔滨市,道里建国路,,23,,119,12,112,73,,83,77,18,33,6,15,0.5,0.8
2025-04-18T1800,1138A,126.615,45.61,哈尔滨市,平房东轻厂,,35,,154,24,141,66,,79,,16,36,8,14,0.4,0.9
2025-04-18T1800,1139A,126.595,45.9855,哈尔滨市,呼兰师专,,24,15,80,12,77,75,,75,73,8,21,6,9,0.4,0.7
2025-04-18T1800,1140A,126.6206,45.6842,哈尔滨市,省农科院,,33,33,159,14,121,72,,77,76,13,34,5,12,0.4,0.7
2025-04-18T1800,2688A,93.5128,42.8172,哈密市,地区监测站,颗粒物(PM10),59,68,32,12,10,111,,103,103,8,14,5,7,0.1,0.3
2025-04-18T1800,2689A,93.4961,42.8328,哈密市,哈密师范学校,颗粒物(PM10),53,56,31,10,8,112,,104,104,5,17,4,6,0,0.2
2025-04-18T1800,2671A,100.9048,36.9639,海北藏族自治州,海晏县西海镇,颗粒物(PM10),85,120,134,32,40,124,,122,122,1,4,7,9,0.3,0.4
2025-04-18T1800,3867A,102.0738,36.5056,海东市,平安区公安北苑,颗粒物(PM10),62,73,118,20,42,120,,117,117,11,12,6,12,0.2,0.2
2025-04-18T1800,1410A,110.3232,20.0574,海口市,海南大学,,22,22,74,11,29,70,,85,85,15,11,2,2,0.5,0.5
2025-04-18T1800,1411A,110.283,20.0053,海口市,秀英海南医院,,49,49,77,11,28,56,,85,84,24,17,4,4,0.4,0.4
2025-04-18T1800,1412A,110.338,19.9969,海口市,海南师范大学,,41,41,72,12,29,58,,99,94,21,8,3,3,0.5,0.5
2025-04-18T1800,1413A,110.33,20.0356,海口市,龙华路环保局宿舍,,50,50,74,12,29,66,,94,94,14,7,4,4,0.4,0.4
2025-04-18T1800,3539A,110.5111,19.9736,海口市,桂林洋子站,,18,18,65,10,27,56,,89,87,15,8,3,4,0.3,0.4
2025-04-18T1800,2673A,100.6188,36.2866,海南藏族自治州,共和县恰卜恰镇,颗粒物(PM10),71,91,127,45,47,141,,137,137,1,6,8,10,0.4,0.4
2025-04-18T1800,2676A,97.3731,37.3753,海西蒙古族藏族自治州,德令哈市,颗粒物(PM10),146,242,160,50,40,127,,128,128,1,3,12,14,0.5,0.4
2025-04-18T1800,1049A,114.4918,36.5713,邯郸市,矿院,颗粒物(PM10),67,83,155,22,62,59,,76,64,15,19,2,4,0.3,0.5
2025-04-18T1800,1050A,114.484,36.6133,邯郸市,丛台公园,颗粒物(PM10),73,95,172,25,58,68,,86,73,15,20,9,10,0.3,0.5
2025-04-18T1800,3458A,114.7895,36.5593,邯郸市,香泉濮院小区,颗粒物(PM10),75,99,215,20,50,64,,84,69,15,24,4,7,0.3,0.3
2025-04-18T1800,3579A,114.50634,36.77178,邯郸市,永年区实验高中,颗粒物(PM10),75,100,171,32,60,62,,84,67,16,21,4,6,0.3,0.5
2025-04-18T1800,3580A,114.20016,36.44293,邯郸市,峰峰矿区临水派出所,颗粒物(PM10),62,74,201,27,69,78,,100,86,11,13,3,6,0.5,0.8
2025-04-18T1800,2634A,106.9893,33.1842,汉中市,汉川机床厂子校,颗粒物(PM10),103,155,90,71,69,139,,150,150,5,11,6,9,1.3,1.4
2025-04-18T1800,2635A,107.0154,33.0706,汉中市,市监测站,颗粒物(PM10),118,185,105,46,39,126,,142,142,10,15,5,7,0.6,0.7
2025-04-18T1800,2636A,107.0089,33.1138,汉中市,鑫源开发区,颗粒物(PM10),116,181,102,47,42,132,,141,141,8,22,4,7,0.5,0.6
2025-04-18T1800,2637A,107.007,33.0323,汉中市,南郑大河坎水厂,颗粒物(PM10),92,133,97,51,49,131,,149,149,12,16,6,7,0.6,0.7
2025-04-18T1800,1223A,120.2072,30.2111,杭州市,滨江,颗粒物(PM10),60,70,69,32,36,167,,158,158,22,25,8,7,0.3,0.4
2025-04-18T1800,1224A,120.0633,30.2747,杭州市,西溪,臭氧1小时,59,52,54,26,28,167,,172,171,10,15,5,5,0.5,0.6
2025-04-18T1800,1226A,120.3417,30.3150,杭州市,下沙,臭氧1小时,68,82,87,37,41,174,,177,177,27,29,7,7,0.4,0.5
2025-04-18T1800,1227A,120.1269,30.2456,杭州市,卧龙桥,"细颗粒物(PM2.5),臭氧1小时",57,57,58,40,32,165,,158,158,17,19,6,6,0.4,0.5
2025-04-18T1800,1228A,120.1903,30.2692,杭州市,浙江农大,颗粒物(PM10),66,81,58,46,32,170,,166,166,30,24,3,2,0.4,0.4
2025-04-18T1800,1230A,120.1197,30.3119,杭州市,和睦小学,臭氧1小时,75,80,64,36,35,180,,168,168,21,18,7,6,0.5,0.6
2025-04-18T1800,1231A,120.3019,30.4183,杭州市,临平镇,颗粒物(PM10),82,114,77,42,37,170,,177,177,25,26,6,6,0.6,0.6
2025-04-18T1800,1232A,120.2753,30.1839,杭州市,城厢镇,颗粒物(PM10),67,83,73,33,36,172,,170,170,27,27,10,8,0.4,0.8
2025-04-18T1800,1233A,120.0883,30.1808,杭州市,云栖,颗粒物(PM10),55,60,62,26,30,160,,162,162,26,30,10,9,0.6,0.6
2025-04-18T1800,3557A,119.9464,30.0494,杭州市,镇二中,臭氧1小时,57,58,59,32,36,165,,159,159,21,22,1,1,0.4,0.6
2025-04-18T1800,3558A,119.7183,30.2367,杭州市,市府大楼,臭氧1小时,85,71,70,32,32,188,,170,170,18,17,7,7,0.4,0.4
2025-04-18T1800,3656A,120.1556,30.2864,杭州市,消防大队,臭氧1小时,83,78,68,41,34,186,,170,170,25,24,4,4,0.6,0.5
2025-04-18T1800,1270A,117.1959,31.7848,合肥市,明珠广场,臭氧1小时,82,85,81,36,40,185,,166,166,12,17,3,4,0.4,0.5
2025-04-18T1800,1271A,117.3072,31.8764,合肥市,三里街,颗粒物(PM10),69,88,84,31,35,170,,151,151,16,23,6,5,0.4,0.4
2025-04-18T1800,1272A,117.2588,31.8707,合肥市,琥珀山庄,臭氧1小时,78,85,83,41,43,182,,161,161,11,16,3,3,0.5,0.6
2025-04-18T1800,1273A,117.1604,31.9052,合肥市,董铺水库,臭氧1小时,77,85,86,34,38,181,,160,160,2,8,1,1,0.3,0.3
2025-04-18T1800,1274A,117.25,31.8571,合肥市,长江中路,臭氧1小时,74,88,84,38,39,179,,159,159,14,16,8,8,0.5,0.5
2025-04-18T1800,1275A,117.266,31.9436,合肥市,庐阳区,臭氧1小时,73,85,84,29,36,178,,159,159,11,16,7,7,0.4,0.4
2025-04-18T1800,1276A,117.3453,31.8616,合肥市,瑶海区,颗粒物(PM10),75,100,84,44,37,166,,149,149,16,20,7,7,0.6,0.5
2025-04-18T1800,1277A,117.3027,31.7964,合肥市,包河区,颗粒物(PM10),67,83,76,41,38,163,,147,147,12,12,7,6,0.5,0.4
2025-04-18T1800,1278A,117.2776,31.7385,合肥市,滨湖新区,臭氧1小时,73,83,79,41,40,178,,158,158,10,12,8,7,0.4,0.4
2025-04-18T1800,1279A,117.1318,31.8403,合肥市,高新区,臭氧1小时,73,83,83,36,39,178,,163,163,12,16,3,3,0.4,0.5
2025-04-18T1800,3464A,117.3803,31.9147,合肥市,高教基地,臭氧1小时,83,85,82,38,37,186,,168,168,10,12,6,5,0.3,0.3
2025-04-18T1800,3614A,79.924,37.0877,和田地区,地区环保局,"颗粒物(PM10),细颗粒物(PM2.5)",500,2730,1544,673,422,62,,53,53,7,15,1,1,0.4,0.3
2025-04-18T1800,3615A,79.9131,37.113,和田地区,市环保局,颗粒物(PM10),500,2490,1499,498,275,66,,62,59,8,9,3,2,0.4,0.4
2025-04-18T1800,2516A,108.2011,24.715,河池市,东仁乐园,,,,,,,,,,,,,,,,
2025-04-18T1800,2517A,108.0497,24.6947,河池市,市环保站,颗粒物(PM10),58,65,95,34,48,113,,100,100,4,7,5,8,0.5,0.6
2025-04-18T1800,2518A,108.0983,24.6989,河池市,市疾控中心,,49,49,92,31,49,115,,107,107,8,14,6,9,0.6,0.6
2025-04-18T1800,1696A,114.6778,23.7569,河源市,源西,颗粒物(PM10),72,93,65,26,20,64,,65,65,17,13,3,4,1.0,0.9
2025-04-18T1800,1697A,114.6944,23.7586,河源市,东埔,颗粒物(PM10),58,65,72,32,26,55,,68,67,26,16,4,4,0.9,0.6
2025-04-18T1800,1698A,114.6892,23.7233,河源市,老城,细颗粒物(PM2.5),64,75,68,46,24,59,,69,68,21,16,4,4,0.6,0.5
2025-04-18T1800,1718A,115.4208,35.2464,菏泽市,气象局,颗粒物(PM10),131,212,188,30,62,86,,131,128,17,17,5,7,0.4,0.5
2025-04-18T1800,3374A,115.5564,35.0891,菏泽市,定陶老年大学,颗粒物(PM10),92,134,156,39,55,104,,146,144,18,21,11,7,0.6,0.7
2025-04-18T1800,4184A,115.4797,35.24401,菏泽市,永昌路1号,颗粒物(PM10),97,143,177,42,66,81,,121,118,16,20,10,9,0.3,0.4
2025-04-18T1800,4193A,115.4715,35.2800,菏泽市,长城路999号,颗粒物(PM10),92,134,173,29,61,83,,123,120,20,24,10,9,0.3,0.5
2025-04-18T1800,2514A,111.5264,24.4172,贺州市,环保小区,颗粒物(PM10),63,75,103,34,48,91,,84,84,14,18,6,15,0.8,0.6
2025-04-18T1800,2515A,111.5608,24.4078,贺州市,政协大楼,,,,85,29,38,97,,89,89,14,19,9,18,0.9,0.8
2025-04-18T1800,3534A,111.4744,24.4553,贺州市,西湾,颗粒物(PM10),54,57,103,34,47,93,,92,92,17,19,8,10,0.7,0.6
2025-04-18T1800,2385A,114.17,35.9019,鹤壁市,市监测站,颗粒物(PM10),79,107,177,35,67,79,,105,93,17,24,5,10,0.5,0.6
2025-04-18T1800,2386A,114.2956,35.7511,鹤壁市,市交警支队,颗粒物(PM10),67,83,174,27,54,78,,106,95,17,27,3,10,0.6,0.9
2025-04-18T1800,2387A,114.2878,35.7306,鹤壁市,迎宾馆,颗粒物(PM10),69,87,191,24,40,79,,105,96,14,28,7,8,0.5,0.6
2025-04-18T1800,3474A,114.2617,35.6822,鹤壁市,大新区,颗粒物(PM10),71,92,189,49,75,77,,108,96,12,27,8,9,0.7,0.9
2025-04-18T1800,3596A,114.1572,35.9603,鹤壁市,南山宾馆,颗粒物(PM10),66,82,188,42,78,80,,107,93,15,23,4,7,0.7,0.9
2025-04-18T1800,2244A,130.2537,47.3416,鹤岗市,哈啤分公司,,48,46,59,33,43,59,,54,49,10,15,14,16,0.4,0.5
2025-04-18T1800,2245A,130.2684,47.3086,鹤岗市,斯达机电,,48,48,69,33,56,64,,55,52,12,19,12,13,0.4,0.3
2025-04-18T1800,2246A,130.3114,47.3388,鹤岗市,东山纸板厂,颗粒物(PM10),53,55,65,34,46,57,,57,47,14,15,13,14,0.6,0.4
2025-04-18T1800,2263A,127.4833,50.2524,黑河市,交通局,细颗粒物(PM2.5),55,40,41,39,25,62,,76,76,17,13,7,7,0.6,0.5
2025-04-18T1800,2264A,127.5144,50.2341,黑河市,环保局,细颗粒物(PM2.5),55,,45,39,33,66,,79,79,23,19,4,4,0.5,0.4
2025-04-18T1800,1074A,115.6838,37.7541,衡水市,电机北厂,,42,42,100,14,38,64,,106,80,17,19,3,6,0.1,0.3
2025-04-18T1800,1075A,115.6303,37.7316,衡水市,市监测站,,39,39,88,18,33,66,,105,80,16,18,7,9,0.2,0.4
2025-04-18T1800,3188A,115.6683,37.7217,衡水市,市城管局,,44,44,96,30,40,67,,103,82,15,19,2,7,0.2,0.4
2025-04-18T1800,3459A,115.5989,37.5491,衡水市,地表水厂,,,61,109,16,32,76,,100,80,14,19,,9,0.2,0.4
2025-04-18T1800,2456A,112.5003,26.9167,衡阳市,原169医院,颗粒物(PM10),54,58,91,37,40,107,,133,133,13,19,6,7,0.5,0.6
2025-04-18T1800,2457A,112.6194,26.9258,衡阳市,衡阳化工总厂,颗粒物(PM10),64,77,94,37,38,116,,129,129,7,10,7,7,0.5,0.4
2025-04-18T1800,2458A,112.6211,26.8956,衡阳市,珠晖区环保局,,,84,90,36,34,117,,127,127,,10,7,8,0.7,0.7
2025-04-18T1800,2459A,112.6197,26.8733,衡阳市,市委党校,颗粒物(PM10),67,84,91,39,38,117,,125,125,7,11,4,6,0.6,0.5
2025-04-18T1800,2460A,112.6006,26.8919,衡阳市,市监测站,颗粒物(PM10),59,68,91,33,39,113,,124,124,10,13,9,9,0.7,0.7
2025-04-18T1800,2461A,112.5664,26.9056,衡阳市,真空机电公司,颗粒物(PM10),68,85,103,40,38,109,,124,124,8,10,5,5,0.8,0.8
2025-04-18T1800,3399A,112.6703,26.882,衡阳市,师范学院,颗粒物(PM10),70,90,98,44,42,121,,131,130,8,14,6,10,0.7,0.6
2025-04-18T1800,2608A,103.3772,23.3993,红河哈尼族彝族自治州,污水处理厂,,38,31,33,26,25,120,,120,120,5,6,5,5,0.2,0.3
2025-04-18T1800,2609A,103.3861,23.35,红河哈尼族彝族自治州,监测站,,41,41,43,27,24,122,,122,122,4,5,6,7,0.2,0.2
2025-04-18T1800,3038A,103.3758,23.368,红河哈尼族彝族自治州,州图书馆,,38,23,28,21,22,121,,124,124,4,5,5,6,0.2,0.2
2025-04-18T1800,1090A,111.6507,40.7517,呼和浩特市,呼市一监,,30,22,21,21,13,72,,86,61,12,9,8,8,0.5,0.5
2025-04-18T1800,1091A,111.6572,40.8033,呼和浩特市,小召,细颗粒物(PM2.5),57,,24,40,18,56,,62,58,28,19,8,6,0.6,0.5
2025-04-18T1800,1094A,111.7516,40.8369,呼和浩特市,如意水处理厂,颗粒物(PM10),54,57,26,36,13,50,,77,59,31,16,7,7,0.7,0.5
2025-04-18T1800,1095A,111.7276,40.8062,呼和浩特市,二十九中,细颗粒物(PM2.5),59,,22,42,14,59,,83,64,23,11,3,4,0.7,0.5
2025-04-18T1800,1096A,111.5512,40.7866,呼和浩特市,工大金川校区,,36,31,19,25,11,62,,73,55,21,20,6,6,0.5,0.5
2025-04-18T1800,1097A,111.717,40.7612,呼和浩特市,化肥厂生活区,,39,35,26,27,15,62,,84,62,24,13,8,7,0.6,0.5
2025-04-18T1800,3698A,111.5968,40.8178,呼和浩特市,红旗小学,,29,29,16,20,11,57,,72,53,28,20,5,4,0.6,0.5
2025-04-18T1800,3699A,111.6518,40.8389,呼和浩特市,海东办,,49,,14,34,12,51,,76,62,26,10,9,6,0.7,0.6
2025-04-18T1800,2192A,119.7594,49.2261,呼伦贝尔市,区环保局,,25,25,25,15,20,70,,81,80,14,7,6,6,0.4,0.3
2025-04-18T1800,3061A,119.7512,49.1577,呼伦贝尔市,国华电力东,,24,23,26,9,15,74,,83,82,10,4,3,3,0.3,0.2
2025-04-18T1800,1250A,120.0751,30.8669,湖州市,城西水厂,臭氧1小时,109,89,73,51,38,217,,186,186,21,31,8,8,0.5,0.4
2025-04-18T1800,2873A,120.0830,30.8929,湖州市,仁皇山新区,臭氧1小时,108,94,73,51,38,215,,182,182,21,29,6,5,0.7,0.7
2025-04-18T1800,2907A,120.1844,30.8596,湖州市,吴兴区站,臭氧1小时,106,81,78,43,41,212,,194,194,18,28,7,7,0.4,0.5
2025-04-18T1800,3562A,120.4148,30.8538,湖州市,南浔区站,臭氧1小时,98,82,91,40,43,198,,176,176,20,33,4,4,0.5,0.5
2025-04-18T1800,1607A,120.9049,40.7211,葫芦岛市,龙港区,,30,14,31,9,13,93,,93,93,15,22,11,17,0.4,0.5
2025-04-18T1800,1608A,120.8392,40.7514,葫芦岛市,化工街,,28,22,27,9,12,89,,92,92,22,23,9,13,0.4,0.4
2025-04-18T1800,1609A,120.8341,40.7073,葫芦岛市,新区,,29,15,25,9,11,91,,92,92,22,21,10,13,0.5,0.6
2025-04-18T1800,1610A,120.8695,40.7677,葫芦岛市,东城区,,28,16,26,12,11,89,,92,92,26,23,6,12,0.6,0.5
2025-04-18T1800,2482A,109.5981,27.5721,怀化市,林科所,颗粒物(PM10),58,65,96,18,38,80,,90,88,7,11,9,13,0.4,0.6
2025-04-18T1800,2483A,109.9453,27.5444,怀化市,河西地税局,颗粒物(PM10),51,51,80,26,43,84,,90,90,6,15,8,11,0.4,0.5
2025-04-18T1800,2484A,109.9781,27.5342,怀化市,市四医院,颗粒物(PM10),60,70,95,35,46,87,,100,99,13,15,6,8,0.6,0.6
2025-04-18T1800,2485A,109.9972,27.5578,怀化市,监测楼,颗粒物(PM10),57,63,92,34,42,94,,103,102,7,13,8,9,0.6,0.6
2025-04-18T1800,2486A,110.0394,27.583,怀化市,市委党校,,49,49,82,31,47,82,,94,94,5,16,3,5,0.6,0.7
2025-04-18T1800,1210A,119.036,33.5981,淮安市,钵池山,细颗粒物(PM2.5),92,105,98,68,51,141,,147,147,14,18,8,10,0.6,0.6
2025-04-18T1800,1211A,119.007,33.575,淮安市,北京南路,细颗粒物(PM2.5),100,107,102,75,54,147,,153,153,14,23,8,10,0.7,0.7
2025-04-18T1800,1212A,118.989,33.6067,淮安市,市监测站,颗粒物(PM10),86,122,104,58,51,136,,144,144,14,16,9,11,0.9,1.1
2025-04-18T1800,1213A,119.135,33.5039,淮安市,楚州区监测站,细颗粒物(PM2.5),104,117,106,78,50,134,,138,138,11,19,8,9,0.8,0.7
2025-04-18T1800,3426A,118.8755,33.2894,淮安市,新华书店,细颗粒物(PM2.5),97,105,92,72,48,152,,165,165,14,16,10,12,0.6,0.3
2025-04-18T1800,4206A,119.0288,33.6319,淮安市,承德北路606号,细颗粒物(PM2.5),95,134,114,71,51,127,,139,139,15,18,9,12,0.6,1
2025-04-18T1800,2282A,116.8004,33.975,淮北市,监测站,,,130,118,64,54,171,,174,174,16,23,7,10,,0.7
2025-04-18T1800,2283A,116.8091,33.9007,淮北市,烈山区政府,颗粒物(PM10),98,146,127,55,48,175,,173,173,11,26,6,10,0.9,0.9
2025-04-18T1800,3330A,116.8873,33.9836,淮北市,杜集区检察院,颗粒物(PM10),90,130,126,64,64,173,,174,174,16,24,7,9,1.0,1
2025-04-18T1800,4017A,116.7923,33.9535,淮北市,市博物馆,颗粒物(PM10),83,115,124,53,40,178,,178,178,14,24,7,10,0.9,0.9
2025-04-18T1800,2277A,116.8305,32.7727,淮南市,潘集区政府,颗粒物(PM10),75,99,97,42,44,159,,163,163,11,14,6,6,0.4,0.5
2025-04-18T1800,2279A,116.8569,32.5951,淮南市,谢家集区政府,颗粒物(PM10),72,93,92,41,44,171,,163,163,17,22,5,6,0.4,0.5
2025-04-18T1800,2280A,116.8281,32.633,淮南市,八公山区政府,颗粒物(PM10),81,111,106,39,44,177,,166,166,7,11,7,6,0.4,0.4
2025-04-18T1800,2894A,117.0566,32.6531,淮南市,经济技术开发区消防队,臭氧1小时,70,82,90,46,46,176,,163,163,13,21,7,7,0.4,0.4
2025-04-18T1800,3329A,117.0108,32.5893,淮南市,山南新区,臭氧1小时,82,104,114,39,52,185,,172,172,7,12,8,8,0.6,0.7
2025-04-18T1800,4209A,117.0031,32.6445,淮南市,国庆中路369号,臭氧1小时,79,90,95,41,50,183,,170,170,14,14,9,10,0.2,0.3
2025-04-18T1800,2446A,114.9028,30.4742,黄冈市,职工中心,细颗粒物(PM2.5),63,70,74,45,40,167,,170,170,12,15,10,12,0.7,0.7
2025-04-18T1800,2929A,114.8858,30.4519,黄冈市,红卫路,颗粒物(PM10),64,77,83,34,40,165,,172,172,8,10,8,11,0.7,0.6
2025-04-18T1800,3398A,114.9136,30.4445,黄冈市,市林业局,颗粒物(PM10),64,77,82,33,38,164,,171,171,6,12,9,13,0.6,0.6
2025-04-18T1800,2672A,102.0199,35.5102,黄南藏族自治州,同仁县隆务镇,颗粒物(PM10),76,102,120,26,36,125,,130,130,1,4,6,7,0.0,0.2
2025-04-18T1800,2295A,118.2903,29.6963,黄山市,延安路89号,"颗粒物(PM10),细颗粒物(PM2.5)",57,63,62,40,42,132,,120,120,1,10,5,5,0.3,0.4
2025-04-18T1800,2297A,118.1371,30.2756,黄山市,黄山区政府5号楼,颗粒物(PM10),63,76,56,26,27,120,,130,130,4,4,4,4,0.5,0.5
2025-04-18T1800,4210A,118.3354,29.7203,黄山市,滨江东路7-2号,颗粒物(PM10),64,78,57,28,24,132,,127,127,6,13,5,4,0.4,0.5
2025-04-18T1800,2423A,115.0601,30.2313,黄石市,沈家营,颗粒物(PM10),78,106,100,34,37,154,,157,157,24,26,10,14,0.9,1.2
2025-04-18T1800,2426A,114.8988,30.2019,黄石市,铁山,颗粒物(PM10),70,90,95,36,41,168,,162,162,11,16,10,10,0.5,0.4
2025-04-18T1800,2427A,115.0307,30.2092,黄石市,团城山,颗粒物(PM10),65,79,85,26,32,165,,162,162,10,18,8,12,0.5,0.7
2025-04-18T1800,3149A,115.0235,30.1578,黄石市,笔架山北路,臭氧1小时,67,65,72,26,29,173,,173,173,5,9,8,9,0.7,0.8
2025-04-18T1800,4185A,115.0780,30.21118,黄石市,磁湖东路29号,颗粒物(PM10),70,89,96,39,42,170,,170,170,18,19,7,12,0.6,0.9
2025-04-18T1800,1392A,114.4183,23.0528,惠州市,河南岸金山湖子站,,36,36,64,19,22,46,,56,55,16,15,8,8,0.5,0.5
2025-04-18T1800,1393A,114.4053,23.0822,惠州市,下埔横江三路子站,,36,36,71,14,23,50,,63,61,15,14,8,9,0.7,0.6
2025-04-18T1800,1394A,114.4103,23.1142,惠州市,江北云山西路子站,,38,38,68,15,23,50,,62,60,19,16,9,10,0.5,0.4
2025-04-18T1800,1395A,114.4645,22.7833,惠州市,惠阳区承修路船湖子站,,37,37,69,18,23,49,,55,54,16,16,7,8,0.5,0.5
2025-04-18T1800,1396A,114.5317,22.7422,惠州市,大亚湾管委会子站,颗粒物(PM10),51,52,76,21,22,53,,61,56,19,15,6,6,0.7,0.7
2025-04-18T1800,3314A,114.4338,22.8134,惠州市,惠阳秋长,,24,24,57,15,22,47,,63,57,20,16,11,11,0.5,0.5
2025-04-18T1800,3452A,114.6517,22.775,惠州市,大亚湾霞涌,,44,44,55,17,17,64,,61,61,12,14,7,7,0.4,0.4
2025-04-18T1800,2240A,130.9762,45.3001,鸡西市,环保局,细颗粒物(PM2.5),59,,39,42,28,91,,75,75,12,15,5,6,0.6,0.5
2025-04-18T1800,2243A,130.9429,45.3039,鸡西市,第一中学,,45,34,37,31,25,94,,79,79,7,14,5,7,0.5,0.5
2025-04-18T1800,3707A,131.0207,45.3073,鸡西市,欧美日汽修厂,细颗粒物(PM2.5),58,41,49,41,34,85,,72,72,16,14,4,6,0.5,0.5
2025-04-18T1800,3709A,130.9967,45.3106,鸡西市,市政设施管理处,,46,43,46,32,29,75,,67,67,23,17,6,7,0.6,0.5
2025-04-18T1800,2367A,114.9754,27.0803,吉安市,红声器材厂,颗粒物(PM10),67,84,84,33,27,129,,133,133,8,18,10,11,0.5,0.4
2025-04-18T1800,2368A,114.9658,27.0999,吉安市,市森林工业局,颗粒物(PM10),61,72,77,29,30,121,,129,129,9,18,10,11,0.3,0.4
2025-04-18T1800,2369A,114.99,27.1312,吉安市,市环境监测站,颗粒物(PM10),63,75,75,24,28,135,,137,137,6,14,11,17,0.6,0.5
2025-04-18T1800,2370A,115.0093,27.0968,吉安市,青原区法院,颗粒物(PM10),62,74,78,30,28,135,,138,138,6,19,14,14,0.4,0.4
2025-04-18T1800,1772A,126.54,43.8622,吉林市,哈达湾,,,11,62,6,42,95,,98,98,9,13,6,8,,0.5
2025-04-18T1800,1773A,126.5844,43.8358,吉林市,东局子,,29,27,57,6,43,92,,95,95,12,16,5,8,0.4,0.6
2025-04-18T1800,1774A,126.5052,43.8245,吉林市,电力学院,,30,8,57,3,47,93,,96,96,8,12,4,5,0.3,0.5
2025-04-18T1800,1775A,126.6133,43.8972,吉林市,江北,,29,16,73,3,51,91,,96,96,13,15,5,6,0.4,0.6
2025-04-18T1800,1776A,126.555,43.8306,吉林市,江南公园,,30,11,56,3,43,93,,95,95,8,12,5,6,0.3,0.5
2025-04-18T1800,2868A,126.4739,43.953,吉林市,九站,,29,13,60,8,48,91,,95,95,9,11,6,7,0.5,0.6
2025-04-18T1800,1299A,116.9862,36.6114,济南市,科干所,颗粒物(PM10),64,78,115,24,33,78,,106,96,42,28,10,8,0.1,0.2
2025-04-18T1800,1300A,116.9376,36.665,济南市,农科所,颗粒物(PM10),70,90,145,22,33,79,,100,93,38,34,12,10,0.5,0.5
2025-04-18T1800,1301A,117.1265,36.6734,济南市,开发区,颗粒物(PM10),69,88,132,32,40,82,,106,97,37,32,14,11,0.8,0.7
2025-04-18T1800,1303A,117.0624,36.6868,济南市,省种子仓库,颗粒物(PM10),85,119,174,27,39,88,,106,99,30,35,10,8,0.9,0.9
2025-04-18T1800,1304A,116.9489,36.6447,济南市,机床二厂,颗粒物(PM10),69,88,210,20,45,78,,94,92,40,50,14,12,0.5,0.6
2025-04-18T1800,1305A,117.0495,36.663,济南市,市监测站,颗粒物(PM10),78,105,145,24,40,77,,100,88,41,37,13,11,0.6,0.6
2025-04-18T1800,1306A,116.7675,36.5484,济南市,长清党校,颗粒物(PM10),70,90,153,24,45,87,,118,108,37,37,10,7,0.6,0.6
2025-04-18T1800,1616A,117.6795,36.229,济南市,技术学院,颗粒物(PM10),89,127,131,34,44,147,,147,147,21,33,13,13,1.1,0.9
2025-04-18T1800,1961A,117.532,36.6868,济南市,东山小学,颗粒物(PM10),72,93,134,34,38,88,,104,103,35,30,11,12,0.4,0.4
2025-04-18T1800,3059A,117.7161,36.2049,济南市,泰兴公司,颗粒物(PM10),82,114,122,34,45,150,,151,151,21,29,10,11,0.9,0.8
2025-04-18T1800,3064A,117.6867,36.2171,济南市,莱芜战役纪念馆,,47,39,102,29,37,149,,149,149,22,27,9,8,1.0,0.8
2025-04-18T1800,3494A,117.1673,36.9782,济南市,济阳区政府,颗粒物(PM10),58,66,100,15,32,95,,108,96,14,15,7,12,0.3,0.5
2025-04-18T1800,3495A,117.1171,36.63,济南市,锦屏中学,颗粒物(PM10),64,78,111,17,35,92,,110,107,34,27,9,6,0.3,0.3
2025-04-18T1800,3682A,116.9814,36.6819,济南市,济南四建,颗粒物(PM10),73,95,154,24,41,84,,101,94,34,37,10,8,0.5,0.6
2025-04-18T1800,1653A,116.6251,35.4302,济宁市,火炬城,,,,169,,70,152,,172,172,13,14,,11,0.7,0.7
2025-04-18T1800,1655A,116.5491,35.4042,济宁市,电化厂,颗粒物(PM10),73,96,134,39,63,148,,160,160,12,23,1,6,0.5,0.7
2025-04-18T1800,3500A,116.5814,35.3707,济宁市,北湖一中,颗粒物(PM10),75,100,156,31,49,154,,168,168,16,27,6,9,0.5,0.6
2025-04-18T1800,3501A,116.8249,35.5593,济宁市,服务中心,颗粒物(PM10),76,101,163,39,54,160,,170,170,13,37,2,4,0.6,0.7
2025-04-18T1800,3678A,116.5907,35.4054,济宁市,市第七中学,颗粒物(PM10),79,108,160,36,56,156,,171,171,3,15,5,8,0.5,0.7
2025-04-18T1800,2255A,130.2751,46.8028,佳木斯市,佳纺,细颗粒物(PM2.5),70,,88,51,79,61,,46,46,23,29,8,8,0.7,0.7
2025-04-18T1800,2256A,130.3995,46.8307,佳木斯市,发电厂,细颗粒物(PM2.5),68,,77,49,77,69,,54,54,19,26,4,7,0.4,0.7
2025-04-18T1800,2257A,130.3258,46.7975,佳木斯市,环保局,,,,95,53,83,,,40,40,36,40,4,5,0.7,0.7
2025-04-18T1800,2258A,130.3648,46.8032,佳木斯市,十一中,细颗粒物(PM2.5),68,,75,49,77,69,,46,46,26,29,7,8,0.8,0.7
2025-04-18T1800,2259A,130.3794,46.7588,佳木斯市,四丰,,43,43,98,29,69,76,,46,46,6,31,1,1,1.1,1.3
2025-04-18T1800,1252A,120.7436,30.778,嘉兴市,清河小学,颗粒物(PM10),68,85,80,32,33,168,,160,160,30,27,9,6,1.0,1
2025-04-18T1800,1253A,120.726,30.7478,嘉兴市,嘉兴学院,臭氧1小时,68,75,78,32,38,174,,174,174,19,31,8,7,0.6,0.5
2025-04-18T1800,2872A,120.7846,30.7525,嘉兴市,南湖区残联,臭氧1小时,80,77,71,34,46,184,,178,178,26,22,10,7,0.7,0.6
2025-04-18T1800,3407A,120.6916,30.7739,嘉兴市,秀洲住建,臭氧1小时,99,80,93,34,35,199,,190,190,18,30,9,7,0.7,0.7
2025-04-18T1800,1945A,98.2908,39.7711,嘉峪关市,气象局,颗粒物(PM10),64,78,134,14,32,133,,120,120,6,6,2,4,0.1,0.2
2025-04-18T1800,2884A,98.2672,39.7978,嘉峪关市,酒钢宾馆,颗粒物(PM10),68,85,151,27,36,127,,115,115,7,7,10,16,0.3,0.3
2025-04-18T1800,3248A,98.2643,39.7724,嘉峪关市,雄关区,颗粒物(PM10),58,65,116,16,32,129,,117,117,9,11,4,6,0.4,0.4
2025-04-18T1800,1383A,113.1064,22.6058,江门市,北街,,42,42,56,16,21,35,,55,40,10,10,2,2,0.5,0.5
2025-04-18T1800,1384A,113.0731,22.5835,江门市,西区,,40,40,61,17,24,38,,56,43,19,16,7,7,0.6,0.5
2025-04-18T1800,1385A,113.0219,22.5311,江门市,圭峰西,,38,38,58,17,23,43,,50,47,15,14,4,4,0.5,0.5
2025-04-18T1800,1386A,113.0828,22.5947,江门市,东湖,,38,38,61,21,22,42,,56,45,16,14,7,7,0.5,0.5
2025-04-18T1800,3311A,113.1075,22.5647,江门市,江海富民,,42,42,70,22,21,36,,54,40,15,13,6,7,0.4,0.4
2025-04-18T1800,3449A,113.05,22.4667,江门市,新会银湖,,47,47,54,20,25,44,,45,45,11,14,3,3,0.3,0.4
2025-04-18T1800,3169A,113.2725,35.2067,焦作市,太极体育中心,颗粒物(PM10),90,130,213,41,76,117,,153,153,8,15,6,12,0.4,0.5
2025-04-18T1800,3335A,113.3137,35.2641,焦作市,马村街道办,颗粒物(PM10),77,103,192,37,76,95,,130,130,11,14,8,11,0.4,0.4
2025-04-18T1800,3336A,113.2465,35.2373,焦作市,焦作技师学院,,,,221,,62,114,,146,146,,19,9,11,,1
2025-04-18T1800,3477A,113.1656,35.2539,焦作市,中站许衡医院,颗粒物(PM10),79,107,178,57,58,127,,156,156,14,14,11,12,0.9,0.9
2025-04-18T1800,3981A,113.2449,35.1803,焦作市,原李万街道办,颗粒物(PM10),65,79,197,41,75,117,,149,149,15,21,12,17,0.4,0.4
2025-04-18T1800,4264A,113.2340,35.2190,焦作市,新安路1731号,颗粒物(PM10),85,120,212,44,73,118,,149,149,10,15,17,13,1.0,0.9
2025-04-18T1800,1708A,116.3701,23.5345,揭阳市,新兴,颗粒物(PM10),70,90,73,30,29,55,,84,83,14,14,5,6,0.7,0.7
2025-04-18T1800,1709A,116.3264,23.5443,揭阳市,西马,颗粒物(PM10),80,109,80,30,28,58,,78,78,10,11,7,8,0.7,0.6
2025-04-18T1800,1710A,116.3611,23.5626,揭阳市,东兴,颗粒物(PM10),76,102,76,36,24,61,,86,86,9,10,5,6,0.8,0.7
2025-04-18T1800,1711A,116.4151,23.5294,揭阳市,渔湖,颗粒物(PM10),69,87,76,33,26,58,,94,90,11,14,4,6,0.6,0.6
2025-04-18T1800,3320A,116.403,23.5699,揭阳市,曲溪,颗粒物(PM10),64,77,71,33,26,62,,95,95,14,15,14,12,0.6,0.5
2025-04-18T1800,1944A,102.1692,38.5167,金昌市,天庆家园,颗粒物(PM10),53,56,246,19,65,119,,114,114,8,5,30,14,0.9,0.7
2025-04-18T1800,4022A,102.1647,38.5371,金昌市,金川区人防中心,颗粒物(PM10),61,71,435,20,74,129,,120,120,9,6,16,12,0.5,0.4
2025-04-18T1800,4239A,102.1930,38.5319,金昌市,长春路96号,颗粒物(PM10),60,70,327,18,71,123,,114,114,4,3,11,15,0.7,0.6
2025-04-18T1800,1262A,119.647,29.077,金华市,十五中,颗粒物(PM10),59,68,65,24,34,124,,128,128,27,27,7,3,0.5,0.5
2025-04-18T1800,1263A,119.686,29.1029,金华市,监测站,颗粒物(PM10),55,60,65,24,37,151,,130,130,19,28,5,4,0.3,0.5
2025-04-18T1800,3659A,119.656,29.1131,金华市,气象局,颗粒物(PM10),60,70,70,22,36,145,,128,128,19,34,2,2,0.3,0.5
2025-04-18T1800,1767A,121.1115,41.0879,锦州市,南山,,26,18,18,18,10,76,,95,94,36,14,10,12,0.5,0.5
2025-04-18T1800,1768A,121.0604,40.8428,锦州市,开发区,颗粒物(PM10),64,77,35,15,16,46,,88,83,67,26,9,15,0.5,0.6
2025-04-18T1800,1769A,121.1836,41.1119,锦州市,百股街道,,28,20,22,14,7,88,,92,92,24,19,4,3,0.5,0.5
2025-04-18T1800,1770A,121.1178,41.1222,锦州市,天安街道,,32,32,17,11,18,79,,85,85,23,13,10,11,0.5,0.5
2025-04-18T1800,1771A,121.1303,41.1386,锦州市,北湖公园,,28,22,15,10,9,88,,94,94,22,12,9,9,0.5,0.5
2025-04-18T1800,2160A,112.85,35.5051,晋城市,自来水公司,颗粒物(PM10),101,152,170,48,52,153,,166,166,19,26,12,11,0.9,0.7
2025-04-18T1800,2161A,112.8318,35.4936,晋城市,白云商贸,颗粒物(PM10),105,159,167,51,66,149,,164,164,21,27,7,8,0.9,0.7
2025-04-18T1800,2162A,112.8508,35.4887,晋城市,市环保局,颗粒物(PM10),107,164,176,51,54,138,,150,150,17,30,10,8,0.8,0.7
2025-04-18T1800,2163A,112.8676,35.4897,晋城市,技术学院,,,149,175,,73,152,,160,160,22,34,9,8,1.0,0.8
2025-04-18T1800,3620A,112.8271,35.4828,晋城市,泽州一中,颗粒物(PM10),101,152,169,56,59,154,,169,167,18,21,11,10,0.9,0.7
2025-04-18T1800,2173A,112.7249,37.7067,晋中市,南都小区,,,,180,,51,,,111,98,,15,,6,,0.4
2025-04-18T1800,2174A,112.6991,37.6982,晋中市,榆次区政府,,29,29,105,18,38,79,,111,94,21,18,5,6,0.4,0.4
2025-04-18T1800,2865A,112.7195,37.6828,晋中市,榆次三中,,27,27,226,17,52,82,,114,100,19,14,2,6,0.6,0.7
2025-04-18T1800,4200A,112.7478,37.6954,晋中市,迎宾街26号,,29,29,191,19,40,72,,103,89,19,14,2,5,0.3,0.4
2025-04-18T1800,2439A,112.2014,31.0481,荆门市,竹园小学,颗粒物(PM10),83,115,118,45,58,166,,168,168,10,20,8,11,0.5,0.3
2025-04-18T1800,2440A,112.1969,30.9891,荆门市,掇刀,臭氧1小时,97,106,113,42,55,197,,193,193,7,16,11,15,0.4,0.4
2025-04-18T1800,2441A,112.2213,31.0386,荆门市,石化一小,,,104,112,46,60,166,,168,168,13,28,,14,0.3,0.6
2025-04-18T1800,3012A,112.1849,31.0362,荆门市,西山林语,颗粒物(PM10),78,106,99,29,43,160,,163,163,5,10,11,10,0.2,0.3
2025-04-18T1800,3547A,112.1632,31.0138,荆门市,龙泉中学南校,颗粒物(PM10),83,116,105,44,46,159,,161,161,10,13,12,11,0.8,0.7
2025-04-18T1800,1844A,112.2494,30.3197,荆州市,市图书馆,颗粒物(PM10),79,108,94,45,48,152,,156,156,25,17,6,9,0.5,0.6
2025-04-18T1800,1845A,112.2008,30.3544,荆州市,市委党校,颗粒物(PM10),77,103,101,47,48,152,,146,146,14,15,8,9,0.5,0.6
2025-04-18T1800,3194A,112.2747,30.3122,荆州市,管委会,颗粒物(PM10),72,94,90,48,50,159,,155,155,12,14,8,12,0.6,0.7
2025-04-18T1800,4268A,112.1722,30.3366,荆州市,学苑路85号,颗粒物(PM10),66,81,84,43,48,154,,156,156,14,21,7,7,0.5,0.5
2025-04-18T1800,2343A,117.2117,29.2933,景德镇市,老干部活动中心,颗粒物(PM10),58,66,69,23,26,131,,126,126,10,21,8,9,0.4,0.5
2025-04-18T1800,2344A,117.1894,29.2789,景德镇市,兽医站,颗粒物(PM10),63,76,73,19,25,131,,123,123,8,18,4,4,0.4,0.4
2025-04-18T1800,2345A,117.1547,29.2617,景德镇市,台达陶瓷,颗粒物(PM10),62,74,72,25,30,134,,126,126,10,24,6,36,0.4,0.6
2025-04-18T1800,2346A,117.2461,29.2956,景德镇市,陶研所,颗粒物(PM10),58,65,62,26,30,132,,128,128,7,16,4,6,0.4,0.5
2025-04-18T1800,1803A,115.9872,29.6815,九江市,十里,颗粒物(PM10),67,83,80,33,39,139,,146,146,3,19,3,4,0.5,0.6
2025-04-18T1800,1804A,115.9584,29.7046,九江市,茅山头,,,87,87,24,32,135,,140,140,7,24,5,7,,0.2
2025-04-18T1800,1805A,115.9877,29.7295,九江市,西园,颗粒物(PM10),59,68,81,27,32,139,,143,143,14,33,7,10,0.8,0.8
2025-04-18T1800,1808A,115.9114,29.6038,九江市,综合工业园,颗粒物(PM10),77,104,90,30,33,147,,132,132,10,32,9,9,0.9,0.7
2025-04-18T1800,1809A,116.0721,29.7535,九江市,石化总厂,颗粒物(PM10),71,92,88,40,32,131,,126,126,14,16,10,10,0.7,0.7
2025-04-18T1800,1810A,115.9773,29.5698,九江市,庐山气象台,颗粒物(PM10),60,70,66,31,33,149,,142,138,8,7,7,7,0.5,0.8
2025-04-18T1800,3190A,116.0254,29.6994,九江市,外国语学校,颗粒物(PM10),64,78,71,20,31,132,,120,120,8,15,4,6,0.7,0.7
2025-04-18T1800,4253A,116.0102,29.6594,九江市,莲花大道8号,颗粒物(PM10),69,87,86,35,48,139,,126,126,2,10,6,5,0.5,0.6
2025-04-18T1800,4240A,98.4958,39.7339,酒泉市,玉门东路5号,颗粒物(PM10),69,88,151,25,39,127,,117,117,6,6,13,14,0.2,0.2
2025-04-18T1800,4241A,98.5099,39.7506,酒泉市,北大街108号,颗粒物(PM10),63,75,131,24,31,146,,133,133,6,7,16,14,0.5,0.3
2025-04-18T1800,2698A,76.0072,39.4467,喀什地区,巡警大队,颗粒物(PM10),55,59,386,9,61,88,,83,83,9,29,4,4,0.4,0.5
2025-04-18T1800,2699A,75.9755,39.4694,喀什地区,吾办,颗粒物(PM10),54,57,323,17,96,90,,83,83,10,32,4,3,0.5,0.6
2025-04-18T1800,4027A,75.9483,39.4689,喀什地区,老干局,颗粒物(PM10),53,56,321,13,70,94,,86,86,7,26,3,2,0.2,0.5
2025-04-18T1800,1824A,114.3389,34.7781,开封市,肿瘤医院,颗粒物(PM10),80,110,161,29,50,94,,125,125,9,17,8,9,0.4,0.6
2025-04-18T1800,1826A,114.2885,34.7965,开封市,世纪星幼儿园,颗粒物(PM10),81,112,164,14,57,98,,138,138,17,22,4,6,0.5,0.7
2025-04-18T1800,3147A,114.3438,34.8106,开封市,龙亭公园,颗粒物(PM10),299,419,202,27,67,91,,124,124,12,17,3,4,0.7,0.8
2025-04-18T1800,3210A,114.3644,34.7964,开封市,汴京公园,颗粒物(PM10),82,114,221,25,63,90,,122,122,11,19,3,5,0.8,0.9
2025-04-18T1800,3592A,114.4644,34.7556,开封市,祥符区生态环境局,颗粒物(PM10),102,153,184,31,64,88,,116,116,17,28,8,8,0.4,0.6
2025-04-18T1800,1951A,84.895,45.6094,克拉玛依市,长征新村,,31,21,16,7,9,98,,86,86,8,13,9,8,0.2,0.2
2025-04-18T1800,1952A,84.8988,45.5893,克拉玛依市,南林小区,,34,16,16,10,9,108,,92,92,1,10,2,2,0.3,0.4
2025-04-18T1800,1954A,84.905,44.3396,克拉玛依市,独山子区,,,,14,,8,107,,101,101,4,10,,7,0.2,0.3
2025-04-18T1800,1955A,85.6979,46.098,克拉玛依市,乌尔禾区商贸楼,,31,23,15,19,7,98,,92,92,2,9,6,6,0.2,0.3
2025-04-18T1800,3612A,85.1045,45.6899,克拉玛依市,白碱滩区新站,颗粒物(PM10),54,57,21,14,5,103,,80,80,4,14,12,10,0.3,0.3
2025-04-18T1800,2697A,76.1454,39.7142,克孜勒苏柯尔克孜自治州,市人民政府,颗粒物(PM10),69,88,382,21,85,98,,99,99,4,16,5,5,0.3,0.3
2025-04-18T1800,3665A,76.1658,39.7157,克孜勒苏柯尔克孜自治州,克州文化中心,,43,37,360,30,87,101,,100,98,2,12,8,8,0.3,0.3
2025-04-18T1800,1450A,102.8204,24.8886,昆明市,呈贡新区,,37,33,31,20,22,118,,134,133,14,17,4,4,0.4,0.5
2025-04-18T1800,1452A,102.7252,25.0902,昆明市,龙泉镇,,39,19,24,12,12,123,,129,129,9,33,8,8,0.3,0.4
2025-04-18T1800,1453A,102.7266,25.0375,昆明市,东风东路,,40,26,23,15,15,126,,136,136,15,16,8,10,0.4,0.4
2025-04-18T1800,1454A,102.6742,25.0669,昆明市,金鼎山,,42,29,26,15,18,132,,142,141,14,19,6,8,0.3,0.4
2025-04-18T1800,1455A,102.6644,25.0401,昆明市,碧鸡广场,,40,25,26,7,14,126,,132,132,11,20,8,9,0.4,0.3
2025-04-18T1800,3179A,102.7494,25.0119,昆明市,官渡区博物馆,,41,32,22,14,12,129,,137,137,10,12,7,7,0.3,0.4
2025-04-18T1800,3375A,102.8017,24.8336,昆明市,青年创业园,,41,23,27,19,15,129,,137,137,6,14,7,8,0.3,0.4
2025-04-18T1800,3550A,102.7997,24.9786,昆明市,昆明学院,,41,25,23,10,13,130,,141,141,10,11,5,5,0.2,0.3
2025-04-18T1800,3551A,102.5967,24.6736,昆明市,晋宁区生态环境分局,,40,14,15,9,11,127,,128,128,4,6,6,7,0.6,0.6
2025-04-18T1800,3552A,102.6678,24.9856,昆明市,云天化总部,,40,15,17,3,11,126,,132,132,9,10,7,8,0.2,0.3
2025-04-18T1800,1456A,91.1319,29.6514,拉萨市,八廓街,,,22,23,9,12,150,,134,134,4,16,6,6,,0.5
2025-04-18T1800,1457A,91.1221,29.6747,拉萨市,市环保局,,45,24,30,11,14,141,,124,124,12,21,4,4,0.4,0.4
2025-04-18T1800,1458A,91.0874,29.6475,拉萨市,区监测站,,45,18,25,9,13,143,,128,128,8,30,5,6,0.6,0.7
2025-04-18T1800,1459A,91.1774,29.6541,拉萨市,西藏大学,,44,20,21,3,10,140,,129,129,7,13,6,6,0.1,0.3
2025-04-18T1800,1460A,90.9798,29.6588,拉萨市,区辐射站,,42,32,25,11,12,133,,125,125,13,22,8,9,0.4,0.4
2025-04-18T1800,1461A,91.0834,29.6292,拉萨市,拉萨火车站,,44,20,19,8,10,138,,127,127,5,16,4,3,0.4,0.4
2025-04-18T1800,2520A,109.2203,23.7256,来宾市,来宾技工学校,颗粒物(PM10),65,79,92,39,48,115,,101,101,12,11,4,5,0.7,0.7
2025-04-18T1800,3535A,109.1781,23.7297,来宾市,兴宾区政府,颗粒物(PM10),60,69,88,34,41,124,,102,102,4,12,5,7,0.7,0.7
2025-04-18T1800,4002A,109.2416,23.7461,来宾市,中南小学,颗粒物(PM10),65,80,91,36,41,101,,89,89,10,13,7,8,0.7,0.7
2025-04-18T1800,1479A,103.831,36.0464,兰州市,铁路设计院,,,,318,,90,92,,97,94,26,43,11,10,0.6,0.6
2025-04-18T1800,3241A,103.7439,36.0842,兰州市,百合公园,颗粒物(PM10),145,240,298,69,83,96,,93,93,6,34,7,6,0.4,0.7
2025-04-18T1800,3242A,103.9611,35.998,兰州市,和平,颗粒物(PM10),199,347,410,111,128,92,,94,93,11,20,13,11,0.8,0.5
2025-04-18T1800,4236A,103.6293,36.0938,兰州市,庄浪东路808号,颗粒物(PM10),156,262,339,92,103,97,,99,97,19,31,14,12,0.3,0.4
2025-04-18T1800,4237A,103.7251,36.1043,兰州市,安宁西路88号,颗粒物(PM10),161,271,351,89,96,104,,106,102,13,27,7,7,0.3,0.4
2025-04-18T1800,4238A,103.8470,36.0676,兰州市,北滨河东路1号,颗粒物(PM10),165,279,341,79,101,106,,103,103,13,35,13,11,0.8,0.7
2025-04-18T1800,3245A,103.6633,36.533,兰州新区,新区管委会,颗粒物(PM10),95,139,275,63,91,117,,110,110,6,6,20,12,0.4,0.3
2025-04-18T1800,3246A,103.6975,36.4789,兰州新区,舟曲中学,颗粒物(PM10),123,196,358,57,91,120,,114,114,8,10,11,13,0.3,0.2
2025-04-18T1800,1067A,116.6708,39.5111,廊坊市,药材公司,,20,20,74,13,44,57,,100,56,18,20,1,5,0.4,0.8
2025-04-18T1800,1068A,116.7214,39.5589,廊坊市,开发区,,19,18,79,13,39,53,,72,50,20,25,3,4,0.3,0.7
2025-04-18T1800,1070A,116.7244,39.5269,廊坊市,北华航天学院,,30,30,93,8,45,57,,89,48,14,20,2,6,0.4,0.7
2025-04-18T1800,2919A,116.7022,39.5453,廊坊市,河北工业大学,,27,27,83,13,44,56,,99,55,15,18,3,8,0.3,0.7
2025-04-18T1800,2535A,103.7723,29.5462,乐山市,花湖湾,臭氧1小时,119,67,80,36,44,238,,202,202,8,19,7,8,0.5,0.7
2025-04-18T1800,2536A,103.7627,29.5844,乐山市,牛耳桥,臭氧1小时,113,78,81,36,42,225,,195,195,15,31,8,9,0.6,0.7
2025-04-18T1800,2537A,103.7508,29.6006,乐山市,市第三水厂,臭氧1小时,110,75,81,33,43,219,,189,189,12,32,6,6,0.4,0.6
2025-04-18T1800,2538A,103.7571,29.5664,乐山市,市监测站,臭氧1小时,111,71,79,42,43,221,,190,190,,24,8,9,0.6,0.8
2025-04-18T1800,3361A,103.7311,29.5628,乐山市,理工大学,臭氧1小时,114,66,75,33,43,228,,199,199,10,24,6,7,0.6,0.6
2025-04-18T1800,2599A,100.2497,26.8802,丽江市,丽江古城,,33,14,24,10,16,104,,103,103,10,11,9,9,0.3,0.4
2025-04-18T1800,2600A,100.2203,26.8906,丽江市,市中心,,,30,18,3,12,98,,98,98,,9,5,5,0.1,0.2
2025-04-18T1800,1267A,119.914,28.4514,丽水市,监测站大楼,颗粒物(PM10),63,76,60,28,33,152,,120,120,15,24,5,4,0.6,0.5
2025-04-18T1800,1268A,119.93,28.4586,丽水市,莲都小学,颗粒物(PM10),63,76,61,26,29,133,,118,118,18,21,4,3,0.5,0.4
2025-04-18T1800,1269A,119.879,28.4231,丽水市,余庄前,,48,42,53,20,30,151,,141,141,11,15,4,3,0.5,0.5
2025-04-18T1800,1173A,119.176,34.5885,连云港市,市环境监测站,细颗粒物(PM2.5),79,88,111,58,49,131,,144,141,14,17,6,6,0.5,0.5
2025-04-18T1800,3000A,119.3581,34.6972,连云港市,德源药业,细颗粒物(PM2.5),73,73,115,53,46,116,,139,133,23,33,9,9,0.6,0.6
2025-04-18T1800,3007A,119.178,34.844,连云港市,新城一中,颗粒物(PM10),75,99,121,47,56,123,,127,127,16,37,7,9,0.6,0.7
2025-04-18T1800,3008A,119.3608,34.7519,连云港市,胡沟管理处,细颗粒物(PM2.5),64,68,81,46,42,126,,124,124,19,32,10,12,0.6,0.6
2025-04-18T1800,3009A,119.1478,34.5911,连云港市,矿山设计院,细颗粒物(PM2.5),77,97,116,56,45,126,,141,138,18,19,8,10,0.6,0.6
2025-04-18T1800,3434A,119.2413,34.6539,连云港市,工贸学校,细颗粒物(PM2.5),92,113,109,68,53,125,,150,147,22,17,8,9,0.8,0.8
2025-04-18T1800,3664A,119.4172,34.7341,连云港市,连云街道,细颗粒物(PM2.5),83,111,121,61,53,121,,135,131,24,23,7,8,0.6,0.6
2025-04-18T1800,2571A,102.3431,27.8099,凉山彝族自治州,青龙寺,,40,19,21,16,9,125,,130,130,3,9,8,11,0.5,0.6
2025-04-18T1800,2572A,102.2721,27.8415,凉山彝族自治州,邛海宾馆,,43,39,26,17,12,137,,127,127,8,15,17,12,0.5,0.7
2025-04-18T1800,2573A,102.2625,27.898,凉山彝族自治州,西昌市政府,,40,30,21,24,18,126,,126,126,11,10,16,13,0.8,0.7
2025-04-18T1800,2574A,102.2685,27.8851,凉山彝族自治州,凉山州政府,,40,34,27,19,17,126,,125,125,11,13,15,10,0.7,0.6
2025-04-18T1800,4229A,102.2342,27.8859,凉山彝族自治州,凯乐南路30号,,38,38,33,18,15,117,,112,112,11,21,14,14,0.9,0.9
2025-04-18T1800,2212A,123.2,41.1953,辽阳市,宏伟区,,29,28,33,19,35,91,,101,101,20,13,19,13,0.6,0.7
2025-04-18T1800,2213A,123.1683,41.2495,辽阳市,新华园,,36,26,37,25,34,107,,108,108,17,18,8,8,0.7,0.8
2025-04-18T1800,2214A,123.2354,41.2639,辽阳市,滨河路,,27,25,32,15,33,86,,92,92,22,17,6,7,0.5,0.7
2025-04-18T1800,2215A,123.149,41.2991,辽阳市,铁西工业园,,30,25,39,17,32,95,,98,98,18,17,10,10,0.2,0.3
2025-04-18T1800,2227A,125.1358,42.8845,辽源市,环保局,,33,30,41,15,24,104,,102,102,11,14,5,6,0.4,0.5
2025-04-18T1800,3239A,125.0764,42.9078,辽源市,银鹰制药,,35,12,32,11,27,110,,108,108,12,11,5,5,0.3,0.4
2025-04-18T1800,1625A,115.9848,36.4372,聊城市,区政府,颗粒物(PM10),65,80,173,16,45,83,,104,93,16,30,10,13,0.5,0.9
2025-04-18T1800,2878A,116.0072,36.4343,聊城市,聊大东校,颗粒物(PM10),76,102,192,18,60,82,,102,92,16,32,8,11,0.3,0.6
2025-04-18T1800,3200A,115.9819,36.4978,聊城市,监控中心,颗粒物(PM10),60,70,169,14,48,80,,100,90,18,32,7,10,0.3,0.6
2025-04-18T1800,3513A,116.0445,36.4361,聊城市,九州社区,颗粒物(PM10),53,56,135,9,38,89,,109,99,10,27,6,9,0.3,0.5
2025-04-18T1800,4018A,116.0567,36.4608,聊城市,星美广场,颗粒物(PM10),65,80,149,12,35,80,,102,92,18,32,10,11,0.5,0.7
2025-04-18T1800,2632A,94.3681,29.6376,林芝市,林芝监测站,,35,17,15,7,10,109,,102,102,6,7,5,5,0.5,0.5
2025-04-18T1800,2633A,94.3616,29.6616,林芝市,林芝人民医院,,33,26,21,9,12,105,,94,94,4,4,5,5,0.4,0.3
2025-04-18T1800,2603A,100.0781,23.8982,临沧市,市环保局,,,28,28,25,24,117,,117,117,,13,8,7,0.4,0.6
2025-04-18T1800,2604A,100.0894,23.8822,临沧市,市气象局,,39,20,24,15,17,122,,125,125,7,11,7,7,0.4,0.5
2025-04-18T1800,1734A,111.5028,36.0714,临汾市,技工学校,细颗粒物(PM2.5),59,42,157,42,59,87,,111,111,17,30,6,9,0.8,0.9
2025-04-18T1800,1736A,111.5018,36.0855,临汾市,市委,颗粒物(PM10),55,59,200,36,51,93,,116,116,14,28,4,11,0.8,0.7
2025-04-18T1800,3018A,111.505,36.1014,临汾市,唐尧大酒店,颗粒物(PM10),64,77,189,33,50,86,,109,109,17,31,12,14,0.8,0.7
2025-04-18T1800,4244A,111.4879,36.0530,临汾市,启星学校,细颗粒物(PM2.5),58,62,193,41,52,82,,113,112,16,31,7,11,0.7,0.7
2025-04-18T1800,4271A,103.2464,35.6123,临夏回族自治州,滨河东路1号,颗粒物(PM10),359,467,388,128,113,98,,93,93,6,23,8,9,0.2,0.4
2025-04-18T1800,4310A,103.2093,35.5995,临夏回族自治州,新华街21号,颗粒物(PM10),298,418,386,137,121,103,,94,94,,20,2,3,0.3,0.4
2025-04-18T1800,1618A,118.3429,35.0532,临沂市,沂河小区,细颗粒物(PM2.5),79,102,137,58,74,131,,140,140,14,29,10,11,0.8,0.9
2025-04-18T1800,1619A,118.295,35.0583,临沂市,鲁南制药厂,颗粒物(PM10),78,105,140,39,63,138,,161,136,14,29,11,13,0.5,0.8
2025-04-18T1800,1620A,118.2794,34.9976,临沂市,新光毛纺厂,颗粒物(PM10),70,90,128,44,60,138,,143,143,17,31,7,11,0.4,0.6
2025-04-18T1800,1621A,118.3956,35.0888,临沂市,河东保险公司,,,97,130,43,57,130,,143,143,19,32,,6,,0.5
2025-04-18T1800,3370A,118.3564,35.0215,临沂市,十里堡居委,颗粒物(PM10),74,97,131,39,53,132,,144,144,17,30,3,7,0.5,0.7
2025-04-18T1800,3496A,118.3604,35.1084,临沂市,南坊新区,颗粒物(PM10),86,122,154,44,55,132,,145,145,15,25,12,10,1.2,0.9
2025-04-18T1800,3860A,118.3920,35.0300,临沂市,皇山花园小区,颗粒物(PM10),76,102,143,44,59,133,,142,142,13,34,8,11,0.8,1
2025-04-18T1800,1870A,109.4856,24.3895,柳州市,柳东小学,颗粒物(PM10),55,60,103,35,49,125,,103,103,12,25,9,16,0.6,0.6
2025-04-18T1800,1871A,109.4157,24.3277,柳州市,环保监测站,颗粒物(PM10),62,73,112,37,50,116,,93,93,9,14,9,12,0.9,0.9
2025-04-18T1800,1872A,109.389,24.341,柳州市,河西水厂,颗粒物(PM10),58,65,123,32,43,115,,93,93,9,25,6,9,0.8,0.8
2025-04-18T1800,1873A,109.4311,24.2921,柳州市,市四中,颗粒物(PM10),66,82,120,36,45,102,,84,84,10,23,8,10,0.7,0.7
2025-04-18T1800,1874A,109.4006,24.3631,柳州市,市九中,颗粒物(PM10),65,79,116,31,46,115,,94,94,9,19,10,11,0.8,0.7
2025-04-18T1800,1875A,109.4958,24.3134,柳州市,古亭山,颗粒物(PM10),65,80,106,39,44,114,,91,91,6,17,6,10,0.6,0.6
2025-04-18T1800,3402A,109.5422,24.3996,柳州市,市二中,颗粒物(PM10),58,65,114,33,50,111,,90,90,8,29,11,25,0.5,0.5
2025-04-18T1800,2308A,116.4738,31.7643,六安市,皖西学院,,,,80,,37,151,,160,160,6,6,5,6,0.5,0.6
2025-04-18T1800,2309A,116.4996,31.7905,六安市,朝阳厂,颗粒物(PM10),64,77,75,32,35,142,,144,144,12,18,5,5,0.3,0.4
2025-04-18T1800,2310A,116.5567,31.7886,六安市,开发区,颗粒物(PM10),71,92,96,38,43,152,,156,156,11,17,5,6,0.4,0.5
2025-04-18T1800,2577A,104.83,26.5917,六盘水市,黄土坡,,45,20,38,6,24,142,,140,140,7,22,8,9,0.2,0.3
2025-04-18T1800,2578A,104.89,26.5939,六盘水市,水钢,,48,31,49,3,19,152,,144,144,8,9,10,10,0.3,0.4
2025-04-18T1800,2579A,104.8475,26.5894,六盘水市,民中,,45,22,45,7,24,143,,139,139,8,26,7,10,0.3,0.6
2025-04-18T1800,2580A,104.9544,26.5506,六盘水市,双水,颗粒物(PM10),53,56,47,7,17,152,,145,145,12,11,10,10,0.2,0.2
2025-04-18T1800,2336A,117.0217,25.1033,龙岩市,龙岩市监测站,,43,43,57,28,25,87,,110,108,17,21,4,12,0.5,0.5
2025-04-18T1800,2337A,117.0258,25.0661,龙岩市,闽西职业技术学院,,49,49,59,21,24,82,,96,95,10,18,5,20,0.5,0.4
2025-04-18T1800,2338A,117.0196,25.0306,龙岩市,龙岩学院,,47,47,49,25,25,85,,105,103,10,10,4,6,0.5,0.4
2025-04-18T1800,2885A,104.9339,33.3826,陇南市,滨江中学,颗粒物(PM10),305,424,147,126,46,76,,120,98,16,8,8,9,0.5,0.5
2025-04-18T1800,3247A,104.955,33.371,陇南市,市总工会,颗粒物(PM10),398,498,151,178,52,84,,133,100,14,9,6,9,0.5,0.5
2025-04-18T1800,2487A,111.9589,27.8901,娄底市,电视发射台,颗粒物(PM10),113,175,113,33,41,42,,125,119,6,10,1,6,0.3,0.6
2025-04-18T1800,2488A,111.9975,27.725,娄底市,市监测站,颗粒物(PM10),72,93,101,51,54,120,,125,125,18,31,12,14,0.5,0.6
2025-04-18T1800,2489A,112.0194,27.7314,娄底市,市委党校,颗粒物(PM10),73,95,102,43,46,118,,123,123,9,13,4,4,0.5,0.5
2025-04-18T1800,2490A,111.9561,27.7569,娄底市,涟钢,颗粒物(PM10),78,105,108,40,50,115,,115,115,15,20,23,23,1.1,0.9
2025-04-18T1800,2491A,111.9892,27.7044,娄底市,市政府,颗粒物(PM10),67,84,93,40,44,113,,122,122,8,12,4,6,0.4,0.5
2025-04-18T1800,1894A,105.4427,28.9063,泸州市,小市上码头,颗粒物(PM10),58,65,106,32,43,139,,128,128,17,22,7,9,0.5,0.6
2025-04-18T1800,1895A,105.4241,28.8573,泸州市,兰田宪桥,臭氧1小时,87,69,88,38,50,189,,186,186,14,19,11,11,0.5,0.7
2025-04-18T1800,4272A,105.3689,28.7783,泸州市,纳溪中医医院,"颗粒物(PM10),臭氧1小时",63,76,95,26,37,170,,170,170,14,23,9,9,0.6,0.8
2025-04-18T1800,2183A,111.1406,37.5211,吕梁市,环保局,细颗粒物(PM2.5),92,,160,68,57,69,,85,73,24,39,10,10,0.5,0.3
2025-04-18T1800,2185A,111.1297,37.5136,吕梁市,自来水公司,细颗粒物(PM2.5),63,57,182,45,57,67,,84,72,24,37,8,10,0.8,0.6
2025-04-18T1800,2867A,111.1283,37.51,吕梁市,马茂庄小学,细颗粒物(PM2.5),72,53,180,52,57,56,,71,71,36,52,5,8,0.7,0.5
2025-04-18T1800,1812A,112.3931,34.6516,洛阳市,市委党校,颗粒物(PM10),92,134,160,53,56,144,,149,149,14,17,5,9,0.9,0.8
2025-04-18T1800,1815A,112.494,34.6886,洛阳市,河南林校,颗粒物(PM10),101,151,205,70,68,146,,159,158,18,24,6,7,0.6,0.7
2025-04-18T1800,1816A,112.3844,34.623,洛阳市,开发区管委会,颗粒物(PM10),114,177,175,61,64,159,,167,167,9,13,7,11,0.6,0.6
2025-04-18T1800,1817A,112.4267,34.6258,洛阳市,市委新办公区,颗粒物(PM10),110,170,170,53,58,151,,160,160,18,22,6,9,0.8,0.8
2025-04-18T1800,3340A,112.6005,34.6326,洛阳市,伊滨,,,,141,51,61,149,,175,175,19,27,8,9,0.6,0.7
2025-04-18T1800,3341A,112.4951,34.6332,洛阳市,中移产业园,颗粒物(PM10),134,218,221,55,64,148,,157,157,16,23,7,9,0.8,0.8
2025-04-18T1800,3593A,112.5736,34.8993,洛阳市,吉利监测站,颗粒物(PM10),99,147,202,60,69,140,,157,157,15,25,7,9,0.8,0.7
2025-04-18T1800,3635A,112.3677,34.662,洛阳市,河科大西苑校区,颗粒物(PM10),109,168,190,53,53,151,,156,156,15,18,9,14,0.6,0.6
2025-04-18T1800,3636A,112.4388,34.6781,洛阳市,英才小学,颗粒物(PM10),102,153,182,52,62,145,,151,151,16,24,7,8,0.9,0.8
2025-04-18T1800,4214A,112.4600,34.6949,洛阳市,春都路1号院,颗粒物(PM10),98,146,190,47,50,149,,157,157,12,20,5,6,0.9,0.8
2025-04-18T1800,2399A,114.051,33.5699,漯河市,三五一五工厂,,,,111,73,52,152,,85,,11,19,5,6,0.9,0.8
2025-04-18T1800,2400A,114.0055,33.5698,漯河市,漯河大学,颗粒物(PM10),89,127,102,58,47,165,,169,169,9,13,6,8,0.6,0.5
2025-04-18T1800,2401A,114.0138,33.5828,漯河市,市水利局,颗粒物(PM10),104,158,109,56,45,157,,165,165,7,10,4,6,0.6,0.6
2025-04-18T1800,2402A,114.0261,33.5698,漯河市,市广电局,颗粒物(PM10),100,149,110,65,53,158,,164,164,9,13,5,6,0.7,0.6
2025-04-18T1800,3478A,113.9749,33.5664,漯河市,市图书馆,颗粒物(PM10),87,123,114,47,50,160,,163,163,13,18,4,7,0.6,0.6
2025-04-18T1800,4250A,114.0892,33.5882,漯河市,韶山路11号,颗粒物(PM10),89,127,113,44,50,148,,154,154,14,18,4,4,0.7,0.6
2025-04-18T1800,1798A,118.5092,31.6837,马鞍山市,湖东路四小,臭氧1小时,93,87,88,36,41,194,,175,175,10,20,9,11,0.6,0.9
2025-04-18T1800,1799A,118.5024,31.6449,马鞍山市,开发区,臭氧1小时,90,92,93,38,46,192,,174,174,17,29,8,9,0.6,1.1
2025-04-18T1800,1802A,118.6245,31.7241,马鞍山市,濮塘,臭氧1小时,105,90,82,45,37,209,,184,184,4,14,9,9,0.5,0.8
2025-04-18T1800,3633A,118.4918,31.6809,马鞍山市,雨山,臭氧1小时,92,92,89,37,41,193,,174,174,9,24,8,10,0.7,1.1
2025-04-18T1800,4191A,118.5274,31.72227,马鞍山市,慈湖高新区,臭氧1小时,79,95,90,46,43,183,,154,154,16,27,8,10,0.6,0.8
2025-04-18T1800,1686A,111.0286,21.4688,茂名市,电白南海,颗粒物(PM10),54,58,78,22,30,42,,52,46,12,11,1,1,0.8,0.8
2025-04-18T1800,1687A,110.9294,21.6533,茂名市,茂石化七小,颗粒物(PM10),56,61,93,22,28,50,,48,48,10,11,2,2,0.8,0.7
2025-04-18T1800,1688A,110.9107,21.6687,茂名市,健康路,颗粒物(PM10),58,66,96,24,30,57,,56,56,8,8,2,4,0.8,0.8
2025-04-18T1800,1689A,110.8592,21.6828,茂名市,高岭,颗粒物(PM10),58,66,106,17,24,55,,52,48,10,12,2,5,0.6,0.6
2025-04-18T1800,3450A,111.01,21.5165,茂名市,电白水东,细颗粒物(PM2.5),67,,74,48,25,45,,51,51,12,12,1,1,0.6,0.6
2025-04-18T1800,2539A,104.0308,30.0478,眉山市,黑龙滩水库,臭氧1小时,98,32,39,13,17,198,,193,193,2,11,4,3,0.4,0.4
2025-04-18T1800,2540A,103.8416,30.0874,眉山市,气象局,臭氧1小时,119,99,90,44,38,238,,205,205,21,47,4,4,0.7,0.7
2025-04-18T1800,3137A,103.8578,30.0744,眉山市,市委党校,臭氧1小时,113,90,78,34,33,225,,192,192,18,51,9,9,0.8,0.9
2025-04-18T1800,3148A,103.8291,30.0564,眉山市,区人社局,臭氧1小时,119,79,59,36,33,238,,203,203,31,59,11,12,0.8,0.9
2025-04-18T1800,1690A,116.1231,24.3284,梅州市,梅江月梅,,30,28,54,21,25,74,,89,87,8,12,6,6,0.6,0.5
2025-04-18T1800,1691A,116.0797,24.2719,梅州市,梅县新城,,34,34,55,23,20,66,,82,82,12,17,6,7,0.6,0.6
2025-04-18T1800,1692A,116.1248,24.2654,梅州市,环境监控中心,,35,26,55,24,27,66,,83,81,16,21,8,11,0.6,0.5
2025-04-18T1800,3315A,116.1233,24.2991,梅州市,梅龙,,39,39,54,23,24,68,,85,83,14,13,7,9,0.6,0.5
2025-04-18T1800,1878A,104.7778,31.4741,绵阳市,富乐山,颗粒物(PM10),56,62,86,33,41,153,,161,161,8,15,9,10,0.5,0.5
2025-04-18T1800,1880A,104.6697,31.4668,绵阳市,高新区自来水公司,颗粒物(PM10),54,57,94,36,43,145,,157,157,15,44,4,4,0.4,0.6
2025-04-18T1800,1881A,104.7287,31.5075,绵阳市,三水厂,颗粒物(PM10),59,68,108,28,48,156,,162,162,12,43,8,8,0.4,0.6
2025-04-18T1800,3491A,104.69,31.5322,绵阳市,西科大附属小学,,,,112,40,44,152,,162,162,13,39,8,8,0.6,0.7
2025-04-18T1800,3492A,104.5648,31.5343,绵阳市,安州区旅游局,颗粒物(PM10),58,65,84,29,35,142,,160,160,18,21,10,10,0.5,0.5
2025-04-18T1800,4226A,104.7651,31.4531,绵阳市,绵阳市气象局,颗粒物(PM10),56,61,96,28,43,145,,154,154,12,28,4,7,0.4,0.6
2025-04-18T1800,1784A,129.61,44.561,牡丹江市,环保大楼,,39,,58,27,47,82,,86,86,13,28,6,7,0.3,0.5
2025-04-18T1800,1785A,129.6115,44.5782,牡丹江市,文化广场,,42,42,74,16,50,82,,86,86,14,32,9,13,0.5,0.8
2025-04-18T1800,1786A,129.5904,44.5963,牡丹江市,第一医院,,28,28,69,16,60,83,,89,89,9,25,5,9,0.3,0.6
2025-04-18T1800,1787A,129.6364,44.6075,牡丹江市,机车工厂,,35,25,78,24,52,86,,88,88,9,26,6,15,0.4,0.7
2025-04-18T1800,1788A,129.6386,44.5462,牡丹江市,第一中学,,38,28,52,26,39,87,,90,90,7,23,7,8,0.5,0.7
2025-04-18T1800,2531A,105.0703,29.61,内江市,市监测站,,,,84,0,45,187,,185,185,13,19,8,9,0.5,0.6
2025-04-18T1800,2532A,105.0717,29.5947,内江市,东兴区政府,臭氧1小时,73,45,74,29,37,178,,174,174,8,17,12,11,0.6,0.6
2025-04-18T1800,2533A,105.0653,29.5817,内江市,内江二中,臭氧1小时,64,66,90,33,48,171,,167,167,13,23,10,10,0.5,0.6
2025-04-18T1800,2534A,105.0406,29.5822,内江市,内江日报社,臭氧1小时,72,47,87,36,48,177,,180,180,13,20,12,12,0.4,0.5
2025-04-18T1800,2628A,92.0657,31.4846,那曲市,那曲监测站,,39,32,46,9,22,124,,125,125,10,14,4,5,0.4,0.6
2025-04-18T1800,4243A,92.0515,31.4787,那曲市,那曲市委宣传部,,43,22,54,12,29,136,,134,134,3,7,4,5,0.2,0.3
2025-04-18T1800,1290A,115.8931,28.6843,南昌市,省外办,颗粒物(PM10),76,102,80,39,38,138,,140,140,13,28,8,8,0.4,0.5
2025-04-18T1800,1291A,115.8886,28.7003,南昌市,省林业公司,颗粒物(PM10),65,80,90,34,38,133,,129,129,12,29,10,9,0.5,0.6
2025-04-18T1800,1292A,115.8126,28.7442,南昌市,林科所,颗粒物(PM10),69,88,75,34,32,170,,158,158,11,32,4,3,0.5,0.3
2025-04-18T1800,1294A,115.8518,28.687,南昌市,建工学校,颗粒物(PM10),68,86,96,38,37,144,,143,143,17,38,6,4,0.6,0.7
2025-04-18T1800,1295A,115.8921,28.6424,南昌市,象湖,颗粒物(PM10),63,75,84,29,33,153,,158,158,15,27,8,8,0.6,0.7
2025-04-18T1800,1296A,115.7423,28.7996,南昌市,武术学校,颗粒物(PM10),57,63,49,26,15,156,,153,153,5,5,13,11,0.7,0.7
2025-04-18T1800,3046A,115.9084,28.6062,南昌市,机电学校,颗粒物(PM10),70,89,90,36,38,144,,141,141,10,29,4,4,0.4,0.4
2025-04-18T1800,3690A,115.9721,28.7031,南昌市,外国语学校,颗粒物(PM10),70,89,81,30,32,158,,156,156,10,16,11,12,0.2,0.4
2025-04-18T1800,4192A,115.9316,28.68677,南昌市,南京东路235号,颗粒物(PM10),72,93,83,36,36,148,,150,150,15,22,11,11,0.5,0.6
2025-04-18T1800,1906A,106.0789,30.8023,南充市,南充市委,细颗粒物(PM2.5),69,79,97,50,49,170,,172,172,12,36,5,5,0.5,0.7
2025-04-18T1800,1907A,106.1031,30.8217,南充市,南充炼油厂,颗粒物(PM10),55,59,97,34,47,160,,163,163,9,26,5,6,0.5,0.6
2025-04-18T1800,4227A,106.1083,30.7884,南充市,梨树横街98号,颗粒物(PM10),68,85,97,38,37,169,,166,166,13,26,4,7,0.3,0.4
2025-04-18T1800,4304A,106.1172,30.843,南充市,清泉寺北路188号,臭氧1小时,59,62,93,23,37,167,,168,168,10,18,5,6,0.5,0.5
2025-04-18T1800,4305A,106.067,30.7616,南充市,同庆路1号,,,63,91,31,43,137,,138,138,,48,6,5,0.6,0.7
2025-04-18T1800,1151A,118.8086,32.1065,南京市,迈皋桥,臭氧1小时,82,72,67,34,36,185,,176,176,18,29,4,7,0.1,0.6
2025-04-18T1800,1152A,118.7538,32.0551,南京市,草场门,臭氧1小时,73,90,81,36,36,178,,170,170,17,23,6,10,0.6,1
2025-04-18T1800,1153A,118.7794,32.0745,南京市,山西路,臭氧1小时,90,85,91,29,34,192,,182,182,15,23,5,8,0.2,0.6
2025-04-18T1800,1154A,118.7752,32.0023,南京市,中华门,颗粒物(PM10),67,83,73,34,36,163,,157,157,9,14,11,13,0.4,0.3
2025-04-18T1800,1155A,118.8109,32.0309,南京市,瑞金路,臭氧1小时,73,92,82,36,39,178,,170,170,3,14,7,6,0.2,0.3
2025-04-18T1800,1156A,118.7997,32.0754,南京市,玄武湖,臭氧1小时,74,75,81,33,33,179,,169,169,8,14,7,9,0.2,0.5
2025-04-18T1800,1157A,118.6414,32.0931,南京市,浦口,臭氧1小时,90,94,94,27,29,192,,189,189,20,26,7,8,0.5,0.7
2025-04-18T1800,1158A,118.7356,31.9996,南京市,奥体中心,臭氧1小时,92,93,85,36,38,193,,179,179,14,22,10,12,0.5,0.8
2025-04-18T1800,1159A,118.9125,32.1028,南京市,仙林大学城,臭氧1小时,83,80,83,31,36,186,,175,175,13,22,12,12,0.8,1
2025-04-18T1800,3427A,118.8554,32.3578,南京市,六合雄州,臭氧1小时,78,75,87,30,35,182,,185,185,1,11,8,12,0.5,1.2
2025-04-18T1800,4249A,118.8708,31.3402,南京市,汶溪路181号,臭氧1小时,77,79,70,44,36,181,,171,171,18,18,4,5,0.4,0.4
2025-04-18T1800,4312A,119.019,31.6512,南京市,中山西路1号,臭氧1小时,70,53,59,46,36,176,,175,175,16,12,7,5,0.5,0.6
2025-04-18T1800,1401A,108.3103,22.7881,南宁市,二十一中,,47,47,90,29,39,107,,104,104,10,13,4,5,0.9,1.1
2025-04-18T1800,1402A,108.3141,22.8528,南宁市,北湖,颗粒物(PM10),53,56,88,26,40,109,,112,112,10,11,5,6,0.6,0.8
2025-04-18T1800,1403A,108.3206,22.8225,南宁市,市监测站,,42,42,85,28,36,100,,99,99,8,11,4,5,0.5,0.7
2025-04-18T1800,1404A,108.3829,22.8037,南宁市,大自然花园,,48,48,91,30,39,110,,106,106,4,7,5,6,0.6,0.7
2025-04-18T1800,1405A,108.4394,22.7904,南宁市,仙葫,,49,49,94,28,40,96,,77,,6,7,6,6,0.6,0.7
2025-04-18T1800,1406A,108.2397,22.8467,南宁市,区农职院,颗粒物(PM10),84,118,101,23,34,103,,106,105,14,14,3,5,0.3,0.8
2025-04-18T1800,1407A,108.3275,22.735,南宁市,英华嘉园,,45,45,84,27,36,106,,104,104,13,14,7,8,0.7,0.7
2025-04-18T1800,3401A,108.4834,22.7618,南宁市,红星社区,颗粒物(PM10),51,52,90,25,38,122,,112,112,4,8,7,9,0.8,0.9
2025-04-18T1800,4221A,108.2177,22.7774,南宁市,乐贤路16号,颗粒物(PM10),51,52,91,27,38,92,,93,93,8,18,7,8,0.5,0.9
2025-04-18T1800,2332A,118.1681,26.6369,南平市,南平市监测站,颗粒物(PM10),59,67,63,32,32,118,,122,122,18,20,5,5,0.8,0.8
2025-04-18T1800,2333A,118.1825,26.6489,南平市,南平铝业有限公司,颗粒物(PM10),59,68,63,27,28,132,,122,122,11,26,4,5,0.7,0.8
2025-04-18T1800,2334A,118.1756,26.6272,南平市,南平七中,颗粒物(PM10),57,64,62,26,30,124,,124,124,9,17,6,6,0.7,0.7
2025-04-18T1800,1168A,120.9098,31.9663,南通市,狼山街道,臭氧1小时,89,87,75,36,34,191,,193,193,24,39,7,6,0.8,0.9
2025-04-18T1800,1169A,120.86,32.0005,南通市,虹桥,臭氧1小时,111,87,77,36,37,221,,202,202,28,49,5,4,0.4,0.5
2025-04-18T1800,1170A,120.87,32.02,南通市,城中,臭氧1小时,117,92,79,34,33,234,,210,210,25,38,4,5,0.7,0.7
2025-04-18T1800,1171A,120.94,31.93,南通市,星湖花园,臭氧1小时,69,86,72,30,35,175,,189,189,35,40,7,5,0.5,0.5
2025-04-18T1800,1172A,120.81,32.0417,南通市,紫琅学院,臭氧1小时,99,92,94,35,36,199,,190,190,54,54,6,6,0.6,0.7
2025-04-18T1800,3291A,121.067,32.062,南通市,通州监测站,臭氧1小时,104,85,73,29,32,207,,197,197,19,30,7,7,0.6,0.6
2025-04-18T1800,3432A,120.9348,31.9883,南通市,环境教育馆,臭氧1小时,108,80,75,35,34,216,,206,206,21,40,5,8,0.3,0.5
2025-04-18T1800,2404A,112.5224,33.0122,南阳市,瓦房庄,颗粒物(PM10),67,84,95,33,38,157,,156,156,11,15,6,7,0.5,0.6
2025-04-18T1800,2405A,112.5003,32.9735,南阳市,汉画馆,颗粒物(PM10),67,83,93,33,41,154,,149,149,13,17,6,7,0.5,0.6
2025-04-18T1800,2406A,112.5573,33.027,南阳市,气象站,,,,101,,43,166,,161,161,9,13,,6,0.5,0.6
2025-04-18T1800,2407A,112.5481,32.9689,南阳市,理工学院,颗粒物(PM10),66,81,93,34,39,163,,158,158,10,17,5,6,0.5,0.6
2025-04-18T1800,4008A,112.5234,32.9922,南阳市,卧龙区政府,颗粒物(PM10),69,87,94,32,44,166,,162,162,10,14,6,6,0.5,0.6
2025-04-18T1800,1234A,121.8358,29.911,宁波市,区环保大楼,,41,41,86,3,32,70,,108,108,17,52,7,12,0.6,0.8
2025-04-18T1800,1235A,121.56,29.82,宁波市,万里学院,,44,44,66,20,36,90,,148,141,11,25,5,7,0.4,0.7
2025-04-18T1800,1236A,121.713,29.9572,宁波市,龙赛医院,,36,36,74,24,31,83,,136,136,10,35,8,11,0.6,0.7
2025-04-18T1800,1239A,121.633,29.7733,宁波市,钱湖水厂,,32,32,55,16,30,88,,138,137,8,13,8,8,0.6,0.7
2025-04-18T1800,1240A,121.5856,29.8635,宁波市,太古小学,,43,43,67,20,29,98,,141,141,7,24,8,10,0.6,0.7
2025-04-18T1800,1241A,121.524,29.8674,宁波市,市环境监测中心,,39,39,66,15,29,89,,142,141,24,33,8,10,0.8,0.9
2025-04-18T1800,2871A,121.6147,29.9017,宁波市,万里国际学校,颗粒物(PM10),61,71,74,20,31,89,,148,146,7,19,8,8,0.6,0.7
2025-04-18T1800,3710A,121.5594,29.8975,宁波市,白沙活动中心,,42,42,54,17,29,105,,146,146,9,29,7,8,0.5,0.7
2025-04-18T1800,2341A,119.5388,26.6612,宁德市,宁德市监测站,细颗粒物(PM2.5),69,85,83,50,54,136,,150,150,22,31,8,8,0.8,1.1
2025-04-18T1800,3209A,119.5231,26.6562,宁德市,宁德一中,颗粒物(PM10),71,92,80,50,50,139,,154,154,22,19,10,9,0.7,1.1
2025-04-18T1800,2618A,98.8601,25.8567,怒江傈僳族自治州,州监测站,颗粒物(PM10),53,56,34,22,22,120,,114,114,7,11,8,8,0.3,0.3
2025-04-18T1800,2619A,98.8546,25.8417,怒江傈僳族自治州,泸水一中,颗粒物(PM10),104,157,35,23,20,104,,97,97,11,16,6,6,0.3,0.4
2025-04-18T1800,1888A,101.6891,26.571,攀枝花市,弄弄坪,,36,23,27,20,17,114,,125,125,20,19,22,17,1.3,1.2
2025-04-18T1800,1889A,101.5769,26.5928,攀枝花市,河门口,,42,26,37,14,11,132,,130,130,6,14,8,17,0.4,0.8
2025-04-18T1800,1890A,101.7169,26.585,攀枝花市,炳草岗,,38,12,36,3,18,121,,131,131,18,35,10,15,0.2,0.6
2025-04-18T1800,1891A,101.7369,26.5008,攀枝花市,仁和,,44,15,24,11,15,140,,136,136,9,13,8,10,0.3,0.4
2025-04-18T1800,2835A,101.7227,26.567,攀枝花市,四十中小,,45,24,28,15,16,144,,140,140,13,13,7,8,0.4,0.6
2025-04-18T1800,1604A,122.0303,41.1489,盘锦市,开发区,,30,26,21,13,16,93,,102,102,19,18,8,9,0.4,0.4
2025-04-18T1800,1605A,122.0485,41.0883,盘锦市,兴隆台,,28,28,28,14,17,83,,94,94,25,25,9,10,0.5,0.5
2025-04-18T1800,1606A,121.8297,41.1028,盘锦市,新生街道,,27,14,20,11,14,84,,103,100,21,27,8,14,0.4,0.5
2025-04-18T1800,1832A,113.3257,33.742,平顶山市,新华旅馆,颗粒物(PM10),105,159,111,40,34,163,,166,166,23,14,6,6,0.7,0.6
2025-04-18T1800,1833A,113.2919,33.737,平顶山市,规划设计院,颗粒物(PM10),97,143,103,64,50,160,,158,158,21,16,5,5,0.8,0.9
2025-04-18T1800,1834A,113.182,33.774,平顶山市,平顶山工学院,颗粒物(PM10),88,125,93,58,46,180,,179,179,18,10,6,6,0.8,0.6
2025-04-18T1800,3204A,113.3025,33.73,平顶山市,规划局,颗粒物(PM10),106,161,108,42,41,174,,170,170,25,18,7,6,0.7,0.5
2025-04-18T1800,3594A,112.8867,33.9116,平顶山市,石龙区,颗粒物(PM10),109,167,115,61,44,184,,166,166,18,12,7,6,0.6,0.3
2025-04-18T1800,2656A,106.6692,35.5461,平凉市,聚贤嘉苑,颗粒物(PM10),188,326,298,80,66,96,,96,94,5,10,6,8,0.3,0.4
2025-04-18T1800,2657A,106.7021,35.5307,平凉市,博物馆,颗粒物(PM10),187,323,286,86,65,94,,95,92,7,12,8,10,0.3,0.4
2025-04-18T1800,2347A,114.0997,27.5002,萍乡市,武功山,颗粒物(PM10),53,56,55,31,26,100,,99,99,5,6,17,14,0.5,0.5
2025-04-18T1800,2348A,113.8385,27.6434,萍乡市,中医院,颗粒物(PM10),59,68,88,34,37,118,,139,135,5,14,8,19,0.6,0.8
2025-04-18T1800,2349A,113.8493,27.6253,萍乡市,市政府车库,颗粒物(PM10),60,70,83,29,44,121,,136,136,6,21,5,14,0.4,1.9
2025-04-18T1800,2350A,113.8676,27.6435,萍乡市,市环保局,颗粒物(PM10),68,85,92,30,45,118,,131,131,9,19,4,14,0.5,0.9
2025-04-18T1800,2351A,113.866,27.6198,萍乡市,安源区政府,颗粒物(PM10),61,71,92,36,40,112,,123,123,7,19,14,19,0.5,0.8
2025-04-18T1800,2319A,119.0141,25.4325,莆田市,荔城区仓后路,颗粒物(PM10),70,89,72,24,30,83,,128,128,20,24,4,3,0.6,0.6
2025-04-18T1800,2320A,119.0015,25.4553,莆田市,莆田市监测站,颗粒物(PM10),61,71,61,22,28,97,,141,141,17,14,7,5,0.4,0.4
2025-04-18T1800,2321A,119.1119,25.4561,莆田市,涵江区六中,颗粒物(PM10),65,80,71,19,29,80,,118,118,19,22,8,6,0.5,0.6
2025-04-18T1800,2322A,119.1013,25.3215,莆田市,秀屿区政府,颗粒物(PM10),61,72,65,19,25,69,,108,107,12,13,7,7,0.5,0.5
2025-04-18T1800,2392A,115.0312,35.7636,濮阳市,环保局,颗粒物(PM10),71,92,184,18,53,73,,103,96,14,22,7,9,0.5,0.8
2025-04-18T1800,2394A,115.0574,35.7609,濮阳市,油田运输公司,颗粒物(PM10),77,103,186,17,56,76,,109,101,19,28,6,9,0.6,0.9
2025-04-18T1800,3021A,115,35.7668,濮阳市,濮水河管理处,颗粒物(PM10),74,97,183,20,57,73,,106,97,13,20,4,6,0.7,0.9
2025-04-18T1800,4216A,115.0924,35.7686,濮阳市,任丘路479号,颗粒物(PM10),72,93,203,22,59,77,,106,101,13,22,6,10,0.5,1.1
2025-04-18T1800,2601A,100.98,22.7633,普洱市,市环保局,,38,38,38,17,14,108,,110,110,9,11,3,3,0.5,0.6
2025-04-18T1800,2602A,100.9817,22.8322,普洱市,普洱第二中学,,37,22,26,22,20,117,,120,120,11,18,7,7,0.4,0.4
2025-04-18T1800,2262A,131.0518,45.8751,七台河市,新一中,细颗粒物(PM2.5),52,37,37,36,26,91,,84,81,11,14,12,13,0.7,0.7
2025-04-18T1800,3345A,131.0577,45.7879,七台河市,中波台,,42,35,54,29,25,64,,65,62,24,23,9,7,0.5,0.6
2025-04-18T1800,3637A,131.0176,45.7761,七台河市,人民广场,,50,,44,35,32,72,,82,73,29,23,10,10,0.7,0.7
2025-04-18T1800,3684A,130.8781,45.8222,七台河市,新建矿广场,,43,,39,30,27,62,,67,65,22,26,8,12,0.7,0.7
2025-04-18T1800,1779A,123.9305,47.3636,齐齐哈尔市,安居小区,,24,21,25,15,13,75,,78,78,11,10,4,4,0.3,0.3
2025-04-18T1800,1780A,123.9488,47.3386,齐齐哈尔市,中心广场,,31,31,32,7,12,71,,78,78,17,12,6,6,0.2,0.2
2025-04-18T1800,1781A,123.9483,47.3227,齐齐哈尔市,农牧车辆厂,,25,22,28,3,17,78,,80,80,7,9,4,4,0.1,0.2
2025-04-18T1800,1783A,123.945,47.2988,齐齐哈尔市,市环境监测站,,24,21,28,8,18,75,,78,78,9,10,1,2,0.4,0.4
2025-04-18T1800,3662A,123.6333,47.2075,齐齐哈尔市,富区青少年活动中心,,47,47,28,17,19,73,,78,78,14,11,2,2,0.5,0.5
2025-04-18T1800,2591A,107.9783,26.5747,黔东南苗族侗族自治州,市环境监测站,颗粒物(PM10),56,62,76,36,44,105,,100,100,5,19,2,3,0.5,0.6
2025-04-18T1800,2881A,107.8908,26.5311,黔东南苗族侗族自治州,凯里学院,细颗粒物(PM2.5),54,48,66,38,40,109,,104,104,2,10,2,2,0.3,0.3
2025-04-18T1800,2593A,107.5228,26.2403,黔南布依族苗族自治州,小围寨,颗粒物(PM10),53,56,66,31,35,115,,109,109,5,11,5,5,0.4,0.5
2025-04-18T1800,3538A,107.5175,26.2978,黔南布依族苗族自治州,沙坝,颗粒物(PM10),56,61,78,29,39,100,,105,105,7,14,4,4,0.3,0.6
2025-04-18T1800,2589A,104.9022,25.0925,黔西南布依族苗族自治州,场坝街,,44,16,42,6,25,140,,140,140,26,16,5,4,0.5,0.4
2025-04-18T1800,2590A,104.8811,25.0992,黔西南布依族苗族自治州,坪东大道,,41,14,39,8,21,131,,132,132,10,18,2,3,0.2,0.3
2025-04-18T1800,2502A,108.6236,21.9667,钦州市,市环保站,颗粒物(PM10),67,83,130,29,35,100,,102,102,16,21,3,6,1.0,0.9
2025-04-18T1800,2503A,108.6549,21.9481,钦州市,沙埠小学,颗粒物(PM10),69,87,130,42,44,105,,105,105,11,24,6,10,1.1,1.1
2025-04-18T1800,2504A,108.5989,21.7431,钦州市,港区一小,颗粒物(PM10),88,125,157,40,45,79,,86,86,26,29,9,9,0.8,0.8
2025-04-18T1800,3404A,108.5959,21.9633,钦州市,北职校,颗粒物(PM10),71,91,135,36,50,93,,92,92,14,24,9,12,0.7,0.7
2025-04-18T1800,1043A,119.7493,40.0116,秦皇岛市,第一关,,43,,54,30,32,32,,68,63,61,46,3,5,0.2,0.3
2025-04-18T1800,1044A,119.5897,39.9499,秦皇岛市,监测站,,34,34,63,19,29,41,,65,64,45,39,3,4,0.4,0.4
2025-04-18T1800,1046A,119.5251,39.9041,秦皇岛市,建设大厦,,34,28,61,13,24,28,,62,60,67,41,3,3,0.4,0.4
2025-04-18T1800,3132A,119.610547,39.943889,秦皇岛市,文明里,,27,27,64,16,26,45,,63,62,44,41,2,5,0.3,0.3
2025-04-18T1800,4198A,119.5090,39.8253,秦皇岛市,北戴河轮滑馆,,29,29,49,13,27,37,,70,66,39,25,2,3,0.3,0.3
2025-04-18T1800,1307A,120.6659,36.2403,青岛市,仰口,,33,27,92,18,54,103,,123,121,16,13,5,6,0.3,0.5
2025-04-18T1800,1310A,120.4134,36.0658,青岛市,市南区东部子站,,30,22,134,17,49,96,,112,112,10,41,7,9,0.4,0.6
2025-04-18T1800,1311A,120.3664,36.1032,青岛市,四方区子站,,34,31,124,17,54,107,,122,120,13,44,6,9,0.5,0.8
2025-04-18T1800,1312A,120.2994,36.054,青岛市,市南区西部子站,,31,19,106,3,46,97,,112,112,15,44,7,8,0.6,0.9
2025-04-18T1800,1313A,120.4581,36.0858,青岛市,崂山区子站,,33,22,128,3,45,104,,120,120,7,33,7,9,0.5,0.7
2025-04-18T1800,1315A,120.3999,36.3083,青岛市,城阳区子站,,46,46,109,12,40,107,,120,119,21,20,8,11,0.6,0.8
2025-04-18T1800,1966A,120.0405,35.8735,青岛市,黄岛区4号,,27,27,113,9,46,85,,111,108,28,31,8,11,0.7,0.9
2025-04-18T1800,3362A,120.5014,36.4034,青岛市,即墨2号,,38,38,121,10,53,105,,125,123,10,15,7,10,0.5,0.7
2025-04-18T1800,3642A,120.3503,36.0736,青岛市,市北区南部,,38,38,118,14,51,95,,108,108,9,32,7,9,0.6,0.9
2025-04-18T1800,3643A,120.3948,36.1805,青岛市,李沧区北部,,41,41,135,24,58,91,,117,115,32,48,7,10,0.6,0.8
2025-04-18T1800,4290A,120.1969,35.9546,青岛市,珠江路669号,,27,27,125,12,54,86,,111,107,26,64,7,9,0.6,0.8
2025-04-18T1800,1702A,113.0426,23.691,清远市,环保大楼,细颗粒物(PM2.5),128,197,108,97,44,30,,36,36,43,32,6,7,0.9,0.8
2025-04-18T1800,1703A,113.0208,23.7106,清远市,凤城街办,颗粒物(PM10),132,213,124,56,34,27,,34,34,45,33,7,8,0.7,0.6
2025-04-18T1800,3025A,113.0477,23.6344,清远市,技师学院,颗粒物(PM10),126,201,121,61,36,11,,26,25,59,36,7,9,0.5,0.4
2025-04-18T1800,3318A,112.9903,23.7403,清远市,清新太和,颗粒物(PM10),110,170,126,51,35,25,,39,36,49,28,4,7,0.7,0.6
2025-04-18T1800,3455A,113.076,23.7198,清远市,清城东城,颗粒物(PM10),130,209,131,64,38,25,,35,35,40,29,7,7,0.9,0.7
2025-04-18T1800,2661A,107.6325,35.7357,庆阳市,庆阳五中,颗粒物(PM10),82,113,151,58,55,92,,117,92,6,8,2,3,0.3,0.3
2025-04-18T1800,2662A,107.6364,35.7067,庆阳市,市环保局,,,,148,,46,96,,122,98,8,7,4,6,0.3,0.4
2025-04-18T1800,1916A,103.7897,25.5035,曲靖市,环境监测站,,42,29,28,12,12,134,,132,132,10,13,5,6,0.2,0.3
2025-04-18T1800,1917A,103.8,25.5364,曲靖市,烟厂办公区,,46,19,25,6,10,146,,147,147,6,10,5,4,0.3,0.4
2025-04-18T1800,3376A,103.7947,25.462,曲靖市,南苑二区,,40,27,23,12,10,127,,128,128,8,9,4,5,0.1,0.2
2025-04-18T1800,3377A,103.7444,25.5261,曲靖市,曲靖师范学院,,44,32,41,13,27,138,,138,138,7,21,5,12,0.2,0.3
2025-04-18T1800,1264A,118.8692,28.9398,衢州市,环保大楼,颗粒物(PM10),55,59,74,25,39,154,,128,128,15,26,4,4,0.5,0.5
2025-04-18T1800,1265A,118.8709,28.9666,衢州市,实验学校,,45,42,59,24,36,144,,123,123,22,33,5,6,0.4,0.4
2025-04-18T1800,1266A,118.8621,28.9808,衢州市,衢州学院,,48,48,61,19,36,137,,118,118,15,29,5,4,0.5,0.5
2025-04-18T1800,1611A,118.5819,24.9117,泉州市,涂山街,颗粒物(PM10),52,54,73,21,25,90,,131,131,13,22,5,7,0.6,0.6
2025-04-18T1800,1612A,118.5972,24.8978,泉州市,津头埔,颗粒物(PM10),55,60,68,20,23,80,,121,121,19,27,3,6,0.6,0.5
2025-04-18T1800,1613A,118.6663,24.9424,泉州市,万安,颗粒物(PM10),63,76,69,21,23,81,,124,124,16,18,4,5,0.4,0.4
2025-04-18T1800,3529A,118.6333,24.9264,泉州市,城华南路,颗粒物(PM10),53,56,67,19,24,82,,126,126,18,24,4,5,0.5,0.5
2025-04-18T1800,2626A,88.8876,29.2718,日喀则市,日喀则监测站,,41,18,17,8,8,131,,124,124,5,9,4,12,0.2,0.2
2025-04-18T1800,3726A,88.8781,29.2426,日喀则市,林业技术推广中心,,39,24,21,3,5,122,,117,117,2,3,6,6,0.2,0.3
2025-04-18T1800,1659A,119.471,35.4209,日照市,监测站,,39,39,127,23,54,114,,128,126,19,27,5,8,0.5,0.7
2025-04-18T1800,1660A,119.523,35.4216,日照市,市政府广场,,46,44,123,32,49,108,,120,120,14,17,4,7,0.7,0.8
2025-04-18T1800,1661A,119.5587,35.4044,日照市,港务局,,49,46,133,34,60,113,,128,127,14,19,6,8,0.8,0.9
2025-04-18T1800,3507A,119.5328,35.4625,日照市,职业技术学院,颗粒物(PM10),51,51,130,24,45,113,,128,126,12,14,5,8,0.6,0.7
2025-04-18T1800,3604A,119.3266,35.1044,日照市,岚山环保分局,颗粒物(PM10),62,73,142,40,55,123,,131,131,18,29,5,21,0.7,1.9
2025-04-18T1800,1836A,111.1587,34.7942,三门峡市,开发区,颗粒物(PM10),144,237,183,71,66,101,,160,159,18,18,6,9,0.7,0.7
2025-04-18T1800,3039A,111.1911,34.7829,三门峡市,三门峡市第一小学,颗粒物(PM10),397,497,189,67,64,108,,171,170,16,19,9,8,0.8,0.7
2025-04-18T1800,3598A,111.1,34.7167,三门峡市,富达温泉假日酒店,颗粒物(PM10),200,350,184,66,69,114,,163,163,18,20,6,8,0.4,0.4
2025-04-18T1800,2324A,117.6211,26.2625,三明市,三钢,颗粒物(PM10),63,76,72,31,38,115,,118,118,21,23,26,11,2.7,1.1
2025-04-18T1800,2325A,117.635,26.2714,三明市,三明二中,颗粒物(PM10),56,62,71,31,34,110,,115,115,22,21,14,10,1.1,0.7
2025-04-18T1800,2326A,117.6028,26.2378,三明市,三元区政府,颗粒物(PM10),60,70,75,32,34,124,,130,130,17,20,8,6,0.5,0.8
2025-04-18T1800,1876A,109.5078,18.2489,三亚市,河东子站,,36,36,49,17,21,45,,56,50,7,4,4,3,0.3,0.4
2025-04-18T1800,1877A,109.4964,18.2681,三亚市,河西子站,,34,34,49,19,22,44,,54,52,13,8,2,2,0.2,0.2
2025-04-18T1800,3540A,109.7348,18.3443,三亚市,君悦子站,,37,37,58,15,22,38,,59,56,13,9,3,3,0.3,0.4
2025-04-18T1800,2624A,91.7608,29.2313,山南市,山南监测站,,40,29,20,7,7,127,,118,118,4,5,4,3,0.3,0.3
2025-04-18T1800,2625A,91.7706,29.2436,山南市,山南人民医院,颗粒物(PM10),82,114,34,24,13,133,,122,122,5,6,6,6,0.3,0.3
