timepoint,stationcode,longitude,latitude,area,positionname,primarypollutant,aqi,pm10,pm10_24h,pm2_5,pm2_5_24h,o3,o3_24h,o3_8h,o3_8h_24h,no2,no2_24h,so2,so2_24h,co,co_24h
2025-09-15T2300,2566A,102.1879,31.914,阿坝藏族羌族自治州,州农科所,,14,14,28,6,9,43,,68,56,8,7,3,8,0.2,0.2
2025-09-15T2300,2568A,102.2502,31.8896,阿坝藏族羌族自治州,马师校,,23,21,19,16,14,33,,71,58,14,9,8,8,0.5,0.5
2025-09-15T2300,3994A,102.2165,31.9024,阿坝藏族羌族自治州,马尔康中学西区,,33,33,29,18,17,44,,77,64,9,5,9,9,0.4,0.4
2025-09-15T2300,2695A,80.292,41.1694,阿克苏地区,电视台,颗粒物(PM10),500,913,381,221,105,69,,92,82,11,13,4,5,0.6,0.7
2025-09-15T2300,2696A,80.2613,41.1551,阿克苏地区,艺术中心,颗粒物(PM10),500,834,336,232,98,68,,96,83,19,16,3,4,0.5,0.5
2025-09-15T2300,2204A,105.6467,38.8363,阿拉善盟,西城区西花园,,41,41,43,21,18,61,,63,63,7,9,9,9,0.8,0.8
2025-09-15T2300,2205A,105.6985,38.8411,阿拉善盟,蒙二幼,,39,39,54,10,16,102,,105,104,4,5,7,8,0.4,0.4
2025-09-15T2300,2206A,105.724,38.8516,阿拉善盟,环保局新楼,,35,35,49,10,15,102,,104,104,5,5,8,8,0.3,0.4
2025-09-15T2300,2708A,88.1264,47.8517,阿勒泰地区,市站,颗粒物(PM10),62,74,34,10,7,11,,54,39,26,16,3,3,0.5,0.4
2025-09-15T2300,2630A,80.1161,32.5,阿里地区,阿里监测站,,27,7,3,3,3,57,,123,114,54,16,9,5,0.5,0.3
2025-09-15T2300,3192A,80.0903,32.5028,阿里地区,阿里藏医院,,30,24,17,3,5,94,,132,126,11,8,7,7,0.4,0.3
2025-09-15T2300,2642A,109.0318,32.6537,安康市,香溪洞,,21,12,23,7,9,66,,71,69,3,6,7,7,0.4,0.5
2025-09-15T2300,2644A,109.0072,32.6975,安康市,汉滨区检察院,,20,10,25,8,9,63,,69,63,4,6,3,4,0.5,0.6
2025-09-15T2300,4054A,109.0325,32.6913,安康市,市邮政管理局,,20,,24,10,11,62,,57,57,4,9,4,5,0.6,0.7
2025-09-15T2300,2291A,117.0809,30.5177,安庆市,环科院,,47,47,23,21,11,66,,119,87,24,22,7,9,0.9,0.9
2025-09-15T2300,2292A,117.0331,30.5119,安庆市,马山宾馆,,43,38,25,30,14,69,,129,96,25,22,4,6,1.1,1
2025-09-15T2300,2294A,116.9896,30.6145,安庆市,安庆大学,,38,38,25,24,14,35,,116,84,23,13,4,5,0.5,0.5
2025-09-15T2300,3173A,117.0598,30.5351,安庆市,市人大,,36,36,26,25,12,62,,128,93,25,17,6,8,0.7,0.7
2025-09-15T2300,3122A,105.9606,26.2611,安顺市,伍家关,,,,9,,5,,,55,,,3,,5,,0.5
2025-09-15T2300,3123A,105.9408,26.2431,安顺市,凤凰山,,23,18,12,16,11,37,,60,52,12,5,7,6,0.4,0.4
2025-09-15T2300,3124A,105.9439,26.2564,安顺市,金钟山,,15,15,13,10,9,43,,63,57,7,4,7,7,0.6,0.5
2025-09-15T2300,3125A,105.8983,26.2481,安顺市,娄家坡,,16,14,12,11,9,44,,59,54,3,2,6,6,0.4,0.4
2025-09-15T2300,1818A,114.4839,36.0621,安阳市,棉研所,,,,,,,,,,,,,,,,
2025-09-15T2300,1819A,114.3551,36.1017,安阳市,红庙街,,37,37,38,16,17,54,,81,74,17,12,4,5,0.3,0.3
2025-09-15T2300,1820A,114.361,36.0681,安阳市,银杏小区,,42,42,40,27,25,50,,84,75,23,14,6,7,0.5,0.5
2025-09-15T2300,3141A,114.3922,36.0878,安阳市,信访局,,47,47,39,20,18,60,,88,80,18,17,5,5,0.6,0.6
2025-09-15T2300,3669A,114.4705,36.0637,安阳市,左辅环卫站,细颗粒物(PM2.5),58,64,41,41,25,40,,84,71,28,15,8,8,0.6,0.5
2025-09-15T2300,3703A,114.2917,36.0949,安阳市,安钢职工学校,,40,40,42,26,25,43,,78,69,17,11,4,5,0.5,0.6
2025-09-15T2300,1748A,123.044,41.1196,鞍山市,深沟寺,,32,32,23,14,7,64,,86,74,13,15,7,8,0.8,0.8
2025-09-15T2300,1749A,123.011,41.0931,鞍山市,太阳城,颗粒物(PM10),54,57,25,15,6,65,,88,81,20,16,8,9,0.7,0.6
2025-09-15T2300,1750A,123.0485,41.1442,鞍山市,太平,,43,43,27,17,8,43,,85,74,34,23,8,9,1.2,0.7
2025-09-15T2300,1751A,122.9642,41.0971,鞍山市,铁西三道街,颗粒物(PM10),53,56,25,16,8,28,,87,69,49,26,9,9,1.2,0.7
2025-09-15T2300,1753A,123.022,41.0821,鞍山市,明达新区,,48,48,19,16,5,95,,89,84,14,15,8,10,0.7,0.7
2025-09-15T2300,1754A,123.1289,41.0228,鞍山市,千山,,,,13,,8,,,50,,,6,,4,,0.4
2025-09-15T2300,4201A,122.9446,41.0826,鞍山市,兴盛南路290号,颗粒物(PM10),59,68,30,22,9,55,,88,67,31,29,12,11,0.9,0.8
2025-09-15T2300,2195A,107.4212,40.761,巴彦淖尔市,附二中,,44,44,66,16,23,83,,91,87,14,14,14,11,0.4,0.5
2025-09-15T2300,2196A,107.37,40.7372,巴彦淖尔市,市环保大楼,,43,43,62,18,20,86,,86,84,11,14,13,10,0.4,0.5
2025-09-15T2300,1956A,86.1472,41.7538,巴音郭楞蒙古自治州,孔雀公园,颗粒物(PM10),56,62,53,15,15,74,,90,86,14,8,8,6,0.2,0.2
2025-09-15T2300,1957A,86.1972,41.7166,巴音郭楞蒙古自治州,棉纺厂,,48,48,64,10,9,85,,95,93,6,5,4,5,0.2,0.2
2025-09-15T2300,1958A,86.2357,41.7173,巴音郭楞蒙古自治州,经济开发区,颗粒物(PM10),69,87,50,17,8,86,,90,90,2,3,4,4,0.1,0.1
2025-09-15T2300,2914A,106.7677,31.8794,巴中市,苏山坪,,28,28,21,18,13,63,,81,76,4,4,4,4,0.4,0.4
2025-09-15T2300,3181A,106.7768,31.8526,巴中市,市五中,,44,44,30,20,18,22,,87,62,16,12,7,7,0.7,0.6
2025-09-15T2300,3183A,106.7418,31.8654,巴中市,圣泉水务公司,,36,34,24,25,17,14,,91,57,30,12,6,6,0.6,0.4
2025-09-15T2300,3616A,106.7616,31.8344,巴中市,市中心医院,颗粒物(PM10),51,52,32,28,22,16,,82,59,28,14,8,8,0.8,0.6
2025-09-15T2300,2235A,122.7911,45.6077,白城市,洮北区环保局,,15,15,15,10,7,25,,58,45,20,5,5,4,0.3,0.3
2025-09-15T2300,2236A,122.8738,45.5725,白城市,市环保局,,15,12,11,10,7,24,,61,44,13,4,4,4,0.5,0.4
2025-09-15T2300,2231A,126.4219,41.9171,白山市,喜丰,颗粒物(PM10),53,56,33,18,10,8,,73,30,30,18,11,6,0.7,0.6
2025-09-15T2300,2232A,126.4077,41.9419,白山市,环保局,,33,,24,23,15,18,,80,46,13,11,6,6,0.6,0.6
2025-09-15T2300,2647A,104.1724,36.5446,白银市,第三小学,颗粒物(PM10),172,293,286,97,99,77,,95,92,14,14,5,24,0.0,0.4
2025-09-15T2300,2648A,104.1465,36.5482,白银市,动力公司,颗粒物(PM10),157,264,280,65,93,75,,89,84,10,12,7,8,0.3,0.4
2025-09-15T2300,2512A,106.6103,23.9011,百色市,市监测站,,22,22,31,12,16,48,,70,58,13,14,15,12,0.5,0.5
2025-09-15T2300,2513A,106.6538,23.8859,百色市,市中心血站,,18,18,34,9,16,48,,63,56,15,18,9,12,0.6,0.6
2025-09-15T2300,3406A,106.6085,23.8798,百色市,祈福高中,,29,29,40,17,18,26,,65,47,24,17,11,9,0.7,0.6
2025-09-15T2300,2270A,117.396,32.939,蚌埠市,工人疗养院,,27,27,28,11,4,76,,84,69,8,14,5,5,0.5,0.4
2025-09-15T2300,2271A,117.3605,32.9427,蚌埠市,百货大楼,,25,21,21,17,7,73,,81,74,11,13,6,7,0.7,0.6
2025-09-15T2300,2273A,117.4185,32.8911,蚌埠市,蚌埠学院,,29,29,21,15,8,65,,86,77,8,10,6,7,0.7,0.5
2025-09-15T2300,2274A,117.3533,32.9673,蚌埠市,淮上区政府,,34,34,24,18,10,54,,88,72,38,18,7,7,0.6,0.4
2025-09-15T2300,2275A,117.3145,32.8977,蚌埠市,高新区,,31,31,17,12,7,64,,74,67,12,16,6,7,0.8,0.6
2025-09-15T2300,3715A,117.3092,32.9314,蚌埠市,蚌埠田家炳中学,,24,21,22,14,8,76,,82,79,6,12,4,6,0.6,0.4
2025-09-15T2300,1585A,109.8756,40.6532,包头市,市环境监测站,,,51,35,12,15,,,103,,39,32,9,11,0.7,0.7
2025-09-15T2300,1587A,109.9991,40.5842,包头市,包头八中,,42,42,38,12,19,45,,102,73,41,32,7,16,0.5,0.7
2025-09-15T2300,1588A,109.8538,40.6821,包头市,青山宾馆,,,39,31,14,19,,,94,,32,39,11,10,1.0,0.8
2025-09-15T2300,1589A,109.8642,40.6288,包头市,惠龙物流,,42,42,35,18,14,68,,98,75,20,28,10,13,0.6,0.6
2025-09-15T2300,1590A,110.0377,40.5546,包头市,东河鸿龙湾,,,,29,,12,,,73,,,25,,11,,0.8
2025-09-15T2300,3283A,109.9154,40.5685,包头市,滨河大厦,颗粒物(PM10),60,70,34,29,17,16,,106,72,57,25,12,10,0.7,0.6
2025-09-15T2300,3419A,109.9447,40.6261,包头市,包头市委党校,,35,35,30,3,14,26,,109,83,56,29,8,13,0.7,0.8
2025-09-15T2300,3683A,109.8331,40.6576,包头市,昆区政府,,50,50,38,14,20,68,,98,80,19,31,13,14,1.0,0.8
2025-09-15T2300,1930A,107.185,34.3063,宝鸡市,庙沟村,,21,21,42,14,19,63,,110,83,12,12,5,5,0.4,0.5
2025-09-15T2300,1931A,107.0708,34.3017,宝鸡市,竹园沟,,26,26,39,11,20,48,,98,62,8,10,8,8,0.3,0.4
2025-09-15T2300,1932A,107.1906,34.3672,宝鸡市,三陆医院,,19,17,47,8,27,60,,124,100,25,19,6,7,0.6,0.8
2025-09-15T2300,1933A,107.1431,34.3547,宝鸡市,监测站,,22,21,47,13,22,70,,119,92,9,14,4,4,0.6,0.7
2025-09-15T2300,1934A,107.1186,34.3739,宝鸡市,技工学校,,24,12,48,3,27,76,,122,97,6,12,6,7,0.4,0.6
2025-09-15T2300,1936A,107.2058,34.3497,宝鸡市,文理学院,,22,,46,14,25,70,,126,102,14,15,7,8,0.4,0.5
2025-09-15T2300,1937A,107.2386,34.3622,宝鸡市,三迪小学,,24,9,48,8,26,74,,128,105,11,18,5,6,0.5,0.6
2025-09-15T2300,4308A,107.3898,34.3601,宝鸡市,陈仓区北开路21号,,22,9,42,7,21,68,,116,93,6,15,6,7,0.3,0.5
2025-09-15T2300,1051A,115.493,38.8632,保定市,游泳馆,,,,,,,,,,,,,,,,
2025-09-15T2300,1052A,115.5213,38.8959,保定市,华电二区,,48,48,55,30,24,51,,74,62,26,28,2,3,0.5,0.3
2025-09-15T2300,1053A,115.4713,38.9108,保定市,接待中心,颗粒物(PM10),55,59,56,34,24,43,,69,58,20,26,3,4,0.5,0.4
2025-09-15T2300,1054A,115.4612,38.8416,保定市,地表水厂,,31,25,68,8,20,99,,89,85,8,26,5,7,0.2,0.4
2025-09-15T2300,3581A,115.31981,38.95208,保定市,满城区生态环境分局,颗粒物(PM10),51,51,64,24,22,54,,100,83,25,31,3,3,0.4,0.4
2025-09-15T2300,3582A,115.47694,38.76408,保定市,清苑区第二中学,,32,30,79,16,24,102,,89,88,4,24,2,5,0.2,0.4
2025-09-15T2300,3583A,115.62909,39.02311,保定市,徐水物探局,,45,45,56,27,25,16,,70,56,33,29,4,6,0.6,0.5
2025-09-15T2300,4004A,115.4202,38.8656,保定市,双鹰农机,,32,32,62,22,23,90,,87,80,7,26,3,6,0.2,0.3
2025-09-15T2300,4034A,115.5150,38.8590,保定市,植保所站,颗粒物(PM10),53,55,67,26,26,77,,78,73,16,30,8,6,0.3,0.4
2025-09-15T2300,2594A,99.1678,25.1081,保山市,市环境监测站,,29,,14,20,16,14,,47,31,6,8,5,6,0.4,0.4
2025-09-15T2300,2595A,99.1711,25.1328,保山市,市环保局,,15,15,14,8,11,23,,53,36,3,5,8,8,0.1,0.2
2025-09-15T2300,1866A,109.2262,21.588,北海市,牛尾岭水库,,16,16,19,3,6,26,,40,34,7,7,3,16,0.5,0.7
2025-09-15T2300,1867A,109.1436,21.4086,北海市,海滩公园,,19,15,16,3,3,60,,59,59,4,5,4,4,0.5,0.5
2025-09-15T2300,1868A,109.0981,21.4661,北海市,新市环保局,,20,,14,14,12,55,,48,48,6,7,3,3,0.5,0.5
2025-09-15T2300,1869A,109.1778,21.5233,北海市,北海工业园,,14,14,16,7,8,37,,45,39,12,10,4,8,0.5,0.4
2025-09-15T2300,3400A,109.1911,21.4415,北海市,龙潭自来水厂,,19,13,11,13,10,59,,57,57,4,7,5,5,0.5,0.4
2025-09-15T2300,1001A,116.3621,39.8784,北京市,万寿西宫,,19,19,22,9,8,50,,49,49,22,30,3,3,0.5,0.5
2025-09-15T2300,1002A,116.2202,40.2915,北京市,定陵,,24,24,14,13,6,26,,60,46,2,3,5,6,0.5,0.4
2025-09-15T2300,1003A,116.4174,39.9289,北京市,东四,,22,22,22,8,6,43,,48,47,24,25,4,4,0.6,0.5
2025-09-15T2300,1004A,116.4072,39.8863,北京市,天坛,,21,21,23,9,9,42,,42,42,21,28,3,4,0.5,0.5
2025-09-15T2300,1005A,116.462,39.9365,北京市,农展馆,,18,18,18,10,8,34,,41,40,19,22,3,3,0.5,0.4
2025-09-15T2300,1006A,116.3392,39.9295,北京市,官园,,24,24,24,10,8,46,,54,54,18,26,5,5,0.7,0.5
2025-09-15T2300,1007A,116.2878,39.9611,北京市,海淀万柳,,26,26,23,11,8,16,,45,42,40,34,4,4,0.6,0.5
2025-09-15T2300,1008A,116.6636,40.135,北京市,顺义新城,,,,,,,,,,,,,,,,
2025-09-15T2300,1009A,116.6275,40.3275,北京市,怀柔镇,,15,15,10,8,5,37,,53,49,11,15,1,1,0.6,0.5
2025-09-15T2300,1010A,116.2296,40.217,北京市,昌平镇,,32,32,15,16,6,19,,51,44,20,17,2,3,0.7,0.6
2025-09-15T2300,1011A,116.3966,39.9821,北京市,奥体中心,,19,19,15,9,6,37,,49,48,22,22,4,4,0.4,0.4
2025-09-15T2300,3281A,115.9718,40.4529,北京市,延庆夏都,,33,33,16,18,7,58,,70,70,10,12,3,3,0.5,0.4
2025-09-15T2300,3418A,116.8336,40.4095,北京市,密云新城,,13,13,8,3,3,37,,48,47,4,7,3,3,0.4,0.3
2025-09-15T2300,3671A,116.088,39.9726,北京市,门头沟三家店,,34,34,26,17,9,18,,38,29,28,22,2,3,0.6,0.5
2025-09-15T2300,3672A,116.1541,39.8204,北京市,丰台云岗,,33,33,27,14,9,17,,32,29,32,24,2,2,0.6,0.5
2025-09-15T2300,3673A,116.6804,39.9081,北京市,通州东关,,29,29,32,10,8,16,,45,39,45,32,4,4,0.6,0.5
2025-09-15T2300,3674A,115.9577,39.7603,北京市,房山燕山,,48,48,34,22,14,18,,52,30,29,22,2,2,0.6,0.5
2025-09-15T2300,3675A,116.4672,39.7733,北京市,大兴旧宫,,34,34,26,14,9,16,,37,31,38,34,3,4,0.7,0.6
2025-09-15T2300,3694A,115.986,40.4563,北京市,延庆石河营,,35,35,17,19,7,47,,64,63,6,7,2,2,0.4,0.4
2025-09-15T2300,3695A,116.6151,40.3053,北京市,怀柔新城,,15,14,9,10,5,39,,54,50,7,10,3,4,0.5,0.4
2025-09-15T2300,3696A,116.2545,39.8768,北京市,丰台小屯,,27,27,26,10,8,31,,43,42,24,30,2,2,0.7,0.7
2025-09-15T2300,3697A,116.84,40.3844,北京市,密云镇,,18,18,10,8,4,18,,46,42,26,14,4,4,0.6,0.5
2025-09-15T2300,4182A,116.1942,39.9158,北京市,八角北路9号,,33,33,24,14,8,38,,44,41,16,21,2,3,0.3,0.3
2025-09-15T2300,4194A,117.0790,40.1518,北京市,洳河巡河路,,29,29,17,13,6,21,,46,36,13,11,1,1,0.6,0.5
2025-09-15T2300,1761A,123.8275,41.3064,本溪市,大峪,,31,31,23,3,6,9,,77,43,40,20,6,7,0.6,0.6
2025-09-15T2300,1762A,123.7567,41.3325,本溪市,溪湖,颗粒物(PM10),56,62,41,16,13,26,,82,54,36,23,6,7,1.1,0.9
2025-09-15T2300,1763A,123.7169,41.3094,本溪市,彩屯,颗粒物(PM10),58,66,40,37,25,2,,71,35,44,29,7,8,1.8,0.9
2025-09-15T2300,1764A,123.7669,41.2864,本溪市,东明,颗粒物(PM10),56,62,33,13,9,77,,78,55,23,21,8,7,0.9,0.8
2025-09-15T2300,1765A,123.7992,41.2664,本溪市,新立屯,,32,25,20,15,8,102,,66,47,9,18,6,6,0.5,0.5
2025-09-15T2300,1766A,123.8142,41.3472,本溪市,威宁,,43,43,35,13,13,11,,76,40,32,20,5,5,0.6,0.5
2025-09-15T2300,2587A,105.2864,27.3125,毕节市,八中,,32,,30,22,19,13,,72,50,16,9,5,6,0.6,0.5
2025-09-15T2300,2588A,105.31,27.2944,毕节市,师专,,21,21,20,14,17,21,,71,48,21,14,6,7,0.6,0.6
2025-09-15T2300,4263A,105.3688,27.3598,毕节市,工业大道,,18,17,29,12,19,27,,71,50,16,13,7,7,0.7,0.7
2025-09-15T2300,1629A,118.0018,37.3617,滨州市,第二水厂,细颗粒物(PM2.5),83,102,82,61,58,81,,204,172,38,24,4,6,0.9,0.9
2025-09-15T2300,1630A,117.9776,37.393,滨州市,北中新校,细颗粒物(PM2.5),77,78,72,56,50,103,,205,167,29,27,6,8,0.8,0.7
2025-09-15T2300,3514A,117.9378,37.3956,滨州市,中海酒店,细颗粒物(PM2.5),73,80,69,53,48,94,,201,166,25,23,4,6,0.8,0.8
2025-09-15T2300,3515A,117.9378,37.3553,滨州市,开发区一中,细颗粒物(PM2.5),83,102,83,61,58,112,,212,184,24,23,6,8,1.0,0.9
2025-09-15T2300,3516A,118.0917,37.694,滨州市,金海六路,细颗粒物(PM2.5),64,51,79,46,68,81,,203,160,15,18,6,6,0.3,0.4
2025-09-15T2300,4028A,117.9956,37.3753,滨州市,滨州市西街道办事处,细颗粒物(PM2.5),77,90,73,56,54,99,,204,170,26,21,6,6,0.7,0.7
2025-09-15T2300,2311A,115.8072,33.8399,亳州市,污水处理厂,,30,,14,21,17,25,,75,57,11,8,3,5,0.5,0.5
2025-09-15T2300,2312A,115.7789,33.8518,亳州市,三国揽胜宫,,22,22,24,12,17,37,,80,66,15,8,8,5,0.5,0.5
2025-09-15T2300,3332A,115.7633,33.8034,亳州市,亳州学院,,18,11,15,7,19,56,,83,73,10,8,11,8,0.4,0.5
2025-09-15T2300,2693A,82.0485,44.8556,博尔塔拉蒙古自治州,市党校,,36,36,28,16,17,50,,70,67,25,8,12,4,0.1,0
2025-09-15T2300,2694A,82.0806,44.8969,博尔塔拉蒙古自治州,市环保局,,33,33,32,13,12,42,,72,66,30,9,4,4,0.3,0.2
2025-09-15T2300,1071A,116.8842,38.2991,沧州市,沧县城建局,细颗粒物(PM2.5),53,51,63,37,45,114,,152,134,17,19,4,6,0.6,0.7
2025-09-15T2300,1072A,116.8584,38.3254,沧州市,电视转播站,颗粒物(PM10),63,75,73,44,43,82,,143,128,29,15,3,5,0.6,0.6
2025-09-15T2300,1073A,116.8709,38.3228,沧州市,市环保局,颗粒物(PM10),67,83,77,42,45,74,,147,127,28,16,5,6,0.4,0.5
2025-09-15T2300,3324A,116.8136,38.3004,沧州市,河北水利电力学院,细颗粒物(PM2.5),70,75,65,51,45,66,,152,127,40,13,7,9,0.5,0.5
2025-09-15T2300,2622A,97.1806,31.1273,昌都市,昌都监测站,,,,11,59,10,,,83,,10,7,4,4,0.3,0.3
2025-09-15T2300,3719A,97.1714,31.1406,昌都市,昌都会议中心,,15,8,12,6,14,48,,96,79,8,5,3,4,0.2,0.1
2025-09-15T2300,2690A,88.1236,43.8886,昌吉回族自治州,天山天池,,15,15,7,7,2,41,,65,61,8,8,6,6,0.4,0.4
2025-09-15T2300,2692A,87.2717,44.0297,昌吉回族自治州,新区政务中心,,22,19,20,13,11,68,,89,85,9,22,8,9,0.4,0.4
2025-09-15T2300,3613A,87.3095,44.0142,昌吉回族自治州,亚心广场,,22,22,29,9,6,66,,90,86,15,26,7,9,0.4,0.4
2025-09-15T2300,1120A,125.2863,43.9027,长春市,客车厂,,25,25,14,9,7,56,,62,53,18,14,5,5,0.3,0.2
2025-09-15T2300,1121A,125.2841,43.8463,长春市,邮电学院,,20,20,16,7,6,51,,64,54,15,14,5,5,0.3,0.3
2025-09-15T2300,1122A,125.3716,43.8772,长春市,劳动公园,,26,26,18,7,4,48,,64,55,23,14,9,8,0.3,0.3
2025-09-15T2300,1123A,125.3297,43.8805,长春市,园林处,,19,17,12,6,3,58,,63,58,19,14,6,6,0.5,0.5
2025-09-15T2300,1124A,125.4605,43.79,长春市,净月潭,,13,13,14,9,2,34,,63,44,8,10,4,4,0.3,0.3
2025-09-15T2300,1125A,125.7194,43.515,长春市,甩湾子,,,,,,,,,,,,,,,,
2025-09-15T2300,1126A,125.3863,43.8447,长春市,经开区环卫处,,19,19,15,6,5,42,,66,50,24,15,6,5,0.5,0.4
2025-09-15T2300,1127A,125.245,43.7783,长春市,高新区管委会,,27,27,16,3,5,47,,63,43,12,13,6,6,0.4,0.3
2025-09-15T2300,1128A,125.1761,43.8325,长春市,岱山公园,,25,25,13,9,5,20,,59,35,46,17,4,4,0.3,0.2
2025-09-15T2300,4281A,125.3346,43.9164,长春市,北亚泰大街1068号,,19,19,18,11,7,49,,60,51,23,15,8,8,0.3,0.3
2025-09-15T2300,1335A,113.0833,28.2325,长沙市,经开区环保局,,40,40,34,24,19,81,,120,96,18,14,6,7,0.4,0.4
2025-09-15T2300,1336A,112.8872,28.2189,长沙市,高开区环保局,,41,41,39,20,18,81,,117,105,11,11,6,6,0.3,0.3
2025-09-15T2300,1337A,113.0792,28.2053,长沙市,马坡岭,,45,45,36,25,21,74,,129,101,19,11,5,6,0.5,0.5
2025-09-15T2300,1338A,112.9394,28.19,长沙市,湖南师范大学,,42,29,36,29,18,58,,127,95,20,14,5,6,0.7,0.6
2025-09-15T2300,1339A,113.0178,28.1322,长沙市,雨花区环保局,,42,42,34,19,17,80,,117,98,12,11,7,8,0.5,0.5
2025-09-15T2300,1340A,112.9792,28.2597,长沙市,伍家岭,,38,38,36,18,15,80,,123,101,15,13,4,4,0.3,0.3
2025-09-15T2300,1341A,113.0014,28.1944,长沙市,火车新站,,42,42,37,24,19,76,,120,96,15,14,7,8,0.5,0.4
2025-09-15T2300,1342A,112.9844,28.1178,长沙市,天心区环保局,,38,34,32,26,19,76,,118,100,16,13,6,6,0.2,0.3
2025-09-15T2300,1343A,112.8908,28.1308,长沙市,湖南中医药大学,细颗粒物(PM2.5),53,48,37,37,24,54,,117,93,25,13,5,5,0.2,0.2
2025-09-15T2300,1344A,112.9581,28.3611,长沙市,沙坪,,41,41,35,24,17,67,,139,103,14,14,4,5,0.5,0.5
2025-09-15T2300,1727A,113.1147,36.1547,长治市,清华站,,27,27,42,9,15,59,,88,76,10,19,8,9,0.9,0.8
2025-09-15T2300,1730A,113.0886,36.2125,长治市,审计局,,21,18,37,12,17,66,,91,82,11,18,7,7,0.6,1
2025-09-15T2300,1731A,113.0844,36.1856,长治市,长治八中,,27,27,49,17,25,62,,90,80,8,12,9,10,0.6,0.9
2025-09-15T2300,2845A,113.1569,36.1911,长治市,德盛苑,,20,20,39,7,16,63,,102,84,7,10,8,9,0.5,1
2025-09-15T2300,3568A,113.06,36.0464,长治市,向阳小学,,,,59,,23,,,64,,,12,,6,,0.7
2025-09-15T2300,3569A,112.8792,36.3144,长治市,屯留一中,,44,44,40,25,26,54,,89,78,13,14,9,8,0.8,1.2
2025-09-15T2300,4189A,113.1131,36.19948,长治市,英华南巷50号,,26,26,47,12,18,66,,89,79,8,17,9,9,0.8,1.4
2025-09-15T2300,4190A,113.2367,36.3344,长治市,学府街1号,,38,28,49,26,28,64,,119,89,12,13,1,2,0.7,0.9
2025-09-15T2300,1854A,111.6975,28.9703,常德市,市二中,,42,40,32,29,24,67,,108,94,12,9,5,5,0.8,0.6
2025-09-15T2300,1857A,111.7158,29.1456,常德市,白鹤山,,,,,,,,,,,,,,,,
2025-09-15T2300,3138A,111.7153,29.0289,常德市,武陵区永安,,43,43,33,27,21,82,,104,93,9,7,5,5,0.8,0.8
2025-09-15T2300,3139A,111.6892,28.9881,常德市,鼎城区玉霞,,43,43,32,27,23,68,,106,95,10,7,2,3,0.6,0.6
2025-09-15T2300,3140A,111.6625,29.0531,常德市,武陵区长庚,,37,37,30,25,21,94,,113,103,7,8,6,6,0.8,0.8
2025-09-15T2300,1196A,119.9633,31.762,常州市,市监测站,,46,40,25,32,15,65,,143,96,37,18,10,10,0.7,0.8
2025-09-15T2300,1200A,119.9468,31.7069,常州市,武进监测站,,47,47,23,26,12,83,,124,102,29,14,12,10,1.3,0.6
2025-09-15T2300,1201A,119.9255,31.9087,常州市,安家,,46,46,29,28,18,66,,174,98,35,27,10,11,0.7,0.8
2025-09-15T2300,3002A,119.9805,31.8174,常州市,行政中心,颗粒物(PM10),53,56,26,32,17,70,,148,102,41,21,4,3,1.2,0.8
2025-09-15T2300,3003A,120.0522,31.7748,常州市,经开区,,49,49,32,24,17,74,,139,99,40,26,5,6,1.0,1.2
2025-09-15T2300,3010A,119.9025,31.7964,常州市,钟楼,,42,,21,29,12,92,,136,104,26,17,7,7,0.7,0.7
2025-09-15T2300,3429A,119.8598,31.7066,常州市,武进经发区,颗粒物(PM10),51,52,21,26,11,87,,131,107,23,14,10,10,0.7,0.7
2025-09-15T2300,3430A,119.5826,31.7245,常州市,金坛城区,,42,42,18,26,11,106,,124,108,16,12,10,9,1.4,0.6
2025-09-15T2300,2220A,120.4318,41.5881,朝阳市,西梁,,41,41,28,25,13,8,,62,29,33,22,4,7,0.8,0.7
2025-09-15T2300,2221A,120.4521,41.5646,朝阳市,河畔小区,,23,23,21,9,7,24,,68,43,17,14,6,8,0.6,0.4
2025-09-15T2300,2222A,120.4176,41.5648,朝阳市,八里堡,,34,34,32,17,10,11,,66,44,31,22,7,10,0.6,0.6
2025-09-15T2300,2223A,120.3806,41.5969,朝阳市,农业园区,,18,14,21,12,10,4,,63,18,26,17,4,7,0.4,0.5
2025-09-15T2300,1705A,116.6367,23.6719,潮州市,西园路,,38,38,20,16,12,25,,65,46,15,11,7,4,0.4,0.4
2025-09-15T2300,3026A,116.6183,23.6608,潮州市,市政府,,30,30,22,16,11,23,,58,43,15,10,11,8,0.7,0.5
2025-09-15T2300,4036A,116.6461,23.6761,潮州市,金山,,22,22,21,13,12,20,,63,41,12,9,7,6,0.6,0.5
2025-09-15T2300,2472A,113.0073,25.9061,郴州市,马头岭,,40,38,35,28,19,43,,127,86,22,12,5,5,0.5,0.4
2025-09-15T2300,2473A,113.0116,25.8226,郴州市,市职中,,45,45,29,25,22,31,,122,81,25,10,4,4,0.6,0.5
2025-09-15T2300,2475A,113.0383,25.8071,郴州市,市审计局,,36,30,28,25,20,84,,117,91,11,11,6,7,0.5,0.5
2025-09-15T2300,2476A,113.0348,25.7759,郴州市,市环保局,,35,31,33,24,20,85,,118,95,13,11,5,5,0.3,0.4
2025-09-15T2300,4252A,113.0138,25.8011,郴州市,好美居路49号,,,,26,29,17,,,124,108,13,12,4,6,0.4,0.4
2025-09-15T2300,1431A,103.9728,30.7236,成都市,金泉两河,细颗粒物(PM2.5),58,62,58,41,47,101,,143,121,17,21,4,4,0.7,0.8
2025-09-15T2300,1432A,104.176,30.6872,成都市,十里店,颗粒物(PM10),70,90,62,47,38,35,,130,102,56,30,3,3,0.8,0.7
2025-09-15T2300,1433A,104.079,30.5706,成都市,三瓦窑,颗粒物(PM10),51,52,39,28,24,20,,133,94,78,38,3,3,0.8,0.7
2025-09-15T2300,1434A,104.1114,30.63,成都市,沙河铺,,44,44,40,24,23,78,,98,92,22,19,2,3,0.9,0.9
2025-09-15T2300,1437A,104.0786,30.6531,成都市,君平街,颗粒物(PM10),66,81,71,38,46,56,,141,115,43,24,2,2,1.0,0.9
2025-09-15T2300,1438A,103.613,31.0283,成都市,灵岩寺,,,,,,,,,,,,,,,,
2025-09-15T2300,2880A,104.0239,30.65639,成都市,大石西路,细颗粒物(PM2.5),72,83,62,52,47,57,,122,99,43,28,4,3,1.0,0.9
2025-09-15T2300,3136A,104.2725,30.5589,成都市,龙泉驿区区政府,,28,27,20,17,10,89,,126,116,14,15,5,5,0.5,0.6
2025-09-15T2300,3357A,104.0106,30.6931,成都市,金博路,细颗粒物(PM2.5),72,70,67,52,46,78,,132,106,28,28,7,7,0.7,0.7
2025-09-15T2300,3359A,104.0578,30.5225,成都市,华阳,,45,34,37,31,29,75,,125,104,29,25,2,1,0.8,0.7
2025-09-15T2300,3488A,104.3853,30.7453,成都市,青白江技师分院,,28,23,29,19,20,64,,112,98,22,19,2,5,0.7,0.7
2025-09-15T2300,3489A,104.0789,30.4072,成都市,科学城,,48,48,31,28,20,13,,115,94,52,17,4,4,0.9,0.8
2025-09-15T2300,4011A,103.8506,30.6947,成都市,光华大道三段,,41,41,65,26,50,121,,143,128,16,24,2,3,0.7,0.9
2025-09-15T2300,4224A,104.2433,30.5353,成都市,鲸龙路1057号,,39,39,29,24,19,50,,123,97,47,27,4,4,0.6,0.6
2025-09-15T2300,1062A,117.9531,40.9081,承德市,铁路,,14,14,15,3,4,19,,31,28,17,16,2,1,0.3,0.2
2025-09-15T2300,1063A,117.9392,40.9763,承德市,中国银行,,26,26,14,3,3,11,,34,23,16,12,1,1,0.4,0.3
2025-09-15T2300,1064A,117.9503,40.928,承德市,开发区,,21,21,22,14,10,26,,36,32,18,18,3,3,0.3,0.2
2025-09-15T2300,1066A,117.9268,41.0026,承德市,离宫,,19,19,13,6,7,6,,33,16,8,9,3,4,0.4,0.3
2025-09-15T2300,4274A,117.7994,40.9605,承德市,滨河大街98号,,15,14,13,10,6,3,,39,22,13,12,3,3,0.3,0.2
2025-09-15T2300,2314A,117.47,30.6618,池州市,池州学院,,31,31,22,17,9,69,,127,117,9,10,6,7,0.7,0.6
2025-09-15T2300,3237A,117.4918,30.6617,池州市,展览馆,,32,32,21,15,8,58,,126,108,11,11,5,6,0.7,0.7
2025-09-15T2300,3333A,117.5627,30.695,池州市,第八中学,,30,30,24,15,8,62,,124,103,8,10,6,7,0.9,0.7
2025-09-15T2300,3334A,117.5038,30.6243,池州市,第十二中学,,33,33,24,22,10,49,,125,99,22,16,5,5,1.1,0.9
2025-09-15T2300,1744A,118.9233,42.2816,赤峰市,松山一中,,26,14,14,6,3,83,,56,56,7,19,5,8,0.5,0.5
2025-09-15T2300,1745A,118.9576,42.2728,赤峰市,哈达街,,26,18,12,7,4,83,,54,54,12,18,11,13,0.4,0.4
2025-09-15T2300,1746A,118.8788,42.2554,赤峰市,天义路,,24,,6,6,5,76,,55,55,7,15,7,8,0.5,0.5
2025-09-15T2300,3058A,119.2658,42.0353,赤峰市,银河街,,16,12,24,11,13,35,,47,37,8,12,10,17,0.7,0.7
2025-09-15T2300,3286A,118.9359,42.3147,赤峰市,桥北物流园区,,20,14,17,3,7,61,,37,37,4,19,7,9,0.6,0.6
2025-09-15T2300,2521A,107.3476,22.4136,崇左市,市环保局江州分局,,14,14,19,6,8,26,,56,38,6,8,3,4,0.6,0.7
2025-09-15T2300,4256A,107.3750,22.3736,崇左市,石景林东路7号,,8,6,15,3,7,25,,55,39,12,10,4,4,0.4,0.4
2025-09-15T2300,2298A,118.3093,32.3153,滁州市,老年大学,,42,42,27,26,17,50,,121,84,14,8,5,6,0.6,0.5
2025-09-15T2300,2299A,118.3244,32.2786,滁州市,人大宾馆,,33,33,13,21,12,37,,123,88,19,9,4,5,0.6,0.5
2025-09-15T2300,3207A,118.3118,32.3038,滁州市,市政府原办公楼,,43,39,24,30,24,61,,120,84,20,13,7,7,0.7,0.7
2025-09-15T2300,3331A,118.3267,32.2634,滁州市,图书馆,,45,34,17,31,11,53,,122,92,20,10,10,10,0.6,0.6
2025-09-15T2300,2605A,101.5482,25.0441,楚雄彝族自治州,州环境监测站,,11,11,9,7,6,29,,33,32,2,4,6,7,0.5,0.5
2025-09-15T2300,2606A,101.538,25.0492,楚雄彝族自治州,市经济开发区,,18,18,12,12,6,29,,33,32,5,6,7,7,0.9,0.8
2025-09-15T2300,2548A,107.5277,31.2827,达州市,达州职业技术学院,,,59,50,32,24,,,61,,22,14,8,7,0.3,0.5
2025-09-15T2300,2549A,107.5086,31.2186,达州市,市环境监测站,,30,30,41,14,15,14,,76,52,37,23,6,7,0.4,0.5
2025-09-15T2300,2550A,107.4988,31.2132,达州市,凤凰小区,,36,36,40,14,19,21,,81,62,34,18,5,6,0.5,0.5
2025-09-15T2300,2551A,107.5082,31.1986,达州市,达县机关宾馆,,44,44,37,8,9,18,,75,54,37,22,5,6,0.3,0.4
2025-09-15T2300,2552A,107.4644,31.2124,达州市,市政中心,,41,41,44,19,17,36,,83,64,20,19,3,4,0.3,0.4
2025-09-15T2300,2614A,100.1542,25.7054,大理白族自治州,大理市环境监测站,,28,,7,19,14,47,,49,43,5,7,4,4,0.6,0.7
2025-09-15T2300,2615A,100.2171,25.5811,大理白族自治州,大理古城,,23,16,15,16,8,30,,63,48,10,7,6,6,0.6,0.6
2025-09-15T2300,1109A,121.612,38.9741,大连市,甘井子,,22,9,42,3,29,68,,137,108,14,16,7,8,0.1,0.4
2025-09-15T2300,1110A,121.565,38.9511,大连市,周水子,,21,19,40,3,28,66,,130,101,10,16,4,5,0.3,0.5
2025-09-15T2300,1111A,121.5637,38.8845,大连市,星海三站,,20,20,46,3,32,63,,154,109,19,17,4,5,0.2,0.4
2025-09-15T2300,1112A,121.6302,38.9117,大连市,青泥洼桥,,25,6,40,3,32,79,,145,112,11,12,8,8,0.5,0.6
2025-09-15T2300,1113A,121.6251,38.8638,大连市,傅家庄,,19,16,33,3,27,60,,142,103,16,11,10,10,0.4,0.6
2025-09-15T2300,1114A,121.5213,38.8661,大连市,七贤岭,,20,18,38,3,29,63,,153,112,13,11,6,6,0.4,0.6
2025-09-15T2300,1115A,121.2529,38.8061,大连市,旅顺,,20,12,33,3,25,62,,148,108,9,11,8,8,0.3,0.5
2025-09-15T2300,1116A,121.7485,39.1311,大连市,金州,,23,6,41,3,28,73,,147,108,10,12,10,10,0.2,0.4
2025-09-15T2300,1117A,121.7811,39.0496,大连市,开发区,,20,20,42,3,29,62,,128,97,17,17,7,8,0.4,0.6
2025-09-15T2300,1118A,121.9762,39.0631,大连市,双D港,,21,13,32,6,22,67,,123,98,13,8,8,8,0.4,0.6
2025-09-15T2300,1789A,124.81117,46.03138,大庆市,大同区,,17,17,17,8,5,37,,48,38,10,8,9,9,0.7,0.7
2025-09-15T2300,1790A,125.129,46.533,大庆市,龙凤区,,27,27,26,13,14,33,,52,35,14,15,6,7,0.7,1.3
2025-09-15T2300,1791A,124.902,46.408,大庆市,红岗区,,29,29,26,10,15,44,,60,44,15,10,6,6,0.5,0.4
2025-09-15T2300,1792A,125.153,46.586,大庆市,萨尔图区,,23,23,21,12,6,36,,53,39,22,12,9,9,0.8,0.6
2025-09-15T2300,1793A,124.9042,46.6215,大庆市,让胡路区,,20,20,20,13,11,36,,55,44,20,8,6,6,0.6,0.5
2025-09-15T2300,3481A,125.141,46.634,大庆市,萨区政府监测点,,25,25,19,7,2,51,,57,49,12,8,8,8,0.4,0.3
2025-09-15T2300,1721A,113.3819,40.1097,大同市,果树场,,32,30,28,22,13,40,,90,59,24,27,4,5,0.5,0.5
2025-09-15T2300,1723A,113.2994,40.0758,大同市,云冈宾馆,颗粒物(PM10),51,52,50,26,14,61,,110,85,26,27,5,5,1.0,1.1
2025-09-15T2300,1724A,113.3444,40.0917,大同市,大同大学,,37,37,37,25,15,43,,109,87,33,24,4,7,0.8,0.9
2025-09-15T2300,1725A,113.2661,40.1269,大同市,安家小村,,33,33,41,15,16,35,,112,81,42,28,3,4,0.9,1.4
2025-09-15T2300,1726A,113.2711,40.0844,大同市,教育学院,,43,36,44,30,20,58,,108,82,25,33,6,7,0.8,1.1
2025-09-15T2300,3282A,113.3397,40.0597,大同市,大同市卫生学校,,43,43,33,22,14,47,,107,82,32,26,6,7,1.0,0.9
2025-09-15T2300,3565A,113.1367,40.1122,大同市,云冈站,,33,33,49,20,21,67,,111,89,16,19,5,5,0.6,0.6
2025-09-15T2300,3566A,113.1186,40.2556,大同市,图书馆,,34,34,30,18,17,75,,103,81,8,12,4,4,0.7,0.6
2025-09-15T2300,3567A,113.5931,40.0461,大同市,区一中,,35,27,25,24,13,45,,120,95,26,11,4,5,0.6,0.5
2025-09-15T2300,4199A,113.2798,40.0997,大同市,魏都大道141号,,37,37,40,21,18,43,,112,84,36,28,3,4,0.8,1.1
2025-09-15T2300,2269A,124.1069,50.4097,大兴安岭地区,科技局,,32,32,22,19,12,10,,51,32,8,4,8,6,0.2,0.2
2025-09-15T2300,3663A,124.1164,50.4278,大兴安岭地区,红旗社区,,17,17,8,3,3,6,,53,30,10,4,4,4,0.2,0.2
2025-09-15T2300,1600A,124.3303,40.0625,丹东市,江湾东路,,24,20,29,10,17,75,,129,105,8,13,7,9,0.6,0.7
2025-09-15T2300,1601A,124.4256,40.1503,丹东市,临江后街,,47,47,51,15,17,60,,126,94,10,13,6,7,0.7,0.8
2025-09-15T2300,1602A,124.3933,40.1461,丹东市,元宝山,,36,36,33,18,13,69,,125,104,10,11,6,6,0.9,0.8
2025-09-15T2300,1603A,124.3633,40.1092,丹东市,民主桥,,25,25,32,10,14,69,,132,104,7,12,6,7,0.6,0.6
2025-09-15T2300,3541A,109.5726,19.5167,儋州市,第一中学子站,,16,16,12,9,6,32,,37,37,3,3,6,7,0.3,0.4
2025-09-15T2300,3542A,109.5567,19.5187,儋州市,东坡学校子站,,16,16,11,8,5,33,,39,39,5,4,4,5,0.3,0.2
2025-09-15T2300,2616A,98.5842,24.428,德宏傣族景颇族自治州,德宏州监测站,,25,25,15,11,8,8,,42,22,10,8,7,8,0.7,0.6
2025-09-15T2300,3677A,98.5881,24.4368,德宏傣族景颇族自治州,芒市人民政府综合楼,,28,28,21,3,7,9,,39,21,7,7,6,7,0.5,0.4
2025-09-15T2300,1901A,104.4239,31.1208,德阳市,东山公园,颗粒物(PM10),86,121,48,49,21,86,,112,102,11,12,5,6,0.8,0.7
2025-09-15T2300,1902A,104.3826,31.1317,德阳市,西小区,,36,32,39,25,24,75,,121,106,20,23,1,1,0.7,0.8
2025-09-15T2300,1904A,104.3553,31.1091,德阳市,耐火材料厂,,41,41,47,24,27,61,,134,116,29,24,3,3,0.8,0.9
2025-09-15T2300,3639A,104.4019,31.1244,德阳市,市教育局,,44,44,37,25,22,62,,117,98,28,20,4,4,0.8,0.8
2025-09-15T2300,1622A,116.3032,37.4674,德州市,儿童乐园,,32,29,44,22,31,102,,135,121,15,13,9,11,0.7,0.8
2025-09-15T2300,1624A,116.2991,37.4451,德州市,监理站,,36,36,41,19,24,97,,131,118,19,17,14,16,0.5,0.6
2025-09-15T2300,3066A,116.2721,37.4379,德州市,九衢泉纯净水厂,颗粒物(PM10),54,58,49,29,31,28,,120,96,71,20,19,19,0.7,0.7
2025-09-15T2300,3371A,116.3728,37.4403,德州市,开发区人民医院,,36,36,44,22,25,75,,124,107,24,16,9,10,0.6,0.7
2025-09-15T2300,3511A,116.5652,37.3319,德州市,陵城艺术中心,,31,31,45,14,24,87,,133,121,23,19,9,9,0.6,1.1
2025-09-15T2300,4292A,116.3525,37.4209,德州市,新河东路,,42,39,48,29,31,45,,122,89,38,23,8,9,0.9,0.9
2025-09-15T2300,2621A,99.7056,27.8317,迪庆藏族自治州,迪庆州站,,27,27,24,18,16,74,,91,83,6,6,7,7,0.4,0.4
2025-09-15T2300,3180A,99.7136,27.8094,迪庆藏族自治州,质量技术监督局,,,19,24,12,10,,,92,,8,9,6,7,0.4,0.4
2025-09-15T2300,4257A,104.6092,35.5962,定西市,将台街,颗粒物(PM10),200,349,102,126,36,100,,108,97,9,13,8,7,0.5,0.5
2025-09-15T2300,4309A,104.6159,35.5701,定西市,正龙路62号,颗粒物(PM10),206,354,100,110,36,90,,96,86,5,8,5,5,0.2,0.2
2025-09-15T2300,1389A,113.7547,23.0494,东莞市,莞城梨川,,,26,14,13,8,,,132,72,33,21,6,5,0.5,0.5
2025-09-15T2300,1390A,113.7944,23.0128,东莞市,东城石井,,27,27,33,12,14,2,,128,44,30,23,5,6,0.6,0.5
2025-09-15T2300,1391A,113.7383,22.9658,东莞市,南城西平,,27,27,28,13,14,5,,133,56,44,34,4,4,0.5,0.4
2025-09-15T2300,3319A,113.7338,23.0381,东莞市,万江金泰,,24,24,27,11,14,18,,134,60,28,22,6,6,0.6,0.6
2025-09-15T2300,3626A,113.7533,23.0202,东莞市,南城元岭,,21,21,26,13,12,16,,134,56,31,26,5,5,0.4,0.4
2025-09-15T2300,3627A,113.7875,23.0457,东莞市,东城主山,,29,29,27,15,14,8,,128,50,44,29,9,8,0.5,0.4
2025-09-15T2300,1666A,118.6614,37.4309,东营市,市环保局,,44,44,50,22,30,77,,152,120,19,18,12,13,0.8,0.7
2025-09-15T2300,3036A,118.6904,37.4338,东营市,开发区管委会,,50,50,60,24,35,84,,156,126,18,17,7,9,0.9,0.8
2025-09-15T2300,3365A,118.5719,37.565,东营市,垦利区民丰路,,39,39,62,22,36,76,,159,120,20,19,5,6,0.7,0.8
2025-09-15T2300,3498A,118.5055,37.8612,东营市,河口城区,,39,39,53,17,29,90,,180,148,12,12,5,7,0.9,1
2025-09-15T2300,3646A,118.4978,37.4623,东营市,胜利站,,49,49,57,19,31,64,,155,119,31,25,6,7,0.6,0.8
2025-09-15T2300,3734A,118.35,37.26,东营市,理想之城,,44,44,51,29,35,61,,152,110,35,27,5,7,0.7,0.8
2025-09-15T2300,1591A,110.0023,39.8129,鄂尔多斯市,综合楼,,41,41,51,9,15,96,,116,105,13,19,5,7,0.3,0.4
2025-09-15T2300,1592A,109.9486,39.8261,鄂尔多斯市,巴音孟克林场办事处,颗粒物(PM10),54,58,62,14,18,61,,121,100,40,23,6,8,0.5,0.6
2025-09-15T2300,1593A,109.7736,39.5986,鄂尔多斯市,康泽苑,,44,44,65,14,18,59,,114,93,18,22,6,6,0.3,0.4
2025-09-15T2300,1594A,109.8119,39.5989,鄂尔多斯市,华泰汽车城,,48,48,62,19,22,26,,116,84,42,27,6,6,0.6,0.5
2025-09-15T2300,1595A,109.9734,39.7884,鄂尔多斯市,奥林花园,颗粒物(PM10),53,56,62,12,19,77,,116,102,28,26,6,7,0.4,0.6
2025-09-15T2300,2436A,114.8938,30.3994,鄂州市,市政府,颗粒物(PM10),53,55,36,16,9,85,,138,118,13,15,7,8,0.7,0.7
2025-09-15T2300,2437A,114.8989,30.3714,鄂州市,赵家坝,颗粒物(PM10),58,65,40,17,9,84,,140,118,14,11,8,8,0.7,0.8
2025-09-15T2300,3654A,114.8094,30.4089,鄂州市,精准医疗中心,,43,43,31,20,14,102,,137,123,18,23,12,12,0.8,1
2025-09-15T2300,2454A,109.4978,30.2981,恩施土家族苗族自治州,湖北民院,,24,24,16,8,8,7,,39,29,13,10,5,5,0.5,0.5
2025-09-15T2300,2455A,109.4707,30.2798,恩施土家族苗族自治州,州电力总公司,,19,19,15,13,6,3,,35,25,24,10,5,5,0.6,0.5
2025-09-15T2300,3549A,109.5061,30.3772,恩施土家族苗族自治州,龙凤新区,,22,22,17,10,4,18,,51,40,4,5,6,6,0.5,0.5
2025-09-15T2300,2499A,108.3411,21.6158,防城港市,沙万,,28,28,18,7,8,32,,61,52,16,13,5,4,0.5,0.5
2025-09-15T2300,2500A,108.3514,21.7731,防城港市,防城档案局,,11,11,19,7,9,23,,55,43,6,11,3,3,0.4,0.5
2025-09-15T2300,2501A,108.3506,21.6414,防城港市,大海花园,,15,,14,10,5,30,,67,53,8,7,22,6,0.4,0.4
2025-09-15T2300,1371A,113.1294,23.0067,佛山市,湾梁,,25,24,21,17,11,47,,127,101,47,25,6,6,0.7,0.6
2025-09-15T2300,1372A,113.1083,23.0478,佛山市,华材职中,,,,16,,8,,,69,,,12,,5,,0.4
2025-09-15T2300,1373A,113.144,23.0453,佛山市,南海气象局,,21,21,22,13,12,48,,130,100,24,16,5,6,0.8,0.7
2025-09-15T2300,1374A,113.2881,22.8094,佛山市,顺德苏岗,,38,38,22,24,8,25,,107,79,48,21,6,6,0.8,0.6
2025-09-15T2300,1376A,112.8383,22.8678,佛山市,高明孔堂,,34,34,21,12,9,61,,150,128,19,12,3,3,0.4,0.3
2025-09-15T2300,1377A,112.8836,23.1588,佛山市,三水监测站,,20,17,23,9,16,39,,145,104,39,22,6,7,0.5,0.4
2025-09-15T2300,1378A,112.867,23.185,佛山市,三水云东海,,23,23,30,11,17,12,,152,91,46,24,1,3,0.5,0.5
2025-09-15T2300,3625A,113.2544,22.7642,佛山市,容桂街道办,,29,29,15,19,12,39,,107,88,47,20,7,7,0.8,0.6
2025-09-15T2300,1280A,119.3903,26.0543,福州市,鼓山,,,,21,,11,,,88,,,8,,2,,0.3
2025-09-15T2300,1282A,119.2681,26.0504,福州市,师大,,22,22,20,3,8,41,,125,72,10,9,6,5,0.3,0.3
2025-09-15T2300,1283A,119.2984,26.1028,福州市,五四北路,,16,16,23,3,10,40,,122,70,10,10,5,4,0.3,0.3
2025-09-15T2300,1284A,119.2648,26.0768,福州市,杨桥西路,,14,14,20,3,9,40,,126,76,8,6,5,4,0.3,0.3
2025-09-15T2300,1285A,119.317,26.0746,福州市,紫阳,,17,17,25,3,8,36,,111,66,5,12,4,5,0.1,0.2
2025-09-15T2300,3048A,119.5799,26.0936,福州市,九龙,,10,9,15,3,6,29,,102,65,13,6,4,4,0.2,0.3
2025-09-15T2300,3526A,119.5189,25.9664,福州市,吴航,,11,7,20,3,11,34,,106,64,3,8,4,5,0.1,0.2
2025-09-15T2300,1755A,123.7977,41.8491,抚顺市,望花区,,41,41,33,11,14,16,,84,51,36,24,6,7,0.5,0.6
2025-09-15T2300,1756A,123.9161,41.8822,抚顺市,顺城区,,18,18,23,8,11,25,,78,53,29,21,6,6,0.5,0.5
2025-09-15T2300,1757A,124.0436,41.8611,抚顺市,东洲区,,10,10,16,6,8,16,,66,48,20,10,4,5,0.3,0.3
2025-09-15T2300,1758A,123.9247,41.8642,抚顺市,新抚区,,39,39,26,7,10,10,,68,40,33,19,6,7,0.6,0.7
2025-09-15T2300,1759A,124.0972,41.8961,抚顺市,大伙房水库,,13,8,12,6,7,22,,64,50,25,13,9,8,0.5,0.5
2025-09-15T2300,1760A,123.7086,41.8391,抚顺市,沈抚新城,,41,41,32,27,13,2,,87,52,52,25,11,10,1.7,1
2025-09-15T2300,2376A,116.2127,28.0814,抚州市,桐源党溪,,32,26,29,22,14,24,,91,61,5,3,5,6,0.6,0.6
2025-09-15T2300,2377A,116.3544,27.9831,抚州市,市站,,27,27,27,16,14,69,,101,92,6,9,4,5,0.6,0.6
2025-09-15T2300,2378A,116.3565,27.963,抚州市,血防站,,32,32,30,22,16,63,,96,88,8,10,4,5,0.5,0.6
2025-09-15T2300,2379A,116.3564,28.0007,抚州市,采茶剧团,,31,31,30,21,14,61,,93,85,3,6,6,5,0.6,0.6
2025-09-15T2300,2380A,116.385,27.9647,抚州市,医学分院,,31,31,31,20,15,64,,95,88,4,7,4,4,0.6,0.6
2025-09-15T2300,2207A,121.6094,41.998,阜新市,工业园区,,36,36,27,17,6,2,,80,30,40,25,10,19,0.6,0.6
2025-09-15T2300,2208A,121.6697,42.0279,阜新市,长青街,,29,29,18,11,3,9,,72,33,33,20,12,17,0.5,0.5
2025-09-15T2300,2209A,121.6673,42.0705,阜新市,农业园区,,22,22,20,7,5,48,,72,43,17,16,12,11,0.5,0.5
2025-09-15T2300,2210A,121.6717,42.0224,阜新市,东苑,颗粒物(PM10),56,62,30,12,7,14,,74,37,36,22,13,14,0.6,0.5
2025-09-15T2300,2211A,121.6506,42.0498,阜新市,玉龙新城,,26,26,27,9,4,10,,73,27,31,25,11,16,0.4,0.4
2025-09-15T2300,2301A,115.8277,32.8929,阜阳市,市监测站,,39,39,22,25,11,50,,72,61,26,12,4,4,0.6,0.4
2025-09-15T2300,2303A,115.8554,32.8605,阜阳市,开发区,,47,47,13,21,10,52,,75,66,20,12,7,6,0.5,0.3
2025-09-15T2300,2875A,115.784,32.8892,阜阳市,阜阳职业技术学院,,49,49,17,15,7,61,,79,73,16,10,6,5,0.6,0.4
2025-09-15T2300,3468A,115.7901,32.8613,阜阳市,市规划展馆,,42,42,23,29,11,58,,81,74,17,7,3,3,0.7,0.6
2025-09-15T2300,3469A,115.836,32.9183,阜阳市,枣园社区,,48,45,22,33,14,52,,78,72,27,11,6,5,0.7,0.5
2025-09-15T2300,2669A,102.9099,34.9841,甘南藏族自治州,州政府,,23,,21,16,12,66,,84,70,6,11,5,7,0.2,0.2
2025-09-15T2300,3380A,102.8914,34.9617,甘南藏族自治州,甘肃民族师范学院,,43,43,22,16,14,67,,98,84,19,16,9,8,0.3,0.2
2025-09-15T2300,2570A,101.9603,30.0475,甘孜藏族自治州,水桥子,,21,19,24,14,10,65,,81,78,16,13,6,6,0.4,0.3
2025-09-15T2300,3065A,101.9533,29.9972,甘孜藏族自治州,州环保局,,29,29,27,8,8,59,,78,72,10,13,4,4,0.5,0.5
2025-09-15T2300,3414A,115.8347,28.932,赣江新区,桑海产业园,颗粒物(PM10),58,66,28,25,13,17,,138,105,78,23,8,8,0.7,0.5
2025-09-15T2300,2362A,114.9017,25.9149,赣州市,通天岩,,19,15,23,13,12,59,,98,68,3,4,16,17,0.5,0.4
2025-09-15T2300,2363A,114.9367,25.8664,赣州市,地委,,,22,25,14,15,,,108,85,8,11,6,9,0.4,0.5
2025-09-15T2300,2364A,114.9461,25.8481,赣州市,气象台,,31,31,26,9,13,58,,99,77,4,11,6,9,0.4,0.4
2025-09-15T2300,2365A,114.9322,25.8333,赣州市,市图书馆,,35,,25,24,17,52,,96,75,8,10,5,8,0.5,0.5
2025-09-15T2300,2366A,114.8905,25.8471,赣州市,华坚鞋城,,28,22,31,19,18,53,,95,75,7,13,6,7,0.4,0.4
2025-09-15T2300,3109A,115.0093,25.8613,赣州市,赣县区卫计委,,18,,22,12,16,55,,84,65,4,8,6,7,0.3,0.4
2025-09-15T2300,2683A,106.2319,36.1417,固原市,马园,,,,,,,,,,,,,,,,
2025-09-15T2300,2684A,106.2792,36.0022,固原市,监测站,颗粒物(PM10),130,210,214,76,75,47,,98,74,34,17,9,8,0.4,0.3
2025-09-15T2300,2685A,106.2375,36.0211,固原市,新区,颗粒物(PM10),114,178,205,61,62,35,,93,60,39,17,6,6,0.3,0.3
2025-09-15T2300,3522A,106.2177,35.9959,固原市,原州区十五小,颗粒物(PM10),116,182,202,64,71,65,,84,66,23,18,9,10,0.1,0.2
2025-09-15T2300,2543A,106.6308,30.5278,广安市,小平旧居,,,,,,,,,,,,,,,,
2025-09-15T2300,2544A,106.6303,30.4576,广安市,市委,,,41,34,,18,55,,121,95,20,13,8,8,0.7,0.6
2025-09-15T2300,2545A,106.6271,30.4663,广安市,友谊中学,,39,39,29,23,18,65,,131,103,17,14,5,5,0.7,0.7
2025-09-15T2300,2547A,106.6388,30.4551,广安市,广电花园,,38,34,32,26,16,56,,120,91,15,12,5,5,0.7,0.7
2025-09-15T2300,2902A,106.6351,30.4865,广安市,北辰小学,颗粒物(PM10),52,54,36,27,18,63,,129,106,13,10,7,6,0.8,0.7
2025-09-15T2300,2523A,105.8945,32.4535,广元市,黑石坡,,29,29,26,15,14,50,,70,60,3,6,9,10,0.3,0.4
2025-09-15T2300,2524A,105.821,32.4444,广元市,老城,,21,21,13,6,7,8,,88,48,38,23,6,5,0.8,0.8
2025-09-15T2300,2526A,105.8628,32.4287,广元市,监测站,,49,49,16,8,12,3,,75,49,18,14,9,7,0.9,0.9
2025-09-15T2300,3617A,105.8047,32.4166,广元市,经开区,,38,38,39,20,21,0,,70,39,34,26,5,10,0.9,1
2025-09-15T2300,1345A,113.2347,23.1423,广州市,广雅中学,,40,40,26,28,15,15,,144,93,61,26,4,4,0.5,0.5
2025-09-15T2300,1346A,113.2612,23.105,广州市,市五中,,43,43,25,25,13,23,,153,108,60,24,6,5,0.4,0.3
2025-09-15T2300,1348A,113.3478,23.0916,广州市,广东商学院,,43,40,26,30,12,17,,158,105,69,26,5,4,0.4,0.3
2025-09-15T2300,1349A,113.4332,23.1047,广州市,市八十六中,,37,37,24,25,15,6,,148,75,67,45,4,5,0.8,0.6
2025-09-15T2300,1350A,113.3505,22.9483,广州市,番禺中学,,45,45,23,30,13,17,,142,101,65,24,12,6,0.8,0.6
2025-09-15T2300,1351A,113.2146,23.3916,广州市,花都师范,,31,31,37,11,15,33,,140,88,33,32,5,6,0.6,0.5
2025-09-15T2300,1352A,113.2597,23.1331,广州市,市监测站,,41,41,27,23,13,15,,140,86,56,23,6,6,0.6,0.5
2025-09-15T2300,1353A,113.5618,23.312,广州市,九龙镇镇龙,,40,40,32,23,18,18,,104,72,32,19,7,7,0.5,0.5
2025-09-15T2300,1354A,113.2765,23.1544,广州市,麓湖,,33,33,25,20,14,3,,126,73,56,28,3,4,0.4,0.3
2025-09-15T2300,1355A,113.443,23.3035,广州市,帽峰山森林公园,,17,17,13,3,6,31,,120,74,17,16,7,7,0.4,0.4
2025-09-15T2300,2846A,113.3221,23.1322,广州市,体育西,,37,37,28,25,16,7,,144,91,68,27,5,5,0.6,0.4
2025-09-15T2300,3298A,113.5717,23.5491,广州市,从化街口,,16,11,25,6,17,50,,94,62,8,15,8,8,0.6,0.6
2025-09-15T2300,3299A,113.3472,23.3692,广州市,白云竹料,,28,28,28,17,14,30,,121,75,35,26,4,5,0.5,0.5
2025-09-15T2300,3300A,113.2981,23.237,广州市,白云嘉禾,,34,34,28,20,14,6,,148,84,54,31,4,5,0.5,0.4
2025-09-15T2300,3301A,113.4256,23.1716,广州市,黄埔科学城,,29,29,27,17,15,12,,148,80,32,21,5,5,0.7,0.6
2025-09-15T2300,3302A,113.3942,23.0483,广州市,番禺大学城,,39,31,26,24,14,3,,153,91,78,27,7,6,0.7,0.4
2025-09-15T2300,3303A,113.4922,22.8168,广州市,南沙黄阁,,42,42,23,19,13,12,,143,78,69,26,6,6,0.8,0.5
2025-09-15T2300,3304A,113.5342,22.7896,广州市,南沙街,,35,35,22,18,12,15,,143,73,53,26,7,6,0.5,0.4
2025-09-15T2300,3443A,113.2902,23.5544,广州市,花都梯面,,16,16,24,3,12,12,,105,61,9,16,5,5,0.4,0.5
2025-09-15T2300,3445A,113.7858,23.7478,广州市,从化良口,,10,6,14,3,10,32,,70,54,12,8,5,5,0.4,0.4
2025-09-15T2300,3446A,113.8051,23.2614,广州市,增城荔城,,28,28,26,16,14,18,,88,47,16,14,9,9,0.7,0.7
2025-09-15T2300,2505A,109.568,23.1478,贵港市,德智高中,,,,,,,,,,,,,,,,
2025-09-15T2300,2506A,109.6047,23.0666,贵港市,江南子站,,31,31,32,18,18,32,,59,50,19,15,6,6,0.5,0.6
2025-09-15T2300,2508A,109.5669,23.1065,贵港市,荷城子站,,29,29,23,14,10,43,,67,53,16,14,5,4,0.5,0.6
2025-09-15T2300,3405A,109.5886,23.1172,贵港市,新世纪学校,,28,27,28,19,16,32,,68,51,22,16,1,2,0.4,0.4
2025-09-15T2300,4260A,109.5933,23.0951,贵港市,中山路155-3号,,28,28,30,16,18,40,,71,56,16,14,4,5,0.3,0.5
2025-09-15T2300,1439A,106.6899,26.5998,贵阳市,马鞍山,,17,17,15,7,11,16,,40,27,10,8,2,3,0.2,0.2
2025-09-15T2300,1441A,106.6243,26.6266,贵阳市,鉴湖路,,24,24,25,7,5,37,,52,44,13,12,5,6,0.4,0.3
2025-09-15T2300,1442A,106.7487,26.6343,贵阳市,燕子冲,,10,9,13,3,14,24,,59,44,20,11,9,6,0.3,0.3
2025-09-15T2300,1443A,106.6555,26.4365,贵阳市,碧云窝,,39,39,28,14,7,20,,57,44,11,6,7,6,0.2,0.2
2025-09-15T2300,1445A,106.7109,26.6027,贵阳市,红边门,,27,27,23,14,14,24,,54,40,20,13,4,2,0.2,0.2
2025-09-15T2300,1446A,106.7164,26.5699,贵阳市,新华路,,31,31,23,3,7,21,,55,39,29,15,11,9,0.4,0.3
2025-09-15T2300,1447A,106.674,26.5424,贵阳市,太慈桥,,24,24,15,7,5,11,,60,38,18,11,3,4,0.0,0
2025-09-15T2300,1552A,106.805,26.3003,贵阳市,桐木岭,,,,27,,14,,,57,,,2,,2,,1.0
2025-09-15T2300,4230A,106.6882,26.5695,贵阳市,花果园大街66号,,26,,6,18,10,17,,52,38,24,11,4,4,0.4,0.2
2025-09-15T2300,4231A,106.6873,26.5169,贵阳市,漓江路57号,,27,27,19,9,8,12,,58,40,28,11,6,5,0.4,0.3
2025-09-15T2300,1862A,110.4144,25.3167,桂林市,电子科大尧山校区,,,,,,,,,,,,,,,,
2025-09-15T2300,1864A,110.3089,25.2708,桂林市,龙隐路小学,,32,32,30,21,16,38,,68,48,12,10,6,8,0.3,0.3
2025-09-15T2300,1865A,110.2869,25.2178,桂林市,八中,,39,36,31,27,19,32,,68,48,13,11,9,7,0.3,0.3
2025-09-15T2300,3531A,110.296,25.1253,桂林市,旅游学院,,28,27,21,19,15,16,,64,41,17,11,4,9,0.4,0.4
2025-09-15T2300,4222A,110.1835,25.2444,桂林市,环湖路276号,,39,39,32,22,18,6,,58,39,43,28,13,6,0.4,0.4
2025-09-15T2300,4301A,110.2803,25.2773,桂林市,信义路13号,,34,34,30,19,21,32,,68,51,16,11,7,8,0.5,0.4
2025-09-15T2300,2674A,100.2561,34.4714,果洛藏族自治州,玛沁县大武镇,,39,39,32,21,14,104,,104,90,1,7,16,15,0.4,0.4
2025-09-15T2300,1129A,126.5422,45.755,哈尔滨市,岭北,,25,10,12,3,4,78,,77,76,12,7,8,8,0.2,0.2
2025-09-15T2300,1130A,126.561,45.8167,哈尔滨市,松北商大,,25,25,15,6,2,47,,53,45,13,8,5,6,0.4,0.4
2025-09-15T2300,1131A,126.979,45.5419,哈尔滨市,阿城会宁,,18,11,17,3,5,56,,61,55,8,8,6,6,0.3,0.4
2025-09-15T2300,1132A,126.599,45.7222,哈尔滨市,南岗学府路,,21,21,22,6,4,57,,53,53,13,9,8,8,0.3,0.3
2025-09-15T2300,1133A,126.689,45.7733,哈尔滨市,太平宏伟公园,,17,12,16,3,4,54,,60,58,18,6,7,7,0.3,0.3
2025-09-15T2300,1134A,126.635,45.7667,哈尔滨市,道外承德广场,,,27,27,7,7,,,56,52,16,10,8,7,0.4,0.3
2025-09-15T2300,1135A,126.685,45.7319,哈尔滨市,香坊红旗大街,,27,27,18,7,6,40,,60,50,36,14,7,6,0.5,0.4
2025-09-15T2300,1136A,126.6411,45.7258,哈尔滨市,动力和平路,,32,,17,22,5,41,,59,53,31,10,4,4,0.4,0.4
2025-09-15T2300,1137A,126.593,45.7478,哈尔滨市,道里建国路,,15,7,12,3,3,47,,55,51,30,14,11,6,0.6,0.3
2025-09-15T2300,1138A,126.615,45.61,哈尔滨市,平房东轻厂,,18,8,16,3,4,57,,54,42,10,14,8,9,0.3,0.3
2025-09-15T2300,1139A,126.595,45.9855,哈尔滨市,呼兰师专,,24,24,23,10,6,42,,53,38,22,10,6,6,0.4,0.3
2025-09-15T2300,1140A,126.6206,45.6842,哈尔滨市,省农科院,颗粒物(PM10),51,51,50,6,4,18,,50,36,57,16,7,7,0.6,0.6
2025-09-15T2300,2688A,93.5128,42.8172,哈密市,地区监测站,,48,48,30,14,18,78,,92,89,9,8,3,3,0.0,0
2025-09-15T2300,2689A,93.4961,42.8328,哈密市,哈密师范学校,,29,18,21,9,7,92,,93,89,6,9,4,4,0.2,0.2
2025-09-15T2300,2671A,100.9048,36.9639,海北藏族自治州,海晏县西海镇,颗粒物(PM10),105,160,66,51,30,108,,120,117,3,6,14,12,0.4,0.5
2025-09-15T2300,3867A,102.0738,36.5056,海东市,平安区公安北苑,颗粒物(PM10),159,268,110,84,46,85,,115,101,6,8,13,14,0.7,0.8
2025-09-15T2300,1409A,110.576,19.9507,海口市,东寨港,,,25,56,,,8,,13,13,3,3,4,4,0.6,0.7
2025-09-15T2300,1410A,110.3232,20.0574,海口市,海南大学,,17,7,13,3,6,54,,52,52,3,7,3,3,0.2,0.2
2025-09-15T2300,1411A,110.283,20.0053,海口市,秀英海南医院,,16,11,19,3,8,51,,49,49,5,9,6,6,0.2,0.2
2025-09-15T2300,1412A,110.338,19.9969,海口市,海南师范大学,,17,13,15,3,8,52,,50,50,6,7,4,4,0.3,0.3
2025-09-15T2300,1413A,110.33,20.0356,海口市,龙华路环保局宿舍,,17,10,14,3,7,53,,52,52,4,7,6,6,0.1,0.1
2025-09-15T2300,3539A,110.5111,19.9736,海口市,桂林洋子站,,15,11,18,6,7,46,,44,44,5,10,4,4,0.2,0.2
2025-09-15T2300,2673A,100.6188,36.2866,海南藏族自治州,共和县恰卜恰镇,颗粒物(PM10),67,83,47,23,22,97,,121,109,14,9,16,11,0.6,0.5
2025-09-15T2300,2676A,97.3731,37.3753,海西蒙古族藏族自治州,德令哈市,颗粒物(PM10),60,69,58,35,20,96,,113,108,2,3,6,5,0.3,0.3
2025-09-15T2300,1048A,114.5302,36.6116,邯郸市,东污水处理厂,,46,46,38,28,27,40,,90,64,21,11,6,6,0.4,0.4
2025-09-15T2300,1049A,114.4918,36.5713,邯郸市,矿院,,42,36,32,29,29,59,,96,77,12,9,5,6,0.4,0.4
2025-09-15T2300,1050A,114.484,36.6133,邯郸市,丛台公园,,39,33,30,27,22,60,,97,80,14,10,8,7,0.4,0.4
2025-09-15T2300,3458A,114.7895,36.5593,邯郸市,香泉濮院小区,颗粒物(PM10),53,56,44,20,18,49,,91,66,21,13,4,5,0.5,0.5
2025-09-15T2300,3579A,114.50634,36.77178,邯郸市,永年区实验高中,,30,30,41,21,23,52,,103,75,16,11,4,4,0.4,0.7
2025-09-15T2300,3580A,114.20016,36.44293,邯郸市,峰峰矿区临水派出所,,38,38,42,19,26,78,,111,92,8,14,6,7,0.2,0.4
2025-09-15T2300,2634A,106.9893,33.1842,汉中市,汉川机床厂子校,,29,25,24,20,12,48,,91,80,13,10,4,4,0.5,0.5
2025-09-15T2300,2635A,107.0154,33.0706,汉中市,市监测站,颗粒物(PM10),51,51,33,30,16,24,,90,65,8,8,6,6,0.7,0.7
2025-09-15T2300,2636A,107.0089,33.1138,汉中市,鑫源开发区,颗粒物(PM10),52,54,37,32,17,25,,92,72,22,18,6,7,0.6,0.6
2025-09-15T2300,2637A,107.007,33.0323,汉中市,南郑大河坎水厂,,44,44,30,23,15,19,,82,50,12,9,5,6,0.6,0.5
2025-09-15T2300,1223A,120.2072,30.2111,杭州市,滨江,颗粒物(PM10),64,77,45,42,20,90,,190,151,38,26,7,7,0.6,0.5
2025-09-15T2300,1224A,120.0633,30.2747,杭州市,西溪,,39,33,19,27,15,9,,102,58,32,16,6,7,0.6,0.5
2025-09-15T2300,1226A,120.3417,30.3150,杭州市,下沙,,49,49,28,34,20,95,,192,150,33,23,6,6,0.6,0.5
2025-09-15T2300,1227A,120.1269,30.2456,杭州市,卧龙桥,,46,46,25,30,16,20,,102,42,15,9,8,8,0.7,0.6
2025-09-15T2300,1228A,120.1903,30.2692,杭州市,浙江农大,颗粒物(PM10),70,89,45,46,20,93,,139,120,32,26,5,6,0.9,0.7
2025-09-15T2300,1230A,120.1197,30.3119,杭州市,和睦小学,颗粒物(PM10),54,58,28,30,14,99,,165,151,29,15,6,6,0.8,0.5
2025-09-15T2300,1231A,120.3019,30.4183,杭州市,临平镇,颗粒物(PM10),62,73,43,37,21,111,,189,150,26,23,6,6,0.6,0.5
2025-09-15T2300,1232A,120.2753,30.1839,杭州市,城厢镇,细颗粒物(PM2.5),64,,26,46,24,78,,170,137,40,26,4,4,0.8,0.6
2025-09-15T2300,1233A,120.0883,30.1808,杭州市,云栖,,,53,30,,26,30,,108,60,22,15,4,4,0.9,0.8
2025-09-15T2300,3557A,119.9464,30.0494,杭州市,镇二中,,50,50,28,28,21,2,,107,55,55,27,4,4,0.8,0.7
2025-09-15T2300,3558A,119.7183,30.2367,杭州市,市府大楼,,38,38,21,20,12,36,,109,74,18,11,8,8,0.5,0.4
2025-09-15T2300,3656A,120.1556,30.2864,杭州市,消防大队,细颗粒物(PM2.5),77,61,29,56,21,110,,162,145,24,17,7,8,0.9,0.7
2025-09-15T2300,1270A,117.1959,31.7848,合肥市,明珠广场,,28,24,18,19,10,87,,113,98,16,15,7,7,0.8,0.7
2025-09-15T2300,1271A,117.3072,31.8764,合肥市,三里街,颗粒物(PM10),52,53,24,19,11,46,,103,78,41,19,6,6,0.7,0.6
2025-09-15T2300,1272A,117.2588,31.8707,合肥市,琥珀山庄,,36,36,28,18,12,59,,113,89,22,14,8,8,0.8,0.7
2025-09-15T2300,1273A,117.1604,31.9052,合肥市,董铺水库,,39,39,23,19,11,59,,106,76,16,11,4,9,0.5,0.5
2025-09-15T2300,1274A,117.25,31.8571,合肥市,长江中路,,34,34,28,10,10,83,,112,91,14,13,6,6,0.7,0.7
2025-09-15T2300,1275A,117.266,31.9436,合肥市,庐阳区,,48,48,30,17,12,63,,119,80,35,24,7,6,0.7,0.6
2025-09-15T2300,1276A,117.3453,31.8616,合肥市,瑶海区,,46,46,25,22,9,52,,104,78,42,22,8,7,0.9,0.8
2025-09-15T2300,1277A,117.3027,31.7964,合肥市,包河区,,29,29,22,12,9,83,,105,90,16,17,10,9,0.7,0.7
2025-09-15T2300,1278A,117.2776,31.7385,合肥市,滨湖新区,,30,22,14,17,13,95,,112,106,5,6,5,5,0.8,0.7
2025-09-15T2300,1279A,117.1318,31.8403,合肥市,高新区,,30,29,22,15,12,95,,119,96,14,16,7,6,0.8,0.7
2025-09-15T2300,3464A,117.3803,31.9147,合肥市,高教基地,,,34,23,22,11,,,101,,25,17,8,7,0.6,0.5
2025-09-15T2300,3614A,79.924,37.0877,和田地区,地区环保局,颗粒物(PM10),500,2090,360,421,84,74,,108,94,6,10,1,3,0.7,0.7
2025-09-15T2300,3615A,79.9131,37.113,和田地区,市环保局,颗粒物(PM10),500,1391,281,186,70,78,,111,95,12,22,2,5,0.3,0.3
2025-09-15T2300,2516A,108.2011,24.715,河池市,东仁乐园,,,,,,,,,,,,,,,,
2025-09-15T2300,2517A,108.0497,24.6947,河池市,市环保站,,19,19,22,11,11,14,,63,41,17,13,5,6,0.6,0.6
2025-09-15T2300,2518A,108.0983,24.6989,河池市,市疾控中心,,26,26,22,11,11,5,,60,37,25,19,7,8,0.6,0.5
2025-09-15T2300,1696A,114.6778,23.7569,河源市,源西,,18,18,19,10,10,2,,64,25,26,21,4,5,0.7,0.7
2025-09-15T2300,1697A,114.6944,23.7586,河源市,东埔,,14,14,13,6,8,7,,62,28,21,14,4,5,0.9,0.8
2025-09-15T2300,1698A,114.6892,23.7233,河源市,老城,,,20,22,11,8,,,72,34,18,12,5,6,0.7,0.7
2025-09-15T2300,1718A,115.4208,35.2464,菏泽市,气象局,,21,21,31,11,20,53,,81,70,16,12,2,2,0.3,0.3
2025-09-15T2300,3374A,115.5564,35.0891,菏泽市,定陶老年大学,,17,17,22,7,10,46,,71,56,8,9,4,4,0.3,0.4
2025-09-15T2300,4184A,115.4797,35.24401,菏泽市,永昌路1号,,20,20,34,13,21,43,,75,57,18,13,7,7,0,0.1
2025-09-15T2300,4193A,115.4715,35.2800,菏泽市,长城路999号,,23,23,32,9,17,51,,78,63,20,17,6,8,0.2,0.3
2025-09-15T2300,2514A,111.5264,24.4172,贺州市,环保小区,,40,40,29,27,19,59,,126,99,17,12,16,15,0.8,0.7
2025-09-15T2300,2515A,111.5608,24.4078,贺州市,政协大楼,,37,37,28,21,18,45,,117,85,19,12,13,12,0.6,0.6
2025-09-15T2300,3534A,111.4744,24.4553,贺州市,西湾,,48,35,28,33,19,54,,128,95,18,13,14,12,0.4,0.4
2025-09-15T2300,2385A,114.17,35.9019,鹤壁市,市监测站,细颗粒物(PM2.5),58,,41,41,28,39,,74,64,17,17,6,5,0.6,0.5
2025-09-15T2300,2386A,114.2956,35.7511,鹤壁市,市交警支队,,48,45,48,33,29,7,,58,48,50,18,3,4,0.9,0.7
2025-09-15T2300,2387A,114.2878,35.7306,鹤壁市,迎宾馆,,35,35,47,20,25,5,,69,56,49,16,2,4,0.8,0.6
2025-09-15T2300,3474A,114.2617,35.6822,鹤壁市,大新区,,,37,43,,23,14,,65,52,23,18,5,5,0.7,0.6
2025-09-15T2300,3596A,114.1572,35.9603,鹤壁市,南山宾馆,,43,35,35,30,24,41,,88,75,21,16,4,5,0.6,0.6
2025-09-15T2300,2244A,130.2537,47.3416,鹤岗市,哈啤分公司,,24,24,18,7,7,41,,54,52,7,4,12,12,0.3,0.3
2025-09-15T2300,2245A,130.2684,47.3086,鹤岗市,斯达机电,,22,18,25,15,14,58,,62,62,6,5,12,12,0.3,0.3
2025-09-15T2300,2246A,130.3114,47.3388,鹤岗市,东山纸板厂,,32,32,22,18,13,32,,62,59,22,7,13,13,0.3,0.3
2025-09-15T2300,2247A,130.1097,47.3382,鹤岗市,五号水库,,12,,12,8,5,22,,55,44,10,6,6,8,0.2,0.1
2025-09-15T2300,2263A,127.4833,50.2524,黑河市,交通局,,23,21,18,16,13,38,,48,40,9,8,12,8,0.5,0.4
2025-09-15T2300,2264A,127.5144,50.2341,黑河市,环保局,,23,23,18,14,14,42,,52,42,6,7,4,5,0.5,0.5
2025-09-15T2300,2265A,127.5291,50.2472,黑河市,大黑河岛,,,,,,,,,,,,,,,,
2025-09-15T2300,1074A,115.6838,37.7541,衡水市,电机北厂,颗粒物(PM10),56,62,44,32,24,54,,122,101,25,11,4,5,0.3,0.3
2025-09-15T2300,1075A,115.6303,37.7316,衡水市,市监测站,颗粒物(PM10),60,69,52,36,20,56,,121,92,25,12,8,8,0.5,0.4
2025-09-15T2300,3188A,115.6683,37.7217,衡水市,市城管局,,47,47,44,29,23,69,,127,100,20,14,9,9,0.4,0.4
2025-09-15T2300,3459A,115.5989,37.5491,衡水市,地表水厂,,47,47,54,17,23,62,,116,86,16,17,2,3,0.3,0.3
2025-09-15T2300,2456A,112.5003,26.9167,衡阳市,原169医院,,47,47,40,27,23,61,,98,77,26,15,9,10,0.8,0.7
2025-09-15T2300,2457A,112.6194,26.9258,衡阳市,衡阳化工总厂,细颗粒物(PM2.5),59,58,52,42,30,65,,98,80,15,14,6,8,0.8,0.8
2025-09-15T2300,2458A,112.6211,26.8956,衡阳市,珠晖区环保局,颗粒物(PM10),52,53,38,25,20,85,,99,91,11,12,8,10,0.8,0.7
2025-09-15T2300,2459A,112.6197,26.8733,衡阳市,市委党校,细颗粒物(PM2.5),72,74,42,52,25,62,,95,87,12,11,5,7,0.6,0.5
2025-09-15T2300,2460A,112.6006,26.8919,衡阳市,市监测站,细颗粒物(PM2.5),70,63,35,51,25,74,,97,86,13,10,5,8,0.9,0.7
2025-09-15T2300,2461A,112.5664,26.9056,衡阳市,真空机电公司,颗粒物(PM10),51,52,32,30,22,71,,92,82,16,10,7,10,1.1,1
2025-09-15T2300,3399A,112.6703,26.882,衡阳市,师范学院,细颗粒物(PM2.5),59,54,46,42,25,78,,97,86,12,12,5,6,0.9,0.9
2025-09-15T2300,2608A,103.3772,23.3993,红河哈尼族彝族自治州,污水处理厂,,36,,22,25,16,53,,51,39,6,8,8,8,0.3,0.3
2025-09-15T2300,2609A,103.3861,23.35,红河哈尼族彝族自治州,监测站,,32,32,26,17,10,60,,56,48,3,4,12,11,0.1,0.2
2025-09-15T2300,3038A,103.3758,23.368,红河哈尼族彝族自治州,州图书馆,,43,,15,30,21,59,,58,50,6,6,2,2,0.3,0.2
2025-09-15T2300,1090A,111.6507,40.7517,呼和浩特市,呼市一监,,23,12,25,3,15,71,,108,93,8,19,6,7,0.2,0.4
2025-09-15T2300,1091A,111.6572,40.8033,呼和浩特市,小召,,19,19,28,8,16,60,,102,90,24,28,5,5,0.4,0.5
2025-09-15T2300,1094A,111.7516,40.8369,呼和浩特市,如意水处理厂,,24,10,34,3,15,75,,109,87,10,29,6,7,0.2,0.4
2025-09-15T2300,1095A,111.7276,40.8062,呼和浩特市,二十九中,,27,24,31,3,15,86,,115,103,7,22,6,7,0.4,0.6
2025-09-15T2300,1096A,111.5512,40.7866,呼和浩特市,工大金川校区,,24,24,31,6,13,74,,110,90,14,27,5,6,0.4,0.5
2025-09-15T2300,1097A,111.717,40.7612,呼和浩特市,化肥厂生活区,,21,20,34,9,16,65,,111,88,22,27,6,7,0.3,0.5
2025-09-15T2300,3698A,111.5968,40.8178,呼和浩特市,红旗小学,,24,12,26,3,13,75,,105,94,11,28,3,4,0.1,0.3
2025-09-15T2300,3699A,111.6518,40.8389,呼和浩特市,海东办,,24,24,33,8,16,66,,111,96,19,33,5,6,0.4,0.5
2025-09-15T2300,2192A,119.7594,49.2261,呼伦贝尔市,区环保局,,29,25,32,20,15,51,,56,34,7,14,6,6,0.6,0.7
2025-09-15T2300,3061A,119.7512,49.1577,呼伦贝尔市,国华电力东,,18,11,19,8,10,57,,63,42,5,9,5,5,0.2,0.3
2025-09-15T2300,1250A,120.0751,30.8669,湖州市,城西水厂,细颗粒物(PM2.5),68,73,29,49,18,115,,165,122,24,25,8,7,0.4,0.3
2025-09-15T2300,2873A,120.0830,30.8929,湖州市,仁皇山新区,颗粒物(PM10),58,65,30,39,18,126,,166,126,14,20,4,4,0.6,0.5
2025-09-15T2300,2907A,120.1844,30.8596,湖州市,吴兴区站,,42,41,27,29,20,123,,166,143,15,15,8,8,0.7,0.6
2025-09-15T2300,3562A,120.4148,30.8538,湖州市,南浔区站,细颗粒物(PM2.5),69,,24,50,22,86,,150,128,19,13,8,7,0.9,0.8
2025-09-15T2300,1607A,120.9049,40.7211,葫芦岛市,龙港区,颗粒物(PM10),51,52,35,23,13,50,,100,74,28,28,27,32,0.8,0.8
2025-09-15T2300,1608A,120.8392,40.7514,葫芦岛市,化工街,颗粒物(PM10),78,105,36,27,11,0,,92,56,88,39,18,22,0.8,0.6
2025-09-15T2300,1609A,120.8341,40.7073,葫芦岛市,新区,,39,39,27,22,8,16,,101,69,66,32,9,14,0.9,0.6
2025-09-15T2300,1610A,120.8695,40.7677,葫芦岛市,东城区,颗粒物(PM10),61,72,31,34,9,7,,102,67,78,38,17,16,1.0,0.7
2025-09-15T2300,2482A,109.5981,27.5721,怀化市,林科所,,16,16,22,8,7,42,,80,58,10,9,4,4,0.6,0.7
2025-09-15T2300,2483A,109.9453,27.5444,怀化市,河西地税局,,21,21,20,11,13,37,,70,50,7,8,5,5,0.2,0.3
2025-09-15T2300,2484A,109.9781,27.5342,怀化市,市四医院,,32,32,34,7,17,33,,74,52,11,8,6,8,0.1,0.5
2025-09-15T2300,2485A,109.9972,27.5578,怀化市,监测楼,,20,20,29,13,19,30,,73,56,14,8,4,7,0,0.1
2025-09-15T2300,2486A,110.0394,27.583,怀化市,市委党校,,25,25,29,16,16,30,,67,50,15,10,4,7,0.2,0.3
2025-09-15T2300,1210A,119.036,33.5981,淮安市,钵池山,,27,27,29,16,20,61,,109,81,30,18,6,6,0.9,1
2025-09-15T2300,1211A,119.007,33.575,淮安市,北京南路,,34,34,31,18,21,59,,102,79,23,14,7,7,0.8,0.9
2025-09-15T2300,1212A,118.989,33.6067,淮安市,市监测站,,32,31,33,22,25,86,,102,90,17,18,10,10,0.5,0.6
2025-09-15T2300,1213A,119.135,33.5039,淮安市,楚州区监测站,,39,39,40,16,19,57,,110,75,26,18,7,8,0.6,0.7
2025-09-15T2300,3426A,118.8755,33.2894,淮安市,新华书店,,26,26,24,18,17,71,,92,88,19,14,6,7,0.7,0.7
2025-09-15T2300,4206A,119.0288,33.6319,淮安市,承德北路606号,,39,39,42,16,30,65,,106,71,26,22,6,7,0.5,0.6
2025-09-15T2300,2282A,116.8004,33.975,淮北市,监测站,,30,30,22,15,17,62,,71,63,7,9,7,7,0.5,0.5
2025-09-15T2300,2283A,116.8091,33.9007,淮北市,烈山区政府,,20,20,36,3,10,62,,74,66,8,12,8,8,0.5,0.5
2025-09-15T2300,3330A,116.8873,33.9836,淮北市,杜集区检察院,,32,23,23,22,22,68,,73,70,2,2,9,9,0.8,0.7
2025-09-15T2300,4017A,116.7923,33.9535,淮北市,市博物馆,,17,15,22,11,14,52,,75,65,12,11,6,7,0.6,0.6
2025-09-15T2300,2277A,116.8305,32.7727,淮南市,潘集区政府,,44,44,22,16,15,44,,89,78,16,13,3,4,0.5,0.4
2025-09-15T2300,2279A,116.8569,32.5951,淮南市,谢家集区政府,,19,19,16,12,9,58,,84,76,15,11,7,8,0.4,0.3
2025-09-15T2300,2280A,116.8281,32.633,淮南市,八公山区政府,,26,26,21,16,13,69,,88,79,9,10,8,9,0.3,0.3
2025-09-15T2300,2281A,116.6325,32.6201,淮南市,焦岗湖风景区管理处,,,,,,,,,,,,,,,,
2025-09-15T2300,2894A,117.0566,32.6531,淮南市,经济技术开发区消防队,,23,23,18,3,6,52,,88,67,20,14,8,8,0.3,0.3
2025-09-15T2300,3329A,117.0108,32.5893,淮南市,山南新区,,37,37,13,3,6,68,,92,82,11,12,5,5,0.4,0.3
2025-09-15T2300,4209A,117.0031,32.6445,淮南市,国庆中路369号,,26,19,24,14,17,82,,93,81,6,10,5,6,0.3,0.4
2025-09-15T2300,2446A,114.9028,30.4742,黄冈市,职工中心,,35,34,25,24,17,79,,147,126,19,12,9,8,0.7,0.7
2025-09-15T2300,2929A,114.8858,30.4519,黄冈市,红卫路,,46,46,29,28,18,63,,149,119,28,15,8,7,0.5,0.6
2025-09-15T2300,3398A,114.9136,30.4445,黄冈市,市林业局,颗粒物(PM10),51,51,31,29,16,50,,153,122,33,14,8,7,0.6,0.5
2025-09-15T2300,2672A,102.0199,35.5102,黄南藏族自治州,同仁县隆务镇,颗粒物(PM10),56,62,36,31,14,90,,102,100,2,3,10,10,0.3,0.3
2025-09-15T2300,2295A,118.2903,29.6963,黄山市,延安路89号,,25,25,27,12,8,13,,86,47,9,6,4,3,0.4,0.4
2025-09-15T2300,2297A,118.1371,30.2756,黄山市,黄山区政府5号楼,,39,,17,27,10,14,,59,36,3,2,4,4,0.5,0.4
2025-09-15T2300,4210A,118.3354,29.7203,黄山市,滨江东路7-2号,,48,48,26,29,10,13,,79,40,9,6,2,2,0.5,0.4
2025-09-15T2300,2423A,115.0601,30.2313,黄石市,沈家营,颗粒物(PM10),59,67,48,23,11,62,,131,98,26,16,7,7,0.9,0.7
2025-09-15T2300,2426A,114.8988,30.2019,黄石市,铁山,,40,40,29,24,10,78,,122,106,9,9,4,6,0.8,0.6
2025-09-15T2300,2427A,115.0307,30.2092,黄石市,团城山,,44,44,28,23,11,109,,133,129,7,10,13,9,0.8,0.8
2025-09-15T2300,3149A,115.0235,30.1578,黄石市,笔架山北路,,39,39,28,16,7,85,,119,107,7,7,10,8,1.0,0.9
2025-09-15T2300,4185A,115.0780,30.21118,黄石市,磁湖东路29号,颗粒物(PM10),54,58,44,21,13,82,,127,116,24,18,11,12,0.7,0.7
2025-09-15T2300,1392A,114.4183,23.0528,惠州市,河南岸金山湖子站,,19,19,21,3,7,16,,67,29,16,15,9,9,0.5,0.5
2025-09-15T2300,1393A,114.4053,23.0822,惠州市,下埔横江三路子站,,47,47,23,14,11,19,,81,29,16,15,10,7,0.5,0.5
2025-09-15T2300,1394A,114.4103,23.1142,惠州市,江北云山西路子站,,,,19,,9,16,,75,33,20,14,22,11,,0.4
2025-09-15T2300,1395A,114.4645,22.7833,惠州市,惠阳区承修路船湖子站,,13,13,24,6,10,38,,68,45,10,15,8,8,0.5,0.5
2025-09-15T2300,1396A,114.5317,22.7422,惠州市,大亚湾管委会子站,,13,13,17,6,6,36,,68,49,11,12,9,9,0.4,0.4
2025-09-15T2300,3314A,114.4338,22.8134,惠州市,惠阳秋长,,12,12,18,7,8,27,,74,42,17,14,11,11,0.4,0.4
2025-09-15T2300,3452A,114.6517,22.775,惠州市,大亚湾霞涌,,10,6,14,3,5,30,,64,48,17,11,8,7,0.6,0.5
2025-09-15T2300,2240A,130.9762,45.3001,鸡西市,环保局,,17,17,20,3,4,45,,60,52,14,7,7,6,0.5,0.5
2025-09-15T2300,2243A,130.9429,45.3039,鸡西市,第一中学,,15,13,19,7,4,48,,61,56,11,4,9,9,0.6,0.6
2025-09-15T2300,3707A,131.0207,45.3073,鸡西市,欧美日汽修厂,,,,16,8,9,33,,61,50,23,7,8,8,0.8,0.7
2025-09-15T2300,3709A,130.9967,45.3106,鸡西市,市政设施管理处,,24,24,21,12,7,29,,66,53,32,9,8,8,0.9,0.8
2025-09-15T2300,2367A,114.9754,27.0803,吉安市,红声器材厂,,38,38,31,20,15,65,,104,84,7,6,8,11,0.2,0.2
2025-09-15T2300,2368A,114.9658,27.0999,吉安市,市森林工业局,,18,7,28,3,14,55,,104,87,7,7,4,9,0.8,0.4
2025-09-15T2300,2369A,114.99,27.1312,吉安市,市环境监测站,,47,47,29,23,15,74,,116,92,8,4,7,8,0.5,0.5
2025-09-15T2300,2370A,115.0093,27.0968,吉安市,青原区法院,,40,40,30,19,14,73,,107,84,7,6,8,11,0.4,0.4
2025-09-15T2300,1772A,126.54,43.8622,吉林市,哈达湾,,19,19,16,7,6,36,,77,58,22,9,4,4,0.2,0.1
2025-09-15T2300,1773A,126.5844,43.8358,吉林市,东局子,,26,26,16,6,5,41,,74,50,13,11,6,6,0.4,0.3
2025-09-15T2300,1774A,126.5052,43.8245,吉林市,电力学院,,22,22,16,11,6,32,,73,40,19,11,6,6,0.5,0.5
2025-09-15T2300,1775A,126.6133,43.8972,吉林市,江北,,24,24,21,8,7,46,,71,52,10,13,6,8,0.4,0.7
2025-09-15T2300,1776A,126.555,43.8306,吉林市,江南公园,,28,28,22,3,7,37,,74,55,15,7,3,3,0.3,0.2
2025-09-15T2300,1778A,126.7061,43.7133,吉林市,丰满,,,,,,,,,,,,,,,,
2025-09-15T2300,2868A,126.4739,43.953,吉林市,九站,,26,26,16,10,6,32,,74,48,29,15,6,6,0.5,0.3
2025-09-15T2300,1299A,116.9862,36.6114,济南市,科干所,,34,34,34,20,22,78,,116,96,12,11,6,6,0.6,0.6
2025-09-15T2300,1300A,116.9376,36.665,济南市,农科所,,32,32,36,15,20,64,,96,82,21,18,8,8,0.4,0.3
2025-09-15T2300,1301A,117.1265,36.6734,济南市,开发区,,32,29,38,22,26,74,,128,115,13,17,7,7,0.7,0.7
2025-09-15T2300,1303A,117.0624,36.6868,济南市,省种子仓库,,36,36,44,12,21,87,,127,114,9,18,5,5,0.7,0.7
2025-09-15T2300,1304A,116.9489,36.6447,济南市,机床二厂,,32,32,43,22,25,69,,111,90,16,16,9,9,0.3,0.3
2025-09-15T2300,1305A,117.0495,36.663,济南市,市监测站,,29,27,36,20,23,78,,117,104,9,14,3,2,0.8,0.8
2025-09-15T2300,1306A,116.7675,36.5484,济南市,长清党校,,34,34,31,15,23,70,,105,91,15,14,6,7,0.6,0.6
2025-09-15T2300,1616A,117.6795,36.229,济南市,技术学院,,35,34,45,24,33,62,,111,87,18,26,10,11,0.9,0.9
2025-09-15T2300,1961A,117.532,36.6868,济南市,东山小学,,49,44,57,34,36,61,,152,121,20,18,8,7,0.6,0.5
2025-09-15T2300,3059A,117.7161,36.2049,济南市,泰兴公司,,41,41,50,27,35,37,,108,78,32,30,7,12,0.7,0.9
2025-09-15T2300,3064A,117.6867,36.2171,济南市,莱芜战役纪念馆,,45,36,50,31,40,53,,105,74,20,27,10,10,1.0,1
2025-09-15T2300,3494A,117.1673,36.9782,济南市,济阳区政府,细颗粒物(PM2.5),62,71,65,44,32,76,,149,125,34,26,8,8,0.5,0.5
2025-09-15T2300,3495A,117.1171,36.63,济南市,锦屏中学,,32,32,36,17,19,51,,112,90,19,15,10,10,0.9,0.9
2025-09-15T2300,3682A,116.9814,36.6819,济南市,济南四建,,32,22,35,22,25,78,,121,103,11,13,5,5,0.7,0.7
2025-09-15T2300,1653A,116.6251,35.4302,济宁市,火炬城,,28,28,38,7,17,52,,95,75,6,7,4,5,0.3,0.4
2025-09-15T2300,1655A,116.5491,35.4042,济宁市,电化厂,,19,18,34,9,19,59,,103,85,9,9,2,2,0.5,0.6
2025-09-15T2300,3500A,116.5814,35.3707,济宁市,北湖一中,,18,18,32,7,16,51,,97,77,8,8,5,4,0.4,0.5
2025-09-15T2300,3501A,116.8249,35.5593,济宁市,服务中心,,32,32,40,3,16,49,,98,74,14,15,4,4,0.3,0.3
2025-09-15T2300,3678A,116.5907,35.4054,济宁市,市第七中学,,24,24,40,3,11,58,,97,79,8,10,7,6,0.4,0.5
2025-09-15T2300,2255A,130.2751,46.8028,佳木斯市,佳纺,,14,14,22,3,6,43,,53,48,8,6,5,6,0.4,0.5
2025-09-15T2300,2256A,130.3995,46.8307,佳木斯市,发电厂,,17,14,22,6,9,52,,55,55,9,6,7,7,0.5,0.5
2025-09-15T2300,2257A,130.3258,46.7975,佳木斯市,环保局,,17,10,20,3,5,54,,55,52,7,6,8,8,0.4,0.4
2025-09-15T2300,2258A,130.3648,46.8032,佳木斯市,十一中,,16,16,21,7,6,45,,52,50,11,6,9,9,0.4,0.4
2025-09-15T2300,2259A,130.3794,46.7588,佳木斯市,四丰,,,6,7,3,3,32,,32,32,7,5,,33,0.2,0.2
2025-09-15T2300,1252A,120.7436,30.778,嘉兴市,清河小学,,35,35,31,18,15,70,,146,122,21,18,7,7,0.8,0.7
2025-09-15T2300,1253A,120.726,30.7478,嘉兴市,嘉兴学院,,30,27,26,21,18,68,,153,130,20,17,6,5,0.6,0.5
2025-09-15T2300,2872A,120.7846,30.7525,嘉兴市,南湖区残联,,36,32,27,25,20,65,,152,125,25,17,8,6,0.7,0.6
2025-09-15T2300,3407A,120.6916,30.7739,嘉兴市,秀洲住建,,29,29,27,18,17,78,,165,140,24,18,8,7,0.6,0.6
2025-09-15T2300,1945A,98.2908,39.7711,嘉峪关市,气象局,颗粒物(PM10),53,56,74,9,14,81,,106,98,17,13,10,15,0.5,1
2025-09-15T2300,2884A,98.2672,39.7978,嘉峪关市,酒钢宾馆,,,63,73,14,16,,,113,110,10,11,17,27,0.3,0.8
2025-09-15T2300,3248A,98.2643,39.7724,嘉峪关市,雄关区,颗粒物(PM10),56,61,75,18,25,82,,100,93,14,17,13,26,0.4,0.6
2025-09-15T2300,1383A,113.1064,22.6058,江门市,北街,,21,21,20,7,12,23,,134,69,23,13,4,5,0.3,0.4
2025-09-15T2300,1384A,113.0731,22.5835,江门市,西区,,12,12,25,8,11,25,,78,65,24,16,9,9,0.5,0.5
2025-09-15T2300,1385A,113.0219,22.5311,江门市,圭峰西,,27,27,21,17,13,23,,114,69,19,12,5,4,0.7,0.5
2025-09-15T2300,1386A,113.0828,22.5947,江门市,东湖,,18,15,16,12,11,21,,124,59,22,15,7,7,0.3,0.4
2025-09-15T2300,3311A,113.1075,22.5647,江门市,江海富民,,36,36,28,15,11,16,,123,60,29,20,6,6,0.6,0.4
2025-09-15T2300,3449A,113.05,22.4667,江门市,新会银湖,,23,19,22,16,13,3,,93,37,30,16,2,3,0.5,0.5
2025-09-15T2300,1830A,113.1992,35.2590,焦作市,影视城,,,,34,,19,,,72,,,11,,9,,0.2
2025-09-15T2300,3335A,113.3137,35.2641,焦作市,马村街道办,,36,36,42,21,26,67,,84,79,12,12,3,4,0.4,0.4
2025-09-15T2300,3336A,113.2465,35.2373,焦作市,焦作技师学院,,34,34,54,14,20,67,,81,78,10,12,6,6,0.3,0.4
2025-09-15T2300,3477A,113.1656,35.2539,焦作市,中站许衡医院,,,36,42,33,31,67,,93,90,,13,4,5,0.5,0.5
2025-09-15T2300,3981A,113.2449,35.1803,焦作市,原李万街道办,,46,46,54,17,19,71,,91,87,16,16,10,11,0.4,0.5
2025-09-15T2300,4264A,113.2340,35.2190,焦作市,新安路1731号,,37,37,50,15,22,75,,97,93,12,11,6,7,0.4,0.4
2025-09-15T2300,4295A,113.2722,35.2121,焦作市,人民路3066号,,46,46,59,14,16,62,,90,85,11,11,3,4,0.5,0.5
2025-09-15T2300,1708A,116.3701,23.5345,揭阳市,新兴,,20,17,28,14,16,34,,75,49,23,17,9,10,1.2,0.6
2025-09-15T2300,1709A,116.3264,23.5443,揭阳市,西马,,40,40,30,11,15,27,,73,50,26,14,11,6,1.4,0.6
2025-09-15T2300,1710A,116.3611,23.5626,揭阳市,东兴,,18,18,29,12,14,41,,73,53,12,16,9,10,1.0,0.7
2025-09-15T2300,1711A,116.4151,23.5294,揭阳市,渔湖,,23,18,28,16,15,30,,78,53,20,14,9,10,1.4,0.7
2025-09-15T2300,3320A,116.403,23.5699,揭阳市,曲溪,,28,28,31,17,16,43,,79,56,13,13,7,10,0.7,0.5
2025-09-15T2300,1944A,102.1692,38.5167,金昌市,天庆家园,颗粒物(PM10),71,92,423,30,104,82,,99,93,5,4,3,8,0.2,0.2
2025-09-15T2300,4022A,102.1647,38.5371,金昌市,金川区人防中心,颗粒物(PM10),75,100,428,31,113,76,,92,86,5,5,8,10,0.4,0.4
2025-09-15T2300,4239A,102.1930,38.5319,金昌市,长春路96号,颗粒物(PM10),75,100,352,29,98,71,,90,83,3,3,4,6,0.7,0.6
2025-09-15T2300,1262A,119.647,29.077,金华市,十五中,,39,39,33,20,16,85,,156,117,18,17,3,3,0.5,0.5
2025-09-15T2300,1263A,119.686,29.1029,金华市,监测站,,48,48,53,20,18,69,,159,104,18,19,4,4,0.5,0.6
2025-09-15T2300,3659A,119.656,29.1131,金华市,气象局,,33,33,35,13,16,66,,153,105,24,21,3,3,0.4,0.5
2025-09-15T2300,1767A,121.1115,41.0879,锦州市,南山,,22,21,19,13,9,39,,86,75,44,20,8,7,0.6,0.5
2025-09-15T2300,1768A,121.0604,40.8428,锦州市,开发区,,34,23,27,12,8,39,,110,80,68,32,9,19,0.7,0.7
2025-09-15T2300,1769A,121.1836,41.1119,锦州市,百股街道,二氧化硫,72,27,20,9,5,48,,81,56,29,21,303,22,0.5,0.4
2025-09-15T2300,1770A,121.1178,41.1222,锦州市,天安街道,,31,31,24,19,10,30,,85,71,54,27,18,13,0.7,0.6
2025-09-15T2300,1771A,121.1303,41.1386,锦州市,北湖公园,,45,45,22,18,8,23,,79,56,43,20,21,9,0.6,0.5
2025-09-15T2300,2160A,112.85,35.5051,晋城市,自来水公司,,,51,42,22,19,,,85,85,10,12,3,3,0.6,0.6
2025-09-15T2300,2161A,112.8318,35.4936,晋城市,白云商贸,,38,38,39,22,17,87,,90,90,9,10,3,3,0.5,0.5
2025-09-15T2300,2162A,112.8508,35.4887,晋城市,市环保局,,34,34,34,14,15,73,,75,74,6,8,4,3,0.3,0.3
2025-09-15T2300,2163A,112.8676,35.4897,晋城市,技术学院,,39,39,33,14,12,73,,79,78,11,10,4,4,0.5,0.5
2025-09-15T2300,2165A,112.8453,35.546,晋城市,白马寺,,38,34,26,26,18,88,,93,93,7,4,7,6,0.5,0.4
2025-09-15T2300,3620A,112.8271,35.4828,晋城市,泽州一中,,37,37,38,19,14,84,,88,87,8,9,3,2,0.6,0.6
2025-09-15T2300,2173A,112.7249,37.7067,晋中市,南都小区,细颗粒物(PM2.5),88,107,75,65,40,90,,129,108,17,11,5,6,0.9,0.9
2025-09-15T2300,2174A,112.6991,37.6982,晋中市,榆次区政府,细颗粒物(PM2.5),69,85,68,50,36,89,,124,101,18,13,6,7,0.5,0.5
2025-09-15T2300,2865A,112.7195,37.6828,晋中市,榆次三中,细颗粒物(PM2.5),73,90,66,53,37,88,,130,110,13,8,6,7,0.4,0.4
2025-09-15T2300,4200A,112.7478,37.6954,晋中市,迎宾街26号,细颗粒物(PM2.5),70,85,61,51,34,88,,130,109,19,12,5,5,0.9,0.8
2025-09-15T2300,2439A,112.2014,31.0481,荆门市,竹园小学,,36,36,26,21,15,58,,101,87,18,11,1,2,0.1,0.1
2025-09-15T2300,2440A,112.1969,30.9891,荆门市,掇刀,,42,42,26,20,16,46,,96,80,20,10,1,1,0.5,0.5
2025-09-15T2300,2441A,112.2213,31.0386,荆门市,石化一小,,45,42,26,31,22,48,,93,78,27,15,10,6,0.5,0.6
2025-09-15T2300,3012A,112.1849,31.0362,荆门市,西山林语,,36,36,25,16,12,29,,86,62,11,9,2,1,0.4,0.3
2025-09-15T2300,3547A,112.1632,31.0138,荆门市,龙泉中学南校,,38,,19,26,13,47,,92,75,17,14,2,2,0.4,0.4
2025-09-15T2300,1844A,112.2494,30.3197,荆州市,市图书馆,,26,,16,18,13,58,,81,72,19,14,4,4,0.7,0.6
2025-09-15T2300,1845A,112.2008,30.3544,荆州市,市委党校,,29,29,19,16,10,62,,73,67,17,13,6,6,0.6,0.6
2025-09-15T2300,3194A,112.2747,30.3122,荆州市,管委会,,33,32,22,23,10,67,,79,70,13,13,3,2,0.6,0.6
2025-09-15T2300,4268A,112.1722,30.3366,荆州市,学苑路85号,,40,35,20,28,14,36,,83,62,30,13,6,5,0.5,0.5
2025-09-15T2300,2342A,117.3102,29.3867,景德镇市,王港中学,,,,,,,,,,,,,,,,
2025-09-15T2300,2343A,117.2117,29.2933,景德镇市,老干部活动中心,,46,46,27,30,18,26,,117,83,34,13,8,8,0.5,0.4
2025-09-15T2300,2344A,117.1894,29.2789,景德镇市,兽医站,,38,36,30,26,15,54,,112,83,13,8,5,6,0.9,0.8
2025-09-15T2300,2346A,117.2461,29.2956,景德镇市,陶研所,细颗粒物(PM2.5),55,45,31,39,20,37,,120,92,13,9,4,6,0.7,0.6
2025-09-15T2300,4289A,117.1542,29.2566,景德镇市,青少年活动中心,颗粒物(PM10),77,104,33,45,19,40,,110,66,36,16,17,10,1.0,0.8
2025-09-15T2300,1803A,115.9872,29.6815,九江市,十里,,38,38,18,20,15,28,,109,88,49,21,4,6,0.6,0.6
2025-09-15T2300,1804A,115.9584,29.7046,九江市,茅山头,,36,36,27,20,17,40,,120,93,24,16,4,4,0.5,0.5
2025-09-15T2300,1805A,115.9877,29.7295,九江市,西园,二氧化氮,52,26,20,14,9,11,,133,102,103,30,6,7,0.8,0.8
2025-09-15T2300,1808A,115.9114,29.6038,九江市,综合工业园,二氧化氮,57,30,27,14,13,37,,110,71,113,30,7,7,0.7,0.7
2025-09-15T2300,1809A,116.0721,29.7535,九江市,石化总厂,,35,28,22,24,14,93,,123,111,14,21,8,6,0.6,0.6
2025-09-15T2300,1810A,115.9773,29.5698,九江市,庐山气象台,,,,,,,,,,,,,,,,
2025-09-15T2300,3190A,116.0254,29.6994,九江市,外国语学校,,38,35,18,23,13,120,,115,114,9,17,4,6,0.8,0.8
2025-09-15T2300,4253A,116.0102,29.6594,九江市,莲花大道8号,,31,31,20,11,10,91,,104,96,2,9,4,5,0.5,0.6
2025-09-15T2300,4240A,98.4958,39.7339,酒泉市,玉门东路5号,颗粒物(PM10),59,68,72,35,30,66,,97,89,25,6,55,12,0.4,0.2
2025-09-15T2300,4241A,98.5099,39.7506,酒泉市,北大街108号,颗粒物(PM10),54,58,67,28,23,72,,95,88,10,3,80,13,0.3,0.2
2025-09-15T2300,2698A,76.0072,39.4467,喀什地区,巡警大队,颗粒物(PM10),124,198,153,65,51,32,,125,110,77,30,7,7,0.9,0.5
2025-09-15T2300,2699A,75.9755,39.4694,喀什地区,吾办,颗粒物(PM10),124,198,167,69,48,25,,118,102,71,28,11,7,0.8,0.5
2025-09-15T2300,4027A,75.9483,39.4689,喀什地区,老干局,颗粒物(PM10),125,199,150,59,37,38,,117,107,59,26,4,4,0.6,0.3
2025-09-15T2300,1824A,114.3389,34.7781,开封市,肿瘤医院,,48,48,44,17,19,58,,87,79,22,19,4,3,0.7,0.7
2025-09-15T2300,1826A,114.2885,34.7965,开封市,世纪星幼儿园,,35,35,42,13,20,68,,102,92,20,15,5,5,0.8,0.8
2025-09-15T2300,3147A,114.3438,34.8106,开封市,龙亭公园,,28,28,44,16,19,54,,88,81,17,12,6,6,0.9,0.8
2025-09-15T2300,3210A,114.3644,34.7964,开封市,汴京公园,颗粒物(PM10),51,52,48,22,23,40,,90,79,29,15,5,6,1.0,0.8
2025-09-15T2300,3473A,114.2485,34.8306,开封市,技师学院,,25,25,37,13,19,73,,87,85,8,8,6,6,0.9,0.9
2025-09-15T2300,3592A,114.4644,34.7556,开封市,祥符区生态环境局,,34,34,39,15,19,18,,76,58,52,22,3,3,0.7,0.7
2025-09-15T2300,1951A,84.895,45.6094,克拉玛依市,长征新村,,24,24,13,11,7,50,,70,66,15,5,2,2,0.3,0.2
2025-09-15T2300,1952A,84.8988,45.5893,克拉玛依市,南林小区,,29,29,15,3,5,51,,68,64,12,5,6,6,0.3,0.3
2025-09-15T2300,1954A,84.905,44.3396,克拉玛依市,独山子区,,26,26,20,7,9,49,,75,70,18,13,4,5,0.4,0.4
2025-09-15T2300,1955A,85.6979,46.098,克拉玛依市,乌尔禾区商贸楼,,35,35,20,3,5,53,,74,65,10,6,3,2,0.3,0.2
2025-09-15T2300,3612A,85.1045,45.6899,克拉玛依市,白碱滩区新站,,29,29,31,14,8,61,,78,75,6,3,4,4,0.2,0.1
2025-09-15T2300,2697A,76.1454,39.7142,克孜勒苏柯尔克孜自治州,市人民政府,颗粒物(PM10),121,191,121,72,51,64,,123,110,45,13,6,9,0.7,0.5
2025-09-15T2300,3665A,76.1658,39.7157,克孜勒苏柯尔克孜自治州,克州文化中心,颗粒物(PM10),173,296,131,49,29,91,,120,112,19,10,8,10,0.3,0.2
2025-09-15T2300,1450A,102.8204,24.8886,昆明市,呈贡新区,,23,,9,16,11,27,,54,46,18,11,3,4,0.5,0.5
2025-09-15T2300,1451A,102.6251,24.9608,昆明市,西山森林公园,,,,,,,,,,,,,,,,
2025-09-15T2300,1452A,102.7252,25.0902,昆明市,龙泉镇,,24,24,19,11,11,34,,55,45,13,10,2,2,0.4,0.5
2025-09-15T2300,1453A,102.7266,25.0375,昆明市,东风东路,,15,15,20,9,16,34,,54,45,15,14,3,4,0.3,0.4
2025-09-15T2300,1454A,102.6742,25.0669,昆明市,金鼎山,,16,16,25,6,11,25,,50,41,18,11,2,2,0.3,0.4
2025-09-15T2300,1455A,102.6644,25.0401,昆明市,碧鸡广场,,,17,22,15,11,,,46,42,24,14,7,8,0.5,0.5
2025-09-15T2300,3179A,102.7494,25.0119,昆明市,官渡区博物馆,,15,15,21,3,10,30,,51,42,12,11,2,2,0.3,0.5
2025-09-15T2300,3375A,102.8017,24.8336,昆明市,青年创业园,,16,16,14,6,6,23,,50,41,15,10,3,2,0.4,0.4
2025-09-15T2300,3550A,102.7997,24.9786,昆明市,昆明学院,,19,19,24,11,13,20,,47,36,22,14,7,8,0.4,0.6
2025-09-15T2300,3551A,102.5967,24.6736,昆明市,晋宁区生态环境分局,,22,22,17,14,7,28,,56,48,14,9,3,2,0.6,0.4
2025-09-15T2300,3552A,102.6678,24.9856,昆明市,云天化总部,,14,9,16,6,11,42,,46,44,7,12,4,6,0.6,0.7
2025-09-15T2300,1456A,91.1319,29.6514,拉萨市,八廓街,,20,11,8,9,6,63,,75,72,11,6,5,5,0.2,0.3
2025-09-15T2300,1457A,91.1221,29.6747,拉萨市,市环保局,,20,9,7,3,7,63,,78,75,10,8,7,7,0.4,0.5
2025-09-15T2300,1458A,91.0874,29.6475,拉萨市,区监测站,,20,7,7,7,6,64,,76,69,14,11,4,4,0.3,0.3
2025-09-15T2300,1459A,91.1774,29.6541,拉萨市,西藏大学,,19,10,7,8,6,58,,71,70,14,10,6,6,0.3,0.2
2025-09-15T2300,1460A,90.9798,29.6588,拉萨市,区辐射站,,19,7,9,7,6,60,,66,63,22,11,5,5,0.4,0.3
2025-09-15T2300,1461A,91.0834,29.6292,拉萨市,拉萨火车站,,17,10,7,3,6,52,,72,69,15,7,6,5,0.6,0.4
2025-09-15T2300,2520A,109.2203,23.7256,来宾市,来宾技工学校,,32,32,28,17,12,32,,72,60,16,11,9,9,0.8,0.8
2025-09-15T2300,3535A,109.1781,23.7297,来宾市,兴宾区政府,,36,36,27,18,18,35,,79,67,17,11,12,8,0.6,0.6
2025-09-15T2300,4002A,109.2416,23.7461,来宾市,中南小学,,31,31,27,11,14,37,,76,63,16,11,13,14,0.5,0.5
2025-09-15T2300,1477A,104.1373,35.9454,兰州市,榆中兰大校区,,,,,,,,,,,,,,,,
2025-09-15T2300,1479A,103.831,36.0464,兰州市,铁路设计院,颗粒物(PM10),232,372,199,118,68,24,,88,71,63,30,10,11,0.6,0.6
2025-09-15T2300,3241A,103.7439,36.0842,兰州市,百合公园,颗粒物(PM10),193,335,192,108,55,21,,92,78,50,20,7,4,0.5,0.4
2025-09-15T2300,3242A,103.9611,35.998,兰州市,和平,颗粒物(PM10),379,483,208,155,70,61,,102,90,19,11,8,10,0.3,0.5
2025-09-15T2300,4236A,103.6293,36.0938,兰州市,庄浪东路808号,颗粒物(PM10),205,353,210,127,70,11,,95,65,74,32,12,14,0.5,0.3
2025-09-15T2300,4237A,103.7251,36.1043,兰州市,安宁西路88号,颗粒物(PM10),252,386,230,114,74,87,,102,99,2,15,5,6,0.2,0.3
2025-09-15T2300,4238A,103.8470,36.0676,兰州市,北滨河东路1号,颗粒物(PM10),198,345,208,104,65,17,,103,80,66,25,8,11,0.4,0.4
2025-09-15T2300,3245A,103.6633,36.533,兰州新区,新区管委会,颗粒物(PM10),85,119,166,50,69,94,,106,101,7,12,3,3,0.2,0.3
2025-09-15T2300,3246A,103.6975,36.4789,兰州新区,舟曲中学,颗粒物(PM10),132,213,227,62,72,86,,100,93,11,14,5,12,0.2,0.3
2025-09-15T2300,1067A,116.6708,39.5111,廊坊市,药材公司,颗粒物(PM10),57,63,57,16,16,31,,58,52,35,35,6,7,0.5,0.6
2025-09-15T2300,1068A,116.7214,39.5589,廊坊市,开发区,,40,40,42,18,14,22,,56,47,34,31,2,3,0.4,0.5
2025-09-15T2300,1070A,116.7244,39.5269,廊坊市,北华航天学院,,41,41,46,18,15,26,,58,50,34,30,6,7,0.5,0.6
2025-09-15T2300,2919A,116.7022,39.5453,廊坊市,河北工业大学,,36,36,41,15,15,24,,56,48,35,38,3,5,0.5,0.5
2025-09-15T2300,2535A,103.7723,29.5462,乐山市,花湖湾,细颗粒物(PM2.5),65,55,52,47,44,77,,105,97,24,17,7,6,0.5,0.6
2025-09-15T2300,2536A,103.7627,29.5844,乐山市,牛耳桥,细颗粒物(PM2.5),114,100,51,86,40,19,,112,74,34,22,6,6,0.9,0.8
2025-09-15T2300,2537A,103.7508,29.6006,乐山市,市第三水厂,细颗粒物(PM2.5),122,100,48,92,39,38,,109,77,28,21,4,4,1.0,0.8
2025-09-15T2300,2538A,103.7571,29.5664,乐山市,市监测站,细颗粒物(PM2.5),77,73,56,56,42,46,,112,94,31,17,6,7,1.0,0.9
2025-09-15T2300,3361A,103.7311,29.5628,乐山市,理工大学,细颗粒物(PM2.5),59,52,51,42,41,66,,120,94,24,17,8,7,0.9,0.9
2025-09-15T2300,2598A,100.2143,26.8576,丽江市,西南郊,,,,20,,8,,,46,,,6,,6,,0.6
2025-09-15T2300,2599A,100.2497,26.8802,丽江市,丽江古城,,42,42,30,23,12,44,,89,78,16,12,10,10,0.5,0.5
2025-09-15T2300,2600A,100.2203,26.8906,丽江市,市中心,,22,18,20,13,10,70,,96,86,12,11,13,11,0.6,0.6
2025-09-15T2300,1267A,119.914,28.4514,丽水市,监测站大楼,,20,20,24,13,10,62,,108,98,7,10,4,5,0.3,0.4
2025-09-15T2300,1268A,119.93,28.4586,丽水市,莲都小学,,20,15,28,8,11,62,,110,98,8,12,4,4,0.3,0.3
2025-09-15T2300,1269A,119.879,28.4231,丽水市,余庄前,,20,20,26,13,16,52,,99,86,10,9,5,5,0.3,0.4
2025-09-15T2300,1173A,119.176,34.5885,连云港市,市环境监测站,,26,24,36,17,27,83,,105,93,11,13,5,6,0.8,0.8
2025-09-15T2300,3000A,119.3581,34.6972,连云港市,德源药业,,29,29,44,12,24,61,,97,73,29,28,5,5,0.8,0.9
2025-09-15T2300,3007A,119.178,34.844,连云港市,新城一中,,31,31,36,10,18,58,,107,88,35,25,4,4,0.7,0.8
2025-09-15T2300,3008A,119.3608,34.7519,连云港市,胡沟管理处,,29,29,33,17,19,64,,77,54,35,32,6,8,0.9,1.1
2025-09-15T2300,3009A,119.1478,34.5911,连云港市,矿山设计院,,25,22,39,17,29,73,,94,81,11,15,6,7,0.9,1
2025-09-15T2300,3434A,119.2413,34.6539,连云港市,工贸学校,,30,29,28,21,21,94,,104,95,4,7,6,7,1.0,1
2025-09-15T2300,3664A,119.4172,34.7341,连云港市,连云街道,,37,37,29,20,13,94,,90,89,7,13,4,6,0.8,0.7
2025-09-15T2300,2571A,102.3431,27.8099,凉山彝族自治州,青龙寺,,,,29,,8,,,47,,,7,,9,,0.8
2025-09-15T2300,2572A,102.2721,27.8415,凉山彝族自治州,邛海宾馆,,21,21,28,11,16,56,,105,84,12,12,9,12,0.5,0.7
2025-09-15T2300,2573A,102.2625,27.898,凉山彝族自治州,西昌市政府,,21,21,28,9,17,58,,94,78,6,11,8,12,0.4,0.7
2025-09-15T2300,2574A,102.2685,27.8851,凉山彝族自治州,凉山州政府,,33,32,36,23,23,56,,95,78,8,12,8,11,0.7,0.9
2025-09-15T2300,4229A,102.2342,27.8859,凉山彝族自治州,凯乐南路30号,,27,27,33,9,16,49,,93,78,13,16,10,13,0.7,0.9
2025-09-15T2300,2212A,123.2,41.1953,辽阳市,宏伟区,,39,39,24,3,6,99,,80,78,7,15,3,6,0.6,0.7
2025-09-15T2300,2213A,123.1683,41.2495,辽阳市,新华园,颗粒物(PM10),51,52,35,8,8,33,,90,60,37,25,6,5,0.7,0.6
2025-09-15T2300,2214A,123.2354,41.2639,辽阳市,滨河路,,25,25,33,6,15,54,,78,56,19,22,5,6,0.6,0.7
2025-09-15T2300,2215A,123.149,41.2991,辽阳市,铁西工业园,颗粒物(PM10),59,68,37,29,15,6,,80,42,42,21,8,6,1.3,0.8
2025-09-15T2300,2227A,125.1358,42.8845,辽源市,环保局,,37,37,32,8,2,26,,73,48,14,8,10,9,0.4,0.4
2025-09-15T2300,3239A,125.0764,42.9078,辽源市,银鹰制药,,18,18,16,7,5,24,,72,42,28,18,10,13,0.4,0.3
2025-09-15T2300,1625A,115.9848,36.4372,聊城市,区政府,,19,16,34,9,19,58,,96,84,11,13,10,10,0.6,0.7
2025-09-15T2300,2878A,116.0072,36.4343,聊城市,聊大东校,,20,,34,14,22,61,,100,87,14,14,9,10,0.6,0.7
2025-09-15T2300,3200A,115.9819,36.4978,聊城市,监控中心,,22,16,33,7,16,69,,103,92,10,11,9,8,0.8,0.8
2025-09-15T2300,3513A,116.0445,36.4361,聊城市,九州社区,,20,18,38,8,21,63,,103,89,7,8,5,5,0.5,0.6
2025-09-15T2300,4018A,116.0567,36.4608,聊城市,星美广场,,20,14,36,8,21,64,,100,84,7,11,3,3,0.4,0.6
2025-09-15T2300,2632A,94.3681,29.6376,林芝市,林芝监测站,,20,8,9,7,5,64,,66,65,11,5,3,4,0.4,0.4
2025-09-15T2300,2633A,94.3616,29.6616,林芝市,林芝人民医院,,22,6,13,3,5,70,,62,62,1,3,5,6,0.5,0.6
2025-09-15T2300,2603A,100.0781,23.8982,临沧市,市环保局,,45,,15,31,19,15,,36,26,5,6,4,5,0.4,0.5
2025-09-15T2300,2604A,100.0894,23.8822,临沧市,市气象局,,13,13,12,6,8,13,,31,22,9,7,8,7,0.6,0.6
2025-09-15T2300,1733A,111.5531,36.0783,临汾市,临钢医院,颗粒物(PM10),61,71,54,18,13,45,,128,100,30,18,6,6,0.8,0.7
2025-09-15T2300,1734A,111.5028,36.0714,临汾市,技工学校,颗粒物(PM10),58,65,55,29,30,30,,128,95,39,14,6,6,0.8,0.7
2025-09-15T2300,1736A,111.5018,36.0855,临汾市,市委,颗粒物(PM10),69,88,66,22,18,34,,134,99,41,17,6,5,0.9,0.8
2025-09-15T2300,3018A,111.505,36.1014,临汾市,唐尧大酒店,颗粒物(PM10),66,81,62,25,21,42,,132,97,35,17,7,6,0.9,0.8
2025-09-15T2300,4244A,111.4879,36.0530,临汾市,启星学校,颗粒物(PM10),60,69,52,35,31,32,,134,95,40,17,4,4,0.8,0.7
2025-09-15T2300,4271A,103.2464,35.6123,临夏回族自治州,滨河东路1号,颗粒物(PM10),56,62,71,38,25,0,,72,40,34,22,7,9,0.5,0.3
2025-09-15T2300,4310A,103.2093,35.5995,临夏回族自治州,新华街21号,,50,50,62,28,26,41,,89,71,24,17,6,7,0.3,0.3
2025-09-15T2300,1618A,118.3429,35.0532,临沂市,沂河小区,细颗粒物(PM2.5),57,53,50,40,34,67,,94,86,23,23,9,10,0.8,0.6
2025-09-15T2300,1619A,118.295,35.0583,临沂市,鲁南制药厂,细颗粒物(PM2.5),55,53,45,39,33,79,,96,88,16,18,10,11,0.9,0.7
2025-09-15T2300,1620A,118.2794,34.9976,临沂市,新光毛纺厂,,48,48,40,33,32,72,,94,83,24,22,8,11,0.8,0.7
2025-09-15T2300,1621A,118.3956,35.0888,临沂市,河东保险公司,,,41,51,32,30,,,96,82,16,28,7,7,0.6,0.6
2025-09-15T2300,3370A,118.3564,35.0215,临沂市,十里堡居委,颗粒物(PM10),54,58,47,36,36,73,,96,85,22,25,9,10,0.8,0.6
2025-09-15T2300,3496A,118.3604,35.1084,临沂市,南坊新区,颗粒物(PM10),53,56,53,29,27,73,,100,85,17,28,9,9,0.8,0.7
2025-09-15T2300,3860A,118.3920,35.0300,临沂市,皇山花园小区,,48,48,48,27,28,66,,95,85,21,28,10,11,0.7,0.6
2025-09-15T2300,1870A,109.4856,24.3895,柳州市,柳东小学,,18,18,21,11,9,44,,71,68,19,11,5,9,0.3,0.3
2025-09-15T2300,1871A,109.4157,24.3277,柳州市,环保监测站,,23,22,22,16,10,31,,72,61,23,10,7,7,0.6,0.5
2025-09-15T2300,1872A,109.389,24.341,柳州市,河西水厂,,30,26,24,21,11,51,,73,65,10,10,5,5,0.6,0.6
2025-09-15T2300,1873A,109.4311,24.2921,柳州市,市四中,,26,24,25,18,12,34,,70,58,26,17,7,7,0.9,0.7
2025-09-15T2300,1874A,109.4006,24.3631,柳州市,市九中,,35,35,27,13,12,33,,72,60,22,12,3,3,0.7,0.6
2025-09-15T2300,1875A,109.4958,24.3134,柳州市,古亭山,,27,27,23,13,12,12,,67,46,37,16,5,5,0.5,0.5
2025-09-15T2300,3402A,109.5422,24.3996,柳州市,市二中,,30,29,22,21,12,20,,71,61,43,17,7,10,0.8,0.6
2025-09-15T2300,2307A,116.5079,31.737,六安市,监测大楼,,32,32,15,20,11,48,,87,77,12,7,4,4,0.4,0.2
2025-09-15T2300,2308A,116.4738,31.7643,六安市,皖西学院,,31,31,13,20,10,51,,86,76,8,4,2,3,0.4,0.3
2025-09-15T2300,2309A,116.4996,31.7905,六安市,朝阳厂,,25,21,13,17,10,52,,77,67,12,11,6,6,0.5,0.4
2025-09-15T2300,2310A,116.5567,31.7886,六安市,开发区,,25,22,10,17,10,49,,79,69,13,12,2,2,0.5,0.4
2025-09-15T2300,2576A,104.8,26.5892,六盘水市,窑上,,,,26,,21,,,29,,,5,,1,,0.3
2025-09-15T2300,2577A,104.83,26.5917,六盘水市,黄土坡,,16,,14,7,10,49,,65,62,5,8,3,4,0.0,0.1
2025-09-15T2300,2578A,104.89,26.5939,六盘水市,水钢,,20,20,25,9,12,59,,68,67,2,4,3,2,0.1,0.1
2025-09-15T2300,2579A,104.8475,26.5894,六盘水市,民中,,17,12,12,7,6,54,,66,63,5,6,2,2,0.2,0.2
2025-09-15T2300,2580A,104.9544,26.5506,六盘水市,双水,,23,,12,16,9,48,,64,61,6,7,3,3,0,0
2025-09-15T2300,2335A,117.0189,25.1181,龙岩市,龙岩师专,,,,,,,,,,,,,,,,
2025-09-15T2300,2336A,117.0217,25.1033,龙岩市,龙岩市监测站,,31,31,23,21,15,9,,94,40,36,18,11,9,0.7,0.6
2025-09-15T2300,2337A,117.0258,25.0661,龙岩市,闽西职业技术学院,,28,28,29,17,16,7,,90,25,26,18,21,12,0.5,0.5
2025-09-15T2300,2338A,117.0196,25.0306,龙岩市,龙岩学院,,23,23,26,8,17,21,,88,36,8,12,6,7,0.5,0.6
2025-09-15T2300,2665A,105.0822,33.3261,陇南市,汉王镇固水子,,,,,,,,,,,,,,,,
2025-09-15T2300,2885A,104.9339,33.3826,陇南市,滨江中学,,38,38,43,9,18,52,,84,65,11,7,4,6,0.7,0.7
2025-09-15T2300,3247A,104.955,33.371,陇南市,市总工会,,32,32,43,8,14,58,,85,67,10,9,8,7,0.4,0.4
2025-09-15T2300,2487A,111.9589,27.8901,娄底市,电视发射台,,25,25,44,15,19,33,,85,49,5,6,5,6,0.3,0.5
2025-09-15T2300,2488A,111.9975,27.725,娄底市,市监测站,,46,43,38,32,25,46,,89,76,17,11,11,10,0.8,0.7
2025-09-15T2300,2489A,112.0194,27.7314,娄底市,市委党校,,48,40,34,33,25,54,,87,75,17,9,11,7,0.6,0.5
2025-09-15T2300,2490A,111.9561,27.7569,娄底市,涟钢,颗粒物(PM10),55,60,45,36,27,24,,76,54,16,13,3,9,1.1,1.1
2025-09-15T2300,2491A,111.9892,27.7044,娄底市,市政府,细颗粒物(PM2.5),74,75,35,54,26,26,,91,68,18,7,7,7,1.2,1
2025-09-15T2300,1893A,105.4324,28.9634,泸州市,九狮山,颗粒物(PM10),53,55,43,16,8,54,,138,100,13,12,8,7,0.4,0.4
2025-09-15T2300,1894A,105.4427,28.9063,泸州市,小市上码头,,,65,36,33,18,,,104,85,12,16,6,5,0.6,0.6
2025-09-15T2300,1895A,105.4241,28.8573,泸州市,兰田宪桥,,39,39,42,22,20,76,,146,114,9,12,5,5,0.6,0.7
2025-09-15T2300,1896A,105.4379,28.8833,泸州市,市环监站,颗粒物(PM10),55,59,42,38,25,45,,111,91,28,23,7,6,0.5,0.6
2025-09-15T2300,4272A,105.3689,28.7783,泸州市,纳溪中医医院,细颗粒物(PM2.5),65,54,42,47,26,33,,129,98,35,23,3,4,0.7,0.7
2025-09-15T2300,2183A,111.1406,37.5211,吕梁市,环保局,,41,41,92,24,33,47,,84,73,30,34,2,3,0.7,0.8
2025-09-15T2300,2185A,111.1297,37.5136,吕梁市,自来水公司,颗粒物(PM10),53,56,94,27,33,57,,76,67,14,29,3,5,0.7,0.8
2025-09-15T2300,2867A,111.1283,37.51,吕梁市,马茂庄小学,颗粒物(PM10),52,53,92,31,33,49,,83,73,27,34,3,5,0.7,0.8
2025-09-15T2300,1812A,112.3931,34.6516,洛阳市,市委党校,,36,36,42,18,22,68,,116,101,17,14,6,6,0.5,0.5
2025-09-15T2300,1815A,112.494,34.6886,洛阳市,河南林校,,47,47,51,22,24,70,,124,107,27,20,7,7,0.5,0.6
2025-09-15T2300,1816A,112.3844,34.623,洛阳市,开发区管委会,,39,34,38,27,27,67,,138,128,18,11,8,6,0.8,0.6
2025-09-15T2300,1817A,112.4267,34.6258,洛阳市,市委新办公区,,40,35,39,28,32,63,,115,98,20,14,8,8,0.6,0.6
2025-09-15T2300,3340A,112.6005,34.6326,洛阳市,伊滨,,32,24,49,22,30,53,,116,94,23,23,5,6,0.7,0.7
2025-09-15T2300,3341A,112.4951,34.6332,洛阳市,中移产业园,,46,43,50,32,33,53,,118,98,30,22,7,7,0.8,0.8
2025-09-15T2300,3593A,112.5736,34.8993,洛阳市,吉利监测站,,50,50,55,20,30,62,,110,94,14,13,4,5,0.6,0.6
2025-09-15T2300,3635A,112.3677,34.662,洛阳市,河科大西苑校区,,45,45,51,16,18,81,,122,110,20,21,8,8,0.5,0.6
2025-09-15T2300,3636A,112.4388,34.6781,洛阳市,英才小学,,33,33,41,19,26,68,,115,99,18,16,6,7,0.6,0.6
2025-09-15T2300,4214A,112.4600,34.6949,洛阳市,春都路1号院,,41,41,47,16,23,62,,107,91,20,18,8,9,0.5,0.5
2025-09-15T2300,2399A,114.051,33.5699,漯河市,三五一五工厂,,50,50,25,28,13,46,,82,66,22,14,9,7,0.7,0.6
2025-09-15T2300,2400A,114.0055,33.5698,漯河市,漯河大学,,41,41,22,17,9,57,,84,71,18,11,5,5,0.6,0.5
2025-09-15T2300,2401A,114.0138,33.5828,漯河市,市水利局,,36,36,20,19,11,51,,83,73,18,9,6,6,0.7,0.6
2025-09-15T2300,2402A,114.0261,33.5698,漯河市,市广电局,,45,44,23,31,14,51,,89,76,20,9,4,4,0.7,0.6
2025-09-15T2300,3478A,113.9749,33.5664,漯河市,市图书馆,,35,35,23,20,12,56,,79,71,18,10,6,6,0.5,0.4
2025-09-15T2300,4250A,114.0892,33.5882,漯河市,韶山路11号,,43,43,23,22,12,45,,86,69,22,13,4,5,0.6,0.5
2025-09-15T2300,1798A,118.5092,31.6837,马鞍山市,湖东路四小,,33,32,24,23,8,77,,117,89,12,11,7,7,0.5,0.5
2025-09-15T2300,1799A,118.5024,31.6449,马鞍山市,开发区,,48,48,26,20,9,51,,120,78,27,18,5,5,0.5,0.5
2025-09-15T2300,1802A,118.6245,31.7241,马鞍山市,濮塘,,30,30,18,19,13,77,,106,86,11,7,11,9,0.9,0.8
2025-09-15T2300,3633A,118.4918,31.6809,马鞍山市,雨山,,35,35,20,18,10,69,,117,90,17,13,5,7,0.5,0.5
2025-09-15T2300,4191A,118.5274,31.72227,马鞍山市,慈湖高新区,,42,42,20,19,12,60,,120,82,26,18,8,6,0.4,0.4
2025-09-15T2300,1686A,111.0286,21.4688,茂名市,电白南海,,18,12,19,12,12,44,,63,56,8,9,5,5,0.4,0.5
2025-09-15T2300,1687A,110.9294,21.6533,茂名市,茂石化七小,,19,19,21,9,9,41,,70,58,9,9,8,7,0.5,0.4
2025-09-15T2300,1688A,110.9107,21.6687,茂名市,健康路,,19,19,15,12,10,43,,74,63,12,9,8,6,0.7,0.6
2025-09-15T2300,1689A,110.8592,21.6828,茂名市,高岭,,,29,30,7,7,,,66,,18,12,14,11,0.7,0.7
2025-09-15T2300,3450A,111.01,21.5165,茂名市,电白水东,,15,14,12,3,5,48,,65,57,10,9,7,7,0.6,0.6
2025-09-15T2300,2539A,104.0308,30.0478,眉山市,黑龙滩水库,,38,29,16,26,12,68,,131,115,3,2,3,3,0.5,0.4
2025-09-15T2300,2540A,103.8416,30.0874,眉山市,气象局,,35,,60,22,39,109,,128,117,11,22,8,10,0.4,0.5
2025-09-15T2300,3137A,103.8578,30.0744,眉山市,市委党校,,31,29,53,19,35,97,,115,107,10,23,7,8,0.7,0.8
2025-09-15T2300,3148A,103.8291,30.0564,眉山市,区人社局,颗粒物(PM10),51,51,71,14,40,102,,119,112,6,21,8,8,1.0,1.2
2025-09-15T2300,1690A,116.1231,24.3284,梅州市,梅江月梅,,34,34,29,22,18,33,,87,46,18,15,8,10,0.6,0.6
2025-09-15T2300,1691A,116.0797,24.2719,梅州市,梅县新城,,29,27,26,20,16,24,,84,46,21,13,10,8,0.7,0.6
2025-09-15T2300,1692A,116.1248,24.2654,梅州市,环境监控中心,,30,30,27,20,19,27,,82,34,22,18,4,7,0.6,0.6
2025-09-15T2300,3315A,116.1233,24.2991,梅州市,梅龙,,34,34,26,18,18,27,,82,39,23,12,8,9,0.9,0.8
2025-09-15T2300,1878A,104.7778,31.4741,绵阳市,富乐山,,37,37,34,16,23,46,,106,79,19,14,8,9,0.7,0.7
2025-09-15T2300,1880A,104.6697,31.4668,绵阳市,高新区自来水公司,颗粒物(PM10),54,57,46,27,21,12,,103,72,51,27,9,10,0.8,0.7
2025-09-15T2300,1881A,104.7287,31.5075,绵阳市,三水厂,,50,42,43,35,29,15,,119,91,49,29,11,11,0.8,0.7
2025-09-15T2300,3491A,104.69,31.5322,绵阳市,西科大附属小学,颗粒物(PM10),63,76,54,44,29,14,,130,88,52,26,8,8,0.7,0.6
2025-09-15T2300,3492A,104.5648,31.5343,绵阳市,安州区旅游局,颗粒物(PM10),59,67,39,24,19,14,,116,80,25,17,12,7,0.9,0.8
2025-09-15T2300,4226A,104.7651,31.4531,绵阳市,绵阳市气象局,,49,49,39,23,23,64,,103,86,22,21,7,7,0.7,0.6
2025-09-15T2300,1784A,129.61,44.561,牡丹江市,环保大楼,,29,29,28,8,12,38,,63,41,12,11,5,5,0.2,0.2
2025-09-15T2300,1785A,129.6115,44.5782,牡丹江市,文化广场,,40,40,24,20,19,36,,66,41,16,13,6,6,0.3,0.2
2025-09-15T2300,1786A,129.5904,44.5963,牡丹江市,第一医院,,48,48,34,27,22,9,,68,33,37,15,12,8,0.4,0.3
2025-09-15T2300,1787A,129.6364,44.6075,牡丹江市,机车工厂,,34,34,33,22,19,16,,63,35,29,13,11,7,0.3,0.3
2025-09-15T2300,1788A,129.6386,44.5462,牡丹江市,第一中学,,22,15,28,15,18,35,,64,39,12,10,4,4,0.2,0.2
2025-09-15T2300,2531A,105.0703,29.61,内江市,市监测站,细颗粒物(PM2.5),92,74,29,68,24,37,,130,86,33,18,5,4,0.7,0.6
2025-09-15T2300,2532A,105.0717,29.5947,内江市,东兴区政府,细颗粒物(PM2.5),69,,25,50,19,46,,130,103,36,18,7,6,0.7,0.6
2025-09-15T2300,2533A,105.0653,29.5817,内江市,内江二中,细颗粒物(PM2.5),82,,29,60,27,66,,138,112,20,18,3,3,0.9,0.8
2025-09-15T2300,2534A,105.0406,29.5822,内江市,内江日报社,细颗粒物(PM2.5),67,,27,48,26,32,,150,110,63,26,7,6,0.8,0.6
2025-09-15T2300,2628A,92.0657,31.4846,那曲市,那曲监测站,,34,34,21,19,10,84,,104,96,21,14,5,5,0.4,0.4
2025-09-15T2300,4243A,92.0515,31.4787,那曲市,那曲市委宣传部,,32,10,10,3,4,100,,117,113,8,6,4,4,0.3,0.3
2025-09-15T2300,1290A,115.8931,28.6843,南昌市,省外办,,39,29,26,27,18,97,,125,114,5,7,5,6,0.9,0.9
2025-09-15T2300,1291A,115.8886,28.7003,南昌市,省林业公司,,41,41,23,27,15,64,,125,104,17,11,3,4,0.7,0.7
2025-09-15T2300,1292A,115.8126,28.7442,南昌市,林科所,,28,22,16,19,11,81,,135,112,13,12,5,7,0.4,0.5
2025-09-15T2300,1294A,115.8518,28.687,南昌市,建工学校,,38,38,32,26,16,79,,126,108,27,19,9,9,0.9,0.8
2025-09-15T2300,1295A,115.8921,28.6424,南昌市,象湖,,32,22,23,19,13,102,,140,126,12,15,8,9,0.7,0.8
2025-09-15T2300,1296A,115.7423,28.7996,南昌市,武术学校,,27,27,16,7,11,16,,102,57,10,9,10,10,0.1,0.1
2025-09-15T2300,3046A,115.9084,28.6062,南昌市,机电学校,,42,42,34,22,14,80,,140,117,26,15,6,8,0.5,0.5
2025-09-15T2300,3690A,115.9721,28.7031,南昌市,外国语学校,,36,36,30,24,16,92,,135,117,16,16,6,8,0.4,0.4
2025-09-15T2300,4192A,115.9316,28.68677,南昌市,南京东路235号,,36,36,28,19,13,96,,143,126,15,14,11,12,0.8,0.8
2025-09-15T2300,1905A,106.056,30.8064,南充市,西山风景区,,,,,,,,,,,,,,,,
2025-09-15T2300,1906A,106.0789,30.8023,南充市,南充市委,细颗粒物(PM2.5),58,52,39,41,26,20,,109,84,37,17,4,5,0.7,0.5
2025-09-15T2300,1907A,106.1031,30.8217,南充市,南充炼油厂,细颗粒物(PM2.5),75,76,44,55,27,43,,107,86,16,13,6,6,0.4,0.3
2025-09-15T2300,4227A,106.1083,30.7884,南充市,梨树横街98号,细颗粒物(PM2.5),89,83,42,66,29,40,,121,101,18,15,3,4,0.5,0.4
2025-09-15T2300,4304A,106.1172,30.843,南充市,清泉寺北路188号,细颗粒物(PM2.5),75,65,34,55,25,57,,110,94,12,11,6,6,0.4,0.3
2025-09-15T2300,4305A,106.067,30.7616,南充市,同庆路1号,细颗粒物(PM2.5),73,57,35,53,22,30,,114,89,32,18,5,6,0.6,0.5
2025-09-15T2300,1151A,118.8086,32.1065,南京市,迈皋桥,,33,20,14,14,9,104,,131,111,2,6,3,4,0.6,0.6
2025-09-15T2300,1152A,118.7538,32.0551,南京市,草场门,,39,39,20,22,9,73,,121,106,21,15,4,4,0.7,0.6
2025-09-15T2300,1153A,118.7794,32.0745,南京市,山西路,,34,34,19,12,5,95,,135,117,13,12,4,4,0.5,0.5
2025-09-15T2300,1154A,118.7752,32.0023,南京市,中华门,,27,24,13,14,6,85,,117,101,23,17,4,4,0.6,0.5
2025-09-15T2300,1155A,118.8109,32.0309,南京市,瑞金路,,35,27,14,24,10,68,,113,92,14,8,6,6,0.4,0.5
2025-09-15T2300,1156A,118.7997,32.0754,南京市,玄武湖,,29,29,18,14,6,85,,120,103,12,9,4,4,0.6,0.6
2025-09-15T2300,1157A,118.6414,32.0931,南京市,浦口,,33,33,19,14,6,65,,121,96,21,17,6,6,0.5,0.6
2025-09-15T2300,1158A,118.7356,31.9996,南京市,奥体中心,,39,39,19,24,10,97,,132,119,19,12,6,6,0.5,0.4
2025-09-15T2300,1159A,118.9125,32.1028,南京市,仙林大学城,,32,24,21,22,5,86,,111,100,16,9,8,7,0.7,0.6
2025-09-15T2300,3422A,118.8436,31.9198,南京市,江宁彩虹桥,,47,47,21,24,9,77,,126,111,26,14,7,7,0.6,0.5
2025-09-15T2300,3427A,118.8554,32.3578,南京市,六合雄州,,45,45,18,15,7,37,,131,94,36,20,6,6,0.9,0.8
2025-09-15T2300,4249A,118.8708,31.3402,南京市,汶溪路181号,,28,20,13,15,11,88,,97,89,11,10,6,6,0.6,0.6
2025-09-15T2300,4312A,119.019,31.6512,南京市,中山西路1号,,24,24,13,14,9,75,,104,93,19,14,4,4,0.5,0.5
2025-09-15T2300,1401A,108.3103,22.7881,南宁市,二十一中,,16,9,16,6,8,51,,68,55,10,8,4,4,0.6,0.5
2025-09-15T2300,1402A,108.3141,22.8528,南宁市,北湖,,35,,22,24,10,31,,71,41,25,15,3,2,0.5,0.5
2025-09-15T2300,1403A,108.3206,22.8225,南宁市,市监测站,,18,14,15,12,9,45,,63,48,12,9,4,4,0.5,0.4
2025-09-15T2300,1404A,108.3829,22.8037,南宁市,大自然花园,,23,23,19,9,9,13,,65,40,20,9,4,5,0.6,0.5
2025-09-15T2300,1405A,108.4394,22.7904,南宁市,仙葫,,18,18,19,10,8,36,,64,41,14,9,4,5,0.6,0.5
2025-09-15T2300,1406A,108.2397,22.8467,南宁市,区农职院,,32,32,19,15,9,1,,68,37,32,14,6,6,0.6,0.5
2025-09-15T2300,1407A,108.3275,22.735,南宁市,英华嘉园,,25,25,20,10,10,50,,63,50,14,11,2,2,0.4,0.4
2025-09-15T2300,3401A,108.4834,22.7618,南宁市,红星社区,,23,21,19,16,12,33,,67,47,15,10,3,4,0.4,0.3
2025-09-15T2300,4221A,108.2177,22.7774,南宁市,乐贤路16号,,27,27,20,13,15,7,,58,38,26,16,5,5,0.6,0.5
2025-09-15T2300,2331A,118.0966,26.6761,南平市,茫荡山,,,,21,,15,,,102,,,,,3,,0.3
2025-09-15T2300,2332A,118.1681,26.6369,南平市,南平市监测站,,24,14,20,7,14,75,,108,73,11,11,6,6,0.6,0.6
2025-09-15T2300,2333A,118.1825,26.6489,南平市,南平铝业有限公司,,38,29,25,26,46,63,,115,79,22,15,8,7,0.8,0.6
2025-09-15T2300,2334A,118.1756,26.6272,南平市,南平七中,,26,21,22,8,12,82,,108,73,6,9,5,4,0.7,0.5
2025-09-15T2300,1168A,120.9098,31.9663,南通市,狼山街道,,30,30,24,18,19,63,,155,126,30,26,6,6,0.8,1.2
2025-09-15T2300,1169A,120.86,32.0005,南通市,虹桥,,,28,27,24,22,61,,159,144,40,26,6,7,,1.4
2025-09-15T2300,1170A,120.87,32.02,南通市,城中,,33,33,30,19,18,66,,156,137,34,23,5,4,0.6,1
2025-09-15T2300,1171A,120.94,31.93,南通市,星湖花园,,33,25,25,23,19,73,,178,156,24,21,5,5,0.4,0.9
2025-09-15T2300,1172A,120.81,32.0417,南通市,紫琅学院,,24,24,24,16,17,60,,115,110,35,30,6,6,0.9,1.2
2025-09-15T2300,3291A,121.067,32.062,南通市,通州监测站,,35,31,25,24,20,97,,149,118,15,15,1,2,0.8,1.1
2025-09-15T2300,3432A,120.9348,31.9883,南通市,环境教育馆,,27,27,33,18,21,68,,180,136,26,23,4,5,0.3,0.8
2025-09-15T2300,2404A,112.5224,33.0122,南阳市,瓦房庄,,43,43,32,15,8,61,,79,71,12,8,7,7,0.5,0.5
2025-09-15T2300,2405A,112.5003,32.9735,南阳市,汉画馆,,40,40,27,18,13,46,,73,61,15,12,8,8,0.7,0.6
2025-09-15T2300,2406A,112.5573,33.027,南阳市,气象站,,42,42,25,12,11,63,,86,76,16,8,5,6,0.6,0.6
2025-09-15T2300,2407A,112.5481,32.9689,南阳市,理工学院,,44,44,32,12,6,56,,78,70,20,12,9,9,0.6,0.6
2025-09-15T2300,4008A,112.5234,32.9922,南阳市,卧龙区政府,,40,40,28,20,14,60,,77,68,16,11,6,6,0.7,0.7
2025-09-15T2300,1234A,121.8358,29.911,宁波市,区环保大楼,,14,12,24,3,11,44,,110,52,8,16,4,6,0.4,0.5
2025-09-15T2300,1235A,121.56,29.82,宁波市,万里学院,,18,18,26,8,17,40,,130,74,11,11,8,7,0.6,0.6
2025-09-15T2300,1236A,121.713,29.9572,宁波市,龙赛医院,,16,,29,11,13,45,,160,62,6,14,5,6,0.3,0.5
2025-09-15T2300,1239A,121.633,29.7733,宁波市,钱湖水厂,,12,8,18,3,12,37,,118,65,5,4,6,6,0.5,0.5
2025-09-15T2300,1240A,121.5856,29.8635,宁波市,太古小学,,16,16,29,11,15,28,,139,64,19,12,2,3,0.6,0.6
2025-09-15T2300,1241A,121.524,29.8674,宁波市,市环境监测中心,,22,22,27,10,14,42,,126,68,10,14,6,7,0.6,0.7
2025-09-15T2300,2871A,121.6147,29.9017,宁波市,万里国际学校,,21,21,29,9,16,46,,152,77,5,10,4,5,0.5,0.6
2025-09-15T2300,3710A,121.5594,29.8975,宁波市,白沙活动中心,,17,17,23,9,14,38,,151,76,16,15,8,8,0.5,0.5
2025-09-15T2300,2339A,119.5001,26.6946,宁德市,金涵水库,,,,18,,7,,,47,,,3,,1,,0.4
2025-09-15T2300,2341A,119.5388,26.6612,宁德市,宁德市监测站,,12,10,16,7,11,37,,109,67,16,8,4,4,0.4,0.5
2025-09-15T2300,3209A,119.5231,26.6562,宁德市,宁德一中,,29,,19,20,6,43,,111,72,7,6,5,5,0.3,0.4
2025-09-15T2300,2618A,98.8601,25.8567,怒江傈僳族自治州,州监测站,,21,21,21,14,10,19,,52,42,9,7,8,8,0.5,0.4
2025-09-15T2300,2619A,98.8546,25.8417,怒江傈僳族自治州,泸水一中,,18,14,18,12,8,8,,38,28,15,9,4,4,0.6,0.6
2025-09-15T2300,1888A,101.6891,26.571,攀枝花市,弄弄坪,颗粒物(PM10),57,64,38,16,15,16,,87,60,40,22,12,14,1.0,0.9
2025-09-15T2300,1889A,101.5769,26.5928,攀枝花市,河门口,,40,40,34,21,17,43,,87,70,16,15,23,21,0.9,1.1
2025-09-15T2300,1890A,101.7169,26.585,攀枝花市,炳草岗,颗粒物(PM10),55,59,43,26,19,27,,92,75,42,25,19,16,0.9,0.8
2025-09-15T2300,1891A,101.7369,26.5008,攀枝花市,仁和,,,,17,,8,25,,70,55,16,12,9,9,0.7,0.6
2025-09-15T2300,2835A,101.7227,26.567,攀枝花市,四十中小,,33,33,31,16,16,25,,92,68,39,20,55,29,1.1,0.9
2025-09-15T2300,1604A,122.0303,41.1489,盘锦市,开发区,,39,39,25,13,8,26,,87,62,36,28,9,10,0.7,0.7
2025-09-15T2300,1605A,122.0485,41.0883,盘锦市,兴隆台,颗粒物(PM10),52,53,32,14,7,18,,96,56,54,34,10,11,0.6,0.5
2025-09-15T2300,1606A,121.8297,41.1028,盘锦市,新生街道,,24,24,17,14,6,23,,83,55,36,27,4,7,0.4,0.4
2025-09-15T2300,1832A,113.3257,33.742,平顶山市,新华旅馆,,40,40,28,11,14,24,,85,68,34,17,5,5,0.4,0.4
2025-09-15T2300,1833A,113.2919,33.737,平顶山市,规划设计院,,42,42,28,22,15,37,,83,74,28,14,4,4,0.9,0.7
2025-09-15T2300,1834A,113.182,33.774,平顶山市,平顶山工学院,,22,22,23,3,9,69,,86,83,14,12,7,7,0.3,0.4
2025-09-15T2300,3204A,113.3025,33.73,平顶山市,规划局,颗粒物(PM10),54,58,34,6,10,33,,84,75,28,15,4,4,0.6,0.5
2025-09-15T2300,3594A,112.8867,33.9116,平顶山市,石龙区,,47,47,43,15,20,29,,80,64,32,19,5,5,0.5,0.5
2025-09-15T2300,2656A,106.6692,35.5461,平凉市,聚贤嘉苑,颗粒物(PM10),143,236,97,69,37,21,,86,39,33,19,9,11,0.8,0.9
2025-09-15T2300,2657A,106.7021,35.5307,平凉市,博物馆,颗粒物(PM10),159,267,94,74,32,18,,87,49,37,20,8,8,0.5,0.7
2025-09-15T2300,2347A,114.0997,27.5002,萍乡市,武功山,,15,12,11,3,11,46,,79,64,6,5,11,11,0.2,0.5
2025-09-15T2300,2348A,113.8385,27.6434,萍乡市,中医院,,50,50,40,28,25,41,,113,86,29,18,3,15,0.8,0.8
2025-09-15T2300,2349A,113.8493,27.6253,萍乡市,市政府车库,细颗粒物(PM2.5),53,,37,37,29,51,,121,98,19,21,10,17,0.5,1.4
2025-09-15T2300,2350A,113.8676,27.6435,萍乡市,市环保局,颗粒物(PM10),51,52,42,28,25,36,,121,94,35,16,12,14,0.5,0.6
2025-09-15T2300,2351A,113.866,27.6198,萍乡市,安源区政府,,46,38,40,32,26,48,,119,94,14,17,9,15,0.3,0.6
2025-09-15T2300,2319A,119.0141,25.4325,莆田市,荔城区仓后路,,21,21,29,9,14,62,,120,70,6,10,7,8,0.6,0.6
2025-09-15T2300,2320A,119.0015,25.4553,莆田市,莆田市监测站,,20,12,26,9,14,62,,123,72,8,11,6,7,0.6,0.6
2025-09-15T2300,2321A,119.1119,25.4561,莆田市,涵江区六中,,19,17,26,3,13,59,,116,68,6,12,5,6,0.3,0.4
2025-09-15T2300,2322A,119.1013,25.3215,莆田市,秀屿区政府,,22,22,27,7,14,53,,122,70,15,12,6,7,0.4,0.5
2025-09-15T2300,2323A,118.981,25.4792,莆田市,东圳水库,,,,24,,11,,,86,,,7,,4,,0.9
2025-09-15T2300,2392A,115.0312,35.7636,濮阳市,环保局,,29,29,32,18,26,52,,80,70,15,12,4,5,0.6,0.6
2025-09-15T2300,2394A,115.0574,35.7609,濮阳市,油田运输公司,,37,37,44,20,24,46,,82,70,17,13,4,4,0.8,0.8
2025-09-15T2300,3021A,115,35.7668,濮阳市,濮水河管理处,,28,28,35,12,21,37,,72,58,17,16,3,4,0.6,0.5
2025-09-15T2300,4216A,115.0924,35.7686,濮阳市,任丘路479号,,38,38,51,21,27,45,,78,66,14,13,4,5,0.7,0.7
2025-09-15T2300,2601A,100.98,22.7633,普洱市,市环保局,,42,29,22,29,13,15,,35,30,5,4,6,6,0.6,0.5
2025-09-15T2300,2602A,100.9817,22.8322,普洱市,普洱第二中学,,33,33,26,23,12,6,,35,28,18,6,6,6,0.5,0.4
2025-09-15T2300,2262A,131.0518,45.8751,七台河市,新一中,,20,10,22,3,5,62,,74,65,11,7,11,9,1.0,0.8
2025-09-15T2300,3345A,131.0577,45.7879,七台河市,中波台,,19,19,33,3,5,49,,51,47,8,9,6,7,0.4,0.4
2025-09-15T2300,3637A,131.0176,45.7761,七台河市,人民广场,,22,,29,15,9,59,,66,56,9,9,11,11,0.5,0.5
2025-09-15T2300,3684A,130.8781,45.8222,七台河市,新建矿广场,,13,,19,8,13,40,,59,52,13,6,9,9,0.4,0.5
2025-09-15T2300,1779A,123.9305,47.3636,齐齐哈尔市,安居小区,,30,30,23,12,5,39,,50,42,14,8,6,5,0.5,0.4
2025-09-15T2300,1780A,123.9488,47.3386,齐齐哈尔市,中心广场,,24,24,15,3,3,43,,57,50,13,8,7,5,0.4,0.4
2025-09-15T2300,1781A,123.9483,47.3227,齐齐哈尔市,农牧车辆厂,,27,27,25,3,6,38,,51,45,11,7,6,4,0.5,0.5
2025-09-15T2300,1783A,123.945,47.2988,齐齐哈尔市,市环境监测站,,26,26,14,6,3,37,,58,51,15,6,8,6,0.2,0.2
2025-09-15T2300,3662A,123.6333,47.2075,齐齐哈尔市,富区青少年活动中心,,32,31,41,22,16,35,,42,35,6,12,6,13,0.4,0.8
2025-09-15T2300,2591A,107.9783,26.5747,黔东南苗族侗族自治州,市环境监测站,,20,,13,14,14,52,,58,50,4,8,3,3,0.3,0.4
2025-09-15T2300,2881A,107.8908,26.5311,黔东南苗族侗族自治州,凯里学院,,14,14,10,8,8,36,,62,55,13,9,6,6,0.4,0.4
2025-09-15T2300,2593A,107.5228,26.2403,黔南布依族苗族自治州,小围寨,,12,12,12,3,5,37,,54,38,5,4,1,2,0.3,0.3
2025-09-15T2300,3538A,107.5175,26.2978,黔南布依族苗族自治州,沙坝,,13,12,16,7,8,40,,61,49,5,5,3,3,0.2,0.3
2025-09-15T2300,2589A,104.9022,25.0925,黔西南布依族苗族自治州,场坝街,,16,16,14,3,7,29,,50,38,8,7,6,5,0.4,0.3
2025-09-15T2300,2590A,104.8811,25.0992,黔西南布依族苗族自治州,坪东大道,,23,23,20,11,8,6,,49,25,20,8,3,2,0.6,0.5
2025-09-15T2300,2502A,108.6236,21.9667,钦州市,市环保站,,29,29,16,9,5,34,,67,58,23,10,5,4,0.4,0.4
2025-09-15T2300,2503A,108.6549,21.9481,钦州市,沙埠小学,,45,45,25,13,11,9,,61,38,41,13,3,3,0.6,0.5
2025-09-15T2300,2504A,108.5989,21.7431,钦州市,港区一小,,44,44,23,10,10,21,,60,47,30,14,10,4,0.4,0.4
2025-09-15T2300,3404A,108.5959,21.9633,钦州市,北职校,,36,36,17,11,8,17,,66,47,27,10,7,4,0.6,0.4
2025-09-15T2300,1043A,119.7493,40.0116,秦皇岛市,第一关,颗粒物(PM10),52,54,32,25,16,5,,101,55,99,35,7,7,0.7,0.4
2025-09-15T2300,1044A,119.5897,39.9499,秦皇岛市,监测站,颗粒物(PM10),56,61,37,19,10,43,,103,81,45,23,6,7,0.6,0.5
2025-09-15T2300,1046A,119.5251,39.9041,秦皇岛市,建设大厦,颗粒物(PM10),56,62,38,15,9,19,,104,80,65,19,7,8,0.6,0.4
2025-09-15T2300,3132A,119.610547,39.943889,秦皇岛市,文明里,颗粒物(PM10),55,59,33,24,7,52,,102,91,43,20,9,9,0.6,0.3
2025-09-15T2300,4198A,119.5090,39.8253,秦皇岛市,北戴河轮滑馆,颗粒物(PM10),65,79,41,28,12,75,,114,108,22,10,4,4,0.6,0.4
2025-09-15T2300,1307A,120.6659,36.2403,青岛市,仰口,,22,14,13,8,6,68,,76,65,4,6,10,23,0.8,0.7
2025-09-15T2300,1310A,120.4134,36.0658,青岛市,市南区东部子站,,32,12,10,7,10,101,,119,115,4,6,6,6,0.3,0.3
2025-09-15T2300,1311A,120.3664,36.1032,青岛市,四方区子站,,31,,14,12,11,98,,109,108,2,6,2,2,0.3,0.3
2025-09-15T2300,1312A,120.2994,36.054,青岛市,市南区西部子站,,28,9,13,3,8,88,,103,102,19,16,6,6,0.7,0.6
2025-09-15T2300,1313A,120.4581,36.0858,青岛市,崂山区子站,,31,14,7,7,6,98,,116,115,2,6,7,8,0.2,0.2
2025-09-15T2300,1315A,120.3999,36.3083,青岛市,城阳区子站,,32,17,17,12,10,100,,100,100,7,14,3,3,0.5,0.4
2025-09-15T2300,3362A,120.5014,36.4034,青岛市,即墨2号,,26,18,15,9,9,83,,99,94,8,7,4,3,0.3,0.3
2025-09-15T2300,3642A,120.3503,36.0736,青岛市,市北区南部,,32,16,14,3,9,100,,105,105,6,7,6,6,0.8,0.7
2025-09-15T2300,3643A,120.3948,36.1805,青岛市,李沧区北部,,22,14,11,14,11,70,,86,84,8,13,5,5,0.4,0.4
2025-09-15T2300,4290A,120.1969,35.9546,青岛市,珠江路669号,,32,,11,10,13,101,,110,110,1,7,5,6,0.5,0.4
2025-09-15T2300,4291A,120.0424,35.8656,青岛市,黄岛区人民政府广场,,,,15,,8,,,80,,,16,,5,,0.9
2025-09-15T2300,1702A,113.0426,23.691,清远市,环保大楼,,,14,50,6,26,39,,135,,,16,7,11,0.6,0.6
2025-09-15T2300,1703A,113.0208,23.7106,清远市,凤城街办,,18,15,32,8,18,56,,131,103,24,19,7,9,0.5,0.5
2025-09-15T2300,3025A,113.0477,23.6344,清远市,技师学院,,22,17,39,10,22,68,,140,106,16,23,8,10,0.4,0.5
2025-09-15T2300,3318A,112.9903,23.7403,清远市,清新太和,,16,16,34,6,19,36,,135,97,14,18,4,6,0.5,0.6
2025-09-15T2300,3455A,113.076,23.7198,清远市,清城东城,,15,14,32,3,19,45,,122,95,14,14,7,9,0.5,0.5
2025-09-15T2300,2661A,107.6325,35.7357,庆阳市,庆阳五中,,49,49,42,14,18,60,,95,70,20,9,8,8,0.4,0.5
2025-09-15T2300,2662A,107.6364,35.7067,庆阳市,市环保局,,24,23,39,9,28,76,,96,76,13,11,4,4,0.4,0.5
2025-09-15T2300,1916A,103.7897,25.5035,曲靖市,环境监测站,,28,28,17,8,6,22,,62,53,16,8,7,5,0.6,0.4
2025-09-15T2300,1917A,103.8,25.5364,曲靖市,烟厂办公区,,16,15,14,11,9,32,,68,62,9,7,4,4,0.5,0.4
2025-09-15T2300,3376A,103.7947,25.462,曲靖市,南苑二区,,22,22,13,7,6,26,,64,54,17,8,3,4,0.6,0.5
2025-09-15T2300,3377A,103.7444,25.5261,曲靖市,曲靖师范学院,,21,21,13,11,8,30,,68,60,10,8,3,3,0.4,0.4
2025-09-15T2300,1264A,118.8692,28.9398,衢州市,环保大楼,,24,24,31,14,17,58,,116,91,9,14,4,4,0.3,0.4
2025-09-15T2300,1265A,118.8709,28.9666,衢州市,实验学校,,39,39,30,23,17,49,,128,93,18,17,2,4,0.4,0.4
2025-09-15T2300,1266A,118.8621,28.9808,衢州市,衢州学院,,36,36,26,24,16,40,,122,87,27,19,3,4,0.4,0.4
2025-09-15T2300,1611A,118.5819,24.9117,泉州市,涂山街,,24,24,39,16,20,47,,135,88,14,18,3,4,0.4,0.5
2025-09-15T2300,1612A,118.5972,24.8978,泉州市,津头埔,,18,16,36,12,18,52,,142,89,13,17,3,5,0.5,0.5
2025-09-15T2300,1613A,118.6663,24.9424,泉州市,万安,,35,35,37,13,16,42,,136,82,22,16,2,3,0.5,0.6
2025-09-15T2300,1614A,118.6117,24.9604,泉州市,清源山,,,,28,,16,,,83,,,10,,2,,0.4
2025-09-15T2300,3529A,118.6333,24.9264,泉州市,城华南路,,19,19,29,9,15,49,,129,82,8,15,3,4,0.4,0.4
2025-09-15T2300,2626A,88.8876,29.2718,日喀则市,日喀则监测站,,22,,3,3,0,68,,80,68,3,4,9,10,0.4,0.4
2025-09-15T2300,3726A,88.8781,29.2426,日喀则市,林业技术推广中心,,23,9,5,3,1,71,,80,74,3,3,6,6,0.1,0.1
2025-09-15T2300,1659A,119.471,35.4209,日照市,监测站,,25,12,28,10,24,77,,103,90,19,31,6,7,0.6,0.8
2025-09-15T2300,1660A,119.523,35.4216,日照市,市政府广场,,30,9,29,9,19,93,,114,103,10,18,4,6,0.8,0.9
2025-09-15T2300,1661A,119.5587,35.4044,日照市,港务局,,32,,25,15,28,101,,117,105,4,14,3,4,0.7,0.9
2025-09-15T2300,3507A,119.5328,35.4625,日照市,职业技术学院,,28,12,30,9,20,89,,115,101,7,15,5,5,0.7,0.9
2025-09-15T2300,3604A,119.3266,35.1044,日照市,岚山环保分局,,27,17,31,3,15,85,,112,95,16,19,8,11,0.7,1
2025-09-15T2300,1835A,111.1922,34.7752,三门峡市,市政府,颗粒物(PM10),51,51,40,29,23,98,,107,106,13,12,8,6,0.4,0.4
2025-09-15T2300,1836A,111.1587,34.7942,三门峡市,开发区,颗粒物(PM10),56,62,50,35,28,89,,102,100,18,14,6,5,0.4,0.4
2025-09-15T2300,1838A,111.143,34.7955,三门峡市,风景区,,50,50,40,19,21,93,,109,107,12,8,5,5,0.5,0.5
2025-09-15T2300,3039A,111.1911,34.7829,三门峡市,三门峡市第一小学,,47,47,46,30,23,90,,105,102,11,8,4,4,0.6,0.5
2025-09-15T2300,3598A,111.1,34.7167,三门峡市,富达温泉假日酒店,细颗粒物(PM2.5),55,56,31,39,21,80,,94,92,16,9,7,6,0.5,0.4
2025-09-15T2300,2324A,117.6211,26.2625,三明市,三钢,,34,34,31,15,19,25,,131,67,22,16,4,7,0.9,1.4
2025-09-15T2300,2325A,117.635,26.2714,三明市,三明二中,,33,33,48,23,22,18,,126,64,25,16,5,7,1.4,1.4
2025-09-15T2300,2326A,117.6028,26.2378,三明市,三元区政府,,33,31,33,23,19,15,,129,62,23,14,1,3,0.5,0.6
2025-09-15T2300,2327A,117.7275,26.3108,三明市,洋溪,,,,23,,18,,,76,,,9,,6,,1.1
2025-09-15T2300,1876A,109.5078,18.2489,三亚市,河东子站,,11,6,13,3,5,33,,31,30,6,7,2,2,0.6,0.7
2025-09-15T2300,1877A,109.4964,18.2681,三亚市,河西子站,,14,14,14,3,5,33,,36,32,4,6,3,4,0.4,0.5
2025-09-15T2300,3540A,109.7348,18.3443,三亚市,君悦子站,,12,12,14,7,4,36,,45,43,6,5,3,3,0.2,0.2
2025-09-15T2300,2624A,91.7608,29.2313,山南市,山南监测站,,21,6,2,3,2,65,,70,64,2,4,5,4,0.2,0.2
2025-09-15T2300,2625A,91.7706,29.2436,山南市,山南人民医院,,21,6,7,3,4,66,,72,66,2,4,3,3,0.3,0.3
2025-09-15T2300,1674A,116.6794,23.3667,汕头市,金平子站,,22,15,15,8,9,70,,73,68,9,10,2,3,0.5,0.6
2025-09-15T2300,1675A,116.7244,23.3633,汕头市,龙湖子站,,21,7,15,3,8,67,,67,66,4,7,7,7,0.6,0.6
2025-09-15T2300,1676A,116.7258,23.2775,汕头市,濠江子站,,20,11,17,3,10,61,,67,64,5,8,6,6,0.5,0.7
2025-09-15T2300,1677A,116.7519,23.4714,汕头市,澄海子站,,23,11,19,7,12,73,,62,62,5,8,4,4,0.6,0.6
2025-09-15T2300,1678A,116.6092,23.2539,汕头市,潮阳子站,,19,15,17,8,12,59,,68,66,10,7,5,5,0.7,0.6
2025-09-15T2300,3444A,116.454,23.2684,汕头市,潮南峡山,,19,19,18,13,12,45,,74,63,13,8,8,7,0.7,0.4
2025-09-15T2300,3624A,116.4069,23.2533,汕头市,潮南子站,,20,10,19,3,12,62,,67,62,5,7,4,5,0.6,0.6
2025-09-15T2300,1693A,115.3653,22.775,汕尾市,市环保局,,21,8,15,7,6,66,,61,61,8,9,4,4,0.4,0.4
2025-09-15T2300,1694A,115.3706,22.7898,汕尾市,市政府,,28,22,15,19,12,62,,59,59,7,9,5,5,0.4,0.4
2025-09-15T2300,1695A,115.3622,22.7925,汕尾市,新城中学,,25,25,18,9,8,61,,56,56,8,10,6,6,0.5,0.5
2025-09-15T2300,2645A,109.9154,33.8715,商洛市,监测站,,31,31,28,12,9,47,,71,63,12,12,4,7,0.6,0.5
2025-09-15T2300,3045A,109.9643,33.8471,商洛市,商州区中学,,24,24,42,3,15,36,,68,58,19,15,5,11,0.4,0.3
2025-09-15T2300,2408A,115.6702,34.4285,商丘市,环境监测站,,20,16,32,11,15,64,,79,72,6,9,4,4,0.4,0.5
2025-09-15T2300,2409A,115.6458,34.4045,商丘市,粮食局,,20,18,29,3,15,62,,77,70,6,8,4,4,0.4,0.3
2025-09-15T2300,2410A,115.6293,34.3948,商丘市,睢阳区环保局,,18,12,31,12,16,53,,70,59,7,8,4,4,0.3,0.4
2025-09-15T2300,3171A,115.6071,34.4465,商丘市,梁园区档案局,,,,30,13,17,59,,66,65,5,7,4,4,0.6,0.8
2025-09-15T2300,1141A,121.4,31.238,上海市,普陀,,22,20,32,15,23,54,,145,113,23,23,5,6,0.5,0.6
2025-09-15T2300,1142A,121.478,31.2036,上海市,十五厂,,22,19,34,15,26,38,,138,104,24,23,8,9,0.6,0.7
2025-09-15T2300,1143A,121.467,31.3008,上海市,虹口,,29,,32,20,25,49,,126,101,20,24,6,7,0.8,1
2025-09-15T2300,1147A,121.425,31.2261,上海市,静安监测站,,20,18,31,14,24,55,,151,116,23,24,4,4,0.5,0.7
2025-09-15T2300,1148A,121.703,31.1907,上海市,浦东川沙,,22,21,34,15,26,20,,92,75,28,27,8,8,0.7,0.8
2025-09-15T2300,1149A,121.533,31.2284,上海市,浦东新区监测站,,26,25,31,18,20,46,,128,101,22,22,5,5,0.3,0.5
2025-09-15T2300,1150A,121.577,31.2071,上海市,浦东张江,,22,22,33,9,24,39,,130,100,28,25,6,6,0.6,0.7
2025-09-15T2300,3265A,121.4316,31.3322,上海市,宝山庙行,,28,25,34,19,23,66,,141,107,21,25,8,9,0.4,0.6
2025-09-15T2300,3266A,121.8791,31.4662,上海市,崇明上实东滩,,15,14,25,10,19,30,,121,93,18,13,5,5,0.2,0.4
2025-09-15T2300,3268A,121.3162,31.2838,上海市,嘉定南翔,,28,25,28,19,21,58,,148,107,31,26,5,4,0.2,0.3
2025-09-15T2300,3269A,121.3359,30.7456,上海市,金山新城,,18,14,27,12,22,38,,168,123,16,12,4,4,0.8,0.8
2025-09-15T2300,3270A,121.4996,31.0739,上海市,闵行浦江,,17,17,32,8,20,23,,126,87,20,20,4,4,0.8,1.2
2025-09-15T2300,3271A,121.2886,31.1663,上海市,青浦徐泾,,28,28,25,18,20,59,,156,114,19,20,7,7,0.6,0.7
2025-09-15T2300,3272A,121.2186,31.0378,上海市,松江图书馆,,23,20,28,16,22,45,,162,123,26,20,4,4,0.6,0.7
