timepoint,stationcode,longitude,latitude,area,positionname,primarypollutant,aqi,pm10,pm10_24h,pm2_5,pm2_5_24h,o3,o3_24h,o3_8h,o3_8h_24h,no2,no2_24h,so2,so2_24h,co,co_24h
2024-05-21T1600,2566A,102.1879,31.914,阿坝藏族羌族自治州,州农科所,,22,22,32,9,9,49,,40,40,14,11,4,2,0,0
2024-05-21T1600,2568A,102.2502,31.8896,阿坝藏族羌族自治州,马师校,,40,16,23,13,17,126,,99,99,6,9,3,3,0.3,0.3
2024-05-21T1600,3994A,102.2165,31.9024,阿坝藏族羌族自治州,马尔康中学西区,,38,24,29,12,15,119,,93,93,5,7,2,3,0.2,0.2
2024-05-21T1600,2695A,80.292,41.1694,阿克苏地区,电视台,细颗粒物(PM2.5),89,97,405,66,92,120,,116,116,7,9,2,3,0.4,0.4
2024-05-21T1600,2696A,80.2613,41.1551,阿克苏地区,艺术中心,,,105,370,,126,123,,118,118,5,12,3,4,0.2,0.3
2024-05-21T1600,2204A,105.6467,38.8363,阿拉善盟,西城区西花园,颗粒物(PM10),88,126,126,34,36,180,,165,165,5,10,8,11,0.6,0.7
2024-05-21T1600,2205A,105.6985,38.8411,阿拉善盟,蒙二幼,颗粒物(PM10),136,222,157,57,52,178,,160,160,13,9,15,14,0.6,0.6
2024-05-21T1600,2206A,105.724,38.8516,阿拉善盟,环保局新楼,颗粒物(PM10),96,142,147,42,50,185,,166,166,7,8,9,12,0.5,0.6
2024-05-21T1600,2708A,88.1264,47.8517,阿勒泰地区,市站,,28,7,22,3,8,88,,92,68,7,9,5,5,0.5,0.4
2024-05-21T1600,2630A,80.1161,32.5,阿里地区,阿里监测站,臭氧1小时,59,9,18,3,7,167,,135,135,5,10,7,9,0.4,0.4
2024-05-21T1600,3192A,80.0903,32.5028,阿里地区,阿里藏医院,臭氧1小时,65,8,15,7,7,172,,138,138,3,7,7,9,0.5,0.5
2024-05-21T1600,2642A,109.0318,32.6537,安康市,香溪洞,颗粒物(PM10),55,60,26,27,14,131,,90,90,5,4,7,6,0.5,0.5
2024-05-21T1600,2643A,109.0281,32.6939,安康市,安康市监测站,,43,36,32,21,16,137,,98,98,4,7,8,9,0.4,0.5
2024-05-21T1600,2644A,109.0072,32.6975,安康市,汉滨区检察院,,46,36,33,32,18,142,,101,101,4,5,7,8,0.4,0.4
2024-05-21T1600,2291A,117.0809,30.5177,安庆市,环科院,,27,27,48,8,33,67,,115,115,17,22,4,5,0.5,0.6
2024-05-21T1600,2292A,117.0331,30.5119,安庆市,马山宾馆,,37,37,53,11,36,72,,128,128,24,20,7,9,0.6,0.7
2024-05-21T1600,2294A,116.9896,30.6145,安庆市,安庆大学,,49,45,53,34,38,93,,115,115,17,13,6,8,0.7,0.7
2024-05-21T1600,3173A,117.0598,30.5351,安庆市,市人大,,,40,52,9,37,69,,126,126,19,19,5,7,,0.7
2024-05-21T1600,3123A,105.9408,26.2431,安顺市,凤凰山,,38,13,22,8,14,120,,109,109,4,8,4,6,0.7,0.6
2024-05-21T1600,3124A,105.9439,26.2564,安顺市,金钟山,,37,14,21,3,12,118,,104,104,4,8,4,4,0.8,0.9
2024-05-21T1600,3125A,105.8983,26.2481,安顺市,娄家坡,,37,28,33,10,14,117,,106,106,5,8,7,8,0.5,0.5
2024-05-21T1600,1819A,114.3551,36.1017,安阳市,红庙街,臭氧1小时,80,69,63,36,30,184,,162,162,3,8,4,4,0.6,0.4
2024-05-21T1600,1820A,114.361,36.0681,安阳市,银杏小区,臭氧1小时,78,71,54,26,23,182,,156,156,1,4,6,5,0.7,0.6
2024-05-21T1600,3141A,114.3922,36.0878,安阳市,信访局,臭氧1小时,78,83,56,27,24,182,,153,153,2,8,3,3,0.7,0.6
2024-05-21T1600,3669A,114.4705,36.0637,安阳市,左辅环卫站,,,,61,,32,176,,155,155,9,19,8,7,0.5,0.6
2024-05-21T1600,3703A,114.2917,36.0949,安阳市,安钢职工学校,臭氧1小时,69,83,66,26,40,175,,154,154,5,14,6,5,0.4,0.4
2024-05-21T1600,1748A,123.044,41.1196,鞍山市,深沟寺,颗粒物(PM10),51,52,42,32,26,152,,123,123,13,20,11,9,0.7,0.9
2024-05-21T1600,1749A,123.011,41.0931,鞍山市,太阳城,,48,47,56,26,34,153,,125,125,16,28,10,9,0.8,1.2
2024-05-21T1600,1750A,123.0485,41.1442,鞍山市,太平,颗粒物(PM10),53,55,55,28,30,150,,124,124,21,31,8,8,0.7,0.8
2024-05-21T1600,1751A,122.9642,41.0971,鞍山市,铁西三道街,颗粒物(PM10),59,68,89,34,48,157,,132,132,20,45,8,10,0.8,1.4
2024-05-21T1600,1752A,122.9341,41.0833,鞍山市,铁西工业园区,颗粒物(PM10),54,58,90,34,50,155,,130,130,15,41,9,11,0.7,1.3
2024-05-21T1600,1753A,123.022,41.0821,鞍山市,明达新区,,46,46,49,27,32,140,,118,118,14,32,11,10,0.8,1.2
2024-05-21T1600,2195A,107.4212,40.761,巴彦淖尔市,附二中,臭氧1小时,100,94,103,49,46,200,,153,153,8,51,7,11,0.5,0.6
2024-05-21T1600,2196A,107.37,40.7372,巴彦淖尔市,市环保大楼,臭氧1小时,73,85,94,22,26,178,,149,149,11,31,7,8,0.5,0.4
2024-05-21T1600,1956A,86.1472,41.7538,巴音郭楞蒙古自治州,孔雀公园,颗粒物(PM10),86,121,138,43,41,90,,96,70,5,18,7,8,0.3,0.3
2024-05-21T1600,1957A,86.1972,41.7166,巴音郭楞蒙古自治州,棉纺厂,细颗粒物(PM2.5),119,150,155,90,48,94,,100,80,6,12,3,4,0.2,0.2
2024-05-21T1600,1958A,86.2357,41.7173,巴音郭楞蒙古自治州,经济开发区,颗粒物(PM10),85,120,138,45,46,107,,113,98,4,6,8,8,0.2,0.2
2024-05-21T1600,2914A,106.7677,31.8794,巴中市,苏山坪,,42,28,15,15,10,133,,113,113,7,7,4,3,0.4,0.3
2024-05-21T1600,3182A,106.7656,31.8545,巴中市,丽阳花园,,44,26,23,15,14,139,,125,125,8,14,5,4,0.3,0.4
2024-05-21T1600,3183A,106.7418,31.8654,巴中市,圣泉水务公司,,43,26,20,19,13,137,,115,115,7,15,4,3,0.2,0.3
2024-05-21T1600,3616A,106.7616,31.8344,巴中市,市中心医院,,45,24,23,15,16,142,,120,120,6,16,6,6,0.4,0.5
2024-05-21T1600,2235A,122.7911,45.6077,白城市,洮北区环保局,,43,42,34,14,22,136,,115,115,10,11,7,7,0.4,0.3
2024-05-21T1600,2236A,122.8738,45.5725,白城市,市环保局,,41,41,31,13,18,119,,104,104,10,11,7,5,0.4,0.4
2024-05-21T1600,2231A,126.4219,41.9171,白山市,喜丰,,36,18,21,6,8,114,,83,83,7,15,10,10,0.7,0.9
2024-05-21T1600,2232A,126.4077,41.9419,白山市,环保局,,34,14,30,11,10,107,,76,76,6,15,8,10,0.6,0.5
2024-05-21T1600,2647A,104.1724,36.5446,白银市,第三小学,细颗粒物(PM2.5),59,65,78,42,37,134,,127,127,8,22,8,45,0.4,0.6
2024-05-21T1600,2648A,104.1465,36.5482,白银市,动力公司,颗粒物(PM10),53,56,68,21,26,142,,136,136,6,16,10,29,0.4,0.7
2024-05-21T1600,2512A,106.6103,23.9011,百色市,市监测站,,47,39,39,21,21,149,,107,107,8,12,10,9,0.7,0.8
2024-05-21T1600,2513A,106.6538,23.8859,百色市,市中心血站,,46,46,50,27,28,125,,96,96,10,19,12,13,0.5,0.7
2024-05-21T1600,3406A,106.6085,23.8798,百色市,祈福高中,,44,36,45,24,25,140,,108,108,14,17,12,11,0.7,0.9
2024-05-21T1600,2270A,117.396,32.939,蚌埠市,工人疗养院,,43,39,46,18,18,137,,119,119,6,9,6,7,0.3,0.3
2024-05-21T1600,2271A,117.3605,32.9427,蚌埠市,百货大楼,,42,41,51,18,25,133,,117,117,7,12,3,4,0.3,0.4
2024-05-21T1600,2273A,117.4185,32.8911,蚌埠市,蚌埠学院,,40,19,36,18,22,126,,110,110,4,21,4,9,0.4,0.4
2024-05-21T1600,2274A,117.3533,32.9673,蚌埠市,淮上区政府,,41,34,40,21,24,129,,118,118,3,4,5,5,0.3,0.3
2024-05-21T1600,2275A,117.3145,32.8977,蚌埠市,高新区,,44,29,40,18,22,138,,123,123,2,9,4,7,0.3,0.4
2024-05-21T1600,3715A,117.3092,32.9314,蚌埠市,蚌埠田家炳中学,,43,36,46,21,22,137,,123,123,4,4,5,6,0.3,0.3
2024-05-21T1600,1585A,109.8756,40.6532,包头市,市环境监测站,臭氧1小时,107,89,82,24,27,214,,181,181,11,25,12,12,0.5,0.5
2024-05-21T1600,1587A,109.9991,40.5842,包头市,包头八中,臭氧1小时,115,83,93,32,36,229,,176,176,11,24,14,15,0.7,0.8
2024-05-21T1600,1588A,109.8538,40.6821,包头市,青山宾馆,臭氧1小时,107,68,73,31,30,213,,178,178,11,24,16,14,0.7,0.7
2024-05-21T1600,1589A,109.8642,40.6288,包头市,惠龙物流,臭氧1小时,112,80,78,31,28,224,,188,188,12,22,13,14,0.5,0.5
2024-05-21T1600,1590A,110.0377,40.5546,包头市,东河鸿龙湾,臭氧1小时,112,72,82,39,36,224,,183,183,11,21,12,15,0.5,0.6
2024-05-21T1600,3283A,109.9154,40.5685,包头市,滨河大厦,臭氧1小时,114,80,78,26,29,228,,185,185,9,27,13,15,0.7,0.8
2024-05-21T1600,3419A,109.9447,40.6261,包头市,包头市委党校,臭氧1小时,108,83,82,34,24,216,,182,182,12,26,14,17,0.5,0.6
2024-05-21T1600,3683A,109.8331,40.6576,包头市,昆区政府,臭氧1小时,110,80,78,33,30,220,,182,182,14,24,16,13,0.7,0.5
2024-05-21T1600,1930A,107.185,34.3063,宝鸡市,庙沟村,,48,34,29,20,15,153,,121,121,5,7,10,9,0.5,0.5
2024-05-21T1600,1931A,107.0708,34.3017,宝鸡市,竹园沟,臭氧1小时,75,36,27,16,15,180,,147,147,11,12,7,6,0.5,0.5
2024-05-21T1600,1932A,107.1906,34.3672,宝鸡市,三陆医院,臭氧1小时,65,56,50,23,22,172,,141,141,13,28,6,10,0.4,0.6
2024-05-21T1600,1933A,107.1431,34.3547,宝鸡市,监测站,臭氧1小时,57,44,38,16,19,165,,137,137,14,24,8,8,0.3,0.4
2024-05-21T1600,1934A,107.1186,34.3739,宝鸡市,技工学校,臭氧1小时,65,47,36,21,21,172,,155,155,12,16,6,8,0.4,0.5
2024-05-21T1600,1935A,107.3906,34.3528,宝鸡市,陈仓区环保局家属楼,臭氧1小时,84,34,31,17,23,187,,148,148,11,24,6,7,0.4,0.4
2024-05-21T1600,1936A,107.2058,34.3497,宝鸡市,文理学院,臭氧1小时,70,38,42,19,20,176,,146,146,8,19,7,8,0.2,0.3
2024-05-21T1600,1937A,107.2386,34.3622,宝鸡市,三迪小学,臭氧1小时,63,52,44,21,22,170,,141,141,12,22,7,9,0.4,0.5
2024-05-21T1600,1051A,115.493,38.8632,保定市,游泳馆,颗粒物(PM10),56,62,68,31,28,151,,104,104,2,13,3,2,0.1,0.2
2024-05-21T1600,1052A,115.5213,38.8959,保定市,华电二区,,47,42,45,19,18,148,,106,106,10,18,3,3,0.2,0.2
2024-05-21T1600,1053A,115.4713,38.9108,保定市,接待中心,,47,36,39,29,18,149,,121,121,5,10,2,2,0.2,0.4
2024-05-21T1600,1054A,115.4612,38.8416,保定市,地表水厂,细颗粒物(PM2.5),54,49,52,38,31,149,,98,98,6,16,3,3,0.5,0.5
2024-05-21T1600,3581A,115.31981,38.95208,保定市,满城区生态环境分局,颗粒物(PM10),54,58,60,31,30,162,,124,124,4,13,5,3,0.2,0.3
2024-05-21T1600,3582A,115.47694,38.76408,保定市,清苑区第二中学,,46,34,40,28,28,146,,96,96,6,14,2,2,0.2,0.3
2024-05-21T1600,3583A,115.62909,39.02311,保定市,徐水物探局,臭氧1小时,83,56,54,31,24,186,,132,132,8,16,5,6,0.2,0.3
2024-05-21T1600,4004A,115.4202,38.8656,保定市,双鹰农机,颗粒物(PM10),53,56,54,30,29,149,,113,113,10,18,5,5,0.0,0
2024-05-21T1600,4034A,115.5150,38.8590,保定市,植保所站,颗粒物(PM10),52,54,55,31,31,154,,106,106,8,20,4,4,0.3,0.4
2024-05-21T1600,2594A,99.1678,25.1081,保山市,市环境监测站,,37,37,21,6,7,102,,67,67,10,8,5,4,0.3,0.3
2024-05-21T1600,2595A,99.1711,25.1328,保山市,市环保局,,41,41,28,11,12,111,,76,76,9,6,6,5,0.5,0.5
2024-05-21T1600,1867A,109.1436,21.4086,北海市,海滩公园,,28,14,18,3,6,89,,75,75,7,9,8,9,0.6,0.7
2024-05-21T1600,1868A,109.0981,21.4661,北海市,新市环保局,,32,,17,12,9,101,,81,81,5,8,6,7,0.6,0.6
2024-05-21T1600,1869A,109.1778,21.5233,北海市,北海工业园,,27,18,20,10,11,86,,73,73,8,10,6,8,0.6,0.7
2024-05-21T1600,3400A,109.1911,21.4415,北海市,龙潭自来水厂,,25,8,18,3,13,80,,66,66,5,9,5,5,0.6,0.6
2024-05-21T1600,1001A,116.3621,39.8784,北京市,万寿西宫,臭氧1小时,98,37,47,20,22,198,,142,142,14,23,2,3,0.4,0.6
2024-05-21T1600,1002A,116.2202,40.2915,北京市,定陵,臭氧1小时,108,26,48,18,26,215,,133,133,16,16,2,2,0.9,0.9
2024-05-21T1600,1003A,116.4174,39.9289,北京市,东四,臭氧1小时,80,40,44,18,19,184,,132,132,15,24,3,4,0.2,0.4
2024-05-21T1600,1004A,116.4072,39.8863,北京市,天坛,臭氧1小时,77,28,36,13,18,181,,135,135,11,21,4,4,0.4,0.5
2024-05-21T1600,1005A,116.462,39.9365,北京市,农展馆,臭氧1小时,100,37,43,18,19,200,,144,144,12,22,1,3,0.4,0.5
2024-05-21T1600,1006A,116.3392,39.9295,北京市,官园,臭氧1小时,98,45,52,18,20,198,,140,140,13,19,3,4,0.4,0.5
2024-05-21T1600,1007A,116.2878,39.9611,北京市,海淀万柳,臭氧1小时,98,44,45,24,22,198,,130,130,17,25,6,6,0.4,0.4
2024-05-21T1600,1008A,116.6636,40.135,北京市,顺义新城,臭氧1小时,67,29,45,11,23,173,,124,124,13,24,2,2,0.4,0.6
2024-05-21T1600,1009A,116.6275,40.3275,北京市,怀柔镇,臭氧1小时,88,29,51,14,29,190,,141,141,10,17,4,5,0.5,0.6
2024-05-21T1600,1010A,116.2296,40.217,北京市,昌平镇,臭氧1小时,98,45,55,20,27,198,,123,123,17,21,2,2,0.5,0.5
2024-05-21T1600,1011A,116.3966,39.9821,北京市,奥体中心,臭氧1小时,68,32,42,18,18,174,,123,123,16,26,1,2,0.4,0.5
2024-05-21T1600,1012A,116.184,39.9136,北京市,古城,臭氧1小时,59,39,57,14,23,167,,119,119,31,29,3,3,0.7,0.8
2024-05-21T1600,3281A,115.9718,40.4529,北京市,延庆夏都,臭氧1小时,89,43,52,24,29,191,,133,133,14,15,2,1,0.5,0.5
2024-05-21T1600,3417A,117.0709,40.1465,北京市,平谷新城,,49,18,40,9,24,155,,111,111,8,12,1,3,0.3,0.4
2024-05-21T1600,3418A,116.8336,40.4095,北京市,密云新城,臭氧1小时,58,19,47,9,25,166,,137,137,9,14,2,2,0.6,0.7
2024-05-21T1600,3672A,116.1541,39.8204,北京市,丰台云岗,臭氧1小时,63,31,50,15,19,170,,123,123,9,21,2,2,0.4,0.5
2024-05-21T1600,3673A,116.6804,39.9081,北京市,通州东关,,50,25,41,11,21,159,,118,118,11,22,1,2,0.4,0.5
2024-05-21T1600,3674A,115.9577,39.7603,北京市,房山燕山,臭氧1小时,53,44,62,14,26,162,,122,122,15,22,2,3,0.4,0.5
2024-05-21T1600,3675A,116.4672,39.7733,北京市,大兴旧宫,臭氧1小时,58,25,36,13,17,166,,114,114,10,18,3,2,0.2,0.4
2024-05-21T1600,3694A,115.986,40.4563,北京市,延庆石河营,臭氧1小时,84,38,51,35,33,187,,130,130,12,14,3,3,0.5,0.5
2024-05-21T1600,3695A,116.6151,40.3053,北京市,怀柔新城,臭氧1小时,74,31,47,16,29,179,,131,131,12,20,2,2,0.4,0.6
2024-05-21T1600,3696A,116.2545,39.8768,北京市,丰台小屯,臭氧1小时,77,32,46,15,20,181,,126,126,8,21,2,2,0.3,0.4
2024-05-21T1600,3697A,116.84,40.3844,北京市,密云镇,,45,17,51,10,29,144,,129,129,8,15,3,2,0.3,0.5
2024-05-21T1600,1761A,123.8275,41.3064,本溪市,大峪,,41,19,25,11,11,131,,109,109,5,20,10,9,0.6,0.8
2024-05-21T1600,1762A,123.7567,41.3325,本溪市,溪湖,,39,28,39,12,17,122,,103,103,11,23,9,14,0.6,0.9
2024-05-21T1600,1763A,123.7169,41.3094,本溪市,彩屯,,36,28,44,16,37,114,,96,96,20,32,16,14,1.3,1.6
2024-05-21T1600,1764A,123.7669,41.2864,本溪市,东明,,,,58,13,14,118,,103,103,12,28,9,9,0.8,0.9
2024-05-21T1600,1765A,123.7992,41.2664,本溪市,新立屯,,39,33,25,14,12,122,,111,111,8,25,12,11,0.7,1
2024-05-21T1600,1766A,123.8142,41.3472,本溪市,威宁,,40,40,37,9,12,112,,97,97,8,25,7,7,0.6,0.6
2024-05-21T1600,2587A,105.2864,27.3125,毕节市,八中,,39,19,23,9,15,123,,119,119,6,11,4,5,0.3,0.4
2024-05-21T1600,2588A,105.31,27.2944,毕节市,师专,,39,13,22,10,17,124,,118,118,4,12,6,8,0.4,0.4
2024-05-21T1600,3537A,105.3631,27.3533,毕节市,长征村,,42,19,23,13,16,133,,130,130,6,7,5,6,0.3,0.3
2024-05-21T1600,1629A,118.0018,37.3617,滨州市,第二水厂,臭氧1小时,113,90,45,44,26,225,,168,168,13,17,14,13,1.0,0.7
2024-05-21T1600,1630A,117.9776,37.393,滨州市,北中新校,臭氧1小时,102,95,50,44,24,204,,158,158,20,22,14,16,1.2,0.9
2024-05-21T1600,3514A,117.9378,37.3956,滨州市,中海酒店,臭氧1小时,101,85,44,46,26,202,,161,161,15,16,17,17,1.1,0.9
2024-05-21T1600,3515A,117.9378,37.3553,滨州市,开发区一中,臭氧1小时,90,95,52,48,28,192,,153,153,6,13,15,15,0.6,0.6
2024-05-21T1600,3516A,118.0917,37.694,滨州市,金海六路,臭氧1小时,102,78,39,39,18,203,,163,163,13,15,10,23,0.7,0.5
2024-05-21T1600,4028A,117.9956,37.3753,滨州市,滨州市西街道办事处,臭氧1小时,111,90,42,61,32,221,,178,178,16,18,17,14,1.3,0.9
2024-05-21T1600,2311A,115.8072,33.8399,亳州市,污水处理厂,,40,36,56,22,35,125,,95,95,2,8,8,9,0.3,0.5
2024-05-21T1600,2312A,115.7789,33.8518,亳州市,三国揽胜宫,,40,36,54,23,30,125,,96,96,2,7,9,10,0.3,0.4
2024-05-21T1600,3332A,115.7633,33.8034,亳州市,亳州学院,,49,37,52,34,39,124,,92,92,2,6,8,9,0.3,0.4
2024-05-21T1600,2693A,82.0485,44.8556,博尔塔拉蒙古自治州,市党校,,35,14,21,8,9,110,,94,94,8,10,9,8,0.1,0.4
2024-05-21T1600,2694A,82.0806,44.8969,博尔塔拉蒙古自治州,市环保局,,35,15,26,9,10,109,,89,89,2,10,9,10,0.2,0.3
2024-05-21T1600,1071A,116.8842,38.2991,沧州市,沧县城建局,臭氧1小时,73,35,38,8,16,178,,142,142,11,23,3,4,0.4,0.4
2024-05-21T1600,1072A,116.8584,38.3254,沧州市,电视转播站,臭氧1小时,59,38,35,29,17,167,,120,120,9,19,7,5,0.3,0.2
2024-05-21T1600,1073A,116.8709,38.3228,沧州市,市环保局,臭氧1小时,64,44,39,20,22,171,,131,131,12,21,6,6,0.3,0.3
2024-05-21T1600,3324A,116.8136,38.3004,沧州市,河北水利电力学院,臭氧1小时,69,34,25,23,15,175,,131,131,12,20,7,7,0.3,0.3
2024-05-21T1600,2622A,97.1806,31.1273,昌都市,昌都监测站,臭氧1小时,58,25,17,14,13,166,,123,123,5,6,6,6,0.5,0.5
2024-05-21T1600,3719A,97.1714,31.1406,昌都市,昌都会议中心,臭氧1小时,92,13,16,7,9,193,,139,139,3,6,6,6,0.3,0.3
2024-05-21T1600,2690A,88.1236,43.8886,昌吉回族自治州,天山天池,,20,6,26,3,6,64,,73,63,7,7,13,14,0.5,0.6
2024-05-21T1600,2692A,87.2717,44.0297,昌吉回族自治州,新区政务中心,,27,17,39,10,20,85,,88,80,7,10,8,8,0.4,0.3
2024-05-21T1600,3613A,87.3095,44.0142,昌吉回族自治州,亚心广场,,25,14,42,3,8,77,,91,77,12,15,9,8,0.3,0.4
2024-05-21T1600,1119A,125.3325,43.9166,长春市,食品厂,颗粒物(PM10),66,81,34,16,13,152,,105,105,19,21,9,7,0.5,0.2
2024-05-21T1600,1120A,125.2863,43.9027,长春市,客车厂,颗粒物(PM10),66,81,33,22,14,155,,105,105,12,18,7,5,0.6,0.4
2024-05-21T1600,1121A,125.2841,43.8463,长春市,邮电学院,颗粒物(PM10),70,89,32,15,9,153,,105,105,14,17,10,8,0.5,0.3
2024-05-21T1600,1122A,125.3716,43.8772,长春市,劳动公园,颗粒物(PM10),59,67,31,16,11,158,,112,112,14,20,7,5,0.5,0.4
2024-05-21T1600,1123A,125.3297,43.8805,长春市,园林处,颗粒物(PM10),53,56,26,21,15,153,,106,106,15,21,8,6,0.6,0.3
2024-05-21T1600,1124A,125.4605,43.79,长春市,净月潭,,45,27,16,3,8,144,,112,112,7,8,9,7,0.5,0.4
2024-05-21T1600,1126A,125.3863,43.8447,长春市,经开区环卫处,,48,44,25,7,7,151,,108,108,13,19,8,6,0.6,0.4
2024-05-21T1600,1127A,125.245,43.7783,长春市,高新区管委会,颗粒物(PM10),54,58,25,17,9,152,,107,107,10,16,9,6,0.5,0.3
2024-05-21T1600,1128A,125.1761,43.8325,长春市,岱山公园,颗粒物(PM10),62,73,31,22,14,158,,107,107,12,23,8,6,0.6,0.2
2024-05-21T1600,1335A,113.0833,28.2325,长沙市,经开区环保局,细颗粒物(PM2.5),52,49,50,36,42,117,,88,88,5,13,8,8,0.5,0.5
2024-05-21T1600,1336A,112.8872,28.2189,长沙市,高开区环保局,颗粒物(PM10),51,51,50,34,30,128,,87,87,10,14,6,6,0.7,0.6
2024-05-21T1600,1337A,113.0792,28.2053,长沙市,马坡岭,细颗粒物(PM2.5),53,52,50,37,48,106,,93,93,10,13,8,7,0.6,0.6
2024-05-21T1600,1338A,112.9394,28.19,长沙市,湖南师范大学,细颗粒物(PM2.5),59,53,51,42,44,130,,92,92,3,6,3,3,0.8,0.7
2024-05-21T1600,1339A,113.0178,28.1322,长沙市,雨花区环保局,颗粒物(PM10),53,55,55,32,27,115,,88,88,6,10,6,5,0.4,0.4
2024-05-21T1600,1340A,112.9792,28.2597,长沙市,伍家岭,细颗粒物(PM2.5),53,52,56,37,45,108,,80,80,11,12,6,5,0.5,0.4
2024-05-21T1600,1341A,113.0014,28.1944,长沙市,火车新站,细颗粒物(PM2.5),62,61,50,44,36,121,,94,94,10,13,4,3,0.8,0.8
2024-05-21T1600,1342A,112.9844,28.1178,长沙市,天心区环保局,细颗粒物(PM2.5),53,52,56,37,43,109,,80,80,21,22,3,2,0.9,0.7
2024-05-21T1600,1343A,112.8908,28.1308,长沙市,湖南中医药大学,细颗粒物(PM2.5),57,57,48,40,37,129,,94,94,7,10,2,5,0.9,0.9
2024-05-21T1600,1344A,112.9581,28.3611,长沙市,沙坪,,48,48,58,25,25,116,,85,85,7,8,7,6,0.5,0.5
2024-05-21T1600,1727A,113.1147,36.1547,长治市,清华站,臭氧1小时,65,44,47,12,20,172,,158,158,8,18,9,10,0.2,0.5
2024-05-21T1600,1728A,113.1031,36.1989,长治市,监测站,臭氧1小时,69,43,52,14,20,175,,158,158,12,22,4,5,0.4,1.1
2024-05-21T1600,1730A,113.0886,36.2125,长治市,审计局,臭氧1小时,70,40,50,19,23,176,,161,161,6,15,12,14,0.2,0.7
2024-05-21T1600,1731A,113.0844,36.1856,长治市,长治八中,臭氧1小时,68,52,68,13,22,174,,160,160,10,23,8,9,0.5,0.9
2024-05-21T1600,2845A,113.1569,36.1911,长治市,德盛苑,臭氧1小时,78,40,42,17,20,182,,160,160,7,10,6,7,0.5,1.1
2024-05-21T1600,3568A,113.06,36.0464,长治市,向阳小学,臭氧1小时,82,59,62,36,36,185,,171,171,8,14,9,14,0.6,0.7
2024-05-21T1600,3569A,112.8792,36.3144,长治市,屯留一中,臭氧1小时,69,46,52,8,30,175,,162,162,6,15,8,9,0.3,0.4
2024-05-21T1600,3570A,113.235,36.3489,长治市,潞城四中,臭氧1小时,85,53,67,14,32,188,,165,165,4,24,7,7,0.4,0.9
2024-05-21T1600,1854A,111.6975,28.9703,常德市,市二中,细颗粒物(PM2.5),54,54,42,38,27,142,,103,103,7,12,8,11,0.6,0.5
2024-05-21T1600,3138A,111.7153,29.0289,常德市,武陵区永安,细颗粒物(PM2.5),55,51,36,39,25,145,,104,104,8,11,8,7,0.4,0.4
2024-05-21T1600,3139A,111.6892,28.9881,常德市,鼎城区玉霞,细颗粒物(PM2.5),52,52,39,36,28,146,,105,105,6,11,7,10,0.5,0.5
2024-05-21T1600,3140A,111.6625,29.0531,常德市,武陵区长庚,颗粒物(PM10),53,55,36,34,24,141,,99,99,8,10,9,8,0.6,0.5
2024-05-21T1600,1196A,119.9633,31.762,常州市,市监测站,,39,33,42,21,20,122,,102,102,13,18,9,10,0.5,0.5
2024-05-21T1600,1200A,119.9468,31.7069,常州市,武进监测站,,41,28,41,8,17,130,,110,110,4,16,8,11,0.4,0.7
2024-05-21T1600,1201A,119.9255,31.9087,常州市,安家,,38,38,47,22,21,114,,102,102,18,21,8,9,0.5,0.6
2024-05-21T1600,3002A,119.9805,31.8174,常州市,行政中心,,36,35,37,18,16,113,,97,97,16,17,11,11,0.2,0.3
2024-05-21T1600,3003A,120.0522,31.7748,常州市,经开区,,39,39,38,16,16,113,,100,100,17,21,7,8,0.4,0.5
2024-05-21T1600,3010A,119.9025,31.7964,常州市,钟楼,,38,24,38,18,17,121,,97,97,11,19,7,8,0.5,0.6
2024-05-21T1600,3429A,119.8598,31.7066,常州市,武进经发区,,40,26,41,13,18,126,,111,111,7,20,7,7,0.3,0.5
2024-05-21T1600,3430A,119.5826,31.7245,常州市,金坛城区,,39,22,35,13,16,124,,108,108,4,19,6,8,0.5,0.6
2024-05-21T1600,2220A,120.4318,41.5881,朝阳市,西梁,臭氧1小时,52,27,30,12,19,161,,127,127,9,15,14,14,0.7,0.6
2024-05-21T1600,2221A,120.4521,41.5646,朝阳市,河畔小区,臭氧1小时,75,39,30,14,18,180,,144,144,7,11,10,11,0.6,0.5
2024-05-21T1600,2222A,120.4176,41.5648,朝阳市,八里堡,臭氧1小时,57,47,40,14,20,165,,130,130,12,17,10,10,0.8,0.8
2024-05-21T1600,2223A,120.3806,41.5969,朝阳市,农业园区,臭氧1小时,59,37,39,23,30,167,,138,138,12,24,12,12,0.8,0.7
2024-05-21T1600,1705A,116.6367,23.6719,潮州市,西园路,,20,10,10,7,10,63,,52,52,9,10,4,2,0.2,0.3
2024-05-21T1600,3026A,116.6183,23.6608,潮州市,市政府,,24,24,12,9,9,62,,58,58,10,13,8,6,0.7,0.8
2024-05-21T1600,4036A,116.6461,23.6761,潮州市,金山,,20,18,12,7,7,62,,50,50,9,10,7,6,0.6,0.7
2024-05-21T1600,2472A,113.0073,25.9061,郴州市,马头岭,,27,27,31,10,14,73,,61,61,4,7,4,5,0.6,0.6
2024-05-21T1600,2473A,113.0116,25.8226,郴州市,市职中,,33,28,27,23,22,63,,51,51,10,11,6,7,0.7,0.7
2024-05-21T1600,2474A,113.0161,25.8001,郴州市,兴隆步行街,,36,36,32,20,21,59,,52,52,9,9,6,6,0.8,0.8
2024-05-21T1600,2475A,113.0383,25.8071,郴州市,市审计局,,35,,28,24,24,57,,50,50,9,10,3,4,0.6,0.7
2024-05-21T1600,2476A,113.0348,25.7759,郴州市,市环保局,,32,24,30,22,27,47,,46,46,13,12,4,4,0.7,0.8
2024-05-21T1600,1431A,103.9728,30.7236,成都市,金泉两河,臭氧1小时,63,27,33,15,14,170,,125,125,1,6,2,2,0.3,0.3
2024-05-21T1600,1432A,104.176,30.6872,成都市,十里店,臭氧1小时,97,42,33,23,14,197,,144,144,12,16,3,3,0.5,0.5
2024-05-21T1600,1433A,104.079,30.5706,成都市,三瓦窑,臭氧1小时,101,49,33,23,17,202,,138,138,10,20,2,2,0.5,0.5
2024-05-21T1600,1434A,104.1114,30.63,成都市,沙河铺,臭氧1小时,78,38,33,21,14,182,,127,127,11,15,5,5,0.4,0.5
2024-05-21T1600,1437A,104.0786,30.6531,成都市,君平街,臭氧1小时,102,32,33,16,16,204,,145,145,12,12,5,4,,0.5
2024-05-21T1600,2880A,104.0239,30.65639,成都市,大石西路,臭氧1小时,102,27,34,3,14,204,,149,149,14,14,4,4,0.4,0.4
2024-05-21T1600,3136A,104.2725,30.5589,成都市,龙泉驿区区政府,臭氧1小时,60,22,20,14,10,168,,138,138,4,8,3,3,0.4,0.4
2024-05-21T1600,3357A,104.0106,30.6931,成都市,金博路,臭氧1小时,92,32,29,3,13,193,,137,137,5,9,1,2,0.5,0.5
2024-05-21T1600,3359A,104.0578,30.5225,成都市,华阳,臭氧1小时,103,34,27,27,20,206,,141,141,10,11,2,2,0.5,0.5
2024-05-21T1600,3487A,104.2394,30.5319,成都市,车城东七路,臭氧1小时,59,31,30,19,19,167,,137,137,7,10,3,3,0.5,0.4
2024-05-21T1600,3488A,104.3853,30.7453,成都市,青白江技师分院,,50,11,17,3,8,160,,135,135,4,16,3,4,0.4,0.5
2024-05-21T1600,3489A,104.0789,30.4072,成都市,科学城,臭氧1小时,105,42,28,27,19,209,,154,154,9,10,3,2,0.6,0.6
2024-05-21T1600,4011A,103.8506,30.6947,成都市,光华大道三段,,50,36,37,21,14,157,,118,118,5,11,3,2,0.4,0.5
2024-05-21T1600,1062A,117.9531,40.9081,承德市,铁路,,50,38,33,17,16,157,,132,132,12,19,9,10,0.5,0.4
2024-05-21T1600,1063A,117.9392,40.9763,承德市,中国银行,臭氧1小时,69,28,33,6,16,175,,146,146,8,17,12,11,0.5,0.4
2024-05-21T1600,1064A,117.9503,40.928,承德市,开发区,臭氧1小时,59,40,37,20,20,167,,135,135,14,19,8,9,0.6,0.5
2024-05-21T1600,1065A,117.8051,40.9655,承德市,文化中心,臭氧1小时,74,33,51,10,16,179,,140,140,11,21,19,14,0.6,0.5
2024-05-21T1600,1066A,117.9268,41.0026,承德市,离宫,臭氧1小时,73,29,36,20,24,178,,136,136,7,12,7,5,0.5,0.4
2024-05-21T1600,2314A,117.47,30.6618,池州市,池州学院,,43,42,54,30,32,113,,118,118,14,20,5,7,0.5,0.6
2024-05-21T1600,3237A,117.4918,30.6617,池州市,展览馆,,34,32,51,18,29,106,,114,114,12,17,4,6,0.4,0.6
2024-05-21T1600,3333A,117.5627,30.695,池州市,第八中学,,33,32,52,20,31,104,,118,118,13,20,3,6,0.5,0.7
2024-05-21T1600,3334A,117.5038,30.6243,池州市,第十二中学,,36,36,48,25,29,109,,121,121,16,19,4,6,0.6,0.9
2024-05-21T1600,1744A,118.9233,42.2816,赤峰市,松山一中,,47,27,37,14,9,148,,141,141,16,22,10,11,0.5,0.4
2024-05-21T1600,1745A,118.9576,42.2728,赤峰市,哈达街,,46,28,28,12,10,147,,136,136,24,28,12,12,0.5,0.5
2024-05-21T1600,1746A,118.8788,42.2554,赤峰市,天义路,,49,32,20,16,14,154,,142,142,14,18,6,9,0.5,0.4
2024-05-21T1600,3058A,119.2658,42.0353,赤峰市,银河街,颗粒物(PM10),61,71,55,12,19,154,,143,143,14,21,11,16,0.4,0.5
2024-05-21T1600,3286A,118.9359,42.3147,赤峰市,桥北物流园区,,48,,23,28,15,153,,143,143,14,23,5,6,0.7,0.6
2024-05-21T1600,2521A,107.3476,22.4136,崇左市,市环保局江州分局,,28,15,21,10,11,89,,86,86,6,7,8,8,0.5,0.6
2024-05-21T1600,2522A,107.3702,22.3707,崇左市,城南新区,,26,,17,12,10,83,,82,82,7,6,6,6,0.5,0.5
2024-05-21T1600,2298A,118.3093,32.3153,滁州市,老年大学,颗粒物(PM10),59,67,51,32,24,146,,121,121,22,14,8,9,0.6,0.6
2024-05-21T1600,2299A,118.3244,32.2786,滁州市,人大宾馆,,48,44,36,33,29,145,,125,125,18,15,6,6,0.6,0.6
2024-05-21T1600,3207A,118.3118,32.3038,滁州市,市政府原办公楼,细颗粒物(PM2.5),54,50,42,38,32,145,,120,120,18,14,6,6,0.7,0.6
2024-05-21T1600,3331A,118.3267,32.2634,滁州市,图书馆,,47,47,45,29,28,144,,117,117,17,15,7,8,0.7,0.7
2024-05-21T1600,2605A,101.5482,25.0441,楚雄彝族自治州,州环境监测站,,44,26,23,10,13,140,,116,116,6,17,8,11,0.5,0.6
2024-05-21T1600,2606A,101.538,25.0492,楚雄彝族自治州,市经济开发区,,43,23,27,15,15,136,,116,116,7,18,5,7,0.4,0.6
2024-05-21T1600,2548A,107.5277,31.2827,达州市,达州职业技术学院,,41,29,22,8,5,131,,91,91,9,16,6,10,0.4,0.3
2024-05-21T1600,2549A,107.5086,31.2186,达州市,市环境监测站,,37,37,22,14,6,112,,84,84,33,23,6,9,0.5,0.4
2024-05-21T1600,2550A,107.4988,31.2132,达州市,凤凰小区,,39,39,20,17,8,118,,88,88,25,20,6,10,0.5,0.4
2024-05-21T1600,2551A,107.5082,31.1986,达州市,达县机关宾馆,,44,44,22,11,10,108,,82,82,36,28,4,8,0.5,0.4
2024-05-21T1600,2552A,107.4644,31.2124,达州市,市政中心,,40,34,27,14,7,128,,92,92,15,20,6,10,0.8,0.5
2024-05-21T1600,2614A,100.1542,25.7054,大理白族自治州,大理市环境监测站,,42,24,19,13,12,132,,88,88,9,16,7,6,0.4,0.5
2024-05-21T1600,2615A,100.2171,25.5811,大理白族自治州,大理古城,,37,19,17,8,10,116,,91,91,9,11,8,6,0.5,0.4
2024-05-21T1600,1109A,121.612,38.9741,大连市,甘井子,颗粒物(PM10),51,51,57,26,35,116,,109,109,17,40,8,9,0.7,0.7
2024-05-21T1600,1110A,121.565,38.9511,大连市,周水子,,39,34,46,20,30,123,,109,109,11,35,3,7,0.7,0.6
2024-05-21T1600,1111A,121.5637,38.8845,大连市,星海三站,,40,38,43,20,30,126,,113,113,8,10,7,6,0.6,0.5
2024-05-21T1600,1112A,121.6302,38.9117,大连市,青泥洼桥,,39,32,38,18,22,122,,110,110,8,16,6,6,0.8,0.8
2024-05-21T1600,1113A,121.6251,38.8638,大连市,傅家庄,,39,28,34,19,22,122,,112,112,11,10,7,7,0.6,0.5
2024-05-21T1600,1114A,121.5213,38.8661,大连市,七贤岭,,47,47,41,22,23,125,,120,120,12,15,7,7,0.5,0.4
2024-05-21T1600,1115A,121.2529,38.8061,大连市,旅顺,,40,30,42,20,27,127,,117,117,12,17,8,7,0.6,0.5
2024-05-21T1600,1116A,121.7485,39.1311,大连市,金州,,37,35,54,20,29,118,,119,119,11,18,9,9,0.7,0.7
2024-05-21T1600,1117A,121.7811,39.0496,大连市,开发区,,49,49,59,22,36,112,,106,106,21,31,2,7,0.6,0.7
2024-05-21T1600,1118A,121.9762,39.0631,大连市,双D港,,37,,28,16,23,118,,109,109,9,18,6,7,0.7,0.7
2024-05-21T1600,1789A,124.81117,46.03138,大庆市,大同区,颗粒物(PM10),64,77,44,31,24,163,,131,131,11,11,9,7,0.4,0.4
2024-05-21T1600,1790A,125.129,46.533,大庆市,龙凤区,颗粒物(PM10),57,64,39,28,18,140,,113,113,29,17,8,7,0.4,0.3
2024-05-21T1600,1791A,124.902,46.408,大庆市,红岗区,颗粒物(PM10),65,80,39,31,16,153,,113,113,12,11,9,7,0.4,0.3
2024-05-21T1600,1792A,125.153,46.586,大庆市,萨尔图区,颗粒物(PM10),64,77,38,19,13,138,,107,107,13,13,9,8,0.3,0.2
2024-05-21T1600,1793A,124.9042,46.6215,大庆市,让胡路区,,48,48,33,20,18,149,,116,116,9,11,7,5,0.4,0.3
2024-05-21T1600,3481A,125.141,46.634,大庆市,萨区政府监测点,颗粒物(PM10),57,63,36,23,13,148,,114,114,11,11,9,8,0.3,0.2
2024-05-21T1600,1723A,113.2994,40.0758,大同市,云冈宾馆,臭氧1小时,106,60,66,28,27,212,,172,172,14,23,8,9,0.4,0.6
2024-05-21T1600,1724A,113.3444,40.0917,大同市,大同大学,臭氧1小时,104,48,55,42,29,207,,171,171,11,18,15,16,0.4,0.4
2024-05-21T1600,1725A,113.2661,40.1269,大同市,安家小村,臭氧1小时,99,67,82,32,31,199,,162,162,13,20,12,13,0.2,0.5
2024-05-21T1600,1726A,113.2711,40.0844,大同市,教育学院,臭氧1小时,109,74,79,31,34,217,,185,185,14,27,10,11,0.5,0.6
2024-05-21T1600,3282A,113.3397,40.0597,大同市,大同市卫生学校,臭氧1小时,103,54,62,26,26,206,,171,171,13,20,10,11,0.8,0.9
2024-05-21T1600,3565A,113.1367,40.1122,大同市,云冈站,臭氧1小时,101,72,66,34,32,202,,175,175,14,14,10,12,0.4,0.5
2024-05-21T1600,3566A,113.1186,40.2556,大同市,图书馆,,50,46,63,28,38,157,,146,146,10,16,11,15,0.6,0.7
2024-05-21T1600,3567A,113.5931,40.0461,大同市,区一中,臭氧1小时,103,55,64,25,21,206,,192,192,13,17,4,5,0.4,0.5
2024-05-21T1600,3676A,113.2802,40.0995,大同市,第二人民医院,臭氧1小时,103,70,78,23,35,206,,175,175,10,23,11,13,0.4,0.6
2024-05-21T1600,2269A,124.1069,50.4097,大兴安岭地区,科技局,,30,19,25,19,17,96,,90,90,4,7,3,3,0.2,0.2
2024-05-21T1600,3663A,124.1164,50.4278,大兴安岭地区,红旗社区,,31,14,14,11,12,98,,93,93,4,9,8,8,0.2,0.2
2024-05-21T1600,1600A,124.3303,40.0625,丹东市,江湾东路,,36,26,30,17,22,113,,97,97,7,13,8,9,0.5,0.6
2024-05-21T1600,1601A,124.4256,40.1503,丹东市,临江后街,,37,23,25,14,19,116,,101,101,4,10,8,9,0.5,0.6
2024-05-21T1600,1602A,124.3933,40.1461,丹东市,元宝山,,32,22,24,17,17,100,,91,91,9,10,10,11,0.5,0.7
2024-05-21T1600,1603A,124.3633,40.1092,丹东市,民主桥,,33,30,30,15,20,103,,91,91,6,10,12,12,0.4,0.6
2024-05-21T1600,3541A,109.5726,19.5167,儋州市,第一中学子站,,,9,18,9,11,97,,86,86,,3,4,3,0.3,0.5
2024-05-21T1600,3542A,109.5567,19.5187,儋州市,东坡学校子站,,28,9,13,3,7,88,,74,74,3,3,3,3,0.6,0.6
2024-05-21T1600,2616A,98.5842,24.428,德宏傣族景颇族自治州,德宏州监测站,,42,40,34,29,24,66,,42,42,24,18,39,10,0.8,0.8
2024-05-21T1600,3677A,98.5881,24.4368,德宏傣族景颇族自治州,芒市人民政府综合楼,,35,35,33,23,16,74,,44,44,19,14,18,10,0.6,0.6
2024-05-21T1600,1901A,104.4239,31.1208,德阳市,东山公园,,48,29,27,12,11,151,,124,124,6,8,2,2,0.4,0.4
2024-05-21T1600,1902A,104.3826,31.1317,德阳市,西小区,,48,25,27,18,15,152,,121,121,8,12,2,5,0.4,0.4
2024-05-21T1600,1904A,104.3553,31.1091,德阳市,耐火材料厂,,50,23,24,12,14,160,,128,128,4,8,3,5,0.4,0.4
2024-05-21T1600,3639A,104.4019,31.1244,德阳市,市教育局,,45,26,25,11,12,142,,113,113,3,7,2,4,0.4,0.4
2024-05-21T1600,1622A,116.3032,37.4674,德州市,儿童乐园,臭氧1小时,69,70,45,29,22,175,,123,123,17,19,9,10,0.8,0.6
2024-05-21T1600,1624A,116.2991,37.4451,德州市,监理站,臭氧1小时,72,61,37,44,22,177,,121,121,13,16,13,13,0.7,0.5
2024-05-21T1600,3066A,116.2721,37.4379,德州市,九衢泉纯净水厂,臭氧1小时,64,63,42,29,20,171,,113,113,16,21,8,9,0.6,0.5
2024-05-21T1600,3371A,116.3728,37.4403,德州市,开发区人民医院,颗粒物(PM10),51,51,39,27,18,155,,111,111,13,15,13,12,0.6,0.4
2024-05-21T1600,3372A,116.3572,37.4094,德州市,太阳城中学,颗粒物(PM10),56,61,42,24,22,162,,109,109,13,17,9,9,0.7,0.5
2024-05-21T1600,3511A,116.5652,37.3319,德州市,陵城艺术中心,,43,41,33,24,16,135,,107,107,12,17,9,9,0.5,0.5
2024-05-21T1600,2621A,99.7056,27.8317,迪庆藏族自治州,迪庆州站,,35,13,20,7,11,112,,91,91,8,10,8,8,0.4,0.3
2024-05-21T1600,3180A,99.7136,27.8094,迪庆藏族自治州,质量技术监督局,颗粒物(PM10),55,59,27,7,8,105,,85,85,9,10,7,7,0.3,0.4
2024-05-21T1600,2663A,104.6241,35.5734,定西市,东关小学,颗粒物(PM10),55,60,54,19,21,155,,130,130,4,13,4,4,0.2,0.2
2024-05-21T1600,2664A,104.6194,35.5934,定西市,供电公司,颗粒物(PM10),52,53,46,22,26,146,,125,125,2,17,5,5,0.3,0.3
2024-05-21T1600,1389A,113.7547,23.0494,东莞市,莞城梨川,,18,16,12,12,11,32,,38,38,26,22,8,8,1.0,1
2024-05-21T1600,1390A,113.7944,23.0128,东莞市,东城石井,,15,15,17,9,10,43,,39,39,16,19,7,7,0.7,0.7
2024-05-21T1600,1391A,113.7383,22.9658,东莞市,南城西平,,26,26,16,18,11,34,,34,34,30,32,6,6,0.8,0.8
2024-05-21T1600,3319A,113.7338,23.0381,东莞市,万江金泰,,13,13,11,9,8,34,,37,37,17,17,8,8,0.7,0.7
2024-05-21T1600,3626A,113.7533,23.0202,东莞市,南城元岭,,19,16,12,13,10,35,,42,42,22,14,7,8,0.7,0.8
2024-05-21T1600,3627A,113.7875,23.0457,东莞市,东城主山,,14,12,12,6,7,43,,42,42,13,16,8,8,0.8,0.9
2024-05-21T1600,1666A,118.6614,37.4309,东营市,市环保局,臭氧1小时,74,53,30,39,19,179,,156,156,13,14,12,10,0.2,0.1
2024-05-21T1600,3036A,118.6904,37.4338,东营市,开发区管委会,臭氧1小时,74,58,40,36,20,179,,156,156,16,16,10,7,0.3,0.3
2024-05-21T1600,3365A,118.5719,37.565,东营市,垦利区民丰路,臭氧1小时,84,68,30,34,16,187,,163,163,17,16,11,10,0.8,0.6
2024-05-21T1600,3498A,118.5055,37.8612,东营市,河口城区,臭氧1小时,102,66,31,34,19,204,,151,151,15,11,8,6,0.4,0.3
2024-05-21T1600,3646A,118.4978,37.4623,东营市,胜利站,臭氧1小时,123,71,30,34,16,245,,172,172,22,17,10,10,1.0,0.7
2024-05-21T1600,3734A,118.35,37.26,东营市,理想之城,臭氧1小时,102,,36,36,19,203,,162,162,19,18,15,12,0.6,0.4
2024-05-21T1600,1591A,110.0023,39.8129,鄂尔多斯市,综合楼,颗粒物(PM10),79,107,120,53,41,179,,170,170,12,22,8,10,0.5,0.5
2024-05-21T1600,1592A,109.9486,39.8261,鄂尔多斯市,巴音孟克林场办事处,颗粒物(PM10),82,114,114,46,40,162,,156,156,8,19,7,10,0.6,0.7
2024-05-21T1600,1593A,109.7736,39.5986,鄂尔多斯市,康泽苑,颗粒物(PM10),76,102,102,53,47,170,,164,164,9,14,7,8,0.3,0.3
2024-05-21T1600,1594A,109.8119,39.5989,鄂尔多斯市,华泰汽车城,颗粒物(PM10),76,102,93,41,47,157,,153,153,10,16,7,8,0.4,0.4
2024-05-21T1600,1595A,109.9734,39.7884,鄂尔多斯市,奥林花园,颗粒物(PM10),79,107,100,56,43,161,,152,152,9,20,7,9,0.5,0.6
2024-05-21T1600,2436A,114.8938,30.3994,鄂州市,市政府,颗粒物(PM10),51,52,51,28,27,138,,132,132,9,13,9,9,0.5,0.5
2024-05-21T1600,2437A,114.8989,30.3714,鄂州市,赵家坝,,46,46,51,32,30,115,,116,116,7,7,8,10,0.6,0.7
2024-05-21T1600,3654A,114.8094,30.4089,鄂州市,精准医疗中心,颗粒物(PM10),55,60,52,31,26,122,,126,126,18,17,7,6,0.5,0.6
2024-05-21T1600,2454A,109.4978,30.2981,恩施土家族苗族自治州,湖北民院,,46,28,37,21,22,146,,87,87,3,19,8,8,0.6,0.5
2024-05-21T1600,2455A,109.4707,30.2798,恩施土家族苗族自治州,州电力总公司,,45,29,39,18,24,141,,81,81,13,26,9,9,0.5,0.7
2024-05-21T1600,3549A,109.5061,30.3772,恩施土家族苗族自治州,龙凤新区,,43,31,31,16,20,137,,84,84,9,12,6,6,0.6,0.6
2024-05-21T1600,2499A,108.3411,21.6158,防城港市,沙万,,27,23,22,12,16,85,,74,74,6,9,5,6,0.7,0.8
2024-05-21T1600,2500A,108.3514,21.7731,防城港市,防城档案局,,27,16,38,14,12,86,,68,68,8,15,3,4,0.6,0.7
2024-05-21T1600,2501A,108.3506,21.6414,防城港市,大海花园,,,29,24,17,10,86,,72,72,8,11,5,5,,0.7
2024-05-21T1600,1371A,113.1294,23.0067,佛山市,湾梁,,17,17,6,9,8,44,,31,31,22,31,5,5,0.8,0.5
2024-05-21T1600,1372A,113.1083,23.0478,佛山市,华材职中,,17,17,11,8,8,37,,31,31,33,39,6,4,0.5,0.6
2024-05-21T1600,1373A,113.144,23.0453,佛山市,南海气象局,,14,12,9,7,7,43,,29,29,21,31,4,4,0.5,0.6
2024-05-21T1600,1374A,113.2881,22.8094,佛山市,顺德苏岗,,15,15,5,7,8,35,,23,23,24,26,5,5,0.7,0.7
2024-05-21T1600,1376A,112.8383,22.8678,佛山市,高明孔堂,,24,14,13,6,8,76,,46,46,17,26,6,6,0.8,0.8
2024-05-21T1600,1377A,112.8836,23.1588,佛山市,三水监测站,,19,,4,11,9,60,,44,44,16,21,7,6,0.7,0.7
2024-05-21T1600,1378A,112.867,23.185,佛山市,三水云东海,,21,,4,7,6,67,,49,49,13,16,4,3,0.6,0.7
2024-05-21T1600,3625A,113.2544,22.7642,佛山市,容桂街道办,,14,14,6,3,6,43,,28,28,26,29,5,4,0.6,0.6
2024-05-21T1600,1282A,119.2681,26.0504,福州市,师大,,16,15,9,3,3,50,,62,56,16,12,3,3,0.7,0.5
2024-05-21T1600,1283A,119.2984,26.1028,福州市,五四北路,,,,11,0,2,71,,67,60,10,12,3,3,0.5,0.4
2024-05-21T1600,1284A,119.2648,26.0768,福州市,杨桥西路,,19,8,9,3,3,58,,63,62,15,14,3,3,0.7,0.5
2024-05-21T1600,1285A,119.317,26.0746,福州市,紫阳,,14,11,10,3,3,43,,56,49,18,14,2,2,0.6,0.5
2024-05-21T1600,3048A,119.5799,26.0936,福州市,九龙,,21,6,9,3,1,65,,70,64,8,7,4,4,0.4,0.3
2024-05-21T1600,3526A,119.5189,25.9664,福州市,吴航,,23,6,5,3,4,72,,81,65,4,5,4,4,0.6,0.5
2024-05-21T1600,1755A,123.7977,41.8491,抚顺市,望花区,,48,39,38,9,17,151,,124,124,14,24,4,4,0.3,0.5
2024-05-21T1600,1756A,123.9161,41.8822,抚顺市,顺城区,,45,32,30,6,13,142,,121,121,13,24,8,9,0.3,0.5
2024-05-21T1600,1757A,124.0436,41.8611,抚顺市,东洲区,,45,28,19,10,11,141,,118,118,11,10,7,6,0.6,0.4
2024-05-21T1600,1758A,123.9247,41.8642,抚顺市,新抚区,,48,48,31,8,11,144,,122,122,12,20,8,7,0.4,0.5
2024-05-21T1600,1759A,124.0972,41.8961,抚顺市,大伙房水库,,44,31,19,8,11,140,,107,107,10,11,8,7,0.6,0.6
2024-05-21T1600,1760A,123.7086,41.8391,抚顺市,沈抚新城,,50,27,46,8,20,157,,130,130,10,25,8,13,0.4,1.2
2024-05-21T1600,2376A,116.2127,28.0814,抚州市,桐源党溪,,20,17,28,10,15,62,,53,53,6,9,8,8,0.4,0.4
2024-05-21T1600,2377A,116.3544,27.9831,抚州市,市站,,17,17,23,10,11,54,,50,47,15,12,4,2,0.8,0.7
2024-05-21T1600,2378A,116.3565,27.963,抚州市,血防站,,24,24,25,12,10,63,,56,56,12,11,1,2,1.0,0.9
2024-05-21T1600,2379A,116.3564,28.0007,抚州市,采茶剧团,,20,18,22,10,12,61,,54,54,9,7,3,3,0.9,0.8
2024-05-21T1600,2380A,116.385,27.9647,抚州市,医学分院,,,26,25,9,10,56,,53,53,,10,4,3,0.9,1
2024-05-21T1600,2207A,121.6094,41.998,阜新市,工业园区,颗粒物(PM10),82,114,49,17,18,148,,142,142,9,21,8,20,0.5,0.6
2024-05-21T1600,2208A,121.6697,42.0279,阜新市,长青街,颗粒物(PM10),64,77,40,13,20,143,,137,137,11,20,9,21,0.3,0.5
2024-05-21T1600,2209A,121.6673,42.0705,阜新市,农业园区,颗粒物(PM10),59,68,52,12,22,141,,137,137,11,18,8,19,0.4,0.7
2024-05-21T1600,2210A,121.6717,42.0224,阜新市,东苑,颗粒物(PM10),82,114,50,8,17,138,,131,131,11,25,6,26,0.3,0.5
2024-05-21T1600,2211A,121.6506,42.0498,阜新市,玉龙新城,颗粒物(PM10),85,119,53,12,17,138,,131,131,8,22,9,14,0.3,0.4
2024-05-21T1600,2301A,115.8277,32.8929,阜阳市,市监测站,,45,39,48,22,27,143,,121,121,8,11,6,6,0.3,0.4
2024-05-21T1600,2303A,115.8554,32.8605,阜阳市,开发区,,49,44,51,21,24,154,,118,118,6,10,5,6,0.3,0.3
2024-05-21T1600,2875A,115.784,32.8892,阜阳市,阜阳职业技术学院,,45,22,44,15,20,144,,130,130,8,11,6,6,0.4,0.4
2024-05-21T1600,3468A,115.7901,32.8613,阜阳市,市规划展馆,,49,40,46,14,27,155,,124,124,7,10,4,5,0.3,0.4
2024-05-21T1600,3469A,115.836,32.9183,阜阳市,枣园社区,,43,39,46,11,30,137,,113,113,8,11,5,6,0.2,0.3
2024-05-21T1600,2669A,102.9099,34.9841,甘南藏族自治州,州政府,,48,29,53,19,24,152,,120,120,2,13,7,7,0.3,0.4
2024-05-21T1600,3380A,102.8914,34.9617,甘南藏族自治州,甘肃民族师范学院,,48,29,61,18,24,153,,120,120,2,20,6,6,0.2,0.3
2024-05-21T1600,2570A,101.9603,30.0475,甘孜藏族自治州,水桥子,,37,20,22,6,12,116,,89,89,5,21,3,3,0.2,0.3
2024-05-21T1600,3065A,101.9533,29.9972,甘孜藏族自治州,州环保局,,37,29,26,3,7,117,,96,96,8,14,1,2,0.3,0.2
2024-05-21T1600,3414A,115.8347,28.932,赣江新区,桑海产业园,,24,7,14,3,10,75,,71,71,10,17,8,8,0.3,0.5
2024-05-21T1600,2363A,114.9367,25.8664,赣州市,地委,,14,9,10,8,10,43,,44,44,8,6,12,12,0.6,0.5
2024-05-21T1600,2364A,114.9461,25.8481,赣州市,气象台,,15,13,11,10,10,41,,37,37,14,10,7,7,0.8,0.7
2024-05-21T1600,2365A,114.9322,25.8333,赣州市,市图书馆,,15,8,10,7,6,46,,42,42,10,8,5,5,0.9,0.8
2024-05-21T1600,2366A,114.8905,25.8471,赣州市,华坚鞋城,,17,17,16,7,6,30,,44,32,22,12,5,6,0.4,0.3
2024-05-21T1600,3109A,115.0093,25.8613,赣州市,赣县区卫计委,,19,8,8,3,9,58,,48,48,6,11,5,5,0.6,0.6
2024-05-21T1600,2683A,106.2319,36.1417,固原市,马园,,45,42,40,16,22,141,,133,133,16,24,5,5,0.3,0.4
2024-05-21T1600,2684A,106.2792,36.0022,固原市,监测站,,45,35,31,12,18,144,,130,130,7,14,3,3,0.3,0.3
2024-05-21T1600,2685A,106.2375,36.0211,固原市,新区,,45,38,33,7,17,143,,131,131,7,13,4,4,0.2,0.3
2024-05-21T1600,3522A,106.2177,35.9959,固原市,原州区十五小,,48,30,40,13,18,151,,139,139,4,9,3,4,0.4,0.5
2024-05-21T1600,2544A,106.6303,30.4576,广安市,市委,,42,32,23,12,10,132,,105,105,8,10,9,8,0.5,0.4
2024-05-21T1600,2545A,106.6271,30.4663,广安市,友谊中学,,43,28,16,15,11,135,,105,105,10,11,7,6,0.3,0.2
2024-05-21T1600,2547A,106.6388,30.4551,广安市,广电花园,,40,20,18,13,11,128,,99,99,11,11,9,8,0.6,0.5
2024-05-21T1600,2902A,106.6351,30.4865,广安市,北辰小学,,43,28,20,10,11,135,,103,103,8,8,11,9,0.5,0.4
2024-05-21T1600,2523A,105.8945,32.4535,广元市,黑石坡,,44,12,16,3,11,140,,118,118,7,8,6,7,0.3,0.3
2024-05-21T1600,2524A,105.821,32.4444,广元市,老城,,47,13,26,8,13,148,,123,123,6,19,1,2,0.3,0.4
2024-05-21T1600,2526A,105.8628,32.4287,广元市,监测站,,48,14,23,3,14,151,,128,128,4,8,3,4,0.3,0.3
2024-05-21T1600,3617A,105.8047,32.4166,广元市,经开区,,48,30,32,13,16,153,,128,128,7,16,3,5,0.4,0.4
2024-05-21T1600,1345A,113.2347,23.1423,广州市,广雅中学,,18,10,9,6,8,38,,30,30,36,41,4,4,0.7,0.8
2024-05-21T1600,1346A,113.2612,23.105,广州市,市五中,,17,9,7,9,6,52,,39,39,16,22,4,4,0.6,0.6
2024-05-21T1600,1348A,113.3478,23.0916,广州市,广东商学院,,13,12,12,3,4,39,,34,25,22,25,4,4,0.8,0.7
2024-05-21T1600,1349A,113.4332,23.1047,广州市,市八十六中,,13,9,6,3,4,39,,34,34,18,25,3,4,0.6,0.7
2024-05-21T1600,1350A,113.3505,22.9483,广州市,番禺中学,,15,10,10,8,8,36,,30,30,29,31,4,4,0.6,0.5
2024-05-21T1600,1351A,113.2146,23.3916,广州市,花都师范,,17,6,8,3,7,54,,44,44,13,18,5,5,0.6,0.6
2024-05-21T1600,1352A,113.2597,23.1331,广州市,市监测站,,13,10,6,3,4,41,,32,32,22,28,4,4,0.5,0.6
2024-05-21T1600,1353A,113.5618,23.312,广州市,九龙镇镇龙,,13,6,4,3,4,39,,42,33,14,10,6,6,0.5,0.5
2024-05-21T1600,1354A,113.2765,23.1544,广州市,麓湖,,15,6,6,3,4,46,,33,33,16,28,5,5,0.7,0.7
2024-05-21T1600,1355A,113.443,23.3035,广州市,帽峰山森林公园,,,,0,3,1,,,42,,,12,,5,,0.4
2024-05-21T1600,2846A,113.3221,23.1322,广州市,体育西,,,10,9,7,6,44,,31,31,16,23,2,2,,0.6
2024-05-21T1600,3298A,113.5717,23.5491,广州市,从化街口,,14,6,10,3,7,42,,36,36,18,24,6,6,0.7,0.7
2024-05-21T1600,3299A,113.3472,23.3692,广州市,白云竹料,,19,6,8,3,7,58,,47,47,12,21,4,4,0.6,0.6
2024-05-21T1600,3300A,113.2981,23.237,广州市,白云嘉禾,,17,9,7,6,5,35,,38,38,34,31,5,5,0.8,0.8
2024-05-21T1600,3301A,113.4256,23.1716,广州市,黄埔科学城,,12,6,4,3,3,36,,45,33,12,13,3,4,0.7,0.7
2024-05-21T1600,3302A,113.3942,23.0483,广州市,番禺大学城,,12,7,11,3,5,31,,25,25,24,31,3,3,0.7,0.6
2024-05-21T1600,3303A,113.4922,22.8168,广州市,南沙黄阁,细颗粒物(PM2.5),54,45,21,38,16,27,,27,27,39,36,6,6,0.8,0.8
2024-05-21T1600,3304A,113.5342,22.7896,广州市,南沙街,颗粒物(PM10),51,51,19,33,11,21,,26,26,44,35,6,7,0.7,0.6
2024-05-21T1600,3443A,113.2902,23.5544,广州市,花都梯面,,20,8,6,3,4,64,,55,55,6,8,4,4,0.7,0.6
2024-05-21T1600,3445A,113.7858,23.7478,广州市,从化良口,,19,6,2,3,0,58,,52,52,4,8,5,5,0.6,0.6
2024-05-21T1600,3446A,113.8051,23.2614,广州市,增城荔城,,14,6,5,3,4,44,,49,45,8,7,4,5,0.4,0.5
2024-05-21T1600,2506A,109.6047,23.0666,贵港市,江南子站,,29,19,22,7,14,92,,66,66,9,17,9,9,0.6,0.7
2024-05-21T1600,2507A,109.6014,23.0948,贵港市,贵城子站,,29,20,25,7,18,90,,63,63,6,15,8,9,0.4,0.5
2024-05-21T1600,2508A,109.5669,23.1065,贵港市,荷城子站,,28,14,24,7,10,87,,54,54,5,14,10,11,0.3,0.4
2024-05-21T1600,3405A,109.5886,23.1172,贵港市,新世纪学校,,29,14,24,7,14,90,,60,60,4,11,12,11,0.6,0.8
2024-05-21T1600,1439A,106.6899,26.5998,贵阳市,马鞍山,,23,6,20,3,10,73,,72,72,10,14,7,7,0.5,0.6
2024-05-21T1600,1440A,106.6971,26.5694,贵阳市,市环保站,,,6,20,3,18,80,,75,75,12,16,4,6,,0.6
2024-05-21T1600,1441A,106.6243,26.6266,贵阳市,鉴湖路,,29,17,18,7,9,90,,78,78,9,8,4,4,0.4,0.4
2024-05-21T1600,1442A,106.7487,26.6343,贵阳市,燕子冲,,22,7,18,7,17,69,,68,68,8,10,6,7,0.4,0.4
2024-05-21T1600,1443A,106.6555,26.4365,贵阳市,碧云窝,,29,7,18,3,8,92,,84,84,6,13,4,6,0.4,0.5
2024-05-21T1600,1444A,106.694,26.5161,贵阳市,中院村,,,27,22,3,12,75,,68,68,,15,6,8,0.6,0.6
2024-05-21T1600,1445A,106.7109,26.6027,贵阳市,红边门,,25,6,21,3,18,77,,77,77,11,15,3,6,0.5,0.6
2024-05-21T1600,1446A,106.7164,26.5699,贵阳市,新华路,,25,9,19,7,14,78,,75,75,9,11,1,3,0.4,0.5
2024-05-21T1600,1447A,106.674,26.5424,贵阳市,太慈桥,,24,6,19,3,11,76,,74,74,8,12,5,6,0.4,0.4
2024-05-21T1600,1862A,110.4144,25.3167,桂林市,电子科大尧山校区,,,18,22,16,15,100,,92,92,4,5,,5,0.6,0.6
2024-05-21T1600,1863A,110.2819,25.2697,桂林市,监测站,细颗粒物(PM2.5),58,,24,41,21,96,,89,89,8,10,6,5,0.5,0.6
2024-05-21T1600,1864A,110.3089,25.2708,桂林市,龙隐路小学,,30,18,20,16,15,96,,90,90,4,6,6,7,0.8,0.8
2024-05-21T1600,1865A,110.2869,25.2178,桂林市,八中,,30,23,22,14,12,96,,89,89,6,8,6,6,0.7,0.7
2024-05-21T1600,3403A,110.1764,25.2381,桂林市,创业大厦,,36,24,21,19,16,114,,99,99,6,7,11,9,0.6,0.6
2024-05-21T1600,3531A,110.296,25.1253,桂林市,旅游学院,,30,7,10,3,9,93,,93,93,3,5,6,7,0.6,0.6
2024-05-21T1600,2674A,100.2561,34.4714,果洛藏族自治州,玛沁县大武镇,,45,11,19,9,12,144,,132,132,20,18,9,10,0.4,0.4
2024-05-21T1600,1129A,126.5422,45.755,哈尔滨市,岭北,,50,50,33,9,17,137,,104,104,14,20,13,13,0.9,0.7
2024-05-21T1600,1130A,126.561,45.8167,哈尔滨市,松北商大,颗粒物(PM10),59,67,37,12,14,129,,104,104,9,18,6,6,0.4,0.4
2024-05-21T1600,1131A,126.979,45.5419,哈尔滨市,阿城会宁,,48,48,33,13,13,121,,94,94,6,10,12,11,0.6,0.5
2024-05-21T1600,1132A,126.599,45.7222,哈尔滨市,南岗学府路,颗粒物(PM10),54,58,45,9,12,132,,100,100,12,22,6,6,0.5,0.5
2024-05-21T1600,1133A,126.689,45.7733,哈尔滨市,太平宏伟公园,颗粒物(PM10),68,85,45,12,18,131,,99,99,14,20,6,8,0.5,0.5
2024-05-21T1600,1134A,126.635,45.7667,哈尔滨市,道外承德广场,颗粒物(PM10),54,57,43,29,26,132,,103,103,15,25,8,9,0.4,0.4
2024-05-21T1600,1135A,126.685,45.7319,哈尔滨市,香坊红旗大街,颗粒物(PM10),56,61,31,9,19,126,,94,94,13,23,8,9,0.5,0.5
2024-05-21T1600,1136A,126.6411,45.7258,哈尔滨市,动力和平路,颗粒物(PM10),57,63,42,9,16,127,,96,96,14,25,6,11,0.4,0.5
2024-05-21T1600,1137A,126.593,45.7478,哈尔滨市,道里建国路,颗粒物(PM10),58,66,42,12,19,128,,96,96,14,22,8,9,0.3,0.8
2024-05-21T1600,1138A,126.615,45.61,哈尔滨市,平房东轻厂,颗粒物(PM10),81,111,49,18,15,131,,100,100,8,12,8,7,0.5,0.3
2024-05-21T1600,1139A,126.595,45.9855,哈尔滨市,呼兰师专,颗粒物(PM10),57,63,48,14,18,130,,93,93,14,25,8,8,0.4,0.4
2024-05-21T1600,1140A,126.6206,45.6842,哈尔滨市,省农科院,颗粒物(PM10),77,104,52,31,20,134,,104,104,11,27,7,9,0.4,0.4
2024-05-21T1600,2688A,93.5128,42.8172,哈密市,地区监测站,颗粒物(PM10),58,65,80,26,31,136,,120,115,6,8,3,3,0.1,0.2
2024-05-21T1600,2689A,93.4961,42.8328,哈密市,哈密师范学校,颗粒物(PM10),53,56,77,21,25,130,,115,109,5,8,4,7,0.3,0.2
2024-05-21T1600,2671A,100.9048,36.9639,海北藏族自治州,海晏县西海镇,,47,29,37,28,19,148,,129,129,5,10,7,9,0.5,0.4
2024-05-21T1600,3867A,102.0738,36.5056,海东市,平安区公安北苑,臭氧1小时,55,49,58,23,33,164,,126,126,4,16,7,13,0.3,0.5
2024-05-21T1600,1410A,110.3232,20.0574,海口市,海南大学,,34,26,18,15,12,106,,87,87,12,11,5,4,0.6,0.5
2024-05-21T1600,1411A,110.283,20.0053,海口市,秀英海南医院,,27,19,19,14,13,84,,74,74,13,13,5,5,0.4,0.4
2024-05-21T1600,1412A,110.338,19.9969,海口市,海南师范大学,,28,14,15,8,11,89,,83,83,4,8,6,6,0.5,0.5
2024-05-21T1600,1413A,110.33,20.0356,海口市,龙华路环保局宿舍,,30,20,18,17,11,96,,81,81,11,11,6,6,0.5,0.4
2024-05-21T1600,3539A,110.5111,19.9736,海口市,桂林洋子站,,24,15,20,6,7,74,,74,74,6,8,5,5,0.4,0.4
2024-05-21T1600,2673A,100.6188,36.2866,海南藏族自治州,共和县恰卜恰镇,,50,16,34,14,16,158,,137,137,10,12,8,11,0.5,0.5
2024-05-21T1600,2676A,97.3731,37.3753,海西蒙古族藏族自治州,德令哈市,,47,42,56,16,18,150,,133,133,9,9,9,7,0.9,0.6
2024-05-21T1600,1048A,114.5302,36.6116,邯郸市,东污水处理厂,臭氧1小时,63,49,49,34,43,170,,141,141,6,16,7,6,0.4,0.4
2024-05-21T1600,1049A,114.4918,36.5713,邯郸市,矿院,臭氧1小时,68,54,76,24,33,174,,144,144,5,15,8,8,0.6,0.7
2024-05-21T1600,1050A,114.484,36.6133,邯郸市,丛台公园,臭氧1小时,67,53,59,30,37,173,,147,147,5,12,8,8,0.4,0.5
2024-05-21T1600,3458A,114.7895,36.5593,邯郸市,香泉濮院小区,臭氧1小时,98,64,53,23,30,198,,155,155,3,9,7,5,0.2,0.3
2024-05-21T1600,3579A,114.50634,36.77178,邯郸市,永年区实验高中,臭氧1小时,100,58,61,26,41,200,,189,189,5,17,4,7,0.4,0.4
2024-05-21T1600,3580A,114.20016,36.44293,邯郸市,峰峰矿区临水派出所,臭氧1小时,90,66,59,36,36,192,,164,164,3,5,7,7,0.6,0.8
2024-05-21T1600,2634A,106.9893,33.1842,汉中市,汉川机床厂子校,,,35,30,20,16,169,,130,130,5,8,5,5,,0.6
2024-05-21T1600,2635A,107.0154,33.0706,汉中市,市监测站,臭氧1小时,55,31,38,22,19,164,,141,141,6,10,8,9,0.4,0.5
2024-05-21T1600,2636A,107.0089,33.1138,汉中市,鑫源开发区,臭氧1小时,63,40,34,24,17,170,,135,135,4,10,9,11,0.4,0.5
2024-05-21T1600,2637A,107.007,33.0323,汉中市,南郑大河坎水厂,臭氧1小时,57,38,43,19,20,165,,125,125,4,9,8,8,0.4,0.4
2024-05-21T1600,1223A,120.2072,30.2111,杭州市,滨江,,43,43,42,18,18,105,,97,97,15,20,5,5,0.5,0.6
2024-05-21T1600,1224A,120.0633,30.2747,杭州市,西溪,,33,33,36,17,22,95,,87,87,15,18,6,6,0.5,0.6
2024-05-21T1600,1226A,120.3461,30.3153,杭州市,下沙,,33,32,42,15,19,103,,99,99,16,26,7,8,0.4,0.4
2024-05-21T1600,1227A,120.1269,30.2456,杭州市,卧龙桥,,34,32,36,20,24,108,,98,98,13,16,5,5,0.5,0.6
2024-05-21T1600,1228A,120.1903,30.2692,杭州市,浙江农大,,34,34,37,18,22,90,,82,82,17,26,7,7,0.3,0.3
2024-05-21T1600,1230A,120.1197,30.3119,杭州市,和睦小学,,31,27,36,16,22,99,,92,92,21,30,4,5,0.4,0.4
2024-05-21T1600,1231A,120.3019,30.4183,杭州市,临平镇,,33,30,41,16,23,103,,98,98,10,17,5,5,0.4,0.5
2024-05-21T1600,1232A,120.2697,30.1819,杭州市,城厢镇,,44,44,38,26,24,92,,91,91,24,28,6,6,0.5,0.5
2024-05-21T1600,1233A,120.0883,30.1808,杭州市,云栖,,36,36,38,16,18,102,,89,89,18,25,8,8,0.5,0.6
2024-05-21T1600,3557A,119.9464,30.0494,杭州市,镇二中,,29,27,47,18,25,90,,86,86,18,23,8,8,0.6,0.7
2024-05-21T1600,3558A,119.7183,30.2367,杭州市,市府大楼,,39,39,46,26,32,123,,90,90,19,22,7,6,0.5,0.6
2024-05-21T1600,3656A,120.1556,30.2864,杭州市,消防大队,,,30,38,20,22,91,,85,85,,25,,7,0.7,0.7
2024-05-21T1600,1270A,117.1959,31.7848,合肥市,明珠广场,细颗粒物(PM2.5),62,63,62,44,38,145,,120,120,23,24,8,9,0.7,0.8
2024-05-21T1600,1271A,117.3072,31.8764,合肥市,三里街,细颗粒物(PM2.5),64,63,55,46,31,138,,116,116,19,21,6,7,0.5,0.5
2024-05-21T1600,1272A,117.2588,31.8707,合肥市,琥珀山庄,颗粒物(PM10),54,58,52,27,23,147,,123,123,15,16,9,10,0.5,0.5
2024-05-21T1600,1273A,117.1604,31.9052,合肥市,董铺水库,臭氧1小时,60,53,52,29,29,168,,145,145,15,16,2,2,0.5,0.4
2024-05-21T1600,1274A,117.25,31.8571,合肥市,长江中路,颗粒物(PM10),59,68,62,41,42,139,,126,126,21,17,6,6,0.6,0.7
2024-05-21T1600,1275A,117.266,31.9436,合肥市,庐阳区,颗粒物(PM10),59,68,60,36,32,145,,121,121,18,20,7,6,0.5,0.5
2024-05-21T1600,1276A,117.336,31.8586,合肥市,瑶海区,颗粒物(PM10),57,63,55,39,31,138,,118,118,16,18,7,8,0.7,0.8
2024-05-21T1600,1277A,117.3027,31.7964,合肥市,包河区,颗粒物(PM10),58,66,60,36,36,131,,114,114,24,36,9,8,0.5,0.5
2024-05-21T1600,1278A,117.2776,31.7385,合肥市,滨湖新区,颗粒物(PM10),60,70,61,39,36,134,,118,118,14,18,7,8,0.5,0.6
2024-05-21T1600,1279A,117.1318,31.8403,合肥市,高新区,颗粒物(PM10),59,68,58,36,35,144,,121,121,17,19,6,8,0.7,0.8
2024-05-21T1600,3614A,79.924,37.0877,和田地区,地区环保局,颗粒物(PM10),307,425,1163,132,287,103,,104,95,2,4,6,6,0.4,0.4
2024-05-21T1600,3615A,79.9131,37.113,和田地区,市环保局,颗粒物(PM10),242,379,1260,101,290,95,,91,86,6,12,5,5,0.4,0.4
2024-05-21T1600,2516A,108.2011,24.715,河池市,东仁乐园,,15,15,27,9,13,12,,9,9,6,7,3,3,0.8,0.8
2024-05-21T1600,2517A,108.0497,24.6947,河池市,市环保站,,27,18,21,11,13,85,,71,71,8,11,6,8,0.5,0.5
2024-05-21T1600,2518A,108.0983,24.6989,河池市,市疾控中心,,27,18,24,8,13,84,,65,65,8,16,7,8,0.5,0.5
2024-05-21T1600,1697A,114.6944,23.7586,河源市,东埔,,15,6,10,3,6,45,,40,40,11,15,6,6,0.7,0.7
2024-05-21T1600,1698A,114.6892,23.7233,河源市,老城,,14,12,9,7,7,42,,40,40,7,10,5,5,0.6,0.6
2024-05-21T1600,1718A,115.4208,35.2464,菏泽市,气象局,臭氧1小时,89,77,72,31,32,191,,145,145,11,17,5,7,0.5,0.5
2024-05-21T1600,1719A,115.4747,35.2375,菏泽市,市政协,臭氧1小时,92,59,64,29,35,193,,153,153,10,14,5,5,0.4,0.2
2024-05-21T1600,3374A,115.5564,35.0891,菏泽市,定陶老年大学,臭氧1小时,73,56,63,27,32,178,,132,132,10,19,4,6,0.6,0.7
2024-05-21T1600,3647A,115.4702,35.2706,菏泽市,菏泽医专,臭氧1小时,83,69,66,35,31,186,,139,139,8,14,4,6,0.3,0.3
2024-05-21T1600,2514A,111.5264,24.4172,贺州市,环保小区,,23,,23,16,11,60,,59,59,11,11,6,7,0.7,0.6
2024-05-21T1600,2515A,111.5608,24.4078,贺州市,政协大楼,,21,21,26,14,14,60,,59,59,13,12,7,6,0.5,0.5
2024-05-21T1600,3534A,111.4744,24.4553,贺州市,西湾,,20,12,19,10,11,64,,61,61,6,7,8,8,0.6,0.6
2024-05-21T1600,2385A,114.17,35.9019,鹤壁市,市监测站,臭氧1小时,101,74,65,54,44,201,,166,166,3,8,14,12,0.6,0.7
2024-05-21T1600,2386A,114.2956,35.7511,鹤壁市,市交警支队,臭氧1小时,92,72,63,40,39,193,,157,157,11,15,9,10,0.5,0.4
2024-05-21T1600,2387A,114.2878,35.7306,鹤壁市,迎宾馆,臭氧1小时,98,94,63,53,45,198,,153,153,10,15,13,12,0.5,0.5
2024-05-21T1600,3474A,114.2617,35.6822,鹤壁市,大新区,臭氧1小时,84,88,60,32,29,187,,145,145,10,16,12,10,0.6,0.6
2024-05-21T1600,3596A,114.1572,35.9603,鹤壁市,南山宾馆,臭氧1小时,103,68,57,39,43,206,,164,164,8,12,15,10,0.6,0.6
2024-05-21T1600,2244A,130.2537,47.3416,鹤岗市,哈啤分公司,,27,27,26,8,12,74,,84,84,8,11,12,12,0.4,3
2024-05-21T1600,2245A,130.2684,47.3086,鹤岗市,斯达机电,,31,31,30,12,14,75,,82,82,11,12,10,11,0.3,0.4
2024-05-21T1600,2246A,130.3114,47.3388,鹤岗市,东山纸板厂,,41,41,65,13,18,75,,86,85,12,20,15,15,0.3,0.7
2024-05-21T1600,2247A,130.1097,47.3382,鹤岗市,五号水库,,30,24,25,10,11,94,,103,103,5,7,11,11,0.2,0.3
2024-05-21T1600,2263A,127.4833,50.2524,黑河市,交通局,,,,28,,19,73,,81,81,,17,9,8,0.3,0.3
2024-05-21T1600,2264A,127.5144,50.2341,黑河市,环保局,颗粒物(PM10),53,56,33,29,20,84,,92,92,23,14,6,6,0.4,0.4
2024-05-21T1600,2265A,127.5291,50.2472,黑河市,大黑河岛,,25,25,29,12,16,79,,87,85,25,13,7,6,0.6,0.5
2024-05-21T1600,1074A,115.6838,37.7541,衡水市,电机北厂,,49,21,28,12,20,155,,113,113,7,16,4,4,0.4,0.3
2024-05-21T1600,1075A,115.6303,37.7316,衡水市,市监测站,,49,30,32,21,18,154,,120,120,14,16,6,6,0.5,0.4
2024-05-21T1600,3188A,115.6683,37.7217,衡水市,市城管局,臭氧1小时,57,40,30,25,20,165,,120,120,12,19,5,4,0.5,0.4
2024-05-21T1600,3459A,115.5989,37.5491,衡水市,地表水厂,臭氧1小时,53,50,38,23,18,162,,124,124,12,24,2,3,0.4,0.3
2024-05-21T1600,2456A,112.5003,26.9167,衡阳市,原169医院,,44,44,36,24,20,81,,67,67,7,8,5,4,0.8,0.7
2024-05-21T1600,2457A,112.6194,26.9258,衡阳市,衡阳化工总厂,,33,33,41,22,27,102,,91,91,8,10,8,9,0.5,0.5
2024-05-21T1600,2458A,112.6211,26.8956,衡阳市,珠晖区环保局,,33,29,37,20,21,104,,90,90,7,15,6,7,0.6,0.7
2024-05-21T1600,2459A,112.6197,26.8733,衡阳市,市委党校,,34,24,33,18,23,107,,92,92,6,10,4,5,0.5,0.6
2024-05-21T1600,2460A,112.6006,26.8919,衡阳市,市监测站,,35,26,37,16,27,109,,95,95,6,9,8,8,0.5,0.6
2024-05-21T1600,2461A,112.5664,26.9056,衡阳市,真空机电公司,,31,31,35,20,19,97,,86,86,5,9,7,7,0.7,0.7
2024-05-21T1600,3399A,112.6703,26.882,衡阳市,师范学院,,34,27,36,23,27,107,,93,93,6,10,8,8,0.6,0.7
2024-05-21T1600,2608A,103.3772,23.3993,红河哈尼族彝族自治州,污水处理厂,,42,24,42,24,29,133,,96,96,6,20,8,22,0.4,0.5
2024-05-21T1600,2609A,103.3861,23.35,红河哈尼族彝族自治州,监测站,,43,22,37,13,20,136,,102,102,7,19,7,18,0.3,0.4
2024-05-21T1600,3038A,103.3758,23.368,红河哈尼族彝族自治州,州图书馆,,40,,39,23,27,128,,102,102,5,17,4,16,0.3,0.4
2024-05-21T1600,1090A,111.6507,40.7517,呼和浩特市,呼市一监,臭氧1小时,100,66,80,21,29,200,,179,179,9,21,8,9,0.4,0.4
2024-05-21T1600,1091A,111.6572,40.8033,呼和浩特市,小召,臭氧1小时,87,56,66,21,32,189,,166,166,15,24,8,8,0.4,0.5
2024-05-21T1600,1094A,111.7516,40.8369,呼和浩特市,如意水处理厂,臭氧1小时,78,50,72,18,22,182,,171,171,8,26,7,7,0.4,0.4
2024-05-21T1600,1095A,111.7276,40.8062,呼和浩特市,二十九中,臭氧1小时,90,49,84,21,30,192,,181,181,11,29,3,3,0.4,0.5
2024-05-21T1600,1096A,111.5512,40.7866,呼和浩特市,工大金川校区,臭氧1小时,98,55,75,32,32,198,,168,168,13,34,9,9,0.4,0.4
2024-05-21T1600,1097A,111.717,40.7612,呼和浩特市,化肥厂生活区,臭氧1小时,92,75,101,32,40,193,,173,173,12,26,9,9,0.3,0.3
2024-05-21T1600,3698A,111.5968,40.8178,呼和浩特市,红旗小学,臭氧1小时,92,58,76,24,28,193,,168,168,13,35,8,6,0.4,0.5
2024-05-21T1600,3699A,111.6518,40.8389,呼和浩特市,海东办,臭氧1小时,90,61,71,23,27,192,,166,166,10,24,7,7,0.3,0.4
2024-05-21T1600,2192A,119.7594,49.2261,呼伦贝尔市,区环保局,,36,23,30,11,17,115,,109,109,7,9,4,5,0.3,0.3
2024-05-21T1600,3061A,119.7512,49.1577,呼伦贝尔市,国华电力东,,37,26,23,3,9,116,,111,111,3,5,4,4,0.3,0.2
2024-05-21T1600,1250A,120.0751,30.8669,湖州市,城西水厂,,34,18,33,9,19,108,,101,101,11,17,5,4,0.6,0.6
2024-05-21T1600,2873A,120.0875,30.8955,湖州市,仁皇山新区,,34,21,32,11,19,106,,102,102,15,22,6,6,0.6,0.6
2024-05-21T1600,2907A,120.1844,30.8596,湖州市,吴兴区站,,31,21,31,10,18,98,,98,98,5,12,6,5,0.4,0.4
2024-05-21T1600,3562A,120.4148,30.8538,湖州市,南浔区站,,30,19,27,8,19,95,,96,96,6,14,6,6,0.3,0.4
2024-05-21T1600,1607A,120.9092,40.7136,葫芦岛市,龙港区,颗粒物(PM10),52,54,39,35,29,106,,106,106,16,12,7,8,0.7,0.7
2024-05-21T1600,1608A,120.8392,40.7514,葫芦岛市,化工街,颗粒物(PM10),51,51,55,22,25,97,,108,108,24,40,11,14,1.2,1.3
2024-05-21T1600,1609A,120.8341,40.7073,葫芦岛市,新区,细颗粒物(PM2.5),64,47,33,46,36,106,,112,112,20,23,7,8,0.6,0.7
2024-05-21T1600,1610A,120.8695,40.7677,葫芦岛市,东城区,细颗粒物(PM2.5),54,39,43,38,39,113,,122,122,16,41,6,8,0.7,0.8
2024-05-21T1600,2482A,109.5981,27.5721,怀化市,林科所,,,23,16,10,8,110,,114,107,1,1,,5,0.5,0.7
2024-05-21T1600,2483A,109.9453,27.5444,怀化市,河西地税局,,33,33,22,19,13,98,,90,90,7,6,5,5,0.6,0.6
2024-05-21T1600,2484A,109.9781,27.5342,怀化市,市四医院,,33,28,23,23,15,102,,90,90,6,7,3,11,0.6,0.8
2024-05-21T1600,2485A,109.9972,27.5578,怀化市,监测楼,,33,31,23,23,13,94,,84,84,4,5,8,16,0.6,0.6
2024-05-21T1600,2486A,110.0394,27.583,怀化市,市委党校,,29,29,22,17,14,92,,89,89,5,5,3,19,0.7,0.6
2024-05-21T1600,1210A,119.036,33.5981,淮安市,钵池山,,31,17,24,12,18,98,,92,92,7,10,7,7,0.5,0.5
2024-05-21T1600,1211A,119.007,33.575,淮安市,北京南路,,32,24,27,12,16,100,,98,98,7,9,7,8,0.4,0.4
2024-05-21T1600,1212A,118.989,33.6067,淮安市,市监测站,,30,24,26,7,14,96,,90,90,12,13,6,6,0.4,0.4
2024-05-21T1600,1213A,119.135,33.5039,淮安市,楚州区监测站,,30,24,30,10,15,94,,88,88,9,13,7,8,0.5,0.5
2024-05-21T1600,1214A,119.0186,33.6297,淮安市,淮阴区监测站,,31,,28,17,22,99,,90,90,12,16,6,7,0.4,0.4
2024-05-21T1600,3426A,118.8755,33.2894,淮安市,新华书店,,35,23,24,13,16,109,,97,97,7,11,4,6,0.3,0.3
2024-05-21T1600,2282A,116.8004,33.975,淮北市,监测站,,39,31,47,14,22,122,,98,98,2,5,5,6,0.4,0.5
2024-05-21T1600,2283A,116.8091,33.9007,淮北市,烈山区政府,颗粒物(PM10),51,52,49,10,16,128,,99,99,2,6,4,4,0.4,0.4
2024-05-21T1600,3330A,116.8873,33.9836,淮北市,杜集区检察院,颗粒物(PM10),52,53,48,21,27,136,,109,109,4,6,5,5,0.5,0.5
2024-05-21T1600,4017A,116.7923,33.9535,淮北市,市博物馆,,41,34,41,14,20,130,,114,114,2,4,4,5,0.4,0.5
2024-05-21T1600,2277A,116.8305,32.7727,淮南市,潘集区政府,,44,35,48,17,27,139,,128,128,8,14,6,6,0.2,0.2
2024-05-21T1600,2278A,117.0067,32.6524,淮南市,师范学院,,40,31,52,28,31,126,,115,115,2,8,8,13,0.2,0.3
2024-05-21T1600,2279A,116.8569,32.5951,淮南市,谢家集区政府,,42,32,45,9,15,133,,121,121,10,11,5,8,0.2,0.2
2024-05-21T1600,2280A,116.8281,32.633,淮南市,八公山区政府,,37,36,54,18,31,116,,108,108,6,11,4,7,0.3,0.4
2024-05-21T1600,2281A,116.6325,32.6201,淮南市,焦岗湖风景区管理处,,35,35,52,8,14,110,,96,96,10,26,6,5,0.2,0.2
2024-05-21T1600,2894A,117.0566,32.6531,淮南市,经济技术开发区消防队,,40,32,38,15,20,127,,117,117,10,13,3,7,0.2,0.3
2024-05-21T1600,3329A,117.0108,32.5893,淮南市,山南新区,,43,38,54,15,24,135,,119,119,7,10,5,8,0.3,0.4
2024-05-21T1600,2446A,114.9028,30.4742,黄冈市,职工中心,颗粒物(PM10),73,95,55,41,36,111,,117,117,17,9,7,6,0.4,0.5
2024-05-21T1600,2929A,114.8858,30.4519,黄冈市,红卫路,颗粒物(PM10),53,56,49,36,35,113,,124,124,11,4,11,10,0.5,0.5
2024-05-21T1600,3398A,114.9136,30.4445,黄冈市,市林业局,细颗粒物(PM2.5),57,56,47,40,36,117,,154,154,9,2,4,2,0.3,0.3
2024-05-21T1600,2672A,102.0199,35.5102,黄南藏族自治州,同仁县隆务镇,,,35,43,18,23,151,,126,126,,2,6,8,0.5,0.7
2024-05-21T1600,2295A,118.2903,29.6963,黄山市,延安路89号,,34,34,46,14,13,71,,73,72,6,7,5,5,0.5,0.5
2024-05-21T1600,2296A,118.327,29.7178,黄山市,黄山东路89号,,23,23,27,3,9,68,,86,72,5,7,5,5,0.3,0.3
2024-05-21T1600,2297A,118.1371,30.2756,黄山市,黄山区政府5号楼,,28,28,36,14,24,69,,62,62,12,8,4,4,0.3,0.4
2024-05-21T1600,2423A,115.0601,30.2313,黄石市,沈家营,颗粒物(PM10),55,60,51,20,26,105,,113,113,8,14,20,21,0.5,0.6
2024-05-21T1600,2424A,115.0817,30.2006,黄石市,陈家湾,,46,46,57,19,31,113,,103,103,6,17,8,7,0.6,0.9
2024-05-21T1600,2426A,114.8988,30.2019,黄石市,铁山,,48,48,44,26,25,115,,117,117,16,16,11,11,0.4,0.6
2024-05-21T1600,2427A,115.0307,30.2092,黄石市,团城山,颗粒物(PM10),54,57,51,17,22,112,,108,108,8,12,8,12,0.4,0.6
2024-05-21T1600,3149A,115.0235,30.1578,黄石市,笔架山北路,,47,47,57,18,25,110,,116,116,5,8,5,11,0.6,0.8
2024-05-21T1600,1392A,114.4183,23.0528,惠州市,河南岸金山湖子站,,12,10,9,6,6,38,,37,34,15,12,5,5,0.5,0.5
2024-05-21T1600,1393A,114.4053,23.0822,惠州市,下埔横江三路子站,,15,9,9,6,6,45,,42,42,14,10,7,7,0.7,0.6
2024-05-21T1600,1394A,114.4103,23.1142,惠州市,江北云山西路子站,,15,6,6,3,5,45,,41,38,10,8,4,5,0.6,0.6
2024-05-21T1600,1395A,114.4645,22.7833,惠州市,惠阳区承修路船湖子站,,19,19,14,13,11,57,,46,46,17,18,3,4,0.5,0.5
2024-05-21T1600,1396A,114.5317,22.7422,惠州市,大亚湾管委会子站,,22,17,13,12,8,70,,59,59,15,19,4,5,0.8,0.8
2024-05-21T1600,3314A,114.4338,22.8134,惠州市,惠阳秋长,,27,27,21,12,8,41,,49,39,22,12,5,5,0.8,0.7
2024-05-21T1600,3452A,114.6517,22.775,惠州市,大亚湾霞涌,,23,13,9,8,5,72,,60,60,5,7,6,6,0.2,0.3
2024-05-21T1600,2240A,130.9762,45.3001,鸡西市,环保局,,24,24,31,8,14,75,,71,71,5,10,5,5,0.3,0.3
2024-05-21T1600,2243A,130.9429,45.3039,鸡西市,第一中学,,28,16,26,3,12,87,,84,84,3,7,7,7,0.2,0.2
2024-05-21T1600,3707A,131.0207,45.3073,鸡西市,欧美日汽修厂,,35,26,42,24,21,76,,73,73,10,17,6,7,0.3,0.4
2024-05-21T1600,3709A,130.9967,45.3106,鸡西市,市政设施管理处,,26,26,38,3,17,78,,78,78,11,18,7,8,0.3,0.4
2024-05-21T1600,2367A,114.9754,27.0803,吉安市,红声器材厂,,20,19,25,3,14,62,,63,63,14,15,10,13,0.5,0.4
2024-05-21T1600,2368A,114.9658,27.0999,吉安市,市森林工业局,,,17,27,11,18,58,,62,62,,13,,13,0.5,0.4
2024-05-21T1600,2369A,114.99,27.1312,吉安市,市环境监测站,,19,19,27,10,15,59,,60,60,10,12,11,14,0.7,0.6
2024-05-21T1600,2370A,115.0093,27.0968,吉安市,青原区法院,,18,16,31,10,18,56,,54,54,14,16,10,15,0.4,0.5
2024-05-21T1600,1772A,126.54,43.8622,吉林市,哈达湾,,40,18,10,3,7,126,,85,85,7,13,6,5,0.5,0.5
2024-05-21T1600,1773A,126.5844,43.8358,吉林市,东局子,,38,23,21,6,8,119,,80,80,10,12,5,4,0.5,0.5
2024-05-21T1600,1774A,126.5052,43.8245,吉林市,电力学院,,39,20,33,11,19,124,,88,88,9,19,8,8,0.5,0.6
2024-05-21T1600,1775A,126.6133,43.8972,吉林市,江北,,36,20,26,3,13,114,,85,85,12,19,7,7,0.5,0.6
2024-05-21T1600,1776A,126.555,43.8306,吉林市,江南公园,,39,24,17,13,11,123,,82,82,8,13,5,4,0.5,0.5
2024-05-21T1600,2868A,126.4739,43.953,吉林市,九站,,41,34,34,6,17,129,,97,97,10,25,6,7,0.5,0.6
2024-05-21T1600,1299A,116.9862,36.6114,济南市,科干所,臭氧1小时,116,102,75,51,31,231,,173,173,18,35,11,10,1.1,0.9
2024-05-21T1600,1300A,116.9376,36.665,济南市,农科所,臭氧1小时,120,95,77,42,23,239,,175,175,16,40,10,9,0.7,0.6
2024-05-21T1600,1301A,117.1265,36.6734,济南市,开发区,臭氧1小时,126,112,92,54,30,251,,155,155,20,51,11,11,0.6,0.7
2024-05-21T1600,1303A,117.0624,36.6868,济南市,省种子仓库,臭氧1小时,115,102,90,39,30,229,,151,151,22,44,8,8,0.6,0.6
2024-05-21T1600,1304A,116.9489,36.6447,济南市,机床二厂,臭氧1小时,118,100,87,49,27,235,,165,165,14,39,14,12,0.8,0.7
2024-05-21T1600,1305A,117.0495,36.663,济南市,市监测站,臭氧1小时,124,95,82,51,27,248,,167,167,24,53,13,12,0.8,0.7
2024-05-21T1600,1306A,116.7675,36.5484,济南市,长清党校,臭氧1小时,104,85,71,46,32,208,,169,169,12,35,10,9,0.9,0.8
2024-05-21T1600,1616A,117.6795,36.229,济南市,技术学院,臭氧1小时,128,112,69,53,38,255,,200,200,19,23,16,12,1.1,0.9
2024-05-21T1600,1961A,117.532,36.6868,济南市,东山小学,臭氧1小时,123,98,78,49,26,245,,201,201,15,34,9,8,0.6,0.5
2024-05-21T1600,3059A,117.7161,36.2049,济南市,泰兴公司,臭氧1小时,119,97,66,48,34,237,,189,189,20,23,11,9,0.8,0.6
2024-05-21T1600,3064A,117.6867,36.2171,济南市,莱芜战役纪念馆,臭氧1小时,119,100,69,46,33,238,,188,188,19,20,13,9,0.8,0.5
2024-05-21T1600,3494A,117.1673,36.9782,济南市,济阳区政府,臭氧1小时,103,85,61,46,26,206,,149,149,14,22,13,15,0.8,0.8
2024-05-21T1600,3495A,117.1171,36.63,济南市,锦屏中学,臭氧1小时,127,107,73,56,28,254,,170,170,16,25,12,9,0.6,0.5
2024-05-21T1600,3682A,116.9814,36.6819,济南市,济南四建,臭氧1小时,109,92,76,44,28,217,,151,151,17,41,12,10,0.8,0.8
2024-05-21T1600,1653A,116.6251,35.4302,济宁市,火炬城,臭氧1小时,93,67,58,41,27,194,,148,148,6,11,10,10,0.7,0.7
2024-05-21T1600,1655A,116.5491,35.4042,济宁市,电化厂,臭氧1小时,95,81,76,31,27,196,,148,148,5,14,9,7,0.8,0.8
2024-05-21T1600,3500A,116.5814,35.3707,济宁市,北湖一中,臭氧1小时,75,69,63,31,25,180,,134,134,7,16,10,8,0.3,0.4
2024-05-21T1600,3501A,116.8249,35.5593,济宁市,服务中心,臭氧1小时,97,56,75,27,26,197,,161,161,10,18,3,5,0.7,0.7
2024-05-21T1600,3678A,116.5907,35.4054,济宁市,市第七中学,臭氧1小时,104,74,61,34,25,207,,154,154,7,13,8,8,0.6,0.5
2024-05-21T1600,2255A,130.2751,46.8028,佳木斯市,佳纺,,38,38,25,12,12,93,,98,98,5,7,2,3,0.3,0.3
2024-05-21T1600,2256A,130.3995,46.8307,佳木斯市,发电厂,,40,40,29,14,19,89,,96,96,9,13,5,5,0.3,0.3
2024-05-21T1600,2257A,130.3258,46.7975,佳木斯市,环保局,,30,30,24,6,11,89,,94,94,7,8,4,4,0.4,0.4
2024-05-21T1600,2258A,130.3648,46.8032,佳木斯市,十一中,,38,38,25,10,13,86,,94,94,12,13,5,5,0.5,0.4
2024-05-21T1600,2259A,130.3794,46.7588,佳木斯市,四丰,,29,20,14,6,7,92,,97,97,4,5,1,1,0.5,0.5
2024-05-21T1600,1252A,120.7436,30.778,嘉兴市,清河小学,,31,17,26,6,13,97,,88,88,8,14,5,4,0.7,0.8
2024-05-21T1600,1253A,120.726,30.7478,嘉兴市,嘉兴学院,,29,21,27,8,15,90,,83,83,9,13,8,6,0.3,0.4
2024-05-21T1600,2872A,120.7846,30.7525,嘉兴市,南湖区残联,,40,40,34,9,15,93,,86,86,4,10,7,6,0.4,0.5
2024-05-21T1600,3407A,120.6916,30.7739,嘉兴市,秀洲住建,,30,20,26,11,14,94,,86,86,10,15,6,6,0.6,0.6
2024-05-21T1600,1945A,98.2908,39.7711,嘉峪关市,气象局,颗粒物(PM10),108,166,226,48,84,153,,120,120,4,18,1,7,0.3,0.5
2024-05-21T1600,2884A,98.2672,39.7978,嘉峪关市,酒钢宾馆,颗粒物(PM10),98,146,220,68,84,147,,115,115,3,21,11,27,0.2,0.7
2024-05-21T1600,3248A,98.2643,39.7724,嘉峪关市,雄关区,颗粒物(PM10),88,126,182,40,70,149,,116,116,4,19,8,10,0.3,0.5
2024-05-21T1600,1383A,113.1064,22.6058,江门市,北街,,35,26,11,24,8,45,,33,33,37,39,3,3,0.7,0.7
2024-05-21T1600,1384A,113.0731,22.5835,江门市,西区,,21,21,12,14,8,40,,31,31,38,37,6,5,0.7,0.7
2024-05-21T1600,1385A,113.0219,22.5311,江门市,圭峰西,,22,21,9,15,5,48,,40,40,31,32,4,4,0.7,0.7
2024-05-21T1600,1386A,113.0828,22.5947,江门市,东湖,,34,34,11,23,8,37,,30,30,32,34,4,5,0.6,0.6
2024-05-21T1600,3311A,113.1075,22.5647,江门市,江海富民,,34,34,17,3,8,45,,33,33,38,37,4,4,0.7,0.7
2024-05-21T1600,1828A,113.227,35.2125,焦作市,市环保局,臭氧1小时,101,63,62,37,38,202,,161,161,8,14,2,8,0.4,0.6
2024-05-21T1600,3169A,113.2725,35.2067,焦作市,太极体育中心,臭氧1小时,101,81,61,40,37,201,,164,164,6,10,3,7,0.2,0.3
2024-05-21T1600,3335A,113.3137,35.2641,焦作市,马村街道办,臭氧1小时,90,63,61,30,39,192,,160,160,4,10,4,6,0.4,0.6
2024-05-21T1600,3336A,113.2465,35.2373,焦作市,焦作技师学院,臭氧1小时,84,82,66,39,40,187,,152,152,13,14,1,4,0.4,0.5
2024-05-21T1600,3477A,113.1656,35.2539,焦作市,中站许衡医院,臭氧1小时,88,79,57,28,44,190,,153,153,9,16,7,9,0.4,0.6
2024-05-21T1600,3981A,113.2449,35.1803,焦作市,原李万街道办,臭氧1小时,72,71,66,34,35,177,,152,152,13,15,6,7,0.4,0.5
2024-05-21T1600,1708A,116.3701,23.5345,揭阳市,新兴,,35,35,19,14,13,61,,47,47,24,18,7,9,0.6,0.5
2024-05-21T1600,1709A,116.3264,23.5443,揭阳市,西马,,33,33,21,12,10,64,,51,51,18,14,8,11,0.8,0.8
2024-05-21T1600,1710A,116.3611,23.5626,揭阳市,东兴,,27,27,20,14,13,60,,52,52,20,18,9,12,0.8,0.8
2024-05-21T1600,1711A,116.4151,23.5294,揭阳市,渔湖,,28,28,16,18,12,57,,46,44,18,12,6,8,0.7,0.7
2024-05-21T1600,3320A,116.403,23.5699,揭阳市,曲溪,,20,20,17,8,10,56,,46,46,20,18,4,12,0.6,0.6
2024-05-21T1600,1944A,102.1692,38.5167,金昌市,天庆家园,臭氧1小时,68,56,165,22,69,174,,142,142,7,17,8,15,0.4,0.4
2024-05-21T1600,3170A,102.1864,38.5253,金昌市,市委党校,臭氧1小时,62,67,202,22,70,169,,138,138,4,10,10,12,0.4,0.6
2024-05-21T1600,4022A,102.1647,38.5371,金昌市,金川区人防中心,颗粒物(PM10),58,66,193,3,70,161,,130,130,5,13,11,15,0.5,0.7
2024-05-21T1600,1262A,119.647,29.077,金华市,十五中,,36,36,30,22,18,64,,70,70,16,13,4,4,0.4,0.4
2024-05-21T1600,1263A,119.686,29.1029,金华市,监测站,,38,38,33,21,18,56,,67,67,22,16,2,3,0.4,0.4
2024-05-21T1600,3659A,119.656,29.1131,金华市,气象局,,35,35,30,21,16,62,,69,69,19,17,4,5,0.4,0.3
2024-05-21T1600,1767A,121.1115,41.0879,锦州市,南山,,40,24,42,16,45,125,,137,137,11,31,11,13,0.3,0.6
2024-05-21T1600,1768A,121.0533,40.8434,锦州市,开发区,细颗粒物(PM2.5),80,78,59,59,41,116,,114,114,20,43,8,19,0.6,0.7
2024-05-21T1600,1769A,121.1836,41.1119,锦州市,百股街道,,40,29,41,3,20,125,,132,132,11,36,4,8,0.4,0.6
2024-05-21T1600,1770A,121.1178,41.1222,锦州市,天安街道,,35,10,48,8,42,110,,122,122,14,32,12,13,0.5,0.8
2024-05-21T1600,1771A,121.1303,41.1386,锦州市,北湖公园,,37,23,44,7,39,118,,127,127,11,27,11,13,0.6,0.8
2024-05-21T1600,2160A,112.85,35.5051,晋城市,自来水公司,臭氧1小时,82,84,66,27,25,185,,153,153,10,20,7,6,0.6,0.8
2024-05-21T1600,2161A,112.8318,35.4936,晋城市,白云商贸,,,82,64,22,28,178,,159,159,11,19,8,8,,0.8
2024-05-21T1600,2162A,112.8508,35.4887,晋城市,市环保局,臭氧1小时,83,75,73,27,27,186,,152,152,11,22,8,8,0.5,0.7
2024-05-21T1600,2163A,112.8676,35.4897,晋城市,技术学院,臭氧1小时,74,76,62,24,26,179,,148,148,14,24,7,7,0.5,0.8
2024-05-21T1600,3620A,112.8271,35.4828,晋城市,泽州一中,臭氧1小时,68,68,67,22,27,174,,150,150,14,23,9,9,0.8,1
2024-05-21T1600,2171A,112.7532,37.6945,晋中市,锦纶小区,臭氧1小时,94,92,65,27,36,195,,176,176,14,17,13,14,0.3,0.5
2024-05-21T1600,2173A,112.7249,37.7067,晋中市,南都小区,臭氧1小时,97,63,65,26,35,197,,174,174,12,17,10,11,0.4,0.6
2024-05-21T1600,2174A,112.6991,37.6982,晋中市,榆次区政府,臭氧1小时,94,75,62,30,36,195,,183,183,13,19,11,11,0.4,0.5
2024-05-21T1600,2865A,112.7195,37.6828,晋中市,榆次三中,臭氧1小时,95,90,61,22,29,196,,176,176,10,15,10,11,0.6,0.8
2024-05-21T1600,2439A,112.2014,31.0481,荆门市,竹园小学,臭氧1小时,92,54,60,32,37,193,,155,155,10,15,8,10,0.5,0.6
2024-05-21T1600,2440A,112.1969,30.9891,荆门市,掇刀,臭氧1小时,92,45,62,38,37,193,,166,166,12,14,9,12,0.5,0.6
2024-05-21T1600,2441A,112.2213,31.0386,荆门市,石化一小,臭氧1小时,98,62,74,36,35,198,,160,160,11,16,8,11,0.6,0.6
2024-05-21T1600,3012A,112.1849,31.0362,荆门市,西山林语,臭氧1小时,95,57,63,24,41,196,,160,160,8,11,8,8,0.4,0.6
2024-05-21T1600,3547A,112.1632,31.0138,荆门市,龙泉中学南校,臭氧1小时,90,50,53,28,31,192,,159,159,8,11,10,10,0.5,0.6
2024-05-21T1600,1844A,112.2494,30.3197,荆州市,市图书馆,臭氧1小时,67,58,39,34,25,173,,138,138,12,15,7,7,0.6,0.6
2024-05-21T1600,1845A,112.2008,30.3544,荆州市,市委党校,臭氧1小时,80,55,38,37,24,184,,144,144,11,13,7,7,0.7,0.6
2024-05-21T1600,3194A,112.2747,30.3122,荆州市,管委会,臭氧1小时,67,52,41,38,30,173,,138,138,11,12,6,6,0.6,0.6
2024-05-21T1600,3548A,112.1655,30.3364,荆州市,学苑路,臭氧1小时,95,39,31,39,31,196,,153,153,8,11,7,7,0.6,0.5
2024-05-21T1600,2343A,117.2117,29.2933,景德镇市,老干部活动中心,,15,12,18,3,13,45,,69,47,7,10,4,6,0.1,0.2
2024-05-21T1600,2344A,117.1894,29.2789,景德镇市,兽医站,,17,12,21,3,12,54,,82,57,8,10,6,7,0.5,0.4
2024-05-21T1600,2345A,117.1547,29.2617,景德镇市,台达陶瓷,,16,,18,11,13,51,,82,50,8,14,7,10,0.2,0.3
2024-05-21T1600,2346A,117.2461,29.2956,景德镇市,陶研所,,42,9,18,3,9,52,,60,54,84,9,4,4,0.2,0.2
2024-05-21T1600,1803A,115.9872,29.6815,九江市,十里,,26,21,34,6,21,81,,88,88,10,10,14,15,0.6,0.6
2024-05-21T1600,1804A,115.9584,29.7046,九江市,茅山头,,23,7,27,6,20,72,,76,76,10,14,10,9,0.5,0.5
2024-05-21T1600,1805A,115.9877,29.7295,九江市,西园,,25,12,27,3,17,77,,81,81,14,25,9,11,0.6,0.7
2024-05-21T1600,1806A,116.0172,29.6547,九江市,五七二七厂,,23,,22,10,22,71,,80,80,8,11,10,11,0.5,0.6
2024-05-21T1600,1808A,115.9114,29.6038,九江市,综合工业园,,20,11,33,3,22,61,,58,58,22,25,6,8,0.7,0.8
2024-05-21T1600,1809A,116.0721,29.7535,九江市,石化总厂,,24,,33,10,18,75,,84,84,7,14,10,11,0.5,0.6
2024-05-21T1600,1810A,115.9773,29.5698,九江市,庐山气象台,,21,14,14,3,12,66,,78,68,3,3,7,13,0.9,0.7
2024-05-21T1600,3190A,116.0254,29.6994,九江市,外国语学校,,24,8,23,6,19,76,,76,76,13,18,3,8,0.5,0.6
2024-05-21T1600,2658A,98.5061,39.7443,酒泉市,仓门街子站,颗粒物(PM10),103,156,222,39,57,141,,104,104,3,15,3,3,0.2,0.2
2024-05-21T1600,2659A,98.4989,39.7256,酒泉市,油田生活基地,细颗粒物(PM2.5),124,168,226,94,78,146,,108,108,4,13,2,2,0.2,0.2
2024-05-21T1600,2698A,76.0072,39.4467,喀什地区,巡警大队,,38,30,212,3,34,120,,94,94,7,15,3,3,0.2,0.3
2024-05-21T1600,2699A,75.9755,39.4694,喀什地区,吾办,,37,26,168,13,58,118,,95,95,5,10,4,5,0.0,0.1
2024-05-21T1600,1824A,114.3389,34.7781,开封市,肿瘤医院,臭氧1小时,73,60,64,22,27,178,,140,140,7,13,3,4,0.4,0.4
2024-05-21T1600,1826A,114.2885,34.7965,开封市,世纪星幼儿园,臭氧1小时,75,48,58,17,27,180,,146,146,9,15,3,4,0.3,0.4
2024-05-21T1600,3147A,114.3438,34.8106,开封市,龙亭公园,,,50,69,25,28,176,,139,139,,14,6,5,0.3,0.5
2024-05-21T1600,3210A,114.3644,34.7964,开封市,汴京公园,臭氧1小时,73,55,63,17,37,178,,143,143,9,20,4,4,0.5,0.6
2024-05-21T1600,3473A,114.2485,34.8306,开封市,技师学院,,,52,62,,50,176,,147,147,9,18,8,8,0.5,0.6
2024-05-21T1600,3592A,114.4644,34.7556,开封市,祥符区生态环境局,臭氧1小时,70,70,87,19,33,176,,137,137,10,23,7,11,0.4,0.5
2024-05-21T1600,1951A,84.895,45.6094,克拉玛依市,长征新村,,30,16,16,3,6,94,,106,98,6,4,8,8,0.2,0.1
2024-05-21T1600,1952A,84.8988,45.5893,克拉玛依市,南林小区,,29,9,16,6,11,92,,111,100,7,4,8,8,0.2,0.1
2024-05-21T1600,1954A,84.905,44.3396,克拉玛依市,独山子区,,,,30,6,12,76,,92,86,,11,,8,,0.3
2024-05-21T1600,1955A,85.6979,46.098,克拉玛依市,乌尔禾区商贸楼,,33,14,24,3,6,103,,97,93,2,2,9,9,0.2,0.2
2024-05-21T1600,3612A,85.1045,45.6899,克拉玛依市,白碱滩区新站,,,,17,,8,104,,113,104,5,2,,8,0.1,0.1
2024-05-21T1600,2697A,76.1454,39.7142,克孜勒苏柯尔克孜自治州,市人民政府,,40,19,148,10,54,128,,129,119,2,8,6,8,0.1,0.1
2024-05-21T1600,3665A,76.1658,39.7157,克孜勒苏柯尔克孜自治州,克州文化中心,,,,147,44,57,131,,124,124,1,7,8,9,,0.4
2024-05-21T1600,1450A,102.8204,24.8886,昆明市,呈贡新区,,44,25,30,12,18,139,,122,122,8,25,5,5,0.5,0.6
2024-05-21T1600,1452A,102.7252,25.0902,昆明市,龙泉镇,,45,12,21,6,10,143,,123,123,9,20,9,9,0.4,0.5
2024-05-21T1600,1453A,102.7266,25.0375,昆明市,东风东路,,46,26,24,14,13,147,,128,128,8,16,6,7,0.4,0.4
2024-05-21T1600,1454A,102.6742,25.0669,昆明市,金鼎山,,46,29,28,10,16,145,,130,130,8,14,4,5,0.3,0.4
2024-05-21T1600,1455A,102.6644,25.0401,昆明市,碧鸡广场,,46,17,25,15,21,146,,135,135,8,16,4,4,0.4,0.5
2024-05-21T1600,3179A,102.7494,25.0119,昆明市,官渡区博物馆,,49,26,29,13,16,156,,136,136,9,30,8,9,0.4,0.6
2024-05-21T1600,3375A,102.8017,24.8336,昆明市,青年创业园,,49,17,30,12,17,156,,138,138,6,24,8,10,0.4,0.5
2024-05-21T1600,3550A,102.7997,24.9786,昆明市,昆明学院,,50,21,35,9,19,157,,139,139,10,26,8,8,0.4,0.5
2024-05-21T1600,3551A,102.5967,24.6736,昆明市,晋宁区生态环境分局,臭氧1小时,59,,44,12,25,167,,153,153,5,19,2,4,0.5,0.8
2024-05-21T1600,3552A,102.6678,24.9856,昆明市,云天化总部,臭氧1小时,60,20,26,11,15,168,,147,147,8,17,9,10,0.5,0.6
2024-05-21T1600,1456A,91.1319,29.6514,拉萨市,八廓街,臭氧1小时,55,18,19,14,10,164,,140,140,2,4,7,7,0.2,0.2
2024-05-21T1600,1457A,91.1221,29.6747,拉萨市,市环保局,,49,23,25,8,12,154,,140,140,14,16,6,6,0.2,0.2
2024-05-21T1600,1458A,91.0874,29.6475,拉萨市,区监测站,臭氧1小时,53,8,16,8,10,162,,135,135,8,13,5,5,0.1,0.1
2024-05-21T1600,1459A,91.1774,29.6541,拉萨市,西藏大学,臭氧1小时,55,11,17,9,9,164,,142,142,3,5,4,4,0.2,0.2
2024-05-21T1600,1460A,90.9798,29.6588,拉萨市,区辐射站,,47,20,23,6,11,150,,133,133,10,11,6,7,0.2,0.3
2024-05-21T1600,1461A,91.0834,29.6292,拉萨市,拉萨火车站,,50,16,17,10,11,160,,133,133,5,8,7,6,0.2,0.2
2024-05-21T1600,2520A,109.2203,23.7256,来宾市,来宾技工学校,,33,21,27,15,14,105,,90,90,4,11,3,7,0.6,0.7
2024-05-21T1600,3535A,109.1781,23.7297,来宾市,兴宾区政府,,,,23,35,16,94,,91,91,6,11,3,5,,0.5
2024-05-21T1600,4002A,109.2416,23.7461,来宾市,中南小学,,37,26,25,15,16,116,,95,95,5,17,4,5,0.6,0.7
2024-05-21T1600,1476A,103.631,36.1031,兰州市,兰炼宾馆,臭氧1小时,85,46,71,28,35,188,,163,163,14,36,5,7,0.2,0.4
2024-05-21T1600,1478A,103.8412,36.0726,兰州市,生物制品所,,,57,70,32,37,160,,134,134,13,29,10,10,,0.1
2024-05-21T1600,1479A,103.831,36.0464,兰州市,铁路设计院,臭氧1小时,53,49,63,20,29,162,,134,134,17,37,5,6,0.3,0.4
2024-05-21T1600,3186A,103.7158,36.1058,兰州市,教育港,臭氧1小时,69,59,75,28,36,175,,140,140,7,24,7,8,0.3,0.3
2024-05-21T1600,3241A,103.7439,36.0842,兰州市,百合公园,臭氧1小时,62,37,61,19,28,169,,134,134,8,26,4,5,0.1,0.2
2024-05-21T1600,3242A,103.9611,35.998,兰州市,和平,颗粒物(PM10),62,74,87,24,33,156,,136,136,8,18,9,9,0.3,0.4
2024-05-21T1600,3245A,103.6633,36.533,兰州新区,新区管委会,臭氧1小时,67,47,63,38,39,173,,146,146,5,11,10,12,0.4,0.4
2024-05-21T1600,3246A,103.6975,36.4789,兰州新区,舟曲中学,臭氧1小时,64,68,83,35,46,171,,146,146,6,12,9,10,0.5,0.5
2024-05-21T1600,1067A,116.6708,39.5111,廊坊市,药材公司,臭氧1小时,62,21,40,17,23,169,,127,127,13,23,2,6,0.5,0.6
2024-05-21T1600,1068A,116.7214,39.5589,廊坊市,开发区,臭氧1小时,69,30,37,14,18,175,,127,127,19,24,3,4,0.5,0.5
2024-05-21T1600,1070A,116.7244,39.5269,廊坊市,北华航天学院,臭氧1小时,55,31,45,16,24,164,,138,138,16,20,3,4,0.4,0.4
2024-05-21T1600,2919A,116.7022,39.5453,廊坊市,河北工业大学,臭氧1小时,60,26,43,16,22,168,,123,123,15,21,1,3,0.4,0.4
2024-05-21T1600,2535A,103.7723,29.5462,乐山市,花湖湾,,44,,26,14,21,138,,107,107,4,14,3,4,0.5,0.6
2024-05-21T1600,2536A,103.7627,29.5844,乐山市,牛耳桥,,44,23,31,12,22,140,,116,116,10,20,9,11,0.4,0.5
2024-05-21T1600,2537A,103.7508,29.6006,乐山市,市第三水厂,,45,20,27,12,20,141,,123,123,7,17,3,6,0.3,0.4
2024-05-21T1600,2538A,103.7571,29.5664,乐山市,市监测站,,44,19,30,16,17,140,,118,118,7,15,6,8,0.7,0.8
2024-05-21T1600,3361A,103.7311,29.5628,乐山市,理工大学,,47,20,30,13,20,150,,132,132,5,16,7,8,0.4,0.5
2024-05-21T1600,2599A,100.2497,26.8802,丽江市,丽江古城,,40,24,28,17,16,127,,93,93,9,15,6,6,0.5,0.6
2024-05-21T1600,2600A,100.2203,26.8906,丽江市,市中心,,41,,20,15,12,131,,98,98,7,14,9,9,0.8,0.9
2024-05-21T1600,1267A,119.914,28.4514,丽水市,监测站大楼,,20,20,28,6,17,49,,44,44,12,22,3,2,0.7,0.7
2024-05-21T1600,1268A,119.93,28.4586,丽水市,莲都小学,,19,19,30,11,16,47,,44,44,14,22,4,4,0.8,0.8
2024-05-21T1600,1269A,119.879,28.4231,丽水市,余庄前,,13,13,31,7,21,40,,32,32,8,15,4,4,0.5,0.6
2024-05-21T1600,1173A,119.176,34.5885,连云港市,市环境监测站,,29,22,23,14,15,92,,91,91,9,9,6,5,0.1,0.2
2024-05-21T1600,3000A,119.3581,34.6972,连云港市,德源药业,,25,12,19,7,9,80,,86,86,6,8,6,5,0.3,0.4
2024-05-21T1600,3007A,119.178,34.844,连云港市,新城一中,,25,18,19,3,8,79,,84,84,6,8,4,4,0.6,0.6
2024-05-21T1600,3008A,119.3608,34.7519,连云港市,胡沟管理处,,20,9,17,3,7,64,,74,73,10,25,6,8,0.3,0.3
2024-05-21T1600,3009A,119.1478,34.5911,连云港市,矿山设计院,,,29,29,3,13,94,,,,9,12,,6,0.8,0.6
2024-05-21T1600,3434A,119.2413,34.6539,连云港市,工贸学校,,32,14,26,7,16,101,,100,100,5,7,7,6,0.7,0.7
2024-05-21T1600,3664A,119.4172,34.7341,连云港市,连云街道,,22,15,23,8,13,70,,75,72,9,23,2,3,0.3,0.3
2024-05-21T1600,2571A,102.3431,27.8099,凉山彝族自治州,青龙寺,,49,24,22,16,15,156,,120,120,4,7,1,5,0.0,0.1
2024-05-21T1600,2572A,102.2721,27.8415,凉山彝族自治州,邛海宾馆,,46,22,20,13,12,146,,118,118,5,12,10,10,0.5,0.6
2024-05-21T1600,2573A,102.2625,27.898,凉山彝族自治州,西昌市政府,,46,25,19,15,11,145,,110,110,5,8,11,11,0.5,0.5
2024-05-21T1600,2574A,102.2685,27.8851,凉山彝族自治州,凉山州政府,,44,22,21,11,13,140,,108,108,6,9,9,8,0.5,0.5
2024-05-21T1600,2575A,102.237,27.8914,凉山彝族自治州,长安,,47,25,24,12,12,150,,108,108,9,13,9,10,0.3,0.5
2024-05-21T1600,2212A,123.2,41.1953,辽阳市,宏伟区,,35,22,35,11,17,112,,105,105,9,20,10,11,0.7,0.8
2024-05-21T1600,2213A,123.1683,41.2495,辽阳市,新华园,,39,29,47,13,25,123,,108,108,11,36,11,15,0.7,0.9
2024-05-21T1600,2214A,123.2354,41.2639,辽阳市,滨河路,,36,36,47,7,22,110,,106,106,12,31,8,11,0.4,0.6
2024-05-21T1600,2215A,123.149,41.2991,辽阳市,铁西工业园,颗粒物(PM10),63,76,61,24,28,166,,118,118,22,30,18,16,1.3,1.2
2024-05-21T1600,2227A,125.1358,42.8845,辽源市,环保局,,49,16,17,13,11,155,,115,115,5,18,8,8,0.5,0.5
2024-05-21T1600,3239A,125.0764,42.9078,辽源市,银鹰制药,,50,13,18,3,12,157,,112,112,12,24,6,7,0.7,0.6
2024-05-21T1600,1625A,115.9848,36.4372,聊城市,区政府,臭氧1小时,87,74,57,33,24,189,,155,155,10,19,8,11,0.9,0.8
2024-05-21T1600,2878A,116.0072,36.4343,聊城市,聊大东校,臭氧1小时,104,90,56,45,29,208,,179,179,14,19,10,9,0.7,0.7
2024-05-21T1600,3200A,115.9819,36.4978,聊城市,监控中心,臭氧1小时,101,77,66,22,16,202,,169,169,10,21,9,12,0.8,0.6
2024-05-21T1600,3513A,116.0445,36.4361,聊城市,九州社区,臭氧1小时,103,91,69,41,23,206,,163,163,11,18,5,8,0.5,0.4
2024-05-21T1600,4018A,116.0567,36.4608,聊城市,星美广场,臭氧1小时,102,82,63,34,25,203,,164,164,13,23,6,7,0.7,0.6
2024-05-21T1600,2632A,94.3681,29.6376,林芝市,林芝监测站,,49,23,24,13,16,154,,112,112,2,3,6,6,0.3,0.3
2024-05-21T1600,2633A,94.3616,29.6616,林芝市,林芝人民医院,,,44,25,11,14,173,,117,117,,6,8,7,0.4,0.4
2024-05-21T1600,2603A,100.0781,23.8982,临沧市,市环保局,,36,32,23,25,17,99,,57,57,13,13,6,7,0.6,0.6
2024-05-21T1600,2604A,100.0894,23.8822,临沧市,市气象局,,37,37,24,20,20,99,,68,68,18,14,9,8,0.5,0.6
2024-05-21T1600,1733A,111.5531,36.0783,临汾市,临钢医院,臭氧1小时,73,83,77,19,28,178,,158,158,6,13,5,5,0.6,0.7
2024-05-21T1600,1734A,111.5028,36.0714,临汾市,技工学校,臭氧1小时,74,78,76,20,37,179,,167,167,7,16,6,8,0.6,0.8
2024-05-21T1600,1736A,111.5018,36.0855,临汾市,市委,,,80,71,25,27,182,,174,174,,14,,12,0.7,0.9
2024-05-21T1600,3018A,111.505,36.1014,临汾市,唐尧大酒店,颗粒物(PM10),72,93,86,19,28,161,,155,155,7,11,6,7,0.5,0.7
2024-05-21T1600,3668A,111.5036,36.0414,临汾市,城南,臭氧1小时,82,69,78,24,40,185,,168,168,8,19,8,8,0.5,0.7
2024-05-21T1600,2667A,103.2069,35.5993,临夏回族自治州,环保局,,47,35,104,10,37,149,,119,119,3,15,4,5,0.3,0.4
2024-05-21T1600,2668A,103.2417,35.6057,临夏回族自治州,建设大厦,颗粒物(PM10),52,54,98,25,40,153,,122,122,5,16,10,10,0.2,0.3
2024-05-21T1600,1618A,118.3429,35.0532,临沂市,沂河小区,臭氧1小时,57,36,34,26,19,165,,140,140,11,11,6,6,0.3,0.2
2024-05-21T1600,1619A,118.295,35.0583,临沂市,鲁南制药厂,臭氧1小时,52,29,23,17,15,161,,124,124,8,7,6,5,0.3,0.3
2024-05-21T1600,1620A,118.2794,34.9976,临沂市,新光毛纺厂,,46,19,23,12,14,147,,114,114,4,8,4,4,0.4,0.4
2024-05-21T1600,1621A,118.3956,35.0888,临沂市,河东保险公司,,46,27,29,9,14,146,,110,110,8,9,4,4,0.3,0.3
2024-05-21T1600,3370A,118.3564,35.0215,临沂市,十里堡居委,,47,27,27,14,17,148,,115,115,9,10,5,5,0.4,0.4
2024-05-21T1600,3496A,118.3604,35.1084,临沂市,南坊新区,,50,31,30,14,13,160,,122,122,13,13,5,6,0.4,0.5
2024-05-21T1600,3860A,118.3920,35.0300,临沂市,皇山花园小区,,47,39,32,20,18,148,,116,116,15,15,8,8,0.5,0.5
2024-05-21T1600,1870A,109.4856,24.3895,柳州市,柳东小学,,25,18,17,17,13,80,,73,73,7,11,11,8,0.6,0.6
2024-05-21T1600,1871A,109.4157,24.3277,柳州市,环保监测站,,27,27,25,17,16,80,,76,76,8,13,8,8,0.6,0.7
2024-05-21T1600,1872A,109.389,24.341,柳州市,河西水厂,,24,15,23,9,14,75,,74,74,5,13,8,9,0.8,0.9
2024-05-21T1600,1873A,109.4311,24.2921,柳州市,市四中,,34,34,26,15,16,88,,82,82,9,14,8,7,0.7,0.7
2024-05-21T1600,1874A,109.4006,24.3631,柳州市,市九中,,34,34,27,17,16,74,,77,77,14,16,21,9,1.3,0.7
2024-05-21T1600,1875A,109.4958,24.3134,柳州市,古亭山,,30,25,20,13,11,93,,85,85,7,14,8,8,0.6,0.6
2024-05-21T1600,3402A,109.5422,24.3996,柳州市,市二中,,32,32,18,11,11,88,,82,82,10,14,9,8,0.5,0.5
2024-05-21T1600,2307A,116.5079,31.737,六安市,监测大楼,,49,42,45,25,31,154,,122,122,10,15,5,6,0.5,0.5
2024-05-21T1600,2308A,116.4738,31.7643,六安市,皖西学院,臭氧1小时,52,50,54,25,30,161,,128,128,11,15,3,5,0.5,0.5
2024-05-21T1600,2309A,116.4996,31.7905,六安市,朝阳厂,,48,47,51,28,30,153,,119,119,7,13,6,7,0.4,0.4
2024-05-21T1600,2310A,116.5567,31.7886,六安市,开发区,,48,47,53,31,28,153,,127,127,11,17,8,9,0.5,0.6
2024-05-21T1600,2577A,104.83,26.5917,六盘水市,黄土坡,,43,18,25,16,14,137,,132,132,5,12,5,6,0.2,0.3
2024-05-21T1600,2578A,104.89,26.5939,六盘水市,水钢,,41,29,33,18,19,130,,127,127,13,27,8,16,0.4,0.9
2024-05-21T1600,2579A,104.8475,26.5894,六盘水市,民中,,,18,24,14,14,130,,127,127,6,14,,7,0.4,0.5
2024-05-21T1600,2580A,104.9544,26.5506,六盘水市,双水,,42,27,28,16,13,134,,126,126,6,18,6,8,0.3,0.5
2024-05-21T1600,2336A,117.0217,25.1033,龙岩市,龙岩市监测站,,18,17,11,12,10,54,,59,59,16,13,4,8,0.4,0.4
2024-05-21T1600,2337A,117.0258,25.0661,龙岩市,闽西职业技术学院,,18,,14,10,13,56,,52,52,8,13,2,8,0.6,0.6
2024-05-21T1600,2338A,117.0196,25.0306,龙岩市,龙岩学院,,19,13,17,6,10,60,,53,53,10,16,5,4,0.5,0.5
2024-05-21T1600,2885A,104.9339,33.3826,陇南市,滨江中学,,42,41,52,12,18,133,,118,118,1,4,4,8,0.5,0.5
2024-05-21T1600,3247A,104.955,33.371,陇南市,市总工会,,44,24,35,6,7,140,,123,123,4,6,6,6,0.3,0.4
2024-05-21T1600,2487A,111.9589,27.8901,娄底市,电视发射台,,36,31,32,25,20,89,,85,85,5,5,5,6,0.6,0.6
2024-05-21T1600,2488A,111.9975,27.725,娄底市,市监测站,,43,43,39,28,22,93,,87,87,7,13,5,5,0.4,0.6
2024-05-21T1600,2489A,112.0194,27.7314,娄底市,市委党校,,39,37,31,27,21,88,,82,82,8,10,5,6,0.3,0.3
2024-05-21T1600,2490A,111.9561,27.7569,娄底市,涟钢,,46,46,32,24,21,88,,72,72,10,16,9,9,0.4,0.4
2024-05-21T1600,2491A,111.9892,27.7044,娄底市,市政府,,43,36,31,30,23,101,,94,94,8,10,7,8,0.4,0.4
2024-05-21T1600,1893A,105.4324,28.9634,泸州市,九狮山,,36,19,23,3,13,113,,80,80,4,10,6,5,0.3,0.4
2024-05-21T1600,1894A,105.4427,28.9063,泸州市,小市上码头,,,10,26,10,15,136,,95,95,6,10,7,8,,0.3
2024-05-21T1600,1895A,105.4241,28.8573,泸州市,兰田宪桥,,43,11,32,10,18,135,,98,98,5,13,5,6,0.2,0.3
2024-05-21T1600,1896A,105.4379,28.8833,泸州市,市环监站,,44,10,25,8,19,139,,91,91,6,12,6,8,0.4,0.4
2024-05-21T1600,3490A,105.3617,28.7703,泸州市,纳溪区环保局,,41,14,25,7,12,131,,94,94,6,19,1,3,0.3,0.3
2024-05-21T1600,2183A,111.1406,37.5211,吕梁市,环保局,臭氧1小时,63,50,88,24,34,170,,149,149,7,28,3,6,0.4,0.7
2024-05-21T1600,2185A,111.1297,37.5136,吕梁市,自来水公司,臭氧1小时,53,50,75,23,36,162,,149,149,11,24,5,8,0.4,0.8
2024-05-21T1600,2867A,111.1283,37.51,吕梁市,马茂庄小学,臭氧1小时,68,63,89,24,37,174,,150,150,7,35,4,8,0.3,0.7
2024-05-21T1600,1812A,112.3931,34.6516,洛阳市,市委党校,臭氧1小时,104,68,58,46,39,207,,169,169,6,10,4,3,0.6,0.6
2024-05-21T1600,1814A,112.4657,34.6871,洛阳市,豫西宾馆,臭氧1小时,104,86,70,44,35,208,,158,158,6,9,6,5,0.6,0.6
2024-05-21T1600,1815A,112.494,34.6886,洛阳市,河南林校,臭氧1小时,103,77,54,41,37,206,,154,154,12,18,8,6,0.5,0.5
2024-05-21T1600,1816A,112.3844,34.623,洛阳市,开发区管委会,臭氧1小时,103,89,65,49,39,206,,167,167,12,9,6,3,0.4,0.4
2024-05-21T1600,1817A,112.4267,34.6258,洛阳市,市委新办公区,臭氧1小时,103,70,58,51,38,206,,157,157,7,11,7,6,0.4,0.4
2024-05-21T1600,3340A,112.6005,34.6326,洛阳市,伊滨,臭氧1小时,102,82,59,50,39,204,,147,147,12,14,8,7,0.5,0.5
2024-05-21T1600,3341A,112.4951,34.6332,洛阳市,中移产业园,臭氧1小时,104,80,59,51,39,208,,154,154,9,13,8,6,0.8,0.8
2024-05-21T1600,3593A,112.5736,34.8993,洛阳市,吉利监测站,臭氧1小时,103,69,56,23,33,205,,144,144,14,14,5,3,0.3,0.2
2024-05-21T1600,3635A,112.3677,34.662,洛阳市,河科大西苑校区,臭氧1小时,98,74,63,38,28,198,,164,164,4,10,6,4,0.6,0.7
2024-05-21T1600,3636A,112.4388,34.6781,洛阳市,英才小学,臭氧1小时,102,75,65,34,33,204,,155,155,8,12,6,6,0.6,0.6
2024-05-21T1600,2399A,114.051,33.5699,漯河市,三五一五工厂,臭氧1小时,54,54,80,19,36,163,,146,146,6,12,7,7,0.5,0.5
2024-05-21T1600,2400A,114.0055,33.5698,漯河市,漯河大学,"颗粒物(PM10),臭氧1小时",54,58,80,29,46,163,,136,136,11,13,10,10,0.4,0.5
2024-05-21T1600,2401A,114.0138,33.5828,漯河市,市水利局,臭氧1小时,54,48,78,31,44,163,,144,144,4,10,8,8,0.3,0.6
2024-05-21T1600,2402A,114.0261,33.5698,漯河市,市广电局,臭氧1小时,57,56,78,27,36,165,,138,138,4,9,6,6,0.1,0.2
2024-05-21T1600,3478A,113.9749,33.5664,漯河市,市图书馆,臭氧1小时,60,61,74,24,35,168,,139,139,3,8,9,10,0.4,0.5
2024-05-21T1600,3479A,114.0967,33.5906,漯河市,召陵区卫健委,细颗粒物(PM2.5),57,60,81,40,52,158,,133,133,4,11,7,7,0.4,0.6
2024-05-21T1600,1798A,118.5092,31.6837,马鞍山市,湖东路四小,,,37,53,,36,112,,89,89,8,18,6,6,0.5,0.8
2024-05-21T1600,1799A,118.5024,31.6449,马鞍山市,开发区,,35,30,53,12,29,112,,89,89,12,20,7,8,0.5,0.7
2024-05-21T1600,1800A,118.5228,31.7231,马鞍山市,慈湖,,33,32,54,13,33,105,,84,84,13,22,3,5,0.5,0.7
2024-05-21T1600,1802A,118.6245,31.7241,马鞍山市,濮塘,,35,25,47,23,33,109,,85,85,6,20,3,4,0.6,0.8
2024-05-21T1600,3633A,118.4918,31.6809,马鞍山市,雨山,,43,43,57,12,27,114,,98,98,7,17,7,8,0.5,0.7
2024-05-21T1600,1686A,111.0286,21.4688,茂名市,电白南海,,,24,26,14,12,79,,52,52,10,12,,11,0.6,0.6
2024-05-21T1600,1687A,110.9294,21.6533,茂名市,茂石化七小,,25,12,13,9,12,77,,57,57,10,14,8,11,0.7,0.8
2024-05-21T1600,1688A,110.9107,21.6687,茂名市,健康路,,25,14,14,3,8,80,,45,45,6,12,13,16,0.7,0.9
2024-05-21T1600,1689A,110.8592,21.6828,茂名市,高岭,,39,39,22,24,17,73,,47,47,18,16,53,14,0.3,0.7
2024-05-21T1600,3450A,111.01,21.5165,茂名市,电白水东,,25,12,16,7,10,80,,54,54,10,14,6,8,0.6,0.7
2024-05-21T1600,2539A,104.0308,30.0478,眉山市,黑龙滩水库,,,15,24,12,18,154,,132,132,2,7,4,5,,0.5
2024-05-21T1600,2540A,103.8416,30.0874,眉山市,气象局,臭氧1小时,68,29,29,14,16,174,,141,141,9,16,7,9,0.3,0.4
2024-05-21T1600,3137A,103.8578,30.0744,眉山市,市委党校,臭氧1小时,54,19,24,7,8,163,,127,127,9,15,7,10,0.3,0.3
2024-05-21T1600,3148A,103.8291,30.0564,眉山市,区人社局,臭氧1小时,63,15,28,7,10,170,,130,130,17,21,5,8,0.3,0.4
2024-05-21T1600,1690A,116.1231,24.3284,梅州市,梅江月梅,,,26,13,13,9,36,,44,39,14,8,4,4,,0.5
2024-05-21T1600,1691A,116.0797,24.2719,梅州市,梅县新城,,20,14,12,14,11,48,,46,46,12,14,3,4,0.5,0.5
2024-05-21T1600,1692A,116.1248,24.2654,梅州市,环境监控中心,,22,18,11,15,8,44,,46,46,12,12,3,5,0.5,0.5
2024-05-21T1600,3315A,116.1233,24.2991,梅州市,梅龙,,14,12,8,6,5,44,,44,44,6,3,7,7,0.5,0.5
2024-05-21T1600,1878A,104.7778,31.4741,绵阳市,富乐山,,47,33,30,16,18,148,,127,127,3,7,7,8,0.5,0.5
2024-05-21T1600,1879A,104.7563,31.4535,绵阳市,市人大,,44,25,28,8,17,138,,119,119,11,14,8,7,0.5,0.5
2024-05-21T1600,1880A,104.6697,31.4668,绵阳市,高新区自来水公司,,45,32,31,18,17,144,,123,123,10,15,8,9,0.6,0.6
2024-05-21T1600,1881A,104.7287,31.5075,绵阳市,三水厂,,46,22,31,20,21,147,,128,128,6,17,6,5,0.4,0.4
2024-05-21T1600,3491A,104.69,31.5322,绵阳市,西科大附属小学,,45,31,32,17,16,144,,121,121,6,16,6,6,0.4,0.4
2024-05-21T1600,3492A,104.5648,31.5343,绵阳市,安州区旅游局,,46,,38,31,22,147,,117,117,10,16,9,8,0.6,0.6
2024-05-21T1600,1784A,129.61,44.561,牡丹江市,环保大楼,,29,19,16,9,13,90,,84,84,4,12,5,5,0.2,0.3
2024-05-21T1600,1785A,129.6115,44.5782,牡丹江市,文化广场,,,6,26,3,18,80,,,,,20,15,6,0,0.4
2024-05-21T1600,1786A,129.5904,44.5963,牡丹江市,第一医院,,28,23,20,16,16,88,,81,81,7,16,4,5,0.0,0.2
2024-05-21T1600,1787A,129.6364,44.6075,牡丹江市,机车工厂,,27,23,32,3,16,84,,80,80,8,14,4,6,0.2,0.3
2024-05-21T1600,1788A,129.6386,44.5462,牡丹江市,第一中学,,30,30,28,13,17,89,,88,88,10,11,2,5,0.2,0.2
2024-05-21T1600,2531A,105.0703,29.61,内江市,市监测站,,39,,14,17,15,123,,106,106,9,8,7,8,0.4,0.4
2024-05-21T1600,2532A,105.0717,29.5947,内江市,东兴区政府,,40,23,16,7,5,128,,107,107,7,8,9,10,0.5,0.5
2024-05-21T1600,2533A,105.0653,29.5817,内江市,内江二中,,41,12,15,7,11,131,,108,108,8,10,7,7,0.3,0.4
2024-05-21T1600,2534A,105.0406,29.5822,内江市,内江日报社,,42,18,20,11,11,133,,113,113,9,14,6,9,0.4,0.4
2024-05-21T1600,2628A,92.0657,31.4846,那曲市,那曲监测站,,50,16,32,6,17,157,,134,134,5,7,21,6,0.4,0.5
2024-05-21T1600,3128A,92.0506,31.4797,那曲市,那曲会议中心,,,39,49,10,21,162,,136,136,4,8,,3,0.3,0.5
2024-05-21T1600,1290A,115.8931,28.6843,南昌市,省外办,,18,10,26,3,11,56,,68,60,8,12,5,6,0.4,0.4
2024-05-21T1600,1291A,115.8886,28.7003,南昌市,省林业公司,,20,6,14,3,10,63,,67,67,10,14,3,4,0.5,0.6
2024-05-21T1600,1292A,115.8126,28.7442,南昌市,林科所,,20,6,12,3,8,62,,68,68,12,16,5,6,0.5,0.6
2024-05-21T1600,1294A,115.8518,28.687,南昌市,建工学校,,21,,20,14,13,65,,71,70,4,8,5,5,0.4,0.5
2024-05-21T1600,1295A,115.8921,28.6424,南昌市,象湖,,21,6,18,3,11,67,,80,68,6,8,4,5,0.5,0.6
2024-05-21T1600,1296A,115.7423,28.7996,南昌市,武术学校,,18,14,14,12,19,57,,55,55,2,4,12,12,0.2,0.2
2024-05-21T1600,1298A,115.9314,28.6842,南昌市,省站,,22,6,18,3,9,69,,76,70,4,7,8,8,0.5,0.5
2024-05-21T1600,3046A,115.9084,28.6062,南昌市,机电学校,,20,15,25,3,12,61,,70,58,8,11,7,9,0.5,0.6
2024-05-21T1600,3690A,115.9721,28.7031,南昌市,外国语学校,,22,7,16,3,14,70,,77,69,1,5,3,3,0.4,0.3
2024-05-21T1600,1905A,106.056,30.8064,南充市,西山风景区,,43,,14,21,12,136,,111,111,7,6,4,4,0.4,0.4
2024-05-21T1600,1906A,106.0789,30.8023,南充市,南充市委,,41,35,23,22,11,131,,103,103,5,10,5,5,0.2,0.2
2024-05-21T1600,1907A,106.1031,30.8217,南充市,南充炼油厂,,48,27,32,22,17,151,,118,118,7,12,6,7,0.3,0.3
2024-05-21T1600,1908A,106.1064,30.7856,南充市,高坪区监测站,,43,30,24,16,12,137,,115,115,9,13,6,6,0.1,0.1
2024-05-21T1600,1909A,106.0642,30.7636,南充市,嘉陵区环保局,,42,34,25,12,12,134,,117,117,9,13,12,6,0.1,0.2
2024-05-21T1600,1910A,106.1087,30.8388,南充市,市环境监测站,,44,41,31,18,18,140,,108,108,9,13,6,7,0.3,0.3
2024-05-21T1600,1151A,118.8086,32.1065,南京市,迈皋桥,,40,39,43,22,26,128,,86,86,12,23,3,5,0.7,1
2024-05-21T1600,1152A,118.7538,32.0551,南京市,草场门,,40,29,41,22,26,128,,90,90,13,21,2,3,0.4,0.6
2024-05-21T1600,1153A,118.7794,32.0745,南京市,山西路,,39,29,44,14,22,124,,87,87,8,19,5,4,0.2,0.5
2024-05-21T1600,1154A,118.7752,32.0023,南京市,中华门,,,24,42,12,21,111,,92,92,7,20,6,8,,0.7
2024-05-21T1600,1155A,118.8109,32.0309,南京市,瑞金路,,40,40,50,14,26,117,,87,87,6,11,6,8,0.2,0.5
2024-05-21T1600,1156A,118.7997,32.0754,南京市,玄武湖,,39,39,48,16,24,112,,78,78,18,26,7,8,0.3,0.4
2024-05-21T1600,1157A,118.6414,32.0931,南京市,浦口,,50,50,42,20,23,108,,74,74,20,29,4,6,0.4,0.5
2024-05-21T1600,1158A,118.7356,31.9996,南京市,奥体中心,,37,30,47,19,26,118,,95,95,7,17,8,9,0.5,0.7
2024-05-21T1600,1159A,118.9125,32.1028,南京市,仙林大学城,,46,46,50,12,17,131,,98,98,18,22,9,9,0.6,0.7
2024-05-21T1600,3422A,118.8436,31.9198,南京市,江宁彩虹桥,,33,15,41,14,24,105,,85,85,8,18,4,4,0.4,0.7
2024-05-21T1600,3423A,119.0138,31.6494,南京市,溧水永阳,,41,29,38,15,23,129,,100,100,9,19,6,6,0.4,0.6
2024-05-21T1600,3424A,118.879,31.3302,南京市,高淳老职中,,42,32,35,20,23,133,,107,107,11,15,6,7,0.4,0.4
2024-05-21T1600,3427A,118.8554,32.3578,南京市,六合雄州,,,33,30,27,27,128,,101,101,,11,4,4,0.6,0.7
2024-05-21T1600,1401A,108.3103,22.7881,南宁市,二十一中,,37,37,28,19,13,74,,73,73,22,20,11,7,0.7,0.7
2024-05-21T1600,1402A,108.3141,22.8528,南宁市,北湖,,36,35,30,25,19,91,,71,71,19,21,6,7,0.8,0.8
2024-05-21T1600,1403A,108.3206,22.8225,南宁市,市监测站,,35,35,26,22,15,74,,66,66,23,23,8,5,0.8,0.8
2024-05-21T1600,1404A,108.3829,22.8037,南宁市,大自然花园,,33,27,22,22,14,103,,78,78,14,16,5,5,0.5,0.5
2024-05-21T1600,1405A,108.4394,22.7904,南宁市,仙葫,,33,28,26,19,15,103,,75,75,15,19,5,5,0.9,1.2
2024-05-21T1600,1406A,108.2397,22.8467,南宁市,区农职院,,26,26,32,12,10,83,,79,79,10,19,6,5,0.7,0.6
2024-05-21T1600,1407A,108.3275,22.735,南宁市,英华嘉园,,28,28,28,18,17,68,,69,69,21,21,8,7,0.6,0.7
2024-05-21T1600,1408A,108.2257,22.7757,南宁市,沙井镇街道办,,26,20,40,18,18,77,,64,64,8,26,4,7,0.6,0.6
2024-05-21T1600,3401A,108.4834,22.7618,南宁市,红星社区,,39,39,24,20,14,113,,86,86,14,17,8,9,0.7,0.7
2024-05-21T1600,2332A,118.1681,26.6369,南平市,南平市监测站,,21,,17,3,13,66,,50,50,6,11,4,6,0.5,0.5
2024-05-21T1600,2333A,118.1825,26.6489,南平市,南平铝业有限公司,,20,8,18,3,15,63,,49,49,8,13,4,6,0.5,0.5
2024-05-21T1600,2334A,118.1756,26.6272,南平市,南平七中,,21,8,18,3,13,67,,51,51,6,10,5,5,0.5,0.5
2024-05-21T1600,1168A,120.9098,31.9663,南通市,狼山街道,,31,23,17,3,4,97,,93,93,1,3,10,9,0.4,0.4
2024-05-21T1600,1169A,120.86,32.0005,南通市,虹桥,,30,30,20,8,4,93,,90,90,3,5,6,5,0.3,0.4
2024-05-21T1600,1170A,120.87,32.02,南通市,城中,,37,37,26,16,11,90,,85,85,7,8,7,5,0.6,0.4
2024-05-21T1600,1171A,120.94,31.93,南通市,星湖花园,,27,21,11,6,4,86,,88,88,6,8,8,7,0.3,0.4
2024-05-21T1600,1172A,120.81,32.0417,南通市,紫琅学院,,30,26,13,16,7,94,,91,91,10,10,10,9,0.3,0.4
2024-05-21T1600,3291A,121.067,32.062,南通市,通州监测站,,30,27,20,3,3,96,,90,90,2,2,10,8,0.4,0.5
2024-05-21T1600,3432A,120.9348,31.9883,南通市,环境教育馆,,30,22,21,13,6,96,,92,92,8,10,9,7,0.3,0.3
2024-05-21T1600,2404A,112.5224,33.0122,南阳市,瓦房庄,臭氧1小时,67,55,71,30,35,173,,142,142,16,13,4,5,0.6,0.6
2024-05-21T1600,2405A,112.5003,32.9735,南阳市,汉画馆,颗粒物(PM10),60,70,75,34,40,162,,137,137,18,16,5,6,0.6,0.6
2024-05-21T1600,2406A,112.5573,33.027,南阳市,气象站,臭氧1小时,73,67,66,29,34,178,,143,143,12,14,5,5,0.4,0.4
2024-05-21T1600,2407A,112.5481,32.9689,南阳市,理工学院,臭氧1小时,62,59,70,26,37,169,,144,144,18,12,6,6,0.5,0.5
2024-05-21T1600,4008A,112.5234,32.9922,南阳市,卧龙区政府,臭氧1小时,65,60,70,37,41,172,,145,145,18,17,7,6,0.6,0.7
2024-05-21T1600,1234A,121.8358,29.911,宁波市,区环保大楼,,29,29,29,14,12,89,,78,78,25,22,13,5,0.7,0.6
2024-05-21T1600,1235A,121.56,29.82,宁波市,万里学院,,25,24,21,11,12,78,,86,86,20,9,7,5,0.5,0.6
2024-05-21T1600,1236A,121.713,29.9572,宁波市,龙赛医院,,25,25,20,12,9,78,,65,65,36,22,17,9,0.3,0.4
2024-05-21T1600,1239A,121.633,29.7733,宁波市,钱湖水厂,,26,17,20,13,6,81,,79,79,16,7,7,4,0.6,0.5
2024-05-21T1600,1240A,121.5856,29.8635,宁波市,太古小学,,26,22,18,10,9,81,,82,82,13,10,6,5,0.6,0.6
2024-05-21T1600,1241A,121.524,29.8674,宁波市,市环境监测中心,,27,18,20,10,8,85,,86,86,13,11,10,9,0.4,0.5
2024-05-21T1600,2871A,121.6147,29.9017,宁波市,万里国际学校,,27,23,27,12,11,85,,79,79,19,13,6,4,0.3,0.3
2024-05-21T1600,3710A,121.5594,29.8975,宁波市,白沙活动中心,,,24,25,,4,78,,78,78,21,12,11,9,0.4,0.4
2024-05-21T1600,2341A,119.5388,26.6612,宁德市,宁德市监测站,,17,10,15,6,8,53,,71,53,17,11,5,7,0.4,0.4
2024-05-21T1600,3209A,119.5231,26.6562,宁德市,宁德一中,,17,10,10,7,10,54,,72,60,16,8,6,6,0.5,0.5
2024-05-21T1600,2618A,98.8601,25.8567,怒江傈僳族自治州,州监测站,,29,23,21,12,13,90,,62,62,7,6,8,8,0.3,0.3
2024-05-21T1600,2619A,98.8546,25.8417,怒江傈僳族自治州,泸水一中,,26,26,21,8,12,68,,42,42,18,14,6,6,0.1,0.2
2024-05-21T1600,1888A,101.6891,26.571,攀枝花市,弄弄坪,臭氧1小时,57,28,33,24,18,165,,110,110,11,18,15,20,0.7,0.9
2024-05-21T1600,1889A,101.5769,26.5928,攀枝花市,河门口,,45,23,29,14,18,144,,102,102,11,19,10,12,0.5,0.5
2024-05-21T1600,1890A,101.7169,26.585,攀枝花市,炳草岗,臭氧1小时,74,28,30,13,16,179,,116,116,11,22,26,27,0.6,0.9
2024-05-21T1600,1891A,101.7369,26.5008,攀枝花市,仁和,臭氧1小时,58,28,26,15,15,166,,120,120,9,17,12,13,0.4,0.6
2024-05-21T1600,2835A,101.7227,26.567,攀枝花市,四十中小,臭氧1小时,75,28,30,18,14,180,,118,118,9,24,15,29,1.0,1.6
2024-05-21T1600,1604A,122.0303,41.1489,盘锦市,开发区,臭氧1小时,73,49,34,40,37,178,,149,149,14,20,6,5,0.5,0.5
2024-05-21T1600,1605A,122.0485,41.0883,盘锦市,兴隆台,臭氧1小时,69,39,33,39,38,175,,145,145,15,25,6,7,0.6,0.5
2024-05-21T1600,1606A,121.8297,41.1028,盘锦市,新生街道,臭氧1小时,58,54,26,22,32,166,,146,146,14,16,7,6,0.5,0.5
2024-05-21T1600,1832A,113.3257,33.742,平顶山市,新华旅馆,臭氧1小时,97,68,81,35,44,197,,167,167,13,20,8,10,0.6,0.5
2024-05-21T1600,1833A,113.2919,33.737,平顶山市,规划设计院,臭氧1小时,79,52,71,22,41,183,,150,150,12,17,5,6,0.4,0.4
2024-05-21T1600,1834A,113.182,33.774,平顶山市,平顶山工学院,臭氧1小时,68,49,73,29,36,174,,145,145,8,15,5,6,0.5,0.6
2024-05-21T1600,3204A,113.3025,33.73,平顶山市,规划局,臭氧1小时,82,68,84,32,42,185,,155,155,9,14,7,7,0.7,0.6
2024-05-21T1600,3594A,112.8867,33.9116,平顶山市,石龙区,臭氧1小时,84,61,85,30,39,187,,170,170,5,20,7,8,0.3,0.5
2024-05-21T1600,2656A,106.6692,35.5461,平凉市,聚贤嘉苑,,49,37,43,9,19,156,,132,132,5,19,4,8,0.1,0.3
2024-05-21T1600,2657A,106.7021,35.5307,平凉市,博物馆,,50,36,50,13,21,158,,138,138,5,18,10,16,0.1,0.4
2024-05-21T1600,2347A,114.0997,27.5002,萍乡市,武功山,,19,11,19,3,4,58,,51,51,5,5,11,11,0.3,0.3
2024-05-21T1600,2348A,113.8385,27.6434,萍乡市,中医院,,28,28,41,12,25,69,,65,65,8,7,1,12,0.5,0.5
2024-05-21T1600,2349A,113.8493,27.6253,萍乡市,市政府车库,,32,,31,22,27,68,,61,61,6,9,8,18,0.5,0.6
2024-05-21T1600,2350A,113.8676,27.6435,萍乡市,市环保局,,,24,37,16,28,66,,67,67,7,9,4,16,,0.4
2024-05-21T1600,2351A,113.866,27.6198,萍乡市,安源区政府,,30,29,40,21,25,58,,59,59,12,15,17,18,0.4,0.7
2024-05-21T1600,2319A,119.0141,25.4325,莆田市,荔城区仓后路,,20,7,8,3,1,64,,64,64,9,10,5,5,0.7,0.6
2024-05-21T1600,2320A,119.0015,25.4553,莆田市,莆田市监测站,,18,7,8,3,1,56,,59,59,8,4,6,7,0.7,0.6
2024-05-21T1600,2321A,119.1119,25.4561,莆田市,涵江区六中,,23,10,7,3,1,73,,72,56,9,12,7,7,0.5,0.5
2024-05-21T1600,2322A,119.1013,25.3215,莆田市,秀屿区政府,,22,6,7,3,0,68,,76,68,9,6,6,6,0.7,0.7
2024-05-21T1600,2392A,115.0312,35.7636,濮阳市,环保局,颗粒物(PM10),66,82,52,32,35,171,,136,136,10,15,12,17,0.4,0.4
2024-05-21T1600,2394A,115.0574,35.7609,濮阳市,油田运输公司,臭氧1小时,83,64,70,31,35,186,,148,148,10,11,14,15,0.3,0.3
2024-05-21T1600,2395A,115.0866,35.7754,濮阳市,油田物探公司,臭氧1小时,74,70,86,31,39,179,,145,145,6,16,11,14,0.3,0.3
2024-05-21T1600,3021A,115,35.7668,濮阳市,濮水河管理处,臭氧1小时,62,57,46,34,38,169,,134,134,9,15,11,12,0.5,0.5
2024-05-21T1600,2601A,100.98,22.7633,普洱市,市环保局,,28,28,34,16,27,80,,76,76,11,13,9,10,0.4,0.5
2024-05-21T1600,2602A,100.9817,22.8322,普洱市,普洱第二中学,,33,33,35,14,18,82,,68,68,10,15,11,11,0.6,0.6
2024-05-21T1600,2262A,131.0518,45.8751,七台河市,新一中,,33,29,25,3,10,104,,111,111,8,10,9,9,0.7,0.7
2024-05-21T1600,3345A,131.0577,45.7879,七台河市,中波台,颗粒物(PM10),51,52,44,3,12,81,,84,84,25,29,5,6,0.4,0.6
2024-05-21T1600,3637A,131.0176,45.7761,七台河市,人民广场,,28,27,35,13,21,88,,92,92,12,19,10,11,0.3,0.4
2024-05-21T1600,3684A,130.8781,45.8222,七台河市,新建矿广场,,,24,24,13,16,87,,94,94,,19,7,7,0.3,0.4
2024-05-21T1600,1779A,123.9305,47.3636,齐齐哈尔市,安居小区,颗粒物(PM10),52,54,40,30,26,128,,119,119,18,16,6,3,0.4,0.4
2024-05-21T1600,1780A,123.9488,47.3386,齐齐哈尔市,中心广场,颗粒物(PM10),55,60,44,16,10,132,,110,110,16,14,8,8,0.5,0.4
2024-05-21T1600,1781A,123.9483,47.3227,齐齐哈尔市,农牧车辆厂,颗粒物(PM10),56,61,45,17,14,141,,114,114,10,12,8,8,0.4,0.3
2024-05-21T1600,1783A,123.945,47.2988,齐齐哈尔市,市环境监测站,颗粒物(PM10),51,52,39,25,16,140,,115,115,9,9,6,5,0.3,0.2
2024-05-21T1600,3662A,123.6333,47.2075,齐齐哈尔市,富区青少年活动中心,颗粒物(PM10),51,52,39,13,10,139,,118,118,9,10,7,6,0.4,0.4
2024-05-21T1600,2591A,107.9783,26.5747,黔东南苗族侗族自治州,市环境监测站,,22,9,11,3,8,68,,66,64,10,8,3,2,0.6,0.6
2024-05-21T1600,2881A,107.8908,26.5311,黔东南苗族侗族自治州,凯里学院,,29,6,11,3,8,90,,80,80,2,4,2,2,0.4,0.4
2024-05-21T1600,2593A,107.5228,26.2403,黔南布依族苗族自治州,小围寨,,,2,6,,3,68,,59,59,5,6,2,4,0.4,0.4
2024-05-21T1600,3538A,107.5175,26.2978,黔南布依族苗族自治州,沙坝,,24,6,7,3,3,74,,67,67,4,6,4,4,0.4,0.5
2024-05-21T1600,2589A,104.9022,25.0925,黔西南布依族苗族自治州,场坝街,,39,13,18,8,9,123,,103,103,9,19,3,10,0.3,0.4
2024-05-21T1600,2590A,104.8811,25.0992,黔西南布依族苗族自治州,坪东大道,,41,14,14,7,9,129,,109,109,6,20,4,5,0.2,0.3
2024-05-21T1600,2502A,108.6236,21.9667,钦州市,市环保站,,,17,25,9,10,91,,73,73,,10,5,8,,0.8
2024-05-21T1600,2503A,108.6549,21.9481,钦州市,沙埠小学,,31,22,27,18,13,99,,78,78,6,12,5,6,0.7,0.9
2024-05-21T1600,2504A,108.5989,21.7431,钦州市,港区一小,,33,33,45,14,16,96,,75,75,14,18,7,8,0.6,0.9
2024-05-21T1600,3404A,108.5959,21.9633,钦州市,北职校,,29,,26,13,15,90,,72,72,6,9,8,9,0.8,0.8
2024-05-21T1600,1042A,119.5134,39.8207,秦皇岛市,北戴河环保局,细颗粒物(PM2.5),52,50,49,36,25,111,,107,107,17,23,2,4,0.3,0.5
2024-05-21T1600,1043A,119.7493,40.0116,秦皇岛市,第一关,细颗粒物(PM2.5),58,,55,41,40,117,,109,109,14,37,3,5,0.3,0.5
2024-05-21T1600,1044A,119.5897,39.9499,秦皇岛市,监测站,细颗粒物(PM2.5),65,58,67,47,46,114,,114,114,18,37,4,7,0.3,0.6
2024-05-21T1600,1046A,119.5251,39.9041,秦皇岛市,建设大厦,,46,46,53,28,29,109,,115,115,8,33,1,4,0.2,0.5
2024-05-21T1600,3132A,119.610547,39.943889,秦皇岛市,文明里,细颗粒物(PM2.5),57,56,62,40,32,109,,104,104,22,42,6,10,0.3,0.6
2024-05-21T1600,1307A,120.6659,36.2403,青岛市,仰口,,,31,17,17,15,,,59,59,8,11,3,4,0.2,0.4
2024-05-21T1600,1310A,120.4134,36.0658,青岛市,市南区东部子站,,31,31,12,14,8,52,,62,59,17,9,5,5,0.4,0.4
2024-05-21T1600,1311A,120.3664,36.1032,青岛市,四方区子站,,25,24,14,17,10,57,,75,72,25,16,3,3,0.4,0.4
2024-05-21T1600,1312A,120.2994,36.054,青岛市,市南区西部子站,,31,31,12,15,8,43,,65,49,37,22,6,6,0.3,0.4
2024-05-21T1600,1313A,120.4581,36.0858,青岛市,崂山区子站,,22,22,9,9,7,61,,68,68,17,14,8,7,0.4,0.3
2024-05-21T1600,1314A,120.1983,35.9608,青岛市,黄岛区子站,,25,17,9,17,9,72,,74,74,14,8,6,5,0.3,0.4
2024-05-21T1600,1315A,120.3999,36.3083,青岛市,城阳区子站,,24,14,25,3,13,75,,79,78,12,21,6,7,0.4,0.4
2024-05-21T1600,1966A,120.0405,35.8735,青岛市,黄岛区4号,,24,6,8,3,3,74,,72,72,6,6,7,7,0.4,0.4
2024-05-21T1600,3362A,120.5014,36.4034,青岛市,即墨2号,,24,12,21,10,12,76,,83,83,3,7,5,5,0.4,0.4
2024-05-21T1600,3642A,120.3503,36.0736,青岛市,市北区南部,,20,15,12,14,5,54,,68,65,27,14,4,5,0.4,0.4
2024-05-21T1600,3643A,120.3948,36.1805,青岛市,李沧区北部,,22,17,17,14,13,70,,74,74,14,18,7,8,0.4,0.4
2024-05-21T1600,1702A,113.0426,23.691,清远市,环保大楼,,20,,7,6,8,62,,48,48,6,15,4,4,0.6,0.7
2024-05-21T1600,1703A,113.0208,23.7106,清远市,凤城街办,,22,6,11,6,9,69,,49,49,12,28,4,3,0.5,0.7
2024-05-21T1600,3025A,113.0477,23.6344,清远市,技师学院,,24,6,10,3,6,74,,54,54,6,14,4,4,0.4,0.5
2024-05-21T1600,3318A,112.9903,23.7403,清远市,清新太和,,20,9,10,6,7,62,,43,43,22,30,7,6,0.7,0.7
2024-05-21T1600,3455A,113.076,23.7198,清远市,清城东城,,21,6,8,3,8,66,,54,54,7,12,5,5,0.7,0.7
2024-05-21T1600,2661A,107.6325,35.7357,庆阳市,庆阳五中,臭氧1小时,58,48,45,20,23,166,,146,146,6,9,5,6,0.3,0.4
2024-05-21T1600,2662A,107.6364,35.7067,庆阳市,市环保局,臭氧1小时,55,56,40,16,16,164,,144,144,6,8,6,7,0.3,0.4
2024-05-21T1600,1916A,103.7897,25.5035,曲靖市,环境监测站,,42,12,29,3,13,133,,121,121,6,16,2,4,0.6,0.7
2024-05-21T1600,1917A,103.8,25.5364,曲靖市,烟厂办公区,,40,18,27,11,11,125,,116,116,5,13,3,4,0.5,0.6
2024-05-21T1600,3376A,103.7947,25.462,曲靖市,南苑二区,,42,20,25,8,13,134,,123,123,10,16,5,5,0.5,0.6
2024-05-21T1600,3377A,103.7444,25.5261,曲靖市,曲靖师范学院,,42,12,28,10,15,133,,122,122,8,20,7,7,0.3,0.4
2024-05-21T1600,1264A,118.8692,28.9398,衢州市,环保大楼,,28,28,24,17,15,55,,59,59,21,18,3,4,0.4,0.4
2024-05-21T1600,1265A,118.8709,28.9666,衢州市,实验学校,,27,27,26,16,15,64,,54,54,16,19,8,7,0.3,0.3
2024-05-21T1600,1266A,118.8621,28.9808,衢州市,衢州学院,,30,30,27,20,18,62,,52,52,20,21,5,7,0.3,0.3
2024-05-21T1600,1611A,118.5819,24.9117,泉州市,涂山街,,22,6,6,3,3,70,,75,72,10,8,2,2,0.4,0.4
2024-05-21T1600,1612A,118.5972,24.8978,泉州市,津头埔,,21,6,7,3,5,67,,70,65,14,15,2,2,0.5,0.5
2024-05-21T1600,1613A,118.6663,24.9424,泉州市,万安,,21,8,9,3,4,66,,72,69,12,10,1,2,0.3,0.3
2024-05-21T1600,3529A,118.6333,24.9264,泉州市,城华南路,,22,6,7,3,1,69,,71,69,10,12,3,3,0.2,0.3
2024-05-21T1600,2626A,88.8876,29.2718,日喀则市,日喀则监测站,,46,13,17,11,10,146,,128,128,4,6,5,5,0.5,0.5
2024-05-21T1600,3726A,88.8781,29.2426,日喀则市,林业技术推广中心,,45,12,20,3,6,141,,125,125,6,7,7,7,0.5,0.5
2024-05-21T1600,1659A,119.471,35.4209,日照市,监测站,,27,6,12,3,8,84,,88,85,11,14,8,8,0.4,0.4
2024-05-21T1600,1660A,119.523,35.4216,日照市,市政府广场,,26,17,14,6,6,83,,88,87,8,8,7,7,0.4,0.3
2024-05-21T1600,1661A,119.5587,35.4044,日照市,港务局,,27,7,12,3,6,86,,89,89,5,4,7,6,0.4,0.4
2024-05-21T1600,3507A,119.5328,35.4625,日照市,职业技术学院,,26,6,13,3,7,81,,84,83,7,8,7,7,0.4,0.4
2024-05-21T1600,3604A,119.3266,35.1044,日照市,岚山环保分局,,27,19,23,12,11,84,,86,85,3,10,5,6,0.3,0.3
2024-05-21T1600,1835A,111.1922,34.7752,三门峡市,市政府,颗粒物(PM10),56,62,56,21,29,144,,136,136,12,12,6,9,0.5,0.8
2024-05-21T1600,1836A,111.1587,34.7942,三门峡市,开发区,臭氧1小时,57,43,71,19,33,165,,159,159,14,16,10,11,0.4,0.6
2024-05-21T1600,3039A,111.1911,34.7829,三门峡市,三门峡市第一小学,颗粒物(PM10),67,84,59,17,33,153,,144,144,18,15,7,10,0.4,0.6
2024-05-21T1600,3598A,111.1,34.7167,三门峡市,富达温泉假日酒店,颗粒物(PM10),61,71,69,15,36,145,,140,140,14,18,8,9,0.4,0.5
2024-05-21T1600,2324A,117.6211,26.2625,三明市,三钢,,18,9,15,3,13,56,,53,53,10,11,5,6,0.3,0.3
2024-05-21T1600,2325A,117.635,26.2714,三明市,三明二中,,19,,11,7,12,59,,57,57,7,8,6,7,0.6,0.6
2024-05-21T1600,2326A,117.6028,26.2378,三明市,三元区政府,,19,6,12,3,10,60,,53,53,10,12,6,8,0.5,0.6
2024-05-21T1600,1876A,109.5078,18.2489,三亚市,河东子站,,33,7,14,7,8,105,,83,83,12,9,3,3,0.5,0.5
2024-05-21T1600,1877A,109.4964,18.2681,三亚市,河西子站,,34,19,16,7,7,108,,84,84,5,8,2,2,0.5,0.4
2024-05-21T1600,3540A,109.7348,18.3443,三亚市,君悦子站,,34,12,13,10,7,106,,77,77,6,9,2,2,0.5,0.5
2024-05-21T1600,2624A,91.7608,29.2313,山南市,山南监测站,,48,27,21,8,10,153,,130,130,4,5,7,7,0.2,0.2
2024-05-21T1600,2625A,91.7706,29.2436,山南市,山南人民医院,,47,46,28,13,11,148,,126,126,10,10,7,7,0.2,0.2
2024-05-21T1600,1674A,116.6794,23.3667,汕头市,金平子站,,28,28,12,11,7,71,,68,68,23,14,3,3,0.6,0.5
2024-05-21T1600,1675A,116.7244,23.3633,汕头市,龙湖子站,,25,19,9,8,7,78,,68,68,12,9,5,5,0.6,0.6
2024-05-21T1600,1676A,116.7258,23.2775,汕头市,濠江子站,,25,,7,11,8,80,,69,69,5,5,4,4,0.6,0.6
2024-05-21T1600,1677A,116.7519,23.4714,汕头市,澄海子站,,26,19,10,9,9,83,,71,71,10,10,6,6,0.8,0.8
2024-05-21T1600,1678A,116.6092,23.2539,汕头市,潮阳子站,,27,16,8,9,6,84,,73,73,2,4,3,4,0.6,0.5
2024-05-21T1600,3444A,116.454,23.2684,汕头市,潮南峡山,,21,17,11,11,6,65,,58,54,9,10,4,4,0.6,0.6
2024-05-21T1600,3624A,116.4069,23.2533,汕头市,潮南子站,,,36,24,15,11,63,,51,51,12,11,6,6,,0.8
2024-05-21T1600,1693A,115.3653,22.775,汕尾市,市环保局,,26,12,10,6,6,82,,67,67,1,7,9,9,0.5,0.6
2024-05-21T1600,1694A,115.3706,22.7898,汕尾市,市政府,,27,,10,17,10,86,,68,68,3,7,5,6,0.5,0.6
2024-05-21T1600,1695A,115.3622,22.7925,汕尾市,新城中学,,27,9,11,3,6,86,,69,69,4,7,6,6,0.5,0.5
2024-05-21T1600,2645A,109.9154,33.8715,商洛市,监测站,,48,36,42,23,21,153,,114,114,5,18,9,10,0.5,0.6
2024-05-21T1600,3045A,109.9643,33.8471,商洛市,商州区中学,颗粒物(PM10),54,58,46,19,25,157,,110,110,5,21,11,11,0.6,0.6
2024-05-21T1600,2408A,115.6702,34.4285,商丘市,环境监测站,颗粒物(PM10),60,70,67,14,32,124,,109,109,5,12,7,9,0.1,0.3
2024-05-21T1600,2409A,115.6458,34.4045,商丘市,粮食局,,44,44,67,22,28,129,,107,107,5,13,10,12,0.4,0.6
2024-05-21T1600,2410A,115.6293,34.3948,商丘市,睢阳区环保局,颗粒物(PM10),53,56,74,6,38,131,,110,110,4,9,5,7,0.1,0.3
2024-05-21T1600,3171A,115.6071,34.4465,商丘市,梁园区档案局,颗粒物(PM10),55,59,73,10,28,122,,110,110,4,14,8,9,0.2,0.5
2024-05-21T1600,1141A,121.4,31.238,上海市,普陀,,30,22,26,15,14,95,,81,81,14,13,9,5,0.4,0.4
2024-05-21T1600,1142A,121.478,31.2036,上海市,十五厂,,31,23,27,19,14,98,,80,80,15,14,11,7,0.4,0.4
2024-05-21T1600,1143A,121.467,31.3008,上海市,虹口,,32,,26,22,23,87,,76,76,22,18,13,10,0.5,0.5
2024-05-21T1600,1144A,121.412,31.1654,上海市,徐汇上师大,,42,42,31,27,17,96,,84,84,23,18,10,8,0.5,0.5
2024-05-21T1600,1145A,121.536,31.2659,上海市,杨浦四漂,,32,23,29,22,19,95,,,,19,21,10,8,0.7,0.5
2024-05-21T1600,1147A,121.425,31.2261,上海市,静安监测站,,33,,25,23,14,96,,81,81,19,16,12,9,0.4,0.4
2024-05-21T1600,1148A,121.703,31.1907,上海市,浦东川沙,,34,22,22,21,16,106,,90,90,16,22,10,7,0.4,0.4
2024-05-21T1600,1149A,121.533,31.2284,上海市,浦东新区监测站,,31,19,24,17,16,97,,81,81,15,17,11,8,0.3,0.3
2024-05-21T1600,1150A,121.577,31.2071,上海市,浦东张江,,33,21,23,19,13,103,,85,85,17,17,8,6,0.5,0.5
2024-05-21T1600,3265A,121.4316,31.3322,上海市,宝山庙行,,43,,26,30,22,80,,79,79,29,15,11,7,0.5,0.5
2024-05-21T1600,3266A,121.8791,31.4662,上海市,崇明上实东滩,,35,16,15,9,8,111,,105,105,6,8,10,8,0.5,0.5
2024-05-21T1600,3268A,121.3162,31.2838,上海市,嘉定南翔,,28,21,24,16,11,89,,78,78,14,15,11,8,0.3,0.3
2024-05-21T1600,3269A,121.3359,30.7456,上海市,金山新城,,37,19,20,15,11,118,,90,90,9,14,10,7,0.6,0.5
2024-05-21T1600,3270A,121.4996,31.0739,上海市,闵行浦江,,34,,23,19,17,107,,92,92,13,11,10,6,0.3,0.4
2024-05-21T1600,3271A,121.2886,31.1663,上海市,青浦徐泾,,29,25,29,13,12,91,,87,87,19,15,9,6,0.4,0.5
2024-05-21T1600,3272A,121.2186,31.0378,上海市,松江图书馆,,31,17,27,16,14,99,,88,88,16,19,8,6,0.5,0.5
2024-05-21T1600,3273A,121.3902,31.2059,上海市,长宁仙霞,,30,28,27,16,13,93,,78,78,21,16,11,8,0.7,0.7
2024-05-21T1600,3274A,121.7965,31.0507,上海市,浦东惠南,,33,,20,19,15,104,,97,97,16,12,11,7,0.5,0.5
2024-05-21T1600,3544A,121.4891,30.925,上海市,奉贤南桥新城,,33,,23,19,14,104,,94,94,20,19,13,9,0.4,0.4
2024-05-21T1600,2381A,118.005,28.4572,上饶市,百草园,,30,23,20,21,13,66,,46,43,9,10,4,6,0.6,0.6
