timepoint,stationcode,longitude,latitude,area,positionname,primarypollutant,aqi,pm10,pm10_24h,pm2_5,pm2_5_24h,o3,o3_24h,o3_8h,o3_8h_24h,no2,no2_24h,so2,so2_24h,co,co_24h
2024-05-21T1000,2566A,102.1879,31.914,阿坝藏族羌族自治州,州农科所,,31,31,36,7,10,28,,20,20,8,12,2,2,0,0
2024-05-21T1000,2568A,102.2502,31.8896,阿坝藏族羌族自治州,马师校,,25,17,27,17,19,64,,41,41,8,9,3,3,0.3,0.3
2024-05-21T1000,3994A,102.2165,31.9024,阿坝藏族羌族自治州,马尔康中学西区,,25,25,30,8,18,62,,42,42,6,7,3,2,0.3,0.2
2024-05-21T1000,2695A,80.292,41.1694,阿克苏地区,电视台,颗粒物(PM10),500,640,403,78,90,116,,105,105,9,11,4,4,0.4,0.5
2024-05-21T1000,2696A,80.2613,41.1551,阿克苏地区,艺术中心,颗粒物(PM10),500,600,377,239,101,114,,107,107,13,16,5,4,0.3,0.3
2024-05-21T1000,2204A,105.6467,38.8363,阿拉善盟,西城区西花园,,49,44,135,28,40,154,,133,133,7,10,8,12,0.6,0.7
2024-05-21T1000,2205A,105.6985,38.8411,阿拉善盟,蒙二幼,颗粒物(PM10),65,80,169,30,56,148,,125,125,8,9,10,14,0.6,0.6
2024-05-21T1000,2206A,105.724,38.8516,阿拉善盟,环保局新楼,,,76,166,28,60,156,,133,132,,8,9,13,0.6,0.6
2024-05-21T1000,2708A,88.1264,47.8517,阿勒泰地区,市站,,27,21,29,10,9,85,,92,86,10,8,5,5,0.4,0.3
2024-05-21T1000,2630A,80.1161,32.5,阿里地区,阿里监测站,,38,38,18,13,12,106,,118,107,20,10,10,9,0.5,0.4
2024-05-21T1000,3192A,80.0903,32.5028,阿里地区,阿里藏医院,,36,36,14,11,7,102,,136,124,25,6,10,9,0.7,0.5
2024-05-21T1000,2642A,109.0318,32.6537,安康市,香溪洞,,28,28,22,10,11,38,,35,30,4,4,6,6,0.5,0.4
2024-05-21T1000,2643A,109.0281,32.6939,安康市,安康市监测站,,38,38,27,16,14,44,,18,18,8,7,9,9,0.6,0.4
2024-05-21T1000,2644A,109.0072,32.6975,安康市,汉滨区检察院,,,34,28,19,14,,,14,13,,6,17,8,0.4,0.4
2024-05-21T1000,2291A,117.0809,30.5177,安庆市,环科院,细颗粒物(PM2.5),70,54,48,51,34,112,,66,66,24,22,8,6,0.7,0.6
2024-05-21T1000,2292A,117.0331,30.5119,安庆市,马山宾馆,,,60,50,46,35,,,88,,,19,12,9,0.8,0.7
2024-05-21T1000,2294A,116.9896,30.6145,安庆市,安庆大学,颗粒物(PM10),58,66,58,40,46,111,,84,84,13,15,8,9,0.8,0.7
2024-05-21T1000,3173A,117.0598,30.5351,安庆市,市人大,,,53,50,44,37,,,82,,23,19,,8,0.8,0.7
2024-05-21T1000,3122A,105.9606,26.2611,安顺市,伍家关,,,,,,,,,,,,,,,,
2024-05-21T1000,3123A,105.9408,26.2431,安顺市,凤凰山,,,19,22,14,14,,,87,87,7,8,5,6,0.7,0.6
2024-05-21T1000,3124A,105.9439,26.2564,安顺市,金钟山,,31,22,22,14,12,98,,73,73,7,8,5,5,0.9,0.7
2024-05-21T1000,3125A,105.8983,26.2481,安顺市,娄家坡,,34,34,33,14,14,97,,86,86,7,8,8,8,0.5,0.5
2024-05-21T1000,1818A,114.4839,36.0621,安阳市,棉研所,,,,,,,,,,,,,,,,
2024-05-21T1000,1819A,114.3551,36.1017,安阳市,红庙街,,,,52,,27,,,92,,,7,,3,,0.4
2024-05-21T1000,1820A,114.361,36.0681,安阳市,银杏小区,颗粒物(PM10),64,77,51,20,21,126,,70,70,1,4,8,5,0.6,0.6
2024-05-21T1000,3141A,114.3922,36.0878,安阳市,信访局,颗粒物(PM10),59,68,53,24,21,116,,80,80,13,8,1,3,0.6,0.6
2024-05-21T1000,3669A,114.4705,36.0637,安阳市,左辅环卫站,,,69,53,27,31,,,63,59,8,18,8,6,0.6,0.6
2024-05-21T1000,3703A,114.2917,36.0949,安阳市,安钢职工学校,颗粒物(PM10),59,67,59,26,41,125,,52,52,6,15,10,4,0.5,0.4
2024-05-21T1000,1748A,123.044,41.1196,鞍山市,深沟寺,,,52,44,32,29,,,50,50,20,21,10,9,1.6,0.9
2024-05-21T1000,1749A,123.011,41.0931,鞍山市,太阳城,颗粒物(PM10),58,65,56,38,36,105,,51,51,24,29,10,9,1.7,1.1
2024-05-21T1000,1750A,123.0485,41.1442,鞍山市,太平,颗粒物(PM10),56,61,61,33,34,108,,57,57,23,32,7,8,1.3,0.7
2024-05-21T1000,1751A,122.9642,41.0971,鞍山市,铁西三道街,颗粒物(PM10),62,74,92,40,52,113,,44,44,24,47,8,12,1.3,1.4
2024-05-21T1000,1752A,122.9341,41.0833,鞍山市,铁西工业园区,细颗粒物(PM2.5),73,84,94,53,54,109,,47,47,24,46,14,15,1.4,1.5
2024-05-21T1000,1753A,123.022,41.0821,鞍山市,明达新区,颗粒物(PM10),56,62,46,38,35,98,,39,39,23,33,13,11,1.8,1.1
2024-05-21T1000,1754A,123.1289,41.0228,鞍山市,千山,,,,,,,,,,,,,,,,
2024-05-21T1000,2195A,107.4212,40.761,巴彦淖尔市,附二中,颗粒物(PM10),73,95,99,33,46,127,,47,47,16,50,33,11,0.4,0.6
2024-05-21T1000,2196A,107.37,40.7372,巴彦淖尔市,市环保大楼,,,,89,,29,95,,54,54,34,31,,7,0.3,0.4
2024-05-21T1000,1956A,86.1472,41.7538,巴音郭楞蒙古自治州,孔雀公园,颗粒物(PM10),103,156,134,39,32,63,,96,88,40,14,8,8,0.5,0.3
2024-05-21T1000,1957A,86.1972,41.7166,巴音郭楞蒙古自治州,棉纺厂,颗粒物(PM10),99,148,149,35,42,74,,100,92,29,9,5,4,0.4,0.2
2024-05-21T1000,1958A,86.2357,41.7173,巴音郭楞蒙古自治州,经济开发区,颗粒物(PM10),100,150,134,57,43,77,,113,106,27,5,9,8,0.4,0.2
2024-05-21T1000,2914A,106.7677,31.8794,巴中市,苏山坪,,24,18,12,11,9,76,,102,95,17,6,3,3,0.4,0.4
2024-05-21T1000,3182A,106.7656,31.8545,巴中市,丽阳花园,,,,20,,12,74,,44,44,,14,5,4,,0.4
2024-05-21T1000,3183A,106.7418,31.8654,巴中市,圣泉水务公司,,25,17,18,9,11,78,,58,58,15,16,4,3,0.3,0.3
2024-05-21T1000,3616A,106.7616,31.8344,巴中市,市中心医院,,26,23,22,13,14,81,,34,34,15,16,6,6,0.6,0.5
2024-05-21T1000,2235A,122.7911,45.6077,白城市,洮北区环保局,细颗粒物(PM2.5),52,52,29,36,18,95,,82,82,11,10,7,7,0.3,0.3
2024-05-21T1000,2236A,122.8738,45.5725,白城市,市环保局,,48,48,26,27,15,90,,,,12,10,6,4,0.4,0.3
2024-05-21T1000,2231A,126.4219,41.9171,白山市,喜丰,,,54,18,13,7,,,12,12,29,14,12,9,1.2,0.9
2024-05-21T1000,2232A,126.4077,41.9419,白山市,环保局,,33,33,32,10,9,49,,16,16,28,13,13,10,0.6,0.5
2024-05-21T1000,2647A,104.1724,36.5446,白银市,第三小学,细颗粒物(PM2.5),63,73,94,45,42,116,,96,96,24,21,223,43,0.9,0.6
2024-05-21T1000,2648A,104.1465,36.5482,白银市,动力公司,颗粒物(PM10),57,64,84,3,33,122,,89,89,22,16,91,28,0.8,0.7
2024-05-21T1000,2512A,106.6103,23.9011,百色市,市监测站,,39,39,36,22,19,66,,32,32,12,12,7,8,0.7,0.8
2024-05-21T1000,2513A,106.6538,23.8859,百色市,市中心血站,颗粒物(PM10),51,52,44,28,24,54,,21,21,17,18,7,11,0.6,0.7
2024-05-21T1000,3406A,106.6085,23.8798,百色市,祈福高中,,,,48,,22,54,,28,28,13,17,8,10,,0.9
2024-05-21T1000,2270A,117.396,32.939,蚌埠市,工人疗养院,,42,42,48,16,19,103,,69,69,7,9,8,8,0.3,0.3
2024-05-21T1000,2271A,117.3605,32.9427,蚌埠市,百货大楼,,48,48,54,27,26,100,,69,69,9,12,5,4,0.4,0.4
2024-05-21T1000,2273A,117.4185,32.8911,蚌埠市,蚌埠学院,,34,34,40,19,23,94,,61,61,7,23,5,10,0.4,0.4
2024-05-21T1000,2274A,117.3533,32.9673,蚌埠市,淮上区政府,,39,39,43,23,25,105,,70,70,2,5,5,5,0.3,0.3
2024-05-21T1000,2275A,117.3145,32.8977,蚌埠市,高新区,颗粒物(PM10),51,51,43,26,22,104,,66,66,7,9,7,7,0.4,0.4
2024-05-21T1000,3715A,117.3092,32.9314,蚌埠市,蚌埠田家炳中学,,,46,48,23,23,108,,72,72,1,4,6,6,,0.3
2024-05-21T1000,1585A,109.8756,40.6532,包头市,市环境监测站,颗粒物(PM10),67,84,83,23,29,139,,69,69,19,25,16,13,0.6,0.5
2024-05-21T1000,1587A,109.9991,40.5842,包头市,包头八中,颗粒物(PM10),67,84,91,35,35,121,,72,72,18,24,13,14,0.9,0.8
2024-05-21T1000,1588A,109.8538,40.6821,包头市,青山宾馆,颗粒物(PM10),62,73,69,30,29,135,,68,68,21,24,18,15,0.8,0.7
2024-05-21T1000,1589A,109.8642,40.6288,包头市,惠龙物流,颗粒物(PM10),63,76,78,30,27,144,,85,85,18,22,16,14,0.6,0.5
2024-05-21T1000,1590A,110.0377,40.5546,包头市,东河鸿龙湾,颗粒物(PM10),63,76,82,44,37,140,,84,84,15,20,13,15,0.7,0.6
2024-05-21T1000,3283A,109.9154,40.5685,包头市,滨河大厦,颗粒物(PM10),57,63,78,23,28,132,,73,73,19,27,16,15,0.8,0.7
2024-05-21T1000,3419A,109.9447,40.6261,包头市,包头市委党校,颗粒物(PM10),76,101,81,31,22,139,,84,84,21,26,19,18,0.6,0.6
2024-05-21T1000,3683A,109.8331,40.6576,包头市,昆区政府,,,,75,,29,137,,82,82,20,24,17,14,,0.4
2024-05-21T1000,1930A,107.185,34.3063,宝鸡市,庙沟村,,,,28,,15,,,120,,,6,,9,,0.5
2024-05-21T1000,1931A,107.0708,34.3017,宝鸡市,竹园沟,,34,30,26,15,15,106,,80,77,14,11,6,6,0.5,0.5
2024-05-21T1000,1932A,107.1906,34.3672,宝鸡市,三陆医院,颗粒物(PM10),52,54,49,28,21,82,,41,41,28,28,9,10,0.6,0.6
2024-05-21T1000,1933A,107.1431,34.3547,宝鸡市,监测站,,38,38,37,20,18,92,,52,52,21,23,9,8,0.5,0.4
2024-05-21T1000,1934A,107.1186,34.3739,宝鸡市,技工学校,,,60,36,17,19,96,,66,66,,15,,8,0.5,0.5
2024-05-21T1000,1935A,107.3906,34.3528,宝鸡市,陈仓区环保局家属楼,细颗粒物(PM2.5),57,44,31,40,21,111,,60,60,21,24,9,7,0.5,0.4
2024-05-21T1000,1936A,107.2058,34.3497,宝鸡市,文理学院,,43,43,40,20,19,90,,61,61,22,18,10,8,0.4,0.3
2024-05-21T1000,1937A,107.2386,34.3622,宝鸡市,三迪小学,颗粒物(PM10),53,56,42,35,23,91,,54,54,26,23,16,9,0.7,0.5
2024-05-21T1000,1051A,115.493,38.8632,保定市,游泳馆,颗粒物(PM10),71,92,65,42,25,40,,65,55,31,12,3,2,0.2,0.2
2024-05-21T1000,1052A,115.5213,38.8959,保定市,华电二区,,47,47,40,21,17,44,,63,53,34,18,2,3,0.2,0.2
2024-05-21T1000,1053A,115.4713,38.9108,保定市,接待中心,,,41,38,22,15,,,70,66,28,10,3,2,0.4,0.4
2024-05-21T1000,1054A,115.4612,38.8416,保定市,地表水厂,颗粒物(PM10),65,80,47,33,27,39,,66,58,32,15,4,3,0.5,0.5
2024-05-21T1000,3581A,115.31981,38.95208,保定市,满城区生态环境分局,颗粒物(PM10),60,70,54,31,25,80,,58,58,15,12,4,3,0.2,0.3
2024-05-21T1000,3582A,115.47694,38.76408,保定市,清苑区第二中学,,,49,37,28,25,,,62,57,29,14,2,2,,0.4
2024-05-21T1000,3583A,115.62909,39.02311,保定市,徐水物探局,颗粒物(PM10),62,73,50,27,22,69,,58,56,21,16,7,6,0.2,0.3
2024-05-21T1000,4004A,115.4202,38.8656,保定市,双鹰农机,,48,48,49,26,27,74,,68,66,22,16,9,4,0,0
2024-05-21T1000,4034A,115.5150,38.8590,保定市,植保所站,颗粒物(PM10),67,83,52,33,30,43,,60,52,34,20,6,4,0.4,0.4
2024-05-21T1000,2594A,99.1678,25.1081,保山市,市环境监测站,,,24,21,16,8,,,50,47,11,7,4,4,,0.3
2024-05-21T1000,2595A,99.1711,25.1328,保山市,市环保局,,26,26,27,15,13,54,,66,61,6,4,5,5,0.5,0.4
2024-05-21T1000,1866A,109.2262,21.588,北海市,牛尾岭水库,,,,,,,,,,,,,,,,
2024-05-21T1000,1867A,109.1436,21.4086,北海市,海滩公园,,17,14,20,3,7,54,,50,50,9,9,8,9,0.7,0.7
2024-05-21T1000,1868A,109.0981,21.4661,北海市,新市环保局,,20,13,17,3,9,61,,54,53,9,8,6,7,0.6,0.6
2024-05-21T1000,1869A,109.1778,21.5233,北海市,北海工业园,,21,21,21,7,11,55,,48,46,9,11,8,9,0.7,0.7
2024-05-21T1000,3400A,109.1911,21.4415,北海市,龙潭自来水厂,,,,20,,14,44,,36,36,8,9,,5,,0.6
2024-05-21T1000,1001A,116.3621,39.8784,北京市,万寿西宫,,45,45,43,22,19,90,,60,59,28,23,3,3,0.5,0.6
2024-05-21T1000,1002A,116.2202,40.2915,北京市,定陵,颗粒物(PM10),55,60,43,38,22,72,,62,57,18,16,2,3,1.1,0.8
2024-05-21T1000,1003A,116.4174,39.9289,北京市,东四,,49,49,42,23,18,80,,62,59,26,22,4,4,0.3,0.4
2024-05-21T1000,1004A,116.4072,39.8863,北京市,天坛,,37,37,34,19,17,85,,60,58,24,20,6,4,0.5,0.5
2024-05-21T1000,1005A,116.462,39.9365,北京市,农展馆,,42,42,40,23,17,101,,76,75,22,22,4,2,0.6,0.5
2024-05-21T1000,1006A,116.3392,39.9295,北京市,官园,颗粒物(PM10),54,57,46,26,17,92,,69,67,23,19,6,4,0.5,0.4
2024-05-21T1000,1007A,116.2878,39.9611,北京市,海淀万柳,颗粒物(PM10),59,68,40,31,18,78,,68,62,35,24,7,6,0.5,0.4
2024-05-21T1000,1008A,116.6636,40.135,北京市,顺义新城,,30,22,45,11,23,93,,52,52,16,23,4,2,0.5,0.6
2024-05-21T1000,1009A,116.6275,40.3275,北京市,怀柔镇,,50,50,49,31,28,103,,64,64,14,17,7,5,0.7,0.6
2024-05-21T1000,1010A,116.2296,40.217,北京市,昌平镇,,41,41,48,22,24,70,,56,53,22,20,4,2,0.5,0.5
2024-05-21T1000,1011A,116.3966,39.9821,北京市,奥体中心,,45,45,38,24,16,76,,60,56,30,25,3,3,0.5,0.5
2024-05-21T1000,1012A,116.184,39.9136,北京市,古城,颗粒物(PM10),69,87,50,36,20,59,,57,53,50,25,4,2,0.9,0.7
2024-05-21T1000,3281A,115.9718,40.4529,北京市,延庆夏都,颗粒物(PM10),70,90,41,45,22,91,,95,85,17,14,1,1,0.5,0.4
2024-05-21T1000,3417A,117.0709,40.1465,北京市,平谷新城,,29,29,41,18,24,73,,54,54,15,12,2,3,0.4,0.4
2024-05-21T1000,3418A,116.8336,40.4095,北京市,密云新城,,41,41,44,25,24,113,,60,60,9,14,4,1,0.7,0.6
2024-05-21T1000,3671A,116.088,39.9726,北京市,门头沟三家店,,,,,,,,,,,,,,,,
2024-05-21T1000,3672A,116.1541,39.8204,北京市,丰台云岗,颗粒物(PM10),57,63,47,22,17,71,,49,48,29,21,3,2,0.6,0.5
2024-05-21T1000,3673A,116.6804,39.9081,北京市,通州东关,,37,37,42,17,21,83,,48,48,18,21,5,2,0.6,0.5
2024-05-21T1000,3674A,115.9577,39.7603,北京市,房山燕山,颗粒物(PM10),70,89,54,38,24,73,,42,42,27,20,1,2,0.5,0.5
2024-05-21T1000,3675A,116.4672,39.7733,北京市,大兴旧宫,,27,27,35,13,17,82,,58,57,18,17,3,2,0.4,0.4
2024-05-21T1000,3694A,115.986,40.4563,北京市,延庆石河营,细颗粒物(PM2.5),75,73,42,55,24,87,,89,80,15,14,3,3,0.5,0.4
2024-05-21T1000,3695A,116.6151,40.3053,北京市,怀柔新城,颗粒物(PM10),52,54,46,33,28,92,,54,54,18,21,5,2,0.6,0.6
2024-05-21T1000,3696A,116.2545,39.8768,北京市,丰台小屯,颗粒物(PM10),55,60,40,33,18,73,,53,51,31,19,4,2,0.4,0.4
2024-05-21T1000,3697A,116.84,40.3844,北京市,密云镇,细颗粒物(PM2.5),52,47,49,36,28,104,,59,58,10,15,1,3,0.5,0.5
2024-05-21T1000,1761A,123.8275,41.3064,本溪市,大峪,,26,26,25,15,11,56,,26,26,26,21,10,9,0.8,0.8
2024-05-21T1000,1762A,123.7567,41.3325,本溪市,溪湖,,,71,35,34,16,,,14,14,50,22,37,15,3.5,0.8
2024-05-21T1000,1763A,123.7169,41.3094,本溪市,彩屯,细颗粒物(PM2.5),59,66,44,42,42,69,,19,19,48,33,38,12,3.4,1.4
2024-05-21T1000,1764A,123.7669,41.2864,本溪市,东明,颗粒物(PM10),82,114,47,12,14,83,,27,27,22,29,10,9,1.0,0.9
2024-05-21T1000,1765A,123.7992,41.2664,本溪市,新立屯,,34,26,22,9,12,106,,33,33,15,25,11,10,0.8,1
2024-05-21T1000,1766A,123.8142,41.3472,本溪市,威宁,,,45,32,12,12,,,15,15,23,25,7,6,0.7,0.6
2024-05-21T1000,2587A,105.2864,27.3125,毕节市,八中,,,20,22,12,14,115,,62,62,7,10,,5,0.4,0.4
2024-05-21T1000,2588A,105.31,27.2944,毕节市,师专,,37,18,22,14,16,118,,58,58,6,12,7,8,0.4,0.4
2024-05-21T1000,3537A,105.3631,27.3533,毕节市,长征村,,40,27,22,21,16,128,,98,98,6,7,6,6,0.3,0.3
2024-05-21T1000,1629A,118.0018,37.3617,滨州市,第二水厂,细颗粒物(PM2.5),62,70,29,44,16,99,,71,71,30,15,28,10,1.2,0.6
2024-05-21T1000,1630A,117.9776,37.393,滨州市,北中新校,颗粒物(PM10),68,85,34,44,15,97,,72,72,37,20,26,14,1.3,0.8
2024-05-21T1000,3514A,117.9378,37.3956,滨州市,中海酒店,细颗粒物(PM2.5),67,75,29,48,18,99,,79,79,29,14,32,15,1.1,0.7
2024-05-21T1000,3515A,117.9378,37.3553,滨州市,开发区一中,颗粒物(PM10),65,80,34,39,17,97,,74,74,24,11,30,10,0.9,0.5
2024-05-21T1000,3516A,118.0917,37.694,滨州市,金海六路,,49,49,25,19,12,110,,77,77,16,14,26,20,0.6,0.4
2024-05-21T1000,4028A,117.9956,37.3753,滨州市,滨州市西街道办事处,,,78,25,58,19,100,,77,77,34,17,,12,1.4,0.8
2024-05-21T1000,2311A,115.8072,33.8399,亳州市,污水处理厂,,46,44,60,32,35,65,,61,57,2,9,8,10,0.4,0.5
2024-05-21T1000,2312A,115.7789,33.8518,亳州市,三国揽胜宫,,48,48,58,23,34,66,,73,66,4,7,9,11,0.3,0.4
2024-05-21T1000,3332A,115.7633,33.8034,亳州市,亳州学院,细颗粒物(PM2.5),55,46,58,39,40,62,,77,68,5,7,8,10,0.4,0.4
2024-05-21T1000,2693A,82.0485,44.8556,博尔塔拉蒙古自治州,市党校,,26,15,24,7,10,82,,89,88,13,11,8,10,0.5,0.4
2024-05-21T1000,2694A,82.0806,44.8969,博尔塔拉蒙古自治州,市环保局,,24,20,29,12,12,76,,87,87,17,9,11,10,0.3,0.3
2024-05-21T1000,1071A,116.8842,38.2991,沧州市,沧县城建局,,,45,40,18,16,,,56,55,26,22,7,3,0.3,0.4
2024-05-21T1000,1072A,116.8584,38.3254,沧州市,电视转播站,,41,41,34,27,15,70,,54,53,26,18,7,4,0.2,0.2
2024-05-21T1000,1073A,116.8709,38.3228,沧州市,市环保局,,45,45,39,23,22,79,,56,56,24,20,7,5,0.2,0.3
2024-05-21T1000,3324A,116.8136,38.3004,沧州市,河北水利电力学院,,36,36,24,14,14,76,,64,64,31,20,8,6,0.3,0.3
2024-05-21T1000,2622A,97.1806,31.1273,昌都市,昌都监测站,,29,17,16,14,14,90,,90,86,7,6,7,7,0.4,0.4
2024-05-21T1000,3719A,97.1714,31.1406,昌都市,昌都会议中心,,31,19,15,10,9,99,,105,99,10,7,6,6,0.3,0.3
2024-05-21T1000,2690A,88.1236,43.8886,昌吉回族自治州,天山天池,,20,8,31,3,7,64,,73,69,6,7,14,13,0.5,0.6
2024-05-21T1000,2692A,87.2717,44.0297,昌吉回族自治州,新区政务中心,,23,10,44,3,27,72,,88,84,9,10,8,8,0.3,0.3
2024-05-21T1000,3613A,87.3095,44.0142,昌吉回族自治州,亚心广场,,24,9,46,3,11,75,,91,87,15,14,8,8,0.4,0.4
2024-05-21T1000,1119A,125.3325,43.9166,长春市,食品厂,,34,34,27,6,12,76,,61,61,17,20,7,7,0.2,0.2
2024-05-21T1000,1120A,125.2863,43.9027,长春市,客车厂,,36,36,24,9,14,72,,63,63,12,20,5,5,0.4,0.4
2024-05-21T1000,1121A,125.2841,43.8463,长春市,邮电学院,,35,35,29,3,8,70,,59,59,14,18,8,7,0.3,0.3
2024-05-21T1000,1122A,125.3716,43.8772,长春市,劳动公园,,32,32,25,3,10,82,,60,60,14,21,5,5,0.3,0.3
2024-05-21T1000,1123A,125.3297,43.8805,长春市,园林处,,,,21,,15,74,,59,59,14,21,10,5,,0.3
2024-05-21T1000,1124A,125.4605,43.79,长春市,净月潭,,,18,14,3,8,77,,45,45,,8,8,7,0.3,0.3
2024-05-21T1000,1125A,125.7194,43.515,长春市,甩湾子,,,,,,,,,,,,,,,,
2024-05-21T1000,1126A,125.3863,43.8447,长春市,经开区环卫处,,25,22,22,3,8,80,,56,56,12,20,6,5,0.4,0.4
2024-05-21T1000,1127A,125.245,43.7783,长春市,高新区管委会,,23,19,22,3,10,73,,53,53,11,18,7,6,0.3,0.2
2024-05-21T1000,1128A,125.1761,43.8325,长春市,岱山公园,,31,31,26,10,15,70,,54,54,17,26,6,5,0.2,0.2
2024-05-21T1000,1335A,113.0833,28.2325,长沙市,经开区环保局,,45,37,42,31,36,55,,45,45,10,12,8,7,0.5,0.5
2024-05-21T1000,1336A,112.8872,28.2189,长沙市,高开区环保局,,50,50,42,32,26,53,,54,52,13,13,6,6,0.7,0.6
2024-05-21T1000,1337A,113.0792,28.2053,长沙市,马坡岭,,,,43,43,41,,,46,46,11,13,,7,0.6,0.6
2024-05-21T1000,1338A,112.9394,28.19,长沙市,湖南师范大学,细颗粒物(PM2.5),58,48,45,41,38,54,,54,52,6,7,3,3,0.7,0.7
2024-05-21T1000,1339A,113.0178,28.1322,长沙市,雨花区环保局,,47,47,49,31,24,52,,50,48,11,10,5,5,0.4,0.3
2024-05-21T1000,1340A,112.9792,28.2597,长沙市,伍家岭,细颗粒物(PM2.5),62,46,47,44,39,50,,46,44,10,11,5,6,0.4,0.4
2024-05-21T1000,1341A,113.0014,28.1944,长沙市,火车新站,细颗粒物(PM2.5),55,49,44,39,30,62,,57,57,13,13,4,3,0.8,0.7
2024-05-21T1000,1342A,112.9844,28.1178,长沙市,天心区环保局,颗粒物(PM10),52,54,49,35,38,46,,44,44,21,21,2,2,0.8,0.7
2024-05-21T1000,1343A,112.8908,28.1308,长沙市,湖南中医药大学,,,45,43,40,33,,,55,52,,10,,6,,0.8
2024-05-21T1000,1344A,112.9581,28.3611,长沙市,沙坪,颗粒物(PM10),55,59,49,23,22,57,,48,48,6,8,7,6,0.5,0.4
2024-05-21T1000,1727A,113.1147,36.1547,长治市,清华站,,46,46,46,14,21,145,,79,79,11,18,12,10,0.5,0.6
2024-05-21T1000,1728A,113.1031,36.1989,长治市,监测站,,48,48,53,19,20,141,,74,74,20,21,8,5,1.0,1.1
2024-05-21T1000,1730A,113.0886,36.2125,长治市,审计局,,49,49,47,29,23,147,,77,77,11,14,17,14,0.7,0.8
2024-05-21T1000,1731A,113.0844,36.1856,长治市,长治八中,颗粒物(PM10),54,57,77,23,25,143,,78,78,21,23,11,8,0.9,0.9
2024-05-21T1000,2845A,113.1569,36.1911,长治市,德盛苑,,42,38,40,17,21,134,,115,115,11,10,10,7,0.9,1.1
2024-05-21T1000,3568A,113.06,36.0464,长治市,向阳小学,,,64,62,43,39,,,76,76,,14,15,14,0.9,0.8
2024-05-21T1000,3569A,112.8792,36.3144,长治市,屯留一中,,,54,50,23,31,,,76,72,,16,,9,,0.5
2024-05-21T1000,3570A,113.235,36.3489,长治市,潞城四中,颗粒物(PM10),71,91,61,26,33,149,,55,55,14,25,6,7,0.9,0.9
2024-05-21T1000,1854A,111.6975,28.9703,常德市,市二中,,42,42,29,28,21,63,,56,55,13,11,12,11,0.6,0.5
2024-05-21T1000,1857A,111.7158,29.1456,常德市,白鹤山,,,,,,,,,,,,,,,,
2024-05-21T1000,3138A,111.7153,29.0289,常德市,武陵区永安,,39,38,27,27,20,80,,84,84,13,11,8,7,0.4,0.4
2024-05-21T1000,3139A,111.6892,28.9881,常德市,鼎城区玉霞,,42,42,30,23,23,67,,60,60,15,10,12,10,0.5,0.5
2024-05-21T1000,3140A,111.6625,29.0531,常德市,武陵区长庚,,39,38,27,27,19,76,,76,76,13,9,9,8,0.5,0.5
2024-05-21T1000,1196A,119.9633,31.762,常州市,市监测站,,35,35,46,17,22,78,,47,47,16,18,10,10,0.7,0.5
2024-05-21T1000,1200A,119.9468,31.7069,常州市,武进监测站,,30,30,46,14,21,86,,47,47,7,19,9,11,0.5,0.7
2024-05-21T1000,1201A,119.9255,31.9087,常州市,安家,,43,43,50,19,24,66,,40,40,14,23,7,9,0.5,0.7
2024-05-21T1000,3002A,119.9805,31.8174,常州市,行政中心,,40,40,39,19,17,67,,44,44,17,18,10,11,0.2,0.3
2024-05-21T1000,3003A,120.0522,31.7748,常州市,经开区,,35,35,41,15,17,74,,44,44,19,21,8,8,0.4,0.5
2024-05-21T1000,3010A,119.9025,31.7964,常州市,钟楼,,38,38,45,19,19,65,,40,40,20,20,8,8,0.7,0.6
2024-05-21T1000,3429A,119.8598,31.7066,常州市,武进经发区,,,,49,,23,81,,42,42,10,20,5,7,,0.6
2024-05-21T1000,3430A,119.5826,31.7245,常州市,金坛城区,,,,45,,21,,,31,31,8,21,7,8,0.5,0.7
2024-05-21T1000,2220A,120.4318,41.5881,朝阳市,西梁,,33,,29,17,17,105,,66,66,10,15,14,14,0.6,0.5
2024-05-21T1000,2221A,120.4521,41.5646,朝阳市,河畔小区,,,26,27,13,16,,,85,85,9,11,12,10,0.6,0.5
2024-05-21T1000,2222A,120.4176,41.5648,朝阳市,八里堡,,35,23,38,15,20,110,,70,70,10,17,11,10,0.8,0.7
2024-05-21T1000,2223A,120.3806,41.5969,朝阳市,农业园区,,36,36,37,20,31,110,,47,47,17,25,18,12,1.1,0.7
2024-05-21T1000,1705A,116.6367,23.6719,潮州市,西园路,,13,,11,6,11,40,,35,34,12,10,2,2,0.6,0.3
2024-05-21T1000,3026A,116.6183,23.6608,潮州市,市政府,,,,11,,10,,,42,39,20,13,6,6,1.3,0.8
2024-05-21T1000,4036A,116.6461,23.6761,潮州市,金山,,20,20,12,3,10,35,,37,35,9,9,6,6,0.7,0.7
2024-05-21T1000,2472A,113.0073,25.9061,郴州市,马头岭,,37,37,31,13,13,51,,50,50,4,7,4,6,0.6,0.6
2024-05-21T1000,2473A,113.0116,25.8226,郴州市,市职中,,38,32,23,26,18,38,,31,31,14,10,7,7,0.7,0.6
2024-05-21T1000,2474A,113.0161,25.8001,郴州市,兴隆步行街,,41,41,28,25,18,39,,42,42,10,8,6,7,0.8,0.7
2024-05-21T1000,2475A,113.0383,25.8071,郴州市,市审计局,,42,30,24,29,21,45,,37,37,10,10,6,4,0.6,0.6
2024-05-21T1000,2476A,113.0348,25.7759,郴州市,市环保局,,46,,28,32,24,40,,38,38,10,12,4,4,0.8,0.7
2024-05-21T1000,1431A,103.9728,30.7236,成都市,金泉两河,,28,28,35,3,14,75,,49,44,12,6,4,2,0.4,0.3
2024-05-21T1000,1432A,104.176,30.6872,成都市,十里店,,30,20,31,14,13,96,,69,67,16,16,4,4,0.5,0.5
2024-05-21T1000,1433A,104.079,30.5706,成都市,三瓦窑,,28,20,32,6,15,87,,57,53,22,21,3,2,0.6,0.5
2024-05-21T1000,1434A,104.1114,30.63,成都市,沙河铺,,40,40,29,17,12,63,,44,39,25,16,6,5,0.6,0.5
2024-05-21T1000,1437A,104.0786,30.6531,成都市,君平街,,42,42,32,26,14,88,,73,70,16,12,6,5,0.6,0.5
2024-05-21T1000,1438A,103.613,31.0283,成都市,灵岩寺,,,,,,,,,,,,,,,,
2024-05-21T1000,2880A,104.0239,30.65639,成都市,大石西路,,,48,32,29,15,,,74,68,18,15,,4,0.5,0.4
2024-05-21T1000,3136A,104.2725,30.5589,成都市,龙泉驿区区政府,,36,36,18,19,9,93,,77,74,19,8,2,3,0.5,0.4
2024-05-21T1000,3357A,104.0106,30.6931,成都市,金博路,,27,27,29,11,12,78,,58,52,13,10,3,2,0.7,0.5
2024-05-21T1000,3359A,104.0578,30.5225,成都市,华阳,,,,26,,18,95,,70,70,14,12,,2,0.5,0.5
2024-05-21T1000,3487A,104.2394,30.5319,成都市,车城东七路,,46,46,28,32,17,86,,80,76,22,10,4,3,0.5,0.4
2024-05-21T1000,3488A,104.3853,30.7453,成都市,青白江技师分院,,36,19,18,3,8,113,,51,51,7,16,4,4,0.4,0.5
2024-05-21T1000,3489A,104.0789,30.4072,成都市,科学城,,33,26,27,20,17,104,,87,86,14,10,2,3,0.6,0.6
2024-05-21T1000,4011A,103.8506,30.6947,成都市,光华大道三段,,40,40,39,22,15,63,,67,53,16,13,2,3,0.5,0.6
2024-05-21T1000,1062A,117.9531,40.9081,承德市,铁路,,38,38,25,14,12,94,,54,54,16,17,9,7,0.5,0.3
2024-05-21T1000,1063A,117.9392,40.9763,承德市,中国银行,,,46,24,24,12,,,40,40,21,16,15,9,0.8,0.3
2024-05-21T1000,1064A,117.9503,40.928,承德市,开发区,,38,38,30,26,16,91,,52,52,21,17,9,6,0.7,0.4
2024-05-21T1000,1065A,117.8051,40.9655,承德市,文化中心,颗粒物(PM10),74,98,44,31,15,109,,51,51,23,21,38,12,0.9,0.4
2024-05-21T1000,1066A,117.9268,41.0026,承德市,离宫,,46,42,31,32,21,88,,44,44,16,11,4,3,0.8,0.3
2024-05-21T1000,2314A,117.47,30.6618,池州市,池州学院,颗粒物(PM10),55,60,60,36,36,93,,90,81,28,19,8,8,0.6,0.6
2024-05-21T1000,3237A,117.4918,30.6617,池州市,展览馆,细颗粒物(PM2.5),57,60,57,40,33,102,,88,81,21,17,7,6,0.7,0.6
2024-05-21T1000,3333A,117.5627,30.695,池州市,第八中学,,,53,57,31,36,,,76,75,,20,7,7,0.8,0.8
2024-05-21T1000,3334A,117.5038,30.6243,池州市,第十二中学,颗粒物(PM10),52,54,55,31,34,115,,70,70,17,19,9,7,0.7,0.9
2024-05-21T1000,1744A,118.9233,42.2816,赤峰市,松山一中,颗粒物(PM10),52,53,35,18,7,128,,99,99,20,23,10,11,0.5,0.4
2024-05-21T1000,1745A,118.9576,42.2728,赤峰市,哈达街,,41,41,21,18,7,121,,88,88,31,28,12,12,0.6,0.5
2024-05-21T1000,1746A,118.8788,42.2554,赤峰市,天义路,,43,43,15,13,9,128,,99,99,18,18,6,9,0.5,0.4
2024-05-21T1000,3058A,119.2658,42.0353,赤峰市,银河街,,,66,53,30,19,,,81,78,17,20,12,16,0.5,0.5
2024-05-21T1000,3286A,118.9359,42.3147,赤峰市,桥北物流园区,,41,24,19,21,12,129,,96,96,10,24,5,6,0.7,0.6
2024-05-21T1000,2521A,107.3476,22.4136,崇左市,市环保局江州分局,,22,11,20,9,10,70,,54,54,4,7,8,8,0.6,0.6
2024-05-21T1000,2522A,107.3702,22.3707,崇左市,城南新区,,21,13,16,8,9,67,,60,60,4,6,6,6,0.5,0.5
2024-05-21T1000,2298A,118.3093,32.3153,滁州市,老年大学,,48,48,50,23,24,87,,58,58,16,14,9,9,0.6,0.6
2024-05-21T1000,2299A,118.3244,32.2786,滁州市,人大宾馆,,,,37,,29,81,,51,51,13,16,,6,,0.6
2024-05-21T1000,3207A,118.3118,32.3038,滁州市,市政府原办公楼,,49,44,43,34,33,86,,56,56,13,13,6,6,0.7,0.6
2024-05-21T1000,3331A,118.3267,32.2634,滁州市,图书馆,,44,44,47,26,29,82,,54,54,12,15,8,8,0.8,0.7
2024-05-21T1000,2605A,101.5482,25.0441,楚雄彝族自治州,州环境监测站,,29,29,19,18,12,73,,38,38,18,16,22,10,0.7,0.6
2024-05-21T1000,2606A,101.538,25.0492,楚雄彝族自治州,市经济开发区,,,32,22,21,13,,,32,30,22,17,,6,0.7,0.6
2024-05-21T1000,2548A,107.5277,31.2827,达州市,达州职业技术学院,,25,25,20,3,4,44,,53,49,28,15,8,9,0.4,0.3
2024-05-21T1000,2549A,107.5086,31.2186,达州市,市环境监测站,,32,32,19,12,3,39,,48,46,38,21,8,9,0.5,0.4
2024-05-21T1000,2550A,107.4988,31.2132,达州市,凤凰小区,,31,31,15,12,6,54,,54,54,27,17,8,10,0.4,0.4
2024-05-21T1000,2551A,107.5082,31.1986,达州市,达县机关宾馆,,29,22,17,20,8,35,,48,44,38,26,6,8,0.5,0.4
2024-05-21T1000,2552A,107.4644,31.2124,达州市,市政中心,,,40,21,12,5,41,,47,47,,18,,9,0.5,0.4
2024-05-21T1000,2614A,100.1542,25.7054,大理白族自治州,大理市环境监测站,,33,33,14,15,11,62,,47,47,18,14,6,6,0.6,0.5
2024-05-21T1000,2615A,100.2171,25.5811,大理白族自治州,大理古城,,23,20,15,11,9,71,,62,62,10,12,5,5,0.4,0.4
2024-05-21T1000,1109A,121.612,38.9741,大连市,甘井子,"颗粒物(PM10),细颗粒物(PM2.5)",58,66,54,41,34,97,,47,47,22,40,9,9,0.6,0.7
2024-05-21T1000,1110A,121.565,38.9511,大连市,周水子,细颗粒物(PM2.5),53,53,45,37,30,101,,53,53,16,36,8,8,0.6,0.7
2024-05-21T1000,1111A,121.5637,38.8845,大连市,星海三站,"颗粒物(PM10),细颗粒物(PM2.5)",53,55,42,37,29,105,,64,64,10,10,7,6,0.6,0.5
2024-05-21T1000,1112A,121.6302,38.9117,大连市,青泥洼桥,颗粒物(PM10),51,51,37,32,22,102,,65,65,10,18,6,7,0.8,0.8
2024-05-21T1000,1113A,121.6251,38.8638,大连市,傅家庄,,42,42,34,27,22,110,,85,85,10,11,7,7,0.6,0.5
2024-05-21T1000,1114A,121.5213,38.8661,大连市,七贤岭,颗粒物(PM10),53,55,36,32,20,118,,72,72,12,15,7,7,0.5,0.4
2024-05-21T1000,1115A,121.2529,38.8061,大连市,旅顺,,40,40,39,27,27,106,,73,73,15,16,8,7,0.5,0.4
2024-05-21T1000,1116A,121.7485,39.1311,大连市,金州,颗粒物(PM10),54,58,54,32,30,106,,63,63,24,18,12,9,0.8,0.7
2024-05-21T1000,1117A,121.7811,39.0496,大连市,开发区,细颗粒物(PM2.5),62,70,56,44,37,90,,59,59,16,31,7,7,0.8,0.7
2024-05-21T1000,1118A,121.9762,39.0631,大连市,双D港,,43,32,33,30,26,105,,45,45,12,19,7,8,0.7,0.7
2024-05-21T1000,1789A,124.81117,46.03138,大庆市,大同区,,,,28,,20,91,,71,70,,10,,7,0.4,0.4
2024-05-21T1000,1790A,125.129,46.533,大庆市,龙凤区,,44,44,30,22,16,82,,69,69,17,16,8,6,0.4,0.3
2024-05-21T1000,1791A,124.902,46.408,大庆市,红岗区,,43,43,31,15,13,81,,72,70,10,11,8,7,0.3,0.3
2024-05-21T1000,1792A,125.153,46.586,大庆市,萨尔图区,颗粒物(PM10),51,52,28,19,10,79,,73,72,14,12,10,8,0.3,0.2
2024-05-21T1000,1793A,124.9042,46.6215,大庆市,让胡路区,,31,31,27,20,18,83,,80,76,12,11,6,5,0.3,0.3
2024-05-21T1000,3481A,125.141,46.634,大庆市,萨区政府监测点,,33,33,28,14,10,82,,80,78,14,10,10,8,0.2,0.2
2024-05-21T1000,1721A,113.3819,40.1097,大同市,果树场,,,,,,,,,,,,,,,,
2024-05-21T1000,1723A,113.2994,40.0758,大同市,云冈宾馆,颗粒物(PM10),64,77,67,34,29,124,,84,84,28,23,13,8,0.6,0.6
2024-05-21T1000,1724A,113.3444,40.0917,大同市,大同大学,颗粒物(PM10),53,56,54,32,28,119,,89,88,30,17,19,15,0.6,0.5
2024-05-21T1000,1725A,113.2661,40.1269,大同市,安家小村,颗粒物(PM10),87,124,79,28,29,113,,92,89,34,20,15,12,0.6,0.5
2024-05-21T1000,1726A,113.2711,40.0844,大同市,教育学院,,,87,77,54,35,124,,80,78,,27,15,10,0.5,0.6
2024-05-21T1000,3282A,113.3397,40.0597,大同市,大同市卫生学校,颗粒物(PM10),54,58,61,32,32,132,,82,82,21,19,15,10,1.0,0.9
2024-05-21T1000,3565A,113.1367,40.1122,大同市,云冈站,颗粒物(PM10),54,58,71,25,35,160,,99,99,6,15,8,12,0.4,0.5
2024-05-21T1000,3566A,113.1186,40.2556,大同市,图书馆,细颗粒物(PM2.5),64,62,76,46,40,138,,98,98,11,17,13,16,0.8,0.8
2024-05-21T1000,3567A,113.5931,40.0461,大同市,区一中,臭氧1小时,59,51,66,30,22,167,,107,107,13,17,11,3,0.5,0.5
2024-05-21T1000,3676A,113.2802,40.0995,大同市,第二人民医院,,,88,75,51,37,,,76,69,27,22,15,12,0.6,0.7
2024-05-21T1000,2269A,124.1069,50.4097,大兴安岭地区,科技局,,30,24,27,21,18,84,,55,55,6,7,4,3,0.2,0.2
2024-05-21T1000,3663A,124.1164,50.4278,大兴安岭地区,红旗社区,,28,14,15,11,14,88,,58,58,8,9,8,7,0.3,0.2
2024-05-21T1000,1600A,124.3303,40.0625,丹东市,江湾东路,,32,27,28,22,19,89,,92,92,10,13,7,9,0.6,0.6
2024-05-21T1000,1601A,124.4256,40.1503,丹东市,临江后街,,31,28,21,21,15,97,,87,87,8,10,10,9,0.7,0.6
2024-05-21T1000,1602A,124.3933,40.1461,丹东市,元宝山,,,25,21,23,14,83,,87,87,,10,10,11,0.7,0.6
2024-05-21T1000,1603A,124.3633,40.1092,丹东市,民主桥,,31,31,27,20,18,84,,86,86,7,10,11,11,0.5,0.6
2024-05-21T1000,3541A,109.5726,19.5167,儋州市,第一中学子站,,,11,18,3,9,,,55,52,3,4,3,3,0.4,0.5
2024-05-21T1000,3542A,109.5567,19.5187,儋州市,东坡学校子站,,19,19,13,3,7,57,,55,53,2,3,2,3,0.6,0.6
2024-05-21T1000,2616A,98.5842,24.428,德宏傣族景颇族自治州,德宏州监测站,,47,47,42,29,30,24,,32,27,22,16,3,4,1.0,0.8
2024-05-21T1000,3677A,98.5881,24.4368,德宏傣族景颇族自治州,芒市人民政府综合楼,,36,36,42,20,22,22,,34,28,22,13,12,4,0.8,0.6
2024-05-21T1000,1901A,104.4239,31.1208,德阳市,东山公园,,38,38,28,9,12,105,,84,84,6,8,2,3,0.4,0.4
2024-05-21T1000,1902A,104.3826,31.1317,德阳市,西小区,,,45,30,19,17,92,,72,71,14,13,,6,0.5,0.4
2024-05-21T1000,1904A,104.3553,31.1091,德阳市,耐火材料厂,,38,38,24,10,14,97,,78,73,12,8,14,6,0.6,0.4
2024-05-21T1000,3639A,104.4019,31.1244,德阳市,市教育局,,37,37,26,9,13,96,,73,72,6,8,4,5,0.4,0.4
2024-05-21T1000,1622A,116.3032,37.4674,德州市,儿童乐园,颗粒物(PM10),63,75,40,31,19,92,,66,66,32,17,12,9,0.9,0.6
2024-05-21T1000,1624A,116.2991,37.4451,德州市,监理站,,,,31,,17,81,,68,67,,13,15,12,0.8,0.4
2024-05-21T1000,3066A,116.2721,37.4379,德州市,九衢泉纯净水厂,颗粒物(PM10),65,80,36,29,18,67,,68,64,37,18,13,8,0.7,0.4
2024-05-21T1000,3371A,116.3728,37.4403,德州市,开发区人民医院,颗粒物(PM10),57,63,33,29,16,84,,58,58,17,12,15,11,0.5,0.4
2024-05-21T1000,3372A,116.3572,37.4094,德州市,太阳城中学,颗粒物(PM10),63,75,35,31,20,72,,54,53,22,14,13,8,0.6,0.4
2024-05-21T1000,3511A,116.5652,37.3319,德州市,陵城艺术中心,颗粒物(PM10),65,80,28,27,13,82,,54,54,29,15,18,7,0.6,0.4
2024-05-21T1000,2621A,99.7056,27.8317,迪庆藏族自治州,迪庆州站,,25,24,20,17,12,58,,72,62,16,10,8,8,0.4,0.3
2024-05-21T1000,3180A,99.7136,27.8094,迪庆藏族自治州,质量技术监督局,,,,22,,7,50,,71,61,18,10,,7,0.6,0.4
2024-05-21T1000,2663A,104.6241,35.5734,定西市,东关小学,,45,45,64,19,24,115,,79,79,7,13,4,4,0.3,0.2
2024-05-21T1000,2664A,104.6194,35.5934,定西市,供电公司,,38,38,55,22,28,109,,70,70,5,17,5,5,0.3,0.3
2024-05-21T1000,1389A,113.7547,23.0494,东莞市,莞城梨川,,13,9,11,9,9,35,,34,34,21,21,8,8,1.1,1
2024-05-21T1000,1390A,113.7944,23.0128,东莞市,东城石井,,15,15,15,8,9,29,,35,33,20,19,7,7,0.8,0.7
2024-05-21T1000,1391A,113.7383,22.9658,东莞市,南城西平,,13,10,14,6,9,24,,20,20,26,31,7,6,0.8,0.7
2024-05-21T1000,3319A,113.7338,23.0381,东莞市,万江金泰,,10,7,11,3,8,32,,29,29,17,17,8,8,0.7,0.7
2024-05-21T1000,3626A,113.7533,23.0202,东莞市,南城元岭,,,6,11,3,8,,,38,38,17,14,8,8,0.9,0.8
2024-05-21T1000,3627A,113.7875,23.0457,东莞市,东城主山,,11,10,10,6,6,34,,33,33,15,17,7,8,0.9,0.9
2024-05-21T1000,1666A,118.6614,37.4309,东营市,市环保局,,44,44,22,22,11,108,,94,94,20,12,11,9,0.3,0.1
2024-05-21T1000,3036A,118.6904,37.4338,东营市,开发区管委会,,,,28,,15,107,,95,95,21,14,7,6,0.4,0.2
2024-05-21T1000,3365A,118.5719,37.565,东营市,垦利区民丰路,,44,44,18,24,8,119,,82,82,22,14,13,9,0.9,0.5
2024-05-21T1000,3498A,118.5055,37.8612,东营市,河口城区,,41,41,21,24,13,103,,88,88,10,10,7,6,0.4,0.2
2024-05-21T1000,3646A,118.4978,37.4623,东营市,胜利站,,32,29,21,17,9,100,,80,80,25,13,12,8,0.9,0.6
2024-05-21T1000,3734A,118.35,37.26,东营市,理想之城,颗粒物(PM10),53,56,26,27,13,104,,76,76,22,15,16,10,0.7,0.3
2024-05-21T1000,1591A,110.0023,39.8129,鄂尔多斯市,综合楼,颗粒物(PM10),68,85,133,44,42,140,,124,124,24,23,10,10,0.6,0.6
2024-05-21T1000,1592A,109.9486,39.8261,鄂尔多斯市,巴音孟克林场办事处,颗粒物(PM10),65,80,124,31,44,135,,122,122,15,19,10,11,0.8,0.7
2024-05-21T1000,1593A,109.7736,39.5986,鄂尔多斯市,康泽苑,细颗粒物(PM2.5),67,73,114,48,50,147,,133,133,14,15,9,8,0.4,0.3
2024-05-21T1000,1594A,109.8119,39.5989,鄂尔多斯市,华泰汽车城,,,68,104,51,51,,,118,118,,17,10,8,,0.5
2024-05-21T1000,1595A,109.9734,39.7884,鄂尔多斯市,奥林花园,,,70,109,,48,129,,111,111,16,22,9,10,0.6,0.6
2024-05-21T1000,2436A,114.8938,30.3994,鄂州市,市政府,颗粒物(PM10),59,68,54,35,30,107,,112,102,15,14,8,10,0.5,0.6
2024-05-21T1000,2437A,114.8989,30.3714,鄂州市,赵家坝,细颗粒物(PM2.5),62,45,51,44,30,92,,99,91,16,7,14,10,0.7,0.7
2024-05-21T1000,3654A,114.8094,30.4089,鄂州市,精准医疗中心,,,,53,,27,,,99,92,21,16,5,7,,0.6
2024-05-21T1000,2454A,109.4978,30.2981,恩施土家族苗族自治州,湖北民院,,40,40,34,14,20,20,,28,21,28,21,8,8,0.6,0.5
2024-05-21T1000,2455A,109.4707,30.2798,恩施土家族苗族自治州,州电力总公司,,43,43,37,25,24,16,,9,9,22,28,9,9,0.7,0.8
2024-05-21T1000,3549A,109.5061,30.3772,恩施土家族苗族自治州,龙凤新区,,42,37,26,29,17,35,,42,31,20,12,6,6,0.7,0.6
2024-05-21T1000,2499A,108.3411,21.6158,防城港市,沙万,,28,28,28,11,17,64,,52,52,9,10,5,6,0.8,0.8
2024-05-21T1000,2500A,108.3514,21.7731,防城港市,防城档案局,,19,19,36,10,12,57,,41,41,11,15,4,4,0.6,0.7
2024-05-21T1000,2501A,108.3506,21.6414,防城港市,大海花园,,20,17,20,3,11,61,,52,52,10,11,6,5,0.8,0.7
2024-05-21T1000,1371A,113.1294,23.0067,佛山市,湾梁,,14,,7,8,9,20,,22,22,27,36,4,5,0.9,0.4
2024-05-21T1000,1372A,113.1083,23.0478,佛山市,华材职中,,,17,11,3,9,16,,12,12,32,44,4,4,,0.6
2024-05-21T1000,1373A,113.144,23.0453,佛山市,南海气象局,,12,7,9,3,7,20,,18,18,23,35,4,4,0.6,0.6
2024-05-21T1000,1374A,113.2881,22.8094,佛山市,顺德苏岗,,15,,8,3,10,12,,17,16,30,29,5,5,0.7,0.7
2024-05-21T1000,1376A,112.8383,22.8678,佛山市,高明孔堂,,16,16,13,7,8,31,,22,22,24,29,6,5,0.9,0.8
2024-05-21T1000,1377A,112.8836,23.1588,佛山市,三水监测站,,11,,3,6,8,34,,28,28,20,22,6,6,0.7,0.7
2024-05-21T1000,1378A,112.867,23.185,佛山市,三水云东海,,14,14,4,3,5,38,,32,32,14,18,3,3,0.7,0.7
2024-05-21T1000,3625A,113.2544,22.7642,佛山市,容桂街道办,,,6,9,3,9,,,22,22,34,32,5,4,0.6,0.6
2024-05-21T1000,1280A,119.3903,26.0543,福州市,鼓山,,,,,,,,,,,,,,,,
2024-05-21T1000,1282A,119.2681,26.0504,福州市,师大,,20,12,16,3,7,62,,62,62,7,13,3,3,0.7,0.5
2024-05-21T1000,1283A,119.2984,26.1028,福州市,五四北路,,,,,2,4,59,,67,65,15,12,3,3,0.5,0.4
2024-05-21T1000,1284A,119.2648,26.0768,福州市,杨桥西路,,19,9,14,3,7,60,,62,62,13,15,3,3,0.6,0.5
2024-05-21T1000,1285A,119.317,26.0746,福州市,紫阳,,,,16,3,8,,,56,52,,16,2,2,0.6,0.4
2024-05-21T1000,3048A,119.5799,26.0936,福州市,九龙,,21,11,11,3,4,65,,70,67,5,8,4,4,0.4,0.3
2024-05-21T1000,3526A,119.5189,25.9664,福州市,吴航,,21,8,6,7,5,66,,81,74,9,4,4,4,0.7,0.5
2024-05-21T1000,1755A,123.7977,41.8491,抚顺市,望花区,颗粒物(PM10),55,59,33,23,17,83,,31,31,34,24,14,4,0.9,0.5
2024-05-21T1000,1756A,123.9161,41.8822,抚顺市,顺城区,,33,33,26,14,14,75,,28,28,26,23,10,8,0.6,0.4
2024-05-21T1000,1757A,124.0436,41.8611,抚顺市,东洲区,,,17,13,11,10,,,21,21,12,8,7,5,0.4,0.3
2024-05-21T1000,1758A,123.9247,41.8642,抚顺市,新抚区,,26,26,25,10,11,67,,25,25,21,19,8,6,0.5,0.4
2024-05-21T1000,1759A,124.0972,41.8961,抚顺市,大伙房水库,,15,10,15,7,10,46,,26,26,6,9,6,6,0.5,0.5
2024-05-21T1000,1760A,123.7086,41.8391,抚顺市,沈抚新城,,47,47,43,21,21,92,,29,29,24,24,13,12,1.0,1.2
2024-05-21T1000,2376A,116.2127,28.0814,抚州市,桐源党溪,,24,24,30,14,17,41,,40,40,11,7,13,7,0.4,0.4
2024-05-21T1000,2377A,116.3544,27.9831,抚州市,市站,,23,23,24,12,11,46,,50,50,8,8,2,3,0.8,0.7
2024-05-21T1000,2378A,116.3565,27.963,抚州市,血防站,,23,23,24,9,10,47,,52,52,10,9,3,2,0.9,0.9
2024-05-21T1000,2379A,116.3564,28.0007,抚州市,采茶剧团,,20,20,22,10,11,46,,50,50,6,6,3,3,0.8,0.8
2024-05-21T1000,2380A,116.385,27.9647,抚州市,医学分院,,,14,25,8,9,,,49,49,11,9,4,3,,1
2024-05-21T1000,2207A,121.6094,41.998,阜新市,工业园区,颗粒物(PM10),56,62,37,18,17,128,,76,76,15,21,15,20,0.7,0.6
2024-05-21T1000,2208A,121.6697,42.0279,阜新市,长青街,颗粒物(PM10),52,53,27,12,18,127,,83,83,16,20,14,22,0.5,0.5
2024-05-21T1000,2209A,121.6673,42.0705,阜新市,农业园区,,,39,48,19,20,125,,84,84,,18,,23,0.8,0.8
2024-05-21T1000,2210A,121.6717,42.0224,阜新市,东苑,颗粒物(PM10),53,56,47,13,17,123,,81,81,17,25,13,29,0.5,0.5
2024-05-21T1000,2211A,121.6506,42.0498,阜新市,玉龙新城,颗粒物(PM10),56,62,38,15,17,118,,60,60,14,22,15,14,0.4,0.4
2024-05-21T1000,2301A,115.8277,32.8929,阜阳市,市监测站,,,,49,,28,,,75,62,11,12,,7,0.5,0.4
2024-05-21T1000,2303A,115.8554,32.8605,阜阳市,开发区,颗粒物(PM10),64,78,53,38,24,83,,67,60,10,11,6,6,0.4,0.3
2024-05-21T1000,2875A,115.784,32.8892,阜阳市,阜阳职业技术学院,颗粒物(PM10),52,54,46,15,21,88,,82,78,11,12,6,6,0.5,0.3
2024-05-21T1000,3468A,115.7901,32.8613,阜阳市,市规划展馆,细颗粒物(PM2.5),74,,48,54,26,86,,79,69,15,11,4,5,0.5,0.4
2024-05-21T1000,3469A,115.836,32.9183,阜阳市,枣园社区,细颗粒物(PM2.5),74,77,53,54,29,84,,69,61,9,13,5,6,0.5,0.3
2024-05-21T1000,2669A,102.9099,34.9841,甘南藏族自治州,州政府,,48,48,63,17,26,85,,40,40,8,14,8,7,0.4,0.4
2024-05-21T1000,3380A,102.8914,34.9617,甘南藏族自治州,甘肃民族师范学院,颗粒物(PM10),52,54,72,31,28,80,,33,33,9,20,6,6,0.3,0.3
2024-05-21T1000,2570A,101.9603,30.0475,甘孜藏族自治州,水桥子,,21,21,22,10,13,46,,24,24,22,22,3,2,0.3,0.3
2024-05-21T1000,3065A,101.9533,29.9972,甘孜藏族自治州,州环保局,,22,22,27,3,7,67,,56,53,23,14,2,2,0.3,0.2
2024-05-21T1000,3414A,115.8347,28.932,赣江新区,桑海产业园,,20,6,18,3,12,62,,67,65,16,18,8,8,0.5,0.5
2024-05-21T1000,2362A,114.9017,25.9149,赣州市,通天岩,,,,,,,,,,,,,,,,
2024-05-21T1000,2363A,114.9367,25.8664,赣州市,地委,,14,,11,9,10,43,,44,42,7,7,12,11,0.5,0.5
2024-05-21T1000,2364A,114.9461,25.8481,赣州市,气象台,,16,,13,11,11,32,,37,34,13,10,7,7,0.8,0.7
2024-05-21T1000,2365A,114.9322,25.8333,赣州市,市图书馆,,12,,12,3,8,37,,40,37,9,9,7,5,0.9,0.8
2024-05-21T1000,2366A,114.8905,25.8471,赣州市,华坚鞋城,,15,15,18,3,9,34,,44,39,14,10,3,7,0.3,0.3
2024-05-21T1000,3109A,115.0093,25.8613,赣州市,赣县区卫计委,,13,9,10,3,10,41,,38,35,12,11,5,5,0.6,0.6
2024-05-21T1000,2683A,106.2319,36.1417,固原市,马园,,41,23,45,16,25,129,,84,84,16,25,5,5,0.4,0.4
2024-05-21T1000,2684A,106.2792,36.0022,固原市,监测站,,38,27,32,17,19,120,,101,97,11,14,4,4,0.3,0.3
2024-05-21T1000,2685A,106.2375,36.0211,固原市,新区,,44,44,35,14,18,124,,104,102,12,13,4,4,0.4,0.3
2024-05-21T1000,3522A,106.2177,35.9959,固原市,原州区十五小,,41,41,44,19,19,129,,126,126,14,8,4,4,0.5,0.5
2024-05-21T1000,2543A,106.6308,30.5278,广安市,小平旧居,,,,,,,,,,,,,,,,
2024-05-21T1000,2544A,106.6303,30.4576,广安市,市委,,,,19,,9,70,,66,63,12,10,8,7,0.5,0.5
2024-05-21T1000,2545A,106.6271,30.4663,广安市,友谊中学,,26,13,13,7,9,82,,68,66,11,11,7,6,0.2,0.2
2024-05-21T1000,2547A,106.6388,30.4551,广安市,广电花园,,22,18,14,3,15,70,,61,59,12,10,9,8,0.6,0.5
2024-05-21T1000,2902A,106.6351,30.4865,广安市,北辰小学,,25,25,16,7,9,73,,64,62,12,8,9,8,0.5,0.4
2024-05-21T1000,2523A,105.8945,32.4535,广元市,黑石坡,,27,,16,13,11,84,,67,67,10,8,6,6,0.3,0.2
2024-05-21T1000,2524A,105.821,32.4444,广元市,老城,,28,15,24,8,12,88,,58,58,18,20,1,1,0.4,0.4
2024-05-21T1000,2526A,105.8628,32.4287,广元市,监测站,,29,16,23,9,14,91,,61,61,18,8,4,4,0.4,0.3
2024-05-21T1000,3617A,105.8047,32.4166,广元市,经开区,,36,36,29,18,14,90,,60,60,20,16,4,3,0.4,0.4
2024-05-21T1000,1345A,113.2347,23.1423,广州市,广雅中学,,17,8,10,7,8,19,,16,16,34,44,4,4,0.8,0.8
2024-05-21T1000,1346A,113.2612,23.105,广州市,市五中,,10,7,9,3,6,26,,28,26,20,25,4,4,0.6,0.6
2024-05-21T1000,1348A,113.3478,23.0916,广州市,广东商学院,,17,13,11,3,5,14,,34,30,34,26,4,4,0.8,0.7
2024-05-21T1000,1349A,113.4332,23.1047,广州市,市八十六中,,,,7,,5,,,21,21,21,27,,4,0.7,0.8
2024-05-21T1000,1350A,113.3505,22.9483,广州市,番禺中学,,16,6,11,3,8,24,,22,22,32,32,4,4,0.5,0.5
2024-05-21T1000,1351A,113.2146,23.3916,广州市,花都师范,,,6,10,3,8,,,39,39,15,21,5,5,0.6,0.5
2024-05-21T1000,1352A,113.2597,23.1331,广州市,市监测站,,,6,8,3,5,,,16,16,20,31,,4,0.6,0.6
2024-05-21T1000,1353A,113.5618,23.312,广州市,九龙镇镇龙,,10,8,5,7,4,25,,42,38,15,10,6,6,0.5,0.5
2024-05-21T1000,1354A,113.2765,23.1544,广州市,麓湖,,11,6,6,3,4,24,,13,13,21,31,5,5,0.7,0.7
2024-05-21T1000,1355A,113.443,23.3035,广州市,帽峰山森林公园,,12,6,1,3,1,37,,42,37,13,11,11,5,0.6,0.4
2024-05-21T1000,2846A,113.3221,23.1322,广州市,体育西,,11,7,9,3,7,20,,25,25,21,25,2,2,0.7,0.6
2024-05-21T1000,3298A,113.5717,23.5491,广州市,从化街口,,10,6,12,3,8,25,,18,18,20,26,6,6,0.7,0.8
2024-05-21T1000,3299A,113.3472,23.3692,广州市,白云竹料,,12,6,9,3,7,36,,31,31,15,23,4,4,0.6,0.6
2024-05-21T1000,3300A,113.2981,23.237,广州市,白云嘉禾,,11,6,8,3,6,34,,28,28,21,34,5,5,0.8,0.8
2024-05-21T1000,3301A,113.4256,23.1716,广州市,黄埔科学城,,10,6,4,3,3,28,,45,41,19,13,4,5,0.7,0.7
2024-05-21T1000,3302A,113.3942,23.0483,广州市,番禺大学城,,14,8,15,3,6,23,,18,18,27,32,3,4,0.6,0.6
2024-05-21T1000,3303A,113.4922,22.8168,广州市,南沙黄阁,,18,14,21,7,14,19,,22,22,35,38,7,6,0.8,0.8
2024-05-21T1000,3304A,113.5342,22.7896,广州市,南沙街,,16,10,17,3,8,18,,18,17,31,32,7,7,0.6,0.6
2024-05-21T1000,3443A,113.2902,23.5544,广州市,花都梯面,,16,6,6,3,4,49,,48,48,5,10,4,4,0.6,0.7
2024-05-21T1000,3445A,113.7858,23.7478,广州市,从化良口,,17,6,4,3,2,52,,49,49,4,8,5,5,0.6,0.6
2024-05-21T1000,3446A,113.8051,23.2614,广州市,增城荔城,,,6,6,3,5,45,,49,48,7,8,,4,,0.6
2024-05-21T1000,2505A,109.568,23.1478,贵港市,德智高中,,,,,,,,,,,,,,,,
2024-05-21T1000,2506A,109.6047,23.0666,贵港市,江南子站,,26,19,22,18,15,35,,30,28,18,17,9,9,0.7,0.7
2024-05-21T1000,2507A,109.6014,23.0948,贵港市,贵城子站,,30,27,25,21,19,33,,31,29,17,15,8,9,0.6,0.5
2024-05-21T1000,2508A,109.5669,23.1065,贵港市,荷城子站,,19,19,21,9,7,38,,34,32,15,13,11,10,0.5,0.4
2024-05-21T1000,3405A,109.5886,23.1172,贵港市,新世纪学校,,,39,22,16,13,34,,33,30,,11,13,11,0.9,0.8
2024-05-21T1000,1439A,106.6899,26.5998,贵阳市,马鞍山,,22,9,22,3,11,68,,32,32,9,14,9,6,0.6,0.5
2024-05-21T1000,1440A,106.6971,26.5694,贵阳市,市环保站,,19,12,23,3,20,60,,64,59,16,16,5,6,0.6,0.6
2024-05-21T1000,1441A,106.6243,26.6266,贵阳市,鉴湖路,,20,12,18,9,8,64,,66,63,7,8,4,3,0.5,0.4
2024-05-21T1000,1442A,106.7487,26.6343,贵阳市,燕子冲,,20,,21,7,19,64,,51,48,8,10,7,7,0.4,0.4
2024-05-21T1000,1443A,106.6555,26.4365,贵阳市,碧云窝,,24,14,21,3,8,74,,68,64,10,13,5,6,0.5,0.5
2024-05-21T1000,1444A,106.694,26.5161,贵阳市,中院村,,19,7,24,7,13,59,,61,56,14,14,6,8,0.6,0.6
2024-05-21T1000,1445A,106.7109,26.6027,贵阳市,红边门,,,14,25,12,20,55,,62,56,,15,3,6,,0.6
2024-05-21T1000,1446A,106.7164,26.5699,贵阳市,新华路,,22,,22,3,16,68,,67,62,9,11,1,3,0.4,0.4
2024-05-21T1000,1447A,106.674,26.5424,贵阳市,太慈桥,,,12,21,3,12,,,65,58,17,12,6,6,0.4,0.4
2024-05-21T1000,1552A,106.805,26.3003,贵阳市,桐木岭,,,,,,,,,,,,,,,,
2024-05-21T1000,1862A,110.4144,25.3167,桂林市,电子科大尧山校区,,33,33,18,21,13,91,,78,78,5,5,5,5,0.6,0.6
2024-05-21T1000,1863A,110.2819,25.2697,桂林市,监测站,,38,38,22,18,17,74,,75,75,14,9,4,5,0.7,0.6
2024-05-21T1000,1864A,110.3089,25.2708,桂林市,龙隐路小学,,38,38,17,19,14,77,,75,75,8,6,6,7,0.9,0.8
2024-05-21T1000,1865A,110.2869,25.2178,桂林市,八中,,42,42,19,16,11,75,,71,71,12,8,6,6,0.8,0.7
2024-05-21T1000,3403A,110.1764,25.2381,桂林市,创业大厦,,35,31,18,24,14,86,,84,84,10,8,9,9,0.7,0.6
2024-05-21T1000,3531A,110.296,25.1253,桂林市,旅游学院,,27,22,9,14,8,85,,73,73,6,5,10,7,0.6,0.6
2024-05-21T1000,2674A,100.2561,34.4714,果洛藏族自治州,玛沁县大武镇,,36,17,25,9,14,113,,95,95,19,18,9,10,0.4,0.4
2024-05-21T1000,1129A,126.5422,45.755,哈尔滨市,岭北,,28,22,33,13,18,87,,64,64,16,21,16,13,0.4,0.6
2024-05-21T1000,1130A,126.561,45.8167,哈尔滨市,松北商大,,,27,31,12,14,84,,60,60,13,18,,6,,0.4
2024-05-21T1000,1131A,126.979,45.5419,哈尔滨市,阿城会宁,,27,27,26,11,13,82,,53,53,5,12,11,10,0.5,0.6
2024-05-21T1000,1132A,126.599,45.7222,哈尔滨市,南岗学府路,,40,40,41,8,13,84,,52,52,16,22,6,6,0.5,0.5
2024-05-21T1000,1133A,126.689,45.7733,哈尔滨市,太平宏伟公园,,41,41,37,13,21,77,,56,56,19,21,10,8,0.4,0.5
2024-05-21T1000,1134A,126.635,45.7667,哈尔滨市,道外承德广场,,,,35,20,24,81,,55,55,,26,,9,,0.5
2024-05-21T1000,1135A,126.685,45.7319,哈尔滨市,香坊红旗大街,,31,31,24,11,21,77,,50,50,16,23,10,9,0.4,0.5
2024-05-21T1000,1136A,126.6411,45.7258,哈尔滨市,动力和平路,,,44,39,13,22,,,44,44,21,25,14,13,0.9,0.5
2024-05-21T1000,1137A,126.593,45.7478,哈尔滨市,道里建国路,,47,47,35,20,20,81,,61,61,23,23,10,9,1.4,0.7
2024-05-21T1000,1138A,126.615,45.61,哈尔滨市,平房东轻厂,,45,45,36,15,15,85,,59,59,7,12,7,7,0.3,0.3
2024-05-21T1000,1139A,126.595,45.9855,哈尔滨市,呼兰师专,,48,48,44,17,20,72,,59,59,24,26,9,8,0.4,0.4
2024-05-21T1000,1140A,126.6206,45.6842,哈尔滨市,省农科院,,,,36,,19,79,,40,40,16,26,,10,0.4,0.4
2024-05-21T1000,2688A,93.5128,42.8172,哈密市,地区监测站,颗粒物(PM10),87,123,102,39,36,76,,120,114,34,6,4,4,0.4,0.2
2024-05-21T1000,2689A,93.4961,42.8328,哈密市,哈密师范学校,颗粒物(PM10),102,154,94,37,29,,,115,113,37,7,4,8,0.6,0.2
2024-05-21T1000,2671A,100.9048,36.9639,海北藏族自治州,海晏县西海镇,,,44,35,19,18,,,63,63,12,11,10,9,0.4,0.4
2024-05-21T1000,3867A,102.0738,36.5056,海东市,平安区公安北苑,细颗粒物(PM2.5),59,63,56,42,34,78,,67,61,23,16,37,14,1.1,0.5
2024-05-21T1000,1409A,110.576,19.9507,海口市,东寨港,,,,,,,,,,,,,,,,
2024-05-21T1000,1410A,110.3232,20.0574,海口市,海南大学,,22,15,19,8,13,69,,64,64,11,15,4,4,0.5,0.5
2024-05-21T1000,1411A,110.283,20.0053,海口市,秀英海南医院,,19,16,19,7,13,60,,57,57,11,15,5,5,0.4,0.4
2024-05-21T1000,1412A,110.338,19.9969,海口市,海南师范大学,,21,20,16,8,12,66,,59,59,6,10,5,6,0.5,0.5
2024-05-21T1000,1413A,110.33,20.0356,海口市,龙华路环保局宿舍,,21,16,17,7,12,65,,62,62,11,14,6,6,0.4,0.5
2024-05-21T1000,3539A,110.5111,19.9736,海口市,桂林洋子站,,22,14,21,3,8,68,,47,47,6,10,5,5,0.4,0.3
2024-05-21T1000,2673A,100.6188,36.2866,海南藏族自治州,共和县恰卜恰镇,,38,27,38,24,17,119,,86,86,7,12,10,12,0.5,0.5
2024-05-21T1000,2676A,97.3731,37.3753,海西蒙古族藏族自治州,德令哈市,颗粒物(PM10),52,53,65,15,19,119,,113,112,9,8,6,6,0.6,0.5
2024-05-21T1000,1048A,114.5302,36.6116,邯郸市,东污水处理厂,细颗粒物(PM2.5),70,63,45,51,39,96,,54,54,17,16,11,6,0.9,0.4
2024-05-21T1000,1049A,114.4918,36.5713,邯郸市,矿院,颗粒物(PM10),67,84,69,44,31,103,,56,56,16,15,14,7,1.4,0.7
2024-05-21T1000,1050A,114.484,36.6133,邯郸市,丛台公园,细颗粒物(PM2.5),65,65,51,47,34,99,,64,64,19,12,16,8,1.6,0.5
2024-05-21T1000,3458A,114.7895,36.5593,邯郸市,香泉濮院小区,,48,48,48,28,29,117,,76,76,4,9,5,5,0.2,0.3
2024-05-21T1000,3579A,114.50634,36.77178,邯郸市,永年区实验高中,,,,54,,40,,,55,55,16,16,,7,0.6,0.4
2024-05-21T1000,3580A,114.20016,36.44293,邯郸市,峰峰矿区临水派出所,细颗粒物(PM2.5),74,68,51,54,31,132,,81,81,6,5,13,6,1.4,0.8
2024-05-21T1000,2634A,106.9893,33.1842,汉中市,汉川机床厂子校,,37,37,26,16,14,87,,64,64,7,8,5,4,0.7,0.6
2024-05-21T1000,2635A,107.0154,33.0706,汉中市,市监测站,,,,33,,19,,,64,58,12,9,,9,0.6,0.5
2024-05-21T1000,2636A,107.0089,33.1138,汉中市,鑫源开发区,,41,41,31,21,15,100,,70,70,11,10,14,10,0.6,0.5
2024-05-21T1000,2637A,107.007,33.0323,汉中市,南郑大河坎水厂,颗粒物(PM10),55,60,38,24,18,84,,56,55,12,8,10,8,0.5,0.4
2024-05-21T1000,1223A,120.2072,30.2111,杭州市,滨江,,26,20,51,8,24,83,,40,40,7,22,4,6,0.5,0.6
2024-05-21T1000,1224A,120.0633,30.2747,杭州市,西溪,,23,16,49,10,29,71,,29,29,10,20,6,6,0.5,0.6
2024-05-21T1000,1226A,120.3461,30.3153,杭州市,下沙,,39,39,49,17,23,84,,43,43,13,26,8,8,0.4,0.4
2024-05-21T1000,1227A,120.1269,30.2456,杭州市,卧龙桥,,24,24,44,11,29,76,,29,29,10,18,4,5,0.5,0.6
2024-05-21T1000,1228A,120.1903,30.2692,杭州市,浙江农大,,26,26,46,14,29,63,,28,28,20,27,8,8,0.3,0.3
2024-05-21T1000,1230A,120.1197,30.3119,杭州市,和睦小学,,26,26,45,17,28,75,,35,35,24,31,6,5,0.4,0.4
2024-05-21T1000,1231A,120.3019,30.4183,杭州市,临平镇,,33,33,44,18,25,85,,45,45,10,17,6,5,0.5,0.5
2024-05-21T1000,1232A,120.2697,30.1819,杭州市,城厢镇,,25,19,47,10,30,79,,42,42,13,29,6,6,0.5,0.6
2024-05-21T1000,1233A,120.0883,30.1808,杭州市,云栖,,25,17,48,10,26,77,,26,26,16,26,8,8,0.5,0.6
2024-05-21T1000,3557A,119.9464,30.0494,杭州市,镇二中,,25,19,55,10,31,79,,36,36,12,25,8,9,0.6,0.7
2024-05-21T1000,3558A,119.7183,30.2367,杭州市,市府大楼,,29,29,56,19,39,61,,40,38,25,23,6,6,0.5,0.6
2024-05-21T1000,3656A,120.1556,30.2864,杭州市,消防大队,,27,27,50,15,28,69,,33,33,19,26,8,8,0.7,0.7
2024-05-21T1000,1270A,117.1959,31.7848,合肥市,明珠广场,颗粒物(PM10),56,61,64,36,36,80,,76,68,24,24,8,10,0.8,0.8
2024-05-21T1000,1271A,117.3072,31.8764,合肥市,三里街,,48,48,55,27,30,81,,58,54,17,21,6,7,0.4,0.5
2024-05-21T1000,1272A,117.2588,31.8707,合肥市,琥珀山庄,颗粒物(PM10),51,51,54,19,22,89,,70,64,13,17,9,10,0.5,0.5
2024-05-21T1000,1273A,117.1604,31.9052,合肥市,董铺水库,,48,48,52,29,29,99,,68,68,12,16,2,2,0.4,0.4
2024-05-21T1000,1274A,117.25,31.8571,合肥市,长江中路,,,66,60,37,40,82,,68,61,13,16,,7,0.7,0.7
2024-05-21T1000,1275A,117.266,31.9436,合肥市,庐阳区,颗粒物(PM10),58,66,59,31,32,89,,56,56,16,19,7,6,0.5,0.4
2024-05-21T1000,1276A,117.336,31.8586,合肥市,瑶海区,颗粒物(PM10),52,53,54,26,30,83,,62,58,17,18,8,8,0.7,0.8
2024-05-21T1000,1277A,117.3027,31.7964,合肥市,包河区,颗粒物(PM10),51,51,60,17,35,74,,46,46,27,35,7,9,0.5,0.5
2024-05-21T1000,1278A,117.2776,31.7385,合肥市,滨湖新区,,,58,62,,34,81,,75,66,16,19,6,9,0.5,0.6
2024-05-21T1000,1279A,117.1318,31.8403,合肥市,高新区,颗粒物(PM10),53,56,58,32,34,87,,72,67,16,19,6,8,0.7,0.8
2024-05-21T1000,3464A,117.3803,31.9147,合肥市,高教基地,,,40,50,24,31,,,55,48,11,13,4,5,0.4,0.5
2024-05-21T1000,3614A,79.924,37.0877,和田地区,地区环保局,颗粒物(PM10),500,877,1110,208,285,83,,104,100,9,5,9,8,0.4,0.5
2024-05-21T1000,3615A,79.9131,37.113,和田地区,市环保局,颗粒物(PM10),500,980,1210,208,280,69,,91,89,20,13,5,5,0.5,0.4
2024-05-21T1000,2516A,108.2011,24.715,河池市,东仁乐园,,,14,31,9,14,8,,6,6,5,6,,3,1.0,0.8
2024-05-21T1000,2517A,108.0497,24.6947,河池市,市环保站,,,21,22,11,13,,,53,53,15,11,8,9,0.6,0.5
2024-05-21T1000,2518A,108.0983,24.6989,河池市,市疾控中心,,24,24,28,9,15,48,,50,50,16,16,7,8,0.5,0.5
2024-05-21T1000,1696A,114.6778,23.7569,河源市,源西,,,,,,,,,,,,,,,,
2024-05-21T1000,1697A,114.6944,23.7586,河源市,东埔,,12,6,13,3,7,38,,32,32,14,15,6,6,0.7,0.7
2024-05-21T1000,1698A,114.6892,23.7233,河源市,老城,,12,6,10,3,8,37,,31,31,9,10,5,5,0.6,0.6
2024-05-21T1000,1718A,115.4208,35.2464,菏泽市,气象局,颗粒物(PM10),69,88,72,27,34,108,,64,64,16,18,7,6,0.5,0.5
2024-05-21T1000,1719A,115.4747,35.2375,菏泽市,市政协,,,62,66,35,38,106,,63,63,10,13,6,4,,0.2
2024-05-21T1000,3374A,115.5564,35.0891,菏泽市,定陶老年大学,颗粒物(PM10),51,51,73,22,39,87,,54,54,11,20,8,6,0.7,0.7
2024-05-21T1000,3647A,115.4702,35.2706,菏泽市,菏泽医专,颗粒物(PM10),54,57,66,24,33,101,,58,58,10,14,6,5,0.2,0.3
2024-05-21T1000,2514A,111.5264,24.4172,贺州市,环保小区,,19,19,24,7,12,50,,43,43,8,11,7,7,0.6,0.6
2024-05-21T1000,2515A,111.5608,24.4078,贺州市,政协大楼,,20,20,27,10,15,52,,42,42,7,12,6,6,0.5,0.5
2024-05-21T1000,3534A,111.4744,24.4553,贺州市,西湾,,18,16,18,12,12,54,,46,46,7,7,9,8,0.6,0.6
2024-05-21T1000,2385A,114.17,35.9019,鹤壁市,市监测站,细颗粒物(PM2.5),54,52,58,38,42,128,,71,71,6,8,17,10,0.6,0.7
2024-05-21T1000,2386A,114.2956,35.7511,鹤壁市,市交警支队,,,60,57,32,34,109,,62,62,11,14,11,10,,0.4
2024-05-21T1000,2387A,114.2878,35.7306,鹤壁市,迎宾馆,细颗粒物(PM2.5),57,60,56,40,42,111,,67,67,10,16,12,11,0.4,0.5
2024-05-21T1000,3474A,114.2617,35.6822,鹤壁市,大新区,颗粒物(PM10),57,64,56,22,29,104,,64,64,11,17,10,10,0.5,0.6
2024-05-21T1000,3596A,114.1572,35.9603,鹤壁市,南山宾馆,细颗粒物(PM2.5),57,50,50,40,40,134,,78,78,10,12,14,10,0.8,0.7
2024-05-21T1000,2244A,130.2537,47.3416,鹤岗市,哈啤分公司,,28,19,25,10,12,88,,56,56,9,11,12,12,0.0,3
2024-05-21T1000,2245A,130.2684,47.3086,鹤岗市,斯达机电,,24,21,25,7,14,75,,73,73,15,13,11,13,0.4,0.4
2024-05-21T1000,2246A,130.3114,47.3388,鹤岗市,东山纸板厂,,26,26,48,15,17,82,,42,42,14,20,14,15,0.3,0.7
2024-05-21T1000,2247A,130.1097,47.3382,鹤岗市,五号水库,,35,21,23,7,10,112,,65,65,5,7,11,11,0.3,0.3
2024-05-21T1000,2263A,127.4833,50.2524,黑河市,交通局,,35,30,29,24,19,81,,60,60,15,17,17,10,0.3,0.3
2024-05-21T1000,2264A,127.5144,50.2341,黑河市,环保局,,35,35,29,12,18,94,,68,68,10,14,5,6,0.3,0.3
2024-05-21T1000,2265A,127.5291,50.2472,黑河市,大黑河岛,,45,45,29,12,16,101,,70,70,8,13,5,7,0.4,0.4
2024-05-21T1000,1074A,115.6838,37.7541,衡水市,电机北厂,,,46,25,28,17,,,52,51,16,14,6,4,0.4,0.3
2024-05-21T1000,1075A,115.6303,37.7316,衡水市,市监测站,,44,44,28,12,15,97,,69,69,15,15,8,6,0.4,0.4
2024-05-21T1000,3188A,115.6683,37.7217,衡水市,市城管局,,49,49,26,24,17,87,,60,60,19,18,6,3,0.4,0.4
2024-05-21T1000,3459A,115.5989,37.5491,衡水市,地表水厂,颗粒物(PM10),54,58,32,25,15,84,,44,44,23,23,4,2,0.3,0.2
2024-05-21T1000,2456A,112.5003,26.9167,衡阳市,原169医院,,41,41,29,24,16,53,,54,51,8,7,4,3,0.7,0.7
2024-05-21T1000,2457A,112.6194,26.9258,衡阳市,衡阳化工总厂,颗粒物(PM10),54,58,36,30,25,78,,54,54,9,9,10,8,0.6,0.5
2024-05-21T1000,2458A,112.6211,26.8956,衡阳市,珠晖区环保局,,49,49,33,27,18,74,,51,51,9,16,8,7,0.7,0.7
2024-05-21T1000,2459A,112.6197,26.8733,衡阳市,市委党校,,47,47,27,32,20,74,,64,62,10,9,6,5,0.6,0.6
2024-05-21T1000,2460A,112.6006,26.8919,衡阳市,市监测站,,41,41,32,27,24,83,,63,63,8,9,9,8,0.7,0.6
2024-05-21T1000,2461A,112.5664,26.9056,衡阳市,真空机电公司,,46,46,31,24,15,69,,57,57,9,8,8,7,0.7,0.7
2024-05-21T1000,3399A,112.6703,26.882,衡阳市,师范学院,细颗粒物(PM2.5),52,51,32,36,24,80,,65,64,9,10,9,8,0.7,0.7
2024-05-21T1000,2608A,103.3772,23.3993,红河哈尼族彝族自治州,污水处理厂,,48,45,39,33,25,56,,38,38,28,19,93,22,0.7,0.5
2024-05-21T1000,2609A,103.3861,23.35,红河哈尼族彝族自治州,监测站,,48,48,33,31,17,59,,57,54,29,19,59,18,0.6,0.4
2024-05-21T1000,3038A,103.3758,23.368,红河哈尼族彝族自治州,州图书馆,,,71,36,27,24,,,51,48,26,17,64,17,0.6,0.4
2024-05-21T1000,1090A,111.6507,40.7517,呼和浩特市,呼市一监,颗粒物(PM10),53,56,83,27,29,140,,104,104,16,21,9,9,0.5,0.4
2024-05-21T1000,1091A,111.6572,40.8033,呼和浩特市,小召,颗粒物(PM10),60,70,67,36,32,128,,98,98,25,24,12,8,0.6,0.5
2024-05-21T1000,1094A,111.7516,40.8369,呼和浩特市,如意水处理厂,,,,73,,21,,,79,79,,26,9,7,0.6,0.4
2024-05-21T1000,1095A,111.7276,40.8062,呼和浩特市,二十九中,颗粒物(PM10),59,68,84,35,31,134,,63,63,19,28,6,3,0.6,0.5
2024-05-21T1000,1096A,111.5512,40.7866,呼和浩特市,工大金川校区,颗粒物(PM10),59,67,76,40,32,127,,52,52,24,34,15,8,0.6,0.4
2024-05-21T1000,1097A,111.717,40.7612,呼和浩特市,化肥厂生活区,颗粒物(PM10),85,119,106,44,48,139,,81,81,18,26,10,9,0.4,0.4
2024-05-21T1000,3698A,111.5968,40.8178,呼和浩特市,红旗小学,,,83,80,37,27,,,48,48,23,34,13,6,0.7,0.4
2024-05-21T1000,3699A,111.6518,40.8389,呼和浩特市,海东办,颗粒物(PM10),63,75,73,40,26,123,,72,72,25,23,12,6,0.5,0.4
2024-05-21T1000,2192A,119.7594,49.2261,呼伦贝尔市,区环保局,,32,28,28,13,17,101,,83,83,8,9,5,5,0.3,0.3
2024-05-21T1000,3061A,119.7512,49.1577,呼伦贝尔市,国华电力东,,,35,19,8,9,,,78,78,,5,4,4,0.3,0.2
2024-05-21T1000,1250A,120.0751,30.8669,湖州市,城西水厂,,,24,38,16,21,78,,48,48,15,18,4,4,,0.6
2024-05-21T1000,2873A,120.0875,30.8955,湖州市,仁皇山新区,,25,21,36,13,21,80,,46,46,15,22,6,6,0.6,0.6
2024-05-21T1000,2907A,120.1844,30.8596,湖州市,吴兴区站,,26,22,37,12,21,82,,48,48,8,13,5,5,0.4,0.5
2024-05-21T1000,3562A,120.4148,30.8538,湖州市,南浔区站,,28,18,31,11,21,87,,52,52,10,15,7,6,0.4,0.4
2024-05-21T1000,1607A,120.9092,40.7136,葫芦岛市,龙港区,颗粒物(PM10),57,64,40,38,27,98,,74,74,10,14,8,25,0.8,0.7
2024-05-21T1000,1608A,120.8392,40.7514,葫芦岛市,化工街,颗粒物(PM10),60,70,52,31,23,92,,47,47,25,40,14,15,1.6,1.2
2024-05-21T1000,1609A,120.8341,40.7073,葫芦岛市,新区,细颗粒物(PM2.5),92,,33,68,33,92,,56,56,19,23,9,9,1.0,0.6
2024-05-21T1000,1610A,120.8695,40.7677,葫芦岛市,东城区,细颗粒物(PM2.5),78,,44,57,38,102,,40,40,19,43,9,10,1.2,0.8
2024-05-21T1000,2482A,109.5981,27.5721,怀化市,林科所,,30,24,13,12,6,94,,114,113,1,1,5,5,0.7,0.7
2024-05-21T1000,2483A,109.9453,27.5444,怀化市,河西地税局,,33,33,17,22,10,82,,82,82,8,6,5,5,0.6,0.6
2024-05-21T1000,2484A,109.9781,27.5342,怀化市,市四医院,,32,32,18,21,12,71,,71,71,10,7,5,11,0.9,0.8
2024-05-21T1000,2485A,109.9972,27.5578,怀化市,监测楼,,,26,18,10,10,64,,66,66,8,5,,16,0.6,0.6
2024-05-21T1000,2486A,110.0394,27.583,怀化市,市委党校,,30,30,18,18,11,79,,74,74,3,5,10,19,0.6,0.7
2024-05-21T1000,1210A,119.036,33.5981,淮安市,钵池山,,24,24,29,16,21,74,,67,67,9,10,7,7,0.6,0.6
2024-05-21T1000,1211A,119.007,33.575,淮安市,北京南路,,,27,32,14,20,76,,70,70,9,10,8,8,,0.4
2024-05-21T1000,1212A,118.989,33.6067,淮安市,市监测站,,24,24,31,9,18,69,,68,67,21,13,6,6,0.4,0.5
2024-05-21T1000,1213A,119.135,33.5039,淮安市,楚州区监测站,,27,27,34,10,18,74,,64,64,10,13,7,8,0.6,0.5
2024-05-21T1000,1214A,119.0186,33.6297,淮安市,淮阴区监测站,,25,24,33,17,26,73,,61,61,14,16,7,7,0.4,0.4
2024-05-21T1000,3426A,118.8755,33.2894,淮安市,新华书店,,27,27,28,13,17,78,,66,66,8,11,5,6,0.3,0.3
2024-05-21T1000,2282A,116.8004,33.975,淮北市,监测站,,40,40,52,24,24,69,,65,59,4,6,5,6,0.4,0.5
2024-05-21T1000,2283A,116.8091,33.9007,淮北市,烈山区政府,,43,43,53,22,18,71,,60,57,2,6,3,4,0.4,0.4
2024-05-21T1000,3330A,116.8873,33.9836,淮北市,杜集区检察院,,47,47,52,27,31,80,,68,64,4,6,4,5,0.5,0.5
2024-05-21T1000,4017A,116.7923,33.9535,淮北市,市博物馆,,,31,43,24,23,,,67,59,3,5,4,5,,0.6
2024-05-21T1000,2277A,116.8305,32.7727,淮南市,潘集区政府,颗粒物(PM10),57,63,50,32,28,109,,63,63,8,14,5,6,0.3,0.2
2024-05-21T1000,2278A,117.0067,32.6524,淮南市,师范学院,细颗粒物(PM2.5),52,51,54,36,33,102,,65,65,4,9,10,14,0.3,0.3
2024-05-21T1000,2279A,116.8569,32.5951,淮南市,谢家集区政府,,48,48,47,19,17,101,,66,66,8,12,5,8,0.3,0.2
2024-05-21T1000,2280A,116.8281,32.633,淮南市,八公山区政府,细颗粒物(PM2.5),62,60,57,44,31,91,,54,54,7,12,6,7,0.5,0.4
2024-05-21T1000,2281A,116.6325,32.6201,淮南市,焦岗湖风景区管理处,颗粒物(PM10),67,83,52,20,16,60,,41,38,22,27,5,6,0.3,0.2
2024-05-21T1000,2894A,117.0566,32.6531,淮南市,经济技术开发区消防队,,48,48,40,19,22,106,,67,67,8,14,4,8,0.4,0.3
2024-05-21T1000,3329A,117.0108,32.5893,淮南市,山南新区,,,61,56,25,24,86,,72,69,,12,4,9,0.4,0.5
2024-05-21T1000,2446A,114.9028,30.4742,黄冈市,职工中心,细颗粒物(PM2.5),62,70,60,44,40,86,,103,93,17,10,7,6,0.5,0.5
2024-05-21T1000,2929A,114.8858,30.4519,黄冈市,红卫路,细颗粒物(PM2.5),57,56,56,40,39,101,,102,96,6,5,11,11,0.5,0.6
2024-05-21T1000,3398A,114.9136,30.4445,黄冈市,市林业局,,,,52,,44,173,,128,128,2,3,,3,0.5,0.4
2024-05-21T1000,2672A,102.0199,35.5102,黄南藏族自治州,同仁县隆务镇,,38,28,54,26,27,103,,87,87,4,2,9,8,0.7,0.7
2024-05-21T1000,2295A,118.2903,29.6963,黄山市,延安路89号,,,54,55,,16,69,,73,61,9,8,5,5,0.5,0.5
2024-05-21T1000,2296A,118.327,29.7178,黄山市,黄山东路89号,,24,23,34,3,14,74,,86,76,6,8,5,5,0.3,0.4
2024-05-21T1000,2297A,118.1371,30.2756,黄山市,黄山区政府5号楼,,37,37,44,23,28,55,,54,51,7,8,4,5,0.4,0.4
2024-05-21T1000,2423A,115.0601,30.2313,黄石市,沈家营,,40,40,55,23,27,104,,94,84,12,14,23,21,0.5,0.6
2024-05-21T1000,2424A,115.0817,30.2006,黄石市,陈家湾,颗粒物(PM10),51,51,53,27,31,86,,85,70,21,16,7,7,0.6,0.9
2024-05-21T1000,2426A,114.8988,30.2019,黄石市,铁山,,35,35,44,17,24,100,,102,93,17,15,13,10,0.5,0.6
2024-05-21T1000,2427A,115.0307,30.2092,黄石市,团城山,,42,42,52,16,21,86,,101,85,19,11,15,11,0.4,0.5
2024-05-21T1000,3149A,115.0235,30.1578,黄石市,笔架山北路,,,47,46,17,23,,,92,80,,8,,12,,0.7
2024-05-21T1000,1392A,114.4183,23.0528,惠州市,河南岸金山湖子站,,10,7,10,3,7,29,,37,33,16,11,5,5,0.5,0.5
2024-05-21T1000,1393A,114.4053,23.0822,惠州市,下埔横江三路子站,,12,6,10,3,7,38,,42,40,10,10,7,7,0.6,0.6
2024-05-21T1000,1394A,114.4103,23.1142,惠州市,江北云山西路子站,,15,,7,10,6,33,,41,38,11,8,5,5,0.6,0.6
2024-05-21T1000,1395A,114.4645,22.7833,惠州市,惠阳区承修路船湖子站,,12,12,14,8,10,31,,37,34,21,16,4,4,0.6,0.5
2024-05-21T1000,1396A,114.5317,22.7422,惠州市,大亚湾管委会子站,,17,16,14,9,8,54,,58,55,25,19,6,5,0.8,0.8
2024-05-21T1000,3314A,114.4338,22.8134,惠州市,惠阳秋长,,22,22,21,7,7,44,,49,47,13,10,5,5,0.7,0.7
2024-05-21T1000,3452A,114.6517,22.775,惠州市,大亚湾霞涌,,18,,9,6,4,55,,57,56,7,7,7,6,0.3,0.3
2024-05-21T1000,2240A,130.9762,45.3001,鸡西市,环保局,,27,27,31,14,14,61,,56,55,8,10,6,6,0.3,0.3
2024-05-21T1000,2243A,130.9429,45.3039,鸡西市,第一中学,,25,25,27,12,13,70,,53,53,5,8,7,8,0.2,0.2
2024-05-21T1000,3707A,131.0207,45.3073,鸡西市,欧美日汽修厂,,41,41,42,3,19,59,,41,41,17,17,8,7,0.4,0.4
2024-05-21T1000,3709A,130.9967,45.3106,鸡西市,市政设施管理处,,32,32,37,10,18,62,,45,45,15,17,8,8,0.4,0.4
2024-05-21T1000,2367A,114.9754,27.0803,吉安市,红声器材厂,,24,24,25,16,14,57,,62,60,13,15,13,13,0.5,0.4
2024-05-21T1000,2368A,114.9658,27.0999,吉安市,市森林工业局,,,30,28,22,19,,,57,55,12,14,10,14,0.6,0.4
2024-05-21T1000,2369A,114.99,27.1312,吉安市,市环境监测站,,32,32,28,21,16,53,,58,54,12,13,12,14,0.6,0.6
2024-05-21T1000,2370A,115.0093,27.0968,吉安市,青原区法院,,27,27,32,15,19,48,,52,49,17,16,22,14,0.5,0.5
2024-05-21T1000,1772A,126.54,43.8622,吉林市,哈达湾,,21,,14,3,12,67,,54,54,7,16,5,5,0.5,0.6
2024-05-21T1000,1773A,126.5844,43.8358,吉林市,东局子,,21,18,26,6,12,67,,56,56,6,14,4,4,0.4,0.5
2024-05-21T1000,1774A,126.5052,43.8245,吉林市,电力学院,,,,35,,21,,,26,26,6,20,7,8,0.4,0.6
2024-05-21T1000,1775A,126.6133,43.8972,吉林市,江北,,24,11,33,3,20,76,,47,47,8,23,7,8,0.4,0.6
2024-05-21T1000,1776A,126.555,43.8306,吉林市,江南公园,,20,15,20,9,15,63,,52,52,10,15,5,4,0.4,0.5
2024-05-21T1000,1778A,126.7061,43.7133,吉林市,丰满,,,,,,,,,,,,,,,,
2024-05-21T1000,2868A,126.4739,43.953,吉林市,九站,,,21,37,3,22,77,,44,44,8,26,,8,,0.6
2024-05-21T1000,1299A,116.9862,36.6114,济南市,科干所,颗粒物(PM10),70,90,68,44,27,138,,48,48,23,35,10,8,1.0,0.9
2024-05-21T1000,1300A,116.9376,36.665,济南市,农科所,,,,70,,21,74,,17,17,,41,9,8,0.7,0.6
2024-05-21T1000,1301A,117.1265,36.6734,济南市,开发区,颗粒物(PM10),111,171,82,42,26,50,,19,19,83,48,10,10,0.8,0.7
2024-05-21T1000,1303A,117.0624,36.6868,济南市,省种子仓库,颗粒物(PM10),95,139,81,39,27,49,,14,14,62,44,8,8,0.7,0.5
2024-05-21T1000,1304A,116.9489,36.6447,济南市,机床二厂,颗粒物(PM10),89,127,83,32,25,95,,30,30,35,39,12,11,0.7,0.7
2024-05-21T1000,1305A,117.0495,36.663,济南市,市监测站,颗粒物(PM10),85,120,74,37,23,72,,21,21,67,54,12,11,0.8,0.6
2024-05-21T1000,1306A,116.7675,36.5484,济南市,长清党校,颗粒物(PM10),68,85,68,39,30,119,,45,45,18,35,11,8,0.9,0.7
2024-05-21T1000,1616A,117.6795,36.229,济南市,技术学院,颗粒物(PM10),68,85,57,41,34,134,,90,90,25,22,14,10,1.2,0.7
2024-05-21T1000,1961A,117.532,36.6868,济南市,东山小学,,,88,70,44,21,195,,67,67,16,32,,7,,0.4
2024-05-21T1000,3059A,117.7161,36.2049,济南市,泰兴公司,颗粒物(PM10),63,75,57,29,32,130,,86,86,21,22,13,8,0.8,0.5
2024-05-21T1000,3064A,117.6867,36.2171,济南市,莱芜战役纪念馆,,,90,60,34,31,128,,88,88,23,18,,8,0.8,0.4
2024-05-21T1000,3494A,117.1673,36.9782,济南市,济阳区政府,颗粒物(PM10),72,93,49,39,19,77,,45,45,34,21,19,13,1.0,0.7
2024-05-21T1000,3495A,117.1171,36.63,济南市,锦屏中学,颗粒物(PM10),97,144,63,39,24,78,,68,68,69,23,9,8,0.7,0.4
2024-05-21T1000,3682A,116.9814,36.6819,济南市,济南四建,颗粒物(PM10),69,88,72,34,24,71,,21,21,47,41,11,10,0.9,0.7
2024-05-21T1000,1653A,116.6251,35.4302,济宁市,火炬城,颗粒物(PM10),51,52,63,29,28,115,,102,102,10,12,10,10,0.6,0.7
2024-05-21T1000,1655A,116.5491,35.4042,济宁市,电化厂,颗粒物(PM10),59,68,82,17,29,104,,87,87,10,15,11,7,0.9,0.8
2024-05-21T1000,3500A,116.5814,35.3707,济宁市,北湖一中,颗粒物(PM10),85,120,71,24,26,93,,85,85,13,17,13,9,0.4,0.4
2024-05-21T1000,3501A,116.8249,35.5593,济宁市,服务中心,颗粒物(PM10),60,70,81,24,28,118,,77,77,18,19,4,6,0.6,0.8
2024-05-21T1000,3678A,116.5907,35.4054,济宁市,市第七中学,颗粒物(PM10),52,54,66,24,25,114,,104,104,11,13,10,8,0.6,0.6
2024-05-21T1000,2255A,130.2751,46.8028,佳木斯市,佳纺,,32,26,22,12,12,102,,70,70,2,7,3,3,0.3,0.3
2024-05-21T1000,2256A,130.3995,46.8307,佳木斯市,发电厂,,43,43,25,24,19,98,,59,59,8,13,4,6,0.3,0.3
2024-05-21T1000,2257A,130.3258,46.7975,佳木斯市,环保局,,31,28,21,12,10,97,,82,82,7,8,4,4,0.4,0.4
2024-05-21T1000,2258A,130.3648,46.8032,佳木斯市,十一中,,30,30,21,15,14,96,,66,66,10,13,6,5,0.4,0.4
2024-05-21T1000,2259A,130.3794,46.7588,佳木斯市,四丰,,32,12,13,12,6,100,,73,73,5,5,1,1,0.6,0.5
2024-05-21T1000,1252A,120.7436,30.778,嘉兴市,清河小学,,24,22,29,12,14,76,,58,58,14,15,4,4,0.8,0.8
2024-05-21T1000,1253A,120.726,30.7478,嘉兴市,嘉兴学院,,24,24,28,12,17,70,,55,55,10,14,5,6,0.3,0.4
2024-05-21T1000,2872A,120.7846,30.7525,嘉兴市,南湖区残联,,35,35,36,15,17,76,,62,62,9,11,6,6,0.5,0.5
2024-05-21T1000,3407A,120.6916,30.7739,嘉兴市,秀洲住建,,25,24,29,15,15,77,,59,59,12,15,6,6,0.6,0.6
2024-05-21T1000,1945A,98.2908,39.7711,嘉峪关市,气象局,颗粒物(PM10),122,193,264,80,100,,,52,46,11,17,4,8,0.4,0.5
2024-05-21T1000,2884A,98.2672,39.7978,嘉峪关市,酒钢宾馆,颗粒物(PM10),123,195,260,68,98,97,,60,60,10,23,13,26,0.1,0.8
2024-05-21T1000,3248A,98.2643,39.7724,嘉峪关市,雄关区,颗粒物(PM10),103,155,212,39,77,96,,45,42,11,19,8,10,0.3,0.5
2024-05-21T1000,1383A,113.1064,22.6058,江门市,北街,,16,7,14,3,10,20,,16,16,31,43,3,4,0.6,0.7
2024-05-21T1000,1384A,113.0731,22.5835,江门市,西区,,15,,15,6,9,19,,14,14,29,40,5,6,0.7,0.7
2024-05-21T1000,1385A,113.0219,22.5311,江门市,圭峰西,,,,11,,5,25,,17,17,21,35,4,4,,0.8
2024-05-21T1000,1386A,113.0828,22.5947,江门市,东湖,,14,6,12,3,8,20,,13,13,27,38,6,5,0.6,0.6
2024-05-21T1000,3311A,113.1075,22.5647,江门市,江海富民,,15,8,24,3,12,19,,12,12,30,41,4,4,0.6,0.7
2024-05-21T1000,3449A,113.05,22.4667,江门市,新会银湖,,14,7,14,3,11,18,,10,10,27,37,3,4,0.7,0.8
2024-05-21T1000,1828A,113.227,35.2125,焦作市,市环保局,细颗粒物(PM2.5),60,68,59,43,32,103,,57,57,13,14,10,8,0.7,0.6
2024-05-21T1000,1830A,113.1992,35.2590,焦作市,影视城,,,,,,,,,,,,,,,,
2024-05-21T1000,3169A,113.2725,35.2067,焦作市,太极体育中心,颗粒物(PM10),57,64,57,38,32,115,,63,63,8,10,8,6,0.5,0.3
2024-05-21T1000,3335A,113.3137,35.2641,焦作市,马村街道办,颗粒物(PM10),51,52,56,34,36,114,,65,65,6,10,10,6,0.7,0.5
2024-05-21T1000,3336A,113.2465,35.2373,焦作市,焦作技师学院,细颗粒物(PM2.5),62,72,59,44,34,106,,61,61,10,12,6,3,0.7,0.5
2024-05-21T1000,3477A,113.1656,35.2539,焦作市,中站许衡医院,细颗粒物(PM2.5),64,67,51,46,40,107,,60,60,22,14,20,8,0.8,0.6
2024-05-21T1000,3981A,113.2449,35.1803,焦作市,原李万街道办,"颗粒物(PM10),细颗粒物(PM2.5)",55,59,64,39,29,112,,58,58,10,14,10,7,0.6,0.5
2024-05-21T1000,1708A,116.3701,23.5345,揭阳市,新兴,,32,32,16,16,15,36,,46,41,24,17,23,9,0.7,0.5
2024-05-21T1000,1709A,116.3264,23.5443,揭阳市,西马,,29,29,19,15,10,41,,47,43,19,13,20,10,1.1,0.8
2024-05-21T1000,1710A,116.3611,23.5626,揭阳市,东兴,,27,27,20,15,14,36,,43,39,25,19,19,11,1.0,0.8
2024-05-21T1000,1711A,116.4151,23.5294,揭阳市,渔湖,,25,25,14,14,13,28,,46,40,22,12,12,7,0.8,0.6
2024-05-21T1000,3320A,116.403,23.5699,揭阳市,曲溪,,,22,18,15,12,,,42,37,28,19,31,11,0.8,0.6
2024-05-21T1000,1944A,102.1692,38.5167,金昌市,天庆家园,颗粒物(PM10),137,223,176,94,70,114,,72,71,26,16,57,13,0.4,0.4
2024-05-21T1000,3170A,102.1864,38.5253,金昌市,市委党校,颗粒物(PM10),164,278,223,99,76,107,,78,75,19,10,43,13,0.8,0.6
2024-05-21T1000,4022A,102.1647,38.5371,金昌市,金川区人防中心,细颗粒物(PM2.5),158,224,206,120,80,104,,76,73,17,12,37,14,0.9,0.6
2024-05-21T1000,1262A,119.647,29.077,金华市,十五中,,,,31,,17,,,46,44,14,11,4,4,0.4,0.4
2024-05-21T1000,1263A,119.686,29.1029,金华市,监测站,,23,23,37,12,19,68,,37,37,11,15,3,3,0.3,0.4
2024-05-21T1000,3659A,119.656,29.1131,金华市,气象局,,23,23,33,12,18,71,,39,39,13,16,4,5,0.5,0.3
2024-05-21T1000,1767A,121.1115,41.0879,锦州市,南山,细颗粒物(PM2.5),73,,38,53,41,131,,60,60,15,31,16,13,1.0,0.5
2024-05-21T1000,1768A,121.0533,40.8434,锦州市,开发区,细颗粒物(PM2.5),73,67,52,53,36,92,,50,50,22,41,10,20,0.7,0.6
2024-05-21T1000,1769A,121.1836,41.1119,锦州市,百股街道,,42,42,43,22,18,109,,50,50,23,36,8,11,0.8,0.5
2024-05-21T1000,1770A,121.1178,41.1222,锦州市,天安街道,,,,43,52,38,,,46,46,17,30,17,12,1.2,0.8
2024-05-21T1000,1771A,121.1303,41.1386,锦州市,北湖公园,细颗粒物(PM2.5),70,69,38,51,36,116,,60,60,19,26,17,12,1.2,0.8
2024-05-21T1000,2160A,112.85,35.5051,晋城市,自来水公司,颗粒物(PM10),56,62,64,29,25,131,,61,61,21,20,7,6,0.9,0.8
2024-05-21T1000,2161A,112.8318,35.4936,晋城市,白云商贸,,,55,59,34,27,121,,61,61,23,19,,8,0.9,0.8
2024-05-21T1000,2162A,112.8508,35.4887,晋城市,市环保局,颗粒物(PM10),60,69,70,34,26,127,,64,64,23,21,9,8,0.9,0.7
2024-05-21T1000,2163A,112.8676,35.4897,晋城市,技术学院,颗粒物(PM10),59,68,59,31,26,115,,60,60,27,24,9,7,1.0,0.8
2024-05-21T1000,2165A,112.8453,35.546,晋城市,白马寺,,,,,,,,,,,,,,,,
2024-05-21T1000,3620A,112.8271,35.4828,晋城市,泽州一中,颗粒物(PM10),68,85,64,36,26,124,,66,66,28,23,9,9,1.2,1
2024-05-21T1000,2171A,112.7532,37.6945,晋中市,锦纶小区,颗粒物(PM10),71,92,56,41,33,142,,83,83,19,17,22,12,0.8,0.5
2024-05-21T1000,2173A,112.7249,37.7067,晋中市,南都小区,颗粒物(PM10),68,86,57,40,32,133,,83,83,17,16,18,10,0.9,0.6
2024-05-21T1000,2174A,112.6991,37.6982,晋中市,榆次区政府,,,,54,,33,128,,79,79,,19,,10,0.7,0.4
2024-05-21T1000,2865A,112.7195,37.6828,晋中市,榆次三中,颗粒物(PM10),69,88,54,36,27,142,,84,84,16,15,23,10,1.2,0.7
2024-05-21T1000,2439A,112.2014,31.0481,荆门市,竹园小学,细颗粒物(PM2.5),67,81,52,48,33,122,,91,91,12,15,10,9,0.6,0.6
2024-05-21T1000,2440A,112.1969,30.9891,荆门市,掇刀,,,81,56,43,33,124,,106,106,13,14,,12,0.6,0.6
2024-05-21T1000,2441A,112.2213,31.0386,荆门市,石化一小,颗粒物(PM10),74,97,60,45,29,126,,94,94,12,16,13,11,0.6,0.6
2024-05-21T1000,3012A,112.1849,31.0362,荆门市,西山林语,颗粒物(PM10),66,81,54,44,39,128,,110,110,9,10,8,7,0.5,0.7
2024-05-21T1000,3547A,112.1632,31.0138,荆门市,龙泉中学南校,颗粒物(PM10),58,66,45,36,28,126,,119,119,15,11,11,9,0.5,0.6
2024-05-21T1000,1844A,112.2494,30.3197,荆州市,市图书馆,颗粒物(PM10),52,54,33,27,22,86,,71,65,19,15,8,7,0.7,0.6
2024-05-21T1000,1845A,112.2008,30.3544,荆州市,市委党校,,50,50,31,18,21,91,,60,58,15,12,8,7,0.7,0.6
2024-05-21T1000,3194A,112.2747,30.3122,荆州市,管委会,细颗粒物(PM2.5),70,54,33,51,26,87,,71,63,15,13,8,6,0.6,0.5
2024-05-21T1000,3548A,112.1655,30.3364,荆州市,学苑路,细颗粒物(PM2.5),52,47,25,36,28,99,,65,61,14,11,7,7,0.6,0.5
2024-05-21T1000,2342A,117.3102,29.3867,景德镇市,王港中学,,,,,,,,,,,,,,,,
2024-05-21T1000,2343A,117.2117,29.2933,景德镇市,老干部活动中心,,25,24,21,17,16,47,,69,61,18,9,6,6,0.2,0.2
2024-05-21T1000,2344A,117.1894,29.2789,景德镇市,兽医站,,25,25,23,15,15,52,,82,73,20,8,10,7,0.5,0.4
2024-05-21T1000,2345A,117.1547,29.2617,景德镇市,台达陶瓷,,32,32,20,17,16,47,,82,73,23,13,12,11,0.3,0.3
2024-05-21T1000,2346A,117.2461,29.2956,景德镇市,陶研所,,24,24,21,10,11,53,,60,54,2,6,3,4,0.2,0.2
2024-05-21T1000,1803A,115.9872,29.6815,九江市,十里,,,,34,,23,91,,76,76,11,8,,16,,0.7
2024-05-21T1000,1804A,115.9584,29.7046,九江市,茅山头,,26,,28,18,22,74,,71,70,10,17,14,9,0.4,0.6
2024-05-21T1000,1805A,115.9877,29.7295,九江市,西园,,25,12,30,8,20,79,,77,76,15,33,10,11,0.5,0.7
2024-05-21T1000,1806A,116.0172,29.6547,九江市,五七二七厂,,26,,28,15,26,82,,58,58,7,14,9,12,0.5,0.7
2024-05-21T1000,1808A,115.9114,29.6038,九江市,综合工业园,,30,29,35,21,25,67,,44,44,16,24,6,8,0.8,0.8
2024-05-21T1000,1809A,116.0721,29.7535,九江市,石化总厂,,27,15,38,6,21,84,,73,73,7,22,10,12,0.4,0.6
2024-05-21T1000,1810A,115.9773,29.5698,九江市,庐山气象台,,19,8,20,8,17,60,,78,70,5,3,10,12,1.2,0.7
2024-05-21T1000,3190A,116.0254,29.6994,九江市,外国语学校,,25,8,30,8,23,79,,67,67,15,21,14,7,0.5,0.6
2024-05-21T1000,2658A,98.5061,39.7443,酒泉市,仓门街子站,颗粒物(PM10),133,215,243,56,62,87,,51,48,14,15,5,3,0.3,0.3
2024-05-21T1000,2659A,98.4989,39.7256,酒泉市,油田生活基地,颗粒物(PM10),139,227,251,57,90,87,,52,46,16,13,4,2,0.3,0.2
2024-05-21T1000,2698A,76.0072,39.4467,喀什地区,巡警大队,颗粒物(PM10),72,94,277,12,52,62,,90,84,35,17,4,3,0.4,0.3
2024-05-21T1000,2699A,75.9755,39.4694,喀什地区,吾办,颗粒物(PM10),57,64,228,12,81,72,,95,89,17,12,7,5,0.3,0.2
2024-05-21T1000,4027A,75.9483,39.4689,喀什地区,老干局,,,74,279,8,66,60,,86,80,,12,6,5,0.4,0.4
2024-05-21T1000,1824A,114.3389,34.7781,开封市,肿瘤医院,颗粒物(PM10),67,84,60,31,25,107,,72,72,17,11,6,3,0.6,0.4
2024-05-21T1000,1826A,114.2885,34.7965,开封市,世纪星幼儿园,颗粒物(PM10),68,85,55,32,26,106,,71,71,21,15,8,3,0.5,0.3
2024-05-21T1000,3147A,114.3438,34.8106,开封市,龙亭公园,颗粒物(PM10),69,87,54,31,25,97,,60,60,19,11,11,4,0.7,0.5
2024-05-21T1000,3210A,114.3644,34.7964,开封市,汴京公园,颗粒物(PM10),75,99,59,50,38,102,,66,66,28,20,8,2,0.7,0.5
2024-05-21T1000,3473A,114.2485,34.8306,开封市,技师学院,,,72,57,,43,95,,57,57,21,17,14,7,0.7,0.6
2024-05-21T1000,3592A,114.4644,34.7556,开封市,祥符区生态环境局,颗粒物(PM10),77,103,89,37,33,92,,52,52,16,23,12,12,0.5,0.5
2024-05-21T1000,1951A,84.895,45.6094,克拉玛依市,长征新村,,32,11,21,3,6,100,,106,106,6,5,8,8,0.2,0.1
2024-05-21T1000,1952A,84.8988,45.5893,克拉玛依市,南林小区,,32,,24,11,15,102,,111,111,8,6,8,8,0.2,0.1
2024-05-21T1000,1954A,84.905,44.3396,克拉玛依市,独山子区,,30,6,34,3,15,93,,90,90,9,12,8,8,0.3,0.3
2024-05-21T1000,1955A,85.6979,46.098,克拉玛依市,乌尔禾区商贸楼,,32,32,26,11,9,93,,97,97,1,2,8,9,0.2,0.2
2024-05-21T1000,3612A,85.1045,45.6899,克拉玛依市,白碱滩区新站,,33,6,20,3,10,105,,113,112,5,3,8,8,0.1,0.1
2024-05-21T1000,2697A,76.1454,39.7142,克孜勒苏柯尔克孜自治州,市人民政府,,34,34,218,3,87,107,,129,115,7,8,7,8,0.1,0.1
2024-05-21T1000,3665A,76.1658,39.7157,克孜勒苏柯尔克孜自治州,克州文化中心,,37,21,230,9,85,118,,118,118,2,7,8,9,0.4,0.4
2024-05-21T1000,1450A,102.8204,24.8886,昆明市,呈贡新区,,37,37,31,14,18,110,,67,67,18,28,4,5,0.6,0.7
2024-05-21T1000,1451A,102.6251,24.9608,昆明市,西山森林公园,,,,,,,,,,,,,,,,
2024-05-21T1000,1452A,102.7252,25.0902,昆明市,龙泉镇,,36,20,21,8,11,114,,60,60,12,20,12,9,0.4,0.5
2024-05-21T1000,1453A,102.7266,25.0375,昆明市,东风东路,,34,28,23,14,12,106,,85,85,17,17,8,7,0.5,0.4
2024-05-21T1000,1454A,102.6742,25.0669,昆明市,金鼎山,,37,37,26,13,15,116,,88,88,16,15,7,5,0.4,0.5
2024-05-21T1000,1455A,102.6644,25.0401,昆明市,碧鸡广场,,,26,25,23,19,,,88,88,15,16,,4,0.4,0.5
2024-05-21T1000,3179A,102.7494,25.0119,昆明市,官渡区博物馆,,36,35,27,17,16,115,,73,73,21,31,9,9,0.6,0.6
2024-05-21T1000,3375A,102.8017,24.8336,昆明市,青年创业园,,42,41,30,29,18,126,,75,75,13,26,11,10,0.5,0.6
2024-05-21T1000,3550A,102.7997,24.9786,昆明市,昆明学院,,37,31,34,13,19,116,,66,66,22,27,9,8,0.5,0.5
2024-05-21T1000,3551A,102.5967,24.6736,昆明市,晋宁区生态环境分局,,41,,44,19,24,131,,70,70,9,19,4,3,0.7,0.8
2024-05-21T1000,3552A,102.6678,24.9856,昆明市,云天化总部,,39,26,25,14,15,124,,98,98,14,18,10,10,0.5,0.6
2024-05-21T1000,1456A,91.1319,29.6514,拉萨市,八廓街,,36,18,19,10,10,113,,124,118,8,4,7,7,0.2,0.2
2024-05-21T1000,1457A,91.1221,29.6747,拉萨市,市环保局,,,30,21,18,10,,,106,99,22,16,6,6,0.3,0.3
2024-05-21T1000,1458A,91.0874,29.6475,拉萨市,区监测站,,35,15,16,10,10,110,,120,113,17,13,5,5,0.2,0.1
2024-05-21T1000,1459A,91.1774,29.6541,拉萨市,西藏大学,,36,15,17,12,9,115,,126,120,8,5,3,4,0.3,0.2
2024-05-21T1000,1460A,90.9798,29.6588,拉萨市,区辐射站,,,35,22,17,11,,,98,90,20,12,8,7,,0.3
2024-05-21T1000,1461A,91.0834,29.6292,拉萨市,拉萨火车站,,35,17,17,9,11,112,,114,103,11,8,6,6,0.2,0.2
2024-05-21T1000,2520A,109.2203,23.7256,来宾市,来宾技工学校,,31,31,28,15,14,69,,29,29,7,11,8,7,0.8,0.7
2024-05-21T1000,3535A,109.1781,23.7297,来宾市,兴宾区政府,,,24,23,15,13,70,,29,29,8,11,6,5,,0.6
2024-05-21T1000,4002A,109.2416,23.7461,来宾市,中南小学,,25,25,29,11,17,73,,25,25,8,17,8,5,0.8,0.7
2024-05-21T1000,1476A,103.631,36.1031,兰州市,兰炼宾馆,颗粒物(PM10),57,63,82,30,41,157,,73,73,53,36,8,7,0.6,0.3
2024-05-21T1000,1477A,104.1373,35.9454,兰州市,榆中兰大校区,,,,,,,,,,,,,,,,
2024-05-21T1000,1478A,103.8412,36.0726,兰州市,生物制品所,,42,42,83,27,42,88,,55,50,31,31,12,11,0.2,0.1
2024-05-21T1000,1479A,103.831,36.0464,兰州市,铁路设计院,,45,45,76,23,33,87,,68,64,43,38,7,6,0.6,0.5
2024-05-21T1000,3186A,103.7158,36.1058,兰州市,教育港,,,,92,,40,,,54,44,32,25,8,8,0.4,0.4
2024-05-21T1000,3241A,103.7439,36.0842,兰州市,百合公园,,44,44,74,27,32,90,,48,42,22,27,2,6,0.4,0.2
2024-05-21T1000,3242A,103.9611,35.998,兰州市,和平,颗粒物(PM10),55,60,106,29,46,101,,80,80,21,20,11,10,0.5,0.4
2024-05-21T1000,3245A,103.6633,36.533,兰州新区,新区管委会,颗粒物(PM10),61,72,73,25,40,111,,93,90,17,11,17,13,0.5,0.4
2024-05-21T1000,3246A,103.6975,36.4789,兰州新区,舟曲中学,细颗粒物(PM2.5),140,,93,107,49,114,,109,108,14,12,19,12,0.6,0.5
2024-05-21T1000,1067A,116.6708,39.5111,廊坊市,药材公司,,28,23,43,12,25,89,,54,54,22,23,2,6,0.5,0.6
2024-05-21T1000,1068A,116.7214,39.5589,廊坊市,开发区,,34,34,40,19,20,87,,57,57,26,23,3,4,0.5,0.5
2024-05-21T1000,1070A,116.7244,39.5269,廊坊市,北华航天学院,,,,46,,24,,,49,44,17,19,2,3,,0.4
2024-05-21T1000,2919A,116.7022,39.5453,廊坊市,河北工业大学,,37,37,44,12,23,86,,60,60,22,20,1,3,0.4,0.4
2024-05-21T1000,2535A,103.7723,29.5462,乐山市,花湖湾,,23,19,33,16,25,68,,59,59,19,14,3,6,0.6,0.6
2024-05-21T1000,2536A,103.7627,29.5844,乐山市,牛耳桥,,35,32,34,24,24,79,,70,70,30,21,13,12,0.5,0.5
2024-05-21T1000,2537A,103.7508,29.6006,乐山市,市第三水厂,,,,30,,22,,,76,76,28,17,7,7,,0.5
2024-05-21T1000,2538A,103.7571,29.5664,乐山市,市监测站,,28,28,34,14,20,70,,78,78,27,16,8,10,0.8,0.8
2024-05-21T1000,3361A,103.7311,29.5628,乐山市,理工大学,,34,22,33,16,22,108,,82,82,12,16,8,9,0.5,0.6
2024-05-21T1000,2598A,100.2143,26.8576,丽江市,西南郊,,,,,,,,,,,,,,,,
2024-05-21T1000,2599A,100.2497,26.8802,丽江市,丽江古城,,41,41,25,21,14,57,,40,40,22,16,6,6,0.6,0.5
2024-05-21T1000,2600A,100.2203,26.8906,丽江市,市中心,,21,15,17,10,10,66,,51,51,20,15,9,9,1.0,0.8
2024-05-21T1000,1267A,119.914,28.4514,丽水市,监测站大楼,,30,30,34,12,20,28,,15,15,21,23,3,3,0.8,0.7
2024-05-21T1000,1268A,119.93,28.4586,丽水市,莲都小学,,27,27,36,12,18,25,,18,18,23,22,4,4,0.8,0.8
2024-05-21T1000,1269A,119.879,28.4231,丽水市,余庄前,,14,14,38,9,26,30,,9,9,16,16,4,4,0.6,0.6
2024-05-21T1000,1173A,119.176,34.5885,连云港市,市环境监测站,,27,24,25,9,16,84,,74,74,6,10,5,5,0.1,0.2
2024-05-21T1000,3000A,119.3581,34.6972,连云港市,德源药业,,25,22,21,17,10,79,,73,73,9,8,5,5,0.5,0.4
2024-05-21T1000,3007A,119.178,34.844,连云港市,新城一中,,26,15,21,9,9,81,,83,82,7,8,4,4,0.7,0.6
2024-05-21T1000,3008A,119.3608,34.7519,连云港市,胡沟管理处,,25,12,21,3,9,77,,53,53,2,25,6,8,0.3,0.3
2024-05-21T1000,3009A,119.1478,34.5911,连云港市,矿山设计院,,,,38,,14,,,75,,,11,,6,,0.6
2024-05-21T1000,3434A,119.2413,34.6539,连云港市,工贸学校,,29,25,28,15,17,92,,75,75,6,8,6,6,0.7,0.7
2024-05-21T1000,3664A,119.4172,34.7341,连云港市,连云街道,,21,16,27,8,15,67,,75,75,20,24,4,3,0.3,0.3
2024-05-21T1000,2571A,102.3431,27.8099,凉山彝族自治州,青龙寺,,27,27,19,16,13,76,,55,55,9,7,4,18,0.1,0.1
2024-05-21T1000,2572A,102.2721,27.8415,凉山彝族自治州,邛海宾馆,,,26,20,16,13,70,,56,56,,12,,9,0.6,0.6
2024-05-21T1000,2573A,102.2625,27.898,凉山彝族自治州,西昌市政府,,29,29,19,16,12,69,,73,69,17,8,13,11,0.7,0.5
2024-05-21T1000,2574A,102.2685,27.8851,凉山彝族自治州,凉山州政府,,32,32,22,19,14,68,,65,63,17,9,9,8,0.6,0.5
2024-05-21T1000,2575A,102.237,27.8914,凉山彝族自治州,长安,,37,37,26,18,13,58,,66,59,29,13,14,10,0.6,0.6
2024-05-21T1000,2212A,123.2,41.1953,辽阳市,宏伟区,,44,44,37,13,19,81,,56,56,28,22,11,12,0.7,0.8
2024-05-21T1000,2213A,123.1683,41.2495,辽阳市,新华园,颗粒物(PM10),65,80,49,19,29,81,,40,40,46,36,19,17,1.2,0.9
2024-05-21T1000,2214A,123.2354,41.2639,辽阳市,滨河路,,41,41,45,18,27,81,,51,51,35,31,12,13,0.6,0.6
2024-05-21T1000,2215A,123.149,41.2991,辽阳市,铁西工业园,颗粒物(PM10),92,134,58,33,28,84,,39,39,49,29,26,16,2.3,1.2
2024-05-21T1000,2227A,125.1358,42.8845,辽源市,环保局,,,,16,,10,70,,29,29,17,19,,8,0.7,0.5
2024-05-21T1000,3239A,125.0764,42.9078,辽源市,银鹰制药,,26,19,18,9,13,81,,37,37,16,24,8,9,0.9,0.7
2024-05-21T1000,1625A,115.9848,36.4372,聊城市,区政府,颗粒物(PM10),60,70,52,33,22,113,,66,66,17,19,12,10,0.8,0.7
2024-05-21T1000,2878A,116.0072,36.4343,聊城市,聊大东校,,,70,52,35,27,123,,65,65,,19,,8,0.6,0.7
2024-05-21T1000,3200A,115.9819,36.4978,聊城市,监控中心,颗粒物(PM10),64,78,59,14,13,123,,57,57,21,20,14,11,0.7,0.6
2024-05-21T1000,3513A,116.0445,36.4361,聊城市,九州社区,颗粒物(PM10),67,84,64,29,21,117,,65,65,16,18,10,8,0.4,0.4
2024-05-21T1000,4018A,116.0567,36.4608,聊城市,星美广场,颗粒物(PM10),64,78,56,28,22,121,,64,64,20,24,9,7,0.6,0.5
2024-05-21T1000,2632A,94.3681,29.6376,林芝市,林芝监测站,,30,28,27,21,17,74,,88,79,10,4,7,6,0.4,0.3
2024-05-21T1000,2633A,94.3616,29.6616,林芝市,林芝人民医院,,48,,24,33,15,81,,88,80,10,7,7,7,0.4,0.4
2024-05-21T1000,2603A,100.0781,23.8982,临沧市,市环保局,,25,25,26,9,21,30,,32,28,15,12,12,6,0.5,0.5
2024-05-21T1000,2604A,100.0894,23.8822,临沧市,市气象局,,,30,28,26,22,,,39,36,20,13,11,7,0.7,0.6
2024-05-21T1000,1733A,111.5531,36.0783,临汾市,临钢医院,颗粒物(PM10),75,99,79,36,29,117,,89,89,15,13,6,6,0.7,0.7
2024-05-21T1000,1734A,111.5028,36.0714,临汾市,技工学校,颗粒物(PM10),69,88,79,46,39,134,,100,98,19,16,7,8,0.9,0.9
2024-05-21T1000,1736A,111.5018,36.0855,临汾市,市委,颗粒物(PM10),59,68,71,26,28,138,,106,106,15,14,12,13,1.0,0.9
2024-05-21T1000,3018A,111.505,36.1014,临汾市,唐尧大酒店,颗粒物(PM10),76,101,92,36,30,124,,95,95,12,11,6,8,0.7,0.7
2024-05-21T1000,3668A,111.5036,36.0414,临汾市,城南,颗粒物(PM10),71,92,84,45,48,135,,63,63,14,20,8,8,0.9,0.7
2024-05-21T1000,2667A,103.2069,35.5993,临夏回族自治州,环保局,颗粒物(PM10),66,81,119,37,41,85,,53,53,17,15,5,5,0.5,0.4
2024-05-21T1000,2668A,103.2417,35.6057,临夏回族自治州,建设大厦,颗粒物(PM10),64,77,111,35,42,92,,67,67,16,16,12,10,0.4,0.3
2024-05-21T1000,1618A,118.3429,35.0532,临沂市,沂河小区,,,36,40,16,21,,,100,100,,11,6,6,0.2,0.2
2024-05-21T1000,1619A,118.295,35.0583,临沂市,鲁南制药厂,,30,14,29,14,17,93,,92,92,5,7,4,5,0.3,0.4
2024-05-21T1000,1620A,118.2794,34.9976,临沂市,新光毛纺厂,,29,29,29,19,17,86,,82,82,8,9,3,4,0.4,0.5
2024-05-21T1000,1621A,118.3956,35.0888,临沂市,河东保险公司,,34,34,32,18,17,82,,79,79,7,9,4,4,0.2,0.3
2024-05-21T1000,3370A,118.3564,35.0215,临沂市,十里堡居委,,29,29,33,17,24,86,,86,86,9,10,4,5,0.3,0.4
2024-05-21T1000,3496A,118.3604,35.1084,临沂市,南坊新区,,36,36,35,14,15,86,,82,82,10,12,7,6,0.4,0.5
2024-05-21T1000,3860A,118.3920,35.0300,临沂市,皇山花园小区,,31,31,37,16,21,90,,89,89,13,15,7,8,0.4,0.5
2024-05-21T1000,1870A,109.4856,24.3895,柳州市,柳东小学,,22,22,16,12,12,58,,48,48,8,11,9,8,0.6,0.6
2024-05-21T1000,1871A,109.4157,24.3277,柳州市,环保监测站,,25,25,24,3,17,56,,42,42,9,13,10,8,0.7,0.7
2024-05-21T1000,1872A,109.389,24.341,柳州市,河西水厂,,45,45,25,11,14,55,,37,37,11,13,13,10,0.9,0.9
2024-05-21T1000,1873A,109.4311,24.2921,柳州市,市四中,,20,18,26,14,14,60,,46,46,9,13,9,7,0.6,0.7
2024-05-21T1000,1874A,109.4006,24.3631,柳州市,市九中,,30,,25,21,13,57,,37,37,10,15,10,8,0.5,0.6
2024-05-21T1000,1875A,109.4958,24.3134,柳州市,古亭山,,34,34,21,10,11,70,,51,51,9,14,8,7,0.6,0.6
2024-05-21T1000,3402A,109.5422,24.3996,柳州市,市二中,,22,22,16,10,10,68,,52,52,7,14,8,8,0.5,0.5
2024-05-21T1000,2307A,116.5079,31.737,六安市,监测大楼,细颗粒物(PM2.5),52,46,48,36,33,82,,73,68,17,15,6,7,0.6,0.5
2024-05-21T1000,2308A,116.4738,31.7643,六安市,皖西学院,颗粒物(PM10),54,58,58,30,29,84,,74,70,17,15,5,6,0.6,0.6
2024-05-21T1000,2309A,116.4996,31.7905,六安市,朝阳厂,细颗粒物(PM2.5),53,53,54,37,29,77,,64,60,14,14,8,8,0.5,0.4
2024-05-21T1000,2310A,116.5567,31.7886,六安市,开发区,,,51,56,26,29,,,63,58,15,17,8,10,0.7,0.6
2024-05-21T1000,2576A,104.8,26.5892,六盘水市,窑上,,,,,,,,,,,,,,,,
2024-05-21T1000,2577A,104.83,26.5917,六盘水市,黄土坡,,41,23,24,20,13,130,,74,74,8,12,8,6,0.3,0.3
2024-05-21T1000,2578A,104.89,26.5939,六盘水市,水钢,,37,34,32,22,19,118,,86,86,20,27,9,16,0.3,0.9
2024-05-21T1000,2579A,104.8475,26.5894,六盘水市,民中,,40,21,24,7,13,125,,88,88,7,15,6,7,0.4,0.5
2024-05-21T1000,2580A,104.9544,26.5506,六盘水市,双水,,,,27,,12,,,69,66,13,17,,8,0.4,0.5
2024-05-21T1000,2335A,117.0189,25.1181,龙岩市,龙岩师专,,,,,,,,,,,,,,,,
2024-05-21T1000,2336A,117.0217,25.1033,龙岩市,龙岩市监测站,,,19,10,10,11,53,,37,37,,13,12,8,,0.4
2024-05-21T1000,2337A,117.0258,25.0661,龙岩市,闽西职业技术学院,,15,12,16,9,14,48,,32,32,8,15,7,7,0.6,0.6
2024-05-21T1000,2338A,117.0196,25.0306,龙岩市,龙岩学院,,22,22,17,12,10,40,,25,25,14,18,3,3,0.7,0.5
2024-05-21T1000,2665A,105.0822,33.3261,陇南市,汉王镇固水子,,,,,,,,,,,,,,,,
2024-05-21T1000,2885A,104.9339,33.3826,陇南市,滨江中学,,48,48,55,18,19,99,,92,88,5,4,7,8,0.6,0.5
2024-05-21T1000,3247A,104.955,33.371,陇南市,市总工会,,43,43,40,10,8,106,,99,96,8,6,7,7,0.4,0.4
2024-05-21T1000,2487A,111.9589,27.8901,娄底市,电视发射台,,36,33,28,25,16,91,,52,52,5,5,7,8,0.6,0.7
2024-05-21T1000,2488A,111.9975,27.725,娄底市,市监测站,,,45,35,21,18,,,54,48,8,13,6,5,0.6,0.6
2024-05-21T1000,2489A,112.0194,27.7314,娄底市,市委党校,,38,32,29,26,20,72,,65,61,10,11,6,6,0.4,0.3
2024-05-21T1000,2490A,111.9561,27.7569,娄底市,涟钢,,22,19,28,15,18,52,,42,41,14,17,11,8,0.4,0.4
2024-05-21T1000,2491A,111.9892,27.7044,娄底市,市政府,,40,40,26,26,20,82,,48,44,12,11,9,8,0.4,0.4
2024-05-21T1000,1893A,105.4324,28.9634,泸州市,九狮山,,17,17,21,7,13,51,,20,20,10,10,6,5,0.4,0.3
2024-05-21T1000,1894A,105.4427,28.9063,泸州市,小市上码头,,31,31,25,19,14,54,,54,50,17,9,12,8,0.5,0.3
2024-05-21T1000,1895A,105.4241,28.8573,泸州市,兰田宪桥,,34,34,31,22,16,62,,45,44,16,12,7,6,0.5,0.3
2024-05-21T1000,1896A,105.4379,28.8833,泸州市,市环监站,,36,32,23,25,17,47,,50,46,22,11,10,8,0.5,0.4
2024-05-21T1000,3490A,105.3617,28.7703,泸州市,纳溪区环保局,,32,32,24,22,11,54,,24,21,16,19,3,3,0.4,0.3
2024-05-21T1000,2183A,111.1406,37.5211,吕梁市,环保局,颗粒物(PM10),71,92,89,38,35,120,,80,80,25,29,8,6,0.9,0.7
2024-05-21T1000,2185A,111.1297,37.5136,吕梁市,自来水公司,,,90,77,38,39,,,78,76,19,24,,8,0.9,0.8
2024-05-21T1000,2867A,111.1283,37.51,吕梁市,马茂庄小学,颗粒物(PM10),75,99,90,45,36,124,,72,72,24,35,8,8,0.9,0.8
2024-05-21T1000,1812A,112.3931,34.6516,洛阳市,市委党校,,,68,55,48,35,,,83,82,12,10,4,3,,0.6
2024-05-21T1000,1814A,112.4657,34.6871,洛阳市,豫西宾馆,颗粒物(PM10),65,80,66,41,30,105,,78,78,8,9,7,5,0.6,0.6
2024-05-21T1000,1815A,112.494,34.6886,洛阳市,河南林校,细颗粒物(PM2.5),67,60,49,48,31,97,,74,74,18,17,9,6,0.5,0.4
2024-05-21T1000,1816A,112.3844,34.623,洛阳市,开发区管委会,,,75,59,48,32,,,82,81,10,7,6,3,0.4,0.4
2024-05-21T1000,1817A,112.4267,34.6258,洛阳市,市委新办公区,细颗粒物(PM2.5),67,63,53,48,32,104,,81,81,13,10,9,6,0.4,0.4
2024-05-21T1000,3340A,112.6005,34.6326,洛阳市,伊滨,细颗粒物(PM2.5),62,64,55,44,31,89,,66,66,15,13,9,6,0.5,0.5
2024-05-21T1000,3341A,112.4951,34.6332,洛阳市,中移产业园,细颗粒物(PM2.5),69,70,54,50,31,98,,72,72,13,12,11,5,0.7,0.7
2024-05-21T1000,3593A,112.5736,34.8993,洛阳市,吉利监测站,细颗粒物(PM2.5),52,46,55,36,31,91,,61,60,14,13,6,3,0.3,0.2
2024-05-21T1000,3635A,112.3677,34.662,洛阳市,河科大西苑校区,,,68,61,31,24,,,75,72,10,9,4,4,0.7,0.7
2024-05-21T1000,3636A,112.4388,34.6781,洛阳市,英才小学,颗粒物(PM10),64,78,60,38,28,104,,80,80,12,12,6,5,0.6,0.6
2024-05-21T1000,2399A,114.051,33.5699,漯河市,三五一五工厂,,,,96,,39,105,,55,55,12,13,,7,,0.5
2024-05-21T1000,2400A,114.0055,33.5698,漯河市,漯河大学,细颗粒物(PM2.5),67,68,92,48,49,105,,62,62,13,14,11,10,0.5,0.5
2024-05-21T1000,2401A,114.0138,33.5828,漯河市,市水利局,,,,94,46,48,101,,55,55,,12,11,9,,0.7
2024-05-21T1000,2402A,114.0261,33.5698,漯河市,市广电局,颗粒物(PM10),66,81,95,40,40,105,,59,59,8,10,7,6,0.2,0.2
2024-05-21T1000,3478A,113.9749,33.5664,漯河市,市图书馆,颗粒物(PM10),63,76,86,25,42,104,,60,60,9,9,10,10,0.5,0.5
2024-05-21T1000,3479A,114.0967,33.5906,漯河市,召陵区卫健委,细颗粒物(PM2.5),115,87,96,87,54,100,,46,46,8,12,9,7,0.6,0.6
2024-05-21T1000,1798A,118.5092,31.6837,马鞍山市,湖东路四小,细颗粒物(PM2.5),62,46,56,44,37,55,,50,40,17,18,6,6,0.8,0.8
2024-05-21T1000,1799A,118.5024,31.6449,马鞍山市,开发区,颗粒物(PM10),56,62,56,30,32,56,,42,40,18,21,7,9,0.7,0.7
2024-05-21T1000,1800A,118.5228,31.7231,马鞍山市,慈湖,颗粒物(PM10),53,55,57,32,38,56,,41,35,21,23,4,5,0.7,0.7
2024-05-21T1000,1802A,118.6245,31.7241,马鞍山市,濮塘,,50,50,51,34,36,54,,38,32,23,21,4,4,0.8,0.8
2024-05-21T1000,3633A,118.4918,31.6809,马鞍山市,雨山,,,54,60,27,30,58,,52,41,,18,,8,0.7,0.8
2024-05-21T1000,1686A,111.0286,21.4688,茂名市,电白南海,,27,27,24,12,12,33,,34,31,11,12,13,11,0.6,0.6
2024-05-21T1000,1687A,110.9294,21.6533,茂名市,茂石化七小,,,17,13,12,11,,,41,36,16,14,17,9,1.3,0.8
2024-05-21T1000,1688A,110.9107,21.6687,茂名市,健康路,,19,19,13,9,7,26,,34,27,14,12,17,15,1.5,0.8
2024-05-21T1000,1689A,110.8592,21.6828,茂名市,高岭,,45,41,22,31,17,17,,16,13,23,18,14,13,0.4,1.1
2024-05-21T1000,3450A,111.01,21.5165,茂名市,电白水东,,14,14,13,7,9,38,,35,35,14,14,10,7,0.6,0.7
2024-05-21T1000,2539A,104.0308,30.0478,眉山市,黑龙滩水库,,35,28,24,17,18,111,,81,78,7,8,5,5,0.5,0.5
2024-05-21T1000,2540A,103.8416,30.0874,眉山市,气象局,,,,29,,16,95,,80,77,,17,13,9,0.4,0.4
2024-05-21T1000,3137A,103.8578,30.0744,眉山市,市委党校,,30,29,25,3,8,94,,81,77,20,16,11,10,0.3,0.3
2024-05-21T1000,3148A,103.8291,30.0564,眉山市,区人社局,,27,23,29,12,10,86,,82,79,34,22,9,8,0.5,0.4
2024-05-21T1000,1690A,116.1231,24.3284,梅州市,梅江月梅,,,19,11,8,9,,,44,41,12,8,5,4,0.6,0.5
2024-05-21T1000,1691A,116.0797,24.2719,梅州市,梅县新城,,15,15,10,8,11,38,,38,38,13,14,4,4,0.6,0.5
2024-05-21T1000,1692A,116.1248,24.2654,梅州市,环境监控中心,,17,17,10,7,8,35,,44,40,14,12,4,5,0.5,0.5
2024-05-21T1000,3315A,116.1233,24.2991,梅州市,梅龙,,12,7,8,3,5,36,,39,37,5,4,8,7,0.6,0.5
2024-05-21T1000,1878A,104.7778,31.4741,绵阳市,富乐山,,33,30,25,19,16,103,,87,82,14,8,9,8,0.6,0.5
2024-05-21T1000,1879A,104.7563,31.4535,绵阳市,市人大,,36,36,29,12,16,98,,75,71,15,16,6,7,0.6,0.5
2024-05-21T1000,1880A,104.6697,31.4668,绵阳市,高新区自来水公司,,45,45,36,11,16,97,,69,62,15,15,10,9,0.7,0.6
2024-05-21T1000,1881A,104.7287,31.5075,绵阳市,三水厂,,,49,32,21,19,,,56,43,14,17,5,5,,0.4
2024-05-21T1000,3491A,104.69,31.5322,绵阳市,西科大附属小学,,30,30,31,14,15,95,,60,54,10,17,5,6,0.4,0.4
2024-05-21T1000,3492A,104.5648,31.5343,绵阳市,安州区旅游局,,50,50,38,31,21,86,,63,59,20,16,10,7,0.6,0.6
2024-05-21T1000,1784A,129.61,44.561,牡丹江市,环保大楼,,23,14,17,7,14,72,,40,40,8,12,5,5,0.2,0.3
2024-05-21T1000,1785A,129.6115,44.5782,牡丹江市,文化广场,,,,26,,17,,,78,,,17,,6,,0.3
2024-05-21T1000,1786A,129.5904,44.5963,牡丹江市,第一医院,细颗粒物(PM2.5),63,48,15,45,11,64,,32,32,11,16,5,5,0.1,0.2
2024-05-21T1000,1787A,129.6364,44.6075,牡丹江市,机车工厂,,22,20,34,9,17,69,,31,31,8,14,4,6,0.2,0.3
2024-05-21T1000,1788A,129.6386,44.5462,牡丹江市,第一中学,,,33,28,9,17,,,37,37,,10,6,6,0.2,0.2
2024-05-21T1000,2531A,105.0703,29.61,内江市,市监测站,,26,,15,17,15,82,,64,62,7,8,10,7,0.4,0.4
2024-05-21T1000,2532A,105.0717,29.5947,内江市,东兴区政府,,26,20,15,6,4,83,,73,70,10,8,10,10,0.5,0.5
2024-05-21T1000,2533A,105.0653,29.5817,内江市,内江二中,,27,15,15,3,11,84,,76,74,13,10,8,7,0.4,0.4
2024-05-21T1000,2534A,105.0406,29.5822,内江市,内江日报社,,,,18,,10,88,,69,67,10,14,,9,0.5,0.4
2024-05-21T1000,2628A,92.0657,31.4846,那曲市,那曲监测站,细颗粒物(PM2.5),57,52,37,40,18,109,,82,80,6,7,6,6,0.7,0.5
2024-05-21T1000,3128A,92.0506,31.4797,那曲市,那曲会议中心,颗粒物(PM10),71,92,54,39,24,108,,85,84,17,7,5,3,0.6,0.5
2024-05-21T1000,1290A,115.8931,28.6843,南昌市,省外办,,22,22,31,7,13,58,,68,65,12,13,5,6,0.5,0.4
2024-05-21T1000,1291A,115.8886,28.7003,南昌市,省林业公司,,23,9,18,7,13,71,,65,65,10,14,3,4,0.6,0.6
2024-05-21T1000,1292A,115.8126,28.7442,南昌市,林科所,,17,12,15,3,10,53,,66,65,20,18,5,6,0.5,0.6
2024-05-21T1000,1294A,115.8518,28.687,南昌市,建工学校,,27,27,25,8,14,71,,71,70,8,9,5,5,0.4,0.5
2024-05-21T1000,1295A,115.8921,28.6424,南昌市,象湖,,21,18,23,10,12,66,,80,77,14,7,4,5,0.6,0.6
2024-05-21T1000,1296A,115.7423,28.7996,南昌市,武术学校,,18,18,14,9,23,46,,40,40,2,4,12,12,0.2,0.3
2024-05-21T1000,1298A,115.9314,28.6842,南昌市,省站,,23,19,21,6,12,72,,76,75,10,6,8,8,0.5,0.6
2024-05-21T1000,3046A,115.9084,28.6062,南昌市,机电学校,,24,24,28,9,13,54,,70,64,15,10,7,9,0.6,0.6
2024-05-21T1000,3690A,115.9721,28.7031,南昌市,外国语学校,,,,19,19,14,74,,77,76,,5,7,3,,0.2
2024-05-21T1000,1905A,106.056,30.8064,南充市,西山风景区,,23,20,12,16,10,63,,80,76,11,5,5,3,0.5,0.4
2024-05-21T1000,1906A,106.0789,30.8023,南充市,南充市委,,33,33,16,12,7,66,,57,53,19,10,6,5,0.2,0.2
2024-05-21T1000,1907A,106.1031,30.8217,南充市,南充炼油厂,颗粒物(PM10),53,55,28,19,14,60,,75,68,32,11,7,7,0.6,0.3
2024-05-21T1000,1908A,106.1064,30.7856,南充市,高坪区监测站,,30,30,19,15,9,79,,74,70,18,12,7,6,0.1,0.1
2024-05-21T1000,1909A,106.0642,30.7636,南充市,嘉陵区环保局,,,42,22,,11,70,,71,69,25,12,,4,0.3,0.2
2024-05-21T1000,1910A,106.1087,30.8388,南充市,市环境监测站,,45,45,27,20,16,61,,66,58,21,12,7,6,0.4,0.3
2024-05-21T1000,1151A,118.8086,32.1065,南京市,迈皋桥,颗粒物(PM10),53,55,46,31,28,35,,34,28,30,27,4,6,1.1,1
2024-05-21T1000,1152A,118.7538,32.0551,南京市,草场门,颗粒物(PM10),51,51,45,34,28,41,,38,34,28,24,2,4,0.7,0.7
2024-05-21T1000,1153A,118.7794,32.0745,南京市,山西路,颗粒物(PM10),53,56,52,34,25,38,,32,28,24,22,4,4,0.6,0.6
2024-05-21T1000,1154A,118.7752,32.0023,南京市,中华门,,,39,46,24,23,,,35,32,18,21,6,8,0.6,0.7
2024-05-21T1000,1155A,118.8109,32.0309,南京市,瑞金路,颗粒物(PM10),52,53,49,27,29,48,,34,32,12,13,7,8,0.5,0.5
2024-05-21T1000,1156A,118.7997,32.0754,南京市,玄武湖,颗粒物(PM10),61,71,52,29,26,30,,23,19,31,29,7,9,0.5,0.5
2024-05-21T1000,1157A,118.6414,32.0931,南京市,浦口,颗粒物(PM10),51,51,44,30,24,35,,26,24,28,30,4,6,0.7,0.6
2024-05-21T1000,1158A,118.7356,31.9996,南京市,奥体中心,,43,43,50,29,28,65,,42,42,16,18,7,9,0.7,0.8
2024-05-21T1000,1159A,118.9125,32.1028,南京市,仙林大学城,颗粒物(PM10),51,51,53,17,21,56,,33,31,22,25,8,10,0.7,0.8
2024-05-21T1000,3422A,118.8436,31.9198,南京市,江宁彩虹桥,,42,40,45,29,27,57,,36,36,18,20,4,4,0.7,0.7
2024-05-21T1000,3423A,119.0138,31.6494,南京市,溧水永阳,,40,,44,28,26,82,,43,39,15,21,4,5,0.5,0.7
2024-05-21T1000,3424A,118.879,31.3302,南京市,高淳老职中,,,39,37,22,24,,,56,44,15,15,7,7,0.4,0.4
2024-05-21T1000,3427A,118.8554,32.3578,南京市,六合雄州,,42,40,31,29,27,69,,45,45,13,11,3,4,0.8,0.7
2024-05-21T1000,1401A,108.3103,22.7881,南宁市,二十一中,,42,42,24,16,10,57,,34,33,23,18,10,6,0.7,0.6
2024-05-21T1000,1402A,108.3141,22.8528,南宁市,北湖,,37,37,25,23,16,48,,28,25,23,19,17,7,0.9,0.8
2024-05-21T1000,1403A,108.3206,22.8225,南宁市,市监测站,,44,44,24,18,13,56,,38,38,23,22,9,5,0.9,0.8
2024-05-21T1000,1404A,108.3829,22.8037,南宁市,大自然花园,,31,31,21,14,12,54,,32,32,21,16,9,5,0.5,0.5
2024-05-21T1000,1405A,108.4394,22.7904,南宁市,仙葫,,38,38,24,15,13,55,,32,30,18,18,11,5,1.3,1.2
2024-05-21T1000,1406A,108.2397,22.8467,南宁市,区农职院,,,44,28,18,8,47,,22,22,,17,,4,0.7,0.5
2024-05-21T1000,1407A,108.3275,22.735,南宁市,英华嘉园,,46,46,27,19,13,48,,29,27,25,20,9,7,0.7,0.7
2024-05-21T1000,1408A,108.2257,22.7757,南宁市,沙井镇街道办,颗粒物(PM10),52,53,37,27,14,49,,20,20,19,25,32,7,0.7,0.6
2024-05-21T1000,3401A,108.4834,22.7618,南宁市,红星社区,,20,,22,14,13,62,,30,30,12,17,11,8,0.7,0.7
2024-05-21T1000,2331A,118.0966,26.6761,南平市,茫荡山,,,,,,,,,,,,,,,,
2024-05-21T1000,2332A,118.1681,26.6369,南平市,南平市监测站,,12,,21,8,15,36,,28,28,12,11,6,6,0.6,0.5
2024-05-21T1000,2333A,118.1825,26.6489,南平市,南平铝业有限公司,,15,14,20,10,17,37,,21,21,12,13,7,6,0.6,0.5
2024-05-21T1000,2334A,118.1756,26.6272,南平市,南平七中,,40,40,20,3,16,37,,21,21,12,10,6,6,0.6,0.5
2024-05-21T1000,1168A,120.9098,31.9663,南通市,狼山街道,,27,13,17,3,3,86,,75,75,2,4,9,9,0.4,0.4
2024-05-21T1000,1169A,120.86,32.0005,南通市,虹桥,,27,17,20,3,4,84,,71,71,3,5,4,5,0.4,0.4
2024-05-21T1000,1170A,120.87,32.02,南通市,城中,,31,31,25,10,10,79,,67,67,6,8,4,4,0.5,0.4
2024-05-21T1000,1171A,120.94,31.93,南通市,星湖花园,,26,14,12,3,4,82,,71,71,8,8,7,7,0.5,0.4
2024-05-21T1000,1172A,120.81,32.0417,南通市,紫琅学院,,28,16,13,10,6,87,,73,73,7,10,8,8,0.4,0.4
2024-05-21T1000,3291A,121.067,32.062,南通市,通州监测站,,25,22,20,3,2,79,,77,76,5,3,8,8,0.4,0.4
2024-05-21T1000,3432A,120.9348,31.9883,南通市,环境教育馆,,27,19,21,7,6,85,,71,71,7,10,7,7,0.3,0.3
2024-05-21T1000,2404A,112.5224,33.0122,南阳市,瓦房庄,颗粒物(PM10),62,74,74,37,35,117,,117,116,18,14,6,5,0.6,0.6
2024-05-21T1000,2405A,112.5003,32.9735,南阳市,汉画馆,颗粒物(PM10),65,80,78,39,39,114,,119,116,20,16,7,6,0.7,0.6
2024-05-21T1000,2406A,112.5573,33.027,南阳市,气象站,颗粒物(PM10),56,62,69,39,34,121,,112,111,13,15,6,5,0.4,0.4
2024-05-21T1000,2407A,112.5481,32.9689,南阳市,理工学院,颗粒物(PM10),61,71,73,36,36,123,,116,114,11,13,7,6,0.5,0.5
2024-05-21T1000,4008A,112.5234,32.9922,南阳市,卧龙区政府,,,66,73,39,41,,,118,114,23,18,8,7,,0.8
2024-05-21T1000,1234A,121.8358,29.911,宁波市,区环保大楼,,24,24,27,12,11,66,,41,40,21,18,6,3,0.7,0.6
2024-05-21T1000,1235A,121.56,29.82,宁波市,万里学院,,,22,22,16,12,,,69,67,11,7,5,4,0.6,0.6
2024-05-21T1000,1236A,121.713,29.9572,宁波市,龙赛医院,,23,23,19,9,8,60,,54,50,30,15,16,7,0.4,0.3
2024-05-21T1000,1239A,121.633,29.7733,宁波市,钱湖水厂,,24,24,19,9,7,69,,58,58,11,5,4,4,0.5,0.5
2024-05-21T1000,1240A,121.5856,29.8635,宁波市,太古小学,,23,18,17,9,9,71,,66,66,13,8,6,5,0.6,0.6
2024-05-21T1000,1241A,121.524,29.8674,宁波市,市环境监测中心,,23,20,20,7,8,72,,73,72,14,10,9,8,0.5,0.5
2024-05-21T1000,2871A,121.6147,29.9017,宁波市,万里国际学校,,,31,26,12,11,,,67,62,32,11,5,3,0.5,0.3
2024-05-21T1000,3710A,121.5594,29.8975,宁波市,白沙活动中心,,42,42,25,3,5,54,,69,66,28,10,10,9,0.5,0.4
2024-05-21T1000,2339A,119.5001,26.6946,宁德市,金涵水库,,,,,,,,,,,,,,,,
2024-05-21T1000,2341A,119.5388,26.6612,宁德市,宁德市监测站,,,,12,6,10,60,,71,69,10,11,,7,0.5,0.3
2024-05-21T1000,3209A,119.5231,26.6562,宁德市,宁德一中,,23,8,12,8,12,73,,72,72,4,8,6,6,0.4,0.5
2024-05-21T1000,2618A,98.8601,25.8567,怒江傈僳族自治州,州监测站,,20,20,24,13,17,41,,38,38,7,6,8,8,0.3,0.3
2024-05-21T1000,2619A,98.8546,25.8417,怒江傈僳族自治州,泸水一中,,23,23,23,11,15,16,,22,19,21,14,6,6,0.2,0.2
2024-05-21T1000,1888A,101.6891,26.571,攀枝花市,弄弄坪,,42,42,32,24,15,67,,44,44,20,19,36,21,1.3,1
2024-05-21T1000,1889A,101.5769,26.5928,攀枝花市,河门口,,38,38,28,23,17,58,,39,37,21,19,14,12,0.7,0.5
2024-05-21T1000,1890A,101.7169,26.585,攀枝花市,炳草岗,,47,47,29,25,15,53,,37,33,40,21,76,26,2.6,0.8
2024-05-21T1000,1891A,101.7369,26.5008,攀枝花市,仁和,,36,36,23,21,13,68,,43,43,29,17,44,11,2.7,0.6
2024-05-21T1000,2835A,101.7227,26.567,攀枝花市,四十中小,,46,46,26,21,11,62,,43,38,37,24,64,28,2.7,1.5
2024-05-21T1000,1604A,122.0303,41.1489,盘锦市,开发区,,45,38,25,31,29,131,,98,98,13,19,6,5,0.5,0.4
2024-05-21T1000,1605A,122.0485,41.0883,盘锦市,兴隆台,,,30,27,29,30,128,,100,100,13,25,7,7,,0.5
2024-05-21T1000,1606A,121.8297,41.1028,盘锦市,新生街道,,41,37,18,27,26,130,,106,106,10,16,7,6,0.5,0.4
2024-05-21T1000,1832A,113.3257,33.742,平顶山市,新华旅馆,,,,88,,50,120,,85,85,20,20,12,10,0.7,0.5
2024-05-21T1000,1833A,113.2919,33.737,平顶山市,规划设计院,细颗粒物(PM2.5),70,51,77,51,42,122,,98,98,18,16,9,6,0.5,0.4
2024-05-21T1000,1834A,113.182,33.774,平顶山市,平顶山工学院,颗粒物(PM10),72,94,78,48,37,115,,90,90,13,16,9,6,0.6,0.6
2024-05-21T1000,3204A,113.3025,33.73,平顶山市,规划局,颗粒物(PM10),73,95,94,47,43,123,,94,94,16,14,10,7,0.7,0.6
2024-05-21T1000,3594A,112.8867,33.9116,平顶山市,石龙区,细颗粒物(PM2.5),80,93,84,59,35,141,,57,57,13,19,14,7,0.6,0.5
2024-05-21T1000,2656A,106.6692,35.5461,平凉市,聚贤嘉苑,颗粒物(PM10),57,63,46,20,20,98,,84,72,23,20,10,9,0.5,0.3
2024-05-21T1000,2657A,106.7021,35.5307,平凉市,博物馆,颗粒物(PM10),55,59,53,24,22,108,,90,84,23,19,16,17,0.2,0.4
2024-05-21T1000,2347A,114.0997,27.5002,萍乡市,武功山,,26,26,19,3,4,45,,23,23,5,5,10,11,0.3,0.3
2024-05-21T1000,2348A,113.8385,27.6434,萍乡市,中医院,,42,33,40,29,26,51,,61,56,13,6,8,12,0.6,0.5
2024-05-21T1000,2349A,113.8493,27.6253,萍乡市,市政府车库,,38,38,32,21,26,48,,52,47,14,8,19,17,0.7,0.6
2024-05-21T1000,2350A,113.8676,27.6435,萍乡市,市环保局,,,47,37,32,27,,,56,54,13,9,14,15,0.5,0.4
2024-05-21T1000,2351A,113.866,27.6198,萍乡市,安源区政府,,43,43,46,26,25,47,,48,44,20,15,26,18,0.7,0.8
2024-05-21T1000,2319A,119.0141,25.4325,莆田市,荔城区仓后路,,21,6,10,3,3,65,,64,64,8,9,5,5,0.6,0.6
2024-05-21T1000,2320A,119.0015,25.4553,莆田市,莆田市监测站,,18,6,10,3,2,55,,57,57,7,3,7,7,0.7,0.6
2024-05-21T1000,2321A,119.1119,25.4561,莆田市,涵江区六中,,17,6,10,3,1,52,,72,65,21,10,7,7,0.5,0.5
2024-05-21T1000,2322A,119.1013,25.3215,莆田市,秀屿区政府,,,12,10,3,2,68,,76,74,,5,,6,0.7,0.7
2024-05-21T1000,2323A,118.981,25.4792,莆田市,东圳水库,,,,,,,,,,,,,,,,
2024-05-21T1000,2392A,115.0312,35.7636,濮阳市,环保局,颗粒物(PM10),58,65,44,32,34,101,,72,72,14,15,18,15,0.5,0.4
2024-05-21T1000,2394A,115.0574,35.7609,濮阳市,油田运输公司,颗粒物(PM10),63,75,67,36,34,106,,73,73,9,10,19,13,0.3,0.2
2024-05-21T1000,2395A,115.0866,35.7754,濮阳市,油田物探公司,颗粒物(PM10),74,98,84,37,40,104,,65,65,12,16,18,12,0.4,0.3
2024-05-21T1000,3021A,115,35.7668,濮阳市,濮水河管理处,,50,50,41,35,36,101,,47,47,12,14,17,10,0.5,0.4
2024-05-21T1000,2601A,100.98,22.7633,普洱市,市环保局,,37,37,28,24,25,68,,70,67,16,11,10,10,0.5,0.4
2024-05-21T1000,2602A,100.9817,22.8322,普洱市,普洱第二中学,,37,37,29,15,18,47,,54,48,18,13,11,11,0.6,0.6
2024-05-21T1000,2262A,131.0518,45.8751,七台河市,新一中,,36,14,22,3,9,113,,61,61,9,10,11,9,0.8,0.7
2024-05-21T1000,3345A,131.0577,45.7879,七台河市,中波台,,41,41,33,10,11,88,,63,63,27,26,5,7,0.4,0.6
2024-05-21T1000,3637A,131.0176,45.7761,七台河市,人民广场,,33,33,34,17,20,91,,57,57,12,19,10,11,0.3,0.4
2024-05-21T1000,3684A,130.8781,45.8222,七台河市,新建矿广场,,31,31,22,15,18,95,,56,56,14,19,7,8,0.4,0.4
2024-05-21T1000,1779A,123.9305,47.3636,齐齐哈尔市,安居小区,,,55,34,31,21,,,85,82,19,15,,2,0.5,0.4
2024-05-21T1000,1780A,123.9488,47.3386,齐齐哈尔市,中心广场,,49,49,38,13,9,89,,87,83,16,13,8,7,0.4,0.3
2024-05-21T1000,1781A,123.9483,47.3227,齐齐哈尔市,农牧车辆厂,颗粒物(PM10),57,63,42,29,8,96,,89,85,13,12,8,7,0.3,0.3
2024-05-21T1000,1783A,123.945,47.2988,齐齐哈尔市,市环境监测站,颗粒物(PM10),60,69,35,16,12,98,,89,86,11,9,5,5,0.3,0.2
2024-05-21T1000,3662A,123.6333,47.2075,齐齐哈尔市,富区青少年活动中心,颗粒物(PM10),55,59,37,15,8,99,,82,82,11,9,7,6,0.4,0.4
2024-05-21T1000,2591A,107.9783,26.5747,黔东南苗族侗族自治州,市环境监测站,,19,7,15,6,11,58,,66,64,11,8,2,3,0.6,0.6
2024-05-21T1000,2881A,107.8908,26.5311,黔东南苗族侗族自治州,凯里学院,,22,7,14,3,10,70,,73,72,8,4,3,3,0.4,0.4
2024-05-21T1000,2593A,107.5228,26.2403,黔南布依族苗族自治州,小围寨,,16,6,11,3,6,51,,46,44,7,6,4,5,0.4,0.4
2024-05-21T1000,3538A,107.5175,26.2978,黔南布依族苗族自治州,沙坝,,18,6,11,3,6,56,,51,50,7,6,4,5,0.5,0.5
2024-05-21T1000,2589A,104.9022,25.0925,黔西南布依族苗族自治州,场坝街,,15,15,18,7,9,47,,46,43,24,20,24,10,0.5,0.4
2024-05-21T1000,2590A,104.8811,25.0992,黔西南布依族苗族自治州,坪东大道,,21,14,14,7,9,67,,41,41,17,20,14,5,0.3,0.3
2024-05-21T1000,2502A,108.6236,21.9667,钦州市,市环保站,,19,19,24,9,10,57,,43,43,10,10,6,8,0.7,0.9
2024-05-21T1000,2503A,108.6549,21.9481,钦州市,沙埠小学,,27,27,25,8,14,62,,42,42,9,12,6,6,0.6,0.9
2024-05-21T1000,2504A,108.5989,21.7431,钦州市,港区一小,,,43,43,12,15,,,35,33,,17,8,8,0.8,0.9
2024-05-21T1000,3404A,108.5959,21.9633,钦州市,北职校,,23,23,26,8,15,61,,38,38,6,9,10,9,0.7,0.8
2024-05-21T1000,1042A,119.5134,39.8207,秦皇岛市,北戴河环保局,颗粒物(PM10),63,75,42,31,20,92,,48,48,30,22,11,4,1.0,0.5
2024-05-21T1000,1043A,119.7493,40.0116,秦皇岛市,第一关,颗粒物(PM10),68,86,50,39,35,84,,24,24,34,37,14,5,1.4,0.5
2024-05-21T1000,1044A,119.5897,39.9499,秦皇岛市,监测站,细颗粒物(PM2.5),112,105,61,84,38,95,,32,32,37,37,18,6,1.6,0.5
2024-05-21T1000,1046A,119.5251,39.9041,秦皇岛市,建设大厦,,,,45,,24,92,,19,19,34,33,,3,,0.4
2024-05-21T1000,3132A,119.610547,39.943889,秦皇岛市,文明里,颗粒物(PM10),75,99,58,54,27,80,,31,31,51,42,19,9,1.5,0.6
2024-05-21T1000,1307A,120.6659,36.2403,青岛市,仰口,,19,9,18,3,15,58,,48,48,8,10,4,4,0.4,0.4
2024-05-21T1000,1310A,120.4134,36.0658,青岛市,市南区东部子站,,18,17,12,3,7,56,,62,60,10,12,6,6,0.4,0.4
2024-05-21T1000,1311A,120.3664,36.1032,青岛市,四方区子站,,24,9,17,7,12,74,,74,74,11,19,3,4,0.3,0.4
2024-05-21T1000,1312A,120.2994,36.054,青岛市,市南区西部子站,,18,,10,10,7,43,,65,61,36,20,7,7,0.4,0.4
2024-05-21T1000,1313A,120.4581,36.0858,青岛市,崂山区子站,,20,14,8,7,7,61,,64,63,12,18,7,8,0.4,0.3
2024-05-21T1000,1314A,120.1983,35.9608,青岛市,黄岛区子站,,,,8,0,8,75,,69,69,,8,,5,,0.4
2024-05-21T1000,1315A,120.3999,36.3083,青岛市,城阳区子站,,27,24,32,12,17,84,,76,76,19,22,6,7,0.4,0.5
2024-05-21T1000,1966A,120.0405,35.8735,青岛市,黄岛区4号,,23,9,9,3,4,72,,70,70,6,7,7,7,0.4,0.4
2024-05-21T1000,3362A,120.5014,36.4034,青岛市,即墨2号,,26,18,26,14,16,83,,75,75,5,8,4,5,0.4,0.5
2024-05-21T1000,3642A,120.3503,36.0736,青岛市,市北区南部,,,,12,,4,,,68,68,13,14,,6,,0.4
2024-05-21T1000,3643A,120.3948,36.1805,青岛市,李沧区北部,,23,7,22,3,15,72,,70,70,13,22,8,8,0.4,0.5
2024-05-21T1000,1702A,113.0426,23.691,清远市,环保大楼,,10,,8,3,8,32,,36,36,15,17,4,4,0.8,0.7
2024-05-21T1000,1703A,113.0208,23.7106,清远市,凤城街办,,12,6,11,6,9,32,,35,35,23,30,4,3,0.8,0.7
2024-05-21T1000,3025A,113.0477,23.6344,清远市,技师学院,,13,6,10,3,6,39,,39,39,14,16,4,4,0.5,0.5
2024-05-21T1000,3318A,112.9903,23.7403,清远市,清新太和,,16,12,9,9,6,25,,22,22,32,32,6,6,0.7,0.7
2024-05-21T1000,3455A,113.076,23.7198,清远市,清城东城,,14,,9,3,9,43,,46,45,12,13,5,5,0.7,0.7
2024-05-21T1000,2661A,107.6325,35.7357,庆阳市,庆阳五中,,46,46,43,21,23,129,,125,119,10,9,7,6,0.4,0.4
2024-05-21T1000,2662A,107.6364,35.7067,庆阳市,市环保局,,40,38,38,14,16,128,,123,118,8,8,7,7,0.4,0.4
2024-05-21T1000,1916A,103.7897,25.5035,曲靖市,环境监测站,,36,27,31,15,14,113,,57,57,10,17,3,4,0.8,0.7
2024-05-21T1000,1917A,103.8,25.5364,曲靖市,烟厂办公区,,34,26,27,13,11,108,,59,59,8,15,4,4,0.6,0.6
2024-05-21T1000,3376A,103.7947,25.462,曲靖市,南苑二区,,,,23,,12,,,50,49,18,18,11,5,0.7,0.6
2024-05-21T1000,3377A,103.7444,25.5261,曲靖市,曲靖师范学院,,34,30,28,16,15,108,,56,56,11,23,11,8,0.4,0.5
2024-05-21T1000,1264A,118.8692,28.9398,衢州市,环保大楼,,,33,31,,21,52,,51,51,,19,,5,0.4,0.4
2024-05-21T1000,1265A,118.8709,28.9666,衢州市,实验学校,,33,33,35,21,22,45,,53,50,25,20,7,7,0.3,0.4
2024-05-21T1000,1266A,118.8621,28.9808,衢州市,衢州学院,,40,40,35,27,25,42,,48,48,25,22,6,8,0.4,0.4
2024-05-21T1000,1611A,118.5819,24.9117,泉州市,涂山街,,23,6,9,3,5,71,,75,75,8,8,2,2,0.4,0.4
2024-05-21T1000,1612A,118.5972,24.8978,泉州市,津头埔,,20,12,10,3,7,62,,70,68,19,14,2,2,0.5,0.5
2024-05-21T1000,1613A,118.6663,24.9424,泉州市,万安,,22,11,11,3,6,68,,72,71,11,9,2,2,0.3,0.3
2024-05-21T1000,1614A,118.6117,24.9604,泉州市,清源山,,,,,,,,,,,,,,,,
2024-05-21T1000,3529A,118.6333,24.9264,泉州市,城华南路,,21,7,9,3,2,67,,71,71,14,12,3,3,0.3,0.3
2024-05-21T1000,2626A,88.8876,29.2718,日喀则市,日喀则监测站,,37,14,19,10,12,118,,103,102,5,6,6,5,0.5,0.5
2024-05-21T1000,3726A,88.8781,29.2426,日喀则市,林业技术推广中心,,35,19,22,7,7,112,,103,103,8,7,7,7,0.6,0.5
2024-05-21T1000,1659A,119.471,35.4209,日照市,监测站,,26,7,16,3,11,82,,86,86,13,14,7,8,0.3,0.4
2024-05-21T1000,1660A,119.523,35.4216,日照市,市政府广场,,28,7,17,3,7,88,,85,85,6,9,7,7,0.3,0.4
2024-05-21T1000,1661A,119.5587,35.4044,日照市,港务局,,,7,13,3,8,88,,81,81,,3,5,6,0.4,0.4
2024-05-21T1000,3507A,119.5328,35.4625,日照市,职业技术学院,,26,9,17,7,9,83,,80,80,7,9,7,7,0.4,0.4
2024-05-21T1000,3604A,119.3266,35.1044,日照市,岚山环保分局,,29,12,24,3,13,90,,85,85,3,10,5,6,0.3,0.3
2024-05-21T1000,1835A,111.1922,34.7752,三门峡市,市政府,颗粒物(PM10),65,79,54,36,27,112,,118,112,13,12,8,9,0.8,0.8
2024-05-21T1000,1836A,111.1587,34.7942,三门峡市,开发区,颗粒物(PM10),70,90,69,46,31,135,,133,126,14,16,11,11,0.7,0.6
2024-05-21T1000,1838A,111.143,34.7955,三门峡市,风景区,,,,,,,,,,,,,,,,
2024-05-21T1000,3039A,111.1911,34.7829,三门峡市,三门峡市第一小学,细颗粒物(PM2.5),65,74,56,47,33,121,,124,117,13,14,9,10,0.7,0.6
2024-05-21T1000,3598A,111.1,34.7167,三门峡市,富达温泉假日酒店,,,84,68,60,34,99,,118,112,20,17,,9,0.6,0.5
2024-05-21T1000,2324A,117.6211,26.2625,三明市,三钢,,16,13,17,6,16,49,,43,43,9,11,5,6,0.3,0.3
2024-05-21T1000,2325A,117.635,26.2714,三明市,三明二中,,16,,15,9,15,50,,47,47,7,8,6,7,0.6,0.6
2024-05-21T1000,2326A,117.6028,26.2378,三明市,三元区政府,,,12,16,6,13,38,,44,44,,13,,9,0.6,0.6
2024-05-21T1000,2327A,117.7275,26.3108,三明市,洋溪,,,,,,,,,,,,,,,,
2024-05-21T1000,1876A,109.5078,18.2489,三亚市,河东子站,,25,10,14,6,9,78,,48,48,9,9,3,3,0.5,0.5
2024-05-21T1000,1877A,109.4964,18.2681,三亚市,河西子站,,,8,14,6,7,,,39,38,,9,,2,,0.4
2024-05-21T1000,3540A,109.7348,18.3443,三亚市,君悦子站,,20,20,13,9,6,57,,42,42,12,8,2,2,0.5,0.5
2024-05-21T1000,2624A,91.7608,29.2313,山南市,山南监测站,,32,28,20,9,11,101,,118,110,11,5,8,8,0.2,0.2
2024-05-21T1000,2625A,91.7706,29.2436,山南市,山南人民医院,,41,41,25,17,11,96,,119,108,17,10,8,7,0.3,0.2
2024-05-21T1000,1674A,116.6794,23.3667,汕头市,金平子站,,18,,11,6,8,56,,64,60,17,14,4,3,0.6,0.5
2024-05-21T1000,1675A,116.7244,23.3633,汕头市,龙湖子站,,19,9,10,3,8,58,,62,59,11,9,6,5,0.6,0.6
2024-05-21T1000,1676A,116.7258,23.2775,汕头市,濠江子站,,18,10,9,7,9,56,,60,59,5,6,4,4,0.6,0.6
2024-05-21T1000,1677A,116.7519,23.4714,汕头市,澄海子站,,18,18,9,8,10,56,,58,56,11,11,8,6,0.8,0.8
2024-05-21T1000,1678A,116.6092,23.2539,汕头市,潮阳子站,,19,6,8,3,7,60,,64,62,4,5,4,4,0.5,0.5
2024-05-21T1000,3444A,116.454,23.2684,汕头市,潮南峡山,,16,14,11,10,6,50,,58,55,12,10,4,4,0.7,0.6
2024-05-21T1000,3624A,116.4069,23.2533,汕头市,潮南子站,,,34,25,16,11,,,51,49,14,12,,6,0.8,0.7
2024-05-21T1000,1693A,115.3653,22.775,汕尾市,市环保局,,17,10,11,7,7,52,,57,56,9,8,9,9,0.6,0.6
2024-05-21T1000,1694A,115.3706,22.7898,汕尾市,市政府,,18,10,10,8,11,57,,59,56,7,8,5,6,0.5,0.6
2024-05-21T1000,1695A,115.3622,22.7925,汕尾市,新城中学,,18,6,12,3,7,56,,60,58,6,7,6,6,0.5,0.5
2024-05-21T1000,2645A,109.9154,33.8715,商洛市,监测站,,49,49,37,21,20,67,,37,37,8,18,14,9,0.6,0.6
2024-05-21T1000,3045A,109.9643,33.8471,商洛市,商州区中学,颗粒物(PM10),52,53,40,28,23,39,,32,30,24,22,10,10,0.7,0.6
2024-05-21T1000,2408A,115.6702,34.4285,商丘市,环境监测站,,36,36,81,23,36,85,,65,64,9,13,9,9,0.3,0.4
2024-05-21T1000,2409A,115.6458,34.4045,商丘市,粮食局,颗粒物(PM10),66,81,78,16,32,78,,66,64,11,14,12,12,0.6,0.7
2024-05-21T1000,2410A,115.6293,34.3948,商丘市,睢阳区环保局,颗粒物(PM10),58,66,83,3,45,80,,70,68,8,9,6,8,0.3,0.4
2024-05-21T1000,3171A,115.6071,34.4465,商丘市,梁园区档案局,颗粒物(PM10),60,70,82,16,38,83,,63,63,10,14,9,10,0.5,0.5
2024-05-21T1000,1141A,121.4,31.238,上海市,普陀,,28,24,26,19,13,74,,69,69,13,12,4,4,0.4,0.4
2024-05-21T1000,1142A,121.478,31.2036,上海市,十五厂,,23,22,27,12,12,72,,67,67,15,11,6,6,0.5,0.4
2024-05-21T1000,1143A,121.467,31.3008,上海市,虹口,,36,,28,25,22,67,,64,64,21,15,10,9,0.5,0.5
2024-05-21T1000,1144A,121.412,31.1654,上海市,徐汇上师大,,35,35,29,22,16,76,,68,68,18,17,8,8,0.6,0.5
2024-05-21T1000,1145A,121.536,31.2659,上海市,杨浦四漂,,,,33,,22,,,76,,,20,,7,,0.5
2024-05-21T1000,1147A,121.425,31.2261,上海市,静安监测站,,24,23,25,14,13,75,,70,70,17,15,8,8,0.4,0.4
2024-05-21T1000,1148A,121.703,31.1907,上海市,浦东川沙,,25,16,23,15,14,78,,64,64,21,20,8,6,0.5,0.4
2024-05-21T1000,1149A,121.533,31.2284,上海市,浦东新区监测站,,26,19,25,18,15,66,,65,65,23,15,8,7,0.4,0.3
2024-05-21T1000,1150A,121.577,31.2071,上海市,浦东张江,,25,18,23,17,13,73,,70,69,22,15,6,5,0.6,0.5
2024-05-21T1000,3265A,121.4316,31.3322,上海市,宝山庙行,,33,,26,23,20,75,,65,65,13,12,7,7,0.5,0.5
2024-05-21T1000,3266A,121.8791,31.4662,上海市,崇明上实东滩,,28,12,15,6,8,88,,82,82,12,8,10,7,0.5,0.5
2024-05-21T1000,3268A,121.3162,31.2838,上海市,嘉定南翔,,24,24,25,12,10,73,,65,65,16,14,8,7,0.4,0.3
2024-05-21T1000,3269A,121.3359,30.7456,上海市,金山新城,,23,17,20,16,10,67,,64,64,19,13,9,6,0.6,0.5
2024-05-21T1000,3270A,121.4996,31.0739,上海市,闵行浦江,,26,,23,18,17,80,,67,67,8,10,5,5,0.4,0.4
