timepoint,stationcode,longitude,latitude,area,positionname,primarypollutant,aqi,pm10,pm10_24h,pm2_5,pm2_5_24h,o3,o3_24h,o3_8h,o3_8h_24h,no2,no2_24h,so2,so2_24h,co,co_24h
2024-05-21T2000,2566A,102.1879,31.914,阿坝藏族羌族自治州,州农科所,,50,50,33,15,9,40,,45,45,12,10,2,2,0,0
2024-05-21T2000,2568A,102.2502,31.8896,阿坝藏族羌族自治州,马师校,,39,36,24,18,18,122,,122,122,7,9,3,3,0.3,0.3
2024-05-21T2000,3994A,102.2165,31.9024,阿坝藏族羌族自治州,马尔康中学西区,,36,36,30,23,15,110,,115,115,4,6,2,3,0.3,0.2
2024-05-21T2000,2695A,80.292,41.1694,阿克苏地区,电视台,颗粒物(PM10),192,333,392,105,86,110,,120,119,12,9,4,3,1.2,0.5
2024-05-21T2000,2696A,80.2613,41.1551,阿克苏地区,艺术中心,颗粒物(PM10),148,246,350,88,121,112,,122,122,10,10,5,4,0.3,0.3
2024-05-21T2000,2204A,105.6467,38.8363,阿拉善盟,西城区西花园,臭氧1小时,72,88,113,26,32,177,,178,178,7,10,9,11,0.6,0.7
2024-05-21T2000,2205A,105.6985,38.8411,阿拉善盟,蒙二幼,颗粒物(PM10),97,144,153,41,48,171,,175,175,10,11,11,14,0.6,0.7
2024-05-21T2000,2206A,105.724,38.8516,阿拉善盟,环保局新楼,颗粒物(PM10),85,119,134,35,44,183,,179,179,7,8,9,12,0.4,0.6
2024-05-21T2000,2708A,88.1264,47.8517,阿勒泰地区,市站,,,20,21,9,8,78,,92,76,16,9,6,5,,0.4
2024-05-21T2000,2630A,80.1161,32.5,阿里地区,阿里监测站,臭氧1小时,78,14,17,6,7,182,,166,166,3,9,6,8,0.4,0.4
2024-05-21T2000,3192A,80.0903,32.5028,阿里地区,阿里藏医院,臭氧1小时,83,11,15,7,7,186,,170,170,3,7,8,9,0.5,0.5
2024-05-21T2000,2642A,109.0318,32.6537,安康市,香溪洞,,47,47,31,29,15,127,,128,128,4,4,7,6,0.5,0.5
2024-05-21T2000,2643A,109.0281,32.6939,安康市,安康市监测站,,44,44,34,22,17,117,,132,132,11,7,8,9,0.5,0.5
2024-05-21T2000,2644A,109.0072,32.6975,安康市,汉滨区检察院,细颗粒物(PM2.5),57,47,36,40,22,129,,136,136,8,5,6,8,0.5,0.4
2024-05-21T2000,2291A,117.0809,30.5177,安庆市,环科院,,19,18,37,8,26,58,,115,82,16,23,8,5,0.7,0.6
2024-05-21T2000,2292A,117.0331,30.5119,安庆市,马山宾馆,,22,22,41,7,27,63,,128,88,22,21,10,9,0.8,0.7
2024-05-21T2000,2294A,116.9896,30.6145,安庆市,安庆大学,,19,13,44,11,32,59,,115,91,24,14,7,7,0.7,0.7
2024-05-21T2000,3173A,117.0598,30.5351,安庆市,市人大,,,16,40,8,28,54,,126,85,,18,6,7,1.2,0.7
2024-05-21T2000,3123A,105.9408,26.2431,安顺市,凤凰山,,33,20,21,16,14,105,,116,116,8,8,6,6,0.9,0.7
2024-05-21T2000,3124A,105.9439,26.2564,安顺市,金钟山,,32,21,20,15,13,101,,113,113,8,8,6,5,0.9,0.9
2024-05-21T2000,3125A,105.8983,26.2481,安顺市,娄家坡,,35,35,33,15,14,102,,114,114,8,8,10,8,0.6,0.5
2024-05-21T2000,1819A,114.3551,36.1017,安阳市,红庙街,颗粒物(PM10),62,73,67,34,31,164,,179,178,8,8,4,4,0.6,0.5
2024-05-21T2000,1820A,114.361,36.0681,安阳市,银杏小区,颗粒物(PM10),59,68,57,21,24,159,,176,175,15,5,6,6,0.6,0.6
2024-05-21T2000,3141A,114.3922,36.0878,安阳市,信访局,颗粒物(PM10),61,71,61,22,24,155,,175,174,8,8,3,3,0.6,0.6
2024-05-21T2000,3669A,114.4705,36.0637,安阳市,左辅环卫站,颗粒物(PM10),58,66,64,28,32,133,,168,164,13,19,8,7,0.4,0.6
2024-05-21T2000,3703A,114.2917,36.0949,安阳市,安钢职工学校,颗粒物(PM10),53,56,71,27,38,157,,174,173,10,15,4,5,0.4,0.5
2024-05-21T2000,1748A,123.044,41.1196,鞍山市,深沟寺,细颗粒物(PM2.5),75,86,50,55,32,103,,136,134,30,19,10,9,1.0,0.9
2024-05-21T2000,1749A,123.011,41.0931,鞍山市,太阳城,颗粒物(PM10),67,83,63,47,38,109,,141,138,34,27,11,9,1.2,1.2
2024-05-21T2000,1750A,123.0485,41.1442,鞍山市,太平,细颗粒物(PM2.5),79,89,58,58,32,119,,138,136,34,30,10,7,1.0,0.8
2024-05-21T2000,1751A,122.9642,41.0971,鞍山市,铁西三道街,细颗粒物(PM2.5),82,108,97,60,52,115,,148,145,39,44,10,9,1.2,1.4
2024-05-21T2000,1752A,122.9341,41.0833,鞍山市,铁西工业园区,细颗粒物(PM2.5),78,98,94,57,53,121,,147,146,30,36,12,9,1.0,1.2
2024-05-21T2000,1753A,123.022,41.0821,鞍山市,明达新区,细颗粒物(PM2.5),70,68,54,51,36,112,,133,131,31,31,13,10,1.1,1.2
2024-05-21T2000,2195A,107.4212,40.761,巴彦淖尔市,附二中,颗粒物(PM10),88,126,107,40,47,183,,192,192,21,51,8,11,0.5,0.6
2024-05-21T2000,2196A,107.37,40.7372,巴彦淖尔市,市环保大楼,颗粒物(PM10),75,100,98,32,26,171,,175,175,19,31,6,7,0.5,0.5
2024-05-21T2000,1956A,86.1472,41.7538,巴音郭楞蒙古自治州,孔雀公园,颗粒物(PM10),104,158,143,44,45,83,,96,80,24,18,7,8,0.3,0.4
2024-05-21T2000,1957A,86.1972,41.7166,巴音郭楞蒙古自治州,棉纺厂,颗粒物(PM10),109,167,159,50,53,92,,100,93,10,12,3,4,0.2,0.2
2024-05-21T2000,1958A,86.2357,41.7173,巴音郭楞蒙古自治州,经济开发区,颗粒物(PM10),97,143,142,62,49,111,,113,108,5,6,8,8,0.2,0.2
2024-05-21T2000,2914A,106.7677,31.8794,巴中市,苏山坪,,38,31,18,18,11,121,,127,127,12,8,4,3,0.4,0.4
2024-05-21T2000,3182A,106.7656,31.8545,巴中市,丽阳花园,,39,37,26,23,16,124,,138,137,14,15,5,5,0.4,0.4
2024-05-21T2000,3183A,106.7418,31.8654,巴中市,圣泉水务公司,,36,35,23,24,15,114,,135,133,18,16,4,3,0.4,0.3
2024-05-21T2000,3616A,106.7616,31.8344,巴中市,市中心医院,,41,29,25,18,17,129,,142,142,8,16,6,6,0.4,0.5
2024-05-21T2000,2235A,122.7911,45.6077,白城市,洮北区环保局,,44,36,36,15,22,140,,137,137,13,11,6,7,0.4,0.3
2024-05-21T2000,2236A,122.8738,45.5725,白城市,市环保局,,39,34,33,13,18,122,,118,118,13,11,6,6,0.5,0.4
2024-05-21T2000,2231A,126.4219,41.9171,白山市,喜丰,,33,9,21,3,8,104,,108,108,3,15,8,10,0.8,0.9
2024-05-21T2000,2232A,126.4077,41.9419,白山市,环保局,,40,40,30,12,10,60,,98,97,26,16,12,10,0.7,0.6
2024-05-21T2000,2647A,104.1724,36.5446,白银市,第三小学,颗粒物(PM10),55,60,68,22,32,123,,133,131,17,22,13,45,0.5,0.6
2024-05-21T2000,2648A,104.1465,36.5482,白银市,动力公司,颗粒物(PM10),63,76,60,20,23,140,,145,142,10,16,10,28,0.4,0.7
2024-05-21T2000,2512A,106.6103,23.9011,百色市,市监测站,,28,26,39,18,22,87,,132,130,9,12,7,8,0.7,0.8
2024-05-21T2000,2513A,106.6538,23.8859,百色市,市中心血站,,30,30,50,15,28,75,,117,113,11,19,4,11,0.4,0.6
2024-05-21T2000,3406A,106.6085,23.8798,百色市,祈福高中,,36,36,45,24,26,80,,126,124,13,16,9,11,0.6,0.8
2024-05-21T2000,2270A,117.396,32.939,蚌埠市,工人疗养院,颗粒物(PM10),51,51,46,24,19,118,,133,132,21,10,10,7,0.4,0.3
2024-05-21T2000,2271A,117.3605,32.9427,蚌埠市,百货大楼,颗粒物(PM10),53,56,50,30,26,120,,132,132,19,11,7,4,0.4,0.4
2024-05-21T2000,2273A,117.4185,32.8911,蚌埠市,蚌埠学院,,40,39,34,28,22,114,,123,123,12,20,5,8,0.5,0.4
2024-05-21T2000,2274A,117.3533,32.9673,蚌埠市,淮上区政府,颗粒物(PM10),54,58,40,33,25,124,,130,130,10,5,5,5,0.4,0.3
2024-05-21T2000,2275A,117.3145,32.8977,蚌埠市,高新区,颗粒物(PM10),51,51,40,33,24,126,,137,137,8,9,5,6,0.5,0.4
2024-05-21T2000,3715A,117.3092,32.9314,蚌埠市,蚌埠田家炳中学,,50,50,45,28,23,136,,139,139,5,4,5,6,0.4,0.3
2024-05-21T2000,1585A,109.8756,40.6532,包头市,市环境监测站,颗粒物(PM10),70,90,77,34,26,152,,209,205,75,29,17,13,0.8,0.5
2024-05-21T2000,1587A,109.9991,40.5842,包头市,包头八中,臭氧1小时,103,106,88,48,37,205,,222,222,29,24,20,15,0.8,0.8
2024-05-21T2000,1588A,109.8538,40.6821,包头市,青山宾馆,臭氧1小时,85,83,70,39,29,188,,210,210,39,25,20,15,0.9,0.7
2024-05-21T2000,1589A,109.8642,40.6288,包头市,惠龙物流,臭氧1小时,102,88,72,31,26,204,,224,224,38,23,16,14,0.6,0.5
2024-05-21T2000,1590A,110.0377,40.5546,包头市,东河鸿龙湾,颗粒物(PM10),72,94,79,38,32,175,,217,215,37,22,10,15,0.5,0.6
2024-05-21T2000,3283A,109.9154,40.5685,包头市,滨河大厦,臭氧1小时,94,96,73,35,28,195,,222,222,29,28,13,15,0.8,0.8
2024-05-21T2000,3419A,109.9447,40.6261,包头市,包头市委党校,臭氧1小时,93,97,78,29,24,194,,217,217,38,27,18,17,0.6,0.6
2024-05-21T2000,3683A,109.8331,40.6576,包头市,昆区政府,臭氧1小时,102,80,72,37,29,203,,219,219,32,24,16,13,0.7,0.5
2024-05-21T2000,1930A,107.185,34.3063,宝鸡市,庙沟村,颗粒物(PM10),56,61,31,20,16,159,,159,159,11,7,9,9,0.5,0.5
2024-05-21T2000,1931A,107.0708,34.3017,宝鸡市,竹园沟,颗粒物(PM10),55,60,30,17,15,139,,174,173,19,13,6,6,0.5,0.5
2024-05-21T2000,1932A,107.1906,34.3672,宝鸡市,三陆医院,臭氧1小时,67,50,50,19,23,173,,178,178,19,28,7,10,0.5,0.6
2024-05-21T2000,1933A,107.1431,34.3547,宝鸡市,监测站,臭氧1小时,77,61,40,26,20,181,,172,172,23,23,8,8,0.4,0.4
2024-05-21T2000,1934A,107.1186,34.3739,宝鸡市,技工学校,臭氧1小时,73,42,38,27,21,178,,179,179,20,16,7,8,0.5,0.5
2024-05-21T2000,1935A,107.3906,34.3528,宝鸡市,陈仓区环保局家属楼,,50,38,32,31,25,158,,181,181,18,24,6,7,0.4,0.4
2024-05-21T2000,1936A,107.2058,34.3497,宝鸡市,文理学院,臭氧1小时,93,61,44,27,21,194,,185,185,18,19,7,8,0.3,0.3
2024-05-21T2000,1937A,107.2386,34.3622,宝鸡市,三迪小学,臭氧1小时,57,56,47,21,22,165,,175,175,18,22,8,9,0.5,0.5
2024-05-21T2000,1051A,115.493,38.8632,保定市,游泳馆,颗粒物(PM10),55,60,67,32,30,146,,151,151,6,13,2,3,0.2,0.2
2024-05-21T2000,1052A,115.5213,38.8959,保定市,华电二区,颗粒物(PM10),51,52,46,23,20,146,,151,151,11,18,3,3,0.3,0.2
2024-05-21T2000,1053A,115.4713,38.9108,保定市,接待中心,,48,48,39,31,23,143,,147,147,4,10,2,2,0.3,0.3
2024-05-21T2000,1054A,115.4612,38.8416,保定市,地表水厂,细颗粒物(PM2.5),58,41,51,41,33,134,,143,143,14,16,2,3,0.5,0.5
2024-05-21T2000,3581A,115.31981,38.95208,保定市,满城区生态环境分局,颗粒物(PM10),54,58,61,29,30,132,,151,151,6,12,3,3,0.3,0.3
2024-05-21T2000,3582A,115.47694,38.76408,保定市,清苑区第二中学,,48,37,40,33,28,131,,139,139,13,14,1,2,0.2,0.3
2024-05-21T2000,3583A,115.62909,39.02311,保定市,徐水物探局,颗粒物(PM10),58,66,55,14,23,151,,168,168,18,17,5,6,0.2,0.2
2024-05-21T2000,4004A,115.4202,38.8656,保定市,双鹰农机,细颗粒物(PM2.5),52,49,54,36,31,144,,149,149,11,17,5,5,0,0
2024-05-21T2000,4034A,115.5150,38.8590,保定市,植保所站,颗粒物(PM10),55,59,57,34,33,150,,156,156,12,20,4,4,0.4,0.3
2024-05-21T2000,2594A,99.1678,25.1081,保山市,市环境监测站,,33,33,23,11,8,81,,93,93,9,8,4,4,0.4,0.3
2024-05-21T2000,2595A,99.1711,25.1328,保山市,市环保局,,38,38,30,16,13,99,,104,104,6,6,5,5,0.5,0.5
2024-05-21T2000,1867A,109.1436,21.4086,北海市,海滩公园,,23,11,18,7,6,72,,98,97,8,9,8,9,0.7,0.7
2024-05-21T2000,1868A,109.0981,21.4661,北海市,新市环保局,,25,19,17,14,10,78,,93,93,9,8,6,6,0.6,0.6
2024-05-21T2000,1869A,109.1778,21.5233,北海市,北海工业园,,21,13,19,10,11,66,,84,83,9,10,14,9,0.6,0.7
2024-05-21T2000,3400A,109.1911,21.4415,北海市,龙潭自来水厂,,21,13,17,8,13,65,,77,76,7,9,5,5,0.6,0.6
2024-05-21T2000,1001A,116.3621,39.8784,北京市,万寿西宫,臭氧1小时,64,33,48,14,22,171,,184,184,20,24,2,3,0.4,0.5
2024-05-21T2000,1002A,116.2202,40.2915,北京市,定陵,,50,14,47,7,26,159,,194,194,18,16,3,2,0.8,0.9
2024-05-21T2000,1003A,116.4174,39.9289,北京市,东四,臭氧1小时,62,35,44,14,19,169,,174,174,22,24,3,4,0.2,0.3
2024-05-21T2000,1004A,116.4072,39.8863,北京市,天坛,臭氧1小时,58,23,36,11,18,166,,174,174,19,21,4,4,0.4,0.5
2024-05-21T2000,1005A,116.462,39.9365,北京市,农展馆,臭氧1小时,83,33,43,16,19,186,,185,185,19,23,1,3,0.4,0.5
2024-05-21T2000,1006A,116.3392,39.9295,北京市,官园,臭氧1小时,63,31,52,16,20,170,,183,183,16,20,4,5,0.3,0.5
2024-05-21T2000,1007A,116.2878,39.9611,北京市,海淀万柳,臭氧1小时,59,30,47,12,22,167,,178,178,18,26,6,6,0.3,0.4
2024-05-21T2000,1008A,116.6636,40.135,北京市,顺义新城,,45,33,43,14,22,144,,156,156,20,24,2,3,0.5,0.6
2024-05-21T2000,1009A,116.6275,40.3275,北京市,怀柔镇,,49,31,49,14,28,156,,175,175,16,17,4,5,0.4,0.6
2024-05-21T2000,1010A,116.2296,40.217,北京市,昌平镇,,44,27,56,8,27,140,,171,171,23,22,1,2,0.3,0.5
2024-05-21T2000,1011A,116.3966,39.9821,北京市,奥体中心,,47,32,43,15,19,148,,162,162,27,27,1,2,0.4,0.5
2024-05-21T2000,1012A,116.184,39.9136,北京市,古城,,49,36,57,11,22,156,,163,163,20,30,3,3,0.6,0.7
2024-05-21T2000,3281A,115.9718,40.4529,北京市,延庆夏都,臭氧1小时,109,33,56,16,31,218,,197,197,18,16,2,2,0.4,0.5
2024-05-21T2000,3417A,117.0709,40.1465,北京市,平谷新城,,45,31,38,18,22,144,,144,144,12,13,1,2,0.6,0.4
2024-05-21T2000,3418A,116.8336,40.4095,北京市,密云新城,,45,20,43,8,23,142,,160,160,16,14,2,2,0.5,0.7
2024-05-21T2000,3672A,116.1541,39.8204,北京市,丰台云岗,,39,37,50,14,19,122,,156,156,33,22,3,2,0.4,0.5
2024-05-21T2000,3673A,116.6804,39.9081,北京市,通州东关,,41,41,39,16,19,130,,147,147,29,23,2,2,0.5,0.5
2024-05-21T2000,3674A,115.9577,39.7603,北京市,房山燕山,,44,41,63,13,26,138,,156,156,15,22,1,2,0.3,0.5
2024-05-21T2000,3675A,116.4672,39.7733,北京市,大兴旧宫,,50,34,35,13,16,160,,157,157,18,18,1,2,0.3,0.4
2024-05-21T2000,3694A,115.986,40.4563,北京市,延庆石河营,臭氧1小时,108,,53,39,38,216,,192,192,16,15,3,3,0.4,0.5
2024-05-21T2000,3695A,116.6151,40.3053,北京市,怀柔新城,,44,29,46,12,28,138,,162,162,22,21,2,3,0.3,0.6
2024-05-21T2000,3696A,116.2545,39.8768,北京市,丰台小屯,,49,29,45,11,20,154,,168,168,12,21,1,2,0.2,0.4
2024-05-21T2000,3697A,116.84,40.3844,北京市,密云镇,,48,22,47,11,28,151,,145,145,14,15,3,2,0.2,0.5
2024-05-21T2000,1761A,123.8275,41.3064,本溪市,大峪,,33,23,26,13,12,104,,128,124,8,19,9,10,0.5,0.8
2024-05-21T2000,1762A,123.7567,41.3325,本溪市,溪湖,,42,42,42,21,18,86,,117,112,19,23,10,13,1.2,1
2024-05-21T2000,1763A,123.7169,41.3094,本溪市,彩屯,细颗粒物(PM2.5),53,50,48,37,38,72,,111,103,36,32,17,16,2.2,1.8
2024-05-21T2000,1764A,123.7669,41.2864,本溪市,东明,,,,60,17,15,91,,116,111,13,26,9,9,0.7,0.9
2024-05-21T2000,1765A,123.7992,41.2664,本溪市,新立屯,,31,24,26,17,14,97,,120,115,10,23,11,11,0.7,1
2024-05-21T2000,1766A,123.8142,41.3472,本溪市,威宁,,44,44,38,11,13,89,,109,106,10,23,6,7,0.5,0.6
2024-05-21T2000,2587A,105.2864,27.3125,毕节市,八中,,35,26,24,13,15,111,,120,118,9,11,5,5,0.5,0.4
2024-05-21T2000,2588A,105.31,27.2944,毕节市,师专,,34,23,23,16,17,107,,120,117,9,12,8,8,0.4,0.4
2024-05-21T2000,3537A,105.3631,27.3533,毕节市,长征村,,39,27,24,20,17,122,,130,128,7,7,7,6,0.3,0.3
2024-05-21T2000,1629A,118.0018,37.3617,滨州市,第二水厂,颗粒物(PM10),69,88,56,48,32,156,,197,195,24,18,9,14,1.0,0.8
2024-05-21T2000,1630A,117.9776,37.393,滨州市,北中新校,细颗粒物(PM2.5),70,88,60,51,31,146,,186,185,28,23,11,16,1.1,1
2024-05-21T2000,3514A,117.9378,37.3956,滨州市,中海酒店,颗粒物(PM10),68,85,55,48,32,163,,188,188,19,16,12,18,0.4,0.9
2024-05-21T2000,3515A,117.9378,37.3553,滨州市,开发区一中,颗粒物(PM10),74,97,64,53,36,158,,174,174,15,13,10,16,0.6,0.7
2024-05-21T2000,3516A,118.0917,37.694,滨州市,金海六路,细颗粒物(PM2.5),67,80,50,48,25,142,,195,192,30,16,7,23,0.7,0.5
2024-05-21T2000,4028A,117.9956,37.3753,滨州市,滨州市西街道办事处,细颗粒物(PM2.5),77,92,53,56,39,150,,192,190,24,18,10,15,1.2,1
2024-05-21T2000,2311A,115.8072,33.8399,亳州市,污水处理厂,,44,44,55,21,36,119,,125,125,6,8,9,9,0.4,0.5
2024-05-21T2000,2312A,115.7789,33.8518,亳州市,三国揽胜宫,,40,40,51,19,30,122,,127,127,6,6,10,10,0.3,0.4
2024-05-21T2000,3332A,115.7633,33.8034,亳州市,亳州学院,,40,38,51,16,38,125,,123,123,4,6,9,9,0.3,0.4
2024-05-21T2000,2693A,82.0485,44.8556,博尔塔拉蒙古自治州,市党校,,35,,18,23,9,109,,106,106,9,9,8,8,0.2,0.4
2024-05-21T2000,2694A,82.0806,44.8969,博尔塔拉蒙古自治州,市环保局,,34,19,23,7,9,108,,104,104,6,9,9,10,0.2,0.3
2024-05-21T2000,1071A,116.8842,38.2991,沧州市,沧县城建局,,50,50,39,26,17,136,,169,169,19,23,5,4,0.5,0.4
2024-05-21T2000,1072A,116.8584,38.3254,沧州市,电视转播站,颗粒物(PM10),54,58,37,22,18,146,,160,160,15,19,7,6,0.2,0.2
2024-05-21T2000,1073A,116.8709,38.3228,沧州市,市环保局,颗粒物(PM10),53,55,41,25,23,134,,164,164,18,21,5,6,0.4,0.3
2024-05-21T2000,3324A,116.8136,38.3004,沧州市,河北水利电力学院,颗粒物(PM10),52,53,29,21,18,137,,164,164,25,20,5,7,0.4,0.3
2024-05-21T2000,2622A,97.1806,31.1273,昌都市,昌都监测站,臭氧1小时,60,,17,15,14,168,,160,160,10,6,7,7,0.5,0.4
2024-05-21T2000,3719A,97.1714,31.1406,昌都市,昌都会议中心,臭氧1小时,99,15,16,9,9,199,,184,184,4,6,6,6,0.2,0.3
2024-05-21T2000,2690A,88.1236,43.8886,昌吉回族自治州,天山天池,,24,,20,3,5,75,,73,68,5,7,12,14,0.5,0.6
2024-05-21T2000,2692A,87.2717,44.0297,昌吉回族自治州,新区政务中心,,24,15,37,7,14,76,,88,86,7,10,8,8,0.4,0.3
2024-05-21T2000,3613A,87.3095,44.0142,昌吉回族自治州,亚心广场,,,,39,,6,,,91,83,,15,,8,0.4,0.4
2024-05-21T2000,1119A,125.3325,43.9166,长春市,食品厂,,37,36,39,21,15,116,,134,134,19,21,7,7,0.3,0.3
2024-05-21T2000,1120A,125.2863,43.9027,长春市,客车厂,,45,45,39,9,15,118,,134,134,12,16,6,5,0.4,0.4
2024-05-21T2000,1121A,125.2841,43.8463,长春市,邮电学院,颗粒物(PM10),55,60,38,15,10,119,,136,136,18,16,8,8,0.3,0.3
2024-05-21T2000,1122A,125.3716,43.8772,长春市,劳动公园,,49,49,35,11,11,130,,144,144,17,19,6,5,0.4,0.4
2024-05-21T2000,1123A,125.3297,43.8805,长春市,园林处,,38,37,31,26,17,120,,137,137,19,19,7,6,0.4,0.4
2024-05-21T2000,1124A,125.4605,43.79,长春市,净月潭,,41,31,23,7,8,131,,138,138,9,8,9,8,0.6,0.4
2024-05-21T2000,1126A,125.3863,43.8447,长春市,经开区环卫处,,39,30,29,10,8,124,,139,139,19,18,7,6,0.5,0.4
2024-05-21T2000,1127A,125.245,43.7783,长春市,高新区管委会,,39,38,29,12,10,122,,137,137,15,15,8,7,0.3,0.3
2024-05-21T2000,1128A,125.1761,43.8325,长春市,岱山公园,,36,32,35,15,15,115,,135,135,12,20,6,6,0.4,0.3
2024-05-21T2000,1335A,113.0833,28.2325,长沙市,经开区环保局,颗粒物(PM10),59,68,53,30,42,103,,109,108,9,12,7,8,0.6,0.5
2024-05-21T2000,1336A,112.8872,28.2189,长沙市,高开区环保局,颗粒物(PM10),60,69,54,35,32,127,,115,115,11,14,5,6,0.7,0.6
2024-05-21T2000,1337A,113.0792,28.2053,长沙市,马坡岭,细颗粒物(PM2.5),59,65,53,42,51,104,,107,106,12,13,7,7,0.7,0.6
2024-05-21T2000,1338A,112.9394,28.19,长沙市,湖南师范大学,"颗粒物(PM10),细颗粒物(PM2.5)",58,66,54,41,46,126,,118,118,4,6,4,3,0.8,0.7
2024-05-21T2000,1339A,113.0178,28.1322,长沙市,雨花区环保局,颗粒物(PM10),59,67,59,34,30,114,,110,110,9,10,5,5,0.4,0.4
2024-05-21T2000,1340A,112.9792,28.2597,长沙市,伍家岭,颗粒物(PM10),58,66,59,28,45,89,,100,100,17,12,5,5,0.5,0.4
2024-05-21T2000,1341A,113.0014,28.1944,长沙市,火车新站,细颗粒物(PM2.5),62,50,53,44,40,108,,113,112,16,13,3,3,0.7,0.8
2024-05-21T2000,1342A,112.9844,28.1178,长沙市,天心区环保局,"颗粒物(PM10),细颗粒物(PM2.5)",57,64,60,40,44,110,,107,107,20,22,2,2,1.0,0.8
2024-05-21T2000,1343A,112.8908,28.1308,长沙市,湖南中医药大学,细颗粒物(PM2.5),58,64,51,41,40,127,,117,117,8,9,1,4,0.9,0.9
2024-05-21T2000,1344A,112.9581,28.3611,长沙市,沙坪,颗粒物(PM10),52,54,61,22,24,97,,105,105,8,8,7,7,0.6,0.5
2024-05-21T2000,1727A,113.1147,36.1547,长治市,清华站,颗粒物(PM10),54,57,48,22,20,159,,171,171,11,17,11,10,0.2,0.5
2024-05-21T2000,1728A,113.1031,36.1989,长治市,监测站,"颗粒物(PM10),臭氧1小时",57,64,54,22,21,165,,174,174,16,22,4,6,0.5,1.1
2024-05-21T2000,1730A,113.0886,36.2125,长治市,审计局,臭氧1小时,58,63,52,27,23,166,,174,174,11,15,13,15,0.2,0.7
2024-05-21T2000,1731A,113.0844,36.1856,长治市,长治八中,颗粒物(PM10),62,74,63,24,22,168,,175,175,19,22,8,9,0.5,0.9
2024-05-21T2000,2845A,113.1569,36.1911,长治市,德盛苑,臭氧1小时,54,56,43,27,20,163,,178,178,8,10,6,8,0.6,1
2024-05-21T2000,3568A,113.06,36.0464,长治市,向阳小学,颗粒物(PM10),69,88,66,48,37,172,,178,178,10,13,10,13,0.5,0.7
2024-05-21T2000,3569A,112.8792,36.3144,长治市,屯留一中,颗粒物(PM10),59,68,54,34,30,157,,172,172,11,14,10,9,0.5,0.4
2024-05-21T2000,3570A,113.235,36.3489,长治市,潞城四中,臭氧1小时,101,66,71,34,33,202,,189,189,9,24,7,7,0.8,0.9
2024-05-21T2000,1854A,111.6975,28.9703,常德市,市二中,颗粒物(PM10),53,55,45,36,30,143,,141,141,10,11,8,11,0.6,0.5
2024-05-21T2000,3138A,111.7153,29.0289,常德市,武陵区永安,颗粒物(PM10),53,55,41,35,28,159,,143,143,9,11,8,8,0.5,0.4
2024-05-21T2000,3139A,111.6892,28.9881,常德市,鼎城区玉霞,细颗粒物(PM2.5),54,54,43,38,30,161,,145,145,6,10,7,10,0.6,0.5
2024-05-21T2000,3140A,111.6625,29.0531,常德市,武陵区长庚,细颗粒物(PM2.5),63,65,41,45,28,156,,141,141,10,10,8,8,0.7,0.6
2024-05-21T2000,1196A,119.9633,31.762,常州市,市监测站,,37,37,41,25,21,61,,110,101,35,20,11,10,0.5,0.5
2024-05-21T2000,1200A,119.9468,31.7069,常州市,武进监测站,,28,28,40,12,16,78,,120,113,8,15,7,11,0.4,0.6
2024-05-21T2000,1201A,119.9255,31.9087,常州市,安家,,43,43,47,27,21,63,,109,102,30,20,11,8,0.5,0.6
2024-05-21T2000,3002A,119.9805,31.8174,常州市,行政中心,,35,35,37,24,16,59,,105,97,34,19,13,11,0.3,0.3
2024-05-21T2000,3003A,120.0522,31.7748,常州市,经开区,,36,36,37,21,16,58,,106,97,36,23,13,8,0.5,0.5
2024-05-21T2000,3010A,119.9025,31.7964,常州市,钟楼,,41,41,37,23,17,54,,106,97,37,21,10,9,0.6,0.6
2024-05-21T2000,3429A,119.8598,31.7066,常州市,武进经发区,,26,24,38,10,17,81,,116,112,11,18,8,7,0.3,0.5
2024-05-21T2000,3430A,119.5826,31.7245,常州市,金坛城区,,30,29,33,12,15,94,,121,116,6,16,6,8,0.5,0.6
2024-05-21T2000,2220A,120.4318,41.5881,朝阳市,西梁,,40,25,32,16,20,128,,147,147,11,15,14,14,0.6,0.6
2024-05-21T2000,2221A,120.4521,41.5646,朝阳市,河畔小区,,45,25,32,17,19,141,,163,163,9,11,10,11,0.5,0.6
2024-05-21T2000,2222A,120.4176,41.5648,朝阳市,八里堡,,49,49,41,18,21,112,,149,147,18,17,9,11,0.7,0.8
2024-05-21T2000,2223A,120.3806,41.5969,朝阳市,农业园区,,43,39,42,19,31,136,,159,158,14,24,12,12,0.7,0.8
2024-05-21T2000,1705A,116.6367,23.6719,潮州市,西园路,,26,26,11,8,9,37,,59,57,17,11,3,3,0.6,0.3
2024-05-21T2000,3026A,116.6183,23.6608,潮州市,市政府,,29,29,15,13,10,41,,61,58,20,14,15,7,0.9,0.8
2024-05-21T2000,4036A,116.6461,23.6761,潮州市,金山,,19,19,13,12,7,34,,58,57,15,10,6,6,0.9,0.7
2024-05-21T2000,2472A,113.0073,25.9061,郴州市,马头岭,,33,33,32,23,15,45,,64,60,9,7,3,4,0.6,0.6
2024-05-21T2000,2473A,113.0116,25.8226,郴州市,市职中,,32,,27,22,23,43,,55,55,16,11,6,6,0.8,0.7
2024-05-21T2000,2474A,113.0161,25.8001,郴州市,兴隆步行街,,28,28,33,19,21,46,,57,57,16,9,6,6,0.9,0.8
2024-05-21T2000,2475A,113.0383,25.8071,郴州市,市审计局,,30,24,27,21,24,50,,56,56,11,9,2,4,0.7,0.6
2024-05-21T2000,2476A,113.0348,25.7759,郴州市,市环保局,,38,38,30,26,27,37,,47,46,19,13,3,4,0.9,0.8
2024-05-21T2000,1431A,103.9728,30.7236,成都市,金泉两河,,49,49,33,19,13,120,,154,153,4,6,2,2,0.3,0.3
2024-05-21T2000,1432A,104.176,30.6872,成都市,十里店,颗粒物(PM10),53,55,34,26,16,158,,183,183,21,16,3,3,0.6,0.5
2024-05-21T2000,1433A,104.079,30.5706,成都市,三瓦窑,,,62,36,38,19,148,,177,177,,20,,2,0.6,0.5
2024-05-21T2000,1434A,104.1114,30.63,成都市,沙河铺,,46,46,34,20,16,133,,165,165,22,16,4,5,0.5,0.5
2024-05-21T2000,1437A,104.0786,30.6531,成都市,君平街,细颗粒物(PM2.5),55,50,34,39,17,143,,177,177,13,12,4,4,0.5,0.5
2024-05-21T2000,2880A,104.0239,30.65639,成都市,大石西路,,49,49,36,33,16,141,,177,177,17,15,4,4,0.4,0.4
2024-05-21T2000,3136A,104.2725,30.5589,成都市,龙泉驿区区政府,,40,19,20,14,11,126,,158,156,11,8,2,3,0.5,0.4
2024-05-21T2000,3357A,104.0106,30.6931,成都市,金博路,,45,41,31,31,15,131,,172,171,8,9,1,2,0.5,0.5
2024-05-21T2000,3359A,104.0578,30.5225,成都市,华阳,臭氧1小时,52,44,30,27,21,161,,182,182,18,12,2,2,0.6,0.5
2024-05-21T2000,3487A,104.2394,30.5319,成都市,车城东七路,,46,37,32,21,20,147,,167,167,9,11,2,3,0.4,0.4
2024-05-21T2000,3488A,104.3853,30.7453,成都市,青白江技师分院,,38,30,17,20,8,120,,153,150,20,16,3,4,0.5,0.5
2024-05-21T2000,3489A,104.0789,30.4072,成都市,科学城,臭氧1小时,99,40,29,25,19,199,,197,197,16,11,3,2,0.6,0.6
2024-05-21T2000,4011A,103.8506,30.6947,成都市,光华大道三段,,36,32,34,23,12,113,,142,141,10,10,3,2,0.5,0.5
2024-05-21T2000,1062A,117.9531,40.9081,承德市,铁路,,44,44,34,15,16,127,,152,151,25,19,9,10,0.4,0.4
2024-05-21T2000,1063A,117.9392,40.9763,承德市,中国银行,,45,44,35,27,17,141,,161,161,13,18,10,11,0.4,0.4
2024-05-21T2000,1064A,117.9503,40.928,承德市,开发区,,43,38,38,19,20,137,,158,158,20,19,8,9,0.5,0.6
2024-05-21T2000,1065A,117.8051,40.9655,承德市,文化中心,,48,35,49,12,17,153,,164,164,11,21,9,15,0.5,0.5
2024-05-21T2000,1066A,117.9268,41.0026,承德市,离宫,,46,46,37,21,24,112,,158,154,12,13,4,5,0.3,0.4
2024-05-21T2000,2314A,117.47,30.6618,池州市,池州学院,,20,14,45,10,27,62,,120,104,7,17,4,6,0.4,0.5
2024-05-21T2000,3237A,117.4918,30.6617,池州市,展览馆,,18,14,43,8,24,56,,116,96,6,15,3,4,0.4,0.5
2024-05-21T2000,3333A,117.5627,30.695,池州市,第八中学,,21,12,43,7,26,66,,121,100,4,17,3,5,0.4,0.6
2024-05-21T2000,3334A,117.5038,30.6243,池州市,第十二中学,,24,24,40,15,25,40,,121,96,24,18,4,5,0.6,0.8
2024-05-21T2000,1744A,118.9233,42.2816,赤峰市,松山一中,,37,34,30,16,11,117,,145,141,32,22,12,11,0.6,0.5
2024-05-21T2000,1745A,118.9576,42.2728,赤峰市,哈达街,,40,39,31,14,11,128,,142,141,31,28,13,12,0.6,0.5
2024-05-21T2000,1746A,118.8788,42.2554,赤峰市,天义路,,46,25,23,11,16,145,,147,147,18,18,6,8,0.5,0.5
2024-05-21T2000,3058A,119.2658,42.0353,赤峰市,银河街,颗粒物(PM10),81,112,66,17,20,118,,150,147,25,20,17,16,0.7,0.5
2024-05-21T2000,3286A,118.9359,42.3147,赤峰市,桥北物流园区,,45,45,27,26,17,126,,146,143,29,24,7,6,0.8,0.7
2024-05-21T2000,2521A,107.3476,22.4136,崇左市,市环保局江州分局,,31,31,23,15,12,82,,92,90,8,8,8,8,0.6,0.6
2024-05-21T2000,2522A,107.3702,22.3707,崇左市,城南新区,,28,28,17,14,11,80,,89,87,9,7,6,6,0.6,0.5
2024-05-21T2000,2298A,118.3093,32.3153,滁州市,老年大学,颗粒物(PM10),53,56,53,32,25,97,,137,134,27,17,7,9,0.6,0.6
2024-05-21T2000,2299A,118.3244,32.2786,滁州市,人大宾馆,,49,48,36,34,31,104,,139,137,25,17,7,6,0.7,0.6
2024-05-21T2000,3207A,118.3118,32.3038,滁州市,市政府原办公楼,细颗粒物(PM2.5),58,54,43,41,34,96,,138,135,30,16,7,6,0.7,0.6
2024-05-21T2000,3331A,118.3267,32.2634,滁州市,图书馆,颗粒物(PM10),58,65,46,38,30,94,,134,131,34,18,10,8,0.9,0.7
2024-05-21T2000,2605A,101.5482,25.0441,楚雄彝族自治州,州环境监测站,,40,27,24,13,14,127,,138,138,10,17,11,11,0.5,0.6
2024-05-21T2000,2606A,101.538,25.0492,楚雄彝族自治州,市经济开发区,,40,32,29,18,17,128,,135,135,13,18,6,7,0.5,0.6
2024-05-21T2000,2548A,107.5277,31.2827,达州市,达州职业技术学院,,33,33,24,11,6,105,,123,123,15,17,5,9,0.3,0.3
2024-05-21T2000,2549A,107.5086,31.2186,达州市,市环境监测站,,39,39,26,12,8,110,,116,116,26,26,5,8,0.5,0.4
2024-05-21T2000,2550A,107.4988,31.2132,达州市,凤凰小区,,39,31,24,14,11,122,,122,122,15,22,6,9,0.4,0.4
2024-05-21T2000,2551A,107.5082,31.1986,达州市,达县机关宾馆,,36,24,25,17,12,114,,114,114,20,30,3,8,0.4,0.4
2024-05-21T2000,2552A,107.4644,31.2124,达州市,市政中心,,39,39,30,14,10,117,,122,122,16,21,6,9,0.8,0.6
2024-05-21T2000,2614A,100.1542,25.7054,大理白族自治州,大理市环境监测站,,41,41,23,21,13,82,,116,116,34,17,7,7,0.6,0.5
2024-05-21T2000,2615A,100.2171,25.5811,大理白族自治州,大理古城,,43,43,19,29,11,82,,110,109,22,11,6,6,0.5,0.4
2024-05-21T2000,1109A,121.612,38.9741,大连市,甘井子,,39,39,57,16,33,114,,114,114,13,39,9,9,0.6,0.7
2024-05-21T2000,1110A,121.565,38.9511,大连市,周水子,,35,34,45,20,29,109,,114,112,15,33,8,7,0.6,0.7
2024-05-21T2000,1111A,121.5637,38.8845,大连市,星海三站,,,30,43,15,28,125,,124,124,,10,6,6,0.6,0.6
2024-05-21T2000,1112A,121.6302,38.9117,大连市,青泥洼桥,,35,33,39,17,22,112,,115,115,9,15,6,6,0.8,0.8
2024-05-21T2000,1113A,121.6251,38.8638,大连市,傅家庄,,38,21,34,13,22,121,,120,120,7,10,7,7,0.6,0.6
2024-05-21T2000,1114A,121.5213,38.8661,大连市,七贤岭,,40,38,43,16,23,128,,127,127,10,14,8,7,0.5,0.5
2024-05-21T2000,1115A,121.2529,38.8061,大连市,旅顺,,40,17,38,10,25,128,,126,126,9,16,7,7,0.5,0.6
2024-05-21T2000,1116A,121.7485,39.1311,大连市,金州,,35,30,54,17,28,111,,121,120,11,18,9,9,0.7,0.7
2024-05-21T2000,1117A,121.7811,39.0496,大连市,开发区,,42,42,59,19,34,112,,112,112,15,30,5,7,0.6,0.7
2024-05-21T2000,1118A,121.9762,39.0631,大连市,双D港,,40,15,26,12,23,125,,121,121,7,16,7,7,0.6,0.7
2024-05-21T2000,1789A,124.81117,46.03138,大庆市,大同区,颗粒物(PM10),60,69,51,31,26,154,,153,153,14,12,9,8,0.5,0.4
2024-05-21T2000,1790A,125.129,46.533,大庆市,龙凤区,颗粒物(PM10),55,59,44,33,23,111,,128,128,27,19,7,7,0.5,0.3
2024-05-21T2000,1791A,124.902,46.408,大庆市,红岗区,,40,34,39,16,15,128,,138,138,15,12,8,8,0.3,0.3
2024-05-21T2000,1792A,125.153,46.586,大庆市,萨尔图区,,45,45,43,17,14,115,,124,124,16,13,11,8,0.3,0.2
2024-05-21T2000,1793A,124.9042,46.6215,大庆市,让胡路区,,43,42,37,30,20,124,,137,137,19,12,6,6,0.4,0.3
2024-05-21T2000,3481A,125.141,46.634,大庆市,萨区政府监测点,,49,49,41,16,15,125,,136,136,16,12,9,8,0.2,0.2
2024-05-21T2000,1723A,113.2994,40.0758,大同市,云冈宾馆,臭氧1小时,88,74,65,28,25,190,,201,201,23,23,12,9,0.4,0.5
2024-05-21T2000,1724A,113.3444,40.0917,大同市,大同大学,臭氧1小时,84,58,52,40,28,187,,199,199,20,18,15,16,0.4,0.4
2024-05-21T2000,1725A,113.2661,40.1269,大同市,安家小村,臭氧1小时,83,95,79,30,30,186,,190,190,19,20,17,13,0.3,0.5
2024-05-21T2000,1726A,113.2711,40.0844,大同市,教育学院,臭氧1小时,94,100,77,36,33,195,,207,207,22,27,17,11,0.5,0.6
2024-05-21T2000,3282A,113.3397,40.0597,大同市,大同市卫生学校,臭氧1小时,75,69,58,32,25,180,,197,197,20,20,9,11,0.8,0.9
2024-05-21T2000,3565A,113.1367,40.1122,大同市,云冈站,颗粒物(PM10),77,104,65,38,31,174,,191,191,20,15,16,12,0.5,0.5
2024-05-21T2000,3566A,113.1186,40.2556,大同市,图书馆,颗粒物(PM10),75,100,60,44,34,160,,162,162,28,16,19,15,0.9,0.7
2024-05-21T2000,3567A,113.5931,40.0461,大同市,区一中,臭氧1小时,89,56,60,23,21,191,,211,210,25,17,2,5,0.5,0.5
2024-05-21T2000,3676A,113.2802,40.0995,大同市,第二人民医院,臭氧1小时,90,84,76,30,32,192,,200,200,16,22,18,13,0.4,0.6
2024-05-21T2000,2269A,124.1069,50.4097,大兴安岭地区,科技局,,28,26,25,19,18,77,,92,87,11,8,4,3,0.2,0.2
2024-05-21T2000,3663A,124.1164,50.4278,大兴安岭地区,红旗社区,,28,,13,9,11,89,,95,91,4,9,8,8,0.2,0.2
2024-05-21T2000,1600A,124.3303,40.0625,丹东市,江湾东路,,33,33,31,20,23,77,,102,100,20,13,7,10,0.6,0.6
2024-05-21T2000,1601A,124.4256,40.1503,丹东市,临江后街,,36,36,27,23,19,85,,108,106,18,9,10,9,0.6,0.6
2024-05-21T2000,1602A,124.3933,40.1461,丹东市,元宝山,,35,35,26,19,18,69,,95,92,15,11,9,11,0.6,0.7
2024-05-21T2000,1603A,124.3633,40.1092,丹东市,民主桥,,36,36,32,19,21,74,,96,94,16,10,12,12,0.5,0.6
2024-05-21T2000,3541A,109.5726,19.5167,儋州市,第一中学子站,,23,17,19,16,12,72,,86,84,4,3,5,4,0.4,0.4
2024-05-21T2000,3542A,109.5567,19.5187,儋州市,东坡学校子站,,21,16,14,8,8,65,,79,77,4,3,2,3,0.7,0.6
2024-05-21T2000,2616A,98.5842,24.428,德宏傣族景颇族自治州,德宏州监测站,"颗粒物(PM10),细颗粒物(PM2.5)",52,53,37,36,27,78,,65,65,24,20,7,12,1.0,0.9
2024-05-21T2000,3677A,98.5881,24.4368,德宏傣族景颇族自治州,芒市人民政府综合楼,颗粒物(PM10),54,58,35,31,19,76,,66,66,22,17,10,12,0.7,0.6
2024-05-21T2000,1901A,104.4239,31.1208,德阳市,东山公园,,46,34,27,19,11,147,,144,144,8,8,3,2,0.4,0.4
2024-05-21T2000,1902A,104.3826,31.1317,德阳市,西小区,,43,32,28,28,16,136,,144,144,19,12,2,5,0.4,0.4
2024-05-21T2000,1904A,104.3553,31.1091,德阳市,耐火材料厂,,45,40,25,27,14,142,,154,154,14,8,6,5,0.5,0.5
2024-05-21T2000,3639A,104.4019,31.1244,德阳市,市教育局,,39,32,25,25,12,123,,131,131,13,8,2,4,0.5,0.4
2024-05-21T2000,1622A,116.3032,37.4674,德州市,儿童乐园,细颗粒物(PM2.5),67,68,50,48,26,142,,149,149,19,20,9,11,0.8,0.6
2024-05-21T2000,1624A,116.2991,37.4451,德州市,监理站,细颗粒物(PM2.5),67,68,44,48,28,148,,150,150,17,17,12,13,0.7,0.6
2024-05-21T2000,3066A,116.2721,37.4379,德州市,九衢泉纯净水厂,颗粒物(PM10),62,73,50,39,23,148,,147,147,22,22,8,9,0.6,0.5
2024-05-21T2000,3371A,116.3728,37.4403,德州市,开发区人民医院,颗粒物(PM10),53,56,45,31,21,134,,138,138,18,17,9,12,0.6,0.5
2024-05-21T2000,3372A,116.3572,37.4094,德州市,太阳城中学,颗粒物(PM10),52,53,47,31,25,130,,137,137,18,18,8,10,0.5,0.5
2024-05-21T2000,3511A,116.5652,37.3319,德州市,陵城艺术中心,颗粒物(PM10),57,63,39,36,21,117,,128,128,16,17,8,9,0.6,0.5
2024-05-21T2000,2621A,99.7056,27.8317,迪庆藏族自治州,迪庆州站,,35,18,19,3,10,112,,111,111,14,11,8,8,0.6,0.4
2024-05-21T2000,3180A,99.7136,27.8094,迪庆藏族自治州,质量技术监督局,,32,20,26,7,7,102,,103,103,15,11,7,7,0.4,0.4
2024-05-21T2000,2663A,104.6241,35.5734,定西市,东关小学,,45,45,51,17,19,144,,149,149,10,12,4,4,0.2,0.2
2024-05-21T2000,2664A,104.6194,35.5934,定西市,供电公司,,50,50,44,30,25,138,,141,141,8,16,5,5,0.3,0.3
2024-05-21T2000,1389A,113.7547,23.0494,东莞市,莞城梨川,,29,29,13,20,11,25,,38,37,31,21,8,8,1.3,1
2024-05-21T2000,1390A,113.7944,23.0128,东莞市,东城石井,,12,12,16,7,10,23,,42,41,19,18,7,7,0.8,0.7
2024-05-21T2000,1391A,113.7383,22.9658,东莞市,南城西平,,14,14,16,7,11,21,,35,31,26,30,6,6,0.8,0.7
2024-05-21T2000,3319A,113.7338,23.0381,东莞市,万江金泰,,13,13,12,7,8,27,,37,34,16,17,8,8,0.7,0.7
2024-05-21T2000,3626A,113.7533,23.0202,东莞市,南城元岭,,10,10,12,6,10,31,,43,42,17,14,7,8,0.8,0.8
2024-05-21T2000,3627A,113.7875,23.0457,东莞市,东城主山,,10,10,12,3,7,28,,43,42,19,15,8,7,0.9,0.9
2024-05-21T2000,1666A,118.6614,37.4309,东营市,市环保局,,41,41,35,19,22,115,,170,164,18,14,13,11,0.0,0.1
2024-05-21T2000,3036A,118.6904,37.4338,东营市,开发区管委会,,41,41,45,19,22,118,,171,164,20,17,8,8,0.2,0.3
2024-05-21T2000,3365A,118.5719,37.565,东营市,垦利区民丰路,,44,44,37,29,20,127,,175,170,18,17,10,10,0.6,0.6
2024-05-21T2000,3498A,118.5055,37.8612,东营市,河口城区,,44,44,36,27,22,136,,169,166,12,12,5,6,0.2,0.3
2024-05-21T2000,3646A,118.4978,37.4623,东营市,胜利站,,50,50,37,24,20,141,,200,197,22,19,8,10,0.8,0.8
2024-05-21T2000,3734A,118.35,37.26,东营市,理想之城,颗粒物(PM10),52,53,44,29,22,121,,183,178,19,18,10,12,0.3,0.4
2024-05-21T2000,1591A,110.0023,39.8129,鄂尔多斯市,综合楼,,,102,111,39,41,170,,184,183,,22,8,10,0.5,0.5
2024-05-21T2000,1592A,109.9486,39.8261,鄂尔多斯市,巴音孟克林场办事处,颗粒物(PM10),78,105,106,41,38,159,,164,164,15,18,7,9,0.6,0.7
2024-05-21T2000,1593A,109.7736,39.5986,鄂尔多斯市,康泽苑,颗粒物(PM10),74,97,85,44,42,174,,174,174,16,14,8,9,0.3,0.3
2024-05-21T2000,1594A,109.8119,39.5989,鄂尔多斯市,华泰汽车城,颗粒物(PM10),68,85,78,36,40,161,,162,162,13,14,8,8,0.4,0.4
2024-05-21T2000,1595A,109.9734,39.7884,鄂尔多斯市,奥林花园,颗粒物(PM10),79,107,93,44,43,153,,161,160,17,20,7,9,0.5,0.6
2024-05-21T2000,2436A,114.8938,30.3994,鄂州市,市政府,,41,41,50,20,26,110,,138,133,15,13,9,9,0.7,0.6
2024-05-21T2000,2437A,114.8989,30.3714,鄂州市,赵家坝,,42,42,48,23,29,82,,118,110,8,7,8,10,0.7,0.7
2024-05-21T2000,3654A,114.8094,30.4089,鄂州市,精准医疗中心,颗粒物(PM10),60,70,54,20,27,90,,131,120,19,18,6,7,0.5,0.6
2024-05-21T2000,2454A,109.4978,30.2981,恩施土家族苗族自治州,湖北民院,颗粒物(PM10),51,51,38,34,24,105,,131,131,24,16,8,8,0.7,0.5
2024-05-21T2000,2455A,109.4707,30.2798,恩施土家族苗族自治州,州电力总公司,,46,46,39,32,24,105,,126,126,25,23,10,9,0.7,0.7
2024-05-21T2000,3549A,109.5061,30.3772,恩施土家族苗族自治州,龙凤新区,,,,32,,20,82,,115,115,,12,7,6,,0.6
2024-05-21T2000,2499A,108.3411,21.6158,防城港市,沙万,,39,39,24,19,15,77,,84,84,23,10,7,6,0.8,0.8
2024-05-21T2000,2500A,108.3514,21.7731,防城港市,防城档案局,,29,29,39,19,13,65,,78,78,16,15,4,4,0.7,0.6
2024-05-21T2000,2501A,108.3506,21.6414,防城港市,大海花园,,28,23,25,16,11,89,,86,86,14,11,4,5,0.6,0.7
2024-05-21T2000,1371A,113.1294,23.0067,佛山市,湾梁,,15,14,8,9,9,21,,38,37,30,29,5,5,0.8,0.6
2024-05-21T2000,1372A,113.1083,23.0478,佛山市,华材职中,,19,14,10,6,7,21,,35,35,37,37,6,5,0.5,0.6
2024-05-21T2000,1373A,113.144,23.0453,佛山市,南海气象局,,15,15,10,7,6,21,,34,33,29,29,4,4,0.6,0.6
2024-05-21T2000,1374A,113.2881,22.8094,佛山市,顺德苏岗,,15,6,5,3,8,23,,29,29,29,26,4,5,0.7,0.7
2024-05-21T2000,1376A,112.8383,22.8678,佛山市,高明孔堂,,30,30,14,9,8,37,,58,58,24,24,5,5,0.9,0.8
2024-05-21T2000,1377A,112.8836,23.1588,佛山市,三水监测站,,17,17,5,10,10,45,,56,56,29,21,6,6,0.8,0.7
2024-05-21T2000,1378A,112.867,23.185,佛山市,三水云东海,,10,6,4,3,6,20,,54,49,19,16,3,3,0.7,0.7
2024-05-21T2000,3625A,113.2544,22.7642,佛山市,容桂街道办,,15,9,7,9,5,32,,34,34,30,29,4,4,0.7,0.6
2024-05-21T2000,1282A,119.2681,26.0504,福州市,师大,,13,12,8,7,2,40,,62,47,18,11,3,3,0.9,0.6
2024-05-21T2000,1283A,119.2984,26.1028,福州市,五四北路,,,,6,6,1,59,,67,64,16,12,3,3,0.6,0.5
2024-05-21T2000,1284A,119.2648,26.0768,福州市,杨桥西路,,16,10,8,3,1,51,,63,60,16,13,3,3,0.7,0.5
2024-05-21T2000,1285A,119.317,26.0746,福州市,紫阳,,18,18,10,6,2,31,,56,47,24,14,2,2,0.8,0.5
2024-05-21T2000,3048A,119.5799,26.0936,福州市,九龙,,,,8,0,1,69,,70,68,,7,,4,0.2,0.3
2024-05-21T2000,3526A,119.5189,25.9664,福州市,吴航,,28,6,5,3,4,89,,81,72,2,5,3,4,0.5,0.5
2024-05-21T2000,1755A,123.7977,41.8491,抚顺市,望花区,细颗粒物(PM2.5),57,58,39,40,19,133,,148,147,33,25,8,5,0.7,0.5
2024-05-21T2000,1756A,123.9161,41.8822,抚顺市,顺城区,颗粒物(PM10),55,60,34,38,15,130,,146,145,34,25,14,9,0.6,0.5
2024-05-21T2000,1757A,124.0436,41.8611,抚顺市,东洲区,,32,32,24,17,12,95,,133,128,14,11,6,6,0.5,0.4
2024-05-21T2000,1758A,123.9247,41.8642,抚顺市,新抚区,,45,37,33,31,13,131,,147,146,20,21,9,7,0.8,0.5
2024-05-21T2000,1759A,124.0972,41.8961,抚顺市,大伙房水库,,31,31,23,15,12,96,,132,129,12,12,8,7,0.6,0.6
2024-05-21T2000,1760A,123.7086,41.8391,抚顺市,沈抚新城,,47,46,46,31,21,148,,157,157,18,24,8,13,0.6,1.1
2024-05-21T2000,2376A,116.2127,28.0814,抚州市,桐源党溪,,22,22,27,14,15,56,,60,60,4,9,5,8,0.4,0.4
2024-05-21T2000,2377A,116.3544,27.9831,抚州市,市站,,27,27,23,14,11,25,,50,40,38,16,2,2,0.8,0.8
2024-05-21T2000,2378A,116.3565,27.963,抚州市,血防站,,27,27,24,15,10,53,,60,60,17,12,1,2,1.0,1
2024-05-21T2000,2379A,116.3564,28.0007,抚州市,采茶剧团,,26,26,21,18,12,46,,58,57,15,8,3,3,0.9,0.8
2024-05-21T2000,2380A,116.385,27.9647,抚州市,医学分院,,21,21,24,13,10,51,,56,56,18,12,4,3,1.0,1
2024-05-21T2000,2207A,121.6094,41.998,阜新市,工业园区,颗粒物(PM10),75,99,61,15,18,130,,144,140,10,21,11,19,0.4,0.6
2024-05-21T2000,2208A,121.6697,42.0279,阜新市,长青街,,39,25,47,19,20,124,,140,137,13,20,9,21,0.4,0.5
2024-05-21T2000,2209A,121.6673,42.0705,阜新市,农业园区,,40,39,53,3,19,125,,137,134,10,17,7,17,0.4,0.7
2024-05-21T2000,2210A,121.6717,42.0224,阜新市,东苑,颗粒物(PM10),55,59,58,9,17,117,,134,130,15,25,7,26,0.3,0.4
2024-05-21T2000,2211A,121.6506,42.0498,阜新市,玉龙新城,颗粒物(PM10),57,64,60,13,17,120,,133,130,10,22,11,13,0.3,0.4
2024-05-21T2000,2301A,115.8277,32.8929,阜阳市,市监测站,,45,41,48,31,27,138,,143,143,17,12,8,6,0.4,0.4
2024-05-21T2000,2303A,115.8554,32.8605,阜阳市,开发区,,49,49,50,20,25,142,,149,149,11,10,7,6,0.3,0.3
2024-05-21T2000,2875A,115.784,32.8892,阜阳市,阜阳职业技术学院,,47,43,43,23,20,149,,147,147,16,11,7,6,0.4,0.4
2024-05-21T2000,3468A,115.7901,32.8613,阜阳市,市规划展馆,,48,38,46,17,28,151,,153,153,13,11,6,5,0.4,0.4
2024-05-21T2000,3469A,115.836,32.9183,阜阳市,枣园社区,,45,27,45,19,28,141,,139,139,15,11,7,6,0.3,0.3
2024-05-21T2000,2669A,102.9099,34.9841,甘南藏族自治州,州政府,,39,39,48,21,23,119,,140,138,4,13,8,7,0.4,0.4
2024-05-21T2000,3380A,102.8914,34.9617,甘南藏族自治州,甘肃民族师范学院,,50,50,55,33,23,128,,144,143,8,20,9,6,0.3,0.3
2024-05-21T2000,2570A,101.9603,30.0475,甘孜藏族自治州,水桥子,,37,23,23,13,12,116,,115,115,3,21,2,3,0.3,0.3
2024-05-21T2000,3065A,101.9533,29.9972,甘孜藏族自治州,州环保局,,34,24,26,12,8,107,,112,112,13,14,2,2,0.3,0.3
2024-05-21T2000,3414A,115.8347,28.932,赣江新区,桑海产业园,,17,12,12,10,8,54,,73,70,22,17,8,8,0.3,0.5
2024-05-21T2000,2363A,114.9367,25.8664,赣州市,地委,,15,14,9,7,9,47,,45,45,2,5,7,12,0.5,0.5
2024-05-21T2000,2364A,114.9461,25.8481,赣州市,气象台,,14,14,11,9,10,38,,39,37,7,10,7,7,0.8,0.8
2024-05-21T2000,2365A,114.9322,25.8333,赣州市,市图书馆,,16,9,8,3,6,51,,45,45,8,8,4,5,0.9,0.8
2024-05-21T2000,2366A,114.8905,25.8471,赣州市,华坚鞋城,,22,22,17,12,6,43,,44,30,9,12,4,6,0.3,0.3
2024-05-21T2000,3109A,115.0093,25.8613,赣州市,赣县区卫计委,,16,,8,11,10,50,,54,54,12,11,5,5,0.6,0.6
2024-05-21T2000,2683A,106.2319,36.1417,固原市,马园,颗粒物(PM10),52,53,38,14,21,126,,138,137,24,24,5,5,0.3,0.4
2024-05-21T2000,2684A,106.2792,36.0022,固原市,监测站,,44,36,32,10,17,138,,142,142,9,13,4,4,0.3,0.3
2024-05-21T2000,2685A,106.2375,36.0211,固原市,新区,,43,35,32,8,16,137,,140,140,12,13,4,4,0.3,0.3
2024-05-21T2000,3522A,106.2177,35.9959,固原市,原州区十五小,,45,31,38,12,18,144,,148,148,8,9,4,4,0.4,0.5
2024-05-21T2000,2544A,106.6303,30.4576,广安市,市委,,38,37,27,23,11,121,,124,124,16,12,9,8,0.6,0.5
2024-05-21T2000,2545A,106.6271,30.4663,广安市,友谊中学,,40,32,19,21,12,125,,129,129,15,12,7,7,0.4,0.3
2024-05-21T2000,2547A,106.6388,30.4551,广安市,广电花园,,39,33,21,19,12,124,,127,127,14,11,9,9,0.6,0.6
2024-05-21T2000,2902A,106.6351,30.4865,广安市,北辰小学,,40,34,23,28,12,125,,128,128,10,9,10,9,0.5,0.5
2024-05-21T2000,2523A,105.8945,32.4535,广元市,黑石坡,,36,11,16,6,11,113,,134,132,12,8,6,6,0.3,0.3
2024-05-21T2000,2524A,105.821,32.4444,广元市,老城,,38,17,26,8,12,119,,143,141,12,19,3,1,0.4,0.4
2024-05-21T2000,2526A,105.8628,32.4287,广元市,监测站,,40,32,23,17,14,125,,147,145,9,8,3,4,0.3,0.3
2024-05-21T2000,3617A,105.8047,32.4166,广元市,经开区,,42,31,32,16,16,132,,148,147,8,16,3,5,0.4,0.4
2024-05-21T2000,1345A,113.2347,23.1423,广州市,广雅中学,,27,22,10,17,9,16,,35,35,53,40,4,4,0.8,0.7
2024-05-21T2000,1346A,113.2612,23.105,广州市,市五中,,16,13,7,11,6,45,,51,51,19,20,4,4,0.6,0.6
2024-05-21T2000,1348A,113.3478,23.0916,广州市,广东商学院,,19,19,13,7,4,33,,34,34,24,23,4,4,0.8,0.8
2024-05-21T2000,1349A,113.4332,23.1047,广州市,市八十六中,,16,15,7,9,4,22,,35,35,31,24,3,4,0.7,0.7
2024-05-21T2000,1350A,113.3505,22.9483,广州市,番禺中学,,22,17,10,11,8,17,,33,32,43,32,4,4,0.7,0.5
2024-05-21T2000,1351A,113.2146,23.3916,广州市,花都师范,,18,16,9,12,8,48,,52,52,16,15,5,5,0.5,0.6
2024-05-21T2000,1352A,113.2597,23.1331,广州市,市监测站,,15,15,7,7,4,30,,38,38,29,26,4,4,0.5,0.6
2024-05-21T2000,1353A,113.5618,23.312,广州市,九龙镇镇龙,,15,12,5,10,4,27,,42,35,17,10,6,6,0.5,0.5
2024-05-21T2000,1354A,113.2765,23.1544,广州市,麓湖,,12,12,7,3,4,18,,36,35,19,26,5,5,0.7,0.7
2024-05-21T2000,1355A,113.443,23.3035,广州市,帽峰山森林公园,,14,6,0,3,1,44,,42,,12,11,5,5,0.5,0.4
2024-05-21T2000,2846A,113.3221,23.1322,广州市,体育西,,,,8,,6,34,,39,39,23,22,2,2,0.7,0.6
2024-05-21T2000,3298A,113.5717,23.5491,广州市,从化街口,,10,10,9,7,6,32,,41,40,16,21,6,6,0.8,0.7
2024-05-21T2000,3299A,113.3472,23.3692,广州市,白云竹料,,15,8,8,3,6,46,,55,55,15,18,4,4,0.7,0.6
2024-05-21T2000,3300A,113.2981,23.237,广州市,白云嘉禾,,25,20,8,15,6,11,,38,34,50,31,5,5,1.0,0.8
2024-05-21T2000,3301A,113.4256,23.1716,广州市,黄埔科学城,,10,10,4,3,3,17,,45,33,19,12,3,4,0.7,0.7
2024-05-21T2000,3302A,113.3942,23.0483,广州市,番禺大学城,,18,11,10,8,5,13,,26,24,36,31,3,3,0.7,0.6
2024-05-21T2000,3303A,113.4922,22.8168,广州市,南沙黄阁,,25,25,22,13,17,12,,29,26,48,36,6,6,0.8,0.8
2024-05-21T2000,3304A,113.5342,22.7896,广州市,南沙街,,22,19,20,12,13,15,,28,26,43,35,7,7,0.6,0.6
2024-05-21T2000,3443A,113.2902,23.5544,广州市,花都梯面,,16,6,6,3,4,51,,59,58,7,7,4,4,0.6,0.6
2024-05-21T2000,3445A,113.7858,23.7478,广州市,从化良口,,9,7,2,3,0,26,,53,50,8,8,5,5,0.6,0.6
2024-05-21T2000,3446A,113.8051,23.2614,广州市,增城荔城,,14,8,5,3,4,43,,49,45,8,7,4,5,0.5,0.5
2024-05-21T2000,2506A,109.6047,23.0666,贵港市,江南子站,,20,19,22,14,14,63,,85,84,12,16,7,9,0.7,0.7
2024-05-21T2000,2507A,109.6014,23.0948,贵港市,贵城子站,,28,27,25,19,16,56,,83,82,16,15,9,9,0.6,0.5
2024-05-21T2000,2508A,109.5669,23.1065,贵港市,荷城子站,,27,27,24,12,9,68,,74,74,11,14,10,11,0.4,0.4
2024-05-21T2000,3405A,109.5886,23.1172,贵港市,新世纪学校,,22,19,23,9,12,68,,80,80,9,11,11,12,0.6,0.7
2024-05-21T2000,1439A,106.6899,26.5998,贵阳市,马鞍山,,20,9,19,3,9,62,,79,77,13,14,9,8,0.5,0.6
2024-05-21T2000,1440A,106.6971,26.5694,贵阳市,市环保站,,22,6,18,3,16,70,,83,82,12,15,4,6,0.6,0.6
2024-05-21T2000,1441A,106.6243,26.6266,贵阳市,鉴湖路,,22,9,17,3,9,70,,83,83,7,8,2,4,0.3,0.4
2024-05-21T2000,1442A,106.7487,26.6343,贵阳市,燕子冲,,20,,17,7,16,61,,72,71,4,10,6,6,0.4,0.4
2024-05-21T2000,1443A,106.6555,26.4365,贵阳市,碧云窝,,24,7,17,3,7,76,,90,89,13,13,4,6,0.3,0.5
2024-05-21T2000,1444A,106.694,26.5161,贵阳市,中院村,,22,7,21,3,11,68,,75,75,8,13,6,8,0.6,0.6
2024-05-21T2000,1445A,106.7109,26.6027,贵阳市,红边门,,21,9,20,7,17,67,,81,79,13,15,3,6,0.6,0.6
2024-05-21T2000,1446A,106.7164,26.5699,贵阳市,新华路,,23,12,18,3,13,71,,81,80,8,11,1,2,0.3,0.4
2024-05-21T2000,1447A,106.674,26.5424,贵阳市,太慈桥,,22,6,18,3,10,70,,80,80,10,12,6,6,0.4,0.4
2024-05-21T2000,1862A,110.4144,25.3167,桂林市,电子科大尧山校区,,29,24,25,20,17,91,,94,94,6,5,5,6,0.6,0.6
2024-05-21T2000,1863A,110.2819,25.2697,桂林市,监测站,,28,28,26,16,24,74,,92,90,16,10,6,5,0.6,0.6
2024-05-21T2000,1864A,110.3089,25.2708,桂林市,龙隐路小学,,26,24,22,18,16,80,,93,92,7,6,6,7,0.9,0.8
2024-05-21T2000,1865A,110.2869,25.2178,桂林市,八中,,29,29,24,18,13,78,,92,89,9,8,5,6,0.7,0.7
2024-05-21T2000,3403A,110.1764,25.2381,桂林市,创业大厦,,32,27,22,22,17,85,,102,100,10,7,10,8,0.6,0.6
2024-05-21T2000,3531A,110.296,25.1253,桂林市,旅游学院,,,19,12,9,10,85,,95,92,5,5,5,7,,0.6
2024-05-21T2000,2674A,100.2561,34.4714,果洛藏族自治州,玛沁县大武镇,,47,37,20,19,12,149,,144,144,11,17,9,10,0.4,0.4
2024-05-21T2000,1129A,126.5422,45.755,哈尔滨市,岭北,颗粒物(PM10),71,92,41,17,19,156,,140,140,18,20,14,13,0.6,0.7
2024-05-21T2000,1130A,126.561,45.8167,哈尔滨市,松北商大,颗粒物(PM10),61,71,45,17,15,125,,128,128,23,18,6,6,0.5,0.4
2024-05-21T2000,1131A,126.979,45.5419,哈尔滨市,阿城会宁,颗粒物(PM10),86,122,42,29,15,151,,127,127,17,11,16,11,0.9,0.6
2024-05-21T2000,1132A,126.599,45.7222,哈尔滨市,南岗学府路,颗粒物(PM10),79,108,55,27,14,155,,136,136,16,22,6,6,0.6,0.5
2024-05-21T2000,1133A,126.689,45.7733,哈尔滨市,太平宏伟公园,颗粒物(PM10),81,112,57,19,18,155,,134,134,21,21,8,8,0.6,0.5
2024-05-21T2000,1134A,126.635,45.7667,哈尔滨市,道外承德广场,颗粒物(PM10),77,103,54,48,30,140,,130,130,31,25,10,9,0.4,0.4
2024-05-21T2000,1135A,126.685,45.7319,哈尔滨市,香坊红旗大街,颗粒物(PM10),59,68,39,23,19,142,,129,129,23,24,9,9,0.6,0.5
2024-05-21T2000,1136A,126.6411,45.7258,哈尔滨市,动力和平路,颗粒物(PM10),77,104,54,19,14,150,,130,130,18,25,6,11,0.5,0.5
2024-05-21T2000,1137A,126.593,45.7478,哈尔滨市,道里建国路,颗粒物(PM10),70,89,50,38,22,136,,128,128,27,23,11,10,0.4,0.8
2024-05-21T2000,1138A,126.615,45.61,哈尔滨市,平房东轻厂,颗粒物(PM10),100,149,68,17,16,142,,132,132,16,12,8,8,0.5,0.4
2024-05-21T2000,1139A,126.595,45.9855,哈尔滨市,呼兰师专,颗粒物(PM10),70,89,56,19,19,144,,132,132,16,24,9,9,0.5,0.4
2024-05-21T2000,1140A,126.6206,45.6842,哈尔滨市,省农科院,颗粒物(PM10),90,130,71,37,22,147,,136,136,19,28,8,9,0.5,0.4
2024-05-21T2000,2688A,93.5128,42.8172,哈密市,地区监测站,颗粒物(PM10),393,494,100,59,30,100,,126,124,15,9,3,3,0.2,0.2
2024-05-21T2000,2689A,93.4961,42.8328,哈密市,哈密师范学校,颗粒物(PM10),249,384,90,47,23,103,,118,118,8,8,4,5,0.4,0.3
2024-05-21T2000,2671A,100.9048,36.9639,海北藏族自治州,海晏县西海镇,,44,39,39,19,20,139,,146,146,6,10,8,9,0.4,0.4
2024-05-21T2000,3867A,102.0738,36.5056,海东市,平安区公安北苑,颗粒物(PM10),56,62,57,31,34,162,,162,162,11,15,8,13,0.3,0.5
2024-05-21T2000,1410A,110.3232,20.0574,海口市,海南大学,,32,17,19,10,12,100,,103,103,10,11,5,5,0.6,0.5
2024-05-21T2000,1411A,110.283,20.0053,海口市,秀英海南医院,,22,15,20,10,14,70,,82,82,11,12,5,5,0.4,0.4
2024-05-21T2000,1412A,110.338,19.9969,海口市,海南师范大学,,23,15,15,8,11,72,,88,86,6,7,6,6,0.5,0.5
2024-05-21T2000,1413A,110.33,20.0356,海口市,龙华路环保局宿舍,,,16,18,12,12,84,,92,92,12,10,6,6,,0.4
2024-05-21T2000,3539A,110.5111,19.9736,海口市,桂林洋子站,,25,15,20,7,8,77,,77,77,6,7,5,5,0.4,0.4
2024-05-21T2000,2673A,100.6188,36.2866,海南藏族自治州,共和县恰卜恰镇,臭氧1小时,53,36,33,10,16,162,,157,157,10,12,11,11,0.4,0.5
2024-05-21T2000,2676A,97.3731,37.3753,海西蒙古族藏族自治州,德令哈市,颗粒物(PM10),52,53,51,21,17,133,,144,144,15,10,6,7,0.4,0.6
2024-05-21T2000,1048A,114.5302,36.6116,邯郸市,东污水处理厂,颗粒物(PM10),58,65,53,34,44,151,,166,166,15,17,7,6,0.4,0.4
2024-05-21T2000,1049A,114.4918,36.5713,邯郸市,矿院,颗粒物(PM10),59,67,77,34,35,154,,170,169,12,15,9,8,0.7,0.7
2024-05-21T2000,1050A,114.484,36.6133,邯郸市,丛台公园,颗粒物(PM10),57,64,61,33,37,160,,171,170,9,12,8,8,0.4,0.5
2024-05-21T2000,3458A,114.7895,36.5593,邯郸市,香泉濮院小区,臭氧1小时,67,67,57,30,31,173,,187,187,9,9,7,6,0.3,0.3
2024-05-21T2000,3579A,114.50634,36.77178,邯郸市,永年区实验高中,臭氧1小时,73,69,67,29,41,178,,198,197,9,17,3,6,0.4,0.4
2024-05-21T2000,3580A,114.20016,36.44293,邯郸市,峰峰矿区临水派出所,颗粒物(PM10),63,75,64,38,37,164,,184,183,6,5,7,7,0.6,0.8
2024-05-21T2000,2634A,106.9893,33.1842,汉中市,汉川机床厂子校,,40,39,31,16,16,125,,152,152,8,8,5,5,0.6,0.6
2024-05-21T2000,2635A,107.0154,33.0706,汉中市,市监测站,,47,34,38,22,21,149,,155,155,9,10,8,9,0.4,0.5
2024-05-21T2000,2636A,107.0089,33.1138,汉中市,鑫源开发区,,45,29,35,19,18,144,,160,160,11,10,8,11,0.4,0.5
2024-05-21T2000,2637A,107.007,33.0323,汉中市,南郑大河坎水厂,,45,33,45,23,22,144,,156,156,7,9,8,8,0.4,0.4
2024-05-21T2000,1223A,120.2072,30.2111,杭州市,滨江,,44,44,41,18,17,76,,102,100,25,22,7,5,0.6,0.6
2024-05-21T2000,1224A,120.0633,30.2747,杭州市,西溪,,38,38,33,20,20,83,,97,96,20,19,7,6,0.5,0.6
2024-05-21T2000,1226A,120.3461,30.3153,杭州市,下沙,,33,33,38,16,17,93,,104,101,23,26,10,8,0.4,0.4
2024-05-21T2000,1227A,120.1269,30.2456,杭州市,卧龙桥,,31,31,33,18,22,88,,107,106,20,17,7,5,0.5,0.5
2024-05-21T2000,1228A,120.1903,30.2692,杭州市,浙江农大,,31,31,34,17,20,78,,90,89,19,26,9,8,0.3,0.3
2024-05-21T2000,1230A,120.1197,30.3119,杭州市,和睦小学,,27,27,32,16,20,81,,99,97,28,31,6,5,0.4,0.4
2024-05-21T2000,1231A,120.3019,30.4183,杭州市,临平镇,,37,37,37,24,22,92,,103,100,18,17,7,5,0.4,0.5
2024-05-21T2000,1232A,120.2697,30.1819,杭州市,城厢镇,,40,40,37,26,23,73,,94,92,30,29,8,6,0.5,0.5
2024-05-21T2000,1233A,120.0883,30.1808,杭州市,云栖,,43,43,35,21,17,75,,96,95,30,26,9,8,0.6,0.6
2024-05-21T2000,3557A,119.9464,30.0494,杭州市,镇二中,,29,27,43,20,24,72,,92,89,17,23,8,8,0.6,0.6
2024-05-21T2000,3558A,119.7183,30.2367,杭州市,市府大楼,,32,32,39,18,27,84,,103,102,23,22,6,6,0.5,0.6
2024-05-21T2000,3656A,120.1556,30.2864,杭州市,消防大队,,34,34,35,20,20,80,,92,91,20,25,8,7,0.6,0.7
2024-05-21T2000,1270A,117.1959,31.7848,合肥市,明珠广场,颗粒物(PM10),54,58,63,34,38,94,,136,131,31,25,10,9,0.8,0.8
2024-05-21T2000,1271A,117.3072,31.8764,合肥市,三里街,颗粒物(PM10),51,51,55,24,32,93,,130,126,24,21,7,7,0.5,0.5
2024-05-21T2000,1272A,117.2588,31.8707,合肥市,琥珀山庄,,46,46,52,19,22,103,,137,134,18,17,10,10,0.5,0.5
2024-05-21T2000,1273A,117.1604,31.9052,合肥市,董铺水库,颗粒物(PM10),59,68,54,34,30,123,,160,152,16,17,1,2,0.4,0.4
2024-05-21T2000,1274A,117.25,31.8571,合肥市,长江中路,,48,48,62,32,40,94,,133,128,24,17,6,6,0.7,0.7
2024-05-21T2000,1275A,117.266,31.9436,合肥市,庐阳区,细颗粒物(PM2.5),64,66,61,46,35,99,,135,132,28,21,8,7,0.6,0.5
2024-05-21T2000,1276A,117.336,31.8586,合肥市,瑶海区,,45,44,55,31,31,90,,131,126,23,19,8,8,0.7,0.7
2024-05-21T2000,1277A,117.3027,31.7964,合肥市,包河区,颗粒物(PM10),54,58,60,34,36,78,,125,118,39,38,9,8,0.5,0.5
2024-05-21T2000,1278A,117.2776,31.7385,合肥市,滨湖新区,细颗粒物(PM2.5),52,48,61,36,38,100,,131,127,17,19,5,8,0.5,0.6
2024-05-21T2000,1279A,117.1318,31.8403,合肥市,高新区,,50,48,59,35,36,108,,138,135,19,19,8,8,0.8,0.8
2024-05-21T2000,3464A,117.3803,31.9147,合肥市,高教基地,,,,48,,30,,,100,,,13,,5,,0.5
2024-05-21T2000,3614A,79.924,37.0877,和田地区,地区环保局,颗粒物(PM10),266,396,1156,120,281,107,,104,104,3,4,5,6,0.4,0.4
2024-05-21T2000,3615A,79.9131,37.113,和田地区,市环保局,颗粒物(PM10),200,349,1255,102,291,90,,94,94,14,11,5,5,0.4,0.4
2024-05-21T2000,2516A,108.2011,24.715,河池市,东仁乐园,,15,15,24,6,12,5,,10,9,7,7,3,3,0.8,0.8
2024-05-21T2000,2517A,108.0497,24.6947,河池市,市环保站,,16,10,20,8,12,50,,77,74,11,12,8,8,0.6,0.5
2024-05-21T2000,2518A,108.0983,24.6989,河池市,市疾控中心,,18,18,23,10,12,46,,74,71,14,17,8,8,0.5,0.5
2024-05-21T2000,1697A,114.6944,23.7586,河源市,东埔,,15,15,9,3,5,42,,41,41,15,14,6,6,0.7,0.7
2024-05-21T2000,1698A,114.6892,23.7233,河源市,老城,,14,,8,7,6,42,,42,42,10,9,5,5,0.6,0.6
2024-05-21T2000,1718A,115.4208,35.2464,菏泽市,气象局,颗粒物(PM10),58,66,72,16,31,138,,173,173,18,17,4,7,0.4,0.5
2024-05-21T2000,1719A,115.4747,35.2375,菏泽市,市政协,颗粒物(PM10),56,62,63,22,33,134,,172,171,18,14,4,6,0.2,0.2
2024-05-21T2000,3374A,115.5564,35.0891,菏泽市,定陶老年大学,,48,48,60,17,30,126,,159,159,14,18,5,6,0.6,0.7
2024-05-21T2000,3647A,115.4702,35.2706,菏泽市,菏泽医专,颗粒物(PM10),56,62,66,19,29,141,,168,168,11,14,4,7,0.2,0.3
2024-05-21T2000,2514A,111.5264,24.4172,贺州市,环保小区,,28,28,22,12,12,51,,62,60,15,11,6,7,0.7,0.7
2024-05-21T2000,2515A,111.5608,24.4078,贺州市,政协大楼,,22,18,25,15,15,61,,62,62,10,12,6,6,0.5,0.5
2024-05-21T2000,3534A,111.4744,24.4553,贺州市,西湾,,20,,18,14,11,59,,64,64,11,8,8,8,0.6,0.6
2024-05-21T2000,2385A,114.17,35.9019,鹤壁市,市监测站,颗粒物(PM10),63,75,70,43,45,151,,189,187,10,8,9,12,0.6,0.7
2024-05-21T2000,2386A,114.2956,35.7511,鹤壁市,市交警支队,颗粒物(PM10),60,70,67,26,40,158,,177,177,21,16,8,10,0.5,0.4
2024-05-21T2000,2387A,114.2878,35.7306,鹤壁市,迎宾馆,"颗粒物(PM10),细颗粒物(PM2.5)",57,63,66,40,45,156,,180,180,20,16,11,12,0.5,0.5
2024-05-21T2000,3474A,114.2617,35.6822,鹤壁市,大新区,颗粒物(PM10),60,69,63,35,30,126,,167,166,27,17,10,10,0.6,0.6
2024-05-21T2000,3596A,114.1572,35.9603,鹤壁市,南山宾馆,颗粒物(PM10),63,76,62,36,44,163,,189,189,12,12,10,11,0.6,0.7
2024-05-21T2000,2244A,130.2537,47.3416,鹤岗市,哈啤分公司,颗粒物(PM10),61,71,28,17,12,45,,84,71,26,12,13,12,0.4,2.9
2024-05-21T2000,2245A,130.2684,47.3086,鹤岗市,斯达机电,,37,37,30,13,13,58,,82,74,22,13,10,12,0.4,0.4
2024-05-21T2000,2246A,130.3114,47.3388,鹤岗市,东山纸板厂,颗粒物(PM10),61,72,67,15,18,41,,86,73,28,21,15,15,0.4,0.7
2024-05-21T2000,2247A,130.1097,47.3382,鹤岗市,五号水库,,27,27,25,9,10,56,,103,86,15,8,11,11,0.3,0.3
2024-05-21T2000,2263A,127.4833,50.2524,黑河市,交通局,,36,26,30,25,20,50,,81,67,13,19,6,8,0.4,0.3
2024-05-21T2000,2264A,127.5144,50.2341,黑河市,环保局,,33,33,34,23,19,54,,92,76,13,15,5,6,0.5,0.4
2024-05-21T2000,2265A,127.5291,50.2472,黑河市,大黑河岛,,38,27,30,26,18,61,,87,73,13,14,6,6,0.5,0.5
2024-05-21T2000,1074A,115.6838,37.7541,衡水市,电机北厂,细颗粒物(PM2.5),59,55,32,42,22,137,,145,145,15,16,3,5,0.4,0.3
2024-05-21T2000,1075A,115.6303,37.7316,衡水市,市监测站,,49,49,35,28,19,133,,153,153,20,17,6,7,0.6,0.4
2024-05-21T2000,3188A,115.6683,37.7217,衡水市,市城管局,,,64,34,34,23,141,,154,154,,19,,4,0.5,0.4
2024-05-21T2000,3459A,115.5989,37.5491,衡水市,地表水厂,颗粒物(PM10),57,64,44,30,20,128,,149,148,20,24,3,3,0.4,0.3
2024-05-21T2000,2456A,112.5003,26.9167,衡阳市,原169医院,颗粒物(PM10),77,104,40,24,22,66,,76,76,12,8,5,4,0.8,0.7
2024-05-21T2000,2457A,112.6194,26.9258,衡阳市,衡阳化工总厂,,46,46,44,24,26,97,,97,97,12,11,8,9,0.6,0.6
2024-05-21T2000,2458A,112.6211,26.8956,衡阳市,珠晖区环保局,,42,42,39,22,22,98,,100,100,11,15,7,7,0.7,0.7
2024-05-21T2000,2459A,112.6197,26.8733,衡阳市,市委党校,,38,37,35,26,25,107,,104,104,8,10,4,5,0.6,0.6
2024-05-21T2000,2460A,112.6006,26.8919,衡阳市,市监测站,细颗粒物(PM2.5),57,52,38,40,28,98,,104,104,12,9,8,8,0.7,0.6
2024-05-21T2000,2461A,112.5664,26.9056,衡阳市,真空机电公司,,46,46,38,26,21,89,,96,96,10,9,7,7,0.7,0.7
2024-05-21T2000,3399A,112.6703,26.882,衡阳市,师范学院,,40,40,38,28,29,106,,106,106,9,10,8,8,0.7,0.7
2024-05-21T2000,2608A,103.3772,23.3993,红河哈尼族彝族自治州,污水处理厂,,50,45,42,35,30,108,,127,127,11,19,9,21,0.5,0.5
2024-05-21T2000,2609A,103.3861,23.35,红河哈尼族彝族自治州,监测站,颗粒物(PM10),56,62,39,27,20,107,,128,128,14,19,17,17,0.4,0.4
2024-05-21T2000,3038A,103.3758,23.368,红河哈尼族彝族自治州,州图书馆,,43,38,41,30,26,102,,122,122,12,17,5,15,0.4,0.4
2024-05-21T2000,1090A,111.6507,40.7517,呼和浩特市,呼市一监,颗粒物(PM10),68,85,70,29,27,171,,200,198,14,19,8,9,0.4,0.4
2024-05-21T2000,1091A,111.6572,40.8033,呼和浩特市,小召,,,,60,,30,189,,189,189,13,23,,8,,0.5
2024-05-21T2000,1094A,111.7516,40.8369,呼和浩特市,如意水处理厂,颗粒物(PM10),65,80,66,24,21,159,,186,184,36,26,10,7,0.5,0.4
2024-05-21T2000,1095A,111.7276,40.8062,呼和浩特市,二十九中,臭氧1小时,88,82,78,28,28,190,,196,196,23,28,6,3,0.5,0.5
2024-05-21T2000,1096A,111.5512,40.7866,呼和浩特市,工大金川校区,颗粒物(PM10),67,84,68,39,31,165,,193,192,33,34,8,9,0.5,0.4
2024-05-21T2000,1097A,111.717,40.7612,呼和浩特市,化肥厂生活区,颗粒物(PM10),78,105,92,42,38,152,,192,188,44,26,10,9,0.5,0.4
2024-05-21T2000,3698A,111.5968,40.8178,呼和浩特市,红旗小学,臭氧1小时,83,85,69,33,26,186,,196,196,32,36,6,6,0.4,0.4
2024-05-21T2000,3699A,111.6518,40.8389,呼和浩特市,海东办,臭氧1小时,85,78,64,32,26,188,,195,195,21,24,8,7,0.4,0.4
2024-05-21T2000,2192A,119.7594,49.2261,呼伦贝尔市,区环保局,,47,47,30,24,15,94,,112,107,10,9,4,4,0.4,0.3
2024-05-21T2000,3061A,119.7512,49.1577,呼伦贝尔市,国华电力东,,38,38,25,17,9,99,,114,109,6,5,4,4,0.3,0.3
2024-05-21T2000,1250A,120.0751,30.8669,湖州市,城西水厂,,27,19,30,8,17,86,,108,105,20,18,7,5,0.5,0.6
2024-05-21T2000,2873A,120.0875,30.8955,湖州市,仁皇山新区,,28,22,29,11,17,89,,108,104,20,21,8,6,0.6,0.6
2024-05-21T2000,2907A,120.1844,30.8596,湖州市,吴兴区站,,27,27,28,10,16,84,,103,98,17,12,10,6,0.4,0.4
2024-05-21T2000,3562A,120.4148,30.8538,湖州市,南浔区站,,36,36,25,20,17,93,,100,98,18,14,9,7,0.4,0.4
2024-05-21T2000,1607A,120.9092,40.7136,葫芦岛市,龙港区,细颗粒物(PM2.5),69,58,43,50,34,124,,116,116,6,12,7,8,0.7,0.7
2024-05-21T2000,1608A,120.8392,40.7514,葫芦岛市,化工街,颗粒物(PM10),51,51,59,34,28,111,,112,110,14,40,10,14,1.3,1.3
2024-05-21T2000,1609A,120.8341,40.7073,葫芦岛市,新区,细颗粒物(PM2.5),77,,36,56,43,129,,121,121,6,22,6,7,0.7,0.7
2024-05-21T2000,1610A,120.8695,40.7677,葫芦岛市,东城区,细颗粒物(PM2.5),67,,45,48,43,123,,130,127,11,40,5,8,0.8,0.9
2024-05-21T2000,2482A,109.5981,27.5721,怀化市,林科所,,32,32,20,15,9,96,,114,105,24,2,4,4,0.6,0.7
2024-05-21T2000,2483A,109.9453,27.5444,怀化市,河西地税局,,40,40,26,26,16,87,,97,97,10,6,5,5,0.6,0.6
2024-05-21T2000,2484A,109.9781,27.5342,怀化市,市四医院,,40,,25,28,17,89,,101,100,10,8,3,10,0.4,0.7
2024-05-21T2000,2485A,109.9972,27.5578,怀化市,监测楼,,42,42,28,25,16,88,,94,94,6,5,8,16,0.6,0.6
2024-05-21T2000,2486A,110.0394,27.583,怀化市,市委党校,,38,38,26,21,17,84,,95,94,10,5,4,18,0.6,0.6
2024-05-21T2000,1210A,119.036,33.5981,淮安市,钵池山,,23,19,22,14,18,73,,97,93,10,10,7,7,0.5,0.5
2024-05-21T2000,1211A,119.007,33.575,淮安市,北京南路,,24,22,24,12,16,74,,100,96,8,9,8,8,0.4,0.4
2024-05-21T2000,1212A,118.989,33.6067,淮安市,市监测站,,24,22,24,12,13,74,,95,92,12,13,6,6,0.4,0.4
2024-05-21T2000,1213A,119.135,33.5039,淮安市,楚州区监测站,,32,32,29,13,14,55,,93,86,23,13,8,8,0.6,0.5
2024-05-21T2000,1214A,119.0186,33.6297,淮安市,淮阴区监测站,,26,19,25,18,21,70,,95,92,16,16,6,7,0.4,0.4
2024-05-21T2000,3426A,118.8755,33.2894,淮安市,新华书店,,26,26,24,14,16,74,,104,100,12,10,5,6,0.3,0.3
2024-05-21T2000,2282A,116.8004,33.975,淮北市,监测站,,44,44,47,14,21,114,,118,118,5,5,5,5,0.4,0.5
2024-05-21T2000,2283A,116.8091,33.9007,淮北市,烈山区政府,,,,48,12,16,120,,123,123,3,5,3,4,0.4,0.4
2024-05-21T2000,3330A,116.8873,33.9836,淮北市,杜集区检察院,,39,37,45,21,26,124,,130,130,7,5,4,5,0.5,0.5
2024-05-21T2000,4017A,116.7923,33.9535,淮北市,市博物馆,,40,38,39,12,19,125,,126,126,3,3,4,4,0.4,0.5
2024-05-21T2000,2277A,116.8305,32.7727,淮南市,潘集区政府,颗粒物(PM10),59,68,48,38,28,134,,141,140,14,13,7,6,0.4,0.2
2024-05-21T2000,2278A,117.0067,32.6524,淮南市,师范学院,细颗粒物(PM2.5),73,68,51,53,32,133,,130,130,10,7,10,13,0.3,0.3
2024-05-21T2000,2279A,116.8569,32.5951,淮南市,谢家集区政府,颗粒物(PM10),59,68,46,29,16,139,,133,133,16,12,13,8,0.3,0.2
2024-05-21T2000,2280A,116.8281,32.633,淮南市,八公山区政府,细颗粒物(PM2.5),57,60,53,40,32,124,,123,123,14,11,4,6,0.5,0.4
2024-05-21T2000,2281A,116.6325,32.6201,淮南市,焦岗湖风景区管理处,,38,38,52,9,13,86,,113,110,39,25,4,5,0.3,0.2
2024-05-21T2000,2894A,117.0566,32.6531,淮南市,经济技术开发区消防队,,46,36,36,32,22,129,,130,130,20,13,4,7,0.4,0.3
2024-05-21T2000,3329A,117.0108,32.5893,淮南市,山南新区,"颗粒物(PM10),细颗粒物(PM2.5)",57,64,53,40,27,146,,138,138,12,10,5,8,0.4,0.4
2024-05-21T2000,2446A,114.9028,30.4742,黄冈市,职工中心,,45,41,53,31,35,97,,122,118,14,10,7,6,0.6,0.5
2024-05-21T2000,2929A,114.8858,30.4519,黄冈市,红卫路,,42,37,48,29,34,93,,126,116,12,5,14,11,0.7,0.5
2024-05-21T2000,3398A,114.9136,30.4445,黄冈市,市林业局,,42,35,45,29,36,97,,154,120,11,4,5,2,0.5,0.3
2024-05-21T2000,2672A,102.0199,35.5102,黄南藏族自治州,同仁县隆务镇,颗粒物(PM10),59,67,42,19,21,130,,143,143,12,2,8,8,0.5,0.6
2024-05-21T2000,2295A,118.2903,29.6963,黄山市,延安路89号,,33,33,42,6,11,62,,74,71,7,7,5,5,0.5,0.5
2024-05-21T2000,2296A,118.327,29.7178,黄山市,黄山东路89号,,19,19,24,3,6,58,,86,66,7,7,5,5,0.3,0.3
2024-05-21T2000,2297A,118.1371,30.2756,黄山市,黄山区政府5号楼,,15,15,29,10,20,44,,62,60,6,7,4,4,0.3,0.4
2024-05-21T2000,2423A,115.0601,30.2313,黄石市,沈家营,,34,34,47,16,23,96,,115,111,10,14,19,22,0.5,0.6
2024-05-21T2000,2424A,115.0817,30.2006,黄石市,陈家湾,,35,34,53,22,27,109,,116,116,8,16,8,7,0.5,0.8
2024-05-21T2000,2426A,114.8988,30.2019,黄石市,铁山,,33,28,41,14,24,104,,121,118,9,15,7,10,0.4,0.5
2024-05-21T2000,2427A,115.0307,30.2092,黄石市,团城山,,34,34,48,8,19,107,,118,118,8,12,12,12,0.4,0.5
2024-05-21T2000,3149A,115.0235,30.1578,黄石市,笔架山北路,,35,35,55,12,22,96,,121,110,9,8,4,9,0.6,0.7
2024-05-21T2000,1392A,114.4183,23.0528,惠州市,河南岸金山湖子站,,18,16,9,12,6,21,,37,34,26,13,4,5,0.6,0.5
2024-05-21T2000,1393A,114.4053,23.0822,惠州市,下埔横江三路子站,,16,15,10,11,7,23,,44,40,25,11,6,7,0.8,0.6
2024-05-21T2000,1394A,114.4103,23.1142,惠州市,江北云山西路子站,,13,13,6,6,5,19,,41,37,26,10,5,5,0.7,0.6
2024-05-21T2000,1395A,114.4645,22.7833,惠州市,惠阳区承修路船湖子站,,15,15,14,10,11,41,,51,50,22,18,3,4,0.6,0.6
2024-05-21T2000,1396A,114.5317,22.7422,惠州市,大亚湾管委会子站,,22,9,12,8,8,68,,62,61,15,19,4,5,0.8,0.8
2024-05-21T2000,3314A,114.4338,22.8134,惠州市,惠阳秋长,,19,19,20,7,9,28,,49,39,21,13,5,5,0.8,0.7
2024-05-21T2000,3452A,114.6517,22.775,惠州市,大亚湾霞涌,,20,,8,12,5,64,,65,65,9,7,7,6,0.3,0.3
2024-05-21T2000,2240A,130.9762,45.3001,鸡西市,环保局,,25,25,31,6,14,60,,74,71,11,8,5,5,0.3,0.3
2024-05-21T2000,2243A,130.9429,45.3039,鸡西市,第一中学,,35,35,26,11,12,57,,86,80,16,8,8,7,0.3,0.2
2024-05-21T2000,3707A,131.0207,45.3073,鸡西市,欧美日汽修厂,,42,31,41,29,23,56,,77,73,11,17,7,7,0.4,0.4
2024-05-21T2000,3709A,130.9967,45.3106,鸡西市,市政设施管理处,,28,28,38,8,16,55,,82,76,11,17,8,8,0.4,0.4
2024-05-21T2000,2367A,114.9754,27.0803,吉安市,红声器材厂,,25,25,24,12,13,54,,64,61,17,15,11,13,0.4,0.4
2024-05-21T2000,2368A,114.9658,27.0999,吉安市,市森林工业局,,24,24,26,12,17,50,,62,57,15,14,11,13,0.4,0.5
2024-05-21T2000,2369A,114.99,27.1312,吉安市,市环境监测站,,18,18,25,8,14,51,,62,59,14,12,13,14,0.6,0.6
2024-05-21T2000,2370A,115.0093,27.0968,吉安市,青原区法院,,26,21,30,18,16,47,,55,54,17,16,10,15,0.6,0.5
2024-05-21T2000,1772A,126.54,43.8622,吉林市,哈达湾,,44,34,12,10,6,140,,119,119,10,12,6,5,0.6,0.5
2024-05-21T2000,1773A,126.5844,43.8358,吉林市,东局子,,36,32,21,16,7,113,,107,107,33,12,5,4,0.6,0.5
2024-05-21T2000,1774A,126.5052,43.8245,吉林市,电力学院,,40,32,33,16,19,128,,116,116,17,18,9,8,0.6,0.6
2024-05-21T2000,1775A,126.6133,43.8972,吉林市,江北,,48,48,24,30,11,100,,104,104,32,19,8,7,0.7,0.6
2024-05-21T2000,1776A,126.555,43.8306,吉林市,江南公园,,42,42,20,18,11,130,,115,115,18,12,5,4,0.6,0.5
2024-05-21T2000,2868A,126.4739,43.953,吉林市,九站,,47,47,34,14,13,122,,120,120,20,24,6,7,0.6,0.5
2024-05-21T2000,1299A,116.9862,36.6114,济南市,科干所,颗粒物(PM10),78,105,83,49,34,174,,204,204,28,35,9,9,1.1,1
2024-05-21T2000,1300A,116.9376,36.665,济南市,农科所,颗粒物(PM10),77,103,83,39,27,148,,205,203,30,41,8,9,0.7,0.7
2024-05-21T2000,1301A,117.1265,36.6734,济南市,开发区,颗粒物(PM10),86,122,101,49,34,134,,217,213,32,51,9,10,0.6,0.7
2024-05-21T2000,1303A,117.0624,36.6868,济南市,省种子仓库,颗粒物(PM10),81,112,98,46,33,96,,205,196,46,45,5,7,0.7,0.6
2024-05-21T2000,1304A,116.9489,36.6447,济南市,机床二厂,颗粒物(PM10),80,110,94,44,31,160,,209,207,25,39,11,12,0.8,0.7
2024-05-21T2000,1305A,117.0495,36.663,济南市,市监测站,颗粒物(PM10),85,120,91,44,31,126,,221,214,52,54,11,12,0.8,0.7
2024-05-21T2000,1306A,116.7675,36.5484,济南市,长清党校,颗粒物(PM10),73,95,76,51,36,164,,194,193,23,34,8,9,0.9,0.8
2024-05-21T2000,1616A,117.6795,36.229,济南市,技术学院,颗粒物(PM10),53,56,70,34,39,132,,213,199,30,24,8,12,1.0,1
2024-05-21T2000,1961A,117.532,36.6868,济南市,东山小学,颗粒物(PM10),77,103,87,51,32,167,,224,221,19,34,8,9,0.8,0.6
2024-05-21T2000,3059A,117.7161,36.2049,济南市,泰兴公司,颗粒物(PM10),62,73,71,29,36,78,,197,174,48,27,6,9,0.8,0.8
2024-05-21T2000,3064A,117.6867,36.2171,济南市,莱芜战役纪念馆,颗粒物(PM10),53,56,70,31,34,104,,196,176,37,22,7,9,0.8,0.7
2024-05-21T2000,3494A,117.1673,36.9782,济南市,济阳区政府,,,,72,,31,120,,174,169,,24,,16,,0.8
2024-05-21T2000,3495A,117.1171,36.63,济南市,锦屏中学,颗粒物(PM10),83,115,82,54,34,150,,227,224,28,26,8,9,0.6,0.5
2024-05-21T2000,3682A,116.9814,36.6819,济南市,济南四建,颗粒物(PM10),78,105,80,37,31,130,,196,193,36,42,8,10,0.9,0.8
2024-05-21T2000,1653A,116.6251,35.4302,济宁市,火炬城,,46,46,55,14,25,144,,169,169,8,10,8,10,0.6,0.6
2024-05-21T2000,1655A,116.5491,35.4042,济宁市,电化厂,颗粒物(PM10),56,62,74,17,26,142,,168,168,10,14,7,7,0.7,0.8
2024-05-21T2000,3500A,116.5814,35.3707,济宁市,北湖一中,,50,50,60,19,24,139,,159,159,7,15,6,8,0.3,0.3
2024-05-21T2000,3501A,116.8249,35.5593,济宁市,服务中心,,,51,70,23,26,142,,185,182,,18,,5,0.6,0.7
2024-05-21T2000,3678A,116.5907,35.4054,济宁市,市第七中学,颗粒物(PM10),51,52,66,17,23,151,,178,178,7,12,6,8,0.5,0.5
2024-05-21T2000,2255A,130.2751,46.8028,佳木斯市,佳纺,,25,17,25,10,12,78,,98,90,5,7,3,3,0.3,0.3
2024-05-21T2000,2256A,130.3995,46.8307,佳木斯市,发电厂,,24,24,30,14,19,63,,96,84,17,14,4,6,0.3,0.3
2024-05-21T2000,2257A,130.3258,46.7975,佳木斯市,环保局,,24,19,26,9,11,75,,94,86,10,8,4,4,0.5,0.4
2024-05-21T2000,2258A,130.3648,46.8032,佳木斯市,十一中,,24,24,27,14,14,70,,94,83,14,14,6,6,0.5,0.4
2024-05-21T2000,2259A,130.3794,46.7588,佳木斯市,四丰,,,,15,1,7,80,,97,90,5,5,4,1,0.5,0.5
2024-05-21T2000,1252A,120.7436,30.778,嘉兴市,清河小学,,36,34,25,25,13,96,,97,97,18,15,8,5,0.8,0.8
2024-05-21T2000,1253A,120.726,30.7478,嘉兴市,嘉兴学院,,29,28,26,14,14,91,,92,92,17,13,10,7,0.4,0.4
2024-05-21T2000,2872A,120.7846,30.7525,嘉兴市,南湖区残联,,,,36,18,15,96,,96,96,,10,10,7,,0.5
2024-05-21T2000,3407A,120.6916,30.7739,嘉兴市,秀洲住建,,34,34,26,20,14,95,,95,95,18,14,10,6,0.6,0.6
2024-05-21T2000,1945A,98.2908,39.7711,嘉峪关市,气象局,颗粒物(PM10),113,175,206,56,76,138,,146,146,20,19,9,8,0.5,0.5
2024-05-21T2000,2884A,98.2672,39.7978,嘉峪关市,酒钢宾馆,颗粒物(PM10),92,134,200,41,77,135,,142,142,17,20,8,25,0.7,0.6
2024-05-21T2000,3248A,98.2643,39.7724,嘉峪关市,雄关区,,,102,163,30,56,142,,144,144,9,19,9,11,,0.5
2024-05-21T2000,1383A,113.1064,22.6058,江门市,北街,,32,27,13,22,11,14,,40,39,60,38,3,3,0.8,0.7
2024-05-21T2000,1384A,113.0731,22.5835,江门市,西区,,25,25,13,15,9,28,,37,37,41,36,5,5,1.0,0.7
2024-05-21T2000,1385A,113.0219,22.5311,江门市,圭峰西,,29,29,10,16,7,41,,49,49,27,29,4,4,0.7,0.7
2024-05-21T2000,1386A,113.0828,22.5947,江门市,东湖,,30,30,15,10,9,24,,36,36,30,32,4,4,0.7,0.6
2024-05-21T2000,3311A,113.1075,22.5647,江门市,江海富民,,31,31,19,16,7,23,,41,40,49,36,4,4,0.8,0.7
2024-05-21T2000,3449A,113.05,22.4667,江门市,新会银湖,,24,18,13,12,9,6,,39,37,48,33,2,3,0.8,0.7
2024-05-21T2000,1828A,113.227,35.2125,焦作市,市环保局,臭氧1小时,75,81,65,36,39,180,,194,194,13,14,3,8,0.5,0.5
2024-05-21T2000,3169A,113.2725,35.2067,焦作市,太极体育中心,臭氧1小时,79,73,67,36,39,183,,196,196,9,10,3,6,0.2,0.3
2024-05-21T2000,3335A,113.3137,35.2641,焦作市,马村街道办,颗粒物(PM10),91,131,67,39,39,175,,190,190,8,10,5,6,0.4,0.5
2024-05-21T2000,3336A,113.2465,35.2373,焦作市,焦作技师学院,颗粒物(PM10),59,67,69,41,42,165,,181,181,12,13,3,4,0.5,0.5
2024-05-21T2000,3477A,113.1656,35.2539,焦作市,中站许衡医院,颗粒物(PM10),69,87,62,24,43,162,,184,184,22,16,8,9,0.5,0.6
2024-05-21T2000,3981A,113.2449,35.1803,焦作市,原李万街道办,,,,66,,36,176,,179,179,18,15,7,7,,0.4
2024-05-21T2000,1708A,116.3701,23.5345,揭阳市,新兴,,28,27,21,19,14,44,,54,54,26,19,5,9,0.6,0.5
2024-05-21T2000,1709A,116.3264,23.5443,揭阳市,西马,,36,36,24,13,10,52,,59,59,16,14,6,10,0.9,0.8
2024-05-21T2000,1710A,116.3611,23.5626,揭阳市,东兴,,34,34,23,18,13,43,,60,58,30,19,12,12,0.9,0.8
2024-05-21T2000,1711A,116.4151,23.5294,揭阳市,渔湖,,28,28,19,18,13,38,,52,51,26,14,5,8,0.8,0.7
2024-05-21T2000,3320A,116.403,23.5699,揭阳市,曲溪,,23,23,19,13,11,48,,55,55,21,19,4,11,0.7,0.6
2024-05-21T2000,1944A,102.1692,38.5167,金昌市,天庆家园,颗粒物(PM10),181,311,167,112,71,167,,171,171,14,16,9,15,0.8,0.3
2024-05-21T2000,3170A,102.1864,38.5253,金昌市,市委党校,颗粒物(PM10),165,280,198,105,69,162,,167,167,11,10,10,13,0.4,0.6
2024-05-21T2000,4022A,102.1647,38.5371,金昌市,金川区人防中心,细颗粒物(PM2.5),247,302,189,197,73,149,,157,157,17,13,12,15,0.6,0.7
2024-05-21T2000,1262A,119.647,29.077,金华市,十五中,,42,42,34,24,20,44,,71,62,25,16,4,5,0.5,0.4
2024-05-21T2000,1263A,119.686,29.1029,金华市,监测站,,40,40,34,23,18,38,,67,56,28,19,3,3,0.4,0.4
2024-05-21T2000,3659A,119.656,29.1131,金华市,气象局,,38,38,31,23,18,22,,69,53,47,21,5,5,0.5,0.4
2024-05-21T2000,1767A,121.1115,41.0879,锦州市,南山,细颗粒物(PM2.5),98,,46,73,52,129,,142,137,9,30,6,13,0.5,0.6
2024-05-21T2000,1768A,121.0533,40.8434,锦州市,开发区,细颗粒物(PM2.5),92,,60,68,48,123,,127,126,19,40,24,19,0.6,0.7
2024-05-21T2000,1769A,121.1836,41.1119,锦州市,百股街道,,49,46,41,34,22,127,,139,137,18,36,9,8,0.6,0.6
2024-05-21T2000,1770A,121.1178,41.1222,锦州市,天安街道,细颗粒物(PM2.5),70,51,52,51,47,116,,123,120,12,31,7,13,0.7,0.8
2024-05-21T2000,1771A,121.1303,41.1386,锦州市,北湖公园,细颗粒物(PM2.5),94,,48,70,46,122,,131,127,10,26,7,13,0.7,0.8
2024-05-21T2000,2160A,112.85,35.5051,晋城市,自来水公司,臭氧1小时,80,80,69,27,26,184,,178,178,15,20,8,6,0.7,0.8
2024-05-21T2000,2161A,112.8318,35.4936,晋城市,白云商贸,,,,65,,28,180,,174,174,15,19,8,8,0.6,0.8
2024-05-21T2000,2162A,112.8508,35.4887,晋城市,市环保局,臭氧1小时,74,92,76,27,28,179,,177,177,16,22,9,8,0.6,0.7
2024-05-21T2000,2163A,112.8676,35.4897,晋城市,技术学院,臭氧1小时,77,80,68,29,27,181,,175,175,18,25,9,7,0.6,0.7
2024-05-21T2000,3620A,112.8271,35.4828,晋城市,泽州一中,臭氧1小时,67,65,76,22,27,173,,170,170,18,23,9,9,0.9,1
2024-05-21T2000,2171A,112.7532,37.6945,晋中市,锦纶小区,颗粒物(PM10),65,80,69,31,36,142,,190,182,28,18,15,14,0.4,0.5
2024-05-21T2000,2173A,112.7249,37.7067,晋中市,南都小区,颗粒物(PM10),62,74,67,36,36,147,,190,185,22,17,11,10,0.7,0.6
2024-05-21T2000,2174A,112.6991,37.6982,晋中市,榆次区政府,颗粒物(PM10),57,63,63,36,36,142,,188,182,25,19,11,11,0.7,0.5
2024-05-21T2000,2865A,112.7195,37.6828,晋中市,榆次三中,颗粒物(PM10),64,78,64,29,29,137,,191,182,27,16,10,11,0.8,0.8
2024-05-21T2000,2439A,112.2014,31.0481,荆门市,竹园小学,,,,63,,37,130,,177,174,,15,23,10,,0.6
2024-05-21T2000,2440A,112.1969,30.9891,荆门市,掇刀,,49,46,62,34,39,137,,178,176,17,14,9,11,0.5,0.6
2024-05-21T2000,2441A,112.2213,31.0386,荆门市,石化一小,,41,,74,24,35,130,,180,177,22,16,20,12,0.6,0.6
2024-05-21T2000,3012A,112.1849,31.0362,荆门市,西山林语,,46,39,64,32,39,140,,181,179,13,11,8,8,0.6,0.6
2024-05-21T2000,3547A,112.1632,31.0138,荆门市,龙泉中学南校,颗粒物(PM10),51,51,54,32,31,142,,179,178,13,11,9,10,0.5,0.6
2024-05-21T2000,1844A,112.2494,30.3197,荆州市,市图书馆,,45,36,41,31,26,132,,163,162,19,15,6,7,0.5,0.6
2024-05-21T2000,1845A,112.2008,30.3544,荆州市,市委党校,,,32,39,22,26,144,,170,169,12,12,7,7,,0.7
2024-05-21T2000,3194A,112.2747,30.3122,荆州市,管委会,,41,36,42,21,31,130,,163,162,20,13,6,6,0.5,0.6
2024-05-21T2000,3548A,112.1655,30.3364,荆州市,学苑路,,46,30,33,27,31,146,,180,178,11,10,6,7,0.5,0.5
2024-05-21T2000,2343A,117.2117,29.2933,景德镇市,老干部活动中心,,13,,17,9,12,33,,69,42,12,10,6,6,0.2,0.2
2024-05-21T2000,2344A,117.1894,29.2789,景德镇市,兽医站,,18,16,21,12,10,46,,82,54,12,10,7,7,0.6,0.4
2024-05-21T2000,2345A,117.1547,29.2617,景德镇市,台达陶瓷,,17,17,16,10,11,41,,82,49,12,11,6,9,0.3,0.3
2024-05-21T2000,2346A,117.2461,29.2956,景德镇市,陶研所,,22,22,16,3,7,31,,60,46,28,14,3,4,0.2,0.2
2024-05-21T2000,1803A,115.9872,29.6815,九江市,十里,,21,15,30,3,18,66,,88,78,11,9,9,13,0.5,0.6
2024-05-21T2000,1804A,115.9584,29.7046,九江市,茅山头,,22,22,22,14,17,54,,76,67,14,13,10,10,0.5,0.5
2024-05-21T2000,1805A,115.9877,29.7295,九江市,西园,,19,13,23,13,15,57,,81,72,20,20,20,11,0.6,0.6
2024-05-21T2000,1806A,116.0172,29.6547,九江市,五七二七厂,,22,,20,9,20,70,,80,74,7,10,8,11,0.5,0.6
2024-05-21T2000,1808A,115.9114,29.6038,九江市,综合工业园,,19,19,28,9,19,39,,59,53,22,25,6,8,0.7,0.8
2024-05-21T2000,1809A,116.0721,29.7535,九江市,石化总厂,,31,31,29,15,16,42,,84,70,37,15,16,11,0.7,0.6
2024-05-21T2000,1810A,115.9773,29.5698,九江市,庐山气象台,,22,8,11,3,9,70,,78,70,2,3,7,12,0.8,0.7
2024-05-21T2000,3190A,116.0254,29.6994,九江市,外国语学校,,28,,19,19,16,50,,76,67,22,18,24,9,0.6,0.6
2024-05-21T2000,2658A,98.5061,39.7443,酒泉市,仓门街子站,颗粒物(PM10),98,146,207,33,53,137,,134,134,10,15,4,3,0.2,0.3
2024-05-21T2000,2659A,98.4989,39.7256,酒泉市,油田生活基地,颗粒物(PM10),100,149,215,59,69,139,,140,140,15,14,3,2,0.3,0.3
2024-05-21T2000,2698A,76.0072,39.4467,喀什地区,巡警大队,,38,25,154,3,19,120,,118,118,10,15,2,3,0.2,0.3
2024-05-21T2000,2699A,75.9755,39.4694,喀什地区,吾办,,39,24,111,7,34,124,,118,118,6,9,4,5,0.0,0.1
2024-05-21T2000,1824A,114.3389,34.7781,开封市,肿瘤医院,颗粒物(PM10),61,72,66,22,27,142,,167,167,14,13,2,3,0.4,0.4
2024-05-21T2000,1826A,114.2885,34.7965,开封市,世纪星幼儿园,颗粒物(PM10),58,65,59,15,25,153,,172,172,12,14,1,4,0.4,0.4
2024-05-21T2000,3147A,114.3438,34.8106,开封市,龙亭公园,颗粒物(PM10),52,53,69,8,25,149,,169,168,11,14,4,5,0.4,0.5
2024-05-21T2000,3210A,114.3644,34.7964,开封市,汴京公园,颗粒物(PM10),58,66,65,21,34,142,,170,169,19,19,3,4,0.6,0.6
2024-05-21T2000,3473A,114.2485,34.8306,开封市,技师学院,,,73,63,,58,156,,176,175,16,18,6,9,0.5,0.6
2024-05-21T2000,3592A,114.4644,34.7556,开封市,祥符区生态环境局,颗粒物(PM10),76,102,87,18,30,110,,162,158,44,23,6,8,0.4,0.5
2024-05-21T2000,1951A,84.895,45.6094,克拉玛依市,长征新村,,30,16,14,9,6,93,,106,94,7,4,8,8,0.2,0.1
2024-05-21T2000,1952A,84.8988,45.5893,克拉玛依市,南林小区,,30,15,14,6,9,93,,111,95,10,4,9,8,0.2,0.1
2024-05-21T2000,1954A,84.905,44.3396,克拉玛依市,独山子区,,24,11,22,3,10,76,,92,84,19,10,8,8,0.3,0.3
2024-05-21T2000,1955A,85.6979,46.098,克拉玛依市,乌尔禾区商贸楼,,31,9,17,3,5,97,,97,96,4,2,8,8,0.3,0.2
2024-05-21T2000,3612A,85.1045,45.6899,克拉玛依市,白碱滩区新站,,32,10,13,3,7,101,,113,100,6,3,8,8,0.1,0.1
2024-05-21T2000,2697A,76.1454,39.7142,克孜勒苏柯尔克孜自治州,市人民政府,,40,29,97,7,31,127,,129,128,3,8,6,8,0.1,0.1
2024-05-21T2000,3665A,76.1658,39.7157,克孜勒苏柯尔克孜自治州,克州文化中心,,41,11,89,8,35,130,,131,131,1,7,8,9,0.2,0.4
2024-05-21T2000,1450A,102.8204,24.8886,昆明市,呈贡新区,,37,30,30,17,18,118,,133,132,10,24,8,5,0.6,0.6
2024-05-21T2000,1452A,102.7252,25.0902,昆明市,龙泉镇,,33,31,22,6,9,103,,134,128,24,21,8,9,0.4,0.5
2024-05-21T2000,1453A,102.7266,25.0375,昆明市,东风东路,,35,28,25,15,14,111,,140,137,20,16,5,7,0.4,0.4
2024-05-21T2000,1454A,102.6742,25.0669,昆明市,金鼎山,,37,30,29,18,16,116,,141,138,20,15,4,5,0.5,0.4
2024-05-21T2000,1455A,102.6644,25.0401,昆明市,碧鸡广场,,37,27,26,19,21,117,,143,140,20,16,3,4,0.4,0.5
2024-05-21T2000,3179A,102.7494,25.0119,昆明市,官渡区博物馆,,36,34,30,15,16,114,,148,144,26,31,8,9,0.5,0.6
2024-05-21T2000,3375A,102.8017,24.8336,昆明市,青年创业园,,41,28,31,18,18,129,,149,147,13,24,8,10,0.5,0.5
2024-05-21T2000,3550A,102.7997,24.9786,昆明市,昆明学院,,39,24,36,11,18,124,,150,147,15,26,8,8,0.5,0.5
2024-05-21T2000,3551A,102.5967,24.6736,昆明市,晋宁区生态环境分局,,45,27,45,12,26,144,,168,166,14,18,3,4,0.7,0.7
2024-05-21T2000,3552A,102.6678,24.9856,昆明市,云天化总部,,39,27,26,14,15,123,,161,157,20,18,10,10,0.6,0.6
2024-05-21T2000,1456A,91.1319,29.6514,拉萨市,八廓街,,48,29,20,7,10,151,,159,159,11,5,7,7,0.2,0.2
2024-05-21T2000,1457A,91.1221,29.6747,拉萨市,市环保局,,47,27,25,8,12,150,,156,156,16,16,6,6,0.3,0.2
2024-05-21T2000,1458A,91.0874,29.6475,拉萨市,区监测站,,47,27,17,8,10,148,,155,155,19,14,6,5,0.2,0.2
2024-05-21T2000,1459A,91.1774,29.6541,拉萨市,西藏大学,,50,25,16,8,9,158,,161,161,5,5,4,4,0.3,0.2
2024-05-21T2000,1460A,90.9798,29.6588,拉萨市,区辐射站,,40,31,25,16,12,128,,147,146,35,13,13,7,0.3,0.3
2024-05-21T2000,1461A,91.0834,29.6292,拉萨市,拉萨火车站,,46,29,19,8,9,147,,153,153,15,9,8,6,0.2,0.2
2024-05-21T2000,2520A,109.2203,23.7256,来宾市,来宾技工学校,,27,16,26,13,14,86,,96,94,6,11,3,7,0.6,0.7
2024-05-21T2000,3535A,109.1781,23.7297,来宾市,兴宾区政府,,26,24,23,3,16,83,,95,91,8,11,3,5,0.5,0.5
2024-05-21T2000,4002A,109.2416,23.7461,来宾市,中南小学,,27,19,25,16,16,85,,102,100,10,17,4,5,0.6,0.7
2024-05-21T2000,1476A,103.631,36.1031,兰州市,兰炼宾馆,颗粒物(PM10),60,69,65,32,32,149,,177,174,17,35,5,7,0.2,0.4
2024-05-21T2000,1478A,103.8412,36.0726,兰州市,生物制品所,细颗粒物(PM2.5),79,70,62,58,36,133,,154,153,24,29,10,10,0.3,0.1
2024-05-21T2000,1479A,103.831,36.0464,兰州市,铁路设计院,颗粒物(PM10),56,62,56,24,26,135,,158,157,28,34,5,6,0.4,0.4
2024-05-21T2000,3186A,103.7158,36.1058,兰州市,教育港,颗粒物(PM10),56,61,64,38,32,143,,162,162,15,24,7,8,0.3,0.3
2024-05-21T2000,3241A,103.7439,36.0842,兰州市,百合公园,,50,50,53,31,25,136,,159,158,16,25,3,4,0.3,0.2
2024-05-21T2000,3242A,103.9611,35.998,兰州市,和平,细颗粒物(PM2.5),87,72,79,64,33,145,,154,154,12,18,8,9,0.3,0.4
2024-05-21T2000,3245A,103.6633,36.533,兰州新区,新区管委会,臭氧1小时,64,60,58,36,36,171,,173,173,7,11,8,12,0.3,0.4
2024-05-21T2000,3246A,103.6975,36.4789,兰州新区,舟曲中学,颗粒物(PM10),64,78,75,30,43,160,,167,167,10,12,8,10,0.5,0.5
2024-05-21T2000,1067A,116.6708,39.5111,廊坊市,药材公司,,49,49,37,32,22,114,,158,158,38,24,7,6,0.9,0.6
2024-05-21T2000,1068A,116.7214,39.5589,廊坊市,开发区,,,54,35,25,18,120,,158,157,,24,5,4,0.8,0.5
2024-05-21T2000,1070A,116.7244,39.5269,廊坊市,北华航天学院,颗粒物(PM10),54,57,43,29,22,109,,152,150,39,22,6,4,0.7,0.4
2024-05-21T2000,2919A,116.7022,39.5453,廊坊市,河北工业大学,颗粒物(PM10),55,59,41,28,20,114,,154,153,36,22,4,3,0.7,0.4
2024-05-21T2000,2535A,103.7723,29.5462,乐山市,花湖湾,,47,23,25,18,20,149,,140,140,7,13,3,4,0.5,0.6
2024-05-21T2000,2536A,103.7627,29.5844,乐山市,牛耳桥,,45,31,29,16,21,143,,142,142,16,20,9,11,0.4,0.5
2024-05-21T2000,2537A,103.7508,29.6006,乐山市,市第三水厂,,45,28,26,15,20,142,,141,141,14,17,3,5,0.3,0.4
2024-05-21T2000,2538A,103.7571,29.5664,乐山市,市监测站,,47,24,28,19,16,149,,143,143,9,14,6,7,0.7,0.7
2024-05-21T2000,3361A,103.7311,29.5628,乐山市,理工大学,,44,26,28,16,19,138,,150,149,10,15,7,8,0.5,0.5
2024-05-21T2000,2599A,100.2497,26.8802,丽江市,丽江古城,,34,34,32,17,17,104,,115,115,18,16,8,6,0.6,0.6
2024-05-21T2000,2600A,100.2203,26.8906,丽江市,市中心,,34,24,22,15,13,108,,118,118,16,14,10,9,0.9,0.9
2024-05-21T2000,1267A,119.914,28.4514,丽水市,监测站大楼,,15,15,25,8,14,26,,46,41,21,22,3,2,0.7,0.7
2024-05-21T2000,1268A,119.93,28.4586,丽水市,莲都小学,,26,26,26,17,14,18,,47,42,32,22,4,4,0.9,0.8
2024-05-21T2000,1269A,119.879,28.4231,丽水市,余庄前,,18,18,26,10,18,14,,34,33,19,14,4,4,0.6,0.6
2024-05-21T2000,1173A,119.176,34.5885,连云港市,市环境监测站,,27,27,23,14,15,63,,92,85,13,9,6,6,0.2,0.1
2024-05-21T2000,3000A,119.3581,34.6972,连云港市,德源药业,,22,22,18,14,10,66,,87,80,8,7,5,5,0.3,0.4
2024-05-21T2000,3007A,119.178,34.844,连云港市,新城一中,,22,,18,15,9,63,,84,76,12,8,5,4,0.7,0.6
2024-05-21T2000,3008A,119.3608,34.7519,连云港市,胡沟管理处,,24,24,16,12,7,39,,74,55,32,25,8,8,0.3,0.3
2024-05-21T2000,3009A,119.1478,34.5911,连云港市,矿山设计院,,27,27,30,9,12,62,,,,14,12,6,5,0.7,0.7
2024-05-21T2000,3434A,119.2413,34.6539,连云港市,工贸学校,,25,25,25,15,16,73,,101,96,8,7,7,7,0.7,0.7
2024-05-21T2000,3664A,119.4172,34.7341,连云港市,连云街道,,29,29,23,14,12,69,,76,74,11,21,3,3,0.3,0.3
2024-05-21T2000,2571A,102.3431,27.8099,凉山彝族自治州,青龙寺,,28,18,23,15,17,87,,144,139,8,7,3,3,0,0.1
2024-05-21T2000,2572A,102.2721,27.8415,凉山彝族自治州,邛海宾馆,,33,26,20,15,12,103,,136,136,10,11,8,10,0.5,0.6
2024-05-21T2000,2573A,102.2625,27.898,凉山彝族自治州,西昌市政府,,30,26,21,17,12,96,,134,133,6,8,10,11,0.5,0.5
2024-05-21T2000,2574A,102.2685,27.8851,凉山彝族自治州,凉山州政府,,35,26,22,15,13,110,,133,133,12,9,7,8,0.5,0.5
2024-05-21T2000,2575A,102.237,27.8914,凉山彝族自治州,长安,,33,33,26,14,13,101,,137,137,11,13,9,10,0.6,0.5
2024-05-21T2000,2212A,123.2,41.1953,辽阳市,宏伟区,,30,23,32,13,16,95,,114,111,12,18,10,10,0.7,0.7
2024-05-21T2000,2213A,123.1683,41.2495,辽阳市,新华园,颗粒物(PM10),72,94,51,34,25,108,,120,118,36,35,12,13,0.9,0.9
2024-05-21T2000,2214A,123.2354,41.2639,辽阳市,滨河路,,28,28,46,7,20,88,,112,107,18,27,9,9,0.4,0.6
2024-05-21T2000,2215A,123.149,41.2991,辽阳市,铁西工业园,颗粒物(PM10),71,92,67,34,29,107,,138,136,44,32,21,16,2.3,1.3
2024-05-21T2000,2227A,125.1358,42.8845,辽源市,环保局,,30,26,18,12,11,95,,139,137,32,19,7,8,0.8,0.6
2024-05-21T2000,3239A,125.0764,42.9078,辽源市,银鹰制药,,31,23,19,6,11,97,,138,136,50,24,18,7,0.7,0.7
2024-05-21T2000,1625A,115.9848,36.4372,聊城市,区政府,臭氧1小时,74,85,62,34,27,179,,188,188,18,19,9,11,0.9,0.8
2024-05-21T2000,2878A,116.0072,36.4343,聊城市,聊大东校,臭氧1小时,99,84,60,36,31,199,,204,204,19,19,6,9,0.7,0.7
2024-05-21T2000,3200A,115.9819,36.4978,聊城市,监控中心,臭氧1小时,93,83,72,22,18,194,,204,204,18,21,10,12,0.9,0.7
2024-05-21T2000,3513A,116.0445,36.4361,聊城市,九州社区,臭氧1小时,83,92,75,34,26,186,,198,198,15,18,8,8,0.5,0.5
2024-05-21T2000,4018A,116.0567,36.4608,聊城市,星美广场,臭氧1小时,84,86,69,34,28,187,,197,197,16,22,7,7,0.6,0.6
2024-05-21T2000,2632A,94.3681,29.6376,林芝市,林芝监测站,臭氧1小时,55,18,26,9,15,164,,149,149,3,3,6,6,0.3,0.3
2024-05-21T2000,2633A,94.3616,29.6616,林芝市,林芝人民医院,,,22,26,8,13,172,,156,156,6,6,7,7,,0.4
2024-05-21T2000,2603A,100.0781,23.8982,临沧市,市环保局,颗粒物(PM10),52,54,28,33,19,78,,84,84,18,14,6,7,0.7,0.6
2024-05-21T2000,2604A,100.0894,23.8822,临沧市,市气象局,,50,39,28,35,22,89,,88,88,15,15,7,8,0.6,0.6
2024-05-21T2000,1733A,111.5531,36.0783,临汾市,临钢医院,颗粒物(PM10),68,86,80,24,27,141,,175,169,14,13,4,6,0.4,0.7
2024-05-21T2000,1734A,111.5028,36.0714,临汾市,技工学校,颗粒物(PM10),81,111,79,35,37,142,,183,175,15,16,4,8,0.5,0.8
2024-05-21T2000,1736A,111.5018,36.0855,临汾市,市委,,,,73,,28,150,,189,181,12,14,5,12,0.4,0.9
2024-05-21T2000,3018A,111.505,36.1014,临汾市,唐尧大酒店,颗粒物(PM10),73,96,88,22,27,131,,170,161,11,11,5,7,0.4,0.7
2024-05-21T2000,3668A,111.5036,36.0414,临汾市,城南,颗粒物(PM10),76,101,85,24,38,140,,186,176,15,19,6,8,0.3,0.7
2024-05-21T2000,2667A,103.2069,35.5993,临夏回族自治州,环保局,颗粒物(PM10),54,58,91,19,32,138,,143,143,12,15,4,4,0.4,0.4
2024-05-21T2000,2668A,103.2417,35.6057,临夏回族自治州,建设大厦,颗粒物(PM10),68,86,88,37,37,143,,148,148,8,15,11,10,0.2,0.3
2024-05-21T2000,1618A,118.3429,35.0532,临沂市,沂河小区,,34,34,34,12,19,67,,142,130,16,11,5,6,0.2,0.2
2024-05-21T2000,1619A,118.295,35.0583,临沂市,鲁南制药厂,,,27,22,11,14,79,,136,130,16,7,,5,0.4,0.3
2024-05-21T2000,1620A,118.2794,34.9976,临沂市,新光毛纺厂,,27,27,22,12,14,85,,126,123,16,8,7,4,0.5,0.4
2024-05-21T2000,1621A,118.3956,35.0888,临沂市,河东保险公司,,27,27,28,8,13,71,,121,116,13,9,3,4,0.2,0.3
2024-05-21T2000,3370A,118.3564,35.0215,临沂市,十里堡居委,,27,27,27,12,15,73,,126,121,14,9,4,4,0.4,0.3
2024-05-21T2000,3496A,118.3604,35.1084,临沂市,南坊新区,,25,24,29,3,12,77,,134,129,16,12,5,6,0.4,0.4
2024-05-21T2000,3860A,118.3920,35.0300,临沂市,皇山花园小区,,31,31,31,13,17,73,,127,120,20,15,7,7,0.5,0.5
2024-05-21T2000,1870A,109.4856,24.3895,柳州市,柳东小学,,,27,20,23,14,52,,78,72,,11,10,9,0.6,0.6
2024-05-21T2000,1871A,109.4157,24.3277,柳州市,环保监测站,颗粒物(PM10),52,54,29,12,15,51,,81,74,15,14,10,9,0.9,0.8
2024-05-21T2000,1872A,109.389,24.341,柳州市,河西水厂,,22,22,25,12,14,46,,79,72,15,13,14,10,1.1,0.9
2024-05-21T2000,1873A,109.4311,24.2921,柳州市,市四中,,28,22,26,19,16,56,,86,79,13,14,8,7,0.7,0.7
2024-05-21T2000,1874A,109.4006,24.3631,柳州市,市九中,,33,33,28,9,18,48,,82,74,17,17,11,10,0.6,0.7
2024-05-21T2000,1875A,109.4958,24.3134,柳州市,古亭山,,23,23,21,12,11,58,,89,82,9,14,9,8,0.6,0.6
2024-05-21T2000,3402A,109.5422,24.3996,柳州市,市二中,,17,13,19,9,11,52,,85,78,13,15,10,9,0.5,0.5
2024-05-21T2000,2307A,116.5079,31.737,六安市,监测大楼,细颗粒物(PM2.5),54,51,45,38,31,136,,147,147,16,15,5,5,0.6,0.5
2024-05-21T2000,2308A,116.4738,31.7643,六安市,皖西学院,颗粒物(PM10),51,51,53,30,28,150,,157,157,14,15,4,5,0.6,0.5
2024-05-21T2000,2309A,116.4996,31.7905,六安市,朝阳厂,颗粒物(PM10),56,61,50,31,29,133,,146,146,15,13,6,7,0.5,0.4
2024-05-21T2000,2310A,116.5567,31.7886,六安市,开发区,细颗粒物(PM2.5),68,77,52,49,29,121,,145,145,28,16,9,9,0.6,0.6
2024-05-21T2000,2577A,104.83,26.5917,六盘水市,黄土坡,,41,29,25,15,14,129,,136,135,11,12,7,6,0.3,0.3
2024-05-21T2000,2578A,104.89,26.5939,六盘水市,水钢,,40,35,34,17,20,128,,134,134,11,24,9,16,0.4,0.8
2024-05-21T2000,2579A,104.8475,26.5894,六盘水市,民中,,40,23,24,12,14,127,,131,130,8,14,6,7,0.5,0.5
2024-05-21T2000,2580A,104.9544,26.5506,六盘水市,双水,,43,22,28,20,14,135,,135,135,5,17,5,8,0.3,0.5
2024-05-21T2000,2336A,117.0217,25.1033,龙岩市,龙岩市监测站,,15,,11,10,11,48,,59,55,13,13,3,8,0.5,0.4
2024-05-21T2000,2337A,117.0258,25.0661,龙岩市,闽西职业技术学院,,15,8,15,8,12,48,,54,53,11,14,2,7,0.7,0.6
2024-05-21T2000,2338A,117.0196,25.0306,龙岩市,龙岩学院,,14,10,18,6,11,44,,57,54,16,16,4,4,0.6,0.5
2024-05-21T2000,2885A,104.9339,33.3826,陇南市,滨江中学,,43,43,50,19,18,113,,127,125,2,3,4,8,0.5,0.5
2024-05-21T2000,3247A,104.955,33.371,陇南市,市总工会,,39,39,33,6,7,120,,132,130,4,5,6,6,0.4,0.4
2024-05-21T2000,2487A,111.9589,27.8901,娄底市,电视发射台,,49,45,36,34,23,82,,85,83,5,5,6,6,0.7,0.6
2024-05-21T2000,2488A,111.9975,27.725,娄底市,市监测站,颗粒物(PM10),57,63,43,36,24,90,,92,92,15,14,8,5,0.6,0.6
2024-05-21T2000,2489A,112.0194,27.7314,娄底市,市委党校,细颗粒物(PM2.5),59,57,35,42,24,92,,90,90,12,11,4,6,0.4,0.3
2024-05-21T2000,2490A,111.9561,27.7569,娄底市,涟钢,细颗粒物(PM2.5),58,62,36,41,24,99,,82,82,12,16,10,9,0.5,0.4
2024-05-21T2000,2491A,111.9892,27.7044,娄底市,市政府,细颗粒物(PM2.5),59,55,35,42,25,106,,102,102,12,11,7,7,0.5,0.4
2024-05-21T2000,1893A,105.4324,28.9634,泸州市,九狮山,细颗粒物(PM2.5),52,,23,36,14,111,,109,109,11,11,6,6,0.4,0.4
2024-05-21T2000,1894A,105.4427,28.9063,泸州市,小市上码头,,,24,26,13,16,113,,124,124,,10,7,8,0.4,0.4
2024-05-21T2000,1895A,105.4241,28.8573,泸州市,兰田宪桥,,36,22,32,22,18,115,,129,129,16,14,6,6,0.3,0.4
2024-05-21T2000,1896A,105.4379,28.8833,泸州市,市环监站,,37,20,25,15,19,118,,125,125,10,12,5,8,0.4,0.4
2024-05-21T2000,3490A,105.3617,28.7703,泸州市,纳溪区环保局,,37,27,24,7,12,118,,127,127,15,19,3,3,0.3,0.3
2024-05-21T2000,2183A,111.1406,37.5211,吕梁市,环保局,颗粒物(PM10),60,70,83,26,33,103,,159,148,28,29,4,6,0.6,0.7
2024-05-21T2000,2185A,111.1297,37.5136,吕梁市,自来水公司,颗粒物(PM10),58,65,71,24,34,113,,159,147,18,24,6,8,0.6,0.8
2024-05-21T2000,2867A,111.1283,37.51,吕梁市,马茂庄小学,颗粒物(PM10),61,72,86,29,37,111,,162,151,31,36,6,7,0.5,0.7
2024-05-21T2000,1812A,112.3931,34.6516,洛阳市,市委党校,臭氧1小时,105,89,64,50,44,209,,207,207,16,10,6,4,0.7,0.6
2024-05-21T2000,1814A,112.4657,34.6871,洛阳市,豫西宾馆,臭氧1小时,94,99,77,50,39,195,,204,204,15,10,6,6,0.7,0.6
2024-05-21T2000,1815A,112.494,34.6886,洛阳市,河南林校,臭氧1小时,95,82,60,46,41,196,,202,202,20,18,8,7,0.5,0.5
2024-05-21T2000,1816A,112.3844,34.623,洛阳市,开发区管委会,臭氧1小时,94,94,72,53,44,195,,200,200,17,10,5,4,0.5,0.4
2024-05-21T2000,1817A,112.4267,34.6258,洛阳市,市委新办公区,臭氧1小时,92,82,65,56,43,193,,200,200,18,12,8,7,0.5,0.4
2024-05-21T2000,3340A,112.6005,34.6326,洛阳市,伊滨,臭氧1小时,72,78,64,45,43,177,,194,194,19,15,8,7,0.5,0.5
2024-05-21T2000,3341A,112.4951,34.6332,洛阳市,中移产业园,臭氧1小时,82,90,65,49,43,185,,199,199,23,14,11,7,0.9,0.8
2024-05-21T2000,3593A,112.5736,34.8993,洛阳市,吉利监测站,颗粒物(PM10),68,86,63,30,35,173,,193,193,21,15,5,4,0.3,0.2
2024-05-21T2000,3635A,112.3677,34.662,洛阳市,河科大西苑校区,臭氧1小时,104,100,70,44,33,207,,202,202,10,10,6,4,0.8,0.7
2024-05-21T2000,3636A,112.4388,34.6781,洛阳市,英才小学,臭氧1小时,99,95,72,46,37,199,,200,200,17,12,8,6,0.7,0.6
2024-05-21T2000,2399A,114.051,33.5699,漯河市,三五一五工厂,颗粒物(PM10),51,51,72,27,33,130,,154,152,10,12,6,7,0.5,0.5
2024-05-21T2000,2400A,114.0055,33.5698,漯河市,漯河大学,颗粒物(PM10),53,55,74,27,43,135,,154,152,13,13,8,9,0.4,0.5
2024-05-21T2000,2401A,114.0138,33.5828,漯河市,市水利局,颗粒物(PM10),53,56,70,27,41,133,,154,153,9,10,8,8,0.4,0.5
2024-05-21T2000,2402A,114.0261,33.5698,漯河市,市广电局,颗粒物(PM10),52,54,71,20,34,131,,156,154,8,9,5,6,0.2,0.2
2024-05-21T2000,3478A,113.9749,33.5664,漯河市,市图书馆,颗粒物(PM10),54,57,67,26,33,136,,159,157,8,8,8,10,0.4,0.5
2024-05-21T2000,3479A,114.0967,33.5906,漯河市,召陵区卫健委,颗粒物(PM10),53,56,74,33,49,124,,152,149,10,11,6,7,0.4,0.5
2024-05-21T2000,1798A,118.5092,31.6837,马鞍山市,湖东路四小,,40,40,49,23,33,98,,110,110,16,16,7,6,0.6,0.8
2024-05-21T2000,1799A,118.5024,31.6449,马鞍山市,开发区,颗粒物(PM10),53,55,50,28,28,102,,107,107,17,19,9,8,0.7,0.7
2024-05-21T2000,1800A,118.5228,31.7231,马鞍山市,慈湖,,39,39,51,21,30,84,,101,101,27,22,4,5,0.5,0.7
2024-05-21T2000,1802A,118.6245,31.7241,马鞍山市,濮塘,,43,31,43,30,31,102,,109,109,12,19,4,4,0.6,0.8
2024-05-21T2000,3633A,118.4918,31.6809,马鞍山市,雨山,,48,48,54,25,25,105,,113,113,13,15,8,8,0.6,0.7
2024-05-21T2000,1686A,111.0286,21.4688,茂名市,电白南海,,,,28,,12,62,,74,74,20,12,9,11,0.7,0.6
2024-05-21T2000,1687A,110.9294,21.6533,茂名市,茂石化七小,,19,19,13,12,11,54,,68,68,16,14,6,10,0.8,0.8
2024-05-21T2000,1688A,110.9107,21.6687,茂名市,健康路,,18,17,15,9,8,55,,66,66,11,12,9,15,0.8,0.9
2024-05-21T2000,1689A,110.8592,21.6828,茂名市,高岭,,18,14,23,9,16,55,,69,69,11,15,10,15,0.3,0.6
2024-05-21T2000,3450A,111.01,21.5165,茂名市,电白水东,,28,22,16,19,10,68,,75,75,14,14,10,8,0.7,0.7
2024-05-21T2000,2539A,104.0308,30.0478,眉山市,黑龙滩水库,,46,27,22,23,17,146,,153,153,7,7,5,5,0.5,0.5
2024-05-21T2000,2540A,103.8416,30.0874,眉山市,气象局,,48,41,30,14,16,151,,161,161,23,16,7,9,0.4,0.4
2024-05-21T2000,3137A,103.8578,30.0744,眉山市,市委党校,,47,29,24,9,8,150,,154,154,16,15,6,10,0.3,0.3
2024-05-21T2000,3148A,103.8291,30.0564,眉山市,区人社局,,46,32,29,9,10,147,,158,158,27,22,5,8,0.3,0.4
2024-05-21T2000,1690A,116.1231,24.3284,梅州市,梅江月梅,,22,,13,15,10,24,,44,33,15,9,4,4,0.6,0.5
2024-05-21T2000,1691A,116.0797,24.2719,梅州市,梅县新城,,26,,12,18,11,26,,46,42,15,13,3,4,0.6,0.5
2024-05-21T2000,1692A,116.1248,24.2654,梅州市,环境监控中心,,22,16,13,15,10,18,,47,40,26,13,3,5,0.7,0.5
2024-05-21T2000,3315A,116.1233,24.2991,梅州市,梅龙,,26,,9,18,6,16,,44,36,21,5,8,7,0.7,0.5
2024-05-21T2000,1878A,104.7778,31.4741,绵阳市,富乐山,,42,33,32,21,18,132,,145,145,6,7,7,8,0.5,0.5
2024-05-21T2000,1879A,104.7563,31.4535,绵阳市,市人大,,40,36,27,28,17,122,,135,134,17,15,6,7,0.5,0.5
2024-05-21T2000,1880A,104.6697,31.4668,绵阳市,高新区自来水公司,,35,29,33,22,18,112,,143,141,24,16,10,9,0.7,0.6
2024-05-21T2000,1881A,104.7287,31.5075,绵阳市,三水厂,,40,29,32,21,21,128,,142,141,19,17,5,5,0.5,0.4
2024-05-21T2000,3491A,104.69,31.5322,绵阳市,西科大附属小学,,41,41,33,23,17,107,,140,137,37,17,6,6,0.4,0.4
2024-05-21T2000,3492A,104.5648,31.5343,绵阳市,安州区旅游局,,46,29,37,20,24,145,,146,146,24,17,7,8,0.7,0.6
2024-05-21T2000,1784A,129.61,44.561,牡丹江市,环保大楼,,30,30,17,8,12,77,,88,85,6,10,5,5,0.2,0.3
2024-05-21T2000,1785A,129.6115,44.5782,牡丹江市,文化广场,,36,36,25,18,18,69,,,,12,17,5,6,0.3,0.3
2024-05-21T2000,1786A,129.5904,44.5963,牡丹江市,第一医院,,27,27,21,12,15,67,,86,82,14,15,5,5,0.3,0.2
2024-05-21T2000,1787A,129.6364,44.6075,牡丹江市,机车工厂,,34,34,31,12,15,67,,84,80,13,15,4,5,0.2,0.3
2024-05-21T2000,1788A,129.6386,44.5462,牡丹江市,第一中学,,25,25,26,13,17,80,,90,86,8,10,2,5,0.2,0.2
2024-05-21T2000,2531A,105.0703,29.61,内江市,市监测站,,34,30,15,17,15,106,,122,121,14,8,7,8,0.4,0.4
2024-05-21T2000,2532A,105.0717,29.5947,内江市,东兴区政府,,34,20,18,10,5,107,,121,120,11,8,9,10,0.6,0.5
2024-05-21T2000,2533A,105.0653,29.5817,内江市,内江二中,,37,19,15,12,11,116,,125,125,8,9,7,7,0.3,0.4
2024-05-21T2000,2534A,105.0406,29.5822,内江市,内江日报社,,35,31,21,14,11,112,,124,124,16,13,6,8,0.5,0.4
2024-05-21T2000,2628A,92.0657,31.4846,那曲市,那曲监测站,,,38,33,,17,149,,154,154,,7,,6,0.5,0.6
2024-05-21T2000,3128A,92.0506,31.4797,那曲市,那曲会议中心,,50,50,45,19,19,148,,157,157,10,8,6,3,0.4,0.5
2024-05-21T2000,1290A,115.8931,28.6843,南昌市,省外办,,17,12,22,9,9,53,,68,56,10,12,5,6,0.5,0.4
2024-05-21T2000,1291A,115.8886,28.7003,南昌市,省林业公司,,19,14,11,3,9,60,,67,62,12,14,3,4,0.6,0.6
2024-05-21T2000,1292A,115.8126,28.7442,南昌市,林科所,,20,9,8,9,6,64,,68,64,17,16,5,6,0.5,0.5
2024-05-21T2000,1294A,115.8518,28.687,南昌市,建工学校,,21,21,18,8,12,66,,71,67,7,8,5,5,0.5,0.5
2024-05-21T2000,1295A,115.8921,28.6424,南昌市,象湖,,20,10,16,10,9,61,,80,66,9,8,4,5,0.6,0.6
2024-05-21T2000,1296A,115.7423,28.7996,南昌市,武术学校,,35,,12,24,15,60,,59,59,4,3,12,12,0.2,0.2
2024-05-21T2000,1298A,115.9314,28.6842,南昌市,省站,,19,9,15,8,8,60,,76,66,10,7,8,8,0.6,0.5
2024-05-21T2000,3046A,115.9084,28.6062,南昌市,机电学校,,20,20,21,3,9,43,,70,55,19,12,7,8,0.5,0.6
2024-05-21T2000,3690A,115.9721,28.7031,南昌市,外国语学校,,20,8,13,7,12,64,,77,67,4,5,3,3,0.4,0.3
2024-05-21T2000,1906A,106.0789,30.8023,南充市,南充市委,,35,35,26,22,13,110,,123,122,13,11,4,5,0.2,0.2
2024-05-21T2000,1907A,106.1031,30.8217,南充市,南充炼油厂,,42,30,33,20,18,134,,144,144,10,12,6,7,0.4,0.3
2024-05-21T2000,1908A,106.1064,30.7856,南充市,高坪区监测站,,39,36,26,27,14,118,,133,133,18,13,6,6,0.2,0.1
2024-05-21T2000,1909A,106.0642,30.7636,南充市,嘉陵区环保局,,36,36,27,17,13,114,,126,125,15,14,11,7,0.3,0.2
2024-05-21T2000,1910A,106.1087,30.8388,南充市,市环境监测站,,40,34,32,28,19,119,,131,131,15,13,6,7,0.4,0.3
2024-05-21T2000,1151A,118.8086,32.1065,南京市,迈皋桥,,49,49,42,22,25,75,,109,109,23,23,4,5,0.8,0.9
2024-05-21T2000,1152A,118.7538,32.0551,南京市,草场门,,34,34,38,19,24,94,,114,114,17,20,3,3,0.4,0.5
2024-05-21T2000,1153A,118.7794,32.0745,南京市,山西路,,41,41,38,12,20,87,,113,113,13,17,4,4,0.3,0.4
2024-05-21T2000,1154A,118.7752,32.0023,南京市,中华门,,36,36,36,22,19,85,,106,105,17,18,7,7,0.6,0.6
2024-05-21T2000,1155A,118.8109,32.0309,南京市,瑞金路,,,52,48,22,23,82,,107,106,,10,8,7,0.4,0.4
2024-05-21T2000,1156A,118.7997,32.0754,南京市,玄武湖,,,36,44,16,22,78,,103,103,16,25,,8,0.3,0.4
2024-05-21T2000,1157A,118.6414,32.0931,南京市,浦口,,27,21,39,14,22,84,,97,97,20,29,4,5,0.3,0.5
2024-05-21T2000,1158A,118.7356,31.9996,南京市,奥体中心,,40,40,42,24,24,97,,112,111,15,16,8,8,0.5,0.6
2024-05-21T2000,1159A,118.9125,32.1028,南京市,仙林大学城,,46,46,46,17,15,86,,118,116,17,21,9,9,0.5,0.6
2024-05-21T2000,3422A,118.8436,31.9198,南京市,江宁彩虹桥,,46,46,38,24,23,78,,101,99,17,17,4,4,0.5,0.6
2024-05-21T2000,3423A,119.0138,31.6494,南京市,溧水永阳,,31,31,33,21,20,94,,115,114,20,18,4,5,0.5,0.6
2024-05-21T2000,3424A,118.879,31.3302,南京市,高淳老职中,,42,40,33,29,23,110,,120,120,12,15,5,7,0.4,0.4
2024-05-21T2000,3427A,118.8554,32.3578,南京市,六合雄州,,43,30,32,30,29,72,,117,107,15,12,3,4,0.7,0.7
2024-05-21T2000,1401A,108.3103,22.7881,南宁市,二十一中,,34,34,31,19,15,72,,81,79,22,21,6,8,0.7,0.7
2024-05-21T2000,1402A,108.3141,22.8528,南宁市,北湖,,37,37,33,17,20,78,,80,79,16,21,6,8,0.8,0.8
2024-05-21T2000,1403A,108.3206,22.8225,南宁市,市监测站,,38,38,30,19,17,66,,72,70,26,24,8,6,0.8,0.8
2024-05-21T2000,1404A,108.3829,22.8037,南宁市,大自然花园,,30,30,25,14,16,83,,90,90,14,17,6,6,0.5,0.5
2024-05-21T2000,1405A,108.4394,22.7904,南宁市,仙葫,,28,21,28,15,17,88,,93,93,11,19,5,5,0.8,1.2
2024-05-21T2000,1406A,108.2397,22.8467,南宁市,区农职院,,44,44,35,22,12,50,,88,84,29,18,9,5,0.8,0.6
2024-05-21T2000,1407A,108.3275,22.735,南宁市,英华嘉园,,30,30,29,20,18,69,,77,76,20,22,8,8,0.7,0.7
2024-05-21T2000,1408A,108.2257,22.7757,南宁市,沙井镇街道办,,30,30,41,19,20,51,,75,72,26,25,4,7,0.6,0.6
2024-05-21T2000,3401A,108.4834,22.7618,南宁市,红星社区,,32,28,27,22,16,90,,101,101,13,17,7,9,0.7,0.7
2024-05-21T2000,2332A,118.1681,26.6369,南平市,南平市监测站,,17,,15,3,12,53,,60,60,10,11,4,6,0.5,0.5
2024-05-21T2000,2333A,118.1825,26.6489,南平市,南平铝业有限公司,,17,,16,3,13,54,,59,59,10,12,4,6,0.5,0.5
2024-05-21T2000,2334A,118.1756,26.6272,南平市,南平七中,,17,10,18,3,12,52,,60,60,8,10,4,6,0.5,0.5
2024-05-21T2000,1168A,120.9098,31.9663,南通市,狼山街道,,,18,17,8,4,87,,95,94,5,3,11,9,,0.4
2024-05-21T2000,1169A,120.86,32.0005,南通市,虹桥,,29,29,20,8,5,83,,92,91,6,4,7,5,0.4,0.4
2024-05-21T2000,1170A,120.87,32.02,南通市,城中,,33,33,26,14,11,78,,88,86,11,8,7,5,0.4,0.4
2024-05-21T2000,1171A,120.94,31.93,南通市,星湖花园,,26,18,12,8,5,81,,90,89,12,8,10,8,0.4,0.4
2024-05-21T2000,1172A,120.81,32.0417,南通市,紫琅学院,,28,14,14,13,8,88,,94,92,11,10,10,9,0.3,0.4
2024-05-21T2000,3291A,121.067,32.062,南通市,通州监测站,,36,36,22,9,3,84,,94,94,9,3,11,9,0.4,0.5
2024-05-21T2000,3432A,120.9348,31.9883,南通市,环境教育馆,,27,27,22,15,7,72,,93,89,18,10,9,8,0.4,0.3
2024-05-21T2000,2404A,112.5224,33.0122,南阳市,瓦房庄,颗粒物(PM10),59,67,68,31,34,142,,154,154,40,17,7,5,0.6,0.6
2024-05-21T2000,2405A,112.5003,32.9735,南阳市,汉画馆,颗粒物(PM10),59,67,73,33,40,156,,155,155,18,17,6,6,0.6,0.6
2024-05-21T2000,2406A,112.5573,33.027,南阳市,气象站,颗粒物(PM10),61,71,64,34,34,154,,165,165,21,15,5,5,0.4,0.4
2024-05-21T2000,2407A,112.5481,32.9689,南阳市,理工学院,颗粒物(PM10),55,60,66,24,36,143,,159,159,36,15,6,6,0.5,0.5
2024-05-21T2000,4008A,112.5234,32.9922,南阳市,卧龙区政府,颗粒物(PM10),61,71,68,42,41,154,,160,160,28,18,7,7,0.6,0.7
2024-05-21T2000,1234A,121.8358,29.911,宁波市,区环保大楼,,41,41,32,15,13,61,,85,80,44,26,10,7,0.6,0.7
2024-05-21T2000,1235A,121.56,29.82,宁波市,万里学院,,38,38,23,26,14,71,,87,81,30,13,8,5,0.5,0.6
2024-05-21T2000,1236A,121.713,29.9572,宁波市,龙赛医院,,28,28,22,14,10,57,,72,72,42,27,17,12,0.3,0.4
2024-05-21T2000,1239A,121.633,29.7733,宁波市,钱湖水厂,,40,40,23,15,8,56,,82,78,20,10,4,5,0.6,0.5
2024-05-21T2000,1240A,121.5856,29.8635,宁波市,太古小学,,29,29,19,17,9,66,,84,81,41,14,10,6,0.6,0.6
2024-05-21T2000,1241A,121.524,29.8674,宁波市,市环境监测中心,,29,29,21,18,9,68,,88,84,41,15,14,10,0.5,0.5
2024-05-21T2000,2871A,121.6147,29.9017,宁波市,万里国际学校,,41,41,30,12,11,76,,85,84,34,18,10,5,0.5,0.4
2024-05-21T2000,3710A,121.5594,29.8975,宁波市,白沙活动中心,,37,37,28,10,5,78,,82,81,29,16,16,10,0.6,0.4
2024-05-21T2000,2341A,119.5388,26.6612,宁德市,宁德市监测站,,15,6,13,6,8,46,,71,44,21,13,4,6,0.4,0.4
2024-05-21T2000,3209A,119.5231,26.6562,宁德市,宁德一中,,14,12,9,7,8,43,,72,47,20,10,6,6,0.5,0.5
2024-05-21T2000,2618A,98.8601,25.8567,怒江傈僳族自治州,州监测站,,34,30,19,16,12,106,,95,95,14,6,9,8,0.4,0.3
2024-05-21T2000,2619A,98.8546,25.8417,怒江傈僳族自治州,泸水一中,,37,37,22,14,11,71,,73,73,33,16,7,6,0.2,0.2
2024-05-21T2000,1888A,101.6891,26.571,攀枝花市,弄弄坪,颗粒物(PM10),53,55,35,26,20,141,,150,150,19,17,33,18,1.3,0.9
2024-05-21T2000,1889A,101.5769,26.5928,攀枝花市,河门口,,44,29,30,17,18,140,,138,138,16,19,12,13,0.5,0.5
2024-05-21T2000,1890A,101.7169,26.585,攀枝花市,炳草岗,,43,41,34,19,17,136,,160,160,29,23,30,28,1.0,0.9
2024-05-21T2000,1891A,101.7369,26.5008,攀枝花市,仁和,,42,34,27,23,16,132,,155,155,20,17,12,14,0.5,0.7
2024-05-21T2000,2835A,101.7227,26.567,攀枝花市,四十中小,,,,32,,16,138,,162,162,,24,,29,1.2,1.6
2024-05-21T2000,1604A,122.0303,41.1489,盘锦市,开发区,细颗粒物(PM2.5),62,,33,44,39,141,,162,162,14,19,4,5,0.5,0.5
2024-05-21T2000,1605A,122.0485,41.0883,盘锦市,兴隆台,细颗粒物(PM2.5),74,,33,54,40,134,,159,159,15,23,6,7,0.6,0.5
2024-05-21T2000,1606A,121.8297,41.1028,盘锦市,新生街道,细颗粒物(PM2.5),69,,30,50,35,131,,154,154,13,16,5,6,0.5,0.5
2024-05-21T2000,1832A,113.3257,33.742,平顶山市,新华旅馆,细颗粒物(PM2.5),63,73,80,45,44,146,,176,174,27,21,9,10,0.5,0.5
2024-05-21T2000,1833A,113.2919,33.737,平顶山市,规划设计院,颗粒物(PM10),55,59,69,29,40,143,,165,165,24,17,6,6,0.5,0.4
2024-05-21T2000,1834A,113.182,33.774,平顶山市,平顶山工学院,,,61,71,27,36,144,,165,165,19,15,,7,0.6,0.6
2024-05-21T2000,3204A,113.3025,33.73,平顶山市,规划局,颗粒物(PM10),57,63,81,31,41,150,,173,172,17,14,7,7,0.8,0.7
2024-05-21T2000,3594A,112.8867,33.9116,平顶山市,石龙区,"颗粒物(PM10),臭氧1小时",67,84,86,34,40,173,,188,187,17,20,8,9,0.4,0.5
2024-05-21T2000,2656A,106.6692,35.5461,平凉市,聚贤嘉苑,,46,39,42,16,19,145,,152,152,14,19,5,7,0.2,0.3
2024-05-21T2000,2657A,106.7021,35.5307,平凉市,博物馆,,48,40,50,16,20,152,,158,158,14,18,10,15,0.3,0.4
2024-05-21T2000,2347A,114.0997,27.5002,萍乡市,武功山,,16,7,17,3,3,51,,57,56,5,5,10,11,0.3,0.3
2024-05-21T2000,2348A,113.8385,27.6434,萍乡市,中医院,,18,18,37,9,24,56,,70,67,14,8,4,12,0.5,0.5
2024-05-21T2000,2349A,113.8493,27.6253,萍乡市,市政府车库,,24,17,29,13,25,53,,66,64,15,9,14,18,2.4,0.7
2024-05-21T2000,2350A,113.8676,27.6435,萍乡市,市环保局,,18,15,34,12,25,54,,67,63,13,10,4,16,0.4,0.4
2024-05-21T2000,2351A,113.866,27.6198,萍乡市,安源区政府,,19,15,35,3,22,58,,64,62,13,15,12,18,0.4,0.7
2024-05-21T2000,2319A,119.0141,25.4325,莆田市,荔城区仓后路,,16,12,7,3,2,49,,64,58,18,11,5,5,0.8,0.7
2024-05-21T2000,2320A,119.0015,25.4553,莆田市,莆田市监测站,,20,6,7,3,0,63,,60,60,2,3,6,6,0.7,0.6
2024-05-21T2000,2321A,119.1119,25.4561,莆田市,涵江区六中,,18,12,6,3,1,56,,72,60,15,13,7,7,0.6,0.5
2024-05-21T2000,2322A,119.1013,25.3215,莆田市,秀屿区政府,,21,6,6,3,0,66,,76,66,8,6,6,6,0.7,0.7
2024-05-21T2000,2392A,115.0312,35.7636,濮阳市,环保局,颗粒物(PM10),53,55,55,30,34,138,,160,159,16,15,8,17,0.5,0.4
2024-05-21T2000,2394A,115.0574,35.7609,濮阳市,油田运输公司,颗粒物(PM10),65,80,70,32,34,153,,174,174,16,12,10,16,0.4,0.3
2024-05-21T2000,2395A,115.0866,35.7754,濮阳市,油田物探公司,颗粒物(PM10),64,77,86,32,38,156,,172,172,15,16,8,14,0.4,0.3
2024-05-21T2000,3021A,115,35.7668,濮阳市,濮水河管理处,颗粒物(PM10),60,69,49,33,38,100,,157,152,40,16,9,12,0.6,0.5
2024-05-21T2000,2601A,100.98,22.7633,普洱市,市环保局,,44,44,33,27,27,62,,82,81,18,13,9,10,0.6,0.5
2024-05-21T2000,2602A,100.9817,22.8322,普洱市,普洱第二中学,,40,40,36,23,18,65,,81,81,13,15,11,12,0.6,0.6
2024-05-21T2000,2262A,131.0518,45.8751,七台河市,新一中,,29,29,24,13,10,88,,111,100,11,11,10,9,0.8,0.7
2024-05-21T2000,3345A,131.0577,45.7879,七台河市,中波台,,26,20,39,3,11,82,,84,82,14,28,5,6,0.4,0.6
2024-05-21T2000,3637A,131.0176,45.7761,七台河市,人民广场,,34,34,34,20,19,73,,92,87,14,18,10,10,0.3,0.4
2024-05-21T2000,3684A,130.8781,45.8222,七台河市,新建矿广场,,32,24,26,22,16,69,,94,84,23,20,8,7,0.4,0.4
2024-05-21T2000,1779A,123.9305,47.3636,齐齐哈尔市,安居小区,,49,48,44,34,27,84,,120,113,27,18,6,4,0.5,0.4
2024-05-21T2000,1780A,123.9488,47.3386,齐齐哈尔市,中心广场,颗粒物(PM10),54,58,46,18,13,88,,121,118,23,16,8,8,0.5,0.4
2024-05-21T2000,1781A,123.9483,47.3227,齐齐哈尔市,农牧车辆厂,颗粒物(PM10),51,51,46,10,14,96,,129,127,18,12,8,8,0.4,0.3
2024-05-21T2000,1783A,123.945,47.2988,齐齐哈尔市,市环境监测站,颗粒物(PM10),53,55,42,25,18,90,,130,127,22,10,6,5,0.4,0.3
2024-05-21T2000,3662A,123.6333,47.2075,齐齐哈尔市,富区青少年活动中心,颗粒物(PM10),51,52,42,16,11,83,,125,118,22,11,6,6,0.5,0.4
2024-05-21T2000,2591A,107.9783,26.5747,黔东南苗族侗族自治州,市环境监测站,,22,12,10,8,7,69,,68,68,9,8,3,2,0.6,0.6
2024-05-21T2000,2881A,107.8908,26.5311,黔东南苗族侗族自治州,凯里学院,,26,9,9,6,6,82,,86,86,5,4,3,2,0.4,0.4
2024-05-21T2000,2593A,107.5228,26.2403,黔南布依族苗族自治州,小围寨,,15,7,3,3,2,45,,64,62,15,6,4,4,0.4,0.4
2024-05-21T2000,3538A,107.5175,26.2978,黔南布依族苗族自治州,沙坝,,17,6,4,3,1,53,,71,68,16,6,3,4,0.7,0.5
2024-05-21T2000,2589A,104.9022,25.0925,黔西南布依族苗族自治州,场坝街,,33,13,17,7,9,104,,125,122,11,18,8,9,0.4,0.4
2024-05-21T2000,2590A,104.8811,25.0992,黔西南布依族苗族自治州,坪东大道,,25,12,13,3,9,80,,128,123,29,19,5,5,0.4,0.3
2024-05-21T2000,2502A,108.6236,21.9667,钦州市,市环保站,,34,34,25,14,10,82,,88,88,14,10,6,8,0.7,0.8
2024-05-21T2000,2503A,108.6549,21.9481,钦州市,沙埠小学,,30,30,28,18,13,83,,94,94,18,12,7,6,0.7,0.9
2024-05-21T2000,2504A,108.5989,21.7431,钦州市,港区一小,颗粒物(PM10),55,59,45,18,16,72,,88,88,30,19,7,8,0.7,0.8
2024-05-21T2000,3404A,108.5959,21.9633,钦州市,北职校,,31,31,26,18,15,75,,86,86,15,9,8,9,0.7,0.7
2024-05-21T2000,1042A,119.5134,39.8207,秦皇岛市,北戴河环保局,细颗粒物(PM2.5),64,65,54,46,30,95,,115,110,24,24,2,4,0.4,0.5
2024-05-21T2000,1043A,119.7493,40.0116,秦皇岛市,第一关,细颗粒物(PM2.5),87,64,58,64,46,115,,118,116,12,37,2,5,0.4,0.5
2024-05-21T2000,1044A,119.5897,39.9499,秦皇岛市,监测站,细颗粒物(PM2.5),78,82,73,57,52,116,,122,120,17,37,3,7,0.3,0.6
2024-05-21T2000,1046A,119.5251,39.9041,秦皇岛市,建设大厦,颗粒物(PM10),56,62,59,36,32,110,,118,115,9,33,3,5,0.2,0.4
2024-05-21T2000,3132A,119.610547,39.943889,秦皇岛市,文明里,细颗粒物(PM2.5),78,67,68,57,39,105,,111,109,26,43,6,9,0.4,0.6
2024-05-21T2000,1307A,120.6659,36.2403,青岛市,仰口,,35,,17,24,16,46,,59,57,7,10,4,4,0.2,0.4
2024-05-21T2000,1310A,120.4134,36.0658,青岛市,市南区东部子站,,22,22,15,14,9,64,,62,57,5,9,6,5,0.4,0.4
2024-05-21T2000,1311A,120.3664,36.1032,青岛市,四方区子站,,39,34,17,27,12,70,,75,66,15,15,4,3,0.4,0.4
2024-05-21T2000,1312A,120.2994,36.054,青岛市,市南区西部子站,,22,19,14,12,9,68,,65,57,7,20,6,6,0.4,0.4
2024-05-21T2000,1313A,120.4581,36.0858,青岛市,崂山区子站,,25,22,12,17,9,70,,68,68,12,13,8,8,0.4,0.4
2024-05-21T2000,1314A,120.1983,35.9608,青岛市,黄岛区子站,,46,,11,32,12,76,,74,72,11,9,6,5,0.3,0.4
2024-05-21T2000,1315A,120.3999,36.3083,青岛市,城阳区子站,,27,27,22,15,12,68,,79,72,17,17,6,6,0.4,0.4
2024-05-21T2000,1966A,120.0405,35.8735,青岛市,黄岛区4号,,29,29,9,9,4,72,,72,71,6,6,8,7,0.4,0.4
2024-05-21T2000,3362A,120.5014,36.4034,青岛市,即墨2号,,31,31,20,16,12,62,,83,74,7,5,5,4,0.4,0.4
2024-05-21T2000,3642A,120.3503,36.0736,青岛市,市北区南部,,27,27,14,9,7,76,,68,66,11,14,6,5,0.5,0.4
2024-05-21T2000,3643A,120.3948,36.1805,青岛市,李沧区北部,,35,27,17,24,13,65,,74,70,16,15,8,8,0.4,0.4
2024-05-21T2000,1702A,113.0426,23.691,清远市,环保大楼,,18,6,6,3,7,56,,56,56,10,12,5,4,0.6,0.7
2024-05-21T2000,1703A,113.0208,23.7106,清远市,凤城街办,,17,16,10,9,9,52,,60,60,16,23,5,3,0.7,0.7
2024-05-21T2000,3025A,113.0477,23.6344,清远市,技师学院,,17,11,9,6,5,54,,65,65,13,12,6,4,0.5,0.5
2024-05-21T2000,3318A,112.9903,23.7403,清远市,清新太和,,9,7,10,3,7,26,,52,50,12,26,7,6,0.6,0.7
2024-05-21T2000,3455A,113.076,23.7198,清远市,清城东城,,22,,6,6,7,70,,64,64,10,10,6,5,0.7,0.7
2024-05-21T2000,2661A,107.6325,35.7357,庆阳市,庆阳五中,臭氧1小时,63,61,46,24,23,170,,165,165,13,9,6,6,0.4,0.4
2024-05-21T2000,2662A,107.6364,35.7067,庆阳市,市环保局,臭氧1小时,60,54,42,21,17,168,,164,164,11,8,6,7,0.4,0.4
2024-05-21T2000,1916A,103.7897,25.5035,曲靖市,环境监测站,,35,24,28,12,13,110,,129,126,12,15,1,4,0.6,0.8
2024-05-21T2000,1917A,103.8,25.5364,曲靖市,烟厂办公区,,35,23,27,8,12,112,,125,124,10,13,4,4,0.5,0.6
2024-05-21T2000,3376A,103.7947,25.462,曲靖市,南苑二区,,38,25,25,8,12,120,,133,131,11,16,5,5,0.5,0.6
2024-05-21T2000,3377A,103.7444,25.5261,曲靖市,曲靖师范学院,,38,26,27,12,15,120,,133,132,11,20,6,7,0.3,0.5
2024-05-21T2000,1264A,118.8692,28.9398,衢州市,环保大楼,,38,37,27,26,17,56,,60,58,22,20,3,4,0.3,0.4
2024-05-21T2000,1265A,118.8709,28.9666,衢州市,实验学校,,39,39,28,26,17,58,,62,62,19,20,7,7,0.3,0.3
2024-05-21T2000,1266A,118.8621,28.9808,衢州市,衢州学院,,43,39,29,30,20,52,,57,57,24,22,5,6,0.3,0.3
2024-05-21T2000,1611A,118.5819,24.9117,泉州市,涂山街,,17,10,5,6,3,54,,75,63,12,8,2,2,0.5,0.4
2024-05-21T2000,1612A,118.5972,24.8978,泉州市,津头埔,,16,10,7,8,5,49,,70,61,23,16,1,2,0.6,0.5
2024-05-21T2000,1613A,118.6663,24.9424,泉州市,万安,,18,13,9,6,4,55,,72,62,16,11,1,2,0.3,0.3
2024-05-21T2000,3529A,118.6333,24.9264,泉州市,城华南路,,,10,7,3,1,44,,71,61,,13,3,3,0.3,0.3
2024-05-21T2000,2626A,88.8876,29.2718,日喀则市,日喀则监测站,,42,17,16,9,10,133,,141,141,4,6,5,5,0.5,0.5
2024-05-21T2000,3726A,88.8781,29.2426,日喀则市,林业技术推广中心,,,24,19,6,6,136,,139,139,,7,7,7,,0.5
2024-05-21T2000,1659A,119.471,35.4209,日照市,监测站,,22,19,10,13,7,68,,88,80,17,13,8,8,0.4,0.4
2024-05-21T2000,1660A,119.523,35.4216,日照市,市政府广场,,22,19,13,11,6,69,,88,81,11,8,6,7,0.4,0.3
2024-05-21T2000,1661A,119.5587,35.4044,日照市,港务局,,50,,12,35,7,70,,89,82,5,4,6,6,0.4,0.4
2024-05-21T2000,3507A,119.5328,35.4625,日照市,职业技术学院,,22,17,12,9,6,68,,84,78,8,8,7,7,0.4,0.4
2024-05-21T2000,3604A,119.3266,35.1044,日照市,岚山环保分局,,25,19,20,17,12,71,,86,80,5,8,5,5,0.3,0.3
2024-05-21T2000,1835A,111.1922,34.7752,三门峡市,市政府,颗粒物(PM10),59,68,57,28,29,156,,153,153,24,13,8,9,0.6,0.7
2024-05-21T2000,1836A,111.1587,34.7942,三门峡市,开发区,臭氧1小时,64,66,68,30,32,171,,172,172,24,16,12,11,0.6,0.6
2024-05-21T2000,3039A,111.1911,34.7829,三门峡市,三门峡市第一小学,臭氧1小时,55,56,59,20,30,164,,161,161,22,15,10,10,0.5,0.6
2024-05-21T2000,3598A,111.1,34.7167,三门峡市,富达温泉假日酒店,颗粒物(PM10),58,66,68,21,34,162,,154,154,21,18,10,9,0.4,0.5
2024-05-21T2000,2324A,117.6211,26.2625,三明市,三钢,,16,8,12,3,11,50,,55,54,11,11,5,6,0.2,0.3
2024-05-21T2000,2325A,117.635,26.2714,三明市,三明二中,,17,8,10,6,11,54,,58,57,8,8,5,7,0.6,0.6
2024-05-21T2000,2326A,117.6028,26.2378,三明市,三元区政府,,17,6,11,3,9,53,,56,56,12,12,8,8,0.6,0.6
2024-05-21T2000,1876A,109.5078,18.2489,三亚市,河东子站,,27,16,14,9,8,84,,90,90,9,10,4,3,0.5,0.5
2024-05-21T2000,1877A,109.4964,18.2681,三亚市,河西子站,,25,14,16,11,7,79,,90,90,11,9,1,2,0.4,0.4
2024-05-21T2000,3540A,109.7348,18.3443,三亚市,君悦子站,,30,11,14,7,8,94,,95,95,3,9,2,2,0.4,0.5
2024-05-21T2000,2624A,91.7608,29.2313,山南市,山南监测站,,47,26,21,8,10,150,,152,152,3,6,7,7,0.2,0.2
2024-05-21T2000,2625A,91.7706,29.2436,山南市,山南人民医院,,47,46,32,14,13,148,,150,150,8,9,6,7,0.2,0.2
2024-05-21T2000,1674A,116.6794,23.3667,汕头市,金平子站,,20,14,12,13,8,61,,71,69,20,15,2,3,0.6,0.5
2024-05-21T2000,1675A,116.7244,23.3633,汕头市,龙湖子站,,21,15,10,9,7,65,,72,71,15,10,5,5,0.7,0.6
2024-05-21T2000,1676A,116.7258,23.2775,汕头市,濠江子站,,23,,8,11,8,72,,74,74,9,6,4,4,0.6,0.6
2024-05-21T2000,1677A,116.7519,23.4714,汕头市,澄海子站,,21,19,11,10,8,66,,78,78,20,10,6,6,0.9,0.8
2024-05-21T2000,1678A,116.6092,23.2539,汕头市,潮阳子站,,25,,8,11,6,80,,80,80,6,4,4,4,0.6,0.5
2024-05-21T2000,3444A,116.454,23.2684,汕头市,潮南峡山,,28,27,12,19,8,58,,60,60,14,10,4,4,0.7,0.6
2024-05-21T2000,3624A,116.4069,23.2533,汕头市,潮南子站,,42,42,27,17,11,58,,58,58,10,10,6,6,0.7,0.8
2024-05-21T2000,1693A,115.3653,22.775,汕尾市,市环保局,,21,16,11,6,6,65,,80,80,11,6,9,9,0.5,0.6
2024-05-21T2000,1694A,115.3706,22.7898,汕尾市,市政府,,24,,10,15,11,74,,79,79,10,7,5,5,0.5,0.6
2024-05-21T2000,1695A,115.3622,22.7925,汕尾市,新城中学,,23,16,13,3,5,72,,78,78,10,6,6,6,0.5,0.5
2024-05-21T2000,2645A,109.9154,33.8715,商洛市,监测站,,47,47,43,31,22,122,,142,142,17,17,10,10,0.6,0.6
2024-05-21T2000,3045A,109.9643,33.8471,商洛市,商州区中学,颗粒物(PM10),52,54,49,24,24,117,,143,143,19,19,12,11,0.6,0.6
2024-05-21T2000,2408A,115.6702,34.4285,商丘市,环境监测站,,43,43,61,19,28,122,,127,127,12,12,7,8,0.2,0.3
2024-05-21T2000,2409A,115.6458,34.4045,商丘市,粮食局,,46,46,60,19,26,125,,128,128,9,12,8,11,0.5,0.6
2024-05-21T2000,2410A,115.6293,34.3948,商丘市,睢阳区环保局,,48,48,65,18,34,121,,130,130,10,9,6,7,0.2,0.3
2024-05-21T2000,3171A,115.6071,34.4465,商丘市,梁园区档案局,,,,66,14,24,119,,126,126,14,13,8,9,0.3,0.4
2024-05-21T2000,1141A,121.4,31.238,上海市,普陀,,35,35,27,18,14,81,,86,86,21,14,8,5,0.4,0.4
2024-05-21T2000,1142A,121.478,31.2036,上海市,十五厂,,29,29,26,13,14,78,,86,86,24,15,10,7,0.4,0.4
2024-05-21T2000,1143A,121.467,31.3008,上海市,虹口,,26,26,26,18,23,75,,84,84,26,19,12,10,0.5,0.5
2024-05-21T2000,1144A,121.412,31.1654,上海市,徐汇上师大,,46,46,33,23,19,79,,90,89,27,19,10,9,0.5,0.5
2024-05-21T2000,1147A,121.425,31.2261,上海市,静安监测站,,31,31,25,19,15,81,,88,88,25,17,11,9,0.4,0.4
2024-05-21T2000,1148A,121.703,31.1907,上海市,浦东川沙,,22,22,23,15,16,67,,98,96,33,23,8,7,0.4,0.4
2024-05-21T2000,1149A,121.533,31.2284,上海市,浦东新区监测站,,28,24,24,19,17,71,,90,89,30,17,10,8,0.2,0.3
2024-05-21T2000,1150A,121.577,31.2071,上海市,浦东张江,,25,25,23,16,14,75,,94,94,31,18,7,6,0.5,0.5
2024-05-21T2000,3265A,121.4316,31.3322,上海市,宝山庙行,,35,32,27,24,23,78,,85,85,22,16,10,8,0.5,0.5
2024-05-21T2000,3266A,121.8791,31.4662,上海市,崇明上实东滩,,28,17,16,10,9,87,,110,106,7,9,9,8,0.5,0.5
