timepoint,stationcode,longitude,latitude,area,positionname,primarypollutant,aqi,pm10,pm10_24h,pm2_5,pm2_5_24h,o3,o3_24h,o3_8h,o3_8h_24h,no2,no2_24h,so2,so2_24h,co,co_24h
2025-05-07T1600,2566A,102.1879,31.914,阿坝藏族羌族自治州,州农科所,,26,11,15,3,7,81,,65,65,5,8,11,10,0.6,0.6
2025-05-07T1600,2568A,102.2502,31.8896,阿坝藏族羌族自治州,马师校,,27,12,15,6,10,85,,67,67,6,15,5,5,0.5,0.5
2025-05-07T1600,3994A,102.2165,31.9024,阿坝藏族羌族自治州,马尔康中学西区,,30,14,17,6,11,95,,74,74,2,8,4,4,0.2,0.2
2025-05-07T1600,2695A,80.292,41.1694,阿克苏地区,电视台,颗粒物(PM10),191,331,290,103,88,110,,71,71,4,22,6,9,0.4,0.6
2025-05-07T1600,2696A,80.2613,41.1551,阿克苏地区,艺术中心,颗粒物(PM10),200,350,327,83,95,106,,67,67,1,28,5,4,0.4,0.6
2025-05-07T1600,2204A,105.6467,38.8363,阿拉善盟,西城区西花园,颗粒物(PM10),145,239,158,78,54,119,,110,110,8,8,5,5,0.5,0.7
2025-05-07T1600,2205A,105.6985,38.8411,阿拉善盟,蒙二幼,颗粒物(PM10),165,279,155,82,56,103,,93,93,6,6,8,9,0.4,0.4
2025-05-07T1600,2206A,105.724,38.8516,阿拉善盟,环保局新楼,颗粒物(PM10),150,249,147,88,56,108,,98,98,4,4,8,8,0.4,0.4
2025-05-07T1600,2708A,88.1264,47.8517,阿勒泰地区,市站,,35,9,43,3,8,111,,100,100,3,4,2,2,0.1,0.1
2025-05-07T1600,2630A,80.1161,32.5,阿里地区,阿里监测站,,42,42,20,18,12,110,,107,107,10,6,6,7,0.4,0.4
2025-05-07T1600,3192A,80.0903,32.5028,阿里地区,阿里藏医院,,43,43,24,14,12,122,,115,114,3,3,8,8,0.3,0.4
2025-05-07T1600,2642A,109.0318,32.6537,安康市,香溪洞,,41,40,82,23,38,130,,117,117,5,6,7,8,0.2,0.3
2025-05-07T1600,2644A,109.0072,32.6975,安康市,汉滨区检察院,,43,42,122,30,50,131,,116,116,4,13,8,16,0.4,0.4
2025-05-07T1600,4054A,109.0325,32.6913,安康市,市邮政管理局,,42,42,124,21,44,132,,121,121,4,12,6,11,0.3,0.6
2025-05-07T1600,2291A,117.0809,30.5177,安庆市,环科院,颗粒物(PM10),154,258,290,93,85,166,,150,150,8,17,4,3,0.5,0.6
2025-05-07T1600,2292A,117.0331,30.5119,安庆市,马山宾馆,颗粒物(PM10),132,214,267,73,78,172,,133,133,7,14,6,5,0.6,0.6
2025-05-07T1600,2294A,116.9896,30.6145,安庆市,安庆大学,颗粒物(PM10),133,215,246,59,68,172,,132,132,9,15,6,5,0.4,0.4
2025-05-07T1600,3173A,117.0598,30.5351,安庆市,市人大,颗粒物(PM10),143,236,290,70,83,175,,141,141,9,19,9,8,0.4,0.4
2025-05-07T1600,3122A,105.9606,26.2611,安顺市,伍家关,,21,21,20,14,14,52,,57,54,5,7,1,3,0.4,0.3
2025-05-07T1600,3123A,105.9408,26.2431,安顺市,凤凰山,,35,26,24,24,22,55,,54,54,7,8,6,8,0.5,0.5
2025-05-07T1600,3124A,105.9439,26.2564,安顺市,金钟山,,32,27,28,22,24,52,,51,51,5,7,4,6,0.3,0.3
2025-05-07T1600,3125A,105.8983,26.2481,安顺市,娄家坡,,30,22,25,21,24,50,,51,50,7,8,5,8,0.6,0.6
2025-05-07T1600,1818A,114.4839,36.0621,安阳市,棉研所,,,,,,,,,,,,,,,,
2025-05-07T1600,1819A,114.3551,36.1017,安阳市,红庙街,颗粒物(PM10),121,192,119,53,38,140,,110,110,2,8,3,5,0.4,0.4
2025-05-07T1600,1820A,114.361,36.0681,安阳市,银杏小区,颗粒物(PM10),126,202,123,63,48,144,,111,111,3,16,4,4,0.3,0.3
2025-05-07T1600,3141A,114.3922,36.0878,安阳市,信访局,颗粒物(PM10),134,217,137,89,45,143,,115,115,4,15,3,5,0.4,0.4
2025-05-07T1600,3669A,114.4705,36.0637,安阳市,左辅环卫站,颗粒物(PM10),105,160,103,68,49,149,,113,113,8,19,4,5,0.6,0.6
2025-05-07T1600,3703A,114.2917,36.0949,安阳市,安钢职工学校,颗粒物(PM10),140,229,133,48,43,137,,106,106,6,15,4,4,0.4,0.4
2025-05-07T1600,1748A,123.044,41.1196,鞍山市,深沟寺,,46,36,56,22,38,146,,128,128,13,18,10,9,0.7,1
2025-05-07T1600,1749A,123.011,41.0931,鞍山市,太阳城,,40,34,57,22,39,128,,114,114,12,17,10,9,0.8,1.1
2025-05-07T1600,1750A,123.0485,41.1442,鞍山市,太平,,40,40,67,22,40,126,,111,111,13,22,11,11,0.8,1.1
2025-05-07T1600,1751A,122.9642,41.0971,鞍山市,铁西三道街,,45,43,68,23,44,141,,120,120,16,30,7,9,0.7,1.1
2025-05-07T1600,1753A,123.022,41.0821,鞍山市,明达新区,,45,38,53,23,32,141,,122,122,11,16,10,9,0.4,0.7
2025-05-07T1600,1754A,123.1289,41.0228,鞍山市,千山,,,,24,,13,,,78,,,8,,5,,0.7
2025-05-07T1600,4201A,122.9446,41.0826,鞍山市,兴盛南路290号,,44,41,70,25,42,139,,119,119,16,32,9,11,0.6,1.2
2025-05-07T1600,2195A,107.4212,40.761,巴彦淖尔市,附二中,颗粒物(PM10),88,125,97,24,32,98,,83,83,4,11,8,15,0.2,0.5
2025-05-07T1600,2196A,107.37,40.7372,巴彦淖尔市,市环保大楼,颗粒物(PM10),85,119,94,27,32,116,,101,101,6,13,4,4,0.2,0.3
2025-05-07T1600,1956A,86.1472,41.7538,巴音郭楞蒙古自治州,孔雀公园,颗粒物(PM10),215,360,104,84,26,106,,80,80,1,35,7,7,0.1,0.2
2025-05-07T1600,1957A,86.1972,41.7166,巴音郭楞蒙古自治州,棉纺厂,颗粒物(PM10),235,374,119,102,21,106,,87,87,4,17,2,3,0.2,0.2
2025-05-07T1600,1958A,86.2357,41.7173,巴音郭楞蒙古自治州,经济开发区,颗粒物(PM10),276,403,104,89,19,100,,85,85,4,9,7,8,0.2,0.2
2025-05-07T1600,2914A,106.7677,31.8794,巴中市,苏山坪,,39,37,41,22,25,122,,116,116,6,9,3,4,0.3,0.3
2025-05-07T1600,3181A,106.7768,31.8526,巴中市,市五中,,41,41,46,24,29,121,,104,104,6,15,6,7,0.4,0.5
2025-05-07T1600,3183A,106.7418,31.8654,巴中市,圣泉水务公司,,39,39,39,24,24,117,,107,107,7,20,7,7,0.5,0.5
2025-05-07T1600,3616A,106.7616,31.8344,巴中市,市中心医院,,48,39,45,33,31,117,,104,104,6,17,5,5,0.5,0.6
2025-05-07T1600,2235A,122.7911,45.6077,白城市,洮北区环保局,,41,41,42,27,26,114,,95,95,8,12,5,5,0.3,0.3
2025-05-07T1600,2236A,122.8738,45.5725,白城市,市环保局,,41,41,41,23,27,120,,104,104,5,11,4,3,0.3,0.4
2025-05-07T1600,2231A,126.4219,41.9171,白山市,喜丰,,35,28,40,13,15,110,,105,105,9,26,8,7,0.5,0.5
2025-05-07T1600,2232A,126.4077,41.9419,白山市,环保局,,,14,28,6,13,104,,89,89,6,16,,2,0.4,0.4
2025-05-07T1600,2647A,104.1724,36.5446,白银市,第三小学,颗粒物(PM10),109,168,199,54,74,109,,99,99,4,7,7,44,0.3,0.4
2025-05-07T1600,2648A,104.1465,36.5482,白银市,动力公司,颗粒物(PM10),102,153,179,42,68,109,,102,102,5,8,9,23,0.3,0.4
2025-05-07T1600,2512A,106.6103,23.9011,百色市,市监测站,颗粒物(PM10),52,54,21,29,12,69,,39,39,12,10,4,3,0.7,0.6
2025-05-07T1600,2513A,106.6538,23.8859,百色市,市中心血站,细颗粒物(PM2.5),54,48,30,38,16,83,,45,45,9,13,4,5,0.9,0.8
2025-05-07T1600,3406A,106.6085,23.8798,百色市,祈福高中,,50,50,26,23,14,78,,40,40,8,12,5,4,0.7,0.6
2025-05-07T1600,2270A,117.396,32.939,蚌埠市,工人疗养院,臭氧1小时,73,91,122,35,41,178,,146,146,8,21,4,8,0.6,0.6
2025-05-07T1600,2271A,117.3605,32.9427,蚌埠市,百货大楼,颗粒物(PM10),73,96,122,40,45,168,,145,145,15,23,6,8,0.2,0.4
2025-05-07T1600,2273A,117.4185,32.8911,蚌埠市,蚌埠学院,颗粒物(PM10),65,80,118,26,41,167,,152,152,6,20,3,4,0.5,0.5
2025-05-07T1600,2274A,117.3533,32.9673,蚌埠市,淮上区政府,颗粒物(PM10),75,100,123,43,48,171,,142,142,12,26,5,6,0.3,0.3
2025-05-07T1600,2275A,117.3145,32.8977,蚌埠市,高新区,颗粒物(PM10),63,75,115,34,48,162,,138,138,8,16,4,5,0.3,0.3
2025-05-07T1600,3715A,117.3092,32.9314,蚌埠市,蚌埠田家炳中学,,,,122,,45,167,,144,144,11,17,5,5,,0.3
2025-05-07T1600,1585A,109.8756,40.6532,包头市,市环境监测站,颗粒物(PM10),79,107,88,23,28,113,,79,79,12,38,14,15,0.7,0.9
2025-05-07T1600,1587A,109.9991,40.5842,包头市,包头八中,颗粒物(PM10),70,90,97,37,47,113,,82,82,11,32,9,20,0.4,0.8
2025-05-07T1600,1588A,109.8538,40.6821,包头市,青山宾馆,颗粒物(PM10),69,88,86,23,37,109,,78,78,13,44,15,15,0.7,0.7
2025-05-07T1600,1589A,109.8642,40.6288,包头市,惠龙物流,颗粒物(PM10),74,97,83,29,27,113,,82,82,10,28,13,16,0.3,0.5
2025-05-07T1600,1590A,110.0377,40.5546,包头市,东河鸿龙湾,颗粒物(PM10),68,86,80,20,25,112,,84,84,6,27,7,12,0.4,0.5
2025-05-07T1600,3283A,109.9154,40.5685,包头市,滨河大厦,颗粒物(PM10),70,89,82,24,25,114,,85,85,3,29,6,11,0.4,0.5
2025-05-07T1600,3419A,109.9447,40.6261,包头市,包头市委党校,颗粒物(PM10),84,117,89,28,30,114,,86,86,6,29,14,14,0.5,0.6
2025-05-07T1600,3683A,109.8331,40.6576,包头市,昆区政府,颗粒物(PM10),78,105,89,30,41,107,,82,82,18,39,14,15,1.0,0.9
2025-05-07T1600,1930A,107.185,34.3063,宝鸡市,庙沟村,,37,32,283,21,104,116,,116,116,6,13,8,9,0.6,0.6
2025-05-07T1600,1931A,107.0708,34.3017,宝鸡市,竹园沟,,35,25,304,19,119,110,,105,105,4,14,3,7,0.3,0.4
2025-05-07T1600,1932A,107.1906,34.3672,宝鸡市,三陆医院,,38,38,350,20,138,108,,100,100,7,34,5,10,0.3,0.4
2025-05-07T1600,1933A,107.1431,34.3547,宝鸡市,监测站,,39,39,377,3,195,103,,97,97,7,21,5,5,0.4,0.5
2025-05-07T1600,1934A,107.1186,34.3739,宝鸡市,技工学校,,,,410,,168,99,,69,,10,15,7,10,0.5,0.5
2025-05-07T1600,1935A,107.3906,34.3528,宝鸡市,陈仓区环保局家属楼,,43,43,371,24,140,115,,111,111,6,27,8,23,0.5,0.6
2025-05-07T1600,1936A,107.2058,34.3497,宝鸡市,文理学院,,39,32,348,27,170,108,,105,105,7,21,6,8,0.4,0.4
2025-05-07T1600,1937A,107.2386,34.3622,宝鸡市,三迪小学,,36,36,370,18,168,111,,102,102,6,26,10,8,0.3,0.6
2025-05-07T1600,1051A,115.493,38.8632,保定市,游泳馆,颗粒物(PM10),86,121,77,52,44,148,,103,103,11,22,12,7,0.4,0.3
2025-05-07T1600,1052A,115.5213,38.8959,保定市,华电二区,颗粒物(PM10),79,107,60,46,39,150,,103,103,9,16,6,3,0.4,0.3
2025-05-07T1600,1053A,115.4713,38.9108,保定市,接待中心,颗粒物(PM10),74,98,67,52,41,146,,112,112,9,12,6,3,0.8,0.7
2025-05-07T1600,1054A,115.4612,38.8416,保定市,地表水厂,颗粒物(PM10),80,109,84,45,35,148,,107,107,13,22,9,5,0.5,0.4
2025-05-07T1600,3581A,115.31981,38.95208,保定市,满城区生态环境分局,颗粒物(PM10),79,107,65,56,38,157,,115,115,10,15,9,5,0.6,0.4
2025-05-07T1600,3582A,115.47694,38.76408,保定市,清苑区第二中学,颗粒物(PM10),97,143,82,46,41,142,,105,105,7,19,9,6,0.5,0.4
2025-05-07T1600,3583A,115.62909,39.02311,保定市,徐水物探局,颗粒物(PM10),84,118,67,46,38,146,,109,109,7,17,5,3,0.8,0.6
2025-05-07T1600,4004A,115.4202,38.8656,保定市,双鹰农机,颗粒物(PM10),97,143,59,47,33,143,,116,116,10,18,1,4,0.5,0.4
2025-05-07T1600,4034A,115.5150,38.8590,保定市,植保所站,颗粒物(PM10),78,105,71,42,38,144,,98,98,7,21,3,3,0.8,0.7
2025-05-07T1600,2594A,99.1678,25.1081,保山市,市环境监测站,,30,26,23,16,22,95,,83,83,5,7,4,5,0.5,0.6
2025-05-07T1600,2595A,99.1711,25.1328,保山市,市环保局,,32,24,26,18,19,102,,91,91,5,5,5,5,0.4,0.4
2025-05-07T1600,1866A,109.2262,21.588,北海市,牛尾岭水库,,,,26,,16,,,59,,,11,,12,,0.7
2025-05-07T1600,1867A,109.1436,21.4086,北海市,海滩公园,,28,28,38,10,15,86,,80,80,5,11,5,7,0.7,0.7
2025-05-07T1600,1868A,109.0981,21.4661,北海市,新市环保局,,25,25,31,9,17,72,,72,72,6,12,3,6,0.4,0.5
2025-05-07T1600,1869A,109.1778,21.5233,北海市,北海工业园,,44,44,38,15,21,73,,79,79,5,14,8,13,0.4,0.5
2025-05-07T1600,3400A,109.1911,21.4415,北海市,龙潭自来水厂,,38,32,34,26,24,109,,84,84,5,12,9,9,0.4,0.4
2025-05-07T1600,1001A,116.3621,39.8784,北京市,万寿西宫,颗粒物(PM10),69,87,60,30,34,166,,124,124,12,16,4,6,0.4,0.7
2025-05-07T1600,1002A,116.2202,40.2915,北京市,定陵,,,,,,,,,,,,,,,,
2025-05-07T1600,1003A,116.4174,39.9289,北京市,东四,颗粒物(PM10),73,95,69,30,35,158,,123,123,11,17,5,4,0.5,0.6
2025-05-07T1600,1004A,116.4072,39.8863,北京市,天坛,颗粒物(PM10),61,71,56,26,33,156,,122,122,8,15,4,3,0.7,0.7
2025-05-07T1600,1005A,116.462,39.9365,北京市,农展馆,颗粒物(PM10),65,80,62,30,37,151,,115,115,11,20,5,3,0.6,0.6
2025-05-07T1600,1006A,116.3392,39.9295,北京市,官园,颗粒物(PM10),67,83,63,29,32,144,,112,112,11,17,6,5,0.5,0.5
2025-05-07T1600,1007A,116.2878,39.9611,北京市,海淀万柳,颗粒物(PM10),78,105,72,31,30,142,,103,103,7,16,6,5,0.4,0.4
2025-05-07T1600,1008A,116.6636,40.135,北京市,顺义新城,颗粒物(PM10),57,64,68,27,39,146,,112,112,6,20,6,5,0.4,0.5
2025-05-07T1600,1009A,116.6275,40.3275,北京市,怀柔镇,,48,48,58,17,39,146,,113,113,10,17,4,3,0.5,0.6
2025-05-07T1600,1010A,116.2296,40.217,北京市,昌平镇,颗粒物(PM10),58,66,55,23,32,151,,108,108,7,15,4,2,0.4,0.3
2025-05-07T1600,1011A,116.3966,39.9821,北京市,奥体中心,颗粒物(PM10),63,75,56,24,30,148,,113,113,13,21,4,3,0.2,0.3
2025-05-07T1600,3281A,115.9718,40.4529,北京市,延庆夏都,颗粒物(PM10),55,59,50,28,33,149,,112,112,10,13,5,3,0.5,0.4
2025-05-07T1600,3418A,116.8336,40.4095,北京市,密云新城,颗粒物(PM10),55,59,55,25,30,147,,117,117,10,13,5,4,0.5,0.5
2025-05-07T1600,3671A,116.088,39.9726,北京市,门头沟三家店,,,,,,,,,,,,,,,,
2025-05-07T1600,3672A,116.1541,39.8204,北京市,丰台云岗,颗粒物(PM10),74,97,77,44,32,163,,123,123,12,19,7,4,0.4,0.4
2025-05-07T1600,3673A,116.6804,39.9081,北京市,通州东关,颗粒物(PM10),66,82,67,30,45,162,,125,125,8,17,8,6,0.4,0.6
2025-05-07T1600,3674A,115.9577,39.7603,北京市,房山燕山,颗粒物(PM10),72,93,56,39,31,146,,113,113,12,18,1,9,0.4,0.3
2025-05-07T1600,3675A,116.4672,39.7733,北京市,大兴旧宫,颗粒物(PM10),77,103,94,25,35,156,,117,117,9,16,2,3,0.3,0.4
2025-05-07T1600,3694A,115.986,40.4563,北京市,延庆石河营,颗粒物(PM10),51,52,48,24,28,144,,107,107,12,14,3,2,0.5,0.4
2025-05-07T1600,3695A,116.6151,40.3053,北京市,怀柔新城,颗粒物(PM10),55,59,55,23,38,148,,113,113,11,15,2,2,0.6,0.6
2025-05-07T1600,3696A,116.2545,39.8768,北京市,丰台小屯,,,72,60,29,34,149,,113,113,10,19,,2,0.4,0.4
2025-05-07T1600,3697A,116.84,40.3844,北京市,密云镇,颗粒物(PM10),53,55,62,31,39,157,,120,120,12,17,6,5,0.5,0.5
2025-05-07T1600,4182A,116.1942,39.9158,北京市,八角北路9号,颗粒物(PM10),76,101,72,38,33,149,,115,115,11,24,6,4,0.9,0.2
2025-05-07T1600,4194A,117.0790,40.1518,北京市,洳河巡河路,颗粒物(PM10),64,77,58,36,39,166,,132,132,10,11,3,3,0.3,0.5
2025-05-07T1600,1761A,123.8275,41.3064,本溪市,大峪,,42,32,49,14,28,132,,114,114,7,24,7,7,0.6,0.7
2025-05-07T1600,1762A,123.7567,41.3325,本溪市,溪湖,,42,37,83,17,44,134,,111,111,9,27,6,5,0.7,1.1
2025-05-07T1600,1763A,123.7169,41.3094,本溪市,彩屯,,43,35,59,19,37,135,,110,110,10,28,10,13,0.8,1.2
2025-05-07T1600,1764A,123.7669,41.2864,本溪市,东明,,42,36,53,23,26,133,,114,114,11,30,10,9,1.0,1.1
2025-05-07T1600,1765A,123.7992,41.2664,本溪市,新立屯,,42,26,36,13,27,132,,116,116,9,34,6,6,0.6,0.8
2025-05-07T1600,1766A,123.8142,41.3472,本溪市,威宁,,40,39,55,17,27,127,,112,112,5,23,7,5,0.9,0.8
2025-05-07T1600,2587A,105.2864,27.3125,毕节市,八中,,38,38,34,25,22,83,,61,61,10,9,7,7,0.5,0.5
2025-05-07T1600,2588A,105.31,27.2944,毕节市,师专,,36,36,26,23,21,86,,61,61,14,12,12,7,0.5,0.5
2025-05-07T1600,4263A,105.3688,27.3598,毕节市,工业大道,,36,34,28,25,18,90,,70,70,12,11,8,6,0.7,0.6
2025-05-07T1600,1629A,118.0018,37.3617,滨州市,第二水厂,,,,66,,37,130,,116,116,26,33,18,9,0.7,0.9
2025-05-07T1600,1630A,117.9776,37.393,滨州市,北中新校,颗粒物(PM10),62,73,61,36,34,125,,112,112,30,31,18,11,0.7,0.6
2025-05-07T1600,3514A,117.9378,37.3956,滨州市,中海酒店,细颗粒物(PM2.5),58,56,34,41,35,148,,118,118,23,22,15,9,0.9,0.8
2025-05-07T1600,3515A,117.9378,37.3553,滨州市,开发区一中,颗粒物(PM10),68,85,67,34,34,137,,98,98,30,41,15,7,0.8,0.8
2025-05-07T1600,3516A,118.0917,37.694,滨州市,金海六路,颗粒物(PM10),53,56,34,29,21,131,,106,106,18,18,9,7,0.4,0.2
2025-05-07T1600,4028A,117.9956,37.3753,滨州市,滨州市西街道办事处,颗粒物(PM10),68,85,59,48,44,142,,136,136,24,33,14,7,0.7,0.5
2025-05-07T1600,2311A,115.8072,33.8399,亳州市,污水处理厂,颗粒物(PM10),73,95,103,26,31,170,,142,142,9,12,2,3,0.2,0.3
2025-05-07T1600,2312A,115.7789,33.8518,亳州市,三国揽胜宫,颗粒物(PM10),77,104,113,23,32,175,,144,144,6,9,4,6,0.3,0.4
2025-05-07T1600,3332A,115.7633,33.8034,亳州市,亳州学院,颗粒物(PM10),70,89,108,21,29,170,,143,143,8,11,2,4,0.4,0.5
2025-05-07T1600,2693A,82.0485,44.8556,博尔塔拉蒙古自治州,市党校,,48,48,56,20,18,118,,88,88,12,12,6,5,0.6,0.6
2025-05-07T1600,2694A,82.0806,44.8969,博尔塔拉蒙古自治州,市环保局,,48,48,58,19,19,116,,84,84,8,11,1,2,0.7,0.6
2025-05-07T1600,1071A,116.8842,38.2991,沧州市,沧县城建局,颗粒物(PM10),62,73,59,25,36,116,,95,95,13,21,4,4,0.4,0.5
2025-05-07T1600,1072A,116.8584,38.3254,沧州市,电视转播站,颗粒物(PM10),74,98,65,39,46,112,,97,97,13,22,4,5,0.5,0.4
2025-05-07T1600,1073A,116.8709,38.3228,沧州市,市环保局,颗粒物(PM10),67,83,70,43,43,121,,102,102,12,18,11,12,0.4,0.5
2025-05-07T1600,3324A,116.8136,38.3004,沧州市,河北水利电力学院,颗粒物(PM10),76,102,56,29,35,121,,101,101,14,20,7,7,0.3,0.4
2025-05-07T1600,2622A,97.1806,31.1273,昌都市,昌都监测站,,37,,10,17,7,118,,90,90,3,6,4,3,0.2,0.3
2025-05-07T1600,3719A,97.1714,31.1406,昌都市,昌都会议中心,,41,28,10,17,6,130,,97,97,2,5,4,3,0.2,0.2
2025-05-07T1600,2690A,88.1236,43.8886,昌吉回族自治州,天山天池,,35,29,20,14,5,110,,102,102,4,5,5,6,0.5,0.5
2025-05-07T1600,2692A,87.2717,44.0297,昌吉回族自治州,新区政务中心,,38,30,119,9,31,119,,90,90,2,8,10,9,0.2,0.3
2025-05-07T1600,3613A,87.3095,44.0142,昌吉回族自治州,亚心广场,,36,29,145,7,28,113,,91,91,5,12,10,9,0.2,0.3
2025-05-07T1600,1119A,125.3325,43.9166,长春市,食品厂,颗粒物(PM10),53,55,39,27,23,123,,110,110,15,23,6,6,0.4,0.4
2025-05-07T1600,1120A,125.2863,43.9027,长春市,客车厂,细颗粒物(PM2.5),54,56,37,38,25,126,,110,110,13,23,6,6,0.4,0.4
2025-05-07T1600,1121A,125.2841,43.8463,长春市,邮电学院,,48,48,33,24,30,130,,116,116,12,17,6,6,0.4,0.4
2025-05-07T1600,1122A,125.3716,43.8772,长春市,劳动公园,颗粒物(PM10),51,51,38,28,29,129,,113,113,8,17,7,7,0.4,0.4
2025-05-07T1600,1123A,125.3297,43.8805,长春市,园林处,,49,,32,34,26,130,,118,118,9,16,7,7,0.4,0.4
2025-05-07T1600,1124A,125.4605,43.79,长春市,净月潭,,40,39,31,23,25,126,,106,106,6,10,7,6,0.4,0.4
2025-05-07T1600,1125A,125.7194,43.515,长春市,甩湾子,,,,,,,,,,,,,,,,
2025-05-07T1600,1126A,125.3863,43.8447,长春市,经开区环卫处,颗粒物(PM10),55,60,48,19,22,123,,104,104,10,24,6,6,0.5,0.5
2025-05-07T1600,1127A,125.245,43.7783,长春市,高新区管委会,,40,38,34,26,27,126,,116,116,11,26,7,6,0.3,0.3
2025-05-07T1600,1128A,125.1761,43.8325,长春市,岱山公园,,49,49,38,26,27,126,,110,110,10,33,6,6,0.4,0.4
2025-05-07T1600,1335A,113.0833,28.2325,长沙市,经开区环保局,颗粒物(PM10),68,86,87,32,48,73,,78,78,25,24,6,6,0.6,0.7
2025-05-07T1600,1336A,112.8872,28.2189,长沙市,高开区环保局,颗粒物(PM10),60,70,87,25,49,99,,104,104,7,16,5,6,0.5,0.6
2025-05-07T1600,1337A,113.0792,28.2053,长沙市,马坡岭,颗粒物(PM10),68,86,79,32,45,79,,78,78,21,24,4,5,0.7,0.7
2025-05-07T1600,1338A,112.9394,28.19,长沙市,湖南师范大学,颗粒物(PM10),60,70,77,25,38,88,,87,87,12,15,1,2,0.4,0.5
2025-05-07T1600,1339A,113.0178,28.1322,长沙市,雨花区环保局,颗粒物(PM10),67,83,71,31,38,88,,78,78,8,18,4,5,0.6,0.7
2025-05-07T1600,1340A,112.9792,28.2597,长沙市,伍家岭,颗粒物(PM10),65,80,100,24,48,86,,86,86,14,24,3,4,0.5,0.7
2025-05-07T1600,1341A,113.0014,28.1944,长沙市,火车新站,颗粒物(PM10),69,88,87,39,41,80,,79,79,16,23,7,8,0.6,0.7
2025-05-07T1600,1342A,112.9844,28.1178,长沙市,天心区环保局,颗粒物(PM10),66,81,73,32,39,88,,83,83,12,20,3,4,1.0,1
2025-05-07T1600,1343A,112.8908,28.1308,长沙市,湖南中医药大学,颗粒物(PM10),59,68,76,29,47,80,,67,67,12,21,3,3,0.5,0.7
2025-05-07T1600,1344A,112.9581,28.3611,长沙市,沙坪,颗粒物(PM10),60,69,88,17,36,87,,93,93,11,15,2,3,0.6,0.7
2025-05-07T1600,1727A,113.1147,36.1547,长治市,清华站,颗粒物(PM10),106,161,114,53,35,134,,115,115,9,15,9,9,0.6,0.8
2025-05-07T1600,1730A,113.0886,36.2125,长治市,审计局,颗粒物(PM10),110,170,109,51,46,142,,122,122,12,18,12,11,0.5,0.7
2025-05-07T1600,1731A,113.0844,36.1856,长治市,长治八中,,,,117,,43,,,106,,,19,,9,,0.6
2025-05-07T1600,2845A,113.1569,36.1911,长治市,德盛苑,颗粒物(PM10),95,139,115,46,57,131,,111,111,7,14,8,8,0.5,0.7
2025-05-07T1600,3568A,113.06,36.0464,长治市,向阳小学,颗粒物(PM10),138,226,150,64,43,138,,118,118,13,19,11,13,0.5,0.4
2025-05-07T1600,3569A,112.8792,36.3144,长治市,屯留一中,颗粒物(PM10),91,131,103,50,36,138,,119,119,10,16,14,13,0.5,0.7
2025-05-07T1600,4189A,113.1131,36.19948,长治市,英华南巷50号,颗粒物(PM10),102,154,124,51,40,139,,117,117,5,15,9,8,0.5,0.8
2025-05-07T1600,4190A,113.2367,36.3344,长治市,学府街1号,颗粒物(PM10),93,135,107,40,40,135,,109,109,10,20,6,5,0.5,0.6
2025-05-07T1600,1854A,111.6975,28.9703,常德市,市二中,颗粒物(PM10),70,90,187,48,79,115,,105,105,8,17,10,9,0.7,0.8
2025-05-07T1600,1857A,111.7158,29.1456,常德市,白鹤山,,,,,,,,,,,,,,,,
2025-05-07T1600,3138A,111.7153,29.0289,常德市,武陵区永安,细颗粒物(PM2.5),77,102,270,56,82,123,,120,120,6,13,10,10,0.6,0.7
2025-05-07T1600,3139A,111.6892,28.9881,常德市,鼎城区玉霞,颗粒物(PM10),72,94,206,48,74,120,,114,114,6,15,9,8,0.6,0.8
2025-05-07T1600,3140A,111.6625,29.0531,常德市,武陵区长庚,"颗粒物(PM10),细颗粒物(PM2.5)",73,95,254,53,86,130,,122,122,7,16,12,13,0.8,0.9
2025-05-07T1600,1196A,119.9633,31.762,常州市,市监测站,臭氧1小时,106,121,80,38,34,212,,164,164,23,20,12,11,1.0,0.9
2025-05-07T1600,1200A,119.9468,31.7069,常州市,武进监测站,臭氧1小时,101,144,100,44,32,201,,158,158,20,24,11,14,0.7,0.8
2025-05-07T1600,1201A,119.9255,31.9087,常州市,安家,臭氧1小时,101,104,106,39,36,202,,153,153,15,23,10,11,0.2,0.3
2025-05-07T1600,3002A,119.9805,31.8174,常州市,行政中心,臭氧1小时,105,130,110,38,35,210,,158,158,20,24,17,18,0.4,0.6
2025-05-07T1600,3003A,120.0522,31.7748,常州市,经开区,臭氧1小时,108,115,107,35,31,215,,164,164,21,27,10,11,0.5,0.6
2025-05-07T1600,3010A,119.9025,31.7964,常州市,钟楼,臭氧1小时,111,120,94,41,34,221,,170,170,18,17,8,8,0.7,0.6
2025-05-07T1600,3429A,119.8598,31.7066,常州市,武进经发区,臭氧1小时,104,117,108,51,38,208,,160,160,15,18,10,11,0.6,0.7
2025-05-07T1600,3430A,119.5826,31.7245,常州市,金坛城区,臭氧1小时,103,113,110,42,36,205,,162,162,13,16,8,9,0.5,0.6
2025-05-07T1600,2220A,120.4318,41.5881,朝阳市,西梁,,46,46,37,12,27,124,,117,117,14,15,6,10,0.5,0.6
2025-05-07T1600,2221A,120.4521,41.5646,朝阳市,河畔小区,,44,37,32,16,24,138,,122,122,10,10,8,7,0.6,0.5
2025-05-07T1600,2222A,120.4176,41.5648,朝阳市,八里堡,颗粒物(PM10),60,69,40,14,27,130,,114,114,14,16,7,7,0.5,0.5
2025-05-07T1600,2223A,120.3806,41.5969,朝阳市,农业园区,,40,38,34,13,32,128,,120,120,10,15,8,8,0.5,0.5
2025-05-07T1600,1705A,116.6367,23.6719,潮州市,西园路,,,4,18,,18,73,,73,73,9,9,5,4,0.2,0.8
2025-05-07T1600,3026A,116.6183,23.6608,潮州市,市政府,,,,22,,15,74,,72,72,12,12,7,17,0.6,0.8
2025-05-07T1600,4036A,116.6461,23.6761,潮州市,金山,,25,12,20,10,17,78,,75,75,11,13,7,6,0.6,0.7
2025-05-07T1600,2472A,113.0073,25.9061,郴州市,马头岭,颗粒物(PM10),65,80,68,29,32,110,,84,84,9,19,10,9,0.7,0.7
2025-05-07T1600,2473A,113.0116,25.8226,郴州市,市职中,细颗粒物(PM2.5),55,49,58,39,47,115,,101,101,8,12,7,6,0.7,0.8
2025-05-07T1600,2475A,113.0383,25.8071,郴州市,市审计局,,42,39,53,29,42,109,,97,97,7,11,4,7,0.6,0.8
2025-05-07T1600,2476A,113.0348,25.7759,郴州市,市环保局,颗粒物(PM10),53,56,61,27,41,106,,96,96,10,22,5,11,0.7,0.9
2025-05-07T1600,4252A,113.0138,25.8011,郴州市,好美居路49号,细颗粒物(PM2.5),58,62,60,41,41,116,,106,106,10,14,5,8,0.8,0.9
2025-05-07T1600,1431A,103.9728,30.7236,成都市,金泉两河,,37,37,32,22,8,115,,88,88,8,22,3,3,0.7,0.7
2025-05-07T1600,1432A,104.176,30.6872,成都市,十里店,,42,28,27,16,11,132,,119,119,8,19,4,4,0.5,0.4
2025-05-07T1600,1433A,104.079,30.5706,成都市,三瓦窑,,39,12,30,3,15,122,,107,107,14,33,5,6,0.5,0.5
2025-05-07T1600,1434A,104.1114,30.63,成都市,沙河铺,,38,29,29,3,11,120,,93,93,9,18,7,7,0.5,0.5
2025-05-07T1600,1437A,104.0786,30.6531,成都市,君平街,,36,36,34,23,15,110,,83,83,12,27,7,7,0.6,0.6
2025-05-07T1600,1438A,103.613,31.0283,成都市,灵岩寺,,,,,,,,,,,,,,,,
2025-05-07T1600,2880A,104.0239,30.65639,成都市,大石西路,,45,34,36,15,17,143,,109,109,16,27,6,5,0.5,0.5
2025-05-07T1600,3136A,104.2725,30.5589,成都市,龙泉驿区区政府,,31,12,16,7,6,97,,94,94,5,12,4,4,0.4,0.4
2025-05-07T1600,3357A,104.0106,30.6931,成都市,金博路,,41,14,27,3,10,130,,100,100,10,24,8,8,0.4,0.4
2025-05-07T1600,3359A,104.0578,30.5225,成都市,华阳,,32,27,28,22,24,98,,97,97,12,21,7,7,0.6,0.5
2025-05-07T1600,3488A,104.3853,30.7453,成都市,青白江技师分院,,38,22,27,22,15,120,,112,112,14,31,1,2,0.4,0.4
2025-05-07T1600,3489A,104.0789,30.4072,成都市,科学城,,33,25,26,18,18,105,,86,86,7,15,4,4,0.5,0.5
2025-05-07T1600,4011A,103.8506,30.6947,成都市,光华大道三段,臭氧1小时,55,42,31,30,15,164,,134,134,13,17,1,2,0.6,0.6
2025-05-07T1600,4224A,104.2433,30.5353,成都市,鲸龙路1057号,,33,21,23,13,14,104,,97,97,7,22,4,5,0.5,0.5
2025-05-07T1600,1062A,117.9531,40.9081,承德市,铁路,颗粒物(PM10),60,69,34,30,18,135,,122,122,11,18,2,2,0.3,0.3
2025-05-07T1600,1063A,117.9392,40.9763,承德市,中国银行,颗粒物(PM10),59,68,33,28,14,136,,123,123,4,13,1,2,0.4,0.4
2025-05-07T1600,1064A,117.9503,40.928,承德市,开发区,颗粒物(PM10),54,57,31,28,22,139,,127,127,11,15,5,5,0.4,0.4
2025-05-07T1600,1065A,117.8051,40.9655,承德市,文化中心,颗粒物(PM10),65,80,40,30,14,140,,127,127,7,18,3,7,0.3,0.5
2025-05-07T1600,1066A,117.9268,41.0026,承德市,离宫,颗粒物(PM10),61,72,38,36,28,142,,130,130,8,11,2,2,0.3,0.3
2025-05-07T1600,2314A,117.47,30.6618,池州市,池州学院,颗粒物(PM10),154,258,280,86,81,168,,134,134,12,17,6,5,0.4,0.5
2025-05-07T1600,3237A,117.4918,30.6617,池州市,展览馆,颗粒物(PM10),150,250,260,71,71,171,,135,135,10,16,6,5,0.5,0.5
2025-05-07T1600,3333A,117.5627,30.695,池州市,第八中学,颗粒物(PM10),152,253,274,93,76,163,,131,131,7,13,5,6,0.4,0.5
2025-05-07T1600,3334A,117.5038,30.6243,池州市,第十二中学,颗粒物(PM10),160,270,262,79,72,175,,142,142,15,31,5,4,0.5,0.5
2025-05-07T1600,1744A,118.9233,42.2816,赤峰市,松山一中,,38,27,31,11,15,120,,112,112,17,30,8,8,0.4,0.6
2025-05-07T1600,1745A,118.9576,42.2728,赤峰市,哈达街,,47,47,32,14,24,120,,112,112,18,24,13,13,0.5,0.5
2025-05-07T1600,1746A,118.8788,42.2554,赤峰市,天义路,,40,22,24,16,16,127,,118,118,12,18,7,8,0.4,0.4
2025-05-07T1600,3058A,119.2658,42.0353,赤峰市,银河街,,46,46,35,3,22,119,,107,107,12,16,16,18,0.5,0.6
2025-05-07T1600,3286A,118.9359,42.3147,赤峰市,桥北物流园区,,42,39,28,29,19,114,,107,107,17,30,7,9,0.3,0.4
2025-05-07T1600,2521A,107.3476,22.4136,崇左市,市环保局江州分局,"颗粒物(PM10),细颗粒物(PM2.5)",55,60,38,39,23,120,,77,77,4,8,5,6,0.5,0.6
2025-05-07T1600,4256A,107.3750,22.3736,崇左市,石景林东路7号,细颗粒物(PM2.5),60,50,34,43,29,127,,82,82,4,10,3,4,0.5,0.5
2025-05-07T1600,2298A,118.3093,32.3153,滁州市,老年大学,臭氧1小时,95,86,107,39,46,196,,156,156,11,20,2,3,0.3,0.4
2025-05-07T1600,2299A,118.3244,32.2786,滁州市,人大宾馆,臭氧1小时,97,94,111,35,52,197,,158,158,16,23,9,9,0.3,0.4
2025-05-07T1600,3207A,118.3118,32.3038,滁州市,市政府原办公楼,臭氧1小时,98,82,100,36,46,198,,157,157,10,19,5,5,0.2,0.3
2025-05-07T1600,3331A,118.3267,32.2634,滁州市,图书馆,,,99,115,40,49,184,,151,151,8,16,,8,0.4,0.5
2025-05-07T1600,2605A,101.5482,25.0441,楚雄彝族自治州,州环境监测站,,36,22,18,14,12,114,,110,110,6,8,6,6,0.3,0.4
2025-05-07T1600,2606A,101.538,25.0492,楚雄彝族自治州,市经济开发区,,35,,20,12,12,109,,105,105,5,9,6,6,0.5,0.5
2025-05-07T1600,2548A,107.5277,31.2827,达州市,达州职业技术学院,颗粒物(PM10),53,55,54,11,25,113,,99,99,6,24,6,6,0.5,0.6
2025-05-07T1600,2549A,107.5086,31.2186,达州市,市环境监测站,颗粒物(PM10),52,54,55,12,21,114,,94,94,15,27,5,5,0.2,0.4
2025-05-07T1600,2550A,107.4988,31.2132,达州市,凤凰小区,颗粒物(PM10),53,56,53,14,24,118,,101,101,11,24,7,7,0.4,0.4
2025-05-07T1600,2551A,107.5082,31.1986,达州市,达县机关宾馆,颗粒物(PM10),52,53,55,14,22,115,,96,96,9,32,4,5,0.2,0.4
2025-05-07T1600,2552A,107.4644,31.2124,达州市,市政中心,颗粒物(PM10),55,59,66,9,24,114,,97,97,7,28,3,3,0.3,0.5
2025-05-07T1600,2614A,100.1542,25.7054,大理白族自治州,大理市环境监测站,,32,22,23,9,17,102,,94,94,5,8,6,7,0.3,0.3
2025-05-07T1600,2615A,100.2171,25.5811,大理白族自治州,大理古城,,35,11,20,9,16,109,,100,100,4,7,8,8,0.4,0.4
2025-05-07T1600,1109A,121.612,38.9741,大连市,甘井子,,38,26,30,9,18,119,,107,107,18,24,4,4,0.3,0.2
2025-05-07T1600,1110A,121.565,38.9511,大连市,周水子,,35,24,30,11,18,110,,104,104,16,17,6,6,0.3,0.3
2025-05-07T1600,1111A,121.5637,38.8845,大连市,星海三站,,30,30,36,19,22,76,,79,78,16,13,5,3,0.3,0.3
2025-05-07T1600,1112A,121.6302,38.9117,大连市,青泥洼桥,,40,13,28,9,17,127,,119,119,6,8,6,6,0.3,0.3
2025-05-07T1600,1113A,121.6251,38.8638,大连市,傅家庄,,28,28,28,18,18,79,,93,72,22,17,7,6,0.1,0.2
2025-05-07T1600,1114A,121.5213,38.8661,大连市,七贤岭,,27,25,27,17,17,85,,109,107,16,11,6,5,0.6,0.5
2025-05-07T1600,1115A,121.2529,38.8061,大连市,旅顺,,30,22,32,21,26,93,,86,86,15,18,4,4,0.2,0.3
2025-05-07T1600,1116A,121.7485,39.1311,大连市,金州,,43,15,39,10,21,135,,110,110,14,22,7,7,0.2,0.2
2025-05-07T1600,1117A,121.7811,39.0496,大连市,开发区,,35,25,32,8,19,109,,101,101,15,20,4,4,0.6,0.5
2025-05-07T1600,1118A,121.9762,39.0631,大连市,双D港,,22,22,24,11,17,58,,91,74,39,20,11,8,0.3,0.3
2025-05-07T1600,1789A,124.81117,46.03138,大庆市,大同区,细颗粒物(PM2.5),59,62,51,42,33,98,,91,91,12,13,5,5,0.5,0.5
2025-05-07T1600,1790A,125.129,46.533,大庆市,龙凤区,,32,23,34,12,23,100,,88,88,6,15,3,8,0.4,0.5
2025-05-07T1600,1791A,124.902,46.408,大庆市,红岗区,,33,29,33,20,19,105,,96,96,5,8,7,7,0.2,0.3
2025-05-07T1600,1792A,125.153,46.586,大庆市,萨尔图区,,34,34,45,21,22,96,,89,89,6,15,6,8,0.2,0.4
2025-05-07T1600,1793A,124.9042,46.6215,大庆市,让胡路区,,31,23,32,15,21,98,,86,86,5,13,6,7,0.3,0.4
2025-05-07T1600,3481A,125.141,46.634,大庆市,萨区政府监测点,,32,31,40,3,14,101,,86,86,4,11,5,7,0.4,0.4
2025-05-07T1600,1721A,113.3819,40.1097,大同市,果树场,颗粒物(PM10),66,82,56,20,21,109,,92,92,9,26,6,7,0.2,0.4
2025-05-07T1600,1723A,113.2994,40.0758,大同市,云冈宾馆,颗粒物(PM10),62,73,64,30,25,113,,93,93,14,34,9,11,0.1,0.3
2025-05-07T1600,1724A,113.3444,40.0917,大同市,大同大学,细颗粒物(PM2.5),60,66,60,43,22,114,,98,98,14,29,8,9,0.3,0.4
2025-05-07T1600,1725A,113.2661,40.1269,大同市,安家小村,颗粒物(PM10),66,81,60,17,24,114,,100,100,9,25,7,20,0.3,0.3
2025-05-07T1600,1726A,113.2711,40.0844,大同市,教育学院,颗粒物(PM10),64,77,71,29,24,114,,91,91,11,34,6,8,0.2,0.4
2025-05-07T1600,3282A,113.3397,40.0597,大同市,大同市卫生学校,颗粒物(PM10),54,57,59,32,25,106,,89,89,11,28,8,9,0.5,0.6
2025-05-07T1600,3565A,113.1367,40.1122,大同市,云冈站,颗粒物(PM10),61,72,76,24,26,116,,88,88,6,23,10,14,0.1,0.3
2025-05-07T1600,3566A,113.1186,40.2556,大同市,图书馆,颗粒物(PM10),67,84,60,23,26,110,,86,86,6,14,9,11,0.1,0.3
2025-05-07T1600,3567A,113.5931,40.0461,大同市,区一中,颗粒物(PM10),81,111,53,18,19,115,,100,100,13,15,14,15,0.4,0.4
2025-05-07T1600,4199A,113.2798,40.0997,大同市,魏都大道141号,颗粒物(PM10),76,102,82,17,25,127,,102,102,8,33,4,7,0.3,0.6
2025-05-07T1600,2269A,124.1069,50.4097,大兴安岭地区,科技局,,33,20,26,12,15,103,,95,95,5,6,5,5,0.3,0.3
2025-05-07T1600,3663A,124.1164,50.4278,大兴安岭地区,红旗社区,,34,17,13,8,9,106,,101,101,3,9,4,5,0.3,0.4
2025-05-07T1600,1600A,124.3303,40.0625,丹东市,江湾东路,,39,34,44,14,27,122,,108,108,8,14,9,9,0.4,0.7
2025-05-07T1600,1601A,124.4256,40.1503,丹东市,临江后街,颗粒物(PM10),51,51,68,12,28,120,,105,105,8,20,8,8,0.6,0.8
2025-05-07T1600,1602A,124.3933,40.1461,丹东市,元宝山,,38,25,39,15,19,119,,104,104,9,21,9,8,0.5,0.7
2025-05-07T1600,1603A,124.3633,40.1092,丹东市,民主桥,,39,37,41,11,22,122,,107,107,7,26,9,8,0.7,0.9
2025-05-07T1600,3541A,109.5726,19.5167,儋州市,第一中学子站,,18,13,23,12,13,56,,50,50,2,5,5,6,0.4,0.5
2025-05-07T1600,3542A,109.5567,19.5187,儋州市,东坡学校子站,,18,,23,11,13,56,,50,50,1,5,3,4,0.5,0.6
2025-05-07T1600,2616A,98.5842,24.428,德宏傣族景颇族自治州,德宏州监测站,,43,38,37,30,26,81,,,,7,11,8,8,0.6,0.7
2025-05-07T1600,3677A,98.5881,24.4368,德宏傣族景颇族自治州,芒市人民政府综合楼,,46,46,52,29,27,91,,76,76,8,12,6,6,0.5,0.6
2025-05-07T1600,1901A,104.4239,31.1208,德阳市,东山公园,,39,32,32,27,21,112,,111,111,6,18,4,6,0.8,0.7
2025-05-07T1600,1902A,104.3826,31.1317,德阳市,西小区,,40,35,43,28,24,118,,106,106,9,27,4,6,0.8,0.8
2025-05-07T1600,1904A,104.3553,31.1091,德阳市,耐火材料厂,,40,34,47,24,24,126,,108,108,8,25,6,7,0.5,0.5
2025-05-07T1600,3639A,104.4019,31.1244,德阳市,市教育局,,38,36,37,26,21,121,,107,107,7,23,5,7,0.5,0.6
2025-05-07T1600,1622A,116.3032,37.4674,德州市,儿童乐园,颗粒物(PM10),81,112,74,46,37,80,,85,85,21,16,8,8,0.5,0.5
2025-05-07T1600,1624A,116.2991,37.4451,德州市,监理站,颗粒物(PM10),75,100,66,44,38,77,,85,85,22,16,10,10,0.6,0.6
2025-05-07T1600,3066A,116.2721,37.4379,德州市,九衢泉纯净水厂,颗粒物(PM10),79,107,67,41,35,69,,72,72,29,28,7,8,0.6,0.6
2025-05-07T1600,3371A,116.3728,37.4403,德州市,开发区人民医院,颗粒物(PM10),74,97,68,34,30,67,,71,71,26,20,7,8,0.8,0.8
2025-05-07T1600,3372A,116.3572,37.4094,德州市,太阳城中学,颗粒物(PM10),74,97,71,36,42,72,,85,83,31,23,6,6,0.5,0.6
2025-05-07T1600,3511A,116.5652,37.3319,德州市,陵城艺术中心,颗粒物(PM10),69,88,64,31,36,76,,71,71,30,26,5,6,0.7,0.6
2025-05-07T1600,2621A,99.7056,27.8317,迪庆藏族自治州,迪庆州站,,38,21,21,9,11,120,,116,116,7,9,4,5,0.3,0.3
2025-05-07T1600,3180A,99.7136,27.8094,迪庆藏族自治州,质量技术监督局,,41,24,18,3,8,129,,120,120,6,8,4,4,0.4,0.4
2025-05-07T1600,4257A,104.6092,35.5962,定西市,将台街,颗粒物(PM10),53,55,72,24,30,118,,108,108,7,12,4,5,0.2,0.2
2025-05-07T1600,4309A,104.6159,35.5701,定西市,正龙路62号,,43,43,69,16,26,112,,106,106,7,10,9,9,0.2,0.2
2025-05-07T1600,1389A,113.7547,23.0494,东莞市,莞城梨川,,19,15,25,13,23,35,,30,30,27,34,7,7,0.5,0.6
2025-05-07T1600,1390A,113.7944,23.0128,东莞市,东城石井,,20,20,29,11,15,23,,19,19,31,36,3,3,0.7,0.7
2025-05-07T1600,1391A,113.7383,22.9658,东莞市,南城西平,,16,16,29,7,16,24,,24,24,32,40,1,1,0.5,0.5
2025-05-07T1600,3319A,113.7338,23.0381,东莞市,万江金泰,,,11,24,9,16,24,,18,18,23,33,7,7,,0.7
2025-05-07T1600,3626A,113.7533,23.0202,东莞市,南城元岭,,14,14,25,9,18,32,,28,28,27,36,2,6,0.6,0.7
2025-05-07T1600,3627A,113.7875,23.0457,东莞市,东城主山,,20,20,28,12,17,28,,24,24,34,34,4,4,0.5,0.5
2025-05-07T1600,1666A,118.6614,37.4309,东营市,市环保局,颗粒物(PM10),58,66,43,39,25,113,,96,96,24,28,7,8,0.7,0.5
2025-05-07T1600,3036A,118.6904,37.4338,东营市,开发区管委会,颗粒物(PM10),63,76,52,44,31,112,,99,99,22,21,8,9,0.6,0.5
2025-05-07T1600,3365A,118.5719,37.565,东营市,垦利区民丰路,颗粒物(PM10),58,66,41,39,24,121,,96,96,32,38,6,5,0.9,0.7
2025-05-07T1600,3498A,118.5055,37.8612,东营市,河口城区,,,68,41,3,21,138,,106,106,34,34,6,6,,0.1
2025-05-07T1600,3646A,118.4978,37.4623,东营市,胜利站,,45,45,45,31,27,103,,82,82,34,26,10,8,0.9,0.8
2025-05-07T1600,3734A,118.35,37.26,东营市,理想之城,颗粒物(PM10),67,83,55,44,30,117,,94,94,24,32,5,4,0.8,0.6
2025-05-07T1600,1591A,110.0023,39.8129,鄂尔多斯市,综合楼,颗粒物(PM10),73,95,103,36,35,116,,100,100,10,24,4,7,0.3,0.4
2025-05-07T1600,1592A,109.9486,39.8261,鄂尔多斯市,巴音孟克林场办事处,颗粒物(PM10),62,73,93,24,27,120,,104,104,7,18,6,8,0.3,0.3
2025-05-07T1600,1593A,109.7736,39.5986,鄂尔多斯市,康泽苑,,,78,87,24,33,111,,94,94,8,18,9,10,,0.3
2025-05-07T1600,1594A,109.8119,39.5989,鄂尔多斯市,华泰汽车城,,,61,85,34,27,107,,96,96,,29,3,6,,0.4
2025-05-07T1600,1595A,109.9734,39.7884,鄂尔多斯市,奥林花园,颗粒物(PM10),60,70,96,24,29,116,,98,98,8,30,4,4,0.4,0.5
2025-05-07T1600,2436A,114.8938,30.3994,鄂州市,市政府,颗粒物(PM10),127,203,266,59,75,188,,144,144,11,26,10,10,1.0,1.1
2025-05-07T1600,2437A,114.8989,30.3714,鄂州市,赵家坝,颗粒物(PM10),127,203,266,51,68,177,,136,136,20,28,6,7,0.6,0.7
2025-05-07T1600,3654A,114.8094,30.4089,鄂州市,精准医疗中心,颗粒物(PM10),124,198,250,64,82,176,,129,129,9,33,11,13,1.1,0.9
2025-05-07T1600,2454A,109.4978,30.2981,恩施土家族苗族自治州,湖北民院,颗粒物(PM10),55,60,46,23,21,120,,84,84,3,15,7,6,0.5,0.5
2025-05-07T1600,2455A,109.4707,30.2798,恩施土家族苗族自治州,州电力总公司,颗粒物(PM10),52,53,40,19,20,127,,91,91,3,16,7,6,0.4,0.4
2025-05-07T1600,3549A,109.5061,30.3772,恩施土家族苗族自治州,龙凤新区,,50,50,35,21,16,135,,105,105,4,8,6,6,0.4,0.5
2025-05-07T1600,2499A,108.3411,21.6158,防城港市,沙万,,32,32,24,15,16,45,,39,37,4,8,4,4,0.5,0.5
2025-05-07T1600,2500A,108.3514,21.7731,防城港市,防城档案局,,23,16,26,16,14,64,,54,54,5,6,1,3,0.3,0.4
2025-05-07T1600,2501A,108.3506,21.6414,防城港市,大海花园,,22,22,22,9,9,59,,55,50,2,3,2,3,0.3,0.3
2025-05-07T1600,1371A,113.1294,23.0067,佛山市,湾梁,,13,12,17,8,12,40,,17,17,19,36,7,7,0.6,1
2025-05-07T1600,1372A,113.1083,23.0478,佛山市,华材职中,,12,12,16,7,13,36,,20,20,21,33,4,5,0.4,0.5
2025-05-07T1600,1373A,113.144,23.0453,佛山市,南海气象局,,21,21,29,13,13,36,,18,18,21,30,1,1,0.4,0.6
2025-05-07T1600,1374A,113.2881,22.8094,佛山市,顺德苏岗,,15,15,20,3,9,36,,32,32,19,30,6,5,0.5,0.6
2025-05-07T1600,1376A,112.8383,22.8678,佛山市,高明孔堂,,19,19,23,12,13,46,,45,45,6,16,5,5,0.6,0.6
2025-05-07T1600,1377A,112.8836,23.1588,佛山市,三水监测站,,18,,17,12,16,30,,28,13,24,41,4,4,0.4,0.5
2025-05-07T1600,1378A,112.867,23.185,佛山市,三水云东海,,29,29,33,7,15,48,,32,18,26,35,1,2,0.5,0.5
2025-05-07T1600,3625A,113.2544,22.7642,佛山市,容桂街道办,,18,14,16,12,15,39,,38,38,25,35,5,5,0.7,0.7
2025-05-07T1600,1280A,119.3903,26.0543,福州市,鼓山,,,,70,,17,,,129,,,2,,3,,0.3
2025-05-07T1600,1282A,119.2681,26.0504,福州市,师大,颗粒物(PM10),64,78,54,26,25,138,,130,130,9,12,3,4,0.3,0.4
2025-05-07T1600,1283A,119.2984,26.1028,福州市,五四北路,颗粒物(PM10),68,86,67,30,25,143,,136,136,9,11,3,4,0.5,0.5
2025-05-07T1600,1284A,119.2648,26.0768,福州市,杨桥西路,颗粒物(PM10),79,107,64,31,26,151,,127,127,7,11,3,4,0.4,0.4
2025-05-07T1600,1285A,119.317,26.0746,福州市,紫阳,颗粒物(PM10),75,99,65,32,26,131,,123,123,20,16,6,6,0.4,0.4
2025-05-07T1600,3048A,119.5799,26.0936,福州市,九龙,颗粒物(PM10),56,62,47,24,21,131,,137,137,5,6,3,4,0.2,0.3
2025-05-07T1600,3526A,119.5189,25.9664,福州市,吴航,颗粒物(PM10),57,63,46,28,23,128,,144,144,6,7,4,4,0.4,0.5
2025-05-07T1600,1755A,123.7977,41.8491,抚顺市,望花区,颗粒物(PM10),58,66,64,27,41,142,,126,126,18,32,14,10,0.8,0.7
2025-05-07T1600,1756A,123.9161,41.8822,抚顺市,顺城区,,45,41,49,23,32,143,,120,120,16,33,10,7,0.6,0.7
2025-05-07T1600,1757A,124.0436,41.8611,抚顺市,东洲区,颗粒物(PM10),66,82,43,16,27,133,,116,116,13,17,7,7,0.4,0.6
2025-05-07T1600,1758A,123.9247,41.8642,抚顺市,新抚区,,46,46,52,26,29,130,,111,111,11,29,10,7,0.7,0.6
2025-05-07T1600,1759A,124.0972,41.8961,抚顺市,大伙房水库,,44,35,31,15,25,140,,123,123,6,12,9,9,0.6,0.7
2025-05-07T1600,1760A,123.7086,41.8391,抚顺市,沈抚新城,,48,48,52,19,33,139,,125,125,15,31,12,9,0.6,0.8
2025-05-07T1600,2376A,116.2127,28.0814,抚州市,桐源党溪,颗粒物(PM10),63,75,64,24,27,100,,110,110,3,3,6,7,0.5,0.5
2025-05-07T1600,2377A,116.3544,27.9831,抚州市,市站,颗粒物(PM10),64,77,72,27,28,80,,87,87,5,11,4,9,1.0,0.8
2025-05-07T1600,2378A,116.3565,27.963,抚州市,血防站,颗粒物(PM10),75,100,69,29,27,86,,93,93,4,11,2,5,0.8,0.9
2025-05-07T1600,2379A,116.3564,28.0007,抚州市,采茶剧团,,,76,71,19,24,85,,89,89,2,7,,5,0.6,1.1
2025-05-07T1600,2380A,116.385,27.9647,抚州市,医学分院,颗粒物(PM10),78,105,69,46,24,93,,91,91,5,6,9,8,1.0,0.9
2025-05-07T1600,2207A,121.6094,41.998,阜新市,工业园区,颗粒物(PM10),55,60,46,15,28,148,,130,130,8,15,11,13,0.6,0.6
2025-05-07T1600,2208A,121.6697,42.0279,阜新市,长青街,,46,43,37,11,25,146,,128,128,10,18,9,14,0.6,0.6
2025-05-07T1600,2209A,121.6673,42.0705,阜新市,农业园区,,45,36,38,19,29,144,,132,132,10,10,9,11,0.6,0.6
2025-05-07T1600,2210A,121.6717,42.0224,阜新市,东苑,颗粒物(PM10),52,53,41,14,25,151,,132,132,11,18,11,16,0.6,0.6
2025-05-07T1600,2211A,121.6506,42.0498,阜新市,玉龙新城,,46,39,39,13,24,146,,127,127,7,15,10,12,0.7,0.7
2025-05-07T1600,2301A,115.8277,32.8929,阜阳市,市监测站,颗粒物(PM10),97,144,135,59,63,174,,140,140,12,16,9,9,0.2,0.1
2025-05-07T1600,2303A,115.8554,32.8605,阜阳市,开发区,颗粒物(PM10),119,188,167,40,44,182,,147,147,13,19,8,8,0.2,0.2
2025-05-07T1600,2875A,115.784,32.8892,阜阳市,阜阳职业技术学院,,,147,130,45,54,187,,159,159,,11,8,6,0.4,0.3
2025-05-07T1600,3468A,115.7901,32.8613,阜阳市,市规划展馆,颗粒物(PM10),93,136,138,63,62,186,,152,152,7,10,8,8,0.3,0.2
2025-05-07T1600,3469A,115.836,32.9183,阜阳市,枣园社区,颗粒物(PM10),101,151,146,71,67,178,,149,149,12,13,5,6,0.4,0.5
2025-05-07T1600,2669A,102.9099,34.9841,甘南藏族自治州,州政府,颗粒物(PM10),104,157,86,42,26,88,,74,74,2,23,8,8,0.2,0.4
2025-05-07T1600,3380A,102.8914,34.9617,甘南藏族自治州,甘肃民族师范学院,颗粒物(PM10),101,152,101,40,26,103,,85,85,2,24,7,8,0.4,0.4
2025-05-07T1600,2570A,101.9603,30.0475,甘孜藏族自治州,水桥子,,24,,11,3,6,76,,44,44,4,25,5,5,0.2,0.3
2025-05-07T1600,3065A,101.9533,29.9972,甘孜藏族自治州,州环保局,,25,14,12,3,4,79,,52,52,7,21,2,1,0.1,0.1
2025-05-07T1600,3414A,115.8347,28.932,赣江新区,桑海产业园,颗粒物(PM10),128,205,196,44,47,152,,139,139,5,22,4,4,0.4,0.5
2025-05-07T1600,2362A,114.9017,25.9149,赣州市,通天岩,颗粒物(PM10),55,60,40,7,5,107,,81,81,6,5,5,4,0.4,0.4
2025-05-07T1600,2363A,114.9367,25.8664,赣州市,地委,颗粒物(PM10),52,53,39,30,22,109,,88,88,9,11,2,4,0.6,0.6
2025-05-07T1600,2364A,114.9461,25.8481,赣州市,气象台,颗粒物(PM10),53,55,43,25,20,109,,99,99,12,17,10,10,0.5,0.5
2025-05-07T1600,2365A,114.9322,25.8333,赣州市,市图书馆,颗粒物(PM10),54,57,38,27,24,104,,86,86,8,10,4,6,0.6,0.6
2025-05-07T1600,2366A,114.8905,25.8471,赣州市,华坚鞋城,颗粒物(PM10),52,53,40,26,22,114,,97,97,7,9,7,6,0.6,0.6
2025-05-07T1600,3109A,115.0093,25.8613,赣州市,赣县区卫计委,颗粒物(PM10),54,58,33,23,20,93,,78,78,5,10,4,4,0.7,0.6
2025-05-07T1600,2683A,106.2319,36.1417,固原市,马园,颗粒物(PM10),94,138,132,65,63,114,,95,95,6,14,6,7,0.5,0.5
2025-05-07T1600,2684A,106.2792,36.0022,固原市,监测站,颗粒物(PM10),81,112,110,54,56,105,,94,94,5,10,6,6,0.3,0.4
2025-05-07T1600,2685A,106.2375,36.0211,固原市,新区,颗粒物(PM10),87,124,105,41,35,102,,94,94,3,8,6,6,0.3,0.4
2025-05-07T1600,3522A,106.2177,35.9959,固原市,原州区十五小,颗粒物(PM10),87,124,109,63,48,107,,99,99,4,8,10,10,0.2,0.2
2025-05-07T1600,2543A,106.6308,30.5278,广安市,小平旧居,,,,,,,,,,,,,,,,
2025-05-07T1600,2544A,106.6303,30.4576,广安市,市委,颗粒物(PM10),66,82,83,45,49,130,,108,108,10,16,7,6,0.5,0.6
2025-05-07T1600,2545A,106.6271,30.4663,广安市,友谊中学,颗粒物(PM10),63,75,82,39,45,140,,116,116,17,21,4,5,0.9,0.9
2025-05-07T1600,2547A,106.6388,30.4551,广安市,广电花园,细颗粒物(PM2.5),63,69,77,45,47,131,,112,112,15,18,8,7,0.6,0.6
2025-05-07T1600,2902A,106.6351,30.4865,广安市,北辰小学,颗粒物(PM10),62,74,76,42,43,132,,123,123,10,16,8,9,0.6,0.6
2025-05-07T1600,2523A,105.8945,32.4535,广元市,黑石坡,,35,28,35,3,10,109,,97,97,11,12,4,4,0.3,0.3
2025-05-07T1600,2524A,105.821,32.4444,广元市,老城,,37,29,32,14,11,116,,104,104,4,13,1,2,0.7,0.8
2025-05-07T1600,2526A,105.8628,32.4287,广元市,监测站,,37,21,26,12,15,118,,103,103,6,11,9,6,0.4,0.5
2025-05-07T1600,3617A,105.8047,32.4166,广元市,经开区,,37,32,39,17,22,116,,105,105,11,16,8,7,0.6,0.6
2025-05-07T1600,1345A,113.2347,23.1423,广州市,广雅中学,,14,14,20,3,10,28,,19,19,22,32,3,3,0.4,0.5
2025-05-07T1600,1346A,113.2612,23.105,广州市,市五中,,12,12,19,6,12,30,,22,22,16,22,1,1,0.8,0.9
2025-05-07T1600,1348A,113.3478,23.0916,广州市,广东商学院,,12,8,22,6,15,30,,22,22,24,41,4,4,0.5,0.6
2025-05-07T1600,1349A,113.4332,23.1047,广州市,市八十六中,,25,16,28,8,16,11,,8,8,50,56,3,3,0.5,0.7
2025-05-07T1600,1350A,113.3505,22.9483,广州市,番禺中学,,12,10,18,3,14,36,,29,29,18,28,5,5,0.6,0.7
2025-05-07T1600,1351A,113.2146,23.3916,广州市,花都师范,,26,14,23,12,17,83,,32,32,14,33,5,4,0.6,0.7
2025-05-07T1600,1352A,113.2597,23.1331,广州市,市监测站,,13,13,20,7,12,31,,21,21,21,32,5,4,0.1,0.2
2025-05-07T1600,1353A,113.5618,23.312,广州市,九龙镇镇龙,,18,18,16,11,11,27,,34,34,23,17,5,5,0.4,0.4
2025-05-07T1600,1354A,113.2765,23.1544,广州市,麓湖,,,10,23,6,13,28,,17,17,,35,6,4,0.5,0.7
2025-05-07T1600,1355A,113.443,23.3035,广州市,帽峰山森林公园,,20,11,14,3,9,64,,40,40,10,16,5,6,0.6,0.6
2025-05-07T1600,2846A,113.3221,23.1322,广州市,体育西,,12,12,23,7,17,29,,18,18,24,43,4,4,0.4,0.5
2025-05-07T1600,3298A,113.5717,23.5491,广州市,从化街口,,25,9,17,6,9,78,,44,44,10,19,6,6,0.4,0.5
2025-05-07T1600,3299A,113.3472,23.3692,广州市,白云竹料,,23,12,25,10,17,72,,40,40,22,26,2,2,0.6,0.6
2025-05-07T1600,3300A,113.2981,23.237,广州市,白云嘉禾,,17,12,30,8,18,39,,18,18,33,45,5,5,0.7,0.8
2025-05-07T1600,3301A,113.4256,23.1716,广州市,黄埔科学城,,16,12,32,8,19,16,,13,13,32,30,2,2,0.6,0.6
2025-05-07T1600,3302A,113.3942,23.0483,广州市,番禺大学城,,13,13,23,7,14,33,,27,27,23,40,4,5,0.6,0.7
2025-05-07T1600,3303A,113.4922,22.8168,广州市,南沙黄阁,,11,8,16,3,12,33,,37,37,12,28,4,4,0.7,0.8
2025-05-07T1600,3304A,113.5342,22.7896,广州市,南沙街,,10,8,17,7,9,31,,39,39,17,20,6,5,0.6,0.7
2025-05-07T1600,3443A,113.2902,23.5544,广州市,花都梯面,,24,8,22,6,14,74,,39,39,15,21,4,4,0.6,0.7
2025-05-07T1600,3445A,113.7858,23.7478,广州市,从化良口,,17,8,15,3,8,54,,47,47,6,9,6,6,0.7,0.8
2025-05-07T1600,3446A,113.8051,23.2614,广州市,增城荔城,,15,15,16,9,9,32,,41,34,18,12,7,7,0.4,0.3
2025-05-07T1600,2505A,109.568,23.1478,贵港市,德智高中,,,,,,,,,,,,,,,,
2025-05-07T1600,2506A,109.6047,23.0666,贵港市,江南子站,颗粒物(PM10),52,53,32,33,25,113,,71,71,16,13,8,5,1.2,0.8
2025-05-07T1600,2508A,109.5669,23.1065,贵港市,荷城子站,,38,38,34,24,16,99,,62,62,14,13,6,5,0.5,0.5
2025-05-07T1600,3405A,109.5886,23.1172,贵港市,新世纪学校,,42,41,27,29,21,100,,62,62,13,11,6,4,0.7,0.6
2025-05-07T1600,4260A,109.5933,23.0951,贵港市,中山路155-3号,颗粒物(PM10),51,52,36,32,23,111,,68,68,16,13,5,4,0.9,0.7
2025-05-07T1600,1439A,106.6899,26.5998,贵阳市,马鞍山,,27,27,16,3,3,43,,47,44,15,8,4,3,0.6,0.4
2025-05-07T1600,1441A,106.6243,26.6266,贵阳市,鉴湖路,,31,31,23,12,10,57,,69,56,19,13,6,6,0.6,0.5
2025-05-07T1600,1442A,106.7487,26.6343,贵阳市,燕子冲,,32,24,22,22,17,58,,67,60,17,10,2,1,0.4,0.3
2025-05-07T1600,1443A,106.6555,26.4365,贵阳市,碧云窝,,27,27,24,7,8,69,,64,64,6,10,5,4,0.5,0.4
2025-05-07T1600,1445A,106.7109,26.6027,贵阳市,红边门,,31,31,21,14,14,51,,77,53,18,7,3,2,0.3,0.2
2025-05-07T1600,1446A,106.7164,26.5699,贵阳市,新华路,,27,27,15,17,13,53,,75,55,20,8,14,9,0.6,0.4
2025-05-07T1600,1447A,106.674,26.5424,贵阳市,太慈桥,,22,22,16,12,9,58,,53,49,14,13,5,4,0.2,0.2
2025-05-07T1600,1552A,106.805,26.3003,贵阳市,桐木岭,,29,29,26,17,14,60,,69,69,2,2,1,1,0.9,0.9
2025-05-07T1600,4230A,106.6882,26.5695,贵阳市,花果园大街66号,,28,27,18,19,18,48,,63,46,18,6,3,3,0.3,0.2
2025-05-07T1600,4231A,106.6873,26.5169,贵阳市,漓江路57号,,34,34,18,19,12,61,,66,54,8,9,8,7,0.3,0.3
2025-05-07T1600,1862A,110.4144,25.3167,桂林市,电子科大尧山校区,,,,,,,,,,,,,,,,
2025-05-07T1600,1864A,110.3089,25.2708,桂林市,龙隐路小学,,22,,38,15,25,68,,85,67,11,9,8,9,0.6,0.7
2025-05-07T1600,1865A,110.2869,25.2178,桂林市,八中,,20,,41,14,25,63,,85,60,17,14,3,2,0.9,0.9
2025-05-07T1600,3531A,110.296,25.1253,桂林市,旅游学院,,17,,29,9,20,54,,86,,15,8,2,2,0.8,0.7
2025-05-07T1600,4222A,110.1835,25.2444,桂林市,环湖路276号,,28,19,44,19,34,67,,85,60,10,10,6,15,0.5,0.4
2025-05-07T1600,4301A,110.2803,25.2773,桂林市,信义路13号,,22,18,44,10,30,69,,99,69,15,11,1,3,0.6,0.6
2025-05-07T1600,2674A,100.2561,34.4714,果洛藏族自治州,玛沁县大武镇,,42,42,48,16,19,106,,86,86,1,5,20,21,0.3,0.4
2025-05-07T1600,1129A,126.5422,45.755,哈尔滨市,岭北,,36,27,37,17,28,113,,81,81,12,27,14,14,0.8,0.9
2025-05-07T1600,1130A,126.561,45.8167,哈尔滨市,松北商大,,38,37,33,26,22,98,,76,76,14,22,7,6,0.5,0.5
2025-05-07T1600,1131A,126.979,45.5419,哈尔滨市,阿城会宁,,42,42,35,20,19,117,,89,89,12,19,7,6,0.6,0.5
2025-05-07T1600,1132A,126.599,45.7222,哈尔滨市,南岗学府路,,47,47,44,22,22,108,,71,71,11,30,5,5,0.4,0.5
2025-05-07T1600,1133A,126.689,45.7733,哈尔滨市,太平宏伟公园,颗粒物(PM10),51,51,41,23,25,109,,78,78,16,30,5,5,0.5,0.6
2025-05-07T1600,1134A,126.635,45.7667,哈尔滨市,道外承德广场,,46,46,47,29,29,100,,66,66,15,30,7,6,0.5,0.6
2025-05-07T1600,1135A,126.685,45.7319,哈尔滨市,香坊红旗大街,,,56,43,3,23,105,,72,72,,32,10,9,0.6,0.6
2025-05-07T1600,1136A,126.6411,45.7258,哈尔滨市,动力和平路,,,78,41,30,30,95,,66,66,,31,7,8,,0.5
2025-05-07T1600,1137A,126.593,45.7478,哈尔滨市,道里建国路,,46,46,38,26,26,96,,77,77,17,34,6,6,0.4,1
2025-05-07T1600,1138A,126.615,45.61,哈尔滨市,平房东轻厂,,,68,32,28,18,123,,88,88,,17,9,8,0.2,0.4
2025-05-07T1600,1139A,126.595,45.9855,哈尔滨市,呼兰师专,,42,42,37,25,29,88,,75,75,17,32,8,8,0.6,0.5
2025-05-07T1600,1140A,126.6206,45.6842,哈尔滨市,省农科院,颗粒物(PM10),78,105,50,31,30,90,,68,68,29,35,6,9,0.5,0.6
2025-05-07T1600,2688A,93.5128,42.8172,哈密市,地区监测站,颗粒物(PM10),172,294,180,53,59,105,,96,96,7,10,3,3,0.2,0.2
2025-05-07T1600,2689A,93.4961,42.8328,哈密市,哈密师范学校,颗粒物(PM10),132,214,136,33,27,104,,94,94,5,8,4,5,0.2,0.3
2025-05-07T1600,2671A,100.9048,36.9639,海北藏族自治州,海晏县西海镇,颗粒物(PM10),100,150,100,57,35,110,,97,97,1,5,8,12,0.3,0.4
2025-05-07T1600,3867A,102.0738,36.5056,海东市,平安区公安北苑,颗粒物(PM10),112,173,182,62,66,86,,83,83,6,5,10,12,0.6,0.6
2025-05-07T1600,1409A,110.576,19.9507,海口市,东寨港,,21,21,19,7,12,55,,51,51,3,3,2,3,0.5,0.5
2025-05-07T1600,1410A,110.3232,20.0574,海口市,海南大学,,39,31,24,22,15,124,,84,84,10,8,5,3,0.4,0.3
2025-05-07T1600,1411A,110.283,20.0053,海口市,秀英海南医院,,34,28,27,23,16,108,,80,80,24,12,6,5,0.4,0.3
2025-05-07T1600,1412A,110.338,19.9969,海口市,海南师范大学,,25,24,24,10,12,80,,66,66,3,6,4,4,0.3,0.3
2025-05-07T1600,1413A,110.33,20.0356,海口市,龙华路环保局宿舍,,37,27,25,18,14,118,,84,84,10,8,5,4,0.3,0.3
2025-05-07T1600,3539A,110.5111,19.9736,海口市,桂林洋子站,,21,14,19,9,11,65,,57,57,4,5,4,4,0.2,0.2
2025-05-07T1600,2673A,100.6188,36.2866,海南藏族自治州,共和县恰卜恰镇,颗粒物(PM10),114,177,107,64,35,124,,103,103,2,13,9,11,0.3,0.3
2025-05-07T1600,2676A,97.3731,37.3753,海西蒙古族藏族自治州,德令哈市,颗粒物(PM10),87,124,216,32,54,131,,111,111,2,4,14,16,0.3,0.4
2025-05-07T1600,1048A,114.5302,36.6116,邯郸市,东污水处理厂,颗粒物(PM10),138,226,88,48,24,127,,92,92,10,21,4,4,0.3,0.4
2025-05-07T1600,1049A,114.4918,36.5713,邯郸市,矿院,颗粒物(PM10),103,156,77,56,28,123,,89,89,8,18,5,5,0.3,0.3
2025-05-07T1600,1050A,114.484,36.6133,邯郸市,丛台公园,颗粒物(PM10),146,241,117,57,31,130,,98,98,9,14,8,8,0.3,0.3
2025-05-07T1600,3458A,114.7895,36.5593,邯郸市,香泉濮院小区,颗粒物(PM10),112,173,101,48,28,142,,102,102,8,12,6,5,0.4,0.3
2025-05-07T1600,3579A,114.50634,36.77178,邯郸市,永年区实验高中,颗粒物(PM10),122,193,101,57,37,109,,82,82,13,24,5,4,0.3,0.3
2025-05-07T1600,3580A,114.20016,36.44293,邯郸市,峰峰矿区临水派出所,颗粒物(PM10),117,183,77,76,37,129,,88,88,1,11,8,8,0.4,0.5
2025-05-07T1600,2634A,106.9893,33.1842,汉中市,汉川机床厂子校,,42,30,49,29,33,132,,120,120,4,10,7,8,0.6,0.6
2025-05-07T1600,2635A,107.0154,33.0706,汉中市,市监测站,,41,29,50,22,26,131,,118,118,2,9,5,6,0.6,0.6
2025-05-07T1600,2636A,107.0089,33.1138,汉中市,鑫源开发区,,40,39,51,21,24,126,,114,114,5,12,4,6,0.3,0.4
2025-05-07T1600,2637A,107.007,33.0323,汉中市,南郑大河坎水厂,,41,28,41,17,25,129,,114,114,4,10,5,5,0.3,0.5
2025-05-07T1600,1223A,120.2072,30.2111,杭州市,滨江,臭氧1小时,111,164,162,60,54,221,,154,154,35,26,11,8,1.0,0.8
2025-05-07T1600,1224A,120.0633,30.2747,杭州市,西溪,臭氧1小时,109,,77,72,38,218,,150,150,18,16,7,6,0.6,0.4
2025-05-07T1600,1226A,120.3417,30.3150,杭州市,下沙,颗粒物(PM10),81,112,139,39,44,180,,160,160,22,29,9,8,0.4,0.5
2025-05-07T1600,1227A,120.1269,30.2456,杭州市,卧龙桥,"颗粒物(PM10),臭氧1小时",121,192,153,66,50,242,,170,170,23,18,11,7,0.7,0.6
2025-05-07T1600,1228A,120.1903,30.2692,杭州市,浙江农大,颗粒物(PM10),113,175,152,64,58,179,,140,140,55,34,12,10,0.6,0.5
2025-05-07T1600,1230A,120.1197,30.3119,杭州市,和睦小学,颗粒物(PM10),122,193,150,66,42,223,,169,169,22,20,12,8,0.4,0.4
2025-05-07T1600,1231A,120.3019,30.4183,杭州市,临平镇,颗粒物(PM10),118,185,176,46,38,197,,164,164,18,20,7,6,0.5,0.4
2025-05-07T1600,1232A,120.2753,30.1839,杭州市,城厢镇,臭氧1小时,104,145,163,53,56,208,,154,154,23,24,11,10,0.7,0.6
2025-05-07T1600,1233A,120.0883,30.1808,杭州市,云栖,臭氧1小时,121,175,154,60,46,242,,171,171,36,30,10,7,0.8,0.6
2025-05-07T1600,3557A,119.9464,30.0494,杭州市,镇二中,臭氧1小时,106,137,162,60,51,212,,159,159,22,24,5,4,0.7,0.6
2025-05-07T1600,3558A,119.7183,30.2367,杭州市,市府大楼,颗粒物(PM10),106,162,168,48,48,205,,147,147,19,17,9,8,0.6,0.5
2025-05-07T1600,3656A,120.1556,30.2864,杭州市,消防大队,臭氧1小时,109,160,151,68,54,218,,163,163,27,27,6,5,0.7,0.5
2025-05-07T1600,1270A,117.1959,31.7848,合肥市,明珠广场,颗粒物(PM10),111,171,140,48,43,186,,151,151,11,33,9,8,0.3,0.3
2025-05-07T1600,1271A,117.3072,31.8764,合肥市,三里街,颗粒物(PM10),96,141,131,44,44,161,,142,142,15,30,6,7,0.4,0.5
2025-05-07T1600,1272A,117.2588,31.8707,合肥市,琥珀山庄,颗粒物(PM10),115,180,137,50,47,183,,147,147,12,28,8,6,0.6,0.6
2025-05-07T1600,1273A,117.1604,31.9052,合肥市,董铺水库,颗粒物(PM10),118,185,142,48,43,160,,135,135,8,21,2,2,0.4,0.4
2025-05-07T1600,1274A,117.25,31.8571,合肥市,长江中路,颗粒物(PM10),115,180,140,55,49,182,,152,152,13,27,9,10,0.5,0.5
2025-05-07T1600,1275A,117.266,31.9436,合肥市,庐阳区,颗粒物(PM10),103,156,136,48,46,184,,149,149,9,28,8,8,0.4,0.5
2025-05-07T1600,1276A,117.3453,31.8616,合肥市,瑶海区,颗粒物(PM10),103,156,141,44,39,152,,137,137,12,30,7,8,0.2,0.4
2025-05-07T1600,1277A,117.3027,31.7964,合肥市,包河区,颗粒物(PM10),117,183,138,63,53,191,,150,150,11,52,12,8,0.4,0.4
2025-05-07T1600,1278A,117.2776,31.7385,合肥市,滨湖新区,颗粒物(PM10),117,183,135,56,50,186,,153,153,8,38,11,9,0.6,0.6
2025-05-07T1600,1279A,117.1318,31.8403,合肥市,高新区,颗粒物(PM10),115,180,139,54,44,176,,143,143,13,33,5,4,0.4,0.5
2025-05-07T1600,3464A,117.3803,31.9147,合肥市,高教基地,颗粒物(PM10),103,156,128,49,48,189,,151,151,10,20,8,7,0.4,0.4
2025-05-07T1600,3614A,79.924,37.0877,和田地区,地区环保局,颗粒物(PM10),500,1558,347,400,126,71,,58,58,7,20,3,2,0.3,0.4
2025-05-07T1600,3615A,79.9131,37.113,和田地区,市环保局,颗粒物(PM10),500,1063,338,201,143,72,,61,61,5,39,1,2,0.0,0.2
2025-05-07T1600,2516A,108.2011,24.715,河池市,东仁乐园,,,,,,,,,,,,,,,,
2025-05-07T1600,2517A,108.0497,24.6947,河池市,市环保站,,28,21,16,19,9,69,,52,52,5,6,8,7,0.6,0.6
2025-05-07T1600,2518A,108.0983,24.6989,河池市,市疾控中心,,20,20,14,12,10,60,,45,44,9,9,7,8,0.7,0.6
2025-05-07T1600,1696A,114.6778,23.7569,河源市,源西,,16,13,13,10,18,50,,47,47,7,14,3,3,0.7,0.7
2025-05-07T1600,1697A,114.6944,23.7586,河源市,东埔,,37,37,23,11,15,54,,50,50,13,15,4,3,0.3,0.5
2025-05-07T1600,1698A,114.6892,23.7233,河源市,老城,,19,13,15,13,15,45,,44,44,16,21,4,3,0.4,0.5
2025-05-07T1600,1718A,115.4208,35.2464,菏泽市,气象局,颗粒物(PM10),94,138,116,56,49,163,,136,136,9,14,4,3,0.4,0.4
2025-05-07T1600,3374A,115.5564,35.0891,菏泽市,定陶老年大学,颗粒物(PM10),90,129,97,44,37,157,,138,138,8,13,5,5,0.4,0.5
2025-05-07T1600,4184A,115.4797,35.24401,菏泽市,永昌路1号,颗粒物(PM10),104,158,120,52,43,161,,127,127,7,17,6,6,0.3,0.3
2025-05-07T1600,4193A,115.4715,35.2800,菏泽市,长城路999号,颗粒物(PM10),89,128,117,63,42,153,,124,124,11,17,8,7,0.3,0.3
2025-05-07T1600,2514A,111.5264,24.4172,贺州市,环保小区,,45,32,32,31,30,109,,82,82,7,9,6,6,1.1,1
2025-05-07T1600,2515A,111.5608,24.4078,贺州市,政协大楼,,30,24,30,18,21,96,,77,77,7,10,9,7,0.7,0.7
2025-05-07T1600,3534A,111.4744,24.4553,贺州市,西湾,,43,43,32,25,22,111,,82,82,10,8,9,8,0.7,0.7
2025-05-07T1600,2385A,114.17,35.9019,鹤壁市,市监测站,颗粒物(PM10),128,205,131,71,51,142,,120,120,9,23,5,4,0.5,0.5
2025-05-07T1600,2386A,114.2956,35.7511,鹤壁市,市交警支队,颗粒物(PM10),97,144,130,56,36,149,,116,116,8,28,7,6,0.7,0.7
2025-05-07T1600,2387A,114.2878,35.7306,鹤壁市,迎宾馆,颗粒物(PM10),109,168,125,80,52,154,,120,120,3,19,5,3,0.4,0.5
2025-05-07T1600,3474A,114.2617,35.6822,鹤壁市,大新区,颗粒物(PM10),102,154,105,41,38,146,,114,114,6,32,9,8,0.4,0.4
2025-05-07T1600,3596A,114.1572,35.9603,鹤壁市,南山宾馆,颗粒物(PM10),154,258,164,63,49,146,,113,113,2,15,5,6,0.4,0.4
2025-05-07T1600,2244A,130.2537,47.3416,鹤岗市,哈啤分公司,,32,12,20,11,16,102,,94,94,5,8,13,13,0.3,0.3
2025-05-07T1600,2245A,130.2684,47.3086,鹤岗市,斯达机电,,29,18,21,18,18,92,,90,90,19,12,23,14,0.2,0.3
2025-05-07T1600,2246A,130.3114,47.3388,鹤岗市,东山纸板厂,,41,41,51,24,21,101,,94,94,10,19,14,13,0.1,0.5
2025-05-07T1600,2247A,130.1097,47.3382,鹤岗市,五号水库,,,,,,,,,,,,,,,,
2025-05-07T1600,2263A,127.4833,50.2524,黑河市,交通局,,29,26,29,13,13,90,,87,87,13,11,11,10,0.3,0.3
2025-05-07T1600,2264A,127.5144,50.2341,黑河市,环保局,,30,27,26,17,15,96,,91,91,7,10,5,4,0.2,0.2
2025-05-07T1600,2265A,127.5291,50.2472,黑河市,大黑河岛,,,,,7,7,75,,75,75,9,9,2,2,0.3,0.2
2025-05-07T1600,1074A,115.6838,37.7541,衡水市,电机北厂,颗粒物(PM10),96,141,71,39,38,91,,92,92,14,14,5,5,0.4,0.4
2025-05-07T1600,1075A,115.6303,37.7316,衡水市,市监测站,,,126,77,,33,85,,85,85,,14,10,8,0.4,0.4
2025-05-07T1600,3188A,115.6683,37.7217,衡水市,市城管局,颗粒物(PM10),85,119,70,38,38,87,,88,88,15,17,7,6,0.4,0.4
2025-05-07T1600,3459A,115.5989,37.5491,衡水市,地表水厂,颗粒物(PM10),96,142,77,42,32,73,,75,75,21,25,9,9,0.4,0.4
2025-05-07T1600,2456A,112.5003,26.9167,衡阳市,原169医院,颗粒物(PM10),64,77,82,38,49,97,,81,81,8,12,2,3,0.5,0.7
2025-05-07T1600,2457A,112.6194,26.9258,衡阳市,衡阳化工总厂,颗粒物(PM10),88,125,89,34,53,91,,85,85,6,13,6,8,0.5,0.7
2025-05-07T1600,2458A,112.6211,26.8956,衡阳市,珠晖区环保局,,,88,78,,,84,,82,82,14,22,7,9,0.7,0.9
2025-05-07T1600,2459A,112.6197,26.8733,衡阳市,市委党校,,,72,74,,32,87,,85,82,7,12,2,4,0.6,0.7
2025-05-07T1600,2460A,112.6006,26.8919,衡阳市,市监测站,,,80,76,41,48,91,,82,82,7,14,8,10,,1
2025-05-07T1600,2461A,112.5664,26.9056,衡阳市,真空机电公司,颗粒物(PM10),71,92,82,36,45,95,,80,80,6,13,5,5,0.7,0.8
2025-05-07T1600,3399A,112.6703,26.882,衡阳市,师范学院,颗粒物(PM10),67,83,81,43,48,89,,82,82,9,13,7,10,0.8,0.9
2025-05-07T1600,2608A,103.3772,23.3993,红河哈尼族彝族自治州,污水处理厂,,35,35,33,21,28,108,,104,104,6,6,6,6,0.5,0.5
2025-05-07T1600,2609A,103.3861,23.35,红河哈尼族彝族自治州,监测站,,,38,42,18,25,127,,122,122,4,7,,7,0.3,0.3
2025-05-07T1600,3038A,103.3758,23.368,红河哈尼族彝族自治州,州图书馆,,32,30,31,20,22,100,,99,99,5,6,3,2,0.3,0.3
2025-05-07T1600,1090A,111.6507,40.7517,呼和浩特市,呼市一监,颗粒物(PM10),79,107,66,37,24,116,,83,83,8,17,10,8,0.4,0.6
2025-05-07T1600,1091A,111.6572,40.8033,呼和浩特市,小召,颗粒物(PM10),78,105,64,31,22,106,,80,80,18,28,14,11,0.4,0.5
2025-05-07T1600,1094A,111.7516,40.8369,呼和浩特市,如意水处理厂,颗粒物(PM10),73,96,62,34,24,110,,84,84,12,30,8,6,0.4,0.5
2025-05-07T1600,1095A,111.7276,40.8062,呼和浩特市,二十九中,颗粒物(PM10),71,92,62,34,26,111,,83,83,12,21,8,5,0.4,0.6
2025-05-07T1600,1096A,111.5512,40.7866,呼和浩特市,工大金川校区,颗粒物(PM10),75,99,66,38,25,115,,90,90,14,41,9,8,0.5,0.6
2025-05-07T1600,1097A,111.717,40.7612,呼和浩特市,化肥厂生活区,,,129,69,52,27,116,,84,84,,26,,11,0.3,0.5
2025-05-07T1600,3698A,111.5968,40.8178,呼和浩特市,红旗小学,颗粒物(PM10),81,112,70,48,28,114,,87,87,19,41,6,5,0.4,0.5
2025-05-07T1600,3699A,111.6518,40.8389,呼和浩特市,海东办,颗粒物(PM10),80,110,66,43,33,106,,83,83,14,33,10,9,0.5,0.6
2025-05-07T1600,2192A,119.7594,49.2261,呼伦贝尔市,区环保局,,38,29,48,26,39,111,,97,97,6,18,5,7,0.3,0.5
2025-05-07T1600,3061A,119.7512,49.1577,呼伦贝尔市,国华电力东,,36,25,42,12,25,115,,100,100,5,13,5,4,0.2,0.3
2025-05-07T1600,1250A,120.0751,30.8669,湖州市,城西水厂,臭氧1小时,103,121,132,55,42,205,,159,159,15,28,8,8,0.5,0.5
2025-05-07T1600,2873A,120.0830,30.8929,湖州市,仁皇山新区,臭氧1小时,95,119,127,43,40,196,,153,153,16,20,4,6,0.5,0.7
2025-05-07T1600,2907A,120.1844,30.8596,湖州市,吴兴区站,,,134,112,47,40,190,,152,152,,17,7,7,0.4,0.4
2025-05-07T1600,3562A,120.4148,30.8538,湖州市,南浔区站,颗粒物(PM10),81,111,101,38,31,183,,154,154,14,18,5,5,0.6,0.5
2025-05-07T1600,1607A,120.9049,40.7211,葫芦岛市,龙港区,,41,,29,17,23,130,,108,108,8,16,8,8,0.5,0.5
2025-05-07T1600,1608A,120.8392,40.7514,葫芦岛市,化工街,,40,39,44,12,26,126,,108,108,12,42,8,9,0.5,0.6
2025-05-07T1600,1609A,120.8341,40.7073,葫芦岛市,新区,,40,33,28,16,27,128,,111,111,10,19,7,7,0.5,0.6
2025-05-07T1600,1610A,120.8695,40.7677,葫芦岛市,东城区,,40,35,40,15,36,126,,108,108,10,40,4,10,0.6,0.7
2025-05-07T1600,2482A,109.5981,27.5721,怀化市,林科所,颗粒物(PM10),52,54,64,31,29,84,,45,45,6,9,5,5,0.5,0.6
2025-05-07T1600,2483A,109.9453,27.5444,怀化市,河西地税局,颗粒物(PM10),54,58,61,36,34,74,,49,49,10,13,6,6,0.5,0.5
2025-05-07T1600,2484A,109.9781,27.5342,怀化市,市四医院,颗粒物(PM10),58,65,65,39,36,100,,57,57,9,12,8,8,0.9,0.9
2025-05-07T1600,2485A,109.9972,27.5578,怀化市,监测楼,颗粒物(PM10),51,51,65,27,37,99,,59,59,9,10,3,2,0.3,0.4
2025-05-07T1600,2486A,110.0394,27.583,怀化市,市委党校,,42,42,59,29,40,95,,61,61,6,11,3,3,0.5,0.6
2025-05-07T1600,1210A,119.036,33.5981,淮安市,钵池山,,,78,59,35,42,163,,132,132,,16,10,9,,0.4
2025-05-07T1600,1211A,119.007,33.575,淮安市,北京南路,颗粒物(PM10),65,80,78,34,37,171,,144,144,11,13,10,9,0.5,0.6
2025-05-07T1600,1212A,118.989,33.6067,淮安市,市监测站,颗粒物(PM10),58,66,71,31,37,156,,130,130,13,16,9,9,0.3,0.4
2025-05-07T1600,1213A,119.135,33.5039,淮安市,楚州区监测站,,,78,86,33,44,157,,128,128,,19,,8,0.5,0.5
2025-05-07T1600,3426A,118.8755,33.2894,淮安市,新华书店,颗粒物(PM10),65,80,82,37,38,169,,132,132,11,19,9,9,0.5,0.5
2025-05-07T1600,4206A,119.0288,33.6319,淮安市,承德北路606号,颗粒物(PM10),68,85,86,33,39,161,,132,132,10,15,9,8,0.5,0.5
2025-05-07T1600,2282A,116.8004,33.975,淮北市,监测站,颗粒物(PM10),79,108,110,47,48,161,,136,136,13,15,7,7,0.6,0.6
2025-05-07T1600,2283A,116.8091,33.9007,淮北市,烈山区政府,颗粒物(PM10),78,106,111,49,44,165,,136,136,7,13,4,5,0.6,0.6
2025-05-07T1600,3330A,116.8873,33.9836,淮北市,杜集区检察院,颗粒物(PM10),82,113,110,50,54,160,,133,133,12,16,7,8,0.6,0.6
2025-05-07T1600,4017A,116.7923,33.9535,淮北市,市博物馆,颗粒物(PM10),77,103,112,53,49,163,,142,142,13,14,6,6,0.5,0.6
2025-05-07T1600,2277A,116.8305,32.7727,淮南市,潘集区政府,颗粒物(PM10),68,85,125,43,56,164,,136,136,9,20,4,6,0.3,0.3
2025-05-07T1600,2279A,116.8569,32.5951,淮南市,谢家集区政府,颗粒物(PM10),73,95,114,38,44,161,,135,135,12,17,5,6,0.2,0.2
2025-05-07T1600,2280A,116.8281,32.633,淮南市,八公山区政府,颗粒物(PM10),73,96,121,39,41,161,,135,135,2,9,6,8,0.3,0.3
2025-05-07T1600,2281A,116.6325,32.6201,淮南市,焦岗湖风景区管理处,,,,,,,,,,,,,,,,
2025-05-07T1600,2894A,117.0566,32.6531,淮南市,经济技术开发区消防队,颗粒物(PM10),72,94,110,51,60,165,,137,137,9,22,6,6,0.3,0.3
2025-05-07T1600,3329A,117.0108,32.5893,淮南市,山南新区,,,108,141,31,45,175,,144,144,,15,9,8,,0.3
2025-05-07T1600,4209A,117.0031,32.6445,淮南市,国庆中路369号,颗粒物(PM10),68,85,116,39,51,164,,136,136,5,12,10,10,0.4,0.4
2025-05-07T1600,2446A,114.9028,30.4742,黄冈市,职工中心,,,,,,,,,,,,,,,,
2025-05-07T1600,2929A,114.8858,30.4519,黄冈市,红卫路,颗粒物(PM10),103,155,206,52,63,181,,145,145,3,6,6,8,0.5,0.5
2025-05-07T1600,3398A,114.9136,30.4445,黄冈市,市林业局,颗粒物(PM10),108,166,220,43,57,176,,139,139,10,20,9,9,0.7,0.8
2025-05-07T1600,2672A,102.0199,35.5102,黄南藏族自治州,同仁县隆务镇,颗粒物(PM10),117,184,111,65,45,92,,90,90,9,4,7,5,0.3,0.2
2025-05-07T1600,2295A,118.2903,29.6963,黄山市,延安路89号,细颗粒物(PM2.5),142,211,181,108,106,146,,83,83,4,8,6,6,0.3,0.4
2025-05-07T1600,2297A,118.1371,30.2756,黄山市,黄山区政府5号楼,颗粒物(PM10),140,229,212,60,57,132,,107,107,4,6,4,4,0.4,0.4
2025-05-07T1600,4210A,118.3354,29.7203,黄山市,滨江东路7-2号,颗粒物(PM10),130,209,199,51,58,145,,120,120,5,8,5,5,0.4,0.5
2025-05-07T1600,2423A,115.0601,30.2313,黄石市,沈家营,颗粒物(PM10),118,186,227,50,67,171,,155,155,23,27,8,8,0.9,0.7
2025-05-07T1600,2426A,114.8988,30.2019,黄石市,铁山,颗粒物(PM10),103,155,210,56,74,169,,143,143,7,10,7,6,0.3,0.6
2025-05-07T1600,2427A,115.0307,30.2092,黄石市,团城山,颗粒物(PM10),111,171,228,41,60,167,,149,149,7,16,8,9,0.5,0.6
2025-05-07T1600,3149A,115.0235,30.1578,黄石市,笔架山北路,颗粒物(PM10),90,130,178,53,64,181,,158,158,4,11,8,9,0.6,0.6
2025-05-07T1600,4185A,115.0780,30.21118,黄石市,磁湖东路29号,颗粒物(PM10),109,167,243,56,69,175,,155,155,9,21,8,8,0.6,0.7
2025-05-07T1600,1392A,114.4183,23.0528,惠州市,河南岸金山湖子站,,12,6,26,3,17,38,,23,23,13,21,8,9,0.4,0.5
2025-05-07T1600,1393A,114.4053,23.0822,惠州市,下埔横江三路子站,,14,8,25,3,18,42,,29,29,14,20,8,9,0.6,0.7
2025-05-07T1600,1394A,114.4103,23.1142,惠州市,江北云山西路子站,,14,8,23,3,14,44,,31,31,11,18,10,12,0.5,0.6
2025-05-07T1600,1395A,114.4645,22.7833,惠州市,惠阳区承修路船湖子站,,14,6,28,3,18,43,,27,27,9,28,7,7,0.5,0.5
2025-05-07T1600,1396A,114.5317,22.7422,惠州市,大亚湾管委会子站,,11,11,19,6,10,34,,33,33,14,22,9,8,0.5,0.6
2025-05-07T1600,3314A,114.4338,22.8134,惠州市,惠阳秋长,,13,,23,6,17,39,,29,29,17,32,17,18,0.6,0.7
2025-05-07T1600,3452A,114.6517,22.775,惠州市,大亚湾霞涌,,20,20,15,3,7,42,,40,40,6,12,6,7,0.5,0.6
2025-05-07T1600,2240A,130.9762,45.3001,鸡西市,环保局,,34,29,38,16,21,108,,108,108,9,18,5,6,0.4,0.5
2025-05-07T1600,2243A,130.9429,45.3039,鸡西市,第一中学,,34,24,30,17,19,107,,106,106,4,9,6,7,0.4,0.5
2025-05-07T1600,3707A,131.0207,45.3073,鸡西市,欧美日汽修厂,,32,32,50,22,29,102,,102,102,12,19,7,7,0.5,0.6
2025-05-07T1600,3709A,130.9967,45.3106,鸡西市,市政设施管理处,,48,48,60,18,19,102,,108,108,10,13,8,7,0.4,0.4
2025-05-07T1600,2367A,114.9754,27.0803,吉安市,红声器材厂,颗粒物(PM10),62,73,61,27,26,69,,86,82,16,11,12,15,0.6,0.6
2025-05-07T1600,2368A,114.9658,27.0999,吉安市,市森林工业局,颗粒物(PM10),61,71,58,25,28,72,,83,78,13,10,11,12,0.6,0.5
2025-05-07T1600,2369A,114.99,27.1312,吉安市,市环境监测站,颗粒物(PM10),55,60,54,28,28,67,,80,79,15,10,12,15,0.6,0.7
2025-05-07T1600,2370A,115.0093,27.0968,吉安市,青原区法院,颗粒物(PM10),62,74,60,35,29,64,,81,74,17,12,14,17,0.5,0.5
2025-05-07T1600,1772A,126.54,43.8622,吉林市,哈达湾,,39,35,31,22,20,124,,113,113,8,12,6,6,0.4,0.4
2025-05-07T1600,1773A,126.5844,43.8358,吉林市,东局子,,39,35,32,25,23,123,,112,112,9,12,6,5,0.4,0.4
2025-05-07T1600,1774A,126.5052,43.8245,吉林市,电力学院,,40,33,37,25,25,128,,119,119,9,15,5,5,0.4,0.4
2025-05-07T1600,1775A,126.6133,43.8972,吉林市,江北,,41,38,34,21,20,130,,118,118,10,12,6,6,0.2,0.2
2025-05-07T1600,1776A,126.555,43.8306,吉林市,江南公园,,45,35,29,31,23,122,,113,113,8,10,6,5,0.3,0.3
2025-05-07T1600,1778A,126.7061,43.7133,吉林市,丰满,,,,,,,,,,,,,,,,
2025-05-07T1600,2868A,126.4739,43.953,吉林市,九站,,41,41,36,21,23,127,,120,120,8,13,6,8,0.4,0.4
2025-05-07T1600,1299A,116.9862,36.6114,济南市,科干所,颗粒物(PM10),85,119,61,37,25,147,,123,123,10,17,4,3,0.4,0.4
2025-05-07T1600,1300A,116.9376,36.665,济南市,农科所,细颗粒物(PM2.5),89,125,67,66,31,116,,102,102,24,31,7,6,0.3,0.4
2025-05-07T1600,1301A,117.1265,36.6734,济南市,开发区,颗粒物(PM10),83,115,75,34,29,113,,114,114,27,26,8,7,0.6,0.7
2025-05-07T1600,1303A,117.0624,36.6868,济南市,省种子仓库,颗粒物(PM10),56,61,47,36,34,106,,95,95,29,34,4,4,0.5,0.5
2025-05-07T1600,1304A,116.9489,36.6447,济南市,机床二厂,颗粒物(PM10),102,154,85,42,29,138,,110,110,18,33,9,7,0.4,0.5
2025-05-07T1600,1305A,117.0495,36.663,济南市,市监测站,颗粒物(PM10),95,139,75,46,40,102,,101,101,37,32,8,7,0.5,0.5
2025-05-07T1600,1306A,116.7675,36.5484,济南市,长清党校,颗粒物(PM10),81,112,58,37,28,146,,126,126,14,27,7,4,0.6,0.6
2025-05-07T1600,1616A,117.6795,36.229,济南市,技术学院,颗粒物(PM10),80,110,62,36,36,146,,105,105,18,29,12,10,0.6,0.7
2025-05-07T1600,1961A,117.532,36.6868,济南市,东山小学,颗粒物(PM10),84,117,76,34,29,134,,112,112,15,30,9,7,0.7,0.5
2025-05-07T1600,3059A,117.7161,36.2049,济南市,泰兴公司,颗粒物(PM10),75,100,65,34,37,142,,107,107,16,35,7,6,0.3,0.4
2025-05-07T1600,3064A,117.6867,36.2171,济南市,莱芜战役纪念馆,颗粒物(PM10),89,127,68,31,33,142,,104,104,21,31,7,6,0.7,0.9
2025-05-07T1600,3494A,117.1673,36.9782,济南市,济阳区政府,颗粒物(PM10),75,100,68,44,34,93,,84,84,31,21,7,4,0.8,0.6
2025-05-07T1600,3495A,117.1171,36.63,济南市,锦屏中学,颗粒物(PM10),81,112,62,27,21,139,,123,123,14,17,6,5,0.4,0.5
2025-05-07T1600,3682A,116.9814,36.6819,济南市,济南四建,颗粒物(PM10),81,112,71,37,35,112,,106,106,31,33,5,4,0.5,0.6
2025-05-07T1600,1653A,116.6251,35.4302,济宁市,火炬城,颗粒物(PM10),70,90,77,44,44,138,,108,108,4,12,6,7,0.3,0.4
2025-05-07T1600,1655A,116.5491,35.4042,济宁市,电化厂,颗粒物(PM10),73,96,84,36,33,132,,110,110,5,14,2,4,0.5,0.5
2025-05-07T1600,3500A,116.5814,35.3707,济宁市,北湖一中,颗粒物(PM10),79,107,85,22,28,133,,107,107,6,17,5,4,0.3,0.4
2025-05-07T1600,3501A,116.8249,35.5593,济宁市,服务中心,颗粒物(PM10),61,71,64,26,27,129,,108,108,12,25,3,2,0.3,0.4
2025-05-07T1600,3678A,116.5907,35.4054,济宁市,市第七中学,,,114,84,51,39,133,,106,106,7,19,5,6,,0.4
2025-05-07T1600,2255A,130.2751,46.8028,佳木斯市,佳纺,,,,34,15,15,113,,108,108,5,12,5,6,0.4,0.4
2025-05-07T1600,2256A,130.3995,46.8307,佳木斯市,发电厂,,34,28,22,15,15,107,,106,106,11,14,4,5,0.2,0.3
2025-05-07T1600,2257A,130.3258,46.7975,佳木斯市,环保局,,37,20,26,3,14,116,,111,111,6,12,5,6,0.5,0.4
2025-05-07T1600,2258A,130.3648,46.8032,佳木斯市,十一中,,35,27,27,16,16,109,,106,106,9,15,5,5,0.3,0.4
2025-05-07T1600,2259A,130.3794,46.7588,佳木斯市,四丰,,32,24,22,10,13,101,,95,95,5,10,1,1,0.2,0.2
2025-05-07T1600,1252A,120.7436,30.778,嘉兴市,清河小学,颗粒物(PM10),87,123,106,36,30,168,,136,136,15,18,6,6,0.8,0.8
2025-05-07T1600,1253A,120.726,30.7478,嘉兴市,嘉兴学院,颗粒物(PM10),74,98,91,35,27,174,,148,148,13,14,7,7,0.7,0.7
2025-05-07T1600,2872A,120.7846,30.7525,嘉兴市,南湖区残联,,,111,105,38,29,176,,151,151,12,15,7,7,,0.5
2025-05-07T1600,3407A,120.6916,30.7739,嘉兴市,秀洲住建,"颗粒物(PM10),臭氧1小时",89,127,110,39,33,191,,161,161,7,11,8,7,0.5,0.5
2025-05-07T1600,1945A,98.2908,39.7711,嘉峪关市,气象局,颗粒物(PM10),71,92,83,24,33,119,,116,116,3,4,2,5,0.7,0.8
2025-05-07T1600,2884A,98.2672,39.7978,嘉峪关市,酒钢宾馆,颗粒物(PM10),85,119,94,36,36,111,,106,106,2,4,9,14,0.3,0.2
2025-05-07T1600,3248A,98.2643,39.7724,嘉峪关市,雄关区,,,80,79,15,28,117,,113,113,6,9,,10,0.7,0.8
2025-05-07T1600,1383A,113.1064,22.6058,江门市,北街,,17,17,21,3,15,39,,38,38,5,20,1,2,0.2,0.4
2025-05-07T1600,1384A,113.0731,22.5835,江门市,西区,,17,,16,8,11,52,,47,47,6,18,5,6,0.3,0.5
2025-05-07T1600,1385A,113.0219,22.5311,江门市,圭峰西,,42,42,17,3,10,48,,44,44,6,11,4,4,0.3,0.5
2025-05-07T1600,1386A,113.0828,22.5947,江门市,东湖,,17,,16,7,14,54,,48,48,7,19,7,7,0.4,0.5
2025-05-07T1600,3311A,113.1075,22.5647,江门市,江海富民,,22,22,28,11,21,52,,49,49,4,16,7,7,0.3,0.5
2025-05-07T1600,3449A,113.05,22.4667,江门市,新会银湖,,20,20,18,3,11,43,,42,42,6,22,1,2,0.4,0.5
2025-05-07T1600,1830A,113.1992,35.2590,焦作市,影视城,,,,116,,37,,,,,,10,,9,,0.6
2025-05-07T1600,3169A,113.2725,35.2067,焦作市,太极体育中心,颗粒物(PM10),184,317,206,80,60,176,,124,124,9,13,6,9,0,0
2025-05-07T1600,3335A,113.3137,35.2641,焦作市,马村街道办,颗粒物(PM10),170,289,182,86,54,166,,120,120,12,16,9,9,0.1,0.1
2025-05-07T1600,3336A,113.2465,35.2373,焦作市,焦作技师学院,颗粒物(PM10),177,304,186,63,47,170,,125,125,10,13,9,9,0.4,0.4
2025-05-07T1600,3477A,113.1656,35.2539,焦作市,中站许衡医院,颗粒物(PM10),171,292,168,70,44,169,,126,126,9,10,8,7,0.5,0.4
2025-05-07T1600,3981A,113.2449,35.1803,焦作市,原李万街道办,颗粒物(PM10),173,295,179,78,56,160,,116,116,7,11,10,14,0.2,0.4
2025-05-07T1600,4264A,113.2340,35.2190,焦作市,新安路1731号,颗粒物(PM10),394,495,198,155,67,168,,123,123,10,13,8,9,0.4,0.4
2025-05-07T1600,1708A,116.3701,23.5345,揭阳市,新兴,,29,23,27,20,21,76,,70,70,2,9,5,6,0.6,0.7
2025-05-07T1600,1709A,116.3264,23.5443,揭阳市,西马,,25,25,29,14,17,80,,72,72,11,11,7,7,0.9,1
2025-05-07T1600,1710A,116.3611,23.5626,揭阳市,东兴,,26,25,27,14,17,81,,72,72,8,12,4,6,0.7,0.8
2025-05-07T1600,1711A,116.4151,23.5294,揭阳市,渔湖,,,35,31,,17,82,,75,75,15,21,3,4,0.7,0.7
2025-05-07T1600,3320A,116.403,23.5699,揭阳市,曲溪,,28,26,25,13,16,88,,77,77,18,21,18,8,0.6,0.6
2025-05-07T1600,1944A,102.1692,38.5167,金昌市,天庆家园,,48,48,130,18,50,121,,113,113,3,4,8,8,0.7,0.7
2025-05-07T1600,4022A,102.1647,38.5371,金昌市,金川区人防中心,颗粒物(PM10),58,66,161,19,54,118,,113,113,7,6,4,4,0.5,0.5
2025-05-07T1600,4239A,102.1930,38.5319,金昌市,长春路96号,,37,37,149,10,52,112,,106,106,1,3,30,11,0.6,0.6
2025-05-07T1600,1262A,119.647,29.077,金华市,十五中,臭氧1小时,90,116,214,40,58,192,,166,166,12,24,3,4,0.4,0.5
2025-05-07T1600,1263A,119.686,29.1029,金华市,监测站,颗粒物(PM10),91,132,227,41,66,183,,179,179,10,25,3,5,0.3,0.3
2025-05-07T1600,3659A,119.656,29.1131,金华市,气象局,颗粒物(PM10),85,119,218,39,49,186,,165,165,11,27,2,3,0.5,0.6
2025-05-07T1600,1767A,121.1115,41.0879,锦州市,南山,颗粒物(PM10),59,67,43,22,46,128,,111,111,10,26,13,9,0.6,0.9
2025-05-07T1600,1768A,121.0604,40.8428,锦州市,开发区,颗粒物(PM10),77,104,53,18,31,117,,103,103,20,40,5,8,0.6,0.6
2025-05-07T1600,1769A,121.1836,41.1119,锦州市,百股街道,,40,40,34,22,33,126,,110,110,11,24,4,7,0.6,0.7
2025-05-07T1600,1770A,121.1178,41.1222,锦州市,天安街道,颗粒物(PM10),60,69,43,27,40,131,,106,106,11,26,10,8,0.7,0.8
2025-05-07T1600,1771A,121.1303,41.1386,锦州市,北湖公园,颗粒物(PM10),52,54,43,20,42,130,,107,107,11,22,11,9,0.6,0.8
2025-05-07T1600,2160A,112.85,35.5051,晋城市,自来水公司,颗粒物(PM10),175,299,178,80,46,166,,134,134,12,16,11,9,0.6,0.5
2025-05-07T1600,2161A,112.8318,35.4936,晋城市,白云商贸,颗粒物(PM10),188,326,196,100,53,169,,135,135,14,18,10,7,0.5,0.5
2025-05-07T1600,2162A,112.8508,35.4887,晋城市,市环保局,颗粒物(PM10),186,321,196,85,50,156,,125,125,10,15,9,6,0.3,0.3
2025-05-07T1600,2163A,112.8676,35.4897,晋城市,技术学院,颗粒物(PM10),189,328,179,92,56,155,,121,121,12,17,10,8,0.5,0.5
2025-05-07T1600,2165A,112.8453,35.546,晋城市,白马寺,,,,151,,47,,,121,,,9,,6,,0.3
2025-05-07T1600,3620A,112.8271,35.4828,晋城市,泽州一中,颗粒物(PM10),187,323,182,110,64,171,,135,135,12,15,,5,0.4,0.3
2025-05-07T1600,2173A,112.7249,37.7067,晋中市,南都小区,颗粒物(PM10),59,68,83,34,29,91,,81,81,13,21,6,7,0.3,0.4
2025-05-07T1600,2174A,112.6991,37.6982,晋中市,榆次区政府,颗粒物(PM10),63,75,86,25,23,92,,79,79,14,25,7,8,0.4,0.4
2025-05-07T1600,2865A,112.7195,37.6828,晋中市,榆次三中,颗粒物(PM10),64,78,87,31,29,94,,89,89,12,20,3,6,0.5,0.4
2025-05-07T1600,4200A,112.7478,37.6954,晋中市,迎宾街26号,颗粒物(PM10),64,78,88,29,27,90,,81,81,14,22,4,6,0.6,0.4
2025-05-07T1600,2439A,112.2014,31.0481,荆门市,竹园小学,颗粒物(PM10),141,232,422,79,112,211,,156,156,13,18,8,8,0.1,0.1
2025-05-07T1600,2440A,112.1969,30.9891,荆门市,掇刀,颗粒物(PM10),141,232,395,69,101,201,,154,154,8,15,,7,0.3,0.4
2025-05-07T1600,2441A,112.2213,31.0386,荆门市,石化一小,颗粒物(PM10),142,234,394,85,112,204,,150,150,13,20,15,13,0.1,0.1
2025-05-07T1600,3012A,112.1849,31.0362,荆门市,西山林语,颗粒物(PM10),126,202,342,78,109,202,,150,150,6,11,,10,0.3,0.4
2025-05-07T1600,3547A,112.1632,31.0138,荆门市,龙泉中学南校,细颗粒物(PM2.5),183,214,383,138,137,187,,150,150,9,14,2,4,0.6,0.6
2025-05-07T1600,1844A,112.2494,30.3197,荆州市,市图书馆,细颗粒物(PM2.5),74,89,314,54,110,140,,136,136,12,25,5,10,0.3,0.6
2025-05-07T1600,1845A,112.2008,30.3544,荆州市,市委党校,颗粒物(PM10),76,102,313,51,109,117,,109,109,7,24,7,11,0.5,0.7
2025-05-07T1600,3194A,112.2747,30.3122,荆州市,管委会,细颗粒物(PM2.5),65,76,283,47,112,140,,129,129,10,24,8,13,0.4,0.6
2025-05-07T1600,4268A,112.1722,30.3366,荆州市,学苑路85号,颗粒物(PM10),67,84,280,37,100,133,,132,132,7,32,3,10,0.4,0.6
2025-05-07T1600,2342A,117.3102,29.3867,景德镇市,王港中学,,,,,,,,,,,,,,,,
2025-05-07T1600,2343A,117.2117,29.2933,景德镇市,老干部活动中心,颗粒物(PM10),119,187,160,45,44,146,,117,117,7,12,7,7,0.4,0.5
2025-05-07T1600,2344A,117.1894,29.2789,景德镇市,兽医站,颗粒物(PM10),130,210,178,43,43,139,,115,115,8,12,5,6,0.5,0.5
2025-05-07T1600,2345A,117.1547,29.2617,景德镇市,台达陶瓷,颗粒物(PM10),127,203,171,45,41,153,,122,122,12,16,21,22,0.5,0.5
2025-05-07T1600,2346A,117.2461,29.2956,景德镇市,陶研所,颗粒物(PM10),110,169,136,56,51,140,,115,115,7,10,10,11,0.5,0.5
2025-05-07T1600,1803A,115.9872,29.6815,九江市,十里,颗粒物(PM10),132,213,229,56,63,183,,152,152,3,15,4,5,0.4,0.5
2025-05-07T1600,1804A,115.9584,29.7046,九江市,茅山头,颗粒物(PM10),137,224,262,50,57,171,,151,151,8,14,8,9,0.6,0.4
2025-05-07T1600,1805A,115.9877,29.7295,九江市,西园,颗粒物(PM10),124,198,213,48,56,175,,148,148,27,36,11,9,0.8,0.6
2025-05-07T1600,1808A,115.9114,29.6038,九江市,综合工业园,颗粒物(PM10),150,249,260,72,76,187,,157,157,20,33,16,14,0.8,0.7
2025-05-07T1600,1809A,116.0721,29.7535,九江市,石化总厂,颗粒物(PM10),142,233,256,40,62,181,,139,139,13,29,12,9,0.8,0.7
2025-05-07T1600,1810A,115.9773,29.5698,九江市,庐山气象台,颗粒物(PM10),125,200,200,53,59,157,,130,130,8,7,7,7,1.0,0.8
2025-05-07T1600,3190A,116.0254,29.6994,九江市,外国语学校,颗粒物(PM10),133,215,283,46,54,170,,140,140,9,20,10,9,0.8,0.7
2025-05-07T1600,4253A,116.0102,29.6594,九江市,莲花大道8号,颗粒物(PM10),134,217,238,61,59,167,,140,140,2,9,7,9,0.6,0.6
2025-05-07T1600,4240A,98.4958,39.7339,酒泉市,玉门东路5号,颗粒物(PM10),76,102,104,32,42,118,,111,111,1,3,8,9,0.2,0.2
2025-05-07T1600,4241A,98.5099,39.7506,酒泉市,北大街108号,颗粒物(PM10),95,139,96,25,30,115,,108,108,4,6,9,10,0.2,0.3
2025-05-07T1600,2698A,76.0072,39.4467,喀什地区,巡警大队,颗粒物(PM10),500,1314,885,319,240,112,,82,82,9,23,4,4,0.4,0.5
2025-05-07T1600,2699A,75.9755,39.4694,喀什地区,吾办,"颗粒物(PM10),细颗粒物(PM2.5)",500,1258,820,525,352,107,,69,69,13,52,6,5,,0.4
2025-05-07T1600,4027A,75.9483,39.4689,喀什地区,老干局,颗粒物(PM10),500,1157,745,357,251,103,,74,65,8,22,5,5,0.3,0.4
2025-05-07T1600,1824A,114.3389,34.7781,开封市,肿瘤医院,颗粒物(PM10),123,196,162,46,40,150,,126,126,2,10,9,8,0.4,0.5
2025-05-07T1600,1826A,114.2885,34.7965,开封市,世纪星幼儿园,颗粒物(PM10),138,226,178,,77,156,,85,,,14,,8,,0.8
2025-05-07T1600,3147A,114.3438,34.8106,开封市,龙亭公园,细颗粒物(PM2.5),218,210,166,168,91,154,,132,132,8,13,3,3,0.4,0.5
2025-05-07T1600,3210A,114.3644,34.7964,开封市,汴京公园,颗粒物(PM10),132,214,174,60,62,161,,138,138,8,13,4,4,0.4,0.5
2025-05-07T1600,3473A,114.2485,34.8306,开封市,技师学院,颗粒物(PM10),130,210,164,83,77,147,,126,126,6,11,6,5,0.5,0.6
2025-05-07T1600,3592A,114.4644,34.7556,开封市,祥符区生态环境局,颗粒物(PM10),100,150,126,74,66,151,,126,126,9,15,8,7,0.4,0.5
2025-05-07T1600,1951A,84.895,45.6094,克拉玛依市,长征新村,颗粒物(PM10),64,78,30,14,8,98,,92,90,4,5,8,8,0.2,0.2
2025-05-07T1600,1952A,84.8988,45.5893,克拉玛依市,南林小区,颗粒物(PM10),61,71,26,13,9,108,,99,91,1,3,5,5,0.1,0.1
2025-05-07T1600,1954A,84.905,44.3396,克拉玛依市,独山子区,,37,23,32,3,10,118,,101,101,7,8,11,7,0.4,0.3
2025-05-07T1600,1955A,85.6979,46.098,克拉玛依市,乌尔禾区商贸楼,,34,25,58,18,11,108,,90,90,1,3,13,11,0.3,0.3
2025-05-07T1600,3612A,85.1045,45.6899,克拉玛依市,白碱滩区新站,,,53,32,8,7,100,,94,90,2,3,,11,0.2,0.2
2025-05-07T1600,2697A,76.1454,39.7142,克孜勒苏柯尔克孜自治州,市人民政府,颗粒物(PM10),500,977,993,334,332,111,,82,80,3,14,3,12,0.3,0.3
2025-05-07T1600,3665A,76.1658,39.7157,克孜勒苏柯尔克孜自治州,克州文化中心,颗粒物(PM10),500,908,1013,341,316,110,,88,88,3,12,5,10,0.3,0.3
2025-05-07T1600,1450A,102.8204,24.8886,昆明市,呈贡新区,,,34,27,8,18,107,,101,101,,13,7,6,0.3,0.5
2025-05-07T1600,1451A,102.6251,24.9608,昆明市,西山森林公园,,,,,,,,,,,,,,,,
2025-05-07T1600,1452A,102.7252,25.0902,昆明市,龙泉镇,,32,14,23,10,11,102,,101,101,7,22,8,10,0.2,0.3
2025-05-07T1600,1453A,102.7266,25.0375,昆明市,东风东路,,35,23,24,11,14,112,,110,110,11,17,8,11,0.4,0.4
2025-05-07T1600,1454A,102.6742,25.0669,昆明市,金鼎山,,,,27,2,11,108,,107,107,,17,1,4,0.4,0.5
2025-05-07T1600,1455A,102.6644,25.0401,昆明市,碧鸡广场,,34,16,27,3,17,106,,103,103,9,28,6,9,0.3,0.4
2025-05-07T1600,3179A,102.7494,25.0119,昆明市,官渡区博物馆,,36,31,27,11,14,113,,113,113,10,13,6,7,0.3,0.4
2025-05-07T1600,3375A,102.8017,24.8336,昆明市,青年创业园,,36,13,24,12,15,114,,112,112,5,14,7,9,0.2,0.3
2025-05-07T1600,3550A,102.7997,24.9786,昆明市,昆明学院,,35,19,26,8,14,112,,111,111,6,11,4,6,0.2,0.4
2025-05-07T1600,3551A,102.5967,24.6736,昆明市,晋宁区生态环境分局,,35,9,16,3,11,110,,108,108,4,8,10,8,0.3,0.4
2025-05-07T1600,3552A,102.6678,24.9856,昆明市,云天化总部,,32,26,22,3,12,100,,103,103,17,13,8,8,0.1,0.4
2025-05-07T1600,1456A,91.1319,29.6514,拉萨市,八廓街,,42,15,15,8,11,132,,118,116,9,12,6,6,0.3,0.3
2025-05-07T1600,1457A,91.1221,29.6747,拉萨市,市环保局,,40,19,16,8,10,125,,111,103,10,13,4,4,0.5,0.5
2025-05-07T1600,1458A,91.0874,29.6475,拉萨市,区监测站,,43,13,10,7,8,135,,113,113,12,17,6,6,0.4,0.4
2025-05-07T1600,1459A,91.1774,29.6541,拉萨市,西藏大学,,40,10,11,3,8,128,,120,115,8,11,5,6,0.4,0.4
2025-05-07T1600,1460A,90.9798,29.6588,拉萨市,区辐射站,,40,13,16,8,10,127,,112,108,16,16,5,6,0.4,0.4
2025-05-07T1600,1461A,91.0834,29.6292,拉萨市,拉萨火车站,,41,10,9,3,7,131,,112,112,10,11,3,3,0.4,0.4
2025-05-07T1600,2520A,109.2203,23.7256,来宾市,来宾技工学校,细颗粒物(PM2.5),62,65,44,44,26,81,,68,68,13,13,7,10,1.0,0.9
2025-05-07T1600,3535A,109.1781,23.7297,来宾市,兴宾区政府,细颗粒物(PM2.5),52,45,40,36,26,74,,60,60,14,13,5,7,0.9,0.8
2025-05-07T1600,4002A,109.2416,23.7461,来宾市,中南小学,细颗粒物(PM2.5),68,,45,49,21,76,,64,64,12,13,11,10,0.8,0.8
2025-05-07T1600,1477A,104.1373,35.9454,兰州市,榆中兰大校区,,,,,,,,,,,,,,,,
2025-05-07T1600,1479A,103.831,36.0464,兰州市,铁路设计院,颗粒物(PM10),84,117,174,38,54,107,,78,78,12,29,9,10,0.4,0.5
2025-05-07T1600,3241A,103.7439,36.0842,兰州市,百合公园,颗粒物(PM10),85,119,164,37,51,100,,80,80,4,18,2,5,0.4,0.4
2025-05-07T1600,3242A,103.9611,35.998,兰州市,和平,颗粒物(PM10),99,147,200,69,86,103,,84,84,5,12,11,17,0.5,0.6
2025-05-07T1600,4236A,103.6293,36.0938,兰州市,庄浪东路808号,颗粒物(PM10),100,149,188,49,67,112,,94,94,9,24,10,12,0.3,0.4
2025-05-07T1600,4237A,103.7251,36.1043,兰州市,安宁西路88号,颗粒物(PM10),99,148,202,50,66,115,,88,88,7,14,6,7,0.3,0.3
2025-05-07T1600,4238A,103.8470,36.0676,兰州市,北滨河东路1号,颗粒物(PM10),99,148,187,45,67,112,,84,84,10,26,11,12,0.5,0.5
2025-05-07T1600,3245A,103.6633,36.533,兰州新区,新区管委会,颗粒物(PM10),92,134,170,64,81,112,,101,101,6,6,9,17,0.3,0.3
2025-05-07T1600,3246A,103.6975,36.4789,兰州新区,舟曲中学,颗粒物(PM10),118,186,236,62,82,119,,108,108,7,10,11,10,0.5,0.4
2025-05-07T1600,1067A,116.6708,39.5111,廊坊市,药材公司,颗粒物(PM10),92,133,78,50,52,152,,126,126,8,18,4,4,0.4,0.5
2025-05-07T1600,1068A,116.7214,39.5589,廊坊市,开发区,颗粒物(PM10),91,132,77,40,42,154,,62,,13,19,4,4,0.3,0.4
2025-05-07T1600,1070A,116.7244,39.5269,廊坊市,北华航天学院,颗粒物(PM10),91,132,86,38,49,150,,124,124,13,22,6,6,0.3,0.4
2025-05-07T1600,2919A,116.7022,39.5453,廊坊市,河北工业大学,颗粒物(PM10),91,132,81,43,49,156,,129,129,13,20,8,8,0.3,0.4
2025-05-07T1600,2535A,103.7723,29.5462,乐山市,花湖湾,,36,11,26,6,17,115,,71,71,4,12,6,6,0.5,0.5
2025-05-07T1600,2536A,103.7627,29.5844,乐山市,牛耳桥,,37,13,27,10,16,117,,87,87,6,14,6,7,0.6,0.2
2025-05-07T1600,2537A,103.7508,29.6006,乐山市,市第三水厂,,36,11,27,9,17,114,,80,80,6,14,4,5,0.6,0.7
2025-05-07T1600,2538A,103.7571,29.5664,乐山市,市监测站,,35,12,27,9,16,110,,75,75,4,13,6,6,0.8,0.8
2025-05-07T1600,3361A,103.7311,29.5628,乐山市,理工大学,,37,12,25,8,18,116,,79,79,4,13,4,5,0.5,0.5
2025-05-07T1600,2598A,100.2143,26.8576,丽江市,西南郊,,41,17,18,3,8,129,,116,116,3,2,5,5,0.7,0.8
2025-05-07T1600,2599A,100.2497,26.8802,丽江市,丽江古城,,39,16,16,9,11,124,,112,112,8,8,8,8,0.4,0.5
2025-05-07T1600,2600A,100.2203,26.8906,丽江市,市中心,,38,16,12,7,8,120,,104,104,3,3,6,7,0.4,0.4
2025-05-07T1600,1267A,119.914,28.4514,丽水市,监测站大楼,颗粒物(PM10),81,111,97,32,31,132,,111,111,8,19,2,3,0.4,0.4
2025-05-07T1600,1268A,119.93,28.4586,丽水市,莲都小学,颗粒物(PM10),90,129,107,36,31,139,,115,115,6,17,3,3,0.4,0.4
2025-05-07T1600,1269A,119.879,28.4231,丽水市,余庄前,颗粒物(PM10),77,103,83,34,31,143,,113,113,6,14,4,4,0.4,0.4
2025-05-07T1600,1173A,119.176,34.5885,连云港市,市环境监测站,颗粒物(PM10),60,70,62,29,31,150,,130,130,14,13,8,6,0.4,0.5
2025-05-07T1600,3000A,119.3581,34.6972,连云港市,德源药业,颗粒物(PM10),53,56,53,24,28,124,,125,125,9,14,9,9,0.6,0.5
2025-05-07T1600,3007A,119.178,34.844,连云港市,新城一中,颗粒物(PM10),51,51,60,12,29,111,,122,122,11,20,7,7,0.5,0.5
2025-05-07T1600,3008A,119.3608,34.7519,连云港市,胡沟管理处,颗粒物(PM10),59,68,50,24,27,106,,115,115,31,28,17,16,0.7,0.8
2025-05-07T1600,3009A,119.1478,34.5911,连云港市,矿山设计院,颗粒物(PM10),64,78,75,31,34,152,,133,133,10,15,12,9,0.5,0.5
2025-05-07T1600,3434A,119.2413,34.6539,连云港市,工贸学校,,50,46,48,35,33,150,,134,134,14,13,12,8,0.6,0.5
2025-05-07T1600,3664A,119.4172,34.7341,连云港市,连云街道,颗粒物(PM10),55,60,57,22,29,154,,125,125,12,19,9,9,0.6,0.6
2025-05-07T1600,2571A,102.3431,27.8099,凉山彝族自治州,青龙寺,,40,,13,7,4,125,,95,95,2,8,4,4,0.6,0.6
2025-05-07T1600,2572A,102.2721,27.8415,凉山彝族自治州,邛海宾馆,,38,36,19,13,9,120,,92,92,4,9,7,9,0.6,0.6
2025-05-07T1600,2573A,102.2625,27.898,凉山彝族自治州,西昌市政府,,37,29,15,23,10,116,,95,95,5,9,13,11,0.7,0.7
2025-05-07T1600,2574A,102.2685,27.8851,凉山彝族自治州,凉山州政府,,38,33,18,15,8,120,,98,98,7,11,9,7,0.3,0.6
2025-05-07T1600,4229A,102.2342,27.8859,凉山彝族自治州,凯乐南路30号,,37,37,27,11,7,105,,82,82,6,14,18,16,1.0,0.9
2025-05-07T1600,2212A,123.2,41.1953,辽阳市,宏伟区,,47,33,46,14,39,149,,136,136,10,17,10,9,0.5,0.8
2025-05-07T1600,2213A,123.1683,41.2495,辽阳市,新华园,,49,49,60,18,36,133,,116,116,13,27,11,10,0.6,0.8
2025-05-07T1600,2214A,123.2354,41.2639,辽阳市,滨河路,,44,38,44,17,39,139,,121,121,13,26,9,9,0.4,0.7
2025-05-07T1600,2215A,123.149,41.2991,辽阳市,铁西工业园,,50,40,68,35,54,130,,114,114,17,25,19,13,1.0,0.8
2025-05-07T1600,2227A,125.1358,42.8845,辽源市,环保局,,45,45,39,24,18,144,,128,128,10,21,7,7,0.4,0.5
2025-05-07T1600,3239A,125.0764,42.9078,辽源市,银鹰制药,,48,45,37,22,21,151,,134,134,9,25,5,4,0.5,0.4
2025-05-07T1600,1625A,115.9848,36.4372,聊城市,区政府,颗粒物(PM10),95,139,82,41,28,127,,106,106,16,19,6,6,0.8,0.8
2025-05-07T1600,2878A,116.0072,36.4343,聊城市,聊大东校,颗粒物(PM10),92,134,81,46,40,129,,105,105,12,18,7,7,0.4,0.5
2025-05-07T1600,3200A,115.9819,36.4978,聊城市,监控中心,颗粒物(PM10),98,146,84,39,33,132,,114,114,16,26,8,9,0.7,0.6
2025-05-07T1600,3513A,116.0445,36.4361,聊城市,九州社区,颗粒物(PM10),82,113,76,31,30,141,,118,118,9,25,8,6,0.4,0.5
2025-05-07T1600,4018A,116.0567,36.4608,聊城市,星美广场,颗粒物(PM10),79,108,81,34,31,131,,106,106,12,33,10,11,0.7,0.7
2025-05-07T1600,2632A,94.3681,29.6376,林芝市,林芝监测站,,36,14,7,3,3,113,,99,99,4,4,5,5,0.3,0.3
2025-05-07T1600,2633A,94.3616,29.6616,林芝市,林芝人民医院,,37,17,9,3,4,117,,98,98,2,3,5,5,0.3,0.4
2025-05-07T1600,2603A,100.0781,23.8982,临沧市,市环保局,,49,,32,34,32,100,,78,78,6,11,8,7,0.4,0.5
2025-05-07T1600,2604A,100.0894,23.8822,临沧市,市气象局,,34,26,30,17,24,108,,83,83,8,12,8,8,0.5,0.6
2025-05-07T1600,1733A,111.5531,36.0783,临汾市,临钢医院,颗粒物(PM10),149,247,197,57,45,141,,121,121,11,22,8,9,0.5,0.7
2025-05-07T1600,1734A,111.5028,36.0714,临汾市,技工学校,颗粒物(PM10),145,239,204,68,63,148,,135,135,6,18,9,9,0.5,0.6
2025-05-07T1600,1736A,111.5018,36.0855,临汾市,市委,颗粒物(PM10),147,243,199,68,53,151,,125,125,5,15,10,12,0.7,0.9
2025-05-07T1600,3018A,111.505,36.1014,临汾市,唐尧大酒店,颗粒物(PM10),140,230,189,78,52,138,,116,116,11,19,7,9,0.5,0.7
2025-05-07T1600,4244A,111.4879,36.0530,临汾市,启星学校,颗粒物(PM10),126,201,185,58,50,145,,122,122,10,22,10,10,0.4,0.6
2025-05-07T1600,4271A,103.2464,35.6123,临夏回族自治州,滨河东路1号,颗粒物(PM10),131,211,176,69,67,98,,80,80,1,17,10,8,0.3,0.4
2025-05-07T1600,4310A,103.2093,35.5995,临夏回族自治州,新华街21号,颗粒物(PM10),119,187,174,68,66,99,,81,81,9,15,8,7,0.3,0.3
2025-05-07T1600,1618A,118.3429,35.0532,临沂市,沂河小区,颗粒物(PM10),67,83,79,25,44,146,,125,125,7,13,10,11,0.3,0.4
2025-05-07T1600,1619A,118.295,35.0583,临沂市,鲁南制药厂,颗粒物(PM10),65,80,68,31,37,158,,136,136,12,19,8,11,0.5,0.6
2025-05-07T1600,1620A,118.2794,34.9976,临沂市,新光毛纺厂,颗粒物(PM10),79,107,42,30,38,153,,130,130,12,23,8,12,0.3,0.4
2025-05-07T1600,1621A,118.3956,35.0888,临沂市,河东保险公司,颗粒物(PM10),59,68,61,30,33,151,,137,137,11,17,6,6,0.3,0.4
2025-05-07T1600,3370A,118.3564,35.0215,临沂市,十里堡居委,颗粒物(PM10),60,70,67,34,37,159,,140,140,13,21,5,6,0.4,0.5
2025-05-07T1600,3496A,118.3604,35.1084,临沂市,南坊新区,颗粒物(PM10),51,51,46,31,36,143,,128,128,11,16,7,8,0.3,0.4
2025-05-07T1600,3860A,118.3920,35.0300,临沂市,皇山花园小区,颗粒物(PM10),62,73,68,35,38,151,,132,132,14,22,10,10,0.5,0.6
2025-05-07T1600,1870A,109.4856,24.3895,柳州市,柳东小学,,35,,33,24,24,74,,60,59,5,10,10,14,0.6,0.6
2025-05-07T1600,1871A,109.4157,24.3277,柳州市,环保监测站,,40,28,39,28,25,68,,58,58,14,16,3,6,0.7,0.7
2025-05-07T1600,1872A,109.389,24.341,柳州市,河西水厂,,32,32,44,18,24,62,,47,47,8,13,6,13,0.7,0.8
2025-05-07T1600,1873A,109.4311,24.2921,柳州市,市四中,,36,36,37,14,19,68,,62,59,11,12,8,12,0.7,0.8
2025-05-07T1600,1874A,109.4006,24.3631,柳州市,市九中,,33,33,40,22,24,74,,58,58,7,12,9,15,0.7,0.8
2025-05-07T1600,1875A,109.4958,24.3134,柳州市,古亭山,,36,33,41,25,25,70,,60,59,5,8,6,10,0.8,0.8
2025-05-07T1600,3402A,109.5422,24.3996,柳州市,市二中,,28,24,33,19,23,64,,59,57,12,15,10,11,0.7,0.7
2025-05-07T1600,2307A,116.5079,31.737,六安市,监测大楼,颗粒物(PM10),101,151,166,52,53,168,,133,133,9,16,2,5,0.3,0.3
2025-05-07T1600,2308A,116.4738,31.7643,六安市,皖西学院,颗粒物(PM10),109,168,176,46,50,168,,137,137,9,19,5,6,0.3,0.3
2025-05-07T1600,2309A,116.4996,31.7905,六安市,朝阳厂,颗粒物(PM10),105,160,159,45,48,154,,121,121,12,23,5,5,0.2,0.3
2025-05-07T1600,2310A,116.5567,31.7886,六安市,开发区,颗粒物(PM10),119,188,190,56,64,163,,131,131,12,19,6,5,0.4,0.4
2025-05-07T1600,2576A,104.8,26.5892,六盘水市,窑上,,,,24,29,15,63,,52,50,7,6,5,5,0.5,0.4
2025-05-07T1600,2577A,104.83,26.5917,六盘水市,黄土坡,,32,32,16,19,14,61,,62,49,14,13,10,9,0.6,0.6
2025-05-07T1600,2578A,104.89,26.5939,六盘水市,水钢,,24,24,21,14,9,70,,58,58,10,12,8,8,0.4,0.5
2025-05-07T1600,2579A,104.8475,26.5894,六盘水市,民中,,30,30,18,14,9,63,,58,52,10,11,8,8,0.4,0.5
2025-05-07T1600,2580A,104.9544,26.5506,六盘水市,双水,,36,36,17,7,6,69,,58,58,12,13,9,9,0.5,0.5
2025-05-07T1600,2335A,117.0189,25.1181,龙岩市,龙岩师专,,,,,,,,,,,,,,,,
2025-05-07T1600,2336A,117.0217,25.1033,龙岩市,龙岩市监测站,,26,23,17,6,8,82,,94,86,11,12,3,4,0.5,0.6
2025-05-07T1600,2337A,117.0258,25.0661,龙岩市,闽西职业技术学院,,23,23,20,11,12,68,,79,71,12,11,3,4,0.5,0.6
2025-05-07T1600,2338A,117.0196,25.0306,龙岩市,龙岩学院,,23,22,22,10,14,71,,76,67,14,11,4,3,0.5,0.5
2025-05-07T1600,2665A,105.0822,33.3261,陇南市,汉王镇固水子,,,,,,,,,,,,,,,,
2025-05-07T1600,2885A,104.9339,33.3826,陇南市,滨江中学,,41,41,49,17,21,96,,94,94,3,7,9,10,0.3,0.4
2025-05-07T1600,3247A,104.955,33.371,陇南市,市总工会,,34,34,41,15,16,99,,100,100,9,7,7,8,0.3,0.3
2025-05-07T1600,2487A,111.9589,27.8901,娄底市,电视发射台,颗粒物(PM10),68,86,68,34,25,70,,70,70,4,3,4,5,0.3,0.5
2025-05-07T1600,2488A,111.9975,27.725,娄底市,市监测站,颗粒物(PM10),58,66,76,29,44,90,,58,58,13,27,10,14,0.6,0.9
2025-05-07T1600,2489A,112.0194,27.7314,娄底市,市委党校,颗粒物(PM10),60,69,72,38,43,90,,61,61,6,16,3,4,0.2,0.7
2025-05-07T1600,2490A,111.9561,27.7569,娄底市,涟钢,,44,44,67,25,39,90,,60,60,9,11,15,14,0.8,0.9
2025-05-07T1600,2491A,111.9892,27.7044,娄底市,市政府,细颗粒物(PM2.5),59,55,63,42,40,88,,58,58,7,11,4,5,0.6,0.7
2025-05-07T1600,1893A,105.4324,28.9634,泸州市,九狮山,,,,,,,,,,,,,,,,
2025-05-07T1600,1894A,105.4427,28.9063,泸州市,小市上码头,,35,27,28,18,14,110,,85,85,9,12,7,7,0.5,0.5
2025-05-07T1600,1895A,105.4241,28.8573,泸州市,兰田宪桥,,,28,26,23,19,105,,77,77,8,10,8,7,,0.4
2025-05-07T1600,1896A,105.4379,28.8833,泸州市,市环监站,,,,,,,,,,,,,,,,
2025-05-07T1600,4272A,105.3689,28.7783,泸州市,纳溪中医医院,,35,26,23,24,23,94,,67,67,21,18,6,6,0.4,0.4
2025-05-07T1600,2183A,111.1406,37.5211,吕梁市,环保局,颗粒物(PM10),78,106,124,46,38,80,,58,58,13,33,2,2,0.4,0.4
2025-05-07T1600,2185A,111.1297,37.5136,吕梁市,自来水公司,颗粒物(PM10),70,90,113,39,38,81,,60,60,12,29,4,4,0.6,0.6
2025-05-07T1600,2867A,111.1283,37.51,吕梁市,马茂庄小学,颗粒物(PM10),79,108,133,40,39,86,,61,61,12,41,5,4,0.4,0.5
2025-05-07T1600,1812A,112.3931,34.6516,洛阳市,市委党校,颗粒物(PM10),169,288,195,103,66,150,,110,110,15,18,10,9,0.6,0.5
2025-05-07T1600,1815A,112.494,34.6886,洛阳市,河南林校,颗粒物(PM10),197,344,216,100,66,169,,120,120,12,19,12,9,0.4,0.3
2025-05-07T1600,1816A,112.3844,34.623,洛阳市,开发区管委会,细颗粒物(PM2.5),183,301,201,138,90,173,,123,123,12,16,12,10,0.4,0.4
2025-05-07T1600,1817A,112.4267,34.6258,洛阳市,市委新办公区,颗粒物(PM10),179,307,199,90,62,162,,114,114,14,18,11,8,0.4,0.3
2025-05-07T1600,3340A,112.6005,34.6326,洛阳市,伊滨,颗粒物(PM10),189,327,208,103,69,177,,125,125,15,18,11,9,0.4,0.4
2025-05-07T1600,3341A,112.4951,34.6332,洛阳市,中移产业园,颗粒物(PM10),243,380,235,101,66,178,,125,125,12,19,12,9,0.7,0.6
2025-05-07T1600,3593A,112.5736,34.8993,洛阳市,吉利监测站,颗粒物(PM10),219,363,219,126,79,168,,126,126,12,18,12,12,0.4,0.4
2025-05-07T1600,3635A,112.3677,34.662,洛阳市,河科大西苑校区,颗粒物(PM10),195,339,214,78,53,174,,127,127,15,16,12,11,0.5,0.5
2025-05-07T1600,3636A,112.4388,34.6781,洛阳市,英才小学,颗粒物(PM10),185,320,197,91,62,171,,126,126,16,21,10,7,0.6,0.6
2025-05-07T1600,4214A,112.4600,34.6949,洛阳市,春都路1号院,颗粒物(PM10),195,340,210,89,58,176,,129,129,12,16,8,7,0.5,0.5
2025-05-07T1600,2399A,114.051,33.5699,漯河市,三五一五工厂,颗粒物(PM10),180,309,318,88,94,150,,126,126,5,14,4,5,0.6,0.6
2025-05-07T1600,2400A,114.0055,33.5698,漯河市,漯河大学,颗粒物(PM10),168,285,306,112,106,154,,132,132,4,8,5,6,0.3,0.4
2025-05-07T1600,2401A,114.0138,33.5828,漯河市,市水利局,颗粒物(PM10),181,312,339,80,111,151,,134,134,5,9,4,5,0.2,0.6
2025-05-07T1600,2402A,114.0261,33.5698,漯河市,市广电局,颗粒物(PM10),163,276,308,103,96,151,,128,128,5,9,4,5,0.3,0.3
2025-05-07T1600,3478A,113.9749,33.5664,漯河市,市图书馆,颗粒物(PM10),193,336,335,100,95,151,,129,129,9,14,3,5,0.4,0.5
2025-05-07T1600,4250A,114.0892,33.5882,漯河市,韶山路11号,颗粒物(PM10),175,299,307,124,117,144,,125,125,6,13,4,4,0.5,0.5
2025-05-07T1600,1798A,118.5092,31.6837,马鞍山市,湖东路四小,颗粒物(PM10),89,128,122,30,41,184,,157,157,8,14,6,6,0.5,0.6
2025-05-07T1600,1799A,118.5024,31.6449,马鞍山市,开发区,颗粒物(PM10),91,131,129,50,48,180,,154,154,11,22,10,8,0.5,0.6
2025-05-07T1600,1802A,118.6245,31.7241,马鞍山市,濮塘,臭氧1小时,75,98,106,41,36,180,,160,160,4,9,8,8,0.6,0.6
2025-05-07T1600,3633A,118.4918,31.6809,马鞍山市,雨山,颗粒物(PM10),94,137,128,36,43,181,,154,154,9,16,8,7,0.5,0.6
2025-05-07T1600,4191A,118.5274,31.72227,马鞍山市,慈湖高新区,颗粒物(PM10),79,107,125,42,46,177,,146,146,13,18,10,10,0.6,0.7
2025-05-07T1600,1686A,111.0286,21.4688,茂名市,电白南海,,25,22,20,17,14,50,,50,50,5,5,2,2,0.7,0.8
2025-05-07T1600,1687A,110.9294,21.6533,茂名市,茂石化七小,,29,29,25,9,8,52,,46,46,6,5,2,2,0.3,0.5
2025-05-07T1600,1688A,110.9107,21.6687,茂名市,健康路,,27,27,22,7,13,58,,50,50,1,2,3,3,0.8,0.7
2025-05-07T1600,1689A,110.8592,21.6828,茂名市,高岭,,34,34,30,3,7,56,,32,,8,4,3,3,0.6,0.6
2025-05-07T1600,3450A,111.01,21.5165,茂名市,电白水东,,16,14,11,3,6,49,,49,49,7,7,3,3,0.6,0.6
2025-05-07T1600,2539A,104.0308,30.0478,眉山市,黑龙滩水库,,,,19,,17,,,81,,,7,,2,,0.4
2025-05-07T1600,2540A,103.8416,30.0874,眉山市,气象局,,40,27,50,17,28,125,,92,92,9,31,10,12,0.3,0.4
2025-05-07T1600,3137A,103.8578,30.0744,眉山市,市委党校,,36,22,36,7,21,115,,88,88,8,22,8,10,0.4,0.5
2025-05-07T1600,3148A,103.8291,30.0564,眉山市,区人社局,,37,26,43,9,24,117,,92,92,10,23,9,11,0.3,0.4
2025-05-07T1600,1690A,116.1231,24.3284,梅州市,梅江月梅,,41,41,18,10,12,58,,49,49,8,7,7,5,0.8,0.7
2025-05-07T1600,1691A,116.0797,24.2719,梅州市,梅县新城,,,,20,19,15,85,,56,56,8,14,5,6,0.6,0.6
2025-05-07T1600,1692A,116.1248,24.2654,梅州市,环境监控中心,,22,12,16,11,14,70,,51,51,8,13,7,9,0.8,0.7
2025-05-07T1600,3315A,116.1233,24.2991,梅州市,梅龙,,21,12,15,11,12,65,,36,,7,8,6,6,0.5,0.7
2025-05-07T1600,1878A,104.7778,31.4741,绵阳市,富乐山,,38,31,34,20,20,120,,102,102,9,15,8,9,0.4,0.4
2025-05-07T1600,1880A,104.6697,31.4668,绵阳市,高新区自来水公司,,37,36,44,22,26,117,,96,96,10,23,4,5,0.5,0.5
2025-05-07T1600,1881A,104.7287,31.5075,绵阳市,三水厂,,38,25,42,19,23,121,,97,97,8,22,8,8,0.4,0.5
2025-05-07T1600,3491A,104.69,31.5322,绵阳市,西科大附属小学,,37,37,40,20,20,117,,105,105,12,20,7,8,0.4,0.6
2025-05-07T1600,3492A,104.5648,31.5343,绵阳市,安州区旅游局,,40,33,39,22,21,126,,110,110,10,17,8,9,0.4,0.4
2025-05-07T1600,4226A,104.7651,31.4531,绵阳市,绵阳市气象局,,35,29,35,18,20,110,,89,89,10,19,6,8,0.4,0.5
2025-05-07T1600,1784A,129.61,44.561,牡丹江市,环保大楼,颗粒物(PM10),60,70,25,29,17,102,,101,101,14,13,6,5,0.3,0.3
2025-05-07T1600,1785A,129.6115,44.5782,牡丹江市,文化广场,,46,36,31,32,25,101,,100,100,16,16,9,8,0.5,0.5
2025-05-07T1600,1786A,129.5904,44.5963,牡丹江市,第一医院,,45,31,28,31,19,100,,102,102,14,12,7,6,0.6,0.5
2025-05-07T1600,1787A,129.6364,44.6075,牡丹江市,机车工厂,,46,46,36,31,20,93,,96,96,13,16,9,7,0.5,0.5
2025-05-07T1600,1788A,129.6386,44.5462,牡丹江市,第一中学,,40,30,27,28,16,108,,110,110,12,14,5,6,0.3,0.4
2025-05-07T1600,2531A,105.0703,29.61,内江市,市监测站,,35,30,29,22,14,112,,100,100,9,11,11,11,0.7,0.7
2025-05-07T1600,2532A,105.0717,29.5947,内江市,东兴区政府,,35,20,24,15,15,109,,97,97,8,11,17,16,0.4,0.4
2025-05-07T1600,2533A,105.0653,29.5817,内江市,内江二中,,35,28,28,17,23,110,,95,95,20,20,6,7,0.4,0.4
2025-05-07T1600,2534A,105.0406,29.5822,内江市,内江日报社,,34,,24,22,25,108,,91,91,6,10,13,12,0.4,0.4
2025-05-07T1600,2628A,92.0657,31.4846,那曲市,那曲监测站,,40,40,31,15,14,114,,103,103,8,15,6,7,0.3,0.4
2025-05-07T1600,4243A,92.0515,31.4787,那曲市,那曲市委宣传部,,,,,,2,114,,108,108,12,8,5,5,0.2,0.2
2025-05-07T1600,1290A,115.8931,28.6843,南昌市,省外办,颗粒物(PM10),87,124,123,51,47,130,,120,120,14,22,6,8,0.5,0.6
2025-05-07T1600,1291A,115.8886,28.7003,南昌市,省林业公司,颗粒物(PM10),112,173,169,46,44,132,,118,118,8,16,10,10,0.7,0.7
2025-05-07T1600,1292A,115.8126,28.7442,南昌市,林科所,颗粒物(PM10),122,193,157,51,42,151,,141,141,10,28,6,5,0.7,0.5
2025-05-07T1600,1294A,115.8518,28.687,南昌市,建工学校,颗粒物(PM10),127,203,168,48,49,144,,135,135,14,21,6,6,0.6,0.7
2025-05-07T1600,1295A,115.8921,28.6424,南昌市,象湖,颗粒物(PM10),105,160,134,41,41,132,,122,122,13,22,9,10,0.6,0.8
2025-05-07T1600,1296A,115.7423,28.7996,南昌市,武术学校,颗粒物(PM10),131,211,100,34,22,177,,146,146,10,6,9,6,0.8,0.6
2025-05-07T1600,3046A,115.9084,28.6062,南昌市,机电学校,颗粒物(PM10),115,180,166,46,45,139,,129,129,7,26,6,6,0.5,0.6
2025-05-07T1600,3690A,115.9721,28.7031,南昌市,外国语学校,颗粒物(PM10),105,160,171,44,40,144,,130,130,6,15,8,9,0.3,0.4
2025-05-07T1600,4192A,115.9316,28.68677,南昌市,南京东路235号,颗粒物(PM10),127,204,183,44,45,139,,128,128,15,19,15,12,1.2,0.9
2025-05-07T1600,1905A,106.056,30.8064,南充市,西山风景区,,,,,,,,,,,,,,,,
2025-05-07T1600,1906A,106.0789,30.8023,南充市,南充市委,,45,42,65,31,51,112,,101,101,8,14,4,6,0.5,0.6
2025-05-07T1600,1907A,106.1031,30.8217,南充市,南充炼油厂,,50,50,64,30,45,111,,108,108,8,14,4,5,0.3,0.6
2025-05-07T1600,4227A,106.1083,30.7884,南充市,梨树横街98号,,49,49,71,31,48,113,,96,96,7,13,4,5,0.3,0.4
2025-05-07T1600,4304A,106.1172,30.843,南充市,清泉寺北路188号,颗粒物(PM10),52,54,70,32,46,109,,97,97,8,14,4,4,0.3,0.4
2025-05-07T1600,4305A,106.067,30.7616,南充市,同庆路1号,,49,49,59,31,47,105,,95,95,8,13,4,5,0.3,0.3
2025-05-07T1600,1151A,118.8086,32.1065,南京市,迈皋桥,颗粒物(PM10),64,78,88,31,36,163,,141,141,3,17,4,4,0.2,0.4
2025-05-07T1600,1152A,118.7538,32.0551,南京市,草场门,颗粒物(PM10),73,95,109,46,46,160,,136,136,14,21,3,2,0.1,0.2
2025-05-07T1600,1153A,118.7794,32.0745,南京市,山西路,,,102,120,36,37,170,,153,153,19,20,3,4,,0.3
2025-05-07T1600,1154A,118.7752,32.0023,南京市,中华门,颗粒物(PM10),71,92,103,27,36,158,,134,134,2,17,5,7,0.4,0.5
2025-05-07T1600,1155A,118.8109,32.0309,南京市,瑞金路,颗粒物(PM10),70,90,106,36,36,162,,139,139,2,10,6,6,0.3,0.3
2025-05-07T1600,1156A,118.7997,32.0754,南京市,玄武湖,颗粒物(PM10),67,83,103,29,33,159,,134,134,6,11,4,4,0.5,0.5
2025-05-07T1600,1157A,118.6414,32.0931,南京市,浦口,颗粒物(PM10),70,89,118,30,34,175,,150,150,18,23,6,6,0.4,0.6
2025-05-07T1600,1158A,118.7356,31.9996,南京市,奥体中心,臭氧1小时,69,80,106,24,34,175,,150,150,11,14,4,4,0.2,0.3
2025-05-07T1600,1159A,118.9125,32.1028,南京市,仙林大学城,颗粒物(PM10),68,85,106,27,35,166,,140,140,8,14,10,10,0.4,0.5
2025-05-07T1600,3422A,118.8436,31.9198,南京市,江宁彩虹桥,"颗粒物(PM10),臭氧1小时",70,89,103,39,44,176,,146,146,8,16,3,4,0.4,0.4
2025-05-07T1600,3427A,118.8554,32.3578,南京市,六合雄州,臭氧1小时,83,85,105,32,36,186,,145,145,26,33,7,6,0.5,0.5
2025-05-07T1600,4249A,118.8708,31.3402,南京市,汶溪路181号,颗粒物(PM10),103,155,127,50,46,190,,154,154,13,18,5,3,0.4,0.4
2025-05-07T1600,4312A,119.019,31.6512,南京市,中山西路1号,臭氧1小时,88,95,90,38,38,190,,155,155,17,19,10,7,0.5,0.6
2025-05-07T1600,1401A,108.3103,22.7881,南宁市,二十一中,,26,,37,18,24,77,,71,71,7,11,1,2,0.7,0.7
2025-05-07T1600,1402A,108.3141,22.8528,南宁市,北湖,,37,37,36,14,31,84,,76,76,7,13,4,5,0.7,0.9
2025-05-07T1600,1403A,108.3206,22.8225,南宁市,市监测站,,30,30,38,20,24,75,,68,68,7,12,4,5,0.4,0.5
2025-05-07T1600,1404A,108.3829,22.8037,南宁市,大自然花园,,29,23,38,19,24,92,,79,79,4,11,4,4,0.4,0.6
2025-05-07T1600,1405A,108.4394,22.7904,南宁市,仙葫,,21,21,38,14,27,65,,69,65,12,10,5,6,0.6,0.7
2025-05-07T1600,1406A,108.2397,22.8467,南宁市,区农职院,,42,42,38,15,23,79,,70,70,7,12,3,3,0.7,1
2025-05-07T1600,1407A,108.3275,22.735,南宁市,英华嘉园,,20,19,46,14,25,55,,63,62,18,13,6,7,0.4,0.5
2025-05-07T1600,3401A,108.4834,22.7618,南宁市,红星社区,,27,24,38,14,25,85,,77,77,6,9,7,8,0.5,0.6
2025-05-07T1600,4221A,108.2177,22.7774,南宁市,乐贤路16号,,27,27,40,15,26,68,,64,64,7,16,4,5,0.5,0.6
2025-05-07T1600,2331A,118.0966,26.6761,南平市,茫荡山,,,,,,,,,,,,,,,,
2025-05-07T1600,2332A,118.1681,26.6369,南平市,南平市监测站,颗粒物(PM10),77,103,69,29,24,127,,112,112,6,15,4,5,0.7,0.8
2025-05-07T1600,2333A,118.1825,26.6489,南平市,南平铝业有限公司,颗粒物(PM10),87,123,77,27,20,127,,109,109,2,13,4,6,0.5,0.6
2025-05-07T1600,2334A,118.1756,26.6272,南平市,南平七中,颗粒物(PM10),83,115,76,30,23,126,,112,112,5,12,4,5,0.6,0.6
2025-05-07T1600,1168A,120.9098,31.9663,南通市,狼山街道,颗粒物(PM10),68,85,62,31,22,161,,127,127,13,17,4,4,0.4,0.5
2025-05-07T1600,1169A,120.86,32.0005,南通市,虹桥,颗粒物(PM10),64,77,68,39,27,164,,127,127,15,23,2,3,0.5,0.7
2025-05-07T1600,1170A,120.87,32.02,南通市,城中,颗粒物(PM10),73,95,75,34,26,164,,130,130,15,20,4,4,0.5,0.5
2025-05-07T1600,1171A,120.94,31.93,南通市,星湖花园,颗粒物(PM10),68,85,60,32,24,157,,76,,10,17,3,3,0.3,0.6
2025-05-07T1600,1172A,120.81,32.0417,南通市,紫琅学院,颗粒物(PM10),68,86,69,33,24,145,,106,106,17,23,5,6,0.4,0.4
2025-05-07T1600,3291A,121.067,32.062,南通市,通州监测站,颗粒物(PM10),64,78,61,24,20,151,,131,131,10,9,8,5,1.0,0.5
2025-05-07T1600,3432A,120.9348,31.9883,南通市,环境教育馆,颗粒物(PM10),70,90,68,37,25,165,,130,130,9,16,3,3,0.2,0.2
2025-05-07T1600,2404A,112.5224,33.0122,南阳市,瓦房庄,颗粒物(PM10),122,193,278,69,92,157,,135,135,8,14,6,7,0.6,0.5
2025-05-07T1600,2405A,112.5003,32.9735,南阳市,汉画馆,颗粒物(PM10),124,197,284,71,92,152,,129,129,8,14,6,7,0.3,0.3
2025-05-07T1600,2406A,112.5573,33.027,南阳市,气象站,颗粒物(PM10),138,225,315,68,90,160,,135,135,5,13,6,6,0.2,0.2
2025-05-07T1600,2407A,112.5481,32.9689,南阳市,理工学院,颗粒物(PM10),124,198,271,66,83,157,,133,133,5,16,5,6,0.3,0.3
2025-05-07T1600,4008A,112.5234,32.9922,南阳市,卧龙区政府,颗粒物(PM10),138,225,307,70,93,159,,140,140,9,15,5,5,0.3,0.5
2025-05-07T1600,1234A,121.8358,29.911,宁波市,区环保大楼,颗粒物(PM10),73,96,91,35,42,130,,117,117,4,22,8,9,0.4,0.5
2025-05-07T1600,1235A,121.56,29.82,宁波市,万里学院,颗粒物(PM10),65,80,113,28,38,144,,138,138,13,16,5,6,0.5,0.6
2025-05-07T1600,1236A,121.713,29.9572,宁波市,龙赛医院,颗粒物(PM10),75,99,126,28,32,137,,125,125,11,22,6,8,0.3,0.5
2025-05-07T1600,1239A,121.633,29.7733,宁波市,钱湖水厂,颗粒物(PM10),63,76,121,24,38,142,,142,142,7,12,8,9,0.4,0.5
2025-05-07T1600,1240A,121.5856,29.8635,宁波市,太古小学,颗粒物(PM10),77,104,146,22,31,133,,130,130,9,15,6,7,0.7,0.8
2025-05-07T1600,1241A,121.524,29.8674,宁波市,市环境监测中心,颗粒物(PM10),65,80,106,23,33,134,,129,129,15,19,11,11,0.6,0.7
2025-05-07T1600,2871A,121.6147,29.9017,宁波市,万里国际学校,颗粒物(PM10),64,77,110,27,34,140,,136,136,13,21,8,9,0.5,0.7
2025-05-07T1600,3710A,121.5594,29.8975,宁波市,白沙活动中心,颗粒物(PM10),63,75,99,25,35,138,,135,135,11,17,8,8,0.4,0.5
2025-05-07T1600,2339A,119.5001,26.6946,宁德市,金涵水库,,,,,,,,,,,,,,,,
2025-05-07T1600,2341A,119.5388,26.6612,宁德市,宁德市监测站,颗粒物(PM10),72,94,53,29,25,161,,144,144,11,13,5,5,0.5,0.4
2025-05-07T1600,3209A,119.5231,26.6562,宁德市,宁德一中,颗粒物(PM10),68,86,50,21,25,159,,144,144,8,8,2,2,0.3,0.4
2025-05-07T1600,2618A,98.8601,25.8567,怒江傈僳族自治州,州监测站,,37,37,31,18,17,100,,81,81,7,7,8,8,0.4,0.4
2025-05-07T1600,2619A,98.8546,25.8417,怒江傈僳族自治州,泸水一中,,36,36,34,16,18,80,,65,65,13,13,6,6,0.3,0.3
2025-05-07T1600,1888A,101.6891,26.571,攀枝花市,弄弄坪,,36,22,36,20,11,113,,109,109,15,17,18,15,1.6,0.9
2025-05-07T1600,1889A,101.5769,26.5928,攀枝花市,河门口,,37,,34,21,17,116,,104,104,5,17,6,18,0.4,1
2025-05-07T1600,1890A,101.7169,26.585,攀枝花市,炳草岗,,37,26,40,9,16,117,,116,116,12,20,8,17,0.5,0.6
2025-05-07T1600,1891A,101.7369,26.5008,攀枝花市,仁和,,38,16,33,9,18,120,,111,111,7,15,8,14,0.4,0.5
2025-05-07T1600,2835A,101.7227,26.567,攀枝花市,四十中小,,40,24,26,12,12,126,,117,117,6,13,7,18,0.5,0.7
2025-05-07T1600,1604A,122.0303,41.1489,盘锦市,开发区,,46,30,29,19,27,145,,134,134,11,16,11,10,0.7,0.6
2025-05-07T1600,1605A,122.0485,41.0883,盘锦市,兴隆台,颗粒物(PM10),62,73,37,21,34,130,,118,118,11,20,9,8,0.8,0.7
2025-05-07T1600,1606A,121.8297,41.1028,盘锦市,新生街道,,45,21,23,15,31,142,,133,133,15,16,10,10,0.6,0.6
2025-05-07T1600,1832A,113.3257,33.742,平顶山市,新华旅馆,颗粒物(PM10),158,265,274,68,57,157,,126,126,8,19,4,5,0.4,0.4
2025-05-07T1600,1833A,113.2919,33.737,平顶山市,规划设计院,颗粒物(PM10),172,293,272,92,99,154,,125,125,10,18,4,6,0.4,0.5
2025-05-07T1600,1834A,113.182,33.774,平顶山市,平顶山工学院,颗粒物(PM10),158,265,244,83,70,163,,134,134,5,13,4,5,0.5,0.5
2025-05-07T1600,3204A,113.3025,33.73,平顶山市,规划局,颗粒物(PM10),167,283,280,88,72,156,,126,126,6,14,6,7,0.4,0.5
2025-05-07T1600,3594A,112.8867,33.9116,平顶山市,石龙区,颗粒物(PM10),185,320,308,102,100,146,,135,135,9,22,7,9,0.4,0.4
2025-05-07T1600,2656A,106.6692,35.5461,平凉市,聚贤嘉苑,颗粒物(PM10),92,133,144,50,52,110,,96,96,5,21,7,21,0.3,0.8
2025-05-07T1600,2657A,106.7021,35.5307,平凉市,博物馆,颗粒物(PM10),86,121,159,32,42,112,,100,100,6,18,9,10,0.5,0.7
2025-05-07T1600,2347A,114.0997,27.5002,萍乡市,武功山,颗粒物(PM10),52,53,41,15,20,57,,48,48,5,7,15,15,0.5,0.6
2025-05-07T1600,2348A,113.8385,27.6434,萍乡市,中医院,颗粒物(PM10),77,103,72,40,44,92,,73,73,4,12,12,15,0.7,1
2025-05-07T1600,2349A,113.8493,27.6253,萍乡市,市政府车库,颗粒物(PM10),74,98,58,41,39,86,,68,68,7,15,8,9,0.5,1
2025-05-07T1600,2350A,113.8676,27.6435,萍乡市,市环保局,颗粒物(PM10),86,121,68,43,40,89,,71,70,5,16,9,11,0.6,0.9
2025-05-07T1600,2351A,113.866,27.6198,萍乡市,安源区政府,颗粒物(PM10),81,112,68,50,41,74,,56,56,12,18,1,3,1.5,1.1
2025-05-07T1600,2319A,119.0141,25.4325,莆田市,荔城区仓后路,颗粒物(PM10),55,60,52,33,20,116,,116,116,12,10,3,4,0.6,0.6
2025-05-07T1600,2320A,119.0015,25.4553,莆田市,莆田市监测站,"颗粒物(PM10),细颗粒物(PM2.5)",52,54,55,36,23,112,,103,103,8,5,4,4,0.6,0.5
2025-05-07T1600,2321A,119.1119,25.4561,莆田市,涵江区六中,颗粒物(PM10),54,57,52,27,22,112,,110,110,14,15,4,4,0.4,0.4
2025-05-07T1600,2322A,119.1013,25.3215,莆田市,秀屿区政府,,43,43,49,24,22,123,,115,115,7,9,3,4,0.4,0.6
2025-05-07T1600,2323A,118.981,25.4792,莆田市,东圳水库,,,,,,,,,,,,,,,,
2025-05-07T1600,2392A,115.0312,35.7636,濮阳市,环保局,颗粒物(PM10),98,145,97,35,31,158,,131,131,12,17,8,8,0.7,0.7
2025-05-07T1600,2394A,115.0574,35.7609,濮阳市,油田运输公司,颗粒物(PM10),94,137,98,30,27,169,,137,137,12,15,8,8,0.7,0.7
2025-05-07T1600,3021A,115,35.7668,濮阳市,濮水河管理处,颗粒物(PM10),93,136,98,38,31,169,,136,136,10,14,7,7,0.6,0.6
2025-05-07T1600,4216A,115.0924,35.7686,濮阳市,任丘路479号,颗粒物(PM10),94,137,101,38,29,168,,134,134,9,13,8,9,0.7,0.6
2025-05-07T1600,2601A,100.98,22.7633,普洱市,市环保局,,,38,48,17,24,116,,103,103,4,9,,7,0.4,0.5
2025-05-07T1600,2602A,100.9817,22.8322,普洱市,普洱第二中学,,37,27,34,17,22,116,,94,94,6,18,6,6,0.6,0.7
2025-05-07T1600,2262A,131.0518,45.8751,七台河市,新一中,,,,35,,18,,,107,,,14,,11,,0.8
2025-05-07T1600,3345A,131.0577,45.7879,七台河市,中波台,,34,20,31,7,15,107,,103,103,9,18,5,7,0.5,0.5
2025-05-07T1600,3637A,131.0176,45.7761,七台河市,人民广场,,39,,41,27,25,116,,111,111,9,17,9,11,0.5,0.5
2025-05-07T1600,3684A,130.8781,45.8222,七台河市,新建矿广场,颗粒物(PM10),57,63,76,27,21,103,,104,104,18,21,9,10,0.5,0.5
2025-05-07T1600,1779A,123.9305,47.3636,齐齐哈尔市,安居小区,,31,,34,20,16,97,,91,91,8,17,3,4,0.2,0.4
2025-05-07T1600,1780A,123.9488,47.3386,齐齐哈尔市,中心广场,,32,25,41,9,14,101,,89,89,6,16,8,9,0.3,0.3
2025-05-07T1600,1781A,123.9483,47.3227,齐齐哈尔市,农牧车辆厂,,33,19,36,10,13,103,,91,91,4,13,4,5,0.2,0.3
2025-05-07T1600,1783A,123.945,47.2988,齐齐哈尔市,市环境监测站,,32,23,32,9,15,102,,93,93,4,11,2,3,0.2,0.3
2025-05-07T1600,3662A,123.6333,47.2075,齐齐哈尔市,富区青少年活动中心,,32,26,36,19,17,101,,93,93,3,8,2,2,0.3,0.3
2025-05-07T1600,2591A,107.9783,26.5747,黔东南苗族侗族自治州,市环境监测站,,29,26,23,20,18,46,,48,47,8,8,3,3,0.5,0.5
2025-05-07T1600,2881A,107.8908,26.5311,黔东南苗族侗族自治州,凯里学院,,26,22,16,18,15,61,,56,56,7,6,1,2,0.4,0.4
2025-05-07T1600,2593A,107.5228,26.2403,黔南布依族苗族自治州,小围寨,,21,12,14,7,9,65,,56,51,6,7,2,2,0.3,0.2
2025-05-07T1600,3538A,107.5175,26.2978,黔南布依族苗族自治州,沙坝,,22,22,20,12,11,54,,55,48,10,7,3,4,0.5,0.4
2025-05-07T1600,2589A,104.9022,25.0925,黔西南布依族苗族自治州,场坝街,,23,12,23,3,11,71,,54,54,5,8,2,3,0.4,0.4
2025-05-07T1600,2590A,104.8811,25.0992,黔西南布依族苗族自治州,坪东大道,,23,15,22,8,12,72,,55,55,7,11,2,2,0.2,0.3
2025-05-07T1600,2502A,108.6236,21.9667,钦州市,市环保站,,31,31,29,7,10,71,,57,57,9,14,6,4,0.7,0.7
2025-05-07T1600,2503A,108.6549,21.9481,钦州市,沙埠小学,,33,33,43,19,15,70,,56,56,10,25,8,9,0.8,0.9
2025-05-07T1600,2504A,108.5989,21.7431,钦州市,港区一小,,31,31,41,13,16,50,,42,42,12,16,10,10,0.6,0.6
2025-05-07T1600,3404A,108.5959,21.9633,钦州市,北职校,,28,28,31,10,14,66,,54,54,10,15,9,8,0.6,0.6
2025-05-07T1600,1043A,119.7493,40.0116,秦皇岛市,第一关,细颗粒物(PM2.5),60,46,44,43,36,115,,117,117,10,32,4,6,0.3,0.5
2025-05-07T1600,1044A,119.5897,39.9499,秦皇岛市,监测站,颗粒物(PM10),63,76,62,24,22,114,,119,119,11,28,4,7,0.3,0.7
2025-05-07T1600,1046A,119.5251,39.9041,秦皇岛市,建设大厦,,39,37,51,16,30,123,,118,118,12,23,2,7,0.3,0.8
2025-05-07T1600,3132A,119.610547,39.943889,秦皇岛市,文明里,颗粒物(PM10),51,51,49,24,27,105,,108,108,14,22,3,7,0.2,0.6
2025-05-07T1600,4198A,119.5090,39.8253,秦皇岛市,北戴河轮滑馆,,46,37,39,32,28,105,,105,105,10,16,4,7,0.2,0.5
2025-05-07T1600,1307A,120.6659,36.2403,青岛市,仰口,,32,27,23,18,19,101,,102,102,6,6,6,6,0.2,0.2
2025-05-07T1600,1310A,120.4134,36.0658,青岛市,市南区东部子站,,28,19,17,12,9,89,,91,90,7,11,6,6,0.3,0.3
2025-05-07T1600,1311A,120.3664,36.1032,青岛市,四方区子站,,35,19,20,9,10,110,,111,111,14,17,2,2,0.6,0.6
2025-05-07T1600,1312A,120.2994,36.054,青岛市,市南区西部子站,,27,17,12,7,7,85,,91,91,17,18,7,6,0.6,0.6
2025-05-07T1600,1313A,120.4581,36.0858,青岛市,崂山区子站,,29,9,9,3,4,91,,99,98,4,8,7,7,0.3,0.3
2025-05-07T1600,1315A,120.3999,36.3083,青岛市,城阳区子站,,41,41,31,15,15,119,,114,114,14,21,4,4,0.4,0.4
2025-05-07T1600,1966A,120.0405,35.8735,青岛市,黄岛区4号,,,,14,,8,90,,89,89,7,14,7,7,,0.5
2025-05-07T1600,3362A,120.5014,36.4034,青岛市,即墨2号,,37,34,35,12,20,118,,126,126,6,15,6,6,0.5,0.6
2025-05-07T1600,3642A,120.3503,36.0736,青岛市,市北区南部,,29,18,16,3,9,91,,90,90,3,6,7,8,0.3,0.6
2025-05-07T1600,3643A,120.3948,36.1805,青岛市,李沧区北部,,32,24,24,14,17,101,,98,98,15,22,7,7,0.4,0.5
2025-05-07T1600,4290A,120.1969,35.9546,青岛市,珠江路669号,,29,24,15,15,11,92,,95,95,7,9,6,6,0.5,0.5
2025-05-07T1600,1702A,113.0426,23.691,清远市,环保大楼,,14,6,22,6,13,42,,43,37,21,16,5,5,0.7,0.8
2025-05-07T1600,1703A,113.0208,23.7106,清远市,凤城街办,,12,6,22,3,12,37,,35,34,20,20,6,6,0.5,0.5
2025-05-07T1600,3025A,113.0477,23.6344,清远市,技师学院,,,12,23,9,15,43,,31,27,21,20,,6,0.4,0.5
2025-05-07T1600,3318A,112.9903,23.7403,清远市,清新太和,,15,6,22,3,14,48,,46,42,13,14,8,8,0.6,0.6
2025-05-07T1600,3455A,113.076,23.7198,清远市,清城东城,,15,6,20,3,13,45,,40,40,13,12,7,8,0.3,0.4
2025-05-07T1600,2661A,107.6325,35.7357,庆阳市,庆阳五中,颗粒物(PM10),75,100,166,38,52,114,,105,105,3,7,3,4,0.5,0.5
2025-05-07T1600,2662A,107.6364,35.7067,庆阳市,市环保局,颗粒物(PM10),77,104,161,44,60,117,,109,109,4,6,6,7,0.5,0.5
2025-05-07T1600,1916A,103.7897,25.5035,曲靖市,环境监测站,,42,39,37,3,17,134,,119,119,7,13,4,6,0.3,0.5
2025-05-07T1600,1917A,103.8,25.5364,曲靖市,烟厂办公区,,43,28,33,3,16,135,,120,120,4,10,4,4,0.3,0.5
2025-05-07T1600,3376A,103.7947,25.462,曲靖市,南苑二区,,43,14,33,3,17,137,,123,123,6,10,4,8,0.4,0.6
2025-05-07T1600,3377A,103.7444,25.5261,曲靖市,曲靖师范学院,,42,11,39,6,24,133,,118,118,5,10,6,13,0.3,0.5
2025-05-07T1600,1264A,118.8692,28.9398,衢州市,环保大楼,颗粒物(PM10),100,149,178,47,51,182,,163,163,10,20,4,4,0.4,0.5
