timepoint,stationcode,longitude,latitude,area,positionname,primarypollutant,aqi,pm10,pm10_24h,pm2_5,pm2_5_24h,o3,o3_24h,o3_8h,o3_8h_24h,no2,no2_24h,so2,so2_24h,co,co_24h
2026-01-18T0600,2568A,102.2503,31.8896,阿坝藏族羌族自治州,马师校,,20,,23,14,18,33,,,,9,17,3,4,0.5,0.5
2026-01-18T0600,3994A,102.2174,31.9016,阿坝藏族羌族自治州,马尔康中学西区,,13,11,15,3,12,40,,,,7,13,5,5,0.4,0.5
2026-01-18T0600,2695A,80.2899,41.1684,阿克苏地区,电视台,颗粒物(PM10),96,141,159,56,44,19,,,,44,20,6,6,2.5,1
2026-01-18T0600,2696A,80.2592,41.1541,阿克苏地区,艺术中心,颗粒物(PM10),119,187,152,48,47,47,,,,29,16,5,5,0.8,0.7
2026-01-18T0600,2205A,105.699,38.8409,阿拉善盟,蒙二幼,颗粒物(PM10),54,58,95,16,24,64,,,,6,11,10,12,0.4,0.6
2026-01-18T0600,2206A,105.7198,38.8508,阿拉善盟,环保局新楼,颗粒物(PM10),63,76,86,17,35,61,,,,5,10,9,11,0.5,0.6
2026-01-18T0600,2708A,88.1266,47.8515,阿勒泰地区,市站,,25,25,29,8,20,49,,,,18,34,10,9,0.6,0.7
2026-01-18T0600,4166A,88.1198,47.7931,阿勒泰地区,阿勒泰路33号,,21,21,25,8,16,58,,,,20,22,19,9,0.4,0.5
2026-01-18T0600,2630A,80.1171,32.4999,阿里地区,阿里监测站,,25,6,3,3,4,78,,,,1,7,5,6,0.4,0.5
2026-01-18T0600,3192A,80.0906,32.5029,阿里地区,阿里藏医院,,29,,12,7,4,92,,,,2,2,10,10,0.4,0.4
2026-01-18T0600,2644A,109.0088,32.6974,安康市,汉滨区检察院,细颗粒物(PM2.5),82,84,104,60,66,28,,,,16,32,4,5,0.7,0.8
2026-01-18T0600,4054A,109.0324,32.6913,安康市,市邮政管理局,细颗粒物(PM2.5),103,114,127,77,77,7,,,,32,41,8,8,0.9,1
2026-01-18T0600,2291A,117.0806,30.5181,安庆市,环科院,细颗粒物(PM2.5),162,140,193,123,155,42,,,,22,20,6,6,0.8,1
2026-01-18T0600,2292A,117.0331,30.5118,安庆市,马山宾馆,细颗粒物(PM2.5),153,142,190,117,150,48,,,,22,22,4,4,1.1,1.2
2026-01-18T0600,2294A,116.9897,30.6146,安庆市,安庆大学,细颗粒物(PM2.5),163,159,193,124,149,35,,,,23,19,3,4,0.9,1
2026-01-18T0600,3173A,117.0598,30.5351,安庆市,市人大,细颗粒物(PM2.5),163,158,203,124,153,39,,,,30,26,6,6,0.8,1
2026-01-18T0600,3123A,105.9408,26.2431,安顺市,凤凰山,细颗粒物(PM2.5),62,56,83,44,69,78,,,,11,26,11,33,0.5,0.8
2026-01-18T0600,3124A,105.9443,26.2567,安顺市,金钟山,细颗粒物(PM2.5),62,58,77,44,69,73,,,,8,17,12,30,0.5,0.7
2026-01-18T0600,3125A,105.8983,26.248,安顺市,娄家坡,细颗粒物(PM2.5),58,47,71,41,61,76,,,,8,14,9,14,0.6,0.7
2026-01-18T0600,1819A,114.3552,36.1017,安阳市,红庙街,细颗粒物(PM2.5),67,75,71,48,49,14,,,,31,21,3,3,0.8,0.6
2026-01-18T0600,1820A,114.361,36.0681,安阳市,银杏小区,细颗粒物(PM2.5),68,73,72,49,54,14,,,,31,21,1,2,0.6,0.4
2026-01-18T0600,3141A,114.3921,36.0879,安阳市,信访局,,,70,69,46,52,15,,,,35,23,,3,0.8,0.7
2026-01-18T0600,3669A,114.4706,36.0634,安阳市,左辅环卫站,颗粒物(PM10),61,72,80,43,54,22,,,,25,24,2,2,0.5,0.5
2026-01-18T0600,4117A,114.2918,36.0769,安阳市,钢三路198号,,,75,83,57,57,18,,,,30,22,,2,0.8,0.6
2026-01-18T0600,1748A,123.0441,41.1201,鞍山市,深沟寺,,45,45,38,30,25,42,,,,23,27,8,8,1.3,1
2026-01-18T0600,1749A,123.011,41.0931,鞍山市,太阳城,,42,42,32,29,24,50,,,,21,23,12,13,1.2,0.9
2026-01-18T0600,1750A,123.0483,41.1445,鞍山市,太平,颗粒物(PM10),54,57,54,35,36,35,,,,26,32,11,12,1.4,1
2026-01-18T0600,1751A,122.964,41.0968,鞍山市,铁西三道街,,39,39,38,25,21,39,,,,32,30,23,20,0.9,0.7
2026-01-18T0600,1753A,123.0219,41.0822,鞍山市,明达新区,,35,35,34,22,21,41,,,,23,22,16,15,0.7,0.6
2026-01-18T0600,4201A,122.944647,41.082639,鞍山市,兴盛南路290号,,39,39,46,24,22,42,,,,28,32,19,20,1.1,0.9
2026-01-18T0600,2195A,107.4206,40.7609,巴彦淖尔市,附二中,,44,44,113,21,30,60,,,,2,12,3,6,0.3,0.5
2026-01-18T0600,2196A,107.37,40.7372,巴彦淖尔市,市环保大楼,,34,34,108,15,23,65,,,,4,13,5,7,0.4,0.5
2026-01-18T0600,1956A,86.1476,41.7529,巴音郭楞蒙古自治州,孔雀公园,颗粒物(PM10),90,130,75,32,35,76,,,,2,10,8,9,0.3,0.4
2026-01-18T0600,1957A,86.1971,41.7166,巴音郭楞蒙古自治州,棉纺厂,颗粒物(PM10),129,208,89,20,25,64,,,,10,16,/,/,/,/
2026-01-18T0600,1958A,86.236,41.7172,巴音郭楞蒙古自治州,经济开发区,颗粒物(PM10),128,205,78,19,24,67,,,,6,9,5,6,0.4,0.5
2026-01-18T0600,3181A,106.776805,31.852614,巴中市,市五中,细颗粒物(PM2.5),124,134,141,94,104,2,,,,23,28,5,6,1.3,1.1
2026-01-18T0600,3183A,106.7419,31.8654,巴中市,圣泉水务公司,细颗粒物(PM2.5),114,98,111,86,92,9,,,,24,36,5,5,0.8,1
2026-01-18T0600,3616A,106.7617,31.8343,巴中市,市中心医院,细颗粒物(PM2.5),138,120,132,105,107,0,,,,25,33,7,7,1.2,1.1
2026-01-18T0600,2235A,122.7909,45.608,白城市,洮北区环保局,,16,16,27,11,19,47,,,,17,17,7,7,0.3,0.3
2026-01-18T0600,2236A,122.8741,45.5725,白城市,市环保局,,34,34,26,20,15,35,,,,17,12,9,6,0.4,0.4
2026-01-18T0600,2231A,126.4219,41.9172,白山市,喜丰,,49,49,57,32,35,33,,,,30,37,20,19,0.7,0.8
2026-01-18T0600,2232A,126.4082,41.9416,白山市,环保局,,,24,39,21,33,39,,,,19,26,,14,0.4,0.6
2026-01-18T0600,2647A,104.1727,36.5448,白银市,第三小学,颗粒物(PM10),74,98,151,24,53,62,,,,10,35,3,79,0.2,1.1
2026-01-18T0600,2648A,104.1467,36.5482,白银市,动力公司,颗粒物(PM10),72,94,145,27,49,60,,,,7,25,1,37,0.5,1
2026-01-18T0600,2512A,106.6102,23.901,百色市,市监测站,细颗粒物(PM2.5),99,92,68,74,53,13,,,,30,23,15,9,0.9,0.8
2026-01-18T0600,2513A,106.6524,23.8842,百色市,市中心血站,细颗粒物(PM2.5),132,,84,100,70,20,,,,23,33,18,11,0.9,1
2026-01-18T0600,4133A,106.6273,23.8798,百色市,龙景西路,细颗粒物(PM2.5),123,155,95,93,75,15,,,,33,32,23,11,0.8,0.8
2026-01-18T0600,2270A,117.396,32.9389,蚌埠市,工人疗养院,颗粒物(PM10),51,52,105,23,48,44,,,,12,17,4,4,0.2,0.4
2026-01-18T0600,2271A,117.3606,32.9428,蚌埠市,百货大楼,,46,46,104,19,46,48,,,,11,18,4,4,0.3,0.5
2026-01-18T0600,2273A,117.4183,32.8909,蚌埠市,蚌埠学院,,41,41,99,21,48,45,,,,17,26,4,4,0.3,0.5
2026-01-18T0600,2274A,117.3534,32.9672,蚌埠市,淮上区政府,,46,46,101,26,49,46,,,,13,19,1,1,0.3,0.4
2026-01-18T0600,2275A,117.3143,32.8977,蚌埠市,高新区,,48,48,100,24,52,46,,,,11,17,6,6,0.1,0.3
2026-01-18T0600,3715A,117.3091,32.9314,蚌埠市,蚌埠田家炳中学,,47,47,108,22,53,41,,,,16,19,3,4,0.3,0.5
2026-01-18T0600,1585A,109.8761,40.6533,包头市,市环境监测站,,35,35,87,6,23,70,,,,4,26,3,11,0.2,0.6
2026-01-18T0600,1587A,109.9992,40.5843,包头市,包头八中,,,,99,,30,,,47,,,30,,14,,0.7
2026-01-18T0600,1589A,109.8641,40.6288,包头市,惠龙物流,,42,42,73,3,21,71,,,,3,25,6,14,0.4,0.7
2026-01-18T0600,1590A,110.0376,40.5546,包头市,东河鸿龙湾,,41,41,72,3,18,61,,,,6,28,7,12,0.6,0.7
2026-01-18T0600,3283A,109.9154,40.5684,包头市,滨河大厦,,37,37,55,9,20,64,,,,2,19,5,9,0.5,0.7
2026-01-18T0600,3419A,109.9449,40.6259,包头市,包头市委党校,,36,36,70,6,26,63,,,,7,28,6,12,0.5,0.8
2026-01-18T0600,3683A,109.8332,40.6577,包头市,昆区政府,,43,43,86,7,26,66,,,,6,30,5,13,0.5,0.9
2026-01-18T0600,1931A,107.0802,34.3129,宝鸡市,竹园沟,细颗粒物(PM2.5),108,121,120,81,70,27,,,,28,30,5,7,0.7,0.6
2026-01-18T0600,1933A,107.1429,34.3549,宝鸡市,监测站,细颗粒物(PM2.5),119,137,138,90,87,19,,,,39,44,5,7,0.9,0.9
2026-01-18T0600,1934A,107.1172,34.3759,宝鸡市,技工学校,细颗粒物(PM2.5),122,139,134,92,78,34,,,,23,28,4,9,1.2,1.2
2026-01-18T0600,1936A,107.2025,34.3518,宝鸡市,文理学院,细颗粒物(PM2.5),133,137,135,101,93,24,,,,37,41,5,6,0.9,0.8
2026-01-18T0600,1937A,107.2396,34.3626,宝鸡市,三迪小学,细颗粒物(PM2.5),142,136,144,108,94,25,,,,36,45,5,6,0.9,0.9
2026-01-18T0600,4155A,107.1721,34.3558,宝鸡市,滨河北路,细颗粒物(PM2.5),119,153,153,90,77,30,,,,26,42,6,7,0.9,0.8
2026-01-18T0600,4308A,107.3898,34.3601,宝鸡市,陈仓区北开路21号,细颗粒物(PM2.5),148,168,168,113,100,40,,,,50,55,58,12,1.3,0.8
2026-01-18T0600,1051A,115.4803,38.8568,保定市,游泳馆,,35,35,49,13,24,38,,,,15,27,2,2,0.3,0.4
2026-01-18T0600,1052A,115.509,38.8895,保定市,华电二区,,42,38,42,29,31,40,,,,13,23,1,3,0.4,0.5
2026-01-18T0600,1053A,115.4588,38.9037,保定市,接待中心,,39,39,45,22,26,35,,,,14,24,3,3,0.2,0.3
2026-01-18T0600,1054A,115.4484,38.8344,保定市,地表水厂,,41,41,57,18,28,37,,,,20,29,4,4,0.3,0.4
2026-01-18T0600,3581A,115.3136,38.9511,保定市,满城区生态环境分局,,31,31,44,19,25,40,,,,22,31,2,2,0.5,0.5
2026-01-18T0600,3582A,115.4709,38.7628,保定市,清苑区第二中学,,36,36,55,14,25,38,,,,15,30,1,2,0.4,0.5
2026-01-18T0600,3583A,115.6231,39.0223,保定市,徐水物探局,,38,34,43,26,29,38,,,,16,24,1,2,0.4,0.6
2026-01-18T0600,4004A,115.4199,38.8665,保定市,双鹰农机,,44,44,55,24,32,43,,,,12,23,4,4,0.4,0.5
2026-01-18T0600,4034A,115.515,38.8589,保定市,植保所站,,40,37,51,28,37,35,,,,17,30,1,2,0.5,0.6
2026-01-18T0600,2594A,99.1589,25.1137,保山市,市环境监测站,,30,21,28,21,19,40,,,,8,10,8,9,0.4,0.4
2026-01-18T0600,2595A,99.1616,25.1381,保山市,市环保局,,22,22,30,15,17,50,,,,5,7,4,4,0.3,0.4
2026-01-18T0600,1867A,109.1435,21.4085,北海市,海滩公园,细颗粒物(PM2.5),117,111,67,88,51,47,,,,26,20,12,11,1.0,0.9
2026-01-18T0600,1868A,109.0983,21.466,北海市,新市环保局,细颗粒物(PM2.5),125,96,66,95,59,50,,,,32,30,14,10,1.0,0.8
2026-01-18T0600,1869A,109.1775,21.5232,北海市,北海工业园,细颗粒物(PM2.5),147,166,92,112,70,30,,,,42,29,30,15,1.1,1
2026-01-18T0600,3400A,109.1844,21.4396,北海市,龙潭自来水厂,细颗粒物(PM2.5),105,89,71,79,63,6,,,,33,24,18,20,1.3,1
2026-01-18T0600,1001A,116.3611,39.8786,北京市,万寿西宫,,40,40,37,20,15,36,,,,21,18,2,3,0.7,0.6
2026-01-18T0600,1003A,116.4174,39.9289,北京市,东四,,38,38,37,20,16,35,,,,22,19,6,6,0.7,0.6
2026-01-18T0600,1004A,116.4073,39.8858,北京市,天坛,,38,38,34,17,14,38,,,,21,17,3,4,0.7,0.5
2026-01-18T0600,1005A,116.4622,39.9364,北京市,农展馆,,33,33,33,18,15,48,,,,10,12,4,5,0.7,0.6
2026-01-18T0600,1006A,116.3399,39.9293,北京市,官园,,47,47,43,18,14,31,,,,23,16,6,6,0.7,0.6
2026-01-18T0600,1007A,116.2879,39.9613,北京市,海淀万柳,,31,31,35,18,15,28,,,,31,22,3,4,0.6,0.6
2026-01-18T0600,1008A,116.6635,40.1349,北京市,顺义新城,,33,33,33,17,14,51,,,,12,14,5,7,0.6,0.5
2026-01-18T0600,1009A,116.6275,40.327,北京市,怀柔镇,,31,31,30,17,14,48,,,,11,18,4,6,0.6,0.6
2026-01-18T0600,1010A,116.2295,40.217,北京市,昌平镇,,35,35,36,21,15,34,,,,21,19,2,3,0.6,0.6
2026-01-18T0600,1011A,116.3968,39.982,北京市,奥体中心,,33,33,33,19,16,40,,,,25,23,4,5,0.9,0.8
2026-01-18T0600,3418A,116.8336,40.4095,北京市,密云新城,,41,41,31,19,13,38,,,,14,14,5,8,0.7,0.6
2026-01-18T0600,3671A,116.0879,39.9725,北京市,门头沟三家店,,37,37,34,25,18,31,,,,26,25,2,3,0.5,0.6
2026-01-18T0600,3672A,116.1507,39.8246,北京市,丰台云岗,,32,32,33,19,17,30,,,,28,18,2,3,0.6,0.5
2026-01-18T0600,3674A,115.9578,39.7602,北京市,房山燕山,,30,30,32,21,16,30,,,,27,22,3,4,0.4,0.5
2026-01-18T0600,3675A,116.4669,39.7734,北京市,大兴旧宫,,42,42,35,19,12,37,,,,22,16,3,4,0.7,0.6
2026-01-18T0600,3694A,115.9859,40.4562,北京市,延庆石河营,,39,39,33,23,16,37,,,,17,16,3,4,0.6,0.6
2026-01-18T0600,3695A,116.6151,40.3052,北京市,怀柔新城,,33,33,32,22,17,47,,,,10,13,4,6,0.6,0.6
2026-01-18T0600,3696A,116.2542,39.8764,北京市,丰台小屯,,35,35,33,20,15,30,,,,28,21,3,4,0.6,0.5
2026-01-18T0600,3697A,116.8399,40.3843,北京市,密云镇,,37,37,29,20,14,41,,,,16,15,2,4,0.7,0.6
2026-01-18T0600,4057A,115.9423,40.4431,北京市,延庆百泉,,41,41,35,26,15,35,,,,14,14,1,2,0.4,0.4
2026-01-18T0600,4058A,116.6598,39.9164,北京市,通州新华,,44,44,35,20,15,38,,,,19,17,7,4,1.1,0.7
2026-01-18T0600,4182A,116.1942,39.9158,北京市,石景山八角,,34,34,36,20,15,28,,,,22,15,2,2,0.4,0.4
2026-01-18T0600,4194A,117.078628,40.151726,北京市,平谷新城,,37,37,32,19,16,38,,,,9,11,4,4,0.6,0.4
2026-01-18T0600,1761A,123.8274146,41.31234549,本溪市,大峪,颗粒物(PM10),62,74,58,29,34,5,,,,54,36,8,8,1.3,1.1
2026-01-18T0600,1763A,123.7169,41.3094,本溪市,彩屯,,48,48,50,30,35,8,,,,53,36,8,9,1.1,1
2026-01-18T0600,1764A,123.7672166,41.28649327,本溪市,东明,,,63,50,35,29,4,,,,52,33,,5,1.4,1.2
2026-01-18T0600,1765A,123.799345,41.266614,本溪市,新立屯,,32,32,33,21,20,40,,,,19,23,9,9,0.7,0.7
2026-01-18T0600,1766A,123.829144,41.336777,本溪市,威宁,颗粒物(PM10),58,65,69,31,41,10,,,,39,39,5,6,1.2,1.2
2026-01-18T0600,2587A,105.287,27.3133,毕节市,八中,细颗粒物(PM2.5),92,82,109,68,89,16,,,,10,29,9,13,0.8,1.2
2026-01-18T0600,2588A,105.3079,27.2987,毕节市,师专,细颗粒物(PM2.5),156,147,129,119,107,4,,,,37,39,8,11,1.7,1.6
2026-01-18T0600,4263A,105.3688,27.3598,毕节市,工业大道,细颗粒物(PM2.5),133,148,131,101,92,12,,,,27,29,10,14,/,/
2026-01-18T0600,1629A,117.9961,37.3604,滨州市,第二水厂,,39,36,30,27,17,33,,,,16,12,7,10,0.5,0.5
2026-01-18T0600,1630A,117.9789,37.3931,滨州市,北中新校,,41,41,39,24,14,36,,,,19,19,5,6,0.4,0.3
2026-01-18T0600,3514A,117.9379,37.3959,滨州市,中海酒店,细颗粒物(PM2.5),52,,28,36,19,35,,,,14,12,6,8,0.5,0.5
2026-01-18T0600,3515A,117.9381509,37.35547456,滨州市,开发区一中,细颗粒物(PM2.5),52,39,34,36,17,40,,,,13,11,10,13,0.4,0.3
2026-01-18T0600,3516A,118.0914,37.6938,滨州市,金海六路,,28,27,24,19,7,53,,,,8,9,3,2,0.3,0.2
2026-01-18T0600,4028A,117.9955,37.3752,滨州市,滨州市西街道办事处,,39,36,27,27,20,40,,,,15,13,7,9,0.5,0.4
2026-01-18T0600,2311A,115.8071,33.8399,亳州市,污水处理厂,颗粒物(PM10),59,68,82,28,38,33,,,,18,21,2,3,0.3,0.3
2026-01-18T0600,2312A,115.7789,33.8519,亳州市,三国揽胜宫,颗粒物(PM10),65,80,94,28,44,33,,,,18,20,1,2,0.3,0.4
2026-01-18T0600,3332A,115.7631,33.803,亳州市,亳州学院,颗粒物(PM10),63,75,90,30,45,35,,,,16,21,2,3,0.5,0.5
2026-01-18T0600,2693A,82.0482,44.8553,博尔塔拉蒙古自治州,市党校,颗粒物(PM10),51,52,49,7,12,52,,,,16,16,3,4,1.7,1
2026-01-18T0600,2694A,82.0805,44.8966,博尔塔拉蒙古自治州,市环保局,,48,48,47,25,19,58,,,,7,10,4,5,1.2,0.9
2026-01-18T0600,1071A,116.8733,38.2922,沧州市,沧县城建局,,35,32,35,24,20,49,,,,16,16,5,5,0.4,0.3
2026-01-18T0600,1072A,116.8462,38.3189,沧州市,电视转播站,,37,37,36,17,13,45,,,,19,18,3,3,0.3,0.3
2026-01-18T0600,1073A,116.8588,38.3161,沧州市,市环保局,,39,39,40,27,25,44,,,,16,14,5,4,0.4,0.3
2026-01-18T0600,3324A,116.8011,38.294,沧州市,河北水利电力学院,,34,34,26,15,14,46,,,,17,15,3,3,0.2,0.2
2026-01-18T0600,2622A,97.1813,31.1289,昌都市,昌都监测站,,26,26,43,3,16,44,,,,8,20,3,4,0.3,0.7
2026-01-18T0600,3719A,97.1707,31.1428,昌都市,昌都会议中心,,15,6,13,3,9,47,,,,1,6,3,2,0.3,0.4
2026-01-18T0600,2692A,87.2722,44.0298,昌吉回族自治州,新区政务中心,细颗粒物(PM2.5),52,48,29,36,19,39,,,,25,26,7,9,0.5,0.4
2026-01-18T0600,3613A,87.3069,44.0093,昌吉回族自治州,亚心广场,,41,41,28,22,18,50,,,,9,15,7,8,0.5,0.5
2026-01-18T0600,4164A,87.2057,43.9289,昌吉回族自治州,财政所,,28,27,30,19,24,49,,,,12,15,4,5,0.5,0.5
2026-01-18T0600,1120A,125.2874,43.9024,长春市,客车厂,细颗粒物(PM2.5),55,46,36,39,35,15,,,,50,33,17,14,0.6,0.5
2026-01-18T0600,1121A,125.2943,43.8508,长春市,邮电学院,细颗粒物(PM2.5),62,56,37,44,32,20,,,,46,30,13,14,0.8,0.7
2026-01-18T0600,1122A,125.3648,43.8745,长春市,劳动公园,细颗粒物(PM2.5),54,53,40,38,28,32,,,,31,27,9,11,0.6,0.5
2026-01-18T0600,1123A,125.3233,43.8781,长春市,园林处,细颗粒物(PM2.5),55,44,37,39,39,26,,,,35,27,11,12,0.7,0.6
2026-01-18T0600,1124A,125.4604,43.7904,长春市,净月潭,,48,38,40,33,31,44,,,,13,16,5,6,0.5,0.5
2026-01-18T0600,1126A,125.38,43.8422,长春市,经开区环卫处,,49,49,41,34,28,15,,,,48,31,5,7,0.6,0.5
2026-01-18T0600,1127A,125.234,43.7761,长春市,高新区管委会,细颗粒物(PM2.5),67,52,45,48,39,15,,,,57,31,7,8,0.6,0.5
2026-01-18T0600,1128A,125.1695,43.83,长春市,岱山公园,,,51,49,42,37,13,,,,52,37,,7,0.6,0.5
2026-01-18T0600,4281A,125.334645,43.916281,长春市,北亚泰大街1068号,,,44,37,35,31,12,,,,50,33,,11,0.5,0.5
2026-01-18T0600,1335A,113.082,28.2421,长沙市,经开区环保局,细颗粒物(PM2.5),123,108,170,93,143,4,,,,20,32,3,4,0.9,0.8
2026-01-18T0600,1336A,112.8873,28.2202,长沙市,高开区环保局,细颗粒物(PM2.5),172,145,170,130,154,0,,,,30,30,5,5,1.0,1
2026-01-18T0600,1337A,113.0785,28.2012,长沙市,马坡岭,细颗粒物(PM2.5),99,112,173,74,116,0,,,,26,33,4,7,1.0,0.9
2026-01-18T0600,1338A,112.9448,28.1894,长沙市,湖南师范大学,细颗粒物(PM2.5),137,174,181,104,117,0,,,,38,34,3,5,1.2,1.1
2026-01-18T0600,1339A,113.0177,28.1322,长沙市,雨花区环保局,细颗粒物(PM2.5),168,,178,127,154,0,,,,28,39,7,8,1.3,1.1
2026-01-18T0600,1340A,112.9795,28.2593,长沙市,伍家岭,细颗粒物(PM2.5),127,119,186,96,131,0,,,,34,35,4,5,0.9,0.9
2026-01-18T0600,1341A,113.002,28.1944,长沙市,火车新站,细颗粒物(PM2.5),178,174,192,134,137,3,,,,36,38,3,9,1.3,1.2
2026-01-18T0600,1342A,112.9846,28.1177,长沙市,天心区环保局,细颗粒物(PM2.5),190,191,192,143,138,0,,,,32,40,6,6,1.1,1
2026-01-18T0600,1343A,112.8906,28.1307,长沙市,湖南中医药大学,细颗粒物(PM2.5),175,183,186,132,134,1,,,,33,40,5,6,1.2,1.1
2026-01-18T0600,1727A,113.1146,36.1547,长治市,清华站,细颗粒物(PM2.5),89,88,74,66,60,36,,,,20,21,8,11,1.1,1
2026-01-18T0600,1730A,113.0887,36.2126,长治市,审计局,细颗粒物(PM2.5),94,105,70,70,59,35,,,,19,18,6,9,1.0,0.9
2026-01-18T0600,1731A,113.0845,36.1856,长治市,长治八中,细颗粒物(PM2.5),93,97,90,69,64,39,,,,17,18,8,10,1.1,1
2026-01-18T0600,2845A,113.1561,36.1912,长治市,德盛苑,细颗粒物(PM2.5),100,85,69,75,62,43,,,,17,17,6,9,1.1,1
2026-01-18T0600,3568A,113.0603,36.0464,长治市,向阳小学,细颗粒物(PM2.5),103,129,116,77,71,38,,,,23,27,8,12,1.4,1.4
2026-01-18T0600,3569A,112.8788,36.315,长治市,屯留一中,细颗粒物(PM2.5),113,126,81,85,53,22,,,,49,35,8,12,1.6,1.2
2026-01-18T0600,4189A,113.113092,36.199482,长治市,英华南巷50号,细颗粒物(PM2.5),92,87,76,68,56,38,,,,17,17,5,8,1.0,0.9
2026-01-18T0600,4190A,113.23666,36.33435,长治市,学府街1号,细颗粒物(PM2.5),92,81,64,68,52,33,,,,22,23,6,11,1.1,1.1
2026-01-18T0600,1854A,111.696,28.9725,常德市,市二中,细颗粒物(PM2.5),208,228,204,158,144,31,,,,23,23,8,8,1.1,1
2026-01-18T0600,3138A,111.7152,29.0288,常德市,武陵区永安,细颗粒物(PM2.5),212,234,211,162,143,23,,,,22,21,6,6,1.1,1
2026-01-18T0600,3139A,111.6891,28.9881,常德市,鼎城区玉霞,细颗粒物(PM2.5),210,220,200,160,142,26,,,,25,21,10,11,1.0,0.9
2026-01-18T0600,3140A,111.6651,29.0526,常德市,武陵区长庚,细颗粒物(PM2.5),218,222,203,168,143,11,,,,31,23,6,7,1.2,1
2026-01-18T0600,1196A,119.9524,31.7586,常州市,市监测站,,46,46,115,23,71,62,,,,15,24,5,5,0.6,0.9
2026-01-18T0600,1200A,119.9351,31.703,常州市,武进监测站,颗粒物(PM10),56,61,111,38,71,52,,,,25,27,17,12,1.1,0.8
2026-01-18T0600,3002A,119.9701,31.813,常州市,行政中心,颗粒物(PM10),51,51,123,22,64,54,,,,26,28,5,5,0.5,0.8
2026-01-18T0600,3003A,120.0434,31.7726,常州市,经开区,,49,49,114,25,64,57,,,,20,24,5,5,0.4,0.8
2026-01-18T0600,3010A,119.8919,31.7892,常州市,钟楼,颗粒物(PM10),51,51,110,24,66,63,,,,14,22,6,6,0.3,0.7
2026-01-18T0600,3429A,119.8595,31.706,常州市,武进经发区,颗粒物(PM10),56,62,116,37,77,59,,,,25,27,5,2,1.3,1
2026-01-18T0600,3430A,119.5812,31.7256,常州市,金坛城区,颗粒物(PM10),56,61,129,34,79,51,,,,20,23,6,6,0.7,1
2026-01-18T0600,4089A,119.9551,31.863,常州市,崇义南街5-H号,颗粒物(PM10),52,54,114,27,64,45,,,,33,35,6,5,0.9,1
2026-01-18T0600,2220A,120.4318,41.588,朝阳市,西梁,,38,38,46,25,31,39,,,,13,20,10,12,0.7,0.8
2026-01-18T0600,2221A,120.452,41.565,朝阳市,河畔小区,,48,48,27,32,21,33,,,,21,19,22,11,1.0,0.6
2026-01-18T0600,2222A,120.4176,41.5648,朝阳市,八里堡,,36,36,35,22,24,40,,,,16,24,11,10,0.6,0.7
2026-01-18T0600,3026A,116.6179,23.6608,潮州市,市政府,细颗粒物(PM2.5),74,87,94,54,55,51,,,,28,37,9,18,0.5,0.6
2026-01-18T0600,4036A,116.646,23.676,潮州市,金山,,,,69,,49,,,163,,,22,,6,,0.6
2026-01-18T0600,2473A,113.0116,25.8228,郴州市,市职中,细颗粒物(PM2.5),82,81,98,60,87,0,,,,23,25,4,6,0.9,0.9
2026-01-18T0600,2475A,113.0381,25.8074,郴州市,市审计局,细颗粒物(PM2.5),110,112,106,83,89,0,,,,26,25,3,3,/,/
2026-01-18T0600,2476A,113.0348,25.7757,郴州市,市环保局,颗粒物(PM10),83,116,116,54,91,2,,,,34,33,3,5,0.6,0.7
2026-01-18T0600,4252A,113.0138,25.8011,郴州市,好美居路49号,细颗粒物(PM2.5),99,,94,74,87,5,,,,29,32,9,6,/,/
2026-01-18T0600,1431A,103.9727,30.7242,成都市,金泉两河,细颗粒物(PM2.5),163,144,158,124,134,1,,,,66,68,2,4,1.7,1.5
2026-01-18T0600,1432A,104.1423,30.6765,成都市,十里店,细颗粒物(PM2.5),215,204,179,165,141,18,,,,55,66,5,5,1.2,1.3
2026-01-18T0600,1433A,104.0594,30.5765,成都市,三瓦窑,细颗粒物(PM2.5),220,193,160,170,139,1,,,,85,68,4,5,1.4,1.2
2026-01-18T0600,1434A,104.1122,30.6306,成都市,沙河铺,细颗粒物(PM2.5),224,188,164,174,150,1,,,,86,77,3,3,1.4,1.4
2026-01-18T0600,2880A,104.0219,30.6561,成都市,大石西路,细颗粒物(PM2.5),182,171,172,137,129,16,,,,,61,4,6,1.0,1.1
2026-01-18T0600,3136A,104.2724,30.559,成都市,龙泉驿区区政府,细颗粒物(PM2.5),132,112,124,100,108,55,,,,15,22,6,8,0.9,1
2026-01-18T0600,3357A,104.0028,30.6891,成都市,金博路,细颗粒物(PM2.5),169,158,163,128,130,13,,,,60,73,6,7,1.3,1.5
2026-01-18T0600,3359A,104.056,30.5228,成都市,华阳,细颗粒物(PM2.5),168,151,142,127,114,1,,,,70,66,3,5,1.3,1.2
2026-01-18T0600,3488A,104.387954,30.746684,成都市,青石路225号,细颗粒物(PM2.5),160,157,154,122,124,1,,,,45,51,3,5,1.2,1.1
2026-01-18T0600,3489A,104.0788,30.4054,成都市,科学城,细颗粒物(PM2.5),133,122,134,101,113,1,,,,35,37,6,9,1.1,1
2026-01-18T0600,4011A,103.8505,30.6946,成都市,光华大道三段,细颗粒物(PM2.5),169,151,160,128,124,31,,,,45,55,4,4,0.7,0.9
2026-01-18T0600,4144A,104.3257,30.6406,成都市,八角井街185号,细颗粒物(PM2.5),159,174,159,121,123,11,,,,38,30,2,5,1.1,1
2026-01-18T0600,4224A,104.2433276,30.53529463,成都市,鲸龙路1057号,细颗粒物(PM2.5),144,125,136,110,115,8,,,,49,40,5,7,0.8,0.9
2026-01-18T0600,1062A,117.9531,40.908,承德市,铁路,颗粒物(PM10),53,56,41,26,18,10,,,,32,24,7,7,1.0,0.6
2026-01-18T0600,1063A,117.9397,40.9763,承德市,中国银行,细颗粒物(PM2.5),52,52,35,36,15,9,,,,33,14,3,4,0.9,0.5
2026-01-18T0600,4073A,117.9462,40.95,承德市,杏林街1号,,46,44,29,32,19,5,,,,35,16,4,6,1.0,0.6
2026-01-18T0600,4274A,117.7994,40.9605,承德市,滨河大街98号,颗粒物(PM10),60,69,27,39,16,14,,,,32,14,3,4,0.8,0.4
2026-01-18T0600,2314A,117.4698,30.6617,池州市,池州学院,细颗粒物(PM2.5),140,126,166,107,141,41,,,,24,35,3,4,0.9,1.1
2026-01-18T0600,3237A,117.4918,30.6617,池州市,展览馆,细颗粒物(PM2.5),117,132,183,88,144,23,,,,22,32,1,2,1.1,1.2
2026-01-18T0600,3333A,117.5626,30.695,池州市,第八中学,细颗粒物(PM2.5),130,130,160,99,124,38,,,,23,31,3,3,1.3,1.3
2026-01-18T0600,3334A,117.5037,30.6242,池州市,第十二中学,细颗粒物(PM2.5),128,142,164,97,129,4,,,,37,35,2,2,1.2,1.2
2026-01-18T0600,1744A,118.9229,42.2816,赤峰市,松山一中,,19,19,31,10,14,51,,,,9,22,6,15,0.6,0.8
2026-01-18T0600,1745A,118.9588,42.2733,赤峰市,哈达街,,18,12,33,3,16,57,,,,7,22,4,21,0.5,0.8
2026-01-18T0600,1746A,118.8792,42.2551,赤峰市,天义路,,19,13,19,13,16,54,,,,8,15,5,11,0.5,0.7
2026-01-18T0600,3058A,119.2656,42.0356,赤峰市,银河街,,25,25,44,15,27,57,,,,4,13,10,16,0.6,0.8
2026-01-18T0600,3286A,118.9359,42.3146,赤峰市,桥北物流园区,,19,,20,12,18,58,,,,7,15,4,9,0.5,0.5
2026-01-18T0600,2521A,107.3473,22.4137,崇左市,市环保局江州分局,细颗粒物(PM2.5),79,80,95,58,61,7,,,,24,23,6,7,1.0,1.1
2026-01-18T0600,4256A,107.375,22.3736,崇左市,石景林东路7号,细颗粒物(PM2.5),73,58,71,53,60,13,,,,24,22,6,7,0.7,0.8
2026-01-18T0600,3207A,118.31131,32.3033,滁州市,市政府原办公楼,颗粒物(PM10),63,76,119,43,62,40,,,,28,26,5,4,0.4,0.5
2026-01-18T0600,3331A,118.3268,32.2633,滁州市,图书馆,细颗粒物(PM2.5),63,71,118,45,60,33,,,,27,23,10,8,0.6,0.6
2026-01-18T0600,4101A,118.3196,32.3335,滁州市,银山路666号,细颗粒物(PM2.5),74,59,102,54,72,38,,,,20,19,2,2,0.5,0.5
2026-01-18T0600,4102A,118.3426,32.2979,滁州市,黄山路555号,细颗粒物(PM2.5),78,75,124,57,73,37,,,,28,26,15,15,0.7,0.8
2026-01-18T0600,2606A,101.5379,25.0492,楚雄彝族自治州,市经济开发区,,28,25,34,19,23,4,,,,21,20,2,4,0.5,0.6
2026-01-18T0600,4153A,101.5536,25.0343,楚雄彝族自治州,团结路562号,,33,27,30,23,20,3,,,,25,18,2,4,0.4,0.4
2026-01-18T0600,2549A,107.5087,31.2186,达州市,市环境监测站,细颗粒物(PM2.5),144,143,159,110,129,4,,,,24,36,6,7,0.8,1
2026-01-18T0600,2550A,107.4988,31.2132,达州市,凤凰小区,细颗粒物(PM2.5),149,134,170,114,135,3,,,,29,41,6,7,0.9,1.2
2026-01-18T0600,2551A,107.5081,31.1987,达州市,达县机关宾馆,细颗粒物(PM2.5),170,156,178,129,141,2,,,,24,40,3,5,1.1,1.4
2026-01-18T0600,2552A,107.4644,31.2124,达州市,市政中心,细颗粒物(PM2.5),163,155,181,124,138,5,,,,34,53,6,7,0.8,1.2
2026-01-18T0600,2614A,100.2168,25.5818,大理白族自治州,大理市环境监测站,,33,29,25,23,21,60,,,,7,10,6,6,0.6,0.6
2026-01-18T0600,2615A,100.1542,25.7055,大理白族自治州,大理古城,,24,24,29,9,18,50,,,,12,16,7,8,0.6,0.7
2026-01-18T0600,1109A,121.6119,38.974,大连市,甘井子,,34,34,32,23,21,33,,,,33,25,11,11,0.4,0.4
2026-01-18T0600,1110A,121.565,38.9509,大连市,周水子,,35,35,35,21,20,43,,,,20,28,14,13,0.6,0.5
2026-01-18T0600,1111A,121.5637,38.8849,大连市,星海三站,,29,29,31,18,22,43,,,,21,27,13,14,0.6,0.6
2026-01-18T0600,1112A,121.6301,38.9117,大连市,青泥洼桥,,27,27,35,18,21,34,,,,29,28,13,12,0.7,0.6
2026-01-18T0600,1113A,121.6248,38.8643,大连市,傅家庄,,35,35,32,21,20,33,,,,28,29,16,12,0.5,0.5
2026-01-18T0600,1114A,121.5117,38.8636,大连市,七贤岭,,33,33,34,17,19,46,,,,14,20,8,8,0.6,0.6
2026-01-18T0600,1116A,121.7507,39.1339,大连市,金州,,,40,45,26,26,48,,,,26,29,,13,0.8,0.6
2026-01-18T0600,1117A,121.7811,39.0495,大连市,开发区,,39,33,30,27,18,32,,,,25,15,6,6,0.6,0.4
2026-01-18T0600,1118A,121.9762,39.0631,大连市,双D港,,38,38,31,26,20,32,,,,29,15,16,11,0.6,0.4
2026-01-18T0600,4082A,121.2548,38.8188,大连市,旅顺,,25,25,26,11,13,49,,,,12,12,10,8,0.7,0.6
2026-01-18T0600,1789A,124.8085,46.0381,大庆市,大同区,,30,,45,21,31,47,,,,12,19,5,7,0.6,0.8
2026-01-18T0600,1790A,125.1166,46.5255,大庆市,龙凤区,,43,43,45,25,29,21,,,,46,31,9,11,0.4,0.4
2026-01-18T0600,1791A,124.8894,46.4007,大庆市,红岗区,,35,31,36,24,29,34,,,,17,23,6,6,0.2,0.4
2026-01-18T0600,1792A,125.1391,46.578,大庆市,萨尔图区,,36,36,39,15,20,27,,,,32,23,8,9,0.5,0.5
2026-01-18T0600,1793A,124.9026,46.6217,大庆市,让胡路区,,45,,30,31,28,52,,,,12,18,7,8,0.5,0.6
2026-01-18T0600,3481A,125.127,46.6277,大庆市,萨区政府监测点,,38,38,34,14,15,24,,,,31,20,9,10,0.7,0.6
2026-01-18T0600,1723A,113.2926,40.0759,大同市,云冈宾馆,颗粒物(PM10),51,52,71,32,41,35,,,,20,24,6,6,0.9,1
2026-01-18T0600,1724A,113.3437,40.0921,大同市,大同大学,颗粒物(PM10),57,64,69,33,46,37,,,,18,20,4,4,0.7,0.9
2026-01-18T0600,1725A,113.2637,40.129,大同市,安家小村,颗粒物(PM10),54,58,81,23,44,37,,,,15,25,8,8,0.5,0.9
2026-01-18T0600,3282A,113.3399,40.0586,大同市,大同市卫生学校,颗粒物(PM10),59,68,69,36,47,37,,,,22,22,4,4,0.7,0.7
2026-01-18T0600,3565A,113.1371,40.1122,大同市,云冈站,颗粒物(PM10),51,51,80,30,46,43,,,,14,26,6,7,0.9,1
2026-01-18T0600,3566A,113.1186,40.2556,大同市,图书馆,颗粒物(PM10),57,63,82,18,51,43,,,,13,25,6,8,0.9,1
2026-01-18T0600,3567A,113.5931,40.0459,大同市,区一中,细颗粒物(PM2.5),57,61,73,40,37,47,,,,20,15,3,2,0.6,0.6
2026-01-18T0600,4199A,113.2798248,40.09972476,大同市,魏都大道141号,颗粒物(PM10),60,70,86,28,40,41,,,,17,26,5,5,0.8,1
2026-01-18T0600,2269A,124.1068,50.4091,大兴安岭地区,科技局,,,,19,,12,,,53,,,2,,5,,0.2
2026-01-18T0600,3663A,124.117,50.4279,大兴安岭地区,红旗社区,,16,,6,6,6,50,,,,3,3,6,5,0.3,0.3
2026-01-18T0600,1600A,124.33,40.0625,丹东市,江湾东路,,49,38,26,34,19,57,,,,13,13,7,7,0.9,0.5
2026-01-18T0600,1601A,124.4242,40.1513,丹东市,临江后街,,20,16,23,10,13,64,,,,5,8,4,5,0.5,0.5
2026-01-18T0600,1602A,124.3935,40.1461,丹东市,元宝山,,,16,21,12,14,66,,,,5,8,,8,0.4,0.4
2026-01-18T0600,1603A,124.3634,40.1093,丹东市,民主桥,,19,19,26,12,14,59,,,,8,11,10,9,0.3,0.5
2026-01-18T0600,3541A,109.5726195,19.51688767,儋州市,第一中学子站,"颗粒物(PM10),细颗粒物(PM2.5)",53,56,47,37,32,89,,,,12,7,6,4,0.7,0.6
2026-01-18T0600,3542A,109.5567,19.5187,儋州市,东坡学校子站,"颗粒物(PM10),细颗粒物(PM2.5)",53,55,44,37,28,84,,,,10,6,8,6,0.7,0.6
2026-01-18T0600,2616A,98.5611,24.4273,德宏傣族景颇族自治州,德宏州监测站,细颗粒物(PM2.5),53,48,51,37,36,4,,,,32,24,6,7,0.8,0.7
2026-01-18T0600,3677A,98.5887,24.4366,德宏傣族景颇族自治州,芒市人民政府综合楼,,47,47,51,31,29,22,,,,14,16,4,5,0.8,0.7
2026-01-18T0600,1901A,104.424,31.1209,德阳市,东山公园,细颗粒物(PM2.5),193,147,120,145,114,59,,,,26,31,6,7,1.0,1
2026-01-18T0600,1902A,104.3827,31.1318,德阳市,西小区,细颗粒物(PM2.5),159,149,145,121,117,19,,,,43,50,3,6,1.2,1.3
2026-01-18T0600,1904A,104.3553,31.1091,德阳市,耐火材料厂,细颗粒物(PM2.5),163,124,131,124,122,35,,,,32,47,5,5,1.1,1.1
2026-01-18T0600,4145A,104.4144,31.1495,德阳市,市林业局,细颗粒物(PM2.5),199,155,136,149,126,0,,,,60,60,3,4,0.8,0.9
2026-01-18T0600,1622A,116.3034,37.4675,德州市,儿童乐园,,29,29,37,14,16,36,,,,23,18,11,12,0.7,0.7
2026-01-18T0600,1624A,116.2992,37.4449,德州市,监理站,,17,17,27,3,13,46,,,,22,19,10,11,0.6,0.6
2026-01-18T0600,3066A,116.2722,37.438,德州市,九衢泉纯净水厂,,25,24,34,17,17,40,,,,24,17,6,7,0.6,0.6
2026-01-18T0600,3371A,116.3693,37.44,德州市,开发区人民医院,,31,31,33,17,15,37,,,,34,24,13,13,0.5,0.5
2026-01-18T0600,3511A,116.5687,37.3331,德州市,陵城艺术中心,,27,27,36,12,15,35,,,,23,20,18,16,0.4,0.5
2026-01-18T0600,4292A,116.352738,37.420875,德州市,新河东路,,34,34,36,17,17,41,,,,21,18,13,13,0.8,0.7
2026-01-18T0600,2621A,99.7054,27.8319,迪庆藏族自治州,迪庆州站,,27,27,27,15,22,45,,,,7,11,4,5,0.4,0.4
2026-01-18T0600,3180A,99.7122,27.8129,迪庆藏族自治州,质量技术监督局,,20,20,28,9,19,52,,,,7,12,4,4,0.3,0.5
2026-01-18T0600,4257A,104.6092,35.5962,定西市,将台街,颗粒物(PM10),92,133,103,34,41,65,,,,14,22,14,15,0.4,0.6
2026-01-18T0600,4309A,104.6159,35.5701,定西市,正龙路62号,颗粒物(PM10),87,124,115,21,39,73,,,,4,11,6,13,0.6,0.8
2026-01-18T0600,1390A,113.7943,23.0132,东莞市,东城石井,细颗粒物(PM2.5),73,88,85,53,50,4,,,,88,49,7,8,0.7,0.6
2026-01-18T0600,1391A,113.7384,22.9659,东莞市,南城西平,颗粒物(PM10),76,102,93,48,54,0,,,,113,80,8,8,0.9,0.8
2026-01-18T0600,3319A,113.7283,23.041,东莞市,万江金泰,细颗粒物(PM2.5),109,133,117,82,72,14,,,,97,70,8,8,1.2,1.2
2026-01-18T0600,4129A,113.8666,23.1062,东莞市,裕兴路,细颗粒物(PM2.5),94,131,126,70,60,14,,,,70,63,7,9,0.9,0.9
2026-01-18T0600,4130A,114.0076,22.9739,东莞市,教育路1号,细颗粒物(PM2.5),115,170,116,87,58,5,,,,104,70,8,8,0.9,0.8
2026-01-18T0600,4131A,113.7981,22.8124,东莞市,长怡路1号,颗粒物(PM10),57,63,101,28,52,29,,,,74,75,6,7,0.8,0.9
2026-01-18T0600,1666A,118.6612,37.4313,东营市,市环保局,,34,34,25,19,10,54,,,,21,20,6,8,0.5,0.5
2026-01-18T0600,3036A,118.6903,37.4337,东营市,开发区管委会,,42,33,28,29,11,54,,,,13,11,6,8,0.3,0.2
2026-01-18T0600,3365A,118.5721,37.5654,东营市,垦利区民丰路,,27,27,23,14,9,56,,,,13,13,7,5,0.1,0.1
2026-01-18T0600,3498A,118.5063,37.8606,东营市,河口城区,,39,39,23,12,8,57,,,,18,15,4,4,0.7,0.7
2026-01-18T0600,3646A,118.4979,37.4623,东营市,胜利站,,34,34,28,22,12,48,,,,18,17,10,11,0.4,0.4
2026-01-18T0600,3734A,118.5753,37.4405,东营市,理想之城,,36,36,26,24,15,42,,,,16,17,3,4,0.5,0.4
2026-01-18T0600,1591A,110.0024,39.8127,鄂尔多斯市,综合楼,颗粒物(PM10),102,153,153,12,27,44,,,,12,33,6,12,0.2,0.5
2026-01-18T0600,1592A,109.9485,39.8259,鄂尔多斯市,巴音孟克林场办事处,颗粒物(PM10),95,139,127,12,25,44,,,,17,29,6,11,0.3,0.5
2026-01-18T0600,1593A,109.7734,39.5987,鄂尔多斯市,康泽苑,颗粒物(PM10),67,83,108,12,30,62,,,,7,29,6,9,0.3,0.6
2026-01-18T0600,1594A,109.8121,39.5987,鄂尔多斯市,华泰汽车城,颗粒物(PM10),68,85,112,17,29,57,,,,7,31,5,9,0.2,0.4
2026-01-18T0600,1595A,109.9734,39.7884,鄂尔多斯市,奥林花园,颗粒物(PM10),98,146,134,14,25,36,,,,22,32,4,9,0.4,0.7
2026-01-18T0600,2436A,114.894,30.3989,鄂州市,市政府,细颗粒物(PM2.5),178,160,162,134,137,17,,,,44,36,5,6,0.8,0.7
2026-01-18T0600,2437A,114.8986,30.3714,鄂州市,赵家坝,细颗粒物(PM2.5),170,154,178,129,134,53,,,,19,29,8,10,1.1,1.2
2026-01-18T0600,3654A,114.8093,30.4091,鄂州市,精准医疗中心,细颗粒物(PM2.5),190,213,174,143,140,3,,,,39,37,6,13,1.0,1.4
2026-01-18T0600,2454A,109.4978,30.2979,恩施土家族苗族自治州,湖北民院,细颗粒物(PM2.5),205,,128,155,138,3,,,,22,26,6,6,1.3,1.4
2026-01-18T0600,3549A,109.5061,30.3771,恩施土家族苗族自治州,龙凤新区,细颗粒物(PM2.5),200,160,140,150,123,0,,,,16,22,7,7,1.1,1.1
2026-01-18T0600,2499A,108.3411,21.6159,防城港市,沙万,,49,37,66,34,43,21,,,,18,37,7,9,0.8,1
2026-01-18T0600,2500A,108.3515,21.7733,防城港市,防城档案局,颗粒物(PM10),55,60,55,30,39,1,,,,18,17,4,7,0.7,0.7
2026-01-18T0600,2501A,108.3506,21.6414,防城港市,大海花园,细颗粒物(PM2.5),62,45,63,44,47,27,,,,13,30,8,14,0.6,0.8
2026-01-18T0600,1371A,113.1293,23.0065,佛山市,湾梁,颗粒物(PM10),67,83,120,39,53,0,,,,112,92,/,/,/,/
2026-01-18T0600,1372A,113.1082,23.0477,佛山市,华材职中,细颗粒物(PM2.5),125,122,167,95,96,11,,,,116,109,6,8,1.1,1
2026-01-18T0600,1373A,113.1439,23.045,佛山市,南海气象局,细颗粒物(PM2.5),69,,108,50,66,32,,,,65,93,/,/,/,/
2026-01-18T0600,1374A,113.2879,22.8094,佛山市,顺德苏岗,颗粒物(PM10),53,55,82,29,54,13,,,,63,62,/,/,0.8,1
2026-01-18T0600,1376A,112.8384,22.8678,佛山市,高明孔堂,细颗粒物(PM2.5),92,72,90,68,71,44,,,,46,46,/,/,/,/
2026-01-18T0600,1377A,112.8835,23.1584,佛山市,三水监测站,细颗粒物(PM2.5),195,268,272,146,150,2,,,,120,142,8,9,1.3,1.3
2026-01-18T0600,1378A,112.8668,23.185,佛山市,三水云东海,细颗粒物(PM2.5),237,210,208,187,163,2,,,,92,101,/,/,/,/
2026-01-18T0600,3625A,113.2568,22.7629,佛山市,容桂街道办,"颗粒物(PM10),细颗粒物(PM2.5)",58,66,102,41,67,24,,,,76,63,/,/,/,/
2026-01-18T0600,1282A,119.2681,26.0506,福州市,师大,,39,36,52,27,33,67,,,,26,30,3,5,0.6,0.6
2026-01-18T0600,1283A,119.2983,26.1028,福州市,五四北路,,43,36,49,30,35,60,,,,25,27,5,6,0.7,0.7
2026-01-18T0600,1284A,119.2648,26.0769,福州市,杨桥西路,,40,37,48,28,35,58,,,,20,20,4,6,/,/
2026-01-18T0600,3048A,119.5799,26.0937,福州市,九龙,,30,30,39,16,26,79,,,,21,22,5,6,0.7,0.7
2026-01-18T0600,3526A,119.5188,25.9666,福州市,吴航,,28,28,41,18,25,70,,,,21,21,5,5,0.6,0.6
2026-01-18T0600,4104A,119.3106,26.0648,福州市,路通桥巷6号,,43,42,55,30,36,70,,,,16,23,/,/,/,/
2026-01-18T0600,1755A,123.7974,41.8494,抚顺市,望花区,细颗粒物(PM2.5),65,56,69,47,49,7,,,,50,38,1,3,1.0,1.2
2026-01-18T0600,1756A,123.9161,41.8827,抚顺市,顺城区,颗粒物(PM10),54,58,64,36,43,7,,,,56,43,7,8,1.0,1.1
2026-01-18T0600,1757A,124.0437,41.8615,抚顺市,东洲区,颗粒物(PM10),55,59,70,34,48,24,,,,27,24,12,8,0.9,1
2026-01-18T0600,1758A,123.9246,41.8638,抚顺市,新抚区,细颗粒物(PM2.5),63,65,80,45,55,7,,,,54,47,8,7,0.9,1.1
2026-01-18T0600,1759A,124.0972,41.8961,抚顺市,大伙房水库,,42,42,45,14,33,23,,,,26,18,9,9,0.8,0.9
2026-01-18T0600,1760A,123.708,41.8386,抚顺市,沈抚新城,细颗粒物(PM2.5),63,53,62,45,53,5,,,,53,38,6,8,2.5,2.8
2026-01-18T0600,2377A,116.3544,27.9833,抚州市,市站,细颗粒物(PM2.5),183,172,125,138,86,31,,,,22,19,8,9,1.6,1.2
2026-01-18T0600,2378A,116.3562,27.9631,抚州市,血防站,细颗粒物(PM2.5),176,169,108,133,80,27,,,,24,21,5,8,2.1,1.7
2026-01-18T0600,2379A,116.3561,28.0007,抚州市,采茶剧团,细颗粒物(PM2.5),196,174,112,147,90,32,,,,15,15,4,6,1.8,1.5
2026-01-18T0600,2380A,116.3854,27.9648,抚州市,医学分院,细颗粒物(PM2.5),162,186,120,123,77,20,,,,19,13,6,11,1.4,1.1
2026-01-18T0600,2207A,121.6095,41.9978,阜新市,工业园区,,22,22,37,11,25,53,,,,10,19,10,11,0.9,0.6
2026-01-18T0600,2208A,121.6567,42.0188,阜新市,长青街,,18,9,25,7,22,57,,,,8,16,8,10,0.4,0.6
2026-01-18T0600,2209A,121.6672,42.07,阜新市,农业园区,,17,16,29,8,17,52,,,,13,15,11,10,1.2,0.6
2026-01-18T0600,2211A,121.6343,42.0455,阜新市,玉龙新城,,17,17,38,7,22,47,,,,12,26,6,8,0.5,0.6
2026-01-18T0600,2301A,115.8276,32.8929,阜阳市,市监测站,颗粒物(PM10),69,88,150,28,70,40,,,,15,24,4,4,0.3,0.6
2026-01-18T0600,2303A,115.8551,32.8606,阜阳市,开发区,颗粒物(PM10),75,99,155,26,64,39,,,,16,22,4,4,0.3,0.5
2026-01-18T0600,2875A,115.783962,32.889217,阜阳市,阜阳职业技术学院,颗粒物(PM10),72,94,149,21,63,44,,,,8,16,6,6,0.4,0.6
2026-01-18T0600,3468A,115.79,32.8614,阜阳市,市规划展馆,颗粒物(PM10),61,72,161,28,69,44,,,,12,19,5,5,0.5,0.7
2026-01-18T0600,3469A,115.835101,32.918568,阜阳市,枣园社区,颗粒物(PM10),64,78,151,29,67,42,,,,14,23,4,4,0.5,0.7
2026-01-18T0600,2669A,102.9097,34.9841,甘南藏族自治州,州政府,,43,36,57,30,32,2,,,,36,34,13,14,1.3,1.2
2026-01-18T0600,3380A,102.8915,34.9618,甘南藏族自治州,甘肃民族师范学院,颗粒物(PM10),62,73,62,20,18,5,,,,44,36,9,12,0.3,0.4
2026-01-18T0600,2570A,101.96,30.048,甘孜藏族自治州,水桥子,,14,,21,6,7,43,,,,18,26,6,6,0.3,0.4
2026-01-18T0600,3065A,101.9534,29.9976,甘孜藏族自治州,州环保局,,22,,18,8,5,69,,,,5,9,6,6,0.2,0.4
2026-01-18T0600,2363A,114.9368,25.8663,赣州市,地委,细颗粒物(PM2.5),62,56,65,44,49,16,,,,21,32,6,10,1.0,1
2026-01-18T0600,2364A,114.946,25.8483,赣州市,气象台,颗粒物(PM10),63,76,76,42,44,18,,,,37,48,3,6,0.6,0.6
2026-01-18T0600,2365A,114.932,25.8332,赣州市,市图书馆,颗粒物(PM10),56,62,73,39,48,18,,,,36,38,3,7,0.9,1
2026-01-18T0600,2366A,114.8905,25.8472,赣州市,华坚鞋城,细颗粒物(PM2.5),75,87,78,55,50,19,,,,44,40,15,12,0.5,0.6
2026-01-18T0600,3109A,115.0094,25.8614,赣州市,赣县区卫计委,细颗粒物(PM2.5),73,,64,53,51,2,,,,28,32,7,7,0.7,0.8
2026-01-18T0600,2684A,106.2753,36.0057,固原市,监测站,颗粒物(PM10),104,158,159,40,41,58,,,,10,11,4,5,0.4,0.5
2026-01-18T0600,2685A,106.2384,36.0189,固原市,新区,颗粒物(PM10),91,132,135,26,30,57,,,,5,7,3,2,0.4,0.4
2026-01-18T0600,2544A,106.6307,30.4577,广安市,市委,细颗粒物(PM2.5),235,,153,185,152,26,,,,27,22,9,10,1.2,1.2
2026-01-18T0600,2545A,106.6266,30.4662,广安市,友谊中学,细颗粒物(PM2.5),182,138,148,137,138,13,,,,20,21,6,7,1.4,1.5
2026-01-18T0600,2547A,106.6386,30.4551,广安市,广电花园,细颗粒物(PM2.5),208,,131,158,144,10,,,,20,21,8,9,1.0,1
2026-01-18T0600,2902A,106.6347,30.4868,广安市,北辰小学,细颗粒物(PM2.5),168,132,147,127,143,12,,,,14,17,8,8,1.2,1.2
2026-01-18T0600,2524A,105.8211,32.4444,广元市,老城,细颗粒物(PM2.5),102,84,92,76,76,4,,,,44,50,1,5,0.9,1
2026-01-18T0600,2526A,105.8629,32.429,广元市,监测站,细颗粒物(PM2.5),115,91,89,87,74,4,,,,29,33,7,8,1.1,1.1
2026-01-18T0600,3617A,105.8047,32.4167,广元市,经开区,细颗粒物(PM2.5),169,131,124,128,103,1,,,,42,46,4,19,1.2,1.4
2026-01-18T0600,1345A,113.2346,23.1423,广州市,广雅中学,细颗粒物(PM2.5),103,125,146,77,86,0,,,,134,119,3,5,0.6,0.8
2026-01-18T0600,1346A,113.2611,23.105,广州市,市五中,细颗粒物(PM2.5),73,70,96,53,60,3,,,,95,96,6,9,/,/
2026-01-18T0600,1348A,113.3477,23.0916,广州市,广东商学院,细颗粒物(PM2.5),103,114,110,77,75,0,,,,136,116,6,8,1.0,0.9
2026-01-18T0600,1349A,113.4332,23.105,广州市,市八十六中,细颗粒物(PM2.5),93,110,104,69,64,0,,,,129,127,8,10,/,/
2026-01-18T0600,1350A,113.3506,22.9488,广州市,番禺中学,颗粒物(PM10),57,64,94,39,52,3,,,,101,82,3,6,1.0,1.1
2026-01-18T0600,1351A,113.2147,23.3918,广州市,花都师范,细颗粒物(PM2.5),108,126,135,81,78,8,,,,132,122,6,8,1.0,1
2026-01-18T0600,1352A,113.2599,23.1329,广州市,市监测站,细颗粒物(PM2.5),93,115,129,69,69,1,,,,143,115,2,4,/,/
2026-01-18T0600,1353A,113.5618,23.3119,广州市,九龙镇镇龙,细颗粒物(PM2.5),90,93,110,67,67,0,,,,66,70,4,5,0.7,0.7
2026-01-18T0600,1354A,113.2764,23.1544,广州市,麓湖,细颗粒物(PM2.5),84,86,102,62,66,1,,,,127,117,9,10,0.7,0.7
2026-01-18T0600,2846A,113.3209,23.1323,广州市,体育西,细颗粒物(PM2.5),93,111,123,69,72,0,,,,129,116,6,7,1.0,1.1
2026-01-18T0600,3298A,113.5718,23.5493,广州市,从化街口,细颗粒物(PM2.5),95,102,122,71,78,0,,,,60,68,8,10,1.0,1.1
2026-01-18T0600,3299A,113.3463,23.369,广州市,白云竹料,细颗粒物(PM2.5),112,126,143,84,86,2,,,,84,91,2,5,1.0,1.1
2026-01-18T0600,3300A,113.2981,23.2365,广州市,白云嘉禾,细颗粒物(PM2.5),79,93,133,58,76,8,,,,88,114,6,7,/,/
2026-01-18T0600,3301A,113.4256,23.1716,广州市,黄埔科学城,细颗粒物(PM2.5),88,96,96,65,59,5,,,,78,82,4,5,0.9,0.9
2026-01-18T0600,3302A,113.3942,23.0485,广州市,番禺大学城,颗粒物(PM10),90,130,124,62,58,1,,,,149,92,10,11,0.8,0.7
2026-01-18T0600,3303A,113.4923,22.8169,广州市,南沙黄阁,颗粒物(PM10),60,70,81,38,43,15,,,,94,79,7,8,/,/
2026-01-18T0600,3304A,113.534,22.7893,广州市,南沙街,颗粒物(PM10),60,69,79,40,40,27,,,,65,56,5,6,0.6,0.6
2026-01-18T0600,3443A,113.2905,23.5541,广州市,花都梯面,细颗粒物(PM2.5),69,78,100,50,58,1,,,,56,69,4,6,/,/
2026-01-18T0600,3445A,113.786,23.7479,广州市,从化良口,,49,48,54,34,44,48,,,,25,25,7,8,/,/
2026-01-18T0600,3446A,113.805,23.2614,广州市,增城荔城,细颗粒物(PM2.5),82,76,85,60,59,71,,,,24,34,8,7,0.6,0.7
2026-01-18T0600,2506A,109.604387,23.066791,贵港市,江南子站,细颗粒物(PM2.5),140,168,163,107,96,2,,,,44,42,9,12,1.3,1.3
2026-01-18T0600,2508A,109.5669,23.1065,贵港市,荷城子站,细颗粒物(PM2.5),149,158,138,114,102,3,,,,53,52,9,10,1.5,1.4
2026-01-18T0600,3405A,109.5886,23.1172,贵港市,新世纪学校,细颗粒物(PM2.5),119,112,134,90,99,16,,,,25,36,/,/,0.9,0.9
2026-01-18T0600,4260A,109.5933,23.095,贵港市,中山路155-3号,细颗粒物(PM2.5),147,169,155,112,102,3,,,,58,46,/,/,1.2,1.1
2026-01-18T0600,1439A,106.6863,26.6035,贵阳市,马鞍山,细颗粒物(PM2.5),70,56,88,51,78,68,,,,10,21,7,10,/,/
2026-01-18T0600,1441A,106.6241,26.6266,贵阳市,鉴湖路,细颗粒物(PM2.5),70,63,93,51,70,66,,,,10,24,7,10,0.6,0.7
2026-01-18T0600,1442A,106.7468,26.6344,贵阳市,燕子冲,细颗粒物(PM2.5),73,63,91,53,82,68,,,,12,22,9,12,0.6,0.9
2026-01-18T0600,1443A,106.6556,26.4362,贵阳市,碧云窝,细颗粒物(PM2.5),67,63,96,48,71,48,,,,11,19,7,9,/,/
2026-01-18T0600,1445A,106.6963,26.6063,贵阳市,红边门,细颗粒物(PM2.5),67,56,99,48,82,63,,,,9,29,8,16,/,/
2026-01-18T0600,1446A,106.7162383,26.56964667,贵阳市,新华路,细颗粒物(PM2.5),67,68,105,48,77,59,,,,14,30,9,16,0.6,0.8
2026-01-18T0600,1447A,106.6742,26.542,贵阳市,太慈桥,细颗粒物(PM2.5),64,58,91,46,71,57,,,,13,27,4,8,/,/
2026-01-18T0600,4230A,106.688212,26.56952,贵阳市,花果园大街66号,细颗粒物(PM2.5),84,,90,62,96,59,,,,13,28,4,11,/,/
2026-01-18T0600,4231A,106.687268,26.516892,贵阳市,漓江路57号,细颗粒物(PM2.5),67,61,100,48,81,63,,,,13,27,10,23,0.5,0.8
2026-01-18T0600,1864A,110.3091,25.2705,桂林市,龙隐路小学,细颗粒物(PM2.5),100,87,87,75,74,28,,,,17,19,6,7,0.7,0.7
2026-01-18T0600,1865A,110.2849361,25.22909545,桂林市,八中,细颗粒物(PM2.5),108,94,96,81,79,20,,,,29,29,10,8,0.9,0.9
2026-01-18T0600,3531A,110.296,25.1254,桂林市,旅游学院,细颗粒物(PM2.5),79,80,79,58,66,0,,,,36,27,5,5,0.5,0.5
2026-01-18T0600,4222A,110.1835,25.2444,桂林市,环湖路276号,细颗粒物(PM2.5),122,107,109,92,90,2,,,,44,30,28,13,0.9,0.8
2026-01-18T0600,4301A,110.2803,25.2773,桂林市,信义路13号,细颗粒物(PM2.5),102,93,90,76,71,35,,,,21,22,6,7,1.4,1.4
2026-01-18T0600,2674A,100.2262,34.4854,果洛藏族自治州,玛沁县大武镇,颗粒物(PM10),58,66,83,12,15,50,,,,2,5,18,15,0.4,0.5
2026-01-18T0600,1130A,126.5557,45.8109,哈尔滨市,松北商大,细颗粒物(PM2.5),82,76,49,60,36,16,,,,44,30,7,8,0.8,0.6
2026-01-18T0600,1132A,126.6162,45.719,哈尔滨市,南岗学府路,细颗粒物(PM2.5),82,78,59,60,43,9,,,,49,32,9,10,0.7,0.7
2026-01-18T0600,1133A,126.6894,45.7733,哈尔滨市,太平宏伟公园,细颗粒物(PM2.5),64,70,50,46,35,27,,,,34,28,10,13,0.9,0.8
2026-01-18T0600,1134A,126.6361,45.7672,哈尔滨市,道外承德广场,颗粒物(PM10),74,97,65,47,30,10,,,,57,35,14,14,0.9,0.7
2026-01-18T0600,1136A,126.644,45.7261,哈尔滨市,动力和平路,颗粒物(PM10),64,77,53,42,38,16,,,,42,34,9,14,1.2,0.7
2026-01-18T0600,1137A,126.5933,45.7479,哈尔滨市,道里建国路,细颗粒物(PM2.5),83,75,50,61,41,7,,,,58,33,16,13,1.4,0.6
2026-01-18T0600,1138A,126.6127,45.6119,哈尔滨市,平房东轻厂,细颗粒物(PM2.5),54,53,53,38,41,36,,,,22,26,7,6,1.1,0.9
2026-01-18T0600,1139A,126.5875,45.9827,哈尔滨市,呼兰师专,细颗粒物(PM2.5),113,99,56,85,53,6,,,,55,34,,10,1.2,0.7
2026-01-18T0600,1140A,126.6299,45.6799,哈尔滨市,省农科院,细颗粒物(PM2.5),80,77,63,59,50,8,,,,56,51,9,12,0.9,0.7
2026-01-18T0600,4282A,126.6769,45.7379,哈尔滨市,华山路1号,细颗粒物(PM2.5),60,61,53,43,35,29,,,,33,37,12,17,0.8,0.8
2026-01-18T0600,4283A,126.9717,45.5356,哈尔滨市,解放大街52号,细颗粒物(PM2.5),60,55,74,43,66,41,,,,18,24,10,15,0.7,1
2026-01-18T0600,2688A,93.5124,42.8176,哈密市,地区监测站,,23,23,62,8,23,62,,,,6,12,3,3,0.0,0
2026-01-18T0600,2689A,93.5014,42.8312,哈密市,哈密师范学校,,20,20,62,3,16,60,,,,6,14,3,2,0.1,0.2
2026-01-18T0600,2671A,100.9016,36.9464,海北藏族自治州,海晏县西海镇,,28,28,30,9,11,41,,,,2,3,3,6,0.4,0.3
2026-01-18T0600,3867A,102.074,36.5056,海东市,平安区公安局北苑,颗粒物(PM10),72,94,76,25,26,62,,,,7,27,27,24,0.6,1.2
2026-01-18T0600,4163A,102.0984,36.5119,海东市,滨河路,颗粒物(PM10),82,114,83,33,31,65,,,,20,38,36,25,0.7,1.2
2026-01-18T0600,1410A,110.3189,20.0596,海口市,海南大学,颗粒物(PM10),51,52,38,35,26,108,,,,12,10,6,6,0.3,0.3
2026-01-18T0600,1411A,110.2827,20.0051,海口市,秀英海南医院,细颗粒物(PM2.5),57,42,38,40,27,60,,,,30,16,7,8,0.5,0.4
2026-01-18T0600,1412A,110.3391,19.9979,海口市,海南师范大学,,42,39,36,29,28,123,,,,11,14,6,6,0.7,0.7
2026-01-18T0600,1413A,110.3303,20.0359,海口市,龙华路环保局宿舍,,50,46,40,35,27,111,,,,10,11,/,/,0.8,0.8
2026-01-18T0600,3539A,110.5111,19.9737,海口市,桂林洋子站,细颗粒物(PM2.5),60,61,43,43,30,54,,,,18,14,/,/,/,/
2026-01-18T0600,4134A,110.1952,20.0451,海口市,长滨二路9号,细颗粒物(PM2.5),65,54,37,47,31,53,,,,29,13,/,/,/,/
2026-01-18T0600,2673A,100.6158,36.2985,海南藏族自治州,共和县恰卜恰镇,,47,47,46,16,24,24,,,,18,24,10,12,0.6,0.7
2026-01-18T0600,2676A,97.373,37.376,海西蒙古族藏族自治州,德令哈市,,27,27,31,8,9,64,,,,4,10,11,12,0.6,0.7
2026-01-18T0600,1049A,114.492,36.5712,邯郸市,矿院,细颗粒物(PM2.5),62,51,60,44,52,28,,,,20,21,3,2,0.4,0.5
2026-01-18T0600,1050A,114.4839,36.6136,邯郸市,丛台公园,细颗粒物(PM2.5),55,40,63,39,48,29,,,,22,22,3,3,0.5,0.5
2026-01-18T0600,3458A,114.7893,36.5592,邯郸市,香泉濮院小区,颗粒物(PM10),54,58,66,29,50,38,,,,15,21,2,2,0.4,0.4
2026-01-18T0600,3580A,114.1998,36.4439,邯郸市,峰峰矿区临水派出所,细颗粒物(PM2.5),77,,54,56,58,28,,,,18,17,3,12,0.6,0.6
2026-01-18T0600,4068A,114.5209,36.7697,邯郸市,建安街268号,,50,41,61,35,44,27,,,,11,16,1,2,0.4,0.3
2026-01-18T0600,4069A,114.5488,36.6177,邯郸市,丛台东路558号,细颗粒物(PM2.5),52,47,54,36,44,28,,,,16,17,3,3,0.4,0.4
2026-01-18T0600,2635A,107.0155,33.0707,汉中市,市监测站,细颗粒物(PM2.5),178,148,132,134,111,,,,,41,45,5,6,1.5,1.4
2026-01-18T0600,2636A,107.0083,33.114,汉中市,鑫源开发区,细颗粒物(PM2.5),118,109,111,89,86,2,,,,46,44,6,8,1.2,1.1
2026-01-18T0600,2637A,107.0072,33.0323,汉中市,南郑大河坎水厂,细颗粒物(PM2.5),145,139,153,111,116,6,,,,28,39,4,5,1.2,1.4
2026-01-18T0600,1223A,120.2073,30.2111,杭州市,滨江,颗粒物(PM10),85,119,110,50,66,49,,,,24,33,6,6,0.5,0.6
2026-01-18T0600,1224A,120.0625,30.2737,杭州市,西溪,颗粒物(PM10),80,110,121,37,59,51,,,,19,40,8,8,1.0,1
2026-01-18T0600,1226A,120.3417,30.315,杭州市,下沙,颗粒物(PM10),64,78,103,38,64,50,,,,27,29,7,7,0.6,0.8
2026-01-18T0600,1227A,120.1252,30.2465,杭州市,卧龙桥,颗粒物(PM10),83,115,104,52,64,55,,,,26,33,8,8,0.4,0.5
2026-01-18T0600,1228A,120.1902,30.2691,杭州市,浙江农大,颗粒物(PM10),66,82,88,36,54,49,,,,31,32,4,5,0.6,0.7
2026-01-18T0600,1230A,120.1195,30.3121,杭州市,和睦小学,颗粒物(PM10),82,113,132,44,67,61,,,,16,34,4,4,0.7,0.9
2026-01-18T0600,1231A,120.3076,30.4146,杭州市,临平镇,颗粒物(PM10),57,64,101,27,61,59,,,,15,19,6,6,0.5,0.7
2026-01-18T0600,1232A,120.2753,30.1839,杭州市,城厢镇,颗粒物(PM10),81,111,123,54,75,42,,,,32,36,8,8,0.6,0.6
2026-01-18T0600,1233A,120.0883,30.1808,杭州市,云栖,颗粒物(PM10),97,144,121,68,74,54,,,,24,35,4,4,0.8,0.8
2026-01-18T0600,3557A,119.9463,30.0496,杭州市,镇二中,颗粒物(PM10),85,119,109,61,79,55,,,,24,40,5,5,0.8,0.9
2026-01-18T0600,3558A,119.7184,30.2367,杭州市,市府大楼,细颗粒物(PM2.5),112,158,156,84,86,12,,,,32,37,10,10,1.1,1.2
2026-01-18T0600,3656A,120.1554,30.2863,杭州市,消防大队,颗粒物(PM10),76,101,120,50,79,54,,,,20,31,6,6,0.6,0.8
2026-01-18T0600,1270A,117.1957,31.7845,合肥市,明珠广场,细颗粒物(PM2.5),107,124,177,80,110,7,,,,46,44,6,5,1.1,1.1
2026-01-18T0600,1271A,117.307,31.8765,合肥市,三里街,细颗粒物(PM2.5),92,114,161,68,99,10,,,,45,38,5,5,1.0,1
2026-01-18T0600,1272A,117.2587,31.8703,合肥市,琥珀山庄,,,,181,,116,,,64,,,32,,6,,0.9
2026-01-18T0600,1275A,117.2593,31.9376,合肥市,庐阳区,颗粒物(PM10),78,105,172,53,90,19,,,,37,41,5,4,0.9,1
2026-01-18T0600,1276A,117.345251,31.861615,合肥市,瑶海区,细颗粒物(PM2.5),92,117,169,68,98,17,,,,41,43,5,5,0.9,1
2026-01-18T0600,1277A,117.3033,31.7967,合肥市,包河区,细颗粒物(PM2.5),113,127,172,85,110,5,,,,61,62,9,8,1.2,1.2
2026-01-18T0600,1278A,117.278,31.7392,合肥市,滨湖新区,细颗粒物(PM2.5),128,139,183,97,122,4,,,,56,36,5,4,1.0,1
2026-01-18T0600,1279A,117.1324,31.8395,合肥市,高新区,细颗粒物(PM2.5),93,114,169,69,107,15,,,,36,40,4,4,0.9,1
2026-01-18T0600,3464A,117.3802,31.9148,合肥市,高教基地,细颗粒物(PM2.5),80,107,157,59,96,19,,,,30,27,8,8,0.9,0.9
2026-01-18T0600,4098A,117.2518,31.8404,合肥市,中国科学技术大学,细颗粒物(PM2.5),93,119,169,69,102,13,,,,42,37,7,7,1.0,1.1
2026-01-18T0600,3614A,79.9241,37.0878,和田地区,地区环保局,颗粒物(PM10),180,310,311,50,60,57,,,,8,25,1,5,0.3,0.5
2026-01-18T0600,3615A,79.9132,37.1137,和田地区,市环保局,颗粒物(PM10),188,326,301,43,56,56,,,,9,20,1,4,3.0,1
2026-01-18T0600,2517A,108.0496,24.6957,河池市,市环保站,细颗粒物(PM2.5),87,79,93,64,70,2,,,,29,29,2,3,0.8,0.9
2026-01-18T0600,4302A,108.0901,24.6945,河池市,上任中路54号,细颗粒物(PM2.5),104,85,98,78,76,1,,,,27,31,3,4,1.0,1
2026-01-18T0600,1697A,114.6962,23.7538,河源市,东埔,细颗粒物(PM2.5),53,52,67,37,45,12,,,,59,50,5,6,1.0,1.2
2026-01-18T0600,1698A,114.6895,23.7232,河源市,老城,,44,44,56,27,34,37,,,,32,31,6,7,0.6,0.7
2026-01-18T0600,3374A,115.5562,35.089,菏泽市,定陶老年大学,细颗粒物(PM2.5),62,,71,44,44,23,,,,20,22,1,2,0.3,0.4
2026-01-18T0600,4114A,115.4239,35.2593,菏泽市,黄河路600号,细颗粒物(PM2.5),87,74,82,64,53,28,,,,23,27,2,2,0.5,0.5
2026-01-18T0600,4115A,115.5025,35.2727,菏泽市,菏泽市人社局,细颗粒物(PM2.5),70,61,79,51,49,20,,,,13,17,1,3,0.3,0.3
2026-01-18T0600,4184A,115.479691,35.244011,菏泽市,永昌路1号,细颗粒物(PM2.5),78,63,80,57,53,26,,,,17,23,2,4,0.1,0.2
2026-01-18T0600,4193A,115.471542,35.280012,菏泽市,长城路999号,细颗粒物(PM2.5),70,68,80,51,50,26,,,,21,25,8,8,0.6,0.7
2026-01-18T0600,2514A,111.5264,24.4178,贺州市,环保小区,细颗粒物(PM2.5),69,55,83,50,63,12,,,,22,26,7,7,0.6,0.8
2026-01-18T0600,2515A,111.561,24.4074,贺州市,政协大楼,细颗粒物(PM2.5),62,59,79,44,53,1,,,,35,32,12,11,0.7,0.8
2026-01-18T0600,3534A,111.4744,24.455,贺州市,西湾,细颗粒物(PM2.5),68,64,84,49,60,8,,,,24,30,8,8,0.8,0.8
2026-01-18T0600,2385A,114.17,35.9019,鹤壁市,市监测站,细颗粒物(PM2.5),62,64,77,44,60,20,,,,22,22,1,4,0.6,0.8
2026-01-18T0600,2386A,114.2953,35.7512,鹤壁市,市交警支队,细颗粒物(PM2.5),63,63,80,45,51,17,,,,24,21,2,4,0.6,0.6
2026-01-18T0600,2387A,114.2877,35.7302,鹤壁市,迎宾馆,细颗粒物(PM2.5),78,69,76,57,55,19,,,,26,23,2,3,0.7,0.7
2026-01-18T0600,3474A,114.2616,35.6824,鹤壁市,大新区,细颗粒物(PM2.5),58,52,75,41,48,22,,,,25,23,4,4,0.7,0.8
2026-01-18T0600,3596A,114.1573,35.9607,鹤壁市,南山宾馆,细颗粒物(PM2.5),69,68,84,50,58,24,,,,21,19,2,4,0.6,0.7
2026-01-18T0600,2244A,130.2537,47.3416,鹤岗市,哈啤分公司,,28,26,32,19,28,64,,,,8,8,5,6,0.5,0.5
2026-01-18T0600,2245A,130.2683,47.3087,鹤岗市,斯达机电,,40,,33,28,29,61,,,,7,9,5,6,0.5,0.5
2026-01-18T0600,2246A,130.3114,47.3388,鹤岗市,东山纸板厂,,39,29,29,27,26,49,,,,13,11,15,7,1.3,0.6
2026-01-18T0600,2263A,127.4832,50.2524,黑河市,交通局,,20,19,19,14,18,51,,,,7,12,7,6,0.2,0.2
2026-01-18T0600,2264A,127.5146,50.2339,黑河市,环保局,,25,,19,17,18,23,,,,30,17,10,8,0.7,0.4
2026-01-18T0600,1074A,115.6839,37.754,衡水市,电机北厂,,35,35,42,10,23,36,,,,15,18,6,6,0.3,0.3
2026-01-18T0600,1075A,115.6303,37.7318,衡水市,市监测站,,33,33,40,22,20,38,,,,19,19,5,6,0.4,0.3
2026-01-18T0600,3188A,115.6684,37.7216,衡水市,市城管局,,30,29,43,21,25,44,,,,12,16,6,7,0.3,0.4
2026-01-18T0600,3459A,115.599,37.5491,衡水市,地表水厂,,25,22,38,17,21,49,,,,7,12,3,5,0.3,0.3
2026-01-18T0600,2457A,112.6209,26.9268,衡阳市,衡阳化工总厂,细颗粒物(PM2.5),98,,112,73,105,0,,,,27,20,7,12,1.1,1.1
2026-01-18T0600,2458A,112.621,26.8957,衡阳市,珠晖区环保局,细颗粒物(PM2.5),133,120,116,101,100,1,,,,33,28,4,8,1.3,1.2
2026-01-18T0600,2459A,112.628,26.8654,衡阳市,市委党校,细颗粒物(PM2.5),107,114,107,80,86,0,,,,34,20,7,10,1.4,1.3
2026-01-18T0600,2460A,112.6007,26.8977,衡阳市,市监测站,细颗粒物(PM2.5),97,128,122,72,84,3,,,,33,22,7,10,1.4,1.2
2026-01-18T0600,2461A,112.5658,26.9013,衡阳市,真空机电公司,细颗粒物(PM2.5),109,102,107,82,99,2,,,,33,25,6,10,1.4,1.4
2026-01-18T0600,3399A,112.6703,26.8817,衡阳市,师范学院,细颗粒物(PM2.5),112,146,117,84,89,0,,,,36,25,3,8,1.3,1.2
2026-01-18T0600,3038A,103.3757,23.3679,红河哈尼族彝族自治州,州图书馆,,40,38,37,28,25,40,,,,11,9,12,9,0.7,0.6
2026-01-18T0600,4154A,103.401,23.3561,红河哈尼族彝族自治州,蒙自市朝阳路,,43,34,27,30,26,43,,,,9,8,13,7,0.8,0.5
2026-01-18T0600,1090A,111.6506,40.7517,呼和浩特市,呼市一监,,24,24,67,8,20,67,,,,5,17,5,8,0.3,0.5
2026-01-18T0600,1094A,111.7516,40.8369,呼和浩特市,如意水处理厂,,24,24,53,8,23,63,,,,4,22,7,10,0.2,0.5
2026-01-18T0600,1095A,111.727798,40.806187,呼和浩特市,二十九中,,,32,55,8,21,63,,,,,17,10,13,0.4,0.6
2026-01-18T0600,1097A,111.717,40.7617,呼和浩特市,化肥厂生活区,,25,25,54,8,22,60,,,,6,20,4,7,0.2,0.5
2026-01-18T0600,3699A,111.6519,40.8389,呼和浩特市,海东办,,21,19,56,6,20,65,,,,5,21,3,7,0.3,0.5
2026-01-18T0600,4275A,111.591512,40.827312,呼和浩特市,成吉思汗西街8号,,44,44,90,6,19,56,,,,4,24,5,7,0.3,0.5
2026-01-18T0600,4276A,111.6597,40.8077,呼和浩特市,公园东路75号,,18,17,60,7,19,55,,,,7,23,4,7,0.3,0.5
2026-01-18T0600,4277A,111.5427,40.7846,呼和浩特市,金海路35号,,34,34,60,8,22,56,,,,6,28,8,11,0.5,0.7
2026-01-18T0600,3061A,119.7511,49.1576,呼伦贝尔市,国华电力东,,29,24,24,20,20,56,,,,12,15,6,7,0.3,0.3
2026-01-18T0600,4279A,119.7569,49.2222,呼伦贝尔市,伊敏大街东7号,,40,,29,28,23,55,,,,5,8,6,7,0.2,0.2
2026-01-18T0600,1250A,120.075,30.867,湖州市,城西水厂,颗粒物(PM10),62,74,108,43,88,59,,,,22,28,6,5,0.4,0.7
2026-01-18T0600,2873A,120.083,30.8929,湖州市,仁皇山新区,颗粒物(PM10),61,71,111,35,79,58,,,,31,36,5,5,0.6,0.9
2026-01-18T0600,2907A,120.1846,30.8592,湖州市,吴兴区站,颗粒物(PM10),56,62,110,26,68,56,,,,23,36,5,5,0.3,0.4
2026-01-18T0600,3562A,120.4146,30.8538,湖州市,南浔区站,颗粒物(PM10),54,57,102,31,68,47,,,,25,28,6,6,0.7,1
2026-01-18T0600,1607A,120.904878,40.721091,葫芦岛市,龙港区,细颗粒物(PM2.5),57,50,41,40,24,16,,,,40,27,25,30,1.1,0.6
2026-01-18T0600,1608A,120.8382,40.7521,葫芦岛市,化工街,,48,48,37,31,22,35,,,,21,25,23,22,0.6,0.5
2026-01-18T0600,1609A,120.8339,40.7078,葫芦岛市,新区,,48,48,33,32,21,40,,,,20,25,19,21,0.7,0.6
2026-01-18T0600,1610A,120.8697,40.7679,葫芦岛市,东城区,细颗粒物(PM2.5),52,47,37,36,27,35,,,,27,30,23,24,0.8,0.7
2026-01-18T0600,2483A,109.9297,27.5383,怀化市,河西地税局,细颗粒物(PM2.5),113,97,110,85,92,3,,,,20,30,1,4,/,/
2026-01-18T0600,2484A,109.9783,27.5342,怀化市,市四医院,细颗粒物(PM2.5),127,142,137,96,96,19,,,,32,32,13,7,1.0,1
2026-01-18T0600,2485A,109.9971,27.5579,怀化市,监测楼,细颗粒物(PM2.5),127,113,127,96,105,37,,,,24,35,4,5,0.4,0.5
2026-01-18T0600,1210A,119.0566,33.5991,淮安市,钵池山,,34,34,44,23,34,76,,,,8,13,6,6,0.2,0.2
2026-01-18T0600,1211A,119.0083,33.578,淮安市,北京南路,,39,39,48,19,26,72,,,,6,11,6,6,0.5,0.4
2026-01-18T0600,1212A,118.9938,33.6083,淮安市,市监测站,,29,29,39,14,19,74,,,,9,13,8,8,0.7,0.7
2026-01-18T0600,1213A,119.135,33.5038,淮安市,楚州区监测站,,32,32,42,19,18,71,,,,6,9,8,8,0.5,0.5
2026-01-18T0600,3426A,118.8757,33.2897,淮安市,新华书店,,32,32,58,21,25,65,,,,10,11,9,7,0.3,0.4
2026-01-18T0600,4092A,119.119691,33.550006,淮安市,枚皋中路89号,,40,40,49,16,16,79,,,,8,11,9,9,0.1,0.5
2026-01-18T0600,4206A,119.028838,33.631911,淮安市,承德北路606号,,36,36,50,21,31,77,,,,9,12,6,6,0.3,0.4
2026-01-18T0600,2282A,116.8005,33.9749,淮北市,监测站,颗粒物(PM10),58,66,80,30,35,52,,,,12,19,4,5,0.5,0.5
2026-01-18T0600,2283A,116.8094,33.9008,淮北市,烈山区政府,颗粒物(PM10),54,57,67,24,33,55,,,,9,14,4,5,0.2,0.4
2026-01-18T0600,4017A,116.7926,33.9534,淮北市,市博物馆,颗粒物(PM10),53,56,74,24,33,54,,,,16,22,3,4,0.6,0.7
2026-01-18T0600,4100A,116.8322,33.9884,淮北市,杜集区第一实验学校,颗粒物(PM10),63,75,80,27,34,52,,,,10,16,6,7,0.8,0.8
2026-01-18T0600,2277A,116.8304,32.7726,淮南市,潘集区政府,颗粒物(PM10),54,58,126,36,71,40,,,,14,21,4,5,0.5,0.8
2026-01-18T0600,2279A,116.8569,32.5949,淮南市,谢家集区政府,颗粒物(PM10),52,54,125,28,62,34,,,,20,26,7,7,0.5,0.7
2026-01-18T0600,2280A,116.8279,32.6333,淮南市,八公山区政府,颗粒物(PM10),57,64,138,27,66,34,,,,16,20,2,6,0.4,0.7
2026-01-18T0600,2894A,117.0561,32.6536,淮南市,经济技术开发区消防队,颗粒物(PM10),65,80,132,39,67,29,,,,28,28,4,4,0.6,0.8
2026-01-18T0600,3329A,117.011,32.5891,淮南市,山南新区,颗粒物(PM10),69,87,157,34,64,30,,,,26,25,2,2,0.6,0.8
2026-01-18T0600,4209A,117.003137,32.644456,淮南市,国庆中路369号,颗粒物(PM10),58,65,132,34,46,25,,,,22,24,10,9,0.5,0.8
2026-01-18T0600,2446A,114.9021,30.474,黄冈市,职工中心,细颗粒物(PM2.5),144,174,153,110,109,10,,,,29,28,6,7,1.2,1.1
2026-01-18T0600,2929A,114.8858,30.4519,黄冈市,红卫路,细颗粒物(PM2.5),158,168,146,120,115,12,,,,26,26,8,8,0.7,0.7
2026-01-18T0600,3398A,114.9134,30.4446,黄冈市,市林业局,细颗粒物(PM2.5),170,181,160,129,120,25,,,,34,33,3,4,1.1,1.1
2026-01-18T0600,2672A,102.02,35.5101,黄南藏族自治州,同仁县隆务镇,,39,39,43,12,19,38,,,,1,7,10,12,0.5,0.6
2026-01-18T0600,2295A,118.2905,29.6965,黄山市,延安路89号,细颗粒物(PM2.5),78,63,73,57,57,17,,,,17,27,4,5,0.7,0.8
2026-01-18T0600,2297A,118.1369,30.2755,黄山市,黄山区政府5号楼,颗粒物(PM10),86,122,154,62,111,11,,,,16,19,2,3,1.1,1
2026-01-18T0600,4210A,118.335445,29.720283,黄山市,滨江东路7-2号,细颗粒物(PM2.5),92,68,85,68,70,24,,,,15,26,/,/,/,/
2026-01-18T0600,2423A,115.0547,30.2332,黄石市,沈家营,细颗粒物(PM2.5),135,149,189,103,119,47,,,,32,39,6,6,1.8,1.7
2026-01-18T0600,2426A,114.899,30.211,黄石市,铁山,细颗粒物(PM2.5),170,,147,129,148,,,,,24,29,6,8,0.6,0.8
2026-01-18T0600,2427A,115.0259,30.2108,黄石市,团城山,细颗粒物(PM2.5),160,149,181,122,136,47,,,,29,35,7,7,1.4,1.2
2026-01-18T0600,3149A,115.0174,30.1591,黄石市,笔架山北路,细颗粒物(PM2.5),152,170,233,116,153,65,,,,19,30,8,10,1.4,1.5
2026-01-18T0600,4185A,115.078022,30.21118,黄石市,磁湖东路29号,细颗粒物(PM2.5),163,143,180,124,147,42,,,,40,33,10,11,1.9,1.6
2026-01-18T0600,1392A,114.4181,23.0528,惠州市,河南岸金山湖子站,颗粒物(PM10),67,83,76,46,43,25,,,,44,37,8,6,0.8,0.7
2026-01-18T0600,1393A,114.4055,23.0824,惠州市,下埔横江三路子站,细颗粒物(PM2.5),70,86,80,51,44,20,,,,59,48,9,9,0.8,0.9
2026-01-18T0600,1395A,114.4645,22.7832,惠州市,惠阳区承修路船湖子站,,49,49,58,25,31,88,,,,28,29,8,8,0.5,0.5
2026-01-18T0600,1396A,114.5316,22.7423,惠州市,大亚湾管委会子站,颗粒物(PM10),63,75,62,30,29,89,,,,29,34,7,7,0.6,0.6
2026-01-18T0600,3314A,114.4334,22.8134,惠州市,惠阳秋长,颗粒物(PM10),51,51,60,31,31,69,,,,37,34,/,/,/,/
2026-01-18T0600,3452A,114.6521,22.7755,惠州市,大亚湾霞涌,,40,40,51,20,30,112,,,,17,31,/,/,/,/
2026-01-18T0600,4300A,114.4089,23.1147,惠州市,文华一路1号,细颗粒物(PM2.5),79,97,81,58,46,15,,,,65,52,/,/,/,/
2026-01-18T0600,2240A,130.9618,45.2926,鸡西市,环保局,,26,23,29,18,20,51,,,,11,8,6,6,0.4,0.3
2026-01-18T0600,2243A,130.9294,45.2959,鸡西市,第一中学,,26,26,29,15,20,55,,,,10,8,4,4,0.5,0.5
2026-01-18T0600,3707A,131.0069,45.2988,鸡西市,欧美日汽修厂,细颗粒物(PM2.5),64,65,36,46,27,24,,,,34,13,20,9,0.8,0.4
2026-01-18T0600,2367A,114.9753,27.0803,吉安市,红声器材厂,细颗粒物(PM2.5),89,86,80,66,56,34,,,,14,20,8,12,1.0,0.9
2026-01-18T0600,2369A,114.9903,27.1313,吉安市,市环境监测站,细颗粒物(PM2.5),107,104,76,80,56,34,,,,32,24,11,16,/,/
2026-01-18T0600,2370A,115.009527,27.096792,吉安市,青原区法院,细颗粒物(PM2.5),112,107,78,84,60,13,,,,35,23,11,15,1.1,0.9
2026-01-18T0600,1772A,126.54,43.8622,吉林市,哈达湾,,49,44,39,34,27,36,,,,29,17,6,10,0.9,0.7
2026-01-18T0600,1773A,126.5843,43.8358,吉林市,东局子,,32,30,33,22,21,45,,,,17,15,3,4,1.0,0.9
2026-01-18T0600,1774A,126.5051,43.8243,吉林市,电力学院,,48,43,51,33,40,30,,,,31,26,10,11,1.0,1
2026-01-18T0600,1775A,126.6133,43.8971,吉林市,江北,细颗粒物(PM2.5),55,47,36,39,27,42,,,,19,14,6,8,1.2,0.9
2026-01-18T0600,1776A,126.5549,43.8304,吉林市,江南公园,,38,30,30,26,28,44,,,,17,14,6,7,0.7,0.7
2026-01-18T0600,2868A,126.4737,43.953,吉林市,九站,细颗粒物(PM2.5),53,52,37,37,30,12,,,,57,29,22,8,0.9,0.8
2026-01-18T0600,1299A,116.9866,36.6118,济南市,科干所,细颗粒物(PM2.5),59,66,62,42,32,8,,,,50,31,4,6,0.7,0.5
2026-01-18T0600,1300A,116.9379,36.6652,济南市,农科所,颗粒物(PM10),58,66,64,34,28,9,,,,48,42,5,9,0.8,0.7
2026-01-18T0600,1301A,117.1265,36.6736,济南市,开发区,细颗粒物(PM2.5),74,68,66,54,37,3,,,,53,40,3,5,0.8,0.7
2026-01-18T0600,1303A,117.0616,36.6865,济南市,省种子仓库,细颗粒物(PM2.5),70,78,70,51,33,11,,,,46,36,4,6,0.8,0.7
2026-01-18T0600,1304A,116.9495185,36.644937,济南市,机床二厂,细颗粒物(PM2.5),70,66,62,51,33,6,,,,50,40,3,6,0.6,0.5
2026-01-18T0600,1305A,117.0496,36.6629,济南市,市监测站,细颗粒物(PM2.5),70,71,66,51,32,8,,,,45,34,3,5,0.7,0.6
2026-01-18T0600,1306A,116.7674,36.5458,济南市,长清党校,细颗粒物(PM2.5),64,68,62,46,32,8,,,,43,36,5,8,0.7,0.6
2026-01-18T0600,1961A,117.5323,36.6865,济南市,东山小学,细颗粒物(PM2.5),77,98,70,56,34,13,,,,50,32,3,5,0.5,0.3
2026-01-18T0600,3059A,117.7181,36.205,济南市,泰兴公司,,49,34,49,34,34,40,,,,24,29,4,5,0.6,0.7
2026-01-18T0600,3064A,117.6861,36.2172,济南市,莱芜战役纪念馆,,50,,53,35,35,36,,,,25,26,13,11,0.6,0.6
2026-01-18T0600,3494A,117.1673,36.9782,济南市,济阳区政府,"颗粒物(PM10),细颗粒物(PM2.5)",55,59,53,39,24,26,,,,30,23,5,9,0.7,0.6
2026-01-18T0600,3495A,117.1168,36.6299,济南市,锦屏中学,"颗粒物(PM10),细颗粒物(PM2.5)",55,59,53,39,28,12,,,,46,30,2,4,0.9,0.7
2026-01-18T0600,4108A,117.7107,36.2385,济南市,山财大街5号,,32,22,38,22,24,44,,,,21,24,7,8,0.5,0.5
2026-01-18T0600,4109A,116.9744,36.6889,济南市,无影山路12号,细颗粒物(PM2.5),73,63,61,53,32,13,,,,39,34,4,9,0.8,0.7
2026-01-18T0600,1653A,116.6229,35.4288,济宁市,火炬城,,,51,59,51,38,,,,,21,22,2,3,0.5,0.4
2026-01-18T0600,3500A,116.5808,35.3703,济宁市,北湖一中,细颗粒物(PM2.5),72,,58,52,40,18,,,,26,23,4,5,0.6,0.5
2026-01-18T0600,3501A,116.8251,35.5592,济宁市,服务中心,细颗粒物(PM2.5),63,63,56,45,30,20,,,,26,25,7,8,0.7,0.7
2026-01-18T0600,3678A,116.5907,35.4054,济宁市,市第七中学,细颗粒物(PM2.5),62,,62,44,31,22,,,,24,23,5,6,0.6,0.5
2026-01-18T0600,4111A,116.6075,35.4566,济宁市,任和路,细颗粒物(PM2.5),79,72,68,58,34,19,,,,21,23,2,4,0.7,0.6
2026-01-18T0600,4112A,116.5648,35.3921,济宁市,文体南路1号,细颗粒物(PM2.5),69,55,63,50,32,17,,,,25,22,2,3,0.6,0.5
2026-01-18T0600,2255A,130.2749,46.8028,佳木斯市,佳纺,,42,42,47,22,35,36,,,,24,16,8,8,0.5,0.5
2026-01-18T0600,2257A,130.3258,46.7975,佳木斯市,环保局,,,41,45,37,35,,,,,21,18,10,10,0.4,0.4
2026-01-18T0600,4285A,130.363,46.806,佳木斯市,顺和街,,33,33,39,15,31,45,,,,15,17,12,12,0.3,0.4
2026-01-18T0600,4286A,130.3952,46.8268,佳木斯市,长安路196号,,,40,39,18,28,32,,,,33,15,,6,0.5,0.5
2026-01-18T0600,1252A,120.7439,30.778,嘉兴市,清河小学,颗粒物(PM10),51,52,90,27,61,56,,,,17,19,5,5,0.4,0.7
2026-01-18T0600,1253A,120.7261,30.7477,嘉兴市,嘉兴学院,颗粒物(PM10),52,53,95,23,53,48,,,,33,27,5,4,0.5,0.7
2026-01-18T0600,2872A,120.7845,30.7524,嘉兴市,南湖区残联,,39,39,70,21,52,52,,,,23,21,4,3,0.6,0.8
2026-01-18T0600,3407A,120.6915,30.7741,嘉兴市,秀洲住建,颗粒物(PM10),52,54,94,26,60,48,,,,27,24,6,6,0.5,0.7
2026-01-18T0600,1945A,98.291,39.7705,嘉峪关市,气象局,,27,27,45,7,15,77,,,,2,6,5,8,0.3,0.4
2026-01-18T0600,2884A,98.2672,39.7978,嘉峪关市,酒钢宾馆,,25,22,45,9,15,78,,,,1,10,12,17,0.7,1
2026-01-18T0600,3248A,98.2644,39.7723,嘉峪关市,雄关区,,38,38,36,11,21,76,,,,4,8,12,12,0.4,0.5
2026-01-18T0600,1383A,113.1063,22.6058,江门市,北街,细颗粒物(PM2.5),73,88,87,53,53,20,,,,61,45,/,/,/,/
2026-01-18T0600,1384A,113.073,22.5835,江门市,西区,颗粒物(PM10),69,88,92,46,45,0,,,,90,59,/,/,/,/
2026-01-18T0600,1385A,113.0218,22.531,江门市,圭峰西,,50,43,70,35,48,61,,,,22,36,/,/,/,/
2026-01-18T0600,1386A,113.0826,22.5947,江门市,东湖,细颗粒物(PM2.5),74,94,81,54,52,2,,,,85,50,8,11,0.9,0.8
2026-01-18T0600,3311A,113.1077,22.5647,江门市,江海富民,颗粒物(PM10),69,87,115,45,62,28,,,,65,64,/,/,0.8,0.8
2026-01-18T0600,3449A,113.0496,22.4669,江门市,新会银湖,细颗粒物(PM2.5),97,,87,72,66,5,,,,53,47,7,8,0.5,0.6
2026-01-18T0600,3335A,113.3137,35.2643,焦作市,马村街道办,细颗粒物(PM2.5),75,94,89,55,56,30,,,,21,21,5,8,0.7,0.6
2026-01-18T0600,3336A,113.2464,35.2374,焦作市,焦作技师学院,细颗粒物(PM2.5),85,88,84,63,55,26,,,,21,22,7,9,1.1,0.9
2026-01-18T0600,3477A,113.1656,35.2536,焦作市,中站许衡医院,细颗粒物(PM2.5),85,104,90,63,58,26,,,,24,25,3,6,1.0,0.8
2026-01-18T0600,3981A,113.2456,35.18,焦作市,原李万街道办,颗粒物(PM10),77,104,84,51,48,32,,,,17,20,3,5,0.6,0.5
2026-01-18T0600,4264A,113.234,35.219,焦作市,新安路1731号,细颗粒物(PM2.5),85,105,96,63,59,28,,,,19,19,5,6,0.7,0.6
2026-01-18T0600,4295A,113.2722,35.2121,焦作市,人民路3066号,,,81,90,56,51,28,,,,,22,9,6,1.2,0.8
2026-01-18T0600,1708A,116.3701,23.5345,揭阳市,新兴,细颗粒物(PM2.5),102,95,79,76,55,12,,,,68,48,8,12,0.9,0.8
2026-01-18T0600,1709A,116.3261,23.5442,揭阳市,西马,细颗粒物(PM2.5),97,109,93,72,56,11,,,,62,41,7,10,0.8,0.7
2026-01-18T0600,1710A,116.361,23.5627,揭阳市,东兴,细颗粒物(PM2.5),82,94,88,60,49,24,,,,53,48,12,13,/,/
2026-01-18T0600,1711A,116.4151,23.5295,揭阳市,渔湖,细颗粒物(PM2.5),87,96,78,64,46,2,,,,78,40,4,8,/,/
2026-01-18T0600,3320A,116.4028,23.5699,揭阳市,曲溪,颗粒物(PM10),76,102,88,53,49,34,,,,60,47,6,9,0.8,0.9
2026-01-18T0600,1944A,102.1691,38.5166,金昌市,天庆家园,,24,24,101,8,18,71,,,,6,8,3,5,0.4,0.5
2026-01-18T0600,4022A,102.1648,38.5369,金昌市,金川区人防中心,,35,35,103,11,21,71,,,,5,7,3,4,0.5,0.5
2026-01-18T0600,4239A,102.193042,38.531887,金昌市,长春路96号,,30,30,83,8,18,67,,,,3,5,5,6,0.6,0.6
2026-01-18T0600,1262A,119.6478,29.0773,金华市,十五中,细颗粒物(PM2.5),103,132,130,77,91,43,,,,30,38,4,4,0.7,0.8
2026-01-18T0600,1263A,119.6859,29.1032,金华市,监测站,颗粒物(PM10),92,133,137,63,83,25,,,,47,48,2,3,0.7,0.8
2026-01-18T0600,3659A,119.656,29.1132,金华市,气象局,颗粒物(PM10),88,126,133,55,76,27,,,,42,52,3,4,0.4,0.5
2026-01-18T0600,1767A,121.1114,41.0879,锦州市,南山,细颗粒物(PM2.5),59,59,36,42,30,29,,,,28,21,27,26,1.0,0.7
2026-01-18T0600,1768A,121.060361,40.842794,锦州市,开发区,,39,39,33,26,19,38,,,,21,21,12,22,0.5,0.4
2026-01-18T0600,1769A,121.1836,41.1118,锦州市,百股街道,细颗粒物(PM2.5),62,62,40,44,29,17,,,,34,27,32,21,1.5,0.8
2026-01-18T0600,1770A,121.1176,41.1224,锦州市,天安街道,,,,31,,22,,,71,,,20,,18,,0.7
2026-01-18T0600,1771A,121.1303,41.1385,锦州市,北湖公园,细颗粒物(PM2.5),63,63,36,45,28,17,,,,33,19,23,13,1.0,0.6
2026-01-18T0600,2160A,112.8496,35.5051,晋城市,自来水公司,细颗粒物(PM2.5),52,47,81,36,50,29,,,,16,18,3,5,0.8,0.8
2026-01-18T0600,2162A,112.8509,35.4886,晋城市,市环保局,颗粒物(PM10),55,60,82,36,47,33,,,,16,18,2,4,0.8,0.8
2026-01-18T0600,3620A,112.8258,35.4804,晋城市,泽州一中,,45,32,81,31,49,36,,,,18,20,2,4,0.7,0.7
2026-01-18T0600,4078A,112.8246,35.5152,晋城市,前书院路,,50,48,84,35,42,31,,,,15,18,3,5,0.6,0.6
2026-01-18T0600,4079A,112.8864,35.4773,晋城市,祥云街666号,细颗粒物(PM2.5),62,48,82,44,55,30,,,,10,11,2,3,0.6,0.6
2026-01-18T0600,2174A,112.6992,37.6984,晋中市,榆次区政府,细颗粒物(PM2.5),75,95,95,55,53,21,,,,38,28,6,8,0.3,0.4
2026-01-18T0600,2865A,112.7195,37.683,晋中市,榆次三中,颗粒物(PM10),74,97,99,46,45,34,,,,18,20,6,8,0.3,0.4
2026-01-18T0600,4080A,112.7375,37.7215,晋中市,广安街188号,细颗粒物(PM2.5),87,105,96,64,54,20,,,,39,25,6,9,0.4,0.5
2026-01-18T0600,4200A,112.7478,37.6954,晋中市,迎宾街26号,细颗粒物(PM2.5),83,97,96,61,53,36,,,,20,22,6,7,0.4,0.5
2026-01-18T0600,2439A,112.2012,31.048,荆门市,竹园小学,细颗粒物(PM2.5),170,202,186,129,114,29,,,,29,29,1,1,1.0,1
2026-01-18T0600,2440A,112.1968,30.9892,荆门市,掇刀,细颗粒物(PM2.5),166,199,185,126,110,19,,,,26,26,3,3,0.6,0.6
2026-01-18T0600,3012A,112.1849,31.0361,荆门市,西山林语,细颗粒物(PM2.5),160,190,174,122,108,20,,,,28,26,2,6,0.7,0.6
2026-01-18T0600,3547A,112.1631,31.0134,荆门市,龙泉中学南校,细颗粒物(PM2.5),178,210,190,134,116,28,,,,18,18,2,4,1.0,0.8
2026-01-18T0600,4124A,112.2213,31.0654,荆门市,新台西路6号,细颗粒物(PM2.5),185,193,186,139,129,14,,,,24,26,7,8,0.9,0.9
2026-01-18T0600,1844A,112.2493,30.3198,荆州市,市图书馆,细颗粒物(PM2.5),193,198,159,145,131,15,,,,28,26,6,8,1.2,1.1
2026-01-18T0600,1845A,112.2009,30.3543,荆州市,市委党校,细颗粒物(PM2.5),189,188,174,142,126,9,,,,34,32,2,4,1.0,1
2026-01-18T0600,3194A,112.2749,30.3124,荆州市,管委会,细颗粒物(PM2.5),196,165,155,147,132,10,,,,30,32,7,7,1.1,1
2026-01-18T0600,4268A,112.1722,30.3366,荆州市,学苑路85号,细颗粒物(PM2.5),173,171,163,131,120,14,,,,25,21,3,5,1.2,1.1
2026-01-18T0600,2343A,117.2114,29.2931,景德镇市,老干部活动中心,细颗粒物(PM2.5),73,60,79,53,60,0,,,,31,36,5,8,1.0,1.1
2026-01-18T0600,2344A,117.1893,29.2789,景德镇市,兽医站,细颗粒物(PM2.5),60,57,81,43,51,5,,,,31,38,7,13,0.8,0.8
2026-01-18T0600,2346A,117.246,29.2958,景德镇市,陶研所,细颗粒物(PM2.5),82,65,62,60,51,4,,,,27,27,4,4,0.5,0.6
2026-01-18T0600,4289A,117.154766,29.256967,景德镇市,青少年活动中心,细颗粒物(PM2.5),77,81,86,56,57,1,,,,46,44,14,21,/,/
2026-01-18T0600,1803A,115.9873,29.6816,九江市,十里,细颗粒物(PM2.5),120,146,184,91,136,68,,,,24,34,5,6,1.4,1.4
2026-01-18T0600,1804A,115.9583,29.7047,九江市,茅山头,细颗粒物(PM2.5),118,135,186,89,128,58,,,,21,25,10,10,1.1,1.2
2026-01-18T0600,1805A,115.9877,29.7295,九江市,西园,细颗粒物(PM2.5),122,121,172,92,129,69,,,,42,47,1,2,1.2,1.3
2026-01-18T0600,1808A,115.9112,29.6038,九江市,综合工业园,细颗粒物(PM2.5),188,221,198,141,165,15,,,,41,44,2,4,0.7,0.8
2026-01-18T0600,3190A,116.0254,29.6995,九江市,外国语学校,细颗粒物(PM2.5),112,130,177,84,129,34,,,,47,36,8,8,1.2,1.3
2026-01-18T0600,4253A,116.010205,29.659402,九江市,莲花大道8号,细颗粒物(PM2.5),145,163,201,111,159,43,,,,8,22,3,4,1.1,1.1
2026-01-18T0600,4240A,98.495752,39.733935,酒泉市,玉门东路5号,,31,31,46,15,18,76,,,,2,6,8,10,0.3,0.3
2026-01-18T0600,4241A,98.5099,39.7506,酒泉市,北大街108号,,31,31,46,11,18,71,,,,3,8,8,10,0.3,0.3
2026-01-18T0600,2698A,76.0071,39.466,喀什地区,巡警大队,颗粒物(PM10),337,449,311,73,82,50,,,,15,31,4,7,0.5,1.4
2026-01-18T0600,2699A,75.9756,39.4693,喀什地区,吾办,颗粒物(PM10),232,372,276,62,85,58,,,,7,32,7,11,0.4,1.3
2026-01-18T0600,4027A,75.9485,39.4688,喀什地区,老干局,颗粒物(PM10),388,490,326,58,72,58,,,,6,25,3,6,0.3,1.2
2026-01-18T0600,1824A,114.3389,34.778,开封市,肿瘤医院,细颗粒物(PM2.5),67,52,83,48,52,24,,,,22,26,3,3,0.6,0.7
2026-01-18T0600,1826A,114.2884,34.7966,开封市,世纪星幼儿园,细颗粒物(PM2.5),83,,82,61,58,26,,,,19,24,4,5,0.6,0.6
2026-01-18T0600,3147A,114.3434,34.8101,开封市,龙亭公园,细颗粒物(PM2.5),89,,83,66,61,23,,,,12,14,5,6,0.5,0.5
2026-01-18T0600,3210A,114.3645,34.7955,开封市,汴京公园,细颗粒物(PM2.5),83,,87,61,57,24,,,,19,23,3,3,1.0,0.9
2026-01-18T0600,3473A,114.2485,34.8306,开封市,技师学院,细颗粒物(PM2.5),84,,83,62,58,25,,,,18,22,4,5,0.9,0.9
2026-01-18T0600,3592A,114.4518,34.7503,开封市,祥符区生态环境局,细颗粒物(PM2.5),87,86,103,64,55,22,,,,27,30,3,4,0.6,0.7
2026-01-18T0600,1951A,84.886,45.6029,克拉玛依市,长征新村,,19,15,16,11,10,60,,,,3,6,5,5,0.2,0.3
2026-01-18T0600,1952A,84.8894,45.5827,克拉玛依市,南林小区,,19,10,14,10,8,59,,,,2,4,3,2,0.5,0.5
2026-01-18T0600,1954A,84.896,44.3328,克拉玛依市,独山子区,,,65,49,,27,60,,,,18,33,5,5,0.4,0.4
2026-01-18T0600,1955A,85.6888,46.0909,克拉玛依市,乌尔禾区商贸楼,,17,9,18,8,8,53,,,,8,14,4,6,0.4,0.4
2026-01-18T0600,3612A,85.1045,45.6895,克拉玛依市,白碱滩区新站,,19,18,31,10,13,58,,,,6,7,7,8,0.1,0.1
2026-01-18T0600,2697A,76.1457,39.7143,克孜勒苏柯尔克孜自治州,市人民政府,颗粒物(PM10),143,236,254,42,60,74,,,,5,15,3,5,0.2,0.4
2026-01-18T0600,3665A,76.1654,39.7157,克孜勒苏柯尔克孜自治州,克州文化中心,颗粒物(PM10),156,262,253,40,54,72,,,,4,16,3,6,0.4,0.7
2026-01-18T0600,1450A,102.8203,24.889,昆明市,呈贡新区,,31,31,45,20,26,23,,,,30,28,5,7,0.8,0.8
2026-01-18T0600,1452A,102.7253,25.0904,昆明市,龙泉镇,,41,41,50,28,30,1,,,,39,36,2,6,0.6,0.6
2026-01-18T0600,1453A,102.7267,25.0378,昆明市,东风东路,颗粒物(PM10),53,55,54,32,25,1,,,,44,30,4,8,0.6,0.4
2026-01-18T0600,1454A,102.6744,25.0671,昆明市,金鼎山,颗粒物(PM10),53,55,67,33,37,4,,,,43,37,3,8,0.8,0.9
2026-01-18T0600,1455A,102.6643,25.0401,昆明市,碧鸡广场,颗粒物(PM10),52,54,52,28,29,1,,,,49,39,4,8,0.7,0.6
2026-01-18T0600,3179A,102.7491,25.012,昆明市,官渡区博物馆,颗粒物(PM10),62,73,53,41,29,0,,,,49,36,4,6,1.3,0.7
2026-01-18T0600,3375A,102.8016,24.8336,昆明市,青年创业园,,44,44,35,28,26,6,,,,38,27,18,12,0.7,0.7
2026-01-18T0600,3550A,102.8,24.9787,昆明市,昆明学院,颗粒物(PM10),59,68,35,36,19,2,,,,50,27,3,5,0.7,0.6
2026-01-18T0600,3551A,102.5969,24.6738,昆明市,晋宁区生态环境分局,,44,44,39,22,28,19,,,,25,21,1,3,0.6,0.7
2026-01-18T0600,3552A,102.6673,24.9861,昆明市,云天化总部,,44,44,38,29,23,28,,,,32,33,7,9,0.4,0.3
2026-01-18T0600,1456A,91.132,29.6515,拉萨市,八廓街,,19,19,30,11,20,44,,,,16,27,7,8,0.4,0.7
2026-01-18T0600,1457A,91.1221,29.6748,拉萨市,市环保局,细颗粒物(PM2.5),60,43,49,43,39,7,,,,43,37,8,10,1.8,1.6
2026-01-18T0600,1458A,91.0874,29.6476,拉萨市,区监测站,,17,17,23,7,15,32,,,,32,37,4,5,1.1,1.1
2026-01-18T0600,1459A,91.1774,29.6541,拉萨市,西藏大学,,19,19,24,7,12,53,,,,12,25,5,5,0.5,0.7
2026-01-18T0600,1460A,90.9798,29.6586,拉萨市,区辐射站,,15,14,54,9,32,46,,,,17,40,3,6,0.4,1
2026-01-18T0600,1461A,91.0831,29.6292,拉萨市,拉萨火车站,,23,22,26,16,15,15,,,,45,36,5,5,1.3,1
2026-01-18T0600,2520A,109.2203,23.7252,来宾市,来宾技工学校,细颗粒物(PM2.5),94,99,118,70,87,0,,,,26,26,10,11,1.1,1.2
2026-01-18T0600,3535A,109.1781,23.7293,来宾市,兴宾区政府,细颗粒物(PM2.5),112,105,119,84,92,15,,,,10,18,5,10,0.9,1.1
2026-01-18T0600,4002A,109.2312,23.7428,来宾市,中南小学,细颗粒物(PM2.5),87,92,115,64,86,0,,,,39,34,4,8,1.0,1.2
2026-01-18T0600,1479A,103.8309,36.0467,兰州市,铁路设计院,,,,,,,,,,,,,,,,
2026-01-18T0600,3241A,103.7439,36.0841,兰州市,百合公园,颗粒物(PM10),71,92,144,27,53,66,,,,6,50,12,30,0.4,1.4
2026-01-18T0600,3242A,103.9613,35.9985,兰州市,和平,颗粒物(PM10),95,140,171,42,64,69,,,,10,37,15,21,0.5,1.1
2026-01-18T0600,4236A,103.629272,36.093822,兰州市,庄浪东路808号,颗粒物(PM10),72,94,145,35,58,74,,,,6,50,16,34,0.3,1.1
2026-01-18T0600,4237A,103.7251,36.104344,兰州市,安宁西路88号,颗粒物(PM10),70,90,161,31,52,74,,,,9,51,12,33,0.3,1.1
2026-01-18T0600,4238A,103.846982,36.067567,兰州市,北滨河东路1号,颗粒物(PM10),64,78,151,37,55,69,,,,13,48,10,17,0.5,1.3
2026-01-18T0600,1067A,116.6712,39.5109,廊坊市,药材公司,颗粒物(PM10),53,56,38,21,14,33,,,,22,18,4,4,0.6,0.6
2026-01-18T0600,1068A,116.7215,39.5592,廊坊市,开发区,,42,42,35,21,14,36,,,,22,19,4,4,0.6,0.5
2026-01-18T0600,1070A,116.7246,39.5273,廊坊市,北华航天学院,颗粒物(PM10),57,64,41,21,12,35,,,,20,16,4,4,0.6,0.5
2026-01-18T0600,2919A,116.7022,39.5454,廊坊市,河北工业大学,,44,44,36,26,15,35,,,,18,15,3,3,0.6,0.5
2026-01-18T0600,2536A,103.7629,29.5844,乐山市,牛耳桥,细颗粒物(PM2.5),156,141,137,119,117,1,,,,23,39,4,5,1.0,1.2
2026-01-18T0600,2537A,103.7501,29.6002,乐山市,市第三水厂,细颗粒物(PM2.5),139,134,136,106,111,1,,,,32,49,5,6,1.0,1.2
2026-01-18T0600,2538A,103.7571,29.5664,乐山市,市监测站,细颗粒物(PM2.5),178,158,135,134,116,2,,,,42,30,6,6,1.4,1.1
2026-01-18T0600,3361A,103.7313,29.563,乐山市,理工大学,细颗粒物(PM2.5),178,164,139,134,120,2,,,,35,30,6,6,1.2,1
2026-01-18T0600,2599A,100.2497,26.8802,丽江市,丽江古城,,24,24,41,13,23,69,,,,8,16,10,10,0.4,0.5
2026-01-18T0600,2600A,100.2203,26.8906,丽江市,市中心,,22,22,30,9,15,59,,,,9,17,5,7,0.4,0.5
2026-01-18T0600,1267A,119.9141,28.4513,丽水市,监测站大楼,细颗粒物(PM2.5),94,72,68,70,61,30,,,,34,35,16,7,0.8,0.6
2026-01-18T0600,1268A,119.93,28.4589,丽水市,莲都小学,颗粒物(PM10),65,79,85,46,49,29,,,,41,36,/,/,/,/
2026-01-18T0600,1269A,119.8794,28.4232,丽水市,余庄前,细颗粒物(PM2.5),85,82,78,63,52,8,,,,18,33,4,5,0.5,0.5
2026-01-18T0600,1173A,119.1759,34.5885,连云港市,市环境监测站,,31,31,27,9,12,75,,,,9,10,9,9,0.2,0.3
2026-01-18T0600,3000A,119.3577,34.6971,连云港市,德源药业,,27,27,31,14,12,77,,,,11,14,5,5,0.4,0.5
2026-01-18T0600,3007A,119.178,34.8442,连云港市,新城一中,,39,39,47,14,15,73,,,,18,17,8,10,0.8,0.9
2026-01-18T0600,3008A,119.3607,34.7519,连云港市,胡沟管理处,,27,27,24,12,10,72,,,,21,20,7,7,0.3,0.4
2026-01-18T0600,3009A,119.1478,34.5913,连云港市,矿山设计院,,29,29,32,9,10,78,,,,10,12,7,6,0.5,0.5
2026-01-18T0600,3434A,119.2414,34.6539,连云港市,工贸学校,,40,40,26,19,13,85,,,,4,6,8,9,0.4,0.4
2026-01-18T0600,3664A,119.4171,34.734,连云港市,连云街道,,28,28,25,11,10,85,,,,13,19,2,3,0.5,0.5
2026-01-18T0600,2573A,102.2629,27.8981,凉山彝族自治州,西昌市政府,细颗粒物(PM2.5),70,56,56,51,46,39,,,,20,18,7,10,0.7,0.7
2026-01-18T0600,2574A,102.2686,27.885,凉山彝族自治州,凉山州政府,细颗粒物(PM2.5),64,70,68,46,41,28,,,,29,26,8,10,0.8,0.7
2026-01-18T0600,4229A,102.2342,27.8859,凉山彝族自治州,凯乐南路30号,细颗粒物(PM2.5),102,115,85,76,54,3,,,,57,40,7,10,1.0,0.8
2026-01-18T0600,2212A,123.1978,41.2036,辽阳市,宏伟区,细颗粒物(PM2.5),63,48,40,45,30,43,,,,16,15,6,12,1.0,0.5
2026-01-18T0600,2213A,123.1684,41.2497,辽阳市,新华园,细颗粒物(PM2.5),54,49,43,38,31,43,,,,23,26,8,10,1.0,0.6
2026-01-18T0600,2214A,123.2355,41.2663,辽阳市,滨河路,细颗粒物(PM2.5),72,60,55,52,39,27,,,,30,32,5,8,1.3,0.8
2026-01-18T0600,4083A,123.153,41.2874,辽阳市,铁西路150号,细颗粒物(PM2.5),65,61,47,47,34,22,,,,41,37,12,13,1.7,1.1
2026-01-18T0600,2227A,125.1359,42.8845,辽源市,环保局,细颗粒物(PM2.5),60,58,48,43,34,17,,,,49,33,4,5,1.1,0.8
2026-01-18T0600,4085A,125.0998,42.9134,辽源市,安宁大街333号,细颗粒物(PM2.5),62,,40,44,36,6,,,,45,25,8,8,1.0,0.7
2026-01-18T0600,1625A,115.9789,36.4372,聊城市,区政府,颗粒物(PM10),51,51,64,29,33,31,,,,28,34,10,15,0.8,0.8
2026-01-18T0600,3200A,115.9772,36.4986,聊城市,监控中心,颗粒物(PM10),51,52,62,34,39,34,,,,26,33,7,9,0.8,0.9
2026-01-18T0600,3513A,116.0443,36.436,聊城市,九州社区,颗粒物(PM10),52,54,67,33,39,39,,,,12,19,1,6,0.5,0.6
2026-01-18T0600,4018A,116.0564,36.4609,聊城市,星美广场,颗粒物(PM10),56,61,70,33,38,32,,,,18,23,5,7,0.6,0.7
2026-01-18T0600,4113A,116.0091,36.4495,聊城市,利民路,颗粒物(PM10),52,53,67,31,34,26,,,,26,34,7,12,0.7,0.8
2026-01-18T0600,2632A,94.3683,29.6373,林芝市,林芝监测站,,15,11,14,3,7,46,,,,4,8,3,3,0.4,0.4
2026-01-18T0600,2633A,94.3616,29.6634,林芝市,林芝人民医院,,13,12,18,6,9,40,,,,10,13,1,2,0.2,0.3
2026-01-18T0600,2603A,100.0779,23.8981,临沧市,市环保局,,42,32,40,29,40,27,,,,9,11,5,5,0.6,0.6
2026-01-18T0600,2604A,100.0894,23.882,临沧市,市气象局,,38,38,37,24,22,27,,,,8,11,5,5,0.4,0.5
2026-01-18T0600,1733A,111.5552,36.0791,临汾市,临钢医院,细颗粒物(PM2.5),85,115,133,63,71,27,,,,27,25,11,8,1.1,1.1
2026-01-18T0600,1734A,111.4984,36.0734,临汾市,技工学校,细颗粒物(PM2.5),95,117,124,71,67,26,,,,31,33,12,7,0.9,0.8
2026-01-18T0600,1736A,111.5017,36.0857,临汾市,市委,细颗粒物(PM2.5),82,108,126,60,63,29,,,,26,26,14,10,1.2,1.1
2026-01-18T0600,3018A,111.5048,36.1015,临汾市,唐尧大酒店,细颗粒物(PM2.5),89,120,128,66,67,29,,,,27,29,9,6,1.0,1
2026-01-18T0600,4244A,111.4879,36.053,临汾市,启星学校,细颗粒物(PM2.5),87,118,114,64,63,29,,,,30,30,10,9,1.1,1
2026-01-18T0600,4271A,103.2464,35.6123,临夏回族自治州,滨河东路1号,颗粒物(PM10),115,179,166,24,54,44,,,,13,35,12,12,0.6,1.3
2026-01-18T0600,4310A,103.207136,35.599807,临夏回族自治州,新华街21号,颗粒物(PM10),108,165,153,29,57,53,,,,12,39,17,15,0.5,1.5
2026-01-18T0600,1618A,118.3429,35.0532,临沂市,沂河小区,细颗粒物(PM2.5),62,58,47,44,35,27,,,,28,26,9,11,0.7,0.6
2026-01-18T0600,1619A,118.2962,35.0568,临沂市,鲁南制药厂,细颗粒物(PM2.5),60,48,42,43,30,27,,,,27,23,8,11,0.8,0.6
2026-01-18T0600,1620A,118.2793,34.9976,临沂市,新光毛纺厂,细颗粒物(PM2.5),52,36,37,36,28,33,,,,32,31,7,9,0.7,0.7
2026-01-18T0600,1621A,118.3955,35.0889,临沂市,河东保险公司,颗粒物(PM10),51,51,47,34,26,20,,,,30,25,7,9,0.7,0.7
2026-01-18T0600,3370A,118.3563,35.0215,临沂市,十里堡居委,,41,41,39,27,19,22,,,,34,27,8,10,0.7,0.6
2026-01-18T0600,3496A,118.359,35.1067,临沂市,南坊新区,颗粒物(PM10),51,51,45,31,27,25,,,,31,27,7,10,0.7,0.7
2026-01-18T0600,3860A,118.3915,35.0297,临沂市,皇山花园小区,颗粒物(PM10),51,51,45,35,26,18,,,,39,28,10,12,0.9,0.8
2026-01-18T0600,1870A,109.4854,24.3898,柳州市,柳东小学,细颗粒物(PM2.5),117,105,108,88,99,12,,,,48,26,50,17,0.8,0.9
2026-01-18T0600,1871A,109.4109,24.3304,柳州市,环保监测站,细颗粒物(PM2.5),98,92,141,73,114,0,,,,35,40,5,9,1.2,1.4
2026-01-18T0600,1872A,109.3886,24.3408,柳州市,河西水厂,,,,175,,124,,,98,,,39,,13,,1.6
2026-01-18T0600,1873A,109.4263,24.2951,柳州市,市四中,细颗粒物(PM2.5),110,98,160,83,105,1,,,,53,48,10,14,0.9,1.3
2026-01-18T0600,1874A,109.396,24.3658,柳州市,市九中,细颗粒物(PM2.5),109,100,146,82,130,2,,,,36,44,12,17,1.2,1.5
2026-01-18T0600,1875A,109.4912,24.3164,柳州市,古亭山,细颗粒物(PM2.5),78,82,89,57,68,0,,,,34,34,7,10,0.8,0.9
2026-01-18T0600,3402A,109.5422,24.3994,柳州市,市二中,细颗粒物(PM2.5),124,104,115,94,92,2,,,,41,32,51,14,0.9,0.9
2026-01-18T0600,2307A,116.5078,31.7369,六安市,监测大楼,细颗粒物(PM2.5),102,104,200,76,150,20,,,,26,38,3,3,0.5,0.8
2026-01-18T0600,2308A,116.4738,31.7642,六安市,皖西学院,"颗粒物(PM10),细颗粒物(PM2.5)",77,104,206,56,140,24,,,,24,37,5,5,0.5,0.9
2026-01-18T0600,2309A,116.4997,31.7904,六安市,朝阳厂,细颗粒物(PM2.5),72,84,190,52,136,22,,,,26,40,6,5,0.6,0.9
2026-01-18T0600,2310A,116.5566,31.7885,六安市,开发区,细颗粒物(PM2.5),89,98,210,66,132,21,,,,22,35,4,4,0.5,0.9
2026-01-18T0600,2577A,104.8293,26.592,六盘水市,黄土坡,细颗粒物(PM2.5),78,60,89,57,69,27,,,,16,27,8,12,0.9,1
2026-01-18T0600,2579A,104.8481,26.5898,六盘水市,民中,细颗粒物(PM2.5),83,67,89,61,78,51,,,,20,30,7,11,0.9,1
2026-01-18T0600,2580A,104.9541,26.5506,六盘水市,双水,细颗粒物(PM2.5),72,61,93,52,74,69,,,,13,17,5,6,0.3,0.5
2026-01-18T0600,4151A,104.8899,26.5685,六盘水市,钟山大道中段564号,细颗粒物(PM2.5),77,78,122,56,79,55,,,,11,25,7,12,0.8,1.1
2026-01-18T0600,2336A,117.022,25.1031,龙岩市,龙岩市监测站,细颗粒物(PM2.5),67,63,62,48,42,20,,,,34,41,46,27,0.7,0.9
2026-01-18T0600,2337A,117.0257,25.0662,龙岩市,闽西职业技术学院,,,,60,,35,,,111,,,30,,14,,0.8
2026-01-18T0600,2338A,117.0195,25.0306,龙岩市,龙岩学院,,50,39,49,35,33,52,,,,15,20,8,11,/,/
2026-01-18T0600,2885A,104.9344,33.3827,陇南市,滨江中学,颗粒物(PM10),66,82,96,46,45,32,,,,31,39,9,12,1.6,1.6
2026-01-18T0600,3247A,104.9551,33.3709,陇南市,市总工会,细颗粒物(PM2.5),75,70,71,55,43,50,,,,18,24,8,11,0.7,0.8
2026-01-18T0600,2488A,111.9984,27.7346,娄底市,市监测站,,,,92,,76,,,53,,,30,,10,,1.4
2026-01-18T0600,2491A,111.9888,27.7035,娄底市,市政府,细颗粒物(PM2.5),156,128,141,119,116,26,,,,21,29,7,8,0.9,0.9
2026-01-18T0600,4127A,111.9812,27.7591,娄底市,涟钢职大,细颗粒物(PM2.5),179,181,161,135,121,5,,,,35,26,6,7,0.8,1
2026-01-18T0600,4128A,112.0303,27.7457,娄底市,娄底体校,细颗粒物(PM2.5),180,163,151,136,114,21,,,,14,18,2,3,0.8,0.9
2026-01-18T0600,1894A,105.4427,28.9063,泸州市,小市上码头,细颗粒物(PM2.5),200,197,151,150,126,13,,,,33,34,7,7,1.6,1.5
2026-01-18T0600,1895A,105.4241,28.8573,泸州市,兰田宪桥,细颗粒物(PM2.5),209,243,212,159,138,27,,,,7,17,8,8,1.6,1.6
2026-01-18T0600,1896A,105.4378,28.8833,泸州市,市环监站,细颗粒物(PM2.5),222,,163,172,127,33,,,,17,30,8,9,1.4,1.4
2026-01-18T0600,4272A,105.3689,28.7783,泸州市,纳溪中医医院,细颗粒物(PM2.5),138,138,135,105,135,4,,,,14,21,7,8,1.3,1.5
2026-01-18T0600,2183A,111.1447,37.5212,吕梁市,环保局,细颗粒物(PM2.5),112,158,154,84,72,14,,,,45,48,,8,0.7,0.7
2026-01-18T0600,2185A,111.1285,37.5338,吕梁市,自来水公司,细颗粒物(PM2.5),117,151,149,88,73,9,,,,52,37,,11,1.1,0.9
2026-01-18T0600,2867A,111.1225,37.5093,吕梁市,马茂庄小学,细颗粒物(PM2.5),102,146,161,76,72,3,,,,64,43,9,12,0.8,0.7
2026-01-18T0600,1812A,112.3934,34.6517,洛阳市,市委党校,细颗粒物(PM2.5),72,,76,52,53,21,,,,25,31,7,8,0.7,0.8
2026-01-18T0600,1815A,112.494,34.6883,洛阳市,河南林校,细颗粒物(PM2.5),67,49,84,48,53,22,,,,20,29,8,9,0.7,0.7
2026-01-18T0600,1816A,112.3843,34.623,洛阳市,开发区管委会,细颗粒物(PM2.5),60,52,85,43,54,20,,,,24,29,6,7,0.7,0.8
2026-01-18T0600,1817A,112.4263,34.6249,洛阳市,市委新办公区,细颗粒物(PM2.5),65,52,86,47,55,18,,,,24,30,8,8,0.5,0.5
2026-01-18T0600,3340A,112.6005,34.6323,洛阳市,伊滨,细颗粒物(PM2.5),67,54,97,48,64,20,,,,25,33,6,7,0.5,0.6
2026-01-18T0600,3341A,112.495,34.6338,洛阳市,中移产业园,细颗粒物(PM2.5),70,55,82,51,57,11,,,,23,29,8,9,0.7,0.7
2026-01-18T0600,3593A,112.5736,34.8993,洛阳市,吉利监测站,细颗粒物(PM2.5),64,46,88,46,53,25,,,,19,23,7,8,0.7,0.7
2026-01-18T0600,3635A,112.3678,34.6623,洛阳市,河科大西苑校区,细颗粒物(PM2.5),58,44,82,41,48,26,,,,25,30,6,8,0.8,0.8
2026-01-18T0600,3636A,112.4387,34.678,洛阳市,英才小学,细颗粒物(PM2.5),72,,87,52,61,20,,,,26,32,7,9,0.7,0.7
2026-01-18T0600,4214A,112.460027,34.694929,洛阳市,春都路1号院,细颗粒物(PM2.5),55,54,94,39,47,23,,,,19,24,5,7,0.8,0.8
2026-01-18T0600,2399A,114.051,33.5721,漯河市,三五一五工厂,细颗粒物(PM2.5),75,68,95,55,68,16,,,,17,21,6,6,0.8,0.8
2026-01-18T0600,2400A,114.0055,33.5698,漯河市,漯河大学,细颗粒物(PM2.5),70,56,89,51,64,13,,,,14,17,4,4,0.6,0.7
2026-01-18T0600,2401A,114.0134,33.5826,漯河市,市水利局,细颗粒物(PM2.5),73,58,92,53,68,15,,,,18,21,3,3,0.7,0.7
2026-01-18T0600,2402A,114.0261,33.5697,漯河市,市广电局,细颗粒物(PM2.5),72,,91,52,66,15,,,,16,19,5,6,0.7,0.7
2026-01-18T0600,3478A,113.9691,33.568,漯河市,市图书馆,细颗粒物(PM2.5),78,77,106,57,73,13,,,,20,20,3,4,0.8,0.9
2026-01-18T0600,4250A,114.089259,33.588274,漯河市,韶山路11号,细颗粒物(PM2.5),75,78,106,55,68,11,,,,16,19,6,5,0.8,0.9
2026-01-18T0600,1798A,118.5084,31.6838,马鞍山市,湖东路四小,细颗粒物(PM2.5),98,108,153,73,100,38,,,,25,25,4,3,0.8,0.9
2026-01-18T0600,1799A,118.5019,31.6449,马鞍山市,开发区,细颗粒物(PM2.5),94,120,156,70,97,23,,,,41,29,4,4,0.8,0.9
2026-01-18T0600,3633A,118.4914,31.681,马鞍山市,雨山,细颗粒物(PM2.5),93,114,160,69,96,41,,,,26,27,6,6,0.8,1
2026-01-18T0600,4191A,118.527362,31.722269,马鞍山市,慈湖高新区,细颗粒物(PM2.5),88,111,152,65,94,43,,,,21,23,4,4,0.8,0.9
2026-01-18T0600,1686A,111.0285,21.469,茂名市,电白南海,细颗粒物(PM2.5),58,58,66,41,34,67,,,,27,28,30,14,0.7,0.7
2026-01-18T0600,1687A,110.9294,21.6533,茂名市,茂石化七小,颗粒物(PM10),60,70,86,31,47,84,,,,25,31,27,16,0.4,0.5
2026-01-18T0600,1688A,110.9108,21.6688,茂名市,健康路,细颗粒物(PM2.5),83,83,80,61,50,69,,,,39,32,89,27,0.9,0.9
2026-01-18T0600,1689A,110.8592,21.6826,茂名市,高岭,颗粒物(PM10),87,124,116,56,55,21,,,,51,42,80,31,/,/
2026-01-18T0600,3450A,111.0101,21.5165,茂名市,电白水东,"颗粒物(PM10),细颗粒物(PM2.5)",52,53,58,36,33,103,,,,18,20,18,14,/,/
2026-01-18T0600,2540A,103.8414,30.0871,眉山市,气象局,细颗粒物(PM2.5),228,187,154,178,138,4,,,,38,37,15,17,1.1,1.1
2026-01-18T0600,3148A,103.829,30.0563,眉山市,区人社局,细颗粒物(PM2.5),175,152,147,132,128,8,,,,44,57,10,14,0.9,1.2
2026-01-18T0600,4148A,103.8836,30.0695,眉山市,眉职院,细颗粒物(PM2.5),156,163,145,119,105,13,,,,25,34,1,3,1.0,1
2026-01-18T0600,1690A,116.1248,24.3307,梅州市,梅江月梅,细颗粒物(PM2.5),64,64,62,46,41,13,,,,46,38,/,/,/,/
2026-01-18T0600,1691A,116.0798,24.2719,梅州市,梅县新城,细颗粒物(PM2.5),57,51,65,40,48,24,,,,29,44,7,8,0.6,0.8
2026-01-18T0600,3315A,116.1234,24.2994,梅州市,梅龙,细颗粒物(PM2.5),53,51,63,37,40,36,,,,25,35,8,10,0.8,1
2026-01-18T0600,1878A,104.7775,31.4741,绵阳市,富乐山,细颗粒物(PM2.5),139,139,109,106,90,4,,,,39,28,8,8,0.8,0.7
2026-01-18T0600,1880A,104.6698,31.4668,绵阳市,高新区自来水公司,细颗粒物(PM2.5),149,156,141,114,102,3,,,,39,50,8,9,1.0,1.1
2026-01-18T0600,3491A,104.6899,31.5324,绵阳市,西科大附属小学,细颗粒物(PM2.5),129,147,143,98,101,23,,,,40,50,8,9,1.0,0.9
2026-01-18T0600,3492A,104.5647,31.5343,绵阳市,安州区旅游局,细颗粒物(PM2.5),122,113,120,92,97,13,,,,28,45,10,11,0.8,0.9
2026-01-18T0600,4146A,104.7092,31.4972,绵阳市,科技城新区公安局,细颗粒物(PM2.5),150,168,134,115,98,35,,,,34,44,8,9,1.1,1
2026-01-18T0600,4226A,104.765114,31.453094,绵阳市,绵阳市气象局,细颗粒物(PM2.5),158,150,125,120,98,3,,,,51,46,8,8,0.9,0.9
2026-01-18T0600,1784A,129.61,44.561,牡丹江市,环保大楼,,34,34,41,20,28,35,,,,22,20,5,4,0.4,0.4
2026-01-18T0600,1787A,129.6364,44.6075,牡丹江市,机车工厂,细颗粒物(PM2.5),65,72,54,47,34,10,,,,43,25,2,3,0.7,0.5
2026-01-18T0600,1788A,129.6386,44.5462,牡丹江市,第一中学,,,,38,,36,,,62,,,18,,6,,0.4
2026-01-18T0600,4287A,129.5992,44.5964,牡丹江市,东晓云街98号,细颗粒物(PM2.5),68,,43,49,41,31,,,,24,19,6,6,0.8,0.7
2026-01-18T0600,2531A,105.0703,29.61,内江市,市监测站,细颗粒物(PM2.5),192,,124,144,129,33,,,,22,23,7,8,1.1,1.2
2026-01-18T0600,2533A,105.0657,29.5807,内江市,内江二中,细颗粒物(PM2.5),179,165,140,135,119,6,,,,48,39,5,5,1.2,1.2
2026-01-18T0600,2534A,105.0407,29.5828,内江市,内江日报社,细颗粒物(PM2.5),176,,119,133,118,55,,,,24,35,2,3,1.0,1.1
2026-01-18T0600,4147A,105.0433,29.6105,内江市,玉峰路西段888号,细颗粒物(PM2.5),196,,119,147,123,27,,,,30,33,4,3,1.1,1.2
2026-01-18T0600,2628A,92.0653,31.4846,那曲市,那曲监测站,,36,36,67,8,30,19,,,,19,26,8,10,1.3,1.3
2026-01-18T0600,4243A,92.0515,31.4787,那曲市,那曲市委宣传部,,37,37,61,18,25,18,,,,20,22,7,7,1.5,1.2
2026-01-18T0600,1291A,115.8887,28.7006,南昌市,省林业公司,细颗粒物(PM2.5),213,190,163,163,136,21,,,,36,37,6,6,1.0,1.4
2026-01-18T0600,1292A,115.813,28.7443,南昌市,林科所,细颗粒物(PM2.5),144,163,162,110,121,1,,,,48,39,8,10,1.0,0.8
2026-01-18T0600,1294A,115.8518,28.687,南昌市,建工学校,细颗粒物(PM2.5),217,234,197,167,138,22,,,,45,43,14,14,1.6,1.5
2026-01-18T0600,1295A,115.8926,28.6425,南昌市,象湖,细颗粒物(PM2.5),211,183,153,161,134,28,,,,29,32,9,11,1.3,1.1
2026-01-18T0600,3046A,115.9084,28.6062,南昌市,机电学校,细颗粒物(PM2.5),230,219,190,180,143,30,,,,36,33,6,7,1.2,1
2026-01-18T0600,3690A,115.9718,28.7032,南昌市,外国语学校,细颗粒物(PM2.5),222,210,188,172,139,25,,,,38,38,13,15,1.2,1.1
2026-01-18T0600,4106A,115.7923,28.6873,南昌市,工业二路,细颗粒物(PM2.5),234,214,173,184,138,19,,,,32,32,5,5,0.9,1
2026-01-18T0600,4192A,115.931587,28.686774,南昌市,南京东路235号,细颗粒物(PM2.5),221,216,181,171,138,26,,,,34,33,5,7,1.7,1.4
2026-01-18T0600,1906A,106.0791,30.8022,南充市,南充市委,细颗粒物(PM2.5),150,125,146,115,132,13,,,,25,42,4,4,0.9,1.2
2026-01-18T0600,1907A,106.1038,30.8215,南充市,南充炼油厂,细颗粒物(PM2.5),165,131,138,125,123,8,,,,33,24,5,6,1.2,1.2
2026-01-18T0600,4227A,106.108336,30.788436,南充市,梨树横街98号,细颗粒物(PM2.5),144,149,158,110,116,4,,,,38,34,5,6,1.0,1
2026-01-18T0600,4304A,106.1172,30.843,南充市,清泉寺北路188号,细颗粒物(PM2.5),147,,117,112,110,43,,,,22,17,6,6,0.8,0.8
2026-01-18T0600,4305A,106.067,30.7616,南充市,同庆路1号,细颗粒物(PM2.5),160,127,142,122,128,0,,,,40,42,6,6,1.2,1.2
2026-01-18T0600,1151A,118.8033,32.1085,南京市,迈皋桥,颗粒物(PM10),70,90,111,41,60,62,,,,12,19,4,4,0.6,0.6
2026-01-18T0600,1152A,118.7487,32.057,南京市,草场门,颗粒物(PM10),65,80,117,44,61,37,,,,26,29,6,6,0.7,0.8
2026-01-18T0600,1154A,118.770105,32.004342,南京市,中华门,颗粒物(PM10),67,83,122,46,66,52,,,,14,20,5,4,0.6,0.8
2026-01-18T0600,1155A,118.8059,32.0329,南京市,瑞金路,,,90,128,46,69,,,,,12,17,4,4,0.9,1
2026-01-18T0600,1156A,118.7946,32.0774,南京市,玄武湖,颗粒物(PM10),67,83,122,43,66,57,,,,18,21,4,4,0.9,1
2026-01-18T0600,1157A,118.6415,32.0964,南京市,浦口,"颗粒物(PM10),细颗粒物(PM2.5)",74,98,141,54,75,47,,,,24,32,7,7,1.2,1.3
2026-01-18T0600,1158A,118.730129,32.000956,南京市,奥体中心,细颗粒物(PM2.5),77,90,131,56,74,59,,,,18,22,7,7,0.7,0.8
2026-01-18T0600,1159A,118.9072,32.1047,南京市,仙林大学城,颗粒物(PM10),63,75,121,41,63,61,,,,18,23,7,6,0.9,1
2026-01-18T0600,3422A,118.8443,31.919,南京市,江宁彩虹桥,颗粒物(PM10),66,81,121,44,68,59,,,,17,21,4,4,0.7,0.8
2026-01-18T0600,3427A,118.8497,32.3599,南京市,六合雄州,"颗粒物(PM10),细颗粒物(PM2.5)",57,64,98,40,51,48,,,,20,17,4,4,0.6,0.7
2026-01-18T0600,4086A,118.7641,32.0841,南京市,新模范马路66号,颗粒物(PM10),70,90,128,46,66,78,,,,2,8,4,4,1.2,1.2
2026-01-18T0600,4249A,118.8707617,31.34017673,南京市,汶溪路181号,细颗粒物(PM2.5),93,116,125,69,98,38,,,,32,25,6,5,1.0,1.2
2026-01-18T0600,4312A,119.019,31.6512,南京市,中山西路1号,颗粒物(PM10),65,80,121,45,85,49,,,,21,24,4,4,0.8,1
2026-01-18T0600,1401A,108.3098,22.788,南宁市,二十一中,细颗粒物(PM2.5),77,71,90,56,65,2,,,,42,28,5,5,1.0,0.9
2026-01-18T0600,1402A,108.3135,22.8529,南宁市,北湖,细颗粒物(PM2.5),115,127,109,87,76,0,,,,56,51,8,4,1.2,1
2026-01-18T0600,1403A,108.3205,22.8222,南宁市,市监测站,细颗粒物(PM2.5),105,,90,79,72,27,,,,32,38,10,7,1.2,1
2026-01-18T0600,1404A,108.3828,22.8038,南宁市,大自然花园,细颗粒物(PM2.5),90,92,94,67,68,12,,,,29,30,6,7,1.2,1
2026-01-18T0600,1406A,108.2397,22.8462,南宁市,区农职院,细颗粒物(PM2.5),88,72,102,65,68,7,,,,30,43,8,9,1.0,0.9
2026-01-18T0600,1407A,108.3285,22.7356,南宁市,英华嘉园,细颗粒物(PM2.5),87,74,90,64,68,7,,,,50,39,5,4,1.2,1
2026-01-18T0600,3401A,108.4829,22.762,南宁市,红星社区,细颗粒物(PM2.5),103,102,97,77,73,2,,,,39,37,4,5,1.0,0.9
2026-01-18T0600,4132A,108.2927,23.1477,南宁市,起凤路9号,细颗粒物(PM2.5),112,93,100,84,84,0,,,,30,29,2,3,0.8,0.8
2026-01-18T0600,4221A,108.2177,22.7774,南宁市,乐贤路16号,细颗粒物(PM2.5),89,81,100,66,64,0,,,,46,45,6,5,1.1,1
2026-01-18T0600,2332A,118.1682,26.6371,南平市,南平市监测站,细颗粒物(PM2.5),53,50,60,37,44,22,,,,26,32,5,7,0.6,0.8
2026-01-18T0600,2334A,118.1757,26.6276,南平市,南平七中,细颗粒物(PM2.5),52,,51,36,40,23,,,,21,27,3,6,0.7,0.8
2026-01-18T0600,1168A,120.9056,31.9669,南通市,狼山街道,,39,39,81,24,44,70,,,,13,14,3,2,0.4,0.4
2026-01-18T0600,1170A,120.8635,32.0231,南通市,城中,,48,48,86,20,38,59,,,,23,16,4,4,0.7,0.7
2026-01-18T0600,1171A,120.9376,31.9301,南通市,星湖花园,,35,35,84,17,43,78,,,,16,18,4,4,0.2,0.5
2026-01-18T0600,1172A,120.8053,32.046,南通市,紫琅学院,,42,42,89,17,38,66,,,,18,17,2,3,0.5,0.5
2026-01-18T0600,3291A,121.0631,32.0644,南通市,通州监测站,,26,24,72,17,37,81,,,,14,17,2,3,0.6,0.8
2026-01-18T0600,3432A,120.9348,31.9874,南通市,环境教育馆,,39,39,82,20,44,56,,,,19,15,4,4,0.5,0.6
2026-01-18T0600,4091A,120.8692,31.9885,南通市,洪江路,,37,37,73,20,40,70,,,,13,13,2,2,0.4,0.6
2026-01-18T0600,2404A,112.5338,33.0086,南阳市,瓦房庄,细颗粒物(PM2.5),82,66,113,60,93,11,,,,20,22,5,6,0.8,0.9
2026-01-18T0600,2405A,112.5002,32.9734,南阳市,汉画馆,细颗粒物(PM2.5),74,64,127,54,87,12,,,,22,25,5,6,0.8,0.9
2026-01-18T0600,2406A,112.5778,33.0144,南阳市,气象站,,,62,134,,90,10,,,,22,25,3,4,0.6,0.8
2026-01-18T0600,2407A,112.548,32.9687,南阳市,理工学院,细颗粒物(PM2.5),69,61,116,50,74,11,,,,26,28,4,4,0.8,0.8
2026-01-18T0600,4008A,112.5233,32.9921,南阳市,卧龙区政府,细颗粒物(PM2.5),78,76,145,57,86,11,,,,27,29,4,5,0.7,0.8
2026-01-18T0600,1234A,121.8352,29.9111,宁波市,区环保大楼,颗粒物(PM10),70,90,90,36,37,37,,,,44,49,5,6,0.7,0.7
2026-01-18T0600,1235A,121.5595,29.8208,宁波市,万里学院,颗粒物(PM10),72,94,92,51,52,46,,,,31,28,4,8,0.7,0.6
2026-01-18T0600,1236A,121.713,29.9564,宁波市,龙赛医院,颗粒物(PM10),69,88,74,42,40,50,,,,34,28,4,3,0.8,0.7
2026-01-18T0600,1240A,121.5855,29.8635,宁波市,太古小学,颗粒物(PM10),70,90,92,44,41,42,,,,29,23,5,8,0.7,0.6
2026-01-18T0600,1241A,121.5239,29.8673,宁波市,市环境监测中心,颗粒物(PM10),64,78,80,40,45,32,,,,32,24,6,9,0.8,0.7
2026-01-18T0600,2871A,121.6156,29.9015,宁波市,万里国际学校,颗粒物(PM10),71,92,95,40,41,39,,,,43,36,4,7,0.7,0.6
2026-01-18T0600,3710A,121.5593,29.8976,宁波市,白沙活动中心,颗粒物(PM10),67,84,95,36,37,40,,,,25,27,4,7,0.4,0.5
2026-01-18T0600,4095A,121.8962,29.7529,宁波市,中科路88号,颗粒物(PM10),70,89,75,41,36,44,,,,31,28,5,6,0.4,0.4
2026-01-18T0600,2341A,119.5387,26.6611,宁德市,宁德市监测站,,40,29,42,28,31,47,,,,11,21,3,4,0.5,0.6
2026-01-18T0600,3209A,119.5231,26.6562,宁德市,宁德一中,,39,33,42,27,35,45,,,,13,19,6,7,0.4,0.5
2026-01-18T0600,2618A,98.859,25.8541,怒江傈僳族自治州,州监测站,,30,23,36,21,22,31,,,,9,11,6,5,0.4,0.4
2026-01-18T0600,2619A,98.8607,25.8168,怒江傈僳族自治州,泸水一中,,23,23,31,12,21,24,,,,9,17,6,6,0.4,0.5
2026-01-18T0600,1888A,101.6891,26.571,攀枝花市,弄弄坪,细颗粒物(PM2.5),63,63,78,45,55,25,,,,24,29,9,21,1.0,1.4
2026-01-18T0600,1889A,101.577,26.5914,攀枝花市,河门口,细颗粒物(PM2.5),93,97,86,69,57,19,,,,30,28,11,28,1.3,1.6
2026-01-18T0600,1891A,101.7365,26.4986,攀枝花市,仁和,细颗粒物(PM2.5),53,51,83,37,58,18,,,,22,26,7,15,0.9,1.2
2026-01-18T0600,2835A,101.7222,26.567,攀枝花市,四十中小,细颗粒物(PM2.5),87,98,89,64,57,9,,,,39,45,13,18,1.5,1.7
2026-01-18T0600,1604A,122.0303,41.1489,盘锦市,开发区,,30,23,36,21,29,52,,,,9,14,2,7,0.5,0.5
2026-01-18T0600,1605A,122.0486,41.0883,盘锦市,兴隆台,,26,20,31,18,21,51,,,,16,26,6,8,0.6,0.6
2026-01-18T0600,1606A,121.8297,41.1026,盘锦市,新生街道,,29,28,34,20,28,47,,,,14,21,5,7,0.4,0.6
2026-01-18T0600,1832A,113.3257,33.7423,平顶山市,新华旅馆,细颗粒物(PM2.5),64,66,116,46,63,15,,,,24,31,4,5,0.5,0.6
2026-01-18T0600,1833A,113.2917,33.737,平顶山市,规划设计院,细颗粒物(PM2.5),62,54,100,44,62,20,,,,17,24,5,6,0.7,0.7
2026-01-18T0600,1834A,113.182,33.7738,平顶山市,平顶山工学院,细颗粒物(PM2.5),62,50,93,44,61,16,,,,24,26,6,7,0.5,0.6
2026-01-18T0600,3594A,112.8736,33.9068,平顶山市,石龙区,细颗粒物(PM2.5),53,43,106,37,65,10,,,,21,20,4,6,0.6,0.7
2026-01-18T0600,4116A,113.284,33.7139,平顶山市,姚电大道23号,细颗粒物(PM2.5),68,62,119,49,70,16,,,,24,31,6,7,0.7,0.8
2026-01-18T0600,2656A,106.6633,35.5338,平凉市,聚贤嘉苑,颗粒物(PM10),96,141,129,40,41,68,,,,6,25,20,17,0.5,0.6
2026-01-18T0600,2657A,106.7021,35.5307,平凉市,博物馆,颗粒物(PM10),92,133,128,36,44,71,,,,7,26,10,14,0.4,0.6
2026-01-18T0600,2348A,113.8384,27.6436,萍乡市,中医院,细颗粒物(PM2.5),120,132,103,91,77,38,,,,27,29,11,8,0.9,1.3
2026-01-18T0600,2350A,113.8677,27.6438,萍乡市,市环保局,细颗粒物(PM2.5),99,88,83,74,68,25,,,,36,30,18,18,1.1,1.2
2026-01-18T0600,2351A,113.8663,27.6202,萍乡市,安源区政府,细颗粒物(PM2.5),134,110,98,102,99,11,,,,39,30,12,14,1.1,1.3
2026-01-18T0600,4107A,113.8686,27.6668,萍乡市,联洪村委会,细颗粒物(PM2.5),109,107,103,82,82,42,,,,16,25,13,6,0.9,0.9
2026-01-18T0600,2319A,119.0142,25.4324,莆田市,荔城区仓后路,,29,27,52,19,33,92,,,,10,24,/,/,/,/
2026-01-18T0600,2320A,119.0016,25.4553,莆田市,莆田市监测站,,30,26,41,19,27,95,,,,7,13,2,3,0.6,0.7
2026-01-18T0600,2321A,119.112,25.4561,莆田市,涵江区六中,,36,36,48,24,30,25,,,,48,24,/,/,0.4,0.6
2026-01-18T0600,2322A,119.1014,25.3215,莆田市,秀屿区政府,,30,28,48,16,30,94,,,,8,16,2,4,0.7,0.8
2026-01-18T0600,2392A,115.0312,35.7636,濮阳市,环保局,细颗粒物(PM2.5),62,54,72,44,47,20,,,,23,27,5,6,0.6,0.5
2026-01-18T0600,3021A,115,35.7667,濮阳市,濮水河管理处,细颗粒物(PM2.5),65,55,80,47,46,23,,,,24,29,4,5,0.7,0.8
2026-01-18T0600,4118A,115.0552,35.7816,濮阳市,中原东路68号,细颗粒物(PM2.5),58,60,83,41,48,21,,,,26,30,4,5,0.3,0.3
2026-01-18T0600,4216A,115.0923632,35.76857718,濮阳市,任丘路479号,细颗粒物(PM2.5),63,66,84,45,51,20,,,,26,29,4,5,0.6,0.6
2026-01-18T0600,2601A,100.9801,22.7634,普洱市,市环保局,,42,42,52,16,23,26,,,,6,12,5,5,0.4,0.4
2026-01-18T0600,2602A,100.9763,22.8237,普洱市,普洱第二中学,,32,28,38,22,20,11,,,,19,19,5,5,0.3,0.2
2026-01-18T0600,3345A,131.0413,45.7795,七台河市,中波台,细颗粒物(PM2.5),53,44,43,37,33,22,,,,38,20,9,11,0.8,0.5
2026-01-18T0600,3637A,131.0136,45.7688,七台河市,人民广场,细颗粒物(PM2.5),62,,46,44,37,27,,,,40,21,5,8,0.8,0.6
2026-01-18T0600,3684A,130.8639,45.8144,七台河市,新建矿广场,,42,,37,29,35,40,,,,15,14,2,6,0.2,0.4
2026-01-18T0600,1779A,123.9307,47.3641,齐齐哈尔市,安居小区,,28,,25,19,21,46,,,,15,14,3,4,0.4,0.5
2026-01-18T0600,1780A,123.9497,47.3389,齐齐哈尔市,中心广场,,22,22,19,12,10,46,,,,14,13,6,7,0.8,0.7
2026-01-18T0600,1781A,123.9483,47.3229,齐齐哈尔市,农牧车辆厂,,16,7,26,6,12,50,,,,7,11,6,6,0.3,0.4
2026-01-18T0600,1783A,123.9442,47.2994,齐齐哈尔市,市环境监测站,,,18,30,8,18,50,,,,11,15,,9,0.6,0.7
2026-01-18T0600,3662A,123.6341,47.2079,齐齐哈尔市,富区青少年活动中心,,21,21,33,12,19,54,,,,10,14,6,7,0.5,0.6
2026-01-18T0600,2591A,107.9765,26.5724,黔东南苗族侗族自治州,市环境监测站,细颗粒物(PM2.5),90,72,86,67,77,24,,,,23,26,5,5,0.7,0.7
2026-01-18T0600,2881A,107.8909,26.531,黔东南苗族侗族自治州,凯里学院,细颗粒物(PM2.5),75,68,89,55,70,73,,,,10,19,2,3,0.4,0.6
2026-01-18T0600,2593A,107.5223,26.2371,黔南布依族苗族自治州,小围寨,细颗粒物(PM2.5),70,53,68,51,61,61,,,,7,10,5,7,0.8,1
2026-01-18T0600,3538A,107.5175,26.2977,黔南布依族苗族自治州,沙坝,细颗粒物(PM2.5),67,58,74,48,60,54,,,,8,15,4,6,0.9,1
2026-01-18T0600,2589A,104.9022,25.0943,黔西南布依族苗族自治州,场坝街,细颗粒物(PM2.5),55,56,69,39,49,47,,,,6,13,4,20,0.6,0.7
2026-01-18T0600,2590A,104.8812,25.0994,黔西南布依族苗族自治州,坪东大道,细颗粒物(PM2.5),60,49,63,43,57,42,,,,11,22,5,10,0.7,0.8
2026-01-18T0600,2502A,108.6238,21.9667,钦州市,市环保站,细颗粒物(PM2.5),98,102,86,73,56,22,,,,34,33,5,6,0.6,0.6
2026-01-18T0600,2503A,108.655,21.9481,钦州市,沙埠小学,细颗粒物(PM2.5),88,71,81,65,53,21,,,,33,38,13,7,0.8,0.5
2026-01-18T0600,2504A,108.5989,21.7435,钦州市,港区一小,细颗粒物(PM2.5),72,68,74,52,40,20,,,,35,33,7,6,0.9,0.8
2026-01-18T0600,3404A,108.5959,21.9634,钦州市,北职校,细颗粒物(PM2.5),90,78,63,67,58,1,,,,39,30,7,8,1.0,1
2026-01-18T0600,1046A,119.5247,39.9346,秦皇岛市,建设大厦,,40,,29,28,26,44,,,,12,14,9,9,0.3,0.3
2026-01-18T0600,3132A,119.5979,39.938,秦皇岛市,文明里,,43,43,35,20,20,44,,,,19,20,15,13,0.3,0.3
2026-01-18T0600,4066A,119.7458,39.9952,秦皇岛市,南园路157号,颗粒物(PM10),52,54,51,27,17,34,,,,25,26,12,11,0.4,0.4
2026-01-18T0600,4067A,119.5131,39.8858,秦皇岛市,翠岛大街1号,,44,44,37,17,11,44,,,,10,12,12,12,0.4,0.3
2026-01-18T0600,4198A,119.509013,39.825305,秦皇岛市,北戴河轮滑馆,,46,45,28,32,19,52,,,,12,13,10,8,0.3,0.3
2026-01-18T0600,1310A,120.404,36.0625,青岛市,市南区东部子站,,22,19,25,12,14,69,,,,8,12,8,9,0.4,0.4
2026-01-18T0600,1311A,120.362344,36.10282,青岛市,四方区子站,,24,24,38,14,16,63,,,,2,3,3,2,0.5,0.6
2026-01-18T0600,1312A,120.294373,36.054183,青岛市,市南区西部子站,,,,40,7,15,70,,,,10,14,7,8,0.7,0.8
2026-01-18T0600,1313A,120.4581,36.0858,青岛市,崂山区子站,,22,22,25,7,11,67,,,,11,13,9,10,0.2,0.2
2026-01-18T0600,1315A,120.3945,36.3083,青岛市,城阳区子站,,22,22,32,12,16,64,,,,17,16,8,7,0.7,0.7
2026-01-18T0600,3642A,120.3454,36.0735,青岛市,市北区南部,,41,41,41,9,13,65,,,,7,13,1,2,0.6,0.6
2026-01-18T0600,3643A,120.3897,36.18,青岛市,李沧区北部,,22,22,28,14,20,60,,,,12,16,7,8,0.6,0.7
2026-01-18T0600,4110A,120.5222,36.4089,青岛市,盟旺路653号,,20,19,32,7,14,62,,,,16,20,2,2,0.4,0.4
2026-01-18T0600,4290A,120.196923,35.954556,青岛市,珠江路669号,,24,14,26,10,16,74,,,,4,16,9,11,0.4,0.5
2026-01-18T0600,4291A,120.0424,35.8656,青岛市,黄岛区人民政府广场,,24,24,30,3,10,76,,,,10,16,6,7,0.6,0.7
2026-01-18T0600,1703A,113.0218,23.7086,清远市,凤城街办,细颗粒物(PM2.5),110,108,113,83,82,78,,,,33,49,/,/,/,/
2026-01-18T0600,3025A,113.0479,23.6343,清远市,技师学院,细颗粒物(PM2.5),104,146,135,78,78,12,,,,79,74,14,15,0.6,0.8
2026-01-18T0600,3318A,112.9898,23.7403,清远市,清新太和,细颗粒物(PM2.5),99,112,105,74,72,89,,,,38,41,1,7,0.8,0.7
2026-01-18T0600,3455A,113.076,23.72,清远市,清城东城,细颗粒物(PM2.5),103,112,97,77,65,40,,,,37,41,/,/,/,/
2026-01-18T0600,2661A,107.6325,35.7357,庆阳市,庆阳五中,颗粒物(PM10),77,103,117,34,47,55,,,,15,19,6,7,0.4,0.6
2026-01-18T0600,2662A,107.6361,35.7067,庆阳市,市环保局,颗粒物(PM10),79,108,113,22,50,57,,,,14,16,9,8,0.5,0.6
2026-01-18T0600,1916A,103.7897,25.5036,曲靖市,环境监测站,,26,26,39,9,21,53,,,,14,18,3,5,0.6,0.6
2026-01-18T0600,1917A,103.8013,25.5357,曲靖市,烟厂办公区,,34,34,49,17,25,53,,,,13,20,5,7,0.3,0.5
2026-01-18T0600,3376A,103.7926,25.4651,曲靖市,南苑二区,,26,26,33,18,20,60,,,,6,10,6,5,0.4,0.4
2026-01-18T0600,3377A,103.7442,25.5259,曲靖市,曲靖师范学院,,45,33,47,31,39,34,,,,31,26,4,5,0.3,0.5
2026-01-18T0600,1264A,118.8694,28.94,衢州市,环保大楼,细颗粒物(PM2.5),127,124,122,96,97,48,,,,27,39,/,/,/,/
2026-01-18T0600,1266A,118.8622,28.9809,衢州市,衢州学院,细颗粒物(PM2.5),117,113,113,88,88,48,,,,28,35,4,6,0.6,0.6
2026-01-18T0600,4097A,118.9646,28.9832,衢州市,衢州三中,细颗粒物(PM2.5),122,124,124,92,94,28,,,,40,44,4,6,0.9,0.9
2026-01-18T0600,1611A,118.5818,24.9116,泉州市,涂山街,,32,,49,22,33,82,,,,11,21,2,4,0.5,0.6
2026-01-18T0600,1612A,118.597,24.8976,泉州市,津头埔,,35,,50,24,36,76,,,,13,24,4,5,0.5,0.5
2026-01-18T0600,1613A,118.6669,24.9422,泉州市,万安,,48,,53,33,35,54,,,,24,21,4,4,0.5,0.6
2026-01-18T0600,4105A,118.6355,24.9148,泉州市,霞新路6号,,36,36,54,22,35,66,,,,20,26,/,/,0.4,0.5
2026-01-18T0600,2626A,88.8873,29.2723,日喀则市,日喀则监测站,,36,36,68,16,41,44,,,,13,22,10,20,0.6,0.7
2026-01-18T0600,3726A,88.8775,29.2425,日喀则市,林业技术推广中心,,27,27,58,11,37,48,,,,8,14,10,18,0.5,0.5
2026-01-18T0600,1659A,119.4711,35.421,日照市,监测站,,31,31,32,21,17,53,,,,16,14,6,7,0.5,0.5
2026-01-18T0600,1660A,119.523,35.4216,日照市,市政府广场,,36,36,33,16,16,74,,,,12,17,8,9,0.2,0.3
2026-01-18T0600,1661A,119.5511,35.4113,日照市,港务局,,34,34,36,19,23,74,,,,17,19,6,7,0.3,0.4
2026-01-18T0600,3507A,119.5326,35.4627,日照市,职业技术学院,,34,34,30,9,14,65,,,,15,17,6,7,0.6,0.6
2026-01-18T0600,3604A,119.3267,35.1043,日照市,岚山环保分局,,36,36,46,21,27,73,,,,18,21,9,16,0.5,1.3
2026-01-18T0600,1835A,111.1922,34.7752,三门峡市,市政府,细颗粒物(PM2.5),60,,99,43,66,18,,,,25,22,6,9,0.7,0.7
2026-01-18T0600,1836A,111.1588,34.794,三门峡市,开发区,细颗粒物(PM2.5),57,62,120,40,63,19,,,,25,23,4,6,0.8,0.7
2026-01-18T0600,3039A,111.1911,34.7829,三门峡市,三门峡市第一小学,细颗粒物(PM2.5),52,44,102,36,62,18,,,,24,22,7,10,0.7,0.6
2026-01-18T0600,3598A,111.1031,34.719,三门峡市,富达温泉假日酒店,细颗粒物(PM2.5),63,51,114,45,66,14,,,,29,27,5,7,0.7,0.6
2026-01-18T0600,2324A,117.621,26.2626,三明市,三钢,细颗粒物(PM2.5),55,50,56,39,46,8,,,,26,37,4,9,0.7,1.1
2026-01-18T0600,2325A,117.6352,26.2714,三明市,三明二中,细颗粒物(PM2.5),52,41,54,36,42,5,,,,26,32,2,5,0.7,1.1
2026-01-18T0600,2326A,117.6028,26.2377,三明市,三元区政府,细颗粒物(PM2.5),62,48,59,44,44,8,,,,24,38,3,10,0.8,1.4
2026-01-18T0600,1877A,109.4962,18.2682,三亚市,河西子站,,39,39,47,26,26,64,,,,19,21,3,2,0.4,0.4
2026-01-18T0600,3540A,109.7348,18.3443,三亚市,君悦子站,,33,27,36,23,20,58,,,,12,16,4,5,0.4,0.4
2026-01-18T0600,4135A,109.1714,18.3739,三亚市,城东小学站,,39,,33,27,22,34,,,,8,11,/,/,/,/
2026-01-18T0600,2624A,91.7592,29.234,山南市,山南监测站,,13,13,22,9,12,37,,,,7,13,6,5,0.4,0.5
2026-01-18T0600,2625A,91.7701,29.2436,山南市,山南人民医院,,13,13,19,6,9,38,,,,9,14,8,8,0.4,0.5
2026-01-18T0600,1674A,116.6795,23.3666,汕头市,金平子站,,39,37,58,27,38,85,,,,14,30,6,9,0.7,0.8
2026-01-18T0600,1675A,116.7248,23.3632,汕头市,龙湖子站,颗粒物(PM10),56,62,55,23,31,86,,,,10,23,10,13,/,/
2026-01-18T0600,1676A,116.7257,23.2774,汕头市,濠江子站,,42,42,52,25,35,85,,,,13,24,8,11,/,/
2026-01-18T0600,1677A,116.7518,23.4712,汕头市,澄海子站,细颗粒物(PM2.5),65,59,86,47,44,77,,,,23,26,12,10,0.7,0.7
2026-01-18T0600,1678A,116.6088,23.2539,汕头市,潮阳子站,,36,36,50,20,28,77,,,,13,18,6,9,0.7,0.8
2026-01-18T0600,3444A,116.4539,23.2684,汕头市,潮南峡山,细颗粒物(PM2.5),64,61,66,46,45,60,,,,23,24,8,10,0.7,0.6
2026-01-18T0600,3624A,116.4069,23.2533,汕头市,潮南子站,细颗粒物(PM2.5),78,91,77,57,45,54,,,,30,25,7,9,/,/
2026-01-18T0600,1693A,115.3653,22.7751,汕尾市,市环保局,,49,48,46,34,32,103,,,,13,19,8,8,0.6,0.7
2026-01-18T0600,1695A,115.362,22.7926,汕尾市,新城中学,细颗粒物(PM2.5),55,51,51,39,33,97,,,,14,21,7,7,0.5,0.6
2026-01-18T0600,2645A,109.9155,33.8714,商洛市,监测站,细颗粒物(PM2.5),129,148,144,98,87,33,,,,38,26,5,7,0.7,0.8
2026-01-18T0600,3045A,109.9647,33.8486,商洛市,商州区中学,细颗粒物(PM2.5),130,120,133,99,82,32,,,,36,28,4,6,0.9,0.8
2026-01-18T0600,2408A,115.6701,34.4283,商丘市,环境监测站,颗粒物(PM10),64,77,90,38,42,31,,,,14,20,2,3,0.5,0.5
2026-01-18T0600,2409A,115.6458,34.4047,商丘市,粮食局,颗粒物(PM10),67,83,70,40,39,30,,,,9,16,1,2,0.6,0.6
2026-01-18T0600,3171A,115.6069,34.4465,商丘市,梁园区档案局,颗粒物(PM10),56,61,67,33,38,27,,,,12,19,3,5,0.5,0.5
2026-01-18T0600,4119A,115.6701,34.3767,商丘市,北海东路185号,颗粒物(PM10),65,79,78,36,42,31,,,,10,17,1,2,0.5,0.6
2026-01-18T0600,4120A,115.6172,34.3704,商丘市,中山大街3号,细颗粒物(PM2.5),68,81,78,49,43,36,,,,11,19,3,2,0.4,0.4
2026-01-18T0600,1141A,121.401,31.2382,上海市,普陀,,42,42,76,24,55,50,,,,37,27,6,6,0.6,0.7
2026-01-18T0600,1142A,121.4774,31.2043,上海市,十五厂,,40,40,78,17,49,51,,,,35,28,6,6,0.5,0.7
2026-01-18T0600,1143A,121.4673,31.3011,上海市,虹口,,42,42,84,24,50,28,,,,54,32,7,7,0.5,0.7
2026-01-18T0600,1147A,121.4253,31.226,上海市,静安监测站,,40,40,76,22,52,52,,,,38,29,6,6,0.5,0.7
2026-01-18T0600,1148A,121.7029,31.1905,上海市,浦东川沙,,41,41,74,18,41,41,,,,37,27,6,6,0.3,0.5
2026-01-18T0600,1149A,121.5339,31.229,上海市,浦东新区监测站,,39,39,75,24,52,30,,,,48,30,6,6,0.5,0.6
2026-01-18T0600,1150A,121.5776,31.2038,上海市,浦东张江,,42,42,71,20,49,45,,,,42,31,6,6,0.2,0.4
2026-01-18T0600,3265A,121.4242,31.3303,上海市,宝山庙行,,43,43,79,22,51,36,,,,44,27,6,7,0.3,0.5
2026-01-18T0600,3266A,121.8789,31.4662,上海市,崇明上实东滩,,28,28,61,9,29,65,,,,12,14,3,3,0,0.1
2026-01-18T0600,3268A,121.316,31.2839,上海市,嘉定南翔,,,40,76,11,63,25,,,,55,28,,3,0.4,0.5
2026-01-18T0600,3269A,121.3357,30.7455,上海市,金山新城,,46,46,68,32,57,44,,,,30,24,7,7,0.6,0.7
2026-01-18T0600,3270A,121.4996,31.0741,上海市,闵行浦江,,42,42,71,16,46,51,,,,27,21,6,6,0.4,0.5
2026-01-18T0600,3271A,121.2886,31.1663,上海市,青浦徐泾,,42,42,82,23,54,15,,,,66,38,4,4,0.5,0.6
2026-01-18T0600,3272A,121.2193,31.0382,上海市,松江图书馆,颗粒物(PM10),51,51,85,28,42,40,,,,38,28,6,6,0.4,0.6
2026-01-18T0600,3273A,121.3904,31.206,上海市,长宁仙霞,,33,33,76,17,50,43,,,,28,24,6,6,0.3,0.4
2026-01-18T0600,3274A,121.7964,31.0507,上海市,浦东惠南,,43,43,68,23,45,32,,,,44,25,4,3,0.5,0.7
2026-01-18T0600,3544A,121.4891,30.925,上海市,奉贤南桥新城,,48,48,73,26,47,50,,,,33,24,2,2,0.3,0.5
2026-01-18T0600,4183A,121.417401,31.16637,上海市,冠生园路458号,,37,37,75,24,53,25,,,,57,33,4,5,0.5,0.6
2026-01-18T0600,4205A,121.541914,31.268301,上海市,宁武路151号,,42,42,80,20,50,34,,,,47,36,4,5,0.6,0.9
2026-01-18T0600,2382A,117.9758,28.4439,上饶市,市监测站,颗粒物(PM10),75,99,99,54,58,75,,,,18,40,4,16,/,/
2026-01-18T0600,2383A,117.9521,28.4637,上饶市,凤凰光学,细颗粒物(PM2.5),90,103,100,67,59,66,,,,20,39,10,16,0.8,0.8
2026-01-18T0600,3685A,117.897,28.4316,上饶市,双创科技城,细颗粒物(PM2.5),88,90,94,65,59,74,,,,22,42,4,12,0.8,0.9
2026-01-18T0600,4211A,118.190438,28.444845,上饶市,裕丰大道,细颗粒物(PM2.5),124,117,118,94,84,56,,,,30,43,13,15,1.1,1.1
2026-01-18T0600,1669A,113.5821,24.7733,韶关市,市八中,细颗粒物(PM2.5),73,81,94,53,61,1,,,,53,45,11,11,0.7,0.8
2026-01-18T0600,1671A,113.5916,24.7973,韶关市,园林处,细颗粒物(PM2.5),78,64,72,57,62,1,,,,57,49,7,10,/,/
2026-01-18T0600,1673A,113.5971,24.6864,韶关市,曲江监测站,细颗粒物(PM2.5),77,82,86,56,60,17,,,,30,37,10,19,1.0,1
2026-01-18T0600,2809A,113.6668,24.7756,韶关市,大学路288号,细颗粒物(PM2.5),60,50,66,43,54,12,,,,22,22,3,14,/,/
2026-01-18T0600,3622A,113.5556,24.8082,韶关市,碧湖山庄,细颗粒物(PM2.5),87,108,90,64,61,20,,,,24,24,6,10,0.6,0.7
2026-01-18T0600,2464A,111.5277,27.2442,邵阳市,市化工厂,细颗粒物(PM2.5),147,141,119,112,95,34,,,,27,26,11,12,0.9,0.9
2026-01-18T0600,2466A,111.4327,27.2276,邵阳市,市环保局,细颗粒物(PM2.5),175,,101,132,91,29,,,,21,20,6,7,1.2,1.4
2026-01-18T0600,4218A,111.446,27.2472,邵阳市,北塔二期4-26地块,细颗粒物(PM2.5),185,,106,139,119,29,,,,22,24,9,10,1.2,1.3
2026-01-18T0600,4219A,111.4739,27.2282,邵阳市,邵水西路287号,细颗粒物(PM2.5),144,,104,110,91,39,,,,18,21,9,12,1.1,1.2
2026-01-18T0600,1247A,120.6053,29.9927,绍兴市,城东开发委,颗粒物(PM10),63,75,93,44,65,48,,,,21,22,7,7,0.5,0.6
2026-01-18T0600,2921A,120.5482,30.0003,绍兴市,树下王站,颗粒物(PM10),63,75,85,40,58,56,,,,15,18,6,6,0.7,0.7
2026-01-18T0600,3408A,120.5685,29.936,绍兴市,绍兴中专,颗粒物(PM10),72,94,105,43,64,51,,,,22,29,6,6,0.5,0.6
2026-01-18T0600,3409A,120.4905,30.086,绍兴市,柯桥区政府,,50,50,62,23,33,55,,,,21,24,5,5,0.5,0.6
2026-01-18T0600,3410A,120.8751,30.0249,绍兴市,重华小学,颗粒物(PM10),72,93,93,51,61,28,,,,20,24,6,6,0.5,0.4
2026-01-18T0600,3411A,120.837,30.0137,绍兴市,上虞中学,颗粒物(PM10),80,110,102,54,65,7,,,,48,22,7,6,0.6,0.6
2026-01-18T0600,3560A,120.4715,30.0414,绍兴市,柯桥妇保,颗粒物(PM10),54,57,84,34,60,53,,,,23,23,6,5,0.4,0.6
2026-01-18T0600,3658A,120.6156,30.0762,绍兴市,袍江中学,颗粒物(PM10),60,70,79,33,41,48,,,,28,23,3,2,1.0,1.1
2026-01-18T0600,1356A,114.0948,22.5506,深圳市,通心岭子站,,38,38,45,22,28,108,,,,12,27,10,9,0.4,0.5
2026-01-18T0600,1357A,114.1153,22.5713,深圳市,洪湖,,44,44,59,23,30,121,,,,13,44,11,9,0.6,0.7
2026-01-18T0600,1358A,113.9823,22.5398,深圳市,华侨城,,38,36,52,26,33,99,,,,16,43,/,/,/,/
2026-01-18T0600,1359A,113.9181,22.517,深圳市,南海子站,,40,40,67,20,38,114,,,,11,53,7,8,0.7,0.8
2026-01-18T0600,1360A,114.2345,22.565,深圳市,盐田,,41,41,40,24,25,113,,,,20,27,10,9,0.7,0.7
2026-01-18T0600,1363A,114.4911,22.5381,深圳市,南澳,,40,32,36,20,22,127,,,,7,20,/,/,/,/
2026-01-18T0600,1364A,114.41,22.6346,深圳市,葵涌,,37,37,39,22,24,72,,,,18,24,7,8,0.6,0.6
2026-01-18T0600,1365A,114.2967,22.5978,深圳市,梅沙,,36,36,43,24,23,113,,,,8,20,/,/,/,/
2026-01-18T0600,1366A,114.0563,22.7353,深圳市,观澜,细颗粒物(PM2.5),77,98,97,56,49,5,,,,80,72,8,9,0.8,0.7
2026-01-18T0600,3305A,114.0614,22.556,深圳市,莲花,,40,40,47,24,27,107,,,,16,32,/,/,/,/
2026-01-18T0600,3306A,114.0144,22.6163,深圳市,民治,,37,37,54,25,33,93,,,,28,47,/,/,/,/
2026-01-18T0600,3307A,114.1756,22.6421,深圳市,横岗,,39,39,52,24,29,122,,,,12,35,/,/,/,/
2026-01-18T0600,3447A,114.344,22.7115,深圳市,坪山,颗粒物(PM10),54,58,67,29,34,28,,,,80,53,9,10,0.7,0.7
2026-01-18T0600,3623A,113.8952,22.586,深圳市,西乡,,38,38,70,20,40,92,,,,23,70,6,8,0.7,0.8
2026-01-18T0600,4220A,114.214113,22.713717,深圳市,黄阁路,颗粒物(PM10),52,54,59,34,35,64,,,,32,41,8,8,0.7,0.8
2026-01-18T0600,1099A,123.5058,41.7084,沈阳市,浑南东路,,49,48,38,34,27,3,,,,67,48,8,9,0.8,0.7
2026-01-18T0600,1100A,123.4238,41.6992,沈阳市,新秀街,颗粒物(PM10),51,52,42,32,25,11,,,,58,47,10,12,0.7,0.8
2026-01-18T0600,1102A,123.5903,41.8412,沈阳市,东陵路,,42,42,33,27,25,32,,,,28,28,5,7,0.6,0.6
2026-01-18T0600,1103A,123.4267,41.8466,沈阳市,陵东街,细颗粒物(PM2.5),58,60,38,41,28,1,,,,65,48,11,12,0.9,0.7
2026-01-18T0600,1104A,123.4116,41.7654,沈阳市,文化路,,38,37,34,26,23,34,,,,35,35,18,18,0.6,0.6
2026-01-18T0600,1105A,123.4673,41.787,沈阳市,小河沿,,42,34,32,29,23,40,,,,21,31,10,17,0.6,0.7
2026-01-18T0600,1106A,123.4019,41.7978,沈阳市,太原街,细颗粒物(PM2.5),62,,37,44,32,35,,,,36,39,30,17,0.4,0.5
