timepoint,stationcode,longitude,latitude,area,positionname,primarypollutant,aqi,pm10,pm10_24h,pm2_5,pm2_5_24h,o3,o3_24h,o3_8h,o3_8h_24h,no2,no2_24h,so2,so2_24h,co,co_24h
2026-01-18T2000,2568A,102.2503,31.8896,阿坝藏族羌族自治州,马师校,,49,46,21,34,18,17,,56,51,43,17,4,4,0.8,0.6
2026-01-18T2000,3994A,102.2174,31.9016,阿坝藏族羌族自治州,马尔康中学西区,,,,13,,12,,,63,63,,13,,5,,0.4
2026-01-18T2000,2695A,80.2899,41.1684,阿克苏地区,电视台,颗粒物(PM10),334,447,289,89,55,68,,73,73,18,21,6,5,0.7,1.1
2026-01-18T2000,2696A,80.2592,41.1541,阿克苏地区,艺术中心,颗粒物(PM10),293,415,308,101,64,76,,82,82,11,17,3,5,0.5,0.6
2026-01-18T2000,2205A,105.699,38.8409,阿拉善盟,蒙二幼,,33,33,70,11,16,64,,67,67,7,8,9,10,0.5,0.5
2026-01-18T2000,2206A,105.7198,38.8508,阿拉善盟,环保局新楼,,26,26,63,9,17,61,,63,63,6,6,8,9,0.5,0.5
2026-01-18T2000,2708A,88.1266,47.8515,阿勒泰地区,市站,,16,9,21,6,12,47,,68,67,32,27,3,7,0.4,0.6
2026-01-18T2000,4166A,88.1198,47.7931,阿勒泰地区,阿勒泰路33号,,24,24,19,3,10,66,,65,65,15,23,2,11,0.4,0.5
2026-01-18T2000,2630A,80.1171,32.4999,阿里地区,阿里监测站,,22,6,3,3,3,69,,78,68,2,2,6,6,0.4,0.4
2026-01-18T2000,3192A,80.0906,32.5029,阿里地区,阿里藏医院,,,,8,,4,96,,95,95,2,2,10,10,0.4,0.4
2026-01-18T2000,2644A,109.0088,32.6974,安康市,汉滨区检察院,细颗粒物(PM2.5),112,107,118,84,87,53,,63,61,27,28,4,4,0.9,0.9
2026-01-18T2000,4054A,109.0324,32.6913,安康市,市邮政管理局,细颗粒物(PM2.5),118,121,149,89,102,40,,49,47,23,37,5,6,1.0,1
2026-01-18T2000,2291A,117.0806,30.5181,安庆市,环科院,细颗粒物(PM2.5),155,167,151,118,124,51,,81,79,20,20,5,6,0.8,0.8
2026-01-18T2000,2292A,117.0331,30.5118,安庆市,马山宾馆,细颗粒物(PM2.5),149,153,147,114,120,55,,83,80,25,22,4,5,1.1,1.2
2026-01-18T2000,2294A,116.9897,30.6146,安庆市,安庆大学,细颗粒物(PM2.5),148,148,157,113,120,52,,70,70,22,20,3,3,0.8,0.9
2026-01-18T2000,3173A,117.0598,30.5351,安庆市,市人大,细颗粒物(PM2.5),152,170,162,116,123,51,,80,76,27,26,5,6,0.7,0.8
2026-01-18T2000,3123A,105.9408,26.2431,安顺市,凤凰山,,40,40,57,28,45,85,,88,88,16,16,14,17,0.4,0.6
2026-01-18T2000,3124A,105.9443,26.2567,安顺市,金钟山,,43,42,57,30,45,79,,81,81,13,11,24,17,0.5,0.5
2026-01-18T2000,3125A,105.8983,26.248,安顺市,娄家坡,,46,39,48,32,41,80,,84,84,14,10,13,10,0.6,0.6
2026-01-18T2000,1819A,114.3552,36.1017,安阳市,红庙街,细颗粒物(PM2.5),52,52,65,36,45,16,,28,26,28,23,3,3,0.7,0.7
2026-01-18T2000,1820A,114.361,36.0681,安阳市,银杏小区,细颗粒物(PM2.5),64,56,67,46,50,17,,27,25,28,24,2,1,0.5,0.5
2026-01-18T2000,3141A,114.3921,36.0879,安阳市,信访局,细颗粒物(PM2.5),60,55,63,43,47,19,,30,27,31,27,3,2,0.7,0.7
2026-01-18T2000,3669A,114.4706,36.0634,安阳市,左辅环卫站,细颗粒物(PM2.5),64,67,73,46,49,24,,32,29,20,17,1,2,0.5,0.5
2026-01-18T2000,4117A,114.2918,36.0769,安阳市,钢三路198号,细颗粒物(PM2.5),62,64,75,44,55,21,,31,30,29,24,2,1,0.8,0.7
2026-01-18T2000,1748A,123.0441,41.1201,鞍山市,深沟寺,,32,32,45,20,33,42,,50,48,25,28,8,9,0.7,1.1
2026-01-18T2000,1749A,123.011,41.0931,鞍山市,太阳城,,30,30,40,18,29,57,,57,57,16,23,10,12,0.7,1
2026-01-18T2000,1750A,123.0483,41.1445,鞍山市,太平,,38,38,61,21,39,48,,50,50,19,29,9,12,0.7,1
2026-01-18T2000,1751A,122.964,41.0968,鞍山市,铁西三道街,,38,38,47,22,29,34,,46,42,39,34,23,24,1.1,1.2
2026-01-18T2000,1753A,123.0219,41.0822,鞍山市,明达新区,,26,26,40,17,28,49,,53,51,19,22,12,14,0.5,0.7
2026-01-18T2000,4201A,122.944647,41.082639,鞍山市,兴盛南路290号,,43,43,50,24,31,32,,46,43,37,32,28,22,2.0,1.4
2026-01-18T2000,2195A,107.4206,40.7609,巴彦淖尔市,附二中,颗粒物(PM10),52,54,67,27,22,53,,61,60,8,5,2,3,0.4,0.4
2026-01-18T2000,2196A,107.37,40.7372,巴彦淖尔市,市环保大楼,,49,49,69,22,19,57,,66,64,9,6,5,5,0.5,0.4
2026-01-18T2000,1956A,86.1476,41.7529,巴音郭楞蒙古自治州,孔雀公园,颗粒物(PM10),72,94,86,31,29,70,,75,70,8,7,8,8,0.4,0.4
2026-01-18T2000,1957A,86.1971,41.7166,巴音郭楞蒙古自治州,棉纺厂,颗粒物(PM10),74,98,105,25,21,58,,64,64,19,15,/,/,/,/
2026-01-18T2000,1958A,86.236,41.7172,巴音郭楞蒙古自治州,经济开发区,颗粒物(PM10),67,84,90,16,20,69,,68,68,7,8,5,5,0.4,0.4
2026-01-18T2000,3181A,106.776805,31.852614,巴中市,市五中,细颗粒物(PM2.5),204,217,162,154,120,2,,4,4,46,31,7,6,1.9,1.6
2026-01-18T2000,3183A,106.7419,31.8654,巴中市,圣泉水务公司,细颗粒物(PM2.5),170,156,119,129,102,2,,7,6,62,40,7,6,2.2,1.2
2026-01-18T2000,3616A,106.7617,31.8343,巴中市,市中心医院,细颗粒物(PM2.5),178,163,144,134,125,1,,4,4,52,39,8,7,1.9,1.3
2026-01-18T2000,2235A,122.7909,45.608,白城市,洮北区环保局,细颗粒物(PM2.5),92,108,30,68,24,22,,58,48,57,22,10,7,0.8,0.4
2026-01-18T2000,2236A,122.8741,45.5725,白城市,市环保局,,46,46,25,31,17,8,,60,42,48,19,9,7,0.5,0.4
2026-01-18T2000,2231A,126.4219,41.9172,白山市,喜丰,,22,15,50,11,28,70,,62,62,8,35,9,18,0.5,0.8
2026-01-18T2000,2232A,126.4082,41.9416,白山市,环保局,,22,7,28,3,25,68,,55,55,10,23,10,13,0.2,0.5
2026-01-18T2000,2647A,104.1727,36.5448,白银市,第三小学,颗粒物(PM10),58,66,100,15,23,65,,64,63,9,12,3,4,0.3,0.3
2026-01-18T2000,2648A,104.1467,36.5482,白银市,动力公司,,48,48,93,14,25,66,,64,63,6,8,3,2,0.5,0.5
2026-01-18T2000,2512A,106.6102,23.901,百色市,市监测站,,,59,77,34,56,76,,90,90,18,25,18,14,,0.8
2026-01-18T2000,2513A,106.6524,23.8842,百色市,市中心血站,细颗粒物(PM2.5),63,59,82,45,70,82,,97,97,17,26,21,14,0.8,0.9
2026-01-18T2000,4133A,106.6273,23.8798,百色市,龙景西路,细颗粒物(PM2.5),60,62,109,43,70,86,,102,102,17,29,19,16,0.6,0.8
2026-01-18T2000,2270A,117.396,32.9389,蚌埠市,工人疗养院,颗粒物(PM10),74,97,85,51,37,48,,52,51,16,17,4,4,0.3,0.3
2026-01-18T2000,2271A,117.3606,32.9428,蚌埠市,百货大楼,颗粒物(PM10),73,95,83,49,33,49,,52,52,16,17,4,4,0.4,0.4
2026-01-18T2000,2273A,117.4183,32.8909,蚌埠市,蚌埠学院,颗粒物(PM10),74,97,77,43,35,52,,50,50,18,25,3,4,0.4,0.4
2026-01-18T2000,2274A,117.3534,32.9672,蚌埠市,淮上区政府,细颗粒物(PM2.5),75,95,80,55,38,47,,53,52,18,17,1,1,0.3,0.3
2026-01-18T2000,2275A,117.3143,32.8977,蚌埠市,高新区,细颗粒物(PM2.5),74,85,80,54,40,48,,46,46,16,19,6,6,0.2,0.2
2026-01-18T2000,3715A,117.3091,32.9314,蚌埠市,蚌埠田家炳中学,细颗粒物(PM2.5),77,97,86,56,41,41,,49,47,22,21,3,4,0.4,0.4
2026-01-18T2000,1585A,109.8761,40.6533,包头市,市环境监测站,,43,43,58,3,9,69,,72,72,7,7,4,4,0.2,0.2
2026-01-18T2000,1587A,109.9992,40.5843,包头市,包头八中,颗粒物(PM10),53,55,71,9,11,62,,68,68,8,7,5,5,0.5,0.5
2026-01-18T2000,1589A,109.8641,40.6288,包头市,惠龙物流,,33,33,47,16,8,70,,74,74,7,6,6,6,0.4,0.4
2026-01-18T2000,1590A,110.0376,40.5546,包头市,东河鸿龙湾,颗粒物(PM10),52,54,49,9,5,61,,64,64,8,12,6,8,0.5,0.6
2026-01-18T2000,3283A,109.9154,40.5684,包头市,滨河大厦,,22,22,32,8,9,67,,70,70,1,4,5,6,0.5,0.5
2026-01-18T2000,3419A,109.9449,40.6259,包头市,包头市委党校,颗粒物(PM10),63,76,51,3,14,61,,67,67,7,8,8,6,0.5,0.5
2026-01-18T2000,3683A,109.8332,40.6577,包头市,昆区政府,,24,24,50,7,8,67,,69,69,8,8,5,5,0.4,0.5
2026-01-18T2000,1931A,107.0802,34.3129,宝鸡市,竹园沟,颗粒物(PM10),65,80,111,32,57,46,,55,53,12,24,6,6,0.4,0.5
2026-01-18T2000,1933A,107.1429,34.3549,宝鸡市,监测站,颗粒物(PM10),67,83,129,35,63,41,,47,47,23,39,5,6,0.7,0.8
2026-01-18T2000,1934A,107.1172,34.3759,宝鸡市,技工学校,颗粒物(PM10),63,76,128,34,70,52,,49,49,17,26,4,6,0.8,1
2026-01-18T2000,1936A,107.2025,34.3518,宝鸡市,文理学院,细颗粒物(PM2.5),192,178,136,144,82,4,,49,32,64,41,7,6,1.0,0.8
2026-01-18T2000,1937A,107.2396,34.3626,宝鸡市,三迪小学,细颗粒物(PM2.5),185,178,144,139,92,6,,39,26,58,45,6,5,1.1,0.9
2026-01-18T2000,4155A,107.1721,34.3558,宝鸡市,滨河北路,颗粒物(PM10),110,170,135,72,66,23,,45,43,43,37,9,6,0.8,0.7
2026-01-18T2000,4308A,107.3898,34.3601,宝鸡市,陈仓区北开路21号,细颗粒物(PM2.5),201,196,180,151,115,11,,31,12,54,56,8,18,1.1,1
2026-01-18T2000,1051A,115.4803,38.8568,保定市,游泳馆,细颗粒物(PM2.5),52,45,53,36,24,34,,45,43,30,21,2,2,0.7,0.5
2026-01-18T2000,1052A,115.509,38.8895,保定市,华电二区,细颗粒物(PM2.5),63,46,46,45,33,44,,49,48,19,18,4,3,0.7,0.5
2026-01-18T2000,1053A,115.4588,38.9037,保定市,接待中心,颗粒物(PM10),51,51,47,34,27,40,,45,45,22,19,1,2,0.5,0.3
2026-01-18T2000,1054A,115.4484,38.8344,保定市,地表水厂,"颗粒物(PM10),细颗粒物(PM2.5)",52,53,61,36,27,30,,45,41,37,25,5,5,0.6,0.4
2026-01-18T2000,3581A,115.3136,38.9511,保定市,满城区生态环境分局,细颗粒物(PM2.5),52,41,38,36,25,36,,50,48,42,26,2,2,0.7,0.5
2026-01-18T2000,3582A,115.4709,38.7628,保定市,清苑区第二中学,细颗粒物(PM2.5),53,52,57,37,24,23,,42,38,36,22,1,2,0.8,0.5
2026-01-18T2000,3583A,115.6231,39.0223,保定市,徐水物探局,细颗粒物(PM2.5),58,52,42,41,32,27,,46,42,36,22,1,2,0.7,0.6
2026-01-18T2000,4004A,115.4199,38.8665,保定市,双鹰农机,细颗粒物(PM2.5),58,53,53,41,33,48,,52,52,18,15,4,4,0.5,0.5
2026-01-18T2000,4034A,115.515,38.8589,保定市,植保所站,细颗粒物(PM2.5),65,,50,47,37,32,,42,40,28,23,3,2,0.8,0.6
2026-01-18T2000,2594A,99.1589,25.1137,保山市,市环境监测站,,,33,29,23,20,65,,86,86,,10,6,9,0.4,0.4
2026-01-18T2000,2595A,99.1616,25.1381,保山市,市环保局,,36,36,31,23,19,79,,90,90,4,7,4,4,0.4,0.4
2026-01-18T2000,1867A,109.1435,21.4085,北海市,海滩公园,细颗粒物(PM2.5),70,66,80,51,58,148,,177,177,33,22,12,16,1.0,1
2026-01-18T2000,1868A,109.0983,21.466,北海市,新市环保局,细颗粒物(PM2.5),67,60,75,48,62,143,,154,153,34,37,11,13,0.8,0.8
2026-01-18T2000,1869A,109.1775,21.5232,北海市,北海工业园,细颗粒物(PM2.5),64,62,93,46,64,125,,175,171,27,29,9,17,0.8,1
2026-01-18T2000,3400A,109.1844,21.4396,北海市,龙潭自来水厂,细颗粒物(PM2.5),62,54,74,44,60,141,,169,168,18,23,20,23,1.0,1.1
2026-01-18T2000,1001A,116.3611,39.8786,北京市,万寿西宫,细颗粒物(PM2.5),52,47,44,36,26,26,,42,28,42,26,3,3,0.7,0.8
2026-01-18T2000,1003A,116.4174,39.9289,北京市,东四,,36,36,45,24,26,38,,39,33,28,24,5,6,0.6,0.7
2026-01-18T2000,1004A,116.4073,39.8858,北京市,天坛,,46,43,43,32,24,32,,46,35,34,22,2,4,0.7,0.7
2026-01-18T2000,1005A,116.4622,39.9364,北京市,农展馆,,45,42,42,31,26,38,,49,41,23,15,5,6,0.6,0.7
2026-01-18T2000,1006A,116.3399,39.9293,北京市,官园,,42,38,51,29,25,38,,43,34,26,22,5,6,0.6,0.7
2026-01-18T2000,1007A,116.2879,39.9613,北京市,海淀万柳,,32,28,39,22,25,34,,37,33,32,28,3,3,0.5,0.6
2026-01-18T2000,1008A,116.6635,40.1349,北京市,顺义新城,,34,34,39,20,21,56,,53,51,13,15,4,6,0.4,0.5
2026-01-18T2000,1009A,116.6275,40.327,北京市,怀柔镇,,21,9,34,6,20,65,,53,53,7,15,4,5,0.4,0.6
2026-01-18T2000,1010A,116.2295,40.217,北京市,昌平镇,,20,13,39,6,23,61,,45,45,16,21,2,2,0.3,0.6
2026-01-18T2000,1011A,116.3968,39.982,北京市,奥体中心,,30,30,40,20,25,47,,46,40,27,26,4,4,0.7,0.9
2026-01-18T2000,3418A,116.8336,40.4095,北京市,密云新城,,22,8,40,3,20,68,,56,56,5,14,6,7,0.4,0.6
2026-01-18T2000,3671A,116.0879,39.9725,北京市,门头沟三家店,,26,22,38,18,28,47,,40,35,19,27,3,3,0.4,0.6
2026-01-18T2000,3672A,116.1507,39.8246,北京市,丰台云岗,细颗粒物(PM2.5),60,52,38,43,26,20,,51,45,46,24,2,3,0.7,0.6
2026-01-18T2000,3674A,115.9578,39.7602,北京市,房山燕山,,48,43,35,33,25,31,,46,43,28,25,3,3,0.5,0.5
2026-01-18T2000,3675A,116.4669,39.7734,北京市,大兴旧宫,颗粒物(PM10),52,53,44,33,21,15,,44,36,48,22,4,5,1.0,0.8
2026-01-18T2000,3694A,115.9859,40.4562,北京市,延庆石河营,,23,9,38,3,22,71,,57,57,4,17,3,3,0.3,0.5
2026-01-18T2000,3695A,116.6151,40.3052,北京市,怀柔新城,,22,8,35,6,23,69,,56,56,3,11,4,5,0.3,0.6
2026-01-18T2000,3696A,116.2542,39.8764,北京市,丰台小屯,,46,43,41,32,25,23,,35,28,42,28,3,3,0.6,0.6
2026-01-18T2000,3697A,116.8399,40.3843,北京市,密云镇,,22,9,38,3,21,70,,56,56,6,15,2,3,0.3,0.6
2026-01-18T2000,4057A,115.9423,40.4431,北京市,延庆百泉,,20,14,40,3,22,64,,51,51,1,14,2,2,0.2,0.4
2026-01-18T2000,4058A,116.6598,39.9164,北京市,通州新华,颗粒物(PM10),54,58,47,33,23,16,,42,35,44,21,5,5,0.7,0.8
2026-01-18T2000,4182A,116.1942,39.9158,北京市,石景山八角,,39,39,40,23,24,28,,42,33,33,21,4,3,0.3,0.4
2026-01-18T2000,4194A,117.078628,40.151726,北京市,平谷新城,,18,17,41,12,23,57,,51,51,3,10,1,3,0.2,0.5
2026-01-18T2000,1761A,123.8274146,41.31234549,本溪市,大峪,,38,38,65,21,34,46,,52,51,20,36,9,9,0.7,1.1
2026-01-18T2000,1763A,123.7169,41.3094,本溪市,彩屯,,37,37,55,22,40,46,,49,48,22,38,9,10,0.8,1.1
2026-01-18T2000,1764A,123.7672166,41.28649327,本溪市,东明,,34,34,54,22,33,40,,50,47,24,33,7,7,0.8,1.1
2026-01-18T2000,1765A,123.799345,41.266614,本溪市,新立屯,,34,34,42,21,29,44,,54,50,20,25,11,10,0.6,0.8
2026-01-18T2000,1766A,123.829144,41.336777,本溪市,威宁,,39,39,63,24,38,35,,48,44,31,39,6,5,0.6,1.1
2026-01-18T2000,2587A,105.287,27.3133,毕节市,八中,细颗粒物(PM2.5),107,111,89,80,72,17,,86,82,76,26,27,13,2.4,1.1
2026-01-18T2000,2588A,105.3079,27.2987,毕节市,师专,细颗粒物(PM2.5),64,60,114,46,92,69,,92,92,35,38,12,13,0.8,1.6
2026-01-18T2000,4263A,105.3688,27.3598,毕节市,工业大道,细颗粒物(PM2.5),68,75,122,49,86,88,,100,100,19,26,13,13,/,/
2026-01-18T2000,1629A,117.9961,37.3604,滨州市,第二水厂,,19,19,28,13,18,50,,47,47,12,15,7,8,0.5,0.5
2026-01-18T2000,1630A,117.9789,37.3931,滨州市,北中新校,,22,22,36,9,17,53,,48,48,15,19,6,6,0.3,0.4
2026-01-18T2000,3514A,117.9379,37.3959,滨州市,中海酒店,,20,14,27,14,23,48,,45,45,12,14,5,6,0.4,0.5
2026-01-18T2000,3515A,117.9381509,37.35547456,滨州市,开发区一中,,19,19,31,7,19,58,,53,53,8,13,8,11,0.3,0.4
2026-01-18T2000,3516A,118.0914,37.6938,滨州市,金海六路,,24,24,23,9,11,61,,65,65,8,9,3,3,0.2,0.3
2026-01-18T2000,4028A,117.9955,37.3752,滨州市,滨州市西街道办事处,,25,,25,17,23,58,,54,54,11,14,6,8,0.4,0.5
2026-01-18T2000,2311A,115.8071,33.8399,亳州市,污水处理厂,,36,33,54,25,27,11,,31,12,24,21,2,2,0.4,0.3
2026-01-18T2000,2312A,115.7789,33.8519,亳州市,三国揽胜宫,细颗粒物(PM2.5),54,42,65,38,33,11,,31,12,20,20,1,2,0.5,0.4
2026-01-18T2000,3332A,115.7631,33.803,亳州市,亳州学院,,43,35,65,30,32,10,,32,12,26,21,2,3,0.6,0.6
2026-01-18T2000,2693A,82.0482,44.8553,博尔塔拉蒙古自治州,市党校,颗粒物(PM10),57,64,53,10,13,52,,58,58,22,18,2,3,1.8,1.6
2026-01-18T2000,2694A,82.0805,44.8966,博尔塔拉蒙古自治州,市环保局,颗粒物(PM10),69,88,57,37,25,51,,55,52,15,14,5,5,1.2,1.2
2026-01-18T2000,1071A,116.8733,38.2922,沧州市,沧县城建局,颗粒物(PM10),56,61,40,29,23,42,,50,48,28,19,9,6,0.5,0.4
2026-01-18T2000,1072A,116.8462,38.3189,沧州市,电视转播站,颗粒物(PM10),52,54,44,27,19,36,,46,44,32,22,2,2,0.5,0.4
2026-01-18T2000,1073A,116.8588,38.3161,沧州市,市环保局,,50,48,45,35,29,34,,45,42,29,18,7,5,0.5,0.4
2026-01-18T2000,3324A,116.8011,38.294,沧州市,河北水利电力学院,,44,44,32,25,19,40,,46,44,27,19,3,3,0.4,0.3
2026-01-18T2000,2622A,97.1813,31.1289,昌都市,昌都监测站,细颗粒物(PM2.5),100,118,57,75,21,9,,72,64,84,28,11,5,2.5,0.8
2026-01-18T2000,3719A,97.1707,31.1428,昌都市,昌都会议中心,,35,32,15,24,10,44,,68,68,28,7,2,2,0.7,0.4
2026-01-18T2000,2692A,87.2722,44.0298,昌吉回族自治州,新区政务中心,细颗粒物(PM2.5),54,52,50,38,37,46,,55,55,26,31,8,8,0.4,0.5
2026-01-18T2000,3613A,87.3069,44.0093,昌吉回族自治州,亚心广场,细颗粒物(PM2.5),58,58,47,41,33,46,,58,58,21,21,6,7,0.7,0.6
2026-01-18T2000,4164A,87.2057,43.9289,昌吉回族自治州,财政所,细颗粒物(PM2.5),89,99,47,66,34,14,,49,44,49,17,5,4,0.8,0.6
2026-01-18T2000,1120A,125.2874,43.9024,长春市,客车厂,,,55,39,40,37,,,56,56,32,31,14,13,0.6,0.6
2026-01-18T2000,1121A,125.2943,43.8508,长春市,邮电学院,,46,41,38,32,34,41,,54,53,27,31,10,13,0.6,0.7
2026-01-18T2000,1122A,125.3648,43.8745,长春市,劳动公园,,39,36,48,27,34,44,,53,53,24,27,10,11,0.6,0.6
2026-01-18T2000,1123A,125.3233,43.8781,长春市,园林处,细颗粒物(PM2.5),54,48,42,38,37,39,,53,52,25,26,13,12,0.6,0.6
2026-01-18T2000,1124A,125.4604,43.7904,长春市,净月潭,,35,29,44,24,33,30,,50,48,28,17,6,7,0.5,0.5
2026-01-18T2000,1126A,125.38,43.8422,长春市,经开区环卫处,,34,34,46,23,30,39,,48,48,29,36,12,11,0.5,0.6
2026-01-18T2000,1127A,125.234,43.7761,长春市,高新区管委会,细颗粒物(PM2.5),84,,51,62,47,24,,65,58,53,34,8,8,0.6,0.5
2026-01-18T2000,1128A,125.1695,43.83,长春市,岱山公园,细颗粒物(PM2.5),110,,52,83,42,15,,60,51,54,40,10,9,0.8,0.6
2026-01-18T2000,4281A,125.334645,43.916281,长春市,北亚泰大街1068号,细颗粒物(PM2.5),59,,42,42,35,28,,48,45,39,34,12,14,0.6,0.5
2026-01-18T2000,1335A,113.082,28.2421,长沙市,经开区环保局,细颗粒物(PM2.5),182,169,141,137,122,0,,28,12,30,29,3,3,1.0,0.9
2026-01-18T2000,1336A,112.8873,28.2202,长沙市,高开区环保局,细颗粒物(PM2.5),165,150,166,125,158,1,,7,7,26,34,4,5,0.9,1
2026-01-18T2000,1337A,113.0785,28.2012,长沙市,马坡岭,细颗粒物(PM2.5),169,172,154,128,110,0,,22,12,30,31,4,6,1.0,1
2026-01-18T2000,1338A,112.9448,28.1894,长沙市,湖南师范大学,细颗粒物(PM2.5),130,149,179,99,119,1,,11,9,32,38,3,4,1.1,1.2
2026-01-18T2000,1339A,113.0177,28.1322,长沙市,雨花区环保局,细颗粒物(PM2.5),185,167,161,139,143,0,,31,19,38,39,6,7,1.2,1.2
2026-01-18T2000,1340A,112.9795,28.2593,长沙市,伍家岭,细颗粒物(PM2.5),155,173,180,118,128,1,,11,8,32,36,4,4,1.0,1
2026-01-18T2000,1341A,113.002,28.1944,长沙市,火车新站,细颗粒物(PM2.5),160,167,176,122,131,3,,18,14,32,41,2,3,1.2,1.3
2026-01-18T2000,1342A,112.9846,28.1177,长沙市,天心区环保局,细颗粒物(PM2.5),158,156,179,120,136,2,,25,14,34,42,4,5,0.9,1
2026-01-18T2000,1343A,112.8906,28.1307,长沙市,湖南中医药大学,细颗粒物(PM2.5),156,173,184,119,133,2,,10,10,34,42,4,5,1.1,1.2
2026-01-18T2000,1727A,113.1146,36.1547,长治市,清华站,细颗粒物(PM2.5),67,50,65,48,57,31,,35,27,20,20,7,8,0.9,1
2026-01-18T2000,1730A,113.0887,36.2126,长治市,审计局,细颗粒物(PM2.5),64,47,63,46,57,34,,38,29,16,19,5,6,0.8,0.9
2026-01-18T2000,1731A,113.0845,36.1856,长治市,长治八中,细颗粒物(PM2.5),77,,73,56,59,36,,38,29,12,17,6,7,0.9,1
2026-01-18T2000,2845A,113.1561,36.1912,长治市,德盛苑,细颗粒物(PM2.5),67,,62,48,59,34,,42,32,14,18,5,6,0.9,1
2026-01-18T2000,3568A,113.0603,36.0464,长治市,向阳小学,细颗粒物(PM2.5),80,91,103,59,71,25,,36,22,26,26,5,7,1.0,1.3
2026-01-18T2000,3569A,112.8788,36.315,长治市,屯留一中,细颗粒物(PM2.5),93,78,90,69,74,7,,24,10,58,48,10,10,1.6,1.6
2026-01-18T2000,4189A,113.113092,36.199482,长治市,英华南巷50号,细颗粒物(PM2.5),58,53,65,41,54,36,,38,30,13,17,5,5,0.8,0.9
2026-01-18T2000,4190A,113.23666,36.33435,长治市,学府街1号,细颗粒物(PM2.5),83,,64,61,61,21,,31,27,26,25,6,7,1.0,1.1
2026-01-18T2000,1854A,111.696,28.9725,常德市,市二中,细颗粒物(PM2.5),178,205,224,134,162,14,,38,24,30,25,4,8,1.1,1.1
2026-01-18T2000,3138A,111.7152,29.0288,常德市,武陵区永安,细颗粒物(PM2.5),165,202,230,125,160,7,,30,14,27,24,4,6,,1.1
2026-01-18T2000,3139A,111.6891,28.9881,常德市,鼎城区玉霞,细颗粒物(PM2.5),163,189,217,124,161,16,,40,25,29,25,6,10,1.0,1
2026-01-18T2000,3140A,111.6651,29.0526,常德市,武陵区长庚,细颗粒物(PM2.5),162,188,219,123,164,14,,26,24,29,27,4,6,1.0,1.1
2026-01-18T2000,1196A,119.9524,31.7586,常州市,市监测站,细颗粒物(PM2.5),62,63,65,44,39,30,,59,46,56,29,10,6,1.4,0.8
2026-01-18T2000,1200A,119.9351,31.703,常州市,武进监测站,颗粒物(PM10),62,73,69,42,40,15,,58,47,72,33,14,13,1.3,0.9
2026-01-18T2000,3002A,119.9701,31.813,常州市,行政中心,颗粒物(PM10),58,66,71,40,34,54,,64,53,30,29,7,6,0.6,0.6
2026-01-18T2000,3003A,120.0434,31.7726,常州市,经开区,颗粒物(PM10),61,71,65,41,32,32,,61,49,48,28,6,5,0.7,0.6
2026-01-18T2000,3010A,119.8919,31.7892,常州市,钟楼,颗粒物(PM10),60,70,66,34,34,42,,63,51,37,25,9,7,0.6,0.5
2026-01-18T2000,3429A,119.8595,31.706,常州市,武进经发区,颗粒物(PM10),65,79,71,41,40,22,,66,51,69,33,6,2,1.1,0.9
2026-01-18T2000,3430A,119.5812,31.7256,常州市,金坛城区,细颗粒物(PM2.5),69,86,81,50,45,34,,63,57,41,25,9,7,1.1,0.9
2026-01-18T2000,4089A,119.9551,31.863,常州市,崇义南街5-H号,,49,49,67,24,32,58,,64,53,20,29,6,6,0.7,0.8
2026-01-18T2000,2220A,120.4318,41.588,朝阳市,西梁,,19,18,37,13,24,56,,60,60,12,16,6,10,0.4,0.6
2026-01-18T2000,2221A,120.452,41.565,朝阳市,河畔小区,,28,26,28,19,21,55,,61,60,14,18,8,12,0.6,0.6
2026-01-18T2000,2222A,120.4176,41.5648,朝阳市,八里堡,,36,26,34,25,22,53,,58,58,17,20,9,11,0.5,0.6
2026-01-18T2000,3026A,116.6179,23.6608,潮州市,市政府,细颗粒物(PM2.5),74,67,92,54,58,99,,152,148,21,35,5,18,0.5,0.6
2026-01-18T2000,4036A,116.646,23.676,潮州市,金山,细颗粒物(PM2.5),75,,70,55,52,108,,158,154,20,22,5,6,0.6,0.6
2026-01-18T2000,2473A,113.0116,25.8228,郴州市,市职中,细颗粒物(PM2.5),110,100,92,83,74,16,,56,55,39,25,4,6,1.1,1
2026-01-18T2000,2475A,113.0381,25.8074,郴州市,市审计局,细颗粒物(PM2.5),118,112,103,89,83,17,,56,54,42,26,3,5,/,/
2026-01-18T2000,2476A,113.0348,25.7757,郴州市,市环保局,细颗粒物(PM2.5),105,113,109,79,71,37,,60,60,37,32,7,7,0.9,0.7
2026-01-18T2000,4252A,113.0138,25.8011,郴州市,好美居路49号,细颗粒物(PM2.5),98,88,85,73,76,46,,68,67,41,33,6,6,/,/
2026-01-18T2000,1431A,103.9727,30.7242,成都市,金泉两河,细颗粒物(PM2.5),130,118,152,99,133,39,,103,99,63,56,2,3,1.3,1.4
2026-01-18T2000,1432A,104.1423,30.6765,成都市,十里店,细颗粒物(PM2.5),149,135,176,114,143,77,,100,100,24,52,4,5,0.9,1.1
2026-01-18T2000,1433A,104.0594,30.5765,成都市,三瓦窑,细颗粒物(PM2.5),149,132,167,114,147,90,,106,106,29,63,4,4,0.9,1.2
2026-01-18T2000,1434A,104.1122,30.6306,成都市,沙河铺,细颗粒物(PM2.5),168,130,168,127,155,69,,88,88,39,66,3,3,1.1,1.3
2026-01-18T2000,2880A,104.0219,30.6561,成都市,大石西路,细颗粒物(PM2.5),129,135,169,98,131,72,,96,96,26,51,5,5,0.9,1
2026-01-18T2000,3136A,104.2724,30.559,成都市,龙泉驿区区政府,细颗粒物(PM2.5),138,124,132,105,116,80,,105,105,23,21,6,7,1.1,1
2026-01-18T2000,3357A,104.0028,30.6891,成都市,金博路,细颗粒物(PM2.5),134,125,156,102,127,67,,100,100,44,60,6,7,1.3,1.3
2026-01-18T2000,3359A,104.056,30.5228,成都市,华阳,细颗粒物(PM2.5),138,124,147,105,118,61,,89,89,65,68,3,3,1.0,1.2
2026-01-18T2000,3488A,104.387954,30.746684,成都市,青石路225号,细颗粒物(PM2.5),122,118,167,92,136,68,,93,93,17,46,5,4,0.9,1.2
2026-01-18T2000,3489A,104.0788,30.4054,成都市,科学城,细颗粒物(PM2.5),165,148,139,125,119,82,,101,101,36,40,7,6,0.9,1
2026-01-18T2000,4011A,103.8505,30.6946,成都市,光华大道三段,细颗粒物(PM2.5),176,166,168,133,134,45,,118,114,70,51,4,5,0.9,0.8
2026-01-18T2000,4144A,104.3257,30.6406,成都市,八角井街185号,细颗粒物(PM2.5),148,167,167,113,126,53,,90,90,35,28,4,4,0.9,1
2026-01-18T2000,4224A,104.2433276,30.53529463,成都市,鲸龙路1057号,细颗粒物(PM2.5),135,125,138,103,118,47,,99,97,53,44,5,6,1.1,1
2026-01-18T2000,1062A,117.9531,40.908,承德市,铁路,,33,33,52,10,25,73,,54,54,2,26,3,8,0.2,0.8
2026-01-18T2000,1063A,117.9397,40.9763,承德市,中国银行,,34,34,52,3,23,72,,56,56,2,20,1,4,0.2,0.7
2026-01-18T2000,4073A,117.9462,40.95,承德市,杏林街1号,,32,32,43,12,26,71,,56,56,2,21,3,6,0.2,0.8
2026-01-18T2000,4274A,117.7994,40.9605,承德市,滨河大街98号,,33,33,43,13,22,68,,54,54,6,19,2,7,0.2,0.6
2026-01-18T2000,2314A,117.4698,30.6617,池州市,池州学院,细颗粒物(PM2.5),118,125,128,89,103,48,,58,58,36,38,5,5,0.9,1
2026-01-18T2000,3237A,117.4918,30.6617,池州市,展览馆,细颗粒物(PM2.5),137,146,147,104,108,53,,59,59,34,36,4,3,1.1,1.1
2026-01-18T2000,3333A,117.5626,30.695,池州市,第八中学,细颗粒物(PM2.5),102,110,127,76,93,53,,58,58,31,35,6,4,1.1,1.2
2026-01-18T2000,3334A,117.5037,30.6242,池州市,第十二中学,细颗粒物(PM2.5),102,107,129,76,100,55,,57,57,32,39,5,3,1.1,1.2
2026-01-18T2000,1744A,118.9229,42.2816,赤峰市,松山一中,,25,25,23,12,10,46,,53,53,20,13,7,6,0.6,0.6
2026-01-18T2000,1745A,118.9588,42.2733,赤峰市,哈达街,,20,18,22,14,13,54,,59,59,16,11,6,5,0.6,0.6
2026-01-18T2000,1746A,118.8792,42.2551,赤峰市,天义路,,23,,15,16,13,50,,60,59,18,10,7,7,0.7,0.6
2026-01-18T2000,3058A,119.2656,42.0356,赤峰市,银河街,,22,22,28,8,18,60,,65,65,8,8,12,11,0.5,0.6
2026-01-18T2000,3286A,118.9359,42.3146,赤峰市,桥北物流园区,,19,18,15,13,15,54,,63,62,18,10,7,6,0.5,0.5
2026-01-18T2000,2521A,107.3473,22.4137,崇左市,市环保局江州分局,颗粒物(PM10),53,55,79,25,49,60,,84,84,27,24,10,8,0.8,1
2026-01-18T2000,4256A,107.375,22.3736,崇左市,石景林东路7号,,34,34,56,23,44,80,,89,89,16,22,6,6,0.5,0.6
2026-01-18T2000,3207A,118.31131,32.3033,滁州市,市政府原办公楼,细颗粒物(PM2.5),72,84,91,52,47,54,,52,52,26,31,4,4,0.3,0.4
2026-01-18T2000,3331A,118.3268,32.2633,滁州市,图书馆,颗粒物(PM10),69,87,86,45,44,49,,51,51,27,27,8,8,0.5,0.5
2026-01-18T2000,4101A,118.3196,32.3335,滁州市,银山路666号,细颗粒物(PM2.5),69,64,76,50,55,52,,51,51,21,22,4,2,0.4,0.5
2026-01-18T2000,4102A,118.3426,32.2979,滁州市,黄山路555号,细颗粒物(PM2.5),73,85,93,53,56,57,,57,57,26,29,15,15,0.7,0.7
2026-01-18T2000,2606A,101.5379,25.0492,楚雄彝族自治州,市经济开发区,,24,24,31,14,22,70,,75,75,14,19,3,3,0.6,0.6
2026-01-18T2000,4153A,101.5536,25.0343,楚雄彝族自治州,团结路562号,,23,23,29,12,19,71,,74,74,4,17,4,4,0.3,0.4
2026-01-18T2000,2549A,107.5087,31.2186,达州市,市环境监测站,细颗粒物(PM2.5),122,129,150,92,119,8,,15,15,64,40,11,8,1.0,1
2026-01-18T2000,2550A,107.4988,31.2132,达州市,凤凰小区,细颗粒物(PM2.5),147,171,164,112,127,4,,8,7,71,47,10,8,2.1,1.3
2026-01-18T2000,2551A,107.5081,31.1987,达州市,达县机关宾馆,细颗粒物(PM2.5),189,244,175,142,131,5,,6,6,78,44,13,6,4.8,1.7
2026-01-18T2000,2552A,107.4644,31.2124,达州市,市政中心,细颗粒物(PM2.5),128,157,174,97,128,6,,8,8,82,55,10,8,1.7,1.3
2026-01-18T2000,2614A,100.2168,25.5818,大理白族自治州,大理市环境监测站,,27,20,28,16,23,84,,82,82,8,9,6,6,0.5,0.6
2026-01-18T2000,2615A,100.1542,25.7055,大理白族自治州,大理古城,,42,42,31,26,17,67,,89,88,22,14,8,8,0.8,0.7
2026-01-18T2000,1109A,121.6119,38.974,大连市,甘井子,,35,35,40,17,26,56,,52,52,15,29,7,12,0.8,0.4
2026-01-18T2000,1110A,121.565,38.9509,大连市,周水子,,36,36,40,13,25,55,,50,50,13,28,11,15,0.5,0.7
2026-01-18T2000,1111A,121.5637,38.8849,大连市,星海三站,,32,32,36,12,26,55,,50,50,16,28,9,14,0.5,0.7
2026-01-18T2000,1112A,121.6301,38.9117,大连市,青泥洼桥,,32,32,42,16,27,51,,46,46,16,32,9,14,0.6,0.8
2026-01-18T2000,1113A,121.6248,38.8643,大连市,傅家庄,,34,34,38,15,26,47,,42,42,19,33,8,14,0.4,0.6
2026-01-18T2000,1114A,121.5117,38.8636,大连市,七贤岭,,34,34,36,12,22,57,,54,54,8,20,6,9,0.4,0.7
2026-01-18T2000,1116A,121.7507,39.1339,大连市,金州,,33,33,47,16,30,58,,54,54,19,31,7,14,0.5,0.7
2026-01-18T2000,1117A,121.7811,39.0495,大连市,开发区,,36,36,35,19,26,55,,49,49,15,22,6,6,0.5,0.6
2026-01-18T2000,1118A,121.9762,39.0631,大连市,双D港,,37,37,40,19,26,63,,56,56,14,21,9,12,0.4,0.6
2026-01-18T2000,4082A,121.2548,38.8188,大连市,旅顺,,24,24,30,8,15,60,,58,58,6,14,5,9,0.5,0.7
2026-01-18T2000,1789A,124.8085,46.0381,大庆市,大同区,细颗粒物(PM2.5),62,56,43,44,30,25,,60,50,44,17,9,7,0.9,0.7
2026-01-18T2000,1790A,125.1166,46.5255,大庆市,龙凤区,,49,39,45,34,32,30,,49,46,41,33,14,12,0.5,0.4
2026-01-18T2000,1791A,124.8894,46.4007,大庆市,红岗区,,35,35,35,8,26,28,,50,45,32,21,5,7,0.3,0.4
2026-01-18T2000,1792A,125.1391,46.578,大庆市,萨尔图区,,50,50,41,20,22,39,,51,48,24,25,8,9,0.6,0.6
2026-01-18T2000,1793A,124.9026,46.6217,大庆市,让胡路区,细颗粒物(PM2.5),53,40,31,37,31,46,,64,60,25,17,7,8,0.7,0.6
2026-01-18T2000,3481A,125.127,46.6277,大庆市,萨区政府监测点,,36,36,37,17,17,34,,52,49,28,22,10,10,0.6,0.6
2026-01-18T2000,1723A,113.2926,40.0759,大同市,云冈宾馆,,25,22,45,17,27,54,,58,58,10,15,8,5,0.7,0.8
2026-01-18T2000,1724A,113.3437,40.0921,大同市,大同大学,,26,26,51,15,30,60,,62,62,8,14,4,3,0.6,0.7
2026-01-18T2000,1725A,113.2637,40.129,大同市,安家小村,,22,22,50,12,26,56,,60,60,9,16,9,7,0.5,0.6
2026-01-18T2000,3282A,113.3399,40.0586,大同市,大同市卫生学校,,27,27,52,15,33,59,,61,61,11,17,5,4,0.6,0.7
2026-01-18T2000,3565A,113.1371,40.1122,大同市,云冈站,,30,30,54,7,31,56,,56,56,7,16,7,6,0.6,0.8
2026-01-18T2000,3566A,113.1186,40.2556,大同市,图书馆,,23,23,58,8,30,56,,59,59,12,17,6,6,0.8,0.8
2026-01-18T2000,3567A,113.5931,40.0459,大同市,区一中,,38,38,61,13,35,70,,65,65,9,16,1,3,0.4,0.6
2026-01-18T2000,4199A,113.2798248,40.09972476,大同市,魏都大道141号,,41,41,60,18,26,57,,61,61,10,15,7,5,0.7,0.8
2026-01-18T2000,2269A,124.1068,50.4091,大兴安岭地区,科技局,,,,,,,,,,,,,,,,
2026-01-18T2000,3663A,124.117,50.4279,大兴安岭地区,红旗社区,细颗粒物(PM2.5),53,,8,37,8,35,,50,46,21,5,10,6,0.5,0.3
2026-01-18T2000,1600A,124.33,40.0625,丹东市,江湾东路,,32,32,24,17,16,54,,66,62,18,12,8,6,0.6,0.5
2026-01-18T2000,1601A,124.4242,40.1513,丹东市,临江后街,,21,19,18,12,11,65,,70,70,8,7,5,4,0.6,0.5
2026-01-18T2000,1602A,124.3935,40.1461,丹东市,元宝山,,28,23,17,19,12,56,,70,67,15,8,9,8,0.8,0.5
2026-01-18T2000,1603A,124.3634,40.1093,丹东市,民主桥,,38,38,23,20,13,53,,60,,17,10,9,9,0.6,0.4
2026-01-18T2000,3541A,109.5726195,19.51688767,儋州市,第一中学子站,细颗粒物(PM2.5),58,49,44,41,32,90,,102,93,10,7,4,5,0.7,0.6
2026-01-18T2000,3542A,109.5567,19.5187,儋州市,东坡学校子站,,45,37,42,31,28,104,,106,105,8,6,6,6,0.6,0.6
2026-01-18T2000,2616A,98.5611,24.4273,德宏傣族景颇族自治州,德宏州监测站,细颗粒物(PM2.5),75,93,62,55,43,51,,84,84,34,25,7,7,1.1,0.8
2026-01-18T2000,3677A,98.5887,24.4366,德宏傣族景颇族自治州,芒市人民政府综合楼,颗粒物(PM10),58,66,53,27,33,61,,80,80,20,16,5,5,0.8,0.7
2026-01-18T2000,1901A,104.424,31.1209,德阳市,东山公园,细颗粒物(PM2.5),122,,120,92,115,64,,92,92,13,25,7,8,0.9,1
2026-01-18T2000,1902A,104.3827,31.1318,德阳市,西小区,细颗粒物(PM2.5),127,110,144,96,119,48,,84,83,29,42,5,7,1.2,1.3
2026-01-18T2000,1904A,104.3553,31.1091,德阳市,耐火材料厂,细颗粒物(PM2.5),124,95,125,94,123,50,,83,82,29,36,4,8,1.0,1.1
2026-01-18T2000,4145A,104.4144,31.1495,德阳市,市林业局,细颗粒物(PM2.5),145,126,139,111,132,49,,79,79,29,57,4,5,0.7,0.9
2026-01-18T2000,1622A,116.3034,37.4675,德州市,儿童乐园,,41,41,33,24,18,39,,44,44,24,21,10,11,0.7,0.7
2026-01-18T2000,1624A,116.2992,37.4449,德州市,监理站,,39,39,22,22,13,47,,53,53,20,19,10,10,0.7,0.6
2026-01-18T2000,3066A,116.2722,37.438,德州市,九衢泉纯净水厂,,36,36,26,24,18,43,,48,48,23,22,3,5,0.6,0.6
2026-01-18T2000,3371A,116.3693,37.44,德州市,开发区人民医院,,35,34,28,24,17,49,,52,52,24,25,10,11,0.4,0.5
2026-01-18T2000,3511A,116.5687,37.3331,德州市,陵城艺术中心,,17,17,31,7,17,53,,48,48,19,23,11,14,0.4,0.4
2026-01-18T2000,4292A,116.352738,37.420875,德州市,新河东路,,39,27,29,27,18,47,,50,50,16,18,9,11,0.8,0.8
2026-01-18T2000,2621A,99.7054,27.8319,迪庆藏族自治州,迪庆州站,,27,27,27,14,19,82,,88,88,8,11,4,4,0.3,0.5
2026-01-18T2000,3180A,99.7122,27.8129,迪庆藏族自治州,质量技术监督局,,27,22,29,13,20,86,,91,91,8,13,4,4,0.4,0.4
2026-01-18T2000,4257A,104.6092,35.5962,定西市,将台街,颗粒物(PM10),58,66,112,34,37,66,,73,71,8,16,9,12,0.2,0.4
2026-01-18T2000,4309A,104.6159,35.5701,定西市,正龙路62号,颗粒物(PM10),66,81,120,30,35,61,,67,62,6,10,5,10,0.4,0.7
2026-01-18T2000,1390A,113.7943,23.0132,东莞市,东城石井,颗粒物(PM10),58,66,77,31,45,75,,181,172,51,48,7,8,0.5,0.6
2026-01-18T2000,1391A,113.7384,22.9659,东莞市,南城西平,颗粒物(PM10),57,63,82,35,44,103,,169,164,36,74,6,8,0.7,0.8
2026-01-18T2000,3319A,113.7283,23.041,东莞市,万江金泰,颗粒物(PM10),62,74,99,37,61,86,,186,179,59,63,7,7,1.1,1.1
2026-01-18T2000,4129A,113.8666,23.1062,东莞市,裕兴路,颗粒物(PM10),75,100,110,39,51,108,,181,178,64,58,6,10,0.8,0.8
2026-01-18T2000,4130A,114.0076,22.9739,东莞市,教育路1号,颗粒物(PM10),94,137,104,59,51,68,,171,164,75,64,5,7,0.9,0.8
2026-01-18T2000,4131A,113.7981,22.8124,东莞市,长怡路1号,颗粒物(PM10),60,69,74,31,36,93,,114,110,45,58,6,7,0.8,0.8
2026-01-18T2000,1666A,118.6612,37.4313,东营市,市环保局,,22,22,24,12,13,64,,62,62,19,21,7,7,0.4,0.5
2026-01-18T2000,3036A,118.6903,37.4337,东营市,开发区管委会,,,,28,7,14,68,,64,64,9,14,5,7,0.2,0.2
2026-01-18T2000,3365A,118.5721,37.5654,东营市,垦利区民丰路,,20,19,22,14,12,64,,63,63,8,13,3,5,0.3,0.2
2026-01-18T2000,3498A,118.5063,37.8606,东营市,河口城区,,27,27,24,10,9,66,,64,64,12,17,2,4,0.8,0.8
2026-01-18T2000,3646A,118.4979,37.4623,东营市,胜利站,,32,,26,22,15,62,,58,58,14,18,10,11,0.4,0.4
2026-01-18T2000,3734A,118.5753,37.4405,东营市,理想之城,,27,27,28,9,17,54,,50,50,11,17,2,4,0.4,0.5
2026-01-18T2000,1591A,110.0024,39.8127,鄂尔多斯市,综合楼,,46,46,122,12,16,53,,55,54,16,22,9,9,0.5,0.4
2026-01-18T2000,1592A,109.9485,39.8259,鄂尔多斯市,巴音孟克林场办事处,,44,44,95,7,15,56,,64,62,15,19,11,9,0.5,0.5
2026-01-18T2000,1593A,109.7734,39.5987,鄂尔多斯市,康泽苑,,36,36,71,9,18,72,,74,74,7,14,5,7,0.3,0.4
2026-01-18T2000,1594A,109.8121,39.5987,鄂尔多斯市,华泰汽车城,,36,36,75,14,18,68,,68,68,7,16,6,7,0.1,0.3
2026-01-18T2000,1595A,109.9734,39.7884,鄂尔多斯市,奥林花园,,48,48,105,9,13,50,,59,57,19,21,6,6,0.6,0.6
2026-01-18T2000,2436A,114.894,30.3989,鄂州市,市政府,颗粒物(PM10),52,53,146,25,128,6,,50,24,26,36,4,6,0.4,0.8
2026-01-18T2000,2437A,114.8986,30.3714,鄂州市,赵家坝,颗粒物(PM10),66,82,163,30,125,6,,52,28,16,27,7,9,0.6,1.1
2026-01-18T2000,3654A,114.8093,30.4091,鄂州市,精准医疗中心,颗粒物(PM10),51,51,170,21,130,10,,31,26,22,37,16,13,0.8,1.3
2026-01-18T2000,2454A,109.4978,30.2979,恩施土家族苗族自治州,湖北民院,细颗粒物(PM2.5),221,,149,171,160,3,,7,7,43,31,6,6,2.1,1.6
2026-01-18T2000,3549A,109.5061,30.3771,恩施土家族苗族自治州,龙凤新区,细颗粒物(PM2.5),198,173,157,148,139,1,,5,5,31,25,7,7,1.3,1.2
2026-01-18T2000,2499A,108.3411,21.6159,防城港市,沙万,细颗粒物(PM2.5),83,81,77,61,42,83,,106,106,68,32,10,10,1.0,1.1
2026-01-18T2000,2500A,108.3515,21.7733,防城港市,防城档案局,颗粒物(PM10),67,84,67,44,39,55,,116,116,32,18,5,8,1.0,0.7
2026-01-18T2000,2501A,108.3506,21.6414,防城港市,大海花园,"颗粒物(PM10),细颗粒物(PM2.5)",54,58,62,38,47,134,,123,123,35,25,9,12,0.7,0.8
2026-01-18T2000,1371A,113.1293,23.0065,佛山市,湾梁,颗粒物(PM10),56,61,99,19,42,98,,150,146,42,85,/,/,/,/
2026-01-18T2000,1372A,113.1082,23.0477,佛山市,华材职中,细颗粒物(PM2.5),70,88,151,51,92,103,,152,150,39,103,6,7,0.6,1.1
2026-01-18T2000,1373A,113.1439,23.045,佛山市,南海气象局,颗粒物(PM10),59,67,100,41,60,71,,156,149,69,89,/,/,/,/
2026-01-18T2000,1374A,113.2879,22.8094,佛山市,顺德苏岗,颗粒物(PM10),54,57,62,31,40,79,,130,127,41,49,/,/,0.9,0.8
2026-01-18T2000,1376A,112.8384,22.8678,佛山市,高明孔堂,颗粒物(PM10),53,55,83,31,62,144,,173,173,24,47,/,/,/,/
2026-01-18T2000,1377A,112.8835,23.1584,佛山市,三水监测站,颗粒物(PM10),87,124,217,51,111,17,,138,127,172,120,4,7,0.9,1.1
2026-01-18T2000,1378A,112.8668,23.185,佛山市,三水云东海,颗粒物(PM10),61,72,171,34,129,132,,157,157,45,84,/,/,/,/
2026-01-18T2000,3625A,113.2568,22.7629,佛山市,容桂街道办,颗粒物(PM10),67,83,74,46,46,85,,125,123,62,60,/,/,/,/
2026-01-18T2000,1282A,119.2681,26.0506,福州市,师大,,29,26,38,12,23,92,,110,109,24,24,3,4,0.5,0.6
2026-01-18T2000,1283A,119.2983,26.1028,福州市,五四北路,,31,31,37,16,26,90,,110,108,27,22,4,5,0.6,0.6
2026-01-18T2000,1284A,119.2648,26.0769,福州市,杨桥西路,,31,31,35,18,26,89,,110,108,17,16,4,4,/,/
2026-01-18T2000,3048A,119.5799,26.0937,福州市,九龙,,31,13,27,3,16,97,,108,108,11,17,4,5,0.6,0.7
2026-01-18T2000,3526A,119.5188,25.9666,福州市,吴航,,31,11,27,6,17,97,,108,108,11,14,4,5,0.5,0.6
2026-01-18T2000,4104A,119.3106,26.0648,福州市,路通桥巷6号,,30,30,42,20,27,84,,105,103,20,18,/,/,/,/
2026-01-18T2000,1755A,123.7974,41.8494,抚顺市,望花区,,36,36,55,22,38,49,,53,52,16,35,2,2,0.7,0.9
2026-01-18T2000,1756A,123.9161,41.8827,抚顺市,顺城区,,29,25,55,20,36,53,,54,54,17,41,8,9,0.7,1
2026-01-18T2000,1757A,124.0437,41.8615,抚顺市,东洲区,,37,37,52,22,32,45,,49,48,16,23,8,11,0.7,0.8
2026-01-18T2000,1758A,123.9246,41.8638,抚顺市,新抚区,,29,29,65,17,41,54,,54,54,18,43,7,9,0.6,0.9
2026-01-18T2000,1759A,124.0972,41.8961,抚顺市,大伙房水库,,28,28,42,6,25,50,,50,50,16,22,10,12,0.8,0.9
2026-01-18T2000,1760A,123.708,41.8386,抚顺市,沈抚新城,细颗粒物(PM2.5),63,45,47,45,40,30,,51,47,34,34,8,8,1.1,1.5
2026-01-18T2000,2377A,116.3544,27.9833,抚州市,市站,细颗粒物(PM2.5),114,118,139,86,109,112,,128,128,22,23,10,9,1.3,1.4
2026-01-18T2000,2378A,116.3562,27.9631,抚州市,血防站,细颗粒物(PM2.5),108,163,143,81,108,111,,126,126,22,25,7,7,1.9,1.9
2026-01-18T2000,2379A,116.3561,28.0007,抚州市,采茶剧团,细颗粒物(PM2.5),115,119,143,87,117,105,,123,123,15,19,7,6,1.5,1.7
2026-01-18T2000,2380A,116.3854,27.9648,抚州市,医学分院,细颗粒物(PM2.5),105,124,150,79,100,98,,117,117,16,15,10,10,1.1,1.2
2026-01-18T2000,2207A,121.6095,41.9978,阜新市,工业园区,,30,30,34,9,20,65,,64,63,5,14,6,10,0.3,0.6
2026-01-18T2000,2208A,121.6567,42.0188,阜新市,长青街,,20,14,23,3,18,63,,65,64,7,13,5,9,0.3,0.6
2026-01-18T2000,2209A,121.6672,42.07,阜新市,农业园区,,19,13,25,8,13,60,,63,62,8,12,6,8,0.2,0.5
2026-01-18T2000,2211A,121.6343,42.0455,阜新市,玉龙新城,,49,49,33,16,17,42,,62,56,24,20,5,7,0.5,0.6
2026-01-18T2000,2301A,115.8276,32.8929,阜阳市,市监测站,,30,25,83,21,35,8,,36,11,30,24,4,4,0.7,0.5
2026-01-18T2000,2303A,115.8551,32.8606,阜阳市,开发区,,48,,76,33,36,6,,35,11,31,24,4,4,0.7,0.4
2026-01-18T2000,2875A,115.783962,32.889217,阜阳市,阜阳职业技术学院,,28,19,79,19,31,11,,40,16,20,16,6,6,0.7,0.5
2026-01-18T2000,3468A,115.79,32.8614,阜阳市,市规划展馆,,26,22,86,18,33,7,,41,12,26,19,4,5,0.9,0.6
2026-01-18T2000,3469A,115.835101,32.918568,阜阳市,枣园社区,,27,27,85,17,32,8,,36,12,26,22,3,4,1.0,0.6
2026-01-18T2000,2669A,102.9097,34.9841,甘南藏族自治州,州政府,颗粒物(PM10),97,143,84,53,41,72,,76,76,14,35,12,16,0.6,1.1
2026-01-18T2000,3380A,102.8915,34.9618,甘南藏族自治州,甘肃民族师范学院,颗粒物(PM10),100,149,93,45,28,74,,76,76,18,39,10,13,0.1,0.4
2026-01-18T2000,2570A,101.96,30.048,甘孜藏族自治州,水桥子,,38,38,19,15,7,40,,72,71,39,25,6,6,0.6,0.4
2026-01-18T2000,3065A,101.9534,29.9976,甘孜藏族自治州,州环保局,,37,37,18,18,6,53,,74,70,27,11,7,6,0.4,0.3
2026-01-18T2000,2363A,114.9368,25.8663,赣州市,地委,细颗粒物(PM2.5),72,77,65,52,49,44,,136,132,72,31,9,9,1.4,1
2026-01-18T2000,2364A,114.946,25.8483,赣州市,气象台,颗粒物(PM10),87,123,80,51,47,12,,134,126,155,50,5,5,1.1,0.6
2026-01-18T2000,2365A,114.932,25.8332,赣州市,市图书馆,颗粒物(PM10),91,131,78,66,50,15,,114,108,117,40,6,6,1.8,1.1
2026-01-18T2000,2366A,114.8905,25.8472,赣州市,华坚鞋城,"颗粒物(PM10),细颗粒物(PM2.5)",85,120,81,63,53,20,,105,98,112,41,10,11,1.3,0.6
2026-01-18T2000,3109A,115.0094,25.8614,赣州市,赣县区卫计委,细颗粒物(PM2.5),108,107,68,81,58,16,,109,103,91,36,7,7,0.9,0.8
2026-01-18T2000,2684A,106.2753,36.0057,固原市,监测站,颗粒物(PM10),72,94,158,23,41,54,,60,59,15,13,8,5,0.5,0.5
2026-01-18T2000,2685A,106.2384,36.0189,固原市,新区,颗粒物(PM10),67,84,150,35,27,55,,61,58,12,8,10,4,0.5,0.4
2026-01-18T2000,2544A,106.6307,30.4577,广安市,市委,细颗粒物(PM2.5),224,177,173,174,172,37,,43,43,22,30,10,10,1.2,1.3
2026-01-18T2000,2545A,106.6266,30.4662,广安市,友谊中学,细颗粒物(PM2.5),195,178,163,146,150,34,,40,40,21,26,7,7,1.6,1.6
2026-01-18T2000,2547A,106.6386,30.4551,广安市,广电花园,细颗粒物(PM2.5),223,,149,173,164,33,,33,33,19,26,9,9,1.0,1.1
2026-01-18T2000,2902A,106.6347,30.4868,广安市,北辰小学,细颗粒物(PM2.5),198,181,159,148,150,20,,37,37,36,21,9,9,1.6,1.3
2026-01-18T2000,2524A,105.8211,32.4444,广元市,老城,颗粒物(PM10),66,81,113,33,84,68,,47,47,18,49,1,9,0.6,1.1
2026-01-18T2000,2526A,105.8629,32.429,广元市,监测站,颗粒物(PM10),66,82,108,30,84,68,,40,40,12,38,7,10,0.7,1.2
2026-01-18T2000,3617A,105.8047,32.4167,广元市,经开区,颗粒物(PM10),55,60,118,31,101,62,,39,39,16,46,2,5,0.6,1.1
2026-01-18T2000,1345A,113.2346,23.1423,广州市,广雅中学,颗粒物(PM10),68,86,112,47,67,100,,174,174,54,93,3,4,0.3,0.6
2026-01-18T2000,1346A,113.2611,23.105,广州市,市五中,细颗粒物(PM2.5),69,85,80,50,54,98,,197,195,65,75,8,8,/,/
2026-01-18T2000,1348A,113.3477,23.0916,广州市,广东商学院,颗粒物(PM10),62,73,105,39,68,73,,184,180,87,103,7,8,0.6,0.9
2026-01-18T2000,1349A,113.4332,23.105,广州市,市八十六中,颗粒物(PM10),123,196,130,62,63,69,,202,196,123,113,9,10,/,/
2026-01-18T2000,1350A,113.3506,22.9488,广州市,番禺中学,颗粒物(PM10),76,102,80,55,46,78,,159,152,70,70,4,5,1.1,0.9
2026-01-18T2000,1351A,113.2147,23.3918,广州市,花都师范,颗粒物(PM10),79,107,118,56,71,84,,174,171,151,114,6,7,1.0,0.9
2026-01-18T2000,1352A,113.2599,23.1329,广州市,市监测站,颗粒物(PM10),66,82,102,47,57,120,,190,190,51,91,2,3,/,/
2026-01-18T2000,1353A,113.5618,23.3119,广州市,九龙镇镇龙,颗粒物(PM10),92,133,99,58,60,51,,158,152,98,60,5,5,0.8,0.7
2026-01-18T2000,1354A,113.2764,23.1544,广州市,麓湖,,,69,85,40,56,58,,183,177,,98,9,10,0.6,0.7
2026-01-18T2000,2846A,113.3209,23.1323,广州市,体育西,细颗粒物(PM2.5),72,90,107,52,63,104,,181,181,61,94,7,7,1.0,1
2026-01-18T2000,3298A,113.5718,23.5493,广州市,从化街口,细颗粒物(PM2.5),105,125,103,79,66,95,,172,166,65,58,9,9,1.2,1
2026-01-18T2000,3299A,113.3463,23.369,广州市,白云竹料,细颗粒物(PM2.5),92,112,117,68,72,109,,170,169,84,79,6,4,1.3,1
2026-01-18T2000,3300A,113.2981,23.2365,广州市,白云嘉禾,细颗粒物(PM2.5),79,105,109,58,63,119,,178,178,96,96,7,7,/,/
2026-01-18T2000,3301A,113.4256,23.1716,广州市,黄埔科学城,颗粒物(PM10),80,109,98,56,60,91,,203,201,84,73,6,6,0.9,0.9
2026-01-18T2000,3302A,113.3942,23.0485,广州市,番禺大学城,颗粒物(PM10),65,79,107,39,51,110,,215,211,46,84,9,11,0.6,0.7
2026-01-18T2000,3303A,113.4923,22.8169,广州市,南沙黄阁,颗粒物(PM10),64,78,74,38,34,108,,155,154,39,65,6,7,/,/
2026-01-18T2000,3304A,113.534,22.7893,广州市,南沙街,,,85,67,42,35,73,,133,127,,51,4,5,0.7,0.6
2026-01-18T2000,3443A,113.2905,23.5541,广州市,花都梯面,颗粒物(PM10),81,111,85,55,49,37,,163,145,104,59,4,5,/,/
2026-01-18T2000,3445A,113.786,23.7479,广州市,从化良口,细颗粒物(PM2.5),63,65,58,45,45,136,,168,168,28,27,8,8,/,/
2026-01-18T2000,3446A,113.805,23.2614,广州市,增城荔城,颗粒物(PM10),64,77,75,43,53,97,,162,160,44,30,6,7,0.8,0.6
2026-01-18T2000,2506A,109.604387,23.066791,贵港市,江南子站,颗粒物(PM10),103,156,158,75,94,64,,115,115,53,42,8,12,1.2,1.3
2026-01-18T2000,2508A,109.5669,23.1065,贵港市,荷城子站,细颗粒物(PM2.5),100,110,128,75,95,72,,103,103,43,48,12,10,1.2,1.4
2026-01-18T2000,3405A,109.5886,23.1172,贵港市,新世纪学校,细颗粒物(PM2.5),118,132,131,89,97,77,,114,114,35,37,/,/,0.8,0.9
2026-01-18T2000,4260A,109.5933,23.095,贵港市,中山路155-3号,细颗粒物(PM2.5),97,97,139,72,93,82,,118,118,38,41,/,/,0.9,1.1
2026-01-18T2000,1439A,106.6863,26.6035,贵阳市,马鞍山,,46,46,52,29,45,72,,78,78,14,13,8,8,/,/
2026-01-18T2000,1441A,106.6241,26.6266,贵阳市,鉴湖路,细颗粒物(PM2.5),52,51,62,36,44,70,,76,76,16,13,8,8,0.3,0.5
2026-01-18T2000,1442A,106.7468,26.6344,贵阳市,燕子冲,,45,44,56,31,50,77,,81,81,17,16,5,9,0.4,0.5
2026-01-18T2000,1443A,106.6556,26.4362,贵阳市,碧云窝,颗粒物(PM10),52,53,61,31,41,97,,76,76,14,11,6,5,/,/
2026-01-18T2000,1445A,106.6963,26.6063,贵阳市,红边门,细颗粒物(PM2.5),55,53,62,39,48,62,,76,76,23,17,8,9,/,/
2026-01-18T2000,1446A,106.7162383,26.56964667,贵阳市,新华路,颗粒物(PM10),51,51,67,34,43,63,,73,73,23,20,13,11,0.4,0.5
2026-01-18T2000,1447A,106.6742,26.542,贵阳市,太慈桥,颗粒物(PM10),51,51,58,29,42,62,,67,67,15,16,4,5,/,/
2026-01-18T2000,4230A,106.688212,26.56952,贵阳市,花果园大街66号,,48,34,49,33,52,66,,70,70,20,18,5,5,/,/
2026-01-18T2000,4231A,106.687268,26.516892,贵阳市,漓江路57号,,49,46,59,34,44,66,,74,74,19,18,17,13,0.4,0.5
2026-01-18T2000,1864A,110.3091,25.2705,桂林市,龙隐路小学,细颗粒物(PM2.5),99,111,94,74,77,27,,85,80,61,23,7,8,1.0,0.7
2026-01-18T2000,1865A,110.2849361,25.22909545,桂林市,八中,细颗粒物(PM2.5),79,80,96,58,77,64,,80,80,28,29,8,9,0.8,0.9
2026-01-18T2000,3531A,110.296,25.1254,桂林市,旅游学院,细颗粒物(PM2.5),70,66,78,51,61,85,,93,93,12,23,6,6,0.3,0.4
2026-01-18T2000,4222A,110.1835,25.2444,桂林市,环湖路276号,细颗粒物(PM2.5),83,73,95,61,81,79,,93,91,17,28,7,14,0.6,0.8
2026-01-18T2000,4301A,110.2803,25.2773,桂林市,信义路13号,细颗粒物(PM2.5),79,85,94,58,72,72,,92,92,23,21,5,7,1.3,1.4
2026-01-18T2000,2674A,100.2262,34.4854,果洛藏族自治州,玛沁县大武镇,颗粒物(PM10),75,100,109,12,27,93,,96,96,1,4,11,14,0.2,0.4
2026-01-18T2000,1130A,126.5557,45.8109,哈尔滨市,松北商大,细颗粒物(PM2.5),58,50,70,41,53,18,,40,34,47,39,5,9,0.7,0.7
2026-01-18T2000,1132A,126.6162,45.719,哈尔滨市,南岗学府路,,42,42,78,22,57,47,,47,47,18,36,6,11,0.4,0.7
2026-01-18T2000,1133A,126.6894,45.7733,哈尔滨市,太平宏伟公园,,40,38,78,28,55,48,,49,49,23,36,10,14,0.7,0.9
2026-01-18T2000,1134A,126.6361,45.7672,哈尔滨市,道外承德广场,颗粒物(PM10),52,54,93,26,49,46,,48,48,26,44,10,15,0.5,0.9
2026-01-18T2000,1136A,126.644,45.7261,哈尔滨市,动力和平路,,38,38,79,25,51,44,,46,46,24,40,15,14,0.6,1
2026-01-18T2000,1137A,126.5933,45.7479,哈尔滨市,道里建国路,,40,32,76,28,61,42,,43,43,25,42,11,17,0.3,0.8
2026-01-18T2000,1138A,126.6127,45.6119,哈尔滨市,平房东轻厂,细颗粒物(PM2.5),114,105,80,86,65,6,,44,28,70,35,17,10,1.3,1.1
2026-01-18T2000,1139A,126.5875,45.9827,哈尔滨市,呼兰师专,细颗粒物(PM2.5),175,,91,132,83,13,,40,35,61,44,18,12,1.3,1.1
2026-01-18T2000,1140A,126.6299,45.6799,哈尔滨市,省农科院,细颗粒物(PM2.5),93,79,86,69,67,14,,38,33,55,49,16,12,0.9,0.8
2026-01-18T2000,4282A,126.6769,45.7379,哈尔滨市,华山路1号,,36,34,78,25,55,45,,44,44,24,42,13,18,0.6,0.9
2026-01-18T2000,4283A,126.9717,45.5356,哈尔滨市,解放大街52号,细颗粒物(PM2.5),112,84,74,84,67,33,,54,45,41,25,14,14,0.9,0.8
2026-01-18T2000,2688A,93.5124,42.8176,哈密市,地区监测站,颗粒物(PM10),133,216,105,36,21,45,,60,54,19,11,1,3,0.5,0
2026-01-18T2000,2689A,93.5014,42.8312,哈密市,哈密师范学校,颗粒物(PM10),123,196,91,34,16,45,,58,53,22,12,3,3,0.4,0.2
2026-01-18T2000,2671A,100.9016,36.9464,海北藏族自治州,海晏县西海镇,颗粒物(PM10),83,116,58,38,21,75,,76,76,15,9,26,13,0.7,0.5
2026-01-18T2000,3867A,102.074,36.5056,海东市,平安区公安局北苑,颗粒物(PM10),76,101,115,34,31,56,,67,66,11,17,13,30,0.6,0.8
2026-01-18T2000,4163A,102.0984,36.5119,海东市,滨河路,颗粒物(PM10),91,131,130,37,38,60,,76,74,23,29,15,33,0.6,0.8
2026-01-18T2000,1410A,110.3189,20.0596,海口市,海南大学,,44,43,37,24,25,138,,136,136,8,10,6,6,0.3,0.3
2026-01-18T2000,1411A,110.2827,20.0051,海口市,秀英海南医院,,44,44,40,19,26,112,,124,122,10,16,7,8,0.4,0.4
2026-01-18T2000,1412A,110.3391,19.9979,海口市,海南师范大学,,44,44,39,24,27,123,,129,129,13,15,6,6,0.7,0.7
2026-01-18T2000,1413A,110.3303,20.0359,海口市,龙华路环保局宿舍,,46,46,40,25,26,127,,133,132,11,11,/,/,0.9,0.8
2026-01-18T2000,3539A,110.5111,19.9737,海口市,桂林洋子站,,47,47,42,27,29,115,,117,117,10,15,/,/,/,/
2026-01-18T2000,4134A,110.1952,20.0451,海口市,长滨二路9号,,38,32,36,20,30,121,,129,129,6,15,/,/,/,/
2026-01-18T2000,2673A,100.6158,36.2985,海南藏族自治州,共和县恰卜恰镇,颗粒物(PM10),70,90,54,23,23,8,,65,60,54,23,16,13,0.9,0.7
2026-01-18T2000,2676A,97.373,37.376,海西蒙古族藏族自治州,德令哈市,颗粒物(PM10),61,71,43,14,10,66,,83,83,27,10,10,11,1.1,0.7
2026-01-18T2000,1049A,114.492,36.5712,邯郸市,矿院,细颗粒物(PM2.5),83,,57,61,49,17,,33,27,29,23,3,2,0.6,0.5
2026-01-18T2000,1050A,114.4839,36.6136,邯郸市,丛台公园,细颗粒物(PM2.5),73,63,58,53,44,22,,35,30,31,24,5,3,0.6,0.5
2026-01-18T2000,3458A,114.7893,36.5592,邯郸市,香泉濮院小区,细颗粒物(PM2.5),83,,67,61,47,20,,33,22,26,22,1,2,0.6,0.5
2026-01-18T2000,3580A,114.1998,36.4439,邯郸市,峰峰矿区临水派出所,细颗粒物(PM2.5),70,51,48,51,52,36,,39,39,19,16,3,3,0.7,0.6
2026-01-18T2000,4068A,114.5209,36.7697,邯郸市,建安街268号,细颗粒物(PM2.5),72,56,57,52,39,21,,30,25,20,15,1,1,0.6,0.4
2026-01-18T2000,4069A,114.5488,36.6177,邯郸市,丛台东路558号,细颗粒物(PM2.5),78,68,50,57,45,21,,32,27,20,19,3,3,0.5,0.4
2026-01-18T2000,2635A,107.0155,33.0707,汉中市,市监测站,细颗粒物(PM2.5),172,178,164,130,141,17,,12,12,49,51,6,7,1.5,1.7
2026-01-18T2000,2636A,107.0083,33.114,汉中市,鑫源开发区,细颗粒物(PM2.5),147,119,138,112,111,30,,20,20,32,51,5,8,1.0,1.3
2026-01-18T2000,2637A,107.0072,33.0323,汉中市,南郑大河坎水厂,细颗粒物(PM2.5),304,318,200,254,163,6,,6,6,52,45,7,6,2.5,1.8
2026-01-18T2000,1223A,120.2073,30.2111,杭州市,滨江,颗粒物(PM10),65,79,111,28,54,32,,57,49,56,33,6,6,0.4,0.5
2026-01-18T2000,1224A,120.0625,30.2737,杭州市,西溪,颗粒物(PM10),80,109,110,46,43,7,,60,44,44,29,8,8,1.0,1
2026-01-18T2000,1226A,120.3417,30.315,杭州市,下沙,颗粒物(PM10),72,94,100,34,47,27,,64,62,57,32,7,7,0.7,0.7
2026-01-18T2000,1227A,120.1252,30.2465,杭州市,卧龙桥,细颗粒物(PM2.5),75,95,103,55,52,3,,63,44,52,32,8,8,0.5,0.4
2026-01-18T2000,1228A,120.1902,30.2691,杭州市,浙江农大,颗粒物(PM10),54,57,84,24,43,32,,61,45,57,36,5,4,0.6,0.6
2026-01-18T2000,1230A,120.1195,30.3121,杭州市,和睦小学,颗粒物(PM10),96,141,120,54,51,11,,68,38,69,32,5,4,0.8,0.8
2026-01-18T2000,1231A,120.3076,30.4146,杭州市,临平镇,颗粒物(PM10),62,73,87,37,43,38,,67,62,40,23,7,6,0.6,0.6
2026-01-18T2000,1232A,120.2753,30.1839,杭州市,城厢镇,颗粒物(PM10),70,89,112,33,55,22,,59,50,68,36,8,8,0.6,0.6
2026-01-18T2000,1233A,120.0883,30.1808,杭州市,云栖,细颗粒物(PM2.5),85,114,119,63,62,10,,65,51,53,31,4,4,0.7,0.7
2026-01-18T2000,3557A,119.9463,30.0496,杭州市,镇二中,细颗粒物(PM2.5),90,111,102,67,60,12,,65,53,72,35,5,5,1.0,0.8
2026-01-18T2000,3558A,119.7184,30.2367,杭州市,市府大楼,颗粒物(PM10),101,152,155,68,80,15,,60,53,54,32,10,10,1.1,1.1
2026-01-18T2000,3656A,120.1554,30.2863,杭州市,消防大队,颗粒物(PM10),74,98,108,49,61,29,,61,40,53,31,6,6,0.8,0.7
2026-01-18T2000,1270A,117.1957,31.7845,合肥市,明珠广场,细颗粒物(PM2.5),113,144,137,85,85,24,,45,44,33,43,6,6,0.9,1.1
2026-01-18T2000,1271A,117.307,31.8765,合肥市,三里街,细颗粒物(PM2.5),94,122,119,70,72,29,,50,49,34,39,5,5,0.8,0.9
2026-01-18T2000,1272A,117.2587,31.8703,合肥市,琥珀山庄,细颗粒物(PM2.5),93,117,125,69,79,32,,50,50,31,33,7,7,0.7,0.8
2026-01-18T2000,1275A,117.2593,31.9376,合肥市,庐阳区,颗粒物(PM10),82,114,123,56,65,28,,55,53,42,39,5,5,0.7,0.9
2026-01-18T2000,1276A,117.345251,31.861615,合肥市,瑶海区,细颗粒物(PM2.5),89,114,122,66,72,36,,54,54,35,41,5,5,0.7,0.9
2026-01-18T2000,1277A,117.3033,31.7967,合肥市,包河区,细颗粒物(PM2.5),107,119,132,80,84,29,,42,42,40,57,8,9,0.9,1.1
2026-01-18T2000,1278A,117.278,31.7392,合肥市,滨湖新区,细颗粒物(PM2.5),113,136,144,85,97,25,,42,40,37,42,4,5,0.7,0.9
2026-01-18T2000,1279A,117.1324,31.8395,合肥市,高新区,细颗粒物(PM2.5),122,153,129,92,79,26,,50,49,36,38,4,5,0.8,0.9
2026-01-18T2000,3464A,117.3802,31.9148,合肥市,高教基地,细颗粒物(PM2.5),89,114,111,66,69,36,,59,58,27,28,8,8,0.7,0.8
2026-01-18T2000,4098A,117.2518,31.8404,合肥市,中国科学技术大学,颗粒物(PM10),91,132,127,66,75,25,,49,47,37,39,7,8,0.8,1
2026-01-18T2000,3614A,79.9241,37.0878,和田地区,地区环保局,颗粒物(PM10),500,740,448,95,68,63,,68,68,8,15,3,2,0.2,0.4
2026-01-18T2000,3615A,79.9132,37.1137,和田地区,市环保局,颗粒物(PM10),500,786,459,96,64,61,,66,66,9,12,3,2,2.2,0.9
2026-01-18T2000,2517A,108.0496,24.6957,河池市,市环保站,细颗粒物(PM2.5),54,48,81,38,60,66,,78,78,16,26,9,4,0.7,0.8
2026-01-18T2000,4302A,108.0901,24.6945,河池市,上任中路54号,细颗粒物(PM2.5),62,48,85,44,64,65,,76,76,19,26,6,5,0.7,1
2026-01-18T2000,1697A,114.6962,23.7538,河源市,东埔,细颗粒物(PM2.5),114,114,67,86,47,38,,141,133,84,48,6,6,2.1,1.2
2026-01-18T2000,1698A,114.6895,23.7232,河源市,老城,细颗粒物(PM2.5),53,46,57,37,35,114,,147,147,16,30,6,6,0.6,0.7
2026-01-18T2000,3374A,115.5562,35.089,菏泽市,定陶老年大学,,49,36,49,34,39,21,,23,22,19,21,2,1,0.3,0.4
2026-01-18T2000,4114A,115.4239,35.2593,菏泽市,黄河路600号,细颗粒物(PM2.5),72,58,59,52,47,22,,27,24,25,25,1,2,0.6,0.5
2026-01-18T2000,4115A,115.5025,35.2727,菏泽市,菏泽市人社局,细颗粒物(PM2.5),57,50,58,40,44,22,,21,21,21,16,3,2,0.3,0.3
2026-01-18T2000,4184A,115.479691,35.244011,菏泽市,永昌路1号,细颗粒物(PM2.5),65,48,54,47,50,21,,25,24,19,20,2,2,0.2,0.2
2026-01-18T2000,4193A,115.471542,35.280012,菏泽市,长城路999号,细颗粒物(PM2.5),52,50,56,36,43,19,,23,22,22,22,8,8,0.7,0.7
2026-01-18T2000,2514A,111.5264,24.4178,贺州市,环保小区,颗粒物(PM10),72,94,80,48,57,105,,137,137,39,28,8,8,0.8,0.7
2026-01-18T2000,2515A,111.561,24.4074,贺州市,政协大楼,细颗粒物(PM2.5),72,88,73,52,50,110,,149,149,38,33,19,13,0.8,0.8
2026-01-18T2000,3534A,111.4744,24.455,贺州市,西湾,细颗粒物(PM2.5),87,105,78,64,54,66,,135,135,59,31,9,8,6.6,1.1
2026-01-18T2000,2385A,114.17,35.9019,鹤壁市,市监测站,颗粒物(PM10),59,67,72,39,54,29,,27,27,18,20,4,3,0.6,0.7
2026-01-18T2000,2386A,114.2953,35.7512,鹤壁市,市交警支队,细颗粒物(PM2.5),60,60,75,43,51,19,,24,24,24,22,3,3,0.7,0.6
2026-01-18T2000,2387A,114.2877,35.7302,鹤壁市,迎宾馆,细颗粒物(PM2.5),57,59,72,40,55,22,,26,26,30,25,5,3,0.8,0.8
2026-01-18T2000,3474A,114.2616,35.6824,鹤壁市,大新区,颗粒物(PM10),54,57,69,36,50,26,,28,28,26,24,6,4,1.0,0.9
2026-01-18T2000,3596A,114.1573,35.9607,鹤壁市,南山宾馆,细颗粒物(PM2.5),70,61,73,51,54,34,,32,32,14,17,2,2,0.5,0.6
2026-01-18T2000,2244A,130.2537,47.3416,鹤岗市,哈啤分公司,细颗粒物(PM2.5),62,47,35,44,32,58,,63,54,19,15,6,8,0.5,0.5
2026-01-18T2000,2245A,130.2683,47.3087,鹤岗市,斯达机电,颗粒物(PM10),76,102,41,53,30,54,,60,54,31,15,8,6,0.7,0.5
2026-01-18T2000,2246A,130.3114,47.3388,鹤岗市,东山纸板厂,颗粒物(PM10),105,160,42,57,37,15,,53,42,55,20,12,10,1.3,0.9
2026-01-18T2000,2263A,127.4832,50.2524,黑河市,交通局,细颗粒物(PM2.5),64,65,37,46,25,22,,48,31,46,24,13,12,0.7,0.4
2026-01-18T2000,2264A,127.5146,50.2339,黑河市,环保局,细颗粒物(PM2.5),53,44,32,37,26,32,,45,42,33,25,12,12,0.7,0.6
2026-01-18T2000,1074A,115.6839,37.754,衡水市,电机北厂,颗粒物(PM10),57,64,51,26,31,27,,37,23,25,21,6,6,0.4,0.4
2026-01-18T2000,1075A,115.6303,37.7318,衡水市,市监测站,,50,50,48,32,32,28,,38,26,31,24,6,5,0.5,0.5
2026-01-18T2000,3188A,115.6684,37.7216,衡水市,市城管局,细颗粒物(PM2.5),52,44,50,36,36,31,,42,27,25,20,7,6,0.6,0.5
2026-01-18T2000,3459A,115.599,37.5491,衡水市,地表水厂,细颗粒物(PM2.5),52,46,39,36,27,31,,47,28,21,14,3,4,0.5,0.4
2026-01-18T2000,2457A,112.6209,26.9268,衡阳市,衡阳化工总厂,细颗粒物(PM2.5),145,137,115,111,101,45,,58,58,21,22,8,11,1.2,1.2
2026-01-18T2000,2458A,112.621,26.8957,衡阳市,珠晖区环保局,细颗粒物(PM2.5),138,131,119,105,102,42,,60,59,25,29,5,6,1.4,1.3
2026-01-18T2000,2459A,112.628,26.8654,衡阳市,市委党校,细颗粒物(PM2.5),109,139,120,82,84,40,,61,61,28,25,9,8,1.5,1.4
2026-01-18T2000,2460A,112.6007,26.8977,衡阳市,市监测站,细颗粒物(PM2.5),144,133,116,110,83,40,,62,61,28,24,7,8,1.4,1.4
2026-01-18T2000,2461A,112.5658,26.9013,衡阳市,真空机电公司,细颗粒物(PM2.5),114,112,117,86,97,34,,56,56,37,28,6,10,1.5,1.5
2026-01-18T2000,3399A,112.6703,26.8817,衡阳市,师范学院,细颗粒物(PM2.5),138,137,124,105,91,49,,62,62,25,26,5,5,1.4,1.3
2026-01-18T2000,3038A,103.3757,23.3679,红河哈尼族彝族自治州,州图书馆,,27,27,35,16,23,75,,84,83,6,9,6,8,0.5,0.5
2026-01-18T2000,4154A,103.401,23.3561,红河哈尼族彝族自治州,蒙自市朝阳路,,38,29,24,26,24,69,,80,79,7,8,10,8,0.5,0.5
2026-01-18T2000,1090A,111.6506,40.7517,呼和浩特市,呼市一监,,39,39,42,7,9,68,,68,68,4,7,5,6,0.3,0.3
2026-01-18T2000,1094A,111.7516,40.8369,呼和浩特市,如意水处理厂,,21,16,29,6,9,66,,67,67,4,7,9,8,0.2,0.3
2026-01-18T2000,1095A,111.727798,40.806187,呼和浩特市,二十九中,,42,42,34,9,9,65,,67,66,4,6,10,11,0.4,0.4
2026-01-18T2000,1097A,111.717,40.7617,呼和浩特市,化肥厂生活区,,23,23,28,7,9,60,,66,65,11,10,5,5,0.3,0.3
2026-01-18T2000,3699A,111.6519,40.8389,呼和浩特市,海东办,,22,17,25,6,7,68,,70,70,5,6,4,4,0.3,0.3
2026-01-18T2000,4275A,111.591512,40.827312,呼和浩特市,成吉思汗西街8号,,34,34,56,6,7,58,,62,62,6,6,5,5,0.3,0.3
2026-01-18T2000,4276A,111.6597,40.8077,呼和浩特市,公园东路75号,,19,19,31,3,8,57,,58,58,7,10,5,5,0.3,0.3
2026-01-18T2000,4277A,111.5427,40.7846,呼和浩特市,金海路35号,,30,30,35,6,8,59,,62,61,6,9,8,8,0.5,0.5
2026-01-18T2000,3061A,119.7511,49.1576,呼伦贝尔市,国华电力东,,30,21,25,21,20,52,,55,54,16,15,7,6,0.4,0.4
2026-01-18T2000,4279A,119.7569,49.2222,呼伦贝尔市,伊敏大街东7号,,29,,27,20,23,51,,54,53,8,8,7,7,0.3,0.3
2026-01-18T2000,1250A,120.075,30.867,湖州市,城西水厂,颗粒物(PM10),59,68,86,40,56,52,,65,64,38,31,5,6,0.5,0.5
2026-01-18T2000,2873A,120.083,30.8929,湖州市,仁皇山新区,颗粒物(PM10),64,77,89,35,47,57,,71,67,43,39,6,5,0.6,0.7
2026-01-18T2000,2907A,120.1846,30.8592,湖州市,吴兴区站,颗粒物(PM10),61,71,82,32,40,23,,70,62,74,36,5,6,0.4,0.4
2026-01-18T2000,3562A,120.4146,30.8538,湖州市,南浔区站,颗粒物(PM10),64,78,70,39,39,21,,82,69,62,30,6,7,0.9,0.8
2026-01-18T2000,1607A,120.904878,40.721091,葫芦岛市,龙港区,,32,32,41,20,24,43,,61,57,24,24,14,19,0.6,0.7
2026-01-18T2000,1608A,120.8382,40.7521,葫芦岛市,化工街,,24,24,41,12,22,50,,56,54,13,21,12,19,0.5,0.6
2026-01-18T2000,1609A,120.8339,40.7078,葫芦岛市,新区,,21,21,34,14,23,56,,59,58,12,21,14,16,0.6,0.6
2026-01-18T2000,1610A,120.8697,40.7679,葫芦岛市,东城区,,22,20,37,15,26,50,,59,56,19,27,17,21,0.7,0.7
2026-01-18T2000,2483A,109.9297,27.5383,怀化市,河西地税局,细颗粒物(PM2.5),134,140,122,102,98,71,,77,77,22,26,6,4,/,/
2026-01-18T2000,2484A,109.9783,27.5342,怀化市,市四医院,细颗粒物(PM2.5),134,162,154,102,98,71,,79,79,25,34,7,10,0.9,1
2026-01-18T2000,2485A,109.9971,27.5579,怀化市,监测楼,细颗粒物(PM2.5),144,143,137,110,110,75,,88,88,20,27,5,6,0.4,0.5
2026-01-18T2000,1210A,119.0566,33.5991,淮安市,钵池山,,36,36,38,21,24,62,,70,66,13,13,7,6,0.2,0.2
2026-01-18T2000,1211A,119.0083,33.578,淮安市,北京南路,,39,39,43,20,21,58,,66,61,11,11,6,6,0.5,0.5
2026-01-18T2000,1212A,118.9938,33.6083,淮安市,市监测站,,34,34,33,17,18,61,,69,64,14,13,8,8,0.3,0.6
2026-01-18T2000,1213A,119.135,33.5038,淮安市,楚州区监测站,,34,34,34,19,20,62,,68,65,8,10,8,8,0.5,0.5
2026-01-18T2000,3426A,118.8757,33.2897,淮安市,新华书店,,38,38,46,22,23,53,,62,58,19,14,8,7,0.3,0.3
2026-01-18T2000,4092A,119.119691,33.550006,淮安市,枚皋中路89号,,37,37,41,15,18,70,,76,72,10,11,9,9,0.3,0.2
2026-01-18T2000,4206A,119.028838,33.631911,淮安市,承德北路606号,,39,39,44,22,22,65,,71,65,10,12,6,6,0.4,0.4
2026-01-18T2000,2282A,116.8005,33.9749,淮北市,监测站,,33,31,70,23,31,6,,49,11,35,22,4,4,0.8,0.6
2026-01-18T2000,2283A,116.8094,33.9008,淮北市,烈山区政府,,33,,58,23,29,4,,57,15,40,16,3,4,0.7,0.4
2026-01-18T2000,4017A,116.7926,33.9534,淮北市,市博物馆,,39,32,64,27,29,3,,53,11,41,25,3,3,1.1,0.7
2026-01-18T2000,4100A,116.8322,33.9884,淮北市,杜集区第一实验学校,,44,44,75,22,29,3,,51,7,33,20,12,6,1.2,0.9
2026-01-18T2000,2277A,116.8304,32.7726,淮南市,潘集区政府,细颗粒物(PM2.5),58,,88,41,48,3,,44,33,34,21,4,5,0.9,0.6
2026-01-18T2000,2279A,116.8569,32.5949,淮南市,谢家集区政府,细颗粒物(PM2.5),52,36,90,36,43,3,,35,29,33,26,6,7,0.7,0.6
2026-01-18T2000,2280A,116.8279,32.6333,淮南市,八公山区政府,,42,36,96,29,44,2,,40,32,29,20,9,6,0.7,0.5
2026-01-18T2000,2894A,117.0561,32.6536,淮南市,经济技术开发区消防队,细颗粒物(PM2.5),74,81,95,54,49,33,,41,39,21,27,4,4,0.6,0.6
2026-01-18T2000,3329A,117.011,32.5891,淮南市,山南新区,颗粒物(PM10),80,110,120,48,46,32,,42,41,21,23,1,2,0.6,0.6
2026-01-18T2000,4209A,117.003137,32.644456,淮南市,国庆中路369号,细颗粒物(PM2.5),67,81,97,48,45,14,,30,28,25,24,8,9,0.6,0.6
2026-01-18T2000,2446A,114.9021,30.474,黄冈市,职工中心,,35,28,144,24,103,10,,33,27,20,27,5,7,0.8,1.2
2026-01-18T2000,2929A,114.8858,30.4519,黄冈市,红卫路,,35,35,136,24,109,8,,37,25,19,25,8,8,0.3,0.7
2026-01-18T2000,3398A,114.9134,30.4446,黄冈市,市林业局,,36,32,145,25,117,21,,49,43,25,33,5,4,0.8,1.1
2026-01-18T2000,2672A,102.02,35.5101,黄南藏族自治州,同仁县隆务镇,颗粒物(PM10),85,120,71,44,26,67,,73,73,11,7,15,13,0.7,0.6
2026-01-18T2000,2295A,118.2905,29.6965,黄山市,延安路89号,细颗粒物(PM2.5),85,,68,63,56,70,,118,115,26,23,4,4,0.9,0.8
2026-01-18T2000,2297A,118.1369,30.2755,黄山市,黄山区政府5号楼,细颗粒物(PM2.5),98,99,125,73,88,83,,101,101,22,18,3,3,0.7,1
2026-01-18T2000,4210A,118.335445,29.720283,黄山市,滨江东路7-2号,细颗粒物(PM2.5),77,91,80,56,66,50,,111,105,32,19,/,/,/,/
2026-01-18T2000,2423A,115.0547,30.2332,黄石市,沈家营,颗粒物(PM10),89,127,168,42,106,1,,72,57,34,34,7,6,1.2,1.6
2026-01-18T2000,2426A,114.899,30.211,黄石市,铁山,细颗粒物(PM2.5),59,65,128,42,135,6,,62,38,23,28,6,8,0.4,0.7
2026-01-18T2000,2427A,115.0259,30.2108,黄石市,团城山,颗粒物(PM10),89,127,163,46,125,1,,72,57,37,32,7,7,1.0,1.2
2026-01-18T2000,3149A,115.0174,30.1591,黄石市,笔架山北路,颗粒物(PM10),96,142,195,52,130,3,,80,59,32,26,8,10,1.4,1.4
2026-01-18T2000,4185A,115.078022,30.21118,黄石市,磁湖东路29号,细颗粒物(PM2.5),83,98,158,61,134,2,,64,53,30,35,6,10,1.3,1.6
2026-01-18T2000,1392A,114.4181,23.0528,惠州市,河南岸金山湖子站,颗粒物(PM10),66,82,74,39,42,74,,126,122,41,32,4,6,0.8,0.7
2026-01-18T2000,1393A,114.4055,23.0824,惠州市,下埔横江三路子站,细颗粒物(PM2.5),80,103,82,59,47,56,,135,126,75,46,6,8,1.4,0.9
2026-01-18T2000,1395A,114.4645,22.7832,惠州市,惠阳区承修路船湖子站,颗粒物(PM10),58,66,55,37,31,136,,144,144,21,25,6,8,0.6,0.5
2026-01-18T2000,1396A,114.5316,22.7423,惠州市,大亚湾管委会子站,颗粒物(PM10),57,64,61,32,28,142,,143,143,14,23,6,7,0.6,0.6
2026-01-18T2000,3314A,114.4334,22.8134,惠州市,惠阳秋长,颗粒物(PM10),54,58,59,31,33,156,,167,167,23,32,/,/,/,/
2026-01-18T2000,3452A,114.6521,22.7755,惠州市,大亚湾霞涌,颗粒物(PM10),52,53,48,22,27,151,,159,159,17,23,/,/,/,/
2026-01-18T2000,4300A,114.4089,23.1147,惠州市,文华一路1号,颗粒物(PM10),63,75,84,42,48,64,,151,142,64,50,/,/,/,/
2026-01-18T2000,2240A,130.9618,45.2926,鸡西市,环保局,细颗粒物(PM2.5),64,73,32,46,21,4,,60,42,55,15,22,8,1.2,0.4
2026-01-18T2000,2243A,130.9294,45.2959,鸡西市,第一中学,细颗粒物(PM2.5),68,72,28,49,21,7,,60,46,59,14,12,5,0.7,0.5
2026-01-18T2000,3707A,131.0069,45.2988,鸡西市,欧美日汽修厂,,,,45,166,46,19,,54,42,54,27,94,19,2.2,0.7
2026-01-18T2000,2367A,114.9753,27.0803,吉安市,红声器材厂,细颗粒物(PM2.5),98,106,92,73,65,88,,121,121,24,17,16,11,1.2,1
2026-01-18T2000,2369A,114.9903,27.1313,吉安市,市环境监测站,细颗粒物(PM2.5),95,100,96,71,71,104,,124,124,29,29,15,14,/,/
2026-01-18T2000,2370A,115.009527,27.096792,吉安市,青原区法院,细颗粒物(PM2.5),105,112,98,79,72,94,,115,115,24,25,15,14,1.0,1
2026-01-18T2000,1772A,126.54,43.8622,吉林市,哈达湾,细颗粒物(PM2.5),57,53,44,40,33,51,,59,57,27,26,8,9,0.8,0.9
2026-01-18T2000,1773A,126.5843,43.8358,吉林市,东局子,细颗粒物(PM2.5),63,53,37,45,32,44,,48,48,25,22,12,6,1.1,1.1
2026-01-18T2000,1774A,126.5051,43.8243,吉林市,电力学院,细颗粒物(PM2.5),144,133,67,110,52,29,,53,50,53,34,18,13,1.8,1.2
2026-01-18T2000,1775A,126.6133,43.8971,吉林市,江北,细颗粒物(PM2.5),148,132,52,113,42,23,,51,47,47,22,10,9,1.8,1.1
2026-01-18T2000,1776A,126.5549,43.8304,吉林市,江南公园,细颗粒物(PM2.5),59,49,41,42,36,51,,54,54,21,23,31,12,0.8,0.8
2026-01-18T2000,2868A,126.4737,43.953,吉林市,九站,细颗粒物(PM2.5),83,71,61,61,51,27,,48,43,48,42,7,10,1.0,1
2026-01-18T2000,1299A,116.9866,36.6118,济南市,科干所,,27,27,55,17,35,45,,30,30,16,36,3,5,0.4,0.7
2026-01-18T2000,1300A,116.9379,36.6652,济南市,农科所,,29,27,51,20,30,48,,33,33,17,41,5,7,0.5,0.8
2026-01-18T2000,1301A,117.1265,36.6736,济南市,开发区,,32,24,56,22,42,47,,30,30,23,42,2,4,0.6,0.8
2026-01-18T2000,1303A,117.0616,36.6865,济南市,省种子仓库,,42,36,59,29,41,53,,37,37,17,37,2,5,0.5,0.8
2026-01-18T2000,1304A,116.9495185,36.644937,济南市,机床二厂,,42,,53,29,39,46,,32,32,20,42,2,5,0.3,0.6
2026-01-18T2000,1305A,117.0496,36.6629,济南市,市监测站,,32,32,56,22,39,50,,34,34,16,36,3,4,0.5,0.7
2026-01-18T2000,1306A,116.7674,36.5458,济南市,长清党校,,29,24,54,20,34,39,,29,29,19,39,5,7,0.6,0.7
2026-01-18T2000,1961A,117.5323,36.6865,济南市,东山小学,,27,27,56,17,34,64,,45,45,13,37,2,4,0.1,0.4
2026-01-18T2000,3059A,117.7181,36.205,济南市,泰兴公司,,28,,40,19,34,43,,38,29,24,31,3,4,0.8,0.8
2026-01-18T2000,3064A,117.6861,36.2172,济南市,莱芜战役纪念馆,,29,,44,20,36,42,,34,27,24,32,7,12,0.8,0.8
2026-01-18T2000,3494A,117.1673,36.9782,济南市,济阳区政府,,29,29,42,20,28,50,,42,42,17,25,4,7,0.4,0.6
2026-01-18T2000,3495A,117.1168,36.6299,济南市,锦屏中学,,,20,49,12,33,46,,17,,,40,4,12,0.7,0.9
2026-01-18T2000,4108A,117.7107,36.2385,济南市,山财大街5号,,14,9,33,9,28,43,,37,28,20,28,7,8,0.8,0.7
2026-01-18T2000,4109A,116.9744,36.6889,济南市,无影山路12号,,27,27,49,17,40,52,,36,36,10,35,3,7,0.5,0.8
2026-01-18T2000,1653A,116.6229,35.4288,济宁市,火炬城,细颗粒物(PM2.5),64,49,55,46,46,13,,23,8,30,26,2,2,0.7,0.6
2026-01-18T2000,3500A,116.5808,35.3703,济宁市,北湖一中,细颗粒物(PM2.5),67,52,50,48,46,10,,22,7,35,30,3,4,0.8,0.7
2026-01-18T2000,3501A,116.8251,35.5592,济宁市,服务中心,,40,39,54,28,35,18,,20,12,34,31,8,8,1.0,0.8
2026-01-18T2000,3678A,116.5907,35.4054,济宁市,市第七中学,细颗粒物(PM2.5),58,55,62,41,39,13,,26,9,32,29,6,6,0.8,0.7
2026-01-18T2000,4111A,116.6075,35.4566,济宁市,任和路,细颗粒物(PM2.5),60,57,64,43,43,11,,20,6,29,28,2,3,0.9,0.8
2026-01-18T2000,4112A,116.5648,35.3921,济宁市,文体南路1号,细颗粒物(PM2.5),67,56,61,48,44,11,,22,7,30,28,1,2,0.7,0.7
2026-01-18T2000,2255A,130.2749,46.8028,佳木斯市,佳纺,细颗粒物(PM2.5),90,82,50,67,37,13,,52,42,63,25,17,12,1.1,0.6
2026-01-18T2000,2257A,130.3258,46.7975,佳木斯市,环保局,细颗粒物(PM2.5),68,58,40,49,36,12,,63,52,67,23,11,10,1.1,0.5
2026-01-18T2000,4285A,130.363,46.806,佳木斯市,顺和街,细颗粒物(PM2.5),57,50,36,40,26,7,,47,36,67,26,14,13,1.1,0.5
2026-01-18T2000,4286A,130.3952,46.8268,佳木斯市,长安路196号,细颗粒物(PM2.5),92,79,42,68,32,12,,49,40,59,25,7,8,0.9,0.5
2026-01-18T2000,1252A,120.7439,30.778,嘉兴市,清河小学,,47,47,60,23,31,65,,83,79,22,20,7,6,0.3,0.4
2026-01-18T2000,1253A,120.7261,30.7477,嘉兴市,嘉兴学院,,,51,62,23,28,,,92,92,25,27,7,5,0.8,0.6
2026-01-18T2000,2872A,120.7845,30.7524,嘉兴市,南湖区残联,,41,41,47,26,27,64,,89,84,26,22,8,4,0.6,0.7
2026-01-18T2000,3407A,120.6915,30.7741,嘉兴市,秀洲住建,,40,40,61,23,32,60,,90,86,28,22,9,7,0.5,0.5
2026-01-18T2000,1945A,98.291,39.7705,嘉峪关市,气象局,颗粒物(PM10),57,63,44,14,14,64,,71,68,4,5,6,6,0.3,0.4
2026-01-18T2000,2884A,98.2672,39.7978,嘉峪关市,酒钢宾馆,,,61,47,17,15,59,,69,66,12,8,16,16,,1
2026-01-18T2000,3248A,98.2644,39.7723,嘉峪关市,雄关区,,43,43,39,17,17,61,,72,63,6,27,12,12,0.4,0.4
2026-01-18T2000,1383A,113.1063,22.6058,江门市,北街,颗粒物(PM10),57,63,74,37,43,107,,149,147,25,42,/,/,/,/
2026-01-18T2000,1384A,113.073,22.5835,江门市,西区,颗粒物(PM10),63,76,78,22,35,100,,138,137,34,54,/,/,/,/
2026-01-18T2000,1385A,113.0218,22.531,江门市,圭峰西,,42,41,60,29,37,116,,154,153,17,27,/,/,/,/
2026-01-18T2000,1386A,113.0826,22.5947,江门市,东湖,颗粒物(PM10),55,60,69,30,49,110,,153,152,26,45,9,10,0.6,0.7
2026-01-18T2000,3311A,113.1077,22.5647,江门市,江海富民,细颗粒物(PM2.5),62,49,87,44,46,99,,154,152,34,49,/,/,0.8,0.7
2026-01-18T2000,3449A,113.0496,22.4669,江门市,新会银湖,,50,50,70,30,48,104,,155,150,23,42,7,8,0.4,0.4
2026-01-18T2000,3335A,113.3137,35.2643,焦作市,马村街道办,细颗粒物(PM2.5),74,80,77,54,53,27,,32,24,21,21,4,5,0.6,0.6
2026-01-18T2000,3336A,113.2464,35.2374,焦作市,焦作技师学院,细颗粒物(PM2.5),77,87,76,56,53,21,,29,22,21,21,8,7,1.0,1
2026-01-18T2000,3477A,113.1656,35.2536,焦作市,中站许衡医院,细颗粒物(PM2.5),82,86,84,60,60,20,,28,23,26,23,4,3,0.9,0.9
2026-01-18T2000,3981A,113.2456,35.18,焦作市,原李万街道办,细颗粒物(PM2.5),67,,74,48,46,31,,31,29,19,19,4,4,0.6,0.5
2026-01-18T2000,4264A,113.234,35.219,焦作市,新安路1731号,,,138,92,66,57,24,,30,25,,17,6,4,0.7,0.6
2026-01-18T2000,4295A,113.2722,35.2121,焦作市,人民路3066号,,,97,80,52,50,26,,28,24,,21,4,5,0.9,0.9
2026-01-18T2000,1708A,116.3701,23.5345,揭阳市,新兴,颗粒物(PM10),68,85,96,48,68,92,,158,155,45,56,12,12,1.6,0.9
2026-01-18T2000,1709A,116.3261,23.5442,揭阳市,西马,细颗粒物(PM2.5),62,65,103,44,64,98,,152,151,27,44,7,9,0.9,0.8
2026-01-18T2000,1710A,116.361,23.5627,揭阳市,东兴,细颗粒物(PM2.5),79,78,99,58,60,84,,149,146,32,54,13,13,/,/
2026-01-18T2000,1711A,116.4151,23.5295,揭阳市,渔湖,颗粒物(PM10),59,67,88,33,54,98,,158,155,26,47,6,10,/,/
2026-01-18T2000,3320A,116.4028,23.5699,揭阳市,曲溪,细颗粒物(PM2.5),79,93,99,58,57,104,,166,163,33,47,6,16,1.3,1
2026-01-18T2000,1944A,102.1691,38.5166,金昌市,天庆家园,,34,34,37,10,10,69,,73,72,8,7,4,3,0.5,0.5
2026-01-18T2000,4022A,102.1648,38.5369,金昌市,金川区人防中心,,39,39,40,27,14,74,,76,76,5,6,3,3,0.5,0.5
2026-01-18T2000,4239A,102.193042,38.531887,金昌市,长春路96号,,26,26,40,7,10,69,,71,71,4,4,5,5,0.5,0.6
2026-01-18T2000,1262A,119.6478,29.0773,金华市,十五中,细颗粒物(PM2.5),82,102,120,60,76,71,,122,120,43,33,4,4,0.8,0.8
2026-01-18T2000,1263A,119.6859,29.1032,金华市,监测站,颗粒物(PM10),80,109,130,50,66,55,,98,96,52,46,3,3,0.7,0.7
2026-01-18T2000,3659A,119.656,29.1132,金华市,气象局,颗粒物(PM10),73,96,121,41,55,32,,98,94,61,46,4,4,0.6,0.4
2026-01-18T2000,1767A,121.1114,41.0879,锦州市,南山,,20,18,34,12,24,63,,65,65,7,17,8,17,0.5,0.6
2026-01-18T2000,1768A,121.060361,40.842794,锦州市,开发区,,43,43,36,19,21,45,,58,54,21,20,8,20,0.4,0.4
2026-01-18T2000,1769A,121.1836,41.1118,锦州市,百股街道,,25,22,43,17,27,54,,59,56,13,24,7,17,0.6,0.8
2026-01-18T2000,1770A,121.1176,41.1224,锦州市,天安街道,,,26,38,6,20,69,,71,69,8,17,,15,0.6,0.8
2026-01-18T2000,1771A,121.1303,41.1385,锦州市,北湖公园,,22,22,37,9,24,60,,63,62,6,16,8,12,0.5,0.7
2026-01-18T2000,2160A,112.8496,35.5051,晋城市,自来水公司,细颗粒物(PM2.5),79,75,57,58,40,7,,31,16,29,20,3,3,0.9,0.8
2026-01-18T2000,2162A,112.8509,35.4886,晋城市,市环保局,细颗粒物(PM2.5),67,56,53,48,37,11,,35,18,27,19,2,2,0.9,0.8
2026-01-18T2000,3620A,112.8258,35.4804,晋城市,泽州一中,细颗粒物(PM2.5),62,61,51,44,35,10,,38,20,29,21,2,2,0.8,0.7
2026-01-18T2000,4078A,112.8246,35.5152,晋城市,前书院路,细颗粒物(PM2.5),70,70,54,51,32,3,,32,15,31,19,3,3,0.8,0.7
2026-01-18T2000,4079A,112.8864,35.4773,晋城市,祥云街666号,细颗粒物(PM2.5),68,64,55,49,45,8,,31,14,16,12,2,2,0.6,0.6
2026-01-18T2000,2174A,112.6992,37.6984,晋中市,榆次区政府,细颗粒物(PM2.5),100,97,94,75,63,13,,26,25,46,34,7,6,0.4,0.4
2026-01-18T2000,2865A,112.7195,37.683,晋中市,榆次三中,细颗粒物(PM2.5),89,105,92,66,52,18,,30,28,33,25,7,6,0.4,0.4
2026-01-18T2000,4080A,112.7375,37.7215,晋中市,广安街188号,细颗粒物(PM2.5),105,129,100,79,64,9,,26,24,47,32,8,7,0.5,0.4
2026-01-18T2000,4200A,112.7478,37.6954,晋中市,迎宾街26号,细颗粒物(PM2.5),100,102,90,75,60,16,,34,31,39,24,7,6,0.6,0.5
2026-01-18T2000,2439A,112.2012,31.048,荆门市,竹园小学,细颗粒物(PM2.5),57,60,152,40,100,25,,25,20,28,30,2,2,0.7,0.9
2026-01-18T2000,2440A,112.1968,30.9892,荆门市,掇刀,,,60,155,46,100,,,21,11,24,27,2,2,4.5,0.8
2026-01-18T2000,3012A,112.1849,31.0361,荆门市,西山林语,细颗粒物(PM2.5),59,,143,42,96,19,,21,13,24,27,3,7,0.5,0.6
2026-01-18T2000,3547A,112.1631,31.0134,荆门市,龙泉中学南校,细颗粒物(PM2.5),58,56,158,41,105,25,,31,19,14,18,2,2,1.0,1
2026-01-18T2000,4124A,112.2213,31.0654,荆门市,新台西路6号,细颗粒物(PM2.5),58,53,149,41,110,16,,16,12,19,26,7,7,0.7,0.9
2026-01-18T2000,1844A,112.2493,30.3198,荆州市,市图书馆,细颗粒物(PM2.5),104,,141,78,132,12,,23,16,25,27,4,6,0.9,1.1
2026-01-18T2000,1845A,112.2009,30.3543,荆州市,市委党校,细颗粒物(PM2.5),98,,158,73,127,10,,17,12,28,33,2,3,0.8,1
2026-01-18T2000,3194A,112.2749,30.3124,荆州市,管委会,细颗粒物(PM2.5),103,79,146,77,135,9,,18,11,26,30,4,6,0.8,1.1
2026-01-18T2000,4268A,112.1722,30.3366,荆州市,学苑路85号,细颗粒物(PM2.5),68,75,150,49,115,12,,23,16,26,24,4,4,0.9,1.1
2026-01-18T2000,2343A,117.2114,29.2931,景德镇市,老干部活动中心,细颗粒物(PM2.5),114,119,83,86,70,63,,87,87,41,36,12,9,1.3,1.1
2026-01-18T2000,2344A,117.1893,29.2789,景德镇市,兽医站,细颗粒物(PM2.5),77,98,88,56,57,67,,109,108,48,40,4,11,1.2,0.9
2026-01-18T2000,2346A,117.246,29.2958,景德镇市,陶研所,细颗粒物(PM2.5),114,88,65,86,58,51,,103,100,39,24,3,4,1.0,0.6
2026-01-18T2000,4289A,117.154766,29.256967,景德镇市,青少年活动中心,颗粒物(PM10),134,218,104,87,70,,,93,93,93,48,18,28,/,/
2026-01-18T2000,1803A,115.9873,29.6816,九江市,十里,细颗粒物(PM2.5),178,156,151,134,115,86,,104,104,52,36,7,6,1.4,1.4
2026-01-18T2000,1804A,115.9583,29.7047,九江市,茅山头,细颗粒物(PM2.5),163,177,156,124,106,80,,100,100,37,27,10,10,1.2,1.2
2026-01-18T2000,1805A,115.9877,29.7295,九江市,西园,细颗粒物(PM2.5),150,155,137,115,106,82,,107,107,66,49,2,3,1.2,1.2
2026-01-18T2000,1808A,115.9112,29.6038,九江市,综合工业园,细颗粒物(PM2.5),198,167,174,148,147,26,,80,75,107,57,5,4,1.2,0.8
2026-01-18T2000,3190A,116.0254,29.6995,九江市,外国语学校,细颗粒物(PM2.5),163,160,146,124,108,66,,86,86,51,39,10,9,1.3,1.3
2026-01-18T2000,4253A,116.010205,29.659402,九江市,莲花大道8号,细颗粒物(PM2.5),188,162,172,141,134,88,,93,93,16,19,5,4,0.9,1.1
2026-01-18T2000,4240A,98.495752,39.733935,酒泉市,玉门东路5号,颗粒物(PM10),54,58,49,19,17,66,,73,69,2,3,8,9,0.3,0.3
2026-01-18T2000,4241A,98.5099,39.7506,酒泉市,北大街108号,,44,44,43,14,14,60,,67,64,4,6,8,8,0.3,0.3
2026-01-18T2000,2698A,76.0071,39.466,喀什地区,巡警大队,颗粒物(PM10),382,485,395,77,69,66,,63,63,12,20,4,5,0.6,0.7
2026-01-18T2000,2699A,75.9756,39.4693,喀什地区,吾办,颗粒物(PM10),334,447,338,82,66,64,,71,71,16,14,6,8,0.5,0.6
2026-01-18T2000,4027A,75.9485,39.4688,喀什地区,老干局,颗粒物(PM10),429,529,406,79,65,66,,71,71,10,11,3,4,0.4,0.5
2026-01-18T2000,1824A,114.3389,34.778,开封市,肿瘤医院,颗粒物(PM10),54,58,65,35,47,26,,28,28,26,24,2,3,0.6,0.6
2026-01-18T2000,1826A,114.2884,34.7966,开封市,世纪星幼儿园,细颗粒物(PM2.5),55,53,63,39,55,27,,29,29,23,21,5,5,0.6,0.6
2026-01-18T2000,3147A,114.3434,34.8101,开封市,龙亭公园,"颗粒物(PM10),细颗粒物(PM2.5)",52,54,62,36,56,23,,27,26,24,14,5,5,0.5,0.5
2026-01-18T2000,3210A,114.3645,34.7955,开封市,汴京公园,细颗粒物(PM2.5),55,53,62,39,52,26,,28,28,19,20,3,3,1.0,1
2026-01-18T2000,3473A,114.2485,34.8306,开封市,技师学院,细颗粒物(PM2.5),53,50,67,37,53,25,,27,27,20,21,4,4,0.8,0.9
2026-01-18T2000,3592A,114.4518,34.7503,开封市,祥符区生态环境局,细颗粒物(PM2.5),55,58,78,39,51,22,,27,26,28,27,3,3,0.6,0.6
2026-01-18T2000,1951A,84.886,45.6029,克拉玛依市,长征新村,,29,29,19,20,12,48,,60,56,13,7,9,6,0.6,0.3
2026-01-18T2000,1952A,84.8894,45.5827,克拉玛依市,南林小区,,26,26,17,14,11,49,,60,56,9,5,6,4,0.6,0.5
2026-01-18T2000,1954A,84.896,44.3328,克拉玛依市,独山子区,细颗粒物(PM2.5),73,58,77,53,57,26,,51,44,52,37,4,5,0.6,0.6
2026-01-18T2000,1955A,85.6888,46.0909,克拉玛依市,乌尔禾区商贸楼,,19,18,16,9,12,59,,62,62,11,16,6,6,0.4,0.5
2026-01-18T2000,3612A,85.1045,45.6895,克拉玛依市,白碱滩区新站,,35,24,25,24,14,25,,57,47,44,12,9,8,0.2,0.1
2026-01-18T2000,2697A,76.1457,39.7143,克孜勒苏柯尔克孜自治州,市人民政府,颗粒物(PM10),500,658,448,124,72,72,,76,76,8,8,4,4,0.3,0.3
2026-01-18T2000,3665A,76.1654,39.7157,克孜勒苏柯尔克孜自治州,克州文化中心,颗粒物(PM10),500,735,475,93,67,67,,72,72,9,8,3,4,0.5,0.5
2026-01-18T2000,1450A,102.8203,24.889,昆明市,呈贡新区,,29,29,41,9,23,73,,80,80,9,25,5,8,0.6,0.8
2026-01-18T2000,1452A,102.7253,25.0904,昆明市,龙泉镇,,37,37,46,15,28,61,,78,78,22,33,3,4,0.4,0.6
2026-01-18T2000,1453A,102.7267,25.0378,昆明市,东风东路,,25,25,48,14,26,70,,82,82,18,28,4,8,0.2,0.4
2026-01-18T2000,1454A,102.6744,25.0671,昆明市,金鼎山,,39,39,62,12,33,69,,79,79,13,35,3,5,0.6,0.9
2026-01-18T2000,1455A,102.6643,25.0401,昆明市,碧鸡广场,,32,32,49,19,27,61,,78,78,22,35,4,6,0.4,0.6
2026-01-18T2000,3179A,102.7491,25.012,昆明市,官渡区博物馆,,33,33,51,13,29,68,,85,85,20,34,4,6,0.2,0.7
2026-01-18T2000,3375A,102.8016,24.8336,昆明市,青年创业园,,26,21,36,14,26,82,,90,90,6,27,5,13,0.5,0.7
2026-01-18T2000,3550A,102.8,24.9787,昆明市,昆明学院,,25,23,49,11,25,80,,91,91,9,25,3,5,0.3,0.6
2026-01-18T2000,3551A,102.5969,24.6738,昆明市,晋宁区生态环境分局,,37,37,37,12,21,49,,66,66,12,19,2,2,0.5,0.6
2026-01-18T2000,3552A,102.6673,24.9861,昆明市,云天化总部,,26,16,37,7,23,81,,88,88,10,32,5,9,0.0,0.3
2026-01-18T2000,1456A,91.132,29.6515,拉萨市,八廓街,,25,18,33,13,22,79,,91,91,19,26,9,8,0.4,0.7
2026-01-18T2000,1457A,91.1221,29.6748,拉萨市,市环保局,,31,31,56,17,42,49,,84,83,44,39,11,10,1.2,1.7
2026-01-18T2000,1458A,91.0874,29.6476,拉萨市,区监测站,,21,19,25,6,17,67,,86,86,31,37,4,5,0.8,1.1
2026-01-18T2000,1459A,91.1774,29.6541,拉萨市,西藏大学,,31,31,24,21,12,82,,91,91,25,23,7,5,1.0,0.7
2026-01-18T2000,1460A,90.9798,29.6586,拉萨市,区辐射站,,49,49,51,29,29,51,,79,79,56,40,9,6,1.0,1
2026-01-18T2000,1461A,91.0831,29.6292,拉萨市,拉萨火车站,,23,16,28,7,17,72,,84,84,24,36,4,5,0.6,1.1
2026-01-18T2000,2520A,109.2203,23.7252,来宾市,来宾技工学校,细颗粒物(PM2.5),90,96,112,67,76,96,,97,97,22,28,10,12,1.1,1.1
2026-01-18T2000,3535A,109.1781,23.7293,来宾市,兴宾区政府,细颗粒物(PM2.5),90,89,105,67,84,107,,115,115,23,17,21,11,1.0,1
2026-01-18T2000,4002A,109.2312,23.7428,来宾市,中南小学,细颗粒物(PM2.5),94,100,101,70,73,100,,105,105,28,37,6,6,1.0,1.1
2026-01-18T2000,1479A,103.8309,36.0467,兰州市,铁路设计院,,,,,,,,,,,,,,,,
2026-01-18T2000,3241A,103.7439,36.0841,兰州市,百合公园,颗粒物(PM10),63,75,121,26,30,57,,60,59,10,11,9,10,0.5,0.5
2026-01-18T2000,3242A,103.9613,35.9985,兰州市,和平,颗粒物(PM10),70,89,154,22,41,64,,67,67,10,13,5,10,0.5,0.5
2026-01-18T2000,4236A,103.629272,36.093822,兰州市,庄浪东路808号,颗粒物(PM10),77,104,129,33,41,66,,67,66,10,16,17,16,0.4,0.4
2026-01-18T2000,4237A,103.7251,36.104344,兰州市,安宁西路88号,颗粒物(PM10),76,101,143,33,36,67,,70,68,11,13,12,12,0.3,0.3
2026-01-18T2000,4238A,103.846982,36.067567,兰州市,北滨河东路1号,颗粒物(PM10),77,103,133,39,42,65,,67,67,11,17,4,8,0.5,0.5
2026-01-18T2000,1067A,116.6712,39.5109,廊坊市,药材公司,细颗粒物(PM2.5),60,68,47,43,23,17,,44,37,45,21,6,6,1.0,0.7
2026-01-18T2000,1068A,116.7215,39.5592,廊坊市,开发区,颗粒物(PM10),55,60,43,37,24,22,,46,39,40,23,5,6,1.0,0.7
2026-01-18T2000,1070A,116.7246,39.5273,廊坊市,北华航天学院,颗粒物(PM10),63,75,49,41,23,23,,44,39,38,20,7,6,0.9,0.7
2026-01-18T2000,2919A,116.7022,39.5454,廊坊市,河北工业大学,颗粒物(PM10),59,68,43,41,24,28,,44,38,30,18,4,5,0.9,0.7
2026-01-18T2000,2536A,103.7629,29.5844,乐山市,牛耳桥,细颗粒物(PM2.5),212,188,154,162,134,52,,86,86,59,38,6,6,1.4,1.2
2026-01-18T2000,2537A,103.7501,29.6002,乐山市,市第三水厂,细颗粒物(PM2.5),223,189,155,173,132,60,,95,91,52,43,8,7,1.3,1.2
2026-01-18T2000,2538A,103.7571,29.5664,乐山市,市监测站,细颗粒物(PM2.5),207,183,164,157,141,80,,93,93,33,33,8,7,1.1,1.2
2026-01-18T2000,3361A,103.7313,29.563,乐山市,理工大学,细颗粒物(PM2.5),203,174,163,153,140,66,,92,92,41,32,7,7,1.0,1
2026-01-18T2000,2599A,100.2497,26.8802,丽江市,丽江古城,,42,42,35,12,18,53,,87,84,37,14,10,10,0.7,0.5
2026-01-18T2000,2600A,100.2203,26.8906,丽江市,市中心,细颗粒物(PM2.5),55,41,27,39,13,43,,89,84,49,17,7,6,1.0,0.5
2026-01-18T2000,1267A,119.9141,28.4513,丽水市,监测站大楼,细颗粒物(PM2.5),75,87,72,55,66,48,,99,87,63,35,6,8,1.1,0.8
2026-01-18T2000,1268A,119.93,28.4589,丽水市,莲都小学,颗粒物(PM10),55,60,79,26,45,104,,110,110,30,34,/,/,/,/
2026-01-18T2000,1269A,119.8794,28.4232,丽水市,余庄前,颗粒物(PM10),52,53,77,30,53,36,,100,93,42,30,4,4,0.6,0.6
2026-01-18T2000,1173A,119.1759,34.5885,连云港市,市环境监测站,,25,,28,17,13,39,,73,57,20,12,9,9,0.3,0.2
2026-01-18T2000,3000A,119.3577,34.6971,连云港市,德源药业,,20,19,28,14,11,40,,71,56,23,16,5,5,0.6,0.5
2026-01-18T2000,3007A,119.178,34.8442,连云港市,新城一中,,48,,36,33,16,44,,76,50,25,17,8,8,0.7,0.8
2026-01-18T2000,3008A,119.3607,34.7519,连云港市,胡沟管理处,,28,22,26,19,11,46,,63,56,20,25,6,8,0.5,0.3
2026-01-18T2000,3009A,119.1478,34.5913,连云港市,矿山设计院,,,14,30,14,10,,,75,58,19,13,6,7,0.7,0.5
2026-01-18T2000,3434A,119.2414,34.6539,连云港市,工贸学校,,33,33,32,19,16,38,,81,58,18,8,9,9,0.6,0.4
2026-01-18T2000,3664A,119.4171,34.734,连云港市,连云街道,,35,35,29,20,12,42,,84,57,28,18,2,2,0.6,0.5
2026-01-18T2000,2573A,102.2629,27.8981,凉山彝族自治州,西昌市政府,颗粒物(PM10),52,53,63,32,51,91,,94,94,12,20,10,10,0.5,0.7
2026-01-18T2000,2574A,102.2686,27.885,凉山彝族自治州,凉山州政府,细颗粒物(PM2.5),65,66,72,47,48,78,,88,88,23,26,11,10,0.6,0.7
2026-01-18T2000,4229A,102.2342,27.8859,凉山彝族自治州,凯乐南路30号,,45,45,95,26,60,92,,88,88,16,41,13,10,0.7,0.9
2026-01-18T2000,2212A,123.1978,41.2036,辽阳市,宏伟区,,43,,54,30,43,52,,52,50,14,19,8,12,0.3,0.7
2026-01-18T2000,2213A,123.1684,41.2497,辽阳市,新华园,,29,25,48,20,37,48,,49,48,19,28,12,11,0.3,0.6
2026-01-18T2000,2214A,123.2355,41.2663,辽阳市,滨河路,,39,30,66,27,49,34,,44,42,26,34,6,9,0.4,1
2026-01-18T2000,4083A,123.153,41.2874,辽阳市,铁西路150号,,38,,54,26,43,40,,52,50,27,38,10,12,0.7,1.2
2026-01-18T2000,2227A,125.1359,42.8845,辽源市,环保局,颗粒物(PM10),54,57,56,36,41,44,,55,54,31,40,6,6,0.6,0.8
2026-01-18T2000,4085A,125.0998,42.9134,辽源市,安宁大街333号,细颗粒物(PM2.5),58,54,52,41,45,51,,56,55,15,26,5,7,0.6,0.8
2026-01-18T2000,1625A,115.9789,36.4372,聊城市,区政府,,35,31,50,24,29,47,,36,36,22,32,10,12,0.7,0.8
2026-01-18T2000,3200A,115.9772,36.4986,聊城市,监控中心,,32,,42,22,32,52,,40,40,15,26,5,7,0.7,0.8
2026-01-18T2000,3513A,116.0443,36.436,聊城市,九州社区,,42,38,55,29,34,53,,44,44,4,16,2,4,0.5,0.6
2026-01-18T2000,4018A,116.0564,36.4609,聊城市,星美广场,,38,38,55,25,32,45,,36,36,12,20,4,6,0.5,0.6
2026-01-18T2000,4113A,116.0091,36.4495,聊城市,利民路,,38,38,50,21,32,42,,32,32,21,31,7,9,0.7,0.8
2026-01-18T2000,2632A,94.3683,29.6373,林芝市,林芝监测站,,40,40,17,14,8,78,,75,75,1,8,4,3,0.4,0.4
2026-01-18T2000,2633A,94.3616,29.6634,林芝市,林芝人民医院,颗粒物(PM10),57,63,20,12,9,78,,73,73,3,12,2,2,0.2,0.3
2026-01-18T2000,2603A,100.0779,23.8981,临沧市,市环保局,细颗粒物(PM2.5),74,65,42,54,39,76,,87,87,12,11,5,5,0.7,0.7
2026-01-18T2000,2604A,100.0894,23.882,临沧市,市气象局,,46,46,43,25,25,73,,84,84,11,11,5,4,0.4,0.5
2026-01-18T2000,1733A,111.5552,36.0791,临汾市,临钢医院,细颗粒物(PM2.5),135,170,130,103,81,7,,36,22,52,30,12,10,1.6,1.2
2026-01-18T2000,1734A,111.4984,36.0734,临汾市,技工学校,细颗粒物(PM2.5),130,155,122,99,77,8,,31,22,52,35,13,9,1.1,0.9
2026-01-18T2000,1736A,111.5017,36.0857,临汾市,市委,细颗粒物(PM2.5),123,151,122,93,73,11,,35,25,53,32,14,12,1.4,1.2
2026-01-18T2000,3018A,111.5048,36.1015,临汾市,唐尧大酒店,细颗粒物(PM2.5),125,160,127,95,77,5,,32,24,61,34,10,8,1.4,1.1
2026-01-18T2000,4244A,111.4879,36.053,临汾市,启星学校,细颗粒物(PM2.5),132,149,116,100,75,4,,36,24,68,36,16,10,1.5,1.2
2026-01-18T2000,4271A,103.2464,35.6123,临夏回族自治州,滨河东路1号,颗粒物(PM10),94,138,182,31,44,48,,54,50,19,22,15,13,0.5,0.8
2026-01-18T2000,4310A,103.207136,35.599807,临夏回族自治州,新华街21号,,,140,172,33,47,,,56,56,16,22,16,16,0.4,0.8
2026-01-18T2000,1618A,118.3429,35.0532,临沂市,沂河小区,,48,,45,33,39,43,,34,34,20,28,8,9,0.6,0.6
2026-01-18T2000,1619A,118.2962,35.0568,临沂市,鲁南制药厂,,40,,38,28,35,42,,34,34,18,26,8,9,0.7,0.7
2026-01-18T2000,1620A,118.2793,34.9976,临沂市,新光毛纺厂,,38,,34,26,31,39,,33,30,26,33,8,7,0.7,0.7
2026-01-18T2000,1621A,118.3955,35.0889,临沂市,河东保险公司,,39,,46,27,32,45,,34,34,18,29,7,8,0.6,0.7
2026-01-18T2000,3370A,118.3563,35.0215,临沂市,十里堡居委,,22,22,36,9,23,53,,37,37,19,29,8,8,0.6,0.6
2026-01-18T2000,3496A,118.359,35.1067,临沂市,南坊新区,,35,24,40,24,30,45,,39,39,20,30,7,8,0.7,0.7
2026-01-18T2000,3860A,118.3915,35.0297,临沂市,皇山花园小区,,36,,42,25,30,47,,33,33,22,33,10,10,0.7,0.8
2026-01-18T2000,1870A,109.4854,24.3898,柳州市,柳东小学,细颗粒物(PM2.5),70,64,86,51,74,116,,113,113,15,31,9,31,0.7,0.8
2026-01-18T2000,1871A,109.4109,24.3304,柳州市,环保监测站,细颗粒物(PM2.5),72,66,104,52,78,64,,96,96,42,40,5,6,1.2,1.3
2026-01-18T2000,1872A,109.3886,24.3408,柳州市,河西水厂,,,87,133,47,82,68,,103,103,,42,,8,1.2,1.3
2026-01-18T2000,1873A,109.4263,24.2951,柳州市,市四中,细颗粒物(PM2.5),88,98,118,65,76,70,,96,96,45,47,11,10,1.3,1.1
2026-01-18T2000,1874A,109.396,24.3658,柳州市,市九中,细颗粒物(PM2.5),87,107,114,64,88,37,,92,92,71,43,12,13,1.3,1.3
2026-01-18T2000,1875A,109.4912,24.3164,柳州市,古亭山,细颗粒物(PM2.5),64,65,83,46,56,52,,91,91,35,38,7,8,0.8,0.8
2026-01-18T2000,3402A,109.5422,24.3994,柳州市,市二中,细颗粒物(PM2.5),58,61,88,41,67,86,,104,104,24,33,10,18,0.8,0.8
2026-01-18T2000,2307A,116.5078,31.7369,六安市,监测大楼,细颗粒物(PM2.5),74,75,155,54,104,9,,29,26,28,32,3,3,0.4,0.6
2026-01-18T2000,2308A,116.4738,31.7642,六安市,皖西学院,细颗粒物(PM2.5),64,61,157,46,94,9,,32,29,28,29,4,5,0.4,0.6
2026-01-18T2000,2309A,116.4997,31.7904,六安市,朝阳厂,细颗粒物(PM2.5),64,59,142,46,92,8,,26,24,27,33,6,5,0.5,0.7
2026-01-18T2000,2310A,116.5566,31.7885,六安市,开发区,颗粒物(PM10),78,105,160,56,93,12,,26,25,28,33,4,4,0.4,0.7
2026-01-18T2000,2577A,104.8293,26.592,六盘水市,黄土坡,细颗粒物(PM2.5),67,59,74,48,57,86,,90,90,23,25,12,13,0.8,1
2026-01-18T2000,2579A,104.8481,26.5898,六盘水市,民中,细颗粒物(PM2.5),92,76,72,68,64,72,,90,90,33,25,10,9,0.9,0.9
2026-01-18T2000,2580A,104.9541,26.5506,六盘水市,双水,颗粒物(PM10),51,51,68,35,53,94,,92,92,16,14,5,6,0.5,0.4
2026-01-18T2000,4151A,104.8899,26.5685,六盘水市,钟山大道中段564号,细颗粒物(PM2.5),84,105,98,62,60,67,,88,88,32,22,17,11,1.1,1
2026-01-18T2000,2336A,117.022,25.1031,龙岩市,龙岩市监测站,细颗粒物(PM2.5),68,76,60,49,44,28,,111,103,72,38,50,29,1.5,0.9
2026-01-18T2000,2337A,117.0257,25.0662,龙岩市,闽西职业技术学院,颗粒物(PM10),54,57,62,30,36,75,,114,113,31,27,16,16,0.7,0.7
2026-01-18T2000,2338A,117.0195,25.0306,龙岩市,龙岩学院,细颗粒物(PM2.5),54,55,45,38,34,80,,120,118,18,17,10,10,/,/
2026-01-18T2000,2885A,104.9344,33.3827,陇南市,滨江中学,颗粒物(PM10),87,124,100,51,48,54,,34,34,12,37,4,9,0.8,1.5
2026-01-18T2000,3247A,104.9551,33.3709,陇南市,市总工会,颗粒物(PM10),86,122,86,51,53,53,,51,38,14,29,8,10,0.6,0.9
2026-01-18T2000,2488A,111.9984,27.7346,娄底市,市监测站,细颗粒物(PM2.5),176,195,185,133,102,25,,56,54,29,29,7,9,1.0,1
2026-01-18T2000,2491A,111.9888,27.7035,娄底市,市政府,细颗粒物(PM2.5),195,178,157,146,128,25,,51,51,34,29,6,7,1.0,0.9
2026-01-18T2000,4127A,111.9812,27.7591,娄底市,涟钢职大,细颗粒物(PM2.5),179,166,196,135,141,29,,56,52,21,31,3,8,0.8,0.9
2026-01-18T2000,4128A,112.0303,27.7457,娄底市,娄底体校,细颗粒物(PM2.5),186,167,183,140,135,19,,55,51,24,18,2,2,0.9,0.9
2026-01-18T2000,1894A,105.4427,28.9063,泸州市,小市上码头,细颗粒物(PM2.5),175,153,185,132,156,53,,75,75,31,39,8,8,1.4,1.6
2026-01-18T2000,1895A,105.4241,28.8573,泸州市,兰田宪桥,细颗粒物(PM2.5),214,244,244,164,162,58,,80,80,16,15,8,8,1.5,1.6
2026-01-18T2000,1896A,105.4378,28.8833,泸州市,市环监站,细颗粒物(PM2.5),165,160,197,125,156,63,,83,83,29,30,9,10,1.3,1.4
2026-01-18T2000,4272A,105.3689,28.7783,泸州市,纳溪中医医院,细颗粒物(PM2.5),238,,154,188,157,69,,82,82,18,18,8,8,1.4,1.5
2026-01-18T2000,2183A,111.1447,37.5212,吕梁市,环保局,颗粒物(PM10),76,102,162,27,74,37,,29,29,22,49,8,8,0.4,0.8
2026-01-18T2000,2185A,111.1285,37.5338,吕梁市,自来水公司,颗粒物(PM10),64,77,138,37,69,37,,29,29,22,40,6,10,0.6,0.9
2026-01-18T2000,2867A,111.1225,37.5093,吕梁市,马茂庄小学,颗粒物(PM10),62,73,147,28,67,36,,26,26,23,46,6,10,0.4,0.7
2026-01-18T2000,1812A,112.3934,34.6517,洛阳市,市委党校,细颗粒物(PM2.5),87,66,57,64,58,11,,19,12,37,32,6,7,0.9,0.8
2026-01-18T2000,1815A,112.494,34.6883,洛阳市,河南林校,细颗粒物(PM2.5),79,73,63,58,48,7,,21,14,37,27,6,7,0.8,0.7
2026-01-18T2000,1816A,112.3843,34.623,洛阳市,开发区管委会,细颗粒物(PM2.5),89,73,66,66,52,10,,20,13,36,31,5,5,0.9,0.8
2026-01-18T2000,1817A,112.4263,34.6249,洛阳市,市委新办公区,细颗粒物(PM2.5),79,81,70,58,53,8,,17,12,36,30,7,7,0.7,0.6
2026-01-18T2000,3340A,112.6005,34.6323,洛阳市,伊滨,细颗粒物(PM2.5),94,77,70,70,56,10,,22,15,35,30,6,6,0.8,0.6
2026-01-18T2000,3341A,112.495,34.6338,洛阳市,中移产业园,细颗粒物(PM2.5),84,69,62,62,55,2,,12,6,34,29,8,8,0.8,0.8
2026-01-18T2000,3593A,112.5736,34.8993,洛阳市,吉利监测站,细颗粒物(PM2.5),87,76,65,64,54,14,,24,13,33,25,7,7,0.8,0.8
2026-01-18T2000,3635A,112.3678,34.6623,洛阳市,河科大西苑校区,细颗粒物(PM2.5),72,67,58,52,45,15,,24,13,35,31,6,6,0.9,0.9
2026-01-18T2000,3636A,112.4387,34.678,洛阳市,英才小学,细颗粒物(PM2.5),84,75,65,62,58,8,,18,11,37,32,7,7,0.8,0.7
2026-01-18T2000,4214A,112.460027,34.694929,洛阳市,春都路1号院,,,82,68,48,44,,,21,14,29,24,5,5,0.9,0.9
2026-01-18T2000,2399A,114.051,33.5721,漯河市,三五一五工厂,细颗粒物(PM2.5),64,56,55,46,50,24,,24,24,17,18,6,6,0.8,0.8
2026-01-18T2000,2400A,114.0055,33.5698,漯河市,漯河大学,,,71,58,48,46,,,22,22,14,15,4,4,0.7,0.6
2026-01-18T2000,2401A,114.0134,33.5826,漯河市,市水利局,,,66,57,56,51,,,24,24,22,19,3,3,0.6,0.7
2026-01-18T2000,2402A,114.0261,33.5697,漯河市,市广电局,细颗粒物(PM2.5),70,61,54,51,49,24,,24,24,16,16,5,5,0.7,0.7
2026-01-18T2000,3478A,113.9691,33.568,漯河市,市图书馆,细颗粒物(PM2.5),73,78,69,53,52,20,,21,21,19,20,4,4,0.8,0.8
2026-01-18T2000,4250A,114.089259,33.588274,漯河市,韶山路11号,细颗粒物(PM2.5),67,66,67,48,51,20,,20,20,14,16,5,5,0.8,0.8
2026-01-18T2000,1798A,118.5084,31.6838,马鞍山市,湖东路四小,细颗粒物(PM2.5),85,106,105,63,68,46,,64,62,32,27,3,4,0.7,0.8
2026-01-18T2000,1799A,118.5019,31.6449,马鞍山市,开发区,颗粒物(PM10),83,116,110,51,63,51,,64,63,30,32,4,4,0.7,0.7
2026-01-18T2000,3633A,118.4914,31.681,马鞍山市,雨山,颗粒物(PM10),81,111,116,56,67,44,,69,63,38,30,6,7,0.8,0.8
2026-01-18T2000,4191A,118.527362,31.722269,马鞍山市,慈湖高新区,细颗粒物(PM2.5),89,114,107,66,64,38,,66,62,41,25,4,4,0.7,0.7
2026-01-18T2000,1686A,111.0285,21.469,茂名市,电白南海,,48,48,63,31,35,118,,123,123,14,25,8,14,0.8,0.7
2026-01-18T2000,1687A,110.9294,21.6533,茂名市,茂石化七小,颗粒物(PM10),54,58,65,24,33,92,,106,100,20,27,6,11,0.3,0.4
2026-01-18T2000,1688A,110.9108,21.6688,茂名市,健康路,,46,46,56,29,35,100,,119,112,20,26,8,20,0.8,0.8
2026-01-18T2000,1689A,110.8592,21.6826,茂名市,高岭,颗粒物(PM10),63,75,95,29,41,91,,110,103,24,36,9,26,/,/
2026-01-18T2000,3450A,111.0101,21.5165,茂名市,电白水东,,46,46,54,24,31,107,,113,112,12,17,7,13,/,/
2026-01-18T2000,2540A,103.8414,30.0871,眉山市,气象局,细颗粒物(PM2.5),240,234,177,190,164,69,,108,103,67,44,17,15,1.3,1.1
2026-01-18T2000,3148A,103.829,30.0563,眉山市,区人社局,细颗粒物(PM2.5),208,190,161,158,142,37,,82,81,92,58,14,15,1.2,1.2
2026-01-18T2000,4148A,103.8836,30.0695,眉山市,眉职院,细颗粒物(PM2.5),176,177,162,133,120,43,,94,94,60,38,2,2,1.1,1.1
2026-01-18T2000,1690A,116.1248,24.3307,梅州市,梅江月梅,细颗粒物(PM2.5),206,,70,156,54,86,,136,136,42,37,/,/,/,/
2026-01-18T2000,1691A,116.0798,24.2719,梅州市,梅县新城,细颗粒物(PM2.5),145,135,69,111,51,18,,136,123,92,44,8,9,1.4,0.8
2026-01-18T2000,3315A,116.1234,24.2994,梅州市,梅龙,颗粒物(PM10),76,102,69,53,44,61,,124,120,59,36,18,10,1.3,1
2026-01-18T2000,1878A,104.7775,31.4741,绵阳市,富乐山,细颗粒物(PM2.5),98,92,118,73,96,70,,75,75,13,29,8,8,0.6,0.7
2026-01-18T2000,1880A,104.6698,31.4668,绵阳市,高新区自来水公司,细颗粒物(PM2.5),100,93,140,75,101,56,,66,66,20,45,8,9,0.8,1
2026-01-18T2000,3491A,104.6899,31.5324,绵阳市,西科大附属小学,细颗粒物(PM2.5),114,105,136,86,98,69,,78,78,20,44,8,8,0.5,0.9
2026-01-18T2000,3492A,104.5647,31.5343,绵阳市,安州区旅游局,细颗粒物(PM2.5),107,100,126,80,101,57,,77,77,30,40,11,10,0.8,0.9
2026-01-18T2000,4146A,104.7092,31.4972,绵阳市,科技城新区公安局,细颗粒物(PM2.5),94,94,136,70,97,73,,82,82,19,38,8,8,0.7,1
2026-01-18T2000,4226A,104.765114,31.453094,绵阳市,绵阳市气象局,细颗粒物(PM2.5),97,91,129,72,103,68,,68,68,15,47,1,5,0.6,0.9
2026-01-18T2000,1784A,129.61,44.561,牡丹江市,环保大楼,细颗粒物(PM2.5),63,55,44,45,29,30,,47,40,38,27,4,5,0.7,0.4
2026-01-18T2000,1787A,129.6364,44.6075,牡丹江市,机车工厂,颗粒物(PM10),75,99,66,54,39,17,,48,44,44,35,7,4,0.9,0.7
2026-01-18T2000,1788A,129.6386,44.5462,牡丹江市,第一中学,细颗粒物(PM2.5),74,,31,54,25,24,,48,37,33,25,5,7,0.9,0.6
2026-01-18T2000,4287A,129.5992,44.5964,牡丹江市,东晓云街98号,细颗粒物(PM2.5),129,,51,98,49,21,,46,41,42,28,18,8,1.3,0.8
2026-01-18T2000,2531A,105.0703,29.61,内江市,市监测站,细颗粒物(PM2.5),185,169,131,139,137,55,,85,85,30,23,8,8,1.3,1.1
2026-01-18T2000,2533A,105.0657,29.5807,内江市,内江二中,细颗粒物(PM2.5),155,156,150,118,125,56,,74,74,32,37,5,5,1.2,1.2
2026-01-18T2000,2534A,105.0407,29.5828,内江市,内江日报社,细颗粒物(PM2.5),143,,123,109,125,55,,78,78,40,32,3,3,1.0,1
2026-01-18T2000,4147A,105.0433,29.6105,内江市,玉峰路西段888号,细颗粒物(PM2.5),159,125,129,121,133,54,,82,82,37,31,3,3,1.2,1.1
2026-01-18T2000,2628A,92.0653,31.4846,那曲市,那曲监测站,,27,27,71,16,39,62,,75,75,27,30,11,12,1.0,1.5
2026-01-18T2000,4243A,92.0515,31.4787,那曲市,那曲市委宣传部,,25,12,45,3,22,78,,83,83,1,21,4,7,0.4,1.1
2026-01-18T2000,1291A,115.8887,28.7006,南昌市,省林业公司,细颗粒物(PM2.5),144,146,170,110,150,52,,98,96,65,37,7,7,0.7,1
2026-01-18T2000,1292A,115.813,28.7443,南昌市,林科所,细颗粒物(PM2.5),144,134,168,110,130,74,,115,114,50,43,15,11,0.9,1
2026-01-18T2000,1294A,115.8518,28.687,南昌市,建工学校,细颗粒物(PM2.5),150,167,216,115,154,89,,110,110,41,43,16,15,1.4,1.6
2026-01-18T2000,1295A,115.8926,28.6425,南昌市,象湖,细颗粒物(PM2.5),149,143,167,114,147,90,,113,113,31,33,10,11,1.0,1.2
2026-01-18T2000,3046A,115.9084,28.6062,南昌市,机电学校,细颗粒物(PM2.5),168,164,201,127,159,88,,116,116,35,33,6,8,1.0,1.1
2026-01-18T2000,3690A,115.9718,28.7032,南昌市,外国语学校,细颗粒物(PM2.5),159,129,188,121,154,89,,109,109,30,35,14,14,0.9,1.1
2026-01-18T2000,4106A,115.7923,28.6873,南昌市,工业二路,细颗粒物(PM2.5),168,159,189,127,163,70,,112,111,47,32,7,6,0.8,0.9
2026-01-18T2000,4192A,115.931587,28.686774,南昌市,南京东路235号,细颗粒物(PM2.5),133,158,193,101,156,80,,110,110,37,34,7,8,1.3,1.7
2026-01-18T2000,1906A,106.0791,30.8022,南充市,南充市委,细颗粒物(PM2.5),166,141,141,126,127,20,,27,27,43,41,4,4,1.2,1.1
2026-01-18T2000,1907A,106.1038,30.8215,南充市,南充炼油厂,细颗粒物(PM2.5),170,138,140,129,127,28,,34,34,26,26,6,6,1.3,1.2
2026-01-18T2000,4227A,106.108336,30.788436,南充市,梨树横街98号,细颗粒物(PM2.5),149,154,154,114,116,28,,35,35,37,37,6,6,1.0,1
2026-01-18T2000,4304A,106.1172,30.843,南充市,清泉寺北路188号,细颗粒物(PM2.5),162,128,122,123,118,34,,49,41,25,21,7,6,0.9,0.8
2026-01-18T2000,4305A,106.067,30.7616,南充市,同庆路1号,细颗粒物(PM2.5),156,131,135,119,122,22,,28,28,38,43,7,7,1.3,1.3
2026-01-18T2000,1151A,118.8033,32.1085,南京市,迈皋桥,颗粒物(PM10),56,61,81,34,43,50,,62,55,30,18,4,4,0.7,0.6
2026-01-18T2000,1152A,118.7487,32.057,南京市,草场门,"颗粒物(PM10),细颗粒物(PM2.5)",62,73,86,44,42,27,,41,36,43,31,6,6,0.5,0.7
2026-01-18T2000,1154A,118.770105,32.004342,南京市,中华门,颗粒物(PM10),64,78,86,44,43,28,,55,48,37,23,6,4,0.8,0.7
2026-01-18T2000,1155A,118.8059,32.0329,南京市,瑞金路,细颗粒物(PM2.5),67,80,92,48,46,30,,53,48,39,20,4,4,0.9,0.9
2026-01-18T2000,1156A,118.7946,32.0774,南京市,玄武湖,颗粒物(PM10),64,78,85,37,44,39,,54,48,25,23,4,4,0.8,0.9
2026-01-18T2000,1157A,118.6415,32.0964,南京市,浦口,细颗粒物(PM2.5),83,106,104,61,54,35,,44,42,35,34,12,8,1.2,1.2
2026-01-18T2000,1158A,118.730129,32.000956,南京市,奥体中心,细颗粒物(PM2.5),73,91,95,53,51,38,,64,57,43,26,8,7,0.7,0.7
2026-01-18T2000,1159A,118.9072,32.1047,南京市,仙林大学城,颗粒物(PM10),57,63,87,29,44,44,,59,48,33,26,7,7,0.7,0.9
2026-01-18T2000,3422A,118.8443,31.919,南京市,江宁彩虹桥,颗粒物(PM10),66,81,84,46,44,27,,71,62,62,26,5,4,0.7,0.7
2026-01-18T2000,3427A,118.8497,32.3599,南京市,六合雄州,,46,46,71,22,38,56,,55,55,18,21,4,3,0.5,0.6
2026-01-18T2000,4086A,118.7641,32.0841,南京市,新模范马路66号,颗粒物(PM10),58,66,94,31,42,57,,77,67,26,13,4,4,0.8,1.1
2026-01-18T2000,4249A,118.8707617,31.34017673,南京市,汶溪路181号,细颗粒物(PM2.5),72,83,100,52,65,58,,68,68,31,32,7,7,0.8,0.9
2026-01-18T2000,4312A,119.019,31.6512,南京市,中山西路1号,细颗粒物(PM2.5),78,73,84,57,53,40,,67,65,34,25,4,4,0.8,0.8
2026-01-18T2000,1401A,108.3098,22.788,南宁市,二十一中,细颗粒物(PM2.5),57,,76,40,55,141,,122,122,18,27,6,5,0.6,0.9
2026-01-18T2000,1402A,108.3135,22.8529,南宁市,北湖,细颗粒物(PM2.5),53,48,99,37,71,140,,115,115,26,48,4,6,0.6,1
2026-01-18T2000,1403A,108.3205,22.8222,南宁市,市监测站,细颗粒物(PM2.5),53,50,77,37,66,146,,120,120,21,34,8,9,0.6,1
2026-01-18T2000,1404A,108.3828,22.8038,南宁市,大自然花园,颗粒物(PM10),51,52,81,35,59,159,,131,131,20,27,8,7,0.7,1
2026-01-18T2000,1406A,108.2397,22.8462,南宁市,区农职院,细颗粒物(PM2.5),52,51,84,36,58,131,,117,117,26,37,12,10,0.7,1
2026-01-18T2000,1407A,108.3285,22.7356,南宁市,英华嘉园,细颗粒物(PM2.5),57,60,80,40,57,128,,121,121,32,37,6,6,0.7,1
2026-01-18T2000,3401A,108.4829,22.762,南宁市,红星社区,颗粒物(PM10),59,67,85,30,63,161,,131,131,14,32,7,5,0.5,0.9
2026-01-18T2000,4132A,108.2927,23.1477,南宁市,起凤路9号,,49,49,86,31,73,109,,108,108,23,25,3,3,0.6,0.8
2026-01-18T2000,4221A,108.2177,22.7774,南宁市,乐贤路16号,颗粒物(PM10),57,64,82,34,56,107,,109,109,34,39,5,5,0.6,0.9
2026-01-18T2000,2332A,118.1682,26.6371,南平市,南平市监测站,细颗粒物(PM2.5),52,49,54,36,39,70,,116,111,29,28,4,5,0.7,0.8
2026-01-18T2000,2334A,118.1757,26.6276,南平市,南平七中,,46,43,49,32,38,77,,106,101,24,28,4,4,0.7,0.8
2026-01-18T2000,1168A,120.9056,31.9669,南通市,狼山街道,,31,31,39,14,19,72,,77,77,12,13,3,3,0.2,0.3
2026-01-18T2000,1170A,120.8635,32.0231,南通市,城中,,26,26,44,11,18,73,,74,74,14,18,6,5,0.5,0.6
2026-01-18T2000,1171A,120.9376,31.9301,南通市,星湖花园,,30,30,40,13,19,80,,85,84,19,18,5,4,0.3,0.3
2026-01-18T2000,1172A,120.8053,32.046,南通市,紫琅学院,,26,26,49,9,17,77,,77,76,14,18,3,3,0.3,0.4
2026-01-18T2000,3291A,121.0631,32.0644,南通市,通州监测站,,26,24,31,9,14,83,,85,85,15,15,3,3,0.6,0.7
2026-01-18T2000,3432A,120.9348,31.9874,南通市,环境教育馆,,29,29,40,12,17,76,,80,80,13,16,4,4,0.3,0.4
2026-01-18T2000,4091A,120.8692,31.9885,南通市,洪江路,,28,28,36,13,17,73,,75,74,14,14,3,3,0.3,0.4
2026-01-18T2000,2404A,112.5338,33.0086,南阳市,瓦房庄,细颗粒物(PM2.5),88,69,67,65,64,22,,20,20,21,20,5,5,0.8,0.8
2026-01-18T2000,2405A,112.5002,32.9734,南阳市,汉画馆,细颗粒物(PM2.5),77,74,75,56,59,23,,21,21,21,23,5,5,0.9,0.9
2026-01-18T2000,2406A,112.5778,33.0144,南阳市,气象站,细颗粒物(PM2.5),77,78,78,56,48,22,,21,21,23,23,4,4,0.6,0.7
2026-01-18T2000,2407A,112.548,32.9687,南阳市,理工学院,细颗粒物(PM2.5),69,68,69,50,51,24,,20,20,25,26,4,4,0.8,0.8
2026-01-18T2000,4008A,112.5233,32.9921,南阳市,卧龙区政府,细颗粒物(PM2.5),77,78,83,56,59,22,,21,21,28,28,4,4,0.7,0.7
2026-01-18T2000,1234A,121.8352,29.9111,宁波市,区环保大楼,颗粒物(PM10),70,90,92,38,37,1,,43,21,116,65,6,7,1.0,0.8
2026-01-18T2000,1235A,121.5595,29.8208,宁波市,万里学院,颗粒物(PM10),63,75,89,37,50,15,,56,44,79,42,4,5,0.7,0.7
2026-01-18T2000,1236A,121.713,29.9564,宁波市,龙赛医院,颗粒物(PM10),61,71,73,25,34,0,,49,34,104,44,9,4,0.6,0.7
2026-01-18T2000,1240A,121.5855,29.8635,宁波市,太古小学,颗粒物(PM10),61,72,92,22,40,43,,54,50,41,35,4,5,0.5,0.7
2026-01-18T2000,1241A,121.5239,29.8673,宁波市,市环境监测中心,颗粒物(PM10),61,71,81,31,41,15,,53,41,73,39,7,10,0.8,0.8
2026-01-18T2000,2871A,121.6156,29.9015,宁波市,万里国际学校,颗粒物(PM10),57,64,88,23,38,24,,50,42,79,51,4,5,0.5,0.7
2026-01-18T2000,3710A,121.5593,29.8976,宁波市,白沙活动中心,颗粒物(PM10),66,82,85,25,34,5,,59,43,91,41,4,8,0.4,0.4
2026-01-18T2000,4095A,121.8962,29.7529,宁波市,中科路88号,颗粒物(PM10),65,80,79,29,34,9,,72,54,72,36,6,6,0.6,0.4
2026-01-18T2000,2341A,119.5387,26.6611,宁德市,宁德市监测站,,28,18,35,11,27,89,,108,108,16,20,3,4,0.4,0.5
2026-01-18T2000,3209A,119.5231,26.6562,宁德市,宁德一中,,29,23,34,13,28,90,,107,107,12,16,6,7,0.2,0.4
2026-01-18T2000,2618A,98.859,25.8541,怒江傈僳族自治州,州监测站,,43,42,35,30,25,61,,76,76,16,12,6,5,0.6,0.4
2026-01-18T2000,2619A,98.8607,25.8168,怒江傈僳族自治州,泸水一中,,,122,36,25,23,,,72,72,44,17,6,6,0.9,0.5
2026-01-18T2000,1888A,101.6891,26.571,攀枝花市,弄弄坪,细颗粒物(PM2.5),94,101,79,70,59,71,,102,102,52,30,36,24,3.9,1.6
2026-01-18T2000,1889A,101.577,26.5914,攀枝花市,河门口,细颗粒物(PM2.5),73,77,85,53,60,95,,102,102,24,28,26,26,1.4,1.5
2026-01-18T2000,1891A,101.7365,26.4986,攀枝花市,仁和,细颗粒物(PM2.5),84,103,80,62,56,66,,101,101,34,28,16,18,1.3,1.3
2026-01-18T2000,2835A,101.7222,26.567,攀枝花市,四十中小,细颗粒物(PM2.5),99,109,100,74,67,38,,85,85,65,45,22,21,2.2,1.8
2026-01-18T2000,1604A,122.0303,41.1489,盘锦市,开发区,,34,34,38,19,26,51,,56,55,9,13,2,4,0.5,0.6
2026-01-18T2000,1605A,122.0486,41.0883,盘锦市,兴隆台,,,85,40,15,24,,,55,55,12,24,6,8,0.6,0.6
2026-01-18T2000,1606A,121.8297,41.1026,盘锦市,新生街道,,39,39,33,16,20,41,,62,56,16,17,5,7,0.4,0.5
2026-01-18T2000,1832A,113.3257,33.7423,平顶山市,新华旅馆,细颗粒物(PM2.5),74,81,81,54,50,31,,26,26,21,25,4,4,0.6,0.6
2026-01-18T2000,1833A,113.2917,33.737,平顶山市,规划设计院,细颗粒物(PM2.5),74,76,61,54,48,31,,29,29,18,20,5,4,0.7,0.7
2026-01-18T2000,1834A,113.182,33.7738,平顶山市,平顶山工学院,细颗粒物(PM2.5),79,76,57,58,46,28,,26,26,20,24,6,6,0.6,0.5
2026-01-18T2000,3594A,112.8736,33.9068,平顶山市,石龙区,细颗粒物(PM2.5),83,80,57,61,49,26,,22,22,15,19,4,4,0.6,0.6
2026-01-18T2000,4116A,113.284,33.7139,平顶山市,姚电大道23号,细颗粒物(PM2.5),80,72,72,59,52,32,,28,28,22,26,6,6,0.8,0.8
2026-01-18T2000,2656A,106.6633,35.5338,平凉市,聚贤嘉苑,,,77,129,20,34,,,66,64,10,12,18,15,0.5,0.5
2026-01-18T2000,2657A,106.7021,35.5307,平凉市,博物馆,颗粒物(PM10),66,82,128,26,38,61,,70,67,11,12,11,11,0.5,0.5
2026-01-18T2000,2348A,113.8384,27.6436,萍乡市,中医院,细颗粒物(PM2.5),132,139,126,100,91,93,,120,120,42,32,11,10,1.4,1.2
2026-01-18T2000,2350A,113.8677,27.6438,萍乡市,市环保局,细颗粒物(PM2.5),92,102,94,68,74,111,,125,125,29,32,22,19,1.2,1.2
2026-01-18T2000,2351A,113.8663,27.6202,萍乡市,安源区政府,细颗粒物(PM2.5),185,,118,139,118,53,,97,96,49,34,13,16,1.6,1.5
2026-01-18T2000,4107A,113.8686,27.6668,萍乡市,联洪村委会,细颗粒物(PM2.5),133,131,120,101,92,98,,114,114,26,24,10,8,1.0,1
2026-01-18T2000,2319A,119.0142,25.4324,莆田市,荔城区仓后路,颗粒物(PM10),53,55,42,20,24,80,,106,100,22,19,/,/,/,/
2026-01-18T2000,2320A,119.0016,25.4553,莆田市,莆田市监测站,,38,30,34,26,22,68,,111,103,15,11,2,3,0.7,0.6
2026-01-18T2000,2321A,119.112,25.4561,莆田市,涵江区六中,,28,28,35,16,20,89,,105,101,16,20,/,/,0.3,0.4
2026-01-18T2000,2322A,119.1014,25.3215,莆田市,秀屿区政府,,37,37,36,23,18,95,,108,107,14,11,6,3,1.1,0.7
2026-01-18T2000,2392A,115.0312,35.7636,濮阳市,环保局,细颗粒物(PM2.5),60,43,58,43,41,20,,27,23,24,24,4,5,0.7,0.6
2026-01-18T2000,3021A,115,35.7667,濮阳市,濮水河管理处,"颗粒物(PM10),细颗粒物(PM2.5)",53,55,66,37,40,22,,30,26,25,25,5,4,0.8,0.8
2026-01-18T2000,4118A,115.0552,35.7816,濮阳市,中原东路68号,细颗粒物(PM2.5),58,63,70,41,41,20,,28,23,28,27,4,4,0.3,0.3
2026-01-18T2000,4216A,115.0923632,35.76857718,濮阳市,任丘路479号,细颗粒物(PM2.5),60,60,71,43,45,18,,25,20,27,27,4,4,0.6,0.6
2026-01-18T2000,2601A,100.9801,22.7634,普洱市,市环保局,细颗粒物(PM2.5),82,,49,60,21,46,,78,75,16,11,5,5,0.4,0.4
2026-01-18T2000,2602A,100.9763,22.8237,普洱市,普洱第二中学,,48,48,41,26,22,50,,80,77,19,20,6,5,0.4,0.3
2026-01-18T2000,3345A,131.0413,45.7795,七台河市,中波台,,43,36,44,30,32,29,,62,58,38,23,8,9,0.6,0.5
2026-01-18T2000,3637A,131.0136,45.7688,七台河市,人民广场,细颗粒物(PM2.5),73,69,44,53,36,20,,59,50,52,28,7,8,0.7,0.6
2026-01-18T2000,3684A,130.8639,45.8144,七台河市,新建矿广场,细颗粒物(PM2.5),53,44,43,37,32,29,,53,45,30,19,3,4,0.4,0.3
2026-01-18T2000,1779A,123.9307,47.3641,齐齐哈尔市,安居小区,,22,22,23,9,17,47,,56,53,16,12,3,3,0.5,0.5
2026-01-18T2000,1780A,123.9497,47.3389,齐齐哈尔市,中心广场,,17,17,19,7,11,48,,52,51,14,12,5,6,0.8,0.7
2026-01-18T2000,1781A,123.9483,47.3229,齐齐哈尔市,农牧车辆厂,,22,22,22,8,12,48,,53,51,11,9,5,6,0.3,0.3
2026-01-18T2000,1783A,123.9442,47.2994,齐齐哈尔市,市环境监测站,颗粒物(PM10),52,54,24,34,14,26,,55,47,35,11,5,6,0.9,0.7
2026-01-18T2000,3662A,123.6341,47.2079,齐齐哈尔市,富区青少年活动中心,颗粒物(PM10),68,86,32,34,17,25,,58,51,40,14,6,7,1.1,0.6
2026-01-18T2000,2591A,107.9765,26.5724,黔东南苗族侗族自治州,市环境监测站,,38,31,61,26,54,85,,83,83,6,23,4,5,0.3,0.6
2026-01-18T2000,2881A,107.8909,26.531,黔东南苗族侗族自治州,凯里学院,,39,39,60,26,47,88,,88,88,9,15,1,2,0.3,0.4
2026-01-18T2000,2593A,107.5223,26.2371,黔南布依族苗族自治州,小围寨,,49,36,49,34,42,75,,76,76,5,6,6,6,0.8,0.8
2026-01-18T2000,3538A,107.5175,26.2977,黔南布依族苗族自治州,沙坝,,45,36,52,31,43,74,,78,78,8,11,4,5,0.8,0.9
2026-01-18T2000,2589A,104.9022,25.0943,黔西南布依族苗族自治州,场坝街,细颗粒物(PM2.5),59,53,52,42,39,77,,74,74,7,10,4,4,0.6,0.6
2026-01-18T2000,2590A,104.8812,25.0994,黔西南布依族苗族自治州,坪东大道,细颗粒物(PM2.5),60,51,54,43,46,32,,70,64,31,19,6,6,1.1,0.8
2026-01-18T2000,2502A,108.6238,21.9667,钦州市,市环保站,颗粒物(PM10),56,61,94,34,58,134,,143,143,19,31,4,6,0.5,0.7
2026-01-18T2000,2503A,108.655,21.9481,钦州市,沙埠小学,颗粒物(PM10),66,81,87,29,50,105,,148,148,40,37,7,8,0.5,0.6
2026-01-18T2000,2504A,108.5989,21.7435,钦州市,港区一小,颗粒物(PM10),68,86,83,36,43,104,,128,128,46,34,6,9,0.7,0.8
2026-01-18T2000,3404A,108.5959,21.9634,钦州市,北职校,细颗粒物(PM2.5),60,62,70,43,56,116,,142,142,29,30,8,9,0.8,0.9
2026-01-18T2000,1046A,119.5247,39.9346,秦皇岛市,建设大厦,细颗粒物(PM2.5),55,58,38,39,33,34,,56,52,23,13,10,10,0.7,0.4
2026-01-18T2000,3132A,119.5979,39.938,秦皇岛市,文明里,颗粒物(PM10),51,52,45,21,24,36,,60,55,30,17,12,15,0.5,0.4
2026-01-18T2000,4066A,119.7458,39.9952,秦皇岛市,南园路157号,,49,49,50,26,24,39,,61,55,25,19,8,12,0.5,0.4
2026-01-18T2000,4067A,119.5131,39.8858,秦皇岛市,翠岛大街1号,颗粒物(PM10),56,61,48,24,19,38,,53,50,19,12,12,13,0.6,0.4
2026-01-18T2000,4198A,119.509013,39.825305,秦皇岛市,北戴河轮滑馆,颗粒物(PM10),52,54,43,30,27,44,,64,61,21,13,9,10,0.5,0.3
2026-01-18T2000,1310A,120.404,36.0625,青岛市,市南区东部子站,,25,24,22,17,14,47,,70,40,20,19,7,8,0.6,0.5
2026-01-18T2000,1311A,120.362344,36.10282,青岛市,四方区子站,,32,22,30,22,16,46,,59,42,4,11,3,2,0.7,0.6
2026-01-18T2000,1312A,120.294373,36.054183,青岛市,市南区西部子站,,35,27,24,24,13,42,,70,46,25,19,6,7,1.0,0.8
2026-01-18T2000,1313A,120.4581,36.0858,青岛市,崂山区子站,,25,,18,17,10,54,,69,51,16,17,8,9,0.2,0.2
2026-01-18T2000,1315A,120.3945,36.3083,青岛市,城阳区子站,,36,36,24,22,14,54,,69,59,21,15,6,6,0.9,0.7
2026-01-18T2000,3642A,120.3454,36.0735,青岛市,市北区南部,,35,30,38,24,13,42,,65,36,19,20,3,3,0.7,0.7
2026-01-18T2000,3643A,120.3897,36.18,青岛市,李沧区北部,,39,,23,27,19,48,,54,54,15,18,7,8,0.7,0.7
2026-01-18T2000,4110A,120.5222,36.4089,青岛市,盟旺路653号,,33,27,25,23,13,49,,63,54,24,19,2,2,0.6,0.4
2026-01-18T2000,4290A,120.196923,35.954556,青岛市,珠江路669号,,46,,17,32,16,31,,75,29,35,21,9,9,0.6,0.5
2026-01-18T2000,4291A,120.0424,35.8656,青岛市,黄岛区人民政府广场,,32,27,24,22,10,45,,78,44,25,17,6,6,0.8,0.6
2026-01-18T2000,1703A,113.0218,23.7086,清远市,凤城街办,细颗粒物(PM2.5),97,126,105,72,76,114,,196,196,95,49,/,/,/,/
2026-01-18T2000,3025A,113.0479,23.6343,清远市,技师学院,细颗粒物(PM2.5),117,148,129,88,73,138,,198,198,88,77,8,16,0.7,0.7
2026-01-18T2000,3318A,112.9898,23.7403,清远市,清新太和,臭氧1小时(O3_1h),121,92,108,54,71,242,,240,240,37,45,2,3,0.7,0.8
2026-01-18T2000,3455A,113.076,23.72,清远市,清城东城,颗粒物(PM10),74,98,94,53,61,125,,204,202,72,41,/,/,/,/
2026-01-18T2000,2661A,107.6325,35.7357,庆阳市,庆阳五中,颗粒物(PM10),52,53,111,28,39,67,,64,64,11,16,5,6,0.3,0.5
2026-01-18T2000,2662A,107.6361,35.7067,庆阳市,市环保局,颗粒物(PM10),52,53,110,15,32,71,,67,67,10,14,6,8,0.4,0.5
2026-01-18T2000,1916A,103.7897,25.5036,曲靖市,环境监测站,,39,39,33,18,16,82,,98,98,19,16,6,4,0.6,0.6
2026-01-18T2000,1917A,103.8013,25.5357,曲靖市,烟厂办公区,,31,31,38,15,19,92,,98,98,12,19,4,4,0.2,0.3
2026-01-18T2000,3376A,103.7926,25.4651,曲靖市,南苑二区,,29,21,27,8,16,90,,101,101,9,9,6,4,0.3,0.4
2026-01-18T2000,3377A,103.7442,25.5259,曲靖市,曲靖师范学院,,35,35,33,9,23,91,,98,98,10,17,4,4,0.0,0.2
2026-01-18T2000,1264A,118.8694,28.94,衢州市,环保大楼,细颗粒物(PM2.5),127,144,122,96,91,47,,118,112,84,34,/,/,/,/
2026-01-18T2000,1266A,118.8622,28.9809,衢州市,衢州学院,细颗粒物(PM2.5),107,121,114,80,84,72,,113,113,47,31,5,4,0.7,0.7
2026-01-18T2000,4097A,118.9646,28.9832,衢州市,衢州三中,细颗粒物(PM2.5),129,141,121,98,89,36,,112,106,94,40,6,5,0.9,0.9
2026-01-18T2000,1611A,118.5818,24.9116,泉州市,涂山街,,50,50,43,32,30,78,,118,113,25,21,5,4,0.7,0.6
2026-01-18T2000,1612A,118.597,24.8976,泉州市,津头埔,,50,50,41,32,29,74,,117,112,29,22,6,5,0.6,0.5
2026-01-18T2000,1613A,118.6669,24.9422,泉州市,万安,,,54,40,,28,75,,107,102,20,20,4,4,0.6,0.6
2026-01-18T2000,4105A,118.6355,24.9148,泉州市,霞新路6号,,43,42,38,30,27,74,,118,111,28,22,/,/,0.5,0.5
2026-01-18T2000,2626A,88.8873,29.2723,日喀则市,日喀则监测站,,29,29,69,9,41,90,,96,96,8,19,13,21,0.4,0.7
2026-01-18T2000,3726A,88.8775,29.2425,日喀则市,林业技术推广中心,颗粒物(PM10),84,117,64,3,40,94,,92,92,3,14,9,17,0.2,0.5
2026-01-18T2000,1659A,119.4711,35.421,日照市,监测站,,45,34,31,31,21,41,,64,40,22,18,6,6,0.6,0.5
2026-01-18T2000,1660A,119.523,35.4216,日照市,市政府广场,,39,29,30,27,17,45,,76,44,24,18,8,8,0.4,0.3
2026-01-18T2000,1661A,119.5511,35.4113,日照市,港务局,,50,,32,35,23,44,,76,43,25,19,5,6,0.6,0.4
2026-01-18T2000,3507A,119.5326,35.4627,日照市,职业技术学院,颗粒物(PM10),59,68,30,27,15,46,,73,45,22,18,5,6,0.7,0.6
2026-01-18T2000,3604A,119.3267,35.1043,日照市,岚山环保分局,细颗粒物(PM2.5),64,53,37,46,23,29,,75,34,34,22,21,11,2.7,1.1
2026-01-18T2000,1835A,111.1922,34.7752,三门峡市,市政府,细颗粒物(PM2.5),84,68,64,62,61,0,,21,13,44,27,10,7,0.9,0.7
2026-01-18T2000,1836A,111.1588,34.794,三门峡市,开发区,细颗粒物(PM2.5),73,69,83,53,56,7,,23,14,36,27,5,4,0.8,0.8
2026-01-18T2000,3039A,111.1911,34.7829,三门峡市,三门峡市第一小学,细颗粒物(PM2.5),84,77,69,62,57,2,,22,13,43,27,9,8,0.8,0.7
2026-01-18T2000,3598A,111.1031,34.719,三门峡市,富达温泉假日酒店,,,98,80,69,61,,,17,13,,30,14,6,1.0,0.7
2026-01-18T2000,2324A,117.621,26.2626,三明市,三钢,细颗粒物(PM2.5),74,65,52,54,41,49,,108,104,51,33,5,7,1.0,0.9
2026-01-18T2000,2325A,117.6352,26.2714,三明市,三明二中,细颗粒物(PM2.5),60,48,49,43,38,78,,108,108,24,26,2,2,0.8,0.8
2026-01-18T2000,2326A,117.6028,26.2377,三明市,三元区政府,颗粒物(PM10),68,85,59,42,44,38,,93,89,57,37,6,10,1.5,1.4
2026-01-18T2000,1877A,109.4962,18.2682,三亚市,河西子站,,35,35,49,15,25,88,,125,116,21,24,3,2,0.4,0.4
2026-01-18T2000,3540A,109.7348,18.3443,三亚市,君悦子站,,31,15,42,13,21,98,,116,109,6,17,4,4,0.3,0.5
2026-01-18T2000,4135A,109.1714,18.3739,三亚市,城东小学站,,44,44,35,25,24,108,,124,124,16,11,/,/,/,/
2026-01-18T2000,2624A,91.7592,29.234,山南市,山南监测站,,20,20,25,7,17,64,,85,85,30,14,7,6,0.6,0.5
2026-01-18T2000,2625A,91.7701,29.2436,山南市,山南人民医院,,25,25,24,14,14,60,,78,78,32,16,10,9,0.6,0.5
2026-01-18T2000,1674A,116.6795,23.3666,汕头市,金平子站,,46,39,46,32,34,120,,134,134,15,18,4,6,0.7,0.7
2026-01-18T2000,1675A,116.7248,23.3632,汕头市,龙湖子站,,46,46,48,27,27,115,,129,129,15,15,9,11,/,/
2026-01-18T2000,1676A,116.7257,23.2774,汕头市,濠江子站,,40,29,42,28,28,113,,127,127,16,15,7,8,/,/
2026-01-18T2000,1677A,116.7518,23.4712,汕头市,澄海子站,颗粒物(PM10),53,56,68,31,42,112,,132,132,16,23,6,9,0.5,0.6
2026-01-18T2000,1678A,116.6088,23.2539,汕头市,潮阳子站,,47,47,44,24,26,118,,137,137,9,13,6,7,0.6,0.6
2026-01-18T2000,3444A,116.4539,23.2684,汕头市,潮南峡山,颗粒物(PM10),51,51,63,32,43,116,,141,139,15,22,10,10,0.6,0.6
2026-01-18T2000,3624A,116.4069,23.2533,汕头市,潮南子站,颗粒物(PM10),61,71,75,39,44,110,,132,131,17,23,6,9,/,/
2026-01-18T2000,1693A,115.3653,22.7751,汕尾市,市环保局,,48,,48,33,36,127,,131,131,12,17,7,8,0.7,0.7
2026-01-18T2000,1695A,115.362,22.7926,汕尾市,新城中学,细颗粒物(PM2.5),53,38,50,37,35,121,,138,137,15,17,5,6,0.5,0.5
2026-01-18T2000,2645A,109.9155,33.8714,商洛市,监测站,细颗粒物(PM2.5),114,130,151,86,99,32,,55,42,24,29,4,8,0.7,0.8
2026-01-18T2000,3045A,109.9647,33.8486,商洛市,商州区中学,细颗粒物(PM2.5),119,110,131,90,99,25,,47,36,28,31,4,7,1.0,1
2026-01-18T2000,2408A,115.6701,34.4283,商丘市,环境监测站,,50,,51,35,38,13,,28,15,26,21,1,1,0.6,0.6
2026-01-18T2000,2409A,115.6458,34.4047,商丘市,粮食局,,46,,48,32,36,12,,26,13,21,17,1,1,0.7,0.7
2026-01-18T2000,3171A,115.6069,34.4465,商丘市,梁园区档案局,,43,,43,30,34,13,,25,13,22,20,3,3,0.5,0.5
2026-01-18T2000,4119A,115.6701,34.3767,商丘市,北海东路185号,,45,36,60,31,37,11,,26,12,24,19,1,1,0.6,0.6
2026-01-18T2000,4120A,115.6172,34.3704,商丘市,中山大街3号,细颗粒物(PM2.5),52,41,62,36,42,16,,30,17,22,20,3,3,0.5,0.5
2026-01-18T2000,1141A,121.401,31.2382,上海市,普陀,颗粒物(PM10),54,57,46,30,25,37,,62,56,64,36,6,5,0.7,0.6
2026-01-18T2000,1142A,121.4774,31.2043,上海市,十五厂,颗粒物(PM10),59,68,50,24,22,58,,65,63,40,31,6,6,0.6,0.5
2026-01-18T2000,1143A,121.4673,31.3011,上海市,虹口,颗粒物(PM10),56,61,50,24,22,23,,50,45,68,40,8,7,0.6,0.5
2026-01-18T2000,1147A,121.4253,31.226,上海市,静安监测站,颗粒物(PM10),55,60,47,30,24,55,,62,62,46,35,6,6,0.7,0.6
2026-01-18T2000,1148A,121.7029,31.1905,上海市,浦东川沙,,45,45,39,13,15,51,,62,60,31,28,6,6,0.3,0.3
2026-01-18T2000,1149A,121.5339,31.229,上海市,浦东新区监测站,颗粒物(PM10),53,56,42,24,23,53,,64,62,39,31,6,6,0.5,0.5
2026-01-18T2000,1150A,121.5776,31.2038,上海市,浦东张江,,50,50,43,17,20,64,,71,70,38,32,6,6,0.2,0.2
2026-01-18T2000,3265A,121.4242,31.3303,上海市,宝山庙行,颗粒物(PM10),54,58,45,24,21,36,,52,45,50,40,7,7,0.3,0.3
2026-01-18T2000,3266A,121.8789,31.4662,上海市,崇明上实东滩,,27,27,29,11,11,78,,84,83,14,13,4,4,0.5,0.2
2026-01-18T2000,3268A,121.316,31.2839,上海市,嘉定南翔,颗粒物(PM10),53,56,44,23,24,13,,57,49,85,39,4,4,0.4,0.4
2026-01-18T2000,3269A,121.3357,30.7455,上海市,金山新城,颗粒物(PM10),54,57,49,24,31,63,,74,73,29,27,7,7,0.6,0.6
2026-01-18T2000,3270A,121.4996,31.0741,上海市,闵行浦江,颗粒物(PM10),54,57,47,25,21,56,,69,66,35,25,6,6,0.4,0.4
2026-01-18T2000,3271A,121.2886,31.1663,上海市,青浦徐泾,颗粒物(PM10),57,64,51,24,26,53,,64,62,45,44,4,4,0.5,0.5
2026-01-18T2000,3272A,121.2193,31.0382,上海市,松江图书馆,颗粒物(PM10),57,63,57,27,28,60,,62,62,37,35,6,6,0.5,0.5
2026-01-18T2000,3273A,121.3904,31.206,上海市,长宁仙霞,颗粒物(PM10),58,65,44,23,20,57,,64,63,32,25,6,6,0.3,0.3
2026-01-18T2000,3274A,121.7964,31.0507,上海市,浦东惠南,,39,39,42,18,22,53,,81,78,30,29,3,3,0.5,0.4
2026-01-18T2000,3544A,121.4891,30.925,上海市,奉贤南桥新城,颗粒物(PM10),58,66,51,24,23,69,,78,78,28,28,2,2,0.4,0.4
2026-01-18T2000,4183A,121.417401,31.16637,上海市,冠生园路458号,颗粒物(PM10),53,56,44,26,25,59,,62,62,41,38,5,5,0.5,0.5
2026-01-18T2000,4205A,121.541914,31.268301,上海市,宁武路151号,颗粒物(PM10),56,61,47,23,20,23,,52,45,70,44,5,5,0.6,0.6
