timepoint,stationcode,longitude,latitude,area,positionname,primarypollutant,aqi,pm10,pm10_24h,pm2_5,pm2_5_24h,o3,o3_24h,o3_8h,o3_8h_24h,no2,no2_24h,so2,so2_24h,co,co_24h
2024-09-12T1600,2566A,102.1879,31.914,阿坝藏族羌族自治州,州农科所,,30,8,18,3,6,95,,84,84,15,12,9,7,0,0
2024-09-12T1600,2568A,102.2502,31.8896,阿坝藏族羌族自治州,马师校,,30,15,13,7,10,93,,86,86,6,9,4,4,0.3,0.3
2024-09-12T1600,3994A,102.2165,31.9024,阿坝藏族羌族自治州,马尔康中学西区,,32,,15,11,18,100,,92,92,5,7,6,6,0.3,0.4
2024-09-12T1600,2695A,80.292,41.1694,阿克苏地区,电视台,,46,44,60,19,28,145,,90,90,9,15,2,3,0.4,0.4
2024-09-12T1600,2696A,80.2613,41.1551,阿克苏地区,艺术中心,,47,47,60,19,26,135,,83,83,4,16,4,4,0.6,0.8
2024-09-12T1600,2204A,105.6467,38.8363,阿拉善盟,西城区西花园,,29,,15,20,19,68,,124,87,16,11,9,8,1.0,0.9
2024-09-12T1600,2205A,105.6985,38.8411,阿拉善盟,蒙二幼,,19,12,19,7,11,60,,103,69,9,8,10,10,0.7,0.7
2024-09-12T1600,2206A,105.724,38.8516,阿拉善盟,环保局新楼,,20,7,19,3,14,62,,109,76,10,8,10,10,0.6,0.5
2024-09-12T1600,2708A,88.1264,47.8517,阿勒泰地区,市站,,27,6,18,3,7,84,,64,64,10,11,7,7,0.6,0.6
2024-09-12T1600,3192A,80.0903,32.5028,阿里地区,阿里藏医院,,34,6,8,3,1,106,,110,107,7,5,6,6,0.3,0.2
2024-09-12T1600,2642A,109.0318,32.6537,安康市,香溪洞,,35,34,49,18,19,112,,117,114,4,5,6,7,0.4,0.4
2024-09-12T1600,2643A,109.0281,32.6939,安康市,安康市监测站,,35,31,35,18,19,110,,114,113,5,6,6,6,0.6,0.6
2024-09-12T1600,2644A,109.0072,32.6975,安康市,汉滨区检察院,,37,28,32,19,19,116,,120,119,5,6,7,8,0.5,0.6
2024-09-12T1600,2291A,117.0809,30.5177,安庆市,环科院,,32,,8,13,6,100,,77,77,9,12,7,6,0.9,0.8
2024-09-12T1600,2292A,117.0331,30.5119,安庆市,马山宾馆,,32,15,9,9,6,101,,78,78,13,12,8,8,0.5,0.5
2024-09-12T1600,2294A,116.9896,30.6145,安庆市,安庆大学,,30,14,9,11,4,96,,71,71,9,10,8,7,0.6,0.5
2024-09-12T1600,3173A,117.0598,30.5351,安庆市,市人大,,30,13,7,11,5,94,,71,71,11,9,13,8,0.9,0.7
2024-09-12T1600,3123A,105.9408,26.2431,安顺市,凤凰山,,25,14,28,8,19,77,,78,78,3,13,6,9,0.4,0.5
2024-09-12T1600,3124A,105.9439,26.2564,安顺市,金钟山,,25,16,36,9,25,79,,80,80,3,11,6,8,0.4,0.5
2024-09-12T1600,3125A,105.8983,26.2481,安顺市,娄家坡,,,13,25,9,17,78,,79,79,,11,,8,0.6,0.7
2024-09-12T1600,1819A,114.3551,36.1017,安阳市,红庙街,,46,33,32,14,9,145,,111,111,11,18,6,8,0.6,0.6
2024-09-12T1600,1820A,114.361,36.0681,安阳市,银杏小区,,,24,29,,,145,,111,111,14,19,5,6,0.5,0.6
2024-09-12T1600,3141A,114.3922,36.0878,安阳市,信访局,,48,36,30,7,5,151,,116,116,16,20,6,6,0.4,0.5
2024-09-12T1600,1748A,123.044,41.1196,鞍山市,深沟寺,,42,42,48,15,19,124,,75,75,14,29,6,7,0.8,1
2024-09-12T1600,1749A,123.011,41.0931,鞍山市,太阳城,,44,41,41,20,18,139,,78,78,26,32,14,10,1.5,1
2024-09-12T1600,1750A,123.0485,41.1442,鞍山市,太平,,42,34,64,14,27,133,,74,74,17,37,12,16,1.0,1.2
2024-09-12T1600,1751A,122.9642,41.0971,鞍山市,铁西三道街,,44,44,72,14,33,115,,67,67,28,42,23,23,1.3,1.6
2024-09-12T1600,1752A,122.9341,41.0833,鞍山市,铁西工业园区,,49,49,84,20,38,125,,66,66,27,45,23,31,1.3,2.3
2024-09-12T1600,1753A,123.022,41.0821,鞍山市,明达新区,,50,50,43,24,19,151,,79,79,22,33,11,9,1.3,1.1
2024-09-12T1600,2195A,107.4212,40.761,巴彦淖尔市,附二中,颗粒物(PM10),73,96,59,27,26,74,,71,71,19,13,7,7,0.7,0.6
2024-09-12T1600,2196A,107.37,40.7372,巴彦淖尔市,市环保大楼,颗粒物(PM10),80,109,68,34,21,52,,70,70,22,11,4,5,0.7,0.6
2024-09-12T1600,1956A,86.1472,41.7538,巴音郭楞蒙古自治州,孔雀公园,颗粒物(PM10),79,108,132,25,35,106,,71,71,3,20,6,6,0.1,0.3
2024-09-12T1600,1957A,86.1972,41.7166,巴音郭楞蒙古自治州,棉纺厂,颗粒物(PM10),75,100,148,29,48,106,,80,80,4,13,5,5,0.2,0.3
2024-09-12T1600,1958A,86.2357,41.7173,巴音郭楞蒙古自治州,经济开发区,颗粒物(PM10),82,114,118,36,40,103,,92,92,2,7,7,6,0.2,0.3
2024-09-12T1600,2914A,106.7677,31.8794,巴中市,苏山坪,,41,20,24,15,18,130,,110,110,5,6,3,3,0.5,0.4
2024-09-12T1600,3182A,106.7656,31.8545,巴中市,丽阳花园,,39,24,30,17,23,124,,107,107,9,13,4,4,0.5,0.6
2024-09-12T1600,3183A,106.7418,31.8654,巴中市,圣泉水务公司,,42,20,27,17,22,132,,110,110,6,13,3,3,0.5,0.6
2024-09-12T1600,3616A,106.7616,31.8344,巴中市,市中心医院,,40,19,30,18,25,128,,108,108,5,15,4,4,0.5,0.6
2024-09-12T1600,2235A,122.7911,45.6077,白城市,洮北区环保局,,26,24,20,3,7,83,,79,79,14,9,8,7,0.1,0.2
2024-09-12T1600,2236A,122.8738,45.5725,白城市,市环保局,,28,28,31,3,4,68,,70,70,16,14,4,5,0.2,0.2
2024-09-12T1600,2231A,126.4219,41.9171,白山市,喜丰,,34,15,35,3,6,108,,83,83,7,16,8,7,0.6,0.5
2024-09-12T1600,2232A,126.4077,41.9419,白山市,环保局,,32,21,31,6,8,100,,79,79,7,16,9,20,0.6,0.4
2024-09-12T1600,2647A,104.1724,36.5446,白银市,第三小学,,32,32,28,8,12,77,,73,73,10,20,9,21,0.5,0.7
2024-09-12T1600,2648A,104.1465,36.5482,白银市,动力公司,,26,26,20,9,8,77,,67,67,8,19,4,26,0.4,0.5
2024-09-12T1600,2512A,106.6103,23.9011,百色市,市监测站,,24,22,17,6,3,75,,54,54,6,10,4,4,0.7,0.6
2024-09-12T1600,2513A,106.6538,23.8859,百色市,市中心血站,,28,24,24,3,6,88,,55,55,6,19,3,3,0.6,0.6
2024-09-12T1600,3406A,106.6085,23.8798,百色市,祈福高中,,25,23,21,11,7,80,,54,54,4,12,3,3,0.7,0.7
2024-09-12T1600,2270A,117.396,32.939,蚌埠市,工人疗养院,,20,18,22,7,7,64,,50,44,13,4,2,2,0.3,0.4
2024-09-12T1600,2271A,117.3605,32.9427,蚌埠市,百货大楼,,21,21,22,9,11,61,,46,38,7,3,6,6,0.4,0.5
2024-09-12T1600,2273A,117.4185,32.8911,蚌埠市,蚌埠学院,,21,9,12,6,9,66,,47,39,5,6,6,6,0.4,0.4
2024-09-12T1600,2274A,117.3533,32.9673,蚌埠市,淮上区政府,,21,14,18,3,10,65,,48,40,9,5,7,7,0.4,0.4
2024-09-12T1600,2275A,117.3145,32.8977,蚌埠市,高新区,,20,12,15,9,10,61,,49,40,6,5,6,9,0.5,0.5
2024-09-12T1600,3715A,117.3092,32.9314,蚌埠市,蚌埠田家炳中学,,19,18,20,9,11,59,,46,38,5,3,5,5,0.5,0.5
2024-09-12T1600,1585A,109.8756,40.6532,包头市,市环境监测站,,37,30,22,15,14,117,,86,86,22,25,15,21,0.8,0.8
2024-09-12T1600,1587A,109.9991,40.5842,包头市,包头八中,,37,30,26,14,14,117,,87,87,18,21,8,20,0.7,0.8
2024-09-12T1600,1588A,109.8538,40.6821,包头市,青山宾馆,,38,28,22,15,16,119,,88,88,18,26,16,17,0.9,0.9
2024-09-12T1600,1589A,109.8642,40.6288,包头市,惠龙物流,,39,34,21,13,9,122,,87,87,15,19,9,14,0.7,0.7
2024-09-12T1600,1590A,110.0377,40.5546,包头市,东河鸿龙湾,,37,33,18,14,9,117,,92,92,13,14,17,15,0.6,0.6
2024-09-12T1600,3283A,109.9154,40.5685,包头市,滨河大厦,,36,29,18,13,11,113,,86,86,16,18,14,14,0.7,0.6
2024-09-12T1600,3419A,109.9447,40.6261,包头市,包头市委党校,,37,33,25,15,13,116,,89,89,19,22,12,22,0.5,0.5
2024-09-12T1600,3683A,109.8331,40.6576,包头市,昆区政府,,38,30,22,14,16,119,,84,84,18,22,11,17,0.7,0.7
2024-09-12T1600,1930A,107.185,34.3063,宝鸡市,庙沟村,,41,41,59,24,25,129,,83,83,2,14,10,9,0.4,0.5
2024-09-12T1600,1931A,107.0708,34.3017,宝鸡市,竹园沟,,45,45,51,31,29,94,,84,84,15,18,10,9,0.6,0.5
2024-09-12T1600,1932A,107.1906,34.3672,宝鸡市,三陆医院,颗粒物(PM10),57,63,68,30,34,132,,93,93,20,27,11,10,0.7,0.7
2024-09-12T1600,1933A,107.1431,34.3547,宝鸡市,监测站,颗粒物(PM10),61,71,67,26,31,120,,91,91,24,24,8,7,0.8,0.8
2024-09-12T1600,1934A,107.1186,34.3739,宝鸡市,技工学校,颗粒物(PM10),56,61,64,35,38,132,,100,100,18,22,10,9,0.6,0.7
2024-09-12T1600,1935A,107.3906,34.3528,宝鸡市,陈仓区环保局家属楼,臭氧1小时,65,51,62,20,27,172,,124,124,15,25,12,10,0.8,0.8
2024-09-12T1600,1936A,107.2058,34.3497,宝鸡市,文理学院,,49,49,59,27,37,136,,97,97,17,20,11,11,0.6,0.6
2024-09-12T1600,1937A,107.2386,34.3622,宝鸡市,三迪小学,颗粒物(PM10),54,57,66,33,63,141,,99,99,22,29,10,9,0.7,0.7
2024-09-12T1600,1051A,115.493,38.8632,保定市,游泳馆,,44,23,32,3,5,140,,100,100,7,20,3,2,0.2,0.2
2024-09-12T1600,1052A,115.5213,38.8959,保定市,华电二区,,42,22,30,3,10,132,,95,95,7,21,3,2,0,0
2024-09-12T1600,1053A,115.4713,38.9108,保定市,接待中心,,41,18,32,3,10,129,,92,92,9,23,2,3,0.2,0.3
2024-09-12T1600,1054A,115.4612,38.8416,保定市,地表水厂,,43,28,39,9,9,135,,97,97,6,23,2,2,0.0,0.1
2024-09-12T1600,3581A,115.31981,38.95208,保定市,满城区生态环境分局,,,19,36,,5,132,,112,112,9,24,4,4,0.2,0.3
2024-09-12T1600,3582A,115.47694,38.76408,保定市,清苑区第二中学,,44,38,50,3,14,140,,94,94,2,25,1,2,0.3,0.4
2024-09-12T1600,3583A,115.62909,39.02311,保定市,徐水物探局,,45,11,26,3,7,142,,104,104,8,20,3,3,0.5,0.5
2024-09-12T1600,4004A,115.4202,38.8656,保定市,双鹰农机,,46,17,33,8,11,147,,110,110,8,22,1,3,0.3,0.3
2024-09-12T1600,4034A,115.5150,38.8590,保定市,植保所站,,45,30,31,12,13,143,,98,98,4,16,2,3,0.3,0.3
2024-09-12T1600,2594A,99.1678,25.1081,保山市,市环境监测站,,22,22,25,8,14,65,,66,66,6,8,6,6,0.4,0.4
2024-09-12T1600,2595A,99.1711,25.1328,保山市,市环保局,,23,18,27,10,10,71,,73,71,5,5,5,5,0.3,0.3
2024-09-12T1600,1867A,109.1436,21.4086,北海市,海滩公园,,29,14,31,12,16,90,,83,83,3,9,4,6,0.6,0.6
2024-09-12T1600,1868A,109.0981,21.4661,北海市,新市环保局,,39,27,32,19,23,123,,90,90,9,12,4,5,0.6,0.6
2024-09-12T1600,1869A,109.1778,21.5233,北海市,北海工业园,,37,25,37,20,21,116,,89,89,13,15,6,7,0.6,0.6
2024-09-12T1600,3400A,109.1911,21.4415,北海市,龙潭自来水厂,,29,16,29,13,23,92,,79,79,3,8,6,6,0.5,0.6
2024-09-12T1600,1001A,116.3621,39.8784,北京市,万寿西宫,,40,17,22,7,8,127,,85,85,14,26,1,3,0.3,0.5
2024-09-12T1600,1002A,116.2202,40.2915,北京市,定陵,,33,12,14,6,5,105,,68,68,6,4,8,6,0.3,0.3
2024-09-12T1600,1003A,116.4174,39.9289,北京市,东四,,40,20,22,6,8,127,,86,86,10,22,5,5,0.4,0.5
2024-09-12T1600,1004A,116.4072,39.8863,北京市,天坛,,40,15,18,6,8,126,,81,81,13,20,1,3,0.3,0.4
2024-09-12T1600,1005A,116.462,39.9365,北京市,农展馆,,34,19,21,3,4,108,,70,70,15,26,2,3,0.4,0.4
2024-09-12T1600,1006A,116.3392,39.9295,北京市,官园,,41,23,26,6,8,131,,83,83,15,30,6,6,0.3,0.4
2024-09-12T1600,1007A,116.2878,39.9611,北京市,海淀万柳,,43,21,28,8,9,137,,75,75,9,30,5,4,0.3,0.4
2024-09-12T1600,1008A,116.6636,40.135,北京市,顺义新城,,32,12,18,3,6,102,,68,68,8,15,1,4,0.2,0.3
2024-09-12T1600,1009A,116.6275,40.3275,北京市,怀柔镇,,34,,5,3,6,108,,71,71,9,13,1,3,0.2,0.2
2024-09-12T1600,1010A,116.2296,40.217,北京市,昌平镇,,33,19,19,3,6,105,,69,69,9,14,5,4,0.4,0.4
2024-09-12T1600,1011A,116.3966,39.9821,北京市,奥体中心,,30,20,22,8,8,94,,60,60,17,31,2,2,0.5,0.5
2024-09-12T1600,1012A,116.184,39.9136,北京市,古城,,38,26,25,9,7,121,,76,76,10,17,4,3,0.5,0.5
2024-09-12T1600,3281A,115.9718,40.4529,北京市,延庆夏都,,30,9,18,3,8,96,,67,67,4,9,1,2,0.2,0.3
2024-09-12T1600,3417A,117.0709,40.1465,北京市,平谷新城,,35,12,18,3,6,111,,76,76,4,8,1,2,0.4,0.4
2024-09-12T1600,3418A,116.8336,40.4095,北京市,密云新城,,32,13,14,6,6,100,,69,69,5,7,2,5,0.3,0.4
2024-09-12T1600,3671A,116.088,39.9726,北京市,门头沟三家店,,35,15,17,6,6,111,,77,77,9,12,5,4,0.3,0.2
2024-09-12T1600,3672A,116.1541,39.8204,北京市,丰台云岗,,39,18,23,7,6,123,,76,76,11,24,4,3,0.3,0.3
2024-09-12T1600,3673A,116.6804,39.9081,北京市,通州东关,,40,23,29,7,8,125,,74,74,12,29,1,2,0.2,0.4
2024-09-12T1600,3674A,115.9577,39.7603,北京市,房山燕山,,31,21,17,7,6,98,,66,66,12,11,3,3,0.2,0.2
2024-09-12T1600,3675A,116.4672,39.7733,北京市,大兴旧宫,,37,26,22,8,9,117,,76,76,31,20,3,3,0.3,0.4
2024-09-12T1600,3694A,115.986,40.4563,北京市,延庆石河营,,29,10,16,3,6,92,,64,64,4,7,1,2,0.3,0.3
2024-09-12T1600,3695A,116.6151,40.3053,北京市,怀柔新城,,33,14,14,3,5,104,,66,66,7,8,2,3,0.3,0.3
2024-09-12T1600,3696A,116.2545,39.8768,北京市,丰台小屯,,38,19,29,9,11,119,,75,75,9,33,1,3,0.4,0.5
2024-09-12T1600,3697A,116.84,40.3844,北京市,密云镇,,31,12,19,8,8,98,,66,66,7,16,5,5,0.3,0.4
2024-09-12T1600,1761A,123.8275,41.3064,本溪市,大峪,,50,30,26,17,6,159,,92,92,15,20,9,8,1.0,0.7
2024-09-12T1600,1762A,123.7567,41.3325,本溪市,溪湖,,50,50,38,17,8,146,,90,90,22,22,7,6,1.5,0.8
2024-09-12T1600,1763A,123.7169,41.3094,本溪市,彩屯,,47,40,36,16,11,149,,82,82,21,25,13,9,1.5,0.8
2024-09-12T1600,1764A,123.7669,41.2864,本溪市,东明,颗粒物(PM10),52,54,33,17,9,147,,93,93,25,27,9,7,1.4,0.7
2024-09-12T1600,1765A,123.7992,41.2664,本溪市,新立屯,,42,30,19,6,6,133,,93,93,21,22,4,4,0.8,0.5
2024-09-12T1600,1766A,123.8142,41.3472,本溪市,威宁,,45,34,31,13,10,141,,87,87,13,19,9,8,0.8,0.7
2024-09-12T1600,2587A,105.2864,27.3125,毕节市,八中,,27,14,22,6,16,84,,69,69,7,10,6,6,0.4,0.4
2024-09-12T1600,2588A,105.31,27.2944,毕节市,师专,,29,13,25,10,18,92,,71,71,6,13,7,7,0.4,0.5
2024-09-12T1600,3537A,105.3631,27.3533,毕节市,长征村,,31,19,30,16,24,98,,79,79,5,8,9,7,0.4,0.5
2024-09-12T1600,1629A,118.0018,37.3617,滨州市,第二水厂,,50,31,28,14,10,159,,123,123,9,13,7,8,0.4,0.3
2024-09-12T1600,1630A,117.9776,37.393,滨州市,北中新校,,49,36,30,14,8,155,,129,129,5,9,9,9,0.5,0.7
2024-09-12T1600,3514A,117.9378,37.3956,滨州市,中海酒店,,47,31,26,17,12,150,,121,121,10,14,7,7,0.6,0.5
2024-09-12T1600,3515A,117.9378,37.3553,滨州市,开发区一中,,50,34,30,9,10,157,,123,123,11,14,10,10,0.5,0.5
2024-09-12T1600,3516A,118.0917,37.694,滨州市,金海六路,,46,32,28,9,3,146,,108,108,8,13,7,10,0.5,0.4
2024-09-12T1600,4028A,117.9956,37.3753,滨州市,滨州市西街道办事处,臭氧1小时,57,31,26,14,12,165,,130,130,7,11,8,8,0.6,0.5
2024-09-12T1600,2311A,115.8072,33.8399,亳州市,污水处理厂,,21,8,31,8,20,65,,55,55,12,15,2,3,0.6,0.6
2024-09-12T1600,2312A,115.7789,33.8518,亳州市,三国揽胜宫,,20,14,28,12,17,62,,53,53,7,8,2,2,0.6,0.6
2024-09-12T1600,3332A,115.7633,33.8034,亳州市,亳州学院,,20,12,32,7,20,64,,56,56,10,11,1,2,0.7,0.6
2024-09-12T1600,2693A,82.0485,44.8556,博尔塔拉蒙古自治州,市党校,,35,,18,16,14,110,,70,70,10,10,4,4,0.3,0.3
2024-09-12T1600,2694A,82.0806,44.8969,博尔塔拉蒙古自治州,市环保局,,39,39,29,13,10,108,,71,71,6,11,5,5,0.3,0.3
2024-09-12T1600,1071A,116.8842,38.2991,沧州市,沧县城建局,,35,18,34,3,14,110,,80,80,12,33,4,4,0.2,0.5
2024-09-12T1600,1072A,116.8584,38.3254,沧州市,电视转播站,,43,10,33,3,13,135,,94,94,11,40,3,2,0.5,0.6
2024-09-12T1600,1073A,116.8709,38.3228,沧州市,市环保局,,40,23,37,6,17,128,,93,93,10,33,7,6,0.3,0.5
2024-09-12T1600,3324A,116.8136,38.3004,沧州市,河北水利电力学院,,43,14,29,12,19,137,,99,99,13,38,8,7,0.6,0.5
2024-09-12T1600,2622A,97.1806,31.1273,昌都市,昌都监测站,,30,6,7,3,4,94,,70,70,2,7,6,6,0.6,0.6
2024-09-12T1600,3719A,97.1714,31.1406,昌都市,昌都会议中心,,30,9,8,3,4,93,,76,76,5,5,8,8,0.6,0.6
2024-09-12T1600,2690A,88.1236,43.8886,昌吉回族自治州,天山天池,,31,6,14,3,8,98,,85,85,5,5,5,5,0.5,0.5
2024-09-12T1600,2692A,87.2717,44.0297,昌吉回族自治州,新区政务中心,,35,24,28,6,12,111,,78,78,9,15,7,6,0.6,0.5
2024-09-12T1600,3613A,87.3095,44.0142,昌吉回族自治州,亚心广场,,35,27,33,12,7,110,,80,80,14,21,6,4,0.5,0.5
2024-09-12T1600,1119A,125.3325,43.9166,长春市,食品厂,,26,23,37,9,13,82,,66,66,23,36,4,5,0.3,0.5
2024-09-12T1600,1120A,125.2863,43.9027,长春市,客车厂,,25,21,34,7,13,78,,64,64,23,37,5,6,0.3,0.5
2024-09-12T1600,1121A,125.2841,43.8463,长春市,邮电学院,,20,17,29,8,8,62,,59,59,13,26,6,6,0.3,0.4
2024-09-12T1600,1122A,125.3716,43.8772,长春市,劳动公园,,29,29,32,6,10,89,,70,70,15,30,8,8,0.6,0.8
2024-09-12T1600,1123A,125.3297,43.8805,长春市,园林处,,27,14,28,3,8,86,,66,66,12,28,4,4,0.3,0.4
2024-09-12T1600,1124A,125.4605,43.79,长春市,净月潭,,22,12,14,3,6,69,,63,63,5,6,6,6,0.3,0.3
2024-09-12T1600,1126A,125.3863,43.8447,长春市,经开区环卫处,,24,16,32,3,9,76,,61,61,17,28,7,7,0.4,0.5
2024-09-12T1600,1127A,125.245,43.7783,长春市,高新区管委会,,26,7,32,3,10,81,,71,71,8,20,4,4,0.4,0.4
2024-09-12T1600,1128A,125.1761,43.8325,长春市,岱山公园,,25,21,47,10,13,78,,67,67,14,38,4,4,0.3,0.4
2024-09-12T1600,1335A,113.0833,28.2325,长沙市,经开区环保局,,21,21,42,9,22,63,,60,60,16,13,2,3,0.5,0.5
2024-09-12T1600,1336A,112.8872,28.2189,长沙市,高开区环保局,,20,18,42,14,22,62,,66,66,10,8,2,3,0.5,0.5
2024-09-12T1600,1337A,113.0792,28.2053,长沙市,马坡岭,,24,24,45,14,20,70,,65,65,11,11,3,3,0.7,0.6
2024-09-12T1600,1338A,112.9394,28.19,长沙市,湖南师范大学,,24,24,41,16,25,70,,68,68,6,8,4,5,0.5,0.5
2024-09-12T1600,1339A,113.0178,28.1322,长沙市,雨花区环保局,,30,,44,21,25,68,,62,62,12,11,4,5,0.6,0.5
2024-09-12T1600,1340A,112.9792,28.2597,长沙市,伍家岭,,26,26,42,14,15,58,,62,62,7,6,1,2,0.7,0.7
2024-09-12T1600,1341A,113.0014,28.1944,长沙市,火车新站,,28,28,42,12,22,63,,62,62,10,8,3,4,0.6,0.5
2024-09-12T1600,1342A,112.9844,28.1178,长沙市,天心区环保局,,33,33,45,10,21,62,,57,57,11,10,2,3,0.7,0.6
2024-09-12T1600,1343A,112.8908,28.1308,长沙市,湖南中医药大学,,22,20,40,12,29,68,,66,66,8,7,4,5,0.7,0.7
2024-09-12T1600,1344A,112.9581,28.3611,长沙市,沙坪,,26,26,41,10,19,59,,58,58,8,8,7,8,0.6,0.6
2024-09-12T1600,1727A,113.1147,36.1547,长治市,清华站,,45,11,15,3,5,144,,122,122,6,8,10,8,0.6,0.5
2024-09-12T1600,1728A,113.1031,36.1989,长治市,监测站,,46,19,17,9,5,146,,118,117,12,12,12,11,0.8,0.7
2024-09-12T1600,1730A,113.0886,36.2125,长治市,审计局,,47,14,12,7,4,149,,121,121,10,10,10,9,0.5,0.3
2024-09-12T1600,1731A,113.0844,36.1856,长治市,长治八中,,46,20,17,6,7,147,,119,119,11,9,11,8,0.7,0.5
2024-09-12T1600,2845A,113.1569,36.1911,长治市,德盛苑,,47,14,13,7,5,148,,125,121,7,7,8,6,0.7,0.4
2024-09-12T1600,3568A,113.06,36.0464,长治市,向阳小学,,50,30,32,9,13,157,,130,130,11,10,8,8,0.2,0.5
2024-09-12T1600,3569A,112.8792,36.3144,长治市,屯留一中,臭氧1小时,53,27,33,12,12,162,,133,133,9,16,14,18,1.0,0.9
2024-09-12T1600,3570A,113.235,36.3489,长治市,潞城四中,臭氧1小时,67,17,22,7,8,173,,142,142,6,8,6,7,0.8,0.8
2024-09-12T1600,1854A,111.6975,28.9703,常德市,市二中,,28,16,36,9,21,88,,79,79,5,6,7,9,0.5,0.5
2024-09-12T1600,3138A,111.7153,29.0289,常德市,武陵区永安,,27,13,33,11,20,85,,76,76,7,7,7,9,0.5,0.5
2024-09-12T1600,3139A,111.6892,28.9881,常德市,鼎城区玉霞,,28,15,35,8,20,87,,78,78,5,6,7,9,0.6,0.6
2024-09-12T1600,3140A,111.6625,29.0531,常德市,武陵区长庚,,26,16,35,11,21,83,,76,76,7,8,7,10,0.4,0.4
2024-09-12T1600,1196A,119.9633,31.762,常州市,市监测站,,40,,25,17,13,127,,114,114,8,14,5,5,0.5,0.5
2024-09-12T1600,1200A,119.9468,31.7069,常州市,武进监测站,,40,23,19,9,12,125,,116,116,3,14,8,8,0.7,0.9
2024-09-12T1600,1201A,119.9255,31.9087,常州市,安家,,37,21,22,21,13,117,,108,108,13,15,6,6,0.9,0.7
2024-09-12T1600,3002A,119.9805,31.8174,常州市,行政中心,,40,28,25,13,8,128,,118,118,11,19,10,10,0.3,0.5
2024-09-12T1600,3003A,120.0522,31.7748,常州市,经开区,,40,28,23,15,11,128,,133,133,10,16,10,9,1.0,0.6
2024-09-12T1600,3010A,119.9025,31.7964,常州市,钟楼,,40,18,23,17,12,126,,116,116,8,17,7,7,0.6,0.7
2024-09-12T1600,3429A,119.8598,31.7066,常州市,武进经发区,,37,24,27,16,15,117,,110,110,8,18,9,8,0.5,0.6
2024-09-12T1600,3430A,119.5826,31.7245,常州市,金坛城区,,50,36,23,23,17,159,,130,130,11,18,7,8,0.5,0.6
2024-09-12T1600,2220A,120.4318,41.5881,朝阳市,西梁,,33,10,51,3,18,105,,82,82,7,23,6,7,0.3,0.8
2024-09-12T1600,2221A,120.4521,41.5646,朝阳市,河畔小区,,32,10,28,8,9,100,,72,72,3,14,8,9,0.5,0.8
2024-09-12T1600,2222A,120.4176,41.5648,朝阳市,八里堡,,29,22,44,10,18,90,,73,73,10,23,11,12,0.6,1
2024-09-12T1600,2223A,120.3806,41.5969,朝阳市,农业园区,,31,20,35,8,15,99,,78,78,6,14,10,11,0.4,0.7
2024-09-12T1600,1705A,116.6367,23.6719,潮州市,西园路,细颗粒物(PM2.5),58,,53,41,44,103,,100,100,7,15,9,10,0.1,0.5
2024-09-12T1600,3026A,116.6183,23.6608,潮州市,市政府,,44,44,53,24,32,110,,112,112,6,10,5,9,0.6,0.9
2024-09-12T1600,4036A,116.6461,23.6761,潮州市,金山,,37,35,54,24,38,117,,113,113,5,13,7,10,0.5,0.9
2024-09-12T1600,2472A,113.0073,25.9061,郴州市,马头岭,,48,48,51,24,20,107,,85,85,7,6,8,9,0.6,0.5
2024-09-12T1600,2473A,113.0116,25.8226,郴州市,市职中,细颗粒物(PM2.5),52,48,44,36,36,118,,83,83,10,12,4,5,0.6,0.6
2024-09-12T1600,2474A,113.0161,25.8001,郴州市,兴隆步行街,颗粒物(PM10),54,58,48,32,30,118,,83,83,9,12,7,8,0.7,0.7
2024-09-12T1600,2475A,113.0383,25.8071,郴州市,市审计局,,,,43,37,35,109,,76,76,,14,,6,0.6,0.6
2024-09-12T1600,2476A,113.0348,25.7759,郴州市,市环保局,颗粒物(PM10),55,59,47,36,48,106,,78,78,11,13,6,8,0.6,0.6
2024-09-12T1600,1431A,103.9728,30.7236,成都市,金泉两河,,45,17,27,3,8,144,,74,74,5,20,2,3,0.5,0.5
2024-09-12T1600,1432A,104.176,30.6872,成都市,十里店,,50,31,29,19,15,158,,88,88,14,28,2,2,0.4,0.4
2024-09-12T1600,1433A,104.079,30.5706,成都市,三瓦窑,臭氧1小时,65,34,30,33,20,172,,97,97,10,30,2,2,0.5,0.5
2024-09-12T1600,1434A,104.1114,30.63,成都市,沙河铺,臭氧1小时,62,25,31,17,14,169,,95,95,12,18,3,3,0.5,0.5
2024-09-12T1600,1437A,104.0786,30.6531,成都市,君平街,,48,,27,22,18,151,,95,95,12,20,4,3,0.5,0.6
2024-09-12T1600,2880A,104.0239,30.65639,成都市,大石西路,,44,25,28,9,16,138,,86,86,12,20,5,5,0.6,0.6
2024-09-12T1600,3136A,104.2725,30.5589,成都市,龙泉驿区区政府,臭氧1小时,60,34,19,22,12,168,,120,120,11,11,4,4,0.5,0.4
2024-09-12T1600,3357A,104.0106,30.6931,成都市,金博路,,43,,24,10,14,135,,78,78,9,24,1,2,0.5,0.5
2024-09-12T1600,3359A,104.0578,30.5225,成都市,华阳,臭氧1小时,69,34,32,14,14,175,,101,101,13,19,2,3,0.6,0.6
2024-09-12T1600,3487A,104.2394,30.5319,成都市,车城东七路,臭氧1小时,59,36,29,24,22,167,,125,125,10,12,4,3,0.4,0.4
2024-09-12T1600,3488A,104.3853,30.7453,成都市,青白江技师分院,臭氧1小时,63,26,18,20,10,170,,119,119,7,19,2,2,0.5,0.5
2024-09-12T1600,3489A,104.0789,30.4072,成都市,科学城,臭氧1小时,72,32,33,26,25,177,,120,120,8,13,4,3,0.6,0.5
2024-09-12T1600,4011A,103.8506,30.6947,成都市,光华大道三段,臭氧1小时,67,31,27,11,10,173,,94,94,8,15,2,2,0.5,0.5
2024-09-12T1600,1062A,117.9531,40.9081,承德市,铁路,,29,,25,3,7,90,,50,50,18,25,8,8,0.2,0.4
2024-09-12T1600,1063A,117.9392,40.9763,承德市,中国银行,,33,7,22,3,7,103,,61,61,9,16,5,5,0.3,0.5
2024-09-12T1600,1064A,117.9503,40.928,承德市,开发区,,31,21,27,6,11,99,,55,55,9,19,8,8,0.3,0.5
2024-09-12T1600,1065A,117.8051,40.9655,承德市,文化中心,,33,11,44,3,10,104,,52,52,5,21,9,12,0.3,0.6
2024-09-12T1600,1066A,117.9268,41.0026,承德市,离宫,,22,12,20,6,18,68,,45,45,4,11,3,2,0.3,0.4
2024-09-12T1600,2314A,117.47,30.6618,池州市,池州学院,,28,15,6,10,4,89,,80,80,7,7,7,5,0.6,0.6
2024-09-12T1600,3237A,117.4918,30.6617,池州市,展览馆,,28,13,7,7,4,87,,73,73,5,6,5,5,0.8,0.7
2024-09-12T1600,3333A,117.5627,30.695,池州市,第八中学,,29,17,7,13,5,92,,75,75,18,9,6,4,0.7,0.6
2024-09-12T1600,3334A,117.5038,30.6243,池州市,第十二中学,,30,16,6,11,4,93,,75,75,6,8,6,3,0.7,0.6
2024-09-12T1600,1744A,118.9233,42.2816,赤峰市,松山一中,,29,12,23,3,6,90,,63,63,29,30,24,11,0.7,0.6
2024-09-12T1600,1745A,118.9576,42.2728,赤峰市,哈达街,,31,20,19,3,5,97,,66,66,18,19,24,8,0.5,0.4
2024-09-12T1600,1746A,118.8788,42.2554,赤峰市,天义路,,34,,16,7,9,106,,70,70,13,22,9,11,0.3,0.3
2024-09-12T1600,3058A,119.2658,42.0353,赤峰市,银河街,,39,18,45,8,17,122,,80,80,10,21,16,18,0.5,0.6
2024-09-12T1600,3286A,118.9359,42.3147,赤峰市,桥北物流园区,,32,21,31,20,13,101,,69,69,23,32,26,13,0.6,0.6
2024-09-12T1600,2521A,107.3476,22.4136,崇左市,市环保局江州分局,,29,16,24,10,11,90,,66,66,3,8,6,6,0.6,0.6
2024-09-12T1600,2522A,107.3702,22.3707,崇左市,城南新区,,31,,21,12,11,97,,71,71,2,9,2,2,0.6,0.6
2024-09-12T1600,2298A,118.3093,32.3153,滁州市,老年大学,,39,20,11,14,7,122,,80,80,5,6,8,9,0.4,0.2
2024-09-12T1600,2299A,118.3244,32.2786,滁州市,人大宾馆,,37,22,13,14,7,118,,83,83,4,7,5,6,0.6,0.4
2024-09-12T1600,3207A,118.3118,32.3038,滁州市,市政府原办公楼,,36,15,9,15,11,114,,93,93,7,7,6,7,0.6,0.4
2024-09-12T1600,3331A,118.3267,32.2634,滁州市,图书馆,,36,22,11,13,6,113,,80,80,5,6,5,5,0.5,0.4
2024-09-12T1600,2605A,101.5482,25.0441,楚雄彝族自治州,州环境监测站,,29,18,18,11,13,92,,72,72,8,12,8,9,0.5,0.6
2024-09-12T1600,2606A,101.538,25.0492,楚雄彝族自治州,市经济开发区,,28,15,22,14,15,88,,68,68,8,14,7,12,0.5,0.6
2024-09-12T1600,2548A,107.5277,31.2827,达州市,达州职业技术学院,,40,22,34,10,19,127,,99,99,4,10,5,9,0.5,0.5
2024-09-12T1600,2549A,107.5086,31.2186,达州市,市环境监测站,,39,24,33,7,15,122,,111,111,11,21,5,8,0.4,0.5
2024-09-12T1600,2550A,107.4988,31.2132,达州市,凤凰小区,,42,17,30,12,19,134,,114,114,8,18,6,8,0.3,0.6
2024-09-12T1600,2551A,107.5082,31.1986,达州市,达县机关宾馆,,40,19,34,15,16,125,,107,107,12,26,4,6,0.2,0.4
2024-09-12T1600,2552A,107.4644,31.2124,达州市,市政中心,,44,32,42,7,20,138,,113,113,9,22,4,12,0.3,0.7
2024-09-12T1600,2614A,100.1542,25.7054,大理白族自治州,大理市环境监测站,,29,29,21,10,12,67,,73,71,17,17,5,4,0.6,0.6
2024-09-12T1600,2615A,100.2171,25.5811,大理白族自治州,大理古城,,28,21,20,6,8,88,,67,66,4,11,7,7,0.4,0.4
2024-09-12T1600,1109A,121.612,38.9741,大连市,甘井子,,33,30,40,10,19,105,,109,109,20,38,8,13,0.6,0.6
2024-09-12T1600,1110A,121.565,38.9511,大连市,周水子,,34,29,36,12,20,106,,95,95,13,45,7,7,0.8,1.1
2024-09-12T1600,1111A,121.5637,38.8845,大连市,星海三站,,32,27,35,10,17,100,,94,94,7,22,6,10,0.5,0.7
2024-09-12T1600,1112A,121.6302,38.9117,大连市,青泥洼桥,,25,22,48,11,22,79,,89,88,7,42,10,12,0.7,1
2024-09-12T1600,1113A,121.6251,38.8638,大连市,傅家庄,,32,25,39,12,20,101,,93,93,8,32,7,10,0.5,0.8
2024-09-12T1600,1114A,121.5213,38.8661,大连市,七贤岭,,35,28,39,12,16,111,,102,102,9,20,8,9,0.4,0.7
2024-09-12T1600,1115A,121.2529,38.8061,大连市,旅顺,,35,13,32,8,16,112,,100,100,13,20,7,10,0.5,0.7
2024-09-12T1600,1116A,121.7485,39.1311,大连市,金州,,35,18,30,7,19,110,,99,99,7,20,8,11,0.6,1
2024-09-12T1600,1117A,121.7811,39.0496,大连市,开发区,,31,27,36,11,19,99,,93,93,14,24,8,10,0.5,0.8
2024-09-12T1600,1118A,121.9762,39.0631,大连市,双D港,,37,18,29,11,14,117,,103,103,11,20,6,9,0.6,0.9
2024-09-12T1600,1789A,124.81117,46.03138,大庆市,大同区,,42,42,25,12,11,80,,67,67,8,7,5,4,0.4,0.4
2024-09-12T1600,1791A,124.902,46.408,大庆市,红岗区,,26,22,22,3,8,81,,75,75,11,16,6,6,0.4,0.3
2024-09-12T1600,1792A,125.153,46.586,大庆市,萨尔图区,,28,28,24,3,7,70,,70,70,18,16,6,5,0.3,0.3
2024-09-12T1600,1793A,124.9042,46.6215,大庆市,让胡路区,,24,24,20,9,11,73,,70,70,14,14,4,4,0.3,0.3
2024-09-12T1600,3481A,125.141,46.634,大庆市,萨区政府监测点,,32,32,23,10,6,74,,77,77,18,15,6,7,0.4,0.4
2024-09-12T1600,1723A,113.2994,40.0758,大同市,云冈宾馆,,35,13,22,3,9,110,,89,89,11,18,8,8,0.5,0.6
2024-09-12T1600,1724A,113.3444,40.0917,大同市,大同大学,,36,16,19,12,11,113,,91,91,9,14,10,10,0.3,0.4
2024-09-12T1600,1725A,113.2661,40.1269,大同市,安家小村,,35,15,22,3,9,110,,90,90,11,16,11,11,0.4,0.4
2024-09-12T1600,1726A,113.2711,40.0844,大同市,教育学院,,33,16,28,3,10,105,,82,82,8,19,8,8,0.5,0.6
2024-09-12T1600,3282A,113.3397,40.0597,大同市,大同市卫生学校,,35,15,24,7,11,112,,87,87,6,14,9,8,0.5,0.6
2024-09-12T1600,3565A,113.1367,40.1122,大同市,云冈站,,37,30,34,14,10,116,,94,94,11,18,10,10,0.5,0.3
2024-09-12T1600,3566A,113.1186,40.2556,大同市,图书馆,,38,20,24,8,11,120,,93,93,10,18,10,11,0.5,0.6
2024-09-12T1600,3567A,113.5931,40.0461,大同市,区一中,,33,9,21,8,8,104,,90,90,12,13,8,12,0.5,0.7
2024-09-12T1600,3676A,113.2802,40.0995,大同市,第二人民医院,,35,16,23,8,11,112,,89,89,9,16,11,11,0.4,0.4
2024-09-12T1600,2269A,124.1069,50.4097,大兴安岭地区,科技局,,24,,16,13,14,76,,64,64,3,4,5,5,0.2,0.2
2024-09-12T1600,3663A,124.1164,50.4278,大兴安岭地区,红旗社区,,23,7,14,3,5,73,,58,58,2,10,2,4,0.2,0.3
2024-09-12T1600,1600A,124.3303,40.0625,丹东市,江湾东路,,41,41,18,27,9,82,,68,68,10,10,15,6,0.7,0.6
2024-09-12T1600,1601A,124.4256,40.1503,丹东市,临江后街,,38,38,18,15,6,88,,79,79,11,10,7,8,0.7,0.6
2024-09-12T1600,1602A,124.3933,40.1461,丹东市,元宝山,,29,29,16,9,5,79,,66,66,14,15,4,3,0.6,0.4
2024-09-12T1600,1603A,124.3633,40.1092,丹东市,民主桥,细颗粒物(PM2.5),53,,16,37,10,90,,73,73,2,10,5,5,0.7,0.6
2024-09-12T1600,3541A,109.5726,19.5167,儋州市,第一中学子站,,25,21,16,12,5,77,,58,58,4,6,5,5,0.5,0.5
2024-09-12T1600,3542A,109.5567,19.5187,儋州市,东坡学校子站,,26,12,17,7,6,83,,56,56,5,6,4,4,0.5,0.5
2024-09-12T1600,2616A,98.5842,24.428,德宏傣族景颇族自治州,德宏州监测站,颗粒物(PM10),61,72,28,10,11,59,,42,42,8,12,8,12,0.6,0.7
2024-09-12T1600,3677A,98.5881,24.4368,德宏傣族景颇族自治州,芒市人民政府综合楼,,22,22,18,9,12,54,,50,50,7,10,7,9,0.6,0.7
2024-09-12T1600,1901A,104.4239,31.1208,德阳市,东山公园,,45,11,15,7,10,141,,80,80,9,12,2,2,0.5,0.5
2024-09-12T1600,1902A,104.3826,31.1317,德阳市,西小区,,38,13,25,8,17,119,,76,76,8,17,2,4,0.5,0.6
2024-09-12T1600,1904A,104.3553,31.1091,德阳市,耐火材料厂,,39,9,33,6,21,124,,75,75,5,23,3,6,0.5,0.6
2024-09-12T1600,3639A,104.4019,31.1244,德阳市,市教育局,,43,17,25,8,14,137,,83,83,7,16,1,4,0.5,0.5
2024-09-12T1600,1622A,116.3032,37.4674,德州市,儿童乐园,,44,29,39,9,13,139,,94,94,11,23,11,11,0.6,0.6
2024-09-12T1600,1624A,116.2991,37.4451,德州市,监理站,,46,27,32,3,12,146,,99,99,6,18,11,11,0.7,0.8
2024-09-12T1600,3066A,116.2721,37.4379,德州市,九衢泉纯净水厂,,46,24,32,7,12,146,,96,96,10,21,10,11,0.7,0.8
2024-09-12T1600,3371A,116.3728,37.4403,德州市,开发区人民医院,,42,22,32,3,9,132,,98,98,7,26,11,10,0.6,0.6
2024-09-12T1600,3372A,116.3572,37.4094,德州市,太阳城中学,,43,19,32,3,9,136,,100,100,10,25,12,12,0.5,0.6
2024-09-12T1600,3511A,116.5652,37.3319,德州市,陵城艺术中心,,42,27,30,3,6,134,,100,100,12,18,11,11,0.5,0.6
2024-09-12T1600,2621A,99.7056,27.8317,迪庆藏族自治州,迪庆州站,,28,13,18,9,10,89,,78,78,10,11,7,7,0.4,0.4
2024-09-12T1600,3180A,99.7136,27.8094,迪庆藏族自治州,质量技术监督局,,29,11,16,6,8,92,,79,79,10,11,8,8,0.4,0.4
2024-09-12T1600,2663A,104.6241,35.5734,定西市,东关小学,,27,20,24,16,18,85,,87,87,5,7,5,4,0.2,0.2
2024-09-12T1600,2664A,104.6194,35.5934,定西市,供电公司,,28,25,27,19,19,86,,89,89,7,5,7,7,0.2,0.2
2024-09-12T1600,1389A,113.7547,23.0494,东莞市,莞城梨川,,41,30,52,22,30,131,,111,111,26,36,5,5,0.7,0.8
2024-09-12T1600,1390A,113.7944,23.0128,东莞市,东城石井,,38,38,44,24,28,120,,130,130,28,28,5,5,0.5,0.5
2024-09-12T1600,1391A,113.7383,22.9658,东莞市,南城西平,,46,32,37,19,24,147,,140,140,20,25,3,7,0.8,0.7
2024-09-12T1600,3319A,113.7338,23.0381,东莞市,万江金泰,,44,30,49,18,28,139,,124,124,34,41,11,12,0.7,0.7
2024-09-12T1600,3626A,113.7533,23.0202,东莞市,南城元岭,,43,32,47,22,28,137,,130,130,33,34,8,8,0.7,0.7
2024-09-12T1600,3627A,113.7875,23.0457,东莞市,东城主山,,45,37,49,23,29,144,,134,134,27,36,9,10,0.8,0.8
2024-09-12T1600,1666A,118.6614,37.4309,东营市,市环保局,臭氧1小时,65,22,26,7,8,172,,138,138,10,13,5,5,0.4,0.4
2024-09-12T1600,3036A,118.6904,37.4338,东营市,开发区管委会,臭氧1小时,62,24,31,12,11,169,,135,135,8,11,4,4,0.3,0.2
2024-09-12T1600,3365A,118.5719,37.565,东营市,垦利区民丰路,,49,29,27,9,8,154,,114,114,7,9,12,8,0,0.3
2024-09-12T1600,3498A,118.5055,37.8612,东营市,河口城区,,49,41,28,20,9,156,,114,114,10,10,10,8,0.8,0.6
2024-09-12T1600,3646A,118.4978,37.4623,东营市,胜利站,臭氧1小时,65,29,29,3,7,172,,122,122,9,11,7,6,0.7,0.7
2024-09-12T1600,3734A,118.35,37.26,东营市,理想之城,,49,22,25,7,11,155,,133,133,10,14,7,5,0.5,0.4
2024-09-12T1600,1591A,110.0023,39.8129,鄂尔多斯市,综合楼,,43,31,35,12,12,137,,107,107,7,17,9,10,0.7,0.8
2024-09-12T1600,1592A,109.9486,39.8261,鄂尔多斯市,巴音孟克林场办事处,颗粒物(PM10),56,61,38,12,16,130,,102,102,8,20,7,8,0.6,0.7
2024-09-12T1600,1593A,109.7736,39.5986,鄂尔多斯市,康泽苑,,42,39,37,7,14,132,,104,104,7,16,9,9,0.5,0.6
2024-09-12T1600,1594A,109.8119,39.5989,鄂尔多斯市,华泰汽车城,,39,31,34,17,19,122,,95,95,6,15,8,7,0.4,0.6
2024-09-12T1600,1595A,109.9734,39.7884,鄂尔多斯市,奥林花园,,38,34,36,22,15,120,,93,93,8,19,5,6,0.6,0.8
2024-09-12T1600,2436A,114.8938,30.3994,鄂州市,市政府,,20,18,36,9,17,64,,53,53,15,14,10,9,1.0,0.9
2024-09-12T1600,2437A,114.8989,30.3714,鄂州市,赵家坝,,20,20,39,3,16,63,,56,56,17,14,13,9,1.2,1
2024-09-12T1600,3654A,114.8094,30.4089,鄂州市,精准医疗中心,,,9,28,3,17,68,,60,60,,7,7,6,0.9,0.8
2024-09-12T1600,2454A,109.4978,30.2981,恩施土家族苗族自治州,湖北民院,,40,18,25,11,17,128,,90,90,4,14,8,9,0.7,0.8
2024-09-12T1600,2455A,109.4707,30.2798,恩施土家族苗族自治州,州电力总公司,,40,14,23,3,15,125,,88,88,10,18,8,8,0.5,0.6
2024-09-12T1600,3549A,109.5061,30.3772,恩施土家族苗族自治州,龙凤新区,,39,15,24,3,20,124,,91,91,9,12,7,6,0.8,0.9
2024-09-12T1600,2499A,108.3411,21.6158,防城港市,沙万,,37,37,27,22,15,110,,88,88,11,14,16,8,0.6,0.8
2024-09-12T1600,2500A,108.3514,21.7731,防城港市,防城档案局,,36,28,44,25,20,95,,75,75,7,15,8,7,0.5,0.6
2024-09-12T1600,2501A,108.3506,21.6414,防城港市,大海花园,,38,38,26,18,14,113,,84,84,4,10,6,6,0.6,0.8
2024-09-12T1600,1371A,113.1294,23.0067,佛山市,湾梁,臭氧1小时,118,53,49,29,26,235,,171,171,20,34,8,9,0.8,0.8
2024-09-12T1600,1372A,113.1083,23.0478,佛山市,华材职中,臭氧1小时,110,48,59,37,33,219,,156,156,23,50,8,7,0.4,0.5
2024-09-12T1600,1373A,113.144,23.0453,佛山市,南海气象局,臭氧1小时,74,67,53,35,34,179,,156,156,12,32,6,8,0.6,0.6
2024-09-12T1600,1374A,113.2881,22.8094,佛山市,顺德苏岗,臭氧1小时,78,50,42,36,27,182,,180,180,25,25,8,9,0.7,0.6
2024-09-12T1600,1376A,112.8383,22.8678,佛山市,高明孔堂,臭氧1小时,95,50,49,30,29,196,,154,154,14,16,7,7,0.8,0.8
2024-09-12T1600,1377A,112.8836,23.1588,佛山市,三水监测站,臭氧1小时,108,51,56,35,33,215,,142,142,16,43,6,8,0.5,0.5
2024-09-12T1600,1378A,112.867,23.185,佛山市,三水云东海,,45,35,44,29,33,142,,123,123,10,28,9,10,0.6,0.7
2024-09-12T1600,3625A,113.2544,22.7642,佛山市,容桂街道办,臭氧1小时,59,46,39,36,28,167,,161,161,38,30,6,8,0.7,0.7
2024-09-12T1600,1282A,119.2681,26.0504,福州市,师大,,36,36,50,14,33,69,,86,86,5,13,4,4,0.3,0.4
2024-09-12T1600,1283A,119.2984,26.1028,福州市,五四北路,,,,26,15,37,74,,84,84,3,10,3,4,0.4,0.5
2024-09-12T1600,1284A,119.2648,26.0768,福州市,杨桥西路,,29,29,49,16,34,69,,86,86,4,13,3,5,0.3,0.4
2024-09-12T1600,3048A,119.5799,26.0936,福州市,九龙,,22,22,36,11,25,65,,64,64,2,7,5,6,0.3,0.4
2024-09-12T1600,3526A,119.5189,25.9664,福州市,吴航,,20,20,36,14,24,64,,66,66,2,8,6,6,0.3,0.5
2024-09-12T1600,1755A,123.7977,41.8491,抚顺市,望花区,,34,15,27,6,9,107,,74,74,8,21,11,10,0.5,0.6
2024-09-12T1600,1756A,123.9161,41.8822,抚顺市,顺城区,,31,9,24,3,9,98,,74,74,8,20,8,7,0.5,0.5
2024-09-12T1600,1757A,124.0436,41.8611,抚顺市,东洲区,,28,18,18,3,11,89,,67,67,9,13,8,9,0.4,0.5
2024-09-12T1600,1758A,123.9247,41.8642,抚顺市,新抚区,,32,17,24,3,10,101,,76,76,9,15,9,9,0.3,0.4
2024-09-12T1600,1759A,124.0972,41.8961,抚顺市,大伙房水库,,31,,15,3,7,97,,76,76,3,11,5,6,0.4,0.5
2024-09-12T1600,1760A,123.7086,41.8391,抚顺市,沈抚新城,,38,,19,6,10,119,,84,84,12,23,8,7,0.1,0.2
2024-09-12T1600,2376A,116.2127,28.0814,抚州市,桐源党溪,,36,17,22,10,10,113,,80,80,2,3,5,5,0.7,0.7
2024-09-12T1600,2377A,116.3544,27.9831,抚州市,市站,,32,27,20,14,8,100,,85,85,3,4,6,6,0.8,0.8
2024-09-12T1600,2378A,116.3565,27.963,抚州市,血防站,,33,25,20,16,9,105,,83,83,6,6,3,5,1.0,0.8
2024-09-12T1600,2379A,116.3564,28.0007,抚州市,采茶剧团,,32,22,18,9,9,101,,77,77,2,3,5,4,0.7,0.7
2024-09-12T1600,2380A,116.385,27.9647,抚州市,医学分院,颗粒物(PM10),53,56,19,12,7,99,,77,77,5,5,4,4,0.9,0.9
2024-09-12T1600,2207A,121.6094,41.998,阜新市,工业园区,,34,23,47,8,18,106,,75,75,10,21,9,14,0.5,1
2024-09-12T1600,2208A,121.6697,42.0279,阜新市,长青街,,30,29,39,13,17,94,,74,74,8,21,9,12,0.4,0.7
2024-09-12T1600,2209A,121.6673,42.0705,阜新市,农业园区,,31,18,25,3,9,97,,72,72,7,10,8,40,0.6,0.9
2024-09-12T1600,2210A,121.6717,42.0224,阜新市,东苑,,,,45,6,16,98,,75,75,8,23,12,24,0.5,0.8
2024-09-12T1600,2211A,121.6506,42.0498,阜新市,玉龙新城,,34,23,32,8,11,108,,77,77,10,21,16,19,0.4,0.7
2024-09-12T1600,2301A,115.8277,32.8929,阜阳市,市监测站,,20,14,33,14,25,44,,44,40,13,12,6,7,0.7,0.7
2024-09-12T1600,2303A,115.8554,32.8605,阜阳市,开发区,,33,,40,23,25,46,,50,43,15,14,5,6,0.7,0.7
2024-09-12T1600,2875A,115.784,32.8892,阜阳市,阜阳职业技术学院,,29,,34,20,19,47,,51,44,13,11,6,7,0.7,0.6
2024-09-12T1600,3468A,115.7901,32.8613,阜阳市,市规划展馆,,39,27,40,27,28,47,,52,44,16,16,5,6,0.8,0.7
2024-09-12T1600,3469A,115.836,32.9183,阜阳市,枣园社区,,29,24,40,20,28,45,,45,40,14,13,6,7,0.7,0.7
2024-09-12T1600,2669A,102.9099,34.9841,甘南藏族自治州,州政府,,28,9,18,9,14,88,,80,80,1,8,10,10,0.1,0.2
2024-09-12T1600,3380A,102.8914,34.9617,甘南藏族自治州,甘肃民族师范学院,,29,14,26,3,12,92,,81,81,2,8,4,5,0.2,0.5
2024-09-12T1600,2570A,101.9603,30.0475,甘孜藏族自治州,水桥子,,32,6,8,3,5,100,,72,72,1,15,5,5,0.2,0.3
2024-09-12T1600,3065A,101.9533,29.9972,甘孜藏族自治州,州环保局,,32,10,17,3,5,102,,79,79,6,19,3,3,0.2,0.2
2024-09-12T1600,3414A,115.8347,28.932,赣江新区,桑海产业园,,23,9,9,3,4,73,,61,61,13,11,11,10,0.6,0.5
2024-09-12T1600,2363A,114.9367,25.8664,赣州市,地委,,34,28,40,18,30,108,,94,94,4,10,11,14,1.0,1
2024-09-12T1600,2364A,114.9461,25.8481,赣州市,气象台,,38,33,45,19,29,119,,99,99,5,13,5,7,0.7,0.8
2024-09-12T1600,2365A,114.9322,25.8333,赣州市,市图书馆,,,31,42,20,26,129,,118,118,4,10,4,4,,0.9
2024-09-12T1600,2366A,114.8905,25.8471,赣州市,华坚鞋城,,36,29,42,22,28,114,,96,96,5,8,2,2,0.5,0.6
2024-09-12T1600,3109A,115.0093,25.8613,赣州市,赣县区卫计委,,36,27,38,21,26,115,,102,102,6,21,7,8,0.6,0.7
2024-09-12T1600,2683A,106.2319,36.1417,固原市,马园,,,41,43,3,15,78,,93,78,13,11,5,5,,1
2024-09-12T1600,2684A,106.2792,36.0022,固原市,监测站,,26,23,19,17,18,82,,102,79,9,7,6,12,0.5,0.5
2024-09-12T1600,2685A,106.2375,36.0211,固原市,新区,,25,25,20,12,11,76,,94,74,9,7,8,8,0.5,0.5
2024-09-12T1600,3522A,106.2177,35.9959,固原市,原州区十五小,,25,18,16,15,13,80,,99,78,10,8,8,8,0.6,0.6
2024-09-12T1600,2544A,106.6303,30.4576,广安市,市委,,49,20,24,7,19,154,,134,134,7,11,1,2,0.3,0.4
2024-09-12T1600,2545A,106.6271,30.4663,广安市,友谊中学,,47,20,26,13,19,149,,132,132,9,14,3,4,0.3,0.5
2024-09-12T1600,2547A,106.6388,30.4551,广安市,广电花园,,47,20,27,16,18,150,,135,135,7,12,3,2,0.3,0.4
2024-09-12T1600,2902A,106.6351,30.4865,广安市,北辰小学,,48,23,32,14,18,153,,135,135,8,11,5,5,0.3,0.3
2024-09-12T1600,2523A,105.8945,32.4535,广元市,黑石坡,,29,15,18,8,12,90,,76,76,14,10,12,9,0.6,0.4
2024-09-12T1600,2524A,105.821,32.4444,广元市,老城,,35,35,23,12,9,107,,83,83,12,26,12,5,0.9,0.8
2024-09-12T1600,2526A,105.8628,32.4287,广元市,监测站,,38,28,23,26,13,109,,87,87,17,15,27,7,1.2,0.8
2024-09-12T1600,3617A,105.8047,32.4166,广元市,经开区,,,36,25,23,17,100,,84,84,,20,,8,1.0,0.8
2024-09-12T1600,1345A,113.2347,23.1423,广州市,广雅中学,臭氧1小时,110,51,51,27,26,219,,159,159,24,43,5,6,0.9,1
2024-09-12T1600,1346A,113.2612,23.105,广州市,市五中,臭氧1小时,118,43,47,32,32,236,,168,168,13,30,3,4,0.7,0.8
2024-09-12T1600,1348A,113.3478,23.0916,广州市,广东商学院,臭氧1小时,105,52,46,35,31,210,,155,155,20,39,4,6,0.7,0.7
2024-09-12T1600,1349A,113.4332,23.1047,广州市,市八十六中,臭氧1小时,106,72,58,45,32,212,,146,146,44,49,4,5,0.7,0.7
2024-09-12T1600,1350A,113.3505,22.9483,广州市,番禺中学,臭氧1小时,117,41,47,37,31,234,,201,201,23,30,5,7,0.8,0.8
2024-09-12T1600,1351A,113.2146,23.3916,广州市,花都师范,,48,45,40,30,20,151,,130,130,7,29,5,5,0.6,0.6
2024-09-12T1600,1352A,113.2597,23.1331,广州市,市监测站,臭氧1小时,104,48,49,28,26,207,,150,150,24,37,6,6,0.7,0.7
2024-09-12T1600,1353A,113.5618,23.312,广州市,九龙镇镇龙,,40,39,42,28,24,122,,90,90,19,25,6,6,0.6,0.7
2024-09-12T1600,1354A,113.2765,23.1544,广州市,麓湖,,40,36,49,23,28,127,,139,139,11,31,5,6,0.6,0.7
2024-09-12T1600,1355A,113.443,23.3035,广州市,帽峰山森林公园,,26,24,28,18,15,83,,109,109,3,12,5,5,0.6,0.6
2024-09-12T1600,2846A,113.3221,23.1322,广州市,体育西,臭氧1小时,74,43,45,30,27,179,,140,140,11,28,6,7,0.6,0.7
2024-09-12T1600,3298A,113.5717,23.5491,广州市,从化街口,,,36,36,32,21,102,,80,80,,22,8,8,0.6,0.6
2024-09-12T1600,3299A,113.3472,23.3692,广州市,白云竹料,,46,46,33,25,20,132,,111,111,10,20,5,5,0.6,0.6
2024-09-12T1600,3300A,113.2981,23.237,广州市,白云嘉禾,,50,50,57,24,27,113,,141,141,26,49,6,6,0.8,1
2024-09-12T1600,3301A,113.4256,23.1716,广州市,黄埔科学城,,36,36,51,21,31,114,,128,128,18,37,6,6,0.8,0.8
2024-09-12T1600,3302A,113.3942,23.0483,广州市,番禺大学城,臭氧1小时,117,63,49,41,27,234,,172,172,26,33,7,8,0.7,0.6
2024-09-12T1600,3303A,113.4922,22.8168,广州市,南沙黄阁,臭氧1小时,79,62,49,36,31,183,,177,177,30,36,5,5,0.7,0.8
2024-09-12T1600,3304A,113.5342,22.7896,广州市,南沙街,颗粒物(PM10),51,52,46,27,27,142,,143,143,27,28,5,5,0.7,0.6
2024-09-12T1600,3443A,113.2902,23.5544,广州市,花都梯面,,42,41,27,29,17,114,,95,95,5,19,6,6,0.6,0.6
2024-09-12T1600,3445A,113.7858,23.7478,广州市,从化良口,,29,23,26,20,16,60,,64,64,4,8,6,6,0.7,0.7
2024-09-12T1600,3446A,113.8051,23.2614,广州市,增城荔城,细颗粒物(PM2.5),57,55,40,40,29,131,,131,131,13,18,4,5,0.6,0.6
2024-09-12T1600,2506A,109.6047,23.0666,贵港市,江南子站,颗粒物(PM10),51,51,41,27,22,128,,103,103,10,18,10,8,0.7,0.7
2024-09-12T1600,2507A,109.6014,23.0948,贵港市,贵城子站,,48,48,39,30,22,121,,97,97,10,15,8,7,1.0,0.7
2024-09-12T1600,2508A,109.5669,23.1065,贵港市,荷城子站,,36,31,34,19,17,114,,92,92,4,14,10,10,0.5,0.6
2024-09-12T1600,3405A,109.5886,23.1172,贵港市,新世纪学校,,44,44,34,24,18,110,,93,93,3,12,16,16,0.6,0.7
2024-09-12T1600,1439A,106.6899,26.5998,贵阳市,马鞍山,,35,22,20,7,6,109,,92,92,9,8,3,2,0.3,0.4
2024-09-12T1600,1440A,106.6971,26.5694,贵阳市,市环保站,,35,22,21,17,18,109,,103,103,11,8,3,3,0.5,0.4
2024-09-12T1600,1441A,106.6243,26.6266,贵阳市,鉴湖路,,28,17,22,9,11,89,,86,86,6,7,6,5,0.3,0.4
2024-09-12T1600,1442A,106.7487,26.6343,贵阳市,燕子冲,,38,,11,12,16,120,,105,105,8,6,6,5,0.3,0.4
2024-09-12T1600,1443A,106.6555,26.4365,贵阳市,碧云窝,,28,24,27,3,12,87,,93,93,6,9,6,6,0.3,0.4
2024-09-12T1600,1444A,106.694,26.5161,贵阳市,中院村,,29,27,26,12,15,91,,88,88,11,13,8,7,0.5,0.5
2024-09-12T1600,1445A,106.7109,26.6027,贵阳市,红边门,,36,29,25,22,23,113,,102,102,13,12,4,4,0.3,0.4
2024-09-12T1600,1446A,106.7164,26.5699,贵阳市,新华路,,36,19,13,12,15,113,,108,108,8,8,3,3,0.3,0.4
2024-09-12T1600,1447A,106.674,26.5424,贵阳市,太慈桥,,29,24,20,14,11,92,,95,95,13,12,4,4,0.3,0.4
2024-09-12T1600,1862A,110.4144,25.3167,桂林市,电子科大尧山校区,,39,29,34,25,21,123,,107,107,4,7,4,5,0.6,0.6
2024-09-12T1600,1863A,110.2819,25.2697,桂林市,监测站,,48,48,39,28,18,138,,112,112,9,12,9,9,0.5,0.6
2024-09-12T1600,1864A,110.3089,25.2708,桂林市,龙隐路小学,,42,34,35,25,20,134,,111,111,5,10,8,11,0.6,0.6
2024-09-12T1600,1865A,110.2869,25.2178,桂林市,八中,,43,40,39,30,23,136,,112,112,5,7,7,9,0.4,0.5
2024-09-12T1600,3403A,110.1764,25.2381,桂林市,创业大厦,,39,36,40,24,30,122,,96,96,6,11,8,23,0.4,0.4
2024-09-12T1600,3531A,110.296,25.1253,桂林市,旅游学院,,45,29,26,27,21,142,,109,109,5,14,7,11,0.4,0.4
2024-09-12T1600,2674A,100.2561,34.4714,果洛藏族自治州,玛沁县大武镇,,32,,15,14,11,102,,81,81,1,6,11,12,0.4,0.5
2024-09-12T1600,1129A,126.5422,45.755,哈尔滨市,岭北,,35,20,17,7,8,111,,94,94,9,12,8,8,0.7,0.2
2024-09-12T1600,1130A,126.561,45.8167,哈尔滨市,松北商大,,29,29,22,7,5,75,,72,72,17,18,8,8,0.4,0.4
2024-09-12T1600,1131A,126.979,45.5419,哈尔滨市,阿城会宁,,31,28,19,7,10,98,,76,76,11,13,12,11,0.5,0.5
2024-09-12T1600,1132A,126.599,45.7222,哈尔滨市,南岗学府路,,32,32,28,3,6,98,,77,77,10,17,8,7,0.5,0.5
2024-09-12T1600,1133A,126.689,45.7733,哈尔滨市,太平宏伟公园,,,31,25,9,7,91,,73,73,17,22,,7,0.5,0.5
2024-09-12T1600,1134A,126.635,45.7667,哈尔滨市,道外承德广场,颗粒物(PM10),51,51,32,16,7,84,,69,69,22,30,7,7,0.5,0.4
2024-09-12T1600,1135A,126.685,45.7319,哈尔滨市,香坊红旗大街,,36,36,38,7,11,94,,76,76,15,30,9,9,0.4,0.4
2024-09-12T1600,1136A,126.6411,45.7258,哈尔滨市,动力和平路,,36,36,27,12,7,94,,72,72,14,22,8,8,0.5,0.5
2024-09-12T1600,1137A,126.593,45.7478,哈尔滨市,道里建国路,,36,36,26,10,9,90,,74,74,10,16,8,9,0.7,0.7
2024-09-12T1600,1138A,126.615,45.61,哈尔滨市,平房东轻厂,,32,32,22,11,8,87,,78,78,19,16,7,6,0.5,0.4
2024-09-12T1600,1139A,126.595,45.9855,哈尔滨市,呼兰师专,,32,32,26,12,7,93,,73,73,15,19,11,10,0.6,0.6
2024-09-12T1600,1140A,126.6206,45.6842,哈尔滨市,省农科院,颗粒物(PM10),68,86,46,11,12,61,,65,65,43,34,8,8,0.5,0.4
2024-09-12T1600,2688A,93.5128,42.8172,哈密市,地区监测站,,37,30,41,13,14,117,,98,98,5,9,13,7,0.5,0.3
2024-09-12T1600,2689A,93.4961,42.8328,哈密市,哈密师范学校,,38,33,30,13,12,119,,99,99,4,8,9,5,0.3,0.2
2024-09-12T1600,2671A,100.9048,36.9639,海北藏族自治州,海晏县西海镇,,26,,23,13,23,83,,78,78,8,11,12,19,0.7,0.8
2024-09-12T1600,3867A,102.0738,36.5056,海东市,平安区公安北苑,,29,29,32,14,17,79,,50,50,12,21,14,14,0.5,0.6
2024-09-12T1600,1410A,110.3232,20.0574,海口市,海南大学,,20,9,12,8,9,62,,54,54,5,21,5,5,0.3,0.4
2024-09-12T1600,1411A,110.283,20.0053,海口市,秀英海南医院,,20,14,14,10,9,64,,58,58,12,23,4,4,0.3,0.3
2024-09-12T1600,1412A,110.338,19.9969,海口市,海南师范大学,,20,9,13,7,8,63,,64,64,7,18,5,5,0.3,0.4
2024-09-12T1600,1413A,110.33,20.0356,海口市,龙华路环保局宿舍,,19,14,16,7,10,59,,58,58,5,19,3,3,0.2,0.4
2024-09-12T1600,3539A,110.5111,19.9736,海口市,桂林洋子站,,22,12,14,10,9,70,,60,60,4,15,4,4,0.2,0.4
2024-09-12T1600,2673A,100.6188,36.2866,海南藏族自治州,共和县恰卜恰镇,,25,17,25,3,11,78,,66,66,7,10,14,16,0.5,0.6
2024-09-12T1600,2676A,97.3731,37.3753,海西蒙古族藏族自治州,德令哈市,,,,264,,35,101,,96,96,5,7,7,8,0.3,0.4
2024-09-12T1600,1048A,114.5302,36.6116,邯郸市,东污水处理厂,,41,23,23,9,7,129,,99,99,4,12,4,4,0.4,0.4
2024-09-12T1600,1049A,114.4918,36.5713,邯郸市,矿院,,43,21,20,3,8,137,,108,108,8,12,4,4,0.3,0.2
2024-09-12T1600,1050A,114.484,36.6133,邯郸市,丛台公园,,40,8,18,3,7,128,,103,103,10,15,3,2,0.4,0.4
2024-09-12T1600,3458A,114.7895,36.5593,邯郸市,香泉濮院小区,,42,21,28,3,11,133,,113,113,6,17,3,3,0.5,0.3
2024-09-12T1600,3579A,114.50634,36.77178,邯郸市,永年区实验高中,,45,16,35,9,13,141,,116,116,14,20,4,3,0.5,0.4
2024-09-12T1600,3580A,114.20016,36.44293,邯郸市,峰峰矿区临水派出所,,43,6,10,3,2,137,,121,121,7,10,4,3,0.4,0.4
2024-09-12T1600,2634A,106.9893,33.1842,汉中市,汉川机床厂子校,,35,18,26,15,20,112,,99,99,4,5,4,4,0.5,0.5
2024-09-12T1600,2635A,107.0154,33.0706,汉中市,市监测站,,39,31,34,19,22,123,,107,107,3,9,7,7,0.5,0.7
2024-09-12T1600,2636A,107.0089,33.1138,汉中市,鑫源开发区,,38,30,33,19,23,121,,108,108,4,7,8,9,0.5,0.5
2024-09-12T1600,2637A,107.007,33.0323,汉中市,南郑大河坎水厂,,35,29,33,19,19,109,,89,89,3,10,8,8,0.5,0.5
2024-09-12T1600,1223A,120.2072,30.2111,杭州市,滨江,,49,43,36,27,19,156,,127,127,12,15,4,4,0.7,0.8
2024-09-12T1600,1224A,120.0633,30.2747,杭州市,西溪,,47,27,26,23,17,148,,113,113,10,15,6,6,0.7,0.7
2024-09-12T1600,1226A,120.3461,30.3153,杭州市,下沙,,50,43,32,30,21,158,,141,141,17,32,8,7,0.6,0.7
2024-09-12T1600,1227A,120.1269,30.2456,杭州市,卧龙桥,臭氧1小时,79,36,24,34,23,183,,142,142,12,17,6,5,0.6,0.7
2024-09-12T1600,1228A,120.1903,30.2692,杭州市,浙江农大,臭氧1小时,55,32,23,24,22,164,,132,132,14,21,8,8,0.6,0.6
2024-09-12T1600,1230A,120.1197,30.3119,杭州市,和睦小学,臭氧1小时,77,36,25,27,17,181,,138,138,13,17,6,6,0.6,0.7
2024-09-12T1600,1231A,120.3019,30.4183,杭州市,临平镇,,49,37,40,22,18,156,,145,145,8,23,4,4,0.6,0.7
2024-09-12T1600,1232A,120.2697,30.1819,杭州市,城厢镇,,47,39,32,22,23,149,,127,127,15,22,6,6,0.6,0.7
2024-09-12T1600,1233A,120.0883,30.1808,杭州市,云栖,臭氧1小时,75,36,25,22,15,180,,141,141,14,18,8,6,0.6,0.7
2024-09-12T1600,3557A,119.9464,30.0494,杭州市,镇二中,"细颗粒物(PM2.5),臭氧1小时",58,46,26,41,24,166,,123,123,10,20,8,8,0.7,0.7
2024-09-12T1600,3558A,119.7183,30.2367,杭州市,市府大楼,,50,50,23,24,16,154,,116,116,9,12,6,5,0.6,0.6
2024-09-12T1600,3656A,120.1556,30.2864,杭州市,消防大队,臭氧1小时,65,48,32,32,23,172,,131,131,7,16,8,8,0.7,0.8
2024-09-12T1600,1270A,117.1959,31.7848,合肥市,明珠广场,,14,14,6,9,8,35,,29,29,15,12,6,6,0.7,0.5
2024-09-12T1600,1271A,117.3072,31.8764,合肥市,三里街,,20,19,9,9,4,64,,44,44,11,9,5,6,0.6,0.4
2024-09-12T1600,1272A,117.2588,31.8707,合肥市,琥珀山庄,,22,17,10,15,6,49,,45,45,12,8,6,6,0.9,0.6
2024-09-12T1600,1273A,117.1604,31.9052,合肥市,董铺水库,,14,7,9,7,6,43,,35,35,8,7,2,2,0.5,0.4
2024-09-12T1600,1274A,117.25,31.8571,合肥市,长江中路,,19,19,16,13,10,42,,39,39,12,7,7,7,0.9,0.7
2024-09-12T1600,1275A,117.266,31.9436,合肥市,庐阳区,,14,14,10,9,4,43,,47,47,10,9,4,4,0.7,0.5
2024-09-12T1600,1276A,117.336,31.8586,合肥市,瑶海区,,22,22,15,11,5,69,,47,47,14,11,4,4,0.7,0.5
2024-09-12T1600,1277A,117.3027,31.7964,合肥市,包河区,,28,,7,19,8,62,,43,43,15,15,4,4,0.7,0.5
2024-09-12T1600,1278A,117.2776,31.7385,合肥市,滨湖新区,,20,,6,14,5,51,,35,35,17,12,6,5,0.7,0.5
2024-09-12T1600,1279A,117.1318,31.8403,合肥市,高新区,,14,14,13,7,6,42,,28,28,9,9,7,7,0.9,0.8
2024-09-12T1600,3464A,117.3803,31.9147,合肥市,高教基地,,26,17,8,8,6,83,,50,50,11,8,2,2,0.6,0.3
2024-09-12T1600,3614A,79.924,37.0877,和田地区,地区环保局,颗粒物(PM10),127,203,329,61,94,96,,78,78,3,9,6,6,0.5,0.5
2024-09-12T1600,3615A,79.9131,37.113,和田地区,市环保局,颗粒物(PM10),127,204,317,61,80,96,,67,67,2,23,6,6,0.4,0.5
2024-09-12T1600,2516A,108.2011,24.715,河池市,东仁乐园,,28,28,38,15,16,26,,16,16,6,8,4,5,0.6,0.6
2024-09-12T1600,2517A,108.0497,24.6947,河池市,市环保站,,29,28,29,16,14,92,,73,73,6,10,8,8,0.5,0.5
2024-09-12T1600,2518A,108.0983,24.6989,河池市,市疾控中心,,28,27,31,15,14,87,,70,70,7,15,8,8,0.5,0.5
2024-09-12T1600,1696A,114.6778,23.7569,河源市,源西,,47,47,40,29,25,80,,93,93,8,20,4,5,0.6,0.7
2024-09-12T1600,1697A,114.6944,23.7586,河源市,东埔,,40,30,31,28,25,70,,91,91,12,19,3,3,0.6,0.7
2024-09-12T1600,1698A,114.6892,23.7233,河源市,老城,,37,37,38,25,21,82,,88,88,7,16,2,3,0.6,0.7
2024-09-12T1600,1718A,115.4208,35.2464,菏泽市,气象局,,41,41,38,19,16,118,,104,104,10,12,4,5,0.2,0.4
2024-09-12T1600,1719A,115.4747,35.2375,菏泽市,市政协,,41,41,36,14,16,120,,100,100,11,12,5,6,0.3,0.3
2024-09-12T1600,3374A,115.5564,35.0891,菏泽市,定陶老年大学,,44,44,37,14,11,106,,90,90,16,14,8,7,0.4,0.4
2024-09-12T1600,3647A,115.4702,35.2706,菏泽市,菏泽医专,,37,33,36,8,12,118,,100,100,11,12,2,5,0.3,0.4
2024-09-12T1600,2514A,111.5264,24.4172,贺州市,环保小区,,35,33,36,24,17,111,,94,94,10,15,5,7,0.4,0.4
2024-09-12T1600,2515A,111.5608,24.4078,贺州市,政协大楼,,40,40,34,22,17,122,,105,105,10,16,6,6,0.6,0.5
2024-09-12T1600,3534A,111.4744,24.4553,贺州市,西湾,,37,37,33,22,20,105,,89,89,8,14,7,6,0.6,0.5
2024-09-12T1600,2385A,114.17,35.9019,鹤壁市,市监测站,,47,31,34,14,10,150,,121,121,16,20,3,8,0.9,0.9
2024-09-12T1600,2386A,114.2956,35.7511,鹤壁市,市交警支队,,43,28,30,3,12,137,,111,111,11,16,2,6,0.5,0.7
2024-09-12T1600,2387A,114.2878,35.7306,鹤壁市,迎宾馆,,43,21,27,3,13,137,,117,117,12,18,9,8,0.5,0.8
2024-09-12T1600,3474A,114.2617,35.6822,鹤壁市,大新区,,42,26,32,9,8,134,,110,110,15,21,6,10,0.2,0.5
2024-09-12T1600,3596A,114.1572,35.9603,鹤壁市,南山宾馆,,47,10,28,9,15,150,,125,125,4,14,4,9,0.6,1.1
2024-09-12T1600,2244A,130.2537,47.3416,鹤岗市,哈啤分公司,,20,13,24,10,16,61,,62,62,3,8,13,14,0.3,0.4
2024-09-12T1600,2245A,130.2684,47.3086,鹤岗市,斯达机电,,29,22,29,20,17,58,,63,63,8,13,12,13,0.2,0.2
2024-09-12T1600,2247A,130.1097,47.3382,鹤岗市,五号水库,,20,12,13,3,6,62,,70,70,4,6,5,5,0.2,0.2
2024-09-12T1600,2263A,127.4833,50.2524,黑河市,交通局,,26,26,22,8,12,55,,51,51,8,7,3,4,0.3,0.3
2024-09-12T1600,2264A,127.5144,50.2341,黑河市,环保局,,26,26,21,14,13,49,,56,50,14,8,16,7,0.3,0.2
2024-09-12T1600,2265A,127.5291,50.2472,黑河市,大黑河岛,,24,24,24,11,12,51,,53,48,6,4,5,4,0,0
2024-09-12T1600,1074A,115.6838,37.7541,衡水市,电机北厂,,47,14,30,10,15,148,,104,104,7,24,6,7,0.4,0.4
2024-09-12T1600,1075A,115.6303,37.7316,衡水市,市监测站,,46,21,38,8,10,147,,116,116,12,22,6,7,0.3,0.4
2024-09-12T1600,3188A,115.6683,37.7217,衡水市,市城管局,,47,23,31,9,15,150,,106,106,9,19,3,7,0.5,0.6
2024-09-12T1600,3459A,115.5989,37.5491,衡水市,地表水厂,,47,21,27,3,9,148,,111,111,14,17,5,4,0.4,0.5
2024-09-12T1600,2456A,112.5003,26.9167,衡阳市,原169医院,,31,27,35,19,23,99,,82,82,4,9,6,4,0.6,0.5
2024-09-12T1600,2457A,112.6194,26.9258,衡阳市,衡阳化工总厂,,,26,40,,,96,,82,82,6,8,6,7,0.6,0.7
2024-09-12T1600,2458A,112.6211,26.8956,衡阳市,珠晖区环保局,,,20,39,,,96,,83,83,4,7,5,6,0.6,0.8
2024-09-12T1600,2459A,112.6197,26.8733,衡阳市,市委党校,,31,30,39,14,23,99,,84,83,5,8,7,6,0.7,0.7
2024-09-12T1600,2460A,112.6006,26.8919,衡阳市,市监测站,,32,22,36,14,22,100,,86,86,3,6,6,7,0.6,0.7
2024-09-12T1600,2461A,112.5664,26.9056,衡阳市,真空机电公司,,30,,37,17,24,96,,86,86,2,4,6,7,0.7,0.8
2024-09-12T1600,3399A,112.6703,26.882,衡阳市,师范学院,,32,23,43,19,23,101,,83,83,6,10,7,8,0.6,0.7
2024-09-12T1600,2608A,103.3772,23.3993,红河哈尼族彝族自治州,污水处理厂,,35,,21,24,22,72,,54,54,4,8,8,9,0.4,0.4
2024-09-12T1600,2609A,103.3861,23.35,红河哈尼族彝族自治州,监测站,,26,23,18,18,14,77,,62,62,6,10,8,11,0.3,0.4
2024-09-12T1600,3038A,103.3758,23.368,红河哈尼族彝族自治州,州图书馆,,23,20,23,15,14,71,,58,58,5,9,7,12,0.3,0.4
2024-09-12T1600,1090A,111.6507,40.7517,呼和浩特市,呼市一监,,42,22,21,16,14,133,,82,82,6,13,7,6,0.6,0.7
2024-09-12T1600,1091A,111.6572,40.8033,呼和浩特市,小召,,41,29,20,17,12,129,,84,84,16,21,7,7,0.6,0.6
2024-09-12T1600,1094A,111.7516,40.8369,呼和浩特市,如意水处理厂,,40,33,30,16,14,128,,79,79,11,26,6,7,0.5,0.6
2024-09-12T1600,1095A,111.7276,40.8062,呼和浩特市,二十九中,,41,26,24,19,16,131,,83,83,14,24,5,5,0.7,0.8
2024-09-12T1600,1096A,111.5512,40.7866,呼和浩特市,工大金川校区,,39,37,27,26,13,124,,75,75,10,24,6,3,0.7,0.6
2024-09-12T1600,1097A,111.717,40.7612,呼和浩特市,化肥厂生活区,,44,34,30,15,12,139,,92,92,8,17,9,9,0.5,0.6
2024-09-12T1600,3698A,111.5968,40.8178,呼和浩特市,红旗小学,,44,44,29,24,13,132,,80,80,16,29,7,4,0.6,0.5
2024-09-12T1600,3699A,111.6518,40.8389,呼和浩特市,海东办,,44,34,24,30,15,138,,88,88,11,28,9,8,0.5,0.5
2024-09-12T1600,3061A,119.7512,49.1577,呼伦贝尔市,国华电力东,,27,26,29,6,13,85,,70,70,4,10,4,4,0.2,0.3
2024-09-12T1600,1250A,120.0751,30.8669,湖州市,城西水厂,臭氧1小时,53,36,32,23,22,162,,136,136,10,16,4,4,0.5,0.4
2024-09-12T1600,2873A,120.0875,30.8955,湖州市,仁皇山新区,,45,36,31,27,24,142,,109,109,15,20,6,6,0.6,0.6
2024-09-12T1600,2907A,120.1844,30.8596,湖州市,吴兴区站,,46,34,26,23,23,145,,120,120,7,16,5,5,0.4,0.5
2024-09-12T1600,3562A,120.4148,30.8538,湖州市,南浔区站,,37,26,21,20,21,117,,98,98,5,14,4,4,0.5,0.5
2024-09-12T1600,1607A,120.9092,40.7136,葫芦岛市,龙港区,,35,32,41,8,22,111,,88,88,17,34,58,43,0.4,0.7
2024-09-12T1600,1608A,120.8392,40.7514,葫芦岛市,化工街,,35,14,41,3,17,110,,86,86,13,27,12,92,0.3,0.4
2024-09-12T1600,1609A,120.8341,40.7073,葫芦岛市,新区,,40,40,33,3,15,110,,83,83,23,37,18,29,0.2,0.4
2024-09-12T1600,1610A,120.8695,40.7677,葫芦岛市,东城区,,36,25,33,6,11,114,,86,86,13,25,10,56,0.3,0.4
2024-09-12T1600,2482A,109.5981,27.5721,怀化市,林科所,,29,22,31,15,18,92,,85,85,4,5,6,5,0.6,0.6
2024-09-12T1600,2483A,109.9453,27.5444,怀化市,河西地税局,,33,21,39,20,28,104,,93,93,4,9,5,9,0.6,0.7
2024-09-12T1600,2484A,109.9781,27.5342,怀化市,市四医院,,32,24,38,22,30,100,,92,92,2,7,5,9,0.4,0.6
2024-09-12T1600,2485A,109.9972,27.5578,怀化市,监测楼,,31,22,44,14,25,99,,91,91,3,8,3,6,0.6,0.8
2024-09-12T1600,2486A,110.0394,27.583,怀化市,市委党校,,32,27,40,12,26,100,,90,90,3,8,6,15,0.6,0.7
2024-09-12T1600,1210A,119.036,33.5981,淮安市,钵池山,,25,19,4,10,8,79,,50,50,7,8,7,6,0.6,0.5
2024-09-12T1600,1211A,119.007,33.575,淮安市,北京南路,,25,19,4,17,7,74,,48,48,8,6,5,5,0.7,0.5
2024-09-12T1600,1212A,118.989,33.6067,淮安市,市监测站,,37,24,5,17,6,117,,61,61,8,7,6,6,0.7,0.6
2024-09-12T1600,1213A,119.135,33.5039,淮安市,楚州区监测站,,32,32,12,13,4,81,,52,52,9,9,5,5,0.5,0.6
2024-09-12T1600,1214A,119.0186,33.6297,淮安市,淮阴区监测站,,22,22,8,10,7,70,,50,50,21,11,3,3,0.6,0.5
2024-09-12T1600,3426A,118.8755,33.2894,淮安市,新华书店,,32,26,11,19,8,101,,69,69,9,12,6,6,0.5,0.4
2024-09-12T1600,2282A,116.8004,33.975,淮北市,监测站,,24,24,34,16,20,56,,49,49,11,12,5,6,0.6,0.7
2024-09-12T1600,2283A,116.8091,33.9007,淮北市,烈山区政府,,38,29,36,26,25,62,,52,52,10,11,5,5,0.5,0.5
2024-09-12T1600,3330A,116.8873,33.9836,淮北市,杜集区检察院,,43,31,34,30,34,60,,55,50,12,11,2,2,0.9,0.8
2024-09-12T1600,4017A,116.7923,33.9535,淮北市,市博物馆,,28,25,32,19,21,54,,50,49,15,15,4,5,0.7,0.8
2024-09-12T1600,2277A,116.8305,32.7727,淮南市,潘集区政府,,15,12,20,9,19,45,,46,35,9,11,4,5,0.6,0.7
2024-09-12T1600,2278A,117.0067,32.6524,淮南市,师范学院,,42,,21,29,16,40,,47,32,9,5,6,6,0.4,0.4
2024-09-12T1600,2279A,116.8569,32.5951,淮南市,谢家集区政府,,32,,15,22,21,36,,39,24,12,11,7,6,0.5,0.4
2024-09-12T1600,2280A,116.8281,32.633,淮南市,八公山区政府,,30,30,34,17,23,36,,43,31,13,9,3,3,0.4,0.4
2024-09-12T1600,2281A,116.6325,32.6201,淮南市,焦岗湖风景区管理处,,7,6,35,3,18,20,,30,20,5,6,3,3,0.2,0.2
2024-09-12T1600,2894A,117.0566,32.6531,淮南市,经济技术开发区消防队,,,,14,13,6,36,,45,29,11,9,,4,0.5,0.4
2024-09-12T1600,3329A,117.0108,32.5893,淮南市,山南新区,,23,23,18,3,9,34,,47,34,14,10,3,3,0.5,0.5
2024-09-12T1600,2446A,114.9028,30.4742,黄冈市,职工中心,,20,13,33,12,24,63,,54,54,16,11,8,7,0.6,0.6
2024-09-12T1600,2929A,114.8858,30.4519,黄冈市,红卫路,,22,14,32,14,26,69,,56,56,9,9,8,8,0.7,0.7
2024-09-12T1600,3398A,114.9136,30.4445,黄冈市,市林业局,,24,19,40,11,26,76,,59,59,8,8,7,7,0.6,0.5
2024-09-12T1600,2672A,102.0199,35.5102,黄南藏族自治州,同仁县隆务镇,,24,24,23,3,9,63,,65,65,17,8,20,18,0.6,0.5
2024-09-12T1600,2295A,118.2903,29.6963,黄山市,延安路89号,,34,34,25,6,6,76,,64,64,2,7,6,6,0.4,0.4
2024-09-12T1600,2296A,118.327,29.7178,黄山市,黄山东路89号,,26,24,17,14,6,81,,66,66,3,7,4,4,0.3,0.3
2024-09-12T1600,2297A,118.1371,30.2756,黄山市,黄山区政府5号楼,,20,,13,8,6,64,,58,58,6,7,6,6,0.3,0.3
2024-09-12T1600,2423A,115.0601,30.2313,黄石市,沈家营,,31,31,49,11,18,72,,54,54,11,12,5,6,0.9,0.7
2024-09-12T1600,2424A,115.0817,30.2006,黄石市,陈家湾,,23,20,50,10,19,71,,50,50,10,11,6,7,0.8,0.6
2024-09-12T1600,2426A,114.8988,30.2019,黄石市,铁山,,23,,33,16,28,69,,60,60,12,11,7,8,0.7,0.7
2024-09-12T1600,2427A,115.0307,30.2092,黄石市,团城山,,24,24,43,6,17,60,,47,47,14,13,7,6,0.9,0.8
2024-09-12T1600,3149A,115.0235,30.1578,黄石市,笔架山北路,,29,29,46,3,16,60,,46,46,16,12,9,8,0.8,0.9
2024-09-12T1600,1392A,114.4183,23.0528,惠州市,河南岸金山湖子站,,37,37,43,24,28,116,,125,125,4,13,4,4,0.4,0.5
2024-09-12T1600,1393A,114.4053,23.0822,惠州市,下埔横江三路子站,,40,31,44,17,27,127,,137,137,6,14,4,17,0.6,0.6
2024-09-12T1600,1394A,114.4103,23.1142,惠州市,江北云山西路子站,,46,,47,32,28,132,,149,149,5,14,5,5,0.3,0.5
2024-09-12T1600,1395A,114.4645,22.7833,惠州市,惠阳区承修路船湖子站,,50,28,41,20,27,159,,131,131,22,26,5,5,0.6,0.6
2024-09-12T1600,1396A,114.5317,22.7422,惠州市,大亚湾管委会子站,,,26,31,13,19,139,,115,115,17,28,,8,0.5,0.5
2024-09-12T1600,3314A,114.4338,22.8134,惠州市,惠阳秋长,臭氧1小时,75,44,41,27,26,180,,163,163,24,27,6,6,0.5,0.5
2024-09-12T1600,3452A,114.6517,22.775,惠州市,大亚湾霞涌,,45,,25,31,19,84,,77,77,10,10,7,6,0.4,0.5
2024-09-12T1600,2240A,130.9762,45.3001,鸡西市,环保局,,22,21,21,3,6,69,,63,63,4,6,5,5,0.2,0.2
2024-09-12T1600,2243A,130.9429,45.3039,鸡西市,第一中学,,24,21,24,3,6,76,,68,68,5,9,4,4,0.1,0.2
2024-09-12T1600,3707A,131.0207,45.3073,鸡西市,欧美日汽修厂,,24,16,27,6,10,75,,68,68,11,16,9,6,0.0,0.1
2024-09-12T1600,3709A,130.9967,45.3106,鸡西市,市政设施管理处,,26,26,33,3,8,78,,70,70,8,19,5,6,0.1,0.1
2024-09-12T1600,2367A,114.9754,27.0803,吉安市,红声器材厂,,,36,35,21,17,131,,116,116,,9,9,16,0.5,0.5
2024-09-12T1600,2368A,114.9658,27.0999,吉安市,市森林工业局,,40,36,35,16,18,125,,109,109,15,14,7,12,0.6,0.6
2024-09-12T1600,2369A,114.99,27.1312,吉安市,市环境监测站,,42,32,34,19,17,134,,114,114,8,10,10,16,0.6,0.7
2024-09-12T1600,2370A,115.0093,27.0968,吉安市,青原区法院,,45,37,33,23,19,144,,120,120,10,12,9,18,0.6,0.6
2024-09-12T1600,1772A,126.54,43.8622,吉林市,哈达湾,,28,11,20,3,9,88,,67,67,8,22,5,6,0.4,0.5
2024-09-12T1600,1773A,126.5844,43.8358,吉林市,东局子,,29,11,24,3,7,92,,66,66,13,17,4,4,0.4,0.5
2024-09-12T1600,1774A,126.5052,43.8245,吉林市,电力学院,,27,,26,13,11,86,,78,78,6,18,3,3,0.5,0.6
2024-09-12T1600,1775A,126.6133,43.8972,吉林市,江北,,28,10,27,6,10,88,,64,64,12,20,8,8,0.5,0.6
2024-09-12T1600,1776A,126.555,43.8306,吉林市,江南公园,,30,15,19,11,8,94,,64,64,11,20,5,5,0.4,0.6
2024-09-12T1600,2868A,126.4739,43.953,吉林市,九站,,29,21,25,6,11,92,,72,72,9,23,7,8,0.5,0.6
2024-09-12T1600,1299A,116.9862,36.6114,济南市,科干所,颗粒物(PM10),58,66,43,34,17,144,,103,103,19,22,10,9,0.7,0.7
2024-09-12T1600,1300A,116.9376,36.665,济南市,农科所,,48,46,35,20,12,153,,109,109,19,23,9,9,0.5,0.4
2024-09-12T1600,1301A,117.1265,36.6734,济南市,开发区,颗粒物(PM10),51,51,40,27,18,144,,106,106,21,25,9,9,0.6,0.5
2024-09-12T1600,1303A,117.0624,36.6868,济南市,省种子仓库,,48,48,40,14,10,145,,113,113,18,22,8,8,0.8,1.7
2024-09-12T1600,1304A,116.9489,36.6447,济南市,机床二厂,臭氧1小时,52,49,38,15,10,161,,118,118,19,22,8,10,0.6,0.7
2024-09-12T1600,1305A,117.0495,36.663,济南市,市监测站,,49,49,37,20,14,150,,114,114,18,21,10,10,0.7,0.6
2024-09-12T1600,1306A,116.7675,36.5484,济南市,长清党校,颗粒物(PM10),51,51,37,24,15,160,,134,134,17,20,8,9,0.8,0.7
2024-09-12T1600,1616A,117.6795,36.229,济南市,技术学院,颗粒物(PM10),52,53,36,29,23,126,,90,90,12,15,10,10,1.0,1
2024-09-12T1600,1961A,117.532,36.6868,济南市,东山小学,臭氧1小时,64,56,51,24,22,171,,116,116,18,26,5,5,0.8,0.8
2024-09-12T1600,3059A,117.7161,36.2049,济南市,泰兴公司,,46,46,31,29,20,115,,86,86,12,16,7,8,0.7,0.6
2024-09-12T1600,3064A,117.6867,36.2171,济南市,莱芜战役纪念馆,颗粒物(PM10),51,51,34,27,20,120,,87,87,14,17,13,11,0.8,0.7
2024-09-12T1600,3494A,117.1673,36.9782,济南市,济阳区政府,,46,32,31,10,6,145,,113,113,10,14,14,10,0.6,0.6
2024-09-12T1600,3495A,117.1171,36.63,济南市,锦屏中学,"颗粒物(PM10),细颗粒物(PM2.5)",59,68,41,42,17,154,,106,106,21,23,11,10,0.7,0.6
2024-09-12T1600,3682A,116.9814,36.6819,济南市,济南四建,,48,41,30,17,11,153,,108,108,16,20,9,9,0.6,0.6
2024-09-12T1600,1653A,116.6251,35.4302,济宁市,火炬城,,45,44,40,31,23,82,,63,63,23,19,9,9,0.9,0.8
2024-09-12T1600,1655A,116.5491,35.4042,济宁市,电化厂,,39,35,40,27,25,85,,59,59,21,19,6,7,0.8,0.8
2024-09-12T1600,3500A,116.5814,35.3707,济宁市,北湖一中,,35,33,39,24,21,83,,63,63,22,19,4,3,0.7,0.6
2024-09-12T1600,3501A,116.8249,35.5593,济宁市,服务中心,,46,39,36,32,22,83,,81,81,20,16,5,6,0.7,0.6
2024-09-12T1600,3678A,116.5907,35.4054,济宁市,市第七中学,,45,,36,31,21,79,,62,62,23,19,8,7,0.8,0.7
2024-09-12T1600,2255A,130.2751,46.8028,佳木斯市,佳纺,,22,19,18,8,6,69,,76,76,11,9,5,4,0.4,0.4
2024-09-12T1600,2256A,130.3995,46.8307,佳木斯市,发电厂,,24,18,15,8,7,76,,77,77,9,9,6,6,0.5,0.6
2024-09-12T1600,2257A,130.3258,46.7975,佳木斯市,环保局,,23,16,19,3,6,73,,76,76,7,10,8,8,0.5,0.4
2024-09-12T1600,2258A,130.3648,46.8032,佳木斯市,十一中,,27,19,20,3,8,84,,83,83,9,12,7,8,0.4,0.4
2024-09-12T1600,2259A,130.3794,46.7588,佳木斯市,四丰,,19,17,12,3,5,60,,61,61,16,13,1,1,0.3,0.3
2024-09-12T1600,1252A,120.7436,30.778,嘉兴市,清河小学,,47,29,24,16,14,148,,112,112,10,14,4,4,0.5,0.5
2024-09-12T1600,1253A,120.726,30.7478,嘉兴市,嘉兴学院,,47,30,23,18,17,148,,110,110,9,14,2,2,0.5,0.5
2024-09-12T1600,2872A,120.7846,30.7525,嘉兴市,南湖区残联,臭氧1小时,65,32,34,21,20,172,,133,133,8,14,4,4,0.6,0.5
2024-09-12T1600,3407A,120.6916,30.7739,嘉兴市,秀洲住建,,47,31,23,22,17,148,,112,112,7,15,4,4,0.7,0.6
2024-09-12T1600,1945A,98.2908,39.7711,嘉峪关市,气象局,颗粒物(PM10),51,51,51,7,14,111,,100,100,4,9,7,5,0.2,0.3
2024-09-12T1600,2884A,98.2672,39.7978,嘉峪关市,酒钢宾馆,颗粒物(PM10),51,51,49,19,16,100,,99,98,18,12,17,6,0.9,0.5
2024-09-12T1600,3248A,98.2643,39.7724,嘉峪关市,雄关区,颗粒物(PM10),54,58,52,14,17,107,,96,96,5,11,7,8,0.4,0.4
2024-09-12T1600,1383A,113.1064,22.6058,江门市,北街,臭氧1小时,64,62,38,38,26,171,,138,138,18,19,5,5,0.7,0.7
2024-09-12T1600,1384A,113.0731,22.5835,江门市,西区,臭氧1小时,73,48,48,32,26,178,,132,132,15,27,6,6,0.5,0.5
2024-09-12T1600,1385A,113.0219,22.5311,江门市,圭峰西,颗粒物(PM10),51,51,42,31,30,160,,133,133,8,12,3,3,0.5,0.5
2024-09-12T1600,1386A,113.0828,22.5947,江门市,东湖,臭氧1小时,58,64,44,39,25,166,,131,131,12,20,4,4,0.6,0.5
2024-09-12T1600,3311A,113.1075,22.5647,江门市,江海富民,臭氧1小时,74,55,58,31,32,179,,130,130,16,22,6,7,0.6,0.7
2024-09-12T1600,3449A,113.05,22.4667,江门市,新会银湖,颗粒物(PM10),52,53,40,26,31,159,,120,120,7,12,5,5,0.7,0.7
2024-09-12T1600,1828A,113.227,35.2125,焦作市,市环保局,,49,30,34,12,16,155,,124,124,9,16,8,9,0.4,0.4
2024-09-12T1600,3169A,113.2725,35.2067,焦作市,太极体育中心,,50,32,45,15,14,158,,129,129,9,14,7,8,0.6,0.5
2024-09-12T1600,3335A,113.3137,35.2641,焦作市,马村街道办,,48,29,35,9,12,151,,129,129,10,14,6,7,0.5,0.5
2024-09-12T1600,3336A,113.2465,35.2373,焦作市,焦作技师学院,,48,26,34,12,18,152,,127,127,8,16,8,11,0.5,0.7
2024-09-12T1600,3477A,113.1656,35.2539,焦作市,中站许衡医院,,50,20,35,16,21,157,,131,131,12,20,7,8,0.6,0.6
2024-09-12T1600,3981A,113.2449,35.1803,焦作市,原李万街道办,,50,43,33,12,13,158,,124,124,8,10,7,7,0.8,0.8
2024-09-12T1600,1708A,116.3701,23.5345,揭阳市,新兴,,47,47,65,27,36,143,,137,137,11,20,6,9,0.6,0.8
2024-09-12T1600,1709A,116.3264,23.5443,揭阳市,西马,颗粒物(PM10),51,52,58,34,32,158,,135,135,3,8,6,6,0.6,0.7
2024-09-12T1600,1710A,116.3611,23.5626,揭阳市,东兴,颗粒物(PM10),51,52,73,26,34,150,,128,128,6,17,4,7,0.6,0.8
2024-09-12T1600,1711A,116.4151,23.5294,揭阳市,渔湖,,43,43,78,21,35,131,,146,146,10,24,5,7,0.8,1
2024-09-12T1600,3320A,116.403,23.5699,揭阳市,曲溪,,46,42,56,27,37,146,,133,133,7,20,2,2,0.6,0.7
2024-09-12T1600,1944A,102.1692,38.5167,金昌市,天庆家园,,26,19,19,12,14,82,,80,80,19,12,8,8,0.6,0.5
2024-09-12T1600,3170A,102.1864,38.5253,金昌市,市委党校,,33,33,21,17,12,76,,74,74,22,10,7,6,0.7,0.9
2024-09-12T1600,4022A,102.1647,38.5371,金昌市,金川区人防中心,,30,,20,21,13,74,,79,79,27,10,12,9,0.8,0.8
2024-09-12T1600,1262A,119.647,29.077,金华市,十五中,,47,29,39,20,23,148,,121,121,9,19,2,3,0.5,0.6
2024-09-12T1600,1263A,119.686,29.1029,金华市,监测站,,47,33,40,22,24,150,,126,126,8,23,3,3,0.4,0.5
2024-09-12T1600,3659A,119.656,29.1131,金华市,气象局,,48,39,41,22,21,153,,126,126,7,24,4,5,0.2,0.4
2024-09-12T1600,1767A,121.1115,41.0879,锦州市,南山,,29,20,32,11,15,91,,75,75,15,27,8,11,0.3,0.6
2024-09-12T1600,1768A,121.0533,40.8434,锦州市,开发区,,33,22,38,3,16,104,,80,80,14,29,5,28,0.3,0.7
2024-09-12T1600,1769A,121.1836,41.1119,锦州市,百股街道,,29,21,30,3,11,90,,72,72,13,24,6,23,0.6,0.8
2024-09-12T1600,1770A,121.1178,41.1222,锦州市,天安街道,,30,16,29,3,12,96,,74,74,12,25,9,13,0.4,0.6
2024-09-12T1600,1771A,121.1303,41.1386,锦州市,北湖公园,,33,17,14,3,6,103,,92,92,9,12,9,13,0.3,0.3
2024-09-12T1600,2160A,112.85,35.5051,晋城市,自来水公司,臭氧1小时,60,33,38,17,15,168,,140,140,12,17,10,13,0.7,1.3
2024-09-12T1600,2161A,112.8318,35.4936,晋城市,白云商贸,臭氧1小时,53,34,40,12,12,162,,139,139,14,19,10,12,0.7,1.1
2024-09-12T1600,2162A,112.8508,35.4887,晋城市,市环保局,臭氧1小时,53,31,45,12,15,162,,138,138,13,19,10,12,0.7,1.1
2024-09-12T1600,2163A,112.8676,35.4897,晋城市,技术学院,臭氧1小时,55,37,36,17,14,164,,137,137,14,19,11,12,0.8,1.1
2024-09-12T1600,3620A,112.8271,35.4828,晋城市,泽州一中,,50,22,35,12,15,158,,132,132,17,22,11,14,0.7,1
2024-09-12T1600,2171A,112.7532,37.6945,晋中市,锦纶小区,,47,29,23,9,6,150,,127,127,8,15,15,9,0.3,0.3
2024-09-12T1600,2173A,112.7249,37.7067,晋中市,南都小区,,46,18,23,13,12,146,,123,123,9,19,11,7,0.5,0.4
2024-09-12T1600,2174A,112.6991,37.6982,晋中市,榆次区政府,,45,22,23,12,14,141,,120,120,8,17,9,6,0.5,0.5
2024-09-12T1600,2865A,112.7195,37.6828,晋中市,榆次三中,,45,24,23,3,4,143,,122,122,10,15,13,9,0.4,0.4
2024-09-12T1600,2439A,112.2014,31.0481,荆门市,竹园小学,,40,36,51,20,29,126,,99,99,12,13,9,11,0.6,0.6
2024-09-12T1600,2440A,112.1969,30.9891,荆门市,掇刀,,42,33,46,21,28,132,,102,102,15,14,7,9,0.6,0.6
2024-09-12T1600,2441A,112.2213,31.0386,荆门市,石化一小,,41,34,52,23,27,131,,102,102,8,10,12,12,0.6,0.6
2024-09-12T1600,3012A,112.1849,31.0362,荆门市,西山林语,,42,27,42,15,26,132,,103,103,11,13,6,7,0.6,0.6
2024-09-12T1600,3547A,112.1632,31.0138,荆门市,龙泉中学南校,,43,29,38,16,21,136,,106,106,9,9,8,9,0.7,0.6
2024-09-12T1600,1844A,112.2494,30.3197,荆州市,市图书馆,,32,19,28,13,23,100,,79,79,16,13,6,7,0.7,0.7
2024-09-12T1600,1845A,112.2008,30.3544,荆州市,市委党校,,30,,39,16,30,96,,80,80,9,11,3,3,0.9,0.9
2024-09-12T1600,3194A,112.2747,30.3122,荆州市,管委会,,32,,28,21,26,101,,81,81,12,10,6,6,0.7,0.6
2024-09-12T1600,3548A,112.1655,30.3364,荆州市,学苑路,,31,,42,18,31,98,,84,84,15,14,14,8,0.8,0.8
2024-09-12T1600,2343A,117.2117,29.2933,景德镇市,老干部活动中心,,21,14,12,3,7,66,,54,54,10,10,8,8,0.5,0.6
2024-09-12T1600,2344A,117.1894,29.2789,景德镇市,兽医站,,21,20,18,3,8,66,,55,55,11,11,12,12,0.6,0.5
2024-09-12T1600,2345A,117.1547,29.2617,景德镇市,台达陶瓷,,22,22,14,11,9,56,,47,47,21,12,38,18,0.6,0.5
2024-09-12T1600,2346A,117.2461,29.2956,景德镇市,陶研所,,19,15,15,3,6,59,,57,57,20,12,4,5,0.6,0.5
2024-09-12T1600,1803A,115.9872,29.6815,九江市,十里,,23,11,9,7,6,73,,64,64,8,15,8,8,0.9,0.8
2024-09-12T1600,1804A,115.9584,29.7046,九江市,茅山头,,19,12,12,9,10,59,,47,47,23,17,6,6,0.9,0.8
2024-09-12T1600,1805A,115.9877,29.7295,九江市,西园,,30,21,16,21,14,68,,56,56,19,14,11,10,0.8,0.7
2024-09-12T1600,1806A,116.0172,29.6547,九江市,五七二七厂,,20,10,6,8,6,64,,55,55,13,13,7,7,0.8,0.7
2024-09-12T1600,1808A,115.9114,29.6038,九江市,综合工业园,,21,9,7,3,3,66,,64,64,24,18,11,9,0.9,0.8
2024-09-12T1600,1809A,116.0721,29.7535,九江市,石化总厂,,26,26,21,14,16,60,,50,50,24,16,10,9,1.0,0.8
2024-09-12T1600,1810A,115.9773,29.5698,九江市,庐山气象台,,24,6,3,3,3,76,,61,61,3,6,9,11,0.4,1
2024-09-12T1600,3190A,116.0254,29.6994,九江市,外国语学校,,27,27,11,14,7,64,,54,54,18,14,8,10,0.8,0.6
2024-09-12T1600,2658A,98.5061,39.7443,酒泉市,仓门街子站,,44,44,53,17,15,94,,88,88,11,11,13,11,0.4,0.3
2024-09-12T1600,2659A,98.4989,39.7256,酒泉市,油田生活基地,,41,41,51,12,21,94,,92,92,17,13,10,11,0.4,0.3
2024-09-12T1600,2698A,76.0072,39.4467,喀什地区,巡警大队,颗粒物(PM10),109,168,183,37,43,,,64,64,6,33,4,4,0.3,0.5
2024-09-12T1600,2699A,75.9755,39.4694,喀什地区,吾办,颗粒物(PM10),111,171,175,57,62,102,,63,63,8,29,5,4,0.3,0.5
2024-09-12T1600,4027A,75.9483,39.4689,喀什地区,老干局,颗粒物(PM10),115,179,188,36,38,99,,63,63,6,26,4,4,0.2,0.4
2024-09-12T1600,1824A,114.3389,34.7781,开封市,肿瘤医院,,36,22,34,10,11,113,,110,110,10,11,8,6,0.4,0.5
2024-09-12T1600,1826A,114.2885,34.7965,开封市,世纪星幼儿园,,,28,32,,8,116,,112,112,10,12,1,5,0.4,0.5
2024-09-12T1600,3147A,114.3438,34.8106,开封市,龙亭公园,,32,18,31,9,9,101,,102,102,12,12,8,6,0.4,0.5
2024-09-12T1600,3210A,114.3644,34.7964,开封市,汴京公园,,34,26,30,8,10,107,,107,107,11,11,6,7,0.5,0.6
2024-09-12T1600,3473A,114.2485,34.8306,开封市,技师学院,,36,22,32,7,10,114,,108,108,8,11,6,8,0.6,0.7
2024-09-12T1600,3592A,114.4644,34.7556,开封市,祥符区生态环境局,,,33,29,,10,113,,104,104,11,12,7,8,0.5,0.6
2024-09-12T1600,1951A,84.895,45.6094,克拉玛依市,长征新村,,30,14,17,10,5,95,,81,67,3,6,6,6,0.2,0.2
2024-09-12T1600,1952A,84.8988,45.5893,克拉玛依市,南林小区,,31,19,16,8,8,97,,78,64,3,8,9,9,0.4,0.5
2024-09-12T1600,1954A,84.905,44.3396,克拉玛依市,独山子区,,34,12,16,6,7,108,,94,94,7,7,7,7,0.3,0.3
2024-09-12T1600,1955A,85.6979,46.098,克拉玛依市,乌尔禾区商贸楼,,27,25,25,3,6,86,,72,72,4,6,14,13,0.2,0.2
2024-09-12T1600,3612A,85.1045,45.6899,克拉玛依市,白碱滩区新站,,29,12,20,6,6,90,,84,65,5,7,7,7,0.3,0.3
2024-09-12T1600,2697A,76.1454,39.7142,克孜勒苏柯尔克孜自治州,市人民政府,颗粒物(PM10),105,160,132,55,45,118,,93,93,1,15,2,4,0.9,0.9
2024-09-12T1600,3665A,76.1658,39.7157,克孜勒苏柯尔克孜自治州,克州文化中心,颗粒物(PM10),110,170,139,60,50,113,,93,93,2,12,5,11,0.6,0.7
2024-09-12T1600,1450A,102.8204,24.8886,昆明市,呈贡新区,,26,26,20,16,10,78,,67,67,9,6,5,6,0.6,0.5
2024-09-12T1600,1452A,102.7252,25.0902,昆明市,龙泉镇,,33,,15,8,9,105,,74,74,7,10,6,5,0.5,0.5
2024-09-12T1600,1453A,102.7266,25.0375,昆明市,东风东路,,26,19,16,7,8,82,,63,63,18,18,5,5,0.4,0.4
2024-09-12T1600,1454A,102.6742,25.0669,昆明市,金鼎山,,30,13,17,9,8,94,,69,69,17,15,9,9,0.4,0.4
2024-09-12T1600,1455A,102.6644,25.0401,昆明市,碧鸡广场,,28,17,18,6,9,88,,64,64,14,15,4,4,0.5,0.5
2024-09-12T1600,3179A,102.7494,25.0119,昆明市,官渡区博物馆,,28,28,20,15,8,81,,63,63,18,22,6,6,0.3,0.4
2024-09-12T1600,3375A,102.8017,24.8336,昆明市,青年创业园,,27,9,10,7,6,86,,70,70,6,7,4,3,0.5,0.5
2024-09-12T1600,3550A,102.7997,24.9786,昆明市,昆明学院,,,25,19,11,10,73,,68,68,19,18,5,5,,0.4
2024-09-12T1600,3551A,102.5967,24.6736,昆明市,晋宁区生态环境分局,,28,13,18,3,6,89,,71,71,5,9,2,3,0.2,0.5
2024-09-12T1600,3552A,102.6678,24.9856,昆明市,云天化总部,,30,16,16,9,10,96,,68,68,11,12,5,6,0.4,0.4
2024-09-12T1600,1456A,91.1319,29.6514,拉萨市,八廓街,,40,,11,9,8,125,,102,102,7,14,8,7,0.1,0.5
2024-09-12T1600,1457A,91.1221,29.6747,拉萨市,市环保局,,38,7,12,7,7,121,,102,102,8,14,8,7,0.0,0.1
2024-09-12T1600,1458A,91.0874,29.6475,拉萨市,区监测站,,33,8,11,3,6,105,,89,89,6,16,8,8,0.1,0.1
2024-09-12T1600,1459A,91.1774,29.6541,拉萨市,西藏大学,,38,7,9,3,6,121,,101,101,4,10,7,7,0.3,0.5
2024-09-12T1600,1460A,90.9798,29.6588,拉萨市,区辐射站,,33,8,11,3,6,104,,88,88,6,16,8,8,0.1,0.2
2024-09-12T1600,1461A,91.0834,29.6292,拉萨市,拉萨火车站,,32,7,9,3,6,102,,89,89,6,12,5,5,0.1,0.2
2024-09-12T1600,2520A,109.2203,23.7256,来宾市,来宾技工学校,,40,40,32,25,18,119,,92,92,7,15,5,11,1.0,0.9
2024-09-12T1600,3535A,109.1781,23.7297,来宾市,兴宾区政府,,35,28,24,18,10,112,,92,92,3,6,6,7,0.7,0.7
2024-09-12T1600,4002A,109.2416,23.7461,来宾市,中南小学,,44,35,32,30,15,138,,105,105,6,14,4,7,0.8,0.7
2024-09-12T1600,1476A,103.631,36.1031,兰州市,兰炼宾馆,,35,32,40,24,28,86,,71,71,7,18,4,8,0.4,0.6
2024-09-12T1600,1478A,103.8412,36.0726,兰州市,生物制品所,,28,25,41,19,29,80,,60,60,8,40,10,11,0.4,0.6
2024-09-12T1600,1479A,103.831,36.0464,兰州市,铁路设计院,,38,38,47,24,32,67,,50,50,22,39,14,8,0.5,0.6
2024-09-12T1600,3186A,103.7158,36.1058,兰州市,教育港,,42,42,51,26,36,86,,66,66,5,27,5,8,0.4,0.5
2024-09-12T1600,3241A,103.7439,36.0842,兰州市,百合公园,,36,36,46,12,24,87,,66,66,8,32,10,7,0.4,0.7
2024-09-12T1600,3242A,103.9611,35.998,兰州市,和平,,33,33,45,20,24,76,,65,65,13,33,18,10,0.6,0.7
2024-09-12T1600,3245A,103.6633,36.533,兰州新区,新区管委会,,24,24,32,16,20,75,,71,71,7,12,7,10,0.4,0.5
2024-09-12T1600,3246A,103.6975,36.4789,兰州新区,舟曲中学,,25,19,23,8,13,80,,78,78,9,15,6,8,0.4,0.5
2024-09-12T1600,1067A,116.6708,39.5111,廊坊市,药材公司,,43,20,29,10,10,135,,76,76,8,33,2,2,0.4,0.4
2024-09-12T1600,1068A,116.7214,39.5589,廊坊市,开发区,,44,18,25,3,10,139,,76,76,10,28,2,2,0.3,0.4
2024-09-12T1600,1070A,116.7244,39.5269,廊坊市,北华航天学院,,44,25,39,10,9,138,,80,80,5,30,3,3,0.3,0.4
2024-09-12T1600,2919A,116.7022,39.5453,廊坊市,河北工业大学,,42,32,35,9,13,133,,75,75,8,33,2,2,0.3,0.3
2024-09-12T1600,2535A,103.7723,29.5462,乐山市,花湖湾,细颗粒物(PM2.5),52,,17,36,24,138,,82,82,6,13,6,5,0.4,0.5
2024-09-12T1600,2536A,103.7627,29.5844,乐山市,牛耳桥,,43,26,33,21,25,136,,86,86,9,21,2,3,0.5,0.5
2024-09-12T1600,2537A,103.7508,29.6006,乐山市,市第三水厂,,45,29,35,22,27,144,,94,94,7,23,2,3,0.4,0.5
2024-09-12T1600,2538A,103.7571,29.5664,乐山市,市监测站,,42,37,32,24,24,133,,88,88,9,16,3,3,0.5,0.5
2024-09-12T1600,3361A,103.7311,29.5628,乐山市,理工大学,,48,33,29,27,23,151,,94,94,6,15,1,1,0.6,0.6
2024-09-12T1600,2599A,100.2497,26.8802,丽江市,丽江古城,,27,13,18,10,13,86,,82,82,6,14,8,8,0.6,0.7
2024-09-12T1600,2600A,100.2203,26.8906,丽江市,市中心,,27,7,13,3,8,84,,82,82,7,14,11,10,0.6,0.6
2024-09-12T1600,1267A,119.914,28.4514,丽水市,监测站大楼,,30,22,25,16,14,96,,97,97,4,14,3,4,0.3,0.5
2024-09-12T1600,1268A,119.93,28.4586,丽水市,莲都小学,,38,38,28,14,17,101,,98,98,4,11,4,4,0.4,0.5
2024-09-12T1600,1269A,119.879,28.4231,丽水市,余庄前,,30,30,28,17,17,95,,97,97,4,13,4,4,0.3,0.5
2024-09-12T1600,1173A,119.176,34.5885,连云港市,市环境监测站,,17,7,9,3,5,54,,57,53,8,10,3,4,0.3,0.3
2024-09-12T1600,3000A,119.3581,34.6972,连云港市,德源药业,,22,14,8,3,4,70,,70,,3,2,3,4,0.2,0.3
2024-09-12T1600,3007A,119.178,34.844,连云港市,新城一中,,27,25,25,9,11,85,,72,72,6,11,3,3,0.7,0.8
2024-09-12T1600,3008A,119.3608,34.7519,连云港市,胡沟管理处,,26,12,14,3,5,81,,82,76,1,2,4,4,0.7,0.7
2024-09-12T1600,3009A,119.1478,34.5911,连云港市,矿山设计院,,19,7,9,3,5,58,,60,59,8,8,4,4,0.6,0.6
2024-09-12T1600,3434A,119.2413,34.6539,连云港市,工贸学校,,21,12,11,8,7,65,,64,64,6,7,6,6,0.6,0.6
2024-09-12T1600,3664A,119.4172,34.7341,连云港市,连云街道,,20,11,14,6,8,62,,65,61,9,7,3,4,0.6,0.6
2024-09-12T1600,2571A,102.3431,27.8099,凉山彝族自治州,青龙寺,,33,13,20,7,8,104,,83,83,4,7,11,9,0.7,0.8
2024-09-12T1600,2572A,102.2721,27.8415,凉山彝族自治州,邛海宾馆,,31,24,19,17,12,98,,82,82,9,13,14,12,0.5,0.6
2024-09-12T1600,2573A,102.2625,27.898,凉山彝族自治州,西昌市政府,,32,22,17,22,14,93,,84,84,11,8,17,9,1.1,0.5
2024-09-12T1600,2574A,102.2685,27.8851,凉山彝族自治州,凉山州政府,,30,29,22,16,10,95,,82,82,14,11,17,9,1.0,0.7
2024-09-12T1600,2575A,102.237,27.8914,凉山彝族自治州,长安,,30,20,16,12,12,94,,75,75,8,12,13,10,0.9,0.8
2024-09-12T1600,2212A,123.2,41.1953,辽阳市,宏伟区,,,40,56,22,20,123,,62,62,11,30,14,14,,1.4
2024-09-12T1600,2213A,123.1683,41.2495,辽阳市,新华园,,38,37,46,18,16,120,,63,63,11,32,14,26,0.7,0.9
2024-09-12T1600,2214A,123.2354,41.2639,辽阳市,滨河路,,40,23,48,8,18,128,,70,70,9,24,13,22,0.7,0.9
2024-09-12T1600,2215A,123.149,41.2991,辽阳市,铁西工业园,,39,30,40,8,14,123,,66,66,9,24,16,17,0.9,1
2024-09-12T1600,2227A,125.1358,42.8845,辽源市,环保局,,25,16,26,3,10,80,,63,63,9,14,6,7,0.5,0.7
2024-09-12T1600,3239A,125.0764,42.9078,辽源市,银鹰制药,,24,9,29,3,12,74,,60,60,14,20,5,8,0.6,0.7
2024-09-12T1600,1625A,115.9848,36.4372,聊城市,区政府,,40,34,32,7,11,128,,94,94,12,15,14,13,0.5,0.5
2024-09-12T1600,2878A,116.0072,36.4343,聊城市,聊大东校,,42,36,34,17,16,132,,98,98,12,16,12,11,0.4,0.4
2024-09-12T1600,3200A,115.9819,36.4978,聊城市,监控中心,,42,22,27,9,9,134,,95,95,10,16,10,9,0.3,0.3
2024-09-12T1600,3513A,116.0445,36.4361,聊城市,九州社区,,41,32,34,11,12,130,,102,102,3,10,5,5,0.3,0.5
2024-09-12T1600,4018A,116.0567,36.4608,聊城市,星美广场,,40,26,33,16,10,127,,96,96,11,14,11,10,0.4,0.4
2024-09-12T1600,2632A,94.3681,29.6376,林芝市,林芝监测站,,32,7,6,3,4,101,,90,84,2,3,9,10,0.2,0.2
2024-09-12T1600,2633A,94.3616,29.6616,林芝市,林芝人民医院,,33,6,8,3,4,103,,91,87,4,5,8,8,0.2,0.3
2024-09-12T1600,2603A,100.0781,23.8982,临沧市,市环保局,,20,15,16,14,17,48,,49,49,6,7,4,5,0.3,0.4
2024-09-12T1600,2604A,100.0894,23.8822,临沧市,市气象局,,15,9,13,8,11,48,,47,46,6,7,4,4,0.3,0.4
2024-09-12T1600,1733A,111.5531,36.0783,临汾市,临钢医院,,48,33,39,12,14,152,,129,129,19,17,6,10,0.5,0.9
2024-09-12T1600,1734A,111.5028,36.0714,临汾市,技工学校,,50,27,42,9,13,158,,128,128,8,17,6,12,0.8,0.9
2024-09-12T1600,1736A,111.5018,36.0855,临汾市,市委,臭氧1小时,60,19,30,8,8,168,,138,138,8,15,7,12,0.5,0.6
2024-09-12T1600,3018A,111.505,36.1014,临汾市,唐尧大酒店,,49,26,36,3,11,155,,128,128,8,16,5,11,0.6,0.7
2024-09-12T1600,2667A,103.2069,35.5993,临夏回族自治州,环保局,,39,39,37,24,24,81,,62,62,5,11,8,8,0.5,0.5
2024-09-12T1600,2668A,103.2417,35.6057,临夏回族自治州,建设大厦,,36,36,36,21,15,85,,65,65,5,16,9,8,0.5,0.5
2024-09-12T1600,1618A,118.3429,35.0532,临沂市,沂河小区,,27,27,32,13,19,73,,72,72,11,11,7,6,0.3,0.4
2024-09-12T1600,1619A,118.295,35.0583,临沂市,鲁南制药厂,,27,24,26,13,16,86,,84,84,12,12,5,4,0.3,0.4
2024-09-12T1600,1620A,118.2794,34.9976,临沂市,新光毛纺厂,,20,17,21,12,16,64,,72,72,19,16,7,4,0.6,0.7
2024-09-12T1600,1621A,118.3956,35.0888,临沂市,河东保险公司,,29,24,31,20,24,69,,68,68,14,15,6,6,0.5,0.6
2024-09-12T1600,3370A,118.3564,35.0215,临沂市,十里堡居委,,20,,20,12,16,63,,70,70,9,12,8,7,0.6,0.7
2024-09-12T1600,3496A,118.3604,35.1084,临沂市,南坊新区,,34,34,32,7,15,79,,78,78,12,13,8,7,0.6,0.7
2024-09-12T1600,3860A,118.3920,35.0300,临沂市,皇山花园小区,,19,17,30,12,20,59,,63,63,14,16,8,6,0.6,0.7
2024-09-12T1600,1870A,109.4856,24.3895,柳州市,柳东小学,,34,30,24,18,13,108,,85,85,6,13,7,9,0.7,0.7
2024-09-12T1600,1871A,109.4157,24.3277,柳州市,环保监测站,,35,35,31,24,16,110,,93,93,6,13,8,10,0.7,0.8
2024-09-12T1600,1872A,109.389,24.341,柳州市,河西水厂,,40,40,40,23,19,105,,87,87,7,14,9,13,0.9,1
2024-09-12T1600,1873A,109.4311,24.2921,柳州市,市四中,颗粒物(PM10),51,51,30,21,15,126,,101,101,6,13,6,8,0.8,0.8
2024-09-12T1600,1874A,109.4006,24.3631,柳州市,市九中,,39,39,35,21,17,106,,92,92,5,13,6,9,0.5,0.7
2024-09-12T1600,1875A,109.4958,24.3134,柳州市,古亭山,,42,42,28,23,15,113,,92,92,5,13,6,8,0.8,0.7
2024-09-12T1600,3402A,109.5422,24.3996,柳州市,市二中,,34,29,29,22,16,108,,87,87,6,18,7,8,0.7,0.7
2024-09-12T1600,2307A,116.5079,31.737,六安市,监测大楼,,,,11,,17,48,,41,38,8,6,5,4,,0.6
2024-09-12T1600,2308A,116.4738,31.7643,六安市,皖西学院,,16,,15,8,14,50,,40,38,7,7,4,4,0.4,0.4
2024-09-12T1600,2309A,116.4996,31.7905,六安市,朝阳厂,,30,30,11,16,12,45,,41,36,6,5,3,3,0.5,0.4
2024-09-12T1600,2310A,116.5567,31.7886,六安市,开发区,,18,15,12,12,12,47,,43,37,10,8,3,3,0.6,0.5
2024-09-12T1600,2577A,104.83,26.5917,六盘水市,黄土坡,,27,,19,8,15,84,,54,54,4,17,6,10,0.3,0.5
2024-09-12T1600,2578A,104.89,26.5939,六盘水市,水钢,,27,22,32,6,19,85,,53,53,4,22,9,8,0.4,1
2024-09-12T1600,2579A,104.8475,26.5894,六盘水市,民中,,27,13,19,3,10,84,,54,54,5,23,7,8,0.3,0.7
2024-09-12T1600,2580A,104.9544,26.5506,六盘水市,双水,,23,19,20,6,8,72,,53,53,3,14,6,6,0.4,0.5
2024-09-12T1600,2336A,117.0217,25.1033,龙岩市,龙岩市监测站,,26,17,31,17,24,83,,98,98,16,16,7,7,0.4,0.5
2024-09-12T1600,2337A,117.0258,25.0661,龙岩市,闽西职业技术学院,,25,25,39,17,24,79,,104,104,13,18,9,14,0.5,0.5
2024-09-12T1600,2338A,117.0196,25.0306,龙岩市,龙岩学院,,24,17,30,15,19,76,,99,99,8,10,4,4,0.5,0.5
2024-09-12T1600,2885A,104.9339,33.3826,陇南市,滨江中学,,34,34,35,7,13,104,,101,99,4,6,6,6,0.6,0.6
2024-09-12T1600,3247A,104.955,33.371,陇南市,市总工会,,34,24,26,7,7,106,,104,102,3,4,8,8,0.5,0.5
2024-09-12T1600,2487A,111.9589,27.8901,娄底市,电视发射台,,41,41,38,19,20,54,,69,63,6,5,8,7,0.6,0.6
2024-09-12T1600,2488A,111.9975,27.725,娄底市,市监测站,,49,40,34,34,22,78,,77,77,6,8,4,5,0.5,0.5
2024-09-12T1600,2489A,112.0194,27.7314,娄底市,市委党校,,37,37,35,22,23,60,,69,69,8,6,7,6,0.5,0.5
2024-09-12T1600,2490A,111.9561,27.7569,娄底市,涟钢,,,,40,,26,62,,62,62,9,11,7,4,,0.9
2024-09-12T1600,2491A,111.9892,27.7044,娄底市,市政府,,42,36,33,29,23,71,,78,78,12,9,3,4,0.6,0.5
2024-09-12T1600,1893A,105.4324,28.9634,泸州市,九狮山,,34,,16,16,16,106,,90,90,9,13,5,7,0.5,0.4
2024-09-12T1600,1894A,105.4427,28.9063,泸州市,小市上码头,,36,33,29,11,13,113,,99,99,6,14,4,4,0.3,0.4
2024-09-12T1600,1895A,105.4241,28.8573,泸州市,兰田宪桥,,34,24,27,11,17,107,,88,88,3,12,4,4,0.3,0.4
2024-09-12T1600,1896A,105.4379,28.8833,泸州市,市环监站,,34,23,30,23,21,108,,93,93,4,14,5,6,0.3,0.4
2024-09-12T1600,3490A,105.3617,28.7703,泸州市,纳溪区环保局,,33,20,27,20,25,105,,90,90,5,14,5,5,0.2,0.3
2024-09-12T1600,2183A,111.1406,37.5211,吕梁市,环保局,,40,30,48,17,13,127,,92,92,5,27,8,5,0.6,0.6
2024-09-12T1600,2185A,111.1297,37.5136,吕梁市,自来水公司,,41,30,49,7,11,130,,97,97,6,24,6,4,0.5,0.6
2024-09-12T1600,2867A,111.1283,37.51,吕梁市,马茂庄小学,,41,31,49,16,14,130,,98,98,11,31,5,6,0.5,0.6
2024-09-12T1600,1812A,112.3931,34.6516,洛阳市,市委党校,臭氧1小时,57,33,34,12,15,165,,139,139,5,11,9,9,0.6,0.6
2024-09-12T1600,1814A,112.4657,34.6871,洛阳市,豫西宾馆,臭氧1小时,58,40,40,12,13,166,,134,134,6,14,10,9,0.5,0.5
2024-09-12T1600,1815A,112.494,34.6886,洛阳市,河南林校,,,30,34,12,13,171,,147,147,,14,10,9,0.7,0.6
2024-09-12T1600,1816A,112.3844,34.623,洛阳市,开发区管委会,臭氧1小时,52,29,29,13,13,161,,135,135,6,11,6,5,0.5,0.4
2024-09-12T1600,1817A,112.4267,34.6258,洛阳市,市委新办公区,臭氧1小时,53,26,31,13,16,162,,134,134,2,8,5,5,0.7,0.6
2024-09-12T1600,3340A,112.6005,34.6326,洛阳市,伊滨,臭氧1小时,73,50,32,13,14,178,,143,143,1,14,10,9,0.5,0.5
2024-09-12T1600,3341A,112.4951,34.6332,洛阳市,中移产业园,臭氧1小时,77,28,33,14,13,181,,143,143,5,13,7,6,0.7,0.6
2024-09-12T1600,3593A,112.5736,34.8993,洛阳市,吉利监测站,,49,40,38,10,13,154,,135,135,5,12,7,8,0.4,0.4
2024-09-12T1600,3635A,112.3677,34.662,洛阳市,河科大西苑校区,臭氧1小时,59,33,33,8,12,167,,140,140,6,11,7,7,0.7,0.6
2024-09-12T1600,3636A,112.4388,34.6781,洛阳市,英才小学,臭氧1小时,60,26,32,10,13,168,,136,136,6,14,6,5,0.6,0.5
2024-09-12T1600,2399A,114.051,33.5699,漯河市,三五一五工厂,,39,39,36,10,15,108,,103,103,12,9,5,7,0.6,0.7
2024-09-12T1600,2400A,114.0055,33.5698,漯河市,漯河大学,,36,32,34,14,17,114,,107,107,10,9,4,5,0.6,0.6
2024-09-12T1600,2401A,114.0138,33.5828,漯河市,市水利局,,41,41,36,12,15,110,,103,103,7,6,4,5,0.9,0.9
2024-09-12T1600,2402A,114.0261,33.5698,漯河市,市广电局,,35,34,33,3,13,112,,106,106,8,6,6,7,0.7,0.7
2024-09-12T1600,3478A,113.9749,33.5664,漯河市,市图书馆,,37,31,33,11,14,117,,110,110,8,9,6,7,0.5,0.6
2024-09-12T1600,3479A,114.0967,33.5906,漯河市,召陵区卫健委,,32,30,36,20,20,100,,98,98,10,6,4,5,0.7,0.7
2024-09-12T1600,1798A,118.5092,31.6837,马鞍山市,湖东路四小,,34,24,21,9,6,107,,82,82,9,11,6,6,0.6,0.6
2024-09-12T1600,1799A,118.5024,31.6449,马鞍山市,开发区,,39,28,13,13,6,124,,81,81,8,11,5,5,1.0,0.8
2024-09-12T1600,1800A,118.5228,31.7231,马鞍山市,慈湖,,31,23,16,11,8,99,,81,81,14,10,7,7,0.7,0.7
2024-09-12T1600,3633A,118.4918,31.6809,马鞍山市,雨山,,37,22,12,11,6,118,,80,80,5,9,7,7,0.9,0.8
2024-09-12T1600,1686A,111.0286,21.4688,茂名市,电白南海,,30,19,33,12,20,93,,101,101,4,9,10,14,0.6,0.7
2024-09-12T1600,1687A,110.9294,21.6533,茂名市,茂石化七小,,38,34,34,22,20,119,,100,100,7,10,8,16,0.6,0.6
2024-09-12T1600,1688A,110.9107,21.6687,茂名市,健康路,,40,31,28,19,16,128,,105,105,2,6,12,24,0.6,0.7
2024-09-12T1600,1689A,110.8592,21.6828,茂名市,高岭,,40,31,34,27,19,125,,98,98,13,14,9,16,0.5,0.7
2024-09-12T1600,3450A,111.01,21.5165,茂名市,电白水东,,32,19,27,17,22,101,,97,97,5,9,6,13,0.4,0.5
2024-09-12T1600,2539A,104.0308,30.0478,眉山市,黑龙滩水库,,,32,33,21,20,145,,114,114,,4,,3,0.4,0.5
2024-09-12T1600,2540A,103.8416,30.0874,眉山市,气象局,,49,26,37,24,24,155,,98,98,11,22,6,6,0.5,0.5
2024-09-12T1600,3137A,103.8578,30.0744,眉山市,市委党校,,49,34,32,24,20,156,,104,104,10,19,7,8,0.5,0.6
2024-09-12T1600,3148A,103.8291,30.0564,眉山市,区人社局,臭氧1小时,52,36,26,19,18,161,,110,110,13,26,8,10,0.5,0.6
2024-09-12T1600,1690A,116.1231,24.3284,梅州市,梅江月梅,,48,48,40,33,25,117,,98,98,5,11,7,7,0.5,0.5
2024-09-12T1600,1691A,116.0797,24.2719,梅州市,梅县新城,,36,36,37,25,21,85,,103,103,8,17,4,5,0.4,0.5
2024-09-12T1600,1692A,116.1248,24.2654,梅州市,环境监控中心,,34,34,38,22,20,79,,93,93,8,22,4,8,0.6,0.6
2024-09-12T1600,3315A,116.1233,24.2991,梅州市,梅龙,,40,31,33,28,22,110,,100,100,7,14,9,9,0.6,0.6
2024-09-12T1600,1878A,104.7778,31.4741,绵阳市,富乐山,,45,26,19,17,14,142,,101,101,9,9,2,2,0.6,0.5
2024-09-12T1600,1879A,104.7563,31.4535,绵阳市,市人大,,44,25,20,20,14,140,,107,107,16,16,9,8,0.5,0.5
2024-09-12T1600,1880A,104.6697,31.4668,绵阳市,高新区自来水公司,,43,27,24,12,11,135,,99,99,10,18,3,3,0.5,0.5
2024-09-12T1600,1881A,104.7287,31.5075,绵阳市,三水厂,,46,17,24,17,16,147,,101,101,8,16,4,4,0.6,0.6
2024-09-12T1600,3491A,104.69,31.5322,绵阳市,西科大附属小学,,40,24,28,17,15,128,,94,94,9,21,3,4,0.4,0.4
2024-09-12T1600,3492A,104.5648,31.5343,绵阳市,安州区旅游局,,39,,16,17,16,124,,92,92,7,15,6,6,0.5,0.5
2024-09-12T1600,1784A,129.61,44.561,牡丹江市,环保大楼,,23,23,25,16,12,66,,56,56,10,13,7,7,0.3,0.3
2024-09-12T1600,1785A,129.6115,44.5782,牡丹江市,文化广场,,45,,31,31,19,63,,54,54,12,17,8,8,0.2,0.3
2024-09-12T1600,1786A,129.5904,44.5963,牡丹江市,第一医院,,27,27,28,12,17,67,,55,55,13,15,6,6,0.3,0.3
2024-09-12T1600,1787A,129.6364,44.6075,牡丹江市,机车工厂,,25,25,35,13,22,62,,52,52,13,12,6,20,0.2,0.4
2024-09-12T1600,1788A,129.6386,44.5462,牡丹江市,第一中学,,24,19,26,14,13,74,,62,62,8,9,6,6,0.2,0.2
2024-09-12T1600,2531A,105.0703,29.61,内江市,市监测站,,50,24,15,22,16,159,,117,117,10,11,4,3,0.3,0.4
2024-09-12T1600,2532A,105.0717,29.5947,内江市,东兴区政府,,46,21,19,13,10,146,,118,118,13,17,3,3,0.5,0.5
2024-09-12T1600,2533A,105.0653,29.5817,内江市,内江二中,,47,19,16,17,17,149,,112,112,8,13,7,6,0.4,0.5
2024-09-12T1600,2534A,105.0406,29.5822,内江市,内江日报社,,47,24,22,20,18,148,,108,108,16,22,5,4,0.4,0.4
2024-09-12T1600,2628A,92.0657,31.4846,那曲市,那曲监测站,颗粒物(PM10),51,51,28,11,13,64,,71,68,5,8,7,7,0.5,0.6
2024-09-12T1600,3128A,92.0506,31.4797,那曲市,那曲会议中心,,50,50,27,8,10,76,,80,77,14,13,5,5,0.4,0.5
2024-09-12T1600,1290A,115.8931,28.6843,南昌市,省外办,,28,27,16,12,10,87,,66,66,20,17,8,8,0.7,0.6
2024-09-12T1600,1291A,115.8886,28.7003,南昌市,省林业公司,,31,19,9,7,6,97,,69,69,12,11,5,5,0.8,0.7
2024-09-12T1600,1292A,115.8126,28.7442,南昌市,林科所,,27,9,4,3,2,85,,58,58,21,17,7,8,0.7,0.6
2024-09-12T1600,1294A,115.8518,28.687,南昌市,建工学校,,28,9,9,3,8,88,,67,67,14,8,8,8,0.7,0.6
2024-09-12T1600,1295A,115.8921,28.6424,南昌市,象湖,,32,14,12,11,6,100,,73,73,14,11,4,4,0.7,0.5
2024-09-12T1600,1296A,115.7423,28.7996,南昌市,武术学校,,20,16,14,14,11,64,,54,54,3,4,2,2,0.6,0.6
2024-09-12T1600,1298A,115.9314,28.6842,南昌市,省站,,27,17,16,3,8,86,,70,70,12,5,8,6,0.7,0.7
2024-09-12T1600,3046A,115.9084,28.6062,南昌市,机电学校,,37,37,17,12,7,84,,63,63,19,12,10,7,0.9,0.5
2024-09-12T1600,3690A,115.9721,28.7031,南昌市,外国语学校,,30,19,12,3,6,96,,72,72,10,14,6,6,0.6,0.5
2024-09-12T1600,1905A,106.056,30.8064,南充市,西山风景区,,48,,23,21,23,151,,117,117,4,7,2,1,0.7,0.8
2024-09-12T1600,1906A,106.0789,30.8023,南充市,南充市委,,50,40,33,25,23,160,,127,127,8,14,4,3,0.3,0.4
2024-09-12T1600,1907A,106.1031,30.8217,南充市,南充炼油厂,臭氧1小时,60,22,32,21,22,168,,130,130,7,12,4,3,0.5,0.5
2024-09-12T1600,1908A,106.1064,30.7856,南充市,高坪区监测站,,50,26,32,24,23,158,,125,125,11,17,5,4,0.3,0.4
2024-09-12T1600,1909A,106.0642,30.7636,南充市,嘉陵区环保局,,49,32,29,12,21,154,,127,127,7,16,5,4,0.3,0.4
2024-09-12T1600,1910A,106.1087,30.8388,南充市,市环境监测站,臭氧1小时,52,38,35,25,25,161,,134,134,10,15,4,3,0.3,0.4
2024-09-12T1600,1151A,118.8086,32.1065,南京市,迈皋桥,,31,8,8,3,5,98,,26,,9,13,6,4,0.3,0.3
2024-09-12T1600,1152A,118.7538,32.0551,南京市,草场门,,29,12,9,7,4,92,,74,74,8,12,5,5,0.3,0.4
2024-09-12T1600,1153A,118.7794,32.0745,南京市,山西路,,33,14,9,9,5,103,,82,82,2,6,4,4,0.3,0.3
2024-09-12T1600,1154A,118.7752,32.0023,南京市,中华门,,27,7,6,3,3,86,,69,69,11,14,6,5,0.5,0.4
2024-09-12T1600,1155A,118.8109,32.0309,南京市,瑞金路,,31,12,7,7,5,97,,84,84,2,3,4,4,0.4,0.5
2024-09-12T1600,1156A,118.7997,32.0754,南京市,玄武湖,,33,10,13,3,3,104,,82,82,2,11,5,5,0.5,0.4
2024-09-12T1600,1157A,118.6414,32.0931,南京市,浦口,,28,,10,18,13,89,,66,66,4,10,3,3,0.6,0.7
2024-09-12T1600,1158A,118.7356,31.9996,南京市,奥体中心,,30,,8,12,7,95,,76,76,4,10,3,4,0.3,0.3
2024-09-12T1600,1159A,118.9125,32.1028,南京市,仙林大学城,,34,,11,14,12,106,,85,85,5,11,7,7,0.5,0.5
2024-09-12T1600,3422A,118.8436,31.9198,南京市,江宁彩虹桥,,32,12,11,7,5,101,,82,82,2,9,4,4,0.6,0.6
2024-09-12T1600,3423A,119.0138,31.6494,南京市,溧水永阳,,,,8,10,8,93,,79,79,,11,4,4,0.4,0.5
2024-09-12T1600,3424A,118.879,31.3302,南京市,高淳老职中,,31,18,9,13,7,99,,82,82,4,9,5,3,0.3,0.4
2024-09-12T1600,3427A,118.8554,32.3578,南京市,六合雄州,,34,16,9,14,6,108,,74,74,8,8,7,6,0.4,0.4
2024-09-12T1600,1401A,108.3103,22.7881,南宁市,二十一中,,49,49,32,28,20,124,,77,77,11,20,8,10,0.8,0.8
2024-09-12T1600,1402A,108.3141,22.8528,南宁市,北湖,,49,49,33,24,20,96,,78,78,14,19,5,9,0.7,0.7
2024-09-12T1600,1403A,108.3206,22.8225,南宁市,市监测站,颗粒物(PM10),56,61,32,24,22,94,,70,70,25,31,8,9,0.7,0.7
2024-09-12T1600,1404A,108.3829,22.8037,南宁市,大自然花园,,41,41,26,23,18,116,,90,90,12,19,6,5,0.6,0.6
2024-09-12T1600,1405A,108.4394,22.7904,南宁市,仙葫,,43,43,28,30,20,102,,82,82,12,22,7,8,0.8,0.8
2024-09-12T1600,1406A,108.2397,22.8467,南宁市,区农职院,,34,34,39,22,22,100,,56,56,8,14,4,14,0.8,0.8
2024-09-12T1600,1407A,108.3275,22.735,南宁市,英华嘉园,,44,44,32,24,16,129,,67,67,14,25,5,5,0.7,0.7
2024-09-12T1600,1408A,108.2257,22.7757,南宁市,沙井镇街道办,,48,44,32,33,18,120,,74,74,9,16,13,6,0.8,0.7
2024-09-12T1600,3401A,108.4834,22.7618,南宁市,红星社区,,45,45,27,20,20,141,,105,105,10,14,6,6,0.6,0.5
2024-09-12T1600,2332A,118.1681,26.6369,南平市,南平市监测站,,,35,43,,44,106,,97,97,6,17,6,5,,0.7
2024-09-12T1600,2333A,118.1825,26.6489,南平市,南平铝业有限公司,,35,20,33,19,23,111,,100,100,4,18,5,7,0.5,0.6
2024-09-12T1600,2334A,118.1756,26.6272,南平市,南平七中,,42,42,32,24,23,113,,99,99,3,13,2,3,0.5,0.6
2024-09-12T1600,1168A,120.9098,31.9663,南通市,狼山街道,臭氧1小时,54,20,11,11,5,163,,125,125,6,8,7,7,0.5,0.5
2024-09-12T1600,1169A,120.86,32.0005,南通市,虹桥,臭氧1小时,57,26,16,11,6,165,,131,131,5,8,6,6,0.4,0.5
2024-09-12T1600,1170A,120.87,32.02,南通市,城中,臭氧1小时,59,32,19,12,5,167,,128,128,6,9,6,6,0.6,0.5
2024-09-12T1600,1171A,120.94,31.93,南通市,星湖花园,臭氧1小时,60,22,11,18,6,168,,127,127,10,13,6,5,0.6,0.5
2024-09-12T1600,1172A,120.81,32.0417,南通市,紫琅学院,,48,20,11,14,5,153,,124,124,28,15,8,8,0.4,0.4
2024-09-12T1600,3291A,121.067,32.062,南通市,通州监测站,臭氧1小时,60,29,17,19,6,168,,130,130,8,8,4,4,0.5,0.5
2024-09-12T1600,3432A,120.9348,31.9883,南通市,环境教育馆,臭氧1小时,60,27,18,14,4,168,,130,130,8,9,4,4,0.4,0.4
2024-09-12T1600,2404A,112.5224,33.0122,南阳市,瓦房庄,,49,47,39,26,17,156,,146,146,12,12,5,4,0.6,0.5
2024-09-12T1600,2405A,112.5003,32.9735,南阳市,汉画馆,,47,40,39,26,22,148,,134,134,14,14,8,7,0.6,0.5
2024-09-12T1600,2406A,112.5573,33.027,南阳市,气象站,,48,39,37,14,14,152,,142,142,12,13,9,7,0.7,0.7
2024-09-12T1600,2407A,112.5481,32.9689,南阳市,理工学院,,47,41,37,18,12,150,,136,136,11,13,7,7,0.6,0.5
2024-09-12T1600,4008A,112.5234,32.9922,南阳市,卧龙区政府,,47,44,39,24,18,149,,136,136,16,15,4,4,0.6,0.6
2024-09-12T1600,1234A,121.8358,29.911,宁波市,区环保大楼,,15,7,24,3,15,48,,87,84,7,12,2,3,0.5,0.5
2024-09-12T1600,1235A,121.56,29.82,宁波市,万里学院,,29,26,25,14,19,91,,102,102,7,19,10,10,0.5,0.6
2024-09-12T1600,1236A,121.713,29.9572,宁波市,龙赛医院,,21,21,18,10,11,61,,96,94,5,10,7,7,0.6,0.6
2024-09-12T1600,1239A,121.633,29.7733,宁波市,钱湖水厂,,22,11,23,7,16,70,,98,97,4,12,8,8,0.6,0.6
2024-09-12T1600,1240A,121.5856,29.8635,宁波市,太古小学,,24,14,27,14,16,75,,97,97,7,16,6,6,0.7,0.9
2024-09-12T1600,1241A,121.524,29.8674,宁波市,市环境监测中心,,30,28,26,13,15,96,,108,108,11,18,8,7,0.7,0.8
2024-09-12T1600,2871A,121.6147,29.9017,宁波市,万里国际学校,,25,,19,16,16,77,,103,103,6,13,7,7,0.4,0.5
2024-09-12T1600,3710A,121.5594,29.8975,宁波市,白沙活动中心,,29,29,23,12,14,89,,104,104,8,16,7,7,0.3,0.4
2024-09-12T1600,2341A,119.5388,26.6612,宁德市,宁德市监测站,,29,28,40,20,27,77,,92,92,6,10,6,7,0.3,0.5
2024-09-12T1600,3209A,119.5231,26.6562,宁德市,宁德一中,,32,32,42,19,35,82,,93,93,4,7,4,6,0.3,0.5
2024-09-12T1600,2618A,98.8601,25.8567,怒江傈僳族自治州,州监测站,,24,18,26,12,14,76,,57,57,8,14,4,4,0.4,0.4
2024-09-12T1600,2619A,98.8546,25.8417,怒江傈僳族自治州,泸水一中,,22,22,24,13,12,68,,50,50,12,18,6,6,0.4,0.4
2024-09-12T1600,1888A,101.6891,26.571,攀枝花市,弄弄坪,,38,38,52,15,23,101,,82,82,18,24,36,33,1.7,2.1
2024-09-12T1600,1889A,101.5769,26.5928,攀枝花市,河门口,,32,15,20,12,13,102,,82,82,8,13,7,7,0.6,0.7
2024-09-12T1600,1890A,101.7169,26.585,攀枝花市,炳草岗,,50,50,36,19,22,124,,94,94,26,25,57,26,2.5,1.8
2024-09-12T1600,1891A,101.7369,26.5008,攀枝花市,仁和,,35,24,31,15,18,112,,96,96,8,14,8,10,0.9,1.1
2024-09-12T1600,2835A,101.7227,26.567,攀枝花市,四十中小,,37,30,28,21,18,118,,92,92,12,20,36,33,1.7,2
2024-09-12T1600,1604A,122.0303,41.1489,盘锦市,开发区,,40,26,25,6,11,128,,92,92,11,17,6,8,0.2,0.3
2024-09-12T1600,1605A,122.0485,41.0883,盘锦市,兴隆台,,41,28,23,7,10,131,,93,93,18,23,11,10,0.4,0.4
2024-09-12T1600,1606A,121.8297,41.1028,盘锦市,新生街道,,,9,19,3,9,106,,87,87,,20,,8,0.3,0.3
2024-09-12T1600,1833A,113.2919,33.737,平顶山市,规划设计院,,40,36,32,8,11,127,,121,121,16,20,8,9,0.6,0.6
2024-09-12T1600,1834A,113.182,33.774,平顶山市,平顶山工学院,,41,35,31,7,11,130,,127,127,9,11,7,8,0.8,0.8
2024-09-12T1600,3204A,113.3025,33.73,平顶山市,规划局,,39,24,40,19,18,124,,117,117,9,10,4,5,0.5,0.5
2024-09-12T1600,3594A,112.8867,33.9116,平顶山市,石龙区,,49,44,48,9,13,156,,132,132,10,14,13,12,0.6,0.6
2024-09-12T1600,2656A,106.6692,35.5461,平凉市,聚贤嘉苑,,40,40,47,17,24,94,,82,82,16,18,6,7,0.6,0.7
2024-09-12T1600,2657A,106.7021,35.5307,平凉市,博物馆,,44,44,53,24,26,100,,84,84,15,20,10,9,0.7,0.6
2024-09-12T1600,2347A,114.0997,27.5002,萍乡市,武功山,,32,25,15,3,7,102,,88,88,6,6,9,8,0.4,0.4
2024-09-12T1600,2348A,113.8385,27.6434,萍乡市,中医院,,39,39,39,27,23,93,,75,75,6,8,4,10,0.7,0.8
2024-09-12T1600,2349A,113.8493,27.6253,萍乡市,市政府车库,,43,39,33,30,23,90,,72,72,6,6,8,10,0.7,0.7
2024-09-12T1600,2350A,113.8676,27.6435,萍乡市,市环保局,,45,42,37,31,25,90,,70,70,4,5,7,8,0.6,0.6
2024-09-12T1600,2351A,113.866,27.6198,萍乡市,安源区政府,,49,49,40,33,20,96,,79,79,10,9,10,11,0.6,0.5
2024-09-12T1600,2319A,119.0141,25.4325,莆田市,荔城区仓后路,,36,36,42,14,27,75,,84,84,7,14,7,7,0.6,0.7
2024-09-12T1600,2320A,119.0015,25.4553,莆田市,莆田市监测站,,36,36,36,14,27,82,,91,91,4,10,6,7,0.5,0.6
2024-09-12T1600,2321A,119.1119,25.4561,莆田市,涵江区六中,,27,27,39,11,26,77,,88,88,5,12,8,8,0.6,0.6
2024-09-12T1600,2322A,119.1013,25.3215,莆田市,秀屿区政府,,35,35,36,8,28,64,,81,81,3,7,8,8,0.5,0.6
2024-09-12T1600,2392A,115.0312,35.7636,濮阳市,环保局,,40,26,27,10,13,127,,99,99,14,15,9,10,0.4,0.4
2024-09-12T1600,2394A,115.0574,35.7609,濮阳市,油田运输公司,,40,24,27,10,13,125,,103,103,12,13,5,6,0.4,0.5
2024-09-12T1600,2395A,115.0866,35.7754,濮阳市,油田物探公司,,39,25,30,3,13,124,,99,99,12,13,4,5,0.5,0.5
2024-09-12T1600,3021A,115,35.7668,濮阳市,濮水河管理处,,37,23,27,11,14,117,,92,92,11,14,7,8,0.4,0.4
2024-09-12T1600,2601A,100.98,22.7633,普洱市,市环保局,,19,19,22,6,11,39,,39,39,5,7,9,10,0.4,0.5
2024-09-12T1600,2602A,100.9817,22.8322,普洱市,普洱第二中学,,,10,23,7,11,46,,39,39,,12,8,9,0.4,0.6
2024-09-12T1600,2262A,131.0518,45.8751,七台河市,新一中,,32,16,16,3,7,101,,90,90,6,9,9,10,0.9,1
2024-09-12T1600,3345A,131.0577,45.7879,七台河市,中波台,,,,19,,5,76,,66,66,8,21,7,6,0.4,0.5
2024-09-12T1600,3637A,131.0176,45.7761,七台河市,人民广场,,25,14,23,10,12,77,,65,65,10,19,8,8,0.2,0.3
2024-09-12T1600,3684A,130.8781,45.8222,七台河市,新建矿广场,,48,48,86,13,16,74,,63,63,12,24,5,6,0.3,0.5
2024-09-12T1600,1779A,123.9305,47.3636,齐齐哈尔市,安居小区,,22,15,28,6,8,70,,67,67,9,15,8,9,0.3,0.4
2024-09-12T1600,1780A,123.9488,47.3386,齐齐哈尔市,中心广场,,21,14,21,3,9,66,,66,66,16,14,3,4,0.3,0.3
2024-09-12T1600,1781A,123.9483,47.3227,齐齐哈尔市,农牧车辆厂,,24,22,28,3,5,75,,68,68,6,11,7,9,0.2,0.3
2024-09-12T1600,1783A,123.945,47.2988,齐齐哈尔市,市环境监测站,,23,15,24,8,8,73,,68,68,10,12,8,8,0.2,0.3
2024-09-12T1600,3662A,123.6333,47.2075,齐齐哈尔市,富区青少年活动中心,,,24,26,3,5,72,,72,72,9,12,6,8,,0.6
2024-09-12T1600,2591A,107.9783,26.5747,黔东南苗族侗族自治州,市环境监测站,,32,30,26,21,19,102,,89,89,10,13,3,4,0.4,0.5
2024-09-12T1600,2881A,107.8908,26.5311,黔东南苗族侗族自治州,凯里学院,,36,27,22,17,15,114,,104,104,6,9,2,2,0.5,0.6
2024-09-12T1600,2593A,107.5228,26.2403,黔南布依族苗族自治州,小围寨,,33,19,18,9,13,104,,93,93,4,6,5,4,0.5,0.4
2024-09-12T1600,3538A,107.5175,26.2978,黔南布依族苗族自治州,沙坝,,31,24,20,9,13,99,,91,91,2,6,4,4,0.3,0.4
2024-09-12T1600,2589A,104.9022,25.0925,黔西南布依族苗族自治州,场坝街,,20,14,21,3,9,64,,54,54,4,13,3,21,0.0,0.1
2024-09-12T1600,2590A,104.8811,25.0992,黔西南布依族苗族自治州,坪东大道,,20,13,22,3,8,64,,54,54,2,11,6,9,0.1,0.2
2024-09-12T1600,2502A,108.6236,21.9667,钦州市,市环保站,,41,41,36,22,15,101,,83,83,10,16,6,8,0.6,0.7
2024-09-12T1600,2504A,108.5989,21.7431,钦州市,港区一小,颗粒物(PM10),55,59,48,28,24,122,,87,87,20,29,6,6,0.7,0.7
2024-09-12T1600,3404A,108.5959,21.9633,钦州市,北职校,,35,30,35,23,19,112,,95,95,6,13,5,5,0.6,0.7
2024-09-12T1600,1042A,119.5134,39.8207,秦皇岛市,北戴河环保局,,37,23,21,6,6,117,,83,83,14,22,4,2,0.4,0.4
2024-09-12T1600,1043A,119.7493,40.0116,秦皇岛市,第一关,,35,20,15,6,13,109,,81,81,8,23,3,2,0.4,0.3
2024-09-12T1600,1044A,119.5897,39.9499,秦皇岛市,监测站,,33,29,18,10,9,103,,76,76,26,15,4,3,0.7,0.4
2024-09-12T1600,1046A,119.5251,39.9041,秦皇岛市,建设大厦,,37,34,26,8,9,117,,83,83,13,22,6,3,0.4,0.3
2024-09-12T1600,3132A,119.610547,39.943889,秦皇岛市,文明里,,35,32,17,6,7,112,,82,82,18,12,6,2,0.5,0.4
2024-09-12T1600,1307A,120.6659,36.2403,青岛市,仰口,,20,,13,11,13,64,,67,66,3,4,6,6,0.3,0.3
2024-09-12T1600,1310A,120.4134,36.0658,青岛市,市南区东部子站,,27,7,18,3,7,85,,78,78,6,10,5,6,0.3,0.4
2024-09-12T1600,1311A,120.3664,36.1032,青岛市,四方区子站,,25,14,21,7,9,79,,76,76,20,13,10,9,0.7,0.6
2024-09-12T1600,1312A,120.2994,36.054,青岛市,市南区西部子站,,29,14,23,3,6,90,,82,82,5,8,8,8,0.7,0.7
2024-09-12T1600,1313A,120.4581,36.0858,青岛市,崂山区子站,,28,7,27,3,4,89,,83,83,10,12,8,8,0.4,0.4
2024-09-12T1600,1314A,120.1983,35.9608,青岛市,黄岛区子站,,26,7,18,7,9,83,,76,76,18,24,8,9,0.5,0.5
2024-09-12T1600,1315A,120.3999,36.3083,青岛市,城阳区子站,,22,9,16,3,8,68,,72,72,11,10,7,7,0.6,0.6
2024-09-12T1600,1966A,120.0405,35.8735,青岛市,黄岛区4号,,28,9,22,7,9,87,,75,75,7,10,11,10,0.5,0.5
2024-09-12T1600,3362A,120.5014,36.4034,青岛市,即墨2号,,22,6,19,3,11,69,,74,73,6,7,6,6,0.4,0.5
2024-09-12T1600,3642A,120.3503,36.0736,青岛市,市北区南部,,25,22,25,3,8,80,,72,72,12,17,6,8,0.6,0.6
2024-09-12T1600,3643A,120.3948,36.1805,青岛市,李沧区北部,,26,,14,9,10,81,,81,78,9,11,8,8,0.6,0.5
2024-09-12T1600,1702A,113.0426,23.691,清远市,环保大楼,,40,30,25,27,17,128,,101,101,4,11,7,8,0.7,0.7
2024-09-12T1600,1703A,113.0208,23.7106,清远市,凤城街办,细颗粒物(PM2.5),53,42,30,37,19,137,,97,97,6,13,4,7,0.5,0.5
2024-09-12T1600,3025A,113.0477,23.6344,清远市,技师学院,,38,38,33,23,17,113,,91,91,4,20,5,5,0.8,0.8
2024-09-12T1600,3318A,112.9903,23.7403,清远市,清新太和,,42,42,36,29,20,118,,96,96,5,11,7,7,0.9,0.9
2024-09-12T1600,3455A,113.076,23.7198,清远市,清城东城,细颗粒物(PM2.5),60,66,32,43,19,128,,103,103,7,8,8,8,0.6,0.6
2024-09-12T1600,2661A,107.6325,35.7357,庆阳市,庆阳五中,,41,31,42,12,21,129,,108,108,7,7,6,7,0.4,0.5
2024-09-12T1600,2662A,107.6364,35.7067,庆阳市,市环保局,,41,31,37,12,18,129,,112,112,7,7,5,5,0.4,0.7
2024-09-12T1600,1916A,103.7897,25.5035,曲靖市,环境监测站,,32,13,18,3,8,102,,75,75,5,9,5,4,0.5,0.8
2024-09-12T1600,1917A,103.8,25.5364,曲靖市,烟厂办公区,,29,9,17,8,9,90,,65,65,5,9,4,4,0.3,0.6
2024-09-12T1600,3376A,103.7947,25.462,曲靖市,南苑二区,,30,14,14,6,7,96,,68,68,6,10,7,7,0.3,0.5
2024-09-12T1600,3377A,103.7444,25.5261,曲靖市,曲靖师范学院,,,,19,5,10,94,,72,72,4,11,6,10,0.5,0.7
2024-09-12T1600,1264A,118.8692,28.9398,衢州市,环保大楼,,49,30,26,21,17,155,,115,115,8,19,3,2,0.7,0.6
2024-09-12T1600,1265A,118.8709,28.9666,衢州市,实验学校,,43,25,20,18,13,135,,111,111,5,16,6,6,0.6,0.5
2024-09-12T1600,1266A,118.8621,28.9808,衢州市,衢州学院,,43,30,19,21,13,136,,117,117,6,20,6,4,0.6,0.5
2024-09-12T1600,1611A,118.5819,24.9117,泉州市,涂山街,,38,37,42,20,28,121,,127,127,11,23,3,3,0.7,0.6
2024-09-12T1600,1612A,118.5972,24.8978,泉州市,津头埔,,33,28,47,17,31,105,,122,122,14,23,4,5,0.8,0.7
2024-09-12T1600,1613A,118.6663,24.9424,泉州市,万安,,28,28,44,12,26,89,,123,123,7,18,3,4,0.6,0.6
2024-09-12T1600,3529A,118.6333,24.9264,泉州市,城华南路,,30,24,40,16,25,96,,121,121,7,17,4,5,0.8,0.7
2024-09-12T1600,2626A,88.8876,29.2718,日喀则市,日喀则监测站,,31,6,12,3,5,97,,85,84,4,9,5,5,0.4,0.4
2024-09-12T1600,3726A,88.8781,29.2426,日喀则市,林业技术推广中心,,27,,5,3,4,86,,76,76,4,6,6,6,0.4,0.4
2024-09-12T1600,1659A,119.471,35.4209,日照市,监测站,,30,29,24,18,18,94,,68,68,17,14,10,10,0.4,0.4
2024-09-12T1600,1660A,119.523,35.4216,日照市,市政府广场,,30,29,24,16,15,96,,71,71,12,10,10,10,0.6,0.6
2024-09-12T1600,1661A,119.5587,35.4044,日照市,港务局,,35,27,24,14,17,111,,82,82,6,8,9,8,0.6,0.6
2024-09-12T1600,3507A,119.5328,35.4625,日照市,职业技术学院,,32,31,25,12,15,102,,80,80,14,14,8,8,0.7,0.7
2024-09-12T1600,3604A,119.3266,35.1044,日照市,岚山环保分局,,27,14,24,10,14,85,,64,64,8,17,8,13,0.5,1.7
2024-09-12T1600,1835A,111.1922,34.7752,三门峡市,市政府,,46,28,28,9,11,147,,131,131,11,13,10,13,0.6,0.7
2024-09-12T1600,1836A,111.1587,34.7942,三门峡市,开发区,,43,28,27,14,9,135,,121,121,11,12,12,14,0.7,0.7
2024-09-12T1600,3039A,111.1911,34.7829,三门峡市,三门峡市第一小学,,45,26,29,20,10,141,,129,129,11,12,8,13,0.6,0.6
2024-09-12T1600,3598A,111.1,34.7167,三门峡市,富达温泉假日酒店,,45,39,34,13,13,142,,127,127,9,12,14,15,0.7,0.7
2024-09-12T1600,2324A,117.6211,26.2625,三明市,三钢,,41,41,33,26,23,121,,104,104,6,16,7,6,0.4,0.5
2024-09-12T1600,2325A,117.635,26.2714,三明市,三明二中,,42,42,30,28,20,119,,104,104,7,15,5,4,0.4,0.5
2024-09-12T1600,2326A,117.6028,26.2378,三明市,三元区政府,,49,,36,34,26,120,,102,102,8,17,4,3,0.4,0.5
2024-09-12T1600,1876A,109.5078,18.2489,三亚市,河东子站,,20,14,21,3,5,61,,53,53,3,11,3,3,0.2,0.5
2024-09-12T1600,1877A,109.4964,18.2681,三亚市,河西子站,,19,8,16,3,3,59,,45,45,4,10,3,3,0.3,0.4
2024-09-12T1600,3540A,109.7348,18.3443,三亚市,君悦子站,,21,6,15,3,5,66,,51,51,4,9,3,2,0.3,0.3
2024-09-12T1600,2624A,91.7608,29.2313,山南市,山南监测站,,30,6,8,3,4,95,,78,78,3,7,8,7,0.3,0.3
2024-09-12T1600,2625A,91.7706,29.2436,山南市,山南人民医院,,32,24,16,6,7,100,,88,86,9,10,8,8,0.3,0.4
2024-09-12T1600,1674A,116.6794,23.3667,汕头市,金平子站,,39,39,33,19,26,105,,106,106,7,10,5,6,0.4,0.5
2024-09-12T1600,1675A,116.7244,23.3633,汕头市,龙湖子站,,45,33,35,31,26,106,,103,103,2,5,6,7,0.4,0.6
2024-09-12T1600,1676A,116.7258,23.2775,汕头市,濠江子站,,42,40,32,29,30,103,,97,97,6,10,5,4,0.5,0.5
2024-09-12T1600,1677A,116.7519,23.4714,汕头市,澄海子站,,38,34,38,21,31,119,,111,111,7,12,5,6,0.7,0.9
2024-09-12T1600,1678A,116.6092,23.2539,汕头市,潮阳子站,,35,25,35,20,27,109,,107,107,2,5,6,6,0.6,0.6
2024-09-12T1600,3444A,116.454,23.2684,汕头市,潮南峡山,,48,,46,33,33,104,,112,112,3,6,7,6,0.9,0.8
2024-09-12T1600,3624A,116.4069,23.2533,汕头市,潮南子站,,39,39,52,18,31,103,,112,112,8,11,6,6,0.7,0.6
2024-09-12T1600,1693A,115.3653,22.775,汕尾市,市环保局,,31,,29,16,25,97,,95,95,3,5,7,7,0.5,0.5
2024-09-12T1600,1694A,115.3706,22.7898,汕尾市,市政府,,28,22,29,19,22,88,,80,80,4,7,8,7,0.4,0.5
2024-09-12T1600,1695A,115.3622,22.7925,汕尾市,新城中学,,32,32,36,14,21,94,,109,109,1,4,6,6,0.7,0.7
2024-09-12T1600,2645A,109.9154,33.8715,商洛市,监测站,,38,38,40,22,21,112,,100,100,10,15,6,6,0.7,0.7
2024-09-12T1600,3045A,109.9643,33.8471,商洛市,商州区中学,,36,36,41,20,21,108,,102,102,13,18,6,6,0.7,0.7
2024-09-12T1600,2408A,115.6702,34.4285,商丘市,环境监测站,,42,42,30,21,20,90,,66,66,10,13,3,4,0.6,0.7
2024-09-12T1600,2409A,115.6458,34.4045,商丘市,粮食局,,32,30,27,22,21,98,,73,73,10,12,7,7,0.4,0.5
2024-09-12T1600,2410A,115.6293,34.3948,商丘市,睢阳区环保局,细颗粒物(PM2.5),52,,30,36,31,93,,69,69,8,10,6,7,0.4,0.4
2024-09-12T1600,3171A,115.6071,34.4465,商丘市,梁园区档案局,细颗粒物(PM2.5),60,,31,43,35,98,,71,71,11,13,7,8,0.5,0.6
2024-09-12T1600,1141A,121.4,31.238,上海市,普陀,,34,29,23,17,12,106,,76,76,8,53,6,5,0.4,0.6
2024-09-12T1600,1142A,121.478,31.2036,上海市,十五厂,,37,34,27,20,15,117,,112,112,12,15,8,8,0.4,0.5
2024-09-12T1600,1143A,121.467,31.3008,上海市,虹口,,36,29,24,21,13,114,,111,111,9,12,8,8,0.6,0.6
2024-09-12T1600,1144A,121.412,31.1654,上海市,徐汇上师大,,38,32,25,22,13,120,,115,115,19,19,6,6,0.7,0.7
2024-09-12T1600,1145A,121.536,31.2659,上海市,杨浦四漂,,40,40,27,23,14,114,,118,118,21,19,7,7,0.6,0.6
2024-09-12T1600,1147A,121.425,31.2261,上海市,静安监测站,,38,29,26,26,14,120,,110,110,12,14,6,6,0.4,0.4
2024-09-12T1600,1148A,121.703,31.1907,上海市,浦东川沙,,29,18,28,10,11,91,,104,104,10,17,6,6,0.5,0.5
2024-09-12T1600,1149A,121.533,31.2284,上海市,浦东新区监测站,,36,29,24,24,15,113,,116,116,12,16,6,6,0.4,0.4
2024-09-12T1600,1150A,121.577,31.2071,上海市,浦东张江,,38,31,27,26,18,101,,106,106,18,16,5,5,0.8,0.8
2024-09-12T1600,3265A,121.4316,31.3322,上海市,宝山庙行,,38,29,24,16,10,120,,114,114,8,12,6,6,0.5,0.5
2024-09-12T1600,3268A,121.3162,31.2838,上海市,嘉定南翔,,41,33,24,20,11,130,,108,108,15,16,7,7,0.5,0.5
2024-09-12T1600,3269A,121.3359,30.7456,上海市,金山新城,,43,28,26,23,16,137,,138,138,10,9,6,5,0.4,0.5
2024-09-12T1600,3270A,121.4996,31.0739,上海市,闵行浦江,,36,32,23,22,15,114,,115,115,10,14,6,6,0.8,0.8
2024-09-12T1600,3271A,121.2886,31.1663,上海市,青浦徐泾,,45,33,23,24,14,143,,120,120,12,13,6,6,0.6,0.5
2024-09-12T1600,3272A,121.2186,31.0378,上海市,松江图书馆,,49,34,24,24,14,154,,126,126,10,14,5,5,0.4,0.5
2024-09-12T1600,3273A,121.3902,31.2059,上海市,长宁仙霞,,38,33,27,19,13,120,,110,110,14,15,10,8,0.7,0.7
2024-09-12T1600,3274A,121.7965,31.0507,上海市,浦东惠南,,21,10,21,8,12,66,,91,89,11,10,8,8,0.5,0.6
2024-09-12T1600,3544A,121.4891,30.925,上海市,奉贤南桥新城,,35,22,25,19,16,109,,120,120,12,15,8,8,0.5,0.5
2024-09-12T1600,2381A,118.005,28.4572,上饶市,百草园,,34,31,24,21,10,108,,87,87,2,9,8,10,0.5,0.6
2024-09-12T1600,2382A,117.9756,28.4436,上饶市,市监测站,,,36,22,23,12,108,,94,94,,13,,24,0.6,0.7
2024-09-12T1600,2383A,117.9519,28.4628,上饶市,凤凰光学,,35,35,18,23,9,102,,100,100,6,9,12,11,0.8,0.9
2024-09-12T1600,3413A,118.1953,28.4401,上饶市,广丰区教体局,,41,38,26,20,16,129,,89,89,6,8,9,27,0.7,0.7
2024-09-12T1600,3685A,117.897,28.4315,上饶市,双创科技城,,39,39,24,24,10,99,,88,88,9,13,7,16,0.6,0.6
2024-09-12T1600,1669A,113.5824,24.7733,韶关市,市八中,"颗粒物(PM10),细颗粒物(PM2.5)",62,74,39,44,25,116,,96,96,1,5,10,14,0.4,0.5
2024-09-12T1600,1671A,113.5917,24.7972,韶关市,园林处,,,,28,31,24,117,,95,95,2,5,9,12,,0.6
2024-09-12T1600,1672A,113.6735,24.7791,韶关市,韶关学院,,49,49,32,28,21,110,,89,89,4,10,7,11,0.4,0.4
2024-09-12T1600,1673A,113.5971,24.6863,韶关市,曲江监测站,细颗粒物(PM2.5),52,46,39,36,24,118,,100,100,3,11,10,14,0.9,1
2024-09-12T1600,3622A,113.5556,24.8082,韶关市,碧湖山庄,,50,48,35,35,23,125,,98,98,2,4,8,10,0.4,0.4
2024-09-12T1600,2462A,111.5239,27.3033,邵阳市,市水土所,,36,32,29,25,22,91,,85,85,3,4,7,7,0.6,0.6
2024-09-12T1600,2463A,111.4733,27.2317,邵阳市,市一中,,39,35,35,27,22,107,,94,94,5,6,6,7,0.6,0.6
2024-09-12T1600,2464A,111.5283,27.2442,邵阳市,市化工厂,,32,30,31,20,18,102,,90,90,5,6,9,9,0.5,0.5
2024-09-12T1600,2465A,111.4503,27.2537,邵阳市,市罐头厂,,40,38,33,28,23,107,,94,94,4,6,6,8,0.6,0.6
2024-09-12T1600,2466A,111.4328,27.2272,邵阳市,市环保局,,41,41,34,27,25,110,,97,97,5,7,4,5,0.5,0.7
2024-09-12T1600,1247A,120.6053,29.9928,绍兴市,城东开发委,,36,25,25,20,17,114,,102,102,9,12,7,7,0.5,0.6
2024-09-12T1600,2921A,120.5483,30.0003,绍兴市,树下王站,,40,27,24,24,19,125,,102,102,6,11,4,4,0.5,0.7
2024-09-12T1600,3408A,120.5683,29.9361,绍兴市,绍兴中专,,38,34,28,19,17,120,,105,105,4,14,3,2,0.7,0.7
2024-09-12T1600,3409A,120.4906,30.0861,绍兴市,柯桥区政府,,39,29,24,17,15,124,,108,108,10,13,5,5,0.8,0.8
2024-09-12T1600,3410A,120.8752,30.0249,绍兴市,重华小学,,35,24,23,20,21,112,,106,106,7,12,8,7,0.6,0.7
2024-09-12T1600,3411A,120.8369,30.0137,绍兴市,上虞中学,,33,20,27,16,20,103,,97,97,4,14,5,6,0.6,0.7
2024-09-12T1600,3560A,120.4722,30.0415,绍兴市,柯桥妇保,,43,28,37,16,16,135,,111,111,7,14,6,6,0.5,0.6
2024-09-12T1600,3658A,120.6153,30.0764,绍兴市,袍江中学,,46,35,26,25,18,146,,115,115,10,11,3,3,0.5,0.6
2024-09-12T1600,1356A,114.1063,22.5545,深圳市,通心岭子站,,33,29,28,18,20,104,,62,62,20,33,7,6,0.6,0.6
2024-09-12T1600,1357A,114.117,22.5625,深圳市,洪湖,,36,29,35,21,21,114,,76,76,24,32,6,7,0.5,0.4
2024-09-12T1600,1358A,113.987,22.5417,深圳市,华侨城,,28,21,29,14,17,87,,51,51,4,25,7,8,0.7,0.7
2024-09-12T1600,1359A,113.9181,22.5171,深圳市,南海子站,,43,35,36,14,22,137,,60,60,21,44,6,10,0.5,0.5
2024-09-12T1600,1360A,114.2458,22.5689,深圳市,盐田,,35,32,31,22,18,109,,80,80,20,38,8,9,0.6,0.5
2024-09-12T1600,1361A,114.2283,22.7244,深圳市,龙岗,,38,26,41,15,26,119,,124,124,29,36,5,6,0.6,0.6
2024-09-12T1600,1363A,114.494,22.5422,深圳市,南澳,,35,19,18,13,12,111,,66,66,6,9,6,6,0.4,0.4
2024-09-12T1600,1364A,114.41,22.6342,深圳市,葵涌,,36,27,25,15,16,114,,83,83,16,17,8,7,0.5,0.4
2024-09-12T1600,1365A,114.297,22.5978,深圳市,梅沙,,34,23,23,20,14,106,,68,68,5,9,6,6,0.4,0.4
2024-09-12T1600,1366A,114.0678,22.738,深圳市,观澜,,,31,53,13,25,68,,85,85,,43,6,7,0.6,0.7
2024-09-12T1600,3305A,114.0731,22.559,深圳市,莲花,,30,30,31,20,21,58,,52,52,12,29,7,7,0.4,0.5
2024-09-12T1600,3306A,114.0261,22.6198,深圳市,民治,,22,22,35,14,22,58,,54,54,32,43,6,6,0.6,0.6
2024-09-12T1600,3307A,114.1871,22.6451,深圳市,横岗,,30,27,38,18,25,95,,93,93,40,48,4,5,0.6,0.6
