timepoint,stationcode,longitude,latitude,area,positionname,primarypollutant,aqi,pm10,pm10_24h,pm2_5,pm2_5_24h,o3,o3_24h,o3_8h,o3_8h_24h,no2,no2_24h,so2,so2_24h,co,co_24h
2022-03-09T05:00:00,1001A,116.3621,39.8784,北京市,万寿西宫,细颗粒物(PM2.5),118,139,130,89,78,105,1,0,0,96,78,3,8,1.1,1.2
2022-03-09T05:00:00,1002A,116.2202,40.2915,北京市,定陵(对照点),细颗粒物(PM2.5),88,99,97,65,58,80,45,51,47,20,29,4,5,0.6,0.6
2022-03-09T05:00:00,1003A,116.4174,39.9289,北京市,东四,细颗粒物(PM2.5),88,115,134,65,74,99,32,13,13,48,64,6,8,0.8,1.1
2022-03-09T05:00:00,1004A,116.4072,39.8863,北京市,天坛,细颗粒物(PM2.5),120,140,134,91,80,104,0,1,0,77,57,1,5,1.2,1.2
2022-03-09T05:00:00,1005A,116.462,39.9365,北京市,农展馆,细颗粒物(PM2.5),122,151,135,92,77,106,1,2,1,97,70,3,6,1.1,1.1
2022-03-09T05:00:00,1006A,116.3392,39.9295,北京市,官园,细颗粒物(PM2.5),109,133,125,82,72,103,10,5,5,80,73,5,7,1.1,1.1
2022-03-09T05:00:00,1007A,116.2878,39.9611,北京市,海淀万柳,细颗粒物(PM2.5),99,124,118,74,64,92,0,18,5,76,68,2,5,0.9,0.9
2022-03-09T05:00:00,1008A,116.6636,40.135,北京市,顺义新城,细颗粒物(PM2.5),84,111,119,62,64,105,22,22,20,57,61,2,6,0.6,0.9
2022-03-09T05:00:00,1009A,116.6275,40.3275,北京市,怀柔镇,细颗粒物(PM2.5),80,86,87,59,54,95,44,46,42,15,32,2,4,0.6,0.6
2022-03-09T05:00:00,1010A,116.2296,40.217,北京市,昌平镇,细颗粒物(PM2.5),90,102,101,67,60,82,34,49,31,35,44,3,5,0.7,0.8
2022-03-09T05:00:00,1011A,116.3966,39.9821,北京市,奥体中心,细颗粒物(PM2.5),109,132,129,82,74,96,6,6,6,80,74,4,7,1.0,1.1
2022-03-09T05:00:00,1012A,116.184,39.9136,北京市,古城,细颗粒物(PM2.5),87,105,114,64,63,93,23,23,16,36,59,1,4,0.8,0.9
2022-03-09T05:00:00,1015A,117.1444,39.1661,天津市,勤俭道,细颗粒物(PM2.5),134,179,162,102,85,144,2,4,3,115,76,14,14,1.3,1.1
2022-03-09T05:00:00,1017A,117.237,39.1082,天津市,大直沽八号路,细颗粒物(PM2.5),125,153,139,95,79,144,2,1,1,113,76,12,15,1.0,1
2022-03-09T05:00:00,1018A,117.202,39.0927,天津市,前进道,细颗粒物(PM2.5),117,156,146,88,79,142,4,6,6,118,73,12,15,1.3,1.2
2022-03-09T05:00:00,1019A,117.1837,39.2133,天津市,淮河道,细颗粒物(PM2.5),159,201,169,121,92,142,2,10,4,123,85,15,13,1.6,1.1
2022-03-09T05:00:00,1021A,117.307,39.0877,天津市,跃进路,细颗粒物(PM2.5),127,158,140,96,79,142,2,2,2,104,80,9,12,0.9,0.9
2022-03-09T05:00:00,1023A,117.707,39.0343,天津市,第四大街,细颗粒物(PM2.5),163,207,145,124,77,116,4,2,2,90,96,12,18,1.0,0.9
2022-03-09T05:00:00,1024A,117.457,38.8394,天津市,永明路,细颗粒物(PM2.5),125,146,133,95,72,146,24,18,18,79,62,10,13,0.7,0.7
2022-03-09T05:00:00,1026A,117.764,39.1587,天津市,汉北路,细颗粒物(PM2.5),144,172,132,110,81,85,1,2,2,83,85,10,16,1.3,1.1
2022-03-09T05:00:00,1027A,117.157,38.9194,天津市,团泊洼(对照点),细颗粒物(PM2.5),117,162,155,88,79,153,0,1,0,123,83,13,14,1.3,1
2022-03-09T05:00:00,1029A,114.4422,38.0444,石家庄市,职工医院,细颗粒物(PM2.5),128,197,147,97,70,155,2,28,10,94,56,11,12,1.0,0.8
2022-03-09T05:00:00,1030A,114.6063,38.0266,石家庄市,高新区,细颗粒物(PM2.5),119,180,144,90,63,156,44,58,46,52,40,13,13,0.8,0.8
2022-03-09T05:00:00,1031A,114.4898,38.1328,石家庄市,西北水源,颗粒物(PM10),129,207,156,93,67,153,5,48,27,75,45,6,11,1.1,0.9
2022-03-09T05:00:00,1032A,114.4586,38.0058,石家庄市,西南高教,细颗粒物(PM2.5),117,163,150,88,62,137,29,36,35,68,57,8,11,0.9,0.9
2022-03-09T05:00:00,1033A,114.5331,38.0178,石家庄市,世纪公园,细颗粒物(PM2.5),124,162,136,94,67,155,52,65,50,45,44,14,14,0.7,0.7
2022-03-09T05:00:00,1034A,114.509,38.0457,石家庄市,人民会堂,细颗粒物(PM2.5),120,164,135,91,70,157,42,50,43,58,44,11,12,0.8,0.8
2022-03-09T05:00:00,1035A,114.3524,37.8911,石家庄市,封龙山(对照点),细颗粒物(PM2.5),134,168,143,102,58,163,116,138,134,22,21,17,17,1.0,0.9
2022-03-09T05:00:00,1037A,118.131,39.6363,唐山市,雷达站,细颗粒物(PM2.5),163,170,157,124,98,123,34,13,13,44,75,14,19,1.9,1.8
2022-03-09T05:00:00,1038A,118.1725,39.6334,唐山市,物资局,细颗粒物(PM2.5),150,168,162,115,85,111,31,10,10,48,87,17,24,1.5,1.7
2022-03-09T05:00:00,1040A,118.1705,39.6506,唐山市,十二中,细颗粒物(PM2.5),169,185,190,128,102,112,33,8,8,50,80,11,19,1.1,1.6
2022-03-09T05:00:00,1041A,118.1869,39.622,唐山市,小山,细颗粒物(PM2.5),133,177,170,101,85,123,28,9,9,60,83,14,20,1.8,1.5
2022-03-09T05:00:00,1042A,119.5134,39.8207,秦皇岛市,北戴河环保局,细颗粒物(PM2.5),114,141,89,86,59,99,7,41,28,84,44,9,12,1.1,0.9
2022-03-09T05:00:00,1043A,119.7493,40.0116,秦皇岛市,第一关,细颗粒物(PM2.5),160,157,123,122,86,94,6,8,7,67,65,10,14,1.0,0.8
2022-03-09T05:00:00,1044A,119.5897,39.9499,秦皇岛市,监测站,细颗粒物(PM2.5),149,148,126,114,81,95,2,29,11,75,68,9,10,0.8,1
2022-03-09T05:00:00,1046A,119.5251,39.9041,秦皇岛市,建设大厦,细颗粒物(PM2.5),143,169,122,109,71,110,6,9,7,78,62,9,11,1.2,1
2022-03-09T05:00:00,1048A,114.5302,36.6116,邯郸市,东污水处理厂,颗粒物(PM10),129,208,184,83,68,113,14,4,4,67,41,6,7,0.7,0.4
2022-03-09T05:00:00,1049A,114.4918,36.5713,邯郸市,矿院,颗粒物(PM10),136,221,202,68,65,120,13,8,8,64,38,9,8,0.8,0.5
2022-03-09T05:00:00,1050A,114.484,36.6133,邯郸市,丛台公园,颗粒物(PM10),127,204,186,64,62,123,28,12,12,44,38,4,3,0.9,0.6
2022-03-09T05:00:00,1051A,115.493,38.8632,保定市,游泳馆,细颗粒物(PM2.5),130,158,139,99,81,113,37,68,54,60,48,12,15,0.7,0.5
2022-03-09T05:00:00,1052A,115.5213,38.8959,保定市,华电二区,细颗粒物(PM2.5),124,188,196,94,81,121,36,32,32,47,54,11,13,0.7,0.6
2022-03-09T05:00:00,1053A,115.4713,38.9108,保定市,接待中心,细颗粒物(PM2.5),120,164,137,91,72,119,17,58,36,81,63,9,10,1.1,0.9
2022-03-09T05:00:00,1054A,115.4612,38.8416,保定市,地表水厂,颗粒物(PM10),107,164,150,76,63,116,40,75,58,66,54,15,14,0.8,0.6
2022-03-09T05:00:00,1055A,115.4323,38.8697,保定市,胶片厂,颗粒物(PM10),129,207,160,91,81,122,6,42,19,84,60,8,10,0.9,0.8
2022-03-09T05:00:00,1056A,115.5086,38.8639,保定市,监测站,细颗粒物(PM2.5),117,139,142,88,78,117,40,61,51,49,52,9,11,1.0,0.9
2022-03-09T05:00:00,1057A,114.8883,40.8336,张家口市,人民公园,,46,46,47,7,12,98,63,70,66,7,11,5,6,0.6,0.7
2022-03-09T05:00:00,1059A,114.8687,40.8042,张家口市,五金库,,37,37,46,12,18,97,68,75,72,7,15,6,8,0.5,0.6
2022-03-09T05:00:00,1060A,114.8902,40.762,张家口市,世纪豪园,,32,32,48,20,20,97,62,66,65,10,17,2,5,0.3,0.4
2022-03-09T05:00:00,1061A,114.8916,40.8661,张家口市,北泵房(对照点),,36,36,46,20,23,104,58,69,65,10,11,11,11,0.4,0.4
2022-03-09T05:00:00,1062A,117.9531,40.9081,承德市,铁路,,42,41,71,29,36,96,9,14,13,41,45,7,9,0.8,0.9
2022-03-09T05:00:00,1063A,117.9392,40.9763,承德市,中国银行,颗粒物(PM10),54,58,70,29,35,93,14,14,14,31,37,5,7,0.6,0.8
2022-03-09T05:00:00,1064A,117.9503,40.928,承德市,开发区,颗粒物(PM10),57,64,60,37,34,104,14,22,18,44,43,7,10,0.9,0.9
2022-03-09T05:00:00,1065A,117.8051,40.9655,承德市,文化中心,细颗粒物(PM2.5),55,56,73,39,35,103,20,19,19,30,37,4,9,0.7,0.9
2022-03-09T05:00:00,1066A,117.9268,41.0026,承德市,离宫(对照点),,40,36,50,28,28,96,34,39,33,19,20,10,11,0.4,0.5
2022-03-09T05:00:00,1067A,116.6708,39.5111,廊坊市,药材公司,细颗粒物(PM2.5),158,190,160,120,88,113,7,16,15,110,88,10,12,1.5,1.4
2022-03-09T05:00:00,1068A,116.7214,39.5589,廊坊市,开发区,细颗粒物(PM2.5),169,182,144,128,84,124,8,6,6,106,86,8,10,1.1,1.1
2022-03-09T05:00:00,1070A,116.7244,39.5269,廊坊市,北华航天学院,细颗粒物(PM2.5),168,186,168,127,95,103,20,8,8,88,85,11,12,1.2,1.2
2022-03-09T05:00:00,1071A,116.8842,38.2991,沧州市,沧县城建局,细颗粒物(PM2.5),123,142,144,93,71,131,20,34,31,63,47,7,12,0.4,0.8
2022-03-09T05:00:00,1072A,116.8584,38.3254,沧州市,电视转播站,细颗粒物(PM2.5),118,145,161,89,66,134,6,11,7,76,56,11,14,0.7,0.7
2022-03-09T05:00:00,1073A,116.8709,38.3228,沧州市,市环保局,细颗粒物(PM2.5),119,129,131,90,71,136,10,24,21,75,52,11,14,0.6,0.7
2022-03-09T05:00:00,1074A,115.6838,37.7541,衡水市,电机北厂,颗粒物(PM10),127,203,169,75,65,140,1,94,50,96,33,10,8,0.6,0.4
2022-03-09T05:00:00,1075A,115.6303,37.7316,衡水市,市监测站,颗粒物(PM10),161,271,234,65,60,138,12,84,57,70,25,16,16,0.4,0.4
2022-03-09T05:00:00,1077A,114.4704,37.0886,邢台市,达活泉,颗粒物(PM10),136,221,208,93,70,137,71,75,74,29,48,9,13,0.7,1
2022-03-09T05:00:00,1078A,114.5062,37.0349,邢台市,邢师高专,细颗粒物(PM2.5),134,211,213,102,77,138,71,53,53,30,47,24,10,0.9,1.3
2022-03-09T05:00:00,1079A,114.5237,37.0851,邢台市,路桥公司,细颗粒物(PM2.5),122,184,181,92,68,139,75,75,75,34,45,24,12,0.8,1.1
2022-03-09T05:00:00,1080A,114.4725,37.0719,邢台市,市环保局,细颗粒物(PM2.5),122,190,182,92,72,135,80,77,77,27,45,6,8,0.8,1.1
2022-03-09T05:00:00,1081A,112.5139,37.8873,太原市,尖草坪,颗粒物(PM10),60,69,102,32,46,120,26,34,30,59,57,6,15,0.5,0.9
2022-03-09T05:00:00,1083A,112.434,38.0108,太原市,上兰(对照点),颗粒物(PM10),56,62,73,31,39,129,62,81,70,24,20,7,12,0.4,0.5
2022-03-09T05:00:00,1084A,112.469,37.7124,太原市,晋源,颗粒物(PM10),70,90,95,37,43,127,25,52,45,80,53,14,18,0.7,0.8
2022-03-09T05:00:00,1085A,112.5583,37.7394,太原市,小店,颗粒物(PM10),77,103,100,45,46,130,12,30,14,91,59,34,19,1.9,1.3
2022-03-09T05:00:00,1086A,112.5369,37.8692,太原市,桃园,颗粒物(PM10),60,69,101,31,44,122,36,41,34,60,66,9,16,0.4,1
2022-03-09T05:00:00,1087A,112.57,37.8195,太原市,坞城,颗粒物(PM10),74,97,105,45,50,125,25,22,22,77,64,15,19,0.7,1.1
2022-03-09T05:00:00,1088A,112.549,37.9854,太原市,南寨,颗粒物(PM10),83,116,102,47,39,121,2,3,2,72,53,9,11,0.9,0.8
2022-03-09T05:00:00,1090A,111.6507,40.7517,呼和浩特市,呼市一监,,31,31,66,19,31,108,24,22,22,51,40,17,13,0.7,0.7
2022-03-09T05:00:00,1091A,111.6572,40.8033,呼和浩特市,小召,,39,34,59,19,29,99,7,17,15,77,53,13,13,0.8,0.8
2022-03-09T05:00:00,1094A,111.7516,40.8369,呼和浩特市,如意水处理厂,,36,26,46,18,24,106,2,4,4,71,54,9,13,0.5,0.7
2022-03-09T05:00:00,1095A,111.7276,40.8062,呼和浩特市,二十九中,,34,34,64,13,24,106,20,31,29,51,37,9,12,0.6,0.7
2022-03-09T05:00:00,1096A,111.5512,40.7866,呼和浩特市,工大金川校区,,40,40,64,17,26,117,69,46,46,18,36,12,15,0.4,0.6
2022-03-09T05:00:00,1097A,111.717,40.7612,呼和浩特市,化肥厂生活区,,40,40,68,14,34,109,40,31,31,31,35,12,14,0.8,0.9
2022-03-09T05:00:00,1098A,123.6836,41.9339,沈阳市,森林路(对照点),细颗粒物(PM2.5),173,212,116,131,69,114,16,29,25,71,36,23,17,1.4,1.1
2022-03-09T05:00:00,1099A,123.505,41.7406,沈阳市,浑南东路,细颗粒物(PM2.5),193,197,146,145,95,116,9,10,9,77,53,31,26,1.8,1.4
2022-03-09T05:00:00,1100A,123.4231,41.6989,沈阳市,新秀街,细颗粒物(PM2.5),173,195,157,131,90,112,8,8,7,78,60,31,20,1.7,1.2
2022-03-09T05:00:00,1102A,123.5903,41.8411,沈阳市,东陵路,细颗粒物(PM2.5),166,161,124,126,74,115,9,9,9,65,49,18,18,1.4,1.1
2022-03-09T05:00:00,1103A,123.4264,41.8467,沈阳市,陵东街,细颗粒物(PM2.5),160,202,187,122,72,116,6,5,5,86,67,13,21,1.7,1.3
2022-03-09T05:00:00,1104A,123.4114,41.7653,沈阳市,文化路,细颗粒物(PM2.5),236,245,151,186,100,115,6,11,7,71,52,14,23,1.5,1.2
2022-03-09T05:00:00,1105A,123.4678,41.7867,沈阳市,小河沿,细颗粒物(PM2.5),213,240,148,163,87,104,4,4,4,75,60,13,21,1.6,1.4
2022-03-09T05:00:00,1106A,123.4017,41.7972,沈阳市,太原街,细颗粒物(PM2.5),218,232,148,168,93,107,4,4,4,76,64,30,27,1.6,1.3
2022-03-09T05:00:00,1108A,123.3783,41.9228,沈阳市,京沈街,细颗粒物(PM2.5),205,214,147,155,91,116,10,11,11,82,58,31,28,1.7,1.4
2022-03-09T05:00:00,1109A,121.612,38.9741,大连市,甘井子,细颗粒物(PM2.5),100,106,102,75,67,98,89,77,77,30,38,6,6,0.7,0.7
2022-03-09T05:00:00,1110A,121.565,38.9511,大连市,周水子,细颗粒物(PM2.5),117,134,125,88,74,130,78,80,80,22,33,9,12,1.0,0.8
2022-03-09T05:00:00,1111A,121.5637,38.8845,大连市,星海三站,细颗粒物(PM2.5),120,102,94,91,79,67,57,55,53,32,42,8,6,1.0,1
2022-03-09T05:00:00,1112A,121.6302,38.9117,大连市,青泥洼桥,细颗粒物(PM2.5),87,101,98,64,53,124,81,79,77,31,42,11,14,0.9,0.9
2022-03-09T05:00:00,1113A,121.6251,38.8638,大连市,傅家庄,细颗粒物(PM2.5),94,85,77,70,58,98,98,93,93,21,28,6,6,0.6,0.7
2022-03-09T05:00:00,1114A,121.5213,38.8661,大连市,七贤岭,细颗粒物(PM2.5),122,124,115,92,76,80,34,34,34,38,37,14,12,1.2,1
2022-03-09T05:00:00,1115A,121.2529,38.8061,大连市,旅顺,细颗粒物(PM2.5),99,66,60,74,65,99,99,89,89,19,31,8,10,1.1,1
2022-03-09T05:00:00,1116A,121.7485,39.1311,大连市,金州,颗粒物(PM10),74,98,96,36,62,123,78,84,82,26,35,4,7,1.3,0.9
2022-03-09T05:00:00,1117A,121.7811,39.0496,大连市,开发区,细颗粒物(PM2.5),94,87,86,70,62,108,76,77,76,28,38,4,6,0.8,0.7
2022-03-09T05:00:00,1118A,121.9762,39.0631,大连市,双D港,细颗粒物(PM2.5),87,81,67,64,52,100,100,98,98,26,25,5,5,0.9,1
2022-03-09T05:00:00,1119A,125.3325,43.9166,长春市,食品厂,细颗粒物(PM2.5),166,140,130,126,97,100,15,25,14,66,54,14,21,1.1,1.1
2022-03-09T05:00:00,1120A,125.2863,43.9027,长春市,客车厂,细颗粒物(PM2.5),152,148,132,116,88,97,21,50,30,56,48,35,21,,1.5
2022-03-09T05:00:00,1121A,125.2841,43.8463,长春市,邮电学院,细颗粒物(PM2.5),162,194,153,123,86,98,10,23,12,83,56,6,15,1.3,1.3
2022-03-09T05:00:00,1122A,125.3716,43.8772,长春市,劳动公园,细颗粒物(PM2.5),165,146,123,125,85,116,20,64,40,86,44,9,12,1.4,1.2
2022-03-09T05:00:00,1123A,125.3297,43.8805,长春市,园林处,细颗粒物(PM2.5),169,165,119,128,83,106,25,52,36,64,44,15,14,1.1,1.1
2022-03-09T05:00:00,1124A,125.4605,43.79,长春市,净月潭,细颗粒物(PM2.5),148,130,100,113,73,118,26,34,19,53,37,6,11,1.1,1
2022-03-09T05:00:00,1125A,125.7194,43.515,长春市,甩湾子(对照点),细颗粒物(PM2.5),114,154,123,86,65,109,14,24,18,35,24,7,11,1.1,1.1
2022-03-09T05:00:00,1126A,125.3863,43.8447,长春市,经开区环卫处,细颗粒物(PM2.5),133,142,116,101,79,102,6,22,10,69,46,9,17,1.2,1.1
2022-03-09T05:00:00,1127A,125.245,43.7783,长春市,高新区管委会,细颗粒物(PM2.5),138,129,119,105,82,115,20,29,15,57,48,6,9,1.0,1
2022-03-09T05:00:00,1128A,125.1761,43.8325,长春市,岱山公园,细颗粒物(PM2.5),139,138,124,106,80,106,20,55,32,45,43,4,9,0.9,0.9
2022-03-09T05:00:00,1129A,126.5422,45.755,哈尔滨市,岭北(对照点),细颗粒物(PM2.5),122,111,102,92,73,109,11,28,22,86,59,9,21,1.0,0.8
2022-03-09T05:00:00,1130A,126.561,45.8167,哈尔滨市,松北商大,细颗粒物(PM2.5),112,88,79,84,77,105,11,45,31,90,62,8,16,1.2,1.1
2022-03-09T05:00:00,1131A,126.979,45.5419,哈尔滨市,阿城会宁,细颗粒物(PM2.5),57,52,75,40,73,111,12,9,8,60,42,16,15,2.1,1.6
2022-03-09T05:00:00,1132A,126.599,45.7222,哈尔滨市,南岗学府路,细颗粒物(PM2.5),143,121,109,109,95,98,8,11,10,177,88,56,35,0.8,1.1
2022-03-09T05:00:00,1133A,126.689,45.7733,哈尔滨市,太平宏伟公园,细颗粒物(PM2.5),231,212,154,181,123,102,9,10,10,84,71,40,38,2.9,1.6
2022-03-09T05:00:00,1134A,126.635,45.7667,哈尔滨市,道外承德广场,细颗粒物(PM2.5),144,154,138,110,105,93,4,5,4,101,75,30,28,2.2,1.7
2022-03-09T05:00:00,1135A,126.685,45.7319,哈尔滨市,香坊红旗大街,细颗粒物(PM2.5),149,200,155,114,109,102,11,15,14,98,78,30,24,1.7,1.9
2022-03-09T05:00:00,1136A,126.6411,45.7258,哈尔滨市,动力和平路,细颗粒物(PM2.5),72,73,98,52,81,101,27,17,17,76,60,30,29,1.2,1.2
2022-03-09T05:00:00,1137A,126.593,45.7478,哈尔滨市,道里建国路,细颗粒物(PM2.5),133,133,99,101,88,98,5,6,6,92,71,36,34,2.0,1.6
2022-03-09T05:00:00,1138A,126.615,45.61,哈尔滨市,平房东轻厂,细颗粒物(PM2.5),68,61,87,49,74,112,66,30,30,32,37,27,23,1.1,1.3
2022-03-09T05:00:00,1139A,126.595,45.9855,哈尔滨市,呼兰师专,细颗粒物(PM2.5),189,121,93,142,94,94,6,43,21,73,56,8,20,2.1,1.4
2022-03-09T05:00:00,1140A,126.6206,45.6842,哈尔滨市,省农科院,细颗粒物(PM2.5),120,130,121,91,74,98,6,6,6,92,62,18,24,2.1,1.4
2022-03-09T05:00:00,1141A,121.4,31.238,上海市,普陀,颗粒物(PM10),69,88,76,49,34,125,94,113,104,38,43,36,13,0.8,0.8
2022-03-09T05:00:00,1142A,121.478,31.2036,上海市,十五厂,细颗粒物(PM2.5),82,94,82,60,44,111,76,102,90,44,44,6,6,0.6,0.6
2022-03-09T05:00:00,1143A,121.467,31.3008,上海市,虹口,颗粒物(PM10),63,75,78,43,36,113,89,109,97,30,40,6,6,0.7,0.7
2022-03-09T05:00:00,1144A,121.412,31.1654,上海市,徐汇上师大,细颗粒物(PM2.5),83,90,79,61,40,111,71,97,88,47,45,16,13,0.7,0.8
2022-03-09T05:00:00,1145A,121.536,31.2659,上海市,杨浦四漂,细颗粒物(PM2.5),82,85,76,60,39,109,64,93,83,56,47,7,8,0.5,0.5
2022-03-09T05:00:00,1147A,121.425,31.2261,上海市,静安监测站,细颗粒物(PM2.5),70,83,71,51,38,115,82,105,93,44,47,9,7,0.5,0.5
2022-03-09T05:00:00,1148A,121.703,31.1907,上海市,浦东川沙,细颗粒物(PM2.5),94,121,82,70,46,127,5,91,69,109,54,5,8,0.6,0.6
2022-03-09T05:00:00,1149A,121.533,31.2284,上海市,浦东新区监测站,细颗粒物(PM2.5),74,86,75,54,37,122,87,105,101,35,43,5,5,0.6,0.6
2022-03-09T05:00:00,1150A,121.577,31.2071,上海市,浦东张江,细颗粒物(PM2.5),87,100,84,64,45,111,74,89,86,41,48,4,5,0.7,0.7
2022-03-09T05:00:00,1151A,118.8086,32.1065,南京市,迈皋桥,颗粒物(PM10),66,82,83,36,23,111,58,52,52,39,48,4,7,0.4,0.6
2022-03-09T05:00:00,1152A,118.7538,32.0551,南京市,草场门,颗粒物(PM10),64,78,85,29,23,113,56,69,67,56,54,7,12,0.5,0.8
2022-03-09T05:00:00,1153A,118.7794,32.0745,南京市,山西路,颗粒物(PM10),71,92,94,39,27,110,95,88,88,24,43,3,8,0.3,0.6
2022-03-09T05:00:00,1154A,118.7752,32.0023,南京市,中华门,颗粒物(PM10),71,92,98,31,22,116,73,75,74,34,37,4,4,0.7,0.9
2022-03-09T05:00:00,1155A,118.8109,32.0309,南京市,瑞金路,颗粒物(PM10),61,72,81,36,30,116,55,58,55,35,49,3,6,0.3,0.6
2022-03-09T05:00:00,1156A,118.7997,32.0754,南京市,玄武湖,颗粒物(PM10),66,81,82,29,23,115,87,85,85,27,46,4,4,0.8,1
2022-03-09T05:00:00,1157A,118.6414,32.0931,南京市,浦口,颗粒物(PM10),67,83,96,24,20,116,58,50,50,50,47,2,2,0.9,0.9
2022-03-09T05:00:00,1158A,118.7356,31.9996,南京市,奥体中心,颗粒物(PM10),69,88,93,36,27,117,80,77,77,31,44,9,12,0.5,0.8
2022-03-09T05:00:00,1159A,118.9125,32.1028,南京市,仙林大学城,颗粒物(PM10),65,80,81,39,27,127,90,84,84,27,30,8,8,0.7,0.7
2022-03-09T05:00:00,1160A,120.561,31.2472,苏州市,上方山(对照点),细颗粒物(PM2.5),75,78,64,55,38,158,43,72,56,39,34,5,5,0.7,0.6
2022-03-09T05:00:00,1162A,120.591,31.3019,苏州市,彩香,细颗粒物(PM2.5),67,58,55,48,37,125,60,89,75,34,34,7,6,0.7,0.6
2022-03-09T05:00:00,1163A,120.596,31.3264,苏州市,轧钢厂,"颗粒物(PM10),细颗粒物(PM2.5)",63,75,69,45,33,122,65,86,75,34,36,10,9,0.7,0.7
2022-03-09T05:00:00,1164A,120.613,31.2703,苏州市,吴中区,细颗粒物(PM2.5),70,60,58,51,36,127,52,83,68,45,37,5,5,0.6,0.5
2022-03-09T05:00:00,1165A,120.543,31.2994,苏州市,苏州新区,颗粒物(PM10),72,93,75,51,35,130,64,86,75,30,28,10,8,0.9,0.8
2022-03-09T05:00:00,1166A,120.669,31.3097,苏州市,苏州工业园区,细颗粒物(PM2.5),63,55,57,45,32,124,64,82,75,34,35,8,7,0.6,0.6
2022-03-09T05:00:00,1167A,120.641,31.3708,苏州市,相城区,颗粒物(PM10),69,88,70,46,33,124,53,78,69,46,43,7,5,0.8,0.7
2022-03-09T05:00:00,1168A,120.9098,31.9663,南通市,狼山街道,颗粒物(PM10),68,85,74,46,35,136,29,19,19,66,56,5,7,0.6,0.6
2022-03-09T05:00:00,1169A,120.86,32.0005,南通市,虹桥,细颗粒物(PM2.5),82,95,87,60,40,117,45,46,45,68,61,9,9,0.6,0.6
2022-03-09T05:00:00,1170A,120.87,32.02,南通市,城中,颗粒物(PM10),74,98,94,51,34,119,36,46,42,52,44,12,13,0.6,0.7
2022-03-09T05:00:00,1171A,120.94,31.93,南通市,星湖花园,细颗粒物(PM2.5),70,83,75,51,38,132,46,40,40,65,66,6,6,0.8,0.8
2022-03-09T05:00:00,1172A,120.81,32.0417,南通市,紫琅学院,细颗粒物(PM2.5),70,74,71,51,40,116,46,43,43,62,62,11,13,0.5,0.6
2022-03-09T05:00:00,1173A,119.176,34.5885,连云港市,市环境监测站,细颗粒物(PM2.5),113,136,135,85,70,151,61,89,77,30,27,6,9,0.8,0.7
2022-03-09T05:00:00,1177A,117.179,34.2761,徐州市,黄河新村,颗粒物(PM10),104,158,207,50,55,132,56,83,68,49,40,13,11,0.9,1
2022-03-09T05:00:00,1178A,117.1918,34.2384,徐州市,淮塔,颗粒物(PM10),106,161,215,46,51,127,36,66,47,48,35,12,11,0.9,1
2022-03-09T05:00:00,1180A,117.256,34.2153,徐州市,新城区,颗粒物(PM10),112,173,182,52,47,123,22,61,53,72,47,10,10,0.7,0.8
2022-03-09T05:00:00,1181A,117.244,34.2911,徐州市,桃园路,颗粒物(PM10),126,202,202,75,50,132,0,91,34,80,35,12,14,1.0,0.9
2022-03-09T05:00:00,1182A,117.2933,34.2778,徐州市,农科院,颗粒物(PM10),128,205,188,80,47,124,3,13,5,82,48,13,16,1.0,0.9
2022-03-09T05:00:00,1186A,119.389,32.3761,扬州市,邗江监测站,细颗粒物(PM2.5),80,102,99,59,37,126,59,59,59,54,41,17,14,0.7,0.7
2022-03-09T05:00:00,1188A,120.269,31.4867,无锡市,雪浪,颗粒物(PM10),69,88,65,44,23,130,16,52,39,74,37,10,7,1.1,0.9
2022-03-09T05:00:00,1189A,120.275,31.6219,无锡市,黄巷,颗粒物(PM10),71,91,69,46,25,136,6,53,26,119,63,10,8,0.7,0.6
2022-03-09T05:00:00,1190A,120.294,31.56,无锡市,曹张,细颗粒物(PM2.5),64,71,56,46,28,126,43,74,61,44,30,12,9,0.8,0.7
2022-03-09T05:00:00,1191A,120.242,31.5031,无锡市,漆塘,细颗粒物(PM2.5),72,68,64,52,29,133,34,68,49,54,33,8,7,0.8,0.6
2022-03-09T05:00:00,1193A,120.354,31.5475,无锡市,旺庄,颗粒物(PM10),73,95,68,51,30,124,31,61,46,73,50,6,5,0.7,0.6
2022-03-09T05:00:00,1194A,120.245,31.5631,无锡市,荣巷,细颗粒物(PM2.5),62,66,52,44,27,129,46,66,57,47,39,8,7,0.7,0.5
2022-03-09T05:00:00,1195A,120.299,31.6817,无锡市,堰桥,细颗粒物(PM2.5),77,97,76,56,30,130,52,66,60,51,50,8,8,1.2,0.9
2022-03-09T05:00:00,1196A,119.9633,31.762,常州市,市监测站,颗粒物(PM10),99,148,75,56,30,128,36,46,39,71,49,11,9,1.0,0.8
2022-03-09T05:00:00,1200A,119.9468,31.7069,常州市,武进监测站,颗粒物(PM10),90,130,70,66,34,135,52,68,53,57,39,13,11,0.8,0.7
2022-03-09T05:00:00,1201A,119.9255,31.9087,常州市,安家,颗粒物(PM10),94,138,85,53,32,136,13,5,5,84,60,7,9,0.8,1
2022-03-09T05:00:00,1203A,119.6707,32.1875,镇江市,新区办事处,颗粒物(PM10),89,127,88,60,36,130,6,29,13,116,54,8,8,0.7,0.6
2022-03-09T05:00:00,1204A,119.4974,32.1968,镇江市,职教中心,细颗粒物(PM2.5),92,120,84,68,37,133,46,61,57,55,33,15,14,0.8,0.6
2022-03-09T05:00:00,1205A,119.4303,32.1328,镇江市,丹徒区监测站,细颗粒物(PM2.5),87,111,75,64,39,132,63,46,46,48,46,11,10,0.3,0.6
2022-03-09T05:00:00,1206A,119.905,32.4878,泰州市,公园路,细颗粒物(PM2.5),77,97,104,56,43,134,44,52,36,61,42,12,13,0.9,1
2022-03-09T05:00:00,1207A,119.9189,32.4625,泰州市,莲花,颗粒物(PM10),83,115,115,53,48,140,35,40,29,67,46,6,8,0.8,0.9
2022-03-09T05:00:00,1209A,119.888,32.4639,泰州市,留学生创业园,颗粒物(PM10),90,130,108,55,43,134,55,44,38,53,47,14,16,0.9,0.9
2022-03-09T05:00:00,1210A,119.036,33.5981,淮安市,钵池山,颗粒物(PM10),92,134,129,67,46,126,51,79,65,48,43,9,12,0.8,0.9
2022-03-09T05:00:00,1211A,119.007,33.575,淮安市,北京南路,颗粒物(PM10),93,136,151,60,46,127,24,24,24,64,61,9,12,1.0,1
2022-03-09T05:00:00,1212A,118.989,33.6067,淮安市,市监测站,颗粒物(PM10),108,165,162,48,36,142,48,87,76,57,43,14,13,0.6,0.6
2022-03-09T05:00:00,1213A,119.135,33.5039,淮安市,楚州区监测站,颗粒物(PM10),99,147,140,65,43,136,29,77,58,47,31,10,12,0.8,0.7
2022-03-09T05:00:00,1214A,119.0186,33.6297,淮安市,淮阴区监测站,颗粒物(PM10),88,126,120,56,40,128,35,67,57,61,51,9,11,0.6,0.7
2022-03-09T05:00:00,1215A,120.118,33.4022,盐城市,盐城电厂,细颗粒物(PM2.5),132,129,129,100,60,161,31,56,47,47,35,8,10,0.9,0.8
2022-03-09T05:00:00,1216A,120.156,33.3942,盐城市,市监测站,细颗粒物(PM2.5),125,114,108,95,65,151,30,49,40,49,40,14,14,0.5,0.6
2022-03-09T05:00:00,1218A,120.2144,33.38,盐城市,开发区管委会,细颗粒物(PM2.5),99,94,90,74,52,148,36,50,46,36,35,4,7,0.6,0.7
2022-03-09T05:00:00,1220A,118.293,33.9528,宿迁市,宿迁学院,颗粒物(PM10),101,151,133,73,52,139,41,92,68,61,38,14,8,0.9,0.8
2022-03-09T05:00:00,1221A,118.2442,33.9592,宿迁市,宿迁中学,颗粒物(PM10),120,189,139,69,47,136,56,110,83,46,31,17,8,0.9,0.6
2022-03-09T05:00:00,1223A,120.2072,30.2111,杭州市,滨江,,49,49,77,20,38,120,2,6,3,73,56,6,7,0.7,0.6
2022-03-09T05:00:00,1224A,120.0633,30.2747,杭州市,西溪,"颗粒物(PM10),细颗粒物(PM2.5)",57,63,64,40,31,125,5,6,5,58,46,3,4,0.4,0.4
2022-03-09T05:00:00,1226A,120.3461,30.3153,杭州市,下沙,,,137,97,69,48,125,2,24,7,99,63,10,8,1.0,0.7
2022-03-09T05:00:00,1227A,120.1269,30.2456,杭州市,卧龙桥,细颗粒物(PM2.5),80,108,61,59,28,119,2,2,2,36,35,6,6,0.7,0.6
2022-03-09T05:00:00,1228A,120.1903,30.2692,杭州市,浙江农大,细颗粒物(PM2.5),83,104,88,61,45,122,4,15,7,67,49,7,7,0.8,0.6
2022-03-09T05:00:00,1230A,120.1197,30.3119,杭州市,和睦小学,颗粒物(PM10),74,97,84,43,41,122,3,4,3,65,50,6,6,0.9,0.8
2022-03-09T05:00:00,1231A,120.3019,30.4183,杭州市,临平镇,细颗粒物(PM2.5),98,132,98,73,43,115,18,45,31,56,40,4,5,0.9,0.8
2022-03-09T05:00:00,1232A,120.2697,30.1819,杭州市,城厢镇,颗粒物(PM10),59,68,77,24,32,124,3,9,5,79,59,7,7,0.7,0.7
2022-03-09T05:00:00,1233A,120.0883,30.1808,杭州市,云栖,颗粒物(PM10),69,87,56,38,24,117,9,24,17,34,34,6,6,0.6,0.6
2022-03-09T05:00:00,1234A,121.8358,29.911,宁波市,区环保大楼,,37,37,70,16,37,139,103,128,119,16,39,10,12,0.7,0.9
2022-03-09T05:00:00,1235A,121.56,29.82,宁波市,万里学院,,48,48,63,24,35,162,117,121,119,16,23,11,15,0.5,0.5
2022-03-09T05:00:00,1236A,121.713,29.9572,宁波市,龙赛医院,"颗粒物(PM10),细颗粒物(PM2.5)",67,83,69,48,39,135,66,95,89,53,47,10,12,0.9,0.8
2022-03-09T05:00:00,1239A,121.633,29.7733,宁波市,钱湖水厂,,36,27,51,14,33,153,114,117,116,6,21,8,10,0.6,0.7
2022-03-09T05:00:00,1240A,121.5856,29.8635,宁波市,太古小学,颗粒物(PM10),58,65,59,33,37,134,87,92,91,24,34,9,12,0.7,0.7
2022-03-09T05:00:00,1241A,121.524,29.8674,宁波市,市环境监测中心,颗粒物(PM10),58,65,67,27,26,134,78,103,96,25,29,48,16,0.5,0.5
2022-03-09T05:00:00,1242A,120.634,28.0089,温州市,瓯海,颗粒物(PM10),68,85,68,42,30,111,3,7,5,71,53,8,8,0.5,0.5
2022-03-09T05:00:00,1243A,120.6748,27.9939,温州市,南浦,颗粒物(PM10),71,92,68,42,34,103,15,13,12,58,45,7,8,0.4,0.4
2022-03-09T05:00:00,1244A,120.76,27.9747,温州市,龙湾,颗粒物(PM10),76,102,92,37,33,105,6,4,4,79,60,6,6,0.5,0.5
2022-03-09T05:00:00,1245A,120.6709,28.0167,温州市,市站,颗粒物(PM10),59,68,72,28,27,103,19,29,21,55,45,7,7,0.4,0.4
2022-03-09T05:00:00,1247A,120.6053,29.9928,绍兴市,城东开发委,颗粒物(PM10),59,68,56,38,28,129,38,87,68,34,28,4,5,0.7,0.6
2022-03-09T05:00:00,1250A,120.0751,30.8669,湖州市,城西水厂,细颗粒物(PM2.5),90,80,60,67,34,104,8,65,44,80,46,7,7,1.0,0.6
2022-03-09T05:00:00,1252A,120.7436,30.778,嘉兴市,清河小学,颗粒物(PM10),62,74,64,40,31,101,36,62,46,48,42,10,11,0.4,0.5
2022-03-09T05:00:00,1253A,120.726,30.7478,嘉兴市,嘉兴学院,颗粒物(PM10),65,79,61,36,24,114,30,72,58,56,39,12,11,0.5,0.5
2022-03-09T05:00:00,1256A,121.419,28.6542,台州市,台州环保大楼,颗粒物(PM10),71,91,111,42,47,134,40,62,37,41,36,7,6,0.5,0.4
2022-03-09T05:00:00,1257A,121.377,28.5773,台州市,路桥田洋王,颗粒物(PM10),58,65,75,40,44,129,26,13,13,43,40,7,7,0.3,0.4
2022-03-09T05:00:00,1258A,122.122,30.0203,舟山市,定海檀枫,,45,45,51,24,29,146,53,58,54,24,40,4,6,0.6,0.7
2022-03-09T05:00:00,1259A,122.3094,29.9558,舟山市,普陀东港,,40,40,56,23,36,144,82,89,88,20,42,5,8,0.5,0.7
2022-03-09T05:00:00,1260A,122.19,29.9944,舟山市,临城新区,,38,38,64,26,34,143,62,56,56,16,39,3,5,0.4,0.5
2022-03-09T05:00:00,1262A,119.647,29.077,金华市,十五中,颗粒物(PM10),66,82,64,42,25,124,2,24,11,75,46,7,5,0.5,0.5
2022-03-09T05:00:00,1263A,119.686,29.1029,金华市,监测站,颗粒物(PM10),70,89,58,41,24,114,1,2,1,72,46,7,5,0.7,0.6
2022-03-09T05:00:00,1265A,118.8709,28.9666,衢州市,实验学校,,42,42,48,20,25,97,0,2,1,28,28,6,10,0.6,0.7
2022-03-09T05:00:00,1266A,118.8621,28.9808,衢州市,衢州学院,颗粒物(PM10),52,53,52,21,23,94,2,2,2,42,37,4,9,0.8,0.9
2022-03-09T05:00:00,1267A,119.914,28.4514,丽水市,监测站大楼,,27,27,45,14,22,93,4,25,14,34,29,9,5,0.3,0.4
2022-03-09T05:00:00,1268A,119.93,28.4586,丽水市,莲都小学,,41,41,46,11,16,92,25,18,18,34,28,6,6,0.2,0.3
2022-03-09T05:00:00,1269A,119.879,28.4231,丽水市,余庄前,,40,29,28,28,13,99,8,31,21,17,18,7,8,0.3,0.4
2022-03-09T05:00:00,1270A,117.1959,31.7848,合肥市,明珠广场,颗粒物(PM10),54,58,79,17,22,111,48,56,54,39,36,9,7,0.4,0.3
2022-03-09T05:00:00,1271A,117.3072,31.8764,合肥市,三里街,颗粒物(PM10),64,78,85,22,19,96,22,37,31,60,48,14,7,0.6,0.5
2022-03-09T05:00:00,1272A,117.2588,31.8707,合肥市,琥珀山庄,颗粒物(PM10),77,104,82,27,17,113,31,60,51,60,36,24,7,0.6,0.4
2022-03-09T05:00:00,1273A,117.1604,31.9052,合肥市,董铺水库(对照点),颗粒物(PM10),62,73,86,14,18,98,40,56,53,42,29,13,6,0.8,0.7
2022-03-09T05:00:00,1274A,117.25,31.8571,合肥市,长江中路,颗粒物(PM10),74,97,82,19,17,109,36,71,57,56,39,17,7,0.5,0.5
2022-03-09T05:00:00,1275A,117.266,31.9436,合肥市,庐阳区,颗粒物(PM10),65,80,93,14,16,103,12,55,37,70,36,10,7,0.6,0.5
2022-03-09T05:00:00,1276A,117.336,31.8586,合肥市,瑶海区,颗粒物(PM10),74,97,86,22,21,115,21,57,44,64,40,13,8,0.7,0.5
2022-03-09T05:00:00,1277A,117.3027,31.7964,合肥市,包河区,颗粒物(PM10),70,90,73,29,23,122,37,84,58,50,29,8,5,0.6,0.4
2022-03-09T05:00:00,1278A,117.2776,31.7385,合肥市,滨湖新区,颗粒物(PM10),67,84,70,22,19,126,54,103,84,33,15,12,8,1.2,1
2022-03-09T05:00:00,1279A,117.1318,31.8403,合肥市,高新区,颗粒物(PM10),51,51,83,14,20,124,72,71,71,31,33,12,8,0.6,0.5
2022-03-09T05:00:00,1280A,119.3903,26.0543,福州市,鼓山(对照点),,36,36,24,9,8,120,110,112,111,7,10,4,4,0.2,0.2
2022-03-09T05:00:00,1282A,119.2681,26.0504,福州市,师大,,35,35,29,14,10,107,55,57,57,20,21,7,2,0.4,0.4
2022-03-09T05:00:00,1283A,119.2984,26.1028,福州市,五四北路,,25,25,32,9,10,99,50,40,40,17,23,2,3,0.3,0.4
2022-03-09T05:00:00,1284A,119.2648,26.0768,福州市,杨桥西路,,34,34,30,8,11,96,42,42,42,21,21,4,3,0.5,0.5
2022-03-09T05:00:00,1285A,119.317,26.0746,福州市,紫阳,,29,29,31,13,15,100,56,49,49,18,23,5,5,0.4,0.4
2022-03-09T05:00:00,1286A,118.1608,24.8169,厦门市,溪东(对照点),,24,20,21,8,11,117,74,73,73,4,4,1,1,0.2,0.2
2022-03-09T05:00:00,1287A,118.1514,24.4767,厦门市,洪文,,18,18,20,4,6,100,47,52,51,17,21,3,4,0.2,0.4
2022-03-09T05:00:00,1288A,118.0661,24.4444,厦门市,鼓浪屿,,40,40,32,10,8,112,48,70,60,28,17,1,2,0.3,0.3
2022-03-09T05:00:00,1290A,115.8931,28.6843,南昌市,省外办,颗粒物(PM10),65,79,69,38,29,121,4,4,4,58,46,9,8,1.5,1.1
2022-03-09T05:00:00,1291A,115.8886,28.7003,南昌市,省林业公司,颗粒物(PM10),94,137,66,32,23,114,0,8,3,35,46,9,6,1.0,0.7
2022-03-09T05:00:00,1292A,115.8126,28.7442,南昌市,林科所,,36,36,46,13,22,122,23,34,32,44,35,6,7,0.3,0.3
2022-03-09T05:00:00,1294A,115.8518,28.687,南昌市,建工学校,颗粒物(PM10),57,63,68,24,24,116,2,3,2,68,50,9,11,0.7,0.6
2022-03-09T05:00:00,1295A,115.8921,28.6424,南昌市,象湖,颗粒物(PM10),67,83,74,40,28,116,2,2,2,55,53,5,7,1.4,0.7
2022-03-09T05:00:00,1296A,115.7423,28.7996,南昌市,武术学校(对照点),,19,19,31,9,14,119,13,21,17,6,12,3,5,0.4,0.4
2022-03-09T05:00:00,1298A,115.9314,28.6842,南昌市,省站,颗粒物(PM10),67,84,70,33,31,119,3,3,3,62,44,8,7,0.9,0.7
2022-03-09T05:00:00,1299A,116.9862,36.6114,济南市,科干所,颗粒物(PM10),117,183,169,37,38,138,99,99,97,6,10,11,13,0.6,0.7
2022-03-09T05:00:00,1300A,116.9376,36.665,济南市,农科所,颗粒物(PM10),129,208,192,39,39,140,21,15,15,30,28,11,13,1.0,0.9
2022-03-09T05:00:00,1303A,117.0624,36.6868,济南市,省种子仓库,颗粒物(PM10),111,171,167,49,56,151,10,18,10,81,54,11,12,0.9,1.1
2022-03-09T05:00:00,1304A,116.9489,36.6447,济南市,机床二厂,颗粒物(PM10),138,225,214,49,46,142,32,41,39,52,41,12,14,0.7,0.7
2022-03-09T05:00:00,1305A,117.0495,36.663,济南市,市监测站,颗粒物(PM10),106,161,165,35,41,147,29,44,33,61,46,12,12,0.6,0.5
2022-03-09T05:00:00,1306A,116.7675,36.5484,济南市,长清党校,颗粒物(PM10),130,210,210,34,43,144,66,81,67,44,29,12,14,0.6,0.7
2022-03-09T05:00:00,1307A,120.6659,36.2403,青岛市,仰口(对照点),细颗粒物(PM2.5),52,36,83,36,50,96,50,54,46,23,27,1,3,0.8,0.9
2022-03-09T05:00:00,1310A,120.4134,36.0658,青岛市,市南区东部子站,,,141,102,,45,110,100,87,87,41,52,10,9,0.6,0.7
2022-03-09T05:00:00,1311A,120.3664,36.1032,青岛市,四方区子站,细颗粒物(PM2.5),134,146,117,102,66,130,99,86,86,29,49,8,9,0.7,0.9
2022-03-09T05:00:00,1312A,120.2994,36.054,青岛市,市南区西部子站,细颗粒物(PM2.5),138,153,107,105,63,93,69,72,70,42,48,12,10,0.7,0.8
2022-03-09T05:00:00,1313A,120.4581,36.0858,青岛市,崂山区子站,细颗粒物(PM2.5),104,134,102,78,56,104,99,78,78,35,38,8,9,0.8,0.8
2022-03-09T05:00:00,1314A,120.1983,35.9608,青岛市,黄岛区子站,细颗粒物(PM2.5),135,144,107,103,64,124,52,82,61,41,48,5,9,0.8,0.8
2022-03-09T05:00:00,1315A,120.3999,36.3083,青岛市,城阳区子站,颗粒物(PM10),140,229,144,71,49,133,4,42,21,81,74,6,9,1.0,1
2022-03-09T05:00:00,1316A,113.69031,34.76122,郑州市,烟厂,颗粒物(PM10),104,158,188,48,49,130,2,54,42,87,37,9,9,0.6,0.6
2022-03-09T05:00:00,1317A,113.65724,34.77134,郑州市,郑纺机,颗粒物(PM10),104,158,193,46,44,126,23,57,48,76,40,9,10,0.7,0.7
2022-03-09T05:00:00,1318A,113.67526,34.80246,郑州市,银行学校,颗粒物(PM10),93,136,174,47,41,142,5,21,11,78,43,15,11,0.6,0.6
2022-03-09T05:00:00,1319A,113.56746,34.81334,郑州市,供水公司,颗粒物(PM10),103,156,179,55,40,139,2,2,2,89,49,7,8,0.6,0.6
2022-03-09T05:00:00,1320A,113.7329,34.7178,郑州市,经开区管委,颗粒物(PM10),98,145,179,48,47,128,12,24,22,66,42,8,9,0.7,0.7
2022-03-09T05:00:00,1321A,113.73961,34.77172,郑州市,四十七中,颗粒物(PM10),103,155,190,45,47,134,2,18,14,82,45,6,8,0.8,0.7
2022-03-09T05:00:00,1322A,113.60532,34.74838,郑州市,市监测站,颗粒物(PM10),97,144,180,41,36,128,53,64,62,43,38,11,11,0.8,0.7
2022-03-09T05:00:00,1323A,113.64164,34.7525,郑州市,河医大,颗粒物(PM10),107,163,187,56,52,126,46,53,52,43,43,4,5,0.6,0.6
2022-03-09T05:00:00,1324A,113.51488,34.91089,郑州市,岗李水库(对照点),颗粒物(PM10),109,168,188,48,42,132,18,25,18,41,24,9,9,1.0,0.8
2022-03-09T05:00:00,1325A,114.3677,30.5584,武汉市,东湖梨园,,41,41,67,17,26,127,58,70,66,34,30,8,10,0.6,0.8
2022-03-09T05:00:00,1326A,114.2529,30.558,武汉市,汉阳月湖,,43,43,70,17,20,122,47,67,59,46,32,11,9,0.7,0.8
2022-03-09T05:00:00,1327A,114.282,30.6189,武汉市,汉口花桥,,39,39,66,12,26,114,66,69,67,26,30,14,12,0.6,0.7
2022-03-09T05:00:00,1328A,114.3025,30.5332,武汉市,武昌紫阳,,40,40,63,15,22,118,49,56,52,37,29,14,12,1.0,1.1
2022-03-09T05:00:00,1329A,114.3646,30.6217,武汉市,青山钢花,,45,45,74,22,31,123,57,63,62,43,34,19,14,1.2,0.8
2022-03-09T05:00:00,1330A,114.1566,30.4825,武汉市,沌口新区,颗粒物(PM10),57,63,78,25,26,117,41,47,45,46,37,14,11,0.9,0.8
2022-03-09T05:00:00,1331A,114.3014,30.5944,武汉市,汉口江滩,,46,46,70,17,22,117,65,70,63,36,43,12,12,0.6,0.8
2022-03-09T05:00:00,1333A,114.135,30.6319,武汉市,吴家山,,50,50,78,20,22,122,52,54,53,41,38,15,13,1.1,1.1
2022-03-09T05:00:00,1335A,113.0833,28.2325,长沙市,经开区环保局,颗粒物(PM10),53,56,45,30,25,127,28,66,50,63,31,8,9,0.5,0.5
2022-03-09T05:00:00,1336A,112.8872,28.2189,长沙市,高开区环保局,,44,44,50,23,26,133,54,80,75,45,24,7,7,0.7,0.8
2022-03-09T05:00:00,1337A,113.0792,28.2053,长沙市,马坡岭,颗粒物(PM10),54,57,56,22,24,130,17,63,43,69,28,8,8,0.4,0.4
2022-03-09T05:00:00,1338A,112.9394,28.19,长沙市,湖南师范大学,,42,42,54,22,31,124,64,83,75,17,24,7,8,0.6,0.7
2022-03-09T05:00:00,1339A,113.0178,28.1322,长沙市,雨花区环保局,,48,48,51,20,26,127,96,92,92,16,25,10,9,0.6,0.6
2022-03-09T05:00:00,1340A,112.9792,28.2597,长沙市,伍家岭,颗粒物(PM10),55,59,64,25,24,119,11,20,17,59,44,6,6,0.5,0.7
2022-03-09T05:00:00,1341A,113.0014,28.1944,长沙市,火车新站,,49,49,58,24,25,114,32,62,50,57,40,7,8,0.5,0.6
2022-03-09T05:00:00,1342A,112.9844,28.1178,长沙市,天心区环保局,,50,50,52,18,28,120,62,82,72,34,27,8,6,0.5,0.6
2022-03-09T05:00:00,1343A,112.8908,28.1308,长沙市,湖南中医药大学,颗粒物(PM10),51,51,56,17,24,124,3,38,17,71,49,5,5,0.4,0.5
2022-03-09T05:00:00,1344A,112.9581,28.3611,长沙市,沙坪(对照点),,43,43,56,18,23,120,78,90,87,21,24,9,9,0.5,0.6
2022-03-09T05:00:00,1345A,113.2347,23.1423,广州市,广雅中学,,32,32,43,12,19,177,58,82,68,38,31,8,8,0.6,0.6
2022-03-09T05:00:00,1346A,113.2612,23.105,广州市,市五中,,28,28,39,13,19,194,62,85,68,39,28,6,6,0.5,0.6
2022-03-09T05:00:00,1348A,113.3478,23.0916,广州市,广东商学院,,48,32,39,13,17,196,6,55,33,95,41,6,6,0.5,0.5
2022-03-09T05:00:00,1349A,113.4332,23.1047,广州市,市八十六中,,43,43,47,11,18,185,14,46,26,78,49,10,9,0.9,0.7
2022-03-09T05:00:00,1350A,113.3505,22.9483,广州市,番禺中学,,32,32,40,13,18,212,64,82,69,36,32,8,9,0.4,0.4
2022-03-09T05:00:00,1351A,113.2146,23.3916,广州市,花都师范,,50,50,44,19,20,133,8,56,45,84,37,4,4,0.7,0.6
2022-03-09T05:00:00,1352A,113.2597,23.1331,广州市,市监测站,,29,29,40,11,18,188,50,82,66,40,29,6,6,0.6,0.7
2022-03-09T05:00:00,1353A,113.5618,23.312,广州市,九龙镇镇龙,颗粒物(PM10),54,58,52,22,19,105,0,8,2,47,46,5,5,0.6,0.5
2022-03-09T05:00:00,1354A,113.2765,23.1544,广州市,麓湖,,39,28,37,10,17,169,11,75,48,78,34,7,7,0.6,0.6
2022-03-09T05:00:00,1355A,113.443,23.3035,广州市,帽峰山森林公园(对照点),,42,42,33,21,15,133,18,73,43,54,24,8,8,0.7,0.6
2022-03-09T05:00:00,1356A,114.1063,22.5545,深圳市,通心岭子站,,26,21,19,5,7,109,81,98,86,7,8,3,3,0.5,0.5
2022-03-09T05:00:00,1357A,114.117,22.5625,深圳市,洪湖,,29,29,26,5,7,120,87,95,91,15,16,5,5,0.5,0.5
2022-03-09T05:00:00,1358A,113.987,22.5417,深圳市,华侨城,,26,22,21,6,8,106,83,105,89,5,17,6,6,0.5,0.3
2022-03-09T05:00:00,1359A,113.9181,22.5171,深圳市,南海子站,,25,25,24,6,10,100,76,100,86,12,19,3,4,0.4,0.5
2022-03-09T05:00:00,1360A,114.2458,22.5689,深圳市,盐田,,21,18,18,6,7,117,66,82,76,21,21,2,3,0.6,0.6
2022-03-09T05:00:00,1361A,114.2283,22.7244,深圳市,龙岗,,31,31,26,8,9,122,58,105,84,33,22,2,2,0.3,0.3
2022-03-09T05:00:00,1363A,114.494,22.5422,深圳市,南澳,,29,29,18,11,7,101,88,88,87,8,10,4,3,0.5,0.5
2022-03-09T05:00:00,1364A,114.41,22.6342,深圳市,葵涌,,23,20,20,6,8,118,71,98,85,8,11,3,7,0.3,0.2
2022-03-09T05:00:00,1365A,114.297,22.5978,深圳市,梅沙,,26,21,23,3,6,123,83,95,86,6,10,8,8,0.4,0.4
2022-03-09T05:00:00,1366A,114.0678,22.738,深圳市,观澜,颗粒物(PM10),52,54,37,23,14,125,51,85,70,34,33,5,5,0.7,0.8
2022-03-09T05:00:00,1367A,113.5814,22.2618,珠海市,吉大,,27,18,20,2,6,110,84,102,92,14,12,8,9,0.3,0.3
2022-03-09T05:00:00,1368A,113.4881,22.2335,珠海市,前山,,26,16,21,8,9,114,82,105,89,24,26,10,11,0.1,0.1
2022-03-09T05:00:00,1369A,113.628,22.4251,珠海市,唐家,,27,18,21,3,7,115,85,98,90,12,14,8,8,0.2,0.2
2022-03-09T05:00:00,1370A,113.299,22.2281,珠海市,斗门,,29,22,20,7,8,127,92,100,97,16,16,7,7,0.2,0.2
2022-03-09T05:00:00,1371A,113.1294,23.0067,佛山市,湾梁,,27,27,45,15,14,204,50,64,58,51,31,7,7,0.4,0.5
2022-03-09T05:00:00,1372A,113.1083,23.0478,佛山市,华材职中,,24,24,41,11,20,198,66,72,70,28,27,7,8,0.4,0.4
2022-03-09T05:00:00,1373A,113.144,23.0453,佛山市,南海气象局,,22,20,42,15,18,177,50,49,49,37,33,6,5,0.4,0.5
2022-03-09T05:00:00,1374A,113.2881,22.8094,佛山市,顺德苏岗,,21,20,28,7,14,172,67,84,74,35,33,1,2,0.6,0.6
2022-03-09T05:00:00,1376A,112.8383,22.8678,佛山市,高明孔堂,,21,21,39,9,12,190,58,90,77,18,26,5,7,0.4,0.4
2022-03-09T05:00:00,1377A,112.8836,23.1588,佛山市,三水监测站,,44,44,50,20,21,134,44,58,43,44,42,9,7,0.5,0.5
2022-03-09T05:00:00,1378A,112.867,23.185,佛山市,三水云东海,,43,43,45,14,19,145,33,54,45,37,37,5,7,0.2,0.4
2022-03-09T05:00:00,1379A,113.3769,22.5211,中山市,华柏园,,25,15,25,8,9,114,77,84,82,16,19,4,4,0.2,0.3
2022-03-09T05:00:00,1380A,113.3881,22.5497,中山市,张溪,,23,18,37,9,12,123,72,88,77,18,21,4,5,0.2,0.3
2022-03-09T05:00:00,1381A,113.4075,22.5111,中山市,紫马岭,,25,20,25,17,10,122,66,84,80,19,15,8,6,0.4,0.4
2022-03-09T05:00:00,1382A,113.4411,22.4853,中山市,长江旅游区(对照点),,25,7,16,17,9,124,68,64,57,14,16,4,4,0.3,0.3
2022-03-09T05:00:00,1383A,113.1064,22.6058,江门市,北街,,20,18,32,12,13,165,61,81,68,33,29,9,9,0.4,0.4
2022-03-09T05:00:00,1384A,113.0731,22.5835,江门市,西区,,30,30,38,21,13,182,77,92,79,26,26,9,7,0.2,0.3
2022-03-09T05:00:00,1385A,113.0219,22.5311,江门市,圭峰西,,26,26,29,16,18,177,62,87,70,20,22,7,5,0.5,0.4
2022-03-09T05:00:00,1386A,113.0828,22.5947,江门市,东湖,,32,28,36,22,11,177,64,90,71,23,22,8,7,0.3,0.3
2022-03-09T05:00:00,1389A,113.7547,23.0494,东莞市,莞城梨川,,41,41,38,16,16,188,66,64,64,31,29,9,9,0.4,0.3
2022-03-09T05:00:00,1390A,113.7944,23.0128,东莞市,东城石井,,29,29,33,13,17,203,59,45,44,27,34,7,8,0.4,0.4
2022-03-09T05:00:00,1391A,113.7383,22.9658,东莞市,南城西平,颗粒物(PM10),55,60,42,24,21,207,34,32,28,60,40,8,9,0.6,0.6
2022-03-09T05:00:00,1392A,114.4183,23.0528,惠州市,河南岸金山湖子站,,28,28,27,11,11,126,49,80,67,25,18,4,4,0.5,0.4
2022-03-09T05:00:00,1393A,114.4053,23.0822,惠州市,下埔横江三路子站,,30,30,28,10,10,126,86,89,89,16,18,6,5,0.4,0.4
2022-03-09T05:00:00,1394A,114.4103,23.1142,惠州市,江北云山西路子站,,25,24,26,13,12,128,78,92,88,18,14,7,5,0.5,0.5
2022-03-09T05:00:00,1395A,114.4645,22.7833,惠州市,惠阳区承修路船湖子站,,41,41,26,9,7,114,33,99,76,41,16,4,4,0.5,0.3
2022-03-09T05:00:00,1396A,114.5317,22.7422,惠州市,大亚湾管委会子站,,22,22,28,12,11,112,58,86,73,25,16,7,6,0.5,0.5
2022-03-09T05:00:00,1397A,112.4267,23.0706,肇庆市,睦岗子站,,42,42,53,23,25,168,22,94,65,57,39,7,10,0.6,0.6
2022-03-09T05:00:00,1398A,112.4645,23.0475,肇庆市,城中子站,颗粒物(PM10),62,74,60,38,27,167,18,76,51,70,45,19,11,0.5,0.4
2022-03-09T05:00:00,1399A,112.5544,23.1522,肇庆市,坑口子站,,26,26,48,14,24,201,65,83,72,17,22,7,8,0.4,0.4
2022-03-09T05:00:00,1400A,112.4753,23.1,肇庆市,七星岩子站(对照点),,45,45,52,25,27,174,71,71,71,22,27,20,12,0.7,0.7
2022-03-09T05:00:00,1401A,108.3103,22.7881,南宁市,二十一中,,45,45,67,31,29,132,95,120,108,16,20,8,9,0.6,0.6
2022-03-09T05:00:00,1402A,108.3141,22.8528,南宁市,北湖,颗粒物(PM10),52,53,72,32,20,133,94,115,105,12,18,11,12,0.6,0.6
2022-03-09T05:00:00,1403A,108.3206,22.8225,南宁市,市监测站,,40,40,72,23,28,130,97,119,110,15,25,11,12,0.6,0.6
2022-03-09T05:00:00,1404A,108.3829,22.8037,南宁市,大自然花园,,50,50,66,30,26,123,83,108,98,17,18,8,8,0.6,0.6
2022-03-09T05:00:00,1405A,108.4394,22.7904,南宁市,仙葫(对照点),,46,46,70,28,24,131,87,117,102,15,18,9,7,0.5,0.5
2022-03-09T05:00:00,1406A,108.2397,22.8467,南宁市,区农职院,颗粒物(PM10),52,54,67,30,24,133,92,111,100,22,28,9,10,0.6,0.6
2022-03-09T05:00:00,1407A,108.3275,22.735,南宁市,英华嘉园,,49,45,69,34,29,115,85,104,95,18,30,8,9,0.4,0.5
2022-03-09T05:00:00,1408A,108.2257,22.7757,南宁市,沙井镇街道办,颗粒物(PM10),58,66,78,34,32,130,61,102,79,46,33,10,12,0.8,0.6
2022-03-09T05:00:00,1409A,110.576,19.9507,海口市,东寨港(对照点),,18,18,54,8,10,132,31,65,43,10,17,4,5,0.5,0.4
2022-03-09T05:00:00,1410A,110.3232,20.0574,海口市,海南大学,,22,14,33,15,14,128,65,87,79,4,6,5,4,0.3,0.4
2022-03-09T05:00:00,1411A,110.283,20.0053,海口市,秀英海南医院,,28,21,36,17,16,140,89,90,87,2,5,3,4,0.2,0.3
2022-03-09T05:00:00,1412A,110.338,19.9969,海口市,海南师范大学,,25,18,34,10,10,122,80,81,79,6,8,4,4,0.4,0.4
2022-03-09T05:00:00,1413A,110.33,20.0356,海口市,龙华路环保局宿舍,,29,26,38,10,10,134,91,96,94,5,6,6,6,0.4,0.4
2022-03-09T05:00:00,1414A,106.3787,29.8279,重庆市,缙云山(对照点),,46,46,47,23,24,167,117,155,134,14,19,12,12,0.6,0.6
2022-03-09T05:00:00,1416A,106.4213,29.8253,重庆市,天生,细颗粒物(PM2.5),72,89,63,52,33,153,2,4,4,64,47,7,11,1.0,0.8
2022-03-09T05:00:00,1417A,106.6263,29.7228,重庆市,两路,颗粒物(PM10),59,67,51,30,24,145,33,82,58,102,59,11,10,0.9,0.8
2022-03-09T05:00:00,1418A,106.2953,29.5983,重庆市,虎溪,细颗粒物(PM2.5),58,48,50,41,27,163,18,19,19,81,69,7,8,0.8,1.1
2022-03-09T05:00:00,1419A,106.5777,29.5102,重庆市,南坪,细颗粒物(PM2.5),57,61,50,40,27,156,60,54,51,41,50,9,7,0.7,0.7
2022-03-09T05:00:00,1420A,106.6556,29.6277,重庆市,唐家沱,颗粒物(PM10),68,85,59,37,30,150,5,43,14,48,41,4,5,0.6,0.6
2022-03-09T05:00:00,1421A,106.6349,29.4906,重庆市,茶园,颗粒物(PM10),62,73,63,38,29,158,10,13,13,73,59,7,9,0.7,0.7
2022-03-09T05:00:00,1422A,106.3754,29.4572,重庆市,白市驿,颗粒物(PM10),61,72,68,33,23,154,77,130,100,31,33,15,12,0.8,0.7
2022-03-09T05:00:00,1425A,106.6205,29.7166,重庆市,空港,颗粒物(PM10),66,81,62,36,27,148,10,80,49,96,40,6,6,0.8,0.7
2022-03-09T05:00:00,1426A,106.4782,29.4875,重庆市,新山村,颗粒物(PM10),76,101,67,45,31,117,5,6,5,110,83,13,10,1.4,0.9
2022-03-09T05:00:00,1427A,106.5616,29.6453,重庆市,礼嘉,颗粒物(PM10),68,86,60,25,20,160,5,24,16,97,65,8,8,1.0,0.8
2022-03-09T05:00:00,1428A,106.4522,29.7091,重庆市,蔡家,细颗粒物(PM2.5),62,51,64,44,31,151,7,10,7,61,57,5,6,0.9,0.9
2022-03-09T05:00:00,1429A,106.5093,29.3917,重庆市,鱼新街,颗粒物(PM10),71,92,69,41,30,145,5,5,5,70,59,13,10,1.0,1
2022-03-09T05:00:00,1431A,103.9728,30.7236,成都市,金泉两河,细颗粒物(PM2.5),92,93,100,68,64,184,0,10,2,68,47,4,7,0.9,0.6
2022-03-09T05:00:00,1432A,104.1419,30.6764,成都市,十里店,颗粒物(PM10),106,162,127,75,64,146,0,2,1,96,66,6,6,,0.7
2022-03-09T05:00:00,1433A,104.0594,30.5767,成都市,三瓦窑,细颗粒物(PM2.5),119,155,138,90,79,171,0,0,0,117,85,7,7,1.0,0.9
2022-03-09T05:00:00,1434A,104.1122,30.6306,成都市,沙河铺,细颗粒物(PM2.5),113,151,122,85,80,181,2,1,1,91,69,4,5,0.9,0.9
2022-03-09T05:00:00,1437A,104.0431,30.6556,成都市,君平街,细颗粒物(PM2.5),114,128,119,86,77,177,4,34,12,98,74,6,9,1.3,1
2022-03-09T05:00:00,1438A,103.6202,31.0201,成都市,灵岩寺(对照点),细颗粒物(PM2.5),73,68,63,53,46,175,104,134,121,14,14,28,12,0.7,0.6
2022-03-09T05:00:00,1439A,106.6899,26.5998,贵阳市,马鞍山,,46,46,55,29,31,114,99,98,98,10,19,6,7,0.3,0.4
2022-03-09T05:00:00,1440A,106.6971,26.5694,贵阳市,市环保站,,44,44,64,17,25,105,82,78,78,22,31,3,7,0.4,0.4
2022-03-09T05:00:00,1441A,106.6243,26.6266,贵阳市,鉴湖路,颗粒物(PM10),56,61,62,14,23,113,100,95,95,8,13,3,5,0.4,0.4
2022-03-09T05:00:00,1442A,106.7487,26.6343,贵阳市,燕子冲,"颗粒物(PM10),细颗粒物(PM2.5)",52,54,62,36,33,125,56,69,64,19,18,10,9,0.3,0.3
2022-03-09T05:00:00,1443A,106.6555,26.4365,贵阳市,碧云窝,颗粒物(PM10),56,61,67,27,26,121,104,99,99,11,12,5,7,0.5,0.5
2022-03-09T05:00:00,1444A,106.694,26.5161,贵阳市,中院村,,44,44,64,24,28,107,88,84,84,16,33,8,11,0.5,0.6
2022-03-09T05:00:00,1445A,106.7109,26.6027,贵阳市,红边门,颗粒物(PM10),56,61,68,31,34,110,100,89,89,27,42,22,14,0.3,0.4
2022-03-09T05:00:00,1446A,106.7164,26.5699,贵阳市,新华路,颗粒物(PM10),53,56,68,31,29,116,96,73,73,11,24,7,10,0.4,0.4
2022-03-09T05:00:00,1447A,106.674,26.5424,贵阳市,太慈桥,颗粒物(PM10),52,53,74,19,23,119,92,107,104,19,17,4,5,0.3,0.2
2022-03-09T05:00:00,1450A,102.8204,24.8886,昆明市,呈贡新区,,20,17,33,14,20,115,50,56,55,14,11,10,10,0.4,0.4
2022-03-09T05:00:00,1451A,102.6251,24.9608,昆明市,西山森林公园(对照点),,20,20,33,12,22,104,60,58,58,13,10,13,9,0.3,0.4
2022-03-09T05:00:00,1452A,102.7252,25.0902,昆明市,龙泉镇,,44,44,39,20,22,105,5,44,27,48,23,10,10,0.4,0.5
2022-03-09T05:00:00,1453A,102.7266,25.0375,昆明市,东风东路,,23,23,38,12,22,99,49,43,43,20,22,14,12,0.6,0.5
2022-03-09T05:00:00,1454A,102.6742,25.0669,昆明市,金鼎山,,22,18,34,15,21,100,66,68,67,6,15,8,10,0.4,0.5
2022-03-09T05:00:00,1455A,102.6644,25.0401,昆明市,碧鸡广场,,20,14,32,14,21,99,57,58,56,22,25,12,13,0.7,0.6
2022-03-09T05:00:00,1456A,91.1319,29.6514,拉萨市,八廓街,,15,11,16,8,11,81,45,52,47,14,15,5,6,0.4,0.4
2022-03-09T05:00:00,1457A,91.1221,29.6747,拉萨市,市环保局,,22,22,22,11,12,78,33,47,36,20,16,4,5,0.7,0.5
2022-03-09T05:00:00,1458A,91.0874,29.6475,拉萨市,区监测站,,34,34,17,22,8,93,27,51,39,35,17,6,5,0.7,0.3
2022-03-09T05:00:00,1459A,91.1774,29.6541,拉萨市,西藏大学,,17,17,16,5,7,82,50,54,52,11,12,5,5,0.3,0.4
2022-03-09T05:00:00,1460A,90.9798,29.6588,拉萨市,区辐射站,,17,8,22,2,10,87,54,49,49,10,17,8,6,0.3,0.4
2022-03-09T05:00:00,1461A,91.0834,29.6292,拉萨市,拉萨火车站,,19,15,20,0,5,94,58,58,50,9,12,7,7,0.4,0.4
2022-03-09T05:00:00,1462A,108.882,34.2749,西安市,高压开关厂,颗粒物(PM10),160,269,211,111,74,116,4,3,3,88,70,14,14,1.0,0.8
2022-03-09T05:00:00,1463A,108.993,34.2629,西安市,兴庆小区,颗粒物(PM10),130,209,199,63,62,122,3,3,3,72,65,8,11,0.7,1.1
2022-03-09T05:00:00,1464A,109.06,34.2572,西安市,纺织城,颗粒物(PM10),139,227,207,79,65,125,2,2,2,61,65,7,11,0.7,0.7
2022-03-09T05:00:00,1465A,108.9356,34.2173,西安市,小寨,颗粒物(PM10),131,212,202,85,70,97,2,2,2,90,80,12,12,0.8,0.9
2022-03-09T05:00:00,1466A,108.954,34.2713,西安市,市人民体育场,颗粒物(PM10),125,199,182,78,72,118,3,4,3,80,73,6,10,1.0,0.9
2022-03-09T05:00:00,1467A,108.8922,34.2322,西安市,高新西区,细颗粒物(PM2.5),155,240,195,118,81,104,5,5,5,91,74,17,14,0.9,0.9
2022-03-09T05:00:00,1468A,108.935,34.3474,西安市,经开区,颗粒物(PM10),126,202,176,76,68,120,7,6,6,85,66,9,9,0.7,0.7
2022-03-09T05:00:00,1469A,108.906,34.1546,西安市,长安区,颗粒物(PM10),133,215,210,84,69,85,4,4,4,77,70,10,11,0.7,0.7
2022-03-09T05:00:00,1471A,109.2186,34.3731,西安市,临潼区,颗粒物(PM10),109,167,159,70,58,123,35,38,37,44,44,10,10,1.0,1
2022-03-09T05:00:00,1472A,108.869,34.378,西安市,草滩(对照点),颗粒物(PM10),124,197,175,91,67,120,5,5,5,82,57,10,12,0.9,0.7
2022-03-09T05:00:00,1473A,108.985,34.1978,西安市,曲江文化产业集团,颗粒物(PM10),133,215,222,82,75,100,3,4,4,84,74,9,11,0.8,1
2022-03-09T05:00:00,1474A,109.051,34.3213,西安市,广运潭,颗粒物(PM10),128,206,199,71,66,125,3,3,3,66,62,7,10,0.6,0.6
2022-03-09T05:00:00,1476A,103.631,36.1031,兰州市,兰炼宾馆,颗粒物(PM10),123,196,134,54,54,125,65,100,79,40,48,9,24,1.1,1.3
2022-03-09T05:00:00,1477A,104.1373,35.9454,兰州市,榆中兰大校区(对照点),颗粒物(PM10),111,172,83,42,28,150,103,99,99,23,18,15,9,0.9,0.7
2022-03-09T05:00:00,1478A,103.8412,36.0726,兰州市,生物制品所,颗粒物(PM10),111,172,126,47,34,147,25,96,36,109,71,10,16,0.8,1.1
2022-03-09T05:00:00,1479A,103.831,36.0464,兰州市,铁路设计院,颗粒物(PM10),117,184,128,62,48,120,46,94,72,65,57,12,18,0.7,1.4
2022-03-09T05:00:00,1483A,101.524,36.6867,西宁市,第五水厂(对照点),颗粒物(PM10),74,97,76,32,24,110,65,109,82,9,14,10,13,0.7,1.1
2022-03-09T05:00:00,1484A,105.9512,38.6016,银川市,贺兰山马莲口(对照点),颗粒物(PM10),83,115,117,27,28,102,88,100,95,10,16,14,29,0.3,0.5
2022-03-09T05:00:00,1488A,106.2328,38.4975,银川市,贺兰山东路,颗粒物(PM10),119,188,177,70,48,112,7,10,9,80,57,14,23,1.2,1.2
2022-03-09T05:00:00,1489A,106.1358,38.5036,银川市,学院路,颗粒物(PM10),123,195,167,38,40,115,7,7,7,77,54,18,37,1.2,1.4
2022-03-09T05:00:00,1490A,87.5801,43.8303,乌鲁木齐市,监测站,颗粒物(PM10),57,64,66,33,35,101,0,0,0,50,41,5,7,1.2,1.1
2022-03-09T05:00:00,1491A,87.6046,43.768,乌鲁木齐市,收费所,细颗粒物(PM2.5),53,52,72,37,45,89,1,1,1,54,42,6,5,0.8,0.7
2022-03-09T05:00:00,1492A,87.4754,43.9469,乌鲁木齐市,新疆农科院农场(对照点),,,,86,42,49,98,1,3,1,67,41,13,10,0.8,0.6
2022-03-09T05:00:00,1493A,87.5525,43.8711,乌鲁木齐市,铁路局,颗粒物(PM10),54,58,72,23,44,104,0,1,0,64,52,4,5,1.1,0.9
2022-03-09T05:00:00,1494A,87.6432,43.831,乌鲁木齐市,三十一中学,颗粒物(PM10),59,67,79,35,36,67,4,3,3,68,40,5,6,1.0,0.8
2022-03-09T05:00:00,1496A,87.7216,44.1747,乌鲁木齐市,米东区环保局,细颗粒物(PM2.5),160,112,107,122,95,80,2,31,21,33,14,8,12,1.0,0.8
2022-03-09T05:00:00,1508A,112.9433,27.8614,湘潭市,板塘,颗粒物(PM10),53,56,59,27,26,120,61,73,65,18,22,4,3,0.4,0.3
2022-03-09T05:00:00,1511A,112.9118,27.8403,湘潭市,市监测站,,46,46,51,23,27,112,72,75,73,22,32,14,10,0.3,0.5
2022-03-09T05:00:00,1512A,112.8937,27.8728,湘潭市,江麓,颗粒物(PM10),58,65,60,26,23,103,28,61,51,42,29,14,13,0.4,0.5
2022-03-09T05:00:00,1513A,112.9227,27.8159,湘潭市,岳塘,,50,50,60,18,24,132,77,78,78,18,23,16,14,0.4,0.6
2022-03-09T05:00:00,1514A,112.9074,27.9119,湘潭市,科大,颗粒物(PM10),61,71,61,27,26,121,17,53,40,57,32,8,8,0.8,0.6
2022-03-09T05:00:00,1515A,113.135,27.8244,株洲市,天台山庄,,45,43,41,31,27,112,32,70,52,43,26,9,8,0.1,0.2
2022-03-09T05:00:00,1518A,113.095,27.8867,株洲市,株冶医院,,41,41,52,24,26,134,58,56,56,33,39,6,7,0.3,0.4
2022-03-09T05:00:00,1519A,113.167,27.8667,株洲市,市四中,,48,48,43,25,28,116,41,32,30,34,33,10,7,0.5,0.6
2022-03-09T05:00:00,1520A,113.143,27.8381,株洲市,火车站,颗粒物(PM10),52,53,54,28,25,128,53,62,58,20,20,10,8,0.4,0.5
2022-03-09T05:00:00,1524A,113.13,27.8528,株洲市,市监测站,颗粒物(PM10),52,53,50,29,27,116,41,71,39,40,33,11,6,0.6,0.6
2022-03-09T05:00:00,1552A,106.805,26.3003,贵阳市,桐木岭(对照点),颗粒物(PM10),56,61,68,29,30,132,117,119,119,6,7,8,9,0.4,0.4
2022-03-09T05:00:00,1559A,113.251,27.8336,株洲市,大京风景区(对照点),,27,27,37,16,21,130,26,55,43,7,9,5,5,0.3,0.5
2022-03-09T05:00:00,1562A,113.0048,27.9153,湘潭市,昭山,颗粒物(PM10),51,51,45,21,21,107,29,40,32,45,30,8,7,0.5,0.6
2022-03-09T05:00:00,1564A,112.4876,27.9164,湘潭市,韶山(对照点),颗粒物(PM10),51,51,68,17,22,120,25,52,40,11,10,3,6,0.5,0.4
2022-03-09T05:00:00,1585A,109.8756,40.6532,包头市,市环境监测站,颗粒物(PM10),89,127,89,60,40,125,5,5,5,79,52,17,16,1.5,1.1
2022-03-09T05:00:00,1587A,109.9991,40.5842,包头市,包头八中,细颗粒物(PM2.5),175,150,112,132,61,130,10,16,15,69,55,36,26,1.9,2
2022-03-09T05:00:00,1588A,109.8538,40.6821,包头市,青山宾馆,细颗粒物(PM2.5),88,100,84,65,55,121,7,5,5,77,55,18,18,1.5,1.3
2022-03-09T05:00:00,1589A,109.8642,40.6288,包头市,惠龙物流,细颗粒物(PM2.5),123,147,88,93,41,125,34,26,26,48,43,27,17,1.3,1.1
2022-03-09T05:00:00,1590A,110.0377,40.5546,包头市,东河鸿龙湾,细颗粒物(PM2.5),195,177,137,146,82,128,30,26,26,82,54,25,25,1.9,1.5
2022-03-09T05:00:00,1591A,110.0023,39.8129,鄂尔多斯市,综合楼,颗粒物(PM10),93,136,83,41,35,101,30,76,48,66,45,27,18,0.9,0.7
2022-03-09T05:00:00,1592A,109.9486,39.8261,鄂尔多斯市,巴音孟克林场办事处,颗粒物(PM10),74,97,85,22,21,90,61,69,56,33,38,25,19,0.8,0.7
2022-03-09T05:00:00,1593A,109.7736,39.5986,鄂尔多斯市,康泽苑,颗粒物(PM10),69,88,86,24,23,116,6,25,11,50,36,6,9,0.6,0.7
2022-03-09T05:00:00,1594A,109.8119,39.5989,鄂尔多斯市,华泰汽车城,颗粒物(PM10),65,80,89,24,28,119,5,20,9,58,44,8,11,0.5,0.6
2022-03-09T05:00:00,1595A,109.9734,39.7884,鄂尔多斯市,奥林花园,颗粒物(PM10),81,111,90,34,25,100,12,16,14,78,51,22,15,0.9,0.7
2022-03-09T05:00:00,1597A,122.2703,40.7094,营口市,大庆路,细颗粒物(PM2.5),211,238,96,161,60,128,9,9,9,86,47,23,15,2.2,1.2
2022-03-09T05:00:00,1598A,122.215,40.6511,营口市,镜湖西路,细颗粒物(PM2.5),112,128,88,84,42,139,8,22,15,70,36,9,7,1.2,0.7
2022-03-09T05:00:00,1599A,122.167,40.6655,营口市,西炮台,细颗粒物(PM2.5),98,124,82,73,44,126,11,22,18,83,45,8,6,0.9,0.7
2022-03-09T05:00:00,1600A,124.3303,40.0625,丹东市,江湾东路,细颗粒物(PM2.5),110,117,98,83,66,99,57,90,72,24,26,9,16,1.3,1.2
2022-03-09T05:00:00,1601A,124.4256,40.1503,丹东市,临江后街,细颗粒物(PM2.5),87,92,95,64,58,103,75,79,59,14,24,9,14,0.7,1.1
2022-03-09T05:00:00,1602A,124.3933,40.1461,丹东市,元宝山,细颗粒物(PM2.5),88,95,95,65,62,97,61,49,49,13,24,9,15,0.8,1.2
2022-03-09T05:00:00,1603A,124.3633,40.1092,丹东市,民主桥,细颗粒物(PM2.5),84,94,96,62,54,95,62,68,60,15,30,9,14,0.9,1.1
2022-03-09T05:00:00,1604A,122.0303,41.1489,盘锦市,开发区,细颗粒物(PM2.5),139,125,106,106,93,110,4,32,15,81,45,8,11,2.2,1.2
2022-03-09T05:00:00,1605A,122.0485,41.0883,盘锦市,兴隆台,细颗粒物(PM2.5),119,124,103,90,64,107,4,11,6,82,49,6,10,1.6,1.1
2022-03-09T05:00:00,1606A,121.8297,41.1028,盘锦市,新生街道,细颗粒物(PM2.5),65,34,75,47,56,111,5,29,11,70,41,71,15,1.1,0.9
2022-03-09T05:00:00,1607A,120.9092,40.7136,葫芦岛市,龙港区,细颗粒物(PM2.5),265,330,129,215,94,85,17,31,21,83,41,362,52,3.0,1.3
2022-03-09T05:00:00,1608A,120.8392,40.7514,葫芦岛市,化工街,细颗粒物(PM2.5),135,203,152,103,64,92,16,21,17,73,57,25,20,2.1,1.5
2022-03-09T05:00:00,1609A,120.8341,40.7073,葫芦岛市,新区,细颗粒物(PM2.5),189,183,103,142,75,91,7,24,10,69,44,24,17,2.1,1.1
2022-03-09T05:00:00,1610A,120.8695,40.7677,葫芦岛市,东城区,细颗粒物(PM2.5),176,197,145,133,99,90,6,6,6,76,56,18,21,1.9,1.3
2022-03-09T05:00:00,1611A,118.5819,24.9117,泉州市,涂山街,,46,46,30,15,8,106,51,79,63,22,16,7,7,0.4,0.3
2022-03-09T05:00:00,1612A,118.5972,24.8978,泉州市,津头埔,,45,45,31,16,8,112,55,91,69,24,20,7,6,0.5,0.4
2022-03-09T05:00:00,1613A,118.6663,24.9424,泉州市,万安,,30,30,30,11,8,108,82,90,84,9,13,10,7,0.3,0.3
2022-03-09T05:00:00,1614A,118.6117,24.9604,泉州市,清源山(对照点),,33,27,27,5,8,114,105,112,107,5,9,5,6,0.3,0.3
2022-03-09T05:00:00,1616A,117.6795,36.229,济南市,技术学院,颗粒物(PM10),156,261,199,98,100,149,19,10,10,70,58,11,11,1.1,1.1
2022-03-09T05:00:00,1618A,118.3429,35.0532,临沂市,沂河小区,细颗粒物(PM2.5),216,205,180,166,68,148,1,8,6,83,52,14,15,1.3,0.7
2022-03-09T05:00:00,1619A,118.295,35.0583,临沂市,鲁南制药厂,细颗粒物(PM2.5),138,197,180,105,69,149,9,31,21,84,52,17,17,1.1,1
2022-03-09T05:00:00,1620A,118.2794,34.9976,临沂市,新光毛纺厂,细颗粒物(PM2.5),127,193,179,96,67,141,5,42,26,92,53,17,15,0.9,0.9
2022-03-09T05:00:00,1621A,118.3956,35.0888,临沂市,河东保险公司,细颗粒物(PM2.5),195,207,175,146,73,150,1,32,10,93,60,11,11,2.3,1
2022-03-09T05:00:00,1622A,116.3032,37.4674,德州市,儿童乐园,颗粒物(PM10),147,243,224,63,63,132,82,82,82,31,36,14,12,1.1,0.8
2022-03-09T05:00:00,1624A,116.2991,37.4451,德州市,监理站,颗粒物(PM10),153,256,238,64,66,119,70,72,70,33,36,15,16,0.7,0.6
2022-03-09T05:00:00,1625A,115.9848,36.4372,聊城市,区政府,颗粒物(PM10),141,232,234,48,54,136,50,73,62,52,33,10,10,0.7,0.7
2022-03-09T05:00:00,1628A,118.0062,37.3803,滨州市,市环保局,颗粒物(PM10),126,202,169,78,58,176,1,6,3,92,58,22,17,1.7,1.2
2022-03-09T05:00:00,1629A,118.0018,37.3617,滨州市,第二水厂,颗粒物(PM10),131,212,170,74,67,144,6,7,6,92,56,14,17,1.1,0.8
2022-03-09T05:00:00,1630A,117.9776,37.393,滨州市,北中新校,颗粒物(PM10),126,201,156,59,52,158,3,7,4,103,63,21,20,1.2,1
2022-03-09T05:00:00,1631A,118.0414,36.8103,淄博市,人民公园,颗粒物(PM10),146,241,163,78,69,159,1,1,1,99,71,14,14,0.8,0.8
2022-03-09T05:00:00,1633A,117.8525,36.4847,淄博市,双山,颗粒物(PM10),120,189,145,64,64,149,56,61,58,34,30,7,8,0.5,0.6
2022-03-09T05:00:00,1634A,117.9592,36.6331,淄博市,气象站,颗粒物(PM10),134,217,159,66,58,149,36,38,37,52,38,20,16,0.8,0.7
2022-03-09T05:00:00,1635A,118.3092,36.8194,淄博市,莆田园,颗粒物(PM10),119,188,138,58,52,165,48,51,48,36,32,14,18,1.6,1.3
2022-03-09T05:00:00,1637A,117.558,34.8438,枣庄市,市中区政府,颗粒物(PM10),137,224,218,46,55,146,32,61,55,64,46,8,14,0.7,0.8
2022-03-09T05:00:00,1638A,117.2852,34.7837,枣庄市,薛城环保局,颗粒物(PM10),113,176,211,53,53,139,80,102,89,39,31,14,10,0.9,0.6
2022-03-09T05:00:00,1639A,117.5852,34.7745,枣庄市,峄城区政府,颗粒物(PM10),130,210,216,58,60,141,18,42,35,84,49,12,15,0.6,0.7
2022-03-09T05:00:00,1640A,117.7276,34.5578,枣庄市,台儿庄区环保局,颗粒物(PM10),120,190,180,58,52,134,22,51,27,69,51,11,11,0.8,0.8
2022-03-09T05:00:00,1641A,117.4518,35.0992,枣庄市,山亭区环保局,颗粒物(PM10),97,144,193,42,46,142,94,114,109,14,20,15,16,0.9,0.9
2022-03-09T05:00:00,1642A,121.2514,37.5639,烟台市,开发区,细颗粒物(PM2.5),132,158,131,100,66,106,45,44,43,40,64,11,10,0.8,0.8
2022-03-09T05:00:00,1643A,121.3719,37.5433,烟台市,轴承厂,细颗粒物(PM2.5),104,112,104,78,67,114,28,93,62,54,42,9,10,1.3,1.2
2022-03-09T05:00:00,1644A,121.3181,37.5436,烟台市,西郊化工站,细颗粒物(PM2.5),119,153,118,90,64,114,32,107,66,65,50,27,12,1.4,1.3
2022-03-09T05:00:00,1645A,121.4478,37.4822,烟台市,莱山环保局,细颗粒物(PM2.5),90,119,121,67,72,133,66,101,84,38,39,11,11,0.8,0.8
2022-03-09T05:00:00,1646A,121.2611,37.4967,烟台市,福山环保局,细颗粒物(PM2.5),119,149,124,90,85,122,7,54,26,72,49,11,10,1.7,1.3
2022-03-09T05:00:00,1650A,119.1437,36.7023,潍坊市,环保局,细颗粒物(PM2.5),139,188,129,106,65,154,48,60,56,44,40,7,10,1.2,1
2022-03-09T05:00:00,1653A,116.6251,35.4302,济宁市,火炬城,颗粒物(PM10),103,156,183,46,53,135,82,78,78,20,16,21,12,0.8,0.7
2022-03-09T05:00:00,1655A,116.5491,35.4042,济宁市,电化厂,颗粒物(PM10),113,175,181,61,67,138,80,71,71,30,28,15,10,0.9,0.7
2022-03-09T05:00:00,1656A,117.1437,36.1937,泰安市,监测站,颗粒物(PM10),108,166,180,56,62,144,31,55,33,31,34,8,12,0.9,0.9
2022-03-09T05:00:00,1657A,117.0885,36.2017,泰安市,人口学校,颗粒物(PM10),117,183,174,61,50,134,0,51,14,74,42,11,11,0.8,0.8
2022-03-09T05:00:00,1658A,117.1089,36.1758,泰安市,电力学校,颗粒物(PM10),114,178,185,71,66,139,2,3,2,69,50,8,13,1.2,1.2
2022-03-09T05:00:00,1659A,119.471,35.4209,日照市,监测站,细颗粒物(PM2.5),118,141,147,89,74,97,2,2,2,66,67,8,10,1.0,1
2022-03-09T05:00:00,1660A,119.523,35.4216,日照市,市政府广场,细颗粒物(PM2.5),135,158,131,103,64,108,25,25,13,48,47,6,9,1.0,1
2022-03-09T05:00:00,1661A,119.5587,35.4044,日照市,港务局,细颗粒物(PM2.5),135,168,125,103,66,95,35,28,27,46,41,8,8,0.8,0.7
2022-03-09T05:00:00,1662A,122.1214,37.4236,威海市,华夏技校,细颗粒物(PM2.5),83,80,109,61,73,135,104,132,121,16,26,5,8,0.5,0.7
2022-03-09T05:00:00,1663A,122.0508,37.5236,威海市,山大分校,细颗粒物(PM2.5),77,78,90,56,62,142,87,99,86,36,40,7,8,0.4,0.6
2022-03-09T05:00:00,1664A,122.1067,37.5072,威海市,市监测站,颗粒物(PM10),68,85,112,44,56,135,60,88,75,45,50,7,10,0.6,0.8
2022-03-09T05:00:00,1666A,118.6614,37.4309,东营市,市环保局,细颗粒物(PM2.5),149,185,127,114,62,170,28,41,32,50,38,18,25,1.5,0.9
2022-03-09T05:00:00,1669A,113.5824,24.7733,韶关市,市八中,颗粒物(PM10),54,57,48,20,21,137,2,32,21,51,33,11,12,0.7,0.6
2022-03-09T05:00:00,1671A,113.5917,24.7972,韶关市,园林处,,43,43,46,20,25,135,5,13,7,39,29,10,9,0.7,0.6
2022-03-09T05:00:00,1672A,113.6735,24.7791,韶关市,韶关学院,,41,41,39,20,22,134,4,21,10,38,21,8,9,0.4,0.4
2022-03-09T05:00:00,1673A,113.5971,24.6863,韶关市,曲江监测站,,48,48,44,14,21,130,18,26,18,37,30,8,12,0.4,0.5
2022-03-09T05:00:00,1674A,116.6794,23.3667,汕头市,金平子站,,42,42,35,15,8,128,71,96,89,22,18,12,9,0.6,0.6
2022-03-09T05:00:00,1675A,116.7244,23.3633,汕头市,龙湖子站,,26,19,25,5,8,114,81,94,88,18,21,8,7,0.4,0.4
2022-03-09T05:00:00,1676A,116.7258,23.2775,汕头市,濠江子站,,29,19,24,6,9,114,91,99,91,7,10,9,9,0.4,0.4
2022-03-09T05:00:00,1677A,116.7519,23.4714,汕头市,澄海子站,,28,28,29,13,12,123,49,100,76,31,17,16,10,0.6,0.5
2022-03-09T05:00:00,1678A,116.6092,23.2539,汕头市,潮阳子站,,28,28,29,5,8,125,88,107,96,11,14,11,11,0.3,0.4
2022-03-09T05:00:00,1680A,110.3539,21.2706,湛江市,湛江影剧院,,31,21,40,9,14,130,97,100,99,6,11,5,12,0.4,0.4
2022-03-09T05:00:00,1681A,110.3928,21.2228,湛江市,市环境监测站,,32,23,37,11,14,135,102,110,106,9,10,5,8,0.3,0.3
2022-03-09T05:00:00,1682A,110.4019,21.1997,湛江市,环保局宿舍,,31,27,39,15,15,129,99,102,101,5,10,5,6,0.4,0.4
2022-03-09T05:00:00,1683A,110.4111,21.2028,湛江市,霞山游泳场,,31,13,35,15,15,123,97,99,98,5,10,4,7,0.4,0.5
2022-03-09T05:00:00,1684A,110.3316,21.2679,湛江市,麻章区环保局,,31,22,44,13,17,126,98,100,99,4,11,4,14,0.3,0.4
2022-03-09T05:00:00,1685A,110.4558,21.2567,湛江市,坡头区环保局,,31,24,40,17,18,134,99,105,103,8,10,5,8,0.5,0.5
2022-03-09T05:00:00,1686A,111.0286,21.4688,茂名市,电白南海,,30,15,39,7,14,128,94,101,96,6,11,11,10,0.4,0.5
2022-03-09T05:00:00,1687A,110.9294,21.6533,茂名市,茂石化七小,,27,24,46,14,20,135,84,86,85,6,11,10,10,0.4,0.5
2022-03-09T05:00:00,1688A,110.9107,21.6687,茂名市,健康路,,30,22,42,6,12,148,94,98,97,6,11,9,15,0.5,0.6
2022-03-09T05:00:00,1689A,110.8592,21.6828,茂名市,高岭,,36,36,49,14,14,141,89,100,94,15,15,16,19,0.6,0.6
2022-03-09T05:00:00,1690A,116.1231,24.3284,梅州市,梅江月梅,,49,49,28,19,16,114,41,62,49,30,18,10,11,0.4,0.4
2022-03-09T05:00:00,1691A,116.0797,24.2719,梅州市,梅县新城,,33,33,31,21,19,116,42,58,52,30,25,6,6,0.6,0.6
2022-03-09T05:00:00,1692A,116.1248,24.2654,梅州市,环境监控中心,,34,34,29,23,18,113,27,50,36,39,27,7,9,0.5,0.5
2022-03-09T05:00:00,1693A,115.3653,22.775,汕尾市,市环保局,,25,24,22,13,11,119,79,98,87,11,10,8,8,0.3,0.3
2022-03-09T05:00:00,1694A,115.3706,22.7898,汕尾市,市政府,,20,19,21,9,11,124,63,85,75,14,10,7,7,0.4,0.4
2022-03-09T05:00:00,1695A,115.3622,22.7925,汕尾市,新城中学,,26,26,27,14,12,123,69,85,77,10,8,7,6,0.3,0.3
2022-03-09T05:00:00,1696A,114.6778,23.7569,河源市,源西(对照点),,22,20,29,15,14,110,24,82,47,42,20,3,4,0.6,0.6
2022-03-09T05:00:00,1697A,114.6944,23.7586,河源市,东埔,,33,33,29,20,15,112,48,90,76,37,19,5,5,0.6,0.6
2022-03-09T05:00:00,1698A,114.6892,23.7233,河源市,老城,,37,37,26,17,15,128,27,90,68,43,19,5,5,0.5,0.5
2022-03-09T05:00:00,1701A,111.9491,21.8658,阳江市,马南垌,,27,24,35,12,17,147,84,98,92,12,15,5,6,0.3,0.4
2022-03-09T05:00:00,1702A,113.0426,23.691,清远市,环保大楼(对照点),细颗粒物(PM2.5),54,53,49,38,32,167,16,46,28,50,27,8,8,0.5,0.6
2022-03-09T05:00:00,1703A,113.0208,23.7106,清远市,凤城街办,颗粒物(PM10),51,51,46,31,27,141,14,37,23,58,37,11,10,0.7,0.7
2022-03-09T05:00:00,1705A,116.6367,23.6719,潮州市,西园路(对照点),,26,24,29,18,15,124,43,57,52,15,16,10,9,0.5,0.5
2022-03-09T05:00:00,1706A,116.6447,23.6706,潮州市,档案局,,23,23,29,10,15,125,47,54,52,14,16,9,9,0.5,0.5
2022-03-09T05:00:00,1708A,116.3701,23.5345,揭阳市,新兴,,46,46,33,30,16,136,46,77,54,26,29,14,12,0.8,0.5
2022-03-09T05:00:00,1709A,116.3264,23.5443,揭阳市,西马,,46,46,39,23,17,145,31,61,40,36,22,12,8,0.4,0.4
2022-03-09T05:00:00,1710A,116.3611,23.5626,揭阳市,东兴,颗粒物(PM10),51,52,39,18,14,137,30,65,42,38,22,24,10,0.7,0.6
2022-03-09T05:00:00,1711A,116.4151,23.5294,揭阳市,渔湖,,30,30,23,11,15,127,26,66,45,39,22,10,12,0.4,0.4
2022-03-09T05:00:00,1712A,112.0392,22.9169,云浮市,新市府(对照点),,26,23,40,18,20,164,59,95,72,6,10,5,6,0.4,0.4
2022-03-09T05:00:00,1714A,112.0539,22.9539,云浮市,牧羊,,38,38,55,14,21,152,39,70,58,29,24,7,13,0.5,0.5
2022-03-09T05:00:00,1715A,102.575,24.3711,玉溪市,东风水库,,21,14,31,12,14,108,67,66,66,10,12,9,6,0.8,0.6
2022-03-09T05:00:00,1718A,115.4208,35.2464,菏泽市,气象局,颗粒物(PM10),128,205,196,47,46,125,86,85,85,24,25,10,8,0.5,0.5
2022-03-09T05:00:00,1719A,115.4747,35.2375,菏泽市,市政协,颗粒物(PM10),153,255,216,48,44,131,63,71,62,35,30,13,11,0.5,0.5
2022-03-09T05:00:00,1721A,113.3819,40.1097,大同市,果树场(对照点),颗粒物(PM10),55,60,84,24,43,108,15,8,8,37,40,21,28,0.7,0.8
2022-03-09T05:00:00,1723A,113.2994,40.0758,大同市,云冈宾馆,颗粒物(PM10),85,119,115,33,40,102,1,1,1,59,57,40,31,1.2,1.2
2022-03-09T05:00:00,1724A,113.3444,40.0917,大同市,大同大学,颗粒物(PM10),67,83,82,26,30,102,15,26,23,52,38,46,35,0.7,0.8
2022-03-09T05:00:00,1725A,113.2661,40.1269,大同市,安家小村,颗粒物(PM10),90,129,102,37,31,105,13,12,10,60,41,79,36,4.5,1.7
2022-03-09T05:00:00,1726A,113.2711,40.0844,大同市,教育学院,颗粒物(PM10),72,93,121,39,42,94,7,12,9,62,57,47,39,1.8,1.5
2022-03-09T05:00:00,1727A,113.1147,36.1547,长治市,清华站,颗粒物(PM10),103,155,144,53,53,133,4,31,20,74,49,9,10,1.7,1.2
2022-03-09T05:00:00,1728A,113.1031,36.1989,长治市,监测站,颗粒物(PM10),108,165,126,63,56,127,9,49,27,60,38,9,11,1.8,1.5
2022-03-09T05:00:00,1730A,113.0886,36.2125,长治市,审计局,细颗粒物(PM2.5),117,176,127,88,55,127,7,38,21,78,44,9,10,1.1,1
2022-03-09T05:00:00,1731A,113.0844,36.1856,长治市,长治八中,颗粒物(PM10),135,219,177,75,59,126,8,26,19,74,52,11,15,1.1,1.1
2022-03-09T05:00:00,1733A,111.5531,36.0783,临汾市,临钢医院,颗粒物(PM10),99,148,118,69,42,138,8,29,20,84,54,16,14,1.2,1
2022-03-09T05:00:00,1734A,111.5028,36.0714,临汾市,技工学校,颗粒物(PM10),108,166,135,62,55,145,40,40,40,50,42,21,13,1.1,1.1
2022-03-09T05:00:00,1736A,111.5018,36.0855,临汾市,市委,颗粒物(PM10),103,156,123,56,45,140,32,38,37,54,44,18,11,1.3,1.2
2022-03-09T05:00:00,1738A,113.5758,37.8572,阳泉市,市中心,颗粒物(PM10),109,168,135,71,48,113,1,1,1,96,77,15,18,1.0,1
2022-03-09T05:00:00,1739A,113.4894,37.8731,阳泉市,赛鱼,颗粒物(PM10),85,120,91,54,37,117,6,6,6,85,74,16,20,1.0,0.7
2022-03-09T05:00:00,1740A,113.5819,37.8486,阳泉市,南庄,颗粒物(PM10),127,204,159,63,46,115,29,28,22,52,48,17,19,0.6,0.9
2022-03-09T05:00:00,1742A,113.5614,37.8703,阳泉市,平坦,颗粒物(PM10),104,158,137,71,51,116,3,4,3,104,78,23,24,0.7,0.7
2022-03-09T05:00:00,1743A,113.5158,37.8392,阳泉市,大阳泉,细颗粒物(PM2.5),120,179,116,91,45,122,109,103,103,27,28,20,15,1.0,0.7
2022-03-09T05:00:00,1744A,118.9233,42.2816,赤峰市,松山一中,,26,26,44,10,21,87,18,22,21,32,36,12,16,0.6,0.8
2022-03-09T05:00:00,1745A,118.9576,42.2728,赤峰市,哈达街,,25,25,37,8,20,88,32,29,29,21,35,6,13,0.8,0.9
2022-03-09T05:00:00,1746A,118.8788,42.2554,赤峰市,天义路,,26,26,32,14,15,86,25,25,25,19,35,6,7,0.6,0.6
2022-03-09T05:00:00,1748A,123.044,41.1196,鞍山市,深沟寺,细颗粒物(PM2.5),103,106,83,77,51,118,64,72,64,32,25,12,12,1.2,1
2022-03-09T05:00:00,1749A,123.011,41.0931,鞍山市,太阳城,细颗粒物(PM2.5),104,108,83,78,44,113,70,80,73,28,26,12,10,1.2,0.8
2022-03-09T05:00:00,1750A,123.0485,41.1442,鞍山市,太平,细颗粒物(PM2.5),94,106,88,70,52,108,45,35,35,38,39,13,16,1.6,1.3
2022-03-09T05:00:00,1751A,122.9642,41.0971,鞍山市,铁西三道街,细颗粒物(PM2.5),109,154,123,82,58,109,32,17,17,57,52,26,15,2.3,1.5
2022-03-09T05:00:00,1752A,122.9341,41.0833,鞍山市,铁西工业园区,细颗粒物(PM2.5),93,128,109,69,63,126,9,10,10,92,48,13,13,1.2,1
2022-03-09T05:00:00,1753A,123.022,41.0821,鞍山市,明达新区,细颗粒物(PM2.5),87,109,79,64,38,114,62,70,67,30,25,11,10,1.5,0.8
2022-03-09T05:00:00,1754A,123.1289,41.0228,鞍山市,千山(对照点),细颗粒物(PM2.5),69,74,60,50,38,118,38,56,47,22,15,6,8,1.5,0.8
2022-03-09T05:00:00,1755A,123.7977,41.8491,抚顺市,望花区,细颗粒物(PM2.5),248,183,167,198,93,112,9,7,7,55,48,20,30,1.9,1.3
2022-03-09T05:00:00,1756A,123.9161,41.8822,抚顺市,顺城区,细颗粒物(PM2.5),235,256,176,185,92,107,13,20,17,58,52,13,11,1.9,1.4
2022-03-09T05:00:00,1757A,124.0436,41.8611,抚顺市,东洲区,细颗粒物(PM2.5),138,162,131,105,73,106,15,33,21,43,28,13,18,1.7,1.1
2022-03-09T05:00:00,1758A,123.9247,41.8642,抚顺市,新抚区,细颗粒物(PM2.5),139,179,145,106,78,111,9,11,10,57,48,5,12,1.4,1.2
2022-03-09T05:00:00,1759A,124.0972,41.8961,抚顺市,大伙房水库,细颗粒物(PM2.5),94,98,118,70,64,113,47,31,31,21,31,10,14,1.0,1.1
2022-03-09T05:00:00,1760A,123.7086,41.8391,抚顺市,沈抚新城,细颗粒物(PM2.5),192,180,161,144,86,117,7,7,6,60,49,36,19,1.7,1.6
2022-03-09T05:00:00,1761A,123.8275,41.3064,本溪市,大峪,细颗粒物(PM2.5),97,109,88,72,43,105,9,18,11,71,45,17,22,3.3,1.7
2022-03-09T05:00:00,1762A,123.7567,41.3325,本溪市,溪湖,颗粒物(PM10),117,184,104,75,46,113,10,16,12,60,39,17,22,2.5,1.4
2022-03-09T05:00:00,1763A,123.7169,41.3094,本溪市,彩屯,细颗粒物(PM2.5),122,143,112,92,62,118,14,24,21,52,37,14,20,2.1,1.6
2022-03-09T05:00:00,1764A,123.7669,41.2864,本溪市,东明,颗粒物(PM10),80,109,100,58,47,97,7,8,8,65,56,12,24,2.8,2.2
2022-03-09T05:00:00,1765A,123.7992,41.2664,本溪市,新立屯,细颗粒物(PM2.5),98,101,82,73,41,116,10,23,15,65,43,23,19,3.4,1.9
2022-03-09T05:00:00,1766A,123.8142,41.3472,本溪市,威宁,颗粒物(PM10),86,122,106,53,44,108,11,10,10,42,39,5,9,1.9,1.2
2022-03-09T05:00:00,1767A,121.1115,41.0879,锦州市,南山,细颗粒物(PM2.5),186,179,140,140,107,83,6,9,6,56,58,16,30,2.8,1.6
2022-03-09T05:00:00,1768A,121.0533,40.8434,锦州市,开发区,细颗粒物(PM2.5),209,250,147,159,95,80,7,9,8,66,61,46,28,2.0,1.3
2022-03-09T05:00:00,1769A,121.1836,41.1119,锦州市,百股街道,细颗粒物(PM2.5),155,140,129,118,89,84,6,7,7,62,57,32,31,2.3,1.5
2022-03-09T05:00:00,1770A,121.1178,41.1222,锦州市,天安街道,细颗粒物(PM2.5),133,127,113,101,89,78,4,4,4,62,65,25,37,2.1,1.7
2022-03-09T05:00:00,1771A,121.1303,41.1386,锦州市,北湖公园,细颗粒物(PM2.5),90,107,125,67,82,81,27,15,15,38,54,19,31,1.2,1.3
2022-03-09T05:00:00,1772A,126.54,43.8622,吉林市,哈达湾,细颗粒物(PM2.5),55,54,53,39,32,115,63,90,71,19,19,11,11,0.8,0.7
2022-03-09T05:00:00,1773A,126.5844,43.8358,吉林市,东局子,,44,44,51,30,32,112,55,47,47,18,18,5,8,0.7,0.7
2022-03-09T05:00:00,1774A,126.5052,43.8245,吉林市,电力学院,细颗粒物(PM2.5),64,70,71,46,47,115,37,38,37,23,25,10,14,0.9,1
2022-03-09T05:00:00,1775A,126.6133,43.8972,吉林市,江北,细颗粒物(PM2.5),53,52,56,37,37,113,48,60,51,20,22,6,10,1.0,0.9
2022-03-09T05:00:00,1776A,126.555,43.8306,吉林市,江南公园,细颗粒物(PM2.5),68,60,56,49,41,107,36,50,43,27,18,6,9,0.8,0.8
2022-03-09T05:00:00,1778A,126.7061,43.7133,吉林市,丰满(对照点),,42,35,35,29,28,115,70,77,74,5,6,6,8,0.8,0.8
2022-03-09T05:00:00,1779A,123.9305,47.3636,齐齐哈尔市,安居小区,,,65,75,54,47,93,56,65,62,29,34,40,42,,1.4
2022-03-09T05:00:00,1780A,123.9488,47.3386,齐齐哈尔市,中心广场,细颗粒物(PM2.5),75,70,71,55,52,91,39,56,52,42,35,118,71,0.8,0.9
2022-03-09T05:00:00,1781A,123.9483,47.3227,齐齐哈尔市,农牧车辆厂,颗粒物(PM10),71,92,76,45,46,86,34,55,50,44,35,25,44,0.8,0.8
2022-03-09T05:00:00,1783A,123.945,47.2988,齐齐哈尔市,市环境监测站,细颗粒物(PM2.5),92,103,76,68,50,91,61,74,66,22,23,6,11,0.6,0.6
2022-03-09T05:00:00,1784A,129.61,44.561,牡丹江市,环保大楼,细颗粒物(PM2.5),72,80,58,52,38,106,26,24,24,35,34,5,7,1.0,0.8
2022-03-09T05:00:00,1785A,129.6115,44.5782,牡丹江市,文化广场,细颗粒物(PM2.5),69,78,76,50,45,99,26,19,19,36,49,10,14,0.9,1.1
2022-03-09T05:00:00,1787A,129.6364,44.6075,牡丹江市,机车工厂,细颗粒物(PM2.5),79,76,75,58,43,105,20,24,20,39,35,9,17,0.9,0.8
2022-03-09T05:00:00,1788A,129.6386,44.5462,牡丹江市,第一中学,细颗粒物(PM2.5),59,47,48,42,31,107,42,52,46,20,28,2,5,0.7,0.8
2022-03-09T05:00:00,1789A,124.81117,46.03138,大庆市,大同区,细颗粒物(PM2.5),150,134,112,115,89,114,57,68,63,29,35,5,8,1.1,1
2022-03-09T05:00:00,1790A,125.129,46.533,大庆市,龙凤区,细颗粒物(PM2.5),199,177,120,149,87,113,13,32,22,62,49,12,16,1.4,1
2022-03-09T05:00:00,1791A,124.902,46.408,大庆市,红岗区,细颗粒物(PM2.5),133,120,88,101,72,126,46,59,57,36,27,4,8,1.2,0.8
2022-03-09T05:00:00,1792A,125.153,46.586,大庆市,萨尔图区,细颗粒物(PM2.5),178,148,102,134,92,120,6,37,23,84,56,6,10,1.1,0.9
2022-03-09T05:00:00,1793A,124.9042,46.6215,大庆市,让胡路区,细颗粒物(PM2.5),134,133,103,102,73,112,45,50,48,41,43,5,8,,
2022-03-09T05:00:00,1794A,118.3606,31.3519,芜湖市,监测站,颗粒物(PM10),72,94,74,50,24,122,38,30,30,49,48,10,8,0.6,0.6
2022-03-09T05:00:00,1795A,118.3714,31.4134,芜湖市,科创中心,颗粒物(PM10),73,95,72,50,28,123,10,28,20,67,53,10,10,0.8,0.7
2022-03-09T05:00:00,1796A,118.3673,31.3131,芜湖市,四水厂,细颗粒物(PM2.5),79,94,75,58,25,114,38,34,34,40,38,11,8,0.7,0.7
2022-03-09T05:00:00,1798A,118.5092,31.6837,马鞍山市,湖东路四小,颗粒物(PM10),57,64,66,37,23,117,29,41,33,40,37,7,9,0.6,0.6
2022-03-09T05:00:00,1799A,118.5024,31.6449,马鞍山市,开发区,颗粒物(PM10),72,93,81,34,26,109,36,44,41,56,50,12,13,0.8,0.8
2022-03-09T05:00:00,1800A,118.5228,31.7231,马鞍山市,慈湖,,,136,87,,36,107,6,17,13,74,47,17,28,0.8,0.8
2022-03-09T05:00:00,1802A,118.6245,31.7241,马鞍山市,濮塘(对照点),颗粒物(PM10),60,69,57,31,28,107,46,54,50,30,25,7,9,0.4,0.6
2022-03-09T05:00:00,1803A,115.9872,29.6815,九江市,十里,,43,43,43,12,21,116,27,16,16,41,40,8,7,0.5,0.6
2022-03-09T05:00:00,1804A,115.9584,29.7046,九江市,茅山头,,42,34,47,29,20,111,5,4,4,67,43,6,6,0.4,0.4
2022-03-09T05:00:00,1805A,115.9877,29.7295,九江市,西园,,42,42,37,23,20,110,50,19,19,34,41,7,7,0.4,0.5
2022-03-09T05:00:00,1806A,116.0172,29.6547,九江市,五七二七厂,,42,42,36,13,12,111,63,76,68,11,8,7,7,0.3,0.4
2022-03-09T05:00:00,1808A,115.9114,29.6038,九江市,综合工业园,颗粒物(PM10),53,56,55,19,23,112,42,52,45,48,44,5,8,0.5,0.5
2022-03-09T05:00:00,1809A,116.0721,29.7535,九江市,石化总厂,颗粒物(PM10),53,56,36,26,16,108,15,81,35,78,32,16,19,0.2,0.2
2022-03-09T05:00:00,1810A,115.9773,29.5698,九江市,庐山气象台(对照点),,35,29,59,13,12,120,110,114,111,2,4,2,2,0.1,0.1
2022-03-09T05:00:00,1812A,112.3931,34.6516,洛阳市,市委党校,颗粒物(PM10),138,225,193,84,54,136,24,64,45,68,40,12,8,0.8,0.7
2022-03-09T05:00:00,1814A,112.4657,34.6871,洛阳市,豫西宾馆,颗粒物(PM10),132,214,206,59,58,127,47,57,52,35,34,12,10,0.8,0.8
2022-03-09T05:00:00,1815A,112.494,34.6886,洛阳市,河南林校,颗粒物(PM10),136,222,206,51,52,138,47,56,53,41,36,7,7,0.8,0.7
2022-03-09T05:00:00,1816A,112.3844,34.623,洛阳市,开发区管委会,颗粒物(PM10),117,183,179,63,57,141,30,63,52,49,36,6,6,0.6,0.5
2022-03-09T05:00:00,1817A,112.4267,34.6258,洛阳市,市委新办公区,颗粒物(PM10),128,205,193,61,54,132,39,57,50,40,35,6,6,0.5,0.4
2022-03-09T05:00:00,1818A,114.4839,36.0621,安阳市,棉研所(对照点),颗粒物(PM10),144,238,228,67,61,115,4,7,4,72,43,7,7,0.7,0.5
2022-03-09T05:00:00,1819A,114.3551,36.1017,安阳市,红庙街,颗粒物(PM10),142,233,209,77,61,124,3,8,7,68,46,8,9,1.0,0.6
2022-03-09T05:00:00,1820A,114.361,36.0681,安阳市,银杏小区,颗粒物(PM10),156,261,214,90,67,119,4,5,4,66,46,5,6,1.2,0.7
2022-03-09T05:00:00,1824A,114.3389,34.7781,开封市,肿瘤医院,颗粒物(PM10),125,199,189,61,55,122,41,39,36,40,29,8,7,0.5,0.5
2022-03-09T05:00:00,1826A,114.2885,34.7965,开封市,世纪星幼儿园,颗粒物(PM10),118,185,180,43,39,129,47,54,52,45,33,10,10,0.8,0.8
2022-03-09T05:00:00,1828A,113.2269,35.2127,焦作市,市环保局,颗粒物(PM10),101,151,171,48,61,122,76,90,86,20,21,9,8,0.9,0.9
2022-03-09T05:00:00,1829A,113.2467,35.176,焦作市,高新区政府,颗粒物(PM10),124,198,192,56,61,133,67,96,84,33,26,17,13,0.7,0.6
2022-03-09T05:00:00,1830A,113.1987,35.2703,焦作市,影视城(对照点),颗粒物(PM10),103,156,164,45,41,124,107,108,107,8,14,10,9,0.6,0.6
2022-03-09T05:00:00,1832A,113.3257,33.742,平顶山市,新华旅馆,颗粒物(PM10),103,156,166,76,51,119,3,24,7,72,32,5,3,0.4,0.2
2022-03-09T05:00:00,1833A,113.2919,33.737,平顶山市,规划设计院,颗粒物(PM10),112,173,156,54,42,110,6,27,10,56,29,3,3,0.3,0.2
2022-03-09T05:00:00,1834A,113.182,33.774,平顶山市,平顶山工学院,颗粒物(PM10),107,163,151,47,41,114,30,30,28,40,18,4,4,0.5,0.3
2022-03-09T05:00:00,1835A,111.1922,34.7752,三门峡市,市政府,颗粒物(PM10),110,170,176,58,60,137,90,109,95,16,19,12,10,0.8,0.7
2022-03-09T05:00:00,1836A,111.1587,34.7942,三门峡市,开发区,颗粒物(PM10),118,185,194,52,53,130,73,94,82,24,23,7,7,0.5,0.5
2022-03-09T05:00:00,1838A,111.143,34.7955,三门峡市,风景区(对照点),颗粒物(PM10),111,171,184,57,51,134,76,94,84,21,19,19,11,0.6,0.6
2022-03-09T05:00:00,1840A,111.2992,30.6981,宜昌市,白龙岗,颗粒物(PM10),62,73,106,27,35,110,57,63,56,16,30,4,5,0.2,0.3
2022-03-09T05:00:00,1841A,111.3549,30.6465,宜昌市,伍家岗,颗粒物(PM10),67,84,102,36,35,107,5,4,4,43,37,5,6,0.7,0.7
2022-03-09T05:00:00,1842A,111.2628,30.6961,宜昌市,点军区,颗粒物(PM10),62,74,124,31,39,111,17,38,26,17,27,5,7,0.5,0.5
2022-03-09T05:00:00,1843A,111.3275,30.7819,宜昌市,夷陵区,颗粒物(PM10),65,80,99,29,33,110,19,22,20,27,32,4,4,0.4,0.4
2022-03-09T05:00:00,1844A,112.2494,30.3197,荆州市,市图书馆,颗粒物(PM10),61,72,89,26,26,126,46,44,43,32,32,13,13,0.8,0.8
2022-03-09T05:00:00,1845A,112.2008,30.3544,荆州市,市委党校,颗粒物(PM10),68,86,95,38,34,124,25,52,39,53,32,13,11,0.8,0.7
2022-03-09T05:00:00,1847A,113.1094,29.3578,岳阳市,南湖风景区,颗粒物(PM10),56,62,61,22,25,130,70,57,57,26,37,9,10,0.5,0.6
2022-03-09T05:00:00,1848A,113.1493,29.4251,岳阳市,城陵矶,颗粒物(PM10),68,86,78,35,28,130,30,30,30,50,39,10,15,0.4,0.5
2022-03-09T05:00:00,1849A,113.1497,29.3575,岳阳市,开发区,,49,49,56,25,19,133,64,54,54,20,31,6,10,0.4,0.4
2022-03-09T05:00:00,1850A,113.2621,29.4758,岳阳市,云溪区,,49,49,59,31,27,134,20,55,43,22,23,7,7,0.6,0.6
2022-03-09T05:00:00,1851A,112.9943,29.4402,岳阳市,君山区,颗粒物(PM10),60,70,62,30,22,131,11,51,23,67,34,7,6,0.6,0.6
2022-03-09T05:00:00,1852A,113.2117,29.355,岳阳市,金凤水库(对照点),,48,48,56,24,22,129,35,76,41,29,23,7,9,0.5,0.5
2022-03-09T05:00:00,1854A,111.6975,28.9703,常德市,市二中,颗粒物(PM10),55,60,92,36,34,134,29,54,49,35,27,11,10,0.8,0.7
2022-03-09T05:00:00,1857A,111.7158,29.1456,常德市,白鹤山(对照点),颗粒物(PM10),56,61,84,30,30,136,83,97,93,9,10,10,9,0.4,0.5
2022-03-09T05:00:00,1858A,110.5319,29.1217,张家界市,永定新区,颗粒物(PM10),56,62,104,22,35,116,35,52,35,10,16,3,2,0.3,0.4
2022-03-09T05:00:00,1859A,110.4697,29.1242,张家界市,电业局,颗粒物(PM10),52,53,85,19,22,88,31,35,33,14,25,4,4,0.2,0.3
2022-03-09T05:00:00,1860A,110.5594,29.3547,张家界市,未央路,颗粒物(PM10),51,51,81,17,17,103,25,31,28,5,8,3,4,0.3,0.3
2022-03-09T05:00:00,1861A,110.4417,29.315,张家界市,袁家界(对照点),颗粒物(PM10),60,70,86,25,26,121,121,116,116,7,6,2,2,0.2,0.2
2022-03-09T05:00:00,1862A,110.4144,25.3167,桂林市,电子科大尧山校区(对照点),,40,40,64,26,26,137,28,38,32,5,6,5,5,0.3,0.3
2022-03-09T05:00:00,1863A,110.2819,25.2697,桂林市,监测站,细颗粒物(PM2.5),87,107,91,64,42,123,13,12,8,55,32,43,14,1.2,0.7
2022-03-09T05:00:00,1864A,110.3089,25.2708,桂林市,龙隐路小学,细颗粒物(PM2.5),108,101,91,81,46,128,18,24,21,47,30,37,20,1.4,1
2022-03-09T05:00:00,1865A,110.2869,25.2178,桂林市,八中,颗粒物(PM10),56,62,83,36,32,122,16,19,16,34,29,7,8,0.7,0.7
2022-03-09T05:00:00,1866A,109.2262,21.588,北海市,牛尾岭水库(对照点),细颗粒物(PM2.5),52,42,55,36,38,137,68,72,64,11,12,9,12,0.5,0.5
2022-03-09T05:00:00,1867A,109.1436,21.4086,北海市,海滩公园,,30,19,46,7,19,154,96,112,104,10,13,6,8,0.5,0.4
2022-03-09T05:00:00,1868A,109.0981,21.4661,北海市,新市环保局,,27,24,42,14,21,145,85,109,99,7,12,6,7,0.4,0.5
2022-03-09T05:00:00,1869A,109.1778,21.5233,北海市,北海工业园,颗粒物(PM10),82,114,57,55,27,152,48,93,74,45,14,13,9,1.2,0.6
2022-03-09T05:00:00,1870A,109.4856,24.3895,柳州市,柳东小学,细颗粒物(PM2.5),73,80,80,53,43,144,50,89,81,40,24,12,13,0.8,0.7
2022-03-09T05:00:00,1871A,109.4157,24.3277,柳州市,环保监测站,细颗粒物(PM2.5),68,84,87,49,45,143,90,75,75,20,32,10,10,0.7,0.8
2022-03-09T05:00:00,1872A,109.389,24.341,柳州市,河西水厂,颗粒物(PM10),62,73,87,42,40,144,88,73,73,24,38,15,16,0.9,1
2022-03-09T05:00:00,1873A,109.4311,24.2921,柳州市,市四中,颗粒物(PM10),64,77,90,44,39,133,73,64,64,24,34,10,10,0.6,0.8
2022-03-09T05:00:00,1874A,109.4006,24.3631,柳州市,市九中,细颗粒物(PM2.5),69,75,87,50,42,138,86,71,71,20,31,9,10,0.9,0.9
2022-03-09T05:00:00,1875A,109.4958,24.3134,柳州市,古亭山,颗粒物(PM10),60,69,68,37,31,147,73,91,87,31,28,7,7,0.5,0.5
2022-03-09T05:00:00,1876A,109.5078,18.2489,三亚市,河东子站,,35,34,38,12,15,125,109,110,110,5,8,3,4,0.4,0.5
2022-03-09T05:00:00,1877A,109.4964,18.2681,三亚市,河西子站,,35,26,36,11,14,133,112,111,111,3,6,4,4,0.4,0.4
2022-03-09T05:00:00,1878A,104.7778,31.4741,绵阳市,富乐山,细颗粒物(PM2.5),67,74,74,48,49,143,31,47,30,38,35,7,7,0.7,0.6
2022-03-09T05:00:00,1879A,104.7563,31.4535,绵阳市,市人大,细颗粒物(PM2.5),70,85,89,51,56,159,15,10,10,59,60,7,9,0.8,1.1
2022-03-09T05:00:00,1880A,104.6697,31.4668,绵阳市,高新区自来水公司,颗粒物(PM10),80,110,92,58,59,146,11,8,8,62,54,3,2,0.9,0.9
2022-03-09T05:00:00,1881A,104.7287,31.5075,绵阳市,三水厂,细颗粒物(PM2.5),78,95,97,57,60,146,3,3,3,55,53,4,5,1.1,1.1
2022-03-09T05:00:00,1882A,104.563,28.793,宜宾市,石马中学(对照点),细颗粒物(PM2.5),95,92,79,71,56,158,11,20,17,32,28,7,10,0.8,0.7
2022-03-09T05:00:00,1883A,104.6201,28.7728,宜宾市,市委,细颗粒物(PM2.5),97,102,82,72,54,162,22,26,25,42,42,12,13,0.8,0.8
2022-03-09T05:00:00,1884A,104.6055,28.793,宜宾市,宜宾四中,细颗粒物(PM2.5),100,105,97,75,58,155,20,34,26,47,48,14,16,0.8,0.8
2022-03-09T05:00:00,1886A,104.5742,28.7199,宜宾市,黄金嘴,细颗粒物(PM2.5),84,92,82,62,51,168,45,29,29,30,38,11,12,0.7,0.7
2022-03-09T05:00:00,1888A,101.6891,26.571,攀枝花市,弄弄坪,,50,43,58,35,40,142,30,70,43,38,46,14,26,0.2,1.2
2022-03-09T05:00:00,1889A,101.5769,26.5928,攀枝花市,河门口,,34,34,48,17,28,127,40,65,50,22,21,14,26,0.7,1.2
2022-03-09T05:00:00,1890A,101.7169,26.585,攀枝花市,炳草岗,,42,40,59,29,43,139,8,32,17,55,55,23,12,1.5,1.5
2022-03-09T05:00:00,1891A,101.7369,26.5008,攀枝花市,仁和,,22,22,54,14,37,128,41,45,44,18,33,5,19,0.5,1.8
2022-03-09T05:00:00,1893A,105.4324,28.9634,泸州市,九狮山(对照点),细颗粒物(PM2.5),90,112,98,67,50,202,14,41,28,20,26,6,16,0.5,0.5
2022-03-09T05:00:00,1894A,105.4427,28.9063,泸州市,小市上码头,细颗粒物(PM2.5),103,137,109,77,53,184,13,26,14,65,57,31,26,1.1,1
2022-03-09T05:00:00,1895A,105.4241,28.8573,泸州市,兰田宪桥,颗粒物(PM10),76,101,104,54,49,180,66,42,42,24,35,15,26,0.6,0.7
2022-03-09T05:00:00,1896A,105.4379,28.8833,泸州市,市环监站,颗粒物(PM10),83,116,103,53,50,170,58,99,78,36,41,26,30,0.7,0.7
2022-03-09T05:00:00,1901A,104.4239,31.1208,德阳市,东山公园,细颗粒物(PM2.5),80,95,89,59,54,152,8,86,59,96,42,13,8,0.8,0.6
2022-03-09T05:00:00,1902A,104.3826,31.1317,德阳市,西小区,细颗粒物(PM2.5),87,91,92,64,58,153,10,42,26,63,45,10,8,0.8,0.7
2022-03-09T05:00:00,1904A,104.3553,31.1091,德阳市,耐火材料厂,细颗粒物(PM2.5),92,103,103,68,62,143,6,26,16,73,53,13,7,0.6,0.6
2022-03-09T05:00:00,1905A,106.056,30.8064,南充市,西山风景区(对照点),颗粒物(PM10),61,72,62,36,36,148,89,119,107,16,14,12,3,0.7,0.7
2022-03-09T05:00:00,1906A,106.0789,30.8023,南充市,南充市委,细颗粒物(PM2.5),78,71,76,57,48,144,57,70,61,18,30,2,2,0.6,0.8
2022-03-09T05:00:00,1907A,106.1031,30.8217,南充市,南充炼油厂,颗粒物(PM10),74,98,82,41,34,138,42,40,38,33,32,9,3,0.8,0.8
2022-03-09T05:00:00,1908A,106.1064,30.7856,南充市,高坪区监测站,细颗粒物(PM2.5),77,84,75,56,42,129,36,20,20,31,37,3,5,0.6,0.8
2022-03-09T05:00:00,1909A,106.0642,30.7636,南充市,嘉陵区环保局,细颗粒物(PM2.5),68,62,62,49,37,155,80,33,33,23,43,8,8,0.7,0.9
2022-03-09T05:00:00,1910A,106.1087,30.8388,南充市,市环境监测站,颗粒物(PM10),61,72,64,39,39,133,77,88,78,25,23,15,3,0.5,0.5
2022-03-09T05:00:00,1911A,106.9222,27.6869,遵义市,丁字口,颗粒物(PM10),54,58,58,35,36,164,26,13,13,37,42,28,32,0.9,0.9
2022-03-09T05:00:00,1912A,106.9242,27.7019,遵义市,凤凰山,颗粒物(PM10),56,62,49,31,24,179,98,117,106,14,15,15,12,0.5,0.5
2022-03-09T05:00:00,1913A,106.8906,27.6486,遵义市,忠庄,颗粒物(PM10),51,51,58,35,29,169,66,65,65,16,25,9,12,0.4,0.5
2022-03-09T05:00:00,1914A,106.9231,27.6506,遵义市,舟水桥,细颗粒物(PM2.5),74,76,69,54,38,169,12,16,14,21,24,5,11,0.4,0.4
2022-03-09T05:00:00,1915A,106.9178,27.72,遵义市,干田坝,,45,42,62,31,34,174,32,23,23,29,32,18,16,0.8,0.8
2022-03-09T05:00:00,1916A,103.7897,25.5035,曲靖市,环境监测站,,19,18,38,13,15,126,52,64,57,15,16,5,5,0.5,0.6
2022-03-09T05:00:00,1917A,103.8,25.5364,曲靖市,烟厂办公区,,26,26,38,15,18,132,57,68,61,15,12,6,5,0.5,0.4
2022-03-09T05:00:00,1918A,108.7197,34.3956,咸阳市,气象站(对照点),颗粒物(PM10),133,215,184,82,69,121,7,5,5,102,77,11,11,0.8,0.8
2022-03-09T05:00:00,1919A,108.673,34.3155,咸阳市,实验中学,颗粒物(PM10),138,226,190,103,78,120,4,5,4,87,63,9,12,1.1,0.9
2022-03-09T05:00:00,1920A,108.7233,34.3617,咸阳市,师范学院,颗粒物(PM10),119,187,171,82,68,130,19,7,7,73,60,12,13,0.8,0.8
2022-03-09T05:00:00,1922A,109.0656,35.0994,铜川市,党校(对照点),颗粒物(PM10),90,129,144,48,57,120,41,47,45,59,49,19,19,0.6,0.7
2022-03-09T05:00:00,1923A,109.0697,35.0697,铜川市,王益区政府,颗粒物(PM10),87,123,154,50,54,116,18,27,20,48,47,9,13,0.6,0.7
2022-03-09T05:00:00,1924A,108.9344,34.9058,铜川市,新区管委会,颗粒物(PM10),86,122,150,51,55,145,76,80,79,19,29,14,18,0.6,0.7
2022-03-09T05:00:00,1926A,109.4131,36.6275,延安市,枣园(对照点),颗粒物(PM10),63,75,103,27,42,151,7,6,6,47,44,1,3,0.9,0.8
2022-03-09T05:00:00,1927A,109.4761,36.6028,延安市,延大医附院,颗粒物(PM10),172,293,178,48,66,152,2,3,2,51,48,4,6,1.0,1.2
2022-03-09T05:00:00,1929A,109.5056,36.6106,延安市,百米大道,,,134,142,39,53,152,2,3,2,70,64,,9,1.4,1.3
2022-03-09T05:00:00,1930A,107.185,34.3063,宝鸡市,庙沟村(对照点),颗粒物(PM10),69,88,114,47,43,124,75,75,75,17,25,5,8,0.6,0.6
2022-03-09T05:00:00,1931A,107.0708,34.3017,宝鸡市,竹园沟,细颗粒物(PM2.5),63,71,117,45,53,132,34,53,47,23,27,6,9,0.5,0.6
2022-03-09T05:00:00,1932A,107.1906,34.3672,宝鸡市,三陆医院,颗粒物(PM10),85,120,149,62,66,125,20,28,26,58,50,23,17,0.8,0.8
2022-03-09T05:00:00,1933A,107.1431,34.3547,宝鸡市,监测站,细颗粒物(PM2.5),80,83,124,59,59,131,29,31,31,30,34,3,6,0.7,0.7
2022-03-09T05:00:00,1934A,107.1186,34.3739,宝鸡市,技工学校,细颗粒物(PM2.5),82,103,144,60,58,121,36,42,39,26,35,8,14,0.9,0.8
2022-03-09T05:00:00,1935A,107.3906,34.3528,宝鸡市,陈仓区环保局家属楼,细颗粒物(PM2.5),98,142,158,73,65,122,32,22,22,34,45,43,19,1.7,1.1
2022-03-09T05:00:00,1936A,107.2058,34.3497,宝鸡市,文理学院,细颗粒物(PM2.5),89,115,140,66,62,136,30,40,36,42,39,12,12,0.8,0.7
2022-03-09T05:00:00,1937A,107.2386,34.3622,宝鸡市,三迪小学,颗粒物(PM10),84,117,140,60,61,124,19,24,22,50,48,11,12,0.7,0.7
2022-03-09T05:00:00,1938A,109.5293,34.5101,渭南市,农科所(对照点),颗粒物(PM10),107,163,164,58,51,127,19,35,25,46,35,8,9,0.9,0.8
2022-03-09T05:00:00,1939A,109.4974,34.4877,渭南市,日报社,颗粒物(PM10),108,166,165,66,51,135,3,32,21,67,46,11,12,0.7,0.7
2022-03-09T05:00:00,1940A,109.4636,34.493,渭南市,体育馆,颗粒物(PM10),122,193,173,61,48,137,7,7,7,67,50,13,11,0.7,0.7
2022-03-09T05:00:00,1941A,109.4259,34.5023,渭南市,高新一小,颗粒物(PM10),132,213,179,80,69,129,5,26,16,66,49,7,10,0.6,0.7
2022-03-09T05:00:00,1943A,102.1725,38.5339,金昌市,新川苑,颗粒物(PM10),349,459,299,123,83,117,46,45,45,16,17,16,11,0.5,0.6
2022-03-09T05:00:00,1944A,102.1692,38.5167,金昌市,天庆家园,颗粒物(PM10),358,466,302,114,77,120,52,64,56,18,21,53,21,0.8,0.9
2022-03-09T05:00:00,1945A,98.2908,39.7711,嘉峪关市,气象局,颗粒物(PM10),322,437,488,122,134,84,48,65,51,18,25,3,17,0.2,0.5
2022-03-09T05:00:00,1947A,106.3394,38.817,石嘴山市,沙湖旅游区(对照点),颗粒物(PM10),159,267,232,102,69,128,5,10,6,57,47,35,57,1.1,1.3
2022-03-09T05:00:00,1948A,106.3668,39.0145,石嘴山市,大武口朝阳西街,颗粒物(PM10),137,224,163,84,57,111,9,27,22,78,45,69,38,1.0,0.8
2022-03-09T05:00:00,1949A,106.7704,39.2282,石嘴山市,惠农南大街,颗粒物(PM10),177,303,218,87,58,106,1,4,3,77,59,55,39,3.1,1.3
2022-03-09T05:00:00,1950A,106.7099,39.1325,石嘴山市,红果子镇惠新街,颗粒物(PM10),115,180,188,51,69,114,7,11,8,60,48,30,23,1.0,0.7
2022-03-09T05:00:00,1951A,84.895,45.6094,克拉玛依市,长征新村,,28,28,63,18,23,70,43,38,38,20,36,8,7,0.3,0.5
2022-03-09T05:00:00,1952A,84.8988,45.5893,克拉玛依市,南林小区,,45,45,77,13,21,74,44,26,26,19,36,4,4,0.4,0.6
2022-03-09T05:00:00,1954A,84.905,44.3396,克拉玛依市,独山子区,,27,14,37,6,14,89,86,81,81,7,13,4,4,0.4,0.5
2022-03-09T05:00:00,1955A,85.6979,46.098,克拉玛依市,乌尔禾区商贸楼,颗粒物(PM10),56,61,42,36,21,99,52,72,62,15,15,9,9,0.4,0.4
2022-03-09T05:00:00,1956A,86.1472,41.7538,巴音郭楞州,孔雀公园,颗粒物(PM10),123,195,191,31,48,125,113,112,112,5,42,4,5,0.2,0.4
2022-03-09T05:00:00,1957A,86.1972,41.7166,巴音郭楞州,棉纺厂,颗粒物(PM10),119,188,165,40,44,122,98,98,98,16,44,7,7,0.2,0.4
2022-03-09T05:00:00,1958A,86.2357,41.7173,巴音郭楞州,经济开发区,颗粒物(PM10),151,252,189,36,40,123,105,107,107,8,25,4,4,0.1,0.2
2022-03-09T05:00:00,1961A,117.532,36.6868,济南市,东山小学,颗粒物(PM10),139,227,167,44,45,167,20,41,35,81,40,10,12,0.4,0.5
2022-03-09T05:00:00,1966A,120.0405,35.8735,青岛市,黄岛区4号,细颗粒物(PM2.5),128,129,106,97,63,107,68,91,75,42,53,7,10,0.8,0.9
2022-03-09T05:00:00,1982A,122.0693,37.2174,威海市,文登开发区,颗粒物(PM10),85,119,123,58,73,147,71,72,69,15,28,4,7,1.0,1
2022-03-09T05:00:00,2031A,113.1817,27.9958,株洲市,云田中学,,39,39,41,19,23,128,81,96,91,13,12,10,7,0.4,0.4
2022-03-09T05:00:00,2054A,114.1099,32.1059,信阳市,平桥分局,颗粒物(PM10),63,75,97,34,34,134,24,81,53,48,20,7,8,0.6,0.5
2022-03-09T05:00:00,2064A,113.9956,32.1271,信阳市,南湾水厂,颗粒物(PM10),68,85,108,28,31,146,94,102,95,10,12,6,7,0.5,0.6
2022-03-09T05:00:00,2065A,114.0775,32.1195,信阳市,市酿酒公司,颗粒物(PM10),67,84,88,32,32,133,20,52,30,50,26,5,6,0.5,0.5
2022-03-09T05:00:00,2066A,114.0609,32.1399,信阳市,审计局,颗粒物(PM10),80,110,121,33,36,134,11,57,24,54,27,8,7,0.5,0.4
2022-03-09T05:00:00,2067A,114.6613,33.6128,周口市,市环境监测站,颗粒物(PM10),125,200,155,56,42,134,46,54,51,30,25,18,9,0.7,0.7
2022-03-09T05:00:00,2068A,114.6758,33.6347,周口市,周口师范,颗粒物(PM10),122,193,154,48,35,130,61,63,63,25,18,18,10,0.8,0.7
2022-03-09T05:00:00,2069A,114.6546,33.5979,周口市,市运管处,颗粒物(PM10),108,165,143,52,36,127,48,61,56,44,27,18,10,0.7,0.7
2022-03-09T05:00:00,2070A,114.6369,33.6406,周口市,川汇区环保局,颗粒物(PM10),110,169,149,49,38,131,64,68,67,21,17,13,6,0.6,0.6
2022-03-09T05:00:00,2075A,117.6336,24.4674,漳州市,九湖(对照点),颗粒物(PM10),52,54,39,31,19,128,23,53,31,40,25,11,8,0.5,0.4
2022-03-09T05:00:00,2160A,112.85,35.5051,晋城市,自来水公司,颗粒物(PM10),100,149,170,41,46,151,18,25,14,65,44,16,13,1.2,1.3
2022-03-09T05:00:00,2161A,112.8318,35.4936,晋城市,白云商贸,颗粒物(PM10),131,211,192,48,50,140,34,43,40,40,30,9,11,0.9,1
2022-03-09T05:00:00,2162A,112.8508,35.4887,晋城市,市环保局,颗粒物(PM10),116,182,197,48,49,150,7,8,7,65,39,15,13,1.0,1
2022-03-09T05:00:00,2163A,112.8676,35.4897,晋城市,技术学院,颗粒物(PM10),109,168,180,51,49,145,12,16,11,68,44,12,11,0.9,1
2022-03-09T05:00:00,2165A,112.8453,35.546,晋城市,白马寺 (对照点),颗粒物(PM10),115,179,165,39,39,147,79,121,104,29,24,14,12,0.7,1
2022-03-09T05:00:00,2166A,112.4397,39.3522,朔州市,平朔,颗粒物(PM10),82,114,108,47,40,111,6,18,10,89,52,26,14,0.7,0.7
2022-03-09T05:00:00,2167A,112.4575,39.3617,朔州市,朔唯,颗粒物(PM10),114,178,125,45,38,118,1,1,1,90,53,30,19,0.5,0.4
2022-03-09T05:00:00,2168A,112.4258,39.3197,朔州市,区政府,颗粒物(PM10),71,91,93,24,30,112,22,37,31,53,38,15,16,0.6,0.7
2022-03-09T05:00:00,2169A,112.4072,39.3278,朔州市,市环保局,颗粒物(PM10),73,96,94,29,32,118,32,50,41,42,40,12,12,0.5,0.6
2022-03-09T05:00:00,2170A,112.4272,39.3681,朔州市,市二中,颗粒物(PM10),87,124,121,46,41,113,4,9,6,88,53,21,18,0.7,0.6
2022-03-09T05:00:00,2171A,112.7532,37.6945,晋中市,锦纶小区,颗粒物(PM10),106,162,127,68,51,140,67,89,76,36,28,10,9,0.7,0.5
2022-03-09T05:00:00,2173A,112.7249,37.7067,晋中市,南都小区,颗粒物(PM10),104,157,135,68,54,142,82,73,73,32,33,12,11,0.6,0.6
2022-03-09T05:00:00,2174A,112.6991,37.6982,晋中市,榆次区政府,颗粒物(PM10),106,161,127,69,49,135,86,73,72,35,37,13,12,0.5,0.5
2022-03-09T05:00:00,2175A,110.9956,35.0147,运城市,运城中学,颗粒物(PM10),94,138,173,40,61,141,112,126,118,9,19,11,12,0.6,0.5
2022-03-09T05:00:00,2178A,110.9686,35.0303,运城市,地区技校,颗粒物(PM10),92,134,163,29,39,133,103,114,109,9,19,8,8,0.5,0.5
2022-03-09T05:00:00,2179A,111.0414,35.1147,运城市,空港新区,颗粒物(PM10),109,167,186,50,53,148,69,108,96,34,24,11,12,0.9,0.8
2022-03-09T05:00:00,2181A,112.7383,38.4519,忻州市,开发区,细颗粒物(PM2.5),79,90,106,58,54,122,40,42,32,26,38,10,13,0.6,0.7
2022-03-09T05:00:00,2182A,112.7003,38.4928,忻州市,会展中心,细颗粒物(PM2.5),79,104,94,58,51,106,7,10,9,50,49,8,12,0.6,0.6
2022-03-09T05:00:00,2183A,111.1406,37.5211,吕梁市,环保局,颗粒物(PM10),102,154,139,35,34,118,0,0,0,66,57,13,12,0.4,0.5
2022-03-09T05:00:00,2185A,111.1297,37.5136,吕梁市,自来水公司,颗粒物(PM10),113,175,135,47,34,112,2,2,2,66,55,15,12,0.4,0.5
2022-03-09T05:00:00,2187A,106.8174,39.6973,乌海市,市林业局,颗粒物(PM10),103,155,197,53,61,98,78,73,73,23,52,16,39,0.8,1.3
2022-03-09T05:00:00,2188A,106.7907,39.6667,乌海市,中海勃湾学校,颗粒物(PM10),106,161,177,51,56,107,69,86,83,38,47,12,32,0.8,1.2
2022-03-09T05:00:00,2191A,122.2532,43.6801,通辽市,艺术职业学校,颗粒物(PM10),52,53,76,25,41,94,57,35,35,28,41,10,15,0.5,0.7
2022-03-09T05:00:00,2192A,119.7594,49.2261,呼伦贝尔市,区环保局,,27,15,31,10,20,93,84,82,82,4,16,5,5,0.6,0.7
2022-03-09T05:00:00,2195A,107.4212,40.761,巴彦淖尔市,附二中,细颗粒物(PM2.5),142,208,161,108,66,115,60,37,37,28,36,11,16,0.9,0.8
2022-03-09T05:00:00,2196A,107.37,40.7372,巴彦淖尔市,市环保大楼,细颗粒物(PM2.5),162,218,140,123,63,116,53,46,37,26,31,10,14,0.9,0.7
2022-03-09T05:00:00,2197A,113.1306,40.9923,乌兰察布市,集宁新区,,43,43,33,16,14,107,27,71,54,36,21,13,12,0.6,0.5
2022-03-09T05:00:00,2200A,122.0392,46.0656,兴安盟,胜华新制药厂,细颗粒物(PM2.5),201,178,89,151,67,79,8,10,9,33,25,4,6,1.4,0.8
2022-03-09T05:00:00,2201A,121.9504,46.0741,兴安盟,科右前旗环保局,细颗粒物(PM2.5),130,128,103,99,82,86,6,6,5,42,28,6,7,1.1,0.9
2022-03-09T05:00:00,2202A,116.1042,43.9317,锡林郭勒盟,市环保监测站,,25,10,20,8,7,94,77,76,76,2,9,10,9,0.7,0.5
2022-03-09T05:00:00,2203A,116.0781,43.9311,锡林郭勒盟,市政府,,24,6,15,2,3,96,74,71,71,2,11,8,8,0.5,0.6
2022-03-09T05:00:00,2204A,105.6467,38.8363,阿拉善盟,西城区西花园(对照点),颗粒物(PM10),93,136,140,47,46,137,102,97,97,8,13,9,9,0.4,0.5
2022-03-09T05:00:00,2205A,105.6985,38.8411,阿拉善盟,蒙二幼,颗粒物(PM10),88,126,132,43,44,118,98,97,97,8,18,9,10,0.4,0.5
2022-03-09T05:00:00,2206A,105.724,38.8516,阿拉善盟,环保局新楼,颗粒物(PM10),76,101,96,44,41,125,113,109,109,9,13,9,7,0.3,0.3
2022-03-09T05:00:00,2207A,121.6094,41.998,阜新市,工业园区,颗粒物(PM10),52,53,119,24,44,108,23,20,20,36,45,9,22,0.6,0.8
2022-03-09T05:00:00,2208A,121.6697,42.0279,阜新市,长青街,颗粒物(PM10),77,103,99,42,46,93,6,7,7,50,44,17,25,1.2,1
2022-03-09T05:00:00,2209A,121.6673,42.0705,阜新市,农业园区,,30,30,56,18,31,102,76,75,75,11,20,37,33,0.4,0.5
2022-03-09T05:00:00,2210A,121.6717,42.0224,阜新市,东苑,细颗粒物(PM2.5),67,81,100,48,50,105,10,12,11,50,33,24,30,1.0,0.9
2022-03-09T05:00:00,2211A,121.6506,42.0498,阜新市,玉龙新城,,50,50,63,23,32,107,5,6,5,42,39,22,19,1.0,0.8
2022-03-09T05:00:00,2212A,123.2,41.1953,辽阳市,宏伟区,细颗粒物(PM2.5),129,159,82,98,40,113,5,34,19,74,38,17,15,2.0,1
2022-03-09T05:00:00,2213A,123.1683,41.2495,辽阳市,新华园,颗粒物(PM10),119,187,98,83,57,111,6,42,20,54,32,12,17,1.7,1.1
2022-03-09T05:00:00,2214A,123.2354,41.2639,辽阳市,滨河路,细颗粒物(PM2.5),122,144,107,92,62,112,10,13,11,67,40,13,18,1.3,0.9
2022-03-09T05:00:00,2215A,123.149,41.2991,辽阳市,铁西工业园,细颗粒物(PM2.5),204,174,117,154,70,95,5,18,14,71,44,23,29,2.5,1.5
2022-03-09T05:00:00,2216A,123.8139,42.3022,铁岭市,汇工街西,细颗粒物(PM2.5),172,125,129,130,70,114,7,8,8,57,42,34,26,1.3,1.2
2022-03-09T05:00:00,2217A,123.8649,42.2923,铁岭市,水上乐园,细颗粒物(PM2.5),95,85,99,71,60,118,42,40,40,30,37,8,15,0.6,0.7
2022-03-09T05:00:00,2218A,123.8486,42.2867,铁岭市,银州路东段,细颗粒物(PM2.5),97,100,129,72,64,130,41,29,29,25,36,5,12,0.6,0.8
2022-03-09T05:00:00,2219A,123.7153,42.2217,铁岭市,金沙江路北,细颗粒物(PM2.5),109,138,122,82,68,113,8,8,8,55,51,8,10,0.7,0.9
2022-03-09T05:00:00,2220A,120.4318,41.5881,朝阳市,西梁,颗粒物(PM10),67,84,75,35,34,106,11,13,12,44,35,17,16,1.6,1.1
2022-03-09T05:00:00,2221A,120.4521,41.5646,朝阳市,河畔小区,颗粒物(PM10),51,52,59,35,30,103,14,10,9,35,31,6,8,0.9,0.9
2022-03-09T05:00:00,2222A,120.4176,41.5648,朝阳市,八里堡,颗粒物(PM10),53,56,77,21,29,108,10,8,8,40,38,8,11,1.2,1.1
2022-03-09T05:00:00,2223A,120.3806,41.5969,朝阳市,农业园区,,45,45,66,20,31,104,19,35,26,42,31,6,15,0.7,0.8
2022-03-09T05:00:00,2225A,124.4002,43.1713,四平市,一商场,"颗粒物(PM10),细颗粒物(PM2.5)",95,140,127,71,58,113,5,9,7,67,42,11,14,1.0,1
2022-03-09T05:00:00,2226A,124.388,43.193,四平市,境园,细颗粒物(PM2.5),94,105,102,70,60,115,8,7,7,68,51,9,15,0.9,1.1
2022-03-09T05:00:00,2227A,125.1358,42.8845,辽源市,环保局,细颗粒物(PM2.5),178,157,89,134,70,118,30,70,48,26,21,6,12,0.7,0.8
2022-03-09T05:00:00,2229A,125.9358,41.7173,通化市,光明,颗粒物(PM10),55,60,57,38,28,108,19,14,14,29,29,10,16,1.0,0.9
2022-03-09T05:00:00,2230A,125.9446,41.7325,通化市,铁路,,50,48,54,35,33,99,8,11,8,42,33,10,15,0.7,0.7
2022-03-09T05:00:00,2231A,126.4219,41.9171,白山市,喜丰,颗粒物(PM10),75,100,97,44,35,112,24,34,28,46,34,18,20,1.2,1.1
2022-03-09T05:00:00,2232A,126.4077,41.9419,白山市,环保局,颗粒物(PM10),67,83,89,41,40,99,25,32,28,34,36,12,17,1.0,1.1
2022-03-09T05:00:00,2233A,124.8006,45.1214,松原市,江南,细颗粒物(PM2.5),105,114,89,79,56,112,25,43,26,55,42,4,6,1.1,1
2022-03-09T05:00:00,2234A,124.7965,45.1722,松原市,江北,细颗粒物(PM2.5),108,97,83,81,56,118,26,36,29,36,25,1,5,1.0,0.9
2022-03-09T05:00:00,2235A,122.7911,45.6077,白城市,洮北区环保局,细颗粒物(PM2.5),77,91,68,56,39,84,37,38,38,25,24,6,6,0.7,0.6
2022-03-09T05:00:00,2236A,122.8738,45.5725,白城市,市环保局,细颗粒物(PM2.5),75,79,60,55,40,84,4,16,6,44,33,7,8,0.6,0.5
2022-03-09T05:00:00,2237A,129.47,42.8883,延边朝鲜族自治州,妇幼医院,,42,42,45,23,26,111,31,52,42,17,18,8,13,0.7,0.8
2022-03-09T05:00:00,2238A,129.5055,42.9108,延边朝鲜族自治州,延边医院,颗粒物(PM10),58,66,63,32,36,109,25,44,40,34,28,31,16,0.7,0.9
2022-03-09T05:00:00,2239A,129.3964,42.8881,延边朝鲜族自治州,朝阳川镇医院,,49,49,47,30,26,110,25,40,30,12,13,4,7,0.6,0.6
2022-03-09T05:00:00,2240A,130.9762,45.3001,鸡西市,环保局,细颗粒物(PM2.5),74,74,67,54,48,97,63,49,49,28,43,10,10,0.6,0.7
2022-03-09T05:00:00,2243A,130.9429,45.3039,鸡西市,第一中学,细颗粒物(PM2.5),65,62,68,47,41,109,61,61,61,33,36,12,13,0.4,0.4
2022-03-09T05:00:00,2244A,130.2537,47.3416,鹤岗市,哈啤分公司,,35,34,84,20,34,109,109,99,99,10,28,14,14,0.5,0.6
2022-03-09T05:00:00,2245A,130.2684,47.3086,鹤岗市,斯达机电,,38,38,59,21,33,106,104,90,90,9,24,7,9,0.5,0.5
2022-03-09T05:00:00,2246A,130.3114,47.3388,鹤岗市,东山纸板厂,细颗粒物(PM2.5),60,63,73,43,36,104,40,55,46,27,33,12,15,1.1,1
2022-03-09T05:00:00,2248A,131.1511,46.6937,双鸭山市,双合村,颗粒物(PM10),51,51,69,29,41,112,93,94,92,13,22,10,14,0.6,0.9
2022-03-09T05:00:00,2249A,131.1652,46.6191,双鸭山市,南小市,,36,27,45,25,31,111,93,98,97,16,20,18,11,0.6,0.7
2022-03-09T05:00:00,2250A,131.1524,46.6554,双鸭山市,环保局,,48,42,42,33,33,122,110,111,110,9,24,4,3,0.4,0.5
2022-03-09T05:00:00,2251A,131.12,46.5656,双鸭山市,苗圃(对照点),细颗粒物(PM2.5),57,40,38,40,38,128,113,121,115,8,10,4,4,0.4,0.5
2022-03-09T05:00:00,2252A,128.5159,47.4311,伊春市,环保局,,39,39,31,27,23,105,60,67,66,21,21,6,11,0.6,0.6
2022-03-09T05:00:00,2253A,128.9102,47.7412,伊春市,电力嘉园,,34,34,30,17,19,107,9,83,50,61,23,5,10,0.7,0.7
2022-03-09T05:00:00,2254A,129.5029,48.471,伊春市,汤旺河国家公园(对照点),细颗粒物(PM2.5),52,26,18,36,17,118,72,94,85,5,3,5,7,0.4,0.3
2022-03-09T05:00:00,2255A,130.2751,46.8028,佳木斯市,佳纺,细颗粒物(PM2.5),67,54,71,48,45,112,54,80,59,26,25,4,7,0.7,0.6
2022-03-09T05:00:00,2256A,130.3995,46.8307,佳木斯市,发电厂,细颗粒物(PM2.5),57,53,51,40,38,114,46,51,48,32,37,5,7,0.7,0.6
2022-03-09T05:00:00,2257A,130.3258,46.7975,佳木斯市,环保局,,49,44,50,34,37,118,58,95,77,34,31,6,6,1.0,0.9
2022-03-09T05:00:00,2258A,130.3648,46.8032,佳木斯市,十一中,细颗粒物(PM2.5),74,48,51,54,44,104,34,54,49,62,50,10,10,0.7,0.7
2022-03-09T05:00:00,2259A,130.3794,46.7588,佳木斯市,四丰(对照点),细颗粒物(PM2.5),63,44,31,45,31,112,88,102,95,12,7,7,6,0.6,0.5
2022-03-09T05:00:00,2262A,131.0518,45.8751,七台河市,新一中(对照点),,40,33,39,28,29,122,64,75,68,16,15,2,4,0.5,0.5
2022-03-09T05:00:00,2263A,127.4833,50.2524,黑河市,交通局,,32,29,39,22,31,114,80,67,67,6,15,6,9,0.4,0.5
2022-03-09T05:00:00,2264A,127.5144,50.2341,黑河市,环保局,,33,27,45,23,38,113,90,81,81,6,16,6,12,0.4,0.6
2022-03-09T05:00:00,2265A,127.5291,50.2472,黑河市,大黑河岛(对照点),,48,29,52,33,34,112,77,66,66,12,19,18,16,0.5,0.6
2022-03-09T05:00:00,2266A,126.9785,46.6365,绥化市,人和东街,细颗粒物(PM2.5),119,118,100,90,69,113,68,44,36,29,35,8,13,0.7,0.7
2022-03-09T05:00:00,2267A,126.964,46.6528,绥化市,党政办公中心,细颗粒物(PM2.5),120,107,90,91,70,107,56,71,53,45,33,17,16,0.6,0.5
2022-03-09T05:00:00,2269A,124.1069,50.4097,大兴安岭地区,科技局,,23,21,24,16,16,86,69,61,61,9,17,5,5,0.6,0.5
2022-03-09T05:00:00,2270A,117.396,32.939,蚌埠市,工人疗养院,颗粒物(PM10),85,120,132,38,41,132,36,48,37,53,38,8,10,0.4,0.4
2022-03-09T05:00:00,2271A,117.3605,32.9427,蚌埠市,百货大楼,颗粒物(PM10),95,139,161,20,33,127,44,50,48,54,38,9,10,0.5,0.5
2022-03-09T05:00:00,2273A,117.4185,32.8911,蚌埠市,蚌埠学院,颗粒物(PM10),92,134,136,34,35,132,43,65,53,36,25,10,13,0.4,0.4
2022-03-09T05:00:00,2274A,117.3533,32.9673,蚌埠市,淮上区政府,颗粒物(PM10),93,136,141,39,37,127,17,15,15,77,46,15,13,0.4,0.4
2022-03-09T05:00:00,2275A,117.3145,32.8977,蚌埠市,高新区,颗粒物(PM10),85,119,137,31,34,132,69,73,72,22,25,8,10,0.4,0.4
2022-03-09T05:00:00,2277A,116.8305,32.7727,淮南市,潘集区政府,颗粒物(PM10),79,108,144,40,48,126,58,68,65,17,19,6,8,0.5,0.4
2022-03-09T05:00:00,2278A,117.0067,32.6524,淮南市,师范学院,颗粒物(PM10),76,102,120,30,42,122,70,81,78,13,19,9,7,0.3,0.3
2022-03-09T05:00:00,2279A,116.8569,32.5951,淮南市,谢家集区政府,颗粒物(PM10),74,97,121,30,39,127,72,73,72,16,19,12,9,0.5,0.3
2022-03-09T05:00:00,2280A,116.8281,32.633,淮南市,八公山区政府,颗粒物(PM10),66,81,113,31,35,127,74,80,78,16,15,19,11,0.5,0.3
2022-03-09T05:00:00,2281A,116.6325,32.6201,淮南市,焦岗湖风景区管理处(对照点),颗粒物(PM10),61,72,130,22,36,133,56,58,57,20,20,12,10,0.4,0.3
2022-03-09T05:00:00,2282A,116.8004,33.975,淮北市,监测站,颗粒物(PM10),88,126,183,43,48,118,88,107,95,13,22,6,7,0.6,0.6
2022-03-09T05:00:00,2283A,116.8091,33.9007,淮北市,烈山区政府,颗粒物(PM10),99,148,201,38,42,125,88,106,92,27,31,12,11,0.6,0.6
2022-03-09T05:00:00,2285A,117.8177,30.9412,铜陵市,市第四中学,,47,47,55,21,26,111,4,7,5,61,48,12,18,0.7,1.1
2022-03-09T05:00:00,2286A,117.8059,30.9273,铜陵市,市公路局,颗粒物(PM10),55,60,56,34,22,106,11,26,17,49,42,21,24,0.9,1.2
2022-03-09T05:00:00,2287A,117.7807,30.9413,铜陵市,市新民污水厂,颗粒物(PM10),57,64,57,31,26,111,2,2,2,55,45,5,13,0.6,0.6
2022-03-09T05:00:00,2288A,117.7439,30.8792,铜陵市,市第九中学,颗粒物(PM10),61,71,71,25,24,100,4,13,8,56,46,8,7,0.8,0.7
2022-03-09T05:00:00,2289A,117.846,30.9413,铜陵市,车站新区,,49,49,53,19,16,96,2,22,8,52,43,7,12,0.6,0.6
2022-03-09T05:00:00,2290A,117.8483,30.97,铜陵市,市职教基地,颗粒物(PM10),51,52,60,21,26,108,3,7,3,50,39,8,14,0.8,1
2022-03-09T05:00:00,2291A,117.0809,30.5177,安庆市,环科院,颗粒物(PM10),52,54,41,15,12,107,4,5,4,72,47,8,9,0.6,0.5
2022-03-09T05:00:00,2292A,117.0331,30.5119,安庆市,马山宾馆,颗粒物(PM10),54,58,40,12,10,110,3,17,6,65,38,6,8,0.7,0.6
2022-03-09T05:00:00,2294A,116.9896,30.6145,安庆市,安庆大学,颗粒物(PM10),51,52,41,18,15,112,2,8,7,51,28,5,5,0.6,0.5
2022-03-09T05:00:00,2295A,118.2903,29.6963,黄山市,延安路89号,,17,17,35,10,19,111,15,26,17,9,11,8,8,0.2,0.2
2022-03-09T05:00:00,2296A,118.327,29.7178,黄山市,黄山东路89号,,39,36,37,27,21,106,6,27,17,11,14,7,8,0.3,0.3
2022-03-09T05:00:00,2297A,118.1371,30.2756,黄山市,黄山区政府5号楼,,32,32,53,11,20,120,13,24,20,8,9,7,7,0.4,0.3
2022-03-09T05:00:00,2298A,118.3093,32.3153,滁州市,老年大学,颗粒物(PM10),80,109,118,36,31,132,8,11,8,57,43,7,8,0.4,0.4
2022-03-09T05:00:00,2299A,118.3244,32.2786,滁州市,人大宾馆,颗粒物(PM10),74,98,105,31,29,128,20,31,25,59,43,5,7,0.5,0.5
2022-03-09T05:00:00,2301A,115.8277,32.8929,阜阳市,市监测站,颗粒物(PM10),96,141,170,60,52,123,44,54,47,35,28,20,11,0.6,0.6
2022-03-09T05:00:00,2303A,115.8554,32.8605,阜阳市,开发区,颗粒物(PM10),102,154,204,58,50,124,26,35,29,48,36,14,10,0.5,0.5
2022-03-09T05:00:00,2307A,116.5079,31.737,六安市,监测大楼,颗粒物(PM10),55,59,100,21,30,123,54,81,70,25,24,5,6,0.2,0.3
2022-03-09T05:00:00,2308A,116.4738,31.7643,六安市,皖西学院,颗粒物(PM10),54,57,109,18,29,132,62,81,73,20,21,7,7,0.4,0.4
2022-03-09T05:00:00,2309A,116.4996,31.7905,六安市,朝阳厂,颗粒物(PM10),52,54,105,20,28,120,58,78,70,20,22,5,6,0.3,0.3
2022-03-09T05:00:00,2310A,116.5567,31.7886,六安市,开发区,颗粒物(PM10),63,76,120,28,30,134,46,64,57,27,23,5,6,0.4,0.3
2022-03-09T05:00:00,2311A,115.8072,33.8399,亳州市,污水处理厂,颗粒物(PM10),130,210,179,47,37,118,44,80,62,27,18,20,9,0.6,0.4
2022-03-09T05:00:00,2312A,115.7789,33.8518,亳州市,三国揽胜宫,颗粒物(PM10),126,201,166,52,42,119,44,82,64,33,17,16,7,0.6,0.4
2022-03-09T05:00:00,2314A,117.47,30.6618,池州市,池州学院,,40,40,39,16,16,110,11,18,13,44,22,4,5,0.7,0.6
2022-03-09T05:00:00,2316A,118.7581,30.9454,宣城市,鳌峰子站,颗粒物(PM10),68,86,69,34,25,120,25,49,36,60,38,7,8,0.6,0.5
2022-03-09T05:00:00,2317A,118.7385,30.9743,宣城市,敬亭山子站,颗粒物(PM10),63,76,58,30,22,112,58,59,59,22,21,8,9,0.4,0.4
2022-03-09T05:00:00,2318A,118.7173,30.9427,宣城市,开发区子站,颗粒物(PM10),67,84,66,35,25,112,29,25,25,54,38,6,7,0.6,0.6
2022-03-09T05:00:00,2319A,119.0141,25.4325,莆田市,荔城区仓后路,,46,46,30,19,8,96,32,86,56,32,16,9,4,0.4,0.4
2022-03-09T05:00:00,2320A,119.0015,25.4553,莆田市,莆田市监测站,,30,28,21,11,9,100,95,84,84,4,10,4,4,0.3,0.3
2022-03-09T05:00:00,2321A,119.1119,25.4561,莆田市,涵江区六中,,39,39,33,10,10,108,77,82,81,20,19,7,7,0.3,0.3
2022-03-09T05:00:00,2322A,119.1013,25.3215,莆田市,秀屿区政府,,28,28,29,11,12,103,85,81,81,12,19,10,7,0.3,0.4
2022-03-09T05:00:00,2323A,118.981,25.4792,莆田市,东圳水库(对照点),,16,16,13,2,5,102,51,61,53,3,5,3,4,0.1,0.1
2022-03-09T05:00:00,2324A,117.6211,26.2625,三明市,三钢,,36,26,29,25,19,92,14,16,14,29,24,12,8,0.5,0.5
2022-03-09T05:00:00,2325A,117.635,26.2714,三明市,三明二中,,26,12,25,18,16,94,10,16,14,28,21,10,7,0.6,0.6
2022-03-09T05:00:00,2326A,117.6028,26.2378,三明市,三元区政府,,38,32,36,26,21,89,9,10,9,24,26,8,9,1.0,0.9
2022-03-09T05:00:00,2327A,117.7275,26.3108,三明市,洋溪(对照点),,23,23,24,15,14,98,15,32,20,12,12,6,8,0.7,0.7
2022-03-09T05:00:00,2331A,118.0966,26.6761,南平市,茫荡山(对照点),,29,27,21,9,10,102,91,87,87,2,3,5,6,0.2,0.3
2022-03-09T05:00:00,2332A,118.1681,26.6369,南平市,南平市监测站,,36,36,22,11,13,108,28,26,26,16,17,7,8,0.5,0.6
2022-03-09T05:00:00,2333A,118.1825,26.6489,南平市,南平铝业有限公司,,38,38,25,23,14,100,28,23,23,14,17,8,10,0.2,0.3
2022-03-09T05:00:00,2334A,118.1756,26.6272,南平市,南平七中,,36,25,26,25,15,98,37,37,36,15,15,6,8,0.6,0.6
2022-03-09T05:00:00,2335A,117.0189,25.1181,龙岩市,龙岩师专(对照点),,39,29,33,27,20,103,26,31,26,27,25,5,7,0.4,0.4
2022-03-09T05:00:00,2336A,117.0217,25.1033,龙岩市,龙岩市监测站,,38,28,29,26,12,103,26,35,25,31,28,5,8,0.2,0.2
2022-03-09T05:00:00,2337A,117.0258,25.0661,龙岩市,闽西职业技术学院,,48,48,33,16,12,105,13,53,27,54,26,10,10,0.5,0.4
2022-03-09T05:00:00,2338A,117.0196,25.0306,龙岩市,龙岩学院,,18,14,24,12,11,109,48,67,57,15,14,4,4,0.3,0.3
2022-03-09T05:00:00,2339A,119.5001,26.6946,宁德市,金涵水库(对照点),,19,16,29,8,8,108,60,77,72,12,14,6,7,0.6,0.5
2022-03-09T05:00:00,2341A,119.5388,26.6612,宁德市,宁德市监测站,,25,25,31,9,10,91,34,64,48,25,16,7,7,0.6,0.6
2022-03-09T05:00:00,2343A,117.2117,29.2933,景德镇市,老干部活动中心,颗粒物(PM10),63,76,53,27,22,109,24,11,11,21,27,4,5,0.4,0.5
2022-03-09T05:00:00,2344A,117.1894,29.2789,景德镇市,兽医站,,48,48,56,27,25,105,33,16,16,16,30,6,9,0.4,0.4
2022-03-09T05:00:00,2345A,117.1547,29.2617,景德镇市,台达陶瓷,,48,48,65,28,26,109,25,19,19,27,41,4,23,0.3,0.5
2022-03-09T05:00:00,2346A,117.2461,29.2956,景德镇市,陶研所,,43,43,46,18,12,111,8,6,6,24,21,4,5,0.4,0.4
2022-03-09T05:00:00,2347A,114.0997,27.5002,萍乡市,武功山(对照点),,15,5,25,2,8,109,46,53,50,6,9,14,10,0.2,0.3
2022-03-09T05:00:00,2348A,113.8385,27.6434,萍乡市,中医院,颗粒物(PM10),55,60,54,36,26,125,25,20,20,59,35,26,13,1.6,0.9
2022-03-09T05:00:00,2349A,113.8493,27.6253,萍乡市,市政府车库,颗粒物(PM10),61,72,64,27,25,114,14,13,13,40,34,19,11,3.1,2
2022-03-09T05:00:00,2350A,113.8676,27.6435,萍乡市,市环保局,颗粒物(PM10),62,73,52,42,30,128,12,14,11,55,34,33,18,1.1,0.8
2022-03-09T05:00:00,2351A,113.866,27.6198,萍乡市,安源区政府,颗粒物(PM10),51,52,56,25,23,120,27,27,27,33,32,20,19,1.3,1.4
2022-03-09T05:00:00,2352A,115.0861,27.9317,新余市,北岗(对照点),,43,43,31,24,16,108,14,37,22,22,28,27,6,0.3,0.3
2022-03-09T05:00:00,2353A,114.9886,27.8431,新余市,飞宇,颗粒物(PM10),54,57,49,26,20,104,1,34,10,55,31,13,10,0.2,0.2
2022-03-09T05:00:00,2354A,114.9231,27.8246,新余市,第二水厂,颗粒物(PM10),52,53,60,27,27,110,0,37,13,38,28,6,10,0.4,0.6
2022-03-09T05:00:00,2355A,114.9308,27.8036,新余市,市气象局,颗粒物(PM10),65,80,52,41,25,113,3,6,3,43,32,21,10,1.5,0.9
2022-03-09T05:00:00,2357A,116.9822,28.1136,鹰潭市,龙虎山(对照点),,21,21,23,9,9,122,32,56,41,2,4,2,4,0.2,0.1
2022-03-09T05:00:00,2358A,117.0564,28.2642,鹰潭市,新监测站,细颗粒物(PM2.5),62,56,41,44,21,177,18,118,98,43,22,101,29,0.6,0.4
2022-03-09T05:00:00,2359A,117.0311,28.2475,鹰潭市,财苑宾馆,颗粒物(PM10),60,69,39,22,16,116,50,43,43,42,23,37,27,0.7,0.4
2022-03-09T05:00:00,2360A,117.0222,28.2264,鹰潭市,体育馆,臭氧1小时,77,69,35,7,12,181,181,76,76,24,9,26,15,0.4,0.2
2022-03-09T05:00:00,2361A,117.0017,28.2131,鹰潭市,三川水表,,32,32,35,9,12,109,41,40,35,10,13,7,11,0.2,0.3
2022-03-09T05:00:00,2362A,114.9017,25.9149,赣州市,通天岩(对照点),,34,34,35,23,19,144,37,57,48,16,17,5,6,0.7,0.8
2022-03-09T05:00:00,2363A,114.9367,25.8664,赣州市,地委,,45,45,50,19,24,144,20,27,20,25,33,4,7,0.7,0.7
2022-03-09T05:00:00,2364A,114.9461,25.8481,赣州市,气象台,,38,34,40,26,21,160,16,11,11,29,32,6,6,0.6,0.7
2022-03-09T05:00:00,2365A,114.9322,25.8333,赣州市,市图书馆,,38,38,46,19,20,166,9,14,13,42,38,14,14,0.9,1
2022-03-09T05:00:00,2366A,114.8905,25.8471,赣州市,华坚鞋城,颗粒物(PM10),63,76,63,33,25,158,6,26,12,67,52,26,11,1.2,1.1
2022-03-09T05:00:00,2367A,114.9754,27.0803,吉安市,红声器材厂,颗粒物(PM10),51,51,42,20,15,114,16,10,10,28,25,7,5,0.3,0.4
2022-03-09T05:00:00,2368A,114.9658,27.0999,吉安市,市森林工业局,颗粒物(PM10),52,54,50,28,22,103,2,4,3,41,37,4,4,0.3,0.4
2022-03-09T05:00:00,2369A,114.99,27.1312,吉安市,市环境监测站,颗粒物(PM10),57,64,48,30,20,110,9,10,9,36,30,8,9,0.6,0.5
2022-03-09T05:00:00,2370A,115.0093,27.0968,吉安市,青原区法院,,42,42,37,25,19,120,19,16,15,23,21,9,14,0.4,0.4
2022-03-09T05:00:00,2371A,114.3408,27.8064,宜春市,槟榔水业(对照点),颗粒物(PM10),57,63,51,23,19,115,4,50,24,28,21,1,4,0.5,0.4
2022-03-09T05:00:00,2373A,114.3956,27.7844,宜春市,市石油公司,颗粒物(PM10),54,58,53,28,21,108,14,38,22,19,20,3,4,0.6,0.5
2022-03-09T05:00:00,2374A,114.3703,27.7914,宜春市,市气象局,,46,46,49,17,19,114,26,50,34,16,24,5,6,0.6,0.6
2022-03-09T05:00:00,2375A,114.4013,27.8074,宜春市,市广电局,颗粒物(PM10),57,63,53,32,21,111,21,36,31,35,26,12,7,0.9,0.7
2022-03-09T05:00:00,2376A,116.2127,28.0814,抚州市,桐源党溪(对照点),,30,30,34,14,16,105,3,14,7,20,15,1,5,0.6,0.6
2022-03-09T05:00:00,2377A,116.3544,27.9831,抚州市,市站,,39,39,37,20,16,91,28,31,27,28,18,8,8,0.7,0.8
2022-03-09T05:00:00,2378A,116.3565,27.963,抚州市,血防站,颗粒物(PM10),51,52,39,20,14,92,25,27,25,29,20,4,4,0.6,0.6
2022-03-09T05:00:00,2379A,116.3564,28.0007,抚州市,采茶剧团,,42,42,36,16,14,113,34,48,36,28,21,10,8,0.6,0.6
2022-03-09T05:00:00,2380A,116.385,27.9647,抚州市,医学分院,,47,47,41,20,13,121,41,35,35,9,14,9,10,0.7,0.7
2022-03-09T05:00:00,2381A,118.005,28.4572,上饶市,百草园(对照点),颗粒物(PM10),54,58,36,30,15,99,19,22,20,32,22,37,12,0.7,0.5
