timepoint,stationcode,longitude,latitude,area,positionname,primarypollutant,aqi,pm10,pm10_24h,pm2_5,pm2_5_24h,o3,o3_24h,o3_8h,o3_8h_24h,no2,no2_24h,so2,so2_24h,co,co_24h
2025-09-13T0000,2566A,102.1879,31.914,阿坝藏族羌族自治州,州农科所,,20,20,19,3,10,39,,68,50,5,7,3,2,0.1,0.2
2025-09-13T0000,2568A,102.2502,31.8896,阿坝藏族羌族自治州,马师校,,26,26,19,17,16,25,,70,43,8,7,8,8,0.5,0.5
2025-09-13T0000,3994A,102.2165,31.9024,阿坝藏族羌族自治州,马尔康中学西区,,46,46,34,16,14,36,,80,55,5,4,9,9,0.4,0.6
2025-09-13T0000,2695A,80.292,41.1694,阿克苏地区,电视台,颗粒物(PM10),183,316,273,109,75,,,99,,74,20,9,5,2.4,0.9
2025-09-13T0000,2696A,80.2613,41.1551,阿克苏地区,艺术中心,颗粒物(PM10),164,277,239,122,87,5,,100,62,92,26,4,4,1.5,0.6
2025-09-13T0000,2204A,105.6467,38.8363,阿拉善盟,西城区西花园,颗粒物(PM10),63,75,52,35,22,54,,71,62,19,15,10,10,0.8,0.9
2025-09-13T0000,2205A,105.6985,38.8411,阿拉善盟,蒙二幼,颗粒物(PM10),72,94,64,34,24,93,,117,106,13,10,9,9,0.5,0.5
2025-09-13T0000,2206A,105.724,38.8516,阿拉善盟,环保局新楼,颗粒物(PM10),65,79,61,27,23,115,,118,118,7,7,10,9,0.4,0.4
2025-09-13T0000,2708A,88.1264,47.8517,阿勒泰地区,市站,,49,49,16,6,4,22,,69,50,17,12,2,3,0.4,0.3
2025-09-13T0000,2630A,80.1161,32.5,阿里地区,阿里监测站,,20,6,3,3,2,41,,116,95,40,17,5,5,0.4,0.3
2025-09-13T0000,3192A,80.0903,32.5028,阿里地区,阿里藏医院,,27,27,15,3,4,84,,123,114,19,8,7,7,0.3,0.2
2025-09-13T0000,2642A,109.0318,32.6537,安康市,香溪洞,,16,9,5,3,3,51,,56,53,4,6,6,6,0.5,0.6
2025-09-13T0000,2644A,109.0072,32.6975,安康市,汉滨区检察院,,,24,10,,6,10,,55,30,8,10,3,3,0.6,0.6
2025-09-13T0000,4054A,109.0325,32.6913,安康市,市邮政管理局,,20,20,9,3,6,8,,55,28,19,12,7,5,0.8,0.8
2025-09-13T0000,2291A,117.0809,30.5177,安庆市,环科院,,24,24,21,8,10,44,,91,51,6,14,5,6,0.6,0.6
2025-09-13T0000,2292A,117.0331,30.5119,安庆市,马山宾馆,,19,19,18,8,13,39,,75,47,7,16,4,4,0.7,0.8
2025-09-13T0000,2294A,116.9896,30.6145,安庆市,安庆大学,,15,15,25,8,13,45,,100,60,7,17,3,5,0.4,0.5
2025-09-13T0000,3173A,117.0598,30.5351,安庆市,市人大,,20,20,19,8,11,41,,92,59,8,12,5,6,0.5,0.5
2025-09-13T0000,3122A,105.9606,26.2611,安顺市,伍家关,,13,10,12,9,7,40,,52,46,3,3,6,6,0.5,0.5
2025-09-13T0000,3123A,105.9408,26.2431,安顺市,凤凰山,,19,16,13,13,11,39,,51,44,4,5,8,7,0.4,0.4
2025-09-13T0000,3124A,105.9439,26.2564,安顺市,金钟山,,14,14,13,9,9,42,,55,49,4,4,6,7,0.6,0.5
2025-09-13T0000,3125A,105.8983,26.2481,安顺市,娄家坡,,12,8,11,8,9,37,,50,43,2,2,6,5,0.5,0.5
2025-09-13T0000,1818A,114.4839,36.0621,安阳市,棉研所,,,,,,,,,,,,,,,,
2025-09-13T0000,1819A,114.3551,36.1017,安阳市,红庙街,,46,46,34,26,15,35,,122,89,34,18,4,5,0.4,0.4
2025-09-13T0000,1820A,114.361,36.0681,安阳市,银杏小区,,50,50,36,27,17,39,,125,88,38,19,7,7,0.8,0.5
2025-09-13T0000,3141A,114.3922,36.0878,安阳市,信访局,,47,47,29,19,14,61,,132,108,25,13,5,6,0.6,0.5
2025-09-13T0000,3669A,114.4705,36.0637,安阳市,左辅环卫站,颗粒物(PM10),75,99,41,41,19,76,,129,103,20,16,6,6,0.4,0.4
2025-09-13T0000,3703A,114.2917,36.0949,安阳市,安钢职工学校,,48,48,38,25,19,38,,123,91,36,14,5,6,0.5,0.6
2025-09-13T0000,1748A,123.044,41.1196,鞍山市,深沟寺,,38,38,32,23,18,39,,121,73,11,11,6,7,0.8,0.8
2025-09-13T0000,1749A,123.011,41.0931,鞍山市,太阳城,,40,40,33,26,18,61,,124,87,10,12,7,7,0.6,0.7
2025-09-13T0000,1750A,123.0485,41.1442,鞍山市,太平,颗粒物(PM10),51,51,42,26,20,64,,128,79,9,16,7,8,0.7,0.8
2025-09-13T0000,1751A,122.9642,41.0971,鞍山市,铁西三道街,颗粒物(PM10),72,93,52,38,22,13,,131,69,53,29,6,7,1.0,0.9
2025-09-13T0000,1753A,123.022,41.0821,鞍山市,明达新区,,42,42,35,25,16,44,,117,80,14,12,8,8,0.8,0.7
2025-09-13T0000,1754A,123.1289,41.0228,鞍山市,千山,,,,25,,17,,,96,53,,3,,4,,0.4
2025-09-13T0000,4201A,122.9446,41.0826,鞍山市,兴盛南路290号,颗粒物(PM10),75,99,62,30,22,25,,138,70,47,33,8,10,0.8,1
2025-09-13T0000,2195A,107.4212,40.761,巴彦淖尔市,附二中,,40,40,52,14,24,84,,145,119,6,13,8,12,0.5,0.6
2025-09-13T0000,2196A,107.37,40.7372,巴彦淖尔市,市环保大楼,,46,46,52,22,21,84,,141,116,8,11,10,10,0.4,0.6
2025-09-13T0000,1956A,86.1472,41.7538,巴音郭楞蒙古自治州,孔雀公园,颗粒物(PM10),122,194,68,60,24,1,,96,58,77,16,7,6,1.4,0.3
2025-09-13T0000,1957A,86.1972,41.7166,巴音郭楞蒙古自治州,棉纺厂,颗粒物(PM10),197,343,90,77,24,8,,109,70,62,14,8,5,0.6,0.2
2025-09-13T0000,1958A,86.2357,41.7173,巴音郭楞蒙古自治州,经济开发区,颗粒物(PM10),146,242,67,66,17,13,,102,66,41,8,5,5,0.2,0.2
2025-09-13T0000,2914A,106.7677,31.8794,巴中市,苏山坪,,12,10,8,3,4,38,,39,36,4,4,3,3,0.4,0.4
2025-09-13T0000,3181A,106.7768,31.8526,巴中市,市五中,,14,14,14,3,5,15,,42,31,10,7,6,6,0.6,0.6
2025-09-13T0000,3183A,106.7418,31.8654,巴中市,圣泉水务公司,,16,16,9,3,2,2,,46,32,21,6,6,6,0.6,0.6
2025-09-13T0000,3616A,106.7616,31.8344,巴中市,市中心医院,,14,14,15,3,6,7,,40,29,16,9,7,7,0.6,0.5
2025-09-13T0000,2235A,122.7911,45.6077,白城市,洮北区环保局,,32,32,28,21,14,11,,62,43,28,7,2,5,0.5,0.4
2025-09-13T0000,2236A,122.8738,45.5725,白城市,市环保局,,29,29,26,13,14,1,,72,29,26,8,5,4,0.5,0.5
2025-09-13T0000,2231A,126.4219,41.9171,白山市,喜丰,颗粒物(PM10),51,52,48,17,19,22,,94,34,16,18,8,7,0.7,0.7
2025-09-13T0000,2232A,126.4077,41.9419,白山市,环保局,,34,34,38,22,20,33,,100,45,9,13,5,7,0.7,0.7
2025-09-13T0000,2647A,104.1724,36.5446,白银市,第三小学,颗粒物(PM10),60,69,41,23,18,42,,105,66,43,22,8,12,0.4,0.4
2025-09-13T0000,2648A,104.1465,36.5482,白银市,动力公司,颗粒物(PM10),59,68,39,15,14,55,,100,54,20,17,7,11,0.4,0.5
2025-09-13T0000,2512A,106.6103,23.9011,百色市,市监测站,,29,29,27,14,14,32,,60,46,12,12,14,13,0.6,0.6
2025-09-13T0000,2513A,106.6538,23.8859,百色市,市中心血站,,24,24,23,15,12,40,,61,50,13,14,15,10,0.6,0.6
2025-09-13T0000,3406A,106.6085,23.8798,百色市,祈福高中,,29,29,31,15,15,21,,59,42,21,17,12,11,0.7,0.7
2025-09-13T0000,2270A,117.396,32.939,蚌埠市,工人疗养院,,25,25,30,9,10,60,,65,65,8,13,4,5,0.5,0.5
2025-09-13T0000,2271A,117.3605,32.9427,蚌埠市,百货大楼,,20,18,22,12,13,63,,66,66,8,14,6,6,0.6,0.6
2025-09-13T0000,2273A,117.4185,32.8911,蚌埠市,蚌埠学院,,23,,17,11,14,71,,70,70,4,8,6,6,0.5,0.4
2025-09-13T0000,2274A,117.3533,32.9673,蚌埠市,淮上区政府,,22,22,26,14,15,63,,70,70,11,14,6,6,0.6,0.5
2025-09-13T0000,2275A,117.3145,32.8977,蚌埠市,高新区,,21,17,22,8,13,65,,67,67,10,12,5,6,0.6,0.6
2025-09-13T0000,3715A,117.3092,32.9314,蚌埠市,蚌埠田家炳中学,,22,14,20,8,12,68,,71,71,4,10,4,4,0.4,0.4
2025-09-13T0000,1585A,109.8756,40.6532,包头市,市环境监测站,,41,41,32,6,14,102,,118,95,9,24,4,8,0.1,0.5
2025-09-13T0000,1587A,109.9991,40.5842,包头市,包头八中,,43,43,32,9,17,101,,113,103,9,21,5,10,0.5,0.7
2025-09-13T0000,1588A,109.8538,40.6821,包头市,青山宾馆,,31,27,25,3,16,97,,119,93,13,27,3,6,0.4,0.7
2025-09-13T0000,1589A,109.8642,40.6288,包头市,惠龙物流,,33,29,28,13,15,103,,118,103,7,17,3,7,0.3,0.5
2025-09-13T0000,1590A,110.0377,40.5546,包头市,东河鸿龙湾,,39,39,29,18,13,104,,121,103,9,19,8,12,0.5,0.7
2025-09-13T0000,3283A,109.9154,40.5685,包头市,滨河大厦,,35,35,26,6,14,108,,127,108,9,17,4,9,0.3,0.5
2025-09-13T0000,3419A,109.9447,40.6261,包头市,包头市委党校,,41,41,29,8,14,109,,126,107,8,21,5,10,0.4,0.7
2025-09-13T0000,3683A,109.8331,40.6576,包头市,昆区政府,,34,34,30,6,18,105,,124,110,11,19,4,8,0.4,0.7
2025-09-13T0000,1930A,107.185,34.3063,宝鸡市,庙沟村,,18,18,12,7,5,44,,74,56,11,8,4,4,0.5,0.5
2025-09-13T0000,1931A,107.0708,34.3017,宝鸡市,竹园沟,,21,21,15,9,6,17,,75,45,8,8,8,8,0.4,0.4
2025-09-13T0000,1932A,107.1906,34.3672,宝鸡市,三陆医院,,30,30,15,13,7,14,,89,50,31,15,6,6,0.8,0.7
2025-09-13T0000,1933A,107.1431,34.3547,宝鸡市,监测站,,23,23,18,10,7,22,,83,41,17,12,4,4,0.6,0.7
2025-09-13T0000,1934A,107.1186,34.3739,宝鸡市,技工学校,,28,28,17,15,8,18,,63,49,15,12,6,6,0.5,0.6
2025-09-13T0000,1936A,107.2058,34.3497,宝鸡市,文理学院,,30,30,16,10,8,21,,90,52,24,12,7,7,0.6,0.6
2025-09-13T0000,1937A,107.2386,34.3622,宝鸡市,三迪小学,,33,33,18,12,10,24,,90,56,27,15,5,5,0.6,0.6
2025-09-13T0000,4308A,107.3898,34.3601,宝鸡市,陈仓区北开路21号,,19,19,12,6,8,29,,95,68,20,8,6,6,0.5,0.5
2025-09-13T0000,1051A,115.493,38.8632,保定市,游泳馆,,,,51,,29,,,54,,,22,,6,,0.6
2025-09-13T0000,1052A,115.5213,38.8959,保定市,华电二区,颗粒物(PM10),51,52,47,29,26,84,,119,97,19,16,3,3,0.3,0.3
2025-09-13T0000,1053A,115.4713,38.9108,保定市,接待中心,颗粒物(PM10),56,61,52,32,28,52,,109,90,30,14,4,5,0.3,0.4
2025-09-13T0000,1054A,115.4612,38.8416,保定市,地表水厂,颗粒物(PM10),76,101,65,30,22,13,,113,78,73,29,8,8,0.4,0.5
2025-09-13T0000,3581A,115.31981,38.95208,保定市,满城区生态环境分局,颗粒物(PM10),53,56,58,27,29,66,,120,99,25,21,2,2,0.3,0.3
2025-09-13T0000,3582A,115.47694,38.76408,保定市,清苑区第二中学,颗粒物(PM10),62,73,67,32,25,66,,114,83,26,19,4,4,0.4,0.4
2025-09-13T0000,3583A,115.62909,39.02311,保定市,徐水物探局,颗粒物(PM10),62,74,58,40,33,6,,118,83,67,25,6,7,0.5,0.5
2025-09-13T0000,4004A,115.4202,38.8656,保定市,双鹰农机,颗粒物(PM10),61,72,57,29,30,58,,116,88,38,23,5,5,0.3,0.4
2025-09-13T0000,4034A,115.5150,38.8590,保定市,植保所站,颗粒物(PM10),57,63,60,32,27,77,,119,91,29,24,7,7,0.3,0.6
2025-09-13T0000,2594A,99.1678,25.1081,保山市,市环境监测站,,26,,14,18,19,28,,49,38,10,7,7,6,0.4,0.4
2025-09-13T0000,2595A,99.1711,25.1328,保山市,市环保局,,10,10,14,3,9,32,,52,37,6,5,8,7,0.3,0.3
2025-09-13T0000,1866A,109.2262,21.588,北海市,牛尾岭水库,,,,,,,,,,,,,,,,
2025-09-13T0000,1867A,109.1436,21.4086,北海市,海滩公园,,21,21,17,3,4,44,,52,39,4,4,4,4,0.5,0.5
2025-09-13T0000,1868A,109.0981,21.4661,北海市,新市环保局,,18,,11,12,9,40,,45,34,6,6,4,4,0.5,0.5
2025-09-13T0000,1869A,109.1778,21.5233,北海市,北海工业园,,27,27,16,12,8,18,,45,27,15,7,3,4,0.5,0.4
2025-09-13T0000,3400A,109.1911,21.4415,北海市,龙潭自来水厂,,14,12,10,9,5,44,,51,34,4,5,4,4,0.4,0.4
2025-09-13T0000,1001A,116.3621,39.8784,北京市,万寿西宫,颗粒物(PM10),54,57,65,29,38,64,,141,110,41,34,3,3,0.6,0.6
2025-09-13T0000,1002A,116.2202,40.2915,北京市,定陵,细颗粒物(PM2.5),53,49,55,37,38,59,,136,90,2,4,5,4,0.6,0.6
2025-09-13T0000,1003A,116.4174,39.9289,北京市,东四,,50,50,71,24,40,74,,153,123,29,33,4,4,0.6,0.7
2025-09-13T0000,1004A,116.4072,39.8863,北京市,天坛,,35,35,53,21,36,16,,127,70,24,28,3,4,0.7,0.6
2025-09-13T0000,1005A,116.462,39.9365,北京市,农展馆,,43,43,67,23,44,67,,137,110,22,28,3,3,0.7,0.7
2025-09-13T0000,1006A,116.3392,39.9295,北京市,官园,颗粒物(PM10),58,65,71,32,38,65,,150,118,37,28,4,4,0.6,0.6
2025-09-13T0000,1007A,116.2878,39.9611,北京市,海淀万柳,颗粒物(PM10),54,57,69,28,41,26,,130,88,58,40,6,4,1.0,0.7
2025-09-13T0000,1008A,116.6636,40.135,北京市,顺义新城,,,,,,,,,,,,,,,,
2025-09-13T0000,1009A,116.6275,40.3275,北京市,怀柔镇,细颗粒物(PM2.5),60,63,64,43,39,64,,145,108,10,14,1,1,0.9,0.8
2025-09-13T0000,1010A,116.2296,40.217,北京市,昌平镇,细颗粒物(PM2.5),57,60,62,40,40,71,,147,114,11,24,2,3,0.7,0.7
2025-09-13T0000,1011A,116.3966,39.9821,北京市,奥体中心,颗粒物(PM10),53,55,63,30,35,63,,123,102,30,34,4,4,0.7,0.6
2025-09-13T0000,3281A,115.9718,40.4529,北京市,延庆夏都,细颗粒物(PM2.5),63,69,60,45,38,73,,137,123,13,13,3,3,0.7,0.6
2025-09-13T0000,3418A,116.8336,40.4095,北京市,密云新城,细颗粒物(PM2.5),59,65,60,42,40,22,,136,84,6,7,3,3,0.8,0.6
2025-09-13T0000,3671A,116.088,39.9726,北京市,门头沟三家店,颗粒物(PM10),52,54,58,27,35,35,,125,72,24,23,3,3,0.6,0.6
2025-09-13T0000,3672A,116.1541,39.8204,北京市,丰台云岗,颗粒物(PM10),65,79,53,28,34,27,,119,66,49,33,3,2,0.5,0.6
2025-09-13T0000,3673A,116.6804,39.9081,北京市,通州东关,细颗粒物(PM2.5),84,102,95,62,53,46,,132,93,48,30,3,4,0.7,0.8
2025-09-13T0000,3674A,115.9577,39.7603,北京市,房山燕山,,41,41,54,24,32,60,,115,87,9,13,1,2,0.4,0.5
2025-09-13T0000,3675A,116.4672,39.7733,北京市,大兴旧宫,,32,32,52,15,31,18,,117,60,33,19,2,3,0.7,0.6
2025-09-13T0000,3694A,115.986,40.4563,北京市,延庆石河营,细颗粒物(PM2.5),63,67,64,45,37,53,,121,100,7,8,2,2,0.5,0.5
2025-09-13T0000,3695A,116.6151,40.3053,北京市,怀柔新城,细颗粒物(PM2.5),63,62,59,45,40,60,,138,102,6,9,4,4,0.8,0.7
2025-09-13T0000,3696A,116.2545,39.8768,北京市,丰台小屯,,48,48,72,29,40,1,,115,66,63,39,1,2,0.8,0.7
2025-09-13T0000,3697A,116.84,40.3844,北京市,密云镇,细颗粒物(PM2.5),73,82,65,53,42,45,,140,113,27,19,4,4,0.9,0.7
2025-09-13T0000,4182A,116.1942,39.9158,北京市,八角北路9号,颗粒物(PM10),58,66,72,29,37,34,,138,86,21,29,2,2,0.6,0.5
2025-09-13T0000,4194A,117.0790,40.1518,北京市,洳河巡河路,细颗粒物(PM2.5),85,89,82,63,52,72,,142,121,12,12,2,2,1.0,1
2025-09-13T0000,1761A,123.8275,41.3064,本溪市,大峪,颗粒物(PM10),52,54,46,16,19,3,,115,42,49,19,6,6,0.6,0.6
2025-09-13T0000,1762A,123.7567,41.3325,本溪市,溪湖,颗粒物(PM10),57,64,49,22,21,23,,108,46,25,20,4,9,0.9,1.4
2025-09-13T0000,1763A,123.7169,41.3094,本溪市,彩屯,"颗粒物(PM10),细颗粒物(PM2.5)",52,54,47,36,28,6,,96,27,30,26,6,9,1.2,1.3
2025-09-13T0000,1764A,123.7669,41.2864,本溪市,东明,颗粒物(PM10),53,55,52,22,20,16,,123,50,43,18,7,8,0.8,0.7
2025-09-13T0000,1765A,123.7992,41.2664,本溪市,新立屯,,29,29,42,13,18,34,,121,38,27,16,5,6,0.5,0.5
2025-09-13T0000,1766A,123.8142,41.3472,本溪市,威宁,颗粒物(PM10),62,73,59,27,23,14,,109,33,26,19,5,5,0.7,0.5
2025-09-13T0000,2587A,105.2864,27.3125,毕节市,八中,,18,,13,12,18,15,,43,24,10,12,5,6,0.6,0.6
2025-09-13T0000,2588A,105.31,27.2944,毕节市,师专,,16,16,15,8,13,16,,41,22,12,14,6,7,0.6,0.6
2025-09-13T0000,4263A,105.3688,27.3598,毕节市,工业大道,,13,13,18,6,11,24,,46,26,7,10,6,6,0.7,0.7
2025-09-13T0000,1629A,118.0018,37.3617,滨州市,第二水厂,,,44,55,,41,57,,112,73,20,29,5,7,0.6,0.7
2025-09-13T0000,1630A,117.9776,37.393,滨州市,北中新校,,,31,46,,28,58,,115,76,18,26,5,8,0.4,0.5
2025-09-13T0000,3514A,117.9378,37.3956,滨州市,中海酒店,,36,36,49,22,28,7,,109,55,48,27,2,6,0.5,0.6
2025-09-13T0000,3515A,117.9378,37.3553,滨州市,开发区一中,,41,41,60,24,33,56,,123,76,26,27,6,10,0.6,0.7
2025-09-13T0000,3516A,118.0917,37.694,滨州市,金海六路,细颗粒物(PM2.5),64,51,49,46,31,38,,124,89,49,29,8,6,0.2,0.3
2025-09-13T0000,4028A,117.9956,37.3753,滨州市,滨州市西街道办事处,,39,27,47,27,30,62,,115,76,17,24,4,7,0.4,0.5
2025-09-13T0000,2311A,115.8072,33.8399,亳州市,污水处理厂,,35,,7,24,9,37,,85,50,16,10,3,3,0.4,0.3
2025-09-13T0000,2312A,115.7789,33.8518,亳州市,三国揽胜宫,,35,25,10,24,10,39,,88,46,11,8,4,4,0.5,0.4
2025-09-13T0000,3332A,115.7633,33.8034,亳州市,亳州学院,,15,14,8,7,10,45,,94,58,8,5,5,5,0.4,0.3
2025-09-13T0000,2693A,82.0485,44.8556,博尔塔拉蒙古自治州,市党校,,36,36,33,22,19,48,,81,70,23,10,4,4,0.1,0.1
2025-09-13T0000,2694A,82.0806,44.8969,博尔塔拉蒙古自治州,市环保局,颗粒物(PM10),60,70,43,27,17,28,,85,63,39,15,6,5,0.4,0.2
2025-09-13T0000,1071A,116.8842,38.2991,沧州市,沧县城建局,颗粒物(PM10),61,71,50,37,27,89,,156,127,24,17,10,5,0.8,0.6
2025-09-13T0000,1072A,116.8584,38.3254,沧州市,电视转播站,细颗粒物(PM2.5),64,69,52,46,32,76,,134,121,25,15,8,5,1.0,0.5
2025-09-13T0000,1073A,116.8709,38.3228,沧州市,市环保局,颗粒物(PM10),73,96,62,44,29,79,,145,118,21,15,18,8,0.9,0.5
2025-09-13T0000,3324A,116.8136,38.3004,沧州市,河北水利电力学院,颗粒物(PM10),70,90,55,49,31,70,,148,115,32,20,16,10,0.8,0.5
2025-09-13T0000,2622A,97.1806,31.1273,昌都市,昌都监测站,,13,11,13,8,6,41,,86,61,9,7,4,4,0.3,0.2
2025-09-13T0000,3719A,97.1714,31.1406,昌都市,昌都会议中心,,17,17,9,8,5,48,,98,75,10,5,4,4,0.1,0.1
2025-09-13T0000,2690A,88.1236,43.8886,昌吉回族自治州,天山天池,,16,13,15,3,4,49,,63,59,7,9,6,6,0.4,0.4
2025-09-13T0000,2692A,87.2717,44.0297,昌吉回族自治州,新区政务中心,,21,18,25,8,10,65,,100,90,13,13,7,8,0.3,0.3
2025-09-13T0000,3613A,87.3095,44.0142,昌吉回族自治州,亚心广场,,29,29,31,3,7,66,,106,95,16,13,8,8,0.4,0.4
2025-09-13T0000,1120A,125.2863,43.9027,长春市,客车厂,颗粒物(PM10),55,60,42,26,22,3,,120,28,58,28,5,5,0.7,0.5
2025-09-13T0000,1121A,125.2841,43.8463,长春市,邮电学院,,37,37,40,25,23,4,,124,37,26,15,4,5,0.6,0.6
2025-09-13T0000,1122A,125.3716,43.8772,长春市,劳动公园,,37,37,49,25,21,19,,125,49,27,17,8,8,0.6,0.4
2025-09-13T0000,1123A,125.3297,43.8805,长春市,园林处,,45,45,38,31,23,29,,123,56,37,21,4,5,0.8,0.7
2025-09-13T0000,1124A,125.4605,43.79,长春市,净月潭,,15,15,34,10,20,39,,121,54,4,7,4,4,0.3,0.4
2025-09-13T0000,1125A,125.7194,43.515,长春市,甩湾子,,26,26,30,18,17,39,,114,83,12,11,3,3,0.3,0.4
2025-09-13T0000,1126A,125.3863,43.8447,长春市,经开区环卫处,,32,32,38,19,18,0,,123,50,53,19,4,5,0.7,0.6
2025-09-13T0000,1127A,125.245,43.7783,长春市,高新区管委会,,25,25,34,16,21,34,,126,54,19,12,4,6,0.5,0.5
2025-09-13T0000,1128A,125.1761,43.8325,长春市,岱山公园,,40,40,39,26,25,18,,119,36,67,29,3,4,0.4,0.5
2025-09-13T0000,4281A,125.3346,43.9164,长春市,北亚泰大街1068号,,49,48,44,34,25,1,,118,35,62,25,8,8,0.8,0.6
2025-09-13T0000,1335A,113.0833,28.2325,长沙市,经开区环保局,,32,32,29,14,15,46,,85,54,14,14,4,6,0.4,0.4
2025-09-13T0000,1336A,112.8872,28.2189,长沙市,高开区环保局,,23,23,29,10,11,49,,72,58,7,10,4,6,0.2,0.3
2025-09-13T0000,1337A,113.0792,28.2053,长沙市,马坡岭,,33,33,31,12,13,54,,95,63,13,13,5,6,0.5,0.5
2025-09-13T0000,1338A,112.9394,28.19,长沙市,湖南师范大学,,20,20,27,11,13,53,,76,59,10,13,4,6,0.5,0.5
2025-09-13T0000,1339A,113.0178,28.1322,长沙市,雨花区环保局,,37,37,31,13,12,46,,80,61,11,9,6,8,0.5,0.5
2025-09-13T0000,1340A,112.9792,28.2597,长沙市,伍家岭,,32,25,27,22,13,50,,76,50,8,12,2,4,0.3,0.4
2025-09-13T0000,1341A,113.0014,28.1944,长沙市,火车新站,,32,32,28,3,13,51,,79,64,11,9,6,7,0.5,0.5
2025-09-13T0000,1342A,112.9844,28.1178,长沙市,天心区环保局,,34,34,25,13,13,47,,79,57,15,12,4,6,0.2,0.2
2025-09-13T0000,1343A,112.8908,28.1308,长沙市,湖南中医药大学,,24,24,30,16,17,49,,73,52,4,12,3,6,0.1,0.2
2025-09-13T0000,1344A,112.9581,28.3611,长沙市,沙坪,,37,37,24,13,13,44,,88,61,9,14,3,4,0.5,0.4
2025-09-13T0000,1727A,113.1147,36.1547,长治市,清华站,,36,36,23,22,12,49,,107,88,17,12,9,10,1.4,0.8
2025-09-13T0000,1730A,113.0886,36.2125,长治市,审计局,,39,36,21,27,14,63,,112,93,20,13,8,8,1.7,0.9
2025-09-13T0000,1731A,113.0844,36.1856,长治市,长治八中,,49,44,24,34,17,47,,109,86,19,8,10,10,1.5,0.9
2025-09-13T0000,2845A,113.1569,36.1911,长治市,德盛苑,,35,35,22,22,10,61,,108,92,12,6,9,9,1.5,0.8
2025-09-13T0000,3568A,113.06,36.0464,长治市,向阳小学,颗粒物(PM10),78,106,54,55,24,36,,114,84,26,13,5,6,1.3,1
2025-09-13T0000,3569A,112.8792,36.3144,长治市,屯留一中,细颗粒物(PM2.5),54,47,33,38,26,62,,116,89,17,16,11,13,1.3,0.9
2025-09-13T0000,4189A,113.1131,36.19948,长治市,英华南巷50号,,49,46,26,34,17,59,,103,80,17,13,9,10,1.7,1
2025-09-13T0000,4190A,113.2367,36.3344,长治市,学府街1号,,46,42,25,32,17,65,,104,82,20,11,2,4,1.1,0.8
2025-09-13T0000,1854A,111.6975,28.9703,常德市,市二中,,22,21,25,11,15,69,,87,75,6,7,4,4,0.4,0.4
2025-09-13T0000,1857A,111.7158,29.1456,常德市,白鹤山,,,,,,,,,,,,,,,,
2025-09-13T0000,3138A,111.7153,29.0289,常德市,武陵区永安,,23,23,26,9,12,66,,82,72,5,6,4,4,0.7,0.7
2025-09-13T0000,3139A,111.6892,28.9881,常德市,鼎城区玉霞,,22,21,25,10,14,69,,85,75,4,5,2,4,0.4,0.5
2025-09-13T0000,3140A,111.6625,29.0531,常德市,武陵区长庚,,23,15,22,8,15,72,,85,75,5,8,5,6,0.6,0.7
2025-09-13T0000,1196A,119.9633,31.762,常州市,市监测站,,30,30,41,17,19,53,,131,71,17,17,14,15,0.6,0.6
2025-09-13T0000,1200A,119.9468,31.7069,常州市,武进监测站,,,38,34,30,18,,,132,,14,18,,8,0.6,0.6
2025-09-13T0000,1201A,119.9255,31.9087,常州市,安家,,46,46,37,21,18,27,,128,48,31,24,10,11,0.6,0.7
2025-09-13T0000,3002A,119.9805,31.8174,常州市,行政中心,,36,30,32,25,19,45,,122,68,22,19,3,3,0.6,0.6
2025-09-13T0000,3003A,120.0522,31.7748,常州市,经开区,,42,42,45,18,18,51,,134,71,29,22,6,6,0.9,0.9
2025-09-13T0000,3010A,119.9025,31.7964,常州市,钟楼,,41,41,44,12,16,47,,122,68,22,20,7,8,0.6,0.7
2025-09-13T0000,3429A,119.8598,31.7066,常州市,武进经发区,,33,33,42,21,23,56,,132,64,9,17,9,9,0.7,0.8
2025-09-13T0000,3430A,119.5826,31.7245,常州市,金坛城区,,29,26,31,20,18,46,,126,80,13,16,8,9,0.7,0.6
2025-09-13T0000,2220A,120.4318,41.5881,朝阳市,西梁,,42,32,38,29,26,68,,115,98,20,12,6,6,0.6,0.8
2025-09-13T0000,2221A,120.4521,41.5646,朝阳市,河畔小区,,33,22,34,18,20,105,,126,115,7,7,10,7,0.6,0.6
2025-09-13T0000,2222A,120.4176,41.5648,朝阳市,八里堡,,38,30,41,26,27,65,,120,94,20,14,7,8,0.6,0.7
2025-09-13T0000,2223A,120.3806,41.5969,朝阳市,农业园区,,36,25,38,25,28,16,,124,60,20,14,4,5,0.4,0.7
2025-09-13T0000,1705A,116.6367,23.6719,潮州市,西园路,,37,37,27,13,16,17,,99,50,19,13,5,6,0.6,0.5
2025-09-13T0000,3026A,116.6183,23.6608,潮州市,市政府,,33,33,33,16,14,15,,93,50,19,14,10,13,0.9,0.6
2025-09-13T0000,4036A,116.6461,23.6761,潮州市,金山,,28,28,30,11,11,10,,104,46,16,12,7,7,0.8,0.7
2025-09-13T0000,2472A,113.0073,25.9061,郴州市,马头岭,,28,28,23,3,8,3,,76,16,18,11,4,5,0.2,0.2
2025-09-13T0000,2473A,113.0116,25.8226,郴州市,市职中,颗粒物(PM10),61,72,23,11,11,0,,75,9,16,9,3,4,0.3,0.4
2025-09-13T0000,2475A,113.0383,25.8071,郴州市,市审计局,,23,23,15,14,10,6,,77,14,15,9,5,6,0.6,0.5
2025-09-13T0000,2476A,113.0348,25.7759,郴州市,市环保局,,28,24,18,19,12,16,,83,20,16,8,4,4,0.3,0.3
2025-09-13T0000,4252A,113.0138,25.8011,郴州市,好美居路49号,,29,29,18,17,10,3,,80,15,20,10,6,5,0.5,0.4
2025-09-13T0000,1431A,103.9728,30.7236,成都市,金泉两河,,24,24,17,3,4,11,,71,40,34,15,2,3,0.7,0.6
2025-09-13T0000,1432A,104.176,30.6872,成都市,十里店,,37,37,20,12,7,12,,86,63,52,18,3,3,0.7,0.5
2025-09-13T0000,1433A,104.079,30.5706,成都市,三瓦窑,,36,36,19,22,9,2,,90,50,60,24,3,3,1.0,0.6
2025-09-13T0000,1434A,104.1114,30.63,成都市,沙河铺,,38,38,23,22,7,11,,71,48,36,12,1,1,1.1,0.8
2025-09-13T0000,1437A,104.0786,30.6531,成都市,君平街,,37,37,25,17,10,30,,90,66,40,16,1,2,0.9,0.7
2025-09-13T0000,1438A,103.613,31.0283,成都市,灵岩寺,,,,,,,,,,,,,,,,
2025-09-13T0000,2880A,104.0239,30.65639,成都市,大石西路,,35,35,24,18,12,7,,74,48,50,19,3,2,1.0,0.7
2025-09-13T0000,3136A,104.2725,30.5589,成都市,龙泉驿区区政府,,13,9,9,3,1,41,,71,54,14,16,5,5,0.4,0.3
2025-09-13T0000,3357A,104.0106,30.6931,成都市,金博路,,36,36,13,13,7,1,,76,44,54,18,6,6,0.9,0.5
2025-09-13T0000,3359A,104.0578,30.5225,成都市,华阳,,42,,16,29,12,7,,82,58,48,19,1,2,1.0,0.7
2025-09-13T0000,3488A,104.3853,30.7453,成都市,青白江技师分院,,22,22,16,10,7,8,,58,24,32,19,1,1,0.6,0.6
2025-09-13T0000,3489A,104.0789,30.4072,成都市,科学城,,32,32,18,19,10,27,,91,64,23,14,4,4,0.8,0.7
2025-09-13T0000,4011A,103.8506,30.6947,成都市,光华大道三段,,33,33,20,7,8,21,,71,41,29,18,1,2,0.8,0.7
2025-09-13T0000,4224A,104.2433,30.5353,成都市,鲸龙路1057号,,14,13,15,6,10,33,,72,45,27,20,4,4,0.5,0.5
2025-09-13T0000,1062A,117.9531,40.9081,承德市,铁路,细颗粒物(PM2.5),79,87,75,58,45,46,,128,96,16,21,1,2,1.0,0.7
2025-09-13T0000,1063A,117.9392,40.9763,承德市,中国银行,细颗粒物(PM2.5),75,81,70,55,40,22,,137,92,17,15,1,2,0.8,0.6
2025-09-13T0000,1064A,117.9503,40.928,承德市,开发区,细颗粒物(PM2.5),74,82,70,54,41,68,,138,103,13,18,4,4,1.2,0.8
2025-09-13T0000,1066A,117.9268,41.0026,承德市,离宫,颗粒物(PM10),58,66,62,34,23,16,,106,41,14,10,4,5,0.5,0.5
2025-09-13T0000,4274A,117.7994,40.9605,承德市,滨河大街98号,细颗粒物(PM2.5),53,54,58,37,38,16,,107,32,10,12,3,5,0.6,0.8
2025-09-13T0000,2314A,117.47,30.6618,池州市,池州学院,,23,23,23,13,10,34,,80,53,11,8,6,6,0.5,0.5
2025-09-13T0000,3237A,117.4918,30.6617,池州市,展览馆,,17,17,22,9,8,40,,80,54,9,10,4,5,0.5,0.6
2025-09-13T0000,3333A,117.5627,30.695,池州市,第八中学,,15,15,18,6,8,44,,79,53,6,8,6,6,0.6,0.6
2025-09-13T0000,3334A,117.5038,30.6243,池州市,第十二中学,,15,15,23,8,10,40,,76,45,13,14,4,4,0.7,0.8
2025-09-13T0000,1744A,118.9233,42.2816,赤峰市,松山一中,,50,50,32,26,13,65,,96,86,25,22,9,7,0.7,0.6
2025-09-13T0000,1745A,118.9576,42.2728,赤峰市,哈达街,颗粒物(PM10),52,53,31,23,15,55,,96,87,27,21,14,12,0.6,0.5
2025-09-13T0000,1746A,118.8788,42.2554,赤峰市,天义路,,46,,17,32,19,81,,98,87,18,16,16,8,0.6,0.4
2025-09-13T0000,3058A,119.2658,42.0353,赤峰市,银河街,"颗粒物(PM10),细颗粒物(PM2.5)",60,70,62,43,40,60,,108,81,13,12,11,15,1.0,0.9
2025-09-13T0000,3286A,118.9359,42.3147,赤峰市,桥北物流园区,颗粒物(PM10),53,55,38,31,22,16,,89,45,33,26,8,13,0.8,0.7
2025-09-13T0000,2521A,107.3476,22.4136,崇左市,市环保局江州分局,,21,21,25,7,10,17,,76,39,9,11,3,2,0.7,0.9
2025-09-13T0000,4256A,107.3750,22.3736,崇左市,石景林东路7号,,14,14,19,3,7,10,,77,38,16,12,4,4,0.4,0.6
2025-09-13T0000,2298A,118.3093,32.3153,滁州市,老年大学,,20,14,31,12,22,63,,94,55,2,9,5,6,0.3,0.4
2025-09-13T0000,2299A,118.3244,32.2786,滁州市,人大宾馆,,21,,19,13,23,67,,97,62,2,10,4,5,0.4,0.5
2025-09-13T0000,3207A,118.3118,32.3038,滁州市,市政府原办公楼,,33,,28,23,34,64,,94,58,2,12,5,7,0.5,0.6
2025-09-13T0000,3331A,118.3267,32.2634,滁州市,图书馆,,20,,25,14,22,64,,97,61,1,8,10,11,0.4,0.5
2025-09-13T0000,2605A,101.5482,25.0441,楚雄彝族自治州,州环境监测站,,,,7,8,5,21,,30,25,4,2,7,7,,0.6
2025-09-13T0000,2606A,101.538,25.0492,楚雄彝族自治州,市经济开发区,,22,22,11,13,6,22,,31,25,6,5,7,7,0.8,0.7
2025-09-13T0000,2548A,107.5277,31.2827,达州市,达州职业技术学院,,34,34,23,3,8,3,,13,7,10,10,7,7,0.4,0.4
2025-09-13T0000,2549A,107.5086,31.2186,达州市,市环境监测站,,26,26,20,3,1,4,,30,21,25,19,6,8,0.5,0.5
2025-09-13T0000,2550A,107.4988,31.2132,达州市,凤凰小区,,22,22,15,7,2,9,,32,25,25,16,6,7,0.7,0.5
2025-09-13T0000,2551A,107.5082,31.1986,达州市,达县机关宾馆,,29,29,13,6,4,4,,32,24,31,20,5,7,0.6,0.5
2025-09-13T0000,2552A,107.4644,31.2124,达州市,市政中心,,30,30,23,3,0,18,,27,21,14,14,4,5,0.4,0.3
2025-09-13T0000,2614A,100.1542,25.7054,大理白族自治州,大理市环境监测站,,29,,11,20,14,43,,48,47,8,7,4,4,0.6,0.6
2025-09-13T0000,2615A,100.2171,25.5811,大理白族自治州,大理古城,,18,,14,12,10,46,,60,42,4,7,6,6,0.7,0.8
2025-09-13T0000,1109A,121.612,38.9741,大连市,甘井子,,28,28,32,13,17,55,,120,83,33,19,8,8,0.2,0.4
2025-09-13T0000,1110A,121.565,38.9511,大连市,周水子,,26,26,38,12,19,39,,103,76,36,19,5,7,0.3,0.3
2025-09-13T0000,1111A,121.5637,38.8845,大连市,星海三站,,25,23,27,9,14,79,,122,94,13,12,5,5,0.2,0.3
2025-09-13T0000,1112A,121.6302,38.9117,大连市,青泥洼桥,,20,20,27,8,17,55,,117,78,14,13,8,8,0.4,0.5
2025-09-13T0000,1113A,121.6251,38.8638,大连市,傅家庄,,23,19,26,10,14,72,,123,90,11,9,8,9,0.5,0.5
2025-09-13T0000,1114A,121.5213,38.8661,大连市,七贤岭,,21,21,28,9,14,51,,131,88,11,10,4,5,0.4,0.4
2025-09-13T0000,1115A,121.2529,38.8061,大连市,旅顺,,29,12,28,3,12,90,,132,98,8,8,7,7,0.2,0.3
2025-09-13T0000,1116A,121.7485,39.1311,大连市,金州,,23,17,26,8,11,72,,125,88,10,10,9,9,0.2,0.3
2025-09-13T0000,1117A,121.7811,39.0496,大连市,开发区,,30,30,37,15,20,66,,116,82,15,15,6,6,0.4,0.4
2025-09-13T0000,1118A,121.9762,39.0631,大连市,双D港,,27,21,29,10,18,84,,120,92,4,6,6,6,0.4,0.4
2025-09-13T0000,1789A,124.81117,46.03138,大庆市,大同区,,19,,36,13,17,36,,104,43,10,10,8,9,0.7,0.8
2025-09-13T0000,1790A,125.129,46.533,大庆市,龙凤区,,27,27,37,11,17,32,,95,38,20,14,6,6,0.7,0.9
2025-09-13T0000,1791A,124.902,46.408,大庆市,红岗区,,30,30,35,10,18,45,,102,48,16,10,6,6,0.5,0.6
2025-09-13T0000,1792A,125.153,46.586,大庆市,萨尔图区,,,32,43,12,19,,,90,,21,13,9,9,0.8,0.7
2025-09-13T0000,1793A,124.9042,46.6215,大庆市,让胡路区,,34,34,34,18,16,20,,101,32,33,14,6,6,0.3,0.4
2025-09-13T0000,3481A,125.141,46.634,大庆市,萨区政府监测点,,26,26,38,3,12,54,,106,52,12,10,8,8,0.4,0.5
2025-09-13T0000,1721A,113.3819,40.1097,大同市,果树场,,31,31,28,19,15,29,,91,58,16,20,4,5,0.4,0.5
2025-09-13T0000,1723A,113.2994,40.0758,大同市,云冈宾馆,,47,47,33,26,15,65,,105,81,28,18,5,6,0.8,0.9
2025-09-13T0000,1724A,113.3444,40.0917,大同市,大同大学,,34,34,28,14,17,71,,109,85,19,20,7,7,0.6,0.7
2025-09-13T0000,1725A,113.2661,40.1269,大同市,安家小村,,37,37,31,23,14,73,,112,86,15,18,3,5,0.6,0.8
2025-09-13T0000,1726A,113.2711,40.0844,大同市,教育学院,颗粒物(PM10),51,51,34,27,18,56,,108,82,33,21,6,7,0.8,0.9
2025-09-13T0000,3282A,113.3397,40.0597,大同市,大同市卫生学校,颗粒物(PM10),52,53,33,20,15,52,,103,74,33,19,8,8,0.7,0.8
2025-09-13T0000,3565A,113.1367,40.1122,大同市,云冈站,颗粒物(PM10),51,51,31,32,20,13,,108,69,34,14,5,5,0.6,0.6
2025-09-13T0000,3566A,113.1186,40.2556,大同市,图书馆,,42,42,29,22,17,26,,110,65,11,11,3,5,0.6,0.5
2025-09-13T0000,3567A,113.5931,40.0461,大同市,区一中,,25,23,29,17,17,71,,109,98,6,13,4,5,0.6,0.6
2025-09-13T0000,4199A,113.2798,40.0997,大同市,魏都大道141号,,37,37,29,24,18,62,,108,85,27,19,2,4,0.6,0.8
2025-09-13T0000,2269A,124.1069,50.4097,大兴安岭地区,科技局,,18,18,21,12,10,4,,42,20,4,4,5,5,0.2,0.3
2025-09-13T0000,3663A,124.1164,50.4278,大兴安岭地区,红旗社区,,14,14,8,7,5,0,,46,21,6,5,4,4,0.3,0.2
2025-09-13T0000,1600A,124.3303,40.0625,丹东市,江湾东路,颗粒物(PM10),69,87,54,34,27,28,,92,51,16,16,10,8,1.3,0.9
2025-09-13T0000,1601A,124.4256,40.1503,丹东市,临江后街,颗粒物(PM10),63,75,64,23,24,38,,90,50,16,17,7,7,0.8,0.9
2025-09-13T0000,1602A,124.3933,40.1461,丹东市,元宝山,,48,48,48,19,22,43,,83,54,11,14,6,7,0.8,0.8
2025-09-13T0000,1603A,124.3633,40.1092,丹东市,民主桥,颗粒物(PM10),55,59,50,20,21,29,,90,43,25,24,8,8,0.8,0.8
2025-09-13T0000,3541A,109.5726,19.5167,儋州市,第一中学子站,,16,16,14,3,6,26,,37,35,3,3,6,7,0.3,0.4
2025-09-13T0000,3542A,109.5567,19.5187,儋州市,东坡学校子站,,10,10,11,7,6,27,,40,37,4,4,2,6,0.3,0.4
2025-09-13T0000,2616A,98.5842,24.428,德宏傣族景颇族自治州,德宏州监测站,,25,25,21,9,13,7,,46,24,9,10,6,9,0.7,0.6
2025-09-13T0000,3677A,98.5881,24.4368,德宏傣族景颇族自治州,芒市人民政府综合楼,,31,31,26,8,10,9,,41,20,7,8,5,10,0.6,0.6
2025-09-13T0000,1901A,104.4239,31.1208,德阳市,东山公园,,11,10,8,6,6,34,,68,55,9,8,4,4,0.7,0.6
2025-09-13T0000,1902A,104.3826,31.1317,德阳市,西小区,,23,23,13,12,7,6,,70,43,36,16,1,2,0.8,0.6
2025-09-13T0000,1904A,104.3553,31.1091,德阳市,耐火材料厂,,48,48,19,20,7,0,,69,42,50,17,7,5,1.0,0.7
2025-09-13T0000,3639A,104.4019,31.1244,德阳市,市教育局,,17,15,14,7,6,1,,68,33,33,14,3,3,0.8,0.7
2025-09-13T0000,1622A,116.3032,37.4674,德州市,儿童乐园,颗粒物(PM10),62,73,46,36,24,60,,130,98,38,19,9,11,0.6,0.6
2025-09-13T0000,1624A,116.2991,37.4451,德州市,监理站,颗粒物(PM10),56,61,40,27,18,107,,136,121,23,18,14,15,0.4,0.4
2025-09-13T0000,3066A,116.2721,37.4379,德州市,九衢泉纯净水厂,颗粒物(PM10),64,78,46,39,23,10,,126,81,86,32,11,9,0.6,0.5
2025-09-13T0000,3371A,116.3728,37.4403,德州市,开发区人民医院,颗粒物(PM10),52,53,43,19,20,84,,126,101,19,13,9,10,0.9,0.9
2025-09-13T0000,3511A,116.5652,37.3319,德州市,陵城艺术中心,颗粒物(PM10),63,75,55,34,24,97,,144,114,34,25,15,12,0.9,0.6
2025-09-13T0000,4292A,116.3525,37.4209,德州市,新河东路,颗粒物(PM10),53,56,45,29,22,80,,131,97,26,21,10,10,0.9,0.8
2025-09-13T0000,2621A,99.7056,27.8317,迪庆藏族自治州,迪庆州站,,24,24,17,15,12,57,,55,52,6,7,7,7,0.5,0.5
2025-09-13T0000,3180A,99.7136,27.8094,迪庆藏族自治州,质量技术监督局,,19,10,14,7,7,60,,58,53,6,8,7,7,0.4,0.4
2025-09-13T0000,4257A,104.6092,35.5962,定西市,将台街,,43,43,30,30,17,86,,133,101,18,15,9,8,0.2,0.3
2025-09-13T0000,4309A,104.6159,35.5701,定西市,正龙路62号,,49,47,37,34,21,78,,118,96,12,9,6,6,0.4,0.4
2025-09-13T0000,1389A,113.7547,23.0494,东莞市,莞城梨川,,18,6,11,3,7,9,,149,66,35,23,6,5,0.4,0.4
2025-09-13T0000,1390A,113.7944,23.0128,东莞市,东城石井,,19,19,23,9,11,3,,140,55,32,23,5,5,0.5,0.5
2025-09-13T0000,1391A,113.7383,22.9658,东莞市,南城西平,,20,20,18,3,10,13,,132,49,38,28,4,4,0.3,0.4
2025-09-13T0000,3319A,113.7338,23.0381,东莞市,万江金泰,,17,16,16,8,10,10,,144,68,33,22,6,6,0.5,0.6
2025-09-13T0000,3626A,113.7533,23.0202,东莞市,南城元岭,,19,9,18,6,11,8,,145,62,38,25,6,5,0.3,0.4
2025-09-13T0000,3627A,113.7875,23.0457,东莞市,东城主山,,22,16,21,8,10,7,,146,66,43,30,7,7,0.4,0.4
2025-09-13T0000,1666A,118.6614,37.4309,东营市,市环保局,,22,22,28,9,12,56,,133,94,22,20,8,11,0.3,0.4
2025-09-13T0000,3036A,118.6904,37.4338,东营市,开发区管委会,,41,41,41,19,17,57,,142,108,24,20,6,12,0.6,0.5
2025-09-13T0000,3365A,118.5719,37.565,东营市,垦利区民丰路,,36,36,37,17,15,49,,119,90,21,22,4,4,0.7,0.7
2025-09-13T0000,3498A,118.5055,37.8612,东营市,河口城区,,31,31,33,17,12,67,,139,119,17,17,6,6,0.7,0.7
2025-09-13T0000,3646A,118.4978,37.4623,东营市,胜利站,,32,31,39,22,17,62,,129,101,24,26,9,7,0.6,0.5
2025-09-13T0000,3734A,118.35,37.26,东营市,理想之城,,32,29,32,22,17,64,,128,94,22,32,7,6,0.4,0.5
2025-09-13T0000,1591A,110.0023,39.8129,鄂尔多斯市,综合楼,,37,17,32,3,13,118,,113,102,5,15,4,5,0.3,0.5
2025-09-13T0000,1592A,109.9486,39.8261,鄂尔多斯市,巴音孟克林场办事处,,39,24,33,9,14,124,,118,112,6,13,5,6,0.2,0.3
2025-09-13T0000,1593A,109.7736,39.5986,鄂尔多斯市,康泽苑,,35,17,37,3,14,110,,107,96,4,13,7,7,0.2,0.4
2025-09-13T0000,1594A,109.8119,39.5989,鄂尔多斯市,华泰汽车城,,36,22,32,7,18,114,,108,98,5,12,5,5,0.4,0.5
2025-09-13T0000,1595A,109.9734,39.7884,鄂尔多斯市,奥林花园,,36,22,34,7,14,115,,107,95,6,14,6,6,0.4,0.6
2025-09-13T0000,2436A,114.8938,30.3994,鄂州市,市政府,,11,11,27,3,5,35,,63,51,9,17,6,7,0.4,0.6
2025-09-13T0000,2437A,114.8989,30.3714,鄂州市,赵家坝,,22,22,33,3,6,48,,82,62,6,14,6,8,0.6,0.8
2025-09-13T0000,3654A,114.8094,30.4089,鄂州市,精准医疗中心,,16,11,26,3,7,50,,71,60,8,20,5,8,0.5,0.8
2025-09-13T0000,2454A,109.4978,30.2981,恩施土家族苗族自治州,湖北民院,,19,12,19,3,7,58,,42,38,7,10,5,6,0.5,0.6
2025-09-13T0000,2455A,109.4707,30.2798,恩施土家族苗族自治州,州电力总公司,,15,6,16,3,8,45,,35,31,4,9,5,5,0.5,0.5
2025-09-13T0000,3549A,109.5061,30.3772,恩施土家族苗族自治州,龙凤新区,,15,15,18,3,6,44,,40,29,5,7,6,6,0.5,0.5
2025-09-13T0000,2499A,108.3411,21.6158,防城港市,沙万,,36,36,21,9,9,13,,52,32,31,14,3,4,0.5,0.6
2025-09-13T0000,2500A,108.3514,21.7731,防城港市,防城档案局,,31,31,23,14,9,21,,56,42,10,11,2,3,0.4,0.5
2025-09-13T0000,2501A,108.3506,21.6414,防城港市,大海花园,,18,16,16,12,7,20,,56,33,12,10,15,9,0.4,0.3
2025-09-13T0000,1371A,113.1294,23.0067,佛山市,湾梁,,19,19,20,9,10,23,,146,86,27,20,7,6,0.6,0.6
2025-09-13T0000,1372A,113.1083,23.0478,佛山市,华材职中,,20,14,20,14,11,34,,156,97,15,15,4,4,0.4,0.4
2025-09-13T0000,1373A,113.144,23.0453,佛山市,南海气象局,,21,21,20,13,11,24,,130,80,21,13,6,6,0.6,0.6
2025-09-13T0000,1374A,113.2881,22.8094,佛山市,顺德苏岗,,15,15,20,3,7,17,,85,44,17,17,6,6,0.5,0.6
2025-09-13T0000,1376A,112.8383,22.8678,佛山市,高明孔堂,,19,19,17,8,9,50,,110,90,12,10,3,3,0.3,0.3
2025-09-13T0000,1377A,112.8836,23.1588,佛山市,三水监测站,,19,19,19,13,11,26,,111,75,25,19,7,7,0.4,0.3
2025-09-13T0000,1378A,112.867,23.185,佛山市,三水云东海,,24,24,23,12,13,35,,120,88,30,19,3,4,0.5,0.6
2025-09-13T0000,3625A,113.2544,22.7642,佛山市,容桂街道办,,18,12,15,12,11,14,,103,50,28,22,6,7,0.6,0.7
2025-09-13T0000,1280A,119.3903,26.0543,福州市,鼓山,,,,28,,15,,,127,127,,9,,2,,0.3
2025-09-13T0000,1282A,119.2681,26.0504,福州市,师大,,41,41,36,25,19,98,,130,122,16,12,7,6,0.3,0.4
2025-09-13T0000,1283A,119.2984,26.1028,福州市,五四北路,,36,36,31,23,18,105,,119,118,14,13,5,5,0.3,0.3
2025-09-13T0000,1284A,119.2648,26.0768,福州市,杨桥西路,,38,38,33,26,23,101,,125,122,9,7,5,5,0.3,0.3
2025-09-13T0000,1285A,119.317,26.0746,福州市,紫阳,,40,40,38,25,19,103,,108,108,10,16,5,4,0.3,0.4
2025-09-13T0000,3048A,119.5799,26.0936,福州市,九龙,,24,24,26,15,14,41,,117,79,13,9,4,4,0.4,0.3
2025-09-13T0000,3526A,119.5189,25.9664,福州市,吴航,,33,33,26,21,16,92,,121,105,10,8,4,5,0.3,0.3
2025-09-13T0000,1755A,123.7977,41.8491,抚顺市,望花区,颗粒物(PM10),64,78,54,30,26,16,,128,61,43,27,6,12,0.8,0.8
2025-09-13T0000,1756A,123.9161,41.8822,抚顺市,顺城区,,50,50,50,21,25,7,,140,55,50,31,6,8,0.8,0.9
2025-09-13T0000,1757A,124.0436,41.8611,抚顺市,东洲区,,38,38,38,18,20,14,,133,61,27,12,4,9,0.4,0.3
2025-09-13T0000,1758A,123.9247,41.8642,抚顺市,新抚区,,50,50,54,26,23,8,,136,50,34,25,6,7,1.0,1
2025-09-13T0000,1759A,124.0972,41.8961,抚顺市,大伙房水库,,35,35,30,24,18,20,,133,65,41,13,9,9,0.8,0.6
2025-09-13T0000,1760A,123.7086,41.8391,抚顺市,沈抚新城,细颗粒物(PM2.5),54,47,43,38,21,7,,152,68,47,26,6,9,0.9,0.9
2025-09-13T0000,2376A,116.2127,28.0814,抚州市,桐源党溪,,29,29,24,14,11,32,,61,39,2,2,4,6,0.5,0.6
2025-09-13T0000,2377A,116.3544,27.9831,抚州市,市站,,18,17,20,7,7,55,,71,64,6,5,4,5,0.5,0.6
2025-09-13T0000,2378A,116.3565,27.963,抚州市,血防站,,23,23,23,10,10,48,,68,59,8,6,4,4,0.6,0.5
2025-09-13T0000,2379A,116.3564,28.0007,抚州市,采茶剧团,,17,17,21,11,8,48,,67,58,3,3,5,5,0.5,0.5
2025-09-13T0000,2380A,116.385,27.9647,抚州市,医学分院,,16,16,24,8,10,51,,69,61,6,6,4,4,0.6,0.6
2025-09-13T0000,2207A,121.6094,41.998,阜新市,工业园区,,43,34,40,30,20,44,,137,97,28,14,15,13,0.6,0.6
2025-09-13T0000,2208A,121.6697,42.0279,阜新市,长青街,,48,48,34,24,21,66,,133,105,21,11,13,12,0.5,0.6
2025-09-13T0000,2209A,121.6673,42.0705,阜新市,农业园区,,34,34,38,19,16,85,,132,110,18,13,16,8,0.7,0.7
2025-09-13T0000,2210A,121.6717,42.0224,阜新市,东苑,,39,39,44,16,17,78,,128,101,23,15,13,10,0.6,0.6
2025-09-13T0000,2211A,121.6506,42.0498,阜新市,玉龙新城,,47,47,38,28,19,13,,128,87,38,14,10,14,0.6,0.7
2025-09-13T0000,2301A,115.8277,32.8929,阜阳市,市监测站,,26,25,15,18,9,44,,73,59,13,10,4,4,0.3,0.3
2025-09-13T0000,2303A,115.8554,32.8605,阜阳市,开发区,,18,13,8,12,6,36,,74,59,16,9,6,6,0.4,0.3
2025-09-13T0000,2875A,115.784,32.8892,阜阳市,阜阳职业技术学院,,24,24,11,10,5,41,,78,59,15,10,6,6,0.4,0.4
2025-09-13T0000,3468A,115.7901,32.8613,阜阳市,市规划展馆,,32,30,14,22,9,40,,79,61,9,10,4,3,0.4,0.4
2025-09-13T0000,3469A,115.836,32.9183,阜阳市,枣园社区,,26,26,12,18,8,49,,80,66,12,9,6,5,0.4,0.3
2025-09-13T0000,2669A,102.9099,34.9841,甘南藏族自治州,州政府,颗粒物(PM10),77,103,45,29,18,0,,92,42,53,18,7,6,0.4,0.3
2025-09-13T0000,3380A,102.8914,34.9617,甘南藏族自治州,甘肃民族师范学院,颗粒物(PM10),88,126,58,36,22,1,,105,40,50,23,6,4,0.3,0.2
2025-09-13T0000,2570A,101.9603,30.0475,甘孜藏族自治州,水桥子,,22,22,9,12,5,13,,56,39,31,18,6,6,0.3,0.4
2025-09-13T0000,3065A,101.9533,29.9972,甘孜藏族自治州,州环保局,,14,14,8,3,5,17,,62,45,23,14,4,4,0.6,0.7
2025-09-13T0000,3414A,115.8347,28.932,赣江新区,桑海产业园,,27,27,22,12,11,11,,86,43,44,20,6,7,0.5,0.5
2025-09-13T0000,2362A,114.9017,25.9149,赣州市,通天岩,,18,17,20,12,10,48,,98,63,6,4,17,16,0.4,0.4
2025-09-13T0000,2363A,114.9367,25.8664,赣州市,地委,,28,28,20,14,12,48,,112,75,14,10,5,7,0.5,0.5
2025-09-13T0000,2364A,114.9461,25.8481,赣州市,气象台,,32,32,24,12,9,43,,102,70,13,6,7,8,0.5,0.5
2025-09-13T0000,2365A,114.9322,25.8333,赣州市,市图书馆,,22,16,20,15,11,48,,97,67,9,10,6,7,0.6,0.6
2025-09-13T0000,2366A,114.8905,25.8471,赣州市,华坚鞋城,,24,24,24,9,11,49,,99,66,10,10,5,6,0.4,0.4
2025-09-13T0000,3109A,115.0093,25.8613,赣州市,赣县区卫计委,,26,,31,18,17,25,,93,57,23,11,6,7,0.4,0.4
2025-09-13T0000,2683A,106.2319,36.1417,固原市,马园,,,,,,,,,,,,,,,,
2025-09-13T0000,2684A,106.2792,36.0022,固原市,监测站,,32,32,43,8,16,60,,114,87,15,11,7,8,0.4,0.4
2025-09-13T0000,2685A,106.2375,36.0211,固原市,新区,,35,35,45,14,15,64,,107,81,14,9,6,6,0.3,0.3
2025-09-13T0000,3522A,106.2177,35.9959,固原市,原州区十五小,颗粒物(PM10),52,53,51,20,17,65,,109,,10,9,10,10,0.3,0.3
2025-09-13T0000,2543A,106.6308,30.5278,广安市,小平旧居,,,,,,,,,,,,,,,,
2025-09-13T0000,2544A,106.6303,30.4576,广安市,市委,,20,,10,14,13,28,,44,42,9,9,7,6,0.5,0.5
2025-09-13T0000,2545A,106.6271,30.4663,广安市,友谊中学,,16,16,14,9,8,40,,54,52,9,9,4,4,0.6,0.7
2025-09-13T0000,2547A,106.6388,30.4551,广安市,广电花园,,17,17,14,8,8,31,,41,41,10,9,4,4,0.6,0.6
2025-09-13T0000,2902A,106.6351,30.4865,广安市,北辰小学,,12,12,9,8,8,36,,50,47,5,6,6,6,0.6,0.6
2025-09-13T0000,2523A,105.8945,32.4535,广元市,黑石坡,,16,16,10,10,9,27,,57,43,5,6,9,9,0.3,0.4
2025-09-13T0000,2524A,105.821,32.4444,广元市,老城,,15,15,13,6,6,32,,71,52,16,15,12,8,0.8,0.8
2025-09-13T0000,2526A,105.8628,32.4287,广元市,监测站,,25,,11,17,8,28,,66,46,8,11,7,6,0.7,0.8
2025-09-13T0000,3617A,105.8047,32.4166,广元市,经开区,,15,15,10,6,4,24,,63,45,15,13,6,5,0.7,0.7
2025-09-13T0000,1345A,113.2347,23.1423,广州市,广雅中学,,30,30,23,14,11,18,,138,84,30,21,5,4,0.4,0.5
2025-09-13T0000,1346A,113.2612,23.105,广州市,市五中,,26,26,20,11,10,25,,129,73,30,20,6,6,0.2,0.2
2025-09-13T0000,1348A,113.3478,23.0916,广州市,广东商学院,,26,26,16,10,8,9,,115,58,38,20,4,4,0.2,0.2
2025-09-13T0000,1349A,113.4332,23.1047,广州市,市八十六中,,21,19,16,8,7,6,,104,44,42,32,4,4,0.5,0.5
2025-09-13T0000,1350A,113.3505,22.9483,广州市,番禺中学,,23,23,16,11,9,9,,101,48,33,16,5,5,0.6,0.6
2025-09-13T0000,1351A,113.2146,23.3916,广州市,花都师范,,32,32,28,10,16,14,,174,112,40,23,5,6,0.5,0.6
2025-09-13T0000,1352A,113.2597,23.1331,广州市,市监测站,,25,25,23,10,10,22,,120,72,27,18,7,7,0.5,0.4
2025-09-13T0000,1353A,113.5618,23.312,广州市,九龙镇镇龙,,25,22,29,10,15,0,,163,93,49,26,9,8,0.4,0.4
2025-09-13T0000,1354A,113.2765,23.1544,广州市,麓湖,,27,27,21,14,11,14,,101,62,36,21,4,4,0.3,0.3
2025-09-13T0000,1355A,113.443,23.3035,广州市,帽峰山森林公园,,20,18,14,3,7,4,,124,66,40,17,11,6,0.6,0.6
2025-09-13T0000,2846A,113.3221,23.1322,广州市,体育西,,26,26,19,14,9,3,,116,58,44,21,5,5,0.4,0.4
2025-09-13T0000,3298A,113.5717,23.5491,广州市,从化街口,,38,38,27,22,15,43,,144,115,31,20,8,8,0.8,0.7
2025-09-13T0000,3299A,113.3472,23.3692,广州市,白云竹料,,22,21,34,10,18,11,,151,84,44,31,4,4,0.4,0.5
2025-09-13T0000,3300A,113.2981,23.237,广州市,白云嘉禾,,25,25,25,10,13,2,,140,77,46,28,4,4,0.4,0.4
2025-09-13T0000,3301A,113.4256,23.1716,广州市,黄埔科学城,,24,24,21,10,10,1,,118,52,32,20,4,4,0.5,0.5
2025-09-13T0000,3302A,113.3942,23.0483,广州市,番禺大学城,,16,10,18,9,8,12,,103,53,32,20,4,6,0.3,0.4
2025-09-13T0000,3303A,113.4922,22.8168,广州市,南沙黄阁,,10,10,20,3,7,26,,82,47,18,17,5,5,0.3,0.3
2025-09-13T0000,3304A,113.5342,22.7896,广州市,南沙街,,16,16,15,3,6,16,,72,40,23,14,5,5,0.3,0.4
2025-09-13T0000,3443A,113.2902,23.5544,广州市,花都梯面,,,22,30,11,15,,,132,,,19,,5,,0.6
2025-09-13T0000,3445A,113.7858,23.7478,广州市,从化良口,,24,22,23,14,15,74,,110,91,13,11,4,4,0.5,0.5
2025-09-13T0000,3446A,113.8051,23.2614,广州市,增城荔城,,34,34,25,19,14,19,,186,110,36,21,11,9,0.7,0.6
2025-09-13T0000,2505A,109.568,23.1478,贵港市,德智高中,,,,,,,,,,,,,,,,
2025-09-13T0000,2506A,109.6047,23.0666,贵港市,江南子站,,44,44,30,20,14,4,,50,32,29,16,4,5,0.7,0.6
2025-09-13T0000,2508A,109.5669,23.1065,贵港市,荷城子站,,36,36,21,12,8,4,,52,30,36,16,3,4,0.8,0.6
2025-09-13T0000,3405A,109.5886,23.1172,贵港市,新世纪学校,,36,36,23,14,15,12,,56,33,28,16,1,2,0.6,0.5
2025-09-13T0000,4260A,109.5933,23.0951,贵港市,中山路155-3号,,47,47,27,16,14,10,,58,42,38,13,4,5,0.8,0.6
2025-09-13T0000,1439A,106.6899,26.5998,贵阳市,马鞍山,,13,,12,9,10,41,,49,43,5,6,3,4,0.2,0.2
2025-09-13T0000,1441A,106.6243,26.6266,贵阳市,鉴湖路,,22,22,25,7,6,33,,42,36,12,11,8,7,0.4,0.4
2025-09-13T0000,1442A,106.7487,26.6343,贵阳市,燕子冲,,18,,9,12,12,31,,49,40,12,9,5,6,0.3,0.3
2025-09-13T0000,1443A,106.6555,26.4365,贵阳市,碧云窝,,19,19,24,3,5,32,,47,38,7,6,8,5,0.2,0.2
2025-09-13T0000,1445A,106.7109,26.6027,贵阳市,红边门,,19,19,19,7,12,33,,45,36,6,9,2,3,0.2,0.3
2025-09-13T0000,1446A,106.7164,26.5699,贵阳市,新华路,,14,14,18,7,7,32,,46,37,12,12,6,8,0.3,0.3
2025-09-13T0000,1447A,106.674,26.5424,贵阳市,太慈桥,,11,6,13,3,6,34,,34,26,10,9,3,4,0.0,0
2025-09-13T0000,1552A,106.805,26.3003,贵阳市,桐木岭,,24,24,24,9,13,45,,53,44,3,4,3,3,1.0,1
2025-09-13T0000,4230A,106.6882,26.5695,贵阳市,花果园大街66号,,15,,4,10,10,36,,44,37,5,7,4,4,0.1,0.2
2025-09-13T0000,4231A,106.6873,26.5169,贵阳市,漓江路57号,,12,12,15,7,7,37,,50,39,7,7,4,5,0.4,0.3
2025-09-13T0000,1862A,110.4144,25.3167,桂林市,电子科大尧山校区,,,,,,,,,,,,,,,,
2025-09-13T0000,1864A,110.3089,25.2708,桂林市,龙隐路小学,,26,19,17,18,8,21,,53,33,11,8,6,4,0.3,0.3
2025-09-13T0000,1865A,110.2869,25.2178,桂林市,八中,,23,23,17,14,7,13,,54,33,16,8,7,6,0.4,0.3
2025-09-13T0000,3531A,110.296,25.1253,桂林市,旅游学院,,17,17,12,9,6,17,,52,34,13,7,8,4,0.3,0.3
2025-09-13T0000,4222A,110.1835,25.2444,桂林市,环湖路276号,,25,24,21,17,12,21,,56,41,17,11,20,21,0.3,0.3
2025-09-13T0000,4301A,110.2803,25.2773,桂林市,信义路13号,,29,29,17,6,6,22,,56,34,13,9,9,5,0.4,0.3
2025-09-13T0000,2674A,100.2561,34.4714,果洛藏族自治州,玛沁县大武镇,,46,46,35,24,16,39,,101,71,13,6,20,19,0.3,0
2025-09-13T0000,1129A,126.5422,45.755,哈尔滨市,岭北,,19,19,32,13,20,53,,120,74,19,13,7,6,0.5,0.9
2025-09-13T0000,1130A,126.561,45.8167,哈尔滨市,松北商大,,34,34,40,11,21,1,,98,38,34,14,6,6,0.5,0.5
2025-09-13T0000,1131A,126.979,45.5419,哈尔滨市,阿城会宁,"颗粒物(PM10),细颗粒物(PM2.5)",58,65,52,41,27,14,,113,48,14,10,6,6,0.7,0.7
2025-09-13T0000,1132A,126.599,45.7222,哈尔滨市,南岗学府路,,35,35,50,8,18,24,,101,59,32,14,8,9,0.5,0.5
2025-09-13T0000,1133A,126.689,45.7733,哈尔滨市,太平宏伟公园,,35,35,46,22,21,26,,101,62,26,11,8,8,0.5,0.5
2025-09-13T0000,1134A,126.635,45.7667,哈尔滨市,道外承德广场,,33,33,54,15,17,37,,95,61,23,13,7,8,0.4,0.4
2025-09-13T0000,1135A,126.685,45.7319,哈尔滨市,香坊红旗大街,,27,27,46,3,26,32,,101,66,28,20,6,7,0.6,0.7
2025-09-13T0000,1136A,126.6411,45.7258,哈尔滨市,动力和平路,,28,28,49,7,32,39,,104,65,24,14,4,5,0.5,0.6
2025-09-13T0000,1137A,126.593,45.7478,哈尔滨市,道里建国路,,22,20,39,15,25,32,,97,54,30,19,7,8,0.5,0.6
2025-09-13T0000,1138A,126.615,45.61,哈尔滨市,平房东轻厂,,32,30,46,22,22,0,,96,38,59,19,11,10,0.5,0.5
2025-09-13T0000,1139A,126.595,45.9855,哈尔滨市,呼兰师专,,,22,38,,1,24,,98,39,26,13,8,8,,0.9
2025-09-13T0000,1140A,126.6206,45.6842,哈尔滨市,省农科院,颗粒物(PM10),63,76,75,17,22,11,,88,44,46,22,6,6,0.8,0.8
2025-09-13T0000,2688A,93.5128,42.8172,哈密市,地区监测站,,26,15,55,3,18,82,,96,82,5,17,3,3,0.1,0.2
2025-09-13T0000,2689A,93.4961,42.8328,哈密市,哈密师范学校,,27,23,51,11,17,86,,98,82,6,20,4,6,0.1,0.2
2025-09-13T0000,2671A,100.9048,36.9639,海北藏族自治州,海晏县西海镇,,38,38,23,24,16,57,,104,82,7,4,7,10,0.5,0.4
2025-09-13T0000,3867A,102.0738,36.5056,海东市,平安区公安北苑,,37,37,35,14,17,58,,109,79,2,7,7,10,0.4,0.6
2025-09-13T0000,1409A,110.576,19.9507,海口市,东寨港,,,,,,,,,,,,,,,,
2025-09-13T0000,1410A,110.3232,20.0574,海口市,海南大学,,12,12,10,3,5,34,,48,39,3,3,4,3,0.3,0.3
2025-09-13T0000,1411A,110.283,20.0053,海口市,秀英海南医院,,13,13,14,6,6,29,,49,37,9,8,6,6,0.3,0.3
2025-09-13T0000,1412A,110.338,19.9969,海口市,海南师范大学,,15,15,13,6,6,30,,51,38,6,5,4,4,0.3,0.3
2025-09-13T0000,1413A,110.33,20.0356,海口市,龙华路环保局宿舍,,11,11,10,3,5,33,,49,39,6,5,6,6,0.1,0.1
2025-09-13T0000,3539A,110.5111,19.9736,海口市,桂林洋子站,,13,13,13,8,7,25,,43,34,7,6,5,5,0.2,0.2
2025-09-13T0000,2673A,100.6188,36.2866,海南藏族自治州,共和县恰卜恰镇,颗粒物(PM10),52,53,38,16,14,51,,115,80,18,8,16,12,0.3,0.4
2025-09-13T0000,2676A,97.3731,37.3753,海西蒙古族藏族自治州,德令哈市,,,69,53,30,22,,,109,104,1,3,5,8,0.2,0.4
2025-09-13T0000,1048A,114.5302,36.6116,邯郸市,东污水处理厂,颗粒物(PM10),58,65,30,30,24,71,,136,106,33,14,6,7,0.4,0.3
2025-09-13T0000,1049A,114.4918,36.5713,邯郸市,矿院,,45,34,28,31,25,59,,141,111,31,15,4,6,0.4,0.3
2025-09-13T0000,1050A,114.484,36.6133,邯郸市,丛台公园,,35,33,23,24,17,106,,145,127,15,12,10,10,0.4,0.3
2025-09-13T0000,3458A,114.7895,36.5593,邯郸市,香泉濮院小区,颗粒物(PM10),63,76,43,21,14,58,,134,106,28,14,6,5,0.6,0.4
2025-09-13T0000,3579A,114.50634,36.77178,邯郸市,永年区实验高中,颗粒物(PM10),55,59,36,26,18,45,,129,98,28,17,5,5,0.8,0.7
2025-09-13T0000,3580A,114.20016,36.44293,邯郸市,峰峰矿区临水派出所,颗粒物(PM10),51,51,33,24,17,121,,143,132,14,13,6,6,0.3,0.3
2025-09-13T0000,2634A,106.9893,33.1842,汉中市,汉川机床厂子校,,25,20,19,17,6,31,,83,60,8,8,3,4,0.5,0.5
2025-09-13T0000,2635A,107.0154,33.0706,汉中市,市监测站,,26,26,11,8,4,18,,74,47,7,6,6,6,0.6,0.6
2025-09-13T0000,2636A,107.0089,33.1138,汉中市,鑫源开发区,,13,11,14,3,4,39,,78,53,6,9,6,6,0.5,0.5
2025-09-13T0000,2637A,107.007,33.0323,汉中市,南郑大河坎水厂,,16,16,9,6,4,9,,65,36,9,9,6,6,0.6,0.6
2025-09-13T0000,1223A,120.2072,30.2111,杭州市,滨江,,36,36,36,22,23,12,,117,47,38,24,7,7,0.6,0.5
2025-09-13T0000,1224A,120.0633,30.2747,杭州市,西溪,,24,24,31,14,18,1,,90,16,32,21,6,3,0.5,0.5
2025-09-13T0000,1226A,120.3417,30.3150,杭州市,下沙,,30,30,33,13,18,1,,122,25,59,25,6,7,0.5,0.5
2025-09-13T0000,1227A,120.1269,30.2456,杭州市,卧龙桥,,22,22,31,10,18,2,,94,16,11,10,7,8,0.6,0.6
2025-09-13T0000,1228A,120.1903,30.2692,杭州市,浙江农大,,33,33,40,21,23,12,,87,27,37,33,5,6,0.7,0.7
2025-09-13T0000,1230A,120.1197,30.3119,杭州市,和睦小学,,31,31,32,17,19,6,,104,30,35,20,6,5,0.6,0.6
2025-09-13T0000,1231A,120.3019,30.4183,杭州市,临平镇,,43,43,42,21,18,2,,136,22,50,29,5,6,0.7,0.6
2025-09-13T0000,1232A,120.2753,30.1839,杭州市,城厢镇,,26,23,38,18,22,18,,106,38,24,9,3,4,0.7,0.6
2025-09-13T0000,1233A,120.0883,30.1808,杭州市,云栖,,35,,31,24,26,8,,102,28,23,20,4,5,0.8,0.7
2025-09-13T0000,3557A,119.9464,30.0494,杭州市,镇二中,,28,24,35,19,24,14,,83,29,29,23,5,5,0.8,0.7
2025-09-13T0000,3558A,119.7183,30.2367,杭州市,市府大楼,,21,21,33,7,17,28,,74,42,8,11,8,8,0.4,0.4
2025-09-13T0000,3656A,120.1556,30.2864,杭州市,消防大队,,25,25,34,14,21,14,,104,44,35,19,8,8,0.7,0.7
2025-09-13T0000,1270A,117.1959,31.7848,合肥市,明珠广场,,24,24,23,9,13,51,,62,49,18,16,6,7,0.5,0.6
2025-09-13T0000,1271A,117.3072,31.8764,合肥市,三里街,,20,12,23,7,13,61,,58,58,9,14,5,5,0.5,0.6
2025-09-13T0000,1272A,117.2588,31.8707,合肥市,琥珀山庄,,25,17,23,17,16,68,,64,60,8,10,8,8,0.6,0.7
2025-09-13T0000,1273A,117.1604,31.9052,合肥市,董铺水库,,17,12,23,3,16,54,,61,55,3,6,4,4,0.2,0.3
2025-09-13T0000,1274A,117.25,31.8571,合肥市,长江中路,,21,9,22,8,11,67,,67,61,4,8,6,6,0.5,0.6
2025-09-13T0000,1275A,117.266,31.9436,合肥市,庐阳区,,22,14,26,14,14,69,,65,63,8,13,5,6,0.5,0.6
2025-09-13T0000,1276A,117.3453,31.8616,合肥市,瑶海区,,18,,25,10,12,57,,65,57,15,15,7,7,0.6,0.6
2025-09-13T0000,1277A,117.3027,31.7964,合肥市,包河区,,20,12,23,3,11,61,,66,55,13,16,8,9,0.5,0.6
2025-09-13T0000,1278A,117.2776,31.7385,合肥市,滨湖新区,,18,14,20,12,17,49,,72,51,16,12,5,5,0.6,0.7
2025-09-13T0000,1279A,117.1318,31.8403,合肥市,高新区,,20,14,21,12,14,62,,70,59,8,12,5,6,0.6,0.6
2025-09-13T0000,3464A,117.3803,31.9147,合肥市,高教基地,,20,12,24,7,16,64,,65,59,7,12,6,6,0.4,0.5
2025-09-13T0000,3614A,79.924,37.0877,和田地区,地区环保局,颗粒物(PM10),185,320,288,113,92,47,,106,83,43,14,3,5,1.1,0.7
2025-09-13T0000,3615A,79.9131,37.113,和田地区,市环保局,颗粒物(PM10),147,243,268,81,76,26,,110,72,71,30,3,4,0.3,0.3
2025-09-13T0000,2516A,108.2011,24.715,河池市,东仁乐园,,,,,,,,,,,,,,,,
2025-09-13T0000,2517A,108.0497,24.6947,河池市,市环保站,,26,26,16,9,6,3,,51,22,16,9,5,6,0.6,0.5
2025-09-13T0000,2518A,108.0983,24.6989,河池市,市疾控中心,,20,20,14,10,6,18,,49,24,23,13,8,8,0.6,0.5
2025-09-13T0000,1696A,114.6778,23.7569,河源市,源西,,14,6,16,3,11,44,,74,54,8,12,5,5,0.5,0.6
2025-09-13T0000,1697A,114.6944,23.7586,河源市,东埔,,14,14,17,9,9,36,,71,54,11,10,5,5,0.7,0.7
2025-09-13T0000,1698A,114.6892,23.7233,河源市,老城,,18,18,22,3,10,42,,79,56,11,9,6,6,0.7,0.7
2025-09-13T0000,1718A,115.4208,35.2464,菏泽市,气象局,颗粒物(PM10),59,68,36,40,21,68,,121,90,26,14,4,2,0.4,0.3
2025-09-13T0000,3374A,115.5564,35.0891,菏泽市,定陶老年大学,颗粒物(PM10),51,51,27,31,13,46,,102,77,27,12,6,5,0.4,0.2
2025-09-13T0000,4184A,115.4797,35.24401,菏泽市,永昌路1号,颗粒物(PM10),57,63,33,29,21,83,,118,97,13,9,9,7,0.3,0.3
2025-09-13T0000,4193A,115.4715,35.2800,菏泽市,长城路999号,颗粒物(PM10),54,57,31,29,17,81,,118,91,20,17,10,10,0.3,0.2
2025-09-13T0000,2514A,111.5264,24.4172,贺州市,环保小区,,33,33,20,21,13,12,,63,40,27,12,12,14,0.9,0.8
2025-09-13T0000,2515A,111.5608,24.4078,贺州市,政协大楼,,28,28,20,3,12,13,,76,47,26,13,9,12,0.6,0.7
2025-09-13T0000,3534A,111.4744,24.4553,贺州市,西湾,,31,31,22,18,11,22,,55,39,15,12,10,11,0.5,0.4
2025-09-13T0000,2385A,114.17,35.9019,鹤壁市,市监测站,,38,38,37,13,24,58,,127,93,9,12,9,7,0.6,0.5
2025-09-13T0000,2386A,114.2956,35.7511,鹤壁市,市交警支队,颗粒物(PM10),52,53,31,27,21,36,,116,73,23,21,3,3,0.7,0.6
2025-09-13T0000,2387A,114.2878,35.7306,鹤壁市,迎宾馆,,42,40,34,29,17,46,,118,76,15,14,2,2,0.7,0.6
2025-09-13T0000,3474A,114.2617,35.6822,鹤壁市,大新区,,49,49,30,28,11,46,,115,72,8,10,5,5,0.7,0.6
2025-09-13T0000,3596A,114.1572,35.9603,鹤壁市,南山宾馆,,44,44,38,28,29,106,,136,120,17,13,10,5,0.6,0.7
2025-09-13T0000,2244A,130.2537,47.3416,鹤岗市,哈啤分公司,,29,29,26,14,15,58,,59,56,5,12,11,12,0.3,0.3
2025-09-13T0000,2245A,130.2684,47.3086,鹤岗市,斯达机电,颗粒物(PM10),65,80,26,18,10,68,,69,68,7,11,12,12,0.4,0.4
2025-09-13T0000,2246A,130.3114,47.3388,鹤岗市,东山纸板厂,,40,,27,28,16,24,,52,34,14,16,12,12,0.7,0.6
2025-09-13T0000,2247A,130.1097,47.3382,鹤岗市,五号水库,,,,6,,8,,,,,,10,,6,,0.3
2025-09-13T0000,2263A,127.4833,50.2524,黑河市,交通局,,16,16,18,11,8,24,,55,34,7,10,8,7,0.5,0.5
2025-09-13T0000,2264A,127.5144,50.2341,黑河市,环保局,,25,25,33,8,10,30,,63,40,7,8,5,4,0.5,0.6
2025-09-13T0000,2265A,127.5291,50.2472,黑河市,大黑河岛,,,,,11,8,29,,50,39,2,2,20,19,0.3,0.3
2025-09-13T0000,1074A,115.6838,37.7541,衡水市,电机北厂,颗粒物(PM10),119,188,56,49,20,28,,111,84,43,14,5,6,0.6,0.4
2025-09-13T0000,1075A,115.6303,37.7316,衡水市,市监测站,颗粒物(PM10),65,80,48,34,18,42,,111,75,46,19,8,9,0.8,0.6
2025-09-13T0000,3188A,115.6683,37.7217,衡水市,市城管局,颗粒物(PM10),63,75,49,32,23,59,,119,91,43,17,9,10,0.6,0.6
2025-09-13T0000,3459A,115.5989,37.5491,衡水市,地表水厂,颗粒物(PM10),75,99,56,48,24,10,,113,63,57,32,15,5,0.5,0.3
2025-09-13T0000,2456A,112.5003,26.9167,衡阳市,原169医院,,25,25,21,16,10,23,,69,46,21,9,7,6,0.7,0.6
2025-09-13T0000,2457A,112.6194,26.9258,衡阳市,衡阳化工总厂,,21,21,26,14,16,33,,69,47,8,9,5,10,0.8,0.9
2025-09-13T0000,2458A,112.6211,26.8956,衡阳市,珠晖区环保局,,21,21,24,14,12,28,,69,46,12,8,9,14,0.6,0.6
2025-09-13T0000,2459A,112.6197,26.8733,衡阳市,市委党校,,24,24,20,10,11,33,,68,47,9,7,7,7,0.4,0.5
2025-09-13T0000,2460A,112.6006,26.8919,衡阳市,市监测站,,26,26,25,11,15,31,,69,46,11,10,7,11,0.7,0.8
2025-09-13T0000,2461A,112.5664,26.9056,衡阳市,真空机电公司,,30,30,22,15,12,23,,65,42,16,8,15,11,1.4,1
2025-09-13T0000,3399A,112.6703,26.882,衡阳市,师范学院,,21,21,24,14,15,33,,68,48,8,8,4,5,0.8,0.8
2025-09-13T0000,2608A,103.3772,23.3993,红河哈尼族彝族自治州,污水处理厂,,22,22,15,13,11,32,,34,30,6,5,8,8,0.3,0.3
2025-09-13T0000,2609A,103.3861,23.35,红河哈尼族彝族自治州,监测站,,20,20,17,7,10,36,,36,32,3,3,11,11,0.2,0.2
2025-09-13T0000,3038A,103.3758,23.368,红河哈尼族彝族自治州,州图书馆,,20,16,9,14,12,44,,38,37,5,5,2,2,0.2,0.2
2025-09-13T0000,1090A,111.6507,40.7517,呼和浩特市,呼市一监,细颗粒物(PM2.5),54,51,24,38,17,53,,110,73,27,16,7,7,0.5,0.4
2025-09-13T0000,1091A,111.6572,40.8033,呼和浩特市,小召,,49,36,25,34,16,61,,105,79,31,21,5,5,0.6,0.5
2025-09-13T0000,1094A,111.7516,40.8369,呼和浩特市,如意水处理厂,,45,45,24,23,14,7,,114,64,59,23,6,7,0.5,0.4
2025-09-13T0000,1095A,111.7276,40.8062,呼和浩特市,二十九中,,43,42,28,30,15,35,,117,74,45,19,7,7,0.6,0.6
2025-09-13T0000,1096A,111.5512,40.7866,呼和浩特市,工大金川校区,颗粒物(PM10),55,59,34,18,12,12,,105,52,71,29,6,6,0.6,0.5
2025-09-13T0000,1097A,111.717,40.7612,呼和浩特市,化肥厂生活区,颗粒物(PM10),54,57,28,34,16,59,,117,76,25,20,7,6,0.5,0.4
2025-09-13T0000,3698A,111.5968,40.8178,呼和浩特市,红旗小学,,31,31,24,19,13,23,,110,66,55,25,5,5,0.4,0.3
2025-09-13T0000,3699A,111.6518,40.8389,呼和浩特市,海东办,,48,48,29,19,14,6,,116,66,66,26,6,6,0.5,0.4
2025-09-13T0000,2192A,119.7594,49.2261,呼伦贝尔市,区环保局,,37,37,30,21,17,29,,57,38,12,8,5,5,0.5,0.5
2025-09-13T0000,3061A,119.7512,49.1577,呼伦贝尔市,国华电力东,,27,27,18,9,10,11,,62,36,11,6,5,5,0.3,0.2
2025-09-13T0000,1250A,120.0751,30.8669,湖州市,城西水厂,,19,18,34,11,21,18,,120,24,37,31,7,7,0.2,0.4
2025-09-13T0000,2873A,120.0830,30.8929,湖州市,仁皇山新区,,24,24,33,9,18,4,,112,20,43,27,4,5,0.4,0.5
2025-09-13T0000,2907A,120.1844,30.8596,湖州市,吴兴区站,,21,21,35,10,22,5,,132,26,37,24,8,8,0.6,0.6
2025-09-13T0000,3562A,120.4148,30.8538,湖州市,南浔区站,,36,33,33,25,26,14,,124,48,38,16,7,7,0.8,0.8
2025-09-13T0000,1607A,120.9049,40.7211,葫芦岛市,龙港区,,40,28,34,28,25,50,,136,90,14,8,6,6,0.6,0.6
2025-09-13T0000,1608A,120.8392,40.7514,葫芦岛市,化工街,颗粒物(PM10),65,80,38,31,21,0,,123,63,72,28,75,13,0.7,0.6
2025-09-13T0000,1609A,120.8341,40.7073,葫芦岛市,新区,细颗粒物(PM2.5),53,53,36,37,29,7,,129,68,64,21,5,5,0.7,0.7
2025-09-13T0000,1610A,120.8695,40.7677,葫芦岛市,东城区,颗粒物(PM10),55,60,43,36,30,6,,129,70,70,26,34,9,0.7,0.7
2025-09-13T0000,2482A,109.5981,27.5721,怀化市,林科所,,15,15,15,7,4,25,,48,27,8,7,5,4,0.7,0.7
2025-09-13T0000,2483A,109.9453,27.5444,怀化市,河西地税局,,18,14,15,12,10,8,,41,18,11,7,4,5,0.3,0.3
2025-09-13T0000,2484A,109.9781,27.5342,怀化市,市四医院,,28,28,21,14,11,10,,48,20,16,8,6,7,0.3,0.6
2025-09-13T0000,2485A,109.9972,27.5578,怀化市,监测楼,,24,24,21,14,11,7,,54,27,22,9,4,5,0.1,0.1
2025-09-13T0000,2486A,110.0394,27.583,怀化市,市委党校,,32,32,17,21,12,0,,46,22,25,10,6,5,0.3,0.3
2025-09-13T0000,1210A,119.036,33.5981,淮安市,钵池山,,19,,15,13,14,56,,71,65,9,13,6,6,0.8,0.8
2025-09-13T0000,1211A,119.007,33.575,淮安市,北京南路,,25,,18,17,19,56,,68,60,4,12,6,6,0.7,0.8
2025-09-13T0000,1212A,118.989,33.6067,淮安市,市监测站,,18,12,22,7,17,56,,74,62,10,16,9,9,0.4,0.5
2025-09-13T0000,1213A,119.135,33.5039,淮安市,楚州区监测站,,22,22,31,15,15,49,,86,66,13,13,8,7,0.8,0.7
2025-09-13T0000,3426A,118.8755,33.2894,淮安市,新华书店,,19,,22,8,16,60,,100,69,7,9,6,6,0.7,0.7
2025-09-13T0000,4206A,119.0288,33.6319,淮安市,承德北路606号,,22,,28,15,15,54,,66,60,6,14,6,6,0.4,0.5
2025-09-13T0000,2282A,116.8004,33.975,淮北市,监测站,,20,,9,13,5,64,,101,76,9,10,7,7,0.9,0.9
2025-09-13T0000,2283A,116.8091,33.9007,淮北市,烈山区政府,,23,23,12,8,2,63,,100,77,9,8,8,7,0.5,0.4
2025-09-13T0000,3330A,116.8873,33.9836,淮北市,杜集区检察院,,36,,7,25,9,61,,102,74,1,2,8,8,0.6,0.6
2025-09-13T0000,4017A,116.7923,33.9535,淮北市,市博物馆,,33,,13,23,8,50,,105,75,19,12,6,6,0.5,0.5
2025-09-13T0000,2277A,116.8305,32.7727,淮南市,潘集区政府,,22,14,18,11,13,68,,79,77,8,10,2,2,0.3,0.3
2025-09-13T0000,2279A,116.8569,32.5951,淮南市,谢家集区政府,,22,,17,15,14,58,,67,67,4,7,7,6,0.3,0.3
2025-09-13T0000,2280A,116.8281,32.633,淮南市,八公山区政府,,20,20,23,11,17,64,,70,69,4,7,6,6,0.2,0.3
2025-09-13T0000,2281A,116.6325,32.6201,淮南市,焦岗湖风景区管理处,,,,,,,,,,,,,,,,
2025-09-13T0000,2894A,117.0566,32.6531,淮南市,经济技术开发区消防队,,22,12,20,3,6,69,,66,66,6,11,7,8,0.2,0.3
2025-09-13T0000,3329A,117.0108,32.5893,淮南市,山南新区,,22,,21,3,12,68,,70,70,10,11,4,4,0.3,0.4
2025-09-13T0000,4209A,117.0031,32.6445,淮南市,国庆中路369号,,23,20,33,16,22,72,,69,69,5,9,6,5,0.3,0.4
2025-09-13T0000,2446A,114.9028,30.4742,黄冈市,职工中心,,16,10,19,8,12,50,,66,58,5,14,5,6,0.5,0.6
2025-09-13T0000,2929A,114.8858,30.4519,黄冈市,红卫路,,15,12,23,8,12,45,,68,56,9,17,5,6,0.4,0.5
2025-09-13T0000,3398A,114.9136,30.4445,黄冈市,市林业局,,16,16,22,10,12,47,,73,59,8,17,5,6,0.4,0.5
2025-09-13T0000,2672A,102.0199,35.5102,黄南藏族自治州,同仁县隆务镇,,35,35,26,14,11,66,,96,82,7,5,9,9,0.2,0.3
2025-09-13T0000,2295A,118.2903,29.6963,黄山市,延安路89号,,28,28,25,8,7,3,,60,25,15,8,4,3,0.5,0.4
2025-09-13T0000,2297A,118.1371,30.2756,黄山市,黄山区政府5号楼,,22,21,19,15,9,13,,60,35,4,3,4,4,0.4,0.4
2025-09-13T0000,4210A,118.3354,29.7203,黄山市,滨江东路7-2号,,30,30,26,3,6,6,,59,20,6,7,2,2,0.4,0.4
2025-09-13T0000,2423A,115.0601,30.2313,黄石市,沈家营,,,,58,,13,,,85,67,,23,,6,,0.8
2025-09-13T0000,2426A,114.8988,30.2019,黄石市,铁山,,24,24,29,6,10,22,,78,49,11,13,5,6,0.3,0.4
2025-09-13T0000,2427A,115.0307,30.2092,黄石市,团城山,,29,29,37,3,10,23,,83,55,12,20,8,8,0.9,0.9
2025-09-13T0000,3149A,115.0235,30.1578,黄石市,笔架山北路,,20,20,32,3,8,28,,77,52,7,15,7,10,0.7,0.8
2025-09-13T0000,4185A,115.0780,30.21118,黄石市,磁湖东路29号,,34,34,63,3,14,31,,86,63,10,30,7,11,0.5,0.8
2025-09-13T0000,1392A,114.4183,23.0528,惠州市,河南岸金山湖子站,,,,18,3,10,32,,84,48,11,10,8,8,0.4,0.4
2025-09-13T0000,1393A,114.4053,23.0822,惠州市,下埔横江三路子站,,15,15,17,9,9,40,,89,50,10,11,6,6,0.5,0.5
2025-09-13T0000,1394A,114.4103,23.1142,惠州市,江北云山西路子站,,14,14,18,6,9,39,,102,55,16,17,8,8,0.5,0.5
2025-09-13T0000,1395A,114.4645,22.7833,惠州市,惠阳区承修路船湖子站,,14,13,14,6,7,42,,62,50,10,11,7,8,0.5,0.5
2025-09-13T0000,1396A,114.5317,22.7422,惠州市,大亚湾管委会子站,,15,13,16,6,7,48,,58,51,8,11,8,8,0.4,0.4
2025-09-13T0000,3314A,114.4338,22.8134,惠州市,惠阳秋长,,,12,18,3,8,,,73,,11,13,10,9,0.4,0.5
2025-09-13T0000,3452A,114.6517,22.775,惠州市,大亚湾霞涌,,20,6,13,3,8,64,,66,66,7,10,7,7,0.5,0.4
2025-09-13T0000,2240A,130.9762,45.3001,鸡西市,环保局,颗粒物(PM10),52,53,42,23,18,71,,96,53,6,22,6,7,0.7,0.8
2025-09-13T0000,2243A,130.9429,45.3039,鸡西市,第一中学,,33,33,36,17,14,67,,98,73,8,12,9,9,0.7,0.7
2025-09-13T0000,3707A,131.0207,45.3073,鸡西市,欧美日汽修厂,颗粒物(PM10),61,72,58,21,19,22,,94,38,24,20,8,9,0.9,0.9
2025-09-13T0000,3709A,130.9967,45.3106,鸡西市,市政设施管理处,颗粒物(PM10),59,67,56,24,24,56,,106,49,18,24,8,8,0.9,0.9
2025-09-13T0000,2367A,114.9754,27.0803,吉安市,红声器材厂,,19,19,25,8,10,46,,94,60,5,7,8,8,0.3,0.4
2025-09-13T0000,2368A,114.9658,27.0999,吉安市,市森林工业局,,18,18,24,10,11,39,,93,55,8,8,9,7,0.4,0.4
2025-09-13T0000,2369A,114.99,27.1312,吉安市,市环境监测站,,16,13,21,3,9,51,,104,66,1,5,12,12,0.4,0.5
2025-09-13T0000,2370A,115.0093,27.0968,吉安市,青原区法院,,18,16,26,3,11,55,,98,62,4,7,10,10,0.3,0.5
2025-09-13T0000,1772A,126.54,43.8622,吉林市,哈达湾,颗粒物(PM10),55,60,36,27,20,58,,120,107,32,11,10,8,0.6,0.4
2025-09-13T0000,1773A,126.5844,43.8358,吉林市,东局子,颗粒物(PM10),54,58,48,31,22,42,,113,91,33,14,6,6,0.9,0.8
2025-09-13T0000,1774A,126.5052,43.8245,吉林市,电力学院,颗粒物(PM10),56,61,41,24,22,49,,108,87,18,12,7,7,0.8,0.7
2025-09-13T0000,1775A,126.6133,43.8972,吉林市,江北,,37,37,34,22,20,40,,107,81,23,13,8,6,1.0,0.6
2025-09-13T0000,1776A,126.555,43.8306,吉林市,江南公园,,44,44,35,20,21,70,,112,99,17,8,2,3,0.5,0.5
2025-09-13T0000,1778A,126.7061,43.7133,吉林市,丰满,,30,27,24,21,19,86,,138,117,5,4,6,6,1.1,1
2025-09-13T0000,2868A,126.4739,43.953,吉林市,九站,,43,43,36,26,19,42,,115,84,37,14,6,4,0.5,0.4
2025-09-13T0000,1299A,116.9862,36.6114,济南市,科干所,颗粒物(PM10),57,63,54,34,29,83,,126,109,24,27,10,11,0.8,0.7
2025-09-13T0000,1300A,116.9376,36.665,济南市,农科所,颗粒物(PM10),53,56,53,24,25,61,,125,97,34,28,9,11,0.7,0.6
2025-09-13T0000,1301A,117.1265,36.6734,济南市,开发区,颗粒物(PM10),58,66,60,37,32,88,,126,105,28,31,12,12,0.9,0.8
2025-09-13T0000,1303A,117.0624,36.6868,济南市,省种子仓库,颗粒物(PM10),67,83,71,36,33,81,,131,106,30,26,10,11,0.8,0.8
2025-09-13T0000,1304A,116.9489,36.6447,济南市,机床二厂,颗粒物(PM10),64,78,63,42,32,71,,126,102,36,28,14,14,0.5,0.5
2025-09-13T0000,1305A,117.0495,36.663,济南市,市监测站,颗粒物(PM10),61,71,62,39,34,76,,120,99,32,28,7,10,0.9,0.8
2025-09-13T0000,1306A,116.7675,36.5484,济南市,长清党校,"颗粒物(PM10),细颗粒物(PM2.5)",55,59,62,39,28,71,,123,97,25,31,8,9,0.7,0.7
2025-09-13T0000,1616A,117.6795,36.229,济南市,技术学院,,26,22,16,14,12,6,,88,55,52,22,12,10,0.7,0.6
2025-09-13T0000,1961A,117.532,36.6868,济南市,东山小学,颗粒物(PM10),59,68,54,29,22,22,,129,82,52,32,6,9,0.5,0.6
2025-09-13T0000,3059A,117.7161,36.2049,济南市,泰兴公司,,21,17,20,12,11,7,,79,40,41,22,10,10,0.5,0.6
2025-09-13T0000,3064A,117.6867,36.2171,济南市,莱芜战役纪念馆,,36,36,23,17,14,5,,78,51,55,23,8,8,0.7,0.6
2025-09-13T0000,3494A,117.1673,36.9782,济南市,济阳区政府,颗粒物(PM10),70,90,68,44,31,48,,140,100,47,29,11,12,0.6,0.4
2025-09-13T0000,3495A,117.1171,36.63,济南市,锦屏中学,颗粒物(PM10),53,56,52,32,24,39,,124,85,33,26,10,13,1.0,1
2025-09-13T0000,3682A,116.9814,36.6819,济南市,济南四建,颗粒物(PM10),60,70,55,34,30,67,,127,101,34,25,9,9,0.8,0.7
2025-09-13T0000,1653A,116.6251,35.4302,济宁市,火炬城,,37,37,19,19,7,36,,87,62,19,8,4,4,0.5,0.2
2025-09-13T0000,1655A,116.5491,35.4042,济宁市,电化厂,,32,32,20,14,8,48,,91,64,26,12,1,2,0.3,0.3
2025-09-13T0000,3500A,116.5814,35.3707,济宁市,北湖一中,,23,23,17,15,8,50,,83,63,18,8,3,4,0.4,0.3
2025-09-13T0000,3501A,116.8249,35.5593,济宁市,服务中心,,32,32,18,12,2,33,,82,57,24,11,4,4,0.5,0.2
2025-09-13T0000,3678A,116.5907,35.4054,济宁市,市第七中学,,41,41,22,9,3,44,,85,65,18,10,4,4,0.5,0.3
2025-09-13T0000,2255A,130.2751,46.8028,佳木斯市,佳纺,,41,41,30,22,13,68,,97,94,8,14,6,6,0.7,0.7
2025-09-13T0000,2256A,130.3995,46.8307,佳木斯市,发电厂,,36,36,29,23,14,84,,96,96,7,11,7,7,0.7,0.6
2025-09-13T0000,2257A,130.3258,46.7975,佳木斯市,环保局,,34,34,22,23,14,80,,97,96,9,11,8,8,0.7,0.6
2025-09-13T0000,2258A,130.3648,46.8032,佳木斯市,十一中,,40,34,24,28,16,76,,91,91,12,12,8,8,0.7,0.5
2025-09-13T0000,2259A,130.3794,46.7588,佳木斯市,四丰,,,19,14,14,7,1,,15,6,7,10,,28,0.5,0.4
2025-09-13T0000,1252A,120.7436,30.778,嘉兴市,清河小学,,34,34,42,17,19,42,,149,61,31,20,5,6,0.4,0.4
2025-09-13T0000,1253A,120.726,30.7478,嘉兴市,嘉兴学院,,30,29,42,21,25,24,,165,49,43,23,4,5,0.6,0.5
2025-09-13T0000,2872A,120.7846,30.7525,嘉兴市,南湖区残联,,36,32,39,25,25,46,,160,66,27,19,5,6,0.7,0.7
2025-09-13T0000,3407A,120.6916,30.7739,嘉兴市,秀洲住建,,32,32,39,16,21,13,,165,39,52,28,6,7,0.7,0.7
2025-09-13T0000,1945A,98.2908,39.7711,嘉峪关市,气象局,颗粒物(PM10),104,158,143,29,26,90,,122,107,15,12,25,13,1.2,0.7
2025-09-13T0000,2884A,98.2672,39.7978,嘉峪关市,酒钢宾馆,颗粒物(PM10),87,124,150,24,34,94,,124,117,18,10,69,25,0.4,0.5
2025-09-13T0000,3248A,98.2643,39.7724,嘉峪关市,雄关区,颗粒物(PM10),95,140,109,39,29,74,,116,104,33,18,43,18,0.7,0.6
2025-09-13T0000,1383A,113.1064,22.6058,江门市,北街,,20,20,19,3,10,40,,114,64,8,10,4,4,0.4,0.4
2025-09-13T0000,1384A,113.0731,22.5835,江门市,西区,,23,23,21,10,8,38,,96,62,12,14,8,8,0.4,0.5
2025-09-13T0000,1385A,113.0219,22.5311,江门市,圭峰西,,15,14,17,6,9,46,,93,62,9,7,4,4,0.5,0.5
2025-09-13T0000,1386A,113.0828,22.5947,江门市,东湖,,13,11,19,6,10,41,,87,57,10,14,6,6,0.4,0.5
2025-09-13T0000,3311A,113.1075,22.5647,江门市,江海富民,,22,22,23,10,9,38,,99,61,16,16,4,5,0.4,0.4
2025-09-13T0000,3449A,113.05,22.4667,江门市,新会银湖,,13,13,20,9,10,30,,89,51,12,11,3,3,0.4,0.5
2025-09-13T0000,1830A,113.1992,35.2590,焦作市,影视城,,,,36,,20,,,110,96,,9,,10,,0.7
2025-09-13T0000,3335A,113.3137,35.2641,焦作市,马村街道办,细颗粒物(PM2.5),59,58,33,42,29,42,,113,83,12,9,2,3,0.6,0.4
2025-09-13T0000,3336A,113.2465,35.2373,焦作市,焦作技师学院,颗粒物(PM10),53,55,42,22,22,62,,113,89,16,12,5,7,0.4,0.5
2025-09-13T0000,3477A,113.1656,35.2539,焦作市,中站许衡医院,细颗粒物(PM2.5),63,48,38,45,31,53,,118,94,19,12,5,7,0.8,0.6
2025-09-13T0000,3981A,113.2449,35.1803,焦作市,原李万街道办,颗粒物(PM10),51,51,43,27,18,28,,122,83,41,17,8,9,0.5,0.5
2025-09-13T0000,4264A,113.2340,35.2190,焦作市,新安路1731号,,47,47,37,20,21,65,,124,108,22,11,4,5,0.4,0.4
2025-09-13T0000,4295A,113.2722,35.2121,焦作市,人民路3066号,颗粒物(PM10),66,81,48,17,13,55,,121,90,27,15,2,3,0.4,0.3
2025-09-13T0000,1708A,116.3701,23.5345,揭阳市,新兴,,22,22,27,15,16,32,,86,53,12,12,6,5,0.5,0.5
2025-09-13T0000,1709A,116.3264,23.5443,揭阳市,西马,,36,36,29,12,15,29,,81,55,12,11,3,3,0.5,0.5
2025-09-13T0000,1710A,116.3611,23.5626,揭阳市,东兴,,30,30,28,13,14,18,,82,52,22,14,6,6,0.7,0.6
2025-09-13T0000,1711A,116.4151,23.5294,揭阳市,渔湖,,19,,27,13,15,24,,94,57,9,8,5,6,0.5,0.6
2025-09-13T0000,3320A,116.403,23.5699,揭阳市,曲溪,,19,19,29,13,12,30,,98,60,13,11,11,6,0.4,0.4
2025-09-13T0000,1944A,102.1692,38.5167,金昌市,天庆家园,颗粒物(PM10),56,61,77,25,26,91,,98,94,5,12,1,2,0.2,0.2
2025-09-13T0000,4022A,102.1647,38.5371,金昌市,金川区人防中心,颗粒物(PM10),55,60,79,27,28,85,,95,85,3,13,8,9,0.4,0.4
2025-09-13T0000,4239A,102.1930,38.5319,金昌市,长春路96号,颗粒物(PM10),58,66,80,21,28,87,,93,87,3,8,4,6,0.6,0.6
2025-09-13T0000,1262A,119.647,29.077,金华市,十五中,,30,30,26,11,15,41,,114,60,25,14,3,4,0.5,0.5
2025-09-13T0000,1263A,119.686,29.1029,金华市,监测站,,28,28,28,14,16,13,,100,42,18,15,6,4,0.6,0.6
2025-09-13T0000,3659A,119.656,29.1131,金华市,气象局,,24,24,25,10,9,12,,102,43,33,19,4,3,0.5,0.5
2025-09-13T0000,1767A,121.1115,41.0879,锦州市,南山,"颗粒物(PM10),细颗粒物(PM2.5)",54,57,38,38,27,14,,128,64,37,22,4,9,0.8,0.7
2025-09-13T0000,1768A,121.0604,40.8428,锦州市,开发区,颗粒物(PM10),73,96,54,49,23,2,,128,54,90,36,13,13,1.0,0.7
2025-09-13T0000,1769A,121.1836,41.1119,锦州市,百股街道,,40,40,35,22,20,16,,131,68,31,15,4,8,0.8,0.6
2025-09-13T0000,1770A,121.1178,41.1222,锦州市,天安街道,细颗粒物(PM2.5),70,74,45,51,29,6,,137,84,69,21,11,12,1.0,0.8
2025-09-13T0000,1771A,121.1303,41.1386,锦州市,北湖公园,,45,45,42,26,21,32,,126,83,28,15,6,9,0.8,0.7
2025-09-13T0000,2160A,112.85,35.5051,晋城市,自来水公司,细颗粒物(PM2.5),52,52,39,36,26,92,,100,95,11,14,3,3,0.7,0.8
2025-09-13T0000,2161A,112.8318,35.4936,晋城市,白云商贸,细颗粒物(PM2.5),55,54,45,39,22,89,,103,96,10,14,2,3,0.6,0.7
2025-09-13T0000,2162A,112.8508,35.4887,晋城市,市环保局,颗粒物(PM10),51,52,44,31,21,82,,95,88,8,10,3,3,0.4,0.5
2025-09-13T0000,2163A,112.8676,35.4897,晋城市,技术学院,,49,49,35,24,18,90,,99,93,9,12,4,4,0.6,0.7
2025-09-13T0000,2165A,112.8453,35.546,晋城市,白马寺,细颗粒物(PM2.5),59,,29,42,27,105,,114,109,4,8,7,7,0.6,0.7
2025-09-13T0000,3620A,112.8271,35.4828,晋城市,泽州一中,颗粒物(PM10),51,52,38,27,19,80,,105,95,10,12,2,3,0.7,0.7
2025-09-13T0000,2173A,112.7249,37.7067,晋中市,南都小区,,45,45,38,26,24,46,,123,95,26,16,9,6,0.7,0.5
2025-09-13T0000,2174A,112.6991,37.6982,晋中市,榆次区政府,,39,39,33,25,22,32,,113,81,37,19,8,6,0.6,0.6
2025-09-13T0000,2865A,112.7195,37.6828,晋中市,榆次三中,,36,36,28,9,13,21,,120,83,32,14,8,6,0.5,0.2
2025-09-13T0000,4200A,112.7478,37.6954,晋中市,迎宾街26号,,27,27,26,9,12,18,,122,85,39,16,5,5,0.4,0.4
2025-09-13T0000,2439A,112.2014,31.0481,荆门市,竹园小学,,28,15,10,14,6,87,,86,78,9,8,2,7,0.2,0.3
2025-09-13T0000,2440A,112.1969,30.9891,荆门市,掇刀,,28,,11,11,8,87,,85,79,5,5,1,1,0.3,0.4
2025-09-13T0000,2441A,112.2213,31.0386,荆门市,石化一小,,24,17,10,6,5,74,,76,69,10,9,4,5,0.3,0.3
2025-09-13T0000,3012A,112.1849,31.0362,荆门市,西山林语,,29,18,11,6,7,91,,86,84,4,5,3,2,0.3,0.2
2025-09-13T0000,3547A,112.1632,31.0138,荆门市,龙泉中学南校,,30,12,8,11,5,93,,90,88,6,8,2,2,0.3,0.3
2025-09-13T0000,1844A,112.2494,30.3197,荆州市,市图书馆,,25,20,15,17,9,61,,69,66,11,10,4,4,0.5,0.5
2025-09-13T0000,1845A,112.2008,30.3544,荆州市,市委党校,,18,18,16,12,9,57,,66,62,10,10,6,6,0.5,0.5
2025-09-13T0000,3194A,112.2747,30.3122,荆州市,管委会,,23,,16,16,10,52,,64,62,10,9,1,1,0.5,0.5
2025-09-13T0000,4268A,112.1722,30.3366,荆州市,学苑路85号,,23,17,22,16,12,62,,75,69,9,14,4,4,0.5,0.4
2025-09-13T0000,2342A,117.3102,29.3867,景德镇市,王港中学,,,,,,,,,,,,,,,,
2025-09-13T0000,2343A,117.2117,29.2933,景德镇市,老干部活动中心,,29,21,18,20,13,22,,80,37,14,14,7,8,0.3,0.3
2025-09-13T0000,2344A,117.1894,29.2789,景德镇市,兽医站,,35,35,26,15,10,30,,80,48,12,8,5,6,0.7,0.6
2025-09-13T0000,2346A,117.2461,29.2956,景德镇市,陶研所,,30,30,20,19,14,23,,72,35,8,8,5,6,0.7,0.6
2025-09-13T0000,4289A,117.1542,29.2566,景德镇市,青少年活动中心,,38,34,25,26,13,25,,74,51,18,13,5,14,0.8,0.7
2025-09-13T0000,1803A,115.9872,29.6815,九江市,十里,,30,29,16,21,16,46,,91,38,22,22,5,6,0.7,0.6
2025-09-13T0000,1804A,115.9584,29.7046,九江市,茅山头,,37,37,23,22,14,43,,85,40,20,16,3,3,0.6,0.5
2025-09-13T0000,1805A,115.9877,29.7295,九江市,西园,,30,30,21,15,12,39,,90,45,39,33,13,10,0.8,0.7
2025-09-13T0000,1808A,115.9114,29.6038,九江市,综合工业园,,36,36,19,17,10,28,,88,34,39,25,7,6,0.9,0.8
2025-09-13T0000,1809A,116.0721,29.7535,九江市,石化总厂,,38,38,25,23,15,45,,98,45,31,21,5,6,0.6,0.6
2025-09-13T0000,1810A,115.9773,29.5698,九江市,庐山气象台,,,,,,,,,,,,3,,6,,0.6
2025-09-13T0000,3190A,116.0254,29.6994,九江市,外国语学校,,38,29,16,26,16,38,,88,42,33,18,5,4,0.8,0.7
2025-09-13T0000,4253A,116.0102,29.6594,九江市,莲花大道8号,,14,14,18,9,10,23,,84,33,11,11,5,5,0.6,0.5
2025-09-13T0000,4240A,98.4958,39.7339,酒泉市,玉门东路5号,颗粒物(PM10),76,102,120,44,36,96,,116,103,3,13,7,12,0.2,0.3
2025-09-13T0000,4241A,98.5099,39.7506,酒泉市,北大街108号,颗粒物(PM10),69,88,118,33,33,90,,111,91,2,12,9,15,0.2,0.4
2025-09-13T0000,2698A,76.0072,39.4467,喀什地区,巡警大队,颗粒物(PM10),143,236,234,87,78,27,,120,92,81,35,6,7,1.2,0.5
2025-09-13T0000,2699A,75.9755,39.4694,喀什地区,吾办,颗粒物(PM10),144,238,226,102,90,9,,107,80,76,36,8,6,1.0,0.5
2025-09-13T0000,4027A,75.9483,39.4689,喀什地区,老干局,颗粒物(PM10),136,221,188,69,57,23,,111,89,70,29,3,4,0.7,0.4
2025-09-13T0000,1824A,114.3389,34.7781,开封市,肿瘤医院,颗粒物(PM10),56,62,31,29,16,33,,100,68,45,16,4,3,0.7,0.6
2025-09-13T0000,1826A,114.2885,34.7965,开封市,世纪星幼儿园,,49,44,25,34,17,52,,104,77,32,16,4,4,0.8,0.7
2025-09-13T0000,3147A,114.3438,34.8106,开封市,龙亭公园,,38,33,28,26,13,61,,97,71,20,12,6,6,0.8,0.7
2025-09-13T0000,3210A,114.3644,34.7964,开封市,汴京公园,"颗粒物(PM10),细颗粒物(PM2.5)",52,53,28,36,18,47,,101,74,22,11,5,5,0.8,0.8
2025-09-13T0000,3473A,114.2485,34.8306,开封市,技师学院,,40,31,22,28,14,56,,94,76,21,9,6,6,0.8,0.7
2025-09-13T0000,3592A,114.4644,34.7556,开封市,祥符区生态环境局,颗粒物(PM10),54,58,29,32,19,15,,95,54,63,19,4,4,0.7,0.6
2025-09-13T0000,1951A,84.895,45.6094,克拉玛依市,长征新村,颗粒物(PM10),54,57,20,6,9,47,,80,64,19,9,3,3,0.2,0.2
2025-09-13T0000,1952A,84.8988,45.5893,克拉玛依市,南林小区,,41,41,26,20,8,41,,78,52,22,13,6,6,0.2,0.2
2025-09-13T0000,1954A,84.905,44.3396,克拉玛依市,独山子区,,44,44,37,11,9,63,,84,77,12,10,6,6,0.3,0.3
2025-09-13T0000,1955A,85.6979,46.098,克拉玛依市,乌尔禾区商贸楼,,21,19,17,11,7,66,,80,74,5,4,2,2,0.1,0.1
2025-09-13T0000,3612A,85.1045,45.6899,克拉玛依市,白碱滩区新站,,25,22,38,8,9,80,,92,84,6,4,4,5,0.1,0.1
2025-09-13T0000,2697A,76.1454,39.7142,克孜勒苏柯尔克孜自治州,市人民政府,颗粒物(PM10),120,190,190,64,69,62,,120,102,27,13,7,13,0.2,0.2
2025-09-13T0000,3665A,76.1658,39.7157,克孜勒苏柯尔克孜自治州,克州文化中心,颗粒物(PM10),135,220,202,66,72,11,,110,90,82,16,7,19,0.3,0.2
2025-09-13T0000,1450A,102.8204,24.8886,昆明市,呈贡新区,,12,,8,8,8,15,,40,30,22,11,3,3,0.4,0.4
2025-09-13T0000,1451A,102.6251,24.9608,昆明市,西山森林公园,,,,,,,,,,,,,,,,
2025-09-13T0000,1452A,102.7252,25.0902,昆明市,龙泉镇,,21,21,15,8,5,13,,39,29,24,14,3,3,0.5,0.4
2025-09-13T0000,1453A,102.7266,25.0375,昆明市,东风东路,,18,18,15,9,8,22,,42,30,14,14,3,4,0.4,0.3
2025-09-13T0000,1454A,102.6742,25.0669,昆明市,金鼎山,,47,47,27,10,5,16,,39,26,15,11,4,4,0.3,0.3
2025-09-13T0000,1455A,102.6644,25.0401,昆明市,碧鸡广场,,29,29,17,18,8,14,,37,24,22,15,9,9,0.5,0.5
2025-09-13T0000,3179A,102.7494,25.0119,昆明市,官渡区博物馆,,16,16,12,3,6,22,,45,33,13,9,1,2,0.3,0.3
2025-09-13T0000,3375A,102.8017,24.8336,昆明市,青年创业园,,16,16,15,3,5,22,,50,32,11,8,3,2,0.3,0.3
2025-09-13T0000,3550A,102.7997,24.9786,昆明市,昆明学院,,15,15,11,8,5,15,,44,32,18,9,9,7,0.4,0.4
2025-09-13T0000,3551A,102.5967,24.6736,昆明市,晋宁区生态环境分局,,24,24,16,7,6,23,,50,38,14,8,2,2,0.3,0.4
2025-09-13T0000,3552A,102.6678,24.9856,昆明市,云天化总部,,16,16,12,9,7,22,,42,34,13,10,5,6,0.6,0.6
2025-09-13T0000,1456A,91.1319,29.6514,拉萨市,八廓街,,17,15,11,8,8,48,,107,84,34,11,7,6,0.3,0.3
2025-09-13T0000,1457A,91.1221,29.6747,拉萨市,市环保局,,22,22,13,11,6,34,,108,77,26,14,7,7,0.6,0.5
2025-09-13T0000,1458A,91.0874,29.6475,拉萨市,区监测站,,22,18,10,8,6,45,,107,78,43,18,6,4,0.4,0.3
2025-09-13T0000,1459A,91.1774,29.6541,拉萨市,西藏大学,,18,18,9,9,7,53,,103,83,29,13,6,7,0.2,0.2
2025-09-13T0000,1460A,90.9798,29.6588,拉萨市,区辐射站,,20,20,22,10,10,51,,92,69,22,18,8,6,0.3,0.3
2025-09-13T0000,1461A,91.0834,29.6292,拉萨市,拉萨火车站,,20,16,11,9,6,63,,105,81,23,13,6,5,0.5,0.4
2025-09-13T0000,2520A,109.2203,23.7256,来宾市,来宾技工学校,,43,43,25,11,9,0,,58,20,24,12,13,10,0.8,0.7
2025-09-13T0000,3535A,109.1781,23.7297,来宾市,兴宾区政府,,17,17,18,8,9,6,,66,31,17,9,7,7,0.6,0.6
2025-09-13T0000,4002A,109.2416,23.7461,来宾市,中南小学,,42,42,25,3,9,0,,60,27,22,12,10,12,0.5,0.6
2025-09-13T0000,1477A,104.1373,35.9454,兰州市,榆中兰大校区,,,,,,,,,,,,,,,,
2025-09-13T0000,1479A,103.831,36.0464,兰州市,铁路设计院,颗粒物(PM10),60,70,48,30,25,1,,114,34,80,41,26,11,1.2,0.6
2025-09-13T0000,3241A,103.7439,36.0842,兰州市,百合公园,颗粒物(PM10),59,67,47,26,16,3,,108,53,69,22,4,6,0.1,0.3
2025-09-13T0000,3242A,103.9611,35.998,兰州市,和平,,,3,42,,18,,,123,80,14,14,8,10,0.1,0.4
2025-09-13T0000,4236A,103.6293,36.0938,兰州市,庄浪东路808号,颗粒物(PM10),52,54,50,28,22,9,,96,38,73,33,12,14,0.3,0.3
2025-09-13T0000,4237A,103.7251,36.1043,兰州市,安宁西路88号,颗粒物(PM10),58,66,47,33,24,43,,125,76,34,18,4,7,0.3,0.3
2025-09-13T0000,4238A,103.8470,36.0676,兰州市,北滨河东路1号,颗粒物(PM10),61,72,45,29,24,0,,127,46,77,38,12,10,0.7,0.4
2025-09-13T0000,3245A,103.6633,36.533,兰州新区,新区管委会,,43,33,31,30,20,70,,121,106,15,10,4,9,0.2,0.2
2025-09-13T0000,3246A,103.6975,36.4789,兰州新区,舟曲中学,颗粒物(PM10),53,55,33,22,15,73,,108,91,24,12,12,19,0.3,0.3
2025-09-13T0000,1067A,116.6708,39.5111,廊坊市,药材公司,颗粒物(PM10),58,66,78,32,43,46,,143,96,33,28,5,6,0.4,0.4
2025-09-13T0000,1068A,116.7214,39.5589,廊坊市,开发区,细颗粒物(PM2.5),67,82,85,48,42,33,,125,80,22,21,2,2,0.5,0.5
2025-09-13T0000,1070A,116.7244,39.5269,廊坊市,北华航天学院,细颗粒物(PM2.5),64,65,69,46,46,33,,143,102,31,22,4,5,0.6,0.5
2025-09-13T0000,2919A,116.7022,39.5453,廊坊市,河北工业大学,颗粒物(PM10),51,51,63,29,40,59,,146,113,30,21,3,4,0.5,0.4
2025-09-13T0000,2535A,103.7723,29.5462,乐山市,花湖湾,,20,17,10,14,8,3,,42,18,29,14,6,4,0.7,0.4
2025-09-13T0000,2536A,103.7627,29.5844,乐山市,牛耳桥,,22,22,11,9,7,0,,43,13,27,17,9,6,0.9,0.7
2025-09-13T0000,2537A,103.7508,29.6006,乐山市,市第三水厂,,,24,13,16,9,,,43,,29,18,7,4,0.9,0.6
2025-09-13T0000,2538A,103.7571,29.5664,乐山市,市监测站,,23,23,13,11,7,4,,46,19,23,11,10,6,1.0,0.7
2025-09-13T0000,3361A,103.7311,29.5628,乐山市,理工大学,,22,22,10,10,6,1,,45,15,24,13,6,4,0.9,0.7
2025-09-13T0000,2598A,100.2143,26.8576,丽江市,西南郊,,16,7,14,3,6,51,,50,50,3,8,7,7,0.6,0.6
2025-09-13T0000,2599A,100.2497,26.8802,丽江市,丽江古城,,16,13,21,6,8,50,,53,52,9,11,9,10,0.5,0.5
2025-09-13T0000,2600A,100.2203,26.8906,丽江市,市中心,,15,,12,8,10,48,,47,46,13,13,9,10,0.5,0.5
2025-09-13T0000,1267A,119.914,28.4514,丽水市,监测站大楼,,17,17,21,8,10,14,,91,42,16,11,5,5,0.4,0.4
2025-09-13T0000,1268A,119.93,28.4586,丽水市,莲都小学,,22,20,21,15,9,20,,88,45,22,13,5,4,0.3,0.3
2025-09-13T0000,1269A,119.879,28.4231,丽水市,余庄前,,25,25,23,9,11,1,,80,10,14,12,4,5,0.4,0.5
2025-09-13T0000,1173A,119.176,34.5885,连云港市,市环境监测站,,18,9,8,3,3,56,,106,64,16,14,5,5,0.6,0.6
2025-09-13T0000,3000A,119.3581,34.6972,连云港市,德源药业,,16,12,6,9,4,49,,100,68,20,14,4,4,0.7,0.6
2025-09-13T0000,3007A,119.178,34.844,连云港市,新城一中,,16,16,16,8,5,50,,117,64,16,12,4,3,0.5,0.5
2025-09-13T0000,3008A,119.3608,34.7519,连云港市,胡沟管理处,,18,12,7,7,2,57,,113,80,13,10,6,5,1.3,0.8
2025-09-13T0000,3009A,119.1478,34.5911,连云港市,矿山设计院,,16,9,7,9,6,50,,103,63,15,14,7,6,0.7,0.7
2025-09-13T0000,3434A,119.2413,34.6539,连云港市,工贸学校,,17,12,9,9,6,54,,110,68,12,9,7,6,0.8,0.8
2025-09-13T0000,3664A,119.4172,34.7341,连云港市,连云街道,,23,23,10,16,5,50,,113,74,29,13,8,5,1.4,0.5
2025-09-13T0000,2571A,102.3431,27.8099,凉山彝族自治州,青龙寺,,10,10,13,3,3,14,,36,23,4,5,3,3,0.4,0.5
2025-09-13T0000,2572A,102.2721,27.8415,凉山彝族自治州,邛海宾馆,,12,12,14,6,9,19,,44,34,12,12,7,8,0.6,0.6
2025-09-13T0000,2573A,102.2625,27.898,凉山彝族自治州,西昌市政府,,12,12,20,3,11,27,,41,34,5,12,31,20,0.5,0.7
2025-09-13T0000,2574A,102.2685,27.8851,凉山彝族自治州,凉山州政府,,12,11,16,8,12,28,,47,40,3,12,10,8,0.9,1
2025-09-13T0000,4229A,102.2342,27.8859,凉山彝族自治州,凯乐南路30号,,13,13,17,8,11,14,,37,28,13,18,7,7,0.7,0.8
2025-09-13T0000,2212A,123.2,41.1953,辽阳市,宏伟区,,30,30,41,15,16,56,,112,74,6,10,2,3,0.6,0.6
2025-09-13T0000,2213A,123.1683,41.2495,辽阳市,新华园,颗粒物(PM10),53,55,41,26,19,21,,130,77,38,18,5,4,0.7,0.5
2025-09-13T0000,2214A,123.2354,41.2639,辽阳市,滨河路,,50,50,38,18,20,27,,115,44,30,19,6,6,0.5,0.5
2025-09-13T0000,2215A,123.149,41.2991,辽阳市,铁西工业园,颗粒物(PM10),63,76,49,39,22,14,,130,60,35,17,5,4,0.7,0.6
2025-09-13T0000,2227A,125.1358,42.8845,辽源市,环保局,颗粒物(PM10),55,59,48,19,16,15,,127,69,24,15,9,10,0.7,0.6
2025-09-13T0000,3239A,125.0764,42.9078,辽源市,银鹰制药,颗粒物(PM10),56,61,37,27,20,6,,128,57,51,32,17,38,0.6,0.5
2025-09-13T0000,1625A,115.9848,36.4372,聊城市,区政府,,46,46,38,27,19,79,,131,110,21,15,12,11,0.6,0.6
2025-09-13T0000,2878A,116.0072,36.4343,聊城市,聊大东校,颗粒物(PM10),52,53,42,27,22,82,,132,114,24,16,12,11,0.7,0.7
2025-09-13T0000,3200A,115.9819,36.4978,聊城市,监控中心,颗粒物(PM10),53,56,50,27,20,68,,132,98,26,20,12,10,0.7,0.6
2025-09-13T0000,3513A,116.0445,36.4361,聊城市,九州社区,颗粒物(PM10),55,59,51,25,22,86,,121,105,13,12,8,6,0.6,0.6
2025-09-13T0000,4018A,116.0567,36.4608,聊城市,星美广场,颗粒物(PM10),52,54,50,23,21,85,,130,108,14,14,5,7,0.5,0.6
2025-09-13T0000,2632A,94.3681,29.6376,林芝市,林芝监测站,,12,12,9,6,4,36,,68,52,3,6,4,4,0.5,0.5
2025-09-13T0000,2633A,94.3616,29.6616,林芝市,林芝人民医院,,12,12,11,3,4,34,,64,54,3,3,6,5,0.6,0.6
2025-09-13T0000,2603A,100.0781,23.8982,临沧市,市环保局,,35,,17,24,20,13,,30,16,7,8,4,5,0.7,0.7
2025-09-13T0000,2604A,100.0894,23.8822,临沧市,市气象局,,28,,15,19,15,15,,25,18,9,11,7,8,0.7,0.6
2025-09-13T0000,1733A,111.5531,36.0783,临汾市,临钢医院,,48,48,28,19,8,35,,107,80,22,11,6,6,1.3,0.7
2025-09-13T0000,1734A,111.5028,36.0714,临汾市,技工学校,细颗粒物(PM2.5),60,67,29,43,22,23,,103,72,40,12,9,6,1.0,0.7
2025-09-13T0000,1736A,111.5018,36.0855,临汾市,市委,颗粒物(PM10),64,78,40,24,11,34,,106,77,36,14,9,5,1.1,0.8
2025-09-13T0000,3018A,111.505,36.1014,临汾市,唐尧大酒店,颗粒物(PM10),67,83,43,29,14,32,,106,78,36,14,9,7,1.1,0.7
2025-09-13T0000,4244A,111.4879,36.0530,临汾市,启星学校,颗粒物(PM10),60,69,31,36,20,18,,108,71,50,15,5,4,1.1,0.7
2025-09-13T0000,4271A,103.2464,35.6123,临夏回族自治州,滨河东路1号,颗粒物(PM10),70,90,42,39,21,1,,76,30,35,20,8,8,0.4,0.3
2025-09-13T0000,4310A,103.2093,35.5995,临夏回族自治州,新华街21号,颗粒物(PM10),59,68,47,35,21,26,,86,49,23,16,6,6,0.4,0.3
2025-09-13T0000,1618A,118.3429,35.0532,临沂市,沂河小区,,20,14,5,6,8,63,,98,76,18,11,8,8,0.4,0.4
2025-09-13T0000,1619A,118.295,35.0583,临沂市,鲁南制药厂,,32,19,3,13,8,10,,102,66,64,13,9,8,0.3,0.4
2025-09-13T0000,1620A,118.2794,34.9976,临沂市,新光毛纺厂,,25,12,2,6,4,23,,100,66,50,16,8,6,0.4,0.4
2025-09-13T0000,1621A,118.3956,35.0888,临沂市,河东保险公司,,22,7,5,3,1,68,,96,76,14,12,6,5,0.3,0.3
2025-09-13T0000,3370A,118.3564,35.0215,临沂市,十里堡居委,,21,6,1,3,1,67,,102,81,19,13,7,6,0.3,0.3
2025-09-13T0000,3496A,118.3604,35.1084,临沂市,南坊新区,,21,14,6,3,1,66,,99,76,22,16,8,8,0.4,0.5
2025-09-13T0000,3860A,118.3920,35.0300,临沂市,皇山花园小区,,25,,1,3,2,78,,99,80,10,11,9,9,0.2,0.2
2025-09-13T0000,1870A,109.4856,24.3895,柳州市,柳东小学,,15,13,17,10,9,24,,76,51,17,9,10,5,0.4,0.3
2025-09-13T0000,1871A,109.4157,24.3277,柳州市,环保监测站,,20,20,18,7,10,16,,66,42,22,8,6,7,0.7,0.6
2025-09-13T0000,1872A,109.389,24.341,柳州市,河西水厂,,37,37,22,15,10,1,,65,38,35,11,5,5,0.7,0.6
2025-09-13T0000,1873A,109.4311,24.2921,柳州市,市四中,,22,22,22,13,10,23,,69,42,23,12,7,7,0.4,0.2
2025-09-13T0000,1874A,109.4006,24.3631,柳州市,市九中,,,36,25,,21,12,,68,42,28,10,2,2,0.7,0.6
2025-09-13T0000,1875A,109.4958,24.3134,柳州市,古亭山,,11,10,20,3,8,15,,69,40,21,12,6,6,0.5,0.5
2025-09-13T0000,3402A,109.5422,24.3996,柳州市,市二中,,15,15,16,7,8,22,,77,54,28,12,6,13,0.7,0.6
2025-09-13T0000,2307A,116.5079,31.737,六安市,监测大楼,,18,11,12,8,11,57,,57,57,2,4,4,4,0.2,0.4
2025-09-13T0000,2308A,116.4738,31.7643,六安市,皖西学院,,17,,12,11,10,53,,59,58,2,3,2,2,0.3,0.3
2025-09-13T0000,2309A,116.4996,31.7905,六安市,朝阳厂,,16,13,10,9,10,50,,55,54,7,8,5,5,0.4,0.4
2025-09-13T0000,2310A,116.5567,31.7886,六安市,开发区,,17,,9,10,10,54,,57,57,4,6,2,2,0.4,0.4
2025-09-13T0000,2576A,104.8,26.5892,六盘水市,窑上,,20,20,28,10,18,22,,52,44,5,5,1,1,0.3,0.3
2025-09-13T0000,2577A,104.83,26.5917,六盘水市,黄土坡,,11,9,14,7,10,34,,54,45,13,10,6,3,0.1,0.2
2025-09-13T0000,2578A,104.89,26.5939,六盘水市,水钢,,21,21,29,11,16,30,,44,32,22,13,3,7,0.3,0.5
2025-09-13T0000,2579A,104.8475,26.5894,六盘水市,民中,,12,6,14,3,6,37,,53,48,12,8,4,2,0.3,0.3
2025-09-13T0000,2580A,104.9544,26.5506,六盘水市,双水,,12,12,15,3,10,36,,50,44,13,8,3,3,0.1,0.1
2025-09-13T0000,2335A,117.0189,25.1181,龙岩市,龙岩师专,,,,,,,,,,,,,,,,
2025-09-13T0000,2336A,117.0217,25.1033,龙岩市,龙岩市监测站,,18,16,22,12,12,22,,79,46,19,13,14,9,0.6,0.6
2025-09-13T0000,2337A,117.0258,25.0661,龙岩市,闽西职业技术学院,,25,25,30,12,14,6,,75,27,20,14,9,11,0.6,0.6
2025-09-13T0000,2338A,117.0196,25.0306,龙岩市,龙岩学院,,20,20,20,13,12,17,,72,38,14,8,5,5,0.5,0.5
2025-09-13T0000,2665A,105.0822,33.3261,陇南市,汉王镇固水子,,,,,,,,,,,,,,,,
2025-09-13T0000,2885A,104.9339,33.3826,陇南市,滨江中学,,34,34,30,13,14,39,,83,65,17,9,5,6,0.7,0.6
2025-09-13T0000,3247A,104.955,33.371,陇南市,市总工会,,,36,35,12,7,,,86,77,4,7,7,7,0.3,0.4
2025-09-13T0000,2487A,111.9589,27.8901,娄底市,电视发射台,,28,28,26,17,9,25,,60,36,7,6,4,5,0.3,0.2
2025-09-13T0000,2488A,111.9975,27.725,娄底市,市监测站,,32,32,25,18,13,30,,68,53,15,9,13,6,0.6,0.6
2025-09-13T0000,2489A,112.0194,27.7314,娄底市,市委党校,,48,48,27,32,16,19,,70,,16,10,11,7,0.5,0.4
2025-09-13T0000,2490A,111.9561,27.7569,娄底市,涟钢,细颗粒物(PM2.5),53,54,36,37,17,14,,55,35,21,16,2,7,1.2,0.8
2025-09-13T0000,2491A,111.9892,27.7044,娄底市,市政府,,44,44,20,22,14,36,,72,49,9,6,5,7,0.9,0.7
2025-09-13T0000,1893A,105.4324,28.9634,泸州市,九狮山,,28,28,22,3,6,17,,37,26,10,10,5,6,0.4,0.4
2025-09-13T0000,1894A,105.4427,28.9063,泸州市,小市上码头,,19,19,7,8,3,21,,32,25,11,10,4,4,0.5,0.5
2025-09-13T0000,1895A,105.4241,28.8573,泸州市,兰田宪桥,,22,22,10,3,3,20,,36,26,10,16,5,4,0.7,0.6
2025-09-13T0000,1896A,105.4379,28.8833,泸州市,市环监站,,,23,8,13,5,,,38,30,11,12,4,4,,0.5
2025-09-13T0000,4272A,105.3689,28.7783,泸州市,纳溪中医医院,,21,21,10,7,5,5,,39,27,29,16,2,2,0.6,0.6
2025-09-13T0000,2183A,111.1406,37.5211,吕梁市,环保局,,43,43,20,27,12,3,,102,53,42,23,3,3,0.7,0.7
2025-09-13T0000,2185A,111.1297,37.5136,吕梁市,自来水公司,颗粒物(PM10),52,54,24,21,10,13,,93,51,32,21,3,3,0.8,0.7
2025-09-13T0000,2867A,111.1283,37.51,吕梁市,马茂庄小学,颗粒物(PM10),55,60,25,18,10,2,,102,52,41,24,4,4,0.9,0.7
2025-09-13T0000,1812A,112.3931,34.6516,洛阳市,市委党校,,,,24,,16,,,97,73,,11,,5,,0.4
2025-09-13T0000,1815A,112.494,34.6886,洛阳市,河南林校,颗粒物(PM10),52,53,36,27,21,37,,112,78,36,18,7,6,0.6,0.5
2025-09-13T0000,1816A,112.3844,34.623,洛阳市,开发区管委会,,36,36,21,23,15,55,,103,58,18,8,4,3,0.6,0.5
2025-09-13T0000,1817A,112.4267,34.6258,洛阳市,市委新办公区,,46,45,24,32,20,40,,102,63,26,10,7,6,0.7,0.5
2025-09-13T0000,3340A,112.6005,34.6326,洛阳市,伊滨,,43,43,27,26,20,32,,114,84,25,14,5,5,0.7,0.6
2025-09-13T0000,3341A,112.4951,34.6332,洛阳市,中移产业园,颗粒物(PM10),51,52,28,34,19,19,,112,76,46,16,6,6,0.8,0.6
2025-09-13T0000,3593A,112.5736,34.8993,洛阳市,吉利监测站,颗粒物(PM10),51,52,33,28,25,14,,92,61,40,13,4,4,0.6,0.5
2025-09-13T0000,3635A,112.3677,34.662,洛阳市,河科大西苑校区,颗粒物(PM10),52,53,25,20,11,26,,99,57,46,18,7,7,0.7,0.5
2025-09-13T0000,3636A,112.4388,34.6781,洛阳市,英才小学,,50,50,27,34,22,33,,107,74,37,15,6,6,0.7,0.5
2025-09-13T0000,4214A,112.4600,34.6949,洛阳市,春都路1号院,,45,45,27,26,13,29,,94,60,28,18,8,8,0.5,0.4
2025-09-13T0000,2399A,114.051,33.5699,漯河市,三五一五工厂,,45,45,31,25,12,36,,82,57,23,12,5,5,0.7,0.5
2025-09-13T0000,2400A,114.0055,33.5698,漯河市,漯河大学,,31,31,13,12,12,41,,86,58,20,12,5,5,0.5,0.4
2025-09-13T0000,2401A,114.0138,33.5828,漯河市,市水利局,,31,31,19,19,12,42,,83,57,18,12,5,5,0.6,0.6
2025-09-13T0000,2402A,114.0261,33.5698,漯河市,市广电局,,32,32,20,22,14,52,,90,66,16,10,3,3,0.6,0.5
2025-09-13T0000,3478A,113.9749,33.5664,漯河市,市图书馆,,22,22,16,11,10,62,,87,75,16,11,5,5,0.4,0.4
2025-09-13T0000,4250A,114.0892,33.5882,漯河市,韶山路11号,,39,37,16,27,13,39,,83,66,22,9,5,4,0.7,0.4
2025-09-13T0000,1798A,118.5092,31.6837,马鞍山市,湖东路四小,,25,17,36,17,20,43,,113,52,18,16,13,9,1.5,0.9
2025-09-13T0000,1799A,118.5024,31.6449,马鞍山市,开发区,,17,10,38,9,18,54,,117,59,10,16,5,8,0.5,0.7
2025-09-13T0000,1802A,118.6245,31.7241,马鞍山市,濮塘,,19,15,28,13,20,50,,116,52,8,11,8,9,0.8,0.9
2025-09-13T0000,3633A,118.4918,31.6809,马鞍山市,雨山,,19,,34,13,17,44,,107,50,20,19,16,15,0.9,0.8
2025-09-13T0000,4191A,118.5274,31.72227,马鞍山市,慈湖高新区,,30,30,37,12,20,44,,102,47,16,20,7,8,1.1,0.6
2025-09-13T0000,1686A,111.0286,21.4688,茂名市,电白南海,,14,14,19,3,11,34,,51,46,15,8,3,4,0.4,0.5
2025-09-13T0000,1687A,110.9294,21.6533,茂名市,茂石化七小,,19,19,15,9,8,35,,57,41,8,8,9,7,0.5,0.5
2025-09-13T0000,1688A,110.9107,21.6687,茂名市,健康路,,18,14,11,12,8,42,,63,47,8,8,7,5,0.5,0.5
2025-09-13T0000,1689A,110.8592,21.6828,茂名市,高岭,,19,19,23,3,4,33,,64,39,17,12,7,9,0.7,0.6
2025-09-13T0000,3450A,111.01,21.5165,茂名市,电白水东,,14,14,10,7,5,34,,54,49,12,8,9,6,0.7,0.7
2025-09-13T0000,2539A,104.0308,30.0478,眉山市,黑龙滩水库,,16,16,12,7,7,49,,76,50,4,7,3,2,0.3,0.3
2025-09-13T0000,2540A,103.8416,30.0874,眉山市,气象局,,39,39,29,12,9,20,,68,36,33,19,8,8,0.5,0.3
2025-09-13T0000,3137A,103.8578,30.0744,眉山市,市委党校,,27,27,17,9,4,2,,55,21,40,21,8,9,0.8,0.7
2025-09-13T0000,3148A,103.8291,30.0564,眉山市,区人社局,,39,39,33,3,3,5,,56,24,31,16,8,8,1.0,0.9
2025-09-13T0000,1690A,116.1231,24.3284,梅州市,梅江月梅,,27,27,22,18,9,10,,70,34,22,13,8,8,0.5,0.5
2025-09-13T0000,1691A,116.0797,24.2719,梅州市,梅县新城,,37,37,23,10,11,10,,59,31,23,13,10,7,0.6,0.6
2025-09-13T0000,1692A,116.1248,24.2654,梅州市,环境监控中心,,26,,23,18,12,15,,57,29,24,14,4,5,0.5,0.5
2025-09-13T0000,3315A,116.1233,24.2991,梅州市,梅龙,,36,36,19,17,12,16,,62,36,24,11,9,9,0.7,0.7
2025-09-13T0000,1878A,104.7778,31.4741,绵阳市,富乐山,,13,13,10,3,4,1,,45,26,20,8,8,8,0.7,0.6
2025-09-13T0000,1880A,104.6697,31.4668,绵阳市,高新区自来水公司,,34,34,13,9,3,1,,61,28,33,15,9,9,0.7,0.6
2025-09-13T0000,1881A,104.7287,31.5075,绵阳市,三水厂,,17,13,10,10,6,2,,56,27,33,15,10,10,0.7,0.5
2025-09-13T0000,3491A,104.69,31.5322,绵阳市,西科大附属小学,,29,29,18,14,10,7,,73,33,34,19,8,8,0.5,0.4
2025-09-13T0000,3492A,104.5648,31.5343,绵阳市,安州区旅游局,,24,24,9,9,2,8,,66,39,21,13,8,8,0.8,0.7
2025-09-13T0000,4226A,104.7651,31.4531,绵阳市,绵阳市气象局,,21,21,12,13,4,2,,50,30,32,11,8,8,0.6,0.5
2025-09-13T0000,1784A,129.61,44.561,牡丹江市,环保大楼,,23,,30,16,14,67,,103,68,6,13,5,5,0.3,0.3
2025-09-13T0000,1785A,129.6115,44.5782,牡丹江市,文化广场,,36,36,32,15,22,68,,100,67,7,16,6,6,0.4,0.4
2025-09-13T0000,1786A,129.5904,44.5963,牡丹江市,第一医院,,39,31,35,27,24,72,,105,76,8,15,8,8,0.3,0.3
2025-09-13T0000,1787A,129.6364,44.6075,牡丹江市,机车工厂,,31,31,43,17,13,61,,102,64,12,17,5,7,0.4,0.4
2025-09-13T0000,1788A,129.6386,44.5462,牡丹江市,第一中学,,33,23,29,23,15,62,,98,65,10,14,4,4,0.3,0.3
2025-09-13T0000,2531A,105.0703,29.61,内江市,市监测站,,15,11,13,3,6,48,,44,44,8,10,3,3,0.4,0.4
2025-09-13T0000,2532A,105.0717,29.5947,内江市,东兴区政府,,15,7,8,3,1,45,,44,42,11,10,6,5,0.6,0.6
2025-09-13T0000,2533A,105.0653,29.5817,内江市,内江二中,,18,,11,12,7,47,,47,46,12,12,2,2,0.7,0.7
2025-09-13T0000,2534A,105.0406,29.5822,内江市,内江日报社,,18,16,11,12,5,26,,46,38,28,13,6,6,0.6,0.6
2025-09-13T0000,2628A,92.0657,31.4846,那曲市,那曲监测站,颗粒物(PM10),69,88,46,34,18,46,,95,72,31,21,5,5,0.8,0.5
2025-09-13T0000,4243A,92.0515,31.4787,那曲市,那曲市委宣传部,颗粒物(PM10),68,86,40,28,19,26,,108,78,42,15,5,5,0.9,0.5
2025-09-13T0000,1290A,115.8931,28.6843,南昌市,省外办,,24,24,26,14,18,33,,71,51,9,9,7,7,0.8,0.8
2025-09-13T0000,1291A,115.8886,28.7003,南昌市,省林业公司,,17,17,24,9,14,42,,94,62,13,15,6,6,0.6,0.7
2025-09-13T0000,1292A,115.8126,28.7442,南昌市,林科所,,24,24,20,7,10,9,,96,36,48,23,6,6,0.5,0.5
2025-09-13T0000,1294A,115.8518,28.687,南昌市,建工学校,,25,25,30,3,2,39,,93,62,26,25,8,10,0.7,0.8
2025-09-13T0000,1295A,115.8921,28.6424,南昌市,象湖,,18,18,20,12,11,39,,101,69,24,18,12,11,0.7,0.7
2025-09-13T0000,1296A,115.7423,28.7996,南昌市,武术学校,,19,14,16,13,12,7,,72,14,7,7,9,10,0.1,0.6
2025-09-13T0000,3046A,115.9084,28.6062,南昌市,机电学校,,33,33,31,9,14,26,,102,63,33,21,9,9,0.5,0.5
2025-09-13T0000,3690A,115.9721,28.7031,南昌市,外国语学校,,44,44,30,22,13,15,,93,59,46,17,5,9,0.5,0.4
2025-09-13T0000,4192A,115.9316,28.68677,南昌市,南京东路235号,,40,40,32,17,14,49,,102,68,20,17,13,13,0.9,0.8
2025-09-13T0000,1905A,106.056,30.8064,南充市,西山风景区,,,,,,,,,,,,,,,,
2025-09-13T0000,1906A,106.0789,30.8023,南充市,南充市委,,14,14,9,9,5,36,,52,45,14,10,5,3,0.4,0.4
2025-09-13T0000,1907A,106.1031,30.8217,南充市,南充炼油厂,,29,29,16,10,5,24,,50,40,13,6,5,5,0.2,0.2
2025-09-13T0000,4227A,106.1083,30.7884,南充市,梨树横街98号,,14,11,9,3,8,42,,60,51,16,8,3,2,0.3,0.2
2025-09-13T0000,4304A,106.1172,30.843,南充市,清泉寺北路188号,,16,16,11,7,5,30,,52,44,8,5,4,4,0.3,0.2
2025-09-13T0000,4305A,106.067,30.7616,南充市,同庆路1号,,14,10,7,3,4,42,,59,54,16,8,6,4,0.3,0.3
2025-09-13T0000,1151A,118.8086,32.1065,南京市,迈皋桥,,17,11,23,3,14,53,,109,54,4,9,4,4,0.6,0.6
2025-09-13T0000,1152A,118.7538,32.0551,南京市,草场门,,18,,29,12,15,41,,104,48,13,16,2,4,0.6,0.7
2025-09-13T0000,1153A,118.7794,32.0745,南京市,山西路,,17,17,32,9,10,48,,114,55,21,14,5,4,0.6,0.6
2025-09-13T0000,1154A,118.7752,32.0023,南京市,中华门,,14,6,22,3,12,43,,101,47,17,13,4,4,0.5,0.6
2025-09-13T0000,1155A,118.8109,32.0309,南京市,瑞金路,,13,9,25,3,14,41,,102,46,16,12,7,7,0.4,0.4
2025-09-13T0000,1156A,118.7997,32.0754,南京市,玄武湖,,18,18,31,3,8,36,,106,46,7,10,3,4,0.4,0.4
2025-09-13T0000,1157A,118.6414,32.0931,南京市,浦口,,16,14,30,3,12,51,,99,53,10,16,5,7,0,0.4
2025-09-13T0000,1158A,118.7356,31.9996,南京市,奥体中心,,20,20,30,7,15,45,,114,56,13,14,5,6,0.5,0.5
2025-09-13T0000,1159A,118.9125,32.1028,南京市,仙林大学城,,24,24,35,9,10,20,,114,44,26,16,10,9,1.2,0.8
2025-09-13T0000,3422A,118.8436,31.9198,南京市,江宁彩虹桥,,,,32,7,16,42,,121,55,12,20,5,5,0.6,0.7
2025-09-13T0000,3427A,118.8554,32.3578,南京市,六合雄州,,28,28,33,8,13,55,,105,55,9,15,5,6,0.6,0.7
2025-09-13T0000,4249A,118.8708,31.3402,南京市,汶溪路181号,,27,27,27,3,20,50,,112,71,13,13,7,7,0.9,0.7
2025-09-13T0000,4312A,119.019,31.6512,南京市,中山西路1号,,17,17,24,7,15,36,,107,54,14,16,4,4,0.7,0.5
2025-09-13T0000,1401A,108.3103,22.7881,南宁市,二十一中,,18,18,22,9,9,33,,52,48,18,14,7,5,0.4,0.5
2025-09-13T0000,1402A,108.3141,22.8528,南宁市,北湖,,23,,21,16,10,43,,63,56,12,13,4,4,0.5,0.5
2025-09-13T0000,1403A,108.3206,22.8225,南宁市,市监测站,,18,18,21,12,10,37,,53,49,11,12,5,5,0.4,0.5
2025-09-13T0000,1404A,108.3829,22.8037,南宁市,大自然花园,,17,17,19,10,8,45,,63,59,8,9,6,5,0.5,0.5
2025-09-13T0000,1405A,108.4394,22.7904,南宁市,仙葫,,24,24,19,15,10,34,,67,61,20,10,5,5,0.6,0.5
2025-09-13T0000,1406A,108.2397,22.8467,南宁市,区农职院,,18,18,22,10,8,37,,57,42,15,16,9,9,0.7,0.4
2025-09-13T0000,1407A,108.3275,22.735,南宁市,英华嘉园,,31,31,25,13,14,23,,48,41,30,16,4,2,0.4,0.4
2025-09-13T0000,3401A,108.4834,22.7618,南宁市,红星社区,,20,20,19,14,10,36,,63,60,14,12,4,3,0.4,0.4
2025-09-13T0000,4221A,108.2177,22.7774,南宁市,乐贤路16号,,32,32,27,13,12,5,,41,21,44,17,6,6,0.5,0.6
2025-09-13T0000,2331A,118.0966,26.6761,南平市,茫荡山,,,,13,,9,,,72,65,,,,3,,0.3
2025-09-13T0000,2332A,118.1681,26.6369,南平市,南平市监测站,,20,19,19,14,13,10,,84,48,27,14,4,5,0.6,0.5
2025-09-13T0000,2333A,118.1825,26.6489,南平市,南平铝业有限公司,,24,24,21,7,12,44,,89,56,16,16,4,6,0.7,0.6
2025-09-13T0000,2334A,118.1756,26.6272,南平市,南平七中,,18,18,23,10,11,19,,86,52,18,11,3,4,0.5,0.5
2025-09-13T0000,1168A,120.9098,31.9663,南通市,狼山街道,,30,29,28,21,17,16,,161,64,42,24,4,5,0.8,0.7
2025-09-13T0000,1169A,120.86,32.0005,南通市,虹桥,,45,45,29,30,19,31,,170,75,48,25,6,4,1.1,0.8
2025-09-13T0000,1170A,120.87,32.02,南通市,城中,,46,46,35,23,18,40,,157,68,39,24,6,3,0.8,0.6
2025-09-13T0000,1171A,120.94,31.93,南通市,星湖花园,,19,18,26,13,16,29,,144,,32,20,4,4,0.4,0.4
2025-09-13T0000,1172A,120.81,32.0417,南通市,紫琅学院,,29,29,30,19,16,44,,142,59,27,30,5,5,0.9,0.8
2025-09-13T0000,3291A,121.067,32.062,南通市,通州监测站,,39,39,28,27,17,24,,167,78,54,19,3,2,1.1,0.8
2025-09-13T0000,3432A,120.9348,31.9883,南通市,环境教育馆,,34,34,36,19,17,36,,174,86,35,23,4,5,0.5,0.4
2025-09-13T0000,2404A,112.5224,33.0122,南阳市,瓦房庄,,43,43,24,22,9,58,,91,74,13,6,7,7,0.6,0.4
2025-09-13T0000,2405A,112.5003,32.9735,南阳市,汉画馆,,40,40,19,26,8,25,,84,58,36,10,8,8,0.6,0.5
2025-09-13T0000,2406A,112.5573,33.027,南阳市,气象站,,33,33,14,17,8,72,,96,81,10,6,5,5,0.7,0.6
2025-09-13T0000,2407A,112.5481,32.9689,南阳市,理工学院,,43,43,22,9,7,46,,92,68,22,9,10,8,0.7,0.5
2025-09-13T0000,4008A,112.5234,32.9922,南阳市,卧龙区政府,颗粒物(PM10),75,99,22,30,12,36,,88,69,28,11,7,6,0.7,0.6
2025-09-13T0000,1234A,121.8358,29.911,宁波市,区环保大楼,,29,29,30,10,12,49,,109,64,13,18,5,5,0.5,0.5
2025-09-13T0000,1235A,121.56,29.82,宁波市,万里学院,,21,21,26,12,14,50,,117,86,13,10,7,7,0.6,0.6
2025-09-13T0000,1236A,121.713,29.9572,宁波市,龙赛医院,,24,24,28,10,12,33,,113,67,24,17,5,6,0.4,0.4
2025-09-13T0000,1239A,121.633,29.7733,宁波市,钱湖水厂,,16,16,19,8,12,42,,106,82,8,4,5,6,0.5,0.5
2025-09-13T0000,1240A,121.5856,29.8635,宁波市,太古小学,,22,22,25,10,15,50,,118,78,12,9,3,2,0.6,0.6
2025-09-13T0000,1241A,121.524,29.8674,宁波市,市环境监测中心,,26,26,28,14,15,43,,116,79,14,10,6,7,0.6,0.6
2025-09-13T0000,2871A,121.6147,29.9017,宁波市,万里国际学校,,21,21,28,11,15,48,,122,82,17,9,4,4,0.6,0.5
2025-09-13T0000,3710A,121.5594,29.8975,宁波市,白沙活动中心,,17,17,21,10,10,48,,123,83,18,13,8,7,0.5,0.5
2025-09-13T0000,2339A,119.5001,26.6946,宁德市,金涵水库,,,,19,,13,,,73,24,,3,,1,,0.5
2025-09-13T0000,2341A,119.5388,26.6612,宁德市,宁德市监测站,,21,21,22,14,14,33,,121,56,17,9,4,4,0.9,0.7
2025-09-13T0000,3209A,119.5231,26.6562,宁德市,宁德一中,,26,26,23,17,17,36,,124,54,7,7,4,4,0.6,0.5
2025-09-13T0000,2618A,98.8601,25.8567,怒江傈僳族自治州,州监测站,,22,22,25,12,14,38,,66,56,8,9,7,7,0.4,0.4
2025-09-13T0000,2619A,98.8546,25.8417,怒江傈僳族自治州,泸水一中,,18,15,20,12,12,24,,54,40,11,11,4,4,0.5,0.5
2025-09-13T0000,1888A,101.6891,26.571,攀枝花市,弄弄坪,,16,15,41,3,17,49,,31,31,6,22,4,7,0.5,0.8
2025-09-13T0000,1889A,101.5769,26.5928,攀枝花市,河门口,,29,29,34,15,16,6,,28,21,26,16,15,12,1.2,0.9
2025-09-13T0000,1890A,101.7169,26.585,攀枝花市,炳草岗,,21,21,42,8,16,30,,23,22,17,27,5,10,0.7,0.8
2025-09-13T0000,1891A,101.7369,26.5008,攀枝花市,仁和,,13,9,27,3,15,40,,32,28,7,18,8,12,0.5,0.7
2025-09-13T0000,2835A,101.7227,26.567,攀枝花市,四十中小,,20,20,28,10,15,47,,37,37,5,19,10,21,0.7,0.7
2025-09-13T0000,1604A,122.0303,41.1489,盘锦市,开发区,细颗粒物(PM2.5),54,44,30,38,25,15,,125,73,64,18,8,9,0.8,0.6
2025-09-13T0000,1605A,122.0485,41.0883,盘锦市,兴隆台,,49,42,35,34,21,24,,130,66,69,29,8,8,0.5,0.4
2025-09-13T0000,1606A,121.8297,41.1028,盘锦市,新生街道,,33,26,28,23,19,25,,125,67,38,16,4,5,0.5,0.5
2025-09-13T0000,1832A,113.3257,33.742,平顶山市,新华旅馆,颗粒物(PM10),54,58,28,23,13,12,,89,52,38,11,5,5,0.6,0.4
2025-09-13T0000,1833A,113.2919,33.737,平顶山市,规划设计院,,45,45,26,28,18,26,,85,56,32,12,4,4,0.7,0.6
2025-09-13T0000,1834A,113.182,33.774,平顶山市,平顶山工学院,,35,35,24,22,14,47,,89,69,15,10,6,6,0.4,0.4
2025-09-13T0000,3204A,113.3025,33.73,平顶山市,规划局,,46,46,27,25,14,33,,88,60,29,12,4,4,0.6,0.5
2025-09-13T0000,3594A,112.8867,33.9116,平顶山市,石龙区,,50,50,26,25,19,20,,94,72,37,11,5,5,0.6,0.5
2025-09-13T0000,2656A,106.6692,35.5461,平凉市,聚贤嘉苑,,30,29,36,21,16,11,,88,55,42,17,9,17,0.8,0.8
2025-09-13T0000,2657A,106.7021,35.5307,平凉市,博物馆,,45,45,42,18,13,38,,89,59,20,16,10,9,0.6,0.7
2025-09-13T0000,2347A,114.0997,27.5002,萍乡市,武功山,,12,12,8,3,4,19,,53,29,4,3,11,11,0.5,0.4
2025-09-13T0000,2348A,113.8385,27.6434,萍乡市,中医院,,16,16,26,8,14,28,,75,53,20,15,3,12,0.7,0.6
2025-09-13T0000,2349A,113.8493,27.6253,萍乡市,市政府车库,,28,,23,19,20,44,,76,54,6,10,10,17,0.3,0.7
2025-09-13T0000,2350A,113.8676,27.6435,萍乡市,市环保局,,34,34,27,14,17,29,,73,47,18,15,8,18,0.6,0.5
2025-09-13T0000,2351A,113.866,27.6198,萍乡市,安源区政府,,25,25,27,17,16,16,,75,49,23,15,12,18,0.6,0.6
2025-09-13T0000,2319A,119.0141,25.4325,莆田市,荔城区仓后路,,28,28,36,18,21,48,,148,82,18,17,9,8,0.6,0.6
2025-09-13T0000,2320A,119.0015,25.4553,莆田市,莆田市监测站,,29,,33,20,21,44,,151,88,15,14,6,7,0.6,0.5
2025-09-13T0000,2321A,119.1119,25.4561,莆田市,涵江区六中,,30,29,34,21,18,47,,156,79,21,16,8,6,0.4,0.5
2025-09-13T0000,2322A,119.1013,25.3215,莆田市,秀屿区政府,,20,12,28,3,14,61,,145,77,10,12,6,8,0.4,0.4
2025-09-13T0000,2323A,118.981,25.4792,莆田市,东圳水库,,,,31,,16,,,147,103,,10,,6,,0.8
2025-09-13T0000,2392A,115.0312,35.7636,濮阳市,环保局,,46,46,28,32,22,64,,116,94,22,12,8,6,0.7,0.6
2025-09-13T0000,2394A,115.0574,35.7609,濮阳市,油田运输公司,颗粒物(PM10),54,57,38,27,20,75,,122,100,21,11,8,5,0.8,0.7
2025-09-13T0000,3021A,115,35.7668,濮阳市,濮水河管理处,,39,39,31,24,15,17,,100,60,20,14,4,4,0.5,0.5
2025-09-13T0000,4216A,115.0924,35.7686,濮阳市,任丘路479号,颗粒物(PM10),57,63,43,34,22,52,,113,82,25,13,7,6,0.8,0.7
2025-09-13T0000,2601A,100.98,22.7633,普洱市,市环保局,,36,36,23,7,13,3,,31,16,12,5,7,7,0.8,0.6
2025-09-13T0000,2602A,100.9817,22.8322,普洱市,普洱第二中学,,43,43,23,18,17,4,,33,18,10,5,6,6,0.5,0.4
2025-09-13T0000,2262A,131.0518,45.8751,七台河市,新一中,颗粒物(PM10),53,56,29,32,16,24,,102,65,32,15,10,10,0.9,0.9
2025-09-13T0000,3345A,131.0577,45.7879,七台河市,中波台,,50,50,46,7,8,18,,68,44,38,20,7,7,0.9,0.7
2025-09-13T0000,3637A,131.0176,45.7761,七台河市,人民广场,,44,44,37,23,16,48,,87,55,20,14,11,12,0.7,0.7
2025-09-13T0000,3684A,130.8781,45.8222,七台河市,新建矿广场,,24,24,32,13,9,18,,80,48,32,19,13,10,0.9,0.6
2025-09-13T0000,1779A,123.9305,47.3636,齐齐哈尔市,安居小区,,37,37,30,19,13,16,,57,33,28,14,5,5,0.6,0.6
2025-09-13T0000,1780A,123.9488,47.3386,齐齐哈尔市,中心广场,,30,30,21,7,5,25,,60,38,25,15,6,5,0.5,0.5
2025-09-13T0000,1781A,123.9483,47.3227,齐齐哈尔市,农牧车辆厂,,34,34,29,12,9,18,,58,35,24,14,5,4,0.5,0.5
2025-09-13T0000,1783A,123.945,47.2988,齐齐哈尔市,市环境监测站,,19,19,20,12,9,28,,61,39,17,11,7,6,0.3,0.4
2025-09-13T0000,3662A,123.6333,47.2075,齐齐哈尔市,富区青少年活动中心,细颗粒物(PM2.5),67,82,43,48,16,19,,55,37,25,13,10,6,1.1,0.6
2025-09-13T0000,2591A,107.9783,26.5747,黔东南苗族侗族自治州,市环境监测站,,19,,8,13,13,43,,42,42,2,2,2,2,0.3,0.4
2025-09-13T0000,2881A,107.8908,26.5311,黔东南苗族侗族自治州,凯里学院,,15,7,5,6,6,48,,49,44,5,6,6,6,0.3,0.3
2025-09-13T0000,2593A,107.5228,26.2403,黔南布依族苗族自治州,小围寨,,12,6,6,3,1,36,,41,37,3,2,3,2,0.3,0.3
2025-09-13T0000,3538A,107.5175,26.2978,黔南布依族苗族自治州,沙坝,,14,14,12,7,4,38,,46,38,4,4,5,4,0.3,0.3
2025-09-13T0000,2589A,104.9022,25.0925,黔西南布依族苗族自治州,场坝街,,15,15,16,6,7,43,,44,43,4,5,5,5,0.3,0.3
2025-09-13T0000,2590A,104.8811,25.0992,黔西南布依族苗族自治州,坪东大道,,27,27,20,11,8,42,,43,42,3,4,2,2,0.5,0.5
2025-09-13T0000,2502A,108.6236,21.9667,钦州市,市环保站,,39,39,14,17,5,11,,65,39,30,12,5,3,0.5,0.4
2025-09-13T0000,2503A,108.6549,21.9481,钦州市,沙埠小学,,,44,22,11,11,3,,63,29,,11,1,2,0.6,0.5
2025-09-13T0000,2504A,108.5989,21.7431,钦州市,港区一小,颗粒物(PM10),54,58,28,8,10,2,,58,27,35,20,4,4,0.4,0.5
2025-09-13T0000,3404A,108.5959,21.9633,钦州市,北职校,,31,31,22,14,8,4,,74,34,27,14,5,5,0.5,0.5
2025-09-13T0000,1043A,119.7493,40.0116,秦皇岛市,第一关,颗粒物(PM10),57,64,43,23,21,5,,147,42,82,46,8,6,0.4,0.3
2025-09-13T0000,1044A,119.5897,39.9499,秦皇岛市,监测站,,43,43,47,10,11,45,,143,78,37,37,5,7,0.3,0.4
2025-09-13T0000,1046A,119.5251,39.9041,秦皇岛市,建设大厦,,50,50,56,15,10,30,,140,69,37,30,6,9,0.3,0.4
2025-09-13T0000,3132A,119.610547,39.943889,秦皇岛市,文明里,,45,45,48,16,12,51,,143,90,32,31,7,8,0.3,0.3
2025-09-13T0000,4198A,119.5090,39.8253,秦皇岛市,北戴河轮滑馆,颗粒物(PM10),53,55,51,20,15,7,,140,84,60,24,7,3,0.4,0.4
2025-09-13T0000,1307A,120.6659,36.2403,青岛市,仰口,,23,9,12,3,4,72,,91,82,6,6,10,10,0.6,0.6
2025-09-13T0000,1310A,120.4134,36.0658,青岛市,市南区东部子站,,23,6,9,3,6,72,,113,80,10,12,6,6,0.2,0.2
2025-09-13T0000,1311A,120.3664,36.1032,青岛市,四方区子站,,24,9,15,3,8,74,,99,75,4,11,2,3,0.2,0.2
2025-09-13T0000,1312A,120.2994,36.054,青岛市,市南区西部子站,,26,7,11,7,6,82,,112,84,8,18,6,6,0.5,0.5
2025-09-13T0000,1313A,120.4581,36.0858,青岛市,崂山区子站,,22,6,6,3,2,68,,102,80,8,11,8,8,0.2,0.2
2025-09-13T0000,1315A,120.3999,36.3083,青岛市,城阳区子站,,25,,13,10,8,78,,95,84,6,14,3,3,0.3,0.3
2025-09-13T0000,1966A,120.0405,35.8735,青岛市,黄岛区4号,,,,,,,,,,,,,,,,
2025-09-13T0000,3362A,120.5014,36.4034,青岛市,即墨2号,,25,,16,7,13,78,,98,86,4,10,4,4,0.2,0.2
2025-09-13T0000,3642A,120.3503,36.0736,青岛市,市北区南部,,21,9,16,3,6,65,,94,65,12,17,7,6,0.6,0.7
2025-09-13T0000,3643A,120.3948,36.1805,青岛市,李沧区北部,,22,,6,12,9,69,,93,72,5,11,5,5,0.2,0.3
2025-09-13T0000,4290A,120.1969,35.9546,青岛市,珠江路669号,,18,7,7,7,6,55,,107,53,19,27,6,6,0.4,0.3
2025-09-13T0000,1702A,113.0426,23.691,清远市,环保大楼,,38,38,31,17,17,61,,112,83,18,17,8,12,0.7,0.6
2025-09-13T0000,1703A,113.0208,23.7106,清远市,凤城街办,,27,27,21,14,13,50,,103,76,20,20,8,11,0.5,0.5
2025-09-13T0000,3025A,113.0477,23.6344,清远市,技师学院,,44,44,30,25,17,43,,123,93,45,21,9,10,0.5,0.4
2025-09-13T0000,3318A,112.9903,23.7403,清远市,清新太和,,,31,21,16,11,66,,83,75,18,16,5,6,,0.5
2025-09-13T0000,3455A,113.076,23.7198,清远市,清城东城,,21,21,26,8,14,61,,114,81,12,15,8,8,0.6,0.5
2025-09-13T0000,2661A,107.6325,35.7357,庆阳市,庆阳五中,,22,22,19,11,8,50,,76,67,8,8,8,7,0.5,0.5
2025-09-13T0000,2662A,107.6364,35.7067,庆阳市,市环保局,,24,24,19,16,12,51,,78,70,7,7,4,4,0.5,0.6
2025-09-13T0000,1916A,103.7897,25.5035,曲靖市,环境监测站,,,24,21,18,9,,,71,62,17,10,7,4,0.4,0.4
2025-09-13T0000,1917A,103.8,25.5364,曲靖市,烟厂办公区,,24,24,19,9,9,31,,50,42,13,7,4,4,0.5,0.4
2025-09-13T0000,3376A,103.7947,25.462,曲靖市,南苑二区,,26,26,16,10,9,28,,47,41,15,7,5,4,0.7,0.6
2025-09-13T0000,3377A,103.7444,25.5261,曲靖市,曲靖师范学院,,19,19,14,12,8,33,,54,46,11,7,5,1,0.4,0.3
2025-09-13T0000,1264A,118.8692,28.9398,衢州市,环保大楼,,30,30,23,16,12,36,,76,49,16,11,4,4,0.3,0.4
2025-09-13T0000,1265A,118.8709,28.9666,衢州市,实验学校,,34,34,21,17,11,14,,82,47,32,15,6,5,0.3,0.3
2025-09-13T0000,1266A,118.8621,28.9808,衢州市,衢州学院,,29,29,20,17,11,5,,82,43,40,18,4,4,0.4,0.3
2025-09-13T0000,1611A,118.5819,24.9117,泉州市,涂山街,,32,32,39,12,20,24,,165,70,34,20,5,5,0.6,0.6
2025-09-13T0000,1612A,118.5972,24.8978,泉州市,津头埔,,38,38,36,9,20,27,,164,69,26,18,6,5,0.5,0.5
2025-09-13T0000,1613A,118.6663,24.9424,泉州市,万安,,29,29,38,9,19,17,,158,65,30,18,3,3,0.5,0.5
2025-09-13T0000,1614A,118.6117,24.9604,泉州市,清源山,,,,25,,15,,,164,92,,8,,2,,0.4
2025-09-13T0000,3529A,118.6333,24.9264,泉州市,城华南路,,23,23,33,11,20,20,,152,60,26,16,4,4,0.4,0.4
2025-09-13T0000,2626A,88.8876,29.2718,日喀则市,日喀则监测站,,26,6,3,3,1,82,,104,93,8,4,11,11,0.2,0.2
2025-09-13T0000,3726A,88.8781,29.2426,日喀则市,林业技术推广中心,,24,6,4,3,0,75,,102,92,2,3,5,5,0.1,0.1
2025-09-13T0000,1659A,119.471,35.4209,日照市,监测站,,23,6,5,3,5,72,,93,77,11,16,6,6,0.4,0.5
2025-09-13T0000,1660A,119.523,35.4216,日照市,市政府广场,,24,,5,6,4,74,,105,79,8,12,4,5,0.6,0.7
2025-09-13T0000,1661A,119.5587,35.4044,日照市,港务局,,25,,6,17,13,79,,110,83,4,9,3,3,0.5,0.6
2025-09-13T0000,3507A,119.5328,35.4625,日照市,职业技术学院,,24,9,6,3,3,74,,103,82,5,9,4,5,0.6,0.7
2025-09-13T0000,3604A,119.3266,35.1044,日照市,岚山环保分局,,16,6,10,3,5,51,,114,67,25,16,7,12,0.5,1.3
2025-09-13T0000,1835A,111.1922,34.7752,三门峡市,市政府,,28,28,19,13,9,8,,100,62,36,13,9,7,0.4,0.3
2025-09-13T0000,1836A,111.1587,34.7942,三门峡市,开发区,,34,34,17,18,12,18,,95,60,27,13,5,5,0.4,0.4
2025-09-13T0000,1838A,111.143,34.7955,三门峡市,风景区,,22,22,17,9,11,18,,105,66,16,7,4,5,0.5,0.5
2025-09-13T0000,3039A,111.1911,34.7829,三门峡市,三门峡市第一小学,,22,22,23,6,11,24,,97,68,23,9,7,6,0.5,0.4
2025-09-13T0000,3598A,111.1,34.7167,三门峡市,富达温泉假日酒店,,33,33,19,14,10,12,,100,56,25,11,5,5,0.3,0.3
2025-09-13T0000,2324A,117.6211,26.2625,三明市,三钢,,24,24,22,12,12,12,,73,31,22,15,3,7,1.0,1.3
2025-09-13T0000,2325A,117.635,26.2714,三明市,三明二中,,29,21,25,20,12,9,,71,25,21,12,3,4,1.0,0.8
2025-09-13T0000,2326A,117.6028,26.2378,三明市,三元区政府,,20,20,24,14,12,16,,80,30,16,12,3,3,0.4,0.5
2025-09-13T0000,2327A,117.7275,26.3108,三明市,洋溪,,,,20,,11,,,85,42,,10,,5,,1.1
2025-09-13T0000,1876A,109.5078,18.2489,三亚市,河东子站,,20,20,14,6,9,26,,40,31,6,7,2,2,0.6,0.6
2025-09-13T0000,1877A,109.4964,18.2681,三亚市,河西子站,,14,14,15,6,7,26,,44,32,5,7,4,4,0.5,0.5
2025-09-13T0000,3540A,109.7348,18.3443,三亚市,君悦子站,,10,,2,7,5,29,,46,37,6,5,3,3,0.3,0.4
2025-09-13T0000,2624A,91.7608,29.2313,山南市,山南监测站,,27,6,7,3,4,86,,100,95,6,7,3,3,0.2,0.3
2025-09-13T0000,2625A,91.7706,29.2436,山南市,山南人民医院,,28,9,10,3,6,88,,101,96,4,5,3,3,0.2,0.3
2025-09-13T0000,1674A,116.6794,23.3667,汕头市,金平子站,,18,6,21,6,9,56,,81,56,8,12,2,4,0.5,0.6
2025-09-13T0000,1675A,116.7244,23.3633,汕头市,龙湖子站,,17,13,15,3,6,53,,77,59,7,9,7,8,0.6,0.6
2025-09-13T0000,1676A,116.7258,23.2775,汕头市,濠江子站,,19,,17,13,9,51,,74,63,7,8,7,6,0.7,0.7
2025-09-13T0000,1677A,116.7519,23.4714,汕头市,澄海子站,,15,11,25,7,12,46,,95,46,10,14,5,6,0.7,0.8
2025-09-13T0000,1678A,116.6092,23.2539,汕头市,潮阳子站,,18,,16,6,8,55,,66,62,3,4,5,5,0.5,0.5
2025-09-13T0000,3444A,116.454,23.2684,汕头市,潮南峡山,,16,16,23,9,16,42,,82,53,11,9,10,7,0.5,0.5
2025-09-13T0000,3624A,116.4069,23.2533,汕头市,潮南子站,,15,12,33,3,17,45,,77,49,6,10,4,5,0.6,0.6
2025-09-13T0000,1693A,115.3653,22.775,汕尾市,市环保局,,16,,11,6,6,49,,63,57,6,7,3,3,0.4,0.4
2025-09-13T0000,1694A,115.3706,22.7898,汕尾市,市政府,,16,7,12,3,7,51,,63,59,6,7,4,4,0.4,0.4
2025-09-13T0000,1695A,115.3622,22.7925,汕尾市,新城中学,,19,16,12,13,8,36,,63,57,10,8,5,5,0.5,0.4
2025-09-13T0000,2645A,109.9154,33.8715,商洛市,监测站,,23,23,13,8,7,18,,81,44,21,11,16,6,0.6,0.6
2025-09-13T0000,3045A,109.9643,33.8471,商洛市,商州区中学,,21,21,20,3,5,17,,79,36,22,13,15,9,0.4,0.4
2025-09-13T0000,2408A,115.6702,34.4285,商丘市,环境监测站,,47,47,18,19,10,50,,88,63,18,10,3,3,0.5,0.5
2025-09-13T0000,2409A,115.6458,34.4045,商丘市,粮食局,,30,30,16,13,7,40,,87,58,25,13,4,4,0.3,0.3
2025-09-13T0000,2410A,115.6293,34.3948,商丘市,睢阳区环保局,,43,43,19,19,11,31,,87,52,20,10,4,4,0.4,0.3
2025-09-13T0000,3171A,115.6071,34.4465,商丘市,梁园区档案局,,29,29,12,16,11,48,,81,60,14,10,4,4,0.7,0.6
2025-09-13T0000,1141A,121.4,31.238,上海市,普陀,,,39,36,24,18,111,,147,,,16,6,6,0.6,0.5
2025-09-13T0000,1142A,121.478,31.2036,上海市,十五厂,,40,39,45,28,23,108,,158,123,21,20,8,9,0.8,0.8
2025-09-13T0000,1143A,121.467,31.3008,上海市,虹口,,43,43,38,27,20,112,,136,114,17,14,7,6,0.3,0.3
2025-09-13T0000,1147A,121.425,31.2261,上海市,静安监测站,,37,37,40,25,20,117,,154,132,22,16,4,4,0.8,0.8
2025-09-13T0000,1148A,121.703,31.1907,上海市,浦东川沙,,47,47,37,20,18,78,,140,122,20,15,7,7,0.8,0.7
2025-09-13T0000,1149A,121.533,31.2284,上海市,浦东新区监测站,,,42,37,29,19,104,,165,139,21,15,6,5,,0.7
2025-09-13T0000,1150A,121.577,31.2071,上海市,浦东张江,颗粒物(PM10),53,56,47,29,19,93,,169,134,33,19,6,6,0.8,0.7
2025-09-13T0000,3265A,121.4316,31.3322,上海市,宝山庙行,,47,47,39,26,18,118,,146,116,18,15,8,8,0.5,0.5
2025-09-13T0000,3266A,121.8791,31.4662,上海市,崇明上实东滩,,37,37,29,21,17,117,,164,121,14,11,5,5,0.4,0.4
2025-09-13T0000,3268A,121.3162,31.2838,上海市,嘉定南翔,,,52,40,27,18,,,134,,38,21,4,4,0.3,0.3
2025-09-13T0000,3269A,121.3359,30.7456,上海市,金山新城,,43,43,36,25,20,67,,164,124,22,10,4,4,0.9,0.8
2025-09-13T0000,3270A,121.4996,31.0739,上海市,闵行浦江,,34,34,40,20,20,96,,158,127,19,17,4,5,0.9,1
2025-09-13T0000,3271A,121.2886,31.1663,上海市,青浦徐泾,,38,35,35,26,18,89,,143,105,27,15,8,7,0.7,0.7
2025-09-13T0000,3272A,121.2186,31.0378,上海市,松江图书馆,,36,31,33,25,22,81,,152,109,23,19,4,5,0.7,0.6
