timepoint,stationcode,longitude,latitude,area,positionname,primarypollutant,aqi,pm10,pm10_24h,pm2_5,pm2_5_24h,o3,o3_24h,o3_8h,o3_8h_24h,no2,no2_24h,so2,so2_24h,co,co_24h
2025-09-13T1200,2566A,102.1879,31.914,阿坝藏族羌族自治州,州农科所,,28,28,20,8,8,53,,31,31,5,5,3,2,0.2,0.2
2025-09-13T1200,2568A,102.2502,31.8896,阿坝藏族羌族自治州,马师校,,16,12,21,7,17,49,,21,21,6,6,8,8,0.5,0.4
2025-09-13T1200,3994A,102.2165,31.9024,阿坝藏族羌族自治州,马尔康中学西区,,34,34,38,6,15,49,,27,27,6,3,9,9,0.4,0.4
2025-09-13T1200,2695A,80.292,41.1694,阿克苏地区,电视台,颗粒物(PM10),151,251,253,79,82,48,,53,53,21,24,5,6,0.6,0.9
2025-09-13T1200,2696A,80.2613,41.1551,阿克苏地区,艺术中心,颗粒物(PM10),130,210,232,66,84,56,,55,55,15,26,4,4,0.4,0.6
2025-09-13T1200,2204A,105.6467,38.8363,阿拉善盟,西城区西花园,颗粒物(PM10),57,64,78,18,25,62,,62,60,7,12,8,9,0.7,0.8
2025-09-13T1200,2205A,105.6985,38.8411,阿拉善盟,蒙二幼,颗粒物(PM10),69,88,88,20,27,105,,105,103,4,8,8,9,0.4,0.4
2025-09-13T1200,2206A,105.724,38.8516,阿拉善盟,环保局新楼,颗粒物(PM10),63,75,78,20,24,102,,111,107,4,6,7,8,0.3,0.4
2025-09-13T1200,2708A,88.1264,47.8517,阿勒泰地区,市站,颗粒物(PM10),142,234,54,3,7,62,,41,41,14,14,3,3,0.3,0.3
2025-09-13T1200,2630A,80.1161,32.5,阿里地区,阿里监测站,,26,6,3,3,2,82,,44,44,7,19,5,5,0.3,0.3
2025-09-13T1200,3192A,80.0903,32.5028,阿里地区,阿里藏医院,,28,25,18,7,5,88,,62,60,6,8,7,7,0.1,0.2
2025-09-13T1200,2642A,109.0318,32.6537,安康市,香溪洞,,16,16,9,3,3,46,,25,25,7,6,6,6,0.6,0.6
2025-09-13T1200,2644A,109.0072,32.6975,安康市,汉滨区检察院,,17,7,18,6,6,53,,15,15,3,7,3,4,0.5,0.6
2025-09-13T1200,4054A,109.0325,32.6913,安康市,市邮政管理局,,,14,20,,5,51,,20,20,5,11,5,6,0.6,0.8
2025-09-13T1200,2291A,117.0809,30.5177,安庆市,环科院,,24,24,20,13,11,66,,56,56,4,8,5,5,0.6,0.6
2025-09-13T1200,2292A,117.0331,30.5119,安庆市,马山宾馆,,,18,20,12,15,59,,53,53,8,12,4,4,,0.7
2025-09-13T1200,2294A,116.9896,30.6145,安庆市,安庆大学,,18,16,20,9,12,56,,56,56,6,9,3,4,0.5,0.4
2025-09-13T1200,3173A,117.0598,30.5351,安庆市,市人大,,20,19,20,12,11,64,,57,57,9,9,5,5,0.6,0.5
2025-09-13T1200,3122A,105.9606,26.2611,安顺市,伍家关,,,,13,5,7,54,,50,50,9,5,7,6,0.6,0.5
2025-09-13T1200,3123A,105.9408,26.2431,安顺市,凤凰山,,16,8,12,3,8,50,,48,48,14,7,7,7,0.4,0.4
2025-09-13T1200,3124A,105.9439,26.2564,安顺市,金钟山,,18,6,11,3,8,57,,53,53,8,5,7,7,0.5,0.5
2025-09-13T1200,3125A,105.8983,26.2481,安顺市,娄家坡,,17,6,8,3,7,54,,47,47,5,3,5,6,0.6,0.5
2025-09-13T1200,1818A,114.4839,36.0621,安阳市,棉研所,,,,,,,,,,,,,,,,
2025-09-13T1200,1819A,114.3551,36.1017,安阳市,红庙街,颗粒物(PM10),53,56,44,27,20,122,,64,64,16,24,8,6,0.6,0.6
2025-09-13T1200,1820A,114.361,36.0681,安阳市,银杏小区,颗粒物(PM10),55,59,44,38,27,132,,66,66,14,25,11,8,0.8,0.7
2025-09-13T1200,3141A,114.3922,36.0878,安阳市,信访局,,,72,39,20,17,136,,60,60,,24,,6,0.8,0.6
2025-09-13T1200,3669A,114.4705,36.0637,安阳市,左辅环卫站,颗粒物(PM10),54,57,50,29,24,137,,54,54,11,25,8,6,0.7,0.4
2025-09-13T1200,3703A,114.2917,36.0949,安阳市,安钢职工学校,颗粒物(PM10),55,59,47,23,23,122,,68,68,11,16,7,5,0.8,0.6
2025-09-13T1200,1748A,123.044,41.1196,鞍山市,深沟寺,,40,32,34,19,21,128,,68,68,9,15,9,7,0.8,0.8
2025-09-13T1200,1749A,123.011,41.0931,鞍山市,太阳城,,40,25,38,14,25,127,,71,71,7,17,9,8,0.6,0.8
2025-09-13T1200,1750A,123.0485,41.1442,鞍山市,太平,,40,38,54,16,25,128,,69,69,12,22,10,9,0.7,0.8
2025-09-13T1200,1751A,122.9642,41.0971,鞍山市,铁西三道街,,42,41,68,19,28,134,,63,63,12,37,8,8,0.7,1
2025-09-13T1200,1753A,123.022,41.0821,鞍山市,明达新区,,40,33,42,18,22,126,,69,69,7,18,10,9,0.7,0.9
2025-09-13T1200,1754A,123.1289,41.0228,鞍山市,千山,,,,24,,17,,,70,,,5,,4,,0.4
2025-09-13T1200,4201A,122.9446,41.0826,鞍山市,兴盛南路290号,,43,40,87,15,28,136,,56,56,13,42,10,10,0.7,0.9
2025-09-13T1200,2195A,107.4212,40.761,巴彦淖尔市,附二中,颗粒物(PM10),75,99,58,12,20,96,,74,74,4,9,8,11,0.3,0.5
2025-09-13T1200,2196A,107.37,40.7372,巴彦淖尔市,市环保大楼,颗粒物(PM10),59,68,55,12,21,92,,61,61,4,10,8,10,0.3,0.5
2025-09-13T1200,1956A,86.1472,41.7538,巴音郭楞蒙古自治州,孔雀公园,,48,48,87,22,30,78,,77,77,17,23,8,6,0.2,0.4
2025-09-13T1200,1957A,86.1972,41.7166,巴音郭楞蒙古自治州,棉纺厂,,41,41,119,3,32,96,,78,78,6,19,5,6,0.1,0.3
2025-09-13T1200,1958A,86.2357,41.7173,巴音郭楞蒙古自治州,经济开发区,,30,22,86,15,22,95,,82,82,1,9,5,5,0.3,0.3
2025-09-13T1200,2914A,106.7677,31.8794,巴中市,苏山坪,,19,14,10,7,4,58,,36,36,4,4,4,3,0.4,0.4
2025-09-13T1200,3181A,106.7768,31.8526,巴中市,市五中,,20,20,15,8,4,58,,19,19,9,8,8,6,0.6,0.6
2025-09-13T1200,3183A,106.7418,31.8654,巴中市,圣泉水务公司,,24,19,14,12,5,75,,23,23,5,9,8,6,0.5,0.6
2025-09-13T1200,3616A,106.7616,31.8344,巴中市,市中心医院,,20,19,15,13,7,61,,19,19,4,9,8,7,0.5,0.6
2025-09-13T1200,2235A,122.7911,45.6077,白城市,洮北区环保局,,34,30,25,14,14,106,,55,55,2,14,5,4,0.5,0.4
2025-09-13T1200,2236A,122.8738,45.5725,白城市,市环保局,,39,39,24,20,11,116,,51,51,3,13,4,4,0.5,0.4
2025-09-13T1200,2231A,126.4219,41.9171,白山市,喜丰,,48,48,50,6,17,112,,46,46,7,16,8,8,0.6,0.7
2025-09-13T1200,2232A,126.4077,41.9419,白山市,环保局,,35,35,39,12,20,109,,45,45,8,13,7,7,0.7,0.7
2025-09-13T1200,2647A,104.1724,36.5446,白银市,第三小学,颗粒物(PM10),192,334,71,69,29,92,,64,64,11,27,5,14,0.1,0.4
2025-09-13T1200,2648A,104.1465,36.5482,白银市,动力公司,细颗粒物(PM2.5),103,,53,77,27,90,,61,61,6,20,,8,0.3,0.4
2025-09-13T1200,2512A,106.6103,23.9011,百色市,市监测站,,28,28,27,13,14,64,,25,25,8,12,12,11,0.4,0.5
2025-09-13T1200,2513A,106.6538,23.8859,百色市,市中心血站,,25,25,25,11,14,57,,24,24,10,15,8,10,0.5,0.6
2025-09-13T1200,3406A,106.6085,23.8798,百色市,祈福高中,,32,32,33,11,15,58,,21,21,10,16,11,10,0.5,0.7
2025-09-13T1200,2270A,117.396,32.939,蚌埠市,工人疗养院,,24,24,25,9,8,74,,58,58,9,7,4,4,0.5,0.4
2025-09-13T1200,2271A,117.3605,32.9427,蚌埠市,百货大楼,,23,11,15,8,10,71,,57,57,10,9,6,6,0.6,0.5
2025-09-13T1200,2273A,117.4185,32.8911,蚌埠市,蚌埠学院,,21,,10,11,11,66,,64,59,5,6,6,6,0.4,0.4
2025-09-13T1200,2274A,117.3533,32.9673,蚌埠市,淮上区政府,,25,22,20,14,14,78,,58,58,10,11,6,6,0.6,0.5
2025-09-13T1200,2275A,117.3145,32.8977,蚌埠市,高新区,,23,9,13,9,11,72,,54,54,7,10,6,6,0.5,0.5
2025-09-13T1200,3715A,117.3092,32.9314,蚌埠市,蚌埠田家炳中学,,20,12,14,10,10,62,,58,52,10,7,4,4,0.4,0.4
2025-09-13T1200,1585A,109.8756,40.6532,包头市,市环境监测站,,41,41,30,14,11,90,,60,60,19,22,26,7,0.7,0.3
2025-09-13T1200,1587A,109.9991,40.5842,包头市,包头八中,,,34,34,16,16,84,,63,63,17,19,,9,0.5,0.7
2025-09-13T1200,1588A,109.8538,40.6821,包头市,青山宾馆,,33,33,24,19,15,87,,50,50,28,26,26,6,1.5,0.6
2025-09-13T1200,1589A,109.8642,40.6288,包头市,惠龙物流,,29,29,29,19,14,84,,64,62,14,17,20,7,0.6,0.5
2025-09-13T1200,1590A,110.0377,40.5546,包头市,东河鸿龙湾,,30,26,26,11,13,94,,74,74,12,16,9,11,0.6,0.6
2025-09-13T1200,3283A,109.9154,40.5685,包头市,滨河大厦,,28,28,25,15,14,83,,69,67,18,16,7,9,0.4,0.5
2025-09-13T1200,3419A,109.9447,40.6261,包头市,包头市委党校,,29,28,30,12,14,92,,65,61,14,19,8,8,0.5,0.7
2025-09-13T1200,3683A,109.8331,40.6576,包头市,昆区政府,,44,44,31,23,16,92,,71,68,23,19,30,8,1.3,0.6
2025-09-13T1200,1930A,107.185,34.3063,宝鸡市,庙沟村,,31,31,18,8,6,60,,43,40,10,8,4,4,0.5,0.5
2025-09-13T1200,1931A,107.0708,34.3017,宝鸡市,竹园沟,,21,17,23,7,7,65,,25,25,4,7,8,8,0.3,0.4
2025-09-13T1200,1932A,107.1906,34.3672,宝鸡市,三陆医院,,36,36,25,11,11,82,,25,25,8,18,6,6,0.6,0.7
2025-09-13T1200,1933A,107.1431,34.3547,宝鸡市,监测站,,33,33,27,13,9,70,,26,26,15,13,4,4,0.6,0.6
2025-09-13T1200,1934A,107.1186,34.3739,宝鸡市,技工学校,,48,48,32,10,13,78,,27,27,8,13,7,7,0.5,0.5
2025-09-13T1200,1936A,107.2058,34.3497,宝鸡市,文理学院,,,,25,,10,77,,31,31,,14,8,7,0.5,0.6
2025-09-13T1200,1937A,107.2386,34.3622,宝鸡市,三迪小学,颗粒物(PM10),52,53,29,10,12,85,,28,28,9,18,5,5,0.5,0.6
2025-09-13T1200,4308A,107.3898,34.3601,宝鸡市,陈仓区北开路21号,,27,17,19,7,7,86,,28,28,5,13,6,6,0.4,0.5
2025-09-13T1200,1051A,115.493,38.8632,保定市,游泳馆,,,,,,,,,,,,,,,,
2025-09-13T1200,1052A,115.5213,38.8959,保定市,华电二区,,44,41,51,15,28,139,,76,76,11,21,3,3,0.3,0.3
2025-09-13T1200,1053A,115.4713,38.9108,保定市,接待中心,颗粒物(PM10),51,51,57,28,34,124,,58,58,8,18,5,4,0.4,0.4
2025-09-13T1200,1054A,115.4612,38.8416,保定市,地表水厂,颗粒物(PM10),53,55,72,21,27,136,,53,53,12,36,10,8,0.5,0.4
2025-09-13T1200,3581A,115.31981,38.95208,保定市,满城区生态环境分局,颗粒物(PM10),52,53,52,22,25,134,,59,59,13,20,4,2,0.4,0.3
2025-09-13T1200,3582A,115.47694,38.76408,保定市,清苑区第二中学,颗粒物(PM10),55,60,74,29,29,142,,72,72,2,24,6,5,0.5,0.4
2025-09-13T1200,3583A,115.62909,39.02311,保定市,徐水物探局,颗粒物(PM10),52,53,59,27,35,139,,51,51,12,30,9,7,0.6,0.5
2025-09-13T1200,4004A,115.4202,38.8656,保定市,双鹰农机,,48,48,63,27,31,135,,53,53,12,31,7,6,0.4,0.4
2025-09-13T1200,4034A,115.5150,38.8590,保定市,植保所站,,45,45,63,24,33,137,,62,62,14,32,4,7,0.4,0.4
2025-09-13T1200,2594A,99.1678,25.1081,保山市,市环境监测站,,22,,12,15,18,53,,59,59,11,9,6,7,0.5,0.4
2025-09-13T1200,2595A,99.1711,25.1328,保山市,市环保局,,18,12,12,7,8,55,,58,57,10,5,8,7,0.3,0.3
2025-09-13T1200,1866A,109.2262,21.588,北海市,牛尾岭水库,,,,,,,,,,,,,,,,
2025-09-13T1200,1867A,109.1436,21.4086,北海市,海滩公园,,19,15,12,3,2,58,,46,46,3,4,4,4,0.5,0.5
2025-09-13T1200,1868A,109.0981,21.4661,北海市,新市环保局,,16,10,10,7,9,50,,42,42,5,6,5,4,0.4,0.5
2025-09-13T1200,1869A,109.1778,21.5233,北海市,北海工业园,,18,,15,7,9,57,,37,37,3,7,4,4,0.4,0.4
2025-09-13T1200,3400A,109.1911,21.4415,北海市,龙潭自来水厂,,18,,9,10,5,57,,45,45,4,5,5,4,0.4,0.4
2025-09-13T1200,1001A,116.3621,39.8784,北京市,万寿西宫,,43,37,56,23,32,137,,48,48,15,40,5,3,0.5,0.5
2025-09-13T1200,1002A,116.2202,40.2915,北京市,定陵,细颗粒物(PM2.5),70,66,54,51,38,129,,61,61,7,3,6,4,0.6,0.6
2025-09-13T1200,1003A,116.4174,39.9289,北京市,东四,,47,36,60,23,35,148,,49,49,10,31,5,4,0.5,0.6
2025-09-13T1200,1004A,116.4072,39.8863,北京市,天坛,,44,41,44,23,28,138,,46,46,10,23,5,4,0.6,0.6
2025-09-13T1200,1005A,116.462,39.9365,北京市,农展馆,,42,36,57,24,37,132,,39,39,10,27,4,3,0.5,0.7
2025-09-13T1200,1006A,116.3392,39.9295,北京市,官园,,41,36,65,17,33,129,,41,41,12,35,4,4,0.5,0.6
2025-09-13T1200,1007A,116.2878,39.9611,北京市,海淀万柳,,38,36,61,22,36,119,,50,50,16,37,4,4,0.6,0.7
2025-09-13T1200,1008A,116.6636,40.135,北京市,顺义新城,,,,,,,,,,,,,,,,
2025-09-13T1200,1009A,116.6275,40.3275,北京市,怀柔镇,细颗粒物(PM2.5),65,70,64,47,42,122,,68,68,19,13,2,1,0.8,0.9
2025-09-13T1200,1010A,116.2296,40.217,北京市,昌平镇,细颗粒物(PM2.5),83,77,62,61,42,111,,63,63,21,17,3,3,0.7,0.7
2025-09-13T1200,1011A,116.3966,39.9821,北京市,奥体中心,,38,27,61,14,35,120,,39,39,13,34,5,4,0.5,0.7
2025-09-13T1200,3281A,115.9718,40.4529,北京市,延庆夏都,细颗粒物(PM2.5),52,50,57,36,37,102,,70,70,8,12,2,3,0.6,0.6
2025-09-13T1200,3418A,116.8336,40.4095,北京市,密云新城,,48,44,59,33,40,120,,48,48,7,10,4,3,0.6,0.7
2025-09-13T1200,3671A,116.088,39.9726,北京市,门头沟三家店,颗粒物(PM10),56,62,50,34,28,111,,45,45,19,22,4,3,0.7,0.6
2025-09-13T1200,3672A,116.1541,39.8204,北京市,丰台云岗,,41,41,69,24,30,119,,47,47,12,32,3,2,0.5,0.5
2025-09-13T1200,3673A,116.6804,39.9081,北京市,通州东关,,42,40,85,22,49,133,,51,51,11,29,5,4,0.5,0.7
2025-09-13T1200,3674A,115.9577,39.7603,北京市,房山燕山,,40,40,46,26,28,111,,59,59,11,12,2,2,0.5,0.4
2025-09-13T1200,3675A,116.4672,39.7733,北京市,大兴旧宫,,49,49,41,28,23,135,,46,46,9,24,4,3,0.6,0.6
2025-09-13T1200,3694A,115.986,40.4563,北京市,延庆石河营,颗粒物(PM10),52,53,60,32,38,92,,56,56,4,7,2,2,0.5,0.5
2025-09-13T1200,3695A,116.6151,40.3053,北京市,怀柔新城,细颗粒物(PM2.5),70,65,61,51,44,115,,66,66,17,10,5,4,0.8,0.8
2025-09-13T1200,3696A,116.2545,39.8768,北京市,丰台小屯,,40,40,61,26,37,111,,44,44,13,36,3,2,0.7,0.7
2025-09-13T1200,3697A,116.84,40.3844,北京市,密云镇,,40,36,61,28,41,125,,56,56,8,19,5,4,0.6,0.8
2025-09-13T1200,4182A,116.1942,39.9158,北京市,八角北路9号,,47,47,62,28,32,125,,54,54,8,21,3,2,0.4,0.5
2025-09-13T1200,4194A,117.0790,40.1518,北京市,洳河巡河路,颗粒物(PM10),58,66,76,39,48,129,,74,74,8,11,2,2,0.7,0.9
2025-09-13T1200,1761A,123.8275,41.3064,本溪市,大峪,,37,20,53,13,20,117,,36,36,4,24,8,7,0.6,0.7
2025-09-13T1200,1762A,123.7567,41.3325,本溪市,溪湖,,50,50,59,15,23,116,,37,37,8,23,9,7,1.8,1.2
2025-09-13T1200,1763A,123.7169,41.3094,本溪市,彩屯,,37,37,55,15,34,110,,33,33,9,28,9,11,0.5,1.1
2025-09-13T1200,1764A,123.7669,41.2864,本溪市,东明,,46,46,56,12,24,118,,42,42,9,26,9,8,0.8,1
2025-09-13T1200,1765A,123.7992,41.2664,本溪市,新立屯,,38,25,40,13,19,121,,47,47,7,24,8,7,0.7,0.9
2025-09-13T1200,1766A,123.8142,41.3472,本溪市,威宁,,37,37,62,11,25,113,,36,36,10,20,7,5,0.4,0.6
2025-09-13T1200,2587A,105.2864,27.3125,毕节市,八中,,14,,7,9,12,42,,29,29,6,8,8,6,0.5,0.6
2025-09-13T1200,2588A,105.31,27.2944,毕节市,师专,,17,7,18,6,10,52,,26,26,6,13,7,6,0.5,0.6
2025-09-13T1200,4263A,105.3688,27.3598,毕节市,工业大道,,17,17,17,9,9,46,,27,27,11,10,7,6,0.7,0.7
2025-09-13T1200,1629A,118.0018,37.3617,滨州市,第二水厂,,,,44,,,139,,61,61,4,21,6,6,0.5,0.6
2025-09-13T1200,1630A,117.9776,37.393,滨州市,北中新校,,,27,36,,18,145,,73,73,5,19,6,6,0.4,0.4
2025-09-13T1200,3514A,117.9378,37.3956,滨州市,中海酒店,,49,34,36,27,23,155,,75,75,8,26,6,4,0.5,0.5
2025-09-13T1200,3515A,117.9378,37.3553,滨州市,开发区一中,,49,46,50,29,30,156,,70,70,9,24,8,7,0.5,0.6
2025-09-13T1200,3516A,118.0917,37.694,滨州市,金海六路,,50,34,43,22,35,157,,78,78,9,27,7,6,0.0,0.2
2025-09-13T1200,4028A,117.9956,37.3753,滨州市,滨州市西街道办事处,,44,24,35,17,26,138,,73,73,6,18,5,5,0.3,0.4
2025-09-13T1200,2311A,115.8072,33.8399,亳州市,污水处理厂,,47,47,18,31,20,120,,64,64,12,13,6,3,0.4,0.3
2025-09-13T1200,2312A,115.7789,33.8518,亳州市,三国揽胜宫,细颗粒物(PM2.5),55,45,24,39,22,128,,67,67,6,9,6,4,0.6,0.5
2025-09-13T1200,3332A,115.7633,33.8034,亳州市,亳州学院,细颗粒物(PM2.5),53,53,18,37,13,130,,69,69,8,8,7,5,0.5,0.4
2025-09-13T1200,2693A,82.0485,44.8556,博尔塔拉蒙古自治州,市党校,,24,24,29,12,18,66,,42,42,9,11,4,5,0.0,0.1
2025-09-13T1200,2694A,82.0806,44.8969,博尔塔拉蒙古自治州,市环保局,,32,32,41,15,17,72,,39,38,8,17,5,6,0.1,0.2
2025-09-13T1200,1071A,116.8842,38.2991,沧州市,沧县城建局,臭氧1小时,60,45,70,23,40,168,,89,89,10,22,4,8,0.5,0.7
2025-09-13T1200,1072A,116.8584,38.3254,沧州市,电视转播站,颗粒物(PM10),51,51,66,27,43,149,,79,79,7,18,4,6,0.5,0.8
2025-09-13T1200,1073A,116.8709,38.3228,沧州市,市环保局,颗粒物(PM10),53,56,77,32,39,157,,90,90,9,18,7,10,0.4,0.7
2025-09-13T1200,3324A,116.8136,38.3004,沧州市,河北水利电力学院,臭氧1小时,59,56,69,34,41,167,,86,86,8,23,9,13,0.4,0.7
2025-09-13T1200,2622A,97.1806,31.1273,昌都市,昌都监测站,,20,17,15,8,8,62,,40,40,5,7,4,4,0.4,0.3
2025-09-13T1200,3719A,97.1714,31.1406,昌都市,昌都会议中心,,24,13,13,9,6,75,,42,42,5,5,4,4,0.1,0.1
2025-09-13T1200,2690A,88.1236,43.8886,昌吉回族自治州,天山天池,,15,15,14,7,3,38,,47,43,13,8,6,6,0.4,0.4
2025-09-13T1200,2692A,87.2717,44.0297,昌吉回族自治州,新区政务中心,颗粒物(PM10),61,71,26,6,10,29,,25,19,31,19,11,8,0.5,0.4
2025-09-13T1200,3613A,87.3095,44.0142,昌吉回族自治州,亚心广场,颗粒物(PM10),70,90,40,3,4,28,,27,18,39,23,10,8,0.6,0.4
2025-09-13T1200,1120A,125.2863,43.9027,长春市,客车厂,,41,40,43,12,20,131,,76,76,9,38,6,5,0.4,0.6
2025-09-13T1200,1121A,125.2841,43.8463,长春市,邮电学院,,42,32,37,15,19,132,,66,66,7,19,6,5,0.5,0.6
2025-09-13T1200,1122A,125.3716,43.8772,长春市,劳动公园,,50,50,44,12,20,133,,72,72,6,26,9,8,0.5,0.6
2025-09-13T1200,1123A,125.3297,43.8805,长春市,园林处,,42,35,36,16,21,133,,75,75,11,27,6,4,0.6,0.7
2025-09-13T1200,1124A,125.4605,43.79,长春市,净月潭,,38,36,29,16,14,120,,66,66,4,6,5,4,0.5,0.4
2025-09-13T1200,1125A,125.7194,43.515,长春市,甩湾子,,43,37,30,17,19,136,,68,68,4,10,5,4,0.5,0.4
2025-09-13T1200,1126A,125.3863,43.8447,长春市,经开区环卫处,,39,31,35,11,16,124,,54,54,6,30,5,4,0.5,0.6
2025-09-13T1200,1127A,125.245,43.7783,长春市,高新区管委会,,39,37,32,12,18,122,,76,76,4,17,6,5,0.4,0.5
2025-09-13T1200,1128A,125.1761,43.8325,长春市,岱山公园,,39,33,35,15,21,122,,71,71,7,38,4,4,0.4,0.5
2025-09-13T1200,4281A,125.3346,43.9164,长春市,北亚泰大街1068号,,41,34,43,18,24,130,,69,69,10,36,9,8,0.5,0.6
2025-09-13T1200,1335A,113.0833,28.2325,长沙市,经开区环保局,,36,33,29,25,21,52,,33,33,12,13,4,4,0.4,0.4
2025-09-13T1200,1336A,112.8872,28.2189,长沙市,高开区环保局,,32,32,31,19,17,57,,33,33,7,7,4,4,0.3,0.3
2025-09-13T1200,1337A,113.0792,28.2053,长沙市,马坡岭,,36,36,29,24,15,81,,43,43,10,11,5,5,0.6,0.5
2025-09-13T1200,1338A,112.9394,28.19,长沙市,湖南师范大学,,37,37,27,20,18,79,,38,38,9,9,3,4,0.7,0.5
2025-09-13T1200,1339A,113.0178,28.1322,长沙市,雨花区环保局,,42,42,33,19,15,94,,40,40,8,7,6,6,0.6,0.5
2025-09-13T1200,1340A,112.9792,28.2597,长沙市,伍家岭,,36,36,28,14,18,58,,34,34,8,9,2,2,0.4,0.3
2025-09-13T1200,1341A,113.0014,28.1944,长沙市,火车新站,,36,36,27,19,13,76,,40,40,8,6,6,6,0.7,0.5
2025-09-13T1200,1342A,112.9844,28.1178,长沙市,天心区环保局,,39,39,26,20,18,88,,41,41,9,10,3,3,0.3,0.2
2025-09-13T1200,1343A,112.8908,28.1308,长沙市,湖南中医药大学,,33,33,29,7,20,68,,36,36,4,7,3,4,0.2,0.1
2025-09-13T1200,1344A,112.9581,28.3611,长沙市,沙坪,,25,25,32,14,12,56,,34,34,6,7,3,3,0.5,0.4
2025-09-13T1200,1727A,113.1147,36.1547,长治市,清华站,,33,29,34,19,24,104,,74,74,8,10,8,9,0.6,1
2025-09-13T1200,1730A,113.0886,36.2125,长治市,审计局,,32,29,32,22,27,94,,71,71,10,13,7,7,0.7,1.1
2025-09-13T1200,1731A,113.0844,36.1856,长治市,长治八中,,36,,36,25,33,98,,71,71,4,9,9,10,0.6,1
2025-09-13T1200,2845A,113.1569,36.1911,长治市,德盛苑,,33,25,35,17,21,105,,71,71,9,7,8,8,0.7,1
2025-09-13T1200,3568A,113.06,36.0464,长治市,向阳小学,,40,40,61,24,38,97,,73,73,7,11,5,5,0.7,1.1
2025-09-13T1200,3569A,112.8792,36.3144,长治市,屯留一中,,28,26,38,19,32,77,,30,30,16,17,8,10,0.9,1.1
2025-09-13T1200,4189A,113.1131,36.19948,长治市,英华南巷50号,,32,32,37,22,31,96,,70,70,9,12,8,9,0.8,1.1
2025-09-13T1200,4190A,113.2367,36.3344,长治市,学府街1号,,38,38,38,21,32,101,,67,67,9,12,2,3,1.0,1
2025-09-13T1200,1854A,111.6975,28.9703,常德市,市二中,,27,27,24,13,13,57,,64,57,9,6,4,4,0.4,0.4
2025-09-13T1200,1857A,111.7158,29.1456,常德市,白鹤山,,,,,,,,,,,,,,,,
2025-09-13T1200,3138A,111.7153,29.0289,常德市,武陵区永安,,18,18,23,11,11,57,,62,56,5,4,4,4,0.7,0.6
2025-09-13T1200,3139A,111.6892,28.9881,常德市,鼎城区玉霞,,27,27,24,12,12,56,,62,54,8,4,2,2,0.5,0.5
2025-09-13T1200,3140A,111.6625,29.0531,常德市,武陵区长庚,,19,18,20,11,11,60,,64,57,8,6,5,5,0.7,0.7
2025-09-13T1200,1196A,119.9633,31.762,常州市,市监测站,,33,27,39,23,20,89,,45,45,11,13,13,14,0.7,0.7
2025-09-13T1200,1200A,119.9468,31.7069,常州市,武进监测站,颗粒物(PM10),77,104,59,20,18,76,,41,41,10,13,8,8,0.7,0.6
2025-09-13T1200,1201A,119.9255,31.9087,常州市,安家,,28,24,35,15,17,88,,47,47,12,23,11,11,0.6,0.7
2025-09-13T1200,3002A,119.9805,31.8174,常州市,行政中心,,46,46,31,26,19,75,,46,46,21,18,4,3,0.9,0.7
2025-09-13T1200,3003A,120.0522,31.7748,常州市,经开区,颗粒物(PM10),54,58,43,20,16,87,,45,45,18,19,6,6,1.0,0.9
2025-09-13T1200,3010A,119.9025,31.7964,常州市,钟楼,,28,25,36,15,17,87,,47,47,14,18,7,7,0.8,0.7
2025-09-13T1200,3429A,119.8598,31.7066,常州市,武进经发区,,41,41,38,24,23,71,,40,40,6,10,8,9,0.9,0.8
2025-09-13T1200,3430A,119.5826,31.7245,常州市,金坛城区,,41,41,29,22,18,72,,39,39,12,13,8,8,0.9,0.7
2025-09-13T1200,2220A,120.4318,41.5881,朝阳市,西梁,,31,,37,16,29,98,,50,50,8,16,6,6,0.6,0.8
2025-09-13T1200,2221A,120.4521,41.5646,朝阳市,河畔小区,,33,33,31,14,19,100,,64,64,7,8,6,6,0.5,0.6
2025-09-13T1200,2222A,120.4176,41.5648,朝阳市,八里堡,,41,41,39,10,28,103,,54,54,9,16,7,7,0.6,0.7
2025-09-13T1200,2223A,120.3806,41.5969,朝阳市,农业园区,,33,30,36,13,25,105,,46,46,8,16,7,5,0.7,0.7
2025-09-13T1200,1705A,116.6367,23.6719,潮州市,西园路,,43,43,29,21,15,112,,39,39,10,15,10,6,0.4,0.6
2025-09-13T1200,3026A,116.6183,23.6608,潮州市,市政府,,38,38,33,3,14,82,,32,32,7,16,14,12,0.5,0.7
2025-09-13T1200,4036A,116.6461,23.6761,潮州市,金山,颗粒物(PM10),64,77,30,22,12,113,,38,38,10,13,13,7,0.6,0.7
2025-09-13T1200,2472A,113.0073,25.9061,郴州市,马头岭,,,20,23,10,7,,,13,13,5,11,5,4,0.2,0.2
2025-09-13T1200,2473A,113.0116,25.8226,郴州市,市职中,,25,22,26,12,11,79,,33,33,4,10,4,4,0.4,0.4
2025-09-13T1200,2475A,113.0383,25.8071,郴州市,市审计局,,24,14,18,8,11,75,,31,31,5,11,6,6,0.4,0.5
2025-09-13T1200,2476A,113.0348,25.7759,郴州市,市环保局,,24,14,20,8,11,74,,38,38,4,10,5,4,0.3,0.3
2025-09-13T1200,4252A,113.0138,25.8011,郴州市,好美居路49号,,27,26,20,12,11,85,,36,36,4,12,6,5,0.3,0.4
2025-09-13T1200,1431A,103.9728,30.7236,成都市,金泉两河,,36,36,24,24,10,100,,27,27,12,20,4,3,0.6,0.7
2025-09-13T1200,1432A,104.176,30.6872,成都市,十里店,,42,42,29,29,11,74,,23,23,22,28,2,3,0.6,0.6
2025-09-13T1200,1433A,104.079,30.5706,成都市,三瓦窑,,44,44,33,27,16,96,,27,27,24,37,4,3,0.6,0.7
2025-09-13T1200,1434A,104.1114,30.63,成都市,沙河铺,,45,43,30,31,12,72,,18,18,21,19,3,1,1.0,1
2025-09-13T1200,1437A,104.0786,30.6531,成都市,君平街,,43,36,37,30,17,94,,30,30,17,27,2,2,0.7,0.8
2025-09-13T1200,1438A,103.613,31.0283,成都市,灵岩寺,,,,,,,,,,,,,,,,
2025-09-13T1200,2880A,104.0239,30.65639,成都市,大石西路,,45,45,32,20,17,75,,24,24,23,26,2,2,0.8,0.8
2025-09-13T1200,3136A,104.2725,30.5589,成都市,龙泉驿区区政府,,31,14,12,7,4,99,,40,40,16,15,5,5,0,0.2
2025-09-13T1200,3357A,104.0106,30.6931,成都市,金博路,,30,17,23,7,11,94,,25,25,16,26,7,6,0.5,0.6
2025-09-13T1200,3359A,104.0578,30.5225,成都市,华阳,,39,34,28,27,22,86,,29,29,20,28,3,2,0.7,0.8
2025-09-13T1200,3488A,104.3853,30.7453,成都市,青白江技师分院,,20,17,18,10,10,64,,23,23,14,20,2,1,0.7,0.6
2025-09-13T1200,3489A,104.0789,30.4072,成都市,科学城,,30,18,26,11,16,95,,30,30,6,16,4,4,0.7,0.8
2025-09-13T1200,4011A,103.8506,30.6947,成都市,光华大道三段,,43,43,27,20,11,116,,29,29,14,21,3,3,0.7,0.8
2025-09-13T1200,4224A,104.2433,30.5353,成都市,鲸龙路1057号,,29,29,21,19,12,92,,34,34,14,22,4,4,0.6,0.6
2025-09-13T1200,1062A,117.9531,40.9081,承德市,铁路,颗粒物(PM10),51,52,76,32,50,106,,58,58,15,17,2,2,0.7,0.9
2025-09-13T1200,1063A,117.9392,40.9763,承德市,中国银行,细颗粒物(PM2.5),59,58,75,42,48,106,,57,57,12,13,2,2,0.9,0.8
2025-09-13T1200,1064A,117.9503,40.928,承德市,开发区,颗粒物(PM10),55,60,72,32,43,113,,64,64,16,15,4,4,0.9,1
2025-09-13T1200,1066A,117.9268,41.0026,承德市,离宫,颗粒物(PM10),60,69,66,22,27,101,,50,50,9,9,6,5,0.9,0.7
2025-09-13T1200,4274A,117.7994,40.9605,承德市,滨河大街98号,,,62,54,56,40,97,,8,,,8,3,3,1.1,0.7
2025-09-13T1200,2314A,117.47,30.6618,池州市,池州学院,,27,27,25,17,14,56,,52,52,9,10,6,6,0.6,0.5
2025-09-13T1200,3237A,117.4918,30.6617,池州市,展览馆,,28,28,24,15,11,57,,52,52,9,10,5,6,0.6,0.6
2025-09-13T1200,3333A,117.5627,30.695,池州市,第八中学,,25,25,21,16,12,54,,51,50,7,9,5,6,0.7,0.6
2025-09-13T1200,3334A,117.5038,30.6243,池州市,第十二中学,,27,27,24,17,14,61,,46,45,11,13,4,5,0.8,0.8
2025-09-13T1200,1744A,118.9233,42.2816,赤峰市,松山一中,,38,34,42,20,22,120,,75,75,11,20,7,8,0.6,0.7
2025-09-13T1200,1745A,118.9576,42.2728,赤峰市,哈达街,,46,46,44,23,24,115,,68,68,16,22,12,13,0.6,0.6
2025-09-13T1200,1746A,118.8788,42.2554,赤峰市,天义路,,37,,24,25,28,117,,73,73,10,17,6,9,0.5,0.5
2025-09-13T1200,3058A,119.2658,42.0353,赤峰市,银河街,细颗粒物(PM2.5),63,56,64,45,42,106,,51,51,6,13,7,16,0.8,1
2025-09-13T1200,3286A,118.9359,42.3147,赤峰市,桥北物流园区,颗粒物(PM10),53,56,52,35,29,98,,44,44,10,28,8,13,0.6,0.8
2025-09-13T1200,2521A,107.3476,22.4136,崇左市,市环保局江州分局,,17,16,17,6,7,52,,20,20,4,8,4,3,0.6,0.7
2025-09-13T1200,4256A,107.3750,22.3736,崇左市,石景林东路7号,,29,29,17,9,6,57,,20,20,5,11,4,4,0.4,0.4
2025-09-13T1200,2298A,118.3093,32.3153,滁州市,老年大学,,23,,21,14,17,72,,64,63,2,2,5,5,0.3,0.3
2025-09-13T1200,2299A,118.3244,32.2786,滁州市,人大宾馆,,24,,8,6,17,75,,69,69,1,3,4,4,0.4,0.4
2025-09-13T1200,3207A,118.3118,32.3038,滁州市,市政府原办公楼,,28,,18,19,27,73,,65,65,2,3,5,5,0.5,0.5
2025-09-13T1200,3331A,118.3267,32.2634,滁州市,图书馆,,24,8,16,6,17,74,,68,68,1,2,10,10,0.4,0.4
2025-09-13T1200,2605A,101.5482,25.0441,楚雄彝族自治州,州环境监测站,,,,5,6,4,40,,39,39,9,4,,7,,0.6
2025-09-13T1200,2606A,101.538,25.0492,楚雄彝族自治州,市经济开发区,,22,22,12,3,5,39,,40,40,12,6,8,7,0.8,0.7
2025-09-13T1200,2548A,107.5277,31.2827,达州市,达州职业技术学院,,28,28,27,3,2,36,,12,12,4,9,8,7,0.4,0.4
2025-09-13T1200,2549A,107.5086,31.2186,达州市,市环境监测站,,23,23,24,7,1,50,,17,17,13,19,10,8,0.4,0.5
2025-09-13T1200,2550A,107.4988,31.2132,达州市,凤凰小区,,17,17,20,7,4,54,,21,21,8,16,9,7,0.4,0.5
2025-09-13T1200,2551A,107.5082,31.1986,达州市,达县机关宾馆,,17,14,20,3,3,54,,20,20,8,19,9,6,0.4,0.5
2025-09-13T1200,2552A,107.4644,31.2124,达州市,市政中心,,26,26,31,3,1,57,,17,17,6,16,8,5,0.3,0.4
2025-09-13T1200,2614A,100.1542,25.7054,大理白族自治州,大理市环境监测站,,19,,8,12,14,58,,54,49,11,9,5,4,0.7,0.7
2025-09-13T1200,2615A,100.2171,25.5811,大理白族自治州,大理古城,,17,7,11,3,8,54,,46,45,4,7,6,6,0.5,0.7
2025-09-13T1200,1109A,121.612,38.9741,大连市,甘井子,,36,25,26,9,13,114,,75,75,14,21,6,8,0.1,0.2
2025-09-13T1200,1110A,121.565,38.9511,大连市,周水子,,35,23,30,11,13,111,,61,61,12,23,6,6,0.3,0.3
2025-09-13T1200,1111A,121.5637,38.8845,大连市,星海三站,,36,26,25,12,12,114,,79,79,13,15,6,5,0.2,0.2
2025-09-13T1200,1112A,121.6302,38.9117,大连市,青泥洼桥,,38,27,25,12,12,119,,65,65,12,18,9,8,0.4,0.4
2025-09-13T1200,1113A,121.6251,38.8638,大连市,傅家庄,,37,30,24,22,13,118,,76,76,9,12,10,9,0.5,0.5
2025-09-13T1200,1114A,121.5213,38.8661,大连市,七贤岭,,38,24,23,13,10,120,,70,70,11,12,6,5,0.3,0.4
2025-09-13T1200,1115A,121.2529,38.8061,大连市,旅顺,,32,19,19,11,10,100,,73,73,13,10,9,8,0.3,0.3
2025-09-13T1200,1116A,121.7485,39.1311,大连市,金州,,,21,19,11,11,81,,66,66,10,10,10,9,,0.2
2025-09-13T1200,1117A,121.7811,39.0496,大连市,开发区,,39,29,30,13,13,123,,70,70,16,16,7,6,0.5,0.4
2025-09-13T1200,1118A,121.9762,39.0631,大连市,双D港,,41,30,25,11,13,129,,97,97,5,6,7,7,0.6,0.5
2025-09-13T1200,1789A,124.81117,46.03138,大庆市,大同区,,27,27,24,7,9,72,,36,36,8,12,9,9,0.7,0.7
2025-09-13T1200,1790A,125.129,46.533,大庆市,龙凤区,,23,19,29,15,12,72,,37,37,8,18,6,7,0.6,0.7
2025-09-13T1200,1791A,124.902,46.408,大庆市,红岗区,,25,19,24,3,11,79,,42,42,4,12,6,6,0.4,0.5
2025-09-13T1200,1792A,125.153,46.586,大庆市,萨尔图区,,27,27,31,10,12,70,,46,46,8,18,11,9,0.5,0.6
2025-09-13T1200,1793A,124.9042,46.6215,大庆市,让胡路区,,25,14,27,7,14,79,,37,37,5,20,6,6,0.4,0.3
2025-09-13T1200,3481A,125.141,46.634,大庆市,萨区政府监测点,,26,22,25,3,6,83,,57,57,6,13,10,8,0.4,0.4
2025-09-13T1200,1721A,113.3819,40.1097,大同市,果树场,,36,26,33,25,17,68,,28,28,16,23,4,5,0.4,0.5
2025-09-13T1200,1723A,113.2994,40.0758,大同市,云冈宾馆,,36,36,42,12,19,70,,51,50,22,23,6,6,0.9,0.9
2025-09-13T1200,1724A,113.3444,40.0917,大同市,大同大学,,30,30,34,14,20,81,,51,51,16,21,7,8,0.6,0.6
2025-09-13T1200,1725A,113.2661,40.1269,大同市,安家小村,,31,31,37,17,19,71,,68,62,23,18,6,5,0.8,0.6
2025-09-13T1200,1726A,113.2711,40.0844,大同市,教育学院,,39,39,46,21,23,66,,42,41,24,25,7,8,0.8,0.8
2025-09-13T1200,3282A,113.3397,40.0597,大同市,大同市卫生学校,,24,,48,14,20,74,,42,42,14,26,7,8,0.8,0.7
2025-09-13T1200,3565A,113.1367,40.1122,大同市,云冈站,,29,29,44,16,23,76,,51,51,15,18,9,6,0.6,0.6
2025-09-13T1200,3566A,113.1186,40.2556,大同市,图书馆,,29,29,34,19,19,80,,70,70,13,11,11,5,0.6,0.5
2025-09-13T1200,3567A,113.5931,40.0461,大同市,区一中,,41,41,34,16,21,87,,42,42,14,14,6,5,0.6,0.6
2025-09-13T1200,4199A,113.2798,40.0997,大同市,魏都大道141号,,39,39,40,14,22,73,,49,48,21,22,3,4,0.7,0.7
2025-09-13T1200,2269A,124.1069,50.4097,大兴安岭地区,科技局,,13,10,18,6,10,39,,14,14,2,4,5,5,0.2,0.2
2025-09-13T1200,3663A,124.1164,50.4278,大兴安岭地区,红旗社区,,13,6,8,3,4,40,,16,16,1,4,4,4,0.2,0.2
2025-09-13T1200,1600A,124.3303,40.0625,丹东市,江湾东路,,35,35,47,18,21,99,,42,42,8,15,8,8,0.7,0.8
2025-09-13T1200,1601A,124.4256,40.1503,丹东市,临江后街,,33,33,56,13,19,87,,36,36,8,17,8,8,0.7,0.8
2025-09-13T1200,1602A,124.3933,40.1461,丹东市,元宝山,,25,25,40,14,18,78,,35,35,8,14,7,7,0.7,0.7
2025-09-13T1200,1603A,124.3633,40.1092,丹东市,民主桥,,36,36,46,14,16,85,,40,40,13,21,9,8,0.6,0.7
2025-09-13T1200,3541A,109.5726,19.5167,儋州市,第一中学子站,,10,10,14,6,6,30,,23,23,1,3,6,6,0.4,0.4
2025-09-13T1200,3542A,109.5567,19.5187,儋州市,东坡学校子站,,11,,12,3,7,33,,21,21,2,5,4,4,0.3,0.3
2025-09-13T1200,2616A,98.5842,24.428,德宏傣族景颇族自治州,德宏州监测站,,21,21,18,14,9,17,,9,9,12,10,9,7,0.7,0.6
2025-09-13T1200,3677A,98.5881,24.4368,德宏傣族景颇族自治州,芒市人民政府综合楼,,31,31,24,17,7,18,,10,10,11,8,12,9,0.6,0.6
2025-09-13T1200,1901A,104.4239,31.1208,德阳市,东山公园,,21,,6,10,7,66,,31,31,17,8,5,4,0.7,0.7
2025-09-13T1200,1902A,104.3826,31.1317,德阳市,西小区,,29,29,17,11,9,62,,23,23,21,22,3,2,0.7,0.7
2025-09-13T1200,1904A,104.3553,31.1091,德阳市,耐火材料厂,,25,25,28,10,12,60,,16,16,15,24,6,6,0.8,0.8
2025-09-13T1200,3639A,104.4019,31.1244,德阳市,市教育局,,29,29,18,14,7,66,,23,23,15,19,4,3,0.8,0.8
2025-09-13T1200,1622A,116.3032,37.4674,德州市,儿童乐园,,,,57,31,30,166,,104,104,13,23,11,10,,0.6
2025-09-13T1200,1624A,116.2991,37.4451,德州市,监理站,臭氧1小时,54,48,52,24,24,163,,95,95,12,22,15,15,0.5,0.5
2025-09-13T1200,3066A,116.2721,37.4379,德州市,九衢泉纯净水厂,颗粒物(PM10),53,56,61,27,30,148,,59,59,8,41,8,9,0.6,0.6
2025-09-13T1200,3371A,116.3728,37.4403,德州市,开发区人民医院,颗粒物(PM10),53,56,52,27,23,161,,81,81,7,19,11,11,0.6,0.7
2025-09-13T1200,3511A,116.5652,37.3319,德州市,陵城艺术中心,臭氧1小时,82,66,65,29,29,185,,99,99,16,29,11,13,0.8,0.7
2025-09-13T1200,4292A,116.3525,37.4209,德州市,新河东路,颗粒物(PM10),57,63,53,27,25,160,,79,79,11,23,10,10,0.9,0.8
2025-09-13T1200,2621A,99.7056,27.8317,迪庆藏族自治州,迪庆州站,,26,26,18,11,11,64,,36,36,9,7,7,7,0.4,0.5
2025-09-13T1200,3180A,99.7136,27.8094,迪庆藏族自治州,质量技术监督局,,22,14,15,6,7,70,,44,44,7,8,6,7,0.4,0.4
2025-09-13T1200,4257A,104.6092,35.5962,定西市,将台街,,34,32,36,13,21,107,,49,49,10,20,11,9,0.3,0.3
2025-09-13T1200,4309A,104.6159,35.5701,定西市,正龙路62号,,38,38,46,18,24,63,,56,53,8,11,7,6,0.5,0.3
2025-09-13T1200,1389A,113.7547,23.0494,东莞市,莞城梨川,,33,6,12,3,5,104,,34,34,8,25,4,5,0.4,0.4
2025-09-13T1200,1390A,113.7944,23.0128,东莞市,东城石井,,33,13,23,8,12,103,,37,37,8,23,5,5,0.4,0.5
2025-09-13T1200,1391A,113.7383,22.9658,东莞市,南城西平,,32,17,22,12,11,102,,29,29,20,29,5,4,0.4,0.4
2025-09-13T1200,3319A,113.7338,23.0381,东莞市,万江金泰,,34,23,21,10,11,108,,34,34,14,25,5,6,0.6,0.6
2025-09-13T1200,3626A,113.7533,23.0202,东莞市,南城元岭,,37,31,22,15,12,118,,36,36,13,27,5,5,0.3,0.4
2025-09-13T1200,3627A,113.7875,23.0457,东莞市,东城主山,,34,22,23,8,12,108,,34,34,17,31,6,7,0.4,0.4
2025-09-13T1200,1666A,118.6614,37.4309,东营市,市环保局,,40,17,25,3,12,126,,73,73,10,20,8,10,0.2,0.4
2025-09-13T1200,3036A,118.6904,37.4338,东营市,开发区管委会,,41,18,34,9,16,130,,83,83,10,19,8,9,0.3,0.5
2025-09-13T1200,3365A,118.5719,37.565,东营市,垦利区民丰路,,44,17,33,3,16,138,,72,72,11,18,2,4,0.6,0.7
2025-09-13T1200,3498A,118.5055,37.8612,东营市,河口城区,,47,14,33,3,14,149,,88,88,8,14,7,6,0.6,0.7
2025-09-13T1200,3646A,118.4978,37.4623,东营市,胜利站,,44,38,39,3,18,138,,80,80,16,24,8,8,0.3,0.5
2025-09-13T1200,3734A,118.35,37.26,东营市,理想之城,,45,24,29,14,18,144,,,,19,23,8,6,0.5,0.5
2025-09-13T1200,1591A,110.0023,39.8129,鄂尔多斯市,综合楼,,41,41,35,9,12,97,,82,71,8,12,6,5,0.5,0.5
2025-09-13T1200,1592A,109.9486,39.8261,鄂尔多斯市,巴音孟克林场办事处,,48,48,38,17,14,102,,93,80,8,12,7,6,0.3,0.3
2025-09-13T1200,1593A,109.7736,39.5986,鄂尔多斯市,康泽苑,颗粒物(PM10),52,53,37,14,12,96,,64,64,7,11,7,6,0.4,0.3
2025-09-13T1200,1594A,109.8119,39.5989,鄂尔多斯市,华泰汽车城,,46,46,32,19,14,101,,54,54,9,13,6,5,0.4,0.5
2025-09-13T1200,1595A,109.9734,39.7884,鄂尔多斯市,奥林花园,,46,46,39,17,15,97,,62,61,9,15,7,6,0.5,0.5
2025-09-13T1200,2436A,114.8938,30.3994,鄂州市,市政府,,16,16,17,3,3,40,,30,29,15,12,6,6,0.7,0.5
2025-09-13T1200,2437A,114.8989,30.3714,鄂州市,赵家坝,,32,32,27,16,5,39,,37,33,17,10,12,8,1.3,0.8
2025-09-13T1200,3654A,114.8094,30.4089,鄂州市,精准医疗中心,,20,20,17,7,3,56,,41,41,12,11,4,6,0.7,0.6
2025-09-13T1200,2454A,109.4978,30.2981,恩施土家族苗族自治州,湖北民院,,15,13,13,6,5,45,,49,41,12,8,5,6,0.5,0.5
2025-09-13T1200,2455A,109.4707,30.2798,恩施土家族苗族自治州,州电力总公司,,19,19,10,8,5,31,,39,30,15,6,5,5,0.5,0.5
2025-09-13T1200,3549A,109.5061,30.3772,恩施土家族苗族自治州,龙凤新区,,16,12,14,3,5,51,,42,41,8,7,6,6,0.5,0.5
2025-09-13T1200,2499A,108.3411,21.6158,防城港市,沙万,,35,35,24,12,10,46,,31,31,11,16,4,4,0.7,0.6
2025-09-13T1200,2500A,108.3514,21.7731,防城港市,防城档案局,,18,18,26,10,12,48,,23,23,9,12,5,3,0.4,0.5
2025-09-13T1200,2501A,108.3506,21.6414,防城港市,大海花园,,44,44,19,6,7,50,,28,28,7,11,7,8,0.4,0.4
2025-09-13T1200,1371A,113.1294,23.0067,佛山市,湾梁,,25,17,20,10,11,78,,34,34,19,20,7,6,0.6,0.6
2025-09-13T1200,1372A,113.1083,23.0478,佛山市,华材职中,,27,19,18,3,11,84,,41,41,9,12,5,4,0.4,0.4
2025-09-13T1200,1373A,113.144,23.0453,佛山市,南海气象局,,28,28,20,7,10,84,,36,36,11,15,6,6,0.6,0.6
2025-09-13T1200,1374A,113.2881,22.8094,佛山市,顺德苏岗,,22,14,19,7,7,69,,26,26,10,17,6,6,0.5,0.6
2025-09-13T1200,1376A,112.8383,22.8678,佛山市,高明孔堂,,30,,18,8,8,95,,42,42,8,10,3,3,0.4,0.3
2025-09-13T1200,1377A,112.8836,23.1588,佛山市,三水监测站,,27,19,22,17,13,86,,30,30,9,19,6,8,0.3,0.4
2025-09-13T1200,1378A,112.867,23.185,佛山市,三水云东海,,32,29,27,11,14,100,,40,40,10,20,2,3,0.4,0.5
2025-09-13T1200,3625A,113.2544,22.7642,佛山市,容桂街道办,,22,9,13,9,10,69,,29,29,11,22,6,6,0.6,0.6
2025-09-13T1200,1280A,119.3903,26.0543,福州市,鼓山,,,,36,,18,,,107,,,10,,2,,0.3
2025-09-13T1200,1282A,119.2681,26.0504,福州市,师大,"颗粒物(PM10),臭氧1小时",52,53,44,27,25,161,,82,82,10,14,6,6,0.4,0.3
2025-09-13T1200,1283A,119.2984,26.1028,福州市,五四北路,,50,45,40,32,23,158,,76,76,11,14,4,4,0.4,0.3
2025-09-13T1200,1284A,119.2648,26.0768,福州市,杨桥西路,,45,36,39,30,26,143,,76,76,5,8,4,4,0.4,0.3
2025-09-13T1200,1285A,119.317,26.0746,福州市,紫阳,颗粒物(PM10),52,54,46,28,24,136,,66,66,24,18,4,5,0.4,0.4
2025-09-13T1200,3048A,119.5799,26.0936,福州市,九龙,细颗粒物(PM2.5),55,55,30,39,19,158,,75,75,9,10,6,4,0.4,0.4
2025-09-13T1200,3526A,119.5189,25.9664,福州市,吴航,,49,38,32,22,19,154,,80,80,7,10,5,5,0.4,0.4
2025-09-13T1200,1755A,123.7977,41.8491,抚顺市,望花区,颗粒物(PM10),62,73,62,23,29,128,,53,53,11,33,12,9,0.8,0.8
2025-09-13T1200,1756A,123.9161,41.8822,抚顺市,顺城区,颗粒物(PM10),53,56,47,20,21,160,,52,52,15,30,8,7,0.7,0.8
2025-09-13T1200,1757A,124.0436,41.8611,抚顺市,东洲区,,40,40,35,16,19,123,,46,46,2,13,7,6,0.3,0.3
2025-09-13T1200,1758A,123.9247,41.8642,抚顺市,新抚区,臭氧1小时,63,60,53,26,24,170,,47,47,14,25,10,8,1.0,1
2025-09-13T1200,1759A,124.0972,41.8961,抚顺市,大伙房水库,,40,23,28,16,20,125,,46,46,7,19,11,9,0.6,0.7
2025-09-13T1200,1760A,123.7086,41.8391,抚顺市,沈抚新城,,42,42,54,22,31,133,,57,57,11,33,9,9,0.7,1
2025-09-13T1200,2376A,116.2127,28.0814,抚州市,桐源党溪,,32,32,25,10,11,77,,49,49,2,2,6,5,0.6,0.6
2025-09-13T1200,2377A,116.3544,27.9831,抚州市,市站,,28,22,22,13,9,87,,62,62,2,5,4,5,0.4,0.6
2025-09-13T1200,2378A,116.3565,27.963,抚州市,血防站,,29,29,25,14,12,85,,56,56,2,6,5,5,0.5,0.5
2025-09-13T1200,2379A,116.3564,28.0007,抚州市,采茶剧团,,27,27,24,8,11,77,,57,57,2,2,5,6,0.6,0.5
2025-09-13T1200,2380A,116.385,27.9647,抚州市,医学分院,,37,37,27,14,12,87,,60,60,3,5,4,4,0.6,0.6
2025-09-13T1200,2207A,121.6094,41.998,阜新市,工业园区,,40,36,46,12,25,127,,64,64,8,20,11,14,0.5,0.8
2025-09-13T1200,2208A,121.6697,42.0279,阜新市,长青街,,39,28,39,10,24,122,,64,64,6,17,9,13,0.5,0.6
2025-09-13T1200,2209A,121.6673,42.0705,阜新市,农业园区,,40,34,41,12,20,126,,88,88,10,14,6,13,0.6,0.7
2025-09-13T1200,2210A,121.6717,42.0224,阜新市,东苑,,37,34,50,12,20,116,,62,62,9,23,6,12,0.5,0.7
2025-09-13T1200,2211A,121.6506,42.0498,阜新市,玉龙新城,,39,34,46,10,21,122,,59,59,8,22,13,13,0.5,0.7
2025-09-13T1200,2301A,115.8277,32.8929,阜阳市,市监测站,,39,37,22,27,17,102,,53,53,15,13,5,4,0.4,0.4
2025-09-13T1200,2303A,115.8554,32.8605,阜阳市,开发区,,34,34,16,18,9,99,,51,51,10,11,8,7,0.4,0.3
2025-09-13T1200,2875A,115.784,32.8892,阜阳市,阜阳职业技术学院,,38,38,19,14,9,113,,54,54,11,14,7,6,0.4,0.4
2025-09-13T1200,3468A,115.7901,32.8613,阜阳市,市规划展馆,,38,38,23,21,17,112,,50,50,4,7,4,4,0.5,0.4
2025-09-13T1200,3469A,115.836,32.9183,阜阳市,枣园社区,,36,,21,21,17,113,,55,55,12,12,6,7,0.5,0.4
2025-09-13T1200,2669A,102.9099,34.9841,甘南藏族自治州,州政府,,30,30,51,14,19,65,,22,22,8,24,6,6,0.3,0.3
2025-09-13T1200,3380A,102.8914,34.9617,甘南藏族自治州,甘肃民族师范学院,,30,30,70,14,22,74,,26,26,11,28,4,4,0.2,0.2
2025-09-13T1200,2570A,101.9603,30.0475,甘孜藏族自治州,水桥子,,20,20,17,3,7,45,,16,16,15,19,6,6,0.2,0.3
2025-09-13T1200,3065A,101.9533,29.9972,甘孜藏族自治州,州环保局,,,13,16,7,6,64,,33,33,7,13,4,4,,0.6
2025-09-13T1200,3414A,115.8347,28.932,赣江新区,桑海产业园,,37,31,24,17,13,116,,41,41,9,19,10,7,0.6,0.4
2025-09-13T1200,2362A,114.9017,25.9149,赣州市,通天岩,,39,29,23,13,10,124,,74,74,4,5,16,17,0.3,0.4
2025-09-13T1200,2363A,114.9367,25.8664,赣州市,地委,,38,24,24,16,15,119,,62,62,8,13,6,7,0.4,0.5
2025-09-13T1200,2364A,114.9461,25.8481,赣州市,气象台,,35,20,26,15,12,111,,63,63,4,9,6,8,0.4,0.5
2025-09-13T1200,2365A,114.9322,25.8333,赣州市,市图书馆,,34,14,22,14,15,106,,59,59,7,12,7,7,0.5,0.6
2025-09-13T1200,2366A,114.8905,25.8471,赣州市,华坚鞋城,,35,33,28,8,12,109,,58,58,9,14,7,6,0.4,0.4
2025-09-13T1200,3109A,115.0093,25.8613,赣州市,赣县区卫计委,,33,24,26,15,18,104,,50,50,6,13,6,6,0.4,0.4
2025-09-13T1200,2683A,106.2319,36.1417,固原市,马园,,,,,,,,,,,,,,,,
2025-09-13T1200,2684A,106.2792,36.0022,固原市,监测站,,24,20,42,8,17,75,,46,46,7,10,7,7,0.3,0.3
2025-09-13T1200,2685A,106.2375,36.0211,固原市,新区,,25,22,45,6,16,79,,41,41,3,10,5,6,0.3,0.3
2025-09-13T1200,3522A,106.2177,35.9959,固原市,原州区十五小,,26,26,53,10,19,74,,64,55,7,8,10,10,0.3,0.3
2025-09-13T1200,2543A,106.6308,30.5278,广安市,小平旧居,,,,,,,,,,,,,,,,
2025-09-13T1200,2544A,106.6303,30.4576,广安市,市委,,22,15,10,3,9,68,,38,38,7,9,6,6,0.5,0.5
2025-09-13T1200,2545A,106.6271,30.4663,广安市,友谊中学,,26,8,14,6,7,83,,49,49,6,9,4,4,0.5,0.5
2025-09-13T1200,2547A,106.6388,30.4551,广安市,广电花园,,35,35,14,3,6,68,,37,37,6,9,4,4,0.5,0.6
2025-09-13T1200,2902A,106.6351,30.4865,广安市,北辰小学,,26,15,11,3,7,81,,49,49,5,6,5,6,0.6,0.6
2025-09-13T1200,2523A,105.8945,32.4535,广元市,黑石坡,,24,24,15,6,11,60,,18,18,5,5,8,9,0.3,0.3
2025-09-13T1200,2524A,105.821,32.4444,广元市,老城,,15,10,13,3,6,45,,18,18,19,15,17,9,1.1,0.7
2025-09-13T1200,2526A,105.8628,32.4287,广元市,监测站,,15,11,12,7,8,45,,17,17,19,9,8,6,0.9,0.8
2025-09-13T1200,3617A,105.8047,32.4166,广元市,经开区,,,43,19,22,9,25,,8,8,,13,38,7,1.5,0.8
2025-09-13T1200,1345A,113.2347,23.1423,广州市,广雅中学,,24,22,23,10,12,74,,31,31,14,22,3,4,0.5,0.5
2025-09-13T1200,1346A,113.2612,23.105,广州市,市五中,,26,20,21,10,10,82,,33,33,13,21,5,5,0.2,0.2
2025-09-13T1200,1348A,113.3478,23.0916,广州市,广东商学院,,22,22,16,10,8,70,,32,32,13,20,4,4,0.1,0.2
2025-09-13T1200,1349A,113.4332,23.1047,广州市,市八十六中,,26,20,15,10,7,82,,31,31,30,30,6,4,0.5,0.5
2025-09-13T1200,1350A,113.3505,22.9483,广州市,番禺中学,,22,16,15,9,8,70,,36,36,8,16,5,5,0.5,0.5
2025-09-13T1200,1351A,113.2146,23.3916,广州市,花都师范,,28,28,30,13,16,75,,29,29,27,29,5,6,0.5,0.6
2025-09-13T1200,1352A,113.2597,23.1331,广州市,市监测站,,23,20,22,8,10,71,,30,30,13,18,5,6,0.4,0.4
2025-09-13T1200,1353A,113.5618,23.312,广州市,九龙镇镇龙,,44,44,33,23,18,103,,28,28,24,29,8,8,0.4,0.5
2025-09-13T1200,1354A,113.2765,23.1544,广州市,麓湖,,22,16,20,9,11,68,,27,27,13,22,3,3,0.2,0.3
2025-09-13T1200,1355A,113.443,23.3035,广州市,帽峰山森林公园,,21,18,14,3,6,65,,24,24,18,20,6,6,0.6,0.6
2025-09-13T1200,2846A,113.3221,23.1322,广州市,体育西,,22,18,18,8,10,69,,31,31,14,22,5,5,0.3,0.3
2025-09-13T1200,3298A,113.5717,23.5491,广州市,从化街口,,32,24,32,16,18,100,,29,29,17,23,9,8,0.6,0.7
2025-09-13T1200,3299A,113.3472,23.3692,广州市,白云竹料,,24,24,28,11,15,75,,28,28,16,29,4,4,0.4,0.4
2025-09-13T1200,3300A,113.2981,23.237,广州市,白云嘉禾,,28,28,23,15,11,72,,27,27,18,28,4,4,0.3,0.3
2025-09-13T1200,3301A,113.4256,23.1716,广州市,黄埔科学城,,32,32,20,17,10,58,,24,24,23,21,7,5,0.5,0.5
2025-09-13T1200,3302A,113.3942,23.0483,广州市,番禺大学城,,20,18,15,10,7,61,,32,32,15,18,5,4,0.3,0.4
2025-09-13T1200,3303A,113.4922,22.8168,广州市,南沙黄阁,,21,21,17,8,6,64,,33,33,6,15,4,5,0.3,0.3
2025-09-13T1200,3304A,113.5342,22.7896,广州市,南沙街,,21,21,15,7,6,53,,29,29,13,15,6,5,0.3,0.3
2025-09-13T1200,3443A,113.2902,23.5544,广州市,花都梯面,,27,21,28,11,14,84,,24,24,15,21,5,5,0.4,0.5
2025-09-13T1200,3445A,113.7858,23.7478,广州市,从化良口,,37,31,25,22,17,116,,50,50,14,10,5,4,0.5,0.5
2025-09-13T1200,3446A,113.8051,23.2614,广州市,增城荔城,,45,29,27,23,16,142,,42,42,12,20,9,9,0.6,0.6
2025-09-13T1200,2505A,109.568,23.1478,贵港市,德智高中,,,,,,,,,,,,,,,,
2025-09-13T1200,2506A,109.6047,23.0666,贵港市,江南子站,,19,,29,12,15,58,,27,27,2,15,4,4,0.4,0.6
2025-09-13T1200,2508A,109.5669,23.1065,贵港市,荷城子站,,20,7,23,3,9,62,,33,33,6,18,3,3,0.5,0.6
2025-09-13T1200,3405A,109.5886,23.1172,贵港市,新世纪学校,,21,,21,11,13,66,,38,38,6,16,2,2,0.4,0.5
2025-09-13T1200,4260A,109.5933,23.0951,贵港市,中山路155-3号,,20,20,31,13,15,64,,33,33,3,14,3,4,0.5,0.6
2025-09-13T1200,1439A,106.6899,26.5998,贵阳市,马鞍山,,14,9,11,3,10,44,,40,37,7,7,2,3,0.2,0.2
2025-09-13T1200,1441A,106.6243,26.6266,贵阳市,鉴湖路,,14,14,23,3,5,42,,36,36,14,12,6,6,0.4,0.4
2025-09-13T1200,1442A,106.7487,26.6343,贵阳市,燕子冲,,12,7,8,7,12,38,,37,34,10,9,6,5,0.3,0.3
2025-09-13T1200,1443A,106.6555,26.4365,贵阳市,碧云窝,,16,14,22,3,4,49,,34,33,5,6,4,5,0.2,0.2
2025-09-13T1200,1445A,106.7109,26.6027,贵阳市,红边门,,,17,18,7,11,36,,32,29,,9,3,3,0.2,0.2
2025-09-13T1200,1446A,106.7164,26.5699,贵阳市,新华路,,13,12,17,3,6,40,,35,33,12,12,6,9,0.3,0.3
2025-09-13T1200,1447A,106.674,26.5424,贵阳市,太慈桥,,16,12,11,3,4,49,,37,36,8,9,4,4,0,0
2025-09-13T1200,1552A,106.805,26.3003,贵阳市,桐木岭,,28,28,25,12,12,45,,47,46,3,3,3,3,1.0,1
2025-09-13T1200,4230A,106.6882,26.5695,贵阳市,花果园大街66号,,10,6,5,3,9,30,,32,29,7,8,3,4,0.2,0.2
2025-09-13T1200,4231A,106.6873,26.5169,贵阳市,漓江路57号,,15,9,16,3,7,45,,36,36,9,8,4,6,0.3,0.4
2025-09-13T1200,1862A,110.4144,25.3167,桂林市,电子科大尧山校区,,,,,,,,,,,,,,,,
2025-09-13T1200,1864A,110.3089,25.2708,桂林市,龙隐路小学,,24,22,22,9,12,74,,30,30,5,10,5,6,0.3,0.3
2025-09-13T1200,1865A,110.2869,25.2178,桂林市,八中,,24,23,24,9,11,75,,29,29,3,10,7,8,0.2,0.3
2025-09-13T1200,3531A,110.296,25.1253,桂林市,旅游学院,,25,22,17,12,10,77,,26,26,4,8,5,9,0.3,0.3
2025-09-13T1200,4222A,110.1835,25.2444,桂林市,环湖路276号,,24,22,29,14,15,75,,26,26,8,17,6,25,0.3,0.3
2025-09-13T1200,4301A,110.2803,25.2773,桂林市,信义路13号,,24,18,26,6,10,76,,29,29,4,11,6,8,0.3,0.4
2025-09-13T1200,2674A,100.2561,34.4714,果洛藏族自治州,玛沁县大武镇,,32,32,41,7,18,85,,38,38,8,8,16,18,0.0,0.1
2025-09-13T1200,1129A,126.5422,45.755,哈尔滨市,岭北,,34,17,26,7,16,106,,55,55,15,23,10,8,1.0,0.7
2025-09-13T1200,1130A,126.561,45.8167,哈尔滨市,松北商大,,39,39,33,7,14,81,,31,31,13,23,7,6,0.4,0.5
2025-09-13T1200,1131A,126.979,45.5419,哈尔滨市,阿城会宁,,27,17,45,9,27,86,,33,33,6,15,7,7,0.4,0.6
2025-09-13T1200,1132A,126.599,45.7222,哈尔滨市,南岗学府路,,26,25,46,8,16,83,,38,38,11,26,10,9,0.4,0.6
2025-09-13T1200,1133A,126.689,45.7733,哈尔滨市,太平宏伟公园,,32,32,47,14,19,84,,32,32,14,23,9,9,0.5,0.6
2025-09-13T1200,1134A,126.635,45.7667,哈尔滨市,道外承德广场,,30,30,44,11,17,90,,38,38,11,23,9,8,0.3,0.5
2025-09-13T1200,1135A,126.685,45.7319,哈尔滨市,香坊红旗大街,,34,34,50,9,21,99,,40,40,18,29,12,8,0.6,0.7
2025-09-13T1200,1136A,126.6411,45.7258,哈尔滨市,动力和平路,,44,44,46,8,16,85,,36,36,20,28,11,6,0.6,0.6
2025-09-13T1200,1137A,126.593,45.7478,哈尔滨市,道里建国路,,47,47,35,16,19,86,,37,37,21,32,15,10,0.9,1.3
2025-09-13T1200,1138A,126.615,45.61,哈尔滨市,平房东轻厂,,26,19,39,16,21,83,,40,40,6,28,8,10,0.4,0.5
2025-09-13T1200,1139A,126.595,45.9855,哈尔滨市,呼兰师专,,26,23,34,12,18,82,,39,39,8,23,9,8,0.5,0.7
2025-09-13T1200,1140A,126.6206,45.6842,哈尔滨市,省农科院,,28,20,74,7,20,89,,37,37,6,32,10,7,0.6,0.8
2025-09-13T1200,2688A,93.5128,42.8172,哈密市,地区监测站,,26,23,39,10,10,82,,72,68,7,11,4,3,0.1,0.1
2025-09-13T1200,2689A,93.4961,42.8328,哈密市,哈密师范学校,,29,29,32,9,10,83,,77,70,6,10,5,5,0.2,0.2
2025-09-13T1200,2671A,100.9048,36.9639,海北藏族自治州,海晏县西海镇,,39,39,33,19,18,95,,56,56,4,6,11,10,0.4,0.4
2025-09-13T1200,3867A,102.0738,36.5056,海东市,平安区公安北苑,,41,41,39,26,18,81,,44,44,17,7,27,10,1.2,0.6
2025-09-13T1200,1409A,110.576,19.9507,海口市,东寨港,,,,,,,,,,,,,,,,
2025-09-13T1200,1410A,110.3232,20.0574,海口市,海南大学,,11,11,10,7,5,33,,33,31,4,3,3,3,0.3,0.3
2025-09-13T1200,1411A,110.283,20.0053,海口市,秀英海南医院,,13,11,11,9,5,34,,32,31,6,5,6,6,0.3,0.2
2025-09-13T1200,1412A,110.338,19.9969,海口市,海南师范大学,,11,11,12,6,5,33,,32,31,6,4,4,4,0.3,0.3
2025-09-13T1200,1413A,110.33,20.0356,海口市,龙华路环保局宿舍,,11,9,10,7,5,33,,33,31,6,5,6,6,0.2,0.1
2025-09-13T1200,3539A,110.5111,19.9736,海口市,桂林洋子站,,11,9,11,3,6,33,,26,26,4,5,4,5,0.2,0.2
2025-09-13T1200,2673A,100.6188,36.2866,海南藏族自治州,共和县恰卜恰镇,,38,38,44,24,17,99,,61,61,3,10,10,12,0.5,0.4
2025-09-13T1200,2676A,97.3731,37.3753,海西蒙古族藏族自治州,德令哈市,颗粒物(PM10),55,59,50,12,21,93,,77,76,14,3,8,7,0.9,0.4
2025-09-13T1200,1048A,114.5302,36.6116,邯郸市,东污水处理厂,,46,34,42,32,31,142,,81,81,4,20,11,8,0.7,0.5
2025-09-13T1200,1049A,114.4918,36.5713,邯郸市,矿院,,45,,35,27,30,142,,76,76,2,22,8,6,0.7,0.4
2025-09-13T1200,1050A,114.484,36.6133,邯郸市,丛台公园,,,,35,,24,142,,91,91,5,17,8,11,,0.5
2025-09-13T1200,3458A,114.7895,36.5593,邯郸市,香泉濮院小区,,42,,53,10,18,133,,85,85,4,16,6,6,0.4,0.4
2025-09-13T1200,3579A,114.50634,36.77178,邯郸市,永年区实验高中,,47,41,48,23,25,149,,88,88,7,17,8,6,1.2,0.9
2025-09-13T1200,3580A,114.20016,36.44293,邯郸市,峰峰矿区临水派出所,颗粒物(PM10),51,51,40,29,20,160,,103,103,9,12,10,7,1.1,0.5
2025-09-13T1200,2634A,106.9893,33.1842,汉中市,汉川机床厂子校,,23,16,15,3,9,72,,43,43,5,6,4,3,0.4,0.4
2025-09-13T1200,2635A,107.0154,33.0706,汉中市,市监测站,,22,11,16,3,4,68,,28,28,3,6,6,6,0.6,0.6
2025-09-13T1200,2636A,107.0089,33.1138,汉中市,鑫源开发区,,,28,15,3,5,71,,30,30,,19,6,6,0.5,0.5
2025-09-13T1200,2637A,107.007,33.0323,汉中市,南郑大河坎水厂,,21,13,14,3,5,67,,21,21,5,7,6,6,0.5,0.5
2025-09-13T1200,1223A,120.2072,30.2111,杭州市,滨江,,44,27,23,16,16,140,,50,50,13,25,6,7,0.4,0.5
2025-09-13T1200,1224A,120.0633,30.2747,杭州市,西溪,,40,20,24,15,12,125,,46,46,11,18,6,5,0.5,0.5
2025-09-13T1200,1226A,120.3417,30.3150,杭州市,下沙,,47,26,26,14,13,148,,56,56,10,26,6,6,0.4,0.4
2025-09-13T1200,1227A,120.1269,30.2456,杭州市,卧龙桥,,41,27,23,19,11,130,,43,43,7,8,8,8,0.6,0.6
2025-09-13T1200,1228A,120.1903,30.2692,杭州市,浙江农大,,34,34,26,16,15,107,,45,45,16,30,6,6,0.7,0.7
2025-09-13T1200,1230A,120.1197,30.3119,杭州市,和睦小学,,40,23,22,15,16,128,,57,57,8,19,6,6,0.5,0.6
2025-09-13T1200,1231A,120.3019,30.4183,杭州市,临平镇,颗粒物(PM10),52,54,30,22,15,155,,59,59,12,28,6,6,0.6,0.6
2025-09-13T1200,1232A,120.2753,30.1839,杭州市,城厢镇,,39,27,26,13,12,122,,48,48,2,11,4,4,0.6,0.6
2025-09-13T1200,1233A,120.0883,30.1808,杭州市,云栖,,44,24,21,17,24,138,,47,47,16,19,4,4,0.8,0.7
2025-09-13T1200,3557A,119.9464,30.0494,杭州市,镇二中,细颗粒物(PM2.5),79,90,25,58,17,88,,37,37,34,22,6,5,0.7,0.7
2025-09-13T1200,3558A,119.7183,30.2367,杭州市,市府大楼,,35,23,23,13,9,109,,46,46,8,9,8,8,0.4,0.4
2025-09-13T1200,3656A,120.1556,30.2864,杭州市,消防大队,,37,25,24,14,12,116,,51,51,9,16,8,8,0.7,0.7
2025-09-13T1200,1270A,117.1959,31.7848,合肥市,明珠广场,,18,12,16,12,9,41,,59,54,31,15,6,6,0.6,0.5
2025-09-13T1200,1271A,117.3072,31.8764,合肥市,三里街,,20,,15,14,9,54,,64,57,22,9,5,5,0.6,0.5
2025-09-13T1200,1272A,117.2588,31.8707,合肥市,琥珀山庄,,19,17,17,12,12,59,,63,58,15,8,8,8,0.7,0.6
2025-09-13T1200,1273A,117.1604,31.9052,合肥市,董铺水库,,17,17,14,9,9,51,,46,46,6,3,4,4,0.3,0.3
2025-09-13T1200,1274A,117.25,31.8571,合肥市,长江中路,,19,9,15,7,7,58,,62,58,13,6,6,6,0.7,0.6
2025-09-13T1200,1275A,117.266,31.9436,合肥市,庐阳区,,24,24,18,14,10,60,,55,53,21,10,5,5,0.6,0.5
2025-09-13T1200,1276A,117.3453,31.8616,合肥市,瑶海区,,20,7,16,3,7,63,,63,60,19,13,7,7,0.7,0.6
2025-09-13T1200,1277A,117.3027,31.7964,合肥市,包河区,,18,17,16,12,8,52,,65,52,22,14,8,8,0.7,0.6
2025-09-13T1200,1278A,117.2776,31.7385,合肥市,滨湖新区,,28,,14,19,13,38,,60,54,32,14,4,4,0.7,0.6
2025-09-13T1200,1279A,117.1318,31.8403,合肥市,高新区,,20,12,15,10,10,64,,59,59,18,10,5,5,0.7,0.6
2025-09-13T1200,3464A,117.3803,31.9147,合肥市,高教基地,,17,9,15,7,9,54,,59,56,10,9,6,6,0.5,0.5
2025-09-13T1200,3614A,79.924,37.0877,和田地区,地区环保局,颗粒物(PM10),155,259,252,113,84,84,,70,70,7,13,3,4,0.7,0.7
2025-09-13T1200,3615A,79.9131,37.113,和田地区,市环保局,颗粒物(PM10),149,247,238,86,72,82,,60,60,18,32,6,6,0.2,0.3
2025-09-13T1200,2516A,108.2011,24.715,河池市,东仁乐园,,,,,,,,,,,,,,,,
2025-09-13T1200,2517A,108.0497,24.6947,河池市,市环保站,,18,18,23,8,8,50,,31,31,5,11,6,6,0.5,0.6
2025-09-13T1200,2518A,108.0983,24.6989,河池市,市疾控中心,,17,11,21,8,9,53,,30,30,7,16,8,8,0.5,0.6
2025-09-13T1200,1696A,114.6778,23.7569,河源市,源西,,27,17,16,9,11,85,,41,41,9,12,5,5,0.6,0.6
2025-09-13T1200,1697A,114.6944,23.7586,河源市,东埔,,24,22,18,10,9,74,,40,40,7,10,5,5,0.6,0.7
2025-09-13T1200,1698A,114.6892,23.7233,河源市,老城,,27,22,24,8,10,86,,44,44,5,9,6,5,0.6,0.7
2025-09-13T1200,1718A,115.4208,35.2464,菏泽市,气象局,颗粒物(PM10),55,60,55,30,31,157,,91,91,7,20,4,3,0.3,0.4
2025-09-13T1200,3374A,115.5564,35.0891,菏泽市,定陶老年大学,,48,48,46,19,23,139,,69,69,7,17,6,6,0.2,0.3
2025-09-13T1200,4184A,115.4797,35.24401,菏泽市,永昌路1号,,,,55,29,31,156,,98,98,7,13,8,9,0.3,0.3
2025-09-13T1200,4193A,115.4715,35.2800,菏泽市,长城路999号,,,,49,,27,161,,86,86,,20,9,10,0.3,0.3
2025-09-13T1200,2514A,111.5264,24.4172,贺州市,环保小区,,29,,21,15,12,91,,34,34,6,13,14,14,0.7,0.8
2025-09-13T1200,2515A,111.5608,24.4078,贺州市,政协大楼,,26,,18,16,12,82,,33,33,5,13,11,12,0.5,0.6
2025-09-13T1200,3534A,111.4744,24.4553,贺州市,西湾,,29,29,24,14,12,91,,35,35,5,11,12,12,0.3,0.4
2025-09-13T1200,2385A,114.17,35.9019,鹤壁市,市监测站,,,,40,55,29,123,,64,64,,11,11,8,0.7,0.6
2025-09-13T1200,2386A,114.2956,35.7511,鹤壁市,市交警支队,,50,50,51,33,33,128,,55,55,12,22,2,3,0.7,0.7
2025-09-13T1200,2387A,114.2878,35.7306,鹤壁市,迎宾馆,颗粒物(PM10),59,67,43,33,24,130,,56,56,9,16,8,3,0.7,0.7
2025-09-13T1200,3474A,114.2617,35.6822,鹤壁市,大新区,细颗粒物(PM2.5),53,53,39,37,23,128,,50,50,10,14,8,6,0.7,0.6
2025-09-13T1200,3596A,114.1572,35.9603,鹤壁市,南山宾馆,,43,40,42,24,31,136,,89,89,12,12,7,8,0.7,0.6
2025-09-13T1200,2244A,130.2537,47.3416,鹤岗市,哈啤分公司,,27,12,26,9,15,85,,53,53,2,9,12,12,0.2,0.3
2025-09-13T1200,2245A,130.2684,47.3086,鹤岗市,斯达机电,,26,10,31,7,13,83,,57,57,4,10,12,12,0.3,0.4
2025-09-13T1200,2246A,130.3114,47.3388,鹤岗市,东山纸板厂,,28,,22,18,18,89,,47,47,4,16,13,13,0.3,0.9
2025-09-13T1200,2247A,130.1097,47.3382,鹤岗市,五号水库,,,,,,,,,,,,,,,,
2025-09-13T1200,2263A,127.4833,50.2524,黑河市,交通局,,25,,21,17,9,54,,29,29,9,11,6,7,0.4,0.5
2025-09-13T1200,2264A,127.5144,50.2341,黑河市,环保局,,20,20,34,3,11,58,,31,31,5,9,4,4,0.5,0.6
2025-09-13T1200,2265A,127.5291,50.2472,黑河市,大黑河岛,,,,,6,9,51,,26,26,2,2,19,20,0.2,0.4
2025-09-13T1200,1074A,115.6838,37.7541,衡水市,电机北厂,,46,42,70,24,25,147,,84,84,8,20,7,7,0.4,0.4
2025-09-13T1200,1075A,115.6303,37.7316,衡水市,市监测站,,,51,58,23,23,146,,79,79,8,24,9,9,,1.1
2025-09-13T1200,3188A,115.6683,37.7217,衡水市,市城管局,颗粒物(PM10),52,53,54,14,23,156,,97,97,6,22,9,9,0.5,0.6
2025-09-13T1200,3459A,115.5989,37.5491,衡水市,地表水厂,颗粒物(PM10),54,58,62,22,29,145,,63,63,7,32,4,7,0.3,0.4
2025-09-13T1200,2456A,112.5003,26.9167,衡阳市,原169医院,,24,24,27,8,12,71,,39,39,3,11,5,7,0.5,0.6
2025-09-13T1200,2457A,112.6194,26.9258,衡阳市,衡阳化工总厂,,27,27,26,10,15,73,,40,40,4,9,3,5,0.8,0.8
2025-09-13T1200,2458A,112.6211,26.8956,衡阳市,珠晖区环保局,,27,23,25,12,13,85,,41,41,3,10,7,10,0.6,0.6
2025-09-13T1200,2459A,112.6197,26.8733,衡阳市,市委党校,,27,27,24,12,11,83,,44,44,4,8,7,7,0.4,0.4
2025-09-13T1200,2460A,112.6006,26.8919,衡阳市,市监测站,,26,16,24,9,14,81,,44,44,4,10,5,5,0.6,0.8
2025-09-13T1200,2461A,112.5664,26.9056,衡阳市,真空机电公司,,22,,25,15,14,69,,35,35,1,11,5,13,0.8,1.3
2025-09-13T1200,3399A,112.6703,26.882,衡阳市,师范学院,,47,47,26,11,14,87,,44,44,6,9,7,4,0.7,0.8
2025-09-13T1200,2608A,103.3772,23.3993,红河哈尼族彝族自治州,污水处理厂,,22,17,17,15,12,34,,31,31,5,6,7,8,0.3,0.3
2025-09-13T1200,2609A,103.3861,23.35,红河哈尼族彝族自治州,监测站,,15,15,20,7,8,38,,33,32,2,3,10,11,0.2,0.2
2025-09-13T1200,3038A,103.3758,23.368,红河哈尼族彝族自治州,州图书馆,,19,,10,13,14,40,,37,37,5,5,3,2,0.3,0.2
2025-09-13T1200,1090A,111.6507,40.7517,呼和浩特市,呼市一监,,29,29,24,19,15,73,,80,58,10,14,8,7,0.4,0.4
2025-09-13T1200,1091A,111.6572,40.8033,呼和浩特市,小召,,41,41,27,26,15,64,,85,60,23,20,7,5,0.6,0.5
2025-09-13T1200,1094A,111.7516,40.8369,呼和浩特市,如意水处理厂,,36,36,25,20,14,74,,82,62,12,20,7,6,0.4,0.4
2025-09-13T1200,1095A,111.7276,40.8062,呼和浩特市,二十九中,,30,29,29,21,14,69,,88,65,20,18,7,7,0.6,0.6
2025-09-13T1200,1096A,111.5512,40.7866,呼和浩特市,工大金川校区,,41,41,34,28,12,67,,77,50,18,29,10,6,0.6,0.5
2025-09-13T1200,1097A,111.717,40.7612,呼和浩特市,化肥厂生活区,,35,35,26,19,15,73,,86,62,16,20,8,6,0.4,0.4
2025-09-13T1200,3698A,111.5968,40.8178,呼和浩特市,红旗小学,,31,31,23,20,12,73,,79,57,17,24,10,5,0.3,0.3
2025-09-13T1200,3699A,111.6518,40.8389,呼和浩特市,海东办,,46,46,29,22,13,81,,88,65,19,22,9,6,0.5,0.4
2025-09-13T1200,2192A,119.7594,49.2261,呼伦贝尔市,区环保局,,20,19,33,11,17,62,,22,22,6,13,6,5,0.5,0.5
2025-09-13T1200,3061A,119.7512,49.1577,呼伦贝尔市,国华电力东,,22,9,19,3,9,69,,27,27,6,9,4,4,0.2,0.2
2025-09-13T1200,1250A,120.0751,30.8669,湖州市,城西水厂,,48,41,30,33,22,72,,44,44,20,30,8,7,0.7,0.4
2025-09-13T1200,2873A,120.0830,30.8929,湖州市,仁皇山新区,,50,42,31,35,17,56,,30,30,11,26,4,4,0.9,0.5
2025-09-13T1200,2907A,120.1844,30.8596,湖州市,吴兴区站,细颗粒物(PM2.5),52,39,27,36,18,55,,37,37,14,22,9,8,1.0,0.7
2025-09-13T1200,3562A,120.4148,30.8538,湖州市,南浔区站,细颗粒物(PM2.5),57,55,30,40,23,62,,38,38,10,17,6,7,1.0,0.9
2025-09-13T1200,1607A,120.9049,40.7211,葫芦岛市,龙港区,,,41,44,3,24,112,,53,53,7,18,,6,0.4,0.6
2025-09-13T1200,1608A,120.8392,40.7514,葫芦岛市,化工街,,32,14,46,7,21,101,,54,54,11,39,8,24,0.5,0.6
2025-09-13T1200,1609A,120.8341,40.7073,葫芦岛市,新区,,33,,39,3,25,105,,58,58,6,35,5,5,0.5,0.7
2025-09-13T1200,1610A,120.8695,40.7677,葫芦岛市,东城区,,34,29,50,3,26,106,,64,64,11,35,5,33,0.5,0.7
2025-09-13T1200,2482A,109.5981,27.5721,怀化市,林科所,,18,15,17,3,5,57,,45,45,5,8,4,4,0.6,0.7
2025-09-13T1200,2483A,109.9453,27.5444,怀化市,河西地税局,,16,14,16,6,10,50,,41,41,3,7,4,5,0.2,0.3
2025-09-13T1200,2484A,109.9781,27.5342,怀化市,市四医院,,23,23,24,10,12,56,,42,42,2,9,6,7,0.7,0.5
2025-09-13T1200,2485A,109.9972,27.5578,怀化市,监测楼,,,20,22,13,11,61,,50,50,3,9,,4,0,0
2025-09-13T1200,2486A,110.0394,27.583,怀化市,市委党校,,18,17,20,10,12,56,,40,40,5,11,4,5,0.3,0.3
2025-09-13T1200,1210A,119.036,33.5981,淮安市,钵池山,,24,14,15,13,14,74,,61,61,8,10,7,6,0.7,0.8
2025-09-13T1200,1211A,119.007,33.575,淮安市,北京南路,,22,14,18,10,17,68,,58,58,12,10,7,7,0.7,0.7
2025-09-13T1200,1212A,118.989,33.6067,淮安市,市监测站,,25,19,21,17,17,68,,58,58,14,14,10,9,0.4,0.4
2025-09-13T1200,1213A,119.135,33.5039,淮安市,楚州区监测站,,27,27,31,14,16,67,,60,60,16,13,8,7,0.6,0.7
2025-09-13T1200,3426A,118.8755,33.2894,淮安市,新华书店,,23,16,18,16,16,67,,64,64,7,8,6,6,0.7,0.7
2025-09-13T1200,4206A,119.0288,33.6319,淮安市,承德北路606号,,22,22,25,13,16,66,,55,55,8,11,9,7,0.4,0.4
2025-09-13T1200,2282A,116.8004,33.975,淮北市,监测站,,,55,18,42,15,94,,50,50,27,16,9,7,,1
2025-09-13T1200,2283A,116.8091,33.9007,淮北市,烈山区政府,颗粒物(PM10),59,68,35,26,12,95,,47,47,13,14,10,8,0.6,0.6
2025-09-13T1200,3330A,116.8873,33.9836,淮北市,杜集区检察院,"颗粒物(PM10),细颗粒物(PM2.5)",52,53,20,36,21,97,,49,49,4,4,10,9,0.8,0.7
2025-09-13T1200,4017A,116.7923,33.9535,淮北市,市博物馆,颗粒物(PM10),56,62,26,34,20,100,,44,44,21,18,9,7,0.7,0.6
2025-09-13T1200,2277A,116.8305,32.7727,淮南市,潘集区政府,,25,20,18,16,12,80,,53,53,8,9,2,2,0.3,0.3
2025-09-13T1200,2279A,116.8569,32.5951,淮南市,谢家集区政府,,20,,6,9,9,63,,56,54,6,5,6,6,0.3,0.3
2025-09-13T1200,2280A,116.8281,32.633,淮南市,八公山区政府,,23,15,15,12,11,72,,58,58,6,5,5,6,0.3,0.2
2025-09-13T1200,2281A,116.6325,32.6201,淮南市,焦岗湖风景区管理处,,,,,,,,,,,,,,,,
2025-09-13T1200,2894A,117.0566,32.6531,淮南市,经济技术开发区消防队,,25,14,14,3,5,77,,59,58,7,9,8,8,0.2,0.2
2025-09-13T1200,3329A,117.0108,32.5893,淮南市,山南新区,,24,,10,9,6,76,,65,64,16,10,4,4,0.3,0.3
2025-09-13T1200,4209A,117.0031,32.6445,淮南市,国庆中路369号,,24,16,21,14,16,75,,62,60,7,7,5,5,0.4,0.3
2025-09-13T1200,2446A,114.9028,30.4742,黄冈市,职工中心,,21,21,13,10,9,42,,42,39,13,9,5,5,0.6,0.5
2025-09-13T1200,2929A,114.8858,30.4519,黄冈市,红卫路,,28,,15,19,11,43,,38,36,16,11,4,5,0.5,0.5
2025-09-13T1200,3398A,114.9136,30.4445,黄冈市,市林业局,,18,18,17,9,10,41,,38,37,15,10,5,5,0.4,0.4
2025-09-13T1200,2672A,102.0199,35.5102,黄南藏族自治州,同仁县隆务镇,,29,26,33,20,13,76,,62,62,12,7,10,9,0.3,0.2
2025-09-13T1200,2295A,118.2903,29.6963,黄山市,延安路89号,,35,35,25,17,7,81,,31,31,2,8,5,4,0.5,0.5
2025-09-13T1200,2297A,118.1371,30.2756,黄山市,黄山区政府5号楼,,21,13,21,12,9,66,,28,28,2,3,4,4,0.4,0.4
2025-09-13T1200,4210A,118.3354,29.7203,黄山市,滨江东路7-2号,,26,25,27,11,8,81,,31,31,3,7,3,2,0.3,0.4
2025-09-13T1200,2423A,115.0601,30.2313,黄石市,沈家营,,,,46,,10,,,53,,,10,,6,,0.7
2025-09-13T1200,2426A,114.8988,30.2019,黄石市,铁山,,36,36,31,21,10,38,,25,25,14,12,4,4,0.3,0.3
2025-09-13T1200,2427A,115.0307,30.2092,黄石市,团城山,,34,34,39,13,13,30,,,,11,14,8,9,0.9,0.9
2025-09-13T1200,3149A,115.0235,30.1578,黄石市,笔架山北路,,35,35,27,17,7,34,,27,27,8,9,9,8,0.9,0.8
2025-09-13T1200,4185A,115.0780,30.21118,黄石市,磁湖东路29号,,35,35,49,12,13,28,,32,32,15,14,7,8,0.5,0.6
2025-09-13T1200,1392A,114.4183,23.0528,惠州市,河南岸金山湖子站,,28,16,19,13,10,88,,36,36,7,11,8,8,0.4,0.4
2025-09-13T1200,1393A,114.4053,23.0822,惠州市,下埔横江三路子站,,30,18,18,9,9,93,,46,46,6,10,6,6,0.6,0.5
2025-09-13T1200,1394A,114.4103,23.1142,惠州市,江北云山西路子站,,,18,17,12,9,107,,53,53,8,13,,9,,0.5
2025-09-13T1200,1395A,114.4645,22.7833,惠州市,惠阳区承修路船湖子站,,24,15,13,8,7,74,,34,34,7,11,7,7,0.4,0.5
2025-09-13T1200,1396A,114.5317,22.7422,惠州市,大亚湾管委会子站,,21,16,15,6,7,67,,32,32,7,10,8,8,0.4,0.4
2025-09-13T1200,3314A,114.4338,22.8134,惠州市,惠阳秋长,,30,17,20,10,8,93,,38,38,7,15,8,10,0.4,0.5
2025-09-13T1200,3452A,114.6517,22.775,惠州市,大亚湾霞涌,,20,18,13,8,7,64,,36,36,7,10,8,7,0.4,0.4
2025-09-13T1200,2240A,130.9762,45.3001,鸡西市,环保局,,,,49,,22,,,74,,,19,,6,,0.8
2025-09-13T1200,2243A,130.9429,45.3039,鸡西市,第一中学,,48,48,39,25,17,89,,54,54,13,10,13,9,0.8,0.7
2025-09-13T1200,3707A,131.0207,45.3073,鸡西市,欧美日汽修厂,,45,45,65,24,24,96,,38,38,9,22,10,9,0.9,0.9
2025-09-13T1200,3709A,130.9967,45.3106,鸡西市,市政设施管理处,颗粒物(PM10),55,59,63,35,27,104,,42,42,12,27,13,9,0.8,0.9
2025-09-13T1200,2367A,114.9754,27.0803,吉安市,红声器材厂,,30,30,25,16,11,93,,52,52,4,6,8,9,0.3,0.3
2025-09-13T1200,2368A,114.9658,27.0999,吉安市,市森林工业局,,30,29,25,10,11,94,,48,48,4,7,9,9,0.5,0.4
2025-09-13T1200,2369A,114.99,27.1312,吉安市,市环境监测站,,35,20,21,13,9,109,,55,55,2,4,12,13,0.5,0.5
2025-09-13T1200,2370A,115.0093,27.0968,吉安市,青原区法院,,31,25,23,16,10,99,,50,50,4,6,9,11,0.4,0.3
2025-09-13T1200,1772A,126.54,43.8622,吉林市,哈达湾,,,,47,26,25,136,,61,61,,20,12,10,0.4,0.5
2025-09-13T1200,1773A,126.5844,43.8358,吉林市,东局子,,41,25,51,17,26,130,,61,61,7,20,8,6,0.8,0.9
2025-09-13T1200,1774A,126.5052,43.8245,吉林市,电力学院,,42,22,48,17,23,134,,59,59,6,16,7,7,0.7,0.7
2025-09-13T1200,1775A,126.6133,43.8972,吉林市,江北,,44,35,37,11,20,139,,63,63,6,18,8,8,0.8,0.9
2025-09-13T1200,1776A,126.555,43.8306,吉林市,江南公园,,41,32,41,25,23,130,,57,57,8,17,4,4,1.0,0.6
2025-09-13T1200,1778A,126.7061,43.7133,吉林市,丰满,,48,21,23,18,18,153,,93,93,8,5,7,6,1.2,1.1
2025-09-13T1200,2868A,126.4739,43.953,吉林市,九站,,49,43,49,20,25,155,,59,59,8,27,8,10,0.5,0.6
2025-09-13T1200,1299A,116.9862,36.6114,济南市,科干所,,46,46,58,20,33,134,,63,63,10,28,9,10,0.5,0.7
2025-09-13T1200,1300A,116.9376,36.665,济南市,农科所,,44,42,53,20,27,140,,56,56,14,27,11,11,0.5,0.7
2025-09-13T1200,1301A,117.1265,36.6734,济南市,开发区,,48,37,59,29,35,153,,78,78,15,27,10,11,0.7,0.8
2025-09-13T1200,1303A,117.0624,36.6868,济南市,省种子仓库,,,58,75,31,35,161,,79,79,,27,8,10,,0.8
2025-09-13T1200,1304A,116.9489,36.6447,济南市,机床二厂,,44,44,69,20,36,139,,59,59,10,28,11,13,0.2,0.4
2025-09-13T1200,1305A,117.0495,36.663,济南市,市监测站,颗粒物(PM10),51,51,64,27,36,145,,69,69,17,29,4,6,0.8,0.9
2025-09-13T1200,1306A,116.7675,36.5484,济南市,长清党校,,44,42,60,15,31,140,,51,51,13,30,8,9,0.6,0.7
2025-09-13T1200,1616A,117.6795,36.229,济南市,技术学院,,43,22,28,19,23,136,,58,58,10,26,11,10,0.7,0.7
2025-09-13T1200,1961A,117.532,36.6868,济南市,东山小学,,46,34,57,20,27,147,,65,65,11,30,10,8,0.5,0.6
2025-09-13T1200,3059A,117.7161,36.2049,济南市,泰兴公司,,40,29,27,22,16,127,,42,42,9,26,13,11,0.6,0.6
2025-09-13T1200,3064A,117.6867,36.2171,济南市,莱芜战役纪念馆,,42,31,32,20,23,132,,47,47,12,29,8,8,0.7,0.7
2025-09-13T1200,3494A,117.1673,36.9782,济南市,济阳区政府,颗粒物(PM10),55,59,74,24,37,158,,71,71,16,30,12,11,0.5,0.5
2025-09-13T1200,3495A,117.1171,36.63,济南市,锦屏中学,,42,32,50,17,25,132,,68,68,10,23,12,12,0.8,1
2025-09-13T1200,3682A,116.9814,36.6819,济南市,济南四建,,49,41,61,29,34,155,,63,63,11,29,9,9,0.6,0.8
2025-09-13T1200,1653A,116.6251,35.4302,济宁市,火炬城,,44,,34,27,17,140,,61,61,6,13,7,5,0.3,0.4
2025-09-13T1200,1655A,116.5491,35.4042,济宁市,电化厂,,50,50,37,34,19,149,,55,55,8,21,4,3,0.5,0.4
2025-09-13T1200,3500A,116.5814,35.3707,济宁市,北湖一中,细颗粒物(PM2.5),53,45,30,37,20,122,,56,56,16,14,7,5,0.5,0.4
2025-09-13T1200,3501A,116.8249,35.5593,济宁市,服务中心,,41,41,22,15,8,119,,40,40,17,18,6,4,0.4,0.4
2025-09-13T1200,3678A,116.5907,35.4054,济宁市,市第七中学,颗粒物(PM10),62,74,43,27,14,134,,65,65,11,15,8,5,0.5,0.4
2025-09-13T1200,2255A,130.2751,46.8028,佳木斯市,佳纺,,23,17,34,12,19,73,,41,41,6,11,6,6,0.5,0.7
2025-09-13T1200,2256A,130.3995,46.8307,佳木斯市,发电厂,,,10,28,8,20,66,,45,45,,10,8,7,0.4,0.6
2025-09-13T1200,2257A,130.3258,46.7975,佳木斯市,环保局,,26,12,31,12,22,82,,46,46,5,11,7,8,0.4,0.6
2025-09-13T1200,2258A,130.3648,46.8032,佳木斯市,十一中,,23,18,34,10,23,71,,45,45,6,14,8,8,0.3,0.6
2025-09-13T1200,2259A,130.3794,46.7588,佳木斯市,四丰,,,12,18,3,8,11,,3,3,8,9,,65,0.3,0.4
2025-09-13T1200,1252A,120.7436,30.778,嘉兴市,清河小学,颗粒物(PM10),52,54,42,27,22,102,,44,44,11,25,6,6,0.6,0.5
2025-09-13T1200,1253A,120.726,30.7478,嘉兴市,嘉兴学院,,45,45,37,30,25,106,,46,46,9,27,4,4,0.6,0.6
2025-09-13T1200,2872A,120.7846,30.7525,嘉兴市,南湖区残联,,48,42,35,33,28,112,,48,48,10,23,5,6,0.8,0.7
2025-09-13T1200,3407A,120.6916,30.7739,嘉兴市,秀洲住建,,49,44,36,34,21,109,,49,49,9,31,6,6,0.7,0.7
2025-09-13T1200,1945A,98.2908,39.7711,嘉峪关市,气象局,,,117,125,,20,100,,84,84,8,13,3,10,0.4,0.7
2025-09-13T1200,2884A,98.2672,39.7978,嘉峪关市,酒钢宾馆,颗粒物(PM10),84,117,129,31,23,105,,91,88,6,11,13,26,0.6,0.6
2025-09-13T1200,3248A,98.2643,39.7724,嘉峪关市,雄关区,颗粒物(PM10),70,90,95,20,22,96,,73,72,12,18,10,16,0.4,0.5
2025-09-13T1200,1383A,113.1064,22.6058,江门市,北街,,26,22,18,11,10,83,,42,42,6,8,5,4,0.4,0.4
2025-09-13T1200,1384A,113.0731,22.5835,江门市,西区,,25,,20,7,8,80,,38,38,6,12,8,8,0.5,0.5
2025-09-13T1200,1385A,113.0219,22.5311,江门市,圭峰西,,34,34,18,10,10,77,,40,40,5,9,4,4,0.5,0.5
2025-09-13T1200,1386A,113.0828,22.5947,江门市,东湖,,23,16,17,11,9,71,,34,34,8,11,7,6,0.4,0.5
2025-09-13T1200,3311A,113.1075,22.5647,江门市,江海富民,,26,23,25,11,7,82,,42,42,12,15,5,5,0.3,0.4
2025-09-13T1200,3449A,113.05,22.4667,江门市,新会银湖,,27,27,22,7,11,67,,27,27,6,12,3,3,0.4,0.5
2025-09-13T1200,1830A,113.1992,35.2590,焦作市,影视城,,,,48,,25,,,93,,,11,,10,,0.5
2025-09-13T1200,3335A,113.3137,35.2641,焦作市,马村街道办,,40,33,45,28,38,119,,61,61,11,11,4,3,0.6,0.5
2025-09-13T1200,3336A,113.2465,35.2373,焦作市,焦作技师学院,,50,50,60,22,30,108,,49,49,5,15,6,6,0.6,0.6
2025-09-13T1200,3477A,113.1656,35.2539,焦作市,中站许衡医院,,50,45,51,35,39,118,,73,73,14,14,10,8,0.9,0.8
2025-09-13T1200,3981A,113.2449,35.1803,焦作市,原李万街道办,,46,46,50,17,26,122,,57,57,11,22,9,10,0.6,0.5
2025-09-13T1200,4264A,113.2340,35.2190,焦作市,新安路1731号,,46,46,53,23,27,121,,56,56,4,15,6,6,0.6,0.5
2025-09-13T1200,4295A,113.2722,35.2121,焦作市,人民路3066号,,47,47,59,16,19,126,,62,62,9,19,4,4,0.5,0.4
2025-09-13T1200,1708A,116.3701,23.5345,揭阳市,新兴,,30,30,22,12,14,73,,41,41,4,9,6,6,0.4,0.5
2025-09-13T1200,1709A,116.3264,23.5443,揭阳市,西马,,18,12,24,9,13,57,,33,33,4,9,3,3,0.5,0.5
2025-09-13T1200,1710A,116.3611,23.5626,揭阳市,东兴,,20,20,22,10,12,63,,38,38,4,9,6,6,0.5,0.6
2025-09-13T1200,1711A,116.4151,23.5294,揭阳市,渔湖,,36,36,22,3,11,86,,50,50,2,5,4,5,0.4,0.5
2025-09-13T1200,3320A,116.403,23.5699,揭阳市,曲溪,,28,15,22,11,11,87,,52,52,2,8,6,7,0.3,0.4
2025-09-13T1200,1944A,102.1692,38.5167,金昌市,天庆家园,颗粒物(PM10),442,542,348,138,90,77,,89,85,12,7,13,4,0.2,0.2
2025-09-13T1200,4022A,102.1647,38.5371,金昌市,金川区人防中心,颗粒物(PM10),458,558,269,148,71,71,,83,79,14,9,22,11,0.5,0.5
2025-09-13T1200,4239A,102.1930,38.5319,金昌市,长春路96号,颗粒物(PM10),456,556,217,129,78,78,,84,81,10,5,39,10,0.6,0.6
2025-09-13T1200,1262A,119.647,29.077,金华市,十五中,,40,35,28,16,14,126,,72,72,7,15,3,3,0.5,0.5
2025-09-13T1200,1263A,119.686,29.1029,金华市,监测站,,37,28,28,15,13,117,,50,50,7,15,4,5,0.5,0.6
2025-09-13T1200,3659A,119.656,29.1131,金华市,气象局,,37,34,26,13,10,118,,48,48,7,19,4,4,0.4,0.5
2025-09-13T1200,1767A,121.1115,41.0879,锦州市,南山,,40,39,48,18,32,125,,54,54,8,28,8,10,0.6,0.8
2025-09-13T1200,1768A,121.0604,40.8428,锦州市,开发区,,35,28,69,12,30,110,,58,58,12,48,7,22,0.5,0.9
2025-09-13T1200,1769A,121.1836,41.1119,锦州市,百股街道,,41,41,38,14,22,126,,56,56,6,20,3,8,0.5,0.7
2025-09-13T1200,1770A,121.1178,41.1222,锦州市,天安街道,,49,49,54,21,36,138,,59,59,9,31,11,14,0.7,0.9
2025-09-13T1200,1771A,121.1303,41.1386,锦州市,北湖公园,颗粒物(PM10),53,56,45,15,24,126,,60,60,8,19,8,10,0.7,0.8
2025-09-13T1200,2160A,112.85,35.5051,晋城市,自来水公司,细颗粒物(PM2.5),52,50,59,36,38,101,,71,71,14,13,3,3,1.3,0.9
2025-09-13T1200,2161A,112.8318,35.4936,晋城市,白云商贸,颗粒物(PM10),57,64,59,29,36,108,,78,78,11,12,3,3,1.2,0.8
2025-09-13T1200,2162A,112.8508,35.4887,晋城市,市环保局,颗粒物(PM10),60,70,60,34,33,95,,68,68,11,9,4,3,1.1,0.6
2025-09-13T1200,2163A,112.8676,35.4897,晋城市,技术学院,,42,42,48,27,28,100,,70,70,11,11,4,4,1.1,0.8
2025-09-13T1200,2165A,112.8453,35.546,晋城市,白马寺,细颗粒物(PM2.5),59,48,45,42,42,105,,83,83,4,6,6,7,1.0,0.8
2025-09-13T1200,3620A,112.8271,35.4828,晋城市,泽州一中,颗粒物(PM10),64,77,55,36,33,103,,77,77,8,10,3,2,1.3,0.9
2025-09-13T1200,2173A,112.7249,37.7067,晋中市,南都小区,细颗粒物(PM2.5),64,56,45,46,29,105,,49,49,12,17,8,9,1.0,0.7
2025-09-13T1200,2174A,112.6991,37.6982,晋中市,榆次区政府,细颗粒物(PM2.5),69,63,43,50,26,103,,42,42,13,21,9,9,0.8,0.7
2025-09-13T1200,2865A,112.7195,37.6828,晋中市,榆次三中,细颗粒物(PM2.5),55,53,40,39,19,109,,38,38,6,18,9,9,0.8,0.5
2025-09-13T1200,4200A,112.7478,37.6954,晋中市,迎宾街26号,颗粒物(PM10),54,58,34,31,18,111,,42,42,10,18,7,6,0.9,0.6
2025-09-13T1200,2439A,112.2014,31.0481,荆门市,竹园小学,细颗粒物(PM2.5),60,,18,43,14,67,,73,64,13,11,3,4,0.4,0.3
2025-09-13T1200,2440A,112.1969,30.9891,荆门市,掇刀,,42,32,18,29,13,64,,77,67,11,7,1,1,0.6,0.4
2025-09-13T1200,2441A,112.2213,31.0386,荆门市,石化一小,,42,36,20,29,10,58,,65,54,13,11,4,5,0.4,0.4
2025-09-13T1200,3012A,112.1849,31.0362,荆门市,西山林语,,40,31,16,28,10,60,,76,64,11,6,1,2,0.4,0.3
2025-09-13T1200,3547A,112.1632,31.0138,荆门市,龙泉中学南校,,35,24,14,24,11,63,,73,66,16,9,3,2,0.4,0.4
2025-09-13T1200,1844A,112.2494,30.3197,荆州市,市图书馆,,20,,14,13,9,62,,57,57,12,10,4,4,0.5,0.5
2025-09-13T1200,1845A,112.2008,30.3544,荆州市,市委党校,,20,16,16,11,9,61,,53,53,8,9,6,6,0.5,0.5
2025-09-13T1200,3194A,112.2747,30.3122,荆州市,管委会,,25,,14,17,14,60,,51,51,9,9,1,1,0.5,0.5
2025-09-13T1200,4268A,112.1722,30.3366,荆州市,学苑路85号,,23,,20,16,13,70,,60,60,4,8,4,4,0.5,0.4
2025-09-13T1200,2342A,117.3102,29.3867,景德镇市,王港中学,,,,,,,,,,,,,,,,
2025-09-13T1200,2343A,117.2117,29.2933,景德镇市,老干部活动中心,,37,30,25,22,16,118,,46,46,9,16,11,8,0.1,0.2
2025-09-13T1200,2344A,117.1894,29.2789,景德镇市,兽医站,,36,34,32,17,14,114,,46,46,7,11,9,7,0.8,0.7
2025-09-13T1200,2346A,117.2461,29.2956,景德镇市,陶研所,,37,34,27,18,18,117,,48,48,14,9,13,6,0.8,0.6
2025-09-13T1200,4289A,117.1542,29.2566,景德镇市,青少年活动中心,,35,32,31,15,19,111,,45,45,10,17,15,17,0.7,0.8
2025-09-13T1200,1803A,115.9872,29.6815,九江市,十里,,33,,23,23,23,34,,44,41,13,20,4,6,0.7,0.7
2025-09-13T1200,1804A,115.9584,29.7046,九江市,茅山头,,,,31,10,19,24,,39,36,10,16,,4,0.5,0.6
2025-09-13T1200,1805A,115.9877,29.7295,九江市,西园,,33,33,29,18,17,38,,47,40,16,25,4,9,0.8,0.8
2025-09-13T1200,1808A,115.9114,29.6038,九江市,综合工业园,,,19,34,10,16,36,,37,37,19,29,,7,0.9,1
2025-09-13T1200,1809A,116.0721,29.7535,九江市,石化总厂,,34,34,36,8,23,48,,49,38,9,24,4,5,0.6,0.7
2025-09-13T1200,1810A,115.9773,29.5698,九江市,庐山气象台,,,,,,,,,,,,3,,6,,0.6
2025-09-13T1200,3190A,116.0254,29.6994,九江市,外国语学校,,30,30,27,19,21,32,,49,39,13,20,4,5,0.8,0.8
2025-09-13T1200,4253A,116.0102,29.6594,九江市,莲花大道8号,,21,21,30,14,13,21,,35,33,17,13,4,5,0.7,0.6
2025-09-13T1200,4240A,98.4958,39.7339,酒泉市,玉门东路5号,颗粒物(PM10),75,100,107,30,32,93,,70,62,8,11,48,21,0.2,0.3
2025-09-13T1200,4241A,98.5099,39.7506,酒泉市,北大街108号,颗粒物(PM10),69,88,93,25,26,94,,68,68,2,8,36,33,0.2,0.3
2025-09-13T1200,2698A,76.0072,39.4467,喀什地区,巡警大队,颗粒物(PM10),163,275,238,89,83,80,,42,42,22,37,9,7,0.4,0.5
2025-09-13T1200,2699A,75.9755,39.4694,喀什地区,吾办,颗粒物(PM10),157,264,238,98,97,79,,33,33,15,38,14,9,0.4,0.6
2025-09-13T1200,4027A,75.9483,39.4689,喀什地区,老干局,颗粒物(PM10),149,248,200,69,58,48,,46,45,28,29,6,4,0.4,0.4
2025-09-13T1200,1824A,114.3389,34.7781,开封市,肿瘤医院,,48,48,49,24,28,138,,54,54,12,29,5,4,0.6,0.7
2025-09-13T1200,1826A,114.2885,34.7965,开封市,世纪星幼儿园,,47,45,40,22,28,150,,65,65,8,23,6,4,0.8,0.8
2025-09-13T1200,3147A,114.3438,34.8106,开封市,龙亭公园,,48,48,42,23,22,141,,66,66,6,18,7,7,0.7,0.8
2025-09-13T1200,3210A,114.3644,34.7964,开封市,汴京公园,,49,49,46,26,30,140,,56,56,8,19,6,6,0.7,0.8
2025-09-13T1200,3473A,114.2485,34.8306,开封市,技师学院,,49,49,35,13,25,135,,66,66,6,17,7,6,0.8,0.8
2025-09-13T1200,3592A,114.4644,34.7556,开封市,祥符区生态环境局,,47,47,48,23,27,123,,49,49,6,31,4,4,0.7,0.7
2025-09-13T1200,1951A,84.895,45.6094,克拉玛依市,长征新村,,22,18,24,15,11,61,,60,54,6,11,2,3,0.2,0.2
2025-09-13T1200,1952A,84.8988,45.5893,克拉玛依市,南林小区,,19,18,26,10,8,58,,61,55,8,13,5,6,0.1,0.2
2025-09-13T1200,1954A,84.905,44.3396,克拉玛依市,独山子区,颗粒物(PM10),55,60,38,16,10,41,,52,41,29,13,7,6,0.5,0.4
2025-09-13T1200,1955A,85.6979,46.098,克拉玛依市,乌尔禾区商贸楼,,20,18,16,3,7,62,,48,40,4,6,3,3,0.1,0.1
2025-09-13T1200,3612A,85.1045,45.6899,克拉玛依市,白碱滩区新站,,33,33,34,9,9,76,,76,73,2,4,5,5,0.1,0.1
2025-09-13T1200,2697A,76.1454,39.7142,克孜勒苏柯尔克孜自治州,市人民政府,颗粒物(PM10),159,268,226,101,82,78,,80,74,13,12,76,19,0.2,0.1
2025-09-13T1200,3665A,76.1658,39.7157,克孜勒苏柯尔克孜自治州,克州文化中心,颗粒物(PM10),161,272,234,97,82,83,,66,64,11,17,48,19,0.3,0.2
2025-09-13T1200,1450A,102.8204,24.8886,昆明市,呈贡新区,,12,6,9,3,8,37,,21,21,17,17,1,3,0.5,0.4
2025-09-13T1200,1451A,102.6251,24.9608,昆明市,西山森林公园,,,,,,,,,,,,,,,,
2025-09-13T1200,1452A,102.7252,25.0902,昆明市,龙泉镇,,12,8,14,3,6,37,,32,32,16,14,1,2,0.4,0.4
2025-09-13T1200,1453A,102.7266,25.0375,昆明市,东风东路,,19,19,14,8,7,38,,36,36,22,13,2,3,0.4,0.3
2025-09-13T1200,1454A,102.6742,25.0669,昆明市,金鼎山,,14,13,24,3,6,44,,24,24,10,14,1,3,0.3,0.3
2025-09-13T1200,1455A,102.6644,25.0401,昆明市,碧鸡广场,,15,11,18,10,9,41,,25,25,17,18,6,9,0.5,0.5
2025-09-13T1200,3179A,102.7494,25.0119,昆明市,官渡区博物馆,,12,10,10,8,6,37,,30,30,21,12,1,1,0.4,0.3
2025-09-13T1200,3375A,102.8017,24.8336,昆明市,青年创业园,,15,15,19,9,6,38,,18,18,6,11,1,2,0.4,0.3
2025-09-13T1200,3550A,102.7997,24.9786,昆明市,昆明学院,,15,15,11,10,6,34,,31,31,23,12,7,7,0.5,0.4
2025-09-13T1200,3551A,102.5967,24.6736,昆明市,晋宁区生态环境分局,,15,12,14,3,7,47,,28,28,4,9,2,2,0.3,0.4
2025-09-13T1200,3552A,102.6678,24.9856,昆明市,云天化总部,,15,15,12,9,6,37,,30,30,23,12,4,6,0.7,0.6
2025-09-13T1200,1456A,91.1319,29.6514,拉萨市,八廓街,,27,16,13,7,8,84,,53,53,9,14,8,7,0.2,0.3
2025-09-13T1200,1457A,91.1221,29.6747,拉萨市,市环保局,,27,17,17,8,8,86,,39,39,12,16,10,7,0.5,0.5
2025-09-13T1200,1458A,91.0874,29.6475,拉萨市,区监测站,,25,11,14,8,8,78,,39,39,15,27,6,5,0.4,0.4
2025-09-13T1200,1459A,91.1774,29.6541,拉萨市,西藏大学,,26,6,11,6,7,83,,54,54,11,15,9,7,0.2,0.2
2025-09-13T1200,1460A,90.9798,29.6588,拉萨市,区辐射站,,27,27,19,12,8,63,,41,34,21,19,8,9,0.4,0.3
2025-09-13T1200,1461A,91.0834,29.6292,拉萨市,拉萨火车站,,23,9,14,6,7,73,,37,37,16,22,8,6,0.5,0.5
2025-09-13T1200,2520A,109.2203,23.7256,来宾市,来宾技工学校,,30,30,28,11,11,72,,24,24,5,14,11,11,0.7,0.7
2025-09-13T1200,3535A,109.1781,23.7297,来宾市,兴宾区政府,,29,,16,20,8,69,,28,28,5,9,9,8,0.6,0.6
2025-09-13T1200,4002A,109.2416,23.7461,来宾市,中南小学,,25,25,29,8,9,75,,24,24,5,14,12,11,0.6,0.6
2025-09-13T1200,1477A,104.1373,35.9454,兰州市,榆中兰大校区,,,,,,,,,,,,,,,,
2025-09-13T1200,1479A,103.831,36.0464,兰州市,铁路设计院,颗粒物(PM10),60,69,59,35,30,100,,32,32,20,52,24,15,0.6,0.7
2025-09-13T1200,3241A,103.7439,36.0842,兰州市,百合公园,颗粒物(PM10),56,62,60,21,19,106,,34,34,22,35,33,10,1.0,0.5
2025-09-13T1200,3242A,103.9611,35.998,兰州市,和平,,,125,55,,21,77,,,,13,13,19,10,0.4,0.2
2025-09-13T1200,4236A,103.6293,36.0938,兰州市,庄浪东路808号,颗粒物(PM10),59,67,60,31,26,107,,40,40,20,44,38,24,0.6,0.4
2025-09-13T1200,4237A,103.7251,36.1043,兰州市,安宁西路88号,颗粒物(PM10),63,75,66,33,30,137,,48,48,21,33,36,13,0.8,0.4
2025-09-13T1200,4238A,103.8470,36.0676,兰州市,北滨河东路1号,颗粒物(PM10),53,56,57,27,26,108,,32,32,13,49,23,13,0.4,0.6
2025-09-13T1200,3245A,103.6633,36.533,兰州新区,新区管委会,颗粒物(PM10),122,194,49,80,26,110,,74,74,4,11,2,4,0.2,0.2
2025-09-13T1200,3246A,103.6975,36.4789,兰州新区,舟曲中学,颗粒物(PM10),124,198,58,76,24,98,,54,54,7,21,6,15,0.2,0.3
2025-09-13T1200,1067A,116.6708,39.5111,廊坊市,药材公司,颗粒物(PM10),55,59,71,34,38,150,,57,57,15,35,8,6,0.5,0.5
2025-09-13T1200,1068A,116.7214,39.5589,廊坊市,开发区,颗粒物(PM10),55,60,79,27,42,149,,63,63,13,24,4,3,0.5,0.5
2025-09-13T1200,1070A,116.7244,39.5269,廊坊市,北华航天学院,颗粒物(PM10),53,56,67,28,39,155,,67,67,9,26,7,6,0.4,0.5
2025-09-13T1200,2919A,116.7022,39.5453,廊坊市,河北工业大学,,48,43,59,33,38,152,,75,75,11,25,6,4,0.5,0.5
2025-09-13T1200,2535A,103.7723,29.5462,乐山市,花湖湾,,22,18,16,11,11,68,,16,16,15,20,6,6,0.7,0.7
2025-09-13T1200,2536A,103.7627,29.5844,乐山市,牛耳桥,,28,20,19,12,10,87,,20,20,11,20,8,7,0.7,0.8
2025-09-13T1200,2537A,103.7508,29.6006,乐山市,市第三水厂,,24,24,21,14,13,75,,20,20,13,22,6,5,0.8,0.8
2025-09-13T1200,2538A,103.7571,29.5664,乐山市,市监测站,,26,21,21,12,11,82,,22,22,10,16,8,8,0.9,1
2025-09-13T1200,3361A,103.7311,29.5628,乐山市,理工大学,,25,25,20,13,10,79,,20,20,17,18,6,7,1.1,1
2025-09-13T1200,2598A,100.2143,26.8576,丽江市,西南郊,,21,10,9,3,3,66,,50,50,4,5,6,6,0.6,0.6
2025-09-13T1200,2599A,100.2497,26.8802,丽江市,丽江古城,,20,19,19,6,6,61,,49,45,9,10,9,10,0.5,0.5
2025-09-13T1200,2600A,100.2203,26.8906,丽江市,市中心,,22,22,11,3,10,63,,48,45,9,13,10,10,0.5,0.5
2025-09-13T1200,1267A,119.914,28.4514,丽水市,监测站大楼,,42,34,22,12,9,133,,46,46,11,12,6,5,0.4,0.4
2025-09-13T1200,1268A,119.93,28.4586,丽水市,莲都小学,,38,36,25,13,11,120,,44,44,9,16,4,4,0.4,0.4
2025-09-13T1200,1269A,119.879,28.4231,丽水市,余庄前,,36,26,26,11,12,114,,39,39,10,12,4,5,0.5,0.5
2025-09-13T1200,1173A,119.176,34.5885,连云港市,市环境监测站,,39,34,17,27,12,57,,45,45,20,19,5,5,0.9,0.7
2025-09-13T1200,3000A,119.3581,34.6972,连云港市,德源药业,,29,29,14,19,10,56,,32,31,28,22,6,5,0.8,0.7
2025-09-13T1200,3007A,119.178,34.844,连云港市,新城一中,,24,23,19,16,12,76,,48,48,24,17,13,5,1.8,0.7
2025-09-13T1200,3008A,119.3608,34.7519,连云港市,胡沟管理处,,22,17,12,7,6,70,,52,52,11,13,6,6,1.1,1
2025-09-13T1200,3009A,119.1478,34.5911,连云港市,矿山设计院,,39,36,15,27,14,50,,41,41,22,17,7,7,1.0,0.8
2025-09-13T1200,3434A,119.2413,34.6539,连云港市,工贸学校,,38,38,17,22,14,46,,43,35,23,15,8,7,1.1,0.9
2025-09-13T1200,3664A,119.4172,34.7341,连云港市,连云街道,,21,15,17,9,10,66,,59,52,20,18,7,6,0.6,0.7
2025-09-13T1200,2571A,102.3431,27.8099,凉山彝族自治州,青龙寺,,15,13,10,6,2,47,,16,16,4,4,4,3,0.5,0.4
2025-09-13T1200,2572A,102.2721,27.8415,凉山彝族自治州,邛海宾馆,,21,21,13,8,6,49,,22,22,5,10,8,7,0.5,0.5
2025-09-13T1200,2573A,102.2625,27.898,凉山彝族自治州,西昌市政府,,20,14,14,14,6,51,,29,29,8,9,32,29,0.5,0.6
2025-09-13T1200,2574A,102.2685,27.8851,凉山彝族自治州,凉山州政府,,22,22,11,12,9,51,,28,28,6,8,7,8,0.8,0.9
2025-09-13T1200,4229A,102.2342,27.8859,凉山彝族自治州,凯乐南路30号,,18,18,13,3,7,57,,27,27,9,14,8,6,0.6,0.6
2025-09-13T1200,2212A,123.2,41.1953,辽阳市,宏伟区,,45,45,44,8,18,112,,61,61,7,15,5,4,0.6,0.7
2025-09-13T1200,2213A,123.1683,41.2495,辽阳市,新华园,,48,43,53,18,22,151,,59,59,14,28,10,6,0.6,0.6
2025-09-13T1200,2214A,123.2354,41.2639,辽阳市,滨河路,,38,33,50,20,22,121,,52,52,6,27,7,6,0.6,0.6
2025-09-13T1200,2215A,123.149,41.2991,辽阳市,铁西工业园,,38,16,58,11,28,121,,50,50,9,27,6,5,0.7,0.7
2025-09-13T1200,2227A,125.1358,42.8845,辽源市,环保局,,45,35,49,16,16,141,,58,58,3,19,11,10,0.5,0.6
2025-09-13T1200,3239A,125.0764,42.9078,辽源市,银鹰制药,,46,26,37,16,19,146,,64,64,6,30,27,38,0.5,0.5
2025-09-13T1200,1625A,115.9848,36.4372,聊城市,区政府,颗粒物(PM10),54,57,49,28,24,154,,90,90,11,19,14,13,0.7,0.7
2025-09-13T1200,2878A,116.0072,36.4343,聊城市,聊大东校,颗粒物(PM10),53,56,51,29,27,156,,83,83,13,20,13,12,0.9,0.7
2025-09-13T1200,3200A,115.9819,36.4978,聊城市,监控中心,臭氧1小时,67,67,59,31,27,173,,83,83,14,26,13,12,0.8,0.7
2025-09-13T1200,3513A,116.0445,36.4361,聊城市,九州社区,颗粒物(PM10),55,59,60,29,26,150,,81,81,9,13,9,8,0.7,0.6
2025-09-13T1200,4018A,116.0567,36.4608,聊城市,星美广场,,,,60,36,28,175,,94,94,10,15,10,7,0.8,0.6
2025-09-13T1200,2632A,94.3681,29.6376,林芝市,林芝监测站,,13,12,10,3,4,40,,21,21,7,6,5,4,0.5,0.5
2025-09-13T1200,2633A,94.3616,29.6616,林芝市,林芝人民医院,,13,13,13,3,4,41,,20,20,3,3,7,6,0.6,0.6
2025-09-13T1200,2603A,100.0781,23.8982,临沧市,市环保局,,28,,15,19,24,46,,16,16,6,8,4,4,0.7,0.7
2025-09-13T1200,2604A,100.0894,23.8822,临沧市,市气象局,,18,,12,12,14,41,,15,15,6,10,7,7,0.5,0.6
2025-09-13T1200,1733A,111.5531,36.0783,临汾市,临钢医院,,38,38,43,18,15,105,,43,43,10,15,6,6,1.2,1.1
2025-09-13T1200,1734A,111.5028,36.0714,临汾市,技工学校,细颗粒物(PM2.5),52,46,52,36,31,105,,38,38,7,18,8,7,1.2,0.9
2025-09-13T1200,1736A,111.5018,36.0855,临汾市,市委,,48,48,59,27,21,109,,41,41,9,20,6,7,1.2,1
2025-09-13T1200,3018A,111.505,36.1014,临汾市,唐尧大酒店,颗粒物(PM10),56,62,60,28,23,103,,35,35,11,19,8,8,1.2,1
2025-09-13T1200,4244A,111.4879,36.0530,临汾市,启星学校,细颗粒物(PM2.5),58,43,52,41,31,110,,31,31,9,24,8,5,1.2,1
2025-09-13T1200,4271A,103.2464,35.6123,临夏回族自治州,滨河东路1号,颗粒物(PM10),55,59,54,16,22,68,,22,22,10,21,11,9,0.3,0.3
2025-09-13T1200,4310A,103.2093,35.5995,临夏回族自治州,新华街21号,颗粒物(PM10),56,62,53,28,25,80,,30,30,14,21,9,6,0.3,0.4
2025-09-13T1200,1618A,118.3429,35.0532,临沂市,沂河小区,,33,22,18,16,12,104,,54,54,13,22,10,11,0.4,0.4
2025-09-13T1200,1619A,118.295,35.0583,临沂市,鲁南制药厂,,36,27,17,19,15,115,,50,50,13,27,11,12,0.4,0.4
2025-09-13T1200,1620A,118.2794,34.9976,临沂市,新光毛纺厂,,36,,17,14,9,114,,51,51,17,29,10,10,0.4,0.5
2025-09-13T1200,1621A,118.3956,35.0888,临沂市,河东保险公司,,34,19,15,6,6,107,,57,57,15,19,7,7,0.3,0.3
2025-09-13T1200,3370A,118.3564,35.0215,临沂市,十里堡居委,,35,12,14,7,10,110,,56,56,14,25,8,9,0.3,0.3
2025-09-13T1200,3496A,118.3604,35.1084,临沂市,南坊新区,,35,27,20,9,8,109,,57,57,15,26,10,11,0.5,0.5
2025-09-13T1200,3860A,118.3920,35.0300,临沂市,皇山花园小区,,33,19,11,8,6,103,,62,62,16,18,10,11,0.3,0.3
2025-09-13T1200,1870A,109.4856,24.3895,柳州市,柳东小学,,27,24,19,8,11,85,,32,32,6,13,6,8,0.3,0.4
2025-09-13T1200,1871A,109.4157,24.3277,柳州市,环保监测站,,35,24,21,24,11,66,,33,33,4,13,8,8,0.5,0.6
2025-09-13T1200,1872A,109.389,24.341,柳州市,河西水厂,,20,17,28,6,14,61,,28,28,5,16,5,9,0.6,0.6
2025-09-13T1200,1873A,109.4311,24.2921,柳州市,市四中,,26,26,24,10,10,70,,32,32,7,17,8,7,0.6,0.3
2025-09-13T1200,1874A,109.4006,24.3631,柳州市,市九中,,26,26,38,3,27,65,,27,27,5,17,3,4,0.6,0.7
2025-09-13T1200,1875A,109.4958,24.3134,柳州市,古亭山,,,35,21,12,8,72,,28,28,4,15,6,6,,0.5
2025-09-13T1200,3402A,109.5422,24.3996,柳州市,市二中,,25,25,20,10,8,79,,33,33,6,15,9,8,0.6,0.6
2025-09-13T1200,2307A,116.5079,31.737,六安市,监测大楼,,14,,10,8,11,44,,51,46,12,4,4,4,0.4,0.2
2025-09-13T1200,2308A,116.4738,31.7643,六安市,皖西学院,,17,,10,10,11,54,,47,46,4,2,2,2,0.3,0.3
2025-09-13T1200,2309A,116.4996,31.7905,六安市,朝阳厂,,18,,8,12,11,45,,45,42,11,8,5,5,0.4,0.4
2025-09-13T1200,2310A,116.5567,31.7886,六安市,开发区,,19,,5,13,9,46,,45,40,16,6,2,2,0.4,0.4
2025-09-13T1200,2576A,104.8,26.5892,六盘水市,窑上,,31,31,27,17,18,49,,27,27,12,5,1,1,0.4,0.3
2025-09-13T1200,2577A,104.83,26.5917,六盘水市,黄土坡,,21,21,13,12,11,47,,36,36,21,12,7,5,0.5,0.2
2025-09-13T1200,2578A,104.89,26.5939,六盘水市,水钢,,46,,28,32,17,43,,42,42,24,17,12,9,1.2,0.7
2025-09-13T1200,2579A,104.8475,26.5894,六盘水市,民中,,21,21,13,14,6,44,,37,37,25,12,6,3,1.0,0.4
2025-09-13T1200,2580A,104.9544,26.5506,六盘水市,双水,,19,19,13,11,8,45,,40,40,23,11,6,3,0.9,0.2
2025-09-13T1200,2335A,117.0189,25.1181,龙岩市,龙岩师专,,,,,,,,,,,,,,,,
2025-09-13T1200,2336A,117.0217,25.1033,龙岩市,龙岩市监测站,,29,29,21,15,12,84,,38,38,5,14,5,9,0.5,0.6
2025-09-13T1200,2337A,117.0258,25.0661,龙岩市,闽西职业技术学院,,24,23,29,15,13,76,,33,33,2,13,5,11,0.5,0.6
2025-09-13T1200,2338A,117.0196,25.0306,龙岩市,龙岩学院,,24,24,21,10,12,70,,38,38,2,8,6,5,0.5,0.5
2025-09-13T1200,2665A,105.0822,33.3261,陇南市,汉王镇固水子,,,,,,,,,,,,,,,,
2025-09-13T1200,2885A,104.9339,33.3826,陇南市,滨江中学,,24,22,36,6,14,74,,40,40,3,9,5,6,0.6,0.6
2025-09-13T1200,3247A,104.955,33.371,陇南市,市总工会,,44,44,40,11,10,71,,39,39,6,7,8,7,0.4,0.4
2025-09-13T1200,2487A,111.9589,27.8901,娄底市,电视发射台,,31,31,27,17,12,70,,32,32,5,6,5,4,0.4,0.3
2025-09-13T1200,2488A,111.9975,27.725,娄底市,市监测站,,39,39,28,24,18,86,,46,46,6,9,8,7,0.6,0.6
2025-09-13T1200,2489A,112.0194,27.7314,娄底市,市委党校,,36,31,30,25,20,80,,46,46,10,10,4,5,0.5,0.5
2025-09-13T1200,2490A,111.9561,27.7569,娄底市,涟钢,,40,40,35,28,20,76,,34,34,22,16,20,8,2.9,1
2025-09-13T1200,2491A,111.9892,27.7044,娄底市,市政府,,39,37,27,27,16,91,,48,48,5,6,8,7,0.8,0.9
2025-09-13T1200,1893A,105.4324,28.9634,泸州市,九狮山,,25,25,26,3,5,33,,20,20,11,10,6,6,0.4,0.4
2025-09-13T1200,1894A,105.4427,28.9063,泸州市,小市上码头,,20,20,14,8,4,29,,17,17,14,12,6,5,0.5,0.5
2025-09-13T1200,1895A,105.4241,28.8573,泸州市,兰田宪桥,,23,23,17,14,6,36,,15,15,20,13,4,4,0.7,0.7
2025-09-13T1200,1896A,105.4379,28.8833,泸州市,市环监站,,26,26,15,14,8,49,,27,27,11,12,6,5,0.6,0.6
2025-09-13T1200,4272A,105.3689,28.7783,泸州市,纳溪中医医院,,25,25,18,9,8,54,,21,21,9,17,6,2,0.7,0.7
2025-09-13T1200,2183A,111.1406,37.5211,吕梁市,环保局,,42,42,43,20,18,67,,24,24,16,24,3,3,0.9,0.7
2025-09-13T1200,2185A,111.1297,37.5136,吕梁市,自来水公司,,43,43,45,17,18,63,,20,20,14,23,4,4,0.9,0.7
2025-09-13T1200,2867A,111.1283,37.51,吕梁市,马茂庄小学,,42,42,44,21,17,70,,28,28,14,25,4,4,0.8,0.9
2025-09-13T1200,1812A,112.3931,34.6516,洛阳市,市委党校,,30,24,30,14,18,94,,,,4,12,7,6,0.4,0.5
2025-09-13T1200,1815A,112.494,34.6886,洛阳市,河南林校,,35,34,45,17,25,112,,46,46,9,24,8,7,0.5,0.6
2025-09-13T1200,1816A,112.3844,34.623,洛阳市,开发区管委会,,32,20,28,11,19,102,,36,36,4,10,5,4,0.5,0.6
2025-09-13T1200,1817A,112.4267,34.6258,洛阳市,市委新办公区,,36,,32,25,27,92,,33,33,6,14,9,7,0.6,0.6
2025-09-13T1200,3340A,112.6005,34.6326,洛阳市,伊滨,,33,25,39,20,25,104,,45,45,12,20,11,6,0.7,0.7
2025-09-13T1200,3341A,112.4951,34.6332,洛阳市,中移产业园,,38,38,39,23,25,94,,36,36,13,22,8,7,0.8,0.7
2025-09-13T1200,3593A,112.5736,34.8993,洛阳市,吉利监测站,,,45,45,23,29,103,,46,46,,19,10,5,0.6,0.6
2025-09-13T1200,3635A,112.3677,34.662,洛阳市,河科大西苑校区,,33,25,37,14,15,103,,44,44,6,25,8,7,0.5,0.6
2025-09-13T1200,3636A,112.4388,34.6781,洛阳市,英才小学,,33,26,40,22,28,103,,38,38,7,24,8,7,0.5,0.7
2025-09-13T1200,4214A,112.4600,34.6949,洛阳市,春都路1号院,,30,22,39,19,21,96,,32,32,10,23,9,9,0.5,0.6
2025-09-13T1200,2399A,114.051,33.5699,漯河市,三五一五工厂,,38,28,30,22,19,121,,66,66,8,15,7,6,0.6,0.6
2025-09-13T1200,2400A,114.0055,33.5698,漯河市,漯河大学,,39,36,23,27,19,124,,65,65,8,15,6,5,0.5,0.5
2025-09-13T1200,2401A,114.0138,33.5828,漯河市,市水利局,,42,39,33,29,20,126,,63,63,7,14,7,6,0.6,0.6
2025-09-13T1200,2402A,114.0261,33.5698,漯河市,市广电局,,42,42,34,20,24,134,,71,71,6,13,5,4,0.6,0.6
2025-09-13T1200,3478A,113.9749,33.5664,漯河市,市图书馆,,38,32,27,8,18,119,,64,64,7,12,6,6,0.5,0.5
2025-09-13T1200,4250A,114.0892,33.5882,漯河市,韶山路11号,,41,40,28,13,21,131,,68,68,8,13,7,5,0.5,0.5
2025-09-13T1200,1798A,118.5092,31.6837,马鞍山市,湖东路四小,,29,29,26,16,21,65,,53,53,21,15,9,11,1.3,1.1
2025-09-13T1200,1799A,118.5024,31.6449,马鞍山市,开发区,,26,26,25,10,15,59,,53,53,29,13,16,7,1.8,0.7
2025-09-13T1200,1802A,118.6245,31.7241,马鞍山市,濮塘,,26,17,22,11,18,83,,60,60,8,8,7,8,0.9,0.9
2025-09-13T1200,3633A,118.4918,31.6809,马鞍山市,雨山,,20,17,22,10,17,63,,49,49,31,20,20,18,1.5,1
2025-09-13T1200,4191A,118.5274,31.72227,马鞍山市,慈湖高新区,,25,18,34,11,18,80,,52,52,10,18,4,8,0.5,1
2025-09-13T1200,1686A,111.0286,21.4688,茂名市,电白南海,,29,29,18,12,9,56,,34,34,5,9,3,4,0.5,0.4
2025-09-13T1200,1687A,110.9294,21.6533,茂名市,茂石化七小,,18,17,16,7,8,57,,38,38,5,8,6,7,0.5,0.5
2025-09-13T1200,1688A,110.9107,21.6687,茂名市,健康路,,20,14,11,14,9,62,,41,41,6,8,5,6,0.5,0.5
2025-09-13T1200,1689A,110.8592,21.6828,茂名市,高岭,,24,24,24,3,4,57,,35,35,9,12,7,10,0.6,0.6
2025-09-13T1200,3450A,111.01,21.5165,茂名市,电白水东,,19,12,12,3,5,59,,35,35,7,8,6,7,0.6,0.7
2025-09-13T1200,2539A,104.0308,30.0478,眉山市,黑龙滩水库,,29,12,12,6,6,91,,54,54,2,3,3,2,0.2,0.3
2025-09-13T1200,2540A,103.8416,30.0874,眉山市,气象局,,33,33,31,9,9,101,,36,36,11,21,13,11,0.3,0.4
2025-09-13T1200,3137A,103.8578,30.0744,眉山市,市委党校,,29,19,21,7,4,92,,23,23,12,24,10,9,0.6,0.7
2025-09-13T1200,3148A,103.8291,30.0564,眉山市,区人社局,,38,38,37,9,4,84,,22,22,13,18,20,10,0.9,0.9
2025-09-13T1200,1690A,116.1231,24.3284,梅州市,梅江月梅,,27,,22,17,12,86,,38,38,8,14,8,9,0.5,0.5
2025-09-13T1200,1691A,116.0797,24.2719,梅州市,梅县新城,,21,,24,12,12,65,,29,29,3,13,7,8,0.5,0.6
2025-09-13T1200,1692A,116.1248,24.2654,梅州市,环境监控中心,,22,20,22,15,14,70,,34,34,6,14,4,4,0.5,0.5
2025-09-13T1200,3315A,116.1233,24.2991,梅州市,梅龙,,23,14,20,7,12,72,,39,39,4,12,8,10,0.6,0.7
2025-09-13T1200,1878A,104.7778,31.4741,绵阳市,富乐山,,25,25,15,17,5,47,,13,13,16,11,9,8,0.7,0.7
2025-09-13T1200,1880A,104.6697,31.4668,绵阳市,高新区自来水公司,,39,39,30,9,6,43,,10,10,18,20,9,9,0.7,0.7
2025-09-13T1200,1881A,104.7287,31.5075,绵阳市,三水厂,,32,32,21,18,10,41,,11,11,22,20,10,10,0.6,0.6
2025-09-13T1200,3491A,104.69,31.5322,绵阳市,西科大附属小学,,38,38,31,20,14,50,,18,18,18,21,8,8,0.5,0.5
2025-09-13T1200,3492A,104.5648,31.5343,绵阳市,安州区旅游局,,18,16,18,12,7,52,,16,16,13,16,8,8,0.7,0.8
2025-09-13T1200,4226A,104.7651,31.4531,绵阳市,绵阳市气象局,,22,22,18,11,8,43,,17,17,16,16,6,7,0.6,0.5
2025-09-13T1200,1784A,129.61,44.561,牡丹江市,环保大楼,,32,11,27,3,12,101,,48,48,6,11,5,5,0.3,0.3
2025-09-13T1200,1785A,129.6115,44.5782,牡丹江市,文化广场,,32,32,35,21,22,99,,45,45,13,16,7,6,0.5,0.5
2025-09-13T1200,1786A,129.5904,44.5963,牡丹江市,第一医院,,38,37,37,7,22,120,,57,57,12,16,9,8,0.3,0.4
2025-09-13T1200,1787A,129.6364,44.6075,牡丹江市,机车工厂,,34,27,40,12,14,108,,41,41,7,16,7,6,0.4,0.5
2025-09-13T1200,1788A,129.6386,44.5462,牡丹江市,第一中学,,31,24,32,15,20,97,,38,38,6,13,4,4,0.3,0.3
2025-09-13T1200,2531A,105.0703,29.61,内江市,市监测站,,22,,8,7,8,69,,40,40,6,10,3,3,0.4,0.4
2025-09-13T1200,2532A,105.0717,29.5947,内江市,东兴区政府,,21,6,12,3,2,65,,42,42,8,10,6,6,0.5,0.6
2025-09-13T1200,2533A,105.0653,29.5817,内江市,内江二中,,23,,12,8,12,71,,42,42,10,12,3,2,0.7,0.7
2025-09-13T1200,2534A,105.0406,29.5822,内江市,内江日报社,,24,8,11,6,11,76,,38,38,6,17,6,6,0.5,0.6
2025-09-13T1200,2628A,92.0657,31.4846,那曲市,那曲监测站,颗粒物(PM10),53,55,51,23,19,88,,46,46,14,21,4,5,0.3,0.5
2025-09-13T1200,4243A,92.0515,31.4787,那曲市,那曲市委宣传部,,28,28,49,11,20,87,,41,41,12,17,4,5,0.3,0.5
2025-09-13T1200,1290A,115.8931,28.6843,南昌市,省外办,,28,24,27,19,19,61,,39,39,4,9,7,7,1.0,0.9
2025-09-13T1200,1291A,115.8886,28.7003,南昌市,省林业公司,,32,22,21,19,14,101,,55,55,7,10,6,7,0.8,0.7
2025-09-13T1200,1292A,115.8126,28.7442,南昌市,林科所,,34,17,20,7,11,108,,49,49,9,26,8,7,0.5,0.5
2025-09-13T1200,1294A,115.8518,28.687,南昌市,建工学校,,,22,28,,2,98,,51,51,11,20,9,10,0.8,0.8
2025-09-13T1200,1295A,115.8921,28.6424,南昌市,象湖,,34,17,23,9,11,107,,55,55,11,19,11,13,0.8,0.7
2025-09-13T1200,1296A,115.7423,28.7996,南昌市,武术学校,,26,12,15,7,11,83,,33,33,9,8,13,10,0.2,0.2
2025-09-13T1200,3046A,115.9084,28.6062,南昌市,机电学校,,36,29,33,17,14,114,,58,58,9,21,12,11,0.6,0.5
2025-09-13T1200,3690A,115.9721,28.7031,南昌市,外国语学校,,34,32,30,10,13,108,,59,59,9,18,11,9,0.5,0.4
2025-09-13T1200,4192A,115.9316,28.68677,南昌市,南京东路235号,,36,25,32,10,14,114,,63,63,9,17,14,14,0.9,0.8
2025-09-13T1200,1905A,106.056,30.8064,南充市,西山风景区,,,,,,,,,,,,,,,,
2025-09-13T1200,1906A,106.0789,30.8023,南充市,南充市委,,26,18,13,12,8,83,,30,30,8,12,3,4,0.4,0.4
2025-09-13T1200,1907A,106.1031,30.8217,南充市,南充炼油厂,,24,24,20,11,7,75,,33,33,6,8,5,5,0.2,0.2
2025-09-13T1200,4227A,106.1083,30.7884,南充市,梨树横街98号,,28,16,13,3,8,88,,38,38,6,10,3,3,0.3,0.3
2025-09-13T1200,4304A,106.1172,30.843,南充市,清泉寺北路188号,,24,8,13,8,8,76,,36,36,5,6,4,4,0.2,0.2
2025-09-13T1200,4305A,106.067,30.7616,南充市,同庆路1号,,27,11,10,3,5,86,,37,37,5,10,4,5,0.2,0.3
2025-09-13T1200,1151A,118.8086,32.1065,南京市,迈皋桥,,22,21,17,12,11,68,,59,59,5,3,4,4,0.9,0.6
2025-09-13T1200,1152A,118.7538,32.0551,南京市,草场门,,21,19,19,9,12,67,,54,54,13,11,3,3,0.6,0.6
2025-09-13T1200,1153A,118.7794,32.0745,南京市,山西路,,24,12,22,3,8,76,,61,61,16,12,4,4,0.6,0.6
2025-09-13T1200,1154A,118.7752,32.0023,南京市,中华门,,22,14,14,3,8,70,,57,57,16,12,3,4,0.5,0.6
2025-09-13T1200,1155A,118.8109,32.0309,南京市,瑞金路,,23,14,17,7,10,73,,55,55,15,7,7,6,0.4,0.4
2025-09-13T1200,1156A,118.7997,32.0754,南京市,玄武湖,,21,20,23,3,5,66,,52,52,8,8,4,4,0.4,0.4
2025-09-13T1200,1157A,118.6414,32.0931,南京市,浦口,,20,11,20,7,8,61,,58,58,10,9,5,5,0.3,0.1
2025-09-13T1200,1158A,118.7356,31.9996,南京市,奥体中心,,27,16,19,3,12,86,,65,65,7,9,5,5,0.4,0.5
2025-09-13T1200,1159A,118.9125,32.1028,南京市,仙林大学城,,24,22,28,3,10,74,,50,50,10,15,7,9,0.7,1
2025-09-13T1200,3422A,118.8436,31.9198,南京市,江宁彩虹桥,,28,,19,7,11,88,,61,61,8,13,6,6,0.6,0.7
2025-09-13T1200,3427A,118.8554,32.3578,南京市,六合雄州,,19,9,27,3,10,59,,58,58,9,9,4,5,0.6,0.7
2025-09-13T1200,4249A,118.8708,31.3402,南京市,汶溪路181号,,24,22,21,15,14,74,,59,59,13,12,6,6,1.0,0.8
2025-09-13T1200,4312A,119.019,31.6512,南京市,中山西路1号,,22,17,17,15,13,67,,44,44,16,14,4,3,0.9,0.6
2025-09-13T1200,1401A,108.3103,22.7881,南宁市,二十一中,,23,23,19,9,9,70,,32,32,7,11,5,6,0.4,0.5
2025-09-13T1200,1402A,108.3141,22.8528,南宁市,北湖,,,,19,,12,,,48,,,10,,4,,0.5
2025-09-13T1200,1403A,108.3206,22.8225,南宁市,市监测站,,23,23,18,8,11,66,,34,34,7,9,4,4,0.4,0.4
2025-09-13T1200,1404A,108.3829,22.8037,南宁市,大自然花园,,20,17,17,7,9,63,,28,28,4,8,5,5,0.5,0.5
2025-09-13T1200,1405A,108.4394,22.7904,南宁市,仙葫,,18,,18,8,8,56,,30,30,5,9,5,5,0.4,0.5
2025-09-13T1200,1406A,108.2397,22.8467,南宁市,区农职院,,21,10,20,10,11,65,,22,22,9,15,6,7,0.7,0.8
2025-09-13T1200,1407A,108.3275,22.735,南宁市,英华嘉园,,25,25,19,11,12,62,,27,27,7,16,2,2,0.3,0.4
2025-09-13T1200,3401A,108.4834,22.7618,南宁市,红星社区,,19,11,17,8,11,58,,25,25,3,10,3,3,0.3,0.3
2025-09-13T1200,4221A,108.2177,22.7774,南宁市,乐贤路16号,,19,19,27,13,14,60,,20,20,7,21,5,5,0.4,0.5
2025-09-13T1200,2331A,118.0966,26.6761,南平市,茫荡山,,,,13,,10,,,67,,,,,3,,0.3
2025-09-13T1200,2332A,118.1681,26.6369,南平市,南平市监测站,,27,18,21,16,15,85,,39,39,4,15,5,5,0.6,0.6
2025-09-13T1200,2333A,118.1825,26.6489,南平市,南平铝业有限公司,,33,,24,23,15,94,,51,51,3,15,5,5,0.5,0.6
2025-09-13T1200,2334A,118.1756,26.6272,南平市,南平七中,,28,27,22,19,14,86,,37,37,3,11,4,3,0.5,0.5
2025-09-13T1200,1168A,120.9098,31.9663,南通市,狼山街道,,29,29,29,18,18,72,,39,39,22,24,5,5,0.8,0.8
2025-09-13T1200,1169A,120.86,32.0005,南通市,虹桥,,33,33,30,22,21,82,,48,48,18,24,5,4,0.8,0.8
2025-09-13T1200,1170A,120.87,32.02,南通市,城中,,30,30,35,21,19,81,,48,48,14,22,3,3,0.6,0.6
2025-09-13T1200,1171A,120.94,31.93,南通市,星湖花园,,40,38,31,28,21,64,,33,33,36,30,8,5,1.0,0.6
2025-09-13T1200,1172A,120.81,32.0417,南通市,紫琅学院,,26,21,29,15,17,81,,48,48,10,25,3,4,0.7,0.9
2025-09-13T1200,3291A,121.067,32.062,南通市,通州监测站,,29,17,27,14,18,90,,50,50,7,17,2,2,0.7,0.9
2025-09-13T1200,3432A,120.9348,31.9883,南通市,环境教育馆,,36,31,37,25,19,84,,52,52,18,17,5,5,0.4,0.5
2025-09-13T1200,2404A,112.5224,33.0122,南阳市,瓦房庄,,34,34,36,13,16,88,,52,52,7,12,8,7,0.5,0.5
2025-09-13T1200,2405A,112.5003,32.9735,南阳市,汉画馆,,27,27,31,18,17,83,,37,37,7,19,9,8,0.5,0.6
2025-09-13T1200,2406A,112.5573,33.027,南阳市,气象站,,31,27,31,7,17,98,,45,45,4,13,6,5,0.6,0.7
2025-09-13T1200,2407A,112.5481,32.9689,南阳市,理工学院,,32,32,37,8,10,89,,45,45,6,17,10,9,0.6,0.6
2025-09-13T1200,4008A,112.5234,32.9922,南阳市,卧龙区政府,,28,,39,19,20,84,,49,49,7,17,8,7,0.6,0.7
2025-09-13T1200,1234A,121.8358,29.911,宁波市,区环保大楼,臭氧1小时,57,32,32,22,12,165,,73,73,31,20,10,6,0.6,0.5
2025-09-13T1200,1235A,121.56,29.82,宁波市,万里学院,,47,26,23,21,16,149,,74,74,8,11,7,7,0.6,0.6
2025-09-13T1200,1236A,121.713,29.9572,宁波市,龙赛医院,臭氧1小时,98,49,31,16,12,198,,73,73,24,20,7,6,0.5,0.4
2025-09-13T1200,1239A,121.633,29.7733,宁波市,钱湖水厂,,35,26,21,18,12,112,,67,67,5,6,6,6,0.6,0.5
2025-09-13T1200,1240A,121.5856,29.8635,宁波市,太古小学,,42,31,26,16,14,133,,71,71,5,10,3,2,0.6,0.6
2025-09-13T1200,1241A,121.524,29.8674,宁波市,市环境监测中心,,37,30,28,13,14,117,,61,61,5,12,6,6,0.6,0.6
2025-09-13T1200,2871A,121.6147,29.9017,宁波市,万里国际学校,,45,29,25,20,16,144,,74,74,7,11,4,5,0.6,0.6
2025-09-13T1200,3710A,121.5594,29.8975,宁波市,白沙活动中心,,,23,20,13,11,154,,67,67,,15,7,7,0.5,0.5
2025-09-13T1200,2339A,119.5001,26.6946,宁德市,金涵水库,,,,21,,15,,,44,,,3,,1,,0.6
2025-09-13T1200,2341A,119.5388,26.6612,宁德市,宁德市监测站,颗粒物(PM10),55,60,27,25,15,147,,58,58,11,10,6,4,1.3,0.8
2025-09-13T1200,3209A,119.5231,26.6562,宁德市,宁德一中,,46,42,30,31,18,146,,60,60,9,8,6,4,1.0,0.6
2025-09-13T1200,2618A,98.8601,25.8567,怒江傈僳族自治州,州监测站,,25,25,21,8,11,38,,35,35,7,6,7,7,0.4,0.4
2025-09-13T1200,2619A,98.8546,25.8417,怒江傈僳族自治州,泸水一中,,16,14,15,11,10,29,,19,19,8,9,5,4,0.5,0.5
2025-09-13T1200,1888A,101.6891,26.571,攀枝花市,弄弄坪,,50,50,39,33,16,45,,23,20,16,19,19,11,1.0,0.7
2025-09-13T1200,1889A,101.5769,26.5928,攀枝花市,河门口,,44,44,30,22,14,48,,22,22,10,16,13,12,1.2,1
2025-09-13T1200,1890A,101.7169,26.585,攀枝花市,炳草岗,细颗粒物(PM2.5),59,55,41,42,20,38,,17,17,21,24,28,25,1.5,0.9
2025-09-13T1200,1891A,101.7369,26.5008,攀枝花市,仁和,颗粒物(PM10),52,54,27,34,15,49,,20,20,12,16,25,13,0.8,0.6
2025-09-13T1200,2835A,101.7227,26.567,攀枝花市,四十中小,,35,35,27,19,14,43,,18,18,11,15,26,38,1.1,0.9
2025-09-13T1200,1604A,122.0303,41.1489,盘锦市,开发区,,41,31,34,11,29,130,,77,77,11,28,10,9,0.6,0.7
2025-09-13T1200,1605A,122.0485,41.0883,盘锦市,兴隆台,,42,31,39,14,24,133,,75,75,17,42,10,8,0.3,0.5
2025-09-13T1200,1606A,121.8297,41.1028,盘锦市,新生街道,,39,29,25,7,19,123,,76,76,8,22,5,4,0.4,0.5
2025-09-13T1200,1832A,113.3257,33.742,平顶山市,新华旅馆,,36,36,47,21,19,114,,43,43,6,20,6,5,0.4,0.5
2025-09-13T1200,1833A,113.2919,33.737,平顶山市,规划设计院,,35,26,40,21,26,109,,42,42,6,20,5,4,0.6,0.7
2025-09-13T1200,1834A,113.182,33.774,平顶山市,平顶山工学院,,34,,36,19,21,108,,40,40,7,14,6,6,0.4,0.4
2025-09-13T1200,3204A,113.3025,33.73,平顶山市,规划局,,39,39,40,17,19,109,,42,42,8,19,5,5,0.5,0.6
2025-09-13T1200,3594A,112.8867,33.9116,平顶山市,石龙区,,33,30,39,14,23,103,,46,46,7,20,6,6,0.5,0.6
2025-09-13T1200,2656A,106.6692,35.5461,平凉市,聚贤嘉苑,,50,50,44,25,20,60,,42,42,11,15,11,11,0.9,0.8
2025-09-13T1200,2657A,106.7021,35.5307,平凉市,博物馆,颗粒物(PM10),55,60,52,24,16,55,,40,40,12,15,8,9,0.8,0.7
2025-09-13T1200,2347A,114.0997,27.5002,萍乡市,武功山,,16,6,7,3,4,50,,31,31,3,4,12,11,0.5,0.5
2025-09-13T1200,2348A,113.8385,27.6434,萍乡市,中医院,,24,24,27,7,13,72,,37,37,8,17,7,7,0.5,0.7
2025-09-13T1200,2349A,113.8493,27.6253,萍乡市,市政府车库,,24,,16,14,18,76,,42,42,2,5,13,12,0.3,0.4
2025-09-13T1200,2350A,113.8676,27.6435,萍乡市,市环保局,,22,16,25,6,12,70,,37,37,4,13,8,9,0.2,0.4
2025-09-13T1200,2351A,113.866,27.6198,萍乡市,安源区政府,,23,12,21,9,14,72,,38,38,6,10,12,11,0.2,0.3
2025-09-13T1200,2319A,119.0141,25.4325,莆田市,荔城区仓后路,臭氧1小时,78,58,42,34,24,182,,75,75,14,16,6,8,0.7,0.6
2025-09-13T1200,2320A,119.0015,25.4553,莆田市,莆田市监测站,,,,35,26,25,152,,72,72,13,15,8,7,0.7,0.6
2025-09-13T1200,2321A,119.1119,25.4561,莆田市,涵江区六中,臭氧1小时,108,54,37,39,24,215,,77,77,18,20,5,7,0.6,0.5
2025-09-13T1200,2322A,119.1013,25.3215,莆田市,秀屿区政府,臭氧1小时,101,63,29,41,15,202,,80,80,19,16,10,9,0.5,0.4
2025-09-13T1200,2323A,118.981,25.4792,莆田市,东圳水库,,,,35,,19,,,103,,,12,,6,,0.8
2025-09-13T1200,2392A,115.0312,35.7636,濮阳市,环保局,,37,35,41,21,32,118,,64,64,6,17,6,6,0.6,0.7
2025-09-13T1200,2394A,115.0574,35.7609,濮阳市,油田运输公司,,42,41,54,29,30,126,,72,72,8,19,6,5,0.8,0.8
2025-09-13T1200,3021A,115,35.7668,濮阳市,濮水河管理处,,39,39,43,14,21,115,,51,51,9,16,6,5,0.5,0.6
2025-09-13T1200,4216A,115.0924,35.7686,濮阳市,任丘路479号,,48,48,58,25,31,123,,64,64,6,18,7,6,0.7,0.7
2025-09-13T1200,2601A,100.98,22.7633,普洱市,市环保局,,23,23,24,13,10,32,,24,24,2,7,7,7,0.5,0.6
2025-09-13T1200,2602A,100.9817,22.8322,普洱市,普洱第二中学,,18,18,27,3,15,31,,21,21,3,6,6,6,0.4,0.4
2025-09-13T1200,2262A,131.0518,45.8751,七台河市,新一中,,34,,38,17,23,108,,54,54,8,18,9,10,0.8,0.9
2025-09-13T1200,3345A,131.0577,45.7879,七台河市,中波台,,27,15,39,6,7,85,,40,40,8,26,14,8,0.7,0.8
2025-09-13T1200,3637A,131.0176,45.7761,七台河市,人民广场,,34,34,45,19,21,103,,63,63,8,18,12,11,0.6,0.7
2025-09-13T1200,3684A,130.8781,45.8222,七台河市,新建矿广场,,28,24,37,6,11,87,,45,45,4,20,9,11,0.4,0.7
2025-09-13T1200,1779A,123.9305,47.3636,齐齐哈尔市,安居小区,,35,35,34,8,13,49,,20,20,11,20,6,5,0.5,0.6
2025-09-13T1200,1780A,123.9488,47.3386,齐齐哈尔市,中心广场,,19,19,26,3,7,57,,25,25,8,23,6,6,0.4,0.5
2025-09-13T1200,1781A,123.9483,47.3227,齐齐哈尔市,农牧车辆厂,,27,27,36,11,11,54,,22,22,5,20,4,5,0.3,0.5
2025-09-13T1200,1783A,123.945,47.2988,齐齐哈尔市,市环境监测站,,18,16,25,6,10,56,,22,22,6,18,6,6,0.3,0.4
2025-09-13T1200,3662A,123.6333,47.2075,齐齐哈尔市,富区青少年活动中心,,23,23,41,7,14,46,,26,26,7,14,6,6,0.4,0.5
2025-09-13T1200,2591A,107.9783,26.5747,黔东南苗族侗族自治州,市环境监测站,,20,,6,14,14,52,,48,48,1,2,2,2,0.4,0.4
2025-09-13T1200,2881A,107.8908,26.5311,黔东南苗族侗族自治州,凯里学院,,16,,5,8,7,51,,49,49,6,6,6,6,0.4,0.4
2025-09-13T1200,2593A,107.5228,26.2403,黔南布依族苗族自治州,小围寨,,15,9,6,3,3,46,,35,35,3,2,3,2,0.3,0.3
2025-09-13T1200,3538A,107.5175,26.2978,黔南布依族苗族自治州,沙坝,,16,7,11,7,5,49,,37,37,4,4,3,4,0.3,0.3
2025-09-13T1200,2589A,104.9022,25.0925,黔西南布依族苗族自治州,场坝街,,19,19,16,3,6,34,,38,32,5,5,6,5,0.3,0.3
2025-09-13T1200,2590A,104.8811,25.0992,黔西南布依族苗族自治州,坪东大道,,24,24,20,11,9,27,,34,29,6,5,2,2,0.6,0.5
2025-09-13T1200,2502A,108.6236,21.9667,钦州市,市环保站,,21,17,20,3,7,67,,28,28,6,14,2,3,0.3,0.4
2025-09-13T1200,2503A,108.6549,21.9481,钦州市,沙埠小学,,20,,26,12,11,63,,26,26,3,9,1,2,0.4,0.5
2025-09-13T1200,2504A,108.5989,21.7431,钦州市,港区一小,,36,36,40,10,9,46,,21,21,16,21,11,5,0.5,0.6
2025-09-13T1200,3404A,108.5959,21.9633,钦州市,北职校,,22,17,27,7,9,69,,21,21,5,14,3,5,0.3,0.4
2025-09-13T1200,1043A,119.7493,40.0116,秦皇岛市,第一关,,36,35,45,13,18,115,,61,61,6,48,6,7,0.3,0.4
2025-09-13T1200,1044A,119.5897,39.9499,秦皇岛市,监测站,,39,21,42,3,11,122,,71,71,12,25,5,6,0.4,0.4
2025-09-13T1200,1046A,119.5251,39.9041,秦皇岛市,建设大厦,,38,34,50,12,10,121,,68,68,5,21,6,9,0.5,0.3
2025-09-13T1200,3132A,119.610547,39.943889,秦皇岛市,文明里,,37,24,42,9,12,116,,69,69,9,23,7,7,0.2,0.3
2025-09-13T1200,4198A,119.5090,39.8253,秦皇岛市,北戴河轮滑馆,,39,35,50,9,15,124,,64,64,6,23,3,4,0.3,0.4
2025-09-13T1200,1307A,120.6659,36.2403,青岛市,仰口,,28,8,5,3,1,88,,79,79,7,6,11,10,0.5,0.6
2025-09-13T1200,1310A,120.4134,36.0658,青岛市,市南区东部子站,,37,14,4,9,6,117,,80,80,10,10,7,6,0.3,0.2
2025-09-13T1200,1311A,120.3664,36.1032,青岛市,四方区子站,,33,27,12,9,6,104,,73,73,14,9,14,3,0.2,0.2
2025-09-13T1200,1312A,120.2994,36.054,青岛市,市南区西部子站,,35,9,5,3,5,109,,78,78,10,14,6,6,0.5,0.5
2025-09-13T1200,1313A,120.4581,36.0858,青岛市,崂山区子站,,31,9,2,3,1,99,,71,71,12,9,8,8,0.2,0.2
2025-09-13T1200,1315A,120.3999,36.3083,青岛市,城阳区子站,,34,17,8,12,6,108,,79,79,5,8,4,3,0.3,0.3
2025-09-13T1200,1966A,120.0405,35.8735,青岛市,黄岛区4号,,,,,,,,,,,,,,,,
2025-09-13T1200,3362A,120.5014,36.4034,青岛市,即墨2号,,32,,6,8,7,102,,76,76,5,7,4,3,0.2,0.2
2025-09-13T1200,3642A,120.3503,36.0736,青岛市,市北区南部,,31,17,10,12,4,97,,66,66,12,15,7,7,0.7,0.6
2025-09-13T1200,3643A,120.3948,36.1805,青岛市,李沧区北部,,32,17,3,17,8,100,,67,67,11,9,6,5,0.3,0.2
2025-09-13T1200,4290A,120.1969,35.9546,青岛市,珠江路669号,,23,19,4,3,8,71,,54,54,27,24,7,6,0.3,0.3
2025-09-13T1200,1702A,113.0426,23.691,清远市,环保大楼,,38,34,34,26,20,86,,31,31,14,18,7,8,0.6,0.6
2025-09-13T1200,1703A,113.0208,23.7106,清远市,凤城街办,,36,33,27,25,15,93,,35,35,16,21,9,10,0.4,0.5
2025-09-13T1200,3025A,113.0477,23.6344,清远市,技师学院,,33,24,33,12,18,104,,35,35,12,24,8,9,0.3,0.4
2025-09-13T1200,3318A,112.9903,23.7403,清远市,清新太和,,36,36,29,20,15,96,,41,41,17,18,6,8,0.5,0.5
2025-09-13T1200,3455A,113.076,23.7198,清远市,清城东城,,32,27,28,17,16,102,,37,37,15,17,7,9,0.5,0.5
2025-09-13T1200,2661A,107.6325,35.7357,庆阳市,庆阳五中,,24,24,20,8,8,63,,59,59,5,7,8,8,0.4,0.4
2025-09-13T1200,2662A,107.6364,35.7067,庆阳市,市环保局,,21,21,21,8,10,66,,60,60,6,6,3,4,0.5,0.4
2025-09-13T1200,1916A,103.7897,25.5035,曲靖市,环境监测站,,17,17,17,9,8,37,,41,33,17,11,7,5,0.8,0.6
2025-09-13T1200,1917A,103.8,25.5364,曲靖市,烟厂办公区,,19,19,15,13,9,42,,43,38,13,9,4,4,0.8,0.6
2025-09-13T1200,3376A,103.7947,25.462,曲靖市,南苑二区,,20,20,13,9,7,35,,42,36,17,9,3,4,1.1,0.8
2025-09-13T1200,3377A,103.7444,25.5261,曲靖市,曲靖师范学院,,22,,12,15,7,39,,40,40,21,14,12,3,0.8,0.5
2025-09-13T1200,1264A,118.8692,28.9398,衢州市,环保大楼,,38,30,28,19,15,120,,44,44,5,17,4,4,0.3,0.3
2025-09-13T1200,1265A,118.8709,28.9666,衢州市,实验学校,,40,29,26,18,13,128,,43,43,7,19,4,5,0.3,0.3
2025-09-13T1200,1266A,118.8621,28.9808,衢州市,衢州学院,,40,31,24,18,14,126,,44,44,8,20,5,4,0.4,0.4
2025-09-13T1200,1611A,118.5819,24.9117,泉州市,涂山街,,50,46,48,28,20,159,,50,50,18,30,8,9,0.7,0.6
2025-09-13T1200,1612A,118.5972,24.8978,泉州市,津头埔,臭氧1小时,55,51,43,25,18,164,,53,53,18,25,7,9,0.5,0.5
2025-09-13T1200,1613A,118.6663,24.9424,泉州市,万安,颗粒物(PM10),56,61,46,34,18,159,,49,49,20,24,7,5,0.6,0.6
2025-09-13T1200,1614A,118.6117,24.9604,泉州市,清源山,,,,31,,15,,,104,,,17,,5,,0.4
2025-09-13T1200,3529A,118.6333,24.9264,泉州市,城华南路,颗粒物(PM10),56,62,38,29,20,154,,52,52,19,25,8,7,0.5,0.4
2025-09-13T1200,2626A,88.8876,29.2718,日喀则市,日喀则监测站,,25,8,6,3,1,80,,60,57,5,8,11,11,0.2,0.2
2025-09-13T1200,3726A,88.8781,29.2426,日喀则市,林业技术推广中心,,26,13,5,3,0,81,,62,62,7,3,5,5,0.2,0.1
2025-09-13T1200,1659A,119.471,35.4209,日照市,监测站,,,,4,0,4,102,,78,78,,13,8,6,,0.5
2025-09-13T1200,1660A,119.523,35.4216,日照市,市政府广场,,30,7,6,3,4,96,,84,84,7,10,5,5,0.6,0.6
2025-09-13T1200,1661A,119.5587,35.4044,日照市,港务局,,32,,6,22,15,102,,83,83,4,7,4,3,0.6,0.6
2025-09-13T1200,3507A,119.5328,35.4625,日照市,职业技术学院,,32,14,8,3,5,101,,83,83,4,7,6,5,0.6,0.6
2025-09-13T1200,3604A,119.3266,35.1044,日照市,岚山环保分局,,26,24,13,8,5,83,,67,67,27,21,18,14,2.2,1.4
2025-09-13T1200,1835A,111.1922,34.7752,三门峡市,市政府,,27,26,24,14,12,85,,39,39,6,16,8,8,0.4,0.4
2025-09-13T1200,1836A,111.1587,34.7942,三门峡市,开发区,,25,23,27,17,16,80,,48,48,8,14,7,6,0.4,0.4
2025-09-13T1200,1838A,111.143,34.7955,三门峡市,风景区,,38,38,23,12,14,83,,50,50,5,8,5,5,0.5,0.5
2025-09-13T1200,3039A,111.1911,34.7829,三门峡市,三门峡市第一小学,,30,30,27,16,14,82,,51,51,6,9,8,7,0.5,0.5
2025-09-13T1200,3598A,111.1,34.7167,三门峡市,富达温泉假日酒店,,28,16,24,10,11,88,,40,40,7,14,7,6,0.3,0.3
2025-09-13T1200,2324A,117.6211,26.2625,三明市,三钢,,32,27,23,19,16,102,,38,38,8,15,6,8,0.7,1.4
2025-09-13T1200,2325A,117.635,26.2714,三明市,三明二中,,43,43,25,18,14,92,,37,37,7,13,7,4,0.8,0.8
2025-09-13T1200,2326A,117.6028,26.2378,三明市,三元区政府,,33,30,23,18,12,105,,38,38,8,13,8,4,0.5,0.4
2025-09-13T1200,2327A,117.7275,26.3108,三明市,洋溪,,,,19,,10,,,53,,,11,,6,,1.2
2025-09-13T1200,1876A,109.5078,18.2489,三亚市,河东子站,,15,15,14,9,9,26,,26,26,9,6,2,2,0.6,0.6
2025-09-13T1200,1877A,109.4964,18.2681,三亚市,河西子站,,19,19,13,8,6,30,,26,26,8,5,4,4,0.5,0.5
2025-09-13T1200,3540A,109.7348,18.3443,三亚市,君悦子站,,31,31,11,8,5,28,,21,20,11,6,3,3,0.4,0.3
2025-09-13T1200,2624A,91.7608,29.2313,山南市,山南监测站,,25,7,6,3,3,78,,72,67,9,9,3,3,0.3,0.2
2025-09-13T1200,2625A,91.7706,29.2436,山南市,山南人民医院,,24,10,9,3,4,75,,72,66,9,7,3,3,0.3,0.3
2025-09-13T1200,1674A,116.6794,23.3667,汕头市,金平子站,,36,36,22,8,8,83,,55,55,6,12,3,5,0.4,0.7
2025-09-13T1200,1675A,116.7244,23.3633,汕头市,龙湖子站,,24,14,15,8,5,74,,47,47,4,9,7,8,0.5,0.7
2025-09-13T1200,1676A,116.7258,23.2775,汕头市,濠江子站,,34,34,17,10,8,96,,51,51,7,8,7,6,0.8,0.7
2025-09-13T1200,1677A,116.7519,23.4714,汕头市,澄海子站,,34,28,25,14,10,106,,49,49,10,14,6,6,0.6,0.8
2025-09-13T1200,1678A,116.6092,23.2539,汕头市,潮阳子站,,24,17,17,10,7,74,,49,49,1,4,6,6,0.5,0.5
2025-09-13T1200,3444A,116.454,23.2684,汕头市,潮南峡山,,29,15,19,12,11,92,,48,48,6,7,8,7,0.4,0.5
2025-09-13T1200,3624A,116.4069,23.2533,汕头市,潮南子站,,30,30,21,13,11,80,,38,38,6,7,5,5,0.6,0.6
2025-09-13T1200,1693A,115.3653,22.775,汕尾市,市环保局,,19,16,10,8,6,60,,46,46,6,7,3,3,0.4,0.4
2025-09-13T1200,1694A,115.3706,22.7898,汕尾市,市政府,,,,11,6,4,54,,44,44,5,6,5,4,0.3,0.4
2025-09-13T1200,1695A,115.3622,22.7925,汕尾市,新城中学,,29,29,13,3,7,51,,42,42,6,7,5,5,0.4,0.4
2025-09-13T1200,2645A,109.9154,33.8715,商洛市,监测站,,22,18,18,6,8,70,,41,41,6,13,11,9,0.6,0.6
2025-09-13T1200,3045A,109.9643,33.8471,商洛市,商州区中学,,25,25,22,3,5,67,,38,38,7,14,17,10,0.5,0.4
2025-09-13T1200,2408A,115.6702,34.4285,商丘市,环境监测站,,50,50,34,12,17,150,,76,76,8,15,5,4,0.5,0.5
2025-09-13T1200,2409A,115.6458,34.4045,商丘市,粮食局,颗粒物(PM10),51,52,31,26,16,148,,77,77,10,16,6,4,0.2,0.3
2025-09-13T1200,2410A,115.6293,34.3948,商丘市,睢阳区环保局,,48,48,37,24,21,141,,63,63,8,14,6,4,0.4,0.4
2025-09-13T1200,3171A,115.6071,34.4465,商丘市,梁园区档案局,,44,36,28,10,19,140,,66,66,6,15,7,5,0.7,0.7
2025-09-13T1200,1141A,121.4,31.238,上海市,普陀,细颗粒物(PM2.5),63,61,45,45,25,119,,49,49,18,24,6,6,0.8,0.6
2025-09-13T1200,1142A,121.478,31.2036,上海市,十五厂,颗粒物(PM10),56,61,51,38,29,134,,66,66,15,25,8,9,1.0,0.9
2025-09-13T1200,1143A,121.467,31.3008,上海市,虹口,细颗粒物(PM2.5),58,64,48,41,28,103,,49,48,16,20,6,6,0.5,0.3
2025-09-13T1200,1147A,121.425,31.2261,上海市,静安监测站,细颗粒物(PM2.5),54,56,45,38,25,130,,61,61,19,22,4,4,0.9,0.8
2025-09-13T1200,1148A,121.703,31.1907,上海市,浦东川沙,细颗粒物(PM2.5),68,83,44,49,23,77,,53,53,39,20,9,8,1.3,0.8
2025-09-13T1200,1149A,121.533,31.2284,上海市,浦东新区监测站,颗粒物(PM10),56,61,45,38,25,123,,66,66,19,20,5,6,0.6,0.6
2025-09-13T1200,1150A,121.577,31.2071,上海市,浦东张江,细颗粒物(PM2.5),60,57,48,43,26,134,,71,71,23,25,6,7,0.9,0.8
2025-09-13T1200,3265A,121.4316,31.3322,上海市,宝山庙行,细颗粒物(PM2.5),63,61,52,45,26,107,,44,44,17,23,8,8,0.7,0.5
2025-09-13T1200,3266A,121.8791,31.4662,上海市,崇明上实东滩,细颗粒物(PM2.5),62,68,40,44,25,108,,57,57,11,15,4,5,0.8,0.5
2025-09-13T1200,3268A,121.3162,31.2838,上海市,嘉定南翔,颗粒物(PM10),51,52,51,34,26,105,,42,42,18,31,4,4,0.5,0.4
2025-09-13T1200,3269A,121.3359,30.7456,上海市,金山新城,,43,40,40,30,27,113,,60,60,8,15,4,4,0.9,0.8
2025-09-13T1200,3270A,121.4996,31.0739,上海市,闵行浦江,颗粒物(PM10),53,56,48,32,24,131,,60,60,14,23,4,5,1.1,1
2025-09-13T1200,3271A,121.2886,31.1663,上海市,青浦徐泾,细颗粒物(PM2.5),53,53,42,37,25,129,,51,51,11,22,7,7,0.8,0.7
2025-09-13T1200,3272A,121.2186,31.0378,上海市,松江图书馆,,49,47,39,34,27,121,,54,54,13,24,4,5,0.8,0.7
2025-09-13T1200,3273A,121.3902,31.2059,上海市,长宁仙霞,颗粒物(PM10),56,61,45,36,24,118,,55,55,18,22,7,7,0.8,0.6
2025-09-13T1200,3274A,121.7965,31.0507,上海市,浦东惠南,颗粒物(PM10),76,102,37,48,17,132,,72,72,32,26,7,6,1.5,0.8
2025-09-13T1200,3544A,121.4891,30.925,上海市,奉贤南桥新城,,45,40,41,31,28,134,,71,71,9,19,6,6,0.8,0.7
2025-09-13T1200,4183A,121.4174,31.16637,上海市,冠生园路458号,颗粒物(PM10),54,58,41,36,27,119,,61,61,21,24,4,4,0.9,0.8
2025-09-13T1200,4205A,121.5419,31.2683,上海市,宁武路151号,颗粒物(PM10),60,69,61,36,26,117,,61,61,21,30,4,4,0.9,0.7
2025-09-13T1200,2381A,118.005,28.4572,上饶市,百草园,,,,,,,,,,,,,,,,
2025-09-13T1200,2382A,117.9756,28.4436,上饶市,市监测站,,40,29,24,11,12,127,,51,51,7,10,6,9,0.3,0.3
2025-09-13T1200,2383A,117.9519,28.4628,上饶市,凤凰光学,,36,34,25,21,17,115,,47,47,7,9,8,12,0.2,0.2
2025-09-13T1200,3685A,117.897,28.4315,上饶市,双创科技城,,36,26,26,15,15,115,,50,50,11,14,10,15,0.4,0.4
2025-09-13T1200,4211A,118.1904,28.4448,上饶市,裕丰大道,,35,22,20,3,8,109,,46,46,6,8,10,8,0.5,0.5
2025-09-13T1200,1669A,113.5824,24.7733,韶关市,市八中,,48,48,28,23,14,134,,52,52,10,11,16,17,0.6,0.6
