timepoint,stationcode,longitude,latitude,area,positionname,primarypollutant,aqi,pm10,pm10_24h,pm2_5,pm2_5_24h,o3,o3_24h,o3_8h,o3_8h_24h,no2,no2_24h,so2,so2_24h,co,co_24h
2023-04-30T14:00:00,1001A,116.3621,39.8784,北京市,万寿西宫,,30,28,42,8,10,93,93,72,72,11,18,1,2,0.2,0.3
2023-04-30T14:00:00,1002A,116.2202,40.2915,北京市,定陵,,31,29,33,6,8,98,98,83,83,6,5,3,3,0.2,0.1
2023-04-30T14:00:00,1003A,116.4174,39.9289,北京市,东四,,34,26,47,10,12,107,107,85,85,6,18,1,3,0.2,0.1
2023-04-30T14:00:00,1004A,116.4072,39.8863,北京市,天坛,,33,27,43,8,11,104,104,78,78,11,19,3,3,0.1,0.2
2023-04-30T14:00:00,1005A,116.462,39.9365,北京市,农展馆,,32,29,45,9,10,100,100,76,76,9,27,2,2,0.2,0.2
2023-04-30T14:00:00,1006A,116.3392,39.9295,北京市,官园,,30,26,42,13,14,94,94,68,68,10,20,1,1,0.1,0.2
2023-04-30T14:00:00,1007A,116.2878,39.9611,北京市,海淀万柳,,28,28,48,9,11,85,85,60,60,13,30,3,2,0.2,0.3
2023-04-30T14:00:00,1008A,116.6636,40.135,北京市,顺义新城,,34,23,41,11,9,108,108,88,88,6,13,3,3,0.2,0.2
2023-04-30T14:00:00,1009A,116.6275,40.3275,北京市,怀柔镇,,33,25,38,6,10,104,104,80,80,9,13,3,3,0.1,0.1
2023-04-30T14:00:00,1010A,116.2296,40.217,北京市,昌平镇,,34,16,34,6,10,108,108,77,77,3,8,3,3,0.2,0.2
2023-04-30T14:00:00,1011A,116.3966,39.9821,北京市,奥体中心,,28,24,40,9,11,87,87,67,67,13,24,3,2,0.1,0.1
2023-04-30T14:00:00,1012A,116.184,39.9136,北京市,古城,,36,36,51,9,11,104,104,75,75,9,20,1,3,0.1,0.2
2023-04-30T14:00:00,1015A,117.1444,39.1661,天津市,勤俭道,,36,26,98,12,30,115,114,84,84,9,30,6,9,0.3,0.5
2023-04-30T14:00:00,1017A,117.237,39.1082,天津市,大直沽八号路,,34,30,92,10,27,107,107,78,78,8,25,7,9,0.2,0.4
2023-04-30T14:00:00,1018A,117.202,39.0927,天津市,前进道,,35,29,85,13,27,111,110,83,83,11,26,4,6,0.1,0.3
2023-04-30T14:00:00,1019A,117.1837,39.2133,天津市,淮河道,,35,31,97,11,30,114,112,83,83,9,31,6,10,0.3,0.5
2023-04-30T14:00:00,1021A,117.307,39.0877,天津市,跃进路,,35,28,94,10,28,111,111,77,77,7,26,5,7,0.4,0.6
2023-04-30T14:00:00,1023A,117.707,39.0343,天津市,第四大街,,31,24,76,10,21,102,98,74,74,12,28,5,6,0.5,0.7
2023-04-30T14:00:00,1024A,117.457,38.8394,天津市,永明路,,35,35,77,13,25,111,111,79,79,16,32,10,14,0.6,0.7
2023-04-30T14:00:00,1026A,117.764,39.1587,天津市,汉北路,,33,17,71,11,28,110,105,82,82,8,27,7,9,0.1,0.3
2023-04-30T14:00:00,1027A,117.157,38.9194,天津市,团泊洼,,35,25,85,9,26,111,111,80,80,21,29,3,5,0.3,0.6
2023-04-30T14:00:00,1029A,114.4422,38.0444,石家庄市,职工医院,,39,39,80,24,31,120,120,75,75,11,37,6,8,0.4,0.5
2023-04-30T14:00:00,1030A,114.6063,38.0266,石家庄市,高新区,,44,44,88,19,35,115,115,73,73,6,32,6,5,0.5,0.5
2023-04-30T14:00:00,1031A,114.4898,38.1328,石家庄市,西北水源,,45,45,97,8,29,117,117,74,74,9,38,5,6,0.3,0.5
2023-04-30T14:00:00,1032A,114.4586,38.0058,石家庄市,西南高教,,45,45,87,23,43,115,115,73,73,13,38,8,7,0.3,0.4
2023-04-30T14:00:00,1033A,114.5331,38.0178,石家庄市,世纪公园,,35,34,72,21,31,110,110,70,70,10,33,4,4,0.4,0.6
2023-04-30T14:00:00,1034A,114.509,38.0457,石家庄市,人民会堂,,39,39,86,5,19,118,118,75,75,13,37,5,6,0.3,0.4
2023-04-30T14:00:00,1035A,114.3524,37.8911,石家庄市,封龙山,颗粒物(PM10),56,61,114,8,18,107,105,92,91,9,8,12,12,0.4,0.4
2023-04-30T14:00:00,1037A,118.131,39.6363,唐山市,雷达站,,33,25,65,6,24,116,105,68,68,8,26,4,7,0.3,1.1
2023-04-30T14:00:00,1038A,118.1725,39.6334,唐山市,物资局,,40,40,83,13,28,104,98,67,67,5,23,4,7,0.3,0.8
2023-04-30T14:00:00,1040A,118.1705,39.6506,唐山市,十二中,,34,32,64,9,27,115,106,75,75,2,16,3,6,0.3,0.7
2023-04-30T14:00:00,1041A,118.1869,39.622,唐山市,小山,,,,99,,23,84,,84,,,24,,4,,0.6
2023-04-30T14:00:00,1042A,119.5134,39.8207,秦皇岛市,北戴河环保局,,33,33,32,7,15,90,80,84,58,7,16,3,3,0.2,0.3
2023-04-30T14:00:00,1043A,119.7493,40.0116,秦皇岛市,第一关,,31,26,36,10,18,100,99,73,73,7,36,3,2,0.3,0.3
2023-04-30T14:00:00,1044A,119.5897,39.9499,秦皇岛市,监测站,,38,38,42,14,21,103,96,79,76,3,15,1,2,0.2,0.3
2023-04-30T14:00:00,1046A,119.5251,39.9041,秦皇岛市,建设大厦,,41,41,42,6,10,106,102,82,76,2,16,4,6,0.2,0.3
2023-04-30T14:00:00,1048A,114.5302,36.6116,邯郸市,东污水处理厂,颗粒物(PM10),51,51,106,18,30,108,105,82,82,6,21,6,10,0.3,0.6
2023-04-30T14:00:00,1049A,114.4918,36.5713,邯郸市,矿院,,40,40,76,14,29,113,113,86,86,2,25,3,7,0.3,0.5
2023-04-30T14:00:00,1050A,114.484,36.6133,邯郸市,丛台公园,,41,41,88,26,29,112,112,87,87,5,20,5,10,0.2,0.6
2023-04-30T14:00:00,1051A,115.493,38.8632,保定市,游泳馆,,,,80,,32,110,109,82,82,7,22,6,6,0.2,0.2
2023-04-30T14:00:00,1052A,115.5213,38.8959,保定市,华电二区,,49,49,78,8,27,102,102,73,73,6,20,7,5,0.2,0.3
2023-04-30T14:00:00,1053A,115.4713,38.9108,保定市,接待中心,,33,33,75,5,23,100,98,72,72,4,21,8,8,0.1,0.2
2023-04-30T14:00:00,1054A,115.4612,38.8416,保定市,地表水厂,,47,47,99,13,22,101,101,75,75,9,30,7,8,0.2,0.2
2023-04-30T14:00:00,1056A,115.5086,38.8639,保定市,监测站,,39,39,80,15,21,109,109,79,79,7,22,10,9,0.3,0.4
2023-04-30T14:00:00,1057A,114.8883,40.8336,张家口市,人民公园,,33,17,31,1,5,104,104,79,79,3,6,3,4,0.3,0.3
2023-04-30T14:00:00,1059A,114.8687,40.8042,张家口市,五金库,,32,3,27,7,8,101,101,77,77,7,11,3,3,0.3,0.4
2023-04-30T14:00:00,1060A,114.8902,40.762,张家口市,世纪豪园,,33,18,36,2,14,103,103,77,77,2,8,4,4,0.3,0.4
2023-04-30T14:00:00,1061A,114.8916,40.8661,张家口市,北泵房,,35,11,29,2,10,110,110,86,86,3,8,9,8,0.3,0.3
2023-04-30T14:00:00,1062A,117.9531,40.9081,承德市,铁路,,33,6,37,7,14,103,103,68,68,2,15,8,8,0.2,0.2
2023-04-30T14:00:00,1063A,117.9392,40.9763,承德市,中国银行,,33,14,34,2,8,104,104,73,73,4,16,7,7,0.2,0.2
2023-04-30T14:00:00,1064A,117.9503,40.928,承德市,开发区,,34,11,41,7,16,109,108,74,74,5,21,7,6,0.2,0.3
2023-04-30T14:00:00,1065A,117.8051,40.9655,承德市,文化中心,,33,12,43,3,16,109,103,78,78,2,20,10,11,0.2,0.3
2023-04-30T14:00:00,1066A,117.9268,41.0026,承德市,离宫,,35,2,26,10,16,110,110,81,81,2,11,5,5,0.2,0.2
2023-04-30T14:00:00,1067A,116.6708,39.5111,廊坊市,药材公司,,34,16,60,2,15,108,108,77,77,8,25,2,2,0.2,0.3
2023-04-30T14:00:00,1068A,116.7214,39.5589,廊坊市,开发区,,36,21,63,14,20,113,113,78,78,12,29,5,6,0.3,0.4
2023-04-30T14:00:00,1070A,116.7244,39.5269,廊坊市,北华航天学院,,36,7,66,7,24,113,113,78,78,6,27,5,6,0.2,0.3
2023-04-30T14:00:00,1071A,116.8842,38.2991,沧州市,沧县城建局,,39,36,99,7,24,123,123,88,88,17,28,2,4,0.4,0.5
2023-04-30T14:00:00,1072A,116.8584,38.3254,沧州市,电视转播站,,37,32,89,9,22,118,118,83,83,17,27,5,8,0.4,0.4
2023-04-30T14:00:00,1073A,116.8709,38.3228,沧州市,市环保局,,40,30,85,16,27,127,127,89,89,16,27,3,5,0.2,0.3
2023-04-30T14:00:00,1074A,115.6838,37.7541,衡水市,电机北厂,,38,34,111,3,37,123,119,81,81,7,18,1,3,0.0,0.1
2023-04-30T14:00:00,1075A,115.6303,37.7316,衡水市,市监测站,,36,22,104,14,37,115,113,77,77,5,15,7,7,0.3,0.4
2023-04-30T14:00:00,1077A,114.4704,37.0886,邢台市,达活泉,,43,43,89,9,27,114,109,87,87,5,17,5,10,0.2,0.5
2023-04-30T14:00:00,1078A,114.5062,37.0349,邢台市,邢师高专,,44,44,92,16,25,106,105,81,81,2,21,3,6,0.3,0.4
2023-04-30T14:00:00,1079A,114.5237,37.0851,邢台市,路桥公司,,47,47,106,12,22,113,108,82,82,5,16,2,7,0.3,0.5
2023-04-30T14:00:00,1080A,114.4725,37.0719,邢台市,市环保局,,43,43,99,14,30,119,113,92,92,2,12,5,9,0.3,0.5
2023-04-30T14:00:00,1081A,112.522,37.8873,太原市,尖草坪,颗粒物(PM10),53,56,85,27,29,117,113,64,64,14,46,7,7,0.4,0.4
2023-04-30T14:00:00,1083A,112.434,38.0108,太原市,上兰,颗粒物(PM10),51,51,53,26,24,120,111,81,70,13,12,8,8,0.4,0.2
2023-04-30T14:00:00,1084A,112.469,37.7124,太原市,晋源,细颗粒物(PM2.5),70,51,82,51,32,120,120,67,67,11,38,5,5,0.4,0.5
2023-04-30T14:00:00,1085A,112.5583,37.7394,太原市,小店,,43,43,83,16,33,121,121,66,66,12,46,6,10,0.3,0.5
2023-04-30T14:00:00,1086A,112.5369,37.8692,太原市,桃园,,42,42,72,18,30,115,114,63,63,15,46,7,8,0.4,0.5
2023-04-30T14:00:00,1087A,112.57,37.8195,太原市,坞城,颗粒物(PM10),51,52,93,18,28,114,114,66,66,16,51,7,9,0.3,0.6
2023-04-30T14:00:00,1088A,112.549,37.9854,太原市,南寨,,49,45,75,34,25,116,108,57,57,18,37,12,9,0.9,0.6
2023-04-30T14:00:00,1090A,111.6507,40.7517,呼和浩特市,呼市一监,,36,34,52,12,18,113,113,66,66,9,28,10,8,0.4,0.5
2023-04-30T14:00:00,1091A,111.6572,40.8033,呼和浩特市,小召,,44,44,61,18,16,96,96,59,59,20,35,12,9,0.4,0.5
2023-04-30T14:00:00,1094A,111.7516,40.8369,呼和浩特市,如意水处理厂,,33,16,48,5,14,104,104,63,63,2,29,6,8,0.3,0.4
2023-04-30T14:00:00,1095A,111.7276,40.8062,呼和浩特市,二十九中,,44,44,52,14,16,103,103,62,62,13,29,9,8,0.4,0.5
2023-04-30T14:00:00,1096A,111.5512,40.7866,呼和浩特市,工大金川校区,,42,42,47,13,14,101,101,59,54,9,25,6,6,0.4,0.4
2023-04-30T14:00:00,1097A,111.717,40.7612,呼和浩特市,化肥厂生活区,,46,46,54,14,15,96,96,59,59,13,26,10,8,0.4,0.4
2023-04-30T14:00:00,1098A,123.6836,41.9339,沈阳市,森林路,,,,32,,20,48,,41,,,25,,5,,0.7
2023-04-30T14:00:00,1099A,123.505,41.7406,沈阳市,浑南东路,,33,19,39,8,23,103,103,72,72,11,35,8,19,0.4,0.8
2023-04-30T14:00:00,1100A,123.4231,41.6989,沈阳市,新秀街,,32,16,40,3,21,101,101,72,72,6,28,13,27,0.3,0.7
2023-04-30T14:00:00,1102A,123.5903,41.8411,沈阳市,东陵路,,30,18,31,14,19,95,95,64,64,9,28,7,9,0.3,0.6
2023-04-30T14:00:00,1103A,123.4264,41.8467,沈阳市,陵东街,,32,16,31,4,17,102,102,73,73,8,26,6,7,0.4,0.8
2023-04-30T14:00:00,1104A,123.4114,41.7653,沈阳市,文化路,,32,18,40,8,27,102,102,72,72,9,33,6,10,0.3,0.7
2023-04-30T14:00:00,1105A,123.4678,41.7867,沈阳市,小河沿,,31,15,33,6,19,98,98,68,68,13,35,7,10,0.4,0.8
2023-04-30T14:00:00,1106A,123.4017,41.7972,沈阳市,太原街,,,23,40,,30,96,96,68,68,16,36,6,11,0.5,0.9
2023-04-30T14:00:00,1108A,123.3783,41.9228,沈阳市,京沈街,,32,24,38,10,26,102,102,75,75,7,28,10,15,0.3,0.7
2023-04-30T14:00:00,1109A,121.612,38.9741,大连市,甘井子,,44,44,37,20,16,108,108,88,88,10,25,5,5,0.3,0.4
2023-04-30T14:00:00,1110A,121.565,38.9511,大连市,周水子,,43,43,40,20,17,113,113,90,90,15,33,6,6,0.7,0.8
2023-04-30T14:00:00,1111A,121.5637,38.8845,大连市,星海三站,,35,26,31,9,14,111,110,95,95,10,21,3,3,0.4,0.5
2023-04-30T14:00:00,1112A,121.6302,38.9117,大连市,青泥洼桥,,37,26,33,11,16,116,116,92,92,13,29,5,5,0.5,0.7
2023-04-30T14:00:00,1113A,121.6251,38.8638,大连市,傅家庄,,37,37,32,22,13,112,97,93,83,22,21,7,7,0.6,0.6
2023-04-30T14:00:00,1114A,121.5213,38.8661,大连市,七贤岭,,38,28,35,8,15,122,119,102,102,6,17,5,6,0.3,0.4
2023-04-30T14:00:00,1115A,121.2529,38.8061,大连市,旅顺,,35,27,30,9,13,109,109,93,93,7,19,6,7,0.5,0.5
2023-04-30T14:00:00,1116A,121.7485,39.1311,大连市,金州,颗粒物(PM10),63,76,41,25,15,112,109,90,90,19,18,9,8,0.4,0.5
2023-04-30T14:00:00,1117A,121.7811,39.0496,大连市,开发区,,39,39,34,21,15,107,107,85,85,16,29,4,5,0.3,0.4
2023-04-30T14:00:00,1118A,121.9762,39.0631,大连市,双D港,,47,47,30,26,13,121,121,99,99,22,19,6,5,0.3,0.3
2023-04-30T14:00:00,1119A,125.3325,43.9166,长春市,食品厂,,27,20,19,9,17,97,85,92,71,18,20,7,7,0.3,0.4
2023-04-30T14:00:00,1120A,125.2863,43.9027,长春市,客车厂,,27,14,18,10,17,93,84,89,69,14,16,4,4,0.3,0.4
2023-04-30T14:00:00,1121A,125.2841,43.8463,长春市,邮电学院,,29,10,19,5,10,95,92,93,77,8,13,5,5,0.3,0.4
2023-04-30T14:00:00,1122A,125.3716,43.8772,长春市,劳动公园,,30,18,18,6,9,102,94,94,80,10,14,6,6,0.2,0.3
2023-04-30T14:00:00,1123A,125.3297,43.8805,长春市,园林处,,26,15,18,9,9,91,83,84,72,15,15,2,2,0.3,0.3
2023-04-30T14:00:00,1124A,125.4605,43.79,长春市,净月潭,细颗粒物(PM2.5),59,10,18,42,10,100,95,92,80,5,8,4,4,0.3,0.4
2023-04-30T14:00:00,1125A,125.7194,43.515,长春市,甩湾子,,34,15,17,10,12,111,107,100,95,8,12,4,4,0.1,0.2
2023-04-30T14:00:00,1126A,125.3863,43.8447,长春市,经开区环卫处,,30,22,19,6,10,99,94,91,78,6,12,6,6,0.3,0.4
2023-04-30T14:00:00,1127A,125.245,43.7783,长春市,高新区管委会,,31,16,19,7,11,104,98,100,84,6,11,2,3,0.3,0.3
2023-04-30T14:00:00,1128A,125.1761,43.8325,长春市,岱山公园,,29,16,21,5,9,98,91,95,78,7,10,4,4,0.2,0.3
2023-04-30T14:00:00,1129A,126.5422,45.755,哈尔滨市,岭北,,29,8,19,7,16,95,91,88,88,6,11,18,17,0.6,0.8
2023-04-30T14:00:00,1130A,126.561,45.8167,哈尔滨市,松北商大,,26,22,20,8,16,93,83,79,79,15,17,5,5,0.5,0.5
2023-04-30T14:00:00,1131A,126.979,45.5419,哈尔滨市,阿城会宁,,25,17,21,13,13,90,78,80,80,17,16,5,7,0.5,0.5
2023-04-30T14:00:00,1132A,126.599,45.7222,哈尔滨市,南岗学府路,,27,21,32,8,14,87,85,83,83,9,15,6,6,0.5,0.5
2023-04-30T14:00:00,1133A,126.689,45.7733,哈尔滨市,太平宏伟公园,,26,17,26,8,15,85,83,83,83,12,19,5,5,0.3,0.3
2023-04-30T14:00:00,1134A,126.635,45.7667,哈尔滨市,道外承德广场,,25,16,26,7,15,86,79,82,82,13,19,10,10,0.3,0.4
2023-04-30T14:00:00,1135A,126.685,45.7319,哈尔滨市,香坊红旗大街,,28,18,19,12,15,92,89,89,89,11,14,13,13,0.4,0.4
2023-04-30T14:00:00,1136A,126.6411,45.7258,哈尔滨市,动力和平路,,27,13,20,3,8,86,84,84,84,15,16,11,12,0.7,0.6
2023-04-30T14:00:00,1137A,126.593,45.7478,哈尔滨市,道里建国路,,25,9,25,10,17,83,80,80,80,15,19,12,13,0.4,0.4
2023-04-30T14:00:00,1138A,126.615,45.61,哈尔滨市,平房东轻厂,,29,8,22,11,15,92,90,82,82,5,17,5,5,0.6,0.6
2023-04-30T14:00:00,1139A,126.595,45.9855,哈尔滨市,呼兰师专,,28,17,25,7,17,92,89,86,86,9,15,10,9,0.4,0.4
2023-04-30T14:00:00,1140A,126.6206,45.6842,哈尔滨市,省农科院,,29,11,26,12,14,95,92,89,89,9,17,13,13,0.4,0.5
2023-04-30T14:00:00,1141A,121.4,31.238,上海市,普陀,颗粒物(PM10),69,87,122,35,30,155,155,105,105,20,34,7,6,0.5,0.5
2023-04-30T14:00:00,1142A,121.478,31.2036,上海市,十五厂,颗粒物(PM10),63,75,125,35,33,151,151,92,92,18,38,10,9,0.5,0.6
2023-04-30T14:00:00,1143A,121.467,31.3008,上海市,虹口,颗粒物(PM10),65,80,107,29,34,145,145,100,100,23,40,10,10,0.6,0.7
2023-04-30T14:00:00,1144A,121.412,31.1654,上海市,徐汇上师大,颗粒物(PM10),62,73,109,37,34,151,151,102,102,21,46,10,9,0.5,0.6
2023-04-30T14:00:00,1145A,121.536,31.2659,上海市,杨浦四漂,颗粒物(PM10),65,80,125,37,33,154,154,104,104,23,37,9,8,0.8,0.8
2023-04-30T14:00:00,1147A,121.425,31.2261,上海市,静安监测站,颗粒物(PM10),71,92,110,33,29,154,154,106,106,22,37,8,7,0.5,0.6
2023-04-30T14:00:00,1148A,121.703,31.1907,上海市,浦东川沙,颗粒物(PM10),80,109,120,35,37,164,164,103,103,16,32,8,7,0.8,0.8
2023-04-30T14:00:00,1149A,121.533,31.2284,上海市,浦东新区监测站,,,,112,,26,154,154,102,102,15,24,,9,0.5,0.7
2023-04-30T14:00:00,1150A,121.577,31.2071,上海市,浦东张江,颗粒物(PM10),80,109,114,40,37,148,148,98,98,19,38,6,5,0.6,0.6
2023-04-30T14:00:00,1151A,118.8086,32.1065,南京市,迈皋桥,颗粒物(PM10),78,105,83,27,21,141,141,95,95,10,38,8,9,0.2,0.3
2023-04-30T14:00:00,1152A,118.7538,32.0551,南京市,草场门,颗粒物(PM10),84,117,91,22,21,130,130,85,85,12,33,8,10,0.5,0.8
2023-04-30T14:00:00,1153A,118.7794,32.0745,南京市,山西路,颗粒物(PM10),85,119,103,22,23,135,135,92,92,5,25,6,9,0.3,0.5
2023-04-30T14:00:00,1154A,118.7752,32.0023,南京市,中华门,颗粒物(PM10),81,112,93,19,24,132,132,88,88,11,40,7,9,0.6,0.9
2023-04-30T14:00:00,1155A,118.8109,32.0309,南京市,瑞金路,颗粒物(PM10),68,86,85,27,22,134,134,85,85,12,36,10,9,0.5,0.8
2023-04-30T14:00:00,1156A,118.7997,32.0754,南京市,玄武湖,颗粒物(PM10),70,89,82,22,23,129,129,84,84,10,29,8,9,0.5,0.7
2023-04-30T14:00:00,1157A,118.6414,32.0931,南京市,浦口,颗粒物(PM10),75,100,94,14,20,133,133,100,91,13,23,10,8,0.2,0.4
2023-04-30T14:00:00,1158A,118.7356,31.9996,南京市,奥体中心,颗粒物(PM10),76,102,94,27,22,131,131,85,85,10,39,11,12,0.4,0.7
2023-04-30T14:00:00,1159A,118.9125,32.1028,南京市,仙林大学城,,,97,96,24,21,121,,61,61,41,59,9,13,0.6,0.8
2023-04-30T14:00:00,1160A,120.561,31.2472,苏州市,上方山,颗粒物(PM10),62,74,74,25,24,130,130,91,91,10,20,10,8,0.4,0.4
2023-04-30T14:00:00,1162A,120.591,31.3019,苏州市,彩香,颗粒物(PM10),62,73,82,25,27,160,160,110,110,9,34,7,7,0.5,0.7
2023-04-30T14:00:00,1163A,120.596,31.3264,苏州市,轧钢厂,颗粒物(PM10),63,76,86,18,24,151,151,102,102,7,31,9,9,0.5,0.7
2023-04-30T14:00:00,1164A,120.613,31.2703,苏州市,吴中区,颗粒物(PM10),59,67,81,19,22,149,147,103,103,10,35,10,10,0.4,0.6
2023-04-30T14:00:00,1165A,120.543,31.2994,苏州市,苏州新区,颗粒物(PM10),65,80,85,23,23,150,150,101,101,12,30,7,6,0.5,0.6
2023-04-30T14:00:00,1166A,120.669,31.3097,苏州市,苏州工业园区,颗粒物(PM10),56,61,82,18,26,145,145,97,97,2,34,9,10,0.5,0.6
2023-04-30T14:00:00,1167A,120.641,31.3708,苏州市,相城区,颗粒物(PM10),66,82,84,20,23,155,155,103,103,4,34,8,8,0.5,0.6
2023-04-30T14:00:00,1168A,120.9098,31.9663,南通市,狼山街道,颗粒物(PM10),68,86,68,27,23,156,156,100,100,17,22,10,8,0.5,0.5
2023-04-30T14:00:00,1169A,120.86,32.0005,南通市,虹桥,颗粒物(PM10),65,80,84,29,28,152,152,94,94,26,38,10,12,0.5,0.7
2023-04-30T14:00:00,1170A,120.87,32.02,南通市,城中,颗粒物(PM10),71,92,85,28,26,159,159,102,102,19,30,10,11,0.7,0.8
2023-04-30T14:00:00,1171A,120.94,31.93,南通市,星湖花园,颗粒物(PM10),66,81,74,27,25,154,154,102,102,18,42,10,10,0.5,0.6
2023-04-30T14:00:00,1172A,120.81,32.0417,南通市,紫琅学院,颗粒物(PM10),78,106,87,36,26,131,131,81,81,39,44,18,10,0.8,0.4
2023-04-30T14:00:00,1173A,119.176,34.5885,连云港市,市环境监测站,颗粒物(PM10),86,122,92,29,27,132,132,103,103,3,13,8,9,0.3,0.4
2023-04-30T14:00:00,1177A,117.179,34.2761,徐州市,黄河新村,颗粒物(PM10),102,153,132,36,31,129,129,101,101,11,22,9,10,0.4,0.4
2023-04-30T14:00:00,1178A,117.1918,34.2384,徐州市,淮塔,颗粒物(PM10),91,131,115,61,41,141,141,103,103,7,25,10,11,0.4,0.5
2023-04-30T14:00:00,1180A,117.256,34.2153,徐州市,新城区,颗粒物(PM10),97,143,116,40,31,136,136,98,98,10,31,7,7,0.4,0.5
2023-04-30T14:00:00,1181A,117.244,34.2911,徐州市,桃园路,颗粒物(PM10),103,156,128,41,30,128,128,95,95,11,24,9,10,0.4,0.5
2023-04-30T14:00:00,1182A,117.2933,34.2778,徐州市,农科院,颗粒物(PM10),95,139,113,29,22,144,144,107,107,9,23,8,9,0.5,0.5
2023-04-30T14:00:00,1186A,119.389,32.3761,扬州市,邗江监测站,颗粒物(PM10),73,95,104,27,35,146,146,94,94,17,47,7,8,0.5,0.5
2023-04-30T14:00:00,1188A,120.269,31.4867,无锡市,雪浪,颗粒物(PM10),78,105,79,19,19,151,151,112,112,11,21,10,10,0.5,0.6
2023-04-30T14:00:00,1189A,120.275,31.6219,无锡市,黄巷,颗粒物(PM10),69,88,93,24,21,156,156,113,113,9,39,7,8,0.7,0.8
2023-04-30T14:00:00,1190A,120.294,31.56,无锡市,曹张,颗粒物(PM10),63,75,83,24,24,157,157,104,104,7,40,8,8,0.5,1
2023-04-30T14:00:00,1191A,120.242,31.5031,无锡市,漆塘,颗粒物(PM10),63,75,69,19,19,154,154,106,106,10,21,8,7,0.4,0.5
2023-04-30T14:00:00,1192A,120.3489,31.5863,无锡市,东亭,颗粒物(PM10),70,90,87,34,26,151,151,105,105,6,34,11,10,0.6,0.7
2023-04-30T14:00:00,1193A,120.354,31.5475,无锡市,旺庄,颗粒物(PM10),71,92,86,14,22,146,146,99,99,10,38,6,6,0.5,0.6
2023-04-30T14:00:00,1194A,120.245,31.5631,无锡市,荣巷,颗粒物(PM10),63,75,69,19,23,136,136,96,96,10,21,13,12,0.6,0.6
2023-04-30T14:00:00,1195A,120.299,31.6817,无锡市,堰桥,颗粒物(PM10),71,92,94,24,26,154,154,104,104,15,37,10,10,0.4,0.6
2023-04-30T14:00:00,1196A,119.9633,31.762,常州市,市监测站,颗粒物(PM10),58,66,75,16,25,142,142,98,98,9,40,6,7,0.2,0.4
2023-04-30T14:00:00,1200A,119.9468,31.7069,常州市,武进监测站,颗粒物(PM10),64,78,78,24,26,147,147,104,104,11,36,6,13,0.3,0.5
2023-04-30T14:00:00,1201A,119.9255,31.9087,常州市,安家,颗粒物(PM10),63,76,86,36,34,149,149,95,95,11,41,7,8,0.4,0.5
2023-04-30T14:00:00,1203A,119.6707,32.1875,镇江市,新区办事处,颗粒物(PM10),68,85,94,18,22,145,145,99,99,6,28,4,4,0.3,0.4
2023-04-30T14:00:00,1204A,119.4974,32.1968,镇江市,职教中心,颗粒物(PM10),70,89,91,20,23,140,140,100,100,14,34,2,3,0.5,0.5
2023-04-30T14:00:00,1205A,119.4303,32.1328,镇江市,丹徒区监测站,颗粒物(PM10),77,104,102,27,27,141,141,95,95,11,39,6,4,0.4,0.4
2023-04-30T14:00:00,1206A,119.905,32.4878,泰州市,公园路,,,,79,,29,143,143,94,94,15,38,10,13,0.3,0.4
2023-04-30T14:00:00,1207A,119.9189,32.4625,泰州市,莲花,颗粒物(PM10),75,100,95,29,35,145,145,98,98,17,37,10,11,0.3,0.4
2023-04-30T14:00:00,1209A,119.888,32.4639,泰州市,留学生创业园,颗粒物(PM10),74,98,94,27,25,134,134,88,88,17,39,9,9,0.4,0.5
2023-04-30T14:00:00,1210A,119.036,33.5981,淮安市,钵池山,颗粒物(PM10),85,119,93,25,23,128,128,97,97,15,22,12,12,0.7,0.7
2023-04-30T14:00:00,1211A,119.007,33.575,淮安市,北京南路,颗粒物(PM10),86,122,97,35,26,123,123,88,88,23,33,16,12,0.9,0.7
2023-04-30T14:00:00,1212A,118.989,33.6067,淮安市,市监测站,颗粒物(PM10),95,139,106,46,21,134,134,100,100,15,24,10,10,0.4,0.4
2023-04-30T14:00:00,1213A,119.135,33.5039,淮安市,楚州区监测站,颗粒物(PM10),90,129,107,30,28,133,133,93,93,13,32,10,12,0.5,0.6
2023-04-30T14:00:00,1214A,119.0186,33.6297,淮安市,淮阴区监测站,颗粒物(PM10),96,141,108,29,26,125,125,95,95,18,28,11,13,0.3,0.3
2023-04-30T14:00:00,1215A,120.118,33.4022,盐城市,盐城电厂,颗粒物(PM10),93,136,96,22,21,152,152,114,114,9,18,8,8,0.3,0.4
2023-04-30T14:00:00,1216A,120.156,33.3942,盐城市,市监测站,颗粒物(PM10),68,85,80,32,24,134,134,104,104,7,14,9,10,0.4,0.5
2023-04-30T14:00:00,1218A,120.2144,33.38,盐城市,开发区管委会,颗粒物(PM10),67,84,81,20,18,145,145,112,112,12,17,9,10,0.3,0.4
2023-04-30T14:00:00,1220A,118.293,33.9528,宿迁市,宿迁学院,颗粒物(PM10),124,198,131,55,37,138,138,107,107,6,19,8,8,0.4,0.4
2023-04-30T14:00:00,1221A,118.2442,33.9592,宿迁市,宿迁中学,颗粒物(PM10),105,159,114,46,31,138,138,104,104,10,21,8,8,0.2,0.3
2023-04-30T14:00:00,1223A,120.2072,30.2111,杭州市,滨江,颗粒物(PM10),74,98,154,30,40,134,134,76,76,12,29,7,7,0.5,0.6
2023-04-30T14:00:00,1224A,120.0633,30.2747,杭州市,西溪,颗粒物(PM10),72,94,125,24,24,133,133,70,70,15,24,9,7,0.5,0.6
2023-04-30T14:00:00,1226A,120.3461,30.3153,杭州市,下沙,颗粒物(PM10),80,109,159,27,33,138,138,86,86,13,27,6,6,0.6,0.7
2023-04-30T14:00:00,1227A,120.1269,30.2456,杭州市,卧龙桥,颗粒物(PM10),58,65,87,22,30,133,133,76,76,10,15,7,4,0.4,0.5
2023-04-30T14:00:00,1228A,120.1903,30.2692,杭州市,浙江农大,颗粒物(PM10),67,83,129,23,37,135,135,83,83,13,24,8,7,0.4,0.5
2023-04-30T14:00:00,1230A,120.1197,30.3119,杭州市,和睦小学,颗粒物(PM10),70,89,140,24,33,133,133,73,73,11,29,7,6,0.6,0.7
2023-04-30T14:00:00,1231A,120.3019,30.4183,杭州市,临平镇,颗粒物(PM10),77,104,162,22,34,143,143,86,86,11,30,6,5,0.4,0.5
2023-04-30T14:00:00,1232A,120.2697,30.1819,杭州市,城厢镇,颗粒物(PM10),81,112,148,24,33,138,138,80,80,14,28,5,4,0.5,0.7
2023-04-30T14:00:00,1233A,120.0883,30.1808,杭州市,云栖,颗粒物(PM10),62,73,104,16,23,129,129,78,78,9,17,6,6,0.5,0.6
2023-04-30T14:00:00,1234A,121.8358,29.911,宁波市,区环保大楼,颗粒物(PM10),72,93,96,34,35,127,127,78,78,36,36,10,6,0.6,0.6
2023-04-30T14:00:00,1235A,121.56,29.82,宁波市,万里学院,颗粒物(PM10),66,81,109,30,30,159,159,86,86,12,29,5,4,0.5,0.6
2023-04-30T14:00:00,1236A,121.713,29.9572,宁波市,龙赛医院,颗粒物(PM10),94,138,115,49,35,189,160,90,90,54,39,15,7,0.6,0.4
2023-04-30T14:00:00,1239A,121.633,29.7733,宁波市,钱湖水厂,,,67,101,24,30,160,160,94,94,,20,6,4,0.2,0.3
2023-04-30T14:00:00,1240A,121.5856,29.8635,宁波市,太古小学,颗粒物(PM10),69,87,102,29,27,151,151,82,82,15,30,9,9,0.6,0.7
2023-04-30T14:00:00,1241A,121.524,29.8674,宁波市,市环境监测中心,颗粒物(PM10),80,110,107,28,25,154,154,79,79,17,35,9,8,0.4,0.5
2023-04-30T14:00:00,1242A,120.634,28.0089,温州市,瓯海,颗粒物(PM10),57,63,37,18,13,124,124,79,79,18,24,8,7,0.4,0.5
2023-04-30T14:00:00,1243A,120.6748,27.9939,温州市,南浦,颗粒物(PM10),54,58,33,24,17,120,120,84,82,16,18,5,4,0.3,0.4
2023-04-30T14:00:00,1244A,120.76,27.9747,温州市,龙湾,颗粒物(PM10),55,60,28,17,13,124,124,80,80,16,28,7,6,0.4,0.5
2023-04-30T14:00:00,1245A,120.6709,28.0167,温州市,市站,颗粒物(PM10),58,65,32,20,16,114,114,81,75,27,30,6,5,0.3,0.4
2023-04-30T14:00:00,1247A,120.6053,29.9928,绍兴市,城东开发委,颗粒物(PM10),61,71,126,20,33,137,137,95,95,8,16,6,6,0.3,0.5
2023-04-30T14:00:00,1250A,120.0751,30.8669,湖州市,城西水厂,颗粒物(PM10),64,77,102,24,22,143,143,84,84,15,44,7,9,0.4,0.4
2023-04-30T14:00:00,1252A,120.7436,30.778,嘉兴市,清河小学,颗粒物(PM10),84,117,132,30,31,131,131,82,82,18,41,6,6,0.3,0.5
2023-04-30T14:00:00,1253A,120.726,30.7478,嘉兴市,嘉兴学院,颗粒物(PM10),74,98,115,25,23,136,136,82,82,13,40,7,7,0.3,0.4
2023-04-30T14:00:00,1255A,121.273,28.6459,台州市,黄岩环保大楼,颗粒物(PM10),62,73,49,20,15,129,129,76,76,14,17,6,5,0.4,0.5
2023-04-30T14:00:00,1256A,121.419,28.6542,台州市,台州环保大楼,颗粒物(PM10),74,97,52,34,19,152,152,86,86,12,14,7,5,0.4,0.4
2023-04-30T14:00:00,1257A,121.377,28.5773,台州市,路桥田洋王,颗粒物(PM10),80,110,53,37,15,150,150,87,87,17,16,10,6,0.4,0.4
2023-04-30T14:00:00,1258A,122.122,30.0203,舟山市,定海檀枫,颗粒物(PM10),64,78,95,24,26,115,115,68,68,22,22,6,6,0.3,0.4
2023-04-30T14:00:00,1259A,122.3094,29.9558,舟山市,普陀东港,颗粒物(PM10),57,64,97,20,26,104,104,78,78,15,17,6,6,0.3,0.4
2023-04-30T14:00:00,1260A,122.19,29.9944,舟山市,临城新区,颗粒物(PM10),69,88,82,32,25,117,101,70,70,37,20,7,5,0.3,0.5
2023-04-30T14:00:00,1262A,119.647,29.077,金华市,十五中,颗粒物(PM10),73,95,72,24,29,144,144,83,83,13,22,6,6,0.4,0.5
2023-04-30T14:00:00,1263A,119.686,29.1029,金华市,监测站,颗粒物(PM10),72,94,72,33,25,144,144,82,82,14,26,5,5,0.4,0.5
2023-04-30T14:00:00,1264A,118.8692,28.9398,衢州市,环保大楼,颗粒物(PM10),70,89,61,28,23,124,124,66,66,10,19,7,6,0.6,0.6
2023-04-30T14:00:00,1265A,118.8709,28.9666,衢州市,实验学校,颗粒物(PM10),70,90,58,22,17,124,124,68,68,9,19,6,4,0.6,0.6
2023-04-30T14:00:00,1266A,118.8621,28.9808,衢州市,衢州学院,颗粒物(PM10),69,88,61,24,17,121,121,67,67,13,24,6,4,0.4,0.4
2023-04-30T14:00:00,1267A,119.914,28.4514,丽水市,监测站大楼,颗粒物(PM10),68,86,49,23,15,118,118,68,68,10,14,7,5,0.3,0.4
2023-04-30T14:00:00,1268A,119.93,28.4586,丽水市,莲都小学,颗粒物(PM10),65,79,49,15,11,123,123,71,71,9,15,5,5,0.3,0.3
2023-04-30T14:00:00,1269A,119.879,28.4231,丽水市,余庄前,颗粒物(PM10),65,79,42,27,16,113,113,62,62,18,17,9,6,0.3,0.4
2023-04-30T14:00:00,1270A,117.1959,31.7848,合肥市,明珠广场,颗粒物(PM10),70,90,108,24,34,127,127,81,81,12,48,4,5,0.2,0.3
2023-04-30T14:00:00,1271A,117.3072,31.8764,合肥市,三里街,颗粒物(PM10),76,102,99,39,34,112,112,70,70,24,53,5,6,0.3,0.4
2023-04-30T14:00:00,1272A,117.2588,31.8707,合肥市,琥珀山庄,颗粒物(PM10),74,97,102,34,36,116,116,88,88,8,35,4,4,0.4,0.6
2023-04-30T14:00:00,1273A,117.1604,31.9052,合肥市,董铺水库,颗粒物(PM10),75,100,103,27,27,105,105,74,74,4,29,3,4,0.2,0.2
2023-04-30T14:00:00,1274A,117.25,31.8571,合肥市,长江中路,颗粒物(PM10),80,110,115,32,36,116,116,82,82,10,41,8,9,0.3,0.4
2023-04-30T14:00:00,1275A,117.266,31.9436,合肥市,庐阳区,颗粒物(PM10),74,97,106,25,31,114,114,81,81,5,38,6,6,0.2,0.3
2023-04-30T14:00:00,1276A,117.336,31.8586,合肥市,瑶海区,颗粒物(PM10),96,141,127,35,29,105,105,65,65,17,47,7,8,0.3,0.4
2023-04-30T14:00:00,1277A,117.3027,31.7964,合肥市,包河区,颗粒物(PM10),96,141,103,68,36,121,121,118,118,3,49,5,7,0.3,0.3
2023-04-30T14:00:00,1278A,117.2776,31.7385,合肥市,滨湖新区,颗粒物(PM10),87,124,113,48,37,121,121,77,77,6,50,5,6,0.4,0.4
2023-04-30T14:00:00,1279A,117.1318,31.8403,合肥市,高新区,颗粒物(PM10),73,95,105,29,28,114,114,85,85,10,35,6,7,0.1,0.2
2023-04-30T14:00:00,1280A,119.3903,26.0543,福州市,鼓山,,,,10,,13,,,,,,11,,2,,
2023-04-30T14:00:00,1282A,119.2681,26.0504,福州市,师大,,,,26,,18,150,80,85,71,,14,4,4,0.4,0.5
2023-04-30T14:00:00,1283A,119.2984,26.1028,福州市,五四北路,,31,31,21,11,10,140,84,83,76,13,14,2,2,0.4,0.5
2023-04-30T14:00:00,1284A,119.2648,26.0768,福州市,杨桥西路,,34,34,24,12,15,122,75,78,66,13,15,3,3,0.4,0.5
2023-04-30T14:00:00,1285A,119.317,26.0746,福州市,紫阳,,33,33,22,14,15,124,70,77,65,16,16,3,2,0.5,0.6
2023-04-30T14:00:00,1286A,118.1608,24.8169,厦门市,溪东,,,,21,,17,,,,,,10,,5,,
2023-04-30T14:00:00,1287A,118.1514,24.4767,厦门市,洪文,,46,46,28,16,13,103,103,93,74,9,13,3,3,0.4,0.5
2023-04-30T14:00:00,1288A,118.0661,24.4444,厦门市,鼓浪屿,,33,33,24,14,13,121,97,92,79,12,20,3,4,0.6,0.6
2023-04-30T14:00:00,1290A,115.8931,28.6843,南昌市,省外办,,,,231,34,58,130,130,64,64,9,28,5,8,0.4,0.5
2023-04-30T14:00:00,1291A,115.8886,28.7003,南昌市,省林业公司,颗粒物(PM10),106,161,247,41,62,126,126,59,59,12,32,5,9,0.5,0.5
2023-04-30T14:00:00,1292A,115.8126,28.7442,南昌市,林科所,颗粒物(PM10),114,178,213,29,40,129,129,75,75,12,41,10,11,0.3,0.4
2023-04-30T14:00:00,1294A,115.8518,28.687,南昌市,建工学校,颗粒物(PM10),109,168,240,46,46,128,128,70,70,7,30,10,11,0.3,0.4
2023-04-30T14:00:00,1295A,115.8921,28.6424,南昌市,象湖,颗粒物(PM10),103,156,206,37,49,128,128,69,69,12,38,6,8,0.4,0.5
2023-04-30T14:00:00,1296A,115.7423,28.7996,南昌市,武术学校,颗粒物(PM10),94,137,103,24,29,127,127,83,83,6,5,8,8,0.5,0.5
2023-04-30T14:00:00,1298A,115.9314,28.6842,南昌市,省站,颗粒物(PM10),139,227,273,41,57,128,128,66,66,14,34,7,10,0.4,0.6
2023-04-30T14:00:00,1299A,116.9862,36.6114,济南市,科干所,颗粒物(PM10),56,61,105,12,27,118,118,113,91,13,18,8,10,0.3,0.4
2023-04-30T14:00:00,1300A,116.9376,36.665,济南市,农科所,颗粒物(PM10),70,90,108,15,21,122,122,92,84,16,26,5,5,0.2,0.3
2023-04-30T14:00:00,1301A,117.1265,36.6734,济南市,开发区,颗粒物(PM10),73,95,104,24,28,121,121,117,92,11,15,10,12,0.3,0.4
2023-04-30T14:00:00,1303A,117.0624,36.6868,济南市,省种子仓库,颗粒物(PM10),69,88,114,20,30,124,124,118,91,12,16,10,11,0.4,0.4
2023-04-30T14:00:00,1304A,116.9489,36.6447,济南市,机床二厂,颗粒物(PM10),69,88,128,22,28,121,121,104,86,10,16,5,6,0.3,0.3
2023-04-30T14:00:00,1305A,117.0495,36.663,济南市,市监测站,颗粒物(PM10),66,81,111,15,22,128,128,124,98,13,15,9,10,0.5,0.5
2023-04-30T14:00:00,1306A,116.7675,36.5484,济南市,长清党校,颗粒物(PM10),75,100,114,27,36,124,124,104,92,13,18,11,13,0.6,0.6
2023-04-30T14:00:00,1307A,120.6659,36.2403,青岛市,仰口,颗粒物(PM10),96,141,85,53,26,91,91,80,80,13,9,5,5,0.4,0.4
2023-04-30T14:00:00,1310A,120.4134,36.0658,青岛市,市南区东部子站,颗粒物(PM10),107,163,76,31,19,141,141,84,84,25,37,13,11,0.6,0.7
2023-04-30T14:00:00,1311A,120.3664,36.1032,青岛市,四方区子站,颗粒物(PM10),90,129,73,41,19,134,134,93,93,26,46,15,11,0.7,0.7
2023-04-30T14:00:00,1312A,120.2994,36.054,青岛市,市南区西部子站,颗粒物(PM10),89,127,74,29,18,135,135,88,88,33,38,13,8,0.6,0.6
2023-04-30T14:00:00,1313A,120.4581,36.0858,青岛市,崂山区子站,颗粒物(PM10),98,146,75,44,21,140,140,84,84,15,32,14,10,0.5,0.5
2023-04-30T14:00:00,1314A,120.1983,35.9608,青岛市,黄岛区子站,颗粒物(PM10),84,117,73,34,21,134,134,92,92,13,23,11,7,0.6,0.5
2023-04-30T14:00:00,1315A,120.3999,36.3083,青岛市,城阳区子站,颗粒物(PM10),86,122,83,37,20,133,133,98,98,18,45,11,7,0.4,0.5
2023-04-30T14:00:00,1316A,113.69031,34.76122,郑州市,烟厂,颗粒物(PM10),71,91,128,30,38,145,145,85,85,12,34,8,9,0.3,0.3
2023-04-30T14:00:00,1317A,113.65724,34.77134,郑州市,郑纺机,颗粒物(PM10),75,100,118,29,48,142,142,84,84,12,34,8,8,0.3,0.4
2023-04-30T14:00:00,1318A,113.67526,34.80246,郑州市,银行学校,颗粒物(PM10),65,79,107,22,35,132,132,85,85,5,19,7,9,0.4,0.4
2023-04-30T14:00:00,1319A,113.56746,34.81334,郑州市,供水公司,颗粒物(PM10),70,90,127,28,40,133,133,86,82,2,17,10,11,0.4,0.5
2023-04-30T14:00:00,1320A,113.7329,34.7178,郑州市,经开区管委,颗粒物(PM10),58,66,115,26,61,139,139,84,84,13,35,4,5,0.3,0.4
2023-04-30T14:00:00,1321A,113.73961,34.77172,郑州市,四十七中,颗粒物(PM10),69,88,143,39,52,141,141,86,86,12,25,7,7,0.4,0.4
2023-04-30T14:00:00,1322A,113.60532,34.74838,郑州市,市监测站,颗粒物(PM10),63,75,139,30,45,145,145,81,81,9,33,4,5,0.2,0.3
2023-04-30T14:00:00,1323A,113.64164,34.7525,郑州市,河医大,颗粒物(PM10),69,88,123,35,44,138,138,81,81,9,25,8,9,0.3,0.4
2023-04-30T14:00:00,1324A,113.51488,34.91089,郑州市,岗李水库,颗粒物(PM10),64,78,110,25,29,134,134,88,88,14,30,10,9,0.5,0.5
2023-04-30T14:00:00,1325A,114.3677,30.5584,武汉市,东湖梨园,颗粒物(PM10),81,112,133,42,40,137,137,83,83,17,35,8,7,0.4,0.4
2023-04-30T14:00:00,1326A,114.2529,30.558,武汉市,汉阳月湖,颗粒物(PM10),96,142,153,34,34,130,130,71,71,20,47,9,8,0.4,0.4
2023-04-30T14:00:00,1327A,114.282,30.6189,武汉市,汉口花桥,颗粒物(PM10),93,135,147,39,42,126,124,75,75,16,37,10,9,0.4,0.4
2023-04-30T14:00:00,1328A,114.3025,30.5332,武汉市,武昌紫阳,颗粒物(PM10),84,118,146,47,47,131,131,76,76,17,57,7,6,0.5,0.5
2023-04-30T14:00:00,1329A,114.3646,30.6217,武汉市,青山钢花,颗粒物(PM10),100,149,162,41,50,142,142,83,83,21,40,9,8,0.4,0.5
2023-04-30T14:00:00,1330A,114.1566,30.4825,武汉市,沌口新区,,,149,159,45,51,115,,63,63,15,44,10,8,0.5,0.4
2023-04-30T14:00:00,1331A,114.3014,30.5944,武汉市,汉口江滩,颗粒物(PM10),91,132,161,39,42,123,123,76,76,30,60,9,8,0.5,0.5
2023-04-30T14:00:00,1333A,114.135,30.6319,武汉市,吴家山,,,,136,,38,62,,60,,,53,,8,,0.5
2023-04-30T14:00:00,1334A,113.8454,30.2917,武汉市,沉湖七壕,颗粒物(PM10),107,164,150,41,36,130,130,89,89,12,26,12,11,0.4,0.4
2023-04-30T14:00:00,1335A,113.0833,28.2325,长沙市,经开区环保局,颗粒物(PM10),102,154,204,43,50,129,129,73,73,10,24,8,5,0.6,0.5
2023-04-30T14:00:00,1336A,112.8872,28.2189,长沙市,高开区环保局,颗粒物(PM10),111,171,275,48,51,139,139,76,76,7,21,11,10,0.5,0.5
2023-04-30T14:00:00,1337A,113.0792,28.2053,长沙市,马坡岭,颗粒物(PM10),107,164,196,49,55,122,122,64,64,13,24,3,3,0.5,0.4
2023-04-30T14:00:00,1338A,112.9394,28.19,长沙市,湖南师范大学,颗粒物(PM10),131,212,252,46,50,145,145,78,78,9,20,10,9,0.9,0.8
2023-04-30T14:00:00,1339A,113.0178,28.1322,长沙市,雨花区环保局,颗粒物(PM10),100,150,204,39,45,132,132,70,70,8,22,8,8,0.3,0.4
2023-04-30T14:00:00,1340A,112.9792,28.2597,长沙市,伍家岭,颗粒物(PM10),132,213,218,38,49,136,136,64,64,11,29,5,3,0.6,0.5
2023-04-30T14:00:00,1341A,113.0014,28.1944,长沙市,火车新站,颗粒物(PM10),118,185,218,53,56,129,129,67,67,13,28,10,8,0.6,0.5
2023-04-30T14:00:00,1342A,112.9844,28.1178,长沙市,天心区环保局,颗粒物(PM10),101,152,187,40,45,139,139,71,71,8,23,6,6,0.4,0.5
2023-04-30T14:00:00,1343A,112.8908,28.1308,长沙市,湖南中医药大学,颗粒物(PM10),131,212,230,56,52,148,148,68,68,18,34,14,6,1.3,0.8
2023-04-30T14:00:00,1344A,112.9581,28.3611,长沙市,沙坪,颗粒物(PM10),112,174,198,34,37,131,131,76,76,12,14,6,4,0.4,0.3
2023-04-30T14:00:00,1345A,113.2347,23.1423,广州市,广雅中学,颗粒物(PM10),55,60,35,19,12,126,126,80,80,22,28,4,4,0.7,0.8
2023-04-30T14:00:00,1346A,113.2612,23.105,广州市,市五中,颗粒物(PM10),54,57,31,21,13,153,153,95,95,12,20,8,8,0.6,0.7
2023-04-30T14:00:00,1348A,113.3478,23.0916,广州市,广东商学院,颗粒物(PM10),51,52,32,21,12,140,140,90,90,12,16,4,4,0.7,0.8
2023-04-30T14:00:00,1349A,113.4332,23.1047,广州市,市八十六中,颗粒物(PM10),55,59,38,19,13,133,133,86,86,10,15,4,3,0.8,0.8
2023-04-30T14:00:00,1350A,113.3505,22.9483,广州市,番禺中学,,50,50,32,13,7,138,138,93,93,16,20,6,6,0.6,0.6
2023-04-30T14:00:00,1351A,113.2146,23.3916,广州市,花都师范,,41,41,24,13,9,125,125,88,88,11,14,8,7,0.6,0.6
2023-04-30T14:00:00,1352A,113.2597,23.1331,广州市,市监测站,颗粒物(PM10),51,52,29,19,12,146,146,89,89,16,25,6,6,0.8,0.8
2023-04-30T14:00:00,1353A,113.5618,23.312,广州市,九龙镇镇龙,颗粒物(PM10),53,55,31,22,12,112,112,83,83,9,11,5,5,0.5,0.5
2023-04-30T14:00:00,1354A,113.2765,23.1544,广州市,麓湖,颗粒物(PM10),54,57,29,21,13,150,150,92,92,13,22,6,7,0.7,0.7
2023-04-30T14:00:00,1355A,113.443,23.3035,广州市,帽峰山森林公园,,44,44,28,15,9,125,125,95,95,8,12,2,2,0.4,0.4
2023-04-30T14:00:00,1356A,114.1063,22.5545,深圳市,通心岭子站,颗粒物(PM10),51,52,29,20,13,123,123,80,80,14,21,4,4,0.7,0.7
2023-04-30T14:00:00,1357A,114.117,22.5625,深圳市,洪湖,颗粒物(PM10),53,56,31,31,13,136,136,89,89,17,23,9,8,0.5,0.6
2023-04-30T14:00:00,1358A,113.987,22.5417,深圳市,华侨城,颗粒物(PM10),53,56,31,32,14,135,135,77,77,27,27,6,6,0.5,0.5
2023-04-30T14:00:00,1359A,113.9181,22.5171,深圳市,南海子站,颗粒物(PM10),58,65,40,16,18,130,130,75,75,22,28,4,5,0.6,0.7
2023-04-30T14:00:00,1360A,114.2458,22.5689,深圳市,盐田,,48,48,22,20,10,103,103,87,87,26,19,6,6,0.8,0.8
2023-04-30T14:00:00,1361A,114.2283,22.7244,深圳市,龙岗,,50,50,30,18,11,119,109,90,90,12,21,3,3,0.6,0.7
2023-04-30T14:00:00,1363A,114.494,22.5422,深圳市,南澳,,38,38,20,15,10,101,101,74,74,14,17,9,8,0.5,0.5
2023-04-30T14:00:00,1364A,114.41,22.6342,深圳市,葵涌,,44,44,24,14,10,107,87,72,72,11,14,7,7,0.6,0.6
2023-04-30T14:00:00,1365A,114.297,22.5978,深圳市,梅沙,颗粒物(PM10),58,65,28,24,11,109,108,85,85,14,14,5,4,0.7,0.7
2023-04-30T14:00:00,1366A,114.0678,22.738,深圳市,观澜,"颗粒物(PM10),臭氧1小时",58,66,36,24,12,166,166,95,95,15,21,4,4,0.7,0.7
2023-04-30T14:00:00,1367A,113.5814,22.2618,珠海市,吉大,臭氧1小时,72,38,31,18,9,177,177,91,91,16,21,8,8,0.6,0.6
2023-04-30T14:00:00,1368A,113.4881,22.2335,珠海市,前山,,45,21,19,22,11,144,144,76,76,19,30,6,4,0.5,0.5
2023-04-30T14:00:00,1369A,113.628,22.4251,珠海市,唐家,臭氧1小时,82,42,24,25,11,185,185,90,90,19,23,6,6,0.5,0.5
2023-04-30T14:00:00,1370A,113.299,22.2281,珠海市,斗门,臭氧1小时,63,47,26,16,10,170,170,88,88,16,23,7,6,0.5,0.5
2023-04-30T14:00:00,1371A,113.1294,23.0067,佛山市,湾梁,颗粒物(PM10),59,68,35,19,10,158,158,92,92,12,12,10,10,0.7,0.7
2023-04-30T14:00:00,1372A,113.1083,23.0478,佛山市,华材职中,颗粒物(PM10),51,51,29,20,17,156,156,89,89,14,20,9,9,0.5,0.5
2023-04-30T14:00:00,1373A,113.144,23.0453,佛山市,南海气象局,颗粒物(PM10),57,63,29,18,10,125,125,71,71,19,20,6,5,0.6,0.5
2023-04-30T14:00:00,1374A,113.2881,22.8094,佛山市,顺德苏岗,,37,34,22,19,11,117,117,72,72,12,17,4,4,0.7,0.7
2023-04-30T14:00:00,1376A,112.8383,22.8678,佛山市,高明孔堂,,44,40,37,15,9,139,139,85,85,15,21,7,7,0.5,0.5
2023-04-30T14:00:00,1377A,112.8836,23.1588,佛山市,三水监测站,,46,46,38,28,17,131,131,85,85,13,18,5,5,0.6,0.6
2023-04-30T14:00:00,1378A,112.867,23.185,佛山市,三水云东海,,40,35,35,15,14,126,126,84,84,9,13,6,5,0.4,0.4
2023-04-30T14:00:00,1379A,113.3769,22.5211,中山市,华柏园,颗粒物(PM10),54,58,28,7,7,147,146,86,86,13,17,7,5,0.5,0.6
2023-04-30T14:00:00,1380A,113.3881,22.5497,中山市,张溪,颗粒物(PM10),54,58,33,6,6,136,136,82,82,15,20,6,4,0.5,0.6
2023-04-30T14:00:00,1381A,113.4075,22.5111,中山市,紫马岭,颗粒物(PM10),55,60,30,22,13,139,136,82,82,16,19,8,5,0.5,0.5
2023-04-30T14:00:00,1382A,113.4411,22.4853,中山市,长江旅游区,颗粒物(PM10),61,72,29,10,6,136,134,80,80,19,20,13,9,0.5,0.5
2023-04-30T14:00:00,1383A,113.1064,22.6058,江门市,北街,颗粒物(PM10),57,64,29,18,10,161,161,88,88,19,22,7,7,0.5,0.5
2023-04-30T14:00:00,1384A,113.0731,22.5835,江门市,西区,臭氧1小时,63,55,30,21,11,170,170,88,88,17,22,8,7,0.5,0.6
2023-04-30T14:00:00,1385A,113.0219,22.5311,江门市,圭峰西,臭氧1小时,70,60,29,16,6,176,176,94,94,17,17,4,5,0.6,0.6
2023-04-30T14:00:00,1386A,113.0828,22.5947,江门市,东湖,臭氧1小时,65,56,25,25,10,172,172,92,92,17,19,8,8,0.5,0.5
2023-04-30T14:00:00,1389A,113.7547,23.0494,东莞市,莞城梨川,,50,45,24,18,10,160,160,100,100,15,16,8,8,0.6,0.7
2023-04-30T14:00:00,1390A,113.7944,23.0128,东莞市,东城石井,臭氧1小时,52,46,23,19,11,161,161,99,99,13,15,11,10,0.3,0.3
2023-04-30T14:00:00,1391A,113.7383,22.9658,东莞市,南城西平,,50,50,23,30,11,160,160,95,95,16,22,7,6,0.8,0.8
2023-04-30T14:00:00,1392A,114.4183,23.0528,惠州市,河南岸金山湖子站,颗粒物(PM10),60,69,36,15,10,93,93,79,78,10,12,5,5,0.4,0.5
2023-04-30T14:00:00,1393A,114.4053,23.0822,惠州市,下埔横江三路子站,颗粒物(PM10),62,74,37,18,9,110,110,88,88,8,9,7,5,0.5,0.5
2023-04-30T14:00:00,1394A,114.4103,23.1142,惠州市,江北云山西路子站,颗粒物(PM10),62,73,37,15,8,111,111,86,86,5,8,6,6,0.5,0.5
2023-04-30T14:00:00,1395A,114.4645,22.7833,惠州市,惠阳区承修路船湖子站,颗粒物(PM10),57,63,33,16,13,108,77,70,68,16,14,6,5,0.5,0.7
2023-04-30T14:00:00,1396A,114.5317,22.7422,惠州市,大亚湾管委会子站,颗粒物(PM10),54,57,29,17,14,112,72,68,63,18,18,8,8,0.5,0.5
2023-04-30T14:00:00,1397A,112.4267,23.0706,肇庆市,睦岗子站,,40,33,24,12,8,125,125,83,83,9,12,7,7,0.5,0.5
2023-04-30T14:00:00,1398A,112.4645,23.0475,肇庆市,城中子站,,39,31,22,10,8,124,124,77,77,14,15,9,9,0.5,0.5
2023-04-30T14:00:00,1399A,112.5544,23.1522,肇庆市,坑口子站,,38,35,22,15,10,120,120,88,88,14,13,5,4,0.4,0.4
2023-04-30T14:00:00,1400A,112.4753,23.1,肇庆市,七星岩子站,,,27,17,9,7,120,120,82,82,,4,5,4,0.5,0.5
2023-04-30T14:00:00,1401A,108.3103,22.7881,南宁市,二十一中,颗粒物(PM10),92,134,50,35,16,118,118,63,63,15,29,8,9,0.6,0.7
2023-04-30T14:00:00,1402A,108.3141,22.8528,南宁市,北湖,颗粒物(PM10),90,130,53,43,18,122,122,71,71,11,19,12,12,0.3,0.4
2023-04-30T14:00:00,1403A,108.3206,22.8225,南宁市,市监测站,颗粒物(PM10),112,173,54,29,17,124,124,67,67,19,26,11,9,0.5,0.6
2023-04-30T14:00:00,1404A,108.3829,22.8037,南宁市,大自然花园,颗粒物(PM10),91,131,50,38,17,111,111,70,70,15,21,9,7,0.5,0.7
2023-04-30T14:00:00,1405A,108.4394,22.7904,南宁市,仙葫,颗粒物(PM10),100,149,54,29,16,106,106,72,72,13,25,7,7,0.1,0.2
2023-04-30T14:00:00,1406A,108.2397,22.8467,南宁市,区农职院,颗粒物(PM10),87,124,44,35,12,119,119,67,67,9,17,8,9,0.4,0.5
2023-04-30T14:00:00,1407A,108.3275,22.735,南宁市,英华嘉园,颗粒物(PM10),90,129,46,31,16,107,107,64,64,16,26,8,9,0.5,0.6
2023-04-30T14:00:00,1408A,108.2257,22.7757,南宁市,沙井镇街道办,颗粒物(PM10),84,118,49,24,18,118,118,60,60,10,26,11,9,0.6,0.6
2023-04-30T14:00:00,1409A,110.576,19.9507,海口市,东寨港,,,22,19,7,5,78,55,42,39,,,6,5,0.6,0.6
2023-04-30T14:00:00,1410A,110.3232,20.0574,海口市,海南大学,,35,26,25,14,14,124,110,79,79,5,9,7,7,0.4,0.4
2023-04-30T14:00:00,1411A,110.283,20.0053,海口市,秀英海南医院,,,,22,12,13,117,106,74,68,9,14,7,5,0.6,0.4
2023-04-30T14:00:00,1412A,110.338,19.9969,海口市,海南师范大学,,,40,23,14,13,109,94,77,69,3,6,,4,,0.4
2023-04-30T14:00:00,1413A,110.33,20.0356,海口市,龙华路环保局宿舍,,30,30,24,13,12,86,74,60,52,7,11,5,5,0.5,0.4
2023-04-30T14:00:00,1414A,106.3787,29.8279,重庆市,缙云山,颗粒物(PM10),59,67,74,24,22,128,125,118,114,20,12,10,9,0.5,0.4
2023-04-30T14:00:00,1416A,106.4213,29.8253,重庆市,天生,颗粒物(PM10),58,66,89,27,34,133,133,64,64,15,38,8,7,0.6,0.6
2023-04-30T14:00:00,1417A,106.6263,29.7228,重庆市,两路,颗粒物(PM10),60,69,93,25,34,149,149,81,81,18,69,7,8,0.5,0.7
2023-04-30T14:00:00,1418A,106.2953,29.5983,重庆市,虎溪,颗粒物(PM10),54,58,80,22,29,128,126,61,61,18,45,5,5,0.2,0.2
2023-04-30T14:00:00,1419A,106.5777,29.5102,重庆市,南坪,颗粒物(PM10),54,58,80,23,28,140,140,101,86,23,28,10,10,0.6,0.5
2023-04-30T14:00:00,1420A,106.6556,29.6277,重庆市,唐家沱,颗粒物(PM10),56,61,86,30,31,160,156,87,87,18,39,11,8,0.7,0.8
2023-04-30T14:00:00,1421A,106.6349,29.4906,重庆市,茶园,颗粒物(PM10),63,76,86,19,29,144,144,71,71,21,45,11,7,0.7,0.6
2023-04-30T14:00:00,1422A,106.3754,29.4572,重庆市,白市驿,颗粒物(PM10),55,59,83,22,26,124,124,80,74,10,19,8,10,0.4,0.5
2023-04-30T14:00:00,1425A,106.6205,29.7166,重庆市,空港,颗粒物(PM10),58,66,93,22,33,152,152,90,90,9,57,8,8,0.5,0.7
2023-04-30T14:00:00,1426A,106.4782,29.4875,重庆市,新山村,,44,44,90,11,32,120,120,56,56,15,56,6,9,0.3,0.5
2023-04-30T14:00:00,1427A,106.5616,29.6453,重庆市,礼嘉,,46,46,103,25,32,142,142,71,71,13,63,7,8,0.6,0.8
2023-04-30T14:00:00,1428A,106.4522,29.7091,重庆市,蔡家,颗粒物(PM10),70,89,94,21,32,125,125,64,64,19,30,11,8,0.6,0.5
2023-04-30T14:00:00,1429A,106.5093,29.3917,重庆市,鱼新街,颗粒物(PM10),59,67,79,20,29,102,101,50,50,22,40,6,10,0.6,0.7
2023-04-30T14:00:00,1431A,103.9728,30.7236,成都市,金泉两河,颗粒物(PM10),72,93,72,27,23,144,144,72,72,18,33,5,3,0.3,0.4
2023-04-30T14:00:00,1432A,104.176,30.6872,成都市,十里店,颗粒物(PM10),63,76,94,13,32,148,148,81,72,8,23,3,4,0.3,0.3
2023-04-30T14:00:00,1433A,104.079,30.5706,成都市,三瓦窑,颗粒物(PM10),61,72,91,23,30,152,152,81,70,7,39,4,5,0.3,0.3
2023-04-30T14:00:00,1434A,104.1114,30.63,成都市,沙河铺,颗粒物(PM10),65,79,82,22,27,148,148,71,71,4,18,4,3,0.2,0.3
2023-04-30T14:00:00,1437A,104.0786,30.6531,成都市,君平街,颗粒物(PM10),66,81,96,17,27,144,144,108,104,15,27,4,5,0.4,0.5
2023-04-30T14:00:00,1438A,103.613,31.0283,成都市,灵岩寺,颗粒物(PM10),56,61,47,27,18,141,128,109,82,6,10,3,10,0.5,0.4
2023-04-30T14:00:00,1439A,106.6899,26.5998,贵阳市,马鞍山,颗粒物(PM10),56,61,58,27,27,107,87,57,57,15,15,5,4,0.3,0.3
2023-04-30T14:00:00,1440A,106.6971,26.5694,贵阳市,市环保站,颗粒物(PM10),56,61,78,20,24,114,91,61,61,22,25,6,4,0.2,0.2
2023-04-30T14:00:00,1441A,106.6243,26.6266,贵阳市,鉴湖路,颗粒物(PM10),58,66,70,22,21,112,96,77,74,15,18,4,3,0.1,0.1
2023-04-30T14:00:00,1442A,106.7487,26.6343,贵阳市,燕子冲,颗粒物(PM10),58,66,72,27,31,107,88,50,50,15,20,7,5,0.4,0.3
2023-04-30T14:00:00,1443A,106.6555,26.4365,贵阳市,碧云窝,颗粒物(PM10),62,73,88,19,27,114,90,51,51,14,22,5,5,0.5,0.5
2023-04-30T14:00:00,1444A,106.694,26.5161,贵阳市,中院村,颗粒物(PM10),57,63,88,22,26,111,80,54,54,24,28,8,8,0.3,0.4
2023-04-30T14:00:00,1445A,106.7109,26.6027,贵阳市,红边门,颗粒物(PM10),59,68,74,22,25,110,92,69,69,19,22,7,5,0.4,0.4
2023-04-30T14:00:00,1446A,106.7164,26.5699,贵阳市,新华路,颗粒物(PM10),59,68,87,22,26,110,94,62,62,14,23,4,3,0.3,0.4
2023-04-30T14:00:00,1447A,106.674,26.5424,贵阳市,太慈桥,颗粒物(PM10),59,68,73,19,21,101,85,51,51,17,21,7,5,0.2,0.3
2023-04-30T14:00:00,1450A,102.8204,24.8886,昆明市,呈贡新区,,43,36,43,30,33,132,127,93,93,7,10,6,6,0.6,0.6
2023-04-30T14:00:00,1451A,102.6251,24.9608,昆明市,西山森林公园,,,35,41,,27,153,134,94,94,13,18,5,6,0.8,0.9
2023-04-30T14:00:00,1452A,102.7252,25.0902,昆明市,龙泉镇,,48,48,56,32,34,133,122,76,76,12,17,7,8,0.8,0.7
2023-04-30T14:00:00,1453A,102.7266,25.0375,昆明市,东风东路,,,46,58,38,40,132,120,76,76,,18,7,8,0.7,0.7
2023-04-30T14:00:00,1454A,102.6742,25.0669,昆明市,金鼎山,,49,49,56,16,35,151,135,83,83,9,16,4,5,0.7,0.7
2023-04-30T14:00:00,1455A,102.6644,25.0401,昆明市,碧鸡广场,,44,44,60,30,38,147,131,84,84,13,22,5,6,0.7,0.7
2023-04-30T14:00:00,1456A,91.1319,29.6514,拉萨市,八廓街,,49,15,17,11,8,161,156,142,140,9,10,5,6,0.3,0.2
2023-04-30T14:00:00,1457A,91.1221,29.6747,拉萨市,市环保局,,48,18,16,9,8,169,151,146,132,14,13,5,5,0.5,0.4
2023-04-30T14:00:00,1458A,91.0874,29.6475,拉萨市,区监测站,,47,12,12,8,7,158,150,142,133,13,13,6,6,0.2,0.2
2023-04-30T14:00:00,1459A,91.1774,29.6541,拉萨市,西藏大学,,50,8,12,6,6,166,160,145,145,7,9,8,8,0.4,0.4
2023-04-30T14:00:00,1460A,90.9798,29.6588,拉萨市,区辐射站,,43,17,18,10,7,153,137,135,115,10,15,7,7,0.5,0.5
2023-04-30T14:00:00,1461A,91.0834,29.6292,拉萨市,拉萨火车站,,47,16,13,11,5,154,149,136,133,13,10,8,8,0.4,0.4
2023-04-30T14:00:00,1462A,108.882,34.2749,西安市,高压开关厂,颗粒物(PM10),61,72,129,27,54,130,130,67,67,16,53,8,12,0.3,0.5
2023-04-30T14:00:00,1463A,108.993,34.2629,西安市,兴庆小区,颗粒物(PM10),69,88,93,29,38,144,144,66,66,17,44,6,7,0.8,0.6
2023-04-30T14:00:00,1464A,109.06,34.2572,西安市,纺织城,颗粒物(PM10),71,92,104,43,43,140,140,64,64,16,36,6,5,0.4,0.4
2023-04-30T14:00:00,1465A,108.9356,34.2173,西安市,小寨,颗粒物(PM10),67,83,117,27,51,136,136,68,68,15,54,8,9,0.3,0.5
2023-04-30T14:00:00,1466A,108.954,34.2713,西安市,市人民体育场,颗粒物(PM10),71,91,108,33,44,139,139,63,63,19,53,8,7,0.3,1
2023-04-30T14:00:00,1467A,108.8922,34.2322,西安市,高新西区,颗粒物(PM10),63,76,115,25,47,136,136,67,67,16,52,7,8,0.4,0.6
2023-04-30T14:00:00,1468A,108.935,34.3474,西安市,经开区,颗粒物(PM10),68,85,119,32,47,132,132,58,58,16,62,5,6,0.2,0.4
2023-04-30T14:00:00,1469A,108.906,34.1546,西安市,长安区,颗粒物(PM10),63,76,96,27,37,135,135,72,72,19,37,7,6,0.4,0.4
2023-04-30T14:00:00,1471A,109.2186,34.3731,西安市,临潼区,颗粒物(PM10),69,88,85,31,33,137,137,69,69,20,34,9,8,0.6,0.6
2023-04-30T14:00:00,1472A,108.869,34.378,西安市,草滩,颗粒物(PM10),70,89,129,23,36,112,112,53,53,23,50,9,11,0.3,0.4
2023-04-30T14:00:00,1473A,108.985,34.1978,西安市,曲江文化产业集团,颗粒物(PM10),63,76,116,22,48,138,138,63,63,16,54,5,6,0.3,0.4
2023-04-30T14:00:00,1474A,109.051,34.3213,西安市,广运潭,颗粒物(PM10),76,101,113,45,36,130,130,64,64,28,50,8,7,0.4,0.4
2023-04-30T14:00:00,1476A,103.631,36.1031,兰州市,兰炼宾馆,细颗粒物(PM2.5),77,86,92,56,44,168,129,70,70,25,54,19,24,0.6,0.8
2023-04-30T14:00:00,1477A,104.1373,35.9454,兰州市,榆中兰大校区,,,,,,,,,,,,,,,,
2023-04-30T14:00:00,1478A,103.8412,36.0726,兰州市,生物制品所,细颗粒物(PM2.5),53,50,79,37,35,127,127,52,52,21,48,9,13,0.6,0.8
2023-04-30T14:00:00,1479A,103.831,36.0464,兰州市,铁路设计院,颗粒物(PM10),54,58,80,28,34,126,126,52,52,27,65,10,21,0.4,1
2023-04-30T14:00:00,1483A,101.524,36.6867,西宁市,第五水厂,,,,,,,,,,,,,,,,
2023-04-30T14:00:00,1484A,105.9512,38.6016,银川市,贺兰山马莲口,,44,44,35,21,17,125,117,113,101,16,7,15,16,0.5,0.4
2023-04-30T14:00:00,1488A,106.2328,38.4975,银川市,贺兰山东路,颗粒物(PM10),55,60,55,18,26,135,135,66,66,7,42,6,7,0.2,0.4
2023-04-30T14:00:00,1489A,106.1358,38.5036,银川市,学院路,颗粒物(PM10),52,53,65,15,22,124,124,62,62,9,48,9,11,0.4,0.6
2023-04-30T14:00:00,1490A,87.5801,43.8303,乌鲁木齐市,监测站,颗粒物(PM10),64,77,104,24,28,134,131,61,61,14,44,6,6,0.4,0.6
2023-04-30T14:00:00,1491A,87.6046,43.768,乌鲁木齐市,收费所,颗粒物(PM10),67,84,137,24,34,116,115,62,62,16,39,4,4,0.6,0.4
2023-04-30T14:00:00,1492A,87.4754,43.9469,乌鲁木齐市,新疆农科院农场,颗粒物(PM10),65,80,145,45,55,127,124,50,50,18,51,9,7,0.7,0.8
2023-04-30T14:00:00,1493A,87.5525,43.8711,乌鲁木齐市,铁路局,颗粒物(PM10),60,69,92,21,29,133,132,67,67,12,43,6,5,0.5,0.6
2023-04-30T14:00:00,1494A,87.6432,43.831,乌鲁木齐市,三十一中学,颗粒物(PM10),61,72,98,22,25,139,130,89,86,9,25,13,11,0.8,0.8
2023-04-30T14:00:00,1496A,87.7216,44.1747,乌鲁木齐市,米东区环保局,颗粒物(PM10),75,99,102,28,31,146,146,75,75,4,33,14,12,0.4,0.4
2023-04-30T14:00:00,1508A,112.9433,27.8614,湘潭市,板塘,颗粒物(PM10),111,172,150,35,40,136,136,70,70,14,28,10,10,0.3,0.4
2023-04-30T14:00:00,1511A,112.9118,27.8403,湘潭市,市监测站,颗粒物(PM10),102,154,151,35,37,133,133,76,76,22,29,11,12,0.7,1
2023-04-30T14:00:00,1512A,112.8937,27.8728,湘潭市,江麓,颗粒物(PM10),116,181,155,35,45,123,,60,60,,18,13,17,0.6,0.7
2023-04-30T14:00:00,1513A,112.9227,27.8159,湘潭市,岳塘,颗粒物(PM10),116,181,144,35,34,124,124,72,72,6,15,4,8,0.4,0.3
2023-04-30T14:00:00,1514A,112.9074,27.9119,湘潭市,科大,颗粒物(PM10),122,194,167,43,40,134,134,68,68,11,23,12,12,1.0,1
2023-04-30T14:00:00,1515A,113.135,27.8244,株洲市,天台山庄,颗粒物(PM10),124,197,147,35,32,148,148,87,87,5,15,6,7,0.2,0.3
2023-04-30T14:00:00,1518A,113.095,27.8867,株洲市,株冶医院,颗粒物(PM10),114,178,152,37,39,148,148,80,80,7,25,7,5,0.3,0.4
2023-04-30T14:00:00,1519A,113.167,27.8667,株洲市,市四中,颗粒物(PM10),103,156,134,34,34,145,145,82,82,11,20,7,8,0.2,0.4
2023-04-30T14:00:00,1520A,113.143,27.8381,株洲市,火车站,颗粒物(PM10),111,171,145,40,34,144,144,82,82,7,17,6,7,0.4,0.5
2023-04-30T14:00:00,1524A,113.13,27.8528,株洲市,市监测站,颗粒物(PM10),103,156,147,42,44,148,148,86,86,7,16,1,2,0.4,0.5
2023-04-30T14:00:00,1552A,106.805,26.3003,贵阳市,桐木岭,颗粒物(PM10),58,66,72,24,29,109,89,73,73,2,2,1,2,0.3,0.3
2023-04-30T14:00:00,1559A,113.251,27.8336,株洲市,大京风景区,颗粒物(PM10),111,171,103,38,29,122,122,67,67,5,6,5,3,0.6,0.5
2023-04-30T14:00:00,1562A,113.0048,27.9153,湘潭市,昭山,颗粒物(PM10),125,200,158,33,50,141,141,78,78,8,26,5,4,0.6,0.6
2023-04-30T14:00:00,1564A,112.4876,27.9164,湘潭市,韶山,颗粒物(PM10),131,212,227,35,34,133,133,71,71,9,8,12,7,0.6,0.7
2023-04-30T14:00:00,1585A,109.8756,40.6532,包头市,市环境监测站,,35,27,53,22,19,111,111,75,75,2,22,10,17,0.3,0.6
2023-04-30T14:00:00,1587A,109.9991,40.5842,包头市,包头八中,,37,30,48,7,16,116,116,73,73,7,29,9,14,0.3,0.5
2023-04-30T14:00:00,1588A,109.8538,40.6821,包头市,青山宾馆,,34,27,41,8,16,107,107,72,72,5,21,8,16,0.3,0.7
2023-04-30T14:00:00,1589A,109.8642,40.6288,包头市,惠龙物流,细颗粒物(PM2.5),52,45,49,36,21,103,102,68,68,6,24,6,13,0.3,0.6
2023-04-30T14:00:00,1590A,110.0377,40.5546,包头市,东河鸿龙湾,,,52,63,7,15,107,106,65,65,,28,,8,,0.6
2023-04-30T14:00:00,1591A,110.0023,39.8129,鄂尔多斯市,综合楼,,33,24,59,5,12,104,104,85,85,8,26,5,17,0.4,0.5
2023-04-30T14:00:00,1592A,109.9486,39.8261,鄂尔多斯市,巴音孟克林场办事处,,34,19,49,7,15,108,108,94,94,5,24,7,8,0.6,0.7
2023-04-30T14:00:00,1593A,109.7736,39.5986,鄂尔多斯市,康泽苑,,33,14,43,5,12,109,104,84,84,5,13,8,8,0.5,0.4
2023-04-30T14:00:00,1594A,109.8119,39.5989,鄂尔多斯市,华泰汽车城,,32,19,48,9,18,109,102,76,76,5,19,6,7,0.3,0.3
2023-04-30T14:00:00,1595A,109.9734,39.7884,鄂尔多斯市,奥林花园,,35,19,54,9,12,110,109,87,87,6,24,5,9,0.4,0.4
2023-04-30T14:00:00,1597A,122.2703,40.7094,营口市,大庆路,,33,27,30,12,13,107,105,93,93,13,25,4,4,0.5,0.6
2023-04-30T14:00:00,1598A,122.2150,40.6511,营口市,镜湖西路,,34,34,27,11,12,106,105,94,94,15,27,11,8,0.4,0.4
2023-04-30T14:00:00,1599A,122.1658,40.6789,营口市,西炮台,,31,31,28,12,13,95,87,83,83,18,30,13,9,0.4,0.4
2023-04-30T14:00:00,1600A,124.3303,40.0625,丹东市,江湾东路,,34,34,23,19,17,100,89,75,75,23,14,15,10,0.5,0.8
2023-04-30T14:00:00,1601A,124.4256,40.1503,丹东市,临江后街,,33,27,25,13,14,105,104,82,82,8,10,11,10,0.5,0.6
2023-04-30T14:00:00,1602A,124.3933,40.1461,丹东市,元宝山,,30,24,21,11,16,97,95,75,71,15,13,9,8,0.6,0.7
2023-04-30T14:00:00,1603A,124.3633,40.1092,丹东市,民主桥,,31,31,26,15,14,98,93,74,74,14,18,6,6,0.5,0.7
2023-04-30T14:00:00,1604A,122.0303,41.1489,盘锦市,开发区,,33,25,31,5,14,105,105,79,79,9,31,7,9,0.6,0.7
2023-04-30T14:00:00,1605A,122.0485,41.0883,盘锦市,兴隆台,,32,21,29,2,13,101,101,73,73,14,36,7,9,0.5,0.6
2023-04-30T14:00:00,1606A,121.8297,41.1028,盘锦市,新生街道,,33,28,25,4,9,104,104,82,82,14,23,9,11,0.5,0.5
2023-04-30T14:00:00,1607A,120.9092,40.7136,葫芦岛市,龙港区,,39,21,31,11,10,124,123,95,95,14,22,8,15,0.3,0.5
2023-04-30T14:00:00,1608A,120.8392,40.7514,葫芦岛市,化工街,,35,12,43,5,18,113,112,89,89,6,26,6,8,0.3,0.5
2023-04-30T14:00:00,1609A,120.8341,40.7073,葫芦岛市,新区,,36,15,30,7,12,117,114,94,94,8,22,10,11,0.4,0.6
2023-04-30T14:00:00,1610A,120.8695,40.7677,葫芦岛市,东城区,,37,22,35,3,10,118,118,90,90,7,37,7,15,0.5,0.6
2023-04-30T14:00:00,1611A,118.5819,24.9117,泉州市,涂山街,,31,31,33,18,15,136,92,105,77,15,19,10,9,0.5,0.6
2023-04-30T14:00:00,1612A,118.5972,24.8978,泉州市,津头埔,,32,32,36,12,18,123,93,108,76,20,24,11,10,0.5,0.6
2023-04-30T14:00:00,1613A,118.6663,24.9424,泉州市,万安,,34,34,30,17,21,114,98,111,83,11,12,12,10,0.6,0.7
2023-04-30T14:00:00,1614A,118.6117,24.9604,泉州市,清源山,,,,20,,18,,,,,,14,,3,,
2023-04-30T14:00:00,1616A,117.6795,36.229,济南市,技术学院,颗粒物(PM10),80,110,104,42,28,126,126,104,104,18,25,10,11,0.5,0.7
2023-04-30T14:00:00,1618A,118.3429,35.0532,临沂市,沂河小区,颗粒物(PM10),81,112,106,26,31,133,133,90,90,17,26,12,13,0.2,0.3
2023-04-30T14:00:00,1619A,118.295,35.0583,临沂市,鲁南制药厂,颗粒物(PM10),80,110,112,31,27,146,146,97,97,9,30,12,17,0.2,0.4
2023-04-30T14:00:00,1620A,118.2794,34.9976,临沂市,新光毛纺厂,颗粒物(PM10),90,129,114,66,41,134,134,89,89,11,31,10,16,0.4,0.5
2023-04-30T14:00:00,1621A,118.3956,35.0888,临沂市,河东保险公司,颗粒物(PM10),74,97,95,29,27,143,143,102,102,13,26,13,13,0.5,0.6
2023-04-30T14:00:00,1622A,116.3032,37.4674,德州市,儿童乐园,,48,48,120,24,35,123,123,84,83,2,15,4,7,0.5,0.6
2023-04-30T14:00:00,1624A,116.2991,37.4451,德州市,监理站,颗粒物(PM10),52,53,120,7,25,127,127,90,90,7,18,5,10,0.3,0.4
2023-04-30T14:00:00,1625A,115.9848,36.4372,聊城市,区政府,颗粒物(PM10),81,111,126,25,28,119,119,76,76,12,22,8,10,0.4,0.5
2023-04-30T14:00:00,1628A,118.0062,37.3803,滨州市,市环保局,,48,48,110,22,30,116,116,88,88,3,15,7,12,0.4,0.5
2023-04-30T14:00:00,1629A,118.0018,37.3617,滨州市,第二水厂,颗粒物(PM10),59,68,114,31,29,116,115,90,90,14,25,4,10,0.3,0.3
2023-04-30T14:00:00,1630A,117.9776,37.393,滨州市,北中新校,,44,44,103,25,28,118,117,84,84,5,16,6,9,0.1,0.3
2023-04-30T14:00:00,1631A,118.0414,36.8103,淄博市,人民公园,颗粒物(PM10),70,90,104,34,34,130,130,98,90,4,13,13,14,0.4,0.5
2023-04-30T14:00:00,1633A,117.8525,36.4847,淄博市,双山,颗粒物(PM10),61,72,91,28,25,121,120,97,97,10,15,12,13,0.2,0.4
2023-04-30T14:00:00,1634A,117.9592,36.6331,淄博市,气象站,颗粒物(PM10),61,72,104,17,25,121,121,101,99,10,14,12,13,0.1,0.3
2023-04-30T14:00:00,1635A,118.3092,36.8194,淄博市,莆田园,细颗粒物(PM2.5),64,58,102,46,43,142,142,95,94,6,17,12,17,0.4,0.6
2023-04-30T14:00:00,1637A,117.558,34.8438,枣庄市,市中区政府,颗粒物(PM10),92,134,119,48,39,148,148,112,112,19,30,18,10,0.4,0.5
2023-04-30T14:00:00,1638A,117.2852,34.7837,枣庄市,薛城环保局,颗粒物(PM10),92,134,119,66,35,149,149,111,111,15,26,15,16,0.3,0.3
2023-04-30T14:00:00,1639A,117.5852,34.7745,枣庄市,峄城区政府,颗粒物(PM10),81,112,115,27,27,146,146,98,98,13,30,13,13,0.3,0.3
2023-04-30T14:00:00,1640A,117.7276,34.5578,枣庄市,台儿庄区环保局,颗粒物(PM10),85,119,119,39,28,142,142,97,97,12,41,13,10,0.6,0.5
2023-04-30T14:00:00,1641A,117.4518,35.0992,枣庄市,山亭区环保局,颗粒物(PM10),82,114,109,44,36,142,142,108,108,18,22,6,6,0.2,0.2
2023-04-30T14:00:00,1642A,121.2514,37.5639,烟台市,开发区,颗粒物(PM10),54,58,73,24,23,116,90,79,62,35,32,13,11,0.4,0.5
2023-04-30T14:00:00,1643A,121.3719,37.5433,烟台市,轴承厂,颗粒物(PM10),58,66,64,39,21,109,103,90,75,21,24,11,10,0.5,0.5
2023-04-30T14:00:00,1644A,121.3181,37.5436,烟台市,西郊化工站,颗粒物(PM10),58,66,66,28,18,108,105,97,74,22,22,7,7,0.3,0.3
2023-04-30T14:00:00,1645A,121.4478,37.4822,烟台市,莱山环保局,颗粒物(PM10),52,53,56,22,20,123,123,87,75,12,18,11,11,0.3,0.3
2023-04-30T14:00:00,1646A,121.2611,37.4967,烟台市,福山环保局,颗粒物(PM10),54,58,60,17,19,115,115,66,66,20,33,11,11,0.2,0.3
2023-04-30T14:00:00,1650A,119.1437,36.7023,潍坊市,环保局,颗粒物(PM10),59,68,92,19,31,137,128,84,84,8,31,9,11,0.3,0.6
2023-04-30T14:00:00,1653A,116.6251,35.4302,济宁市,火炬城,颗粒物(PM10),83,116,103,34,26,126,126,92,89,13,14,18,14,0.7,0.5
2023-04-30T14:00:00,1655A,116.5491,35.4042,济宁市,电化厂,,,,118,,33,82,,83,,,17,,14,,0.4
2023-04-30T14:00:00,1656A,117.1437,36.1937,泰安市,监测站,颗粒物(PM10),78,105,110,43,42,128,128,91,91,9,20,7,8,0.5,0.5
2023-04-30T14:00:00,1657A,117.0885,36.2017,泰安市,人口学校,颗粒物(PM10),65,80,115,32,50,120,120,103,90,5,12,6,8,0.3,0.3
2023-04-30T14:00:00,1658A,117.1089,36.1758,泰安市,电力学校,颗粒物(PM10),64,78,116,28,34,130,130,90,90,8,30,10,12,0.5,0.5
2023-04-30T14:00:00,1659A,119.471,35.4209,日照市,监测站,颗粒物(PM10),78,105,86,38,29,149,149,102,102,17,44,7,6,0.3,0.3
2023-04-30T14:00:00,1660A,119.523,35.4216,日照市,市政府广场,颗粒物(PM10),71,92,82,24,21,146,146,102,102,10,29,9,7,0.4,0.4
2023-04-30T14:00:00,1661A,119.5587,35.4044,日照市,港务局,颗粒物(PM10),79,107,101,38,26,147,147,101,101,15,48,11,10,0.4,0.4
2023-04-30T14:00:00,1662A,122.1214,37.4236,威海市,华夏技校,颗粒物(PM10),58,66,42,27,19,118,101,94,88,26,14,7,5,0.4,0.4
2023-04-30T14:00:00,1663A,122.0508,37.5236,威海市,山大分校,颗粒物(PM10),63,76,55,24,14,118,53,103,70,51,18,9,4,0.5,0.5
2023-04-30T14:00:00,1664A,122.1067,37.5072,威海市,市监测站,颗粒物(PM10),58,66,54,20,18,110,90,92,70,30,29,8,5,0.4,0.5
2023-04-30T14:00:00,1666A,118.6614,37.4309,东营市,市环保局,,37,31,86,12,23,117,117,94,94,8,27,7,15,0.1,0.4
2023-04-30T14:00:00,1669A,113.5824,24.7733,韶关市,市八中,颗粒物(PM10),62,74,55,27,13,100,100,79,79,6,8,11,11,0.4,0.5
2023-04-30T14:00:00,1671A,113.5917,24.7972,韶关市,园林处,颗粒物(PM10),64,78,60,24,21,98,98,78,78,3,3,8,8,0.4,0.5
2023-04-30T14:00:00,1672A,113.6735,24.7791,韶关市,韶关学院,颗粒物(PM10),77,103,58,23,17,113,113,81,81,7,11,8,10,0.2,0.3
2023-04-30T14:00:00,1673A,113.5971,24.6863,韶关市,曲江监测站,颗粒物(PM10),60,70,52,19,13,116,116,86,86,4,9,8,8,0.4,0.5
2023-04-30T14:00:00,1674A,116.6794,23.3667,汕头市,金平子站,,45,45,26,25,12,126,84,71,71,21,18,5,9,0.8,0.8
2023-04-30T14:00:00,1675A,116.7244,23.3633,汕头市,龙湖子站,,36,36,27,15,11,132,104,87,87,13,15,4,5,0.7,0.7
2023-04-30T14:00:00,1676A,116.7258,23.2775,汕头市,濠江子站,,47,47,27,18,10,108,97,78,78,14,17,8,9,0.7,0.7
2023-04-30T14:00:00,1677A,116.7519,23.4714,汕头市,澄海子站,颗粒物(PM10),53,56,27,19,10,138,82,70,70,19,17,4,5,0.6,0.6
2023-04-30T14:00:00,1678A,116.6092,23.2539,汕头市,潮阳子站,,35,35,33,10,10,99,97,74,74,11,14,9,10,0.5,0.6
2023-04-30T14:00:00,1680A,110.3539,21.2706,湛江市,湛江影剧院,,40,40,35,20,9,114,114,77,77,11,12,11,14,0.6,0.5
2023-04-30T14:00:00,1681A,110.3928,21.2228,湛江市,市环境监测站,,42,41,33,29,6,105,105,72,72,12,13,8,11,0.6,0.6
2023-04-30T14:00:00,1682A,110.4019,21.1997,湛江市,环保局宿舍,,32,20,29,22,14,102,97,72,72,16,13,6,9,0.6,0.5
2023-04-30T14:00:00,1683A,110.4111,21.2028,湛江市,霞山游泳场,,36,36,28,21,14,107,100,73,73,16,13,8,11,0.7,0.6
2023-04-30T14:00:00,1684A,110.3316,21.2679,湛江市,麻章区环保局,,46,44,33,32,8,120,120,73,73,13,17,9,10,0.7,0.6
2023-04-30T14:00:00,1685A,110.4558,21.2567,湛江市,坡头区环保局,,34,33,27,15,17,107,107,70,70,7,10,8,13,0.7,0.6
2023-04-30T14:00:00,1686A,111.0286,21.4688,茂名市,电白南海,,41,41,30,22,16,108,105,59,59,9,13,7,9,0.6,0.6
2023-04-30T14:00:00,1687A,110.9294,21.6533,茂名市,茂石化七小,,40,28,23,17,13,127,127,73,73,11,12,10,8,0.8,0.7
2023-04-30T14:00:00,1688A,110.9107,21.6687,茂名市,健康路,,40,27,29,11,11,126,126,78,78,7,12,15,13,0.8,1
2023-04-30T14:00:00,1689A,110.8592,21.6828,茂名市,高岭,,36,34,37,17,22,115,115,71,71,8,15,11,11,0.7,0.7
2023-04-30T14:00:00,1690A,116.1231,24.3284,梅州市,梅江月梅,颗粒物(PM10),63,75,51,21,13,93,89,70,70,7,13,6,6,0.4,0.5
2023-04-30T14:00:00,1691A,116.0797,24.2719,梅州市,梅县新城,颗粒物(PM10),69,87,53,21,9,92,89,70,70,7,8,6,5,0.4,0.5
2023-04-30T14:00:00,1692A,116.1248,24.2654,梅州市,环境监控中心,颗粒物(PM10),64,78,48,20,9,105,105,71,71,9,11,3,3,0.4,0.5
2023-04-30T14:00:00,1693A,115.3653,22.775,汕尾市,市环保局,,39,39,24,12,9,114,114,76,76,10,8,10,9,0.8,0.7
2023-04-30T14:00:00,1694A,115.3706,22.7898,汕尾市,市政府,,36,36,25,20,10,115,115,77,77,10,8,6,5,0.7,0.6
2023-04-30T14:00:00,1695A,115.3622,22.7925,汕尾市,新城中学,颗粒物(PM10),54,58,23,20,11,117,117,77,77,8,6,8,7,0.7,0.7
2023-04-30T14:00:00,1696A,114.6778,23.7569,河源市,源西,颗粒物(PM10),75,99,46,25,16,106,106,82,82,8,9,5,5,0.5,0.6
2023-04-30T14:00:00,1697A,114.6944,23.7586,河源市,东埔,颗粒物(PM10),82,113,46,28,18,112,112,86,86,7,9,5,5,0.4,0.4
2023-04-30T14:00:00,1698A,114.6892,23.7233,河源市,老城,颗粒物(PM10),80,110,58,28,11,115,115,87,87,8,9,5,5,0.5,0.6
2023-04-30T14:00:00,1699A,111.9797,21.8593,阳江市,鸳鸯湖,,46,46,22,3,5,102,102,66,66,5,9,6,6,0.6,0.6
2023-04-30T14:00:00,1701A,111.9491,21.8658,阳江市,马南垌,,29,29,28,11,10,92,92,64,64,7,11,5,5,0.6,0.6
2023-04-30T14:00:00,1702A,113.0426,23.691,清远市,环保大楼,,46,46,19,12,12,115,115,81,81,5,7,6,4,1.0,0.9
2023-04-30T14:00:00,1703A,113.0208,23.7106,清远市,凤城街办,颗粒物(PM10),56,62,24,23,9,110,110,80,80,4,4,6,4,0.5,0.5
2023-04-30T14:00:00,1705A,116.6367,23.6719,潮州市,西园路,,45,45,24,12,12,81,66,55,54,4,3,3,3,0.3,0.3
2023-04-30T14:00:00,1706A,116.6447,23.6706,潮州市,档案局,,42,42,23,14,6,97,76,60,60,4,4,6,6,0.5,0.5
2023-04-30T14:00:00,1708A,116.3701,23.5345,揭阳市,新兴,颗粒物(PM10),56,62,31,35,16,101,80,59,59,16,12,13,8,0.6,0.6
2023-04-30T14:00:00,1709A,116.3264,23.5443,揭阳市,西马,颗粒物(PM10),56,61,32,36,13,96,78,62,59,16,13,11,6,0.7,0.6
2023-04-30T14:00:00,1710A,116.3611,23.5626,揭阳市,东兴,颗粒物(PM10),56,61,38,34,13,94,77,58,58,15,17,8,6,0.6,0.6
2023-04-30T14:00:00,1711A,116.4151,23.5294,揭阳市,渔湖,颗粒物(PM10),55,59,32,29,14,103,82,57,57,9,10,14,9,0.6,0.6
2023-04-30T14:00:00,1712A,112.0392,22.9169,云浮市,新市府,,35,29,32,14,11,109,109,74,74,7,14,8,13,0.6,0.7
2023-04-30T14:00:00,1714A,112.0539,22.9539,云浮市,牧羊,,49,49,36,14,9,102,102,59,59,15,28,31,18,0.5,0.5
2023-04-30T14:00:00,1715A,102.575,24.3711,玉溪市,东风水库,,38,38,33,24,26,147,108,78,78,13,12,7,7,0.6,0.7
2023-04-30T14:00:00,1718A,115.4208,35.2464,菏泽市,气象局,颗粒物(PM10),84,117,137,25,38,127,127,84,84,13,25,8,9,0.4,0.4
2023-04-30T14:00:00,1719A,115.4747,35.2375,菏泽市,市政协,颗粒物(PM10),78,106,123,31,36,126,126,83,83,10,19,7,9,0.4,0.5
2023-04-30T14:00:00,1721A,113.3819,40.1097,大同市,果树场,,33,24,53,2,16,106,105,62,62,5,14,7,11,0.3,0.5
2023-04-30T14:00:00,1723A,113.2994,40.0758,大同市,云冈宾馆,,35,20,58,5,13,112,112,78,72,6,20,5,8,0.2,0.4
2023-04-30T14:00:00,1724A,113.3444,40.0917,大同市,大同大学,,34,17,57,6,12,111,108,74,74,5,16,8,15,0.3,0.6
2023-04-30T14:00:00,1725A,113.2661,40.1269,大同市,安家小村,,,,55,6,12,112,110,74,74,3,15,5,8,0.2,0.7
2023-04-30T14:00:00,1726A,113.2711,40.0844,大同市,教育学院,,33,21,56,4,16,103,103,68,68,12,19,5,9,0.3,0.8
2023-04-30T14:00:00,1727A,113.1147,36.1547,长治市,清华站,,,,82,,22,121,,71,26,,26,,9,,0.5
2023-04-30T14:00:00,1728A,113.1031,36.1989,长治市,监测站,,40,36,74,7,23,128,128,94,94,7,22,6,8,0.5,0.6
2023-04-30T14:00:00,1730A,113.0886,36.2125,长治市,审计局,,40,29,67,9,28,128,128,95,95,6,23,8,12,0.3,0.5
2023-04-30T14:00:00,1731A,113.0844,36.1856,长治市,长治八中,,44,44,82,13,24,127,126,93,93,2,17,6,9,0.3,0.5
2023-04-30T14:00:00,1733A,111.5531,36.0783,临汾市,临钢医院,颗粒物(PM10),94,137,125,62,44,148,148,67,67,21,36,27,12,1.7,0.9
2023-04-30T14:00:00,1734A,111.5028,36.0714,临汾市,技工学校,颗粒物(PM10),89,127,112,57,42,153,153,76,76,19,31,33,11,2.0,1
2023-04-30T14:00:00,1736A,111.5018,36.0855,临汾市,市委,颗粒物(PM10),87,123,136,46,39,156,156,101,101,20,29,33,14,1.9,0.9
2023-04-30T14:00:00,1738A,113.5758,37.8572,阳泉市,市中心,,38,16,66,6,20,119,119,83,83,9,30,9,13,0.4,0.6
2023-04-30T14:00:00,1739A,113.4894,37.8731,阳泉市,赛鱼,,37,21,86,16,29,118,117,61,61,11,47,8,12,0.5,0.5
2023-04-30T14:00:00,1740A,113.5819,37.8486,阳泉市,南庄,,38,21,79,10,31,121,121,84,80,12,28,7,13,0.4,0.5
2023-04-30T14:00:00,1742A,113.5614,37.8703,阳泉市,平坦,,37,28,81,6,24,117,117,81,81,9,33,7,12,0.4,0.6
2023-04-30T14:00:00,1743A,113.5158,37.8392,阳泉市,大阳泉,,38,15,59,13,22,120,120,94,94,10,22,6,10,0.4,0.5
2023-04-30T14:00:00,1744A,118.9233,42.2816,赤峰市,松山一中,,,,26,,10,98,,78,78,11,18,9,10,0.7,0.7
2023-04-30T14:00:00,1745A,118.9576,42.2728,赤峰市,哈达街,,32,8,28,4,10,102,102,84,84,12,17,10,12,0.3,0.3
2023-04-30T14:00:00,1746A,118.8788,42.2554,赤峰市,天义路,,34,19,27,2,8,108,108,94,94,14,15,11,12,0.5,0.5
2023-04-30T14:00:00,1748A,123.044,41.1196,鞍山市,深沟寺,,32,31,31,12,18,103,102,80,80,11,17,13,11,0.8,1
2023-04-30T14:00:00,1749A,123.011,41.0931,鞍山市,太阳城,,32,22,35,7,21,103,100,78,78,17,21,14,12,0.6,1
2023-04-30T14:00:00,1750A,123.0485,41.1442,鞍山市,太平,,32,23,32,10,21,101,101,76,76,12,27,11,13,0.6,1
2023-04-30T14:00:00,1751A,122.9642,41.0971,鞍山市,铁西三道街,,33,27,38,9,21,104,103,81,81,11,31,4,10,0.6,1.2
2023-04-30T14:00:00,1752A,122.9341,41.0833,鞍山市,铁西工业园区,,34,24,37,8,23,106,106,84,84,9,26,7,12,0.6,1.2
2023-04-30T14:00:00,1753A,123.022,41.0821,鞍山市,明达新区,,36,36,31,15,19,102,101,78,78,13,20,11,11,0.5,1
2023-04-30T14:00:00,1754A,123.1289,41.0228,鞍山市,千山,,,,20,,12,59,,54,,,16,,12,,0.8
2023-04-30T14:00:00,1755A,123.7977,41.8491,抚顺市,望花区,,39,39,41,9,25,112,112,81,81,9,20,8,14,0.3,0.5
2023-04-30T14:00:00,1756A,123.9161,41.8822,抚顺市,顺城区,,36,30,35,14,27,115,115,72,72,7,23,5,5,0.4,0.7
2023-04-30T14:00:00,1757A,124.0436,41.8611,抚顺市,东洲区,,36,36,32,10,20,114,114,74,74,7,15,5,7,0.7,1
2023-04-30T14:00:00,1758A,123.9247,41.8642,抚顺市,新抚区,,35,35,38,9,23,112,112,72,72,10,16,7,9,0.2,0.5
2023-04-30T14:00:00,1759A,124.0972,41.8961,抚顺市,大伙房水库,,38,30,28,8,18,121,121,87,87,6,12,7,7,0.4,0.6
2023-04-30T14:00:00,1760A,123.7086,41.8391,抚顺市,沈抚新城,,38,33,41,7,24,120,120,83,83,6,21,6,12,0.2,0.5
2023-04-30T14:00:00,1761A,123.8275,41.3064,本溪市,大峪,,26,13,34,7,20,83,83,54,54,10,21,5,4,0.4,1
2023-04-30T14:00:00,1762A,123.7567,41.3325,本溪市,溪湖,,50,50,53,6,29,101,101,67,67,8,31,12,11,0.4,1.2
2023-04-30T14:00:00,1763A,123.7169,41.3094,本溪市,彩屯,,33,33,49,5,34,99,99,68,68,8,23,10,10,0.5,1.2
2023-04-30T14:00:00,1764A,123.7669,41.2864,本溪市,东明,,30,21,40,8,25,96,96,62,62,13,38,9,9,0.5,1.1
2023-04-30T14:00:00,1765A,123.7992,41.2664,本溪市,新立屯,,31,31,29,9,20,94,94,68,68,12,24,9,9,0.3,0.6
2023-04-30T14:00:00,1766A,123.8142,41.3472,本溪市,威宁,,31,22,29,7,15,98,98,69,69,14,26,7,6,0.4,0.6
2023-04-30T14:00:00,1767A,121.1115,41.0879,锦州市,南山,,37,25,39,8,22,116,116,94,94,9,20,5,16,0.5,0.7
2023-04-30T14:00:00,1768A,121.0533,40.8434,锦州市,开发区,,37,23,50,3,14,118,118,89,89,5,40,9,25,0.3,0.5
2023-04-30T14:00:00,1769A,121.1836,41.1119,锦州市,百股街道,,33,18,37,7,21,105,105,83,83,9,20,6,12,0.4,0.7
2023-04-30T14:00:00,1770A,121.1178,41.1222,锦州市,天安街道,,35,27,47,5,22,111,111,92,92,8,21,10,21,0.4,0.7
2023-04-30T14:00:00,1771A,121.1303,41.1386,锦州市,北湖公园,,33,27,42,8,20,103,103,84,84,7,16,10,18,0.5,0.7
2023-04-30T14:00:00,1772A,126.54,43.8622,吉林市,哈达湾,,31,11,16,7,13,101,99,90,90,8,14,4,4,0.4,0.6
2023-04-30T14:00:00,1773A,126.5844,43.8358,吉林市,东局子,,30,12,21,10,15,101,96,88,88,10,18,5,6,0.5,0.7
2023-04-30T14:00:00,1774A,126.5052,43.8245,吉林市,电力学院,,35,14,23,9,18,110,110,100,100,8,13,6,6,0.3,0.4
2023-04-30T14:00:00,1775A,126.6133,43.8972,吉林市,江北,,29,16,25,8,16,102,92,86,86,10,15,6,6,0.5,0.6
2023-04-30T14:00:00,1776A,126.555,43.8306,吉林市,江南公园,,,13,19,10,15,91,,83,83,12,18,5,5,0.5,0.6
2023-04-30T14:00:00,1778A,126.7061,43.7133,吉林市,丰满,,29,11,16,9,16,93,91,86,86,8,8,5,5,0.5,0.6
2023-04-30T14:00:00,1779A,123.9305,47.3636,齐齐哈尔市,安居小区,,30,21,21,5,10,93,93,73,73,7,9,3,3,0.4,0.4
2023-04-30T14:00:00,1780A,123.9488,47.3386,齐齐哈尔市,中心广场,,27,18,21,4,5,86,86,68,68,11,9,5,5,0.4,0.3
2023-04-30T14:00:00,1781A,123.9483,47.3227,齐齐哈尔市,农牧车辆厂,,30,22,26,4,9,93,93,74,74,10,9,4,4,0.4,0.4
2023-04-30T14:00:00,1783A,123.945,47.2988,齐齐哈尔市,市环境监测站,,28,25,23,12,12,90,89,73,73,9,8,5,4,0.4,0.4
2023-04-30T14:00:00,1784A,129.61,44.561,牡丹江市,环保大楼,,22,17,20,12,20,89,70,85,64,13,14,4,5,0.4,0.4
2023-04-30T14:00:00,1785A,129.6115,44.5782,牡丹江市,文化广场,,22,18,23,12,21,85,68,83,58,16,20,4,4,0.4,0.5
2023-04-30T14:00:00,1786A,129.5904,44.5963,牡丹江市,第一医院,,23,14,22,14,19,93,73,93,66,7,10,2,2,0.5,0.5
2023-04-30T14:00:00,1787A,129.6364,44.6075,牡丹江市,机车工厂,,23,23,24,13,14,87,73,87,66,4,8,3,3,0.2,0.3
2023-04-30T14:00:00,1788A,129.6386,44.5462,牡丹江市,第一中学,,23,20,20,12,18,85,71,83,63,8,12,2,2,0.5,0.5
2023-04-30T14:00:00,1789A,124.81117,46.03138,大庆市,大同区,,26,19,23,11,13,94,83,74,68,6,8,3,3,0.3,0.3
2023-04-30T14:00:00,1790A,125.129,46.533,大庆市,龙凤区,,27,14,23,13,13,99,85,91,67,13,11,1,2,0.3,0.1
2023-04-30T14:00:00,1791A,124.902,46.408,大庆市,红岗区,,27,11,21,10,16,89,85,78,66,8,9,5,5,0.4,0.4
2023-04-30T14:00:00,1792A,125.153,46.586,大庆市,萨尔图区,,24,17,17,10,13,92,74,84,63,14,10,5,6,0.5,0.5
2023-04-30T14:00:00,1793A,124.9042,46.6215,大庆市,让胡路区,,25,22,23,6,14,81,77,67,61,8,9,5,5,0.3,0.3
2023-04-30T14:00:00,1794A,118.3606,31.3519,芜湖市,监测站,颗粒物(PM10),93,135,87,31,27,120,120,83,83,19,46,13,9,0.9,0.6
2023-04-30T14:00:00,1795A,118.3714,31.4134,芜湖市,科创中心,颗粒物(PM10),94,138,101,34,29,123,123,78,78,16,53,8,8,0.5,0.6
2023-04-30T14:00:00,1796A,118.3673,31.3131,芜湖市,四水厂,颗粒物(PM10),103,156,102,55,36,112,112,80,80,30,36,18,10,0.8,0.5
2023-04-30T14:00:00,1798A,118.5092,31.6837,马鞍山市,湖东路四小,颗粒物(PM10),79,108,93,27,24,129,129,81,81,9,32,10,12,0.6,0.7
2023-04-30T14:00:00,1799A,118.5024,31.6449,马鞍山市,开发区,颗粒物(PM10),92,133,108,28,24,130,130,78,78,5,39,8,10,0.5,0.7
2023-04-30T14:00:00,1800A,118.5228,31.7231,马鞍山市,慈湖,颗粒物(PM10),86,121,106,26,32,127,127,82,82,16,44,12,18,0.5,0.8
2023-04-30T14:00:00,1802A,118.6245,31.7241,马鞍山市,濮塘,颗粒物(PM10),75,99,90,42,36,122,122,80,80,13,32,7,10,1.0,1.2
2023-04-30T14:00:00,1803A,115.9872,29.6815,九江市,十里,颗粒物(PM10),86,121,190,27,40,119,119,68,68,9,33,8,9,0.3,0.5
2023-04-30T14:00:00,1804A,115.9584,29.7046,九江市,茅山头,颗粒物(PM10),84,118,190,36,42,122,122,72,72,1,28,8,9,0.3,0.4
2023-04-30T14:00:00,1805A,115.9877,29.7295,九江市,西园,颗粒物(PM10),105,160,194,28,40,96,90,62,62,40,40,11,12,0.4,0.5
2023-04-30T14:00:00,1806A,116.0172,29.6547,九江市,五七二七厂,颗粒物(PM10),91,132,168,29,34,116,116,100,84,8,13,7,8,0.4,0.4
2023-04-30T14:00:00,1808A,115.9114,29.6038,九江市,综合工业园,颗粒物(PM10),85,120,207,29,42,119,119,77,77,13,28,9,11,0.4,0.7
2023-04-30T14:00:00,1809A,116.0721,29.7535,九江市,石化总厂,颗粒物(PM10),119,188,229,24,43,108,108,64,64,11,33,9,9,0.4,0.5
2023-04-30T14:00:00,1810A,115.9773,29.5698,九江市,庐山气象台,颗粒物(PM10),65,80,149,12,28,104,104,102,95,3,6,6,6,0.7,0.7
2023-04-30T14:00:00,1812A,112.3931,34.6516,洛阳市,市委党校,颗粒物(PM10),58,65,86,29,35,128,128,76,76,8,29,3,4,0.3,0.4
2023-04-30T14:00:00,1814A,112.4657,34.6871,洛阳市,豫西宾馆,颗粒物(PM10),68,86,114,28,40,139,139,70,70,3,39,4,8,0.5,0.9
2023-04-30T14:00:00,1815A,112.494,34.6886,洛阳市,河南林校,颗粒物(PM10),59,67,89,21,33,137,137,71,71,7,30,6,7,0.1,0.3
2023-04-30T14:00:00,1816A,112.3844,34.623,洛阳市,开发区管委会,颗粒物(PM10),56,61,75,23,30,139,139,83,83,2,16,3,4,0.1,0.2
2023-04-30T14:00:00,1817A,112.4267,34.6258,洛阳市,市委新办公区,细颗粒物(PM2.5),58,61,76,41,40,141,141,85,85,8,25,4,5,0.1,0.2
2023-04-30T14:00:00,1818A,114.4839,36.0621,安阳市,棉研所,颗粒物(PM10),63,75,127,33,44,112,112,72,72,5,28,9,9,0.7,0.9
2023-04-30T14:00:00,1819A,114.3551,36.1017,安阳市,红庙街,颗粒物(PM10),65,79,140,11,39,121,121,92,92,9,26,3,8,0.6,0.9
2023-04-30T14:00:00,1820A,114.361,36.0681,安阳市,银杏小区,颗粒物(PM10),59,68,117,14,29,117,117,89,89,10,26,7,15,0.4,0.5
2023-04-30T14:00:00,1824A,114.3389,34.7781,开封市,肿瘤医院,颗粒物(PM10),82,113,141,30,35,139,139,77,77,7,23,11,9,0.4,0.3
2023-04-30T14:00:00,1826A,114.2885,34.7965,开封市,世纪星幼儿园,颗粒物(PM10),73,96,124,36,45,135,135,77,77,11,25,10,7,0.6,0.4
2023-04-30T14:00:00,1828A,113.227,35.2125,焦作市,市环保局,颗粒物(PM10),83,115,119,18,41,116,116,62,62,16,36,10,12,0.5,0.5
2023-04-30T14:00:00,1830A,113.1992,35.2590,焦作市,影视城,颗粒物(PM10),59,68,74,28,26,84,54,66,50,20,17,10,9,0.6,0.4
2023-04-30T14:00:00,1832A,113.3257,33.742,平顶山市,新华旅馆,颗粒物(PM10),60,69,107,27,52,143,143,95,95,11,20,6,5,0.2,0.2
2023-04-30T14:00:00,1833A,113.2919,33.737,平顶山市,规划设计院,颗粒物(PM10),70,90,118,33,37,147,147,92,92,5,22,7,6,0.3,0.3
2023-04-30T14:00:00,1834A,113.182,33.774,平顶山市,平顶山工学院,颗粒物(PM10),75,100,114,27,34,137,137,100,88,7,14,4,7,0.3,0.3
2023-04-30T14:00:00,1835A,111.1922,34.7752,三门峡市,市政府,颗粒物(PM10),68,86,92,46,47,128,110,55,55,20,38,13,12,0.4,0.4
2023-04-30T14:00:00,1836A,111.1587,34.7942,三门峡市,开发区,颗粒物(PM10),76,101,103,37,45,120,112,68,68,19,28,17,8,0.5,0.5
2023-04-30T14:00:00,1838A,111.143,34.7955,三门峡市,风景区,颗粒物(PM10),70,90,88,38,45,126,117,71,71,28,30,20,10,0.4,0.3
2023-04-30T14:00:00,1840A,111.2992,30.6981,宜昌市,白龙岗,颗粒物(PM10),70,90,142,27,40,142,135,78,78,14,24,5,6,0.4,0.5
2023-04-30T14:00:00,1841A,111.3549,30.6465,宜昌市,伍家岗,颗粒物(PM10),69,87,158,24,45,145,134,78,78,11,33,6,7,0.3,0.4
2023-04-30T14:00:00,1842A,111.2628,30.6961,宜昌市,点军区,颗粒物(PM10),79,108,137,19,38,139,131,66,66,18,25,8,8,0.4,0.4
2023-04-30T14:00:00,1843A,111.3275,30.7819,宜昌市,夷陵区,颗粒物(PM10),65,79,139,24,36,138,131,74,74,13,25,7,7,0.4,0.5
2023-04-30T14:00:00,1844A,112.2494,30.3197,荆州市,市图书馆,颗粒物(PM10),123,195,243,82,79,130,125,82,82,15,24,10,10,0.4,0.4
2023-04-30T14:00:00,1845A,112.2008,30.3544,荆州市,市委党校,颗粒物(PM10),123,196,236,88,84,128,121,83,83,12,26,9,11,0.5,0.5
2023-04-30T14:00:00,1847A,113.1094,29.3578,岳阳市,南湖风景区,颗粒物(PM10),109,168,197,44,45,128,128,84,84,5,27,8,11,0.4,0.6
2023-04-30T14:00:00,1848A,113.1493,29.4251,岳阳市,城陵矶,颗粒物(PM10),115,179,218,38,46,115,103,77,77,28,39,6,7,0.5,0.5
2023-04-30T14:00:00,1849A,113.1497,29.3575,岳阳市,开发区,颗粒物(PM10),104,157,176,40,43,133,133,86,86,3,23,10,10,0.6,0.6
2023-04-30T14:00:00,1850A,113.2621,29.4758,岳阳市,云溪区,颗粒物(PM10),105,159,174,39,39,125,125,100,100,13,14,8,7,0.5,0.5
2023-04-30T14:00:00,1851A,112.9943,29.4402,岳阳市,君山区,颗粒物(PM10),123,195,239,41,49,127,127,90,90,,25,,10,,0.5
2023-04-30T14:00:00,1852A,113.2117,29.355,岳阳市,金凤水库,颗粒物(PM10),114,178,197,38,36,122,122,79,79,11,19,5,5,0.4,0.4
2023-04-30T14:00:00,1854A,111.6975,28.9703,常德市,市二中,颗粒物(PM10),86,121,201,36,53,126,126,83,83,5,12,6,10,0.2,0.2
2023-04-30T14:00:00,1857A,111.7158,29.1456,常德市,白鹤山,颗粒物(PM10),95,139,188,47,49,128,128,86,86,5,6,7,8,0.3,0.3
2023-04-30T14:00:00,1858A,110.5319,29.1217,张家界市,永定新区,颗粒物(PM10),67,84,108,23,26,129,122,70,70,5,10,3,3,0.1,0.1
2023-04-30T14:00:00,1859A,110.4697,29.1242,张家界市,电业局,颗粒物(PM10),67,83,102,28,32,126,122,62,62,4,12,3,3,0.1,0.1
2023-04-30T14:00:00,1860A,110.5594,29.3547,张家界市,未央路,颗粒物(PM10),67,84,84,32,30,117,112,65,65,5,11,3,3,0.1,0.1
2023-04-30T14:00:00,1861A,110.4417,29.315,张家界市,袁家界,颗粒物(PM10),63,75,80,23,24,115,113,86,86,5,5,8,7,0.4,0.4
2023-04-30T14:00:00,1862A,110.4144,25.3167,桂林市,电子科大尧山校区,颗粒物(PM10),96,141,149,35,31,105,105,74,74,6,8,6,5,0.4,0.5
2023-04-30T14:00:00,1863A,110.2819,25.2697,桂林市,监测站,颗粒物(PM10),110,170,170,46,41,136,136,85,85,8,16,10,10,0.4,0.5
2023-04-30T14:00:00,1864A,110.3089,25.2708,桂林市,龙隐路小学,颗粒物(PM10),108,166,158,31,32,134,134,84,84,7,11,10,20,0.4,0.4
2023-04-30T14:00:00,1865A,110.2869,25.2178,桂林市,八中,颗粒物(PM10),103,155,158,44,47,125,125,82,82,8,14,8,13,0.4,0.5
2023-04-30T14:00:00,1866A,109.2262,21.588,北海市,牛尾岭水库,颗粒物(PM10),56,61,40,24,19,102,102,69,69,3,4,8,6,0.6,0.6
2023-04-30T14:00:00,1867A,109.1436,21.4086,北海市,海滩公园,颗粒物(PM10),62,74,51,20,17,111,111,84,84,7,9,3,4,0.5,0.5
2023-04-30T14:00:00,1868A,109.0981,21.4661,北海市,新市环保局,颗粒物(PM10),69,88,50,24,19,116,116,87,87,7,8,7,6,0.4,0.4
2023-04-30T14:00:00,1869A,109.1778,21.5233,北海市,北海工业园,颗粒物(PM10),68,86,51,29,22,107,107,79,79,7,10,6,7,0.5,0.5
2023-04-30T14:00:00,1870A,109.4856,24.3895,柳州市,柳东小学,颗粒物(PM10),97,143,99,45,34,113,113,84,84,6,7,8,8,0.3,0.3
2023-04-30T14:00:00,1871A,109.4157,24.3277,柳州市,环保监测站,颗粒物(PM10),98,146,103,50,34,103,103,75,75,8,12,6,10,0.3,0.5
2023-04-30T14:00:00,1872A,109.389,24.341,柳州市,河西水厂,颗粒物(PM10),91,132,95,49,36,103,103,57,57,6,20,5,11,0.6,0.8
2023-04-30T14:00:00,1873A,109.4311,24.2921,柳州市,市四中,颗粒物(PM10),93,136,97,35,26,116,116,81,81,8,10,9,10,0.5,0.5
2023-04-30T14:00:00,1874A,109.4006,24.3631,柳州市,市九中,颗粒物(PM10),99,148,112,38,35,107,107,72,72,5,14,7,11,0.3,0.4
2023-04-30T14:00:00,1875A,109.4958,24.3134,柳州市,古亭山,颗粒物(PM10),110,170,101,36,24,113,113,76,76,5,8,5,5,0.4,0.5
2023-04-30T14:00:00,1876A,109.5078,18.2489,三亚市,河东子站,,35,10,22,6,10,117,111,83,83,5,11,3,3,0.5,0.6
2023-04-30T14:00:00,1877A,109.4964,18.2681,三亚市,河西子站,,34,10,22,6,9,106,106,76,76,7,11,2,2,0.5,0.5
2023-04-30T14:00:00,1878A,104.7778,31.4741,绵阳市,富乐山,颗粒物(PM10),71,91,76,37,34,159,159,97,95,8,16,6,5,0.3,0.4
2023-04-30T14:00:00,1879A,104.7563,31.4535,绵阳市,市人大,颗粒物(PM10),77,103,77,37,35,142,142,93,75,11,24,9,6,0.5,0.5
2023-04-30T14:00:00,1880A,104.6697,31.4668,绵阳市,高新区自来水公司,,,,95,,30,153,151,91,86,5,26,6,7,,0.5
2023-04-30T14:00:00,1881A,104.7287,31.5075,绵阳市,三水厂,颗粒物(PM10),80,110,88,38,31,162,162,99,78,9,30,7,6,0.3,0.4
2023-04-30T14:00:00,1882A,104.563,28.793,宜宾市,石马中学,颗粒物(PM10),57,63,95,29,40,130,130,59,59,13,30,4,4,0.4,0.4
2023-04-30T14:00:00,1883A,104.6201,28.7728,宜宾市,市委,颗粒物(PM10),63,76,98,24,36,119,111,47,47,14,32,9,8,0.2,0.3
2023-04-30T14:00:00,1884A,104.6055,28.793,宜宾市,宜宾四中,颗粒物(PM10),65,79,100,36,42,126,126,57,57,14,35,6,7,0.3,0.4
2023-04-30T14:00:00,1885A,104.639,28.7562,宜宾市,市政府,颗粒物(PM10),68,86,99,35,40,125,109,46,46,21,41,18,14,0.4,0.4
2023-04-30T14:00:00,1886A,104.5742,28.7199,宜宾市,黄金嘴,颗粒物(PM10),69,88,87,34,33,120,112,48,48,17,33,7,6,0.3,0.3
2023-04-30T14:00:00,1888A,101.6891,26.571,攀枝花市,弄弄坪,,50,49,42,35,21,141,141,100,100,13,15,16,14,0.5,0.5
2023-04-30T14:00:00,1889A,101.5769,26.5928,攀枝花市,河门口,颗粒物(PM10),61,72,54,32,24,144,144,89,89,21,25,36,32,1.5,1.5
2023-04-30T14:00:00,1890A,101.7169,26.585,攀枝花市,炳草岗,颗粒物(PM10),51,52,42,25,17,147,147,98,98,9,14,15,12,0.5,0.5
2023-04-30T14:00:00,1891A,101.7369,26.5008,攀枝花市,仁和,,49,49,44,26,24,139,132,98,98,8,13,12,13,0.6,0.7
2023-04-30T14:00:00,1893A,105.4324,28.9634,泸州市,九狮山,,45,45,57,27,28,116,97,56,56,16,18,9,8,0.2,0.2
2023-04-30T14:00:00,1894A,105.4427,28.9063,泸州市,小市上码头,颗粒物(PM10),59,68,83,26,31,123,97,62,54,14,18,12,10,0.4,0.4
2023-04-30T14:00:00,1895A,105.4241,28.8573,泸州市,兰田宪桥,颗粒物(PM10),60,69,81,27,31,124,94,47,47,12,21,26,13,0.5,0.5
2023-04-30T14:00:00,1896A,105.4379,28.8833,泸州市,市环监站,颗粒物(PM10),55,60,75,24,26,108,90,48,48,17,28,16,8,0.6,0.5
2023-04-30T14:00:00,1901A,104.4239,31.1208,德阳市,东山公园,颗粒物(PM10),78,106,91,41,33,150,150,102,102,9,16,3,3,0.3,0.3
2023-04-30T14:00:00,1902A,104.3826,31.1317,德阳市,西小区,颗粒物(PM10),75,100,93,31,38,143,143,81,70,14,31,3,3,0.4,0.4
2023-04-30T14:00:00,1904A,104.3553,31.1091,德阳市,耐火材料厂,颗粒物(PM10),68,86,100,28,39,158,158,81,81,4,30,4,6,0.2,0.3
2023-04-30T14:00:00,1905A,106.056,30.8064,南充市,西山风景区,颗粒物(PM10),63,76,94,31,39,152,152,98,92,6,13,8,12,0.2,0.3
2023-04-30T14:00:00,1906A,106.0789,30.8023,南充市,南充市委,颗粒物(PM10),71,91,115,33,41,153,153,84,84,11,25,12,12,0.3,0.4
2023-04-30T14:00:00,1907A,106.1031,30.8217,南充市,南充炼油厂,颗粒物(PM10),77,103,129,31,41,148,148,85,85,10,21,11,16,0.3,0.3
2023-04-30T14:00:00,1908A,106.1064,30.7856,南充市,高坪区监测站,颗粒物(PM10),71,91,116,34,43,150,150,81,81,12,27,13,26,0.3,0.4
2023-04-30T14:00:00,1909A,106.0642,30.7636,南充市,嘉陵区环保局,颗粒物(PM10),73,96,119,34,44,145,145,84,84,12,26,14,20,0.5,0.5
2023-04-30T14:00:00,1910A,106.1087,30.8388,南充市,市环境监测站,颗粒物(PM10),80,110,120,41,45,144,144,87,87,12,23,12,16,0.4,0.4
2023-04-30T14:00:00,1911A,106.9222,27.6869,遵义市,丁字口,,38,26,39,10,20,124,120,62,62,9,20,6,8,0.3,0.4
2023-04-30T14:00:00,1912A,106.9242,27.7019,遵义市,凤凰山,,50,50,52,14,22,116,107,55,55,9,18,4,4,0.6,0.6
2023-04-30T14:00:00,1913A,106.8906,27.6486,遵义市,忠庄,,39,32,58,16,24,131,122,60,60,10,20,2,3,0.1,0.3
2023-04-30T14:00:00,1914A,106.9231,27.6506,遵义市,舟水桥,,39,39,52,18,22,129,119,58,58,6,19,2,2,0.2,0.3
2023-04-30T14:00:00,1915A,106.9178,27.72,遵义市,干田坝,,39,37,48,10,17,127,122,64,64,6,18,5,6,0.5,0.4
2023-04-30T14:00:00,1916A,103.7897,25.5035,曲靖市,环境监测站,颗粒物(PM10),73,96,82,47,32,113,113,69,59,12,16,11,9,0.7,0.7
2023-04-30T14:00:00,1917A,103.8,25.5364,曲靖市,烟厂办公区,颗粒物(PM10),58,65,51,38,23,124,124,70,69,11,14,6,6,0.8,0.8
2023-04-30T14:00:00,1918A,108.7197,34.3956,咸阳市,气象站,颗粒物(PM10),78,106,126,36,51,127,127,56,56,19,58,6,6,0.2,0.3
2023-04-30T14:00:00,1919A,108.673,34.3155,咸阳市,实验中学,颗粒物(PM10),69,87,129,34,49,133,133,60,60,16,45,5,5,0.6,0.7
2023-04-30T14:00:00,1920A,108.7233,34.3617,咸阳市,师范学院,颗粒物(PM10),64,78,131,33,54,130,130,58,58,18,52,8,7,0.5,0.6
2023-04-30T14:00:00,1922A,109.0656,35.0994,铜川市,党校,颗粒物(PM10),82,114,136,41,38,110,110,59,59,35,55,12,11,0.8,0.8
2023-04-30T14:00:00,1923A,109.0697,35.0697,铜川市,王益区政府,颗粒物(PM10),83,115,115,53,55,112,112,64,64,26,41,8,10,0.5,0.5
2023-04-30T14:00:00,1924A,108.9344,34.9058,铜川市,新区管委会,颗粒物(PM10),78,105,100,54,44,132,132,91,91,17,23,8,8,0.4,0.4
2023-04-30T14:00:00,1926A,109.4131,36.6275,延安市,枣园,,44,32,45,13,18,139,139,73,73,6,29,9,8,0.5,0.5
2023-04-30T14:00:00,1927A,109.4761,36.6028,延安市,延大医附院,,42,28,49,13,18,132,132,70,70,5,31,5,4,0.2,0.4
2023-04-30T14:00:00,1929A,109.5056,36.6106,延安市,百米大道,,46,36,54,32,30,126,126,65,65,11,38,10,7,0.1,0.2
2023-04-30T14:00:00,1930A,107.185,34.3063,宝鸡市,庙沟村,颗粒物(PM10),56,61,86,26,37,126,126,85,85,11,17,8,8,0.4,0.4
2023-04-30T14:00:00,1931A,107.0708,34.3017,宝鸡市,竹园沟,颗粒物(PM10),54,58,77,25,32,136,136,81,81,16,22,7,6,0.3,0.3
2023-04-30T14:00:00,1932A,107.1906,34.3672,宝鸡市,三陆医院,颗粒物(PM10),65,79,104,39,47,136,136,70,70,16,33,9,9,0.4,0.5
2023-04-30T14:00:00,1933A,107.1431,34.3547,宝鸡市,监测站,颗粒物(PM10),67,83,93,22,34,127,127,68,68,16,25,7,7,0.2,0.3
2023-04-30T14:00:00,1934A,107.1186,34.3739,宝鸡市,技工学校,颗粒物(PM10),63,76,95,23,35,132,132,68,68,17,25,6,6,0.3,0.3
2023-04-30T14:00:00,1935A,107.3906,34.3528,宝鸡市,陈仓区环保局家属楼,颗粒物(PM10),59,67,118,18,49,213,135,133,128,15,38,6,44,0.5,0.7
2023-04-30T14:00:00,1936A,107.2058,34.3497,宝鸡市,文理学院,颗粒物(PM10),57,64,112,21,41,132,132,72,72,14,31,10,10,0.4,0.5
2023-04-30T14:00:00,1937A,107.2386,34.3622,宝鸡市,三迪小学,颗粒物(PM10),61,72,116,29,49,134,134,70,70,15,34,10,11,0.4,0.5
2023-04-30T14:00:00,1938A,109.5293,34.5101,渭南市,农科所,颗粒物(PM10),85,119,95,48,36,114,113,50,50,24,33,12,9,0.5,0.4
2023-04-30T14:00:00,1939A,109.4974,34.4877,渭南市,日报社,颗粒物(PM10),86,122,91,60,47,121,121,55,55,25,42,9,9,0.5,0.4
2023-04-30T14:00:00,1940A,109.4636,34.493,渭南市,体育馆,颗粒物(PM10),79,107,94,45,44,125,125,55,55,23,49,16,13,0.4,0.4
2023-04-30T14:00:00,1941A,109.4259,34.5023,渭南市,高新一小,颗粒物(PM10),82,113,112,51,40,117,117,54,54,22,42,6,7,0.5,0.4
2023-04-30T14:00:00,1943A,102.1725,38.5339,金昌市,新川苑,颗粒物(PM10),53,56,64,13,14,127,124,104,104,9,23,11,15,0.5,0.6
2023-04-30T14:00:00,1944A,102.1692,38.5167,金昌市,天庆家园,,41,41,49,15,17,132,129,110,110,10,20,24,12,0.5,0.5
2023-04-30T14:00:00,1945A,98.2908,39.7711,嘉峪关市,气象局,细颗粒物(PM2.5),100,80,55,75,17,130,127,95,95,12,33,15,6,0.9,0.8
2023-04-30T14:00:00,1947A,106.3394,38.817,石嘴山市,沙湖旅游区,颗粒物(PM10),70,89,80,30,33,133,133,75,75,16,26,16,16,0.5,0.6
2023-04-30T14:00:00,1948A,106.3668,39.0145,石嘴山市,大武口朝阳西街,颗粒物(PM10),60,70,65,21,21,121,121,78,78,8,24,14,32,0.3,0.5
2023-04-30T14:00:00,1949A,106.7704,39.2282,石嘴山市,惠农南大街,细颗粒物(PM2.5),77,51,65,56,28,118,118,67,67,8,32,12,17,0.5,0.8
2023-04-30T14:00:00,1950A,106.7099,39.1325,石嘴山市,红果子镇惠新街,,40,18,49,16,19,126,126,80,80,7,20,6,12,0.4,0.6
2023-04-30T14:00:00,1951A,84.895,45.6094,克拉玛依市,长征新村,,47,47,48,5,8,147,123,128,113,2,6,8,8,0.2,0.2
2023-04-30T14:00:00,1952A,84.8988,45.5893,克拉玛依市,南林小区,颗粒物(PM10),53,55,50,22,16,139,117,120,110,4,11,4,4,0.2,0.3
2023-04-30T14:00:00,1954A,84.905,44.3396,克拉玛依市,独山子区,颗粒物(PM10),61,72,71,18,22,156,128,113,111,3,14,8,9,0.4,0.5
2023-04-30T14:00:00,1955A,85.6979,46.098,克拉玛依市,乌尔禾区商贸楼,颗粒物(PM10),83,116,59,43,15,138,116,73,73,1,16,11,11,0.2,0.3
2023-04-30T14:00:00,1956A,86.1472,41.7538,巴音郭楞州,孔雀公园,颗粒物(PM10),125,199,188,52,53,120,97,80,39,4,31,4,4,0.2,0.4
2023-04-30T14:00:00,1957A,86.1972,41.7166,巴音郭楞州,棉纺厂,颗粒物(PM10),126,202,190,72,58,110,90,64,49,7,23,4,4,0.4,0.4
2023-04-30T14:00:00,1958A,86.2357,41.7173,巴音郭楞州,经济开发区,颗粒物(PM10),121,191,172,38,46,117,96,68,68,7,16,7,7,0.3,0.2
2023-04-30T14:00:00,1961A,117.532,36.6868,济南市,东山小学,颗粒物(PM10),63,76,110,32,25,123,123,107,93,6,14,7,7,0.4,0.4
2023-04-30T14:00:00,1966A,120.0405,35.8735,青岛市,黄岛区4号,颗粒物(PM10),96,141,82,34,21,137,137,103,103,11,23,11,8,0.7,0.6
2023-04-30T14:00:00,1982A,122.0693,37.2174,威海市,文登开发区,颗粒物(PM10),81,112,52,29,16,111,111,88,76,15,15,9,6,0.3,0.3
2023-04-30T14:00:00,2031A,113.1817,27.9958,株洲市,云田中学,颗粒物(PM10),100,149,157,32,37,167,167,92,92,6,10,5,5,0.2,0.3
2023-04-30T14:00:00,2054A,114.1099,32.1059,信阳市,平桥分局,颗粒物(PM10),119,188,157,54,43,132,132,116,116,6,11,9,8,0.2,0.2
2023-04-30T14:00:00,2064A,113.9956,32.1271,信阳市,南湾水厂,,,,132,,27,101,,99,,,7,,6,,0.3
2023-04-30T14:00:00,2065A,114.0775,32.1195,信阳市,市酿酒公司,颗粒物(PM10),86,122,131,46,49,131,130,116,116,8,17,8,8,0.3,0.3
2023-04-30T14:00:00,2066A,114.0609,32.1399,信阳市,审计局,颗粒物(PM10),95,140,144,46,49,132,130,119,119,10,15,8,8,0.2,0.3
2023-04-30T14:00:00,2067A,114.6613,33.6128,周口市,市环境监测站,颗粒物(PM10),118,186,154,58,51,138,138,99,99,8,14,5,5,0.5,0.5
2023-04-30T14:00:00,2068A,114.6758,33.6347,周口市,周口师范,颗粒物(PM10),117,183,168,73,46,132,132,96,96,10,16,9,8,0.4,0.3
2023-04-30T14:00:00,2069A,114.6546,33.5979,周口市,市运管处,颗粒物(PM10),110,170,136,44,32,135,135,99,99,9,16,8,7,0.2,0.2
2023-04-30T14:00:00,2070A,114.6369,33.6406,周口市,川汇区环保局,颗粒物(PM10),135,219,236,46,48,131,131,97,97,11,16,9,8,0.4,0.3
2023-04-30T14:00:00,2075A,117.6336,24.4674,漳州市,九湖,,,,30,,13,,,,,,22,,3,,
2023-04-30T14:00:00,2160A,112.85,35.5051,晋城市,自来水公司,,50,50,88,14,24,130,130,80,80,11,31,8,8,0.3,0.6
2023-04-30T14:00:00,2161A,112.8318,35.4936,晋城市,白云商贸,,49,49,79,14,26,129,129,84,84,5,27,5,6,0.4,0.6
2023-04-30T14:00:00,2162A,112.8508,35.4887,晋城市,市环保局,,44,44,83,27,30,130,130,81,81,7,31,7,8,0.3,0.6
2023-04-30T14:00:00,2163A,112.8676,35.4897,晋城市,技术学院,,45,45,76,14,36,131,131,82,82,5,27,7,8,0.3,0.5
2023-04-30T14:00:00,2165A,112.8453,35.546,晋城市,白马寺,细颗粒物(PM2.5),52,50,73,36,22,113,113,98,92,10,15,5,6,0.5,0.8
2023-04-30T14:00:00,2166A,112.4397,39.3522,朔州市,平朔,,32,19,67,8,22,107,102,70,70,2,16,3,8,0.3,0.3
2023-04-30T14:00:00,2167A,112.4575,39.3617,朔州市,朔唯,,33,14,74,8,22,113,105,69,69,3,22,8,12,0.5,0.5
2023-04-30T14:00:00,2168A,112.4258,39.3197,朔州市,区政府,,34,19,67,5,16,108,106,75,75,2,12,4,6,0.3,0.4
2023-04-30T14:00:00,2169A,112.4072,39.3278,朔州市,市环保局,,32,32,75,16,23,98,98,70,70,5,19,3,6,0.4,0.5
2023-04-30T14:00:00,2170A,112.4272,39.3681,朔州市,市二中,,34,24,73,8,19,114,107,72,72,3,18,3,8,0.3,0.3
2023-04-30T14:00:00,2171A,112.7532,37.6945,晋中市,锦纶小区,,41,39,100,16,32,130,130,77,77,12,35,10,14,0.2,0.4
2023-04-30T14:00:00,2173A,112.7249,37.7067,晋中市,南都小区,,43,43,102,14,26,128,128,76,76,11,32,8,13,0.4,0.6
2023-04-30T14:00:00,2174A,112.6991,37.6982,晋中市,榆次区政府,,41,41,103,17,28,120,120,70,70,11,35,11,15,0.5,0.7
2023-04-30T14:00:00,2175A,110.9956,35.0147,运城市,运城中学,颗粒物(PM10),68,86,93,43,40,141,141,79,79,10,25,10,9,0.4,0.4
2023-04-30T14:00:00,2178A,110.9686,35.0303,运城市,地区技校,颗粒物(PM10),78,106,106,32,31,140,140,81,81,11,30,9,9,0.4,0.5
2023-04-30T14:00:00,2179A,111.0414,35.1147,运城市,空港新区,颗粒物(PM10),82,113,127,45,43,142,142,72,72,12,31,12,13,0.3,0.7
2023-04-30T14:00:00,2181A,112.7383,38.4519,忻州市,开发区,,37,32,44,2,13,117,117,83,83,6,17,6,13,0.3,0.3
2023-04-30T14:00:00,2182A,112.7003,38.4928,忻州市,会展中心,,33,28,46,6,15,107,105,74,74,8,18,5,6,0.4,0.4
2023-04-30T14:00:00,2183A,111.1406,37.5211,吕梁市,环保局,,45,45,80,24,23,120,111,57,57,8,44,5,6,0.3,0.5
2023-04-30T14:00:00,2185A,111.1297,37.5136,吕梁市,自来水公司,,47,47,109,11,18,113,104,53,53,10,39,5,7,0.3,0.5
2023-04-30T14:00:00,2187A,106.8174,39.6973,乌海市,市林业局,,37,27,67,13,22,118,117,67,67,5,26,12,25,0.6,0.7
2023-04-30T14:00:00,2188A,106.7907,39.6667,乌海市,中海勃湾学校,,38,29,60,5,17,122,121,70,70,7,31,11,24,0.5,0.6
2023-04-30T14:00:00,2191A,122.2532,43.6801,通辽市,艺术职业学校,,31,31,53,0,16,102,98,83,83,10,19,5,5,0.4,0.5
2023-04-30T14:00:00,2192A,119.7594,49.2261,呼伦贝尔市,区环保局,,31,24,26,8,18,97,97,78,78,8,11,4,4,0.4,0.5
2023-04-30T14:00:00,2195A,107.4212,40.761,巴彦淖尔市,附二中,,42,22,47,5,13,134,134,87,87,8,21,7,4,0.5,0.5
2023-04-30T14:00:00,2196A,107.37,40.7372,巴彦淖尔市,市环保大楼,,44,39,62,17,23,138,138,87,87,6,19,9,4,0.5,0.5
2023-04-30T14:00:00,2197A,113.1306,40.9923,乌兰察布市,集宁新区,,35,16,32,12,15,111,111,79,75,4,12,10,11,0.4,0.4
2023-04-30T14:00:00,2200A,122.0392,46.0656,兴安盟,胜华新制药厂,,29,18,29,7,18,94,91,86,86,8,10,2,2,0.4,0.4
2023-04-30T14:00:00,2201A,121.9504,46.0741,兴安盟,科右前旗环保局,,29,16,31,11,16,96,91,89,89,8,10,2,3,0.5,0.5
2023-04-30T14:00:00,2202A,116.1042,43.9317,锡林郭勒盟,市环保监测站,,34,13,24,3,10,109,108,86,86,4,11,7,8,0.2,0.2
2023-04-30T14:00:00,2203A,116.0781,43.9311,锡林郭勒盟,市政府,,34,16,24,5,8,109,108,86,86,5,14,9,8,0.2,0.2
2023-04-30T14:00:00,2204A,105.6467,38.8363,阿拉善盟,西城区西花园,颗粒物(PM10),67,83,62,22,21,116,114,97,97,7,11,8,7,0.4,0.4
2023-04-30T14:00:00,2205A,105.6985,38.8411,阿拉善盟,蒙二幼,颗粒物(PM10),57,64,54,19,21,123,123,106,106,5,8,7,7,0.4,0.4
2023-04-30T14:00:00,2206A,105.724,38.8516,阿拉善盟,环保局新楼,,39,33,45,14,21,123,123,118,112,5,5,6,6,0.5,0.4
2023-04-30T14:00:00,2207A,121.6094,41.998,阜新市,工业园区,,36,36,43,3,13,107,107,90,90,5,16,8,13,0.3,0.5
2023-04-30T14:00:00,2208A,121.6697,42.0279,阜新市,长青街,,33,27,33,2,15,103,103,84,84,7,18,7,12,0.4,0.5
2023-04-30T14:00:00,2209A,121.6673,42.0705,阜新市,农业园区,,43,43,28,6,9,102,102,86,86,9,14,8,10,0.7,0.7
2023-04-30T14:00:00,2210A,121.6717,42.0224,阜新市,东苑,,36,36,41,7,11,101,101,83,83,5,19,6,14,0.6,0.6
2023-04-30T14:00:00,2211A,121.6506,42.0498,阜新市,玉龙新城,,32,30,32,3,10,102,102,85,85,4,16,6,8,0.4,0.6
2023-04-30T14:00:00,2212A,123.2,41.1953,辽阳市,宏伟区,,32,29,27,13,14,101,101,78,78,10,24,11,11,0.4,0.7
2023-04-30T14:00:00,2213A,123.1683,41.2495,辽阳市,新华园,,40,40,34,11,20,92,92,70,70,8,30,10,13,0.3,0.9
2023-04-30T14:00:00,2214A,123.2354,41.2639,辽阳市,滨河路,,34,34,31,7,27,92,92,71,71,8,23,5,7,0.3,0.7
2023-04-30T14:00:00,2215A,123.149,41.2991,辽阳市,铁西工业园,,30,24,40,9,24,95,95,76,76,6,29,8,9,0.4,1
2023-04-30T14:00:00,2216A,123.8139,42.3022,铁岭市,汇工街西,,48,48,34,12,24,102,102,69,69,8,22,10,16,0.4,0.6
2023-04-30T14:00:00,2217A,123.8649,42.2923,铁岭市,水上乐园,,48,48,34,12,23,97,96,70,70,9,20,6,6,0.3,0.4
2023-04-30T14:00:00,2218A,123.8486,42.2867,铁岭市,银州路东段,,29,29,36,14,23,100,89,63,63,8,26,8,8,0.4,0.6
2023-04-30T14:00:00,2219A,123.7153,42.2217,铁岭市,金沙江路北,,41,41,35,13,24,101,100,71,71,11,27,7,8,0.3,0.6
2023-04-30T14:00:00,2220A,120.4318,41.5881,朝阳市,西梁,,34,30,36,4,13,108,108,86,86,7,22,5,6,0.4,0.6
2023-04-30T14:00:00,2221A,120.4521,41.5646,朝阳市,河畔小区,,36,36,31,7,11,106,106,87,87,9,14,8,8,0.6,0.7
2023-04-30T14:00:00,2222A,120.4176,41.5648,朝阳市,八里堡,颗粒物(PM10),56,61,48,2,15,111,111,89,89,6,26,8,9,0.5,0.6
2023-04-30T14:00:00,2223A,120.3806,41.5969,朝阳市,农业园区,,35,34,37,5,14,112,112,95,95,5,20,8,8,0.4,0.5
2023-04-30T14:00:00,2225A,124.4002,43.1713,四平市,一商场,,37,37,33,15,18,100,96,95,75,12,16,4,7,0.3,0.5
2023-04-30T14:00:00,2226A,124.388,43.193,四平市,境园,,30,26,31,12,15,94,93,80,72,10,11,6,5,0.4,0.4
2023-04-30T14:00:00,2227A,125.1358,42.8845,辽源市,环保局,,,,18,,15,108,96,108,85,7,8,10,10,0.5,0.5
2023-04-30T14:00:00,2229A,125.9358,41.7173,通化市,光明,,31,24,12,8,6,106,99,95,90,12,9,10,10,0.2,0.2
2023-04-30T14:00:00,2230A,125.9446,41.7325,通化市,铁路,,31,17,12,11,6,100,99,93,87,10,13,7,7,0.2,0.3
2023-04-30T14:00:00,2231A,126.4219,41.9171,白山市,喜丰,,48,48,22,13,9,97,84,76,76,14,17,8,10,1.3,1.6
2023-04-30T14:00:00,2232A,126.4077,41.9419,白山市,环保局,,37,37,31,6,10,111,90,81,79,6,10,10,10,0.7,0.9
2023-04-30T14:00:00,2233A,124.8006,45.1214,松原市,江南,,32,22,22,10,14,111,102,109,84,4,6,6,5,0.4,0.4
2023-04-30T14:00:00,2234A,124.7965,45.1722,松原市,江北,,30,29,21,9,16,98,94,97,79,8,10,4,3,0.5,0.5
2023-04-30T14:00:00,2235A,122.7911,45.6077,白城市,洮北区环保局,,34,20,26,6,13,107,107,96,96,6,9,1,2,0.2,0.2
2023-04-30T14:00:00,2236A,122.8738,45.5725,白城市,市环保局,,,31,40,8,13,104,104,94,94,,8,4,4,0.3,0.4
2023-04-30T14:00:00,2237A,129.47,42.8883,延边朝鲜族自治州,妇幼医院,,31,14,7,6,5,104,97,87,87,11,12,7,7,0.5,0.6
2023-04-30T14:00:00,2238A,129.5055,42.9108,延边朝鲜族自治州,延边医院,,29,19,14,8,3,97,92,82,82,12,12,6,6,0.4,0.5
2023-04-30T14:00:00,2239A,129.3964,42.8881,延边朝鲜族自治州,朝阳川镇医院,,31,12,7,5,4,107,97,89,89,8,9,7,7,0.4,0.5
2023-04-30T14:00:00,2240A,130.9762,45.3001,鸡西市,环保局,,,,16,,15,95,,95,60,,15,,5,,0.3
2023-04-30T14:00:00,2243A,130.9429,45.3039,鸡西市,第一中学,,23,13,14,10,11,94,71,94,56,6,11,8,5,0.3,0.4
2023-04-30T14:00:00,2244A,130.2537,47.3416,鹤岗市,哈啤分公司,,22,17,29,8,15,90,69,77,75,13,9,13,12,0.3,0.3
2023-04-30T14:00:00,2245A,130.2684,47.3086,鹤岗市,斯达机电,,22,15,33,11,19,86,70,72,71,7,8,8,8,0.4,0.3
2023-04-30T14:00:00,2246A,130.3114,47.3388,鹤岗市,东山纸板厂,,21,18,29,13,19,84,66,72,69,13,10,8,8,0.2,0.3
2023-04-30T14:00:00,2247A,130.1097,47.3382,鹤岗市,五号水库,,24,13,22,11,17,101,74,85,83,11,7,10,10,0.1,0.1
2023-04-30T14:00:00,2248A,131.1511,46.6937,双鸭山市,双合村,,26,16,22,16,12,93,82,69,69,6,8,5,5,0.5,0.5
2023-04-30T14:00:00,2249A,131.1652,46.6191,双鸭山市,南小市,,26,12,22,13,13,92,83,67,67,7,8,4,4,0.5,0.5
2023-04-30T14:00:00,2250A,131.1524,46.6554,双鸭山市,环保局,,36,20,26,25,20,92,81,67,67,6,7,5,5,0.4,0.4
2023-04-30T14:00:00,2251A,131.12,46.5656,双鸭山市,苗圃,,30,30,25,21,17,90,86,77,77,9,8,3,4,0.3,0.3
2023-04-30T14:00:00,2252A,128.5159,47.4311,伊春市,环保局,,28,5,15,10,11,110,89,102,84,6,7,6,5,0.3,0.3
2023-04-30T14:00:00,2253A,128.9102,47.7412,伊春市,电力嘉园,,28,11,23,11,17,102,89,95,83,2,6,4,5,0.5,0.5
2023-04-30T14:00:00,2254A,129.5029,48.471,伊春市,汤旺河国家公园,,30,10,15,17,18,108,95,86,86,2,3,4,4,0.5,0.5
2023-04-30T14:00:00,2255A,130.2751,46.8028,佳木斯市,佳纺,,25,10,28,10,15,87,77,72,72,10,10,3,4,0.4,0.4
2023-04-30T14:00:00,2256A,130.3995,46.8307,佳木斯市,发电厂,,27,10,37,10,17,92,84,74,74,8,8,4,5,0.3,0.3
2023-04-30T14:00:00,2257A,130.3258,46.7975,佳木斯市,环保局,,21,16,31,11,16,77,65,63,63,20,15,4,4,0.5,0.5
2023-04-30T14:00:00,2258A,130.3648,46.8032,佳木斯市,十一中,,24,12,28,10,16,88,76,70,70,11,10,6,6,0.3,0.3
2023-04-30T14:00:00,2259A,130.3794,46.7588,佳木斯市,四丰,,30,11,26,12,18,108,95,86,86,10,11,1,1,0.2,0.2
2023-04-30T14:00:00,2262A,131.0518,45.8751,七台河市,新一中,,27,10,18,9,14,104,84,80,75,5,8,6,7,0.6,0.6
2023-04-30T14:00:00,2263A,127.4833,50.2524,黑河市,交通局,,29,6,11,7,13,94,91,80,80,8,11,9,6,0.4,0.5
2023-04-30T14:00:00,2264A,127.5144,50.2341,黑河市,环保局,,28,10,22,7,17,89,89,76,76,8,11,3,7,0.2,0.4
2023-04-30T14:00:00,2265A,127.5291,50.2472,黑河市,大黑河岛,,35,3,14,3,15,125,110,98,98,1,3,3,4,0.3,0.3
2023-04-30T14:00:00,2266A,126.9785,46.6365,绥化市,人和东街,,28,21,25,12,16,89,87,84,84,7,12,6,6,0.4,0.4
2023-04-30T14:00:00,2267A,126.964,46.6528,绥化市,党政办公中心,,32,18,22,13,16,104,100,98,98,5,9,5,6,0.3,0.3
2023-04-30T14:00:00,2269A,124.1069,50.4097,大兴安岭地区,科技局,,32,15,14,10,13,103,102,91,91,4,5,4,4,0.4,0.4
2023-04-30T14:00:00,2270A,117.396,32.939,蚌埠市,工人疗养院,颗粒物(PM10),91,131,112,35,39,141,141,108,108,15,30,8,10,0.4,0.4
2023-04-30T14:00:00,2271A,117.3605,32.9427,蚌埠市,百货大楼,颗粒物(PM10),95,140,118,43,31,138,138,102,102,10,24,6,8,0.4,0.3
2023-04-30T14:00:00,2273A,117.4185,32.8911,蚌埠市,蚌埠学院,颗粒物(PM10),97,144,143,41,43,134,134,96,96,8,27,7,15,0.3,0.5
2023-04-30T14:00:00,2274A,117.3533,32.9673,蚌埠市,淮上区政府,颗粒物(PM10),101,151,134,46,36,139,139,103,103,8,24,6,9,0.3,0.3
2023-04-30T14:00:00,2275A,117.3145,32.8977,蚌埠市,高新区,颗粒物(PM10),97,144,137,44,47,135,135,92,92,5,29,7,9,0.4,0.4
2023-04-30T14:00:00,2277A,116.8305,32.7727,淮南市,潘集区政府,颗粒物(PM10),101,152,135,53,48,135,135,98,98,8,17,5,5,0.2,0.2
2023-04-30T14:00:00,2278A,117.0067,32.6524,淮南市,师范学院,颗粒物(PM10),102,153,130,41,38,127,127,94,94,19,21,5,6,0.2,0.2
2023-04-30T14:00:00,2279A,116.8569,32.5951,淮南市,谢家集区政府,颗粒物(PM10),94,138,121,32,33,136,136,94,94,3,15,4,4,0.2,0.1
2023-04-30T14:00:00,2280A,116.8281,32.633,淮南市,八公山区政府,颗粒物(PM10),101,152,149,25,22,133,133,102,102,7,11,7,6,0.2,0.2
2023-04-30T14:00:00,2281A,116.6325,32.6201,淮南市,焦岗湖风景区管理处,颗粒物(PM10),78,106,94,42,41,129,129,88,88,8,12,10,9,0.2,0.1
2023-04-30T14:00:00,2282A,116.8004,33.975,淮北市,监测站,颗粒物(PM10),104,157,118,50,42,132,132,102,102,8,18,7,7,0.5,0.5
2023-04-30T14:00:00,2283A,116.8091,33.9007,淮北市,烈山区政府,颗粒物(PM10),91,132,130,56,46,132,132,98,98,9,26,9,11,0.6,0.6
2023-04-30T14:00:00,2284A,116.7856,33.9477,淮北市,职业技术学院,颗粒物(PM10),123,195,184,58,46,129,129,100,100,8,17,8,8,0.4,0.5
2023-04-30T14:00:00,2285A,117.8177,30.9412,铜陵市,市第四中学,颗粒物(PM10),121,192,121,36,33,123,123,81,81,12,28,11,11,0.3,0.8
2023-04-30T14:00:00,2286A,117.8059,30.9273,铜陵市,市公路局,颗粒物(PM10),123,196,106,81,47,126,126,86,86,9,20,10,8,0.8,1
2023-04-30T14:00:00,2287A,117.7807,30.9413,铜陵市,市新民污水厂,颗粒物(PM10),106,162,105,34,32,118,,75,75,11,30,10,15,0.5,0.4
2023-04-30T14:00:00,2288A,117.7439,30.8792,铜陵市,市第九中学,颗粒物(PM10),113,176,121,36,26,123,123,82,82,19,24,10,6,0.5,0.4
2023-04-30T14:00:00,2289A,117.846,30.9413,铜陵市,车站新区,颗粒物(PM10),91,131,88,42,25,117,117,82,82,12,22,14,8,0.7,0.6
2023-04-30T14:00:00,2290A,117.8483,30.97,铜陵市,市职教基地,颗粒物(PM10),92,134,101,38,31,121,121,78,78,9,26,8,6,0.6,0.9
2023-04-30T14:00:00,2291A,117.0809,30.5177,安庆市,环科院,颗粒物(PM10),121,192,127,41,35,127,127,81,81,9,38,7,7,0.3,0.4
2023-04-30T14:00:00,2292A,117.0331,30.5119,安庆市,马山宾馆,颗粒物(PM10),119,187,124,36,33,126,126,75,75,8,32,10,9,0.3,0.4
2023-04-30T14:00:00,2294A,116.9896,30.6145,安庆市,安庆大学,颗粒物(PM10),110,169,125,39,33,132,132,73,73,9,26,14,11,0.5,0.3
2023-04-30T14:00:00,2295A,118.2903,29.6963,黄山市,延安路89号,细颗粒物(PM2.5),125,143,189,95,122,100,100,52,52,4,8,6,6,0.2,0.3
2023-04-30T14:00:00,2296A,118.327,29.7178,黄山市,黄山东路89号,颗粒物(PM10),62,74,147,34,61,101,101,55,55,5,9,6,6,0.4,0.5
2023-04-30T14:00:00,2297A,118.1371,30.2756,黄山市,黄山区政府5号楼,颗粒物(PM10),53,56,143,12,33,117,113,71,71,6,9,5,6,0.4,0.4
2023-04-30T14:00:00,2298A,118.3093,32.3153,滁州市,老年大学,颗粒物(PM10),68,86,85,25,23,133,133,107,107,5,13,6,6,0.3,0.3
2023-04-30T14:00:00,2299A,118.3244,32.2786,滁州市,人大宾馆,颗粒物(PM10),80,110,104,30,29,133,133,103,103,11,18,6,7,0.3,0.4
2023-04-30T14:00:00,2301A,115.8277,32.8929,阜阳市,市监测站,颗粒物(PM10),103,155,124,52,37,122,122,105,105,11,16,6,6,0.3,0.3
2023-04-30T14:00:00,2303A,115.8554,32.8605,阜阳市,开发区,颗粒物(PM10),117,184,155,43,33,131,131,101,101,7,18,8,8,0.4,0.4
2023-04-30T14:00:00,2307A,116.5079,31.737,六安市,监测大楼,颗粒物(PM10),61,71,92,22,30,123,123,87,87,4,20,3,4,0.1,0.2
2023-04-30T14:00:00,2308A,116.4738,31.7643,六安市,皖西学院,,,68,89,13,23,131,131,93,93,,15,4,4,0.1,0.1
2023-04-30T14:00:00,2309A,116.4996,31.7905,六安市,朝阳厂,颗粒物(PM10),57,63,78,31,22,135,135,101,101,5,18,4,5,0.2,0.3
2023-04-30T14:00:00,2310A,116.5567,31.7886,六安市,开发区,颗粒物(PM10),66,81,101,19,31,128,128,89,89,7,28,4,6,0.2,0.3
2023-04-30T14:00:00,2311A,115.8072,33.8399,亳州市,污水处理厂,颗粒物(PM10),91,132,118,33,31,139,139,105,105,8,12,5,10,0.3,0.3
2023-04-30T14:00:00,2312A,115.7789,33.8518,亳州市,三国揽胜宫,颗粒物(PM10),96,141,125,54,32,131,131,100,100,6,9,5,10,0.3,0.3
2023-04-30T14:00:00,2314A,117.47,30.6618,池州市,池州学院,颗粒物(PM10),107,164,110,45,21,134,134,86,86,10,15,12,5,0.6,0.5
2023-04-30T14:00:00,2316A,118.7581,30.9454,宣城市,鳌峰子站,颗粒物(PM10),58,66,121,20,30,100,100,74,74,10,18,3,4,0.3,0.4
2023-04-30T14:00:00,2317A,118.7385,30.9743,宣城市,敬亭山子站,颗粒物(PM10),68,86,122,22,32,105,103,79,79,12,19,5,7,0.2,0.3
2023-04-30T14:00:00,2318A,118.7173,30.9427,宣城市,开发区子站,颗粒物(PM10),57,63,108,18,29,106,106,79,79,7,20,5,8,0.4,0.5
2023-04-30T14:00:00,2319A,119.0141,25.4325,莆田市,荔城区仓后路,,37,37,26,7,11,172,81,91,71,12,13,5,5,0.6,0.7
2023-04-30T14:00:00,2320A,119.0015,25.4553,莆田市,莆田市监测站,,36,36,27,9,17,190,77,92,67,15,12,7,7,0.5,0.6
2023-04-30T14:00:00,2321A,119.1119,25.4561,莆田市,涵江区六中,,38,38,34,12,16,179,87,95,76,11,11,6,7,0.5,0.6
2023-04-30T14:00:00,2322A,119.1013,25.3215,莆田市,秀屿区政府,,39,39,29,16,19,137,95,89,82,12,10,6,6,0.5,0.8
2023-04-30T14:00:00,2323A,118.981,25.4792,莆田市,东圳水库,,,,20,,12,,,,,,8,,5,,
2023-04-30T14:00:00,2324A,117.6211,26.2625,三明市,三钢,,30,30,40,19,21,71,71,52,49,7,13,6,11,0.4,0.6
2023-04-30T14:00:00,2325A,117.635,26.2714,三明市,三明二中,,34,34,34,16,17,72,72,58,52,11,14,3,6,0.5,0.5
2023-04-30T14:00:00,2326A,117.6028,26.2378,三明市,三元区政府,,31,31,42,11,19,70,70,57,50,10,11,6,10,0.6,0.6
2023-04-30T14:00:00,2327A,117.7275,26.3108,三明市,洋溪,,,,29,,24,,,,,,18,,7,,
2023-04-30T14:00:00,2331A,118.0966,26.6761,南平市,茫荡山,,,,,,4,,,,,,1,,5,,
2023-04-30T14:00:00,2332A,118.1681,26.6369,南平市,南平市监测站,,22,22,20,11,10,66,61,60,53,6,6,4,2,0.5,0.5
2023-04-30T14:00:00,2333A,118.1825,26.6489,南平市,南平铝业有限公司,,21,16,22,12,12,72,65,65,56,5,7,4,4,0.6,0.7
2023-04-30T14:00:00,2334A,118.1756,26.6272,南平市,南平七中,,,,16,,8,65,,54,54,,7,,4,,0.5
2023-04-30T14:00:00,2335A,117.0189,25.1181,龙岩市,龙岩师专,,,,16,,16,,,,,,7,,5,,
2023-04-30T14:00:00,2336A,117.0217,25.1033,龙岩市,龙岩市监测站,,34,34,16,18,10,90,60,49,49,17,12,7,7,0.6,0.5
2023-04-30T14:00:00,2337A,117.0258,25.0661,龙岩市,闽西职业技术学院,,36,36,18,16,12,84,47,48,41,19,12,8,7,0.5,0.5
2023-04-30T14:00:00,2338A,117.0196,25.0306,龙岩市,龙岩学院,,30,30,21,21,10,92,49,42,42,14,12,10,5,0.5,0.5
2023-04-30T14:00:00,2339A,119.5001,26.6946,宁德市,金涵水库,,,,34,,20,,,,,,13,,1,,
2023-04-30T14:00:00,2341A,119.5388,26.6612,宁德市,宁德市监测站,颗粒物(PM10),56,61,37,20,24,140,103,83,83,13,15,4,4,0.4,0.5
2023-04-30T14:00:00,2342A,117.3102,29.3867,景德镇市,王港中学,颗粒物(PM10),104,158,143,22,35,78,78,45,45,10,9,10,8,0.1,0.2
2023-04-30T14:00:00,2343A,117.2117,29.2933,景德镇市,老干部活动中心,颗粒物(PM10),117,184,208,42,46,126,126,57,57,15,18,13,7,0.5,0.5
2023-04-30T14:00:00,2344A,117.1894,29.2789,景德镇市,兽医站,颗粒物(PM10),119,188,214,33,43,136,136,62,62,15,18,8,6,0.6,0.5
2023-04-30T14:00:00,2345A,117.1547,29.2617,景德镇市,台达陶瓷,颗粒物(PM10),131,211,229,35,45,113,113,57,57,25,27,45,23,0.5,0.5
2023-04-30T14:00:00,2346A,117.2461,29.2956,景德镇市,陶研所,颗粒物(PM10),110,169,200,28,38,124,124,59,59,12,9,9,5,0.5,0.4
2023-04-30T14:00:00,2347A,114.0997,27.5002,萍乡市,武功山,颗粒物(PM10),89,127,100,37,34,72,26,25,15,5,5,6,11,0.9,0.5
2023-04-30T14:00:00,2348A,113.8385,27.6434,萍乡市,中医院,颗粒物(PM10),74,98,109,32,38,119,119,66,66,14,17,11,9,0.7,0.6
2023-04-30T14:00:00,2349A,113.8493,27.6253,萍乡市,市政府车库,颗粒物(PM10),95,140,121,40,38,122,122,65,65,7,14,16,12,0.8,0.7
2023-04-30T14:00:00,2350A,113.8676,27.6435,萍乡市,市环保局,颗粒物(PM10),99,148,122,50,40,116,116,62,62,7,18,11,10,0.8,0.6
2023-04-30T14:00:00,2351A,113.866,27.6198,萍乡市,安源区政府,颗粒物(PM10),90,130,112,27,29,105,105,57,57,9,12,14,9,0.8,0.5
2023-04-30T14:00:00,2352A,115.0861,27.9317,新余市,北岗,颗粒物(PM10),86,122,90,36,27,115,115,57,57,4,11,8,6,0.4,0.5
2023-04-30T14:00:00,2353A,114.9886,27.8431,新余市,飞宇,颗粒物(PM10),102,153,117,50,32,155,155,76,76,16,25,18,6,1.1,0.5
2023-04-30T14:00:00,2354A,114.9231,27.8246,新余市,第二水厂,颗粒物(PM10),112,174,123,52,31,134,134,70,70,19,24,20,10,1.1,0.5
2023-04-30T14:00:00,2355A,114.9308,27.8036,新余市,市气象局,细颗粒物(PM2.5),169,236,126,128,45,134,134,65,65,33,20,60,20,3.1,1.1
2023-04-30T14:00:00,2357A,116.9822,28.1136,鹰潭市,龙虎山,颗粒物(PM10),143,235,224,50,53,127,127,75,75,3,4,3,3,0.4,0.3
2023-04-30T14:00:00,2358A,117.0564,28.2642,鹰潭市,新监测站,颗粒物(PM10),132,213,257,35,45,129,129,75,75,2,9,1,6,0.3,0.2
2023-04-30T14:00:00,2359A,117.0311,28.2475,鹰潭市,财苑宾馆,颗粒物(PM10),139,227,270,40,43,129,129,76,76,3,10,6,6,0.3,0.2
2023-04-30T14:00:00,2360A,117.0222,28.2264,鹰潭市,体育馆,颗粒物(PM10),133,215,249,37,44,129,129,70,70,2,10,4,4,0,0
2023-04-30T14:00:00,2361A,117.0017,28.2131,鹰潭市,三川水表,颗粒物(PM10),138,226,255,50,58,128,128,75,75,1,6,3,3,0.2,0.3
2023-04-30T14:00:00,2362A,114.9017,25.9149,赣州市,通天岩,颗粒物(PM10),100,150,93,43,33,112,112,78,78,4,4,7,7,1.2,1.3
2023-04-30T14:00:00,2363A,114.9367,25.8664,赣州市,地委,颗粒物(PM10),121,192,115,50,36,108,108,67,67,2,6,14,11,0.8,0.8
2023-04-30T14:00:00,2364A,114.9461,25.8481,赣州市,气象台,颗粒物(PM10),95,139,94,34,28,100,100,68,68,5,10,10,8,0.2,0.2
2023-04-30T14:00:00,2365A,114.9322,25.8333,赣州市,市图书馆,颗粒物(PM10),111,172,111,36,29,122,122,79,79,5,9,9,6,1.1,1.1
2023-04-30T14:00:00,2366A,114.8905,25.8471,赣州市,华坚鞋城,颗粒物(PM10),116,182,116,35,28,108,108,70,70,4,6,7,8,0.5,0.5
2023-04-30T14:00:00,2367A,114.9754,27.0803,吉安市,红声器材厂,颗粒物(PM10),82,113,118,32,33,117,117,71,71,7,12,8,8,0.6,0.5
2023-04-30T14:00:00,2368A,114.9658,27.0999,吉安市,市森林工业局,颗粒物(PM10),76,102,104,35,34,108,108,67,67,5,10,6,6,0.4,0.5
2023-04-30T14:00:00,2369A,114.99,27.1312,吉安市,市环境监测站,颗粒物(PM10),77,103,95,28,31,114,114,70,70,8,16,8,8,0.3,0.4
2023-04-30T14:00:00,2370A,115.0093,27.0968,吉安市,青原区法院,颗粒物(PM10),79,108,102,36,32,120,120,75,75,10,17,11,11,0.6,0.7
2023-04-30T14:00:00,2371A,114.3408,27.8064,宜春市,槟榔水业,颗粒物(PM10),101,152,106,53,31,87,87,43,43,5,10,7,7,0.2,0.4
2023-04-30T14:00:00,2373A,114.3956,27.7844,宜春市,市石油公司,颗粒物(PM10),108,165,117,42,33,133,133,72,72,5,12,6,7,0.4,0.5
2023-04-30T14:00:00,2374A,114.3703,27.7914,宜春市,市气象局,颗粒物(PM10),91,132,114,26,31,138,138,76,76,9,14,5,6,0.8,0.7
2023-04-30T14:00:00,2375A,114.4013,27.8074,宜春市,市广电局,颗粒物(PM10),100,149,121,40,31,138,138,77,77,7,15,7,10,0.7,0.6
2023-04-30T14:00:00,2376A,116.2127,28.0814,抚州市,桐源党溪,颗粒物(PM10),114,178,137,38,33,144,144,82,82,3,6,4,4,0.8,0.9
2023-04-30T14:00:00,2377A,116.3544,27.9831,抚州市,市站,颗粒物(PM10),138,225,247,46,57,122,122,70,70,6,13,16,10,0.2,0.4
2023-04-30T14:00:00,2378A,116.3565,27.963,抚州市,血防站,颗粒物(PM10),131,211,240,45,56,128,128,73,73,5,15,10,5,0.6,0.6
2023-04-30T14:00:00,2379A,116.3564,28.0007,抚州市,采茶剧团,颗粒物(PM10),131,211,229,66,63,132,132,73,73,7,14,4,4,0.7,0.7
2023-04-30T14:00:00,2380A,116.385,27.9647,抚州市,医学分院,颗粒物(PM10),137,224,254,42,53,127,127,75,75,4,13,10,6,0.8,0.7
2023-04-30T14:00:00,2381A,118.005,28.4572,上饶市,百草园,颗粒物(PM10),99,148,122,29,34,118,118,61,61,1,2,2,5,0.9,0.8
2023-04-30T14:00:00,2382A,117.9756,28.4436,上饶市,市监测站,颗粒物(PM10),112,173,185,48,43,127,127,77,68,12,17,4,11,0.5,0.5
2023-04-30T14:00:00,2383A,117.9519,28.4628,上饶市,凤凰光学,颗粒物(PM10),118,185,163,47,38,129,129,70,70,8,20,5,14,0.5,0.6
2023-04-30T14:00:00,2385A,114.17,35.9019,鹤壁市,市监测站,颗粒物(PM10),51,52,86,20,29,123,123,101,101,15,19,11,7,0.6,0.7
2023-04-30T14:00:00,2386A,114.2956,35.7511,鹤壁市,市交警支队,,49,49,103,15,28,119,119,75,75,16,41,6,8,0.2,0.4
2023-04-30T14:00:00,2387A,114.2878,35.7306,鹤壁市,迎宾馆,颗粒物(PM10),52,54,102,16,37,122,122,79,79,16,36,8,12,0.8,0.8
2023-04-30T14:00:00,2389A,113.836,35.311,新乡市,环保西院,颗粒物(PM10),68,86,116,29,41,127,127,78,78,10,25,8,9,0.5,0.5
2023-04-30T14:00:00,2390A,113.884,35.272,新乡市,开发区,颗粒物(PM10),64,78,111,41,34,126,126,82,82,12,27,13,17,0.7,0.6
2023-04-30T14:00:00,2391A,113.883,35.303,新乡市,环保东院,颗粒物(PM10),59,67,90,19,29,130,130,84,84,10,28,6,10,0.5,0.5
2023-04-30T14:00:00,2392A,115.0312,35.7636,濮阳市,环保局,颗粒物(PM10),64,77,112,22,34,127,127,86,86,7,21,9,11,0.3,0.4
2023-04-30T14:00:00,2394A,115.0574,35.7609,濮阳市,油田运输公司,颗粒物(PM10),73,95,122,29,38,133,133,88,88,7,23,10,13,0.2,0.3
2023-04-30T14:00:00,2395A,115.0866,35.7754,濮阳市,油田物探公司,细颗粒物(PM2.5),94,82,118,70,48,128,128,85,85,8,20,7,10,0.1,0.2
2023-04-30T14:00:00,2396A,113.8276,34.0159,许昌市,监测站,颗粒物(PM10),80,110,127,52,51,138,138,93,93,10,21,8,9,0.4,0.5
2023-04-30T14:00:00,2398A,113.7906,33.9953,许昌市,开发区,颗粒物(PM10),119,188,138,37,49,139,139,89,89,7,21,5,7,0.3,0.4
2023-04-30T14:00:00,2399A,114.051,33.5699,漯河市,三五一五工厂,颗粒物(PM10),86,122,150,39,40,136,136,106,106,4,21,8,9,0.3,0.4
2023-04-30T14:00:00,2400A,114.0055,33.5698,漯河市,漯河大学,颗粒物(PM10),90,129,142,35,35,135,135,101,101,2,20,7,8,0.3,0.3
2023-04-30T14:00:00,2401A,114.0138,33.5828,漯河市,市水利局,颗粒物(PM10),102,153,148,48,51,131,131,102,102,6,16,7,7,0.2,0.2
2023-04-30T14:00:00,2402A,114.0261,33.5698,漯河市,市广电局,颗粒物(PM10),97,144,140,40,36,140,140,107,107,6,17,7,8,0.2,0.3
