timepoint,stationcode,longitude,latitude,area,positionname,primarypollutant,aqi,pm10,pm10_24h,pm2_5,pm2_5_24h,o3,o3_24h,o3_8h,o3_8h_24h,no2,no2_24h,so2,so2_24h,co,co_24h
2025-08-10T2000,2566A,102.1879,31.914,阿坝藏族羌族自治州,州农科所,,19,16,19,8,9,58,,56,56,8,7,15,15,0.1,0.1
2025-08-10T2000,2568A,102.2502,31.8896,阿坝藏族羌族自治州,马师校,,35,,13,24,12,53,,56,56,6,7,8,8,0.7,0.7
2025-08-10T2000,3994A,102.2165,31.9024,阿坝藏族羌族自治州,马尔康中学西区,,23,,12,16,12,69,,67,67,3,4,8,8,0.6,0.7
2025-08-10T2000,2695A,80.292,41.1694,阿克苏地区,电视台,,48,42,49,15,24,153,,150,150,4,15,2,2,0.6,0.8
2025-08-10T2000,2696A,80.2613,41.1551,阿克苏地区,艺术中心,臭氧1小时,59,50,60,23,26,167,,155,155,1,18,5,4,0.4,0.6
2025-08-10T2000,2204A,105.6467,38.8363,阿拉善盟,西城区西花园,颗粒物(PM10),59,67,38,13,15,122,,146,143,15,11,7,9,0.6,0.7
2025-08-10T2000,2205A,105.6985,38.8411,阿拉善盟,蒙二幼,颗粒物(PM10),56,61,32,16,12,113,,126,124,6,5,9,11,0.5,0.5
2025-08-10T2000,2206A,105.724,38.8516,阿拉善盟,环保局新楼,,39,39,24,13,12,118,,126,125,7,5,9,11,0.4,0.5
2025-08-10T2000,2708A,88.1264,47.8517,阿勒泰地区,市站,,25,15,13,3,5,78,,82,82,8,8,3,3,0.4,0.5
2025-08-10T2000,2630A,80.1161,32.5,阿里地区,阿里监测站,,30,6,5,3,2,94,,101,101,8,4,6,6,0.3,0.3
2025-08-10T2000,3192A,80.0903,32.5028,阿里地区,阿里藏医院,,33,12,6,3,2,103,,111,110,7,3,4,4,0.2,0.2
2025-08-10T2000,2642A,109.0318,32.6537,安康市,香溪洞,,22,10,10,3,4,70,,90,81,2,5,7,8,0.5,0.6
2025-08-10T2000,2644A,109.0072,32.6975,安康市,汉滨区检察院,,20,11,12,3,6,62,,86,76,5,6,4,6,0.4,0.5
2025-08-10T2000,4054A,109.0325,32.6913,安康市,市邮政管理局,,22,11,11,3,6,70,,83,79,4,4,4,4,0.6,0.7
2025-08-10T2000,2291A,117.0809,30.5177,安庆市,环科院,,42,42,30,27,21,71,,109,107,22,17,4,5,0.7,0.6
2025-08-10T2000,2292A,117.0331,30.5119,安庆市,马山宾馆,细颗粒物(PM2.5),52,39,32,36,22,82,,101,100,8,28,3,4,0.7,0.7
2025-08-10T2000,2294A,116.9896,30.6145,安庆市,安庆大学,,47,47,37,26,19,60,,110,107,21,16,2,4,0.7,0.5
2025-08-10T2000,3173A,117.0598,30.5351,安庆市,市人大,,48,42,31,33,23,86,,116,114,17,19,3,4,0.6,0.6
2025-08-10T2000,3122A,105.9606,26.2611,安顺市,伍家关,,22,14,13,6,9,69,,72,72,6,4,4,4,0.4,0.5
2025-08-10T2000,3123A,105.9408,26.2431,安顺市,凤凰山,,21,16,16,13,10,66,,72,72,6,4,3,2,0.5,0.4
2025-08-10T2000,3124A,105.9439,26.2564,安顺市,金钟山,,20,19,28,12,12,64,,70,70,4,3,5,5,0.5,0.5
2025-08-10T2000,3125A,105.8983,26.2481,安顺市,娄家坡,,20,16,15,13,17,62,,66,66,4,4,6,6,0.5,0.5
2025-08-10T2000,1818A,114.4839,36.0621,安阳市,棉研所,,,,,,,,,,,,,,,,
2025-08-10T2000,1819A,114.3551,36.1017,安阳市,红庙街,,35,26,30,9,13,111,,134,127,12,14,3,4,0.5,0.5
2025-08-10T2000,1820A,114.361,36.0681,安阳市,银杏小区,,33,26,29,9,15,104,,133,125,14,12,5,6,0.3,0.4
2025-08-10T2000,3141A,114.3922,36.0878,安阳市,信访局,,35,24,26,3,9,111,,139,129,9,9,5,5,0.5,0.6
2025-08-10T2000,3669A,114.4705,36.0637,安阳市,左辅环卫站,,,31,32,,15,85,,128,116,14,10,6,7,0.6,0.6
2025-08-10T2000,3703A,114.2917,36.0949,安阳市,安钢职工学校,,33,33,31,9,18,99,,133,124,10,9,4,5,0.4,0.5
2025-08-10T2000,1748A,123.044,41.1196,鞍山市,深沟寺,,24,20,30,9,19,74,,90,85,14,12,6,8,0.6,1.5
2025-08-10T2000,1749A,123.011,41.0931,鞍山市,太阳城,,27,18,33,9,21,84,,105,99,11,14,6,8,0.5,1.4
2025-08-10T2000,1750A,123.0485,41.1442,鞍山市,太平,颗粒物(PM10),58,66,46,39,24,44,,107,99,47,20,7,10,1.2,1.4
2025-08-10T2000,1751A,122.9642,41.0971,鞍山市,铁西三道街,,24,24,45,15,28,64,,105,98,35,23,8,10,1.0,1.5
2025-08-10T2000,1753A,123.022,41.0821,鞍山市,明达新区,,21,18,31,6,19,66,,99,92,17,14,8,9,0.7,1.2
2025-08-10T2000,1754A,123.1289,41.0228,鞍山市,千山,,,,,,,,,,,,,,,,
2025-08-10T2000,4201A,122.9446,41.0826,鞍山市,兴盛南路290号,,41,41,45,14,24,29,,109,96,77,25,11,13,0.8,1.4
2025-08-10T2000,2195A,107.4212,40.761,巴彦淖尔市,附二中,颗粒物(PM10),78,106,35,17,15,110,,132,130,14,8,6,7,0.5,0.6
2025-08-10T2000,2196A,107.37,40.7372,巴彦淖尔市,市环保大楼,颗粒物(PM10),62,73,35,18,11,82,,120,115,12,9,7,7,0.4,0.4
2025-08-10T2000,1956A,86.1472,41.7538,巴音郭楞蒙古自治州,孔雀公园,颗粒物(PM10),56,61,55,24,20,122,,124,124,4,35,4,4,0.2,0.4
2025-08-10T2000,1957A,86.1972,41.7166,巴音郭楞蒙古自治州,棉纺厂,颗粒物(PM10),70,89,62,12,10,128,,133,133,1,21,4,5,0.2,0.3
2025-08-10T2000,1958A,86.2357,41.7173,巴音郭楞蒙古自治州,经济开发区,颗粒物(PM10),57,63,40,17,9,130,,131,131,4,12,4,4,0.2,0.2
2025-08-10T2000,2914A,106.7677,31.8794,巴中市,苏山坪,,28,8,10,3,8,89,,76,76,5,5,3,3,0.3,0.3
2025-08-10T2000,3181A,106.7768,31.8526,巴中市,市五中,,27,15,11,7,9,84,,78,78,10,7,9,9,0.4,0.5
2025-08-10T2000,3183A,106.7418,31.8654,巴中市,圣泉水务公司,,29,7,11,3,7,92,,82,82,3,3,8,8,0.5,0.6
2025-08-10T2000,3616A,106.7616,31.8344,巴中市,市中心医院,,29,,14,11,12,90,,76,76,4,7,10,9,0.3,0.4
2025-08-10T2000,2235A,122.7911,45.6077,白城市,洮北区环保局,,20,14,13,7,11,61,,74,74,5,6,3,3,0.3,0.3
2025-08-10T2000,2236A,122.8738,45.5725,白城市,市环保局,,19,9,11,3,7,59,,71,70,6,8,4,3,0.4,0.4
2025-08-10T2000,2231A,126.4219,41.9171,白山市,喜丰,,42,42,21,11,10,7,,81,65,34,10,4,5,0.5,0.5
2025-08-10T2000,2232A,126.4077,41.9419,白山市,环保局,,30,30,22,10,8,34,,84,73,11,7,5,5,0.7,0.7
2025-08-10T2000,2647A,104.1724,36.5446,白银市,第三小学,颗粒物(PM10),67,83,49,16,16,98,,117,117,13,17,6,12,0.3,0.6
2025-08-10T2000,2648A,104.1465,36.5482,白银市,动力公司,颗粒物(PM10),60,69,44,18,16,88,,105,105,7,19,5,9,0.3,0.6
2025-08-10T2000,2512A,106.6103,23.9011,百色市,市监测站,,34,34,38,20,21,73,,90,87,10,10,8,13,0.3,0.4
2025-08-10T2000,2513A,106.6538,23.8859,百色市,市中心血站,,30,26,36,21,21,75,,84,82,14,14,6,12,0.7,0.7
2025-08-10T2000,3406A,106.6085,23.8798,百色市,祈福高中,,40,40,44,26,29,66,,83,80,13,18,8,11,0.4,0.6
2025-08-10T2000,2270A,117.396,32.939,蚌埠市,工人疗养院,,24,9,15,3,6,76,,73,73,3,6,4,4,0.2,0.4
2025-08-10T2000,2271A,117.3605,32.9427,蚌埠市,百货大楼,,22,6,9,3,8,70,,67,67,2,5,6,6,0.4,0.5
2025-08-10T2000,2273A,117.4185,32.8911,蚌埠市,蚌埠学院,,25,,9,3,8,80,,76,76,2,4,5,6,0.4,0.5
2025-08-10T2000,2274A,117.3533,32.9673,蚌埠市,淮上区政府,,25,6,12,3,8,79,,78,78,5,9,5,5,0.4,0.6
2025-08-10T2000,2275A,117.3145,32.8977,蚌埠市,高新区,,21,6,13,3,8,66,,62,62,5,9,5,6,0.5,0.6
2025-08-10T2000,3715A,117.3092,32.9314,蚌埠市,蚌埠田家炳中学,,22,12,16,3,9,69,,66,66,6,9,7,7,0.3,0.4
2025-08-10T2000,1585A,109.8756,40.6532,包头市,市环境监测站,,36,24,28,7,13,114,,121,120,15,23,4,8,0.7,0.9
2025-08-10T2000,1587A,109.9991,40.5842,包头市,包头八中,,35,27,34,9,12,110,,121,121,18,21,4,7,0.5,0.6
2025-08-10T2000,1588A,109.8538,40.6821,包头市,青山宾馆,,37,21,25,10,14,118,,117,117,17,32,3,7,0.5,0.8
2025-08-10T2000,1589A,109.8642,40.6288,包头市,惠龙物流,,35,20,26,8,12,111,,119,118,11,16,5,9,0.4,0.5
2025-08-10T2000,1590A,110.0377,40.5546,包头市,东河鸿龙湾,,37,12,23,8,12,116,,131,131,14,19,3,5,0.6,0.6
2025-08-10T2000,3283A,109.9154,40.5685,包头市,滨河大厦,,37,12,21,6,10,118,,126,126,10,18,4,5,0.4,0.5
2025-08-10T2000,3419A,109.9447,40.6261,包头市,包头市委党校,,39,17,20,10,11,123,,128,128,15,22,9,10,0.3,0.5
2025-08-10T2000,3683A,109.8331,40.6576,包头市,昆区政府,,38,23,28,10,13,119,,123,123,15,23,4,9,0.7,1
2025-08-10T2000,1930A,107.185,34.3063,宝鸡市,庙沟村,,26,18,19,8,7,82,,88,88,14,11,4,4,0.4,0.3
2025-08-10T2000,1931A,107.0708,34.3017,宝鸡市,竹园沟,,27,19,18,8,8,84,,97,97,10,8,8,8,0.7,0.6
2025-08-10T2000,1932A,107.1906,34.3672,宝鸡市,三陆医院,,36,,22,25,19,91,,97,97,13,17,7,7,0.7,0.7
2025-08-10T2000,1933A,107.1431,34.3547,宝鸡市,监测站,,30,19,20,13,13,93,,99,99,13,11,8,8,0.6,0.5
2025-08-10T2000,1934A,107.1186,34.3739,宝鸡市,技工学校,,29,,21,15,14,90,,98,98,13,10,5,6,0.7,0.6
2025-08-10T2000,1936A,107.2058,34.3497,宝鸡市,文理学院,,31,22,24,15,17,98,,101,101,12,14,7,7,0.6,0.6
2025-08-10T2000,1937A,107.2386,34.3622,宝鸡市,三迪小学,,32,24,22,22,16,91,,100,100,16,16,4,4,0.5,0.4
2025-08-10T2000,4308A,107.3898,34.3601,宝鸡市,陈仓区北开路21号,,29,,10,10,11,92,,100,100,14,17,4,5,0.5,0.5
2025-08-10T2000,1051A,115.493,38.8632,保定市,游泳馆,,36,33,31,13,13,115,,137,135,16,19,1,2,0.2,0.1
2025-08-10T2000,1052A,115.5213,38.8959,保定市,华电二区,,44,31,27,12,13,138,,143,143,9,13,2,3,0.3,0.3
2025-08-10T2000,1053A,115.4713,38.9108,保定市,接待中心,,43,37,29,12,10,137,,146,145,11,18,1,2,0.5,0.5
2025-08-10T2000,1054A,115.4612,38.8416,保定市,地表水厂,,39,39,45,7,11,114,,139,137,10,22,3,3,0.4,0.4
2025-08-10T2000,3581A,115.31981,38.95208,保定市,满城区生态环境分局,,46,46,30,17,9,142,,160,159,13,20,3,3,0.1,0.1
2025-08-10T2000,3582A,115.47694,38.76408,保定市,清苑区第二中学,,40,40,43,8,17,108,,143,138,8,17,7,7,0.3,0.3
2025-08-10T2000,3583A,115.62909,39.02311,保定市,徐水物探局,颗粒物(PM10),54,57,39,7,4,117,,148,137,16,30,7,6,0.1,0.2
2025-08-10T2000,4004A,115.4202,38.8656,保定市,双鹰农机,,48,48,40,10,14,117,,147,144,14,22,4,5,0.2,0.2
2025-08-10T2000,4034A,115.5150,38.8590,保定市,植保所站,,45,34,34,14,13,144,,152,151,6,13,3,3,0.3,0.3
2025-08-10T2000,2594A,99.1678,25.1081,保山市,市环境监测站,,13,12,11,3,10,39,,38,38,5,7,5,6,0.2,0.2
2025-08-10T2000,2595A,99.1711,25.1328,保山市,市环保局,,15,15,13,7,8,33,,37,36,9,5,5,6,0.4,0.4
2025-08-10T2000,1866A,109.2262,21.588,北海市,牛尾岭水库,,21,20,20,8,15,67,,68,68,7,5,2,6,0.4,0.4
2025-08-10T2000,1867A,109.1436,21.4086,北海市,海滩公园,颗粒物(PM10),70,89,33,12,8,72,,80,79,7,4,3,2,1.1,0.6
2025-08-10T2000,1868A,109.0981,21.4661,北海市,新市环保局,,24,23,22,12,16,74,,79,78,9,8,2,2,0.4,0.4
2025-08-10T2000,1869A,109.1778,21.5233,北海市,北海工业园,,,32,25,12,14,56,,75,73,12,6,3,3,,0.6
2025-08-10T2000,3400A,109.1911,21.4415,北海市,龙潭自来水厂,,39,39,20,19,15,62,,76,75,10,2,6,6,0.5,0.5
2025-08-10T2000,1001A,116.3621,39.8784,北京市,万寿西宫,,46,32,23,16,11,147,,171,169,7,18,3,3,0.5,0.4
2025-08-10T2000,1002A,116.2202,40.2915,北京市,定陵,,45,45,14,17,8,94,,153,150,6,4,3,2,0.5,0.3
2025-08-10T2000,1003A,116.4174,39.9289,北京市,东四,,48,34,17,12,9,152,,170,169,14,22,5,5,0.4,0.4
2025-08-10T2000,1004A,116.4072,39.8863,北京市,天坛,,41,24,21,14,11,131,,161,158,12,18,2,3,0.4,0.4
2025-08-10T2000,1005A,116.462,39.9365,北京市,农展馆,,45,33,22,13,9,143,,161,160,16,22,3,3,0.6,0.6
2025-08-10T2000,1006A,116.3392,39.9295,北京市,官园,,47,32,21,20,9,148,,155,154,12,20,5,4,0.4,0.3
2025-08-10T2000,1007A,116.2878,39.9611,北京市,海淀万柳,,44,26,19,12,9,138,,149,148,12,26,3,3,0.4,0.4
2025-08-10T2000,1008A,116.6636,40.135,北京市,顺义新城,,,,,,,,,,,,,,,,
2025-08-10T2000,1009A,116.6275,40.3275,北京市,怀柔镇,,43,34,17,19,9,137,,167,167,27,13,1,2,0.4,0.2
2025-08-10T2000,1010A,116.2296,40.217,北京市,昌平镇,,43,39,16,23,8,136,,152,152,16,12,4,4,0.6,0.5
2025-08-10T2000,1011A,116.3966,39.9821,北京市,奥体中心,,44,28,17,15,8,139,,136,136,9,17,4,4,0.3,0.3
2025-08-10T2000,3281A,115.9718,40.4529,北京市,延庆夏都,,43,35,16,15,8,136,,135,135,10,14,3,3,0.6,0.5
2025-08-10T2000,3418A,116.8336,40.4095,北京市,密云新城,,43,33,17,15,7,135,,160,160,13,8,2,1,0.4,0.3
2025-08-10T2000,3671A,116.088,39.9726,北京市,门头沟三家店,,44,33,22,22,8,140,,148,148,10,14,4,3,0.7,0.6
2025-08-10T2000,3672A,116.1541,39.8204,北京市,丰台云岗,,34,33,29,19,11,108,,147,143,12,20,3,3,0.5,0.4
2025-08-10T2000,3673A,116.6804,39.9081,北京市,通州东关,,41,28,33,13,18,130,,151,150,16,27,6,6,0.5,0.6
2025-08-10T2000,3674A,115.9577,39.7603,北京市,房山燕山,,37,27,17,13,8,118,,140,139,7,10,4,3,0.4,0.3
2025-08-10T2000,3675A,116.4672,39.7733,北京市,大兴旧宫,,37,25,25,11,12,116,,148,144,12,20,2,2,0.0,0.1
2025-08-10T2000,3694A,115.986,40.4563,北京市,延庆石河营,,41,32,15,18,8,129,,128,128,9,12,3,3,0.4,0.3
2025-08-10T2000,3695A,116.6151,40.3053,北京市,怀柔新城,,37,34,16,23,10,117,,152,152,20,7,2,2,0.6,0.5
2025-08-10T2000,3696A,116.2545,39.8768,北京市,丰台小屯,,36,27,26,15,11,114,,138,136,16,23,2,2,0.5,0.5
2025-08-10T2000,3697A,116.84,40.3844,北京市,密云镇,,46,45,20,19,11,146,,170,170,13,16,4,4,0.5,0.5
2025-08-10T2000,4182A,116.1942,39.9158,北京市,八角北路9号,,43,43,23,15,8,134,,157,155,16,19,4,3,0.4,0.4
2025-08-10T2000,4194A,117.0790,40.1518,北京市,洳河巡河路,,38,31,26,17,15,120,,162,157,17,9,3,3,0.6,0.6
2025-08-10T2000,1761A,123.8275,41.3064,本溪市,大峪,,31,31,37,13,17,59,,119,105,17,15,5,7,0.4,0.7
2025-08-10T2000,1762A,123.7567,41.3325,本溪市,溪湖,,31,31,38,10,16,71,,117,110,17,11,8,6,0.7,1.2
2025-08-10T2000,1763A,123.7169,41.3094,本溪市,彩屯,,26,26,39,14,23,51,,108,97,19,18,8,9,0.5,1.1
2025-08-10T2000,1764A,123.7669,41.2864,本溪市,东明,,39,39,42,20,21,84,,120,115,28,23,6,7,0.9,1.3
2025-08-10T2000,1765A,123.7992,41.2664,本溪市,新立屯,,25,25,39,11,17,63,,106,89,32,20,5,6,0.8,1.6
2025-08-10T2000,1766A,123.8142,41.3472,本溪市,威宁,颗粒物(PM10),60,69,40,14,20,31,,105,88,25,17,9,9,0.5,0.9
2025-08-10T2000,2587A,105.2864,27.3125,毕节市,八中,,28,28,25,19,20,69,,80,79,6,11,4,5,0.5,0.6
2025-08-10T2000,2588A,105.31,27.2944,毕节市,师专,,30,30,26,16,18,77,,86,85,7,12,4,5,0.6,0.6
2025-08-10T2000,4263A,105.3688,27.3598,毕节市,工业大道,,26,26,26,18,18,73,,88,87,10,11,6,7,0.7,0.6
2025-08-10T2000,1629A,118.0018,37.3617,滨州市,第二水厂,,31,22,20,9,13,98,,135,126,11,10,3,4,0.5,0.4
2025-08-10T2000,1630A,117.9776,37.393,滨州市,北中新校,,31,22,22,14,12,97,,126,120,20,15,3,5,0.5,0.3
2025-08-10T2000,3514A,117.9378,37.3956,滨州市,中海酒店,,34,19,21,12,14,107,,129,126,3,7,9,9,0.5,0.4
2025-08-10T2000,3515A,117.9378,37.3553,滨州市,开发区一中,,36,36,22,14,13,93,,140,130,12,10,7,8,0.5,0.5
2025-08-10T2000,3516A,118.0917,37.694,滨州市,金海六路,,31,27,18,14,9,97,,124,120,11,14,9,9,0.3,0.2
2025-08-10T2000,4028A,117.9956,37.3753,滨州市,滨州市西街道办事处,,31,22,14,19,14,99,,143,133,12,9,1,3,0.3,0.2
2025-08-10T2000,2311A,115.8072,33.8399,亳州市,污水处理厂,,20,17,13,13,10,64,,61,61,7,7,2,2,0.4,0.5
2025-08-10T2000,2312A,115.7789,33.8518,亳州市,三国揽胜宫,,25,25,22,11,7,66,,67,67,7,7,3,3,0.6,0.6
2025-08-10T2000,3332A,115.7633,33.8034,亳州市,亳州学院,,20,20,19,14,10,57,,64,64,14,12,1,2,0.4,0.4
2025-08-10T2000,2693A,82.0485,44.8556,博尔塔拉蒙古自治州,市党校,,33,25,66,16,17,105,,100,100,3,7,3,3,0.1,0.2
2025-08-10T2000,2694A,82.0806,44.8969,博尔塔拉蒙古自治州,市环保局,,48,48,86,14,18,102,,96,96,4,7,1,2,0.3,0.3
2025-08-10T2000,1071A,116.8842,38.2991,沧州市,沧县城建局,,39,38,38,18,20,123,,173,168,15,13,1,4,0.4,0.3
2025-08-10T2000,1072A,116.8584,38.3254,沧州市,电视转播站,,46,46,49,12,21,133,,149,148,9,13,3,2,0.3,0.4
2025-08-10T2000,1073A,116.8709,38.3228,沧州市,市环保局,,41,38,44,19,21,130,,168,164,7,10,3,4,0.4,0.4
2025-08-10T2000,3324A,116.8136,38.3004,沧州市,河北水利电力学院,,40,,30,24,27,128,,179,173,11,12,3,4,0.4,0.4
2025-08-10T2000,2622A,97.1806,31.1273,昌都市,昌都监测站,,14,14,8,9,5,41,,66,62,12,5,5,4,0.5,0.3
2025-08-10T2000,3719A,97.1714,31.1406,昌都市,昌都会议中心,,16,11,10,8,6,49,,74,67,9,6,4,3,0.3,0.2
2025-08-10T2000,2690A,88.1236,43.8886,昌吉回族自治州,天山天池,颗粒物(PM10),51,51,19,6,5,100,,107,107,8,6,3,4,0.5,0.5
2025-08-10T2000,2692A,87.2717,44.0297,昌吉回族自治州,新区政务中心,,31,12,42,3,9,98,,103,103,4,9,8,9,0.2,0.3
2025-08-10T2000,3613A,87.3095,44.0142,昌吉回族自治州,亚心广场,,30,24,59,3,10,93,,97,97,5,15,7,8,0.2,0.3
2025-08-10T2000,1120A,125.2863,43.9027,长春市,客车厂,,18,18,18,9,9,52,,77,71,14,18,4,3,0.2,0.3
2025-08-10T2000,1121A,125.2841,43.8463,长春市,邮电学院,,20,16,16,14,9,52,,80,74,14,17,5,5,0.3,0.4
2025-08-10T2000,1122A,125.3716,43.8772,长春市,劳动公园,,29,29,23,10,8,46,,77,70,22,22,8,7,0.4,0.4
2025-08-10T2000,1123A,125.3297,43.8805,长春市,园林处,,15,13,17,6,8,47,,74,68,16,16,5,4,0.3,0.4
2025-08-10T2000,1124A,125.4605,43.79,长春市,净月潭,,16,16,17,3,5,51,,75,72,12,10,5,4,0.2,0.2
2025-08-10T2000,1125A,125.7194,43.515,长春市,甩湾子,,20,13,13,3,6,61,,78,76,9,9,4,4,0.4,0.4
2025-08-10T2000,1126A,125.3863,43.8447,长春市,经开区环卫处,,24,24,25,7,7,44,,80,73,17,25,4,3,0.4,0.4
2025-08-10T2000,1127A,125.245,43.7783,长春市,高新区管委会,,29,,20,20,9,54,,80,75,14,20,5,4,0.3,0.4
2025-08-10T2000,1128A,125.1761,43.8325,长春市,岱山公园,,22,22,17,3,8,34,,78,71,33,20,5,3,0.3,0.3
2025-08-10T2000,4281A,125.3346,43.9164,长春市,北亚泰大街1068号,,23,23,22,11,9,42,,76,68,19,20,8,7,0.3,0.4
2025-08-10T2000,1335A,113.0833,28.2325,长沙市,经开区环保局,,36,33,33,25,20,88,,100,98,10,11,4,5,0.4,0.4
2025-08-10T2000,1336A,112.8872,28.2189,长沙市,高开区环保局,,33,33,33,18,17,88,,88,88,6,6,4,5,0.2,0.2
2025-08-10T2000,1337A,113.0792,28.2053,长沙市,马坡岭,,44,44,36,30,19,90,,107,105,8,11,4,5,0.4,0.4
2025-08-10T2000,1338A,112.9394,28.19,长沙市,湖南师范大学,,28,27,32,17,18,89,,89,88,10,11,4,4,0.7,0.7
2025-08-10T2000,1339A,113.0178,28.1322,长沙市,雨花区环保局,,31,31,31,16,14,96,,96,96,5,7,5,7,0.6,0.7
2025-08-10T2000,1340A,112.9792,28.2597,长沙市,伍家岭,,35,35,32,19,14,90,,90,89,7,8,2,3,0.4,0.4
2025-08-10T2000,1341A,113.0014,28.1944,长沙市,火车新站,,37,37,34,14,14,91,,91,91,7,8,5,7,0.4,0.5
2025-08-10T2000,1342A,112.9844,28.1178,长沙市,天心区环保局,,36,36,29,18,17,95,,96,96,10,11,4,5,0.3,0.3
2025-08-10T2000,1343A,112.8908,28.1308,长沙市,湖南中医药大学,,36,32,32,25,19,73,,85,82,14,9,3,4,0.6,0.6
2025-08-10T2000,1344A,112.9581,28.3611,长沙市,沙坪,,30,26,27,17,18,94,,98,96,9,12,3,4,0.6,0.6
2025-08-10T2000,1727A,113.1147,36.1547,长治市,清华站,,32,25,18,12,6,102,,120,117,17,11,12,8,1.1,0.7
2025-08-10T2000,1730A,113.0886,36.2125,长治市,审计局,,30,23,17,7,8,93,,127,122,29,13,8,8,0.8,0.8
2025-08-10T2000,1731A,113.0844,36.1856,长治市,长治八中,,,,23,,17,,,122,,,15,,10,,0.8
2025-08-10T2000,2845A,113.1569,36.1911,长治市,德盛苑,,32,24,16,9,5,102,,117,115,14,9,9,9,1.0,0.9
2025-08-10T2000,3568A,113.06,36.0464,长治市,向阳小学,颗粒物(PM10),54,58,53,19,21,100,,119,116,16,12,9,9,0.7,0.7
2025-08-10T2000,3569A,112.8792,36.3144,长治市,屯留一中,,37,30,28,18,16,117,,133,132,22,24,11,13,0.5,0.5
2025-08-10T2000,4189A,113.1131,36.19948,长治市,英华南巷50号,,32,28,21,7,6,102,,117,114,19,11,10,9,0.8,0.9
2025-08-10T2000,4190A,113.2367,36.3344,长治市,学府街1号,,37,28,21,8,9,118,,124,124,15,16,5,8,0.4,0.7
2025-08-10T2000,1854A,111.6975,28.9703,常德市,市二中,,35,35,23,15,14,62,,99,93,7,6,3,3,0.4,0.3
2025-08-10T2000,1857A,111.7158,29.1456,常德市,白鹤山,,,,,,,,,,,,,,,,
2025-08-10T2000,3138A,111.7153,29.0289,常德市,武陵区永安,,38,31,23,16,15,121,,135,133,4,4,3,3,0.9,0.7
2025-08-10T2000,3139A,111.6892,28.9881,常德市,鼎城区玉霞,,29,29,22,20,17,61,,97,91,6,6,2,2,0.5,0.4
2025-08-10T2000,3140A,111.6625,29.0531,常德市,武陵区长庚,,26,26,21,16,16,57,,93,87,6,5,3,3,0.5,0.4
2025-08-10T2000,1196A,119.9633,31.762,常州市,市监测站,,26,22,30,18,17,73,,111,109,15,13,7,9,0.6,0.5
2025-08-10T2000,1200A,119.9468,31.7069,常州市,武进监测站,,35,26,27,12,15,112,,119,119,9,9,6,9,1.1,1
2025-08-10T2000,1201A,119.9255,31.9087,常州市,安家,,19,17,28,8,12,60,,101,95,16,18,7,9,0.8,0.9
2025-08-10T2000,3002A,119.9805,31.8174,常州市,行政中心,,20,15,21,10,13,63,,98,97,16,14,3,4,0.5,0.6
2025-08-10T2000,3003A,120.0522,31.7748,常州市,经开区,,,22,28,15,12,66,,99,97,13,12,2,5,,0.3
2025-08-10T2000,3010A,119.9025,31.7964,常州市,钟楼,,22,19,30,8,11,68,,100,99,15,18,5,7,0.5,0.5
2025-08-10T2000,3429A,119.8598,31.7066,常州市,武进经发区,,32,32,31,17,17,57,,105,102,31,11,6,9,1.0,1
2025-08-10T2000,3430A,119.5826,31.7245,常州市,金坛城区,,24,23,29,15,18,75,,102,101,12,16,8,8,0.6,0.5
2025-08-10T2000,2220A,120.4318,41.5881,朝阳市,西梁,,42,42,33,22,14,120,,112,112,13,21,8,8,0.6,0.8
2025-08-10T2000,2221A,120.4521,41.5646,朝阳市,河畔小区,,42,42,33,16,9,127,,116,116,12,14,7,7,0.2,0.5
2025-08-10T2000,2222A,120.4176,41.5648,朝阳市,八里堡,,43,43,35,17,12,125,,119,119,15,20,9,9,0.6,0.7
2025-08-10T2000,2223A,120.3806,41.5969,朝阳市,农业园区,,37,36,28,13,12,118,,118,118,18,15,10,9,0.5,0.5
2025-08-10T2000,1705A,116.6367,23.6719,潮州市,西园路,,29,29,18,11,10,35,,63,57,11,9,3,4,0.1,0.1
2025-08-10T2000,3026A,116.6183,23.6608,潮州市,市政府,,,,71,5,10,37,,59,54,10,14,6,7,0.3,0.4
2025-08-10T2000,4036A,116.6461,23.6761,潮州市,金山,,19,16,20,13,14,34,,62,56,12,9,5,5,0.6,0.6
2025-08-10T2000,2472A,113.0073,25.9061,郴州市,马头岭,颗粒物(PM10),52,54,34,28,11,89,,108,102,9,9,8,8,0.7,0.7
2025-08-10T2000,2473A,113.0116,25.8226,郴州市,市职中,,38,30,28,26,22,100,,109,104,8,7,7,9,0.4,0.4
2025-08-10T2000,2475A,113.0383,25.8071,郴州市,市审计局,,37,37,30,22,19,96,,108,102,12,8,16,10,0.4,0.3
2025-08-10T2000,2476A,113.0348,25.7759,郴州市,市环保局,,46,36,31,32,27,99,,105,100,11,7,14,9,0.3,0.3
2025-08-10T2000,4252A,113.0138,25.8011,郴州市,好美居路49号,,35,,28,24,17,94,,105,100,9,7,8,15,0.5,0.4
2025-08-10T2000,1431A,103.9728,30.7236,成都市,金泉两河,,25,7,17,3,7,78,,79,79,8,10,2,2,0.6,0.7
2025-08-10T2000,1432A,104.176,30.6872,成都市,十里店,,,,13,6,7,82,,97,96,18,11,4,4,0.5,0.5
2025-08-10T2000,1433A,104.079,30.5706,成都市,三瓦窑,,28,8,16,3,9,89,,96,96,16,15,3,3,0.2,0.2
2025-08-10T2000,1434A,104.1114,30.63,成都市,沙河铺,,25,14,18,3,6,78,,88,87,11,11,7,7,0.7,0.7
2025-08-10T2000,1437A,104.0786,30.6531,成都市,君平街,,27,15,19,3,10,86,,96,96,16,14,6,6,0.7,0.7
2025-08-10T2000,1438A,103.613,31.0283,成都市,灵岩寺,,,,,,,,,,,,,,,,
2025-08-10T2000,2880A,104.0239,30.65639,成都市,大石西路,,24,12,18,7,10,76,,80,80,11,10,3,3,0.6,0.6
2025-08-10T2000,3136A,104.2725,30.5589,成都市,龙泉驿区区政府,,26,6,7,3,3,83,,100,98,17,15,4,4,0.4,0.5
2025-08-10T2000,3357A,104.0106,30.6931,成都市,金博路,,23,,8,13,6,73,,78,77,12,12,4,4,0.7,0.8
2025-08-10T2000,3359A,104.0578,30.5225,成都市,华阳,,30,6,10,3,8,95,,98,91,15,16,3,3,0.5,0.6
2025-08-10T2000,3488A,104.3853,30.7453,成都市,青白江技师分院,,25,6,17,3,12,80,,96,95,14,18,5,5,0.4,0.5
2025-08-10T2000,3489A,104.0789,30.4072,成都市,科学城,,30,6,12,3,7,94,,96,96,9,9,3,3,0.4,0.5
2025-08-10T2000,4011A,103.8506,30.6947,成都市,光华大道三段,,24,15,18,8,10,74,,90,78,13,12,4,4,0.3,0.4
2025-08-10T2000,4224A,104.2433,30.5353,成都市,鲸龙路1057号,,29,8,11,3,8,90,,96,95,15,15,3,3,0.7,0.8
2025-08-10T2000,1062A,117.9531,40.9081,承德市,铁路,,48,48,20,13,8,44,,102,96,31,15,3,3,0.4,0.3
2025-08-10T2000,1063A,117.9392,40.9763,承德市,中国银行,,35,35,21,22,9,43,,106,99,15,10,3,2,0.5,0.3
2025-08-10T2000,1064A,117.9503,40.928,承德市,开发区,,24,24,25,11,10,55,,109,101,8,11,4,4,0.4,0.3
2025-08-10T2000,1066A,117.9268,41.0026,承德市,离宫,,30,30,19,7,14,26,,104,90,4,6,3,3,0.3,0.2
2025-08-10T2000,4274A,117.7994,40.9605,承德市,滨河大街98号,,45,35,22,31,10,41,,88,79,4,12,2,3,0.3,0.3
2025-08-10T2000,2314A,117.47,30.6618,池州市,池州学院,细颗粒物(PM2.5),53,52,35,37,23,76,,101,99,24,18,7,7,0.7,0.6
2025-08-10T2000,3237A,117.4918,30.6617,池州市,展览馆,颗粒物(PM10),52,53,34,30,19,69,,102,98,22,14,4,5,0.7,0.7
2025-08-10T2000,3333A,117.5627,30.695,池州市,第八中学,,39,39,33,22,19,60,,94,92,14,16,5,6,0.6,0.6
2025-08-10T2000,3334A,117.5038,30.6243,池州市,第十二中学,颗粒物(PM10),52,53,36,35,21,71,,102,97,30,17,3,5,0.9,0.9
2025-08-10T2000,1744A,118.9233,42.2816,赤峰市,松山一中,,28,28,20,8,7,44,,92,86,44,24,4,6,0.7,0.5
2025-08-10T2000,1745A,118.9576,42.2728,赤峰市,哈达街,,28,28,18,3,6,62,,93,90,28,18,9,10,0.6,0.4
2025-08-10T2000,1746A,118.8788,42.2554,赤峰市,天义路,,25,12,15,8,9,80,,94,93,14,16,9,14,0.3,0.2
2025-08-10T2000,3058A,119.2658,42.0353,赤峰市,银河街,,37,37,32,16,15,73,,98,92,11,18,5,15,0.5,0.7
2025-08-10T2000,3286A,118.9359,42.3147,赤峰市,桥北物流园区,,20,,21,9,9,63,,84,83,22,23,8,13,0.0,0.2
2025-08-10T2000,2521A,107.3476,22.4136,崇左市,市环保局江州分局,,34,34,24,9,11,72,,80,79,7,9,6,7,0.5,0.5
2025-08-10T2000,4256A,107.3750,22.3736,崇左市,石景林东路7号,,25,14,18,12,12,78,,78,78,7,10,4,4,0.5,0.4
2025-08-10T2000,2298A,118.3093,32.3153,滁州市,老年大学,,22,22,17,10,8,66,,64,63,4,3,6,6,0.4,0.3
2025-08-10T2000,2299A,118.3244,32.2786,滁州市,人大宾馆,,19,,10,10,11,60,,67,64,3,3,4,4,0.4,0.3
2025-08-10T2000,3207A,118.3118,32.3038,滁州市,市政府原办公楼,,20,,9,9,12,62,,66,62,3,3,5,5,0.4,0.4
2025-08-10T2000,3331A,118.3267,32.2634,滁州市,图书馆,,20,,13,14,12,54,,73,69,9,6,10,10,0.3,0.3
2025-08-10T2000,2605A,101.5482,25.0441,楚雄彝族自治州,州环境监测站,,13,13,9,6,6,33,,35,35,5,5,3,3,0.5,0.5
2025-08-10T2000,2606A,101.538,25.0492,楚雄彝族自治州,市经济开发区,,14,14,17,9,8,32,,35,35,10,8,6,6,0.6,0.6
2025-08-10T2000,2548A,107.5277,31.2827,达州市,达州职业技术学院,,17,17,26,3,4,41,,72,66,18,13,7,10,0.4,0.4
2025-08-10T2000,2549A,107.5086,31.2186,达州市,市环境监测站,,,7,20,,3,52,,66,65,13,20,6,8,0.3,0.4
2025-08-10T2000,2550A,107.4988,31.2132,达州市,凤凰小区,,15,7,16,3,6,47,,66,62,12,15,1,4,0.3,0.3
2025-08-10T2000,2551A,107.5082,31.1986,达州市,达县机关宾馆,,14,9,20,6,7,42,,64,61,12,19,4,5,0.3,0.4
2025-08-10T2000,2552A,107.4644,31.2124,达州市,市政中心,,21,21,22,3,3,52,,69,66,9,12,3,6,0.2,0.3
2025-08-10T2000,2614A,100.1542,25.7054,大理白族自治州,大理市环境监测站,,16,16,9,10,13,41,,44,44,9,8,4,4,0.6,0.5
2025-08-10T2000,2615A,100.2171,25.5811,大理白族自治州,大理古城,,,24,14,21,10,40,,56,55,,7,,5,0.7,0.6
2025-08-10T2000,1109A,121.612,38.9741,大连市,甘井子,,30,23,16,14,11,95,,116,111,20,12,8,8,0.2,0.2
2025-08-10T2000,1110A,121.565,38.9511,大连市,周水子,,24,14,15,9,10,75,,112,106,28,12,6,5,0.4,0.3
2025-08-10T2000,1111A,121.5637,38.8845,大连市,星海三站,,28,17,15,8,12,89,,116,110,11,10,6,6,0.3,0.3
2025-08-10T2000,1112A,121.6302,38.9117,大连市,青泥洼桥,,26,18,19,14,12,82,,121,113,25,13,6,6,0.3,0.4
2025-08-10T2000,1113A,121.6251,38.8638,大连市,傅家庄,,24,20,14,9,14,75,,122,116,14,8,10,10,0.3,0.2
2025-08-10T2000,1114A,121.5213,38.8661,大连市,七贤岭,,27,20,14,12,10,86,,128,120,11,5,11,10,0.4,0.4
2025-08-10T2000,1115A,121.2529,38.8061,大连市,旅顺,,38,,11,26,11,109,,111,110,14,14,4,4,0.4,0.3
2025-08-10T2000,1116A,121.7485,39.1311,大连市,金州,,43,43,18,18,13,95,,126,124,24,11,7,7,0.3,0.3
2025-08-10T2000,1117A,121.7811,39.0496,大连市,开发区,,30,22,18,14,13,96,,118,114,24,13,6,6,0.4,0.4
2025-08-10T2000,1118A,121.9762,39.0631,大连市,双D港,,26,24,17,11,14,81,,142,135,11,8,11,11,0.4,0.4
2025-08-10T2000,1789A,124.81117,46.03138,大庆市,大同区,,22,22,14,8,10,32,,50,48,18,8,8,4,0.6,0.6
2025-08-10T2000,1790A,125.129,46.533,大庆市,龙凤区,,12,10,15,8,8,36,,44,43,14,13,5,6,0.5,0.5
2025-08-10T2000,1791A,124.902,46.408,大庆市,红岗区,,23,23,18,9,11,43,,51,49,12,7,7,7,0.5,0.5
2025-08-10T2000,1792A,125.153,46.586,大庆市,萨尔图区,,25,25,20,6,6,40,,43,42,9,11,6,6,0.7,0.6
2025-08-10T2000,1793A,124.9042,46.6215,大庆市,让胡路区,,19,19,22,13,14,42,,45,45,8,6,5,5,0.2,0.2
2025-08-10T2000,3481A,125.141,46.634,大庆市,萨区政府监测点,,,19,19,,0,27,,43,41,18,9,7,6,0.3,0.2
2025-08-10T2000,1721A,113.3819,40.1097,大同市,果树场,,22,14,28,12,16,51,,112,101,43,25,7,8,0.8,0.7
2025-08-10T2000,1723A,113.2994,40.0758,大同市,云冈宾馆,,30,26,32,10,15,95,,129,127,23,26,6,8,1.2,0.9
2025-08-10T2000,1724A,113.3444,40.0917,大同市,大同大学,,29,12,17,9,12,90,,127,123,25,25,7,9,0.6,0.7
2025-08-10T2000,1725A,113.2661,40.1269,大同市,安家小村,,24,11,33,6,10,75,,108,105,18,19,6,8,0.9,1.1
2025-08-10T2000,1726A,113.2711,40.0844,大同市,教育学院,,30,18,44,13,18,94,,123,121,20,26,8,10,1.3,0.7
2025-08-10T2000,3282A,113.3397,40.0597,大同市,大同市卫生学校,,30,29,33,10,16,94,,120,118,23,27,6,7,0.6,0.8
2025-08-10T2000,3565A,113.1367,40.1122,大同市,云冈站,,22,11,40,6,10,70,,118,112,7,13,2,5,0.5,0.6
2025-08-10T2000,3566A,113.1186,40.2556,大同市,图书馆,,28,15,27,8,11,89,,122,119,11,9,2,5,0.7,0.7
2025-08-10T2000,3567A,113.5931,40.0461,大同市,区一中,,36,14,21,6,9,115,,122,122,13,10,8,9,0.4,0.5
2025-08-10T2000,4199A,113.2798,40.0997,大同市,魏都大道141号,,30,9,35,3,16,96,,126,123,18,25,6,7,1.2,1
2025-08-10T2000,2269A,124.1069,50.4097,大兴安岭地区,科技局,,30,30,16,13,10,25,,35,33,8,2,6,5,0.4,0.3
2025-08-10T2000,3663A,124.1164,50.4278,大兴安岭地区,红旗社区,,9,6,2,3,2,28,,34,33,2,2,4,4,0.2,0.2
2025-08-10T2000,1600A,124.3303,40.0625,丹东市,江湾东路,,17,11,18,6,11,53,,85,79,24,16,7,7,0.7,0.6
2025-08-10T2000,1601A,124.4256,40.1503,丹东市,临江后街,,24,24,28,12,11,51,,81,77,23,12,7,7,1.0,0.7
2025-08-10T2000,1602A,124.3933,40.1461,丹东市,元宝山,,27,15,13,10,9,85,,77,77,12,9,4,4,0.7,0.6
2025-08-10T2000,1603A,124.3633,40.1092,丹东市,民主桥,,31,31,17,16,9,22,,81,70,42,16,3,3,0.8,0.6
2025-08-10T2000,3541A,109.5726,19.5167,儋州市,第一中学子站,,26,26,21,17,13,32,,56,50,10,5,10,7,0.5,0.5
2025-08-10T2000,3542A,109.5567,19.5187,儋州市,东坡学校子站,,25,20,20,17,13,37,,65,59,7,4,7,7,0.6,0.5
2025-08-10T2000,2616A,98.5842,24.428,德宏傣族景颇族自治州,德宏州监测站,,24,24,24,15,11,27,,42,42,21,11,10,12,0.8,0.7
2025-08-10T2000,3677A,98.5881,24.4368,德宏傣族景颇族自治州,芒市人民政府综合楼,,26,26,30,12,11,29,,36,36,9,9,7,12,0.6,0.6
2025-08-10T2000,1901A,104.4239,31.1208,德阳市,东山公园,,24,,5,7,6,76,,,,14,13,1,1,0.8,0.8
2025-08-10T2000,1902A,104.3826,31.1317,德阳市,西小区,,23,16,15,6,11,73,,96,88,13,11,3,2,0.9,0.9
2025-08-10T2000,1904A,104.3553,31.1091,德阳市,耐火材料厂,,22,7,14,7,12,68,,90,83,10,10,1,1,0.5,0.5
2025-08-10T2000,3639A,104.4019,31.1244,德阳市,市教育局,,,15,12,7,10,72,,91,82,,7,,3,0.8,0.8
2025-08-10T2000,1622A,116.3032,37.4674,德州市,儿童乐园,,39,24,26,19,16,122,,127,125,10,12,9,11,0.5,0.6
2025-08-10T2000,1624A,116.2991,37.4451,德州市,监理站,,38,31,20,24,12,119,,129,128,9,8,12,14,0.4,0.4
2025-08-10T2000,3066A,116.2721,37.4379,德州市,九衢泉纯净水厂,,44,44,27,24,17,70,,122,112,35,15,6,7,0.6,0.7
2025-08-10T2000,3371A,116.3728,37.4403,德州市,开发区人民医院,,35,34,23,19,15,109,,120,119,14,11,10,11,0.8,0.8
2025-08-10T2000,3511A,116.5652,37.3319,德州市,陵城艺术中心,,46,46,25,19,12,127,,132,132,9,8,5,7,0.6,0.6
2025-08-10T2000,4292A,116.3525,37.4209,德州市,新河东路,,39,39,23,22,16,95,,122,119,17,9,10,11,0.7,0.8
2025-08-10T2000,2621A,99.7056,27.8317,迪庆藏族自治州,迪庆州站,,29,,14,20,11,24,,37,35,14,7,7,6,0.8,0.5
2025-08-10T2000,3180A,99.7136,27.8094,迪庆藏族自治州,质量技术监督局,,16,16,15,6,6,21,,36,34,21,10,7,7,0.6,0.5
2025-08-10T2000,4257A,104.6092,35.5962,定西市,将台街,,,38,30,22,17,95,,116,116,,19,10,8,0.7,0.6
2025-08-10T2000,4309A,104.6159,35.5701,定西市,正龙路62号,,43,43,26,29,14,92,,109,109,12,10,5,5,0.3,0.3
2025-08-10T2000,1389A,113.7547,23.0494,东莞市,莞城梨川,,29,19,30,13,21,91,,153,152,20,19,7,7,0.4,0.4
2025-08-10T2000,1390A,113.7944,23.0128,东莞市,东城石井,,,29,35,14,16,80,,132,130,23,20,3,2,,0.6
2025-08-10T2000,1391A,113.7383,22.9658,东莞市,南城西平,,27,17,18,11,14,86,,110,110,15,23,5,6,0.7,0.7
2025-08-10T2000,3319A,113.7338,23.0381,东莞市,万江金泰,,26,22,30,13,18,82,,146,146,23,21,6,5,0.7,0.7
2025-08-10T2000,3626A,113.7533,23.0202,东莞市,南城元岭,,28,6,16,3,7,89,,141,141,19,22,6,6,0.6,0.6
2025-08-10T2000,3627A,113.7875,23.0457,东莞市,东城主山,,37,37,36,11,15,87,,131,131,24,25,4,4,0.3,0.3
2025-08-10T2000,1666A,118.6614,37.4309,东营市,市环保局,,35,19,8,17,7,109,,117,117,14,10,37,8,0.5,0.3
2025-08-10T2000,3036A,118.6904,37.4338,东营市,开发区管委会,,36,23,14,12,6,114,,121,121,15,10,28,9,0.2,0.2
2025-08-10T2000,3365A,118.5719,37.565,东营市,垦利区民丰路,,30,27,15,12,8,93,,117,112,17,11,8,5,0.8,0.6
2025-08-10T2000,3498A,118.5055,37.8612,东营市,河口城区,,36,27,16,3,5,113,,146,144,9,11,4,5,1.0,0.9
2025-08-10T2000,3646A,118.4978,37.4623,东营市,胜利站,,35,20,19,9,5,109,,122,116,16,15,3,3,0.6,0.4
2025-08-10T2000,3734A,118.35,37.26,东营市,理想之城,,25,19,11,9,8,80,,61,,28,14,2,3,0.6,0.3
2025-08-10T2000,1591A,110.0023,39.8129,鄂尔多斯市,综合楼,,36,29,27,9,8,114,,138,133,17,16,4,5,0.5,0.5
2025-08-10T2000,1592A,109.9486,39.8261,鄂尔多斯市,巴音孟克林场办事处,,48,48,29,9,9,122,,143,139,18,12,1,2,0.6,0.5
2025-08-10T2000,1593A,109.7736,39.5986,鄂尔多斯市,康泽苑,颗粒物(PM10),52,53,28,7,7,103,,136,129,17,10,8,9,0.4,0.3
2025-08-10T2000,1594A,109.8119,39.5989,鄂尔多斯市,华泰汽车城,,46,46,27,14,11,100,,133,125,16,15,4,5,0.5,0.5
2025-08-10T2000,1595A,109.9734,39.7884,鄂尔多斯市,奥林花园,,46,46,29,12,14,108,,136,131,21,22,4,5,0.7,0.6
2025-08-10T2000,2436A,114.8938,30.3994,鄂州市,市政府,,38,38,36,3,13,85,,129,128,14,20,4,6,0.5,0.6
2025-08-10T2000,2437A,114.8989,30.3714,鄂州市,赵家坝,,44,44,47,3,14,92,,134,132,12,22,5,8,0.8,1
2025-08-10T2000,3654A,114.8094,30.4089,鄂州市,精准医疗中心,,26,26,33,3,9,80,,129,129,10,15,6,5,0.7,0.8
2025-08-10T2000,2454A,109.4978,30.2981,恩施土家族苗族自治州,湖北民院,,16,16,14,9,7,51,,50,42,2,3,5,5,0.3,0.3
2025-08-10T2000,2455A,109.4707,30.2798,恩施土家族苗族自治州,州电力总公司,,,12,10,,9,43,,44,42,7,8,3,3,0.5,0.5
2025-08-10T2000,3549A,109.5061,30.3772,恩施土家族苗族自治州,龙凤新区,,13,9,9,7,10,40,,53,49,7,7,4,4,0.4,0.3
2025-08-10T2000,2499A,108.3411,21.6158,防城港市,沙万,,34,34,31,18,18,45,,66,61,14,15,4,4,0.4,0.4
2025-08-10T2000,2500A,108.3514,21.7731,防城港市,防城档案局,,26,26,28,15,13,48,,71,68,10,12,2,2,0.7,0.7
2025-08-10T2000,2501A,108.3506,21.6414,防城港市,大海花园,,37,37,31,11,14,45,,76,67,13,11,4,5,0.4,0.4
2025-08-10T2000,1371A,113.1294,23.0067,佛山市,湾梁,,,,26,46,21,140,,147,147,,23,8,7,0.5,0.5
2025-08-10T2000,1372A,113.1083,23.0478,佛山市,华材职中,,48,39,24,20,15,153,,152,152,15,11,8,8,0.6,0.6
2025-08-10T2000,1373A,113.144,23.0453,佛山市,南海气象局,颗粒物(PM10),55,60,29,21,17,129,,131,131,18,16,5,6,0.6,0.6
2025-08-10T2000,1374A,113.2881,22.8094,佛山市,顺德苏岗,,37,37,30,9,11,83,,126,126,13,14,6,5,0.3,0.4
2025-08-10T2000,1376A,112.8383,22.8678,佛山市,高明孔堂,,38,37,21,18,12,120,,110,110,12,10,7,7,0.5,0.6
2025-08-10T2000,1377A,112.8836,23.1588,佛山市,三水监测站,,39,39,28,24,18,71,,93,93,64,27,4,3,0.5,0.5
2025-08-10T2000,1378A,112.867,23.185,佛山市,三水云东海,,37,37,30,21,16,95,,108,108,18,20,1,2,0.5,0.6
2025-08-10T2000,3625A,113.2544,22.7642,佛山市,容桂街道办,,28,19,18,14,14,87,,131,131,21,16,5,6,0.6,0.6
2025-08-10T2000,1280A,119.3903,26.0543,福州市,鼓山,,,,,,,,,,,,,,,,
2025-08-10T2000,1282A,119.2681,26.0504,福州市,师大,,37,37,28,12,10,61,,82,75,17,10,6,5,0.2,0.2
2025-08-10T2000,1283A,119.2984,26.1028,福州市,五四北路,,37,37,29,12,11,71,,97,90,13,13,5,4,0.3,0.3
2025-08-10T2000,1284A,119.2648,26.0768,福州市,杨桥西路,,34,34,29,12,11,67,,86,80,14,10,4,4,0.2,0.2
2025-08-10T2000,1285A,119.317,26.0746,福州市,紫阳,,31,31,31,10,10,57,,92,84,13,11,5,5,0.2,0.2
2025-08-10T2000,3048A,119.5799,26.0936,福州市,九龙,,28,28,26,9,8,78,,114,110,8,11,6,6,0.2,0.3
2025-08-10T2000,3526A,119.5189,25.9664,福州市,吴航,,27,27,22,10,9,63,,107,103,8,9,9,7,0.3,0.3
2025-08-10T2000,1755A,123.7977,41.8491,抚顺市,望花区,,21,13,44,7,22,65,,121,110,27,22,7,8,0.5,0.8
2025-08-10T2000,1756A,123.9161,41.8822,抚顺市,顺城区,,24,23,40,13,19,36,,120,105,47,22,4,6,0.6,0.8
2025-08-10T2000,1757A,124.0436,41.8611,抚顺市,东洲区,,22,,28,8,17,70,,123,112,22,12,6,6,0.5,0.7
2025-08-10T2000,1758A,123.9247,41.8642,抚顺市,新抚区,,23,13,33,6,16,72,,111,104,12,14,5,5,0.5,0.8
2025-08-10T2000,1759A,124.0972,41.8961,抚顺市,大伙房水库,,34,34,26,10,17,53,,130,114,37,12,7,7,0.4,0.5
2025-08-10T2000,1760A,123.7086,41.8391,抚顺市,沈抚新城,,18,,27,3,18,55,,119,106,29,20,5,6,0.5,0.8
2025-08-10T2000,2376A,116.2127,28.0814,抚州市,桐源党溪,,44,44,36,18,16,44,,81,71,6,7,4,5,0.5,0.5
2025-08-10T2000,2377A,116.3544,27.9831,抚州市,市站,,39,39,29,25,16,97,,104,103,3,2,2,2,0.4,0.4
2025-08-10T2000,2378A,116.3565,27.963,抚州市,血防站,,41,41,31,26,18,91,,104,103,9,5,5,6,0.5,0.4
2025-08-10T2000,2379A,116.3564,28.0007,抚州市,采茶剧团,,40,40,29,22,16,95,,96,95,2,2,4,4,0.3,0.3
2025-08-10T2000,2380A,116.385,27.9647,抚州市,医学分院,,41,41,33,23,16,93,,101,101,2,3,3,4,0.5,0.4
2025-08-10T2000,2207A,121.6094,41.998,阜新市,工业园区,,34,18,23,3,5,106,,109,109,12,21,9,5,0.4,0.3
2025-08-10T2000,2208A,121.6697,42.0279,阜新市,长青街,,29,13,20,8,8,92,,109,107,12,18,9,5,0.4,0.4
2025-08-10T2000,2209A,121.6673,42.0705,阜新市,农业园区,,25,23,17,7,3,80,,98,96,10,8,7,3,0.6,0.5
2025-08-10T2000,2210A,121.6717,42.0224,阜新市,东苑,,29,21,33,8,11,92,,109,108,21,23,13,8,0.4,0.8
2025-08-10T2000,2211A,121.6506,42.0498,阜新市,玉龙新城,,29,21,31,7,7,91,,109,107,20,19,11,8,0.4,0.4
2025-08-10T2000,2301A,115.8277,32.8929,阜阳市,市监测站,,22,8,21,3,14,68,,47,47,12,13,4,4,0.2,0.3
2025-08-10T2000,2303A,115.8554,32.8605,阜阳市,开发区,,20,,20,8,13,61,,49,49,9,9,6,7,0.4,0.4
2025-08-10T2000,2875A,115.784,32.8892,阜阳市,阜阳职业技术学院,,22,6,22,3,12,68,,50,50,11,11,4,6,0.4,0.4
2025-08-10T2000,3468A,115.7901,32.8613,阜阳市,市规划展馆,,19,9,24,3,18,60,,42,42,6,8,2,3,0.4,0.4
2025-08-10T2000,3469A,115.836,32.9183,阜阳市,枣园社区,,20,15,26,6,24,61,,46,44,14,10,2,2,0.5,0.5
2025-08-10T2000,2669A,102.9099,34.9841,甘南藏族自治州,州政府,,27,19,21,10,14,86,,99,99,7,9,3,3,0.4,0.3
2025-08-10T2000,3380A,102.8914,34.9617,甘南藏族自治州,甘肃民族师范学院,,27,18,22,3,12,84,,100,100,2,7,4,4,0.2,0.2
2025-08-10T2000,2570A,101.9603,30.0475,甘孜藏族自治州,水桥子,,20,,8,14,6,44,,74,72,21,17,6,6,0.7,0.4
2025-08-10T2000,3065A,101.9533,29.9972,甘孜藏族自治州,州环保局,,20,17,12,8,5,63,,81,80,15,18,4,4,0.4,0.3
2025-08-10T2000,3414A,115.8347,28.932,赣江新区,桑海产业园,,37,34,28,17,15,117,,121,121,12,13,6,7,0.3,0.4
2025-08-10T2000,2362A,114.9017,25.9149,赣州市,通天岩,,45,36,36,31,27,67,,132,114,7,5,19,19,0.8,0.7
2025-08-10T2000,2363A,114.9367,25.8664,赣州市,地委,,41,41,34,25,23,106,,136,127,8,8,6,7,0.6,0.5
2025-08-10T2000,2364A,114.9461,25.8481,赣州市,气象台,,42,42,34,25,21,110,,139,130,5,5,5,9,0.5,0.5
2025-08-10T2000,2365A,114.9322,25.8333,赣州市,市图书馆,,44,44,33,27,22,104,,130,122,8,8,4,4,0.5,0.2
2025-08-10T2000,2366A,114.8905,25.8471,赣州市,华坚鞋城,细颗粒物(PM2.5),53,43,39,37,24,97,,129,120,10,10,4,6,0.5,0.5
2025-08-10T2000,3109A,115.0093,25.8613,赣州市,赣县区卫计委,,29,,29,20,21,68,,132,119,31,11,4,4,0.3,0.3
2025-08-10T2000,2683A,106.2319,36.1417,固原市,马园,,38,38,30,10,7,69,,111,107,38,28,8,7,0.6,0.6
2025-08-10T2000,2684A,106.2792,36.0022,固原市,监测站,,33,26,23,6,7,104,,108,108,11,19,6,6,0.3,0.3
2025-08-10T2000,2685A,106.2375,36.0211,固原市,新区,,27,27,22,9,8,81,,100,97,18,18,7,7,0.4,0.4
2025-08-10T2000,3522A,106.2177,35.9959,固原市,原州区十五小,,30,29,16,11,8,93,,98,98,15,12,9,8,0.4,0.4
2025-08-10T2000,2543A,106.6308,30.5278,广安市,小平旧居,,,,,,,,,,,,,,,,
2025-08-10T2000,2544A,106.6303,30.4576,广安市,市委,,26,14,24,12,24,81,,96,91,5,10,12,13,0.4,0.5
2025-08-10T2000,2545A,106.6271,30.4663,广安市,友谊中学,,29,15,25,11,17,90,,105,102,6,11,4,5,0.7,0.7
2025-08-10T2000,2547A,106.6388,30.4551,广安市,广电花园,,24,,37,11,17,75,,90,85,4,10,2,3,0.5,0.6
2025-08-10T2000,2902A,106.6351,30.4865,广安市,北辰小学,,28,15,28,15,17,88,,101,98,3,8,8,9,0.6,0.6
2025-08-10T2000,2523A,105.8945,32.4535,广元市,黑石坡,,25,16,12,12,10,78,,74,74,10,12,8,9,0.4,0.4
2025-08-10T2000,2524A,105.821,32.4444,广元市,老城,,25,12,12,3,6,78,,84,84,15,12,1,2,0.7,0.7
2025-08-10T2000,2526A,105.8628,32.4287,广元市,监测站,,28,14,14,8,7,88,,84,84,5,8,12,13,0.7,0.8
2025-08-10T2000,3617A,105.8047,32.4166,广元市,经开区,,26,14,15,11,10,81,,80,80,9,9,4,4,0.7,0.7
2025-08-10T2000,1345A,113.2347,23.1423,广州市,广雅中学,臭氧1小时,53,41,32,25,15,162,,164,164,28,18,3,3,0.4,0.4
2025-08-10T2000,1346A,113.2612,23.105,广州市,市五中,臭氧1小时,60,41,26,25,14,168,,161,161,23,17,5,5,0.8,0.8
2025-08-10T2000,1348A,113.3478,23.0916,广州市,广东商学院,臭氧1小时,79,42,22,24,12,183,,152,152,25,16,6,3,0.8,0.7
2025-08-10T2000,1349A,113.4332,23.1047,广州市,市八十六中,,44,39,24,19,11,138,,150,150,48,31,5,4,0.4,0.3
2025-08-10T2000,1350A,113.3505,22.9483,广州市,番禺中学,,32,32,24,22,15,88,,141,139,15,11,6,6,0.4,0.4
2025-08-10T2000,1351A,113.2146,23.3916,广州市,花都师范,,48,39,33,13,15,153,,167,167,31,23,5,5,0.6,0.5
2025-08-10T2000,1352A,113.2597,23.1331,广州市,市监测站,臭氧1小时,72,38,30,19,15,177,,162,162,18,18,6,6,0.3,0.2
2025-08-10T2000,1353A,113.5618,23.312,广州市,九龙镇镇龙,细颗粒物(PM2.5),59,65,35,42,18,113,,138,138,14,24,6,7,0.5,0.5
2025-08-10T2000,1354A,113.2765,23.1544,广州市,麓湖,,42,36,27,26,17,134,,148,148,26,21,2,3,0.5,0.4
2025-08-10T2000,1355A,113.443,23.3035,广州市,帽峰山森林公园,,39,24,21,15,9,124,,140,140,9,18,10,11,0.5,0.5
2025-08-10T2000,2846A,113.3221,23.1322,广州市,体育西,臭氧1小时,95,52,29,30,15,196,,167,167,33,21,6,3,0.6,0.5
2025-08-10T2000,3298A,113.5717,23.5491,广州市,从化街口,,45,45,34,25,19,88,,124,123,18,18,6,7,0.6,0.6
2025-08-10T2000,3299A,113.3472,23.3692,广州市,白云竹料,颗粒物(PM10),59,67,33,33,16,125,,152,152,26,25,4,4,1.0,0.6
2025-08-10T2000,3300A,113.2981,23.237,广州市,白云嘉禾,颗粒物(PM10),53,55,32,33,18,126,,164,163,43,26,4,4,0.7,0.4
2025-08-10T2000,3301A,113.4256,23.1716,广州市,黄埔科学城,,46,46,27,29,16,137,,161,161,20,20,10,10,0.6,0.4
2025-08-10T2000,3302A,113.3942,23.0483,广州市,番禺大学城,臭氧1小时,58,32,25,22,14,166,,172,172,23,16,10,9,0.4,0.3
2025-08-10T2000,3303A,113.4922,22.8168,广州市,南沙黄阁,,27,27,29,8,12,62,,114,114,16,14,5,6,0.3,0.3
2025-08-10T2000,3304A,113.5342,22.7896,广州市,南沙街,,25,25,20,8,9,66,,109,109,12,12,5,5,0.4,0.4
2025-08-10T2000,3443A,113.2902,23.5544,广州市,花都梯面,,39,38,26,27,16,82,,130,128,16,20,5,6,0.5,0.5
2025-08-10T2000,3445A,113.7858,23.7478,广州市,从化良口,,28,25,27,19,20,48,,86,72,6,9,4,4,0.5,0.5
2025-08-10T2000,3446A,113.8051,23.2614,广州市,增城荔城,,31,31,27,21,16,61,,117,113,15,13,7,7,0.4,0.4
2025-08-10T2000,2505A,109.568,23.1478,贵港市,德智高中,,,,,,,,,,,,,,,,
2025-08-10T2000,2506A,109.6047,23.0666,贵港市,江南子站,,46,46,34,27,24,72,,87,86,13,11,8,6,0.5,0.5
2025-08-10T2000,2508A,109.5669,23.1065,贵港市,荷城子站,,25,22,27,17,15,76,,84,84,6,7,8,7,0.6,0.5
2025-08-10T2000,3405A,109.5886,23.1172,贵港市,新世纪学校,,29,29,28,18,19,76,,89,88,10,11,10,8,0.4,0.4
2025-08-10T2000,4260A,109.5933,23.0951,贵港市,中山路155-3号,,39,39,34,22,19,84,,95,94,10,10,3,4,0.3,0.4
2025-08-10T2000,1439A,106.6899,26.5998,贵阳市,马鞍山,,22,22,18,3,5,66,,70,70,8,6,5,4,0.1,0.1
2025-08-10T2000,1441A,106.6243,26.6266,贵阳市,鉴湖路,,31,31,30,3,7,56,,59,59,9,8,8,8,0.1,0.2
2025-08-10T2000,1442A,106.7487,26.6343,贵阳市,燕子冲,,25,,17,17,16,64,,71,71,9,9,9,10,0,0
2025-08-10T2000,1443A,106.6555,26.4365,贵阳市,碧云窝,,39,39,30,12,10,61,,67,66,7,5,6,6,0.2,0.2
2025-08-10T2000,1445A,106.7109,26.6027,贵阳市,红边门,,25,22,22,17,13,57,,65,65,12,10,3,3,0.4,0.3
2025-08-10T2000,1446A,106.7164,26.5699,贵阳市,新华路,,36,36,26,14,15,57,,65,65,14,10,10,9,0,0.1
2025-08-10T2000,1447A,106.674,26.5424,贵阳市,太慈桥,,31,31,21,9,10,50,,57,57,11,9,6,6,0.1,0.1
2025-08-10T2000,1552A,106.805,26.3003,贵阳市,桐木岭,,32,32,32,19,20,58,,62,62,6,5,5,6,0.9,0.9
2025-08-10T2000,4230A,106.6882,26.5695,贵阳市,花果园大街66号,,26,,11,18,15,61,,65,65,9,7,5,5,0.5,0.4
2025-08-10T2000,4231A,106.6873,26.5169,贵阳市,漓江路57号,,20,17,20,9,11,64,,69,69,7,5,4,4,0.4,0.4
2025-08-10T2000,1862A,110.4144,25.3167,桂林市,电子科大尧山校区,,,,,,,,,,,,,,,,
2025-08-10T2000,1864A,110.3089,25.2708,桂林市,龙隐路小学,,24,24,31,14,17,55,,71,67,10,9,5,8,0.3,0.3
2025-08-10T2000,1865A,110.2869,25.2178,桂林市,八中,,20,20,30,13,17,61,,74,71,10,10,6,7,0.5,0.5
2025-08-10T2000,3531A,110.296,25.1253,桂林市,旅游学院,,20,19,27,14,20,46,,76,68,16,9,2,29,0.4,0.4
2025-08-10T2000,4222A,110.1835,25.2444,桂林市,环湖路276号,,22,22,30,9,15,61,,72,70,11,11,4,5,0.2,0.3
2025-08-10T2000,4301A,110.2803,25.2773,桂林市,信义路13号,,25,25,29,3,15,68,,78,75,7,8,4,6,0.6,0.6
2025-08-10T2000,2674A,100.2561,34.4714,果洛藏族自治州,玛沁县大武镇,,34,34,22,13,10,82,,98,95,3,2,14,15,0.2,0.2
2025-08-10T2000,1129A,126.5422,45.755,哈尔滨市,岭北,,19,6,9,3,6,60,,71,70,7,11,11,10,0.4,0.3
2025-08-10T2000,1130A,126.561,45.8167,哈尔滨市,松北商大,,12,11,15,3,4,38,,49,48,8,11,7,7,0.4,0.4
2025-08-10T2000,1131A,126.979,45.5419,哈尔滨市,阿城会宁,,13,13,18,6,10,36,,60,56,13,12,10,6,1.1,0.5
2025-08-10T2000,1132A,126.599,45.7222,哈尔滨市,南岗学府路,,,14,18,,4,47,,56,56,7,12,8,8,0.4,0.5
2025-08-10T2000,1133A,126.689,45.7733,哈尔滨市,太平宏伟公园,,15,12,16,6,7,47,,58,57,6,9,6,6,0.5,0.5
2025-08-10T2000,1134A,126.635,45.7667,哈尔滨市,道外承德广场,,32,32,32,3,6,48,,56,56,4,14,7,7,0.2,0.3
2025-08-10T2000,1135A,126.685,45.7319,哈尔滨市,香坊红旗大街,,15,7,14,3,6,48,,57,57,6,14,7,8,0.5,0.6
2025-08-10T2000,1136A,126.6411,45.7258,哈尔滨市,动力和平路,,16,8,15,3,2,50,,60,60,7,13,5,6,0.4,0.5
2025-08-10T2000,1137A,126.593,45.7478,哈尔滨市,道里建国路,,,7,17,3,7,48,,57,57,6,12,3,2,,0.7
2025-08-10T2000,1138A,126.615,45.61,哈尔滨市,平房东轻厂,,12,9,16,3,6,36,,50,49,14,18,6,7,0.4,0.5
2025-08-10T2000,1139A,126.595,45.9855,哈尔滨市,呼兰师专,,13,6,11,3,2,39,,47,46,6,8,6,6,0.5,0.5
2025-08-10T2000,1140A,126.6206,45.6842,哈尔滨市,省农科院,,18,18,24,3,6,47,,52,52,6,20,4,4,0.5,0.6
2025-08-10T2000,2688A,93.5128,42.8172,哈密市,地区监测站,细颗粒物(PM2.5),80,,44,59,22,110,,126,126,12,14,3,3,0.2,0.3
2025-08-10T2000,2689A,93.4961,42.8328,哈密市,哈密师范学校,,34,27,33,11,14,108,,126,126,15,18,8,9,0.3,0.3
2025-08-10T2000,2671A,100.9048,36.9639,海北藏族自治州,海晏县西海镇,,34,15,19,13,15,108,,122,120,5,4,6,8,0.9,0.5
2025-08-10T2000,3867A,102.0738,36.5056,海东市,平安区公安北苑,,35,35,38,9,20,105,,116,116,5,10,6,17,0.6,0.8
2025-08-10T2000,1409A,110.576,19.9507,海口市,东寨港,,18,18,16,6,8,39,,53,51,3,3,13,10,0.4,0.4
2025-08-10T2000,1410A,110.3232,20.0574,海口市,海南大学,,24,24,20,14,11,45,,83,73,5,5,3,3,0.4,0.4
2025-08-10T2000,1411A,110.283,20.0053,海口市,秀英海南医院,,23,23,25,13,12,37,,88,81,9,11,6,5,0.3,0.3
2025-08-10T2000,1412A,110.338,19.9969,海口市,海南师范大学,,23,19,24,16,12,40,,82,75,6,6,4,4,0.5,0.4
2025-08-10T2000,1413A,110.33,20.0356,海口市,龙华路环保局宿舍,,25,24,23,17,12,41,,81,73,7,6,6,6,0.3,0.3
2025-08-10T2000,3539A,110.5111,19.9736,海口市,桂林洋子站,,,23,20,16,12,38,,63,59,,6,6,5,0.3,0.2
2025-08-10T2000,2673A,100.6188,36.2866,海南藏族自治州,共和县恰卜恰镇,,37,30,22,3,9,117,,127,127,9,6,9,11,0.5,0.5
2025-08-10T2000,2676A,97.3731,37.3753,海西蒙古族藏族自治州,德令哈市,,44,37,29,6,9,139,,134,134,9,4,18,16,0.3,0.3
2025-08-10T2000,1048A,114.5302,36.6116,邯郸市,东污水处理厂,,28,26,29,15,22,89,,133,120,17,11,6,7,0.2,0.3
2025-08-10T2000,1049A,114.4918,36.5713,邯郸市,矿院,,31,12,20,3,5,99,,140,126,9,7,6,6,0.3,0.4
2025-08-10T2000,1050A,114.484,36.6133,邯郸市,丛台公园,,35,22,23,9,15,109,,144,133,12,11,2,3,0.4,0.4
2025-08-10T2000,3458A,114.7895,36.5593,邯郸市,香泉濮院小区,,33,29,23,3,4,104,,122,115,11,7,2,3,0.1,0.2
2025-08-10T2000,3579A,114.50634,36.77178,邯郸市,永年区实验高中,,35,35,40,18,20,102,,140,128,14,17,4,6,0.2,0.3
2025-08-10T2000,3580A,114.20016,36.44293,邯郸市,峰峰矿区临水派出所,,40,32,35,3,1,128,,165,156,10,10,3,5,0.2,0.3
2025-08-10T2000,2634A,106.9893,33.1842,汉中市,汉川机床厂子校,,25,,12,3,5,80,,70,70,6,8,2,3,0.5,0.5
2025-08-10T2000,2635A,107.0154,33.0706,汉中市,市监测站,,22,6,11,3,7,70,,66,66,4,6,5,5,0.7,0.7
2025-08-10T2000,2636A,107.0089,33.1138,汉中市,鑫源开发区,,22,,9,3,7,69,,68,68,5,6,6,6,0.5,0.5
2025-08-10T2000,2637A,107.007,33.0323,汉中市,南郑大河坎水厂,,22,,11,6,8,68,,69,69,4,6,5,6,0.5,0.5
2025-08-10T2000,1223A,120.2072,30.2111,杭州市,滨江,,25,25,31,13,17,52,,108,95,22,18,6,7,0.4,0.4
2025-08-10T2000,1224A,120.0633,30.2747,杭州市,西溪,,28,22,20,19,19,51,,73,66,15,17,8,9,0.4,0.4
2025-08-10T2000,1226A,120.3417,30.3150,杭州市,下沙,,25,25,26,11,13,45,,110,97,32,16,5,6,0.4,0.4
2025-08-10T2000,1227A,120.1269,30.2456,杭州市,卧龙桥,,26,26,21,17,15,24,,82,66,23,9,7,7,0.7,0.5
2025-08-10T2000,1228A,120.1903,30.2692,杭州市,浙江农大,,39,39,34,21,18,36,,66,57,33,26,5,6,0.4,0.3
2025-08-10T2000,1230A,120.1197,30.3119,杭州市,和睦小学,,24,24,23,13,12,51,,86,77,20,13,6,7,0.5,0.4
2025-08-10T2000,1231A,120.3019,30.4183,杭州市,临平镇,,23,23,31,10,13,61,,105,94,14,14,6,6,0.3,0.4
2025-08-10T2000,1232A,120.2753,30.1839,杭州市,城厢镇,,27,27,33,17,21,53,,116,103,15,12,6,7,0.6,0.7
2025-08-10T2000,1233A,120.0883,30.1808,杭州市,云栖,,27,27,24,14,12,35,,94,79,26,17,9,9,0.7,0.7
2025-08-10T2000,3557A,119.9464,30.0494,杭州市,镇二中,细颗粒物(PM2.5),70,71,34,51,26,45,,96,82,32,21,4,4,0.6,0.5
2025-08-10T2000,3558A,119.7183,30.2367,杭州市,市府大楼,,29,28,25,20,18,60,,73,70,9,11,7,8,0.4,0.4
2025-08-10T2000,3656A,120.1556,30.2864,杭州市,消防大队,,24,24,22,15,16,55,,90,80,17,12,6,6,0.6,0.5
2025-08-10T2000,1270A,117.1959,31.7848,合肥市,明珠广场,,19,7,12,7,6,60,,65,65,12,13,5,5,0.7,0.6
2025-08-10T2000,1271A,117.3072,31.8764,合肥市,三里街,,23,12,10,9,7,73,,65,65,8,10,5,5,0.7,0.5
2025-08-10T2000,1272A,117.2588,31.8707,合肥市,琥珀山庄,,22,,12,14,10,70,,68,68,11,10,7,7,0.9,0.7
2025-08-10T2000,1273A,117.1604,31.9052,合肥市,董铺水库,,20,9,11,3,6,62,,60,60,4,5,4,4,0.4,0.3
2025-08-10T2000,1274A,117.25,31.8571,合肥市,长江中路,,24,9,12,8,4,76,,67,67,7,9,6,6,0.7,0.5
2025-08-10T2000,1275A,117.266,31.9436,合肥市,庐阳区,,21,9,11,7,5,67,,67,67,8,9,6,6,0.7,0.6
2025-08-10T2000,1276A,117.3453,31.8616,合肥市,瑶海区,,24,,9,10,5,74,,69,69,8,9,6,6,0.9,0.8
2025-08-10T2000,1277A,117.3027,31.7964,合肥市,包河区,,22,6,11,3,6,68,,62,62,8,13,6,6,0.8,0.7
2025-08-10T2000,1278A,117.2776,31.7385,合肥市,滨湖新区,,25,,12,17,11,73,,70,70,11,13,7,8,0.7,0.6
2025-08-10T2000,1279A,117.1318,31.8403,合肥市,高新区,,25,9,11,7,6,77,,71,71,10,10,5,5,0.7,0.6
2025-08-10T2000,3464A,117.3803,31.9147,合肥市,高教基地,,18,14,11,12,10,37,,55,52,8,11,6,5,0.7,0.6
2025-08-10T2000,3614A,79.924,37.0877,和田地区,地区环保局,颗粒物(PM10),117,183,265,43,71,114,,120,120,5,14,3,2,0.1,0.3
2025-08-10T2000,3615A,79.9131,37.113,和田地区,市环保局,颗粒物(PM10),102,154,237,46,60,112,,118,118,9,25,1,2,0.3,0.3
2025-08-10T2000,2516A,108.2011,24.715,河池市,东仁乐园,,,,,,,,,,,,,,,,
2025-08-10T2000,2517A,108.0497,24.6947,河池市,市环保站,,20,14,23,10,13,64,,75,74,4,6,4,6,0.5,0.5
2025-08-10T2000,2518A,108.0983,24.6989,河池市,市疾控中心,,26,26,24,17,14,60,,78,77,12,14,5,7,0.6,0.6
2025-08-10T2000,1696A,114.6778,23.7569,河源市,源西,,36,28,23,25,12,26,,70,62,13,7,11,10,0.8,0.7
2025-08-10T2000,1697A,114.6944,23.7586,河源市,东埔,,23,23,21,12,14,43,,71,67,13,12,4,5,0.4,0.4
2025-08-10T2000,1698A,114.6892,23.7233,河源市,老城,,48,,25,33,12,35,,72,66,6,9,4,5,0.4,0.4
2025-08-10T2000,1718A,115.4208,35.2464,菏泽市,气象局,,35,33,26,19,17,110,,115,115,11,8,2,3,0.4,0.4
2025-08-10T2000,3374A,115.5564,35.0891,菏泽市,定陶老年大学,,34,34,22,9,11,84,,106,105,18,11,4,4,0.2,0.3
2025-08-10T2000,4184A,115.4797,35.24401,菏泽市,永昌路1号,,32,27,24,19,19,102,,110,110,13,10,7,6,0.3,0.3
2025-08-10T2000,4193A,115.4715,35.2800,菏泽市,长城路999号,,33,28,24,19,12,103,,115,115,13,11,6,6,0.4,0.4
2025-08-10T2000,2514A,111.5264,24.4172,贺州市,环保小区,,37,37,34,17,23,74,,100,97,7,10,12,12,0.8,0.8
2025-08-10T2000,2515A,111.5608,24.4078,贺州市,政协大楼,,37,37,31,21,22,77,,108,103,10,9,13,14,0.7,0.7
2025-08-10T2000,3534A,111.4744,24.4553,贺州市,西湾,,42,34,35,29,23,78,,97,96,10,12,9,9,0.4,0.4
2025-08-10T2000,2385A,114.17,35.9019,鹤壁市,市监测站,,37,37,33,18,22,101,,141,126,13,11,6,7,0.6,0.9
2025-08-10T2000,2386A,114.2956,35.7511,鹤壁市,市交警支队,,26,,26,18,22,78,,119,106,21,14,6,9,0.5,0.6
2025-08-10T2000,2387A,114.2878,35.7306,鹤壁市,迎宾馆,,35,24,34,24,20,92,,132,117,19,13,3,5,0.6,0.6
2025-08-10T2000,3474A,114.2617,35.6822,鹤壁市,大新区,,25,25,32,9,14,49,,123,100,16,7,7,9,0.6,0.6
2025-08-10T2000,3596A,114.1572,35.9603,鹤壁市,南山宾馆,,42,42,42,19,22,104,,155,137,13,14,5,7,0.4,0.8
2025-08-10T2000,2244A,130.2537,47.3416,鹤岗市,哈啤分公司,,22,22,17,7,3,39,,68,60,3,3,12,12,0.5,0.5
2025-08-10T2000,2245A,130.2684,47.3086,鹤岗市,斯达机电,,,25,20,3,6,48,,69,63,5,6,12,12,,0.6
2025-08-10T2000,2246A,130.3114,47.3388,鹤岗市,东山纸板厂,,19,,10,13,8,48,,73,66,6,6,13,13,0.8,0.8
2025-08-10T2000,2247A,130.1097,47.3382,鹤岗市,五号水库,,12,,6,8,7,38,,64,56,8,7,11,10,0.1,0.2
2025-08-10T2000,2263A,127.4833,50.2524,黑河市,交通局,,16,16,12,3,6,14,,15,14,7,8,4,4,0.2,0.2
2025-08-10T2000,2264A,127.5144,50.2341,黑河市,环保局,,19,16,15,13,11,16,,19,15,6,8,5,6,0.2,0.3
2025-08-10T2000,2265A,127.5291,50.2472,黑河市,大黑河岛,,,,3,7,6,8,,11,8,8,7,20,23,,
2025-08-10T2000,1074A,115.6838,37.7541,衡水市,电机北厂,,40,36,39,28,21,119,,130,126,11,15,7,6,0.4,0.5
2025-08-10T2000,1075A,115.6303,37.7316,衡水市,市监测站,,37,27,34,15,14,117,,131,125,10,12,7,7,0.5,0.6
2025-08-10T2000,3188A,115.6683,37.7217,衡水市,市城管局,,40,40,36,22,17,113,,128,126,11,11,10,9,0.4,0.4
2025-08-10T2000,3459A,115.5989,37.5491,衡水市,地表水厂,,44,44,38,8,7,81,,126,120,26,13,9,9,0.3,0.3
2025-08-10T2000,2456A,112.5003,26.9167,衡阳市,原169医院,,32,30,27,22,12,64,,86,83,1,2,8,5,0.5,0.5
2025-08-10T2000,2457A,112.6194,26.9258,衡阳市,衡阳化工总厂,,38,28,30,26,19,66,,89,83,7,7,6,7,0.7,0.7
2025-08-10T2000,2458A,112.6211,26.8956,衡阳市,珠晖区环保局,,31,31,29,15,15,73,,94,89,6,7,9,14,0.6,0.6
2025-08-10T2000,2459A,112.6197,26.8733,衡阳市,市委党校,,35,29,22,24,15,64,,87,82,9,8,11,12,0.4,0.4
2025-08-10T2000,2460A,112.6006,26.8919,衡阳市,市监测站,,26,21,29,18,17,66,,88,83,8,9,7,10,0.5,0.6
2025-08-10T2000,2461A,112.5664,26.9056,衡阳市,真空机电公司,,23,,27,16,16,62,,87,82,12,10,10,10,1.2,0.8
2025-08-10T2000,3399A,112.6703,26.882,衡阳市,师范学院,,20,20,32,13,17,60,,84,78,7,8,7,8,0.7,0.7
2025-08-10T2000,2608A,103.3772,23.3993,红河哈尼族彝族自治州,污水处理厂,,20,20,19,13,15,39,,41,41,6,6,8,8,0.3,0.3
2025-08-10T2000,2609A,103.3861,23.35,红河哈尼族彝族自治州,监测站,,26,25,21,18,11,37,,39,39,3,3,8,9,0.2,0.2
2025-08-10T2000,3038A,103.3758,23.368,红河哈尼族彝族自治州,州图书馆,,26,,14,18,14,38,,40,40,4,4,1,1,0.3,0.2
2025-08-10T2000,1090A,111.6507,40.7517,呼和浩特市,呼市一监,,29,17,20,9,9,91,,107,102,12,15,9,9,0.4,0.4
2025-08-10T2000,1091A,111.6572,40.8033,呼和浩特市,小召,,30,14,21,13,10,96,,108,105,23,24,8,8,0.6,0.5
2025-08-10T2000,1094A,111.7516,40.8369,呼和浩特市,如意水处理厂,,33,19,34,10,9,104,,118,113,20,24,4,5,0.4,0.4
2025-08-10T2000,1095A,111.7276,40.8062,呼和浩特市,二十九中,,37,13,23,11,10,117,,125,121,13,18,5,6,0.7,0.6
2025-08-10T2000,1096A,111.5512,40.7866,呼和浩特市,工大金川校区,,28,19,25,10,9,88,,103,100,22,22,5,6,0.5,0.4
2025-08-10T2000,1097A,111.717,40.7612,呼和浩特市,化肥厂生活区,,33,16,23,9,10,103,,123,116,17,19,5,6,0.4,0.4
2025-08-10T2000,3698A,111.5968,40.8178,呼和浩特市,红旗小学,,26,22,22,13,9,83,,119,113,37,27,4,5,0.3,0.3
2025-08-10T2000,3699A,111.6518,40.8389,呼和浩特市,海东办,,32,14,20,9,10,102,,121,118,25,27,4,5,0.4,0.3
2025-08-10T2000,2192A,119.7594,49.2261,呼伦贝尔市,区环保局,,38,31,28,26,15,45,,54,54,18,15,6,6,2.0,1.8
2025-08-10T2000,3061A,119.7512,49.1577,呼伦贝尔市,国华电力东,,22,21,20,15,10,54,,63,63,8,9,8,10,0.6,0.6
2025-08-10T2000,1250A,120.0751,30.8669,湖州市,城西水厂,,26,26,33,18,20,66,,100,96,14,24,6,6,0.5,0.4
2025-08-10T2000,2873A,120.0830,30.8929,湖州市,仁皇山新区,,23,21,35,9,17,72,,100,97,6,23,3,4,0.5,0.6
2025-08-10T2000,2907A,120.1844,30.8596,湖州市,吴兴区站,,28,28,29,14,18,61,,107,101,9,19,6,6,0.6,0.6
2025-08-10T2000,3562A,120.4148,30.8538,湖州市,南浔区站,,25,22,27,17,21,51,,105,96,9,14,4,5,0.8,0.8
2025-08-10T2000,1607A,120.9049,40.7211,葫芦岛市,龙港区,,34,19,31,7,17,108,,134,132,12,27,4,9,0.4,0.5
2025-08-10T2000,1608A,120.8392,40.7514,葫芦岛市,化工街,,33,22,27,9,12,104,,131,127,18,33,9,19,0.4,0.5
2025-08-10T2000,1609A,120.8341,40.7073,葫芦岛市,新区,,37,17,37,9,15,118,,143,133,9,30,4,8,0.6,0.7
2025-08-10T2000,1610A,120.8695,40.7677,葫芦岛市,东城区,,32,,27,22,12,100,,130,127,19,26,4,8,0.6,0.5
2025-08-10T2000,2482A,109.5981,27.5721,怀化市,林科所,,25,25,24,3,6,50,,69,62,7,5,4,4,0.8,0.5
2025-08-10T2000,2483A,109.9453,27.5444,怀化市,河西地税局,,18,18,21,12,13,39,,62,57,11,5,3,2,0.2,0.1
2025-08-10T2000,2484A,109.9781,27.5342,怀化市,市四医院,,20,20,26,3,16,53,,68,62,3,4,3,4,0.1,0.1
2025-08-10T2000,2485A,109.9972,27.5578,怀化市,监测楼,,20,14,26,14,14,53,,66,61,5,6,3,3,0.1,0.1
2025-08-10T2000,2486A,110.0394,27.583,怀化市,市委党校,,23,23,20,7,12,50,,59,56,8,5,6,6,0.1,0.1
2025-08-10T2000,1210A,119.036,33.5981,淮安市,钵池山,,,,15,10,11,62,,70,69,9,7,8,8,0.5,0.6
2025-08-10T2000,1211A,119.007,33.575,淮安市,北京南路,,20,12,8,11,11,63,,69,69,9,8,7,6,0.6,0.6
2025-08-10T2000,1212A,118.989,33.6067,淮安市,市监测站,,23,,9,12,8,73,,78,78,5,5,8,8,0.6,0.6
2025-08-10T2000,1213A,119.135,33.5039,淮安市,楚州区监测站,,20,12,13,6,8,63,,67,65,10,9,7,7,0.5,0.5
2025-08-10T2000,3426A,118.8755,33.2894,淮安市,新华书店,,24,,5,3,8,76,,75,75,5,7,5,5,0.4,0.4
2025-08-10T2000,4206A,119.0288,33.6319,淮安市,承德北路606号,,18,17,15,8,8,56,,67,66,8,4,4,5,0.5,0.4
2025-08-10T2000,2282A,116.8004,33.975,淮北市,监测站,,29,,15,20,20,87,,93,93,11,9,6,6,0.7,0.8
2025-08-10T2000,2283A,116.8091,33.9007,淮北市,烈山区政府,,27,18,25,7,10,86,,84,84,5,7,8,8,0.5,0.5
2025-08-10T2000,3330A,116.8873,33.9836,淮北市,杜集区检察院,,32,,21,22,16,81,,85,85,6,7,7,7,0.8,0.7
2025-08-10T2000,4017A,116.7923,33.9535,淮北市,市博物馆,,28,17,20,11,13,87,,94,94,12,9,9,8,0.7,0.6
2025-08-10T2000,2277A,116.8305,32.7727,淮南市,潘集区政府,,22,12,19,7,9,68,,66,66,10,8,2,2,0.2,0.4
2025-08-10T2000,2279A,116.8569,32.5951,淮南市,谢家集区政府,,22,6,10,3,5,68,,66,66,4,6,6,7,0.2,0.4
2025-08-10T2000,2280A,116.8281,32.633,淮南市,八公山区政府,,23,6,9,3,7,72,,69,69,4,6,5,6,0.3,0.4
2025-08-10T2000,2281A,116.6325,32.6201,淮南市,焦岗湖风景区管理处,,,,,,,,,,,,,,,,
2025-08-10T2000,2894A,117.0566,32.6531,淮南市,经济技术开发区消防队,,23,6,9,3,5,73,,74,74,9,8,8,8,0.2,0.3
2025-08-10T2000,3329A,117.0108,32.5893,淮南市,山南新区,,23,,6,8,7,72,,74,74,7,7,9,9,0.3,0.5
2025-08-10T2000,4209A,117.0031,32.6445,淮南市,国庆中路369号,,23,19,14,3,14,72,,73,73,7,7,4,4,0.3,0.5
2025-08-10T2000,2446A,114.9028,30.4742,黄冈市,职工中心,,35,21,29,17,22,109,,139,139,9,15,10,10,0.7,0.7
2025-08-10T2000,2929A,114.8858,30.4519,黄冈市,红卫路,,32,16,28,16,20,100,,140,140,6,13,7,9,0.6,0.5
2025-08-10T2000,3398A,114.9136,30.4445,黄冈市,市林业局,,34,,34,21,19,108,,146,146,13,20,6,9,0.6,0.6
2025-08-10T2000,2672A,102.0199,35.5102,黄南藏族自治州,同仁县隆务镇,颗粒物(PM10),53,55,28,3,12,115,,108,108,5,4,10,9,0.4,0.3
2025-08-10T2000,2295A,118.2903,29.6963,黄山市,延安路89号,颗粒物(PM10),51,52,30,20,12,75,,83,82,4,5,4,4,0.5,0.4
2025-08-10T2000,2297A,118.1371,30.2756,黄山市,黄山区政府5号楼,,49,49,29,26,17,47,,80,72,8,4,4,4,0.3,0.2
2025-08-10T2000,4210A,118.3354,29.7203,黄山市,滨江东路7-2号,,40,38,29,28,11,75,,80,80,5,6,3,2,0.4,0.4
2025-08-10T2000,2423A,115.0601,30.2313,黄石市,沈家营,,37,37,61,3,16,53,,120,110,1,13,7,7,0.3,0.4
2025-08-10T2000,2426A,114.8988,30.2019,黄石市,铁山,,24,24,34,10,14,46,,112,99,13,14,4,5,0.4,0.3
2025-08-10T2000,2427A,115.0307,30.2092,黄石市,团城山,,34,34,42,3,11,58,,130,120,5,11,6,7,0.5,0.4
2025-08-10T2000,3149A,115.0235,30.1578,黄石市,笔架山北路,,33,33,33,3,9,71,,118,110,5,10,5,8,0.4,0.5
2025-08-10T2000,4185A,115.0780,30.21118,黄石市,磁湖东路29号,,43,43,59,7,17,56,,123,114,7,13,7,9,0.6,0.7
2025-08-10T2000,1392A,114.4183,23.0528,惠州市,河南岸金山湖子站,,13,13,14,7,7,41,,74,70,11,9,6,7,0.5,0.5
2025-08-10T2000,1393A,114.4053,23.0822,惠州市,下埔横江三路子站,,17,17,13,9,7,47,,83,79,9,7,4,5,0.4,0.4
2025-08-10T2000,1394A,114.4103,23.1142,惠州市,江北云山西路子站,,22,22,15,6,6,50,,88,84,11,11,8,8,0.5,0.5
2025-08-10T2000,1395A,114.4645,22.7833,惠州市,惠阳区承修路船湖子站,,16,16,12,3,5,44,,59,56,6,7,6,7,0.5,0.5
2025-08-10T2000,1396A,114.5317,22.7422,惠州市,大亚湾管委会子站,,18,18,12,3,5,50,,58,57,9,8,8,8,0.4,0.4
2025-08-10T2000,3314A,114.4338,22.8134,惠州市,惠阳秋长,,17,17,14,3,7,41,,73,65,9,7,4,3,0.4,0.4
2025-08-10T2000,3452A,114.6517,22.775,惠州市,大亚湾霞涌,,19,19,11,8,6,41,,64,59,11,8,6,5,0.4,0.4
2025-08-10T2000,2240A,130.9762,45.3001,鸡西市,环保局,,20,15,15,3,4,62,,85,79,5,9,5,6,0.3,0.3
2025-08-10T2000,2243A,130.9429,45.3039,鸡西市,第一中学,,28,28,16,13,6,60,,81,76,6,12,11,11,0.3,0.3
2025-08-10T2000,3707A,131.0207,45.3073,鸡西市,欧美日汽修厂,,22,22,15,6,7,60,,83,77,8,13,8,9,0.5,0.5
2025-08-10T2000,3709A,130.9967,45.3106,鸡西市,市政设施管理处,,21,17,17,11,4,66,,85,78,6,14,6,7,0.4,0.5
2025-08-10T2000,2367A,114.9754,27.0803,吉安市,红声器材厂,,41,41,36,19,19,108,,109,104,6,5,8,9,0.6,0.5
2025-08-10T2000,2368A,114.9658,27.0999,吉安市,市森林工业局,,39,39,34,23,19,118,,120,112,6,5,8,9,0.5,0.4
2025-08-10T2000,2369A,114.99,27.1312,吉安市,市环境监测站,,43,29,30,23,19,136,,126,120,1,3,10,12,0.6,0.6
2025-08-10T2000,2370A,115.0093,27.0968,吉安市,青原区法院,,40,40,32,26,20,116,,119,113,9,6,8,8,0.6,0.6
2025-08-10T2000,1772A,126.54,43.8622,吉林市,哈达湾,,22,18,17,8,10,70,,95,93,12,11,14,7,0.4,0.4
2025-08-10T2000,1773A,126.5844,43.8358,吉林市,东局子,,31,31,23,21,11,57,,86,82,17,13,12,6,0.7,0.7
2025-08-10T2000,1774A,126.5052,43.8245,吉林市,电力学院,,20,16,8,12,9,62,,93,88,13,6,6,6,0.4,0.3
2025-08-10T2000,1775A,126.6133,43.8972,吉林市,江北,,32,29,22,22,11,56,,87,83,12,10,5,5,0.5,0.5
2025-08-10T2000,1776A,126.555,43.8306,吉林市,江南公园,,20,16,16,8,12,64,,91,88,18,12,5,2,0.3,0.6
2025-08-10T2000,1778A,126.7061,43.7133,吉林市,丰满,,27,11,11,6,8,84,,116,112,8,7,5,5,0.5,0.7
2025-08-10T2000,2868A,126.4739,43.953,吉林市,九站,,21,15,16,8,10,67,,91,87,14,15,8,5,0.4,0.4
2025-08-10T2000,1299A,116.9862,36.6114,济南市,科干所,,37,27,22,22,20,117,,141,139,17,13,7,6,0.5,0.5
2025-08-10T2000,1300A,116.9376,36.665,济南市,农科所,,35,24,26,17,17,110,,144,141,19,20,9,8,0.4,0.4
2025-08-10T2000,1301A,117.1265,36.6734,济南市,开发区,,37,37,27,17,20,109,,144,140,21,16,8,8,0.5,0.5
2025-08-10T2000,1303A,117.0624,36.6868,济南市,省种子仓库,,39,36,34,17,16,123,,153,151,18,18,6,6,0.6,0.6
2025-08-10T2000,1304A,116.9489,36.6447,济南市,机床二厂,,39,29,28,17,14,122,,149,147,19,18,11,10,0.4,0.4
2025-08-10T2000,1305A,117.0495,36.663,济南市,市监测站,,34,32,29,22,17,108,,144,140,28,20,10,10,0.6,0.6
2025-08-10T2000,1306A,116.7675,36.5484,济南市,长清党校,,37,29,30,20,22,117,,143,141,20,20,7,6,0.5,0.6
2025-08-10T2000,1616A,117.6795,36.229,济南市,技术学院,,35,29,14,24,14,95,,114,112,19,10,8,7,0.8,0.7
2025-08-10T2000,1961A,117.532,36.6868,济南市,东山小学,,32,32,24,15,14,87,,132,124,22,18,7,6,0.3,0.3
2025-08-10T2000,3059A,117.7161,36.2049,济南市,泰兴公司,,27,27,16,7,11,85,,104,104,18,7,11,10,0.6,0.6
2025-08-10T2000,3064A,117.6867,36.2171,济南市,莱芜战役纪念馆,,32,29,19,22,14,89,,106,105,19,10,4,4,1.0,0.9
2025-08-10T2000,3494A,117.1673,36.9782,济南市,济阳区政府,,40,39,24,20,12,126,,132,131,12,12,7,7,0.2,0.2
2025-08-10T2000,3495A,117.1171,36.63,济南市,锦屏中学,,30,29,25,15,14,94,,142,136,19,12,8,7,0.7,0.6
2025-08-10T2000,3682A,116.9814,36.6819,济南市,济南四建,,33,27,27,15,18,104,,143,139,41,24,7,7,0.6,0.6
2025-08-10T2000,1653A,116.6251,35.4302,济宁市,火炬城,,36,36,21,14,10,87,,118,115,10,6,4,5,0.6,0.6
2025-08-10T2000,1655A,116.5491,35.4042,济宁市,电化厂,,37,37,25,19,11,89,,121,118,19,9,1,2,0.7,0.7
2025-08-10T2000,3500A,116.5814,35.3707,济宁市,北湖一中,,35,35,22,14,11,98,,124,121,11,6,3,4,0.4,0.3
2025-08-10T2000,3501A,116.8249,35.5593,济宁市,服务中心,,32,24,18,9,5,100,,119,117,13,7,2,3,0.3,0.3
2025-08-10T2000,3678A,116.5907,35.4054,济宁市,市第七中学,,31,31,21,12,6,90,,113,111,10,7,7,8,0.4,0.4
2025-08-10T2000,2255A,130.2751,46.8028,佳木斯市,佳纺,,20,20,13,8,6,27,,52,37,13,12,8,8,0.4,0.4
2025-08-10T2000,2256A,130.3995,46.8307,佳木斯市,发电厂,,15,,10,10,6,27,,62,53,19,8,6,6,0.6,0.5
2025-08-10T2000,2257A,130.3258,46.7975,佳木斯市,环保局,,18,18,12,10,8,28,,58,43,18,14,8,8,0.5,0.5
2025-08-10T2000,2258A,130.3648,46.8032,佳木斯市,十一中,,19,17,9,13,6,31,,62,51,23,12,7,7,0.6,0.5
2025-08-10T2000,2259A,130.3794,46.7588,佳木斯市,四丰,,,,,,,,,,,,15,,1,,0.4
2025-08-10T2000,1252A,120.7436,30.778,嘉兴市,清河小学,,32,32,35,14,15,62,,103,97,20,20,5,6,0.8,0.7
2025-08-10T2000,1253A,120.726,30.7478,嘉兴市,嘉兴学院,,30,30,35,17,18,56,,103,93,24,23,4,4,0.7,0.6
2025-08-10T2000,2872A,120.7846,30.7525,嘉兴市,南湖区残联,,28,25,32,19,20,83,,106,102,13,20,4,5,0.6,0.6
2025-08-10T2000,3407A,120.6916,30.7739,嘉兴市,秀洲住建,,30,30,31,16,17,36,,100,86,35,18,5,6,0.7,0.6
2025-08-10T2000,1945A,98.2908,39.7711,嘉峪关市,气象局,颗粒物(PM10),60,70,60,14,14,129,,134,133,11,10,6,13,0.7,0.8
2025-08-10T2000,2884A,98.2672,39.7978,嘉峪关市,酒钢宾馆,颗粒物(PM10),69,88,79,17,19,146,,150,149,9,10,16,28,0.7,0.7
2025-08-10T2000,3248A,98.2643,39.7724,嘉峪关市,雄关区,颗粒物(PM10),51,51,53,17,18,121,,125,124,17,15,7,10,0.4,0.3
2025-08-10T2000,1383A,113.1064,22.6058,江门市,北街,,29,14,21,11,12,90,,119,119,10,10,3,3,0.5,0.4
2025-08-10T2000,1384A,113.0731,22.5835,江门市,西区,,25,16,23,10,11,77,,110,109,13,11,6,7,0.9,0.7
2025-08-10T2000,1385A,113.0219,22.5311,江门市,圭峰西,,24,16,23,13,12,75,,84,84,8,9,8,7,0.6,0.5
2025-08-10T2000,1386A,113.0828,22.5947,江门市,东湖,,28,28,20,16,13,77,,102,102,13,10,7,7,0.5,0.4
2025-08-10T2000,3311A,113.1075,22.5647,江门市,江海富民,,40,40,32,17,15,89,,113,113,10,10,8,8,0.3,0.3
2025-08-10T2000,3449A,113.05,22.4667,江门市,新会银湖,,20,15,25,14,15,58,,80,79,9,11,4,4,0.5,0.5
2025-08-10T2000,1830A,113.1992,35.2590,焦作市,影视城,,,,29,,12,,,,,,7,,9,,0.7
2025-08-10T2000,3335A,113.3137,35.2641,焦作市,马村街道办,,48,48,55,15,22,91,,149,138,18,19,4,9,0.8,0.9
2025-08-10T2000,3336A,113.2465,35.2373,焦作市,焦作技师学院,,31,31,50,17,22,98,,154,143,10,12,4,10,0.7,0.8
2025-08-10T2000,3477A,113.1656,35.2539,焦作市,中站许衡医院,颗粒物(PM10),51,52,57,35,35,86,,153,139,28,27,5,11,0.7,0.9
2025-08-10T2000,3981A,113.2449,35.1803,焦作市,原李万街道办,颗粒物(PM10),52,53,44,34,17,101,,156,144,22,19,8,10,1.0,0.9
2025-08-10T2000,4264A,113.2340,35.2190,焦作市,新安路1731号,,49,49,49,23,20,115,,157,150,11,14,4,6,0.8,0.9
2025-08-10T2000,4295A,113.2722,35.2121,焦作市,人民路3066号,,36,32,42,25,18,100,,151,142,13,14,2,3,0.9,0.9
2025-08-10T2000,1708A,116.3701,23.5345,揭阳市,新兴,,16,,17,11,12,39,,60,54,5,8,4,5,0.4,0.5
2025-08-10T2000,1709A,116.3264,23.5443,揭阳市,西马,,29,29,19,9,8,38,,65,59,5,6,2,2,0.4,0.4
2025-08-10T2000,1710A,116.3611,23.5626,揭阳市,东兴,,20,20,23,8,8,31,,54,49,6,7,4,4,0.5,0.5
2025-08-10T2000,1711A,116.4151,23.5294,揭阳市,渔湖,,12,12,19,8,5,33,,58,52,10,11,4,4,0.4,0.4
2025-08-10T2000,3320A,116.403,23.5699,揭阳市,曲溪,,19,15,18,13,10,32,,61,56,10,7,1,3,0.5,0.4
2025-08-10T2000,1944A,102.1692,38.5167,金昌市,天庆家园,,46,46,57,10,14,113,,107,107,4,8,13,11,0.5,0.7
2025-08-10T2000,4022A,102.1647,38.5371,金昌市,金川区人防中心,颗粒物(PM10),53,55,56,14,14,120,,118,118,4,8,6,7,0.5,0.5
2025-08-10T2000,4239A,102.1930,38.5319,金昌市,长春路96号,,49,49,56,14,13,110,,108,108,4,7,4,6,0.5,0.6
2025-08-10T2000,1262A,119.647,29.077,金华市,十五中,,46,46,33,23,18,64,,97,90,24,18,3,4,0.4,0.4
2025-08-10T2000,1263A,119.686,29.1029,金华市,监测站,颗粒物(PM10),55,59,33,34,18,69,,104,97,17,13,4,4,0.5,0.4
2025-08-10T2000,3659A,119.656,29.1131,金华市,气象局,,36,36,32,21,16,74,,97,91,10,13,2,3,0.4,0.4
2025-08-10T2000,1767A,121.1115,41.0879,锦州市,南山,,40,40,29,10,13,100,,111,110,24,19,13,8,0.6,0.6
2025-08-10T2000,1768A,121.0604,40.8428,锦州市,开发区,颗粒物(PM10),51,52,45,10,17,86,,123,118,26,33,5,22,0.6,0.9
2025-08-10T2000,1769A,121.1836,41.1119,锦州市,百股街道,,36,23,22,7,5,115,,120,119,19,19,9,12,0.6,0.5
2025-08-10T2000,1770A,121.1178,41.1222,锦州市,天安街道,,42,42,26,16,11,111,,122,122,21,22,16,10,0.7,0.6
2025-08-10T2000,1771A,121.1303,41.1386,锦州市,北湖公园,,35,,22,19,9,111,,116,116,17,16,12,8,0.7,0.5
2025-08-10T2000,2160A,112.85,35.5051,晋城市,自来水公司,,31,31,36,14,14,72,,109,97,29,20,2,2,0.8,0.8
2025-08-10T2000,2161A,112.8318,35.4936,晋城市,白云商贸,,26,26,37,7,11,75,,117,106,25,16,4,5,0.8,0.9
2025-08-10T2000,2162A,112.8508,35.4887,晋城市,市环保局,,33,33,33,9,14,82,,119,109,26,16,3,5,0.8,0.8
2025-08-10T2000,2163A,112.8676,35.4897,晋城市,技术学院,,30,30,33,3,10,71,,106,99,32,17,3,4,0.8,0.7
2025-08-10T2000,2165A,112.8453,35.546,晋城市,白马寺,,30,,23,19,16,96,,120,116,19,12,7,10,0.7,1
2025-08-10T2000,3620A,112.8271,35.4828,晋城市,泽州一中,,27,27,41,14,9,84,,124,116,22,14,6,11,0.9,2.2
2025-08-10T2000,2173A,112.7249,37.7067,晋中市,南都小区,,45,43,28,21,14,141,,131,131,13,13,6,6,0.7,0.5
2025-08-10T2000,2174A,112.6991,37.6982,晋中市,榆次区政府,,48,48,26,23,14,141,,132,132,13,13,7,7,0.5,0.2
2025-08-10T2000,2865A,112.7195,37.6828,晋中市,榆次三中,,47,46,21,17,8,148,,136,136,9,10,8,8,0.6,0.4
2025-08-10T2000,4200A,112.7478,37.6954,晋中市,迎宾街26号,臭氧1小时,54,39,20,17,7,163,,144,144,9,11,10,10,0.5,0.4
2025-08-10T2000,2439A,112.2014,31.0481,荆门市,竹园小学,,34,,14,22,16,107,,95,95,2,5,2,10,0.2,0.4
2025-08-10T2000,2440A,112.1969,30.9891,荆门市,掇刀,,34,12,13,10,8,106,,96,96,12,13,4,6,0.4,0.6
2025-08-10T2000,2441A,112.2213,31.0386,荆门市,石化一小,,31,20,16,3,5,98,,92,92,12,14,5,5,0.4,0.4
2025-08-10T2000,3012A,112.1849,31.0362,荆门市,西山林语,,34,12,10,11,9,108,,97,97,1,3,7,7,0.3,0.5
2025-08-10T2000,3547A,112.1632,31.0138,荆门市,龙泉中学南校,,37,12,10,10,5,116,,104,104,4,5,3,3,0.6,0.7
2025-08-10T2000,1844A,112.2494,30.3197,荆州市,市图书馆,,25,8,13,8,9,77,,66,66,8,6,2,2,0.6,0.6
2025-08-10T2000,1845A,112.2008,30.3544,荆州市,市委党校,,23,14,13,13,7,73,,65,65,10,11,7,7,0.7,0.6
2025-08-10T2000,3194A,112.2747,30.3122,荆州市,管委会,,24,16,14,13,11,74,,60,60,8,8,2,3,0.7,0.7
2025-08-10T2000,4268A,112.1722,30.3366,荆州市,学苑路85号,,24,12,16,9,11,76,,69,69,2,6,5,5,0.5,0.5
2025-08-10T2000,2342A,117.3102,29.3867,景德镇市,王港中学,,,,,,,,,,,,,,,,
2025-08-10T2000,2343A,117.2117,29.2933,景德镇市,老干部活动中心,,35,35,34,22,18,97,,98,97,3,12,6,9,0.5,0.5
2025-08-10T2000,2344A,117.1894,29.2789,景德镇市,兽医站,,39,39,38,25,19,102,,98,98,5,17,4,12,0.9,0.9
2025-08-10T2000,2346A,117.2461,29.2956,景德镇市,陶研所,,37,37,30,24,18,91,,102,100,3,8,6,8,0.6,0.7
2025-08-10T2000,4289A,117.1542,29.2566,景德镇市,青少年活动中心,,43,30,42,30,22,99,,96,96,5,18,1,22,0.8,0.8
2025-08-10T2000,1803A,115.9872,29.6815,九江市,十里,,50,38,24,35,23,92,,102,102,13,11,5,6,0.6,0.6
2025-08-10T2000,1804A,115.9584,29.7046,九江市,茅山头,,42,42,30,22,19,86,,94,94,7,5,4,4,0.6,0.7
2025-08-10T2000,1805A,115.9877,29.7295,九江市,西园,,40,38,26,28,16,71,,108,103,57,22,11,10,0.9,0.7
2025-08-10T2000,1808A,115.9114,29.6038,九江市,综合工业园,,36,25,27,21,17,114,,116,116,5,13,7,8,0.7,0.7
2025-08-10T2000,1809A,116.0721,29.7535,九江市,石化总厂,细颗粒物(PM2.5),52,48,36,36,28,101,,120,118,12,13,6,7,0.6,0.6
2025-08-10T2000,1810A,115.9773,29.5698,九江市,庐山气象台,,30,26,16,6,8,93,,92,92,4,3,7,6,0.9,0.7
2025-08-10T2000,3190A,116.0254,29.6994,九江市,外国语学校,颗粒物(PM10),52,53,24,31,24,96,,113,113,8,10,6,9,0.7,0.6
2025-08-10T2000,4253A,116.0102,29.6594,九江市,莲花大道8号,,37,37,18,18,15,82,,97,97,4,3,4,4,0.6,0.6
2025-08-10T2000,4240A,98.4958,39.7339,酒泉市,玉门东路5号,颗粒物(PM10),71,92,64,41,28,127,,136,135,9,11,7,10,0.7,0.4
2025-08-10T2000,4241A,98.5099,39.7506,酒泉市,北大街108号,颗粒物(PM10),75,100,72,30,22,113,,127,125,8,9,7,10,0.4,0.4
2025-08-10T2000,2698A,76.0072,39.4467,喀什地区,巡警大队,颗粒物(PM10),120,189,151,50,42,109,,120,120,9,29,4,4,0.3,0.5
2025-08-10T2000,2699A,75.9755,39.4694,喀什地区,吾办,颗粒物(PM10),125,200,160,72,69,114,,122,122,11,27,8,6,0.4,0.5
2025-08-10T2000,4027A,75.9483,39.4689,喀什地区,老干局,颗粒物(PM10),122,193,145,48,41,122,,129,129,7,24,6,5,0.6,0.8
2025-08-10T2000,1824A,114.3389,34.7781,开封市,肿瘤医院,,35,26,28,12,16,112,,122,121,12,12,2,3,0.5,0.6
2025-08-10T2000,1826A,114.2885,34.7965,开封市,世纪星幼儿园,,34,24,24,12,20,108,,121,119,13,11,2,3,0.9,0.9
2025-08-10T2000,3147A,114.3438,34.8106,开封市,龙亭公园,,30,24,34,15,14,93,,113,111,12,10,3,3,0.6,0.7
2025-08-10T2000,3210A,114.3644,34.7964,开封市,汴京公园,,33,24,33,10,10,103,,116,115,10,8,3,3,0.6,0.8
2025-08-10T2000,3473A,114.2485,34.8306,开封市,技师学院,,32,24,32,22,21,81,,116,106,23,12,9,6,0.1,0.3
2025-08-10T2000,3592A,114.4644,34.7556,开封市,祥符区生态环境局,,36,36,27,16,15,81,,102,101,23,15,5,6,0.5,0.5
2025-08-10T2000,1951A,84.895,45.6094,克拉玛依市,长征新村,,26,17,42,12,7,82,,76,76,6,4,3,3,0.1,0.1
2025-08-10T2000,1952A,84.8988,45.5893,克拉玛依市,南林小区,,26,19,40,3,8,81,,79,79,10,14,5,5,0.1,0.1
2025-08-10T2000,1954A,84.905,44.3396,克拉玛依市,独山子区,,32,25,53,3,11,101,,104,104,6,7,10,9,0.3,0.3
2025-08-10T2000,1955A,85.6979,46.098,克拉玛依市,乌尔禾区商贸楼,,20,,24,14,6,64,,71,70,12,4,6,6,0.1,0.1
2025-08-10T2000,3612A,85.1045,45.6899,克拉玛依市,白碱滩区新站,,29,28,47,13,17,92,,91,91,10,4,8,8,0.4,0.4
2025-08-10T2000,2697A,76.1454,39.7142,克孜勒苏柯尔克孜自治州,市人民政府,颗粒物(PM10),103,155,99,56,43,117,,125,125,4,12,4,6,0.1,0.1
2025-08-10T2000,3665A,76.1658,39.7157,克孜勒苏柯尔克孜自治州,克州文化中心,颗粒物(PM10),100,149,97,57,41,118,,130,130,3,15,6,8,0.3,0.3
2025-08-10T2000,1450A,102.8204,24.8886,昆明市,呈贡新区,,22,,10,15,11,62,,76,76,10,12,3,6,0.5,0.4
2025-08-10T2000,1451A,102.6251,24.9608,昆明市,西山森林公园,,,,,,,,,,,,,,,,
2025-08-10T2000,1452A,102.7252,25.0902,昆明市,龙泉镇,,26,26,17,12,10,58,,78,78,11,11,2,2,0.4,0.4
2025-08-10T2000,1453A,102.7266,25.0375,昆明市,东风东路,,21,18,17,10,10,66,,81,81,10,10,3,4,0.4,0.4
2025-08-10T2000,1454A,102.6742,25.0669,昆明市,金鼎山,,32,32,24,9,8,53,,77,77,11,9,2,2,0.4,0.3
2025-08-10T2000,1455A,102.6644,25.0401,昆明市,碧鸡广场,,21,21,21,7,7,54,,71,71,12,15,7,8,0.5,0.5
2025-08-10T2000,3179A,102.7494,25.0119,昆明市,官渡区博物馆,,20,20,17,3,6,63,,79,79,10,10,3,2,0.4,0.4
2025-08-10T2000,3375A,102.8017,24.8336,昆明市,青年创业园,,17,14,14,10,11,54,,71,71,10,10,1,5,0.4,0.4
2025-08-10T2000,3550A,102.7997,24.9786,昆明市,昆明学院,,18,15,14,6,7,57,,73,73,13,7,6,6,0.4,0.1
2025-08-10T2000,3551A,102.5967,24.6736,昆明市,晋宁区生态环境分局,,20,20,16,7,7,49,,62,61,6,5,3,2,0.5,0.5
2025-08-10T2000,3552A,102.6678,24.9856,昆明市,云天化总部,,19,8,15,3,8,60,,72,72,8,9,4,6,0.4,0.4
2025-08-10T2000,1456A,91.1319,29.6514,拉萨市,八廓街,,29,11,10,9,6,90,,120,119,15,9,5,8,0.3,0.3
2025-08-10T2000,1457A,91.1221,29.6747,拉萨市,市环保局,,27,20,10,9,7,85,,122,122,17,10,7,8,0.2,0.2
2025-08-10T2000,1458A,91.0874,29.6475,拉萨市,区监测站,,29,8,8,6,6,90,,111,111,18,12,4,4,0.4,0.4
2025-08-10T2000,1459A,91.1774,29.6541,拉萨市,西藏大学,,30,8,9,8,6,94,,116,116,12,11,6,9,0.3,0.3
2025-08-10T2000,1460A,90.9798,29.6588,拉萨市,区辐射站,,28,18,12,9,7,88,,104,104,21,12,4,5,0.4,0.4
2025-08-10T2000,1461A,91.0834,29.6292,拉萨市,拉萨火车站,,29,12,8,8,6,91,,112,112,14,10,5,5,0.5,0.4
2025-08-10T2000,2520A,109.2203,23.7256,来宾市,来宾技工学校,,37,37,38,22,20,78,,85,85,7,8,7,9,0.6,0.6
2025-08-10T2000,3535A,109.1781,23.7297,来宾市,兴宾区政府,,27,25,26,13,16,85,,88,88,7,8,5,6,0.4,0.4
2025-08-10T2000,4002A,109.2416,23.7461,来宾市,中南小学,细颗粒物(PM2.5),55,,32,39,19,84,,89,88,8,7,10,11,0.6,0.5
2025-08-10T2000,1477A,104.1373,35.9454,兰州市,榆中兰大校区,,,,,,,,,,,,,,,,
2025-08-10T2000,1479A,103.831,36.0464,兰州市,铁路设计院,颗粒物(PM10),55,59,59,29,25,74,,96,96,45,50,9,13,0.5,0.9
2025-08-10T2000,3241A,103.7439,36.0842,兰州市,百合公园,,44,44,43,12,19,42,,93,93,35,32,2,5,0.5,0.5
2025-08-10T2000,3242A,103.9611,35.998,兰州市,和平,,,,36,,18,,,102,,,13,,5,,0.2
2025-08-10T2000,4236A,103.6293,36.0938,兰州市,庄浪东路808号,颗粒物(PM10),60,70,53,28,23,81,,141,138,31,40,15,12,0.3,0.4
2025-08-10T2000,4237A,103.7251,36.1043,兰州市,安宁西路88号,颗粒物(PM10),56,61,49,23,22,91,,132,132,10,22,6,6,0.3,0.4
2025-08-10T2000,4238A,103.8470,36.0676,兰州市,北滨河东路1号,颗粒物(PM10),63,76,47,33,25,36,,102,102,78,45,8,12,0.7,0.9
2025-08-10T2000,3245A,103.6633,36.533,兰州新区,新区管委会,,39,35,47,27,27,87,,108,108,12,13,9,11,0.4,0.5
2025-08-10T2000,3246A,103.6975,36.4789,兰州新区,舟曲中学,,30,30,46,7,20,96,,110,110,20,18,8,13,0,0.2
2025-08-10T2000,1067A,116.6708,39.5111,廊坊市,药材公司,,37,37,32,12,16,102,,134,127,11,14,3,4,0.4,0.4
2025-08-10T2000,1068A,116.7214,39.5589,廊坊市,开发区,,41,26,32,12,15,130,,140,138,10,11,4,4,0.3,0.4
2025-08-10T2000,1070A,116.7244,39.5269,廊坊市,北华航天学院,,40,36,49,12,17,126,,147,143,8,10,3,5,0.3,0.4
2025-08-10T2000,2919A,116.7022,39.5453,廊坊市,河北工业大学,,43,43,43,15,14,128,,145,141,11,14,4,5,0.2,0.3
2025-08-10T2000,2535A,103.7723,29.5462,乐山市,花湖湾,,23,7,8,3,7,71,,83,63,6,7,2,2,0.5,0.5
2025-08-10T2000,2536A,103.7627,29.5844,乐山市,牛耳桥,,26,8,11,3,6,83,,100,83,8,8,3,4,0.7,0.7
2025-08-10T2000,2537A,103.7508,29.6006,乐山市,市第三水厂,,26,7,11,3,8,82,,,,9,8,2,2,0.7,0.7
2025-08-10T2000,2538A,103.7571,29.5664,乐山市,市监测站,,24,8,10,7,9,74,,89,73,6,6,4,4,0.7,0.8
2025-08-10T2000,3361A,103.7311,29.5628,乐山市,理工大学,,25,6,9,3,7,78,,91,70,6,7,5,5,0.6,0.7
2025-08-10T2000,2598A,100.2143,26.8576,丽江市,西南郊,,,,,,,,,,,,,,,,
2025-08-10T2000,2599A,100.2497,26.8802,丽江市,丽江古城,,17,17,21,7,8,31,,47,46,18,15,9,9,0.6,0.6
2025-08-10T2000,2600A,100.2203,26.8906,丽江市,市中心,,12,,13,8,11,22,,42,41,20,14,9,9,0.7,0.6
2025-08-10T2000,1267A,119.914,28.4514,丽水市,监测站大楼,,32,32,26,21,16,43,,96,77,14,13,3,3,0.5,0.4
2025-08-10T2000,1268A,119.93,28.4586,丽水市,莲都小学,,31,31,27,17,14,43,,97,76,14,14,3,3,0.4,0.4
2025-08-10T2000,1269A,119.879,28.4231,丽水市,余庄前,,29,26,24,20,19,22,,96,66,10,11,5,5,0.4,0.4
2025-08-10T2000,1173A,119.176,34.5885,连云港市,市环境监测站,,29,7,13,7,3,90,,95,95,8,6,4,2,0.4,0.4
2025-08-10T2000,3000A,119.3581,34.6972,连云港市,德源药业,,29,17,12,3,3,90,,89,89,11,16,4,3,0.6,0.6
2025-08-10T2000,3007A,119.178,34.844,连云港市,新城一中,,28,15,16,3,7,87,,96,92,14,15,3,7,0.5,1
2025-08-10T2000,3008A,119.3608,34.7519,连云港市,胡沟管理处,,25,17,9,3,2,78,,91,84,26,12,8,7,0.8,0.8
2025-08-10T2000,3009A,119.1478,34.5911,连云港市,矿山设计院,,28,17,14,3,6,88,,93,93,5,4,4,4,0.4,0.4
2025-08-10T2000,3434A,119.2413,34.6539,连云港市,工贸学校,,28,14,13,3,4,89,,94,94,7,7,5,5,0.7,0.7
2025-08-10T2000,3664A,119.4172,34.7341,连云港市,连云街道,,31,12,13,3,6,99,,93,93,4,9,3,3,0.5,0.5
2025-08-10T2000,2571A,102.3431,27.8099,凉山彝族自治州,青龙寺,,16,15,16,7,8,51,,70,69,6,4,7,7,0.4,0.4
2025-08-10T2000,2572A,102.2721,27.8415,凉山彝族自治州,邛海宾馆,,24,13,19,7,11,74,,75,75,6,11,10,11,0.4,0.4
2025-08-10T2000,2573A,102.2625,27.898,凉山彝族自治州,西昌市政府,,22,20,21,15,14,64,,77,71,14,13,16,12,1.0,0.8
2025-08-10T2000,2574A,102.2685,27.8851,凉山彝族自治州,凉山州政府,,21,21,23,13,16,67,,73,73,18,15,22,15,1.6,1.1
2025-08-10T2000,4229A,102.2342,27.8859,凉山彝族自治州,凯乐南路30号,,22,22,22,8,10,69,,72,72,15,16,18,20,0.9,1
2025-08-10T2000,2212A,123.2,41.1953,辽阳市,宏伟区,,27,27,30,8,16,73,,115,106,22,15,4,4,0.5,1.1
2025-08-10T2000,2213A,123.1683,41.2495,辽阳市,新华园,,30,13,38,9,18,94,,113,112,17,20,5,6,0.5,0.9
2025-08-10T2000,2214A,123.2354,41.2639,辽阳市,滨河路,,45,45,39,14,23,19,,103,90,49,19,4,5,0.3,0.7
2025-08-10T2000,2215A,123.149,41.2991,辽阳市,铁西工业园,,25,25,50,3,21,73,,101,96,17,20,6,4,0.5,1.2
2025-08-10T2000,2227A,125.1358,42.8845,辽源市,环保局,,26,26,28,10,7,79,,95,93,10,10,8,8,0.5,0.4
2025-08-10T2000,3239A,125.0764,42.9078,辽源市,银鹰制药,,23,17,17,7,10,73,,98,92,16,16,8,9,0.5,0.6
2025-08-10T2000,1625A,115.9848,36.4372,聊城市,区政府,,37,23,20,17,14,117,,129,128,13,12,8,9,0.7,0.7
2025-08-10T2000,2878A,116.0072,36.4343,聊城市,聊大东校,,37,27,23,20,14,116,,132,130,16,14,8,9,0.8,0.8
2025-08-10T2000,3200A,115.9819,36.4978,聊城市,监控中心,,32,29,22,9,8,101,,123,121,14,12,6,8,0.4,0.3
2025-08-10T2000,3513A,116.0445,36.4361,聊城市,九州社区,,39,39,32,22,16,109,,129,127,16,13,4,6,0.4,0.4
2025-08-10T2000,4018A,116.0567,36.4608,聊城市,星美广场,,44,44,28,28,13,110,,130,128,17,14,1,2,0.5,0.5
2025-08-10T2000,2632A,94.3681,29.6376,林芝市,林芝监测站,,11,7,6,6,4,35,,38,38,5,6,5,5,0.4,0.4
2025-08-10T2000,2633A,94.3616,29.6616,林芝市,林芝人民医院,,11,7,7,6,5,34,,39,39,5,4,6,6,0.5,0.4
2025-08-10T2000,2603A,100.0781,23.8982,临沧市,市环保局,,24,24,17,8,16,28,,35,34,11,8,10,8,0.5,0.5
2025-08-10T2000,2604A,100.0894,23.8822,临沧市,市气象局,,,,15,,10,33,,36,36,7,7,12,10,,0.3
2025-08-10T2000,1733A,111.5531,36.0783,临汾市,临钢医院,颗粒物(PM10),52,54,36,17,10,96,,113,112,25,15,11,10,1.4,0.9
2025-08-10T2000,1734A,111.5028,36.0714,临汾市,技工学校,,50,50,42,32,25,92,,112,111,20,16,11,9,1.5,1
2025-08-10T2000,1736A,111.5018,36.0855,临汾市,市委,颗粒物(PM10),54,58,55,19,13,104,,123,122,21,15,11,8,1.6,1.1
2025-08-10T2000,3018A,111.505,36.1014,临汾市,唐尧大酒店,颗粒物(PM10),54,58,60,20,13,84,,108,106,25,16,3,4,1.7,1.2
2025-08-10T2000,4244A,111.4879,36.0530,临汾市,启星学校,细颗粒物(PM2.5),52,51,41,36,29,86,,115,111,23,18,8,7,1.4,1
2025-08-10T2000,4271A,103.2464,35.6123,临夏回族自治州,滨河东路1号,,37,37,49,12,28,96,,88,88,8,15,6,5,0.3,0.4
2025-08-10T2000,4310A,103.2093,35.5995,临夏回族自治州,新华街21号,颗粒物(PM10),55,59,47,29,29,104,,96,96,7,13,6,5,0.3,0.4
2025-08-10T2000,1618A,118.3429,35.0532,临沂市,沂河小区,,24,14,16,8,12,74,,107,100,11,10,8,8,0.3,0.3
2025-08-10T2000,1619A,118.295,35.0583,临沂市,鲁南制药厂,,26,12,11,11,10,81,,115,107,10,12,8,8,0.4,0.4
2025-08-10T2000,1620A,118.2794,34.9976,临沂市,新光毛纺厂,,24,12,8,8,9,74,,112,102,13,11,6,6,0.2,0.2
2025-08-10T2000,1621A,118.3956,35.0888,临沂市,河东保险公司,,25,12,12,3,4,77,,109,100,8,8,5,6,0.2,0.2
2025-08-10T2000,3370A,118.3564,35.0215,临沂市,十里堡居委,,25,24,10,7,7,77,,114,105,11,10,9,9,0.3,0.3
2025-08-10T2000,3496A,118.3604,35.1084,临沂市,南坊新区,,26,12,15,3,6,81,,116,109,11,10,7,8,0.3,0.4
2025-08-10T2000,3860A,118.3920,35.0300,临沂市,皇山花园小区,,23,9,12,3,5,71,,109,100,12,9,8,8,0.3,0.3
2025-08-10T2000,1870A,109.4856,24.3895,柳州市,柳东小学,,30,20,26,16,17,94,,95,95,5,6,4,4,0.5,0.5
2025-08-10T2000,1871A,109.4157,24.3277,柳州市,环保监测站,,30,29,29,12,15,93,,92,92,7,7,7,7,0.4,0.4
2025-08-10T2000,1872A,109.389,24.341,柳州市,河西水厂,,39,39,32,15,16,93,,90,90,8,8,4,4,0.4,0.4
2025-08-10T2000,1873A,109.4311,24.2921,柳州市,市四中,,29,27,32,18,16,90,,93,93,10,11,6,7,0.6,0.6
2025-08-10T2000,1874A,109.4006,24.3631,柳州市,市九中,,40,40,32,17,18,88,,88,88,8,8,4,4,0.5,0.4
2025-08-10T2000,1875A,109.4958,24.3134,柳州市,古亭山,,32,32,32,21,17,68,,87,84,10,8,4,5,0.5,0.5
2025-08-10T2000,3402A,109.5422,24.3996,柳州市,市二中,,34,30,33,14,18,106,,99,99,8,14,12,8,0.6,0.7
2025-08-10T2000,2307A,116.5079,31.737,六安市,监测大楼,,23,8,8,6,9,73,,67,67,4,5,4,4,0.5,0.4
2025-08-10T2000,2308A,116.4738,31.7643,六安市,皖西学院,,26,,10,9,8,83,,71,71,3,5,3,3,0.5,0.4
2025-08-10T2000,2309A,116.4996,31.7905,六安市,朝阳厂,,25,,8,9,9,78,,67,67,6,8,6,6,0.5,0.5
2025-08-10T2000,2310A,116.5567,31.7886,六安市,开发区,,22,,10,9,8,68,,67,67,6,8,2,2,0.6,0.5
2025-08-10T2000,2576A,104.8,26.5892,六盘水市,窑上,,34,34,26,6,6,70,,80,80,7,5,2,2,0.8,0.7
2025-08-10T2000,2577A,104.83,26.5917,六盘水市,黄土坡,,26,20,16,18,11,78,,81,81,9,8,10,9,0.4,0.4
2025-08-10T2000,2578A,104.89,26.5939,六盘水市,水钢,,25,22,19,9,11,79,,81,81,5,5,10,10,0.3,0.4
2025-08-10T2000,2579A,104.8475,26.5894,六盘水市,民中,,25,16,16,3,8,79,,82,82,7,7,9,8,0.4,0.4
2025-08-10T2000,2580A,104.9544,26.5506,六盘水市,双水,,23,22,17,8,9,72,,78,78,10,7,6,6,0.6,0.6
2025-08-10T2000,2335A,117.0189,25.1181,龙岩市,龙岩师专,,,,,,,,,,,,,,,,
2025-08-10T2000,2336A,117.0217,25.1033,龙岩市,龙岩市监测站,,13,,16,9,10,33,,53,47,12,10,6,7,0.5,0.5
2025-08-10T2000,2337A,117.0258,25.0661,龙岩市,闽西职业技术学院,,22,22,19,3,11,19,,52,45,15,7,18,8,0.4,0.4
2025-08-10T2000,2338A,117.0196,25.0306,龙岩市,龙岩学院,,11,,15,6,8,34,,49,45,4,4,6,6,0.6,0.7
2025-08-10T2000,2665A,105.0822,33.3261,陇南市,汉王镇固水子,,,,,,,,,,,,,,,,
2025-08-10T2000,2885A,104.9339,33.3826,陇南市,滨江中学,,39,39,25,19,12,68,,73,73,12,5,7,7,0.7,0.7
2025-08-10T2000,3247A,104.955,33.371,陇南市,市总工会,,37,37,31,3,5,86,,84,84,6,7,5,5,0.5,0.6
2025-08-10T2000,2487A,111.9589,27.8901,娄底市,电视发射台,,37,37,30,18,14,39,,69,63,5,5,2,3,0.4,0.3
2025-08-10T2000,2488A,111.9975,27.725,娄底市,市监测站,,36,,28,25,17,71,,80,79,9,7,7,9,0.7,0.6
2025-08-10T2000,2489A,112.0194,27.7314,娄底市,市委党校,,48,48,31,32,22,66,,79,77,9,7,9,6,0.8,0.7
2025-08-10T2000,2490A,111.9561,27.7569,娄底市,涟钢,,34,34,37,16,22,58,,69,68,13,13,14,15,1.1,0.6
2025-08-10T2000,2491A,111.9892,27.7044,娄底市,市政府,,32,23,23,22,19,74,,80,80,5,4,6,6,0.3,0.2
2025-08-10T2000,1893A,105.4324,28.9634,泸州市,九狮山,,46,33,41,32,34,58,,96,90,9,9,3,5,0.4,0.5
2025-08-10T2000,1894A,105.4427,28.9063,泸州市,小市上码头,,26,26,31,13,17,52,,69,65,6,8,3,3,0.3,0.4
2025-08-10T2000,1895A,105.4241,28.8573,泸州市,兰田宪桥,,35,35,32,20,18,66,,85,80,7,10,8,8,0.8,0.8
2025-08-10T2000,1896A,105.4379,28.8833,泸州市,市环监站,,28,28,29,18,21,72,,97,92,10,10,6,6,0.4,0.5
2025-08-10T2000,4272A,105.3689,28.7783,泸州市,纳溪中医医院,,29,29,27,18,21,60,,107,97,31,17,7,7,0.6,0.7
2025-08-10T2000,2183A,111.1406,37.5211,吕梁市,环保局,,40,40,40,24,14,84,,146,144,36,23,3,5,0.7,0.6
2025-08-10T2000,2185A,111.1297,37.5136,吕梁市,自来水公司,,33,27,41,23,13,90,,139,138,22,20,5,7,0.9,0.6
2025-08-10T2000,2867A,111.1283,37.51,吕梁市,马茂庄小学,,30,30,43,16,15,94,,142,141,26,23,2,4,0.6,0.6
2025-08-10T2000,1812A,112.3931,34.6516,洛阳市,市委党校,,26,26,25,12,13,64,,102,100,10,13,7,3,0.3,0.3
2025-08-10T2000,1815A,112.494,34.6886,洛阳市,河南林校,,35,35,34,17,16,75,,116,115,14,19,7,8,0.4,0.5
2025-08-10T2000,1816A,112.3844,34.623,洛阳市,开发区管委会,,23,23,22,13,12,53,,93,90,8,9,6,7,0.5,0.6
2025-08-10T2000,1817A,112.4267,34.6258,洛阳市,市委新办公区,,22,22,22,10,13,69,,108,107,12,12,7,8,0.5,0.5
2025-08-10T2000,3340A,112.6005,34.6326,洛阳市,伊滨,,21,21,20,9,12,67,,104,103,14,14,8,7,0.8,0.7
2025-08-10T2000,3341A,112.4951,34.6332,洛阳市,中移产业园,,22,22,26,11,14,65,,109,109,18,17,8,8,0.5,0.5
2025-08-10T2000,3593A,112.5736,34.8993,洛阳市,吉利监测站,,47,47,40,25,18,39,,109,104,25,18,4,6,0.7,0.6
2025-08-10T2000,3635A,112.3677,34.662,洛阳市,河科大西苑校区,,27,27,25,10,9,67,,113,109,17,17,8,9,0.4,0.4
2025-08-10T2000,3636A,112.4388,34.6781,洛阳市,英才小学,,27,27,32,16,17,66,,115,112,19,19,8,9,0.8,0.8
2025-08-10T2000,4214A,112.4600,34.6949,洛阳市,春都路1号院,,27,27,31,11,11,56,,107,104,23,24,6,7,0.7,0.7
2025-08-10T2000,2399A,114.051,33.5699,漯河市,三五一五工厂,,35,32,23,24,19,66,,85,81,16,10,5,6,0.6,0.6
2025-08-10T2000,2400A,114.0055,33.5698,漯河市,漯河大学,,40,40,33,17,16,82,,86,85,12,11,4,4,0.5,0.5
2025-08-10T2000,2401A,114.0138,33.5828,漯河市,市水利局,,39,39,30,22,19,73,,82,80,11,9,4,4,0.7,0.7
2025-08-10T2000,2402A,114.0261,33.5698,漯河市,市广电局,,30,27,22,21,19,85,,91,89,9,8,2,3,0.6,0.6
2025-08-10T2000,3478A,113.9749,33.5664,漯河市,市图书馆,,38,33,24,26,15,86,,87,86,10,7,3,3,0.4,0.4
2025-08-10T2000,4250A,114.0892,33.5882,漯河市,韶山路11号,,36,27,20,25,16,58,,83,78,20,10,4,4,0.6,0.6
2025-08-10T2000,1798A,118.5092,31.6837,马鞍山市,湖东路四小,,28,28,27,14,21,59,,81,78,20,18,12,9,1.1,0.8
2025-08-10T2000,1799A,118.5024,31.6449,马鞍山市,开发区,,32,32,28,12,16,60,,91,89,18,17,9,8,0.4,0.4
2025-08-10T2000,1802A,118.6245,31.7241,马鞍山市,濮塘,,29,,27,20,17,52,,72,70,8,13,7,7,0.8,0.9
2025-08-10T2000,3633A,118.4918,31.6809,马鞍山市,雨山,,30,30,28,14,17,54,,76,73,23,21,11,11,1.0,0.7
2025-08-10T2000,4191A,118.5274,31.72227,马鞍山市,慈湖高新区,,24,24,31,14,18,41,,67,63,28,21,10,10,0.7,0.8
2025-08-10T2000,1686A,111.0286,21.4688,茂名市,电白南海,,28,27,20,19,13,46,,49,48,6,5,3,2,0.4,0.5
2025-08-10T2000,1687A,110.9294,21.6533,茂名市,茂石化七小,,34,34,25,14,13,35,,68,61,11,7,6,5,0.4,0.3
2025-08-10T2000,1688A,110.9107,21.6687,茂名市,健康路,,28,24,20,19,11,40,,75,68,9,7,4,5,0.7,0.6
2025-08-10T2000,1689A,110.8592,21.6828,茂名市,高岭,,31,31,26,7,6,38,,59,54,10,10,5,6,0.4,0.4
2025-08-10T2000,3450A,111.01,21.5165,茂名市,电白水东,,,,15,12,9,51,,52,51,,7,3,3,0.4,0.5
2025-08-10T2000,2539A,104.0308,30.0478,眉山市,黑龙滩水库,,21,16,16,3,8,66,,79,68,5,7,3,3,0.2,0.3
2025-08-10T2000,2540A,103.8416,30.0874,眉山市,气象局,,26,26,19,3,4,79,,85,80,11,10,7,8,0.4,0.5
2025-08-10T2000,3137A,103.8578,30.0744,眉山市,市委党校,,27,6,6,3,2,85,,90,83,11,10,6,8,0.1,0.2
2025-08-10T2000,3148A,103.8291,30.0564,眉山市,区人社局,,27,27,18,3,2,79,,89,83,16,13,8,9,0.6,0.7
2025-08-10T2000,1690A,116.1231,24.3284,梅州市,梅江月梅,,27,27,19,3,13,66,,75,74,15,11,9,9,0.5,0.5
2025-08-10T2000,1691A,116.0797,24.2719,梅州市,梅县新城,,22,15,22,3,13,68,,68,68,7,8,6,7,0.4,0.4
2025-08-10T2000,1692A,116.1248,24.2654,梅州市,环境监控中心,,27,27,24,10,14,52,,62,61,14,12,3,3,0.6,0.6
2025-08-10T2000,3315A,116.1233,24.2991,梅州市,梅龙,,,22,19,13,11,66,,69,68,10,8,7,8,,0.4
2025-08-10T2000,1878A,104.7778,31.4741,绵阳市,富乐山,,16,16,16,6,9,32,,80,54,15,10,8,8,0.6,0.5
2025-08-10T2000,1880A,104.6697,31.4668,绵阳市,高新区自来水公司,,15,15,12,3,4,38,,78,65,26,14,9,9,0.6,0.6
2025-08-10T2000,1881A,104.7287,31.5075,绵阳市,三水厂,,14,14,15,3,8,40,,84,68,22,13,7,7,0.4,0.4
2025-08-10T2000,3491A,104.69,31.5322,绵阳市,西科大附属小学,,16,15,15,8,8,51,,80,67,12,14,8,8,0.5,0.5
2025-08-10T2000,3492A,104.5648,31.5343,绵阳市,安州区旅游局,,32,22,14,22,4,51,,80,69,12,7,14,8,0.5,0.4
2025-08-10T2000,4226A,104.7651,31.4531,绵阳市,绵阳市气象局,,15,14,13,3,8,47,,86,71,27,11,6,6,0.5,0.4
2025-08-10T2000,1784A,129.61,44.561,牡丹江市,环保大楼,,26,26,16,18,11,70,,75,74,13,9,3,3,0.2,0.2
2025-08-10T2000,1785A,129.6115,44.5782,牡丹江市,文化广场,,38,38,18,22,17,71,,73,73,11,10,7,7,0.4,0.4
2025-08-10T2000,1786A,129.5904,44.5963,牡丹江市,第一医院,,50,,13,35,17,75,,76,76,8,11,8,8,0.2,0.2
2025-08-10T2000,1787A,129.6364,44.6075,牡丹江市,机车工厂,细颗粒物(PM2.5),65,78,22,47,16,72,,71,71,8,10,8,5,3.0,0.6
2025-08-10T2000,1788A,129.6386,44.5462,牡丹江市,第一中学,,27,27,17,18,13,75,,76,76,8,9,4,4,0.2,0.2
2025-08-10T2000,2531A,105.0703,29.61,内江市,市监测站,,30,17,20,12,12,93,,94,94,7,7,3,2,0.5,0.5
2025-08-10T2000,2532A,105.0717,29.5947,内江市,东兴区政府,,27,19,15,3,5,85,,84,84,7,8,9,8,0.6,0.7
2025-08-10T2000,2533A,105.0653,29.5817,内江市,内江二中,,27,23,24,7,13,86,,88,88,18,10,3,3,0.6,0.6
2025-08-10T2000,2534A,105.0406,29.5822,内江市,内江日报社,,28,7,20,3,11,89,,94,94,13,9,6,6,0.3,0.5
2025-08-10T2000,2628A,92.0657,31.4846,那曲市,那曲监测站,,34,34,22,19,12,88,,90,90,12,11,12,6,0.5,0.4
2025-08-10T2000,4243A,92.0515,31.4787,那曲市,那曲市委宣传部,,32,22,10,9,5,100,,100,100,3,6,7,5,0.1,0.2
2025-08-10T2000,1290A,115.8931,28.6843,南昌市,省外办,,35,31,34,24,25,97,,118,114,6,11,5,8,0.4,0.4
2025-08-10T2000,1291A,115.8886,28.7003,南昌市,省林业公司,,35,34,33,24,19,93,,120,115,9,14,3,6,0.5,0.5
2025-08-10T2000,1292A,115.8126,28.7442,南昌市,林科所,,35,27,34,24,19,85,,107,106,14,20,8,11,0.2,0.3
2025-08-10T2000,1294A,115.8518,28.687,南昌市,建工学校,,32,32,40,22,15,89,,112,108,16,18,7,10,0.6,0.5
2025-08-10T2000,1295A,115.8921,28.6424,南昌市,象湖,,32,19,28,17,17,101,,125,122,10,14,8,9,0.5,0.5
2025-08-10T2000,1296A,115.7423,28.7996,南昌市,武术学校,,21,19,17,11,14,65,,93,89,17,16,8,9,0.5,0.6
2025-08-10T2000,3046A,115.9084,28.6062,南昌市,机电学校,,33,33,38,14,18,100,,124,122,5,9,5,6,0.6,0.6
2025-08-10T2000,3690A,115.9721,28.7031,南昌市,外国语学校,,38,38,35,19,18,107,,126,125,11,12,9,8,0.5,0.4
2025-08-10T2000,4192A,115.9316,28.68677,南昌市,南京东路235号,,43,43,37,20,19,95,,116,114,12,15,5,7,0.7,0.7
2025-08-10T2000,1905A,106.056,30.8064,南充市,西山风景区,,,,,,,,,,,,,,,,
2025-08-10T2000,1906A,106.0789,30.8023,南充市,南充市委,,20,12,17,8,12,64,,76,75,8,7,5,6,0.4,0.4
2025-08-10T2000,1907A,106.1031,30.8217,南充市,南充炼油厂,,21,15,23,10,11,67,,75,75,5,4,4,4,0.3,0.4
2025-08-10T2000,4227A,106.1083,30.7884,南充市,梨树横街98号,,21,14,16,11,12,67,,85,84,17,13,2,3,0.2,0.2
2025-08-10T2000,4304A,106.1172,30.843,南充市,清泉寺北路188号,,21,16,21,10,14,67,,73,73,6,6,3,4,0.3,0.3
2025-08-10T2000,4305A,106.067,30.7616,南充市,同庆路1号,,25,10,19,7,10,78,,82,82,11,9,4,4,0.3,0.3
2025-08-10T2000,1151A,118.8086,32.1065,南京市,迈皋桥,,20,10,11,7,8,62,,71,70,11,15,4,4,0.3,0.2
2025-08-10T2000,1152A,118.7538,32.0551,南京市,草场门,,15,9,15,3,9,48,,60,58,16,12,8,9,0.6,0.6
2025-08-10T2000,1153A,118.7794,32.0745,南京市,山西路,,,,19,,4,,,71,,,16,,5,,0.5
2025-08-10T2000,1154A,118.7752,32.0023,南京市,中华门,,11,7,13,3,7,33,,60,55,16,9,9,10,1.0,1.1
2025-08-10T2000,1155A,118.8109,32.0309,南京市,瑞金路,,19,9,13,7,9,58,,70,68,8,5,6,6,0.3,0.4
2025-08-10T2000,1156A,118.7997,32.0754,南京市,玄武湖,,,11,18,,8,55,,60,60,10,10,4,4,0.4,0.4
2025-08-10T2000,1157A,118.6414,32.0931,南京市,浦口,,15,8,18,3,5,46,,70,60,12,10,4,4,0.5,0.4
2025-08-10T2000,1158A,118.7356,31.9996,南京市,奥体中心,,17,9,15,3,8,53,,66,65,17,13,4,6,0.5,0.6
2025-08-10T2000,1159A,118.9125,32.1028,南京市,仙林大学城,,22,22,21,3,4,46,,70,68,18,10,7,9,0.7,0.8
2025-08-10T2000,3422A,118.8436,31.9198,南京市,江宁彩虹桥,,17,10,21,3,10,52,,67,65,15,15,4,4,0.7,0.6
2025-08-10T2000,3427A,118.8554,32.3578,南京市,六合雄州,,17,10,16,3,6,52,,65,64,13,11,4,4,0.7,0.7
2025-08-10T2000,4249A,118.8708,31.3402,南京市,汶溪路181号,,36,27,22,24,17,115,,121,121,9,10,8,7,0.7,0.7
2025-08-10T2000,4312A,119.019,31.6512,南京市,中山西路1号,,21,17,17,11,14,67,,94,93,18,12,4,4,0.9,0.7
2025-08-10T2000,1401A,108.3103,22.7881,南宁市,二十一中,,32,32,29,19,16,77,,75,75,7,7,3,4,0.6,0.6
2025-08-10T2000,1402A,108.3141,22.8528,南宁市,北湖,,36,36,26,16,17,85,,90,90,7,6,3,4,0.5,0.5
2025-08-10T2000,1403A,108.3206,22.8225,南宁市,市监测站,,27,27,23,16,16,83,,85,85,7,7,2,3,0.5,0.5
2025-08-10T2000,1404A,108.3829,22.8037,南宁市,大自然花园,,29,25,25,20,16,86,,83,83,5,5,4,4,0.6,0.6
2025-08-10T2000,1405A,108.4394,22.7904,南宁市,仙葫,,28,21,26,19,18,73,,74,74,5,6,7,6,0.6,0.7
2025-08-10T2000,1406A,108.2397,22.8467,南宁市,区农职院,,37,37,26,18,12,83,,84,84,11,10,3,4,0.6,0.6
2025-08-10T2000,1407A,108.3275,22.735,南宁市,英华嘉园,,32,28,28,22,17,78,,78,78,14,11,1,2,0.6,0.5
2025-08-10T2000,3401A,108.4834,22.7618,南宁市,红星社区,,38,34,29,26,18,77,,83,83,8,7,2,2,0.4,0.5
2025-08-10T2000,4221A,108.2177,22.7774,南宁市,乐贤路16号,,36,36,28,17,16,85,,85,85,12,14,4,4,0.7,0.7
2025-08-10T2000,2331A,118.0966,26.6761,南平市,茫荡山,,,,,,,,,,,,,,,,
2025-08-10T2000,2332A,118.1681,26.6369,南平市,南平市监测站,,31,31,20,18,15,49,,87,80,12,13,4,4,0.8,0.6
2025-08-10T2000,2333A,118.1825,26.6489,南平市,南平铝业有限公司,,31,31,26,16,16,42,,86,78,16,13,5,7,0.7,0.6
2025-08-10T2000,2334A,118.1756,26.6272,南平市,南平七中,,28,28,24,15,14,48,,84,77,10,9,3,3,0.8,0.6
2025-08-10T2000,1168A,120.9098,31.9663,南通市,狼山街道,,17,11,20,9,12,38,,78,76,34,33,3,6,0.6,0.7
2025-08-10T2000,1169A,120.86,32.0005,南通市,虹桥,,21,17,23,13,15,59,,90,89,42,31,1,2,0.8,0.8
2025-08-10T2000,1170A,120.87,32.02,南通市,城中,,17,15,29,11,12,53,,88,87,21,23,4,6,0.4,0.5
2025-08-10T2000,1171A,120.94,31.93,南通市,星湖花园,,22,13,20,11,13,56,,75,75,44,41,3,5,0.5,0.6
2025-08-10T2000,1172A,120.81,32.0417,南通市,紫琅学院,,18,10,18,3,9,56,,92,90,14,23,2,5,0.7,0.7
2025-08-10T2000,3291A,121.067,32.062,南通市,通州监测站,,24,6,16,3,10,76,,90,90,6,18,1,2,0.8,0.8
2025-08-10T2000,3432A,120.9348,31.9883,南通市,环境教育馆,,24,17,27,10,10,74,,98,98,16,22,3,5,0.4,0.5
2025-08-10T2000,2404A,112.5224,33.0122,南阳市,瓦房庄,,33,33,27,16,11,105,,121,120,8,5,7,7,0.6,0.5
2025-08-10T2000,2405A,112.5003,32.9735,南阳市,汉画馆,,33,29,22,6,6,103,,116,115,8,7,8,7,0.6,0.6
2025-08-10T2000,2406A,112.5573,33.027,南阳市,气象站,,34,22,16,7,7,106,,125,123,9,6,9,8,0.5,0.4
2025-08-10T2000,2407A,112.5481,32.9689,南阳市,理工学院,,34,29,22,8,6,106,,118,117,5,5,9,8,0.6,0.6
2025-08-10T2000,4008A,112.5234,32.9922,南阳市,卧龙区政府,,34,23,21,18,10,107,,121,120,8,8,7,6,0.6,0.6
2025-08-10T2000,1234A,121.8358,29.911,宁波市,区环保大楼,颗粒物(PM10),69,88,60,48,30,56,,122,105,79,51,5,5,0.7,0.7
2025-08-10T2000,1235A,121.56,29.82,宁波市,万里学院,细颗粒物(PM2.5),53,50,44,37,30,118,,115,115,26,15,7,6,0.5,0.5
2025-08-10T2000,1236A,121.713,29.9572,宁波市,龙赛医院,颗粒物(PM10),65,80,54,23,23,80,,117,116,52,19,6,5,0.6,0.5
2025-08-10T2000,1239A,121.633,29.7733,宁波市,钱湖水厂,颗粒物(PM10),56,62,39,39,27,108,,104,104,13,10,4,5,0.5,0.5
2025-08-10T2000,1240A,121.5856,29.8635,宁波市,太古小学,颗粒物(PM10),57,63,47,30,24,112,,113,113,18,9,2,3,0.8,0.7
2025-08-10T2000,1241A,121.524,29.8674,宁波市,市环境监测中心,,49,49,42,27,22,134,,110,110,24,13,9,8,0.7,0.6
2025-08-10T2000,2871A,121.6147,29.9017,宁波市,万里国际学校,细颗粒物(PM2.5),55,48,36,39,25,101,,117,117,35,11,5,4,0.8,0.7
2025-08-10T2000,3710A,121.5594,29.8975,宁波市,白沙活动中心,,45,45,38,31,23,133,,117,117,25,13,6,5,0.8,0.6
2025-08-10T2000,2339A,119.5001,26.6946,宁德市,金涵水库,,,,,,,,,,,,,,,,
2025-08-10T2000,2341A,119.5388,26.6612,宁德市,宁德市监测站,,44,44,41,19,20,90,,136,130,23,18,8,4,2.0,1
2025-08-10T2000,3209A,119.5231,26.6562,宁德市,宁德一中,颗粒物(PM10),55,60,39,15,19,97,,139,134,20,12,12,7,1.7,0.7
2025-08-10T2000,2618A,98.8601,25.8567,怒江傈僳族自治州,州监测站,,18,15,21,12,12,49,,53,53,8,10,7,8,0.4,0.4
2025-08-10T2000,2619A,98.8546,25.8417,怒江傈僳族自治州,泸水一中,,13,13,17,3,10,30,,40,40,14,13,6,6,0.4,0.4
2025-08-10T2000,1888A,101.6891,26.571,攀枝花市,弄弄坪,,35,35,36,11,12,66,,74,74,9,20,9,12,0.7,1
2025-08-10T2000,1889A,101.5769,26.5928,攀枝花市,河门口,,35,35,30,14,12,48,,73,72,11,11,7,12,0.6,0.7
2025-08-10T2000,1890A,101.7169,26.585,攀枝花市,炳草岗,,29,29,35,16,15,63,,76,76,17,23,10,10,0.9,0.8
2025-08-10T2000,1891A,101.7369,26.5008,攀枝花市,仁和,,34,34,19,20,13,59,,63,63,27,11,23,8,2.3,0.7
2025-08-10T2000,2835A,101.7227,26.567,攀枝花市,四十中小,,24,24,27,12,14,73,,76,76,10,20,9,14,0.9,0.9
2025-08-10T2000,1604A,122.0303,41.1489,盘锦市,开发区,,22,18,19,7,15,70,,132,124,24,19,5,5,0.3,0.4
2025-08-10T2000,1605A,122.0485,41.0883,盘锦市,兴隆台,,26,11,25,3,12,83,,127,118,24,21,7,7,0.4,0.4
2025-08-10T2000,1606A,121.8297,41.1028,盘锦市,新生街道,,23,20,17,3,7,72,,130,117,9,12,3,6,0.5,0.7
2025-08-10T2000,1832A,113.3257,33.742,平顶山市,新华旅馆,,49,49,32,16,16,83,,126,122,14,10,5,5,0.7,0.6
2025-08-10T2000,1833A,113.2919,33.737,平顶山市,规划设计院,,38,38,27,25,18,89,,124,120,14,10,5,5,1.0,0.9
2025-08-10T2000,1834A,113.182,33.774,平顶山市,平顶山工学院,,37,37,24,17,11,84,,118,113,15,12,6,6,0.7,0.6
2025-08-10T2000,3204A,113.3025,33.73,平顶山市,规划局,,44,44,28,14,10,93,,128,124,14,9,5,5,0.6,0.5
2025-08-10T2000,3594A,112.8867,33.9116,平顶山市,石龙区,,48,48,30,23,13,72,,106,102,22,13,12,10,0.8,0.7
2025-08-10T2000,2656A,106.6692,35.5461,平凉市,聚贤嘉苑,,36,36,31,9,11,89,,104,104,11,24,8,8,0.6,0.6
2025-08-10T2000,2657A,106.7021,35.5307,平凉市,博物馆,,35,35,37,18,14,85,,102,102,13,24,9,9,0.6,0.7
2025-08-10T2000,2347A,114.0997,27.5002,萍乡市,武功山,,15,10,9,3,6,47,,64,63,4,4,9,8,0.4,0.4
2025-08-10T2000,2348A,113.8385,27.6434,萍乡市,中医院,,38,,29,26,13,80,,89,89,8,13,10,11,0.6,0.6
2025-08-10T2000,2349A,113.8493,27.6253,萍乡市,市政府车库,,36,,19,25,19,66,,74,74,6,8,8,9,0.5,0.4
2025-08-10T2000,2350A,113.8676,27.6435,萍乡市,市环保局,,28,25,26,19,17,76,,84,84,6,10,15,15,0.2,0.3
2025-08-10T2000,2351A,113.866,27.6198,萍乡市,安源区政府,,37,37,34,16,17,59,,72,72,5,6,13,13,0.5,0.5
2025-08-10T2000,2319A,119.0141,25.4325,莆田市,荔城区仓后路,,35,35,31,15,8,30,,82,73,9,10,5,5,0.6,0.5
2025-08-10T2000,2320A,119.0015,25.4553,莆田市,莆田市监测站,,31,31,27,12,6,41,,89,83,13,10,6,6,0.4,0.4
2025-08-10T2000,2321A,119.1119,25.4561,莆田市,涵江区六中,,25,25,25,10,8,31,,94,80,13,14,6,5,0.4,0.4
2025-08-10T2000,2322A,119.1013,25.3215,莆田市,秀屿区政府,,20,20,21,3,4,37,,86,72,13,14,6,7,0.4,0.3
2025-08-10T2000,2323A,118.981,25.4792,莆田市,东圳水库,,,,,,,,,,,,,,,,
2025-08-10T2000,2392A,115.0312,35.7636,濮阳市,环保局,,32,22,23,13,17,100,,128,125,20,8,2,4,0.5,0.5
2025-08-10T2000,2394A,115.0574,35.7609,濮阳市,油田运输公司,,41,41,31,18,16,104,,123,122,17,8,2,3,0.7,0.7
2025-08-10T2000,3021A,115,35.7668,濮阳市,濮水河管理处,,29,26,25,20,20,52,,108,94,26,15,3,3,0.5,0.5
2025-08-10T2000,4216A,115.0924,35.7686,濮阳市,任丘路479号,,40,40,36,19,22,104,,118,117,14,8,2,3,0.6,0.6
2025-08-10T2000,2601A,100.98,22.7633,普洱市,市环保局,,42,,24,29,13,36,,42,42,6,4,6,5,0.5,0.5
2025-08-10T2000,2602A,100.9817,22.8322,普洱市,普洱第二中学,,29,29,24,11,8,38,,42,42,6,6,6,6,0.5,0.4
2025-08-10T2000,2262A,131.0518,45.8751,七台河市,新一中,,25,23,11,3,5,78,,93,89,9,9,10,10,0.6,0.7
2025-08-10T2000,3345A,131.0577,45.7879,七台河市,中波台,,15,10,27,6,7,47,,67,62,16,10,8,8,0.3,0.3
2025-08-10T2000,3637A,131.0176,45.7761,七台河市,人民广场,,29,25,13,20,8,52,,68,64,15,10,10,10,0.4,0.4
2025-08-10T2000,3684A,130.8781,45.8222,七台河市,新建矿广场,,18,,13,10,7,57,,72,68,9,10,10,10,0,0.3
2025-08-10T2000,1779A,123.9305,47.3636,齐齐哈尔市,安居小区,,22,22,13,3,5,38,,41,41,9,7,4,4,0.4,0.3
2025-08-10T2000,1780A,123.9488,47.3386,齐齐哈尔市,中心广场,,18,18,12,3,1,42,,45,44,10,6,5,5,0.4,0.4
2025-08-10T2000,1781A,123.9483,47.3227,齐齐哈尔市,农牧车辆厂,,19,19,16,3,5,45,,47,47,7,5,6,6,0.4,0.4
2025-08-10T2000,1783A,123.945,47.2988,齐齐哈尔市,市环境监测站,,14,10,10,3,3,42,,45,45,9,7,5,5,0.3,0.2
2025-08-10T2000,3662A,123.6333,47.2075,齐齐哈尔市,富区青少年活动中心,颗粒物(PM10),53,55,16,24,6,38,,46,46,11,8,5,6,0.3,0.3
2025-08-10T2000,2591A,107.9783,26.5747,黔东南苗族侗族自治州,市环境监测站,,19,18,17,13,13,57,,63,60,5,2,2,2,0.5,0.5
2025-08-10T2000,2881A,107.8908,26.5311,黔东南苗族侗族自治州,凯里学院,,27,27,21,15,13,66,,69,65,8,8,1,1,0.5,0.4
2025-08-10T2000,2593A,107.5228,26.2403,黔南布依族苗族自治州,小围寨,,16,12,13,9,10,51,,52,52,3,3,1,4,0.3,0.3
2025-08-10T2000,3538A,107.5175,26.2978,黔南布依族苗族自治州,沙坝,,22,22,19,7,4,42,,51,50,4,4,4,4,0.6,0.5
2025-08-10T2000,2589A,104.9022,25.0925,黔西南布依族苗族自治州,场坝街,,22,15,20,14,10,70,,60,60,8,5,2,2,0.4,0.3
2025-08-10T2000,2590A,104.8811,25.0992,黔西南布依族苗族自治州,坪东大道,,21,21,25,14,11,63,,59,59,10,5,2,2,0.5,0.4
2025-08-10T2000,2502A,108.6236,21.9667,钦州市,市环保站,,29,29,29,9,12,67,,102,101,12,11,4,3,0.5,0.5
2025-08-10T2000,2503A,108.6549,21.9481,钦州市,沙埠小学,,45,45,33,19,17,56,,88,86,19,14,4,2,0.6,0.6
2025-08-10T2000,2504A,108.5989,21.7431,钦州市,港区一小,,29,29,32,15,14,68,,82,80,11,12,2,3,0.6,0.7
2025-08-10T2000,3404A,108.5959,21.9633,钦州市,北职校,,22,21,30,11,15,68,,92,92,6,11,1,2,0.5,0.6
2025-08-10T2000,1043A,119.7493,40.0116,秦皇岛市,第一关,,50,50,33,24,15,147,,143,143,14,32,6,6,0.7,0.3
2025-08-10T2000,1044A,119.5897,39.9499,秦皇岛市,监测站,臭氧1小时,67,67,38,12,6,173,,144,144,17,22,8,5,1.2,0.4
2025-08-10T2000,1046A,119.5251,39.9041,秦皇岛市,建设大厦,臭氧1小时,58,39,32,12,6,166,,140,140,10,21,9,7,1.2,0.4
2025-08-10T2000,3132A,119.610547,39.943889,秦皇岛市,文明里,臭氧1小时,68,56,32,28,10,174,,142,142,16,22,8,6,1.1,0.3
2025-08-10T2000,4198A,119.5090,39.8253,秦皇岛市,北戴河轮滑馆,臭氧1小时,83,55,35,21,14,186,,168,168,7,20,4,4,1.2,0.5
2025-08-10T2000,1307A,120.6659,36.2403,青岛市,仰口,,,,,,,,,,,,,,,,
2025-08-10T2000,1310A,120.4134,36.0658,青岛市,市南区东部子站,,36,14,10,14,7,114,,112,112,9,5,7,6,0.3,0.3
2025-08-10T2000,1311A,120.3664,36.1032,青岛市,四方区子站,,37,14,14,12,9,116,,127,125,8,7,4,4,0.2,0.2
2025-08-10T2000,1312A,120.2994,36.054,青岛市,市南区西部子站,,39,17,15,3,6,123,,112,111,4,15,4,5,0.6,0.6
2025-08-10T2000,1313A,120.4581,36.0858,青岛市,崂山区子站,,38,24,11,7,4,119,,112,112,11,9,7,8,0.2,0.2
2025-08-10T2000,1315A,120.3999,36.3083,青岛市,城阳区子站,,32,27,15,17,9,102,,126,124,17,7,6,6,0.5,0.5
2025-08-10T2000,1966A,120.0405,35.8735,青岛市,黄岛区4号,,39,14,17,3,4,124,,124,124,3,9,3,5,0.4,0.4
2025-08-10T2000,3362A,120.5014,36.4034,青岛市,即墨2号,,34,20,13,12,10,108,,125,125,7,5,3,3,0.2,0.2
2025-08-10T2000,3642A,120.3503,36.0736,青岛市,市北区南部,,,17,14,,7,107,,113,112,12,16,8,6,0.7,0.6
2025-08-10T2000,3643A,120.3948,36.1805,青岛市,李沧区北部,,25,17,9,12,10,78,,104,101,20,4,5,5,0.3,0.2
2025-08-10T2000,4290A,120.1969,35.9546,青岛市,珠江路669号,,38,17,17,15,11,119,,120,120,6,22,6,7,0.5,0.5
2025-08-10T2000,1702A,113.0426,23.691,清远市,环保大楼,,36,29,43,17,19,113,,138,138,20,19,8,9,0.8,0.8
2025-08-10T2000,1703A,113.0208,23.7106,清远市,凤城街办,,34,34,33,20,19,85,,116,114,20,21,7,7,0.6,0.6
2025-08-10T2000,3025A,113.0477,23.6344,清远市,技师学院,,42,42,36,22,19,107,,128,128,19,23,9,9,0.5,0.6
2025-08-10T2000,3318A,112.9903,23.7403,清远市,清新太和,,26,22,31,12,18,82,,107,106,12,17,7,10,0.5,0.5
2025-08-10T2000,3455A,113.076,23.7198,清远市,清城东城,,41,41,34,24,19,101,,127,127,17,14,6,6,0.4,0.5
2025-08-10T2000,2661A,107.6325,35.7357,庆阳市,庆阳五中,,29,29,24,16,13,88,,114,111,10,9,7,8,0.7,0.7
2025-08-10T2000,2662A,107.6364,35.7067,庆阳市,市环保局,,30,30,26,14,13,95,,116,113,8,8,4,9,0.8,0.8
2025-08-10T2000,1916A,103.7897,25.5035,曲靖市,环境监测站,,23,19,18,16,9,72,,71,71,10,9,7,6,0.5,0.5
2025-08-10T2000,1917A,103.8,25.5364,曲靖市,烟厂办公区,,24,19,17,14,9,74,,72,72,7,5,4,4,0.5,0.6
2025-08-10T2000,3376A,103.7947,25.462,曲靖市,南苑二区,,23,17,17,6,8,72,,75,75,8,6,3,4,0.4,0.5
2025-08-10T2000,3377A,103.7444,25.5261,曲靖市,曲靖师范学院,,30,30,17,10,9,70,,71,71,10,8,6,6,0.3,0.3
2025-08-10T2000,1264A,118.8692,28.9398,衢州市,环保大楼,,50,50,40,31,22,78,,98,97,13,14,5,5,0.5,0.5
2025-08-10T2000,1265A,118.8709,28.9666,衢州市,实验学校,,49,49,39,29,20,79,,103,101,14,16,4,6,0.5,0.4
2025-08-10T2000,1266A,118.8621,28.9808,衢州市,衢州学院,,42,42,35,24,21,83,,107,105,12,17,4,6,0.4,0.4
2025-08-10T2000,1611A,118.5819,24.9117,泉州市,涂山街,,20,20,24,11,10,35,,80,67,10,15,2,4,0.4,0.4
2025-08-10T2000,1612A,118.5972,24.8978,泉州市,津头埔,,24,24,20,6,7,33,,82,69,10,11,2,3,0.4,0.4
2025-08-10T2000,1613A,118.6663,24.9424,泉州市,万安,,24,24,20,3,6,32,,73,61,9,12,2,3,0.3,0.3
2025-08-10T2000,1614A,118.6117,24.9604,泉州市,清源山,,,,,,,,,,,,,,,,
2025-08-10T2000,3529A,118.6333,24.9264,泉州市,城华南路,,16,16,16,9,7,29,,78,64,16,13,3,4,0.3,0.3
2025-08-10T2000,2626A,88.8876,29.2718,日喀则市,日喀则监测站,,27,13,7,6,2,85,,106,105,5,5,10,9,0.5,0.4
2025-08-10T2000,3726A,88.8781,29.2426,日喀则市,林业技术推广中心,,28,12,8,9,2,89,,101,101,2,3,5,5,0.5,0.4
2025-08-10T2000,1659A,119.471,35.4209,日照市,监测站,,30,,9,13,7,95,,116,111,8,8,6,6,0.6,0.6
2025-08-10T2000,1660A,119.523,35.4216,日照市,市政府广场,,31,6,11,3,3,99,,111,107,3,6,5,5,0.6,0.6
2025-08-10T2000,1661A,119.5587,35.4044,日照市,港务局,,31,,11,11,13,97,,110,104,7,8,12,12,0.8,0.8
2025-08-10T2000,3507A,119.5328,35.4625,日照市,职业技术学院,,30,12,11,7,6,96,,113,108,5,8,4,5,0.5,0.5
2025-08-10T2000,3604A,119.3266,35.1044,日照市,岚山环保分局,,29,12,18,3,9,90,,110,104,9,17,8,27,0.5,2.4
2025-08-10T2000,1835A,111.1922,34.7752,三门峡市,市政府,,26,26,24,11,11,44,,82,80,19,13,5,8,0.5,0.4
2025-08-10T2000,1836A,111.1587,34.7942,三门峡市,开发区,,20,20,23,10,10,46,,83,81,10,11,3,5,0.6,0.6
2025-08-10T2000,1838A,111.143,34.7955,三门峡市,风景区,,28,,28,19,12,46,,85,82,8,9,3,4,0.5,0.6
2025-08-10T2000,3039A,111.1911,34.7829,三门峡市,三门峡市第一小学,,26,26,25,10,7,47,,85,83,17,9,4,7,0.6,0.5
2025-08-10T2000,3598A,111.1,34.7167,三门峡市,富达温泉假日酒店,,39,39,30,8,11,60,,74,74,16,16,3,6,0.4,0.5
2025-08-10T2000,2324A,117.6211,26.2625,三明市,三钢,,35,27,30,24,18,28,,78,61,19,13,2,8,0.8,1.6
2025-08-10T2000,2325A,117.635,26.2714,三明市,三明二中,,26,26,28,9,18,22,,77,61,20,11,2,3,0.5,0.7
2025-08-10T2000,2326A,117.6028,26.2378,三明市,三元区政府,,26,26,29,7,18,47,,87,71,9,11,3,2,0.4,0.5
2025-08-10T2000,2327A,117.7275,26.3108,三明市,洋溪,,,,,,,,,,,,,,,,
2025-08-10T2000,1876A,109.5078,18.2489,三亚市,河东子站,,19,19,13,11,9,36,,50,47,4,3,5,4,0.3,0.4
2025-08-10T2000,1877A,109.4964,18.2681,三亚市,河西子站,,,25,17,14,8,38,,53,50,,7,2,2,0.3,0.5
2025-08-10T2000,3540A,109.7348,18.3443,三亚市,君悦子站,,18,18,24,3,8,47,,58,54,4,10,1,1,0.3,0.4
2025-08-10T2000,2624A,91.7608,29.2313,山南市,山南监测站,,26,8,5,3,2,83,,85,85,7,5,2,2,0.3,0.2
2025-08-10T2000,2625A,91.7706,29.2436,山南市,山南人民医院,,27,12,8,9,4,85,,86,86,7,4,4,3,0.3,0.2
2025-08-10T2000,1674A,116.6794,23.3667,汕头市,金平子站,,,,11,3,5,43,,52,51,8,8,1,2,0.5,0.5
2025-08-10T2000,1675A,116.7244,23.3633,汕头市,龙湖子站,,14,8,9,3,2,44,,50,50,6,8,6,6,0.5,0.5
2025-08-10T2000,1676A,116.7258,23.2775,汕头市,濠江子站,,11,6,14,3,4,34,,45,43,7,7,4,5,0.5,0.5
2025-08-10T2000,1677A,116.7519,23.4714,汕头市,澄海子站,,14,6,14,6,6,42,,49,48,5,5,2,2,0.6,0.6
2025-08-10T2000,1678A,116.6092,23.2539,汕头市,潮阳子站,,18,18,12,7,6,36,,44,42,8,8,4,4,0.4,0.4
2025-08-10T2000,3444A,116.454,23.2684,汕头市,潮南峡山,,12,9,7,3,4,38,,49,46,5,6,5,6,0.5,0.5
2025-08-10T2000,3624A,116.4069,23.2533,汕头市,潮南子站,,21,21,12,12,4,36,,50,47,6,4,4,4,0.5,0.5
2025-08-10T2000,1693A,115.3653,22.775,汕尾市,市环保局,,14,11,13,6,4,44,,46,44,8,6,3,3,0.6,0.6
2025-08-10T2000,1694A,115.3706,22.7898,汕尾市,市政府,,17,17,12,3,6,48,,50,48,8,10,3,3,0.5,0.5
2025-08-10T2000,1695A,115.3622,22.7925,汕尾市,新城中学,,21,21,14,3,4,48,,49,48,6,7,4,4,0.4,0.4
2025-08-10T2000,2645A,109.9154,33.8715,商洛市,监测站,,20,13,14,6,9,63,,91,87,14,6,5,4,0.5,0.5
2025-08-10T2000,3045A,109.9643,33.8471,商洛市,商州区中学,,20,16,14,3,7,62,,90,86,14,11,4,4,0.5,0.5
2025-08-10T2000,2408A,115.6702,34.4285,商丘市,环境监测站,,28,28,22,18,16,68,,94,91,19,9,1,2,0.6,0.6
2025-08-10T2000,2409A,115.6458,34.4045,商丘市,粮食局,,27,22,21,16,11,84,,90,90,10,9,2,3,0.6,0.6
2025-08-10T2000,2410A,115.6293,34.3948,商丘市,睢阳区环保局,,39,39,23,19,13,74,,89,88,14,9,4,4,0.5,0.4
2025-08-10T2000,3171A,115.6071,34.4465,商丘市,梁园区档案局,,33,33,20,19,12,80,,88,88,8,9,2,2,0.6,0.6
2025-08-10T2000,1141A,121.4,31.238,上海市,普陀,,47,47,36,26,19,91,,106,102,31,27,6,6,0.6,0.5
2025-08-10T2000,1142A,121.478,31.2036,上海市,十五厂,颗粒物(PM10),53,56,39,31,21,81,,105,99,33,25,8,8,0.8,0.7
2025-08-10T2000,1143A,121.467,31.3008,上海市,虹口,,,,35,,19,75,,98,94,,19,8,5,,0.5
2025-08-10T2000,1147A,121.425,31.2261,上海市,静安监测站,,50,50,39,23,20,87,,98,95,28,24,4,4,0.9,0.8
2025-08-10T2000,1148A,121.703,31.1907,上海市,浦东川沙,,38,38,46,13,25,27,,88,65,50,29,6,6,0.7,0.7
2025-08-10T2000,1149A,121.533,31.2284,上海市,浦东新区监测站,,44,44,36,13,13,28,,97,82,54,21,8,8,0.8,0.6
2025-08-10T2000,1150A,121.577,31.2071,上海市,浦东张江,颗粒物(PM10),54,57,53,26,23,21,,98,79,55,29,6,6,0.8,0.7
2025-08-10T2000,3265A,121.4316,31.3322,上海市,宝山庙行,,46,46,41,24,20,73,,97,89,31,25,8,8,0.7,0.5
2025-08-10T2000,3266A,121.8791,31.4662,上海市,崇明上实东滩,,19,19,39,3,23,40,,97,77,6,23,4,5,0.7,0.8
2025-08-10T2000,3268A,121.3162,31.2838,上海市,嘉定南翔,,44,44,39,26,22,76,,97,93,26,24,4,4,0.7,0.4
2025-08-10T2000,3269A,121.3359,30.7456,上海市,金山新城,,20,20,37,12,23,48,,118,106,16,16,3,4,0.6,0.6
2025-08-10T2000,3270A,121.4996,31.0739,上海市,闵行浦江,颗粒物(PM10),54,57,45,26,24,40,,104,88,38,26,5,6,1.2,1
2025-08-10T2000,3271A,121.2886,31.1663,上海市,青浦徐泾,颗粒物(PM10),51,51,38,30,23,98,,102,99,17,25,6,7,0.8,0.7
2025-08-10T2000,3272A,121.2186,31.0378,上海市,松江图书馆,,44,44,35,28,24,57,,115,103,27,28,7,7,0.8,0.7
2025-08-10T2000,3273A,121.3902,31.2059,上海市,长宁仙霞,,43,43,35,22,18,66,,91,84,29,23,8,8,0.7,0.6
2025-08-10T2000,3274A,121.7965,31.0507,上海市,浦东惠南,,48,48,47,17,31,36,,104,77,37,26,10,11,0.5,0.6
2025-08-10T2000,3544A,121.4891,30.925,上海市,奉贤南桥新城,颗粒物(PM10),51,52,43,32,29,81,,119,112,21,17,4,5,0.8,0.8
2025-08-10T2000,4183A,121.4174,31.16637,上海市,冠生园路458号,,48,48,35,27,23,61,,91,84,29,24,3,3,0.9,0.8
2025-08-10T2000,4205A,121.5419,31.2683,上海市,宁武路151号,颗粒物(PM10),53,55,39,29,19,16,,100,84,88,26,3,3,1.0,0.7
2025-08-10T2000,2381A,118.005,28.4572,上饶市,百草园,,,,,,,,,,,,,,,,
2025-08-10T2000,2382A,117.9756,28.4436,上饶市,市监测站,,39,39,38,23,22,103,,111,110,8,13,5,14,0.5,0.6
2025-08-10T2000,2383A,117.9519,28.4628,上饶市,凤凰光学,,40,40,39,26,24,94,,104,103,14,13,8,12,0.7,0.6
2025-08-10T2000,3685A,117.897,28.4315,上饶市,双创科技城,,34,34,33,23,19,93,,106,105,17,15,4,10,0.6,0.6
2025-08-10T2000,4211A,118.1904,28.4448,上饶市,裕丰大道,,48,48,20,23,14,85,,105,103,15,8,10,8,0.8,0.6
2025-08-10T2000,1669A,113.5824,24.7733,韶关市,市八中,颗粒物(PM10),60,70,48,36,23,108,,119,119,20,16,22,14,0.7,0.7
