timepoint,stationcode,longitude,latitude,area,positionname,primarypollutant,aqi,pm10,pm10_24h,pm2_5,pm2_5_24h,o3,o3_24h,o3_8h,o3_8h_24h,no2,no2_24h,so2,so2_24h,co,co_24h
2024-06-16T1400,2566A,102.1879,31.914,阿坝藏族羌族自治州,州农科所,,,12,25,8,11,36,,21,21,12,15,3,4,,0
2024-06-16T1400,2568A,102.2502,31.8896,阿坝藏族羌族自治州,马师校,,25,9,13,7,11,80,,39,39,10,13,5,5,0.3,0.4
2024-06-16T1400,3994A,102.2165,31.9024,阿坝藏族羌族自治州,马尔康中学西区,,25,11,23,3,12,77,,40,40,3,6,5,6,0.3,0.4
2024-06-16T1400,2695A,80.292,41.1694,阿克苏地区,电视台,颗粒物(PM10),55,60,49,16,14,136,,100,98,7,13,7,4,0.4,0.4
2024-06-16T1400,2696A,80.2613,41.1551,阿克苏地区,艺术中心,颗粒物(PM10),60,69,50,14,15,128,,87,87,3,17,4,4,0.3,0.4
2024-06-16T1400,2204A,105.6467,38.8363,阿拉善盟,西城区西花园,,49,33,52,9,18,154,,118,118,7,13,10,11,0.6,0.7
2024-06-16T1400,2205A,105.6985,38.8411,阿拉善盟,蒙二幼,,46,38,52,11,16,147,,119,119,7,9,13,14,0.5,0.5
2024-06-16T1400,2206A,105.724,38.8516,阿拉善盟,环保局新楼,,47,31,48,13,20,150,,127,127,6,8,12,12,0.5,0.6
2024-06-16T1400,2708A,88.1264,47.8517,阿勒泰地区,市站,,31,31,21,3,5,80,,83,66,10,11,6,6,0.4,0.4
2024-06-16T1400,2630A,80.1161,32.5,阿里地区,阿里监测站,臭氧1小时,70,16,16,10,9,176,,134,134,3,10,4,6,0.4,0.4
2024-06-16T1400,3192A,80.0903,32.5028,阿里地区,阿里藏医院,臭氧1小时,68,18,20,9,9,174,,136,134,3,6,7,7,0.4,0.4
2024-06-16T1400,2642A,109.0318,32.6537,安康市,香溪洞,,25,25,22,10,12,78,,84,60,8,5,8,6,0.6,0.5
2024-06-16T1400,2643A,109.0281,32.6939,安康市,安康市监测站,,32,32,26,17,13,81,,64,58,8,7,7,7,0.5,0.4
2024-06-16T1400,2644A,109.0072,32.6975,安康市,汉滨区检察院,,30,27,26,21,15,79,,60,43,9,7,6,7,0.4,0.4
2024-06-16T1400,2291A,117.0809,30.5177,安庆市,环科院,臭氧1小时,122,60,77,35,36,243,,157,157,7,22,6,6,0.7,0.7
2024-06-16T1400,2292A,117.0331,30.5119,安庆市,马山宾馆,臭氧1小时,126,49,50,35,35,251,,161,161,13,20,11,10,0.9,0.9
2024-06-16T1400,2294A,116.9896,30.6145,安庆市,安庆大学,臭氧1小时,117,52,55,34,35,233,,170,170,8,17,9,8,0.7,0.8
2024-06-16T1400,3173A,117.0598,30.5351,安庆市,市人大,臭氧1小时,128,53,55,35,38,256,,168,168,10,16,9,8,0.6,0.6
2024-06-16T1400,3122A,105.9606,26.2611,安顺市,伍家关,,,,,,,,,,,,,,,,
2024-06-16T1400,3123A,105.9408,26.2431,安顺市,凤凰山,,26,14,31,7,25,83,,67,67,2,12,4,8,0.8,0.9
2024-06-16T1400,3124A,105.9439,26.2564,安顺市,金钟山,,26,10,30,7,26,82,,71,71,2,8,4,8,0.6,0.7
2024-06-16T1400,3125A,105.8983,26.2481,安顺市,娄家坡,,26,13,31,10,23,82,,73,73,3,8,4,7,0.8,0.9
2024-06-16T1400,1818A,114.4839,36.0621,安阳市,棉研所,,,,,,,,,,,,,,,,
2024-06-16T1400,1819A,114.3551,36.1017,安阳市,红庙街,,,38,61,31,27,127,,113,113,,15,4,7,0.6,0.6
2024-06-16T1400,1820A,114.361,36.0681,安阳市,银杏小区,,43,36,58,30,31,123,,111,111,20,25,7,9,1.0,0.9
2024-06-16T1400,3141A,114.3922,36.0878,安阳市,信访局,细颗粒物(PM2.5),52,38,67,36,24,137,,122,122,7,14,6,8,0.8,0.8
2024-06-16T1400,3669A,114.4705,36.0637,安阳市,左辅环卫站,细颗粒物(PM2.5),65,,60,47,33,119,,116,116,11,25,2,4,0.5,0.5
2024-06-16T1400,3703A,114.2917,36.0949,安阳市,安钢职工学校,细颗粒物(PM2.5),84,,70,62,44,106,,96,96,19,24,2,4,0.8,0.8
2024-06-16T1400,1748A,123.044,41.1196,鞍山市,深沟寺,,46,24,27,10,16,147,,123,123,11,18,11,12,0.5,0.7
2024-06-16T1400,1749A,123.011,41.0931,鞍山市,太阳城,,47,26,32,12,18,148,,122,122,11,18,9,10,0.7,1
2024-06-16T1400,1750A,123.0485,41.1442,鞍山市,太平,,45,28,32,14,17,142,,116,116,16,22,13,10,1.1,1.1
2024-06-16T1400,1751A,122.9642,41.0971,鞍山市,铁西三道街,,47,28,44,14,22,148,,121,121,13,27,9,11,0.6,0.9
2024-06-16T1400,1752A,122.9341,41.0833,鞍山市,铁西工业园区,,45,24,39,12,20,144,,117,117,11,23,9,9,0.6,0.8
2024-06-16T1400,1753A,123.022,41.0821,鞍山市,明达新区,,44,28,25,15,12,138,,114,114,10,15,9,10,0.5,0.7
2024-06-16T1400,1754A,123.1289,41.0228,鞍山市,千山,,,,,,,,,,,,,,,,
2024-06-16T1400,2195A,107.4212,40.761,巴彦淖尔市,附二中,,42,25,42,16,23,133,,106,106,1,17,2,13,0.4,0.5
2024-06-16T1400,2196A,107.37,40.7372,巴彦淖尔市,市环保大楼,,40,30,42,16,18,126,,102,102,3,15,2,6,0.4,0.5
2024-06-16T1400,1956A,86.1472,41.7538,巴音郭楞蒙古自治州,孔雀公园,,37,37,44,6,13,86,,118,101,18,11,2,2,0.3,0.2
2024-06-16T1400,1957A,86.1972,41.7166,巴音郭楞蒙古自治州,棉纺厂,,50,50,39,14,13,100,,114,99,8,10,3,4,0.2,0.2
2024-06-16T1400,1958A,86.2357,41.7173,巴音郭楞蒙古自治州,经济开发区,,37,,42,22,13,118,,116,109,4,5,2,2,0.2,0.2
2024-06-16T1400,2914A,106.7677,31.8794,巴中市,苏山坪,,29,17,35,14,23,92,,83,83,6,10,3,4,0.5,0.6
2024-06-16T1400,3182A,106.7656,31.8545,巴中市,丽阳花园,,30,16,38,11,26,96,,93,93,8,18,5,5,0.4,0.6
2024-06-16T1400,3183A,106.7418,31.8654,巴中市,圣泉水务公司,,30,16,34,12,25,94,,98,98,8,17,5,5,0.5,0.6
2024-06-16T1400,3616A,106.7616,31.8344,巴中市,市中心医院,,30,14,39,11,25,95,,95,95,6,16,5,5,0.4,0.6
2024-06-16T1400,2235A,122.7911,45.6077,白城市,洮北区环保局,,35,20,16,11,10,112,,86,86,8,12,2,2,0.1,0.1
2024-06-16T1400,2236A,122.8738,45.5725,白城市,市环保局,,34,19,15,11,11,107,,79,79,7,11,5,4,0.2,0.2
2024-06-16T1400,2231A,126.4219,41.9171,白山市,喜丰,,38,15,27,6,10,119,,78,78,6,15,8,9,0.8,0.8
2024-06-16T1400,2232A,126.4077,41.9419,白山市,环保局,,37,13,30,13,9,117,,76,76,3,13,9,9,0.7,0.7
2024-06-16T1400,2647A,104.1724,36.5446,白银市,第三小学,,43,21,28,16,16,137,,108,98,12,13,16,18,0.6,0.5
2024-06-16T1400,2648A,104.1465,36.5482,白银市,动力公司,,43,25,25,15,14,136,,111,98,8,9,17,15,0.4,0.6
2024-06-16T1400,2512A,106.6103,23.9011,百色市,市监测站,,42,42,25,21,13,106,,53,53,8,11,13,11,0.9,0.8
2024-06-16T1400,2513A,106.6538,23.8859,百色市,市中心血站,颗粒物(PM10),53,56,31,33,18,115,,56,56,8,12,13,11,0.9,0.8
2024-06-16T1400,3406A,106.6085,23.8798,百色市,祈福高中,,46,46,29,29,16,104,,55,55,7,10,15,12,0.9,0.8
2024-06-16T1400,2270A,117.396,32.939,蚌埠市,工人疗养院,臭氧1小时,116,56,65,26,27,231,,141,141,9,24,10,11,0.6,0.5
2024-06-16T1400,2271A,117.3605,32.9427,蚌埠市,百货大楼,臭氧1小时,117,55,60,29,32,233,,144,144,9,24,9,11,0.7,0.6
2024-06-16T1400,2273A,117.4185,32.8911,蚌埠市,蚌埠学院,臭氧1小时,112,46,50,26,30,224,,138,138,6,19,8,9,0.7,0.6
2024-06-16T1400,2274A,117.3533,32.9673,蚌埠市,淮上区政府,臭氧1小时,115,53,57,34,33,230,,145,145,7,16,7,8,0.6,0.5
2024-06-16T1400,2275A,117.3145,32.8977,蚌埠市,高新区,臭氧1小时,117,53,48,29,27,233,,156,156,2,10,8,8,0.6,0.6
2024-06-16T1400,3715A,117.3092,32.9314,蚌埠市,蚌埠田家炳中学,臭氧1小时,119,49,51,28,26,237,,152,152,5,10,8,8,0.5,0.5
2024-06-16T1400,1585A,109.8756,40.6532,包头市,市环境监测站,臭氧1小时,63,26,26,10,10,170,,102,102,14,26,19,13,0.7,0.6
2024-06-16T1400,1587A,109.9991,40.5842,包头市,包头八中,臭氧1小时,53,20,35,9,17,162,,96,96,9,26,11,18,0.3,0.6
2024-06-16T1400,1588A,109.8538,40.6821,包头市,青山宾馆,臭氧1小时,55,28,22,16,13,164,,102,102,14,29,23,13,0.7,0.5
2024-06-16T1400,1589A,109.8642,40.6288,包头市,惠龙物流,臭氧1小时,63,24,27,18,12,170,,103,103,13,25,22,17,0.7,0.6
2024-06-16T1400,1590A,110.0377,40.5546,包头市,东河鸿龙湾,,50,14,31,6,11,159,,96,96,7,25,12,16,0.4,0.5
2024-06-16T1400,3283A,109.9154,40.5685,包头市,滨河大厦,臭氧1小时,52,19,28,16,16,161,,92,92,7,34,14,15,0.5,0.5
2024-06-16T1400,3419A,109.9447,40.6261,包头市,包头市委党校,臭氧1小时,64,26,28,6,12,171,,103,103,12,27,20,16,0.5,0.4
2024-06-16T1400,3683A,109.8331,40.6576,包头市,昆区政府,臭氧1小时,64,35,26,15,10,171,,105,105,18,24,33,16,1.2,0.7
2024-06-16T1400,1930A,107.185,34.3063,宝鸡市,庙沟村,,20,19,38,9,20,64,,88,61,2,8,9,9,0.3,0.4
2024-06-16T1400,1931A,107.0708,34.3017,宝鸡市,竹园沟,,29,,33,20,23,75,,83,66,8,15,7,7,0.4,0.4
2024-06-16T1400,1932A,107.1906,34.3672,宝鸡市,三陆医院,,27,19,50,8,27,84,,78,76,10,29,6,9,0.5,0.6
2024-06-16T1400,1933A,107.1431,34.3547,宝鸡市,监测站,,28,13,40,13,24,89,,78,73,11,20,8,8,0.4,0.4
2024-06-16T1400,1934A,107.1186,34.3739,宝鸡市,技工学校,,28,18,41,15,24,88,,98,87,7,15,7,8,0.5,0.6
2024-06-16T1400,1935A,107.3906,34.3528,宝鸡市,陈仓区环保局家属楼,,28,21,49,16,26,89,,80,80,13,26,6,8,0.5,0.6
2024-06-16T1400,1936A,107.2058,34.3497,宝鸡市,文理学院,,31,,43,16,25,99,,86,82,6,16,7,8,0.4,0.4
2024-06-16T1400,1937A,107.2386,34.3622,宝鸡市,三迪小学,,,,52,,30,,,153,,,26,,8,,0.6
2024-06-16T1400,1051A,115.493,38.8632,保定市,游泳馆,臭氧1小时,85,59,76,37,32,188,,141,141,2,15,4,4,0.1,0.2
2024-06-16T1400,1052A,115.5213,38.8959,保定市,华电二区,臭氧1小时,94,43,54,34,26,195,,138,138,4,17,4,4,0.3,0.2
2024-06-16T1400,1053A,115.4713,38.9108,保定市,接待中心,臭氧1小时,90,,52,48,39,192,,118,118,3,20,4,3,0.3,0.3
2024-06-16T1400,1054A,115.4612,38.8416,保定市,地表水厂,臭氧1小时,93,59,66,27,28,194,,142,142,3,20,3,2,0.4,0.4
2024-06-16T1400,3581A,115.31981,38.95208,保定市,满城区生态环境分局,臭氧1小时,103,97,78,24,25,206,,134,134,1,19,4,2,0.2,0.3
2024-06-16T1400,3582A,115.47694,38.76408,保定市,清苑区第二中学,臭氧1小时,78,57,77,18,26,182,,140,140,2,20,4,4,0.2,0.3
2024-06-16T1400,3583A,115.62909,39.02311,保定市,徐水物探局,臭氧1小时,97,69,81,17,22,197,,140,140,2,25,3,3,0.3,0.3
2024-06-16T1400,4004A,115.4202,38.8656,保定市,双鹰农机,臭氧1小时,101,56,62,21,26,201,,140,140,5,17,3,2,0.1,0.1
2024-06-16T1400,4034A,115.5150,38.8590,保定市,植保所站,臭氧1小时,95,46,66,25,46,196,,143,143,3,21,5,5,0.5,0.5
2024-06-16T1400,2594A,99.1678,25.1081,保山市,市环境监测站,颗粒物(PM10),51,51,21,12,7,105,,74,74,4,7,5,5,0.5,0.5
2024-06-16T1400,2595A,99.1711,25.1328,保山市,市环保局,颗粒物(PM10),52,54,25,25,10,107,,77,77,3,4,6,5,0.4,0.3
2024-06-16T1400,1866A,109.2262,21.588,北海市,牛尾岭水库,,,,,,,,,,,,,,,,
2024-06-16T1400,1867A,109.1436,21.4086,北海市,海滩公园,,37,36,33,7,12,116,,73,73,4,11,3,4,0.6,0.6
2024-06-16T1400,1868A,109.0981,21.4661,北海市,新市环保局,,36,26,31,7,14,114,,70,70,4,14,4,6,0.6,0.8
2024-06-16T1400,1869A,109.1778,21.5233,北海市,北海工业园,,33,16,32,10,16,104,,66,66,4,17,4,10,0.6,0.7
2024-06-16T1400,3400A,109.1911,21.4415,北海市,龙潭自来水厂,,34,28,32,17,22,108,,63,63,5,12,4,5,0.5,0.6
2024-06-16T1400,1001A,116.3621,39.8784,北京市,万寿西宫,臭氧1小时,101,33,44,14,23,202,,140,140,10,22,1,2,0.4,0.5
2024-06-16T1400,1002A,116.2202,40.2915,北京市,定陵,,50,18,20,10,9,159,,100,100,13,16,3,3,0.3,0.3
2024-06-16T1400,1003A,116.4174,39.9289,北京市,东四,臭氧1小时,84,29,34,11,19,187,,131,131,13,26,4,4,0.5,0.6
2024-06-16T1400,1004A,116.4072,39.8863,北京市,天坛,臭氧1小时,89,25,30,10,17,191,,133,133,11,22,1,2,0.3,0.5
2024-06-16T1400,1005A,116.462,39.9365,北京市,农展馆,臭氧1小时,99,27,34,10,18,199,,137,137,14,29,5,6,0.5,0.6
2024-06-16T1400,1006A,116.3392,39.9295,北京市,官园,臭氧1小时,101,30,44,11,20,201,,145,145,11,25,4,4,0.2,0.3
2024-06-16T1400,1007A,116.2878,39.9611,北京市,海淀万柳,臭氧1小时,92,30,45,13,21,193,,137,137,11,27,5,5,0.3,0.4
2024-06-16T1400,1008A,116.6636,40.135,北京市,顺义新城,臭氧1小时,67,15,39,6,20,173,,127,127,9,20,1,2,0.3,0.6
2024-06-16T1400,1009A,116.6275,40.3275,北京市,怀柔镇,臭氧1小时,62,19,36,8,20,169,,126,126,6,10,3,4,0.4,0.5
2024-06-16T1400,1010A,116.2296,40.217,北京市,昌平镇,,49,27,26,13,12,154,,97,97,9,18,2,1,0.3,0.3
2024-06-16T1400,1011A,116.3966,39.9821,北京市,奥体中心,臭氧1小时,57,28,35,10,19,165,,119,119,12,25,7,5,0.3,0.4
2024-06-16T1400,1012A,116.184,39.9136,北京市,古城,臭氧1小时,83,41,65,13,23,186,,133,133,9,30,2,2,0.3,0.3
2024-06-16T1400,3281A,115.9718,40.4529,北京市,延庆夏都,,38,15,26,7,10,120,,68,68,3,29,1,1,0.1,0.2
2024-06-16T1400,3417A,117.0709,40.1465,北京市,平谷新城,,50,22,45,10,26,158,,116,116,12,13,3,2,0.4,0.6
2024-06-16T1400,3418A,116.8336,40.4095,北京市,密云新城,臭氧1小时,60,19,32,10,15,168,,127,127,10,16,1,2,0.3,0.4
2024-06-16T1400,3671A,116.088,39.9726,北京市,门头沟三家店,,,,,,,,,,,,,,,,
2024-06-16T1400,3672A,116.1541,39.8204,北京市,丰台云岗,臭氧1小时,80,40,74,22,20,184,,128,128,11,33,2,3,0.4,0.4
2024-06-16T1400,3673A,116.6804,39.9081,北京市,通州东关,臭氧1小时,85,31,42,12,20,188,,120,120,7,19,1,2,0.3,0.5
2024-06-16T1400,3674A,115.9577,39.7603,北京市,房山燕山,臭氧1小时,55,56,51,17,15,164,,134,134,6,13,2,2,0.3,0.3
2024-06-16T1400,3675A,116.4672,39.7733,北京市,大兴旧宫,臭氧1小时,78,33,36,13,18,182,,121,121,9,22,1,2,0.3,0.5
2024-06-16T1400,3694A,115.986,40.4563,北京市,延庆石河营,,35,14,22,6,9,110,,63,63,5,30,3,3,0.1,0.2
2024-06-16T1400,3695A,116.6151,40.3053,北京市,怀柔新城,,50,18,34,7,19,160,,121,121,6,11,3,2,0.3,0.5
2024-06-16T1400,3696A,116.2545,39.8768,北京市,丰台小屯,臭氧1小时,74,33,48,13,20,179,,124,124,6,24,1,2,0.4,0.4
2024-06-16T1400,3697A,116.84,40.3844,北京市,密云镇,,48,11,36,10,18,151,,110,110,8,22,1,2,0.2,0.4
2024-06-16T1400,1761A,123.8275,41.3064,本溪市,大峪,,46,21,25,14,9,146,,106,106,9,19,15,13,0.7,1.2
2024-06-16T1400,1762A,123.7567,41.3325,本溪市,溪湖,,49,22,34,8,14,154,,111,111,9,24,14,11,0.6,1.1
2024-06-16T1400,1763A,123.7169,41.3094,本溪市,彩屯,,45,20,32,9,17,141,,98,98,13,29,12,11,0.5,1
2024-06-16T1400,1764A,123.7669,41.2864,本溪市,东明,,47,38,39,11,13,149,,120,120,17,29,17,11,1.1,1
2024-06-16T1400,1765A,123.7992,41.2664,本溪市,新立屯,,47,33,22,8,8,148,,125,125,12,26,20,14,1.2,1
2024-06-16T1400,1766A,123.8142,41.3472,本溪市,威宁,,46,25,41,10,12,146,,104,104,13,27,12,9,0.5,0.7
2024-06-16T1400,2587A,105.2864,27.3125,毕节市,八中,,36,35,40,24,35,115,,80,80,7,13,6,8,0.4,0.5
2024-06-16T1400,2588A,105.31,27.2944,毕节市,师专,,34,30,41,23,29,108,,77,77,6,15,5,8,0.7,0.7
2024-06-16T1400,3537A,105.3631,27.3533,毕节市,长征村,,48,44,61,33,44,124,,92,92,6,11,9,8,0.6,0.6
2024-06-16T1400,1629A,118.0018,37.3617,滨州市,第二水厂,,50,19,39,14,19,157,,126,126,3,16,3,6,0.5,0.8
2024-06-16T1400,1630A,117.9776,37.393,滨州市,北中新校,臭氧1小时,58,29,34,9,16,166,,134,134,6,13,3,5,0.3,0.6
2024-06-16T1400,3514A,117.9378,37.3956,滨州市,中海酒店,臭氧1小时,64,27,32,12,19,171,,137,137,6,13,5,7,0,0.2
2024-06-16T1400,3515A,117.9378,37.3553,滨州市,开发区一中,臭氧1小时,60,31,43,9,20,168,,133,133,4,16,8,10,0.6,0.8
2024-06-16T1400,3516A,118.0917,37.694,滨州市,金海六路,臭氧1小时,60,27,33,7,16,168,,132,132,6,11,5,12,0.5,0.6
2024-06-16T1400,4028A,117.9956,37.3753,滨州市,滨州市西街道办事处,臭氧1小时,64,19,31,12,23,171,,140,140,6,15,3,6,0.3,0.6
2024-06-16T1400,2311A,115.8072,33.8399,亳州市,污水处理厂,,45,32,52,31,27,107,,150,135,15,11,4,5,0.7,0.5
2024-06-16T1400,2312A,115.7789,33.8518,亳州市,三国揽胜宫,,37,30,49,24,22,116,,148,135,14,12,3,4,0.7,0.5
2024-06-16T1400,3332A,115.7633,33.8034,亳州市,亳州学院,,45,35,49,27,22,144,,155,144,10,10,4,5,0.5,0.4
2024-06-16T1400,2693A,82.0485,44.8556,博尔塔拉蒙古自治州,市党校,,41,23,19,10,11,130,,79,79,9,10,10,10,0.3,0.3
2024-06-16T1400,2694A,82.0806,44.8969,博尔塔拉蒙古自治州,市环保局,,40,19,26,13,11,128,,76,76,8,16,8,9,0.3,0.3
2024-06-16T1400,1071A,116.8842,38.2991,沧州市,沧县城建局,臭氧1小时,88,41,45,18,19,190,,135,135,7,16,4,5,0.2,0.4
2024-06-16T1400,1072A,116.8584,38.3254,沧州市,电视转播站,臭氧1小时,80,40,45,9,23,184,,125,125,5,14,3,3,0.3,0.4
2024-06-16T1400,1073A,116.8709,38.3228,沧州市,市环保局,臭氧1小时,90,32,45,17,28,192,,135,135,8,17,6,7,0.2,0.3
2024-06-16T1400,3324A,116.8136,38.3004,沧州市,河北水利电力学院,臭氧1小时,90,24,39,22,28,192,,131,131,6,16,7,7,0.1,0.3
2024-06-16T1400,2622A,97.1806,31.1273,昌都市,昌都监测站,,34,,12,3,7,106,,70,70,2,9,9,9,0.4,0.4
2024-06-16T1400,3719A,97.1714,31.1406,昌都市,昌都会议中心,,36,6,12,3,6,115,,74,74,3,7,6,5,0.3,0.3
2024-06-16T1400,2690A,88.1236,43.8886,昌吉回族自治州,天山天池,,38,21,16,3,7,119,,88,88,6,7,6,8,0.6,0.6
2024-06-16T1400,2692A,87.2717,44.0297,昌吉回族自治州,新区政务中心,,,22,25,3,8,118,,110,110,,11,,10,0.2,0.3
2024-06-16T1400,3613A,87.3095,44.0142,昌吉回族自治州,亚心广场,,40,24,28,3,5,128,,115,115,8,17,7,8,0.1,0.2
2024-06-16T1400,1119A,125.3325,43.9166,长春市,食品厂,,35,23,29,6,10,112,,76,76,12,27,6,6,0.2,0.3
2024-06-16T1400,1120A,125.2863,43.9027,长春市,客车厂,,37,12,22,3,9,118,,80,80,8,25,3,3,0.2,0.2
2024-06-16T1400,1121A,125.2841,43.8463,长春市,邮电学院,,36,,19,13,7,113,,74,74,9,27,7,7,0.2,0.3
2024-06-16T1400,1122A,125.3716,43.8772,长春市,劳动公园,,39,16,22,6,6,123,,83,83,7,22,4,4,0.2,0.3
2024-06-16T1400,1123A,125.3297,43.8805,长春市,园林处,,35,9,18,9,10,111,,73,73,10,22,6,6,0.3,0.3
2024-06-16T1400,1124A,125.4605,43.79,长春市,净月潭,,35,10,19,7,5,111,,63,63,7,21,4,4,0.2,0.2
2024-06-16T1400,1125A,125.7194,43.515,长春市,甩湾子,,,,,,,,,,,,,,,,
2024-06-16T1400,1126A,125.3863,43.8447,长春市,经开区环卫处,,37,16,22,7,7,118,,82,82,8,21,4,4,0.3,0.3
2024-06-16T1400,1127A,125.245,43.7783,长春市,高新区管委会,,37,15,20,11,7,118,,78,78,5,26,7,7,0.3,0.3
2024-06-16T1400,1128A,125.1761,43.8325,长春市,岱山公园,,36,12,16,12,8,115,,75,75,5,23,4,4,0.2,0.2
2024-06-16T1400,1335A,113.0833,28.2325,长沙市,经开区环保局,,37,34,27,14,13,116,,82,82,4,9,3,3,0.4,0.5
2024-06-16T1400,1336A,112.8872,28.2189,长沙市,高开区环保局,,43,29,32,13,14,137,,92,92,8,16,5,4,0.6,0.7
2024-06-16T1400,1337A,113.0792,28.2053,长沙市,马坡岭,,38,28,26,15,10,121,,84,84,2,5,7,7,0.5,0.6
2024-06-16T1400,1338A,112.9394,28.19,长沙市,湖南师范大学,,44,35,27,16,20,139,,93,93,3,8,4,4,0.6,0.7
2024-06-16T1400,1339A,113.0178,28.1322,长沙市,雨花区环保局,,38,22,25,11,12,121,,84,84,2,7,3,3,0.7,0.7
2024-06-16T1400,1340A,112.9792,28.2597,长沙市,伍家岭,,41,33,32,12,15,130,,87,87,4,11,4,5,0.3,0.4
2024-06-16T1400,1341A,113.0014,28.1944,长沙市,火车新站,,43,26,30,17,15,137,,90,90,7,11,3,3,0.5,0.5
2024-06-16T1400,1342A,112.9844,28.1178,长沙市,天心区环保局,,38,33,28,15,17,120,,80,80,1,8,1,2,0.4,0.5
2024-06-16T1400,1343A,112.8908,28.1308,长沙市,湖南中医药大学,,44,22,32,13,13,138,,86,86,2,13,7,7,0.9,0.9
2024-06-16T1400,1344A,112.9581,28.3611,长沙市,沙坪,,45,,20,31,16,98,,79,79,2,6,7,7,0.3,0.4
2024-06-16T1400,1727A,113.1147,36.1547,长治市,清华站,,49,42,44,34,29,118,,82,80,18,20,9,10,0.8,0.7
2024-06-16T1400,1728A,113.1031,36.1989,长治市,监测站,颗粒物(PM10),55,60,46,36,28,103,,79,78,28,26,3,4,1.3,1.2
2024-06-16T1400,1730A,113.0886,36.2125,长治市,审计局,,,,41,39,27,124,,106,91,,25,2,3,0.8,0.7
2024-06-16T1400,1731A,113.0844,36.1856,长治市,长治八中,,49,41,50,34,26,115,,76,76,18,23,2,3,0.9,1
2024-06-16T1400,2845A,113.1569,36.1911,长治市,德盛苑,,49,41,33,34,23,125,,113,106,16,12,6,7,1.2,0.9
2024-06-16T1400,3568A,113.06,36.0464,长治市,向阳小学,细颗粒物(PM2.5),64,49,63,46,44,125,,96,96,20,23,2,2,1.0,0.9
2024-06-16T1400,3569A,112.8792,36.3144,长治市,屯留一中,细颗粒物(PM2.5),63,53,46,45,39,132,,96,96,12,20,8,10,0.9,0.8
2024-06-16T1400,3570A,113.235,36.3489,长治市,潞城四中,细颗粒物(PM2.5),104,,53,78,45,125,,107,103,10,17,7,6,0.5,0.5
2024-06-16T1400,1854A,111.6975,28.9703,常德市,市二中,,42,40,40,24,30,133,,91,91,2,10,7,8,0.4,0.5
2024-06-16T1400,1857A,111.7158,29.1456,常德市,白鹤山,,,,,,,,,,,,,,,,
2024-06-16T1400,3138A,111.7153,29.0289,常德市,武陵区永安,,40,30,42,18,29,127,,94,94,2,8,7,7,0.3,0.4
2024-06-16T1400,3139A,111.6892,28.9881,常德市,鼎城区玉霞,,42,28,42,16,29,133,,93,93,2,10,5,6,0.4,0.5
2024-06-16T1400,3140A,111.6625,29.0531,常德市,武陵区长庚,,42,29,43,17,31,132,,105,105,2,9,8,9,0.6,0.7
2024-06-16T1400,1196A,119.9633,31.762,常州市,市监测站,臭氧1小时,110,44,48,33,30,220,,142,142,21,24,10,9,0.7,0.7
2024-06-16T1400,1200A,119.9468,31.7069,常州市,武进监测站,臭氧1小时,119,38,48,23,25,238,,152,152,10,14,13,13,0.7,0.8
2024-06-16T1400,1201A,119.9255,31.9087,常州市,安家,臭氧1小时,97,28,46,17,29,197,,128,128,13,30,11,10,0.8,0.7
2024-06-16T1400,3002A,119.9805,31.8174,常州市,行政中心,臭氧1小时,79,29,43,23,25,183,,129,129,16,25,11,11,0.5,0.6
2024-06-16T1400,3003A,120.0522,31.7748,常州市,经开区,臭氧1小时,85,45,67,24,28,188,,132,132,23,28,8,9,0.6,0.7
2024-06-16T1400,3010A,119.9025,31.7964,常州市,钟楼,臭氧1小时,112,33,39,27,25,224,,147,147,17,20,8,7,0.9,0.9
2024-06-16T1400,3429A,119.8598,31.7066,常州市,武进经发区,臭氧1小时,115,33,50,21,27,229,,152,152,13,18,10,10,0.3,0.4
2024-06-16T1400,3430A,119.5826,31.7245,常州市,金坛城区,臭氧1小时,114,38,42,19,19,227,,160,160,8,10,7,8,0.7,0.9
2024-06-16T1400,2220A,120.4318,41.5881,朝阳市,西梁,,41,16,28,7,11,131,,97,97,7,19,10,10,0.5,0.6
2024-06-16T1400,2221A,120.4521,41.5646,朝阳市,河畔小区,,45,17,24,10,7,141,,106,106,9,14,11,11,0.5,0.7
2024-06-16T1400,2222A,120.4176,41.5648,朝阳市,八里堡,,42,27,28,8,12,132,,99,99,11,20,12,11,0.7,0.8
2024-06-16T1400,2223A,120.3806,41.5969,朝阳市,农业园区,,43,14,22,12,13,136,,96,96,9,20,9,9,0.4,0.6
2024-06-16T1400,1705A,116.6367,23.6719,潮州市,西园路,,18,18,16,7,9,32,,29,29,12,12,1,1,0.6,0.5
2024-06-16T1400,3026A,116.6183,23.6608,潮州市,市政府,,18,18,19,7,10,41,,37,37,10,12,8,9,0.9,0.8
2024-06-16T1400,4036A,116.6461,23.6761,潮州市,金山,,18,18,18,3,7,43,,33,33,12,12,6,6,0.7,0.6
2024-06-16T1400,2472A,113.0073,25.9061,郴州市,马头岭,,28,28,17,6,9,77,,45,45,5,5,11,7,0.6,0.6
2024-06-16T1400,2473A,113.0116,25.8226,郴州市,市职中,,22,,12,12,9,70,,47,47,4,7,11,9,0.6,0.6
2024-06-16T1400,2474A,113.0161,25.8001,郴州市,兴隆步行街,,28,28,14,18,8,68,,50,50,5,6,11,20,0.7,0.7
2024-06-16T1400,2475A,113.0383,25.8071,郴州市,市审计局,,21,13,8,7,7,66,,50,50,5,8,4,22,0.5,0.4
2024-06-16T1400,2476A,113.0348,25.7759,郴州市,市环保局,,21,13,9,10,7,65,,48,48,12,13,7,27,0.5,0.5
2024-06-16T1400,1431A,103.9728,30.7236,成都市,金泉两河,,34,34,54,21,39,92,,93,93,2,18,1,2,0.5,0.7
2024-06-16T1400,1432A,104.176,30.6872,成都市,十里店,,50,50,60,33,34,93,,89,89,11,30,3,3,0.6,0.7
2024-06-16T1400,1433A,104.079,30.5706,成都市,三瓦窑,细颗粒物(PM2.5),53,43,60,37,44,103,,89,89,4,22,2,2,0.4,0.5
2024-06-16T1400,1434A,104.1114,30.63,成都市,沙河铺,,40,40,48,28,31,98,,92,92,8,23,2,2,0.4,0.5
2024-06-16T1400,1437A,104.0786,30.6531,成都市,君平街,,41,41,54,24,34,107,,103,103,11,29,1,1,0.4,0.6
2024-06-16T1400,1438A,103.613,31.0283,成都市,灵岩寺,,,,,,,,,,,,,,,,
2024-06-16T1400,2880A,104.0239,30.65639,成都市,大石西路,,46,46,53,24,30,101,,98,98,9,22,4,3,0.6,0.7
2024-06-16T1400,3136A,104.2725,30.5589,成都市,龙泉驿区区政府,,34,34,38,22,27,94,,84,76,6,14,2,2,0.5,0.5
2024-06-16T1400,3357A,104.0106,30.6931,成都市,金博路,,31,31,51,12,32,94,,91,91,4,21,2,2,0.4,0.6
2024-06-16T1400,3359A,104.0578,30.5225,成都市,华阳,细颗粒物(PM2.5),55,44,46,39,37,100,,90,90,9,21,2,2,0.8,0.9
2024-06-16T1400,3487A,104.2394,30.5319,成都市,车城东七路,,46,42,55,32,40,95,,82,82,7,20,2,3,0.6,0.6
2024-06-16T1400,3488A,104.3853,30.7453,成都市,青白江技师分院,,42,33,43,29,26,85,,82,82,2,26,4,4,0.7,0.8
2024-06-16T1400,3489A,104.0789,30.4072,成都市,科学城,细颗粒物(PM2.5),52,50,55,36,37,108,,95,90,9,18,2,3,0.5,0.5
2024-06-16T1400,4011A,103.8506,30.6947,成都市,光华大道三段,颗粒物(PM10),51,52,62,22,37,109,,104,104,2,15,3,4,0.5,0.6
2024-06-16T1400,1062A,117.9531,40.9081,承德市,铁路,,37,6,24,3,8,118,,80,80,8,21,13,12,0.2,0.3
2024-06-16T1400,1063A,117.9392,40.9763,承德市,中国银行,,38,6,24,3,7,119,,83,83,4,19,5,6,0.3,0.3
2024-06-16T1400,1064A,117.9503,40.928,承德市,开发区,,40,22,29,6,11,126,,81,81,7,22,8,9,0.2,0.3
2024-06-16T1400,1065A,117.8051,40.9655,承德市,文化中心,,38,6,47,3,11,121,,83,83,3,29,12,23,0.3,0.4
2024-06-16T1400,1066A,117.9268,41.0026,承德市,离宫,,38,8,22,3,12,120,,82,82,2,14,3,3,0.3,0.3
2024-06-16T1400,2314A,117.47,30.6618,池州市,池州学院,臭氧1小时,99,52,56,34,34,199,,161,161,5,8,6,6,0.6,0.8
2024-06-16T1400,3237A,117.4918,30.6617,池州市,展览馆,臭氧1小时,98,46,51,39,34,198,,153,153,6,9,4,4,0.6,0.8
2024-06-16T1400,3333A,117.5627,30.695,池州市,第八中学,臭氧1小时,100,53,54,38,35,200,,156,156,9,12,4,4,0.3,0.6
2024-06-16T1400,3334A,117.5038,30.6243,池州市,第十二中学,臭氧1小时,101,56,49,31,33,201,,149,149,9,16,6,6,0.6,0.9
2024-06-16T1400,1744A,118.9233,42.2816,赤峰市,松山一中,,32,11,17,3,7,101,,78,78,13,28,10,9,0.4,0.5
2024-06-16T1400,1745A,118.9576,42.2728,赤峰市,哈达街,,30,,15,8,5,96,,74,74,12,18,10,10,0.5,0.5
2024-06-16T1400,1746A,118.8788,42.2554,赤峰市,天义路,,34,,11,6,5,106,,85,85,13,19,6,8,0.2,0.2
2024-06-16T1400,3058A,119.2658,42.0353,赤峰市,银河街,,35,,35,13,15,109,,80,80,10,25,10,18,0.2,0.4
2024-06-16T1400,3286A,118.9359,42.3147,赤峰市,桥北物流园区,,32,,17,10,10,102,,80,80,8,24,7,6,0.5,0.5
2024-06-16T1400,2521A,107.3476,22.4136,崇左市,市环保局江州分局,,34,27,27,15,13,106,,63,63,5,9,6,5,0.5,0.5
2024-06-16T1400,2522A,107.3702,22.3707,崇左市,城南新区,,31,27,23,13,16,98,,65,65,2,6,3,3,0.5,0.6
2024-06-16T1400,2298A,118.3093,32.3153,滁州市,老年大学,臭氧1小时,135,59,53,27,27,270,,185,185,18,21,15,10,0.9,0.6
2024-06-16T1400,2299A,118.3244,32.2786,滁州市,人大宾馆,,,54,51,26,30,,,154,154,25,27,11,8,0.9,0.7
2024-06-16T1400,3207A,118.3118,32.3038,滁州市,市政府原办公楼,臭氧1小时,134,54,51,32,33,268,,183,183,14,22,12,10,1.0,0.7
2024-06-16T1400,3331A,118.3267,32.2634,滁州市,图书馆,臭氧1小时,128,52,51,16,28,255,,173,173,13,20,11,10,1.1,0.9
2024-06-16T1400,2605A,101.5482,25.0441,楚雄彝族自治州,州环境监测站,,21,11,13,3,10,65,,45,45,2,11,3,5,0.5,0.6
2024-06-16T1400,2606A,101.538,25.0492,楚雄彝族自治州,市经济开发区,,19,7,15,3,10,60,,38,38,4,12,4,7,0.6,0.7
2024-06-16T1400,2548A,107.5277,31.2827,达州市,达州职业技术学院,,21,21,34,3,11,58,,36,36,12,20,3,3,0.1,0.2
2024-06-16T1400,2549A,107.5086,31.2186,达州市,市环境监测站,,26,26,34,12,12,73,,51,51,19,22,6,6,0.5,0.5
2024-06-16T1400,2550A,107.4988,31.2132,达州市,凤凰小区,,27,27,32,14,16,83,,66,66,15,18,8,8,0.4,0.5
2024-06-16T1400,2551A,107.5082,31.1986,达州市,达县机关宾馆,,32,24,34,22,16,67,,45,45,27,23,5,5,0.3,0.4
2024-06-16T1400,2552A,107.4644,31.2124,达州市,市政中心,,24,24,36,9,14,72,,61,61,20,22,6,8,0.5,0.6
2024-06-16T1400,2614A,100.1542,25.7054,大理白族自治州,大理市环境监测站,,32,32,17,13,9,68,,61,61,7,9,5,4,0.5,0.6
2024-06-16T1400,2615A,100.2171,25.5811,大理白族自治州,大理古城,,28,9,16,3,10,87,,64,64,4,10,7,7,0.9,0.9
2024-06-16T1400,1109A,121.612,38.9741,大连市,甘井子,,45,19,16,7,9,142,,112,112,10,16,7,6,0.5,0.4
2024-06-16T1400,1110A,121.565,38.9511,大连市,周水子,,41,18,18,9,9,130,,104,104,12,23,7,7,0.5,0.5
2024-06-16T1400,1111A,121.5637,38.8845,大连市,星海三站,,38,23,17,9,9,119,,106,106,16,13,9,7,0.6,0.5
2024-06-16T1400,1112A,121.6302,38.9117,大连市,青泥洼桥,,41,17,18,8,9,129,,103,103,10,20,9,8,0.4,0.5
2024-06-16T1400,1113A,121.6251,38.8638,大连市,傅家庄,,39,21,17,17,9,123,,115,115,16,13,9,8,0.6,0.6
2024-06-16T1400,1114A,121.5213,38.8661,大连市,七贤岭,,44,14,17,9,7,140,,111,111,10,13,6,6,0.5,0.4
2024-06-16T1400,1115A,121.2529,38.8061,大连市,旅顺,,42,19,17,12,10,133,,110,110,16,14,8,8,0.4,0.4
2024-06-16T1400,1116A,121.7485,39.1311,大连市,金州,,42,21,19,3,7,134,,109,109,9,12,8,8,0.4,0.4
2024-06-16T1400,1117A,121.7811,39.0496,大连市,开发区,,40,27,26,6,11,127,,104,104,18,21,6,6,0.4,0.4
2024-06-16T1400,1118A,121.9762,39.0631,大连市,双D港,,45,26,21,3,7,141,,117,117,17,18,8,8,0.5,0.5
2024-06-16T1400,1789A,124.81117,46.03138,大庆市,大同区,,38,38,16,19,14,118,,92,92,7,12,5,4,0.3,0.2
2024-06-16T1400,1790A,125.129,46.533,大庆市,龙凤区,,36,36,25,8,12,111,,92,92,13,20,7,6,0.4,0.4
2024-06-16T1400,1791A,124.902,46.408,大庆市,红岗区,,39,26,15,16,10,124,,98,98,6,17,5,5,0.3,0.3
2024-06-16T1400,1792A,125.153,46.586,大庆市,萨尔图区,,32,21,20,14,9,102,,85,85,8,17,7,6,0.3,0.3
2024-06-16T1400,1793A,124.9042,46.6215,大庆市,让胡路区,,35,35,26,16,12,112,,92,92,7,12,4,4,0.2,0.1
2024-06-16T1400,3481A,125.141,46.634,大庆市,萨区政府监测点,,35,22,17,3,7,111,,92,92,7,16,5,5,0.1,0.2
2024-06-16T1400,1721A,113.3819,40.1097,大同市,果树场,,,,,,,,,,,,,,,,
2024-06-16T1400,1723A,113.2994,40.0758,大同市,云冈宾馆,,43,14,36,6,12,137,,96,96,6,20,7,11,0.4,0.8
2024-06-16T1400,1724A,113.3444,40.0917,大同市,大同大学,,39,16,22,6,9,123,,91,91,4,16,10,12,0.3,0.3
2024-06-16T1400,1725A,113.2661,40.1269,大同市,安家小村,,41,10,34,3,8,129,,90,90,4,19,11,14,0.3,0.7
2024-06-16T1400,1726A,113.2711,40.0844,大同市,教育学院,,43,,38,9,17,137,,92,92,7,25,9,15,0.4,1.1
2024-06-16T1400,3282A,113.3397,40.0597,大同市,大同市卫生学校,,43,9,27,3,11,135,,97,97,7,19,9,15,0.2,0.4
2024-06-16T1400,3565A,113.1367,40.1122,大同市,云冈站,,42,12,33,8,14,134,,91,91,5,24,8,14,0.3,0.4
2024-06-16T1400,3566A,113.1186,40.2556,大同市,图书馆,,43,9,30,3,16,136,,90,90,8,15,8,9,0.3,0.4
2024-06-16T1400,3567A,113.5931,40.0461,大同市,区一中,,44,23,23,3,7,140,,112,112,6,10,2,4,0.3,0.3
2024-06-16T1400,3676A,113.2802,40.0995,大同市,第二人民医院,,42,16,25,12,16,134,,94,94,6,19,10,15,0.4,0.9
2024-06-16T1400,2269A,124.1069,50.4097,大兴安岭地区,科技局,,26,12,26,12,18,83,,51,51,4,8,6,6,0.3,0.3
2024-06-16T1400,3663A,124.1164,50.4278,大兴安岭地区,红旗社区,,26,,18,8,15,81,,48,48,6,14,5,5,0.4,0.4
2024-06-16T1400,1600A,124.3303,40.0625,丹东市,江湾东路,,46,24,20,11,14,146,,102,102,8,18,8,8,0.4,0.6
2024-06-16T1400,1601A,124.4256,40.1503,丹东市,临江后街,,44,18,18,8,10,138,,98,98,7,16,11,11,0.5,0.6
2024-06-16T1400,1602A,124.3933,40.1461,丹东市,元宝山,,36,20,21,9,9,115,,81,81,14,17,10,9,0.2,0.3
2024-06-16T1400,1603A,124.3633,40.1092,丹东市,民主桥,,42,27,27,12,13,134,,95,95,7,19,8,7,0.5,0.5
2024-06-16T1400,3541A,109.5726,19.5167,儋州市,第一中学子站,,22,12,18,10,10,68,,61,61,1,3,5,5,0.4,0.4
2024-06-16T1400,3542A,109.5567,19.5187,儋州市,东坡学校子站,,22,15,18,10,9,69,,59,59,1,3,5,4,0.5,0.5
2024-06-16T1400,2616A,98.5842,24.428,德宏傣族景颇族自治州,德宏州监测站,,47,47,35,27,17,85,,38,38,7,11,8,5,0.7,0.8
2024-06-16T1400,3677A,98.5881,24.4368,德宏傣族景颇族自治州,芒市人民政府综合楼,颗粒物(PM10),51,51,34,28,20,84,,41,41,7,9,12,9,0.6,0.7
2024-06-16T1400,1901A,104.4239,31.1208,德阳市,东山公园,,29,27,42,13,22,90,,94,83,4,13,1,2,0.4,0.5
2024-06-16T1400,1902A,104.3826,31.1317,德阳市,西小区,,30,27,42,15,29,96,,96,86,6,27,1,2,0.5,0.6
2024-06-16T1400,1904A,104.3553,31.1091,德阳市,耐火材料厂,,33,24,45,13,28,105,,99,93,3,26,2,3,0.5,0.7
2024-06-16T1400,3639A,104.4019,31.1244,德阳市,市教育局,,31,30,40,16,25,98,,96,88,5,22,2,2,0.5,0.6
2024-06-16T1400,1622A,116.3032,37.4674,德州市,儿童乐园,臭氧1小时,72,27,44,12,19,177,,134,134,6,12,8,8,0.5,0.5
2024-06-16T1400,1624A,116.2991,37.4451,德州市,监理站,臭氧1小时,78,27,42,7,18,182,,138,138,8,14,9,11,0.5,0.5
2024-06-16T1400,3066A,116.2721,37.4379,德州市,九衢泉纯净水厂,臭氧1小时,74,29,43,17,21,179,,129,129,7,14,5,6,0.5,0.5
2024-06-16T1400,3371A,116.3728,37.4403,德州市,开发区人民医院,臭氧1小时,65,27,49,7,19,172,,132,132,1,10,8,10,0.3,0.4
2024-06-16T1400,3372A,116.3572,37.4094,德州市,太阳城中学,臭氧1小时,73,29,47,12,20,178,,129,129,6,16,7,8,0.4,0.5
2024-06-16T1400,3511A,116.5652,37.3319,德州市,陵城艺术中心,臭氧1小时,52,22,48,7,18,161,,125,125,9,18,6,6,0.4,0.5
2024-06-16T1400,2621A,99.7056,27.8317,迪庆藏族自治州,迪庆州站,,28,10,14,3,7,89,,62,62,8,8,10,10,0.4,0.4
2024-06-16T1400,3180A,99.7136,27.8094,迪庆藏族自治州,质量技术监督局,,25,12,16,7,7,79,,60,60,9,7,8,8,0.5,0.5
2024-06-16T1400,2663A,104.6241,35.5734,定西市,东关小学,,44,26,41,13,18,140,,117,114,6,8,8,7,0.2,0.2
2024-06-16T1400,2664A,104.6194,35.5934,定西市,供电公司,,43,19,33,13,24,137,,109,105,1,7,3,3,0.2,0.2
2024-06-16T1400,1389A,113.7547,23.0494,东莞市,莞城梨川,,24,21,22,11,12,75,,44,44,8,22,9,9,0.7,0.7
2024-06-16T1400,1390A,113.7944,23.0128,东莞市,东城石井,,25,22,22,13,10,79,,44,44,4,22,3,4,0.5,0.5
2024-06-16T1400,1391A,113.7383,22.9658,东莞市,南城西平,,28,28,24,16,12,80,,47,47,2,22,3,3,0.6,0.6
2024-06-16T1400,3319A,113.7338,23.0381,东莞市,万江金泰,,26,24,21,13,12,82,,44,44,5,22,3,4,0.6,0.7
2024-06-16T1400,3626A,113.7533,23.0202,东莞市,南城元岭,,25,25,23,16,11,72,,40,40,3,22,6,6,0.7,0.8
2024-06-16T1400,3627A,113.7875,23.0457,东莞市,东城主山,,26,26,23,12,12,73,,39,39,2,22,8,8,0.6,0.7
2024-06-16T1400,1666A,118.6614,37.4309,东营市,市环保局,,,,,,,,,,,,,,,,
2024-06-16T1400,3036A,118.6904,37.4338,东营市,开发区管委会,臭氧1小时,88,35,30,3,12,190,,144,144,16,15,6,7,0.1,0.1
2024-06-16T1400,3365A,118.5719,37.565,东营市,垦利区民丰路,臭氧1小时,83,24,27,12,15,186,,151,151,18,17,13,11,0.4,0.5
2024-06-16T1400,3498A,118.5055,37.8612,东营市,河口城区,臭氧1小时,65,27,27,10,15,172,,142,142,7,11,8,9,0.4,0.5
2024-06-16T1400,3646A,118.4978,37.4623,东营市,胜利站,臭氧1小时,62,27,31,7,13,169,,140,140,23,14,12,10,0.3,0.4
2024-06-16T1400,3734A,118.35,37.26,东营市,理想之城,臭氧1小时,73,24,30,12,15,178,,136,136,17,15,12,7,0.3,0.4
2024-06-16T1400,1591A,110.0023,39.8129,鄂尔多斯市,综合楼,,50,36,47,3,7,158,,132,132,7,22,9,10,0.4,0.4
2024-06-16T1400,1592A,109.9486,39.8261,鄂尔多斯市,巴音孟克林场办事处,,45,36,42,9,11,141,,122,122,7,24,8,9,0.3,0.4
2024-06-16T1400,1593A,109.7736,39.5986,鄂尔多斯市,康泽苑,,49,29,40,3,12,155,,120,120,8,19,10,11,0.4,0.4
2024-06-16T1400,1594A,109.8119,39.5989,鄂尔多斯市,华泰汽车城,,44,36,37,14,18,140,,105,105,9,30,10,9,0.4,0.5
2024-06-16T1400,1595A,109.9734,39.7884,鄂尔多斯市,奥林花园,,45,36,37,14,13,144,,118,118,9,19,8,7,0.4,0.5
2024-06-16T1400,2436A,114.8938,30.3994,鄂州市,市政府,,45,36,47,17,16,142,,106,106,2,12,6,7,0.4,0.4
2024-06-16T1400,2437A,114.8989,30.3714,鄂州市,赵家坝,,46,,33,20,15,147,,102,102,3,14,7,8,0.5,0.4
2024-06-16T1400,3654A,114.8094,30.4089,鄂州市,精准医疗中心,,48,48,47,22,18,150,,113,113,7,13,6,7,0.5,0.5
2024-06-16T1400,2454A,109.4978,30.2981,恩施土家族苗族自治州,湖北民院,,43,43,36,27,24,89,,55,55,17,14,9,9,0.8,0.7
2024-06-16T1400,2455A,109.4707,30.2798,恩施土家族苗族自治州,州电力总公司,,44,44,34,25,24,90,,52,52,23,19,8,8,0.7,0.7
2024-06-16T1400,3549A,109.5061,30.3772,恩施土家族苗族自治州,龙凤新区,,40,40,36,24,21,60,,51,51,19,17,6,7,0.8,0.7
2024-06-16T1400,2499A,108.3411,21.6158,防城港市,沙万,,40,40,44,15,18,63,,39,39,19,23,9,16,0.6,0.8
2024-06-16T1400,2500A,108.3514,21.7731,防城港市,防城档案局,,,,64,,21,66,,37,37,7,21,3,5,0.6,0.8
2024-06-16T1400,2501A,108.3506,21.6414,防城港市,大海花园,,37,37,47,13,18,72,,41,41,13,17,5,14,0.7,0.9
2024-06-16T1400,1371A,113.1294,23.0067,佛山市,湾梁,,19,,18,10,10,59,,51,51,6,26,6,7,0.7,0.7
2024-06-16T1400,1372A,113.1083,23.0478,佛山市,华材职中,,18,,15,11,10,57,,51,51,8,25,6,6,0.3,0.4
2024-06-16T1400,1373A,113.144,23.0453,佛山市,南海气象局,,27,27,25,13,10,63,,48,48,3,23,6,6,0.4,0.5
2024-06-16T1400,1374A,113.2881,22.8094,佛山市,顺德苏岗,,,7,14,,9,65,,48,48,4,21,4,5,0.5,0.6
2024-06-16T1400,1376A,112.8383,22.8678,佛山市,高明孔堂,,19,,22,9,8,58,,46,46,4,15,6,6,0.5,0.5
2024-06-16T1400,1377A,112.8836,23.1588,佛山市,三水监测站,,25,,21,17,12,72,,42,42,13,33,4,5,0.6,0.7
2024-06-16T1400,1378A,112.867,23.185,佛山市,三水云东海,,28,12,22,10,14,88,,40,40,15,36,4,4,0.6,0.7
2024-06-16T1400,3625A,113.2544,22.7642,佛山市,容桂街道办,,19,14,13,12,11,58,,47,47,11,24,5,6,0.4,0.5
2024-06-16T1400,1280A,119.3903,26.0543,福州市,鼓山,,,,,,,,,,,,,,,,
2024-06-16T1400,1282A,119.2681,26.0504,福州市,师大,,14,10,18,3,7,44,,40,40,13,13,3,3,0.4,0.4
2024-06-16T1400,1283A,119.2984,26.1028,福州市,五四北路,,16,9,19,3,9,51,,40,40,11,11,3,3,0.3,0.3
2024-06-16T1400,1284A,119.2648,26.0768,福州市,杨桥西路,,16,13,20,3,7,49,,41,41,11,12,3,3,0.3,0.3
2024-06-16T1400,1285A,119.317,26.0746,福州市,紫阳,,13,10,19,3,8,41,,30,30,14,15,2,2,0.4,0.3
2024-06-16T1400,3048A,119.5799,26.0936,福州市,九龙,,12,12,17,3,7,35,,32,32,2,5,4,4,0.2,0.2
2024-06-16T1400,3526A,119.5189,25.9664,福州市,吴航,,15,6,18,3,9,47,,35,35,5,5,3,4,0.3,0.4
2024-06-16T1400,1755A,123.7977,41.8491,抚顺市,望花区,,50,33,30,23,16,160,,105,105,17,28,12,12,0.6,0.5
2024-06-16T1400,1756A,123.9161,41.8822,抚顺市,顺城区,臭氧1小时,57,45,33,19,14,165,,103,103,17,32,12,11,0.6,0.4
2024-06-16T1400,1757A,124.0436,41.8611,抚顺市,东洲区,颗粒物(PM10),52,54,38,24,15,150,,96,96,15,21,14,12,0.5,0.4
2024-06-16T1400,1758A,123.9247,41.8642,抚顺市,新抚区,,47,30,29,19,13,149,,94,94,15,25,10,7,0.6,0.5
2024-06-16T1400,1759A,124.0972,41.8961,抚顺市,大伙房水库,,46,44,24,16,15,146,,94,94,10,19,12,10,0.6,0.4
2024-06-16T1400,1760A,123.7086,41.8391,抚顺市,沈抚新城,臭氧1小时,55,40,30,22,13,164,,107,107,15,30,10,12,0.5,0.6
2024-06-16T1400,2376A,116.2127,28.0814,抚州市,桐源党溪,,24,24,26,9,10,56,,39,39,3,8,6,7,0.2,0.3
2024-06-16T1400,2377A,116.3544,27.9831,抚州市,市站,,20,17,18,3,6,63,,43,43,5,7,4,6,0.4,0.5
2024-06-16T1400,2378A,116.3565,27.963,抚州市,血防站,,20,20,18,3,6,59,,40,40,3,8,3,4,0.6,0.6
2024-06-16T1400,2379A,116.3564,28.0007,抚州市,采茶剧团,,21,11,15,3,7,65,,42,42,2,6,3,3,0.6,0.6
2024-06-16T1400,2380A,116.385,27.9647,抚州市,医学分院,,19,16,17,3,5,60,,41,41,3,6,3,3,0.6,0.7
2024-06-16T1400,2207A,121.6094,41.998,阜新市,工业园区,,44,22,28,8,12,138,,88,88,8,39,6,13,0.3,0.4
2024-06-16T1400,2208A,121.6697,42.0279,阜新市,长青街,,41,24,28,3,8,130,,88,88,9,30,7,17,0.5,0.6
2024-06-16T1400,2209A,121.6673,42.0705,阜新市,农业园区,,37,16,23,7,14,117,,81,81,12,34,6,15,0.2,0.3
2024-06-16T1400,2210A,121.6717,42.0224,阜新市,东苑,,40,22,29,6,10,126,,85,85,11,32,8,26,0.2,0.3
2024-06-16T1400,2211A,121.6506,42.0498,阜新市,玉龙新城,,38,14,34,6,11,120,,80,80,10,32,6,8,0.4,0.6
2024-06-16T1400,2301A,115.8277,32.8929,阜阳市,市监测站,臭氧1小时,80,59,68,37,30,184,,142,142,27,18,12,10,0.6,0.6
2024-06-16T1400,2303A,115.8554,32.8605,阜阳市,开发区,臭氧1小时,101,65,76,33,27,202,,148,148,24,17,8,7,0.5,0.5
2024-06-16T1400,2875A,115.784,32.8892,阜阳市,阜阳职业技术学院,臭氧1小时,89,70,80,31,27,191,,157,152,20,13,8,7,0.5,0.5
2024-06-16T1400,3468A,115.7901,32.8613,阜阳市,市规划展馆,臭氧1小时,87,86,73,55,38,189,,153,153,24,16,6,5,0.6,0.5
2024-06-16T1400,3469A,115.836,32.9183,阜阳市,枣园社区,颗粒物(PM10),72,93,64,49,37,175,,138,138,25,17,9,7,0.6,0.6
2024-06-16T1400,2669A,102.9099,34.9841,甘南藏族自治州,州政府,,43,11,15,11,18,137,,107,107,1,6,4,4,0.6,0.7
2024-06-16T1400,3380A,102.8914,34.9617,甘南藏族自治州,甘肃民族师范学院,,44,,14,14,10,139,,102,102,2,7,8,8,0.6,0.6
2024-06-16T1400,2570A,101.9603,30.0475,甘孜藏族自治州,水桥子,,29,18,15,14,12,92,,49,49,2,20,3,3,0.2,0.3
2024-06-16T1400,3065A,101.9533,29.9972,甘孜藏族自治州,州环保局,,29,11,16,3,5,90,,51,51,8,26,2,2,0.2,0.3
2024-06-16T1400,3414A,115.8347,28.932,赣江新区,桑海产业园,,20,,19,6,9,64,,55,55,7,23,10,10,0.3,0.4
2024-06-16T1400,2362A,114.9017,25.9149,赣州市,通天岩,,,,,,,,,,,,,,,,
2024-06-16T1400,2363A,114.9367,25.8664,赣州市,地委,,17,7,10,3,7,54,,52,52,12,8,10,8,1.2,1.1
2024-06-16T1400,2364A,114.9461,25.8481,赣州市,气象台,,16,11,10,8,7,49,,46,46,10,8,4,5,0.5,0.5
2024-06-16T1400,2365A,114.9322,25.8333,赣州市,市图书馆,,15,9,8,3,4,48,,46,46,6,5,6,7,0.8,0.8
2024-06-16T1400,2366A,114.8905,25.8471,赣州市,华坚鞋城,,20,20,13,9,5,52,,49,49,4,6,8,7,0.5,0.5
2024-06-16T1400,3109A,115.0093,25.8613,赣州市,赣县区卫计委,,17,9,10,3,4,52,,47,47,8,9,7,7,0.5,0.5
2024-06-16T1400,2683A,106.2319,36.1417,固原市,马园,,47,17,55,16,21,149,,114,114,12,28,5,6,0.5,0.5
2024-06-16T1400,2684A,106.2792,36.0022,固原市,监测站,,46,12,43,7,17,145,,120,120,7,19,5,6,0.3,0.4
2024-06-16T1400,2685A,106.2375,36.0211,固原市,新区,,46,10,37,3,15,146,,119,119,4,15,5,5,0.2,0.3
2024-06-16T1400,3522A,106.2177,35.9959,固原市,原州区十五小,,48,9,39,8,19,152,,129,129,3,9,1,3,0.3,0.3
2024-06-16T1400,2543A,106.6308,30.5278,广安市,小平旧居,,,,,,,,,,,,,,,,
2024-06-16T1400,2544A,106.6303,30.4576,广安市,市委,,33,25,45,12,27,103,,98,98,6,16,8,10,0.4,0.5
2024-06-16T1400,2545A,106.6271,30.4663,广安市,友谊中学,,35,22,36,15,24,110,,106,106,8,17,6,7,0.5,0.6
2024-06-16T1400,2547A,106.6388,30.4551,广安市,广电花园,,32,24,44,17,26,100,,96,96,6,16,9,11,0.4,0.6
2024-06-16T1400,2902A,106.6351,30.4865,广安市,北辰小学,,33,19,41,14,25,104,,100,100,6,13,10,11,0.3,0.5
2024-06-16T1400,2523A,105.8945,32.4535,广元市,黑石坡,,24,12,22,3,13,76,,66,66,8,12,14,15,0.3,0.4
2024-06-16T1400,2524A,105.821,32.4444,广元市,老城,,30,12,32,7,16,93,,78,73,13,26,5,7,0.3,0.5
2024-06-16T1400,2526A,105.8628,32.4287,广元市,监测站,,30,13,37,6,21,96,,75,74,11,15,5,8,0.5,0.6
2024-06-16T1400,3617A,105.8047,32.4166,广元市,经开区,,31,8,36,3,20,98,,76,76,9,17,5,6,0.5,0.7
2024-06-16T1400,1345A,113.2347,23.1423,广州市,广雅中学,,25,18,19,10,13,79,,50,50,16,35,4,5,0.5,0.6
2024-06-16T1400,1346A,113.2612,23.105,广州市,市五中,,28,13,20,10,13,89,,58,58,8,27,4,4,0.5,0.6
2024-06-16T1400,1348A,113.3478,23.0916,广州市,广东商学院,,21,16,20,11,13,66,,45,45,14,33,3,3,0.4,0.4
2024-06-16T1400,1349A,113.4332,23.1047,广州市,市八十六中,,19,14,21,9,12,60,,31,31,26,40,3,4,0.6,0.6
2024-06-16T1400,1350A,113.3505,22.9483,广州市,番禺中学,,25,16,48,11,9,78,,47,47,8,28,6,6,0.6,0.6
2024-06-16T1400,1351A,113.2146,23.3916,广州市,花都师范,,37,28,21,20,14,118,,31,31,25,37,6,5,0.7,0.6
2024-06-16T1400,1352A,113.2597,23.1331,广州市,市监测站,,25,11,19,7,12,79,,46,46,10,32,4,4,0.3,0.3
2024-06-16T1400,1353A,113.5618,23.312,广州市,九龙镇镇龙,,21,21,24,13,15,54,,28,28,22,29,6,6,0.4,0.5
2024-06-16T1400,1354A,113.2765,23.1544,广州市,麓湖,,26,17,20,10,12,81,,44,44,8,26,2,2,0.3,0.4
2024-06-16T1400,1355A,113.443,23.3035,广州市,帽峰山森林公园,,27,,16,11,11,86,,44,44,11,27,1,2,0.6,0.6
2024-06-16T1400,2846A,113.3221,23.1322,广州市,体育西,,25,21,24,13,14,78,,43,43,13,30,4,4,0.6,0.6
2024-06-16T1400,3298A,113.5717,23.5491,广州市,从化街口,,21,18,20,11,12,66,,27,27,15,21,7,7,0.6,0.7
2024-06-16T1400,3299A,113.3472,23.3692,广州市,白云竹料,,28,11,24,6,15,88,,43,43,12,32,4,4,0.6,0.6
2024-06-16T1400,3300A,113.2981,23.237,广州市,白云嘉禾,,28,16,22,10,12,87,,43,43,16,40,5,5,0.8,0.8
2024-06-16T1400,3301A,113.4256,23.1716,广州市,黄埔科学城,,19,16,22,12,12,60,,32,32,18,35,5,5,0.7,0.7
2024-06-16T1400,3302A,113.3942,23.0483,广州市,番禺大学城,,23,19,16,8,11,71,,37,37,14,32,5,5,0.5,0.5
2024-06-16T1400,3303A,113.4922,22.8168,广州市,南沙黄阁,,43,30,17,30,9,80,,54,54,5,21,5,5,0.6,0.6
2024-06-16T1400,3304A,113.5342,22.7896,广州市,南沙街,,22,,15,14,7,69,,47,47,5,23,7,8,0.5,0.5
2024-06-16T1400,3443A,113.2902,23.5544,广州市,花都梯面,,45,35,26,22,16,142,,36,36,24,28,4,4,0.8,0.7
2024-06-16T1400,3445A,113.7858,23.7478,广州市,从化良口,,20,20,10,13,4,64,,32,32,8,12,5,4,0.6,0.6
2024-06-16T1400,3446A,113.8051,23.2614,广州市,增城荔城,,48,48,28,30,14,75,,49,49,21,21,5,5,0.7,0.6
2024-06-16T1400,2505A,109.568,23.1478,贵港市,德智高中,,,,,,,,,,,,,,,,
2024-06-16T1400,2506A,109.6047,23.0666,贵港市,江南子站,,29,29,39,16,18,91,,40,40,6,19,8,11,0.5,0.7
2024-06-16T1400,2507A,109.6014,23.0948,贵港市,贵城子站,颗粒物(PM10),55,59,32,14,18,93,,39,39,6,17,9,10,0.6,0.7
2024-06-16T1400,2508A,109.5669,23.1065,贵港市,荷城子站,,34,34,26,3,9,86,,41,41,6,15,11,12,0.5,0.7
2024-06-16T1400,3405A,109.5886,23.1172,贵港市,新世纪学校,,46,46,28,19,15,98,,43,43,7,14,12,12,0.7,0.8
2024-06-16T1400,1439A,106.6899,26.5998,贵阳市,马鞍山,,28,7,25,3,12,89,,58,58,3,13,6,6,0.5,0.6
2024-06-16T1400,1440A,106.6971,26.5694,贵阳市,市环保站,,23,19,40,9,27,73,,60,60,19,33,4,5,0.7,0.8
2024-06-16T1400,1441A,106.6243,26.6266,贵阳市,鉴湖路,,27,12,31,7,18,86,,66,66,4,12,4,4,0.5,0.5
2024-06-16T1400,1442A,106.7487,26.6343,贵阳市,燕子冲,,27,9,23,3,20,84,,63,63,5,14,4,6,0.5,0.6
2024-06-16T1400,1443A,106.6555,26.4365,贵阳市,碧云窝,,26,17,30,3,13,81,,59,59,4,12,5,5,0.5,0.6
2024-06-16T1400,1444A,106.694,26.5161,贵阳市,中院村,,25,,32,9,18,80,,59,59,6,19,6,6,0.5,0.5
2024-06-16T1400,1445A,106.7109,26.6027,贵阳市,红边门,,26,,36,17,30,83,,59,59,9,23,4,6,0.5,0.6
2024-06-16T1400,1446A,106.7164,26.5699,贵阳市,新华路,,27,,30,9,22,85,,62,62,4,19,4,4,0.5,0.5
2024-06-16T1400,1447A,106.674,26.5424,贵阳市,太慈桥,,25,9,24,3,16,80,,52,52,4,17,5,5,0.3,0.4
2024-06-16T1400,1552A,106.805,26.3003,贵阳市,桐木岭,,,,,,,,,,,,,,,,
2024-06-16T1400,1862A,110.4144,25.3167,桂林市,电子科大尧山校区,,24,24,24,8,13,62,,42,42,3,4,4,6,0.5,0.5
2024-06-16T1400,1863A,110.2819,25.2697,桂林市,监测站,,21,19,21,11,14,65,,58,58,5,8,5,8,0.7,0.8
2024-06-16T1400,1864A,110.3089,25.2708,桂林市,龙隐路小学,,20,,21,11,14,62,,55,55,4,8,4,5,0.7,0.8
2024-06-16T1400,1865A,110.2869,25.2178,桂林市,八中,,20,20,18,3,6,58,,53,53,6,8,4,6,0.6,0.6
2024-06-16T1400,3403A,110.1764,25.2381,桂林市,创业大厦,,20,9,12,9,11,62,,53,53,4,9,6,8,0.5,0.5
2024-06-16T1400,3531A,110.296,25.1253,桂林市,旅游学院,,19,6,6,3,6,59,,50,50,4,6,5,8,0.5,0.6
2024-06-16T1400,2674A,100.2561,34.4714,果洛藏族自治州,玛沁县大武镇,,38,12,9,10,10,121,,124,124,18,17,7,8,0.4,0.4
2024-06-16T1400,1129A,126.5422,45.755,哈尔滨市,岭北,,,11,7,6,5,112,,83,83,9,11,,11,0.9,0.1
2024-06-16T1400,1130A,126.561,45.8167,哈尔滨市,松北商大,,32,10,12,3,3,101,,69,69,10,15,5,5,0.3,0.4
2024-06-16T1400,1131A,126.979,45.5419,哈尔滨市,阿城会宁,,33,15,16,6,9,104,,70,70,10,20,9,8,0.4,0.4
2024-06-16T1400,1132A,126.599,45.7222,哈尔滨市,南岗学府路,,35,18,15,3,3,112,,78,78,4,11,7,7,0.4,0.5
2024-06-16T1400,1133A,126.689,45.7733,哈尔滨市,太平宏伟公园,,34,14,12,7,8,107,,78,78,10,14,6,6,0.4,0.4
2024-06-16T1400,1134A,126.635,45.7667,哈尔滨市,道外承德广场,,,,13,10,3,104,,73,73,15,21,9,9,,0.5
2024-06-16T1400,1135A,126.685,45.7319,哈尔滨市,香坊红旗大街,,34,17,14,6,9,106,,78,78,8,14,5,6,0.3,0.4
2024-06-16T1400,1136A,126.6411,45.7258,哈尔滨市,动力和平路,,35,12,13,12,5,109,,77,77,9,17,6,6,0.2,0.4
2024-06-16T1400,1137A,126.593,45.7478,哈尔滨市,道里建国路,,33,17,14,3,3,103,,74,74,12,18,9,8,0.2,0.3
2024-06-16T1400,1138A,126.615,45.61,哈尔滨市,平房东轻厂,,36,13,12,8,5,115,,81,81,7,16,8,8,0.1,0.1
2024-06-16T1400,1139A,126.595,45.9855,哈尔滨市,呼兰师专,,33,9,12,3,4,105,,75,75,7,11,6,7,0.3,0.3
2024-06-16T1400,1140A,126.6206,45.6842,哈尔滨市,省农科院,,34,12,11,6,6,106,,79,79,12,15,7,6,0.3,0.3
2024-06-16T1400,2688A,93.5128,42.8172,哈密市,地区监测站,,44,27,66,16,26,138,,111,111,4,23,5,5,0.2,0.3
2024-06-16T1400,2689A,93.4961,42.8328,哈密市,哈密师范学校,,46,15,69,15,24,147,,112,112,4,23,5,6,0.3,0.4
2024-06-16T1400,2671A,100.9048,36.9639,海北藏族自治州,海晏县西海镇,,47,,22,11,18,149,,127,127,6,9,15,14,0.4,0.4
2024-06-16T1400,3867A,102.0738,36.5056,海东市,平安区公安北苑,,40,24,26,13,15,125,,95,94,15,14,11,6,0.5,0.6
2024-06-16T1400,1409A,110.576,19.9507,海口市,东寨港,,,,,,,,,,,,,,,,
2024-06-16T1400,1410A,110.3232,20.0574,海口市,海南大学,,25,19,27,14,15,78,,65,65,4,10,6,5,0.4,0.4
2024-06-16T1400,1411A,110.283,20.0053,海口市,秀英海南医院,,41,41,26,14,13,68,,57,57,5,13,6,6,0.3,0.3
2024-06-16T1400,1412A,110.338,19.9969,海口市,海南师范大学,,45,45,25,10,13,76,,59,59,4,13,6,6,0.4,0.4
2024-06-16T1400,1413A,110.33,20.0356,海口市,龙华路环保局宿舍,,28,28,26,12,14,73,,61,61,4,9,6,6,0.3,0.3
2024-06-16T1400,3539A,110.5111,19.9736,海口市,桂林洋子站,,25,18,27,14,14,78,,61,61,2,7,6,6,0.3,0.3
2024-06-16T1400,2673A,100.6188,36.2866,海南藏族自治州,共和县恰卜恰镇,,42,19,16,6,9,134,,114,114,7,9,14,15,0.7,0.5
2024-06-16T1400,2676A,97.3731,37.3753,海西蒙古族藏族自治州,德令哈市,,46,19,14,10,12,145,,125,119,11,10,15,10,0.7,0.6
2024-06-16T1400,1048A,114.5302,36.6116,邯郸市,东污水处理厂,,45,36,46,29,27,143,,126,126,8,16,3,3,0.5,0.4
2024-06-16T1400,1049A,114.4918,36.5713,邯郸市,矿院,,42,35,42,24,21,133,,121,121,14,16,6,5,0.6,0.5
2024-06-16T1400,1050A,114.484,36.6133,邯郸市,丛台公园,,44,39,47,23,23,138,,124,124,6,11,4,4,0.5,0.4
2024-06-16T1400,3458A,114.7895,36.5593,邯郸市,香泉濮院小区,,48,48,61,9,22,131,,128,128,8,16,3,3,0.2,0.2
2024-06-16T1400,3579A,114.50634,36.77178,邯郸市,永年区实验高中,,50,38,54,10,19,157,,129,129,4,11,5,4,0.7,0.4
2024-06-16T1400,3580A,114.20016,36.44293,邯郸市,峰峰矿区临水派出所,细颗粒物(PM2.5),58,63,60,41,22,138,,112,112,7,8,5,6,0.7,0.4
2024-06-16T1400,2634A,106.9893,33.1842,汉中市,汉川机床厂子校,,38,12,25,12,19,121,,88,88,2,8,3,4,0.3,0.4
2024-06-16T1400,2635A,107.0154,33.0706,汉中市,市监测站,,38,17,31,14,15,121,,98,98,4,11,7,7,0.7,0.8
2024-06-16T1400,2636A,107.0089,33.1138,汉中市,鑫源开发区,,40,11,30,6,15,126,,95,95,3,14,8,10,0.4,0.5
2024-06-16T1400,2637A,107.007,33.0323,汉中市,南郑大河坎水厂,,39,14,28,9,17,124,,98,98,4,10,8,8,0.5,0.6
2024-06-16T1400,1223A,120.2072,30.2111,杭州市,滨江,臭氧1小时,129,42,71,27,36,257,,154,154,15,25,6,5,0.7,0.7
2024-06-16T1400,1224A,120.0633,30.2747,杭州市,西溪,臭氧1小时,118,39,48,28,36,236,,145,145,14,18,8,6,0.6,0.7
2024-06-16T1400,1226A,120.3461,30.3153,杭州市,下沙,臭氧1小时,125,32,40,22,28,249,,149,149,14,27,7,6,0.6,0.6
2024-06-16T1400,1227A,120.1269,30.2456,杭州市,卧龙桥,臭氧1小时,119,46,51,31,42,237,,144,144,13,17,7,5,0.7,0.8
2024-06-16T1400,1228A,120.1903,30.2692,杭州市,浙江农大,臭氧1小时,116,36,46,22,34,232,,144,144,18,23,9,8,0.5,0.6
2024-06-16T1400,1230A,120.1197,30.3119,杭州市,和睦小学,臭氧1小时,115,32,45,22,27,230,,152,152,13,20,7,6,0.5,0.6
2024-06-16T1400,1231A,120.3019,30.4183,杭州市,临平镇,臭氧1小时,110,23,44,17,28,220,,139,139,12,18,7,5,0.6,0.6
2024-06-16T1400,1232A,120.2697,30.1819,杭州市,城厢镇,臭氧1小时,123,40,66,29,51,245,,155,155,14,26,9,7,0.7,0.7
2024-06-16T1400,1233A,120.0883,30.1808,杭州市,云栖,臭氧1小时,129,43,58,31,37,257,,165,165,18,24,8,7,0.6,0.6
2024-06-16T1400,3557A,119.9464,30.0494,杭州市,镇二中,臭氧1小时,107,41,60,32,39,214,,163,163,14,27,9,8,0.6,0.7
2024-06-16T1400,3558A,119.7183,30.2367,杭州市,市府大楼,臭氧1小时,122,39,52,29,44,244,,166,166,14,21,8,7,0.7,0.8
2024-06-16T1400,3656A,120.1556,30.2864,杭州市,消防大队,臭氧1小时,106,44,54,26,33,212,,135,135,15,23,7,7,0.9,0.9
2024-06-16T1400,1270A,117.1959,31.7848,合肥市,明珠广场,臭氧1小时,101,36,64,22,38,202,,184,184,10,22,8,10,0.2,0.5
2024-06-16T1400,1271A,117.3072,31.8764,合肥市,三里街,臭氧1小时,95,36,60,14,31,196,,174,174,14,22,8,8,0.5,0.6
2024-06-16T1400,1272A,117.2588,31.8707,合肥市,琥珀山庄,臭氧1小时,107,36,58,14,31,214,,190,190,12,18,7,8,0.7,0.8
2024-06-16T1400,1273A,117.1604,31.9052,合肥市,董铺水库,臭氧1小时,57,44,64,17,34,165,,145,145,7,15,2,2,0.5,0.6
2024-06-16T1400,1274A,117.25,31.8571,合肥市,长江中路,臭氧1小时,102,61,67,23,38,204,,185,185,12,17,8,9,0.6,0.8
2024-06-16T1400,1275A,117.266,31.9436,合肥市,庐阳区,臭氧1小时,112,44,64,17,35,224,,182,182,12,24,10,10,0.5,0.5
2024-06-16T1400,1276A,117.336,31.8586,合肥市,瑶海区,臭氧1小时,90,36,56,20,32,192,,175,175,9,17,10,11,0.5,0.7
2024-06-16T1400,1277A,117.3027,31.7964,合肥市,包河区,臭氧1小时,85,34,58,14,32,188,,157,157,9,38,7,8,0.4,0.7
2024-06-16T1400,1278A,117.2776,31.7385,合肥市,滨湖新区,臭氧1小时,85,29,57,17,38,188,,178,178,7,14,8,10,0.3,0.7
2024-06-16T1400,1279A,117.1318,31.8403,合肥市,高新区,臭氧1小时,90,46,56,22,35,192,,178,178,9,16,10,11,0.6,0.8
2024-06-16T1400,3464A,117.3803,31.9147,合肥市,高教基地,臭氧1小时,85,34,53,11,30,188,,156,156,6,14,8,7,0.4,0.6
2024-06-16T1400,3614A,79.924,37.0877,和田地区,地区环保局,颗粒物(PM10),129,208,398,65,115,128,,103,103,2,6,7,7,0.4,0.5
2024-06-16T1400,3615A,79.9131,37.113,和田地区,市环保局,颗粒物(PM10),129,208,423,94,110,127,,95,95,3,14,6,6,0.4,0.5
2024-06-16T1400,2516A,108.2011,24.715,河池市,东仁乐园,,37,37,36,3,14,58,,41,41,1,1,1,1,0.7,0.8
2024-06-16T1400,2517A,108.0497,24.6947,河池市,市环保站,,17,10,21,10,10,53,,49,49,7,9,7,8,0.5,0.6
2024-06-16T1400,2518A,108.0983,24.6989,河池市,市疾控中心,,17,,22,9,13,54,,47,47,10,10,5,5,0.5,0.6
2024-06-16T1400,1696A,114.6778,23.7569,河源市,源西,,35,27,12,24,10,20,,36,26,31,17,4,4,0.7,0.5
2024-06-16T1400,1697A,114.6944,23.7586,河源市,东埔,,36,36,18,12,6,35,,40,30,21,15,7,6,0.7,0.5
2024-06-16T1400,1698A,114.6892,23.7233,河源市,老城,,20,20,13,10,4,49,,39,28,10,11,5,5,0.4,0.4
2024-06-16T1400,1718A,115.4208,35.2464,菏泽市,气象局,,50,49,62,29,29,158,,132,132,17,23,6,7,0.4,0.4
2024-06-16T1400,1719A,115.4747,35.2375,菏泽市,市政协,,50,50,63,29,29,157,,126,126,10,19,5,7,0.2,0.3
2024-06-16T1400,3374A,115.5564,35.0891,菏泽市,定陶老年大学,,47,27,54,12,27,149,,122,122,11,21,4,8,0.3,0.4
2024-06-16T1400,3647A,115.4702,35.2706,菏泽市,菏泽医专,,48,44,59,22,25,152,,116,116,11,23,5,6,0.5,0.5
2024-06-16T1400,2514A,111.5264,24.4172,贺州市,环保小区,,24,,19,14,10,74,,54,54,6,8,6,7,0.6,0.6
2024-06-16T1400,2515A,111.5608,24.4078,贺州市,政协大楼,,25,25,23,8,11,73,,55,55,7,10,6,6,0.6,0.6
2024-06-16T1400,3534A,111.4744,24.4553,贺州市,西湾,,26,21,17,9,10,81,,54,54,7,14,8,8,0.5,0.6
2024-06-16T1400,2385A,114.17,35.9019,鹤壁市,市监测站,细颗粒物(PM2.5),59,55,61,42,37,118,,113,102,17,16,7,8,0.8,0.6
2024-06-16T1400,2386A,114.2956,35.7511,鹤壁市,市交警支队,细颗粒物(PM2.5),62,58,57,44,32,126,,119,119,15,23,8,9,0.5,0.5
2024-06-16T1400,2387A,114.2878,35.7306,鹤壁市,迎宾馆,细颗粒物(PM2.5),79,,46,58,41,125,,127,120,20,24,8,9,0.5,0.5
2024-06-16T1400,3474A,114.2617,35.6822,鹤壁市,大新区,,45,,49,31,28,116,,99,99,21,24,5,6,0.6,0.6
2024-06-16T1400,3596A,114.1572,35.9603,鹤壁市,南山宾馆,细颗粒物(PM2.5),77,,51,56,36,100,,132,92,11,10,6,7,0.8,0.7
2024-06-16T1400,2244A,130.2537,47.3416,鹤岗市,哈啤分公司,,15,13,12,3,6,48,,42,42,4,4,16,16,0.3,0.3
2024-06-16T1400,2245A,130.2684,47.3086,鹤岗市,斯达机电,,22,22,14,3,5,47,,40,40,8,6,13,12,0.3,0.3
2024-06-16T1400,2246A,130.3114,47.3388,鹤岗市,东山纸板厂,,14,12,8,3,5,42,,40,40,7,4,17,16,0.3,0.3
2024-06-16T1400,2247A,130.1097,47.3382,鹤岗市,五号水库,,18,6,11,3,6,57,,44,44,4,4,9,9,0.1,0.1
2024-06-16T1400,2263A,127.4833,50.2524,黑河市,交通局,,,18,24,9,13,76,,60,60,5,10,,8,0.3,0.3
2024-06-16T1400,2264A,127.5144,50.2341,黑河市,环保局,,25,6,18,3,12,80,,62,62,3,8,3,5,0.2,0.2
2024-06-16T1400,2265A,127.5291,50.2472,黑河市,大黑河岛,,28,10,24,6,16,88,,80,80,12,13,5,7,0.5,0.5
2024-06-16T1400,1074A,115.6838,37.7541,衡水市,电机北厂,臭氧1小时,70,35,40,3,22,176,,134,134,4,10,4,5,0.3,0.3
2024-06-16T1400,1075A,115.6303,37.7316,衡水市,市监测站,臭氧1小时,78,38,45,8,22,182,,130,130,6,11,2,3,0.5,0.5
2024-06-16T1400,3188A,115.6683,37.7217,衡水市,市城管局,臭氧1小时,79,42,49,15,21,183,,132,132,6,14,3,4,0.3,0.4
2024-06-16T1400,3459A,115.5989,37.5491,衡水市,地表水厂,臭氧1小时,88,46,47,9,15,190,,139,139,6,15,4,4,0.1,0.2
2024-06-16T1400,2456A,112.5003,26.9167,衡阳市,原169医院,,27,16,20,11,10,85,,54,54,5,11,6,5,0.6,0.7
2024-06-16T1400,2457A,112.6194,26.9258,衡阳市,衡阳化工总厂,,35,27,25,20,12,111,,68,68,3,10,7,8,0.5,0.6
2024-06-16T1400,2458A,112.6211,26.8956,衡阳市,珠晖区环保局,,34,22,25,11,11,107,,66,66,2,11,5,8,0.6,0.8
2024-06-16T1400,2459A,112.6197,26.8733,衡阳市,市委党校,,36,22,21,12,10,114,,67,67,8,13,10,10,0.8,0.7
2024-06-16T1400,2460A,112.6006,26.8919,衡阳市,市监测站,,34,18,22,9,13,108,,64,64,1,10,8,10,0.5,0.7
2024-06-16T1400,2461A,112.5664,26.9056,衡阳市,真空机电公司,,32,26,22,10,11,100,,60,60,2,9,7,8,0.6,0.8
2024-06-16T1400,3399A,112.6703,26.882,衡阳市,师范学院,,38,24,24,18,11,121,,68,68,6,11,10,9,0.8,0.7
2024-06-16T1400,2608A,103.3772,23.3993,红河哈尼族彝族自治州,污水处理厂,,20,20,18,7,10,45,,34,34,4,10,4,7,0.4,0.4
2024-06-16T1400,2609A,103.3861,23.35,红河哈尼族彝族自治州,监测站,,16,6,11,6,8,49,,38,38,4,7,5,7,0.4,0.4
2024-06-16T1400,3038A,103.3758,23.368,红河哈尼族彝族自治州,州图书馆,,15,6,14,3,8,47,,37,37,7,8,3,5,0.3,0.3
2024-06-16T1400,1090A,111.6507,40.7517,呼和浩特市,呼市一监,,47,12,16,10,8,148,,108,108,3,12,9,8,0.4,0.5
2024-06-16T1400,1091A,111.6572,40.8033,呼和浩特市,小召,,45,19,18,13,8,142,,98,98,11,19,7,6,0.3,0.3
2024-06-16T1400,1094A,111.7516,40.8369,呼和浩特市,如意水处理厂,,43,18,18,8,8,137,,93,93,6,20,5,5,0.3,0.3
2024-06-16T1400,1095A,111.7276,40.8062,呼和浩特市,二十九中,,46,14,20,3,8,146,,98,98,9,20,3,2,0.4,0.4
2024-06-16T1400,1096A,111.5512,40.7866,呼和浩特市,工大金川校区,,45,22,20,9,7,142,,91,91,9,26,10,6,0.3,0.3
2024-06-16T1400,1097A,111.717,40.7612,呼和浩特市,化肥厂生活区,,46,19,25,3,7,146,,101,101,8,16,10,9,0.4,0.4
2024-06-16T1400,3698A,111.5968,40.8178,呼和浩特市,红旗小学,,47,24,15,9,8,148,,97,97,10,19,5,4,0.3,0.3
2024-06-16T1400,3699A,111.6518,40.8389,呼和浩特市,海东办,,46,24,18,10,10,146,,100,100,7,21,6,5,0.5,0.5
2024-06-16T1400,2192A,119.7594,49.2261,呼伦贝尔市,区环保局,,30,30,36,8,21,83,,61,61,7,18,4,4,0.4,0.5
2024-06-16T1400,3061A,119.7512,49.1577,呼伦贝尔市,国华电力东,,26,20,24,6,16,81,,59,59,4,9,3,3,0.4,0.4
2024-06-16T1400,1250A,120.0751,30.8669,湖州市,城西水厂,臭氧1小时,105,12,37,7,22,209,,149,149,11,18,5,5,0.4,0.5
2024-06-16T1400,2873A,120.0875,30.8955,湖州市,仁皇山新区,臭氧1小时,102,18,36,12,25,204,,144,144,20,27,6,6,0.6,0.7
2024-06-16T1400,2907A,120.1844,30.8596,湖州市,吴兴区站,臭氧1小时,82,17,32,7,21,185,,141,141,11,18,7,7,0.4,0.5
2024-06-16T1400,3562A,120.4148,30.8538,湖州市,南浔区站,臭氧1小时,95,15,34,8,25,196,,135,135,10,20,5,7,0.4,0.5
2024-06-16T1400,1607A,120.9092,40.7136,葫芦岛市,龙港区,臭氧1小时,75,30,28,15,16,180,,126,126,10,15,10,9,1.0,0.5
2024-06-16T1400,1608A,120.8392,40.7514,葫芦岛市,化工街,,48,29,36,14,12,152,,115,115,11,30,14,14,0.9,0.6
2024-06-16T1400,1609A,120.8341,40.7073,葫芦岛市,新区,臭氧1小时,77,37,28,19,18,181,,124,124,14,23,7,7,1.2,0.6
2024-06-16T1400,1610A,120.8695,40.7677,葫芦岛市,东城区,臭氧1小时,97,30,34,12,17,197,,132,132,9,39,11,14,1.0,0.8
2024-06-16T1400,2482A,109.5981,27.5721,怀化市,林科所,,38,28,32,24,18,121,,104,104,3,8,4,8,0.5,0.6
2024-06-16T1400,2483A,109.9453,27.5444,怀化市,河西地税局,,28,,33,17,22,87,,70,70,2,9,9,11,0.7,0.7
2024-06-16T1400,2484A,109.9781,27.5342,怀化市,市四医院,,35,,37,24,27,98,,72,72,5,13,5,10,0.7,0.8
2024-06-16T1400,2485A,109.9972,27.5578,怀化市,监测楼,,36,27,40,17,27,115,,81,81,3,10,10,22,0.7,0.7
2024-06-16T1400,2486A,110.0394,27.583,怀化市,市委党校,,40,30,36,19,21,127,,80,80,4,12,5,10,0.6,0.7
2024-06-16T1400,1210A,119.036,33.5981,淮安市,钵池山,臭氧1小时,57,56,56,23,32,165,,134,134,12,21,9,9,0.4,0.5
2024-06-16T1400,1211A,119.007,33.575,淮安市,北京南路,臭氧1小时,57,58,58,23,31,165,,139,139,10,18,8,9,0.5,0.6
2024-06-16T1400,1212A,118.989,33.6067,淮安市,市监测站,臭氧1小时,58,48,58,19,31,166,,139,139,11,20,8,10,0.5,0.6
2024-06-16T1400,1213A,119.135,33.5039,淮安市,楚州区监测站,颗粒物(PM10),61,71,75,21,30,158,,125,125,10,20,6,7,0.4,0.5
2024-06-16T1400,1214A,119.0186,33.6297,淮安市,淮阴区监测站,臭氧1小时,57,53,64,27,36,165,,131,131,15,26,7,10,0.3,0.5
2024-06-16T1400,3426A,118.8755,33.2894,淮安市,新华书店,臭氧1小时,65,50,53,19,27,172,,135,135,10,21,7,8,0.4,0.5
2024-06-16T1400,2282A,116.8004,33.975,淮北市,监测站,颗粒物(PM10),68,86,53,32,25,171,,148,115,11,13,8,7,0.7,0.5
2024-06-16T1400,2283A,116.8091,33.9007,淮北市,烈山区政府,臭氧1小时,85,81,69,32,27,188,,146,114,7,13,8,6,0.7,0.6
2024-06-16T1400,3330A,116.8873,33.9836,淮北市,杜集区检察院,臭氧1小时,90,75,63,28,35,192,,149,120,8,14,10,8,0.7,0.5
2024-06-16T1400,4017A,116.7923,33.9535,淮北市,市博物馆,臭氧1小时,89,73,52,24,21,191,,156,119,8,12,6,5,0.8,0.6
2024-06-16T1400,2277A,116.8305,32.7727,淮南市,潘集区政府,臭氧1小时,122,54,67,30,34,243,,152,152,7,18,7,10,0.4,0.5
2024-06-16T1400,2278A,117.0067,32.6524,淮南市,师范学院,臭氧1小时,112,55,63,37,33,223,,187,187,7,12,10,11,0.4,0.4
2024-06-16T1400,2279A,116.8569,32.5951,淮南市,谢家集区政府,臭氧1小时,116,48,49,15,17,231,,202,202,9,12,6,21,0.4,0.4
2024-06-16T1400,2280A,116.8281,32.633,淮南市,八公山区政府,臭氧1小时,118,58,72,29,33,236,,201,201,6,11,3,6,0.5,0.5
2024-06-16T1400,2281A,116.6325,32.6201,淮南市,焦岗湖风景区管理处,臭氧1小时,80,50,48,22,17,184,,138,138,12,18,12,10,0.4,0.4
2024-06-16T1400,2894A,117.0566,32.6531,淮南市,经济技术开发区消防队,臭氧1小时,115,44,44,26,25,229,,186,186,9,15,5,7,0.4,0.4
2024-06-16T1400,3329A,117.0108,32.5893,淮南市,山南新区,臭氧1小时,119,56,65,20,35,237,,200,200,11,14,7,9,0.5,0.6
2024-06-16T1400,2446A,114.9028,30.4742,黄冈市,职工中心,臭氧1小时,53,47,34,30,19,162,,119,119,3,4,6,6,0.6,0.5
2024-06-16T1400,2929A,114.8858,30.4519,黄冈市,红卫路,臭氧1小时,53,42,34,28,19,162,,124,124,5,7,7,7,0.5,0.5
2024-06-16T1400,3398A,114.9136,30.4445,黄冈市,市林业局,,49,38,32,31,21,156,,120,120,3,6,3,4,0.7,0.6
2024-06-16T1400,2672A,102.0199,35.5102,黄南藏族自治州,同仁县隆务镇,,40,22,19,6,6,128,,102,102,2,2,10,10,0.6,0.6
2024-06-16T1400,2295A,118.2903,29.6963,黄山市,延安路89号,,49,49,49,18,20,136,,117,117,4,7,5,5,0.6,0.6
2024-06-16T1400,2296A,118.327,29.7178,黄山市,黄山东路89号,,43,28,33,19,16,137,,118,118,4,9,6,6,0.4,0.5
2024-06-16T1400,2297A,118.1371,30.2756,黄山市,黄山区政府5号楼,臭氧1小时,65,47,41,23,26,172,,116,116,6,7,6,6,0.4,0.4
2024-06-16T1400,2423A,115.0601,30.2313,黄石市,沈家营,,44,44,41,13,15,125,,101,101,24,21,8,8,0.5,0.4
2024-06-16T1400,2424A,115.0817,30.2006,黄石市,陈家湾,,44,32,44,16,20,138,,97,97,2,19,22,7,0.5,0.6
2024-06-16T1400,2426A,114.8988,30.2019,黄石市,铁山,,41,24,35,9,15,131,,100,100,2,13,7,12,0.3,0.3
2024-06-16T1400,2427A,115.0307,30.2092,黄石市,团城山,,46,44,42,11,13,146,,110,110,2,14,8,15,0.5,0.5
2024-06-16T1400,3149A,115.0235,30.1578,黄石市,笔架山北路,,41,31,44,7,12,129,,98,98,2,9,4,7,0.5,0.5
2024-06-16T1400,1392A,114.4183,23.0528,惠州市,河南岸金山湖子站,,25,15,14,11,9,79,,46,46,3,9,3,4,0.4,0.4
2024-06-16T1400,1393A,114.4053,23.0822,惠州市,下埔横江三路子站,,26,18,17,9,9,81,,52,52,7,11,6,6,0.5,0.6
2024-06-16T1400,1394A,114.4103,23.1142,惠州市,江北云山西路子站,,27,14,14,9,7,84,,56,56,1,9,6,8,0.5,0.5
2024-06-16T1400,1395A,114.4645,22.7833,惠州市,惠阳区承修路船湖子站,,19,15,11,11,6,60,,49,49,8,14,3,2,0.5,0.6
2024-06-16T1400,1396A,114.5317,22.7422,惠州市,大亚湾管委会子站,,22,21,13,15,7,67,,53,53,7,16,4,4,0.7,0.7
2024-06-16T1400,3314A,114.4338,22.8134,惠州市,惠阳秋长,,29,29,21,12,7,81,,63,63,4,15,5,5,0.5,0.6
2024-06-16T1400,3452A,114.6517,22.775,惠州市,大亚湾霞涌,,18,12,12,6,9,57,,46,46,5,12,3,3,0.5,0.5
2024-06-16T1400,2240A,130.9762,45.3001,鸡西市,环保局,,15,12,15,3,7,48,,48,48,10,9,8,7,0.4,0.4
2024-06-16T1400,2243A,130.9429,45.3039,鸡西市,第一中学,,18,13,18,3,6,55,,54,54,5,4,8,8,0.3,0.3
2024-06-16T1400,3707A,131.0207,45.3073,鸡西市,欧美日汽修厂,,16,,18,9,8,50,,48,48,12,11,6,7,0.5,0.5
2024-06-16T1400,3709A,130.9967,45.3106,鸡西市,市政设施管理处,,19,19,18,9,8,45,,46,46,14,13,7,7,0.4,0.5
2024-06-16T1400,2367A,114.9754,27.0803,吉安市,红声器材厂,,22,14,23,3,12,70,,50,50,9,11,10,20,0.4,0.5
2024-06-16T1400,2368A,114.9658,27.0999,吉安市,市森林工业局,,22,20,22,10,15,69,,48,48,9,11,10,19,0.5,0.6
2024-06-16T1400,2369A,114.99,27.1312,吉安市,市环境监测站,,23,19,22,7,10,72,,52,52,7,7,11,18,0.7,0.5
2024-06-16T1400,2370A,115.0093,27.0968,吉安市,青原区法院,,20,15,24,6,14,61,,44,44,8,14,14,25,0.4,0.4
2024-06-16T1400,1772A,126.54,43.8622,吉林市,哈达湾,,32,16,17,8,7,102,,81,81,8,16,4,4,0.4,0.4
2024-06-16T1400,1773A,126.5844,43.8358,吉林市,东局子,,32,18,19,10,9,101,,81,81,10,25,4,4,0.4,0.4
2024-06-16T1400,1774A,126.5052,43.8245,吉林市,电力学院,,33,18,20,10,9,105,,86,86,9,21,8,8,0.3,0.4
2024-06-16T1400,1775A,126.6133,43.8972,吉林市,江北,,32,22,28,10,11,101,,74,74,14,31,7,7,0.5,0.5
2024-06-16T1400,1776A,126.555,43.8306,吉林市,江南公园,,32,17,16,16,11,100,,81,81,13,24,3,3,0.5,0.5
2024-06-16T1400,1778A,126.7061,43.7133,吉林市,丰满,,,,,,,,,,,,,,,,
2024-06-16T1400,2868A,126.4739,43.953,吉林市,九站,,35,20,19,7,9,109,,76,76,11,32,6,6,0.5,0.5
2024-06-16T1400,1299A,116.9862,36.6114,济南市,科干所,臭氧1小时,62,29,28,15,14,169,,142,142,23,16,7,7,0.3,0.3
2024-06-16T1400,1300A,116.9376,36.665,济南市,农科所,臭氧1小时,69,22,35,7,12,175,,136,136,18,22,7,8,0.4,0.4
2024-06-16T1400,1301A,117.1265,36.6734,济南市,开发区,臭氧1小时,82,34,38,17,16,185,,138,138,23,20,7,8,0.5,0.3
2024-06-16T1400,1303A,117.0624,36.6868,济南市,省种子仓库,臭氧1小时,78,39,42,9,16,182,,136,136,14,20,6,6,0.4,0.3
2024-06-16T1400,1304A,116.9489,36.6447,济南市,机床二厂,臭氧1小时,88,29,26,15,14,190,,147,147,16,17,9,9,0.3,0.3
2024-06-16T1400,1305A,117.0495,36.663,济南市,市监测站,臭氧1小时,85,34,38,17,16,188,,144,144,25,24,10,11,0.4,0.3
2024-06-16T1400,1306A,116.7675,36.5484,济南市,长清党校,臭氧1小时,88,,34,22,16,190,,149,149,9,11,9,8,0.5,0.4
2024-06-16T1400,1616A,117.6795,36.229,济南市,技术学院,臭氧1小时,84,27,49,12,25,187,,120,120,12,24,11,12,0.9,0.9
2024-06-16T1400,1961A,117.532,36.6868,济南市,东山小学,臭氧1小时,101,42,42,15,16,202,,143,143,19,20,6,7,0.6,0.6
2024-06-16T1400,3059A,117.7161,36.2049,济南市,泰兴公司,臭氧1小时,85,27,44,14,23,188,,119,119,11,22,12,11,0.7,0.7
2024-06-16T1400,3064A,117.6867,36.2171,济南市,莱芜战役纪念馆,臭氧1小时,78,19,47,7,21,182,,111,111,11,20,10,11,0.7,0.9
2024-06-16T1400,3494A,117.1673,36.9782,济南市,济阳区政府,臭氧1小时,90,,56,59,28,192,,124,124,12,23,9,12,0.4,0.5
2024-06-16T1400,3495A,117.1171,36.63,济南市,锦屏中学,臭氧1小时,77,17,32,3,12,181,,148,148,9,9,6,7,0.2,0.2
2024-06-16T1400,3682A,116.9814,36.6819,济南市,济南四建,臭氧1小时,74,19,33,12,17,179,,104,,12,15,5,9,0.7,0.5
2024-06-16T1400,1653A,116.6251,35.4302,济宁市,火炬城,臭氧1小时,79,40,45,17,20,183,,133,133,9,14,9,9,0.6,0.5
2024-06-16T1400,1655A,116.5491,35.4042,济宁市,电化厂,臭氧1小时,92,49,48,22,24,193,,140,140,10,17,7,6,0.5,0.4
2024-06-16T1400,3500A,116.5814,35.3707,济宁市,北湖一中,臭氧1小时,84,42,39,12,20,187,,133,133,13,20,8,9,0.5,0.5
2024-06-16T1400,3501A,116.8249,35.5593,济宁市,服务中心,,50,32,42,12,20,160,,123,123,15,16,2,2,0.5,0.6
2024-06-16T1400,3678A,116.5907,35.4054,济宁市,市第七中学,,,50,44,19,18,193,,134,134,9,16,,6,0.5,0.5
2024-06-16T1400,2255A,130.2751,46.8028,佳木斯市,佳纺,,21,6,8,3,6,65,,40,40,3,7,6,4,0.3,0.4
2024-06-16T1400,2256A,130.3995,46.8307,佳木斯市,发电厂,,20,6,6,3,6,61,,44,44,2,2,4,5,0.4,0.4
2024-06-16T1400,2257A,130.3258,46.7975,佳木斯市,环保局,,,10,11,7,7,55,,36,36,7,11,7,6,,0.5
2024-06-16T1400,2258A,130.3648,46.8032,佳木斯市,十一中,,20,,6,3,7,63,,44,44,3,5,5,6,0.3,0.3
2024-06-16T1400,2259A,130.3794,46.7588,佳木斯市,四丰,,17,8,8,3,5,54,,32,32,6,9,1,1,0.5,0.6
2024-06-16T1400,1252A,120.7436,30.778,嘉兴市,清河小学,,49,10,27,6,14,156,,126,126,11,21,5,6,0.5,0.6
2024-06-16T1400,1253A,120.726,30.7478,嘉兴市,嘉兴学院,,41,19,29,3,19,130,,104,104,8,21,5,5,0.4,0.6
2024-06-16T1400,2872A,120.7846,30.7525,嘉兴市,南湖区残联,臭氧1小时,58,13,28,3,20,166,,124,124,5,21,6,6,0.3,0.5
2024-06-16T1400,3407A,120.6916,30.7739,嘉兴市,秀洲住建,臭氧1小时,54,,23,11,17,163,,128,128,6,17,6,6,0.5,0.6
2024-06-16T1400,1945A,98.2908,39.7711,嘉峪关市,气象局,颗粒物(PM10),64,78,79,34,32,152,,98,98,3,15,1,9,0.3,0.4
2024-06-16T1400,2884A,98.2672,39.7978,嘉峪关市,酒钢宾馆,颗粒物(PM10),62,73,86,29,36,151,,104,104,4,15,5,19,0.3,0.3
2024-06-16T1400,3248A,98.2643,39.7724,嘉峪关市,雄关区,颗粒物(PM10),59,67,70,13,24,147,,92,92,4,19,8,11,0.3,0.3
2024-06-16T1400,1383A,113.1064,22.6058,江门市,北街,,22,22,20,9,10,53,,46,46,8,16,2,3,0.5,0.5
2024-06-16T1400,1384A,113.0731,22.5835,江门市,西区,,19,14,15,13,9,53,,49,49,8,15,6,6,0.4,0.5
2024-06-16T1400,1385A,113.0219,22.5311,江门市,圭峰西,,18,,18,7,9,56,,49,49,4,10,3,4,0.3,0.4
2024-06-16T1400,1386A,113.0828,22.5947,江门市,东湖,,17,12,18,7,7,52,,48,48,11,14,6,6,0.4,0.5
2024-06-16T1400,3311A,113.1075,22.5647,江门市,江海富民,,38,38,23,8,13,60,,54,54,6,15,4,5,0.4,0.5
2024-06-16T1400,3449A,113.05,22.4667,江门市,新会银湖,,20,,18,10,5,63,,52,52,2,12,3,4,0.4,0.5
2024-06-16T1400,1828A,113.227,35.2125,焦作市,市环保局,,45,24,47,20,26,141,,155,146,8,9,1,3,0.4,0.3
2024-06-16T1400,1830A,113.1992,35.2590,焦作市,影视城,,,,,,,,,,,,,,,,
2024-06-16T1400,3169A,113.2725,35.2067,焦作市,太极体育中心,,42,38,49,26,25,134,,152,144,10,9,2,6,0.6,0.5
2024-06-16T1400,3335A,113.3137,35.2641,焦作市,马村街道办,,43,43,48,26,24,124,,146,140,12,12,3,3,0.4,0.3
2024-06-16T1400,3336A,113.2465,35.2373,焦作市,焦作技师学院,,43,31,48,27,25,136,,146,144,10,10,3,3,0.6,0.6
2024-06-16T1400,3477A,113.1656,35.2539,焦作市,中站许衡医院,细颗粒物(PM2.5),55,,41,39,31,130,,159,140,6,8,4,6,0.4,0.3
2024-06-16T1400,3981A,113.2449,35.1803,焦作市,原李万街道办,,41,39,45,17,21,130,,153,145,6,9,4,9,0.4,0.5
2024-06-16T1400,1708A,116.3701,23.5345,揭阳市,新兴,,20,20,16,9,13,41,,30,30,17,15,4,4,0.6,0.6
2024-06-16T1400,1709A,116.3264,23.5443,揭阳市,西马,,14,14,21,6,9,41,,32,32,8,10,2,2,0.7,0.8
2024-06-16T1400,1710A,116.3611,23.5626,揭阳市,东兴,,17,17,20,8,10,49,,36,36,11,12,1,2,0.7,0.7
2024-06-16T1400,1711A,116.4151,23.5294,揭阳市,渔湖,,16,16,20,3,6,43,,35,35,9,17,3,4,0.5,0.6
2024-06-16T1400,3320A,116.403,23.5699,揭阳市,曲溪,,15,10,15,6,8,48,,37,37,9,13,4,4,0.5,0.5
2024-06-16T1400,1944A,102.1692,38.5167,金昌市,天庆家园,颗粒物(PM10),57,63,114,18,47,155,,121,121,7,12,23,19,0.6,0.6
2024-06-16T1400,3170A,102.1864,38.5253,金昌市,市委党校,,50,50,134,8,44,146,,116,116,4,8,10,19,0.5,0.5
2024-06-16T1400,4022A,102.1647,38.5371,金昌市,金川区人防中心,颗粒物(PM10),56,61,133,9,43,159,,125,125,6,10,12,17,0.6,0.6
2024-06-16T1400,1262A,119.647,29.077,金华市,十五中,,35,35,22,16,11,102,,72,72,12,10,3,4,0.5,0.4
2024-06-16T1400,1263A,119.686,29.1029,金华市,监测站,,40,40,26,21,14,108,,74,74,15,14,2,2,0.5,0.5
2024-06-16T1400,3659A,119.656,29.1131,金华市,气象局,,43,43,25,15,11,110,,78,78,15,15,5,5,0.8,0.5
2024-06-16T1400,1767A,121.1115,41.0879,锦州市,南山,,48,19,26,10,17,151,,115,115,11,21,9,13,0.5,0.6
2024-06-16T1400,1768A,121.0533,40.8434,锦州市,开发区,臭氧1小时,93,75,49,17,22,194,,111,111,17,40,22,17,1.0,0.7
2024-06-16T1400,1769A,121.1836,41.1119,锦州市,百股街道,,50,26,26,7,12,158,,114,114,12,20,13,17,0.7,0.9
2024-06-16T1400,1770A,121.1178,41.1222,锦州市,天安街道,,37,14,28,14,14,116,,98,98,7,22,5,10,0.6,0.7
2024-06-16T1400,1771A,121.1303,41.1386,锦州市,北湖公园,,38,22,24,8,13,119,,100,100,6,16,9,13,0.4,0.6
2024-06-16T1400,2160A,112.85,35.5051,晋城市,自来水公司,,42,35,50,24,25,132,,124,124,13,24,6,9,0.8,0.9
2024-06-16T1400,2161A,112.8318,35.4936,晋城市,白云商贸,,42,,68,29,26,133,,131,131,14,22,6,9,0.7,0.8
2024-06-16T1400,2162A,112.8508,35.4887,晋城市,市环保局,,46,46,59,29,26,128,,126,126,13,25,6,9,0.7,0.7
2024-06-16T1400,2163A,112.8676,35.4897,晋城市,技术学院,,39,37,59,27,27,120,,122,122,15,27,5,9,0.7,0.8
2024-06-16T1400,2165A,112.8453,35.546,晋城市,白马寺,,,,,,,,,,,,,,,,
2024-06-16T1400,3620A,112.8271,35.4828,晋城市,泽州一中,,41,25,55,24,25,129,,127,127,14,22,5,9,0.7,0.8
2024-06-16T1400,2171A,112.7532,37.6945,晋中市,锦纶小区,臭氧1小时,105,53,53,27,20,209,,170,170,11,19,12,12,0.5,0.4
2024-06-16T1400,2173A,112.7249,37.7067,晋中市,南都小区,臭氧1小时,108,54,51,26,25,215,,178,178,11,18,10,11,0.4,0.4
2024-06-16T1400,2174A,112.6991,37.6982,晋中市,榆次区政府,臭氧1小时,107,53,52,29,23,214,,175,175,12,21,12,12,0.4,0.4
2024-06-16T1400,2865A,112.7195,37.6828,晋中市,榆次三中,臭氧1小时,111,56,52,29,20,222,,180,180,10,16,10,11,0.5,0.5
2024-06-16T1400,2439A,112.2014,31.0481,荆门市,竹园小学,,43,40,56,20,29,136,,112,112,8,17,11,13,0.7,0.7
2024-06-16T1400,2440A,112.1969,30.9891,荆门市,掇刀,,44,34,52,28,30,139,,116,116,8,14,12,11,0.6,0.7
2024-06-16T1400,2441A,112.2213,31.0386,荆门市,石化一小,,45,39,59,30,30,144,,120,120,8,19,18,18,0.6,0.7
2024-06-16T1400,3012A,112.1849,31.0362,荆门市,西山林语,,45,34,50,19,30,142,,118,118,7,13,8,10,0.7,0.7
2024-06-16T1400,3547A,112.1632,31.0138,荆门市,龙泉中学南校,,45,33,54,12,25,142,,123,123,6,18,10,10,0.6,0.6
2024-06-16T1400,1844A,112.2494,30.3197,荆州市,市图书馆,,42,26,41,22,26,133,,112,112,7,14,6,7,0.5,0.6
2024-06-16T1400,1845A,112.2008,30.3544,荆州市,市委党校,,45,,43,30,31,142,,122,122,9,20,6,7,0.5,0.5
2024-06-16T1400,3194A,112.2747,30.3122,荆州市,管委会,,41,29,40,20,26,131,,113,113,6,15,5,5,0.5,0.6
2024-06-16T1400,3548A,112.1655,30.3364,荆州市,学苑路,,47,41,46,21,32,148,,125,125,5,19,6,8,0.5,0.6
2024-06-16T1400,2342A,117.3102,29.3867,景德镇市,王港中学,,,,,,,,,,,,,,,,
2024-06-16T1400,2343A,117.2117,29.2933,景德镇市,老干部活动中心,,20,12,24,10,16,61,,64,64,7,11,6,9,0.4,0.5
2024-06-16T1400,2344A,117.1894,29.2789,景德镇市,兽医站,,23,15,24,7,13,71,,72,72,5,11,5,10,0.4,0.5
2024-06-16T1400,2345A,117.1547,29.2617,景德镇市,台达陶瓷,,22,16,27,15,21,56,,65,65,14,15,17,18,0.4,0.4
2024-06-16T1400,2346A,117.2461,29.2956,景德镇市,陶研所,,20,17,23,3,10,62,,67,67,2,6,4,4,0.2,0.3
2024-06-16T1400,1803A,115.9872,29.6815,九江市,十里,,32,20,19,7,11,101,,83,83,6,17,11,12,0.6,0.6
2024-06-16T1400,1804A,115.9584,29.7046,九江市,茅山头,,41,24,22,9,13,129,,90,90,8,15,9,9,0.6,0.5
2024-06-16T1400,1805A,115.9877,29.7295,九江市,西园,,46,24,20,12,13,146,,101,101,21,35,12,15,0.9,0.7
2024-06-16T1400,1806A,116.0172,29.6547,九江市,五七二七厂,,34,,16,16,11,107,,84,84,8,12,10,9,0.7,0.6
2024-06-16T1400,1808A,115.9114,29.6038,九江市,综合工业园,,35,19,23,16,13,112,,87,87,5,17,10,10,0.7,0.4
2024-06-16T1400,1809A,116.0721,29.7535,九江市,石化总厂,,45,29,23,16,14,141,,99,99,12,18,13,14,0.8,0.7
2024-06-16T1400,1810A,115.9773,29.5698,九江市,庐山气象台,,30,18,21,14,15,96,,116,113,1,1,6,6,0.7,1
2024-06-16T1400,3190A,116.0254,29.6994,九江市,外国语学校,,34,23,19,8,8,108,,,,12,14,14,14,0.5,0.5
2024-06-16T1400,2658A,98.5061,39.7443,酒泉市,仓门街子站,颗粒物(PM10),65,80,84,12,17,138,,104,104,8,14,4,6,0.2,0.3
2024-06-16T1400,2659A,98.4989,39.7256,酒泉市,油田生活基地,颗粒物(PM10),63,75,86,14,18,146,,108,108,11,17,6,6,0.2,0.2
2024-06-16T1400,2698A,76.0072,39.4467,喀什地区,巡警大队,颗粒物(PM10),55,60,83,12,9,143,,93,93,12,20,4,3,0.1,0.2
2024-06-16T1400,2699A,75.9755,39.4694,喀什地区,吾办,颗粒物(PM10),51,51,78,16,19,127,,98,98,8,15,3,2,0.2,0.3
2024-06-16T1400,4027A,75.9483,39.4689,喀什地区,老干局,,50,50,180,7,17,129,,95,95,6,21,5,4,0.2,0.1
2024-06-16T1400,1824A,114.3389,34.7781,开封市,肿瘤医院,,34,26,47,11,15,106,,136,122,12,11,1,2,0.5,0.5
2024-06-16T1400,1826A,114.2885,34.7965,开封市,世纪星幼儿园,,37,25,42,18,17,116,,146,134,12,10,1,2,0.5,0.5
2024-06-16T1400,3147A,114.3438,34.8106,开封市,龙亭公园,,,,,,,,,,,,,,,,
2024-06-16T1400,3210A,114.3644,34.7964,开封市,汴京公园,,39,33,44,27,22,98,,143,126,13,14,1,3,0.6,0.6
2024-06-16T1400,3473A,114.2485,34.8306,开封市,技师学院,,35,20,59,19,28,109,,153,139,18,16,3,4,0.5,0.5
2024-06-16T1400,3592A,114.4644,34.7556,开封市,祥符区生态环境局,,36,36,47,18,19,102,,136,121,17,21,2,3,0.6,0.6
2024-06-16T1400,1951A,84.895,45.6094,克拉玛依市,长征新村,,36,18,11,3,5,114,,97,86,8,6,9,8,0.2,0.1
2024-06-16T1400,1952A,84.8988,45.5893,克拉玛依市,南林小区,,37,18,11,7,9,116,,96,91,9,7,10,10,0.1,0.1
2024-06-16T1400,1954A,84.905,44.3396,克拉玛依市,独山子区,,42,32,29,9,8,133,,115,115,6,7,9,9,0.3,0.2
2024-06-16T1400,1955A,85.6979,46.098,克拉玛依市,乌尔禾区商贸楼,,40,6,11,3,6,128,,94,92,3,7,7,8,0.2,0.3
2024-06-16T1400,3612A,85.1045,45.6899,克拉玛依市,白碱滩区新站,,37,,17,12,14,117,,113,94,6,6,10,9,0.1,0.1
2024-06-16T1400,2697A,76.1454,39.7142,克孜勒苏柯尔克孜自治州,市人民政府,,40,23,38,15,15,127,,112,112,1,6,8,10,0.3,0.3
2024-06-16T1400,3665A,76.1658,39.7157,克孜勒苏柯尔克孜自治州,克州文化中心,,41,24,31,16,14,129,,121,121,1,3,10,10,0.3,0.3
2024-06-16T1400,1450A,102.8204,24.8886,昆明市,呈贡新区,,22,16,24,8,13,70,,51,44,6,12,6,5,0.6,0.6
2024-06-16T1400,1451A,102.6251,24.9608,昆明市,西山森林公园,,,,,,,,,,,,,,,,
2024-06-16T1400,1452A,102.7252,25.0902,昆明市,龙泉镇,,20,20,22,9,12,50,,34,34,12,20,6,6,0.7,0.7
2024-06-16T1400,1453A,102.7266,25.0375,昆明市,东风东路,,15,,20,10,14,47,,36,27,11,19,1,1,0.6,0.7
2024-06-16T1400,1454A,102.6742,25.0669,昆明市,金鼎山,,33,33,26,3,13,52,,53,39,10,15,11,10,0.4,0.5
2024-06-16T1400,1455A,102.6644,25.0401,昆明市,碧鸡广场,,16,8,20,3,12,50,,51,41,12,14,2,2,0.5,0.5
2024-06-16T1400,3179A,102.7494,25.0119,昆明市,官渡区博物馆,,20,6,24,3,10,61,,32,32,5,25,7,8,0.4,0.6
2024-06-16T1400,3375A,102.8017,24.8336,昆明市,青年创业园,,21,6,13,3,12,67,,37,37,4,15,8,8,0.4,0.5
2024-06-16T1400,3550A,102.7997,24.9786,昆明市,昆明学院,,21,8,27,3,16,65,,38,35,7,19,8,8,0.6,0.7
2024-06-16T1400,3551A,102.5967,24.6736,昆明市,晋宁区生态环境分局,,16,12,22,3,12,50,,38,38,6,10,2,2,0.5,0.6
2024-06-16T1400,3552A,102.6678,24.9856,昆明市,云天化总部,,15,6,17,3,13,48,,44,34,5,13,3,3,0.5,0.6
2024-06-16T1400,1456A,91.1319,29.6514,拉萨市,八廓街,,40,13,13,13,9,127,,123,114,8,11,9,10,0.3,0.3
2024-06-16T1400,1457A,91.1221,29.6747,拉萨市,市环保局,,40,7,12,6,7,128,,120,110,10,13,8,9,0.4,0.4
2024-06-16T1400,1458A,91.0874,29.6475,拉萨市,区监测站,,39,,12,8,6,123,,119,107,8,13,6,8,0.3,0.3
2024-06-16T1400,1459A,91.1774,29.6541,拉萨市,西藏大学,,41,13,10,12,7,131,,126,115,5,6,7,7,0.3,0.3
2024-06-16T1400,1460A,90.9798,29.6588,拉萨市,区辐射站,,39,10,14,7,8,122,,105,105,6,12,7,8,0.3,0.4
2024-06-16T1400,1461A,91.0834,29.6292,拉萨市,拉萨火车站,,39,11,10,7,6,124,,122,109,9,8,7,8,0.3,0.2
2024-06-16T1400,2520A,109.2203,23.7256,来宾市,来宾技工学校,,48,48,29,24,18,87,,42,42,4,9,5,5,0.8,0.9
2024-06-16T1400,3535A,109.1781,23.7297,来宾市,兴宾区政府,,38,38,23,20,13,88,,42,42,8,9,4,5,0.8,0.8
2024-06-16T1400,4002A,109.2416,23.7461,来宾市,中南小学,颗粒物(PM10),53,56,29,26,21,96,,45,45,4,10,3,2,1.1,1.1
2024-06-16T1400,1476A,103.631,36.1031,兰州市,兰炼宾馆,,46,26,32,14,20,147,,96,96,23,16,11,10,0.6,0.4
2024-06-16T1400,1477A,104.1373,35.9454,兰州市,榆中兰大校区,,,,,,,,,,,,,,,,
2024-06-16T1400,1478A,103.8412,36.0726,兰州市,生物制品所,,40,35,39,27,27,126,,84,77,20,21,11,9,0.5,0.5
2024-06-16T1400,1479A,103.831,36.0464,兰州市,铁路设计院,,43,43,37,28,23,127,,99,81,35,27,10,8,0.6,0.4
2024-06-16T1400,3186A,103.7158,36.1058,兰州市,教育港,,50,20,29,16,21,157,,111,111,17,16,13,12,0.5,0.4
2024-06-16T1400,3241A,103.7439,36.0842,兰州市,百合公园,,46,35,31,20,19,147,,87,87,20,17,8,5,0.6,0.3
2024-06-16T1400,3242A,103.9611,35.998,兰州市,和平,,48,26,31,16,16,153,,115,104,15,12,10,8,0.6,0.5
2024-06-16T1400,3245A,103.6633,36.533,兰州新区,新区管委会,,49,22,27,14,14,154,,122,112,8,8,15,8,0.4,0.4
2024-06-16T1400,3246A,103.6975,36.4789,兰州新区,舟曲中学,,47,14,34,11,16,150,,124,115,6,8,14,10,0.4,0.4
2024-06-16T1400,1067A,116.6708,39.5111,廊坊市,药材公司,臭氧1小时,109,76,52,24,25,218,,138,138,7,16,3,3,0.4,0.5
2024-06-16T1400,1068A,116.7214,39.5589,廊坊市,开发区,臭氧1小时,105,62,60,24,27,210,,135,135,10,22,2,2,0.3,0.4
2024-06-16T1400,1070A,116.7244,39.5269,廊坊市,北华航天学院,臭氧1小时,102,63,58,25,29,204,,128,128,10,21,3,3,0.4,0.4
2024-06-16T1400,2919A,116.7022,39.5453,廊坊市,河北工业大学,臭氧1小时,104,72,61,25,26,207,,132,132,6,17,1,2,0.4,0.5
2024-06-16T1400,2535A,103.7723,29.5462,乐山市,花湖湾,细颗粒物(PM2.5),68,72,46,49,37,65,,56,48,45,29,6,5,0.4,0.3
2024-06-16T1400,2536A,103.7627,29.5844,乐山市,牛耳桥,细颗粒物(PM2.5),64,70,50,46,34,70,,68,57,46,29,7,5,0.7,0.5
2024-06-16T1400,2537A,103.7508,29.6006,乐山市,市第三水厂,细颗粒物(PM2.5),68,69,50,49,34,66,,72,60,46,26,9,6,0.7,0.6
2024-06-16T1400,2538A,103.7571,29.5664,乐山市,市监测站,细颗粒物(PM2.5),62,63,52,44,34,78,,67,62,41,28,7,5,0.7,0.6
2024-06-16T1400,3361A,103.7311,29.5628,乐山市,理工大学,细颗粒物(PM2.5),67,56,48,48,36,86,,56,56,35,29,8,7,0.7,0.6
2024-06-16T1400,2598A,100.2143,26.8576,丽江市,西南郊,,,,,,,,,,,,,,,,
2024-06-16T1400,2599A,100.2497,26.8802,丽江市,丽江古城,,23,19,17,14,12,72,,59,59,7,8,6,6,0.5,0.6
2024-06-16T1400,2600A,100.2203,26.8906,丽江市,市中心,,28,28,15,11,11,74,,60,58,6,7,8,8,0.6,0.6
2024-06-16T1400,1267A,119.914,28.4514,丽水市,监测站大楼,,28,24,17,9,7,89,,48,48,9,12,3,3,0.5,0.4
2024-06-16T1400,1268A,119.93,28.4586,丽水市,莲都小学,,30,30,19,11,6,87,,48,48,9,14,3,4,0.5,0.4
2024-06-16T1400,1269A,119.879,28.4231,丽水市,余庄前,,25,17,18,12,8,78,,37,37,6,8,3,3,0.5,0.4
2024-06-16T1400,1173A,119.176,34.5885,连云港市,市环境监测站,,44,27,31,14,22,140,,109,109,13,15,7,6,0.4,0.5
2024-06-16T1400,3000A,119.3581,34.6972,连云港市,德源药业,,35,9,26,3,16,112,,91,91,7,17,5,5,0.4,0.5
2024-06-16T1400,3007A,119.178,34.844,连云港市,新城一中,,31,18,27,8,14,98,,92,92,10,9,5,5,0.7,0.8
2024-06-16T1400,3008A,119.3608,34.7519,连云港市,胡沟管理处,,25,22,25,9,12,78,,76,76,25,17,10,9,0.5,0.6
2024-06-16T1400,3009A,119.1478,34.5911,连云港市,矿山设计院,,45,29,30,14,19,143,,103,103,12,16,4,4,0.3,0.5
2024-06-16T1400,3434A,119.2413,34.6539,连云港市,工贸学校,,48,25,29,18,19,151,,107,107,8,13,10,8,0.6,0.6
2024-06-16T1400,3664A,119.4172,34.7341,连云港市,连云街道,,29,26,34,10,16,92,,84,84,26,31,4,4,0.4,0.5
2024-06-16T1400,2571A,102.3431,27.8099,凉山彝族自治州,青龙寺,,40,34,25,24,17,127,,72,72,6,8,18,13,0.8,0.7
2024-06-16T1400,2572A,102.2721,27.8415,凉山彝族自治州,邛海宾馆,,46,44,30,32,19,122,,74,74,6,15,16,13,0.8,0.8
2024-06-16T1400,2573A,102.2625,27.898,凉山彝族自治州,西昌市政府,颗粒物(PM10),54,58,30,29,18,118,,67,67,8,13,20,12,1.0,0.7
2024-06-16T1400,2574A,102.2685,27.8851,凉山彝族自治州,凉山州政府,,45,45,27,25,17,120,,77,77,7,14,21,13,1.0,0.8
2024-06-16T1400,2575A,102.237,27.8914,凉山彝族自治州,长安,,36,30,29,24,19,114,,68,68,9,17,23,15,1.3,0.9
2024-06-16T1400,2212A,123.2,41.1953,辽阳市,宏伟区,,44,43,30,17,6,140,,114,114,14,23,18,14,0.8,0.7
2024-06-16T1400,2213A,123.1683,41.2495,辽阳市,新华园,,44,23,36,14,9,138,,111,111,53,36,11,12,0.9,0.7
2024-06-16T1400,2214A,123.2354,41.2639,辽阳市,滨河路,,45,22,28,7,9,141,,112,112,11,27,13,11,0.8,0.8
2024-06-16T1400,2215A,123.149,41.2991,辽阳市,铁西工业园,,49,26,71,15,25,155,,116,116,9,36,20,21,1.0,1.1
2024-06-16T1400,2227A,125.1358,42.8845,辽源市,环保局,,35,12,14,11,7,112,,91,91,13,16,7,8,0.4,0.4
2024-06-16T1400,3239A,125.0764,42.9078,辽源市,银鹰制药,,36,10,17,7,8,114,,92,92,15,24,6,7,0.5,0.6
2024-06-16T1400,1625A,115.9848,36.4372,聊城市,区政府,,49,34,44,13,19,154,,129,129,14,19,7,7,0.5,0.5
2024-06-16T1400,2878A,116.0072,36.4343,聊城市,聊大东校,臭氧1小时,58,30,39,24,24,166,,135,135,10,17,6,6,0.4,0.5
2024-06-16T1400,3200A,115.9819,36.4978,聊城市,监控中心,,50,29,45,12,15,157,,137,137,14,21,9,10,0.7,0.7
2024-06-16T1400,3513A,116.0445,36.4361,聊城市,九州社区,,49,36,51,11,17,156,,131,131,17,18,6,8,0.4,0.4
2024-06-16T1400,4018A,116.0567,36.4608,聊城市,星美广场,,37,37,51,12,18,104,,102,102,7,18,12,9,0.5,0.5
2024-06-16T1400,2632A,94.3681,29.6376,林芝市,林芝监测站,,28,7,5,3,4,88,,68,68,2,3,7,7,0.5,0.5
2024-06-16T1400,2633A,94.3616,29.6616,林芝市,林芝人民医院,,29,8,8,3,5,90,,65,65,6,6,8,8,0.2,0.2
2024-06-16T1400,2603A,100.0781,23.8982,临沧市,市环保局,,25,23,24,13,18,79,,49,49,7,9,5,5,0.5,0.5
2024-06-16T1400,2604A,100.0894,23.8822,临沧市,市气象局,,29,28,23,20,17,82,,50,50,7,10,8,8,0.6,0.6
2024-06-16T1400,1733A,111.5531,36.0783,临汾市,临钢医院,,47,47,83,28,34,142,,130,130,10,13,6,8,0.8,0.8
2024-06-16T1400,1734A,111.5028,36.0714,临汾市,技工学校,,48,48,77,27,40,147,,140,140,16,17,5,8,0.8,0.7
2024-06-16T1400,1736A,111.5018,36.0855,临汾市,市委,颗粒物(PM10),51,51,79,27,33,149,,145,143,6,7,4,6,1.0,1
2024-06-16T1400,3018A,111.505,36.1014,临汾市,唐尧大酒店,,47,46,69,30,34,148,,137,137,11,13,6,9,0.8,0.8
2024-06-16T1400,3668A,111.5036,36.0414,临汾市,城南,细颗粒物(PM2.5),64,48,80,46,45,145,,146,143,6,9,4,6,0.9,0.8
2024-06-16T1400,2667A,103.2069,35.5993,临夏回族自治州,环保局,,43,18,26,13,23,135,,100,100,2,3,5,6,0.2,0.3
2024-06-16T1400,2668A,103.2417,35.6057,临夏回族自治州,建设大厦,,42,14,24,10,20,134,,102,102,2,6,6,6,0.2,0.3
2024-06-16T1400,1618A,118.3429,35.0532,临沂市,沂河小区,颗粒物(PM10),65,80,48,32,26,119,,95,89,38,26,19,13,1.3,0.8
2024-06-16T1400,1619A,118.295,35.0583,临沂市,鲁南制药厂,颗粒物(PM10),63,75,47,24,20,130,,104,104,23,14,16,13,1.3,0.9
2024-06-16T1400,1620A,118.2794,34.9976,临沂市,新光毛纺厂,颗粒物(PM10),54,58,38,33,22,130,,108,108,29,20,17,10,1.4,1
2024-06-16T1400,1621A,118.3956,35.0888,临沂市,河东保险公司,细颗粒物(PM2.5),59,63,44,42,28,95,,72,72,32,21,17,9,1.8,0.9
2024-06-16T1400,3370A,118.3564,35.0215,临沂市,十里堡居委,"颗粒物(PM10),细颗粒物(PM2.5)",58,66,42,41,26,111,,91,91,29,18,17,11,2.0,1
2024-06-16T1400,3496A,118.3604,35.1084,临沂市,南坊新区,颗粒物(PM10),64,78,54,31,22,108,,82,82,31,24,17,13,1.6,1.1
2024-06-16T1400,3860A,118.3920,35.0300,临沂市,皇山花园小区,细颗粒物(PM2.5),60,68,50,43,30,112,,84,84,41,27,23,12,2.3,1.2
2024-06-16T1400,1870A,109.4856,24.3895,柳州市,柳东小学,,27,23,22,12,15,86,,52,52,5,11,6,7,0.7,0.7
2024-06-16T1400,1871A,109.4157,24.3277,柳州市,环保监测站,,45,,28,31,29,82,,53,53,6,10,7,7,0.6,0.6
2024-06-16T1400,1872A,109.389,24.341,柳州市,河西水厂,,36,36,26,21,18,85,,56,56,5,9,5,6,0.5,0.6
2024-06-16T1400,1873A,109.4311,24.2921,柳州市,市四中,,42,42,30,19,16,81,,55,55,5,10,5,5,0.5,0.5
2024-06-16T1400,1874A,109.4006,24.3631,柳州市,市九中,,32,28,33,22,15,88,,59,59,8,12,7,7,0.6,0.6
2024-06-16T1400,1875A,109.4958,24.3134,柳州市,古亭山,,38,38,27,20,14,82,,51,51,8,13,5,6,0.5,0.6
2024-06-16T1400,3402A,109.5422,24.3996,柳州市,市二中,,43,,27,30,15,85,,49,49,7,12,5,7,0.5,0.5
2024-06-16T1400,2307A,116.5079,31.737,六安市,监测大楼,臭氧1小时,114,36,50,29,35,228,,179,179,8,10,8,7,0.5,0.6
2024-06-16T1400,2308A,116.4738,31.7643,六安市,皖西学院,臭氧1小时,113,57,59,27,32,226,,196,196,7,9,4,5,0.5,0.7
2024-06-16T1400,2309A,116.4996,31.7905,六安市,朝阳厂,臭氧1小时,110,35,52,23,34,220,,183,183,6,9,9,9,0.4,0.6
2024-06-16T1400,2310A,116.5567,31.7886,六安市,开发区,臭氧1小时,106,37,59,26,34,212,,193,193,,14,18,16,0.6,0.8
2024-06-16T1400,2576A,104.8,26.5892,六盘水市,窑上,,,,,,,,,,,,,,,,
2024-06-16T1400,2577A,104.83,26.5917,六盘水市,黄土坡,,32,17,27,13,16,100,,74,74,6,10,7,7,0.4,0.5
2024-06-16T1400,2578A,104.89,26.5939,六盘水市,水钢,,34,34,33,15,21,107,,92,92,4,8,12,12,0.3,0.3
2024-06-16T1400,2579A,104.8475,26.5894,六盘水市,民中,,32,21,28,14,19,100,,73,73,8,14,7,7,0.5,0.7
2024-06-16T1400,2580A,104.9544,26.5506,六盘水市,双水,,36,24,28,16,17,113,,102,102,5,8,7,7,0.2,0.2
2024-06-16T1400,2335A,117.0189,25.1181,龙岩市,龙岩师专,,,,,,,,,,,,,,,,
2024-06-16T1400,2336A,117.0217,25.1033,龙岩市,龙岩市监测站,,21,21,18,10,10,26,,21,21,19,18,2,2,0.5,0.6
2024-06-16T1400,2337A,117.0258,25.0661,龙岩市,闽西职业技术学院,,22,19,20,15,8,25,,19,19,18,17,2,2,0.5,0.5
2024-06-16T1400,2338A,117.0196,25.0306,龙岩市,龙岩学院,,23,16,17,16,6,29,,26,24,17,7,1,3,0.5,0.4
2024-06-16T1400,2665A,105.0822,33.3261,陇南市,汉王镇固水子,,,,,,,,,,,,,,,,
2024-06-16T1400,2885A,104.9339,33.3826,陇南市,滨江中学,,36,36,51,9,14,77,,81,67,13,10,7,7,0.4,0.4
2024-06-16T1400,3247A,104.955,33.371,陇南市,市总工会,,26,25,35,17,13,83,,81,71,7,7,4,4,0.4,0.3
2024-06-16T1400,2487A,111.9589,27.8901,娄底市,电视发射台,,30,21,27,7,14,95,,54,54,3,4,6,5,0.6,0.7
2024-06-16T1400,2488A,111.9975,27.725,娄底市,市监测站,,,44,37,,22,117,,81,81,2,11,4,7,0.6,0.9
2024-06-16T1400,2489A,112.0194,27.7314,娄底市,市委党校,,31,30,25,16,18,97,,67,67,5,10,8,8,0.8,0.8
2024-06-16T1400,2490A,111.9561,27.7569,娄底市,涟钢,,29,13,32,8,21,90,,62,62,14,19,5,6,0.5,0.6
2024-06-16T1400,2491A,111.9892,27.7044,娄底市,市政府,,39,26,31,18,19,122,,77,77,4,9,6,6,0.6,0.8
2024-06-16T1400,1893A,105.4324,28.9634,泸州市,九狮山,颗粒物(PM10),60,70,43,40,31,115,,59,59,20,21,9,6,0.3,0.3
2024-06-16T1400,1894A,105.4427,28.9063,泸州市,小市上码头,细颗粒物(PM2.5),73,83,52,53,36,118,,64,64,10,15,7,11,0.5,0.4
2024-06-16T1400,1895A,105.4241,28.8573,泸州市,兰田宪桥,细颗粒物(PM2.5),78,68,47,57,36,129,,60,60,18,25,4,8,0.5,0.4
2024-06-16T1400,1896A,105.4379,28.8833,泸州市,市环监站,细颗粒物(PM2.5),78,73,51,57,39,113,,57,57,18,23,7,15,0.7,0.6
2024-06-16T1400,3490A,105.3617,28.7703,泸州市,纳溪区环保局,细颗粒物(PM2.5),67,72,54,48,37,150,,68,68,18,27,3,3,0.6,0.6
2024-06-16T1400,2183A,111.1406,37.5211,吕梁市,环保局,臭氧1小时,102,59,66,34,21,204,,152,152,15,30,10,7,0.8,0.4
2024-06-16T1400,2185A,111.1297,37.5136,吕梁市,自来水公司,臭氧1小时,103,55,72,28,23,206,,154,154,13,26,8,7,0.6,0.4
2024-06-16T1400,2867A,111.1283,37.51,吕梁市,马茂庄小学,臭氧1小时,103,60,72,25,23,205,,159,159,11,31,7,6,0.6,0.5
2024-06-16T1400,1812A,112.3931,34.6516,洛阳市,市委党校,,38,29,56,26,29,110,,123,120,9,14,1,4,0.7,0.7
2024-06-16T1400,1814A,112.4657,34.6871,洛阳市,豫西宾馆,,43,28,66,20,27,136,,137,137,12,19,1,5,0.6,0.6
2024-06-16T1400,1815A,112.494,34.6886,洛阳市,河南林校,,39,,54,25,28,123,,132,132,13,20,3,7,0.4,0.4
2024-06-16T1400,1816A,112.3844,34.623,洛阳市,开发区管委会,,40,29,54,24,29,127,,127,127,10,14,2,4,0.4,0.4
2024-06-16T1400,1817A,112.4267,34.6258,洛阳市,市委新办公区,,41,31,55,22,32,130,,129,129,9,15,3,7,0.5,0.5
2024-06-16T1400,3340A,112.6005,34.6326,洛阳市,伊滨,,39,38,62,22,30,122,,128,128,14,20,5,8,0.4,0.4
2024-06-16T1400,3341A,112.4951,34.6332,洛阳市,中移产业园,,39,28,59,22,31,123,,126,126,8,17,2,7,0.7,0.6
2024-06-16T1400,3593A,112.5736,34.8993,洛阳市,吉利监测站,颗粒物(PM10),51,52,53,32,33,101,,144,138,15,16,2,5,0.1,0.3
2024-06-16T1400,3635A,112.3677,34.662,洛阳市,河科大西苑校区,,41,25,61,14,24,131,,129,129,7,13,2,6,0.7,0.7
2024-06-16T1400,3636A,112.4388,34.6781,洛阳市,英才小学,,38,33,63,14,20,120,,126,126,6,12,3,4,0.5,0.5
2024-06-16T1400,2399A,114.051,33.5699,漯河市,三五一五工厂,,46,10,83,3,26,146,,151,151,10,15,5,6,0.5,0.6
2024-06-16T1400,2400A,114.0055,33.5698,漯河市,漯河大学,,50,13,81,12,30,159,,159,159,10,16,4,6,0.4,0.6
2024-06-16T1400,2401A,114.0138,33.5828,漯河市,市水利局,,48,7,77,3,25,152,,154,154,7,13,7,8,0.6,0.7
2024-06-16T1400,2402A,114.0261,33.5698,漯河市,市广电局,,48,10,80,9,26,152,,154,154,11,13,3,5,0.5,0.6
2024-06-16T1400,3478A,113.9749,33.5664,漯河市,市图书馆,,49,12,70,8,30,155,,156,156,2,8,2,2,0.4,0.5
2024-06-16T1400,3479A,114.0967,33.5906,漯河市,召陵区卫健委,,,,94,10,28,146,,147,147,10,20,5,6,0.4,0.5
2024-06-16T1400,1798A,118.5092,31.6837,马鞍山市,湖东路四小,臭氧1小时,77,36,52,8,26,181,,166,166,11,16,8,9,0.6,0.7
2024-06-16T1400,1799A,118.5024,31.6449,马鞍山市,开发区,臭氧1小时,79,34,60,11,28,183,,163,163,10,19,9,9,0.5,0.6
2024-06-16T1400,1800A,118.5228,31.7231,马鞍山市,慈湖,臭氧1小时,95,23,50,16,31,196,,164,164,11,17,8,7,0.7,0.8
2024-06-16T1400,1802A,118.6245,31.7241,马鞍山市,濮塘,臭氧1小时,77,32,44,18,30,181,,147,147,6,11,5,4,0.9,0.9
2024-06-16T1400,3633A,118.4918,31.6809,马鞍山市,雨山,臭氧1小时,79,30,56,14,28,183,,170,170,5,12,6,6,0.7,0.9
2024-06-16T1400,1686A,111.0286,21.4688,茂名市,电白南海,,41,41,27,22,15,72,,60,60,5,11,4,5,0.5,0.5
2024-06-16T1400,1687A,110.9294,21.6533,茂名市,茂石化七小,,39,39,27,19,14,71,,54,54,7,12,6,9,0.5,0.5
2024-06-16T1400,1688A,110.9107,21.6687,茂名市,健康路,,27,27,24,9,6,78,,63,63,5,11,11,12,0.5,0.5
2024-06-16T1400,1689A,110.8592,21.6828,茂名市,高岭,,35,34,27,24,18,72,,60,60,5,16,6,12,0.5,0.6
2024-06-16T1400,3450A,111.01,21.5165,茂名市,电白水东,,24,24,23,14,11,75,,57,57,8,14,3,5,0.5,0.5
2024-06-16T1400,2539A,104.0308,30.0478,眉山市,黑龙滩水库,,42,42,38,29,26,101,,82,82,5,9,5,5,0.4,0.3
2024-06-16T1400,2540A,103.8416,30.0874,眉山市,气象局,细颗粒物(PM2.5),62,,38,44,33,121,,87,69,19,28,8,8,0.5,0.5
2024-06-16T1400,3137A,103.8578,30.0744,眉山市,市委党校,颗粒物(PM10),57,63,44,39,25,117,,98,82,19,19,8,8,0.6,0.5
2024-06-16T1400,3148A,103.8291,30.0564,眉山市,区人社局,细颗粒物(PM2.5),52,44,36,36,28,128,,104,84,21,25,10,9,0.5,0.5
2024-06-16T1400,1690A,116.1231,24.3284,梅州市,梅江月梅,,18,18,14,6,3,28,,24,24,11,7,5,4,0.5,0.4
2024-06-16T1400,1691A,116.0797,24.2719,梅州市,梅县新城,,14,14,14,3,6,37,,22,22,7,10,3,3,0.3,0.3
2024-06-16T1400,1692A,116.1248,24.2654,梅州市,环境监控中心,,15,15,16,7,7,12,,20,10,24,15,3,4,0.7,0.6
2024-06-16T1400,3315A,116.1233,24.2991,梅州市,梅龙,,19,,12,13,7,22,,24,18,13,7,7,7,0.7,0.5
2024-06-16T1400,1878A,104.7778,31.4741,绵阳市,富乐山,,32,22,44,22,30,95,,76,75,3,14,7,7,0.5,0.6
2024-06-16T1400,1879A,104.7563,31.4535,绵阳市,市人大,,30,30,48,15,29,83,,75,70,9,24,5,7,0.4,0.4
2024-06-16T1400,1880A,104.6697,31.4668,绵阳市,高新区自来水公司,,30,14,44,3,23,95,,96,82,7,21,5,6,0.4,0.4
2024-06-16T1400,1881A,104.7287,31.5075,绵阳市,三水厂,,32,32,57,18,33,96,,79,79,5,26,6,6,0.4,0.5
2024-06-16T1400,3491A,104.69,31.5322,绵阳市,西科大附属小学,,28,15,45,9,27,88,,76,73,5,23,4,6,0.6,0.6
2024-06-16T1400,3492A,104.5648,31.5343,绵阳市,安州区旅游局,,29,13,39,9,25,90,,96,72,6,16,11,10,0.5,0.7
2024-06-16T1400,1784A,129.61,44.561,牡丹江市,环保大楼,,21,9,17,3,9,66,,53,53,4,9,6,6,0.3,0.3
2024-06-16T1400,1785A,129.6115,44.5782,牡丹江市,文化广场,,20,14,19,12,16,62,,49,49,5,11,6,6,0.3,0.3
2024-06-16T1400,1786A,129.5904,44.5963,牡丹江市,第一医院,,21,,16,12,15,65,,52,52,4,10,4,4,0.3,0.4
2024-06-16T1400,1787A,129.6364,44.6075,牡丹江市,机车工厂,,20,7,16,3,9,62,,45,45,2,9,3,12,0.3,0.4
2024-06-16T1400,1788A,129.6386,44.5462,牡丹江市,第一中学,,22,7,17,3,7,68,,56,56,5,11,3,4,0.3,0.3
2024-06-16T1400,2531A,105.0703,29.61,内江市,市监测站,,35,32,45,24,41,74,,68,64,8,23,5,7,0.4,0.6
2024-06-16T1400,2532A,105.0717,29.5947,内江市,东兴区政府,,45,45,51,13,31,60,,76,68,2,11,10,11,0.7,0.8
2024-06-16T1400,2533A,105.0653,29.5817,内江市,内江二中,,37,37,44,24,34,65,,62,61,6,17,8,8,0.5,0.6
2024-06-16T1400,2534A,105.0406,29.5822,内江市,内江日报社,,31,31,42,19,36,74,,72,68,10,26,9,10,0.6,0.7
2024-06-16T1400,2628A,92.0657,31.4846,那曲市,那曲监测站,,46,11,16,8,8,146,,110,110,6,6,6,6,0.5,0.5
2024-06-16T1400,3128A,92.0506,31.4797,那曲市,那曲会议中心,,46,9,22,6,10,146,,111,111,2,5,3,3,0.4,0.4
2024-06-16T1400,1290A,115.8931,28.6843,南昌市,省外办,,23,15,19,7,12,72,,58,58,7,12,6,6,0.4,0.6
2024-06-16T1400,1291A,115.8886,28.7003,南昌市,省林业公司,,22,7,13,7,7,69,,60,60,6,12,5,5,0.4,0.4
2024-06-16T1400,1292A,115.8126,28.7442,南昌市,林科所,,23,6,8,3,4,71,,61,61,9,17,8,8,0.6,0.5
2024-06-16T1400,1294A,115.8518,28.687,南昌市,建工学校,,24,,16,3,8,75,,63,63,2,7,6,6,0.4,0.5
2024-06-16T1400,1295A,115.8921,28.6424,南昌市,象湖,,27,16,14,11,7,86,,65,65,2,8,5,6,0.4,0.5
2024-06-16T1400,1296A,115.7423,28.7996,南昌市,武术学校,,19,10,15,7,18,58,,49,49,1,3,14,15,0.5,0.6
2024-06-16T1400,1298A,115.9314,28.6842,南昌市,省站,,22,22,43,8,8,67,,62,62,13,12,6,8,0.5,0.7
2024-06-16T1400,3046A,115.9084,28.6062,南昌市,机电学校,,26,18,22,9,7,81,,56,56,4,11,11,10,0.5,0.6
2024-06-16T1400,3690A,115.9721,28.7031,南昌市,外国语学校,,22,13,15,9,9,70,,63,63,1,6,4,5,0.4,0.3
2024-06-16T1400,1905A,106.056,30.8064,南充市,西山风景区,,28,20,31,16,24,87,,93,89,10,14,3,4,0.5,0.6
2024-06-16T1400,1906A,106.0789,30.8023,南充市,南充市委,,32,25,40,15,25,101,,96,96,8,16,4,5,0.3,0.4
2024-06-16T1400,1907A,106.1031,30.8217,南充市,南充炼油厂,,34,26,44,13,27,107,,108,104,5,13,6,7,0.2,0.3
2024-06-16T1400,1908A,106.1064,30.7856,南充市,高坪区监测站,,32,22,42,9,26,100,,104,99,8,17,6,8,0.2,0.4
2024-06-16T1400,1909A,106.0642,30.7636,南充市,嘉陵区环保局,,31,22,39,17,30,99,,98,96,7,17,5,6,0.2,0.4
2024-06-16T1400,1910A,106.1087,30.8388,南充市,市环境监测站,,32,29,46,17,26,102,,98,96,9,20,6,7,0.5,0.6
2024-06-16T1400,1151A,118.8086,32.1065,南京市,迈皋桥,臭氧1小时,106,32,39,14,22,212,,171,171,5,15,6,7,0.5,0.5
2024-06-16T1400,1152A,118.7538,32.0551,南京市,草场门,臭氧1小时,85,34,44,9,23,188,,163,163,15,20,5,5,0.5,0.6
2024-06-16T1400,1153A,118.7794,32.0745,南京市,山西路,臭氧1小时,105,31,44,12,21,209,,177,177,2,11,3,4,0.4,0.5
2024-06-16T1400,1154A,118.7752,32.0023,南京市,中华门,臭氧1小时,72,34,40,9,22,177,,150,150,6,12,8,7,0.3,0.5
2024-06-16T1400,1155A,118.8109,32.0309,南京市,瑞金路,臭氧1小时,88,40,48,17,26,190,,162,162,7,14,9,9,0.3,0.4
2024-06-16T1400,1156A,118.7997,32.0754,南京市,玄武湖,臭氧1小时,88,39,45,14,22,190,,154,154,13,17,10,10,0.7,0.8
2024-06-16T1400,1157A,118.6414,32.0931,南京市,浦口,臭氧1小时,93,22,44,17,22,194,,157,157,10,19,7,7,0.3,0.4
2024-06-16T1400,1158A,118.7356,31.9996,南京市,奥体中心,臭氧1小时,99,38,48,17,28,199,,168,168,6,13,7,7,0.3,0.5
2024-06-16T1400,1159A,118.9125,32.1028,南京市,仙林大学城,臭氧1小时,110,29,41,19,22,220,,179,179,9,16,8,8,0.6,0.6
2024-06-16T1400,3422A,118.8436,31.9198,南京市,江宁彩虹桥,臭氧1小时,103,27,45,17,24,205,,156,156,6,15,4,4,0.4,0.5
2024-06-16T1400,3423A,119.0138,31.6494,南京市,溧水永阳,臭氧1小时,102,36,42,22,26,203,,161,161,13,16,4,4,0.5,0.5
2024-06-16T1400,3424A,118.879,31.3302,南京市,高淳老职中,臭氧1小时,90,48,51,18,30,192,,178,178,8,13,5,7,0.4,0.5
2024-06-16T1400,3427A,118.8554,32.3578,南京市,六合雄州,臭氧1小时,102,42,41,8,21,203,,145,145,14,30,1,4,0.5,0.7
2024-06-16T1400,1401A,108.3103,22.7881,南宁市,二十一中,,49,49,32,22,16,111,,48,48,7,14,2,2,1.0,0.9
2024-06-16T1400,1402A,108.3141,22.8528,南宁市,北湖,,46,46,34,27,21,110,,50,50,8,14,3,3,0.8,0.8
2024-06-16T1400,1403A,108.3206,22.8225,南宁市,市监测站,颗粒物(PM10),57,63,31,23,19,113,,49,49,9,16,4,2,0.9,0.8
2024-06-16T1400,1404A,108.3829,22.8037,南宁市,大自然花园,,38,38,33,21,20,97,,46,46,6,13,5,4,0.5,0.4
2024-06-16T1400,1405A,108.4394,22.7904,南宁市,仙葫,,48,48,41,24,22,75,,43,43,8,7,2,3,0.4,0.5
2024-06-16T1400,1406A,108.2397,22.8467,南宁市,区农职院,颗粒物(PM10),52,54,35,34,20,128,,57,57,13,20,6,5,0.9,0.8
2024-06-16T1400,1407A,108.3275,22.735,南宁市,英华嘉园,,38,38,34,19,19,97,,43,43,12,16,5,5,0.7,0.6
2024-06-16T1400,1408A,108.2257,22.7757,南宁市,沙井镇街道办,颗粒物(PM10),57,64,41,25,21,98,,48,48,7,23,3,3,0.8,0.8
2024-06-16T1400,3401A,108.4834,22.7618,南宁市,红星社区,颗粒物(PM10),52,54,32,20,20,96,,48,48,7,14,6,4,0.7,0.7
2024-06-16T1400,2331A,118.0966,26.6761,南平市,茫荡山,,,,,,,,,,,,,,,,
2024-06-16T1400,2332A,118.1681,26.6369,南平市,南平市监测站,,16,16,18,6,6,40,,49,38,8,9,3,4,0.6,0.6
2024-06-16T1400,2333A,118.1825,26.6489,南平市,南平铝业有限公司,,16,16,13,6,7,42,,47,38,7,9,4,5,0.6,0.6
2024-06-16T1400,2334A,118.1756,26.6272,南平市,南平七中,,22,22,14,3,6,48,,46,45,5,7,4,4,0.6,0.6
2024-06-16T1400,1168A,120.9098,31.9663,南通市,狼山街道,,46,23,21,11,9,146,,95,95,3,14,10,11,0.4,0.5
2024-06-16T1400,1169A,120.86,32.0005,南通市,虹桥,,35,28,27,10,9,109,,92,92,26,16,8,7,0.4,0.6
2024-06-16T1400,1170A,120.87,32.02,南通市,城中,,45,31,32,9,14,144,,97,97,6,17,6,7,0.3,0.5
2024-06-16T1400,1171A,120.94,31.93,南通市,星湖花园,,45,18,16,9,8,141,,90,90,8,19,8,9,0.4,0.5
2024-06-16T1400,1172A,120.81,32.0417,南通市,紫琅学院,,35,14,23,9,13,110,,100,100,29,21,7,7,0.6,0.7
2024-06-16T1400,3291A,121.067,32.062,南通市,通州监测站,,43,22,28,3,6,136,,94,94,1,8,11,11,0.6,0.6
2024-06-16T1400,3432A,120.9348,31.9883,南通市,环境教育馆,,44,17,27,3,12,140,,94,94,11,25,8,8,0.4,0.6
2024-06-16T1400,2404A,112.5224,33.0122,南阳市,瓦房庄,颗粒物(PM10),54,58,80,28,40,130,,135,126,12,18,6,6,0.6,0.7
2024-06-16T1400,2405A,112.5003,32.9735,南阳市,汉画馆,颗粒物(PM10),56,62,97,28,44,124,,122,120,18,27,5,6,0.7,0.7
2024-06-16T1400,2406A,112.5573,33.027,南阳市,气象站,,50,50,84,14,39,127,,122,120,14,23,4,4,0.5,0.6
2024-06-16T1400,2407A,112.5481,32.9689,南阳市,理工学院,,48,48,79,28,38,128,,125,125,16,23,4,6,0.6,0.7
2024-06-16T1400,4008A,112.5234,32.9922,南阳市,卧龙区政府,,47,47,78,27,42,120,,131,120,19,24,6,7,0.7,0.8
2024-06-16T1400,1234A,121.8358,29.911,宁波市,区环保大楼,,41,15,50,10,23,130,,96,96,20,44,9,8,0.7,0.7
2024-06-16T1400,1235A,121.56,29.82,宁波市,万里学院,,46,17,40,9,27,146,,105,105,5,16,4,5,0.6,0.7
2024-06-16T1400,1236A,121.713,29.9572,宁波市,龙赛医院,,49,32,48,14,22,156,,104,104,23,32,8,6,0.5,0.5
2024-06-16T1400,1239A,121.633,29.7733,宁波市,钱湖水厂,,42,,31,10,16,132,,99,99,5,10,4,4,0.7,0.8
2024-06-16T1400,1240A,121.5856,29.8635,宁波市,太古小学,,43,22,39,7,22,136,,95,95,4,15,5,5,0.5,0.7
2024-06-16T1400,1241A,121.524,29.8674,宁波市,市环境监测中心,,48,14,35,10,21,151,,106,106,7,17,3,4,0.6,0.7
2024-06-16T1400,2871A,121.6147,29.9017,宁波市,万里国际学校,,48,15,36,13,24,152,,108,108,7,22,4,5,0.4,0.5
2024-06-16T1400,3710A,121.5594,29.8975,宁波市,白沙活动中心,,48,14,37,7,12,151,,105,105,2,16,7,8,0.5,0.5
2024-06-16T1400,2339A,119.5001,26.6946,宁德市,金涵水库,,,,,,,,,,,,,,,,
2024-06-16T1400,2341A,119.5388,26.6612,宁德市,宁德市监测站,,32,32,25,9,15,40,,26,26,20,26,5,4,1.2,0.9
2024-06-16T1400,3209A,119.5231,26.6562,宁德市,宁德一中,,34,34,24,8,13,43,,27,27,17,20,7,4,1.3,1
2024-06-16T1400,2618A,98.8601,25.8567,怒江傈僳族自治州,州监测站,,22,,19,15,14,67,,46,46,5,8,9,9,0.6,0.5
2024-06-16T1400,2619A,98.8546,25.8417,怒江傈僳族自治州,泸水一中,,22,,16,15,7,62,,35,35,9,10,5,5,0.4,0.4
2024-06-16T1400,1888A,101.6891,26.571,攀枝花市,弄弄坪,颗粒物(PM10),63,76,46,36,24,139,,54,54,23,19,36,14,1.7,0.8
2024-06-16T1400,1889A,101.5769,26.5928,攀枝花市,河门口,,34,26,33,16,19,106,,60,60,10,17,13,10,0.9,0.7
2024-06-16T1400,1890A,101.7169,26.585,攀枝花市,炳草岗,颗粒物(PM10),55,59,49,30,27,158,,62,62,16,26,53,28,1.3,1
2024-06-16T1400,1891A,101.7369,26.5008,攀枝花市,仁和,,49,48,37,34,25,148,,70,70,10,18,32,17,0.8,0.7
2024-06-16T1400,2835A,101.7227,26.567,攀枝花市,四十中小,臭氧1小时,55,50,36,31,19,164,,74,74,12,20,42,26,1.3,1.1
2024-06-16T1400,1604A,122.0303,41.1489,盘锦市,开发区,臭氧1小时,53,41,25,18,20,162,,126,126,15,21,12,9,0.4,0.2
2024-06-16T1400,1605A,122.0485,41.0883,盘锦市,兴隆台,,47,35,23,21,13,150,,124,124,16,19,9,9,0.5,0.3
2024-06-16T1400,1606A,121.8297,41.1028,盘锦市,新生街道,臭氧1小时,55,45,26,14,18,164,,123,123,10,23,13,12,0.5,0.3
2024-06-16T1400,1832A,113.3257,33.742,平顶山市,新华旅馆,臭氧1小时,55,52,90,22,38,164,,158,158,9,16,6,10,0.3,0.4
2024-06-16T1400,1833A,113.2919,33.737,平顶山市,规划设计院,,49,29,68,12,30,154,,144,144,11,21,5,8,0.5,0.6
2024-06-16T1400,1834A,113.182,33.774,平顶山市,平顶山工学院,,49,29,67,9,27,155,,149,149,10,16,5,8,0.5,0.6
2024-06-16T1400,3204A,113.3025,33.73,平顶山市,规划局,臭氧1小时,54,31,88,19,32,163,,156,156,9,17,4,7,0.3,0.4
2024-06-16T1400,3594A,112.8867,33.9116,平顶山市,石龙区,颗粒物(PM10),60,69,98,21,45,159,,145,145,6,16,4,7,0.5,0.7
2024-06-16T1400,2656A,106.6692,35.5461,平凉市,聚贤嘉苑,,38,30,54,14,21,119,,78,78,11,23,10,9,0.2,0.4
2024-06-16T1400,2657A,106.7021,35.5307,平凉市,博物馆,,39,31,53,13,22,124,,89,89,17,27,17,14,0.3,0.5
2024-06-16T1400,2347A,114.0997,27.5002,萍乡市,武功山,,20,6,5,3,4,61,,41,41,3,3,17,17,0.5,0.5
2024-06-16T1400,2348A,113.8385,27.6434,萍乡市,中医院,,30,29,20,21,12,78,,52,52,1,4,9,10,0.7,0.9
2024-06-16T1400,2349A,113.8493,27.6253,萍乡市,市政府车库,,33,,15,23,13,86,,54,54,4,6,11,15,1.3,1.1
2024-06-16T1400,2350A,113.8676,27.6435,萍乡市,市环保局,,25,16,20,15,13,77,,53,53,3,7,9,9,0.6,0.7
2024-06-16T1400,2351A,113.866,27.6198,萍乡市,安源区政府,,38,38,25,9,10,79,,48,48,5,7,10,19,0.7,0.7
2024-06-16T1400,2319A,119.0141,25.4325,莆田市,荔城区仓后路,,17,16,16,6,6,53,,44,44,10,10,6,6,0.6,0.6
2024-06-16T1400,2320A,119.0015,25.4553,莆田市,莆田市监测站,,16,16,18,3,4,50,,42,42,6,6,8,8,0.6,0.6
2024-06-16T1400,2321A,119.1119,25.4561,莆田市,涵江区六中,,23,23,17,7,6,48,,34,34,15,15,8,8,0.6,0.6
2024-06-16T1400,2322A,119.1013,25.3215,莆田市,秀屿区政府,,21,9,23,6,7,66,,46,46,10,8,9,8,1.1,1
2024-06-16T1400,2323A,118.981,25.4792,莆田市,东圳水库,,,,,,,,,,,,,,,,
2024-06-16T1400,2392A,115.0312,35.7636,濮阳市,环保局,细颗粒物(PM2.5),55,48,48,39,23,107,,111,110,15,17,7,16,0.6,0.4
2024-06-16T1400,2394A,115.0574,35.7609,濮阳市,油田运输公司,颗粒物(PM10),55,59,55,29,24,127,,122,122,14,16,10,19,0.7,0.5
2024-06-16T1400,2395A,115.0866,35.7754,濮阳市,油田物探公司,细颗粒物(PM2.5),55,55,53,39,26,131,,124,124,11,15,9,20,0.6,0.5
2024-06-16T1400,3021A,115,35.7668,濮阳市,濮水河管理处,颗粒物(PM10),57,63,48,38,24,103,,107,103,15,13,8,14,0.6,0.4
2024-06-16T1400,2601A,100.98,22.7633,普洱市,市环保局,,26,26,18,13,18,74,,51,51,5,6,7,6,0.4,0.4
2024-06-16T1400,2602A,100.9817,22.8322,普洱市,普洱第二中学,,23,17,19,10,13,71,,47,47,3,8,8,8,0.4,0.4
2024-06-16T1400,2262A,131.0518,45.8751,七台河市,新一中,,23,17,8,3,5,73,,70,70,5,6,8,9,1.1,1
2024-06-16T1400,3345A,131.0577,45.7879,七台河市,中波台,,21,,8,3,5,67,,63,63,8,15,6,7,0.2,0.4
2024-06-16T1400,3637A,131.0176,45.7761,七台河市,人民广场,,21,9,13,3,10,66,,59,59,8,14,10,12,0.3,0.4
2024-06-16T1400,3684A,130.8781,45.8222,七台河市,新建矿广场,,20,7,7,7,13,63,,60,60,10,12,5,6,0.1,0.1
2024-06-16T1400,1779A,123.9305,47.3636,齐齐哈尔市,安居小区,,42,42,32,22,15,74,,68,68,27,22,8,7,0.6,0.4
2024-06-16T1400,1780A,123.9488,47.3386,齐齐哈尔市,中心广场,,33,33,34,22,17,90,,74,74,16,21,9,10,0.3,0.3
2024-06-16T1400,1781A,123.9483,47.3227,齐齐哈尔市,农牧车辆厂,,44,44,37,10,11,92,,75,75,14,22,8,9,0.2,0.4
2024-06-16T1400,1783A,123.945,47.2988,齐齐哈尔市,市环境监测站,,29,26,30,15,16,90,,76,76,10,19,6,7,0.4,0.4
2024-06-16T1400,3662A,123.6333,47.2075,齐齐哈尔市,富区青少年活动中心,,29,23,40,3,18,90,,76,76,13,22,8,17,0.5,0.7
2024-06-16T1400,2591A,107.9783,26.5747,黔东南苗族侗族自治州,市环境监测站,,21,21,27,14,20,65,,53,53,12,20,3,3,0.3,0.3
2024-06-16T1400,2881A,107.8908,26.5311,黔东南苗族侗族自治州,凯里学院,,22,,20,13,15,69,,52,52,1,7,3,3,0.3,0.3
2024-06-16T1400,2593A,107.5228,26.2403,黔南布依族苗族自治州,小围寨,,17,7,17,3,9,54,,36,36,3,11,5,5,0.5,0.5
2024-06-16T1400,3538A,107.5175,26.2978,黔南布依族苗族自治州,沙坝,,19,6,17,3,8,59,,36,36,2,11,4,3,0.4,0.5
2024-06-16T1400,2589A,104.9022,25.0925,黔西南布依族苗族自治州,场坝街,,19,13,20,3,8,58,,58,57,6,10,3,3,0.3,0.4
2024-06-16T1400,2590A,104.8811,25.0992,黔西南布依族苗族自治州,坪东大道,,19,11,18,3,8,60,,59,59,3,11,3,5,0.2,0.3
2024-06-16T1400,2502A,108.6236,21.9667,钦州市,市环保站,,19,19,28,7,11,58,,33,33,14,13,6,8,0.8,0.7
2024-06-16T1400,2503A,108.6549,21.9481,钦州市,沙埠小学,,25,25,36,12,15,75,,39,39,11,17,4,7,1.1,0.8
2024-06-16T1400,2504A,108.5989,21.7431,钦州市,港区一小,,32,32,56,13,20,95,,59,59,9,23,7,8,0.6,0.7
2024-06-16T1400,3404A,108.5959,21.9633,钦州市,北职校,,30,30,36,13,20,59,,34,34,14,17,6,10,0.6,0.7
2024-06-16T1400,1042A,119.5134,39.8207,秦皇岛市,北戴河环保局,臭氧1小时,67,52,35,15,7,173,,126,126,15,16,5,8,0.6,0.7
2024-06-16T1400,1043A,119.7493,40.0116,秦皇岛市,第一关,臭氧1小时,83,69,40,18,16,186,,132,132,16,29,5,3,1.0,0.5
2024-06-16T1400,1044A,119.5897,39.9499,秦皇岛市,监测站,臭氧1小时,65,37,44,13,13,172,,128,128,6,25,9,6,1.0,0.7
2024-06-16T1400,1046A,119.5251,39.9041,秦皇岛市,建设大厦,臭氧1小时,60,41,32,10,14,168,,132,132,12,22,8,6,0.7,0.5
2024-06-16T1400,3132A,119.610547,39.943889,秦皇岛市,文明里,臭氧1小时,85,53,40,21,20,188,,134,134,12,20,8,6,1.0,0.8
2024-06-16T1400,1307A,120.6659,36.2403,青岛市,仰口,,40,22,16,12,16,128,,99,99,6,5,4,4,0.4,0.4
2024-06-16T1400,1310A,120.4134,36.0658,青岛市,市南区东部子站,,29,9,21,9,13,90,,64,64,15,26,8,9,0.4,0.4
2024-06-16T1400,1311A,120.3664,36.1032,青岛市,四方区子站,,47,27,28,14,14,149,,86,86,24,35,11,11,0.5,0.5
2024-06-16T1400,1312A,120.2994,36.054,青岛市,市南区西部子站,,32,,26,15,14,100,,72,72,7,35,8,10,0.5,0.5
2024-06-16T1400,1313A,120.4581,36.0858,青岛市,崂山区子站,,23,12,20,7,11,73,,65,65,38,28,12,10,0.4,0.4
2024-06-16T1400,1314A,120.1983,35.9608,青岛市,黄岛区子站,,36,17,20,10,14,113,,88,88,9,22,6,7,0.4,0.5
2024-06-16T1400,1315A,120.3999,36.3083,青岛市,城阳区子站,,47,34,33,15,16,150,,113,113,21,31,9,8,0.4,0.5
2024-06-16T1400,1966A,120.0405,35.8735,青岛市,黄岛区4号,,36,29,23,7,11,115,,94,94,12,18,10,10,0.4,0.4
2024-06-16T1400,3362A,120.5014,36.4034,青岛市,即墨2号,臭氧1小时,103,44,32,22,18,206,,128,128,20,23,8,7,0.5,0.5
2024-06-16T1400,3642A,120.3503,36.0736,青岛市,市北区南部,,37,29,26,3,12,118,,79,79,10,31,7,9,0.4,0.6
2024-06-16T1400,3643A,120.3948,36.1805,青岛市,李沧区北部,,43,14,35,14,17,136,,101,101,30,38,10,10,0.5,0.6
2024-06-16T1400,1702A,113.0426,23.691,清远市,环保大楼,颗粒物(PM10),79,107,34,28,12,50,,17,17,34,27,6,5,0.8,0.6
2024-06-16T1400,1703A,113.0208,23.7106,清远市,凤城街办,细颗粒物(PM2.5),67,70,26,48,16,37,,12,12,31,28,6,5,0.7,0.5
2024-06-16T1400,3025A,113.0477,23.6344,清远市,技师学院,颗粒物(PM10),63,75,27,31,14,66,,30,30,34,29,4,4,0.8,0.6
2024-06-16T1400,3318A,112.9903,23.7403,清远市,清新太和,颗粒物(PM10),59,68,25,37,15,38,,17,17,29,25,6,5,0.9,0.8
2024-06-16T1400,3455A,113.076,23.7198,清远市,清城东城,"颗粒物(PM10),细颗粒物(PM2.5)",55,59,25,39,16,47,,17,17,23,17,5,5,0.7,0.6
2024-06-16T1400,2661A,107.6325,35.7357,庆阳市,庆阳五中,,39,29,46,13,19,123,,143,119,6,10,2,3,0.3,0.3
2024-06-16T1400,2662A,107.6364,35.7067,庆阳市,市环保局,,36,30,45,12,17,115,,146,114,6,10,4,6,0.3,0.4
2024-06-16T1400,1916A,103.7897,25.5035,曲靖市,环境监测站,,22,14,27,12,16,68,,55,55,4,9,3,2,0.5,0.5
2024-06-16T1400,1917A,103.8,25.5364,曲靖市,烟厂办公区,,24,12,28,12,16,75,,63,63,3,8,4,4,0.4,0.5
2024-06-16T1400,3376A,103.7947,25.462,曲靖市,南苑二区,,22,,28,8,16,69,,62,62,4,8,4,4,0.6,0.6
2024-06-16T1400,3377A,103.7444,25.5261,曲靖市,曲靖师范学院,,25,6,21,3,17,78,,59,59,5,10,5,5,0.5,0.6
2024-06-16T1400,1264A,118.8692,28.9398,衢州市,环保大楼,,38,21,29,15,17,121,,71,71,12,18,4,4,0.3,0.3
2024-06-16T1400,1265A,118.8709,28.9666,衢州市,实验学校,,36,20,32,12,18,113,,69,69,8,18,1,4,0.2,0.2
2024-06-16T1400,1266A,118.8621,28.9808,衢州市,衢州学院,,35,21,29,14,19,111,,71,71,8,20,3,5,0.5,0.5
2024-06-16T1400,1611A,118.5819,24.9117,泉州市,涂山街,,16,16,24,3,11,39,,37,37,15,13,2,2,0.5,0.5
2024-06-16T1400,1612A,118.5972,24.8978,泉州市,津头埔,,14,14,24,6,11,41,,37,37,16,15,1,2,0.5,0.5
2024-06-16T1400,1613A,118.6663,24.9424,泉州市,万安,,16,15,23,11,10,38,,34,34,13,9,2,1,0.5,0.5
2024-06-16T1400,1614A,118.6117,24.9604,泉州市,清源山,,,,,,,,,,,,,,,,
2024-06-16T1400,3529A,118.6333,24.9264,泉州市,城华南路,,14,13,22,3,6,42,,36,36,11,14,2,2,0.4,0.4
2024-06-16T1400,2626A,88.8876,29.2718,日喀则市,日喀则监测站,,45,12,13,7,6,142,,121,121,4,6,5,6,0.5,0.6
2024-06-16T1400,3726A,88.8781,29.2426,日喀则市,林业技术推广中心,,44,10,15,3,3,140,,125,125,5,6,6,5,0.6,0.6
2024-06-16T1400,1659A,119.471,35.4209,日照市,监测站,,36,27,26,12,17,115,,63,63,28,32,13,10,0.3,0.4
2024-06-16T1400,1660A,119.523,35.4216,日照市,市政府广场,,38,27,25,12,13,120,,74,74,12,15,12,10,0.4,0.5
2024-06-16T1400,1661A,119.5587,35.4044,日照市,港务局,,34,34,22,3,9,108,,78,78,14,11,9,8,0.5,0.5
2024-06-16T1400,3507A,119.5328,35.4625,日照市,职业技术学院,,39,29,24,17,13,123,,86,86,14,15,11,8,0.6,0.5
2024-06-16T1400,3604A,119.3266,35.1044,日照市,岚山环保分局,,32,22,39,3,16,100,,70,70,11,24,7,15,0.4,1.4
2024-06-16T1400,1835A,111.1922,34.7752,三门峡市,市政府,颗粒物(PM10),56,62,64,28,30,131,,150,142,17,18,9,13,0.7,0.5
2024-06-16T1400,1836A,111.1587,34.7942,三门峡市,开发区,颗粒物(PM10),66,82,72,37,31,147,,175,158,19,22,11,14,0.9,0.8
2024-06-16T1400,1838A,111.143,34.7955,三门峡市,风景区,,,,,,,,,,,,,,,,
2024-06-16T1400,3039A,111.1911,34.7829,三门峡市,三门峡市第一小学,颗粒物(PM10),63,76,65,29,26,138,,165,149,12,14,8,11,0.8,0.7
2024-06-16T1400,3598A,111.1,34.7167,三门峡市,富达温泉假日酒店,颗粒物(PM10),56,62,76,38,39,149,,147,146,14,17,12,15,0.6,0.6
2024-06-16T1400,2324A,117.6211,26.2625,三明市,三钢,,19,,26,8,16,60,,28,28,7,15,5,6,0.8,0.8
2024-06-16T1400,2325A,117.635,26.2714,三明市,三明二中,,20,6,20,6,13,61,,30,30,6,13,6,7,0.6,0.6
2024-06-16T1400,2326A,117.6028,26.2378,三明市,三元区政府,,18,,35,12,19,56,,23,23,10,15,3,5,0.6,0.8
2024-06-16T1400,2327A,117.7275,26.3108,三明市,洋溪,,,,,,,,,,,,,,,,
2024-06-16T1400,1876A,109.5078,18.2489,三亚市,河东子站,,24,21,30,14,15,74,,88,86,2,2,4,3,0.4,0.4
2024-06-16T1400,1877A,109.4964,18.2681,三亚市,河西子站,,26,26,29,12,16,72,,80,80,2,4,1,1,0.3,0.3
2024-06-16T1400,3540A,109.7348,18.3443,三亚市,君悦子站,颗粒物(PM10),54,58,32,13,14,68,,60,60,5,7,2,2,0.4,0.4
2024-06-16T1400,2624A,91.7608,29.2313,山南市,山南监测站,,39,,9,6,5,123,,101,101,2,2,4,4,0.3,0.3
2024-06-16T1400,2625A,91.7706,29.2436,山南市,山南人民医院,,39,9,13,3,7,122,,101,101,5,7,6,6,0.4,0.3
2024-06-16T1400,1674A,116.6794,23.3667,汕头市,金平子站,,13,10,14,6,6,40,,47,47,11,12,1,2,0.7,0.7
2024-06-16T1400,1675A,116.7244,23.3633,汕头市,龙湖子站,,12,7,14,3,6,38,,48,47,13,13,5,6,0.7,0.7
2024-06-16T1400,1676A,116.7258,23.2775,汕头市,濠江子站,,24,24,15,3,5,43,,54,52,9,8,4,4,0.7,0.7
2024-06-16T1400,1677A,116.7519,23.4714,汕头市,澄海子站,,18,18,18,9,10,34,,38,38,12,16,6,5,0.7,0.7
2024-06-16T1400,1678A,116.6092,23.2539,汕头市,潮阳子站,,13,13,14,3,6,40,,51,49,10,6,4,4,0.6,0.6
2024-06-16T1400,3444A,116.454,23.2684,汕头市,潮南峡山,,11,11,16,3,6,30,,38,38,8,10,4,4,0.8,0.8
2024-06-16T1400,3624A,116.4069,23.2533,汕头市,潮南子站,,17,17,16,8,7,26,,38,38,16,8,6,6,0.8,0.7
2024-06-16T1400,1693A,115.3653,22.775,汕尾市,市环保局,,17,17,14,3,5,41,,41,41,1,5,4,4,0.6,0.6
2024-06-16T1400,1694A,115.3706,22.7898,汕尾市,市政府,,17,17,17,11,4,43,,40,40,2,5,5,6,0.5,0.5
2024-06-16T1400,1695A,115.3622,22.7925,汕尾市,新城中学,,20,20,21,3,4,41,,40,40,6,9,4,4,0.5,0.4
2024-06-16T1400,2645A,109.9154,33.8715,商洛市,监测站,,27,21,39,12,18,86,,74,72,11,13,4,5,0.5,0.5
2024-06-16T1400,3045A,109.9643,33.8471,商洛市,商州区中学,,31,18,51,15,23,98,,78,78,5,22,7,8,0.4,0.5
2024-06-16T1400,2408A,115.6702,34.4285,商丘市,环境监测站,颗粒物(PM10),61,72,58,41,27,112,,151,119,16,14,8,9,0.6,0.4
2024-06-16T1400,2409A,115.6458,34.4045,商丘市,粮食局,颗粒物(PM10),57,63,50,24,22,103,,148,118,16,11,4,5,0.5,0.3
2024-06-16T1400,2410A,115.6293,34.3948,商丘市,睢阳区环保局,细颗粒物(PM2.5),64,59,53,46,28,105,,157,122,17,11,4,5,0.5,0.4
2024-06-16T1400,3171A,115.6071,34.4465,商丘市,梁园区档案局,,49,49,53,29,24,108,,160,118,17,14,7,9,0.6,0.5
2024-06-16T1400,1141A,121.4,31.238,上海市,普陀,,45,,32,18,21,143,,102,102,13,24,4,6,0.4,0.4
2024-06-16T1400,1142A,121.478,31.2036,上海市,十五厂,,44,,30,13,22,138,,100,100,14,28,7,8,0.5,0.6
2024-06-16T1400,1143A,121.467,31.3008,上海市,虹口,,39,10,28,10,21,123,,96,96,17,29,5,9,0.4,0.5
2024-06-16T1400,1144A,121.412,31.1654,上海市,徐汇上师大,臭氧1小时,52,,33,18,26,161,,99,99,17,27,8,8,0.5,0.6
2024-06-16T1400,1145A,121.536,31.2659,上海市,杨浦四漂,,40,16,32,11,20,125,,93,93,19,33,7,8,0.5,0.7
2024-06-16T1400,1147A,121.425,31.2261,上海市,静安监测站,,45,,31,13,23,143,,103,103,16,27,8,9,0.5,0.6
