timepoint,stationcode,longitude,latitude,area,positionname,primarypollutant,aqi,pm10,pm10_24h,pm2_5,pm2_5_24h,o3,o3_24h,o3_8h,o3_8h_24h,no2,no2_24h,so2,so2_24h,co,co_24h
2024-05-15T0900,2566A,102.1879,31.914,阿坝藏族羌族自治州,州农科所,颗粒物(PM10),60,69,27,15,10,18,,21,20,25,17,3,3,0.4,0.3
2024-05-15T0900,2568A,102.2502,31.8896,阿坝藏族羌族自治州,马师校,,,,14,12,12,,,45,43,,9,,4,,0.2
2024-05-15T0900,3994A,102.2165,31.9024,阿坝藏族羌族自治州,马尔康中学西区,,24,24,20,14,15,44,,53,49,12,7,2,3,0.3,0.2
2024-05-15T0900,2695A,80.292,41.1694,阿克苏地区,电视台,颗粒物(PM10),158,266,271,82,77,48,,52,49,24,19,6,4,0.4,0.3
2024-05-15T0900,2696A,80.2613,41.1551,阿克苏地区,艺术中心,颗粒物(PM10),168,286,247,108,92,31,,24,24,39,28,4,4,0.5,0.4
2024-05-15T0900,2204A,105.6467,38.8363,阿拉善盟,西城区西花园,颗粒物(PM10),500,813,1409,172,334,67,,90,86,22,13,8,9,0.7,0.7
2024-05-15T0900,2205A,105.6985,38.8411,阿拉善盟,蒙二幼,颗粒物(PM10),457,557,872,175,290,80,,87,85,16,11,8,10,0.5,0.6
2024-05-15T0900,2206A,105.724,38.8516,阿拉善盟,环保局新楼,颗粒物(PM10),280,406,671,142,270,79,,94,90,16,10,10,11,0.6,0.6
2024-05-15T0900,2708A,88.1264,47.8517,阿勒泰地区,市站,,26,18,30,9,8,83,,80,80,7,13,5,6,0.2,0.3
2024-05-15T0900,2630A,80.1161,32.5,阿里地区,阿里监测站,,32,19,18,7,6,100,,128,122,34,12,9,8,0.5,0.4
2024-05-15T0900,3192A,80.0903,32.5028,阿里地区,阿里藏医院,,35,23,17,6,5,111,,134,128,18,7,8,7,0.6,0.5
2024-05-15T0900,2642A,109.0318,32.6537,安康市,香溪洞,,48,48,55,21,31,38,,46,45,7,7,8,8,0.5,0.5
2024-05-15T0900,2643A,109.0281,32.6939,安康市,安康市监测站,颗粒物(PM10),56,61,69,36,36,39,,31,31,12,11,11,11,0.6,0.5
2024-05-15T0900,2644A,109.0072,32.6975,安康市,汉滨区检察院,,43,43,53,25,28,36,,33,33,11,8,8,9,0.5,0.4
2024-05-15T0900,2291A,117.0809,30.5177,安庆市,环科院,颗粒物(PM10),55,60,66,32,34,83,,41,41,37,43,10,10,0.6,0.5
2024-05-15T0900,2292A,117.0331,30.5119,安庆市,马山宾馆,,,60,65,29,34,,,33,33,51,50,56,13,0.5,0.4
2024-05-15T0900,2294A,116.9896,30.6145,安庆市,安庆大学,颗粒物(PM10),74,98,74,46,37,50,,40,37,55,29,12,9,0.8,0.5
2024-05-15T0900,3173A,117.0598,30.5351,安庆市,市人大,颗粒物(PM10),55,60,65,35,34,82,,52,52,38,33,11,9,0.7,0.6
2024-05-15T0900,3122A,105.9606,26.2611,安顺市,伍家关,,,,,,,,,,,,,,,,
2024-05-15T0900,3123A,105.9408,26.2431,安顺市,凤凰山,,23,23,25,16,15,64,,77,76,10,6,9,10,0.8,0.7
2024-05-15T0900,3124A,105.9439,26.2564,安顺市,金钟山,,35,25,26,24,19,70,,75,74,6,5,4,6,0.1,0.2
2024-05-15T0900,3125A,105.8983,26.2481,安顺市,娄家坡,,36,36,39,24,22,61,,76,74,10,5,8,9,0.6,0.5
2024-05-15T0900,1818A,114.4839,36.0621,安阳市,棉研所,,,,,,,,,,,,,,,,
2024-05-15T0900,1819A,114.3551,36.1017,安阳市,红庙街,颗粒物(PM10),88,126,161,14,30,88,,83,82,3,7,4,6,0.3,0.5
2024-05-15T0900,1820A,114.361,36.0681,安阳市,银杏小区,颗粒物(PM10),92,134,133,7,40,89,,88,87,2,5,6,9,0.2,0.5
2024-05-15T0900,3141A,114.3922,36.0878,安阳市,信访局,颗粒物(PM10),128,206,134,5,33,87,,88,87,6,9,2,4,0.4,0.6
2024-05-15T0900,3669A,114.4705,36.0637,安阳市,左辅环卫站,颗粒物(PM10),64,77,124,12,32,89,,90,88,1,9,7,11,0.5,0.7
2024-05-15T0900,3703A,114.2917,36.0949,安阳市,安钢职工学校,颗粒物(PM10),132,214,161,11,31,85,,75,75,8,15,6,12,0.3,0.8
2024-05-15T0900,1748A,123.044,41.1196,鞍山市,深沟寺,细颗粒物(PM2.5),72,57,88,52,38,75,,46,46,11,17,9,10,0.5,0.7
2024-05-15T0900,1749A,123.011,41.0931,鞍山市,太阳城,,46,46,68,13,16,76,,50,50,17,19,13,12,0.7,0.9
2024-05-15T0900,1750A,123.0485,41.1442,鞍山市,太平,颗粒物(PM10),52,54,93,22,29,76,,46,46,14,22,7,10,0.4,0.7
2024-05-15T0900,1751A,122.9642,41.0971,鞍山市,铁西三道街,,,59,110,18,27,70,,41,41,21,27,,17,1.2,1.3
2024-05-15T0900,1752A,122.9341,41.0833,鞍山市,铁西工业园区,颗粒物(PM10),55,59,105,16,24,74,,46,46,15,22,7,20,0.4,0.8
2024-05-15T0900,1753A,123.022,41.0821,鞍山市,明达新区,颗粒物(PM10),58,66,81,13,19,70,,50,50,16,19,14,13,0.7,0.8
2024-05-15T0900,1754A,123.1289,41.0228,鞍山市,千山,,,,,,,,,,,,,,,,
2024-05-15T0900,2195A,107.4212,40.761,巴彦淖尔市,附二中,,,,159,,41,,,59,56,7,8,4,6,0.3,0.3
2024-05-15T0900,2196A,107.37,40.7372,巴彦淖尔市,市环保大楼,颗粒物(PM10),59,67,131,22,34,86,,65,64,7,9,4,5,0.4,0.4
2024-05-15T0900,1956A,86.1472,41.7538,巴音郭楞蒙古自治州,孔雀公园,颗粒物(PM10),81,112,85,30,26,100,,114,112,13,8,7,7,0.2,0.2
2024-05-15T0900,1957A,86.1972,41.7166,巴音郭楞蒙古自治州,棉纺厂,细颗粒物(PM2.5),90,119,94,67,32,82,,99,96,15,9,5,4,0.2,0.3
2024-05-15T0900,1958A,86.2357,41.7173,巴音郭楞蒙古自治州,经济开发区,颗粒物(PM10),89,128,88,38,29,97,,106,104,6,6,8,9,0.2,0.2
2024-05-15T0900,2914A,106.7677,31.8794,巴中市,苏山坪,颗粒物(PM10),56,62,69,38,40,58,,73,70,13,9,5,5,0.5,0.5
2024-05-15T0900,3182A,106.7656,31.8545,巴中市,丽阳花园,细颗粒物(PM2.5),64,64,77,46,52,35,,23,23,27,23,6,5,0.8,0.6
2024-05-15T0900,3183A,106.7418,31.8654,巴中市,圣泉水务公司,,,34,65,22,42,40,,32,32,,22,,4,0.5,0.6
2024-05-15T0900,3616A,106.7616,31.8344,巴中市,市中心医院,细颗粒物(PM2.5),64,65,80,46,53,34,,12,12,21,23,6,6,0.7,0.6
2024-05-15T0900,2235A,122.7911,45.6077,白城市,洮北区环保局,,20,18,16,8,10,63,,42,42,12,13,1,3,0.4,0.4
2024-05-15T0900,2236A,122.8738,45.5725,白城市,市环保局,,,,31,13,10,,,43,42,12,19,6,3,0.3,0.3
2024-05-15T0900,2231A,126.4219,41.9171,白山市,喜丰,,28,28,39,9,11,75,,53,53,12,11,10,10,1.0,1.1
2024-05-15T0900,2232A,126.4077,41.9419,白山市,环保局,,32,32,39,6,14,75,,56,56,11,10,9,10,0.6,0.7
2024-05-15T0900,2647A,104.1724,36.5446,白银市,第三小学,颗粒物(PM10),129,208,153,68,39,100,,104,102,34,13,355,60,1.0,0.6
2024-05-15T0900,2648A,104.1465,36.5482,白银市,动力公司,颗粒物(PM10),96,142,122,59,39,99,,95,93,29,12,122,32,0.9,0.5
2024-05-15T0900,2512A,106.6103,23.9011,百色市,市监测站,颗粒物(PM10),56,61,58,33,28,72,,108,101,13,12,8,13,0.9,0.8
2024-05-15T0900,2513A,106.6538,23.8859,百色市,市中心血站,细颗粒物(PM2.5),60,62,65,43,32,66,,102,94,20,14,7,12,0.8,0.6
2024-05-15T0900,3406A,106.6085,23.8798,百色市,祈福高中,细颗粒物(PM2.5),57,62,66,40,32,56,,86,81,23,16,9,15,0.9,0.8
2024-05-15T0900,2270A,117.396,32.939,蚌埠市,工人疗养院,颗粒物(PM10),152,253,91,44,35,80,,100,90,38,15,8,9,0.2,0.3
2024-05-15T0900,2271A,117.3605,32.9427,蚌埠市,百货大楼,颗粒物(PM10),163,276,102,53,34,82,,86,78,12,21,,5,0.3,0.5
2024-05-15T0900,2273A,117.4185,32.8911,蚌埠市,蚌埠学院,颗粒物(PM10),170,290,86,22,30,89,,99,96,7,16,5,7,0.2,0.4
2024-05-15T0900,2274A,117.3533,32.9673,蚌埠市,淮上区政府,颗粒物(PM10),148,246,96,40,42,92,,77,72,5,18,5,8,0.2,0.4
2024-05-15T0900,2275A,117.3145,32.8977,蚌埠市,高新区,颗粒物(PM10),156,261,104,47,35,94,,102,96,2,9,5,10,0.2,0.4
2024-05-15T0900,3715A,117.3092,32.9314,蚌埠市,蚌埠田家炳中学,颗粒物(PM10),148,246,110,52,36,94,,75,68,2,15,5,9,0.3,0.4
2024-05-15T0900,1585A,109.8756,40.6532,包头市,市环境监测站,颗粒物(PM10),52,53,86,16,16,67,,55,55,18,14,15,8,0.4,0.3
2024-05-15T0900,1587A,109.9991,40.5842,包头市,包头八中,颗粒物(PM10),62,74,124,20,19,71,,47,46,16,17,10,12,0.4,0.4
2024-05-15T0900,1588A,109.8538,40.6821,包头市,青山宾馆,颗粒物(PM10),55,60,94,26,17,64,,50,50,21,15,23,10,0.6,0.4
2024-05-15T0900,1589A,109.8642,40.6288,包头市,惠龙物流,颗粒物(PM10),53,55,74,20,17,74,,64,64,15,14,11,10,0.4,0.4
2024-05-15T0900,1590A,110.0377,40.5546,包头市,东河鸿龙湾,颗粒物(PM10),54,57,69,16,23,73,,52,51,12,13,8,13,0.5,0.5
2024-05-15T0900,3283A,109.9154,40.5685,包头市,滨河大厦,,,64,68,18,16,,,50,45,16,14,,13,0.2,0.2
2024-05-15T0900,3419A,109.9447,40.6261,包头市,包头市委党校,颗粒物(PM10),62,74,106,16,17,68,,61,59,21,16,20,12,0.4,0.3
2024-05-15T0900,3683A,109.8331,40.6576,包头市,昆区政府,颗粒物(PM10),54,57,85,18,17,72,,62,62,18,14,13,9,0.4,0.3
2024-05-15T0900,1930A,107.185,34.3063,宝鸡市,庙沟村,,34,34,45,15,19,57,,92,85,13,9,8,10,0.5,0.5
2024-05-15T0900,1931A,107.0708,34.3017,宝鸡市,竹园沟,,46,46,48,20,22,73,,88,85,19,13,5,6,0.5,0.5
2024-05-15T0900,1932A,107.1906,34.3672,宝鸡市,三陆医院,颗粒物(PM10),58,65,72,28,29,60,,58,57,33,30,8,9,0.6,0.5
2024-05-15T0900,1933A,107.1431,34.3547,宝鸡市,监测站,,50,50,57,25,26,61,,53,53,29,26,10,9,0.5,0.4
2024-05-15T0900,1934A,107.1186,34.3739,宝鸡市,技工学校,,41,41,54,22,31,71,,74,71,23,19,10,8,0.6,0.5
2024-05-15T0900,1935A,107.3906,34.3528,宝鸡市,陈仓区环保局家属楼,颗粒物(PM10),59,68,67,32,33,61,,66,62,30,20,13,15,0.5,0.4
2024-05-15T0900,1936A,107.2058,34.3497,宝鸡市,文理学院,颗粒物(PM10),53,56,64,24,30,66,,65,64,24,21,7,8,0.4,0.4
2024-05-15T0900,1937A,107.2386,34.3622,宝鸡市,三迪小学,颗粒物(PM10),53,56,69,24,27,66,,65,64,26,26,15,9,0.6,0.5
2024-05-15T0900,1051A,115.493,38.8632,保定市,游泳馆,,44,44,171,2,16,90,,87,87,2,3,3,3,0.3,0.2
2024-05-15T0900,1052A,115.5213,38.8959,保定市,华电二区,,31,31,84,7,28,80,,75,75,9,9,1,3,0,0.1
2024-05-15T0900,1053A,115.4713,38.9108,保定市,接待中心,,27,26,72,5,24,84,,78,78,4,4,2,2,0.1,0.2
2024-05-15T0900,1054A,115.4612,38.8416,保定市,地表水厂,,42,42,110,1,28,90,,86,86,8,6,1,2,0.0,0.1
2024-05-15T0900,3581A,115.31981,38.95208,保定市,满城区生态环境分局,,34,34,104,9,24,91,,82,82,1,3,3,3,0.2,0.2
2024-05-15T0900,3582A,115.47694,38.76408,保定市,清苑区第二中学,,49,49,134,2,23,89,,82,82,5,7,3,2,0.2,0.2
2024-05-15T0900,3583A,115.62909,39.02311,保定市,徐水物探局,,41,41,141,7,17,80,,80,79,9,6,1,3,0.2,0.2
2024-05-15T0900,4004A,115.4202,38.8656,保定市,双鹰农机,,34,34,93,9,32,98,,91,91,5,6,1,3,0.1,0
2024-05-15T0900,4034A,115.5150,38.8590,保定市,植保所站,,,36,112,15,44,,,86,86,6,8,1,3,0.3,0.2
2024-05-15T0900,2594A,99.1678,25.1081,保山市,市环境监测站,,41,41,36,27,20,52,,68,64,21,8,5,4,0.8,0.5
2024-05-15T0900,2595A,99.1711,25.1328,保山市,市环保局,,41,41,42,11,18,62,,85,80,18,6,4,4,0.7,0.5
2024-05-15T0900,1866A,109.2262,21.588,北海市,牛尾岭水库,,,,,,,,,,,,,,,,
2024-05-15T0900,1867A,109.1436,21.4086,北海市,海滩公园,,35,35,33,15,10,107,,107,105,8,6,11,8,0.5,0.6
2024-05-15T0900,1868A,109.0981,21.4661,北海市,新市环保局,,41,41,32,17,14,96,,106,103,15,9,11,8,0.7,0.7
2024-05-15T0900,1869A,109.1778,21.5233,北海市,北海工业园,,49,49,36,15,18,88,,86,82,17,10,16,12,0.7,0.6
2024-05-15T0900,3400A,109.1911,21.4415,北海市,龙潭自来水厂,,40,40,30,18,17,98,,96,94,10,8,10,7,0.6,0.6
2024-05-15T0900,1001A,116.3621,39.8784,北京市,万寿西宫,,27,16,31,4,8,85,,79,79,6,9,3,3,0.2,0.2
2024-05-15T0900,1002A,116.2202,40.2915,北京市,定陵,,,,,,,,,,,,,,,,
2024-05-15T0900,1003A,116.4174,39.9289,北京市,东四,,25,23,35,4,9,79,,70,70,10,12,3,2,0.2,0.2
2024-05-15T0900,1004A,116.4072,39.8863,北京市,天坛,,27,19,29,7,9,85,,71,71,8,12,2,2,0.1,0.2
2024-05-15T0900,1005A,116.462,39.9365,北京市,农展馆,,25,13,27,3,9,79,,75,75,12,14,3,2,0.2,0.1
2024-05-15T0900,1006A,116.3392,39.9295,北京市,官园,,27,24,37,4,9,86,,80,80,13,13,3,2,0.1,0.1
2024-05-15T0900,1007A,116.2878,39.9611,北京市,海淀万柳,,27,8,20,3,7,85,,80,79,11,12,3,4,0.2,0.2
2024-05-15T0900,1008A,116.6636,40.135,北京市,顺义新城,,27,17,33,4,8,86,,82,82,5,8,3,3,0.1,0.1
2024-05-15T0900,1009A,116.6275,40.3275,北京市,怀柔镇,,29,18,23,7,7,90,,88,88,2,2,3,3,0.2,0.2
2024-05-15T0900,1010A,116.2296,40.217,北京市,昌平镇,,24,14,29,4,6,76,,75,74,8,8,1,2,0.1,0.1
2024-05-15T0900,1011A,116.3966,39.9821,北京市,奥体中心,,24,20,30,7,10,74,,61,61,7,12,1,2,0.2,0.6
2024-05-15T0900,1012A,116.184,39.9136,北京市,古城,,40,40,41,13,11,86,,89,89,9,8,1,2,0,0
2024-05-15T0900,3281A,115.9718,40.4529,北京市,延庆夏都,,32,32,29,13,10,76,,91,88,10,4,1,3,0.1,0.1
2024-05-15T0900,3417A,117.0709,40.1465,北京市,平谷新城,,28,17,32,6,6,87,,83,82,5,6,3,3,0.1,0.1
2024-05-15T0900,3418A,116.8336,40.4095,北京市,密云新城,,28,13,23,4,6,87,,82,82,1,4,1,1,0.2,0.2
2024-05-15T0900,3671A,116.088,39.9726,北京市,门头沟三家店,,,,,,,,,,,,,,,,
2024-05-15T0900,3672A,116.1541,39.8204,北京市,丰台云岗,,26,19,36,7,12,81,,80,80,5,7,3,3,0.1,0.1
2024-05-15T0900,3673A,116.6804,39.9081,北京市,通州东关,,25,17,35,5,9,77,,72,72,3,5,2,3,0.2,0.2
2024-05-15T0900,3674A,115.9577,39.7603,北京市,房山燕山,,25,13,36,3,10,79,,82,82,5,5,1,1,0.2,0.1
2024-05-15T0900,3675A,116.4672,39.7733,北京市,大兴旧宫,,27,13,29,4,10,85,,76,76,8,11,3,3,0.2,0.2
2024-05-15T0900,3694A,115.986,40.4563,北京市,延庆石河营,,38,38,30,8,6,72,,88,84,14,5,1,3,0.1,0.1
2024-05-15T0900,3695A,116.6151,40.3053,北京市,怀柔新城,,27,18,26,7,10,85,,88,87,3,3,3,3,0.1,0.1
2024-05-15T0900,3696A,116.2545,39.8768,北京市,丰台小屯,,26,19,34,9,11,82,,84,83,6,5,3,3,0.2,0.2
2024-05-15T0900,3697A,116.84,40.3844,北京市,密云镇,,26,11,24,3,6,82,,74,74,2,6,3,3,0.1,0.1
2024-05-15T0900,1761A,123.8275,41.3064,本溪市,大峪,,30,26,55,9,14,94,,68,68,6,11,9,11,0.4,0.6
2024-05-15T0900,1762A,123.7567,41.3325,本溪市,溪湖,,45,45,66,6,13,92,,70,70,7,13,5,9,0.4,0.5
2024-05-15T0900,1763A,123.7169,41.3094,本溪市,彩屯,,27,27,51,15,25,85,,57,57,15,22,9,12,0.4,0.8
2024-05-15T0900,1764A,123.7669,41.2864,本溪市,东明,,44,44,63,10,15,85,,67,67,11,15,10,12,0.5,0.7
2024-05-15T0900,1765A,123.7992,41.2664,本溪市,新立屯,,46,46,53,9,14,88,,59,59,9,14,11,12,0.5,0.7
2024-05-15T0900,1766A,123.8142,41.3472,本溪市,威宁,,41,41,75,10,15,85,,46,46,9,21,6,8,0.4,0.6
2024-05-15T0900,2587A,105.2864,27.3125,毕节市,八中,,50,,29,35,23,121,,116,116,9,10,5,7,0.6,0.5
2024-05-15T0900,2588A,105.31,27.2944,毕节市,师专,,39,34,28,27,20,119,,115,115,9,11,6,10,0.5,0.5
2024-05-15T0900,3537A,105.3631,27.3533,毕节市,长征村,,45,32,31,25,23,141,,129,129,9,8,8,8,0.8,0.5
2024-05-15T0900,1629A,118.0018,37.3617,滨州市,第二水厂,颗粒物(PM10),64,78,116,7,31,84,,84,81,12,14,7,9,0.6,0.7
2024-05-15T0900,1630A,117.9776,37.393,滨州市,北中新校,颗粒物(PM10),73,95,116,17,34,73,,73,69,13,14,11,12,0.6,0.7
2024-05-15T0900,3514A,117.9378,37.3956,滨州市,中海酒店,颗粒物(PM10),68,85,97,17,32,83,,79,76,9,12,15,14,0.4,0.7
2024-05-15T0900,3515A,117.9378,37.3553,滨州市,开发区一中,颗粒物(PM10),68,85,128,17,38,78,,77,74,7,9,11,14,0.5,0.7
2024-05-15T0900,3516A,118.0917,37.694,滨州市,金海六路,颗粒物(PM10),70,90,111,34,28,90,,84,83,3,10,7,11,0.4,0.5
2024-05-15T0900,4028A,117.9956,37.3753,滨州市,滨州市西街道办事处,颗粒物(PM10),79,107,122,17,40,77,,78,76,12,14,10,12,0.6,0.7
2024-05-15T0900,2311A,115.8072,33.8399,亳州市,污水处理厂,,,102,130,40,34,89,,103,98,,10,,13,0.3,0.3
2024-05-15T0900,2312A,115.7789,33.8518,亳州市,三国揽胜宫,颗粒物(PM10),120,190,148,20,30,86,,112,104,5,6,10,12,0.5,0.5
2024-05-15T0900,3332A,115.7633,33.8034,亳州市,亳州学院,颗粒物(PM10),70,89,124,20,26,89,,118,111,6,6,11,14,0.4,0.4
2024-05-15T0900,2693A,82.0485,44.8556,博尔塔拉蒙古自治州,市党校,,30,30,40,4,15,49,,50,48,8,8,12,11,0.1,0.6
2024-05-15T0900,2694A,82.0806,44.8969,博尔塔拉蒙古自治州,市环保局,,,48,42,,20,39,,46,46,20,14,11,10,0.2,0.3
2024-05-15T0900,1071A,116.8842,38.2991,沧州市,沧县城建局,,34,34,89,22,32,87,,75,75,11,15,2,5,0.4,0.5
2024-05-15T0900,1072A,116.8584,38.3254,沧州市,电视转播站,,,37,89,27,27,79,,69,69,9,11,8,6,,0.4
2024-05-15T0900,1073A,116.8709,38.3228,沧州市,市环保局,,36,36,89,14,39,80,,69,69,9,12,2,6,0.2,0.4
2024-05-15T0900,3324A,116.8136,38.3004,沧州市,河北水利电力学院,,29,29,88,4,32,82,,71,71,12,14,2,7,0.1,0.3
2024-05-15T0900,2622A,97.1806,31.1273,昌都市,昌都监测站,,17,14,9,8,9,54,,78,70,13,6,7,6,0.4,0.4
2024-05-15T0900,3719A,97.1714,31.1406,昌都市,昌都会议中心,,14,13,8,9,6,43,,81,71,28,7,7,6,0.4,0.3
2024-05-15T0900,2690A,88.1236,43.8886,昌吉回族自治州,天山天池,,50,50,43,21,11,61,,57,57,6,8,9,10,0.5,0.6
2024-05-15T0900,2692A,87.2717,44.0297,昌吉回族自治州,新区政务中心,颗粒物(PM10),58,65,57,16,22,13,,32,30,31,23,10,10,0.7,0.5
2024-05-15T0900,3613A,87.3095,44.0142,昌吉回族自治州,亚心广场,颗粒物(PM10),74,97,72,19,18,21,,34,34,54,33,11,10,0.8,0.5
2024-05-15T0900,1119A,125.3325,43.9166,长春市,食品厂,,,26,34,7,12,,,47,45,17,24,,6,0.3,0.4
2024-05-15T0900,1120A,125.2863,43.9027,长春市,客车厂,,31,31,30,7,10,67,,53,52,13,18,5,4,0.3,0.3
2024-05-15T0900,1121A,125.2841,43.8463,长春市,邮电学院,,23,11,31,4,12,72,,50,50,9,16,7,7,0.3,0.3
2024-05-15T0900,1122A,125.3716,43.8772,长春市,劳动公园,,,10,28,4,8,,,61,60,,17,6,5,0.3,0.3
2024-05-15T0900,1123A,125.3297,43.8805,长春市,园林处,,21,12,28,7,13,67,,60,59,14,15,7,5,0.2,0.2
2024-05-15T0900,1124A,125.4605,43.79,长春市,净月潭,,23,19,26,4,8,72,,45,45,14,13,8,7,0.3,0.3
2024-05-15T0900,1125A,125.7194,43.515,长春市,甩湾子,,,,,,,,,,,,,,,,
2024-05-15T0900,1126A,125.3863,43.8447,长春市,经开区环卫处,,26,26,26,6,10,75,,56,56,14,13,6,5,0.3,0.3
2024-05-15T0900,1127A,125.245,43.7783,长春市,高新区管委会,,22,20,31,5,10,70,,36,36,13,19,6,6,0.3,0.4
2024-05-15T0900,1128A,125.1761,43.8325,长春市,岱山公园,,24,16,34,8,14,76,,36,36,9,21,6,6,0.3,0.3
2024-05-15T0900,1335A,113.0833,28.2325,长沙市,经开区环保局,颗粒物(PM10),61,71,79,35,34,66,,59,59,38,29,9,10,0.6,0.5
2024-05-15T0900,1336A,112.8872,28.2189,长沙市,高开区环保局,颗粒物(PM10),57,63,79,32,31,60,,78,78,63,40,8,9,0.9,0.7
2024-05-15T0900,1337A,113.0792,28.2053,长沙市,马坡岭,颗粒物(PM10),61,72,83,39,41,59,,44,44,26,31,10,9,0.6,0.5
2024-05-15T0900,1338A,112.9394,28.19,长沙市,湖南师范大学,颗粒物(PM10),77,103,77,37,28,81,,78,78,29,20,7,7,0.5,0.5
2024-05-15T0900,1339A,113.0178,28.1322,长沙市,雨花区环保局,颗粒物(PM10),53,56,71,28,28,85,,114,114,26,20,9,9,0.4,0.3
2024-05-15T0900,1340A,112.9792,28.2597,长沙市,伍家岭,颗粒物(PM10),64,77,92,31,41,57,,9,9,46,47,8,8,0.6,0.6
2024-05-15T0900,1341A,113.0014,28.1944,长沙市,火车新站,颗粒物(PM10),57,64,84,36,40,85,,74,74,35,41,7,6,0.7,0.8
2024-05-15T0900,1342A,112.9844,28.1178,长沙市,天心区环保局,颗粒物(PM10),58,66,72,25,28,89,,111,111,37,31,6,7,1.0,0.9
2024-05-15T0900,1343A,112.8908,28.1308,长沙市,湖南中医药大学,颗粒物(PM10),68,86,89,36,38,48,,11,11,43,45,8,8,1.0,0.9
2024-05-15T0900,1344A,112.9581,28.3611,长沙市,沙坪,,50,50,57,34,30,86,,100,100,15,13,9,9,0.4,0.4
2024-05-15T0900,1727A,113.1147,36.1547,长治市,清华站,,,,65,,23,,,101,93,9,11,11,11,,0.4
2024-05-15T0900,1728A,113.1031,36.1989,长治市,监测站,颗粒物(PM10),58,65,64,7,22,94,,101,94,12,15,14,16,0.7,0.8
2024-05-15T0900,1730A,113.0886,36.2125,长治市,审计局,,38,38,51,2,20,95,,102,94,8,11,13,16,0.2,0.4
2024-05-15T0900,1731A,113.0844,36.1856,长治市,长治八中,细颗粒物(PM2.5),93,,64,69,34,95,,104,95,11,14,8,11,0.4,0.6
2024-05-15T0900,2845A,113.1569,36.1911,长治市,德盛苑,,36,36,56,9,26,96,,102,95,6,9,8,8,0.4,0.5
2024-05-15T0900,3568A,113.06,36.0464,长治市,向阳小学,颗粒物(PM10),57,64,84,18,36,102,,111,101,8,11,12,14,0.5,0.6
2024-05-15T0900,3569A,112.8792,36.3144,长治市,屯留一中,颗粒物(PM10),53,56,69,11,27,93,,102,92,11,12,13,15,0.8,0.7
2024-05-15T0900,3570A,113.235,36.3489,长治市,潞城四中,颗粒物(PM10),58,66,79,10,28,94,,94,90,11,13,7,9,0.4,0.6
2024-05-15T0900,1854A,111.6975,28.9703,常德市,市二中,,,68,75,45,35,,,63,57,17,16,10,10,0.5,0.5
2024-05-15T0900,1857A,111.7158,29.1456,常德市,白鹤山,,,,,,,,,,,,,,,,
2024-05-15T0900,3138A,111.7153,29.0289,常德市,武陵区永安,颗粒物(PM10),67,84,84,42,34,76,,72,69,23,21,12,12,0.6,0.4
2024-05-15T0900,3139A,111.6892,28.9881,常德市,鼎城区玉霞,细颗粒物(PM2.5),62,66,78,44,34,74,,54,51,15,16,8,9,0.5,0.4
2024-05-15T0900,3140A,111.6625,29.0531,常德市,武陵区长庚,"颗粒物(PM10),细颗粒物(PM2.5)",69,87,78,50,33,66,,62,57,24,17,16,10,0.7,0.5
2024-05-15T0900,1196A,119.9633,31.762,常州市,市监测站,颗粒物(PM10),72,94,75,44,33,126,,76,76,40,28,16,11,0.7,0.6
2024-05-15T0900,1200A,119.9468,31.7069,常州市,武进监测站,,,62,54,36,28,119,,86,86,48,24,,10,0.6,0.4
2024-05-15T0900,1201A,119.9255,31.9087,常州市,安家,颗粒物(PM10),84,118,79,52,39,113,,59,59,46,32,14,10,0.7,0.6
2024-05-15T0900,3002A,119.9805,31.8174,常州市,行政中心,颗粒物(PM10),68,86,64,47,31,104,,66,65,48,23,16,11,0.6,0.5
2024-05-15T0900,3003A,120.0522,31.7748,常州市,经开区,颗粒物(PM10),82,114,82,45,33,103,,58,55,56,35,13,11,0.6,0.6
2024-05-15T0900,3010A,119.9025,31.7964,常州市,钟楼,,,107,73,50,31,,,79,74,49,26,14,11,0.7,0.6
2024-05-15T0900,3429A,119.8598,31.7066,常州市,武进经发区,颗粒物(PM10),71,92,79,49,35,126,,88,88,32,27,8,8,0.9,0.8
2024-05-15T0900,3430A,119.5826,31.7245,常州市,金坛城区,颗粒物(PM10),62,73,61,40,29,139,,103,103,20,17,12,10,0.8,0.7
2024-05-15T0900,2220A,120.4318,41.5881,朝阳市,西梁,,25,18,22,4,10,80,,69,69,5,8,7,9,0.3,0.3
2024-05-15T0900,2221A,120.4521,41.5646,朝阳市,河畔小区,,31,31,49,6,15,82,,76,76,8,9,8,8,0.3,0.3
2024-05-15T0900,2222A,120.4176,41.5648,朝阳市,八里堡,,38,38,57,8,13,80,,72,72,7,10,8,9,0.4,0.4
2024-05-15T0900,2223A,120.3806,41.5969,朝阳市,农业园区,,28,23,32,8,13,89,,80,80,5,7,7,7,0.3,0.3
2024-05-15T0900,1705A,116.6367,23.6719,潮州市,西园路,,25,24,33,12,14,78,,57,57,15,14,4,4,0.3,0.2
2024-05-15T0900,3026A,116.6183,23.6608,潮州市,市政府,,46,46,38,18,17,86,,67,66,23,16,9,8,0.6,0.5
2024-05-15T0900,4036A,116.6461,23.6761,潮州市,金山,,47,47,34,13,10,72,,55,55,11,13,7,8,0.5,0.4
2024-05-15T0900,2472A,113.0073,25.9061,郴州市,马头岭,颗粒物(PM10),146,241,88,14,14,40,,24,23,28,19,6,6,1.0,0.9
2024-05-15T0900,2473A,113.0116,25.8226,郴州市,市职中,,36,36,40,20,20,42,,31,31,22,15,9,7,0.6,0.5
2024-05-15T0900,2474A,113.0161,25.8001,郴州市,兴隆步行街,,,50,47,23,23,,,24,24,27,24,6,7,0.6,0.4
2024-05-15T0900,2475A,113.0383,25.8071,郴州市,市审计局,,39,39,38,22,17,48,,30,30,34,23,9,8,0.6,0.5
2024-05-15T0900,2476A,113.0348,25.7759,郴州市,市环保局,,,,44,,19,,,16,15,39,32,7,6,0.6,0.5
2024-05-15T0900,1431A,103.9728,30.7236,成都市,金泉两河,颗粒物(PM10),61,72,64,33,31,61,,21,21,28,24,14,4,0.5,0.5
2024-05-15T0900,1432A,104.176,30.6872,成都市,十里店,细颗粒物(PM2.5),104,135,65,78,31,43,,38,35,53,30,8,5,0.8,0.5
2024-05-15T0900,1433A,104.079,30.5706,成都市,三瓦窑,颗粒物(PM10),55,60,59,28,28,26,,13,12,63,41,5,3,0.8,0.5
2024-05-15T0900,1434A,104.1114,30.63,成都市,沙河铺,细颗粒物(PM2.5),65,72,53,47,25,27,,31,28,53,27,8,7,0.8,0.5
2024-05-15T0900,1437A,104.0786,30.6531,成都市,君平街,细颗粒物(PM2.5),82,104,64,60,29,45,,40,38,49,24,10,6,0.9,0.6
2024-05-15T0900,1438A,103.613,31.0283,成都市,灵岩寺,,,,,,,,,,,,,,,,
2024-05-15T0900,2880A,104.0239,30.65639,成都市,大石西路,细颗粒物(PM2.5),69,76,56,50,28,50,,29,27,45,24,9,4,0.8,0.5
2024-05-15T0900,3136A,104.2725,30.5589,成都市,龙泉驿区区政府,,46,46,37,27,18,68,,79,75,24,9,5,4,0.6,0.4
2024-05-15T0900,3357A,104.0106,30.6931,成都市,金博路,细颗粒物(PM2.5),65,78,61,47,29,46,,8,8,34,32,11,4,0.8,0.6
2024-05-15T0900,3359A,104.0578,30.5225,成都市,华阳,细颗粒物(PM2.5),70,85,50,51,32,40,,36,34,55,24,2,2,0.7,0.5
2024-05-15T0900,3487A,104.2394,30.5319,成都市,车城东七路,细颗粒物(PM2.5),59,62,52,42,28,73,,46,46,22,20,4,3,0.5,0.4
2024-05-15T0900,3488A,104.3853,30.7453,成都市,青白江技师分院,,43,43,44,12,18,64,,31,31,30,26,8,4,0.7,0.6
2024-05-15T0900,3489A,104.0789,30.4072,成都市,科学城,细颗粒物(PM2.5),98,96,56,73,30,59,,34,34,35,21,4,3,0.7,0.5
2024-05-15T0900,4011A,103.8506,30.6947,成都市,光华大道三段,"颗粒物(PM10),细颗粒物(PM2.5)",60,70,77,43,41,61,,31,31,29,29,18,4,0.9,0.8
2024-05-15T0900,1062A,117.9531,40.9081,承德市,铁路,,,,37,,7,,,69,68,8,6,6,6,,0.2
2024-05-15T0900,1063A,117.9392,40.9763,承德市,中国银行,,26,14,36,3,8,82,,68,68,7,8,8,8,0.2,0.2
2024-05-15T0900,1064A,117.9503,40.928,承德市,开发区,,26,22,37,10,14,81,,68,68,9,9,3,4,0.2,0.2
2024-05-15T0900,1065A,117.8051,40.9655,承德市,文化中心,,27,12,47,3,8,84,,50,50,6,13,7,7,0.2,0.2
2024-05-15T0900,1066A,117.9268,41.0026,承德市,离宫,,25,,25,7,11,78,,80,80,6,3,2,2,0.2,0.2
2024-05-15T0900,2314A,117.47,30.6618,池州市,池州学院,,48,48,54,28,27,107,,91,91,20,17,8,7,0.9,0.7
2024-05-15T0900,3237A,117.4918,30.6617,池州市,展览馆,,48,48,51,26,22,118,,94,94,16,14,7,5,0.9,0.7
2024-05-15T0900,3333A,117.5627,30.695,池州市,第八中学,,46,46,51,26,24,118,,90,90,8,14,7,5,0.8,0.6
2024-05-15T0900,3334A,117.5038,30.6243,池州市,第十二中学,,,65,53,29,23,94,,84,82,30,21,,7,0.9,0.7
2024-05-15T0900,1744A,118.9233,42.2816,赤峰市,松山一中,细颗粒物(PM2.5),68,,43,49,13,76,,69,69,16,13,9,9,0.4,0.3
2024-05-15T0900,1745A,118.9576,42.2728,赤峰市,哈达街,,23,15,36,5,9,71,,66,66,18,16,7,8,0.3,0.3
2024-05-15T0900,1746A,118.8788,42.2554,赤峰市,天义路,,,24,27,7,11,75,,74,74,,15,5,6,0.3,0.3
2024-05-15T0900,3058A,119.2658,42.0353,赤峰市,银河街,,25,5,32,3,12,80,,78,78,11,12,10,12,0.2,0.2
2024-05-15T0900,3286A,118.9359,42.3147,赤峰市,桥北物流园区,,25,15,43,1,11,77,,64,64,14,16,8,7,0.4,0.3
2024-05-15T0900,2521A,107.3476,22.4136,崇左市,市环保局江州分局,,38,38,46,23,24,78,,82,80,7,7,8,9,0.7,0.6
2024-05-15T0900,2522A,107.3702,22.3707,崇左市,城南新区,,35,35,42,22,20,80,,83,81,12,9,6,6,0.9,0.8
2024-05-15T0900,2298A,118.3093,32.3153,滁州市,老年大学,颗粒物(PM10),145,240,70,33,27,112,,66,66,13,19,9,8,0.5,0.7
2024-05-15T0900,2299A,118.3244,32.2786,滁州市,人大宾馆,颗粒物(PM10),136,222,74,29,33,112,,91,91,13,24,8,8,0.5,0.7
2024-05-15T0900,3207A,118.3118,32.3038,滁州市,市政府原办公楼,颗粒物(PM10),125,200,66,38,32,112,,72,72,13,22,8,8,0.5,0.7
2024-05-15T0900,3331A,118.3267,32.2634,滁州市,图书馆,颗粒物(PM10),143,236,77,24,29,,,82,79,,19,9,10,0.6,0.8
2024-05-15T0900,2605A,101.5482,25.0441,楚雄彝族自治州,州环境监测站,,49,,23,34,18,54,,70,62,32,11,16,7,0.7,0.5
2024-05-15T0900,2606A,101.538,25.0492,楚雄彝族自治州,市经济开发区,,35,27,28,24,17,56,,69,62,29,14,14,5,0.7,0.6
2024-05-15T0900,2548A,107.5277,31.2827,达州市,达州职业技术学院,细颗粒物(PM2.5),62,61,69,44,35,38,,11,11,14,34,9,8,0.5,0.9
2024-05-15T0900,2549A,107.5086,31.2186,达州市,市环境监测站,颗粒物(PM10),63,76,81,41,43,19,,7,7,30,42,8,9,0.7,1.1
2024-05-15T0900,2550A,107.4988,31.2132,达州市,凤凰小区,细颗粒物(PM2.5),70,78,86,51,47,28,,10,10,27,40,9,9,0.7,1
2024-05-15T0900,2551A,107.5082,31.1986,达州市,达县机关宾馆,细颗粒物(PM2.5),73,70,85,53,51,33,,10,10,25,43,6,6,0.7,0.9
2024-05-15T0900,2552A,107.4644,31.2124,达州市,市政中心,,,101,82,63,41,,,9,9,32,45,,13,0.9,0.9
2024-05-15T0900,2614A,100.1542,25.7054,大理白族自治州,大理市环境监测站,,33,33,36,20,17,82,,91,90,17,11,6,6,0.5,0.5
2024-05-15T0900,2615A,100.2171,25.5811,大理白族自治州,大理古城,,32,28,23,22,16,85,,78,78,15,13,8,8,0.7,0.6
2024-05-15T0900,1109A,121.612,38.9741,大连市,甘井子,颗粒物(PM10),71,92,112,23,30,78,,83,80,11,19,12,10,0.5,0.7
2024-05-15T0900,1110A,121.565,38.9511,大连市,周水子,颗粒物(PM10),66,82,92,23,32,76,,80,77,13,20,9,10,0.2,0.4
2024-05-15T0900,1111A,121.5637,38.8845,大连市,星海三站,颗粒物(PM10),60,70,99,7,24,81,,88,85,6,7,9,8,0.4,0.6
2024-05-15T0900,1112A,121.6302,38.9117,大连市,青泥洼桥,,42,42,87,13,26,72,,77,74,15,20,10,9,0.3,0.5
2024-05-15T0900,1113A,121.6251,38.8638,大连市,傅家庄,,34,34,77,7,25,81,,86,83,6,12,10,9,0.4,0.6
2024-05-15T0900,1114A,121.5213,38.8661,大连市,七贤岭,颗粒物(PM10),55,60,102,20,33,84,,85,83,9,14,10,9,0.5,0.5
2024-05-15T0900,1115A,121.2529,38.8061,大连市,旅顺,,42,42,24,12,28,81,,86,83,8,12,7,9,0.3,0.4
2024-05-15T0900,1116A,121.7485,39.1311,大连市,金州,,,52,83,,28,77,,82,79,7,14,8,10,0.5,0.6
2024-05-15T0900,1117A,121.7811,39.0496,大连市,开发区,颗粒物(PM10),56,62,93,9,29,76,,82,79,9,17,4,7,0.4,0.5
2024-05-15T0900,1118A,121.9762,39.0631,大连市,双D港,,26,26,90,6,23,79,,81,78,9,16,10,10,0.5,0.7
2024-05-15T0900,1789A,124.81117,46.03138,大庆市,大同区,,22,14,21,13,16,68,,49,49,2,7,6,6,0.3,0.3
2024-05-15T0900,1790A,125.129,46.533,大庆市,龙凤区,,21,11,21,6,17,66,,52,52,8,13,6,7,0.2,0.2
2024-05-15T0900,1791A,124.902,46.408,大庆市,红岗区,,,13,16,5,13,,,47,47,5,9,7,6,0.3,0.3
2024-05-15T0900,1792A,125.153,46.586,大庆市,萨尔图区,,20,20,15,6,6,59,,53,53,10,12,8,7,0.2,0.1
2024-05-15T0900,1793A,124.9042,46.6215,大庆市,让胡路区,,38,,23,26,16,65,,53,53,6,8,6,4,0.2,0.2
2024-05-15T0900,3481A,125.141,46.634,大庆市,萨区政府监测点,,19,19,20,7,7,50,,37,37,26,16,12,7,0.4,0.2
2024-05-15T0900,1721A,113.3819,40.1097,大同市,果树场,,,,,,,,,,,,,,,,
2024-05-15T0900,1723A,113.2994,40.0758,大同市,云冈宾馆,,44,44,64,13,18,82,,71,70,16,11,6,6,0.9,0.7
2024-05-15T0900,1724A,113.3444,40.0917,大同市,大同大学,颗粒物(PM10),58,65,60,19,20,77,,74,71,18,10,18,16,1.0,0.4
2024-05-15T0900,1725A,113.2661,40.1269,大同市,安家小村,颗粒物(PM10),76,102,73,23,20,69,,58,58,17,10,12,8,1.2,0.5
2024-05-15T0900,1726A,113.2711,40.0844,大同市,教育学院,颗粒物(PM10),62,73,67,15,15,76,,72,71,25,13,9,7,0.7,0.5
2024-05-15T0900,3282A,113.3397,40.0597,大同市,大同市卫生学校,颗粒物(PM10),54,57,55,14,18,79,,78,75,20,11,9,8,1.2,0.3
2024-05-15T0900,3565A,113.1367,40.1122,大同市,云冈站,颗粒物(PM10),62,73,73,27,28,81,,50,50,14,15,14,13,0.4,0.3
2024-05-15T0900,3566A,113.1186,40.2556,大同市,图书馆,颗粒物(PM10),57,64,58,36,24,74,,41,41,13,16,13,18,0.5,0.5
2024-05-15T0900,3567A,113.5931,40.0461,大同市,区一中,,36,36,70,4,14,82,,67,67,12,8,4,4,0,0
2024-05-15T0900,3676A,113.2802,40.0995,大同市,第二人民医院,颗粒物(PM10),66,81,72,30,19,80,,68,68,15,10,9,9,0.5,0.5
2024-05-15T0900,2269A,124.1069,50.4097,大兴安岭地区,科技局,,19,,13,9,13,60,,49,49,3,3,3,6,0.2,0.3
2024-05-15T0900,3663A,124.1164,50.4278,大兴安岭地区,红旗社区,,,,3,6,3,,,,,5,5,5,5,0.4,0.4
2024-05-15T0900,1600A,124.3303,40.0625,丹东市,江湾东路,,49,49,58,9,15,77,,89,86,13,8,8,8,0.3,0.4
2024-05-15T0900,1601A,124.4256,40.1503,丹东市,临江后街,,28,28,51,16,11,81,,90,88,12,9,7,8,0.2,0.3
2024-05-15T0900,1602A,124.3933,40.1461,丹东市,元宝山,,27,27,50,9,13,78,,88,85,9,10,9,9,0.3,0.4
2024-05-15T0900,1603A,124.3633,40.1092,丹东市,民主桥,,43,43,55,5,12,71,,80,77,15,9,10,11,0.2,0.2
2024-05-15T0900,3541A,109.5726,19.5167,儋州市,第一中学子站,,22,22,20,14,15,60,,71,68,5,4,4,4,0.5,0.4
2024-05-15T0900,3542A,109.5567,19.5187,儋州市,东坡学校子站,,23,23,19,7,9,58,,70,68,4,3,4,4,0.5,0.5
2024-05-15T0900,2616A,98.5842,24.428,德宏傣族景颇族自治州,德宏州监测站,细颗粒物(PM2.5),62,62,44,44,34,37,,51,49,27,16,2,12,1.0,0.7
2024-05-15T0900,3677A,98.5881,24.4368,德宏傣族景颇族自治州,芒市人民政府综合楼,细颗粒物(PM2.5),59,47,46,42,30,47,,54,52,21,13,7,6,0.8,0.6
2024-05-15T0900,1901A,104.4239,31.1208,德阳市,东山公园,颗粒物(PM10),67,83,64,44,32,71,,84,80,15,9,6,4,0.6,0.4
2024-05-15T0900,1902A,104.3826,31.1317,德阳市,西小区,细颗粒物(PM2.5),73,93,65,53,39,72,,42,42,31,22,4,4,0.8,0.5
2024-05-15T0900,1904A,104.3553,31.1091,德阳市,耐火材料厂,细颗粒物(PM2.5),67,80,63,48,35,78,,38,38,25,19,8,10,0.6,0.5
2024-05-15T0900,3639A,104.4019,31.1244,德阳市,市教育局,细颗粒物(PM2.5),80,89,58,59,32,57,,38,38,36,20,7,3,0.8,0.5
2024-05-15T0900,1622A,116.3032,37.4674,德州市,儿童乐园,颗粒物(PM10),51,51,115,7,34,86,,75,74,11,14,6,10,0.4,0.7
2024-05-15T0900,1624A,116.2991,37.4451,德州市,监理站,颗粒物(PM10),57,63,122,5,30,85,,76,73,10,11,4,11,0.4,0.6
2024-05-15T0900,3066A,116.2721,37.4379,德州市,九衢泉纯净水厂,,36,36,113,12,30,83,,70,67,12,15,4,8,0.2,0.5
2024-05-15T0900,3371A,116.3728,37.4403,德州市,开发区人民医院,,44,44,120,5,31,75,,70,67,8,8,7,10,0.5,0.5
2024-05-15T0900,3372A,116.3572,37.4094,德州市,太阳城中学,颗粒物(PM10),51,51,121,7,30,77,,70,67,13,11,5,8,0.9,0.7
2024-05-15T0900,3511A,116.5652,37.3319,德州市,陵城艺术中心,颗粒物(PM10),63,75,130,7,28,72,,69,65,9,9,5,9,0.3,0.5
2024-05-15T0900,2621A,99.7056,27.8317,迪庆藏族自治州,迪庆州站,,30,30,22,16,13,55,,73,69,22,11,8,8,0.6,0.4
2024-05-15T0900,3180A,99.7136,27.8094,迪庆藏族自治州,质量技术监督局,,30,30,22,12,5,72,,78,75,12,8,8,8,0.4,0.3
2024-05-15T0900,2663A,104.6241,35.5734,定西市,东关小学,颗粒物(PM10),82,113,65,25,25,51,,43,43,29,18,5,4,0.4,0.3
2024-05-15T0900,2664A,104.6194,35.5934,定西市,供电公司,颗粒物(PM10),81,111,65,37,26,60,,39,39,18,20,5,5,0.3,0.2
2024-05-15T0900,1389A,113.7547,23.0494,东莞市,莞城梨川,,,38,44,20,20,,,96,96,22,22,11,9,0.8,0.7
2024-05-15T0900,1390A,113.7944,23.0128,东莞市,东城石井,,44,44,40,18,18,113,,90,90,22,22,9,7,0.6,0.7
2024-05-15T0900,1391A,113.7383,22.9658,东莞市,南城西平,,50,50,43,21,19,83,,72,72,38,29,6,6,0.9,0.8
2024-05-15T0900,3319A,113.7338,23.0381,东莞市,万江金泰,,44,44,40,20,18,108,,94,94,18,20,9,8,0.6,0.6
2024-05-15T0900,3626A,113.7533,23.0202,东莞市,南城元岭,,50,50,45,20,18,114,,96,96,20,24,11,9,0.8,0.7
2024-05-15T0900,3627A,113.7875,23.0457,东莞市,东城主山,,43,43,41,21,19,109,,95,95,24,20,11,9,0.6,0.6
2024-05-15T0900,1666A,118.6614,37.4309,东营市,市环保局,,,68,103,12,27,,,97,95,13,12,6,10,0.1,0.2
2024-05-15T0900,3036A,118.6904,37.4338,东营市,开发区管委会,颗粒物(PM10),86,122,117,14,24,89,,92,91,8,13,2,6,0.3,0.5
2024-05-15T0900,3365A,118.5719,37.565,东营市,垦利区民丰路,细颗粒物(PM2.5),89,68,106,66,24,82,,89,86,12,14,11,12,0.3,0.6
2024-05-15T0900,3498A,118.5055,37.8612,东营市,河口城区,颗粒物(PM10),56,61,115,10,30,88,,89,87,8,11,5,8,0.1,0.4
2024-05-15T0900,3646A,118.4978,37.4623,东营市,胜利站,颗粒物(PM10),61,71,103,19,30,93,,93,90,9,13,10,13,0.3,0.6
2024-05-15T0900,3734A,118.35,37.26,东营市,理想之城,颗粒物(PM10),98,146,120,9,32,89,,84,82,8,12,9,12,0.5,0.8
2024-05-15T0900,1591A,110.0023,39.8129,鄂尔多斯市,综合楼,颗粒物(PM10),52,53,151,9,20,85,,81,81,12,14,4,3,0.4,0.4
2024-05-15T0900,1592A,109.9486,39.8261,鄂尔多斯市,巴音孟克林场办事处,颗粒物(PM10),54,58,127,9,20,83,,76,76,11,12,6,8,0.4,0.4
2024-05-15T0900,1593A,109.7736,39.5986,鄂尔多斯市,康泽苑,颗粒物(PM10),58,66,124,19,35,88,,83,83,12,13,5,6,0.4,0.3
2024-05-15T0900,1594A,109.8119,39.5989,鄂尔多斯市,华泰汽车城,颗粒物(PM10),56,61,118,22,31,85,,75,75,10,11,6,7,0.4,0.3
2024-05-15T0900,1595A,109.9734,39.7884,鄂尔多斯市,奥林花园,颗粒物(PM10),51,51,119,24,24,84,,85,85,12,12,5,6,0.5,0.4
2024-05-15T0900,2436A,114.8938,30.3994,鄂州市,市政府,颗粒物(PM10),59,68,65,31,31,90,,101,96,29,18,15,13,0.8,0.9
2024-05-15T0900,2437A,114.8989,30.3714,鄂州市,赵家坝,颗粒物(PM10),59,68,67,34,30,93,,99,95,24,14,6,4,0.5,0.5
2024-05-15T0900,3654A,114.8094,30.4089,鄂州市,精准医疗中心,颗粒物(PM10),73,96,87,36,35,114,,99,99,27,24,10,17,0.4,1.3
2024-05-15T0900,2454A,109.4978,30.2981,恩施土家族苗族自治州,湖北民院,,37,37,49,19,26,48,,45,45,21,22,8,8,0.5,0.4
2024-05-15T0900,2455A,109.4707,30.2798,恩施土家族苗族自治州,州电力总公司,,43,43,47,30,28,25,,18,18,32,29,9,9,0.7,0.6
2024-05-15T0900,3549A,109.5061,30.3772,恩施土家族苗族自治州,龙凤新区,,28,28,39,14,19,60,,43,43,8,13,6,7,0.5,0.5
2024-05-15T0900,2499A,108.3411,21.6158,防城港市,沙万,,44,44,39,16,19,72,,94,90,18,15,9,8,0.8,0.7
2024-05-15T0900,2500A,108.3514,21.7731,防城港市,防城档案局,,,47,40,21,20,56,,79,74,23,15,,5,0.7,0.8
2024-05-15T0900,2501A,108.3506,21.6414,防城港市,大海花园,,40,40,32,13,18,58,,94,88,27,13,9,7,0.9,0.7
2024-05-15T0900,1371A,113.1294,23.0067,佛山市,湾梁,,46,46,57,16,21,85,,77,76,31,22,7,6,0.4,0.4
2024-05-15T0900,1372A,113.1083,23.0478,佛山市,华材职中,,36,36,52,18,24,85,,78,76,30,24,6,4,0.5,0.5
2024-05-15T0900,1373A,113.144,23.0453,佛山市,南海气象局,,33,33,50,17,24,78,,70,69,34,25,7,6,0.5,0.5
2024-05-15T0900,1374A,113.2881,22.8094,佛山市,顺德苏岗,,43,43,42,17,22,84,,71,69,32,25,7,6,0.6,0.6
2024-05-15T0900,1376A,112.8383,22.8678,佛山市,高明孔堂,,35,35,46,20,23,95,,88,85,22,18,7,6,0.6,0.6
2024-05-15T0900,1377A,112.8836,23.1588,佛山市,三水监测站,,48,48,61,22,28,75,,51,50,40,41,7,8,0.6,0.6
2024-05-15T0900,1378A,112.867,23.185,佛山市,三水云东海,,47,47,49,30,27,80,,59,56,34,31,5,5,0.6,0.6
2024-05-15T0900,3625A,113.2544,22.7642,佛山市,容桂街道办,,41,41,42,9,17,105,,90,90,30,24,6,6,0.5,0.5
2024-05-15T0900,1280A,119.3903,26.0543,福州市,鼓山,,,,,,,,,,,,,,,,
2024-05-15T0900,1282A,119.2681,26.0504,福州市,师大,,45,45,33,18,12,84,,71,71,17,16,10,5,0.6,0.5
2024-05-15T0900,1283A,119.2984,26.1028,福州市,五四北路,,,,30,16,14,96,,77,77,19,18,4,4,0.5,0.4
2024-05-15T0900,1284A,119.2648,26.0768,福州市,杨桥西路,,43,43,36,20,13,81,,69,69,19,17,7,4,0.5,0.4
2024-05-15T0900,1285A,119.317,26.0746,福州市,紫阳,,41,41,34,15,12,79,,68,68,18,16,5,4,0.4,0.3
2024-05-15T0900,3048A,119.5799,26.0936,福州市,九龙,,42,42,24,19,9,99,,74,74,18,11,6,5,0.4,0.3
2024-05-15T0900,3526A,119.5189,25.9664,福州市,吴航,,37,37,27,18,14,66,,47,47,26,17,6,6,0.5,0.3
2024-05-15T0900,1755A,123.7977,41.8491,抚顺市,望花区,,36,36,62,22,18,90,,58,58,9,14,4,5,0.2,0.3
2024-05-15T0900,1756A,123.9161,41.8822,抚顺市,顺城区,,27,20,57,8,16,85,,39,39,8,22,6,8,0.2,0.3
2024-05-15T0900,1757A,124.0436,41.8611,抚顺市,东洲区,,29,24,51,20,19,79,,42,42,5,16,3,6,0.1,0.2
2024-05-15T0900,1758A,123.9247,41.8642,抚顺市,新抚区,颗粒物(PM10),55,60,69,8,13,87,,52,52,9,15,6,6,0.3,0.3
2024-05-15T0900,1759A,124.0972,41.8961,抚顺市,大伙房水库,,26,21,65,9,15,82,,42,42,5,15,6,7,0.1,0.2
2024-05-15T0900,1760A,123.7086,41.8391,抚顺市,沈抚新城,颗粒物(PM10),64,77,73,18,15,84,,41,41,4,15,5,5,0.2,0.3
2024-05-15T0900,2376A,116.2127,28.0814,抚州市,桐源党溪,,48,48,45,26,20,50,,35,35,13,12,12,14,0.6,0.5
2024-05-15T0900,2377A,116.3544,27.9831,抚州市,市站,,,37,47,25,23,,,51,51,,21,,8,,0.8
2024-05-15T0900,2378A,116.3565,27.963,抚州市,血防站,,44,44,48,23,21,60,,46,46,22,22,1,7,0.7,0.7
2024-05-15T0900,2379A,116.3564,28.0007,抚州市,采茶剧团,颗粒物(PM10),51,52,52,27,23,52,,42,40,23,22,6,7,0.7,0.7
2024-05-15T0900,2380A,116.385,27.9647,抚州市,医学分院,,48,48,53,22,19,69,,44,44,22,28,6,5,0.9,0.9
2024-05-15T0900,2207A,121.6094,41.998,阜新市,工业园区,,34,34,86,3,17,78,,70,70,8,10,6,6,0.3,0.3
2024-05-15T0900,2208A,121.6697,42.0279,阜新市,长青街,,26,18,50,4,12,83,,76,76,6,8,5,8,0.3,0.4
2024-05-15T0900,2209A,121.6673,42.0705,阜新市,农业园区,,43,43,97,5,8,75,,71,71,5,7,6,6,0.2,0.3
2024-05-15T0900,2210A,121.6717,42.0224,阜新市,东苑,,36,36,95,11,18,79,,73,73,4,7,5,10,0.2,0.3
2024-05-15T0900,2211A,121.6506,42.0498,阜新市,玉龙新城,,,35,60,5,17,,,70,69,6,8,6,6,0.4,0.3
2024-05-15T0900,2301A,115.8277,32.8929,阜阳市,市监测站,颗粒物(PM10),159,267,103,44,36,86,,96,93,11,23,7,8,0.2,0.4
2024-05-15T0900,2303A,115.8554,32.8605,阜阳市,开发区,颗粒物(PM10),170,289,109,34,29,87,,80,77,8,18,5,7,0.3,0.3
2024-05-15T0900,2875A,115.784,32.8892,阜阳市,阜阳职业技术学院,颗粒物(PM10),152,253,100,50,34,,,103,101,9,13,6,7,0.2,0.3
2024-05-15T0900,3468A,115.7901,32.8613,阜阳市,市规划展馆,颗粒物(PM10),166,282,94,48,43,92,,104,98,5,12,5,6,0.2,0.4
2024-05-15T0900,3469A,115.836,32.9183,阜阳市,枣园社区,颗粒物(PM10),166,282,94,39,33,89,,105,99,,19,6,8,0.2,0.3
2024-05-15T0900,2669A,102.9099,34.9841,甘南藏族自治州,州政府,,42,42,29,26,19,73,,68,61,25,12,9,7,0.8,0.6
2024-05-15T0900,3380A,102.8914,34.9617,甘南藏族自治州,甘肃民族师范学院,细颗粒物(PM2.5),60,53,33,43,16,72,,56,48,31,19,40,11,0.9,0.7
2024-05-15T0900,2570A,101.9603,30.0475,甘孜藏族自治州,水桥子,,22,12,17,7,9,48,,69,66,44,13,3,3,0.4,0.3
2024-05-15T0900,3065A,101.9533,29.9972,甘孜藏族自治州,州环保局,,22,13,21,2,6,69,,51,51,28,17,1,1,0.2,0.2
2024-05-15T0900,3414A,115.8347,28.932,赣江新区,桑海产业园,颗粒物(PM10),63,75,63,34,23,37,,37,37,57,40,10,10,1.0,0.6
2024-05-15T0900,2362A,114.9017,25.9149,赣州市,通天岩,,,,,,,,,,,,,,,,
2024-05-15T0900,2363A,114.9367,25.8664,赣州市,地委,,50,50,39,17,20,60,,45,45,20,16,20,12,0.4,0.4
2024-05-15T0900,2364A,114.9461,25.8481,赣州市,气象台,颗粒物(PM10),51,51,43,19,20,47,,35,35,33,22,12,9,0.4,0.4
2024-05-15T0900,2365A,114.9322,25.8333,赣州市,市图书馆,,49,49,43,29,18,59,,38,38,25,21,16,6,0.7,0.6
2024-05-15T0900,2366A,114.8905,25.8471,赣州市,华坚鞋城,,50,50,49,25,24,56,,34,34,25,29,20,16,0.5,0.4
2024-05-15T0900,3109A,115.0093,25.8613,赣州市,赣县区卫计委,细颗粒物(PM2.5),58,56,44,41,21,59,,34,34,30,25,6,5,0.6,0.5
2024-05-15T0900,2683A,106.2319,36.1417,固原市,马园,颗粒物(PM10),111,171,74,42,41,63,,34,34,34,34,15,7,0.4,0.3
2024-05-15T0900,2684A,106.2792,36.0022,固原市,监测站,颗粒物(PM10),114,178,68,24,22,85,,64,64,24,20,6,4,0.3,0.3
2024-05-15T0900,2685A,106.2375,36.0211,固原市,新区,颗粒物(PM10),115,179,74,27,22,80,,32,32,25,30,6,3,0.4,0.3
2024-05-15T0900,3522A,106.2177,35.9959,固原市,原州区十五小,颗粒物(PM10),115,179,76,45,28,96,,84,84,18,16,8,6,0.3,0.2
2024-05-15T0900,2543A,106.6308,30.5278,广安市,小平旧居,,,,,,,,,,,,,,,,
2024-05-15T0900,2544A,106.6303,30.4576,广安市,市委,颗粒物(PM10),54,57,56,24,29,69,,35,35,14,15,8,8,0.5,0.5
2024-05-15T0900,2545A,106.6271,30.4663,广安市,友谊中学,,38,38,46,20,27,66,,37,37,16,18,7,6,0.6,0.6
2024-05-15T0900,2547A,106.6388,30.4551,广安市,广电花园,,38,38,48,18,29,53,,34,34,18,15,8,8,0.6,0.6
2024-05-15T0900,2902A,106.6351,30.4865,广安市,北辰小学,颗粒物(PM10),53,56,58,20,28,36,,39,35,23,15,8,8,0.9,0.7
2024-05-15T0900,2523A,105.8945,32.4535,广元市,黑石坡,,50,48,46,35,26,45,,58,53,19,12,6,7,0.5,0.4
2024-05-15T0900,2524A,105.821,32.4444,广元市,老城,颗粒物(PM10),63,75,66,37,33,36,,20,20,35,33,22,9,1.2,0.6
2024-05-15T0900,2526A,105.8628,32.4287,广元市,监测站,细颗粒物(PM2.5),55,48,51,39,35,43,,51,48,26,11,8,6,0.7,0.4
2024-05-15T0900,3617A,105.8047,32.4166,广元市,经开区,细颗粒物(PM2.5),94,102,77,70,48,38,,22,22,29,22,34,9,1.4,0.8
2024-05-15T0900,1345A,113.2347,23.1423,广州市,广雅中学,颗粒物(PM10),53,55,53,28,22,58,,70,66,50,33,8,6,0.7,0.6
2024-05-15T0900,1346A,113.2612,23.105,广州市,市五中,,44,44,49,25,26,64,,76,71,44,27,6,5,0.7,0.6
2024-05-15T0900,1348A,113.3478,23.0916,广州市,广东商学院,颗粒物(PM10),55,59,46,29,23,48,,45,42,61,37,7,6,0.7,0.6
2024-05-15T0900,1349A,113.4332,23.1047,广州市,市八十六中,颗粒物(PM10),59,68,56,32,21,65,,30,30,61,44,10,7,0.8,0.7
2024-05-15T0900,1350A,113.3505,22.9483,广州市,番禺中学,,46,46,44,21,17,112,,80,80,31,28,7,6,0.5,0.5
2024-05-15T0900,1351A,113.2146,23.3916,广州市,花都师范,颗粒物(PM10),62,74,61,30,26,57,,56,50,48,30,8,8,0.7,0.5
2024-05-15T0900,1352A,113.2597,23.1331,广州市,市监测站,颗粒物(PM10),53,56,48,30,24,54,,61,57,49,30,7,6,0.6,0.5
2024-05-15T0900,1353A,113.5618,23.312,广州市,九龙镇镇龙,颗粒物(PM10),56,61,56,30,26,48,,31,30,36,27,7,7,0.6,0.6
2024-05-15T0900,1354A,113.2765,23.1544,广州市,麓湖,颗粒物(PM10),55,60,49,29,24,60,,35,32,42,33,8,6,0.6,0.5
2024-05-15T0900,1355A,113.443,23.3035,广州市,帽峰山森林公园,,46,46,42,26,18,75,,51,49,24,20,8,7,0.5,0.4
2024-05-15T0900,2846A,113.3221,23.1322,广州市,体育西,颗粒物(PM10),56,61,50,31,23,54,,57,53,49,30,8,6,0.6,0.6
2024-05-15T0900,3298A,113.5717,23.5491,广州市,从化街口,颗粒物(PM10),59,67,59,38,29,66,,26,26,27,30,6,7,0.9,0.7
2024-05-15T0900,3299A,113.3472,23.3692,广州市,白云竹料,颗粒物(PM10),58,66,59,34,28,73,,53,50,33,29,6,5,0.7,0.7
2024-05-15T0900,3300A,113.2981,23.237,广州市,白云嘉禾,颗粒物(PM10),63,75,53,32,23,64,,40,38,46,40,9,6,0.8,0.7
2024-05-15T0900,3301A,113.4256,23.1716,广州市,黄埔科学城,,,69,48,28,22,65,,40,39,40,30,,6,0.7,0.6
2024-05-15T0900,3302A,113.3942,23.0483,广州市,番禺大学城,颗粒物(PM10),57,63,48,29,20,76,,52,51,45,33,16,7,0.5,0.5
2024-05-15T0900,3303A,113.4922,22.8168,广州市,南沙黄阁,颗粒物(PM10),53,55,46,18,22,99,,75,75,30,30,7,6,0.7,0.7
2024-05-15T0900,3304A,113.5342,22.7896,广州市,南沙街,,35,35,42,14,17,108,,86,86,21,23,7,7,0.6,0.6
2024-05-15T0900,3443A,113.2902,23.5544,广州市,花都梯面,,36,36,44,20,23,72,,36,31,30,24,6,5,0.6,0.6
2024-05-15T0900,3445A,113.7858,23.7478,广州市,从化良口,,28,28,19,15,9,54,,37,36,12,12,5,6,0.6,0.5
2024-05-15T0900,3446A,113.8051,23.2614,广州市,增城荔城,,48,48,47,26,22,94,,66,66,16,19,12,6,0.6,0.6
2024-05-15T0900,2505A,109.568,23.1478,贵港市,德智高中,,,,,,,,,,,,,,,,
2024-05-15T0900,2506A,109.6047,23.0666,贵港市,江南子站,,,,59,,29,,,94,94,19,14,16,9,0.7,0.6
2024-05-15T0900,2507A,109.6014,23.0948,贵港市,贵城子站,,46,40,57,32,31,79,,89,88,15,14,15,9,0.6,0.6
2024-05-15T0900,2508A,109.5669,23.1065,贵港市,荷城子站,颗粒物(PM10),53,56,56,22,23,75,,90,90,16,14,16,11,0.6,0.6
2024-05-15T0900,3405A,109.5886,23.1172,贵港市,新世纪学校,颗粒物(PM10),51,51,51,24,27,80,,97,95,15,12,17,12,0.8,0.7
2024-05-15T0900,1439A,106.6899,26.5998,贵阳市,马鞍山,,36,36,32,14,15,15,,37,31,21,14,3,4,0.7,0.6
2024-05-15T0900,1440A,106.6971,26.5694,贵阳市,市环保站,,48,48,57,30,28,49,,47,44,32,33,5,6,0.6,0.5
2024-05-15T0900,1441A,106.6243,26.6266,贵阳市,鉴湖路,颗粒物(PM10),51,51,36,22,17,21,,66,59,29,12,4,4,0.6,0.5
2024-05-15T0900,1442A,106.7487,26.6343,贵阳市,燕子冲,,46,46,36,29,21,22,,51,44,31,14,6,7,0.7,0.4
2024-05-15T0900,1443A,106.6555,26.4365,贵阳市,碧云窝,,46,46,39,22,18,24,,24,20,25,10,5,6,0.7,0.6
2024-05-15T0900,1444A,106.694,26.5161,贵阳市,中院村,颗粒物(PM10),53,56,41,24,19,46,,37,34,31,21,9,8,0.9,0.5
2024-05-15T0900,1445A,106.7109,26.6027,贵阳市,红边门,,48,48,42,31,25,26,,55,48,38,24,6,5,0.7,0.6
2024-05-15T0900,1446A,106.7164,26.5699,贵阳市,新华路,,39,39,39,27,20,54,,57,52,22,17,4,5,0.5,0.5
2024-05-15T0900,1447A,106.674,26.5424,贵阳市,太慈桥,,39,39,37,22,17,12,,35,28,26,16,5,6,0.6,0.4
2024-05-15T0900,1552A,106.805,26.3003,贵阳市,桐木岭,,,,,,,,,,,,,,,,
2024-05-15T0900,1862A,110.4144,25.3167,桂林市,电子科大尧山校区,颗粒物(PM10),52,54,55,27,27,46,,35,35,6,7,10,7,0.4,0.5
2024-05-15T0900,1863A,110.2819,25.2697,桂林市,监测站,颗粒物(PM10),69,88,74,45,40,28,,49,46,40,22,14,14,0.8,0.6
2024-05-15T0900,1864A,110.3089,25.2708,桂林市,龙隐路小学,颗粒物(PM10),67,83,62,44,36,40,,56,52,33,16,26,16,0.8,0.7
2024-05-15T0900,1865A,110.2869,25.2178,桂林市,八中,颗粒物(PM10),61,71,64,42,29,36,,50,48,30,16,13,7,0.8,0.6
2024-05-15T0900,3403A,110.1764,25.2381,桂林市,创业大厦,细颗粒物(PM2.5),70,85,64,51,32,33,,25,25,39,27,15,18,0.8,0.6
2024-05-15T0900,3531A,110.296,25.1253,桂林市,旅游学院,,41,41,42,22,21,44,,38,38,13,12,10,6,0.5,0.5
2024-05-15T0900,2674A,100.2561,34.4714,果洛藏族自治州,玛沁县大武镇,,35,27,22,24,17,91,,98,93,19,12,21,13,0.6,0.4
2024-05-15T0900,1129A,126.5422,45.755,哈尔滨市,岭北,,22,5,10,4,6,68,,51,51,7,12,11,10,0.3,0.3
2024-05-15T0900,1130A,126.561,45.8167,哈尔滨市,松北商大,,21,21,16,2,6,60,,40,40,12,19,5,4,0.5,0.5
2024-05-15T0900,1131A,126.979,45.5419,哈尔滨市,阿城会宁,,27,27,27,10,15,53,,20,20,14,19,6,8,0.6,0.7
2024-05-15T0900,1132A,126.599,45.7222,哈尔滨市,南岗学府路,,21,14,20,3,4,66,,50,50,8,14,4,4,0.4,0.4
2024-05-15T0900,1133A,126.689,45.7733,哈尔滨市,太平宏伟公园,,25,25,17,4,9,64,,55,55,9,13,8,8,0.4,0.3
2024-05-15T0900,1134A,126.635,45.7667,哈尔滨市,道外承德广场,,20,10,19,3,17,64,,52,52,10,14,6,6,0.6,0.6
2024-05-15T0900,1135A,126.685,45.7319,哈尔滨市,香坊红旗大街,,22,22,17,8,9,65,,54,54,5,9,6,6,0.4,0.4
2024-05-15T0900,1136A,126.6411,45.7258,哈尔滨市,动力和平路,,35,,17,24,18,63,,46,46,12,18,6,6,0.3,0.4
2024-05-15T0900,1137A,126.593,45.7478,哈尔滨市,道里建国路,,,19,16,3,6,,,44,42,,19,6,6,0.3,0.2
2024-05-15T0900,1138A,126.615,45.61,哈尔滨市,平房东轻厂,,37,37,26,10,9,66,,32,32,6,21,7,7,0.2,0.2
2024-05-15T0900,1139A,126.595,45.9855,哈尔滨市,呼兰师专,,,,13,,6,,,41,41,11,11,,7,0.6,0.3
2024-05-15T0900,1140A,126.6206,45.6842,哈尔滨市,省农科院,,21,,21,12,18,67,,28,28,6,21,7,7,0.3,0.3
2024-05-15T0900,2688A,93.5128,42.8172,哈密市,地区监测站,颗粒物(PM10),500,1206,1119,395,315,71,,88,85,18,8,6,4,,0.2
2024-05-15T0900,2689A,93.4961,42.8328,哈密市,哈密师范学校,颗粒物(PM10),500,1053,978,384,314,48,,80,75,34,9,5,5,0.6,0.2
2024-05-15T0900,2671A,100.9048,36.9639,海北藏族自治州,海晏县西海镇,颗粒物(PM10),139,227,75,49,21,120,,100,100,19,16,16,12,0.5,0.4
2024-05-15T0900,3867A,102.0738,36.5056,海东市,平安区公安北苑,颗粒物(PM10),310,428,83,207,36,66,,,,33,12,15,11,1.0,0.5
2024-05-15T0900,1409A,110.576,19.9507,海口市,东寨港,,,,,,,,,,,,,,,,
2024-05-15T0900,1410A,110.3232,20.0574,海口市,海南大学,,38,38,27,13,11,96,,98,97,6,5,4,4,0.4,0.5
2024-05-15T0900,1411A,110.283,20.0053,海口市,秀英海南医院,,36,36,30,12,10,89,,95,93,7,5,4,4,0.4,0.3
2024-05-15T0900,1412A,110.338,19.9969,海口市,海南师范大学,,38,38,27,13,10,90,,92,91,5,3,6,6,0.4,0.4
2024-05-15T0900,1413A,110.33,20.0356,海口市,龙华路环保局宿舍,,39,39,28,12,9,92,,91,91,7,6,6,6,0.3,0.4
2024-05-15T0900,3539A,110.5111,19.9736,海口市,桂林洋子站,,34,34,20,11,9,96,,85,85,2,4,5,5,0.3,0.3
2024-05-15T0900,2673A,100.6188,36.2866,海南藏族自治州,共和县恰卜恰镇,,,,41,46,16,,,122,118,12,12,11,12,0.6,0.5
2024-05-15T0900,2676A,97.3731,37.3753,海西蒙古族藏族自治州,德令哈市,颗粒物(PM10),63,76,44,19,15,132,,145,142,7,5,8,6,0.5,0.5
2024-05-15T0900,1048A,114.5302,36.6116,邯郸市,东污水处理厂,,44,44,82,9,36,79,,83,82,6,10,6,8,0.1,0.4
2024-05-15T0900,1049A,114.4918,36.5713,邯郸市,矿院,,34,34,62,9,26,78,,80,79,5,9,7,9,0.4,0.6
2024-05-15T0900,1050A,114.484,36.6133,邯郸市,丛台公园,颗粒物(PM10),57,64,105,10,27,78,,78,77,5,7,6,8,0.2,0.4
2024-05-15T0900,3458A,114.7895,36.5593,邯郸市,香泉濮院小区,颗粒物(PM10),61,72,115,12,34,84,,84,83,4,7,6,7,0.2,0.3
2024-05-15T0900,3579A,114.50634,36.77178,邯郸市,永年区实验高中,,33,33,103,13,38,84,,78,78,10,14,8,12,0.3,0.5
2024-05-15T0900,3580A,114.20016,36.44293,邯郸市,峰峰矿区临水派出所,颗粒物(PM10),59,67,130,19,36,86,,91,90,7,9,2,6,0.2,0.5
2024-05-15T0900,2634A,106.9893,33.1842,汉中市,汉川机床厂子校,,39,39,55,20,28,58,,50,47,12,14,5,8,0.6,0.7
2024-05-15T0900,2635A,107.0154,33.0706,汉中市,市监测站,颗粒物(PM10),57,63,77,39,41,54,,46,46,25,20,16,11,1.1,0.7
2024-05-15T0900,2636A,107.0089,33.1138,汉中市,鑫源开发区,颗粒物(PM10),53,55,62,24,31,61,,50,50,19,21,20,14,1.0,0.7
2024-05-15T0900,2637A,107.007,33.0323,汉中市,南郑大河坎水厂,细颗粒物(PM2.5),62,63,69,44,44,36,,40,38,22,15,10,9,0.9,0.6
2024-05-15T0900,1223A,120.2072,30.2111,杭州市,滨江,颗粒物(PM10),63,75,77,28,34,72,,52,52,44,33,5,6,0.7,0.6
2024-05-15T0900,1224A,120.0633,30.2747,杭州市,西溪,颗粒物(PM10),64,78,59,44,29,102,,37,37,29,28,7,7,0.7,0.6
2024-05-15T0900,1226A,120.3461,30.3153,杭州市,下沙,颗粒物(PM10),60,70,84,36,37,91,,26,26,54,53,9,9,0.7,0.6
2024-05-15T0900,1227A,120.1269,30.2456,杭州市,卧龙桥,细颗粒物(PM2.5),58,57,55,41,32,96,,48,48,24,19,6,6,0.6,0.5
2024-05-15T0900,1228A,120.1903,30.2692,杭州市,浙江农大,颗粒物(PM10),56,61,78,32,37,100,,51,51,33,33,9,8,0.6,0.5
2024-05-15T0900,1230A,120.1197,30.3119,杭州市,和睦小学,颗粒物(PM10),54,58,66,33,31,102,,60,60,23,24,3,4,0.6,0.6
2024-05-15T0900,1231A,120.3019,30.4183,杭州市,临平镇,颗粒物(PM10),56,61,74,29,35,114,,58,58,35,30,7,7,0.5,0.5
2024-05-15T0900,1232A,120.2697,30.1819,杭州市,城厢镇,颗粒物(PM10),63,75,73,42,38,96,,62,62,35,38,7,7,0.7,0.6
2024-05-15T0900,1233A,120.0883,30.1808,杭州市,云栖,颗粒物(PM10),57,64,58,33,29,82,,48,48,47,29,8,8,0.8,0.6
2024-05-15T0900,3557A,119.9464,30.0494,杭州市,镇二中,,45,45,56,28,30,95,,58,58,30,33,8,8,0.9,0.7
2024-05-15T0900,3558A,119.7183,30.2367,杭州市,市府大楼,,46,46,58,31,30,68,,75,72,35,24,6,7,0.6,0.6
2024-05-15T0900,3656A,120.1556,30.2864,杭州市,消防大队,颗粒物(PM10),57,63,77,34,35,120,,63,63,26,33,9,8,0.7,0.6
2024-05-15T0900,1270A,117.1959,31.7848,合肥市,明珠广场,颗粒物(PM10),102,153,78,46,36,121,,48,48,28,43,10,8,0.7,0.6
2024-05-15T0900,1271A,117.3072,31.8764,合肥市,三里街,颗粒物(PM10),104,158,80,36,30,120,,62,62,27,43,9,8,0.5,0.5
2024-05-15T0900,1272A,117.2588,31.8707,合肥市,琥珀山庄,颗粒物(PM10),109,168,78,31,23,120,,54,54,26,30,12,10,0.5,0.4
2024-05-15T0900,1273A,117.1604,31.9052,合肥市,董铺水库,颗粒物(PM10),80,110,78,48,29,110,,46,46,25,27,4,2,0.5,0.4
2024-05-15T0900,1274A,117.25,31.8571,合肥市,长江中路,颗粒物(PM10),123,195,77,48,34,120,,61,61,22,34,7,6,0.7,0.6
2024-05-15T0900,1275A,117.266,31.9436,合肥市,庐阳区,颗粒物(PM10),189,327,97,53,38,122,,42,42,18,45,5,4,0.4,0.4
2024-05-15T0900,1276A,117.336,31.8586,合肥市,瑶海区,颗粒物(PM10),125,200,81,42,32,112,,82,82,25,32,10,9,0.7,0.7
2024-05-15T0900,1277A,117.3027,31.7964,合肥市,包河区,颗粒物(PM10),151,251,76,34,28,102,,19,19,43,57,10,8,0.5,0.4
2024-05-15T0900,1278A,117.2776,31.7385,合肥市,滨湖新区,颗粒物(PM10),98,146,68,39,31,95,,64,62,46,29,8,7,0.6,0.5
2024-05-15T0900,1279A,117.1318,31.8403,合肥市,高新区,颗粒物(PM10),111,171,76,48,35,,,70,64,37,33,9,8,0.8,0.7
2024-05-15T0900,3464A,117.3803,31.9147,合肥市,高教基地,颗粒物(PM10),102,153,71,38,30,111,,59,59,19,26,8,7,0.5,0.4
2024-05-15T0900,3614A,79.924,37.0877,和田地区,地区环保局,细颗粒物(PM2.5),160,253,176,122,59,88,,95,93,10,7,8,8,0.6,0.5
2024-05-15T0900,3615A,79.9131,37.113,和田地区,市环保局,颗粒物(PM10),143,235,178,56,58,64,,82,82,39,24,7,7,0.6,0.7
2024-05-15T0900,2516A,108.2011,24.715,河池市,东仁乐园,颗粒物(PM10),61,71,74,33,28,10,,11,11,15,11,3,4,0.8,0.7
2024-05-15T0900,2517A,108.0497,24.6947,河池市,市环保站,细颗粒物(PM2.5),58,57,53,41,29,26,,30,28,25,17,14,10,0.7,0.6
2024-05-15T0900,2518A,108.0983,24.6989,河池市,市疾控中心,"颗粒物(PM10),细颗粒物(PM2.5)",64,78,63,46,35,22,,31,29,33,22,10,10,0.7,0.6
2024-05-15T0900,1696A,114.6778,23.7569,河源市,源西,,,,,,,,,,,,,,,,
2024-05-15T0900,1697A,114.6944,23.7586,河源市,东埔,,,,45,,20,,,74,69,21,16,8,8,0.7,0.6
2024-05-15T0900,1698A,114.6892,23.7233,河源市,老城,,45,45,43,19,18,66,,64,59,17,14,7,7,0.7,0.5
2024-05-15T0900,1718A,115.4208,35.2464,菏泽市,气象局,颗粒物(PM10),54,58,146,28,39,95,,108,108,13,17,4,7,0.3,0.4
2024-05-15T0900,1719A,115.4747,35.2375,菏泽市,市政协,,44,44,126,20,49,94,,105,105,8,13,4,6,0.1,0.2
2024-05-15T0900,3374A,115.5564,35.0891,菏泽市,定陶老年大学,颗粒物(PM10),56,61,113,7,29,92,,93,93,12,15,9,7,0.3,0.5
2024-05-15T0900,3647A,115.4702,35.2706,菏泽市,菏泽医专,,40,40,123,8,29,98,,108,108,8,20,3,6,0.1,0.3
2024-05-15T0900,2514A,111.5264,24.4172,贺州市,环保小区,颗粒物(PM10),56,62,67,30,33,44,,44,41,22,18,8,7,0.8,0.7
2024-05-15T0900,2515A,111.5608,24.4078,贺州市,政协大楼,细颗粒物(PM2.5),53,50,58,37,29,53,,46,44,23,18,10,10,0.7,0.6
2024-05-15T0900,3534A,111.4744,24.4553,贺州市,西湾,,,77,75,38,37,,,26,23,24,24,10,9,0.7,0.6
2024-05-15T0900,2385A,114.17,35.9019,鹤壁市,市监测站,颗粒物(PM10),132,214,132,18,45,,,,,26,16,1,10,0.4,0.6
2024-05-15T0900,2386A,114.2956,35.7511,鹤壁市,市交警支队,颗粒物(PM10),52,54,113,12,38,87,,85,80,8,14,9,11,0.1,0.4
2024-05-15T0900,2387A,114.2878,35.7306,鹤壁市,迎宾馆,颗粒物(PM10),61,72,100,18,40,81,,87,81,10,16,11,15,0.3,0.5
2024-05-15T0900,3474A,114.2617,35.6822,鹤壁市,大新区,颗粒物(PM10),140,230,133,14,30,88,,83,78,11,18,10,12,0.3,0.6
2024-05-15T0900,3596A,114.1572,35.9603,鹤壁市,南山宾馆,颗粒物(PM10),57,64,129,19,38,94,,84,84,3,12,5,11,0.5,0.7
2024-05-15T0900,2244A,130.2537,47.3416,鹤岗市,哈啤分公司,,18,7,16,5,12,55,,47,47,3,3,11,11,0.4,0.4
2024-05-15T0900,2245A,130.2684,47.3086,鹤岗市,斯达机电,,,11,20,7,20,,,46,45,7,7,8,9,0.3,0.3
2024-05-15T0900,2246A,130.3114,47.3388,鹤岗市,东山纸板厂,,17,13,20,6,14,52,,43,43,4,6,12,12,0.4,0.5
2024-05-15T0900,2247A,130.1097,47.3382,鹤岗市,五号水库,,22,16,18,7,11,68,,43,43,3,4,10,10,0.1,0.1
2024-05-15T0900,2263A,127.4833,50.2524,黑河市,交通局,,20,9,12,8,13,61,,56,56,9,8,5,5,0.2,0.2
2024-05-15T0900,2264A,127.5144,50.2341,黑河市,环保局,,,14,14,5,12,,,63,63,5,5,3,4,0.3,0.3
2024-05-15T0900,2265A,127.5291,50.2472,黑河市,大黑河岛,,,,20,,12,,,67,,,16,,21,,0.4
2024-05-15T0900,1074A,115.6838,37.7541,衡水市,电机北厂,,28,28,103,5,30,70,,61,60,11,10,2,5,0.1,0.3
2024-05-15T0900,1075A,115.6303,37.7316,衡水市,市监测站,,43,43,113,3,29,72,,64,62,13,12,3,3,0.1,0.4
2024-05-15T0900,3188A,115.6683,37.7217,衡水市,市城管局,,,,96,,33,,,69,67,12,12,1,4,0.2,0.3
2024-05-15T0900,3459A,115.5989,37.5491,衡水市,地表水厂,,32,32,107,4,29,80,,71,71,7,10,3,5,0.2,0.4
2024-05-15T0900,2456A,112.5003,26.9167,衡阳市,原169医院,颗粒物(PM10),64,77,67,41,32,19,,27,20,21,26,8,8,0.9,0.8
2024-05-15T0900,2457A,112.6194,26.9258,衡阳市,衡阳化工总厂,颗粒物(PM10),78,106,91,50,35,54,,38,38,27,26,10,11,0.6,0.4
2024-05-15T0900,2458A,112.6211,26.8956,衡阳市,珠晖区环保局,"颗粒物(PM10),细颗粒物(PM2.5)",69,87,87,50,43,50,,26,26,34,34,12,9,1.0,0.8
2024-05-15T0900,2459A,112.6197,26.8733,衡阳市,市委党校,颗粒物(PM10),62,74,91,37,43,73,,20,20,24,32,22,13,0.7,0.7
2024-05-15T0900,2460A,112.6006,26.8919,衡阳市,市监测站,颗粒物(PM10),79,107,97,55,53,58,,26,26,32,31,16,10,1.1,1
2024-05-15T0900,2461A,112.5664,26.9056,衡阳市,真空机电公司,颗粒物(PM10),68,86,80,43,42,37,,23,23,41,32,17,11,1.2,0.8
2024-05-15T0900,3399A,112.6703,26.882,衡阳市,师范学院,细颗粒物(PM2.5),80,101,83,59,47,53,,20,20,31,24,17,12,0.8,0.7
2024-05-15T0900,2608A,103.3772,23.3993,红河哈尼族彝族自治州,污水处理厂,,30,29,26,21,18,73,,68,68,9,7,7,7,0.5,0.5
2024-05-15T0900,2609A,103.3861,23.35,红河哈尼族彝族自治州,监测站,,32,32,23,11,13,77,,67,67,8,7,5,7,0.4,0.4
2024-05-15T0900,3038A,103.3758,23.368,红河哈尼族彝族自治州,州图书馆,,30,27,21,21,14,73,,66,66,8,6,4,4,0.4,0.4
2024-05-15T0900,1090A,111.6507,40.7517,呼和浩特市,呼市一监,,29,29,40,14,12,81,,76,75,13,9,5,5,0.4,0.3
2024-05-15T0900,1091A,111.6572,40.8033,呼和浩特市,小召,,27,24,47,8,13,85,,81,80,13,8,6,5,0.3,0.3
2024-05-15T0900,1094A,111.7516,40.8369,呼和浩特市,如意水处理厂,,31,31,44,9,9,73,,58,57,16,12,5,5,0.4,0.3
2024-05-15T0900,1095A,111.7276,40.8062,呼和浩特市,二十九中,,36,36,41,11,12,76,,69,68,17,10,2,1,0.4,0.3
2024-05-15T0900,1096A,111.5512,40.7866,呼和浩特市,工大金川校区,,28,28,41,12,15,76,,64,64,17,14,5,4,0.3,0.2
2024-05-15T0900,1097A,111.717,40.7612,呼和浩特市,化肥厂生活区,,40,40,48,15,15,76,,69,69,14,9,6,6,0.4,0.3
2024-05-15T0900,3698A,111.5968,40.8178,呼和浩特市,红旗小学,,26,24,45,13,12,83,,75,75,14,11,4,3,0.3,0.2
2024-05-15T0900,3699A,111.6518,40.8389,呼和浩特市,海东办,,26,22,40,9,10,83,,67,67,12,10,3,4,0.4,0.3
2024-05-15T0900,2192A,119.7594,49.2261,呼伦贝尔市,区环保局,,,37,49,26,36,58,,58,57,17,13,,5,0.5,0.4
2024-05-15T0900,3061A,119.7512,49.1577,呼伦贝尔市,国华电力东,,28,27,52,19,33,70,,53,53,7,6,3,4,0.2,0.2
2024-05-15T0900,1250A,120.0751,30.8669,湖州市,城西水厂,颗粒物(PM10),68,86,74,44,31,100,,61,61,45,32,7,6,0.6,0.6
2024-05-15T0900,2873A,120.0875,30.8955,湖州市,仁皇山新区,"颗粒物(PM10),细颗粒物(PM2.5)",60,69,64,43,32,81,,54,51,55,36,12,7,0.7,0.7
2024-05-15T0900,2907A,120.1844,30.8596,湖州市,吴兴区站,"颗粒物(PM10),细颗粒物(PM2.5)",59,68,66,42,32,88,,58,56,45,26,8,7,0.6,0.5
2024-05-15T0900,3562A,120.4148,30.8538,湖州市,南浔区站,,,76,65,50,31,,,45,39,44,30,,8,0.6,0.4
2024-05-15T0900,1607A,120.9092,40.7136,葫芦岛市,龙港区,,34,34,82,6,12,76,,70,70,7,11,8,12,0.4,0.5
2024-05-15T0900,1608A,120.8392,40.7514,葫芦岛市,化工街,颗粒物(PM10),51,51,73,5,10,81,,70,70,9,13,9,10,0.6,0.7
2024-05-15T0900,1609A,120.8341,40.7073,葫芦岛市,新区,,,31,66,5,11,76,,72,72,13,13,,10,0.5,0.5
2024-05-15T0900,1610A,120.8695,40.7677,葫芦岛市,东城区,,34,34,56,4,8,80,,75,75,5,8,7,7,0.6,0.6
2024-05-15T0900,2482A,109.5981,27.5721,怀化市,林科所,颗粒物(PM10),51,51,48,33,21,70,,76,72,6,14,28,10,0.8,0.5
2024-05-15T0900,2483A,109.9453,27.5444,怀化市,河西地税局,细颗粒物(PM2.5),74,68,53,54,32,22,,25,24,30,20,9,5,0.7,0.6
2024-05-15T0900,2484A,109.9781,27.5342,怀化市,市四医院,颗粒物(PM10),72,94,73,51,36,42,,28,28,36,28,31,10,0.8,0.6
2024-05-15T0900,2485A,109.9972,27.5578,怀化市,监测楼,颗粒物(PM10),73,96,72,44,32,41,,26,26,31,21,53,11,0.8,0.6
2024-05-15T0900,2486A,110.0394,27.583,怀化市,市委党校,,,,80,,37,35,,19,19,37,27,,15,1.1,0.6
2024-05-15T0900,1210A,119.036,33.5981,淮安市,钵池山,,,,95,,41,,,139,135,11,19,8,10,0.4,0.7
2024-05-15T0900,1211A,119.007,33.575,淮安市,北京南路,颗粒物(PM10),63,75,111,20,39,93,,128,118,12,21,8,10,0.3,0.6
2024-05-15T0900,1212A,118.989,33.6067,淮安市,市监测站,颗粒物(PM10),52,53,110,29,42,94,,133,123,19,29,6,11,0.3,0.7
2024-05-15T0900,1213A,119.135,33.5039,淮安市,楚州区监测站,颗粒物(PM10),78,105,124,23,44,90,,113,109,13,32,7,10,0.4,0.7
2024-05-15T0900,1214A,119.0186,33.6297,淮安市,淮阴区监测站,颗粒物(PM10),57,63,106,27,42,92,,132,122,14,26,6,9,0.3,0.6
2024-05-15T0900,3426A,118.8755,33.2894,淮安市,新华书店,颗粒物(PM10),74,97,95,21,45,96,,131,122,15,22,6,8,0.3,0.6
2024-05-15T0900,2282A,116.8004,33.975,淮北市,监测站,,,141,99,16,39,,,114,112,10,14,7,9,0.5,0.5
2024-05-15T0900,2283A,116.8091,33.9007,淮北市,烈山区政府,,,,152,,32,,,89,84,9,14,5,8,0.4,0.5
2024-05-15T0900,3330A,116.8873,33.9836,淮北市,杜集区检察院,颗粒物(PM10),68,86,120,20,43,92,,100,95,10,15,6,8,0.4,0.5
2024-05-15T0900,4017A,116.7923,33.9535,淮北市,市博物馆,颗粒物(PM10),97,144,121,17,36,92,,107,102,8,13,7,9,0.5,0.5
2024-05-15T0900,2277A,116.8305,32.7727,淮南市,潘集区政府,颗粒物(PM10),200,350,117,51,44,90,,90,89,7,20,7,9,0.2,0.3
2024-05-15T0900,2278A,117.0067,32.6524,淮南市,师范学院,颗粒物(PM10),183,315,104,53,45,,,104,98,11,15,10,11,0.3,0.3
2024-05-15T0900,2279A,116.8569,32.5951,淮南市,谢家集区政府,颗粒物(PM10),282,407,113,41,41,92,,109,104,7,26,6,11,0.1,0.3
2024-05-15T0900,2280A,116.8281,32.633,淮南市,八公山区政府,颗粒物(PM10),183,315,102,40,34,,,110,,8,16,8,10,0.2,0.3
2024-05-15T0900,2281A,116.6325,32.6201,淮南市,焦岗湖风景区管理处,颗粒物(PM10),164,278,81,94,28,74,,59,59,16,32,8,4,0.2,0.2
2024-05-15T0900,2894A,117.0566,32.6531,淮南市,经济技术开发区消防队,颗粒物(PM10),243,380,99,52,41,94,,102,98,12,21,5,7,0.2,0.3
2024-05-15T0900,3329A,117.0108,32.5893,淮南市,山南新区,颗粒物(PM10),474,574,140,35,43,102,,129,124,9,13,6,7,0.2,0.3
2024-05-15T0900,2446A,114.9028,30.4742,黄冈市,职工中心,颗粒物(PM10),60,69,75,36,37,117,,103,103,12,12,6,12,0.4,0.5
2024-05-15T0900,2929A,114.8858,30.4519,黄冈市,红卫路,颗粒物(PM10),58,65,70,38,37,106,,96,94,12,17,7,10,0.7,0.6
2024-05-15T0900,3398A,114.9136,30.4445,黄冈市,市林业局,颗粒物(PM10),60,70,68,38,37,110,,104,102,18,12,5,8,0.3,0.4
2024-05-15T0900,2672A,102.0199,35.5102,黄南藏族自治州,同仁县隆务镇,,32,28,44,14,14,100,,107,105,3,3,9,10,0.6,0.5
2024-05-15T0900,2295A,118.2903,29.6963,黄山市,延安路89号,,43,41,41,30,17,42,,31,31,14,11,6,7,0.4,0.4
2024-05-15T0900,2296A,118.327,29.7178,黄山市,黄山东路89号,,49,49,44,29,22,64,,28,28,11,12,6,6,0.4,0.4
2024-05-15T0900,2297A,118.1371,30.2756,黄山市,黄山区政府5号楼,,38,38,33,22,18,71,,30,30,9,9,5,5,0.5,0.4
2024-05-15T0900,2423A,115.0601,30.2313,黄石市,沈家营,颗粒物(PM10),56,62,65,29,32,116,,88,88,21,26,37,20,0.7,1
2024-05-15T0900,2424A,115.0817,30.2006,黄石市,陈家湾,"颗粒物(PM10),细颗粒物(PM2.5)",64,78,65,46,33,82,,79,75,42,25,15,13,1.5,1
2024-05-15T0900,2426A,114.8988,30.2019,黄石市,铁山,颗粒物(PM10),59,67,64,37,29,106,,99,97,28,18,24,17,1.3,0.6
2024-05-15T0900,2427A,115.0307,30.2092,黄石市,团城山,颗粒物(PM10),60,70,70,32,27,96,,86,85,30,21,22,21,0.9,0.9
2024-05-15T0900,3149A,115.0235,30.1578,黄石市,笔架山北路,颗粒物(PM10),56,61,65,28,29,119,,109,108,25,17,15,18,0.8,0.8
2024-05-15T0900,1392A,114.4183,23.0528,惠州市,河南岸金山湖子站,,35,35,34,15,16,92,,91,89,13,11,6,6,0.4,0.4
2024-05-15T0900,1393A,114.4053,23.0822,惠州市,下埔横江三路子站,,40,40,35,16,14,104,,112,110,20,15,8,8,0.6,0.6
2024-05-15T0900,1394A,114.4103,23.1142,惠州市,江北云山西路子站,,37,37,35,20,16,102,,109,106,16,10,7,6,0.5,0.5
2024-05-15T0900,1395A,114.4645,22.7833,惠州市,惠阳区承修路船湖子站,,38,38,34,16,14,93,,77,73,26,17,7,5,0.5,0.4
2024-05-15T0900,1396A,114.5317,22.7422,惠州市,大亚湾管委会子站,,36,36,31,16,12,101,,82,78,31,20,7,6,0.6,0.5
2024-05-15T0900,3314A,114.4338,22.8134,惠州市,惠阳秋长,,38,36,36,14,13,119,,102,99,15,12,8,6,0.6,0.6
2024-05-15T0900,3452A,114.6517,22.775,惠州市,大亚湾霞涌,,37,26,28,24,11,116,,82,82,8,10,6,7,0.4,0.4
2024-05-15T0900,2240A,130.9762,45.3001,鸡西市,环保局,,19,16,24,4,12,60,,59,58,5,10,5,6,0.3,0.5
2024-05-15T0900,2243A,130.9429,45.3039,鸡西市,第一中学,,26,,19,18,12,64,,57,56,3,8,7,8,0.2,0.3
2024-05-15T0900,3707A,131.0207,45.3073,鸡西市,欧美日汽修厂,,25,25,21,2,15,57,,50,49,10,15,3,3,0.3,0.5
2024-05-15T0900,3709A,130.9967,45.3106,鸡西市,市政设施管理处,,19,17,23,13,12,55,,44,43,15,16,7,7,0.4,0.5
2024-05-15T0900,2367A,114.9754,27.0803,吉安市,红声器材厂,颗粒物(PM10),51,51,56,29,22,70,,48,48,24,27,15,13,0.5,0.4
2024-05-15T0900,2368A,114.9658,27.0999,吉安市,市森林工业局,,,48,52,33,26,,,38,36,28,26,17,14,,0.4
2024-05-15T0900,2369A,114.99,27.1312,吉安市,市环境监测站,,50,50,50,28,23,64,,49,49,24,27,14,14,0.6,0.6
2024-05-15T0900,2370A,115.0093,27.0968,吉安市,青原区法院,颗粒物(PM10),55,60,50,34,25,60,,45,45,26,24,21,18,0.4,0.4
2024-05-15T0900,1772A,126.54,43.8622,吉林市,哈达湾,,24,12,37,8,15,76,,51,51,10,14,5,8,0.4,0.5
2024-05-15T0900,1773A,126.5844,43.8358,吉林市,东局子,,28,28,43,11,17,62,,32,32,16,20,4,6,0.5,0.6
2024-05-15T0900,1774A,126.5052,43.8245,吉林市,电力学院,,25,20,44,4,15,77,,42,42,8,13,7,8,0.4,0.5
2024-05-15T0900,1775A,126.6133,43.8972,吉林市,江北,,28,28,50,8,20,64,,35,35,23,22,11,9,0.6,0.6
2024-05-15T0900,1776A,126.555,43.8306,吉林市,江南公园,,24,24,43,11,17,65,,39,39,15,18,5,7,0.5,0.6
2024-05-15T0900,1778A,126.7061,43.7133,吉林市,丰满,,,,,,,,,,,,,,,,
2024-05-15T0900,2868A,126.4739,43.953,吉林市,九站,,26,24,42,8,16,81,,55,55,8,19,7,8,0.4,0.5
2024-05-15T0900,1299A,116.9862,36.6114,济南市,科干所,,,80,110,7,25,,,82,79,13,12,,9,0.7,0.7
2024-05-15T0900,1300A,116.9376,36.665,济南市,农科所,颗粒物(PM10),78,105,124,12,21,73,,70,65,15,16,6,7,0.5,0.6
2024-05-15T0900,1301A,117.1265,36.6734,济南市,开发区,颗粒物(PM10),73,95,129,20,30,78,,88,85,17,15,10,9,0.6,0.7
2024-05-15T0900,1303A,117.0624,36.6868,济南市,省种子仓库,颗粒物(PM10),124,197,162,9,27,74,,77,73,11,13,6,6,0.4,0.4
2024-05-15T0900,1304A,116.9489,36.6447,济南市,机床二厂,颗粒物(PM10),109,168,162,27,37,75,,84,79,14,11,10,11,0.3,0.3
2024-05-15T0900,1305A,117.0495,36.663,济南市,市监测站,颗粒物(PM10),73,95,115,12,29,79,,90,86,20,21,9,10,0.3,0.4
2024-05-15T0900,1306A,116.7675,36.5484,济南市,长清党校,颗粒物(PM10),69,88,112,10,24,75,,85,81,15,13,9,10,0.5,0.5
2024-05-15T0900,1616A,117.6795,36.229,济南市,技术学院,颗粒物(PM10),86,122,114,12,33,86,,92,88,17,15,12,11,0.4,0.5
2024-05-15T0900,1961A,117.532,36.6868,济南市,东山小学,,,117,123,10,30,,,88,85,,14,,8,,0.4
2024-05-15T0900,3059A,117.7161,36.2049,济南市,泰兴公司,,,61,90,12,27,,,85,81,11,11,,11,0.7,0.8
2024-05-15T0900,3064A,117.6867,36.2171,济南市,莱芜战役纪念馆,颗粒物(PM10),57,63,101,17,36,77,,82,77,12,13,9,10,0.6,0.9
2024-05-15T0900,3494A,117.1673,36.9782,济南市,济阳区政府,颗粒物(PM10),72,93,122,12,30,71,,68,63,15,18,10,11,0.6,0.7
2024-05-15T0900,3495A,117.1171,36.63,济南市,锦屏中学,颗粒物(PM10),68,85,104,12,24,80,,85,81,11,11,9,8,0.3,0.4
2024-05-15T0900,3682A,116.9814,36.6819,济南市,济南四建,颗粒物(PM10),109,168,124,15,29,71,,80,75,15,17,9,9,0.3,0.4
2024-05-15T0900,1653A,116.6251,35.4302,济宁市,火炬城,,48,48,123,9,22,87,,100,95,6,8,6,8,0.4,0.5
2024-05-15T0900,1655A,116.5491,35.4042,济宁市,电化厂,颗粒物(PM10),58,65,131,7,32,88,,99,96,2,8,4,6,0.5,0.6
2024-05-15T0900,3500A,116.5814,35.3707,济宁市,北湖一中,,,87,119,7,24,,,100,95,7,9,3,4,0.1,0.3
2024-05-15T0900,3501A,116.8249,35.5593,济宁市,服务中心,,34,34,140,5,21,80,,85,85,7,14,3,4,0.4,0.5
2024-05-15T0900,3678A,116.5907,35.4054,济宁市,市第七中学,颗粒物(PM10),56,62,117,9,23,91,,106,100,6,10,4,6,0.3,0.5
2024-05-15T0900,2255A,130.2751,46.8028,佳木斯市,佳纺,,,15,19,6,10,,,47,45,5,6,2,3,0.3,0.4
2024-05-15T0900,2256A,130.3995,46.8307,佳木斯市,发电厂,,20,9,13,8,12,63,,53,53,3,5,4,5,0.3,0.4
2024-05-15T0900,2257A,130.3258,46.7975,佳木斯市,环保局,,20,14,16,8,9,62,,50,50,4,8,4,4,0.4,0.4
2024-05-15T0900,2258A,130.3648,46.8032,佳木斯市,十一中,,20,14,16,10,9,63,,56,56,7,9,6,6,0.4,0.4
2024-05-15T0900,2259A,130.3794,46.7588,佳木斯市,四丰,,19,9,15,4,6,60,,52,52,5,7,1,1,0.5,0.5
2024-05-15T0900,1252A,120.7436,30.778,嘉兴市,清河小学,细颗粒物(PM2.5),78,97,57,57,21,98,,58,58,46,28,9,6,1.0,0.8
2024-05-15T0900,1253A,120.726,30.7478,嘉兴市,嘉兴学院,"颗粒物(PM10),细颗粒物(PM2.5)",68,85,54,49,21,90,,53,53,41,20,11,8,0.6,0.5
2024-05-15T0900,2872A,120.7846,30.7525,嘉兴市,南湖区残联,细颗粒物(PM2.5),73,65,52,53,24,113,,49,49,34,26,11,9,0.6,0.5
2024-05-15T0900,3407A,120.6916,30.7739,嘉兴市,秀洲住建,细颗粒物(PM2.5),65,78,53,47,23,106,,46,46,26,19,9,8,0.6,0.5
2024-05-15T0900,1945A,98.2908,39.7711,嘉峪关市,气象局,颗粒物(PM10),500,1025,2992,361,838,63,,79,76,21,7,2,4,0.5,0.4
2024-05-15T0900,2884A,98.2672,39.7978,嘉峪关市,酒钢宾馆,颗粒物(PM10),500,1133,2989,493,814,69,,70,69,22,18,52,16,0.9,0.7
2024-05-15T0900,3248A,98.2643,39.7724,嘉峪关市,雄关区,颗粒物(PM10),500,837,2284,250,593,31,,75,68,44,9,13,8,0.8,0.5
2024-05-15T0900,1383A,113.1064,22.6058,江门市,北街,,42,42,39,15,17,112,,88,88,24,19,5,5,0.5,0.5
2024-05-15T0900,1384A,113.0731,22.5835,江门市,西区,,49,49,45,12,18,96,,95,94,25,19,8,8,0.6,0.4
2024-05-15T0900,1385A,113.0219,22.5311,江门市,圭峰西,,48,48,39,19,14,100,,92,90,28,18,7,5,0.6,0.6
2024-05-15T0900,1386A,113.0828,22.5947,江门市,东湖,,34,34,39,22,14,102,,90,89,24,18,6,6,0.5,0.5
2024-05-15T0900,3311A,113.1075,22.5647,江门市,江海富民,,42,42,46,12,16,102,,93,93,30,21,6,5,0.5,0.5
2024-05-15T0900,3449A,113.05,22.4667,江门市,新会银湖,,,50,36,14,12,,,50,44,17,18,5,4,0.5,0.5
2024-05-15T0900,1828A,113.227,35.2125,焦作市,市环保局,颗粒物(PM10),68,86,138,23,38,91,,99,91,8,11,2,4,0.2,0.4
2024-05-15T0900,1830A,113.1992,35.2590,焦作市,影视城,,,,,,,,,,,,,,,,
2024-05-15T0900,3169A,113.2725,35.2067,焦作市,太极体育中心,颗粒物(PM10),87,124,160,20,34,93,,97,89,9,15,8,10,0.2,0.2
2024-05-15T0900,3335A,113.3137,35.2641,焦作市,马村街道办,颗粒物(PM10),78,106,156,18,28,90,,98,91,2,9,2,4,0.2,0.4
2024-05-15T0900,3336A,113.2465,35.2373,焦作市,焦作技师学院,颗粒物(PM10),78,105,133,19,35,84,,94,87,8,13,3,3,0.1,0.4
2024-05-15T0900,3477A,113.1656,35.2539,焦作市,中站许衡医院,颗粒物(PM10),77,103,108,43,41,90,,101,92,2,9,4,8,0.1,0.4
2024-05-15T0900,3981A,113.2449,35.1803,焦作市,原李万街道办,,,,138,,30,,,,,5,11,3,8,0.2,0.4
2024-05-15T0900,1708A,116.3701,23.5345,揭阳市,新兴,颗粒物(PM10),59,68,40,23,20,95,,73,73,18,18,11,11,0.7,0.5
2024-05-15T0900,1709A,116.3264,23.5443,揭阳市,西马,,,65,42,29,20,,,64,60,20,14,,11,0.7,0.6
2024-05-15T0900,1710A,116.3611,23.5626,揭阳市,东兴,颗粒物(PM10),60,69,47,22,16,87,,62,62,20,17,12,13,0.7,0.6
2024-05-15T0900,1711A,116.4151,23.5294,揭阳市,渔湖,颗粒物(PM10),61,71,49,40,25,90,,48,48,17,20,13,11,0.7,0.6
2024-05-15T0900,3320A,116.403,23.5699,揭阳市,曲溪,颗粒物(PM10),51,52,44,25,23,94,,70,70,24,21,13,11,0.6,0.5
2024-05-15T0900,1944A,102.1692,38.5167,金昌市,天庆家园,颗粒物(PM10),500,740,2186,296,668,57,,74,70,30,11,174,39,0.5,0.3
2024-05-15T0900,3170A,102.1864,38.5253,金昌市,市委党校,颗粒物(PM10),500,934,1578,290,588,66,,80,76,17,7,26,7,0.6,0.3
2024-05-15T0900,4022A,102.1647,38.5371,金昌市,金川区人防中心,颗粒物(PM10),500,807,2783,330,771,64,,81,77,20,10,23,10,0.3,0.2
2024-05-15T0900,1262A,119.647,29.077,金华市,十五中,颗粒物(PM10),54,58,46,26,22,98,,68,68,29,27,5,4,0.6,0.5
2024-05-15T0900,1263A,119.686,29.1029,金华市,监测站,,,64,53,32,26,,,73,73,28,25,3,3,0.4,0.4
2024-05-15T0900,3659A,119.656,29.1131,金华市,气象局,颗粒物(PM10),55,60,53,25,22,93,,62,62,33,38,6,5,0.5,0.5
2024-05-15T0900,1767A,121.1115,41.0879,锦州市,南山,细颗粒物(PM2.5),92,,66,68,23,84,,84,84,9,8,8,12,0.4,0.4
2024-05-15T0900,1768A,121.0533,40.8434,锦州市,开发区,颗粒物(PM10),71,91,109,2,23,81,,52,52,8,19,8,10,0.4,0.5
2024-05-15T0900,1769A,121.1836,41.1119,锦州市,百股街道,,,,74,,18,,,97,,,9,,9,,0.4
2024-05-15T0900,1770A,121.1178,41.1222,锦州市,天安街道,,47,47,68,5,12,82,,81,80,6,7,5,7,0.4,0.4
2024-05-15T0900,1771A,121.1303,41.1386,锦州市,北湖公园,,26,22,45,7,11,81,,77,77,4,7,6,7,0.4,0.5
2024-05-15T0900,2160A,112.85,35.5051,晋城市,自来水公司,颗粒物(PM10),59,67,78,7,23,94,,112,103,14,17,5,10,0.4,0.8
2024-05-15T0900,2161A,112.8318,35.4936,晋城市,白云商贸,,42,42,82,0,23,93,,114,106,13,18,6,11,0.3,0.8
2024-05-15T0900,2162A,112.8508,35.4887,晋城市,市环保局,,,51,101,7,24,,,116,108,12,16,6,11,0.3,0.7
2024-05-15T0900,2163A,112.8676,35.4897,晋城市,技术学院,,38,38,74,0,21,90,,114,104,15,18,6,10,0.4,0.8
2024-05-15T0900,2165A,112.8453,35.546,晋城市,白马寺,,,,,,,,,,,,,,,,
2024-05-15T0900,3620A,112.8271,35.4828,晋城市,泽州一中,,48,48,85,0,20,89,,114,105,17,21,6,12,0.6,0.9
2024-05-15T0900,2171A,112.7532,37.6945,晋中市,锦纶小区,细颗粒物(PM2.5),83,78,88,61,23,100,,82,82,7,18,9,12,0.2,0.4
2024-05-15T0900,2173A,112.7249,37.7067,晋中市,南都小区,,48,48,79,11,24,95,,79,79,8,18,8,11,0.2,0.4
2024-05-15T0900,2174A,112.6991,37.6982,晋中市,榆次区政府,,48,48,82,12,26,97,,82,81,9,19,7,11,0.1,0.3
2024-05-15T0900,2865A,112.7195,37.6828,晋中市,榆次三中,颗粒物(PM10),60,70,92,5,16,93,,86,85,8,17,8,24,0.3,0.5
2024-05-15T0900,2439A,112.2014,31.0481,荆门市,竹园小学,"颗粒物(PM10),细颗粒物(PM2.5)",84,118,109,62,54,95,,97,92,19,20,15,13,0.6,0.6
2024-05-15T0900,2440A,112.1969,30.9891,荆门市,掇刀,颗粒物(PM10),87,123,110,57,50,102,,106,103,18,18,16,14,0.6,0.6
2024-05-15T0900,2441A,112.2213,31.0386,荆门市,石化一小,颗粒物(PM10),100,149,121,61,52,94,,81,81,20,27,16,21,0.6,0.7
2024-05-15T0900,3012A,112.1849,31.0362,荆门市,西山林语,颗粒物(PM10),88,126,96,53,47,108,,96,93,17,16,16,12,0.5,0.6
2024-05-15T0900,3547A,112.1632,31.0138,荆门市,龙泉中学南校,颗粒物(PM10),79,108,102,48,47,113,,88,88,12,20,14,12,0.4,0.5
2024-05-15T0900,1844A,112.2494,30.3197,荆州市,市图书馆,细颗粒物(PM2.5),67,70,77,48,42,80,,99,93,39,21,12,10,0.7,0.6
2024-05-15T0900,1845A,112.2008,30.3544,荆州市,市委党校,细颗粒物(PM2.5),87,96,80,64,42,81,,97,92,30,21,12,11,0.8,0.7
2024-05-15T0900,3194A,112.2747,30.3122,荆州市,管委会,细颗粒物(PM2.5),85,93,75,63,43,91,,109,104,33,17,10,9,0.7,0.6
2024-05-15T0900,3548A,112.1655,30.3364,荆州市,学苑路,细颗粒物(PM2.5),97,90,68,72,46,77,,91,85,27,20,7,7,0.7,0.6
2024-05-15T0900,2342A,117.3102,29.3867,景德镇市,王港中学,,,,,,,,,,,,,,,,
2024-05-15T0900,2343A,117.2117,29.2933,景德镇市,老干部活动中心,,36,36,41,24,22,54,,36,36,20,21,7,8,0.4,0.3
2024-05-15T0900,2344A,117.1894,29.2789,景德镇市,兽医站,,42,42,49,26,23,68,,38,38,13,18,10,9,0.4,0.4
2024-05-15T0900,2345A,117.1547,29.2617,景德镇市,台达陶瓷,,33,33,49,19,28,64,,44,44,17,30,9,21,0.2,0.3
2024-05-15T0900,2346A,117.2461,29.2956,景德镇市,陶研所,,36,36,38,22,16,60,,24,24,18,19,4,4,0.2,0.3
2024-05-15T0900,1803A,115.9872,29.6815,九江市,十里,,,44,45,15,17,,,66,60,41,28,14,13,0.8,0.6
2024-05-15T0900,1804A,115.9584,29.7046,九江市,茅山头,,42,42,43,16,18,59,,92,84,46,26,8,10,0.6,0.5
2024-05-15T0900,1805A,115.9877,29.7295,九江市,西园,颗粒物(PM10),54,57,50,34,23,52,,57,52,49,34,20,16,0.6,0.6
2024-05-15T0900,1806A,116.0172,29.6547,九江市,五七二七厂,,42,42,42,15,17,96,,100,100,41,14,13,12,0.7,0.6
2024-05-15T0900,1808A,115.9114,29.6038,九江市,综合工业园,颗粒物(PM10),53,55,51,27,24,37,,76,65,56,32,12,12,0.8,0.6
2024-05-15T0900,1809A,116.0721,29.7535,九江市,石化总厂,颗粒物(PM10),52,54,51,34,22,81,,71,71,54,26,19,18,0.5,0.6
2024-05-15T0900,1810A,115.9773,29.5698,九江市,庐山气象台,,39,34,43,10,15,122,,140,137,3,4,12,10,1.0,0.7
2024-05-15T0900,3190A,116.0254,29.6994,九江市,外国语学校,颗粒物(PM10),51,51,45,22,20,72,,61,60,51,34,15,11,0.6,0.5
2024-05-15T0900,2658A,98.5061,39.7443,酒泉市,仓门街子站,颗粒物(PM10),500,854,6148,214,588,68,,81,79,7,5,8,8,0.2,0.2
2024-05-15T0900,2659A,98.4989,39.7256,酒泉市,油田生活基地,颗粒物(PM10),500,889,6149,205,579,64,,82,79,10,4,10,10,0.2,0.2
2024-05-15T0900,2698A,76.0072,39.4467,喀什地区,巡警大队,颗粒物(PM10),115,180,106,46,18,21,,16,16,51,39,3,2,0.5,0.4
2024-05-15T0900,2699A,75.9755,39.4694,喀什地区,吾办,颗粒物(PM10),58,65,94,28,38,46,,24,24,30,40,3,3,0.9,0.7
2024-05-15T0900,4027A,75.9483,39.4689,喀什地区,老干局,颗粒物(PM10),109,168,134,31,48,45,,18,18,22,42,4,4,0.5,0.5
2024-05-15T0900,1824A,114.3389,34.7781,开封市,肿瘤医院,,48,48,158,10,29,88,,95,95,5,12,3,4,0.2,0.4
2024-05-15T0900,1826A,114.2885,34.7965,开封市,世纪星幼儿园,颗粒物(PM10),64,77,152,12,53,82,,94,93,9,11,5,6,0.2,0.4
2024-05-15T0900,3147A,114.3438,34.8106,开封市,龙亭公园,颗粒物(PM10),60,69,169,11,41,82,,90,90,3,10,4,8,0.3,0.6
2024-05-15T0900,3210A,114.3644,34.7964,开封市,汴京公园,颗粒物(PM10),55,60,130,11,37,87,,94,94,6,13,3,4,0.2,0.4
2024-05-15T0900,3473A,114.2485,34.8306,开封市,技师学院,颗粒物(PM10),86,121,164,25,45,81,,92,92,19,15,7,6,0,0.4
2024-05-15T0900,3592A,114.4644,34.7556,开封市,祥符区生态环境局,颗粒物(PM10),58,65,130,10,40,77,,82,82,13,23,9,8,0.2,0.5
2024-05-15T0900,1951A,84.895,45.6094,克拉玛依市,长征新村,,,,32,,9,64,,76,76,9,9,7,8,,0.2
2024-05-15T0900,1952A,84.8988,45.5893,克拉玛依市,南林小区,,37,37,34,10,13,79,,82,82,8,13,7,8,0.2,0.3
2024-05-15T0900,1954A,84.905,44.3396,克拉玛依市,独山子区,,38,38,43,18,24,70,,76,74,20,12,7,8,0.5,0.3
2024-05-15T0900,1955A,85.6979,46.098,克拉玛依市,乌尔禾区商贸楼,,21,21,33,2,8,56,,78,74,1,4,8,9,0.2,0.1
2024-05-15T0900,3612A,85.1045,45.6899,克拉玛依市,白碱滩区新站,,29,29,32,8,19,88,,85,85,3,9,8,8,0.2,0.3
2024-05-15T0900,2697A,76.1454,39.7142,克孜勒苏柯尔克孜自治州,市人民政府,,37,37,44,12,24,75,,80,80,18,13,7,10,0.5,0.5
2024-05-15T0900,3665A,76.1658,39.7157,克孜勒苏柯尔克孜自治州,克州文化中心,,44,44,32,12,15,88,,88,88,13,12,8,11,0.4,0.4
2024-05-15T0900,1450A,102.8204,24.8886,昆明市,呈贡新区,细颗粒物(PM2.5),53,44,30,37,23,52,,54,50,25,20,13,5,1.1,0.8
2024-05-15T0900,1451A,102.6251,24.9608,昆明市,西山森林公园,,,,,,,,,,,,,,,,
2024-05-15T0900,1452A,102.7252,25.0902,昆明市,龙泉镇,颗粒物(PM10),51,51,38,26,21,49,,28,28,22,32,6,7,0.7,0.7
2024-05-15T0900,1453A,102.7266,25.0375,昆明市,东风东路,,45,45,32,25,21,50,,68,63,20,16,6,6,0.6,0.6
2024-05-15T0900,1454A,102.6742,25.0669,昆明市,金鼎山,,42,42,37,26,20,52,,59,55,24,21,6,7,0.7,0.7
2024-05-15T0900,1455A,102.6644,25.0401,昆明市,碧鸡广场,,46,46,31,31,22,52,,60,58,25,21,4,4,0.8,0.7
2024-05-15T0900,3179A,102.7494,25.0119,昆明市,官渡区博物馆,,,34,33,28,19,,,71,66,23,15,,9,0.7,0.6
2024-05-15T0900,3375A,102.8017,24.8336,昆明市,青年创业园,,21,21,32,14,23,55,,60,54,18,17,10,9,0.7,0.6
2024-05-15T0900,3550A,102.7997,24.9786,昆明市,昆明学院,颗粒物(PM10),58,65,35,40,22,51,,56,51,31,22,10,9,0.7,0.7
2024-05-15T0900,3551A,102.5967,24.6736,昆明市,晋宁区生态环境分局,,42,32,28,29,23,73,,73,70,16,11,4,3,1.0,0.8
2024-05-15T0900,3552A,102.6678,24.9856,昆明市,云天化总部,颗粒物(PM10),51,51,28,35,20,33,,68,60,41,12,9,8,1.0,0.8
2024-05-15T0900,1456A,91.1319,29.6514,拉萨市,八廓街,,30,30,16,20,11,85,,102,102,18,12,7,9,0.5,0.6
2024-05-15T0900,1457A,91.1221,29.6747,拉萨市,市环保局,,48,44,18,33,11,89,,96,95,16,13,7,6,0.4,0.3
2024-05-15T0900,1458A,91.0874,29.6475,拉萨市,区监测站,,31,23,12,11,7,97,,114,110,18,12,5,5,0.3,0.2
2024-05-15T0900,1459A,91.1774,29.6541,拉萨市,西藏大学,细颗粒物(PM2.5),73,60,16,53,10,101,,104,103,14,10,4,4,0.5,0.4
2024-05-15T0900,1460A,90.9798,29.6588,拉萨市,区辐射站,,29,22,15,14,10,90,,111,107,20,13,7,6,0.4,0.4
2024-05-15T0900,1461A,91.0834,29.6292,拉萨市,拉萨火车站,,30,26,13,15,7,93,,114,110,16,7,6,6,0.4,0.1
2024-05-15T0900,2520A,109.2203,23.7256,来宾市,来宾技工学校,,50,50,66,29,31,60,,29,29,16,19,6,10,0.8,0.8
2024-05-15T0900,3535A,109.1781,23.7297,来宾市,兴宾区政府,,50,50,63,34,34,69,,37,37,14,22,6,8,0.8,0.7
2024-05-15T0900,4002A,109.2416,23.7461,来宾市,中南小学,,40,40,65,23,32,66,,23,23,18,26,3,7,0.8,0.8
2024-05-15T0900,1476A,103.631,36.1031,兰州市,兰炼宾馆,颗粒物(PM10),153,256,136,73,50,,,77,68,42,28,9,9,0.8,0.5
2024-05-15T0900,1477A,104.1373,35.9454,兰州市,榆中兰大校区,,,,,,,,,,,,,,,,
2024-05-15T0900,1478A,103.8412,36.0726,兰州市,生物制品所,颗粒物(PM10),164,278,162,67,52,34,,71,59,61,23,13,12,0.6,0.3
2024-05-15T0900,1479A,103.831,36.0464,兰州市,铁路设计院,颗粒物(PM10),156,262,134,60,37,34,,64,54,68,42,13,11,0.7,0.4
2024-05-15T0900,3186A,103.7158,36.1058,兰州市,教育港,颗粒物(PM10),173,295,160,75,46,66,,72,63,40,21,9,10,0.5,0.4
2024-05-15T0900,3241A,103.7439,36.0842,兰州市,百合公园,颗粒物(PM10),138,226,119,47,34,39,,69,57,51,21,3,5,0.7,0.2
2024-05-15T0900,3242A,103.9611,35.998,兰州市,和平,颗粒物(PM10),170,290,152,90,53,69,,112,104,37,13,9,9,0.5,0.3
2024-05-15T0900,3245A,103.6633,36.533,兰州新区,新区管委会,颗粒物(PM10),100,150,117,40,36,87,,98,92,18,10,32,16,0.6,0.4
2024-05-15T0900,3246A,103.6975,36.4789,兰州新区,舟曲中学,细颗粒物(PM2.5),294,,157,244,153,101,,94,90,16,16,36,17,0.5,0.4
2024-05-15T0900,1067A,116.6708,39.5111,廊坊市,药材公司,,35,35,54,10,15,86,,79,79,7,10,3,3,0.3,0.3
2024-05-15T0900,1068A,116.7214,39.5589,廊坊市,开发区,,,,55,,20,86,,80,80,9,10,,2,0.2,0.2
2024-05-15T0900,1070A,116.7244,39.5269,廊坊市,北华航天学院,,36,36,56,5,10,83,,81,81,12,9,3,2,0.2,0.2
2024-05-15T0900,2919A,116.7022,39.5453,廊坊市,河北工业大学,细颗粒物(PM2.5),97,,61,72,24,82,,74,74,9,11,3,3,0.2,0.2
2024-05-15T0900,2535A,103.7723,29.5462,乐山市,花湖湾,细颗粒物(PM2.5),58,60,51,41,35,37,,83,77,38,18,7,6,0.9,0.8
2024-05-15T0900,2536A,103.7627,29.5844,乐山市,牛耳桥,细颗粒物(PM2.5),63,57,63,45,39,50,,34,34,35,31,13,7,0.8,0.6
2024-05-15T0900,2537A,103.7508,29.6006,乐山市,市第三水厂,细颗粒物(PM2.5),65,63,61,47,36,48,,49,49,40,27,16,6,0.7,0.5
2024-05-15T0900,2538A,103.7571,29.5664,乐山市,市监测站,颗粒物(PM10),56,61,62,31,33,36,,78,71,38,20,12,9,0.8,0.6
2024-05-15T0900,3361A,103.7311,29.5628,乐山市,理工大学,细颗粒物(PM2.5),60,65,59,43,34,47,,80,74,41,20,36,9,0.8,0.6
2024-05-15T0900,2598A,100.2143,26.8576,丽江市,西南郊,,,,,,,,,,,,,,,,
2024-05-15T0900,2599A,100.2497,26.8802,丽江市,丽江古城,,41,41,25,16,14,64,,87,83,20,10,7,6,0.6,0.5
2024-05-15T0900,2600A,100.2203,26.8906,丽江市,市中心,,22,22,19,12,9,70,,86,82,19,10,9,9,0.4,0.3
2024-05-15T0900,1267A,119.914,28.4514,丽水市,监测站大楼,,43,43,36,20,14,64,,46,46,23,25,4,3,0.3,0.2
2024-05-15T0900,1268A,119.93,28.4586,丽水市,莲都小学,,48,48,35,24,13,69,,50,49,23,19,4,4,0.3,0.1
2024-05-15T0900,1269A,119.879,28.4231,丽水市,余庄前,,46,46,26,29,15,50,,18,18,31,16,4,4,0.4,0.2
2024-05-15T0900,1173A,119.176,34.5885,连云港市,市环境监测站,颗粒物(PM10),58,66,131,9,38,91,,134,118,13,15,6,8,0.2,0.4
2024-05-15T0900,3000A,119.3581,34.6972,连云港市,德源药业,,32,17,86,7,27,101,,132,120,5,12,5,7,0.3,0.5
2024-05-15T0900,3007A,119.178,34.844,连云港市,新城一中,颗粒物(PM10),64,78,116,9,30,91,,118,109,21,22,13,9,1.7,0.8
2024-05-15T0900,3008A,119.3608,34.7519,连云港市,胡沟管理处,,31,29,92,2,22,98,,135,122,4,9,6,9,0.3,0.5
2024-05-15T0900,3009A,119.1478,34.5911,连云港市,矿山设计院,颗粒物(PM10),53,56,125,7,37,93,,131,117,12,16,7,10,0.6,0.7
2024-05-15T0900,3434A,119.2413,34.6539,连云港市,工贸学校,,33,33,102,8,40,102,,143,127,8,13,6,9,0.4,0.6
2024-05-15T0900,3664A,119.4172,34.7341,连云港市,连云街道,,33,33,98,10,30,97,,135,121,10,11,3,6,0.3,0.4
2024-05-15T0900,2571A,102.3431,27.8099,凉山彝族自治州,青龙寺,,22,,20,15,16,50,,73,70,5,6,6,7,0.5,0.5
2024-05-15T0900,2572A,102.2721,27.8415,凉山彝族自治州,邛海宾馆,,22,10,22,6,15,70,,83,80,12,8,8,9,0.6,0.6
2024-05-15T0900,2573A,102.2625,27.898,凉山彝族自治州,西昌市政府,,24,16,24,9,16,75,,85,83,9,8,9,11,0.5,0.6
2024-05-15T0900,2574A,102.2685,27.8851,凉山彝族自治州,凉山州政府,,,12,22,6,14,,,89,88,13,8,9,10,,0.5
2024-05-15T0900,2575A,102.237,27.8914,凉山彝族自治州,长安,,22,15,29,9,16,68,,88,85,14,11,10,12,0.6,0.7
2024-05-15T0900,2212A,123.2,41.1953,辽阳市,宏伟区,,42,42,64,12,18,67,,49,49,19,19,12,15,0.5,0.7
2024-05-15T0900,2213A,123.1683,41.2495,辽阳市,新华园,,44,44,70,13,22,72,,52,52,21,20,15,14,0.4,0.6
2024-05-15T0900,2214A,123.2354,41.2639,辽阳市,滨河路,"颗粒物(PM10),细颗粒物(PM2.5)",62,74,92,44,42,63,,43,43,18,19,10,12,0.3,0.4
2024-05-15T0900,2215A,123.149,41.2991,辽阳市,铁西工业园,颗粒物(PM10),58,66,72,30,26,70,,36,36,18,20,13,13,0.4,0.6
2024-05-15T0900,2227A,125.1358,42.8845,辽源市,环保局,,25,16,27,5,10,77,,37,37,13,16,8,9,0.5,0.5
2024-05-15T0900,3239A,125.0764,42.9078,辽源市,银鹰制药,,,16,30,6,13,,,23,23,12,20,5,7,0.4,0.5
2024-05-15T0900,1625A,115.9848,36.4372,聊城市,区政府,颗粒物(PM10),52,53,116,8,32,70,,94,86,16,14,6,9,0.5,0.7
2024-05-15T0900,2878A,116.0072,36.4343,聊城市,聊大东校,颗粒物(PM10),67,83,128,13,31,72,,100,90,16,13,4,7,0.4,0.6
2024-05-15T0900,3200A,115.9819,36.4978,聊城市,监控中心,,39,39,99,7,21,68,,82,74,8,12,5,8,0.3,0.5
2024-05-15T0900,3513A,116.0445,36.4361,聊城市,九州社区,颗粒物(PM10),55,59,109,6,24,73,,98,88,11,11,3,6,0.3,0.5
2024-05-15T0900,4018A,116.0567,36.4608,聊城市,星美广场,颗粒物(PM10),54,58,118,7,42,70,,90,82,17,14,5,7,0.4,0.6
2024-05-15T0900,2632A,94.3681,29.6376,林芝市,林芝监测站,,21,15,12,10,7,66,,94,89,8,2,6,6,0.5,0.4
2024-05-15T0900,2633A,94.3616,29.6616,林芝市,林芝人民医院,,23,13,11,9,6,73,,94,90,8,4,7,7,0.3,0.3
2024-05-15T0900,2603A,100.0781,23.8982,临沧市,市环保局,,38,38,37,15,28,54,,59,57,15,11,12,8,0.6,0.5
2024-05-15T0900,2604A,100.0894,23.8822,临沧市,市气象局,,50,39,36,35,30,54,,62,60,18,13,11,9,0.7,0.5
2024-05-15T0900,1733A,111.5531,36.0783,临汾市,临钢医院,颗粒物(PM10),88,126,135,35,35,87,,105,98,11,16,9,10,0.5,0.7
2024-05-15T0900,1734A,111.5028,36.0714,临汾市,技工学校,颗粒物(PM10),57,63,91,29,37,93,,99,91,16,22,6,7,0.5,0.6
2024-05-15T0900,1736A,111.5018,36.0855,临汾市,市委,颗粒物(PM10),59,67,126,7,25,99,,107,100,7,16,11,11,0.5,0.6
2024-05-15T0900,3018A,111.505,36.1014,临汾市,唐尧大酒店,颗粒物(PM10),62,73,123,5,25,88,,96,90,6,14,7,8,0.6,0.7
2024-05-15T0900,3668A,111.5036,36.0414,临汾市,城南,颗粒物(PM10),72,93,129,33,34,98,,116,109,4,15,8,9,0.5,0.6
2024-05-15T0900,2667A,103.2069,35.5993,临夏回族自治州,环保局,颗粒物(PM10),73,96,53,29,21,74,,53,53,22,15,5,5,0.5,0.3
2024-05-15T0900,2668A,103.2417,35.6057,临夏回族自治州,建设大厦,颗粒物(PM10),60,70,54,32,26,66,,56,56,26,18,9,10,0.5,0.3
2024-05-15T0900,1618A,118.3429,35.0532,临沂市,沂河小区,细颗粒物(PM2.5),53,,115,37,41,107,,108,104,7,18,5,11,0.2,0.4
2024-05-15T0900,1619A,118.295,35.0583,临沂市,鲁南制药厂,细颗粒物(PM2.5),54,,102,38,41,99,,101,100,7,15,4,10,0.2,0.3
2024-05-15T0900,1620A,118.2794,34.9976,临沂市,新光毛纺厂,细颗粒物(PM2.5),52,,118,36,33,95,,90,88,8,17,2,10,0.4,0.6
2024-05-15T0900,1621A,118.3956,35.0888,临沂市,河东保险公司,,28,19,105,6,38,87,,98,93,8,14,3,8,0.1,0.3
2024-05-15T0900,3370A,118.3564,35.0215,临沂市,十里堡居委,,,19,95,,35,,,104,100,11,16,4,9,0.3,0.4
2024-05-15T0900,3496A,118.3604,35.1084,临沂市,南坊新区,,28,27,115,9,29,88,,95,91,11,19,5,10,0.3,0.5
2024-05-15T0900,3860A,118.3920,35.0300,临沂市,皇山花园小区,,39,39,128,12,34,90,,99,96,8,14,7,12,0.3,0.5
2024-05-15T0900,1870A,109.4856,24.3895,柳州市,柳东小学,细颗粒物(PM2.5),60,63,64,43,37,26,,43,40,48,25,14,15,0.7,0.5
2024-05-15T0900,1871A,109.4157,24.3277,柳州市,环保监测站,颗粒物(PM10),55,59,73,20,36,28,,22,22,35,28,13,9,0.9,0.7
2024-05-15T0900,1872A,109.389,24.341,柳州市,河西水厂,颗粒物(PM10),75,99,75,46,35,13,,24,22,43,25,16,11,1.0,0.8
2024-05-15T0900,1873A,109.4311,24.2921,柳州市,市四中,细颗粒物(PM2.5),60,68,67,43,36,23,,28,26,35,26,13,8,0.8,0.7
2024-05-15T0900,1874A,109.4006,24.3631,柳州市,市九中,颗粒物(PM10),82,113,86,42,36,18,,25,25,42,28,11,9,0.7,0.5
2024-05-15T0900,1875A,109.4958,24.3134,柳州市,古亭山,颗粒物(PM10),55,60,59,31,29,29,,24,24,37,31,11,10,0.6,0.5
2024-05-15T0900,3402A,109.5422,24.3996,柳州市,市二中,颗粒物(PM10),55,60,67,35,34,39,,25,25,35,28,12,10,0.5,0.4
2024-05-15T0900,2307A,116.5079,31.737,六安市,监测大楼,颗粒物(PM10),75,99,50,28,26,101,,89,89,18,16,6,6,0.6,0.5
2024-05-15T0900,2308A,116.4738,31.7643,六安市,皖西学院,颗粒物(PM10),82,113,60,30,25,108,,80,79,20,17,6,4,0.6,0.5
2024-05-15T0900,2309A,116.4996,31.7905,六安市,朝阳厂,颗粒物(PM10),68,86,54,41,27,94,,75,72,17,14,8,6,0.4,0.3
2024-05-15T0900,2310A,116.5567,31.7886,六安市,开发区,颗粒物(PM10),127,204,77,40,36,92,,56,54,27,23,11,11,0.6,0.6
2024-05-15T0900,2576A,104.8,26.5892,六盘水市,窑上,,,,,,,,,,,,,,,,
2024-05-15T0900,2577A,104.83,26.5917,六盘水市,黄土坡,,36,16,21,6,17,113,,101,101,14,14,6,6,0.4,0.4
2024-05-15T0900,2578A,104.89,26.5939,六盘水市,水钢,,38,,26,25,20,120,,97,97,12,14,8,8,0.4,0.5
2024-05-15T0900,2579A,104.8475,26.5894,六盘水市,民中,,35,,21,12,14,112,,99,99,11,13,6,7,0.5,0.6
2024-05-15T0900,2580A,104.9544,26.5506,六盘水市,双水,,36,,18,7,13,114,,98,98,17,11,7,7,0.5,0.4
2024-05-15T0900,2335A,117.0189,25.1181,龙岩市,龙岩师专,,,,,,,,,,,,,,,,
2024-05-15T0900,2336A,117.0217,25.1033,龙岩市,龙岩市监测站,,50,50,33,30,18,77,,66,61,17,17,20,9,0.6,0.4
2024-05-15T0900,2337A,117.0258,25.0661,龙岩市,闽西职业技术学院,,,55,35,26,14,,,71,71,21,18,,11,0.6,0.4
2024-05-15T0900,2338A,117.0196,25.0306,龙岩市,龙岩学院,,50,50,29,24,13,78,,64,63,24,9,15,6,0.7,0.5
2024-05-15T0900,2665A,105.0822,33.3261,陇南市,汉王镇固水子,,,,,,,,,,,,,,,,
2024-05-15T0900,2885A,104.9339,33.3826,陇南市,滨江中学,颗粒物(PM10),51,52,64,24,23,75,,70,68,5,6,8,7,0.8,0.8
2024-05-15T0900,3247A,104.955,33.371,陇南市,市总工会,,44,44,49,8,16,67,,75,73,11,7,9,6,0.6,0.6
2024-05-15T0900,2487A,111.9589,27.8901,娄底市,电视发射台,,47,47,66,22,27,86,,78,78,6,7,8,8,0.8,0.7
2024-05-15T0900,2488A,111.9975,27.725,娄底市,市监测站,颗粒物(PM10),79,107,91,47,44,25,,34,28,59,29,50,9,2.5,0.8
2024-05-15T0900,2489A,112.0194,27.7314,娄底市,市委党校,,,92,83,42,41,,,31,30,36,21,12,6,0.9,0.6
2024-05-15T0900,2490A,111.9561,27.7569,娄底市,涟钢,颗粒物(PM10),66,82,98,47,46,52,,41,41,26,36,12,21,0.7,1.3
2024-05-15T0900,2491A,111.9892,27.7044,娄底市,市政府,细颗粒物(PM2.5),80,84,83,59,45,34,,38,36,23,18,7,8,0.8,0.6
2024-05-15T0900,1893A,105.4324,28.9634,泸州市,九狮山,颗粒物(PM10),53,56,49,19,29,36,,36,33,27,15,7,6,0.3,0.3
2024-05-15T0900,1894A,105.4427,28.9063,泸州市,小市上码头,颗粒物(PM10),52,54,51,26,27,51,,71,66,27,15,13,12,0.4,0.3
2024-05-15T0900,1895A,105.4241,28.8573,泸州市,兰田宪桥,颗粒物(PM10),54,57,54,27,28,43,,53,48,28,22,6,7,0.4,0.3
2024-05-15T0900,1896A,105.4379,28.8833,泸州市,市环监站,,50,50,46,31,29,37,,67,62,43,17,26,8,0.4,0.3
2024-05-15T0900,3490A,105.3617,28.7703,泸州市,纳溪区环保局,颗粒物(PM10),62,74,57,24,25,54,,38,36,26,28,5,5,0.3,0.3
2024-05-15T0900,2183A,111.1406,37.5211,吕梁市,环保局,颗粒物(PM10),57,64,80,11,21,99,,90,90,8,12,4,4,0.2,0.3
2024-05-15T0900,2185A,111.1297,37.5136,吕梁市,自来水公司,颗粒物(PM10),51,52,72,14,19,99,,85,85,8,11,3,4,0.2,0.3
2024-05-15T0900,2867A,111.1283,37.51,吕梁市,马茂庄小学,颗粒物(PM10),69,88,84,12,22,99,,90,90,12,14,2,3,0.2,0.3
2024-05-15T0900,1812A,112.3931,34.6516,洛阳市,市委党校,颗粒物(PM10),52,53,122,20,38,83,,99,98,13,14,3,5,0.3,0.4
2024-05-15T0900,1814A,112.4657,34.6871,洛阳市,豫西宾馆,颗粒物(PM10),58,66,99,13,29,83,,98,93,12,14,4,5,0.3,0.4
2024-05-15T0900,1815A,112.494,34.6886,洛阳市,河南林校,,49,49,121,11,35,80,,97,94,16,18,5,6,0.2,0.3
2024-05-15T0900,1816A,112.3844,34.623,洛阳市,开发区管委会,,48,48,125,12,36,84,,95,95,7,11,2,4,0.2,0.3
2024-05-15T0900,1817A,112.4267,34.6258,洛阳市,市委新办公区,,,36,103,15,36,,,99,97,11,10,6,6,0.5,0.7
2024-05-15T0900,3340A,112.6005,34.6326,洛阳市,伊滨,颗粒物(PM10),66,82,162,26,38,81,,90,90,15,16,5,7,0.1,0.3
2024-05-15T0900,3341A,112.4951,34.6332,洛阳市,中移产业园,细颗粒物(PM2.5),55,53,130,39,36,82,,94,93,12,13,5,5,0.3,0.5
2024-05-15T0900,3593A,112.5736,34.8993,洛阳市,吉利监测站,颗粒物(PM10),62,73,213,33,43,82,,100,93,14,16,4,6,0.3,0.2
2024-05-15T0900,3635A,112.3677,34.662,洛阳市,河科大西苑校区,,,,171,,36,,,,,,15,,6,,0.6
2024-05-15T0900,3636A,112.4388,34.6781,洛阳市,英才小学,颗粒物(PM10),52,53,145,10,39,83,,97,94,14,14,4,6,0.4,0.6
2024-05-15T0900,2399A,114.051,33.5699,漯河市,三五一五工厂,颗粒物(PM10),52,54,164,17,39,94,,93,93,9,17,6,7,0.4,0.5
2024-05-15T0900,2400A,114.0055,33.5698,漯河市,漯河大学,颗粒物(PM10),55,59,140,22,42,98,,104,103,8,16,7,9,0.2,0.3
2024-05-15T0900,2401A,114.0138,33.5828,漯河市,市水利局,颗粒物(PM10),73,95,156,19,41,94,,99,98,7,12,7,8,0.4,0.5
2024-05-15T0900,2402A,114.0261,33.5698,漯河市,市广电局,颗粒物(PM10),72,93,163,23,38,95,,98,98,7,13,5,6,0.4,0.6
2024-05-15T0900,3478A,113.9749,33.5664,漯河市,市图书馆,颗粒物(PM10),62,74,139,29,49,98,,101,101,3,10,6,7,0.5,0.6
2024-05-15T0900,3479A,114.0967,33.5906,漯河市,召陵区卫健委,颗粒物(PM10),75,99,148,15,39,95,,93,93,6,14,5,6,0.4,0.5
2024-05-15T0900,1798A,118.5092,31.6837,马鞍山市,湖东路四小,颗粒物(PM10),87,123,78,45,33,139,,110,109,40,24,14,8,1.0,0.7
2024-05-15T0900,1799A,118.5024,31.6449,马鞍山市,开发区,颗粒物(PM10),80,110,89,47,39,136,,90,89,40,37,16,10,1.0,0.8
2024-05-15T0900,1800A,118.5228,31.7231,马鞍山市,慈湖,细颗粒物(PM2.5),85,103,69,63,40,120,,99,95,54,34,12,7,1.1,0.7
2024-05-15T0900,1802A,118.6245,31.7241,马鞍山市,濮塘,"颗粒物(PM10),细颗粒物(PM2.5)",83,115,62,61,38,101,,139,130,52,14,12,5,1.2,0.7
2024-05-15T0900,3633A,118.4918,31.6809,马鞍山市,雨山,颗粒物(PM10),78,106,70,54,34,134,,126,123,46,21,20,11,1.1,0.7
2024-05-15T0900,1686A,111.0286,21.4688,茂名市,电白南海,,36,36,39,19,15,115,,99,99,9,9,9,8,0.3,0.3
2024-05-15T0900,1687A,110.9294,21.6533,茂名市,茂石化七小,,36,36,40,19,22,93,,98,95,12,12,10,9,0.6,0.5
2024-05-15T0900,1688A,110.9107,21.6687,茂名市,健康路,,30,29,39,14,14,94,,95,93,11,9,10,13,0.7,0.6
2024-05-15T0900,1689A,110.8592,21.6828,茂名市,高岭,,36,36,45,17,19,102,,89,88,18,14,13,14,0.6,0.7
2024-05-15T0900,3450A,111.01,21.5165,茂名市,电白水东,,36,29,35,14,15,114,,100,100,11,14,10,8,0.5,0.5
2024-05-15T0900,2539A,104.0308,30.0478,眉山市,黑龙滩水库,,42,39,40,29,26,70,,66,61,9,7,3,4,0.4,0.4
2024-05-15T0900,2540A,103.8416,30.0874,眉山市,气象局,细颗粒物(PM2.5),73,72,62,53,31,6,,17,9,65,37,9,9,0.6,0.4
2024-05-15T0900,3137A,103.8578,30.0744,眉山市,市委党校,颗粒物(PM10),68,85,54,34,22,8,,28,18,73,34,8,8,0.7,0.4
2024-05-15T0900,3148A,103.8291,30.0564,眉山市,区人社局,"颗粒物(PM10),细颗粒物(PM2.5)",58,66,57,41,27,10,,28,18,79,42,10,10,0.8,0.5
2024-05-15T0900,1690A,116.1231,24.3284,梅州市,梅江月梅,,32,32,31,12,8,101,,56,56,10,15,7,6,0.6,0.6
2024-05-15T0900,1691A,116.0797,24.2719,梅州市,梅县新城,,38,38,34,22,10,80,,55,55,22,17,5,5,0.6,0.5
2024-05-15T0900,1692A,116.1248,24.2654,梅州市,环境监控中心,,48,48,35,15,8,102,,80,80,18,19,6,7,0.5,0.5
2024-05-15T0900,3315A,116.1233,24.2991,梅州市,梅龙,,36,36,35,19,17,96,,89,87,10,8,10,10,0.6,0.6
2024-05-15T0900,1878A,104.7778,31.4741,绵阳市,富乐山,细颗粒物(PM2.5),72,70,58,52,34,69,,40,40,22,17,10,8,0.6,0.5
2024-05-15T0900,1879A,104.7563,31.4535,绵阳市,市人大,"颗粒物(PM10),细颗粒物(PM2.5)",70,90,67,51,33,48,,26,26,38,29,5,7,0.8,0.6
2024-05-15T0900,1880A,104.6697,31.4668,绵阳市,高新区自来水公司,颗粒物(PM10),69,88,71,41,36,47,,26,26,35,30,10,10,0.8,0.7
2024-05-15T0900,1881A,104.7287,31.5075,绵阳市,三水厂,细颗粒物(PM2.5),75,85,70,55,40,34,,7,7,45,38,5,5,0.6,0.5
2024-05-15T0900,3491A,104.69,31.5322,绵阳市,西科大附属小学,颗粒物(PM10),57,64,65,37,34,60,,31,31,23,30,5,7,0.7,0.5
2024-05-15T0900,3492A,104.5648,31.5343,绵阳市,安州区旅游局,细颗粒物(PM2.5),99,115,78,74,50,56,,33,33,29,20,9,9,0.7,0.7
2024-05-15T0900,1784A,129.61,44.561,牡丹江市,环保大楼,,20,12,23,10,17,63,,53,53,9,11,5,5,0.3,0.3
2024-05-15T0900,1785A,129.6115,44.5782,牡丹江市,文化广场,,,19,26,14,30,60,,55,54,11,13,6,7,,0.3
2024-05-15T0900,1786A,129.5904,44.5963,牡丹江市,第一医院,,21,14,25,8,22,66,,52,52,7,11,4,5,0.4,0.4
2024-05-15T0900,1787A,129.6364,44.6075,牡丹江市,机车工厂,,20,11,28,7,15,63,,42,42,5,11,5,6,0.2,0.4
2024-05-15T0900,1788A,129.6386,44.5462,牡丹江市,第一中学,,24,24,29,7,16,69,,48,48,7,12,6,6,0.2,0.3
2024-05-15T0900,2531A,105.0703,29.61,内江市,市监测站,颗粒物(PM10),89,128,50,54,38,43,,59,53,27,13,15,13,0.6,0.4
2024-05-15T0900,2532A,105.0717,29.5947,内江市,东兴区政府,颗粒物(PM10),62,73,50,35,26,52,,68,62,31,16,11,10,0.6,0.5
2024-05-15T0900,2533A,105.0653,29.5817,内江市,内江二中,,,49,46,40,33,,,67,64,32,15,9,8,0.6,0.4
2024-05-15T0900,2534A,105.0406,29.5822,内江市,内江日报社,细颗粒物(PM2.5),62,53,50,44,33,28,,37,34,34,23,5,7,0.5,0.4
2024-05-15T0900,2628A,92.0657,31.4846,那曲市,那曲监测站,,50,50,24,30,11,71,,76,74,12,8,7,5,0.9,0.8
2024-05-15T0900,3128A,92.0506,31.4797,那曲市,那曲会议中心,,36,36,26,17,11,70,,68,66,8,8,4,3,0.5,0.6
2024-05-15T0900,1290A,115.8931,28.6843,南昌市,省外办,颗粒物(PM10),64,78,65,36,29,56,,12,12,56,41,10,8,0.6,0.6
2024-05-15T0900,1291A,115.8886,28.7003,南昌市,省林业公司,颗粒物(PM10),63,75,66,36,28,44,,12,12,50,48,8,6,0.6,0.6
2024-05-15T0900,1292A,115.8126,28.7442,南昌市,林科所,颗粒物(PM10),59,68,49,29,19,79,,62,62,55,47,13,7,0.5,0.5
2024-05-15T0900,1294A,115.8518,28.687,南昌市,建工学校,,,149,72,21,27,,,15,15,46,47,,7,0.6,0.6
2024-05-15T0900,1295A,115.8921,28.6424,南昌市,象湖,颗粒物(PM10),64,77,67,40,27,52,,11,11,66,47,9,6,0.8,0.6
2024-05-15T0900,1296A,115.7423,28.7996,南昌市,武术学校,,14,14,26,9,21,40,,34,32,4,7,6,7,0.3,0.3
2024-05-15T0900,1298A,115.9314,28.6842,南昌市,省站,颗粒物(PM10),81,111,81,37,32,58,,13,13,33,26,12,10,0.7,0.9
2024-05-15T0900,3046A,115.9084,28.6062,南昌市,机电学校,颗粒物(PM10),76,101,76,39,28,51,,11,11,55,47,9,9,1.0,0.7
2024-05-15T0900,3690A,115.9721,28.7031,南昌市,外国语学校,"颗粒物(PM10),细颗粒物(PM2.5)",60,70,58,43,29,68,,16,16,30,35,6,5,0.3,0.5
2024-05-15T0900,1905A,106.056,30.8064,南充市,西山风景区,细颗粒物(PM2.5),73,78,45,53,38,53,,76,70,11,9,5,5,0.6,0.5
2024-05-15T0900,1906A,106.0789,30.8023,南充市,南充市委,细颗粒物(PM2.5),69,80,66,50,39,38,,28,28,33,25,7,6,0.5,0.3
2024-05-15T0900,1907A,106.1031,30.8217,南充市,南充炼油厂,颗粒物(PM10),71,92,79,48,43,27,,32,28,32,25,7,6,0.6,0.5
2024-05-15T0900,1908A,106.1064,30.7856,南充市,高坪区监测站,细颗粒物(PM2.5),82,86,72,60,40,45,,21,21,28,24,7,6,0.3,0.1
2024-05-15T0900,1909A,106.0642,30.7636,南充市,嘉陵区环保局,细颗粒物(PM2.5),73,83,63,53,36,36,,37,34,40,30,6,5,0.6,0.3
2024-05-15T0900,1910A,106.1087,30.8388,南充市,市环境监测站,细颗粒物(PM2.5),77,96,68,56,40,29,,48,44,34,20,6,6,0.8,0.5
2024-05-15T0900,1151A,118.8086,32.1065,南京市,迈皋桥,颗粒物(PM10),127,203,63,31,27,116,,65,65,24,35,6,4,0.6,0.6
2024-05-15T0900,1152A,118.7538,32.0551,南京市,草场门,颗粒物(PM10),137,224,73,36,33,126,,93,92,19,30,4,3,0.4,0.4
2024-05-15T0900,1153A,118.7794,32.0745,南京市,山西路,颗粒物(PM10),200,349,80,34,28,117,,121,113,16,16,4,4,0.4,0.4
2024-05-15T0900,1154A,118.7752,32.0023,南京市,中华门,颗粒物(PM10),148,246,78,39,32,137,,71,69,23,37,9,7,0.7,0.5
2024-05-15T0900,1155A,118.8109,32.0309,南京市,瑞金路,颗粒物(PM10),113,175,73,44,29,127,,95,93,21,23,16,9,0.4,0.4
2024-05-15T0900,1156A,118.7997,32.0754,南京市,玄武湖,颗粒物(PM10),88,126,68,38,30,114,,96,93,16,17,10,8,0.3,0.2
2024-05-15T0900,1157A,118.6414,32.0931,南京市,浦口,颗粒物(PM10),76,101,67,33,28,103,,134,128,17,20,7,8,0.5,0.6
2024-05-15T0900,1158A,118.7356,31.9996,南京市,奥体中心,颗粒物(PM10),122,193,73,39,32,134,,80,80,23,31,11,8,0.6,0.5
2024-05-15T0900,1159A,118.9125,32.1028,南京市,仙林大学城,颗粒物(PM10),128,205,70,27,23,120,,106,101,21,22,10,10,0.5,0.5
2024-05-15T0900,3422A,118.8436,31.9198,南京市,江宁彩虹桥,颗粒物(PM10),84,118,72,48,29,137,,105,104,34,20,7,4,0.8,0.6
2024-05-15T0900,3423A,119.0138,31.6494,南京市,溧水永阳,颗粒物(PM10),71,92,64,42,34,111,,55,55,40,27,4,4,0.5,0.4
2024-05-15T0900,3424A,118.879,31.3302,南京市,高淳老职中,颗粒物(PM10),66,82,67,38,34,137,,125,121,21,17,12,8,0.5,0.3
2024-05-15T0900,3427A,118.8554,32.3578,南京市,六合雄州,颗粒物(PM10),80,109,53,18,35,86,,80,74,11,26,4,5,0.4,0.6
2024-05-15T0900,1401A,108.3103,22.7881,南宁市,二十一中,,40,40,49,21,27,94,,103,100,14,12,6,6,0.4,0.5
2024-05-15T0900,1402A,108.3141,22.8528,南宁市,北湖,,38,38,53,21,27,76,,98,94,19,12,6,6,0.7,0.8
2024-05-15T0900,1403A,108.3206,22.8225,南宁市,市监测站,,41,41,50,17,25,93,,100,98,13,17,7,7,0.7,0.8
2024-05-15T0900,1404A,108.3829,22.8037,南宁市,大自然花园,,34,34,46,18,28,92,,99,97,14,12,6,6,0.4,0.5
2024-05-15T0900,1405A,108.4394,22.7904,南宁市,仙葫,,48,48,54,16,27,91,,90,90,14,13,6,6,0.8,0.8
2024-05-15T0900,1406A,108.2397,22.8467,南宁市,区农职院,,32,32,58,21,27,94,,104,102,19,19,5,6,0.6,0.7
2024-05-15T0900,1407A,108.3275,22.735,南宁市,英华嘉园,,48,48,51,18,26,88,,88,87,15,17,7,7,0.6,0.7
2024-05-15T0900,1408A,108.2257,22.7757,南宁市,沙井镇街道办,,49,49,70,19,29,82,,79,78,19,23,6,6,0.6,0.7
2024-05-15T0900,3401A,108.4834,22.7618,南宁市,红星社区,,34,34,51,19,31,100,,97,96,11,14,8,9,0.5,0.6
2024-05-15T0900,2331A,118.0966,26.6761,南平市,茫荡山,,,,,,,,,,,,,,,,
2024-05-15T0900,2332A,118.1681,26.6369,南平市,南平市监测站,,,33,31,11,14,68,,41,41,,19,6,5,0.6,0.5
2024-05-15T0900,2333A,118.1825,26.6489,南平市,南平铝业有限公司,,44,44,32,16,18,69,,42,42,16,18,5,6,0.6,0.5
2024-05-15T0900,2334A,118.1756,26.6272,南平市,南平七中,,48,48,27,21,15,69,,41,41,15,14,5,4,0.7,0.6
2024-05-15T0900,1168A,120.9098,31.9663,南通市,狼山街道,颗粒物(PM10),57,64,50,23,18,94,,38,38,45,35,24,12,1.5,0.5
2024-05-15T0900,1169A,120.86,32.0005,南通市,虹桥,颗粒物(PM10),62,74,60,31,21,85,,59,59,45,41,20,10,1.4,0.5
2024-05-15T0900,1170A,120.87,32.02,南通市,城中,颗粒物(PM10),71,92,71,34,26,93,,58,58,42,36,22,9,1.7,0.7
2024-05-15T0900,1171A,120.94,31.93,南通市,星湖花园,,,55,57,23,17,79,,57,57,61,39,24,11,,0.5
2024-05-15T0900,1172A,120.81,32.0417,南通市,紫琅学院,颗粒物(PM10),76,102,58,34,19,98,,57,57,49,50,29,14,1.8,0.6
2024-05-15T0900,3291A,121.067,32.062,南通市,通州监测站,颗粒物(PM10),74,97,62,22,16,92,,64,64,45,27,18,11,1.0,0.6
2024-05-15T0900,3432A,120.9348,31.9883,南通市,环境教育馆,颗粒物(PM10),76,102,62,28,23,92,,32,32,49,39,19,10,1.3,0.5
2024-05-15T0900,2404A,112.5224,33.0122,南阳市,瓦房庄,颗粒物(PM10),70,90,115,16,33,100,,108,105,9,19,3,6,0.3,0.5
2024-05-15T0900,2405A,112.5003,32.9735,南阳市,汉画馆,颗粒物(PM10),75,99,125,25,44,98,,92,92,11,21,5,6,0.4,0.5
2024-05-15T0900,2406A,112.5573,33.027,南阳市,气象站,颗粒物(PM10),74,98,119,14,33,103,,105,102,8,18,3,5,0.2,0.6
2024-05-15T0900,2407A,112.5481,32.9689,南阳市,理工学院,颗粒物(PM10),78,106,126,14,37,102,,104,103,7,17,5,6,0.4,0.6
2024-05-15T0900,4008A,112.5234,32.9922,南阳市,卧龙区政府,颗粒物(PM10),84,117,123,21,38,97,,101,98,15,20,5,6,0.4,0.6
2024-05-15T0900,1234A,121.8358,29.911,宁波市,区环保大楼,,,42,39,18,16,,,67,64,30,27,6,6,0.8,0.7
2024-05-15T0900,1235A,121.56,29.82,宁波市,万里学院,,49,47,39,34,20,70,,58,56,40,21,5,4,0.5,0.4
2024-05-15T0900,1236A,121.713,29.9572,宁波市,龙赛医院,颗粒物(PM10),52,54,38,18,17,78,,61,61,28,33,8,8,0.5,0.5
2024-05-15T0900,1239A,121.633,29.7733,宁波市,钱湖水厂,,45,40,28,31,15,94,,79,79,9,6,6,4,0.5,0.4
2024-05-15T0900,1240A,121.5856,29.8635,宁波市,太古小学,,39,31,34,27,16,78,,73,70,36,22,6,6,0.8,0.6
2024-05-15T0900,1241A,121.524,29.8674,宁波市,市环境监测中心,,38,38,37,14,15,83,,73,72,36,26,10,10,0.6,0.5
2024-05-15T0900,2871A,121.6147,29.9017,宁波市,万里国际学校,,41,41,40,25,20,73,,84,79,39,25,5,4,0.5,0.4
2024-05-15T0900,3710A,121.5594,29.8975,宁波市,白沙活动中心,颗粒物(PM10),53,56,42,18,14,74,,67,65,36,27,10,10,0.6,0.4
2024-05-15T0900,2339A,119.5001,26.6946,宁德市,金涵水库,,,,,,,,,,,,,,,,
2024-05-15T0900,2341A,119.5388,26.6612,宁德市,宁德市监测站,,25,25,26,17,15,80,,70,70,19,12,8,8,0.5,0.5
2024-05-15T0900,3209A,119.5231,26.6562,宁德市,宁德一中,,31,31,30,11,13,75,,71,71,28,12,7,7,0.7,0.5
2024-05-15T0900,2618A,98.8601,25.8567,怒江傈僳族自治州,州监测站,,29,,23,20,20,62,,66,64,6,9,7,7,0.4,0.4
2024-05-15T0900,2619A,98.8546,25.8417,怒江傈僳族自治州,泸水一中,,39,,32,27,20,42,,46,44,17,19,8,7,0.4,0.3
2024-05-15T0900,1888A,101.6891,26.571,攀枝花市,弄弄坪,,,44,42,6,21,,,79,78,14,19,,17,0.5,0.8
2024-05-15T0900,1889A,101.5769,26.5928,攀枝花市,河门口,,50,50,38,20,20,58,,40,40,34,23,14,13,0.9,0.7
2024-05-15T0900,1890A,101.7169,26.585,攀枝花市,炳草岗,,,,41,,20,,,54,54,9,29,15,23,0.4,0.6
2024-05-15T0900,1891A,101.7369,26.5008,攀枝花市,仁和,,30,30,31,19,21,71,,60,60,25,18,9,12,0.5,0.5
2024-05-15T0900,2835A,101.7227,26.567,攀枝花市,四十中小,,32,20,31,11,20,100,,84,84,15,19,12,15,0.6,0.8
2024-05-15T0900,1604A,122.0303,41.1489,盘锦市,开发区,,39,39,84,9,15,77,,67,67,12,14,6,6,0.3,0.3
2024-05-15T0900,1605A,122.0485,41.0883,盘锦市,兴隆台,,42,42,81,13,20,65,,68,66,18,15,8,8,0.4,0.4
2024-05-15T0900,1606A,121.8297,41.1028,盘锦市,新生街道,,48,48,75,10,13,75,,51,51,10,18,8,8,0.4,0.4
2024-05-15T0900,1832A,113.3257,33.742,平顶山市,新华旅馆,颗粒物(PM10),67,84,140,29,43,94,,100,96,11,17,6,8,0.2,0.4
2024-05-15T0900,1833A,113.2919,33.737,平顶山市,规划设计院,,44,44,111,18,36,91,,102,96,8,13,6,7,0.4,0.6
2024-05-15T0900,1834A,113.182,33.774,平顶山市,平顶山工学院,,35,35,125,9,37,90,,107,101,6,9,6,6,0.4,0.5
2024-05-15T0900,3204A,113.3025,33.73,平顶山市,规划局,,,,124,,39,,,99,96,6,13,,6,0.3,0.4
2024-05-15T0900,3594A,112.8867,33.9116,平顶山市,石龙区,颗粒物(PM10),52,54,134,17,36,100,,98,98,4,13,3,7,0.3,0.5
2024-05-15T0900,2656A,106.6692,35.5461,平凉市,聚贤嘉苑,颗粒物(PM10),78,105,65,26,24,72,,74,73,33,24,9,8,0.4,0.3
2024-05-15T0900,2657A,106.7021,35.5307,平凉市,博物馆,,,101,61,26,23,,,84,84,30,20,16,17,,0.3
2024-05-15T0900,2347A,114.0997,27.5002,萍乡市,武功山,,22,,24,7,7,68,,,,7,5,8,8,0.4,0.3
2024-05-15T0900,2348A,113.8385,27.6434,萍乡市,中医院,,42,42,51,22,23,80,,57,56,30,24,14,9,0.8,0.7
2024-05-15T0900,2349A,113.8493,27.6253,萍乡市,市政府车库,颗粒物(PM10),60,70,49,32,28,66,,50,50,34,21,31,16,5.0,1.3
2024-05-15T0900,2350A,113.8676,27.6435,萍乡市,市环保局,,,,56,43,31,77,,52,52,28,23,16,11,0.7,0.8
2024-05-15T0900,2351A,113.866,27.6198,萍乡市,安源区政府,一氧化碳,62,69,55,31,21,65,,42,42,41,21,28,17,6.2,1.3
2024-05-15T0900,2319A,119.0141,25.4325,莆田市,荔城区仓后路,颗粒物(PM10),51,51,31,16,11,76,,67,67,22,16,6,6,0.9,0.8
2024-05-15T0900,2320A,119.0015,25.4553,莆田市,莆田市监测站,,,30,22,13,9,,,70,70,8,11,7,7,0.7,0.7
2024-05-15T0900,2321A,119.1119,25.4561,莆田市,涵江区六中,,37,37,30,13,12,91,,65,65,21,24,8,8,0.7,0.7
2024-05-15T0900,2322A,119.1013,25.3215,莆田市,秀屿区政府,,43,43,37,23,14,79,,55,55,26,19,10,9,0.7,0.6
2024-05-15T0900,2323A,118.981,25.4792,莆田市,东圳水库,,,,,,,,,,,,,,,,
2024-05-15T0900,2392A,115.0312,35.7636,濮阳市,环保局,颗粒物(PM10),68,85,102,12,28,75,,95,85,10,13,9,12,0.2,0.8
2024-05-15T0900,2394A,115.0574,35.7609,濮阳市,油田运输公司,颗粒物(PM10),62,73,106,12,34,78,,99,88,6,11,9,16,0.2,0.5
2024-05-15T0900,2395A,115.0866,35.7754,濮阳市,油田物探公司,,46,46,83,15,31,76,,97,87,8,11,8,16,0,0.3
2024-05-15T0900,3021A,115,35.7668,濮阳市,濮水河管理处,,,,98,,30,,,90,80,9,10,8,9,0.3,0.5
2024-05-15T0900,2601A,100.98,22.7633,普洱市,市环保局,颗粒物(PM10),52,53,40,26,28,62,,61,59,14,8,8,8,0.6,0.5
2024-05-15T0900,2602A,100.9817,22.8322,普洱市,普洱第二中学,颗粒物(PM10),55,60,43,28,18,59,,57,54,19,10,10,9,0.7,0.5
2024-05-15T0900,2262A,131.0518,45.8751,七台河市,新一中,,25,,11,8,9,78,,69,69,5,7,8,9,0.7,0.8
2024-05-15T0900,3345A,131.0577,45.7879,七台河市,中波台,,23,12,9,8,6,71,,56,56,11,15,9,8,0.3,0.3
2024-05-15T0900,3637A,131.0176,45.7761,七台河市,人民广场,,,22,16,19,14,,,49,49,,14,,9,,0.4
2024-05-15T0900,3684A,130.8781,45.8222,七台河市,新建矿广场,,21,12,11,12,23,66,,55,55,15,15,12,11,0.4,0.5
2024-05-15T0900,1779A,123.9305,47.3636,齐齐哈尔市,安居小区,,19,,17,12,10,60,,47,47,8,8,3,3,0.3,0.3
2024-05-15T0900,1780A,123.9488,47.3386,齐齐哈尔市,中心广场,,18,8,11,3,7,56,,50,50,9,8,7,6,0.3,0.3
2024-05-15T0900,1781A,123.9483,47.3227,齐齐哈尔市,农牧车辆厂,,20,12,23,5,4,61,,52,52,8,8,7,6,0.3,0.3
2024-05-15T0900,1783A,123.945,47.2988,齐齐哈尔市,市环境监测站,,30,30,18,12,5,60,,50,50,9,8,5,4,0.2,0.2
2024-05-15T0900,3662A,123.6333,47.2075,齐齐哈尔市,富区青少年活动中心,,,,16,,3,,,73,,,10,,5,,0.3
2024-05-15T0900,2591A,107.9783,26.5747,黔东南苗族侗族自治州,市环境监测站,,41,41,37,27,21,35,,46,42,22,18,4,3,0.6,0.5
2024-05-15T0900,2881A,107.8908,26.5311,黔东南苗族侗族自治州,凯里学院,,38,38,36,22,19,54,,46,46,12,11,6,3,0.4,0.3
2024-05-15T0900,2593A,107.5228,26.2403,黔南布依族苗族自治州,小围寨,,36,36,31,22,15,45,,54,49,14,8,6,5,0.7,0.6
2024-05-15T0900,3538A,107.5175,26.2978,黔南布依族苗族自治州,沙坝,,36,36,32,22,15,55,,37,37,13,13,4,4,0.6,0.5
2024-05-15T0900,2589A,104.9022,25.0925,黔西南布依族苗族自治州,场坝街,,23,21,12,16,6,51,,82,78,23,16,17,5,0.3,0.2
2024-05-15T0900,2590A,104.8811,25.0992,黔西南布依族苗族自治州,坪东大道,,22,14,13,4,6,69,,84,81,12,6,4,3,0.2,0.2
2024-05-15T0900,2502A,108.6236,21.9667,钦州市,市环保站,,46,46,40,12,16,87,,82,82,11,11,12,8,0.7,0.9
2024-05-15T0900,2503A,108.6549,21.9481,钦州市,沙埠小学,,50,50,51,14,20,87,,75,74,12,13,8,7,0.7,0.8
2024-05-15T0900,2504A,108.5989,21.7431,钦州市,港区一小,,47,47,53,18,22,81,,88,84,15,12,10,8,0.7,0.8
2024-05-15T0900,3404A,108.5959,21.9633,钦州市,北职校,颗粒物(PM10),57,63,43,15,19,93,,87,86,9,10,12,9,0.7,0.9
2024-05-15T0900,1042A,119.5134,39.8207,秦皇岛市,北戴河环保局,,42,42,84,11,22,89,,88,87,8,14,2,4,0.2,0.3
2024-05-15T0900,1043A,119.7493,40.0116,秦皇岛市,第一关,颗粒物(PM10),59,68,78,6,26,86,,83,83,3,10,3,5,0.2,0.3
2024-05-15T0900,1044A,119.5897,39.9499,秦皇岛市,监测站,,,35,75,10,28,,,85,84,5,18,3,6,0.2,0.4
2024-05-15T0900,1046A,119.5251,39.9041,秦皇岛市,建设大厦,颗粒物(PM10),56,62,80,6,23,79,,74,74,2,8,3,4,0.1,0.2
2024-05-15T0900,3132A,119.610547,39.943889,秦皇岛市,文明里,,39,39,91,6,21,80,,77,77,13,17,2,4,0.4,0.4
2024-05-15T0900,1307A,120.6659,36.2403,青岛市,仰口,,29,29,83,12,33,75,,101,89,4,8,3,5,0.3,0.6
2024-05-15T0900,1310A,120.4134,36.0658,青岛市,市南区东部子站,,39,39,109,12,28,77,,107,94,15,14,5,7,0.4,0.6
2024-05-15T0900,1311A,120.3664,36.1032,青岛市,四方区子站,,,,110,44,48,,,111,100,,22,,6,,0.6
2024-05-15T0900,1312A,120.2994,36.054,青岛市,市南区西部子站,,28,19,98,17,44,87,,112,99,16,21,6,8,0.4,0.6
2024-05-15T0900,1313A,120.4581,36.0858,青岛市,崂山区子站,,29,29,98,5,28,82,,113,100,16,15,6,9,0.4,0.6
2024-05-15T0900,1314A,120.1983,35.9608,青岛市,黄岛区子站,,25,19,100,12,37,78,,91,79,21,20,6,8,0.4,0.6
2024-05-15T0900,1315A,120.3999,36.3083,青岛市,城阳区子站,,25,24,107,17,29,80,,98,88,14,21,6,9,0.4,0.6
2024-05-15T0900,1966A,120.0405,35.8735,青岛市,黄岛区4号,,44,44,105,9,28,89,,107,98,14,16,7,9,0.5,0.7
2024-05-15T0900,3362A,120.5014,36.4034,青岛市,即墨2号,,41,41,112,10,39,85,,104,93,9,14,5,8,0.4,0.6
2024-05-15T0900,3642A,120.3503,36.0736,青岛市,市北区南部,,29,29,85,12,26,77,,106,93,24,19,7,7,0.7,0.8
2024-05-15T0900,3643A,120.3948,36.1805,青岛市,李沧区北部,,34,34,118,9,33,85,,109,97,13,21,8,11,0.4,0.7
2024-05-15T0900,1702A,113.0426,23.691,清远市,环保大楼,颗粒物(PM10),59,68,58,39,28,62,,54,53,29,20,10,7,0.6,0.5
2024-05-15T0900,1703A,113.0208,23.7106,清远市,凤城街办,颗粒物(PM10),63,76,63,43,29,74,,67,65,34,23,10,8,0.7,0.6
2024-05-15T0900,3025A,113.0477,23.6344,清远市,技师学院,颗粒物(PM10),66,81,71,38,30,55,,28,28,32,34,12,8,0.6,0.5
2024-05-15T0900,3318A,112.9903,23.7403,清远市,清新太和,颗粒物(PM10),61,71,54,36,22,54,,80,75,54,26,8,9,0.9,0.6
2024-05-15T0900,3455A,113.076,23.7198,清远市,清城东城,,,,63,,24,72,,54,54,27,19,17,7,,0.5
2024-05-15T0900,2661A,107.6325,35.7357,庆阳市,庆阳五中,颗粒物(PM10),82,114,68,23,25,98,,117,112,9,14,6,7,0.3,0.3
2024-05-15T0900,2662A,107.6364,35.7067,庆阳市,市环保局,颗粒物(PM10),83,116,64,14,18,93,,121,113,13,14,6,7,0.5,0.5
2024-05-15T0900,1916A,103.7897,25.5035,曲靖市,环境监测站,,31,17,24,4,14,99,,86,86,11,10,1,3,0.6,0.6
2024-05-15T0900,1917A,103.8,25.5364,曲靖市,烟厂办公区,,32,,24,4,12,102,,83,83,7,8,4,4,0.6,0.6
2024-05-15T0900,3376A,103.7947,25.462,曲靖市,南苑二区,,34,,22,7,15,108,,88,88,12,12,3,5,0.5,0.6
2024-05-15T0900,3377A,103.7444,25.5261,曲靖市,曲靖师范学院,,30,16,25,3,16,96,,80,80,25,14,5,7,0.5,0.5
2024-05-15T0900,1264A,118.8692,28.9398,衢州市,环保大楼,颗粒物(PM10),54,58,46,33,25,75,,24,24,46,39,19,6,1.4,0.5
2024-05-15T0900,1265A,118.8709,28.9666,衢州市,实验学校,颗粒物(PM10),55,59,44,34,22,30,,25,21,55,33,12,5,1.0,0.5
2024-05-15T0900,1266A,118.8621,28.9808,衢州市,衢州学院,,,68,44,36,22,45,,12,12,,22,19,6,1.7,0.4
2024-05-15T0900,1611A,118.5819,24.9117,泉州市,涂山街,颗粒物(PM10),65,79,38,25,15,94,,65,64,22,18,3,3,0.6,0.5
2024-05-15T0900,1612A,118.5972,24.8978,泉州市,津头埔,颗粒物(PM10),57,64,35,24,16,88,,71,70,33,24,3,3,0.7,0.5
2024-05-15T0900,1613A,118.6663,24.9424,泉州市,万安,,49,49,34,18,15,81,,60,59,30,20,2,3,0.4,0.4
2024-05-15T0900,1614A,118.6117,24.9604,泉州市,清源山,,,,,,,,,,,,,,,,
2024-05-15T0900,3529A,118.6333,24.9264,泉州市,城华南路,,46,46,34,24,14,91,,72,72,28,21,4,4,0.4,0.3
2024-05-15T0900,2626A,88.8876,29.2718,日喀则市,日喀则监测站,,28,21,13,10,6,87,,105,103,17,8,5,5,0.4,0.3
2024-05-15T0900,3726A,88.8781,29.2426,日喀则市,林业技术推广中心,,31,26,16,7,4,98,,99,98,11,9,7,6,0.4,0.5
2024-05-15T0900,1659A,119.471,35.4209,日照市,监测站,颗粒物(PM10),76,102,124,4,30,92,,119,112,15,24,8,12,0.5,0.8
2024-05-15T0900,1660A,119.523,35.4216,日照市,市政府广场,,29,19,111,4,33,91,,119,112,11,27,6,11,0.3,0.7
2024-05-15T0900,1661A,119.5587,35.4044,日照市,港务局,,32,31,132,9,34,100,,117,114,4,24,7,10,0.4,0.7
2024-05-15T0900,3507A,119.5328,35.4625,日照市,职业技术学院,,34,34,120,12,34,87,,110,103,13,24,7,12,0.4,0.7
2024-05-15T0900,3604A,119.3266,35.1044,日照市,岚山环保分局,,29,29,125,15,34,92,,114,110,13,17,21,12,1.8,1.1
2024-05-15T0900,1835A,111.1922,34.7752,三门峡市,市政府,颗粒物(PM10),56,62,107,22,33,90,,94,94,15,22,7,9,0.5,0.5
2024-05-15T0900,1836A,111.1587,34.7942,三门峡市,开发区,颗粒物(PM10),59,67,80,20,31,99,,102,102,14,15,7,9,0.6,0.6
2024-05-15T0900,1838A,111.143,34.7955,三门峡市,风景区,,,,,,,,,,,,,,,,
2024-05-15T0900,3039A,111.1911,34.7829,三门峡市,三门峡市第一小学,颗粒物(PM10),61,71,107,5,21,95,,102,102,12,18,8,10,0.4,0.5
2024-05-15T0900,3598A,111.1,34.7167,三门峡市,富达温泉假日酒店,颗粒物(PM10),65,80,116,6,29,97,,105,105,13,22,7,11,0.7,0.8
2024-05-15T0900,2324A,117.6211,26.2625,三明市,三钢,,29,29,28,20,18,68,,39,39,20,19,14,7,1.1,0.5
2024-05-15T0900,2325A,117.635,26.2714,三明市,三明二中,,23,22,26,16,13,57,,39,39,18,12,15,7,1.2,0.6
2024-05-15T0900,2326A,117.6028,26.2378,三明市,三元区政府,,35,35,37,22,15,47,,32,32,31,25,20,9,2.0,0.7
2024-05-15T0900,2327A,117.7275,26.3108,三明市,洋溪,,,,,,,,,,,,,,,,
2024-05-15T0900,1876A,109.5078,18.2489,三亚市,河东子站,,22,18,13,8,8,69,,67,66,5,5,3,3,0.5,0.5
