timepoint,stationcode,longitude,latitude,area,positionname,primarypollutant,aqi,pm10,pm10_24h,pm2_5,pm2_5_24h,o3,o3_24h,o3_8h,o3_8h_24h,no2,no2_24h,so2,so2_24h,co,co_24h
2022-05-04T11:00:00,1001A,116.3621,39.8784,北京市,万寿西宫,颗粒物(PM10),83,116,95,50,34,177,109,83,55,38,31,3,2,0.7,0.5
2022-05-04T11:00:00,1002A,116.2202,40.2915,北京市,定陵(对照点),颗粒物(PM10),67,83,60,31,25,239,156,114,102,24,22,2,2,0.4,0.4
2022-05-04T11:00:00,1003A,116.4174,39.9289,北京市,东四,颗粒物(PM10),91,132,92,67,42,185,105,99,61,46,30,3,2,0.7,0.3
2022-05-04T11:00:00,1004A,116.4072,39.8863,北京市,天坛,颗粒物(PM10),81,112,74,44,26,184,112,100,50,32,24,4,3,0.6,0.5
2022-05-04T11:00:00,1005A,116.462,39.9365,北京市,农展馆,颗粒物(PM10),85,120,94,49,32,188,119,103,49,32,34,4,3,0.5,0.5
2022-05-04T11:00:00,1006A,116.3392,39.9295,北京市,官园,颗粒物(PM10),96,141,92,69,33,188,111,91,64,45,29,6,6,0.6,0.5
2022-05-04T11:00:00,1007A,116.2878,39.9611,北京市,海淀万柳,颗粒物(PM10),87,123,84,53,28,180,112,79,55,38,33,3,3,0.5,0.4
2022-05-04T11:00:00,1008A,116.6636,40.135,北京市,顺义新城,颗粒物(PM10),78,106,98,43,35,173,115,58,55,19,33,4,3,0.5,0.5
2022-05-04T11:00:00,1009A,116.6275,40.3275,北京市,怀柔镇,颗粒物(PM10),71,91,73,47,35,223,135,132,104,18,16,4,3,0.5,0.5
2022-05-04T11:00:00,1010A,116.2296,40.217,北京市,昌平镇,颗粒物(PM10),72,94,68,36,28,207,144,142,100,22,21,2,3,0.5,0.5
2022-05-04T11:00:00,1011A,116.3966,39.9821,北京市,奥体中心,颗粒物(PM10),91,132,99,52,34,186,92,101,57,58,29,3,4,0.7,0.6
2022-05-04T11:00:00,1012A,116.184,39.9136,北京市,古城,颗粒物(PM10),89,128,88,61,33,173,107,78,58,45,34,2,2,0.6,0.5
2022-05-04T11:00:00,1015A,117.1444,39.1661,天津市,勤俭道,颗粒物(PM10),83,116,125,48,45,195,137,137,102,18,16,15,10,0.9,0.8
2022-05-04T11:00:00,1017A,117.237,39.1082,天津市,大直沽八号路,颗粒物(PM10),82,114,106,47,35,188,132,140,102,20,17,18,15,0.6,0.5
2022-05-04T11:00:00,1018A,117.202,39.0927,天津市,前进道,,,115,98,42,29,176,122,131,96,21,17,16,12,,0.7
2022-05-04T11:00:00,1019A,117.1837,39.2133,天津市,淮河道,细颗粒物(PM2.5),84,113,122,62,47,201,136,130,102,19,19,16,14,0.8,0.6
2022-05-04T11:00:00,1021A,117.307,39.0877,天津市,跃进路,,,98,82,51,35,181,129,144,98,,17,,11,0.8,0.7
2022-05-04T11:00:00,1023A,117.707,39.0343,天津市,第四大街,颗粒物(PM10),84,118,107,48,33,156,120,122,92,23,20,13,10,0.7,0.6
2022-05-04T11:00:00,1024A,117.457,38.8394,天津市,永明路,颗粒物(PM10),69,88,92,36,30,182,138,133,98,13,14,19,15,0.6,0.5
2022-05-04T11:00:00,1026A,117.764,39.1587,天津市,汉北路,颗粒物(PM10),72,93,87,40,32,176,133,131,101,25,19,16,13,0.9,0.8
2022-05-04T11:00:00,1027A,117.157,38.9194,天津市,团泊洼(对照点),颗粒物(PM10),70,89,95,38,28,169,127,143,92,24,18,16,12,1.2,1
2022-05-04T11:00:00,1029A,114.4422,38.0444,石家庄市,职工医院,,,30,74,11,30,168,,112,112,27,24,14,18,0.4,0.6
2022-05-04T11:00:00,1030A,114.6063,38.0266,石家庄市,高新区,颗粒物(PM10),69,88,96,47,33,163,114,68,38,35,38,14,14,0.3,0.5
2022-05-04T11:00:00,1031A,114.4898,38.1328,石家庄市,西北水源,颗粒物(PM10),54,58,91,16,25,160,128,95,95,23,33,17,17,0.5,0.6
2022-05-04T11:00:00,1032A,114.4586,38.0058,石家庄市,西南高教,颗粒物(PM10),56,61,74,38,36,160,116,94,94,43,40,9,12,0.6,0.7
2022-05-04T11:00:00,1033A,114.5331,38.0178,石家庄市,世纪公园,颗粒物(PM10),69,87,92,33,34,168,108,68,68,36,32,8,9,0.6,0.7
2022-05-04T11:00:00,1034A,114.509,38.0457,石家庄市,人民会堂,细颗粒物(PM2.5),64,73,84,46,41,177,136,114,114,32,27,15,18,0.5,0.7
2022-05-04T11:00:00,1035A,114.3524,37.8911,石家庄市,封龙山(对照点),,44,34,70,21,24,166,138,123,123,3,6,13,16,0.4,0.5
2022-05-04T11:00:00,1037A,118.131,39.6363,唐山市,雷达站,颗粒物(PM10),83,115,109,41,39,232,125,113,90,23,21,10,7,0.7,0.6
2022-05-04T11:00:00,1038A,118.1725,39.6334,唐山市,物资局,颗粒物(PM10),82,113,107,29,42,235,124,115,78,32,36,15,12,0.6,0.7
2022-05-04T11:00:00,1040A,118.1705,39.6506,唐山市,十二中,颗粒物(PM10),80,109,98,55,45,229,122,116,72,29,33,12,10,0.7,0.6
2022-05-04T11:00:00,1041A,118.1869,39.622,唐山市,小山,颗粒物(PM10),82,114,110,35,33,241,131,111,67,27,40,13,10,0.6,0.6
2022-05-04T11:00:00,1042A,119.5134,39.8207,秦皇岛市,北戴河环保局,,46,46,52,28,35,194,131,122,102,25,23,15,11,1.4,1.4
2022-05-04T11:00:00,1043A,119.7493,40.0116,秦皇岛市,第一关,颗粒物(PM10),68,85,106,44,47,197,125,94,94,30,34,22,17,0.9,0.8
2022-05-04T11:00:00,1044A,119.5897,39.9499,秦皇岛市,监测站,颗粒物(PM10),60,70,85,36,37,199,115,98,94,35,32,15,12,1.0,0.9
2022-05-04T11:00:00,1046A,119.5251,39.9041,秦皇岛市,建设大厦,颗粒物(PM10),62,73,88,27,30,210,130,115,109,25,26,14,12,0.9,1
2022-05-04T11:00:00,1048A,114.5302,36.6116,邯郸市,东污水处理厂,,50,50,75,24,32,162,139,67,66,13,24,12,12,0.6,0.8
2022-05-04T11:00:00,1049A,114.4918,36.5713,邯郸市,矿院,颗粒物(PM10),60,70,87,24,30,172,142,71,70,8,18,14,10,0.8,0.8
2022-05-04T11:00:00,1050A,114.484,36.6133,邯郸市,丛台公园,,45,39,62,14,30,175,142,86,86,10,17,8,10,0.5,0.7
2022-05-04T11:00:00,1051A,115.493,38.8632,保定市,游泳馆,颗粒物(PM10),61,71,76,27,36,177,106,100,65,25,24,16,12,1.0,0.7
2022-05-04T11:00:00,1053A,115.4713,38.9108,保定市,接待中心,颗粒物(PM10),65,79,89,42,31,184,107,109,66,27,25,12,11,1.1,0.8
2022-05-04T11:00:00,1054A,115.4612,38.8416,保定市,地表水厂,颗粒物(PM10),71,91,87,27,28,180,108,108,70,25,22,15,13,0.9,0.7
2022-05-04T11:00:00,1055A,115.4323,38.8697,保定市,胶片厂,细颗粒物(PM2.5),67,73,75,48,46,182,103,101,62,24,20,19,16,1.0,0.7
2022-05-04T11:00:00,1056A,115.5086,38.8639,保定市,监测站,颗粒物(PM10),74,98,105,47,39,178,107,108,69,26,21,14,12,0.9,0.7
2022-05-04T11:00:00,1057A,114.8883,40.8336,张家口市,人民公园,,48,48,49,2,5,132,132,84,84,16,13,10,5,0.4,0.3
2022-05-04T11:00:00,1059A,114.8687,40.8042,张家口市,五金库,颗粒物(PM10),58,66,61,17,18,135,135,82,82,17,17,12,7,0.2,0.3
2022-05-04T11:00:00,1060A,114.8902,40.762,张家口市,世纪豪园,,,80,54,28,19,126,126,78,78,,22,9,5,0.3,0.3
2022-05-04T11:00:00,1061A,114.8916,40.8661,张家口市,北泵房(对照点),,,50,42,12,12,139,139,86,86,12,9,,9,0.5,0.5
2022-05-04T11:00:00,1062A,117.9531,40.9081,承德市,铁路,颗粒物(PM10),73,95,71,33,25,144,92,72,53,39,34,13,10,0.6,0.5
2022-05-04T11:00:00,1063A,117.9392,40.9763,承德市,中国银行,"颗粒物(PM10),细颗粒物(PM2.5)",62,73,61,44,31,146,106,48,48,26,30,11,14,0.6,0.6
2022-05-04T11:00:00,1064A,117.9503,40.928,承德市,开发区,颗粒物(PM10),66,82,69,26,25,159,95,55,51,42,32,14,12,0.7,0.7
2022-05-04T11:00:00,1065A,117.8051,40.9655,承德市,文化中心,,,,76,,33,147,113,82,59,,29,29,21,1.1,0.8
2022-05-04T11:00:00,1066A,117.9268,41.0026,承德市,离宫(对照点),颗粒物(PM10),67,83,60,23,26,147,117,69,66,18,19,11,13,0.6,0.5
2022-05-04T11:00:00,1067A,116.6708,39.5111,廊坊市,药材公司,颗粒物(PM10),75,100,90,38,33,185,132,112,95,21,18,8,7,0.6,0.5
2022-05-04T11:00:00,1068A,116.7214,39.5589,廊坊市,开发区,颗粒物(PM10),78,106,106,42,31,176,126,111,94,25,21,8,6,0.6,0.5
2022-05-04T11:00:00,1070A,116.7244,39.5269,廊坊市,北华航天学院,细颗粒物(PM2.5),103,112,101,77,54,180,127,110,94,23,20,12,10,0.5,0.5
2022-05-04T11:00:00,1071A,116.8842,38.2991,沧州市,沧县城建局,颗粒物(PM10),63,76,72,30,31,176,117,119,87,24,20,19,15,0.8,0.6
2022-05-04T11:00:00,1072A,116.8584,38.3254,沧州市,电视转播站,,,74,92,41,33,170,,131,81,27,22,11,8,0.6,0.5
2022-05-04T11:00:00,1073A,116.8709,38.3228,沧州市,市环保局,颗粒物(PM10),68,85,76,31,31,184,120,133,90,29,24,13,12,0.9,0.7
2022-05-04T11:00:00,1074A,115.6838,37.7541,衡水市,电机北厂,颗粒物(PM10),69,88,101,30,31,180,113,124,80,21,15,22,17,0.7,0.3
2022-05-04T11:00:00,1075A,115.6303,37.7316,衡水市,市监测站,颗粒物(PM10),74,98,100,38,29,173,111,119,75,19,15,21,13,0.8,0.6
2022-05-04T11:00:00,1077A,114.4704,37.0886,邢台市,达活泉,,44,34,71,9,23,186,139,70,70,14,30,10,15,0.4,0.9
2022-05-04T11:00:00,1078A,114.5062,37.0349,邢台市,邢师高专,颗粒物(PM10),64,78,90,24,27,192,142,66,64,11,34,10,10,0.7,0.7
2022-05-04T11:00:00,1079A,114.5237,37.0851,邢台市,路桥公司,,,128,82,,28,191,,73,56,,33,10,12,0.6,0.7
2022-05-04T11:00:00,1081A,112.5139,37.8873,太原市,尖草坪,,,111,95,46,37,156,,28,28,36,52,38,14,,0.5
2022-05-04T11:00:00,1083A,112.434,38.0108,太原市,上兰(对照点),颗粒物(PM10),80,110,49,55,26,149,87,97,80,31,14,34,10,0.8,0.4
2022-05-04T11:00:00,1084A,112.469,37.7124,太原市,晋源,细颗粒物(PM2.5),137,124,85,104,46,148,114,68,38,39,41,45,22,1.1,0.7
2022-05-04T11:00:00,1085A,112.5583,37.7394,太原市,小店,颗粒物(PM10),73,95,80,49,42,155,122,86,58,28,35,34,27,1.0,0.8
2022-05-04T11:00:00,1086A,112.5369,37.8692,太原市,桃园,颗粒物(PM10),74,98,78,44,31,156,106,50,50,40,51,32,16,0.8,0.6
2022-05-04T11:00:00,1088A,112.549,37.9854,太原市,南寨,颗粒物(PM10),83,115,91,52,32,155,92,28,28,44,46,50,15,1.7,0.7
2022-05-04T11:00:00,1090A,111.6507,40.7517,呼和浩特市,呼市一监,,,75,93,16,26,148,,71,50,14,25,12,10,0.4,0.4
2022-05-04T11:00:00,1091A,111.6572,40.8033,呼和浩特市,小召,颗粒物(PM10),64,78,79,34,29,134,98,70,44,30,37,14,11,0.6,0.5
2022-05-04T11:00:00,1094A,111.7516,40.8369,呼和浩特市,如意水处理厂,颗粒物(PM10),60,70,78,22,23,140,110,50,50,20,42,15,12,0.4,0.4
2022-05-04T11:00:00,1095A,111.7276,40.8062,呼和浩特市,二十九中,颗粒物(PM10),62,73,77,22,18,138,113,54,46,19,37,14,12,0.6,0.6
2022-05-04T11:00:00,1096A,111.5512,40.7866,呼和浩特市,工大金川校区,颗粒物(PM10),70,90,91,26,33,133,102,49,49,17,32,12,13,0.4,0.4
2022-05-04T11:00:00,1097A,111.717,40.7612,呼和浩特市,化肥厂生活区,,,82,90,,31,134,109,57,45,,30,16,12,0.5,0.6
2022-05-04T11:00:00,1098A,123.6836,41.9339,沈阳市,森林路(对照点),颗粒物(PM10),60,70,80,25,28,178,146,127,127,14,15,13,12,0.6,0.5
2022-05-04T11:00:00,1099A,123.505,41.7406,沈阳市,浑南东路,颗粒物(PM10),76,101,113,27,38,185,134,117,117,12,15,20,18,0.7,0.8
2022-05-04T11:00:00,1100A,123.4231,41.6989,沈阳市,新秀街,颗粒物(PM10),73,95,117,26,28,175,136,118,118,16,18,17,16,0.6,0.6
2022-05-04T11:00:00,1102A,123.5903,41.8411,沈阳市,东陵路,颗粒物(PM10),86,121,102,24,28,170,128,109,109,14,16,16,16,0.7,0.8
2022-05-04T11:00:00,1103A,123.4264,41.8467,沈阳市,陵东街,颗粒物(PM10),67,83,92,27,30,188,141,127,121,17,15,15,13,0.7,0.6
2022-05-04T11:00:00,1104A,123.4114,41.7653,沈阳市,文化路,,,120,117,32,35,188,,123,116,12,11,16,15,1.0,0.9
2022-05-04T11:00:00,1105A,123.4678,41.7867,沈阳市,小河沿,颗粒物(PM10),74,98,117,25,30,176,134,129,129,15,16,17,12,0.8,0.8
2022-05-04T11:00:00,1106A,123.4017,41.7972,沈阳市,太原街,,,109,103,40,40,188,146,125,123,18,16,14,14,,0.7
2022-05-04T11:00:00,1108A,123.3783,41.9228,沈阳市,京沈街,颗粒物(PM10),102,153,128,35,42,193,147,133,126,16,16,16,16,0.8,0.9
2022-05-04T11:00:00,1109A,121.612,38.9741,大连市,甘井子,颗粒物(PM10),57,64,83,28,34,145,135,126,110,25,23,8,6,0.5,0.6
2022-05-04T11:00:00,1110A,121.565,38.9511,大连市,周水子,,50,50,70,10,26,158,148,140,119,15,18,7,9,0,0.1
2022-05-04T11:00:00,1111A,121.5637,38.8845,大连市,星海三站,颗粒物(PM10),55,59,54,36,30,156,149,147,134,22,21,8,6,0.6,0.6
2022-05-04T11:00:00,1112A,121.6302,38.9117,大连市,青泥洼桥,,49,49,60,23,23,154,153,137,128,15,17,11,10,0.6,0.5
2022-05-04T11:00:00,1113A,121.6251,38.8638,大连市,傅家庄,颗粒物(PM10),52,54,54,26,27,146,131,128,120,15,14,3,3,0.7,0.7
2022-05-04T11:00:00,1114A,121.5213,38.8661,大连市,七贤岭,,,64,69,20,28,280,30,108,106,,19,16,15,0.6,0.6
2022-05-04T11:00:00,1115A,121.2529,38.8061,大连市,旅顺,,49,49,44,30,26,162,152,143,128,14,17,7,7,0.7,0.7
2022-05-04T11:00:00,1116A,121.7485,39.1311,大连市,金州,,49,49,60,25,31,158,141,128,122,19,20,11,10,0.7,0.7
2022-05-04T11:00:00,1117A,121.7811,39.0496,大连市,开发区,颗粒物(PM10),52,53,52,22,26,139,126,116,106,28,26,8,7,0.7,0.7
2022-05-04T11:00:00,1118A,121.9762,39.0631,大连市,双D港,,,49,57,34,27,164,127,124,104,20,22,,12,,0.6
2022-05-04T11:00:00,1119A,125.3325,43.9166,长春市,食品厂,,,114,97,,43,152,142,150,135,16,16,10,10,0.9,0.8
2022-05-04T11:00:00,1120A,125.2863,43.9027,长春市,客车厂,颗粒物(PM10),77,103,93,27,33,160,149,155,140,17,16,9,10,1.5,1.4
2022-05-04T11:00:00,1121A,125.2841,43.8463,长春市,邮电学院,颗粒物(PM10),83,116,109,28,31,159,149,150,139,9,11,5,5,1.1,1.1
2022-05-04T11:00:00,1122A,125.3716,43.8772,长春市,劳动公园,,,84,84,45,33,171,,157,144,10,13,6,6,0.9,0.9
2022-05-04T11:00:00,1123A,125.3297,43.8805,长春市,园林处,颗粒物(PM10),71,92,86,25,30,160,154,157,145,12,14,8,8,0.8,0.8
2022-05-04T11:00:00,1124A,125.4605,43.79,长春市,净月潭,颗粒物(PM10),58,66,72,24,26,169,160,148,148,9,10,9,9,0.6,0.7
2022-05-04T11:00:00,1125A,125.7194,43.515,长春市,甩湾子(对照点),,,,63,27,23,148,139,121,121,8,9,11,12,0.7,0.7
2022-05-04T11:00:00,1126A,125.3863,43.8447,长春市,经开区环卫处,颗粒物(PM10),68,85,81,24,28,153,143,134,132,6,9,12,12,0.7,0.8
2022-05-04T11:00:00,1127A,125.245,43.7783,长春市,高新区管委会,颗粒物(PM10),61,72,85,27,32,167,152,152,138,8,11,9,8,1.1,1.1
2022-05-04T11:00:00,1128A,125.1761,43.8325,长春市,岱山公园,颗粒物(PM10),73,96,89,27,32,148,144,146,130,12,12,9,9,0.9,0.9
2022-05-04T11:00:00,1129A,126.5422,45.755,哈尔滨市,岭北(对照点),细颗粒物(PM2.5),113,115,84,85,58,134,134,120,120,12,14,,10,0.3,0.4
2022-05-04T11:00:00,1130A,126.561,45.8167,哈尔滨市,松北商大,颗粒物(PM10),68,85,66,32,55,156,156,131,131,13,20,7,5,1.2,1.1
2022-05-04T11:00:00,1131A,126.979,45.5419,哈尔滨市,阿城会宁,颗粒物(PM10),70,90,87,40,36,156,156,120,120,16,25,16,14,0.8,0.6
2022-05-04T11:00:00,1132A,126.599,45.7222,哈尔滨市,南岗学府路,颗粒物(PM10),70,89,71,42,44,148,148,125,125,14,17,12,7,0.7,0.8
2022-05-04T11:00:00,1133A,126.689,45.7733,哈尔滨市,太平宏伟公园,颗粒物(PM10),78,106,96,36,53,144,144,112,112,16,24,18,16,1.0,0.9
2022-05-04T11:00:00,1134A,126.635,45.7667,哈尔滨市,道外承德广场,颗粒物(PM10),83,115,91,48,58,140,140,125,125,28,27,18,16,0.9,0.7
2022-05-04T11:00:00,1135A,126.685,45.7319,哈尔滨市,香坊红旗大街,颗粒物(PM10),82,113,88,40,52,140,140,112,112,25,28,14,12,1.0,0.8
2022-05-04T11:00:00,1136A,126.6411,45.7258,哈尔滨市,动力和平路,颗粒物(PM10),77,104,84,41,60,134,134,112,112,14,20,12,10,0.6,0.5
2022-05-04T11:00:00,1137A,126.593,45.7478,哈尔滨市,道里建国路,颗粒物(PM10),73,96,84,41,52,138,138,128,128,17,22,16,14,1.0,1.1
2022-05-04T11:00:00,1138A,126.615,45.61,哈尔滨市,平房东轻厂,颗粒物(PM10),78,105,89,40,54,148,148,122,122,20,29,25,25,0.2,0.5
2022-05-04T11:00:00,1139A,126.595,45.9855,哈尔滨市,呼兰师专,颗粒物(PM10),76,102,97,40,74,135,135,85,85,16,23,15,13,0.8,0.8
2022-05-04T11:00:00,1140A,126.6206,45.6842,哈尔滨市,省农科院,颗粒物(PM10),80,110,91,33,49,141,141,119,119,16,20,18,17,0.8,0.7
2022-05-04T11:00:00,1141A,121.4,31.238,上海市,普陀,臭氧1小时,72,41,70,27,47,222,177,194,152,16,21,8,13,1.9,2
2022-05-04T11:00:00,1142A,121.478,31.2036,上海市,十五厂,,50,36,72,30,60,219,160,176,137,14,18,7,8,0.9,1.1
2022-05-04T11:00:00,1143A,121.467,31.3008,上海市,虹口,,50,44,70,23,47,222,159,178,139,9,17,7,8,1.2,1.4
2022-05-04T11:00:00,1144A,121.412,31.1654,上海市,徐汇上师大,"细颗粒物(PM2.5),臭氧1小时",52,42,78,36,66,200,161,168,129,8,12,10,17,0.9,1.1
2022-05-04T11:00:00,1145A,121.536,31.2659,上海市,杨浦四漂,臭氧1小时,55,36,79,23,57,241,164,180,147,6,14,10,11,0.5,0.7
2022-05-04T11:00:00,1147A,121.425,31.2261,上海市,静安监测站,细颗粒物(PM2.5),58,48,81,41,65,213,160,183,137,20,26,25,15,0,0
2022-05-04T11:00:00,1148A,121.703,31.1907,上海市,浦东川沙,,,,72,31,71,247,172,170,151,15,24,6,7,1.1,1.2
2022-05-04T11:00:00,1149A,121.533,31.2284,上海市,浦东新区监测站,,48,39,74,23,55,232,151,186,143,8,17,6,7,0.7,0.9
2022-05-04T11:00:00,1150A,121.577,31.2071,上海市,浦东张江,,47,29,78,21,62,214,148,165,135,12,20,5,6,0.7,1
2022-05-04T11:00:00,1151A,118.8086,32.1065,南京市,迈皋桥,颗粒物(PM10),58,66,53,24,18,164,133,125,102,35,33,10,9,0.5,0.5
2022-05-04T11:00:00,1152A,118.7538,32.0551,南京市,草场门,颗粒物(PM10),52,53,55,29,23,168,135,102,85,24,37,2,6,0.7,0.7
2022-05-04T11:00:00,1153A,118.7794,32.0745,南京市,山西路,颗粒物(PM10),60,70,67,27,25,171,144,118,108,25,22,6,7,0.4,0.4
2022-05-04T11:00:00,1154A,118.7752,32.0023,南京市,中华门,颗粒物(PM10),56,61,62,14,18,171,138,79,79,21,31,5,4,0.3,0.2
2022-05-04T11:00:00,1155A,118.8109,32.0309,南京市,瑞金路,颗粒物(PM10),57,63,49,31,24,165,143,78,78,22,34,9,6,0.7,0.7
2022-05-04T11:00:00,1156A,118.7997,32.0754,南京市,玄武湖,,48,48,45,24,22,165,141,129,114,25,18,4,5,0.6,0.6
2022-05-04T11:00:00,1157A,118.6414,32.0931,南京市,浦口,颗粒物(PM10),65,80,52,27,20,164,127,96,96,46,26,19,7,2.2,0.8
2022-05-04T11:00:00,1158A,118.7356,31.9996,南京市,奥体中心,,,78,52,24,22,170,134,105,85,31,35,12,10,,1.1
2022-05-04T11:00:00,1159A,118.9125,32.1028,南京市,仙林大学城,颗粒物(PM10),58,66,51,27,25,176,159,134,110,14,18,8,8,0.7,0.7
2022-05-04T11:00:00,1160A,120.561,31.2472,苏州市,上方山(对照点),,50,46,49,35,42,211,156,154,110,25,25,8,8,0.6,0.7
2022-05-04T11:00:00,1162A,120.591,31.3019,苏州市,彩香,臭氧1小时,52,52,53,18,37,215,161,162,114,16,19,9,10,0.7,0.7
2022-05-04T11:00:00,1163A,120.596,31.3264,苏州市,轧钢厂,,,,62,,34,217,,168,107,21,22,,11,0.6,0.7
2022-05-04T11:00:00,1164A,120.613,31.2703,苏州市,吴中区,,50,49,58,19,35,224,157,155,110,27,26,8,9,0.5,0.5
2022-05-04T11:00:00,1165A,120.543,31.2994,苏州市,苏州新区,,50,40,59,19,34,210,158,178,124,24,21,8,8,0.5,0.5
2022-05-04T11:00:00,1166A,120.669,31.3097,苏州市,苏州工业园区,,48,47,50,23,34,210,151,171,123,22,17,6,7,0.6,0.7
2022-05-04T11:00:00,1167A,120.641,31.3708,苏州市,相城区,,,,59,,46,212,,163,101,27,34,9,9,0.7,0.8
2022-05-04T11:00:00,1168A,120.9098,31.9663,南通市,狼山街道,臭氧1小时,64,48,63,24,45,221,171,107,107,20,39,12,13,0.7,0.9
2022-05-04T11:00:00,1169A,120.86,32.0005,南通市,虹桥,臭氧1小时,53,46,60,25,49,206,162,152,130,18,28,8,10,0.6,0.7
2022-05-04T11:00:00,1170A,120.87,32.02,南通市,城中,,50,47,61,24,42,202,159,151,129,21,29,10,11,0.5,0.6
2022-05-04T11:00:00,1171A,120.94,31.93,南通市,星湖花园,,,,64,36,43,220,156,125,125,,34,12,13,0.8,0.9
2022-05-04T11:00:00,1172A,120.81,32.0417,南通市,紫琅学院,细颗粒物(PM2.5),52,47,62,36,43,217,160,130,120,28,44,11,10,0.7,0.7
2022-05-04T11:00:00,1173A,119.176,34.5885,连云港市,市环境监测站,颗粒物(PM10),60,70,62,22,23,172,153,129,128,14,13,10,10,0.6,0.6
2022-05-04T11:00:00,1177A,117.179,34.2761,徐州市,黄河新村,,,80,68,20,21,176,,119,119,10,12,,11,0.4,0.5
2022-05-04T11:00:00,1178A,117.1918,34.2384,徐州市,淮塔,,,66,67,17,29,171,,75,75,12,23,11,16,0.6,1.1
2022-05-04T11:00:00,1180A,117.256,34.2153,徐州市,新城区,颗粒物(PM10),68,85,80,26,27,159,143,88,88,18,22,14,11,0.6,0.6
2022-05-04T11:00:00,1181A,117.244,34.2911,徐州市,桃园路,颗粒物(PM10),60,70,66,29,27,170,149,94,94,25,20,11,13,0.5,0.7
2022-05-04T11:00:00,1182A,117.2933,34.2778,徐州市,农科院,颗粒物(PM10),63,75,69,27,20,162,141,96,96,23,21,14,12,0.5,0.4
2022-05-04T11:00:00,1186A,119.389,32.3761,扬州市,邗江监测站,颗粒物(PM10),67,83,59,35,29,187,166,132,132,22,16,8,6,0.7,0.6
2022-05-04T11:00:00,1188A,120.269,31.4867,无锡市,雪浪,,,51,55,22,26,226,,203,152,14,15,10,10,0.6,0.7
2022-05-04T11:00:00,1189A,120.275,31.6219,无锡市,黄巷,臭氧1小时,75,56,51,24,23,181,180,146,139,16,25,9,9,1.0,1
2022-05-04T11:00:00,1190A,120.294,31.56,无锡市,曹张,臭氧1小时,67,37,45,24,22,185,173,131,131,6,13,8,8,0.6,0.7
2022-05-04T11:00:00,1191A,120.242,31.5031,无锡市,漆塘,臭氧1小时,72,56,44,24,28,195,177,181,131,15,15,7,7,0.5,0.5
2022-05-04T11:00:00,1192A,120.3489,31.5863,无锡市,东亭,,,51,57,27,32,190,179,123,114,19,37,,10,0.6,0.7
2022-05-04T11:00:00,1193A,120.354,31.5475,无锡市,旺庄,,,,58,29,32,183,169,110,110,16,31,10,11,0.6,0.7
2022-05-04T11:00:00,1194A,120.245,31.5631,无锡市,荣巷,臭氧1小时,67,48,41,34,28,190,173,158,129,14,16,10,10,0.5,0.5
2022-05-04T11:00:00,1195A,120.299,31.6817,无锡市,堰桥,臭氧1小时,64,51,53,27,29,174,171,123,123,16,27,8,8,0.7,0.7
2022-05-04T11:00:00,1196A,119.9633,31.762,常州市,市监测站,臭氧1小时,63,58,61,36,28,180,170,127,127,20,18,11,10,0.6,0.6
2022-05-04T11:00:00,1200A,119.9468,31.7069,常州市,武进监测站,臭氧1小时,73,42,63,25,31,191,178,141,136,15,16,8,10,0.5,0.5
2022-05-04T11:00:00,1201A,119.9255,31.9087,常州市,安家,臭氧1小时,62,55,57,35,36,185,169,132,123,26,25,10,8,0.4,0.4
2022-05-04T11:00:00,1203A,119.6707,32.1875,镇江市,新区办事处,,47,42,52,27,28,149,149,123,122,18,21,5,6,0.5,0.5
2022-05-04T11:00:00,1204A,119.4974,32.1968,镇江市,职教中心,,,54,52,34,30,166,,131,131,20,18,8,8,0.7,0.5
2022-05-04T11:00:00,1205A,119.4303,32.1328,镇江市,丹徒区监测站,臭氧1小时,80,56,54,39,29,184,184,140,140,16,17,13,7,0.7,0.5
2022-05-04T11:00:00,1206A,119.905,32.4878,泰州市,公园路,臭氧1小时,78,68,50,41,27,182,182,116,116,26,27,8,8,0.7,0.6
2022-05-04T11:00:00,1207A,119.9189,32.4625,泰州市,莲花,臭氧1小时,70,73,57,44,35,176,176,109,109,24,21,10,11,0.9,0.9
2022-05-04T11:00:00,1209A,119.888,32.4639,泰州市,留学生创业园,,,,57,,28,185,185,116,116,34,26,,10,,0.7
2022-05-04T11:00:00,1210A,119.036,33.5981,淮安市,钵池山,颗粒物(PM10),59,68,53,32,27,156,148,112,112,15,16,16,13,0.8,0.7
2022-05-04T11:00:00,1211A,119.007,33.575,淮安市,北京南路,颗粒物(PM10),64,78,66,29,28,165,155,109,109,21,25,15,14,0.7,0.6
2022-05-04T11:00:00,1212A,118.989,33.6067,淮安市,市监测站,颗粒物(PM10),79,107,63,36,25,178,154,109,109,31,31,21,18,1.2,0.9
2022-05-04T11:00:00,1213A,119.135,33.5039,淮安市,楚州区监测站,颗粒物(PM10),58,66,63,27,24,161,139,108,108,21,24,14,13,0.8,0.7
2022-05-04T11:00:00,1214A,119.0186,33.6297,淮安市,淮阴区监测站,颗粒物(PM10),63,75,53,37,28,174,143,109,109,33,25,20,13,1.3,0.6
2022-05-04T11:00:00,1215A,120.118,33.4022,盐城市,盐城电厂,臭氧1小时,79,63,67,38,35,194,183,120,120,19,22,14,16,0.6,0.7
2022-05-04T11:00:00,1216A,120.156,33.3942,盐城市,市监测站,臭氧1小时,75,71,58,37,31,191,180,126,126,16,24,14,16,0.6,0.6
2022-05-04T11:00:00,1218A,120.2144,33.38,盐城市,开发区管委会,臭氧1小时,70,59,67,34,43,176,176,108,108,11,21,11,11,0.9,0.9
2022-05-04T11:00:00,1220A,118.293,33.9528,宿迁市,宿迁学院,颗粒物(PM10),64,77,71,44,32,172,157,116,116,8,20,7,7,0.5,0.5
2022-05-04T11:00:00,1221A,118.2442,33.9592,宿迁市,宿迁中学,,46,46,55,29,22,162,146,118,114,8,12,8,7,0.5,0.5
2022-05-04T11:00:00,1223A,120.2072,30.2111,杭州市,滨江,颗粒物(PM10),52,54,60,22,27,172,117,93,69,34,38,5,5,0.5,0.5
2022-05-04T11:00:00,1224A,120.0633,30.2747,杭州市,西溪,,39,38,44,24,25,167,123,45,45,22,29,7,7,0.5,0.6
2022-05-04T11:00:00,1226A,120.3461,30.3153,杭州市,下沙,颗粒物(PM10),53,56,72,22,33,191,139,86,74,29,43,8,10,0.5,0.6
2022-05-04T11:00:00,1227A,120.1269,30.2456,杭州市,卧龙桥,,40,34,36,21,24,171,127,54,54,24,25,5,5,0.5,0.5
2022-05-04T11:00:00,1228A,120.1903,30.2692,杭州市,浙江农大,,,34,61,25,32,196,135,70,70,26,39,,7,0.5,0.6
2022-05-04T11:00:00,1230A,120.1197,30.3119,杭州市,和睦小学,,,53,68,25,31,177,,40,40,26,43,4,4,0.8,0.8
2022-05-04T11:00:00,1231A,120.3019,30.4183,杭州市,临平镇,,,,81,,40,188,125,94,73,34,38,,6,0.7,0.8
2022-05-04T11:00:00,1232A,120.2697,30.1819,杭州市,城厢镇,颗粒物(PM10),54,57,56,22,29,162,121,105,64,31,34,9,8,0.6,0.6
2022-05-04T11:00:00,1233A,120.0883,30.1808,杭州市,云栖,颗粒物(PM10),57,64,46,30,22,167,104,61,46,47,31,8,7,0.7,0.5
2022-05-04T11:00:00,1234A,121.8358,29.911,宁波市,区环保大楼,,,28,61,16,33,179,,115,90,17,36,12,13,0.6,0.8
2022-05-04T11:00:00,1235A,121.56,29.82,宁波市,万里学院,臭氧1小时,67,27,48,17,27,216,173,137,126,11,17,12,13,0.5,0.6
2022-05-04T11:00:00,1236A,121.713,29.9572,宁波市,龙赛医院,,,47,53,23,30,200,,143,100,59,38,16,12,0.9,0.8
2022-05-04T11:00:00,1239A,121.633,29.7733,宁波市,钱湖水厂,,49,21,37,15,26,196,154,136,126,5,8,9,9,0.5,0.6
2022-05-04T11:00:00,1240A,121.5856,29.8635,宁波市,太古小学,,46,25,51,14,31,189,147,127,108,13,23,10,12,0.5,0.6
2022-05-04T11:00:00,1241A,121.524,29.8674,宁波市,市环境监测中心,,,35,48,13,25,207,,125,105,21,24,10,15,0.6,0.6
2022-05-04T11:00:00,1242A,120.634,28.0089,温州市,瓯海,,,58,54,30,18,152,141,57,57,20,43,9,7,,0.5
2022-05-04T11:00:00,1243A,120.6748,27.9939,温州市,南浦,颗粒物(PM10),55,60,50,30,19,150,147,74,74,14,38,9,8,0.4,0.4
2022-05-04T11:00:00,1244A,120.76,27.9747,温州市,龙湾,颗粒物(PM10),60,70,57,24,18,158,136,60,60,28,51,9,6,0.3,0.4
2022-05-04T11:00:00,1245A,120.6709,28.0167,温州市,市站,颗粒物(PM10),59,68,43,27,20,154,144,74,74,21,37,7,6,0.3,0.3
2022-05-04T11:00:00,1247A,120.6053,29.9928,绍兴市,城东开发委,,46,35,39,10,21,182,146,146,105,13,21,6,7,0.4,0.5
2022-05-04T11:00:00,1250A,120.0751,30.8669,湖州市,城西水厂,颗粒物(PM10),53,56,58,20,33,180,135,130,75,25,29,9,14,0.5,0.6
2022-05-04T11:00:00,1252A,120.7436,30.778,嘉兴市,清河小学,,45,28,50,16,26,202,141,135,123,14,19,7,10,0.2,0.4
2022-05-04T11:00:00,1253A,120.726,30.7478,嘉兴市,嘉兴学院,,,33,48,20,27,205,,137,120,20,24,6,8,0.4,0.6
2022-05-04T11:00:00,1255A,121.273,28.6459,台州市,黄岩环保大楼,,,64,52,34,23,175,,91,91,24,20,,7,0.3,0.3
2022-05-04T11:00:00,1256A,121.419,28.6542,台州市,台州环保大楼,颗粒物(PM10),60,70,62,36,24,182,160,84,80,24,26,7,6,0.4,0.4
2022-05-04T11:00:00,1257A,121.377,28.5773,台州市,路桥田洋王,细颗粒物(PM2.5),69,65,49,50,29,172,158,76,76,21,28,11,8,0.6,0.7
2022-05-04T11:00:00,1258A,122.122,30.0203,舟山市,定海檀枫,,39,30,60,13,33,189,124,101,101,25,25,5,4,0.4,0.5
2022-05-04T11:00:00,1259A,122.3094,29.9558,舟山市,普陀东港,,45,32,49,21,34,233,143,125,125,15,25,4,5,0.5,0.6
2022-05-04T11:00:00,1260A,122.19,29.9944,舟山市,临城新区,,47,22,48,16,32,225,149,110,110,10,24,3,4,0.3,0.5
2022-05-04T11:00:00,1262A,119.647,29.077,金华市,十五中,颗粒物(PM10),54,58,49,21,25,155,134,102,87,20,28,6,7,0.4,0.5
2022-05-04T11:00:00,1263A,119.686,29.1029,金华市,监测站,,47,47,53,22,22,151,128,60,60,17,36,6,11,0.4,0.5
2022-05-04T11:00:00,1264A,118.8692,28.9398,衢州市,环保大楼,颗粒物(PM10),53,55,52,24,27,160,118,62,62,23,27,12,8,0.5,0.5
2022-05-04T11:00:00,1265A,118.8709,28.9666,衢州市,实验学校,,,33,34,17,18,164,118,61,61,26,24,8,6,,0.4
2022-05-04T11:00:00,1266A,118.8621,28.9808,衢州市,衢州学院,,38,34,41,16,22,162,120,58,58,20,36,6,5,0.6,0.6
2022-05-04T11:00:00,1267A,119.914,28.4514,丽水市,监测站大楼,,,55,42,25,15,136,108,58,58,21,21,7,6,,0.1
2022-05-04T11:00:00,1268A,119.93,28.4586,丽水市,莲都小学,,50,50,38,22,12,138,112,71,66,22,21,9,6,0.3,0.2
2022-05-04T11:00:00,1269A,119.879,28.4231,丽水市,余庄前,,47,47,27,18,15,132,109,49,38,31,18,8,6,0.3,0.2
2022-05-04T11:00:00,1270A,117.1959,31.7848,合肥市,明珠广场,颗粒物(PM10),56,61,60,29,24,158,107,58,58,31,45,7,8,0.2,0.6
2022-05-04T11:00:00,1271A,117.3072,31.8764,合肥市,三里街,颗粒物(PM10),54,58,59,22,20,150,108,65,65,27,39,9,7,0.6,0.6
2022-05-04T11:00:00,1272A,117.2588,31.8707,合肥市,琥珀山庄,颗粒物(PM10),54,58,54,22,21,142,104,51,51,22,35,8,6,0.7,0.7
2022-05-04T11:00:00,1273A,117.1604,31.9052,合肥市,董铺水库(对照点),,,53,55,,26,153,93,74,46,34,30,11,11,1.3,1.2
2022-05-04T11:00:00,1274A,117.25,31.8571,合肥市,长江中路,,,,57,,16,168,,63,63,35,41,,9,0.6,0.5
2022-05-04T11:00:00,1275A,117.266,31.9436,合肥市,庐阳区,颗粒物(PM10),64,78,69,19,17,183,135,71,71,24,43,12,10,0.5,0.4
2022-05-04T11:00:00,1276A,117.336,31.8586,合肥市,瑶海区,颗粒物(PM10),54,58,64,29,24,152,118,76,76,23,35,9,7,0.5,0.5
2022-05-04T11:00:00,1277A,117.3027,31.7964,合肥市,包河区,颗粒物(PM10),54,58,54,24,25,160,119,68,61,18,33,9,8,0.4,0.4
2022-05-04T11:00:00,1278A,117.2776,31.7385,合肥市,滨湖新区,,49,49,53,27,22,170,125,93,93,16,18,9,7,0.3,0.2
2022-05-04T11:00:00,1279A,117.1318,31.8403,合肥市,高新区,颗粒物(PM10),56,61,61,27,24,160,117,70,65,30,34,10,9,0.5,0.5
2022-05-04T11:00:00,1280A,119.3903,26.0543,福州市,鼓山(对照点),,,46,28,17,10,151,142,146,146,,,,,,
2022-05-04T11:00:00,1282A,119.2681,26.0504,福州市,师大,,45,41,36,18,11,144,144,83,83,12,22,4,4,0.5,0.5
2022-05-04T11:00:00,1283A,119.2984,26.1028,福州市,五四北路,,,43,35,20,9,136,,88,87,13,21,5,4,0.6,0.5
2022-05-04T11:00:00,1284A,119.2648,26.0768,福州市,杨桥西路,,45,45,34,16,12,131,131,77,77,10,16,5,5,0.4,0.4
2022-05-04T11:00:00,1285A,119.317,26.0746,福州市,紫阳,,,44,32,22,12,144,144,107,102,9,18,,7,0.6,0.6
2022-05-04T11:00:00,1286A,118.1608,24.8169,厦门市,溪东(对照点),,41,20,26,17,14,147,129,126,126,5,4,2,2,0.3,0.2
2022-05-04T11:00:00,1287A,118.1514,24.4767,厦门市,洪文,,,,21,,7,151,,114,114,18,24,4,4,0.5,0.4
2022-05-04T11:00:00,1288A,118.0661,24.4444,厦门市,鼓浪屿,,46,46,32,16,7,138,124,96,80,5,15,1,2,0.3,0.2
2022-05-04T11:00:00,1290A,115.8931,28.6843,南昌市,省外办,颗粒物(PM10),56,61,54,27,25,147,99,47,47,30,33,14,5,1.0,0.8
2022-05-04T11:00:00,1291A,115.8886,28.7003,南昌市,省林业公司,颗粒物(PM10),59,68,59,26,23,161,97,36,36,38,52,11,10,0.8,0.8
2022-05-04T11:00:00,1292A,115.8126,28.7442,南昌市,林科所,,,48,37,,16,153,121,76,76,20,30,12,7,0.6,0.4
2022-05-04T11:00:00,1294A,115.8518,28.687,南昌市,建工学校,颗粒物(PM10),58,65,54,29,22,151,107,34,34,29,38,15,9,0.7,0.6
2022-05-04T11:00:00,1295A,115.8921,28.6424,南昌市,象湖,颗粒物(PM10),65,80,59,25,20,151,112,40,40,24,36,10,4,0.9,0.8
2022-05-04T11:00:00,1296A,115.7423,28.7996,南昌市,武术学校(对照点),,47,34,23,17,13,159,150,58,58,11,5,16,12,0.6,0.4
2022-05-04T11:00:00,1298A,115.9314,28.6842,南昌市,省站,颗粒物(PM10),57,63,62,30,32,155,104,50,50,46,52,20,8,1.0,0.6
2022-05-04T11:00:00,1299A,116.9862,36.6114,济南市,科干所,颗粒物(PM10),51,51,59,20,20,195,150,153,130,11,9,14,14,0.7,0.8
2022-05-04T11:00:00,1300A,116.9376,36.665,济南市,农科所,颗粒物(PM10),62,73,78,17,16,180,138,138,116,16,15,12,12,0.3,0.3
2022-05-04T11:00:00,1301A,117.1265,36.6734,济南市,开发区,,47,46,60,21,23,188,149,152,132,7,7,11,11,0.5,0.5
2022-05-04T11:00:00,1303A,117.0624,36.6868,济南市,省种子仓库,颗粒物(PM10),52,53,78,27,23,190,153,159,134,3,4,9,8,0.6,0.6
2022-05-04T11:00:00,1304A,116.9489,36.6447,济南市,机床二厂,颗粒物(PM10),75,100,85,22,23,188,140,141,121,12,9,12,12,0.3,0.3
2022-05-04T11:00:00,1305A,117.0495,36.663,济南市,市监测站,颗粒物(PM10),56,61,72,18,18,186,146,154,129,6,5,9,10,0.3,0.3
2022-05-04T11:00:00,1306A,116.7675,36.5484,济南市,长清党校,,,,74,,33,185,,130,110,,15,,15,,0.7
2022-05-04T11:00:00,1307A,120.6659,36.2403,青岛市,仰口(对照点),,48,48,77,24,34,148,132,123,123,5,6,5,6,0.5,0.6
2022-05-04T11:00:00,1310A,120.4134,36.0658,青岛市,市南区东部子站,颗粒物(PM10),56,61,62,36,26,139,125,125,98,20,13,11,6,0.6,0.5
2022-05-04T11:00:00,1311A,120.3664,36.1032,青岛市,四方区子站,颗粒物(PM10),58,66,64,34,31,150,134,129,101,24,16,11,8,0.9,0.7
2022-05-04T11:00:00,1312A,120.2994,36.054,青岛市,市南区西部子站,颗粒物(PM10),59,68,55,32,21,157,140,116,108,25,18,12,8,0.8,0.6
2022-05-04T11:00:00,1313A,120.4581,36.0858,青岛市,崂山区子站,颗粒物(PM10),63,75,61,29,25,142,137,134,102,24,18,14,8,0.7,0.5
2022-05-04T11:00:00,1314A,120.1983,35.9608,青岛市,黄岛区子站,颗粒物(PM10),56,61,58,34,32,152,128,113,98,31,24,9,7,0.4,0.4
2022-05-04T11:00:00,1315A,120.3999,36.3083,青岛市,城阳区子站,颗粒物(PM10),64,78,69,27,23,166,129,131,107,29,20,10,8,1.0,0.8
2022-05-04T11:00:00,1316A,113.69031,34.76122,郑州市,烟厂,,,70,67,,17,153,135,100,89,10,20,12,12,0.4,0.5
2022-05-04T11:00:00,1317A,113.65724,34.77134,郑州市,郑纺机,颗粒物(PM10),56,62,64,22,22,148,134,90,69,11,26,12,11,0.5,0.6
2022-05-04T11:00:00,1318A,113.67526,34.80246,郑州市,银行学校,颗粒物(PM10),51,51,59,19,30,166,141,110,78,20,27,11,10,0.5,0.5
2022-05-04T11:00:00,1319A,113.56746,34.81334,郑州市,供水公司,颗粒物(PM10),53,55,71,14,19,147,121,109,50,15,26,11,10,0.4,0.4
2022-05-04T11:00:00,1320A,113.7329,34.7178,郑州市,经开区管委,细颗粒物(PM2.5),59,62,67,42,24,154,127,83,81,19,26,12,12,0.3,0.3
2022-05-04T11:00:00,1321A,113.73961,34.77172,郑州市,四十七中,颗粒物(PM10),54,57,67,16,19,161,138,102,96,12,17,13,12,0.6,0.6
2022-05-04T11:00:00,1322A,113.60532,34.74838,郑州市,市监测站,,50,50,77,20,19,141,130,88,69,11,29,12,12,0.4,0.4
2022-05-04T11:00:00,1323A,113.64164,34.7525,郑州市,河医大,颗粒物(PM10),56,62,65,22,23,148,134,102,74,10,22,9,9,0.3,0.4
2022-05-04T11:00:00,1324A,113.51488,34.91089,郑州市,岗李水库(对照点),颗粒物(PM10),72,94,68,19,20,152,112,56,56,21,21,16,8,1.1,1
2022-05-04T11:00:00,1325A,114.3677,30.5584,武汉市,东湖梨园,颗粒物(PM10),75,99,47,42,26,159,86,29,29,40,49,16,8,1.1,0.7
2022-05-04T11:00:00,1326A,114.2529,30.558,武汉市,汉阳月湖,"颗粒物(PM10),细颗粒物(PM2.5)",52,54,44,36,19,148,115,43,43,28,65,11,7,0.8,0.7
2022-05-04T11:00:00,1327A,114.282,30.6189,武汉市,汉口花桥,颗粒物(PM10),51,51,42,27,28,141,83,32,32,48,61,16,10,1.1,0.9
2022-05-04T11:00:00,1328A,114.3025,30.5332,武汉市,武昌紫阳,,46,46,45,27,21,150,108,44,44,24,50,15,9,1.0,0.9
2022-05-04T11:00:00,1329A,114.3646,30.6217,武汉市,青山钢花,颗粒物(PM10),72,94,77,46,34,164,96,34,34,38,54,17,11,0.9,0.8
2022-05-04T11:00:00,1330A,114.1566,30.4825,武汉市,沌口新区,,49,49,48,20,22,149,116,43,43,27,57,10,8,0.7,0.6
2022-05-04T11:00:00,1331A,114.3014,30.5944,武汉市,汉口江滩,细颗粒物(PM2.5),74,86,56,54,23,137,81,32,32,54,82,19,8,1.1,0.7
2022-05-04T11:00:00,1333A,114.135,30.6319,武汉市,吴家山,颗粒物(PM10),56,62,55,22,23,147,118,36,36,26,56,9,8,0.8,0.7
2022-05-04T11:00:00,1334A,113.8454,30.2917,武汉市,沉湖七壕(对照点),,48,48,35,18,15,135,119,57,40,19,33,10,5,0.9,0.7
2022-05-04T11:00:00,1335A,113.0833,28.2325,长沙市,经开区环保局,颗粒物(PM10),59,67,44,33,29,160,114,64,59,17,19,4,2,0.5,0.5
2022-05-04T11:00:00,1336A,112.8872,28.2189,长沙市,高开区环保局,颗粒物(PM10),52,53,58,30,34,179,128,36,36,22,50,12,7,0.4,0.6
2022-05-04T11:00:00,1337A,113.0792,28.2053,长沙市,马坡岭,颗粒物(PM10),56,62,59,29,26,179,125,45,45,17,32,8,6,0.4,0.5
2022-05-04T11:00:00,1338A,112.9394,28.19,长沙市,湖南师范大学,颗粒物(PM10),53,55,53,34,32,188,139,75,45,19,28,7,2,0.5,0.6
2022-05-04T11:00:00,1339A,113.0178,28.1322,长沙市,雨花区环保局,颗粒物(PM10),51,51,55,28,30,167,118,60,52,20,36,9,6,0.3,0.4
2022-05-04T11:00:00,1340A,112.9792,28.2597,长沙市,伍家岭,,,52,68,30,35,163,,26,22,26,39,,7,0.6,0.7
2022-05-04T11:00:00,1341A,113.0014,28.1944,长沙市,火车新站,颗粒物(PM10),55,59,64,22,34,163,123,41,41,22,47,11,7,0.3,0.5
2022-05-04T11:00:00,1342A,112.9844,28.1178,长沙市,天心区环保局,,45,45,47,17,30,159,142,49,49,9,33,8,6,0.3,0.5
2022-05-04T11:00:00,1343A,112.8908,28.1308,长沙市,湖南中医药大学,颗粒物(PM10),52,53,56,18,32,181,134,36,36,26,52,10,6,0.5,0.6
2022-05-04T11:00:00,1344A,112.9581,28.3611,长沙市,沙坪(对照点),颗粒物(PM10),52,53,42,30,24,153,103,75,63,22,9,10,5,0.5,0.4
2022-05-04T11:00:00,1345A,113.2347,23.1423,广州市,广雅中学,细颗粒物(PM2.5),78,100,62,57,38,139,80,22,22,62,56,8,7,0.9,1
2022-05-04T11:00:00,1346A,113.2612,23.105,广州市,市五中,细颗粒物(PM2.5),64,62,54,46,39,147,96,46,46,45,43,7,5,0.9,1
2022-05-04T11:00:00,1348A,113.3478,23.0916,广州市,广东商学院,细颗粒物(PM2.5),69,82,65,50,38,124,88,20,20,61,60,9,5,0.9,0.9
2022-05-04T11:00:00,1349A,113.4332,23.1047,广州市,市八十六中,颗粒物(PM10),72,93,75,48,37,121,83,19,19,61,55,14,8,0.5,0.6
2022-05-04T11:00:00,1350A,113.3505,22.9483,广州市,番禺中学,细颗粒物(PM2.5),85,108,79,63,49,137,99,41,41,47,42,16,9,1.0,1
2022-05-04T11:00:00,1351A,113.2146,23.3916,广州市,花都师范,颗粒物(PM10),53,56,50,36,32,125,104,35,35,27,34,6,5,0.8,0.7
2022-05-04T11:00:00,1352A,113.2597,23.1331,广州市,市监测站,颗粒物(PM10),62,74,55,38,26,146,91,25,25,49,53,8,6,0.9,0.9
2022-05-04T11:00:00,1353A,113.5618,23.312,广州市,九龙镇镇龙,颗粒物(PM10),61,71,68,36,31,115,105,24,24,28,31,8,6,0.7,0.7
2022-05-04T11:00:00,1354A,113.2765,23.1544,广州市,麓湖,,,74,53,39,32,145,,17,17,43,40,4,4,0.8,0.8
2022-05-04T11:00:00,1355A,113.443,23.3035,广州市,帽峰山森林公园(对照点),,48,44,34,33,24,119,111,79,46,17,15,7,5,0.6,0.6
2022-05-04T11:00:00,1356A,114.1063,22.5545,深圳市,通心岭子站,,41,41,34,17,18,152,117,118,68,19,15,4,3,0.4,0.4
2022-05-04T11:00:00,1357A,114.117,22.5625,深圳市,洪湖,,,44,44,18,21,149,,123,32,22,30,6,6,0.5,0.5
2022-05-04T11:00:00,1358A,113.987,22.5417,深圳市,华侨城,,36,30,30,19,18,160,113,108,82,16,13,6,6,0.6,0.6
2022-05-04T11:00:00,1359A,113.9181,22.5171,深圳市,南海子站,,36,34,35,15,19,153,115,109,86,14,15,4,4,0.6,0.6
2022-05-04T11:00:00,1360A,114.2458,22.5689,深圳市,盐田,,36,29,27,14,16,126,114,103,86,25,24,4,4,0.5,0.5
2022-05-04T11:00:00,1361A,114.2283,22.7244,深圳市,龙岗,,45,42,42,22,22,142,142,115,78,20,25,4,4,0.8,0.9
2022-05-04T11:00:00,1363A,114.494,22.5422,深圳市,南澳,,40,28,28,12,14,143,125,122,101,8,9,9,8,0.6,0.7
2022-05-04T11:00:00,1364A,114.41,22.6342,深圳市,葵涌,,,21,29,10,15,125,,73,70,7,10,,5,0.3,0.4
2022-05-04T11:00:00,1365A,114.297,22.5978,深圳市,梅沙,,,,29,,14,136,128,116,110,11,10,5,5,,0.3
2022-05-04T11:00:00,1366A,114.0678,22.738,深圳市,观澜,颗粒物(PM10),52,54,52,24,26,138,138,61,59,28,31,10,7,0.8,0.9
2022-05-04T11:00:00,1367A,113.5814,22.2618,珠海市,吉大,,37,37,37,17,21,182,117,85,85,17,26,8,7,0.6,0.6
2022-05-04T11:00:00,1368A,113.4881,22.2335,珠海市,前山,,37,30,32,18,19,171,116,114,63,21,30,11,10,0.4,0.4
2022-05-04T11:00:00,1369A,113.628,22.4251,珠海市,唐家,,45,41,35,27,21,206,144,118,104,23,16,12,10,0.5,0.5
2022-05-04T11:00:00,1370A,113.299,22.2281,珠海市,斗门,,36,31,41,20,30,183,114,64,62,18,21,11,8,0.5,0.6
2022-05-04T11:00:00,1371A,113.1294,23.0067,佛山市,湾梁,,,63,52,32,30,162,119,42,42,37,46,12,9,,0.8
2022-05-04T11:00:00,1372A,113.1083,23.0478,佛山市,华材职中,细颗粒物(PM2.5),72,92,71,52,45,153,91,22,22,67,60,10,9,0.8,1
2022-05-04T11:00:00,1373A,113.144,23.0453,佛山市,南海气象局,颗粒物(PM10),51,51,49,32,33,147,93,42,42,54,48,6,5,0.7,0.8
2022-05-04T11:00:00,1374A,113.2881,22.8094,佛山市,顺德苏岗,,50,50,36,24,22,151,114,59,55,39,34,10,7,0.9,0.8
2022-05-04T11:00:00,1376A,112.8383,22.8678,佛山市,高明孔堂,,,91,46,47,28,173,107,67,52,40,24,,11,0.7,0.6
2022-05-04T11:00:00,1377A,112.8836,23.1588,佛山市,三水监测站,细颗粒物(PM2.5),69,80,57,50,37,138,103,28,28,28,40,12,9,0.9,0.9
2022-05-04T11:00:00,1378A,112.867,23.185,佛山市,三水云东海,颗粒物(PM10),60,69,60,39,26,149,113,28,28,33,38,13,9,1.0,1
2022-05-04T11:00:00,1379A,113.3769,22.5211,中山市,华柏园,"颗粒物(PM10),细颗粒物(PM2.5)",53,55,42,37,25,179,112,90,68,31,25,5,5,0.5,0.6
2022-05-04T11:00:00,1380A,113.3881,22.5497,中山市,张溪,颗粒物(PM10),68,85,50,44,26,161,105,87,69,28,23,5,4,0.5,0.5
2022-05-04T11:00:00,1381A,113.4075,22.5111,中山市,紫马岭,,49,49,44,22,23,181,124,88,60,22,24,5,5,0.5,0.5
2022-05-04T11:00:00,1382A,113.4411,22.4853,中山市,长江旅游区(对照点),颗粒物(PM10),55,60,33,20,20,178,111,56,56,32,18,5,3,0.9,0.9
2022-05-04T11:00:00,1383A,113.1064,22.6058,江门市,北街,颗粒物(PM10),61,71,49,28,26,186,138,70,70,39,33,9,6,0.7,0.8
2022-05-04T11:00:00,1384A,113.0731,22.5835,江门市,西区,颗粒物(PM10),58,65,60,30,33,175,130,66,50,36,40,8,8,0.6,0.8
2022-05-04T11:00:00,1385A,113.0219,22.5311,江门市,圭峰西,细颗粒物(PM2.5),60,56,44,43,29,174,136,87,87,30,21,8,5,0.5,0.5
2022-05-04T11:00:00,1386A,113.0828,22.5947,江门市,东湖,颗粒物(PM10),56,62,61,34,36,185,138,72,57,36,32,10,7,0.6,0.7
2022-05-04T11:00:00,1389A,113.7547,23.0494,东莞市,莞城梨川,,44,44,49,24,30,130,128,57,57,20,32,11,11,0.9,0.9
2022-05-04T11:00:00,1390A,113.7944,23.0128,东莞市,东城石井,,45,44,43,26,27,143,143,61,61,25,29,10,8,0.7,0.7
2022-05-04T11:00:00,1391A,113.7383,22.9658,东莞市,南城西平,,,,53,,29,136,,34,34,18,41,5,5,0.8,0.8
2022-05-04T11:00:00,1392A,114.4183,23.0528,惠州市,河南岸金山湖子站,颗粒物(PM10),57,64,44,31,23,107,98,59,49,19,18,8,4,0.5,0.5
2022-05-04T11:00:00,1393A,114.4053,23.0822,惠州市,下埔横江三路子站,颗粒物(PM10),52,53,46,24,23,120,107,81,54,20,28,7,6,0.6,0.6
2022-05-04T11:00:00,1394A,114.4103,23.1142,惠州市,江北云山西路子站,颗粒物(PM10),67,83,51,28,27,119,104,114,58,17,19,8,9,0.6,0.7
2022-05-04T11:00:00,1395A,114.4645,22.7833,惠州市,惠阳区承修路船湖子站,,47,47,42,16,24,116,98,109,62,16,18,2,2,0.5,0.6
2022-05-04T11:00:00,1396A,114.5317,22.7422,惠州市,大亚湾管委会子站,,,,45,,18,136,113,110,60,,23,3,10,0.7,0.6
2022-05-04T11:00:00,1397A,112.4267,23.0706,肇庆市,睦岗子站,颗粒物(PM10),57,64,41,39,24,147,118,30,30,36,51,13,8,0.8,0.7
2022-05-04T11:00:00,1398A,112.4645,23.0475,肇庆市,城中子站,颗粒物(PM10),55,60,39,36,25,142,86,22,22,52,47,19,12,0.8,0.6
2022-05-04T11:00:00,1399A,112.5544,23.1522,肇庆市,坑口子站,细颗粒物(PM2.5),67,69,32,48,23,156,86,88,66,40,12,18,9,0.8,0.6
2022-05-04T11:00:00,1400A,112.4753,23.1,肇庆市,七星岩子站(对照点),颗粒物(PM10),54,57,33,37,22,149,110,79,62,32,20,16,11,0.9,0.7
2022-05-04T11:00:00,1401A,108.3103,22.7881,南宁市,二十一中,颗粒物(PM10),65,80,64,40,37,137,84,21,21,47,52,18,12,0.9,0.9
2022-05-04T11:00:00,1402A,108.3141,22.8528,南宁市,北湖,颗粒物(PM10),60,70,64,42,36,134,91,28,28,36,39,27,18,0.9,0.9
2022-05-04T11:00:00,1403A,108.3206,22.8225,南宁市,市监测站,,,98,58,46,33,137,66,27,18,,58,24,14,0.9,0.8
2022-05-04T11:00:00,1404A,108.3829,22.8037,南宁市,大自然花园,颗粒物(PM10),54,57,43,30,26,134,106,79,36,33,35,13,9,0.6,0.6
2022-05-04T11:00:00,1405A,108.4394,22.7904,南宁市,仙葫(对照点),颗粒物(PM10),61,72,55,34,28,133,102,38,38,31,39,13,9,0.5,0.5
2022-05-04T11:00:00,1406A,108.2397,22.8467,南宁市,区农职院,,,82,41,38,24,145,66,44,38,,27,14,10,0.7,0.6
2022-05-04T11:00:00,1407A,108.3275,22.735,南宁市,英华嘉园,细颗粒物(PM2.5),74,85,70,54,38,128,72,39,39,52,51,20,11,0.9,0.8
2022-05-04T11:00:00,1408A,108.2257,22.7757,南宁市,沙井镇街道办,颗粒物(PM10),59,67,74,40,36,135,94,29,29,30,39,15,16,0.7,0.6
2022-05-04T11:00:00,1409A,110.576,19.9507,海口市,东寨港(对照点),,40,37,34,17,21,134,125,102,102,5,6,7,9,0.7,0.8
2022-05-04T11:00:00,1410A,110.3232,20.0574,海口市,海南大学,,44,30,34,23,29,144,138,124,124,3,3,6,6,0.5,0.5
2022-05-04T11:00:00,1411A,110.283,20.0053,海口市,秀英海南医院,,46,32,37,32,27,144,144,97,84,1,12,5,5,0.5,0.6
2022-05-04T11:00:00,1412A,110.338,19.9969,海口市,海南师范大学,,,,33,,19,135,135,113,113,1,6,4,3,0.5,0.7
2022-05-04T11:00:00,1413A,110.33,20.0356,海口市,龙华路环保局宿舍,,47,38,38,24,29,150,150,130,130,3,8,8,6,0.5,0.5
2022-05-04T11:00:00,1414A,106.3787,29.8279,重庆市,缙云山(对照点),,44,19,26,8,12,176,138,157,143,17,16,12,12,0.3,0.2
2022-05-04T11:00:00,1416A,106.4213,29.8253,重庆市,天生,颗粒物(PM10),52,53,47,19,21,152,97,28,25,32,43,11,7,0.8,0.7
2022-05-04T11:00:00,1417A,106.6263,29.7228,重庆市,两路,,36,36,38,22,18,149,90,75,68,50,50,14,14,0.7,0.7
2022-05-04T11:00:00,1418A,106.2953,29.5983,重庆市,虎溪,,50,50,41,27,23,154,51,25,25,59,43,23,9,1.0,0.7
2022-05-04T11:00:00,1419A,106.5777,29.5102,重庆市,南坪,,45,45,45,25,23,184,98,81,64,42,42,39,12,1.1,0.7
2022-05-04T11:00:00,1420A,106.6556,29.6277,重庆市,唐家沱,,,42,41,29,22,164,,25,25,30,39,,5,0.9,0.5
2022-05-04T11:00:00,1421A,106.6349,29.4906,重庆市,茶园,颗粒物(PM10),64,78,56,29,19,195,75,26,26,51,54,39,9,1.5,0.8
2022-05-04T11:00:00,1422A,106.3754,29.4572,重庆市,白市驿,颗粒物(PM10),57,63,43,19,17,170,102,118,60,46,30,26,15,1.2,0.9
2022-05-04T11:00:00,1425A,106.6205,29.7166,重庆市,空港,,40,40,49,15,23,161,113,80,80,23,46,17,18,0.7,0.6
2022-05-04T11:00:00,1426A,106.4782,29.4875,重庆市,新山村,颗粒物(PM10),53,55,46,36,25,178,71,18,18,75,79,24,15,1.0,0.9
2022-05-04T11:00:00,1427A,106.5616,29.6453,重庆市,礼嘉,,48,48,64,16,22,159,96,38,38,92,110,8,8,0.5,0.6
2022-05-04T11:00:00,1428A,106.4522,29.7091,重庆市,蔡家,,43,43,36,12,21,156,63,40,37,57,37,11,6,0.6,0.5
2022-05-04T11:00:00,1429A,106.5093,29.3917,重庆市,鱼新街,颗粒物(PM10),53,55,47,23,24,182,86,39,28,54,46,22,10,1.2,1
2022-05-04T11:00:00,1431A,103.9728,30.7236,成都市,金泉两河,,,45,54,30,34,171,,14,14,,39,11,4,0.6,0.6
2022-05-04T11:00:00,1432A,104.1419,30.6764,成都市,十里店,颗粒物(PM10),73,95,67,51,31,150,76,74,15,64,50,8,7,0.6,0.5
2022-05-04T11:00:00,1433A,104.0594,30.5767,成都市,三瓦窑,细颗粒物(PM2.5),84,99,67,62,34,148,53,13,13,98,62,7,4,0.7,0.6
2022-05-04T11:00:00,1434A,104.1122,30.6306,成都市,沙河铺,颗粒物(PM10),61,72,49,42,31,158,78,38,24,63,42,6,4,0.5,0.4
2022-05-04T11:00:00,1437A,104.0431,30.6556,成都市,君平街,"颗粒物(PM10),细颗粒物(PM2.5)",60,69,57,43,30,163,100,26,26,57,62,5,4,0.6,0.6
2022-05-04T11:00:00,1438A,103.6202,31.0201,成都市,灵岩寺(对照点),,35,26,32,17,20,166,109,118,84,4,5,11,16,0.4,0.4
2022-05-04T11:00:00,1439A,106.6899,26.5998,贵阳市,马鞍山,颗粒物(PM10),52,53,29,18,24,122,72,33,28,40,17,8,5,0.9,0.6
2022-05-04T11:00:00,1440A,106.6971,26.5694,贵阳市,市环保站,颗粒物(PM10),59,68,48,32,24,120,69,14,14,36,43,14,9,0.5,0.5
2022-05-04T11:00:00,1441A,106.6243,26.6266,贵阳市,鉴湖路,,41,41,49,14,22,127,97,27,27,31,37,7,5,0.6,0.5
2022-05-04T11:00:00,1442A,106.7487,26.6343,贵阳市,燕子冲,细颗粒物(PM2.5),69,65,34,50,29,123,67,32,22,34,19,10,7,0.7,0.5
2022-05-04T11:00:00,1443A,106.6555,26.4365,贵阳市,碧云窝,颗粒物(PM10),58,66,58,31,30,135,86,23,23,31,21,10,6,0.4,0.5
2022-05-04T11:00:00,1444A,106.694,26.5161,贵阳市,中院村,颗粒物(PM10),56,61,52,39,27,130,79,19,19,24,32,8,9,0.4,0.6
2022-05-04T11:00:00,1445A,106.7109,26.6027,贵阳市,红边门,颗粒物(PM10),60,69,45,39,27,127,76,26,18,44,39,9,6,0.5,0.5
2022-05-04T11:00:00,1446A,106.7164,26.5699,贵阳市,新华路,颗粒物(PM10),62,73,49,39,23,124,83,15,15,22,31,11,6,0.4,0.5
2022-05-04T11:00:00,1447A,106.674,26.5424,贵阳市,太慈桥,颗粒物(PM10),57,63,47,22,20,122,82,26,24,28,31,10,6,0.4,0.4
2022-05-04T11:00:00,1450A,102.8204,24.8886,昆明市,呈贡新区,颗粒物(PM10),59,68,47,32,22,124,96,37,37,31,34,15,12,0.5,0.4
2022-05-04T11:00:00,1451A,102.6251,24.9608,昆明市,西山森林公园(对照点),细颗粒物(PM2.5),52,49,32,36,28,123,114,109,78,16,15,16,15,0.8,0.6
2022-05-04T11:00:00,1452A,102.7252,25.0902,昆明市,龙泉镇,,32,23,29,22,14,122,97,66,57,16,18,14,10,0.4,0.3
2022-05-04T11:00:00,1453A,102.7266,25.0375,昆明市,东风东路,,47,47,32,25,16,119,93,72,72,16,15,14,28,0.4,0.3
2022-05-04T11:00:00,1454A,102.6742,25.0669,昆明市,金鼎山,颗粒物(PM10),51,52,40,22,18,121,90,64,59,18,18,35,28,0.5,0.4
2022-05-04T11:00:00,1455A,102.6644,25.0401,昆明市,碧鸡广场,,46,46,34,23,17,120,92,64,62,19,20,23,18,0.5,0.4
2022-05-04T11:00:00,1456A,91.1319,29.6514,拉萨市,八廓街,,25,25,18,17,14,109,76,83,66,13,14,21,9,0.2,0.2
2022-05-04T11:00:00,1457A,91.1221,29.6747,拉萨市,市环保局,颗粒物(PM10),64,78,27,31,19,118,81,80,66,13,13,14,6,0.3,0.2
2022-05-04T11:00:00,1458A,91.0874,29.6475,拉萨市,区监测站,,21,21,13,14,6,111,67,73,62,13,13,19,10,0.3,0.3
2022-05-04T11:00:00,1459A,91.1774,29.6541,拉萨市,西藏大学,,,,,,,112,75,88,63,11,10,16,9,0.3,0.3
2022-05-04T11:00:00,1460A,90.9798,29.6588,拉萨市,区辐射站,,32,32,20,17,12,128,66,83,51,30,20,9,8,0.3,0.2
2022-05-04T11:00:00,1461A,91.0834,29.6292,拉萨市,拉萨火车站,,33,19,16,4,1,137,104,113,88,8,8,15,9,0.2,0.2
2022-05-04T11:00:00,1462A,108.882,34.2749,西安市,高压开关厂,颗粒物(PM10),51,51,75,24,28,159,88,30,30,41,62,5,6,0.4,0.5
2022-05-04T11:00:00,1463A,108.993,34.2629,西安市,兴庆小区,颗粒物(PM10),54,57,51,26,22,156,78,62,44,45,43,5,5,0.4,0.5
2022-05-04T11:00:00,1464A,109.06,34.2572,西安市,纺织城,,,,70,37,29,146,,10,10,,61,,6,0.7,0.6
2022-05-04T11:00:00,1465A,108.9356,34.2173,西安市,小寨,颗粒物(PM10),52,54,58,35,35,163,91,30,30,39,62,3,3,0.3,0.3
2022-05-04T11:00:00,1466A,108.954,34.2713,西安市,市人民体育场,颗粒物(PM10),53,55,55,26,22,154,88,35,35,34,46,5,5,0.6,0.6
2022-05-04T11:00:00,1467A,108.8922,34.2322,西安市,高新西区,颗粒物(PM10),59,67,62,31,26,158,90,28,28,37,54,7,7,0.4,0.6
2022-05-04T11:00:00,1468A,108.935,34.3474,西安市,经开区,颗粒物(PM10),66,81,74,28,31,146,75,21,21,43,59,2,3,0.4,0.4
2022-05-04T11:00:00,1469A,108.906,34.1546,西安市,长安区,颗粒物(PM10),75,99,52,40,23,169,62,29,29,70,43,7,5,0.7,0.6
2022-05-04T11:00:00,1471A,109.2186,34.3731,西安市,临潼区,颗粒物(PM10),73,96,64,44,26,159,85,42,42,36,35,8,5,0.8,0.6
2022-05-04T11:00:00,1472A,108.869,34.378,西安市,草滩(对照点),颗粒物(PM10),67,84,68,20,31,152,100,24,24,28,46,8,8,0.5,0.5
2022-05-04T11:00:00,1473A,108.985,34.1978,西安市,曲江文化产业集团,,47,47,59,17,20,156,79,25,25,44,67,4,4,0.5,0.6
2022-05-04T11:00:00,1474A,109.051,34.3213,西安市,广运潭,细颗粒物(PM2.5),77,99,54,56,22,147,48,76,29,59,38,6,5,0.5,0.4
2022-05-04T11:00:00,1476A,103.631,36.1031,兰州市,兰炼宾馆,颗粒物(PM10),54,58,55,27,27,153,128,36,36,43,54,18,11,1.1,0.6
2022-05-04T11:00:00,1477A,104.1373,35.9454,兰州市,榆中兰大校区(对照点),,37,20,31,8,11,149,116,104,104,15,15,5,3,0.4,0.5
2022-05-04T11:00:00,1478A,103.8412,36.0726,兰州市,生物制品所,颗粒物(PM10),67,83,68,21,19,128,34,11,11,69,59,23,11,1.1,0.7
2022-05-04T11:00:00,1479A,103.831,36.0464,兰州市,铁路设计院,颗粒物(PM10),69,87,68,31,26,125,44,16,15,77,69,23,14,1.0,1
2022-05-04T11:00:00,1483A,101.524,36.6867,西宁市,第五水厂(对照点),,26,26,21,11,9,126,82,54,49,20,16,14,9,0.7,0.5
2022-05-04T11:00:00,1484A,105.9512,38.6016,银川市,贺兰山马莲口(对照点),,,26,21,,17,147,102,115,105,17,6,10,9,0.3,0.2
2022-05-04T11:00:00,1488A,106.2328,38.4975,银川市,贺兰山东路,,,,42,,16,140,87,89,86,18,18,20,11,0.6,0.5
2022-05-04T11:00:00,1489A,106.1358,38.5036,银川市,学院路,颗粒物(PM10),69,88,51,16,16,137,90,80,80,17,18,24,15,0.7,0.5
2022-05-04T11:00:00,1490A,87.5801,43.8303,乌鲁木齐市,监测站,颗粒物(PM10),178,305,394,54,79,167,56,62,38,17,22,10,8,0.3,0.4
2022-05-04T11:00:00,1491A,87.6046,43.768,乌鲁木齐市,收费所,颗粒物(PM10),242,379,450,74,99,130,52,49,27,58,33,8,7,0.9,0.5
2022-05-04T11:00:00,1492A,87.4754,43.9469,乌鲁木齐市,新疆农科院农场(对照点),颗粒物(PM10),117,184,338,34,57,158,48,57,33,19,14,12,12,0.5,0.6
2022-05-04T11:00:00,1493A,87.5525,43.8711,乌鲁木齐市,铁路局,颗粒物(PM10),121,192,375,42,78,177,61,62,38,17,20,8,6,0.6,0.6
2022-05-04T11:00:00,1494A,87.6432,43.831,乌鲁木齐市,三十一中学,颗粒物(PM10),136,222,388,36,61,178,56,62,40,13,15,15,12,0.4,0.3
2022-05-04T11:00:00,1496A,87.7216,44.1747,乌鲁木齐市,米东区环保局,,27,27,168,8,36,184,72,65,60,1,6,7,10,0.1,0.3
2022-05-04T11:00:00,1508A,112.9433,27.8614,湘潭市,板塘,颗粒物(PM10),57,64,68,23,35,177,117,44,37,33,46,28,16,0.7,0.6
2022-05-04T11:00:00,1511A,112.9118,27.8403,湘潭市,市监测站,颗粒物(PM10),57,63,62,32,46,176,113,37,37,24,31,21,15,1.0,1
2022-05-04T11:00:00,1512A,112.8937,27.8728,湘潭市,江麓,,,63,70,33,38,167,,33,21,29,33,24,15,1.2,1
2022-05-04T11:00:00,1513A,112.9227,27.8159,湘潭市,岳塘,颗粒物(PM10),55,59,70,23,38,176,130,50,50,20,32,14,10,0.6,0.6
2022-05-04T11:00:00,1514A,112.9074,27.9119,湘潭市,科大,颗粒物(PM10),64,78,59,35,40,169,103,31,26,37,40,21,8,0.8,0.6
2022-05-04T11:00:00,1515A,113.135,27.8244,株洲市,天台山庄,,46,46,57,22,36,162,126,58,58,19,51,12,10,0.3,0.9
2022-05-04T11:00:00,1518A,113.095,27.8867,株洲市,株冶医院,颗粒物(PM10),53,56,47,25,31,163,135,69,65,27,37,17,10,0.6,0.6
2022-05-04T11:00:00,1519A,113.167,27.8667,株洲市,市四中,,49,49,56,25,38,155,140,60,60,14,26,3,4,0.2,0.5
2022-05-04T11:00:00,1520A,113.143,27.8381,株洲市,火车站,,,70,73,24,40,182,129,65,65,,45,16,12,,1
2022-05-04T11:00:00,1524A,113.13,27.8528,株洲市,市监测站,颗粒物(PM10),63,75,67,35,35,160,128,64,64,21,45,18,12,0.8,0.9
2022-05-04T11:00:00,1552A,106.805,26.3003,贵阳市,桐木岭(对照点),,36,36,42,17,21,128,112,83,83,3,6,10,13,0.3,0.3
2022-05-04T11:00:00,1559A,113.251,27.8336,株洲市,大京风景区(对照点),,,33,23,15,18,169,153,75,75,,34,13,7,0.4,0.4
2022-05-04T11:00:00,1562A,113.0048,27.9153,湘潭市,昭山,颗粒物(PM10),57,63,44,23,28,150,120,37,37,21,41,13,9,1.0,0.9
2022-05-04T11:00:00,1564A,112.4876,27.9164,湘潭市,韶山(对照点),,,66,41,21,21,,,,,10,9,14,5,0.5,0.5
2022-05-04T11:00:00,1585A,109.8756,40.6532,包头市,市环境监测站,颗粒物(PM10),59,67,64,28,20,138,122,80,80,10,28,7,10,0.4,0.6
2022-05-04T11:00:00,1587A,109.9991,40.5842,包头市,包头八中,颗粒物(PM10),59,67,63,28,20,142,115,90,90,16,22,12,8,0.5,0.5
2022-05-04T11:00:00,1588A,109.8538,40.6821,包头市,青山宾馆,颗粒物(PM10),75,99,83,53,38,131,117,60,60,10,41,11,17,0.6,1
2022-05-04T11:00:00,1589A,109.8642,40.6288,包头市,惠龙物流,颗粒物(PM10),72,94,63,27,19,142,124,75,75,9,23,6,9,0.4,0.5
2022-05-04T11:00:00,1590A,110.0377,40.5546,包头市,东河鸿龙湾,颗粒物(PM10),52,54,48,21,19,135,114,79,77,12,14,13,9,0.5,0.4
2022-05-04T11:00:00,1591A,110.0023,39.8129,鄂尔多斯市,综合楼,颗粒物(PM10),68,85,65,29,27,123,115,94,92,17,18,10,8,0.7,0.6
2022-05-04T11:00:00,1592A,109.9486,39.8261,鄂尔多斯市,巴音孟克林场办事处,颗粒物(PM10),56,61,48,31,15,142,133,113,112,12,11,9,8,0.4,0.5
2022-05-04T11:00:00,1593A,109.7736,39.5986,鄂尔多斯市,康泽苑,,,48,50,7,13,133,,106,105,8,9,5,4,0.4,0.4
2022-05-04T11:00:00,1594A,109.8119,39.5989,鄂尔多斯市,华泰汽车城,颗粒物(PM10),60,70,50,19,15,126,117,103,100,10,11,7,7,0.4,0.4
2022-05-04T11:00:00,1595A,109.9734,39.7884,鄂尔多斯市,奥林花园,颗粒物(PM10),95,140,70,27,17,121,115,87,87,12,19,7,6,0.4,0.3
2022-05-04T11:00:00,1597A,122.2703,40.7094,营口市,大庆路,颗粒物(PM10),64,77,83,26,32,227,162,150,139,11,12,13,11,0.8,0.8
2022-05-04T11:00:00,1598A,122.215,40.6511,营口市,镜湖西路,颗粒物(PM10),67,84,93,25,28,231,164,151,140,14,15,10,10,0.6,0.7
2022-05-04T11:00:00,1599A,122.167,40.6655,营口市,西炮台,颗粒物(PM10),66,82,79,25,28,223,157,136,136,16,20,10,9,0.6,0.7
2022-05-04T11:00:00,1600A,124.3303,40.0625,丹东市,江湾东路,颗粒物(PM10),55,60,33,22,16,141,141,124,115,7,8,8,7,0.4,0.3
2022-05-04T11:00:00,1601A,124.4256,40.1503,丹东市,临江后街,,46,46,30,6,5,134,134,119,119,5,6,11,9,0.9,0.8
2022-05-04T11:00:00,1602A,124.3933,40.1461,丹东市,元宝山,颗粒物(PM10),52,53,34,27,15,136,136,116,116,6,7,11,11,0.7,0.6
2022-05-04T11:00:00,1603A,124.3633,40.1092,丹东市,民主桥,颗粒物(PM10),54,57,33,22,13,135,135,106,106,3,4,10,10,0.7,0.6
2022-05-04T11:00:00,1604A,122.0303,41.1489,盘锦市,开发区,,,,71,,37,177,,130,110,18,19,18,16,0.8,0.8
2022-05-04T11:00:00,1605A,122.0485,41.0883,盘锦市,兴隆台,颗粒物(PM10),69,88,81,33,36,175,142,135,116,18,18,12,10,0.8,0.9
2022-05-04T11:00:00,1606A,121.8297,41.1028,盘锦市,新生街道,颗粒物(PM10),52,53,60,26,32,184,144,139,126,19,19,13,11,0.9,1
2022-05-04T11:00:00,1607A,120.9092,40.7136,葫芦岛市,龙港区,颗粒物(PM10),65,80,84,42,39,187,128,144,110,20,16,15,13,0.8,0.8
2022-05-04T11:00:00,1608A,120.8392,40.7514,葫芦岛市,化工街,颗粒物(PM10),79,108,101,43,46,188,127,144,96,22,21,11,9,1.2,1.2
2022-05-04T11:00:00,1609A,120.8341,40.7073,葫芦岛市,新区,,,101,87,47,42,182,112,146,96,,19,,10,0.9,0.9
2022-05-04T11:00:00,1610A,120.8695,40.7677,葫芦岛市,东城区,颗粒物(PM10),74,98,102,39,46,176,119,127,86,21,25,12,10,1.0,1
2022-05-04T11:00:00,1611A,118.5819,24.9117,泉州市,涂山街,颗粒物(PM10),51,52,33,20,8,144,139,108,108,10,15,6,6,0.6,0.5
2022-05-04T11:00:00,1612A,118.5972,24.8978,泉州市,津头埔,颗粒物(PM10),53,55,37,16,10,138,138,101,101,12,20,5,5,0.4,0.4
2022-05-04T11:00:00,1613A,118.6663,24.9424,泉州市,万安,颗粒物(PM10),53,55,38,22,11,152,150,132,132,6,11,5,5,0.4,0.3
2022-05-04T11:00:00,1614A,118.6117,24.9604,泉州市,清源山(对照点),,45,45,30,19,8,138,134,125,125,7,8,6,6,0.3,0.2
2022-05-04T11:00:00,1616A,117.6795,36.229,济南市,技术学院,细颗粒物(PM2.5),53,48,51,37,50,191,152,130,114,7,10,14,16,0.5,0.6
2022-05-04T11:00:00,1618A,118.3429,35.0532,临沂市,沂河小区,颗粒物(PM10),60,70,72,40,33,167,131,94,89,27,27,13,19,0.4,0.4
2022-05-04T11:00:00,1619A,118.295,35.0583,临沂市,鲁南制药厂,颗粒物(PM10),60,70,66,26,29,183,150,108,108,17,21,11,14,0.7,0.7
2022-05-04T11:00:00,1620A,118.2794,34.9976,临沂市,新光毛纺厂,颗粒物(PM10),63,75,83,34,26,171,142,88,88,11,24,8,14,0.6,0.6
2022-05-04T11:00:00,1621A,118.3956,35.0888,临沂市,河东保险公司,,,,62,,30,179,143,119,100,,20,10,14,,0.5
2022-05-04T11:00:00,1622A,116.3032,37.4674,德州市,儿童乐园,"颗粒物(PM10),细颗粒物(PM2.5)",77,103,108,56,41,186,117,121,87,14,15,14,12,0.5,0.5
2022-05-04T11:00:00,1624A,116.2991,37.4451,德州市,监理站,颗粒物(PM10),70,89,101,35,33,179,111,117,82,9,11,18,14,0.2,0.2
2022-05-04T11:00:00,1625A,115.9848,36.4372,聊城市,区政府,细颗粒物(PM2.5),92,116,89,68,41,178,115,95,78,17,14,22,15,0.6,0.5
2022-05-04T11:00:00,1628A,118.0062,37.3803,滨州市,市环保局,颗粒物(PM10),69,88,103,20,50,206,164,148,112,7,15,12,16,0.4,0.5
2022-05-04T11:00:00,1629A,118.0018,37.3617,滨州市,第二水厂,颗粒物(PM10),135,220,170,79,56,165,,120,83,6,18,12,16,0.6,0.8
2022-05-04T11:00:00,1630A,117.9776,37.393,滨州市,北中新校,颗粒物(PM10),65,79,82,24,29,188,145,137,96,11,21,11,15,0.4,0.5
2022-05-04T11:00:00,1631A,118.0414,36.8103,淄博市,人民公园,颗粒物(PM10),63,75,71,31,25,184,149,140,126,13,14,9,9,0.3,0.2
2022-05-04T11:00:00,1633A,117.8525,36.4847,淄博市,双山,,,,76,,36,181,,133,116,14,16,10,10,0.4,0.5
2022-05-04T11:00:00,1634A,117.9592,36.6331,淄博市,气象站,颗粒物(PM10),74,97,92,27,28,186,145,141,125,14,13,11,11,0.4,0.4
2022-05-04T11:00:00,1635A,118.3092,36.8194,淄博市,莆田园,颗粒物(PM10),64,78,86,36,31,184,154,145,128,11,14,12,18,0.4,0.7
2022-05-04T11:00:00,1637A,117.558,34.8438,枣庄市,市中区政府,颗粒物(PM10),64,78,82,41,31,166,136,78,78,12,25,8,10,0.3,0.4
2022-05-04T11:00:00,1638A,117.2852,34.7837,枣庄市,薛城环保局,颗粒物(PM10),70,90,81,46,32,176,153,105,105,7,18,12,14,0.4,0.5
2022-05-04T11:00:00,1639A,117.5852,34.7745,枣庄市,峄城区政府,颗粒物(PM10),78,105,82,29,43,182,144,99,97,21,24,47,17,0.5,0.4
2022-05-04T11:00:00,1640A,117.7276,34.5578,枣庄市,台儿庄区环保局,颗粒物(PM10),53,56,56,19,22,170,144,92,92,16,23,11,10,0.7,0.7
2022-05-04T11:00:00,1641A,117.4518,35.0992,枣庄市,山亭区环保局,颗粒物(PM10),53,56,60,22,22,177,144,118,118,13,16,11,14,0.6,0.6
2022-05-04T11:00:00,1642A,121.2514,37.5639,烟台市,开发区,细颗粒物(PM2.5),85,85,74,63,29,163,149,151,130,10,8,8,6,0.4,0.5
2022-05-04T11:00:00,1643A,121.3719,37.5433,烟台市,轴承厂,颗粒物(PM10),56,61,60,18,25,164,153,151,131,5,8,6,6,0.5,0.5
2022-05-04T11:00:00,1644A,121.3181,37.5436,烟台市,西郊化工站,颗粒物(PM10),54,58,60,14,22,155,142,141,126,7,8,10,9,0.5,0.5
2022-05-04T11:00:00,1645A,121.4478,37.4822,烟台市,莱山环保局,颗粒物(PM10),68,85,64,18,23,162,162,146,142,6,9,7,7,0.4,0.7
2022-05-04T11:00:00,1646A,121.2611,37.4967,烟台市,福山环保局,颗粒物(PM10),57,63,61,12,21,179,164,162,146,8,9,9,9,0.6,0.6
2022-05-04T11:00:00,1650A,119.1437,36.7023,潍坊市,环保局,颗粒物(PM10),60,70,72,16,23,174,149,118,116,12,15,10,10,0.3,0.4
2022-05-04T11:00:00,1653A,116.6251,35.4302,济宁市,火炬城,颗粒物(PM10),57,64,67,12,17,175,138,117,105,9,8,13,13,0.7,0.6
2022-05-04T11:00:00,1655A,116.5491,35.4042,济宁市,电化厂,细颗粒物(PM2.5),70,83,75,51,32,174,139,99,99,9,14,6,6,0.6,0.7
2022-05-04T11:00:00,1656A,117.1437,36.1937,泰安市,监测站,颗粒物(PM10),59,68,81,28,29,191,138,112,110,11,10,12,12,0.3,0.3
2022-05-04T11:00:00,1657A,117.0885,36.2017,泰安市,人口学校,细颗粒物(PM2.5),64,63,69,46,30,192,132,116,106,16,15,12,13,0.5,0.6
2022-05-04T11:00:00,1658A,117.1089,36.1758,泰安市,电力学校,颗粒物(PM10),58,66,69,28,44,183,134,103,101,12,16,12,12,0.5,0.5
2022-05-04T11:00:00,1659A,119.471,35.4209,日照市,监测站,,,97,83,44,40,173,141,95,95,14,27,11,12,,0.6
2022-05-04T11:00:00,1660A,119.523,35.4216,日照市,市政府广场,,,107,80,31,35,159,51,104,96,,29,,12,1.1,0.8
2022-05-04T11:00:00,1661A,119.5587,35.4044,日照市,港务局,颗粒物(PM10),113,175,96,30,31,157,103,99,97,59,36,15,9,1.1,0.7
2022-05-04T11:00:00,1662A,122.1214,37.4236,威海市,华夏技校,颗粒物(PM10),57,63,58,29,28,152,152,150,141,12,10,6,4,0.6,0.5
2022-05-04T11:00:00,1663A,122.0508,37.5236,威海市,山大分校,颗粒物(PM10),57,63,54,20,19,160,160,157,148,10,7,7,7,0.2,0.2
2022-05-04T11:00:00,1664A,122.1067,37.5072,威海市,市监测站,细颗粒物(PM2.5),108,63,59,81,26,181,154,163,144,8,7,9,8,0.3,0.2
2022-05-04T11:00:00,1666A,118.6614,37.4309,东营市,市环保局,颗粒物(PM10),63,75,80,27,28,203,164,113,113,12,20,12,13,0.5,0.5
2022-05-04T11:00:00,1669A,113.5824,24.7733,韶关市,市八中,,48,48,42,25,26,127,93,44,39,16,22,24,11,0.5,0.6
2022-05-04T11:00:00,1671A,113.5917,24.7972,韶关市,园林处,,,,36,,26,132,,26,26,13,25,,15,0.5,0.6
2022-05-04T11:00:00,1672A,113.6735,24.7791,韶关市,韶关学院,,29,26,36,20,28,118,90,34,34,14,12,14,16,0.5,0.6
2022-05-04T11:00:00,1673A,113.5971,24.6863,韶关市,曲江监测站,,40,40,39,24,26,118,86,51,51,14,20,22,9,0.5,0.5
2022-05-04T11:00:00,1674A,116.6794,23.3667,汕头市,金平子站,,48,48,45,13,15,155,124,84,76,6,16,10,16,0.7,0.8
2022-05-04T11:00:00,1675A,116.7244,23.3633,汕头市,龙湖子站,,37,37,40,12,12,157,118,92,79,9,17,8,10,0.7,0.7
2022-05-04T11:00:00,1676A,116.7258,23.2775,汕头市,濠江子站,,39,36,35,15,13,158,123,97,81,4,10,10,11,0.4,0.4
2022-05-04T11:00:00,1677A,116.7519,23.4714,汕头市,澄海子站,,37,33,43,19,18,160,118,82,82,5,13,8,11,0.4,0.5
2022-05-04T11:00:00,1678A,116.6092,23.2539,汕头市,潮阳子站,,50,50,42,11,14,158,118,95,68,16,17,14,13,0.4,0.5
2022-05-04T11:00:00,1680A,110.3539,21.2706,湛江市,湛江影剧院,颗粒物(PM10),57,63,51,31,36,142,142,106,60,11,22,20,18,0.6,0.6
2022-05-04T11:00:00,1681A,110.3928,21.2228,湛江市,市环境监测站,,45,45,45,30,38,144,144,133,74,11,16,15,10,0.5,0.6
2022-05-04T11:00:00,1682A,110.4019,21.1997,湛江市,环保局宿舍,,,54,47,25,38,145,145,139,72,10,17,10,8,,0.6
2022-05-04T11:00:00,1683A,110.4111,21.2028,湛江市,霞山游泳场,,46,46,42,30,36,143,142,143,74,9,11,13,10,0.5,0.6
2022-05-04T11:00:00,1684A,110.3316,21.2679,湛江市,麻章区环保局,颗粒物(PM10),53,55,55,30,40,147,147,117,64,10,19,18,14,0.6,0.7
2022-05-04T11:00:00,1685A,110.4558,21.2567,湛江市,坡头区环保局,颗粒物(PM10),54,58,46,24,35,154,154,120,81,10,14,13,10,0.7,0.7
2022-05-04T11:00:00,1686A,111.0286,21.4688,茂名市,电白南海,颗粒物(PM10),58,66,57,34,28,139,139,110,81,18,20,12,10,0.6,0.7
2022-05-04T11:00:00,1687A,110.9294,21.6533,茂名市,茂石化七小,细颗粒物(PM2.5),64,66,49,46,34,130,128,116,87,12,14,12,17,0.6,0.6
2022-05-04T11:00:00,1688A,110.9107,21.6687,茂名市,健康路,细颗粒物(PM2.5),59,53,42,42,29,133,133,122,80,13,15,13,19,0.7,0.7
2022-05-04T11:00:00,1689A,110.8592,21.6828,茂名市,高岭,,,,46,34,26,124,124,63,63,14,17,23,20,0.7,0.9
2022-05-04T11:00:00,1690A,116.1231,24.3284,梅州市,梅江月梅,,35,27,34,8,21,117,111,44,44,6,19,7,6,0.4,0.6
2022-05-04T11:00:00,1691A,116.0797,24.2719,梅州市,梅县新城,,41,41,35,8,24,122,111,49,49,15,24,8,6,0.5,0.6
2022-05-04T11:00:00,1692A,116.1248,24.2654,梅州市,环境监控中心,,43,43,38,6,22,114,110,49,49,14,28,7,7,0.4,0.6
2022-05-04T11:00:00,1693A,115.3653,22.775,汕尾市,市环保局,,35,34,32,8,15,143,110,110,95,8,10,8,8,0.5,0.5
2022-05-04T11:00:00,1694A,115.3706,22.7898,汕尾市,市政府,,,47,32,8,13,143,,110,84,8,11,6,7,0.5,0.6
2022-05-04T11:00:00,1695A,115.3622,22.7925,汕尾市,新城中学,,35,27,33,8,15,140,109,112,93,4,7,7,8,0.4,0.4
2022-05-04T11:00:00,1696A,114.6778,23.7569,河源市,源西(对照点),,38,38,47,20,23,116,75,30,30,8,25,6,4,0.7,0.7
2022-05-04T11:00:00,1697A,114.6944,23.7586,河源市,东埔,,36,36,42,22,23,120,80,40,33,19,31,8,5,0.7,0.7
2022-05-04T11:00:00,1698A,114.6892,23.7233,河源市,老城,,39,38,36,27,22,129,88,37,37,13,17,7,4,0.8,0.7
2022-05-04T11:00:00,1699A,111.9797,21.8593,阳江市,鸳鸯湖(对照点),,,43,43,,21,148,132,93,88,9,22,11,13,0.7,0.8
2022-05-04T11:00:00,1701A,111.9491,21.8658,阳江市,马南垌,颗粒物(PM10),52,53,43,21,30,138,129,68,62,11,21,6,7,0.6,0.7
2022-05-04T11:00:00,1702A,113.0426,23.691,清远市,环保大楼(对照点),,39,39,37,26,28,151,74,57,34,22,22,11,9,0.6,0.6
2022-05-04T11:00:00,1703A,113.0208,23.7106,清远市,凤城街办,颗粒物(PM10),52,54,42,29,25,131,70,72,40,29,26,9,8,0.7,0.6
2022-05-04T11:00:00,1705A,116.6367,23.6719,潮州市,西园路(对照点),,36,24,36,12,17,172,114,75,75,11,17,11,13,0.5,0.6
2022-05-04T11:00:00,1706A,116.6447,23.6706,潮州市,档案局,,35,35,38,12,19,157,111,79,79,10,17,7,12,0.5,0.6
2022-05-04T11:00:00,1708A,116.3701,23.5345,揭阳市,新兴,,40,40,45,15,21,147,120,73,73,16,19,12,13,0.6,0.7
2022-05-04T11:00:00,1709A,116.3264,23.5443,揭阳市,西马,,,48,50,13,21,147,107,66,63,,19,,10,0.5,0.6
2022-05-04T11:00:00,1710A,116.3611,23.5626,揭阳市,东兴,,44,44,48,13,19,143,112,69,56,10,22,7,12,0.6,0.7
2022-05-04T11:00:00,1711A,116.4151,23.5294,揭阳市,渔湖,,38,32,41,26,25,138,106,63,56,8,22,13,10,0.5,0.6
2022-05-04T11:00:00,1712A,112.0392,22.9169,云浮市,新市府(对照点),,,50,30,,18,134,97,77,52,24,11,28,11,0.6,0.5
2022-05-04T11:00:00,1714A,112.0539,22.9539,云浮市,牧羊,颗粒物(PM10),63,76,45,31,26,125,59,82,20,48,24,107,25,0.7,0.6
2022-05-04T11:00:00,1715A,102.575,24.3711,玉溪市,东风水库,颗粒物(PM10),53,56,39,28,28,124,95,59,49,20,15,13,8,0.9,0.7
2022-05-04T11:00:00,1718A,115.4208,35.2464,菏泽市,气象局,颗粒物(PM10),73,95,97,31,36,185,131,90,89,12,17,11,18,0.4,0.4
2022-05-04T11:00:00,1719A,115.4747,35.2375,菏泽市,市政协,颗粒物(PM10),76,102,96,18,23,178,130,98,92,10,14,11,18,0.3,0.3
2022-05-04T11:00:00,1721A,113.3819,40.1097,大同市,果树场(对照点),,,,67,,24,135,113,64,64,,31,21,20,,0.5
2022-05-04T11:00:00,1723A,113.2994,40.0758,大同市,云冈宾馆,颗粒物(PM10),72,93,89,47,29,126,104,74,50,30,34,88,37,0.6,0.6
2022-05-04T11:00:00,1724A,113.3444,40.0917,大同市,大同大学,颗粒物(PM10),67,83,76,21,20,129,112,74,71,24,27,39,27,0.1,0.1
2022-05-04T11:00:00,1725A,113.2661,40.1269,大同市,安家小村,颗粒物(PM10),77,104,68,28,13,137,111,124,86,26,18,26,25,0.4,0.3
2022-05-04T11:00:00,1726A,113.2711,40.0844,大同市,教育学院,颗粒物(PM10),72,94,91,29,26,120,105,58,58,25,37,77,32,0.4,0.4
2022-05-04T11:00:00,1727A,113.1147,36.1547,长治市,清华站,,43,43,50,9,15,141,124,68,65,4,27,9,13,0.4,0.5
2022-05-04T11:00:00,1728A,113.1031,36.1989,长治市,监测站,,41,41,48,9,17,147,127,83,83,7,21,9,11,0.1,0.2
2022-05-04T11:00:00,1730A,113.0886,36.2125,长治市,审计局,,39,39,47,17,17,143,120,83,76,17,30,14,12,0.1,0.2
2022-05-04T11:00:00,1731A,113.0844,36.1856,长治市,长治八中,颗粒物(PM10),54,57,60,18,14,140,121,66,66,12,32,9,13,0.3,0.5
2022-05-04T11:00:00,1733A,111.5531,36.0783,临汾市,临钢医院,,,51,59,18,27,175,98,40,40,29,41,17,14,,0.8
2022-05-04T11:00:00,1734A,111.5028,36.0714,临汾市,技工学校,颗粒物(PM10),51,52,60,28,30,168,103,54,54,27,37,26,23,0.9,0.6
2022-05-04T11:00:00,1736A,111.5018,36.0855,临汾市,市委,颗粒物(PM10),55,60,53,31,25,188,94,51,51,37,39,23,19,1.1,0.8
2022-05-04T11:00:00,1738A,113.5758,37.8572,阳泉市,市中心,,,62,73,16,23,153,,73,71,18,42,9,18,0.5,0.8
2022-05-04T11:00:00,1739A,113.4894,37.8731,阳泉市,赛鱼,,41,40,56,11,25,149,130,87,87,17,52,13,19,0.6,0.7
2022-05-04T11:00:00,1740A,113.5819,37.8486,阳泉市,南庄,,42,36,77,17,30,153,133,109,67,12,31,8,22,0.5,0.7
2022-05-04T11:00:00,1742A,113.5614,37.8703,阳泉市,平坦,,,59,66,30,31,157,127,85,85,14,38,10,17,,0.7
2022-05-04T11:00:00,1743A,113.5158,37.8392,阳泉市,大阳泉,,42,30,48,10,23,152,133,106,106,11,21,9,14,0.4,0.5
2022-05-04T11:00:00,1744A,118.9233,42.2816,赤峰市,松山一中,颗粒物(PM10),63,76,43,26,16,145,138,138,128,18,19,13,11,0.6,0.6
2022-05-04T11:00:00,1745A,118.9576,42.2728,赤峰市,哈达街,颗粒物(PM10),62,74,58,13,16,147,126,139,131,26,21,15,13,0.6,0.5
2022-05-04T11:00:00,1746A,118.8788,42.2554,赤峰市,天义路,颗粒物(PM10),145,239,55,10,6,145,145,142,142,12,21,12,9,0.6,0.4
2022-05-04T11:00:00,1748A,123.044,41.1196,鞍山市,深沟寺,颗粒物(PM10),58,66,90,22,25,187,146,125,125,10,11,10,10,0.6,0.7
2022-05-04T11:00:00,1749A,123.011,41.0931,鞍山市,太阳城,颗粒物(PM10),57,63,79,24,29,173,138,142,128,13,14,12,12,0.7,0.8
2022-05-04T11:00:00,1750A,123.0485,41.1442,鞍山市,太平,颗粒物(PM10),64,77,97,44,34,174,140,121,114,11,13,13,12,0.5,0.5
2022-05-04T11:00:00,1751A,122.9642,41.0971,鞍山市,铁西三道街,颗粒物(PM10),67,84,91,28,30,188,127,139,120,22,16,11,10,1.1,0.8
2022-05-04T11:00:00,1752A,122.9341,41.0833,鞍山市,铁西工业园区,颗粒物(PM10),66,82,98,23,28,187,134,135,122,7,12,10,12,0.6,0.7
2022-05-04T11:00:00,1753A,123.022,41.0821,鞍山市,明达新区,,,61,92,24,28,179,,146,130,,10,,10,,0.7
2022-05-04T11:00:00,1754A,123.1289,41.0228,鞍山市,千山(对照点),,38,38,45,21,21,157,115,107,104,8,9,10,10,0.6,0.6
2022-05-04T11:00:00,1755A,123.7977,41.8491,抚顺市,望花区,颗粒物(PM10),86,121,110,40,41,146,119,111,96,14,15,14,18,1.0,0.9
2022-05-04T11:00:00,1756A,123.9161,41.8822,抚顺市,顺城区,颗粒物(PM10),71,92,125,30,29,155,129,114,112,15,14,9,13,0.6,0.6
2022-05-04T11:00:00,1757A,124.0436,41.8611,抚顺市,东洲区,颗粒物(PM10),72,93,90,30,26,168,139,124,124,8,10,6,8,0.7,0.6
2022-05-04T11:00:00,1758A,123.9247,41.8642,抚顺市,新抚区,颗粒物(PM10),63,76,91,32,39,158,131,111,111,7,8,10,16,0.6,0.7
2022-05-04T11:00:00,1759A,124.0972,41.8961,抚顺市,大伙房水库,颗粒物(PM10),62,74,83,24,25,172,147,130,130,5,5,8,8,0.5,0.5
2022-05-04T11:00:00,1760A,123.7086,41.8391,抚顺市,沈抚新城,颗粒物(PM10),83,116,111,33,33,168,132,120,120,11,12,11,11,0.7,0.6
2022-05-04T11:00:00,1761A,123.8275,41.3064,本溪市,大峪,颗粒物(PM10),59,67,58,24,23,152,140,129,129,9,9,14,14,0.8,0.8
2022-05-04T11:00:00,1762A,123.7567,41.3325,本溪市,溪湖,颗粒物(PM10),60,69,70,25,25,154,126,119,119,13,16,11,15,0.6,0.7
2022-05-04T11:00:00,1763A,123.7169,41.3094,本溪市,彩屯,颗粒物(PM10),70,89,81,44,36,162,105,96,94,27,28,46,38,1.6,1.7
2022-05-04T11:00:00,1764A,123.7669,41.2864,本溪市,东明,颗粒物(PM10),67,84,67,25,25,139,126,123,123,11,10,9,10,0.6,0.6
2022-05-04T11:00:00,1765A,123.7992,41.2664,本溪市,新立屯,,,73,58,29,24,137,,121,119,6,5,,11,0.6,0.5
2022-05-04T11:00:00,1766A,123.8142,41.3472,本溪市,威宁,颗粒物(PM10),59,68,55,27,21,135,128,106,106,8,8,13,13,0.7,0.6
2022-05-04T11:00:00,1767A,121.1115,41.0879,锦州市,南山,,,90,105,45,58,167,112,106,96,20,17,17,12,,
2022-05-04T11:00:00,1768A,121.0533,40.8434,锦州市,开发区,颗粒物(PM10),116,181,141,56,58,166,112,122,95,21,26,12,10,0.9,0.9
2022-05-04T11:00:00,1769A,121.1836,41.1119,锦州市,百股街道,"颗粒物(PM10),细颗粒物(PM2.5)",63,75,82,45,46,180,123,120,108,21,20,10,8,1.0,1
2022-05-04T11:00:00,1770A,121.1178,41.1222,锦州市,天安街道,颗粒物(PM10),76,102,115,48,66,176,126,118,82,30,33,19,14,1.0,1
2022-05-04T11:00:00,1771A,121.1303,41.1386,锦州市,北湖公园,颗粒物(PM10),86,121,107,43,57,163,112,108,76,29,26,14,12,1.0,1
2022-05-04T11:00:00,1772A,126.54,43.8622,吉林市,哈达湾,颗粒物(PM10),57,64,58,27,25,169,160,150,150,9,9,7,7,0.7,0.6
2022-05-04T11:00:00,1773A,126.5844,43.8358,吉林市,东局子,颗粒物(PM10),59,68,64,28,27,167,154,147,147,11,12,5,6,0.7,0.7
2022-05-04T11:00:00,1774A,126.5052,43.8245,吉林市,电力学院,,,67,65,,,179,171,157,157,10,14,14,14,0.8,0.8
2022-05-04T11:00:00,1775A,126.6133,43.8972,吉林市,江北,颗粒物(PM10),54,58,54,26,26,162,151,146,146,8,10,8,9,0.7,0.7
2022-05-04T11:00:00,1776A,126.555,43.8306,吉林市,江南公园,颗粒物(PM10),55,59,56,29,28,156,146,138,138,9,10,8,8,0.7,0.7
2022-05-04T11:00:00,1778A,126.7061,43.7133,吉林市,丰满(对照点),颗粒物(PM10),53,55,59,31,26,161,161,147,147,6,7,7,7,0.6,0.6
2022-05-04T11:00:00,1779A,123.9305,47.3636,齐齐哈尔市,安居小区,颗粒物(PM10),66,81,35,32,16,98,98,66,66,18,13,5,3,0.8,0.5
2022-05-04T11:00:00,1780A,123.9488,47.3386,齐齐哈尔市,中心广场,颗粒物(PM10),67,83,28,35,14,99,99,65,65,17,14,9,7,0.8,0.6
2022-05-04T11:00:00,1781A,123.9483,47.3227,齐齐哈尔市,农牧车辆厂,颗粒物(PM10),58,66,32,29,13,110,110,73,73,12,9,5,3,0.6,0.4
2022-05-04T11:00:00,1783A,123.945,47.2988,齐齐哈尔市,市环境监测站,,,71,30,34,17,91,,63,63,13,10,7,5,0.8,0.6
2022-05-04T11:00:00,1784A,129.61,44.561,牡丹江市,环保大楼,,43,43,47,26,24,127,101,78,74,17,15,7,5,0.5,0.5
2022-05-04T11:00:00,1785A,129.6115,44.5782,牡丹江市,文化广场,,46,46,45,24,26,128,92,72,71,19,18,4,4,0.4,0.5
2022-05-04T11:00:00,1786A,129.5904,44.5963,牡丹江市,第一医院,细颗粒物(PM2.5),54,37,41,38,33,129,103,74,74,13,12,6,5,0.7,0.7
2022-05-04T11:00:00,1787A,129.6364,44.6075,牡丹江市,机车工厂,,40,40,44,17,21,130,92,64,64,17,15,14,14,0.3,0.4
2022-05-04T11:00:00,1788A,129.6386,44.5462,牡丹江市,第一中学,,42,42,50,27,26,126,109,73,73,15,23,6,4,0.5,0.5
2022-05-04T11:00:00,1789A,124.81117,46.03138,大庆市,大同区,细颗粒物(PM2.5),78,93,93,57,75,138,91,85,85,13,17,7,6,0.7,0.7
2022-05-04T11:00:00,1790A,125.129,46.533,大庆市,龙凤区,,,127,59,55,35,111,,67,67,21,15,,5,0.9,0.6
2022-05-04T11:00:00,1791A,124.902,46.408,大庆市,红岗区,颗粒物(PM10),63,76,60,43,42,134,92,79,79,13,13,7,5,0.7,0.6
2022-05-04T11:00:00,1792A,125.153,46.586,大庆市,萨尔图区,细颗粒物(PM2.5),84,109,51,62,42,119,118,81,81,17,10,9,6,1.0,0.7
2022-05-04T11:00:00,1793A,124.9042,46.6215,大庆市,让胡路区,颗粒物(PM10),77,104,50,49,29,124,109,85,85,23,14,9,8,0.7,0.5
2022-05-04T11:00:00,1795A,118.3714,31.4134,芜湖市,科创中心,,45,45,54,19,26,180,134,60,60,17,46,8,10,0.5,0.7
2022-05-04T11:00:00,1796A,118.3673,31.3131,芜湖市,四水厂,颗粒物(PM10),54,58,52,21,22,158,126,74,74,16,28,8,9,0.6,0.6
2022-05-04T11:00:00,1798A,118.5092,31.6837,马鞍山市,湖东路四小,颗粒物(PM10),55,60,54,30,26,192,140,133,100,20,26,13,8,0.9,0.7
2022-05-04T11:00:00,1799A,118.5024,31.6449,马鞍山市,开发区,颗粒物(PM10),52,53,63,30,26,192,138,98,81,27,44,19,14,1.1,0.9
2022-05-04T11:00:00,1800A,118.5228,31.7231,马鞍山市,慈湖,颗粒物(PM10),55,59,56,23,26,171,133,123,97,19,24,16,13,1.0,0.8
2022-05-04T11:00:00,1802A,118.6245,31.7241,马鞍山市,濮塘(对照点),,,53,44,25,23,,,,,8,6,15,13,,
2022-05-04T11:00:00,1803A,115.9872,29.6815,九江市,十里,,41,41,44,20,22,187,84,47,47,49,44,7,6,0.6,0.6
2022-05-04T11:00:00,1804A,115.9584,29.7046,九江市,茅山头,,40,40,39,16,21,181,88,39,39,35,41,4,6,0.6,0.5
2022-05-04T11:00:00,1805A,115.9877,29.7295,九江市,西园,颗粒物(PM10),53,56,48,24,22,158,113,62,35,64,51,12,8,0.6,0.6
2022-05-04T11:00:00,1806A,116.0172,29.6547,九江市,五七二七厂,,,38,30,13,12,159,,111,78,,7,,6,,0.4
2022-05-04T11:00:00,1808A,115.9114,29.6038,九江市,综合工业园,,34,34,36,17,19,159,107,57,57,28,31,10,10,0.3,0.4
2022-05-04T11:00:00,1809A,116.0721,29.7535,九江市,石化总厂,,,58,56,,23,162,,33,33,,46,,9,0.4,0.6
2022-05-04T11:00:00,1810A,115.9773,29.5698,九江市,庐山气象台(对照点),,42,24,24,11,13,143,132,131,131,4,3,5,7,0.4,0.4
2022-05-04T11:00:00,1812A,112.3931,34.6516,洛阳市,市委党校,,37,35,60,14,23,139,118,47,47,6,26,6,8,0.3,0.4
2022-05-04T11:00:00,1814A,112.4657,34.6871,洛阳市,豫西宾馆,,,46,55,14,25,144,115,30,30,11,32,,6,0.2,0.4
2022-05-04T11:00:00,1815A,112.494,34.6886,洛阳市,河南林校,,39,39,50,14,18,146,112,68,45,16,30,10,10,0.3,0.4
2022-05-04T11:00:00,1816A,112.3844,34.623,洛阳市,开发区管委会,,38,38,43,18,21,141,112,59,59,13,24,4,5,0.3,0.2
2022-05-04T11:00:00,1817A,112.4267,34.6258,洛阳市,市委新办公区,,,39,45,19,17,145,96,50,48,19,23,,6,,0.2
2022-05-04T11:00:00,1818A,114.4839,36.0621,安阳市,棉研所(对照点),颗粒物(PM10),79,108,108,25,27,155,81,58,39,21,24,11,9,0.4,0.5
2022-05-04T11:00:00,1819A,114.3551,36.1017,安阳市,红庙街,颗粒物(PM10),86,121,123,22,26,174,92,52,52,33,36,11,14,0.4,0.4
2022-05-04T11:00:00,1820A,114.361,36.0681,安阳市,银杏小区,颗粒物(PM10),81,111,114,39,38,188,92,48,48,36,45,12,16,0.8,0.7
2022-05-04T11:00:00,1826A,114.2885,34.7965,开封市,世纪星幼儿园,细颗粒物(PM2.5),78,90,87,57,31,182,138,89,89,14,17,24,14,0.5,0.5
2022-05-04T11:00:00,1828A,113.2269,35.2127,焦作市,市环保局,,,,83,,59,181,,84,63,18,29,9,19,,0.6
2022-05-04T11:00:00,1829A,113.2467,35.176,焦作市,高新区政府,颗粒物(PM10),53,56,80,19,60,169,111,63,63,17,30,11,21,0.2,0.3
2022-05-04T11:00:00,1830A,113.1987,35.2703,焦作市,影视城(对照点),,,,57,10,16,168,116,121,108,23,14,25,13,1.1,0.4
2022-05-04T11:00:00,1832A,113.3257,33.742,平顶山市,新华旅馆,颗粒物(PM10),63,75,69,28,25,153,137,117,117,8,11,5,3,0.2,0.1
2022-05-04T11:00:00,1833A,113.2919,33.737,平顶山市,规划设计院,颗粒物(PM10),67,83,53,16,14,149,135,113,113,12,16,8,6,0.3,0.3
2022-05-04T11:00:00,1834A,113.182,33.774,平顶山市,平顶山工学院,,49,49,49,20,19,147,134,115,111,10,13,3,2,0.3,0.3
2022-05-04T11:00:00,1835A,111.1922,34.7752,三门峡市,市政府,,,,53,14,21,152,,40,40,10,37,12,13,0.3,0.4
2022-05-04T11:00:00,1836A,111.1587,34.7942,三门峡市,开发区,颗粒物(PM10),54,57,54,24,23,157,111,52,52,10,21,15,18,0.5,0.5
2022-05-04T11:00:00,1838A,111.143,34.7955,三门峡市,风景区(对照点),颗粒物(PM10),60,70,55,25,22,167,92,54,50,16,19,19,16,0.4,0.4
2022-05-04T11:00:00,1840A,111.2992,30.6981,宜昌市,白龙岗,,44,44,36,12,13,150,66,73,54,29,22,7,7,0.5,0.4
2022-05-04T11:00:00,1841A,111.3549,30.6465,宜昌市,伍家岗,,36,36,40,12,16,149,85,48,48,31,32,5,6,0.3,0.3
2022-05-04T11:00:00,1842A,111.2628,30.6961,宜昌市,点军区,,32,32,42,14,15,158,90,52,48,23,20,10,9,0.3,0.2
2022-05-04T11:00:00,1843A,111.3275,30.7819,宜昌市,夷陵区,,46,46,44,14,14,157,89,60,55,28,25,7,7,0.3,0.2
2022-05-04T11:00:00,1844A,112.2494,30.3197,荆州市,市图书馆,颗粒物(PM10),56,62,49,32,19,157,136,85,85,16,24,13,10,0.6,0.5
2022-05-04T11:00:00,1845A,112.2008,30.3544,荆州市,市委党校,颗粒物(PM10),54,58,43,36,27,152,129,79,79,16,24,10,9,0.8,0.8
2022-05-04T11:00:00,1847A,113.1094,29.3578,岳阳市,南湖风景区,,47,47,49,23,28,142,119,86,86,19,31,12,8,0.6,0.7
2022-05-04T11:00:00,1848A,113.1493,29.4251,岳阳市,城陵矶,,,53,54,26,24,140,,80,79,41,38,16,15,,0.5
2022-05-04T11:00:00,1849A,113.1497,29.3575,岳阳市,开发区,,,40,49,27,23,160,144,82,82,,24,,8,0.5,0.5
2022-05-04T11:00:00,1850A,113.2621,29.4758,岳阳市,云溪区,,44,44,39,25,24,159,134,83,83,12,19,12,11,0.4,0.5
2022-05-04T11:00:00,1851A,112.9943,29.4402,岳阳市,君山区,,48,45,46,33,29,151,132,80,80,14,28,8,6,0.6,0.7
2022-05-04T11:00:00,1852A,113.2117,29.355,岳阳市,金凤水库(对照点),颗粒物(PM10),51,51,38,27,21,155,124,94,65,13,18,6,6,0.2,0.2
2022-05-04T11:00:00,1854A,111.6975,28.9703,常德市,市二中,颗粒物(PM10),51,52,43,25,28,143,104,63,49,12,16,10,10,0.6,0.6
2022-05-04T11:00:00,1857A,111.7158,29.1456,常德市,白鹤山(对照点),颗粒物(PM10),52,53,39,29,24,142,103,107,69,13,10,10,7,0.7,0.6
2022-05-04T11:00:00,1858A,110.5319,29.1217,张家界市,永定新区,,42,42,33,14,17,124,96,60,55,13,16,5,5,0.4,0.4
2022-05-04T11:00:00,1859A,110.4697,29.1242,张家界市,电业局,,41,41,25,18,10,122,91,48,46,13,12,7,7,0.1,0
2022-05-04T11:00:00,1860A,110.5594,29.3547,张家界市,未央路,,30,30,24,18,8,126,87,63,63,15,7,1,2,0.4,0.3
2022-05-04T11:00:00,1861A,110.4417,29.315,张家界市,袁家界(对照点),,43,17,19,8,7,143,137,142,128,5,5,8,5,0.0,0
2022-05-04T11:00:00,1862A,110.4144,25.3167,桂林市,电子科大尧山校区(对照点),,44,44,30,29,18,129,106,60,50,5,5,11,7,0.5,0.4
2022-05-04T11:00:00,1863A,110.2819,25.2697,桂林市,监测站,细颗粒物(PM2.5),53,53,39,37,26,128,109,98,63,14,15,17,9,0.5,0.5
2022-05-04T11:00:00,1864A,110.3089,25.2708,桂林市,龙隐路小学,,,57,34,38,23,133,,111,52,15,12,18,16,0.7,0.6
2022-05-04T11:00:00,1865A,110.2869,25.2178,桂林市,八中,颗粒物(PM10),52,54,35,31,21,129,113,100,66,12,13,14,10,0.6,0.5
2022-05-04T11:00:00,1866A,109.2262,21.588,北海市,牛尾岭水库(对照点),,50,50,42,22,33,118,114,56,56,8,17,14,8,0.8,0.7
2022-05-04T11:00:00,1867A,109.1436,21.4086,北海市,海滩公园,,47,47,41,24,26,150,125,95,83,6,8,6,7,1.2,1.1
2022-05-04T11:00:00,1868A,109.0981,21.4661,北海市,新市环保局,颗粒物(PM10),53,56,43,36,31,161,120,91,76,15,14,13,9,0.8,0.8
2022-05-04T11:00:00,1869A,109.1778,21.5233,北海市,北海工业园,颗粒物(PM10),54,58,52,29,35,135,119,66,66,18,19,14,14,0.8,0.7
2022-05-04T11:00:00,1870A,109.4856,24.3895,柳州市,柳东小学,细颗粒物(PM2.5),70,60,37,51,32,148,117,90,85,9,10,34,16,0.6,0.5
2022-05-04T11:00:00,1871A,109.4157,24.3277,柳州市,环保监测站,颗粒物(PM10),71,91,53,44,34,145,78,36,34,38,37,31,15,1.0,0.8
2022-05-04T11:00:00,1872A,109.389,24.341,柳州市,河西水厂,细颗粒物(PM2.5),77,97,70,56,37,160,74,38,38,47,37,47,21,1.3,0.8
2022-05-04T11:00:00,1873A,109.4311,24.2921,柳州市,市四中,颗粒物(PM10),55,60,59,37,29,139,97,32,32,19,37,28,15,0.7,0.8
2022-05-04T11:00:00,1874A,109.4006,24.3631,柳州市,市九中,颗粒物(PM10),64,77,72,44,26,142,84,35,35,28,35,35,17,0.5,0.6
2022-05-04T11:00:00,1875A,109.4958,24.3134,柳州市,古亭山,细颗粒物(PM2.5),52,49,32,36,19,138,118,45,45,10,26,17,7,0.4,0.4
2022-05-04T11:00:00,1876A,109.5078,18.2489,三亚市,河东子站,,35,22,21,14,13,109,109,88,88,6,6,4,3,0.5,0.5
2022-05-04T11:00:00,1877A,109.4964,18.2681,三亚市,河西子站,,33,24,19,15,12,105,105,82,82,10,7,3,3,0.6,0.6
2022-05-04T11:00:00,1878A,104.7778,31.4741,绵阳市,富乐山,细颗粒物(PM2.5),54,47,44,38,27,168,117,64,52,19,22,15,11,0.9,0.8
2022-05-04T11:00:00,1879A,104.7563,31.4535,绵阳市,市人大,颗粒物(PM10),60,70,59,33,33,163,114,45,45,25,49,13,10,0.7,0.8
2022-05-04T11:00:00,1880A,104.6697,31.4668,绵阳市,高新区自来水公司,颗粒物(PM10),63,75,69,43,32,176,112,58,58,30,40,13,11,0.7,0.7
2022-05-04T11:00:00,1881A,104.7287,31.5075,绵阳市,三水厂,颗粒物(PM10),63,75,63,37,33,167,106,31,31,28,44,6,4,0.9,0.9
2022-05-04T11:00:00,1882A,104.563,28.793,宜宾市,石马中学(对照点),颗粒物(PM10),53,55,43,36,24,145,94,29,29,10,23,13,8,0.6,0.6
2022-05-04T11:00:00,1883A,104.6201,28.7728,宜宾市,市委,颗粒物(PM10),53,55,54,28,25,148,54,24,24,38,42,14,8,0.5,0.4
2022-05-04T11:00:00,1884A,104.6055,28.793,宜宾市,宜宾四中,颗粒物(PM10),61,72,50,41,28,152,90,34,34,28,40,14,8,0.5,0.5
2022-05-04T11:00:00,1885A,104.639,28.7562,宜宾市,市政府,颗粒物(PM10),67,83,65,40,28,160,76,28,28,41,50,15,11,0.5,0.5
2022-05-04T11:00:00,1886A,104.5742,28.7199,宜宾市,黄金嘴,,50,50,42,29,23,147,77,36,36,22,28,13,9,0.4,0.4
2022-05-04T11:00:00,1888A,101.6891,26.571,攀枝花市,弄弄坪,,,41,30,27,17,112,53,67,36,29,17,133,18,,1.1
2022-05-04T11:00:00,1889A,101.5769,26.5928,攀枝花市,河门口,,21,18,26,13,17,101,65,48,34,17,20,9,7,0.6,0.6
2022-05-04T11:00:00,1890A,101.7169,26.585,攀枝花市,炳草岗,,,43,30,28,22,104,,40,14,,30,32,18,2.3,1.1
2022-05-04T11:00:00,1891A,101.7369,26.5008,攀枝花市,仁和,,38,38,33,24,20,107,68,42,32,24,22,33,13,2.1,1.1
2022-05-04T11:00:00,1893A,105.4324,28.9634,泸州市,九狮山(对照点),颗粒物(PM10),51,51,51,16,23,155,69,43,30,40,23,21,10,0.5,0.5
2022-05-04T11:00:00,1894A,105.4427,28.9063,泸州市,小市上码头,,44,44,58,26,24,174,110,55,44,20,22,21,16,0.4,0.4
2022-05-04T11:00:00,1895A,105.4241,28.8573,泸州市,兰田宪桥,,,85,60,27,26,159,79,22,22,22,32,,15,,0.7
2022-05-04T11:00:00,1896A,105.4379,28.8833,泸州市,市环监站,颗粒物(PM10),61,71,60,25,21,151,72,45,33,42,36,23,17,0.7,0.4
2022-05-04T11:00:00,1901A,104.4239,31.1208,德阳市,东山公园,细颗粒物(PM2.5),62,67,53,44,28,168,100,112,65,41,22,15,9,0.5,0.5
2022-05-04T11:00:00,1902A,104.3826,31.1317,德阳市,西小区,颗粒物(PM10),69,88,63,46,32,163,90,56,28,55,45,14,12,0.6,0.5
2022-05-04T11:00:00,1904A,104.3553,31.1091,德阳市,耐火材料厂,细颗粒物(PM2.5),77,91,76,56,39,167,94,52,38,52,44,10,12,0.5,0.5
2022-05-04T11:00:00,1905A,106.056,30.8064,南充市,西山风景区(对照点),细颗粒物(PM2.5),67,56,54,48,37,131,116,76,76,12,18,1,6,0.6,0.5
2022-05-04T11:00:00,1906A,106.0789,30.8023,南充市,南充市委,,,,61,,36,125,89,64,61,22,31,3,3,,0.6
2022-05-04T11:00:00,1907A,106.1031,30.8217,南充市,南充炼油厂,颗粒物(PM10),70,90,69,48,34,148,108,41,41,7,25,4,2,0.6,0.6
2022-05-04T11:00:00,1908A,106.1064,30.7856,南充市,高坪区监测站,细颗粒物(PM2.5),74,76,56,54,38,138,101,47,47,15,33,3,5,0.6,0.5
2022-05-04T11:00:00,1909A,106.0642,30.7636,南充市,嘉陵区环保局,细颗粒物(PM2.5),63,71,58,45,40,127,95,55,55,22,28,8,26,0.6,0.5
2022-05-04T11:00:00,1910A,106.1087,30.8388,南充市,市环境监测站,"颗粒物(PM10),细颗粒物(PM2.5)",69,87,65,50,40,129,86,46,41,26,28,1,2,0.5,0.5
2022-05-04T11:00:00,1911A,106.9222,27.6869,遵义市,丁字口,,33,33,42,19,22,163,98,51,51,17,23,11,9,0.7,0.7
2022-05-04T11:00:00,1912A,106.9242,27.7019,遵义市,凤凰山,,,33,32,14,18,158,,71,58,,18,10,6,0.5,0.6
2022-05-04T11:00:00,1913A,106.8906,27.6486,遵义市,忠庄,,43,43,40,23,24,160,90,50,45,23,25,8,4,0.4,0.4
2022-05-04T11:00:00,1914A,106.9231,27.6506,遵义市,舟水桥,,41,41,46,15,26,144,92,32,32,14,23,9,3,0.4,0.4
2022-05-04T11:00:00,1915A,106.9178,27.72,遵义市,干田坝,,32,32,34,18,21,164,94,48,48,22,22,9,6,1.0,0.8
2022-05-04T11:00:00,1916A,103.7897,25.5035,曲靖市,环境监测站,细颗粒物(PM2.5),65,43,55,47,36,133,104,85,55,19,20,9,9,0.8,0.7
2022-05-04T11:00:00,1917A,103.8,25.5364,曲靖市,烟厂办公区,颗粒物(PM10),58,65,54,30,27,145,112,92,48,21,20,11,10,0.8,0.7
2022-05-04T11:00:00,1918A,108.7197,34.3956,咸阳市,气象站(对照点),颗粒物(PM10),59,67,70,25,27,148,103,35,35,35,58,7,7,0.4,0.4
2022-05-04T11:00:00,1919A,108.673,34.3155,咸阳市,实验中学,颗粒物(PM10),57,64,84,19,29,150,107,26,26,26,56,5,4,0.4,0.5
2022-05-04T11:00:00,1920A,108.7233,34.3617,咸阳市,师范学院,颗粒物(PM10),72,94,68,41,30,156,80,22,22,50,48,5,5,0.6,0.5
2022-05-04T11:00:00,1922A,109.0656,35.0994,铜川市,党校(对照点),,46,46,54,17,24,140,102,37,37,42,47,6,5,0.6,0.5
2022-05-04T11:00:00,1923A,109.0697,35.0697,铜川市,王益区政府,,,53,48,14,21,143,121,48,48,17,30,,8,0.6,0.5
2022-05-04T11:00:00,1924A,108.9344,34.9058,铜川市,新区管委会,,48,48,40,25,19,143,110,83,83,25,24,8,8,0.4,0.3
2022-05-04T11:00:00,1926A,109.4131,36.6275,延安市,枣园(对照点),,42,20,36,11,15,153,133,46,46,6,26,5,4,0.2,0.2
2022-05-04T11:00:00,1927A,109.4761,36.6028,延安市,延大医附院,,,43,42,23,18,162,136,42,42,,26,5,4,0.4,0.4
2022-05-04T11:00:00,1929A,109.5056,36.6106,延安市,百米大道,颗粒物(PM10),51,51,49,16,16,136,121,86,39,21,34,8,6,0.4,0.5
2022-05-04T11:00:00,1930A,107.185,34.3063,宝鸡市,庙沟村(对照点),颗粒物(PM10),58,65,33,18,14,137,116,103,102,8,10,4,4,0.3,0.2
2022-05-04T11:00:00,1931A,107.0708,34.3017,宝鸡市,竹园沟,,42,31,28,14,12,146,132,68,68,18,21,6,5,0.3,0.3
2022-05-04T11:00:00,1932A,107.1906,34.3672,宝鸡市,三陆医院,颗粒物(PM10),60,69,52,26,21,144,85,32,30,35,34,6,11,0.6,0.5
2022-05-04T11:00:00,1933A,107.1431,34.3547,宝鸡市,监测站,,48,48,36,23,21,141,119,59,59,24,24,4,4,0.5,0.5
2022-05-04T11:00:00,1934A,107.1186,34.3739,宝鸡市,技工学校,,,63,47,16,21,139,,60,32,,27,5,5,0.5,0.4
2022-05-04T11:00:00,1935A,107.3906,34.3528,宝鸡市,陈仓区环保局家属楼,,49,49,55,27,23,146,98,56,38,28,33,12,12,0.4,0.4
2022-05-04T11:00:00,1936A,107.2058,34.3497,宝鸡市,文理学院,颗粒物(PM10),56,62,40,26,22,147,100,57,57,32,28,8,7,0.4,0.3
2022-05-04T11:00:00,1937A,107.2386,34.3622,宝鸡市,三迪小学,颗粒物(PM10),64,78,50,33,26,134,72,36,32,42,42,10,10,0.5,0.4
2022-05-04T11:00:00,1938A,109.5293,34.5101,渭南市,农科所(对照点),颗粒物(PM10),80,110,53,48,24,138,97,66,36,32,36,18,9,0.3,0.3
2022-05-04T11:00:00,1939A,109.4974,34.4877,渭南市,日报社,颗粒物(PM10),78,105,57,39,18,161,99,53,31,31,35,17,13,0.6,0.4
2022-05-04T11:00:00,1940A,109.4636,34.493,渭南市,体育馆,颗粒物(PM10),87,124,57,42,19,170,105,78,31,34,40,19,11,0.6,0.4
2022-05-04T11:00:00,1941A,109.4259,34.5023,渭南市,高新一小,颗粒物(PM10),68,86,71,31,24,145,105,50,31,23,39,16,9,0.5,0.4
2022-05-04T11:00:00,1943A,102.1725,38.5339,金昌市,新川苑,颗粒物(PM10),63,75,44,28,12,128,100,75,64,28,28,129,34,0.4,0.4
2022-05-04T11:00:00,1944A,102.1692,38.5167,金昌市,天庆家园,,,47,39,58,17,130,,67,66,,32,,27,,0.5
2022-05-04T11:00:00,1945A,98.2908,39.7711,嘉峪关市,气象局,颗粒物(PM10),59,68,55,22,16,151,90,66,66,24,22,36,12,1.3,0.6
2022-05-04T11:00:00,1947A,106.3394,38.817,石嘴山市,沙湖旅游区(对照点),颗粒物(PM10),69,87,82,32,24,150,94,62,62,27,28,40,31,0.5,0.3
2022-05-04T11:00:00,1948A,106.3668,39.0145,石嘴山市,大武口朝阳西街,颗粒物(PM10),58,66,73,25,25,139,90,44,44,18,31,21,12,0.5,0.5
2022-05-04T11:00:00,1949A,106.7704,39.2282,石嘴山市,惠农南大街,颗粒物(PM10),69,88,66,25,22,152,91,79,66,23,21,30,19,0.8,0.6
2022-05-04T11:00:00,1950A,106.7099,39.1325,石嘴山市,红果子镇惠新街,颗粒物(PM10),85,120,91,28,24,133,84,63,63,31,27,39,21,1.0,0.6
2022-05-04T11:00:00,1951A,84.895,45.6094,克拉玛依市,长征新村,,44,44,215,20,34,140,78,73,60,11,9,10,11,0.2,0.2
2022-05-04T11:00:00,1952A,84.8988,45.5893,克拉玛依市,南林小区,颗粒物(PM10),74,98,256,39,50,149,86,78,55,13,15,8,8,0.3,0.3
2022-05-04T11:00:00,1954A,84.905,44.3396,克拉玛依市,独山子区,颗粒物(PM10),273,401,160,49,29,150,67,66,55,6,10,6,6,0.4,0.4
2022-05-04T11:00:00,1955A,85.6979,46.098,克拉玛依市,乌尔禾区商贸楼,,26,25,77,3,22,147,81,71,71,4,5,11,12,0.3,0.3
2022-05-04T11:00:00,1956A,86.1472,41.7538,巴音郭楞州,孔雀公园,颗粒物(PM10),135,220,229,65,59,112,59,20,20,38,37,4,3,0.7,0.8
2022-05-04T11:00:00,1957A,86.1972,41.7166,巴音郭楞州,棉纺厂,颗粒物(PM10),118,186,208,60,67,108,69,42,42,24,27,4,4,0.9,0.6
2022-05-04T11:00:00,1958A,86.2357,41.7173,巴音郭楞州,经济开发区,颗粒物(PM10),154,258,223,49,56,140,98,57,57,12,16,3,3,0.6,0.5
2022-05-04T11:00:00,1961A,117.532,36.6868,济南市,东山小学,,,76,72,39,31,194,,147,127,6,7,14,13,0.3,0.3
2022-05-04T11:00:00,1966A,120.0405,35.8735,青岛市,黄岛区4号,颗粒物(PM10),62,73,64,27,24,162,112,124,101,37,26,10,9,0.7,0.6
2022-05-04T11:00:00,1982A,122.0693,37.2174,威海市,文登开发区,颗粒物(PM10),63,75,64,34,28,166,160,164,153,11,8,7,5,0.4,0.3
2022-05-04T11:00:00,2031A,113.1817,27.9958,株洲市,云田中学,,49,39,50,23,29,155,154,98,98,8,16,10,8,0.3,0.4
2022-05-04T11:00:00,2054A,114.1099,32.1059,信阳市,平桥分局,,46,37,43,20,22,157,146,120,116,7,13,8,10,0.3,0.4
2022-05-04T11:00:00,2064A,113.9956,32.1271,信阳市,南湾水厂,,50,42,41,24,19,171,157,138,137,6,7,11,10,0.3,0.3
2022-05-04T11:00:00,2065A,114.0775,32.1195,信阳市,市酿酒公司,,,31,24,,12,149,148,124,124,8,12,6,10,0.4,0.4
2022-05-04T11:00:00,2066A,114.0609,32.1399,信阳市,审计局,颗粒物(PM10),54,58,49,26,20,150,144,128,128,10,10,10,10,0.3,0.3
2022-05-04T11:00:00,2067A,114.6613,33.6128,周口市,市环境监测站,颗粒物(PM10),69,87,81,22,30,154,145,115,104,7,15,8,9,0.4,0.4
2022-05-04T11:00:00,2068A,114.6758,33.6347,周口市,周口师范,颗粒物(PM10),72,94,99,19,21,146,128,106,103,8,13,9,9,0.4,0.5
2022-05-04T11:00:00,2069A,114.6546,33.5979,周口市,市运管处,颗粒物(PM10),119,188,68,21,21,150,133,103,102,2,7,7,7,0.3,0.3
2022-05-04T11:00:00,2070A,114.6369,33.6406,周口市,川汇区环保局,颗粒物(PM10),67,84,74,19,20,148,133,109,109,6,11,3,4,0.3,0.3
2022-05-04T11:00:00,2075A,117.6336,24.4674,漳州市,九湖(对照点),,41,41,47,19,22,158,128,62,62,11,29,10,12,0.6,0.6
2022-05-04T11:00:00,2160A,112.85,35.5051,晋城市,自来水公司,颗粒物(PM10),58,66,68,29,16,161,109,45,33,31,44,12,8,1.0,0.6
2022-05-04T11:00:00,2161A,112.8318,35.4936,晋城市,白云商贸,颗粒物(PM10),55,60,63,31,16,172,110,52,52,36,38,10,6,1.1,0.7
2022-05-04T11:00:00,2162A,112.8508,35.4887,晋城市,市环保局,,,,61,,18,160,106,27,27,32,44,14,9,1.0,0.7
2022-05-04T11:00:00,2163A,112.8676,35.4897,晋城市,技术学院,,49,42,60,34,14,157,108,35,35,30,40,9,6,1.0,0.7
2022-05-04T11:00:00,2165A,112.8453,35.546,晋城市,白马寺 (对照点),,50,50,44,17,10,175,128,126,90,22,20,6,6,0.8,0.6
2022-05-04T11:00:00,2166A,112.4397,39.3522,朔州市,平朔,,45,39,55,24,24,142,142,112,112,8,16,9,12,0.3,0.4
2022-05-04T11:00:00,2167A,112.4575,39.3617,朔州市,朔唯,,48,48,61,13,19,143,143,110,110,10,19,2,4,0.4,0.5
2022-05-04T11:00:00,2168A,112.4258,39.3197,朔州市,区政府,颗粒物(PM10),58,65,64,9,12,140,140,115,115,14,18,6,9,0.4,0.4
2022-05-04T11:00:00,2169A,112.4072,39.3278,朔州市,市环保局,颗粒物(PM10),92,133,84,12,13,127,122,112,112,26,20,6,8,0.2,0.2
2022-05-04T11:00:00,2170A,112.4272,39.3681,朔州市,市二中,,,,61,,24,142,142,102,102,6,17,5,6,,0.5
2022-05-04T11:00:00,2171A,112.7532,37.6945,晋中市,锦纶小区,颗粒物(PM10),66,82,85,46,39,145,118,54,54,22,29,36,18,0.6,0.5
2022-05-04T11:00:00,2173A,112.7249,37.7067,晋中市,南都小区,颗粒物(PM10),68,85,83,41,34,153,127,65,65,26,33,31,21,0.7,0.6
2022-05-04T11:00:00,2174A,112.6991,37.6982,晋中市,榆次区政府,颗粒物(PM10),64,78,81,42,37,150,124,60,60,22,30,27,20,0.6,0.8
2022-05-04T11:00:00,2175A,110.9956,35.0147,运城市,运城中学,颗粒物(PM10),72,94,72,43,30,154,106,48,48,19,31,32,10,0.9,0.7
2022-05-04T11:00:00,2178A,110.9686,35.0303,运城市,地区技校,,,65,80,38,26,154,109,33,33,13,40,14,7,,0.5
2022-05-04T11:00:00,2179A,111.0414,35.1147,运城市,空港新区,颗粒物(PM10),69,88,75,36,33,147,100,54,54,30,34,8,11,0.6,0.6
2022-05-04T11:00:00,2181A,112.7383,38.4519,忻州市,开发区,颗粒物(PM10),65,79,55,20,21,136,107,110,58,28,23,26,18,0.7,0.5
2022-05-04T11:00:00,2182A,112.7003,38.4928,忻州市,会展中心,颗粒物(PM10),60,69,46,10,11,133,105,105,45,26,28,24,12,0.6,0.5
2022-05-04T11:00:00,2183A,111.1406,37.5211,吕梁市,环保局,颗粒物(PM10),66,82,67,16,14,136,101,30,30,38,51,6,4,0.8,0.3
2022-05-04T11:00:00,2185A,111.1297,37.5136,吕梁市,自来水公司,颗粒物(PM10),60,69,123,22,24,132,92,24,24,43,52,5,4,0.7,0.4
2022-05-04T11:00:00,2188A,106.7907,39.6667,乌海市,中海勃湾学校,颗粒物(PM10),71,91,77,30,28,145,91,51,49,36,38,46,37,0.9,0.8
2022-05-04T11:00:00,2191A,122.2532,43.6801,通辽市,艺术职业学校,颗粒物(PM10),86,121,91,46,39,158,142,149,124,24,20,11,11,0.6,0.6
2022-05-04T11:00:00,2192A,119.7594,49.2261,呼伦贝尔市,区环保局,,,39,41,17,23,170,170,97,97,,9,5,5,0.5,0.5
2022-05-04T11:00:00,2195A,107.4212,40.761,巴彦淖尔市,附二中,颗粒物(PM10),89,128,83,31,22,131,112,91,78,12,13,9,10,0.5,0.5
2022-05-04T11:00:00,2196A,107.37,40.7372,巴彦淖尔市,市环保大楼,颗粒物(PM10),109,167,84,27,23,136,117,83,77,11,12,11,9,0.5,0.5
2022-05-04T11:00:00,2197A,113.1306,40.9923,乌兰察布市,集宁新区,,42,42,38,11,14,150,131,107,107,8,11,10,12,0.3,0.3
2022-05-04T11:00:00,2200A,122.0392,46.0656,兴安盟,胜华新制药厂,,44,44,45,28,26,115,82,66,62,10,9,4,4,0.3,0.4
2022-05-04T11:00:00,2201A,121.9504,46.0741,兴安盟,科右前旗环保局,,45,35,42,31,32,123,86,67,64,12,12,5,5,0.3,0.2
2022-05-04T11:00:00,2202A,116.1042,43.9317,锡林郭勒盟,市环保监测站,颗粒物(PM10),63,76,71,16,11,112,101,96,96,5,4,9,8,0.9,0.7
2022-05-04T11:00:00,2203A,116.0781,43.9311,锡林郭勒盟,市政府,颗粒物(PM10),62,73,48,17,11,108,96,91,91,6,5,8,7,0.6,0.5
2022-05-04T11:00:00,2204A,105.6467,38.8363,阿拉善盟,西城区西花园(对照点),,39,34,34,15,10,142,122,123,115,6,7,7,6,0.2,0.2
2022-05-04T11:00:00,2205A,105.6985,38.8411,阿拉善盟,蒙二幼,,42,42,34,19,13,141,120,120,117,8,8,8,8,0.4,0.4
2022-05-04T11:00:00,2206A,105.724,38.8516,阿拉善盟,环保局新楼,,37,26,28,18,18,134,116,126,117,10,8,8,9,0.4,0.4
2022-05-04T11:00:00,2207A,121.6094,41.998,阜新市,工业园区,颗粒物(PM10),97,143,105,21,42,188,158,117,117,18,23,21,26,0.8,0.8
2022-05-04T11:00:00,2208A,121.6697,42.0279,阜新市,长青街,颗粒物(PM10),62,74,93,14,35,165,135,113,100,17,18,22,30,1.0,1
2022-05-04T11:00:00,2209A,121.6673,42.0705,阜新市,农业园区,颗粒物(PM10),84,118,101,32,50,175,152,123,114,16,17,17,19,0.8,0.9
2022-05-04T11:00:00,2210A,121.6717,42.0224,阜新市,东苑,颗粒物(PM10),96,142,104,30,46,176,142,113,103,29,32,17,26,0.8,0.9
2022-05-04T11:00:00,2211A,121.6506,42.0498,阜新市,玉龙新城,颗粒物(PM10),76,102,89,20,36,163,138,103,94,15,17,23,22,1.0,0.9
2022-05-04T11:00:00,2212A,123.2,41.1953,辽阳市,宏伟区,颗粒物(PM10),53,56,67,22,24,150,113,112,106,8,10,9,11,0.7,0.7
2022-05-04T11:00:00,2213A,123.1683,41.2495,辽阳市,新华园,颗粒物(PM10),61,71,76,26,28,169,111,125,115,12,14,6,9,0.6,0.8
2022-05-04T11:00:00,2214A,123.2354,41.2639,辽阳市,滨河路,细颗粒物(PM2.5),62,62,94,44,38,175,111,124,113,19,11,29,10,0.4,0.5
2022-05-04T11:00:00,2215A,123.149,41.2991,辽阳市,铁西工业园,颗粒物(PM10),67,84,96,26,36,179,119,128,111,20,17,8,10,0.6,0.7
2022-05-04T11:00:00,2216A,123.8139,42.3022,铁岭市,汇工街西,颗粒物(PM10),101,152,135,36,38,178,148,146,136,18,19,14,13,0.8,0.8
2022-05-04T11:00:00,2217A,123.8649,42.2923,铁岭市,水上乐园,颗粒物(PM10),79,108,102,24,29,191,159,148,142,15,17,14,13,0.5,0.4
2022-05-04T11:00:00,2218A,123.8486,42.2867,铁岭市,银州路东段,颗粒物(PM10),97,144,152,38,43,192,159,152,144,61,58,11,10,0.6,0.5
2022-05-04T11:00:00,2219A,123.7153,42.2217,铁岭市,金沙江路北,,,,111,,34,179,145,140,127,16,17,14,15,0.6,0.9
2022-05-04T11:00:00,2220A,120.4318,41.5881,朝阳市,西梁,颗粒物(PM10),79,107,71,22,33,165,139,138,129,20,16,15,15,1.1,1.1
2022-05-04T11:00:00,2221A,120.4521,41.5646,朝阳市,河畔小区,颗粒物(PM10),107,164,91,21,32,179,151,129,126,12,17,11,14,0.8,1
2022-05-04T11:00:00,2222A,120.4176,41.5648,朝阳市,八里堡,颗粒物(PM10),91,132,85,34,34,163,126,112,111,31,25,19,19,1.5,1.4
2022-05-04T11:00:00,2223A,120.3806,41.5969,朝阳市,农业园区,颗粒物(PM10),79,108,77,20,33,156,151,139,130,11,16,13,13,0.9,1
2022-05-04T11:00:00,2225A,124.4002,43.1713,四平市,一商场,颗粒物(PM10),110,170,109,37,32,172,,156,134,,12,,13,,0.5
2022-05-04T11:00:00,2226A,124.388,43.193,四平市,境园,颗粒物(PM10),92,134,104,34,27,182,156,158,142,13,11,16,15,0.5,0.4
2022-05-04T11:00:00,2227A,125.1358,42.8845,辽源市,环保局,,47,42,39,22,23,185,150,160,143,8,7,9,10,0.6,0.5
2022-05-04T11:00:00,2229A,125.9358,41.7173,通化市,光明,,49,33,31,10,13,162,156,146,146,6,5,10,9,0.6,0.6
2022-05-04T11:00:00,2230A,125.9446,41.7325,通化市,铁路,,48,36,28,20,14,156,151,139,139,8,8,9,7,0.6,0.4
2022-05-04T11:00:00,2231A,126.4219,41.9171,白山市,喜丰,颗粒物(PM10),69,87,64,21,19,159,159,130,130,14,13,12,12,0.7,0.8
2022-05-04T11:00:00,2232A,126.4077,41.9419,白山市,环保局,,50,50,46,22,18,153,153,139,107,10,14,13,10,0.8,0.7
2022-05-04T11:00:00,2233A,124.8006,45.1214,松原市,江南,颗粒物(PM10),109,167,95,28,31,176,130,176,111,14,13,6,6,0.4,0.4
2022-05-04T11:00:00,2234A,124.7965,45.1722,松原市,江北,颗粒物(PM10),93,136,94,34,39,167,126,167,109,13,13,5,5,0.6,0.6
2022-05-04T11:00:00,2235A,122.7911,45.6077,白城市,洮北区环保局,,,46,55,,,117,76,65,50,14,15,5,7,0.4,0.4
2022-05-04T11:00:00,2236A,122.8738,45.5725,白城市,市环保局,细颗粒物(PM2.5),53,48,61,37,42,78,55,45,33,43,49,6,6,0.4,0.4
2022-05-04T11:00:00,2237A,129.47,42.8883,延边朝鲜族自治州,妇幼医院,,,44,32,16,22,138,138,62,62,12,16,,7,0.5,0.6
2022-05-04T11:00:00,2238A,129.5055,42.9108,延边朝鲜族自治州,延边医院,,47,45,39,18,21,148,148,78,78,10,15,12,10,0.7,0.6
2022-05-04T11:00:00,2239A,129.3964,42.8881,延边朝鲜族自治州,朝阳川镇医院,颗粒物(PM10),54,57,38,12,21,152,152,66,66,12,19,10,8,0.3,0.4
2022-05-04T11:00:00,2240A,130.9762,45.3001,鸡西市,环保局,,,,35,,19,110,,86,58,20,28,,5,0.3,0.4
2022-05-04T11:00:00,2243A,130.9429,45.3039,鸡西市,第一中学,,25,25,35,6,18,117,79,84,63,20,22,8,7,0.2,0.3
2022-05-04T11:00:00,2244A,130.2537,47.3416,鹤岗市,哈啤分公司,,30,18,25,5,14,98,94,80,80,7,8,10,11,0.3,0.3
2022-05-04T11:00:00,2245A,130.2684,47.3086,鹤岗市,斯达机电,,26,19,23,8,14,102,82,73,73,5,8,6,6,0.2,0.3
2022-05-04T11:00:00,2246A,130.3114,47.3388,鹤岗市,东山纸板厂,,29,25,28,8,13,97,90,77,71,9,11,8,9,0.3,0.3
2022-05-04T11:00:00,2247A,130.1097,47.3382,鹤岗市,五号水库(对照点),,28,6,16,8,13,98,89,69,69,7,9,5,5,0.2,0.2
2022-05-04T11:00:00,2248A,131.1511,46.6937,双鸭山市,双合村,,25,11,26,4,16,113,78,62,62,10,13,4,5,0.3,0.4
2022-05-04T11:00:00,2249A,131.1652,46.6191,双鸭山市,南小市,,29,29,38,2,22,112,84,52,52,5,11,3,2,0.3,0.5
2022-05-04T11:00:00,2250A,131.1524,46.6554,双鸭山市,环保局,,30,12,29,5,21,121,95,66,66,5,16,3,4,0.2,0.4
2022-05-04T11:00:00,2251A,131.12,46.5656,双鸭山市,苗圃(对照点),,28,12,27,7,26,125,88,58,58,4,7,1,2,0.4,0.5
2022-05-04T11:00:00,2252A,128.5159,47.4311,伊春市,环保局,细颗粒物(PM2.5),52,6,15,36,12,100,92,71,71,4,9,5,6,0.3,0.4
2022-05-04T11:00:00,2253A,128.9102,47.7412,伊春市,电力嘉园,,29,15,25,9,16,99,92,66,66,6,9,5,6,0.3,0.4
2022-05-04T11:00:00,2254A,129.5029,48.471,伊春市,汤旺河国家公园(对照点),,31,6,5,3,3,99,98,62,62,3,3,5,6,0.3,0.2
2022-05-04T11:00:00,2255A,130.2751,46.8028,佳木斯市,佳纺,,25,14,18,10,21,117,80,51,51,12,20,4,3,0.3,0.4
2022-05-04T11:00:00,2256A,130.3995,46.8307,佳木斯市,发电厂,,26,24,27,11,17,122,83,67,67,7,11,10,6,0.3,0.3
2022-05-04T11:00:00,2257A,130.3258,46.7975,佳木斯市,环保局,,25,24,30,17,21,121,76,67,67,13,19,4,4,0.4,0.4
2022-05-04T11:00:00,2258A,130.3648,46.8032,佳木斯市,十一中,,,35,28,11,19,114,76,62,62,11,19,2,3,,0.4
2022-05-04T11:00:00,2259A,130.3794,46.7588,佳木斯市,四丰(对照点),,25,6,18,6,17,120,77,63,63,12,13,6,4,0.3,0.4
2022-05-04T11:00:00,2262A,131.0518,45.8751,七台河市,新一中(对照点),,27,8,29,2,18,120,86,71,59,8,16,6,9,0.6,0.8
2022-05-04T11:00:00,2263A,127.4833,50.2524,黑河市,交通局,,25,10,24,7,11,94,80,50,50,5,12,1,4,0.2,0.3
2022-05-04T11:00:00,2264A,127.5144,50.2341,黑河市,环保局,,26,14,20,6,12,99,83,57,57,4,10,4,5,0.3,0.3
2022-05-04T11:00:00,2265A,127.5291,50.2472,黑河市,大黑河岛(对照点),,26,9,24,2,10,98,83,53,53,2,7,3,4,0.4,0.3
2022-05-04T11:00:00,2266A,126.9785,46.6365,绥化市,人和东街,颗粒物(PM10),54,58,54,34,35,107,84,59,59,16,17,12,12,0.7,0.6
2022-05-04T11:00:00,2267A,126.964,46.6528,绥化市,党政办公中心,颗粒物(PM10),59,68,53,37,37,112,93,67,67,13,13,10,9,0.4,0.4
2022-05-04T11:00:00,2269A,124.1069,50.4097,大兴安岭地区,科技局,,29,10,10,9,8,95,92,80,80,3,5,2,4,0.4,0.4
2022-05-04T11:00:00,2270A,117.396,32.939,蚌埠市,工人疗养院,颗粒物(PM10),62,73,55,22,25,162,162,118,112,14,15,9,13,0.5,0.4
2022-05-04T11:00:00,2271A,117.3605,32.9427,蚌埠市,百货大楼,颗粒物(PM10),63,75,59,21,19,162,162,114,114,17,19,11,12,0.4,0.4
2022-05-04T11:00:00,2273A,117.4185,32.8911,蚌埠市,蚌埠学院,,,,55,,20,166,158,111,107,11,15,10,10,,0.4
2022-05-04T11:00:00,2274A,117.3533,32.9673,蚌埠市,淮上区政府,颗粒物(PM10),62,73,65,19,23,163,148,114,105,17,18,18,16,0.5,0.4
2022-05-04T11:00:00,2275A,117.3145,32.8977,蚌埠市,高新区,,,80,75,29,30,149,146,94,90,,40,17,16,0.4,0.4
2022-05-04T11:00:00,2277A,116.8305,32.7727,淮南市,潘集区政府,臭氧1小时,69,59,55,33,28,175,175,112,101,5,13,8,9,0.3,0.2
2022-05-04T11:00:00,2278A,117.0067,32.6524,淮南市,师范学院,,,,42,,25,157,157,114,101,,8,,7,0.2,0.1
2022-05-04T11:00:00,2279A,116.8569,32.5951,淮南市,谢家集区政府,,,,49,,20,149,149,91,87,10,16,6,5,0.3,0.2
2022-05-04T11:00:00,2280A,116.8281,32.633,淮南市,八公山区政府,颗粒物(PM10),51,51,46,24,21,141,135,96,88,12,16,12,8,0.4,0.3
2022-05-04T11:00:00,2281A,116.6325,32.6201,淮南市,焦岗湖风景区管理处(对照点),,50,50,42,18,20,154,154,103,98,5,8,9,7,0.4,0.3
2022-05-04T11:00:00,2282A,116.8004,33.975,淮北市,监测站,颗粒物(PM10),69,88,69,24,24,148,147,123,123,6,9,9,10,0.3,0.4
2022-05-04T11:00:00,2283A,116.8091,33.9007,淮北市,烈山区政府,,,70,75,38,40,151,,100,100,5,13,5,6,0.4,0.4
2022-05-04T11:00:00,2284A,116.7856,33.9477,淮北市,职业技术学院,颗粒物(PM10),57,64,57,24,25,136,135,113,113,9,12,9,9,0.5,0.6
2022-05-04T11:00:00,2285A,117.8177,30.9412,铜陵市,市第四中学,颗粒物(PM10),59,68,43,26,23,169,111,78,76,41,35,20,9,0.6,0.5
2022-05-04T11:00:00,2286A,117.8059,30.9273,铜陵市,市公路局,颗粒物(PM10),66,81,51,21,18,152,96,72,66,49,29,31,10,1.2,0.7
2022-05-04T11:00:00,2287A,117.7807,30.9413,铜陵市,市新民污水厂,,47,47,64,20,30,164,104,43,43,38,68,5,15,0.5,0.5
2022-05-04T11:00:00,2288A,117.7439,30.8792,铜陵市,市第九中学,,,,71,,26,152,104,54,54,,52,7,8,0.6,0.6
2022-05-04T11:00:00,2289A,117.846,30.9413,铜陵市,车站新区,颗粒物(PM10),53,56,46,30,25,155,109,84,80,39,24,22,10,0.6,0.5
2022-05-04T11:00:00,2290A,117.8483,30.97,铜陵市,市职教基地,颗粒物(PM10),54,57,44,36,19,152,119,66,66,27,27,20,14,0.7,0.6
2022-05-04T11:00:00,2291A,117.0809,30.5177,安庆市,环科院,,49,49,52,25,25,157,120,36,36,15,57,8,7,0.7,0.7
2022-05-04T11:00:00,2292A,117.0331,30.5119,安庆市,马山宾馆,,,43,41,22,23,162,,38,38,16,48,6,7,0.5,0.5
2022-05-04T11:00:00,2294A,116.9896,30.6145,安庆市,安庆大学,,46,46,44,22,21,156,126,59,59,19,28,10,7,0.4,0.4
2022-05-04T11:00:00,2295A,118.2903,29.6963,黄山市,延安路89号,,,40,40,37,25,140,104,43,43,10,9,6,6,,0.6
2022-05-04T11:00:00,2296A,118.327,29.7178,黄山市,黄山东路89号,,40,36,37,28,23,136,116,47,46,8,11,6,5,0.4,0.5
2022-05-04T11:00:00,2297A,118.1371,30.2756,黄山市,黄山区政府5号楼,,34,26,32,10,13,143,106,42,42,8,8,5,5,0.5,0.5
2022-05-04T11:00:00,2298A,118.3093,32.3153,滁州市,老年大学,颗粒物(PM10),63,75,67,33,25,176,143,106,81,36,29,15,10,0.6,0.5
2022-05-04T11:00:00,2299A,118.3244,32.2786,滁州市,人大宾馆,颗粒物(PM10),69,88,61,37,26,171,132,80,74,31,30,16,10,0.7,0.6
2022-05-04T11:00:00,2301A,115.8277,32.8929,阜阳市,市监测站,颗粒物(PM10),55,59,43,22,21,151,151,137,132,18,14,11,8,0.5,0.4
2022-05-04T11:00:00,2303A,115.8554,32.8605,阜阳市,开发区,颗粒物(PM10),58,65,53,19,20,152,152,134,119,14,12,9,6,0.7,0.5
2022-05-04T11:00:00,2307A,116.5079,31.737,六安市,监测大楼,,48,48,39,18,15,149,141,117,117,14,12,9,6,0.3,0.2
2022-05-04T11:00:00,2308A,116.4738,31.7643,六安市,皖西学院,,49,48,39,22,17,162,156,130,130,10,8,9,9,0.2,0.2
2022-05-04T11:00:00,2309A,116.4996,31.7905,六安市,朝阳厂,,,50,38,19,17,149,143,118,118,9,8,,7,,0.3
2022-05-04T11:00:00,2310A,116.5567,31.7886,六安市,开发区,颗粒物(PM10),51,51,52,22,21,160,153,99,99,7,13,7,7,0.2,0.3
2022-05-04T11:00:00,2311A,115.8072,33.8399,亳州市,污水处理厂,,,,43,,19,148,140,113,113,,11,10,9,,0.4
2022-05-04T11:00:00,2312A,115.7789,33.8518,亳州市,三国揽胜宫,颗粒物(PM10),51,51,49,23,19,143,137,118,118,6,8,8,8,0.3,0.4
2022-05-04T11:00:00,2314A,117.47,30.6618,池州市,池州学院,,50,50,42,25,21,158,125,97,83,15,15,8,8,0.6,0.7
2022-05-04T11:00:00,2316A,118.7581,30.9454,宣城市,鳌峰子站,,48,48,43,26,20,126,106,63,62,16,22,5,8,0.4,0.4
2022-05-04T11:00:00,2317A,118.7385,30.9743,宣城市,敬亭山子站,颗粒物(PM10),51,52,36,25,18,128,92,72,64,21,16,6,7,0.4,0.4
2022-05-04T11:00:00,2318A,118.7173,30.9427,宣城市,开发区子站,,,,42,,20,132,,68,68,,24,,10,,0.5
2022-05-04T11:00:00,2319A,119.0141,25.4325,莆田市,荔城区仓后路,,45,44,31,16,11,142,142,128,128,10,10,5,4,0.6,0.5
2022-05-04T11:00:00,2320A,119.0015,25.4553,莆田市,莆田市监测站,,,28,25,20,15,135,,133,133,6,9,5,5,0.7,0.6
2022-05-04T11:00:00,2321A,119.1119,25.4561,莆田市,涵江区六中,颗粒物(PM10),54,58,32,23,12,148,148,128,128,6,7,8,7,0.5,0.5
2022-05-04T11:00:00,2322A,119.1013,25.3215,莆田市,秀屿区政府,,47,47,37,26,13,140,140,116,116,10,12,9,8,0.6,0.5
2022-05-04T11:00:00,2323A,118.981,25.4792,莆田市,东圳水库(对照点),,44,31,23,12,10,140,140,136,136,1,2,5,5,0.5,0.4
2022-05-04T11:00:00,2324A,117.6211,26.2625,三明市,三钢,,38,27,36,12,20,129,121,66,66,11,25,4,4,0.4,0.6
2022-05-04T11:00:00,2325A,117.635,26.2714,三明市,三明二中,,39,23,31,10,16,128,122,67,67,8,18,3,3,0.3,0.4
2022-05-04T11:00:00,2326A,117.6028,26.2378,三明市,三元区政府,,38,31,45,14,22,128,120,58,58,12,27,4,5,0.4,0.7
2022-05-04T11:00:00,2327A,117.7275,26.3108,三明市,洋溪(对照点),,37,33,31,15,19,130,116,120,83,11,9,7,5,0.3,0.3
2022-05-04T11:00:00,2331A,118.0966,26.6761,南平市,茫荡山(对照点),,36,21,22,8,11,125,113,123,120,4,4,5,5,0.4,0.5
2022-05-04T11:00:00,2332A,118.1681,26.6369,南平市,南平市监测站,,42,23,24,15,17,133,133,74,74,9,13,17,11,0.5,0.6
2022-05-04T11:00:00,2333A,118.1825,26.6489,南平市,南平铝业有限公司,,39,32,30,12,15,128,124,63,63,8,12,13,10,0.5,0.5
2022-05-04T11:00:00,2334A,118.1756,26.6272,南平市,南平七中,,41,33,29,11,16,131,131,69,69,9,11,16,6,0.5,0.4
2022-05-04T11:00:00,2335A,117.0189,25.1181,龙岩市,龙岩师专(对照点),,35,29,36,6,25,129,112,70,70,8,16,8,10,0.3,0.4
2022-05-04T11:00:00,2336A,117.0217,25.1033,龙岩市,龙岩市监测站,,,32,39,6,21,138,,73,73,11,22,7,9,,0.5
2022-05-04T11:00:00,2337A,117.0258,25.0661,龙岩市,闽西职业技术学院,,37,20,44,14,20,139,118,48,48,7,33,12,15,0.3,0.5
2022-05-04T11:00:00,2338A,117.0196,25.0306,龙岩市,龙岩学院,,38,38,33,7,17,138,111,65,55,12,18,9,6,0.4,0.5
2022-05-04T11:00:00,2339A,119.5001,26.6946,宁德市,金涵水库(对照点),,50,50,34,18,15,118,108,85,78,20,17,9,9,0.6,0.5
2022-05-04T11:00:00,2341A,119.5388,26.6612,宁德市,宁德市监测站,颗粒物(PM10),52,54,28,18,8,102,92,76,69,16,14,10,10,0.6,0.5
2022-05-04T11:00:00,2342A,117.3102,29.3867,景德镇市,王港中学(对照点),,39,32,39,14,20,135,123,48,48,2,6,5,4,0.4,0.4
2022-05-04T11:00:00,2343A,117.2117,29.2933,景德镇市,老干部活动中心,,39,29,54,14,30,134,123,44,44,10,22,3,6,0.4,0.5
2022-05-04T11:00:00,2344A,117.1894,29.2789,景德镇市,兽医站,颗粒物(PM10),51,51,47,21,28,136,127,49,49,16,27,7,11,0.4,0.4
2022-05-04T11:00:00,2345A,117.1547,29.2617,景德镇市,台达陶瓷,颗粒物(PM10),52,53,54,21,26,136,116,56,56,19,25,19,15,0.7,0.7
2022-05-04T11:00:00,2346A,117.2461,29.2956,景德镇市,陶研所,,46,46,47,25,21,127,120,36,36,7,19,6,5,0.4,0.5
2022-05-04T11:00:00,2347A,114.0997,27.5002,萍乡市,武功山(对照点),,35,10,17,7,9,144,112,72,72,5,8,12,13,0.2,0.2
2022-05-04T11:00:00,2348A,113.8385,27.6434,萍乡市,中医院,,46,46,42,31,26,172,117,81,71,31,32,18,10,0.7,0.7
2022-05-04T11:00:00,2349A,113.8493,27.6253,萍乡市,市政府车库,颗粒物(PM10),61,71,47,19,19,156,105,68,60,30,23,25,12,2.2,1.1
2022-05-04T11:00:00,2350A,113.8676,27.6435,萍乡市,市环保局,,50,42,46,35,29,160,102,53,53,28,35,17,17,0.8,1
2022-05-04T11:00:00,2351A,113.866,27.6198,萍乡市,安源区政府,,,55,48,19,22,160,120,63,63,24,27,13,11,,1.1
2022-05-04T11:00:00,2352A,115.0861,27.9317,新余市,北岗(对照点),颗粒物(PM10),54,57,42,36,28,160,92,43,40,26,12,54,16,0.5,0.3
2022-05-04T11:00:00,2353A,114.9886,27.8431,新余市,飞宇,颗粒物(PM10),61,71,58,35,24,143,91,48,45,21,24,31,24,0.5,0.4
2022-05-04T11:00:00,2354A,114.9231,27.8246,新余市,第二水厂,颗粒物(PM10),60,69,59,40,31,165,102,44,44,27,24,26,13,0.5,0.6
2022-05-04T11:00:00,2355A,114.9308,27.8036,新余市,市气象局,颗粒物(PM10),61,72,52,41,32,158,91,43,41,38,31,27,14,0.4,0.5
2022-05-04T11:00:00,2357A,116.9822,28.1136,鹰潭市,龙虎山(对照点),,,23,33,23,20,161,108,60,55,,3,3,6,0.3,0.3
2022-05-04T11:00:00,2358A,117.0564,28.2642,鹰潭市,新监测站,,,,43,,25,152,113,58,58,10,11,44,28,0.5,0.4
2022-05-04T11:00:00,2359A,117.0311,28.2475,鹰潭市,财苑宾馆,,35,26,36,24,22,148,106,67,67,16,14,30,12,0.8,0.5
2022-05-04T11:00:00,2360A,117.0222,28.2264,鹰潭市,体育馆,,39,39,39,17,23,152,112,65,65,5,9,4,6,0.3,0.4
2022-05-04T11:00:00,2361A,117.0017,28.2131,鹰潭市,三川水表,,34,34,41,22,21,150,106,53,53,4,9,6,11,0.4,0.4
2022-05-04T11:00:00,2362A,114.9017,25.9149,赣州市,通天岩(对照点),,41,38,33,28,25,135,130,90,76,6,6,12,7,0.6,0.6
2022-05-04T11:00:00,2363A,114.9367,25.8664,赣州市,地委,颗粒物(PM10),55,60,51,37,28,130,100,54,40,17,16,19,10,0.7,0.7
2022-05-04T11:00:00,2364A,114.9461,25.8481,赣州市,气象台,颗粒物(PM10),54,57,43,29,27,138,102,58,47,21,21,18,10,0.8,0.8
2022-05-04T11:00:00,2365A,114.9322,25.8333,赣州市,市图书馆,细颗粒物(PM2.5),54,52,44,38,29,149,111,58,43,20,21,8,5,0.8,0.8
2022-05-04T11:00:00,2366A,114.8905,25.8471,赣州市,华坚鞋城,颗粒物(PM10),53,55,49,36,30,138,104,52,52,28,24,25,16,0.9,0.9
2022-05-04T11:00:00,2367A,114.9754,27.0803,吉安市,红声器材厂,颗粒物(PM10),55,59,58,38,32,169,113,64,64,17,19,13,7,0.3,0.5
2022-05-04T11:00:00,2368A,114.9658,27.0999,吉安市,市森林工业局,颗粒物(PM10),54,58,51,33,34,162,123,74,69,15,16,12,8,0.5,0.5
2022-05-04T11:00:00,2369A,114.99,27.1312,吉安市,市环境监测站,,,60,52,28,29,168,,65,65,188,27,13,7,0.7,0.6
2022-05-04T11:00:00,2370A,115.0093,27.0968,吉安市,青原区法院,颗粒物(PM10),54,57,51,34,28,162,120,58,58,14,16,17,12,0.6,0.5
2022-05-04T11:00:00,2371A,114.3408,27.8064,宜春市,槟榔水业(对照点),颗粒物(PM10),52,54,52,32,26,159,110,66,43,24,21,16,8,0.6,0.5
2022-05-04T11:00:00,2373A,114.3956,27.7844,宜春市,市石油公司,颗粒物(PM10),56,62,46,34,25,169,116,63,62,21,13,16,7,0.6,0.6
2022-05-04T11:00:00,2374A,114.3703,27.7914,宜春市,市气象局,颗粒物(PM10),51,51,43,28,22,167,109,86,65,24,16,15,8,0.7,0.5
2022-05-04T11:00:00,2375A,114.4013,27.8074,宜春市,市广电局,颗粒物(PM10),52,54,48,25,26,168,109,76,68,18,18,13,6,0.6,0.5
2022-05-04T11:00:00,2376A,116.2127,28.0814,抚州市,桐源党溪(对照点),,46,46,41,29,27,156,113,56,44,6,9,17,17,0.6,0.6
2022-05-04T11:00:00,2377A,116.3544,27.9831,抚州市,市站,,48,48,52,29,30,156,114,71,66,9,17,6,9,0.6,0.6
2022-05-04T11:00:00,2378A,116.3565,27.963,抚州市,血防站,,48,48,49,23,26,162,115,61,61,1,6,6,8,0.5,0.6
2022-05-04T11:00:00,2379A,116.3564,28.0007,抚州市,采茶剧团,,48,48,51,27,28,158,116,75,64,7,12,6,9,0.5,0.5
2022-05-04T11:00:00,2380A,116.385,27.9647,抚州市,医学分院,颗粒物(PM10),51,52,49,22,26,168,123,74,69,7,10,5,5,0.6,0.6
2022-05-04T11:00:00,2381A,118.005,28.4572,上饶市,百草园(对照点),,44,44,43,28,26,148,111,74,62,7,11,18,20,1.1,1
2022-05-04T11:00:00,2382A,117.9756,28.4436,上饶市,市监测站,,50,50,48,28,27,153,124,77,65,10,14,15,19,0.3,0.4
2022-05-04T11:00:00,2383A,117.9519,28.4628,上饶市,凤凰光学,,46,42,40,32,25,149,111,60,60,12,12,15,22,0.6,0.6
2022-05-04T11:00:00,2385A,114.17,35.9019,鹤壁市,市监测站,,48,48,74,13,31,173,132,108,108,12,25,7,10,0.5,0.5
2022-05-04T11:00:00,2386A,114.2956,35.7511,鹤壁市,市交警支队,颗粒物(PM10),78,105,90,34,29,168,94,67,47,31,34,19,13,0.7,0.7
2022-05-04T11:00:00,2387A,114.2878,35.7306,鹤壁市,迎宾馆,,,108,90,28,25,174,,61,42,,32,16,9,0.7,0.6
2022-05-04T11:00:00,2389A,113.836,35.311,新乡市,环保西院,颗粒物(PM10),57,64,80,22,32,169,119,75,75,12,20,11,12,0.4,0.5
2022-05-04T11:00:00,2390A,113.884,35.272,新乡市,开发区,颗粒物(PM10),56,62,81,19,25,161,116,80,80,17,27,9,9,0.5,0.6
2022-05-04T11:00:00,2391A,113.883,35.303,新乡市,环保东院,,,54,59,12,21,165,,83,81,15,23,8,9,0.5,0.7
2022-05-04T11:00:00,2392A,115.0312,35.7636,濮阳市,环保局,颗粒物(PM10),58,66,75,32,30,179,106,93,76,13,17,10,10,0.3,0.3
2022-05-04T11:00:00,2394A,115.0574,35.7609,濮阳市,油田运输公司,颗粒物(PM10),62,74,86,31,29,205,124,104,85,14,20,12,12,0.3,0.4
2022-05-04T11:00:00,2395A,115.0866,35.7754,濮阳市,油田物探公司,颗粒物(PM10),68,86,84,22,31,205,123,97,82,11,16,13,13,0.1,0.2
