timepoint,stationcode,longitude,latitude,area,positionname,primarypollutant,aqi,pm10,pm10_24h,pm2_5,pm2_5_24h,o3,o3_24h,o3_8h,o3_8h_24h,no2,no2_24h,so2,so2_24h,co,co_24h
2024-12-23T1300,2566A,102.1879,31.914,阿坝藏族羌族自治州,州农科所,,34,34,36,12,11,73,,49,49,10,9,7,6,0.7,0.6
2024-12-23T1300,2568A,102.2502,31.8896,阿坝藏族羌族自治州,马师校,,19,8,19,6,13,59,,31,31,9,17,4,4,0.4,0.4
2024-12-23T1300,3994A,102.2165,31.9024,阿坝藏族羌族自治州,马尔康中学西区,,21,8,34,7,14,66,,38,38,7,14,6,6,0.4,0.5
2024-12-23T1300,2695A,80.292,41.1694,阿克苏地区,电视台,细颗粒物(PM2.5),95,93,113,71,86,34,,20,20,31,48,3,5,1.2,2.2
2024-12-23T1300,2696A,80.2613,41.1551,阿克苏地区,艺术中心,细颗粒物(PM2.5),138,146,90,105,71,17,,25,23,81,49,3,4,2.6,1.6
2024-12-23T1300,2204A,105.6467,38.8363,阿拉善盟,西城区西花园,颗粒物(PM10),66,81,67,37,35,46,,31,31,26,32,11,11,0.9,0.8
2024-12-23T1300,2205A,105.6985,38.8411,阿拉善盟,蒙二幼,颗粒物(PM10),69,87,53,32,26,41,,42,28,25,25,8,7,0.8,0.7
2024-12-23T1300,2206A,105.724,38.8516,阿拉善盟,环保局新楼,颗粒物(PM10),61,71,39,31,22,41,,52,39,24,21,11,9,0.9,0.7
2024-12-23T1300,2708A,88.1264,47.8517,阿勒泰地区,市站,,39,28,28,27,17,27,,22,16,37,31,8,9,0.5,0.3
2024-12-23T1300,2630A,80.1161,32.5,阿里地区,阿里监测站,,22,13,10,7,7,70,,69,68,8,6,5,6,0.6,0.5
2024-12-23T1300,3192A,80.0903,32.5028,阿里地区,阿里藏医院,,21,13,9,10,7,67,,71,60,6,5,8,8,0.6,0.5
2024-12-23T1300,2642A,109.0318,32.6537,安康市,香溪洞,细颗粒物(PM2.5),67,56,54,48,43,54,,41,37,16,14,10,9,0.5,0.5
2024-12-23T1300,2644A,109.0072,32.6975,安康市,汉滨区检察院,细颗粒物(PM2.5),64,65,63,46,44,61,,40,34,18,18,6,7,0.7,0.6
2024-12-23T1300,4054A,109.0325,32.6913,安康市,市邮政管理局,细颗粒物(PM2.5),65,68,65,47,43,64,,35,35,19,22,8,7,0.8,0.6
2024-12-23T1300,2291A,117.0809,30.5177,安庆市,环科院,细颗粒物(PM2.5),83,83,81,61,56,41,,41,35,28,26,8,8,0.7,0.6
2024-12-23T1300,2292A,117.0331,30.5119,安庆市,马山宾馆,细颗粒物(PM2.5),78,78,74,57,52,37,,39,31,37,32,10,10,0.5,0.5
2024-12-23T1300,2294A,116.9896,30.6145,安庆市,安庆大学,细颗粒物(PM2.5),85,81,80,63,57,48,,43,41,32,29,13,13,0.6,0.6
2024-12-23T1300,3173A,117.0598,30.5351,安庆市,市人大,细颗粒物(PM2.5),84,89,76,62,55,39,,41,35,35,31,8,9,0.6,0.6
2024-12-23T1300,3123A,105.9408,26.2431,安顺市,凤凰山,,36,28,34,25,29,30,,30,24,24,22,28,21,0.5,0.5
2024-12-23T1300,3124A,105.9439,26.2564,安顺市,金钟山,,36,25,30,25,28,31,,34,28,19,18,30,19,0.8,0.7
2024-12-23T1300,3125A,105.8983,26.2481,安顺市,娄家坡,,39,29,32,27,30,30,,30,24,21,21,30,19,0.8,0.8
2024-12-23T1300,1818A,114.4839,36.0621,安阳市,棉研所,颗粒物(PM10),86,121,70,59,46,53,,20,20,31,38,15,9,1.0,0.7
2024-12-23T1300,1819A,114.3551,36.1017,安阳市,红庙街,细颗粒物(PM2.5),97,86,73,72,51,61,,22,22,30,29,26,13,1.5,1
2024-12-23T1300,1820A,114.361,36.0681,安阳市,银杏小区,,,107,75,65,45,,,18,18,40,36,23,6,1.0,0.7
2024-12-23T1300,3141A,114.3922,36.0878,安阳市,信访局,颗粒物(PM10),91,132,75,67,43,40,,12,12,45,41,26,10,1.5,0.9
2024-12-23T1300,3669A,114.4705,36.0637,安阳市,左辅环卫站,细颗粒物(PM2.5),88,90,78,65,49,57,,25,25,26,33,13,6,1.0,0.7
2024-12-23T1300,3703A,114.2917,36.0949,安阳市,安钢职工学校,细颗粒物(PM2.5),100,116,85,75,55,47,,20,20,44,35,30,8,2.3,1.1
2024-12-23T1300,1748A,123.044,41.1196,鞍山市,深沟寺,,32,32,47,14,27,63,,48,48,11,34,10,18,0.6,1.1
2024-12-23T1300,1749A,123.011,41.0931,鞍山市,太阳城,,30,30,49,15,28,52,,46,46,14,34,9,13,0.6,1
2024-12-23T1300,1750A,123.0485,41.1442,鞍山市,太平,,36,36,47,15,25,64,,49,49,13,40,11,23,0.5,1
2024-12-23T1300,1751A,122.9642,41.0971,鞍山市,铁西三道街,,33,33,51,12,26,64,,45,45,15,38,12,22,1.0,1.3
2024-12-23T1300,1752A,122.9341,41.0833,鞍山市,铁西工业园区,,32,32,63,11,35,70,,48,48,14,42,6,17,0.3,1
2024-12-23T1300,1753A,123.022,41.0821,鞍山市,明达新区,,27,27,44,15,27,70,,58,58,10,23,11,18,0.6,1
2024-12-23T1300,2195A,107.4212,40.761,巴彦淖尔市,附二中,颗粒物(PM10),61,71,80,31,38,34,,23,20,34,43,24,18,0.8,0.8
2024-12-23T1300,2196A,107.37,40.7372,巴彦淖尔市,市环保大楼,颗粒物(PM10),56,62,68,17,36,32,,27,23,31,36,18,16,0.6,0.7
2024-12-23T1300,1956A,86.1472,41.7538,巴音郭楞蒙古自治州,孔雀公园,细颗粒物(PM2.5),69,80,78,50,59,48,,26,26,23,47,4,4,0.7,0.9
2024-12-23T1300,1957A,86.1972,41.7166,巴音郭楞蒙古自治州,棉纺厂,细颗粒物(PM2.5),79,90,90,58,50,50,,19,19,29,52,6,3,0.8,0.8
2024-12-23T1300,1958A,86.2357,41.7173,巴音郭楞蒙古自治州,经济开发区,细颗粒物(PM2.5),69,61,65,50,43,60,,40,40,21,36,3,3,0.6,0.6
2024-12-23T1300,2914A,106.7677,31.8794,巴中市,苏山坪,细颗粒物(PM2.5),54,42,48,38,43,42,,46,34,11,10,2,2,0.6,0.6
2024-12-23T1300,3182A,106.7656,31.8545,巴中市,丽阳花园,细颗粒物(PM2.5),67,56,49,48,42,42,,22,22,23,25,3,3,0.5,0.5
2024-12-23T1300,3183A,106.7418,31.8654,巴中市,圣泉水务公司,细颗粒物(PM2.5),52,41,48,36,41,42,,22,22,21,25,2,3,0.4,0.4
2024-12-23T1300,3616A,106.7616,31.8344,巴中市,市中心医院,细颗粒物(PM2.5),77,,54,56,56,40,,23,23,24,30,3,3,0.4,0.5
2024-12-23T1300,2235A,122.7911,45.6077,白城市,洮北区环保局,,,23,39,21,35,79,,57,57,,23,2,5,0.6,0.7
2024-12-23T1300,2236A,122.8738,45.5725,白城市,市环保局,,24,12,36,6,17,75,,64,64,7,22,3,5,0.2,0.3
2024-12-23T1300,2231A,126.4219,41.9171,白山市,喜丰,细颗粒物(PM2.5),70,77,73,51,35,46,,22,22,30,39,40,22,1.1,1
2024-12-23T1300,2232A,126.4077,41.9419,白山市,环保局,细颗粒物(PM2.5),78,73,76,57,41,47,,20,20,22,36,11,12,1.0,1.2
2024-12-23T1300,2647A,104.1724,36.5446,白银市,第三小学,细颗粒物(PM2.5),72,86,66,52,57,68,,39,36,14,24,11,23,0.7,1.1
2024-12-23T1300,2648A,104.1465,36.5482,白银市,动力公司,细颗粒物(PM2.5),77,72,66,56,63,72,,48,48,15,24,6,9,0.7,1
2024-12-23T1300,2512A,106.6103,23.9011,百色市,市监测站,细颗粒物(PM2.5),100,100,79,75,62,72,,44,44,25,27,28,18,1.1,1
2024-12-23T1300,2513A,106.6538,23.8859,百色市,市中心血站,细颗粒物(PM2.5),109,117,109,82,80,66,,41,41,30,39,22,21,0.9,1
2024-12-23T1300,3406A,106.6085,23.8798,百色市,祈福高中,细颗粒物(PM2.5),90,97,108,67,67,76,,39,39,22,41,24,12,1.0,1
2024-12-23T1300,2270A,117.396,32.939,蚌埠市,工人疗养院,细颗粒物(PM2.5),65,65,79,47,53,64,,34,34,25,43,6,6,0.5,0.5
2024-12-23T1300,2271A,117.3605,32.9427,蚌埠市,百货大楼,细颗粒物(PM2.5),63,68,73,45,49,62,,32,32,21,37,8,7,0.5,0.5
2024-12-23T1300,2273A,117.4185,32.8911,蚌埠市,蚌埠学院,细颗粒物(PM2.5),72,66,81,52,55,54,,25,25,38,58,15,15,0.4,0.5
2024-12-23T1300,2274A,117.3533,32.9673,蚌埠市,淮上区政府,细颗粒物(PM2.5),72,75,83,52,55,60,,29,29,24,40,9,8,0.4,0.5
2024-12-23T1300,2275A,117.3145,32.8977,蚌埠市,高新区,细颗粒物(PM2.5),69,70,75,50,50,58,,27,27,32,50,10,11,0.5,0.5
2024-12-23T1300,3715A,117.3092,32.9314,蚌埠市,蚌埠田家炳中学,细颗粒物(PM2.5),67,70,81,48,54,59,,30,30,22,38,7,7,0.5,0.6
2024-12-23T1300,1585A,109.8756,40.6532,包头市,市环境监测站,细颗粒物(PM2.5),74,83,69,54,35,29,,14,14,55,59,57,25,1.9,1.6
2024-12-23T1300,1587A,109.9991,40.5842,包头市,包头八中,细颗粒物(PM2.5),77,98,82,56,45,24,,14,14,42,46,64,25,1.8,1.9
2024-12-23T1300,1588A,109.8538,40.6821,包头市,青山宾馆,颗粒物(PM10),63,76,56,44,43,29,,13,13,54,56,47,22,1.7,1.5
2024-12-23T1300,1589A,109.8642,40.6288,包头市,惠龙物流,,,98,72,52,38,36,,15,15,44,57,,19,1.8,1.9
2024-12-23T1300,1590A,110.0377,40.5546,包头市,东河鸿龙湾,颗粒物(PM10),58,65,74,38,44,26,,13,13,45,55,23,20,0.9,1.5
2024-12-23T1300,3283A,109.9154,40.5685,包头市,滨河大厦,颗粒物(PM10),73,95,64,48,34,32,,15,15,47,55,29,16,1.1,1.2
2024-12-23T1300,3419A,109.9447,40.6261,包头市,包头市委党校,"颗粒物(PM10),细颗粒物(PM2.5)",83,116,77,61,38,26,,13,13,60,61,78,23,2.0,1.4
2024-12-23T1300,3683A,109.8331,40.6576,包头市,昆区政府,颗粒物(PM10),62,74,68,39,43,34,,13,13,45,58,41,24,1.4,1.7
2024-12-23T1300,1930A,107.185,34.3063,宝鸡市,庙沟村,细颗粒物(PM2.5),62,50,69,44,51,50,,26,26,31,42,13,9,0.7,0.7
2024-12-23T1300,1931A,107.0708,34.3017,宝鸡市,竹园沟,颗粒物(PM10),54,57,77,37,58,64,,31,31,22,35,11,8,0.5,0.7
2024-12-23T1300,1932A,107.1906,34.3672,宝鸡市,三陆医院,细颗粒物(PM2.5),69,58,76,50,56,53,,29,29,25,39,10,11,0.8,0.9
2024-12-23T1300,1933A,107.1431,34.3547,宝鸡市,监测站,,,,86,47,55,48,,19,19,33,42,15,11,,0.8
2024-12-23T1300,1934A,107.1186,34.3739,宝鸡市,技工学校,细颗粒物(PM2.5),79,84,78,58,55,46,,32,32,32,34,13,11,1.0,1
2024-12-23T1300,1935A,107.3906,34.3528,宝鸡市,陈仓区环保局家属楼,细颗粒物(PM2.5),87,91,90,64,63,34,,17,17,47,47,51,14,1.0,1
2024-12-23T1300,1936A,107.2058,34.3497,宝鸡市,文理学院,细颗粒物(PM2.5),69,75,77,50,56,50,,24,24,33,38,13,10,0.6,0.6
2024-12-23T1300,1937A,107.2386,34.3622,宝鸡市,三迪小学,细颗粒物(PM2.5),75,79,79,55,57,33,,14,14,43,44,16,12,0.9,0.8
2024-12-23T1300,1051A,115.493,38.8632,保定市,游泳馆,,45,45,66,27,39,48,,22,22,32,51,3,5,0.5,0.5
2024-12-23T1300,1052A,115.5213,38.8959,保定市,华电二区,细颗粒物(PM2.5),63,64,58,45,43,43,,15,15,23,43,5,5,0.3,0.5
2024-12-23T1300,1053A,115.4713,38.9108,保定市,接待中心,颗粒物(PM10),53,56,67,28,41,44,,16,16,24,44,4,4,0.6,0.6
2024-12-23T1300,1054A,115.4612,38.8416,保定市,地表水厂,颗粒物(PM10),54,58,74,31,44,52,,23,23,26,49,4,6,0.3,0.4
2024-12-23T1300,3581A,115.31981,38.95208,保定市,满城区生态环境分局,颗粒物(PM10),54,58,78,27,46,51,,21,21,29,46,3,2,0,0.4
2024-12-23T1300,3582A,115.47694,38.76408,保定市,清苑区第二中学,颗粒物(PM10),52,54,65,26,36,48,,20,20,32,45,5,8,0.6,0.6
2024-12-23T1300,3583A,115.62909,39.02311,保定市,徐水物探局,,41,41,62,27,39,40,,14,14,29,46,7,7,0.6,0.6
2024-12-23T1300,4004A,115.4202,38.8656,保定市,双鹰农机,,44,44,75,27,47,51,,23,23,25,41,5,7,0.4,0.5
2024-12-23T1300,4034A,115.5150,38.8590,保定市,植保所站,,49,49,65,31,44,44,,18,18,29,47,6,7,0.4,0.5
2024-12-23T1300,2594A,99.1678,25.1081,保山市,市环境监测站,,26,26,15,13,8,83,,43,43,9,9,4,4,0.3,0.4
2024-12-23T1300,2595A,99.1711,25.1328,保山市,市环保局,颗粒物(PM10),67,84,19,14,14,81,,55,55,10,5,6,6,0.4,0.5
2024-12-23T1300,1866A,109.2262,21.588,北海市,牛尾岭水库,,,61,63,59,60,116,,72,72,,12,8,9,1.0,1
2024-12-23T1300,1867A,109.1436,21.4086,北海市,海滩公园,细颗粒物(PM2.5),74,80,82,54,60,137,,109,109,19,23,10,13,0.8,0.9
2024-12-23T1300,1868A,109.0981,21.4661,北海市,新市环保局,细颗粒物(PM2.5),79,81,81,58,62,129,,93,93,17,24,10,12,0.7,0.7
2024-12-23T1300,1869A,109.1778,21.5233,北海市,北海工业园,细颗粒物(PM2.5),85,101,84,63,65,127,,90,90,18,24,12,14,0.8,0.8
2024-12-23T1300,3400A,109.1911,21.4415,北海市,龙潭自来水厂,,,77,86,55,75,,,81,81,15,22,13,15,0.8,0.9
2024-12-23T1300,1001A,116.3621,39.8784,北京市,万寿西宫,,30,30,48,17,26,48,,23,23,27,59,6,4,0.4,0.6
2024-12-23T1300,1002A,116.2202,40.2915,北京市,定陵,,23,22,28,16,19,48,,37,37,10,14,6,8,0.3,0.4
2024-12-23T1300,1003A,116.4174,39.9289,北京市,东四,,29,29,42,16,22,52,,32,32,15,39,2,2,0.8,0.9
2024-12-23T1300,1004A,116.4072,39.8863,北京市,天坛,,29,29,42,14,23,58,,31,31,17,42,2,3,0.3,0.5
2024-12-23T1300,1005A,116.462,39.9365,北京市,农展馆,,24,24,42,11,21,63,,28,28,16,52,1,1,0.4,0.6
2024-12-23T1300,1006A,116.3392,39.9295,北京市,官园,,34,34,46,18,24,47,,18,18,24,54,7,5,0.8,0.9
2024-12-23T1300,1007A,116.2878,39.9611,北京市,海淀万柳,,32,32,52,18,24,53,,21,21,25,59,6,4,0.6,0.8
2024-12-23T1300,1008A,116.6636,40.135,北京市,顺义新城,,22,10,30,3,12,70,,50,50,4,34,2,2,0.2,0.3
2024-12-23T1300,1009A,116.6275,40.3275,北京市,怀柔镇,,23,9,20,3,11,71,,41,41,5,19,3,2,0.2,0.4
2024-12-23T1300,1010A,116.2296,40.217,北京市,昌平镇,,30,30,33,19,19,59,,49,49,10,20,5,4,0.5,0.5
2024-12-23T1300,1011A,116.3966,39.9821,北京市,奥体中心,,32,32,44,14,21,55,,24,24,17,51,5,5,0.5,0.6
2024-12-23T1300,1012A,116.184,39.9136,北京市,古城,,42,42,59,21,25,45,,22,22,22,57,8,6,0.3,0.4
2024-12-23T1300,3281A,115.9718,40.4529,北京市,延庆夏都,,48,48,52,31,30,39,,15,15,20,28,5,3,0.5,0.7
2024-12-23T1300,3417A,117.0709,40.1465,北京市,平谷新城,,23,8,26,3,14,71,,25,25,4,19,3,3,0.3,0.5
2024-12-23T1300,3418A,116.8336,40.4095,北京市,密云新城,,22,7,16,3,8,68,,56,56,3,12,1,2,0.1,0.2
2024-12-23T1300,3671A,116.088,39.9726,北京市,门头沟三家店,,40,40,47,18,21,42,,23,23,27,44,6,4,0.5,0.5
2024-12-23T1300,3672A,116.1541,39.8204,北京市,丰台云岗,,43,43,50,21,24,42,,18,18,26,47,5,3,0.5,0.5
2024-12-23T1300,3673A,116.6804,39.9081,北京市,通州东关,,20,15,49,6,21,64,,36,36,4,45,3,2,0.2,0.4
2024-12-23T1300,3674A,115.9577,39.7603,北京市,房山燕山,颗粒物(PM10),54,57,37,29,24,33,,26,26,38,30,2,2,0.5,0.5
2024-12-23T1300,3675A,116.4672,39.7733,北京市,大兴旧宫,,24,24,53,12,23,49,,21,21,17,49,2,2,0.3,0.5
2024-12-23T1300,3694A,115.986,40.4563,北京市,延庆石河营,,45,45,49,30,34,38,,14,14,22,27,4,2,0.5,0.8
2024-12-23T1300,3695A,116.6151,40.3053,北京市,怀柔新城,,20,10,20,3,14,64,,42,42,6,14,3,3,0.1,0.2
2024-12-23T1300,3696A,116.2545,39.8768,北京市,丰台小屯,,39,39,59,21,27,38,,21,21,30,58,6,5,0.5,0.6
2024-12-23T1300,3697A,116.84,40.3844,北京市,密云镇,,23,7,26,3,11,71,,48,48,5,33,3,3,0.1,0.3
2024-12-23T1300,1761A,123.8275,41.3064,本溪市,大峪,,36,32,69,25,41,55,,24,24,22,46,14,14,0.7,3
2024-12-23T1300,1762A,123.7567,41.3325,本溪市,溪湖,,49,49,87,18,47,56,,22,22,21,44,12,12,0.8,2.7
2024-12-23T1300,1763A,123.7169,41.3094,本溪市,彩屯,,,28,100,24,74,59,,7,,,51,,13,0.5,2.3
2024-12-23T1300,1764A,123.7669,41.2864,本溪市,东明,颗粒物(PM10),54,57,83,19,56,50,,20,20,26,50,14,14,1.0,2.2
2024-12-23T1300,1765A,123.7992,41.2664,本溪市,新立屯,,49,49,51,24,27,51,,27,27,34,54,12,11,0.5,1.1
2024-12-23T1300,1766A,123.8142,41.3472,本溪市,威宁,颗粒物(PM10),56,62,81,8,42,61,,25,25,23,43,7,6,0.7,1.7
2024-12-23T1300,2587A,105.2864,27.3125,毕节市,八中,,33,31,23,23,21,40,,25,23,17,16,8,7,0.8,0.8
2024-12-23T1300,2588A,105.31,27.2944,毕节市,师专,,43,33,21,30,19,36,,,,17,16,9,7,0.9,0.8
2024-12-23T1300,3537A,105.3631,27.3533,毕节市,长征村,,23,19,15,16,13,46,,30,29,10,10,7,9,0.7,0.6
2024-12-23T1300,1629A,118.0018,37.3617,滨州市,第二水厂,颗粒物(PM10),51,51,65,29,39,68,,26,26,20,50,19,16,0.7,0.6
2024-12-23T1300,1630A,117.9776,37.393,滨州市,北中新校,颗粒物(PM10),51,51,73,29,44,73,,28,28,19,53,10,20,0.1,0.5
2024-12-23T1300,3514A,117.9378,37.3956,滨州市,中海酒店,细颗粒物(PM2.5),58,,68,41,50,74,,31,31,18,50,6,18,0.3,0.6
2024-12-23T1300,3515A,117.9378,37.3553,滨州市,开发区一中,细颗粒物(PM2.5),62,61,70,44,40,62,,26,26,25,60,21,17,0.8,0.5
2024-12-23T1300,3516A,118.0917,37.694,滨州市,金海六路,颗粒物(PM10),51,51,75,27,50,75,,30,30,21,55,10,19,0.6,0.8
2024-12-23T1300,4028A,117.9956,37.3753,滨州市,滨州市西街道办事处,细颗粒物(PM2.5),55,44,63,39,47,74,,29,29,19,45,7,14,0.2,0.5
2024-12-23T1300,2311A,115.8072,33.8399,亳州市,污水处理厂,颗粒物(PM10),63,76,67,43,41,64,,28,28,22,35,8,9,0.5,0.5
2024-12-23T1300,2312A,115.7789,33.8518,亳州市,三国揽胜宫,颗粒物(PM10),72,93,72,48,39,63,,30,30,26,34,9,9,0.5,0.4
2024-12-23T1300,3332A,115.7633,33.8034,亳州市,亳州学院,细颗粒物(PM2.5),70,80,63,51,39,66,,41,41,22,27,8,6,0.4,0.4
2024-12-23T1300,2693A,82.0485,44.8556,博尔塔拉蒙古自治州,市党校,细颗粒物(PM2.5),67,57,34,48,31,40,,55,44,19,23,9,9,0.7,0.6
2024-12-23T1300,2694A,82.0806,44.8969,博尔塔拉蒙古自治州,市环保局,颗粒物(PM10),62,73,59,36,31,35,,45,41,30,26,7,6,0.9,0.8
2024-12-23T1300,1071A,116.8842,38.2991,沧州市,沧县城建局,,,95,68,61,40,,,26,26,29,55,,7,,1
2024-12-23T1300,1072A,116.8584,38.3254,沧州市,电视转播站,颗粒物(PM10),69,88,60,48,37,54,,36,36,34,49,12,8,0.7,0.6
2024-12-23T1300,1073A,116.8709,38.3228,沧州市,市环保局,颗粒物(PM10),58,65,55,38,42,54,,31,31,29,45,10,6,0.7,0.6
2024-12-23T1300,3324A,116.8136,38.3004,沧州市,河北水利电力学院,"颗粒物(PM10),细颗粒物(PM2.5)",68,85,68,49,45,54,,25,25,24,50,8,6,0.6,0.6
2024-12-23T1300,2622A,97.1806,31.1273,昌都市,昌都监测站,,33,33,22,13,15,56,,42,42,17,26,6,6,0.5,0.6
2024-12-23T1300,3719A,97.1714,31.1406,昌都市,昌都会议中心,,21,10,10,6,8,65,,53,53,12,7,5,4,0.6,0.5
2024-12-23T1300,2690A,88.1236,43.8886,昌吉回族自治州,天山天池,,,,14,0,4,69,,68,68,3,4,7,8,0.4,0.5
2024-12-23T1300,2692A,87.2717,44.0297,昌吉回族自治州,新区政务中心,细颗粒物(PM2.5),99,103,95,74,64,11,,11,6,58,55,9,7,1.6,1.2
2024-12-23T1300,3613A,87.3095,44.0142,昌吉回族自治州,亚心广场,细颗粒物(PM2.5),52,51,101,36,81,25,,32,16,55,59,9,8,1.1,1.2
2024-12-23T1300,1119A,125.3325,43.9166,长春市,食品厂,,43,43,63,30,42,57,,28,28,20,49,8,13,0.3,0.7
2024-12-23T1300,1120A,125.2863,43.9027,长春市,客车厂,,38,32,53,26,43,60,,33,33,15,45,8,13,0.2,0.6
2024-12-23T1300,1121A,125.2841,43.8463,长春市,邮电学院,,46,46,47,22,32,67,,39,39,12,45,11,15,0.4,0.6
2024-12-23T1300,1122A,125.3716,43.8772,长春市,劳动公园,,33,33,45,19,32,71,,38,38,13,44,10,15,0.5,0.8
2024-12-23T1300,1123A,125.3297,43.8805,长春市,园林处,,,43,43,24,28,65,,38,38,10,37,7,13,,0.8
2024-12-23T1300,1124A,125.4605,43.79,长春市,净月潭,,46,46,49,24,33,65,,27,27,14,32,9,8,0.3,0.7
2024-12-23T1300,1126A,125.3863,43.8447,长春市,经开区环卫处,,46,46,68,21,40,63,,24,24,14,48,13,16,0.4,0.9
2024-12-23T1300,1127A,125.245,43.7783,长春市,高新区管委会,,32,32,83,14,68,69,,34,34,12,42,7,9,0.4,1.1
2024-12-23T1300,1128A,125.1761,43.8325,长春市,岱山公园,,27,27,67,15,56,62,,30,30,11,46,9,10,0.4,0.9
2024-12-23T1300,1335A,113.0833,28.2325,长沙市,经开区环保局,颗粒物(PM10),71,91,92,48,46,28,,31,24,26,26,4,4,0.5,0.5
2024-12-23T1300,1336A,112.8872,28.2189,长沙市,高开区环保局,细颗粒物(PM2.5),68,80,89,49,45,36,,37,33,23,21,8,7,0.4,0.5
2024-12-23T1300,1337A,113.0792,28.2053,长沙市,马坡岭,,,88,88,49,44,33,,34,27,,25,,5,0.7,0.7
2024-12-23T1300,1338A,112.9394,28.19,长沙市,湖南师范大学,细颗粒物(PM2.5),78,88,93,57,51,31,,36,33,29,24,10,8,0.8,0.6
2024-12-23T1300,1339A,113.0178,28.1322,长沙市,雨花区环保局,细颗粒物(PM2.5),79,93,88,58,50,32,,32,29,32,31,8,7,0.6,0.5
2024-12-23T1300,1340A,112.9792,28.2597,长沙市,伍家岭,颗粒物(PM10),66,81,88,47,42,31,,34,28,26,24,6,5,0.6,0.6
2024-12-23T1300,1341A,113.0014,28.1944,长沙市,火车新站,细颗粒物(PM2.5),79,84,89,58,55,35,,36,32,30,29,5,5,0.5,0.5
2024-12-23T1300,1342A,112.9844,28.1178,长沙市,天心区环保局,颗粒物(PM10),74,98,98,51,46,34,,34,31,29,28,6,4,0.9,0.8
2024-12-23T1300,1343A,112.8908,28.1308,长沙市,湖南中医药大学,颗粒物(PM10),69,88,91,47,50,38,,38,33,25,24,9,9,0.6,0.7
2024-12-23T1300,1344A,112.9581,28.3611,长沙市,沙坪,细颗粒物(PM2.5),72,58,61,52,52,28,,32,28,22,20,8,8,0.7,0.8
2024-12-23T1300,1727A,113.1147,36.1547,长治市,清华站,,,90,64,51,36,,,3,,47,43,31,22,,1
2024-12-23T1300,1728A,113.1031,36.1989,长治市,监测站,细颗粒物(PM2.5),79,79,62,58,41,38,,12,12,40,40,40,21,2.2,1.3
2024-12-23T1300,1730A,113.0886,36.2125,长治市,审计局,细颗粒物(PM2.5),79,85,63,58,41,40,,14,14,42,42,53,22,1.8,1
2024-12-23T1300,1731A,113.0844,36.1856,长治市,长治八中,细颗粒物(PM2.5),79,104,84,58,47,33,,10,10,40,39,41,22,2.4,1.3
2024-12-23T1300,2845A,113.1569,36.1911,长治市,德盛苑,细颗粒物(PM2.5),83,97,57,61,36,41,,21,20,39,31,31,12,1.8,1.1
2024-12-23T1300,3568A,113.06,36.0464,长治市,向阳小学,颗粒物(PM10),73,95,80,50,46,44,,22,22,37,34,24,17,1.6,1.1
2024-12-23T1300,3569A,112.8792,36.3144,长治市,屯留一中,,49,49,45,34,32,50,,26,26,37,41,30,26,0.8,0.7
2024-12-23T1300,3570A,113.235,36.3489,长治市,潞城四中,颗粒物(PM10),85,119,98,50,51,52,,33,33,33,41,40,38,1.4,1.7
2024-12-23T1300,1854A,111.6975,28.9703,常德市,市二中,,,56,67,41,46,62,,48,48,,16,6,6,0.5,0.6
2024-12-23T1300,3138A,111.7153,29.0289,常德市,武陵区永安,细颗粒物(PM2.5),55,51,68,39,43,62,,47,47,13,16,4,5,0.5,0.5
2024-12-23T1300,3139A,111.6892,28.9881,常德市,鼎城区玉霞,细颗粒物(PM2.5),55,56,70,39,42,61,,46,46,14,15,5,6,0.5,0.5
2024-12-23T1300,3140A,111.6625,29.0531,常德市,武陵区长庚,细颗粒物(PM2.5),57,54,73,40,44,60,,42,42,12,14,2,2,0.4,0.5
2024-12-23T1300,1196A,119.9633,31.762,常州市,市监测站,颗粒物(PM10),57,64,52,37,33,40,,31,31,36,41,11,9,0.8,0.6
2024-12-23T1300,1200A,119.9468,31.7069,常州市,武进监测站,"颗粒物(PM10),细颗粒物(PM2.5)",52,54,46,36,29,35,,29,29,44,42,11,8,0.8,0.6
2024-12-23T1300,1201A,119.9255,31.9087,常州市,安家,颗粒物(PM10),51,52,50,30,33,48,,39,38,27,35,10,9,0.6,0.5
2024-12-23T1300,3002A,119.9805,31.8174,常州市,行政中心,"颗粒物(PM10),细颗粒物(PM2.5)",52,53,45,36,33,47,,34,34,23,34,8,6,0.5,0.5
2024-12-23T1300,3003A,120.0522,31.7748,常州市,经开区,颗粒物(PM10),54,57,54,35,31,40,,25,25,39,49,14,10,1.1,0.8
2024-12-23T1300,3010A,119.9025,31.7964,常州市,钟楼,,49,49,44,31,30,51,,38,38,25,33,11,8,0.7,0.6
2024-12-23T1300,3429A,119.8598,31.7066,常州市,武进经发区,颗粒物(PM10),56,62,51,35,32,41,,27,27,39,48,10,9,0.8,0.6
2024-12-23T1300,3430A,119.5826,31.7245,常州市,金坛城区,"颗粒物(PM10),细颗粒物(PM2.5)",52,54,59,36,41,49,,36,36,28,35,9,9,0.5,0.5
2024-12-23T1300,2220A,120.4318,41.5881,朝阳市,西梁,,50,50,75,13,45,71,,26,26,12,43,6,13,0.6,1.5
2024-12-23T1300,2221A,120.4521,41.5646,朝阳市,河畔小区,,,,56,,35,65,,30,30,17,33,,15,,1.5
2024-12-23T1300,2222A,120.4176,41.5648,朝阳市,八里堡,,38,37,65,26,34,74,,28,28,7,35,9,18,0.5,1.3
2024-12-23T1300,2223A,120.3806,41.5969,朝阳市,农业园区,,26,25,47,3,34,83,,34,34,2,32,6,13,0.4,1
2024-12-23T1300,1705A,116.6367,23.6719,潮州市,西园路,细颗粒物(PM2.5),53,47,83,37,55,77,,63,61,15,19,5,7,0.6,0.7
2024-12-23T1300,3026A,116.6183,23.6608,潮州市,市政府,颗粒物(PM10),52,53,76,25,51,77,,62,61,17,23,5,8,0.5,0.6
2024-12-23T1300,4036A,116.6461,23.6761,潮州市,金山,颗粒物(PM10),55,59,69,31,58,71,,58,55,14,19,6,8,0.6,0.6
2024-12-23T1300,2472A,113.0073,25.9061,郴州市,马头岭,颗粒物(PM10),81,111,109,44,53,51,,40,39,28,29,12,12,0.7,0.7
2024-12-23T1300,2473A,113.0116,25.8226,郴州市,市职中,细颗粒物(PM2.5),84,87,88,62,69,49,,32,32,22,27,5,4,0.8,0.8
2024-12-23T1300,2474A,113.0161,25.8001,郴州市,兴隆步行街,细颗粒物(PM2.5),93,94,101,69,75,48,,31,30,25,28,9,8,0.8,0.8
2024-12-23T1300,2475A,113.0383,25.8071,郴州市,市审计局,细颗粒物(PM2.5),87,88,91,64,71,51,,34,33,22,23,10,9,0.8,0.9
2024-12-23T1300,2476A,113.0348,25.7759,郴州市,市环保局,细颗粒物(PM2.5),94,86,95,70,73,50,,38,35,21,21,9,8,0.8,0.8
2024-12-23T1300,1431A,103.9728,30.7236,成都市,金泉两河,,31,31,41,17,29,19,,21,19,28,28,3,2,0.6,0.8
2024-12-23T1300,1432A,104.176,30.6872,成都市,十里店,细颗粒物(PM2.5),55,43,41,39,34,20,,21,20,25,25,1,1,0.7,0.9
2024-12-23T1300,1433A,104.079,30.5706,成都市,三瓦窑,细颗粒物(PM2.5),60,55,37,43,30,12,,20,14,30,23,3,3,1.0,0.8
2024-12-23T1300,1434A,104.1114,30.63,成都市,沙河铺,细颗粒物(PM2.5),59,57,38,42,29,20,,22,18,20,21,3,3,0.6,0.6
2024-12-23T1300,1437A,104.0786,30.6531,成都市,君平街,,,28,38,,35,,,23,,,23,,4,,0.9
2024-12-23T1300,2880A,104.0239,30.65639,成都市,大石西路,,30,30,39,20,30,5,,18,12,34,27,2,2,0.7,0.6
2024-12-23T1300,3136A,104.2725,30.5589,成都市,龙泉驿区区政府,细颗粒物(PM2.5),94,80,46,70,40,35,,32,31,16,21,3,2,0.7,0.7
2024-12-23T1300,3357A,104.0106,30.6931,成都市,金博路,,38,32,37,26,30,7,,20,16,32,26,1,1,0.9,0.9
2024-12-23T1300,3359A,104.0578,30.5225,成都市,华阳,细颗粒物(PM2.5),64,68,45,46,36,24,,20,19,19,24,3,3,0.6,0.6
2024-12-23T1300,3487A,104.2394,30.5319,成都市,车城东七路,细颗粒物(PM2.5),88,75,49,65,42,31,,28,28,18,23,1,1,0.7,0.7
2024-12-23T1300,3488A,104.3853,30.7453,成都市,青白江技师分院,细颗粒物(PM2.5),60,51,37,43,32,22,,30,25,18,17,2,2,0.6,0.6
2024-12-23T1300,3489A,104.0789,30.4072,成都市,科学城,细颗粒物(PM2.5),89,76,52,66,45,24,,29,22,22,24,3,3,0.7,0.6
2024-12-23T1300,4011A,103.8506,30.6947,成都市,光华大道三段,,,21,46,3,27,13,,19,15,,24,,3,,0.7
2024-12-23T1300,1062A,117.9531,40.9081,承德市,铁路,,36,36,45,15,26,44,,19,19,31,34,6,6,0.5,0.6
2024-12-23T1300,1063A,117.9392,40.9763,承德市,中国银行,,48,48,48,9,23,49,,20,20,18,27,2,2,0.4,0.6
2024-12-23T1300,1064A,117.9503,40.928,承德市,开发区,,41,41,51,14,29,48,,20,20,26,34,4,4,0.5,0.7
2024-12-23T1300,1065A,117.8051,40.9655,承德市,文化中心,,,,79,,30,,,20,20,13,43,13,5,0.5,0.7
2024-12-23T1300,1066A,117.9268,41.0026,承德市,离宫,,,41,40,22,34,48,,28,28,21,27,,2,0.4,0.5
2024-12-23T1300,2314A,117.47,30.6618,池州市,池州学院,细颗粒物(PM2.5),98,102,92,73,64,42,,30,30,28,31,9,9,0.6,0.6
2024-12-23T1300,3237A,117.4918,30.6617,池州市,展览馆,细颗粒物(PM2.5),87,91,86,64,60,43,,32,31,30,29,10,9,0.7,0.7
2024-12-23T1300,3333A,117.5627,30.695,池州市,第八中学,细颗粒物(PM2.5),84,88,89,62,61,43,,31,29,30,29,10,7,0.9,0.8
2024-12-23T1300,3334A,117.5038,30.6243,池州市,第十二中学,细颗粒物(PM2.5),87,86,82,64,59,40,,35,31,34,26,8,6,0.6,0.6
2024-12-23T1300,1744A,118.9233,42.2816,赤峰市,松山一中,,26,26,21,12,9,69,,30,30,13,30,9,12,0.5,0.7
2024-12-23T1300,1745A,118.9576,42.2728,赤峰市,哈达街,,24,24,18,9,7,71,,40,35,18,28,7,8,0.6,0.7
2024-12-23T1300,1746A,118.8788,42.2554,赤峰市,天义路,,28,23,17,19,9,63,,32,31,17,26,10,9,0.5,0.7
2024-12-23T1300,3058A,119.2658,42.0353,赤峰市,银河街,,47,47,71,25,39,57,,30,30,23,37,25,21,0.7,1.4
2024-12-23T1300,3286A,118.9359,42.3147,赤峰市,桥北物流园区,,31,31,16,15,12,81,,38,38,15,26,9,10,0.7,0.8
2024-12-23T1300,2521A,107.3476,22.4136,崇左市,市环保局江州分局,细颗粒物(PM2.5),94,112,114,70,71,127,,62,62,20,29,12,11,1.1,1.1
2024-12-23T1300,2522A,107.3702,22.3707,崇左市,城南新区,细颗粒物(PM2.5),115,100,89,87,80,130,,75,72,21,24,12,10,1.0,1
2024-12-23T1300,2298A,118.3093,32.3153,滁州市,老年大学,细颗粒物(PM2.5),57,54,54,40,35,68,,45,45,23,31,8,8,0.2,0.4
2024-12-23T1300,2299A,118.3244,32.2786,滁州市,人大宾馆,细颗粒物(PM2.5),69,58,56,50,41,60,,42,42,21,25,9,9,0.5,0.4
2024-12-23T1300,3207A,118.3118,32.3038,滁州市,市政府原办公楼,细颗粒物(PM2.5),58,54,53,41,38,63,,43,43,25,32,6,6,0.5,0.5
2024-12-23T1300,3331A,118.3267,32.2634,滁州市,图书馆,细颗粒物(PM2.5),59,58,58,42,34,62,,44,44,19,26,8,7,0.2,0.3
2024-12-23T1300,2605A,101.5482,25.0441,楚雄彝族自治州,州环境监测站,,30,30,18,18,12,73,,36,36,8,18,7,8,0.4,0.4
2024-12-23T1300,2606A,101.538,25.0492,楚雄彝族自治州,市经济开发区,,32,,22,22,14,73,,37,37,8,18,6,8,0.5,0.5
2024-12-23T1300,2548A,107.5277,31.2827,达州市,达州职业技术学院,细颗粒物(PM2.5),85,70,83,63,71,42,,20,20,23,36,10,7,0.4,0.4
2024-12-23T1300,2549A,107.5086,31.2186,达州市,市环境监测站,颗粒物(PM10),63,75,81,44,54,37,,15,15,36,45,7,6,0.8,0.8
2024-12-23T1300,2550A,107.4988,31.2132,达州市,凤凰小区,细颗粒物(PM2.5),67,68,72,48,54,45,,20,20,32,40,8,7,0.7,0.7
2024-12-23T1300,2551A,107.5082,31.1986,达州市,达县机关宾馆,细颗粒物(PM2.5),63,70,75,45,56,40,,18,18,35,46,6,6,0.8,0.9
2024-12-23T1300,2552A,107.4644,31.2124,达州市,市政中心,细颗粒物(PM2.5),64,75,72,46,49,37,,22,22,33,38,10,8,0.7,0.7
2024-12-23T1300,2614A,100.1542,25.7054,大理白族自治州,大理市环境监测站,,23,10,9,8,11,73,,67,64,5,8,7,7,0.5,0.5
2024-12-23T1300,2615A,100.2171,25.5811,大理白族自治州,大理古城,,25,22,15,3,8,79,,57,56,6,9,5,5,0.5,0.5
2024-12-23T1300,1109A,121.612,38.9741,大连市,甘井子,,41,41,32,18,19,73,,42,42,22,34,8,10,0.8,1.1
2024-12-23T1300,1110A,121.565,38.9511,大连市,周水子,,37,37,30,19,21,69,,31,31,20,37,9,9,0.6,0.9
2024-12-23T1300,1111A,121.5637,38.8845,大连市,星海三站,,33,33,28,15,17,75,,43,43,12,19,11,10,0.6,0.7
2024-12-23T1300,1112A,121.6302,38.9117,大连市,青泥洼桥,,36,36,34,15,19,62,,33,33,18,28,12,13,0.4,0.7
2024-12-23T1300,1113A,121.6251,38.8638,大连市,傅家庄,,34,34,29,13,15,68,,43,43,17,22,11,15,0.5,0.6
2024-12-23T1300,1114A,121.5213,38.8661,大连市,七贤岭,,26,26,24,15,14,81,,53,53,11,18,11,10,0.8,0.8
2024-12-23T1300,1115A,121.2529,38.8061,大连市,旅顺,,25,21,22,12,14,80,,55,55,10,21,11,12,0.7,0.9
2024-12-23T1300,1116A,121.7485,39.1311,大连市,金州,,26,24,37,11,18,81,,52,52,8,28,7,8,0.7,1.1
2024-12-23T1300,1117A,121.7811,39.0496,大连市,开发区,,25,25,31,12,21,75,,48,48,12,29,10,9,0.4,0.8
2024-12-23T1300,1118A,121.9762,39.0631,大连市,双D港,,28,20,29,11,16,89,,63,63,11,18,10,10,0.5,0.8
2024-12-23T1300,1789A,124.81117,46.03138,大庆市,大同区,,39,,47,27,36,62,,54,54,8,22,5,5,0.5,0.7
2024-12-23T1300,1790A,125.129,46.533,大庆市,龙凤区,,28,28,56,11,35,63,,33,33,10,50,8,11,0.4,1
2024-12-23T1300,1791A,124.902,46.408,大庆市,红岗区,,,,38,,23,,,36,36,10,31,9,6,0.4,0.5
2024-12-23T1300,1792A,125.153,46.586,大庆市,萨尔图区,,20,20,38,13,24,56,,30,30,20,50,7,5,0.3,0.8
2024-12-23T1300,1793A,124.9042,46.6215,大庆市,让胡路区,,32,30,50,22,41,63,,44,44,8,34,7,7,0.3,0.6
2024-12-23T1300,3481A,125.141,46.634,大庆市,萨区政府监测点,,19,18,33,3,19,59,,32,32,14,45,6,5,0.3,0.6
2024-12-23T1300,1721A,113.3819,40.1097,大同市,果树场,颗粒物(PM10),65,79,99,46,63,29,,13,13,46,50,29,17,1.2,1.5
2024-12-23T1300,1723A,113.2994,40.0758,大同市,云冈宾馆,颗粒物(PM10),63,75,103,44,54,37,,16,16,39,52,36,31,1.6,1.7
2024-12-23T1300,1724A,113.3444,40.0917,大同市,大同大学,颗粒物(PM10),71,92,82,43,45,36,,17,17,36,50,29,33,1.4,1.3
2024-12-23T1300,1725A,113.2661,40.1269,大同市,安家小村,颗粒物(PM10),71,91,136,37,55,39,,18,18,33,47,40,37,1.5,2.3
2024-12-23T1300,1726A,113.2711,40.0844,大同市,教育学院,颗粒物(PM10),70,90,139,34,61,34,,13,13,40,60,34,33,1.6,2.2
2024-12-23T1300,3282A,113.3397,40.0597,大同市,大同市卫生学校,颗粒物(PM10),61,72,88,38,44,35,,14,14,38,52,28,33,1.3,1.3
2024-12-23T1300,3565A,113.1367,40.1122,大同市,云冈站,细颗粒物(PM2.5),69,82,135,50,57,41,,16,16,33,46,37,32,1.1,1.1
2024-12-23T1300,3566A,113.1186,40.2556,大同市,图书馆,颗粒物(PM10),53,56,65,33,45,52,,22,22,20,29,21,22,1.1,1.3
2024-12-23T1300,3567A,113.5931,40.0461,大同市,区一中,颗粒物(PM10),90,130,103,48,40,26,,14,14,50,43,79,53,1.6,1.4
2024-12-23T1300,3676A,113.2802,40.0995,大同市,第二人民医院,颗粒物(PM10),78,106,131,40,61,35,,18,18,43,57,37,33,1.6,2.1
2024-12-23T1300,2269A,124.1069,50.4097,大兴安岭地区,科技局,,24,18,18,3,16,76,,66,63,4,6,6,6,0.3,0.4
2024-12-23T1300,3663A,124.1164,50.4278,大兴安岭地区,红旗社区,,24,7,17,3,12,76,,58,48,3,12,3,5,0.3,0.4
2024-12-23T1300,1600A,124.3303,40.0625,丹东市,江湾东路,,38,38,84,13,57,59,,27,27,13,34,16,22,0.6,1.8
2024-12-23T1300,1601A,124.4256,40.1503,丹东市,临江后街,,40,,80,28,58,66,,29,29,12,33,7,16,0.5,1.6
2024-12-23T1300,1602A,124.3933,40.1461,丹东市,元宝山,,29,29,64,19,41,59,,23,23,11,30,9,14,0.8,1.4
2024-12-23T1300,1603A,124.3633,40.1092,丹东市,民主桥,,45,45,79,16,46,63,,27,27,14,41,10,15,0.7,1.4
2024-12-23T1300,3541A,109.5726,19.5167,儋州市,第一中学子站,颗粒物(PM10),56,62,59,36,34,117,,109,104,15,13,8,7,0.6,0.6
2024-12-23T1300,3542A,109.5567,19.5187,儋州市,东坡学校子站,颗粒物(PM10),56,61,55,38,34,129,,121,114,14,11,7,6,0.6,0.6
2024-12-23T1300,2616A,98.5842,24.428,德宏傣族景颇族自治州,德宏州监测站,颗粒物(PM10),54,58,54,37,36,62,,23,23,14,27,10,8,0.7,0.9
2024-12-23T1300,3677A,98.5881,24.4368,德宏傣族景颇族自治州,芒市人民政府综合楼,颗粒物(PM10),55,59,46,34,30,58,,24,24,17,17,9,7,0.8,0.8
2024-12-23T1300,1901A,104.4239,31.1208,德阳市,东山公园,细颗粒物(PM2.5),67,55,51,48,47,34,,38,33,15,16,1,1,0.6,0.6
2024-12-23T1300,1902A,104.3826,31.1317,德阳市,西小区,细颗粒物(PM2.5),87,67,55,64,53,29,,36,29,18,20,1,1,0.7,0.7
2024-12-23T1300,1904A,104.3553,31.1091,德阳市,耐火材料厂,细颗粒物(PM2.5),77,,45,56,48,28,,34,29,17,19,2,2,0.5,0.5
2024-12-23T1300,3639A,104.4019,31.1244,德阳市,市教育局,细颗粒物(PM2.5),79,63,51,58,48,30,,38,32,20,20,2,2,0.8,0.8
2024-12-23T1300,1622A,116.3032,37.4674,德州市,儿童乐园,颗粒物(PM10),56,61,70,36,41,70,,37,37,22,42,8,11,0.8,0.9
2024-12-23T1300,1624A,116.2991,37.4451,德州市,监理站,,48,48,70,31,46,73,,34,34,25,56,12,15,0.6,0.9
2024-12-23T1300,3066A,116.2721,37.4379,德州市,九衢泉纯净水厂,"颗粒物(PM10),细颗粒物(PM2.5)",52,53,82,36,55,65,,26,26,23,61,12,16,0.3,0.6
2024-12-23T1300,3371A,116.3728,37.4403,德州市,开发区人民医院,颗粒物(PM10),54,58,68,36,42,72,,34,34,22,43,11,13,0.5,0.7
2024-12-23T1300,3372A,116.3572,37.4094,德州市,太阳城中学,,,58,76,31,52,,,18,,38,71,11,14,0.3,0.7
2024-12-23T1300,3511A,116.5652,37.3319,德州市,陵城艺术中心,细颗粒物(PM2.5),58,63,72,41,44,67,,32,32,22,43,14,15,0.6,0.8
2024-12-23T1300,2621A,99.7056,27.8317,迪庆藏族自治州,迪庆州站,,44,44,25,25,16,85,,57,57,18,11,8,8,0.8,0.6
2024-12-23T1300,3180A,99.7136,27.8094,迪庆藏族自治州,质量技术监督局,,25,25,21,3,15,73,,45,45,12,9,7,6,0.8,0.7
2024-12-23T1300,2663A,104.6241,35.5734,定西市,东关小学,细颗粒物(PM2.5),63,64,54,45,42,56,,59,59,16,13,6,6,0.7,0.6
2024-12-23T1300,2664A,104.6194,35.5934,定西市,供电公司,颗粒物(PM10),60,69,56,35,30,64,,70,68,16,14,7,7,1.1,0.9
2024-12-23T1300,1389A,113.7547,23.0494,东莞市,莞城梨川,细颗粒物(PM2.5),68,74,64,49,41,97,,86,86,34,30,10,9,0.8,0.8
2024-12-23T1300,1390A,113.7944,23.0128,东莞市,东城石井,细颗粒物(PM2.5),64,70,61,46,40,91,,76,76,29,31,10,9,0.7,0.7
2024-12-23T1300,1391A,113.7383,22.9658,东莞市,南城西平,细颗粒物(PM2.5),67,75,64,48,40,94,,74,74,34,51,9,8,0.6,0.6
2024-12-23T1300,3319A,113.7338,23.0381,东莞市,万江金泰,细颗粒物(PM2.5),69,68,60,50,40,95,,84,84,25,25,9,7,0.7,0.6
2024-12-23T1300,3626A,113.7533,23.0202,东莞市,南城元岭,细颗粒物(PM2.5),70,74,61,51,40,98,,88,88,32,25,11,10,0.8,0.7
2024-12-23T1300,3627A,113.7875,23.0457,东莞市,东城主山,细颗粒物(PM2.5),65,71,69,47,40,89,,76,76,33,34,14,12,0.7,0.7
2024-12-23T1300,1666A,118.6614,37.4309,东营市,市环保局,,48,48,60,27,38,71,,27,27,29,56,10,16,0.7,0.8
2024-12-23T1300,3036A,118.6904,37.4338,东营市,开发区管委会,颗粒物(PM10),54,57,64,34,39,72,,30,30,35,59,9,15,0.5,0.9
2024-12-23T1300,3365A,118.5719,37.565,东营市,垦利区民丰路,,44,44,69,22,36,78,,30,30,19,52,11,15,0.5,0.8
2024-12-23T1300,3498A,118.5055,37.8612,东营市,河口城区,颗粒物(PM10),57,63,76,32,46,70,,34,34,20,52,8,9,0.6,0.8
2024-12-23T1300,3646A,118.4978,37.4623,东营市,胜利站,颗粒物(PM10),59,67,64,24,41,72,,26,26,27,60,9,15,0.7,1
2024-12-23T1300,3734A,118.35,37.26,东营市,理想之城,,42,39,70,29,43,76,,29,29,30,57,10,11,0.5,0.8
2024-12-23T1300,1591A,110.0023,39.8129,鄂尔多斯市,综合楼,,44,44,81,12,27,59,,28,28,33,58,10,18,1.0,1.3
2024-12-23T1300,1592A,109.9486,39.8261,鄂尔多斯市,巴音孟克林场办事处,,44,44,72,14,29,48,,23,23,37,57,14,17,0.7,1
2024-12-23T1300,1593A,109.7736,39.5986,鄂尔多斯市,康泽苑,颗粒物(PM10),51,51,66,22,27,34,,14,14,44,52,17,12,0.8,0.9
2024-12-23T1300,1594A,109.8119,39.5989,鄂尔多斯市,华泰汽车城,颗粒物(PM10),56,61,66,22,27,33,,14,14,47,51,18,12,0.8,0.9
2024-12-23T1300,1595A,109.9734,39.7884,鄂尔多斯市,奥林花园,,44,44,85,9,28,41,,19,19,40,57,12,15,0.6,0.8
2024-12-23T1300,2436A,114.8938,30.3994,鄂州市,市政府,,,71,69,46,46,,,31,27,34,35,8,10,0.9,0.9
2024-12-23T1300,2437A,114.8989,30.3714,鄂州市,赵家坝,细颗粒物(PM2.5),58,63,72,41,46,47,,36,33,27,33,8,9,0.8,0.7
2024-12-23T1300,3654A,114.8094,30.4089,鄂州市,精准医疗中心,细颗粒物(PM2.5),64,63,74,46,48,55,,41,41,23,27,4,10,0.8,0.6
2024-12-23T1300,2454A,109.4978,30.2981,恩施土家族苗族自治州,湖北民院,细颗粒物(PM2.5),69,51,55,50,57,87,,54,54,3,12,7,7,0.3,0.3
2024-12-23T1300,2455A,109.4707,30.2798,恩施土家族苗族自治州,州电力总公司,细颗粒物(PM2.5),59,57,65,42,53,87,,52,52,13,19,7,7,0.7,0.8
2024-12-23T1300,3549A,109.5061,30.3772,恩施土家族苗族自治州,龙凤新区,,,,68,,54,69,,44,44,,19,,6,0.7,0.7
2024-12-23T1300,2499A,108.3411,21.6158,防城港市,沙万,细颗粒物(PM2.5),90,82,78,67,63,122,,93,93,23,24,12,12,1.3,1.2
2024-12-23T1300,2500A,108.3514,21.7731,防城港市,防城档案局,细颗粒物(PM2.5),97,84,112,72,71,123,,83,83,24,38,12,9,0.9,0.8
2024-12-23T1300,2501A,108.3506,21.6414,防城港市,大海花园,细颗粒物(PM2.5),93,75,81,69,74,128,,96,96,20,23,10,10,1.1,1.1
2024-12-23T1300,1371A,113.1294,23.0067,佛山市,湾梁,颗粒物(PM10),69,88,72,48,41,87,,77,77,45,42,10,9,1.2,1.2
2024-12-23T1300,1372A,113.1083,23.0478,佛山市,华材职中,细颗粒物(PM2.5),78,90,79,57,50,99,,81,81,42,53,13,11,0.8,0.8
2024-12-23T1300,1373A,113.144,23.0453,佛山市,南海气象局,细颗粒物(PM2.5),78,74,61,57,47,87,,75,75,44,44,10,10,0.6,0.6
2024-12-23T1300,1374A,113.2881,22.8094,佛山市,顺德苏岗,细颗粒物(PM2.5),64,59,60,46,42,81,,66,66,32,38,10,9,0.6,0.6
2024-12-23T1300,1376A,112.8383,22.8678,佛山市,高明孔堂,细颗粒物(PM2.5),77,82,72,56,50,91,,81,81,45,42,13,12,0.8,0.8
2024-12-23T1300,1377A,112.8836,23.1588,佛山市,三水监测站,细颗粒物(PM2.5),84,90,75,62,52,109,,81,81,31,40,14,13,0.8,0.8
2024-12-23T1300,1378A,112.867,23.185,佛山市,三水云东海,细颗粒物(PM2.5),83,67,63,61,49,111,,81,81,30,38,16,13,0.8,0.8
2024-12-23T1300,3625A,113.2544,22.7642,佛山市,容桂街道办,颗粒物(PM10),62,73,69,41,44,83,,72,72,38,40,9,8,0.7,0.7
2024-12-23T1300,1282A,119.2681,26.0504,福州市,师大,,30,30,42,14,30,79,,69,63,14,21,3,4,0.3,0.4
2024-12-23T1300,1283A,119.2984,26.1028,福州市,五四北路,,25,18,39,8,23,78,,61,58,9,20,1,2,0.4,0.5
2024-12-23T1300,1284A,119.2648,26.0768,福州市,杨桥西路,,26,19,43,10,28,81,,71,65,11,16,1,2,0.3,0.4
2024-12-23T1300,1285A,119.317,26.0746,福州市,紫阳,,24,24,41,7,24,71,,62,54,14,23,2,3,0.5,0.5
2024-12-23T1300,3048A,119.5799,26.0936,福州市,九龙,,25,25,30,10,17,74,,66,64,11,11,2,2,0.5,0.5
2024-12-23T1300,3526A,119.5189,25.9664,福州市,吴航,,25,21,31,12,20,77,,66,65,13,15,4,5,0.6,0.6
2024-12-23T1300,1755A,123.7977,41.8491,抚顺市,望花区,,43,43,104,18,60,59,,30,30,14,47,3,10,0.4,1.2
2024-12-23T1300,1756A,123.9161,41.8822,抚顺市,顺城区,颗粒物(PM10),54,57,128,22,70,55,,25,25,23,49,8,10,0.4,1.5
2024-12-23T1300,1757A,124.0436,41.8611,抚顺市,东洲区,颗粒物(PM10),70,90,96,24,55,55,,19,19,31,51,7,6,0.5,1.1
2024-12-23T1300,1758A,123.9247,41.8642,抚顺市,新抚区,颗粒物(PM10),57,63,121,29,76,52,,24,24,24,42,6,7,0.3,1.2
2024-12-23T1300,1759A,124.0972,41.8961,抚顺市,大伙房水库,,,83,79,35,52,49,,21,21,,39,,11,0.7,1.1
2024-12-23T1300,1760A,123.7086,41.8391,抚顺市,沈抚新城,,42,42,87,3,52,62,,33,33,12,46,7,9,0.3,1
2024-12-23T1300,2376A,116.2127,28.0814,抚州市,桐源党溪,,,115,77,48,45,48,,33,33,8,5,,8,0.6,0.8
2024-12-23T1300,2377A,116.3544,27.9831,抚州市,市站,颗粒物(PM10),56,62,71,39,42,51,,38,38,20,22,10,7,1.3,1.3
2024-12-23T1300,2378A,116.3565,27.963,抚州市,血防站,颗粒物(PM10),60,70,76,35,43,47,,35,35,18,18,9,8,1.4,1.4
2024-12-23T1300,2379A,116.3564,28.0007,抚州市,采茶剧团,颗粒物(PM10),60,70,71,40,45,41,,28,28,19,19,5,4,1.1,1.1
2024-12-23T1300,2380A,116.385,27.9647,抚州市,医学分院,颗粒物(PM10),56,61,71,37,39,42,,31,31,20,20,11,12,0.9,0.9
2024-12-23T1300,2207A,121.6094,41.998,阜新市,工业园区,,27,27,88,3,39,76,,61,61,8,29,4,18,0.6,1.2
2024-12-23T1300,2208A,121.6697,42.0279,阜新市,长青街,,23,13,62,7,34,71,,52,52,8,23,6,9,0.3,0.7
2024-12-23T1300,2209A,121.6673,42.0705,阜新市,农业园区,,22,22,23,3,6,65,,62,60,7,11,7,9,0.5,0.5
2024-12-23T1300,2210A,121.6717,42.0224,阜新市,东苑,,40,40,51,3,24,72,,59,59,7,21,2,9,0.3,0.7
2024-12-23T1300,2211A,121.6506,42.0498,阜新市,玉龙新城,,25,18,63,8,33,77,,54,54,5,30,3,8,0.4,0.8
2024-12-23T1300,2301A,115.8277,32.8929,阜阳市,市监测站,细颗粒物(PM2.5),83,80,78,61,62,46,,31,31,30,35,9,9,0.7,0.6
2024-12-23T1300,2303A,115.8554,32.8605,阜阳市,开发区,颗粒物(PM10),88,126,102,62,59,40,,25,25,35,36,11,11,0.5,0.5
2024-12-23T1300,2875A,115.784,32.8892,阜阳市,阜阳职业技术学院,细颗粒物(PM2.5),78,77,77,57,54,46,,32,32,29,30,10,10,0.7,0.7
2024-12-23T1300,3468A,115.7901,32.8613,阜阳市,市规划展馆,细颗粒物(PM2.5),107,111,84,80,59,43,,39,35,32,27,9,10,0.5,0.4
2024-12-23T1300,3469A,115.836,32.9183,阜阳市,枣园社区,细颗粒物(PM2.5),99,94,90,74,65,51,,27,27,28,38,7,7,0.6,0.6
2024-12-23T1300,2669A,102.9099,34.9841,甘南藏族自治州,州政府,,45,37,66,31,38,48,,16,16,23,38,23,15,0.7,0.9
2024-12-23T1300,3380A,102.8914,34.9617,甘南藏族自治州,甘肃民族师范学院,颗粒物(PM10),58,65,79,35,32,32,,14,14,43,46,70,16,0.6,0.7
2024-12-23T1300,2570A,101.9603,30.0475,甘孜藏族自治州,水桥子,,12,10,19,6,10,36,,15,15,19,31,2,2,0.6,0.6
2024-12-23T1300,3065A,101.9533,29.9972,甘孜藏族自治州,州环保局,,29,29,21,8,7,37,,45,44,27,22,5,4,0.4,0.5
2024-12-23T1300,3414A,115.8347,28.932,赣江新区,桑海产业园,细颗粒物(PM2.5),70,88,82,51,51,46,,35,35,29,31,12,11,0.8,0.8
2024-12-23T1300,2362A,114.9017,25.9149,赣州市,通天岩,细颗粒物(PM2.5),85,77,71,63,64,85,,55,55,19,14,10,6,0.5,0.5
2024-12-23T1300,2363A,114.9367,25.8664,赣州市,地委,细颗粒物(PM2.5),68,79,85,49,50,73,,49,49,21,23,16,11,1.0,1
2024-12-23T1300,2364A,114.9461,25.8481,赣州市,气象台,颗粒物(PM10),62,73,91,41,45,89,,60,58,29,33,12,16,1.4,0.9
2024-12-23T1300,2365A,114.9322,25.8333,赣州市,市图书馆,颗粒物(PM10),62,74,80,35,45,70,,49,49,26,25,8,8,0.8,0.8
2024-12-23T1300,2366A,114.8905,25.8471,赣州市,华坚鞋城,颗粒物(PM10),60,69,77,42,47,80,,57,57,15,17,10,9,0.6,0.6
2024-12-23T1300,3109A,115.0093,25.8613,赣州市,赣县区卫计委,细颗粒物(PM2.5),110,107,98,83,74,69,,47,47,20,21,7,7,0.6,0.6
2024-12-23T1300,2683A,106.2319,36.1417,固原市,马园,细颗粒物(PM2.5),70,87,61,51,37,28,,38,28,29,32,10,11,0.7,0.5
2024-12-23T1300,2684A,106.2792,36.0022,固原市,监测站,细颗粒物(PM2.5),64,56,47,46,33,35,,53,44,32,20,8,7,0.8,0.7
2024-12-23T1300,2685A,106.2375,36.0211,固原市,新区,细颗粒物(PM2.5),65,52,49,47,32,29,,47,36,33,26,9,8,0.9,0.6
2024-12-23T1300,3522A,106.2177,35.9959,固原市,原州区十五小,细颗粒物(PM2.5),69,78,62,50,38,29,,44,31,34,27,7,7,0.9,0.8
2024-12-23T1300,2544A,106.6303,30.4576,广安市,市委,细颗粒物(PM2.5),84,82,82,62,72,48,,44,38,21,22,3,2,0.7,0.7
2024-12-23T1300,2545A,106.6271,30.4663,广安市,友谊中学,细颗粒物(PM2.5),88,80,83,65,69,46,,42,36,29,29,4,2,0.8,0.8
2024-12-23T1300,2547A,106.6388,30.4551,广安市,广电花园,细颗粒物(PM2.5),90,74,72,67,66,46,,42,34,21,22,5,4,0.6,0.6
2024-12-23T1300,2902A,106.6351,30.4865,广安市,北辰小学,细颗粒物(PM2.5),82,79,79,60,70,45,,36,34,22,22,7,5,0.9,0.9
2024-12-23T1300,2523A,105.8945,32.4535,广元市,黑石坡,细颗粒物(PM2.5),70,52,51,51,52,6,,2,1,23,24,3,3,0.7,0.7
2024-12-23T1300,2524A,105.821,32.4444,广元市,老城,细颗粒物(PM2.5),74,82,71,54,44,20,,12,12,40,45,1,2,0.8,0.8
2024-12-23T1300,2526A,105.8628,32.4287,广元市,监测站,细颗粒物(PM2.5),74,69,58,54,47,25,,15,14,36,32,2,2,0.9,0.8
2024-12-23T1300,3617A,105.8047,32.4166,广元市,经开区,细颗粒物(PM2.5),79,74,58,58,53,20,,16,16,41,40,4,4,0.8,0.8
2024-12-23T1300,1345A,113.2347,23.1423,广州市,广雅中学,细颗粒物(PM2.5),78,101,82,57,51,89,,74,74,43,48,11,11,0.7,0.6
2024-12-23T1300,1346A,113.2612,23.105,广州市,市五中,细颗粒物(PM2.5),90,89,74,67,55,105,,86,86,26,28,6,6,0.7,0.7
2024-12-23T1300,1348A,113.3478,23.0916,广州市,广东商学院,细颗粒物(PM2.5),74,74,66,54,46,97,,86,86,29,32,7,7,0.6,0.5
2024-12-23T1300,1349A,113.4332,23.1047,广州市,市八十六中,颗粒物(PM10),64,77,76,45,42,84,,75,75,31,35,7,6,0.7,0.7
2024-12-23T1300,1350A,113.3505,22.9483,广州市,番禺中学,细颗粒物(PM2.5),72,80,70,52,44,93,,80,80,32,39,6,6,0.5,0.5
2024-12-23T1300,1351A,113.2146,23.3916,广州市,花都师范,,,104,69,54,45,100,,90,86,23,23,,11,0.6,0.6
2024-12-23T1300,1352A,113.2597,23.1331,广州市,市监测站,细颗粒物(PM2.5),77,82,74,56,50,102,,83,83,29,41,8,8,0.6,0.6
2024-12-23T1300,1353A,113.5618,23.312,广州市,九龙镇镇龙,细颗粒物(PM2.5),75,98,69,55,45,98,,81,81,26,27,8,7,0.7,0.7
2024-12-23T1300,1354A,113.2765,23.1544,广州市,麓湖,细颗粒物(PM2.5),83,85,71,61,52,104,,82,82,27,35,7,6,0.7,0.7
2024-12-23T1300,1355A,113.443,23.3035,广州市,帽峰山森林公园,细颗粒物(PM2.5),68,69,53,49,31,107,,91,91,20,18,9,8,0.9,0.8
2024-12-23T1300,2846A,113.3221,23.1322,广州市,体育西,细颗粒物(PM2.5),79,88,75,58,48,95,,78,78,23,28,8,8,0.7,0.7
2024-12-23T1300,3298A,113.5717,23.5491,广州市,从化街口,细颗粒物(PM2.5),74,69,65,54,46,111,,87,87,17,25,6,5,0.6,0.6
2024-12-23T1300,3299A,113.3472,23.3692,广州市,白云竹料,细颗粒物(PM2.5),69,74,69,50,48,119,,101,101,16,26,10,10,0.7,0.7
2024-12-23T1300,3300A,113.2981,23.237,广州市,白云嘉禾,细颗粒物(PM2.5),77,90,84,56,48,104,,84,84,32,48,10,9,0.6,0.6
2024-12-23T1300,3301A,113.4256,23.1716,广州市,黄埔科学城,细颗粒物(PM2.5),70,71,62,51,43,94,,85,85,29,28,8,9,0.8,0.7
2024-12-23T1300,3302A,113.3942,23.0483,广州市,番禺大学城,细颗粒物(PM2.5),65,70,62,47,43,92,,79,79,35,41,12,12,0.7,0.7
2024-12-23T1300,3303A,113.4922,22.8168,广州市,南沙黄阁,细颗粒物(PM2.5),74,91,75,54,45,76,,68,68,41,42,10,9,0.9,0.9
2024-12-23T1300,3304A,113.5342,22.7896,广州市,南沙街,细颗粒物(PM2.5),69,84,73,50,42,87,,76,76,39,41,11,11,0.8,0.7
2024-12-23T1300,3443A,113.2902,23.5544,广州市,花都梯面,细颗粒物(PM2.5),69,72,61,50,44,121,,92,92,11,16,16,14,0.7,0.7
2024-12-23T1300,3445A,113.7858,23.7478,广州市,从化良口,细颗粒物(PM2.5),74,67,47,54,36,106,,84,84,14,17,8,7,0.7,0.6
2024-12-23T1300,3446A,113.8051,23.2614,广州市,增城荔城,细颗粒物(PM2.5),67,61,55,48,41,106,,99,97,18,18,9,8,0.7,0.6
2024-12-23T1300,2506A,109.6047,23.0666,贵港市,江南子站,细颗粒物(PM2.5),110,110,127,83,83,119,,70,70,25,41,12,12,1.0,1.1
2024-12-23T1300,2507A,109.6014,23.0948,贵港市,贵城子站,细颗粒物(PM2.5),125,,96,95,78,106,,70,70,20,31,12,12,0.9,0.9
2024-12-23T1300,2508A,109.5669,23.1065,贵港市,荷城子站,细颗粒物(PM2.5),89,107,103,66,67,102,,72,72,26,29,16,15,0.8,0.8
2024-12-23T1300,3405A,109.5886,23.1172,贵港市,新世纪学校,细颗粒物(PM2.5),94,112,107,70,71,109,,74,73,23,27,10,11,0.9,0.9
2024-12-23T1300,1439A,106.6899,26.5998,贵阳市,马鞍山,细颗粒物(PM2.5),77,70,50,56,40,30,,42,29,31,23,13,5,1.4,1
2024-12-23T1300,1440A,106.6971,26.5694,贵阳市,市环保站,,,,56,65,54,36,,51,35,,25,16,6,0.9,0.6
2024-12-23T1300,1441A,106.6243,26.6266,贵阳市,鉴湖路,细颗粒物(PM2.5),89,80,52,66,49,22,,31,18,32,21,10,6,1.1,0.7
2024-12-23T1300,1442A,106.7487,26.6343,贵阳市,燕子冲,细颗粒物(PM2.5),79,58,44,58,49,36,,51,39,25,17,12,7,0.8,0.6
2024-12-23T1300,1443A,106.6555,26.4365,贵阳市,碧云窝,细颗粒物(PM2.5),83,83,58,61,45,25,,44,30,38,30,16,10,1.0,0.7
2024-12-23T1300,1444A,106.694,26.5161,贵阳市,中院村,细颗粒物(PM2.5),85,88,57,63,50,30,,46,32,36,25,22,11,1.0,0.8
2024-12-23T1300,1445A,106.7109,26.6027,贵阳市,红边门,细颗粒物(PM2.5),83,70,56,61,53,32,,47,33,36,30,18,9,1.1,0.8
2024-12-23T1300,1446A,106.7164,26.5699,贵阳市,新华路,细颗粒物(PM2.5),64,56,50,46,45,40,,49,37,28,24,15,6,0.9,0.7
2024-12-23T1300,1447A,106.674,26.5424,贵阳市,太慈桥,细颗粒物(PM2.5),77,75,51,56,45,28,,43,30,41,29,14,7,1.0,0.7
2024-12-23T1300,1552A,106.805,26.3003,贵阳市,桐木岭,细颗粒物(PM2.5),77,70,80,56,64,33,,39,34,11,9,13,11,0.9,0.8
2024-12-23T1300,1862A,110.4144,25.3167,桂林市,电子科大尧山校区,细颗粒物(PM2.5),85,71,80,63,68,89,,85,78,14,17,8,9,0.8,0.8
2024-12-23T1300,1863A,110.2819,25.2697,桂林市,监测站,细颗粒物(PM2.5),102,93,90,76,77,84,,82,72,24,26,15,14,1.1,1.1
2024-12-23T1300,1864A,110.3089,25.2708,桂林市,龙隐路小学,细颗粒物(PM2.5),109,,85,82,81,90,,88,79,24,25,13,17,0.7,0.7
2024-12-23T1300,1865A,110.2869,25.2178,桂林市,八中,细颗粒物(PM2.5),107,89,87,80,82,86,,82,73,22,23,12,14,0.7,0.8
2024-12-23T1300,3403A,110.1764,25.2381,桂林市,创业大厦,细颗粒物(PM2.5),98,97,107,73,81,88,,87,78,26,27,11,13,0.8,0.8
2024-12-23T1300,3531A,110.296,25.1253,桂林市,旅游学院,细颗粒物(PM2.5),94,95,95,70,79,91,,86,78,28,28,12,12,0.8,0.8
2024-12-23T1300,2674A,100.2561,34.4714,果洛藏族自治州,玛沁县大武镇,,22,16,31,11,14,70,,42,42,4,7,10,8,0.5,0.5
2024-12-23T1300,1129A,126.5422,45.755,哈尔滨市,岭北,细颗粒物(PM2.5),55,41,59,39,51,71,,34,34,16,37,15,14,1.0,0.6
2024-12-23T1300,1130A,126.561,45.8167,哈尔滨市,松北商大,,46,,60,32,41,56,,26,26,18,46,38,6,0.5,0.8
2024-12-23T1300,1131A,126.979,45.5419,哈尔滨市,阿城会宁,细颗粒物(PM2.5),99,,95,74,75,47,,23,23,37,40,18,7,1.0,1.2
2024-12-23T1300,1132A,126.599,45.7222,哈尔滨市,南岗学府路,,,,63,17,39,65,,31,31,16,39,8,8,,0.5
2024-12-23T1300,1133A,126.689,45.7733,哈尔滨市,太平宏伟公园,,36,36,63,25,44,59,,36,36,19,37,21,9,0.4,0.7
2024-12-23T1300,1134A,126.635,45.7667,哈尔滨市,道外承德广场,颗粒物(PM10),57,63,57,21,39,60,,33,33,26,43,18,13,0.4,0.2
2024-12-23T1300,1135A,126.685,45.7319,哈尔滨市,香坊红旗大街,,24,24,62,16,50,62,,37,37,20,41,26,18,0.5,0.9
2024-12-23T1300,1136A,126.6411,45.7258,哈尔滨市,动力和平路,,39,38,48,27,37,60,,37,37,16,36,11,12,0.3,0.5
2024-12-23T1300,1137A,126.593,45.7478,哈尔滨市,道里建国路,颗粒物(PM10),53,55,56,28,45,64,,29,29,19,40,10,5,0.2,0.5
2024-12-23T1300,1138A,126.615,45.61,哈尔滨市,平房东轻厂,细颗粒物(PM2.5),53,42,86,37,65,62,,23,23,15,54,12,15,0.4,0.9
2024-12-23T1300,1139A,126.595,45.9855,哈尔滨市,呼兰师专,,44,44,87,30,77,54,,31,31,19,46,6,7,0.5,1
2024-12-23T1300,1140A,126.6206,45.6842,哈尔滨市,省农科院,,38,29,85,26,69,61,,29,29,15,50,10,12,0.5,1.1
2024-12-23T1300,2688A,93.5128,42.8172,哈密市,地区监测站,颗粒物(PM10),66,81,83,36,43,36,,24,24,23,33,7,8,0.4,0.6
2024-12-23T1300,2689A,93.4961,42.8328,哈密市,哈密师范学校,细颗粒物(PM2.5),59,60,75,42,43,29,,18,18,27,37,9,9,0.7,0.9
2024-12-23T1300,2671A,100.9048,36.9639,海北藏族自治州,海晏县西海镇,,21,18,21,10,12,66,,59,57,7,7,9,10,0.4,0.3
2024-12-23T1300,3867A,102.0738,36.5056,海东市,平安区公安北苑,细颗粒物(PM2.5),163,,134,124,102,68,,,,26,63,35,37,1.4,1.8
2024-12-23T1300,1409A,110.576,19.9507,海口市,东寨港,细颗粒物(PM2.5),55,41,47,39,33,102,,92,62,9,6,8,9,0.6,0.5
2024-12-23T1300,1410A,110.3232,20.0574,海口市,海南大学,颗粒物(PM10),56,61,57,36,34,116,,119,105,20,16,9,7,0.6,0.5
2024-12-23T1300,1411A,110.283,20.0053,海口市,秀英海南医院,"颗粒物(PM10),细颗粒物(PM2.5)",53,56,56,37,34,117,,121,106,21,18,8,6,0.5,0.4
2024-12-23T1300,1412A,110.338,19.9969,海口市,海南师范大学,颗粒物(PM10),57,63,55,36,33,117,,121,106,18,15,9,7,0.6,0.5
2024-12-23T1300,1413A,110.33,20.0356,海口市,龙华路环保局宿舍,颗粒物(PM10),51,52,54,35,33,117,,121,106,19,15,10,8,0.5,0.4
2024-12-23T1300,3539A,110.5111,19.9736,海口市,桂林洋子站,颗粒物(PM10),55,59,58,36,35,119,,119,104,14,13,9,8,0.5,0.5
2024-12-23T1300,2673A,100.6188,36.2866,海南藏族自治州,共和县恰卜恰镇,,39,38,43,27,20,56,,42,35,18,24,5,8,0.6,0.6
2024-12-23T1300,2676A,97.3731,37.3753,海西蒙古族藏族自治州,德令哈市,颗粒物(PM10),60,69,34,16,11,66,,67,56,18,13,18,16,0.7,0.5
2024-12-23T1300,1048A,114.5302,36.6116,邯郸市,东污水处理厂,细颗粒物(PM2.5),94,116,63,70,42,34,,15,14,56,42,26,6,2.3,0.7
2024-12-23T1300,1049A,114.4918,36.5713,邯郸市,矿院,细颗粒物(PM2.5),98,114,75,73,42,26,,8,8,65,51,22,4,2.2,0.8
2024-12-23T1300,1050A,114.484,36.6133,邯郸市,丛台公园,细颗粒物(PM2.5),109,118,71,82,40,24,,11,11,63,38,14,5,1.6,0.8
2024-12-23T1300,3458A,114.7895,36.5593,邯郸市,香泉濮院小区,细颗粒物(PM2.5),68,72,67,49,44,62,,30,30,21,28,8,7,1.1,0.8
2024-12-23T1300,3579A,114.50634,36.77178,邯郸市,永年区实验高中,细颗粒物(PM2.5),99,129,86,74,43,25,,13,13,60,49,31,11,2.0,1
2024-12-23T1300,3580A,114.20016,36.44293,邯郸市,峰峰矿区临水派出所,细颗粒物(PM2.5),97,116,77,72,47,50,,28,28,38,31,43,20,2.7,1.2
2024-12-23T1300,2634A,106.9893,33.1842,汉中市,汉川机床厂子校,细颗粒物(PM2.5),68,58,49,49,38,60,,60,58,14,14,7,7,0.6,0.6
2024-12-23T1300,2635A,107.0154,33.0706,汉中市,市监测站,细颗粒物(PM2.5),65,66,57,47,49,51,,60,51,24,18,7,6,0.9,0.8
2024-12-23T1300,2636A,107.0089,33.1138,汉中市,鑫源开发区,细颗粒物(PM2.5),74,63,52,54,48,56,,60,53,16,15,7,6,0.6,0.6
2024-12-23T1300,2637A,107.007,33.0323,汉中市,南郑大河坎水厂,细颗粒物(PM2.5),70,63,62,51,48,58,,62,55,16,16,6,4,0.7,0.7
2024-12-23T1300,1223A,120.2072,30.2111,杭州市,滨江,细颗粒物(PM2.5),75,90,75,55,48,12,,10,8,64,53,10,9,0.8,0.7
2024-12-23T1300,1224A,120.0633,30.2747,杭州市,西溪,细颗粒物(PM2.5),84,88,79,62,57,17,,8,8,58,52,9,8,0.8,0.7
2024-12-23T1300,1226A,120.3461,30.3153,杭州市,下沙,细颗粒物(PM2.5),72,88,88,52,49,8,,6,6,68,64,6,7,0.9,0.8
2024-12-23T1300,1227A,120.1269,30.2456,杭州市,卧龙桥,细颗粒物(PM2.5),75,79,67,55,48,16,,9,9,59,51,7,6,0.9,0.9
2024-12-23T1300,1228A,120.1903,30.2692,杭州市,浙江农大,细颗粒物(PM2.5),78,86,76,57,50,10,,7,7,64,54,8,7,0.8,0.7
2024-12-23T1300,1230A,120.1197,30.3119,杭州市,和睦小学,细颗粒物(PM2.5),73,83,69,53,47,17,,10,10,59,57,9,8,0.9,0.8
2024-12-23T1300,1231A,120.3019,30.4183,杭州市,临平镇,"颗粒物(PM10),细颗粒物(PM2.5)",70,89,73,51,43,16,,10,10,58,46,8,7,0.8,0.8
2024-12-23T1300,1232A,120.2697,30.1819,杭州市,城厢镇,细颗粒物(PM2.5),69,82,76,50,47,15,,11,11,59,56,7,6,0.9,0.9
2024-12-23T1300,1233A,120.0883,30.1808,杭州市,云栖,细颗粒物(PM2.5),67,74,70,48,56,20,,12,12,62,49,7,6,0.6,0.6
2024-12-23T1300,3557A,119.9464,30.0494,杭州市,镇二中,,,73,65,69,53,22,,9,9,48,45,8,7,,0.9
2024-12-23T1300,3558A,119.7183,30.2367,杭州市,市府大楼,细颗粒物(PM2.5),72,69,76,52,53,44,,16,16,40,44,9,7,1.0,1
2024-12-23T1300,3656A,120.1556,30.2864,杭州市,消防大队,细颗粒物(PM2.5),82,92,80,60,52,17,,12,12,61,52,9,9,0.8,0.7
2024-12-23T1300,1270A,117.1959,31.7848,合肥市,明珠广场,细颗粒物(PM2.5),64,75,70,46,45,41,,28,23,34,39,13,11,0.9,0.8
2024-12-23T1300,1271A,117.3072,31.8764,合肥市,三里街,细颗粒物(PM2.5),62,63,66,44,43,43,,28,25,35,40,8,7,0.7,0.6
2024-12-23T1300,1272A,117.2588,31.8707,合肥市,琥珀山庄,,,,69,,47,,,33,27,38,40,9,8,0.9,0.8
2024-12-23T1300,1273A,117.1604,31.9052,合肥市,董铺水库,颗粒物(PM10),69,88,76,48,39,38,,28,28,40,33,7,6,0.6,0.5
2024-12-23T1300,1274A,117.25,31.8571,合肥市,长江中路,细颗粒物(PM2.5),69,61,68,50,50,45,,32,28,34,38,10,8,0.9,0.8
2024-12-23T1300,1275A,117.266,31.9436,合肥市,庐阳区,颗粒物(PM10),58,66,75,36,40,51,,30,29,34,39,7,6,0.6,0.6
2024-12-23T1300,1276A,117.336,31.8586,合肥市,瑶海区,细颗粒物(PM2.5),64,68,69,46,43,46,,32,30,37,39,10,8,0.9,0.8
2024-12-23T1300,1277A,117.3027,31.7964,合肥市,包河区,细颗粒物(PM2.5),70,78,73,51,46,36,,17,17,43,54,7,5,0.5,0.4
2024-12-23T1300,1278A,117.2776,31.7385,合肥市,滨湖新区,颗粒物(PM10),62,73,73,39,40,39,,30,24,35,32,9,8,0.6,0.6
2024-12-23T1300,1279A,117.1318,31.8403,合肥市,高新区,细颗粒物(PM2.5),69,83,73,50,44,38,,24,21,43,45,4,3,1.0,0.8
2024-12-23T1300,3464A,117.3803,31.9147,合肥市,高教基地,细颗粒物(PM2.5),64,56,66,46,47,55,,33,33,29,35,12,10,0.7,0.5
2024-12-23T1300,3614A,79.924,37.0877,和田地区,地区环保局,细颗粒物(PM2.5),115,157,120,87,43,50,,32,28,18,22,15,12,0.9,0.7
2024-12-23T1300,3615A,79.9131,37.113,和田地区,市环保局,细颗粒物(PM2.5),99,137,90,74,41,46,,39,34,30,32,12,12,2.1,0.8
2024-12-23T1300,2516A,108.2011,24.715,河池市,东仁乐园,细颗粒物(PM2.5),79,82,84,58,66,68,,55,55,12,23,7,6,0.5,0.6
2024-12-23T1300,2517A,108.0497,24.6947,河池市,市环保站,细颗粒物(PM2.5),70,70,73,51,64,70,,56,56,17,29,10,9,0.7,0.8
2024-12-23T1300,2518A,108.0983,24.6989,河池市,市疾控中心,细颗粒物(PM2.5),73,74,73,53,65,72,,59,59,21,32,11,11,0.7,0.7
2024-12-23T1300,1696A,114.6778,23.7569,河源市,源西,细颗粒物(PM2.5),68,72,55,49,48,95,,85,84,17,21,10,9,0.8,0.8
2024-12-23T1300,1697A,114.6944,23.7586,河源市,东埔,,,88,65,57,54,,,96,86,20,22,8,8,0.7,0.7
2024-12-23T1300,1698A,114.6892,23.7233,河源市,老城,细颗粒物(PM2.5),75,67,61,55,50,94,,92,89,23,21,8,8,0.8,0.7
2024-12-23T1300,1718A,115.4208,35.2464,菏泽市,气象局,颗粒物(PM10),57,63,72,38,44,79,,51,51,16,33,3,4,0.3,0.5
2024-12-23T1300,1719A,115.4747,35.2375,菏泽市,市政协,"颗粒物(PM10),细颗粒物(PM2.5)",58,66,65,41,44,76,,46,46,19,33,7,7,0.6,0.6
2024-12-23T1300,3374A,115.5564,35.0891,菏泽市,定陶老年大学,细颗粒物(PM2.5),64,70,70,46,47,77,,36,36,28,39,10,11,0.5,0.6
2024-12-23T1300,3647A,115.4702,35.2706,菏泽市,菏泽医专,颗粒物(PM10),53,55,70,35,36,77,,37,37,22,45,7,8,0.5,0.6
2024-12-23T1300,2514A,111.5264,24.4172,贺州市,环保小区,细颗粒物(PM2.5),122,105,101,92,88,82,,65,65,22,25,12,11,0.9,0.9
2024-12-23T1300,2515A,111.5608,24.4078,贺州市,政协大楼,细颗粒物(PM2.5),87,104,101,64,71,89,,76,76,21,25,11,9,0.9,0.9
2024-12-23T1300,3534A,111.4744,24.4553,贺州市,西湾,细颗粒物(PM2.5),118,118,113,89,88,86,,67,66,18,20,12,11,0.9,0.9
2024-12-23T1300,2385A,114.17,35.9019,鹤壁市,市监测站,细颗粒物(PM2.5),73,86,98,53,58,53,,22,22,26,35,13,5,0.6,0.3
2024-12-23T1300,2386A,114.2956,35.7511,鹤壁市,市交警支队,细颗粒物(PM2.5),77,96,84,56,47,42,,12,12,32,35,3,2,0.4,0.4
2024-12-23T1300,2387A,114.2878,35.7306,鹤壁市,迎宾馆,细颗粒物(PM2.5),84,109,83,62,40,46,,14,14,26,31,10,6,0.4,0.4
2024-12-23T1300,3474A,114.2617,35.6822,鹤壁市,大新区,细颗粒物(PM2.5),93,110,84,69,56,49,,17,17,42,53,10,7,0.4,0.4
2024-12-23T1300,3596A,114.1572,35.9603,鹤壁市,南山宾馆,细颗粒物(PM2.5),103,98,93,77,67,56,,39,39,16,23,14,8,0.9,0.4
2024-12-23T1300,2244A,130.2537,47.3416,鹤岗市,哈啤分公司,,20,10,35,7,29,63,,56,56,1,19,12,11,0.6,0.8
2024-12-23T1300,2245A,130.2684,47.3086,鹤岗市,斯达机电,,20,19,42,10,31,63,,54,54,7,28,14,18,0.4,0.6
2024-12-23T1300,2246A,130.3114,47.3388,鹤岗市,东山纸板厂,,19,10,51,9,53,59,,36,36,6,36,14,14,0.6,1.9
2024-12-23T1300,2247A,130.1097,47.3382,鹤岗市,五号水库,,25,12,31,3,14,78,,68,68,5,15,8,7,0.1,0.1
2024-12-23T1300,2263A,127.4833,50.2524,黑河市,交通局,,21,16,50,10,29,65,,48,48,8,28,7,7,0.4,0.8
2024-12-23T1300,2264A,127.5144,50.2341,黑河市,环保局,,21,,45,11,42,66,,51,51,4,30,4,9,0.3,0.6
2024-12-23T1300,1074A,115.6838,37.7541,衡水市,电机北厂,细颗粒物(PM2.5),67,74,62,48,37,67,,47,39,24,29,15,11,0.6,0.5
2024-12-23T1300,1075A,115.6303,37.7316,衡水市,市监测站,细颗粒物(PM2.5),59,58,52,42,35,59,,29,29,30,43,15,14,0.5,0.6
2024-12-23T1300,3188A,115.6683,37.7217,衡水市,市城管局,细颗粒物(PM2.5),63,68,57,45,37,61,,28,28,28,38,7,8,0.6,0.6
2024-12-23T1300,3459A,115.5989,37.5491,衡水市,地表水厂,细颗粒物(PM2.5),64,60,67,46,51,65,,27,27,23,55,10,14,0.5,0.8
2024-12-23T1300,2456A,112.5003,26.9167,衡阳市,原169医院,细颗粒物(PM2.5),78,79,74,57,60,27,,41,41,35,27,17,32,0.3,0.3
2024-12-23T1300,2457A,112.6194,26.9258,衡阳市,衡阳化工总厂,细颗粒物(PM2.5),99,99,88,74,67,48,,38,37,21,19,19,15,0.8,0.8
2024-12-23T1300,2458A,112.6211,26.8956,衡阳市,珠晖区环保局,细颗粒物(PM2.5),92,93,80,68,62,46,,38,37,28,27,17,11,0.8,0.8
2024-12-23T1300,2459A,112.6197,26.8733,衡阳市,市委党校,细颗粒物(PM2.5),94,94,81,70,59,50,,40,40,24,23,16,11,0.8,0.8
2024-12-23T1300,2460A,112.6006,26.8919,衡阳市,市监测站,细颗粒物(PM2.5),110,109,103,83,78,49,,40,39,19,19,10,12,0.7,0.8
2024-12-23T1300,2461A,112.5664,26.9056,衡阳市,真空机电公司,细颗粒物(PM2.5),88,110,105,65,66,48,,39,37,21,22,8,9,0.7,0.7
2024-12-23T1300,3399A,112.6703,26.882,衡阳市,师范学院,细颗粒物(PM2.5),102,103,95,76,73,51,,38,38,17,18,12,11,0.8,0.8
2024-12-23T1300,2608A,103.3772,23.3993,红河哈尼族彝族自治州,污水处理厂,,42,,50,29,49,86,,69,64,4,11,7,13,0.4,0.8
2024-12-23T1300,2609A,103.3861,23.35,红河哈尼族彝族自治州,监测站,,39,30,51,27,51,90,,79,67,8,13,6,8,0.5,0.7
2024-12-23T1300,3038A,103.3758,23.368,红河哈尼族彝族自治州,州图书馆,,39,,47,27,43,81,,69,58,7,12,8,14,0.4,0.7
2024-12-23T1300,1090A,111.6507,40.7517,呼和浩特市,呼市一监,,,36,43,,29,55,,23,23,22,41,,11,0.5,0.8
2024-12-23T1300,1091A,111.6572,40.8033,呼和浩特市,小召,颗粒物(PM10),59,68,47,24,25,40,,19,19,52,61,10,12,1.0,1.4
2024-12-23T1300,1094A,111.7516,40.8369,呼和浩特市,如意水处理厂,,22,22,35,11,19,58,,22,22,33,62,8,10,0.3,0.6
2024-12-23T1300,1095A,111.7276,40.8062,呼和浩特市,二十九中,,26,26,36,10,18,57,,25,25,23,49,7,9,0.5,0.7
2024-12-23T1300,1096A,111.5512,40.7866,呼和浩特市,工大金川校区,,,,49,,26,32,,12,12,,59,14,10,0.8,0.7
2024-12-23T1300,1097A,111.717,40.7612,呼和浩特市,化肥厂生活区,,22,22,35,7,18,60,,33,33,17,41,7,10,0.4,0.7
2024-12-23T1300,3698A,111.5968,40.8178,呼和浩特市,红旗小学,颗粒物(PM10),68,85,60,28,31,26,,10,10,55,60,10,10,1.0,1
2024-12-23T1300,3699A,111.6518,40.8389,呼和浩特市,海东办,颗粒物(PM10),62,73,54,23,30,39,,15,15,54,58,8,10,1.3,1.1
2024-12-23T1300,2192A,119.7594,49.2261,呼伦贝尔市,区环保局,,19,19,36,10,24,57,,34,34,14,34,7,7,0.5,0.7
2024-12-23T1300,3061A,119.7512,49.1577,呼伦贝尔市,国华电力东,,22,13,38,7,32,68,,56,56,6,16,3,4,0.4,0.6
2024-12-23T1300,1250A,120.0751,30.8669,湖州市,城西水厂,,48,48,59,28,36,45,,22,22,32,48,9,8,0.5,0.5
2024-12-23T1300,2873A,120.0875,30.8955,湖州市,仁皇山新区,,46,46,51,31,34,46,,27,25,29,40,9,9,0.4,0.4
2024-12-23T1300,2907A,120.1844,30.8596,湖州市,吴兴区站,,50,50,54,29,34,41,,25,23,33,42,8,7,0.5,0.6
2024-12-23T1300,3562A,120.4148,30.8538,湖州市,南浔区站,,43,42,47,30,34,35,,26,26,40,41,12,9,0.6,0.7
2024-12-23T1300,1607A,120.9092,40.7136,葫芦岛市,龙港区,,34,34,51,11,30,84,,48,48,10,44,22,35,0.4,0.9
2024-12-23T1300,1608A,120.8392,40.7514,葫芦岛市,化工街,,29,29,70,3,37,77,,40,40,9,44,37,51,0.6,1.3
2024-12-23T1300,1609A,120.8341,40.7073,葫芦岛市,新区,,28,28,46,10,28,75,,38,38,12,48,21,27,0.5,1
2024-12-23T1300,1610A,120.8695,40.7677,葫芦岛市,东城区,,46,46,58,11,47,72,,37,37,6,45,7,43,0.2,0.9
2024-12-23T1300,2482A,109.5981,27.5721,怀化市,林科所,细颗粒物(PM2.5),52,38,42,36,40,60,,58,55,13,14,33,16,0.8,0.8
2024-12-23T1300,2483A,109.9453,27.5444,怀化市,河西地税局,细颗粒物(PM2.5),68,,64,49,42,55,,56,52,12,13,13,12,0.5,0.5
2024-12-23T1300,2484A,109.9781,27.5342,怀化市,市四医院,细颗粒物(PM2.5),59,57,70,42,40,57,,54,52,14,15,9,9,0.5,0.5
2024-12-23T1300,2485A,109.9972,27.5578,怀化市,监测楼,颗粒物(PM10),54,57,60,37,41,59,,55,52,13,15,3,6,0.4,0.4
2024-12-23T1300,2486A,110.0394,27.583,怀化市,市委党校,颗粒物(PM10),52,53,63,31,39,56,,52,51,12,13,9,7,0.2,0.2
2024-12-23T1300,1210A,119.036,33.5981,淮安市,钵池山,细颗粒物(PM2.5),63,56,58,45,39,68,,29,29,23,49,6,5,0.4,0.4
2024-12-23T1300,1211A,119.007,33.575,淮安市,北京南路,细颗粒物(PM2.5),59,63,61,42,34,60,,32,32,32,51,9,8,0.6,0.8
2024-12-23T1300,1212A,118.989,33.6067,淮安市,市监测站,细颗粒物(PM2.5),70,63,65,51,48,62,,23,23,30,55,7,6,0.7,0.8
2024-12-23T1300,1213A,119.135,33.5039,淮安市,楚州区监测站,细颗粒物(PM2.5),57,59,73,40,44,60,,37,37,27,49,8,7,0.6,0.6
2024-12-23T1300,1214A,119.0186,33.6297,淮安市,淮阴区监测站,细颗粒物(PM2.5),65,63,70,47,42,68,,24,24,28,57,7,7,0.5,0.8
2024-12-23T1300,3426A,118.8755,33.2894,淮安市,新华书店,细颗粒物(PM2.5),60,57,74,43,49,62,,29,29,28,50,9,11,0.6,0.7
2024-12-23T1300,2282A,116.8004,33.975,淮北市,监测站,细颗粒物(PM2.5),77,95,89,56,55,56,,30,30,27,40,11,9,0.5,0.5
2024-12-23T1300,2283A,116.8091,33.9007,淮北市,烈山区政府,细颗粒物(PM2.5),64,70,93,46,56,59,,31,31,27,46,12,8,0.6,0.6
2024-12-23T1300,3330A,116.8873,33.9836,淮北市,杜集区检察院,细颗粒物(PM2.5),80,85,101,59,61,66,,22,22,21,39,8,5,0.5,0.5
2024-12-23T1300,4017A,116.7923,33.9535,淮北市,市博物馆,细颗粒物(PM2.5),74,78,92,54,56,60,,34,34,30,46,13,10,0.6,0.6
2024-12-23T1300,2277A,116.8305,32.7727,淮南市,潘集区政府,细颗粒物(PM2.5),80,70,104,59,76,57,,29,29,27,42,11,11,0.6,0.6
2024-12-23T1300,2278A,117.0067,32.6524,淮南市,师范学院,细颗粒物(PM2.5),84,88,92,62,55,54,,29,29,27,36,8,7,0.6,0.7
2024-12-23T1300,2279A,116.8569,32.5951,淮南市,谢家集区政府,细颗粒物(PM2.5),74,83,96,54,59,53,,28,28,32,30,10,10,0.8,0.7
2024-12-23T1300,2280A,116.8281,32.633,淮南市,八公山区政府,细颗粒物(PM2.5),72,85,103,52,63,50,,24,24,29,40,10,10,0.7,0.7
2024-12-23T1300,2281A,116.6325,32.6201,淮南市,焦岗湖风景区管理处,细颗粒物(PM2.5),69,75,74,50,48,30,,16,16,44,48,2,3,0.5,0.4
2024-12-23T1300,2894A,117.0566,32.6531,淮南市,经济技术开发区消防队,细颗粒物(PM2.5),63,68,85,45,52,56,,34,34,28,36,7,9,0.6,0.6
2024-12-23T1300,3329A,117.0108,32.5893,淮南市,山南新区,细颗粒物(PM2.5),68,83,83,49,51,60,,44,44,22,26,10,10,0.6,0.5
2024-12-23T1300,2446A,114.9028,30.4742,黄冈市,职工中心,细颗粒物(PM2.5),65,70,72,47,46,40,,36,33,31,32,9,10,0.6,0.6
2024-12-23T1300,2929A,114.8858,30.4519,黄冈市,红卫路,细颗粒物(PM2.5),60,62,68,43,45,39,,34,32,31,31,7,8,0.8,0.8
2024-12-23T1300,3398A,114.9136,30.4445,黄冈市,市林业局,细颗粒物(PM2.5),60,64,67,43,45,42,,40,37,27,27,11,13,0.7,0.7
2024-12-23T1300,2672A,102.0199,35.5102,黄南藏族自治州,同仁县隆务镇,细颗粒物(PM2.5),53,54,50,37,29,70,,57,57,8,7,8,9,0.7,0.6
2024-12-23T1300,2295A,118.2903,29.6963,黄山市,延安路89号,,45,44,56,31,38,66,,39,39,16,20,9,9,0.3,0.3
2024-12-23T1300,2296A,118.327,29.7178,黄山市,黄山东路89号,细颗粒物(PM2.5),57,62,59,40,34,58,,43,38,15,15,7,7,0.3,0.3
2024-12-23T1300,2297A,118.1371,30.2756,黄山市,黄山区政府5号楼,细颗粒物(PM2.5),65,62,71,47,45,59,,40,40,12,21,8,9,0.4,0.6
2024-12-23T1300,2423A,115.0601,30.2313,黄石市,沈家营,颗粒物(PM10),64,77,78,44,48,36,,30,24,32,32,10,12,0.5,0.6
2024-12-23T1300,2424A,115.0817,30.2006,黄石市,陈家湾,细颗粒物(PM2.5),68,68,73,49,52,36,,35,27,33,31,10,12,0.4,0.6
2024-12-23T1300,2426A,114.8988,30.2019,黄石市,铁山,细颗粒物(PM2.5),64,69,74,46,50,39,,25,21,29,29,18,17,1.1,1.2
2024-12-23T1300,2427A,115.0307,30.2092,黄石市,团城山,颗粒物(PM10),60,70,76,35,45,35,,27,22,32,35,10,11,0.7,0.8
2024-12-23T1300,3149A,115.0235,30.1578,黄石市,笔架山北路,细颗粒物(PM2.5),64,58,67,46,49,31,,25,21,35,32,15,15,1.0,0.8
2024-12-23T1300,1392A,114.4183,23.0528,惠州市,河南岸金山湖子站,细颗粒物(PM2.5),69,74,64,50,44,88,,89,83,21,20,12,11,0.6,0.6
2024-12-23T1300,1393A,114.4053,23.0822,惠州市,下埔横江三路子站,细颗粒物(PM2.5),72,75,64,52,45,98,,93,89,19,21,9,10,0.7,0.6
2024-12-23T1300,1394A,114.4103,23.1142,惠州市,江北云山西路子站,细颗粒物(PM2.5),68,76,65,49,43,97,,96,90,24,23,11,12,0.7,0.6
2024-12-23T1300,1395A,114.4645,22.7833,惠州市,惠阳区承修路船湖子站,细颗粒物(PM2.5),67,82,72,48,39,82,,76,76,19,20,12,12,0.7,0.6
2024-12-23T1300,1396A,114.5317,22.7422,惠州市,大亚湾管委会子站,"颗粒物(PM10),细颗粒物(PM2.5)",59,68,55,42,35,86,,82,78,26,25,10,10,0.7,0.7
2024-12-23T1300,3314A,114.4338,22.8134,惠州市,惠阳秋长,细颗粒物(PM2.5),62,61,51,44,38,95,,94,92,21,19,13,13,0.7,0.6
2024-12-23T1300,3452A,114.6517,22.775,惠州市,大亚湾霞涌,细颗粒物(PM2.5),67,65,56,48,38,86,,82,82,16,16,10,10,0.5,0.4
2024-12-23T1300,2240A,130.9762,45.3001,鸡西市,环保局,,38,38,45,21,34,64,,50,50,2,18,6,8,0.3,0.5
2024-12-23T1300,2243A,130.9429,45.3039,鸡西市,第一中学,,26,26,43,12,26,67,,54,54,7,18,5,8,0.1,0.2
2024-12-23T1300,3707A,131.0207,45.3073,鸡西市,欧美日汽修厂,,23,22,71,16,55,72,,40,40,6,40,7,22,0.1,0.7
2024-12-23T1300,3709A,130.9967,45.3106,鸡西市,市政设施管理处,,,,60,16,39,68,,37,37,5,38,5,10,0.3,0.6
2024-12-23T1300,2367A,114.9754,27.0803,吉安市,红声器材厂,颗粒物(PM10),63,75,83,40,51,45,,33,30,35,40,14,16,0.7,0.7
2024-12-23T1300,2368A,114.9658,27.0999,吉安市,市森林工业局,颗粒物(PM10),58,66,78,38,48,50,,39,35,32,37,18,17,0.5,0.6
2024-12-23T1300,2369A,114.99,27.1312,吉安市,市环境监测站,细颗粒物(PM2.5),59,60,74,42,47,49,,37,33,35,39,17,17,0.7,0.7
2024-12-23T1300,2370A,115.0093,27.0968,吉安市,青原区法院,颗粒物(PM10),61,72,80,23,49,45,,35,33,40,40,17,16,0.7,0.8
2024-12-23T1300,1772A,126.54,43.8622,吉林市,哈达湾,细颗粒物(PM2.5),53,46,37,37,28,60,,43,41,20,25,10,9,0.6,0.6
2024-12-23T1300,1773A,126.5844,43.8358,吉林市,东局子,,,46,48,32,31,60,,24,21,,31,,8,0.7,0.8
2024-12-23T1300,1774A,126.5052,43.8245,吉林市,电力学院,,50,43,69,35,53,60,,25,25,17,39,10,13,0.7,1.3
2024-12-23T1300,1775A,126.6133,43.8972,吉林市,江北,,45,36,54,31,42,61,,30,30,20,37,12,12,0.6,1
2024-12-23T1300,1776A,126.555,43.8306,吉林市,江南公园,,,,48,,34,57,,26,23,,32,,10,,0.8
2024-12-23T1300,1778A,126.7061,43.7133,吉林市,丰满,,26,22,27,18,22,66,,49,49,10,13,11,11,0.5,0.6
2024-12-23T1300,2868A,126.4739,43.953,吉林市,九站,"颗粒物(PM10),细颗粒物(PM2.5)",53,56,53,37,40,61,,36,36,20,34,6,8,0.8,0.9
2024-12-23T1300,1299A,116.9862,36.6114,济南市,科干所,,46,46,51,17,25,67,,35,35,27,45,9,19,0.6,0.8
2024-12-23T1300,1301A,117.1265,36.6734,济南市,开发区,,49,49,51,29,26,56,,28,28,42,48,12,8,0.8,0.7
2024-12-23T1300,1303A,117.0624,36.6868,济南市,省种子仓库,,41,41,92,22,26,57,,21,21,35,57,13,9,0.6,0.7
2024-12-23T1300,1304A,116.9489,36.6447,济南市,机床二厂,颗粒物(PM10),52,54,87,22,34,69,,30,30,19,48,11,30,0.8,1.1
2024-12-23T1300,1305A,117.0495,36.663,济南市,市监测站,,46,46,48,22,21,67,,32,32,28,49,12,8,0.6,0.7
2024-12-23T1300,1306A,116.7675,36.5484,济南市,长清党校,,44,44,43,29,29,77,,34,34,20,44,11,9,0.8,0.8
2024-12-23T1300,1616A,117.6795,36.229,济南市,技术学院,细颗粒物(PM2.5),70,73,80,51,55,56,,22,22,35,48,25,15,2.2,1.1
2024-12-23T1300,1961A,117.532,36.6868,济南市,东山小学,,34,34,46,20,18,77,,36,36,16,45,8,8,0.5,0.6
2024-12-23T1300,3059A,117.7161,36.2049,济南市,泰兴公司,,44,44,93,27,55,63,,23,23,31,56,15,15,0.8,1.1
2024-12-23T1300,3064A,117.6867,36.2171,济南市,莱芜战役纪念馆,颗粒物(PM10),56,61,89,29,51,60,,24,24,28,50,17,14,1.7,1.1
2024-12-23T1300,3494A,117.1673,36.9782,济南市,济阳区政府,,46,46,55,24,26,53,,22,22,36,53,11,13,0.4,0.5
2024-12-23T1300,3495A,117.1171,36.63,济南市,锦屏中学,,44,44,36,24,19,58,,46,46,43,37,12,7,0.6,0.5
2024-12-23T1300,3682A,116.9814,36.6819,济南市,济南四建,,31,31,59,17,29,62,,24,24,28,59,10,19,0.6,1
2024-12-23T1300,1653A,116.6251,35.4302,济宁市,火炬城,细颗粒物(PM2.5),70,70,65,51,42,75,,27,27,26,47,15,13,0.8,0.7
2024-12-23T1300,1655A,116.5491,35.4042,济宁市,电化厂,颗粒物(PM10),64,78,90,44,56,70,,27,27,36,61,19,16,0.7,0.8
2024-12-23T1300,3500A,116.5814,35.3707,济宁市,北湖一中,颗粒物(PM10),63,76,68,41,46,72,,28,28,30,57,12,11,0.6,0.7
2024-12-23T1300,3501A,116.8249,35.5593,济宁市,服务中心,"颗粒物(PM10),细颗粒物(PM2.5)",63,76,86,45,47,59,,24,24,41,59,16,15,1.0,1.1
2024-12-23T1300,3678A,116.5907,35.4054,济宁市,市第七中学,细颗粒物(PM2.5),73,86,67,53,42,71,,35,35,29,45,12,9,1.0,0.9
2024-12-23T1300,2255A,130.2751,46.8028,佳木斯市,佳纺,,50,40,88,35,74,62,,38,38,7,49,8,11,0.4,1.2
2024-12-23T1300,2256A,130.3995,46.8307,佳木斯市,发电厂,,26,19,51,18,48,63,,42,42,4,31,3,7,0.4,0.7
2024-12-23T1300,2257A,130.3258,46.7975,佳木斯市,环保局,,42,34,82,29,67,53,,28,28,15,51,14,17,0.4,1
2024-12-23T1300,2258A,130.3648,46.8032,佳木斯市,十一中,,30,25,65,21,62,56,,37,37,16,49,11,13,0.4,0.9
2024-12-23T1300,2259A,130.3794,46.7588,佳木斯市,四丰,,32,,62,22,41,63,,51,51,4,30,1,1,0.3,0.7
2024-12-23T1300,1252A,120.7436,30.778,嘉兴市,清河小学,,44,44,39,27,26,32,,27,27,38,40,8,7,0.8,0.7
2024-12-23T1300,1253A,120.726,30.7478,嘉兴市,嘉兴学院,,50,50,47,29,27,33,,30,30,37,33,8,7,0.6,0.5
2024-12-23T1300,2872A,120.7846,30.7525,嘉兴市,南湖区残联,颗粒物(PM10),53,55,59,29,27,36,,31,31,37,36,10,9,0.6,0.6
2024-12-23T1300,3407A,120.6916,30.7739,嘉兴市,秀洲住建,颗粒物(PM10),52,54,47,32,30,31,,20,20,39,46,8,7,0.5,0.5
2024-12-23T1300,1945A,98.2908,39.7711,嘉峪关市,气象局,颗粒物(PM10),69,88,109,31,33,66,,67,67,18,25,14,19,0.5,0.6
2024-12-23T1300,2884A,98.2672,39.7978,嘉峪关市,酒钢宾馆,颗粒物(PM10),74,97,115,36,35,63,,65,65,23,29,26,29,0.9,0.8
2024-12-23T1300,3248A,98.2643,39.7724,嘉峪关市,雄关区,颗粒物(PM10),59,68,92,27,35,65,,62,62,23,32,13,15,0.7,0.5
2024-12-23T1300,1383A,113.1064,22.6058,江门市,北街,,,101,70,58,47,79,,64,64,,42,8,7,0.7,0.8
2024-12-23T1300,1384A,113.0731,22.5835,江门市,西区,细颗粒物(PM2.5),78,96,84,57,50,80,,67,67,48,45,13,11,0.7,0.7
2024-12-23T1300,1385A,113.0219,22.5311,江门市,圭峰西,细颗粒物(PM2.5),72,68,60,52,45,84,,75,75,43,37,8,7,0.8,0.8
2024-12-23T1300,1386A,113.0828,22.5947,江门市,东湖,颗粒物(PM10),69,88,73,48,40,82,,68,68,42,39,11,9,0.6,0.6
2024-12-23T1300,3311A,113.1075,22.5647,江门市,江海富民,颗粒物(PM10),74,98,80,40,46,82,,66,66,53,52,12,10,1.1,1
2024-12-23T1300,3449A,113.05,22.4667,江门市,新会银湖,细颗粒物(PM2.5),83,73,67,61,54,76,,59,59,44,44,10,9,0.7,0.7
2024-12-23T1300,1828A,113.227,35.2125,焦作市,市环保局,,,,97,,60,,,16,16,33,42,20,11,0.8,0.8
2024-12-23T1300,1830A,113.1992,35.2590,焦作市,影视城,细颗粒物(PM2.5),65,62,75,47,51,54,,40,40,30,30,12,13,0.8,0.8
2024-12-23T1300,3169A,113.2725,35.2067,焦作市,太极体育中心,细颗粒物(PM2.5),87,93,107,64,59,50,,19,19,36,59,31,17,1.2,0.8
2024-12-23T1300,3335A,113.3137,35.2641,焦作市,马村街道办,细颗粒物(PM2.5),95,84,99,71,62,55,,25,25,25,40,16,12,0.7,1
2024-12-23T1300,3336A,113.2465,35.2373,焦作市,焦作技师学院,细颗粒物(PM2.5),73,85,94,53,56,54,,26,26,30,45,15,14,0.7,0.8
2024-12-23T1300,3477A,113.1656,35.2539,焦作市,中站许衡医院,细颗粒物(PM2.5),75,86,76,55,50,55,,29,29,27,41,15,13,0.5,0.5
2024-12-23T1300,3981A,113.2449,35.1803,焦作市,原李万街道办,细颗粒物(PM2.5),104,117,98,78,61,46,,21,21,30,46,32,13,1.5,1
2024-12-23T1300,1708A,116.3701,23.5345,揭阳市,新兴,颗粒物(PM10),81,111,86,59,60,74,,74,64,35,27,10,10,0.8,0.7
2024-12-23T1300,1709A,116.3264,23.5443,揭阳市,西马,细颗粒物(PM2.5),72,75,91,52,62,92,,77,56,27,28,10,12,0.7,0.8
2024-12-23T1300,1710A,116.3611,23.5626,揭阳市,东兴,细颗粒物(PM2.5),79,104,98,58,59,91,,70,59,28,28,10,13,0.8,0.8
2024-12-23T1300,1711A,116.4151,23.5294,揭阳市,渔湖,细颗粒物(PM2.5),57,61,81,40,54,88,,73,66,20,27,12,14,0.5,0.6
2024-12-23T1300,3320A,116.403,23.5699,揭阳市,曲溪,"颗粒物(PM10),细颗粒物(PM2.5)",69,88,94,50,58,87,,74,69,37,32,5,7,0.8,0.8
2024-12-23T1300,1944A,102.1692,38.5167,金昌市,天庆家园,细颗粒物(PM2.5),75,91,76,55,56,59,,35,35,19,22,24,16,0.6,1
2024-12-23T1300,3170A,102.1864,38.5253,金昌市,市委党校,颗粒物(PM10),77,104,94,50,52,67,,42,42,16,25,20,16,0.7,0.9
2024-12-23T1300,4022A,102.1647,38.5371,金昌市,金川区人防中心,颗粒物(PM10),78,105,83,50,54,72,,48,48,15,20,23,13,0.6,0.9
2024-12-23T1300,1262A,119.647,29.077,金华市,十五中,细颗粒物(PM2.5),77,87,78,56,49,26,,15,15,55,55,4,4,0.6,0.5
2024-12-23T1300,1263A,119.686,29.1029,金华市,监测站,细颗粒物(PM2.5),74,85,84,54,53,27,,12,12,50,58,6,5,0.6,0.8
2024-12-23T1300,3659A,119.656,29.1131,金华市,气象局,颗粒物(PM10),72,93,85,51,48,27,,12,12,48,56,5,4,0.7,0.7
2024-12-23T1300,1767A,121.1115,41.0879,锦州市,南山,,25,20,70,3,72,77,,47,47,7,42,3,14,0.4,1.4
2024-12-23T1300,1768A,121.0533,40.8434,锦州市,开发区,颗粒物(PM10),57,64,100,16,49,77,,31,31,4,54,8,30,0.4,1.1
2024-12-23T1300,1769A,121.1836,41.1119,锦州市,百股街道,,45,45,74,3,59,79,,39,39,6,42,9,19,0.3,1.7
2024-12-23T1300,1770A,121.1178,41.1222,锦州市,天安街道,,24,24,77,8,58,73,,45,45,8,47,8,22,0.4,1.3
2024-12-23T1300,1771A,121.1303,41.1386,锦州市,北湖公园,,28,28,56,8,47,72,,52,52,4,36,10,23,0.4,1.2
2024-12-23T1300,2160A,112.85,35.5051,晋城市,自来水公司,细颗粒物(PM2.5),89,101,73,66,52,47,,19,19,43,45,42,20,3.0,1.5
2024-12-23T1300,2161A,112.8318,35.4936,晋城市,白云商贸,细颗粒物(PM2.5),64,73,89,46,46,52,,24,24,39,46,29,15,2.1,1.5
2024-12-23T1300,2162A,112.8508,35.4887,晋城市,市环保局,细颗粒物(PM2.5),92,68,92,68,53,49,,20,20,41,46,35,18,2.6,1.5
2024-12-23T1300,2163A,112.8676,35.4897,晋城市,技术学院,细颗粒物(PM2.5),73,67,75,53,50,48,,18,18,41,48,38,20,2.5,1.5
2024-12-23T1300,2165A,112.8453,35.546,晋城市,白马寺,细颗粒物(PM2.5),73,90,83,53,53,41,,25,25,38,38,45,32,3.3,2.3
2024-12-23T1300,3620A,112.8271,35.4828,晋城市,泽州一中,颗粒物(PM10),74,97,83,53,52,51,,24,24,37,44,29,18,2.0,1.3
2024-12-23T1300,2171A,112.7532,37.6945,晋中市,锦纶小区,颗粒物(PM10),62,73,70,34,34,45,,24,24,31,44,18,12,0.6,0.7
2024-12-23T1300,2173A,112.7249,37.7067,晋中市,南都小区,颗粒物(PM10),61,72,80,39,42,37,,17,17,33,50,17,13,1.0,1
2024-12-23T1300,2174A,112.6991,37.6982,晋中市,榆次区政府,颗粒物(PM10),71,92,81,41,37,34,,18,18,42,47,14,10,1.2,1.1
2024-12-23T1300,2865A,112.7195,37.6828,晋中市,榆次三中,颗粒物(PM10),63,75,75,36,35,38,,18,18,31,43,18,13,1.0,1
2024-12-23T1300,2439A,112.2014,31.0481,荆门市,竹园小学,颗粒物(PM10),67,83,70,36,38,80,,53,53,14,26,14,14,0.4,0.4
2024-12-23T1300,2440A,112.1969,30.9891,荆门市,掇刀,颗粒物(PM10),58,66,66,36,37,83,,58,58,15,25,11,12,0.5,0.6
2024-12-23T1300,2441A,112.2213,31.0386,荆门市,石化一小,颗粒物(PM10),65,79,74,40,39,82,,56,56,14,25,8,9,0.4,0.5
2024-12-23T1300,3012A,112.1849,31.0362,荆门市,西山林语,颗粒物(PM10),66,81,63,33,33,81,,61,61,15,21,9,9,0.5,0.5
2024-12-23T1300,3547A,112.1632,31.0138,荆门市,龙泉中学南校,细颗粒物(PM2.5),63,63,69,45,41,80,,60,60,20,22,12,13,0.5,0.6
2024-12-23T1300,1844A,112.2494,30.3197,荆州市,市图书馆,细颗粒物(PM2.5),63,65,50,45,39,72,,62,57,18,21,8,6,0.4,0.4
2024-12-23T1300,1845A,112.2008,30.3544,荆州市,市委党校,细颗粒物(PM2.5),58,57,52,41,35,68,,60,57,21,24,7,4,0.4,0.4
2024-12-23T1300,3194A,112.2747,30.3122,荆州市,管委会,细颗粒物(PM2.5),54,43,52,38,38,72,,62,58,18,20,7,5,0.5,0.5
2024-12-23T1300,3548A,112.1655,30.3364,荆州市,学苑路,细颗粒物(PM2.5),62,67,62,44,36,74,,60,59,16,23,10,9,0.6,0.6
2024-12-23T1300,2343A,117.2117,29.2933,景德镇市,老干部活动中心,,45,41,56,31,39,68,,50,50,12,21,7,8,0.5,0.6
2024-12-23T1300,2344A,117.1894,29.2789,景德镇市,兽医站,颗粒物(PM10),52,54,58,23,28,70,,55,55,11,14,4,4,0.3,0.4
2024-12-23T1300,2345A,117.1547,29.2617,景德镇市,台达陶瓷,,43,43,52,21,34,66,,66,66,27,17,36,8,0.1,0.7
2024-12-23T1300,2346A,117.2461,29.2956,景德镇市,陶研所,,34,34,55,22,30,64,,39,39,14,22,3,6,0.2,0.3
2024-12-23T1300,1803A,115.9872,29.6815,九江市,十里,细颗粒物(PM2.5),69,69,59,50,43,51,,44,44,23,24,9,10,0.8,0.7
2024-12-23T1300,1804A,115.9584,29.7046,九江市,茅山头,细颗粒物(PM2.5),67,74,66,48,43,53,,48,48,26,26,13,12,1.0,0.9
2024-12-23T1300,1805A,115.9877,29.7295,九江市,西园,细颗粒物(PM2.5),72,72,57,52,41,43,,42,41,27,28,9,9,0.8,0.6
2024-12-23T1300,1806A,116.0172,29.6547,九江市,五七二七厂,细颗粒物(PM2.5),78,86,73,57,43,53,,44,44,26,25,8,8,0.6,0.6
2024-12-23T1300,1808A,115.9114,29.6038,九江市,综合工业园,细颗粒物(PM2.5),89,72,66,66,52,52,,41,41,34,35,9,10,0.8,0.7
2024-12-23T1300,1809A,116.0721,29.7535,九江市,石化总厂,细颗粒物(PM2.5),69,74,64,50,43,51,,48,48,26,25,9,9,0.9,0.7
2024-12-23T1300,1810A,115.9773,29.5698,九江市,庐山气象台,细颗粒物(PM2.5),90,,30,67,26,45,,77,66,27,11,7,7,1.8,0.9
2024-12-23T1300,3190A,116.0254,29.6994,九江市,外国语学校,细颗粒物(PM2.5),72,83,75,52,44,50,,42,42,25,25,7,9,0.7,0.6
2024-12-23T1300,2658A,98.5061,39.7443,酒泉市,仓门街子站,颗粒物(PM10),69,88,114,23,36,75,,56,56,9,20,13,17,0.5,0.7
2024-12-23T1300,2659A,98.4989,39.7256,酒泉市,油田生活基地,颗粒物(PM10),76,102,134,33,39,74,,44,44,10,26,32,22,0.5,0.7
2024-12-23T1300,2698A,76.0072,39.4467,喀什地区,巡警大队,颗粒物(PM10),75,99,107,47,56,42,,34,34,42,46,1,2,0.8,1.1
2024-12-23T1300,2699A,75.9755,39.4694,喀什地区,吾办,细颗粒物(PM2.5),79,105,108,58,69,49,,40,34,33,48,3,3,0.9,1.2
2024-12-23T1300,4027A,75.9483,39.4689,喀什地区,老干局,颗粒物(PM10),78,106,119,45,57,42,,42,37,38,46,2,2,1.0,1.4
2024-12-23T1300,1824A,114.3389,34.7781,开封市,肿瘤医院,"颗粒物(PM10),细颗粒物(PM2.5)",74,97,85,54,55,59,,22,22,23,48,6,5,0.5,0.6
2024-12-23T1300,1826A,114.2885,34.7965,开封市,世纪星幼儿园,细颗粒物(PM2.5),92,83,76,68,61,61,,26,26,25,41,6,3,0.3,0.3
2024-12-23T1300,3147A,114.3438,34.8106,开封市,龙亭公园,细颗粒物(PM2.5),74,87,74,54,51,63,,31,31,24,43,3,2,0.1,0.2
2024-12-23T1300,3210A,114.3644,34.7964,开封市,汴京公园,"颗粒物(PM10),细颗粒物(PM2.5)",85,120,93,63,62,63,,25,25,30,53,6,4,0.4,0.5
2024-12-23T1300,3473A,114.2485,34.8306,开封市,技师学院,颗粒物(PM10),78,106,68,50,39,59,,39,39,35,37,11,4,0.9,0.7
2024-12-23T1300,3592A,114.4644,34.7556,开封市,祥符区生态环境局,细颗粒物(PM2.5),69,77,94,50,61,71,,29,29,16,50,3,3,0.5,0.5
2024-12-23T1300,1951A,84.895,45.6094,克拉玛依市,长征新村,细颗粒物(PM2.5),83,105,92,61,62,62,,41,41,19,29,6,6,0.7,0.7
2024-12-23T1300,1952A,84.8988,45.5893,克拉玛依市,南林小区,细颗粒物(PM2.5),90,110,88,67,62,60,,44,44,18,25,4,3,0.8,0.8
2024-12-23T1300,1954A,84.905,44.3396,克拉玛依市,独山子区,,43,43,23,27,19,27,,53,42,36,25,4,4,0.8,0.5
2024-12-23T1300,1955A,85.6979,46.098,克拉玛依市,乌尔禾区商贸楼,细颗粒物(PM2.5),77,66,75,56,59,60,,46,46,25,39,5,5,0.8,1
2024-12-23T1300,3612A,85.1045,45.6899,克拉玛依市,白碱滩区新站,,,,88,,60,70,,39,38,15,27,,8,0.8,0.9
2024-12-23T1300,2697A,76.1454,39.7142,克孜勒苏柯尔克孜自治州,市人民政府,细颗粒物(PM2.5),69,77,86,50,57,52,,68,62,27,20,5,4,1.1,1
2024-12-23T1300,3665A,76.1658,39.7157,克孜勒苏柯尔克孜自治州,克州文化中心,细颗粒物(PM2.5),67,70,78,48,53,48,,56,50,23,29,8,8,1.0,1
2024-12-23T1300,1450A,102.8204,24.8886,昆明市,呈贡新区,,25,16,19,10,14,78,,53,53,9,17,5,6,0.3,0.4
2024-12-23T1300,1452A,102.7252,25.0902,昆明市,龙泉镇,,26,20,25,18,13,73,,33,33,16,25,10,9,0.6,0.6
2024-12-23T1300,1453A,102.7266,25.0375,昆明市,东风东路,,32,30,21,22,14,67,,43,42,14,16,9,7,0.6,0.5
2024-12-23T1300,1454A,102.6742,25.0669,昆明市,金鼎山,,42,42,25,23,16,71,,41,41,17,21,14,13,0.7,0.6
2024-12-23T1300,1455A,102.6644,25.0401,昆明市,碧鸡广场,,41,41,30,23,16,67,,36,36,17,26,13,11,0.8,0.7
2024-12-23T1300,3179A,102.7494,25.0119,昆明市,官渡区博物馆,,25,22,24,14,16,80,,48,48,9,17,9,8,0.4,0.4
2024-12-23T1300,3375A,102.8017,24.8336,昆明市,青年创业园,,26,16,21,11,12,82,,51,51,6,12,7,8,0.4,0.5
2024-12-23T1300,3550A,102.7997,24.9786,昆明市,昆明学院,,25,20,23,12,14,80,,51,51,10,16,10,9,0.4,0.5
2024-12-23T1300,3551A,102.5967,24.6736,昆明市,晋宁区生态环境分局,,25,19,24,12,16,80,,52,52,8,11,5,3,0.5,0.7
2024-12-23T1300,3552A,102.6678,24.9856,昆明市,云天化总部,,29,29,18,20,12,82,,49,49,10,16,10,7,0.5,0.3
2024-12-23T1300,1456A,91.1319,29.6514,拉萨市,八廓街,,23,22,23,12,14,73,,57,57,16,26,27,13,0.4,0.5
2024-12-23T1300,1457A,91.1221,29.6747,拉萨市,市环保局,,26,19,29,15,20,83,,58,58,18,27,20,11,0.5,0.8
2024-12-23T1300,1458A,91.0874,29.6475,拉萨市,区监测站,,25,25,20,9,11,70,,50,50,18,33,22,12,0.5,0.6
2024-12-23T1300,1459A,91.1774,29.6541,拉萨市,西藏大学,,23,23,22,7,11,73,,57,57,11,16,30,12,0.6,0.6
2024-12-23T1300,1460A,90.9798,29.6588,拉萨市,区辐射站,颗粒物(PM10),57,64,36,34,24,62,,38,36,29,38,22,10,0.7,0.8
2024-12-23T1300,1461A,91.0834,29.6292,拉萨市,拉萨火车站,,27,27,22,11,15,61,,31,31,31,43,17,8,0.6,0.9
2024-12-23T1300,2520A,109.2203,23.7256,来宾市,来宾技工学校,细颗粒物(PM2.5),108,92,92,81,78,106,,76,76,22,26,15,12,1.1,1
2024-12-23T1300,3535A,109.1781,23.7297,来宾市,兴宾区政府,细颗粒物(PM2.5),104,111,111,78,80,109,,78,78,22,24,14,12,1.0,0.9
2024-12-23T1300,4002A,109.2416,23.7461,来宾市,中南小学,细颗粒物(PM2.5),110,106,102,83,85,105,,71,71,20,28,15,12,1.2,1.1
2024-12-23T1300,1476A,103.631,36.1031,兰州市,兰炼宾馆,细颗粒物(PM2.5),135,131,126,103,96,35,,29,22,61,73,68,46,1.7,1.5
2024-12-23T1300,1478A,103.8412,36.0726,兰州市,生物制品所,细颗粒物(PM2.5),114,105,119,86,91,30,,10,10,59,80,19,18,1.3,1.5
2024-12-23T1300,1479A,103.831,36.0464,兰州市,铁路设计院,细颗粒物(PM2.5),133,132,137,101,103,16,,9,9,80,95,17,19,1.8,1.8
2024-12-23T1300,3186A,103.7158,36.1058,兰州市,教育港,细颗粒物(PM2.5),103,116,125,77,90,38,,19,19,54,78,27,26,1.2,1.3
2024-12-23T1300,3241A,103.7439,36.0842,兰州市,百合公园,细颗粒物(PM2.5),99,106,118,74,93,33,,16,16,55,78,22,24,1.3,1.5
2024-12-23T1300,3242A,103.9611,35.998,兰州市,和平,细颗粒物(PM2.5),142,131,130,108,100,49,,16,16,40,72,19,16,1.4,1.6
2024-12-23T1300,3245A,103.6633,36.533,兰州新区,新区管委会,细颗粒物(PM2.5),88,97,94,65,75,72,,45,45,20,34,13,12,0.6,0.8
2024-12-23T1300,3246A,103.6975,36.4789,兰州新区,舟曲中学,细颗粒物(PM2.5),82,83,96,60,74,64,,36,36,21,38,10,15,0.6,0.9
2024-12-23T1300,1067A,116.6708,39.5111,廊坊市,药材公司,,21,16,46,6,28,65,,28,28,14,55,2,3,0.3,0.5
2024-12-23T1300,1068A,116.7214,39.5589,廊坊市,开发区,,23,16,44,3,25,71,,31,31,9,54,2,3,0.3,0.5
2024-12-23T1300,1070A,116.7244,39.5269,廊坊市,北华航天学院,,23,17,43,3,23,72,,35,35,5,46,5,7,0.3,0.5
2024-12-23T1300,2919A,116.7022,39.5453,廊坊市,河北工业大学,,23,18,45,3,25,71,,31,31,10,53,3,5,0.2,0.5
2024-12-23T1300,2535A,103.7723,29.5462,乐山市,花湖湾,,,,67,,58,,,17,15,,16,,4,,0.5
2024-12-23T1300,2536A,103.7627,29.5844,乐山市,牛耳桥,,49,43,66,34,56,9,,18,11,18,25,4,4,0.8,0.7
2024-12-23T1300,2537A,103.7508,29.6006,乐山市,市第三水厂,细颗粒物(PM2.5),54,45,61,38,51,11,,24,16,22,24,3,3,0.9,0.9
2024-12-23T1300,2538A,103.7571,29.5664,乐山市,市监测站,,36,26,53,25,46,14,,21,14,16,17,3,3,0.7,0.7
2024-12-23T1300,3361A,103.7311,29.5628,乐山市,理工大学,,39,,53,27,53,18,,20,18,16,19,6,6,0.8,0.8
2024-12-23T1300,2598A,100.2143,26.8576,丽江市,西南郊,二氧化硫,98,40,23,25,14,78,,102,102,6,7,481,37,1.0,0.8
2024-12-23T1300,2599A,100.2497,26.8802,丽江市,丽江古城,,24,20,23,8,12,76,,68,61,8,9,9,8,0.4,0.4
2024-12-23T1300,2600A,100.2203,26.8906,丽江市,市中心,,23,16,9,3,5,72,,61,51,6,11,5,6,0.4,0.4
2024-12-23T1300,1267A,119.914,28.4514,丽水市,监测站大楼,细颗粒物(PM2.5),75,68,55,55,44,36,,19,19,37,36,7,5,0.6,0.6
2024-12-23T1300,1268A,119.93,28.4586,丽水市,莲都小学,细颗粒物(PM2.5),79,80,66,58,45,35,,18,18,36,37,9,7,0.8,0.7
2024-12-23T1300,1269A,119.879,28.4231,丽水市,余庄前,细颗粒物(PM2.5),80,80,61,59,46,34,,17,17,38,29,6,5,0.6,0.5
2024-12-23T1300,1173A,119.176,34.5885,连云港市,市环境监测站,细颗粒物(PM2.5),52,51,67,36,43,55,,22,22,36,57,13,14,0.8,1
2024-12-23T1300,3000A,119.3581,34.6972,连云港市,德源药业,颗粒物(PM10),52,53,63,34,34,50,,26,26,42,62,10,10,0.3,0.4
2024-12-23T1300,3007A,119.178,34.844,连云港市,新城一中,颗粒物(PM10),58,66,71,33,52,70,,25,25,30,62,12,16,0.8,1.2
2024-12-23T1300,3008A,119.3608,34.7519,连云港市,胡沟管理处,颗粒物(PM10),51,51,49,31,27,51,,45,45,31,36,8,10,0.6,0.7
2024-12-23T1300,3009A,119.1478,34.5911,连云港市,矿山设计院,,49,48,80,34,47,57,,23,23,36,53,10,14,0.4,0.7
2024-12-23T1300,3434A,119.2413,34.6539,连云港市,工贸学校,,47,47,53,31,34,61,,46,46,33,28,12,12,0.3,0.4
2024-12-23T1300,3664A,119.4172,34.7341,连云港市,连云街道,颗粒物(PM10),61,71,52,35,28,34,,45,42,57,28,14,14,0.5,0.6
2024-12-23T1300,2572A,102.2721,27.8415,凉山彝族自治州,邛海宾馆,,45,45,30,29,18,59,,36,36,19,16,18,11,1.1,0.8
2024-12-23T1300,2573A,102.2625,27.898,凉山彝族自治州,西昌市政府,,46,46,32,28,20,63,,28,28,24,20,16,13,1.1,0.9
2024-12-23T1300,2574A,102.2685,27.8851,凉山彝族自治州,凉山州政府,,47,47,32,26,19,59,,36,35,25,19,16,12,0.9,0.7
2024-12-23T1300,2575A,102.237,27.8914,凉山彝族自治州,长安,颗粒物(PM10),56,62,47,30,23,55,,31,28,28,23,14,11,1.1,1
2024-12-23T1300,2212A,123.2,41.1953,辽阳市,宏伟区,,,18,50,13,30,57,,35,35,,36,8,17,,0.8
2024-12-23T1300,2213A,123.1683,41.2495,辽阳市,新华园,,28,22,58,19,36,59,,38,38,10,48,10,22,0.6,1.3
2024-12-23T1300,2214A,123.2354,41.2639,辽阳市,滨河路,,25,24,49,17,29,67,,48,48,12,40,10,22,0.6,1
2024-12-23T1300,2215A,123.149,41.2991,辽阳市,铁西工业园,,26,26,68,13,39,69,,41,41,11,42,6,19,0.3,1.2
2024-12-23T1300,2227A,125.1358,42.8845,辽源市,环保局,,28,27,59,19,38,63,,26,26,18,35,10,10,0.7,1.2
2024-12-23T1300,3239A,125.0764,42.9078,辽源市,银鹰制药,细颗粒物(PM2.5),63,58,65,45,47,69,,28,28,17,40,10,9,0.6,1
2024-12-23T1300,1625A,115.9848,36.4372,聊城市,区政府,颗粒物(PM10),52,53,70,35,47,73,,37,37,21,41,12,9,0.6,0.8
2024-12-23T1300,2878A,116.0072,36.4343,聊城市,聊大东校,,,63,81,41,54,,,27,27,,48,,8,,0.9
2024-12-23T1300,3200A,115.9819,36.4978,聊城市,监控中心,细颗粒物(PM2.5),62,51,67,44,46,71,,32,32,27,59,9,10,0.7,0.9
2024-12-23T1300,3513A,116.0445,36.4361,聊城市,九州社区,细颗粒物(PM2.5),58,55,69,41,51,75,,34,34,20,40,5,13,0.7,0.8
2024-12-23T1300,4018A,116.0567,36.4608,聊城市,星美广场,"颗粒物(PM10),细颗粒物(PM2.5)",55,60,79,39,49,75,,39,39,19,37,12,11,0.6,0.7
2024-12-23T1300,2632A,94.3681,29.6376,林芝市,林芝监测站,,21,12,13,3,5,65,,54,49,6,5,6,6,0.3,0.3
2024-12-23T1300,2633A,94.3616,29.6616,林芝市,林芝人民医院,,19,12,12,3,4,60,,53,47,6,4,6,6,0.3,0.3
2024-12-23T1300,2603A,100.0781,23.8982,临沧市,市环保局,,,,24,,22,70,,39,39,,15,7,6,0.5,0.6
2024-12-23T1300,2604A,100.0894,23.8822,临沧市,市气象局,,29,29,24,17,19,74,,34,34,14,15,7,7,0.4,0.6
2024-12-23T1300,1733A,111.5531,36.0783,临汾市,临钢医院,细颗粒物(PM2.5),139,162,89,106,53,32,,13,13,57,45,56,14,1.8,0.9
2024-12-23T1300,1734A,111.5028,36.0714,临汾市,技工学校,细颗粒物(PM2.5),109,139,104,82,65,38,,14,14,44,50,39,19,1.8,1.4
2024-12-23T1300,1736A,111.5018,36.0855,临汾市,市委,细颗粒物(PM2.5),107,126,114,80,61,41,,16,16,47,54,39,20,1.7,1.3
2024-12-23T1300,3018A,111.505,36.1014,临汾市,唐尧大酒店,细颗粒物(PM2.5),107,114,105,80,64,38,,14,14,42,50,39,21,1.6,1.2
2024-12-23T1300,3668A,111.5036,36.0414,临汾市,城南,细颗粒物(PM2.5),112,129,99,84,61,39,,12,12,49,50,48,15,1.8,1.2
2024-12-23T1300,2667A,103.2069,35.5993,临夏回族自治州,环保局,细颗粒物(PM2.5),134,126,197,102,123,39,,12,12,22,45,10,11,1.0,2.2
2024-12-23T1300,2668A,103.2417,35.6057,临夏回族自治州,建设大厦,细颗粒物(PM2.5),104,124,163,78,110,44,,20,18,17,36,11,13,1.1,1.7
2024-12-23T1300,1618A,118.3429,35.0532,临沂市,沂河小区,细颗粒物(PM2.5),64,68,76,46,49,58,,30,30,41,58,17,21,0.5,0.7
2024-12-23T1300,1619A,118.295,35.0583,临沂市,鲁南制药厂,"颗粒物(PM10),细颗粒物(PM2.5)",69,88,94,50,55,48,,21,21,53,63,18,24,0.7,0.8
2024-12-23T1300,1620A,118.2794,34.9976,临沂市,新光毛纺厂,细颗粒物(PM2.5),62,66,87,44,56,54,,22,22,48,63,13,19,0.9,1.1
2024-12-23T1300,1621A,118.3956,35.0888,临沂市,河东保险公司,细颗粒物(PM2.5),67,68,70,48,45,58,,27,27,33,50,13,14,0.5,0.6
2024-12-23T1300,3370A,118.3564,35.0215,临沂市,十里堡居委,细颗粒物(PM2.5),67,68,79,48,50,56,,29,29,38,52,18,23,0.8,0.9
2024-12-23T1300,3496A,118.3604,35.1084,临沂市,南坊新区,细颗粒物(PM2.5),70,80,71,51,44,54,,28,28,48,55,14,13,0.8,0.8
2024-12-23T1300,3860A,118.3920,35.0300,临沂市,皇山花园小区,细颗粒物(PM2.5),62,70,74,44,43,56,,25,25,46,60,14,14,0.7,0.7
2024-12-23T1300,1870A,109.4856,24.3895,柳州市,柳东小学,细颗粒物(PM2.5),118,113,90,89,68,101,,72,72,19,22,14,14,0.7,0.7
2024-12-23T1300,1871A,109.4157,24.3277,柳州市,环保监测站,细颗粒物(PM2.5),104,109,100,78,66,94,,69,69,25,26,15,17,0.8,0.8
2024-12-23T1300,1872A,109.389,24.341,柳州市,河西水厂,颗粒物(PM10),87,124,112,63,70,90,,61,61,23,28,16,31,1.0,1.1
2024-12-23T1300,1873A,109.4311,24.2921,柳州市,市四中,细颗粒物(PM2.5),95,95,77,71,64,102,,74,74,22,25,11,14,0.8,0.7
2024-12-23T1300,1874A,109.4006,24.3631,柳州市,市九中,细颗粒物(PM2.5),112,87,87,84,70,95,,65,65,20,28,11,14,1.0,1.1
2024-12-23T1300,1875A,109.4958,24.3134,柳州市,古亭山,细颗粒物(PM2.5),107,119,78,80,60,112,,77,77,21,21,15,15,1.0,1
2024-12-23T1300,3402A,109.5422,24.3996,柳州市,市二中,细颗粒物(PM2.5),100,86,79,75,66,96,,62,62,24,30,14,13,0.8,0.8
2024-12-23T1300,2307A,116.5079,31.737,六安市,监测大楼,细颗粒物(PM2.5),69,85,64,50,42,32,,31,29,41,33,7,7,0.7,0.6
2024-12-23T1300,2308A,116.4738,31.7643,六安市,皖西学院,细颗粒物(PM2.5),68,82,72,49,40,37,,27,27,42,37,7,6,0.8,0.7
2024-12-23T1300,2309A,116.4996,31.7905,六安市,朝阳厂,细颗粒物(PM2.5),68,62,62,49,39,39,,20,20,41,42,5,3,0.9,0.8
2024-12-23T1300,2310A,116.5567,31.7886,六安市,开发区,细颗粒物(PM2.5),70,87,82,51,47,42,,22,22,37,41,8,5,0.7,0.5
2024-12-23T1300,2576A,104.8,26.5892,六盘水市,窑上,细颗粒物(PM2.5),77,57,31,56,23,9,,24,15,25,16,8,6,1.6,0.9
2024-12-23T1300,2577A,104.83,26.5917,六盘水市,黄土坡,颗粒物(PM10),61,71,29,43,19,15,,21,15,26,18,20,9,1.6,1.1
2024-12-23T1300,2578A,104.89,26.5939,六盘水市,水钢,细颗粒物(PM2.5),82,,26,60,19,16,,28,21,21,15,8,6,1.3,0.9
2024-12-23T1300,2579A,104.8475,26.5894,六盘水市,民中,,,,21,,14,13,,24,17,23,16,11,8,,0.9
2024-12-23T1300,2580A,104.9544,26.5506,六盘水市,双水,,25,24,19,17,13,27,,32,27,13,11,9,8,0.9,0.8
2024-12-23T1300,2336A,117.0217,25.1033,龙岩市,龙岩市监测站,颗粒物(PM10),53,56,43,26,36,96,,80,80,16,20,9,12,0.6,0.7
2024-12-23T1300,2337A,117.0258,25.0661,龙岩市,闽西职业技术学院,颗粒物(PM10),52,53,53,28,35,95,,80,80,14,27,7,12,0.5,0.6
2024-12-23T1300,2338A,117.0196,25.0306,龙岩市,龙岩学院,,49,49,45,28,34,92,,71,71,16,21,10,13,0.5,0.5
2024-12-23T1300,2885A,104.9339,33.3826,陇南市,滨江中学,,37,37,42,17,22,50,,42,42,17,22,7,46,0.5,0.6
2024-12-23T1300,3247A,104.955,33.371,陇南市,市总工会,,46,46,40,22,19,54,,47,47,18,20,7,22,0.3,0.3
2024-12-23T1300,2487A,111.9589,27.8901,娄底市,电视发射台,细颗粒物(PM2.5),73,57,56,53,48,57,,64,56,21,19,9,10,0.6,0.6
2024-12-23T1300,2488A,111.9975,27.725,娄底市,市监测站,细颗粒物(PM2.5),94,92,81,70,54,53,,60,51,21,17,13,9,0.5,0.5
2024-12-23T1300,2489A,112.0194,27.7314,娄底市,市委党校,细颗粒物(PM2.5),87,96,81,64,53,48,,55,47,34,29,12,9,0.7,0.6
2024-12-23T1300,2490A,111.9561,27.7569,娄底市,涟钢,细颗粒物(PM2.5),83,93,85,61,58,57,,54,49,19,22,3,4,0.5,1.2
2024-12-23T1300,2491A,111.9892,27.7044,娄底市,市政府,细颗粒物(PM2.5),94,92,79,70,57,49,,57,46,31,25,12,8,1.1,0.7
2024-12-23T1300,1894A,105.4427,28.9063,泸州市,小市上码头,"颗粒物(PM10),细颗粒物(PM2.5)",52,54,60,36,50,60,,38,38,18,23,3,2,0.5,0.5
2024-12-23T1300,1895A,105.4241,28.8573,泸州市,兰田宪桥,,45,38,57,31,51,60,,32,32,16,22,3,2,0.7,0.7
2024-12-23T1300,1896A,105.4379,28.8833,泸州市,市环监站,,48,43,58,33,46,57,,31,31,17,20,5,4,0.6,0.6
2024-12-23T1300,3490A,105.3617,28.7703,泸州市,纳溪区环保局,细颗粒物(PM2.5),52,49,57,36,48,41,,19,16,15,22,6,4,0.6,0.6
2024-12-23T1300,2183A,111.1406,37.5211,吕梁市,环保局,,,,91,,32,32,,12,12,,48,12,6,,0.7
2024-12-23T1300,2185A,111.1297,37.5136,吕梁市,自来水公司,颗粒物(PM10),61,71,114,32,39,33,,13,13,33,43,11,11,1.0,0.8
2024-12-23T1300,2867A,111.1283,37.51,吕梁市,马茂庄小学,颗粒物(PM10),63,75,102,29,35,25,,12,12,45,48,12,8,1.2,0.7
2024-12-23T1300,1812A,112.3931,34.6516,洛阳市,市委党校,细颗粒物(PM2.5),85,116,119,63,63,52,,17,17,32,48,19,12,1.0,1.1
2024-12-23T1300,1814A,112.4657,34.6871,洛阳市,豫西宾馆,细颗粒物(PM2.5),104,125,131,78,77,57,,23,23,37,49,15,13,0.9,0.9
2024-12-23T1300,1815A,112.494,34.6886,洛阳市,河南林校,细颗粒物(PM2.5),108,92,114,81,100,56,,18,18,24,47,14,7,0.7,0.8
2024-12-23T1300,1816A,112.3844,34.623,洛阳市,开发区管委会,细颗粒物(PM2.5),118,113,118,89,87,59,,24,24,25,42,20,11,0.8,0.8
2024-12-23T1300,1817A,112.4267,34.6258,洛阳市,市委新办公区,细颗粒物(PM2.5),98,114,125,73,83,68,,28,28,22,44,19,9,0.5,0.6
2024-12-23T1300,3340A,112.6005,34.6326,洛阳市,伊滨,颗粒物(PM10),97,144,147,51,74,62,,20,20,26,42,14,7,0.6,0.8
2024-12-23T1300,3341A,112.4951,34.6332,洛阳市,中移产业园,颗粒物(PM10),65,80,109,42,64,64,,23,23,26,50,19,11,0.6,0.8
2024-12-23T1300,3593A,112.5736,34.8993,洛阳市,吉利监测站,细颗粒物(PM2.5),108,104,92,81,70,59,,21,21,27,47,20,9,0.6,0.7
2024-12-23T1300,3635A,112.3677,34.662,洛阳市,河科大西苑校区,细颗粒物(PM2.5),115,131,127,87,78,54,,22,22,36,46,17,13,0.8,0.9
2024-12-23T1300,3636A,112.4388,34.6781,洛阳市,英才小学,细颗粒物(PM2.5),97,121,126,72,76,49,,13,13,37,51,14,13,0.7,0.8
2024-12-23T1300,2399A,114.051,33.5699,漯河市,三五一五工厂,,,,71,61,51,,,34,32,17,28,11,10,0.4,0.5
2024-12-23T1300,2400A,114.0055,33.5698,漯河市,漯河大学,颗粒物(PM10),72,93,73,46,45,71,,52,52,19,24,9,7,0.3,0.3
2024-12-23T1300,2401A,114.0138,33.5828,漯河市,市水利局,细颗粒物(PM2.5),64,63,69,46,44,70,,50,50,12,19,10,9,0.8,0.7
2024-12-23T1300,2402A,114.0261,33.5698,漯河市,市广电局,细颗粒物(PM2.5),68,63,65,49,49,70,,44,44,17,27,9,9,0.5,0.5
2024-12-23T1300,3478A,113.9749,33.5664,漯河市,市图书馆,颗粒物(PM10),66,82,74,47,47,68,,45,45,23,33,9,7,0.3,0.3
2024-12-23T1300,3479A,114.0967,33.5906,漯河市,召陵区卫健委,颗粒物(PM10),64,77,84,45,57,69,,32,32,15,29,11,12,0.4,0.5
2024-12-23T1300,1798A,118.5092,31.6837,马鞍山市,湖东路四小,,45,45,62,26,37,55,,35,35,27,33,5,3,1.1,0.8
2024-12-23T1300,1799A,118.5024,31.6449,马鞍山市,开发区,细颗粒物(PM2.5),58,55,66,41,51,53,,35,33,30,35,8,7,0.8,0.7
2024-12-23T1300,1800A,118.5228,31.7231,马鞍山市,慈湖,颗粒物(PM10),51,51,59,35,44,56,,37,36,27,36,8,5,1.3,1
2024-12-23T1300,1802A,118.6245,31.7241,马鞍山市,濮塘,细颗粒物(PM2.5),52,51,60,36,45,56,,34,34,25,26,10,7,0.6,0.8
2024-12-23T1300,3633A,118.4918,31.6809,马鞍山市,雨山,颗粒物(PM10),53,56,67,35,43,53,,34,34,25,31,8,8,1.1,0.8
2024-12-23T1300,1686A,111.0286,21.4688,茂名市,电白南海,颗粒物(PM10),64,78,73,41,41,108,,92,92,18,22,10,12,0.8,0.8
2024-12-23T1300,1687A,110.9294,21.6533,茂名市,茂石化七小,,,90,68,61,44,102,,74,72,21,20,,17,0.7,0.7
2024-12-23T1300,1688A,110.9107,21.6687,茂名市,健康路,细颗粒物(PM2.5),70,70,62,51,43,119,,80,80,17,22,20,23,0.7,0.8
2024-12-23T1300,1689A,110.8592,21.6828,茂名市,高岭,"颗粒物(PM10),细颗粒物(PM2.5)",52,53,73,36,47,123,,74,74,14,27,16,26,1.0,0.8
2024-12-23T1300,3450A,111.01,21.5165,茂名市,电白水东,细颗粒物(PM2.5),64,61,64,46,42,109,,88,88,14,18,12,15,0.6,0.6
2024-12-23T1300,2539A,104.0308,30.0478,眉山市,黑龙滩水库,颗粒物(PM10),68,86,71,45,37,27,,28,26,13,11,1,1,0.6,0.6
2024-12-23T1300,2540A,103.8416,30.0874,眉山市,气象局,细颗粒物(PM2.5),83,,51,61,47,21,,26,15,20,22,3,3,0.8,0.7
2024-12-23T1300,3137A,103.8578,30.0744,眉山市,市委党校,细颗粒物(PM2.5),77,66,48,56,44,23,,25,17,23,27,5,4,0.7,0.6
2024-12-23T1300,3148A,103.8291,30.0564,眉山市,区人社局,细颗粒物(PM2.5),77,,43,56,46,25,,28,18,27,29,4,4,0.7,0.7
2024-12-23T1300,1690A,116.1231,24.3284,梅州市,梅江月梅,细颗粒物(PM2.5),59,56,53,42,38,68,,49,49,29,35,12,11,0.6,0.5
2024-12-23T1300,1691A,116.0797,24.2719,梅州市,梅县新城,细颗粒物(PM2.5),57,60,58,40,39,82,,70,70,22,30,8,7,0.7,0.7
2024-12-23T1300,1692A,116.1248,24.2654,梅州市,环境监控中心,细颗粒物(PM2.5),59,58,63,42,42,68,,38,38,27,47,9,8,0.6,0.6
2024-12-23T1300,3315A,116.1233,24.2991,梅州市,梅龙,"颗粒物(PM10),细颗粒物(PM2.5)",57,63,60,40,39,73,,52,52,26,36,9,11,0.7,0.7
2024-12-23T1300,1878A,104.7778,31.4741,绵阳市,富乐山,细颗粒物(PM2.5),75,68,57,55,47,42,,36,36,16,15,2,2,0.7,0.7
2024-12-23T1300,1879A,104.7563,31.4535,绵阳市,市人大,细颗粒物(PM2.5),82,74,63,60,51,38,,43,36,18,17,2,4,0.7,0.7
2024-12-23T1300,1880A,104.6697,31.4668,绵阳市,高新区自来水公司,,,80,58,68,51,49,,45,40,20,21,,2,0.7,0.7
2024-12-23T1300,1881A,104.7287,31.5075,绵阳市,三水厂,细颗粒物(PM2.5),88,72,55,65,52,33,,44,31,27,22,4,4,0.6,0.6
2024-12-23T1300,3491A,104.69,31.5322,绵阳市,西科大附属小学,细颗粒物(PM2.5),89,78,56,66,51,39,,41,35,26,17,5,4,0.6,0.6
2024-12-23T1300,3492A,104.5648,31.5343,绵阳市,安州区旅游局,细颗粒物(PM2.5),98,,55,73,56,40,,41,35,25,19,9,8,0.8,0.8
2024-12-23T1300,1784A,129.61,44.561,牡丹江市,环保大楼,,35,35,43,16,30,66,,47,47,8,29,6,8,0.4,0.6
2024-12-23T1300,1785A,129.6115,44.5782,牡丹江市,文化广场,,31,31,42,15,30,69,,52,52,11,28,7,9,0.5,0.7
2024-12-23T1300,1786A,129.5904,44.5963,牡丹江市,第一医院,,50,,38,35,38,72,,53,53,6,21,6,7,0.5,0.7
2024-12-23T1300,1787A,129.6364,44.6075,牡丹江市,机车工厂,,24,21,47,16,29,74,,47,47,5,27,8,12,0.4,0.7
2024-12-23T1300,1788A,129.6386,44.5462,牡丹江市,第一中学,,35,35,42,14,32,68,,46,46,8,33,5,6,0.4,0.6
2024-12-23T1300,2531A,105.0703,29.61,内江市,市监测站,细颗粒物(PM2.5),110,,59,83,69,46,,25,22,19,23,6,6,0.6,0.7
2024-12-23T1300,2532A,105.0717,29.5947,内江市,东兴区政府,细颗粒物(PM2.5),92,,62,68,60,41,,26,22,23,24,4,4,0.7,0.7
2024-12-23T1300,2533A,105.0653,29.5817,内江市,内江二中,细颗粒物(PM2.5),104,,69,78,69,44,,26,23,23,24,8,7,0.8,0.8
2024-12-23T1300,2534A,105.0406,29.5822,内江市,内江日报社,细颗粒物(PM2.5),97,,70,72,60,38,,24,20,29,31,8,8,0.8,0.8
2024-12-23T1300,2628A,92.0657,31.4846,那曲市,那曲监测站,颗粒物(PM10),60,69,40,38,21,70,,38,38,21,23,14,14,0.9,1.2
2024-12-23T1300,3128A,92.0506,31.4797,那曲市,那曲会议中心,,39,39,37,14,20,77,,36,36,11,15,4,5,0.8,1.2
2024-12-23T1300,1290A,115.8931,28.6843,南昌市,省外办,细颗粒物(PM2.5),85,85,75,63,54,52,,39,39,31,35,8,9,0.6,0.7
2024-12-23T1300,1291A,115.8886,28.7003,南昌市,省林业公司,细颗粒物(PM2.5),67,78,75,48,48,48,,38,38,26,27,11,12,0.7,0.6
2024-12-23T1300,1292A,115.8126,28.7442,南昌市,林科所,,,73,68,,43,60,,47,47,,29,11,11,0.6,0.5
2024-12-23T1300,1294A,115.8518,28.687,南昌市,建工学校,细颗粒物(PM2.5),62,72,75,44,40,47,,37,37,30,28,11,11,0.8,0.7
2024-12-23T1300,1295A,115.8921,28.6424,南昌市,象湖,细颗粒物(PM2.5),79,66,65,58,50,53,,40,40,30,32,11,11,0.4,0.4
2024-12-23T1300,1296A,115.7423,28.7996,南昌市,武术学校,细颗粒物(PM2.5),74,77,61,54,40,53,,40,40,20,22,3,3,0.7,0.6
2024-12-23T1300,1298A,115.9314,28.6842,南昌市,省站,细颗粒物(PM2.5),83,94,81,61,51,51,,39,39,32,34,11,11,0.6,0.6
2024-12-23T1300,3046A,115.9084,28.6062,南昌市,机电学校,细颗粒物(PM2.5),79,88,85,58,50,52,,36,36,26,30,12,12,0.3,0.3
2024-12-23T1300,3690A,115.9721,28.7031,南昌市,外国语学校,,,85,80,56,43,45,,36,36,,31,8,11,,0.6
2024-12-23T1300,1905A,106.056,30.8064,南充市,西山风景区,细颗粒物(PM2.5),80,59,61,59,58,18,,20,15,17,13,1,2,0.5,0.5
2024-12-23T1300,1906A,106.0789,30.8023,南充市,南充市委,细颗粒物(PM2.5),90,78,75,67,69,23,,19,14,26,21,3,2,0.6,0.5
2024-12-23T1300,1907A,106.1031,30.8217,南充市,南充炼油厂,细颗粒物(PM2.5),84,76,78,62,71,26,,23,17,22,19,4,3,0.2,0.2
2024-12-23T1300,1908A,106.1064,30.7856,南充市,高坪区监测站,细颗粒物(PM2.5),93,87,79,69,67,24,,22,21,30,21,3,2,0.5,0.4
2024-12-23T1300,1909A,106.0642,30.7636,南充市,嘉陵区环保局,细颗粒物(PM2.5),98,86,82,73,67,14,,,,30,26,3,3,0.8,0.7
2024-12-23T1300,1910A,106.1087,30.8388,南充市,市环境监测站,细颗粒物(PM2.5),90,83,83,67,65,24,,19,17,18,15,4,4,0.5,0.5
2024-12-23T1300,1151A,118.8086,32.1065,南京市,迈皋桥,颗粒物(PM10),55,59,56,36,34,42,,26,26,50,65,10,8,1.1,0.9
2024-12-23T1300,1152A,118.7538,32.0551,南京市,草场门,细颗粒物(PM2.5),55,58,61,39,37,43,,22,22,38,51,11,7,0.5,0.3
2024-12-23T1300,1153A,118.7794,32.0745,南京市,山西路,"颗粒物(PM10),细颗粒物(PM2.5)",62,73,66,44,40,48,,24,24,43,57,4,4,0.7,0.5
2024-12-23T1300,1154A,118.7752,32.0023,南京市,中华门,颗粒物(PM10),53,56,56,31,36,48,,25,25,14,24,7,5,0.9,0.8
2024-12-23T1300,1155A,118.8109,32.0309,南京市,瑞金路,颗粒物(PM10),57,63,63,36,38,48,,25,25,31,45,9,6,0.9,0.9
2024-12-23T1300,1156A,118.7997,32.0754,南京市,玄武湖,颗粒物(PM10),57,64,64,39,35,33,,14,14,39,46,12,9,0.3,0.2
2024-12-23T1300,1157A,118.6414,32.0931,南京市,浦口,颗粒物(PM10),55,60,62,36,36,54,,29,29,18,28,9,9,0.7,0.6
2024-12-23T1300,1158A,118.7356,31.9996,南京市,奥体中心,颗粒物(PM10),56,61,64,27,36,58,,32,32,37,49,13,10,0.7,0.6
2024-12-23T1300,1159A,118.9125,32.1028,南京市,仙林大学城,,,58,61,,38,42,,21,21,34,46,,7,0.8,0.6
2024-12-23T1300,3422A,118.8436,31.9198,南京市,江宁彩虹桥,颗粒物(PM10),60,70,60,29,34,45,,32,32,34,39,14,8,0.7,0.4
2024-12-23T1300,3423A,119.0138,31.6494,南京市,溧水永阳,细颗粒物(PM2.5),55,56,59,39,45,45,,31,31,32,35,4,4,0.8,0.7
2024-12-23T1300,3424A,118.879,31.3302,南京市,高淳老职中,细颗粒物(PM2.5),60,52,62,43,50,49,,26,24,31,35,9,6,0.7,0.5
2024-12-23T1300,3427A,118.8554,32.3578,南京市,六合雄州,颗粒物(PM10),55,59,55,33,32,53,,38,38,14,21,8,7,0.5,0.5
2024-12-23T1300,1401A,108.3103,22.7881,南宁市,二十一中,细颗粒物(PM2.5),97,86,81,72,72,123,,91,86,30,31,9,10,1.0,1
2024-12-23T1300,1402A,108.3141,22.8528,南宁市,北湖,细颗粒物(PM2.5),110,96,91,83,71,111,,54,54,33,44,11,13,1.1,1.1
2024-12-23T1300,1403A,108.3206,22.8225,南宁市,市监测站,细颗粒物(PM2.5),93,87,85,69,72,115,,80,77,32,37,13,15,1.1,1.1
2024-12-23T1300,1404A,108.3829,22.8037,南宁市,大自然花园,细颗粒物(PM2.5),97,83,81,72,70,116,,85,85,25,28,9,11,0.7,0.8
2024-12-23T1300,1405A,108.4394,22.7904,南宁市,仙葫,细颗粒物(PM2.5),82,68,72,60,64,110,,84,84,16,22,9,9,1.0,1
2024-12-23T1300,1406A,108.2397,22.8467,南宁市,区农职院,细颗粒物(PM2.5),97,89,84,72,62,111,,62,62,23,31,14,13,0.9,0.9
2024-12-23T1300,1407A,108.3275,22.735,南宁市,英华嘉园,细颗粒物(PM2.5),93,91,79,69,66,117,,84,84,23,25,12,12,0.9,0.9
2024-12-23T1300,1408A,108.2257,22.7757,南宁市,沙井镇街道办,细颗粒物(PM2.5),103,88,102,77,71,104,,38,38,40,65,17,13,0.8,0.8
2024-12-23T1300,3401A,108.4834,22.7618,南宁市,红星社区,细颗粒物(PM2.5),75,,82,55,68,119,,90,90,17,28,12,13,1.0,1
2024-12-23T1300,2332A,118.1681,26.6369,南平市,南平市监测站,,42,34,48,29,37,91,,56,56,13,25,6,6,0.5,0.6
2024-12-23T1300,2333A,118.1825,26.6489,南平市,南平铝业有限公司,,46,46,48,18,38,92,,49,49,12,30,7,7,0.6,0.7
2024-12-23T1300,2334A,118.1756,26.6272,南平市,南平七中,颗粒物(PM10),52,53,48,26,38,92,,55,55,13,21,3,4,0.3,0.5
2024-12-23T1300,1168A,120.9098,31.9663,南通市,狼山街道,,49,47,40,34,26,57,,51,49,19,17,7,7,0.6,0.5
2024-12-23T1300,1169A,120.86,32.0005,南通市,虹桥,颗粒物(PM10),51,52,34,31,24,52,,49,44,22,21,6,5,0.6,0.5
2024-12-23T1300,1170A,120.87,32.02,南通市,城中,颗粒物(PM10),54,58,44,30,24,56,,48,45,20,21,8,7,0.6,0.6
2024-12-23T1300,1171A,120.94,31.93,南通市,星湖花园,,43,43,37,30,24,51,,47,46,25,23,5,5,0.6,0.5
2024-12-23T1300,1172A,120.81,32.0417,南通市,紫琅学院,,39,39,37,21,22,52,,40,40,24,28,4,3,0.7,0.6
2024-12-23T1300,3291A,121.067,32.062,南通市,通州监测站,,41,41,39,19,24,70,,56,53,19,20,2,3,0.6,0.6
2024-12-23T1300,3432A,120.9348,31.9883,南通市,环境教育馆,,45,44,39,31,25,59,,44,44,14,17,4,4,0.7,0.6
2024-12-23T1300,2404A,112.5224,33.0122,南阳市,瓦房庄,细颗粒物(PM2.5),73,83,77,53,49,67,,42,38,23,25,9,8,0.7,0.7
2024-12-23T1300,2405A,112.5003,32.9735,南阳市,汉画馆,细颗粒物(PM2.5),77,80,75,56,54,70,,37,36,20,26,8,7,0.4,0.4
2024-12-23T1300,2406A,112.5573,33.027,南阳市,气象站,颗粒物(PM10),73,95,81,48,41,64,,52,52,25,21,9,8,0.6,0.5
2024-12-23T1300,2407A,112.5481,32.9689,南阳市,理工学院,颗粒物(PM10),60,70,63,42,36,68,,,,22,22,9,8,0.3,0.5
2024-12-23T1300,4008A,112.5234,32.9922,南阳市,卧龙区政府,细颗粒物(PM2.5),70,79,72,51,43,68,,42,40,21,25,7,6,0.7,0.7
2024-12-23T1300,1234A,121.8358,29.911,宁波市,区环保大楼,颗粒物(PM10),56,62,62,29,37,24,,12,9,52,50,8,10,0.7,0.8
2024-12-23T1300,1235A,121.56,29.82,宁波市,万里学院,细颗粒物(PM2.5),64,70,66,46,44,27,,18,15,41,43,6,5,0.7,0.7
2024-12-23T1300,1236A,121.713,29.9572,宁波市,龙赛医院,,42,42,62,25,36,37,,10,10,36,46,8,8,0.4,0.6
2024-12-23T1300,1239A,121.633,29.7733,宁波市,钱湖水厂,,,67,76,38,48,22,,9,9,43,46,,6,0.9,0.9
2024-12-23T1300,1240A,121.5856,29.8635,宁波市,太古小学,细颗粒物(PM2.5),68,75,69,49,44,24,,18,16,46,43,9,8,0.8,0.8
2024-12-23T1300,1241A,121.524,29.8674,宁波市,市环境监测中心,细颗粒物(PM2.5),60,61,63,43,45,23,,13,13,40,41,8,8,0.8,0.7
2024-12-23T1300,2871A,121.6147,29.9017,宁波市,万里国际学校,颗粒物(PM10),60,69,65,37,42,14,,8,8,52,49,8,8,0.7,0.8
2024-12-23T1300,3710A,121.5594,29.8975,宁波市,白沙活动中心,,,62,60,42,41,25,,18,15,43,43,,9,0.8,0.7
2024-12-23T1300,2341A,119.5388,26.6612,宁德市,宁德市监测站,颗粒物(PM10),61,72,43,29,38,54,,37,37,28,27,4,6,0.3,0.4
2024-12-23T1300,3209A,119.5231,26.6562,宁德市,宁德一中,,45,45,43,29,35,63,,53,43,23,19,3,4,0.4,0.4
2024-12-23T1300,2618A,98.8601,25.8567,怒江傈僳族自治州,州监测站,,24,24,28,9,15,64,,50,50,13,12,3,5,0.3,0.3
2024-12-23T1300,2619A,98.8546,25.8417,怒江傈僳族自治州,泸水一中,,22,22,28,11,18,55,,32,32,12,20,7,7,0.3,0.5
2024-12-23T1300,1888A,101.6891,26.571,攀枝花市,弄弄坪,,38,38,55,17,20,69,,27,27,19,40,21,32,1.1,2.2
2024-12-23T1300,1889A,101.5769,26.5928,攀枝花市,河门口,,23,17,31,11,14,72,,33,33,14,29,10,12,0.7,0.7
2024-12-23T1300,1890A,101.7169,26.585,攀枝花市,炳草岗,,49,49,55,24,20,60,,19,19,39,43,58,23,2.5,1.4
2024-12-23T1300,1891A,101.7369,26.5008,攀枝花市,仁和,,42,42,22,23,12,77,,40,38,31,22,44,10,2.1,0.7
2024-12-23T1300,2835A,101.7227,26.567,攀枝花市,四十中小,颗粒物(PM10),60,69,44,33,22,61,,20,20,41,37,50,16,2.6,1.1
2024-12-23T1300,1604A,122.0303,41.1489,盘锦市,开发区,,27,27,41,10,26,74,,58,58,7,33,8,11,1.0,1.1
2024-12-23T1300,1605A,122.0485,41.0883,盘锦市,兴隆台,,29,29,38,10,26,73,,58,58,11,36,12,13,0.5,0.7
2024-12-23T1300,1606A,121.8297,41.1028,盘锦市,新生街道,,45,45,25,10,17,76,,39,39,12,42,10,13,0.4,0.5
2024-12-23T1300,1832A,113.3257,33.742,平顶山市,新华旅馆,细颗粒物(PM2.5),72,86,91,52,53,63,,40,40,24,32,16,11,0.6,0.6
2024-12-23T1300,1833A,113.2919,33.737,平顶山市,规划设计院,细颗粒物(PM2.5),83,87,84,61,51,61,,54,54,20,20,9,8,0.4,0.4
2024-12-23T1300,1834A,113.182,33.774,平顶山市,平顶山工学院,颗粒物(PM10),71,92,93,51,48,76,,42,42,11,24,10,9,0.7,0.6
2024-12-23T1300,3204A,113.3025,33.73,平顶山市,规划局,细颗粒物(PM2.5),87,97,87,64,58,54,,45,45,28,25,10,9,0.3,0.4
2024-12-23T1300,3594A,112.8867,33.9116,平顶山市,石龙区,细颗粒物(PM2.5),105,112,122,79,70,64,,27,27,19,31,13,10,1.0,0.7
2024-12-23T1300,2656A,106.6692,35.5461,平凉市,聚贤嘉苑,颗粒物(PM10),75,100,66,46,40,43,,44,36,39,36,20,18,0.9,0.7
2024-12-23T1300,2657A,106.7021,35.5307,平凉市,博物馆,,,86,64,49,38,48,,60,55,,26,16,20,0.8,0.7
2024-12-23T1300,2347A,114.0997,27.5002,萍乡市,武功山,,,86,90,,66,64,,58,58,21,19,15,13,,0.3
2024-12-23T1300,2348A,113.8385,27.6434,萍乡市,中医院,细颗粒物(PM2.5),74,93,100,54,60,60,,61,48,26,23,17,18,0.8,0.8
2024-12-23T1300,2349A,113.8493,27.6253,萍乡市,市政府车库,细颗粒物(PM2.5),82,75,90,60,72,63,,57,49,23,23,18,21,0.8,0.9
2024-12-23T1300,2350A,113.8676,27.6435,萍乡市,市环保局,,,,101,,73,63,,58,50,,22,22,23,0.7,0.8
2024-12-23T1300,2351A,113.866,27.6198,萍乡市,安源区政府,细颗粒物(PM2.5),78,99,101,57,69,61,,53,47,25,27,21,20,1.1,1
2024-12-23T1300,2319A,119.0141,25.4325,莆田市,荔城区仓后路,,24,23,39,7,22,75,,74,69,5,10,1,2,0.1,0.2
2024-12-23T1300,2320A,119.0015,25.4553,莆田市,莆田市监测站,,30,30,35,3,20,80,,77,74,7,12,3,3,0.2,0.4
2024-12-23T1300,2321A,119.1119,25.4561,莆田市,涵江区六中,,31,31,40,7,18,78,,70,68,8,13,3,3,0.4,0.4
2024-12-23T1300,2322A,119.1013,25.3215,莆田市,秀屿区政府,,31,31,43,13,23,75,,65,63,8,13,1,2,0.5,0.5
2024-12-23T1300,2392A,115.0312,35.7636,濮阳市,环保局,,44,44,57,28,32,72,,36,36,17,27,4,3,0.2,0.3
2024-12-23T1300,2394A,115.0574,35.7609,濮阳市,油田运输公司,颗粒物(PM10),56,61,69,28,37,69,,29,29,20,38,4,2,0.5,0.5
2024-12-23T1300,2395A,115.0866,35.7754,濮阳市,油田物探公司,颗粒物(PM10),52,54,64,28,35,73,,37,37,18,34,5,4,0.5,0.6
2024-12-23T1300,3021A,115,35.7668,濮阳市,濮水河管理处,,,62,68,26,36,,,23,21,14,26,6,4,,0.4
2024-12-23T1300,2601A,100.98,22.7633,普洱市,市环保局,,40,40,38,16,22,69,,39,39,6,7,5,5,0.4,0.5
2024-12-23T1300,2602A,100.9817,22.8322,普洱市,普洱第二中学,,,28,34,16,20,,,38,,5,7,8,8,0.5,0.6
2024-12-23T1300,2262A,131.0518,45.8751,七台河市,新一中,,35,29,50,24,38,77,,63,63,12,20,10,10,1.5,1.7
2024-12-23T1300,3345A,131.0577,45.7879,七台河市,中波台,细颗粒物(PM2.5),53,49,68,37,56,62,,45,45,19,37,11,10,0.7,0.8
2024-12-23T1300,3637A,131.0176,45.7761,七台河市,人民广场,细颗粒物(PM2.5),80,87,91,59,67,61,,37,37,25,46,14,9,0.6,0.8
2024-12-23T1300,3684A,130.8781,45.8222,七台河市,新建矿广场,细颗粒物(PM2.5),75,,75,55,68,61,,40,40,21,43,12,11,0.7,0.8
2024-12-23T1300,1779A,123.9305,47.3636,齐齐哈尔市,安居小区,,22,19,30,7,17,69,,54,54,8,21,6,7,0.4,0.5
2024-12-23T1300,1780A,123.9488,47.3386,齐齐哈尔市,中心广场,,20,16,19,12,13,63,,59,56,12,17,2,3,0.5,0.5
2024-12-23T1300,1781A,123.9483,47.3227,齐齐哈尔市,农牧车辆厂,,22,14,22,6,14,70,,60,60,8,19,4,5,0.2,0.3
2024-12-23T1300,1783A,123.945,47.2988,齐齐哈尔市,市环境监测站,,22,17,29,10,18,69,,63,62,9,21,4,4,0.4,0.6
2024-12-23T1300,3662A,123.6333,47.2075,齐齐哈尔市,富区青少年活动中心,,,27,30,15,11,68,,58,57,,18,7,8,0.3,0.5
2024-12-23T1300,2591A,107.9783,26.5747,黔东南苗族侗族自治州,市环境监测站,细颗粒物(PM2.5),95,85,85,71,69,60,,58,54,26,24,5,6,0.6,0.5
2024-12-23T1300,2881A,107.8908,26.5311,黔东南苗族侗族自治州,凯里学院,细颗粒物(PM2.5),80,83,90,59,59,71,,60,60,21,23,4,6,0.6,0.6
2024-12-23T1300,2593A,107.5228,26.2403,黔南布依族苗族自治州,小围寨,细颗粒物(PM2.5),92,70,75,68,59,47,,48,44,20,19,8,7,0.8,0.8
2024-12-23T1300,3538A,107.5175,26.2978,黔南布依族苗族自治州,沙坝,细颗粒物(PM2.5),98,75,84,73,66,46,,55,47,24,24,7,7,0.7,0.6
2024-12-23T1300,2589A,104.9022,25.0925,黔西南布依族苗族自治州,场坝街,细颗粒物(PM2.5),68,67,73,49,61,55,,70,65,15,12,2,3,0.7,0.6
2024-12-23T1300,2590A,104.8811,25.0992,黔西南布依族苗族自治州,坪东大道,细颗粒物(PM2.5),63,66,65,45,62,50,,70,63,17,12,4,3,0.8,0.7
2024-12-23T1300,2502A,108.6236,21.9667,钦州市,市环保站,细颗粒物(PM2.5),89,117,131,66,76,120,,75,75,24,36,13,14,1.1,1.2
2024-12-23T1300,2503A,108.6549,21.9481,钦州市,沙埠小学,细颗粒物(PM2.5),98,107,111,73,78,131,,81,81,25,39,11,13,0.9,0.9
2024-12-23T1300,2504A,108.5989,21.7431,钦州市,港区一小,细颗粒物(PM2.5),99,117,124,74,74,122,,72,72,26,46,14,14,1.0,1
2024-12-23T1300,3404A,108.5959,21.9633,钦州市,北职校,细颗粒物(PM2.5),105,114,102,79,82,120,,67,67,25,37,12,12,1.1,1.3
2024-12-23T1300,1042A,119.5134,39.8207,秦皇岛市,北戴河环保局,,23,19,49,11,27,71,,34,34,10,39,4,4,0.3,0.9
2024-12-23T1300,1043A,119.7493,40.0116,秦皇岛市,第一关,,41,41,56,28,37,60,,25,25,18,58,16,8,0.5,0.7
2024-12-23T1300,1044A,119.5897,39.9499,秦皇岛市,监测站,,28,28,55,15,30,58,,20,20,23,52,15,9,0.5,1
2024-12-23T1300,1046A,119.5251,39.9041,秦皇岛市,建设大厦,,30,30,52,17,31,61,,22,22,17,45,12,7,0.4,0.8
2024-12-23T1300,3132A,119.610547,39.943889,秦皇岛市,文明里,,50,50,64,21,33,64,,23,23,19,55,14,9,0.3,0.8
2024-12-23T1300,1307A,120.6659,36.2403,青岛市,仰口,细颗粒物(PM2.5),107,,25,80,23,65,,71,70,25,14,14,11,0.8,0.7
2024-12-23T1300,1310A,120.4134,36.0658,青岛市,市南区东部子站,细颗粒物(PM2.5),113,132,65,85,35,52,,30,30,56,54,23,16,1.1,0.8
2024-12-23T1300,1311A,120.3664,36.1032,青岛市,四方区子站,细颗粒物(PM2.5),153,146,62,117,44,50,,26,26,74,62,24,17,1.2,0.9
2024-12-23T1300,1312A,120.2994,36.054,青岛市,市南区西部子站,细颗粒物(PM2.5),108,110,58,81,34,52,,24,24,46,45,20,14,1.0,0.9
2024-12-23T1300,1313A,120.4581,36.0858,青岛市,崂山区子站,细颗粒物(PM2.5),107,114,54,80,33,61,,36,36,51,46,21,15,1.0,0.8
2024-12-23T1300,1314A,120.1983,35.9608,青岛市,黄岛区子站,颗粒物(PM10),57,63,48,39,30,64,,37,37,31,52,12,12,0.8,0.8
2024-12-23T1300,1315A,120.3999,36.3083,青岛市,城阳区子站,细颗粒物(PM2.5),83,107,71,61,40,66,,28,28,41,57,18,13,1.1,1.2
2024-12-23T1300,1966A,120.0405,35.8735,青岛市,黄岛区4号,颗粒物(PM10),58,66,58,39,33,65,,41,41,30,42,15,12,0.7,0.7
2024-12-23T1300,3362A,120.5014,36.4034,青岛市,即墨2号,细颗粒物(PM2.5),73,74,92,53,64,60,,24,24,35,65,15,22,0.8,1.3
2024-12-23T1300,3642A,120.3503,36.0736,青岛市,市北区南部,细颗粒物(PM2.5),125,102,61,95,37,58,,26,26,56,60,16,16,1.0,0.8
2024-12-23T1300,3643A,120.3948,36.1805,青岛市,李沧区北部,细颗粒物(PM2.5),140,144,68,107,47,50,,29,29,70,56,24,18,1.4,1
2024-12-23T1300,1702A,113.0426,23.691,清远市,环保大楼,,50,49,50,35,37,122,,99,99,11,15,8,9,0.7,0.7
2024-12-23T1300,1703A,113.0208,23.7106,清远市,凤城街办,细颗粒物(PM2.5),70,63,58,51,42,111,,97,97,15,20,12,12,0.6,0.6
2024-12-23T1300,3025A,113.0477,23.6344,清远市,技师学院,"颗粒物(PM10),细颗粒物(PM2.5)",59,67,59,42,38,112,,92,92,19,23,10,12,0.7,0.7
2024-12-23T1300,3318A,112.9903,23.7403,清远市,清新太和,细颗粒物(PM2.5),59,61,57,42,37,115,,98,98,13,20,12,11,0.7,0.8
2024-12-23T1300,3455A,113.076,23.7198,清远市,清城东城,"颗粒物(PM10),细颗粒物(PM2.5)",55,60,58,39,37,118,,100,100,12,16,13,13,0.7,0.7
2024-12-23T1300,2661A,107.6325,35.7357,庆阳市,庆阳五中,细颗粒物(PM2.5),74,72,58,54,39,45,,46,46,30,24,11,10,0.8,0.7
2024-12-23T1300,2662A,107.6364,35.7067,庆阳市,市环保局,细颗粒物(PM2.5),64,69,59,46,34,41,,49,48,38,19,17,6,0.9,0.8
2024-12-23T1300,1916A,103.7897,25.5035,曲靖市,环境监测站,,26,,37,13,21,83,,36,36,8,18,10,6,0.4,0.6
2024-12-23T1300,1917A,103.8,25.5364,曲靖市,烟厂办公区,,25,20,39,10,22,79,,40,40,8,18,4,4,0.1,0.3
2024-12-23T1300,3376A,103.7947,25.462,曲靖市,南苑二区,,26,15,31,13,22,83,,46,46,4,9,4,4,0.6,0.7
2024-12-23T1300,3377A,103.7444,25.5261,曲靖市,曲靖师范学院,,26,12,34,11,23,83,,41,41,10,17,20,10,0.4,0.4
2024-12-23T1300,1264A,118.8692,28.9398,衢州市,环保大楼,细颗粒物(PM2.5),79,83,68,58,45,42,,33,32,28,30,5,5,0.6,0.5
2024-12-23T1300,1265A,118.8709,28.9666,衢州市,实验学校,细颗粒物(PM2.5),72,69,62,52,46,50,,38,38,20,24,6,6,0.6,0.6
