timepoint,stationcode,longitude,latitude,area,positionname,primarypollutant,aqi,pm10,pm10_24h,pm2_5,pm2_5_24h,o3,o3_24h,o3_8h,o3_8h_24h,no2,no2_24h,so2,so2_24h,co,co_24h
2026-02-08T1300,2568A,102.2503,31.8896,阿坝藏族羌族自治州,马师校,,26,,23,10,10,82,,73,73,7,7,4,4,0.7,0.6
2026-02-08T1300,3994A,102.2174,31.9016,阿坝藏族羌族自治州,马尔康中学西区,,26,13,22,8,11,82,,74,74,7,7,5,5,0.8,0.6
2026-02-08T1300,2695A,80.2899,41.1684,阿克苏地区,电视台,颗粒物(PM10),484,584,387,136,90,64,,57,37,14,22,12,10,0.5,0.6
2026-02-08T1300,2696A,80.2592,41.1541,阿克苏地区,艺术中心,颗粒物(PM10),397,497,338,146,89,62,,41,29,27,28,4,5,0.8,0.8
2026-02-08T1300,2205A,105.699,38.8409,阿拉善盟,蒙二幼,颗粒物(PM10),53,55,18,8,4,91,,88,88,5,9,9,9,0.5,0.5
2026-02-08T1300,2206A,105.7198,38.8508,阿拉善盟,环保局新楼,,44,44,12,11,6,82,,86,85,6,5,8,8,0.5,0.5
2026-02-08T1300,2708A,88.1266,47.8515,阿勒泰地区,市站,,32,32,23,3,3,65,,79,64,27,13,14,4,0.1,0.1
2026-02-08T1300,4166A,88.1198,47.7931,阿勒泰地区,阿勒泰路33号,,46,46,31,12,7,70,,74,64,18,16,8,8,0.5,0.3
2026-02-08T1300,2630A,80.1171,32.4999,阿里地区,阿里监测站,,25,,3,3,6,77,,63,61,3,7,14,9,0.3,0.3
2026-02-08T1300,3192A,80.0906,32.5029,阿里地区,阿里藏医院,,24,16,12,3,4,76,,69,60,7,5,22,10,0.5,0.4
2026-02-08T1300,2644A,109.0088,32.6974,安康市,汉滨区检察院,细颗粒物(PM2.5),113,90,108,85,89,51,,24,24,17,20,7,7,0.9,0.9
2026-02-08T1300,4054A,109.0324,32.6913,安康市,市邮政管理局,细颗粒物(PM2.5),104,107,116,78,81,55,,28,28,22,25,4,5,0.8,0.9
2026-02-08T1300,2291A,117.0806,30.5181,安庆市,环科院,,45,45,70,22,33,89,,62,62,7,10,7,6,0.4,0.4
2026-02-08T1300,2292A,117.0331,30.5118,安庆市,马山宾馆,,43,43,65,19,35,94,,67,67,5,8,6,5,0.2,0.3
2026-02-08T1300,2294A,116.9897,30.6146,安庆市,安庆大学,颗粒物(PM10),51,52,62,31,32,93,,66,66,9,10,5,3,0.5,0.4
2026-02-08T1300,3173A,117.0598,30.5351,安庆市,市人大,,42,42,67,17,34,91,,61,61,7,12,6,4,0.2,0.3
2026-02-08T1300,3123A,105.9408,26.2431,安顺市,凤凰山,,,38,23,37,20,81,,80,80,15,12,,10,0.7,0.8
2026-02-08T1300,3124A,105.9443,26.2567,安顺市,金钟山,,50,,21,35,20,77,,75,75,12,9,13,10,0.7,0.8
2026-02-08T1300,3125A,105.8983,26.248,安顺市,娄家坡,,49,39,22,34,21,80,,77,77,12,10,13,13,0.6,0.8
2026-02-08T1300,1819A,114.3552,36.1017,安阳市,红庙街,细颗粒物(PM2.5),94,94,74,70,52,85,,61,61,14,19,7,4,0.7,0.7
2026-02-08T1300,1820A,114.361,36.0681,安阳市,银杏小区,细颗粒物(PM2.5),104,88,74,78,54,83,,58,58,16,20,6,10,0.5,0.5
2026-02-08T1300,3141A,114.3921,36.0879,安阳市,信访局,细颗粒物(PM2.5),88,93,71,65,49,83,,65,65,15,17,7,12,0.6,0.6
2026-02-08T1300,3669A,114.4706,36.0634,安阳市,左辅环卫站,颗粒物(PM10),90,130,97,66,58,82,,42,42,17,36,6,6,0.5,0.6
2026-02-08T1300,4117A,114.2918,36.0769,安阳市,钢三路198号,细颗粒物(PM2.5),82,110,94,60,56,76,,50,50,18,25,6,6,0.6,0.7
2026-02-08T1300,1748A,123.0441,41.1201,鞍山市,深沟寺,颗粒物(PM10),51,52,51,30,29,71,,48,48,20,26,15,11,0.9,0.9
2026-02-08T1300,1749A,123.011,41.0931,鞍山市,太阳城,颗粒物(PM10),54,58,50,31,30,66,,41,41,19,25,18,15,0.9,0.8
2026-02-08T1300,1750A,123.0483,41.1445,鞍山市,太平,颗粒物(PM10),52,54,61,28,32,64,,36,36,23,29,20,12,1.0,0.8
2026-02-08T1300,1751A,122.964,41.0968,鞍山市,铁西三道街,,48,48,77,25,41,77,,42,42,16,35,12,21,0.6,0.9
2026-02-08T1300,1753A,123.0219,41.0822,鞍山市,明达新区,,47,47,53,28,29,70,,46,46,19,25,19,15,0.8,0.8
2026-02-08T1300,4201A,122.944647,41.082639,鞍山市,兴盛南路290号,,38,38,83,22,39,72,,34,34,16,36,12,13,0.9,1.4
2026-02-08T1300,2195A,107.4206,40.7609,巴彦淖尔市,附二中,,37,37,37,7,11,62,,54,40,10,13,20,6,0.6,0.4
2026-02-08T1300,2196A,107.37,40.7372,巴彦淖尔市,市环保大楼,,27,27,36,12,10,63,,57,46,14,12,12,5,0.6,0.4
2026-02-08T1300,1956A,86.1476,41.7529,巴音郭楞蒙古自治州,孔雀公园,颗粒物(PM10),275,402,297,76,59,58,,20,20,23,43,9,8,0.5,0.5
2026-02-08T1300,1957A,86.1971,41.7166,巴音郭楞蒙古自治州,棉纺厂,颗粒物(PM10),327,441,355,67,63,70,,60,58,7,13,/,/,/,/
2026-02-08T1300,1958A,86.236,41.7172,巴音郭楞蒙古自治州,经济开发区,颗粒物(PM10),225,367,302,42,35,68,,54,36,6,16,5,5,0.4,0.4
2026-02-08T1300,3181A,106.776805,31.852614,巴中市,市五中,细颗粒物(PM2.5),58,55,52,41,39,66,,27,27,18,24,6,5,0.7,0.9
2026-02-08T1300,3183A,106.7419,31.8654,巴中市,圣泉水务公司,细颗粒物(PM2.5),59,52,46,42,37,68,,26,26,16,28,6,6,0.9,1
2026-02-08T1300,3616A,106.7617,31.8343,巴中市,市中心医院,细颗粒物(PM2.5),60,55,51,43,40,69,,22,22,13,28,6,6,0.8,1
2026-02-08T1300,2235A,122.7909,45.608,白城市,洮北区环保局,,28,28,32,12,23,76,,62,62,9,17,2,4,0.2,0.3
2026-02-08T1300,2236A,122.8741,45.5725,白城市,市环保局,,31,31,29,3,14,70,,53,53,4,17,5,5,0.4,0.4
2026-02-08T1300,2231A,126.4219,41.9172,白山市,喜丰,,46,46,63,19,32,68,,38,38,12,33,17,12,0.6,0.8
2026-02-08T1300,2232A,126.4082,41.9416,白山市,环保局,,41,41,53,14,34,70,,42,42,9,18,16,14,0.5,0.7
2026-02-08T1300,2647A,104.1727,36.5448,白银市,第三小学,细颗粒物(PM2.5),114,139,123,86,59,48,,40,35,41,29,12,25,1.1,0.8
2026-02-08T1300,2648A,104.1467,36.5482,白银市,动力公司,颗粒物(PM10),85,119,104,56,45,60,,41,41,26,18,7,6,1.2,1
2026-02-08T1300,2512A,106.6102,23.901,百色市,市监测站,,16,13,22,3,16,51,,46,46,10,11,8,8,0.7,0.8
2026-02-08T1300,2513A,106.6524,23.8842,百色市,市中心血站,,15,7,25,3,13,48,,44,44,6,8,8,8,0.7,0.8
2026-02-08T1300,4133A,106.6273,23.8798,百色市,龙景西路,,16,6,26,3,15,49,,44,44,7,9,7,8,0.7,0.7
2026-02-08T1300,2270A,117.396,32.9389,蚌埠市,工人疗养院,,45,45,71,17,38,78,,58,58,16,21,5,6,0.4,0.5
2026-02-08T1300,2271A,117.3606,32.9428,蚌埠市,百货大楼,,37,37,66,18,38,75,,58,58,16,18,6,6,0.4,0.4
2026-02-08T1300,2273A,117.4183,32.8909,蚌埠市,蚌埠学院,,31,31,63,14,38,73,,56,53,18,22,6,5,0.3,0.4
2026-02-08T1300,2274A,117.3534,32.9672,蚌埠市,淮上区政府,,36,36,76,18,48,80,,56,56,13,24,6,6,0.3,0.4
2026-02-08T1300,2275A,117.3143,32.8977,蚌埠市,高新区,,36,36,73,20,45,72,,46,46,12,23,7,8,0.3,0.4
2026-02-08T1300,3715A,117.3091,32.9314,蚌埠市,蚌埠田家炳中学,,38,38,84,17,44,75,,45,45,16,34,5,6,0.3,0.4
2026-02-08T1300,1585A,109.8761,40.6533,包头市,市环境监测站,颗粒物(PM10),56,61,44,18,14,67,,34,30,22,25,18,14,0.9,0.9
2026-02-08T1300,1587A,109.9992,40.5843,包头市,包头八中,颗粒物(PM10),60,69,51,22,22,64,,23,23,19,38,21,13,0.6,0.9
2026-02-08T1300,1589A,109.8641,40.6288,包头市,惠龙物流,,43,43,33,20,15,71,,32,32,19,28,21,15,0.7,0.9
2026-02-08T1300,1590A,110.0376,40.5546,包头市,东河鸿龙湾,,,,41,,16,,,12,,,47,,10,,0.7
2026-02-08T1300,3283A,109.9154,40.5684,包头市,滨河大厦,颗粒物(PM10),54,57,39,23,18,69,,26,26,21,38,19,10,0.7,0.8
2026-02-08T1300,3419A,109.9449,40.6259,包头市,包头市委党校,颗粒物(PM10),55,59,47,13,19,68,,25,25,24,37,24,16,0.7,0.9
2026-02-08T1300,3683A,109.8332,40.6577,包头市,昆区政府,颗粒物(PM10),52,54,38,27,16,66,,38,34,26,28,16,16,0.7,0.7
2026-02-08T1300,1931A,107.0802,34.3129,宝鸡市,竹园沟,颗粒物(PM10),67,84,55,38,28,75,,42,42,19,18,12,7,0.5,0.4
2026-02-08T1300,1933A,107.1429,34.3549,宝鸡市,监测站,颗粒物(PM10),77,104,77,34,27,73,,38,38,25,28,9,5,0.6,0.6
2026-02-08T1300,1934A,107.1172,34.3759,宝鸡市,技工学校,颗粒物(PM10),79,108,77,39,34,75,,41,41,20,19,9,7,0.5,0.5
2026-02-08T1300,1936A,107.2025,34.3518,宝鸡市,文理学院,颗粒物(PM10),62,74,75,36,36,75,,38,38,17,20,10,5,0.4,0.4
2026-02-08T1300,1937A,107.2396,34.3626,宝鸡市,三迪小学,颗粒物(PM10),70,90,82,37,36,75,,36,36,27,32,11,5,0.6,0.6
2026-02-08T1300,4155A,107.1721,34.3558,宝鸡市,滨河北路,颗粒物(PM10),62,74,81,36,35,73,,35,35,19,24,9,5,0.4,0.4
2026-02-08T1300,4308A,107.3898,34.3601,宝鸡市,陈仓区北开路21号,颗粒物(PM10),79,108,92,41,42,75,,42,42,23,28,14,13,0.7,0.7
2026-02-08T1300,1051A,115.4803,38.8568,保定市,游泳馆,细颗粒物(PM2.5),68,67,56,49,35,63,,35,35,25,32,6,3,0.8,0.7
2026-02-08T1300,1052A,115.509,38.8895,保定市,华电二区,细颗粒物(PM2.5),54,56,45,38,27,55,,30,30,28,27,8,5,1.0,0.7
2026-02-08T1300,1053A,115.4588,38.9037,保定市,接待中心,细颗粒物(PM2.5),69,63,52,50,33,56,,34,34,26,27,7,3,0.6,0.4
2026-02-08T1300,1054A,115.4484,38.8344,保定市,地表水厂,颗粒物(PM10),66,81,67,39,31,60,,33,33,27,46,9,4,0.6,0.4
2026-02-08T1300,3581A,115.3136,38.9511,保定市,满城区生态环境分局,颗粒物(PM10),64,78,76,44,46,59,,24,24,20,43,5,4,0.7,0.7
2026-02-08T1300,3582A,115.4709,38.7628,保定市,清苑区第二中学,颗粒物(PM10),65,80,67,38,34,61,,33,33,26,37,10,5,0.7,0.5
2026-02-08T1300,3583A,115.6231,39.0223,保定市,徐水物探局,颗粒物(PM10),68,85,69,38,36,55,,22,22,20,30,11,6,0.7,0.6
2026-02-08T1300,4004A,115.4199,38.8665,保定市,双鹰农机,细颗粒物(PM2.5),69,84,68,50,38,66,,39,39,22,28,8,3,0.7,0.4
2026-02-08T1300,4034A,115.515,38.8589,保定市,植保所站,颗粒物(PM10),62,74,49,42,32,55,,29,29,30,32,8,5,0.5,0.4
2026-02-08T1300,2594A,99.1589,25.1137,保山市,市环境监测站,,50,50,29,25,18,101,,66,61,13,9,4,4,0.5,0.4
2026-02-08T1300,2595A,99.1616,25.1381,保山市,市环保局,,,51,31,,14,100,,73,62,10,6,4,3,0.6,0.5
2026-02-08T1300,1867A,109.1435,21.4085,北海市,海滩公园,,35,35,54,17,32,47,,56,44,12,16,3,4,0.8,1
2026-02-08T1300,1868A,109.0983,21.466,北海市,新市环保局,,19,19,48,9,32,46,,54,44,12,15,6,8,0.7,0.8
2026-02-08T1300,1869A,109.1775,21.5232,北海市,北海工业园,,35,35,50,7,32,43,,50,40,9,12,6,7,0.7,0.9
2026-02-08T1300,3400A,109.1844,21.4396,北海市,龙潭自来水厂,,23,20,49,16,33,45,,48,40,8,10,5,6,0.8,0.8
2026-02-08T1300,1001A,116.3611,39.8786,北京市,万寿西宫,,31,31,16,19,6,56,,60,52,27,12,2,1,0.6,0.5
2026-02-08T1300,1003A,116.4174,39.9289,北京市,东四,,37,37,15,15,5,47,,45,45,29,15,5,4,0.5,0.3
2026-02-08T1300,1004A,116.4073,39.8858,北京市,天坛,,36,36,16,16,6,51,,49,48,28,14,2,2,0.4,0.3
2026-02-08T1300,1005A,116.4622,39.9364,北京市,农展馆,,35,35,14,15,5,59,,59,59,18,10,6,5,0.4,0.2
2026-02-08T1300,1006A,116.3399,39.9293,北京市,官园,,44,44,17,26,6,46,,52,46,30,13,3,2,0.6,0.4
2026-02-08T1300,1007A,116.2879,39.9613,北京市,海淀万柳,,47,47,19,24,6,43,,27,27,34,29,3,2,0.4,0.3
2026-02-08T1300,1008A,116.6635,40.1349,北京市,顺义新城,,22,22,10,6,4,66,,67,67,14,5,6,4,0.4,0.3
2026-02-08T1300,1009A,116.6275,40.327,北京市,怀柔镇,,21,16,10,3,4,67,,61,61,6,6,4,4,0.4,0.4
2026-02-08T1300,1010A,116.2295,40.217,北京市,昌平镇,,25,25,15,9,5,58,,50,41,13,18,2,2,0.5,0.4
2026-02-08T1300,1011A,116.3968,39.982,北京市,奥体中心,,42,42,13,24,5,52,,53,53,32,16,6,4,0.4,0.2
2026-02-08T1300,3418A,116.8336,40.4095,北京市,密云新城,,23,8,7,3,3,73,,67,67,3,2,3,3,0.2,0.2
2026-02-08T1300,3671A,116.0879,39.9725,北京市,门头沟三家店,,45,45,22,17,6,43,,26,26,26,17,4,3,0.5,0.5
2026-02-08T1300,3672A,116.1507,39.8246,北京市,丰台云岗,,46,46,18,29,8,58,,43,42,19,16,2,1,0.4,0.3
2026-02-08T1300,3674A,115.9578,39.7602,北京市,房山燕山,,49,49,26,24,10,50,,44,42,26,9,5,4,0.3,0.3
2026-02-08T1300,3675A,116.4669,39.7734,北京市,大兴旧宫,,31,31,13,18,5,61,,42,42,17,19,4,3,0.5,0.4
2026-02-08T1300,3694A,115.9859,40.4562,北京市,延庆石河营,,28,28,14,11,6,68,,51,51,6,8,5,3,0.5,0.4
2026-02-08T1300,3695A,116.6151,40.3052,北京市,怀柔新城,,22,15,8,7,5,68,,65,65,8,5,2,2,0.2,0.2
2026-02-08T1300,3696A,116.2542,39.8764,北京市,丰台小屯,,43,43,21,21,7,47,,29,24,24,25,5,4,0.5,0.4
2026-02-08T1300,3697A,116.8399,40.3843,北京市,密云镇,,23,8,9,3,4,73,,66,65,5,5,2,1,0.3,0.2
2026-02-08T1300,4057A,115.9423,40.4431,北京市,延庆百泉,,25,25,14,11,7,65,,51,51,5,5,4,1,0.4,0.3
2026-02-08T1300,4058A,116.6598,39.9164,北京市,通州新华,,38,38,13,15,5,55,,52,51,18,11,3,2,0.6,0.5
2026-02-08T1300,4182A,116.1942,39.9158,北京市,石景山八角,,45,45,21,17,5,48,,29,29,18,19,3,2,0.2,0.1
2026-02-08T1300,4194A,117.078628,40.151726,北京市,平谷新城,,21,12,7,6,4,67,,66,65,4,5,4,2,0.3,0.2
2026-02-08T1300,1761A,123.8274146,41.31234549,本溪市,大峪,,30,30,75,10,31,64,,24,24,14,30,14,9,1.4,1.1
2026-02-08T1300,1763A,123.7169,41.3094,本溪市,彩屯,,39,39,76,11,39,74,,36,36,12,29,9,8,0.8,1.3
2026-02-08T1300,1764A,123.7672166,41.28649327,本溪市,东明,,40,40,63,11,35,71,,28,28,19,35,14,9,1.8,1.5
2026-02-08T1300,1765A,123.799345,41.266614,本溪市,新立屯,,39,39,44,10,26,71,,39,39,10,29,21,11,1.7,1.5
2026-02-08T1300,1766A,123.829144,41.336777,本溪市,威宁,颗粒物(PM10),55,59,71,13,35,62,,30,30,16,32,10,6,1.1,1
2026-02-08T1300,2587A,105.287,27.3133,毕节市,八中,,28,20,32,19,25,54,,45,45,22,12,16,9,0.8,0.9
2026-02-08T1300,2588A,105.3079,27.2987,毕节市,师专,,23,18,30,16,22,61,,49,49,20,13,15,8,0.8,0.8
2026-02-08T1300,4263A,105.3688,27.3598,毕节市,工业大道,,23,,29,16,26,56,,48,45,9,11,9,9,/,/
2026-02-08T1300,1629A,117.9961,37.3604,滨州市,第二水厂,,48,48,47,26,24,62,,39,39,18,29,11,13,0.5,0.7
2026-02-08T1300,1630A,117.9789,37.3931,滨州市,北中新校,颗粒物(PM10),52,53,48,25,22,56,,33,33,19,28,9,8,0.7,0.6
2026-02-08T1300,3514A,117.9379,37.3959,滨州市,中海酒店,,,46,47,23,25,74,,34,34,,35,14,12,0.9,0.7
2026-02-08T1300,3515A,117.9381509,37.35547456,滨州市,开发区一中,颗粒物(PM10),56,61,60,25,27,61,,36,36,16,31,12,15,0.6,0.7
2026-02-08T1300,3516A,118.0914,37.6938,滨州市,金海六路,颗粒物(PM10),51,51,56,19,35,76,,36,36,13,41,11,13,0.6,0.5
2026-02-08T1300,4028A,117.9955,37.3752,滨州市,滨州市西街道办事处,颗粒物(PM10),51,51,44,31,27,67,,44,44,16,25,12,12,0.4,0.4
2026-02-08T1300,2311A,115.8071,33.8399,亳州市,污水处理厂,,39,39,82,18,52,85,,54,54,17,32,4,6,0.3,0.4
2026-02-08T1300,2312A,115.7789,33.8519,亳州市,三国揽胜宫,颗粒物(PM10),51,51,94,19,52,80,,53,53,18,24,6,7,0.3,0.4
2026-02-08T1300,3332A,115.7631,33.803,亳州市,亳州学院,,47,47,79,20,48,74,,52,52,15,20,4,5,0.1,0.4
2026-02-08T1300,2693A,82.0482,44.8553,博尔塔拉蒙古自治州,市党校,颗粒物(PM10),60,69,62,32,25,66,,77,60,21,19,3,3,1.3,0.9
2026-02-08T1300,2694A,82.0805,44.8966,博尔塔拉蒙古自治州,市环保局,细颗粒物(PM2.5),68,80,115,49,38,56,,63,52,31,27,6,5,1.0,0.9
2026-02-08T1300,1071A,116.8733,38.2922,沧州市,沧县城建局,颗粒物(PM10),55,60,57,31,35,74,,33,33,18,46,10,6,0.5,0.5
2026-02-08T1300,1072A,116.8462,38.3189,沧州市,电视转播站,,50,50,56,33,40,70,,30,30,22,44,8,3,0.7,0.7
2026-02-08T1300,1073A,116.8588,38.3161,沧州市,市环保局,"颗粒物(PM10),细颗粒物(PM2.5)",54,57,55,38,35,61,,26,26,22,42,12,8,0.7,0.7
2026-02-08T1300,3324A,116.8011,38.294,沧州市,河北水利电力学院,颗粒物(PM10),62,73,54,38,39,65,,30,30,15,44,8,3,0.5,0.5
2026-02-08T1300,2622A,97.1813,31.1289,昌都市,昌都监测站,,37,37,26,23,13,61,,42,42,13,12,4,3,0.7,0.6
2026-02-08T1300,3719A,97.1707,31.1428,昌都市,昌都会议中心,,29,26,14,20,10,59,,45,44,9,3,4,4,0.6,0.4
2026-02-08T1300,2692A,87.2722,44.0298,昌吉回族自治州,新区政务中心,细颗粒物(PM2.5),73,83,87,53,57,55,,52,52,33,33,8,7,1.0,1.1
2026-02-08T1300,3613A,87.3069,44.0093,昌吉回族自治州,亚心广场,细颗粒物(PM2.5),92,100,103,68,75,60,,54,54,32,27,8,8,1.1,1
2026-02-08T1300,4164A,87.2057,43.9289,昌吉回族自治州,财政所,细颗粒物(PM2.5),89,89,93,66,65,71,,63,63,14,19,5,5,0.7,0.8
2026-02-08T1300,1120A,125.2874,43.9024,长春市,客车厂,,43,43,46,24,35,65,,47,47,13,30,9,11,0.6,0.7
2026-02-08T1300,1121A,125.2943,43.8508,长春市,邮电学院,,36,36,44,19,31,68,,48,48,12,29,10,12,0.5,0.6
2026-02-08T1300,1122A,125.3648,43.8745,长春市,劳动公园,,38,38,48,18,29,71,,48,48,10,28,5,6,0.2,0.5
2026-02-08T1300,1123A,125.3233,43.8781,长春市,园林处,,42,42,43,22,31,68,,45,45,12,26,9,15,0.6,0.7
2026-02-08T1300,1124A,125.4604,43.7904,长春市,净月潭,,35,35,40,16,30,68,,53,53,12,18,7,6,0.5,0.6
2026-02-08T1300,1126A,125.38,43.8422,长春市,经开区环卫处,,32,32,52,18,34,70,,40,40,10,32,4,9,0.4,0.6
2026-02-08T1300,1127A,125.234,43.7761,长春市,高新区管委会,,,48,56,13,36,76,,12,,,38,8,9,,0.8
2026-02-08T1300,1128A,125.1695,43.83,长春市,岱山公园,,36,36,48,21,39,72,,50,50,6,30,5,8,0.4,0.6
2026-02-08T1300,4281A,125.334645,43.916281,长春市,北亚泰大街1068号,,44,44,47,29,31,64,,44,44,14,32,8,9,0.5,0.6
2026-02-08T1300,1335A,113.082,28.2421,长沙市,经开区环保局,颗粒物(PM10),52,53,76,34,43,71,,41,41,10,22,3,3,0.3,0.4
2026-02-08T1300,1336A,112.8873,28.2202,长沙市,高开区环保局,细颗粒物(PM2.5),77,78,84,56,55,53,,34,34,12,18,4,5,0.7,0.6
2026-02-08T1300,1337A,113.0785,28.2012,长沙市,马坡岭,"颗粒物(PM10),细颗粒物(PM2.5)",55,59,78,39,51,72,,44,44,11,20,5,5,0.6,0.6
2026-02-08T1300,1338A,112.9448,28.1894,长沙市,湖南师范大学,细颗粒物(PM2.5),60,65,80,43,46,68,,42,42,12,19,4,4,0.7,0.6
2026-02-08T1300,1339A,113.0177,28.1322,长沙市,雨花区环保局,,,60,74,38,44,,,36,35,14,20,8,7,0.6,0.7
2026-02-08T1300,1340A,112.9795,28.2593,长沙市,伍家岭,细颗粒物(PM2.5),65,77,85,47,49,60,,33,33,15,22,4,5,0.6,0.6
2026-02-08T1300,1341A,113.002,28.1944,长沙市,火车新站,,,,78,,45,,,33,,,21,,1,,0.6
2026-02-08T1300,1342A,112.9846,28.1177,长沙市,天心区环保局,细颗粒物(PM2.5),55,58,77,39,48,68,,43,43,18,24,5,5,0.6,0.7
2026-02-08T1300,1343A,112.8906,28.1307,长沙市,湖南中医药大学,颗粒物(PM10),64,78,82,45,46,67,,39,39,15,19,6,6,0.7,0.7
2026-02-08T1300,1727A,113.1146,36.1547,长治市,清华站,,25,18,28,3,8,78,,43,43,18,26,8,11,0.5,0.5
2026-02-08T1300,1730A,113.0887,36.2126,长治市,审计局,,27,27,32,11,12,72,,35,35,20,27,14,13,0.5,0.5
2026-02-08T1300,1731A,113.0845,36.1856,长治市,长治八中,,25,24,34,11,9,80,,43,43,10,21,9,15,0.4,0.5
2026-02-08T1300,2845A,113.1561,36.1912,长治市,德盛苑,,25,20,22,3,8,80,,69,69,16,16,10,13,0.4,0.5
2026-02-08T1300,3568A,113.0603,36.0464,长治市,向阳小学,,29,24,41,6,8,90,,63,63,10,19,6,14,0.3,0.4
2026-02-08T1300,3569A,112.8788,36.315,长治市,屯留一中,,25,17,28,3,8,78,,35,35,14,31,8,11,0.5,0.4
2026-02-08T1300,4189A,113.113092,36.199482,长治市,英华南巷50号,,25,25,29,3,8,78,,54,54,14,17,10,12,0.3,0.4
2026-02-08T1300,4190A,113.23666,36.33435,长治市,学府街1号,,30,30,34,8,10,78,,39,39,16,28,10,15,0.4,0.6
2026-02-08T1300,1854A,111.696,28.9725,常德市,市二中,颗粒物(PM10),62,74,115,42,71,88,,44,44,13,21,6,6,0.6,0.9
2026-02-08T1300,3138A,111.7152,29.0288,常德市,武陵区永安,颗粒物(PM10),67,84,118,38,66,89,,56,56,13,22,5,6,0.7,0.8
2026-02-08T1300,3139A,111.6891,28.9881,常德市,鼎城区玉霞,颗粒物(PM10),65,79,114,37,69,86,,44,44,21,27,6,5,0.7,0.9
2026-02-08T1300,3140A,111.6651,29.0526,常德市,武陵区长庚,颗粒物(PM10),71,92,124,50,80,82,,39,39,12,22,5,5,0.5,0.7
2026-02-08T1300,1196A,119.9524,31.7586,常州市,市监测站,,33,33,58,17,34,73,,58,58,18,27,6,6,0.3,0.4
2026-02-08T1300,1200A,119.9351,31.703,常州市,武进监测站,,35,35,60,18,36,73,,58,58,17,25,7,7,0.8,0.6
2026-02-08T1300,3002A,119.9701,31.813,常州市,行政中心,,39,39,62,19,32,73,,54,54,18,31,5,5,0.5,0.6
2026-02-08T1300,3003A,120.0434,31.7726,常州市,经开区,,42,42,67,23,35,79,,54,54,6,20,4,4,0.7,0.7
2026-02-08T1300,3010A,119.8919,31.7892,常州市,钟楼,,,41,54,17,38,68,,51,51,17,31,,7,0.6,0.7
2026-02-08T1300,3429A,119.8595,31.706,常州市,武进经发区,,33,33,64,22,43,75,,50,50,14,28,6,6,0.6,0.7
2026-02-08T1300,3430A,119.5812,31.7256,常州市,金坛城区,,42,36,67,29,48,81,,58,58,10,20,7,7,0.4,0.5
2026-02-08T1300,4089A,119.9551,31.863,常州市,崇义南街5-H号,,33,33,59,17,36,75,,52,52,13,26,5,5,0.6,0.6
2026-02-08T1300,2220A,120.4318,41.588,朝阳市,西梁,,27,27,37,6,9,78,,60,53,11,16,7,7,0.6,0.6
2026-02-08T1300,2221A,120.452,41.565,朝阳市,河畔小区,,44,44,36,3,9,79,,65,63,11,12,13,11,1.1,0.7
2026-02-08T1300,2222A,120.4176,41.5648,朝阳市,八里堡,,22,16,38,3,10,70,,54,48,14,17,11,11,0.7,0.8
2026-02-08T1300,3026A,116.6179,23.6608,潮州市,市政府,,38,37,36,26,16,68,,50,50,6,10,4,4,0.4,0.5
2026-02-08T1300,4036A,116.646,23.676,潮州市,金山,,38,38,33,24,17,69,,47,47,14,15,3,2,0.6,0.6
2026-02-08T1300,2473A,113.0116,25.8228,郴州市,市职中,细颗粒物(PM2.5),55,47,50,39,47,49,,27,27,7,12,11,3,0.4,0.5
2026-02-08T1300,2475A,113.0381,25.8074,郴州市,市审计局,,50,46,51,35,35,45,,25,25,12,16,6,3,/,/
2026-02-08T1300,2476A,113.0348,25.7757,郴州市,市环保局,细颗粒物(PM2.5),54,55,56,38,53,46,,32,32,15,18,5,2,0.4,0.5
2026-02-08T1300,4252A,113.0138,25.8011,郴州市,好美居路49号,,46,46,46,26,42,56,,35,35,14,19,10,2,/,/
2026-02-08T1300,1431A,103.9727,30.7242,成都市,金泉两河,,,,51,38,27,55,,45,28,22,23,2,1,0.6,0.6
2026-02-08T1300,1432A,104.1423,30.6765,成都市,十里店,颗粒物(PM10),55,59,66,35,32,59,,41,30,14,19,3,3,0.3,0.3
2026-02-08T1300,1433A,104.0594,30.5765,成都市,三瓦窑,细颗粒物(PM2.5),58,41,49,41,31,42,,37,35,32,24,2,2,0.6,0.5
2026-02-08T1300,1434A,104.1122,30.6306,成都市,沙河铺,细颗粒物(PM2.5),52,40,54,36,32,41,,24,20,25,25,3,3,0.4,0.3
2026-02-08T1300,2880A,104.0219,30.6561,成都市,大石西路,细颗粒物(PM2.5),59,62,63,42,32,29,,40,27,27,17,4,4,0.6,0.5
2026-02-08T1300,3136A,104.2724,30.559,成都市,龙泉驿区区政府,细颗粒物(PM2.5),52,39,46,36,35,62,,42,42,13,14,6,6,0.3,0.2
2026-02-08T1300,3357A,104.0028,30.6891,成都市,金博路,"颗粒物(PM10),细颗粒物(PM2.5)",53,56,45,37,28,35,,39,24,33,26,4,4,0.7,0.6
2026-02-08T1300,3359A,104.056,30.5228,成都市,华阳,细颗粒物(PM2.5),55,48,49,39,31,54,,46,46,23,21,3,3,0.3,0.3
2026-02-08T1300,3488A,104.387954,30.746684,成都市,青石路225号,"颗粒物(PM10),细颗粒物(PM2.5)",59,67,62,42,36,48,,19,19,24,30,2,2,0.5,0.4
2026-02-08T1300,3489A,104.0788,30.4054,成都市,科学城,,48,48,46,31,28,34,,31,31,16,12,6,6,0.8,0.7
2026-02-08T1300,4011A,103.8505,30.6946,成都市,光华大道三段,颗粒物(PM10),65,80,60,37,24,57,,44,27,21,20,2,2,0.6,0.4
2026-02-08T1300,4144A,104.3257,30.6406,成都市,八角井街185号,,50,43,61,35,35,53,,29,29,19,20,4,3,0.6,0.5
2026-02-08T1300,4224A,104.2433276,30.53529463,成都市,鲸龙路1057号,,48,48,49,33,32,62,,48,48,18,17,5,5,0.4,0.4
2026-02-08T1300,1062A,117.9531,40.908,承德市,铁路,,,17,23,3,6,67,,61,51,9,6,16,3,,0.3
2026-02-08T1300,1063A,117.9397,40.9763,承德市,中国银行,,22,14,25,3,7,70,,50,50,8,11,3,2,0.3,0.3
2026-02-08T1300,4073A,117.9462,40.95,承德市,杏林街1号,,22,12,17,3,7,70,,58,57,10,8,4,3,0.3,0.3
2026-02-08T1300,4274A,117.7994,40.9605,承德市,滨河大街98号,,22,,23,3,6,70,,54,51,9,8,29,4,0.3,0.2
2026-02-08T1300,2314A,117.4698,30.6617,池州市,池州学院,"颗粒物(PM10),细颗粒物(PM2.5)",53,55,56,37,38,67,,36,36,24,25,8,4,0.8,0.7
2026-02-08T1300,3237A,117.4918,30.6617,池州市,展览馆,颗粒物(PM10),57,63,55,29,36,64,,29,29,24,24,5,3,0.8,0.6
2026-02-08T1300,3333A,117.5626,30.695,池州市,第八中学,颗粒物(PM10),51,51,60,34,38,60,,31,31,26,24,6,3,0.7,0.6
2026-02-08T1300,3334A,117.5037,30.6242,池州市,第十二中学,,48,48,57,30,38,71,,31,31,26,29,7,4,0.7,0.8
2026-02-08T1300,1744A,118.9229,42.2816,赤峰市,松山一中,,34,34,24,3,10,60,,37,31,17,19,3,3,0.8,0.9
2026-02-08T1300,1745A,118.9588,42.2733,赤峰市,哈达街,,21,16,19,3,8,67,,52,50,12,12,6,7,0.6,0.6
2026-02-08T1300,1746A,118.8792,42.2551,赤峰市,天义路,,25,10,11,3,6,80,,62,61,5,8,5,6,0.5,0.6
2026-02-08T1300,3058A,119.2656,42.0356,赤峰市,银河街,,,,25,,7,,,75,,,7,,10,,0.6
2026-02-08T1300,3286A,118.9359,42.3146,赤峰市,桥北物流园区,,36,33,21,25,12,77,,45,39,14,21,4,4,0.6,0.6
2026-02-08T1300,2521A,107.3473,22.4137,崇左市,市环保局江州分局,,,,47,6,30,40,,41,38,7,13,7,8,0.9,0.9
2026-02-08T1300,4256A,107.375,22.3736,崇左市,石景林东路7号,,17,17,40,10,29,42,,50,44,13,15,4,5,0.8,0.9
2026-02-08T1300,3207A,118.31131,32.3033,滁州市,市政府原办公楼,,37,37,62,22,43,83,,56,56,7,18,5,5,0.4,0.5
2026-02-08T1300,3331A,118.3268,32.2633,滁州市,图书馆,,28,28,55,13,36,81,,55,55,4,11,9,8,0.5,0.5
2026-02-08T1300,4101A,118.3196,32.3335,滁州市,银山路666号,,36,28,56,25,49,79,,48,48,4,14,10,7,0.4,0.5
2026-02-08T1300,4102A,118.3426,32.2979,滁州市,黄山路555号,,40,40,71,24,47,83,,54,54,2,14,5,4,0.4,0.5
2026-02-08T1300,2606A,101.5379,25.0492,楚雄彝族自治州,市经济开发区,,43,43,29,26,19,79,,36,36,6,18,2,3,0.7,0.6
2026-02-08T1300,4153A,101.5536,25.0343,楚雄彝族自治州,团结路562号,,35,35,27,18,18,79,,34,34,2,13,4,4,0.6,0.6
2026-02-08T1300,2549A,107.5087,31.2186,达州市,市环境监测站,细颗粒物(PM2.5),57,62,71,40,42,58,,26,26,22,34,6,7,0.2,0.2
2026-02-08T1300,2550A,107.4988,31.2132,达州市,凤凰小区,颗粒物(PM10),57,63,70,38,42,65,,29,29,16,32,5,5,0.4,0.5
2026-02-08T1300,2551A,107.5081,31.1987,达州市,达县机关宾馆,,,61,72,,43,70,,30,30,,46,5,5,0.6,0.7
2026-02-08T1300,2552A,107.4644,31.2124,达州市,市政中心,颗粒物(PM10),56,62,75,37,39,65,,27,27,20,38,5,5,0.5,0.6
2026-02-08T1300,2614A,100.2168,25.5818,大理白族自治州,大理市环境监测站,,27,21,19,8,12,86,,82,81,6,6,7,7,0.4,0.4
2026-02-08T1300,2615A,100.1542,25.7055,大理白族自治州,大理古城,,28,20,25,9,14,88,,69,69,4,9,8,8,0.4,0.6
2026-02-08T1300,1109A,121.6119,38.974,大连市,甘井子,,25,22,25,9,12,78,,67,67,6,10,10,11,0.5,0.5
2026-02-08T1300,1110A,121.565,38.9509,大连市,周水子,,26,26,29,9,14,74,,62,62,10,18,11,10,0.3,0.4
2026-02-08T1300,1111A,121.5637,38.8849,大连市,星海三站,,24,21,26,7,16,75,,61,61,10,16,7,10,0.3,0.4
2026-02-08T1300,1112A,121.6301,38.9117,大连市,青泥洼桥,,23,22,26,11,14,72,,65,65,11,17,10,10,0.4,0.4
2026-02-08T1300,1113A,121.6248,38.8643,大连市,傅家庄,,24,19,23,10,13,74,,66,66,5,12,7,8,0.7,0.7
2026-02-08T1300,1114A,121.5117,38.8636,大连市,七贤岭,,25,24,26,8,12,77,,66,66,9,13,9,10,0.5,0.5
2026-02-08T1300,1116A,121.7507,39.1339,大连市,金州,,26,22,32,9,33,81,,73,73,8,11,8,9,0.3,0.3
2026-02-08T1300,1117A,121.7811,39.0495,大连市,开发区,,25,24,35,7,15,79,,71,71,8,11,6,7,0.3,0.4
2026-02-08T1300,1118A,121.9762,39.0631,大连市,双D港,,29,12,28,6,23,90,,78,78,8,11,7,9,0.4,0.5
2026-02-08T1300,4082A,121.2548,38.8188,大连市,旅顺,,24,24,26,7,15,69,,61,61,9,10,7,7,0.5,0.6
2026-02-08T1300,1789A,124.8085,46.0381,大庆市,大同区,,43,43,42,8,23,77,,44,44,4,18,6,9,0.4,0.6
2026-02-08T1300,1790A,125.1166,46.5255,大庆市,龙凤区,,40,40,42,8,25,74,,40,40,9,28,8,10,0.2,0.5
2026-02-08T1300,1791A,124.8894,46.4007,大庆市,红岗区,,20,18,35,3,19,64,,42,42,9,23,4,5,0.4,0.6
2026-02-08T1300,1792A,125.1391,46.578,大庆市,萨尔图区,,33,33,38,10,18,65,,43,43,12,25,9,9,0.4,0.5
2026-02-08T1300,1793A,124.9026,46.6217,大庆市,让胡路区,,23,19,31,7,20,73,,53,53,5,14,6,9,0.4,0.5
2026-02-08T1300,3481A,125.127,46.6277,大庆市,萨区政府监测点,,24,18,34,14,19,74,,50,50,8,20,7,8,0.6,0.7
2026-02-08T1300,1723A,113.2926,40.0759,大同市,云冈宾馆,颗粒物(PM10),65,79,36,36,14,58,,27,27,29,23,18,10,0.8,0.8
2026-02-08T1300,1724A,113.3437,40.0921,大同市,大同大学,颗粒物(PM10),57,63,34,24,16,57,,42,38,29,17,24,13,0.9,0.7
2026-02-08T1300,1725A,113.2637,40.129,大同市,安家小村,颗粒物(PM10),65,79,51,34,18,49,,23,23,32,26,37,13,1.1,1.5
2026-02-08T1300,3282A,113.3399,40.0586,大同市,大同市卫生学校,颗粒物(PM10),57,63,33,22,13,67,,40,40,29,20,15,10,0.8,0.9
2026-02-08T1300,3565A,113.1371,40.1122,大同市,云冈站,颗粒物(PM10),62,74,41,28,16,46,,22,22,30,28,34,16,1.0,0.7
2026-02-08T1300,3566A,113.1186,40.2556,大同市,图书馆,颗粒物(PM10),55,59,42,15,19,58,,31,31,17,14,27,8,0.6,0.7
2026-02-08T1300,3567A,113.5931,40.0459,大同市,区一中,颗粒物(PM10),58,66,66,30,30,68,,41,41,17,26,26,17,0.6,0.8
2026-02-08T1300,4199A,113.2798248,40.09972476,大同市,魏都大道141号,颗粒物(PM10),69,88,53,38,20,52,,22,22,33,30,26,10,0.9,1.1
2026-02-08T1300,2269A,124.1068,50.4091,大兴安岭地区,科技局,,24,17,20,3,9,74,,65,65,1,3,6,5,0.2,0.2
2026-02-08T1300,3663A,124.117,50.4279,大兴安岭地区,红旗社区,,27,7,8,3,7,85,,72,72,2,6,5,8,0.2,0.2
2026-02-08T1300,1600A,124.33,40.0625,丹东市,江湾东路,,34,34,39,11,19,71,,53,53,10,14,6,8,0.4,0.7
2026-02-08T1300,1601A,124.4242,40.1513,丹东市,临江后街,,23,20,31,9,17,72,,60,60,7,10,8,7,0.5,0.6
2026-02-08T1300,1602A,124.3935,40.1461,丹东市,元宝山,,23,20,30,6,17,73,,51,51,4,12,7,11,0.5,0.6
2026-02-08T1300,1603A,124.3634,40.1093,丹东市,民主桥,,22,19,38,8,19,68,,47,47,10,18,9,11,0.4,0.5
2026-02-08T1300,3541A,109.5726195,19.51688767,儋州市,第一中学子站,,33,33,29,17,17,74,,89,80,5,3,4,4,0.8,0.6
2026-02-08T1300,3542A,109.5567,19.5187,儋州市,东坡学校子站,,32,32,27,17,15,78,,95,84,8,5,4,4,0.9,0.7
2026-02-08T1300,2616A,98.5611,24.4273,德宏傣族景颇族自治州,德宏州监测站,颗粒物(PM10),53,56,49,35,34,73,,26,26,20,25,7,6,1.0,1
2026-02-08T1300,3677A,98.5887,24.4366,德宏傣族景颇族自治州,芒市人民政府综合楼,颗粒物(PM10),61,72,50,34,28,71,,38,32,16,15,4,4,0.8,0.7
2026-02-08T1300,1901A,104.424,31.1209,德阳市,东山公园,细颗粒物(PM2.5),69,51,55,50,33,69,,40,40,7,14,1,1,0.6,0.6
2026-02-08T1300,1902A,104.3827,31.1318,德阳市,西小区,细颗粒物(PM2.5),67,64,70,48,35,76,,29,29,11,26,2,2,0.5,0.5
2026-02-08T1300,1904A,104.3553,31.1091,德阳市,耐火材料厂,细颗粒物(PM2.5),64,54,67,46,41,66,,20,20,12,29,1,1,0.5,0.5
2026-02-08T1300,4145A,104.4144,31.1495,德阳市,市林业局,细颗粒物(PM2.5),67,57,59,48,32,70,,24,24,6,27,4,4,0.6,0.6
2026-02-08T1300,1622A,116.3034,37.4675,德州市,儿童乐园,细颗粒物(PM2.5),78,85,52,57,27,52,,47,46,28,28,14,12,0.8,0.6
2026-02-08T1300,1624A,116.2992,37.4449,德州市,监理站,颗粒物(PM10),70,90,55,46,29,83,,52,52,25,37,13,9,0.7,0.7
2026-02-08T1300,3066A,116.2722,37.438,德州市,九衢泉纯净水厂,细颗粒物(PM2.5),69,75,56,50,36,76,,39,39,23,43,11,7,0.7,0.6
2026-02-08T1300,3371A,116.3693,37.44,德州市,开发区人民医院,细颗粒物(PM2.5),72,92,53,52,28,77,,54,54,17,23,15,11,0.6,0.5
2026-02-08T1300,3511A,116.5687,37.3331,德州市,陵城艺术中心,,,88,56,48,34,57,,41,41,27,31,,12,0.9,0.8
2026-02-08T1300,4292A,116.352738,37.420875,德州市,新河东路,颗粒物(PM10),67,83,52,42,28,73,,40,40,18,31,18,12,0.8,0.7
2026-02-08T1300,2621A,99.7054,27.8319,迪庆藏族自治州,迪庆州站,,27,18,22,11,12,86,,70,70,4,7,5,5,0.5,0.6
2026-02-08T1300,3180A,99.7122,27.8129,迪庆藏族自治州,质量技术监督局,,29,22,22,8,12,91,,72,72,5,8,4,5,0.4,0.5
2026-02-08T1300,4257A,104.6092,35.5962,定西市,将台街,颗粒物(PM10),66,81,90,25,41,89,,42,42,2,19,10,11,0.3,0.6
2026-02-08T1300,4309A,104.6159,35.5701,定西市,正龙路62号,颗粒物(PM10),64,77,90,28,39,87,,47,47,4,8,7,7,0.3,0.6
2026-02-08T1300,1390A,113.7943,23.0132,东莞市,东城石井,,30,30,28,16,15,92,,70,70,9,13,6,6,0.6,0.7
2026-02-08T1300,1391A,113.7384,22.9659,东莞市,南城西平,,27,26,24,15,13,84,,62,62,14,20,6,6,0.6,0.7
2026-02-08T1300,3319A,113.7283,23.041,东莞市,万江金泰,,27,25,21,16,11,84,,67,67,9,11,5,5,0.7,0.9
2026-02-08T1300,4129A,113.8666,23.1062,东莞市,裕兴路,,27,27,23,13,12,75,,59,59,7,8,5,5,0.7,0.9
2026-02-08T1300,4130A,114.0076,22.9739,东莞市,教育路1号,,28,28,30,13,14,85,,65,65,13,16,4,4,0.6,0.8
2026-02-08T1300,4131A,113.7981,22.8124,东莞市,长怡路1号,,31,31,31,14,13,89,,68,68,12,15,6,6,0.7,0.8
2026-02-08T1300,1666A,118.6612,37.4313,东营市,市环保局,,41,41,37,14,14,75,,52,52,18,28,8,10,0.6,0.6
2026-02-08T1300,3036A,118.6903,37.4337,东营市,开发区管委会,,41,41,43,13,14,75,,52,52,22,25,9,9,0.5,0.6
2026-02-08T1300,3365A,118.5721,37.5654,东营市,垦利区民丰路,,36,36,40,14,17,73,,41,41,16,29,6,7,0.6,0.8
2026-02-08T1300,3498A,118.5063,37.8606,东营市,河口城区,,29,29,39,10,15,76,,41,41,21,38,5,4,0.7,0.8
2026-02-08T1300,3646A,118.4979,37.4623,东营市,胜利站,颗粒物(PM10),55,59,40,14,15,64,,43,43,29,34,8,9,0.3,0.5
2026-02-08T1300,3734A,118.5753,37.4405,东营市,理想之城,,46,46,39,19,13,72,,57,57,14,21,6,7,0.5,0.5
2026-02-08T1300,1591A,110.0024,39.8127,鄂尔多斯市,综合楼,,27,27,33,9,8,78,,68,62,18,14,12,7,0.4,0.3
2026-02-08T1300,1592A,109.9485,39.8259,鄂尔多斯市,巴音孟克林场办事处,,28,24,29,12,9,89,,72,72,13,12,10,7,0.5,0.4
2026-02-08T1300,1593A,109.7734,39.5987,鄂尔多斯市,康泽苑,,29,22,41,11,11,90,,53,53,13,13,8,4,0.4,0.3
2026-02-08T1300,1594A,109.8121,39.5987,鄂尔多斯市,华泰汽车城,,29,17,48,6,13,91,,34,34,11,19,10,6,0.3,0.3
2026-02-08T1300,1595A,109.9734,39.7884,鄂尔多斯市,奥林花园,,29,29,38,7,8,82,,50,50,19,23,7,4,0.4,0.4
2026-02-08T1300,2436A,114.894,30.3989,鄂州市,市政府,细颗粒物(PM2.5),58,48,56,41,40,72,,45,45,15,19,8,5,0.6,0.5
2026-02-08T1300,2437A,114.8986,30.3714,鄂州市,赵家坝,颗粒物(PM10),54,58,62,36,42,81,,45,45,8,7,10,8,0.5,0.4
2026-02-08T1300,3654A,114.8093,30.4091,鄂州市,精准医疗中心,颗粒物(PM10),56,62,63,22,39,84,,59,59,7,12,4,7,0.6,0.7
2026-02-08T1300,2454A,109.4978,30.2979,恩施土家族苗族自治州,湖北民院,细颗粒物(PM2.5),74,65,74,54,71,58,,30,30,11,15,6,6,0.8,0.9
2026-02-08T1300,3549A,109.5061,30.3771,恩施土家族苗族自治州,龙凤新区,细颗粒物(PM2.5),69,72,80,50,61,62,,33,33,10,10,7,7,0.7,0.8
2026-02-08T1300,2499A,108.3411,21.6159,防城港市,沙万,,23,23,55,6,37,43,,46,42,11,14,6,7,0.6,0.8
2026-02-08T1300,2500A,108.3515,21.7733,防城港市,防城档案局,,19,19,54,7,39,45,,50,43,9,11,4,5,0.7,0.8
2026-02-08T1300,2501A,108.3506,21.6414,防城港市,大海花园,,19,19,48,8,42,44,,47,42,9,12,6,7,0.6,0.8
2026-02-08T1300,1371A,113.1293,23.0065,佛山市,湾梁,,34,34,28,7,7,78,,70,70,18,17,/,/,/,/
2026-02-08T1300,1372A,113.1082,23.0477,佛山市,华材职中,,36,36,33,16,21,83,,74,74,8,11,5,6,0.7,0.8
2026-02-08T1300,1373A,113.1439,23.045,佛山市,南海气象局,,44,44,28,18,16,79,,70,70,17,17,/,/,/,/
2026-02-08T1300,1374A,113.2879,22.8094,佛山市,顺德苏岗,,28,28,29,17,13,83,,67,67,18,20,/,/,0.7,0.9
2026-02-08T1300,1376A,112.8384,22.8678,佛山市,高明孔堂,,49,49,33,25,18,90,,74,74,18,19,/,/,/,/
2026-02-08T1300,1377A,112.8835,23.1584,佛山市,三水监测站,颗粒物(PM10),52,53,36,24,20,83,,74,74,14,15,2,1,0.4,0.6
2026-02-08T1300,1378A,112.8668,23.185,佛山市,三水云东海,,35,35,35,20,18,88,,79,79,11,15,/,/,/,/
2026-02-08T1300,3625A,113.2568,22.7629,佛山市,容桂街道办,,31,31,27,19,15,80,,65,65,16,19,/,/,/,/
2026-02-08T1300,1282A,119.2681,26.0506,福州市,师大,,23,20,27,14,15,73,,72,66,11,14,3,3,0.5,0.4
2026-02-08T1300,1283A,119.2983,26.1028,福州市,五四北路,,23,16,26,14,16,73,,70,64,11,14,4,4,0.4,0.4
2026-02-08T1300,1284A,119.2648,26.0769,福州市,杨桥西路,,31,31,27,15,16,73,,70,64,10,14,4,3,/,/
2026-02-08T1300,3048A,119.5799,26.0937,福州市,九龙,,27,21,25,11,13,86,,73,71,11,11,4,4,0.5,0.5
2026-02-08T1300,3526A,119.5188,25.9666,福州市,吴航,,,24,29,15,18,85,,74,70,8,10,,4,0.5,0.6
2026-02-08T1300,4104A,119.3106,26.0648,福州市,路通桥巷6号,,25,25,23,17,22,69,,65,61,9,12,/,/,/,/
2026-02-08T1300,1755A,123.7974,41.8494,抚顺市,望花区,,50,50,85,24,47,61,,30,30,19,33,15,8,0.9,1
2026-02-08T1300,1756A,123.9161,41.8827,抚顺市,顺城区,颗粒物(PM10),60,70,61,19,44,69,,31,31,20,42,13,10,0.8,0.9
2026-02-08T1300,1757A,124.0437,41.8615,抚顺市,东洲区,颗粒物(PM10),60,70,63,13,37,67,,42,42,12,16,8,9,0.6,0.7
2026-02-08T1300,1758A,123.9246,41.8638,抚顺市,新抚区,,,74,75,16,41,70,,33,33,17,40,10,6,,1
2026-02-08T1300,1759A,124.0972,41.8961,抚顺市,大伙房水库,颗粒物(PM10),53,55,44,19,27,68,,42,42,14,18,12,10,0.7,0.7
2026-02-08T1300,1760A,123.708,41.8386,抚顺市,沈抚新城,,49,49,69,25,41,54,,25,25,25,41,13,8,0.8,1
2026-02-08T1300,2377A,116.3544,27.9833,抚州市,市站,,38,38,40,18,33,93,,68,68,7,9,7,5,0.7,1
2026-02-08T1300,2378A,116.3562,27.9631,抚州市,血防站,,49,49,46,18,24,85,,62,62,12,9,6,5,0.5,0.6
2026-02-08T1300,2379A,116.3561,28.0007,抚州市,采茶剧团,,40,40,41,17,30,88,,61,61,2,4,5,4,0.7,0.8
2026-02-08T1300,2380A,116.3854,27.9648,抚州市,医学分院,,42,42,46,13,26,84,,59,59,5,8,6,5,0.7,0.7
2026-02-08T1300,2207A,121.6095,41.9978,阜新市,工业园区,颗粒物(PM10),54,58,49,12,15,75,,47,47,8,20,18,16,0.5,0.5
2026-02-08T1300,2208A,121.6567,42.0188,阜新市,长青街,,32,32,22,16,9,77,,62,60,10,11,19,11,0.5,0.4
2026-02-08T1300,2209A,121.6672,42.07,阜新市,农业园区,颗粒物(PM10),59,68,33,22,10,72,,60,60,10,9,20,11,0.4,0.3
2026-02-08T1300,2211A,121.6343,42.0455,阜新市,玉龙新城,,,53,47,16,15,75,,43,43,12,27,21,9,,0.7
2026-02-08T1300,2301A,115.8276,32.8929,阜阳市,市监测站,颗粒物(PM10),56,62,97,28,58,84,,54,54,12,33,6,5,0.4,0.5
2026-02-08T1300,2303A,115.8551,32.8606,阜阳市,开发区,,44,44,101,24,62,82,,44,44,11,33,6,5,0.4,0.5
2026-02-08T1300,2875A,115.783962,32.889217,阜阳市,阜阳职业技术学院,,45,45,88,24,52,87,,64,64,10,24,8,7,0.4,0.5
2026-02-08T1300,3468A,115.79,32.8614,阜阳市,市规划展馆,颗粒物(PM10),51,52,90,27,53,86,,61,61,11,24,7,7,0.3,0.5
2026-02-08T1300,3469A,115.835101,32.918568,阜阳市,枣园社区,,50,50,103,26,62,84,,43,43,12,38,7,7,0.6,0.7
2026-02-08T1300,2669A,102.9097,34.9841,甘南藏族自治州,州政府,,25,25,44,10,24,74,,41,41,4,15,8,5,0.4,0.5
2026-02-08T1300,3380A,102.8915,34.9618,甘南藏族自治州,甘肃民族师范学院,,27,27,50,16,18,79,,46,46,8,19,9,8,0.3,0.3
2026-02-08T1300,2570A,101.96,30.048,甘孜藏族自治州,水桥子,,22,,5,3,2,69,,65,63,5,4,6,6,0.6,0.6
2026-02-08T1300,3065A,101.9534,29.9976,甘孜藏族自治州,州环保局,,27,,5,3,4,84,,76,74,6,7,6,6,0.8,0.8
2026-02-08T1300,2363A,114.9368,25.8663,赣州市,地委,,43,42,31,30,25,82,,72,72,11,11,8,7,0.1,0.2
2026-02-08T1300,2364A,114.946,25.8483,赣州市,气象台,颗粒物(PM10),55,59,41,28,24,88,,75,75,11,12,6,5,0.3,0.4
2026-02-08T1300,2365A,114.932,25.8332,赣州市,市图书馆,,38,38,27,24,23,79,,66,66,12,14,4,4,0.4,0.6
2026-02-08T1300,2366A,114.8905,25.8472,赣州市,华坚鞋城,,41,41,33,26,22,76,,64,64,11,12,5,4,0.2,0.3
2026-02-08T1300,3109A,115.0094,25.8614,赣州市,赣县区卫计委,,,48,28,27,20,84,,79,79,,6,8,7,0.5,0.6
2026-02-08T1300,2684A,106.2753,36.0057,固原市,监测站,颗粒物(PM10),56,62,72,18,30,88,,66,66,6,20,6,8,0.5,0.7
2026-02-08T1300,2685A,106.2384,36.0189,固原市,新区,颗粒物(PM10),56,61,74,9,28,86,,51,51,6,27,7,7,0.3,0.7
2026-02-08T1300,2544A,106.6307,30.4577,广安市,市委,细颗粒物(PM2.5),69,70,70,50,57,76,,52,47,15,18,6,6,0.9,0.8
2026-02-08T1300,2545A,106.6266,30.4662,广安市,友谊中学,"颗粒物(PM10),细颗粒物(PM2.5)",59,67,66,42,49,79,,56,48,18,20,6,5,0.9,1
2026-02-08T1300,2547A,106.6386,30.4551,广安市,广电花园,细颗粒物(PM2.5),69,75,60,50,60,69,,47,44,14,16,7,6,0.7,0.7
2026-02-08T1300,2902A,106.6347,30.4868,广安市,北辰小学,细颗粒物(PM2.5),70,74,63,51,56,72,,54,49,16,13,6,6,0.8,0.8
2026-02-08T1300,2524A,105.8211,32.4444,广元市,老城,细颗粒物(PM2.5),72,77,63,52,31,48,,42,36,32,27,1,3,0.8,0.7
2026-02-08T1300,2526A,105.8629,32.429,广元市,监测站,细颗粒物(PM2.5),69,68,58,50,27,45,,26,26,28,26,7,7,0.9,0.9
2026-02-08T1300,3617A,105.8047,32.4167,广元市,经开区,细颗粒物(PM2.5),73,87,71,53,39,43,,38,36,32,27,15,4,0.9,0.7
2026-02-08T1300,1345A,113.2346,23.1423,广州市,广雅中学,,38,38,32,24,20,80,,72,72,20,16,3,3,0.5,0.6
2026-02-08T1300,1346A,113.2611,23.105,广州市,市五中,,34,34,27,21,19,91,,82,82,13,13,6,6,/,/
2026-02-08T1300,1348A,113.3477,23.0916,广州市,广东商学院,,27,27,25,14,12,82,,73,72,10,12,5,5,0.4,0.6
2026-02-08T1300,1349A,113.4332,23.105,广州市,市八十六中,,29,29,26,16,18,85,,71,71,14,17,6,6,/,/
2026-02-08T1300,1350A,113.3506,22.9488,广州市,番禺中学,,34,34,27,20,16,81,,66,66,19,21,2,2,0.4,0.6
2026-02-08T1300,1351A,113.2147,23.3918,广州市,花都师范,,38,38,32,19,15,80,,73,73,12,15,5,5,0.6,0.7
2026-02-08T1300,1352A,113.2599,23.1329,广州市,市监测站,,35,35,32,21,19,83,,76,76,7,9,1,1,/,/
2026-02-08T1300,1353A,113.5618,23.3119,广州市,九龙镇镇龙,,24,24,20,15,12,76,,69,68,8,9,4,4,0.6,0.7
2026-02-08T1300,1354A,113.2764,23.1544,广州市,麓湖,,32,32,31,20,17,82,,74,74,10,18,4,4,0.6,0.7
2026-02-08T1300,2846A,113.3209,23.1323,广州市,体育西,,32,32,28,20,20,80,,71,71,13,15,5,5,0.7,0.9
2026-02-08T1300,3298A,113.5718,23.5493,广州市,从化街口,,28,28,20,17,12,78,,73,72,9,11,6,6,0.5,0.6
2026-02-08T1300,3299A,113.3463,23.369,广州市,白云竹料,,27,27,21,17,14,86,,82,82,11,12,5,4,0.5,0.7
2026-02-08T1300,3300A,113.2981,23.2365,广州市,白云嘉禾,,33,33,30,17,16,82,,76,76,15,16,5,5,/,/
2026-02-08T1300,3301A,113.4256,23.1716,广州市,黄埔科学城,,36,36,28,20,17,89,,78,77,7,10,5,4,0.7,0.8
2026-02-08T1300,3302A,113.3942,23.0485,广州市,番禺大学城,,,24,26,15,12,86,,73,73,,10,5,6,0.6,0.7
2026-02-08T1300,3303A,113.4923,22.8169,广州市,南沙黄阁,,30,30,32,18,15,87,,66,66,16,20,5,6,/,/
2026-02-08T1300,3304A,113.534,22.7893,广州市,南沙街,,30,30,33,18,14,87,,64,64,16,20,5,5,0.7,0.8
2026-02-08T1300,3443A,113.2905,23.5541,广州市,花都梯面,,28,28,24,18,16,66,,67,67,5,6,4,5,/,/
2026-02-08T1300,3445A,113.786,23.7479,广州市,从化良口,,30,30,18,18,12,76,,71,71,7,7,8,8,/,/
2026-02-08T1300,3446A,113.805,23.2614,广州市,增城荔城,,25,21,17,11,10,80,,69,69,9,11,5,5,0.5,0.6
2026-02-08T1300,2506A,109.604387,23.066791,贵港市,江南子站,,29,29,45,13,28,49,,45,45,15,16,3,4,0.7,0.9
2026-02-08T1300,2508A,109.5669,23.1065,贵港市,荷城子站,,24,24,43,10,28,45,,43,43,12,14,4,5,0.9,1.1
2026-02-08T1300,3405A,109.5886,23.1172,贵港市,新世纪学校,,31,31,48,16,36,49,,45,45,15,17,/,/,0.6,0.7
2026-02-08T1300,4260A,109.5933,23.095,贵港市,中山路155-3号,,17,17,39,10,32,50,,47,47,14,14,/,/,0.9,1
2026-02-08T1300,1439A,106.6863,26.6035,贵阳市,马鞍山,,44,44,22,30,17,78,,69,69,8,10,5,4,/,/
2026-02-08T1300,1441A,106.6241,26.6266,贵阳市,鉴湖路,颗粒物(PM10),52,53,30,24,15,77,,74,74,10,12,3,3,0.4,0.6
2026-02-08T1300,1442A,106.7468,26.6344,贵阳市,燕子冲,颗粒物(PM10),52,53,26,30,17,82,,76,76,8,10,8,7,0.5,0.7
2026-02-08T1300,1443A,106.6556,26.4362,贵阳市,碧云窝,颗粒物(PM10),52,53,33,31,17,76,,80,80,13,12,13,12,/,/
2026-02-08T1300,1445A,106.6963,26.6063,贵阳市,红边门,颗粒物(PM10),51,51,27,30,20,81,,77,77,11,12,8,7,/,/
2026-02-08T1300,1446A,106.7162383,26.56964667,贵阳市,新华路,颗粒物(PM10),52,53,30,24,17,78,,77,77,15,15,3,4,0.2,0.3
2026-02-08T1300,1447A,106.6742,26.542,贵阳市,太慈桥,,35,34,20,24,16,75,,74,74,13,14,5,3,/,/
2026-02-08T1300,4230A,106.688212,26.56952,贵阳市,花果园大街66号,,48,48,20,23,18,73,,71,71,10,12,3,2,/,/
2026-02-08T1300,4231A,106.687268,26.516892,贵阳市,漓江路57号,颗粒物(PM10),51,51,25,24,18,78,,78,78,10,12,6,5,0.4,0.7
2026-02-08T1300,1864A,110.3091,25.2705,桂林市,龙隐路小学,,35,30,29,24,21,73,,62,62,8,10,3,2,0.5,0.6
2026-02-08T1300,1865A,110.2849361,25.22909545,桂林市,八中,,32,32,21,15,12,68,,58,57,9,12,3,2,0.7,0.8
2026-02-08T1300,3531A,110.296,25.1254,桂林市,旅游学院,,35,34,31,24,17,75,,65,65,7,9,4,3,0.7,0.8
2026-02-08T1300,4222A,110.1835,25.2444,桂林市,环湖路276号,,42,41,31,29,21,68,,59,59,13,15,3,2,0.8,0.9
2026-02-08T1300,4301A,110.2803,25.2773,桂林市,信义路13号,,33,33,24,19,21,72,,62,62,9,12,5,4,0.9,1
2026-02-08T1300,2674A,100.2262,34.4854,果洛藏族自治州,玛沁县大武镇,,,32,35,16,11,78,,57,56,2,2,,16,0.4,0.3
2026-02-08T1300,1130A,126.5557,45.8109,哈尔滨市,松北商大,颗粒物(PM10),51,52,43,35,38,66,,42,42,10,21,7,9,0.7,0.8
2026-02-08T1300,1132A,126.6162,45.719,哈尔滨市,南岗学府路,颗粒物(PM10),56,61,52,29,32,71,,41,41,11,20,8,9,0.9,0.9
2026-02-08T1300,1133A,126.6894,45.7733,哈尔滨市,太平宏伟公园,颗粒物(PM10),68,86,46,29,31,68,,42,42,6,9,14,15,0.7,0.8
2026-02-08T1300,1134A,126.6361,45.7672,哈尔滨市,道外承德广场,颗粒物(PM10),57,64,61,29,32,65,,35,35,20,29,14,13,0.5,0.8
2026-02-08T1300,1136A,126.644,45.7261,哈尔滨市,动力和平路,颗粒物(PM10),58,66,50,29,33,67,,37,37,13,24,10,10,1.0,1
2026-02-08T1300,1137A,126.5933,45.7479,哈尔滨市,道里建国路,颗粒物(PM10),61,72,47,43,36,69,,36,36,18,30,18,11,0.8,0.9
2026-02-08T1300,1138A,126.6127,45.6119,哈尔滨市,平房东轻厂,细颗粒物(PM2.5),55,39,53,39,43,60,,42,42,15,33,7,5,0.8,0.9
2026-02-08T1300,1139A,126.5875,45.9827,哈尔滨市,呼兰师专,颗粒物(PM10),51,51,49,17,34,65,,49,49,8,22,8,10,0.6,0.8
2026-02-08T1300,1140A,126.6299,45.6799,哈尔滨市,省农科院,颗粒物(PM10),54,58,61,37,48,65,,37,37,12,31,15,17,0.8,1
2026-02-08T1300,4282A,126.6769,45.7379,哈尔滨市,华山路1号,"颗粒物(PM10),细颗粒物(PM2.5)",52,53,50,36,31,58,,31,31,17,28,10,7,0.9,0.9
2026-02-08T1300,4283A,126.9717,45.5356,哈尔滨市,解放大街52号,颗粒物(PM10),56,62,59,39,39,69,,49,49,12,20,16,14,0.7,0.7
2026-02-08T1300,2688A,93.5124,42.8176,哈密市,地区监测站,颗粒物(PM10),109,167,212,40,52,60,,54,54,8,12,5,4,0.1,0.2
2026-02-08T1300,2689A,93.5014,42.8312,哈密市,哈密师范学校,颗粒物(PM10),92,134,184,26,39,60,,48,48,14,21,3,2,0.3,0.4
2026-02-08T1300,2671A,100.9016,36.9464,海北藏族自治州,海晏县西海镇,,40,40,44,20,26,91,,60,60,3,6,10,10,0.5,0.5
2026-02-08T1300,3867A,102.074,36.5056,海东市,平安区公安局北苑,细颗粒物(PM2.5),108,90,69,81,47,39,,47,32,33,14,26,13,1.6,0.8
2026-02-08T1300,4163A,102.0984,36.5119,海东市,滨河路,细颗粒物(PM2.5),80,79,73,59,43,49,,24,22,37,33,30,15,1.6,0.9
2026-02-08T1300,1410A,110.3189,20.0596,海口市,海南大学,,41,41,31,21,16,101,,98,80,11,8,6,5,0.7,0.5
2026-02-08T1300,1411A,110.2827,20.0051,海口市,秀英海南医院,,38,38,30,21,17,94,,95,78,12,8,8,7,0.6,0.4
2026-02-08T1300,1412A,110.3391,19.9979,海口市,海南师范大学,,39,39,31,21,18,95,,95,78,10,7,6,5,0.8,0.5
2026-02-08T1300,1413A,110.3303,20.0359,海口市,龙华路环保局宿舍,,39,39,29,21,17,101,,101,82,13,9,/,/,0.8,0.7
2026-02-08T1300,3539A,110.5111,19.9737,海口市,桂林洋子站,,38,38,31,20,17,95,,94,78,11,8,/,/,/,/
2026-02-08T1300,4134A,110.1952,20.0451,海口市,长滨二路9号,,40,40,30,23,20,91,,92,74,10,7,/,/,/,/
2026-02-08T1300,2673A,100.6158,36.2985,海南藏族自治州,共和县恰卜恰镇,,32,24,37,20,22,101,,62,62,4,14,11,13,0.5,0.6
2026-02-08T1300,2676A,97.373,37.376,海西蒙古族藏族自治州,德令哈市,,33,24,32,3,7,103,,101,101,3,4,20,19,0.4,0.4
2026-02-08T1300,1049A,114.492,36.5712,邯郸市,矿院,颗粒物(PM10),51,52,71,33,53,78,,38,38,22,37,8,5,0.7,0.7
2026-02-08T1300,1050A,114.4839,36.6136,邯郸市,丛台公园,,46,35,64,32,47,79,,53,53,18,25,9,7,0.7,0.7
2026-02-08T1300,3458A,114.7893,36.5592,邯郸市,香泉濮院小区,"颗粒物(PM10),细颗粒物(PM2.5)",57,63,70,40,45,80,,46,46,9,23,5,6,0.5,0.6
2026-02-08T1300,3580A,114.1998,36.4439,邯郸市,峰峰矿区临水派出所,,35,35,52,16,34,87,,65,65,5,8,8,7,0.7,0.7
2026-02-08T1300,4068A,114.5209,36.7697,邯郸市,建安街268号,细颗粒物(PM2.5),59,55,65,42,45,71,,50,50,12,20,12,6,1.0,0.7
2026-02-08T1300,4069A,114.5488,36.6177,邯郸市,丛台东路558号,颗粒物(PM10),51,52,64,10,37,79,,36,36,11,27,8,5,0.8,0.8
2026-02-08T1300,2635A,107.0155,33.0707,汉中市,市监测站,细颗粒物(PM2.5),78,73,78,57,54,81,,34,34,12,23,4,4,0.6,0.7
2026-02-08T1300,2636A,107.0083,33.114,汉中市,鑫源开发区,细颗粒物(PM2.5),75,77,76,55,57,66,,34,34,12,21,4,4,0.6,0.7
2026-02-08T1300,2637A,107.0072,33.0323,汉中市,南郑大河坎水厂,细颗粒物(PM2.5),85,99,91,63,52,77,,29,29,14,22,6,7,0.6,0.8
2026-02-08T1300,1223A,120.2073,30.2111,杭州市,滨江,,45,45,51,28,30,73,,54,54,18,22,7,6,0.3,0.3
2026-02-08T1300,1224A,120.0625,30.2737,杭州市,西溪,,43,43,46,23,31,81,,49,49,12,20,9,8,0.4,0.5
2026-02-08T1300,1226A,120.3417,30.315,杭州市,下沙,细颗粒物(PM2.5),54,51,47,38,35,74,,47,47,15,23,9,8,0.4,0.4
2026-02-08T1300,1227A,120.1252,30.2465,杭州市,卧龙桥,,42,42,42,27,31,78,,48,48,5,9,8,9,0.3,0.4
2026-02-08T1300,1228A,120.1902,30.2691,杭州市,浙江农大,,43,43,49,26,29,83,,60,60,23,28,7,5,0.5,0.5
2026-02-08T1300,1230A,120.1195,30.3121,杭州市,和睦小学,,46,46,49,29,33,80,,54,54,11,17,6,5,0.6,0.6
2026-02-08T1300,1231A,120.3076,30.4146,杭州市,临平镇,细颗粒物(PM2.5),55,55,56,39,37,78,,52,52,9,12,8,6,0.6,0.6
2026-02-08T1300,1232A,120.2753,30.1839,杭州市,城厢镇,颗粒物(PM10),53,55,49,30,32,87,,62,62,10,15,8,7,0.6,0.6
2026-02-08T1300,1233A,120.0883,30.1808,杭州市,云栖,,34,34,39,18,26,82,,44,44,4,10,5,4,0.5,0.6
2026-02-08T1300,3557A,119.9463,30.0496,杭州市,镇二中,,32,28,34,22,31,78,,43,43,14,19,5,4,0.6,0.6
2026-02-08T1300,3558A,119.7184,30.2367,杭州市,市府大楼,,26,22,36,18,33,82,,40,40,7,14,10,9,0.5,0.7
2026-02-08T1300,3656A,120.1554,30.2863,杭州市,消防大队,,49,49,45,30,32,78,,56,56,13,18,7,6,0.5,0.6
2026-02-08T1300,1270A,117.1957,31.7845,合肥市,明珠广场,,44,44,64,17,35,70,,49,49,18,25,6,6,0.4,0.4
2026-02-08T1300,1271A,117.307,31.8765,合肥市,三里街,,34,34,63,15,32,68,,52,52,17,26,7,6,0.8,0.8
2026-02-08T1300,1272A,117.2587,31.8703,合肥市,琥珀山庄,,44,44,67,22,37,70,,56,56,13,20,9,8,0.7,0.7
2026-02-08T1300,1275A,117.2593,31.9376,合肥市,庐阳区,,34,34,67,17,33,72,,53,53,16,27,5,5,0.5,0.6
2026-02-08T1300,1276A,117.345251,31.861615,合肥市,瑶海区,,39,39,66,18,35,70,,59,59,18,25,5,5,0.6,0.7
2026-02-08T1300,1277A,117.3033,31.7967,合肥市,包河区,,41,41,65,15,32,66,,42,42,16,37,6,5,0.7,0.7
2026-02-08T1300,1278A,117.278,31.7392,合肥市,滨湖新区,,36,36,65,16,30,66,,56,56,13,25,2,2,0.6,0.6
2026-02-08T1300,1279A,117.1324,31.8395,合肥市,高新区,颗粒物(PM10),51,51,69,19,34,68,,52,52,13,18,4,4,0.5,0.5
2026-02-08T1300,3464A,117.3802,31.9148,合肥市,高教基地,,39,39,65,14,34,80,,60,60,13,20,9,8,0.5,0.5
2026-02-08T1300,4098A,117.2518,31.8404,合肥市,中国科学技术大学,,34,34,61,14,33,79,,63,63,11,16,9,8,0.5,0.5
2026-02-08T1300,3614A,79.9241,37.0878,和田地区,地区环保局,颗粒物(PM10),500,715,672,129,120,68,,50,50,11,17,3,3,1.2,1.2
2026-02-08T1300,3615A,79.9132,37.1137,和田地区,市环保局,颗粒物(PM10),500,689,605,121,109,82,,60,60,18,23,1,3,0.1,0.4
2026-02-08T1300,2517A,108.0496,24.6957,河池市,市环保站,,17,10,15,3,13,54,,53,53,12,13,2,2,0.7,0.8
2026-02-08T1300,4302A,108.0901,24.6945,河池市,上任中路54号,,16,11,18,3,12,51,,49,49,7,9,4,4,1.0,1.1
2026-02-08T1300,1697A,114.6962,23.7538,河源市,东埔,,30,27,23,21,16,73,,65,65,6,8,5,5,0.5,0.6
2026-02-08T1300,1698A,114.6895,23.7232,河源市,老城,,35,35,20,15,8,72,,64,64,6,8,6,6,0.5,0.6
2026-02-08T1300,3374A,115.5562,35.089,菏泽市,定陶老年大学,细颗粒物(PM2.5),87,105,75,64,48,93,,56,56,15,24,6,8,0.5,0.5
2026-02-08T1300,4114A,115.4239,35.2593,菏泽市,黄河路600号,细颗粒物(PM2.5),108,137,80,81,47,92,,61,61,18,29,5,6,0.5,0.5
2026-02-08T1300,4115A,115.5025,35.2727,菏泽市,菏泽市人社局,细颗粒物(PM2.5),102,124,76,76,49,84,,59,59,16,32,5,7,0.6,0.6
2026-02-08T1300,4184A,115.479691,35.244011,菏泽市,永昌路1号,细颗粒物(PM2.5),97,113,73,72,43,93,,62,62,14,29,4,6,0.5,0.5
2026-02-08T1300,4193A,115.471542,35.280012,菏泽市,长城路999号,细颗粒物(PM2.5),103,130,80,77,46,90,,64,64,18,30,4,6,0.5,0.5
2026-02-08T1300,2514A,111.5264,24.4178,贺州市,环保小区,,43,36,26,30,20,48,,44,44,16,16,3,3,0.5,0.7
2026-02-08T1300,2515A,111.561,24.4074,贺州市,政协大楼,,46,38,30,32,20,46,,41,41,15,13,3,4,0.8,1
2026-02-08T1300,3534A,111.4744,24.455,贺州市,西湾,,43,43,33,27,19,41,,41,41,15,16,5,5,0.8,0.9
2026-02-08T1300,2385A,114.17,35.9019,鹤壁市,市监测站,细颗粒物(PM2.5),90,90,84,67,55,78,,48,48,16,19,8,6,0.6,0.7
2026-02-08T1300,2386A,114.2953,35.7512,鹤壁市,市交警支队,细颗粒物(PM2.5),104,118,94,78,61,72,,61,61,27,28,6,7,0.6,0.6
2026-02-08T1300,2387A,114.2877,35.7302,鹤壁市,迎宾馆,,,126,98,69,62,78,,66,66,,24,8,6,0.8,0.8
2026-02-08T1300,3474A,114.2616,35.6824,鹤壁市,大新区,细颗粒物(PM2.5),109,118,96,82,69,80,,61,61,24,26,11,9,0.8,0.8
2026-02-08T1300,3596A,114.1573,35.9607,鹤壁市,南山宾馆,颗粒物(PM10),72,94,90,46,58,79,,58,58,16,14,10,14,0.5,0.6
2026-02-08T1300,2244A,130.2537,47.3416,鹤岗市,哈啤分公司,,27,14,24,3,13,86,,80,79,3,5,6,7,0.4,0.4
2026-02-08T1300,2245A,130.2683,47.3087,鹤岗市,斯达机电,,25,21,28,3,10,79,,78,77,6,6,5,6,0.5,0.5
2026-02-08T1300,2246A,130.3114,47.3388,鹤岗市,东山纸板厂,,30,30,27,3,11,83,,75,74,3,5,7,8,0.3,0.5
2026-02-08T1300,2263A,127.4832,50.2524,黑河市,交通局,,24,17,23,10,14,76,,74,74,8,11,6,6,0.3,0.4
2026-02-08T1300,2264A,127.5146,50.2339,黑河市,环保局,,23,23,25,11,17,70,,72,69,14,16,8,6,0.5,0.4
2026-02-08T1300,1074A,115.6839,37.754,衡水市,电机北厂,颗粒物(PM10),73,96,50,48,33,68,,51,51,25,28,12,7,0.4,0.3
2026-02-08T1300,1075A,115.6303,37.7318,衡水市,市监测站,细颗粒物(PM2.5),64,69,50,46,30,71,,37,37,24,37,12,8,0.7,0.5
2026-02-08T1300,3188A,115.6684,37.7216,衡水市,市城管局,颗粒物(PM10),69,87,56,41,32,66,,41,41,27,33,8,6,0.6,0.5
2026-02-08T1300,3459A,115.599,37.5491,衡水市,地表水厂,细颗粒物(PM2.5),69,73,50,50,35,78,,32,32,15,38,9,7,0.5,0.5
2026-02-08T1300,2457A,112.6209,26.9268,衡阳市,衡阳化工总厂,细颗粒物(PM2.5),60,53,53,43,41,54,,40,40,9,14,7,7,0.7,0.8
2026-02-08T1300,2458A,112.621,26.8957,衡阳市,珠晖区环保局,细颗粒物(PM2.5),64,49,53,46,40,51,,40,40,14,18,4,4,0.9,0.9
2026-02-08T1300,2459A,112.628,26.8654,衡阳市,市委党校,细颗粒物(PM2.5),69,52,52,50,41,48,,42,42,11,13,9,8,0.8,0.8
2026-02-08T1300,2460A,112.6007,26.8977,衡阳市,市监测站,颗粒物(PM10),66,81,78,46,40,52,,41,41,11,13,6,6,1.0,0.9
2026-02-08T1300,2461A,112.5658,26.9013,衡阳市,真空机电公司,细颗粒物(PM2.5),69,63,71,50,47,52,,41,41,13,16,7,7,0.8,0.8
2026-02-08T1300,3399A,112.6703,26.8817,衡阳市,师范学院,"颗粒物(PM10),细颗粒物(PM2.5)",62,74,62,44,42,49,,42,42,13,15,3,3,0.6,0.6
2026-02-08T1300,3038A,103.3757,23.3679,红河哈尼族彝族自治州,州图书馆,,29,23,37,20,31,80,,69,67,5,6,10,10,0.6,0.6
2026-02-08T1300,4154A,103.401,23.3561,红河哈尼族彝族自治州,蒙自市朝阳路,,32,,27,22,27,78,,68,68,4,5,5,6,0.4,0.4
2026-02-08T1300,1090A,111.6506,40.7517,呼和浩特市,呼市一监,,46,46,48,16,22,63,,29,29,14,29,11,8,0.5,0.6
2026-02-08T1300,1094A,111.7516,40.8369,呼和浩特市,如意水处理厂,,,,28,,12,64,,8,,14,31,,9,0.6,0.5
2026-02-08T1300,1095A,111.727798,40.806187,呼和浩特市,二十九中,颗粒物(PM10),52,54,34,17,15,59,,29,29,14,25,14,11,0.5,0.5
2026-02-08T1300,1097A,111.717,40.7617,呼和浩特市,化肥厂生活区,,40,40,43,14,18,63,,32,32,18,25,10,6,0.4,0.5
2026-02-08T1300,3699A,111.6519,40.8389,呼和浩特市,海东办,,41,41,28,19,12,56,,26,26,21,27,9,5,0.6,0.4
2026-02-08T1300,4275A,111.591512,40.827312,呼和浩特市,成吉思汗西街8号,颗粒物(PM10),51,51,33,22,12,50,,22,22,25,28,16,7,0.6,0.4
2026-02-08T1300,4276A,111.6597,40.8077,呼和浩特市,公园东路75号,颗粒物(PM10),51,51,36,18,13,58,,32,32,25,27,9,6,0.7,0.5
2026-02-08T1300,4277A,111.5427,40.7846,呼和浩特市,金海路35号,,45,45,43,21,17,59,,27,27,19,39,13,8,0.5,0.5
2026-02-08T1300,3061A,119.7511,49.1576,呼伦贝尔市,国华电力东,,23,11,20,7,8,72,,69,69,8,10,6,8,0.3,0.3
2026-02-08T1300,4279A,119.7569,49.2222,呼伦贝尔市,伊敏大街东7号,,24,24,24,8,10,76,,74,72,7,10,7,7,0.2,0.1
2026-02-08T1300,1250A,120.075,30.867,湖州市,城西水厂,,45,43,58,31,42,84,,45,45,16,36,7,6,0.6,0.6
2026-02-08T1300,2873A,120.083,30.8929,湖州市,仁皇山新区,,36,36,55,25,36,85,,56,56,15,24,7,6,0.5,0.6
2026-02-08T1300,2907A,120.1846,30.8592,湖州市,吴兴区站,,41,41,56,24,41,80,,51,51,11,18,5,5,0.4,0.5
2026-02-08T1300,3562A,120.4146,30.8538,湖州市,南浔区站,,50,48,59,35,41,82,,57,57,16,21,8,7,0.5,0.6
2026-02-08T1300,1607A,120.904878,40.721091,葫芦岛市,龙港区,,,61,39,8,21,59,,43,43,16,26,,12,,0.8
2026-02-08T1300,1608A,120.8382,40.7521,葫芦岛市,化工街,,31,31,41,12,22,60,,30,30,16,41,17,17,0.4,0.5
2026-02-08T1300,1609A,120.8339,40.7078,葫芦岛市,新区,,31,31,28,20,17,56,,37,37,20,38,16,12,0.8,0.7
2026-02-08T1300,1610A,120.8697,40.7679,葫芦岛市,东城区,颗粒物(PM10),55,60,41,21,23,62,,29,29,20,39,14,17,0.7,0.8
2026-02-08T1300,2483A,109.9297,27.5383,怀化市,河西地税局,颗粒物(PM10),61,71,80,31,50,79,,52,52,19,18,1,3,/,/
2026-02-08T1300,2484A,109.9783,27.5342,怀化市,市四医院,,,,81,,57,73,,43,43,8,11,6,5,,0.8
2026-02-08T1300,2485A,109.9971,27.5579,怀化市,监测楼,颗粒物(PM10),55,59,74,37,53,79,,47,47,13,14,4,2,0.1,0.2
2026-02-08T1300,1210A,119.0566,33.5991,淮安市,钵池山,,27,27,59,14,35,79,,59,59,9,22,7,9,0.2,0.4
2026-02-08T1300,1211A,119.0083,33.578,淮安市,北京南路,,27,27,61,14,35,77,,48,48,7,23,7,8,0.4,0.6
2026-02-08T1300,1212A,118.9938,33.6083,淮安市,市监测站,,24,24,53,13,38,75,,49,49,10,30,9,11,0.3,0.5
2026-02-08T1300,1213A,119.135,33.5038,淮安市,楚州区监测站,,27,27,56,13,34,74,,59,59,10,23,7,7,0.6,0.8
2026-02-08T1300,3426A,118.8757,33.2897,淮安市,新华书店,,30,30,64,20,39,78,,63,63,10,22,10,11,0.5,0.6
2026-02-08T1300,4092A,119.119691,33.550006,淮安市,枚皋中路89号,,25,24,60,15,38,77,,55,55,8,22,9,10,0.3,0.5
2026-02-08T1300,4206A,119.028838,33.631911,淮安市,承德北路606号,,31,31,65,13,34,86,,53,53,6,28,8,9,0.4,0.5
2026-02-08T1300,2282A,116.8005,33.9749,淮北市,监测站,颗粒物(PM10),55,60,72,30,39,89,,51,51,20,27,7,6,0.6,0.7
2026-02-08T1300,2283A,116.8094,33.9008,淮北市,烈山区政府,,48,48,75,17,40,81,,48,48,12,20,6,6,0.3,0.4
2026-02-08T1300,4017A,116.7926,33.9534,淮北市,市博物馆,颗粒物(PM10),59,68,80,26,45,83,,43,43,17,27,5,5,0.4,0.4
2026-02-08T1300,4100A,116.8322,33.9884,淮北市,杜集区第一实验学校,,,74,84,28,44,88,,49,49,,22,6,7,0.2,0.2
2026-02-08T1300,2277A,116.8304,32.7726,淮南市,潘集区政府,颗粒物(PM10),54,57,86,20,45,87,,49,49,16,23,8,6,0.4,0.4
2026-02-08T1300,2279A,116.8569,32.5949,淮南市,谢家集区政府,,35,35,77,17,39,76,,55,55,14,22,8,8,0.5,0.6
2026-02-08T1300,2280A,116.8279,32.6333,淮南市,八公山区政府,,38,38,71,21,45,75,,58,58,19,21,5,4,0.5,0.6
2026-02-08T1300,2894A,117.0561,32.6536,淮南市,经济技术开发区消防队,,47,47,84,19,42,74,,49,49,16,26,6,5,0.4,0.4
2026-02-08T1300,3329A,117.011,32.5891,淮南市,山南新区,,,32,72,18,36,78,,63,63,,14,8,8,0.3,0.4
2026-02-08T1300,4209A,117.003137,32.644456,淮南市,国庆中路369号,,29,24,68,20,38,69,,48,48,17,23,4,4,0.5,0.5
2026-02-08T1300,2446A,114.9021,30.474,黄冈市,职工中心,细颗粒物(PM2.5),58,50,57,41,47,77,,52,52,13,8,8,4,0.7,0.6
2026-02-08T1300,2929A,114.8858,30.4519,黄冈市,红卫路,细颗粒物(PM2.5),67,51,52,48,42,74,,53,53,16,11,10,6,0.5,0.3
2026-02-08T1300,3398A,114.9134,30.4446,黄冈市,市林业局,细颗粒物(PM2.5),55,51,59,39,45,67,,48,48,16,13,4,4,0.7,0.5
2026-02-08T1300,2672A,102.02,35.5101,黄南藏族自治州,同仁县隆务镇,,40,40,52,18,23,82,,63,60,4,5,9,8,0.2,0.4
2026-02-08T1300,2295A,118.2905,29.6965,黄山市,延安路89号,,49,49,39,33,30,94,,54,54,10,11,6,4,0.3,0.4
2026-02-08T1300,2297A,118.1369,30.2755,黄山市,黄山区政府5号楼,,42,42,47,14,30,96,,44,44,8,12,4,2,0.4,0.5
2026-02-08T1300,4210A,118.335445,29.720283,黄山市,滨江东路7-2号,颗粒物(PM10),54,57,54,31,26,101,,59,59,12,13,/,/,/,/
2026-02-08T1300,2423A,115.0547,30.2332,黄石市,沈家营,,,,58,,32,,,71,,,9,,7,,1.0
2026-02-08T1300,2426A,114.899,30.211,黄石市,铁山,,48,39,53,33,43,95,,56,56,3,11,7,5,0.4,0.8
2026-02-08T1300,2427A,115.0259,30.2108,黄石市,团城山,颗粒物(PM10),51,51,59,30,41,80,,52,52,2,7,7,7,0.6,0.7
2026-02-08T1300,3149A,115.0174,30.1591,黄石市,笔架山北路,颗粒物(PM10),53,55,71,27,38,91,,59,59,10,14,7,6,0.7,0.8
2026-02-08T1300,4185A,115.078022,30.21118,黄石市,磁湖东路29号,细颗粒物(PM2.5),52,45,57,36,42,92,,60,60,9,14,6,7,0.5,0.6
2026-02-08T1300,1392A,114.4181,23.0528,惠州市,河南岸金山湖子站,,32,32,26,13,11,75,,61,61,11,11,6,6,0.6,0.8
2026-02-08T1300,1393A,114.4055,23.0824,惠州市,下埔横江三路子站,,26,26,24,15,15,81,,66,66,8,10,6,6,0.5,0.6
2026-02-08T1300,1395A,114.4645,22.7832,惠州市,惠阳区承修路船湖子站,,29,29,32,14,16,70,,57,57,11,13,6,6,0.6,0.7
2026-02-08T1300,1396A,114.5316,22.7423,惠州市,大亚湾管委会子站,,24,24,31,13,14,65,,53,52,7,12,6,6,0.6,0.7
2026-02-08T1300,3314A,114.4334,22.8134,惠州市,惠阳秋长,,27,27,27,14,16,84,,68,68,8,10,/,/,/,/
2026-02-08T1300,3452A,114.6521,22.7755,惠州市,大亚湾霞涌,,30,22,28,21,18,71,,56,56,10,12,/,/,/,/
2026-02-08T1300,4300A,114.4089,23.1147,惠州市,文华一路1号,,26,26,25,17,16,79,,64,64,9,11,/,/,/,/
2026-02-08T1300,2240A,130.9618,45.2926,鸡西市,环保局,,25,18,18,10,13,79,,72,72,6,8,6,7,0.3,0.3
2026-02-08T1300,2243A,130.9294,45.2959,鸡西市,第一中学,,25,,16,6,12,78,,72,72,4,5,3,3,0.3,0.4
2026-02-08T1300,3707A,131.0069,45.2988,鸡西市,欧美日汽修厂,,26,26,25,11,14,73,,67,67,2,3,9,8,0.6,0.6
2026-02-08T1300,2367A,114.9753,27.0803,吉安市,红声器材厂,颗粒物(PM10),52,53,48,33,31,77,,58,58,10,14,9,8,0.5,0.6
2026-02-08T1300,2369A,114.9903,27.1313,吉安市,市环境监测站,,44,44,39,29,33,80,,61,61,6,13,8,8,/,/
2026-02-08T1300,2370A,115.009527,27.096792,吉安市,青原区法院,,47,47,40,32,31,77,,57,57,12,14,10,9,0.6,0.6
2026-02-08T1300,1772A,126.54,43.8622,吉林市,哈达湾,,27,27,53,9,31,84,,65,65,5,17,19,9,0.7,0.8
2026-02-08T1300,1773A,126.5843,43.8358,吉林市,东局子,,26,26,45,3,30,68,,54,54,12,18,4,6,0.6,0.8
2026-02-08T1300,1774A,126.5051,43.8243,吉林市,电力学院,,27,14,58,8,49,84,,57,57,6,30,6,9,0.5,1.2
2026-02-08T1300,1775A,126.6133,43.8971,吉林市,江北,,25,21,52,11,43,80,,64,64,6,20,5,8,0.4,0.7
2026-02-08T1300,1776A,126.5549,43.8304,吉林市,江南公园,,25,17,45,13,37,78,,58,58,5,20,6,8,0.5,0.8
2026-02-08T1300,2868A,126.4737,43.953,吉林市,九站,,28,28,48,16,41,79,,49,49,10,36,5,7,0.7,0.9
2026-02-08T1300,1299A,116.9866,36.6118,济南市,科干所,颗粒物(PM10),62,73,48,32,23,81,,48,48,11,19,11,10,0.4,0.4
2026-02-08T1300,1300A,116.9379,36.6652,济南市,农科所,,,66,53,40,28,74,,39,39,15,39,9,7,,0.6
2026-02-08T1300,1301A,117.1265,36.6736,济南市,开发区,颗粒物(PM10),58,66,40,36,20,91,,67,67,25,26,7,4,0.5,0.4
2026-02-08T1300,1303A,117.0616,36.6865,济南市,省种子仓库,颗粒物(PM10),62,73,50,38,23,82,,43,43,17,29,9,5,0.5,0.4
2026-02-08T1300,1304A,116.9495185,36.644937,济南市,机床二厂,颗粒物(PM10),57,63,53,38,29,78,,42,42,15,30,10,12,0.5,0.5
2026-02-08T1300,1305A,117.0496,36.6629,济南市,市监测站,颗粒物(PM10),63,76,47,38,22,82,,52,52,15,23,9,5,0.6,0.5
2026-02-08T1300,1306A,116.7674,36.5458,济南市,长清党校,颗粒物(PM10),67,83,51,38,23,78,,44,44,20,37,8,7,0.6,0.5
2026-02-08T1300,1961A,117.5323,36.6865,济南市,东山小学,颗粒物(PM10),66,81,45,34,20,92,,62,62,12,23,6,4,0.4,0.4
2026-02-08T1300,3059A,117.7181,36.205,济南市,泰兴公司,颗粒物(PM10),56,61,61,28,36,78,,32,32,16,32,7,6,0.7,0.8
2026-02-08T1300,3064A,117.6861,36.2172,济南市,莱芜战役纪念馆,颗粒物(PM10),52,53,58,30,33,78,,34,34,19,34,13,11,0.9,0.7
2026-02-08T1300,3494A,117.1673,36.9782,济南市,济阳区政府,颗粒物(PM10),59,68,55,34,31,70,,38,38,16,33,10,7,0.6,0.6
2026-02-08T1300,3495A,117.1168,36.6299,济南市,锦屏中学,颗粒物(PM10),58,66,37,38,20,84,,66,66,15,17,7,4,0.3,0.3
2026-02-08T1300,4108A,117.7107,36.2385,济南市,山财大街5号,颗粒物(PM10),51,51,45,26,27,77,,36,36,16,34,13,10,1.1,1
2026-02-08T1300,4109A,116.9744,36.6889,济南市,无影山路12号,"颗粒物(PM10),细颗粒物(PM2.5)",59,68,51,42,28,76,,44,44,11,31,8,8,0.4,0.5
2026-02-08T1300,1653A,116.6229,35.4288,济宁市,火炬城,,39,39,46,21,26,81,,54,54,11,17,2,2,0.3,0.4
2026-02-08T1300,3500A,116.5808,35.3703,济宁市,北湖一中,,43,43,44,18,23,79,,48,48,14,26,3,4,0.3,0.3
2026-02-08T1300,3501A,116.8251,35.5592,济宁市,服务中心,颗粒物(PM10),55,59,68,18,35,74,,31,31,13,25,5,5,0.3,0.4
2026-02-08T1300,3678A,116.5907,35.4054,济宁市,市第七中学,颗粒物(PM10),60,70,50,21,26,86,,58,58,13,20,7,8,0.3,0.4
2026-02-08T1300,4111A,116.6075,35.4566,济宁市,任和路,,48,48,63,24,30,82,,39,39,13,28,6,7,0.3,0.5
2026-02-08T1300,4112A,116.5648,35.3921,济宁市,文体南路1号,,44,44,52,13,27,89,,46,46,7,21,5,4,0.3,0.3
2026-02-08T1300,2255A,130.2749,46.8028,佳木斯市,佳纺,,24,22,29,15,20,75,,68,68,2,9,3,6,0.4,0.5
2026-02-08T1300,2257A,130.3258,46.7975,佳木斯市,环保局,,32,32,24,10,18,75,,68,67,6,9,7,6,0.2,0.3
2026-02-08T1300,4285A,130.363,46.806,佳木斯市,顺和街,,29,29,24,20,20,70,,67,64,10,13,4,5,0.5,0.6
2026-02-08T1300,4286A,130.3952,46.8268,佳木斯市,长安路196号,,24,22,22,14,18,75,,70,69,8,10,5,6,0.3,0.3
2026-02-08T1300,1252A,120.7439,30.778,嘉兴市,清河小学,颗粒物(PM10),54,57,71,34,42,74,,51,51,14,26,8,6,0.6,0.6
2026-02-08T1300,1253A,120.7261,30.7477,嘉兴市,嘉兴学院,颗粒物(PM10),51,51,62,32,39,78,,53,53,15,25,6,5,0.7,0.7
2026-02-08T1300,2872A,120.7845,30.7524,嘉兴市,南湖区残联,,49,45,58,34,44,82,,61,61,15,24,6,5,0.5,0.6
2026-02-08T1300,3407A,120.6915,30.7741,嘉兴市,秀洲住建,,50,50,65,30,38,82,,56,56,12,23,8,7,0.5,0.5
2026-02-08T1300,1945A,98.291,39.7705,嘉峪关市,气象局,颗粒物(PM10),137,224,226,74,62,61,,38,38,25,21,48,15,2.5,0.7
2026-02-08T1300,2884A,98.2672,39.7978,嘉峪关市,酒钢宾馆,颗粒物(PM10),147,244,217,85,59,53,,39,39,41,19,91,19,,0.9
2026-02-08T1300,3248A,98.2644,39.7723,嘉峪关市,雄关区,颗粒物(PM10),127,204,182,89,61,57,,32,32,38,33,51,14,2.5,0.7
2026-02-08T1300,1383A,113.1063,22.6058,江门市,北街,,43,43,32,24,18,87,,70,70,17,19,/,/,/,/
2026-02-08T1300,1384A,113.073,22.5835,江门市,西区,,37,37,36,23,18,83,,72,72,13,18,/,/,/,/
2026-02-08T1300,1385A,113.0218,22.531,江门市,圭峰西,,33,28,32,23,18,82,,70,70,16,16,/,/,/,/
2026-02-08T1300,1386A,113.0826,22.5947,江门市,东湖,,38,37,30,26,18,85,,70,70,16,18,8,8,0.5,0.7
2026-02-08T1300,3311A,113.1077,22.5647,江门市,江海富民,,36,32,34,25,18,87,,69,69,18,21,/,/,0.6,0.7
2026-02-08T1300,3449A,113.0496,22.4669,江门市,新会银湖,,36,36,34,24,19,81,,65,65,19,23,6,7,0.5,0.7
2026-02-08T1300,3335A,113.3137,35.2643,焦作市,马村街道办,细颗粒物(PM2.5),99,117,116,74,66,68,,50,50,23,23,12,10,0.7,0.7
2026-02-08T1300,3336A,113.2464,35.2374,焦作市,焦作技师学院,细颗粒物(PM2.5),97,110,97,72,56,70,,50,50,24,24,11,9,0.6,0.7
2026-02-08T1300,3477A,113.1656,35.2536,焦作市,中站许衡医院,细颗粒物(PM2.5),108,105,82,81,57,71,,62,60,20,14,20,13,0.8,0.7
2026-02-08T1300,3981A,113.2456,35.18,焦作市,原李万街道办,,,119,101,65,60,83,,51,51,17,24,,10,0.7,0.8
2026-02-08T1300,4264A,113.234,35.219,焦作市,新安路1731号,细颗粒物(PM2.5),88,95,103,65,57,80,,52,52,18,21,11,9,0.6,0.6
2026-02-08T1300,4295A,113.2722,35.2121,焦作市,人民路3066号,细颗粒物(PM2.5),103,125,110,77,61,73,,44,44,20,26,11,10,0.8,0.9
2026-02-08T1300,1708A,116.3701,23.5345,揭阳市,新兴,,21,21,33,12,14,61,,51,46,12,20,6,7,0.7,0.7
2026-02-08T1300,1709A,116.3261,23.5442,揭阳市,西马,,20,16,35,12,13,62,,48,47,8,15,4,4,0.6,0.7
2026-02-08T1300,1710A,116.361,23.5627,揭阳市,东兴,,22,22,38,14,16,61,,46,45,8,17,7,9,/,/
2026-02-08T1300,1711A,116.4151,23.5295,揭阳市,渔湖,,24,24,35,15,15,67,,55,51,10,17,6,5,/,/
2026-02-08T1300,3320A,116.4028,23.5699,揭阳市,曲溪,,23,22,36,13,15,73,,56,56,4,12,2,5,0.6,0.6
2026-02-08T1300,1944A,102.1691,38.5166,金昌市,天庆家园,颗粒物(PM10),74,97,132,37,46,72,,46,46,6,14,6,13,0.2,0.3
2026-02-08T1300,4022A,102.1648,38.5369,金昌市,金川区人防中心,颗粒物(PM10),71,92,137,32,48,73,,53,53,5,12,9,27,0.3,0.4
2026-02-08T1300,4239A,102.193042,38.531887,金昌市,长春路96号,颗粒物(PM10),71,92,133,26,42,69,,50,50,5,10,8,67,0.6,0.7
2026-02-08T1300,1262A,119.6478,29.0773,金华市,十五中,颗粒物(PM10),52,54,40,35,31,91,,68,68,12,17,3,2,0.5,0.6
2026-02-08T1300,1263A,119.6859,29.1032,金华市,监测站,颗粒物(PM10),51,52,44,32,31,78,,53,53,15,24,3,2,0.5,0.6
2026-02-08T1300,3659A,119.656,29.1132,金华市,气象局,,50,50,45,33,29,79,,45,45,15,28,2,1,0.5,0.5
2026-02-08T1300,1767A,121.1114,41.0879,锦州市,南山,,32,32,51,12,24,89,,48,48,5,22,16,20,0.8,0.9
2026-02-08T1300,1768A,121.060361,40.842794,锦州市,开发区,,34,34,70,23,32,59,,27,27,19,46,14,15,0.5,1
2026-02-08T1300,1769A,121.1836,41.1118,锦州市,百股街道,,43,43,37,16,19,84,,55,54,10,15,17,10,0.8,0.8
2026-02-08T1300,1770A,121.1176,41.1224,锦州市,天安街道,,29,18,40,12,19,91,,54,54,7,17,5,9,0.6,0.8
2026-02-08T1300,1771A,121.1303,41.1385,锦州市,北湖公园,,28,27,35,13,15,88,,66,63,6,11,10,12,0.6,0.6
2026-02-08T1300,2160A,112.8496,35.5051,晋城市,自来水公司,,29,29,63,3,15,68,,47,44,14,17,10,6,0.8,0.5
2026-02-08T1300,2162A,112.8509,35.4886,晋城市,市环保局,,38,38,45,9,20,71,,53,49,14,13,5,3,0.6,0.3
2026-02-08T1300,3620A,112.8258,35.4804,晋城市,泽州一中,颗粒物(PM10),55,59,48,21,23,75,,59,55,12,10,6,4,0.5,0.4
2026-02-08T1300,4078A,112.8246,35.5152,晋城市,前书院路,颗粒物(PM10),55,60,51,14,14,63,,42,41,18,14,9,6,0.7,0.3
2026-02-08T1300,4079A,112.8864,35.4773,晋城市,祥云街666号,,,35,46,29,27,70,,52,45,,19,9,7,0.6,0.4
2026-02-08T1300,2174A,112.6992,37.6984,晋中市,榆次区政府,颗粒物(PM10),53,56,50,29,18,60,,29,29,26,28,30,15,0.6,0.5
2026-02-08T1300,2865A,112.7195,37.683,晋中市,榆次三中,颗粒物(PM10),53,56,53,23,17,62,,26,26,24,29,29,15,0.9,0.4
2026-02-08T1300,4080A,112.7375,37.7215,晋中市,广安街188号,,48,48,50,25,22,63,,24,24,22,31,33,18,0.7,0.5
2026-02-08T1300,4200A,112.7478,37.6954,晋中市,迎宾街26号,颗粒物(PM10),56,61,49,28,17,62,,33,33,21,20,34,15,0.8,0.5
2026-02-08T1300,2439A,112.2012,31.048,荆门市,竹园小学,细颗粒物(PM2.5),89,122,129,66,82,83,,44,44,15,28,1,1,0,0.2
2026-02-08T1300,2440A,112.1968,30.9892,荆门市,掇刀,细颗粒物(PM2.5),93,116,134,69,89,90,,47,47,10,23,6,6,0.6,0.8
2026-02-08T1300,3012A,112.1849,31.0361,荆门市,西山林语,颗粒物(PM10),88,126,125,63,80,84,,48,48,14,23,4,3,0.5,0.6
2026-02-08T1300,3547A,112.1631,31.0134,荆门市,龙泉中学南校,颗粒物(PM10),86,121,136,55,74,91,,55,55,11,20,6,5,0,0.1
2026-02-08T1300,4124A,112.2213,31.0654,荆门市,新台西路6号,细颗粒物(PM2.5),97,102,148,72,97,84,,36,36,14,28,10,9,0.4,0.7
2026-02-08T1300,1844A,112.2493,30.3198,荆州市,市图书馆,细颗粒物(PM2.5),75,76,91,55,68,85,,47,47,14,22,9,7,0.6,0.7
2026-02-08T1300,1845A,112.2009,30.3543,荆州市,市委党校,细颗粒物(PM2.5),90,75,111,67,78,72,,34,34,21,30,7,7,0.8,0.9
2026-02-08T1300,3194A,112.2749,30.3124,荆州市,管委会,细颗粒物(PM2.5),72,65,97,52,74,89,,44,44,14,29,8,7,0.6,0.7
2026-02-08T1300,4268A,112.1722,30.3366,荆州市,学苑路85号,细颗粒物(PM2.5),83,80,96,61,78,82,,43,43,15,20,10,8,0.5,0.6
2026-02-08T1300,2343A,117.2114,29.2931,景德镇市,老干部活动中心,,43,43,38,30,26,78,,54,54,6,7,4,5,0.5,0.6
2026-02-08T1300,2344A,117.1893,29.2789,景德镇市,兽医站,,50,50,43,29,28,81,,54,54,8,9,4,4,0.5,0.5
2026-02-08T1300,2346A,117.246,29.2958,景德镇市,陶研所,,36,36,32,22,28,81,,43,43,5,8,4,3,0.4,0.5
2026-02-08T1300,4289A,117.154766,29.256967,景德镇市,青少年活动中心,,39,39,41,24,29,78,,54,54,9,10,4,3,/,/
2026-02-08T1300,1803A,115.9873,29.6816,九江市,十里,,,66,56,,37,93,,63,63,11,16,7,5,0.7,0.6
2026-02-08T1300,1804A,115.9583,29.7047,九江市,茅山头,细颗粒物(PM2.5),74,72,59,54,44,94,,65,65,8,11,5,4,0.5,0.5
2026-02-08T1300,1805A,115.9877,29.7295,九江市,西园,细颗粒物(PM2.5),85,68,57,63,42,94,,67,67,12,17,8,7,0.8,0.7
2026-02-08T1300,1808A,115.9112,29.6038,九江市,综合工业园,颗粒物(PM10),61,72,58,40,32,89,,60,60,18,21,6,4,0.6,0.5
2026-02-08T1300,3190A,116.0254,29.6995,九江市,外国语学校,细颗粒物(PM2.5),68,52,49,49,38,82,,54,54,14,17,4,3,0.5,0.4
2026-02-08T1300,4253A,116.010205,29.659402,九江市,莲花大道8号,细颗粒物(PM2.5),67,76,64,48,36,86,,62,62,8,8,5,3,0.4,0.5
2026-02-08T1300,4240A,98.495752,39.733935,酒泉市,玉门东路5号,颗粒物(PM10),107,163,123,45,42,71,,59,59,12,12,21,11,0.7,0.5
2026-02-08T1300,4241A,98.5099,39.7506,酒泉市,北大街108号,颗粒物(PM10),89,127,106,39,36,72,,61,61,7,7,16,10,0.5,0.4
2026-02-08T1300,2698A,76.0071,39.466,喀什地区,巡警大队,颗粒物(PM10),333,446,428,120,104,32,,32,28,46,34,8,6,1.6,1.2
2026-02-08T1300,2699A,75.9756,39.4693,喀什地区,吾办,颗粒物(PM10),332,445,408,124,113,54,,28,28,24,33,5,6,0.9,1.1
2026-02-08T1300,4027A,75.9485,39.4688,喀什地区,老干局,颗粒物(PM10),345,456,456,93,108,46,,12,12,20,36,7,6,0.9,1.8
2026-02-08T1300,1824A,114.3389,34.778,开封市,肿瘤医院,细颗粒物(PM2.5),97,120,98,72,67,86,,51,51,22,37,10,9,0.7,0.7
2026-02-08T1300,1826A,114.2884,34.7966,开封市,世纪星幼儿园,细颗粒物(PM2.5),100,109,89,75,65,82,,51,51,23,37,11,9,0.6,0.6
2026-02-08T1300,3147A,114.3434,34.8101,开封市,龙亭公园,细颗粒物(PM2.5),94,117,95,70,64,85,,55,55,21,41,10,9,0.7,0.7
2026-02-08T1300,3210A,114.3645,34.7955,开封市,汴京公园,颗粒物(PM10),98,145,101,68,58,85,,50,50,22,37,8,6,0.6,0.7
2026-02-08T1300,3473A,114.2485,34.8306,开封市,技师学院,细颗粒物(PM2.5),98,120,85,73,62,86,,64,64,21,38,12,9,0.9,0.9
2026-02-08T1300,3592A,114.4518,34.7503,开封市,祥符区生态环境局,细颗粒物(PM2.5),107,142,111,80,68,87,,45,45,18,41,7,6,0.8,0.8
2026-02-08T1300,1951A,84.886,45.6029,克拉玛依市,长征新村,细颗粒物(PM2.5),64,70,58,46,30,52,,56,51,20,19,4,4,0.7,0.7
2026-02-08T1300,1952A,84.8894,45.5827,克拉玛依市,南林小区,,,,59,,29,48,,48,45,23,15,2,2,0.8,0.7
2026-02-08T1300,1954A,84.896,44.3328,克拉玛依市,独山子区,颗粒物(PM10),66,82,100,30,40,78,,81,81,19,20,3,4,0.5,0.6
2026-02-08T1300,1955A,85.6888,46.0909,克拉玛依市,乌尔禾区商贸楼,颗粒物(PM10),55,60,58,36,30,45,,42,36,13,16,7,7,0.7,0.8
2026-02-08T1300,3612A,85.1045,45.6895,克拉玛依市,白碱滩区新站,细颗粒物(PM2.5),75,79,58,55,36,37,,51,42,35,22,8,8,0.8,0.7
2026-02-08T1300,2697A,76.1457,39.7143,克孜勒苏柯尔克孜自治州,市人民政府,颗粒物(PM10),258,390,410,116,90,64,,65,57,8,11,4,4,0.3,0.4
2026-02-08T1300,3665A,76.1654,39.7157,克孜勒苏柯尔克孜自治州,克州文化中心,颗粒物(PM10),232,372,389,97,91,66,,66,55,19,10,5,4,0.8,0.5
2026-02-08T1300,1450A,102.8203,24.889,昆明市,呈贡新区,,34,34,42,19,28,19,,23,20,12,18,3,4,0.7,0.5
2026-02-08T1300,1452A,102.7253,25.0904,昆明市,龙泉镇,,38,27,46,26,30,33,,47,41,16,25,2,3,1.0,0.7
2026-02-08T1300,1453A,102.7267,25.0378,昆明市,东风东路,,48,48,44,26,28,29,,52,39,22,17,4,6,0.9,0.5
2026-02-08T1300,1454A,102.6744,25.0671,昆明市,金鼎山,,49,49,47,22,29,31,,50,39,21,16,11,5,1.1,0.8
2026-02-08T1300,1455A,102.6643,25.0401,昆明市,碧鸡广场,,44,44,46,25,31,30,,48,38,26,24,2,4,0.9,0.6
2026-02-08T1300,3179A,102.7491,25.012,昆明市,官渡区博物馆,颗粒物(PM10),52,54,44,23,28,26,,42,31,29,21,3,4,1.0,0.6
2026-02-08T1300,3375A,102.8016,24.8336,昆明市,青年创业园,,26,26,40,16,26,49,,44,36,5,13,4,5,0.8,0.6
2026-02-08T1300,3550A,102.8,24.9787,昆明市,昆明学院,,30,30,50,17,28,33,,42,34,14,19,3,4,0.9,0.8
2026-02-08T1300,3551A,102.5969,24.6738,昆明市,晋宁区生态环境分局,,48,36,58,33,41,57,,31,31,12,23,1,2,0.7,0.6
2026-02-08T1300,3552A,102.6673,24.9861,昆明市,云天化总部,,48,48,46,27,27,27,,43,36,28,19,5,6,1.0,0.6
2026-02-08T1300,1456A,91.132,29.6515,拉萨市,八廓街,,30,15,18,6,11,94,,83,83,5,15,7,7,0.4,0.6
2026-02-08T1300,1457A,91.1221,29.6748,拉萨市,市环保局,,29,19,19,3,9,91,,79,79,6,15,7,7,0.3,0.5
2026-02-08T1300,1458A,91.0874,29.6476,拉萨市,区监测站,,28,16,11,3,7,87,,82,82,5,11,4,4,0.5,0.5
2026-02-08T1300,1459A,91.1774,29.6541,拉萨市,西藏大学,,27,15,15,3,10,86,,71,71,6,17,3,5,0.1,0.4
2026-02-08T1300,1460A,90.9798,29.6586,拉萨市,区辐射站,,28,27,22,8,11,87,,78,78,4,13,2,3,0.3,0.4
2026-02-08T1300,1461A,91.0831,29.6292,拉萨市,拉萨火车站,,28,13,11,8,6,89,,86,86,4,8,4,4,0.3,0.3
2026-02-08T1300,2520A,109.2203,23.7252,来宾市,来宾技工学校,,37,37,36,13,23,57,,47,47,9,10,4,5,0.8,1
2026-02-08T1300,3535A,109.1781,23.7293,来宾市,兴宾区政府,,20,20,43,11,24,62,,54,54,12,13,5,5,0.8,0.9
2026-02-08T1300,4002A,109.2312,23.7428,来宾市,中南小学,,27,27,36,14,25,60,,49,49,11,12,5,5,0.9,1
2026-02-08T1300,1479A,103.8309,36.0467,兰州市,铁路设计院,,,,,,,,,,,,,,,,
2026-02-08T1300,3241A,103.7439,36.0841,兰州市,百合公园,细颗粒物(PM2.5),87,82,86,64,47,59,,19,19,32,39,43,10,1.2,0.9
2026-02-08T1300,3242A,103.9613,35.9985,兰州市,和平,颗粒物(PM10),80,109,87,48,38,67,,49,36,20,20,29,10,0.8,0.7
2026-02-08T1300,4236A,103.629272,36.093822,兰州市,庄浪东路808号,细颗粒物(PM2.5),72,90,88,52,41,63,,32,32,23,32,62,18,0.9,0.7
2026-02-08T1300,4237A,103.7251,36.104344,兰州市,安宁西路88号,细颗粒物(PM2.5),74,95,102,54,44,64,,24,24,28,37,50,14,0.9,0.6
2026-02-08T1300,4238A,103.846982,36.067567,兰州市,北滨河东路1号,细颗粒物(PM2.5),73,70,96,53,47,53,,16,16,49,56,29,9,1.1,1
2026-02-08T1300,1067A,116.6712,39.5109,廊坊市,药材公司,细颗粒物(PM2.5),52,39,20,36,7,60,,42,42,14,14,4,3,0.4,0.3
2026-02-08T1300,1068A,116.7215,39.5592,廊坊市,开发区,,42,42,15,23,6,67,,53,53,17,20,3,3,0.4,0.3
2026-02-08T1300,1070A,116.7246,39.5273,廊坊市,北华航天学院,,45,42,20,31,8,62,,47,47,22,23,6,2,0.4,0.3
2026-02-08T1300,2919A,116.7022,39.5454,廊坊市,河北工业大学,,46,43,17,32,6,62,,52,52,18,16,4,3,0.4,0.3
2026-02-08T1300,2536A,103.7629,29.5844,乐山市,牛耳桥,,32,30,43,22,30,24,,59,44,35,23,4,5,0.5,0.5
2026-02-08T1300,2537A,103.7501,29.6002,乐山市,市第三水厂,,42,42,46,19,25,33,,57,35,43,28,3,2,0.7,0.6
2026-02-08T1300,2538A,103.7571,29.5664,乐山市,市监测站,,36,36,43,18,25,27,,54,42,28,18,4,5,0.8,0.7
2026-02-08T1300,3361A,103.7313,29.563,乐山市,理工大学,,34,34,40,19,25,26,,51,35,29,17,2,2,1.0,0.9
2026-02-08T1300,2599A,100.2497,26.8802,丽江市,丽江古城,,30,27,27,9,13,93,,73,73,9,11,6,6,0.4,0.4
2026-02-08T1300,2600A,100.2203,26.8906,丽江市,市中心,,30,24,19,7,14,96,,71,70,9,12,6,6,0.4,0.4
2026-02-08T1300,1267A,119.9141,28.4513,丽水市,监测站大楼,,39,39,26,20,22,92,,73,73,7,12,5,4,0.3,0.4
2026-02-08T1300,1268A,119.93,28.4589,丽水市,莲都小学,,33,31,34,23,21,90,,71,71,7,12,/,/,/,/
2026-02-08T1300,1269A,119.8794,28.4232,丽水市,余庄前,,31,31,29,18,19,89,,64,64,6,10,5,4,0.3,0.3
2026-02-08T1300,1173A,119.1759,34.5885,连云港市,市环境监测站,,39,39,49,19,32,71,,39,39,19,34,12,13,0.6,0.6
2026-02-08T1300,3000A,119.3577,34.6971,连云港市,德源药业,,27,27,53,9,28,65,,32,32,12,21,7,7,1.0,1.2
2026-02-08T1300,3007A,119.178,34.8442,连云港市,新城一中,,47,47,53,20,34,71,,49,49,22,34,10,14,0.3,0.4
2026-02-08T1300,3008A,119.3607,34.7519,连云港市,胡沟管理处,,24,24,40,12,25,73,,48,47,8,16,6,9,1.0,1.1
2026-02-08T1300,3009A,119.1478,34.5913,连云港市,矿山设计院,,34,34,50,22,27,70,,33,33,16,30,9,10,0.8,0.8
2026-02-08T1300,3434A,119.2414,34.6539,连云港市,工贸学校,,24,24,58,15,30,72,,47,47,8,22,10,12,0.4,0.6
2026-02-08T1300,3664A,119.4171,34.734,连云港市,连云街道,,32,32,57,15,23,67,,54,54,22,29,8,9,0.5,0.7
2026-02-08T1300,2573A,102.2629,27.8981,凉山彝族自治州,西昌市政府,,22,19,27,14,17,68,,72,58,10,8,6,6,1.0,0.8
2026-02-08T1300,2574A,102.2686,27.885,凉山彝族自治州,凉山州政府,,22,18,24,15,16,68,,67,56,10,8,7,9,1.0,0.9
2026-02-08T1300,4229A,102.2342,27.8859,凉山彝族自治州,凯乐南路30号,,20,19,31,7,14,61,,70,56,14,12,8,9,0.8,0.7
2026-02-08T1300,2212A,123.1978,41.2036,辽阳市,宏伟区,,,,64,23,29,52,,30,30,21,22,21,13,1.8,1.1
2026-02-08T1300,2213A,123.1684,41.2497,辽阳市,新华园,,48,48,69,18,38,63,,30,30,18,31,12,12,0.9,1.1
2026-02-08T1300,2214A,123.2355,41.2663,辽阳市,滨河路,,46,46,54,19,27,67,,34,34,14,27,11,8,1.0,0.9
2026-02-08T1300,4083A,123.153,41.2874,辽阳市,铁西路150号,颗粒物(PM10),51,51,80,29,43,55,,25,25,18,36,15,16,1.1,1.6
2026-02-08T1300,2227A,125.1359,42.8845,辽源市,环保局,,26,26,67,3,41,76,,44,44,5,29,3,4,0.5,1.1
2026-02-08T1300,4085A,125.0998,42.9134,辽源市,安宁大街333号,,26,25,65,6,43,82,,47,47,8,24,6,4,0.4,0.9
2026-02-08T1300,1625A,115.9789,36.4372,聊城市,区政府,"颗粒物(PM10),细颗粒物(PM2.5)",79,107,54,58,32,86,,57,57,18,22,16,13,0.7,0.7
2026-02-08T1300,3200A,115.9772,36.4986,聊城市,监控中心,颗粒物(PM10),85,119,61,57,32,88,,57,57,21,38,16,12,0.8,0.8
2026-02-08T1300,3513A,116.0443,36.436,聊城市,九州社区,颗粒物(PM10),80,110,65,52,34,92,,62,62,8,15,7,5,0.6,0.6
2026-02-08T1300,4018A,116.0564,36.4609,聊城市,星美广场,颗粒物(PM10),78,106,67,54,36,84,,55,55,11,16,5,4,0.5,0.5
2026-02-08T1300,4113A,116.0091,36.4495,聊城市,利民路,"颗粒物(PM10),细颗粒物(PM2.5)",73,96,55,53,30,76,,52,52,18,23,13,10,0.8,0.8
2026-02-08T1300,2632A,94.3683,29.6373,林芝市,林芝监测站,,31,,12,15,13,97,,88,88,2,1,5,5,0.5,0.4
2026-02-08T1300,2633A,94.3616,29.6634,林芝市,林芝人民医院,,30,,18,13,12,96,,87,87,2,2,7,6,0.5,0.3
2026-02-08T1300,2603A,100.0779,23.8981,临沧市,市环保局,颗粒物(PM10),53,55,38,27,29,93,,48,48,11,12,7,6,0.7,0.6
2026-02-08T1300,2604A,100.0894,23.882,临沧市,市气象局,颗粒物(PM10),60,69,47,32,28,73,,42,39,22,13,8,7,0.7,0.6
2026-02-08T1300,1733A,111.5552,36.0791,临汾市,临钢医院,,47,47,28,29,17,62,,30,30,19,21,14,6,1.1,0.6
2026-02-08T1300,1734A,111.4984,36.0734,临汾市,技工学校,,33,29,29,23,19,60,,28,28,28,27,13,5,1.0,0.5
2026-02-08T1300,1736A,111.5017,36.0857,临汾市,市委,,38,34,32,26,13,60,,27,27,20,25,13,5,1.1,0.5
2026-02-08T1300,3018A,111.5048,36.1015,临汾市,唐尧大酒店,,,44,45,19,12,66,,27,27,23,31,,7,1.2,0.6
2026-02-08T1300,4244A,111.4879,36.053,临汾市,启星学校,,43,43,34,20,20,62,,25,25,21,30,15,6,1.1,0.6
2026-02-08T1300,4271A,103.2464,35.6123,临夏回族自治州,滨河东路1号,颗粒物(PM10),74,98,96,47,55,81,,36,36,11,22,8,5,0.5,0.9
2026-02-08T1300,4310A,103.207136,35.599807,临夏回族自治州,新华街21号,颗粒物(PM10),80,109,99,58,57,70,,38,38,13,20,8,5,0.6,0.9
2026-02-08T1300,1618A,118.3429,35.0532,临沂市,沂河小区,,41,41,54,14,26,70,,40,40,15,28,9,11,0.3,0.4
2026-02-08T1300,1619A,118.2962,35.0568,临沂市,鲁南制药厂,,39,39,58,14,28,72,,35,35,13,34,11,16,0.2,0.4
2026-02-08T1300,1620A,118.2793,34.9976,临沂市,新光毛纺厂,,33,29,44,23,29,73,,41,41,8,26,8,11,0.4,0.5
2026-02-08T1300,1621A,118.3955,35.0889,临沂市,河东保险公司,,44,44,48,18,29,78,,51,51,17,32,12,10,0.5,0.6
2026-02-08T1300,3370A,118.3563,35.0215,临沂市,十里堡居委,,39,39,54,15,25,79,,44,44,11,32,9,12,0.3,0.5
2026-02-08T1300,3496A,118.359,35.1067,临沂市,南坊新区,,46,46,48,15,25,76,,47,47,18,29,12,11,0.3,0.6
2026-02-08T1300,3860A,118.3915,35.0297,临沂市,皇山花园小区,,46,46,55,16,30,77,,49,49,17,35,12,14,0.4,0.5
2026-02-08T1300,1870A,109.4854,24.3898,柳州市,柳东小学,,24,24,31,16,17,67,,56,53,8,11,8,8,0.6,0.8
2026-02-08T1300,1871A,109.4109,24.3304,柳州市,环保监测站,,23,23,31,16,17,56,,51,50,17,15,4,4,0.7,0.9
2026-02-08T1300,1872A,109.3886,24.3408,柳州市,河西水厂,,25,22,34,17,19,54,,42,41,21,19,8,8,0.8,1
2026-02-08T1300,1873A,109.4263,24.2951,柳州市,市四中,,23,22,29,16,16,56,,52,50,13,13,6,6,0.9,1
2026-02-08T1300,1874A,109.396,24.3658,柳州市,市九中,,29,28,29,20,18,55,,48,48,13,12,8,8,0.8,0.9
2026-02-08T1300,1875A,109.4912,24.3164,柳州市,古亭山,,23,17,20,16,16,66,,57,54,10,12,6,6,0.7,0.8
2026-02-08T1300,3402A,109.5422,24.3994,柳州市,市二中,,21,20,20,14,16,67,,62,62,13,16,9,9,0.5,0.6
2026-02-08T1300,2307A,116.5078,31.7369,六安市,监测大楼,,38,36,62,26,37,79,,44,44,10,22,4,2,0.3,0.4
2026-02-08T1300,2308A,116.4738,31.7642,六安市,皖西学院,颗粒物(PM10),51,52,70,24,38,88,,42,42,11,20,5,4,0.4,0.4
2026-02-08T1300,2309A,116.4997,31.7904,六安市,朝阳厂,,44,44,65,28,40,86,,47,47,15,24,8,5,0.3,0.4
2026-02-08T1300,2310A,116.5566,31.7885,六安市,开发区,,39,39,75,26,45,89,,53,53,4,13,6,5,0.2,0.3
2026-02-08T1300,2577A,104.8293,26.592,六盘水市,黄土坡,,21,21,24,13,20,41,,60,40,21,17,10,8,1.0,1
2026-02-08T1300,2579A,104.8481,26.5898,六盘水市,民中,,18,18,26,9,19,45,,57,41,17,15,6,4,0.9,0.9
2026-02-08T1300,2580A,104.9541,26.5506,六盘水市,双水,,18,14,21,3,15,56,,59,48,11,12,4,4,0.6,0.7
2026-02-08T1300,4151A,104.8899,26.5685,六盘水市,钟山大道中段564号,,18,14,27,12,19,48,,55,42,13,12,10,6,0.8,0.8
2026-02-08T1300,2336A,117.022,25.1031,龙岩市,龙岩市监测站,,30,30,17,15,11,91,,79,79,4,7,7,8,0.6,0.7
2026-02-08T1300,2337A,117.0257,25.0662,龙岩市,闽西职业技术学院,,36,36,17,12,10,95,,84,84,4,6,5,5,0.5,0.6
2026-02-08T1300,2338A,117.0195,25.0306,龙岩市,龙岩学院,,41,41,20,12,11,93,,79,79,5,8,4,4,/,/
2026-02-08T1300,2885A,104.9344,33.3827,陇南市,滨江中学,颗粒物(PM10),60,70,74,23,29,81,,50,50,6,17,4,5,0.5,0.7
2026-02-08T1300,3247A,104.9551,33.3709,陇南市,市总工会,颗粒物(PM10),69,88,67,25,24,79,,49,49,7,14,2,2,0.5,0.6
2026-02-08T1300,2488A,111.9984,27.7346,娄底市,市监测站,细颗粒物(PM2.5),73,80,79,53,54,83,,63,63,8,13,6,8,0.6,0.6
2026-02-08T1300,2491A,111.9888,27.7035,娄底市,市政府,颗粒物(PM10),61,72,75,39,44,82,,64,64,9,9,4,4,0.3,0.3
2026-02-08T1300,4127A,111.9812,27.7591,娄底市,涟钢职大,,,63,71,36,44,87,,67,67,12,14,,4,0.5,0.6
2026-02-08T1300,4128A,112.0303,27.7457,娄底市,娄底体校,细颗粒物(PM2.5),67,64,77,48,52,70,,55,55,4,7,3,2,0.2,0.3
2026-02-08T1300,1894A,105.4427,28.9063,泸州市,小市上码头,,32,28,49,22,39,44,,42,41,15,17,4,4,0.8,0.9
2026-02-08T1300,1895A,105.4241,28.8573,泸州市,兰田宪桥,,32,32,64,19,41,45,,,,11,19,8,8,0.8,0.9
2026-02-08T1300,1896A,105.4378,28.8833,泸州市,市环监站,,35,35,55,18,35,61,,85,82,15,17,6,6,0.7,0.8
2026-02-08T1300,4272A,105.3689,28.7783,泸州市,纳溪中医医院,,43,,50,30,45,48,,49,42,11,12,7,8,0.8,0.9
2026-02-08T1300,2183A,111.1447,37.5212,吕梁市,环保局,,44,44,49,3,11,57,,22,22,24,38,8,4,0.5,0.4
2026-02-08T1300,2185A,111.1285,37.5338,吕梁市,自来水公司,,,,59,2,20,72,,2,,12,30,4,8,,0.3
2026-02-08T1300,2867A,111.1225,37.5093,吕梁市,马茂庄小学,,49,49,57,14,13,58,,23,23,23,37,5,8,0.6,0.3
2026-02-08T1300,1812A,112.3934,34.6517,洛阳市,市委党校,细颗粒物(PM2.5),70,80,76,51,49,69,,29,29,20,28,9,9,0.7,0.7
2026-02-08T1300,1815A,112.494,34.6883,洛阳市,河南林校,颗粒物(PM10),69,88,85,48,46,74,,35,35,29,39,13,11,0.5,0.5
2026-02-08T1300,1816A,112.3843,34.623,洛阳市,开发区管委会,颗粒物(PM10),78,106,87,43,42,75,,37,37,19,28,12,11,0.6,0.6
2026-02-08T1300,1817A,112.4263,34.6249,洛阳市,市委新办公区,细颗粒物(PM2.5),84,105,78,62,47,73,,35,35,25,30,11,9,0.6,0.6
2026-02-08T1300,3340A,112.6005,34.6323,洛阳市,伊滨,颗粒物(PM10),81,112,85,55,46,75,,30,30,27,30,11,8,0.8,0.8
2026-02-08T1300,3341A,112.495,34.6338,洛阳市,中移产业园,细颗粒物(PM2.5),99,104,80,74,49,67,,31,31,30,33,11,10,0.7,0.7
2026-02-08T1300,3593A,112.5736,34.8993,洛阳市,吉利监测站,细颗粒物(PM2.5),104,113,77,78,48,78,,40,40,28,28,16,10,0.7,0.7
2026-02-08T1300,3635A,112.3678,34.6623,洛阳市,河科大西苑校区,,,82,75,53,48,79,,39,39,16,28,10,10,,0.8
2026-02-08T1300,3636A,112.4387,34.678,洛阳市,英才小学,细颗粒物(PM2.5),73,88,83,53,48,75,,31,31,27,39,12,10,0.8,0.7
2026-02-08T1300,4214A,112.460027,34.694929,洛阳市,春都路1号院,细颗粒物(PM2.5),85,100,90,63,48,67,,31,31,25,32,9,8,0.6,0.6
2026-02-08T1300,2399A,114.051,33.5721,漯河市,三五一五工厂,颗粒物(PM10),99,148,137,63,75,81,,42,42,16,25,7,7,0.7,0.7
2026-02-08T1300,2400A,114.0055,33.5698,漯河市,漯河大学,细颗粒物(PM2.5),83,111,118,61,74,87,,47,47,16,31,8,8,0.6,0.7
2026-02-08T1300,2401A,114.0134,33.5826,漯河市,市水利局,细颗粒物(PM2.5),87,114,129,64,73,74,,41,41,21,31,7,6,0.6,0.6
2026-02-08T1300,2402A,114.0261,33.5697,漯河市,市广电局,细颗粒物(PM2.5),87,110,133,64,79,78,,41,41,11,25,8,8,0.5,0.6
2026-02-08T1300,3478A,113.9691,33.568,漯河市,市图书馆,颗粒物(PM10),91,132,133,61,72,79,,41,41,15,29,9,8,0.6,0.7
2026-02-08T1300,4250A,114.089259,33.588274,漯河市,韶山路11号,颗粒物(PM10),92,134,137,66,79,83,,43,43,15,34,8,9,0.6,0.7
2026-02-08T1300,1798A,118.5084,31.6838,马鞍山市,湖东路四小,,41,41,62,21,35,77,,48,48,13,28,4,7,0.3,0.6
2026-02-08T1300,1799A,118.5019,31.6449,马鞍山市,开发区,,41,41,62,23,37,79,,48,48,14,31,6,6,0.6,0.6
2026-02-08T1300,3633A,118.4914,31.681,马鞍山市,雨山,,36,36,66,21,37,80,,49,49,12,33,4,9,0.5,0.9
2026-02-08T1300,4191A,118.527362,31.722269,马鞍山市,慈湖高新区,,34,34,63,22,38,79,,42,42,15,40,5,5,0.4,0.4
2026-02-08T1300,1686A,111.0285,21.469,茂名市,电白南海,颗粒物(PM10),53,56,53,20,29,76,,60,60,13,17,9,9,1.0,1
2026-02-08T1300,1687A,110.9294,21.6533,茂名市,茂石化七小,,48,48,58,20,29,74,,57,56,12,15,5,6,0.8,0.7
2026-02-08T1300,1688A,110.9108,21.6688,茂名市,健康路,,,36,49,21,29,84,,66,63,,16,7,7,0.9,0.9
2026-02-08T1300,1689A,110.8592,21.6826,茂名市,高岭,颗粒物(PM10),53,56,65,26,33,71,,58,52,10,15,4,5,/,/
2026-02-08T1300,3450A,111.0101,21.5165,茂名市,电白水东,,48,48,54,20,30,86,,60,58,15,23,9,9,/,/
2026-02-08T1300,2540A,103.8414,30.0871,眉山市,气象局,,40,40,60,23,26,34,,53,42,21,21,11,10,0.7,0.6
2026-02-08T1300,3148A,103.829,30.0563,眉山市,区人社局,,46,46,57,20,26,33,,48,35,22,21,7,8,0.5,0.5
2026-02-08T1300,4148A,103.8836,30.0695,眉山市,眉职院,颗粒物(PM10),53,55,49,26,25,33,,50,37,21,15,6,4,0.7,0.6
2026-02-08T1300,1690A,116.1248,24.3307,梅州市,梅江月梅,,26,26,16,12,10,64,,49,49,10,12,/,/,/,/
2026-02-08T1300,1691A,116.0798,24.2719,梅州市,梅县新城,,25,25,16,13,12,67,,51,51,11,13,7,7,0.6,0.7
2026-02-08T1300,3315A,116.1234,24.2994,梅州市,梅龙,,27,27,18,14,12,57,,45,44,10,10,8,7,0.6,0.7
2026-02-08T1300,1878A,104.7775,31.4741,绵阳市,富乐山,细颗粒物(PM2.5),60,62,62,43,28,57,,32,32,9,15,9,8,0.7,0.6
2026-02-08T1300,1880A,104.6698,31.4668,绵阳市,高新区自来水公司,颗粒物(PM10),63,76,67,44,30,53,,24,24,17,33,7,7,0.7,0.7
2026-02-08T1300,3491A,104.6899,31.5324,绵阳市,西科大附属小学,颗粒物(PM10),69,88,70,47,30,54,,19,19,19,33,8,8,0.6,0.5
2026-02-08T1300,3492A,104.5647,31.5343,绵阳市,安州区旅游局,细颗粒物(PM2.5),62,56,67,44,30,62,,30,30,14,23,15,12,0.5,0.5
2026-02-08T1300,4146A,104.7092,31.4972,绵阳市,科技城新区公安局,颗粒物(PM10),63,75,73,37,28,53,,19,19,23,34,9,5,0.7,0.6
2026-02-08T1300,4226A,104.765114,31.453094,绵阳市,绵阳市气象局,细颗粒物(PM2.5),64,58,68,46,31,59,,25,25,10,28,5,6,0.6,0.6
2026-02-08T1300,1784A,129.61,44.561,牡丹江市,环保大楼,,27,27,36,10,20,73,,61,61,9,13,4,4,0.3,0.3
2026-02-08T1300,1787A,129.6364,44.6075,牡丹江市,机车工厂,,29,29,34,13,21,66,,54,54,10,14,6,7,0.4,0.4
2026-02-08T1300,1788A,129.6386,44.5462,牡丹江市,第一中学,,,,28,,22,,,43,,,13,,5,,0.3
2026-02-08T1300,4287A,129.5992,44.5964,牡丹江市,东晓云街98号,,32,32,34,21,20,66,,49,49,10,18,4,5,0.6,0.6
2026-02-08T1300,2531A,105.0703,29.61,内江市,市监测站,细颗粒物(PM2.5),60,,46,43,39,51,,59,54,25,16,4,4,0.6,0.5
2026-02-08T1300,2533A,105.0657,29.5807,内江市,内江二中,细颗粒物(PM2.5),54,50,57,38,37,41,,48,44,24,18,6,6,0.5,0.5
2026-02-08T1300,2534A,105.0407,29.5828,内江市,内江日报社,细颗粒物(PM2.5),54,49,47,38,38,39,,48,45,27,20,4,5,0.4,0.3
2026-02-08T1300,4147A,105.0433,29.6105,内江市,玉峰路西段888号,细颗粒物(PM2.5),54,40,49,38,39,45,,54,50,24,18,3,3,0.5,0.4
2026-02-08T1300,2628A,92.0653,31.4846,那曲市,那曲监测站,,30,,26,15,24,95,,61,61,5,16,8,13,0.5,0.9
2026-02-08T1300,4243A,92.0515,31.4787,那曲市,那曲市委宣传部,,33,,14,14,14,103,,69,69,2,8,6,9,0.4,0.8
2026-02-08T1300,1291A,115.8887,28.7006,南昌市,省林业公司,,49,48,50,34,35,84,,61,61,2,6,4,3,0.4,0.4
2026-02-08T1300,1292A,115.813,28.7443,南昌市,林科所,,48,48,54,30,32,79,,59,59,11,13,8,7,0.3,0.4
2026-02-08T1300,1294A,115.8518,28.687,南昌市,建工学校,,49,49,65,34,35,77,,55,55,10,16,8,8,0.5,0.5
2026-02-08T1300,1295A,115.8926,28.6425,南昌市,象湖,颗粒物(PM10),59,67,55,32,38,79,,57,57,10,15,8,7,0.6,0.6
2026-02-08T1300,3046A,115.9084,28.6062,南昌市,机电学校,颗粒物(PM10),56,62,62,38,37,85,,62,62,11,13,4,4,0.4,0.4
2026-02-08T1300,3690A,115.9718,28.7032,南昌市,外国语学校,颗粒物(PM10),53,56,58,35,37,84,,59,59,11,16,11,10,0.5,0.6
2026-02-08T1300,4106A,115.7923,28.6873,南昌市,工业二路,颗粒物(PM10),54,57,64,35,37,84,,63,63,10,13,4,3,0.5,0.6
2026-02-08T1300,4192A,115.931587,28.686774,南昌市,南京东路235号,颗粒物(PM10),54,58,57,34,35,84,,61,61,8,12,5,5,0.3,0.3
2026-02-08T1300,1906A,106.0791,30.8022,南充市,南充市委,细颗粒物(PM2.5),72,67,66,52,52,44,,29,18,20,28,4,3,0.6,0.6
2026-02-08T1300,1907A,106.1038,30.8215,南充市,南充炼油厂,细颗粒物(PM2.5),68,70,70,49,46,43,,43,27,22,20,6,5,0.8,0.7
2026-02-08T1300,4227A,106.108336,30.788436,南充市,梨树横街98号,细颗粒物(PM2.5),68,64,69,49,54,57,,47,37,17,18,6,6,0.5,0.6
2026-02-08T1300,4304A,106.1172,30.843,南充市,清泉寺北路188号,细颗粒物(PM2.5),74,,56,54,47,40,,56,46,24,14,3,3,0.6,0.6
2026-02-08T1300,4305A,106.067,30.7616,南充市,同庆路1号,细颗粒物(PM2.5),63,56,62,45,52,51,,36,26,17,29,5,5,0.7,0.7
2026-02-08T1300,1151A,118.8033,32.1085,南京市,迈皋桥,,25,25,53,14,35,79,,50,50,14,20,8,7,0.3,0.4
2026-02-08T1300,1152A,118.7487,32.057,南京市,草场门,,39,39,62,19,35,55,,37,37,15,28,8,6,0.8,0.6
2026-02-08T1300,1154A,118.770105,32.004342,南京市,中华门,,36,36,60,14,34,85,,52,52,8,17,4,4,0.5,0.5
2026-02-08T1300,1155A,118.8059,32.0329,南京市,瑞金路,,27,24,61,15,39,85,,53,53,1,17,4,4,0.4,0.5
2026-02-08T1300,1156A,118.7946,32.0774,南京市,玄武湖,,34,34,60,16,38,84,,52,52,10,23,1,2,0.3,0.5
2026-02-08T1300,1157A,118.6415,32.0964,南京市,浦口,,25,25,61,6,34,78,,55,55,11,22,5,5,0.3,0.4
2026-02-08T1300,1158A,118.730129,32.000956,南京市,奥体中心,,35,35,62,14,32,87,,53,53,11,22,8,6,0.6,0.4
2026-02-08T1300,1159A,118.9072,32.1047,南京市,仙林大学城,,34,34,67,12,38,79,,45,45,9,28,5,5,0.4,0.5
2026-02-08T1300,3422A,118.8443,31.919,南京市,江宁彩虹桥,,41,41,67,11,33,95,,63,63,5,32,4,4,0.5,0.7
2026-02-08T1300,3427A,118.8497,32.3599,南京市,六合雄州,,24,24,63,9,33,70,,41,41,16,33,1,1,0.3,0.6
2026-02-08T1300,4086A,118.7641,32.0841,南京市,新模范马路66号,,34,31,73,7,33,107,,63,63,5,19,4,4,0.4,0.8
2026-02-08T1300,4249A,118.8707617,31.34017673,南京市,汶溪路181号,,46,46,58,25,29,73,,47,47,18,27,7,7,0.5,0.6
2026-02-08T1300,4312A,119.019,31.6512,南京市,中山西路1号,,24,19,48,7,32,76,,49,49,13,26,4,4,0.5,0.7
2026-02-08T1300,1401A,108.3098,22.788,南宁市,二十一中,,12,10,37,3,33,37,,40,35,15,17,3,4,0.6,0.7
2026-02-08T1300,1402A,108.3135,22.8529,南宁市,北湖,,13,,38,7,34,41,,45,40,15,18,2,2,0.6,0.7
2026-02-08T1300,1403A,108.3205,22.8222,南宁市,市监测站,,14,7,38,3,30,44,,44,40,15,18,5,6,0.8,0.9
2026-02-08T1300,1404A,108.3828,22.8038,南宁市,大自然花园,,15,10,41,3,31,45,,52,46,14,16,5,6,0.6,0.7
2026-02-08T1300,1406A,108.2397,22.8462,南宁市,区农职院,,19,,36,13,30,50,,49,46,12,18,5,4,1.0,1
2026-02-08T1300,1407A,108.3285,22.7356,南宁市,英华嘉园,,14,7,38,3,34,43,,48,41,10,12,2,3,0.6,0.7
2026-02-08T1300,3401A,108.4829,22.762,南宁市,红星社区,,18,,35,12,30,55,,54,51,7,9,4,6,0.7,0.9
2026-02-08T1300,4132A,108.2927,23.1477,南宁市,起凤路9号,,18,12,34,9,29,56,,51,46,11,12,2,2,0.6,0.7
2026-02-08T1300,4221A,108.2177,22.7774,南宁市,乐贤路16号,,16,16,40,3,33,44,,46,41,13,17,3,3,0.9,1
2026-02-08T1300,2332A,118.1682,26.6371,南平市,南平市监测站,,29,29,22,16,11,82,,75,75,5,6,4,3,0.3,0.2
2026-02-08T1300,2334A,118.1757,26.6276,南平市,南平七中,,32,32,19,14,10,85,,76,76,3,5,3,4,0.4,0.5
2026-02-08T1300,1168A,120.9056,31.9669,南通市,狼山街道,,25,23,44,6,23,78,,65,65,13,17,3,3,0.2,0.3
2026-02-08T1300,1170A,120.8635,32.0231,南通市,城中,,28,26,48,6,29,87,,70,70,2,7,3,4,0.4,0.5
2026-02-08T1300,1171A,120.9376,31.9301,南通市,星湖花园,,25,24,43,7,24,80,,70,70,15,15,4,4,0.3,0.5
2026-02-08T1300,1172A,120.8053,32.046,南通市,紫琅学院,,26,26,51,8,29,78,,62,62,2,9,3,4,0.6,0.7
2026-02-08T1300,3291A,121.0631,32.0644,南通市,通州监测站,,,,43,7,24,67,,62,62,11,17,,3,,0.4
2026-02-08T1300,3432A,120.9348,31.9874,南通市,环境教育馆,,29,29,46,6,24,77,,62,62,10,15,4,4,0.6,0.6
2026-02-08T1300,4091A,120.8692,31.9885,南通市,洪江路,,24,19,38,7,27,74,,61,61,8,14,4,4,0.3,0.6
2026-02-08T1300,2404A,112.5338,33.0086,南阳市,瓦房庄,细颗粒物(PM2.5),90,120,125,67,73,79,,30,30,18,37,6,5,0.9,1.1
2026-02-08T1300,2405A,112.5002,32.9734,南阳市,汉画馆,细颗粒物(PM2.5),114,128,133,86,93,83,,27,27,18,41,8,7,0.7,0.8
2026-02-08T1300,2406A,112.5778,33.0144,南阳市,气象站,颗粒物(PM10),98,146,155,70,72,78,,31,31,22,41,8,7,0.8,0.9
2026-02-08T1300,2407A,112.548,32.9687,南阳市,理工学院,细颗粒物(PM2.5),94,123,141,70,84,80,,27,27,19,48,7,7,0.7,0.8
2026-02-08T1300,4008A,112.5233,32.9921,南阳市,卧龙区政府,颗粒物(PM10),95,140,158,64,80,76,,28,28,16,38,7,7,0.8,1
2026-02-08T1300,1234A,121.8352,29.9111,宁波市,区环保大楼,细颗粒物(PM2.5),67,80,76,48,45,82,,66,66,15,19,7,5,0.6,0.6
2026-02-08T1300,1235A,121.5595,29.8208,宁波市,万里学院,细颗粒物(PM2.5),74,76,62,54,46,84,,59,59,13,19,3,3,0.8,0.8
2026-02-08T1300,1236A,121.713,29.9564,宁波市,龙赛医院,细颗粒物(PM2.5),63,70,67,45,39,76,,58,58,18,26,4,4,0.8,0.7
2026-02-08T1300,1240A,121.5855,29.8635,宁波市,太古小学,细颗粒物(PM2.5),67,74,65,48,40,86,,60,60,10,15,4,3,0.7,0.7
2026-02-08T1300,1241A,121.5239,29.8673,宁波市,市环境监测中心,细颗粒物(PM2.5),64,71,55,46,37,78,,52,52,12,17,4,2,0.5,0.4
2026-02-08T1300,2871A,121.6156,29.9015,宁波市,万里国际学校,细颗粒物(PM2.5),69,69,80,50,39,83,,56,56,19,23,4,3,0.6,0.8
2026-02-08T1300,3710A,121.5593,29.8976,宁波市,白沙活动中心,细颗粒物(PM2.5),67,59,61,48,39,83,,59,59,18,19,4,3,0.6,0.5
2026-02-08T1300,4095A,121.8962,29.7529,宁波市,中科路88号,细颗粒物(PM2.5),64,57,54,46,42,86,,67,67,14,20,5,4,0.6,0.5
2026-02-08T1300,2341A,119.5387,26.6611,宁德市,宁德市监测站,,32,32,24,14,16,75,,59,59,12,15,4,4,0.5,0.5
2026-02-08T1300,3209A,119.5231,26.6562,宁德市,宁德一中,,26,18,24,18,20,77,,62,61,11,15,3,4,0.3,0.3
2026-02-08T1300,2618A,98.859,25.8541,怒江傈僳族自治州,州监测站,,29,29,34,16,21,75,,54,54,6,9,6,6,0.4,0.4
2026-02-08T1300,2619A,98.8607,25.8168,怒江傈僳族自治州,泸水一中,,37,37,32,11,22,68,,38,38,7,16,4,4,0.3,0.4
2026-02-08T1300,1888A,101.6891,26.571,攀枝花市,弄弄坪,,43,30,59,30,28,98,,40,40,13,30,20,14,0.8,0.9
2026-02-08T1300,1889A,101.577,26.5914,攀枝花市,河门口,颗粒物(PM10),54,58,48,34,25,94,,36,36,13,22,23,24,1.4,1
2026-02-08T1300,1891A,101.7365,26.4986,攀枝花市,仁和,"颗粒物(PM10),细颗粒物(PM2.5)",57,63,44,40,25,98,,42,42,16,18,23,11,0.9,0.7
2026-02-08T1300,2835A,101.7222,26.567,攀枝花市,四十中小,,43,43,50,25,26,94,,56,56,14,33,26,22,0.8,0.9
2026-02-08T1300,1604A,122.0303,41.1489,盘锦市,开发区,,33,33,53,19,39,78,,37,37,11,24,10,10,0.2,0.5
2026-02-08T1300,1605A,122.0486,41.0883,盘锦市,兴隆台,,26,26,57,9,45,80,,41,41,11,38,8,9,0.5,0.9
2026-02-08T1300,1606A,121.8297,41.1026,盘锦市,新生街道,细颗粒物(PM2.5),52,49,51,36,39,81,,38,38,13,35,13,9,0.4,0.3
2026-02-08T1300,1832A,113.3257,33.7423,平顶山市,新华旅馆,细颗粒物(PM2.5),98,109,128,73,76,72,,25,25,22,39,10,8,0.5,0.6
2026-02-08T1300,1833A,113.2917,33.737,平顶山市,规划设计院,细颗粒物(PM2.5),113,138,137,85,79,70,,25,25,19,32,10,8,0.6,0.6
2026-02-08T1300,1834A,113.182,33.7738,平顶山市,平顶山工学院,细颗粒物(PM2.5),98,118,111,73,68,75,,31,31,19,29,11,9,0.6,0.5
2026-02-08T1300,3594A,112.8736,33.9068,平顶山市,石龙区,细颗粒物(PM2.5),94,126,102,70,48,81,,35,35,14,21,10,6,0.8,0.6
2026-02-08T1300,4116A,113.284,33.7139,平顶山市,姚电大道23号,颗粒物(PM10),92,134,156,60,85,74,,26,26,32,46,7,5,0.7,0.8
2026-02-08T1300,2656A,106.6633,35.5338,平凉市,聚贤嘉苑,颗粒物(PM10),60,70,54,24,25,86,,43,43,10,13,6,12,0.5,0.5
2026-02-08T1300,2657A,106.7021,35.5307,平凉市,博物馆,颗粒物(PM10),56,62,57,20,28,85,,43,43,10,23,12,12,0.4,0.6
2026-02-08T1300,2348A,113.8384,27.6436,萍乡市,中医院,,31,20,50,18,26,99,,64,64,5,10,3,3,0.2,0.3
2026-02-08T1300,2350A,113.8677,27.6438,萍乡市,市环保局,颗粒物(PM10),51,51,39,22,28,100,,64,64,14,16,17,19,0,0.1
2026-02-08T1300,2351A,113.8663,27.6202,萍乡市,安源区政府,颗粒物(PM10),51,52,47,20,30,79,,49,49,12,15,1,3,0.3,0.5
2026-02-08T1300,4107A,113.8686,27.6668,萍乡市,联洪村委会,,42,42,44,20,28,71,,47,47,3,8,2,2,0.1,0.2
2026-02-08T1300,2319A,119.0142,25.4324,莆田市,荔城区仓后路,,25,25,30,17,16,72,,73,68,10,11,/,/,/,/
2026-02-08T1300,2320A,119.0016,25.4553,莆田市,莆田市监测站,,32,32,23,17,16,75,,74,70,8,10,3,2,0.5,0.4
2026-02-08T1300,2321A,119.112,25.4561,莆田市,涵江区六中,,34,34,29,19,16,73,,74,68,9,10,/,/,0.5,0.4
2026-02-08T1300,2322A,119.1014,25.3215,莆田市,秀屿区政府,,43,43,31,21,17,80,,76,72,7,8,3,2,0.6,0.6
2026-02-08T1300,2392A,115.0312,35.7636,濮阳市,环保局,细颗粒物(PM2.5),89,93,62,66,41,77,,50,50,15,22,7,10,0.6,0.6
2026-02-08T1300,3021A,115,35.7667,濮阳市,濮水河管理处,"颗粒物(PM10),细颗粒物(PM2.5)",84,118,79,62,48,79,,42,42,15,24,8,7,0.6,0.7
2026-02-08T1300,4118A,115.0552,35.7816,濮阳市,中原东路68号,颗粒物(PM10),89,128,87,62,46,80,,52,52,22,28,7,11,0.7,0.7
2026-02-08T1300,4216A,115.0923632,35.76857718,濮阳市,任丘路479号,细颗粒物(PM2.5),92,111,83,68,53,77,,43,43,16,29,13,17,0.6,0.5
2026-02-08T1300,2601A,100.9801,22.7634,普洱市,市环保局,颗粒物(PM10),55,60,61,21,27,92,,39,39,5,11,5,5,0.5,0.5
2026-02-08T1300,2602A,100.9763,22.8237,普洱市,普洱第二中学,颗粒物(PM10),51,52,55,28,28,93,,33,33,7,26,5,5,0.6,0.6
2026-02-08T1300,3345A,131.0413,45.7795,七台河市,中波台,,25,16,26,10,17,79,,63,63,4,10,8,13,0.4,0.5
2026-02-08T1300,3637A,131.0136,45.7688,七台河市,人民广场,,25,21,35,12,20,77,,67,67,7,16,8,12,0.4,0.5
2026-02-08T1300,3684A,130.8639,45.8144,七台河市,新建矿广场,,31,31,30,3,16,73,,61,61,7,9,4,7,0.3,0.3
2026-02-08T1300,1779A,123.9307,47.3641,齐齐哈尔市,安居小区,,26,26,27,3,9,77,,60,60,6,14,8,8,0.3,0.4
2026-02-08T1300,1780A,123.9497,47.3389,齐齐哈尔市,中心广场,,23,20,20,14,12,72,,60,60,8,13,5,7,0.4,0.5
2026-02-08T1300,1781A,123.9483,47.3229,齐齐哈尔市,农牧车辆厂,,31,31,30,9,10,72,,56,51,6,14,5,8,0.2,0.4
2026-02-08T1300,1783A,123.9442,47.2994,齐齐哈尔市,市环境监测站,,24,20,29,3,9,76,,57,57,5,12,2,5,0.4,0.5
2026-02-08T1300,3662A,123.6341,47.2079,齐齐哈尔市,富区青少年活动中心,,50,50,53,3,19,79,,52,52,6,20,7,12,0.7,0.8
2026-02-08T1300,2591A,107.9765,26.5724,黔东南苗族侗族自治州,市环境监测站,细颗粒物(PM2.5),57,53,28,40,24,72,,71,70,8,9,3,2,0.6,0.7
2026-02-08T1300,2881A,107.8909,26.531,黔东南苗族侗族自治州,凯里学院,颗粒物(PM10),65,80,33,42,25,72,,71,69,13,14,3,3,0.6,0.6
2026-02-08T1300,2593A,107.5223,26.2371,黔南布依族苗族自治州,小围寨,,45,41,17,31,16,62,,63,62,5,6,6,5,0.7,1
2026-02-08T1300,3538A,107.5175,26.2977,黔南布依族苗族自治州,沙坝,颗粒物(PM10),53,56,24,34,19,70,,74,70,8,8,5,5,0.7,0.8
2026-02-08T1300,2589A,104.9022,25.0943,黔西南布依族苗族自治州,场坝街,,22,,30,13,19,68,,62,62,14,10,3,4,0.8,0.8
2026-02-08T1300,2590A,104.8812,25.0994,黔西南布依族苗族自治州,坪东大道,,24,22,28,12,19,75,,64,64,11,10,5,5,0.9,0.9
2026-02-08T1300,2502A,108.6238,21.9667,钦州市,市环保站,,22,22,59,12,35,40,,46,39,13,13,2,3,0.8,0.8
2026-02-08T1300,2503A,108.655,21.9481,钦州市,沙埠小学,,18,18,55,8,31,44,,46,39,13,16,4,4,0.5,0.6
2026-02-08T1300,2504A,108.5989,21.7435,钦州市,港区一小,,25,17,63,17,35,33,,39,32,22,23,3,2,0.7,0.8
2026-02-08T1300,3404A,108.5959,21.9634,钦州市,北职校,,21,21,47,10,30,40,,45,39,13,14,2,3,0.8,0.9
2026-02-08T1300,1046A,119.5247,39.9346,秦皇岛市,建设大厦,,35,35,46,3,20,75,,40,40,5,38,8,7,0.3,0.6
2026-02-08T1300,3132A,119.5979,39.938,秦皇岛市,文明里,,34,34,37,8,14,71,,44,44,9,34,8,9,0.3,0.5
2026-02-08T1300,4066A,119.7458,39.9952,秦皇岛市,南园路157号,,37,37,39,3,19,69,,52,52,14,45,6,9,0.3,0.6
2026-02-08T1300,4067A,119.5131,39.8858,秦皇岛市,翠岛大街1号,,28,28,33,8,10,69,,43,43,11,30,12,8,0.4,0.4
2026-02-08T1300,4198A,119.509013,39.825305,秦皇岛市,北戴河轮滑馆,,22,21,29,3,11,68,,55,55,14,25,13,7,0.3,0.5
2026-02-08T1300,1310A,120.404,36.0625,青岛市,市南区东部子站,,39,39,47,12,18,76,,53,53,10,18,10,12,0.5,0.5
2026-02-08T1300,1311A,120.362344,36.10282,青岛市,四方区子站,,34,34,44,12,17,78,,57,57,8,16,6,7,0.5,0.5
2026-02-08T1300,1312A,120.294373,36.054183,青岛市,市南区西部子站,,24,24,37,12,18,70,,46,46,12,18,5,5,0.4,0.4
2026-02-08T1300,1313A,120.4581,36.0858,青岛市,崂山区子站,,24,22,33,10,15,76,,55,55,10,17,11,11,0.4,0.4
2026-02-08T1300,1315A,120.3945,36.3083,青岛市,城阳区子站,,25,24,45,11,24,79,,42,42,13,29,8,8,0.6,0.8
2026-02-08T1300,3642A,120.3454,36.0735,青岛市,市北区南部,,44,44,40,12,18,68,,50,50,13,22,1,4,0.5,0.6
2026-02-08T1300,3643A,120.3897,36.18,青岛市,李沧区北部,,29,29,43,11,21,72,,44,44,16,26,9,10,0.5,0.6
2026-02-08T1300,4110A,120.5222,36.4089,青岛市,盟旺路653号,,32,32,44,9,23,72,,39,39,16,30,5,4,0.6,0.8
2026-02-08T1300,4290A,120.196923,35.954556,青岛市,珠江路669号,,31,31,35,15,16,76,,65,65,10,18,10,9,0.2,0.2
2026-02-08T1300,4291A,120.0424,35.8656,青岛市,黄岛区人民政府广场,,29,29,40,13,18,76,,53,53,12,23,8,9,0.3,0.4
2026-02-08T1300,1703A,113.0218,23.7086,清远市,凤城街办,,31,31,24,20,14,91,,85,85,14,15,/,/,/,/
2026-02-08T1300,3025A,113.0479,23.6343,清远市,技师学院,,46,46,36,18,15,85,,80,80,19,22,5,5,0.4,0.6
2026-02-08T1300,3318A,112.9898,23.7403,清远市,清新太和,,31,29,24,15,12,99,,91,91,12,15,10,11,0.6,0.8
2026-02-08T1300,3455A,113.076,23.72,清远市,清城东城,,36,36,26,14,12,93,,83,83,14,21,/,/,/,/
2026-02-08T1300,2661A,107.6325,35.7357,庆阳市,庆阳五中,颗粒物(PM10),54,58,44,25,18,96,,80,80,10,13,6,6,0.4,0.5
2026-02-08T1300,2662A,107.6361,35.7067,庆阳市,市环保局,颗粒物(PM10),51,51,48,21,17,94,,82,82,9,12,4,8,0.3,0.3
2026-02-08T1300,1916A,103.7897,25.5036,曲靖市,环境监测站,,22,,31,15,17,44,,41,41,12,11,3,5,0.9,0.7
2026-02-08T1300,1917A,103.8013,25.5357,曲靖市,烟厂办公区,,18,18,29,9,14,39,,37,37,12,10,4,5,0.8,0.7
2026-02-08T1300,3376A,103.7926,25.4651,曲靖市,南苑二区,,22,22,25,11,16,45,,40,40,13,12,4,4,0.8,0.6
2026-02-08T1300,3377A,103.7442,25.5259,曲靖市,曲靖师范学院,,19,17,30,13,19,44,,36,36,10,14,1,3,0.7,0.7
2026-02-08T1300,1264A,118.8694,28.94,衢州市,环保大楼,,44,44,38,29,30,91,,64,64,10,17,/,/,/,/
2026-02-08T1300,1266A,118.8622,28.9809,衢州市,衢州学院,,40,38,36,28,28,86,,56,56,11,18,6,5,0.3,0.3
2026-02-08T1300,4097A,118.9646,28.9832,衢州市,衢州三中,,42,42,38,27,27,83,,56,56,7,13,5,4,0.5,0.5
2026-02-08T1300,1611A,118.5818,24.9116,泉州市,涂山街,,38,38,31,23,18,72,,67,64,10,11,3,2,0.5,0.4
2026-02-08T1300,1612A,118.597,24.8976,泉州市,津头埔,,40,40,31,24,20,72,,67,64,12,13,2,2,0.5,0.5
2026-02-08T1300,1613A,118.6669,24.9422,泉州市,万安,,46,46,34,24,19,68,,63,60,12,13,3,3,0.3,0.3
2026-02-08T1300,4105A,118.6355,24.9148,泉州市,霞新路6号,,40,40,31,23,17,71,,64,62,11,14,/,/,0.5,0.5
2026-02-08T1300,2626A,88.8873,29.2723,日喀则市,日喀则监测站,,30,,16,12,8,95,,90,89,1,7,11,12,0.3,0.4
2026-02-08T1300,3726A,88.8775,29.2425,日喀则市,林业技术推广中心,,29,7,14,3,3,92,,90,89,2,3,6,6,0.2,0.2
2026-02-08T1300,1659A,119.4711,35.421,日照市,监测站,,24,24,41,8,19,75,,44,44,7,23,8,9,0.6,0.7
2026-02-08T1300,1660A,119.523,35.4216,日照市,市政府广场,,25,22,36,8,16,78,,57,57,11,20,7,7,0.3,0.3
2026-02-08T1300,1661A,119.5511,35.4113,日照市,港务局,,24,24,45,7,16,74,,50,50,10,19,5,5,0.4,0.5
2026-02-08T1300,3507A,119.5326,35.4627,日照市,职业技术学院,,34,34,41,6,17,76,,52,52,11,23,8,8,0.5,0.6
2026-02-08T1300,3604A,119.3267,35.1043,日照市,岚山环保分局,,31,31,55,9,24,78,,49,49,8,26,11,17,0.6,1
2026-02-08T1300,1835A,111.1922,34.7752,三门峡市,市政府,,30,28,31,16,14,93,,46,46,14,32,9,9,0.4,0.5
2026-02-08T1300,1836A,111.1588,34.794,三门峡市,开发区,,42,42,40,15,18,80,,44,44,12,21,9,7,0.4,0.5
2026-02-08T1300,3039A,111.1911,34.7829,三门峡市,三门峡市第一小学,,36,36,33,10,14,85,,46,46,12,21,10,9,0.4,0.5
2026-02-08T1300,3598A,111.1031,34.719,三门峡市,富达温泉假日酒店,,39,33,46,27,23,72,,34,34,32,28,10,10,0.5,0.6
2026-02-08T1300,2324A,117.621,26.2626,三明市,三钢,,27,27,22,18,16,85,,77,74,4,7,3,3,0.2,0.3
2026-02-08T1300,2325A,117.6352,26.2714,三明市,三明二中,,27,,16,16,13,84,,76,74,6,7,3,3,0.6,0.6
2026-02-08T1300,2326A,117.6028,26.2377,三明市,三元区政府,,28,,17,14,11,89,,80,77,6,7,4,3,0.6,0.6
2026-02-08T1300,1877A,109.4962,18.2682,三亚市,河西子站,,34,33,29,14,13,106,,101,97,6,6,3,3,0.5,0.4
2026-02-08T1300,3540A,109.7348,18.3443,三亚市,君悦子站,,44,44,27,16,15,93,,98,91,5,5,3,3,0.5,0.4
2026-02-08T1300,4135A,109.1714,18.3739,三亚市,城东小学站,,34,26,25,17,14,106,,95,95,6,7,/,/,/,/
2026-02-08T1300,2624A,91.7592,29.234,山南市,山南监测站,,25,22,13,9,8,77,,73,65,3,4,5,5,0.5,0.5
2026-02-08T1300,2625A,91.7701,29.2436,山南市,山南人民医院,,46,46,19,3,6,78,,72,64,3,5,5,4,0.5,0.5
2026-02-08T1300,1674A,116.6795,23.3666,汕头市,金平子站,,35,34,30,24,15,91,,65,62,9,11,5,4,0.6,0.6
2026-02-08T1300,1675A,116.7248,23.3632,汕头市,龙湖子站,,38,37,31,26,18,87,,63,62,10,12,10,10,/,/
2026-02-08T1300,1676A,116.7257,23.2774,汕头市,濠江子站,,36,36,31,21,17,84,,63,63,12,14,7,7,/,/
2026-02-08T1300,1677A,116.7518,23.4712,汕头市,澄海子站,,40,40,35,25,16,87,,58,58,10,13,8,6,0.6,0.6
2026-02-08T1300,1678A,116.6088,23.2539,汕头市,潮阳子站,,38,38,30,24,16,86,,65,64,9,11,6,5,0.5,0.5
2026-02-08T1300,3444A,116.4539,23.2684,汕头市,潮南峡山,,36,36,29,22,15,78,,63,57,11,11,6,5,0.5,0.6
2026-02-08T1300,3624A,116.4069,23.2533,汕头市,潮南子站,,50,50,36,23,16,62,,56,48,14,14,6,5,/,/
2026-02-08T1300,1693A,115.3653,22.7751,汕尾市,市环保局,,25,,26,17,13,61,,58,54,11,10,5,5,0.8,0.8
2026-02-08T1300,1695A,115.362,22.7926,汕尾市,新城中学,,23,,26,16,13,63,,59,55,9,10,5,5,0.7,0.7
2026-02-08T1300,2645A,109.9155,33.8714,商洛市,监测站,,42,42,53,16,19,93,,52,52,9,16,7,4,0.6,0.6
2026-02-08T1300,3045A,109.9647,33.8486,商洛市,商州区中学,颗粒物(PM10),57,64,60,18,19,97,,44,44,12,22,16,6,0.6,0.6
2026-02-08T1300,2408A,115.6701,34.4283,商丘市,环境监测站,,,,86,31,49,90,,64,64,8,21,5,6,0.4,0.5
2026-02-08T1300,2409A,115.6458,34.4047,商丘市,粮食局,颗粒物(PM10),52,54,67,31,45,84,,61,61,14,22,1,2,0.3,0.4
2026-02-08T1300,3171A,115.6069,34.4465,商丘市,梁园区档案局,细颗粒物(PM2.5),52,43,63,36,43,89,,61,61,9,19,2,3,0.3,0.4
2026-02-08T1300,4119A,115.6701,34.3767,商丘市,北海东路185号,,46,46,84,21,47,88,,51,51,11,25,4,4,0.2,0.4
2026-02-08T1300,4120A,115.6172,34.3704,商丘市,中山大街3号,颗粒物(PM10),57,63,86,30,46,88,,46,46,13,29,3,2,0.2,0.3
2026-02-08T1300,1141A,121.401,31.2382,上海市,普陀,,24,23,49,14,36,76,,59,59,13,20,7,6,0.5,0.6
2026-02-08T1300,1142A,121.4774,31.2043,上海市,十五厂,,27,27,49,17,34,77,,62,62,13,19,7,6,0.4,0.5
2026-02-08T1300,1143A,121.4673,31.3011,上海市,虹口,,22,22,49,14,29,70,,55,55,9,16,5,4,0.2,0.3
2026-02-08T1300,1147A,121.4253,31.226,上海市,静安监测站,,25,23,47,14,29,80,,64,64,12,20,8,8,0.2,0.4
2026-02-08T1300,1148A,121.7029,31.1905,上海市,浦东川沙,,28,28,51,19,35,79,,65,65,11,18,8,8,0.3,0.4
2026-02-08T1300,1149A,121.5339,31.229,上海市,浦东新区监测站,,29,22,49,20,36,77,,61,61,9,16,7,6,0.6,0.6
2026-02-08T1300,1150A,121.5776,31.2038,上海市,浦东张江,,25,24,49,15,35,80,,66,66,14,17,8,7,0.3,0.2
2026-02-08T1300,3265A,121.4242,31.3303,上海市,宝山庙行,,,,51,,33,74,,54,54,11,21,9,9,0.5,0.7
2026-02-08T1300,3266A,121.8789,31.4662,上海市,崇明上实东滩,,25,23,40,17,27,80,,65,65,5,8,4,4,0,0.1
2026-02-08T1300,3268A,121.316,31.2839,上海市,嘉定南翔,,26,25,47,18,35,76,,57,57,10,17,5,4,0.5,0.6
2026-02-08T1300,3269A,121.3357,30.7455,上海市,金山新城,,39,31,52,27,41,76,,53,53,16,25,11,9,0.7,0.7
2026-02-08T1300,3270A,121.4996,31.0741,上海市,闵行浦江,,28,28,49,18,35,75,,59,59,13,18,8,7,0.3,0.4
2026-02-08T1300,3271A,121.2886,31.1663,上海市,青浦徐泾,,29,29,49,20,36,82,,55,55,13,24,6,5,0.7,0.6
2026-02-08T1300,3272A,121.2193,31.0382,上海市,松江图书馆,,30,30,57,20,39,77,,56,56,11,18,8,6,0.8,0.7
2026-02-08T1300,3273A,121.3904,31.206,上海市,长宁仙霞,,30,30,47,13,31,73,,57,57,12,18,8,7,0.8,0.8
2026-02-08T1300,3274A,121.7964,31.0507,上海市,浦东惠南,,25,23,46,16,30,79,,60,60,13,22,6,5,0.5,0.6
2026-02-08T1300,3544A,121.4891,30.925,上海市,奉贤南桥新城,,35,35,54,24,39,76,,58,58,12,19,6,5,0.4,0.4
2026-02-08T1300,4183A,121.417401,31.16637,上海市,冠生园路458号,,28,26,47,19,35,74,,60,60,17,20,6,5,0.5,0.6
2026-02-08T1300,4205A,121.541914,31.268301,上海市,宁武路151号,,24,22,47,16,34,76,,62,62,15,19,7,6,0.7,0.6
2026-02-08T1300,2382A,117.9758,28.4439,上饶市,市监测站,,34,34,31,17,16,93,,77,77,9,11,5,5,/,/
2026-02-08T1300,2383A,117.9521,28.4637,上饶市,凤凰光学,,35,35,33,20,17,84,,66,66,13,16,8,9,0.8,0.9
2026-02-08T1300,3685A,117.897,28.4316,上饶市,双创科技城,,39,39,32,20,20,91,,75,75,12,16,5,5,0.7,0.8
2026-02-08T1300,4211A,118.190438,28.444845,上饶市,裕丰大道,,30,29,34,18,19,94,,75,75,11,16,11,10,0.6,0.6
2026-02-08T1300,1669A,113.5821,24.7733,韶关市,市八中,,34,34,29,21,18,83,,80,80,12,15,6,7,0.4,0.6
2026-02-08T1300,1671A,113.5916,24.7973,韶关市,园林处,,30,26,26,21,21,86,,82,82,10,13,6,6,/,/
2026-02-08T1300,1673A,113.5971,24.6864,韶关市,曲江监测站,,33,33,26,21,18,84,,81,81,11,13,4,5,0.4,0.6
2026-02-08T1300,2809A,113.6668,24.7756,韶关市,大学路288号,,35,34,26,24,19,81,,79,79,11,12,4,4,/,/
2026-02-08T1300,3622A,113.5556,24.8082,韶关市,碧湖山庄,,33,33,29,19,19,86,,83,83,11,14,7,6,0.5,0.7
2026-02-08T1300,2464A,111.5277,27.2442,邵阳市,市化工厂,细颗粒物(PM2.5),57,58,64,40,46,77,,55,55,11,12,7,4,0.5,0.7
2026-02-08T1300,2466A,111.4327,27.2276,邵阳市,市环保局,细颗粒物(PM2.5),58,60,48,41,43,89,,69,69,11,13,10,8,0.7,0.8
2026-02-08T1300,4218A,111.446,27.2472,邵阳市,北塔二期4-26地块,颗粒物(PM10),68,86,48,18,44,83,,65,65,9,9,7,6,0.8,0.8
2026-02-08T1300,4219A,111.4739,27.2282,邵阳市,邵水西路287号,细颗粒物(PM2.5),54,55,51,38,42,85,,64,64,8,8,11,9,0.7,0.8
2026-02-08T1300,1247A,120.6053,29.9927,绍兴市,城东开发委,"颗粒物(PM10),细颗粒物(PM2.5)",52,54,51,36,34,85,,56,56,18,23,8,7,0.5,0.4
2026-02-08T1300,2921A,120.5482,30.0003,绍兴市,树下王站,,43,42,44,30,31,74,,48,48,14,21,7,6,0.4,0.5
2026-02-08T1300,3408A,120.5685,29.936,绍兴市,绍兴中专,,,,49,,34,,,51,42,,18,,8,,0.2
2026-02-08T1300,3409A,120.4905,30.086,绍兴市,柯桥区政府,,49,49,53,30,31,84,,57,57,19,25,6,5,0.4,0.4
2026-02-08T1300,3410A,120.8751,30.0249,绍兴市,重华小学,细颗粒物(PM2.5),72,65,53,52,38,70,,47,47,20,25,6,7,0.6,0.5
2026-02-08T1300,3411A,120.837,30.0137,绍兴市,上虞中学,细颗粒物(PM2.5),75,72,57,55,39,69,,41,41,18,26,6,6,0.7,0.7
2026-02-08T1300,3560A,120.4715,30.0414,绍兴市,柯桥妇保,,45,45,52,30,36,79,,54,54,14,17,6,5,0.4,0.4
2026-02-08T1300,3658A,120.6156,30.0762,绍兴市,袍江中学,细颗粒物(PM2.5),68,67,51,49,36,75,,52,52,11,16,8,8,0.6,0.6
2026-02-08T1300,1356A,114.0948,22.5506,深圳市,通心岭子站,,32,32,29,12,12,73,,57,57,10,10,2,2,0.4,0.5
2026-02-08T1300,1357A,114.1153,22.5713,深圳市,洪湖,,31,31,32,15,16,73,,56,56,12,15,4,4,0.6,0.6
2026-02-08T1300,1358A,113.9823,22.5398,深圳市,华侨城,,27,27,30,15,18,74,,57,57,16,20,/,/,/,/
2026-02-08T1300,1359A,113.9181,22.517,深圳市,南海子站,,37,37,34,19,19,77,,55,55,14,19,6,6,0.8,0.9
2026-02-08T1300,1360A,114.2345,22.565,深圳市,盐田,,28,28,28,11,14,51,,59,54,25,17,8,8,0.4,0.5
2026-02-08T1300,1363A,114.4911,22.5381,深圳市,南澳,,24,21,22,9,12,75,,58,57,9,9,/,/,/,/
2026-02-08T1300,1364A,114.41,22.6346,深圳市,葵涌,,21,21,25,10,13,66,,55,54,10,10,7,7,0.7,0.8
2026-02-08T1300,1365A,114.2967,22.5978,深圳市,梅沙,,28,28,26,14,14,73,,58,57,11,11,/,/,/,/
2026-02-08T1300,1366A,114.0563,22.7353,深圳市,观澜,,30,30,32,16,16,85,,63,63,11,13,7,7,0.6,0.7
2026-02-08T1300,3305A,114.0614,22.556,深圳市,莲花,,27,27,27,17,17,68,,57,57,15,15,/,/,/,/
2026-02-08T1300,3306A,114.0144,22.6163,深圳市,民治,,30,30,30,18,18,77,,60,60,12,16,/,/,/,/
2026-02-08T1300,3307A,114.1756,22.6421,深圳市,横岗,,30,30,31,20,19,73,,58,58,11,15,/,/,/,/
2026-02-08T1300,3447A,114.344,22.7115,深圳市,坪山,,26,26,27,15,16,73,,58,58,10,13,8,8,0.6,0.8
2026-02-08T1300,3623A,113.8952,22.586,深圳市,西乡,,31,31,34,14,17,86,,61,61,11,19,4,5,0.5,0.6
2026-02-08T1300,4220A,114.214113,22.713717,深圳市,黄阁路,,25,25,25,15,14,74,,60,60,12,13,6,6,0.8,0.9
2026-02-08T1300,1099A,123.5058,41.7084,沈阳市,浑南东路,,49,49,65,22,40,66,,29,29,23,46,14,14,0.7,0.9
2026-02-08T1300,1100A,123.4238,41.6992,沈阳市,新秀街,,39,39,65,18,37,69,,28,28,14,37,12,12,0.8,0.9
2026-02-08T1300,1102A,123.5903,41.8412,沈阳市,东陵路,颗粒物(PM10),54,58,60,29,40,59,,28,28,23,37,13,8,0.9,0.9
2026-02-08T1300,1103A,123.4267,41.8466,沈阳市,陵东街,颗粒物(PM10),56,62,49,34,33,66,,24,24,20,36,16,14,1.1,1.1
2026-02-08T1300,1104A,123.4116,41.7654,沈阳市,文化路,,46,46,65,22,38,68,,28,28,14,37,11,16,0.8,1
2026-02-08T1300,1105A,123.4673,41.787,沈阳市,小河沿,颗粒物(PM10),53,55,55,26,37,70,,25,25,18,33,12,14,0.6,0.7
2026-02-08T1300,1106A,123.4019,41.7978,沈阳市,太原街,,45,31,52,31,29,68,,27,27,20,37,23,19,0.9,0.9
2026-02-08T1300,1108A,123.3778,41.9233,沈阳市,京沈街,颗粒物(PM10),55,59,52,32,36,69,,30,30,25,38,16,13,0.8,0.9
