timepoint,stationcode,longitude,latitude,area,positionname,primarypollutant,aqi,pm10,pm10_24h,pm2_5,pm2_5_24h,o3,o3_24h,o3_8h,o3_8h_24h,no2,no2_24h,so2,so2_24h,co,co_24h
2023-04-12T15:00:00,1001A,116.3621,39.8784,北京市,万寿西宫,颗粒物(PM10),457,557,286,179,66,86,79,48,45,15,30,2,3,0.4,0.3
2023-04-12T15:00:00,1002A,116.2202,40.2915,北京市,定陵,细颗粒物(PM2.5),195,300,177,146,68,96,90,70,70,23,11,1,3,0.3,0.1
2023-04-12T15:00:00,1003A,116.4174,39.9289,北京市,东四,颗粒物(PM10),483,583,309,152,71,96,91,68,53,14,27,3,3,0.3,0.2
2023-04-12T15:00:00,1004A,116.4072,39.8863,北京市,天坛,颗粒物(PM10),493,593,274,148,76,92,84,58,48,23,29,2,3,0.4,0.5
2023-04-12T15:00:00,1005A,116.462,39.9365,北京市,农展馆,颗粒物(PM10),480,580,286,148,86,85,79,56,41,18,29,2,2,0.4,0.3
2023-04-12T15:00:00,1006A,116.3392,39.9295,北京市,官园,颗粒物(PM10),474,574,255,153,66,86,86,63,45,14,29,4,2,0.3,0.2
2023-04-12T15:00:00,1007A,116.2878,39.9611,北京市,海淀万柳,颗粒物(PM10),461,561,228,132,53,76,75,43,43,18,31,1,3,0.3,0.3
2023-04-12T15:00:00,1008A,116.6636,40.135,北京市,顺义新城,颗粒物(PM10),456,556,252,132,57,93,89,51,51,18,25,2,3,0.3,0.2
2023-04-12T15:00:00,1009A,116.6275,40.3275,北京市,怀柔镇,颗粒物(PM10),212,358,197,78,40,86,80,61,53,22,17,1,2,0.3,0.2
2023-04-12T15:00:00,1010A,116.2296,40.217,北京市,昌平镇,颗粒物(PM10),213,359,184,103,47,95,93,61,61,16,16,2,2,0.2,0.1
2023-04-12T15:00:00,1011A,116.3966,39.9821,北京市,奥体中心,颗粒物(PM10),426,526,236,186,77,85,82,58,46,12,23,2,2,0.3,0.2
2023-04-12T15:00:00,1012A,116.184,39.9136,北京市,古城,颗粒物(PM10),480,580,237,150,70,94,87,56,56,16,26,1,3,0.2,0.1
2023-04-12T15:00:00,1015A,117.1444,39.1661,天津市,勤俭道,颗粒物(PM10),500,823,448,204,104,106,106,68,68,16,38,9,7,0.5,0.4
2023-04-12T15:00:00,1017A,117.237,39.1082,天津市,大直沽八号路,颗粒物(PM10),500,762,424,176,94,91,91,64,64,20,35,9,7,0.1,0.1
2023-04-12T15:00:00,1018A,117.202,39.0927,天津市,前进道,颗粒物(PM10),500,691,385,161,87,96,94,64,64,20,42,6,4,0.7,0.6
2023-04-12T15:00:00,1019A,117.1837,39.2133,天津市,淮河道,颗粒物(PM10),500,807,424,247,140,103,103,69,69,17,35,8,5,0.2,0.1
2023-04-12T15:00:00,1021A,117.307,39.0877,天津市,跃进路,颗粒物(PM10),500,662,361,181,135,96,96,67,67,19,38,8,5,,0.1
2023-04-12T15:00:00,1023A,117.707,39.0343,天津市,第四大街,颗粒物(PM10),500,693,380,142,72,90,81,59,59,29,41,10,7,0.6,0.5
2023-04-12T15:00:00,1024A,117.457,38.8394,天津市,永明路,颗粒物(PM10),500,673,432,153,90,87,86,68,68,20,38,7,6,0.4,0.3
2023-04-12T15:00:00,1026A,117.764,39.1587,天津市,汉北路,颗粒物(PM10),500,697,377,158,71,96,96,62,62,21,35,10,10,0.4,0.3
2023-04-12T15:00:00,1027A,117.157,38.9194,天津市,团泊洼,颗粒物(PM10),500,681,446,156,90,0,0,0,0,20,38,8,6,0.1,0.1
2023-04-12T15:00:00,1029A,114.4422,38.0444,石家庄市,职工医院,颗粒物(PM10),500,670,597,148,134,89,61,41,41,43,44,24,13,1.5,0.8
2023-04-12T15:00:00,1030A,114.6063,38.0266,石家庄市,高新区,颗粒物(PM10),500,656,598,148,170,90,74,38,38,25,37,15,9,0.9,0.7
2023-04-12T15:00:00,1031A,114.4898,38.1328,石家庄市,西北水源,颗粒物(PM10),500,713,613,192,176,92,70,50,50,36,37,20,7,1.4,0.7
2023-04-12T15:00:00,1032A,114.4586,38.0058,石家庄市,西南高教,颗粒物(PM10),500,633,593,232,207,87,56,37,37,41,45,19,9,1.3,0.6
2023-04-12T15:00:00,1033A,114.5331,38.0178,石家庄市,世纪公园,颗粒物(PM10),500,654,593,148,142,82,60,32,32,30,39,18,10,1.0,0.7
2023-04-12T15:00:00,1034A,114.509,38.0457,石家庄市,人民会堂,颗粒物(PM10),500,651,600,149,129,90,64,45,45,33,35,19,9,1.3,0.8
2023-04-12T15:00:00,1035A,114.3524,37.8911,石家庄市,封龙山,颗粒物(PM10),500,625,575,144,123,76,59,72,59,40,14,16,5,1.6,0.7
2023-04-12T15:00:00,1037A,118.131,39.6363,唐山市,雷达站,颗粒物(PM10),500,672,311,197,73,89,78,51,51,34,36,8,4,0.6,0.4
2023-04-12T15:00:00,1038A,118.1725,39.6334,唐山市,物资局,颗粒物(PM10),500,716,306,112,45,88,72,59,51,39,32,13,9,0.6,0.4
2023-04-12T15:00:00,1040A,118.1705,39.6506,唐山市,十二中,颗粒物(PM10),500,700,322,176,85,96,80,58,58,30,21,9,5,0.6,0.3
2023-04-12T15:00:00,1041A,118.1869,39.622,唐山市,小山,颗粒物(PM10),500,740,339,142,63,96,80,62,58,35,28,10,5,0.6,0.3
2023-04-12T15:00:00,1042A,119.5134,39.8207,秦皇岛市,北戴河环保局,颗粒物(PM10),436,536,330,87,44,115,115,70,70,21,26,4,4,0.7,0.6
2023-04-12T15:00:00,1043A,119.7493,40.0116,秦皇岛市,第一关,颗粒物(PM10),478,578,451,67,62,116,116,101,79,20,29,4,4,0.5,0.4
2023-04-12T15:00:00,1044A,119.5897,39.9499,秦皇岛市,监测站,颗粒物(PM10),419,519,310,61,45,96,92,86,64,10,8,,3,0.6,0.4
2023-04-12T15:00:00,1046A,119.5251,39.9041,秦皇岛市,建设大厦,颗粒物(PM10),491,591,380,109,40,102,102,84,71,10,11,8,6,0.5,0.5
2023-04-12T15:00:00,1048A,114.5302,36.6116,邯郸市,东污水处理厂,颗粒物(PM10),500,680,628,357,241,80,80,47,47,9,28,9,14,0.4,0.4
2023-04-12T15:00:00,1049A,114.4918,36.5713,邯郸市,矿院,颗粒物(PM10),500,602,556,207,180,77,77,41,41,7,29,7,17,0.6,0.6
2023-04-12T15:00:00,1050A,114.484,36.6133,邯郸市,丛台公园,颗粒物(PM10),500,725,662,208,196,88,88,52,52,9,24,10,13,0.3,0.4
2023-04-12T15:00:00,1051A,115.493,38.8632,保定市,游泳馆,颗粒物(PM10),500,641,463,238,150,95,72,47,47,28,35,13,6,0.4,0.3
2023-04-12T15:00:00,1052A,115.5213,38.8959,保定市,华电二区,颗粒物(PM10),500,650,457,197,135,90,69,45,45,27,35,16,9,0.8,0.9
2023-04-12T15:00:00,1053A,115.4713,38.9108,保定市,接待中心,,,,402,,139,89,,40,40,,34,15,8,0.9,0.5
2023-04-12T15:00:00,1054A,115.4612,38.8416,保定市,地表水厂,颗粒物(PM10),500,751,554,116,84,85,65,42,42,33,40,16,10,0.6,0.3
2023-04-12T15:00:00,1056A,115.5086,38.8639,保定市,监测站,颗粒物(PM10),500,715,536,,125,94,70,48,48,32,39,18,10,0.6,0.2
2023-04-12T15:00:00,1057A,114.8883,40.8336,张家口市,人民公园,颗粒物(PM10),92,134,140,23,20,96,96,75,75,11,6,9,4,0.5,0.3
2023-04-12T15:00:00,1059A,114.8687,40.8042,张家口市,五金库,颗粒物(PM10),107,164,140,31,23,93,93,70,70,14,11,6,2,0.5,0.3
2023-04-12T15:00:00,1060A,114.8902,40.762,张家口市,世纪豪园,颗粒物(PM10),102,153,151,43,26,93,93,69,69,13,12,6,3,0.3,0.3
2023-04-12T15:00:00,1061A,114.8916,40.8661,张家口市,北泵房,,,,127,,26,104,104,84,84,10,8,11,9,0.5,0.3
2023-04-12T15:00:00,1062A,117.9531,40.9081,承德市,铁路,,,,409,,56,90,85,66,59,8,9,8,7,0.2,0.3
2023-04-12T15:00:00,1063A,117.9392,40.9763,承德市,中国银行,细颗粒物(PM2.5),89,107,483,66,114,92,92,67,67,7,10,14,7,0.4,0.3
2023-04-12T15:00:00,1064A,117.9503,40.928,承德市,开发区,颗粒物(PM10),71,92,385,9,56,103,103,77,77,7,9,6,5,0.3,0.3
2023-04-12T15:00:00,1065A,117.8051,40.9655,承德市,文化中心,颗粒物(PM10),91,132,406,24,86,91,91,73,71,9,14,35,10,0.4,0.3
2023-04-12T15:00:00,1066A,117.9268,41.0026,承德市,离宫,颗粒物(PM10),70,89,378,19,74,101,101,77,77,6,8,9,5,0.4,0.3
2023-04-12T15:00:00,1067A,116.6708,39.5111,廊坊市,药材公司,颗粒物(PM10),500,696,356,216,110,95,95,57,57,23,40,5,5,0.5,0.5
2023-04-12T15:00:00,1068A,116.7214,39.5589,廊坊市,开发区,颗粒物(PM10),500,713,333,244,133,98,96,61,61,26,34,9,7,0.6,0.5
2023-04-12T15:00:00,1070A,116.7244,39.5269,廊坊市,北华航天学院,颗粒物(PM10),500,745,385,165,80,94,94,57,57,17,29,9,7,0.5,0.4
2023-04-12T15:00:00,1071A,116.8842,38.2991,沧州市,沧县城建局,颗粒物(PM10),500,762,598,120,103,86,76,56,56,24,40,12,14,0.8,0.7
2023-04-12T15:00:00,1072A,116.8584,38.3254,沧州市,电视转播站,颗粒物(PM10),500,637,461,153,96,87,76,52,52,30,36,9,9,0.5,0.5
2023-04-12T15:00:00,1073A,116.8709,38.3228,沧州市,市环保局,颗粒物(PM10),480,580,455,126,131,91,78,57,57,29,37,4,7,0.4,0.3
2023-04-12T15:00:00,1074A,115.6838,37.7541,衡水市,电机北厂,颗粒物(PM10),500,818,632,187,165,91,91,52,52,9,30,21,15,0.2,0.2
2023-04-12T15:00:00,1075A,115.6303,37.7316,衡水市,市监测站,颗粒物(PM10),500,830,676,177,145,86,86,47,47,4,24,5,6,0.4,0.5
2023-04-12T15:00:00,1077A,114.4704,37.0886,邢台市,达活泉,颗粒物(PM10),500,906,855,270,235,90,90,49,49,7,27,9,11,0.3,0.7
2023-04-12T15:00:00,1078A,114.5062,37.0349,邢台市,邢师高专,颗粒物(PM10),500,765,718,226,184,81,80,44,44,8,31,4,7,0.4,0.8
2023-04-12T15:00:00,1079A,114.5237,37.0851,邢台市,路桥公司,颗粒物(PM10),500,723,664,140,146,78,78,45,45,9,28,7,11,0.5,0.7
2023-04-12T15:00:00,1080A,114.4725,37.0719,邢台市,市环保局,颗粒物(PM10),500,907,848,234,214,93,93,51,51,6,26,6,11,0.3,0.8
2023-04-12T15:00:00,1081A,112.522,37.8873,太原市,尖草坪,颗粒物(PM10),182,314,252,91,71,102,98,63,63,30,41,11,8,0.6,0.5
2023-04-12T15:00:00,1083A,112.434,38.0108,太原市,上兰,,,,,,,,,,,,,,,,
2023-04-12T15:00:00,1084A,112.469,37.7124,太原市,晋源,颗粒物(PM10),213,359,256,116,73,105,90,61,61,52,39,24,7,1.7,0.6
2023-04-12T15:00:00,1085A,112.5583,37.7394,太原市,小店,颗粒物(PM10),192,333,275,95,72,103,95,57,57,35,56,15,13,0.8,0.6
2023-04-12T15:00:00,1086A,112.5369,37.8692,太原市,桃园,颗粒物(PM10),182,313,241,102,64,101,96,45,45,,47,,9,0.8,0.6
2023-04-12T15:00:00,1087A,112.57,37.8195,太原市,坞城,颗粒物(PM10),195,339,253,109,84,103,98,61,61,29,43,16,12,1.0,0.7
2023-04-12T15:00:00,1088A,112.549,37.9854,太原市,南寨,颗粒物(PM10),166,281,212,82,59,101,93,49,49,40,51,17,8,0.8,0.5
2023-04-12T15:00:00,1090A,111.6507,40.7517,呼和浩特市,呼市一监,颗粒物(PM10),216,361,214,,54,96,84,64,64,20,34,12,8,0.5,0.6
2023-04-12T15:00:00,1091A,111.6572,40.8033,呼和浩特市,小召,颗粒物(PM10),250,385,217,99,55,86,81,63,63,26,34,15,12,0.5,0.5
2023-04-12T15:00:00,1094A,111.7516,40.8369,呼和浩特市,如意水处理厂,,,,149,,36,93,80,59,59,16,25,11,8,0.5,0.5
2023-04-12T15:00:00,1095A,111.7276,40.8062,呼和浩特市,二十九中,颗粒物(PM10),235,374,211,93,61,89,84,64,64,22,35,12,8,0.5,0.6
2023-04-12T15:00:00,1096A,111.5512,40.7866,呼和浩特市,工大金川校区,颗粒物(PM10),220,364,220,101,52,91,81,60,60,20,34,12,9,0.6,0.5
2023-04-12T15:00:00,1097A,111.717,40.7612,呼和浩特市,化肥厂生活区,颗粒物(PM10),349,459,250,91,53,78,64,56,56,50,37,14,8,0.4,0.4
2023-04-12T15:00:00,1098A,123.6836,41.9339,沈阳市,森林路,,,,,,,,,,,,,,,,
2023-04-12T15:00:00,1099A,123.505,41.7406,沈阳市,浑南东路,颗粒物(PM10),108,166,312,29,41,97,97,84,84,10,16,8,8,0.3,0.5
2023-04-12T15:00:00,1100A,123.4231,41.6989,沈阳市,新秀街,颗粒物(PM10),109,168,357,21,30,89,89,76,76,12,17,7,6,0.4,0.5
2023-04-12T15:00:00,1102A,123.5903,41.8411,沈阳市,东陵路,颗粒物(PM10),83,115,313,30,40,94,94,78,78,11,15,7,7,0.3,0.3
2023-04-12T15:00:00,1103A,123.4264,41.8467,沈阳市,陵东街,颗粒物(PM10),96,142,305,22,29,96,96,81,81,8,13,9,8,0.4,0.4
2023-04-12T15:00:00,1104A,123.4114,41.7653,沈阳市,文化路,颗粒物(PM10),101,152,301,32,42,93,93,78,78,12,19,7,6,0.3,0.3
2023-04-12T15:00:00,1105A,123.4678,41.7867,沈阳市,小河沿,颗粒物(PM10),95,140,312,30,37,90,90,74,74,12,18,8,8,0.6,0.6
2023-04-12T15:00:00,1106A,123.4017,41.7972,沈阳市,太原街,颗粒物(PM10),112,174,351,35,46,91,91,75,75,11,17,8,8,0.4,0.4
2023-04-12T15:00:00,1108A,123.3783,41.9228,沈阳市,京沈街,颗粒物(PM10),88,125,359,35,50,95,95,81,81,11,18,8,10,0.3,0.4
2023-04-12T15:00:00,1109A,121.612,38.9741,大连市,甘井子,颗粒物(PM10),179,307,219,60,39,103,102,84,84,14,25,5,4,0.4,0.4
2023-04-12T15:00:00,1110A,121.565,38.9511,大连市,周水子,颗粒物(PM10),159,268,222,50,38,100,100,81,81,12,32,2,3,0.6,0.7
2023-04-12T15:00:00,1111A,121.5637,38.8845,大连市,星海三站,颗粒物(PM10),155,259,208,46,34,95,88,71,71,26,28,7,6,0.4,0.4
2023-04-12T15:00:00,1112A,121.6302,38.9117,大连市,青泥洼桥,颗粒物(PM10),154,258,252,39,37,108,108,90,90,6,18,5,5,0.4,0.4
2023-04-12T15:00:00,1113A,121.6251,38.8638,大连市,傅家庄,颗粒物(PM10),191,331,216,55,36,98,80,68,68,21,16,7,6,0.6,0.6
2023-04-12T15:00:00,1114A,121.5213,38.8661,大连市,七贤岭,颗粒物(PM10),134,217,238,39,42,106,106,85,85,7,13,6,5,0.5,0.5
2023-04-12T15:00:00,1115A,121.2529,38.8061,大连市,旅顺,颗粒物(PM10),143,236,180,49,31,98,90,72,72,19,23,7,6,0.4,0.4
2023-04-12T15:00:00,1116A,121.7485,39.1311,大连市,金州,颗粒物(PM10),140,229,200,39,33,94,93,75,75,16,22,8,8,0.5,0.5
2023-04-12T15:00:00,1117A,121.7811,39.0496,大连市,开发区,颗粒物(PM10),139,228,215,43,40,91,88,68,68,20,32,8,8,0.4,0.4
2023-04-12T15:00:00,1118A,121.9762,39.0631,大连市,双D港,颗粒物(PM10),147,244,277,41,42,103,95,84,84,20,20,7,5,0.7,0.7
2023-04-12T15:00:00,1119A,125.3325,43.9166,长春市,食品厂,颗粒物(PM10),109,168,269,12,30,91,86,80,80,11,13,2,2,0.2,0.3
2023-04-12T15:00:00,1120A,125.2863,43.9027,长春市,客车厂,颗粒物(PM10),115,179,282,9,30,100,100,90,90,4,8,4,4,0.5,0.5
2023-04-12T15:00:00,1121A,125.2841,43.8463,长春市,邮电学院,颗粒物(PM10),109,168,242,18,32,92,92,81,81,2,8,5,5,0.3,0.3
2023-04-12T15:00:00,1122A,125.3716,43.8772,长春市,劳动公园,颗粒物(PM10),96,142,232,17,28,93,93,82,82,5,8,5,5,0.1,0.2
2023-04-12T15:00:00,1123A,125.3297,43.8805,长春市,园林处,颗粒物(PM10),106,161,231,21,36,78,77,72,72,22,17,5,5,0.2,0.2
2023-04-12T15:00:00,1124A,125.4605,43.79,长春市,净月潭,颗粒物(PM10),106,162,245,15,25,92,92,82,82,2,4,3,3,0.2,0.2
2023-04-12T15:00:00,1125A,125.7194,43.515,长春市,甩湾子,,,,,,,,,,,,,,,,
2023-04-12T15:00:00,1126A,125.3863,43.8447,长春市,经开区环卫处,,,,,,,,,,,,,,,,
2023-04-12T15:00:00,1127A,125.245,43.7783,长春市,高新区管委会,颗粒物(PM10),120,190,247,76,44,102,102,91,91,4,7,5,6,0.4,0.4
2023-04-12T15:00:00,1128A,125.1761,43.8325,长春市,岱山公园,颗粒物(PM10),109,167,249,25,46,90,89,81,81,8,8,5,4,0.1,0.2
2023-04-12T15:00:00,1129A,126.5422,45.755,哈尔滨市,岭北,颗粒物(PM10),61,72,383,14,58,91,91,81,81,5,6,3,9,0.2,0.3
2023-04-12T15:00:00,1130A,126.561,45.8167,哈尔滨市,松北商大,颗粒物(PM10),64,78,306,16,40,88,88,77,77,7,8,5,5,0.3,0.5
2023-04-12T15:00:00,1131A,126.979,45.5419,哈尔滨市,阿城会宁,颗粒物(PM10),71,92,488,13,75,93,93,85,85,7,9,7,3,0.4,0.5
2023-04-12T15:00:00,1132A,126.599,45.7222,哈尔滨市,南岗学府路,,,,506,,61,83,83,73,73,5,8,5,5,0.3,0.3
2023-04-12T15:00:00,1133A,126.689,45.7733,哈尔滨市,太平宏伟公园,颗粒物(PM10),68,86,327,10,49,87,87,77,77,3,6,4,4,0.4,0.3
2023-04-12T15:00:00,1134A,126.635,45.7667,哈尔滨市,道外承德广场,颗粒物(PM10),59,68,336,10,42,82,81,73,73,12,11,5,6,0.3,0.3
2023-04-12T15:00:00,1135A,126.685,45.7319,哈尔滨市,香坊红旗大街,颗粒物(PM10),70,90,382,8,66,88,88,79,79,8,11,13,11,0.2,0.5
2023-04-12T15:00:00,1136A,126.6411,45.7258,哈尔滨市,动力和平路,颗粒物(PM10),69,88,380,33,60,84,84,74,74,11,15,8,9,0.2,0.3
2023-04-12T15:00:00,1137A,126.593,45.7478,哈尔滨市,道里建国路,颗粒物(PM10),62,74,318,31,61,81,81,71,71,9,13,9,9,0.1,0.3
2023-04-12T15:00:00,1138A,126.615,45.61,哈尔滨市,平房东轻厂,颗粒物(PM10),73,95,434,20,69,92,92,83,83,5,9,7,7,0.4,0.5
2023-04-12T15:00:00,1139A,126.595,45.9855,哈尔滨市,呼兰师专,颗粒物(PM10),77,103,267,13,34,85,85,79,79,10,7,8,8,0.5,0.5
2023-04-12T15:00:00,1140A,126.6206,45.6842,哈尔滨市,省农科院,颗粒物(PM10),68,86,413,21,42,91,91,81,81,7,13,9,10,0.3,0.5
2023-04-12T15:00:00,1141A,121.4,31.238,上海市,普陀,颗粒物(PM10),133,215,370,42,55,179,98,105,89,17,26,4,5,0.5,0.7
2023-04-12T15:00:00,1142A,121.478,31.2036,上海市,十五厂,颗粒物(PM10),167,284,420,45,62,152,95,91,86,18,31,7,8,0.6,0.8
2023-04-12T15:00:00,1143A,121.467,31.3008,上海市,虹口,颗粒物(PM10),148,246,383,48,66,158,90,96,83,15,24,8,8,0.4,0.5
2023-04-12T15:00:00,1144A,121.412,31.1654,上海市,徐汇上师大,颗粒物(PM10),136,222,370,47,74,170,90,101,82,16,30,7,8,0.2,0.5
2023-04-12T15:00:00,1145A,121.536,31.2659,上海市,杨浦四漂,颗粒物(PM10),170,290,406,38,62,174,97,94,89,17,29,8,10,0.2,0.5
2023-04-12T15:00:00,1147A,121.425,31.2261,上海市,静安监测站,颗粒物(PM10),151,252,361,34,57,172,96,102,88,20,29,5,6,0.5,0.7
2023-04-12T15:00:00,1148A,121.703,31.1907,上海市,浦东川沙,,,,444,,70,153,95,88,88,,24,5,6,0.5,0.7
2023-04-12T15:00:00,1149A,121.533,31.2284,上海市,浦东新区监测站,颗粒物(PM10),149,248,356,48,60,169,97,91,91,15,30,6,8,0.3,0.5
2023-04-12T15:00:00,1150A,121.577,31.2071,上海市,浦东张江,颗粒物(PM10),166,281,414,44,66,185,90,96,84,11,23,4,4,0.6,0.8
2023-04-12T15:00:00,1151A,118.8086,32.1065,南京市,迈皋桥,颗粒物(PM10),222,365,612,90,98,179,120,97,97,16,21,4,6,0.2,0.3
2023-04-12T15:00:00,1152A,118.7538,32.0551,南京市,草场门,,,,449,,106,166,103,88,88,21,24,5,5,0.4,0.5
2023-04-12T15:00:00,1153A,118.7794,32.0745,南京市,山西路,颗粒物(PM10),245,381,675,90,107,171,110,92,92,13,16,3,4,0.3,0.3
2023-04-12T15:00:00,1154A,118.7752,32.0023,南京市,中华门,颗粒物(PM10),220,364,480,129,98,171,106,89,89,23,22,4,4,0.5,0.5
2023-04-12T15:00:00,1155A,118.8109,32.0309,南京市,瑞金路,颗粒物(PM10),195,340,501,73,86,169,106,88,88,16,14,6,6,0.5,0.5
2023-04-12T15:00:00,1156A,118.7997,32.0754,南京市,玄武湖,颗粒物(PM10),189,328,516,60,90,154,100,82,82,16,23,6,7,0.3,0.4
2023-04-12T15:00:00,1157A,118.6414,32.0931,南京市,浦口,颗粒物(PM10),270,399,585,66,92,174,107,90,90,26,28,4,6,0.6,0.6
2023-04-12T15:00:00,1158A,118.7356,31.9996,南京市,奥体中心,颗粒物(PM10),273,401,624,85,96,172,107,89,89,21,19,6,6,0.4,0.2
2023-04-12T15:00:00,1159A,118.9125,32.1028,南京市,仙林大学城,颗粒物(PM10),238,376,581,80,119,152,101,84,84,17,19,7,8,0.5,0.6
2023-04-12T15:00:00,1160A,120.561,31.2472,苏州市,上方山,颗粒物(PM10),186,321,337,69,62,144,83,82,70,22,20,7,8,0.3,0.5
2023-04-12T15:00:00,1162A,120.591,31.3019,苏州市,彩香,颗粒物(PM10),196,341,375,74,77,188,102,92,86,13,14,4,6,0.3,0.5
2023-04-12T15:00:00,1163A,120.596,31.3264,苏州市,轧钢厂,颗粒物(PM10),195,340,386,66,71,174,90,83,79,13,13,6,8,0.4,0.6
2023-04-12T15:00:00,1164A,120.613,31.2703,苏州市,吴中区,颗粒物(PM10),190,330,355,77,68,170,99,97,78,21,24,7,8,0.5,0.5
2023-04-12T15:00:00,1165A,120.543,31.2994,苏州市,苏州新区,颗粒物(PM10),186,322,366,68,72,178,98,86,82,12,15,5,6,0.3,0.5
2023-04-12T15:00:00,1166A,120.669,31.3097,苏州市,苏州工业园区,颗粒物(PM10),183,316,358,60,75,162,86,95,74,21,18,7,8,0.5,0.6
2023-04-12T15:00:00,1167A,120.641,31.3708,苏州市,相城区,颗粒物(PM10),189,328,343,72,76,183,88,83,80,19,12,7,6,0.5,0.5
2023-04-12T15:00:00,1168A,120.9098,31.9663,南通市,狼山街道,颗粒物(PM10),154,257,434,46,82,206,112,100,100,6,11,5,6,0.3,0.5
2023-04-12T15:00:00,1169A,120.86,32.0005,南通市,虹桥,颗粒物(PM10),162,274,467,48,75,203,110,98,98,11,16,5,6,0.2,0.4
2023-04-12T15:00:00,1170A,120.87,32.02,南通市,城中,颗粒物(PM10),157,264,438,48,76,199,114,101,101,2,9,7,8,0.4,0.4
2023-04-12T15:00:00,1171A,120.94,31.93,南通市,星湖花园,颗粒物(PM10),149,247,400,53,67,192,110,99,99,11,17,5,6,0.3,0.4
2023-04-12T15:00:00,1172A,120.81,32.0417,南通市,紫琅学院,,,,444,53,71,166,102,92,92,14,18,7,7,0.2,0.1
2023-04-12T15:00:00,1173A,119.176,34.5885,连云港市,市环境监测站,颗粒物(PM10),434,534,562,129,104,98,98,80,80,7,13,5,6,0.3,0.5
2023-04-12T15:00:00,1177A,117.179,34.2761,徐州市,黄河新村,颗粒物(PM10),392,493,932,91,149,93,93,72,72,9,20,6,8,0.5,0.6
2023-04-12T15:00:00,1178A,117.1918,34.2384,徐州市,淮塔,颗粒物(PM10),348,458,802,83,136,99,99,74,74,,23,,10,0.2,0.3
2023-04-12T15:00:00,1180A,117.256,34.2153,徐州市,新城区,颗粒物(PM10),298,418,761,62,116,94,94,74,74,7,19,9,12,0.5,0.5
2023-04-12T15:00:00,1181A,117.244,34.2911,徐州市,桃园路,颗粒物(PM10),398,498,873,73,125,96,96,74,74,5,19,7,9,0.4,0.5
2023-04-12T15:00:00,1182A,117.2933,34.2778,徐州市,农科院,颗粒物(PM10),345,456,766,97,137,98,98,72,72,4,23,6,8,0.5,0.5
2023-04-12T15:00:00,1186A,119.389,32.3761,扬州市,邗江监测站,颗粒物(PM10),238,376,660,85,94,111,111,87,87,16,17,7,8,0.4,0.3
2023-04-12T15:00:00,1188A,120.269,31.4867,无锡市,雪浪,颗粒物(PM10),216,361,472,153,101,173,89,78,78,28,24,9,8,0.4,0.5
2023-04-12T15:00:00,1189A,120.275,31.6219,无锡市,黄巷,颗粒物(PM10),213,359,456,61,74,219,103,81,81,18,22,4,6,0.5,0.7
2023-04-12T15:00:00,1190A,120.294,31.56,无锡市,曹张,颗粒物(PM10),182,313,398,66,68,172,98,80,80,18,25,5,5,0.8,0.8
2023-04-12T15:00:00,1191A,120.242,31.5031,无锡市,漆塘,颗粒物(PM10),216,361,459,73,78,140,89,80,80,17,14,7,7,0.6,0.6
2023-04-12T15:00:00,1192A,120.3489,31.5863,无锡市,东亭,颗粒物(PM10),185,320,393,58,75,217,102,80,80,15,23,8,9,0.4,0.6
2023-04-12T15:00:00,1193A,120.354,31.5475,无锡市,旺庄,颗粒物(PM10),189,327,410,61,71,170,98,80,80,13,16,8,9,0.8,0.9
2023-04-12T15:00:00,1194A,120.245,31.5631,无锡市,荣巷,颗粒物(PM10),194,337,490,85,84,163,104,84,84,,20,,11,0.3,0.5
2023-04-12T15:00:00,1195A,120.299,31.6817,无锡市,堰桥,颗粒物(PM10),248,383,529,80,81,191,112,88,88,15,20,8,8,0.2,0.6
2023-04-12T15:00:00,1196A,119.9633,31.762,常州市,市监测站,颗粒物(PM10),185,320,390,79,82,192,98,80,80,23,25,4,6,0.4,0.6
2023-04-12T15:00:00,1200A,119.9468,31.7069,常州市,武进监测站,颗粒物(PM10),184,318,383,89,85,216,102,82,82,22,23,6,9,0.3,0.6
2023-04-12T15:00:00,1201A,119.9255,31.9087,常州市,安家,颗粒物(PM10),186,322,395,94,99,152,101,81,81,18,21,8,8,0.4,0.5
2023-04-12T15:00:00,1203A,119.6707,32.1875,镇江市,新区办事处,颗粒物(PM10),255,388,519,83,98,124,94,83,83,22,14,9,2,0.6,0.3
2023-04-12T15:00:00,1204A,119.4974,32.1968,镇江市,职教中心,颗粒物(PM10),252,386,549,79,91,117,94,79,79,29,24,10,5,1.0,0.3
2023-04-12T15:00:00,1205A,119.4303,32.1328,镇江市,丹徒区监测站,颗粒物(PM10),276,403,515,84,99,148,107,83,83,22,14,6,3,0.5,0.3
2023-04-12T15:00:00,1206A,119.905,32.4878,泰州市,公园路,颗粒物(PM10),190,329,512,68,88,111,111,93,93,10,15,8,8,0.2,0.3
2023-04-12T15:00:00,1207A,119.9189,32.4625,泰州市,莲花,颗粒物(PM10),242,379,573,75,72,117,117,97,97,11,15,6,7,0.3,0.6
2023-04-12T15:00:00,1209A,119.888,32.4639,泰州市,留学生创业园,颗粒物(PM10),246,382,548,78,97,108,108,90,90,13,17,8,8,0.3,0.3
2023-04-12T15:00:00,1210A,119.036,33.5981,淮安市,钵池山,颗粒物(PM10),289,412,468,80,84,86,,74,74,11,19,7,7,0.4,0.5
2023-04-12T15:00:00,1211A,119.007,33.575,淮安市,北京南路,颗粒物(PM10),343,454,531,82,86,94,94,75,75,12,19,8,8,0.6,0.6
2023-04-12T15:00:00,1212A,118.989,33.6067,淮安市,市监测站,颗粒物(PM10),307,425,520,112,106,97,97,80,78,14,18,7,6,0.4,0.4
2023-04-12T15:00:00,1213A,119.135,33.5039,淮安市,楚州区监测站,颗粒物(PM10),343,454,546,81,94,95,95,75,75,12,21,7,6,0.5,0.5
2023-04-12T15:00:00,1214A,119.0186,33.6297,淮安市,淮阴区监测站,颗粒物(PM10),298,418,484,79,83,94,93,78,78,18,23,7,7,0.4,0.4
2023-04-12T15:00:00,1215A,120.118,33.4022,盐城市,盐城电厂,颗粒物(PM10),240,378,488,62,74,113,113,98,98,9,17,7,7,0.2,0.3
2023-04-12T15:00:00,1216A,120.156,33.3942,盐城市,市监测站,颗粒物(PM10),266,396,485,73,74,102,101,92,92,7,14,8,8,0.4,0.3
2023-04-12T15:00:00,1218A,120.2144,33.38,盐城市,开发区管委会,颗粒物(PM10),240,378,428,54,62,109,105,91,91,9,13,4,5,0.0,0.1
2023-04-12T15:00:00,1220A,118.293,33.9528,宿迁市,宿迁学院,颗粒物(PM10),314,431,624,104,166,104,104,74,74,11,18,7,5,0.5,0.4
2023-04-12T15:00:00,1221A,118.2442,33.9592,宿迁市,宿迁中学,颗粒物(PM10),345,456,625,94,115,104,104,77,77,13,17,7,6,0.4,0.4
2023-04-12T15:00:00,1223A,120.2072,30.2111,杭州市,滨江,颗粒物(PM10),270,399,363,91,75,117,102,90,90,23,43,9,9,0.4,0.8
2023-04-12T15:00:00,1224A,120.0633,30.2747,杭州市,西溪,颗粒物(PM10),275,402,379,65,74,110,99,90,90,20,32,14,10,0.4,0.7
2023-04-12T15:00:00,1226A,120.3461,30.3153,杭州市,下沙,颗粒物(PM10),307,425,382,101,76,111,99,92,92,12,32,5,7,0.1,0.4
2023-04-12T15:00:00,1227A,120.1269,30.2456,杭州市,卧龙桥,颗粒物(PM10),208,355,302,76,68,122,100,93,93,18,31,18,11,0.4,0.8
2023-04-12T15:00:00,1228A,120.1903,30.2692,杭州市,浙江农大,颗粒物(PM10),238,376,328,77,74,124,104,94,94,18,37,12,7,0.5,0.8
2023-04-12T15:00:00,1230A,120.1197,30.3119,杭州市,和睦小学,颗粒物(PM10),278,404,356,68,65,105,88,80,80,17,44,7,7,0.4,0.9
2023-04-12T15:00:00,1231A,120.3019,30.4183,杭州市,临平镇,,,,395,,64,139,108,96,96,10,36,4,6,0.2,0.6
2023-04-12T15:00:00,1232A,120.2697,30.1819,杭州市,城厢镇,颗粒物(PM10),290,413,326,72,66,115,96,90,90,23,41,7,8,0.4,0.8
2023-04-12T15:00:00,1233A,120.0883,30.1808,杭州市,云栖,颗粒物(PM10),283,408,316,62,56,120,99,90,90,19,36,4,6,0.4,0.6
2023-04-12T15:00:00,1234A,121.8358,29.911,宁波市,区环保大楼,颗粒物(PM10),134,218,118,64,42,103,98,92,92,19,58,3,6,0.4,0.6
2023-04-12T15:00:00,1235A,121.56,29.82,宁波市,万里学院,颗粒物(PM10),179,308,166,59,49,112,94,112,94,28,37,6,7,0.4,0.7
2023-04-12T15:00:00,1236A,121.713,29.9572,宁波市,龙赛医院,颗粒物(PM10),197,344,195,65,47,120,99,115,91,19,36,6,8,0.4,0.5
2023-04-12T15:00:00,1239A,121.633,29.7733,宁波市,钱湖水厂,颗粒物(PM10),177,304,161,54,49,123,102,104,104,17,22,5,5,0.4,0.6
2023-04-12T15:00:00,1240A,121.5856,29.8635,宁波市,太古小学,颗粒物(PM10),186,322,160,48,52,130,98,121,94,29,36,7,8,0.5,0.8
2023-04-12T15:00:00,1241A,121.524,29.8674,宁波市,市环境监测中心,颗粒物(PM10),187,323,160,61,43,125,101,125,96,27,31,7,7,0.3,0.6
2023-04-12T15:00:00,1242A,120.634,28.0089,温州市,瓯海,颗粒物(PM10),72,94,79,40,48,127,119,58,58,26,46,7,7,0.5,0.7
2023-04-12T15:00:00,1243A,120.6748,27.9939,温州市,南浦,颗粒物(PM10),76,101,77,30,45,118,117,61,58,22,39,4,5,0.4,0.7
2023-04-12T15:00:00,1244A,120.76,27.9747,温州市,龙湾,颗粒物(PM10),84,117,78,26,36,115,97,53,53,27,55,8,7,0.2,0.6
2023-04-12T15:00:00,1245A,120.6709,28.0167,温州市,市站,颗粒物(PM10),75,100,84,37,50,101,88,44,44,61,52,5,5,0.6,0.8
2023-04-12T15:00:00,1247A,120.6053,29.9928,绍兴市,城东开发委,颗粒物(PM10),313,430,360,80,68,129,129,107,107,14,31,6,7,0.5,0.8
2023-04-12T15:00:00,1250A,120.0751,30.8669,湖州市,城西水厂,颗粒物(PM10),248,383,384,66,57,172,113,88,88,24,20,8,7,0.4,0.5
2023-04-12T15:00:00,1252A,120.7436,30.778,嘉兴市,清河小学,颗粒物(PM10),194,337,351,60,65,116,82,74,74,23,31,5,4,0.2,0.5
2023-04-12T15:00:00,1253A,120.726,30.7478,嘉兴市,嘉兴学院,颗粒物(PM10),185,319,336,82,65,137,87,82,81,17,26,6,6,0.3,0.6
2023-04-12T15:00:00,1255A,121.273,28.6459,台州市,黄岩环保大楼,颗粒物(PM10),150,250,102,45,41,137,109,86,86,10,29,6,5,0.1,0.4
2023-04-12T15:00:00,1256A,121.419,28.6542,台州市,台州环保大楼,颗粒物(PM10),136,222,92,40,43,132,104,91,91,8,26,5,6,0.2,0.6
2023-04-12T15:00:00,1257A,121.377,28.5773,台州市,路桥田洋王,颗粒物(PM10),132,213,94,34,46,134,107,90,90,10,33,5,7,0.0,0.5
2023-04-12T15:00:00,1258A,122.122,30.0203,舟山市,定海檀枫,颗粒物(PM10),130,210,152,44,37,101,90,93,90,6,30,5,6,0.3,0.5
2023-04-12T15:00:00,1259A,122.3094,29.9558,舟山市,普陀东港,颗粒物(PM10),186,321,158,50,36,105,95,94,92,6,31,5,6,0.2,0.5
2023-04-12T15:00:00,1260A,122.19,29.9944,舟山市,临城新区,颗粒物(PM10),122,193,127,32,35,100,100,95,95,7,35,4,6,0.2,0.4
2023-04-12T15:00:00,1262A,119.647,29.077,金华市,十五中,颗粒物(PM10),239,377,205,64,69,194,194,137,137,19,38,7,11,0.7,0.8
2023-04-12T15:00:00,1263A,119.686,29.1029,金华市,监测站,颗粒物(PM10),191,332,202,62,60,188,188,132,132,18,36,6,10,0.6,0.9
2023-04-12T15:00:00,1264A,118.8692,28.9398,衢州市,环保大楼,颗粒物(PM10),152,254,119,59,54,198,198,144,144,16,37,7,10,,0.6
2023-04-12T15:00:00,1265A,118.8709,28.9666,衢州市,实验学校,颗粒物(PM10),144,238,119,54,54,202,202,141,141,15,35,9,9,0.6,0.7
2023-04-12T15:00:00,1266A,118.8621,28.9808,衢州市,衢州学院,颗粒物(PM10),144,237,116,52,52,196,196,137,137,14,33,9,6,0.5,0.6
2023-04-12T15:00:00,1267A,119.914,28.4514,丽水市,监测站大楼,,,67,58,52,45,144,144,91,91,,26,7,7,0.6,0.7
2023-04-12T15:00:00,1268A,119.93,28.4586,丽水市,莲都小学,细颗粒物(PM2.5),65,77,70,47,49,152,152,100,100,15,24,5,5,0.6,0.6
2023-04-12T15:00:00,1269A,119.879,28.4231,丽水市,余庄前,"颗粒物(PM10),细颗粒物(PM2.5)",53,55,56,37,24,135,135,88,88,9,25,7,7,0.6,0.7
2023-04-12T15:00:00,1270A,117.1959,31.7848,合肥市,明珠广场,颗粒物(PM10),398,498,695,85,107,172,115,83,83,16,22,5,5,0.5,0.6
2023-04-12T15:00:00,1271A,117.3072,31.8764,合肥市,三里街,颗粒物(PM10),400,500,670,95,116,164,98,70,70,19,27,5,6,0.4,0.5
2023-04-12T15:00:00,1272A,117.2588,31.8707,合肥市,琥珀山庄,颗粒物(PM10),424,524,705,95,114,172,109,84,84,9,16,6,5,0.5,0.4
2023-04-12T15:00:00,1273A,117.1604,31.9052,合肥市,董铺水库,颗粒物(PM10),500,615,839,97,122,152,86,68,68,12,16,5,5,0.3,0.3
2023-04-12T15:00:00,1274A,117.25,31.8571,合肥市,长江中路,颗粒物(PM10),429,529,712,104,110,171,104,74,74,,20,12,11,0.4,0.4
2023-04-12T15:00:00,1275A,117.266,31.9436,合肥市,庐阳区,颗粒物(PM10),434,534,754,90,112,154,92,73,73,15,20,16,15,0.4,0.5
2023-04-12T15:00:00,1276A,117.336,31.8586,合肥市,瑶海区,颗粒物(PM10),420,520,709,101,123,163,96,76,76,8,17,8,8,0.5,0.6
2023-04-12T15:00:00,1277A,117.3027,31.7964,合肥市,包河区,颗粒物(PM10),450,550,734,151,137,149,106,78,78,9,29,8,8,0.4,0.5
2023-04-12T15:00:00,1278A,117.2776,31.7385,合肥市,滨湖新区,颗粒物(PM10),455,555,729,88,109,158,109,79,79,8,16,7,7,0.5,0.6
2023-04-12T15:00:00,1279A,117.1318,31.8403,合肥市,高新区,颗粒物(PM10),444,544,715,88,117,169,109,84,84,16,22,8,8,0.4,0.5
2023-04-12T15:00:00,1280A,119.3903,26.0543,福州市,鼓山,,,,,,,,,,,,,,,,
2023-04-12T15:00:00,1282A,119.2681,26.0504,福州市,师大,,38,32,68,26,48,171,69,74,74,32,31,4,7,0.7,0.6
2023-04-12T15:00:00,1283A,119.2984,26.1028,福州市,五四北路,,42,18,65,29,53,182,80,62,62,24,35,2,4,0.7,0.6
2023-04-12T15:00:00,1284A,119.2648,26.0768,福州市,杨桥西路,,30,23,66,21,47,163,77,67,67,23,29,3,5,0.8,0.7
2023-04-12T15:00:00,1285A,119.317,26.0746,福州市,紫阳,,40,32,68,28,57,169,65,58,58,34,35,2,4,0.7,0.6
2023-04-12T15:00:00,1286A,118.1608,24.8169,厦门市,溪东,,,,,,,,,,,,,,,,
2023-04-12T15:00:00,1287A,118.1514,24.4767,厦门市,洪文,颗粒物(PM10),51,51,59,28,30,107,107,61,61,14,27,3,3,0.5,0.5
2023-04-12T15:00:00,1288A,118.0661,24.4444,厦门市,鼓浪屿,,49,49,57,25,28,99,99,54,54,15,35,3,5,0.4,0.4
2023-04-12T15:00:00,1290A,115.8931,28.6843,南昌市,省外办,颗粒物(PM10),63,76,128,40,44,128,128,91,91,5,27,4,9,0.5,0.6
2023-04-12T15:00:00,1291A,115.8886,28.7003,南昌市,省林业公司,颗粒物(PM10),58,66,137,39,52,120,120,78,78,14,35,5,11,0.4,0.5
2023-04-12T15:00:00,1292A,115.8126,28.7442,南昌市,林科所,颗粒物(PM10),69,88,108,36,40,136,135,99,99,6,27,8,11,0.6,0.7
2023-04-12T15:00:00,1294A,115.8518,28.687,南昌市,建工学校,,,,127,,46,132,131,102,102,5,33,4,13,0.5,0.7
2023-04-12T15:00:00,1295A,115.8921,28.6424,南昌市,象湖,颗粒物(PM10),63,76,106,33,47,129,129,91,91,8,31,10,9,1.0,0.8
2023-04-12T15:00:00,1296A,115.7423,28.7996,南昌市,武术学校,颗粒物(PM10),78,106,70,29,32,119,119,81,81,7,8,14,14,0.5,0.5
2023-04-12T15:00:00,1298A,115.9314,28.6842,南昌市,省站,颗粒物(PM10),77,104,132,33,50,130,130,90,90,2,30,6,11,0.7,0.8
2023-04-12T15:00:00,1299A,116.9862,36.6114,济南市,科干所,,,,663,,146,102,,84,84,10,27,6,6,,0.3
2023-04-12T15:00:00,1300A,116.9376,36.665,济南市,农科所,颗粒物(PM10),500,911,655,200,153,93,93,69,69,10,35,3,2,0.5,0.6
2023-04-12T15:00:00,1301A,117.1265,36.6734,济南市,开发区,颗粒物(PM10),500,830,664,159,147,104,103,78,78,10,39,7,7,0.5,0.5
2023-04-12T15:00:00,1303A,117.0624,36.6868,济南市,省种子仓库,颗粒物(PM10),500,847,664,168,194,105,105,78,78,9,42,7,7,0.5,0.6
2023-04-12T15:00:00,1304A,116.9489,36.6447,济南市,机床二厂,细颗粒物(PM2.5),284,,643,234,179,100,100,78,78,13,36,2,2,0.5,0.5
2023-04-12T15:00:00,1305A,117.0495,36.663,济南市,市监测站,颗粒物(PM10),500,869,686,154,132,105,105,81,81,9,42,7,7,0.5,0.5
2023-04-12T15:00:00,1306A,116.7675,36.5484,济南市,长清党校,颗粒物(PM10),500,979,715,171,185,99,99,81,81,11,32,10,9,0.6,0.5
2023-04-12T15:00:00,1307A,120.6659,36.2403,青岛市,仰口,颗粒物(PM10),471,571,463,110,74,96,92,91,68,10,12,5,5,0.5,0.5
2023-04-12T15:00:00,1310A,120.4134,36.0658,青岛市,市南区东部子站,颗粒物(PM10),383,486,428,68,60,81,66,63,63,33,41,7,6,0.4,0.5
2023-04-12T15:00:00,1311A,120.3664,36.1032,青岛市,四方区子站,颗粒物(PM10),478,578,432,80,66,78,74,58,58,27,53,7,8,0.6,0.6
2023-04-12T15:00:00,1312A,120.2994,36.054,青岛市,市南区西部子站,颗粒物(PM10),464,564,472,78,67,83,81,52,52,33,63,9,13,0.4,0.5
2023-04-12T15:00:00,1313A,120.4581,36.0858,青岛市,崂山区子站,颗粒物(PM10),486,586,463,90,73,85,85,74,74,14,25,7,6,0.4,0.4
2023-04-12T15:00:00,1314A,120.1983,35.9608,青岛市,黄岛区子站,颗粒物(PM10),478,578,465,83,69,85,85,67,67,11,40,5,7,0.3,0.4
2023-04-12T15:00:00,1315A,120.3999,36.3083,青岛市,城阳区子站,颗粒物(PM10),500,664,444,90,69,90,86,63,63,23,46,5,5,0.3,0.5
2023-04-12T15:00:00,1316A,113.69031,34.76122,郑州市,烟厂,颗粒物(PM10),500,830,900,161,255,127,127,64,64,14,35,8,7,0.5,0.5
2023-04-12T15:00:00,1317A,113.65724,34.77134,郑州市,郑纺机,颗粒物(PM10),500,783,873,187,234,132,132,69,69,18,40,6,5,0.3,0.3
2023-04-12T15:00:00,1318A,113.67526,34.80246,郑州市,银行学校,颗粒物(PM10),500,812,868,130,170,126,126,64,64,16,37,7,6,0.6,0.5
2023-04-12T15:00:00,1319A,113.56746,34.81334,郑州市,供水公司,颗粒物(PM10),500,786,790,137,178,124,124,61,61,22,40,10,8,0.6,0.4
2023-04-12T15:00:00,1320A,113.7329,34.7178,郑州市,经开区管委,颗粒物(PM10),500,744,800,198,231,125,125,64,64,10,36,5,4,0.6,0.5
2023-04-12T15:00:00,1321A,113.73961,34.77172,郑州市,四十七中,颗粒物(PM10),500,818,866,171,232,120,120,64,64,20,38,6,5,0.5,0.4
2023-04-12T15:00:00,1322A,113.60532,34.74838,郑州市,市监测站,颗粒物(PM10),500,853,922,171,201,132,132,66,66,16,40,8,8,0.6,0.5
2023-04-12T15:00:00,1323A,113.64164,34.7525,郑州市,河医大,颗粒物(PM10),500,813,869,161,217,127,127,63,63,17,42,8,7,0.6,0.5
2023-04-12T15:00:00,1324A,113.51488,34.91089,郑州市,岗李水库,,,,,,,,,,,,,,,,
2023-04-12T15:00:00,1325A,114.3677,30.5584,武汉市,东湖梨园,颗粒物(PM10),112,174,300,61,97,200,200,121,121,11,22,11,10,0.8,0.6
2023-04-12T15:00:00,1326A,114.2529,30.558,武汉市,汉阳月湖,颗粒物(PM10),122,193,347,61,89,197,197,143,143,19,26,10,9,0.7,0.5
2023-04-12T15:00:00,1327A,114.282,30.6189,武汉市,汉口花桥,颗粒物(PM10),118,186,344,61,96,182,182,114,114,15,25,9,9,1.0,0.7
2023-04-12T15:00:00,1328A,114.3025,30.5332,武汉市,武昌紫阳,颗粒物(PM10),103,155,283,76,103,197,197,117,117,16,32,10,11,1.0,1
2023-04-12T15:00:00,1329A,114.3646,30.6217,武汉市,青山钢花,颗粒物(PM10),126,201,342,78,114,217,217,132,132,11,25,11,9,1.1,0.8
2023-04-12T15:00:00,1330A,114.1566,30.4825,武汉市,沌口新区,颗粒物(PM10),111,172,310,73,102,176,176,117,117,19,31,11,12,1.0,0.9
2023-04-12T15:00:00,1331A,114.3014,30.5944,武汉市,汉口江滩,颗粒物(PM10),115,180,368,75,91,203,203,119,119,18,26,10,8,1.0,0.6
2023-04-12T15:00:00,1333A,114.135,30.6319,武汉市,吴家山,颗粒物(PM10),96,141,323,59,98,187,187,98,98,16,30,8,8,0.8,0.7
2023-04-12T15:00:00,1334A,113.8454,30.2917,武汉市,沉湖七壕,颗粒物(PM10),92,133,278,67,72,186,186,120,120,10,14,14,13,0.7,0.5
2023-04-12T15:00:00,1335A,113.0833,28.2325,长沙市,经开区环保局,,42,38,36,25,37,135,132,89,89,5,23,2,2,0.6,0.7
2023-04-12T15:00:00,1336A,112.8872,28.2189,长沙市,高开区环保局,,,,104,42,44,160,160,101,101,3,25,6,6,0.5,0.6
2023-04-12T15:00:00,1337A,113.0792,28.2053,长沙市,马坡岭,,46,44,50,26,45,145,145,97,97,7,30,1,1,0.4,0.5
2023-04-12T15:00:00,1338A,112.9394,28.19,长沙市,湖南师范大学,细颗粒物(PM2.5),57,59,69,40,54,158,158,99,99,7,28,5,5,0.8,0.9
2023-04-12T15:00:00,1339A,113.0178,28.1322,长沙市,雨花区环保局,,43,37,44,28,31,136,136,84,84,2,29,5,5,0.6,0.7
2023-04-12T15:00:00,1340A,112.9792,28.2597,长沙市,伍家岭,臭氧1小时,54,51,64,31,41,163,163,100,100,9,35,4,4,0.8,0.9
2023-04-12T15:00:00,1341A,113.0014,28.1944,长沙市,火车新站,,50,50,51,33,36,138,138,88,88,9,28,6,6,0.6,0.7
2023-04-12T15:00:00,1342A,112.9844,28.1178,长沙市,天心区环保局,,42,42,52,29,37,126,126,81,81,3,29,2,2,0.4,0.6
2023-04-12T15:00:00,1343A,112.8908,28.1308,长沙市,湖南中医药大学,,50,50,62,31,36,154,154,103,103,8,28,3,3,1.0,1
2023-04-12T15:00:00,1344A,112.9581,28.3611,长沙市,沙坪,,49,49,49,27,43,138,134,81,81,5,10,1,2,0.5,0.6
2023-04-12T15:00:00,1345A,113.2347,23.1423,广州市,广雅中学,颗粒物(PM10),56,61,57,32,27,154,154,69,69,28,58,4,4,0.9,0.9
2023-04-12T15:00:00,1346A,113.2612,23.105,广州市,市五中,臭氧1小时,65,65,56,45,31,172,172,80,80,26,49,7,7,0.8,0.9
2023-04-12T15:00:00,1348A,113.3478,23.0916,广州市,广东商学院,颗粒物(PM10),56,62,53,36,27,141,141,71,71,21,49,4,4,0.8,0.9
2023-04-12T15:00:00,1349A,113.4332,23.1047,广州市,市八十六中,颗粒物(PM10),56,62,55,24,21,139,139,75,75,24,53,8,6,0.8,0.7
2023-04-12T15:00:00,1350A,113.3505,22.9483,广州市,番禺中学,颗粒物(PM10),55,60,49,28,24,149,141,97,97,22,39,6,6,0.7,0.7
2023-04-12T15:00:00,1351A,113.2146,23.3916,广州市,花都师范,臭氧1小时,73,89,84,44,37,178,178,78,78,35,59,6,7,0.6,0.9
2023-04-12T15:00:00,1352A,113.2597,23.1331,广州市,市监测站,臭氧1小时,63,56,52,35,25,170,170,78,78,28,55,6,6,0.8,0.7
2023-04-12T15:00:00,1353A,113.5618,23.312,广州市,九龙镇镇龙,颗粒物(PM10),77,103,64,50,29,102,96,58,58,64,48,8,6,0.7,0.7
2023-04-12T15:00:00,1354A,113.2765,23.1544,广州市,麓湖,臭氧1小时,60,58,53,30,25,168,168,86,86,23,41,5,4,0.7,0.7
2023-04-12T15:00:00,1355A,113.443,23.3035,广州市,帽峰山森林公园,,48,48,38,23,18,103,103,71,71,38,31,5,6,1.0,1
2023-04-12T15:00:00,1356A,114.1063,22.5545,深圳市,通心岭子站,,37,37,31,17,15,85,82,56,56,22,18,4,3,0.6,0.5
2023-04-12T15:00:00,1357A,114.117,22.5625,深圳市,洪湖,,40,40,41,22,17,111,111,71,71,19,27,8,8,0.6,0.6
2023-04-12T15:00:00,1358A,113.987,22.5417,深圳市,华侨城,,43,43,34,27,18,98,65,60,60,47,29,8,5,0.6,0.6
2023-04-12T15:00:00,1359A,113.9181,22.5171,深圳市,南海子站,颗粒物(PM10),54,58,47,17,20,92,55,52,44,55,35,7,5,0.6,0.6
2023-04-12T15:00:00,1360A,114.2458,22.5689,深圳市,盐田,,32,32,33,17,16,95,79,59,59,23,34,6,6,0.6,0.6
2023-04-12T15:00:00,1361A,114.2283,22.7244,深圳市,龙岗,,47,47,47,24,20,138,133,93,93,16,32,2,2,0.6,0.5
2023-04-12T15:00:00,1363A,114.494,22.5422,深圳市,南澳,,,,31,,12,89,,59,59,7,12,6,6,0.5,0.6
2023-04-12T15:00:00,1364A,114.41,22.6342,深圳市,葵涌,,30,30,29,13,14,83,66,63,63,21,18,6,5,0.5,0.5
2023-04-12T15:00:00,1365A,114.297,22.5978,深圳市,梅沙,,,38,47,11,12,91,,57,57,9,16,6,5,,0.6
2023-04-12T15:00:00,1366A,114.0678,22.738,深圳市,观澜,颗粒物(PM10),55,59,65,33,27,115,112,69,69,24,38,8,8,0.6,0.5
2023-04-12T15:00:00,1367A,113.5814,22.2618,珠海市,吉大,,30,30,31,13,15,113,89,68,68,12,13,6,6,0.2,0.3
2023-04-12T15:00:00,1368A,113.4881,22.2335,珠海市,前山,,34,34,42,18,15,96,85,68,58,22,28,4,4,0.3,0.3
2023-04-12T15:00:00,1369A,113.628,22.4251,珠海市,唐家,,34,34,32,17,15,108,84,69,69,4,13,4,4,0.3,0.3
2023-04-12T15:00:00,1370A,113.299,22.2281,珠海市,斗门,,28,26,35,10,14,91,87,67,67,8,17,4,4,0.5,0.4
2023-04-12T15:00:00,1371A,113.1294,23.0067,佛山市,湾梁,臭氧1小时,85,66,56,31,22,188,188,101,101,24,40,8,10,0.7,0.7
2023-04-12T15:00:00,1372A,113.1083,23.0478,佛山市,华材职中,臭氧1小时,83,58,47,27,24,186,186,88,88,20,35,7,6,0.6,0.6
2023-04-12T15:00:00,1373A,113.144,23.0453,佛山市,南海气象局,颗粒物(PM10),54,58,51,29,26,144,144,67,67,27,48,6,6,0.5,0.6
2023-04-12T15:00:00,1374A,113.2881,22.8094,佛山市,顺德苏岗,颗粒物(PM10),55,60,43,36,26,153,137,71,71,27,42,9,8,0.7,0.7
2023-04-12T15:00:00,1376A,112.8383,22.8678,佛山市,高明孔堂,,45,44,39,24,19,142,142,72,72,16,18,6,7,0.7,0.6
2023-04-12T15:00:00,1377A,112.8836,23.1588,佛山市,三水监测站,颗粒物(PM10),57,63,107,36,50,157,157,68,68,32,75,7,7,0.7,1
2023-04-12T15:00:00,1378A,112.867,23.185,佛山市,三水云东海,臭氧1小时,65,77,78,35,39,172,172,78,78,29,50,10,6,0.7,0.9
2023-04-12T15:00:00,1379A,113.3769,22.5211,中山市,华柏园,,45,45,35,15,17,135,135,81,81,12,17,4,4,0.6,0.6
2023-04-12T15:00:00,1380A,113.3881,22.5497,中山市,张溪,颗粒物(PM10),56,61,45,24,23,128,128,72,72,11,23,4,4,0.4,0.5
2023-04-12T15:00:00,1381A,113.4075,22.5111,中山市,紫马岭,,43,43,33,19,16,123,123,76,76,8,15,6,6,0.4,0.4
2023-04-12T15:00:00,1382A,113.4411,22.4853,中山市,长江旅游区,,42,42,26,24,16,113,113,74,74,7,8,11,11,0.5,0.4
2023-04-12T15:00:00,1383A,113.1064,22.6058,江门市,北街,,45,45,37,21,15,142,142,80,80,10,16,6,6,0.5,0.5
2023-04-12T15:00:00,1384A,113.0731,22.5835,江门市,西区,,41,36,42,24,19,131,131,78,78,11,23,5,7,0.4,0.6
2023-04-12T15:00:00,1385A,113.0219,22.5311,江门市,圭峰西,,,41,43,20,21,132,132,84,84,,18,7,8,0.4,0.6
2023-04-12T15:00:00,1386A,113.0828,22.5947,江门市,东湖,,43,38,45,23,20,136,136,82,82,11,18,6,6,0.5,0.6
2023-04-12T15:00:00,1389A,113.7547,23.0494,东莞市,莞城梨川,臭氧1小时,97,79,55,40,27,197,197,101,101,46,39,11,9,0.8,0.7
2023-04-12T15:00:00,1390A,113.7944,23.0128,东莞市,东城石井,臭氧1小时,100,74,47,41,24,208,200,109,109,41,30,10,9,0.8,0.7
2023-04-12T15:00:00,1391A,113.7383,22.9658,东莞市,南城西平,,,79,54,,20,137,137,70,70,,39,9,11,,0.7
2023-04-12T15:00:00,1392A,114.4183,23.0528,惠州市,河南岸金山湖子站,颗粒物(PM10),54,57,54,23,22,129,126,84,84,14,25,4,5,0.5,0.5
2023-04-12T15:00:00,1393A,114.4053,23.0822,惠州市,下埔横江三路子站,,45,42,49,21,20,143,141,90,90,14,27,4,5,0.5,0.5
2023-04-12T15:00:00,1394A,114.4103,23.1142,惠州市,江北云山西路子站,臭氧1小时,53,46,49,35,22,162,162,93,93,12,24,6,7,0.5,0.5
2023-04-12T15:00:00,1395A,114.4645,22.7833,惠州市,惠阳区承修路船湖子站,臭氧1小时,78,55,46,22,18,182,182,105,105,21,25,5,5,0.6,0.6
2023-04-12T15:00:00,1396A,114.5317,22.7422,惠州市,大亚湾管委会子站,,47,47,49,19,20,134,91,77,77,11,32,6,7,0.6,0.6
2023-04-12T15:00:00,1397A,112.4267,23.0706,肇庆市,睦岗子站,,42,36,101,16,43,132,132,73,73,10,63,15,15,0.5,0.8
2023-04-12T15:00:00,1398A,112.4645,23.0475,肇庆市,城中子站,,48,48,106,26,61,124,124,68,68,14,62,19,16,0.5,0.8
2023-04-12T15:00:00,1399A,112.5544,23.1522,肇庆市,坑口子站,细颗粒物(PM2.5),84,94,89,62,53,162,162,75,75,36,57,18,11,0.5,0.6
2023-04-12T15:00:00,1400A,112.4753,23.1,肇庆市,七星岩子站,,,,,,,,,,,,,,,,
2023-04-12T15:00:00,1401A,108.3103,22.7881,南宁市,二十一中,,38,38,48,24,24,75,75,54,54,8,18,5,5,0.8,0.8
2023-04-12T15:00:00,1402A,108.3141,22.8528,南宁市,北湖,,46,46,52,26,29,65,65,50,50,11,21,7,8,0.8,1
2023-04-12T15:00:00,1403A,108.3206,22.8225,南宁市,市监测站,,40,35,46,28,28,65,64,52,48,17,27,6,7,0.7,0.8
2023-04-12T15:00:00,1404A,108.3829,22.8037,南宁市,大自然花园,,,45,43,31,25,65,64,47,47,7,15,6,6,,0.8
2023-04-12T15:00:00,1405A,108.4394,22.7904,南宁市,仙葫,,45,45,47,24,23,68,64,50,50,10,20,6,6,0.5,0.6
2023-04-12T15:00:00,1406A,108.2397,22.8467,南宁市,区农职院,颗粒物(PM10),52,54,72,31,32,57,57,42,42,21,37,6,7,0.8,1
2023-04-12T15:00:00,1407A,108.3275,22.735,南宁市,英华嘉园,,41,41,46,22,24,66,66,46,46,11,19,6,6,0.8,0.8
2023-04-12T15:00:00,1408A,108.2257,22.7757,南宁市,沙井镇街道办,,45,45,68,25,32,71,69,46,46,13,37,4,5,0.8,0.9
2023-04-12T15:00:00,1409A,110.576,19.9507,海口市,东寨港,,,37,29,18,16,50,41,38,38,,,6,6,0.5,0.5
2023-04-12T15:00:00,1410A,110.3232,20.0574,海口市,海南大学,,,41,42,18,20,82,57,66,58,,9,6,6,0.4,0.5
2023-04-12T15:00:00,1411A,110.283,20.0053,海口市,秀英海南医院,,40,40,39,21,20,78,69,68,63,10,10,4,4,0.5,0.5
2023-04-12T15:00:00,1412A,110.338,19.9969,海口市,海南师范大学,,36,36,38,19,19,78,66,64,59,7,7,4,4,0.4,0.4
2023-04-12T15:00:00,1413A,110.33,20.0356,海口市,龙华路环保局宿舍,,40,40,38,20,20,79,65,64,59,8,8,5,4,0.4,0.4
2023-04-12T15:00:00,1414A,106.3787,29.8279,重庆市,缙云山,,36,36,50,21,26,184,114,170,95,15,18,8,9,0.5,0.5
2023-04-12T15:00:00,1416A,106.4213,29.8253,重庆市,天生,颗粒物(PM10),51,52,66,33,40,186,111,82,82,12,43,7,9,0.8,0.8
2023-04-12T15:00:00,1417A,106.6263,29.7228,重庆市,两路,,37,37,71,25,36,226,116,104,81,20,64,6,7,0.9,1
2023-04-12T15:00:00,1418A,106.2953,29.5983,重庆市,虎溪,,,32,67,36,42,210,134,93,93,,61,4,5,0.7,0.9
2023-04-12T15:00:00,1419A,106.5777,29.5102,重庆市,南坪,,49,49,67,27,35,192,119,84,84,9,30,4,4,0.6,0.6
2023-04-12T15:00:00,1420A,106.6556,29.6277,重庆市,唐家沱,,41,32,70,21,34,206,129,83,83,16,58,6,5,0.9,0.9
2023-04-12T15:00:00,1421A,106.6349,29.4906,重庆市,茶园,,,,87,,38,196,122,74,74,15,73,6,5,0.8,1
2023-04-12T15:00:00,1422A,106.3754,29.4572,重庆市,白市驿,,,,63,,29,242,131,146,100,,18,7,10,0.8,1
2023-04-12T15:00:00,1425A,106.6205,29.7166,重庆市,空港,,,39,76,19,41,220,130,93,93,15,58,,8,0.6,0.9
2023-04-12T15:00:00,1426A,106.4782,29.4875,重庆市,新山村,,35,35,79,20,39,172,88,49,49,21,80,8,9,0.6,0.9
2023-04-12T15:00:00,1427A,106.5616,29.6453,重庆市,礼嘉,,40,30,85,23,38,204,127,72,72,18,81,6,6,0.9,1.1
2023-04-12T15:00:00,1428A,106.4522,29.7091,重庆市,蔡家,,44,35,75,21,42,213,138,79,79,11,42,6,7,0.7,0.9
2023-04-12T15:00:00,1429A,106.5093,29.3917,重庆市,鱼新街,,38,22,64,24,37,222,119,66,66,17,63,5,6,0.8,1
2023-04-12T15:00:00,1431A,103.9728,30.7236,成都市,金泉两河,臭氧1小时,73,31,60,14,33,178,178,109,109,5,33,2,2,0.2,0.4
2023-04-12T15:00:00,1432A,104.176,30.6872,成都市,十里店,,49,28,77,7,39,203,156,113,113,8,37,2,2,0.3,0.5
2023-04-12T15:00:00,1433A,104.079,30.5706,成都市,三瓦窑,臭氧1小时,57,17,62,12,32,198,165,110,110,4,44,2,2,0.4,0.6
2023-04-12T15:00:00,1434A,104.1114,30.63,成都市,沙河铺,,,22,67,16,41,203,152,100,100,5,43,2,2,,0.7
2023-04-12T15:00:00,1437A,104.0786,30.6531,成都市,君平街,臭氧1小时,58,24,72,6,44,197,166,116,116,9,45,4,4,0.3,0.6
2023-04-12T15:00:00,1438A,103.613,31.0283,成都市,灵岩寺,,,,,,,,,,,,,,,,
2023-04-12T15:00:00,1439A,106.6899,26.5998,贵阳市,马鞍山,颗粒物(PM10),53,56,56,36,43,159,108,74,74,12,18,4,5,0.5,0.5
2023-04-12T15:00:00,1440A,106.6971,26.5694,贵阳市,市环保站,细颗粒物(PM2.5),58,58,69,41,48,164,106,78,78,18,31,5,5,0.4,0.5
2023-04-12T15:00:00,1441A,106.6243,26.6266,贵阳市,鉴湖路,颗粒物(PM10),57,63,66,39,38,150,120,83,83,10,18,3,4,0.5,0.5
2023-04-12T15:00:00,1442A,106.7487,26.6343,贵阳市,燕子冲,细颗粒物(PM2.5),62,53,58,44,48,148,103,71,69,10,14,1,2,0.6,0.6
2023-04-12T15:00:00,1443A,106.6555,26.4365,贵阳市,碧云窝,颗粒物(PM10),62,73,71,41,40,182,130,90,90,6,16,5,5,0.5,0.9
2023-04-12T15:00:00,1444A,106.694,26.5161,贵阳市,中院村,细颗粒物(PM2.5),58,61,69,41,41,167,120,85,85,15,26,7,8,0.7,0.8
2023-04-12T15:00:00,1445A,106.7109,26.6027,贵阳市,红边门,细颗粒物(PM2.5),58,51,74,41,52,162,106,74,69,14,29,3,7,0.7,0.8
2023-04-12T15:00:00,1446A,106.7164,26.5699,贵阳市,新华路,细颗粒物(PM2.5),55,58,70,39,45,157,101,76,76,12,23,6,6,0.7,0.7
2023-04-12T15:00:00,1447A,106.674,26.5424,贵阳市,太慈桥,,,68,69,34,35,157,119,81,81,,24,3,5,0.6,0.6
2023-04-12T15:00:00,1450A,102.8204,24.8886,昆明市,呈贡新区,颗粒物(PM10),54,57,69,35,51,193,161,156,156,8,18,5,11,0.4,0.8
2023-04-12T15:00:00,1451A,102.6251,24.9608,昆明市,西山森林公园,臭氧1小时,69,48,66,43,44,201,175,177,177,9,14,6,12,0.7,1.1
2023-04-12T15:00:00,1452A,102.7252,25.0902,昆明市,龙泉镇,臭氧1小时,52,48,94,29,57,178,161,129,129,15,56,8,8,0.6,0.9
2023-04-12T15:00:00,1453A,102.7266,25.0375,昆明市,东风东路,臭氧1小时,52,45,78,32,56,180,161,149,149,12,30,9,11,0.6,0.9
2023-04-12T15:00:00,1454A,102.6742,25.0669,昆明市,金鼎山,颗粒物(PM10),54,58,73,22,54,185,159,142,142,14,25,6,10,0.6,0.7
2023-04-12T15:00:00,1455A,102.6644,25.0401,昆明市,碧鸡广场,,,44,80,27,52,186,165,141,141,14,35,,8,0.7,0.8
2023-04-12T15:00:00,1456A,91.1319,29.6514,拉萨市,八廓街,,44,30,26,16,12,141,138,114,113,11,11,6,9,0.3,0.2
2023-04-12T15:00:00,1457A,91.1221,29.6747,拉萨市,市环保局,,45,21,21,13,9,144,143,114,109,10,14,5,6,0.4,0.4
2023-04-12T15:00:00,1458A,91.0874,29.6475,拉萨市,区监测站,,37,22,22,9,7,123,118,94,93,10,13,7,9,0.4,0.3
2023-04-12T15:00:00,1459A,91.1774,29.6541,拉萨市,西藏大学,,45,21,19,10,7,142,142,118,112,8,8,6,8,0.6,0.6
2023-04-12T15:00:00,1460A,90.9798,29.6588,拉萨市,区辐射站,,43,28,33,13,14,135,135,91,89,9,20,8,8,0.3,0.3
2023-04-12T15:00:00,1461A,91.0834,29.6292,拉萨市,拉萨火车站,,40,25,20,8,6,133,127,104,101,15,12,8,9,0.4,0.4
2023-04-12T15:00:00,1462A,108.882,34.2749,西安市,高压开关厂,颗粒物(PM10),236,375,472,108,106,101,101,56,56,27,42,16,12,0.8,0.4
2023-04-12T15:00:00,1463A,108.993,34.2629,西安市,兴庆小区,颗粒物(PM10),199,348,442,106,127,97,97,48,48,26,44,15,12,0.8,0.6
2023-04-12T15:00:00,1464A,109.06,34.2572,西安市,纺织城,颗粒物(PM10),210,357,434,99,108,96,96,46,46,24,42,14,9,1.2,0.9
2023-04-12T15:00:00,1465A,108.9356,34.2173,西安市,小寨,颗粒物(PM10),203,352,439,117,139,94,94,48,48,29,44,15,12,0.7,0.4
2023-04-12T15:00:00,1466A,108.954,34.2713,西安市,市人民体育场,颗粒物(PM10),235,374,469,106,117,96,96,52,52,26,42,15,12,1.9,0.5
2023-04-12T15:00:00,1467A,108.8922,34.2322,西安市,高新西区,颗粒物(PM10),196,341,434,105,115,103,103,56,56,29,39,15,11,0.8,0.5
2023-04-12T15:00:00,1468A,108.935,34.3474,西安市,经开区,颗粒物(PM10),195,340,436,123,134,97,97,54,54,24,40,12,10,0.7,0.3
2023-04-12T15:00:00,1469A,108.906,34.1546,西安市,长安区,颗粒物(PM10),249,384,504,134,131,92,92,44,44,45,48,14,8,0.6,0.3
2023-04-12T15:00:00,1471A,109.2186,34.3731,西安市,临潼区,颗粒物(PM10),252,386,407,122,136,105,105,56,56,23,38,16,14,0.7,0.6
2023-04-12T15:00:00,1472A,108.869,34.378,西安市,草滩,颗粒物(PM10),178,305,394,98,87,97,97,58,58,17,36,20,12,0.0,0.2
2023-04-12T15:00:00,1473A,108.985,34.1978,西安市,曲江文化产业集团,颗粒物(PM10),215,360,475,102,122,101,101,48,48,28,48,13,13,1.0,0.7
2023-04-12T15:00:00,1474A,109.051,34.3213,西安市,广运潭,颗粒物(PM10),225,367,452,102,118,101,101,49,49,19,44,15,11,0.7,0.5
2023-04-12T15:00:00,1476A,103.631,36.1031,兰州市,兰炼宾馆,颗粒物(PM10),109,168,249,52,85,181,153,98,98,19,63,12,20,0.5,0.8
2023-04-12T15:00:00,1477A,104.1373,35.9454,兰州市,榆中兰大校区,,,,,,,,,,,,,,,,
2023-04-12T15:00:00,1478A,103.8412,36.0726,兰州市,生物制品所,颗粒物(PM10),123,196,243,60,74,118,118,55,55,31,56,17,15,0.8,0.9
2023-04-12T15:00:00,1479A,103.831,36.0464,兰州市,铁路设计院,颗粒物(PM10),114,178,235,54,79,118,118,54,54,30,65,10,11,0.5,0.9
2023-04-12T15:00:00,1483A,101.524,36.6867,西宁市,第五水厂,,,,,,,,,,,,,,,,
2023-04-12T15:00:00,1484A,105.9512,38.6016,银川市,贺兰山马莲口,颗粒物(PM10),99,148,143,37,36,126,126,108,95,20,17,26,23,0.8,0.7
2023-04-12T15:00:00,1488A,106.2328,38.4975,银川市,贺兰山东路,颗粒物(PM10),139,228,246,61,64,122,111,68,68,31,42,39,29,0.7,0.9
2023-04-12T15:00:00,1489A,106.1358,38.5036,银川市,学院路,颗粒物(PM10),130,210,228,47,47,110,108,64,64,27,44,34,28,0.8,1.1
2023-04-12T15:00:00,1490A,87.5801,43.8303,乌鲁木齐市,监测站,,30,14,36,7,12,109,95,90,75,10,21,4,5,0.7,0.8
2023-04-12T15:00:00,1491A,87.6046,43.768,乌鲁木齐市,收费所,,28,28,40,7,13,87,84,79,68,10,18,3,4,0.3,0.3
2023-04-12T15:00:00,1492A,87.4754,43.9469,乌鲁木齐市,新疆农科院农场,,45,6,47,31,33,91,80,71,60,18,25,8,9,0.7,0.8
2023-04-12T15:00:00,1493A,87.5525,43.8711,乌鲁木齐市,铁路局,,30,11,37,6,12,105,95,86,74,10,17,4,5,0.3,0.4
2023-04-12T15:00:00,1494A,87.6432,43.831,乌鲁木齐市,三十一中学,,29,14,34,12,11,101,90,81,78,2,10,8,8,0.5,0.6
2023-04-12T15:00:00,1496A,87.7216,44.1747,乌鲁木齐市,米东区环保局,,30,13,47,6,16,128,95,98,81,2,8,7,10,0.2,0.2
2023-04-12T15:00:00,1508A,112.9433,27.8614,湘潭市,板塘,,43,43,47,23,32,129,124,62,62,6,26,12,11,0.5,0.6
2023-04-12T15:00:00,1511A,112.9118,27.8403,湘潭市,市监测站,,41,29,45,26,33,131,131,83,83,6,27,7,10,0.8,1
2023-04-12T15:00:00,1512A,112.8937,27.8728,湘潭市,江麓,,49,49,47,25,43,145,144,93,93,5,20,8,9,0.1,0.4
2023-04-12T15:00:00,1513A,112.9227,27.8159,湘潭市,岳塘,,38,38,47,25,30,121,121,78,78,2,17,8,11,0.7,0.9
2023-04-12T15:00:00,1514A,112.9074,27.9119,湘潭市,科大,,49,44,51,13,35,155,155,97,97,11,29,4,6,0.4,0.5
2023-04-12T15:00:00,1515A,113.135,27.8244,株洲市,天台山庄,,48,46,42,33,37,137,137,88,88,8,22,6,6,0.7,1
2023-04-12T15:00:00,1518A,113.095,27.8867,株洲市,株冶医院,,44,36,45,30,36,138,138,83,83,6,25,5,4,0.6,0.8
2023-04-12T15:00:00,1519A,113.167,27.8667,株洲市,市四中,,40,32,33,24,31,128,128,77,77,3,18,6,6,0.6,0.8
2023-04-12T15:00:00,1520A,113.143,27.8381,株洲市,火车站,,43,39,42,30,34,131,131,83,83,6,24,3,5,0.5,0.9
2023-04-12T15:00:00,1524A,113.13,27.8528,株洲市,市监测站,细颗粒物(PM2.5),65,36,37,47,55,138,138,129,129,8,23,4,6,0.9,0.9
2023-04-12T15:00:00,1552A,106.805,26.3003,贵阳市,桐木岭,,,,,,,,,,,,,,,,
2023-04-12T15:00:00,1559A,113.251,27.8336,株洲市,大京风景区,,40,31,33,28,27,118,118,68,68,4,8,4,3,0.5,0.7
2023-04-12T15:00:00,1562A,113.0048,27.9153,湘潭市,昭山,,46,46,49,27,28,140,140,88,88,9,29,2,2,0.7,0.8
2023-04-12T15:00:00,1564A,112.4876,27.9164,湘潭市,韶山,颗粒物(PM10),56,62,63,29,26,141,141,98,98,19,15,7,6,0.7,0.6
2023-04-12T15:00:00,1585A,109.8756,40.6532,包头市,市环境监测站,颗粒物(PM10),156,261,167,51,56,95,80,56,56,24,40,17,16,0.8,0.9
2023-04-12T15:00:00,1587A,109.9991,40.5842,包头市,包头八中,颗粒物(PM10),158,266,187,78,56,95,77,58,58,30,42,16,18,0.7,1
2023-04-12T15:00:00,1588A,109.8538,40.6821,包头市,青山宾馆,细颗粒物(PM2.5),117,,147,88,46,96,80,53,53,29,44,16,13,0.7,0.7
2023-04-12T15:00:00,1589A,109.8642,40.6288,包头市,惠龙物流,颗粒物(PM10),153,256,179,74,56,90,77,73,73,27,41,14,14,0.3,0.5
2023-04-12T15:00:00,1590A,110.0377,40.5546,包头市,东河鸿龙湾,颗粒物(PM10),176,301,192,66,58,101,77,58,58,25,34,16,16,0.5,0.5
2023-04-12T15:00:00,1591A,110.0023,39.8129,鄂尔多斯市,综合楼,颗粒物(PM10),309,427,291,95,58,96,82,54,54,29,44,12,15,0.8,0.9
2023-04-12T15:00:00,1592A,109.9486,39.8261,鄂尔多斯市,巴音孟克林场办事处,颗粒物(PM10),187,324,275,88,62,98,94,66,57,17,38,9,15,0.5,0.7
2023-04-12T15:00:00,1593A,109.7736,39.5986,鄂尔多斯市,康泽苑,颗粒物(PM10),233,373,204,100,51,92,88,43,43,21,31,12,11,0.6,0.6
2023-04-12T15:00:00,1594A,109.8119,39.5989,鄂尔多斯市,华泰汽车城,颗粒物(PM10),223,366,192,92,47,95,86,36,36,21,40,,14,0.4,0.6
2023-04-12T15:00:00,1595A,109.9734,39.7884,鄂尔多斯市,奥林花园,颗粒物(PM10),209,356,287,80,61,97,88,51,51,23,50,9,12,0.6,0.7
2023-04-12T15:00:00,1597A,122.2703,40.7094,营口市,大庆路,颗粒物(PM10),143,235,318,32,42,103,86,80,76,17,18,6,5,0.5,0.4
2023-04-12T15:00:00,1598A,122.2150,40.6511,营口市,镜湖西路,颗粒物(PM10),156,262,326,34,37,108,91,85,81,17,14,8,6,0.6,0.4
2023-04-12T15:00:00,1599A,122.1658,40.6789,营口市,西炮台,颗粒物(PM10),171,291,294,35,33,107,85,90,77,28,21,8,8,0.6,0.3
2023-04-12T15:00:00,1600A,124.3303,40.0625,丹东市,江湾东路,颗粒物(PM10),293,415,280,53,32,107,83,82,82,11,14,7,7,0.6,0.6
2023-04-12T15:00:00,1601A,124.4256,40.1503,丹东市,临江后街,颗粒物(PM10),172,294,229,38,28,108,88,84,84,11,14,8,10,0.4,0.5
2023-04-12T15:00:00,1602A,124.3933,40.1461,丹东市,元宝山,颗粒物(PM10),150,250,198,42,29,101,85,82,81,12,9,7,6,0.6,0.6
2023-04-12T15:00:00,1603A,124.3633,40.1092,丹东市,民主桥,颗粒物(PM10),189,328,245,42,26,97,81,80,80,12,15,5,5,0.5,0.5
2023-04-12T15:00:00,1604A,122.0303,41.1489,盘锦市,开发区,颗粒物(PM10),126,201,346,34,48,99,87,78,78,,11,10,7,0.9,0.7
2023-04-12T15:00:00,1605A,122.0485,41.0883,盘锦市,兴隆台,颗粒物(PM10),131,211,355,25,46,95,87,77,77,21,21,6,5,0.9,0.5
2023-04-12T15:00:00,1606A,121.8297,41.1028,盘锦市,新生街道,颗粒物(PM10),134,217,334,29,38,94,89,80,80,20,23,10,10,0.9,0.5
2023-04-12T15:00:00,1607A,120.9092,40.7136,葫芦岛市,龙港区,颗粒物(PM10),175,300,324,54,46,96,96,74,74,6,9,9,8,0.5,0.5
2023-04-12T15:00:00,1608A,120.8392,40.7514,葫芦岛市,化工街,颗粒物(PM10),324,439,406,44,42,88,84,64,64,20,28,,14,0.9,0.6
2023-04-12T15:00:00,1609A,120.8341,40.7073,葫芦岛市,新区,颗粒物(PM10),170,290,314,52,44,95,95,73,68,10,20,11,10,0.4,0.4
2023-04-12T15:00:00,1610A,120.8695,40.7677,葫芦岛市,东城区,颗粒物(PM10),150,250,343,37,37,92,88,73,73,20,31,10,18,0.7,0.6
2023-04-12T15:00:00,1611A,118.5819,24.9117,泉州市,涂山街,"颗粒物(PM10),细颗粒物(PM2.5)",59,67,65,42,36,123,109,96,96,23,34,11,10,0.7,0.6
2023-04-12T15:00:00,1612A,118.5972,24.8978,泉州市,津头埔,细颗粒物(PM2.5),57,62,63,40,38,117,106,90,90,28,37,11,11,0.6,0.6
2023-04-12T15:00:00,1613A,118.6663,24.9424,泉州市,万安,细颗粒物(PM2.5),67,59,63,48,45,133,114,98,98,21,29,12,11,0.7,0.7
2023-04-12T15:00:00,1614A,118.6117,24.9604,泉州市,清源山,,,,,,,,,,,,,,,,
2023-04-12T15:00:00,1616A,117.6795,36.229,济南市,技术学院,颗粒物(PM10),500,879,711,149,143,104,104,70,70,12,37,7,8,0.7,0.7
2023-04-12T15:00:00,1618A,118.3429,35.0532,临沂市,沂河小区,颗粒物(PM10),412,512,565,146,108,84,84,62,62,13,24,6,7,0.2,0.3
2023-04-12T15:00:00,1619A,118.295,35.0583,临沂市,鲁南制药厂,颗粒物(PM10),486,586,633,129,143,91,91,68,68,11,23,8,10,0.3,0.4
2023-04-12T15:00:00,1620A,118.2794,34.9976,临沂市,新光毛纺厂,颗粒物(PM10),444,544,581,98,115,94,94,68,68,6,21,4,6,0.3,0.4
2023-04-12T15:00:00,1621A,118.3956,35.0888,临沂市,河东保险公司,颗粒物(PM10),379,483,521,140,124,86,86,61,61,12,34,7,9,0.5,0.6
2023-04-12T15:00:00,1622A,116.3032,37.4674,德州市,儿童乐园,颗粒物(PM10),500,869,743,136,142,92,86,59,59,8,27,5,5,0.4,0.5
2023-04-12T15:00:00,1624A,116.2991,37.4451,德州市,监理站,颗粒物(PM10),500,847,738,139,133,99,87,61,61,11,30,9,9,0.4,0.4
2023-04-12T15:00:00,1625A,115.9848,36.4372,聊城市,区政府,颗粒物(PM10),500,864,754,234,144,100,100,71,71,15,38,8,9,0.6,0.6
2023-04-12T15:00:00,1628A,118.0062,37.3803,滨州市,市环保局,颗粒物(PM10),500,824,619,141,114,104,104,62,62,16,34,14,12,0.6,0.6
2023-04-12T15:00:00,1629A,118.0018,37.3617,滨州市,第二水厂,颗粒物(PM10),500,771,603,174,119,105,105,62,62,19,40,12,10,0.5,0.5
2023-04-12T15:00:00,1630A,117.9776,37.393,滨州市,北中新校,颗粒物(PM10),500,703,542,163,109,102,102,63,63,14,27,11,10,0.4,0.4
2023-04-12T15:00:00,1631A,118.0414,36.8103,淄博市,人民公园,颗粒物(PM10),500,735,668,248,191,98,98,65,65,,37,,14,0.6,0.9
2023-04-12T15:00:00,1633A,117.8525,36.4847,淄博市,双山,颗粒物(PM10),500,834,625,155,144,96,96,69,69,9,27,9,12,0.3,0.5
2023-04-12T15:00:00,1634A,117.9592,36.6331,淄博市,气象站,颗粒物(PM10),500,793,691,207,157,102,102,76,76,10,36,12,18,0.3,0.5
2023-04-12T15:00:00,1635A,118.3092,36.8194,淄博市,莆田园,颗粒物(PM10),500,737,678,161,148,108,108,77,77,18,36,24,16,0.6,0.8
2023-04-12T15:00:00,1637A,117.558,34.8438,枣庄市,市中区政府,颗粒物(PM10),394,495,742,100,131,93,92,73,73,24,33,11,15,0.4,0.4
2023-04-12T15:00:00,1638A,117.2852,34.7837,枣庄市,薛城环保局,颗粒物(PM10),493,593,781,105,147,91,91,72,72,18,31,13,13,0.3,0.3
2023-04-12T15:00:00,1639A,117.5852,34.7745,枣庄市,峄城区政府,颗粒物(PM10),430,530,719,85,127,95,95,79,79,19,24,10,11,0.3,0.3
2023-04-12T15:00:00,1640A,117.7276,34.5578,枣庄市,台儿庄区环保局,颗粒物(PM10),322,437,650,78,107,97,97,68,68,20,28,9,9,0.5,0.6
2023-04-12T15:00:00,1641A,117.4518,35.0992,枣庄市,山亭区环保局,颗粒物(PM10),500,693,734,122,127,99,99,89,89,13,16,7,5,0.2,0.2
2023-04-12T15:00:00,1642A,121.2514,37.5639,烟台市,开发区,颗粒物(PM10),191,332,246,63,45,101,101,77,77,21,32,8,8,0.3,0.3
2023-04-12T15:00:00,1643A,121.3719,37.5433,烟台市,轴承厂,颗粒物(PM10),117,183,230,32,41,94,94,76,76,14,20,6,8,0.5,0.5
2023-04-12T15:00:00,1644A,121.3181,37.5436,烟台市,西郊化工站,颗粒物(PM10),150,249,245,36,39,93,93,80,72,18,21,10,9,0.4,0.3
2023-04-12T15:00:00,1645A,121.4478,37.4822,烟台市,莱山环保局,颗粒物(PM10),115,180,283,30,43,93,93,75,72,12,15,9,9,0.3,0.3
2023-04-12T15:00:00,1646A,121.2611,37.4967,烟台市,福山环保局,颗粒物(PM10),296,417,270,75,44,104,104,77,77,,28,8,8,0.7,0.7
2023-04-12T15:00:00,1650A,119.1437,36.7023,潍坊市,环保局,颗粒物(PM10),500,740,511,119,85,101,101,78,78,14,26,10,8,0.8,0.5
2023-04-12T15:00:00,1653A,116.6251,35.4302,济宁市,火炬城,颗粒物(PM10),403,503,573,100,125,89,89,75,75,12,25,12,10,0.6,0.6
2023-04-12T15:00:00,1655A,116.5491,35.4042,济宁市,电化厂,颗粒物(PM10),500,629,649,124,157,89,89,75,75,5,18,9,9,0.6,0.6
2023-04-12T15:00:00,1656A,117.1437,36.1937,泰安市,监测站,颗粒物(PM10),500,998,620,348,199,95,95,67,67,2,12,5,5,0.4,0.5
2023-04-12T15:00:00,1657A,117.0885,36.2017,泰安市,人口学校,颗粒物(PM10),500,911,629,182,159,98,95,67,67,1,8,5,5,0.4,0.5
2023-04-12T15:00:00,1658A,117.1089,36.1758,泰安市,电力学校,细颗粒物(PM2.5),202,,601,152,143,105,98,67,67,8,29,8,8,,0.4
2023-04-12T15:00:00,1659A,119.471,35.4209,日照市,监测站,颗粒物(PM10),498,598,531,96,93,89,76,57,57,,35,,4,0.3,0.3
2023-04-12T15:00:00,1660A,119.523,35.4216,日照市,市政府广场,颗粒物(PM10),498,598,514,98,92,88,88,67,67,11,21,3,4,0.2,0.3
2023-04-12T15:00:00,1661A,119.5587,35.4044,日照市,港务局,颗粒物(PM10),476,576,544,85,93,84,84,58,58,18,29,6,7,0.3,0.3
2023-04-12T15:00:00,1662A,122.1214,37.4236,威海市,华夏技校,颗粒物(PM10),125,200,330,24,47,98,88,86,86,14,11,2,3,0.3,0.3
2023-04-12T15:00:00,1663A,122.0508,37.5236,威海市,山大分校,颗粒物(PM10),125,200,361,27,42,100,97,86,86,,10,3,3,,0.4
2023-04-12T15:00:00,1664A,122.1067,37.5072,威海市,市监测站,颗粒物(PM10),124,198,334,44,45,96,93,79,79,10,16,6,6,0.4,0.4
2023-04-12T15:00:00,1666A,118.6614,37.4309,东营市,市环保局,颗粒物(PM10),500,744,449,132,78,126,126,84,84,25,26,15,11,0.4,0.3
2023-04-12T15:00:00,1669A,113.5824,24.7733,韶关市,市八中,,42,16,67,29,46,132,132,70,70,8,26,11,17,0.7,1
2023-04-12T15:00:00,1671A,113.5917,24.7972,韶关市,园林处,,41,31,67,16,42,131,131,64,64,6,24,13,16,0.6,0.9
2023-04-12T15:00:00,1672A,113.6735,24.7791,韶关市,韶关学院,,46,35,64,28,43,146,146,67,67,12,26,15,19,0.8,1
2023-04-12T15:00:00,1673A,113.5971,24.6863,韶关市,曲江监测站,,47,36,65,32,32,148,148,71,71,17,29,26,12,1.1,1.1
2023-04-12T15:00:00,1674A,116.6794,23.3667,汕头市,金平子站,,47,47,44,30,25,143,143,87,87,13,21,8,7,0.8,0.8
2023-04-12T15:00:00,1675A,116.7244,23.3633,汕头市,龙湖子站,,,,44,,23,147,135,96,96,,27,6,5,0.7,0.8
2023-04-12T15:00:00,1676A,116.7258,23.2775,汕头市,濠江子站,颗粒物(PM10),57,64,49,31,29,128,124,88,88,17,26,9,8,0.7,0.8
2023-04-12T15:00:00,1677A,116.7519,23.4714,汕头市,澄海子站,颗粒物(PM10),68,85,59,42,34,185,147,112,112,22,33,10,7,0.5,0.7
2023-04-12T15:00:00,1678A,116.6092,23.2539,汕头市,潮阳子站,颗粒物(PM10),53,55,48,27,24,133,128,92,92,15,20,11,10,0.6,0.6
2023-04-12T15:00:00,1680A,110.3539,21.2706,湛江市,湛江影剧院,,34,34,35,15,14,84,82,78,75,4,6,6,5,0.4,0.5
2023-04-12T15:00:00,1681A,110.3928,21.2228,湛江市,市环境监测站,,28,28,31,14,19,83,82,76,71,5,7,6,6,0.5,0.5
2023-04-12T15:00:00,1682A,110.4019,21.1997,湛江市,环保局宿舍,,26,23,30,14,16,84,81,78,74,5,7,4,4,0.4,0.4
2023-04-12T15:00:00,1683A,110.4111,21.2028,湛江市,霞山游泳场,,32,32,33,15,16,89,82,81,77,8,8,4,5,0.5,0.5
2023-04-12T15:00:00,1684A,110.3316,21.2679,湛江市,麻章区环保局,,36,36,35,13,17,87,83,81,75,10,10,5,5,0.5,0.5
2023-04-12T15:00:00,1685A,110.4558,21.2567,湛江市,坡头区环保局,,30,30,29,18,16,94,88,81,81,6,6,6,6,0.5,0.5
2023-04-12T15:00:00,1686A,111.0286,21.4688,茂名市,电白南海,,34,34,43,17,21,102,90,81,81,8,11,5,5,0.5,0.5
2023-04-12T15:00:00,1687A,110.9294,21.6533,茂名市,茂石化七小,,41,41,38,22,22,100,96,75,75,8,11,8,8,0.4,0.5
2023-04-12T15:00:00,1688A,110.9107,21.6687,茂名市,健康路,,34,34,34,11,15,99,98,77,77,6,10,7,7,0.5,0.6
2023-04-12T15:00:00,1689A,110.8592,21.6828,茂名市,高岭,,48,48,48,31,31,106,106,78,78,8,17,9,12,0.5,0.6
2023-04-12T15:00:00,1690A,116.1231,24.3284,梅州市,梅江月梅,,43,38,44,30,34,120,114,63,63,11,21,5,7,0.5,0.5
2023-04-12T15:00:00,1691A,116.0797,24.2719,梅州市,梅县新城,,49,36,49,34,38,125,125,58,58,8,34,4,5,0.5,0.6
2023-04-12T15:00:00,1692A,116.1248,24.2654,梅州市,环境监控中心,,43,38,46,30,33,129,129,71,71,12,29,7,9,0.6,0.6
2023-04-12T15:00:00,1693A,115.3653,22.775,汕尾市,市环保局,,27,27,30,10,16,86,77,66,66,3,11,8,8,0.5,0.6
2023-04-12T15:00:00,1694A,115.3706,22.7898,汕尾市,市政府,,36,36,37,21,23,86,82,66,66,6,15,8,8,0.5,0.7
2023-04-12T15:00:00,1695A,115.3622,22.7925,汕尾市,新城中学,,24,24,35,16,16,80,72,62,62,4,11,5,5,0.6,0.7
2023-04-12T15:00:00,1696A,114.6778,23.7569,河源市,源西,颗粒物(PM10),52,54,39,33,26,134,129,85,85,14,26,5,6,0.7,0.7
2023-04-12T15:00:00,1697A,114.6944,23.7586,河源市,东埔,,48,38,42,33,24,143,135,89,89,12,18,5,6,0.8,0.7
2023-04-12T15:00:00,1698A,114.6892,23.7233,河源市,老城,颗粒物(PM10),54,58,55,36,26,142,142,87,87,8,18,5,5,0.8,0.7
2023-04-12T15:00:00,1699A,111.9797,21.8593,阳江市,鸳鸯湖,,28,23,33,14,18,88,87,75,75,2,8,5,6,0.5,0.5
2023-04-12T15:00:00,1701A,111.9491,21.8658,阳江市,马南垌,,30,30,38,13,19,95,91,75,75,5,16,5,5,0.5,0.6
2023-04-12T15:00:00,1702A,113.0426,23.691,清远市,环保大楼,臭氧1小时,65,44,73,38,38,172,172,79,79,13,48,5,5,1.1,1.4
2023-04-12T15:00:00,1703A,113.0208,23.7106,清远市,凤城街办,颗粒物(PM10),55,59,93,35,46,153,153,69,69,13,43,6,6,0.6,1
2023-04-12T15:00:00,1705A,116.6367,23.6719,潮州市,西园路,细颗粒物(PM2.5),110,81,70,83,42,144,144,79,79,17,22,10,7,0.9,0.9
2023-04-12T15:00:00,1706A,116.6447,23.6706,潮州市,档案局,细颗粒物(PM2.5),93,79,70,69,46,157,157,89,89,14,21,15,9,0.7,0.8
2023-04-12T15:00:00,1708A,116.3701,23.5345,揭阳市,新兴,颗粒物(PM10),59,67,62,40,32,158,158,92,92,17,23,12,9,1.1,0.8
2023-04-12T15:00:00,1709A,116.3264,23.5443,揭阳市,西马,颗粒物(PM10),73,96,64,48,28,159,159,82,82,15,20,9,7,1.0,0.7
2023-04-12T15:00:00,1710A,116.3611,23.5626,揭阳市,东兴,颗粒物(PM10),64,77,69,39,33,160,160,93,93,8,18,8,7,1.1,0.9
2023-04-12T15:00:00,1711A,116.4151,23.5294,揭阳市,渔湖,颗粒物(PM10),63,76,62,37,31,162,162,95,95,11,18,13,10,1.2,0.7
2023-04-12T15:00:00,1712A,112.0392,22.9169,云浮市,新市府,,36,32,36,25,20,99,99,63,63,3,12,3,4,0.6,0.7
2023-04-12T15:00:00,1714A,112.0539,22.9539,云浮市,牧羊,颗粒物(PM10),54,58,54,31,26,108,103,57,57,8,25,8,12,0.5,0.7
2023-04-12T15:00:00,1715A,102.575,24.3711,玉溪市,东风水库,细颗粒物(PM2.5),68,46,88,49,74,174,164,135,135,17,19,7,8,1.0,1.1
2023-04-12T15:00:00,1718A,115.4208,35.2464,菏泽市,气象局,颗粒物(PM10),500,884,820,128,152,89,89,67,67,12,34,5,5,0.3,0.4
2023-04-12T15:00:00,1719A,115.4747,35.2375,菏泽市,市政协,颗粒物(PM10),500,911,832,132,166,88,88,65,65,9,34,4,7,0.4,0.5
2023-04-12T15:00:00,1721A,113.3819,40.1097,大同市,果树场,,,,,,,,,,,,,,,,
2023-04-12T15:00:00,1723A,113.2994,40.0758,大同市,云冈宾馆,,,,243,,48,106,99,62,62,20,35,12,16,0.5,0.8
2023-04-12T15:00:00,1724A,113.3444,40.0917,大同市,大同大学,颗粒物(PM10),166,282,235,63,46,102,98,64,64,18,33,13,17,0.3,0.4
2023-04-12T15:00:00,1725A,113.2661,40.1269,大同市,安家小村,颗粒物(PM10),168,285,238,64,44,99,90,58,58,18,29,12,12,0.3,0.9
2023-04-12T15:00:00,1726A,113.2711,40.0844,大同市,教育学院,颗粒物(PM10),166,282,221,64,45,93,88,57,57,22,38,11,17,0.4,0.8
2023-04-12T15:00:00,1727A,113.1147,36.1547,长治市,清华站,颗粒物(PM10),126,202,240,70,85,130,130,83,83,3,24,8,10,0.4,0.6
2023-04-12T15:00:00,1728A,113.1031,36.1989,长治市,监测站,颗粒物(PM10),134,218,227,88,80,122,122,73,73,5,25,5,9,0.3,0.6
2023-04-12T15:00:00,1730A,113.0886,36.2125,长治市,审计局,颗粒物(PM10),139,227,227,66,73,118,118,70,70,6,29,7,12,0.3,0.5
2023-04-12T15:00:00,1731A,113.0844,36.1856,长治市,长治八中,,,,,,,,,,,,,,,,
2023-04-12T15:00:00,1733A,111.5531,36.0783,临汾市,临钢医院,颗粒物(PM10),216,361,397,81,94,104,104,56,56,22,38,9,8,1.0,0.9
2023-04-12T15:00:00,1734A,111.5028,36.0714,临汾市,技工学校,颗粒物(PM10),275,402,382,101,98,99,,59,59,20,30,7,14,1.0,0.9
2023-04-12T15:00:00,1736A,111.5018,36.0855,临汾市,市委,颗粒物(PM10),280,406,437,97,106,118,118,71,71,17,34,17,14,1.0,0.8
2023-04-12T15:00:00,1738A,113.5758,37.8572,阳泉市,市中心,颗粒物(PM10),149,248,197,41,49,101,68,43,43,30,52,14,11,0.6,0.6
2023-04-12T15:00:00,1739A,113.4894,37.8731,阳泉市,赛鱼,颗粒物(PM10),147,244,182,71,54,99,62,43,43,39,53,13,9,0.7,0.6
2023-04-12T15:00:00,1740A,113.5819,37.8486,阳泉市,南庄,颗粒物(PM10),157,263,229,66,53,132,71,46,46,57,42,14,12,0.6,0.5
2023-04-12T15:00:00,1742A,113.5614,37.8703,阳泉市,平坦,颗粒物(PM10),164,277,214,78,56,100,62,43,43,36,53,13,11,0.6,0.6
2023-04-12T15:00:00,1743A,113.5158,37.8392,阳泉市,大阳泉,颗粒物(PM10),130,210,194,63,47,104,72,82,64,33,24,12,8,0.6,0.6
2023-04-12T15:00:00,1744A,118.9233,42.2816,赤峰市,松山一中,颗粒物(PM10),52,53,189,32,24,100,91,82,82,13,14,8,8,0.4,0.4
2023-04-12T15:00:00,1745A,118.9576,42.2728,赤峰市,哈达街,颗粒物(PM10),56,62,224,12,28,100,90,81,80,14,12,9,10,0.4,0.4
2023-04-12T15:00:00,1746A,118.8788,42.2554,赤峰市,天义路,,45,45,208,11,27,111,99,92,92,10,9,10,10,0.4,0.4
2023-04-12T15:00:00,1748A,123.044,41.1196,鞍山市,深沟寺,颗粒物(PM10),99,148,327,25,47,93,93,84,84,7,18,9,14,0.6,1.1
2023-04-12T15:00:00,1749A,123.011,41.0931,鞍山市,太阳城,颗粒物(PM10),88,126,310,22,38,97,88,81,81,12,16,9,10,0.7,0.8
2023-04-12T15:00:00,1750A,123.0485,41.1442,鞍山市,太平,颗粒物(PM10),88,126,350,25,50,88,88,78,78,9,22,10,17,0.7,1.2
2023-04-12T15:00:00,1751A,122.9642,41.0971,鞍山市,铁西三道街,颗粒物(PM10),94,138,335,22,46,92,89,81,81,12,25,4,7,0.5,0.8
2023-04-12T15:00:00,1752A,122.9341,41.0833,鞍山市,铁西工业园区,颗粒物(PM10),90,129,320,21,49,100,93,84,84,10,26,7,10,0.4,0.8
2023-04-12T15:00:00,1753A,123.022,41.0821,鞍山市,明达新区,颗粒物(PM10),103,156,325,20,37,96,94,81,81,8,20,6,10,0.5,0.8
2023-04-12T15:00:00,1754A,123.1289,41.0228,鞍山市,千山,,,,,,,,,,,,,,,,
2023-04-12T15:00:00,1755A,123.7977,41.8491,抚顺市,望花区,颗粒物(PM10),87,123,361,29,50,106,106,88,88,12,23,12,19,0.9,0.9
2023-04-12T15:00:00,1756A,123.9161,41.8822,抚顺市,顺城区,颗粒物(PM10),76,101,331,22,36,106,106,88,88,11,18,5,9,0.3,0.3
2023-04-12T15:00:00,1757A,124.0436,41.8611,抚顺市,东洲区,颗粒物(PM10),79,107,343,22,41,108,108,87,87,5,11,2,6,0.4,0.6
2023-04-12T15:00:00,1758A,123.9247,41.8642,抚顺市,新抚区,颗粒物(PM10),76,101,328,23,43,103,103,85,85,11,15,7,9,0.4,0.5
2023-04-12T15:00:00,1759A,124.0972,41.8961,抚顺市,大伙房水库,颗粒物(PM10),74,98,386,21,44,115,115,96,96,5,11,6,8,0.2,0.4
2023-04-12T15:00:00,1760A,123.7086,41.8391,抚顺市,沈抚新城,颗粒物(PM10),85,120,358,25,42,110,110,92,92,6,13,7,8,0.1,0.1
2023-04-12T15:00:00,1761A,123.8275,41.3064,本溪市,大峪,颗粒物(PM10),119,187,367,28,39,82,81,73,73,11,14,8,8,1.0,1
2023-04-12T15:00:00,1762A,123.7567,41.3325,本溪市,溪湖,颗粒物(PM10),134,218,348,26,36,97,97,87,87,9,12,9,11,0.5,0.5
2023-04-12T15:00:00,1763A,123.7169,41.3094,本溪市,彩屯,颗粒物(PM10),121,191,316,20,30,94,94,86,86,8,13,8,10,0.8,0.8
2023-04-12T15:00:00,1764A,123.7669,41.2864,本溪市,东明,颗粒物(PM10),140,230,380,31,40,90,82,75,75,26,21,30,22,1.2,1.1
2023-04-12T15:00:00,1765A,123.7992,41.2664,本溪市,新立屯,颗粒物(PM10),111,172,340,23,35,94,92,83,83,10,18,8,7,0.4,0.8
2023-04-12T15:00:00,1766A,123.8142,41.3472,本溪市,威宁,,,,433,,43,88,88,79,79,13,20,8,10,0.6,0.8
2023-04-12T15:00:00,1767A,121.1115,41.0879,锦州市,南山,颗粒物(PM10),146,242,327,46,53,104,85,86,86,21,15,30,11,0.7,0.5
2023-04-12T15:00:00,1768A,121.0533,40.8434,锦州市,开发区,颗粒物(PM10),500,615,429,57,59,97,94,72,72,15,25,8,14,0.3,0.4
2023-04-12T15:00:00,1769A,121.1836,41.1119,锦州市,百股街道,颗粒物(PM10),172,294,350,41,54,103,84,84,84,23,17,25,9,0.8,0.5
2023-04-12T15:00:00,1770A,121.1178,41.1222,锦州市,天安街道,,,,343,,53,116,85,93,93,23,17,,19,0.9,0.6
2023-04-12T15:00:00,1771A,121.1303,41.1386,锦州市,北湖公园,颗粒物(PM10),99,147,335,48,51,106,88,89,89,22,13,29,20,0.6,0.4
2023-04-12T15:00:00,1772A,126.54,43.8622,吉林市,哈达湾,颗粒物(PM10),81,112,331,15,35,94,94,85,85,6,6,4,4,0.4,0.5
2023-04-12T15:00:00,1773A,126.5844,43.8358,吉林市,东局子,颗粒物(PM10),89,128,339,15,33,94,94,83,83,6,6,5,5,0.4,0.5
2023-04-12T15:00:00,1774A,126.5052,43.8245,吉林市,电力学院,颗粒物(PM10),86,122,324,15,34,99,99,88,88,5,4,7,6,0.5,0.5
2023-04-12T15:00:00,1775A,126.6133,43.8972,吉林市,江北,颗粒物(PM10),70,89,260,14,33,91,91,83,83,12,8,8,7,0.5,0.5
2023-04-12T15:00:00,1776A,126.555,43.8306,吉林市,江南公园,颗粒物(PM10),77,104,315,14,34,92,92,82,82,8,8,4,4,0.4,0.4
2023-04-12T15:00:00,1778A,126.7061,43.7133,吉林市,丰满,,,,,,,,,,,,,,,,
2023-04-12T15:00:00,1779A,123.9305,47.3636,齐齐哈尔市,安居小区,颗粒物(PM10),52,54,62,26,15,88,88,82,82,5,5,1,1,0.2,0.2
2023-04-12T15:00:00,1780A,123.9488,47.3386,齐齐哈尔市,中心广场,,32,32,46,3,4,85,85,80,80,6,7,5,5,0.3,0.3
2023-04-12T15:00:00,1781A,123.9483,47.3227,齐齐哈尔市,农牧车辆厂,颗粒物(PM10),69,88,68,6,8,83,83,77,77,5,7,4,4,0.2,0.2
2023-04-12T15:00:00,1783A,123.945,47.2988,齐齐哈尔市,市环境监测站,,,61,73,6,26,85,,81,81,5,6,2,3,0.0,0.1
2023-04-12T15:00:00,1784A,129.61,44.561,牡丹江市,环保大楼,颗粒物(PM10),67,84,437,17,40,88,87,77,77,6,6,3,3,0.3,0.3
2023-04-12T15:00:00,1785A,129.6115,44.5782,牡丹江市,文化广场,颗粒物(PM10),68,85,441,13,36,85,85,75,75,9,9,6,6,0.3,0.3
2023-04-12T15:00:00,1786A,129.5904,44.5963,牡丹江市,第一医院,颗粒物(PM10),68,86,489,17,47,86,86,76,76,5,4,1,1,0.3,0.3
2023-04-12T15:00:00,1787A,129.6364,44.6075,牡丹江市,机车工厂,颗粒物(PM10),70,89,459,20,41,87,87,76,76,4,7,3,3,0.4,0.3
2023-04-12T15:00:00,1788A,129.6386,44.5462,牡丹江市,第一中学,颗粒物(PM10),60,69,442,20,48,88,88,78,78,4,4,3,3,0.3,0.3
2023-04-12T15:00:00,1789A,124.81117,46.03138,大庆市,大同区,颗粒物(PM10),71,92,200,9,23,82,82,77,77,4,4,3,3,0.4,0.4
2023-04-12T15:00:00,1790A,125.129,46.533,大庆市,龙凤区,,,71,77,,14,83,83,77,77,9,13,2,2,0.4,0.4
2023-04-12T15:00:00,1791A,124.902,46.408,大庆市,红岗区,颗粒物(PM10),57,63,89,12,14,85,85,79,79,7,6,5,4,0.3,0.3
2023-04-12T15:00:00,1792A,125.153,46.586,大庆市,萨尔图区,颗粒物(PM10),78,105,95,12,16,79,79,72,72,4,7,5,5,0.2,0.2
2023-04-12T15:00:00,1793A,124.9042,46.6215,大庆市,让胡路区,颗粒物(PM10),68,86,75,5,14,82,82,75,75,5,5,4,4,0.4,0.3
2023-04-12T15:00:00,1794A,118.3606,31.3519,芜湖市,监测站,颗粒物(PM10),332,445,455,103,95,150,116,90,90,14,26,6,6,0.5,0.6
2023-04-12T15:00:00,1795A,118.3714,31.4134,芜湖市,科创中心,颗粒物(PM10),325,440,543,89,104,152,114,91,91,13,20,5,5,0.4,0.6
2023-04-12T15:00:00,1796A,118.3673,31.3131,芜湖市,四水厂,颗粒物(PM10),428,528,596,93,105,142,117,94,94,20,32,9,8,0.4,0.6
2023-04-12T15:00:00,1798A,118.5092,31.6837,马鞍山市,湖东路四小,颗粒物(PM10),208,355,553,93,117,171,106,87,87,9,14,5,7,0.5,0.6
2023-04-12T15:00:00,1799A,118.5024,31.6449,马鞍山市,开发区,细颗粒物(PM2.5),119,,608,90,103,163,105,86,86,16,23,4,5,0.4,0.5
2023-04-12T15:00:00,1800A,118.5228,31.7231,马鞍山市,慈湖,,,,620,,173,167,102,90,90,18,20,5,9,0.5,0.6
2023-04-12T15:00:00,1802A,118.6245,31.7241,马鞍山市,濮塘,颗粒物(PM10),199,348,482,88,121,169,101,89,89,15,16,4,5,0.8,1
2023-04-12T15:00:00,1803A,115.9872,29.6815,九江市,十里,颗粒物(PM10),325,440,302,80,69,158,,88,78,19,21,13,12,0.7,0.7
2023-04-12T15:00:00,1804A,115.9584,29.7046,九江市,茅山头,颗粒物(PM10),230,371,328,107,87,152,142,89,89,11,19,13,13,0.7,0.8
2023-04-12T15:00:00,1805A,115.9877,29.7295,九江市,西园,颗粒物(PM10),263,394,298,105,80,144,144,95,95,13,26,11,11,0.6,0.6
2023-04-12T15:00:00,1806A,116.0172,29.6547,九江市,五七二七厂,颗粒物(PM10),236,375,272,93,68,152,139,88,88,11,13,11,11,0.6,0.7
2023-04-12T15:00:00,1808A,115.9114,29.6038,九江市,综合工业园,颗粒物(PM10),417,517,309,103,80,144,144,90,90,22,33,14,12,0.8,0.8
2023-04-12T15:00:00,1809A,116.0721,29.7535,九江市,石化总厂,颗粒物(PM10),320,436,328,124,83,135,128,84,84,21,27,12,12,0.7,0.7
2023-04-12T15:00:00,1810A,115.9773,29.5698,九江市,庐山气象台,颗粒物(PM10),79,107,58,42,37,147,123,132,119,16,16,6,7,0.5,0.7
2023-04-12T15:00:00,1812A,112.3931,34.6516,洛阳市,市委党校,颗粒物(PM10),500,654,608,161,155,90,90,52,52,32,38,14,12,0.7,0.7
2023-04-12T15:00:00,1814A,112.4657,34.6871,洛阳市,豫西宾馆,颗粒物(PM10),500,810,670,160,151,90,90,52,52,31,34,11,10,0.7,0.7
2023-04-12T15:00:00,1815A,112.494,34.6886,洛阳市,河南林校,颗粒物(PM10),500,667,637,168,150,94,93,51,51,34,40,14,12,0.6,0.5
2023-04-12T15:00:00,1816A,112.3844,34.623,洛阳市,开发区管委会,颗粒物(PM10),500,639,564,151,142,98,92,54,54,27,29,12,9,0.5,0.4
2023-04-12T15:00:00,1817A,112.4267,34.6258,洛阳市,市委新办公区,颗粒物(PM10),500,658,600,195,181,88,84,49,49,36,41,12,9,,0.6
2023-04-12T15:00:00,1818A,114.4839,36.0621,安阳市,棉研所,,,,,,,,,,,,,,,,
2023-04-12T15:00:00,1819A,114.3551,36.1017,安阳市,红庙街,细颗粒物(PM2.5),213,,876,163,179,83,83,50,50,16,32,11,13,0.5,0.5
2023-04-12T15:00:00,1820A,114.361,36.0681,安阳市,银杏小区,颗粒物(PM10),500,928,875,153,157,79,79,46,46,16,32,10,13,0.4,0.4
2023-04-12T15:00:00,1824A,114.3389,34.7781,开封市,肿瘤医院,颗粒物(PM10),500,768,882,126,168,114,114,64,64,5,27,9,11,0.6,0.6
2023-04-12T15:00:00,1826A,114.2885,34.7965,开封市,世纪星幼儿园,颗粒物(PM10),500,754,854,139,178,106,106,61,61,7,22,6,8,0.5,0.4
2023-04-12T15:00:00,1828A,113.227,35.2125,焦作市,市环保局,颗粒物(PM10),500,915,682,139,140,93,93,53,53,18,25,11,14,0.6,0.6
2023-04-12T15:00:00,1830A,113.1992,35.2590,焦作市,影视城,,,,,,,,,,,,,,,,
2023-04-12T15:00:00,1832A,113.3257,33.742,平顶山市,新华旅馆,颗粒物(PM10),500,690,773,163,189,102,93,57,57,14,34,7,13,0.5,0.4
2023-04-12T15:00:00,1833A,113.2919,33.737,平顶山市,规划设计院,颗粒物(PM10),500,802,839,157,179,102,92,54,54,19,38,13,14,0.5,0.5
2023-04-12T15:00:00,1834A,113.182,33.774,平顶山市,平顶山工学院,颗粒物(PM10),500,839,789,146,157,100,98,55,55,12,27,7,8,0.4,0.3
2023-04-12T15:00:00,1835A,111.1922,34.7752,三门峡市,市政府,颗粒物(PM10),500,679,473,168,127,100,,68,68,16,36,12,12,0.4,0.5
2023-04-12T15:00:00,1836A,111.1587,34.7942,三门峡市,开发区,颗粒物(PM10),500,690,503,164,127,111,111,73,73,18,30,11,11,0.5,0.5
2023-04-12T15:00:00,1838A,111.143,34.7955,三门峡市,风景区,,,,,,,,,,,,,,,,
2023-04-12T15:00:00,1840A,111.2992,30.6981,宜昌市,白龙岗,颗粒物(PM10),185,320,195,63,50,126,109,69,69,32,35,9,8,0.6,0.6
2023-04-12T15:00:00,1841A,111.3549,30.6465,宜昌市,伍家岗,颗粒物(PM10),176,302,188,68,55,142,138,73,73,22,48,10,8,0.5,0.7
2023-04-12T15:00:00,1842A,111.2628,30.6961,宜昌市,点军区,颗粒物(PM10),181,311,185,63,50,148,122,73,73,28,30,10,8,0.5,0.6
2023-04-12T15:00:00,1843A,111.3275,30.7819,宜昌市,夷陵区,颗粒物(PM10),145,240,168,61,50,132,129,81,81,18,33,9,8,0.5,0.5
2023-04-12T15:00:00,1844A,112.2494,30.3197,荆州市,市图书馆,颗粒物(PM10),259,391,316,113,93,169,169,96,96,17,27,10,9,0.8,0.7
2023-04-12T15:00:00,1845A,112.2008,30.3544,荆州市,市委党校,颗粒物(PM10),256,389,298,114,81,153,153,90,90,17,28,10,11,0.8,0.8
2023-04-12T15:00:00,1847A,113.1094,29.3578,岳阳市,南湖风景区,颗粒物(PM10),99,147,235,45,62,152,151,100,100,7,24,8,12,0.6,0.6
2023-04-12T15:00:00,1848A,113.1493,29.4251,岳阳市,城陵矶,颗粒物(PM10),169,288,291,83,85,143,143,78,78,20,36,6,10,0.8,0.7
2023-04-12T15:00:00,1849A,113.1497,29.3575,岳阳市,开发区,颗粒物(PM10),100,150,217,57,63,157,156,104,104,6,21,9,11,0.6,0.6
2023-04-12T15:00:00,1850A,113.2621,29.4758,岳阳市,云溪区,,,,260,,69,166,166,98,98,,25,15,14,0.8,0.7
2023-04-12T15:00:00,1851A,112.9943,29.4402,岳阳市,君山区,颗粒物(PM10),170,290,297,75,74,151,151,88,88,7,13,7,7,0.6,0.5
2023-04-12T15:00:00,1852A,113.2117,29.355,岳阳市,金凤水库,颗粒物(PM10),122,194,197,50,50,148,148,101,101,11,18,7,9,0.7,0.7
2023-04-12T15:00:00,1854A,111.6975,28.9703,常德市,市二中,颗粒物(PM10),319,435,236,104,70,144,144,99,99,7,13,11,10,0.4,0.5
2023-04-12T15:00:00,1857A,111.7158,29.1456,常德市,白鹤山,颗粒物(PM10),358,466,293,122,71,137,137,102,102,5,4,10,10,0.3,0.4
2023-04-12T15:00:00,1858A,110.5319,29.1217,张家界市,永定新区,颗粒物(PM10),148,245,122,65,50,132,126,95,95,11,18,5,4,0.2,0.3
2023-04-12T15:00:00,1859A,110.4697,29.1242,张家界市,电业局,颗粒物(PM10),139,228,110,60,50,128,121,78,78,19,20,9,8,0.3,0.5
2023-04-12T15:00:00,1860A,110.5594,29.3547,张家界市,未央路,颗粒物(PM10),147,244,125,54,46,141,131,96,96,7,11,9,7,0.5,0.5
2023-04-12T15:00:00,1861A,110.4417,29.315,张家界市,袁家界,颗粒物(PM10),108,166,125,56,46,152,135,120,120,7,8,7,6,0.6,0.8
2023-04-12T15:00:00,1862A,110.4144,25.3167,桂林市,电子科大尧山校区,,39,39,29,26,22,81,80,49,49,9,13,26,6,0.8,0.8
2023-04-12T15:00:00,1863A,110.2819,25.2697,桂林市,监测站,,43,43,51,24,34,74,74,31,31,14,33,6,14,0.8,1.2
2023-04-12T15:00:00,1864A,110.3089,25.2708,桂林市,龙隐路小学,,,40,40,34,32,74,74,30,30,,31,7,16,0.8,1
2023-04-12T15:00:00,1865A,110.2869,25.2178,桂林市,八中,,46,46,44,29,31,68,68,26,26,18,32,5,12,0.6,0.9
2023-04-12T15:00:00,1866A,109.2262,21.588,北海市,牛尾岭水库,,38,38,34,20,19,86,84,66,66,6,13,9,9,0.6,0.6
2023-04-12T15:00:00,1867A,109.1436,21.4086,北海市,海滩公园,,49,49,35,17,16,94,92,74,74,5,7,2,3,0.5,0.6
2023-04-12T15:00:00,1868A,109.0981,21.4661,北海市,新市环保局,,41,41,42,22,20,92,92,64,64,6,13,2,3,0.6,0.6
2023-04-12T15:00:00,1869A,109.1778,21.5233,北海市,北海工业园,颗粒物(PM10),51,52,46,27,24,94,94,65,65,7,14,5,7,0.6,0.7
2023-04-12T15:00:00,1870A,109.4856,24.3895,柳州市,柳东小学,,45,35,24,31,26,111,111,53,53,8,17,5,6,0.7,1
2023-04-12T15:00:00,1871A,109.4157,24.3277,柳州市,环保监测站,,43,43,48,30,28,101,101,44,44,13,28,4,7,0.8,1.2
2023-04-12T15:00:00,1872A,109.389,24.341,柳州市,河西水厂,,37,37,43,18,24,101,101,41,41,13,27,8,11,0.9,1.2
2023-04-12T15:00:00,1873A,109.4311,24.2921,柳州市,市四中,颗粒物(PM10),53,56,51,29,26,102,102,44,44,12,27,7,8,0.9,1.2
2023-04-12T15:00:00,1874A,109.4006,24.3631,柳州市,市九中,,44,44,47,27,25,98,98,47,47,11,26,6,8,1.0,1.2
2023-04-12T15:00:00,1875A,109.4958,24.3134,柳州市,古亭山,颗粒物(PM10),55,60,39,34,27,77,77,27,27,11,24,3,3,0.9,1.4
2023-04-12T15:00:00,1876A,109.5078,18.2489,三亚市,河东子站,,35,35,37,22,21,88,74,72,72,5,6,2,2,0.6,0.6
2023-04-12T15:00:00,1877A,109.4964,18.2681,三亚市,河西子站,,37,37,41,22,21,86,68,70,68,5,6,2,2,0.5,0.5
2023-04-12T15:00:00,1878A,104.7778,31.4741,绵阳市,富乐山,,,81,85,54,49,230,,124,114,11,29,,5,0.6,0.7
2023-04-12T15:00:00,1879A,104.7563,31.4535,绵阳市,市人大,,,91,99,57,57,210,,90,90,,65,9,6,0.6,0.9
2023-04-12T15:00:00,1880A,104.6697,31.4668,绵阳市,高新区自来水公司,"颗粒物(PM10),细颗粒物(PM2.5)",58,66,106,41,50,225,155,108,108,10,55,8,7,0.6,0.7
2023-04-12T15:00:00,1881A,104.7287,31.5075,绵阳市,三水厂,细颗粒物(PM2.5),78,95,111,57,61,222,146,103,103,12,60,8,6,0.7,0.9
2023-04-12T15:00:00,1882A,104.563,28.793,宜宾市,石马中学,,43,39,58,30,35,200,133,86,86,12,27,4,7,0.6,0.6
2023-04-12T15:00:00,1883A,104.6201,28.7728,宜宾市,市委,,48,48,65,31,40,182,137,79,79,12,34,8,9,0.7,0.6
2023-04-12T15:00:00,1884A,104.6055,28.793,宜宾市,宜宾四中,细颗粒物(PM2.5),52,52,68,36,41,191,133,84,84,9,33,9,10,0.6,0.6
2023-04-12T15:00:00,1885A,104.639,28.7562,宜宾市,市政府,颗粒物(PM10),51,51,64,35,39,185,138,83,83,14,38,10,9,0.7,0.7
2023-04-12T15:00:00,1886A,104.5742,28.7199,宜宾市,黄金嘴,,50,50,61,34,35,180,136,82,82,13,36,11,9,0.6,0.5
2023-04-12T15:00:00,1888A,101.6891,26.571,攀枝花市,弄弄坪,细颗粒物(PM2.5),63,50,72,45,50,180,146,137,137,13,19,16,19,1.6,1.2
2023-04-12T15:00:00,1889A,101.5769,26.5928,攀枝花市,河门口,细颗粒物(PM2.5),58,49,78,41,49,176,158,118,118,10,26,8,14,0.6,1
2023-04-12T15:00:00,1890A,101.7169,26.585,攀枝花市,炳草岗,,48,34,77,27,45,181,153,113,113,9,48,7,16,0.7,1.3
2023-04-12T15:00:00,1891A,101.7369,26.5008,攀枝花市,仁和,臭氧1小时,68,36,66,33,47,181,174,137,137,10,17,10,8,0.9,0.9
2023-04-12T15:00:00,1893A,105.4324,28.9634,泸州市,九狮山,,35,15,41,7,27,165,112,90,74,8,18,7,8,0.4,0.6
2023-04-12T15:00:00,1894A,105.4427,28.9063,泸州市,小市上码头,,32,28,65,14,34,164,100,88,72,8,18,8,11,0.6,0.6
2023-04-12T15:00:00,1895A,105.4241,28.8573,泸州市,兰田宪桥,,33,32,67,15,36,171,104,71,71,7,22,7,10,0.6,0.7
2023-04-12T15:00:00,1896A,105.4379,28.8833,泸州市,市环监站,,31,25,59,9,28,159,98,82,67,12,27,5,12,0.5,0.6
2023-04-12T15:00:00,1901A,104.4239,31.1208,德阳市,东山公园,,46,41,73,28,49,217,147,156,121,12,25,2,4,0.5,0.6
2023-04-12T15:00:00,1902A,104.3826,31.1317,德阳市,西小区,,48,47,90,31,58,203,151,118,118,8,43,2,4,0.5,0.7
2023-04-12T15:00:00,1904A,104.3553,31.1091,德阳市,耐火材料厂,臭氧1小时,55,34,91,28,58,230,164,132,132,3,35,2,4,0.4,0.6
2023-04-12T15:00:00,1905A,106.056,30.8064,南充市,西山风景区,,,,,,,,,,,,,,,,
2023-04-12T15:00:00,1906A,106.0789,30.8023,南充市,南充市委,细颗粒物(PM2.5),52,45,87,36,43,180,77,80,78,13,41,8,9,0.6,0.7
2023-04-12T15:00:00,1907A,106.1031,30.8217,南充市,南充炼油厂,颗粒物(PM10),52,54,89,26,45,182,81,88,82,9,39,8,11,0.6,0.7
2023-04-12T15:00:00,1908A,106.1064,30.7856,南充市,高坪区监测站,,49,42,81,34,46,181,71,72,70,12,42,9,14,0.6,0.7
2023-04-12T15:00:00,1909A,106.0642,30.7636,南充市,嘉陵区环保局,细颗粒物(PM2.5),52,47,84,36,48,188,77,76,75,13,51,8,14,0.5,0.7
2023-04-12T15:00:00,1910A,106.1087,30.8388,南充市,市环境监测站,,46,46,80,28,23,183,77,84,75,12,30,8,11,0.5,0.6
2023-04-12T15:00:00,1911A,106.9222,27.6869,遵义市,丁字口,,29,27,38,17,28,153,90,93,92,13,20,7,9,0.8,0.8
2023-04-12T15:00:00,1912A,106.9242,27.7019,遵义市,凤凰山,,39,37,47,27,30,158,98,108,102,9,11,36,13,0.7,0.7
2023-04-12T15:00:00,1913A,106.8906,27.6486,遵义市,忠庄,,,43,54,26,27,146,84,87,85,12,14,,3,,0.7
2023-04-12T15:00:00,1914A,106.9231,27.6506,遵义市,舟水桥,,30,30,45,13,25,164,94,96,96,12,17,2,3,0.9,0.9
2023-04-12T15:00:00,1915A,106.9178,27.72,遵义市,干田坝,,34,34,47,16,25,153,98,102,97,11,20,6,6,0.5,0.6
2023-04-12T15:00:00,1916A,103.7897,25.5035,曲靖市,环境监测站,臭氧1小时,83,81,75,36,43,187,186,138,138,8,14,9,14,0.6,0.9
2023-04-12T15:00:00,1917A,103.8,25.5364,曲靖市,烟厂办公区,臭氧1小时,101,64,67,32,37,204,202,154,154,9,12,4,9,0.5,0.8
2023-04-12T15:00:00,1918A,108.7197,34.3956,咸阳市,气象站,,,,467,,132,116,116,68,68,21,46,10,8,1.0,0.6
2023-04-12T15:00:00,1919A,108.673,34.3155,咸阳市,实验中学,颗粒物(PM10),250,385,474,127,146,125,125,74,74,23,37,12,10,0.9,0.6
2023-04-12T15:00:00,1920A,108.7233,34.3617,咸阳市,师范学院,颗粒物(PM10),220,364,446,114,124,116,116,69,69,22,39,15,12,0.9,0.6
2023-04-12T15:00:00,1922A,109.0656,35.0994,铜川市,党校,颗粒物(PM10),168,285,438,71,103,68,68,33,33,11,34,12,10,0.7,0.6
2023-04-12T15:00:00,1923A,109.0697,35.0697,铜川市,王益区政府,颗粒物(PM10),155,259,351,69,98,129,125,79,79,14,28,9,11,0.5,0.5
2023-04-12T15:00:00,1924A,108.9344,34.9058,铜川市,新区管委会,细颗粒物(PM2.5),179,298,411,135,124,136,136,82,82,12,25,10,10,0.6,0.5
2023-04-12T15:00:00,1926A,109.4131,36.6275,延安市,枣园,颗粒物(PM10),131,211,266,59,67,118,109,61,61,12,36,9,7,0.5,0.5
2023-04-12T15:00:00,1927A,109.4761,36.6028,延安市,延大医附院,颗粒物(PM10),152,253,279,70,77,128,128,61,61,,33,6,5,,0.7
2023-04-12T15:00:00,1929A,109.5056,36.6106,延安市,百米大道,颗粒物(PM10),177,304,300,82,92,135,135,62,62,32,43,10,9,0.5,0.5
2023-04-12T15:00:00,1930A,107.185,34.3063,宝鸡市,庙沟村,颗粒物(PM10),203,352,508,102,127,122,122,63,63,15,27,13,10,0.6,0.5
2023-04-12T15:00:00,1931A,107.0708,34.3017,宝鸡市,竹园沟,颗粒物(PM10),285,409,477,113,124,128,128,70,70,22,24,17,9,0.7,0.6
2023-04-12T15:00:00,1932A,107.1906,34.3672,宝鸡市,三陆医院,颗粒物(PM10),265,395,546,128,179,120,120,64,64,21,33,13,11,0.6,0.5
2023-04-12T15:00:00,1933A,107.1431,34.3547,宝鸡市,监测站,颗粒物(PM10),298,418,530,116,148,120,120,64,64,21,28,13,7,0.6,0.4
2023-04-12T15:00:00,1934A,107.1186,34.3739,宝鸡市,技工学校,颗粒物(PM10),260,392,521,137,155,122,122,66,66,22,27,14,9,0.6,0.4
2023-04-12T15:00:00,1935A,107.3906,34.3528,宝鸡市,陈仓区环保局家属楼,颗粒物(PM10),235,374,516,103,129,112,112,65,65,25,38,11,11,0.6,0.6
2023-04-12T15:00:00,1936A,107.2058,34.3497,宝鸡市,文理学院,颗粒物(PM10),280,406,574,118,142,119,119,64,64,23,35,15,11,0.6,0.5
2023-04-12T15:00:00,1937A,107.2386,34.3622,宝鸡市,三迪小学,颗粒物(PM10),278,404,580,114,155,117,117,62,62,25,38,16,13,0.4,0.4
2023-04-12T15:00:00,1938A,109.5293,34.5101,渭南市,农科所,颗粒物(PM10),307,425,447,114,116,101,101,56,56,19,35,17,13,0.7,0.4
2023-04-12T15:00:00,1939A,109.4974,34.4877,渭南市,日报社,颗粒物(PM10),289,412,417,170,123,109,109,61,61,19,36,14,11,0.7,0.5
2023-04-12T15:00:00,1940A,109.4636,34.493,渭南市,体育馆,颗粒物(PM10),339,451,458,196,156,113,113,67,67,16,37,16,13,0.8,0.6
2023-04-12T15:00:00,1941A,109.4259,34.5023,渭南市,高新一小,颗粒物(PM10),309,427,448,166,162,114,114,65,65,18,35,12,9,0.7,0.5
2023-04-12T15:00:00,1943A,102.1725,38.5339,金昌市,新川苑,颗粒物(PM10),85,119,159,27,31,117,103,85,72,11,26,9,13,0.5,0.6
2023-04-12T15:00:00,1944A,102.1692,38.5167,金昌市,天庆家园,颗粒物(PM10),73,96,117,8,28,114,103,90,77,7,24,7,11,0.5,0.7
2023-04-12T15:00:00,1945A,98.2908,39.7711,嘉峪关市,气象局,颗粒物(PM10),64,78,114,22,28,132,114,94,94,12,23,15,13,0.6,0.5
2023-04-12T15:00:00,1947A,106.3394,38.817,石嘴山市,沙湖旅游区,颗粒物(PM10),168,285,319,72,82,140,140,67,67,16,39,23,42,0.6,1.3
2023-04-12T15:00:00,1948A,106.3668,39.0145,石嘴山市,大武口朝阳西街,颗粒物(PM10),137,223,302,61,74,122,107,61,61,20,43,59,59,0.3,0.9
2023-04-12T15:00:00,1949A,106.7704,39.2282,石嘴山市,惠农南大街,细颗粒物(PM2.5),291,237,288,241,99,123,99,67,67,38,42,27,31,1.3,0.8
2023-04-12T15:00:00,1950A,106.7099,39.1325,石嘴山市,红果子镇惠新街,颗粒物(PM10),143,236,283,70,84,129,110,68,68,22,41,28,35,0.8,0.8
2023-04-12T15:00:00,1951A,84.895,45.6094,克拉玛依市,长征新村,,29,10,11,1,4,92,91,89,80,2,3,6,6,0.1,0.2
2023-04-12T15:00:00,1952A,84.8988,45.5893,克拉玛依市,南林小区,,29,7,13,12,8,92,90,87,79,2,5,2,2,0.2,0.2
2023-04-12T15:00:00,1954A,84.905,44.3396,克拉玛依市,独山子区,,30,11,28,10,9,111,94,92,91,2,4,6,6,0.2,0.3
2023-04-12T15:00:00,1955A,85.6979,46.098,克拉玛依市,乌尔禾区商贸楼,,29,4,21,5,6,91,90,76,70,3,6,8,9,0.3,0.3
2023-04-12T15:00:00,1956A,86.1472,41.7538,巴音郭楞州,孔雀公园,,32,31,209,3,47,105,102,85,84,2,29,3,4,0.2,0.3
2023-04-12T15:00:00,1957A,86.1972,41.7166,巴音郭楞州,棉纺厂,,30,19,279,8,61,103,94,84,80,5,21,3,3,0.2,0.3
2023-04-12T15:00:00,1958A,86.2357,41.7173,巴音郭楞州,经济开发区,颗粒物(PM10),54,58,209,4,42,110,102,99,94,3,12,5,6,0.2,0.2
2023-04-12T15:00:00,1961A,117.532,36.6868,济南市,东山小学,颗粒物(PM10),500,874,708,156,154,92,92,72,72,10,30,5,6,0.5,0.6
2023-04-12T15:00:00,1966A,120.0405,35.8735,青岛市,黄岛区4号,颗粒物(PM10),500,610,529,90,86,92,,65,65,,38,,6,,0.5
2023-04-12T15:00:00,1982A,122.0693,37.2174,威海市,文登开发区,颗粒物(PM10),169,288,302,29,48,95,95,76,76,10,16,4,4,0.3,0.3
2023-04-12T15:00:00,2031A,113.1817,27.9958,株洲市,云田中学,,50,41,39,35,39,140,138,97,97,4,15,6,6,0.5,0.6
2023-04-12T15:00:00,2054A,114.1099,32.1059,信阳市,平桥分局,颗粒物(PM10),500,633,773,156,173,122,122,60,60,,24,,11,0.3,0.3
2023-04-12T15:00:00,2064A,113.9956,32.1271,信阳市,南湾水厂,颗粒物(PM10),500,607,702,171,168,124,124,62,62,16,16,10,10,0.6,0.4
2023-04-12T15:00:00,2065A,114.0775,32.1195,信阳市,市酿酒公司,颗粒物(PM10),421,521,645,139,168,127,127,63,63,18,28,13,11,0.5,0.4
2023-04-12T15:00:00,2066A,114.0609,32.1399,信阳市,审计局,颗粒物(PM10),500,623,717,177,198,126,126,62,62,21,33,11,10,0.5,0.4
2023-04-12T15:00:00,2067A,114.6613,33.6128,周口市,市环境监测站,颗粒物(PM10),500,634,820,109,174,126,126,76,76,9,18,13,14,0.6,0.4
2023-04-12T15:00:00,2068A,114.6758,33.6347,周口市,周口师范,颗粒物(PM10),493,593,812,290,208,120,120,74,74,11,23,14,13,0.6,0.5
2023-04-12T15:00:00,2069A,114.6546,33.5979,周口市,市运管处,颗粒物(PM10),500,618,811,110,161,123,123,76,76,8,18,10,13,0.6,0.5
2023-04-12T15:00:00,2070A,114.6369,33.6406,周口市,川汇区环保局,颗粒物(PM10),500,641,858,112,173,118,118,76,76,12,22,11,12,0.6,0.5
2023-04-12T15:00:00,2075A,117.6336,24.4674,漳州市,九湖,,,,,,,,,,,,,,,,
2023-04-12T15:00:00,2160A,112.85,35.5051,晋城市,自来水公司,颗粒物(PM10),324,439,387,110,109,148,148,82,82,12,36,13,12,0.5,0.6
2023-04-12T15:00:00,2161A,112.8318,35.4936,晋城市,白云商贸,颗粒物(PM10),379,483,446,212,120,142,142,81,81,7,29,8,7,0.5,0.7
2023-04-12T15:00:00,2162A,112.8508,35.4887,晋城市,市环保局,颗粒物(PM10),416,516,423,124,107,148,148,81,81,,35,,11,0.6,0.8
2023-04-12T15:00:00,2163A,112.8676,35.4897,晋城市,技术学院,颗粒物(PM10),395,496,418,153,137,144,144,79,79,9,39,10,10,0.7,0.5
2023-04-12T15:00:00,2165A,112.8453,35.546,晋城市,白马寺,,,,,,,,,,,,,,,,
2023-04-12T15:00:00,2166A,112.4397,39.3522,朔州市,平朔,颗粒物(PM10),162,273,290,78,78,86,51,36,36,36,39,10,16,0.5,0.6
2023-04-12T15:00:00,2167A,112.4575,39.3617,朔州市,朔唯,颗粒物(PM10),170,290,309,,95,85,49,39,39,45,44,13,19,0.6,0.7
2023-04-12T15:00:00,2168A,112.4258,39.3197,朔州市,区政府,颗粒物(PM10),166,282,270,75,56,85,45,53,37,41,28,10,11,0.6,0.4
2023-04-12T15:00:00,2169A,112.4072,39.3278,朔州市,市环保局,颗粒物(PM10),163,275,269,88,71,86,45,50,39,45,33,15,10,0.8,0.6
2023-04-12T15:00:00,2170A,112.4272,39.3681,朔州市,市二中,颗粒物(PM10),157,263,302,77,74,92,54,36,36,29,35,8,14,0.8,0.7
2023-04-12T15:00:00,2171A,112.7532,37.6945,晋中市,锦纶小区,颗粒物(PM10),189,327,219,82,67,111,91,60,60,28,30,12,7,0.4,0.3
2023-04-12T15:00:00,2173A,112.7249,37.7067,晋中市,南都小区,颗粒物(PM10),182,313,234,59,41,107,91,51,51,25,34,10,5,0.6,0.4
2023-04-12T15:00:00,2174A,112.6991,37.6982,晋中市,榆次区政府,颗粒物(PM10),178,305,234,71,42,103,93,55,55,26,34,11,6,0.5,0.3
2023-04-12T15:00:00,2175A,110.9956,35.0147,运城市,运城中学,颗粒物(PM10),370,476,411,111,97,120,120,96,96,7,13,10,8,0.4,0.4
2023-04-12T15:00:00,2178A,110.9686,35.0303,运城市,地区技校,颗粒物(PM10),345,456,403,84,75,127,127,97,97,10,22,8,8,0.1,0.3
2023-04-12T15:00:00,2179A,111.0414,35.1147,运城市,空港新区,颗粒物(PM10),415,515,477,114,112,125,125,93,93,5,25,10,14,0.5,0.8
2023-04-12T15:00:00,2181A,112.7383,38.4519,忻州市,开发区,颗粒物(PM10),154,258,219,66,51,92,77,50,50,22,32,16,8,0.5,0.4
2023-04-12T15:00:00,2182A,112.7003,38.4928,忻州市,会展中心,颗粒物(PM10),147,244,200,67,55,93,71,46,46,19,28,16,7,0.6,0.5
2023-04-12T15:00:00,2183A,111.1406,37.5211,吕梁市,环保局,颗粒物(PM10),176,301,434,67,85,97,29,39,39,56,45,9,7,0.7,0.4
2023-04-12T15:00:00,2185A,111.1297,37.5136,吕梁市,自来水公司,颗粒物(PM10),171,292,459,54,77,92,31,34,34,,40,8,7,0.8,0.5
2023-04-12T15:00:00,2187A,106.8174,39.6973,乌海市,市林业局,颗粒物(PM10),134,217,204,63,47,127,127,77,53,25,37,35,50,1.1,0.9
2023-04-12T15:00:00,2188A,106.7907,39.6667,乌海市,中海勃湾学校,颗粒物(PM10),118,185,213,58,50,120,120,56,56,31,41,34,40,0.8,0.9
2023-04-12T15:00:00,2191A,122.2532,43.6801,通辽市,艺术职业学校,颗粒物(PM10),51,52,185,5,32,94,94,90,90,10,11,6,6,0.3,0.6
2023-04-12T15:00:00,2192A,119.7594,49.2261,呼伦贝尔市,区环保局,,,40,39,15,18,90,90,81,81,4,2,5,5,,0.3
2023-04-12T15:00:00,2195A,107.4212,40.761,巴彦淖尔市,附二中,颗粒物(PM10),138,225,289,65,57,115,115,68,68,20,19,11,15,0.6,0.5
2023-04-12T15:00:00,2196A,107.37,40.7372,巴彦淖尔市,市环保大楼,颗粒物(PM10),141,232,279,63,65,117,117,66,66,21,24,11,5,0.6,0.5
2023-04-12T15:00:00,2197A,113.1306,40.9923,乌兰察布市,集宁新区,颗粒物(PM10),138,225,135,33,30,106,106,77,77,8,20,8,9,0.2,0.5
2023-04-12T15:00:00,2200A,122.0392,46.0656,兴安盟,胜华新制药厂,,46,46,376,12,81,98,94,90,90,9,9,2,2,0.2,0.2
2023-04-12T15:00:00,2201A,121.9504,46.0741,兴安盟,科右前旗环保局,,,,503,,68,86,84,80,80,7,7,3,3,0.2,0.2
2023-04-12T15:00:00,2202A,116.1042,43.9317,锡林郭勒盟,市环保监测站,颗粒物(PM10),113,176,194,29,27,94,93,80,80,3,3,6,6,0.2,0.2
2023-04-12T15:00:00,2203A,116.0781,43.9311,锡林郭勒盟,市政府,颗粒物(PM10),114,178,224,32,21,90,90,76,76,4,5,8,9,0.2,0.2
2023-04-12T15:00:00,2204A,105.6467,38.8363,阿拉善盟,西城区西花园,颗粒物(PM10),127,204,134,49,39,105,105,94,84,11,12,10,7,0.7,0.6
2023-04-12T15:00:00,2205A,105.6985,38.8411,阿拉善盟,蒙二幼,颗粒物(PM10),132,213,146,58,42,114,114,102,90,8,10,10,7,0.5,0.4
2023-04-12T15:00:00,2206A,105.724,38.8516,阿拉善盟,环保局新楼,颗粒物(PM10),88,125,94,60,41,112,110,111,96,8,8,8,7,0.3,0.2
2023-04-12T15:00:00,2207A,121.6094,41.998,阜新市,工业园区,,,,,,,,,,,,,,,,
2023-04-12T15:00:00,2208A,121.6697,42.0279,阜新市,长青街,颗粒物(PM10),82,114,372,14,44,102,88,85,85,6,9,7,14,0.5,0.6
2023-04-12T15:00:00,2209A,121.6673,42.0705,阜新市,农业园区,颗粒物(PM10),79,107,312,22,47,97,97,84,84,7,8,9,10,0.4,0.9
2023-04-12T15:00:00,2210A,121.6717,42.0224,阜新市,东苑,颗粒物(PM10),82,113,442,17,59,100,100,81,81,7,12,9,18,0.4,0.6
2023-04-12T15:00:00,2211A,121.6506,42.0498,阜新市,玉龙新城,颗粒物(PM10),71,91,337,47,52,97,97,81,81,5,9,6,9,0.4,0.4
2023-04-12T15:00:00,2212A,123.2,41.1953,辽阳市,宏伟区,颗粒物(PM10),99,148,325,30,42,97,88,76,76,12,18,10,18,0.4,0.7
2023-04-12T15:00:00,2213A,123.1683,41.2495,辽阳市,新华园,颗粒物(PM10),111,172,343,24,38,97,90,84,84,,19,12,15,0.5,0.8
2023-04-12T15:00:00,2214A,123.2354,41.2639,辽阳市,滨河路,颗粒物(PM10),111,171,377,24,43,88,85,77,77,12,16,6,8,0.6,0.5
2023-04-12T15:00:00,2215A,123.149,41.2991,辽阳市,铁西工业园,颗粒物(PM10),110,170,367,28,43,88,87,77,77,12,20,8,10,0.5,0.7
2023-04-12T15:00:00,2216A,123.8139,42.3022,铁岭市,汇工街西,颗粒物(PM10),84,118,427,29,58,105,105,87,87,7,10,8,8,0.5,0.5
2023-04-12T15:00:00,2217A,123.8649,42.2923,铁岭市,水上乐园,颗粒物(PM10),80,109,369,34,51,100,100,83,83,6,9,5,4,0.2,0.2
2023-04-12T15:00:00,2218A,123.8486,42.2867,铁岭市,银州路东段,颗粒物(PM10),109,168,490,35,53,102,102,84,84,10,13,7,6,0.4,0.4
2023-04-12T15:00:00,2219A,123.7153,42.2217,铁岭市,金沙江路北,颗粒物(PM10),81,112,367,27,45,98,98,83,83,14,16,6,7,0.1,0.2
2023-04-12T15:00:00,2220A,120.4318,41.5881,朝阳市,西梁,颗粒物(PM10),64,78,328,11,51,112,97,86,86,10,10,11,9,0.7,0.6
2023-04-12T15:00:00,2221A,120.4521,41.5646,朝阳市,河畔小区,颗粒物(PM10),63,76,337,16,67,111,98,88,88,6,11,7,8,0.5,0.6
2023-04-12T15:00:00,2222A,120.4176,41.5648,朝阳市,八里堡,颗粒物(PM10),67,83,330,21,73,112,92,83,83,10,8,11,8,0.8,0.7
2023-04-12T15:00:00,2223A,120.3806,41.5969,朝阳市,农业园区,细颗粒物(PM2.5),143,76,359,109,61,106,93,84,84,5,5,7,7,0.6,0.6
2023-04-12T15:00:00,2225A,124.4002,43.1713,四平市,一商场,颗粒物(PM10),73,95,336,7,39,100,100,89,89,4,10,5,6,0.2,0.2
2023-04-12T15:00:00,2226A,124.388,43.193,四平市,境园,颗粒物(PM10),70,90,298,8,28,93,93,86,86,7,9,1,3,0.0,0.1
2023-04-12T15:00:00,2227A,125.1358,42.8845,辽源市,环保局,颗粒物(PM10),59,67,203,8,29,100,100,92,92,2,2,8,9,0.3,0.3
2023-04-12T15:00:00,2229A,125.9358,41.7173,通化市,光明,颗粒物(PM10),94,137,278,13,30,102,102,90,90,6,5,10,9,0.4,0.2
2023-04-12T15:00:00,2230A,125.9446,41.7325,通化市,铁路,颗粒物(PM10),64,77,218,13,29,100,100,87,87,5,8,6,6,0.1,0.1
2023-04-12T15:00:00,2231A,126.4219,41.9171,白山市,喜丰,颗粒物(PM10),102,154,439,16,27,92,91,82,82,9,12,9,10,0.6,0.5
2023-04-12T15:00:00,2232A,126.4077,41.9419,白山市,环保局,颗粒物(PM10),66,81,352,13,37,94,93,84,84,3,6,8,10,0.5,0.5
2023-04-12T15:00:00,2233A,124.8006,45.1214,松原市,江南,颗粒物(PM10),82,114,611,20,105,101,101,86,86,2,2,4,4,0.3,0.3
2023-04-12T15:00:00,2234A,124.7965,45.1722,松原市,江北,颗粒物(PM10),65,80,504,17,85,93,93,81,81,4,4,6,3,0.3,0.3
2023-04-12T15:00:00,2235A,122.7911,45.6077,白城市,洮北区环保局,细颗粒物(PM2.5),73,92,730,53,114,116,115,108,108,5,6,3,3,0.1,0.1
2023-04-12T15:00:00,2236A,122.8738,45.5725,白城市,市环保局,,,,592,12,104,102,102,92,92,3,5,3,3,0.3,0.3
2023-04-12T15:00:00,2237A,129.47,42.8883,延边朝鲜族自治州,妇幼医院,颗粒物(PM10),142,234,399,12,32,100,99,93,93,8,7,7,7,0.4,0.5
2023-04-12T15:00:00,2238A,129.5055,42.9108,延边朝鲜族自治州,延边医院,颗粒物(PM10),86,121,359,11,26,98,98,91,91,4,5,7,8,0.4,0.4
2023-04-12T15:00:00,2239A,129.3964,42.8881,延边朝鲜族自治州,朝阳川镇医院,颗粒物(PM10),85,119,476,11,34,99,99,93,93,4,4,6,7,0.5,0.5
2023-04-12T15:00:00,2240A,130.9762,45.3001,鸡西市,环保局,颗粒物(PM10),194,337,584,52,63,79,71,72,64,9,9,2,2,0.2,0.3
2023-04-12T15:00:00,2243A,130.9429,45.3039,鸡西市,第一中学,颗粒物(PM10),133,215,665,46,84,82,74,72,67,2,2,2,3,0.1,0.1
2023-04-12T15:00:00,2244A,130.2537,47.3416,鹤岗市,哈啤分公司,,34,34,73,12,17,82,71,72,70,6,7,10,11,0.2,0.3
2023-04-12T15:00:00,2245A,130.2684,47.3086,鹤岗市,斯达机电,,37,37,82,15,22,81,74,72,72,5,9,8,8,0.3,0.3
2023-04-12T15:00:00,2246A,130.3114,47.3388,鹤岗市,东山纸板厂,,49,49,81,12,18,81,67,73,68,5,9,9,12,0.2,0.1
2023-04-12T15:00:00,2247A,130.1097,47.3382,鹤岗市,五号水库,,25,22,71,10,18,84,78,77,75,5,5,8,9,0.4,0.5
2023-04-12T15:00:00,2248A,131.1511,46.6937,双鸭山市,双合村,细颗粒物(PM2.5),72,56,186,52,50,81,77,75,75,5,6,4,4,0.5,0.5
2023-04-12T15:00:00,2249A,131.1652,46.6191,双鸭山市,南小市,颗粒物(PM10),60,70,258,16,37,78,74,71,71,8,7,8,5,0.6,0.5
2023-04-12T15:00:00,2250A,131.1524,46.6554,双鸭山市,环保局,,46,46,200,10,25,88,87,85,85,2,5,5,6,0.4,0.5
2023-04-12T15:00:00,2251A,131.12,46.5656,双鸭山市,苗圃,,40,40,96,16,34,127,109,109,109,7,9,3,3,0.0,0.1
2023-04-12T15:00:00,2252A,128.5159,47.4311,伊春市,环保局,,30,30,62,8,15,80,72,67,67,10,11,6,6,0.4,0.4
2023-04-12T15:00:00,2253A,128.9102,47.7412,伊春市,电力嘉园,,37,37,76,11,18,80,75,68,68,6,7,5,5,0.6,0.6
2023-04-12T15:00:00,2254A,129.5029,48.471,伊春市,汤旺河国家公园,,27,27,45,18,19,82,78,72,72,2,3,7,3,0.4,0.4
2023-04-12T15:00:00,2255A,130.2751,46.8028,佳木斯市,佳纺,,,58,128,10,23,81,74,69,69,,5,1,2,0.3,0.3
2023-04-12T15:00:00,2256A,130.3995,46.8307,佳木斯市,发电厂,颗粒物(PM10),53,56,130,9,21,79,77,71,71,5,8,4,4,0.2,0.3
2023-04-12T15:00:00,2257A,130.3258,46.7975,佳木斯市,环保局,颗粒物(PM10),52,54,124,20,26,79,74,69,69,7,9,3,3,0.4,0.5
2023-04-12T15:00:00,2258A,130.3648,46.8032,佳木斯市,十一中,颗粒物(PM10),59,67,140,13,24,74,74,68,68,9,11,5,5,0.4,0.4
2023-04-12T15:00:00,2259A,130.3794,46.7588,佳木斯市,四丰,,46,46,94,10,18,296,100,95,95,6,6,1,1,0.3,0.4
2023-04-12T15:00:00,2262A,131.0518,45.8751,七台河市,新一中,颗粒物(PM10),72,93,404,16,50,86,86,82,82,4,7,6,7,0.7,0.3
2023-04-12T15:00:00,2263A,127.4833,50.2524,黑河市,交通局,,26,22,25,13,16,81,81,54,54,6,21,5,7,0.4,0.5
2023-04-12T15:00:00,2264A,127.5144,50.2341,黑河市,环保局,,,34,32,13,18,80,80,50,50,,14,,6,0.2,0.4
2023-04-12T15:00:00,2265A,127.5291,50.2472,黑河市,大黑河岛,,33,33,25,7,18,83,83,51,51,1,5,3,4,0.3,0.4
2023-04-12T15:00:00,2266A,126.9785,46.6365,绥化市,人和东街,颗粒物(PM10),60,69,137,10,19,88,87,70,70,7,9,3,4,0.3,0.3
2023-04-12T15:00:00,2267A,126.964,46.6528,绥化市,党政办公中心,颗粒物(PM10),58,66,140,32,38,97,96,83,83,6,6,4,3,0.1,0.1
2023-04-12T15:00:00,2269A,124.1069,50.4097,大兴安岭地区,科技局,,26,10,16,8,14,86,83,84,83,4,4,6,7,0.2,0.2
2023-04-12T15:00:00,2270A,117.396,32.939,蚌埠市,工人疗养院,颗粒物(PM10),347,457,778,81,129,158,118,85,85,23,33,19,15,0.4,0.5
2023-04-12T15:00:00,2271A,117.3605,32.9427,蚌埠市,百货大楼,颗粒物(PM10),318,434,710,87,110,155,120,87,87,11,26,9,6,0.3,0.4
2023-04-12T15:00:00,2273A,117.4185,32.8911,蚌埠市,蚌埠学院,颗粒物(PM10),420,520,913,88,119,172,118,91,91,10,26,17,11,0.3,0.4
2023-04-12T15:00:00,2274A,117.3533,32.9673,蚌埠市,淮上区政府,颗粒物(PM10),370,476,808,88,113,152,113,83,83,14,19,9,6,0.3,0.3
2023-04-12T15:00:00,2275A,117.3145,32.8977,蚌埠市,高新区,颗粒物(PM10),352,461,830,95,133,159,126,94,94,10,20,14,8,0.3,0.3
2023-04-12T15:00:00,2277A,116.8305,32.7727,淮南市,潘集区政府,颗粒物(PM10),478,578,782,123,151,147,101,74,74,10,16,6,7,0.3,0.2
2023-04-12T15:00:00,2278A,117.0067,32.6524,淮南市,师范学院,颗粒物(PM10),486,586,926,108,151,156,105,83,83,12,17,6,9,0.4,0.4
2023-04-12T15:00:00,2279A,116.8569,32.5951,淮南市,谢家集区政府,颗粒物(PM10),500,655,819,93,119,154,114,84,84,6,11,6,8,0.4,0.3
2023-04-12T15:00:00,2280A,116.8281,32.633,淮南市,八公山区政府,颗粒物(PM10),409,509,666,110,136,155,108,81,81,10,14,4,6,0.3,0.3
2023-04-12T15:00:00,2281A,116.6325,32.6201,淮南市,焦岗湖风景区管理处,颗粒物(PM10),352,461,597,173,192,115,105,75,75,6,12,7,7,0.3,0.2
2023-04-12T15:00:00,2282A,116.8004,33.975,淮北市,监测站,颗粒物(PM10),333,446,798,98,172,95,95,81,81,8,13,5,4,0.4,0.5
2023-04-12T15:00:00,2283A,116.8091,33.9007,淮北市,烈山区政府,颗粒物(PM10),405,505,914,81,182,99,96,81,81,11,17,6,5,0.4,0.4
2023-04-12T15:00:00,2284A,116.7856,33.9477,淮北市,职业技术学院,颗粒物(PM10),309,427,797,94,185,95,95,82,82,11,17,6,6,0.4,0.4
2023-04-12T15:00:00,2285A,117.8177,30.9412,铜陵市,市第四中学,颗粒物(PM10),454,554,606,75,96,159,130,95,95,9,18,6,9,0.3,0.3
2023-04-12T15:00:00,2286A,117.8059,30.9273,铜陵市,市公路局,颗粒物(PM10),348,458,542,97,110,159,131,94,94,9,18,7,7,0.5,0.6
2023-04-12T15:00:00,2287A,117.7807,30.9413,铜陵市,市新民污水厂,颗粒物(PM10),324,439,494,74,91,141,141,104,104,10,19,6,7,0.4,0.4
2023-04-12T15:00:00,2288A,117.7439,30.8792,铜陵市,市第九中学,颗粒物(PM10),330,444,516,107,119,163,135,94,94,16,29,20,25,0.6,0.9
2023-04-12T15:00:00,2289A,117.846,30.9413,铜陵市,车站新区,颗粒物(PM10),202,351,400,102,103,173,138,102,102,11,16,11,11,0.4,0.4
2023-04-12T15:00:00,2290A,117.8483,30.97,铜陵市,市职教基地,颗粒物(PM10),360,468,540,87,105,168,132,97,97,8,13,4,4,0.2,0.3
2023-04-12T15:00:00,2291A,117.0809,30.5177,安庆市,环科院,颗粒物(PM10),378,482,503,96,98,167,156,94,94,12,17,12,11,0.6,0.6
2023-04-12T15:00:00,2292A,117.0331,30.5119,安庆市,马山宾馆,颗粒物(PM10),314,431,492,114,103,157,148,96,96,10,13,11,11,0.7,0.8
2023-04-12T15:00:00,2294A,116.9896,30.6145,安庆市,安庆大学,颗粒物(PM10),362,469,459,90,88,161,150,92,92,10,11,11,10,0.7,0.6
2023-04-12T15:00:00,2295A,118.2903,29.6963,黄山市,延安路89号,细颗粒物(PM2.5),107,119,92,80,56,149,149,115,115,9,14,6,6,0.6,0.6
2023-04-12T15:00:00,2296A,118.327,29.7178,黄山市,黄山东路89号,颗粒物(PM10),80,109,78,34,41,148,148,121,121,8,14,6,6,0.6,0.8
2023-04-12T15:00:00,2297A,118.1371,30.2756,黄山市,黄山区政府5号楼,颗粒物(PM10),136,222,190,55,64,165,165,109,109,9,15,6,6,0.7,0.7
2023-04-12T15:00:00,2298A,118.3093,32.3153,滁州市,老年大学,颗粒物(PM10),292,414,643,77,101,175,103,76,76,20,20,10,10,0.5,0.5
2023-04-12T15:00:00,2299A,118.3244,32.2786,滁州市,人大宾馆,颗粒物(PM10),285,409,646,114,150,170,107,80,80,11,18,7,7,0.5,0.4
2023-04-12T15:00:00,2301A,115.8277,32.8929,阜阳市,市监测站,颗粒物(PM10),462,562,873,130,212,109,109,76,76,14,17,6,6,0.4,0.3
2023-04-12T15:00:00,2303A,115.8554,32.8605,阜阳市,开发区,颗粒物(PM10),500,648,991,104,149,119,119,86,86,11,18,8,8,0.5,0.4
2023-04-12T15:00:00,2307A,116.5079,31.737,六安市,监测大楼,颗粒物(PM10),380,484,685,114,168,163,128,84,84,12,17,5,6,0.4,0.4
2023-04-12T15:00:00,2308A,116.4738,31.7643,六安市,皖西学院,颗粒物(PM10),479,579,790,96,150,166,133,88,88,7,14,4,6,0.3,0.3
2023-04-12T15:00:00,2309A,116.4996,31.7905,六安市,朝阳厂,颗粒物(PM10),318,434,628,92,135,172,136,92,92,11,18,6,7,0.4,0.4
2023-04-12T15:00:00,2310A,116.5567,31.7886,六安市,开发区,颗粒物(PM10),500,649,830,83,138,165,,62,62,6,16,8,10,0.4,0.5
2023-04-12T15:00:00,2311A,115.8072,33.8399,亳州市,污水处理厂,颗粒物(PM10),500,611,865,130,167,89,87,72,72,6,13,10,11,0.2,0.1
2023-04-12T15:00:00,2312A,115.7789,33.8518,亳州市,三国揽胜宫,颗粒物(PM10),500,662,879,125,171,84,80,68,68,5,10,5,5,0.4,0.3
2023-04-12T15:00:00,2314A,117.47,30.6618,池州市,池州学院,颗粒物(PM10),344,455,510,112,109,157,140,99,99,16,20,6,7,0.5,0.5
2023-04-12T15:00:00,2316A,118.7581,30.9454,宣城市,鳌峰子站,颗粒物(PM10),378,482,644,144,117,129,105,88,88,9,14,4,7,0.4,0.5
2023-04-12T15:00:00,2317A,118.7385,30.9743,宣城市,敬亭山子站,颗粒物(PM10),320,436,570,110,112,132,99,81,81,21,25,6,8,0.3,0.5
2023-04-12T15:00:00,2318A,118.7173,30.9427,宣城市,开发区子站,颗粒物(PM10),333,446,590,102,105,143,105,88,88,15,20,4,9,0.5,0.7
2023-04-12T15:00:00,2319A,119.0141,25.4325,莆田市,荔城区仓后路,,29,29,64,19,39,170,88,81,81,13,25,5,6,0.8,0.8
2023-04-12T15:00:00,2320A,119.0015,25.4553,莆田市,莆田市监测站,,29,20,65,12,39,211,90,80,80,10,20,6,9,0.6,0.7
2023-04-12T15:00:00,2321A,119.1119,25.4561,莆田市,涵江区六中,,31,28,60,14,41,186,97,94,94,12,23,5,7,0.6,0.7
2023-04-12T15:00:00,2322A,119.1013,25.3215,莆田市,秀屿区政府,,,41,42,16,34,133,88,79,79,17,18,,8,0.6,0.6
2023-04-12T15:00:00,2323A,118.981,25.4792,莆田市,东圳水库,,,,,,,,,,,,,,,,
2023-04-12T15:00:00,2324A,117.6211,26.2625,三明市,三钢,,33,9,35,23,31,88,83,61,61,10,28,6,10,0.6,0.8
2023-04-12T15:00:00,2325A,117.635,26.2714,三明市,三明二中,,28,19,30,19,25,96,82,64,64,12,26,3,5,0.7,0.9
2023-04-12T15:00:00,2326A,117.6028,26.2378,三明市,三元区政府,,32,16,44,22,29,90,84,62,62,12,28,5,10,0.7,0.9
2023-04-12T15:00:00,2327A,117.7275,26.3108,三明市,洋溪,,,,,,,,,,,,,,,,
2023-04-12T15:00:00,2331A,118.0966,26.6761,南平市,茫荡山,,,,,,,,,,,,,,,,
2023-04-12T15:00:00,2332A,118.1681,26.6369,南平市,南平市监测站,,,,45,19,32,112,80,73,73,,22,,5,0.9,0.9
2023-04-12T15:00:00,2333A,118.1825,26.6489,南平市,南平铝业有限公司,,28,22,41,19,32,102,85,70,70,11,26,6,6,1.0,1.1
2023-04-12T15:00:00,2334A,118.1756,26.6272,南平市,南平七中,,34,34,36,16,29,113,78,68,68,8,19,4,4,0.7,0.8
2023-04-12T15:00:00,2335A,117.0189,25.1181,龙岩市,龙岩师专,,,,,,,,,,,,,,,,
2023-04-12T15:00:00,2336A,117.0217,25.1033,龙岩市,龙岩市监测站,,38,38,45,26,32,111,79,40,40,12,29,9,12,0.7,0.8
2023-04-12T15:00:00,2337A,117.0258,25.0661,龙岩市,闽西职业技术学院,,45,43,54,31,32,108,73,44,44,14,31,9,22,0.6,0.6
2023-04-12T15:00:00,2338A,117.0196,25.0306,龙岩市,龙岩学院,,46,46,38,32,27,102,79,52,48,15,16,10,8,0.8,0.6
2023-04-12T15:00:00,2339A,119.5001,26.6946,宁德市,金涵水库,,,,,,,,,,,,,,,,
2023-04-12T15:00:00,2341A,119.5388,26.6612,宁德市,宁德市监测站,,46,38,52,32,46,144,120,86,69,17,28,6,6,0.7,0.8
2023-04-12T15:00:00,2342A,117.3102,29.3867,景德镇市,王港中学,颗粒物(PM10),52,53,51,34,30,125,114,86,86,10,10,5,4,0.4,0.5
2023-04-12T15:00:00,2343A,117.2117,29.2933,景德镇市,老干部活动中心,细颗粒物(PM2.5),78,16,52,57,44,126,126,86,86,4,14,5,6,0.5,0.7
2023-04-12T15:00:00,2344A,117.1894,29.2789,景德镇市,兽医站,颗粒物(PM10),55,59,54,25,36,142,142,100,100,5,15,5,7,0.4,0.5
2023-04-12T15:00:00,2345A,117.1547,29.2617,景德镇市,台达陶瓷,颗粒物(PM10),63,75,61,30,35,125,125,87,87,8,22,4,16,0.8,0.8
2023-04-12T15:00:00,2346A,117.2461,29.2956,景德镇市,陶研所,颗粒物(PM10),53,56,58,28,31,133,133,90,90,2,9,6,6,0.4,0.5
2023-04-12T15:00:00,2347A,114.0997,27.5002,萍乡市,武功山,,33,18,8,12,8,104,104,76,76,7,9,7,7,0.9,0.9
2023-04-12T15:00:00,2348A,113.8385,27.6434,萍乡市,中医院,,42,12,44,22,35,132,132,79,79,5,13,6,8,0.8,0.8
2023-04-12T15:00:00,2349A,113.8493,27.6253,萍乡市,市政府车库,,48,42,43,33,37,127,127,74,74,4,21,10,14,0.7,0.9
2023-04-12T15:00:00,2350A,113.8676,27.6435,萍乡市,市环保局,颗粒物(PM10),51,52,47,30,33,115,115,67,67,7,17,7,10,0.7,0.8
2023-04-12T15:00:00,2351A,113.866,27.6198,萍乡市,安源区政府,,48,48,45,33,38,117,117,68,68,8,23,12,13,0.8,1
2023-04-12T15:00:00,2352A,115.0861,27.9317,新余市,北岗,,48,38,41,33,33,102,102,60,60,2,11,5,15,0.7,1
2023-04-12T15:00:00,2353A,114.9886,27.8431,新余市,飞宇,颗粒物(PM10),57,63,58,39,33,120,120,81,81,8,21,7,13,0.5,0.7
2023-04-12T15:00:00,2354A,114.9231,27.8246,新余市,第二水厂,颗粒物(PM10),56,62,56,36,31,120,120,82,82,7,18,6,7,0.4,0.6
2023-04-12T15:00:00,2355A,114.9308,27.8036,新余市,市气象局,颗粒物(PM10),52,53,48,30,33,120,120,79,79,7,15,8,9,0.7,1
2023-04-12T15:00:00,2357A,116.9822,28.1136,鹰潭市,龙虎山,,32,27,37,22,32,99,99,76,76,2,4,1,3,0.9,1
2023-04-12T15:00:00,2358A,117.0564,28.2642,鹰潭市,新监测站,,38,25,56,25,38,140,119,94,94,2,14,11,18,0.6,0.7
2023-04-12T15:00:00,2359A,117.0311,28.2475,鹰潭市,财苑宾馆,,38,14,52,22,36,145,120,98,98,2,17,5,13,0.4,0.6
2023-04-12T15:00:00,2360A,117.0222,28.2264,鹰潭市,体育馆,,,33,52,23,36,136,,88,88,1,16,3,9,,0.7
2023-04-12T15:00:00,2361A,117.0017,28.2131,鹰潭市,三川水表,,35,21,52,23,39,128,110,88,88,3,18,2,8,0.3,0.6
2023-04-12T15:00:00,2362A,114.9017,25.9149,赣州市,通天岩,,26,19,35,9,22,95,82,61,61,3,8,6,10,1.3,1.3
2023-04-12T15:00:00,2363A,114.9367,25.8664,赣州市,地委,,29,29,43,20,20,95,86,62,62,5,18,14,5,1.0,1
2023-04-12T15:00:00,2364A,114.9461,25.8481,赣州市,气象台,,34,34,35,21,23,75,66,50,50,9,18,7,6,0.7,0.8
2023-04-12T15:00:00,2365A,114.9322,25.8333,赣州市,市图书馆,,40,40,47,22,23,94,86,60,60,8,20,11,12,1.0,1.2
2023-04-12T15:00:00,2366A,114.8905,25.8471,赣州市,华坚鞋城,,30,30,49,9,23,91,88,58,58,9,17,13,15,0.7,0.7
2023-04-12T15:00:00,2367A,114.9754,27.0803,吉安市,红声器材厂,颗粒物(PM10),51,51,46,28,27,109,106,82,80,9,12,7,6,0.6,0.7
2023-04-12T15:00:00,2368A,114.9658,27.0999,吉安市,市森林工业局,,,,39,,29,112,112,85,79,5,9,8,8,,0.6
2023-04-12T15:00:00,2369A,114.99,27.1312,吉安市,市环境监测站,,33,33,37,21,24,108,105,90,82,12,13,10,9,0.6,0.6
2023-04-12T15:00:00,2370A,115.0093,27.0968,吉安市,青原区法院,,35,32,38,24,27,110,110,88,82,11,14,9,12,0.7,0.8
2023-04-12T15:00:00,2371A,114.3408,27.8064,宜春市,槟榔水业,细颗粒物(PM2.5),57,51,50,40,38,90,90,52,52,10,16,6,6,0.8,0.8
2023-04-12T15:00:00,2373A,114.3956,27.7844,宜春市,市石油公司,颗粒物(PM10),54,58,52,32,35,141,141,84,84,8,16,6,5,0.9,0.9
2023-04-12T15:00:00,2374A,114.3703,27.7914,宜春市,市气象局,颗粒物(PM10),57,64,55,39,37,140,140,89,89,14,24,5,4,0.6,0.9
2023-04-12T15:00:00,2375A,114.4013,27.8074,宜春市,市广电局,颗粒物(PM10),57,64,53,37,39,152,152,92,92,10,18,10,8,0.5,0.6
2023-04-12T15:00:00,2376A,116.2127,28.0814,抚州市,桐源党溪,,,,47,23,29,128,128,88,88,3,6,11,7,0.9,1
2023-04-12T15:00:00,2377A,116.3544,27.9831,抚州市,市站,,36,34,51,25,34,108,107,78,78,5,13,1,4,0.5,0.9
2023-04-12T15:00:00,2378A,116.3565,27.963,抚州市,血防站,,45,35,53,31,34,109,109,82,82,5,14,3,3,0.5,0.7
2023-04-12T15:00:00,2379A,116.3564,28.0007,抚州市,采茶剧团,,42,42,53,26,33,108,107,77,77,6,16,4,5,0.8,0.9
2023-04-12T15:00:00,2380A,116.385,27.9647,抚州市,医学分院,,39,22,43,27,29,100,96,70,70,2,12,3,4,0.7,0.7
2023-04-12T15:00:00,2381A,118.005,28.4572,上饶市,百草园,细颗粒物(PM2.5),84,107,65,62,32,105,105,47,47,3,10,2,8,0.7,1.3
2023-04-12T15:00:00,2382A,117.9756,28.4436,上饶市,市监测站,颗粒物(PM10),65,80,68,38,35,162,161,110,110,12,23,9,18,0.5,0.5
2023-04-12T15:00:00,2383A,117.9519,28.4628,上饶市,凤凰光学,颗粒物(PM10),62,73,68,37,35,153,153,105,105,8,20,10,21,0.7,0.8
2023-04-12T15:00:00,2385A,114.17,35.9019,鹤壁市,市监测站,颗粒物(PM10),500,794,672,166,167,81,81,48,48,23,34,15,10,0.6,0.5
