timepoint,stationcode,longitude,latitude,area,positionname,primarypollutant,aqi,pm10,pm10_24h,pm2_5,pm2_5_24h,o3,o3_24h,o3_8h,o3_8h_24h,no2,no2_24h,so2,so2_24h,co,co_24h
2023-04-12T17:00:00,1001A,116.3621,39.8784,北京市,万寿西宫,颗粒物(PM10),500,643,318,166,77,83,83,62,62,21,32,4,3,0.6,0.3
2023-04-12T17:00:00,1002A,116.2202,40.2915,北京市,定陵,颗粒物(PM10),350,460,195,183,83,101,93,82,82,20,12,2,3,0.3,0.1
2023-04-12T17:00:00,1003A,116.4174,39.9289,北京市,东四,颗粒物(PM10),500,632,340,168,81,97,97,71,71,20,28,6,3,0.6,0.3
2023-04-12T17:00:00,1004A,116.4072,39.8863,北京市,天坛,颗粒物(PM10),500,637,307,182,85,91,91,67,67,27,30,4,3,0.6,0.5
2023-04-12T17:00:00,1005A,116.462,39.9365,北京市,农展馆,颗粒物(PM10),500,623,319,154,93,83,83,57,57,25,30,4,2,0.5,0.3
2023-04-12T17:00:00,1006A,116.3392,39.9295,北京市,官园,颗粒物(PM10),500,638,288,184,74,86,86,64,64,24,30,5,2,0.5,0.3
2023-04-12T17:00:00,1007A,116.2878,39.9611,北京市,海淀万柳,颗粒物(PM10),500,616,261,182,63,76,71,58,58,27,33,2,3,0.4,0.3
2023-04-12T17:00:00,1008A,116.6636,40.135,北京市,顺义新城,颗粒物(PM10),458,558,279,137,65,101,101,71,71,19,26,3,3,0.4,0.2
2023-04-12T17:00:00,1009A,116.6275,40.3275,北京市,怀柔镇,颗粒物(PM10),334,447,217,97,45,89,89,67,67,13,18,2,2,0.3,0.2
2023-04-12T17:00:00,1010A,116.2296,40.217,北京市,昌平镇,颗粒物(PM10),379,483,205,144,55,97,79,74,74,27,17,3,2,0.3,0.2
2023-04-12T17:00:00,1011A,116.3966,39.9821,北京市,奥体中心,颗粒物(PM10),487,587,265,214,89,87,87,63,63,20,24,5,2,0.5,0.3
2023-04-12T17:00:00,1012A,116.184,39.9136,北京市,古城,颗粒物(PM10),500,638,269,167,76,92,84,69,69,24,27,2,3,0.3,0.1
2023-04-12T17:00:00,1015A,117.1444,39.1661,天津市,勤俭道,颗粒物(PM10),500,796,492,198,118,107,97,83,83,19,39,9,7,0.5,0.4
2023-04-12T17:00:00,1017A,117.237,39.1082,天津市,大直沽八号路,颗粒物(PM10),500,777,465,165,105,94,84,75,75,21,36,8,7,0.1,0.1
2023-04-12T17:00:00,1018A,117.202,39.0927,天津市,前进道,颗粒物(PM10),500,703,419,214,95,97,87,78,78,22,43,6,5,0.8,0.6
2023-04-12T17:00:00,1019A,117.1837,39.2133,天津市,淮河道,,,,457,,153,105,97,83,83,19,36,8,6,0.2,0.1
2023-04-12T17:00:00,1021A,117.307,39.0877,天津市,跃进路,颗粒物(PM10),500,696,398,196,144,98,92,80,80,18,39,7,5,0.3,0.1
2023-04-12T17:00:00,1023A,117.707,39.0343,天津市,第四大街,颗粒物(PM10),500,732,420,222,84,85,80,70,70,27,42,8,8,0.6,0.5
2023-04-12T17:00:00,1024A,117.457,38.8394,天津市,永明路,颗粒物(PM10),500,697,457,287,101,87,74,75,75,26,39,6,6,0.5,0.3
2023-04-12T17:00:00,1026A,117.764,39.1587,天津市,汉北路,颗粒物(PM10),500,689,413,158,81,96,84,76,76,26,36,9,11,0.5,0.3
2023-04-12T17:00:00,1027A,117.157,38.9194,天津市,团泊洼,颗粒物(PM10),500,709,471,166,98,0,0,0,0,21,38,6,7,0.1,0.1
2023-04-12T17:00:00,1029A,114.4422,38.0444,石家庄市,职工医院,颗粒物(PM10),500,738,608,128,136,86,86,57,57,26,45,12,13,0.5,0.8
2023-04-12T17:00:00,1030A,114.6063,38.0266,石家庄市,高新区,颗粒物(PM10),500,702,609,145,172,92,92,69,69,13,38,7,9,0.5,0.7
2023-04-12T17:00:00,1031A,114.4898,38.1328,石家庄市,西北水源,颗粒物(PM10),500,782,627,212,183,88,88,66,66,22,39,9,8,0.5,0.7
2023-04-12T17:00:00,1032A,114.4586,38.0058,石家庄市,西南高教,颗粒物(PM10),500,692,602,235,214,81,81,56,56,23,46,9,10,0.5,0.6
2023-04-12T17:00:00,1033A,114.5331,38.0178,石家庄市,世纪公园,颗粒物(PM10),500,703,603,144,144,82,82,51,51,14,40,10,11,0.5,0.8
2023-04-12T17:00:00,1034A,114.509,38.0457,石家庄市,人民会堂,颗粒物(PM10),500,711,611,166,131,90,90,62,62,17,36,9,10,0.6,0.8
2023-04-12T17:00:00,1035A,114.3524,37.8911,石家庄市,封龙山,颗粒物(PM10),500,686,575,157,123,84,84,72,63,23,15,6,5,0.8,0.7
2023-04-12T17:00:00,1037A,118.131,39.6363,唐山市,雷达站,颗粒物(PM10),500,627,339,158,82,89,89,68,68,35,38,10,4,0.6,0.5
2023-04-12T17:00:00,1038A,118.1725,39.6334,唐山市,物资局,颗粒物(PM10),500,705,354,104,52,83,81,66,66,41,34,14,9,0.6,0.4
2023-04-12T17:00:00,1040A,118.1705,39.6506,唐山市,十二中,颗粒物(PM10),500,668,363,254,100,92,92,73,73,26,23,10,5,0.5,0.4
2023-04-12T17:00:00,1041A,118.1869,39.622,唐山市,小山,颗粒物(PM10),500,709,383,166,75,96,96,77,77,31,30,10,6,0.5,0.4
2023-04-12T17:00:00,1042A,119.5134,39.8207,秦皇岛市,北戴河环保局,颗粒物(PM10),393,494,362,93,50,115,93,82,82,34,28,3,4,0.7,0.6
2023-04-12T17:00:00,1043A,119.7493,40.0116,秦皇岛市,第一关,颗粒物(PM10),485,585,491,106,69,116,104,101,92,28,30,5,4,0.7,0.4
2023-04-12T17:00:00,1044A,119.5897,39.9499,秦皇岛市,监测站,颗粒物(PM10),318,434,341,63,50,94,84,86,79,18,10,4,3,,0.5
2023-04-12T17:00:00,1046A,119.5251,39.9041,秦皇岛市,建设大厦,颗粒物(PM10),500,646,423,102,48,102,90,84,82,14,12,7,6,0.6,0.5
2023-04-12T17:00:00,1048A,114.5302,36.6116,邯郸市,东污水处理厂,颗粒物(PM10),500,625,631,244,237,93,89,67,67,11,28,8,15,0.5,0.4
2023-04-12T17:00:00,1049A,114.4918,36.5713,邯郸市,矿院,颗粒物(PM10),436,536,557,168,178,85,85,62,62,8,29,5,17,0.8,0.6
2023-04-12T17:00:00,1050A,114.484,36.6133,邯郸市,丛台公园,颗粒物(PM10),500,600,661,140,193,97,95,72,72,11,25,10,14,0.4,0.4
2023-04-12T17:00:00,1051A,115.493,38.8632,保定市,游泳馆,颗粒物(PM10),495,595,479,258,158,95,71,62,62,26,37,12,7,0.3,0.3
2023-04-12T17:00:00,1052A,115.5213,38.8959,保定市,华电二区,颗粒物(PM10),500,615,477,195,143,90,72,62,62,24,37,15,10,0.7,0.9
2023-04-12T17:00:00,1053A,115.4713,38.9108,保定市,接待中心,颗粒物(PM10),500,611,425,193,148,88,66,57,57,26,36,14,9,0.5,0.6
2023-04-12T17:00:00,1054A,115.4612,38.8416,保定市,地表水厂,颗粒物(PM10),500,730,572,115,88,85,62,54,54,34,42,14,10,0.5,0.4
2023-04-12T17:00:00,1056A,115.5086,38.8639,保定市,监测站,颗粒物(PM10),500,699,558,204,138,94,78,64,64,26,41,15,11,0.4,0.2
2023-04-12T17:00:00,1057A,114.8883,40.8336,张家口市,人民公园,颗粒物(PM10),110,170,133,58,22,101,101,87,87,13,7,7,4,0.5,0.3
2023-04-12T17:00:00,1059A,114.8687,40.8042,张家口市,五金库,颗粒物(PM10),116,182,138,43,24,98,98,82,82,17,12,5,3,0.5,0.4
2023-04-12T17:00:00,1060A,114.8902,40.762,张家口市,世纪豪园,颗粒物(PM10),111,172,144,48,28,98,98,82,82,14,13,5,3,0.3,0.3
2023-04-12T17:00:00,1061A,114.8916,40.8661,张家口市,北泵房,,,,118,,26,107,84,92,92,12,9,10,9,0.4,0.3
2023-04-12T17:00:00,1062A,117.9531,40.9081,承德市,铁路,颗粒物(PM10),77,104,372,18,55,92,92,81,81,9,10,7,7,0.2,0.3
2023-04-12T17:00:00,1063A,117.9392,40.9763,承德市,中国银行,颗粒物(PM10),85,120,436,46,111,96,96,85,85,6,11,6,7,0.3,0.4
2023-04-12T17:00:00,1064A,117.9503,40.928,承德市,开发区,颗粒物(PM10),70,90,348,16,54,107,107,97,97,6,10,6,5,0.2,0.3
2023-04-12T17:00:00,1065A,117.8051,40.9655,承德市,文化中心,颗粒物(PM10),91,132,383,28,81,98,98,87,87,8,15,10,10,0.5,0.4
2023-04-12T17:00:00,1066A,117.9268,41.0026,承德市,离宫,颗粒物(PM10),70,90,344,21,72,107,107,96,96,5,9,4,5,0.3,0.3
2023-04-12T17:00:00,1067A,116.6708,39.5111,廊坊市,药材公司,颗粒物(PM10),500,647,398,224,126,98,93,75,75,21,41,4,5,0.4,0.5
2023-04-12T17:00:00,1068A,116.7214,39.5589,廊坊市,开发区,颗粒物(PM10),500,687,379,243,153,100,97,74,74,25,35,9,7,0.5,0.5
2023-04-12T17:00:00,1070A,116.7244,39.5269,廊坊市,北华航天学院,颗粒物(PM10),500,726,431,184,93,97,93,74,74,16,30,9,8,0.4,0.4
2023-04-12T17:00:00,1071A,116.8842,38.2991,沧州市,沧县城建局,颗粒物(PM10),500,759,590,118,99,81,81,70,70,23,40,12,15,0.7,0.7
2023-04-12T17:00:00,1072A,116.8584,38.3254,沧州市,电视转播站,颗粒物(PM10),500,654,460,136,96,81,81,71,71,26,37,5,9,0.5,0.5
2023-04-12T17:00:00,1073A,116.8709,38.3228,沧州市,市环保局,颗粒物(PM10),480,580,450,122,129,83,83,71,71,27,38,4,7,0.3,0.3
2023-04-12T17:00:00,1074A,115.6838,37.7541,衡水市,电机北厂,颗粒物(PM10),500,749,651,176,168,91,91,69,69,12,30,21,16,0.2,0.2
2023-04-12T17:00:00,1075A,115.6303,37.7316,衡水市,市监测站,颗粒物(PM10),500,754,691,201,149,89,82,65,65,9,24,5,7,0.4,0.5
2023-04-12T17:00:00,1077A,114.4704,37.0886,邢台市,达活泉,颗粒物(PM10),500,882,858,205,233,102,102,71,71,7,27,11,12,0.5,0.7
2023-04-12T17:00:00,1078A,114.5062,37.0349,邢台市,邢师高专,颗粒物(PM10),500,714,718,174,186,82,82,62,62,20,32,4,7,0.5,0.8
2023-04-12T17:00:00,1079A,114.5237,37.0851,邢台市,路桥公司,颗粒物(PM10),500,686,669,133,143,83,83,66,66,17,28,8,11,0.6,0.7
2023-04-12T17:00:00,1080A,114.4725,37.0719,邢台市,市环保局,颗粒物(PM10),500,857,850,197,212,104,104,74,74,9,26,7,12,0.4,0.8
2023-04-12T17:00:00,1081A,112.522,37.8873,太原市,尖草坪,颗粒物(PM10),177,304,259,100,75,98,75,78,78,48,44,14,9,1.0,0.6
2023-04-12T17:00:00,1083A,112.434,38.0108,太原市,上兰,,,,,,,,,,,,,,,,
2023-04-12T17:00:00,1084A,112.469,37.7124,太原市,晋源,颗粒物(PM10),180,310,268,110,81,100,40,67,67,74,44,11,7,1.3,0.7
2023-04-12T17:00:00,1085A,112.5583,37.7394,太原市,小店,颗粒物(PM10),184,317,282,115,79,98,54,70,70,57,57,10,14,1.0,0.7
2023-04-12T17:00:00,1086A,112.5369,37.8692,太原市,桃园,颗粒物(PM10),179,308,254,117,71,97,73,63,63,46,50,15,11,1.0,0.6
2023-04-12T17:00:00,1087A,112.57,37.8195,太原市,坞城,颗粒物(PM10),213,359,269,138,89,103,59,74,74,55,47,17,14,1.3,0.8
2023-04-12T17:00:00,1088A,112.549,37.9854,太原市,南寨,颗粒物(PM10),178,306,224,93,64,93,89,69,69,34,53,13,9,0.8,0.5
2023-04-12T17:00:00,1090A,111.6507,40.7517,呼和浩特市,呼市一监,颗粒物(PM10),213,359,214,95,56,96,72,75,75,31,35,16,8,0.6,0.6
2023-04-12T17:00:00,1091A,111.6572,40.8033,呼和浩特市,小召,颗粒物(PM10),258,390,215,108,57,85,69,69,69,35,36,15,12,0.6,0.5
2023-04-12T17:00:00,1094A,111.7516,40.8369,呼和浩特市,如意水处理厂,颗粒物(PM10),215,360,172,94,43,87,72,73,73,27,27,12,8,0.6,0.5
2023-04-12T17:00:00,1095A,111.7276,40.8062,呼和浩特市,二十九中,颗粒物(PM10),233,373,208,95,61,89,72,74,74,33,36,13,9,0.7,0.6
2023-04-12T17:00:00,1096A,111.5512,40.7866,呼和浩特市,工大金川校区,颗粒物(PM10),275,402,213,97,54,91,69,68,68,26,35,11,9,0.6,0.6
2023-04-12T17:00:00,1097A,111.717,40.7612,呼和浩特市,化肥厂生活区,颗粒物(PM10),305,424,249,98,54,78,66,65,65,32,39,11,9,0.5,0.4
2023-04-12T17:00:00,1098A,123.6836,41.9339,沈阳市,森林路,,,,,,,,,,,,,,,,
2023-04-12T17:00:00,1099A,123.505,41.7406,沈阳市,浑南东路,颗粒物(PM10),110,170,301,31,41,97,96,90,90,15,17,8,8,0.4,0.5
2023-04-12T17:00:00,1100A,123.4231,41.6989,沈阳市,新秀街,颗粒物(PM10),108,166,339,19,29,90,87,84,84,18,17,6,6,0.5,0.5
2023-04-12T17:00:00,1102A,123.5903,41.8411,沈阳市,东陵路,颗粒物(PM10),105,159,298,31,39,94,94,88,88,14,16,8,7,0.4,0.3
2023-04-12T17:00:00,1103A,123.4264,41.8467,沈阳市,陵东街,颗粒物(PM10),104,157,294,24,29,96,95,90,90,13,14,8,8,0.5,0.4
2023-04-12T17:00:00,1104A,123.4114,41.7653,沈阳市,文化路,颗粒物(PM10),103,155,289,31,42,94,93,88,88,16,19,7,7,0.4,0.4
2023-04-12T17:00:00,1105A,123.4678,41.7867,沈阳市,小河沿,颗粒物(PM10),100,150,299,30,37,90,88,84,84,17,18,8,8,0.7,0.6
2023-04-12T17:00:00,1106A,123.4017,41.7972,沈阳市,太原街,颗粒物(PM10),115,180,336,35,46,91,88,84,84,16,17,8,8,0.5,0.4
2023-04-12T17:00:00,1108A,123.3783,41.9228,沈阳市,京沈街,颗粒物(PM10),137,223,340,40,49,95,88,88,88,21,18,12,10,0.4,0.4
2023-04-12T17:00:00,1109A,121.612,38.9741,大连市,甘井子,颗粒物(PM10),205,353,228,68,41,106,106,98,98,14,25,4,4,0.4,0.4
2023-04-12T17:00:00,1110A,121.565,38.9511,大连市,周水子,颗粒物(PM10),165,280,222,58,39,101,99,91,91,17,31,4,3,0.6,0.7
2023-04-12T17:00:00,1111A,121.5637,38.8845,大连市,星海三站,颗粒物(PM10),153,255,209,45,35,94,63,78,78,49,30,8,7,0.5,0.4
2023-04-12T17:00:00,1112A,121.6302,38.9117,大连市,青泥洼桥,颗粒物(PM10),136,221,239,33,36,108,108,98,98,7,18,6,5,0.3,0.4
2023-04-12T17:00:00,1113A,121.6251,38.8638,大连市,傅家庄,颗粒物(PM10),161,271,216,47,36,96,68,70,69,32,17,10,6,0.6,0.6
2023-04-12T17:00:00,1114A,121.5213,38.8661,大连市,七贤岭,颗粒物(PM10),136,221,229,42,41,107,107,97,97,13,13,7,6,0.5,0.5
2023-04-12T17:00:00,1115A,121.2529,38.8061,大连市,旅顺,颗粒物(PM10),131,212,178,40,32,97,71,83,83,38,25,9,7,0.5,0.4
2023-04-12T17:00:00,1116A,121.7485,39.1311,大连市,金州,颗粒物(PM10),191,331,208,58,35,93,92,88,88,20,23,10,8,0.5,0.6
2023-04-12T17:00:00,1117A,121.7811,39.0496,大连市,开发区,颗粒物(PM10),139,227,213,44,40,89,78,78,78,31,33,6,8,0.4,0.4
2023-04-12T17:00:00,1118A,121.9762,39.0631,大连市,双D港,颗粒物(PM10),142,233,266,38,41,101,84,87,87,28,22,6,5,0.7,0.7
2023-04-12T17:00:00,1119A,125.3325,43.9166,长春市,食品厂,颗粒物(PM10),92,134,221,18,28,86,82,83,83,16,14,2,2,0.3,0.3
2023-04-12T17:00:00,1120A,125.2863,43.9027,长春市,客车厂,颗粒物(PM10),84,117,226,17,27,100,99,94,94,6,8,4,4,0.5,0.5
2023-04-12T17:00:00,1121A,125.2841,43.8463,长春市,邮电学院,颗粒物(PM10),83,115,206,14,30,92,89,86,86,5,8,5,5,0.3,0.3
2023-04-12T17:00:00,1122A,125.3716,43.8772,长春市,劳动公园,颗粒物(PM10),78,105,193,14,26,93,91,88,88,6,8,5,5,0.2,0.2
2023-04-12T17:00:00,1123A,125.3297,43.8805,长春市,园林处,颗粒物(PM10),85,120,194,17,33,78,69,74,74,30,18,5,5,0.2,0.2
2023-04-12T17:00:00,1124A,125.4605,43.79,长春市,净月潭,颗粒物(PM10),83,116,217,11,23,92,92,88,88,2,4,3,3,0.2,0.2
2023-04-12T17:00:00,1125A,125.7194,43.515,长春市,甩湾子,,,,,,,,,,,,,,,,
2023-04-12T17:00:00,1126A,125.3863,43.8447,长春市,经开区环卫处,,,,196,,32,91,,84,84,,10,,5,,0.3
2023-04-12T17:00:00,1127A,125.245,43.7783,长春市,高新区管委会,颗粒物(PM10),76,101,204,21,42,102,99,96,96,6,7,6,6,0.4,0.4
2023-04-12T17:00:00,1128A,125.1761,43.8325,长春市,岱山公园,颗粒物(PM10),83,115,207,20,43,90,87,86,86,10,9,5,4,0.1,0.2
2023-04-12T17:00:00,1129A,126.5422,45.755,哈尔滨市,岭北,颗粒物(PM10),58,65,375,13,58,91,89,86,86,5,6,5,9,0.5,0.3
2023-04-12T17:00:00,1130A,126.561,45.8167,哈尔滨市,松北商大,颗粒物(PM10),61,71,302,15,40,88,86,83,83,10,8,5,5,0.3,0.5
2023-04-12T17:00:00,1131A,126.979,45.5419,哈尔滨市,阿城会宁,颗粒物(PM10),64,78,456,14,73,93,90,89,89,9,8,7,3,0.4,0.5
2023-04-12T17:00:00,1132A,126.599,45.7222,哈尔滨市,南岗学府路,,,,538,12,63,83,80,78,78,7,7,5,5,0.3,0.3
2023-04-12T17:00:00,1133A,126.689,45.7733,哈尔滨市,太平宏伟公园,颗粒物(PM10),73,96,327,21,49,88,86,83,83,5,6,4,4,0.3,0.3
2023-04-12T17:00:00,1134A,126.635,45.7667,哈尔滨市,道外承德广场,颗粒物(PM10),65,80,333,10,41,86,84,79,79,9,10,5,6,0.3,0.3
2023-04-12T17:00:00,1135A,126.685,45.7319,哈尔滨市,香坊红旗大街,颗粒物(PM10),70,90,385,15,66,88,86,84,84,10,11,12,11,0.2,0.4
2023-04-12T17:00:00,1136A,126.6411,45.7258,哈尔滨市,动力和平路,颗粒物(PM10),62,74,382,17,60,84,81,80,80,15,15,9,9,0.2,0.3
2023-04-12T17:00:00,1137A,126.593,45.7478,哈尔滨市,道里建国路,颗粒物(PM10),59,68,316,29,61,81,80,76,76,11,12,9,9,0.2,0.3
2023-04-12T17:00:00,1138A,126.615,45.61,哈尔滨市,平房东轻厂,颗粒物(PM10),65,79,445,18,71,92,88,87,87,6,8,7,7,0.4,0.5
2023-04-12T17:00:00,1139A,126.595,45.9855,哈尔滨市,呼兰师专,,,77,252,17,34,86,,82,82,13,7,9,8,0.5,0.5
2023-04-12T17:00:00,1140A,126.6206,45.6842,哈尔滨市,省农科院,颗粒物(PM10),69,87,410,21,41,91,87,86,86,10,12,9,10,0.3,0.4
2023-04-12T17:00:00,1141A,121.4,31.238,上海市,普陀,颗粒物(PM10),122,193,381,31,55,179,95,105,94,20,24,4,5,0.5,0.7
2023-04-12T17:00:00,1142A,121.478,31.2036,上海市,十五厂,颗粒物(PM10),129,208,432,42,62,152,90,91,91,22,28,7,8,0.6,0.8
2023-04-12T17:00:00,1143A,121.467,31.3008,上海市,虹口,颗粒物(PM10),126,202,394,32,65,158,88,96,88,16,21,7,8,0.3,0.5
2023-04-12T17:00:00,1144A,121.412,31.1654,上海市,徐汇上师大,颗粒物(PM10),121,192,380,37,73,170,89,101,86,21,27,7,8,0.2,0.5
2023-04-12T17:00:00,1145A,121.536,31.2659,上海市,杨浦四漂,颗粒物(PM10),131,212,417,34,62,174,77,94,90,35,27,7,10,0.2,0.5
2023-04-12T17:00:00,1147A,121.425,31.2261,上海市,静安监测站,颗粒物(PM10),123,196,370,33,56,172,94,102,93,21,26,5,6,0.5,0.7
2023-04-12T17:00:00,1148A,121.703,31.1907,上海市,浦东川沙,颗粒物(PM10),158,266,458,36,70,153,88,91,91,15,19,5,6,0.4,0.6
2023-04-12T17:00:00,1149A,121.533,31.2284,上海市,浦东新区监测站,颗粒物(PM10),126,201,367,34,60,169,96,95,95,16,26,6,8,0.4,0.5
2023-04-12T17:00:00,1150A,121.577,31.2071,上海市,浦东张江,,,,,,,,,,,,,,,,
2023-04-12T17:00:00,1151A,118.8086,32.1065,南京市,迈皋桥,颗粒物(PM10),223,366,610,102,97,125,115,107,107,21,21,4,6,0.2,0.3
2023-04-12T17:00:00,1152A,118.7538,32.0551,南京市,草场门,颗粒物(PM10),170,290,436,73,105,106,98,97,97,25,25,4,5,0.5,0.5
2023-04-12T17:00:00,1153A,118.7794,32.0745,南京市,山西路,颗粒物(PM10),269,398,673,95,106,113,105,100,100,17,16,3,4,0.2,0.3
2023-04-12T17:00:00,1154A,118.7752,32.0023,南京市,中华门,颗粒物(PM10),220,364,465,73,98,106,100,98,98,25,22,4,4,0.4,0.5
2023-04-12T17:00:00,1155A,118.8109,32.0309,南京市,瑞金路,颗粒物(PM10),197,343,515,61,84,106,97,95,95,21,15,3,6,0.4,0.5
2023-04-12T17:00:00,1156A,118.7997,32.0754,南京市,玄武湖,颗粒物(PM10),190,329,526,62,86,103,94,89,89,20,24,6,7,0.3,0.3
2023-04-12T17:00:00,1157A,118.6414,32.0931,南京市,浦口,颗粒物(PM10),239,377,600,102,92,108,102,97,97,31,29,4,5,0.6,0.6
2023-04-12T17:00:00,1158A,118.7356,31.9996,南京市,奥体中心,颗粒物(PM10),233,373,644,85,97,108,102,99,99,23,20,6,6,0.3,0.2
2023-04-12T17:00:00,1159A,118.9125,32.1028,南京市,仙林大学城,颗粒物(PM10),233,373,580,110,116,104,94,90,90,23,20,6,7,0.5,0.5
2023-04-12T17:00:00,1160A,120.561,31.2472,苏州市,上方山,颗粒物(PM10),161,271,356,64,64,141,89,82,79,19,20,6,7,0.3,0.4
2023-04-12T17:00:00,1162A,120.591,31.3019,苏州市,彩香,颗粒物(PM10),177,304,393,114,80,188,97,93,93,20,14,5,5,0.3,0.5
2023-04-12T17:00:00,1163A,120.596,31.3264,苏州市,轧钢厂,颗粒物(PM10),180,309,403,61,72,174,88,85,85,18,13,8,8,0.4,0.6
2023-04-12T17:00:00,1164A,120.613,31.2703,苏州市,吴中区,颗粒物(PM10),170,289,372,66,69,170,93,97,88,26,24,6,7,0.5,0.5
2023-04-12T17:00:00,1165A,120.543,31.2994,苏州市,苏州新区,颗粒物(PM10),169,288,382,64,73,178,97,89,89,18,15,5,5,0.3,0.4
2023-04-12T17:00:00,1166A,120.669,31.3097,苏州市,苏州工业园区,颗粒物(PM10),172,293,376,70,78,162,80,95,80,29,18,8,8,0.5,0.6
2023-04-12T17:00:00,1167A,120.641,31.3708,苏州市,相城区,颗粒物(PM10),185,320,362,68,77,183,68,83,83,34,13,6,6,0.4,0.5
2023-04-12T17:00:00,1168A,120.9098,31.9663,南通市,狼山街道,颗粒物(PM10),130,210,428,42,75,113,109,108,108,8,10,5,5,0.3,0.4
2023-04-12T17:00:00,1169A,120.86,32.0005,南通市,虹桥,颗粒物(PM10),138,225,453,43,69,110,108,105,105,13,16,5,6,0.3,0.4
2023-04-12T17:00:00,1170A,120.87,32.02,南通市,城中,细颗粒物(PM2.5),149,210,422,114,76,114,110,108,108,5,8,7,8,0.3,0.4
2023-04-12T17:00:00,1171A,120.94,31.93,南通市,星湖花园,颗粒物(PM10),125,200,398,39,62,110,108,107,107,12,17,5,6,0.3,0.4
2023-04-12T17:00:00,1172A,120.81,32.0417,南通市,紫琅学院,颗粒物(PM10),139,227,435,88,70,104,99,98,98,16,17,7,7,0.1,0.1
2023-04-12T17:00:00,1173A,119.176,34.5885,连云港市,市环境监测站,颗粒物(PM10),334,447,536,90,101,100,97,88,88,8,12,5,6,0.3,0.5
2023-04-12T17:00:00,1177A,117.179,34.2761,徐州市,黄河新村,颗粒物(PM10),358,466,836,84,136,96,96,85,85,11,20,6,8,0.5,0.6
2023-04-12T17:00:00,1178A,117.1918,34.2384,徐州市,淮塔,,,,743,,126,101,,87,87,14,23,8,10,0.4,0.3
2023-04-12T17:00:00,1180A,117.256,34.2153,徐州市,新城区,颗粒物(PM10),293,415,692,65,109,96,94,85,85,12,19,9,12,0.6,0.5
2023-04-12T17:00:00,1181A,117.244,34.2911,徐州市,桃园路,颗粒物(PM10),362,469,787,78,114,98,96,87,87,8,18,8,9,0.5,0.5
2023-04-12T17:00:00,1182A,117.2933,34.2778,徐州市,农科院,颗粒物(PM10),337,449,712,100,132,102,97,87,87,9,22,8,8,0.5,0.5
2023-04-12T17:00:00,1186A,119.389,32.3761,扬州市,邗江监测站,颗粒物(PM10),226,368,542,77,88,111,101,97,97,27,17,13,8,0.8,0.3
2023-04-12T17:00:00,1188A,120.269,31.4867,无锡市,雪浪,颗粒物(PM10),164,278,488,70,104,124,86,84,84,31,24,8,8,0.4,0.4
2023-04-12T17:00:00,1189A,120.275,31.6219,无锡市,黄巷,颗粒物(PM10),173,296,457,51,73,103,94,91,91,25,22,5,5,0.6,0.7
2023-04-12T17:00:00,1190A,120.294,31.56,无锡市,曹张,颗粒物(PM10),155,260,413,41,66,109,93,88,88,22,25,6,5,0.9,0.8
2023-04-12T17:00:00,1191A,120.242,31.5031,无锡市,漆塘,颗粒物(PM10),163,276,461,56,77,121,88,85,85,18,14,7,6,0.6,0.6
2023-04-12T17:00:00,1192A,120.3489,31.5863,无锡市,东亭,颗粒物(PM10),158,266,399,78,76,102,95,90,90,20,22,8,8,0.4,0.5
2023-04-12T17:00:00,1193A,120.354,31.5475,无锡市,旺庄,颗粒物(PM10),168,285,422,53,71,110,92,88,88,18,16,9,9,0.8,0.8
2023-04-12T17:00:00,1194A,120.245,31.5631,无锡市,荣巷,,,,518,68,86,118,90,91,91,28,20,10,11,,0.5
2023-04-12T17:00:00,1195A,120.299,31.6817,无锡市,堰桥,颗粒物(PM10),169,288,525,56,80,114,109,99,99,16,19,6,8,0.3,0.5
2023-04-12T17:00:00,1196A,119.9633,31.762,常州市,市监测站,颗粒物(PM10),160,270,389,70,81,104,100,89,89,27,26,4,5,0.4,0.5
2023-04-12T17:00:00,1200A,119.9468,31.7069,常州市,武进监测站,颗粒物(PM10),167,283,388,74,84,105,98,90,90,30,24,5,9,0.4,0.6
2023-04-12T17:00:00,1201A,119.9255,31.9087,常州市,安家,颗粒物(PM10),167,284,386,89,96,110,110,93,93,17,21,7,8,0.3,0.5
2023-04-12T17:00:00,1203A,119.6707,32.1875,镇江市,新区办事处,颗粒物(PM10),191,331,498,102,96,101,95,91,91,25,15,4,2,0.4,0.3
2023-04-12T17:00:00,1204A,119.4974,32.1968,镇江市,职教中心,细颗粒物(PM2.5),279,358,531,229,94,101,94,87,87,33,25,9,5,0.7,0.4
2023-04-12T17:00:00,1205A,119.4303,32.1328,镇江市,丹徒区监测站,颗粒物(PM10),249,384,514,82,98,108,104,93,93,18,14,2,2,0.2,0.3
2023-04-12T17:00:00,1206A,119.905,32.4878,泰州市,公园路,颗粒物(PM10),161,271,435,51,79,111,108,102,102,11,14,8,8,0.2,0.3
2023-04-12T17:00:00,1207A,119.9189,32.4625,泰州市,莲花,颗粒物(PM10),173,295,486,53,66,117,111,106,106,12,15,6,7,0.4,0.5
2023-04-12T17:00:00,1209A,119.888,32.4639,泰州市,留学生创业园,颗粒物(PM10),185,320,502,57,92,108,104,98,98,14,16,8,8,0.2,0.3
2023-04-12T17:00:00,1210A,119.036,33.5981,淮安市,钵池山,颗粒物(PM10),184,317,431,72,81,96,96,85,85,12,19,7,7,0.4,0.5
2023-04-12T17:00:00,1211A,119.007,33.575,淮安市,北京南路,颗粒物(PM10),197,344,483,59,81,98,97,85,85,16,19,9,8,0.3,0.6
2023-04-12T17:00:00,1212A,118.989,33.6067,淮安市,市监测站,颗粒物(PM10),187,324,470,63,100,102,102,88,88,15,18,7,6,0.4,0.4
2023-04-12T17:00:00,1213A,119.135,33.5039,淮安市,楚州区监测站,颗粒物(PM10),195,339,489,72,90,99,97,86,86,16,21,7,7,0.5,0.5
2023-04-12T17:00:00,1214A,119.0186,33.6297,淮安市,淮阴区监测站,颗粒物(PM10),183,316,459,56,79,98,98,87,87,16,23,8,7,0.4,0.4
2023-04-12T17:00:00,1215A,120.118,33.4022,盐城市,盐城电厂,颗粒物(PM10),179,307,445,45,68,113,109,106,106,10,16,6,6,0.2,0.3
2023-04-12T17:00:00,1216A,120.156,33.3942,盐城市,市监测站,颗粒物(PM10),186,322,445,61,71,102,99,96,96,8,14,8,8,0.4,0.3
2023-04-12T17:00:00,1218A,120.2144,33.38,盐城市,开发区管委会,颗粒物(PM10),193,336,396,47,60,109,100,100,100,,13,3,5,,0.1
2023-04-12T17:00:00,1220A,118.293,33.9528,宿迁市,宿迁学院,颗粒物(PM10),258,390,538,98,122,104,90,85,85,21,18,8,6,0.4,0.4
2023-04-12T17:00:00,1221A,118.2442,33.9592,宿迁市,宿迁中学,颗粒物(PM10),300,420,545,97,106,105,100,88,88,16,17,7,6,0.4,0.4
2023-04-12T17:00:00,1223A,120.2072,30.2111,杭州市,滨江,颗粒物(PM10),199,348,387,77,79,117,106,100,100,28,41,8,9,0.5,0.8
2023-04-12T17:00:00,1224A,120.0633,30.2747,杭州市,西溪,颗粒物(PM10),197,343,401,58,76,110,102,98,98,22,31,7,10,0.4,0.7
2023-04-12T17:00:00,1226A,120.3461,30.3153,杭州市,下沙,颗粒物(PM10),190,329,402,59,78,111,94,96,96,15,29,5,6,0.1,0.4
2023-04-12T17:00:00,1227A,120.1269,30.2456,杭州市,卧龙桥,颗粒物(PM10),171,291,322,67,71,122,106,100,100,19,29,10,11,0.4,0.7
2023-04-12T17:00:00,1228A,120.1903,30.2692,杭州市,浙江农大,颗粒物(PM10),173,295,348,64,77,124,102,101,101,21,35,4,7,0.5,0.8
2023-04-12T17:00:00,1230A,120.1197,30.3119,杭州市,和睦小学,颗粒物(PM10),189,327,379,57,67,105,83,85,85,27,40,5,6,0.4,0.8
2023-04-12T17:00:00,1231A,120.3019,30.4183,杭州市,临平镇,颗粒物(PM10),157,264,412,41,65,139,106,104,104,8,34,4,5,0.2,0.6
2023-04-12T17:00:00,1232A,120.2697,30.1819,杭州市,城厢镇,颗粒物(PM10),200,350,351,59,68,115,98,97,97,27,39,7,8,0.4,0.7
2023-04-12T17:00:00,1233A,120.0883,30.1808,杭州市,云栖,颗粒物(PM10),194,337,339,52,58,120,102,98,98,26,33,5,6,0.4,0.6
2023-04-12T17:00:00,1234A,121.8358,29.911,宁波市,区环保大楼,颗粒物(PM10),102,153,129,44,44,103,91,95,95,25,52,4,5,0.5,0.6
2023-04-12T17:00:00,1235A,121.56,29.82,宁波市,万里学院,颗粒物(PM10),176,302,188,60,52,112,86,112,94,37,37,8,7,0.5,0.7
2023-04-12T17:00:00,1236A,121.713,29.9572,宁波市,龙赛医院,颗粒物(PM10),149,247,214,46,49,120,81,115,89,36,35,8,8,0.4,0.5
2023-04-12T17:00:00,1239A,121.633,29.7733,宁波市,钱湖水厂,颗粒物(PM10),173,296,181,57,51,123,98,106,106,20,22,4,5,0.3,0.6
2023-04-12T17:00:00,1240A,121.5856,29.8635,宁波市,太古小学,颗粒物(PM10),177,304,182,45,52,130,80,121,92,39,36,8,8,0.6,0.8
2023-04-12T17:00:00,1241A,121.524,29.8674,宁波市,市环境监测中心,颗粒物(PM10),180,310,182,65,46,125,84,125,95,39,31,8,7,0.4,0.5
2023-04-12T17:00:00,1242A,120.634,28.0089,温州市,瓯海,颗粒物(PM10),121,191,87,40,49,119,87,78,78,28,46,7,7,0.2,0.6
2023-04-12T17:00:00,1243A,120.6748,27.9939,温州市,南浦,颗粒物(PM10),128,206,85,39,45,117,87,76,76,25,38,6,5,0.3,0.6
2023-04-12T17:00:00,1244A,120.76,27.9747,温州市,龙湾,颗粒物(PM10),135,220,90,38,37,115,88,72,72,26,54,6,7,0.2,0.6
2023-04-12T17:00:00,1245A,120.6709,28.0167,温州市,市站,颗粒物(PM10),124,198,90,39,51,88,70,57,57,49,52,5,5,0.3,0.8
2023-04-12T17:00:00,1247A,120.6053,29.9928,绍兴市,城东开发委,颗粒物(PM10),200,349,385,71,72,134,133,117,117,20,29,8,7,0.5,0.8
2023-04-12T17:00:00,1250A,120.0751,30.8669,湖州市,城西水厂,颗粒物(PM10),265,395,411,73,60,156,103,94,94,23,20,7,6,0.4,0.5
2023-04-12T17:00:00,1252A,120.7436,30.778,嘉兴市,清河小学,颗粒物(PM10),171,291,368,51,65,116,73,78,78,30,29,5,4,0.2,0.4
2023-04-12T17:00:00,1253A,120.726,30.7478,嘉兴市,嘉兴学院,颗粒物(PM10),161,271,351,110,69,137,84,85,85,21,25,7,6,0.3,0.6
2023-04-12T17:00:00,1255A,121.273,28.6459,台州市,黄岩环保大楼,颗粒物(PM10),183,315,121,48,41,137,98,106,106,14,27,6,5,0.1,0.4
2023-04-12T17:00:00,1256A,121.419,28.6542,台州市,台州环保大楼,颗粒物(PM10),152,254,108,46,44,132,98,110,110,12,25,5,6,0.2,0.6
2023-04-12T17:00:00,1257A,121.377,28.5773,台州市,路桥田洋王,颗粒物(PM10),137,223,108,34,46,134,103,109,109,13,32,5,7,0.0,0.4
2023-04-12T17:00:00,1258A,122.122,30.0203,舟山市,定海檀枫,颗粒物(PM10),117,184,165,40,39,101,93,93,91,6,27,5,6,0.3,0.5
2023-04-12T17:00:00,1259A,122.3094,29.9558,舟山市,普陀东港,颗粒物(PM10),191,331,180,54,37,105,96,94,93,9,29,5,6,0.2,0.5
2023-04-12T17:00:00,1260A,122.19,29.9944,舟山市,临城新区,颗粒物(PM10),116,182,139,30,36,102,102,98,98,7,32,4,6,0.2,0.4
2023-04-12T17:00:00,1262A,119.647,29.077,金华市,十五中,颗粒物(PM10),191,331,224,53,69,194,171,162,162,23,37,7,11,0.6,0.8
2023-04-12T17:00:00,1263A,119.686,29.1029,金华市,监测站,颗粒物(PM10),169,288,220,60,62,188,170,160,160,20,35,,9,0.6,0.9
2023-04-12T17:00:00,1264A,118.8692,28.9398,衢州市,环保大楼,颗粒物(PM10),146,242,133,62,56,205,195,182,182,18,36,6,9,0.7,0.7
2023-04-12T17:00:00,1265A,118.8709,28.9666,衢州市,实验学校,颗粒物(PM10),155,259,135,57,56,203,196,173,173,16,33,9,9,0.6,0.7
2023-04-12T17:00:00,1266A,118.8621,28.9808,衢州市,衢州学院,颗粒物(PM10),155,260,131,54,53,199,192,169,169,17,32,7,6,0.5,0.6
2023-04-12T17:00:00,1267A,119.914,28.4514,丽水市,监测站大楼,细颗粒物(PM2.5),73,94,62,53,47,145,122,118,118,14,26,6,7,0.6,0.7
2023-04-12T17:00:00,1268A,119.93,28.4586,丽水市,莲都小学,颗粒物(PM10),69,88,73,45,49,152,126,125,125,20,24,5,5,0.6,0.6
2023-04-12T17:00:00,1269A,119.879,28.4231,丽水市,余庄前,细颗粒物(PM2.5),59,64,58,42,27,149,127,118,118,12,23,7,7,0.6,0.7
2023-04-12T17:00:00,1270A,117.1959,31.7848,合肥市,明珠广场,颗粒物(PM10),272,400,722,80,110,169,117,102,102,21,23,4,5,0.5,0.5
2023-04-12T17:00:00,1271A,117.3072,31.8764,合肥市,三里街,颗粒物(PM10),307,425,699,,122,164,97,86,86,24,28,5,6,0.5,0.5
2023-04-12T17:00:00,1272A,117.2588,31.8707,合肥市,琥珀山庄,颗粒物(PM10),338,450,736,95,118,172,108,99,99,14,16,5,5,0.5,0.4
2023-04-12T17:00:00,1273A,117.1604,31.9052,合肥市,董铺水库,颗粒物(PM10),393,494,874,88,126,152,88,79,79,15,17,5,5,0.3,0.3
2023-04-12T17:00:00,1274A,117.25,31.8571,合肥市,长江中路,颗粒物(PM10),338,450,744,90,114,171,105,92,92,17,20,10,11,0.4,0.4
2023-04-12T17:00:00,1275A,117.266,31.9436,合肥市,庐阳区,颗粒物(PM10),349,459,788,83,115,153,92,84,84,19,20,16,15,0.4,0.5
2023-04-12T17:00:00,1276A,117.336,31.8586,合肥市,瑶海区,颗粒物(PM10),330,444,739,90,128,163,100,89,89,12,16,7,8,0.5,0.6
2023-04-12T17:00:00,1277A,117.3027,31.7964,合肥市,包河区,颗粒物(PM10),302,421,764,156,145,149,112,96,96,14,28,8,8,0.5,0.5
2023-04-12T17:00:00,1278A,117.2776,31.7385,合肥市,滨湖新区,颗粒物(PM10),350,460,763,80,113,158,115,97,97,12,15,6,7,0.5,0.6
2023-04-12T17:00:00,1279A,117.1318,31.8403,合肥市,高新区,颗粒物(PM10),276,403,742,78,120,164,114,98,98,20,22,8,8,0.4,0.5
2023-04-12T17:00:00,1280A,119.3903,26.0543,福州市,鼓山,,,,,,,,,,,,,,,,
2023-04-12T17:00:00,1282A,119.2681,26.0504,福州市,师大,细颗粒物(PM2.5),92,52,68,68,50,171,109,81,81,24,32,4,6,0.6,0.6
2023-04-12T17:00:00,1283A,119.2984,26.1028,福州市,五四北路,细颗粒物(PM2.5),72,22,63,52,55,182,106,73,73,19,36,2,4,0.4,0.6
2023-04-12T17:00:00,1284A,119.2648,26.0768,福州市,杨桥西路,细颗粒物(PM2.5),82,47,65,60,49,163,99,75,75,26,31,3,5,0.6,0.7
2023-04-12T17:00:00,1285A,119.317,26.0746,福州市,紫阳,细颗粒物(PM2.5),77,58,66,56,59,169,101,68,68,24,36,2,4,0.5,0.7
2023-04-12T17:00:00,1286A,118.1608,24.8169,厦门市,溪东,,,,,,,,,,,,,,,,
2023-04-12T17:00:00,1287A,118.1514,24.4767,厦门市,洪文,颗粒物(PM10),54,57,61,33,32,107,86,81,81,26,28,3,3,0.6,0.5
2023-04-12T17:00:00,1288A,118.0661,24.4444,厦门市,鼓浪屿,颗粒物(PM10),51,52,59,27,29,99,85,74,74,23,36,3,4,0.4,0.4
2023-04-12T17:00:00,1290A,115.8931,28.6843,南昌市,省外办,,48,48,127,30,44,140,140,114,114,4,26,8,8,0.7,0.6
2023-04-12T17:00:00,1291A,115.8886,28.7003,南昌市,省林业公司,颗粒物(PM10),68,85,138,29,51,135,135,108,108,12,34,6,9,0.4,0.5
2023-04-12T17:00:00,1292A,115.8126,28.7442,南昌市,林科所,,45,41,108,29,40,144,144,120,120,6,26,8,10,0.6,0.7
2023-04-12T17:00:00,1294A,115.8518,28.687,南昌市,建工学校,颗粒物(PM10),61,71,129,34,46,138,138,116,116,7,32,6,11,0.7,0.7
2023-04-12T17:00:00,1295A,115.8921,28.6424,南昌市,象湖,颗粒物(PM10),53,56,106,29,46,141,141,114,114,6,30,6,8,0.7,0.8
2023-04-12T17:00:00,1296A,115.7423,28.7996,南昌市,武术学校,,48,48,71,28,32,121,121,105,105,7,8,15,14,0.5,0.5
2023-04-12T17:00:00,1298A,115.9314,28.6842,南昌市,省站,颗粒物(PM10),59,68,132,32,50,141,141,114,114,5,28,11,10,1.0,0.8
2023-04-12T17:00:00,1299A,116.9862,36.6114,济南市,科干所,颗粒物(PM10),500,881,676,159,142,112,112,98,98,12,27,7,6,0.3,0.3
2023-04-12T17:00:00,1300A,116.9376,36.665,济南市,农科所,颗粒物(PM10),500,899,669,215,158,100,96,84,84,14,36,3,3,0.5,0.6
2023-04-12T17:00:00,1301A,117.1265,36.6734,济南市,开发区,颗粒物(PM10),500,733,669,150,147,111,110,95,95,9,38,7,7,0.5,0.5
2023-04-12T17:00:00,1303A,117.0624,36.6868,济南市,省种子仓库,颗粒物(PM10),500,813,670,166,194,111,111,96,96,10,42,7,7,0.5,0.6
2023-04-12T17:00:00,1304A,116.9489,36.6447,济南市,机床二厂,,,,647,,180,106,,90,90,,39,,2,,0.5
2023-04-12T17:00:00,1305A,117.0495,36.663,济南市,市监测站,颗粒物(PM10),500,901,695,159,133,110,110,96,96,10,41,7,7,0.5,0.6
2023-04-12T17:00:00,1306A,116.7675,36.5484,济南市,长清党校,颗粒物(PM10),500,911,732,168,175,105,102,91,91,14,32,11,9,0.5,0.6
2023-04-12T17:00:00,1307A,120.6659,36.2403,青岛市,仰口,颗粒物(PM10),500,605,458,117,74,96,93,91,79,12,12,5,5,0.5,0.5
2023-04-12T17:00:00,1310A,120.4134,36.0658,青岛市,市南区东部子站,颗粒物(PM10),469,569,423,73,58,77,70,69,69,32,42,6,6,0.4,0.5
2023-04-12T17:00:00,1311A,120.3664,36.1032,青岛市,四方区子站,颗粒物(PM10),486,586,427,97,65,78,74,70,70,30,53,4,8,0.6,0.6
2023-04-12T17:00:00,1312A,120.2994,36.054,青岛市,市南区西部子站,颗粒物(PM10),500,654,468,76,66,87,70,68,68,43,63,8,13,0.4,0.5
2023-04-12T17:00:00,1313A,120.4581,36.0858,青岛市,崂山区子站,颗粒物(PM10),481,581,459,92,72,85,79,80,80,21,25,7,6,0.4,0.4
2023-04-12T17:00:00,1314A,120.1983,35.9608,青岛市,黄岛区子站,颗粒物(PM10),500,615,459,83,67,85,,78,78,,41,,7,0.4,0.4
2023-04-12T17:00:00,1315A,120.3999,36.3083,青岛市,城阳区子站,颗粒物(PM10),500,698,449,100,70,92,92,81,81,22,47,5,5,0.4,0.5
2023-04-12T17:00:00,1316A,113.69031,34.76122,郑州市,烟厂,颗粒物(PM10),500,671,887,400,255,128,121,91,91,16,34,8,7,0.5,0.5
2023-04-12T17:00:00,1317A,113.65724,34.77134,郑州市,郑纺机,颗粒物(PM10),500,667,858,162,228,132,124,95,95,20,39,6,5,0.2,0.3
2023-04-12T17:00:00,1318A,113.67526,34.80246,郑州市,银行学校,颗粒物(PM10),500,690,853,111,164,126,122,90,90,18,36,7,6,0.6,0.5
2023-04-12T17:00:00,1319A,113.56746,34.81334,郑州市,供水公司,颗粒物(PM10),500,632,777,148,175,126,118,89,89,20,39,10,9,0.5,0.5
2023-04-12T17:00:00,1320A,113.7329,34.7178,郑州市,经开区管委,颗粒物(PM10),500,668,791,166,224,125,114,90,90,14,35,5,4,0.6,0.5
2023-04-12T17:00:00,1321A,113.73961,34.77172,郑州市,四十七中,颗粒物(PM10),500,723,855,154,228,120,107,88,88,21,37,6,5,0.5,0.4
2023-04-12T17:00:00,1322A,113.60532,34.74838,郑州市,市监测站,颗粒物(PM10),500,722,910,130,195,132,123,93,93,18,39,8,8,0.6,0.5
2023-04-12T17:00:00,1323A,113.64164,34.7525,郑州市,河医大,颗粒物(PM10),500,674,857,143,213,127,112,88,88,21,40,8,7,0.6,0.5
2023-04-12T17:00:00,1324A,113.51488,34.91089,郑州市,岗李水库,,,,,,,,,,,,,,,,
2023-04-12T17:00:00,1325A,114.3677,30.5584,武汉市,东湖梨园,臭氧1小时,88,114,303,46,97,200,190,160,160,10,22,9,10,0.7,0.6
2023-04-12T17:00:00,1326A,114.2529,30.558,武汉市,汉阳月湖,颗粒物(PM10),105,159,353,46,90,201,181,155,155,19,26,8,9,0.6,0.5
2023-04-12T17:00:00,1327A,114.282,30.6189,武汉市,汉口花桥,颗粒物(PM10),108,166,349,61,97,182,169,146,146,20,25,8,9,0.8,0.7
2023-04-12T17:00:00,1328A,114.3025,30.5332,武汉市,武昌紫阳,,,111,286,61,104,197,,149,149,16,32,,11,0.8,1
2023-04-12T17:00:00,1329A,114.3646,30.6217,武汉市,青山钢花,臭氧1小时,99,144,345,61,115,217,199,175,175,12,25,9,9,1.0,0.8
2023-04-12T17:00:00,1330A,114.1566,30.4825,武汉市,沌口新区,颗粒物(PM10),92,133,313,67,104,176,172,148,148,22,32,11,12,1.0,0.9
2023-04-12T17:00:00,1331A,114.3014,30.5944,武汉市,汉口江滩,颗粒物(PM10),118,186,376,61,93,203,190,155,155,19,26,8,8,0.9,0.7
2023-04-12T17:00:00,1333A,114.135,30.6319,武汉市,吴家山,颗粒物(PM10),106,162,327,54,100,202,190,147,147,20,30,8,8,0.8,0.7
2023-04-12T17:00:00,1334A,113.8454,30.2917,武汉市,沉湖七壕,颗粒物(PM10),113,176,288,68,75,186,182,156,156,7,14,14,13,0.7,0.5
2023-04-12T17:00:00,1335A,113.0833,28.2325,长沙市,经开区环保局,,39,33,36,27,37,135,122,108,108,8,21,2,2,0.5,0.6
2023-04-12T17:00:00,1336A,112.8872,28.2189,长沙市,高开区环保局,颗粒物(PM10),58,66,105,38,45,160,153,126,126,5,24,6,6,0.5,0.6
2023-04-12T17:00:00,1337A,113.0792,28.2053,长沙市,马坡岭,,48,48,51,22,45,145,131,117,117,9,29,1,1,0.5,0.5
2023-04-12T17:00:00,1338A,112.9394,28.19,长沙市,湖南师范大学,"颗粒物(PM10),细颗粒物(PM2.5)",54,57,71,38,55,158,137,124,124,10,28,5,5,0.8,0.9
2023-04-12T17:00:00,1339A,113.0178,28.1322,长沙市,雨花区环保局,,,,45,31,32,136,126,112,112,3,29,4,5,,0.7
2023-04-12T17:00:00,1340A,112.9792,28.2597,长沙市,伍家岭,,50,46,64,26,41,168,160,130,130,11,34,5,4,0.8,0.9
2023-04-12T17:00:00,1341A,113.0014,28.1944,长沙市,火车新站,,43,43,52,29,37,138,116,109,109,13,28,6,6,0.6,0.7
2023-04-12T17:00:00,1342A,112.9844,28.1178,长沙市,天心区环保局,颗粒物(PM10),51,52,54,32,38,131,131,104,104,11,29,2,2,0.5,0.6
2023-04-12T17:00:00,1343A,112.8908,28.1308,长沙市,湖南中医药大学,,47,45,63,31,37,155,150,127,127,12,28,3,3,0.9,1
2023-04-12T17:00:00,1344A,112.9581,28.3611,长沙市,沙坪,颗粒物(PM10),51,51,51,24,42,150,150,108,108,9,9,1,2,0.5,0.6
2023-04-12T17:00:00,1345A,113.2347,23.1423,广州市,广雅中学,颗粒物(PM10),53,55,58,29,28,160,128,102,102,35,57,5,4,0.9,0.9
2023-04-12T17:00:00,1346A,113.2612,23.105,广州市,市五中,颗粒物(PM10),55,59,57,38,32,178,140,116,116,31,49,7,7,0.8,0.9
2023-04-12T17:00:00,1348A,113.3478,23.0916,广州市,广东商学院,颗粒物(PM10),54,57,54,32,27,141,122,98,98,30,49,5,4,0.9,0.9
2023-04-12T17:00:00,1349A,113.4332,23.1047,广州市,市八十六中,颗粒物(PM10),61,71,57,30,22,168,168,114,114,30,53,8,6,0.9,0.7
2023-04-12T17:00:00,1350A,113.3505,22.9483,广州市,番禺中学,颗粒物(PM10),51,51,50,22,24,149,116,111,111,26,39,5,6,0.7,0.7
2023-04-12T17:00:00,1351A,113.2146,23.3916,广州市,花都师范,颗粒物(PM10),52,53,85,24,37,178,141,121,121,33,59,6,7,0.7,0.9
2023-04-12T17:00:00,1352A,113.2597,23.1331,广州市,市监测站,,49,49,53,28,26,170,130,111,111,37,55,7,6,0.8,0.8
2023-04-12T17:00:00,1353A,113.5618,23.312,广州市,九龙镇镇龙,颗粒物(PM10),84,117,70,55,32,115,115,84,84,88,52,16,7,0.9,0.7
2023-04-12T17:00:00,1354A,113.2765,23.1544,广州市,麓湖,颗粒物(PM10),52,53,54,27,26,168,130,112,112,34,42,5,4,0.7,0.7
2023-04-12T17:00:00,1355A,113.443,23.3035,广州市,帽峰山森林公园,颗粒物(PM10),57,63,40,29,18,110,109,91,91,50,33,9,6,1.2,1
2023-04-12T17:00:00,1356A,114.1063,22.5545,深圳市,通心岭子站,,41,41,32,18,15,85,54,68,68,41,20,4,4,0.6,0.5
2023-04-12T17:00:00,1357A,114.117,22.5625,深圳市,洪湖,,43,43,41,28,18,111,77,89,89,37,29,9,8,0.6,0.6
2023-04-12T17:00:00,1358A,113.987,22.5417,深圳市,华侨城,,47,47,35,25,18,98,36,65,65,67,32,7,6,0.5,0.6
2023-04-12T17:00:00,1359A,113.9181,22.5171,深圳市,南海子站,颗粒物(PM10),59,67,49,17,20,86,49,52,51,55,38,7,5,0.6,0.6
2023-04-12T17:00:00,1360A,114.2458,22.5689,深圳市,盐田,,32,32,32,17,16,95,58,69,69,37,34,6,6,0.6,0.6
2023-04-12T17:00:00,1361A,114.2283,22.7244,深圳市,龙岗,,48,48,48,21,20,152,132,122,122,15,32,2,2,0.5,0.5
2023-04-12T17:00:00,1363A,114.494,22.5422,深圳市,南澳,,41,41,31,23,13,83,72,71,71,19,13,6,6,0.6,0.6
2023-04-12T17:00:00,1364A,114.41,22.6342,深圳市,葵涌,,28,28,29,13,14,83,76,74,74,10,17,5,5,0.5,0.5
2023-04-12T17:00:00,1365A,114.297,22.5978,深圳市,梅沙,,44,44,44,11,12,89,60,69,69,30,17,5,5,0.6,0.6
2023-04-12T17:00:00,1366A,114.0678,22.738,深圳市,观澜,颗粒物(PM10),64,78,66,41,29,143,143,102,102,28,37,8,8,0.6,0.5
2023-04-12T17:00:00,1367A,113.5814,22.2618,珠海市,吉大,,31,31,31,16,15,104,80,78,78,18,13,6,6,0.2,0.3
2023-04-12T17:00:00,1368A,113.4881,22.2335,珠海市,前山,,34,34,41,16,15,85,75,72,72,27,29,4,4,0.3,0.3
2023-04-12T17:00:00,1369A,113.628,22.4251,珠海市,唐家,,36,36,32,16,15,101,88,80,80,10,13,4,4,0.3,0.3
2023-04-12T17:00:00,1370A,113.299,22.2281,珠海市,斗门,,32,27,35,13,14,100,100,83,83,12,18,4,4,0.5,0.4
2023-04-12T17:00:00,1371A,113.1294,23.0067,佛山市,湾梁,臭氧1小时,83,73,57,30,23,201,186,134,134,27,40,8,10,0.7,0.7
2023-04-12T17:00:00,1372A,113.1083,23.0478,佛山市,华材职中,臭氧1小时,103,63,47,34,25,206,206,131,131,27,35,7,6,0.6,0.6
2023-04-12T17:00:00,1373A,113.144,23.0453,佛山市,南海气象局,颗粒物(PM10),52,54,52,32,27,155,141,100,100,30,48,6,6,0.6,0.6
2023-04-12T17:00:00,1374A,113.2881,22.8094,佛山市,顺德苏岗,,46,46,44,22,26,153,125,100,100,20,42,9,8,0.6,0.7
2023-04-12T17:00:00,1376A,112.8383,22.8678,佛山市,高明孔堂,,49,46,40,24,20,156,156,97,97,15,18,5,7,0.7,0.6
2023-04-12T17:00:00,1377A,112.8836,23.1588,佛山市,三水监测站,颗粒物(PM10),52,53,101,28,48,165,141,106,106,38,70,4,7,0.7,1
2023-04-12T17:00:00,1378A,112.867,23.185,佛山市,三水云东海,,48,45,74,20,38,207,151,121,121,29,46,5,6,0.7,0.9
2023-04-12T17:00:00,1379A,113.3769,22.5211,中山市,华柏园,,49,49,35,20,17,135,113,102,102,11,17,4,4,0.6,0.6
2023-04-12T17:00:00,1380A,113.3881,22.5497,中山市,张溪,,43,43,45,13,22,128,110,95,95,17,23,4,4,0.4,0.5
2023-04-12T17:00:00,1381A,113.4075,22.5111,中山市,紫马岭,,39,39,33,20,16,123,113,99,99,8,14,7,6,0.4,0.4
2023-04-12T17:00:00,1382A,113.4411,22.4853,中山市,长江旅游区,,35,35,26,18,16,113,110,94,94,6,8,11,11,0.5,0.4
2023-04-12T17:00:00,1383A,113.1064,22.6058,江门市,北街,臭氧1小时,57,60,38,27,16,165,165,111,111,20,17,7,6,0.6,0.5
2023-04-12T17:00:00,1384A,113.0731,22.5835,江门市,西区,,50,46,43,28,20,158,158,108,108,17,23,6,7,0.6,0.6
2023-04-12T17:00:00,1385A,113.0219,22.5311,江门市,圭峰西,,45,40,43,17,20,144,144,106,106,11,18,7,7,0.5,0.5
2023-04-12T17:00:00,1386A,113.0828,22.5947,江门市,东湖,臭氧1小时,55,50,46,27,20,164,164,111,111,16,18,7,6,0.6,0.6
2023-04-12T17:00:00,1389A,113.7547,23.0494,东莞市,莞城梨川,臭氧1小时,98,81,58,44,29,214,198,149,149,55,42,10,10,0.8,0.7
2023-04-12T17:00:00,1390A,113.7944,23.0128,东莞市,东城石井,臭氧1小时,122,81,51,42,26,244,244,163,163,43,33,11,9,0.8,0.7
2023-04-12T17:00:00,1391A,113.7383,22.9658,东莞市,南城西平,臭氧1小时,90,83,58,39,22,192,192,115,115,50,42,8,11,0.7,0.7
2023-04-12T17:00:00,1392A,114.4183,23.0528,惠州市,河南岸金山湖子站,,39,39,53,25,22,129,122,108,108,12,25,4,5,0.6,0.5
2023-04-12T17:00:00,1393A,114.4053,23.0822,惠州市,下埔横江三路子站,颗粒物(PM10),52,53,49,21,21,152,145,124,124,12,26,4,5,0.5,0.5
2023-04-12T17:00:00,1394A,114.4103,23.1142,惠州市,江北云山西路子站,臭氧1小时,53,53,51,25,23,162,162,129,129,14,24,6,7,0.5,0.5
2023-04-12T17:00:00,1395A,114.4645,22.7833,惠州市,惠阳区承修路船湖子站,,40,40,47,21,19,182,92,129,129,30,26,6,5,0.6,0.6
2023-04-12T17:00:00,1396A,114.5317,22.7422,惠州市,大亚湾管委会子站,,,,49,,20,134,80,94,94,15,31,,7,0.5,0.6
2023-04-12T17:00:00,1397A,112.4267,23.0706,肇庆市,睦岗子站,颗粒物(PM10),53,55,95,26,41,149,149,106,106,18,58,18,15,0.5,0.7
2023-04-12T17:00:00,1398A,112.4645,23.0475,肇庆市,城中子站,颗粒物(PM10),56,62,101,37,58,135,135,97,97,25,58,18,17,0.6,0.8
2023-04-12T17:00:00,1399A,112.5544,23.1522,肇庆市,坑口子站,,44,35,80,23,49,166,138,110,110,28,51,8,10,0.5,0.6
2023-04-12T17:00:00,1400A,112.4753,23.1,肇庆市,七星岩子站,,,,,,,,,,,,,,,,
2023-04-12T17:00:00,1401A,108.3103,22.7881,南宁市,二十一中,颗粒物(PM10),53,55,51,27,25,75,72,65,65,10,17,5,5,0.8,0.8
2023-04-12T17:00:00,1402A,108.3141,22.8528,南宁市,北湖,,42,42,53,28,30,68,68,61,61,10,20,7,8,0.9,1
2023-04-12T17:00:00,1403A,108.3206,22.8225,南宁市,市监测站,,42,33,47,29,29,71,71,61,61,14,26,7,7,0.7,0.8
2023-04-12T17:00:00,1404A,108.3829,22.8037,南宁市,大自然花园,,43,41,45,30,26,65,64,60,60,8,15,5,6,0.7,0.8
2023-04-12T17:00:00,1405A,108.4394,22.7904,南宁市,仙葫,,39,30,48,27,24,69,69,62,62,10,20,6,6,0.5,0.6
2023-04-12T17:00:00,1406A,108.2397,22.8467,南宁市,区农职院,颗粒物(PM10),51,52,69,32,32,67,67,54,54,18,33,6,7,0.8,0.9
2023-04-12T17:00:00,1407A,108.3275,22.735,南宁市,英华嘉园,,43,43,47,26,25,66,66,55,55,12,19,6,6,0.8,0.8
2023-04-12T17:00:00,1408A,108.2257,22.7757,南宁市,沙井镇街道办,颗粒物(PM10),65,80,67,31,31,71,67,59,59,22,35,4,5,0.8,0.9
2023-04-12T17:00:00,1409A,110.576,19.9507,海口市,东寨港,,,26,28,15,16,48,41,40,40,,,6,6,0.5,0.5
2023-04-12T17:00:00,1410A,110.3232,20.0574,海口市,海南大学,,40,40,42,17,19,79,61,66,60,15,10,6,6,0.4,0.5
2023-04-12T17:00:00,1411A,110.283,20.0053,海口市,秀英海南医院,,47,47,40,20,20,74,66,68,66,12,10,4,4,0.5,0.5
2023-04-12T17:00:00,1412A,110.338,19.9969,海口市,海南师范大学,,41,41,38,19,19,77,66,64,63,7,8,4,4,0.4,0.4
2023-04-12T17:00:00,1413A,110.33,20.0356,海口市,龙华路环保局宿舍,,41,41,38,18,20,75,61,64,61,10,8,4,4,0.4,0.4
2023-04-12T17:00:00,1414A,106.3787,29.8279,重庆市,缙云山,,42,42,49,15,25,184,115,170,102,13,18,7,9,0.5,0.5
2023-04-12T17:00:00,1416A,106.4213,29.8253,重庆市,天生,,48,48,66,28,40,183,113,97,97,13,43,6,9,0.8,0.8
2023-04-12T17:00:00,1417A,106.6263,29.7228,重庆市,两路,,48,48,64,21,34,203,94,104,96,20,64,5,7,0.9,1
2023-04-12T17:00:00,1418A,106.2953,29.5983,重庆市,虎溪,,,43,65,27,41,210,141,124,124,15,61,4,5,,0.9
2023-04-12T17:00:00,1419A,106.5777,29.5102,重庆市,南坪,细颗粒物(PM2.5),52,52,66,36,34,185,119,96,96,10,29,4,4,0.6,0.6
2023-04-12T17:00:00,1420A,106.6556,29.6277,重庆市,唐家沱,,41,41,68,26,33,206,121,106,106,12,57,5,5,0.9,0.9
2023-04-12T17:00:00,1421A,106.6349,29.4906,重庆市,茶园,,,39,85,21,37,190,119,106,106,15,73,6,5,,1
2023-04-12T17:00:00,1422A,106.3754,29.4572,重庆市,白市驿,,,,62,30,29,224,153,146,124,12,18,7,9,,1
2023-04-12T17:00:00,1425A,106.6205,29.7166,重庆市,空港,,,42,73,30,40,218,105,107,107,,60,,8,0.6,0.9
2023-04-12T17:00:00,1426A,106.4782,29.4875,重庆市,新山村,,,,76,,38,169,110,75,75,19,81,9,9,,1
2023-04-12T17:00:00,1427A,106.5616,29.6453,重庆市,礼嘉,,46,39,82,32,37,204,120,96,96,16,80,6,6,0.8,1.1
2023-04-12T17:00:00,1428A,106.4522,29.7091,重庆市,蔡家,颗粒物(PM10),52,54,73,27,41,191,113,104,104,12,43,6,7,0.7,0.9
2023-04-12T17:00:00,1429A,106.5093,29.3917,重庆市,鱼新街,,46,29,61,19,36,222,146,96,96,17,63,6,6,0.8,1
2023-04-12T17:00:00,1431A,103.9728,30.7236,成都市,金泉两河,臭氧1小时,68,40,58,25,33,178,174,137,137,7,33,2,2,0.2,0.4
2023-04-12T17:00:00,1432A,104.176,30.6872,成都市,十里店,,46,44,75,22,38,158,145,128,128,9,37,1,2,0.3,0.5
2023-04-12T17:00:00,1433A,104.079,30.5706,成都市,三瓦窑,,48,40,59,17,31,165,151,126,126,4,42,1,2,0.4,0.6
2023-04-12T17:00:00,1434A,104.1114,30.63,成都市,沙河铺,,,,66,28,40,153,143,120,120,10,43,2,2,0.2,0.7
2023-04-12T17:00:00,1437A,104.0786,30.6531,成都市,君平街,臭氧1小时,54,33,70,18,42,173,163,138,138,11,42,4,4,0.3,0.5
2023-04-12T17:00:00,1438A,103.613,31.0283,成都市,灵岩寺,,,,,,,,,,,,,,,,
2023-04-12T17:00:00,1439A,106.6899,26.5998,贵阳市,马鞍山,细颗粒物(PM2.5),62,61,55,44,43,152,122,91,91,14,18,4,5,0.5,0.5
2023-04-12T17:00:00,1440A,106.6971,26.5694,贵阳市,市环保站,"颗粒物(PM10),细颗粒物(PM2.5)",62,73,68,44,47,163,121,94,94,20,31,4,5,0.5,0.5
2023-04-12T17:00:00,1441A,106.6243,26.6266,贵阳市,鉴湖路,颗粒物(PM10),62,73,65,36,38,147,120,100,100,15,18,4,4,0.5,0.5
2023-04-12T17:00:00,1442A,106.7487,26.6343,贵阳市,燕子冲,细颗粒物(PM2.5),58,53,56,41,46,140,119,83,83,11,14,3,2,0.6,0.6
2023-04-12T17:00:00,1443A,106.6555,26.4365,贵阳市,碧云窝,颗粒物(PM10),62,73,70,41,40,182,132,111,111,7,15,4,5,0.5,0.8
2023-04-12T17:00:00,1444A,106.694,26.5161,贵阳市,中院村,颗粒物(PM10),60,70,68,41,40,167,122,103,103,19,26,7,8,0.7,0.8
2023-04-12T17:00:00,1445A,106.7109,26.6027,贵阳市,红边门,细颗粒物(PM2.5),70,70,73,51,51,153,116,87,87,16,29,3,7,0.8,0.8
2023-04-12T17:00:00,1446A,106.7164,26.5699,贵阳市,新华路,细颗粒物(PM2.5),58,63,68,41,44,155,113,90,90,13,23,3,6,0.6,0.7
2023-04-12T17:00:00,1447A,106.674,26.5424,贵阳市,太慈桥,,,,68,,34,157,121,100,100,13,24,3,4,0.6,0.6
2023-04-12T17:00:00,1450A,102.8204,24.8886,昆明市,呈贡新区,,50,49,69,29,51,188,158,170,170,7,17,4,11,0.4,0.8
2023-04-12T17:00:00,1451A,102.6251,24.9608,昆明市,西山森林公园,臭氧1小时,75,48,66,35,43,201,180,184,184,8,14,5,12,0.7,1.1
2023-04-12T17:00:00,1452A,102.7252,25.0902,昆明市,龙泉镇,,50,43,94,26,57,175,159,159,159,14,54,6,8,0.6,0.9
2023-04-12T17:00:00,1453A,102.7266,25.0375,昆明市,东风东路,,50,42,77,30,55,178,157,161,161,14,30,7,11,0.6,0.9
2023-04-12T17:00:00,1454A,102.6742,25.0669,昆明市,金鼎山,臭氧1小时,53,51,72,20,54,167,162,155,155,13,25,4,10,0.5,0.7
2023-04-12T17:00:00,1455A,102.6644,25.0401,昆明市,碧鸡广场,,,40,79,21,52,174,,160,160,16,36,5,8,0.6,0.9
2023-04-12T17:00:00,1456A,91.1319,29.6514,拉萨市,八廓街,,43,39,27,24,13,139,135,126,126,10,11,6,9,0.3,0.2
2023-04-12T17:00:00,1457A,91.1221,29.6747,拉萨市,市环保局,,44,20,20,9,9,143,138,124,124,10,13,5,7,0.4,0.4
2023-04-12T17:00:00,1458A,91.0874,29.6475,拉萨市,区监测站,,36,22,20,9,7,118,114,103,103,11,13,7,9,0.3,0.3
2023-04-12T17:00:00,1459A,91.1774,29.6541,拉萨市,西藏大学,,43,22,18,10,8,142,136,126,126,8,8,6,8,0.6,0.6
2023-04-12T17:00:00,1460A,90.9798,29.6588,拉萨市,区辐射站,,43,23,32,10,14,137,135,112,112,5,20,7,8,0.3,0.3
2023-04-12T17:00:00,1461A,91.0834,29.6292,拉萨市,拉萨火车站,,,25,19,7,6,127,123,111,111,,12,7,9,0.4,0.4
2023-04-12T17:00:00,1462A,108.882,34.2749,西安市,高压开关厂,颗粒物(PM10),250,385,445,108,101,116,116,78,78,28,42,14,13,0.6,0.5
2023-04-12T17:00:00,1463A,108.993,34.2629,西安市,兴庆小区,颗粒物(PM10),238,376,422,106,122,113,113,74,74,30,45,13,13,2.5,0.7
2023-04-12T17:00:00,1464A,109.06,34.2572,西安市,纺织城,颗粒物(PM10),262,393,414,94,104,120,120,73,73,21,43,13,10,1.2,0.9
2023-04-12T17:00:00,1465A,108.9356,34.2173,西安市,小寨,颗粒物(PM10),213,359,419,112,137,110,110,80,80,30,45,15,13,0.7,0.4
2023-04-12T17:00:00,1466A,108.954,34.2713,西安市,市人民体育场,颗粒物(PM10),266,396,444,104,113,114,114,75,75,28,43,14,13,1.7,0.7
2023-04-12T17:00:00,1467A,108.8922,34.2322,西安市,高新西区,颗粒物(PM10),202,351,412,102,112,120,120,80,80,30,40,13,12,0.8,0.5
2023-04-12T17:00:00,1468A,108.935,34.3474,西安市,经开区,颗粒物(PM10),212,358,411,116,131,121,121,77,77,22,40,10,10,0.5,0.3
2023-04-12T17:00:00,1469A,108.906,34.1546,西安市,长安区,颗粒物(PM10),229,370,473,110,128,109,109,68,68,43,50,13,9,0.7,0.4
2023-04-12T17:00:00,1471A,109.2186,34.3731,西安市,临潼区,颗粒物(PM10),216,361,391,115,133,122,122,81,81,25,38,15,15,0.8,0.6
2023-04-12T17:00:00,1472A,108.869,34.378,西安市,草滩,颗粒物(PM10),174,298,367,82,86,114,114,80,80,19,36,17,13,0.0,0.2
2023-04-12T17:00:00,1473A,108.985,34.1978,西安市,曲江文化产业集团,颗粒物(PM10),229,370,450,104,118,120,120,74,74,27,49,13,13,1.0,0.7
2023-04-12T17:00:00,1474A,109.051,34.3213,西安市,广运潭,颗粒物(PM10),228,369,428,103,114,116,116,75,75,22,44,14,11,0.7,0.5
2023-04-12T17:00:00,1476A,103.631,36.1031,兰州市,兰炼宾馆,颗粒物(PM10),100,150,243,57,83,181,127,118,118,17,62,12,20,0.5,0.8
2023-04-12T17:00:00,1477A,104.1373,35.9454,兰州市,榆中兰大校区,,,,,,,,,,,,,,,,
2023-04-12T17:00:00,1478A,103.8412,36.0726,兰州市,生物制品所,颗粒物(PM10),104,157,234,45,71,132,132,85,85,15,55,14,16,0.5,0.9
2023-04-12T17:00:00,1479A,103.831,36.0464,兰州市,铁路设计院,颗粒物(PM10),99,148,226,49,77,127,124,84,84,18,64,4,11,0.3,0.8
2023-04-12T17:00:00,1483A,101.524,36.6867,西宁市,第五水厂,,,,,,,,,,,,,,,,
2023-04-12T17:00:00,1484A,105.9512,38.6016,银川市,贺兰山马莲口,颗粒物(PM10),106,162,144,45,36,137,127,108,108,25,18,29,24,0.9,0.7
2023-04-12T17:00:00,1488A,106.2328,38.4975,银川市,贺兰山东路,,,,245,,64,121,113,91,91,35,43,30,31,0.7,0.9
2023-04-12T17:00:00,1489A,106.1358,38.5036,银川市,学院路,颗粒物(PM10),138,226,227,64,47,117,,84,84,26,45,29,29,0.7,1.1
2023-04-12T17:00:00,1490A,87.5801,43.8303,乌鲁木齐市,监测站,,31,16,30,1,9,109,97,90,84,12,19,4,5,0.7,0.8
2023-04-12T17:00:00,1491A,87.6046,43.768,乌鲁木齐市,收费所,,28,19,34,7,11,89,89,79,79,9,16,3,4,0.2,0.3
2023-04-12T17:00:00,1492A,87.4754,43.9469,乌鲁木齐市,新疆农科院农场,,50,13,41,35,32,91,83,71,70,19,24,7,9,0.7,0.8
2023-04-12T17:00:00,1493A,87.5525,43.8711,乌鲁木齐市,铁路局,,31,9,32,9,10,105,99,86,84,10,15,4,5,0.3,0.4
2023-04-12T17:00:00,1494A,87.6432,43.831,乌鲁木齐市,三十一中学,,32,32,30,13,10,101,93,83,83,2,8,7,8,0.5,0.6
2023-04-12T17:00:00,1496A,87.7216,44.1747,乌鲁木齐市,米东区环保局,,,2,37,8,12,115,,98,86,2,7,7,9,0.2,0.1
2023-04-12T17:00:00,1508A,112.9433,27.8614,湘潭市,板塘,,40,37,48,22,32,129,127,100,100,3,25,11,11,0.5,0.6
2023-04-12T17:00:00,1511A,112.9118,27.8403,湘潭市,市监测站,,46,46,45,27,33,132,124,109,109,17,25,8,8,0.8,0.9
2023-04-12T17:00:00,1512A,112.8937,27.8728,湘潭市,江麓,,49,49,49,21,43,145,139,121,121,6,20,9,9,0.2,0.4
2023-04-12T17:00:00,1513A,112.9227,27.8159,湘潭市,岳塘,,44,44,48,29,30,125,125,103,103,2,17,10,11,0.8,0.9
2023-04-12T17:00:00,1514A,112.9074,27.9119,湘潭市,科大,,,49,52,16,33,155,,128,128,13,28,5,5,,0.5
2023-04-12T17:00:00,1515A,113.135,27.8244,株洲市,天台山庄,,50,44,43,35,37,147,145,116,116,6,21,6,5,0.8,1
2023-04-12T17:00:00,1518A,113.095,27.8867,株洲市,株冶医院,,46,46,46,32,36,139,135,112,112,9,24,5,4,0.6,0.8
2023-04-12T17:00:00,1519A,113.167,27.8667,株洲市,市四中,,43,37,33,30,31,134,125,102,102,7,18,6,6,0.6,0.8
2023-04-12T17:00:00,1520A,113.143,27.8381,株洲市,火车站,细颗粒物(PM2.5),59,44,43,42,35,138,138,110,110,10,24,5,5,0.0,0.8
2023-04-12T17:00:00,1524A,113.13,27.8528,株洲市,市监测站,细颗粒物(PM2.5),73,39,37,53,59,142,139,133,133,13,22,4,5,0.9,0.9
2023-04-12T17:00:00,1552A,106.805,26.3003,贵阳市,桐木岭,,,,,,,,,,,,,,,,
2023-04-12T17:00:00,1559A,113.251,27.8336,株洲市,大京风景区,,41,41,34,27,28,120,120,91,91,4,8,4,3,0.6,0.7
2023-04-12T17:00:00,1562A,113.0048,27.9153,湘潭市,昭山,,43,41,50,28,28,140,135,115,115,12,29,2,2,0.7,0.8
2023-04-12T17:00:00,1564A,112.4876,27.9164,湘潭市,韶山,,49,49,66,28,27,141,122,116,116,16,15,5,6,0.6,0.6
2023-04-12T17:00:00,1585A,109.8756,40.6532,包头市,市环境监测站,颗粒物(PM10),157,263,162,73,54,95,81,72,72,28,41,19,16,0.8,0.9
2023-04-12T17:00:00,1587A,109.9991,40.5842,包头市,包头八中,颗粒物(PM10),156,262,180,81,56,95,75,70,70,34,44,15,19,0.8,0.9
2023-04-12T17:00:00,1588A,109.8538,40.6821,包头市,青山宾馆,颗粒物(PM10),144,237,145,86,48,96,72,68,68,42,46,24,14,1.2,0.7
2023-04-12T17:00:00,1589A,109.8642,40.6288,包头市,惠龙物流,颗粒物(PM10),161,271,172,79,54,86,78,74,74,29,42,14,15,0.3,0.5
2023-04-12T17:00:00,1590A,110.0377,40.5546,包头市,东河鸿龙湾,颗粒物(PM10),176,301,187,71,55,101,76,71,71,29,35,17,17,0.5,0.5
2023-04-12T17:00:00,1591A,110.0023,39.8129,鄂尔多斯市,综合楼,颗粒物(PM10),175,300,293,68,60,105,105,71,71,22,45,9,15,0.7,0.9
2023-04-12T17:00:00,1592A,109.9486,39.8261,鄂尔多斯市,巴音孟克林场办事处,颗粒物(PM10),150,249,276,75,64,109,109,74,74,14,39,8,15,0.5,0.7
2023-04-12T17:00:00,1593A,109.7736,39.5986,鄂尔多斯市,康泽苑,颗粒物(PM10),125,200,210,63,53,108,108,66,66,13,31,10,12,0.5,0.6
2023-04-12T17:00:00,1594A,109.8119,39.5989,鄂尔多斯市,华泰汽车城,颗粒物(PM10),124,197,198,56,49,109,109,68,68,10,42,9,14,0.3,0.6
2023-04-12T17:00:00,1595A,109.9734,39.7884,鄂尔多斯市,奥林花园,颗粒物(PM10),170,290,290,73,63,104,104,72,72,21,51,6,12,0.5,0.7
2023-04-12T17:00:00,1597A,122.2703,40.7094,营口市,大庆路,颗粒物(PM10),179,308,318,61,44,96,96,82,82,17,18,6,5,0.4,0.4
2023-04-12T17:00:00,1598A,122.2150,40.6511,营口市,镜湖西路,颗粒物(PM10),229,370,337,53,40,108,108,88,88,16,15,8,6,0.5,0.4
2023-04-12T17:00:00,1599A,122.1658,40.6789,营口市,西炮台,颗粒物(PM10),192,333,301,49,35,104,104,90,83,29,22,8,8,0.4,0.4
2023-04-12T17:00:00,1600A,124.3303,40.0625,丹东市,江湾东路,颗粒物(PM10),228,369,282,49,33,107,72,84,83,19,15,6,7,0.6,0.6
2023-04-12T17:00:00,1601A,124.4256,40.1503,丹东市,临江后街,颗粒物(PM10),180,310,232,40,29,98,75,86,85,16,15,9,10,0.4,0.5
2023-04-12T17:00:00,1602A,124.3933,40.1461,丹东市,元宝山,颗粒物(PM10),145,240,198,41,29,96,74,82,82,18,9,7,6,0.6,0.6
2023-04-12T17:00:00,1603A,124.3633,40.1092,丹东市,民主桥,颗粒物(PM10),182,313,245,42,27,92,65,80,79,20,15,5,5,0.5,0.5
2023-04-12T17:00:00,1604A,122.0303,41.1489,盘锦市,开发区,颗粒物(PM10),190,329,336,59,50,100,100,86,86,16,13,6,7,0.6,0.7
2023-04-12T17:00:00,1605A,122.0485,41.0883,盘锦市,兴隆台,颗粒物(PM10),156,261,345,49,47,99,99,84,84,17,22,5,5,0.5,0.5
2023-04-12T17:00:00,1606A,121.8297,41.1028,盘锦市,新生街道,颗粒物(PM10),168,285,321,45,40,101,97,88,88,19,23,7,10,0.6,0.5
2023-04-12T17:00:00,1607A,120.9092,40.7136,葫芦岛市,龙港区,颗粒物(PM10),315,432,330,109,51,96,86,81,81,16,10,10,8,0.6,0.5
2023-04-12T17:00:00,1608A,120.8392,40.7514,葫芦岛市,化工街,颗粒物(PM10),493,593,420,80,46,93,82,76,76,,29,11,14,1.1,0.7
2023-04-12T17:00:00,1609A,120.8341,40.7073,葫芦岛市,新区,颗粒物(PM10),363,470,325,89,49,98,87,79,79,21,20,13,11,0.6,0.4
2023-04-12T17:00:00,1610A,120.8695,40.7677,葫芦岛市,东城区,颗粒物(PM10),415,515,355,76,42,95,84,81,81,29,31,11,18,0.7,0.6
2023-04-12T17:00:00,1611A,118.5819,24.9117,泉州市,涂山街,,,49,65,9,36,120,109,106,106,,34,,10,0.6,0.6
2023-04-12T17:00:00,1612A,118.5972,24.8978,泉州市,津头埔,,34,26,61,14,38,111,106,101,101,18,37,8,11,0.5,0.6
2023-04-12T17:00:00,1613A,118.6663,24.9424,泉州市,万安,,38,34,62,26,45,114,112,109,109,17,29,9,11,0.6,0.7
2023-04-12T17:00:00,1614A,118.6117,24.9604,泉州市,清源山,,,,,,,,,,,,,,,,
2023-04-12T17:00:00,1616A,117.6795,36.229,济南市,技术学院,颗粒物(PM10),500,827,714,177,145,112,111,91,91,11,37,8,7,0.6,0.7
2023-04-12T17:00:00,1618A,118.3429,35.0532,临沂市,沂河小区,颗粒物(PM10),400,500,545,157,107,103,103,79,79,11,23,6,8,0.2,0.3
2023-04-12T17:00:00,1619A,118.295,35.0583,临沂市,鲁南制药厂,颗粒物(PM10),452,552,609,139,137,108,108,84,84,15,23,9,10,0.3,0.4
2023-04-12T17:00:00,1620A,118.2794,34.9976,临沂市,新光毛纺厂,颗粒物(PM10),427,527,551,100,111,104,104,83,83,9,20,5,6,0.3,0.4
2023-04-12T17:00:00,1621A,118.3956,35.0888,临沂市,河东保险公司,颗粒物(PM10),379,483,508,119,125,108,108,82,82,12,33,8,9,0.4,0.6
2023-04-12T17:00:00,1622A,116.3032,37.4674,德州市,儿童乐园,颗粒物(PM10),500,859,754,136,140,90,90,78,78,14,27,6,6,0.5,0.5
2023-04-12T17:00:00,1624A,116.2991,37.4451,德州市,监理站,颗粒物(PM10),500,843,750,175,146,91,91,78,78,17,31,10,9,0.4,0.4
2023-04-12T17:00:00,1625A,115.9848,36.4372,聊城市,区政府,颗粒物(PM10),500,802,751,127,142,100,97,85,85,17,38,8,9,0.6,0.6
2023-04-12T17:00:00,1628A,118.0062,37.3803,滨州市,市环保局,颗粒物(PM10),500,813,613,136,112,107,102,87,87,26,35,25,13,0.8,0.7
2023-04-12T17:00:00,1629A,118.0018,37.3617,滨州市,第二水厂,颗粒物(PM10),500,764,593,166,116,108,102,84,84,28,41,24,11,0.6,0.6
2023-04-12T17:00:00,1630A,117.9776,37.393,滨州市,北中新校,颗粒物(PM10),500,694,537,162,111,107,104,85,85,21,28,22,12,0.6,0.5
2023-04-12T17:00:00,1631A,118.0414,36.8103,淄博市,人民公园,颗粒物(PM10),500,679,670,157,192,104,104,87,87,13,38,9,14,,0.9
2023-04-12T17:00:00,1633A,117.8525,36.4847,淄博市,双山,颗粒物(PM10),500,720,627,141,142,102,102,86,86,13,27,9,12,0.3,0.5
2023-04-12T17:00:00,1634A,117.9592,36.6331,淄博市,气象站,颗粒物(PM10),500,675,692,202,160,108,108,90,90,11,35,12,18,0.2,0.5
2023-04-12T17:00:00,1635A,118.3092,36.8194,淄博市,莆田园,颗粒物(PM10),500,679,672,156,148,111,108,96,96,17,36,10,14,0.6,0.8
2023-04-12T17:00:00,1637A,117.558,34.8438,枣庄市,市中区政府,颗粒物(PM10),377,481,674,90,121,98,98,87,87,22,33,9,15,0.3,0.4
2023-04-12T17:00:00,1638A,117.2852,34.7837,枣庄市,薛城环保局,颗粒物(PM10),374,479,713,92,135,99,99,84,84,16,30,11,13,0.3,0.3
2023-04-12T17:00:00,1639A,117.5852,34.7745,枣庄市,峄城区政府,颗粒物(PM10),373,478,638,85,116,103,103,87,87,16,23,9,11,0.2,0.3
2023-04-12T17:00:00,1640A,117.7276,34.5578,枣庄市,台儿庄区环保局,颗粒物(PM10),289,412,556,80,96,101,98,85,85,22,27,10,10,0.5,0.6
2023-04-12T17:00:00,1641A,117.4518,35.0992,枣庄市,山亭区环保局,颗粒物(PM10),459,559,685,105,121,100,98,93,93,17,15,6,6,0.2,0.2
2023-04-12T17:00:00,1642A,121.2514,37.5639,烟台市,开发区,颗粒物(PM10),315,432,239,92,45,122,118,96,96,12,32,6,8,0.3,0.3
2023-04-12T17:00:00,1643A,121.3719,37.5433,烟台市,轴承厂,颗粒物(PM10),191,332,206,71,38,103,103,82,82,14,20,6,8,0.5,0.5
2023-04-12T17:00:00,1644A,121.3181,37.5436,烟台市,西郊化工站,颗粒物(PM10),330,444,235,73,39,115,113,89,89,10,21,12,10,0.3,0.4
2023-04-12T17:00:00,1645A,121.4478,37.4822,烟台市,莱山环保局,颗粒物(PM10),148,246,243,29,37,97,94,82,82,11,15,8,9,0.3,0.3
2023-04-12T17:00:00,1646A,121.2611,37.4967,烟台市,福山环保局,颗粒物(PM10),373,478,251,90,42,115,106,96,96,14,28,8,8,,0.7
2023-04-12T17:00:00,1650A,119.1437,36.7023,潍坊市,环保局,颗粒物(PM10),500,784,508,119,83,105,96,88,88,19,26,11,8,0.8,0.6
2023-04-12T17:00:00,1653A,116.6251,35.4302,济宁市,火炬城,颗粒物(PM10),417,517,550,107,122,102,102,86,86,10,25,10,11,0.5,0.7
2023-04-12T17:00:00,1655A,116.5491,35.4042,济宁市,电化厂,颗粒物(PM10),500,616,632,127,151,95,95,85,85,7,18,10,9,0.6,0.7
2023-04-12T17:00:00,1656A,117.1437,36.1937,泰安市,监测站,颗粒物(PM10),500,911,645,246,205,101,101,83,83,4,12,6,6,0.5,0.5
2023-04-12T17:00:00,1657A,117.0885,36.2017,泰安市,人口学校,颗粒物(PM10),500,889,652,185,161,98,98,83,83,8,8,7,6,0.5,0.5
2023-04-12T17:00:00,1658A,117.1089,36.1758,泰安市,电力学校,颗粒物(PM10),500,867,626,154,144,103,102,86,86,14,29,10,9,0.6,0.4
2023-04-12T17:00:00,1659A,119.471,35.4209,日照市,监测站,颗粒物(PM10),500,632,527,106,93,89,76,74,74,33,36,7,4,,0.3
2023-04-12T17:00:00,1660A,119.523,35.4216,日照市,市政府广场,颗粒物(PM10),483,583,513,100,91,90,90,83,83,14,22,3,4,0.2,0.3
2023-04-12T17:00:00,1661A,119.5587,35.4044,日照市,港务局,颗粒物(PM10),500,605,535,97,91,85,85,74,74,23,29,6,7,0.3,0.3
2023-04-12T17:00:00,1662A,122.1214,37.4236,威海市,华夏技校,颗粒物(PM10),196,342,280,54,40,98,98,90,90,10,11,3,3,0.3,0.3
2023-04-12T17:00:00,1663A,122.0508,37.5236,威海市,山大分校,颗粒物(PM10),200,349,324,44,37,100,93,92,92,12,10,2,3,0.4,0.4
2023-04-12T17:00:00,1664A,122.1067,37.5072,威海市,市监测站,颗粒物(PM10),111,171,276,29,38,96,83,84,84,21,16,5,6,0.4,0.4
2023-04-12T17:00:00,1666A,118.6614,37.4309,东营市,市环保局,颗粒物(PM10),500,708,453,132,78,126,113,97,97,28,27,13,12,0.4,0.3
2023-04-12T17:00:00,1669A,113.5824,24.7733,韶关市,市八中,颗粒物(PM10),51,51,68,28,45,134,131,101,101,9,25,12,17,0.6,1
2023-04-12T17:00:00,1671A,113.5917,24.7972,韶关市,园林处,,42,40,66,25,42,137,132,101,101,5,22,12,16,0.6,0.9
2023-04-12T17:00:00,1672A,113.6735,24.7791,韶关市,韶关学院,,45,36,61,25,40,146,141,100,100,12,24,11,17,0.6,1
2023-04-12T17:00:00,1673A,113.5971,24.6863,韶关市,曲江监测站,,45,45,66,30,33,153,137,105,105,15,28,12,12,0.8,1.1
2023-04-12T17:00:00,1674A,116.6794,23.3667,汕头市,金平子站,,44,44,44,24,26,143,118,112,112,10,21,4,6,0.7,0.8
2023-04-12T17:00:00,1675A,116.7244,23.3633,汕头市,龙湖子站,,,,,,,,,,,,,,,,
2023-04-12T17:00:00,1676A,116.7258,23.2775,汕头市,濠江子站,,36,36,48,15,27,128,105,106,106,13,25,7,8,0.6,0.8
2023-04-12T17:00:00,1677A,116.7519,23.4714,汕头市,澄海子站,,45,45,57,18,33,185,110,133,133,14,32,5,7,0.4,0.6
2023-04-12T17:00:00,1678A,116.6092,23.2539,汕头市,潮阳子站,颗粒物(PM10),61,71,51,16,25,133,110,115,115,14,20,8,10,0.5,0.6
2023-04-12T17:00:00,1680A,110.3539,21.2706,湛江市,湛江影剧院,,43,43,35,17,14,84,81,78,78,5,6,5,5,0.5,0.5
2023-04-12T17:00:00,1681A,110.3928,21.2228,湛江市,市环境监测站,,37,37,30,19,19,83,76,76,74,5,7,5,6,0.5,0.5
2023-04-12T17:00:00,1682A,110.4019,21.1997,湛江市,环保局宿舍,,35,35,30,16,16,84,83,78,78,6,7,4,4,0.4,0.4
2023-04-12T17:00:00,1683A,110.4111,21.2028,湛江市,霞山游泳场,,35,35,33,15,16,87,87,81,81,6,8,4,5,0.5,0.5
2023-04-12T17:00:00,1684A,110.3316,21.2679,湛江市,麻章区环保局,,30,30,35,14,17,87,78,81,77,14,10,5,5,0.5,0.5
2023-04-12T17:00:00,1685A,110.4558,21.2567,湛江市,坡头区环保局,,39,39,29,18,16,92,90,86,86,5,6,6,6,0.5,0.5
2023-04-12T17:00:00,1686A,111.0286,21.4688,茂名市,电白南海,,36,36,42,22,21,96,93,89,89,8,11,5,5,0.5,0.5
2023-04-12T17:00:00,1687A,110.9294,21.6533,茂名市,茂石化七小,,37,37,38,17,22,100,82,84,84,10,11,6,8,0.4,0.5
2023-04-12T17:00:00,1688A,110.9107,21.6687,茂名市,健康路,,34,34,35,13,15,99,85,85,85,9,10,5,7,0.5,0.6
2023-04-12T17:00:00,1689A,110.8592,21.6828,茂名市,高岭,,46,46,49,22,31,106,88,86,86,13,17,10,12,0.5,0.6
2023-04-12T17:00:00,1690A,116.1231,24.3284,梅州市,梅江月梅,,42,34,43,29,34,122,122,89,89,12,21,6,7,0.5,0.5
2023-04-12T17:00:00,1691A,116.0797,24.2719,梅州市,梅县新城,,46,42,49,32,38,137,137,91,91,11,33,4,5,0.6,0.6
2023-04-12T17:00:00,1692A,116.1248,24.2654,梅州市,环境监控中心,,47,47,46,25,34,136,136,101,101,9,28,7,9,0.6,0.6
2023-04-12T17:00:00,1693A,115.3653,22.775,汕尾市,市环保局,,35,35,31,10,16,86,86,78,78,2,11,8,8,0.6,0.6
2023-04-12T17:00:00,1694A,115.3706,22.7898,汕尾市,市政府,,,,37,,23,86,81,79,79,7,15,8,8,0.6,0.7
2023-04-12T17:00:00,1695A,115.3622,22.7925,汕尾市,新城中学,,38,38,35,15,16,81,81,74,74,3,10,5,5,0.6,0.7
2023-04-12T17:00:00,1696A,114.6778,23.7569,河源市,源西,,48,48,40,28,26,134,100,106,106,13,26,5,6,0.7,0.7
2023-04-12T17:00:00,1697A,114.6944,23.7586,河源市,东埔,,41,41,43,28,25,143,96,110,110,16,18,5,6,0.8,0.7
2023-04-12T17:00:00,1698A,114.6892,23.7233,河源市,老城,颗粒物(PM10),53,55,56,26,26,142,108,110,110,11,18,4,5,0.8,0.7
2023-04-12T17:00:00,1699A,111.9797,21.8593,阳江市,鸳鸯湖,,29,24,33,18,19,90,90,84,84,3,8,5,6,0.5,0.5
2023-04-12T17:00:00,1701A,111.9491,21.8658,阳江市,马南垌,,36,36,39,18,19,95,90,89,89,7,16,5,5,0.5,0.6
2023-04-12T17:00:00,1702A,113.0426,23.691,清远市,环保大楼,细颗粒物(PM2.5),55,48,71,39,38,172,162,118,118,31,46,5,5,1.1,1.4
2023-04-12T17:00:00,1703A,113.0208,23.7106,清远市,凤城街办,颗粒物(PM10),60,70,90,40,45,162,154,107,107,24,40,7,6,0.7,1
2023-04-12T17:00:00,1705A,116.6367,23.6719,潮州市,西园路,颗粒物(PM10),57,64,71,39,44,144,103,103,103,16,22,8,7,0.8,0.9
2023-04-12T17:00:00,1706A,116.6447,23.6706,潮州市,档案局,细颗粒物(PM2.5),64,62,70,46,47,157,109,113,113,13,21,10,10,0.6,0.8
2023-04-12T17:00:00,1708A,116.3701,23.5345,揭阳市,新兴,颗粒物(PM10),69,88,65,42,33,158,129,120,120,20,23,10,10,0.9,0.9
2023-04-12T17:00:00,1709A,116.3264,23.5443,揭阳市,西马,颗粒物(PM10),70,89,67,42,31,159,132,118,118,18,21,9,8,0.8,0.7
2023-04-12T17:00:00,1710A,116.3611,23.5626,揭阳市,东兴,颗粒物(PM10),73,96,72,43,35,160,134,124,124,12,18,8,7,0.9,0.9
2023-04-12T17:00:00,1711A,116.4151,23.5294,揭阳市,渔湖,颗粒物(PM10),71,91,64,47,33,162,128,122,122,12,18,10,10,0.7,0.8
2023-04-12T17:00:00,1712A,112.0392,22.9169,云浮市,新市府,,45,42,36,31,21,106,106,86,86,7,11,7,4,0.7,0.7
2023-04-12T17:00:00,1714A,112.0539,22.9539,云浮市,牧羊,,45,35,54,31,27,108,98,79,79,10,24,8,12,0.5,0.7
2023-04-12T17:00:00,1715A,102.575,24.3711,玉溪市,东风水库,颗粒物(PM10),60,70,91,36,75,174,151,157,157,16,20,5,8,0.8,1.2
2023-04-12T17:00:00,1718A,115.4208,35.2464,菏泽市,气象局,颗粒物(PM10),500,874,806,135,148,92,92,80,80,12,34,4,5,0.3,0.4
2023-04-12T17:00:00,1719A,115.4747,35.2375,菏泽市,市政协,颗粒物(PM10),500,878,812,147,156,92,92,79,79,9,34,4,7,0.4,0.5
2023-04-12T17:00:00,1721A,113.3819,40.1097,大同市,果树场,,,,,,,,,,,,,,,,
2023-04-12T17:00:00,1723A,113.2994,40.0758,大同市,云冈宾馆,颗粒物(PM10),176,302,249,78,52,105,79,77,77,34,37,15,17,0.6,0.9
2023-04-12T17:00:00,1724A,113.3444,40.0917,大同市,大同大学,颗粒物(PM10),172,294,245,74,50,102,80,78,78,28,35,15,17,0.4,0.4
2023-04-12T17:00:00,1725A,113.2661,40.1269,大同市,安家小村,颗粒物(PM10),186,322,247,70,49,106,106,76,76,10,30,8,12,0.2,0.9
2023-04-12T17:00:00,1726A,113.2711,40.0844,大同市,教育学院,颗粒物(PM10),171,291,232,66,48,91,75,69,69,34,40,13,17,0.4,0.8
2023-04-12T17:00:00,1727A,113.1147,36.1547,长治市,清华站,颗粒物(PM10),145,240,243,75,87,151,151,115,115,9,25,8,10,0.5,0.6
2023-04-12T17:00:00,1728A,113.1031,36.1989,长治市,监测站,颗粒物(PM10),164,277,235,92,84,137,137,103,103,15,26,6,9,0.5,0.6
2023-04-12T17:00:00,1730A,113.0886,36.2125,长治市,审计局,颗粒物(PM10),152,254,234,75,76,135,135,100,100,16,30,9,12,0.5,0.6
2023-04-12T17:00:00,1731A,113.0844,36.1856,长治市,长治八中,,,,,,,,,,,,,,,,
2023-04-12T17:00:00,1733A,111.5531,36.0783,临汾市,临钢医院,颗粒物(PM10),238,376,387,92,92,118,118,80,80,18,39,6,8,1.0,0.9
2023-04-12T17:00:00,1734A,111.5028,36.0714,临汾市,技工学校,颗粒物(PM10),229,370,373,105,97,122,122,85,85,17,31,6,14,0.8,0.9
2023-04-12T17:00:00,1736A,111.5018,36.0855,临汾市,市委,颗粒物(PM10),292,414,426,115,104,130,130,95,95,15,35,12,15,0.9,0.8
2023-04-12T17:00:00,1738A,113.5758,37.8572,阳泉市,市中心,,,,193,,54,98,78,60,60,,56,11,11,0.7,0.6
2023-04-12T17:00:00,1739A,113.4894,37.8731,阳泉市,赛鱼,颗粒物(PM10),163,276,185,80,54,94,87,59,59,30,55,10,10,0.7,0.6
2023-04-12T17:00:00,1740A,113.5819,37.8486,阳泉市,南庄,颗粒物(PM10),196,342,230,97,56,102,76,60,60,48,44,12,12,0.7,0.5
2023-04-12T17:00:00,1742A,113.5614,37.8703,阳泉市,平坦,颗粒物(PM10),310,428,220,108,59,100,64,56,56,36,56,11,11,0.8,0.6
2023-04-12T17:00:00,1743A,113.5158,37.8392,阳泉市,大阳泉,颗粒物(PM10),136,221,191,85,50,102,99,82,67,20,26,7,8,0.6,0.6
2023-04-12T17:00:00,1744A,118.9233,42.2816,赤峰市,松山一中,细颗粒物(PM2.5),72,58,154,52,25,91,89,87,87,18,14,9,8,0.6,0.4
2023-04-12T17:00:00,1745A,118.9576,42.2728,赤峰市,哈达街,颗粒物(PM10),61,72,187,17,26,90,84,84,84,22,13,12,10,0.4,0.4
2023-04-12T17:00:00,1746A,118.8788,42.2554,赤峰市,天义路,颗粒物(PM10),55,59,177,11,24,99,94,96,96,16,9,11,10,0.4,0.4
2023-04-12T17:00:00,1748A,123.044,41.1196,鞍山市,深沟寺,颗粒物(PM10),124,197,321,36,47,96,90,90,90,18,18,14,14,1.4,1.1
2023-04-12T17:00:00,1749A,123.011,41.0931,鞍山市,太阳城,颗粒物(PM10),117,183,305,35,39,92,84,86,86,22,17,14,10,1.5,0.9
2023-04-12T17:00:00,1750A,123.0485,41.1442,鞍山市,太平,颗粒物(PM10),115,179,340,48,51,91,85,80,80,21,22,15,17,1.5,1.2
2023-04-12T17:00:00,1751A,122.9642,41.0971,鞍山市,铁西三道街,颗粒物(PM10),129,208,329,34,47,92,91,86,86,21,26,8,8,1.0,0.8
2023-04-12T17:00:00,1752A,122.9341,41.0833,鞍山市,铁西工业园区,颗粒物(PM10),143,235,318,37,50,96,94,90,90,19,27,12,10,0.9,0.8
2023-04-12T17:00:00,1753A,123.022,41.0821,鞍山市,明达新区,颗粒物(PM10),131,211,320,31,38,95,91,88,88,21,20,14,10,1.3,0.8
2023-04-12T17:00:00,1754A,123.1289,41.0228,鞍山市,千山,,,,,,,,,,,,,,,,
2023-04-12T17:00:00,1755A,123.7977,41.8491,抚顺市,望花区,颗粒物(PM10),108,166,338,35,50,106,101,98,98,19,24,9,20,0.7,1
2023-04-12T17:00:00,1756A,123.9161,41.8822,抚顺市,顺城区,,,,316,,36,106,101,99,99,17,18,7,9,0.3,0.3
2023-04-12T17:00:00,1757A,124.0436,41.8611,抚顺市,东洲区,颗粒物(PM10),97,144,318,31,41,108,105,98,98,9,11,6,6,0.5,0.6
2023-04-12T17:00:00,1758A,123.9247,41.8642,抚顺市,新抚区,颗粒物(PM10),97,143,305,31,42,105,104,96,96,12,16,9,10,0.6,0.5
2023-04-12T17:00:00,1759A,124.0972,41.8961,抚顺市,大伙房水库,颗粒物(PM10),98,145,359,31,43,117,116,107,107,6,11,10,8,0.3,0.4
2023-04-12T17:00:00,1760A,123.7086,41.8391,抚顺市,沈抚新城,颗粒物(PM10),111,171,335,31,41,110,105,101,101,12,13,8,8,0.2,0.1
2023-04-12T17:00:00,1761A,123.8275,41.3064,本溪市,大峪,颗粒物(PM10),94,137,344,22,39,82,79,77,77,13,14,8,9,1.0,1
2023-04-12T17:00:00,1762A,123.7567,41.3325,本溪市,溪湖,颗粒物(PM10),112,174,334,18,36,97,96,92,92,10,12,10,11,0.5,0.5
2023-04-12T17:00:00,1763A,123.7169,41.3094,本溪市,彩屯,颗粒物(PM10),101,152,302,16,30,96,96,91,91,10,14,8,9,0.7,0.8
2023-04-12T17:00:00,1764A,123.7669,41.2864,本溪市,东明,颗粒物(PM10),95,140,361,22,40,82,76,77,77,30,23,20,24,1.4,1.2
2023-04-12T17:00:00,1765A,123.7992,41.2664,本溪市,新立屯,颗粒物(PM10),91,132,315,19,35,94,94,89,89,11,18,6,7,0.3,0.8
2023-04-12T17:00:00,1766A,123.8142,41.3472,本溪市,威宁,颗粒物(PM10),95,140,414,27,44,88,82,83,83,20,20,12,10,0.8,0.8
2023-04-12T17:00:00,1767A,121.1115,41.0879,锦州市,南山,颗粒物(PM10),352,461,333,92,57,100,96,94,94,20,16,8,11,0.5,0.5
2023-04-12T17:00:00,1768A,121.0533,40.8434,锦州市,开发区,颗粒物(PM10),478,578,443,112,65,99,88,81,81,27,26,14,15,0.5,0.4
2023-04-12T17:00:00,1769A,121.1836,41.1119,锦州市,百股街道,颗粒物(PM10),408,508,358,90,58,100,96,90,90,20,18,8,10,0.5,0.5
2023-04-12T17:00:00,1770A,121.1178,41.1222,锦州市,天安街道,颗粒物(PM10),400,500,351,108,59,108,101,98,98,18,18,10,19,0.4,0.7
2023-04-12T17:00:00,1771A,121.1303,41.1386,锦州市,北湖公园,颗粒物(PM10),339,451,343,92,56,102,99,93,93,20,14,11,21,0.5,0.5
2023-04-12T17:00:00,1772A,126.54,43.8622,吉林市,哈达湾,颗粒物(PM10),105,160,271,23,32,95,94,90,90,8,6,4,4,0.4,0.5
2023-04-12T17:00:00,1773A,126.5844,43.8358,吉林市,东局子,颗粒物(PM10),101,151,280,23,30,96,92,88,88,10,7,5,5,0.5,0.5
2023-04-12T17:00:00,1774A,126.5052,43.8245,吉林市,电力学院,颗粒物(PM10),102,154,268,21,30,100,98,94,94,7,4,7,7,0.6,0.5
2023-04-12T17:00:00,1775A,126.6133,43.8972,吉林市,江北,颗粒物(PM10),90,129,218,19,30,94,91,88,88,16,8,8,7,0.5,0.5
2023-04-12T17:00:00,1776A,126.555,43.8306,吉林市,江南公园,颗粒物(PM10),94,137,258,20,31,94,92,88,88,11,9,4,4,0.4,0.4
2023-04-12T17:00:00,1778A,126.7061,43.7133,吉林市,丰满,,,,,,,,,,,,,,,,
2023-04-12T17:00:00,1779A,123.9305,47.3636,齐齐哈尔市,安居小区,,28,24,56,16,15,88,87,85,85,5,5,1,1,0.2,0.2
2023-04-12T17:00:00,1780A,123.9488,47.3386,齐齐哈尔市,中心广场,,28,28,43,2,4,85,84,83,83,9,7,5,5,0.4,0.3
2023-04-12T17:00:00,1781A,123.9483,47.3227,齐齐哈尔市,农牧车辆厂,,36,36,64,2,7,83,80,80,80,11,7,4,4,0.2,0.2
2023-04-12T17:00:00,1783A,123.945,47.2988,齐齐哈尔市,市环境监测站,,,56,68,51,28,85,82,82,82,7,6,3,3,,0.1
2023-04-12T17:00:00,1784A,129.61,44.561,牡丹江市,环保大楼,颗粒物(PM10),70,90,394,12,36,87,84,82,82,8,6,3,3,0.3,0.3
2023-04-12T17:00:00,1785A,129.6115,44.5782,牡丹江市,文化广场,颗粒物(PM10),67,84,400,22,34,85,79,80,80,13,9,6,6,0.3,0.3
2023-04-12T17:00:00,1786A,129.5904,44.5963,牡丹江市,第一医院,颗粒物(PM10),78,106,446,29,44,86,84,81,81,6,4,1,1,0.3,0.3
2023-04-12T17:00:00,1787A,129.6364,44.6075,牡丹江市,机车工厂,颗粒物(PM10),67,83,417,15,39,87,84,82,82,6,7,3,3,0.4,0.3
2023-04-12T17:00:00,1788A,129.6386,44.5462,牡丹江市,第一中学,颗粒物(PM10),72,93,390,13,43,88,87,83,83,5,4,3,3,0.3,0.3
2023-04-12T17:00:00,1789A,124.81117,46.03138,大庆市,大同区,颗粒物(PM10),54,58,188,8,22,85,85,80,80,3,3,3,3,0.4,0.4
2023-04-12T17:00:00,1790A,125.129,46.533,大庆市,龙凤区,细颗粒物(PM2.5),53,54,72,37,14,84,82,80,80,11,13,1,2,0.4,0.4
2023-04-12T17:00:00,1791A,124.902,46.408,大庆市,红岗区,颗粒物(PM10),51,52,82,16,14,85,83,82,82,10,6,4,4,0.3,0.3
2023-04-12T17:00:00,1792A,125.153,46.586,大庆市,萨尔图区,颗粒物(PM10),55,59,86,8,15,80,76,76,76,8,6,6,5,0.2,0.2
2023-04-12T17:00:00,1793A,124.9042,46.6215,大庆市,让胡路区,颗粒物(PM10),55,59,72,3,12,82,81,79,79,6,4,4,4,0.6,0.3
2023-04-12T17:00:00,1794A,118.3606,31.3519,芜湖市,监测站,颗粒物(PM10),260,392,486,90,100,118,114,104,104,22,26,7,6,0.5,0.5
2023-04-12T17:00:00,1795A,118.3714,31.4134,芜湖市,科创中心,颗粒物(PM10),230,371,569,116,111,115,91,100,100,23,20,6,5,0.6,0.6
2023-04-12T17:00:00,1796A,118.3673,31.3131,芜湖市,四水厂,颗粒物(PM10),324,439,627,90,109,120,117,109,109,24,29,10,8,0.4,0.5
2023-04-12T17:00:00,1798A,118.5092,31.6837,马鞍山市,湖东路四小,颗粒物(PM10),190,330,535,110,116,148,94,96,96,19,14,6,6,0.5,0.6
2023-04-12T17:00:00,1799A,118.5024,31.6449,马鞍山市,开发区,细颗粒物(PM2.5),115,,661,87,107,150,98,96,96,24,23,4,5,0.5,0.5
2023-04-12T17:00:00,1800A,118.5228,31.7231,马鞍山市,慈湖,细颗粒物(PM2.5),140,,620,107,167,142,93,97,97,28,21,10,8,0.6,0.6
2023-04-12T17:00:00,1802A,118.6245,31.7241,马鞍山市,濮塘,颗粒物(PM10),189,328,505,97,126,142,93,97,97,22,16,4,5,0.9,1
2023-04-12T17:00:00,1803A,115.9872,29.6815,九江市,十里,颗粒物(PM10),200,350,329,68,72,154,154,111,111,14,21,10,11,0.8,0.7
2023-04-12T17:00:00,1804A,115.9584,29.7046,九江市,茅山头,颗粒物(PM10),183,315,351,79,92,142,139,111,111,23,20,14,13,0.8,0.8
2023-04-12T17:00:00,1805A,115.9877,29.7295,九江市,西园,颗粒物(PM10),177,304,322,80,85,146,146,117,117,21,25,11,11,0.7,0.6
2023-04-12T17:00:00,1806A,116.0172,29.6547,九江市,五七二七厂,颗粒物(PM10),190,330,295,85,73,152,152,112,112,13,13,14,11,0.8,0.7
2023-04-12T17:00:00,1808A,115.9114,29.6038,九江市,综合工业园,颗粒物(PM10),206,354,336,86,84,144,138,112,112,34,34,12,12,0.9,0.8
2023-04-12T17:00:00,1809A,116.0721,29.7535,九江市,石化总厂,颗粒物(PM10),246,382,356,97,89,143,143,106,106,19,27,13,12,0.7,0.7
2023-04-12T17:00:00,1810A,115.9773,29.5698,九江市,庐山气象台,颗粒物(PM10),82,114,64,35,38,143,126,132,118,16,16,7,7,0.6,0.7
2023-04-12T17:00:00,1812A,112.3931,34.6516,洛阳市,市委党校,颗粒物(PM10),500,773,635,176,160,95,83,70,70,33,39,11,13,0.7,0.7
2023-04-12T17:00:00,1814A,112.4657,34.6871,洛阳市,豫西宾馆,颗粒物(PM10),500,874,697,174,156,90,81,67,67,27,35,6,10,0.6,0.7
2023-04-12T17:00:00,1815A,112.494,34.6886,洛阳市,河南林校,颗粒物(PM10),500,870,667,178,156,93,86,68,68,28,41,10,12,0.6,0.6
2023-04-12T17:00:00,1816A,112.3844,34.623,洛阳市,开发区管委会,颗粒物(PM10),500,734,586,159,147,110,94,76,76,28,31,9,9,0.5,0.4
2023-04-12T17:00:00,1817A,112.4267,34.6258,洛阳市,市委新办公区,颗粒物(PM10),500,789,624,205,187,95,80,67,67,31,43,9,9,0.7,0.6
2023-04-12T17:00:00,1818A,114.4839,36.0621,安阳市,棉研所,,,,,,,,,,,,,,,,
2023-04-12T17:00:00,1819A,114.3551,36.1017,安阳市,红庙街,颗粒物(PM10),500,890,878,136,176,107,107,72,72,12,31,10,13,0.4,0.5
2023-04-12T17:00:00,1820A,114.361,36.0681,安阳市,银杏小区,颗粒物(PM10),500,855,877,134,154,102,102,68,68,11,32,9,13,0.4,0.4
2023-04-12T17:00:00,1824A,114.3389,34.7781,开封市,肿瘤医院,颗粒物(PM10),500,669,865,111,163,118,115,89,89,5,26,8,10,0.6,0.6
2023-04-12T17:00:00,1826A,114.2885,34.7965,开封市,世纪星幼儿园,颗粒物(PM10),500,679,841,120,173,110,109,83,83,8,22,6,8,0.5,0.5
2023-04-12T17:00:00,1828A,113.227,35.2125,焦作市,市环保局,颗粒物(PM10),500,861,697,145,140,104,104,76,76,18,25,9,14,0.5,0.6
2023-04-12T17:00:00,1830A,113.1992,35.2590,焦作市,影视城,,,,,,,,,,,,,,,,
2023-04-12T17:00:00,1832A,113.3257,33.742,平顶山市,新华旅馆,颗粒物(PM10),481,581,776,139,189,102,102,75,75,13,34,6,12,0.5,0.4
2023-04-12T17:00:00,1833A,113.2919,33.737,平顶山市,规划设计院,颗粒物(PM10),500,668,848,133,180,97,97,72,72,20,37,8,14,0.6,0.5
2023-04-12T17:00:00,1834A,113.182,33.774,平顶山市,平顶山工学院,颗粒物(PM10),500,729,810,136,159,103,102,77,77,13,27,9,8,0.4,0.4
2023-04-12T17:00:00,1835A,111.1922,34.7752,三门峡市,市政府,颗粒物(PM10),500,616,491,153,131,131,131,92,92,15,36,11,12,0.4,0.5
2023-04-12T17:00:00,1836A,111.1587,34.7942,三门峡市,开发区,颗粒物(PM10),500,636,519,158,130,135,135,94,94,17,31,10,11,0.5,0.5
2023-04-12T17:00:00,1838A,111.143,34.7955,三门峡市,风景区,,,,,,,,,,,,,,,,
2023-04-12T17:00:00,1840A,111.2992,30.6981,宜昌市,白龙岗,颗粒物(PM10),157,264,204,66,52,136,136,93,93,27,35,10,8,0.6,0.6
2023-04-12T17:00:00,1841A,111.3549,30.6465,宜昌市,伍家岗,颗粒物(PM10),168,286,195,70,56,146,143,105,105,,51,12,8,0.5,0.7
2023-04-12T17:00:00,1842A,111.2628,30.6961,宜昌市,点军区,颗粒物(PM10),157,263,192,61,51,142,106,97,97,69,33,12,8,0.5,0.6
2023-04-12T17:00:00,1843A,111.3275,30.7819,宜昌市,夷陵区,颗粒物(PM10),141,231,180,63,51,135,133,109,109,26,33,9,7,0.6,0.5
2023-04-12T17:00:00,1844A,112.2494,30.3197,荆州市,市图书馆,颗粒物(PM10),184,317,335,109,98,169,157,124,124,23,28,11,9,0.9,0.8
2023-04-12T17:00:00,1845A,112.2008,30.3544,荆州市,市委党校,颗粒物(PM10),210,357,320,93,86,163,163,119,119,21,28,13,11,0.9,0.8
2023-04-12T17:00:00,1847A,113.1094,29.3578,岳阳市,南湖风景区,颗粒物(PM10),106,162,244,47,64,153,151,129,129,8,23,8,12,0.6,0.6
2023-04-12T17:00:00,1848A,113.1493,29.4251,岳阳市,城陵矶,颗粒物(PM10),157,264,309,76,88,152,149,112,112,20,35,6,9,0.7,0.7
2023-04-12T17:00:00,1849A,113.1497,29.3575,岳阳市,开发区,颗粒物(PM10),111,172,227,61,66,160,160,137,137,10,21,9,11,0.6,0.6
2023-04-12T17:00:00,1850A,113.2621,29.4758,岳阳市,云溪区,,,,281,,73,168,168,146,146,,26,10,14,0.7,0.7
2023-04-12T17:00:00,1851A,112.9943,29.4402,岳阳市,君山区,颗粒物(PM10),139,228,314,66,77,159,152,115,115,11,13,7,7,0.6,0.5
2023-04-12T17:00:00,1852A,113.2117,29.355,岳阳市,金凤水库,颗粒物(PM10),124,197,209,51,52,157,157,129,129,13,18,8,9,0.6,0.7
2023-04-12T17:00:00,1854A,111.6975,28.9703,常德市,市二中,,,,253,,72,144,137,117,117,18,13,10,11,,0.5
2023-04-12T17:00:00,1857A,111.7158,29.1456,常德市,白鹤山,颗粒物(PM10),242,379,321,101,76,151,151,122,122,5,4,10,10,0.4,0.4
2023-04-12T17:00:00,1858A,110.5319,29.1217,张家界市,永定新区,颗粒物(PM10),145,239,133,61,52,135,135,120,120,9,17,5,4,,0.3
2023-04-12T17:00:00,1859A,110.4697,29.1242,张家界市,电业局,颗粒物(PM10),139,227,123,54,51,134,134,114,114,9,20,10,8,0.3,0.5
2023-04-12T17:00:00,1860A,110.5594,29.3547,张家界市,未央路,颗粒物(PM10),152,253,138,62,48,140,130,124,124,7,11,9,7,0.5,0.5
2023-04-12T17:00:00,1861A,110.4417,29.315,张家界市,袁家界,颗粒物(PM10),115,180,134,56,47,152,133,128,128,8,8,7,6,0.6,0.8
2023-04-12T17:00:00,1862A,110.4144,25.3167,桂林市,电子科大尧山校区,,40,35,30,28,22,90,90,67,67,7,12,4,6,0.8,0.8
2023-04-12T17:00:00,1863A,110.2819,25.2697,桂林市,监测站,颗粒物(PM10),52,53,49,31,32,89,89,51,51,12,31,5,12,0.8,1.1
2023-04-12T17:00:00,1864A,110.3089,25.2708,桂林市,龙隐路小学,,,39,39,33,31,91,91,47,47,7,28,,14,0.7,1
2023-04-12T17:00:00,1865A,110.2869,25.2178,桂林市,八中,颗粒物(PM10),52,54,44,31,31,87,87,46,46,11,30,4,12,0.7,0.9
2023-04-12T17:00:00,1866A,109.2262,21.588,北海市,牛尾岭水库,,40,33,35,28,20,86,83,76,76,6,13,8,9,0.6,0.6
2023-04-12T17:00:00,1867A,109.1436,21.4086,北海市,海滩公园,,40,40,36,20,17,92,88,81,81,5,7,2,3,0.5,0.6
2023-04-12T17:00:00,1868A,109.0981,21.4661,北海市,新市环保局,,43,43,42,19,20,92,84,78,78,8,13,2,3,0.6,0.6
2023-04-12T17:00:00,1869A,109.1778,21.5233,北海市,北海工业园,颗粒物(PM10),53,55,47,24,24,94,83,78,78,5,14,4,7,0.6,0.7
2023-04-12T17:00:00,1870A,109.4856,24.3895,柳州市,柳东小学,细颗粒物(PM2.5),67,44,26,48,28,123,123,80,80,5,15,5,6,0.7,0.9
2023-04-12T17:00:00,1871A,109.4157,24.3277,柳州市,环保监测站,,46,43,48,32,29,113,113,71,71,12,26,4,6,0.8,1.1
2023-04-12T17:00:00,1872A,109.389,24.341,柳州市,河西水厂,,36,33,45,25,25,111,111,68,68,13,25,8,11,0.9,1.2
2023-04-12T17:00:00,1873A,109.4311,24.2921,柳州市,市四中,,,,53,,27,113,113,71,71,,26,6,8,,1.2
2023-04-12T17:00:00,1874A,109.4006,24.3631,柳州市,市九中,,50,50,49,25,27,109,109,73,73,12,24,6,8,1.0,1.2
2023-04-12T17:00:00,1875A,109.4958,24.3134,柳州市,古亭山,颗粒物(PM10),53,55,42,36,29,108,108,53,53,7,22,3,3,0.9,1.3
2023-04-12T17:00:00,1876A,109.5078,18.2489,三亚市,河东子站,,38,38,37,21,21,86,72,75,75,5,6,2,2,0.6,0.6
2023-04-12T17:00:00,1877A,109.4964,18.2681,三亚市,河西子站,,42,42,39,22,20,82,70,71,71,6,6,2,2,0.5,0.5
2023-04-12T17:00:00,1878A,104.7778,31.4741,绵阳市,富乐山,细颗粒物(PM2.5),68,68,84,49,49,218,143,138,138,10,29,4,5,0.6,0.7
2023-04-12T17:00:00,1879A,104.7563,31.4535,绵阳市,市人大,颗粒物(PM10),62,73,99,24,56,195,127,120,120,12,65,6,6,0.7,0.9
2023-04-12T17:00:00,1880A,104.6697,31.4668,绵阳市,高新区自来水公司,颗粒物(PM10),51,51,104,34,49,222,142,134,134,7,55,6,7,0.6,0.7
2023-04-12T17:00:00,1881A,104.7287,31.5075,绵阳市,三水厂,细颗粒物(PM2.5),67,74,109,48,61,216,144,134,134,8,59,6,6,0.6,0.9
2023-04-12T17:00:00,1882A,104.563,28.793,宜宾市,石马中学,,43,36,59,27,36,156,135,109,109,11,27,4,7,0.6,0.6
2023-04-12T17:00:00,1883A,104.6201,28.7728,宜宾市,市委,,45,45,66,31,41,159,134,104,104,10,34,6,9,0.6,0.6
2023-04-12T17:00:00,1884A,104.6055,28.793,宜宾市,宜宾四中,,49,49,69,32,42,154,136,106,106,7,32,8,10,0.6,0.6
2023-04-12T17:00:00,1885A,104.639,28.7562,宜宾市,市政府,,50,50,64,34,40,162,136,109,109,13,37,7,9,0.7,0.7
2023-04-12T17:00:00,1886A,104.5742,28.7199,宜宾市,黄金嘴,,46,46,62,32,37,158,135,105,105,13,36,8,9,0.6,0.5
2023-04-12T17:00:00,1888A,101.6891,26.571,攀枝花市,弄弄坪,细颗粒物(PM2.5),60,58,73,43,50,178,130,143,141,25,20,35,20,2.3,1.3
2023-04-12T17:00:00,1889A,101.5769,26.5928,攀枝花市,河门口,,50,46,77,31,48,174,157,143,143,11,26,8,14,0.5,1
2023-04-12T17:00:00,1890A,101.7169,26.585,攀枝花市,炳草岗,臭氧1小时,53,46,77,28,45,181,162,149,149,15,48,12,16,0.9,1.3
2023-04-12T17:00:00,1891A,101.7369,26.5008,攀枝花市,仁和,臭氧1小时,67,52,66,37,47,179,173,162,162,9,17,6,8,0.8,0.9
2023-04-12T17:00:00,1893A,105.4324,28.9634,泸州市,九狮山,,38,19,40,18,26,156,119,94,94,8,18,6,8,0.4,0.6
2023-04-12T17:00:00,1894A,105.4427,28.9063,泸州市,小市上码头,,36,36,65,22,34,150,105,88,84,8,18,8,11,0.6,0.6
2023-04-12T17:00:00,1895A,105.4241,28.8573,泸州市,兰田宪桥,,38,38,67,23,36,154,109,89,89,6,22,6,10,0.6,0.7
2023-04-12T17:00:00,1896A,105.4379,28.8833,泸州市,市环监站,,33,33,59,12,27,143,103,82,78,12,27,5,12,0.7,0.6
2023-04-12T17:00:00,1901A,104.4239,31.1208,德阳市,东山公园,,,47,70,39,48,217,150,156,134,,26,4,4,0.6,0.6
2023-04-12T17:00:00,1902A,104.3826,31.1317,德阳市,西小区,细颗粒物(PM2.5),52,49,87,36,56,203,142,134,134,11,42,3,4,0.6,0.7
2023-04-12T17:00:00,1904A,104.3553,31.1091,德阳市,耐火材料厂,细颗粒物(PM2.5),55,50,87,39,57,223,152,144,144,6,35,3,4,0.5,0.6
2023-04-12T17:00:00,1905A,106.056,30.8064,南充市,西山风景区,,,,,,,,,,,,,,,,
2023-04-12T17:00:00,1906A,106.0789,30.8023,南充市,南充市委,,48,48,84,26,42,175,96,80,80,11,41,8,9,0.5,0.7
2023-04-12T17:00:00,1907A,106.1031,30.8217,南充市,南充炼油厂,,41,41,85,22,44,175,93,88,81,8,36,8,10,0.5,0.7
2023-04-12T17:00:00,1908A,106.1064,30.7856,南充市,高坪区监测站,,46,26,77,32,46,170,92,73,73,10,42,9,14,0.5,0.8
2023-04-12T17:00:00,1909A,106.0642,30.7636,南充市,嘉陵区环保局,,,34,80,,49,177,97,79,79,10,50,9,14,0.4,0.7
2023-04-12T17:00:00,1910A,106.1087,30.8388,南充市,市环境监测站,,44,44,76,29,22,166,90,84,78,9,30,9,11,0.5,0.6
2023-04-12T17:00:00,1911A,106.9222,27.6869,遵义市,丁字口,,30,25,38,21,27,128,85,93,91,14,20,7,9,0.8,0.8
2023-04-12T17:00:00,1912A,106.9242,27.7019,遵义市,凤凰山,,,41,46,24,29,150,95,108,99,9,11,,15,0.7,0.7
2023-04-12T17:00:00,1913A,106.8906,27.6486,遵义市,忠庄,,43,40,52,30,27,135,84,87,85,9,14,1,3,0.8,0.7
2023-04-12T17:00:00,1914A,106.9231,27.6506,遵义市,舟水桥,,33,33,44,23,25,142,91,96,96,12,17,2,2,0.9,0.9
2023-04-12T17:00:00,1915A,106.9178,27.72,遵义市,干田坝,,39,39,46,15,24,143,95,102,97,9,20,6,6,0.5,0.6
2023-04-12T17:00:00,1916A,103.7897,25.5035,曲靖市,环境监测站,臭氧1小时,73,74,77,21,44,187,178,163,163,8,14,8,14,0.5,0.9
2023-04-12T17:00:00,1917A,103.8,25.5364,曲靖市,烟厂办公区,臭氧1小时,92,52,68,20,38,204,193,178,178,7,12,3,9,0.4,0.8
2023-04-12T17:00:00,1918A,108.7197,34.3956,咸阳市,气象站,颗粒物(PM10),199,348,434,120,129,124,124,92,92,29,46,7,8,0.7,0.7
2023-04-12T17:00:00,1919A,108.673,34.3155,咸阳市,实验中学,颗粒物(PM10),212,358,443,122,142,139,139,100,100,25,38,11,10,0.9,0.7
2023-04-12T17:00:00,1920A,108.7233,34.3617,咸阳市,师范学院,颗粒物(PM10),194,337,418,104,120,131,131,94,94,21,39,12,12,0.8,0.6
2023-04-12T17:00:00,1922A,109.0656,35.0994,铜川市,党校,颗粒物(PM10),174,298,407,71,97,70,69,50,50,27,34,12,10,0.8,0.6
2023-04-12T17:00:00,1923A,109.0697,35.0697,铜川市,王益区政府,颗粒物(PM10),146,241,325,71,93,129,118,103,103,31,29,10,12,0.8,0.5
2023-04-12T17:00:00,1924A,108.9344,34.9058,铜川市,新区管委会,颗粒物(PM10),165,280,382,91,120,142,142,108,108,19,25,10,10,0.6,0.5
2023-04-12T17:00:00,1926A,109.4131,36.6275,延安市,枣园,颗粒物(PM10),129,207,260,54,65,130,130,88,88,12,37,9,7,0.6,0.5
2023-04-12T17:00:00,1927A,109.4761,36.6028,延安市,延大医附院,颗粒物(PM10),135,219,277,62,76,147,147,87,87,7,33,6,5,0.4,0.7
2023-04-12T17:00:00,1929A,109.5056,36.6106,延安市,百米大道,颗粒物(PM10),128,206,295,76,88,135,129,93,93,20,44,8,9,0.6,0.5
2023-04-12T17:00:00,1930A,107.185,34.3063,宝鸡市,庙沟村,颗粒物(PM10),188,325,480,104,124,122,118,89,89,22,27,13,10,0.6,0.5
2023-04-12T17:00:00,1931A,107.0708,34.3017,宝鸡市,竹园沟,颗粒物(PM10),226,368,451,118,123,133,128,96,96,27,25,14,10,0.7,0.6
2023-04-12T17:00:00,1932A,107.1906,34.3672,宝鸡市,三陆医院,颗粒物(PM10),229,370,512,122,171,122,116,90,90,27,33,12,11,0.7,0.6
2023-04-12T17:00:00,1933A,107.1431,34.3547,宝鸡市,监测站,颗粒物(PM10),238,376,498,127,146,122,115,88,88,28,29,11,8,0.6,0.5
2023-04-12T17:00:00,1934A,107.1186,34.3739,宝鸡市,技工学校,颗粒物(PM10),202,351,490,126,153,122,117,89,89,27,27,11,9,0.6,0.5
2023-04-12T17:00:00,1935A,107.3906,34.3528,宝鸡市,陈仓区环保局家属楼,颗粒物(PM10),212,358,483,130,127,112,109,87,87,34,39,11,12,0.7,0.6
2023-04-12T17:00:00,1936A,107.2058,34.3497,宝鸡市,文理学院,颗粒物(PM10),275,402,540,116,137,121,116,89,89,31,35,14,11,0.7,0.5
2023-04-12T17:00:00,1937A,107.2386,34.3622,宝鸡市,三迪小学,颗粒物(PM10),226,368,543,114,152,117,117,87,87,31,38,16,13,0.5,0.4
2023-04-12T17:00:00,1938A,109.5293,34.5101,渭南市,农科所,颗粒物(PM10),279,405,426,107,112,120,120,81,81,17,35,15,14,0.5,0.5
2023-04-12T17:00:00,1939A,109.4974,34.4877,渭南市,日报社,颗粒物(PM10),262,393,414,158,126,128,128,87,87,17,37,12,12,0.6,0.5
2023-04-12T17:00:00,1940A,109.4636,34.493,渭南市,体育馆,颗粒物(PM10),272,400,434,183,155,128,128,89,89,16,38,14,14,0.7,0.6
2023-04-12T17:00:00,1941A,109.4259,34.5023,渭南市,高新一小,颗粒物(PM10),285,409,427,169,158,128,128,90,90,17,35,10,9,0.6,0.5
2023-04-12T17:00:00,1943A,102.1725,38.5339,金昌市,新川苑,颗粒物(PM10),76,102,158,10,31,115,96,92,92,13,26,8,13,0.4,0.6
2023-04-12T17:00:00,1944A,102.1692,38.5167,金昌市,天庆家园,颗粒物(PM10),57,64,114,10,27,114,98,99,99,8,25,7,10,0.4,0.7
2023-04-12T17:00:00,1945A,98.2908,39.7711,嘉峪关市,气象局,颗粒物(PM10),69,88,111,24,27,132,121,106,106,9,23,19,14,0.6,0.5
2023-04-12T17:00:00,1947A,106.3394,38.817,石嘴山市,沙湖旅游区,颗粒物(PM10),195,339,322,73,80,145,137,98,98,15,40,19,42,0.5,1.3
2023-04-12T17:00:00,1948A,106.3668,39.0145,石嘴山市,大武口朝阳西街,,,,304,,75,119,115,77,77,31,46,,61,,0.9
2023-04-12T17:00:00,1949A,106.7704,39.2282,石嘴山市,惠农南大街,细颗粒物(PM2.5),218,267,269,168,103,142,142,92,92,52,44,60,31,2.2,0.9
2023-04-12T17:00:00,1950A,106.7099,39.1325,石嘴山市,红果子镇惠新街,颗粒物(PM10),144,238,262,74,80,137,137,90,90,29,42,34,34,1.5,0.9
2023-04-12T17:00:00,1951A,84.895,45.6094,克拉玛依市,长征新村,,29,14,10,3,4,92,92,89,84,1,3,6,6,0.1,0.1
2023-04-12T17:00:00,1952A,84.8988,45.5893,克拉玛依市,南林小区,,29,25,11,8,8,92,92,87,84,3,4,2,2,0.2,0.2
2023-04-12T17:00:00,1954A,84.905,44.3396,克拉玛依市,独山子区,,32,12,25,3,8,103,100,93,93,2,4,6,6,0.2,0.2
2023-04-12T17:00:00,1955A,85.6979,46.098,克拉玛依市,乌尔禾区商贸楼,,,20,20,3,6,91,,81,81,4,6,9,9,0.2,0.3
2023-04-12T17:00:00,1956A,86.1472,41.7538,巴音郭楞州,孔雀公园,颗粒物(PM10),54,57,175,4,40,105,104,91,91,5,29,3,4,0.2,0.4
2023-04-12T17:00:00,1957A,86.1972,41.7166,巴音郭楞州,棉纺厂,,32,31,245,11,54,103,100,89,89,3,21,3,3,0.2,0.3
2023-04-12T17:00:00,1958A,86.2357,41.7173,巴音郭楞州,经济开发区,,34,27,176,4,37,110,108,99,99,3,12,5,5,0.2,0.2
2023-04-12T17:00:00,1961A,117.532,36.6868,济南市,东山小学,颗粒物(PM10),500,808,710,151,153,100,100,86,86,10,30,5,6,0.5,0.6
2023-04-12T17:00:00,1966A,120.0405,35.8735,青岛市,黄岛区4号,,,,523,,86,92,92,83,83,11,39,5,6,0.4,0.5
2023-04-12T17:00:00,1982A,122.0693,37.2174,威海市,文登开发区,颗粒物(PM10),276,403,306,53,42,95,82,86,86,18,17,3,4,0.2,0.3
2023-04-12T17:00:00,2031A,113.1817,27.9958,株洲市,云田中学,,,,39,,40,140,,118,118,4,15,,6,0.6,0.6
2023-04-12T17:00:00,2054A,114.1099,32.1059,信阳市,平桥分局,颗粒物(PM10),384,487,753,130,173,131,,80,80,15,24,11,11,0.4,0.3
2023-04-12T17:00:00,2064A,113.9956,32.1271,信阳市,南湾水厂,颗粒物(PM10),400,500,694,129,167,133,132,92,92,18,17,10,10,0.6,0.4
2023-04-12T17:00:00,2065A,114.0775,32.1195,信阳市,市酿酒公司,颗粒物(PM10),313,430,633,112,166,134,134,90,90,19,28,13,11,0.6,0.4
2023-04-12T17:00:00,2066A,114.0609,32.1399,信阳市,审计局,,,,,,,,,,,,,,,,
2023-04-12T17:00:00,2067A,114.6613,33.6128,周口市,市环境监测站,颗粒物(PM10),438,538,788,100,163,128,127,98,98,10,18,13,15,0.6,0.4
2023-04-12T17:00:00,2068A,114.6758,33.6347,周口市,周口师范,颗粒物(PM10),409,509,779,139,199,124,121,94,94,11,23,12,13,0.6,0.5
2023-04-12T17:00:00,2069A,114.6546,33.5979,周口市,市运管处,颗粒物(PM10),426,526,778,97,153,125,124,97,97,10,18,11,14,0.6,0.5
2023-04-12T17:00:00,2070A,114.6369,33.6406,周口市,川汇区环保局,颗粒物(PM10),455,555,825,92,161,120,120,94,94,12,22,10,12,0.6,0.5
2023-04-12T17:00:00,2075A,117.6336,24.4674,漳州市,九湖,,,,,,,,,,,,,,,,
2023-04-12T17:00:00,2160A,112.85,35.5051,晋城市,自来水公司,颗粒物(PM10),482,582,416,132,114,161,159,119,119,17,36,15,12,0.6,0.6
2023-04-12T17:00:00,2161A,112.8318,35.4936,晋城市,白云商贸,颗粒物(PM10),500,662,479,,130,151,149,113,113,13,29,10,7,0.7,0.8
2023-04-12T17:00:00,2162A,112.8508,35.4887,晋城市,市环保局,颗粒物(PM10),500,604,454,139,114,159,155,117,117,12,35,11,12,0.6,0.8
2023-04-12T17:00:00,2163A,112.8676,35.4897,晋城市,技术学院,颗粒物(PM10),500,600,449,280,147,152,150,112,112,14,39,10,10,0.6,0.6
2023-04-12T17:00:00,2165A,112.8453,35.546,晋城市,白马寺,,,,,,,,,,,,,,,,
2023-04-12T17:00:00,2166A,112.4397,39.3522,朔州市,平朔,细颗粒物(PM2.5),110,,278,83,77,86,,48,48,,42,8,17,0.4,0.6
2023-04-12T17:00:00,2167A,112.4575,39.3617,朔州市,朔唯,颗粒物(PM10),169,288,294,77,93,97,97,62,62,18,45,9,19,0.5,0.7
2023-04-12T17:00:00,2168A,112.4258,39.3197,朔州市,区政府,,,,260,,56,85,70,53,48,28,30,8,11,0.5,0.5
2023-04-12T17:00:00,2169A,112.4072,39.3278,朔州市,市环保局,颗粒物(PM10),162,273,259,85,70,84,71,50,50,29,35,7,10,0.6,0.6
2023-04-12T17:00:00,2170A,112.4272,39.3681,朔州市,市二中,颗粒物(PM10),169,287,290,79,73,93,93,58,58,13,36,7,15,0.8,0.7
2023-04-12T17:00:00,2171A,112.7532,37.6945,晋中市,锦纶小区,颗粒物(PM10),131,212,224,79,68,107,68,72,72,40,33,9,8,0.4,0.3
2023-04-12T17:00:00,2173A,112.7249,37.7067,晋中市,南都小区,颗粒物(PM10),164,277,238,67,45,102,73,68,68,35,36,8,6,0.8,0.4
2023-04-12T17:00:00,2174A,112.6991,37.6982,晋中市,榆次区政府,颗粒物(PM10),167,283,240,46,44,97,66,69,69,38,36,9,7,0.6,0.3
2023-04-12T17:00:00,2175A,110.9956,35.0147,运城市,运城中学,颗粒物(PM10),365,472,409,112,97,130,130,109,109,11,13,10,8,0.3,0.4
2023-04-12T17:00:00,2178A,110.9686,35.0303,运城市,地区技校,颗粒物(PM10),344,455,399,95,76,137,137,114,114,12,22,9,8,0.2,0.3
2023-04-12T17:00:00,2179A,111.0414,35.1147,运城市,空港新区,颗粒物(PM10),441,541,484,121,112,135,135,114,114,6,25,11,14,0.5,0.8
2023-04-12T17:00:00,2181A,112.7383,38.4519,忻州市,开发区,,29,0,218,0,51,90,90,64,64,25,32,18,9,0.7,0.5
2023-04-12T17:00:00,2182A,112.7003,38.4928,忻州市,会展中心,颗粒物(PM10),163,275,201,62,55,88,82,62,62,21,29,15,8,0.6,0.5
2023-04-12T17:00:00,2183A,111.1406,37.5211,吕梁市,环保局,颗粒物(PM10),152,253,410,65,82,96,47,46,46,51,49,10,8,0.6,0.4
2023-04-12T17:00:00,2185A,111.1297,37.5136,吕梁市,自来水公司,颗粒物(PM10),145,239,433,58,74,89,57,44,44,39,43,8,7,0.6,0.5
2023-04-12T17:00:00,2187A,106.8174,39.6973,乌海市,市林业局,颗粒物(PM10),121,192,209,52,50,134,126,80,80,16,38,19,51,0.7,0.9
2023-04-12T17:00:00,2188A,106.7907,39.6667,乌海市,中海勃湾学校,颗粒物(PM10),124,197,214,58,52,142,129,82,82,17,43,17,42,0.6,0.9
2023-04-12T17:00:00,2191A,122.2532,43.6801,通辽市,艺术职业学校,,48,48,165,9,27,94,90,92,92,13,12,6,6,0.3,0.6
2023-04-12T17:00:00,2192A,119.7594,49.2261,呼伦贝尔市,区环保局,,35,35,34,16,18,93,92,88,88,6,2,5,5,0.1,0.2
2023-04-12T17:00:00,2195A,107.4212,40.761,巴彦淖尔市,附二中,颗粒物(PM10),152,254,278,53,56,117,109,93,93,21,21,10,16,0.6,0.6
2023-04-12T17:00:00,2196A,107.37,40.7372,巴彦淖尔市,市环保大楼,颗粒物(PM10),160,270,274,86,67,117,112,88,88,17,25,10,6,0.6,0.5
2023-04-12T17:00:00,2197A,113.1306,40.9923,乌兰察布市,集宁新区,颗粒物(PM10),114,177,141,38,31,111,105,94,94,13,21,8,9,0.4,0.4
2023-04-12T17:00:00,2200A,122.0392,46.0656,兴安盟,胜华新制药厂,,41,41,281,9,64,98,93,93,93,9,9,2,2,0.2,0.2
2023-04-12T17:00:00,2201A,121.9504,46.0741,兴安盟,科右前旗环保局,,42,42,361,16,52,86,83,83,83,8,7,3,3,0.2,0.2
2023-04-12T17:00:00,2202A,116.1042,43.9317,锡林郭勒盟,市环保监测站,颗粒物(PM10),118,186,171,38,25,101,101,89,89,3,3,7,6,0.2,0.2
2023-04-12T17:00:00,2203A,116.0781,43.9311,锡林郭勒盟,市政府,颗粒物(PM10),119,188,199,33,21,98,98,85,85,4,5,5,8,0.2,0.2
2023-04-12T17:00:00,2204A,105.6467,38.8363,阿拉善盟,西城区西花园,颗粒物(PM10),122,194,145,66,42,115,115,98,98,11,12,8,8,0.6,0.6
2023-04-12T17:00:00,2205A,105.6985,38.8411,阿拉善盟,蒙二幼,颗粒物(PM10),146,241,157,67,45,127,127,104,104,9,10,9,7,0.5,0.4
2023-04-12T17:00:00,2206A,105.724,38.8516,阿拉善盟,环保局新楼,颗粒物(PM10),101,152,100,75,43,125,125,111,104,8,8,8,7,0.3,0.2
2023-04-12T17:00:00,2207A,121.6094,41.998,阜新市,工业园区,,,,,,,,,,,,,,,,
2023-04-12T17:00:00,2208A,121.6697,42.0279,阜新市,长青街,颗粒物(PM10),77,103,341,12,42,102,85,92,92,8,9,9,14,0.5,0.6
2023-04-12T17:00:00,2209A,121.6673,42.0705,阜新市,农业园区,颗粒物(PM10),71,91,284,16,45,102,101,94,94,7,8,11,11,0.4,0.8
2023-04-12T17:00:00,2210A,121.6717,42.0224,阜新市,东苑,颗粒物(PM10),85,120,382,15,56,103,99,92,92,11,12,12,18,0.4,0.6
2023-04-12T17:00:00,2211A,121.6506,42.0498,阜新市,玉龙新城,颗粒物(PM10),67,83,299,47,53,102,100,92,92,5,9,7,9,0.4,0.5
2023-04-12T17:00:00,2212A,123.2,41.1953,辽阳市,宏伟区,颗粒物(PM10),88,125,304,29,43,90,86,84,84,17,19,12,18,0.7,0.7
2023-04-12T17:00:00,2213A,123.1683,41.2495,辽阳市,新华园,,,150,323,23,38,95,91,90,90,14,20,11,16,,0.8
2023-04-12T17:00:00,2214A,123.2354,41.2639,辽阳市,滨河路,颗粒物(PM10),94,137,356,41,44,88,83,82,82,16,17,7,8,0.6,0.5
2023-04-12T17:00:00,2215A,123.149,41.2991,辽阳市,铁西工业园,颗粒物(PM10),101,152,345,29,44,88,86,83,83,16,21,10,11,0.7,0.8
2023-04-12T17:00:00,2216A,123.8139,42.3022,铁岭市,汇工街西,颗粒物(PM10),79,108,377,34,56,106,104,97,97,9,10,9,8,0.5,0.5
2023-04-12T17:00:00,2217A,123.8649,42.2923,铁岭市,水上乐园,颗粒物(PM10),81,111,333,29,49,103,99,93,93,9,9,6,5,0.2,0.2
2023-04-12T17:00:00,2218A,123.8486,42.2867,铁岭市,银州路东段,颗粒物(PM10),108,165,446,43,51,104,100,94,94,14,13,6,6,0.4,0.4
2023-04-12T17:00:00,2219A,123.7153,42.2217,铁岭市,金沙江路北,颗粒物(PM10),85,120,333,31,44,99,95,93,93,17,17,8,7,0.2,0.2
2023-04-12T17:00:00,2220A,120.4318,41.5881,朝阳市,西梁,颗粒物(PM10),65,80,295,14,48,106,98,93,93,12,11,11,9,0.7,0.6
2023-04-12T17:00:00,2221A,120.4521,41.5646,朝阳市,河畔小区,颗粒物(PM10),64,77,306,19,63,103,96,94,94,10,11,10,8,0.7,0.6
2023-04-12T17:00:00,2222A,120.4176,41.5648,朝阳市,八里堡,颗粒物(PM10),64,78,302,24,69,106,93,89,89,11,9,9,8,0.7,0.7
2023-04-12T17:00:00,2223A,120.3806,41.5969,朝阳市,农业园区,颗粒物(PM10),62,74,324,15,58,101,93,89,89,6,5,8,7,0.7,0.6
2023-04-12T17:00:00,2225A,124.4002,43.1713,四平市,一商场,颗粒物(PM10),52,54,285,9,34,100,90,93,92,9,10,5,6,0.2,0.2
2023-04-12T17:00:00,2226A,124.388,43.193,四平市,境园,颗粒物(PM10),53,55,254,7,25,93,83,89,89,9,9,1,3,0,0.1
2023-04-12T17:00:00,2227A,125.1358,42.8845,辽源市,环保局,,44,44,174,12,26,100,97,97,97,5,2,9,9,0.3,0.3
2023-04-12T17:00:00,2229A,125.9358,41.7173,通化市,光明,颗粒物(PM10),64,78,240,21,26,103,101,97,97,6,5,10,9,0.4,0.2
2023-04-12T17:00:00,2230A,125.9446,41.7325,通化市,铁路,颗粒物(PM10),52,54,196,16,27,101,100,95,95,8,8,7,6,0.1,0.1
2023-04-12T17:00:00,2231A,126.4219,41.9171,白山市,喜丰,颗粒物(PM10),75,100,370,11,24,94,94,90,90,9,12,10,10,0.6,0.5
2023-04-12T17:00:00,2232A,126.4077,41.9419,白山市,环保局,颗粒物(PM10),58,65,310,39,32,95,95,90,90,4,6,8,10,0.5,0.5
2023-04-12T17:00:00,2233A,124.8006,45.1214,松原市,江南,颗粒物(PM10),78,106,592,22,104,101,101,94,94,4,2,6,4,0.4,0.3
2023-04-12T17:00:00,2234A,124.7965,45.1722,松原市,江北,颗粒物(PM10),60,70,488,24,84,101,101,89,89,8,4,4,3,0.6,0.4
2023-04-12T17:00:00,2235A,122.7911,45.6077,白城市,洮北区环保局,细颗粒物(PM2.5),97,56,673,72,111,116,107,111,111,6,6,4,3,0.1,0.1
2023-04-12T17:00:00,2236A,122.8738,45.5725,白城市,市环保局,,,,553,12,92,102,98,97,97,3,5,4,3,0.3,0.3
2023-04-12T17:00:00,2237A,129.47,42.8883,延边朝鲜族自治州,妇幼医院,颗粒物(PM10),57,63,364,10,27,100,98,97,97,9,7,8,7,0.4,0.5
2023-04-12T17:00:00,2238A,129.5055,42.9108,延边朝鲜族自治州,延边医院,颗粒物(PM10),64,78,331,9,22,100,98,95,95,6,5,8,8,0.5,0.4
2023-04-12T17:00:00,2239A,129.3964,42.8881,延边朝鲜族自治州,朝阳川镇医院,颗粒物(PM10),55,60,431,11,29,101,101,96,96,4,4,6,7,0.5,0.5
2023-04-12T17:00:00,2240A,130.9762,45.3001,鸡西市,环保局,颗粒物(PM10),120,189,578,31,61,79,74,72,70,10,9,2,2,0.3,0.3
2023-04-12T17:00:00,2243A,130.9429,45.3039,鸡西市,第一中学,颗粒物(PM10),68,85,646,30,80,81,78,72,72,2,2,3,3,0.2,0.1
2023-04-12T17:00:00,2244A,130.2537,47.3416,鹤岗市,哈啤分公司,,28,28,69,11,16,76,75,72,72,5,7,10,11,0.2,0.2
2023-04-12T17:00:00,2245A,130.2684,47.3086,鹤岗市,斯达机电,,34,34,78,16,20,81,75,74,74,6,9,7,8,0.1,0.3
2023-04-12T17:00:00,2246A,130.3114,47.3388,鹤岗市,东山纸板厂,,36,36,78,10,17,77,68,73,69,7,9,9,11,0.2,0.1
2023-04-12T17:00:00,2247A,130.1097,47.3382,鹤岗市,五号水库,,26,25,66,13,17,81,81,77,77,5,5,9,9,0.5,0.5
2023-04-12T17:00:00,2248A,131.1511,46.6937,双鸭山市,双合村,细颗粒物(PM2.5),57,34,178,40,48,81,79,76,76,5,5,4,4,0.5,0.5
2023-04-12T17:00:00,2249A,131.1652,46.6191,双鸭山市,南小市,,44,44,253,15,34,84,84,76,76,7,7,4,5,0.5,0.5
2023-04-12T17:00:00,2250A,131.1524,46.6554,双鸭山市,环保局,,43,43,193,12,23,91,89,88,88,2,4,5,6,0.4,0.4
2023-04-12T17:00:00,2251A,131.12,46.5656,双鸭山市,苗圃,,36,26,92,16,31,127,115,112,112,8,8,3,3,0.1,0.1
2023-04-12T17:00:00,2252A,128.5159,47.4311,伊春市,环保局,,23,23,60,10,14,75,71,71,71,10,11,4,6,0.4,0.4
2023-04-12T17:00:00,2253A,128.9102,47.7412,伊春市,电力嘉园,,30,30,74,16,18,80,74,72,72,6,6,5,5,0.6,0.6
2023-04-12T17:00:00,2254A,129.5029,48.471,伊春市,汤旺河国家公园,,25,24,43,17,19,80,80,76,76,2,3,8,4,0.3,0.4
2023-04-12T17:00:00,2255A,130.2751,46.8028,佳木斯市,佳纺,,44,44,120,14,21,75,71,72,72,8,5,3,2,0.3,0.3
2023-04-12T17:00:00,2256A,130.3995,46.8307,佳木斯市,发电厂,,40,40,123,8,19,77,74,74,74,6,8,4,4,0.2,0.3
2023-04-12T17:00:00,2257A,130.3258,46.7975,佳木斯市,环保局,,39,39,116,17,24,74,69,71,71,9,9,3,3,0.5,0.5
2023-04-12T17:00:00,2258A,130.3648,46.8032,佳木斯市,十一中,,49,49,132,14,23,74,68,70,70,13,11,5,5,0.4,0.4
2023-04-12T17:00:00,2259A,130.3794,46.7588,佳木斯市,四丰,,36,36,94,4,18,221,95,97,97,6,6,1,1,0.4,0.4
2023-04-12T17:00:00,2262A,131.0518,45.8751,七台河市,新一中,,49,49,395,16,47,86,86,84,84,4,6,6,7,0.7,0.4
2023-04-12T17:00:00,2263A,127.4833,50.2524,黑河市,交通局,,27,27,26,9,16,84,84,67,67,7,19,4,6,0.4,0.5
2023-04-12T17:00:00,2264A,127.5144,50.2341,黑河市,环保局,,,,33,,19,82,80,66,66,7,14,3,6,0.4,0.4
2023-04-12T17:00:00,2265A,127.5291,50.2472,黑河市,大黑河岛,,34,34,27,10,19,84,84,68,68,1,5,1,4,0.3,0.4
2023-04-12T17:00:00,2266A,126.9785,46.6365,绥化市,人和东街,颗粒物(PM10),70,89,126,22,19,91,86,80,80,10,9,4,4,0.4,0.3
2023-04-12T17:00:00,2267A,126.964,46.6528,绥化市,党政办公中心,细颗粒物(PM2.5),103,66,126,77,37,99,95,89,89,8,6,3,3,0.1,0.1
2023-04-12T17:00:00,2269A,124.1069,50.4097,大兴安岭地区,科技局,,26,14,16,11,14,88,82,84,84,4,4,5,7,0.2,0.2
2023-04-12T17:00:00,2270A,117.396,32.939,蚌埠市,工人疗养院,颗粒物(PM10),324,439,728,93,121,119,119,103,103,34,34,22,15,0.6,0.5
2023-04-12T17:00:00,2271A,117.3605,32.9427,蚌埠市,百货大楼,颗粒物(PM10),286,410,705,83,105,120,120,104,104,19,26,9,6,0.5,0.4
2023-04-12T17:00:00,2273A,117.4185,32.8911,蚌埠市,蚌埠学院,颗粒物(PM10),358,466,823,83,111,122,122,107,107,17,25,15,12,0.4,0.4
2023-04-12T17:00:00,2274A,117.3533,32.9673,蚌埠市,淮上区政府,颗粒物(PM10),328,442,757,85,109,117,117,99,99,21,20,11,6,0.4,0.3
2023-04-12T17:00:00,2275A,117.3145,32.8977,蚌埠市,高新区,颗粒物(PM10),296,417,792,83,129,126,118,108,108,17,20,10,8,0.5,0.3
2023-04-12T17:00:00,2277A,116.8305,32.7727,淮南市,潘集区政府,颗粒物(PM10),365,472,804,103,155,120,104,89,89,14,16,5,7,0.2,0.2
2023-04-12T17:00:00,2278A,117.0067,32.6524,淮南市,师范学院,颗粒物(PM10),347,457,938,89,152,129,113,97,97,12,17,7,8,0.4,0.4
2023-04-12T17:00:00,2279A,116.8569,32.5951,淮南市,谢家集区政府,颗粒物(PM10),403,503,848,77,122,140,114,97,97,7,10,6,8,0.3,0.3
2023-04-12T17:00:00,2280A,116.8281,32.633,淮南市,八公山区政府,颗粒物(PM10),295,416,688,90,140,140,111,93,93,12,14,6,6,0.4,0.3
2023-04-12T17:00:00,2281A,116.6325,32.6201,淮南市,焦岗湖风景区管理处,颗粒物(PM10),230,371,602,146,194,115,105,88,88,6,11,7,7,0.3,0.2
2023-04-12T17:00:00,2282A,116.8004,33.975,淮北市,监测站,颗粒物(PM10),285,409,744,98,163,97,97,88,88,12,13,5,4,0.5,0.5
2023-04-12T17:00:00,2283A,116.8091,33.9007,淮北市,烈山区政府,颗粒物(PM10),417,517,845,102,166,100,100,90,90,14,17,7,6,0.5,0.4
2023-04-12T17:00:00,2284A,116.7856,33.9477,淮北市,职业技术学院,颗粒物(PM10),295,416,742,98,175,101,101,89,89,13,17,6,6,0.4,0.4
2023-04-12T17:00:00,2285A,117.8177,30.9412,铜陵市,市第四中学,颗粒物(PM10),414,514,644,73,98,152,130,113,113,12,18,7,8,0.2,0.3
2023-04-12T17:00:00,2286A,117.8059,30.9273,铜陵市,市公路局,颗粒物(PM10),266,396,571,81,114,151,127,112,112,14,18,7,7,0.5,0.5
2023-04-12T17:00:00,2287A,117.7807,30.9413,铜陵市,市新民污水厂,颗粒物(PM10),266,396,522,83,96,142,142,128,128,12,18,6,7,0.4,0.4
2023-04-12T17:00:00,2288A,117.7439,30.8792,铜陵市,市第九中学,颗粒物(PM10),270,399,546,99,125,163,130,115,115,20,28,23,25,0.8,0.9
2023-04-12T17:00:00,2289A,117.846,30.9413,铜陵市,车站新区,颗粒物(PM10),183,316,421,81,108,170,139,121,121,14,16,10,11,0.4,0.4
2023-04-12T17:00:00,2290A,117.8483,30.97,铜陵市,市职教基地,颗粒物(PM10),250,385,567,79,110,156,134,116,116,12,14,4,4,0.2,0.3
2023-04-12T17:00:00,2291A,117.0809,30.5177,安庆市,环科院,颗粒物(PM10),299,419,533,88,102,164,164,124,124,13,17,11,11,0.6,0.6
2023-04-12T17:00:00,2292A,117.0331,30.5119,安庆市,马山宾馆,颗粒物(PM10),242,379,519,105,108,157,157,126,126,11,13,10,11,0.7,0.8
2023-04-12T17:00:00,2294A,116.9896,30.6145,安庆市,安庆大学,颗粒物(PM10),260,392,488,82,92,162,162,120,120,10,11,11,10,0.6,0.6
2023-04-12T17:00:00,2295A,118.2903,29.6963,黄山市,延安路89号,细颗粒物(PM2.5),144,162,100,110,62,160,160,140,140,12,14,7,6,0.6,0.6
2023-04-12T17:00:00,2296A,118.327,29.7178,黄山市,黄山东路89号,颗粒物(PM10),91,132,85,57,43,160,160,140,140,9,14,6,6,0.6,0.8
2023-04-12T17:00:00,2297A,118.1371,30.2756,黄山市,黄山区政府5号楼,颗粒物(PM10),148,245,210,46,66,165,163,141,141,10,15,5,5,0.6,0.7
2023-04-12T17:00:00,2298A,118.3093,32.3153,滁州市,老年大学,颗粒物(PM10),212,358,606,69,97,110,110,92,92,25,21,9,10,0.5,0.4
2023-04-12T17:00:00,2299A,118.3244,32.2786,滁州市,人大宾馆,颗粒物(PM10),223,366,613,107,146,113,111,96,96,18,17,6,7,0.4,0.4
2023-04-12T17:00:00,2301A,115.8277,32.8929,阜阳市,市监测站,颗粒物(PM10),384,487,831,119,200,113,113,94,94,15,18,6,6,0.4,0.3
2023-04-12T17:00:00,2303A,115.8554,32.8605,阜阳市,开发区,颗粒物(PM10),443,543,942,98,141,119,118,103,103,13,18,8,8,0.5,0.4
2023-04-12T17:00:00,2307A,116.5079,31.737,六安市,监测大楼,,,,722,,176,152,126,107,107,,18,,6,0.3,0.4
2023-04-12T17:00:00,2308A,116.4738,31.7643,六安市,皖西学院,颗粒物(PM10),350,460,816,96,153,141,135,113,113,7,14,4,6,0.3,0.3
2023-04-12T17:00:00,2309A,116.4996,31.7905,六安市,朝阳厂,颗粒物(PM10),232,372,650,83,139,158,137,116,116,12,18,5,7,0.4,0.4
2023-04-12T17:00:00,2310A,116.5567,31.7886,六安市,开发区,颗粒物(PM10),433,533,862,81,141,147,135,102,102,7,16,8,9,0.4,0.5
2023-04-12T17:00:00,2311A,115.8072,33.8399,亳州市,污水处理厂,颗粒物(PM10),443,543,816,106,157,98,98,84,84,6,13,8,12,0.2,0.1
2023-04-12T17:00:00,2312A,115.7789,33.8518,亳州市,三国揽胜宫,颗粒物(PM10),460,560,840,119,162,93,93,78,78,6,10,5,6,0.4,0.3
2023-04-12T17:00:00,2314A,117.47,30.6618,池州市,池州学院,颗粒物(PM10),345,456,542,111,114,149,128,119,119,21,21,8,7,0.5,0.5
2023-04-12T17:00:00,2316A,118.7581,30.9454,宣城市,鳌峰子站,颗粒物(PM10),300,420,650,162,125,126,105,95,95,12,14,10,7,0.4,0.5
2023-04-12T17:00:00,2317A,118.7385,30.9743,宣城市,敬亭山子站,颗粒物(PM10),266,396,600,98,117,130,101,92,92,22,25,6,8,0.3,0.5
2023-04-12T17:00:00,2318A,118.7173,30.9427,宣城市,开发区子站,颗粒物(PM10),285,409,620,89,110,134,101,97,97,20,20,5,8,0.5,0.6
2023-04-12T17:00:00,2319A,119.0141,25.4325,莆田市,荔城区仓后路,,50,26,60,35,38,108,94,93,93,19,24,5,6,0.8,0.8
2023-04-12T17:00:00,2320A,119.0015,25.4553,莆田市,莆田市监测站,,23,20,58,12,36,108,72,88,88,25,20,7,8,0.6,0.6
2023-04-12T17:00:00,2321A,119.1119,25.4561,莆田市,涵江区六中,细颗粒物(PM2.5),64,34,56,46,40,123,123,105,105,14,23,5,7,0.7,0.7
2023-04-12T17:00:00,2322A,119.1013,25.3215,莆田市,秀屿区政府,细颗粒物(PM2.5),73,45,41,53,36,128,128,91,91,16,18,6,8,0.8,0.6
2023-04-12T17:00:00,2323A,118.981,25.4792,莆田市,东圳水库,,,,,,,,,,,,,,,,
2023-04-12T17:00:00,2324A,117.6211,26.2625,三明市,三钢,,32,20,34,22,31,83,81,68,68,11,27,7,9,0.6,0.8
2023-04-12T17:00:00,2325A,117.635,26.2714,三明市,三明二中,,28,26,30,19,25,83,79,71,71,14,26,3,4,0.6,0.9
2023-04-12T17:00:00,2326A,117.6028,26.2378,三明市,三元区政府,,43,43,42,24,29,84,79,69,69,14,28,5,9,0.7,0.9
2023-04-12T17:00:00,2327A,117.7275,26.3108,三明市,洋溪,,,,,,,,,,,,,,,,
2023-04-12T17:00:00,2331A,118.0966,26.6761,南平市,茫荡山,,,,,,,,,,,,,,,,
2023-04-12T17:00:00,2332A,118.1681,26.6369,南平市,南平市监测站,,27,20,43,18,31,93,86,76,76,13,22,4,4,0.9,0.9
2023-04-12T17:00:00,2333A,118.1825,26.6489,南平市,南平铝业有限公司,,27,24,41,17,31,95,84,76,76,12,25,5,6,1.0,1.1
2023-04-12T17:00:00,2334A,118.1756,26.6272,南平市,南平七中,,26,13,35,14,28,99,83,74,74,7,19,3,4,0.7,0.8
2023-04-12T17:00:00,2335A,117.0189,25.1181,龙岩市,龙岩师专,,,,,,,,,,,,,,,,
2023-04-12T17:00:00,2336A,117.0217,25.1033,龙岩市,龙岩市监测站,,39,25,43,27,32,96,64,55,55,17,29,9,12,0.8,0.8
2023-04-12T17:00:00,2337A,117.0258,25.0661,龙岩市,闽西职业技术学院,,48,38,53,33,33,87,59,60,60,16,32,8,22,0.7,0.7
2023-04-12T17:00:00,2338A,117.0196,25.0306,龙岩市,龙岩学院,细颗粒物(PM2.5),53,46,39,37,28,88,59,59,59,19,16,9,8,0.8,0.7
2023-04-12T17:00:00,2339A,119.5001,26.6946,宁德市,金涵水库,,,,,,,,,,,,,,,,
2023-04-12T17:00:00,2341A,119.5388,26.6612,宁德市,宁德市监测站,,,,52,,47,136,122,90,90,,28,4,5,0.6,0.7
2023-04-12T17:00:00,2342A,117.3102,29.3867,景德镇市,王港中学,颗粒物(PM10),55,60,51,36,30,152,152,114,114,7,9,3,4,0.3,0.5
2023-04-12T17:00:00,2343A,117.2117,29.2933,景德镇市,老干部活动中心,颗粒物(PM10),56,62,50,26,42,132,132,113,113,6,14,5,6,0.6,0.7
2023-04-12T17:00:00,2344A,117.1894,29.2789,景德镇市,兽医站,颗粒物(PM10),56,62,53,37,35,149,149,128,128,11,15,6,7,0.5,0.5
2023-04-12T17:00:00,2345A,117.1547,29.2617,景德镇市,台达陶瓷,颗粒物(PM10),51,52,62,23,34,126,124,109,109,16,22,7,15,0.8,0.8
2023-04-12T17:00:00,2346A,117.2461,29.2956,景德镇市,陶研所,颗粒物(PM10),55,59,57,35,31,141,141,120,120,3,8,6,5,0.4,0.5
2023-04-12T17:00:00,2347A,114.0997,27.5002,萍乡市,武功山,,34,20,9,21,9,118,107,93,93,7,8,7,7,1.0,0.9
2023-04-12T17:00:00,2348A,113.8385,27.6434,萍乡市,中医院,,48,48,43,33,34,132,128,104,104,11,12,6,7,0.9,0.8
2023-04-12T17:00:00,2349A,113.8493,27.6253,萍乡市,市政府车库,细颗粒物(PM2.5),53,38,41,37,35,130,128,104,104,6,18,9,11,0.8,0.9
2023-04-12T17:00:00,2350A,113.8676,27.6435,萍乡市,市环保局,,50,44,45,35,33,115,110,87,87,13,15,7,9,0.8,0.8
2023-04-12T17:00:00,2351A,113.866,27.6198,萍乡市,安源区政府,颗粒物(PM10),52,54,47,25,36,119,117,91,91,11,22,12,13,0.8,1
2023-04-12T17:00:00,2352A,115.0861,27.9317,新余市,北岗,,36,27,41,25,33,105,103,83,83,3,11,6,14,0.6,1
2023-04-12T17:00:00,2353A,114.9886,27.8431,新余市,飞宇,,48,48,57,32,32,120,116,102,102,11,19,5,12,0.6,0.7
2023-04-12T17:00:00,2354A,114.9231,27.8246,新余市,第二水厂,,50,50,55,27,30,120,113,101,101,9,18,6,7,0.4,0.6
2023-04-12T17:00:00,2355A,114.9308,27.8036,新余市,市气象局,颗粒物(PM10),56,62,48,27,33,120,118,100,100,7,14,7,9,0.6,1
2023-04-12T17:00:00,2357A,116.9822,28.1136,鹰潭市,龙虎山,,33,33,35,16,30,99,89,88,88,2,4,1,3,0.6,1
2023-04-12T17:00:00,2358A,117.0564,28.2642,鹰潭市,新监测站,,42,41,53,29,37,140,123,118,118,2,12,13,16,0.7,0.7
2023-04-12T17:00:00,2359A,117.0311,28.2475,鹰潭市,财苑宾馆,,34,33,49,16,34,145,107,118,118,2,15,4,11,0.4,0.6
2023-04-12T17:00:00,2360A,117.0222,28.2264,鹰潭市,体育馆,,32,28,49,17,35,136,101,108,108,4,15,1,7,0.5,0.7
2023-04-12T17:00:00,2361A,117.0017,28.2131,鹰潭市,三川水表,,30,19,48,19,37,128,96,108,108,3,17,1,7,0.3,0.6
2023-04-12T17:00:00,2362A,114.9017,25.9149,赣州市,通天岩,,22,15,34,14,22,87,70,71,71,3,8,6,10,1.3,1.3
2023-04-12T17:00:00,2363A,114.9367,25.8664,赣州市,地委,,41,41,42,21,21,90,77,76,76,5,18,5,5,1.0,1
2023-04-12T17:00:00,2364A,114.9461,25.8481,赣州市,气象台,,21,16,35,13,22,71,65,61,61,10,19,5,6,0.7,0.8
2023-04-12T17:00:00,2365A,114.9322,25.8333,赣州市,市图书馆,,40,40,47,22,24,94,80,76,76,7,20,11,12,1.0,1.2
2023-04-12T17:00:00,2366A,114.8905,25.8471,赣州市,华坚鞋城,,37,37,49,16,23,89,58,69,69,11,17,6,15,0.7,0.7
2023-04-12T17:00:00,2367A,114.9754,27.0803,吉安市,红声器材厂,,45,45,46,24,28,109,96,92,92,12,11,7,7,0.6,0.7
2023-04-12T17:00:00,2368A,114.9658,27.0999,吉安市,市森林工业局,,,44,39,19,29,112,98,93,93,10,8,,8,0.6,0.6
2023-04-12T17:00:00,2369A,114.99,27.1312,吉安市,市环境监测站,,36,31,36,25,25,112,100,96,96,14,12,8,9,0.7,0.6
2023-04-12T17:00:00,2370A,115.0093,27.0968,吉安市,青原区法院,,32,30,38,22,27,110,94,94,94,16,14,10,12,0.7,0.8
2023-04-12T17:00:00,2371A,114.3408,27.8064,宜春市,槟榔水业,细颗粒物(PM2.5),63,54,48,45,38,90,86,68,68,10,15,6,6,0.8,0.8
2023-04-12T17:00:00,2373A,114.3956,27.7844,宜春市,市石油公司,细颗粒物(PM2.5),57,62,51,40,35,141,135,112,112,9,15,7,5,0.9,0.9
2023-04-12T17:00:00,2374A,114.3703,27.7914,宜春市,市气象局,细颗粒物(PM2.5),58,55,54,41,36,140,132,114,114,17,22,5,4,0.7,0.9
2023-04-12T17:00:00,2375A,114.4013,27.8074,宜春市,市广电局,,,63,52,46,39,152,144,120,120,,17,9,8,0.8,0.6
2023-04-12T17:00:00,2376A,116.2127,28.0814,抚州市,桐源党溪,,38,38,46,12,28,131,120,110,110,2,6,3,7,0.7,1
2023-04-12T17:00:00,2377A,116.3544,27.9831,抚州市,市站,,30,24,48,17,33,108,95,93,93,8,12,2,4,0.5,0.9
2023-04-12T17:00:00,2378A,116.3565,27.963,抚州市,血防站,,33,23,51,23,34,109,94,99,99,6,13,2,3,0.5,0.7
2023-04-12T17:00:00,2379A,116.3564,28.0007,抚州市,采茶剧团,,30,28,51,12,32,108,96,93,93,7,16,4,5,0.9,0.9
2023-04-12T17:00:00,2380A,116.385,27.9647,抚州市,医学分院,,31,31,42,16,29,100,88,87,87,5,11,3,4,0.7,0.7
2023-04-12T17:00:00,2381A,118.005,28.4572,上饶市,百草园,细颗粒物(PM2.5),69,86,67,50,34,144,144,79,79,4,10,2,7,0.7,1.3
