timepoint,stationcode,longitude,latitude,area,positionname,primarypollutant,aqi,pm10,pm10_24h,pm2_5,pm2_5_24h,o3,o3_24h,o3_8h,o3_8h_24h,no2,no2_24h,so2,so2_24h,co,co_24h
2025-08-08T1300,2566A,102.1879,31.914,阿坝藏族羌族自治州,州农科所,,30,30,30,8,12,69,,38,38,4,8,15,15,0,0.3
2025-08-08T1300,2568A,102.2502,31.8896,阿坝藏族羌族自治州,马师校,,25,9,17,7,16,78,,33,33,6,10,7,7,0.6,0.6
2025-08-08T1300,3994A,102.2165,31.9024,阿坝藏族羌族自治州,马尔康中学西区,,26,7,13,6,14,83,,37,37,4,6,8,8,0.7,0.7
2025-08-08T1300,2695A,80.292,41.1694,阿克苏地区,电视台,,38,23,43,12,17,119,,125,102,4,4,2,3,0.5,0.5
2025-08-08T1300,2696A,80.2613,41.1551,阿克苏地区,艺术中心,,38,27,46,9,21,119,,120,100,2,4,5,4,0.4,0.4
2025-08-08T1300,2204A,105.6467,38.8363,阿拉善盟,西城区西花园,,38,15,30,7,15,119,,122,115,6,9,7,8,0.7,0.8
2025-08-08T1300,2205A,105.6985,38.8411,阿拉善盟,蒙二幼,,33,11,20,7,10,103,,110,102,2,3,10,10,0.5,0.5
2025-08-08T1300,2206A,105.724,38.8516,阿拉善盟,环保局新楼,,32,12,21,8,10,100,,116,108,6,6,9,9,0.5,0.5
2025-08-08T1300,2708A,88.1264,47.8517,阿勒泰地区,市站,,30,20,21,3,5,93,,76,76,14,12,3,3,0.3,0.3
2025-08-08T1300,2630A,80.1161,32.5,阿里地区,阿里监测站,,26,,7,3,3,82,,56,56,3,10,5,6,0.1,0.1
2025-08-08T1300,3192A,80.0903,32.5028,阿里地区,阿里藏医院,,28,6,8,3,2,89,,78,67,1,4,4,4,0.1,0.1
2025-08-08T1300,2642A,109.0318,32.6537,安康市,香溪洞,,25,25,18,12,9,77,,47,47,4,5,6,6,0.6,0.5
2025-08-08T1300,2644A,109.0072,32.6975,安康市,汉滨区检察院,,38,38,20,17,9,88,,37,37,4,7,4,4,0.5,0.5
2025-08-08T1300,4054A,109.0325,32.6913,安康市,市邮政管理局,,28,28,19,11,11,81,,41,41,3,6,3,3,0.7,0.6
2025-08-08T1300,2291A,117.0809,30.5177,安庆市,环科院,,30,16,16,15,9,94,,56,56,3,9,5,4,0.6,0.5
2025-08-08T1300,2292A,117.0331,30.5119,安庆市,马山宾馆,,28,23,16,15,10,89,,45,45,6,14,4,4,0.8,0.8
2025-08-08T1300,2294A,116.9896,30.6145,安庆市,安庆大学,,29,22,18,16,13,92,,58,58,6,11,4,4,0.4,0.4
2025-08-08T1300,3173A,117.0598,30.5351,安庆市,市人大,,30,18,16,13,10,96,,53,53,4,9,4,4,0.5,0.5
2025-08-08T1300,3122A,105.9606,26.2611,安顺市,伍家关,,24,10,8,3,6,75,,52,49,6,4,5,4,0.5,0.4
2025-08-08T1300,3123A,105.9408,26.2431,安顺市,凤凰山,,24,13,11,10,7,74,,52,48,5,4,2,2,0.5,0.4
2025-08-08T1300,3124A,105.9439,26.2564,安顺市,金钟山,,23,13,11,13,7,72,,51,48,5,3,6,5,0.5,0.4
2025-08-08T1300,3125A,105.8983,26.2481,安顺市,娄家坡,,21,,10,14,9,66,,46,42,4,3,7,6,0.5,0.5
2025-08-08T1300,1818A,114.4839,36.0621,安阳市,棉研所,,,,,,,,,,,,,,,,
2025-08-08T1300,1819A,114.3551,36.1017,安阳市,红庙街,臭氧1小时,64,50,52,27,36,171,,132,132,7,12,3,3,0.6,0.6
2025-08-08T1300,1820A,114.361,36.0681,安阳市,银杏小区,颗粒物(PM10),56,61,56,30,38,159,,125,125,7,10,5,4,0.6,0.7
2025-08-08T1300,3141A,114.3922,36.0878,安阳市,信访局,臭氧1小时,67,52,53,25,34,173,,135,135,9,9,4,4,0.8,0.8
2025-08-08T1300,3669A,114.4705,36.0637,安阳市,左辅环卫站,,,51,62,17,23,146,,,,6,8,116,116,,0
2025-08-08T1300,3703A,114.2917,36.0949,安阳市,安钢职工学校,,50,43,61,23,40,160,,121,121,4,9,4,3,0.6,0.7
2025-08-08T1300,1748A,123.044,41.1196,鞍山市,深沟寺,,30,24,28,12,14,96,,47,47,8,13,8,7,0.7,0.8
2025-08-08T1300,1749A,123.011,41.0931,鞍山市,太阳城,,27,15,26,8,17,86,,48,48,7,14,6,6,0.6,0.8
2025-08-08T1300,1750A,123.0485,41.1442,鞍山市,太平,,36,23,40,10,17,115,,52,52,9,20,13,7,0.6,0.8
2025-08-08T1300,1751A,122.9642,41.0971,鞍山市,铁西三道街,,29,29,39,15,22,89,,53,53,19,28,12,11,1.0,1.2
2025-08-08T1300,1753A,123.022,41.0821,鞍山市,明达新区,,30,14,25,7,13,96,,54,54,9,17,8,9,0.6,0.8
2025-08-08T1300,1754A,123.1289,41.0228,鞍山市,千山,,,,,,,,,,,,,,,,
2025-08-08T1300,4201A,122.9446,41.0826,鞍山市,兴盛南路290号,,39,39,44,17,18,91,,56,56,24,35,12,13,1.0,1.3
2025-08-08T1300,2195A,107.4212,40.761,巴彦淖尔市,附二中,,37,16,24,8,14,116,,113,106,4,6,6,6,0.6,0.6
2025-08-08T1300,2196A,107.37,40.7372,巴彦淖尔市,市环保大楼,,34,30,38,15,14,107,,90,89,5,6,6,6,0.4,0.4
2025-08-08T1300,1956A,86.1472,41.7538,巴音郭楞蒙古自治州,孔雀公园,,36,34,66,16,19,115,,63,63,4,30,5,4,0.2,0.4
2025-08-08T1300,1957A,86.1972,41.7166,巴音郭楞蒙古自治州,棉纺厂,,41,32,67,3,9,130,,68,68,3,20,4,4,0.3,0.3
2025-08-08T1300,1958A,86.2357,41.7173,巴音郭楞蒙古自治州,经济开发区,,41,32,50,3,6,131,,87,87,3,11,4,3,0.1,0.2
2025-08-08T1300,2914A,106.7677,31.8794,巴中市,苏山坪,,30,19,21,15,16,96,,62,62,5,6,3,3,0.4,0.4
2025-08-08T1300,3181A,106.7768,31.8526,巴中市,市五中,,26,21,21,17,16,83,,45,45,6,11,9,9,0.6,0.6
2025-08-08T1300,3183A,106.7418,31.8654,巴中市,圣泉水务公司,,37,25,20,15,14,116,,50,50,2,4,8,7,0.6,0.6
2025-08-08T1300,3616A,106.7616,31.8344,巴中市,市中心医院,,,24,22,3,14,104,,61,61,,11,9,9,,0.4
2025-08-08T1300,2235A,122.7911,45.6077,白城市,洮北区环保局,,22,6,9,3,8,69,,51,51,1,8,4,5,0.3,0.3
2025-08-08T1300,2236A,122.8738,45.5725,白城市,市环保局,,23,7,8,6,8,71,,53,53,1,9,3,3,0.4,0.4
2025-08-08T1300,2231A,126.4219,41.9171,白山市,喜丰,,26,26,22,6,8,74,,36,36,4,10,6,5,0.4,0.5
2025-08-08T1300,2232A,126.4077,41.9419,白山市,环保局,,25,7,20,7,10,79,,38,38,5,9,6,5,0.5,0.6
2025-08-08T1300,2647A,104.1724,36.5446,白银市,第三小学,,32,6,15,3,6,102,,97,97,3,5,4,8,0.4,0.5
2025-08-08T1300,2648A,104.1465,36.5482,白银市,动力公司,,27,6,12,3,6,86,,87,81,4,5,5,6,0.4,0.4
2025-08-08T1300,2512A,106.6103,23.9011,百色市,市监测站,,48,48,30,22,14,104,,45,45,7,11,12,8,0.4,0.4
2025-08-08T1300,2513A,106.6538,23.8859,百色市,市中心血站,,45,45,32,24,16,92,,46,46,10,17,7,8,0.7,0.7
2025-08-08T1300,3406A,106.6085,23.8798,百色市,祈福高中,颗粒物(PM10),55,59,38,22,19,95,,36,36,10,16,13,8,0.6,0.6
2025-08-08T1300,2270A,117.396,32.939,蚌埠市,工人疗养院,,37,26,29,8,9,117,,80,80,2,9,4,4,0.3,0.3
2025-08-08T1300,2271A,117.3605,32.9427,蚌埠市,百货大楼,,33,16,20,7,11,103,,,,2,9,6,6,0.4,0.5
2025-08-08T1300,2273A,117.4185,32.8911,蚌埠市,蚌埠学院,,34,14,19,10,11,108,,72,72,2,10,5,6,0.4,0.5
2025-08-08T1300,2274A,117.3533,32.9673,蚌埠市,淮上区政府,,43,27,24,10,12,137,,88,88,6,12,6,6,0.5,0.5
2025-08-08T1300,2275A,117.3145,32.8977,蚌埠市,高新区,,35,27,23,12,11,110,,71,71,4,11,7,7,0.6,0.6
2025-08-08T1300,3715A,117.3092,32.9314,蚌埠市,蚌埠田家炳中学,,35,29,29,13,13,111,,72,72,5,12,7,6,0.4,0.4
2025-08-08T1300,1585A,109.8756,40.6532,包头市,市环境监测站,,36,24,20,18,13,114,,99,96,13,14,7,5,0.9,0.8
2025-08-08T1300,1587A,109.9991,40.5842,包头市,包头八中,,43,40,27,30,20,114,,89,89,17,15,9,3,1.0,0.7
2025-08-08T1300,1588A,109.8538,40.6821,包头市,青山宾馆,,35,20,21,16,13,111,,92,91,14,17,2,4,0.6,0.6
2025-08-08T1300,1589A,109.8642,40.6288,包头市,惠龙物流,,46,38,23,32,13,106,,98,88,14,11,9,7,1.0,0.6
2025-08-08T1300,1590A,110.0377,40.5546,包头市,东河鸿龙湾,,42,,19,29,13,126,,101,101,11,13,3,2,0.9,0.7
2025-08-08T1300,3283A,109.9154,40.5685,包头市,滨河大厦,,39,34,18,27,12,113,,94,94,10,11,10,4,1.0,0.6
2025-08-08T1300,3419A,109.9447,40.6261,包头市,包头市委党校,,38,37,17,22,13,120,,98,98,14,13,10,6,0.7,0.4
2025-08-08T1300,3683A,109.8331,40.6576,包头市,昆区政府,,34,34,25,20,16,102,,104,95,20,14,10,6,1.5,0.9
2025-08-08T1300,1930A,107.185,34.3063,宝鸡市,庙沟村,,32,32,33,15,19,84,,71,71,7,10,3,4,0.5,0.5
2025-08-08T1300,1931A,107.0708,34.3017,宝鸡市,竹园沟,,26,26,31,15,22,78,,58,58,5,11,8,8,0.4,0.4
2025-08-08T1300,1932A,107.1906,34.3672,宝鸡市,三陆医院,,41,41,38,11,30,76,,79,70,12,12,8,8,0.8,0.8
2025-08-08T1300,1933A,107.1431,34.3547,宝鸡市,监测站,,30,30,39,16,26,84,,78,77,8,12,8,8,0.6,0.6
2025-08-08T1300,1934A,107.1186,34.3739,宝鸡市,技工学校,,34,34,37,14,26,82,,74,72,7,12,5,6,0.7,0.7
2025-08-08T1300,1936A,107.2058,34.3497,宝鸡市,文理学院,,30,30,37,11,24,87,,82,80,9,12,7,7,0.7,0.7
2025-08-08T1300,1937A,107.2386,34.3622,宝鸡市,三迪小学,,40,40,39,13,29,87,,85,80,13,13,5,5,0.6,0.5
2025-08-08T1300,4308A,107.3898,34.3601,宝鸡市,陈仓区北开路21号,,26,19,26,16,23,82,,80,80,22,12,5,5,0.6,0.6
2025-08-08T1300,1051A,115.493,38.8632,保定市,游泳馆,,30,23,38,11,23,95,,76,76,6,11,3,3,0.2,0.4
2025-08-08T1300,1052A,115.5213,38.8959,保定市,华电二区,,31,18,44,8,25,99,,85,85,7,12,2,3,0.4,0.6
2025-08-08T1300,1053A,115.4713,38.9108,保定市,接待中心,,32,19,36,3,18,101,,94,88,9,12,3,3,0.5,0.6
2025-08-08T1300,1054A,115.4612,38.8416,保定市,地表水厂,,30,19,48,14,20,93,,81,78,5,11,2,2,0.6,0.7
2025-08-08T1300,3581A,115.31981,38.95208,保定市,满城区生态环境分局,,28,14,35,3,17,87,,94,94,12,13,1,2,0.1,0.3
2025-08-08T1300,3582A,115.47694,38.76408,保定市,清苑区第二中学,,26,26,48,13,27,78,,79,69,12,11,6,6,0.5,0.6
2025-08-08T1300,3583A,115.62909,39.02311,保定市,徐水物探局,,30,8,41,3,13,93,,80,75,3,10,4,3,0.4,0.6
2025-08-08T1300,4004A,115.4202,38.8656,保定市,双鹰农机,,34,,37,15,20,106,,91,89,4,9,3,3,0.2,0.4
2025-08-08T1300,4034A,115.5150,38.8590,保定市,植保所站,,34,29,40,8,25,108,,86,86,6,10,2,2,0.2,0.3
2025-08-08T1300,2594A,99.1678,25.1081,保山市,市环境监测站,,16,14,14,8,14,51,,31,31,4,7,4,5,0.3,0.3
2025-08-08T1300,2595A,99.1711,25.1328,保山市,市环保局,,18,12,16,3,10,55,,34,34,4,5,6,5,0.4,0.5
2025-08-08T1300,1866A,109.2262,21.588,北海市,牛尾岭水库,,25,,22,17,11,62,,64,64,4,5,1,4,0.4,0.5
2025-08-08T1300,1867A,109.1436,21.4086,北海市,海滩公园,,48,48,43,17,10,93,,48,48,4,6,2,2,0.7,0.7
2025-08-08T1300,1868A,109.0981,21.4661,北海市,新市环保局,,43,43,27,19,16,88,,43,43,7,11,2,3,0.4,0.4
2025-08-08T1300,1869A,109.1778,21.5233,北海市,北海工业园,,,,34,29,16,83,,37,37,,13,3,5,,0.6
2025-08-08T1300,3400A,109.1911,21.4415,北海市,龙潭自来水厂,,48,,23,33,15,88,,40,40,2,4,5,7,0.5,0.5
2025-08-08T1300,1001A,116.3621,39.8784,北京市,万寿西宫,,40,37,39,28,25,84,,80,61,7,14,3,4,0.7,0.6
2025-08-08T1300,1002A,116.2202,40.2915,北京市,定陵,细颗粒物(PM2.5),54,41,29,38,16,67,,38,38,12,4,1,3,0.7,0.5
2025-08-08T1300,1003A,116.4174,39.9289,北京市,东四,,49,47,36,34,22,83,,86,67,22,19,4,6,0.6,0.6
2025-08-08T1300,1004A,116.4072,39.8863,北京市,天坛,细颗粒物(PM2.5),53,48,34,37,23,56,,65,44,19,17,2,3,0.7,0.6
2025-08-08T1300,1005A,116.462,39.9365,北京市,农展馆,细颗粒物(PM2.5),58,49,34,41,23,52,,75,39,24,25,2,3,1.0,0.7
2025-08-08T1300,1006A,116.3392,39.9295,北京市,官园,,34,29,40,21,25,107,,92,78,14,16,3,5,0.6,0.6
2025-08-08T1300,1007A,116.2878,39.9611,北京市,海淀万柳,,30,28,34,21,20,69,,73,48,13,18,3,3,0.6,0.6
2025-08-08T1300,1008A,116.6636,40.135,北京市,顺义新城,,,,,,,,,,,,,,,,
2025-08-08T1300,1009A,116.6275,40.3275,北京市,怀柔镇,细颗粒物(PM2.5),52,46,24,36,16,41,,42,41,28,16,2,3,0.6,0.3
2025-08-08T1300,1010A,116.2296,40.217,北京市,昌平镇,,40,40,28,25,15,49,,28,25,23,17,4,3,0.8,0.5
2025-08-08T1300,1011A,116.3966,39.9821,北京市,奥体中心,,43,43,33,30,22,71,,84,63,15,13,3,4,0.7,0.5
2025-08-08T1300,3281A,115.9718,40.4529,北京市,延庆夏都,,30,11,28,8,17,96,,67,67,7,9,2,2,0.7,0.6
2025-08-08T1300,3418A,116.8336,40.4095,北京市,密云新城,,43,43,22,28,13,49,,31,31,9,7,1,1,0.6,0.4
2025-08-08T1300,3671A,116.088,39.9726,北京市,门头沟三家店,,24,17,31,9,16,75,,30,30,8,23,2,2,0.6,0.7
2025-08-08T1300,3672A,116.1541,39.8204,北京市,丰台云岗,,25,25,49,15,24,57,,47,46,5,19,2,2,0.6,0.7
2025-08-08T1300,3673A,116.6804,39.9081,北京市,通州东关,,43,39,42,30,28,76,,46,35,18,25,6,6,0.7,0.8
2025-08-08T1300,3674A,115.9577,39.7603,北京市,房山燕山,,26,21,34,16,23,83,,65,65,7,8,3,3,0.5,0.6
2025-08-08T1300,3675A,116.4672,39.7733,北京市,大兴旧宫,,38,38,30,26,19,51,,52,40,23,17,2,2,0.2,0.3
2025-08-08T1300,3694A,115.986,40.4563,北京市,延庆石河营,,30,10,26,7,17,93,,61,61,6,8,3,3,0.5,0.4
2025-08-08T1300,3695A,116.6151,40.3053,北京市,怀柔新城,细颗粒物(PM2.5),55,51,25,39,18,45,,42,38,17,8,2,2,0.9,0.6
2025-08-08T1300,3696A,116.2545,39.8768,北京市,丰台小屯,,32,27,40,22,26,68,,52,46,10,19,1,2,0.7,0.7
2025-08-08T1300,3697A,116.84,40.3844,北京市,密云镇,,45,39,26,31,14,43,,32,32,11,15,3,3,0.8,0.5
2025-08-08T1300,4182A,116.1942,39.9158,北京市,八角北路9号,,20,20,53,12,24,58,,38,15,2,14,2,3,0.7,0.7
2025-08-08T1300,4194A,117.0790,40.1518,北京市,洳河巡河路,,41,41,36,22,19,73,,,,13,9,3,4,0.8,0.8
2025-08-08T1300,1761A,123.8275,41.3064,本溪市,大峪,,31,8,29,8,12,99,,51,51,4,14,6,5,0.3,0.5
2025-08-08T1300,1762A,123.7567,41.3325,本溪市,溪湖,,32,25,38,7,14,101,,50,50,3,15,7,5,0.6,0.8
2025-08-08T1300,1763A,123.7169,41.3094,本溪市,彩屯,,28,18,34,9,19,88,,43,43,8,19,8,8,0.5,0.8
2025-08-08T1300,1764A,123.7669,41.2864,本溪市,东明,,34,22,40,15,17,106,,52,52,8,21,5,4,0.8,1
2025-08-08T1300,1765A,123.7992,41.2664,本溪市,新立屯,,33,24,26,8,14,105,,54,54,6,17,5,4,0.8,1
2025-08-08T1300,1766A,123.8142,41.3472,本溪市,威宁,,27,7,30,3,17,84,,40,40,4,16,10,9,0.4,0.6
2025-08-08T1300,2587A,105.2864,27.3125,毕节市,八中,,31,18,22,16,20,97,,42,42,6,11,11,5,0.5,0.6
2025-08-08T1300,2588A,105.31,27.2944,毕节市,师专,,33,17,23,14,17,105,,42,42,7,14,15,5,0.6,0.6
2025-08-08T1300,4263A,105.3688,27.3598,毕节市,工业大道,,32,14,26,9,17,101,,40,40,7,16,6,6,0.6,0.7
2025-08-08T1300,1629A,118.0018,37.3617,滨州市,第二水厂,臭氧1小时,82,48,28,34,20,185,,104,104,9,12,3,4,0.7,0.5
2025-08-08T1300,1630A,117.9776,37.393,滨州市,北中新校,臭氧1小时,79,51,30,31,18,183,,100,100,18,17,2,4,0.6,0.4
2025-08-08T1300,3514A,117.9378,37.3956,滨州市,中海酒店,臭氧1小时,82,48,28,29,21,185,,108,108,7,7,9,10,0.8,0.5
2025-08-08T1300,3515A,117.9378,37.3553,滨州市,开发区一中,臭氧1小时,94,56,33,34,18,195,,114,114,11,16,6,6,0.5,0.5
2025-08-08T1300,3516A,118.0917,37.694,滨州市,金海六路,臭氧1小时,53,39,24,19,12,162,,94,94,5,10,10,12,0.3,0.3
2025-08-08T1300,4028A,117.9956,37.3753,滨州市,滨州市西街道办事处,臭氧1小时,101,51,24,34,18,201,,114,114,9,10,1,3,0.5,0.3
2025-08-08T1300,2311A,115.8072,33.8399,亳州市,污水处理厂,,31,,14,16,16,99,,62,62,4,7,1,2,0.9,0.7
2025-08-08T1300,2312A,115.7789,33.8518,亳州市,三国揽胜宫,,,37,24,12,13,109,,77,77,2,4,,1,0.5,0.5
2025-08-08T1300,3332A,115.7633,33.8034,亳州市,亳州学院,,33,,14,11,11,103,,72,72,6,9,2,3,0.4,0.5
2025-08-08T1300,2693A,82.0485,44.8556,博尔塔拉蒙古自治州,市党校,,33,24,28,15,12,103,,67,67,7,9,4,4,0.2,0.2
2025-08-08T1300,2694A,82.0806,44.8969,博尔塔拉蒙古自治州,市环保局,,35,35,36,12,16,96,,64,64,5,7,3,2,0.2,0.4
2025-08-08T1300,1071A,116.8842,38.2991,沧州市,沧县城建局,,32,28,33,11,15,101,,71,71,15,19,4,4,0.3,0.3
2025-08-08T1300,1072A,116.8584,38.3254,沧州市,电视转播站,,35,35,34,12,15,79,,65,63,15,16,3,2,0.3,0.3
2025-08-08T1300,1073A,116.8709,38.3228,沧州市,市环保局,,38,38,40,11,18,88,,68,68,12,13,3,3,0.3,0.4
2025-08-08T1300,3324A,116.8136,38.3004,沧州市,河北水利电力学院,,36,36,24,20,21,104,,88,88,15,12,5,4,0.4,0.4
2025-08-08T1300,2622A,97.1806,31.1273,昌都市,昌都监测站,,,,13,0,5,80,,49,49,1,4,4,4,0.3,0.3
2025-08-08T1300,3719A,97.1714,31.1406,昌都市,昌都会议中心,,26,,18,15,14,82,,56,56,5,8,4,4,0.2,0.2
2025-08-08T1300,2690A,88.1236,43.8886,昌吉回族自治州,天山天池,,35,17,14,8,3,110,,90,90,12,7,6,4,0.7,0.5
2025-08-08T1300,2692A,87.2717,44.0297,昌吉回族自治州,新区政务中心,,36,28,25,6,8,113,,82,82,10,17,14,10,0.4,0.4
2025-08-08T1300,3613A,87.3095,44.0142,昌吉回族自治州,亚心广场,,46,46,41,7,8,111,,76,76,13,21,13,9,0.3,0.3
2025-08-08T1300,1120A,125.2863,43.9027,长春市,客车厂,,30,21,27,9,12,95,,50,50,14,25,4,4,0.3,0.4
2025-08-08T1300,1121A,125.2841,43.8463,长春市,邮电学院,,29,15,23,10,9,90,,56,56,9,19,4,5,0.3,0.4
2025-08-08T1300,1122A,125.3716,43.8772,长春市,劳动公园,,28,17,32,3,10,89,,52,52,9,24,7,7,0.3,0.4
2025-08-08T1300,1123A,125.3297,43.8805,长春市,园林处,,30,,25,13,18,94,,51,51,6,20,4,4,0.4,0.5
2025-08-08T1300,1124A,125.4605,43.79,长春市,净月潭,,26,15,15,3,4,81,,45,45,3,7,4,4,0.2,0.2
2025-08-08T1300,1125A,125.7194,43.515,长春市,甩湾子,,19,9,13,3,5,60,,43,43,4,10,4,4,0.4,0.4
2025-08-08T1300,1126A,125.3863,43.8447,长春市,经开区环卫处,,26,15,29,3,8,83,,45,45,5,18,3,4,0.3,0.4
2025-08-08T1300,1127A,125.245,43.7783,长春市,高新区管委会,,26,10,21,3,8,81,,51,51,2,15,3,3,0.3,0.4
2025-08-08T1300,1128A,125.1761,43.8325,长春市,岱山公园,,27,11,29,11,9,86,,41,41,5,25,3,4,0.2,0.3
2025-08-08T1300,4281A,125.3346,43.9164,长春市,北亚泰大街1068号,,28,16,32,7,12,88,,50,50,9,27,6,7,0.3,0.5
2025-08-08T1300,1335A,113.0833,28.2325,长沙市,经开区环保局,,32,29,18,11,6,101,,49,49,6,8,6,5,0.5,0.3
2025-08-08T1300,1336A,112.8872,28.2189,长沙市,高开区环保局,,28,28,20,10,8,76,,43,43,5,7,4,6,0.2,0.3
2025-08-08T1300,1337A,113.0792,28.2053,长沙市,马坡岭,,33,24,17,13,7,103,,54,54,4,7,6,5,0.4,0.3
2025-08-08T1300,1338A,112.9394,28.19,长沙市,湖南师范大学,,31,31,19,8,8,88,,47,47,3,9,3,4,0.6,0.6
2025-08-08T1300,1339A,113.0178,28.1322,长沙市,雨花区环保局,,30,24,17,9,7,94,,48,48,3,6,8,7,0.6,0.5
2025-08-08T1300,1340A,112.9792,28.2597,长沙市,伍家岭,,31,31,20,9,5,91,,49,49,2,6,2,3,0.3,0.4
2025-08-08T1300,1341A,113.0014,28.1944,长沙市,火车新站,,30,27,20,3,5,93,,56,56,2,7,7,7,0.5,0.6
2025-08-08T1300,1342A,112.9844,28.1178,长沙市,天心区环保局,,30,28,16,9,6,93,,51,51,8,10,5,4,0.4,0.3
2025-08-08T1300,1343A,112.8908,28.1308,长沙市,湖南中医药大学,,32,32,20,18,11,79,,43,43,2,7,4,5,0.4,0.5
2025-08-08T1300,1344A,112.9581,28.3611,长沙市,沙坪,,32,,15,16,8,100,,47,47,7,13,3,3,0.5,0.6
2025-08-08T1300,1727A,113.1147,36.1547,长治市,清华站,,41,31,34,19,21,130,,123,123,6,8,6,6,0.7,1
2025-08-08T1300,1730A,113.0886,36.2125,长治市,审计局,,43,35,32,22,22,135,,112,112,8,12,5,5,0.8,0.9
2025-08-08T1300,1731A,113.0844,36.1856,长治市,长治八中,,46,33,33,32,29,134,,116,116,4,6,7,7,0.7,0.8
2025-08-08T1300,2845A,113.1569,36.1911,长治市,德盛苑,,40,34,34,19,22,126,,114,114,6,8,6,6,0.8,0.9
2025-08-08T1300,3568A,113.06,36.0464,长治市,向阳小学,颗粒物(PM10),54,58,65,34,31,120,,109,109,3,6,6,7,0.7,0.8
2025-08-08T1300,3569A,112.8792,36.3144,长治市,屯留一中,细颗粒物(PM2.5),60,45,56,43,38,148,,88,88,8,21,8,9,0.4,0.4
2025-08-08T1300,4189A,113.1131,36.19948,长治市,英华南巷50号,,42,38,38,14,23,132,,106,106,6,9,6,6,0.8,1
2025-08-08T1300,4190A,113.2367,36.3344,长治市,学府街1号,,44,29,37,19,33,139,,110,110,6,15,4,4,0.5,0.7
2025-08-08T1300,1854A,111.6975,28.9703,常德市,市二中,,21,17,15,8,8,67,,44,44,3,5,4,3,0.2,0.3
2025-08-08T1300,1857A,111.7158,29.1456,常德市,白鹤山,,,,,,,,,,,,,,,,
2025-08-08T1300,3138A,111.7153,29.0289,常德市,武陵区永安,,22,13,18,7,10,68,,46,46,2,3,3,3,0.6,0.6
2025-08-08T1300,3139A,111.6892,28.9881,常德市,鼎城区玉霞,,20,15,17,7,10,64,,40,40,2,5,2,2,0.3,0.3
2025-08-08T1300,3140A,111.6625,29.0531,常德市,武陵区长庚,,18,18,15,7,10,57,,40,40,3,5,3,4,0.3,0.4
2025-08-08T1300,1196A,119.9633,31.762,常州市,市监测站,,33,20,14,13,11,103,,77,77,5,11,12,14,0.4,0.5
2025-08-08T1300,1200A,119.9468,31.7069,常州市,武进监测站,,30,19,17,8,7,96,,74,74,2,7,8,15,0.8,0.9
2025-08-08T1300,1201A,119.9255,31.9087,常州市,安家,,27,24,21,3,8,86,,51,51,4,17,9,9,0.8,0.8
2025-08-08T1300,3002A,119.9805,31.8174,常州市,行政中心,,29,21,18,11,7,92,,59,59,6,12,7,12,0.4,0.5
2025-08-08T1300,3003A,120.0522,31.7748,常州市,经开区,,30,28,25,8,7,95,,61,61,5,10,3,5,0.2,0.3
2025-08-08T1300,3010A,119.9025,31.7964,常州市,钟楼,,29,21,20,7,7,91,,62,62,5,13,6,7,0.4,0.5
2025-08-08T1300,3429A,119.8598,31.7066,常州市,武进经发区,,31,26,25,13,11,97,,62,62,1,8,8,10,0.8,0.8
2025-08-08T1300,3430A,119.5826,31.7245,常州市,金坛城区,,26,16,19,9,10,81,,53,53,5,13,7,9,0.3,0.3
2025-08-08T1300,2220A,120.4318,41.5881,朝阳市,西梁,,25,25,27,10,10,67,,36,36,9,20,8,7,0.6,0.6
2025-08-08T1300,2221A,120.4521,41.5646,朝阳市,河畔小区,,24,18,18,10,5,76,,42,42,6,13,10,8,0.4,0.4
2025-08-08T1300,2222A,120.4176,41.5648,朝阳市,八里堡,,30,30,31,11,10,78,,40,40,8,18,10,8,0.5,0.5
2025-08-08T1300,2223A,120.3806,41.5969,朝阳市,农业园区,,24,24,21,12,7,70,,34,34,7,14,12,9,0.5,0.6
2025-08-08T1300,1705A,116.6367,23.6719,潮州市,西园路,细颗粒物(PM2.5),55,,37,39,22,144,,53,53,9,10,6,4,0.3,0.2
2025-08-08T1300,3026A,116.6183,23.6608,潮州市,市政府,颗粒物(PM10),115,179,71,38,21,,,18,,,17,12,9,,0.5
2025-08-08T1300,4036A,116.6461,23.6761,潮州市,金山,,49,49,35,28,19,134,,50,50,6,9,7,5,0.8,0.7
2025-08-08T1300,2472A,113.0073,25.9061,郴州市,马头岭,,20,20,13,3,6,63,,44,44,5,8,8,8,0.6,0.5
2025-08-08T1300,2473A,113.0116,25.8226,郴州市,市职中,,19,12,9,6,6,59,,46,46,4,6,7,9,0.2,0.2
2025-08-08T1300,2475A,113.0383,25.8071,郴州市,市审计局,,18,,8,3,5,57,,44,44,6,5,5,11,0.2,0.3
2025-08-08T1300,2476A,113.0348,25.7759,郴州市,市环保局,,19,8,9,7,4,58,,45,45,4,6,1,8,0.2,0.2
2025-08-08T1300,4252A,113.0138,25.8011,郴州市,好美居路49号,,30,30,11,6,4,58,,44,44,3,5,8,11,0.2,0.2
2025-08-08T1300,1431A,103.9728,30.7236,成都市,金泉两河,臭氧1小时,53,26,29,17,13,162,,80,80,8,16,2,3,0.7,0.7
2025-08-08T1300,1432A,104.176,30.6872,成都市,十里店,臭氧1小时,63,35,32,14,15,170,,86,86,10,17,4,5,0.6,0.6
2025-08-08T1300,1433A,104.079,30.5706,成都市,三瓦窑,臭氧1小时,103,36,31,35,23,205,,83,83,15,25,3,3,0.3,0.4
2025-08-08T1300,1434A,104.1114,30.63,成都市,沙河铺,,50,36,32,25,18,158,,76,76,14,15,6,6,0.7,0.6
2025-08-08T1300,1437A,104.0786,30.6531,成都市,君平街,臭氧1小时,68,31,35,19,21,174,,87,87,19,19,8,6,0.8,0.8
2025-08-08T1300,1438A,103.613,31.0283,成都市,灵岩寺,,,,,,,,,,,,,,,,
2025-08-08T1300,2880A,104.0239,30.65639,成都市,大石西路,,48,38,29,22,20,153,,62,62,17,17,6,3,0.8,0.7
2025-08-08T1300,3136A,104.2725,30.5589,成都市,龙泉驿区区政府,,,,23,12,16,154,,86,86,13,16,4,4,0.6,0.6
2025-08-08T1300,3357A,104.0106,30.6931,成都市,金博路,,48,34,21,18,12,151,,67,67,14,19,6,5,0.9,0.9
2025-08-08T1300,3359A,104.0578,30.5225,成都市,华阳,,,34,29,27,22,,,80,80,8,16,2,2,0.7,0.7
2025-08-08T1300,3488A,104.3853,30.7453,成都市,青白江技师分院,,45,34,27,24,18,143,,61,61,10,32,6,7,0.6,0.6
2025-08-08T1300,3489A,104.0789,30.4072,成都市,科学城,,44,29,27,22,20,138,,78,78,5,12,3,3,0.6,0.6
2025-08-08T1300,4011A,103.8506,30.6947,成都市,光华大道三段,,49,43,29,10,14,156,,79,79,10,15,5,6,0.4,0.4
2025-08-08T1300,4224A,104.2433,30.5353,成都市,鲸龙路1057号,臭氧1小时,55,42,35,32,27,164,,89,89,15,18,3,3,0.9,0.8
2025-08-08T1300,1062A,117.9531,40.9081,承德市,铁路,,38,38,26,14,9,37,,22,22,21,16,3,3,0.4,0.3
2025-08-08T1300,1063A,117.9392,40.9763,承德市,中国银行,,24,24,25,6,9,35,,20,20,14,11,3,3,0.4,0.3
2025-08-08T1300,1064A,117.9503,40.928,承德市,开发区,,29,29,31,8,8,38,,22,22,21,14,5,5,0.5,0.4
2025-08-08T1300,1066A,117.9268,41.0026,承德市,离宫,,23,23,25,11,9,31,,19,19,10,8,3,3,0.3,0.2
2025-08-08T1300,4274A,117.7994,40.9605,承德市,滨河大街98号,,23,23,24,12,7,38,,20,20,13,15,2,2,0.4,0.2
2025-08-08T1300,2314A,117.47,30.6618,池州市,池州学院,,26,18,15,11,9,83,,46,46,5,8,6,5,0.5,0.4
2025-08-08T1300,3237A,117.4918,30.6617,池州市,展览馆,,26,20,16,10,6,83,,56,56,4,7,6,5,0.5,0.5
2025-08-08T1300,3333A,117.5627,30.695,池州市,第八中学,,25,19,16,13,9,80,,53,53,2,5,5,5,0.4,0.5
2025-08-08T1300,3334A,117.5038,30.6243,池州市,第十二中学,,26,19,20,10,8,82,,49,49,5,15,6,3,0.6,0.7
2025-08-08T1300,1744A,118.9233,42.2816,赤峰市,松山一中,,26,18,20,18,7,20,,14,14,38,27,19,20,1.0,0.6
2025-08-08T1300,1745A,118.9576,42.2728,赤峰市,哈达街,颗粒物(PM10),56,62,23,14,4,21,,20,15,36,24,29,15,0.8,0.5
2025-08-08T1300,1746A,118.8788,42.2554,赤峰市,天义路,,32,32,15,17,11,24,,21,21,30,17,13,13,0.5,0.3
2025-08-08T1300,3058A,119.2658,42.0353,赤峰市,银河街,颗粒物(PM10),67,84,36,18,11,20,,18,18,35,19,18,12,1.5,0.6
2025-08-08T1300,3286A,118.9359,42.3147,赤峰市,桥北物流园区,,46,46,23,27,9,18,,10,10,40,24,52,19,0.8,0.5
2025-08-08T1300,2521A,107.3476,22.4136,崇左市,市环保局江州分局,,30,30,29,13,11,84,,39,39,4,9,7,6,0.4,0.5
2025-08-08T1300,4256A,107.3750,22.3736,崇左市,石景林东路7号,,28,22,23,11,9,89,,42,42,4,10,4,4,0.5,0.5
2025-08-08T1300,2298A,118.3093,32.3153,滁州市,老年大学,,26,20,23,3,11,81,,58,58,2,6,12,8,0.3,0.3
2025-08-08T1300,2299A,118.3244,32.2786,滁州市,人大宾馆,,27,,12,13,14,84,,61,61,2,6,4,5,0.3,0.3
2025-08-08T1300,3207A,118.3118,32.3038,滁州市,市政府原办公楼,,25,18,17,13,16,80,,57,57,2,5,6,6,0.3,0.3
2025-08-08T1300,3331A,118.3267,32.2634,滁州市,图书馆,,28,16,14,11,13,89,,64,64,3,8,10,11,0.2,0.2
2025-08-08T1300,2605A,101.5482,25.0441,楚雄彝族自治州,州环境监测站,,13,7,7,3,3,40,,30,30,4,7,3,3,0.5,0.5
2025-08-08T1300,2606A,101.538,25.0492,楚雄彝族自治州,市经济开发区,,13,9,12,3,5,40,,30,30,6,7,6,6,0.6,0.6
2025-08-08T1300,2548A,107.5277,31.2827,达州市,达州职业技术学院,,30,26,30,3,6,94,,59,59,3,14,7,7,0.5,0.4
2025-08-08T1300,2549A,107.5086,31.2186,达州市,市环境监测站,,26,17,31,3,11,82,,56,56,10,22,5,6,0.4,0.5
2025-08-08T1300,2550A,107.4988,31.2132,达州市,凤凰小区,,27,12,27,3,12,86,,55,55,7,16,2,2,0.3,0.4
2025-08-08T1300,2551A,107.5082,31.1986,达州市,达县机关宾馆,,28,12,26,3,10,89,,47,47,8,25,4,4,0.3,0.4
2025-08-08T1300,2552A,107.4644,31.2124,达州市,市政中心,,29,18,34,3,12,90,,57,57,5,15,3,3,0.3,0.4
2025-08-08T1300,2614A,100.1542,25.7054,大理白族自治州,大理市环境监测站,,18,,10,9,13,57,,58,54,6,8,5,4,0.6,0.6
2025-08-08T1300,2615A,100.2171,25.5811,大理白族自治州,大理古城,,24,18,18,3,9,76,,51,51,4,9,4,5,0.7,0.8
2025-08-08T1300,1109A,121.612,38.9741,大连市,甘井子,,38,31,23,14,15,120,,76,76,22,17,10,10,0.5,0.6
2025-08-08T1300,1110A,121.565,38.9511,大连市,周水子,,30,23,18,12,13,94,,66,66,15,18,8,7,0.4,0.4
2025-08-08T1300,1111A,121.5637,38.8845,大连市,星海三站,,40,26,21,24,13,126,,76,76,15,14,7,6,0.5,0.4
2025-08-08T1300,1112A,121.6302,38.9117,大连市,青泥洼桥,,37,29,28,14,14,116,,78,78,19,19,8,8,0.4,0.5
2025-08-08T1300,1113A,121.6251,38.8638,大连市,傅家庄,,42,,18,24,13,134,,73,73,13,14,10,10,0.3,0.3
2025-08-08T1300,1114A,121.5213,38.8661,大连市,七贤岭,,41,26,20,17,12,129,,80,80,16,9,11,10,0.5,0.5
2025-08-08T1300,1115A,121.2529,38.8061,大连市,旅顺,,32,,16,14,14,101,,70,70,18,20,4,5,0.5,0.4
2025-08-08T1300,1116A,121.7485,39.1311,大连市,金州,,32,15,21,8,13,102,,74,74,10,13,6,7,0.3,0.4
2025-08-08T1300,1117A,121.7811,39.0496,大连市,开发区,,35,20,22,16,13,111,,52,52,18,15,4,4,0.6,0.5
2025-08-08T1300,1118A,121.9762,39.0631,大连市,双D港,,34,18,20,16,14,108,,82,82,6,8,11,12,0.6,0.5
2025-08-08T1300,1789A,124.81117,46.03138,大庆市,大同区,,22,14,16,3,6,70,,49,49,6,10,5,4,0.6,0.6
2025-08-08T1300,1790A,125.129,46.533,大庆市,龙凤区,,22,13,23,6,10,69,,51,51,6,19,6,7,0.4,0.6
2025-08-08T1300,1791A,124.902,46.408,大庆市,红岗区,,25,18,20,11,11,79,,58,58,5,14,6,7,0.4,0.5
2025-08-08T1300,1792A,125.153,46.586,大庆市,萨尔图区,,28,28,24,3,9,66,,56,56,4,13,7,7,0.5,0.6
2025-08-08T1300,1793A,124.9042,46.6215,大庆市,让胡路区,,26,20,24,11,14,82,,59,59,5,13,5,6,0.2,0.3
2025-08-08T1300,3481A,125.141,46.634,大庆市,萨区政府监测点,,25,19,23,3,4,79,,60,60,4,13,7,6,0.2,0.3
2025-08-08T1300,1721A,113.3819,40.1097,大同市,果树场,,19,8,18,3,9,58,,76,74,23,15,7,7,0.5,0.5
2025-08-08T1300,1723A,113.2994,40.0758,大同市,云冈宾馆,,29,8,22,3,10,90,,102,100,12,17,5,6,0.6,0.7
2025-08-08T1300,1724A,113.3444,40.0917,大同市,大同大学,,26,8,18,3,9,81,,93,93,16,18,4,5,0.5,0.5
2025-08-08T1300,1725A,113.2661,40.1269,大同市,安家小村,,25,6,25,3,7,79,,84,82,10,17,5,7,0.4,0.4
2025-08-08T1300,1726A,113.2711,40.0844,大同市,教育学院,,27,12,21,6,10,85,,103,98,17,16,7,8,0.7,0.4
2025-08-08T1300,3282A,113.3397,40.0597,大同市,大同市卫生学校,,26,,23,6,11,81,,95,95,11,20,5,6,0.6,0.6
2025-08-08T1300,3565A,113.1367,40.1122,大同市,云冈站,,30,6,28,3,12,96,,96,96,1,8,2,4,0.5,0.6
2025-08-08T1300,3566A,113.1186,40.2556,大同市,图书馆,,32,9,28,6,12,100,,96,96,7,12,2,7,0.8,0.9
2025-08-08T1300,3567A,113.5931,40.0461,大同市,区一中,,32,,10,3,9,102,,111,111,7,7,6,7,0.5,0.5
2025-08-08T1300,4199A,113.2798,40.0997,大同市,魏都大道141号,,27,12,20,7,10,86,,99,96,16,17,4,5,0.8,0.6
2025-08-08T1300,2269A,124.1069,50.4097,大兴安岭地区,科技局,,22,20,24,7,11,69,,37,37,2,4,5,5,0.4,0.4
2025-08-08T1300,3663A,124.1164,50.4278,大兴安岭地区,红旗社区,,24,9,9,3,6,75,,40,40,4,6,4,4,0.3,0.3
2025-08-08T1300,1600A,124.3303,40.0625,丹东市,江湾东路,,35,19,15,10,8,110,,70,70,10,13,8,7,0.6,0.6
2025-08-08T1300,1601A,124.4256,40.1503,丹东市,临江后街,,27,13,13,6,8,86,,57,57,6,11,8,7,0.5,0.6
2025-08-08T1300,1602A,124.3933,40.1461,丹东市,元宝山,,25,12,11,7,7,78,,54,54,8,9,5,4,0.6,0.6
2025-08-08T1300,1603A,124.3633,40.1092,丹东市,民主桥,,31,23,15,8,8,97,,64,64,8,14,6,4,0.5,0.5
2025-08-08T1300,3541A,109.5726,19.5167,儋州市,第一中学子站,,,25,22,16,12,53,,33,33,,4,5,6,0.4,0.5
2025-08-08T1300,3542A,109.5567,19.5187,儋州市,东坡学校子站,,20,15,20,14,12,61,,41,41,2,3,7,7,0.6,0.6
2025-08-08T1300,2616A,98.5842,24.428,德宏傣族景颇族自治州,德宏州监测站,,23,23,16,9,8,47,,25,25,6,11,19,23,0.5,0.6
2025-08-08T1300,3677A,98.5881,24.4368,德宏傣族景颇族自治州,芒市人民政府综合楼,,26,26,21,12,5,44,,25,25,7,8,16,11,0.5,0.5
2025-08-08T1300,1901A,104.4239,31.1208,德阳市,东山公园,,33,19,18,14,15,105,,55,55,3,12,1,5,0.8,0.9
2025-08-08T1300,1902A,104.3826,31.1317,德阳市,西小区,,31,31,29,15,19,96,,51,51,12,18,3,5,1.0,1
2025-08-08T1300,1904A,104.3553,31.1091,德阳市,耐火材料厂,,34,28,30,20,19,106,,54,54,8,14,3,6,0.6,0.7
2025-08-08T1300,3639A,104.4019,31.1244,德阳市,市教育局,,29,23,29,15,19,90,,50,50,5,15,3,9,0.9,0.9
2025-08-08T1300,1622A,116.3032,37.4674,德州市,儿童乐园,臭氧1小时,99,56,37,41,24,199,,117,117,8,11,13,10,1.0,0.8
2025-08-08T1300,1624A,116.2991,37.4451,德州市,监理站,臭氧1小时,95,53,34,39,22,196,,116,116,6,9,16,14,0.7,0.5
2025-08-08T1300,3066A,116.2721,37.4379,德州市,九衢泉纯净水厂,臭氧1小时,85,58,38,44,27,188,,106,106,10,12,6,6,1.0,0.8
2025-08-08T1300,3371A,116.3728,37.4403,德州市,开发区人民医院,,,,36,,23,184,,113,113,9,12,9,11,1.1,1
2025-08-08T1300,3511A,116.5652,37.3319,德州市,陵城艺术中心,颗粒物(PM10),52,53,40,29,21,140,,96,96,8,12,6,6,0.7,0.7
2025-08-08T1300,4292A,116.3525,37.4209,德州市,新河东路,臭氧1小时,95,58,39,44,28,196,,112,112,7,11,12,10,1.3,1
2025-08-08T1300,2621A,99.7056,27.8317,迪庆藏族自治州,迪庆州站,,28,25,22,11,15,88,,66,66,4,8,6,6,0.4,0.5
2025-08-08T1300,3180A,99.7136,27.8094,迪庆藏族自治州,质量技术监督局,,31,18,18,8,8,97,,74,74,9,13,6,8,0.4,0.5
2025-08-08T1300,4257A,104.6092,35.5962,定西市,将台街,,32,8,23,8,16,102,,102,102,3,5,5,7,0.6,0.6
2025-08-08T1300,4309A,104.6159,35.5701,定西市,正龙路62号,,33,13,21,12,16,105,,103,103,5,5,4,4,0.4,0.4
2025-08-08T1300,1389A,113.7547,23.0494,东莞市,莞城梨川,,49,23,19,20,15,155,,67,67,11,19,6,7,0.4,0.4
2025-08-08T1300,1390A,113.7944,23.0128,东莞市,东城石井,,50,35,27,25,13,159,,74,74,12,21,4,3,0.6,0.6
2025-08-08T1300,1391A,113.7383,22.9658,东莞市,南城西平,臭氧1小时,88,33,25,31,15,190,,86,86,19,26,6,5,0.5,0.5
2025-08-08T1300,3319A,113.7338,23.0381,东莞市,万江金泰,臭氧1小时,65,34,23,24,13,172,,73,73,13,21,5,5,0.6,0.6
2025-08-08T1300,3626A,113.7533,23.0202,东莞市,南城元岭,臭氧1小时,73,38,24,31,13,178,,74,74,16,21,6,7,0.7,0.7
2025-08-08T1300,3627A,113.7875,23.0457,东莞市,东城主山,,,,23,,10,,,40,,,23,,5,,0.4
2025-08-08T1300,1666A,118.6614,37.4309,东营市,市环保局,臭氧1小时,53,31,16,19,7,162,,118,118,11,12,8,8,0.4,0.3
2025-08-08T1300,3036A,118.6904,37.4338,东营市,开发区管委会,臭氧1小时,73,45,20,22,8,178,,124,124,13,13,11,9,0.3,0.2
2025-08-08T1300,3365A,118.5719,37.565,东营市,垦利区民丰路,臭氧1小时,67,46,15,27,6,173,,110,110,12,15,7,4,0.7,0.6
2025-08-08T1300,3498A,118.5055,37.8612,东营市,河口城区,,40,12,11,10,2,126,,96,96,7,8,6,5,0.7,0.7
2025-08-08T1300,3646A,118.4978,37.4623,东营市,胜利站,臭氧1小时,53,34,20,24,8,162,,117,117,15,14,2,2,0.6,0.4
2025-08-08T1300,3734A,118.35,37.26,东营市,理想之城,,50,27,14,17,11,157,,110,110,12,13,8,6,0.6,0.4
2025-08-08T1300,1591A,110.0023,39.8129,鄂尔多斯市,综合楼,,36,19,20,9,8,113,,111,111,15,13,5,4,0.6,0.6
2025-08-08T1300,1592A,109.9486,39.8261,鄂尔多斯市,巴音孟克林场办事处,,38,19,21,12,7,119,,114,113,11,12,3,3,0.7,0.5
2025-08-08T1300,1593A,109.7736,39.5986,鄂尔多斯市,康泽苑,,31,22,26,3,6,98,,93,93,5,10,8,8,0.4,0.4
2025-08-08T1300,1594A,109.8119,39.5989,鄂尔多斯市,华泰汽车城,,31,9,23,3,9,98,,93,93,8,13,3,4,0.5,0.5
2025-08-08T1300,1595A,109.9734,39.7884,鄂尔多斯市,奥林花园,,37,22,22,12,10,116,,113,112,13,15,7,6,0.8,0.7
2025-08-08T1300,2436A,114.8938,30.3994,鄂州市,市政府,,31,17,20,13,5,98,,42,42,14,17,7,6,0.7,0.7
2025-08-08T1300,2437A,114.8989,30.3714,鄂州市,赵家坝,,33,27,24,9,3,103,,42,42,11,17,8,7,0.9,0.9
2025-08-08T1300,3654A,114.8094,30.4089,鄂州市,精准医疗中心,,33,13,22,3,4,105,,50,50,4,16,6,7,0.6,0.6
2025-08-08T1300,2454A,109.4978,30.2981,恩施土家族苗族自治州,湖北民院,,24,13,13,6,9,76,,,,2,3,4,5,2.2,0.7
2025-08-08T1300,2455A,109.4707,30.2798,恩施土家族苗族自治州,州电力总公司,,22,10,19,10,10,68,,32,32,3,12,4,5,0.6,0.6
2025-08-08T1300,3549A,109.5061,30.3772,恩施土家族苗族自治州,龙凤新区,,36,19,16,9,10,114,,54,54,7,7,4,4,0.3,0.3
2025-08-08T1300,2499A,108.3411,21.6158,防城港市,沙万,颗粒物(PM10),53,56,35,15,15,53,,40,38,6,21,2,2,0.4,0.4
2025-08-08T1300,2500A,108.3514,21.7731,防城港市,防城档案局,,30,30,22,10,11,48,,38,38,3,7,2,2,0.2,0.4
2025-08-08T1300,2501A,108.3506,21.6414,防城港市,大海花园,,33,33,30,10,10,59,,54,53,3,14,3,4,0.4,0.4
2025-08-08T1300,1371A,113.1294,23.0067,佛山市,湾梁,,47,46,26,27,17,149,,48,48,28,37,6,6,0.5,0.5
2025-08-08T1300,1372A,113.1083,23.0478,佛山市,华材职中,臭氧1小时,62,51,24,23,13,169,,60,60,20,29,9,8,0.7,0.7
2025-08-08T1300,1373A,113.144,23.0453,佛山市,南海气象局,,46,45,25,19,15,145,,46,46,18,26,4,4,0.6,0.6
2025-08-08T1300,1374A,113.2881,22.8094,佛山市,顺德苏岗,,48,47,33,22,11,152,,44,44,17,34,6,6,0.5,0.5
2025-08-08T1300,1376A,112.8383,22.8678,佛山市,高明孔堂,臭氧1小时,99,43,34,24,12,199,,66,66,22,27,8,8,0.7,0.6
2025-08-08T1300,1377A,112.8836,23.1588,佛山市,三水监测站,,44,44,26,28,16,112,,33,33,20,29,6,6,0.5,0.5
2025-08-08T1300,1378A,112.867,23.185,佛山市,三水云东海,细颗粒物(PM2.5),57,44,30,40,18,141,,36,36,23,27,6,2,0.7,0.7
2025-08-08T1300,3625A,113.2544,22.7642,佛山市,容桂街道办,臭氧1小时,83,34,22,29,16,186,,60,60,22,36,6,7,0.7,0.7
2025-08-08T1300,1280A,119.3903,26.0543,福州市,鼓山,,,,,,,,,,,,,,,,
2025-08-08T1300,1282A,119.2681,26.0504,福州市,师大,,35,28,39,15,19,110,,64,64,4,12,5,6,0.2,0.3
2025-08-08T1300,1283A,119.2984,26.1028,福州市,五四北路,,,,44,11,21,106,,68,68,6,14,4,4,0.3,0.3
2025-08-08T1300,1284A,119.2648,26.0768,福州市,杨桥西路,,40,28,39,20,20,125,,65,65,5,12,4,4,0.3,0.3
2025-08-08T1300,1285A,119.317,26.0746,福州市,紫阳,,31,21,45,11,21,97,,59,59,9,13,4,4,0.2,0.2
2025-08-08T1300,3048A,119.5799,26.0936,福州市,九龙,细颗粒物(PM2.5),65,70,43,47,26,171,,79,79,8,12,4,5,0.4,0.3
2025-08-08T1300,3526A,119.5189,25.9664,福州市,吴航,,40,31,40,22,22,126,,69,69,4,10,6,6,0.4,0.4
2025-08-08T1300,1755A,123.7977,41.8491,抚顺市,望花区,,32,32,29,3,10,85,,40,40,9,20,7,7,0.4,0.6
2025-08-08T1300,1756A,123.9161,41.8822,抚顺市,顺城区,,25,25,24,3,10,78,,40,40,9,20,4,5,0.4,0.6
2025-08-08T1300,1757A,124.0436,41.8611,抚顺市,东洲区,,22,15,22,3,10,68,,40,40,6,14,4,5,0.4,0.5
2025-08-08T1300,1758A,123.9247,41.8642,抚顺市,新抚区,,22,15,21,3,9,70,,40,40,6,14,5,5,0.4,0.6
2025-08-08T1300,1759A,124.0972,41.8961,抚顺市,大伙房水库,,21,6,17,3,9,67,,40,40,2,13,7,7,0.3,0.4
2025-08-08T1300,1760A,123.7086,41.8391,抚顺市,沈抚新城,,30,18,24,3,10,93,,44,44,10,20,7,7,0.5,0.7
2025-08-08T1300,2376A,116.2127,28.0814,抚州市,桐源党溪,,21,21,28,3,10,56,,39,39,3,6,4,4,0.6,0.6
2025-08-08T1300,2377A,116.3544,27.9831,抚州市,市站,,20,13,18,3,8,62,,50,50,2,2,1,2,0.2,0.4
2025-08-08T1300,2378A,116.3565,27.963,抚州市,血防站,,19,14,22,3,9,60,,47,47,2,5,5,5,0.3,0.3
2025-08-08T1300,2379A,116.3564,28.0007,抚州市,采茶剧团,,19,12,20,3,9,60,,49,49,2,2,3,3,0.2,0.3
2025-08-08T1300,2380A,116.385,27.9647,抚州市,医学分院,,19,14,20,3,8,60,,47,47,2,4,5,4,0.2,0.3
2025-08-08T1300,2207A,121.6094,41.998,阜新市,工业园区,,27,20,26,6,6,84,,52,52,9,20,14,6,0.4,0.8
2025-08-08T1300,2208A,121.6697,42.0279,阜新市,长青街,,27,16,20,6,9,85,,50,50,7,15,14,7,0.4,1.5
2025-08-08T1300,2209A,121.6673,42.0705,阜新市,农业园区,,25,16,19,3,4,77,,55,55,6,8,6,4,0.5,1.5
2025-08-08T1300,2210A,121.6717,42.0224,阜新市,东苑,,32,32,35,12,10,84,,50,50,10,19,15,9,0.4,1.8
2025-08-08T1300,2211A,121.6506,42.0498,阜新市,玉龙新城,,26,26,26,8,7,77,,48,48,7,22,13,8,0.4,1.1
2025-08-08T1300,2301A,115.8277,32.8929,阜阳市,市监测站,,33,27,28,18,16,105,,70,70,8,14,4,4,0.2,0.3
2025-08-08T1300,2303A,115.8554,32.8605,阜阳市,开发区,,35,35,33,15,18,106,,71,71,5,12,5,6,0.4,0.4
2025-08-08T1300,2875A,115.784,32.8892,阜阳市,阜阳职业技术学院,,35,22,27,9,15,112,,79,79,5,11,4,5,0.4,0.4
2025-08-08T1300,3468A,115.7901,32.8613,阜阳市,市规划展馆,,31,30,33,12,24,99,,66,66,3,9,2,2,0.4,0.4
2025-08-08T1300,3469A,115.836,32.9183,阜阳市,枣园社区,,35,16,30,8,22,111,,68,68,6,12,2,2,0.5,0.6
2025-08-08T1300,2669A,102.9099,34.9841,甘南藏族自治州,州政府,,24,16,18,10,14,75,,68,68,4,7,3,3,0.3,0.3
2025-08-08T1300,3380A,102.8914,34.9617,甘南藏族自治州,甘肃民族师范学院,,24,6,17,3,9,75,,68,68,2,2,4,4,0.3,0.3
2025-08-08T1300,2570A,101.9603,30.0475,甘孜藏族自治州,水桥子,,31,,12,3,7,97,,44,44,6,15,7,6,0.2,0.4
2025-08-08T1300,3065A,101.9533,29.9972,甘孜藏族自治州,州环保局,,34,14,17,3,6,108,,55,55,4,17,4,4,0.5,0.5
2025-08-08T1300,3414A,115.8347,28.932,赣江新区,桑海产业园,,30,12,12,3,5,93,,56,56,2,13,5,5,0.3,0.3
2025-08-08T1300,2362A,114.9017,25.9149,赣州市,通天岩,,20,19,18,9,11,64,,50,50,3,4,17,17,0.6,0.6
2025-08-08T1300,2363A,114.9367,25.8664,赣州市,地委,,19,14,21,7,9,59,,43,43,6,8,5,6,0.9,0.9
2025-08-08T1300,2364A,114.9461,25.8481,赣州市,气象台,,20,19,20,3,5,62,,43,43,4,5,8,8,0.4,0.5
2025-08-08T1300,2365A,114.9322,25.8333,赣州市,市图书馆,,19,11,14,7,7,58,,39,39,4,6,4,4,0.3,0.3
2025-08-08T1300,2366A,114.8905,25.8471,赣州市,华坚鞋城,,22,22,20,8,9,57,,41,41,6,9,4,4,0.4,0.4
2025-08-08T1300,3109A,115.0093,25.8613,赣州市,赣县区卫计委,,27,27,16,8,8,62,,36,36,4,7,4,4,0.2,0.2
2025-08-08T1300,2683A,106.2319,36.1417,固原市,马园,,33,,24,3,10,103,,102,99,6,13,7,7,0.6,0.7
2025-08-08T1300,2684A,106.2792,36.0022,固原市,监测站,,32,17,23,16,15,101,,,,8,6,5,6,0.3,0.4
2025-08-08T1300,2685A,106.2375,36.0211,固原市,新区,,,,20,7,12,97,,103,99,5,6,7,6,0.4,0.5
2025-08-08T1300,3522A,106.2177,35.9959,固原市,原州区十五小,,30,6,22,3,14,96,,98,96,5,6,8,9,0.4,0.5
2025-08-08T1300,2543A,106.6308,30.5278,广安市,小平旧居,,,,,,,,,,,,,,,,
2025-08-08T1300,2544A,106.6303,30.4576,广安市,市委,细颗粒物(PM2.5),99,,34,74,34,122,,92,92,8,11,6,6,0.5,0.5
2025-08-08T1300,2545A,106.6271,30.4663,广安市,友谊中学,颗粒物(PM10),57,64,31,26,21,127,,103,103,8,12,4,6,0.6,0.7
2025-08-08T1300,2547A,106.6388,30.4551,广安市,广电花园,颗粒物(PM10),61,72,50,16,21,116,,86,86,8,12,2,3,0.6,0.6
2025-08-08T1300,2902A,106.6351,30.4865,广安市,北辰小学,,42,31,30,29,23,128,,105,105,6,9,6,7,0.6,0.7
2025-08-08T1300,2523A,105.8945,32.4535,广元市,黑石坡,,34,31,25,17,22,107,,35,35,5,11,9,10,0.5,0.5
2025-08-08T1300,2524A,105.821,32.4444,广元市,老城,,,,14,,6,131,,73,73,8,20,18,7,1.0,0.9
2025-08-08T1300,2526A,105.8628,32.4287,广元市,监测站,,38,11,38,3,10,121,,52,52,8,13,18,16,1.0,0.9
2025-08-08T1300,3617A,105.8047,32.4166,广元市,经开区,,36,34,24,13,10,115,,77,77,8,17,12,7,1.1,0.9
2025-08-08T1300,1345A,113.2347,23.1423,广州市,广雅中学,臭氧1小时,52,48,30,26,15,161,,47,47,30,35,2,2,0.5,0.3
2025-08-08T1300,1346A,113.2612,23.105,广州市,市五中,,49,46,27,22,14,154,,47,47,20,33,4,5,0.8,0.8
2025-08-08T1300,1348A,113.3478,23.0916,广州市,广东商学院,细颗粒物(PM2.5),53,51,24,37,14,159,,50,50,30,30,3,3,0.8,0.8
2025-08-08T1300,1349A,113.4332,23.1047,广州市,市八十六中,臭氧1小时,53,37,20,21,11,162,,49,49,29,36,3,3,0.2,0.2
2025-08-08T1300,1350A,113.3505,22.9483,广州市,番禺中学,臭氧1小时,68,44,24,24,12,174,,60,60,16,29,5,6,0.5,0.5
2025-08-08T1300,1351A,113.2146,23.3916,广州市,花都师范,颗粒物(PM10),51,51,30,26,12,160,,51,51,20,32,6,5,0.6,0.6
2025-08-08T1300,1352A,113.2597,23.1331,广州市,市监测站,,48,42,27,22,13,153,,52,52,25,33,5,5,0.4,0.4
2025-08-08T1300,1353A,113.5618,23.312,广州市,九龙镇镇龙,颗粒物(PM10),51,52,21,27,9,143,,46,46,15,18,6,6,0.5,0.4
2025-08-08T1300,1354A,113.2765,23.1544,广州市,麓湖,,45,38,26,28,16,143,,42,42,26,29,2,2,0.6,0.6
2025-08-08T1300,1355A,113.443,23.3035,广州市,帽峰山森林公园,,,41,11,3,7,155,,56,56,,11,4,2,0.7,0.5
2025-08-08T1300,2846A,113.3221,23.1322,广州市,体育西,颗粒物(PM10),62,73,32,25,15,155,,49,49,34,33,3,4,0.7,0.7
2025-08-08T1300,3298A,113.5717,23.5491,广州市,从化街口,,39,39,21,25,10,111,,38,38,8,15,6,6,0.5,0.6
2025-08-08T1300,3299A,113.3472,23.3692,广州市,白云竹料,颗粒物(PM10),54,57,24,30,13,155,,49,49,21,22,4,3,0.5,0.5
2025-08-08T1300,3300A,113.2981,23.237,广州市,白云嘉禾,臭氧1小时,75,75,27,39,14,180,,50,50,37,32,4,4,0.6,0.4
2025-08-08T1300,3301A,113.4256,23.1716,广州市,黄埔科学城,,50,43,20,27,9,157,,50,50,23,22,8,6,0.6,0.4
2025-08-08T1300,3302A,113.3942,23.0483,广州市,番禺大学城,臭氧1小时,90,36,22,22,11,192,,74,74,23,33,6,6,0.5,0.5
2025-08-08T1300,3303A,113.4922,22.8168,广州市,南沙黄阁,臭氧1小时,117,60,38,45,18,233,,85,85,22,31,8,8,0.5,0.6
2025-08-08T1300,3304A,113.5342,22.7896,广州市,南沙街,臭氧1小时,110,33,38,29,18,219,,67,67,18,31,5,7,0.6,0.6
2025-08-08T1300,3443A,113.2902,23.5544,广州市,花都梯面,,35,27,16,15,7,110,,52,52,7,15,5,5,0.6,0.6
2025-08-08T1300,3445A,113.7858,23.7478,广州市,从化良口,,28,23,13,19,5,75,,34,34,4,8,4,4,0.5,0.4
2025-08-08T1300,3446A,113.8051,23.2614,广州市,增城荔城,细颗粒物(PM2.5),62,47,17,44,11,137,,51,51,9,10,7,7,0.5,0.4
2025-08-08T1300,2505A,109.568,23.1478,贵港市,德智高中,,,,,,,,,,,,,,,,
2025-08-08T1300,2506A,109.6047,23.0666,贵港市,江南子站,,27,27,31,10,16,70,,33,33,2,12,6,6,0.5,0.6
2025-08-08T1300,2508A,109.5669,23.1065,贵港市,荷城子站,,27,27,27,17,13,79,,33,33,6,14,7,9,0.5,0.6
2025-08-08T1300,3405A,109.5886,23.1172,贵港市,新世纪学校,,42,39,32,29,17,86,,37,37,9,15,1,2,0.6,0.5
2025-08-08T1300,4260A,109.5933,23.0951,贵港市,中山路155-3号,,38,38,41,19,16,81,,38,38,4,16,4,6,0.4,0.5
2025-08-08T1300,1439A,106.6899,26.5998,贵阳市,马鞍山,,,9,10,,1,72,,46,46,6,8,4,4,0.4,0.6
2025-08-08T1300,1441A,106.6243,26.6266,贵阳市,鉴湖路,,27,27,23,3,2,58,,38,38,6,8,8,7,0.3,0.2
2025-08-08T1300,1442A,106.7487,26.6343,贵阳市,燕子冲,,25,,9,17,12,75,,46,46,9,10,11,10,0.2,0.2
2025-08-08T1300,1443A,106.6555,26.4365,贵阳市,碧云窝,,23,22,25,3,5,72,,44,44,5,5,6,6,0.2,0.2
2025-08-08T1300,1445A,106.7109,26.6027,贵阳市,红边门,,21,17,14,7,6,65,,40,40,10,12,3,3,0.2,0.3
2025-08-08T1300,1446A,106.7164,26.5699,贵阳市,新华路,,21,19,18,7,8,66,,44,44,9,11,10,12,0.3,0.1
2025-08-08T1300,1447A,106.674,26.5424,贵阳市,太慈桥,,18,12,11,3,3,56,,33,33,8,11,5,6,0.1,0.1
2025-08-08T1300,1552A,106.805,26.3003,贵阳市,桐木岭,,27,27,24,14,12,56,,46,42,6,5,7,6,0.9,0.9
2025-08-08T1300,4230A,106.6882,26.5695,贵阳市,花果园大街66号,,20,,3,9,7,64,,41,40,7,8,4,4,0.4,0.4
2025-08-08T1300,4231A,106.6873,26.5169,贵阳市,漓江路57号,,23,12,11,9,5,72,,45,45,4,7,4,4,0.3,0.3
2025-08-08T1300,1862A,110.4144,25.3167,桂林市,电子科大尧山校区,,,,,,,,,,,,,,,,
2025-08-08T1300,1864A,110.3089,25.2708,桂林市,龙隐路小学,,32,32,16,8,5,56,,38,38,6,7,5,6,0.2,0.2
2025-08-08T1300,1865A,110.2869,25.2178,桂林市,八中,,20,20,15,3,6,59,,41,41,8,7,8,9,0.5,0.4
2025-08-08T1300,3531A,110.296,25.1253,桂林市,旅游学院,,20,12,11,9,6,61,,38,38,2,4,6,11,0.4,0.3
2025-08-08T1300,4222A,110.1835,25.2444,桂林市,环湖路276号,,22,22,16,9,6,53,,39,39,4,5,4,4,0.3,0.4
2025-08-08T1300,4301A,110.2803,25.2773,桂林市,信义路13号,,22,22,14,13,5,62,,41,41,6,7,6,6,0.6,0.5
2025-08-08T1300,2674A,100.2561,34.4714,果洛藏族自治州,玛沁县大武镇,,27,10,20,8,9,85,,69,69,1,4,10,12,0.2,0.2
2025-08-08T1300,1129A,126.5422,45.755,哈尔滨市,岭北,,33,14,14,6,7,104,,71,71,10,18,9,8,0.5,0.4
2025-08-08T1300,1130A,126.561,45.8167,哈尔滨市,松北商大,,32,32,24,3,5,84,,45,45,6,25,7,7,0.4,0.4
2025-08-08T1300,1131A,126.979,45.5419,哈尔滨市,阿城会宁,,27,13,31,3,9,85,,48,48,5,16,4,6,0.3,0.6
2025-08-08T1300,1132A,126.599,45.7222,哈尔滨市,南岗学府路,,26,14,26,3,7,82,,50,50,10,21,9,8,0.4,0.5
2025-08-08T1300,1133A,126.689,45.7733,哈尔滨市,太平宏伟公园,,39,39,33,11,9,80,,33,33,17,26,8,6,0.5,0.6
2025-08-08T1300,1134A,126.635,45.7667,哈尔滨市,道外承德广场,,27,23,29,6,6,84,,48,48,11,18,8,7,0.4,0.3
2025-08-08T1300,1135A,126.685,45.7319,哈尔滨市,香坊红旗大街,,25,19,27,3,13,78,,39,39,14,23,10,8,0.4,0.6
2025-08-08T1300,1136A,126.6411,45.7258,哈尔滨市,动力和平路,,27,23,23,6,5,84,,49,49,12,22,7,6,0.4,0.5
2025-08-08T1300,1137A,126.593,45.7478,哈尔滨市,道里建国路,,33,33,20,16,6,88,,54,54,8,18,10,8,1.1,0.7
2025-08-08T1300,1138A,126.615,45.61,哈尔滨市,平房东轻厂,,25,12,28,9,7,80,,41,41,4,30,6,7,0.4,0.5
2025-08-08T1300,1139A,126.595,45.9855,哈尔滨市,呼兰师专,,47,47,27,3,2,107,,55,55,14,14,7,9,0.3,0.4
2025-08-08T1300,1140A,126.6206,45.6842,哈尔滨市,省农科院,,25,18,44,3,11,79,,41,41,9,31,6,5,0.5,0.7
2025-08-08T1300,2688A,93.5128,42.8172,哈密市,地区监测站,,,,54,,29,,,87,,,25,,3,,0.1
2025-08-08T1300,2689A,93.4961,42.8328,哈密市,哈密师范学校,,40,25,58,14,23,125,,74,74,6,38,11,9,0.2,0.5
2025-08-08T1300,2671A,100.9048,36.9639,海北藏族自治州,海晏县西海镇,,27,,20,12,17,86,,74,74,3,4,5,5,0.5,0.5
2025-08-08T1300,3867A,102.0738,36.5056,海东市,平安区公安北苑,,24,18,28,3,16,74,,65,65,5,6,7,10,0.6,0.7
2025-08-08T1300,1409A,110.576,19.9507,海口市,东寨港,,15,12,22,6,9,46,,40,40,2,3,9,10,0.4,0.4
2025-08-08T1300,1410A,110.3232,20.0574,海口市,海南大学,,,19,26,12,14,69,,49,49,,5,3,3,,0.4
2025-08-08T1300,1411A,110.283,20.0053,海口市,秀英海南医院,,22,17,27,13,14,68,,43,43,6,10,6,6,0.3,0.3
2025-08-08T1300,1412A,110.338,19.9969,海口市,海南师范大学,,20,20,25,11,13,63,,44,44,3,5,4,4,0.4,0.4
2025-08-08T1300,1413A,110.33,20.0356,海口市,龙华路环保局宿舍,,20,17,30,13,14,63,,45,45,5,6,5,5,0.4,0.3
2025-08-08T1300,3539A,110.5111,19.9736,海口市,桂林洋子站,,18,18,24,12,13,55,,44,44,3,5,5,4,0.2,0.2
2025-08-08T1300,2673A,100.6188,36.2866,海南藏族自治州,共和县恰卜恰镇,,27,19,26,6,10,84,,62,62,2,7,12,12,0.6,0.7
2025-08-08T1300,2676A,97.3731,37.3753,海西蒙古族藏族自治州,德令哈市,,38,38,38,16,17,109,,92,92,4,4,17,16,0.6,0.5
2025-08-08T1300,1048A,114.5302,36.6116,邯郸市,东污水处理厂,臭氧1小时,67,52,50,27,22,173,,112,112,2,7,7,7,0.7,0.7
2025-08-08T1300,1049A,114.4918,36.5713,邯郸市,矿院,臭氧1小时,83,,43,41,32,186,,135,135,4,8,5,5,0.6,0.6
2025-08-08T1300,1050A,114.484,36.6133,邯郸市,丛台公园,臭氧1小时,80,43,50,33,28,184,,127,127,7,9,7,7,0.6,0.6
2025-08-08T1300,3458A,114.7895,36.5593,邯郸市,香泉濮院小区,臭氧1小时,75,66,55,23,17,180,,117,117,4,7,3,3,0.7,0.5
2025-08-08T1300,3579A,114.50634,36.77178,邯郸市,永年区实验高中,臭氧1小时,88,52,64,36,38,190,,138,138,9,15,4,3,0.5,0.5
2025-08-08T1300,3580A,114.20016,36.44293,邯郸市,峰峰矿区临水派出所,臭氧1小时,101,47,56,25,22,202,,150,150,3,7,2,2,0.5,0.4
2025-08-08T1300,2634A,106.9893,33.1842,汉中市,汉川机床厂子校,,30,20,21,13,12,95,,51,51,6,10,3,3,0.5,0.5
2025-08-08T1300,2635A,107.0154,33.0706,汉中市,市监测站,,29,22,18,11,11,92,,40,40,4,9,5,5,0.7,0.7
2025-08-08T1300,2636A,107.0089,33.1138,汉中市,鑫源开发区,,36,36,23,9,10,83,,11,,5,11,6,6,0.5,0.5
2025-08-08T1300,2637A,107.007,33.0323,汉中市,南郑大河坎水厂,,27,18,18,10,9,86,,36,36,3,9,1,3,0.5,0.5
2025-08-08T1300,1223A,120.2072,30.2111,杭州市,滨江,,34,20,21,10,9,107,,68,68,10,19,7,7,0.3,0.5
2025-08-08T1300,1224A,120.0633,30.2747,杭州市,西溪,,20,11,11,6,8,64,,52,52,6,14,5,7,0.3,0.3
2025-08-08T1300,1226A,120.3417,30.3150,杭州市,下沙,,36,19,16,8,6,114,,73,73,8,15,5,5,0.3,0.3
2025-08-08T1300,1227A,120.1269,30.2456,杭州市,卧龙桥,,26,14,11,13,7,83,,50,50,2,8,7,7,0.4,0.4
2025-08-08T1300,1228A,120.1903,30.2692,杭州市,浙江农大,,31,31,21,12,10,76,,52,52,17,23,5,5,0.3,0.3
2025-08-08T1300,1230A,120.1197,30.3119,杭州市,和睦小学,,23,14,13,7,7,72,,60,60,4,12,5,5,0.3,0.4
2025-08-08T1300,1231A,120.3019,30.4183,杭州市,临平镇,,30,19,22,6,10,93,,66,66,4,14,6,6,0.3,0.3
2025-08-08T1300,1232A,120.2753,30.1839,杭州市,城厢镇,,29,20,27,8,12,92,,61,61,2,11,6,6,0.5,0.6
2025-08-08T1300,1233A,120.0883,30.1808,杭州市,云栖,,31,16,15,9,6,99,,60,60,8,14,8,8,0.6,0.6
2025-08-08T1300,3557A,119.9464,30.0494,杭州市,镇二中,,27,16,24,14,19,84,,51,51,9,19,4,4,0.4,0.5
2025-08-08T1300,3558A,119.7183,30.2367,杭州市,市府大楼,,20,15,11,8,7,61,,43,43,4,8,8,7,0.3,0.4
2025-08-08T1300,3656A,120.1556,30.2864,杭州市,消防大队,,27,17,13,8,6,84,,59,59,5,10,6,6,0.5,0.5
2025-08-08T1300,1270A,117.1959,31.7848,合肥市,明珠广场,,,,21,,9,,,71,,,15,,6,,0.4
2025-08-08T1300,1271A,117.3072,31.8764,合肥市,三里街,,30,19,22,14,12,94,,52,52,10,15,5,5,0.5,0.4
2025-08-08T1300,1272A,117.2588,31.8707,合肥市,琥珀山庄,,31,24,24,17,14,98,,66,66,13,12,7,7,0.7,0.6
2025-08-08T1300,1273A,117.1604,31.9052,合肥市,董铺水库,,23,22,21,14,9,73,,54,54,4,7,4,4,0.3,0.3
2025-08-08T1300,1274A,117.25,31.8571,合肥市,长江中路,,32,24,23,10,8,100,,63,63,12,11,6,6,0.6,0.5
2025-08-08T1300,1275A,117.266,31.9436,合肥市,庐阳区,,31,19,21,7,9,98,,63,63,12,13,6,6,0.7,0.5
2025-08-08T1300,1276A,117.3453,31.8616,合肥市,瑶海区,,30,17,27,3,7,96,,49,49,6,18,6,6,0.7,0.6
2025-08-08T1300,1277A,117.3027,31.7964,合肥市,包河区,,30,17,19,12,9,93,,55,55,2,9,6,6,0.7,0.6
2025-08-08T1300,1278A,117.2776,31.7385,合肥市,滨湖新区,,27,12,19,12,14,86,,51,51,2,8,8,8,0.5,0.4
2025-08-08T1300,1279A,117.1318,31.8403,合肥市,高新区,,27,14,19,7,8,85,,61,61,5,11,5,5,0.4,0.4
2025-08-08T1300,3464A,117.3803,31.9147,合肥市,高教基地,,27,27,18,18,9,80,,49,49,11,11,5,5,0.6,0.5
2025-08-08T1300,3614A,79.924,37.0877,和田地区,地区环保局,颗粒物(PM10),140,229,241,60,61,100,,70,70,11,19,3,2,0.1,0.1
2025-08-08T1300,3615A,79.9131,37.113,和田地区,市环保局,颗粒物(PM10),118,186,204,45,80,94,,60,60,11,17,2,2,0.2,0.2
2025-08-08T1300,2516A,108.2011,24.715,河池市,东仁乐园,,,,,,,,,,,,,,,,
2025-08-08T1300,2517A,108.0497,24.6947,河池市,市环保站,,34,34,24,14,9,66,,40,40,6,8,6,5,0.5,0.5
2025-08-08T1300,2518A,108.0983,24.6989,河池市,市疾控中心,,23,20,24,16,12,66,,31,31,7,17,7,6,0.6,0.6
2025-08-08T1300,1696A,114.6778,23.7569,河源市,源西,,24,24,22,10,8,66,,38,38,2,8,7,8,0.6,0.6
2025-08-08T1300,1697A,114.6944,23.7586,河源市,东埔,,23,23,17,8,9,72,,43,43,7,14,4,4,0.4,0.4
2025-08-08T1300,1698A,114.6892,23.7233,河源市,老城,,33,32,20,18,10,104,,46,46,7,12,4,4,0.5,0.5
2025-08-08T1300,1718A,115.4208,35.2464,菏泽市,气象局,,41,39,39,25,27,131,,100,100,5,10,2,2,0.4,0.5
2025-08-08T1300,3374A,115.5564,35.0891,菏泽市,定陶老年大学,,36,29,34,17,21,113,,85,85,6,11,2,2,0.3,0.4
2025-08-08T1300,4184A,115.4797,35.24401,菏泽市,永昌路1号,,45,41,42,31,31,129,,96,96,7,13,6,7,0.3,0.4
2025-08-08T1300,4193A,115.4715,35.2800,菏泽市,长城路999号,,41,33,36,23,22,130,,104,104,6,11,5,6,0.5,0.5
2025-08-08T1300,2514A,111.5264,24.4172,贺州市,环保小区,,30,25,16,21,10,50,,23,23,9,9,10,11,0.8,0.8
2025-08-08T1300,2515A,111.5608,24.4078,贺州市,政协大楼,,21,16,14,10,7,67,,33,33,5,7,11,13,0.7,0.7
2025-08-08T1300,3534A,111.4744,24.4553,贺州市,西湾,,27,27,17,13,7,64,,28,28,10,11,7,8,0.4,0.4
2025-08-08T1300,2385A,114.17,35.9019,鹤壁市,市监测站,臭氧1小时,54,41,55,35,47,163,,123,123,6,11,1,5,0.7,0.9
2025-08-08T1300,2386A,114.2956,35.7511,鹤壁市,市交警支队,,43,,45,30,44,125,,84,84,8,15,4,7,0.7,0.7
2025-08-08T1300,2387A,114.2878,35.7306,鹤壁市,迎宾馆,,46,45,52,22,38,146,,103,103,7,15,4,4,0.8,0.8
2025-08-08T1300,3474A,114.2617,35.6822,鹤壁市,大新区,,41,27,46,19,27,130,,82,82,1,9,6,7,0.7,0.6
2025-08-08T1300,3596A,114.1572,35.9603,鹤壁市,南山宾馆,臭氧1小时,74,45,63,40,41,179,,136,136,6,10,4,5,0.7,1
2025-08-08T1300,2244A,130.2537,47.3416,鹤岗市,哈啤分公司,,22,8,14,3,4,69,,47,47,3,5,11,12,0.1,0.4
2025-08-08T1300,2245A,130.2684,47.3086,鹤岗市,斯达机电,,25,25,25,12,9,72,,51,51,3,9,12,12,0.6,0.6
2025-08-08T1300,2246A,130.3114,47.3388,鹤岗市,东山纸板厂,,25,6,23,3,10,77,,52,52,4,10,12,14,0.1,0.9
2025-08-08T1300,2247A,130.1097,47.3382,鹤岗市,五号水库,,23,9,8,3,5,73,,50,50,11,9,10,10,0.2,0.1
2025-08-08T1300,2263A,127.4833,50.2524,黑河市,交通局,,18,18,20,8,7,50,,32,32,7,12,3,4,0.4,0.4
2025-08-08T1300,2264A,127.5144,50.2341,黑河市,环保局,,16,11,22,6,8,50,,33,33,5,13,5,7,0.3,0.3
2025-08-08T1300,2265A,127.5291,50.2472,黑河市,大黑河岛,,,6,2,3,4,40,,27,27,2,7,24,23,,
2025-08-08T1300,1074A,115.6838,37.7541,衡水市,电机北厂,臭氧1小时,74,50,43,29,25,179,,91,91,10,11,8,6,0.8,0.6
2025-08-08T1300,1075A,115.6303,37.7316,衡水市,市监测站,臭氧1小时,84,58,41,28,19,187,,106,106,9,9,8,8,0.9,0.7
2025-08-08T1300,3188A,115.6683,37.7217,衡水市,市城管局,臭氧1小时,72,48,40,23,25,177,,97,97,8,10,10,8,0.6,0.5
2025-08-08T1300,3459A,115.5989,37.5491,衡水市,地表水厂,,,72,47,28,17,175,,97,97,8,12,,8,0.3,0.3
2025-08-08T1300,2456A,112.5003,26.9167,衡阳市,原169医院,,28,28,18,6,5,71,,47,47,2,2,3,9,0.4,0.5
2025-08-08T1300,2457A,112.6194,26.9258,衡阳市,衡阳化工总厂,,27,27,19,14,7,69,,48,48,3,8,3,4,0.7,0.7
2025-08-08T1300,2458A,112.6211,26.8956,衡阳市,珠晖区环保局,,26,26,17,9,8,71,,49,49,2,9,6,7,0.4,0.6
2025-08-08T1300,2459A,112.6197,26.8733,衡阳市,市委党校,,21,12,12,7,5,65,,47,47,3,7,8,9,0.3,0.4
2025-08-08T1300,2460A,112.6006,26.8919,衡阳市,市监测站,,27,27,18,3,8,68,,50,50,4,8,3,5,0.5,0.6
2025-08-08T1300,2461A,112.5664,26.9056,衡阳市,真空机电公司,,50,50,21,10,10,68,,48,48,2,8,2,8,0.6,0.8
2025-08-08T1300,3399A,112.6703,26.882,衡阳市,师范学院,,31,31,19,11,7,69,,45,45,4,7,8,8,0.6,0.6
2025-08-08T1300,2608A,103.3772,23.3993,红河哈尼族彝族自治州,污水处理厂,,13,7,19,6,13,39,,31,31,4,6,6,7,0.2,0.3
2025-08-08T1300,2609A,103.3861,23.35,红河哈尼族彝族自治州,监测站,,22,,16,15,11,35,,31,31,2,3,8,10,0.2,0.2
2025-08-08T1300,3038A,103.3758,23.368,红河哈尼族彝族自治州,州图书馆,,12,9,9,3,13,38,,33,33,3,3,1,1,0.2,0.2
2025-08-08T1300,1090A,111.6507,40.7517,呼和浩特市,呼市一监,,33,,17,11,9,103,,98,94,7,9,8,8,0.5,0.4
2025-08-08T1300,1091A,111.6572,40.8033,呼和浩特市,小召,,31,,19,14,10,97,,105,98,15,16,8,8,0.6,0.5
2025-08-08T1300,1094A,111.7516,40.8369,呼和浩特市,如意水处理厂,,34,16,20,9,9,107,,99,93,14,16,4,5,0.5,0.4
2025-08-08T1300,1095A,111.7276,40.8062,呼和浩特市,二十九中,,37,17,20,11,9,116,,113,106,10,11,5,6,0.7,0.6
2025-08-08T1300,1096A,111.5512,40.7866,呼和浩特市,工大金川校区,,30,,20,16,8,95,,97,90,12,13,4,5,0.5,0.4
2025-08-08T1300,1097A,111.717,40.7612,呼和浩特市,化肥厂生活区,,38,14,21,9,9,120,,108,107,9,14,5,6,0.5,0.4
2025-08-08T1300,3698A,111.5968,40.8178,呼和浩特市,红旗小学,,36,,18,12,8,115,,106,103,10,18,2,3,0.4,0.3
2025-08-08T1300,3699A,111.6518,40.8389,呼和浩特市,海东办,,33,,18,13,8,105,,107,100,13,22,4,5,0.4,0.4
2025-08-08T1300,2192A,119.7594,49.2261,呼伦贝尔市,区环保局,,19,,22,13,18,52,,37,37,10,13,5,5,1.0,0.9
2025-08-08T1300,3061A,119.7512,49.1577,呼伦贝尔市,国华电力东,,17,13,18,3,8,53,,42,42,6,6,8,9,0.6,0.3
2025-08-08T1300,1250A,120.0751,30.8669,湖州市,城西水厂,,26,18,21,9,10,82,,50,50,9,28,6,6,0.3,0.3
2025-08-08T1300,2873A,120.0830,30.8929,湖州市,仁皇山新区,,27,15,18,8,8,84,,44,44,3,20,4,4,0.4,0.4
2025-08-08T1300,2907A,120.1844,30.8596,湖州市,吴兴区站,,31,23,19,12,9,97,,56,56,5,16,6,6,0.5,0.5
2025-08-08T1300,3562A,120.4148,30.8538,湖州市,南浔区站,,35,21,15,13,10,109,,62,62,4,14,4,5,0.7,0.5
2025-08-08T1300,1607A,120.9049,40.7211,葫芦岛市,龙港区,,28,20,38,3,11,88,,46,46,7,28,6,11,0.4,0.5
2025-08-08T1300,1608A,120.8392,40.7514,葫芦岛市,化工街,,27,12,24,3,9,84,,42,42,10,32,11,19,0.4,0.4
2025-08-08T1300,1609A,120.8341,40.7073,葫芦岛市,新区,,27,16,28,6,8,85,,49,49,8,28,6,11,1.0,0.7
2025-08-08T1300,1610A,120.8695,40.7677,葫芦岛市,东城区,,37,37,26,13,9,86,,41,41,12,26,26,15,0.8,0.6
2025-08-08T1300,2482A,109.5981,27.5721,怀化市,林科所,,19,17,14,3,3,58,,41,41,5,6,4,4,0.2,0.2
2025-08-08T1300,2483A,109.9453,27.5444,怀化市,河西地税局,,16,15,14,10,9,51,,37,37,2,4,1,2,0.1,0.1
2025-08-08T1300,2484A,109.9781,27.5342,怀化市,市四医院,,,21,17,21,10,63,,41,41,2,5,7,5,,0.5
2025-08-08T1300,2485A,109.9972,27.5578,怀化市,监测楼,,23,23,17,12,8,64,,45,45,11,13,4,4,0.2,0.1
2025-08-08T1300,2486A,110.0394,27.583,怀化市,市委党校,,18,11,12,10,12,55,,36,36,2,3,6,6,0.0,0
2025-08-08T1300,1210A,119.036,33.5981,淮安市,钵池山,,34,17,14,14,13,108,,63,63,5,15,9,8,0.6,0.7
2025-08-08T1300,1211A,119.007,33.575,淮安市,北京南路,,32,22,23,12,14,100,,63,63,5,16,8,7,0.5,0.6
2025-08-08T1300,1212A,118.989,33.6067,淮安市,市监测站,,35,34,21,24,16,112,,64,64,9,16,10,8,0.6,0.7
2025-08-08T1300,1213A,119.135,33.5039,淮安市,楚州区监测站,,32,32,26,12,12,97,,56,56,8,16,7,7,0.5,0.5
2025-08-08T1300,3426A,118.8755,33.2894,淮安市,新华书店,,33,20,17,11,11,105,,72,72,4,10,6,6,0.5,0.5
2025-08-08T1300,4206A,119.0288,33.6319,淮安市,承德北路606号,,44,44,24,18,13,120,,62,62,4,12,7,5,0.5,0.5
2025-08-08T1300,2282A,116.8004,33.975,淮北市,监测站,,40,,26,28,14,118,,,,8,7,7,7,0.7,0.7
2025-08-08T1300,2283A,116.8091,33.9007,淮北市,烈山区政府,,39,39,24,13,8,113,,84,84,6,7,8,8,0.5,0.6
2025-08-08T1300,3330A,116.8873,33.9836,淮北市,杜集区检察院,,32,22,19,21,17,101,,75,75,5,6,6,7,0.7,0.7
2025-08-08T1300,4017A,116.7923,33.9535,淮北市,市博物馆,,42,30,18,29,13,124,,98,98,7,7,8,8,0.6,0.6
2025-08-08T1300,2277A,116.8305,32.7727,淮南市,潘集区政府,,27,24,30,13,10,84,,55,55,10,13,3,6,0.3,0.3
2025-08-08T1300,2279A,116.8569,32.5951,淮南市,谢家集区政府,,33,33,16,7,8,81,,52,52,3,10,6,6,0.3,0.3
2025-08-08T1300,2280A,116.8281,32.633,淮南市,八公山区政府,,27,9,16,3,8,84,,57,57,5,9,3,4,0.3,0.3
2025-08-08T1300,2281A,116.6325,32.6201,淮南市,焦岗湖风景区管理处,,,,,,,,,,,,,,,,
2025-08-08T1300,2894A,117.0566,32.6531,淮南市,经济技术开发区消防队,,28,13,17,3,5,89,,67,67,5,13,8,8,0.3,0.3
2025-08-08T1300,3329A,117.0108,32.5893,淮南市,山南新区,,25,11,8,3,5,80,,55,55,5,10,9,9,0.6,0.6
2025-08-08T1300,4209A,117.0031,32.6445,淮南市,国庆中路369号,,27,18,24,12,14,86,,59,59,5,9,3,4,0.4,0.3
2025-08-08T1300,2446A,114.9028,30.4742,黄冈市,职工中心,,35,26,22,17,13,110,,46,46,14,14,12,11,0.9,0.8
2025-08-08T1300,2929A,114.8858,30.4519,黄冈市,红卫路,,32,26,20,18,14,100,,46,46,11,14,11,10,0.7,0.5
2025-08-08T1300,3398A,114.9136,30.4445,黄冈市,市林业局,,35,32,23,15,12,112,,44,44,11,16,12,10,0.7,0.6
2025-08-08T1300,2672A,102.0199,35.5102,黄南藏族自治州,同仁县隆务镇,,26,17,20,6,9,81,,77,77,14,6,9,9,0.5,0.4
2025-08-08T1300,2295A,118.2903,29.6963,黄山市,延安路89号,,21,19,20,3,10,66,,41,41,2,5,4,4,0.3,0.4
2025-08-08T1300,2297A,118.1371,30.2756,黄山市,黄山区政府5号楼,,18,11,16,7,9,57,,38,38,1,3,4,4,0.2,0.3
2025-08-08T1300,4210A,118.3354,29.7203,黄山市,滨江东路7-2号,,21,10,20,3,6,65,,39,39,1,5,2,2,0.3,0.4
2025-08-08T1300,2423A,115.0601,30.2313,黄石市,沈家营,,25,24,53,7,8,80,,27,27,7,22,7,7,0.3,0.4
2025-08-08T1300,2426A,114.8988,30.2019,黄石市,铁山,,,15,25,3,8,73,,36,36,2,11,,6,0.2,0.2
2025-08-08T1300,2427A,115.0307,30.2092,黄石市,团城山,,30,17,25,3,2,96,,42,42,4,10,6,7,0.3,0.2
2025-08-08T1300,3149A,115.0235,30.1578,黄石市,笔架山北路,,27,9,30,3,4,85,,35,35,1,12,7,9,0.7,0.6
2025-08-08T1300,4185A,115.0780,30.21118,黄石市,磁湖东路29号,,28,21,44,6,9,89,,38,38,3,13,9,11,0.6,0.5
2025-08-08T1300,1392A,114.4183,23.0528,惠州市,河南岸金山湖子站,,36,26,25,25,16,110,,55,55,9,15,7,7,0.6,0.6
2025-08-08T1300,1393A,114.4053,23.0822,惠州市,下埔横江三路子站,,35,20,26,11,15,112,,56,56,6,12,4,5,0.6,0.6
2025-08-08T1300,1394A,114.4103,23.1142,惠州市,江北云山西路子站,,37,17,23,12,15,116,,55,55,8,15,7,8,0.6,0.6
2025-08-08T1300,1395A,114.4645,22.7833,惠州市,惠阳区承修路船湖子站,,43,37,29,24,16,135,,66,66,11,14,6,6,0.5,0.5
2025-08-08T1300,1396A,114.5317,22.7422,惠州市,大亚湾管委会子站,,45,32,26,19,15,143,,68,68,11,17,7,7,0.5,0.5
2025-08-08T1300,3314A,114.4338,22.8134,惠州市,惠阳秋长,,46,34,27,32,17,143,,70,70,9,13,5,5,0.5,0.5
2025-08-08T1300,3452A,114.6517,22.775,惠州市,大亚湾霞涌,颗粒物(PM10),53,56,22,16,11,125,,62,62,10,12,6,6,0.4,0.4
2025-08-08T1300,2240A,130.9762,45.3001,鸡西市,环保局,,27,10,16,3,5,84,,47,47,2,10,6,7,0.2,0.3
2025-08-08T1300,2243A,130.9429,45.3039,鸡西市,第一中学,,25,7,16,3,7,77,,46,46,5,12,11,11,0.2,0.3
2025-08-08T1300,3707A,131.0207,45.3073,鸡西市,欧美日汽修厂,,24,6,22,3,7,76,,44,44,4,13,7,9,0.4,0.4
2025-08-08T1300,3709A,130.9967,45.3106,鸡西市,市政设施管理处,,25,11,23,3,6,78,,44,44,6,16,7,8,0.2,0.4
2025-08-08T1300,2367A,114.9754,27.0803,吉安市,红声器材厂,,24,24,20,6,6,68,,53,53,2,5,8,9,0.4,0.4
2025-08-08T1300,2368A,114.9658,27.0999,吉安市,市森林工业局,,25,14,16,3,6,78,,56,56,2,4,8,9,0.4,0.4
2025-08-08T1300,2369A,114.99,27.1312,吉安市,市环境监测站,,25,16,18,9,6,78,,58,58,1,2,11,11,0.4,0.4
2025-08-08T1300,2370A,115.0093,27.0968,吉安市,青原区法院,,20,13,17,6,8,63,,50,50,2,6,6,7,0.4,0.5
2025-08-08T1300,1772A,126.54,43.8622,吉林市,哈达湾,,47,20,21,12,10,148,,87,87,12,17,9,13,0.4,0.4
2025-08-08T1300,1773A,126.5844,43.8358,吉林市,东局子,,21,16,21,3,5,65,,57,57,5,15,6,7,0.5,0.6
2025-08-08T1300,1774A,126.5052,43.8245,吉林市,电力学院,,24,,16,14,9,74,,59,59,4,13,6,9,0.3,0.4
2025-08-08T1300,1775A,126.6133,43.8972,吉林市,江北,,36,18,17,3,7,114,,76,76,8,9,5,5,0.4,0.6
2025-08-08T1300,1776A,126.555,43.8306,吉林市,江南公园,,22,16,20,15,9,70,,62,62,13,18,3,5,1.6,1
2025-08-08T1300,1778A,126.7061,43.7133,吉林市,丰满,,,,8,,6,70,,58,58,2,4,,5,0.7,0.3
2025-08-08T1300,2868A,126.4739,43.953,吉林市,九站,颗粒物(PM10),53,56,34,22,20,152,,77,77,18,25,22,14,0.5,0.5
2025-08-08T1300,1299A,116.9862,36.6114,济南市,科干所,,47,29,43,24,30,149,,111,111,6,16,6,8,0.6,0.7
2025-08-08T1300,1300A,116.9376,36.665,济南市,农科所,,49,29,44,20,22,155,,91,91,9,27,8,9,0.4,0.5
2025-08-08T1300,1301A,117.1265,36.6734,济南市,开发区,臭氧1小时,90,46,45,29,28,192,,118,118,13,24,8,9,0.7,0.7
2025-08-08T1300,1303A,117.0624,36.6868,济南市,省种子仓库,臭氧1小时,113,56,58,27,23,225,,98,98,14,26,5,7,0.7,0.8
2025-08-08T1300,1304A,116.9489,36.6447,济南市,机床二厂,,47,32,48,24,25,150,,113,113,9,19,9,11,0.5,0.6
2025-08-08T1300,1305A,117.0495,36.663,济南市,市监测站,臭氧1小时,58,34,52,22,26,166,,88,88,15,30,9,10,0.7,0.9
2025-08-08T1300,1306A,116.7675,36.5484,济南市,长清党校,,49,37,42,34,32,142,,108,108,9,18,5,6,0.6,0.8
2025-08-08T1300,1616A,117.6795,36.229,济南市,技术学院,,49,29,35,22,26,154,,103,103,6,15,8,9,0.9,0.9
2025-08-08T1300,1961A,117.532,36.6868,济南市,东山小学,,45,27,51,27,25,143,,89,89,5,23,7,8,0.5,0.6
2025-08-08T1300,3059A,117.7161,36.2049,济南市,泰兴公司,,44,34,36,22,25,138,,87,87,3,15,9,9,0.5,0.6
2025-08-08T1300,3064A,117.6867,36.2171,济南市,莱芜战役纪念馆,,41,31,36,25,25,131,,84,84,8,16,7,6,1.0,1
2025-08-08T1300,3494A,117.1673,36.9782,济南市,济阳区政府,臭氧1小时,103,66,51,34,26,206,,104,104,16,19,10,10,0.6,0.6
2025-08-08T1300,3495A,117.1171,36.63,济南市,锦屏中学,,43,29,38,20,23,137,,108,108,8,14,7,8,0.6,0.8
2025-08-08T1300,3682A,116.9814,36.6819,济南市,济南四建,臭氧1小时,69,31,49,22,25,175,,97,97,9,30,6,8,0.7,0.8
2025-08-08T1300,1653A,116.6251,35.4302,济宁市,火炬城,,34,,35,22,20,108,,81,81,3,7,4,4,0.6,0.7
2025-08-08T1300,1655A,116.5491,35.4042,济宁市,电化厂,,45,45,37,27,21,118,,90,90,4,9,1,2,0.8,0.8
2025-08-08T1300,3500A,116.5814,35.3707,济宁市,北湖一中,,39,37,38,26,20,122,,86,86,1,6,3,3,0.4,0.4
2025-08-08T1300,3501A,116.8249,35.5593,济宁市,服务中心,,40,40,33,19,17,125,,85,85,4,10,2,2,0.3,0.4
2025-08-08T1300,3678A,116.5907,35.4054,济宁市,市第七中学,,38,38,34,24,16,100,,74,74,1,6,6,6,0.5,0.5
2025-08-08T1300,2255A,130.2751,46.8028,佳木斯市,佳纺,,23,9,16,3,7,72,,38,38,7,12,8,8,0.4,0.4
2025-08-08T1300,2256A,130.3995,46.8307,佳木斯市,发电厂,,22,12,14,3,5,68,,42,42,5,11,6,6,0.4,0.5
2025-08-08T1300,2257A,130.3258,46.7975,佳木斯市,环保局,,22,9,14,6,7,68,,44,44,9,14,9,9,0.5,0.5
2025-08-08T1300,2258A,130.3648,46.8032,佳木斯市,十一中,,21,8,13,7,6,66,,38,38,6,11,8,7,0.4,0.4
2025-08-08T1300,2259A,130.3794,46.7588,佳木斯市,四丰,,,,,,,7,,4,,5,12,1,16,0.3,0.4
2025-08-08T1300,1252A,120.7436,30.778,嘉兴市,清河小学,,,,20,,8,,,63,63,,16,,5,,0.4
2025-08-08T1300,1253A,120.726,30.7478,嘉兴市,嘉兴学院,,38,26,22,10,10,120,,76,76,4,19,4,4,0.5,0.6
2025-08-08T1300,2872A,120.7846,30.7525,嘉兴市,南湖区残联,,40,21,19,13,11,127,,82,82,7,16,5,5,0.5,0.5
2025-08-08T1300,3407A,120.6916,30.7739,嘉兴市,秀洲住建,,34,20,18,10,10,108,,65,65,8,17,5,5,0.5,0.5
2025-08-08T1300,1945A,98.2908,39.7711,嘉峪关市,气象局,,35,24,27,7,11,112,,58,58,8,21,21,20,1.0,1
2025-08-08T1300,2884A,98.2672,39.7978,嘉峪关市,酒钢宾馆,,40,34,36,14,15,127,,78,78,9,19,29,14,1.0,0.9
2025-08-08T1300,3248A,98.2643,39.7724,嘉峪关市,雄关区,,35,34,26,14,10,111,,52,52,12,27,13,9,0.6,0.6
2025-08-08T1300,1383A,113.1064,22.6058,江门市,北街,臭氧1小时,70,38,32,33,16,176,,66,66,16,33,3,3,0.5,0.5
2025-08-08T1300,1384A,113.0731,22.5835,江门市,西区,,47,29,29,10,14,150,,59,59,13,29,6,6,0.7,0.6
2025-08-08T1300,1385A,113.0219,22.5311,江门市,圭峰西,,47,47,32,26,16,102,,51,51,8,25,6,6,0.5,0.6
2025-08-08T1300,1386A,113.0828,22.5947,江门市,东湖,,46,44,29,26,15,145,,56,56,13,26,7,7,0.4,0.5
2025-08-08T1300,3311A,113.1075,22.5647,江门市,江海富民,,42,42,40,12,14,121,,55,55,9,30,8,9,0.3,0.4
2025-08-08T1300,3449A,113.05,22.4667,江门市,新会银湖,,42,42,34,25,16,117,,54,54,8,24,2,2,0.5,0.6
2025-08-08T1300,1830A,113.1992,35.2590,焦作市,影视城,,,,27,,15,,,,,,7,,7,,0.7
2025-08-08T1300,3335A,113.3137,35.2641,焦作市,马村街道办,,46,46,45,8,47,125,,93,93,8,11,4,6,0.8,0.8
2025-08-08T1300,3336A,113.2465,35.2373,焦作市,焦作技师学院,,,31,37,14,15,126,,90,90,17,21,2,3,,0.9
2025-08-08T1300,3477A,113.1656,35.2539,焦作市,中站许衡医院,,40,33,38,23,28,128,,103,103,11,12,6,6,0.7,0.7
2025-08-08T1300,3981A,113.2449,35.1803,焦作市,原李万街道办,,41,27,36,9,18,130,,93,93,10,13,7,7,0.5,0.6
2025-08-08T1300,4264A,113.2340,35.2190,焦作市,新安路1731号,,42,29,36,10,15,132,,100,100,2,7,3,4,0.6,0.7
2025-08-08T1300,4295A,113.2722,35.2121,焦作市,人民路3066号,,41,36,35,16,21,130,,89,89,3,9,1,2,0.5,0.6
2025-08-08T1300,1708A,116.3701,23.5345,揭阳市,新兴,,46,46,35,24,17,101,,50,50,6,10,4,6,0.5,0.6
2025-08-08T1300,1709A,116.3264,23.5443,揭阳市,西马,,32,32,36,22,18,88,,44,44,4,10,2,4,0.4,0.5
2025-08-08T1300,1710A,116.3611,23.5626,揭阳市,东兴,,35,35,41,14,15,77,,43,43,4,10,4,4,0.5,0.6
2025-08-08T1300,1711A,116.4151,23.5294,揭阳市,渔湖,,39,39,39,13,20,87,,50,50,5,12,4,6,0.4,0.5
2025-08-08T1300,3320A,116.403,23.5699,揭阳市,曲溪,,32,21,36,16,17,101,,49,49,4,12,2,3,0.4,0.4
2025-08-08T1300,1944A,102.1692,38.5167,金昌市,天庆家园,,26,17,12,3,9,82,,54,54,7,12,7,5,0.7,0.8
2025-08-08T1300,4022A,102.1647,38.5371,金昌市,金川区人防中心,,31,31,18,14,12,90,,57,57,8,10,38,10,0.5,0.5
2025-08-08T1300,4239A,102.1930,38.5319,金昌市,长春路96号,,28,20,17,6,9,88,,46,46,5,10,22,10,0.4,0.7
2025-08-08T1300,1262A,119.647,29.077,金华市,十五中,,31,24,25,14,11,98,,67,67,7,16,3,4,0.3,0.4
2025-08-08T1300,1263A,119.686,29.1029,金华市,监测站,,31,21,26,12,12,99,,62,62,5,13,4,4,0.4,0.4
2025-08-08T1300,3659A,119.656,29.1131,金华市,气象局,,29,21,27,10,12,90,,59,59,4,17,2,3,0.3,0.3
2025-08-08T1300,1767A,121.1115,41.0879,锦州市,南山,,22,22,20,7,9,63,,37,37,3,13,4,6,0.5,0.5
2025-08-08T1300,1768A,121.0604,40.8428,锦州市,开发区,,28,16,28,11,13,88,,51,51,7,23,6,20,0.6,0.8
2025-08-08T1300,1769A,121.1836,41.1119,锦州市,百股街道,,35,35,22,3,4,75,,45,45,7,16,5,11,0.5,0.6
2025-08-08T1300,1770A,121.1178,41.1222,锦州市,天安街道,,25,23,19,9,10,79,,48,48,11,19,7,10,0.5,0.6
2025-08-08T1300,1771A,121.1303,41.1386,锦州市,北湖公园,,29,29,16,8,7,76,,47,47,8,11,6,9,0.4,0.5
2025-08-08T1300,2160A,112.85,35.5051,晋城市,自来水公司,,38,38,52,24,25,107,,89,84,8,10,3,2,0.6,0.6
2025-08-08T1300,2161A,112.8318,35.4936,晋城市,白云商贸,,37,29,39,19,19,118,,99,95,6,7,4,3,0.6,0.6
2025-08-08T1300,2162A,112.8508,35.4887,晋城市,市环保局,,35,32,42,24,23,111,,92,86,2,6,3,2,0.6,0.5
2025-08-08T1300,2163A,112.8676,35.4897,晋城市,技术学院,,33,32,40,14,18,103,,85,81,6,9,2,2,0.6,0.6
2025-08-08T1300,2165A,112.8453,35.546,晋城市,白马寺,,38,28,29,23,30,119,,108,107,1,4,7,6,0.6,0.6
2025-08-08T1300,3620A,112.8271,35.4828,晋城市,泽州一中,,,,38,,21,120,,98,94,8,17,4,4,,0.6
2025-08-08T1300,2173A,112.7249,37.7067,晋中市,南都小区,,45,43,50,31,27,142,,124,124,4,7,8,4,0.7,0.6
2025-08-08T1300,2174A,112.6991,37.6982,晋中市,榆次区政府,,46,41,46,18,25,146,,122,122,1,7,8,5,0.6,0.6
2025-08-08T1300,2865A,112.7195,37.6828,晋中市,榆次三中,,46,41,45,24,26,146,,123,123,1,5,10,6,0.7,0.7
2025-08-08T1300,4200A,112.7478,37.6954,晋中市,迎宾街26号,,49,39,43,24,24,156,,134,134,3,6,9,7,0.6,0.6
2025-08-08T1300,2439A,112.2014,31.0481,荆门市,竹园小学,,37,37,29,17,17,98,,56,56,8,10,1,1,0.7,0.7
2025-08-08T1300,2440A,112.1969,30.9891,荆门市,掇刀,,31,24,26,15,16,97,,54,54,12,14,1,2,0.6,0.5
2025-08-08T1300,2441A,112.2213,31.0386,荆门市,石化一小,,38,28,29,20,19,121,,79,79,10,13,5,5,0.4,0.8
2025-08-08T1300,3012A,112.1849,31.0362,荆门市,西山林语,,31,31,25,16,14,90,,49,49,4,6,8,7,0.4,0.5
2025-08-08T1300,3547A,112.1632,31.0138,荆门市,龙泉中学南校,,31,27,20,18,15,99,,58,58,9,10,3,3,0.7,0.7
2025-08-08T1300,1844A,112.2494,30.3197,荆州市,市图书馆,,27,10,19,3,11,86,,53,53,2,5,2,3,0.5,0.6
2025-08-08T1300,1845A,112.2008,30.3544,荆州市,市委党校,,26,14,20,3,12,81,,50,50,8,11,8,7,0.6,0.6
2025-08-08T1300,3194A,112.2747,30.3122,荆州市,管委会,,26,21,18,7,12,83,,49,49,4,7,5,6,0.6,0.6
2025-08-08T1300,4268A,112.1722,30.3366,荆州市,学苑路85号,,34,34,20,15,17,83,,50,50,17,8,5,5,0.5,0.5
2025-08-08T1300,2342A,117.3102,29.3867,景德镇市,王港中学,,,,,,,,,,,,,,,,
2025-08-08T1300,2343A,117.2117,29.2933,景德镇市,老干部活动中心,,24,10,19,9,8,76,,45,45,5,9,9,8,0.4,0.5
2025-08-08T1300,2344A,117.1894,29.2789,景德镇市,兽医站,,28,28,24,14,10,75,,44,44,5,11,6,7,0.8,0.9
2025-08-08T1300,2346A,117.2461,29.2956,景德镇市,陶研所,,25,13,23,10,12,77,,48,48,5,9,8,9,0.5,0.6
2025-08-08T1300,4289A,117.1542,29.2566,景德镇市,青少年活动中心,,42,42,19,20,13,69,,46,46,10,12,12,8,0.6,0.8
2025-08-08T1300,1803A,115.9872,29.6815,九江市,十里,,30,16,11,10,11,93,,52,52,5,9,5,5,0.5,0.5
2025-08-08T1300,1804A,115.9584,29.7046,九江市,茅山头,,28,14,13,12,10,87,,51,51,1,3,5,4,0.6,0.6
2025-08-08T1300,1805A,115.9877,29.7295,九江市,西园,,34,8,11,3,6,108,,60,60,5,9,7,7,0.7,0.7
2025-08-08T1300,1808A,115.9114,29.6038,九江市,综合工业园,,27,12,13,3,5,85,,57,57,13,9,7,6,0.7,0.6
2025-08-08T1300,1809A,116.0721,29.7535,九江市,石化总厂,,30,14,15,3,20,94,,58,58,7,10,7,7,0.6,0.5
2025-08-08T1300,1810A,115.9773,29.5698,九江市,庐山气象台,,23,6,7,3,3,71,,54,54,4,3,6,6,0.9,0.8
2025-08-08T1300,3190A,116.0254,29.6994,九江市,外国语学校,,28,8,12,3,9,88,,55,55,4,7,5,6,0.6,0.5
2025-08-08T1300,4253A,116.0102,29.6594,九江市,莲花大道8号,,27,,7,12,7,86,,52,52,2,2,5,4,0.5,0.5
2025-08-08T1300,4240A,98.4958,39.7339,酒泉市,玉门东路5号,,46,46,39,32,23,86,,44,42,18,19,33,15,0.8,0.5
2025-08-08T1300,4241A,98.5099,39.7506,酒泉市,北大街108号,,46,46,38,23,18,75,,32,32,12,17,27,13,0.8,0.5
2025-08-08T1300,2698A,76.0072,39.4467,喀什地区,巡警大队,颗粒物(PM10),111,172,203,35,47,110,,64,64,8,28,3,3,0.3,0.5
2025-08-08T1300,2699A,75.9755,39.4694,喀什地区,吾办,细颗粒物(PM2.5),118,182,207,89,72,107,,70,70,11,25,6,6,0.2,0.4
2025-08-08T1300,4027A,75.9483,39.4689,喀什地区,老干局,颗粒物(PM10),108,165,134,29,33,112,,77,77,8,15,5,5,0.5,0.5
2025-08-08T1300,1824A,114.3389,34.7781,开封市,肿瘤医院,,40,24,32,12,14,126,,88,88,11,17,2,2,0.6,0.6
2025-08-08T1300,1826A,114.2885,34.7965,开封市,世纪星幼儿园,,41,19,28,3,14,130,,96,96,8,14,2,2,0.8,0.8
2025-08-08T1300,3147A,114.3438,34.8106,开封市,龙亭公园,,34,23,27,14,13,108,,80,80,4,13,2,4,0.7,0.7
2025-08-08T1300,3210A,114.3644,34.7964,开封市,汴京公园,,40,25,32,15,17,126,,92,92,5,11,2,3,0.5,0.5
2025-08-08T1300,3473A,114.2485,34.8306,开封市,技师学院,,38,36,29,13,17,120,,91,91,3,13,4,4,0.5,0.6
2025-08-08T1300,3592A,114.4644,34.7556,开封市,祥符区生态环境局,,33,24,26,19,18,104,,68,68,11,23,5,5,0.6,0.6
2025-08-08T1300,1951A,84.895,45.6094,克拉玛依市,长征新村,,30,11,22,8,10,96,,81,75,4,9,4,4,0.2,0.2
2025-08-08T1300,1952A,84.8988,45.5893,克拉玛依市,南林小区,,32,14,23,6,10,101,,88,71,3,12,5,5,0.1,0.1
2025-08-08T1300,1954A,84.905,44.3396,克拉玛依市,独山子区,,,,32,,13,117,,87,84,,13,,11,,0.6
2025-08-08T1300,1955A,85.6979,46.098,克拉玛依市,乌尔禾区商贸楼,,28,21,26,3,6,88,,63,50,4,8,7,6,0.1,0.2
2025-08-08T1300,3612A,85.1045,45.6899,克拉玛依市,白碱滩区新站,,34,16,24,10,12,107,,95,95,3,4,8,8,0,0
2025-08-08T1300,2697A,76.1454,39.7142,克孜勒苏柯尔克孜自治州,市人民政府,颗粒物(PM10),78,105,155,47,58,124,,96,96,6,11,4,8,0.1,0.1
2025-08-08T1300,3665A,76.1658,39.7157,克孜勒苏柯尔克孜自治州,克州文化中心,颗粒物(PM10),84,118,165,35,64,122,,93,93,2,7,4,8,0.4,0.5
2025-08-08T1300,1450A,102.8204,24.8886,昆明市,呈贡新区,,21,7,6,6,6,66,,33,33,6,9,4,4,0.3,0.3
2025-08-08T1300,1451A,102.6251,24.9608,昆明市,西山森林公园,,,,,,,,,,,,,,,,
2025-08-08T1300,1452A,102.7252,25.0902,昆明市,龙泉镇,,21,11,13,8,7,65,,31,31,7,8,1,1,0.4,0.4
2025-08-08T1300,1453A,102.7266,25.0375,昆明市,东风东路,,26,25,12,18,9,71,,39,39,8,8,4,3,0.4,0.3
2025-08-08T1300,1454A,102.6742,25.0669,昆明市,金鼎山,,25,21,17,17,6,60,,31,31,7,7,2,1,0.4,0.3
2025-08-08T1300,1455A,102.6644,25.0401,昆明市,碧鸡广场,,23,23,15,6,8,56,,27,27,10,12,8,7,0.6,0.5
2025-08-08T1300,3179A,102.7494,25.0119,昆明市,官渡区博物馆,,22,13,10,12,6,69,,38,38,8,7,1,2,0.5,0.4
2025-08-08T1300,3375A,102.8017,24.8336,昆明市,青年创业园,,19,9,6,3,3,60,,31,31,4,7,2,2,0.4,0.4
2025-08-08T1300,3550A,102.7997,24.9786,昆明市,昆明学院,,,23,10,8,5,65,,40,40,7,7,7,6,,0.3
2025-08-08T1300,3551A,102.5967,24.6736,昆明市,晋宁区生态环境分局,,14,14,14,3,3,42,,31,31,4,5,2,3,0.4,0.4
2025-08-08T1300,3552A,102.6678,24.9856,昆明市,云天化总部,,19,10,10,6,6,59,,38,38,9,7,4,4,0.5,0.3
2025-08-08T1300,1456A,91.1319,29.6514,拉萨市,八廓街,,32,16,12,11,7,102,,78,78,8,12,5,6,0.3,0.3
2025-08-08T1300,1457A,91.1221,29.6747,拉萨市,市环保局,,34,11,11,3,7,108,,75,75,10,12,6,7,0.1,0.1
2025-08-08T1300,1458A,91.0874,29.6475,拉萨市,区监测站,,30,8,9,6,6,95,,72,68,8,15,3,4,0.4,0.3
2025-08-08T1300,1459A,91.1774,29.6541,拉萨市,西藏大学,,29,12,10,6,6,92,,71,71,13,14,5,6,0.3,0.3
2025-08-08T1300,1460A,90.9798,29.6588,拉萨市,区辐射站,,28,11,11,8,7,88,,68,68,14,14,5,4,0.4,0.4
2025-08-08T1300,1461A,91.0834,29.6292,拉萨市,拉萨火车站,,28,9,8,6,7,88,,71,68,13,13,5,5,0.4,0.4
2025-08-08T1300,2520A,109.2203,23.7256,来宾市,来宾技工学校,,26,26,25,15,10,82,,45,45,3,8,7,8,0.5,0.5
2025-08-08T1300,3535A,109.1781,23.7297,来宾市,兴宾区政府,,39,,21,27,12,79,,54,54,5,7,5,8,0.5,0.7
2025-08-08T1300,4002A,109.2416,23.7461,来宾市,中南小学,,28,28,25,14,11,85,,48,48,3,9,10,11,0.4,0.4
2025-08-08T1300,1477A,104.1373,35.9454,兰州市,榆中兰大校区,,,,,,,,,,,,,,,,
2025-08-08T1300,1479A,103.831,36.0464,兰州市,铁路设计院,,28,18,30,13,18,87,,73,66,26,24,8,9,0.4,0.5
2025-08-08T1300,3241A,103.7439,36.0842,兰州市,百合公园,,26,20,25,10,16,83,,65,65,6,8,3,3,0.3,0.4
2025-08-08T1300,3242A,103.9611,35.998,兰州市,和平,,34,,25,13,18,108,,93,93,5,6,12,12,0.2,0.4
2025-08-08T1300,4236A,103.6293,36.0938,兰州市,庄浪东路808号,,28,28,33,6,17,87,,69,69,16,18,10,11,0.2,0.4
2025-08-08T1300,4237A,103.7251,36.1043,兰州市,安宁西路88号,,33,18,28,14,17,103,,84,84,6,5,5,5,0.3,0.4
2025-08-08T1300,4238A,103.8470,36.0676,兰州市,北滨河东路1号,,29,,20,11,19,91,,74,74,21,20,7,8,0.5,0.5
2025-08-08T1300,3245A,103.6633,36.533,兰州新区,新区管委会,,31,,26,10,17,98,,95,95,5,5,4,9,0.3,0.4
2025-08-08T1300,3246A,103.6975,36.4789,兰州新区,舟曲中学,,,,,,,,,,,,,,,,
2025-08-08T1300,1067A,116.6708,39.5111,廊坊市,药材公司,,42,42,38,15,20,70,,57,44,21,19,7,5,0.5,0.5
2025-08-08T1300,1068A,116.7214,39.5589,廊坊市,开发区,,32,32,41,18,23,56,,52,28,21,21,5,4,0.5,0.6
2025-08-08T1300,1070A,116.7244,39.5269,廊坊市,北华航天学院,颗粒物(PM10),55,59,59,22,23,70,,55,33,27,21,7,5,0.5,0.6
2025-08-08T1300,2919A,116.7022,39.5453,廊坊市,河北工业大学,,45,45,53,16,20,68,,71,38,25,19,6,5,0.5,0.6
2025-08-08T1300,2535A,103.7723,29.5462,乐山市,花湖湾,,39,24,24,21,21,123,,56,56,7,13,2,2,0.7,0.7
2025-08-08T1300,2536A,103.7627,29.5844,乐山市,牛耳桥,,49,,30,26,28,154,,61,61,8,16,4,4,0.8,0.8
2025-08-08T1300,2537A,103.7508,29.6006,乐山市,市第三水厂,,44,28,27,24,22,139,,63,63,7,15,2,3,0.8,0.8
2025-08-08T1300,2538A,103.7571,29.5664,乐山市,市监测站,,41,32,21,24,20,130,,63,63,5,12,4,4,0.9,0.8
2025-08-08T1300,3361A,103.7311,29.5628,乐山市,理工大学,,45,27,24,23,20,142,,71,71,5,14,6,6,0.8,0.8
2025-08-08T1300,2598A,100.2143,26.8576,丽江市,西南郊,,,,,,,,,,,,,,,,
2025-08-08T1300,2599A,100.2497,26.8802,丽江市,丽江古城,,30,21,25,9,11,96,,60,60,10,14,9,9,0.5,0.6
2025-08-08T1300,2600A,100.2203,26.8906,丽江市,市中心,,,21,16,8,11,,,41,,9,14,9,9,0.5,0.5
2025-08-08T1300,1267A,119.914,28.4514,丽水市,监测站大楼,,20,14,20,3,8,64,,43,43,5,13,4,4,0.3,0.4
2025-08-08T1300,1268A,119.93,28.4586,丽水市,莲都小学,,21,15,21,3,6,66,,46,46,3,12,3,3,0.3,0.4
2025-08-08T1300,1269A,119.879,28.4231,丽水市,余庄前,,20,10,17,6,11,64,,42,42,3,9,5,4,0.3,0.3
2025-08-08T1300,1173A,119.176,34.5885,连云港市,市环境监测站,,41,22,29,14,17,129,,120,120,4,6,2,2,0.5,0.6
2025-08-08T1300,3000A,119.3581,34.6972,连云港市,德源药业,,34,19,24,7,12,106,,102,102,7,12,4,4,0.7,0.7
2025-08-08T1300,3007A,119.178,34.844,连云港市,新城一中,,37,22,28,15,17,116,,105,105,4,8,3,3,0.8,0.8
2025-08-08T1300,3008A,119.3608,34.7519,连云港市,胡沟管理处,,34,14,23,7,12,108,,94,94,11,29,6,8,0.7,0.7
2025-08-08T1300,3009A,119.1478,34.5911,连云港市,矿山设计院,,39,24,32,14,21,124,,117,117,4,5,4,4,0.5,0.6
2025-08-08T1300,3434A,119.2413,34.6539,连云港市,工贸学校,,40,20,29,12,24,125,,112,112,11,10,5,5,0.7,0.8
2025-08-08T1300,3664A,119.4172,34.7341,连云港市,连云街道,,30,17,22,13,16,96,,57,57,2,4,2,2,0.7,0.7
2025-08-08T1300,2571A,102.3431,27.8099,凉山彝族自治州,青龙寺,,32,10,18,9,9,102,,59,59,2,6,8,8,0.4,0.6
2025-08-08T1300,2572A,102.2721,27.8415,凉山彝族自治州,邛海宾馆,,40,30,29,16,13,126,,69,69,8,15,14,10,1.0,0.7
2025-08-08T1300,2573A,102.2625,27.898,凉山彝族自治州,西昌市政府,颗粒物(PM10),67,84,36,24,16,128,,,,13,10,17,9,1.5,0.8
2025-08-08T1300,2574A,102.2685,27.8851,凉山彝族自治州,凉山州政府,,42,33,25,23,18,134,,80,80,21,18,19,14,1.8,1.3
2025-08-08T1300,4229A,102.2342,27.8859,凉山彝族自治州,凯乐南路30号,,39,24,26,13,14,124,,76,76,13,14,23,15,1.7,1.1
2025-08-08T1300,2212A,123.2,41.1953,辽阳市,宏伟区,,33,20,27,3,13,105,,54,54,6,14,11,6,0.6,0.7
2025-08-08T1300,2213A,123.1683,41.2495,辽阳市,新华园,,32,20,31,10,16,101,,56,56,8,18,5,6,0.5,0.6
2025-08-08T1300,2214A,123.2354,41.2639,辽阳市,滨河路,,,42,38,22,16,102,,52,52,,17,7,4,0.6,0.6
2025-08-08T1300,2215A,123.149,41.2991,辽阳市,铁西工业园,,26,6,43,3,19,83,,40,40,6,19,4,5,0.7,0.8
2025-08-08T1300,2227A,125.1358,42.8845,辽源市,环保局,,24,15,25,3,4,76,,48,48,2,10,7,7,0.3,0.4
2025-08-08T1300,3239A,125.0764,42.9078,辽源市,银鹰制药,,29,6,14,3,7,92,,54,54,5,12,9,11,0.4,0.4
2025-08-08T1300,1625A,115.9848,36.4372,聊城市,区政府,,43,38,44,30,32,130,,112,112,4,11,4,7,0.9,1
2025-08-08T1300,2878A,116.0072,36.4343,聊城市,聊大东校,,42,41,48,25,30,133,,111,111,5,13,6,5,0.7,0.9
2025-08-08T1300,3200A,115.9819,36.4978,聊城市,监控中心,,43,40,43,22,26,136,,122,122,5,12,5,6,0.3,0.4
2025-08-08T1300,3513A,116.0445,36.4361,聊城市,九州社区,,44,37,50,25,31,138,,110,110,4,11,4,4,0.4,0.5
2025-08-08T1300,4018A,116.0567,36.4608,聊城市,星美广场,,45,37,48,25,32,142,,112,112,5,14,3,3,0.7,0.8
2025-08-08T1300,2632A,94.3681,29.6376,林芝市,林芝监测站,,22,9,8,3,5,69,,43,42,3,3,4,4,0.3,0.3
2025-08-08T1300,2633A,94.3616,29.6616,林芝市,林芝人民医院,,,12,10,3,5,74,,45,45,1,2,,6,,0.5
2025-08-08T1300,2603A,100.0781,23.8982,临沧市,市环保局,,15,15,15,9,16,37,,25,25,5,7,6,6,0.5,0.5
2025-08-08T1300,2604A,100.0894,23.8822,临沧市,市气象局,,14,14,14,8,9,38,,28,28,7,9,9,8,0.4,0.4
2025-08-08T1300,1733A,111.5531,36.0783,临汾市,临钢医院,,46,46,36,20,18,106,,81,81,8,22,6,6,0.8,0.7
2025-08-08T1300,1734A,111.5028,36.0714,临汾市,技工学校,,42,,43,29,28,118,,87,87,5,9,6,7,0.7,0.7
2025-08-08T1300,1736A,111.5018,36.0855,临汾市,市委,,41,37,50,16,18,131,,96,96,3,9,4,6,0.8,0.8
2025-08-08T1300,3018A,111.505,36.1014,临汾市,唐尧大酒店,,46,46,55,22,21,111,,78,78,5,11,3,3,0.8,0.7
2025-08-08T1300,4244A,111.4879,36.0530,临汾市,启星学校,,36,25,36,23,33,114,,83,83,5,11,5,6,0.7,0.7
2025-08-08T1300,4271A,103.2464,35.6123,临夏回族自治州,滨河东路1号,,21,8,23,6,14,65,,71,63,5,9,4,5,0.3,0.4
2025-08-08T1300,4310A,103.2093,35.5995,临夏回族自治州,新华街21号,,26,,25,3,15,83,,73,71,5,9,5,5,0.2,0.3
2025-08-08T1300,1618A,118.3429,35.0532,临沂市,沂河小区,,39,19,32,16,23,123,,91,91,8,9,8,8,0.3,0.5
2025-08-08T1300,1619A,118.295,35.0583,临沂市,鲁南制药厂,,42,22,30,17,23,134,,102,102,9,8,7,7,0.4,0.6
2025-08-08T1300,1620A,118.2794,34.9976,临沂市,新光毛纺厂,,43,22,26,15,23,135,,103,103,6,9,6,6,0.3,0.5
2025-08-08T1300,1621A,118.3956,35.0888,临沂市,河东保险公司,,39,19,28,10,16,123,,96,96,6,10,6,6,0.2,0.3
2025-08-08T1300,3370A,118.3564,35.0215,临沂市,十里堡居委,,42,14,26,12,21,134,,99,99,5,7,9,8,0.4,0.5
2025-08-08T1300,3496A,118.3604,35.1084,临沂市,南坊新区,,41,19,31,9,16,129,,101,101,7,9,7,7,0.3,0.5
2025-08-08T1300,3860A,118.3920,35.0300,临沂市,皇山花园小区,,40,19,26,13,17,126,,92,92,8,8,8,8,0.5,0.5
2025-08-08T1300,1870A,109.4856,24.3895,柳州市,柳东小学,,26,23,19,14,9,81,,54,54,2,6,4,4,0.5,0.5
2025-08-08T1300,1871A,109.4157,24.3277,柳州市,环保监测站,,38,32,21,26,10,78,,47,47,4,7,7,7,0.5,0.5
2025-08-08T1300,1872A,109.389,24.341,柳州市,河西水厂,,31,31,24,16,10,78,,46,46,4,8,4,4,0.4,0.4
2025-08-08T1300,1873A,109.4311,24.2921,柳州市,市四中,,30,30,24,13,10,77,,44,44,6,11,6,7,0.5,0.6
2025-08-08T1300,1874A,109.4006,24.3631,柳州市,市九中,,36,36,28,24,13,78,,45,45,4,8,4,4,0.4,0.4
2025-08-08T1300,1875A,109.4958,24.3134,柳州市,古亭山,,46,46,22,16,9,74,,50,50,3,8,5,5,0.7,0.7
2025-08-08T1300,3402A,109.5422,24.3996,柳州市,市二中,,29,29,19,18,10,79,,55,55,5,8,5,9,0.6,0.6
2025-08-08T1300,2307A,116.5079,31.737,六安市,监测大楼,,23,15,17,7,11,73,,46,46,5,14,1,5,0.3,0.4
2025-08-08T1300,2308A,116.4738,31.7643,六安市,皖西学院,,24,10,15,6,9,76,,52,52,2,7,5,3,0.3,0.3
2025-08-08T1300,2309A,116.4996,31.7905,六安市,朝阳厂,,26,11,14,7,10,81,,54,54,6,10,7,6,0.4,0.4
2025-08-08T1300,2310A,116.5567,31.7886,六安市,开发区,,23,,9,9,11,71,,44,44,4,9,2,2,0.4,0.4
2025-08-08T1300,2576A,104.8,26.5892,六盘水市,窑上,,23,19,25,3,5,73,,46,46,5,5,2,2,0.8,0.8
2025-08-08T1300,2577A,104.83,26.5917,六盘水市,黄土坡,,25,22,16,16,10,79,,,,7,10,10,10,0.4,0.4
2025-08-08T1300,2578A,104.89,26.5939,六盘水市,水钢,,26,,20,16,13,81,,56,56,4,9,9,9,0.4,0.5
2025-08-08T1300,2579A,104.8475,26.5894,六盘水市,民中,,27,8,15,7,7,84,,65,65,5,9,8,10,0.4,0.5
2025-08-08T1300,2580A,104.9544,26.5506,六盘水市,双水,,23,14,15,8,8,73,,51,51,6,9,6,6,0.7,0.6
2025-08-08T1300,2335A,117.0189,25.1181,龙岩市,龙岩师专,,,,,,,,,,,,,,,,
2025-08-08T1300,2336A,117.0217,25.1033,龙岩市,龙岩市监测站,,38,38,25,16,12,84,,45,45,4,10,4,6,0.5,0.6
2025-08-08T1300,2337A,117.0258,25.0661,龙岩市,闽西职业技术学院,,25,18,26,13,11,78,,41,41,2,8,4,9,0.4,0.4
2025-08-08T1300,2338A,117.0196,25.0306,龙岩市,龙岩学院,,22,22,22,9,12,70,,40,40,3,6,5,6,0.7,0.7
2025-08-08T1300,2665A,105.0822,33.3261,陇南市,汉王镇固水子,,,,,,,,,,,,,,,,
2025-08-08T1300,2885A,104.9339,33.3826,陇南市,滨江中学,,30,14,29,3,10,94,,66,66,1,3,7,6,0.6,0.6
2025-08-08T1300,3247A,104.955,33.371,陇南市,市总工会,,34,34,29,11,10,108,,73,73,5,6,6,6,0.4,0.5
2025-08-08T1300,2487A,111.9589,27.8901,娄底市,电视发射台,,24,24,20,11,7,55,,31,31,5,5,3,3,0.3,0.3
2025-08-08T1300,2488A,111.9975,27.725,娄底市,市监测站,,41,41,19,13,10,61,,45,45,5,6,6,7,0.6,0.5
2025-08-08T1300,2489A,112.0194,27.7314,娄底市,市委党校,,23,16,17,12,10,72,,59,59,5,6,3,2,0.5,0.5
2025-08-08T1300,2490A,111.9561,27.7569,娄底市,涟钢,,28,28,33,6,13,56,,35,35,8,12,24,32,1.1,1
2025-08-08T1300,2491A,111.9892,27.7044,娄底市,市政府,,42,42,15,15,8,60,,44,44,2,2,7,7,0.3,0.2
2025-08-08T1300,1893A,105.4324,28.9634,泸州市,九狮山,臭氧1小时,89,65,46,39,33,191,,70,70,13,14,6,3,0.6,0.5
2025-08-08T1300,1894A,105.4427,28.9063,泸州市,小市上码头,,42,38,32,19,19,133,,27,27,12,14,6,3,0.5,0.4
2025-08-08T1300,1895A,105.4241,28.8573,泸州市,兰田宪桥,,42,42,31,28,17,117,,69,69,7,12,8,8,0.8,0.7
2025-08-08T1300,1896A,105.4379,28.8833,泸州市,市环监站,,43,31,31,26,21,137,,73,73,8,15,5,5,0.6,0.5
2025-08-08T1300,4272A,105.3689,28.7783,泸州市,纳溪中医医院,臭氧1小时,54,31,27,20,23,163,,70,70,17,22,6,6,0.7,0.7
2025-08-08T1300,2183A,111.1406,37.5211,吕梁市,环保局,,39,31,46,27,19,117,,95,95,9,25,3,2,0.7,0.6
2025-08-08T1300,2185A,111.1297,37.5136,吕梁市,自来水公司,,39,21,40,21,18,122,,101,101,7,16,4,5,0.6,0.6
2025-08-08T1300,2867A,111.1283,37.51,吕梁市,马茂庄小学,,37,31,52,19,18,117,,86,86,8,27,3,2,0.6,0.6
2025-08-08T1300,1812A,112.3931,34.6516,洛阳市,市委党校,,45,38,21,31,16,116,,69,69,5,9,3,3,0.6,0.4
2025-08-08T1300,1815A,112.494,34.6886,洛阳市,河南林校,,42,35,26,22,13,132,,75,,8,12,6,7,0.5,0.4
2025-08-08T1300,1816A,112.3844,34.623,洛阳市,开发区管委会,,38,27,18,22,13,120,,64,64,5,9,17,9,0.8,0.7
2025-08-08T1300,1817A,112.4267,34.6258,洛阳市,市委新办公区,,49,35,19,34,14,131,,75,75,8,12,18,9,0.8,0.6
2025-08-08T1300,3340A,112.6005,34.6326,洛阳市,伊滨,,37,,19,23,14,117,,76,76,7,10,6,6,0.7,0.7
2025-08-08T1300,3341A,112.4951,34.6332,洛阳市,中移产业园,,46,43,21,32,15,104,,62,62,10,12,11,8,0.9,0.5
2025-08-08T1300,3593A,112.5736,34.8993,洛阳市,吉利监测站,,38,31,31,26,15,112,,73,73,5,9,5,4,0.6,0.6
2025-08-08T1300,3635A,112.3677,34.662,洛阳市,河科大西苑校区,,41,41,18,20,10,127,,76,76,10,15,14,8,0.6,0.5
2025-08-08T1300,3636A,112.4388,34.6781,洛阳市,英才小学,,42,42,21,22,13,126,,82,82,9,13,9,8,0.9,0.8
2025-08-08T1300,4214A,112.4600,34.6949,洛阳市,春都路1号院,,37,33,21,20,9,117,,72,72,11,14,5,7,0.7,0.7
2025-08-08T1300,2399A,114.051,33.5699,漯河市,三五一五工厂,,34,24,18,21,13,106,,82,82,6,10,4,4,0.6,0.6
2025-08-08T1300,2400A,114.0055,33.5698,漯河市,漯河大学,,35,28,19,22,9,111,,86,86,6,9,4,4,0.5,0.5
2025-08-08T1300,2401A,114.0138,33.5828,漯河市,市水利局,,35,31,18,24,13,104,,81,81,4,6,4,4,0.7,0.6
2025-08-08T1300,2402A,114.0261,33.5698,漯河市,市广电局,,36,27,12,20,16,113,,89,89,4,6,2,2,0.6,0.6
2025-08-08T1300,3478A,113.9749,33.5664,漯河市,市图书馆,,40,,16,28,14,107,,78,78,4,6,3,3,0.4,0.4
2025-08-08T1300,4250A,114.0892,33.5882,漯河市,韶山路11号,,35,18,13,17,11,111,,86,86,6,9,2,2,0.5,0.5
2025-08-08T1300,1798A,118.5092,31.6837,马鞍山市,湖东路四小,,33,29,22,7,13,105,,67,67,4,11,6,6,0.4,0.5
2025-08-08T1300,1799A,118.5024,31.6449,马鞍山市,开发区,,35,19,23,13,11,109,,66,66,4,15,7,8,0.2,0.4
2025-08-08T1300,1802A,118.6245,31.7241,马鞍山市,濮塘,,34,21,23,3,13,107,,63,63,4,10,6,6,0.7,0.8
2025-08-08T1300,3633A,118.4918,31.6809,马鞍山市,雨山,,31,20,23,12,13,98,,60,60,4,14,8,9,0.4,0.5
2025-08-08T1300,4191A,118.5274,31.72227,马鞍山市,慈湖高新区,,30,19,26,10,12,96,,60,60,7,17,7,8,0.4,0.5
2025-08-08T1300,1686A,111.0286,21.4688,茂名市,电白南海,,20,19,28,14,16,45,,46,45,5,6,2,2,0.4,0.4
2025-08-08T1300,1687A,110.9294,21.6533,茂名市,茂石化七小,,22,22,33,14,14,59,,44,44,5,9,4,4,0.3,0.4
2025-08-08T1300,1688A,110.9107,21.6687,茂名市,健康路,,23,19,29,9,12,71,,51,51,6,9,4,5,0.6,0.5
2025-08-08T1300,1689A,110.8592,21.6828,茂名市,高岭,,22,22,34,7,8,58,,45,45,7,14,5,6,0.4,0.4
2025-08-08T1300,3450A,111.01,21.5165,茂名市,电白水东,,19,19,21,9,10,51,,51,51,6,7,3,3,0.5,0.5
2025-08-08T1300,2539A,104.0308,30.0478,眉山市,黑龙滩水库,,14,,23,8,16,44,,,,2,12,3,3,0.4,0.3
2025-08-08T1300,2540A,103.8416,30.0874,眉山市,气象局,,45,29,34,22,16,144,,66,66,10,25,9,9,0.6,0.6
2025-08-08T1300,3137A,103.8578,30.0744,眉山市,市委党校,,48,31,25,14,15,151,,75,75,13,18,11,11,0.5,0.6
2025-08-08T1300,3148A,103.8291,30.0564,眉山市,区人社局,,48,47,39,19,13,152,,63,63,14,27,10,8,1.1,1.1
2025-08-08T1300,1690A,116.1231,24.3284,梅州市,梅江月梅,,27,14,22,6,10,85,,46,46,7,13,9,9,0.5,0.5
2025-08-08T1300,1691A,116.0797,24.2719,梅州市,梅县新城,,26,26,21,12,8,79,,48,48,4,8,6,6,0.4,0.4
2025-08-08T1300,1692A,116.1248,24.2654,梅州市,环境监控中心,,23,22,25,8,8,73,,42,42,6,13,3,3,0.6,0.6
2025-08-08T1300,3315A,116.1233,24.2991,梅州市,梅龙,,26,22,22,11,12,82,,48,48,4,9,7,7,0.4,0.4
2025-08-08T1300,1878A,104.7778,31.4741,绵阳市,富乐山,,43,26,20,18,10,136,,46,46,8,13,8,9,0.6,0.6
2025-08-08T1300,1880A,104.6697,31.4668,绵阳市,高新区自来水公司,,40,27,18,7,6,127,,44,44,8,16,8,8,0.6,0.6
2025-08-08T1300,1881A,104.7287,31.5075,绵阳市,三水厂,,46,28,21,20,12,147,,42,42,6,19,7,7,0.5,0.5
2025-08-08T1300,3491A,104.69,31.5322,绵阳市,西科大附属小学,,46,31,23,18,10,147,,46,46,8,20,8,8,0.5,0.5
2025-08-08T1300,3492A,104.5648,31.5343,绵阳市,安州区旅游局,,37,14,18,7,4,116,,54,54,4,7,8,9,0.3,0.3
2025-08-08T1300,4226A,104.7651,31.4531,绵阳市,绵阳市气象局,,44,24,20,15,12,138,,42,42,12,15,9,8,0.6,0.5
2025-08-08T1300,1784A,129.61,44.561,牡丹江市,环保大楼,,20,10,16,6,10,62,,29,29,4,11,3,3,0.2,0.2
2025-08-08T1300,1785A,129.6115,44.5782,牡丹江市,文化广场,,20,6,16,3,15,62,,28,28,6,13,7,7,0.3,0.5
2025-08-08T1300,1786A,129.5904,44.5963,牡丹江市,第一医院,,22,,21,11,14,68,,31,31,7,12,8,7,0.3,0.4
2025-08-08T1300,1787A,129.6364,44.6075,牡丹江市,机车工厂,,20,8,20,7,11,62,,29,29,4,9,5,5,0.3,0.4
2025-08-08T1300,1788A,129.6386,44.5462,牡丹江市,第一中学,,21,21,18,6,9,66,,31,31,4,10,5,4,0.2,0.2
2025-08-08T1300,2531A,105.0703,29.61,内江市,市监测站,,46,,20,29,21,146,,85,85,7,11,1,1,0.6,0.6
2025-08-08T1300,2532A,105.0717,29.5947,内江市,东兴区政府,,44,,23,22,15,138,,84,84,7,11,8,8,0.8,0.7
2025-08-08T1300,2533A,105.0653,29.5817,内江市,内江二中,,49,,29,34,26,145,,88,88,8,12,4,3,0.8,0.7
2025-08-08T1300,2534A,105.0406,29.5822,内江市,内江日报社,,50,,19,35,23,153,,92,92,6,12,6,6,0.7,0.6
2025-08-08T1300,2628A,92.0657,31.4846,那曲市,那曲监测站,,27,17,23,11,12,86,,56,56,9,12,6,7,0.4,0.4
2025-08-08T1300,4243A,92.0515,31.4787,那曲市,那曲市委宣传部,,29,26,14,17,9,92,,65,65,4,7,7,5,0.2,0.2
2025-08-08T1300,1290A,115.8931,28.6843,南昌市,省外办,,29,20,18,14,14,90,,46,46,6,11,8,9,0.3,0.3
2025-08-08T1300,1291A,115.8886,28.7003,南昌市,省林业公司,,29,19,18,7,10,91,,50,50,6,12,5,6,0.4,0.5
2025-08-08T1300,1292A,115.8126,28.7442,南昌市,林科所,,23,14,12,3,6,73,,45,45,3,13,7,8,0.3,0.3
2025-08-08T1300,1294A,115.8518,28.687,南昌市,建工学校,,32,,20,22,14,89,,47,47,9,15,8,8,0.4,0.5
2025-08-08T1300,1295A,115.8921,28.6424,南昌市,象湖,,30,,16,9,8,94,,53,53,6,12,9,9,0.4,0.4
2025-08-08T1300,1296A,115.7423,28.7996,南昌市,武术学校,,23,13,12,8,11,71,,42,42,13,10,9,8,0.4,0.5
2025-08-08T1300,3046A,115.9084,28.6062,南昌市,机电学校,,27,16,21,7,9,85,,47,47,2,10,6,6,0.5,0.5
2025-08-08T1300,3690A,115.9721,28.7031,南昌市,外国语学校,,26,14,19,6,8,83,,52,52,5,12,6,7,0.3,0.4
2025-08-08T1300,4192A,115.9316,28.68677,南昌市,南京东路235号,,40,40,26,10,7,82,,50,50,7,14,6,6,0.5,0.6
2025-08-08T1300,1905A,106.056,30.8064,南充市,西山风景区,,,,,,,,,,,,,,,,
2025-08-08T1300,1906A,106.0789,30.8023,南充市,南充市委,细颗粒物(PM2.5),53,44,30,37,25,134,,62,62,7,12,5,8,0.5,0.5
2025-08-08T1300,1907A,106.1031,30.8217,南充市,南充炼油厂,,39,34,34,22,21,124,,54,54,4,10,4,4,0.4,0.5
2025-08-08T1300,4227A,106.1083,30.7884,南充市,梨树横街98号,,49,49,31,26,22,139,,86,,9,13,4,4,0.3,0.4
2025-08-08T1300,4304A,106.1172,30.843,南充市,清泉寺北路188号,,37,24,25,20,24,116,,52,52,5,10,2,3,0.3,0.4
2025-08-08T1300,4305A,106.067,30.7616,南充市,同庆路1号,,50,,28,17,17,160,,83,83,6,15,3,4,0.4,0.4
2025-08-08T1300,1151A,118.8086,32.1065,南京市,迈皋桥,,,14,14,3,7,109,,44,,5,16,,4,0.5,0.3
2025-08-08T1300,1152A,118.7538,32.0551,南京市,草场门,,27,22,19,9,9,86,,54,54,5,12,10,12,0.6,0.8
2025-08-08T1300,1153A,118.7794,32.0745,南京市,山西路,,33,19,24,3,5,105,,69,69,5,12,6,8,0.5,0.7
2025-08-08T1300,1154A,118.7752,32.0023,南京市,中华门,,26,12,15,7,6,82,,46,46,4,10,10,10,0.9,1
2025-08-08T1300,1155A,118.8109,32.0309,南京市,瑞金路,,33,14,16,12,9,104,,65,65,3,7,7,7,0.4,0.5
2025-08-08T1300,1156A,118.7997,32.0754,南京市,玄武湖,,30,24,21,3,2,96,,,,8,9,4,4,0.2,0.4
2025-08-08T1300,1157A,118.6414,32.0931,南京市,浦口,,28,19,20,3,6,87,,56,56,6,13,5,5,0.3,0.4
2025-08-08T1300,1158A,118.7356,31.9996,南京市,奥体中心,,29,18,22,7,9,92,,57,57,10,21,8,8,0.7,0.8
2025-08-08T1300,1159A,118.9125,32.1028,南京市,仙林大学城,,36,24,25,3,5,115,,62,62,4,11,9,9,0.8,0.8
2025-08-08T1300,3422A,118.8436,31.9198,南京市,江宁彩虹桥,,30,15,21,9,9,95,,63,63,10,13,4,4,0.6,0.7
2025-08-08T1300,3427A,118.8554,32.3578,南京市,六合雄州,,32,32,21,9,10,97,,58,58,7,13,5,5,0.7,0.8
2025-08-08T1300,4249A,118.8708,31.3402,南京市,汶溪路181号,,28,13,10,9,9,88,,73,73,4,6,4,5,0.4,0.4
2025-08-08T1300,4312A,119.019,31.6512,南京市,中山西路1号,,30,,7,16,8,94,,58,58,8,10,4,4,0.4,0.4
2025-08-08T1300,1401A,108.3103,22.7881,南宁市,二十一中,,32,32,29,16,12,65,,45,45,4,8,3,3,0.6,0.6
2025-08-08T1300,1402A,108.3141,22.8528,南宁市,北湖,,26,12,28,12,13,81,,57,57,5,8,3,3,0.5,0.5
2025-08-08T1300,1403A,108.3206,22.8225,南宁市,市监测站,,27,27,25,14,11,76,,54,54,6,8,3,3,0.5,0.5
2025-08-08T1300,1404A,108.3829,22.8037,南宁市,大自然花园,,23,17,22,13,11,72,,54,54,2,5,4,5,0.6,0.6
2025-08-08T1300,1405A,108.4394,22.7904,南宁市,仙葫,,23,22,24,16,14,66,,51,51,4,6,5,6,0.6,0.6
2025-08-08T1300,1406A,108.2397,22.8467,南宁市,区农职院,,24,24,28,11,14,74,,54,54,8,12,4,4,0.5,0.5
2025-08-08T1300,1407A,108.3275,22.735,南宁市,英华嘉园,,21,20,28,14,13,67,,48,48,7,11,1,2,0.4,0.4
2025-08-08T1300,3401A,108.4834,22.7618,南宁市,红星社区,,24,,25,16,17,75,,54,54,4,7,2,2,0.5,0.5
2025-08-08T1300,4221A,108.2177,22.7774,南宁市,乐贤路16号,,32,32,29,19,13,73,,47,47,6,18,4,2,0.5,0.6
2025-08-08T1300,2331A,118.0966,26.6761,南平市,茫荡山,,,,,,,,,,,,,,,,
2025-08-08T1300,2332A,118.1681,26.6369,南平市,南平市监测站,,28,14,21,7,12,89,,46,46,4,11,5,5,0.5,0.6
2025-08-08T1300,2333A,118.1825,26.6489,南平市,南平铝业有限公司,,27,,22,12,11,86,,46,46,2,12,6,5,0.5,0.6
2025-08-08T1300,2334A,118.1756,26.6272,南平市,南平七中,,28,15,20,12,9,87,,43,43,1,8,4,3,0.5,0.6
2025-08-08T1300,1168A,120.9098,31.9663,南通市,狼山街道,,32,30,19,16,9,100,,52,52,16,32,7,5,0.6,0.6
2025-08-08T1300,1169A,120.86,32.0005,南通市,虹桥,,30,30,20,18,14,92,,46,46,30,38,6,4,0.9,0.8
2025-08-08T1300,1170A,120.87,32.02,南通市,城中,,36,36,31,13,10,90,,46,46,21,30,8,7,0.7,0.5
2025-08-08T1300,1171A,120.94,31.93,南通市,星湖花园,,40,38,16,19,10,127,,66,66,31,28,6,4,0.7,0.5
2025-08-08T1300,1172A,120.81,32.0417,南通市,紫琅学院,,32,29,24,17,9,101,,55,55,25,32,7,4,0.9,0.7
2025-08-08T1300,3291A,121.067,32.062,南通市,通州监测站,,39,24,23,14,15,124,,69,69,17,19,4,2,1.1,0.9
2025-08-08T1300,3432A,120.9348,31.9883,南通市,环境教育馆,,33,31,35,13,11,104,,52,52,15,29,6,5,0.4,0.4
2025-08-08T1300,2404A,112.5224,33.0122,南阳市,瓦房庄,,32,32,24,21,13,95,,71,70,6,6,6,7,0.6,0.6
2025-08-08T1300,2405A,112.5003,32.9735,南阳市,汉画馆,,,,19,,7,,,87,,,7,,7,,0.6
2025-08-08T1300,2406A,112.5573,33.027,南阳市,气象站,颗粒物(PM10),54,58,23,17,8,100,,73,,6,6,6,7,0.4,0.4
2025-08-08T1300,2407A,112.5481,32.9689,南阳市,理工学院,,29,29,20,14,9,90,,65,63,6,5,7,7,0.6,0.6
2025-08-08T1300,4008A,112.5234,32.9922,南阳市,卧龙区政府,,30,24,18,19,15,94,,70,70,7,8,5,6,0.6,0.7
2025-08-08T1300,1234A,121.8358,29.911,宁波市,区环保大楼,臭氧1小时,74,51,58,20,27,179,,82,82,35,50,10,5,0.7,0.6
2025-08-08T1300,1235A,121.56,29.82,宁波市,万里学院,,,29,32,14,19,98,,64,64,,20,5,5,0.3,0.5
2025-08-08T1300,1236A,121.713,29.9572,宁波市,龙赛医院,,43,27,55,17,18,135,,81,81,8,27,4,5,0.4,0.4
2025-08-08T1300,1239A,121.633,29.7733,宁波市,钱湖水厂,,35,16,34,11,21,112,,79,79,6,15,6,5,0.4,0.5
2025-08-08T1300,1240A,121.5856,29.8635,宁波市,太古小学,,32,24,37,15,16,101,,75,75,2,15,2,2,0.5,0.6
2025-08-08T1300,1241A,121.524,29.8674,宁波市,市环境监测中心,,32,24,30,8,13,100,,70,70,6,20,7,8,0.4,0.5
2025-08-08T1300,2871A,121.6147,29.9017,宁波市,万里国际学校,,34,24,26,15,16,106,,79,79,3,15,4,4,0.4,0.5
2025-08-08T1300,3710A,121.5594,29.8975,宁波市,白沙活动中心,,32,20,25,8,15,102,,76,76,5,18,5,5,0.5,0.5
2025-08-08T1300,2339A,119.5001,26.6946,宁德市,金涵水库,,,,,,,,,,,,,,,,
2025-08-08T1300,2341A,119.5388,26.6612,宁德市,宁德市监测站,,40,40,38,21,20,115,,68,68,6,14,4,3,0.5,0.7
2025-08-08T1300,3209A,119.5231,26.6562,宁德市,宁德一中,,39,34,36,19,24,123,,73,73,6,9,6,7,0.4,0.6
2025-08-08T1300,2618A,98.8601,25.8567,怒江傈僳族自治州,州监测站,,18,16,21,9,11,56,,46,38,5,6,8,7,0.4,0.4
2025-08-08T1300,2619A,98.8546,25.8417,怒江傈僳族自治州,泸水一中,,26,26,16,18,12,44,,38,38,7,9,6,6,0.3,0.4
2025-08-08T1300,1888A,101.6891,26.571,攀枝花市,弄弄坪,,31,30,35,10,12,97,,51,51,9,17,5,9,0.7,0.9
2025-08-08T1300,1889A,101.5769,26.5928,攀枝花市,河门口,,42,42,26,23,15,128,,60,60,12,15,20,16,1.9,1.1
2025-08-08T1300,1890A,101.7169,26.585,攀枝花市,炳草岗,,31,14,35,13,14,97,,46,46,8,16,7,8,0.7,0.7
2025-08-08T1300,1891A,101.7369,26.5008,攀枝花市,仁和,颗粒物(PM10),51,52,30,34,20,109,,50,50,7,9,23,13,0.7,0.7
2025-08-08T1300,2835A,101.7227,26.567,攀枝花市,四十中小,,31,22,28,15,17,98,,55,55,6,13,10,11,0.7,0.7
2025-08-08T1300,1604A,122.0303,41.1489,盘锦市,开发区,,,43,22,9,9,93,,63,63,13,13,,5,0.5,0.1
2025-08-08T1300,1605A,122.0485,41.0883,盘锦市,兴隆台,,29,12,18,3,7,91,,60,60,12,15,9,7,0.3,0.3
2025-08-08T1300,1606A,121.8297,41.1028,盘锦市,新生街道,,29,11,14,3,7,91,,54,54,9,22,4,4,0.4,0.4
2025-08-08T1300,1832A,113.3257,33.742,平顶山市,新华旅馆,,38,30,36,24,22,119,,78,78,4,12,4,6,0.6,0.6
2025-08-08T1300,1833A,113.2919,33.737,平顶山市,规划设计院,,37,23,31,23,20,117,,81,81,6,11,4,4,0.9,0.9
2025-08-08T1300,1834A,113.182,33.774,平顶山市,平顶山工学院,,39,20,21,19,16,122,,84,84,6,9,4,5,0.6,0.7
2025-08-08T1300,3204A,113.3025,33.73,平顶山市,规划局,,38,29,30,23,15,120,,79,79,5,10,2,3,0.5,0.6
2025-08-08T1300,3594A,112.8867,33.9116,平顶山市,石龙区,,32,17,29,13,14,100,,72,72,5,10,6,7,0.7,0.8
2025-08-08T1300,2656A,106.6692,35.5461,平凉市,聚贤嘉苑,,31,22,41,6,15,98,,116,103,4,9,8,8,0.5,0.7
2025-08-08T1300,2657A,106.7021,35.5307,平凉市,博物馆,,30,27,42,3,17,93,,98,98,5,12,10,9,0.6,0.7
2025-08-08T1300,2347A,114.0997,27.5002,萍乡市,武功山,,16,,4,3,3,49,,39,39,3,3,9,8,0.2,0.3
2025-08-08T1300,2348A,113.8385,27.6434,萍乡市,中医院,,20,6,18,3,7,61,,34,34,9,16,10,10,0.6,1.2
2025-08-08T1300,2349A,113.8493,27.6253,萍乡市,市政府车库,,16,,13,7,11,50,,27,27,3,9,9,9,0.3,0.7
2025-08-08T1300,2350A,113.8676,27.6435,萍乡市,市环保局,,,,24,,12,60,,,,4,11,5,9,0.2,0.8
2025-08-08T1300,2351A,113.866,27.6198,萍乡市,安源区政府,,,,22,5,9,49,,29,29,2,6,12,12,0.4,0.7
2025-08-08T1300,2319A,119.0141,25.4325,莆田市,荔城区仓后路,颗粒物(PM10),56,61,51,34,27,147,,70,70,10,15,5,5,0.7,0.6
2025-08-08T1300,2320A,119.0015,25.4553,莆田市,莆田市监测站,颗粒物(PM10),58,66,44,25,26,149,,72,72,10,13,6,5,0.5,0.5
2025-08-08T1300,2321A,119.1119,25.4561,莆田市,涵江区六中,臭氧1小时,82,70,42,40,27,185,,80,80,11,17,3,4,0.6,0.6
2025-08-08T1300,2322A,119.1013,25.3215,莆田市,秀屿区政府,臭氧1小时,78,55,39,24,19,182,,95,95,13,13,6,6,0.5,0.4
2025-08-08T1300,2323A,118.981,25.4792,莆田市,东圳水库,,,,,,,,,,,,,,,,
2025-08-08T1300,2392A,115.0312,35.7636,濮阳市,环保局,,44,33,41,22,29,140,,119,119,3,8,2,5,0.6,0.6
2025-08-08T1300,2394A,115.0574,35.7609,濮阳市,油田运输公司,,42,34,48,25,26,132,,103,103,6,11,1,4,0.6,0.7
2025-08-08T1300,3021A,115,35.7668,濮阳市,濮水河管理处,,39,26,40,23,31,123,,93,93,8,15,2,3,0.5,0.6
2025-08-08T1300,4216A,115.0924,35.7686,濮阳市,任丘路479号,,40,32,55,20,35,126,,94,94,3,10,1,5,0.5,0.6
2025-08-08T1300,2601A,100.98,22.7633,普洱市,市环保局,,18,18,21,3,11,27,,25,25,2,3,5,5,0.5,0.4
2025-08-08T1300,2602A,100.9817,22.8322,普洱市,普洱第二中学,,25,,17,17,11,30,,24,24,5,4,5,6,0.4,0.4
2025-08-08T1300,2262A,131.0518,45.8751,七台河市,新一中,,25,6,11,3,7,80,,51,51,5,11,9,9,0.7,0.8
2025-08-08T1300,3345A,131.0577,45.7879,七台河市,中波台,,19,,7,10,8,60,,36,36,4,14,7,8,0.4,0.5
2025-08-08T1300,3637A,131.0176,45.7761,七台河市,人民广场,,,,14,8,8,63,,40,40,3,13,9,9,0.3,0.4
2025-08-08T1300,3684A,130.8781,45.8222,七台河市,新建矿广场,,,12,8,3,6,68,,38,38,,15,9,10,0.1,0.4
2025-08-08T1300,1779A,123.9305,47.3636,齐齐哈尔市,安居小区,,22,22,28,7,10,68,,48,48,8,17,5,5,0.4,0.5
2025-08-08T1300,1780A,123.9488,47.3386,齐齐哈尔市,中心广场,,23,11,25,3,6,73,,53,53,7,15,5,5,0.4,0.5
2025-08-08T1300,1781A,123.9483,47.3227,齐齐哈尔市,农牧车辆厂,,23,19,29,3,11,73,,51,51,4,17,6,7,0.2,0.5
2025-08-08T1300,1783A,123.945,47.2988,齐齐哈尔市,市环境监测站,,23,,21,6,8,72,,51,51,3,15,5,5,0.3,0.4
2025-08-08T1300,3662A,123.6333,47.2075,齐齐哈尔市,富区青少年活动中心,,20,10,22,3,11,64,,49,49,3,11,6,6,0.3,0.4
2025-08-08T1300,2591A,107.9783,26.5747,黔东南苗族侗族自治州,市环境监测站,,15,10,9,6,7,46,,40,39,2,2,2,2,0.4,0.4
2025-08-08T1300,2881A,107.8908,26.5311,黔东南苗族侗族自治州,凯里学院,,15,,6,7,8,47,,35,35,7,8,1,1,0.4,0.4
2025-08-08T1300,2593A,107.5228,26.2403,黔南布依族苗族自治州,小围寨,,,,6,,3,29,,22,,3,3,3,2,0.2,0.2
2025-08-08T1300,3538A,107.5175,26.2978,黔南布依族苗族自治州,沙坝,,9,9,8,3,0,28,,21,17,3,4,3,4,0.4,0.4
2025-08-08T1300,2589A,104.9022,25.0925,黔西南布依族苗族自治州,场坝街,,14,14,15,8,7,43,,25,25,6,8,2,2,0.3,0.3
2025-08-08T1300,2590A,104.8811,25.0992,黔西南布依族苗族自治州,坪东大道,,14,10,17,3,6,43,,23,23,5,9,2,2,0.4,0.4
2025-08-08T1300,2502A,108.6236,21.9667,钦州市,市环保站,,27,27,22,7,12,76,,40,40,4,12,1,3,0.5,0.6
2025-08-08T1300,2503A,108.6549,21.9481,钦州市,沙埠小学,,27,27,36,16,18,74,,36,36,3,12,1,3,0.5,0.6
2025-08-08T1300,2504A,108.5989,21.7431,钦州市,港区一小,,33,33,41,21,18,66,,46,46,5,19,4,4,0.5,0.8
2025-08-08T1300,3404A,108.5959,21.9633,钦州市,北职校,,26,20,26,11,16,81,,41,41,4,11,2,3,0.4,0.6
2025-08-08T1300,1043A,119.7493,40.0116,秦皇岛市,第一关,,32,9,24,3,13,101,,57,57,1,31,6,6,0.2,0.3
2025-08-08T1300,1044A,119.5897,39.9499,秦皇岛市,监测站,,31,21,32,3,7,98,,59,59,9,27,5,5,0.4,0.4
2025-08-08T1300,1046A,119.5251,39.9041,秦皇岛市,建设大厦,,30,8,34,6,7,96,,54,54,5,24,6,6,0.3,0.3
2025-08-08T1300,3132A,119.610547,39.943889,秦皇岛市,文明里,,30,18,31,3,10,95,,62,62,8,26,6,6,0.2,0.2
2025-08-08T1300,4198A,119.5090,39.8253,秦皇岛市,北戴河轮滑馆,,28,21,28,6,12,87,,60,60,7,15,3,3,0.3,0.4
2025-08-08T1300,1307A,120.6659,36.2403,青岛市,仰口,,,,,,,,,,,,,,,,
2025-08-08T1300,1310A,120.4134,36.0658,青岛市,市南区东部子站,,40,9,10,9,10,125,,108,108,1,5,7,7,0.3,0.3
2025-08-08T1300,1311A,120.3664,36.1032,青岛市,四方区子站,,42,17,14,9,10,134,,111,111,6,9,12,6,0.2,0.2
2025-08-08T1300,1312A,120.2994,36.054,青岛市,市南区西部子站,,40,7,14,3,7,126,,100,100,5,14,5,4,0.6,0.7
2025-08-08T1300,1313A,120.4581,36.0858,青岛市,崂山区子站,,41,9,10,7,6,130,,100,100,7,12,8,8,0.2,0.2
2025-08-08T1300,1315A,120.3999,36.3083,青岛市,城阳区子站,臭氧1小时,58,29,22,7,11,166,,117,117,9,15,7,7,0.5,0.5
2025-08-08T1300,1966A,120.0405,35.8735,青岛市,黄岛区4号,,45,17,18,7,8,141,,113,113,4,7,6,5,0.4,0.5
2025-08-08T1300,3362A,120.5014,36.4034,青岛市,即墨2号,,44,17,18,13,10,138,,113,113,3,8,3,3,0.2,0.2
2025-08-08T1300,3642A,120.3503,36.0736,青岛市,市北区南部,,39,15,16,7,7,123,,102,102,6,16,6,6,0.7,0.7
2025-08-08T1300,3643A,120.3948,36.1805,青岛市,李沧区北部,,40,12,14,12,11,125,,96,96,1,10,6,6,0.3,0.3
2025-08-08T1300,4290A,120.1969,35.9546,青岛市,珠江路669号,,,7,18,7,14,118,,84,84,5,7,,6,0.5,0.6
2025-08-08T1300,1702A,113.0426,23.691,清远市,环保大楼,颗粒物(PM10),51,51,25,24,9,120,,46,46,12,13,7,7,0.8,0.7
2025-08-08T1300,1703A,113.0208,23.7106,清远市,凤城街办,,29,29,18,15,8,88,,34,34,10,15,6,6,0.5,0.5
2025-08-08T1300,3025A,113.0477,23.6344,清远市,技师学院,,33,30,20,14,9,104,,41,41,8,19,8,9,0.5,0.4
2025-08-08T1300,3318A,112.9903,23.7403,清远市,清新太和,,33,33,19,18,9,89,,37,37,10,12,6,6,0.5,0.5
2025-08-08T1300,3455A,113.076,23.7198,清远市,清城东城,,39,39,21,19,9,97,,36,36,8,12,6,6,0.6,0.5
2025-08-08T1300,2661A,107.6325,35.7357,庆阳市,庆阳五中,,30,19,29,6,18,96,,122,96,6,7,8,7,0.6,0.7
2025-08-08T1300,2662A,107.6364,35.7067,庆阳市,市环保局,,33,23,28,7,16,103,,127,102,5,6,4,5,0.7,0.8
2025-08-08T1300,1916A,103.7897,25.5035,曲靖市,环境监测站,,24,17,19,10,9,75,,44,44,6,11,6,6,0.5,0.5
2025-08-08T1300,1917A,103.8,25.5364,曲靖市,烟厂办公区,,23,19,17,16,11,72,,40,40,3,7,4,4,0.6,0.6
2025-08-08T1300,3376A,103.7947,25.462,曲靖市,南苑二区,,24,9,13,3,8,75,,41,41,3,7,4,4,0.4,0.5
2025-08-08T1300,3377A,103.7444,25.5261,曲靖市,曲靖师范学院,,22,15,20,8,10,70,,35,35,6,12,6,8,0.4,0.4
2025-08-08T1300,1264A,118.8692,28.9398,衢州市,环保大楼,,24,18,28,9,14,75,,50,50,4,15,3,5,0.3,0.4
2025-08-08T1300,1265A,118.8709,28.9666,衢州市,实验学校,,24,16,27,8,13,74,,51,51,3,13,1,3,0.3,0.4
2025-08-08T1300,1266A,118.8621,28.9808,衢州市,衢州学院,,25,13,25,8,13,78,,54,54,2,15,3,4,0.2,0.4
2025-08-08T1300,1611A,118.5819,24.9117,泉州市,涂山街,臭氧1小时,74,65,47,30,23,179,,79,79,14,20,6,4,0.6,0.6
2025-08-08T1300,1612A,118.5972,24.8978,泉州市,津头埔,臭氧1小时,113,109,49,46,25,226,,90,90,16,17,7,4,0.6,0.5
2025-08-08T1300,1613A,118.6663,24.9424,泉州市,万安,臭氧1小时,104,110,47,68,25,208,,79,79,18,18,6,2,0.4,0.4
2025-08-08T1300,1614A,118.6117,24.9604,泉州市,清源山,,,,,,,,,,,,,,,,
2025-08-08T1300,3529A,118.6333,24.9264,泉州市,城华南路,臭氧1小时,100,77,40,43,22,200,,82,82,20,18,6,3,0.5,0.4
2025-08-08T1300,2626A,88.8876,29.2718,日喀则市,日喀则监测站,,27,6,9,3,3,84,,74,74,3,8,11,11,0.4,0.4
2025-08-08T1300,3726A,88.8781,29.2426,日喀则市,林业技术推广中心,,25,9,15,3,3,80,,67,67,3,4,5,5,0.4,0.4
2025-08-08T1300,1659A,119.471,35.4209,日照市,监测站,,36,7,13,3,13,114,,111,111,5,7,6,6,0.5,0.6
2025-08-08T1300,1660A,119.523,35.4216,日照市,市政府广场,,36,7,14,3,8,114,,112,107,3,3,5,5,0.6,0.7
2025-08-08T1300,1661A,119.5587,35.4044,日照市,港务局,,31,,16,10,18,98,,113,,8,5,12,11,0.8,0.8
2025-08-08T1300,3507A,119.5328,35.4625,日照市,职业技术学院,,35,7,14,3,11,111,,105,105,10,9,5,5,0.5,0.6
2025-08-08T1300,3604A,119.3266,35.1044,日照市,岚山环保分局,,36,22,18,8,9,113,,108,108,6,7,8,8,0.6,0.7
2025-08-08T1300,1835A,111.1922,34.7752,三门峡市,市政府,,39,39,26,24,20,103,,89,89,7,7,7,6,0.6,0.6
2025-08-08T1300,1836A,111.1587,34.7942,三门峡市,开发区,,40,36,29,28,20,106,,88,88,8,9,3,3,0.7,0.6
2025-08-08T1300,1838A,111.143,34.7955,三门峡市,风景区,,43,39,24,30,16,110,,90,90,7,6,4,3,0.7,0.6
2025-08-08T1300,3039A,111.1911,34.7829,三门峡市,三门峡市第一小学,,,,29,30,17,106,,88,88,7,6,6,5,0.7,0.6
2025-08-08T1300,3598A,111.1,34.7167,三门峡市,富达温泉假日酒店,,32,,21,14,18,102,,86,86,5,8,2,4,0.5,0.5
2025-08-08T1300,2324A,117.6211,26.2625,三明市,三钢,,27,13,26,12,25,85,,43,43,5,14,5,10,0.6,1.4
2025-08-08T1300,2325A,117.635,26.2714,三明市,三明二中,,26,15,24,13,16,82,,43,43,2,11,2,3,0.4,0.6
2025-08-08T1300,2326A,117.6028,26.2378,三明市,三元区政府,,29,20,24,12,16,91,,45,45,4,11,4,5,0.3,0.4
2025-08-08T1300,2327A,117.7275,26.3108,三明市,洋溪,,,,,,,,,,,,,,,,
2025-08-08T1300,1876A,109.5078,18.2489,三亚市,河东子站,,19,19,21,10,12,53,,47,47,2,3,2,3,0.5,0.4
2025-08-08T1300,1877A,109.4964,18.2681,三亚市,河西子站,,20,19,27,8,12,61,,45,45,4,8,2,2,0.4,0.4
2025-08-08T1300,3540A,109.7348,18.3443,三亚市,君悦子站,,,,77,8,9,60,,58,58,4,4,1,1,0.3,0.4
2025-08-08T1300,2624A,91.7608,29.2313,山南市,山南监测站,,28,8,8,3,3,88,,65,65,3,6,3,3,0.2,0.2
2025-08-08T1300,2625A,91.7706,29.2436,山南市,山南人民医院,,28,8,9,3,4,89,,62,62,2,5,4,4,0.3,0.3
2025-08-08T1300,1674A,116.6794,23.3667,汕头市,金平子站,,30,28,32,13,17,95,,56,56,8,14,2,3,0.6,0.7
2025-08-08T1300,1675A,116.7244,23.3633,汕头市,龙湖子站,,41,41,32,23,16,122,,67,67,8,13,7,8,0.7,0.7
2025-08-08T1300,1676A,116.7258,23.2775,汕头市,濠江子站,,37,37,35,24,27,85,,50,50,15,12,7,6,0.6,0.7
2025-08-08T1300,1677A,116.7519,23.4714,汕头市,澄海子站,颗粒物(PM10),59,68,44,24,21,163,,75,75,13,16,4,4,0.9,0.8
2025-08-08T1300,1678A,116.6092,23.2539,汕头市,潮阳子站,,31,28,33,18,15,98,,56,56,5,7,5,5,0.5,0.5
2025-08-08T1300,3444A,116.454,23.2684,汕头市,潮南峡山,,33,23,31,19,18,105,,63,63,6,8,6,6,0.6,0.6
2025-08-08T1300,3624A,116.4069,23.2533,汕头市,潮南子站,颗粒物(PM10),57,64,39,27,18,118,,56,56,7,8,5,5,0.6,0.6
2025-08-08T1300,1693A,115.3653,22.775,汕尾市,市环保局,,45,45,23,25,12,129,,61,61,11,7,3,3,0.7,0.6
2025-08-08T1300,1694A,115.3706,22.7898,汕尾市,市政府,,37,31,25,23,14,117,,58,58,11,10,4,3,0.6,0.6
2025-08-08T1300,1695A,115.3622,22.7925,汕尾市,新城中学,,44,44,25,25,12,129,,59,59,9,7,4,4,0.5,0.4
2025-08-08T1300,2645A,109.9154,33.8715,商洛市,监测站,,29,9,18,6,13,90,,81,81,6,8,4,6,0.7,0.7
2025-08-08T1300,3045A,109.9643,33.8471,商洛市,商州区中学,,26,15,22,7,12,83,,73,73,7,9,3,7,0.5,0.6
2025-08-08T1300,2408A,115.6702,34.4285,商丘市,环境监测站,,36,,29,16,19,113,,90,90,5,10,1,1,0.6,0.6
2025-08-08T1300,2409A,115.6458,34.4045,商丘市,粮食局,,34,28,32,20,15,106,,82,82,5,10,2,3,0.6,0.6
2025-08-08T1300,2410A,115.6293,34.3948,商丘市,睢阳区环保局,,40,40,31,17,17,100,,80,80,7,10,3,4,0.4,0.4
2025-08-08T1300,3171A,115.6071,34.4465,商丘市,梁园区档案局,,30,27,29,17,18,95,,76,76,4,11,2,2,0.6,0.6
2025-08-08T1300,1141A,121.4,31.238,上海市,普陀,,46,38,25,21,12,146,,82,82,10,22,6,6,0.4,0.4
2025-08-08T1300,1142A,121.478,31.2036,上海市,十五厂,,50,50,28,24,15,157,,77,77,10,19,8,8,0.8,0.8
2025-08-08T1300,1143A,121.467,31.3008,上海市,虹口,,41,32,23,21,15,130,,73,73,7,18,5,5,0.5,0.6
2025-08-08T1300,1147A,121.425,31.2261,上海市,静安监测站,,44,38,23,19,14,139,,80,80,10,19,4,4,0.7,0.4
2025-08-08T1300,1148A,121.703,31.1907,上海市,浦东川沙,臭氧1小时,62,37,36,32,21,169,,90,90,10,23,7,11,0.6,0.6
2025-08-08T1300,1149A,121.533,31.2284,上海市,浦东新区监测站,臭氧1小时,57,50,25,18,13,165,,87,87,10,17,8,8,0.4,0.8
2025-08-08T1300,1150A,121.577,31.2071,上海市,浦东张江,臭氧1小时,70,53,40,28,18,176,,87,87,12,27,7,6,0.7,0.7
2025-08-08T1300,3265A,121.4316,31.3322,上海市,宝山庙行,,41,40,29,16,15,131,,71,71,11,22,8,8,0.4,0.4
2025-08-08T1300,3266A,121.8791,31.4662,上海市,崇明上实东滩,臭氧1小时,94,32,28,28,17,195,,93,93,10,19,7,6,0.8,0.8
2025-08-08T1300,3268A,121.3162,31.2838,上海市,嘉定南翔,,47,39,27,26,16,150,,71,71,10,27,9,8,0.3,0.4
2025-08-08T1300,3269A,121.3359,30.7456,上海市,金山新城,,47,37,29,22,16,148,,91,91,10,16,6,5,0.6,0.6
2025-08-08T1300,3270A,121.4996,31.0739,上海市,闵行浦江,,50,47,33,35,19,140,,73,73,7,29,6,6,1.0,1
2025-08-08T1300,3271A,121.2886,31.1663,上海市,青浦徐泾,,47,46,24,22,15,150,,78,78,10,26,7,6,0.6,0.4
2025-08-08T1300,3272A,121.2186,31.0378,上海市,松江图书馆,,49,32,21,26,16,156,,81,81,10,25,8,8,0.6,0.6
2025-08-08T1300,3273A,121.3902,31.2059,上海市,长宁仙霞,,42,42,24,17,12,122,,70,70,13,21,8,7,0.5,0.5
2025-08-08T1300,3274A,121.7965,31.0507,上海市,浦东惠南,,36,,33,25,23,100,,92,92,6,25,10,10,0.5,0.5
2025-08-08T1300,3544A,121.4891,30.925,上海市,奉贤南桥新城,,46,31,27,22,20,147,,105,105,5,16,11,7,0.7,0.7
2025-08-08T1300,4183A,121.4174,31.16637,上海市,冠生园路458号,,43,36,23,25,17,135,,69,69,11,23,3,3,0.6,0.6
2025-08-08T1300,4205A,121.5419,31.2683,上海市,宁武路151号,颗粒物(PM10),56,62,29,19,13,148,,78,78,18,25,3,3,0.6,0.6
2025-08-08T1300,2381A,118.005,28.4572,上饶市,百草园,,,,,,,,,,,,,,,,
2025-08-08T1300,2382A,117.9756,28.4436,上饶市,市监测站,,26,19,22,9,10,82,,49,49,2,9,5,7,0.3,0.6
2025-08-08T1300,2383A,117.9519,28.4628,上饶市,凤凰光学,,22,21,28,7,15,69,,44,44,4,12,4,8,0.8,1
2025-08-08T1300,3685A,117.897,28.4315,上饶市,双创科技城,,23,21,26,10,13,72,,47,47,3,14,5,9,0.4,0.5
2025-08-08T1300,4211A,118.1904,28.4448,上饶市,裕丰大道,,23,,10,14,8,73,,52,52,1,6,10,8,0.6,0.6
2025-08-08T1300,1669A,113.5824,24.7733,韶关市,市八中,,47,47,34,23,16,95,,29,29,9,18,16,15,0.7,0.7
2025-08-08T1300,1671A,113.5917,24.7972,韶关市,园林处,,29,26,25,16,16,90,,27,27,10,16,15,12,0.6,0.6
2025-08-08T1300,1673A,113.5971,24.6863,韶关市,曲江监测站,,37,37,28,18,11,89,,30,30,12,18,6,6,0.5,0.6
2025-08-08T1300,2809A,113.6668,24.7756,韶关市,大学路288号,,33,33,29,15,14,91,,33,33,13,11,20,13,1.0,0.6
2025-08-08T1300,3622A,113.5556,24.8082,韶关市,碧湖山庄,,27,27,27,12,12,84,,28,28,10,16,8,10,0.6,0.6
2025-08-08T1300,2462A,111.5239,27.3033,邵阳市,市水土所,,,,,,,,,,,,,,,,
2025-08-08T1300,2464A,111.5283,27.2442,邵阳市,市化工厂,,19,19,22,11,9,57,,35,35,7,11,8,8,0.6,0.6
2025-08-08T1300,2466A,111.4328,27.2272,邵阳市,市环保局,,47,47,20,9,11,58,,38,38,5,9,4,4,0.7,0.8
2025-08-08T1300,4218A,111.4460,27.2472,邵阳市,北塔二期4-26地块,,19,19,21,7,9,50,,28,28,7,9,5,5,0.3,0.3
2025-08-08T1300,4219A,111.4739,27.2282,邵阳市,邵水西路287号,,22,19,18,8,10,69,,47,47,7,10,7,7,0.4,0.4
2025-08-08T1300,1247A,120.6053,29.9928,绍兴市,城东开发委,,32,19,21,13,10,102,,66,66,8,17,5,5,0.3,0.3
2025-08-08T1300,2921A,120.5483,30.0003,绍兴市,树下王站,,37,20,23,15,13,116,,77,77,5,15,5,5,0.4,0.4
