timepoint,stationcode,longitude,latitude,area,positionname,primarypollutant,aqi,pm10,pm10_24h,pm2_5,pm2_5_24h,o3,o3_24h,o3_8h,o3_8h_24h,no2,no2_24h,so2,so2_24h,co,co_24h
2025-08-08T0000,2566A,102.1879,31.914,阿坝藏族羌族自治州,州农科所,,,,36,18,14,39,,69,57,7,8,15,15,0.0,0.2
2025-08-08T0000,2568A,102.2502,31.8896,阿坝藏族羌族自治州,马师校,,30,30,17,20,18,18,,74,55,26,9,7,7,0.7,0.6
2025-08-08T0000,3994A,102.2165,31.9024,阿坝藏族羌族自治州,马尔康中学西区,,30,,13,21,13,44,,86,67,6,5,8,8,0.7,0.7
2025-08-08T0000,2695A,80.292,41.1694,阿克苏地区,电视台,颗粒物(PM10),80,109,66,30,25,98,,137,120,10,14,3,3,0.6,1
2025-08-08T0000,2696A,80.2613,41.1551,阿克苏地区,艺术中心,颗粒物(PM10),84,118,68,35,27,103,,135,121,12,20,5,4,0.5,0.7
2025-08-08T0000,2204A,105.6467,38.8363,阿拉善盟,西城区西花园,,37,20,40,16,15,118,,126,124,7,10,8,9,0.7,0.7
2025-08-08T0000,2205A,105.6985,38.8411,阿拉善盟,蒙二幼,,31,9,31,3,13,99,,107,105,1,3,9,10,0.5,0.6
2025-08-08T0000,2206A,105.724,38.8516,阿拉善盟,环保局新楼,,33,6,29,3,12,103,,114,112,6,6,9,10,0.5,0.5
2025-08-08T0000,2708A,88.1264,47.8517,阿勒泰地区,市站,,50,50,22,14,4,40,,100,74,22,13,3,3,0.4,0.3
2025-08-08T0000,2630A,80.1161,32.5,阿里地区,阿里监测站,,28,7,5,3,2,88,,99,98,8,9,5,6,0.1,0.1
2025-08-08T0000,3192A,80.0903,32.5028,阿里地区,阿里藏医院,,30,8,6,3,2,96,,106,106,2,4,4,4,0.2,0.1
2025-08-08T0000,2642A,109.0318,32.6537,安康市,香溪洞,,20,14,22,9,12,64,,84,71,4,6,6,6,0.5,0.5
2025-08-08T0000,2644A,109.0072,32.6975,安康市,汉滨区检察院,,11,9,22,7,11,33,,83,58,10,9,4,4,0.4,0.5
2025-08-08T0000,4054A,109.0325,32.6913,安康市,市邮政管理局,,15,12,22,10,14,45,,79,62,7,7,3,6,0.6,0.6
2025-08-08T0000,2291A,117.0809,30.5177,安庆市,环科院,,16,12,13,8,6,50,,72,54,9,7,4,4,0.5,0.5
2025-08-08T0000,2292A,117.0331,30.5119,安庆市,马山宾馆,,16,14,13,11,7,33,,64,45,19,11,4,5,0.8,0.7
2025-08-08T0000,2294A,116.9896,30.6145,安庆市,安庆大学,,23,18,14,16,9,34,,80,55,25,13,4,4,0.4,0.4
2025-08-08T0000,3173A,117.0598,30.5351,安庆市,市人大,,16,16,13,9,7,50,,75,62,11,8,3,3,0.5,0.4
2025-08-08T0000,3122A,105.9606,26.2611,安顺市,伍家关,,,,8,7,8,57,,90,71,4,4,3,3,0.5,0.5
2025-08-08T0000,3123A,105.9408,26.2431,安顺市,凤凰山,,18,11,12,7,6,57,,88,72,5,4,1,2,0.4,0.4
2025-08-08T0000,3124A,105.9439,26.2564,安顺市,金钟山,,18,10,12,7,8,56,,88,71,3,3,5,5,0.5,0.4
2025-08-08T0000,3125A,105.8983,26.2481,安顺市,娄家坡,,18,8,11,6,7,55,,76,,1,2,6,6,0.5,0.5
2025-08-08T0000,1818A,114.4839,36.0621,安阳市,棉研所,,,,,,,,,,,,,,,,
2025-08-08T0000,1819A,114.3551,36.1017,安阳市,红庙街,颗粒物(PM10),54,58,48,31,31,117,,161,152,18,13,3,4,0.7,0.7
2025-08-08T0000,1820A,114.361,36.0681,安阳市,银杏小区,,43,43,53,29,34,119,,156,149,10,11,3,3,0.7,0.8
2025-08-08T0000,3141A,114.3922,36.0878,安阳市,信访局,,50,50,48,26,29,127,,171,160,9,11,4,4,0.8,0.8
2025-08-08T0000,3669A,114.4705,36.0637,安阳市,左辅环卫站,,,,,,,,,,,,,,,,
2025-08-08T0000,3703A,114.2917,36.0949,安阳市,安钢职工学校,颗粒物(PM10),60,70,74,41,35,104,,156,146,13,14,4,3,0.7,1
2025-08-08T0000,1748A,123.044,41.1196,鞍山市,深沟寺,,27,27,27,12,13,17,,94,43,13,15,6,8,0.8,1.1
2025-08-08T0000,1749A,123.011,41.0931,鞍山市,太阳城,,29,29,27,19,17,37,,91,65,17,16,6,8,0.7,1
2025-08-08T0000,1750A,123.0485,41.1442,鞍山市,太平,,43,43,38,17,17,23,,109,59,26,21,7,10,0.9,1.1
2025-08-08T0000,1751A,122.9642,41.0971,鞍山市,铁西三道街,,37,37,35,22,21,27,,105,63,39,24,9,11,0.9,1.3
2025-08-08T0000,1753A,123.022,41.0821,鞍山市,明达新区,,26,26,26,12,13,30,,103,56,20,19,8,10,0.7,1
2025-08-08T0000,1754A,123.1289,41.0228,鞍山市,千山,,,,,,,,,,,,,,,,
2025-08-08T0000,4201A,122.9446,41.0826,鞍山市,兴盛南路290号,,50,50,36,19,16,20,,106,58,42,29,8,11,0.9,1.2
2025-08-08T0000,2195A,107.4212,40.761,巴彦淖尔市,附二中,,36,15,41,11,17,113,,126,114,5,12,6,8,0.5,0.6
2025-08-08T0000,2196A,107.37,40.7372,巴彦淖尔市,市环保大楼,,30,28,50,15,16,96,,107,103,4,12,6,7,0.4,0.5
2025-08-08T0000,1956A,86.1472,41.7538,巴音郭楞蒙古自治州,孔雀公园,颗粒物(PM10),99,147,55,29,19,11,,119,97,81,24,3,3,0.9,0.4
2025-08-08T0000,1957A,86.1972,41.7166,巴音郭楞蒙古自治州,棉纺厂,,,,53,,8,71,,127,117,21,16,,4,,0.3
2025-08-08T0000,1958A,86.2357,41.7173,巴音郭楞蒙古自治州,经济开发区,颗粒物(PM10),55,60,42,3,6,78,,122,110,15,10,4,3,0.2,0.2
2025-08-08T0000,2914A,106.7677,31.8794,巴中市,苏山坪,,22,19,21,15,16,48,,76,61,6,6,2,3,0.4,0.5
2025-08-08T0000,3181A,106.7768,31.8526,巴中市,市五中,,21,21,19,14,17,14,,67,43,16,8,9,9,0.5,0.5
2025-08-08T0000,3183A,106.7418,31.8654,巴中市,圣泉水务公司,,19,16,20,13,16,32,,92,64,7,4,8,7,0.6,0.6
2025-08-08T0000,3616A,106.7616,31.8344,巴中市,市中心医院,,22,22,22,14,15,26,,83,61,22,9,9,9,0.5,0.4
2025-08-08T0000,2235A,122.7911,45.6077,白城市,洮北区环保局,,19,,11,13,6,24,,55,40,10,4,6,5,0.3,0.3
2025-08-08T0000,2236A,122.8738,45.5725,白城市,市环保局,,12,,7,8,8,18,,56,37,24,7,3,3,0.5,0.4
2025-08-08T0000,2231A,126.4219,41.9171,白山市,喜丰,,19,19,21,3,8,10,,66,32,12,10,5,5,0.4,0.5
2025-08-08T0000,2232A,126.4077,41.9419,白山市,环保局,,22,22,21,8,7,14,,70,34,11,9,7,6,0.6,0.6
2025-08-08T0000,2647A,104.1724,36.5446,白银市,第三小学,,33,12,37,3,16,105,,93,93,4,12,5,15,0.5,0.8
2025-08-08T0000,2648A,104.1465,36.5482,白银市,动力公司,,31,9,29,3,13,99,,86,86,5,11,5,8,0.4,0.5
2025-08-08T0000,2512A,106.6103,23.9011,百色市,市监测站,,23,23,27,11,13,24,,59,41,12,11,6,8,0.4,0.5
2025-08-08T0000,2513A,106.6538,23.8859,百色市,市中心血站,,26,26,28,12,14,23,,62,44,22,16,9,7,0.7,0.7
2025-08-08T0000,3406A,106.6085,23.8798,百色市,祈福高中,,29,29,35,19,30,24,,59,44,18,16,10,8,0.6,0.7
2025-08-08T0000,2270A,117.396,32.939,蚌埠市,工人疗养院,,26,26,31,13,8,61,,106,81,12,10,3,4,0.4,0.4
2025-08-08T0000,2271A,117.3605,32.9427,蚌埠市,百货大楼,,22,22,22,13,11,47,,98,77,14,8,6,6,0.5,0.5
2025-08-08T0000,2273A,117.4185,32.8911,蚌埠市,蚌埠学院,,25,24,21,17,11,36,,102,74,30,10,6,6,0.5,0.5
2025-08-08T0000,2274A,117.3533,32.9673,蚌埠市,淮上区政府,,,17,25,13,12,73,,118,91,11,13,,6,0.5,0.5
2025-08-08T0000,2275A,117.3145,32.8977,蚌埠市,高新区,,15,14,27,3,10,46,,93,70,10,13,5,7,0.6,0.6
2025-08-08T0000,3715A,117.3092,32.9314,蚌埠市,蚌埠田家炳中学,,32,32,34,14,13,34,,105,73,22,15,6,9,0.4,0.4
2025-08-08T0000,1585A,109.8756,40.6532,包头市,市环境监测站,,31,12,32,12,14,99,,125,108,11,28,3,9,0.7,0.9
2025-08-08T0000,1587A,109.9991,40.5842,包头市,包头八中,,28,20,41,19,20,89,,119,101,11,24,1,10,0.5,0.7
2025-08-08T0000,1588A,109.8538,40.6821,包头市,青山宾馆,,30,17,28,10,12,95,,127,107,12,26,2,7,0.5,0.6
2025-08-08T0000,1589A,109.8642,40.6288,包头市,惠龙物流,,32,17,32,13,13,100,,126,108,6,23,4,11,0.4,0.6
2025-08-08T0000,1590A,110.0377,40.5546,包头市,东河鸿龙湾,,32,28,33,11,14,100,,131,109,12,19,2,6,0.5,0.7
2025-08-08T0000,3283A,109.9154,40.5685,包头市,滨河大厦,,30,16,28,6,13,93,,125,105,9,20,2,7,0.5,0.6
2025-08-08T0000,3419A,109.9447,40.6261,包头市,包头市委党校,,32,,23,10,11,101,,131,114,10,23,3,10,0.3,0.4
2025-08-08T0000,3683A,109.8331,40.6576,包头市,昆区政府,,32,13,32,11,14,102,,134,111,9,22,3,10,0.7,0.9
2025-08-08T0000,1930A,107.185,34.3063,宝鸡市,庙沟村,,38,28,31,26,14,82,,141,109,12,13,4,4,0.5,0.5
2025-08-08T0000,1931A,107.0708,34.3017,宝鸡市,竹园沟,,35,25,30,24,20,53,,142,110,17,12,8,9,0.4,0.4
2025-08-08T0000,1932A,107.1906,34.3672,宝鸡市,三陆医院,,48,36,35,33,28,94,,150,128,20,15,7,9,0.8,0.7
2025-08-08T0000,1933A,107.1431,34.3547,宝鸡市,监测站,,36,29,37,25,24,62,,149,122,17,13,8,9,0.5,0.5
2025-08-08T0000,1934A,107.1186,34.3739,宝鸡市,技工学校,,43,40,35,30,24,83,,151,127,16,13,6,7,0.7,0.7
2025-08-08T0000,1936A,107.2058,34.3497,宝鸡市,文理学院,,45,45,36,26,23,62,,136,125,24,14,7,9,0.7,0.6
2025-08-08T0000,1937A,107.2386,34.3622,宝鸡市,三迪小学,细颗粒物(PM2.5),57,49,39,40,27,102,,155,134,21,15,5,7,0.6,0.5
2025-08-08T0000,4308A,107.3898,34.3601,宝鸡市,陈仓区北开路21号,,38,29,25,26,22,93,,158,132,21,12,5,6,0.6,0.6
2025-08-08T0000,1051A,115.493,38.8632,保定市,游泳馆,,42,42,33,26,17,108,,154,143,15,7,3,3,0.4,0.3
2025-08-08T0000,1052A,115.5213,38.8959,保定市,华电二区,颗粒物(PM10),91,131,36,38,15,123,,164,151,15,9,7,3,0.6,0.5
2025-08-08T0000,1053A,115.4713,38.9108,保定市,接待中心,,43,39,32,20,14,136,,158,148,13,9,3,3,0.7,0.5
2025-08-08T0000,1054A,115.4612,38.8416,保定市,地表水厂,颗粒物(PM10),55,59,42,21,14,113,,131,131,15,7,2,2,0.8,0.6
2025-08-08T0000,3581A,115.31981,38.95208,保定市,满城区生态环境分局,,48,48,38,19,15,82,,154,119,18,12,1,2,0.3,0.2
2025-08-08T0000,3582A,115.47694,38.76408,保定市,清苑区第二中学,颗粒物(PM10),55,60,41,29,19,105,,166,148,12,7,5,5,0.8,0.6
2025-08-08T0000,3583A,115.62909,39.02311,保定市,徐水物探局,,41,41,35,12,5,130,,160,147,7,8,1,2,0.7,0.5
2025-08-08T0000,4004A,115.4202,38.8656,保定市,双鹰农机,颗粒物(PM10),51,51,35,23,17,122,,166,159,15,7,3,3,0.5,0.3
2025-08-08T0000,4034A,115.5150,38.8590,保定市,植保所站,细颗粒物(PM2.5),57,53,32,40,18,125,,166,156,13,8,5,3,0.4,0.2
2025-08-08T0000,2594A,99.1678,25.1081,保山市,市环境监测站,,25,,16,17,17,29,,96,63,6,7,3,6,0.4,0.3
2025-08-08T0000,2595A,99.1711,25.1328,保山市,市环保局,,15,15,16,9,10,36,,98,66,3,4,4,4,0.4,0.5
2025-08-08T0000,1866A,109.2262,21.588,北海市,牛尾岭水库,,14,14,15,8,7,37,,61,51,5,4,3,4,0.5,0.4
2025-08-08T0000,1867A,109.1436,21.4086,北海市,海滩公园,,25,25,44,10,6,58,,67,67,5,6,3,2,0.6,0.7
2025-08-08T0000,1868A,109.0981,21.4661,北海市,新市环保局,,23,23,21,9,12,50,,60,59,11,10,2,2,0.3,0.3
2025-08-08T0000,1869A,109.1778,21.5233,北海市,北海工业园,,21,21,24,10,9,30,,59,50,17,11,3,4,0.6,0.6
2025-08-08T0000,3400A,109.1911,21.4415,北海市,龙潭自来水厂,,19,19,16,9,8,33,,64,57,5,4,8,6,0.6,0.5
2025-08-08T0000,1001A,116.3621,39.8784,北京市,万寿西宫,颗粒物(PM10),52,54,26,30,18,119,,155,151,13,15,4,3,0.8,0.5
2025-08-08T0000,1002A,116.2202,40.2915,北京市,定陵,,17,17,18,7,9,36,,112,60,1,2,3,2,0.3,0.3
2025-08-08T0000,1003A,116.4174,39.9289,北京市,东四,,44,44,24,29,14,119,,146,144,21,19,5,5,0.7,0.5
2025-08-08T0000,1004A,116.4072,39.8863,北京市,天坛,,40,40,22,27,14,96,,136,126,18,9,3,3,0.8,0.6
2025-08-08T0000,1005A,116.462,39.9365,北京市,农展馆,,44,44,22,29,13,101,,132,128,30,24,3,3,0.9,0.6
2025-08-08T0000,1006A,116.3392,39.9295,北京市,官园,,44,44,20,30,15,131,,155,148,15,18,5,4,0.8,0.5
2025-08-08T0000,1007A,116.2878,39.9611,北京市,海淀万柳,,42,42,22,25,12,112,,134,133,17,20,3,3,0.7,0.4
2025-08-08T0000,1008A,116.6636,40.135,北京市,顺义新城,,,,,,,,,,,,,,,,
2025-08-08T0000,1009A,116.6275,40.3275,北京市,怀柔镇,,18,15,13,9,7,56,,98,70,12,13,3,3,0.2,0.2
2025-08-08T0000,1010A,116.2296,40.217,北京市,昌平镇,,18,16,21,11,13,56,,115,74,8,11,3,3,0.4,0.4
2025-08-08T0000,1011A,116.3966,39.9821,北京市,奥体中心,,41,41,22,27,13,116,,120,120,12,15,4,4,0.7,0.4
2025-08-08T0000,3281A,115.9718,40.4529,北京市,延庆夏都,,25,25,18,11,9,50,,106,92,11,9,2,2,0.5,0.5
2025-08-08T0000,3418A,116.8336,40.4095,北京市,密云新城,,16,16,13,9,6,29,,67,33,6,6,1,1,0.3,0.3
2025-08-08T0000,3671A,116.088,39.9726,北京市,门头沟三家店,,30,30,23,17,13,63,,119,76,19,15,2,2,0.6,0.6
2025-08-08T0000,3672A,116.1541,39.8204,北京市,丰台云岗,颗粒物(PM10),64,77,31,26,15,39,,145,111,46,17,2,2,0.8,0.6
2025-08-08T0000,3673A,116.6804,39.9081,北京市,通州东关,,44,44,27,28,17,78,,146,124,33,15,5,5,0.9,0.7
2025-08-08T0000,3674A,115.9577,39.7603,北京市,房山燕山,,38,36,31,26,17,57,,146,122,16,10,3,3,0.6,0.5
2025-08-08T0000,3675A,116.4672,39.7733,北京市,大兴旧宫,,27,19,18,13,10,84,,151,118,23,10,2,2,0.4,0.3
2025-08-08T0000,3694A,115.986,40.4563,北京市,延庆石河营,,21,21,17,13,9,46,,100,85,10,9,3,3,0.3,0.3
2025-08-08T0000,3695A,116.6151,40.3053,北京市,怀柔新城,,17,17,13,10,7,46,,83,62,5,6,1,2,0.5,0.5
2025-08-08T0000,3696A,116.2545,39.8768,北京市,丰台小屯,,43,43,25,26,15,92,,136,128,21,15,2,2,0.8,0.6
2025-08-08T0000,3697A,116.84,40.3844,北京市,密云镇,,22,22,17,8,7,26,,76,48,14,14,3,3,0.5,0.4
2025-08-08T0000,4182A,116.1942,39.9158,北京市,八角北路9号,颗粒物(PM10),64,77,33,32,16,59,,135,124,32,17,3,2,1.0,0.4
2025-08-08T0000,4194A,117.0790,40.1518,北京市,洳河巡河路,,40,40,39,22,22,69,,126,98,8,7,2,3,0.7,0.8
2025-08-08T0000,1761A,123.8275,41.3064,本溪市,大峪,,35,35,24,12,11,11,,109,59,20,13,5,5,0.5,0.5
2025-08-08T0000,1762A,123.7567,41.3325,本溪市,溪湖,颗粒物(PM10),51,52,43,18,16,4,,103,50,31,17,5,6,0.8,1.2
2025-08-08T0000,1763A,123.7169,41.3094,本溪市,彩屯,,33,33,43,18,20,11,,96,46,22,20,8,9,0.8,1.2
2025-08-08T0000,1764A,123.7669,41.2864,本溪市,东明,,42,42,38,14,17,16,,111,67,30,19,4,4,1.0,0.8
2025-08-08T0000,1765A,123.7992,41.2664,本溪市,新立屯,,23,23,23,12,10,6,,104,48,32,15,4,4,0.9,0.8
2025-08-08T0000,1766A,123.8142,41.3472,本溪市,威宁,颗粒物(PM10),52,53,34,19,16,2,,96,43,19,14,8,9,0.6,0.8
2025-08-08T0000,2587A,105.2864,27.3125,毕节市,八中,,32,24,18,22,15,24,,92,63,15,8,4,5,0.6,0.5
2025-08-08T0000,2588A,105.31,27.2944,毕节市,师专,,25,22,18,17,13,28,,100,62,16,12,4,5,0.6,0.6
2025-08-08T0000,4263A,105.3688,27.3598,毕节市,工业大道,,33,33,20,22,13,19,,95,58,23,14,6,6,0.7,0.7
2025-08-08T0000,1629A,118.0018,37.3617,滨州市,第二水厂,,23,12,28,7,24,71,,153,99,15,8,7,2,0.3,0.6
2025-08-08T0000,1630A,117.9776,37.393,滨州市,北中新校,,22,19,31,12,20,68,,152,98,25,14,3,3,0.2,0.5
2025-08-08T0000,3514A,117.9378,37.3956,滨州市,中海酒店,,24,14,29,12,23,76,,157,107,13,5,9,9,0.3,0.6
2025-08-08T0000,3515A,117.9378,37.3553,滨州市,开发区一中,,23,12,31,7,21,73,,162,107,16,12,11,5,0.3,0.5
2025-08-08T0000,3516A,118.0917,37.694,滨州市,金海六路,,25,12,26,9,17,80,,144,93,10,8,9,10,0.2,0.4
2025-08-08T0000,4028A,117.9956,37.3753,滨州市,滨州市西街道办事处,,26,14,23,3,20,83,,167,110,10,7,2,2,0.1,0.4
2025-08-08T0000,2311A,115.8072,33.8399,亳州市,污水处理厂,,13,,10,9,14,40,,102,66,8,7,2,8,0.8,0.7
2025-08-08T0000,2312A,115.7789,33.8518,亳州市,三国揽胜宫,,18,17,21,6,12,57,,110,79,6,5,1,2,0.5,0.5
2025-08-08T0000,3332A,115.7633,33.8034,亳州市,亳州学院,,22,13,9,8,11,68,,102,81,9,9,2,4,0.5,0.6
2025-08-08T0000,2693A,82.0485,44.8556,博尔塔拉蒙古自治州,市党校,,36,36,26,9,14,92,,119,112,11,8,4,3,0.3,0.3
2025-08-08T0000,2694A,82.0806,44.8969,博尔塔拉蒙古自治州,市环保局,颗粒物(PM10),61,72,34,40,14,74,,118,108,14,7,3,2,0.5,0.5
2025-08-08T0000,1071A,116.8842,38.2991,沧州市,沧县城建局,,34,34,37,18,18,83,,173,129,19,14,4,4,0.3,0.4
2025-08-08T0000,1072A,116.8584,38.3254,沧州市,电视转播站,,40,40,39,9,19,72,,149,114,23,13,1,2,0.3,0.3
2025-08-08T0000,1073A,116.8709,38.3228,沧州市,市环保局,,46,46,45,21,21,72,,174,121,22,10,2,2,0.3,0.5
2025-08-08T0000,3324A,116.8136,38.3004,沧州市,河北水利电力学院,,35,,30,23,23,110,,187,152,11,8,2,2,0.3,0.5
2025-08-08T0000,2622A,97.1806,31.1273,昌都市,昌都监测站,,19,10,10,7,5,60,,87,77,5,4,4,4,0.3,0.3
2025-08-08T0000,3719A,97.1714,31.1406,昌都市,昌都会议中心,,21,12,17,7,11,66,,87,77,7,9,3,5,0.2,0.2
2025-08-08T0000,2690A,88.1236,43.8886,昌吉回族自治州,天山天池,,24,8,17,3,2,74,,126,107,6,7,3,4,0.5,0.5
2025-08-08T0000,2692A,87.2717,44.0297,昌吉回族自治州,新区政务中心,,31,29,23,3,8,27,,136,109,61,17,7,9,0.5,0.4
2025-08-08T0000,3613A,87.3095,44.0142,昌吉回族自治州,亚心广场,颗粒物(PM10),56,61,32,24,6,28,,134,102,73,21,8,8,0.7,0.4
2025-08-08T0000,1120A,125.2863,43.9027,长春市,客车厂,,48,48,18,21,10,2,,65,30,42,18,4,4,0.6,0.3
2025-08-08T0000,1121A,125.2841,43.8463,长春市,邮电学院,,35,35,15,6,7,2,,68,36,40,16,5,5,0.6,0.4
2025-08-08T0000,1122A,125.3716,43.8772,长春市,劳动公园,,42,42,24,18,7,3,,64,33,40,21,6,7,0.5,0.3
2025-08-08T0000,1123A,125.3297,43.8805,长春市,园林处,,,36,16,,6,4,,62,34,38,15,4,4,0.6,0.5
2025-08-08T0000,1124A,125.4605,43.79,长春市,净月潭,,17,17,14,3,5,3,,66,33,6,10,4,4,0.2,0.2
2025-08-08T0000,1125A,125.7194,43.515,长春市,甩湾子,,18,18,12,11,6,8,,69,39,22,10,4,4,0.4,0.4
2025-08-08T0000,1126A,125.3863,43.8447,长春市,经开区环卫处,颗粒物(PM10),52,54,24,16,7,0,,64,32,40,17,4,3,0.7,0.4
2025-08-08T0000,1127A,125.245,43.7783,长春市,高新区管委会,,20,20,18,7,9,2,,66,36,35,16,4,4,0.4,0.4
2025-08-08T0000,1128A,125.1761,43.8325,长春市,岱山公园,,25,25,16,9,6,6,,66,29,40,18,6,3,0.4,0.3
2025-08-08T0000,4281A,125.3346,43.9164,长春市,北亚泰大街1068号,,49,49,23,24,10,2,,62,,48,20,7,7,0.6,0.5
2025-08-08T0000,1335A,113.0833,28.2325,长沙市,经开区环保局,,12,9,17,3,7,37,,72,54,8,7,4,4,0.2,0.3
2025-08-08T0000,1336A,112.8872,28.2189,长沙市,高开区环保局,,15,12,17,3,7,46,,78,58,5,6,5,5,0.3,0.3
2025-08-08T0000,1337A,113.0792,28.2053,长沙市,马坡岭,,12,10,16,3,6,38,,77,58,8,5,4,4,0.3,0.3
2025-08-08T0000,1338A,112.9394,28.19,长沙市,湖南师范大学,,12,,17,7,8,36,,76,56,15,6,4,4,0.7,0.6
2025-08-08T0000,1339A,113.0178,28.1322,长沙市,雨花区环保局,,13,13,13,3,5,39,,48,,7,5,6,6,0.5,0.5
2025-08-08T0000,1340A,112.9792,28.2597,长沙市,伍家岭,,12,11,18,3,4,38,,78,56,8,5,3,2,0.4,0.4
2025-08-08T0000,1341A,113.0014,28.1944,长沙市,火车新站,,13,13,18,3,4,37,,74,54,10,6,6,6,0.6,0.5
2025-08-08T0000,1342A,112.9844,28.1178,长沙市,天心区环保局,,13,11,15,3,6,41,,79,57,11,8,3,4,0.2,0.3
2025-08-08T0000,1343A,112.8908,28.1308,长沙市,湖南中医药大学,,12,10,17,8,9,33,,72,49,10,6,4,5,0.7,0.5
2025-08-08T0000,1344A,112.9581,28.3611,长沙市,沙坪,,14,14,15,3,7,40,,84,60,13,12,4,3,0.7,0.6
2025-08-08T0000,1727A,113.1147,36.1547,长治市,清华站,,40,38,34,27,13,127,,145,141,9,16,6,8,0.8,0.8
2025-08-08T0000,1730A,113.0886,36.2125,长治市,审计局,,42,35,31,29,17,132,,149,147,11,21,5,6,1.0,0.8
2025-08-08T0000,1731A,113.0844,36.1856,长治市,长治八中,,49,39,41,34,25,136,,149,147,4,18,7,9,0.8,0.7
2025-08-08T0000,2845A,113.1569,36.1911,长治市,德盛苑,,35,33,26,24,13,111,,141,137,9,11,6,8,0.9,1
2025-08-08T0000,3568A,113.06,36.0464,长治市,向阳小学,颗粒物(PM10),62,74,58,31,23,108,,152,134,7,12,6,9,0.7,0.8
2025-08-08T0000,3569A,112.8792,36.3144,长治市,屯留一中,颗粒物(PM10),60,69,44,41,23,120,,148,138,17,29,8,13,0.4,0.5
2025-08-08T0000,4189A,113.1131,36.19948,长治市,英华南巷50号,,39,38,34,27,18,121,,139,137,8,12,6,9,0.9,1
2025-08-08T0000,4190A,113.2367,36.3344,长治市,学府街1号,细颗粒物(PM2.5),59,42,33,42,22,119,,143,139,22,24,4,4,1.0,0.6
2025-08-08T0000,1854A,111.6975,28.9703,常德市,市二中,,20,20,15,6,11,52,,75,64,6,5,4,3,0.2,0.3
2025-08-08T0000,1857A,111.7158,29.1456,常德市,白鹤山,,,,,,,,,,,,,,,,
2025-08-08T0000,3138A,111.7153,29.0289,常德市,武陵区永安,,23,23,20,11,11,52,,78,64,4,4,3,2,0.6,0.6
2025-08-08T0000,3139A,111.6892,28.9881,常德市,鼎城区玉霞,,19,19,17,8,10,51,,77,62,6,6,2,2,0.3,0.4
2025-08-08T0000,3140A,111.6625,29.0531,常德市,武陵区长庚,,22,22,16,11,10,50,,72,61,6,6,5,4,0.4,0.4
2025-08-08T0000,1196A,119.9633,31.762,常州市,市监测站,,16,13,9,10,10,49,,110,83,12,10,15,13,0.6,0.4
2025-08-08T0000,1200A,119.9468,31.7069,常州市,武进监测站,,18,16,17,6,6,56,,118,87,6,6,17,15,0.9,0.9
2025-08-08T0000,1201A,119.9255,31.9087,常州市,安家,,22,22,19,3,9,39,,91,55,15,19,8,9,0.7,0.8
2025-08-08T0000,3002A,119.9805,31.8174,常州市,行政中心,,17,17,18,6,6,43,,92,75,11,10,7,9,0.4,0.4
2025-08-08T0000,3003A,120.0522,31.7748,常州市,经开区,,21,21,21,3,5,50,,108,90,10,8,5,5,0.3,0.3
2025-08-08T0000,3010A,119.9025,31.7964,常州市,钟楼,,21,21,17,3,6,43,,94,71,16,12,6,6,0.4,0.4
2025-08-08T0000,3429A,119.8598,31.7066,常州市,武进经发区,,21,21,20,10,9,40,,100,69,10,7,11,10,0.9,0.8
2025-08-08T0000,3430A,119.5826,31.7245,常州市,金坛城区,,15,15,15,7,9,42,,89,66,10,10,8,9,0.3,0.4
2025-08-08T0000,2220A,120.4318,41.5881,朝阳市,西梁,,29,29,23,16,10,11,,67,40,33,18,8,5,0.5,0.6
2025-08-08T0000,2221A,120.4521,41.5646,朝阳市,河畔小区,,18,18,20,3,4,15,,68,50,24,12,6,8,0.4,0.4
2025-08-08T0000,2222A,120.4176,41.5648,朝阳市,八里堡,,37,37,33,9,10,5,,71,44,35,16,6,6,0.5,0.5
2025-08-08T0000,2223A,120.3806,41.5969,朝阳市,农业园区,,25,25,17,3,5,8,,66,39,26,11,6,6,0.4,0.4
2025-08-08T0000,1705A,116.6367,23.6719,潮州市,西园路,颗粒物(PM10),54,57,37,25,16,17,,93,50,19,10,5,3,0.4,0.2
2025-08-08T0000,3026A,116.6183,23.6608,潮州市,市政府,,40,40,37,20,13,19,,87,47,20,15,10,8,0.5,0.4
2025-08-08T0000,4036A,116.6461,23.6761,潮州市,金山,,40,39,33,28,14,13,,100,49,16,9,4,5,0.9,0.6
2025-08-08T0000,2472A,113.0073,25.9061,郴州市,马头岭,,11,11,12,3,6,23,,50,44,18,6,8,6,0.5,0.5
2025-08-08T0000,2473A,113.0116,25.8226,郴州市,市职中,,13,7,9,3,6,40,,51,47,7,5,11,7,0.2,0.3
2025-08-08T0000,2475A,113.0383,25.8071,郴州市,市审计局,,15,6,9,3,6,46,,52,49,4,5,11,8,0.3,0.2
2025-08-08T0000,2476A,113.0348,25.7759,郴州市,市环保局,,16,6,10,3,6,49,,51,49,8,7,6,6,0.3,0.3
2025-08-08T0000,4252A,113.0138,25.8011,郴州市,好美居路49号,,14,6,10,3,5,43,,50,47,5,5,20,9,0.2,0.2
2025-08-08T0000,1431A,103.9728,30.7236,成都市,金泉两河,,33,33,26,22,13,45,,137,106,21,12,2,2,0.7,0.7
2025-08-08T0000,1432A,104.176,30.6872,成都市,十里店,,30,23,23,3,10,96,,191,178,19,10,4,4,0.5,0.5
2025-08-08T0000,1433A,104.079,30.5706,成都市,三瓦窑,,21,20,23,12,16,66,,196,158,31,17,3,3,0.3,0.4
2025-08-08T0000,1434A,104.1114,30.63,成都市,沙河铺,,27,27,27,8,15,55,,160,138,15,11,6,6,0.6,0.6
2025-08-08T0000,1437A,104.0786,30.6531,成都市,君平街,,38,32,28,26,17,88,,154,145,18,14,6,6,0.7,0.7
2025-08-08T0000,1438A,103.613,31.0283,成都市,灵岩寺,,,,,,,,,,,,,,,,
2025-08-08T0000,2880A,104.0239,30.65639,成都市,大石西路,,19,15,25,12,18,58,,156,126,16,12,3,3,0.7,0.7
2025-08-08T0000,3136A,104.2725,30.5589,成都市,龙泉驿区区政府,,26,22,12,12,7,83,,154,140,17,12,4,4,0.5,0.7
2025-08-08T0000,3357A,104.0106,30.6931,成都市,金博路,,26,25,16,18,10,45,,144,114,27,13,4,4,0.9,0.8
2025-08-08T0000,3359A,104.0578,30.5225,成都市,华阳,,37,19,19,19,16,116,,178,163,14,12,2,3,0.7,0.6
2025-08-08T0000,3488A,104.3853,30.7453,成都市,青白江技师分院,,33,29,19,13,14,16,,154,102,65,21,6,6,0.7,0.6
2025-08-08T0000,3489A,104.0789,30.4072,成都市,科学城,,29,28,23,20,17,84,,142,130,16,7,2,3,0.6,0.6
2025-08-08T0000,4011A,103.8506,30.6947,成都市,光华大道三段,,25,25,26,10,16,64,,130,110,12,12,4,5,0.4,0.4
2025-08-08T0000,4224A,104.2433,30.5353,成都市,鲸龙路1057号,细颗粒物(PM2.5),58,52,22,41,17,96,,166,150,14,12,3,3,0.8,0.8
2025-08-08T0000,1062A,117.9531,40.9081,承德市,铁路,,25,25,25,15,8,23,,92,51,14,15,2,3,0.3,0.3
2025-08-08T0000,1063A,117.9392,40.9763,承德市,中国银行,,25,25,23,12,10,17,,94,41,11,10,3,3,0.3,0.2
2025-08-08T0000,1064A,117.9503,40.928,承德市,开发区,,25,25,31,6,10,30,,100,57,14,11,4,5,0.4,0.3
2025-08-08T0000,1066A,117.9268,41.0026,承德市,离宫,,30,30,24,12,11,23,,77,27,6,7,3,3,0.2,0.2
2025-08-08T0000,4274A,117.7994,40.9605,承德市,滨河大街98号,,49,49,25,3,8,6,,76,29,31,13,2,2,0.3,0.3
2025-08-08T0000,2314A,117.47,30.6618,池州市,池州学院,,15,11,10,7,6,47,,,,9,9,4,4,0.4,0.4
2025-08-08T0000,3237A,117.4918,30.6617,池州市,展览馆,,16,16,15,6,6,42,,71,54,10,6,5,5,0.6,0.5
2025-08-08T0000,3333A,117.5627,30.695,池州市,第八中学,,15,15,14,8,6,46,,74,54,8,5,5,5,0.5,0.5
2025-08-08T0000,3334A,117.5038,30.6243,池州市,第十二中学,,15,15,18,6,6,31,,70,43,18,13,3,4,0.9,0.7
2025-08-08T0000,1744A,118.9233,42.2816,赤峰市,松山一中,,34,34,16,12,5,23,,73,32,26,21,8,17,0.5,0.5
2025-08-08T0000,1745A,118.9576,42.2728,赤峰市,哈达街,,22,22,16,3,4,17,,68,43,32,19,10,13,0.4,0.5
2025-08-08T0000,1746A,118.8788,42.2554,赤峰市,天义路,,15,15,9,10,8,30,,70,53,16,12,14,11,0.3,0.3
2025-08-08T0000,3058A,119.2658,42.0353,赤峰市,银河街,,36,36,19,11,8,5,,69,40,28,14,17,8,0.6,0.4
2025-08-08T0000,3286A,118.9359,42.3147,赤峰市,桥北物流园区,,,44,18,3,7,10,,64,41,39,10,10,9,,0.5
2025-08-08T0000,2521A,107.3476,22.4136,崇左市,市环保局江州分局,,37,37,20,10,7,6,,53,34,14,8,6,6,0.5,0.4
2025-08-08T0000,4256A,107.3750,22.3736,崇左市,石景林东路7号,,20,20,15,10,7,18,,60,42,14,9,4,3,0.4,0.5
2025-08-08T0000,2298A,118.3093,32.3153,滁州市,老年大学,,24,24,21,16,11,63,,91,82,9,4,5,8,0.3,0.3
2025-08-08T0000,2299A,118.3244,32.2786,滁州市,人大宾馆,,20,17,11,13,13,64,,96,79,7,8,5,5,0.3,0.3
2025-08-08T0000,3207A,118.3118,32.3038,滁州市,市政府原办公楼,,23,16,16,16,16,59,,91,78,8,4,7,6,0.3,0.3
2025-08-08T0000,3331A,118.3267,32.2634,滁州市,图书馆,,25,,14,17,13,70,,101,85,8,7,10,11,0.2,0.2
2025-08-08T0000,2605A,101.5482,25.0441,楚雄彝族自治州,州环境监测站,,11,6,9,3,6,34,,65,43,4,10,3,3,0.5,0.5
2025-08-08T0000,2606A,101.538,25.0492,楚雄彝族自治州,市经济开发区,,14,14,16,7,8,34,,72,44,6,8,6,6,0.5,0.6
2025-08-08T0000,2548A,107.5277,31.2827,达州市,达州职业技术学院,,32,32,29,13,5,21,,109,70,30,11,7,9,0.4,0.4
2025-08-08T0000,2549A,107.5086,31.2186,达州市,市环境监测站,,30,30,31,17,9,33,,116,,27,21,6,7,0.5,0.4
2025-08-08T0000,2550A,107.4988,31.2132,达州市,凤凰小区,,36,36,27,22,12,35,,118,87,29,15,2,4,0.5,0.4
2025-08-08T0000,2551A,107.5082,31.1986,达州市,达县机关宾馆,,36,36,25,11,7,19,,120,74,49,23,4,6,0.4,0.4
2025-08-08T0000,2552A,107.4644,31.2124,达州市,市政中心,,42,42,30,19,10,33,,110,75,22,12,3,5,0.4,0.3
2025-08-08T0000,2614A,100.1542,25.7054,大理白族自治州,大理市环境监测站,,20,,17,14,15,62,,105,78,9,15,4,5,0.5,0.6
2025-08-08T0000,2615A,100.2171,25.5811,大理白族自治州,大理古城,,22,20,20,15,10,52,,106,78,12,11,5,5,0.8,0.8
2025-08-08T0000,1109A,121.612,38.9741,大连市,甘井子,,33,18,19,10,13,104,,119,114,12,14,8,10,0.5,0.5
2025-08-08T0000,1110A,121.565,38.9511,大连市,周水子,,28,14,16,13,12,88,,115,104,25,15,7,7,0.4,0.4
2025-08-08T0000,1111A,121.5637,38.8845,大连市,星海三站,,33,20,19,11,11,104,,117,108,14,13,5,6,0.4,0.4
2025-08-08T0000,1112A,121.6302,38.9117,大连市,青泥洼桥,,36,36,25,17,14,107,,124,114,15,16,7,7,0.5,0.5
2025-08-08T0000,1113A,121.6251,38.8638,大连市,傅家庄,,33,17,16,14,11,104,,115,106,10,12,10,10,0.3,0.3
2025-08-08T0000,1114A,121.5213,38.8661,大连市,七贤岭,,39,20,18,10,11,123,,129,126,4,6,9,10,0.4,0.4
2025-08-08T0000,1115A,121.2529,38.8061,大连市,旅顺,,19,,17,13,13,59,,114,103,36,19,6,5,0.3,0.3
2025-08-08T0000,1116A,121.7485,39.1311,大连市,金州,,26,21,19,12,12,83,,124,101,12,10,6,6,0.3,0.3
2025-08-08T0000,1117A,121.7811,39.0496,大连市,开发区,,22,22,20,13,12,55,,91,68,14,12,4,4,0.4,0.5
2025-08-08T0000,1118A,121.9762,39.0631,大连市,双D港,,28,25,20,14,12,88,,128,95,10,7,12,11,0.4,0.4
2025-08-08T0000,1789A,124.81117,46.03138,大庆市,大同区,,29,29,10,10,8,13,,55,40,19,7,1,3,0.6,0.6
2025-08-08T0000,1790A,125.129,46.533,大庆市,龙凤区,,26,26,16,13,9,9,,56,40,38,13,7,7,0.7,0.5
2025-08-08T0000,1791A,124.902,46.408,大庆市,红岗区,,23,23,17,15,12,14,,57,36,17,10,6,7,0.6,0.5
2025-08-08T0000,1792A,125.153,46.586,大庆市,萨尔图区,,19,19,19,9,6,39,,52,46,11,9,7,6,0.6,0.6
2025-08-08T0000,1793A,124.9042,46.6215,大庆市,让胡路区,,27,27,21,17,12,12,,53,34,25,8,6,6,0.3,0.2
2025-08-08T0000,3481A,125.141,46.634,大庆市,萨区政府监测点,,19,19,19,3,3,46,,55,49,8,7,6,6,0.3,0.2
2025-08-08T0000,1721A,113.3819,40.1097,大同市,果树场,,15,15,18,3,9,44,,104,75,22,15,7,7,0.5,0.4
2025-08-08T0000,1723A,113.2994,40.0758,大同市,云冈宾馆,,29,29,26,15,10,70,,135,99,28,19,6,8,0.6,1
2025-08-08T0000,1724A,113.3444,40.0917,大同市,大同大学,,26,26,25,11,10,65,,132,101,33,18,5,8,0.5,0.5
2025-08-08T0000,1725A,113.2661,40.1269,大同市,安家小村,颗粒物(PM10),52,53,41,11,6,31,,114,78,43,24,7,8,0.4,0.8
2025-08-08T0000,1726A,113.2711,40.0844,大同市,教育学院,,33,33,31,10,10,66,,134,99,27,21,8,10,0.4,1
2025-08-08T0000,3282A,113.3397,40.0597,大同市,大同市卫生学校,,39,39,26,12,13,69,,123,84,32,28,6,8,0.5,0.6
2025-08-08T0000,3565A,113.1367,40.1122,大同市,云冈站,颗粒物(PM10),51,51,40,23,14,68,,136,89,10,12,4,6,0.6,0.8
2025-08-08T0000,3566A,113.1186,40.2556,大同市,图书馆,颗粒物(PM10),53,56,30,22,13,51,,133,92,18,13,6,12,0.9,1.1
2025-08-08T0000,3567A,113.5931,40.0461,大同市,区一中,,25,13,14,12,7,80,,118,102,7,8,8,8,0.5,0.4
2025-08-08T0000,4199A,113.2798,40.0997,大同市,魏都大道141号,,29,29,30,14,11,57,,131,92,28,20,5,7,0.6,1
2025-08-08T0000,2269A,124.1069,50.4097,大兴安岭地区,科技局,,33,33,24,14,10,3,,40,25,9,4,6,4,0.5,0.4
2025-08-08T0000,3663A,124.1164,50.4278,大兴安岭地区,红旗社区,,10,9,5,7,5,1,,43,23,8,4,4,4,0.3,0.3
2025-08-08T0000,1600A,124.3303,40.0625,丹东市,江湾东路,,18,18,13,7,8,56,,85,75,15,13,6,7,0.7,0.6
2025-08-08T0000,1601A,124.4256,40.1503,丹东市,临江后街,,15,15,12,10,7,43,,76,60,12,11,7,7,0.6,0.6
2025-08-08T0000,1602A,124.3933,40.1461,丹东市,元宝山,,17,12,10,8,6,54,,68,63,10,8,4,4,0.7,0.6
2025-08-08T0000,1603A,124.3633,40.1092,丹东市,民主桥,,20,15,13,8,5,61,,78,68,11,13,3,4,0.6,0.5
2025-08-08T0000,3541A,109.5726,19.5167,儋州市,第一中学子站,,16,16,20,9,12,20,,47,36,4,4,7,7,0.5,0.6
2025-08-08T0000,3542A,109.5567,19.5187,儋州市,东坡学校子站,,26,26,20,9,11,17,,51,37,4,3,7,7,0.6,0.6
2025-08-08T0000,2616A,98.5842,24.428,德宏傣族景颇族自治州,德宏州监测站,,17,17,16,8,10,26,,59,40,9,10,11,17,0.6,0.7
2025-08-08T0000,3677A,98.5881,24.4368,德宏傣族景颇族自治州,芒市人民政府综合楼,,26,26,27,8,6,23,,55,38,8,9,8,15,0.6,0.5
2025-08-08T0000,1901A,104.4239,31.1208,德阳市,东山公园,,28,14,14,14,12,87,,120,115,6,8,2,3,0.9,0.8
2025-08-08T0000,1902A,104.3826,31.1317,德阳市,西小区,,22,21,19,15,14,68,,128,107,28,12,3,3,1.0,0.9
2025-08-08T0000,1904A,104.3553,31.1091,德阳市,耐火材料厂,,30,25,20,21,15,71,,126,108,20,10,1,1,0.6,0.6
2025-08-08T0000,3639A,104.4019,31.1244,德阳市,市教育局,,,,17,18,14,67,,125,104,18,7,,3,0.8,0.8
2025-08-08T0000,1622A,116.3032,37.4674,德州市,儿童乐园,,40,29,43,27,30,127,,167,150,12,14,11,10,0.7,0.8
2025-08-08T0000,1624A,116.2991,37.4451,德州市,监理站,,38,29,41,19,27,120,,165,157,8,8,14,13,0.5,0.5
2025-08-08T0000,3066A,116.2721,37.4379,德州市,九衢泉纯净水厂,,37,29,45,19,35,117,,164,154,11,17,6,6,0.8,0.9
2025-08-08T0000,3371A,116.3728,37.4403,德州市,开发区人民医院,,32,27,41,19,30,102,,154,137,13,16,12,11,1.0,1
2025-08-08T0000,3511A,116.5652,37.3319,德州市,陵城艺术中心,,31,29,45,12,29,97,,139,123,12,12,7,5,0.6,0.6
2025-08-08T0000,4292A,116.3525,37.4209,德州市,新河东路,,42,31,46,29,35,107,,173,156,12,13,10,9,1.0,1.1
2025-08-08T0000,2621A,99.7056,27.8317,迪庆藏族自治州,迪庆州站,,26,,21,18,15,76,,98,86,8,8,6,6,0.5,0.5
2025-08-08T0000,3180A,99.7136,27.8094,迪庆藏族自治州,质量技术监督局,,25,17,18,6,9,78,,99,85,14,14,8,8,0.6,0.5
2025-08-08T0000,4257A,104.6092,35.5962,定西市,将台街,,38,35,30,26,16,84,,92,83,5,23,8,7,0.6,0.6
2025-08-08T0000,4309A,104.6159,35.5701,定西市,正龙路62号,,36,26,27,25,14,82,,90,85,4,8,4,4,0.5,0.4
2025-08-08T0000,1389A,113.7547,23.0494,东莞市,莞城梨川,,,,24,7,19,14,,62,30,26,23,,8,0.4,0.4
2025-08-08T0000,1390A,113.7944,23.0128,东莞市,东城石井,,13,13,27,3,13,8,,69,28,21,22,1,2,0.5,0.6
2025-08-08T0000,1391A,113.7383,22.9658,东莞市,南城西平,,17,17,25,3,12,10,,59,29,34,24,4,5,0.5,0.3
2025-08-08T0000,3319A,113.7338,23.0381,东莞市,万江金泰,,,16,26,9,16,,,64,,22,24,4,5,0.6,0.7
2025-08-08T0000,3626A,113.7533,23.0202,东莞市,南城元岭,,15,15,22,7,14,15,,60,30,26,23,6,6,0.6,0.7
2025-08-08T0000,3627A,113.7875,23.0457,东莞市,东城主山,,24,20,27,9,15,0,,63,21,48,24,4,5,0.3,0.4
2025-08-08T0000,1666A,118.6614,37.4309,东营市,市环保局,,31,7,16,3,9,98,,115,101,10,12,6,7,0.2,0.4
2025-08-08T0000,3036A,118.6904,37.4338,东营市,开发区管委会,,32,12,19,3,10,100,,119,106,10,9,6,6,0.1,0.3
2025-08-08T0000,3365A,118.5719,37.565,东营市,垦利区民丰路,,24,9,17,3,12,76,,118,91,18,11,3,3,0.5,0.7
2025-08-08T0000,3498A,118.5055,37.8612,东营市,河口城区,,33,6,16,3,7,103,,131,110,8,8,3,5,0.7,0.9
2025-08-08T0000,3646A,118.4978,37.4623,东营市,胜利站,,30,13,23,3,10,94,,126,102,11,11,2,2,0.4,0.6
2025-08-08T0000,3734A,118.35,37.26,东营市,理想之城,,27,7,17,7,13,84,,121,99,15,10,2,5,0.3,0.5
2025-08-08T0000,1591A,110.0023,39.8129,鄂尔多斯市,综合楼,,30,22,29,7,8,94,,127,107,10,20,4,5,0.5,0.5
2025-08-08T0000,1592A,109.9486,39.8261,鄂尔多斯市,巴音孟克林场办事处,,32,17,38,3,9,101,,139,116,9,19,3,5,0.5,0.6
2025-08-08T0000,1593A,109.7736,39.5986,鄂尔多斯市,康泽苑,,34,34,41,3,10,78,,103,98,21,19,7,8,0.3,0.4
2025-08-08T0000,1594A,109.8119,39.5989,鄂尔多斯市,华泰汽车城,,29,29,38,9,13,86,,97,96,17,22,4,4,0.4,0.5
2025-08-08T0000,1595A,109.9734,39.7884,鄂尔多斯市,奥林花园,,33,17,35,7,11,103,,109,98,10,22,6,6,0.6,0.7
2025-08-08T0000,2436A,114.8938,30.3994,鄂州市,市政府,,28,28,15,3,3,38,,64,58,18,14,7,6,0.7,0.6
2025-08-08T0000,2437A,114.8989,30.3714,鄂州市,赵家坝,,27,27,18,3,1,40,,63,53,21,12,7,6,0.8,0.8
2025-08-08T0000,3654A,114.8094,30.4089,鄂州市,精准医疗中心,,33,33,17,3,2,30,,66,55,26,12,11,8,0.7,0.7
2025-08-08T0000,2454A,109.4978,30.2981,恩施土家族苗族自治州,湖北民院,,18,18,16,10,15,48,,104,72,2,2,5,5,0.5,0.5
2025-08-08T0000,2455A,109.4707,30.2798,恩施土家族苗族自治州,州电力总公司,,18,18,21,3,12,11,,104,58,24,10,4,7,0.6,0.5
2025-08-08T0000,3549A,109.5061,30.3772,恩施土家族苗族自治州,龙凤新区,,19,19,15,6,9,60,,117,75,6,9,4,4,0.3,0.3
2025-08-08T0000,2499A,108.3411,21.6158,防城港市,沙万,,39,39,31,12,15,16,,41,25,28,20,2,2,0.4,0.4
2025-08-08T0000,2500A,108.3514,21.7731,防城港市,防城档案局,,17,17,18,10,9,21,,41,33,8,8,2,3,0.4,0.2
2025-08-08T0000,2501A,108.3506,21.6414,防城港市,大海花园,,28,28,27,14,10,54,,48,45,15,14,4,4,0.4,0.5
2025-08-08T0000,1371A,113.1294,23.0067,佛山市,湾梁,,24,22,32,13,18,2,,63,15,48,37,6,7,0.6,0.7
2025-08-08T0000,1372A,113.1083,23.0478,佛山市,华材职中,,31,31,28,12,15,2,,66,12,41,32,8,8,0.8,0.7
2025-08-08T0000,1373A,113.144,23.0453,佛山市,南海气象局,,22,22,31,13,18,2,,50,12,34,32,4,5,0.7,0.7
2025-08-08T0000,1374A,113.2881,22.8094,佛山市,顺德苏岗,,24,23,33,9,11,0,,45,12,48,29,5,5,0.6,0.5
2025-08-08T0000,1376A,112.8383,22.8678,佛山市,高明孔堂,,33,33,26,8,10,2,,55,14,34,18,7,6,0.7,0.7
2025-08-08T0000,1377A,112.8836,23.1588,佛山市,三水监测站,,22,22,30,11,16,2,,54,11,37,37,4,5,0.5,0.6
2025-08-08T0000,1378A,112.867,23.185,佛山市,三水云东海,,26,26,34,14,17,0,,60,8,36,35,1,2,0.7,0.8
2025-08-08T0000,3625A,113.2544,22.7642,佛山市,容桂街道办,,24,22,20,14,13,2,,54,20,48,28,8,5,0.7,0.7
2025-08-08T0000,1280A,119.3903,26.0543,福州市,鼓山,,,,,,,,,,,,,,,,
2025-08-08T0000,1282A,119.2681,26.0504,福州市,师大,,41,41,39,24,18,41,,111,82,16,11,5,5,0.3,0.2
2025-08-08T0000,1283A,119.2984,26.1028,福州市,五四北路,,38,38,40,21,18,56,,116,92,15,12,4,4,0.3,0.3
2025-08-08T0000,1284A,119.2648,26.0768,福州市,杨桥西路,,44,44,39,20,19,49,,114,87,15,10,4,4,0.3,0.2
2025-08-08T0000,1285A,119.317,26.0746,福州市,紫阳,,38,38,43,22,20,43,,108,79,12,11,4,4,0.2,0.2
2025-08-08T0000,3048A,119.5799,26.0936,福州市,九龙,,33,33,38,19,20,48,,120,79,12,9,6,5,0.3,0.3
2025-08-08T0000,3526A,119.5189,25.9664,福州市,吴航,,36,36,37,17,18,34,,114,80,11,8,6,6,0.4,0.4
2025-08-08T0000,1755A,123.7977,41.8491,抚顺市,望花区,,15,15,38,8,19,23,,116,61,22,22,6,9,0.5,0.8
2025-08-08T0000,1756A,123.9161,41.8822,抚顺市,顺城区,,33,33,35,10,18,2,,131,48,33,21,7,6,0.6,0.7
2025-08-08T0000,1757A,124.0436,41.8611,抚顺市,东洲区,,15,15,31,9,17,14,,105,58,23,13,5,6,0.5,0.6
2025-08-08T0000,1758A,123.9247,41.8642,抚顺市,新抚区,,27,27,29,10,14,3,,126,53,23,16,5,6,0.6,0.7
2025-08-08T0000,1759A,124.0972,41.8961,抚顺市,大伙房水库,,34,34,22,8,12,9,,93,54,29,14,6,7,0.3,0.5
2025-08-08T0000,1760A,123.7086,41.8391,抚顺市,沈抚新城,,21,21,23,3,12,7,,109,52,27,19,5,7,0.5,0.6
2025-08-08T0000,2376A,116.2127,28.0814,抚州市,桐源党溪,,33,33,21,14,7,6,,54,17,6,4,3,4,0.6,0.6
2025-08-08T0000,2377A,116.3544,27.9831,抚州市,市站,,22,22,17,8,6,42,,63,48,3,2,2,2,0.5,0.4
2025-08-08T0000,2378A,116.3565,27.963,抚州市,血防站,,28,28,20,10,6,35,,62,42,7,4,5,5,0.3,0.3
2025-08-08T0000,2379A,116.3564,28.0007,抚州市,采茶剧团,,20,20,18,12,7,42,,60,47,2,2,3,3,0.3,0.3
2025-08-08T0000,2380A,116.385,27.9647,抚州市,医学分院,,27,27,20,9,6,38,,61,44,5,3,4,4,0.3,0.3
2025-08-08T0000,2207A,121.6094,41.998,阜新市,工业园区,,46,46,24,7,8,3,,80,42,40,21,5,6,0.9,0.5
2025-08-08T0000,2208A,121.6697,42.0279,阜新市,长青街,,20,20,16,11,10,20,,74,49,22,14,6,7,1.2,0.8
2025-08-08T0000,2209A,121.6673,42.0705,阜新市,农业园区,,41,30,18,3,3,38,,71,47,7,10,4,4,4.1,0.8
2025-08-08T0000,2210A,121.6717,42.0224,阜新市,东苑,,29,29,26,7,8,15,,77,46,29,18,7,11,0.8,1
2025-08-08T0000,2211A,121.6506,42.0498,阜新市,玉龙新城,,22,22,22,6,7,6,,75,31,36,20,8,7,1.3,0.6
2025-08-08T0000,2301A,115.8277,32.8929,阜阳市,市监测站,,22,22,26,12,11,50,,117,70,15,13,4,4,0.2,0.3
2025-08-08T0000,2303A,115.8554,32.8605,阜阳市,开发区,,23,,24,16,15,48,,116,77,16,10,6,6,0.4,0.4
2025-08-08T0000,2875A,115.784,32.8892,阜阳市,阜阳职业技术学院,,24,24,21,12,12,62,,128,82,12,9,4,4,0.4,0.4
2025-08-08T0000,3468A,115.7901,32.8613,阜阳市,市规划展馆,,38,26,26,26,18,53,,119,72,11,7,2,2,0.4,0.6
2025-08-08T0000,3469A,115.836,32.9183,阜阳市,枣园社区,,28,28,24,19,18,50,,121,73,14,10,2,2,0.6,0.5
2025-08-08T0000,2669A,102.9099,34.9841,甘南藏族自治州,州政府,,29,27,17,20,13,45,,73,53,11,7,3,3,0.3,0.3
2025-08-08T0000,3380A,102.8914,34.9617,甘南藏族自治州,甘肃民族师范学院,,23,23,22,15,9,49,,57,50,2,3,4,6,0.3,0.3
2025-08-08T0000,2570A,101.9603,30.0475,甘孜藏族自治州,水桥子,,23,8,15,6,10,72,,103,95,12,14,6,6,0.3,0.6
2025-08-08T0000,3065A,101.9533,29.9972,甘孜藏族自治州,州环保局,,18,13,18,8,8,56,,107,86,25,17,4,4,0.5,0.5
2025-08-08T0000,3414A,115.8347,28.932,赣江新区,桑海产业园,,16,12,9,6,4,50,,82,66,18,7,4,4,0.3,0.3
2025-08-08T0000,2362A,114.9017,25.9149,赣州市,通天岩,,16,16,17,6,12,45,,54,46,6,3,17,17,0.5,0.6
2025-08-08T0000,2363A,114.9367,25.8664,赣州市,地委,,16,16,19,8,9,40,,53,44,7,7,5,6,0.8,0.9
2025-08-08T0000,2364A,114.9461,25.8481,赣州市,气象台,,16,16,20,3,6,40,,54,47,5,4,8,8,0.5,0.5
2025-08-08T0000,2365A,114.9322,25.8333,赣州市,市图书馆,,12,8,14,3,8,38,,47,42,5,5,4,4,0.3,0.4
2025-08-08T0000,2366A,114.8905,25.8471,赣州市,华坚鞋城,,12,11,19,3,9,36,,48,39,9,8,4,4,0.3,0.4
2025-08-08T0000,3109A,115.0093,25.8613,赣州市,赣县区卫计委,,11,7,17,3,8,34,,51,42,6,6,4,4,0.2,0.3
2025-08-08T0000,2683A,106.2319,36.1417,固原市,马园,颗粒物(PM10),56,62,40,22,14,94,,108,92,11,22,8,7,0.8,0.7
2025-08-08T0000,2684A,106.2792,36.0022,固原市,监测站,,,,29,,12,,,116,111,,9,,5,,0.5
2025-08-08T0000,2685A,106.2375,36.0211,固原市,新区,,27,25,31,18,15,86,,105,99,10,10,6,6,0.6,0.5
2025-08-08T0000,3522A,106.2177,35.9959,固原市,原州区十五小,,35,35,33,20,17,85,,106,100,10,9,10,9,0.6,0.5
2025-08-08T0000,2543A,106.6308,30.5278,广安市,小平旧居,,,,,,,,,,,,,,,,
2025-08-08T0000,2544A,106.6303,30.4576,广安市,市委,细颗粒物(PM2.5),52,39,23,36,22,104,,132,122,14,10,7,5,0.5,0.5
2025-08-08T0000,2545A,106.6271,30.4663,广安市,友谊中学,,37,37,22,21,15,92,,137,123,15,11,5,5,0.7,0.9
2025-08-08T0000,2547A,106.6388,30.4551,广安市,广电花园,颗粒物(PM10),54,57,36,26,16,103,,128,118,15,11,3,2,0.6,0.6
2025-08-08T0000,2902A,106.6351,30.4865,广安市,北辰小学,,35,30,20,24,14,88,,135,121,12,7,7,6,0.7,0.7
2025-08-08T0000,2523A,105.8945,32.4535,广元市,黑石坡,,42,,22,29,22,10,,59,34,13,11,10,9,0.5,0.4
2025-08-08T0000,2524A,105.821,32.4444,广元市,老城,,14,10,13,3,6,22,,83,51,28,15,3,4,0.9,0.7
2025-08-08T0000,2526A,105.8628,32.4287,广元市,监测站,颗粒物(PM10),52,53,33,13,9,15,,70,40,12,11,15,14,0.9,0.8
2025-08-08T0000,3617A,105.8047,32.4166,广元市,经开区,,22,22,20,8,9,25,,74,48,18,14,3,4,0.8,0.7
2025-08-08T0000,1345A,113.2347,23.1423,广州市,广雅中学,,31,31,32,17,18,0,,70,10,41,37,2,3,0.3,0.3
2025-08-08T0000,1346A,113.2612,23.105,广州市,市五中,,21,18,30,10,18,3,,68,19,41,36,4,6,0.8,0.8
2025-08-08T0000,1348A,113.3478,23.0916,广州市,广东商学院,,22,22,27,12,16,2,,57,16,36,32,2,4,0.8,0.8
2025-08-08T0000,1349A,113.4332,23.1047,广州市,市八十六中,,21,21,22,11,13,1,,41,7,38,37,3,4,0.3,0.3
2025-08-08T0000,1350A,113.3505,22.9483,广州市,番禺中学,,20,20,31,10,17,3,,58,18,37,30,5,6,0.4,0.5
2025-08-08T0000,1351A,113.2146,23.3916,广州市,花都师范,,28,28,33,9,14,2,,68,15,37,37,4,5,0.6,0.5
2025-08-08T0000,1352A,113.2597,23.1331,广州市,市监测站,,,20,31,9,15,,,66,,35,37,5,6,0.4,0.6
2025-08-08T0000,1353A,113.5618,23.312,广州市,九龙镇镇龙,,11,11,22,3,12,10,,71,19,12,21,6,6,0.4,0.4
2025-08-08T0000,1354A,113.2765,23.1544,广州市,麓湖,,21,21,27,9,20,0,,64,9,30,34,2,2,0.5,0.6
2025-08-08T0000,1355A,113.443,23.3035,广州市,帽峰山森林公园,,12,8,17,8,6,17,,71,32,13,19,1,2,0.4,0.6
2025-08-08T0000,2846A,113.3221,23.1322,广州市,体育西,,20,19,33,11,18,1,,66,17,39,38,4,6,0.7,0.8
2025-08-08T0000,3298A,113.5717,23.5491,广州市,从化街口,,14,14,23,6,12,2,,65,22,19,16,6,6,0.6,0.6
2025-08-08T0000,3299A,113.3472,23.3692,广州市,白云竹料,,15,15,23,8,12,6,,70,21,29,24,3,4,0.5,0.5
2025-08-08T0000,3300A,113.2981,23.237,广州市,白云嘉禾,,20,20,27,11,15,1,,65,12,36,35,4,4,0.5,0.5
2025-08-08T0000,3301A,113.4256,23.1716,广州市,黄埔科学城,,,16,22,3,11,0,,59,14,26,26,,5,0.4,0.5
2025-08-08T0000,3302A,113.3942,23.0483,广州市,番禺大学城,,21,12,28,9,14,2,,54,14,42,35,6,8,0.5,0.6
2025-08-08T0000,3303A,113.4922,22.8168,广州市,南沙黄阁,,35,35,34,14,17,5,,56,16,43,29,12,5,0.6,0.5
2025-08-08T0000,3304A,113.5342,22.7896,广州市,南沙街,,43,43,32,17,15,3,,59,16,41,28,9,5,0.7,0.6
2025-08-08T0000,3443A,113.2902,23.5544,广州市,花都梯面,,12,9,19,3,9,3,,88,23,23,17,5,5,0.5,0.6
2025-08-08T0000,3445A,113.7858,23.7478,广州市,从化良口,,10,10,15,3,6,10,,58,31,11,8,4,4,0.4,0.5
2025-08-08T0000,3446A,113.8051,23.2614,广州市,增城荔城,,12,12,19,3,11,12,,86,25,12,10,6,6,0.4,0.4
2025-08-08T0000,2505A,109.568,23.1478,贵港市,德智高中,,,,,,,,,,,,,,,,
2025-08-08T0000,2506A,109.6047,23.0666,贵港市,江南子站,,24,24,25,11,7,14,,50,30,18,13,7,7,0.7,0.6
2025-08-08T0000,2508A,109.5669,23.1065,贵港市,荷城子站,,22,22,18,7,7,18,,48,31,14,12,8,7,0.5,0.5
2025-08-08T0000,3405A,109.5886,23.1172,贵港市,新世纪学校,,27,27,21,11,11,22,,54,34,15,13,2,2,0.5,0.5
2025-08-08T0000,4260A,109.5933,23.0951,贵港市,中山路155-3号,,29,29,37,11,13,24,,58,36,15,15,5,5,0.3,0.4
2025-08-08T0000,1439A,106.6899,26.5998,贵阳市,马鞍山,,16,9,13,3,1,50,,88,65,10,7,4,4,0.7,0.7
2025-08-08T0000,1441A,106.6243,26.6266,贵阳市,鉴湖路,,19,19,22,3,3,42,,80,56,8,8,7,8,0.1,0.2
2025-08-08T0000,1442A,106.7487,26.6343,贵阳市,燕子冲,,20,,11,14,14,50,,97,64,11,11,12,10,0.2,0.3
2025-08-08T0000,1443A,106.6555,26.4365,贵阳市,碧云窝,,22,22,26,3,6,43,,82,58,8,6,6,7,0.2,0.2
2025-08-08T0000,1445A,106.7109,26.6027,贵阳市,红边门,,17,17,15,3,8,45,,89,57,12,12,3,3,0.4,0.4
2025-08-08T0000,1446A,106.7164,26.5699,贵阳市,新华路,,15,14,20,3,9,45,,95,58,14,12,2,15,0.2,0.2
2025-08-08T0000,1447A,106.674,26.5424,贵阳市,太慈桥,,11,9,13,3,5,35,,73,48,12,12,6,6,0.1,0.1
2025-08-08T0000,1552A,106.805,26.3003,贵阳市,桐木岭,,22,22,25,14,13,53,,73,54,4,4,6,17,0.9,0.9
2025-08-08T0000,4230A,106.6882,26.5695,贵阳市,花果园大街66号,,14,,3,8,8,43,,84,60,9,8,4,4,0.4,0.4
2025-08-08T0000,4231A,106.6873,26.5169,贵阳市,漓江路57号,,14,12,13,9,6,43,,90,61,9,7,4,4,0.3,0.3
2025-08-08T0000,1862A,110.4144,25.3167,桂林市,电子科大尧山校区,,,,,,,,,,,,,,,,
2025-08-08T0000,1864A,110.3089,25.2708,桂林市,龙隐路小学,,13,13,14,6,5,35,,54,45,6,7,8,5,0.2,0.2
2025-08-08T0000,1865A,110.2869,25.2178,桂林市,八中,,14,14,13,6,7,36,,57,48,7,9,12,8,0.4,0.5
2025-08-08T0000,3531A,110.296,25.1253,桂林市,旅游学院,,11,7,9,3,5,34,,60,49,5,5,13,6,0.3,0.3
2025-08-08T0000,4222A,110.1835,25.2444,桂林市,环湖路276号,,14,14,15,3,6,36,,56,46,5,5,4,4,0.4,0.4
2025-08-08T0000,4301A,110.2803,25.2773,桂林市,信义路13号,,12,9,12,3,4,37,,58,48,6,8,8,5,0.5,0.6
2025-08-08T0000,2674A,100.2561,34.4714,果洛藏族自治州,玛沁县大武镇,,27,27,23,12,9,72,,92,80,5,6,14,13,0.3,0.3
2025-08-08T0000,1129A,126.5422,45.755,哈尔滨市,岭北,,21,21,11,9,5,27,,76,66,33,11,9,8,0.3,0.3
2025-08-08T0000,1130A,126.561,45.8167,哈尔滨市,松北商大,,,64,18,8,3,,,51,,48,16,7,7,0.5,0.4
2025-08-08T0000,1131A,126.979,45.5419,哈尔滨市,阿城会宁,,39,39,25,12,9,0,,56,32,28,17,5,7,0.6,0.8
2025-08-08T0000,1132A,126.599,45.7222,哈尔滨市,南岗学府路,,38,38,21,13,4,13,,58,47,33,11,8,8,0.7,0.4
2025-08-08T0000,1133A,126.689,45.7733,哈尔滨市,太平宏伟公园,,42,42,20,14,6,15,,54,39,32,12,6,6,0.6,0.4
2025-08-08T0000,1134A,126.635,45.7667,哈尔滨市,道外承德广场,,36,36,26,7,6,27,,55,49,23,9,7,7,0.2,0.4
2025-08-08T0000,1135A,126.685,45.7319,哈尔滨市,香坊红旗大街,,19,19,13,13,5,16,,56,45,30,11,6,6,0.6,0.5
2025-08-08T0000,1136A,126.6411,45.7258,哈尔滨市,动力和平路,,23,23,16,3,3,21,,62,52,30,11,5,5,0.5,0.4
2025-08-08T0000,1137A,126.593,45.7478,哈尔滨市,道里建国路,,29,29,12,3,4,16,,60,53,35,9,7,7,0.8,0.6
2025-08-08T0000,1138A,126.615,45.61,哈尔滨市,平房东轻厂,,48,48,18,7,6,0,,44,22,55,21,8,6,0.7,0.4
2025-08-08T0000,1139A,126.595,45.9855,哈尔滨市,呼兰师专,,13,13,16,3,2,31,,55,42,18,9,9,9,0.4,0.4
2025-08-08T0000,1140A,126.6206,45.6842,哈尔滨市,省农科院,颗粒物(PM10),53,55,20,16,4,2,,55,39,50,14,4,3,0.7,0.5
2025-08-08T0000,2688A,93.5128,42.8172,哈密市,地区监测站,,,,44,,18,,,119,,,14,,5,,0.4
2025-08-08T0000,2689A,93.4961,42.8328,哈密市,哈密师范学校,颗粒物(PM10),65,80,42,33,14,11,,116,81,86,23,7,10,1.2,0.6
2025-08-08T0000,2671A,100.9048,36.9639,海北藏族自治州,海晏县西海镇,,25,17,25,17,20,72,,92,90,6,5,5,6,0.6,0.6
2025-08-08T0000,3867A,102.0738,36.5056,海东市,平安区公安北苑,,38,38,34,18,30,56,,78,69,8,8,9,13,0.7,0.7
2025-08-08T0000,1409A,110.576,19.9507,海口市,东寨港,,24,24,25,10,12,32,,54,42,3,3,8,10,0.4,0.4
2025-08-08T0000,1410A,110.3232,20.0574,海口市,海南大学,,28,28,28,13,15,40,,77,62,4,5,3,3,0.4,0.4
2025-08-08T0000,1411A,110.283,20.0053,海口市,秀英海南医院,,34,34,32,12,15,27,,61,45,12,10,5,6,0.3,0.4
2025-08-08T0000,1412A,110.338,19.9969,海口市,海南师范大学,,32,32,29,15,15,32,,62,49,6,6,4,4,0.4,0.4
2025-08-08T0000,1413A,110.33,20.0356,海口市,龙华路环保局宿舍,,31,31,33,14,15,36,,66,55,5,6,5,5,0.3,0.3
2025-08-08T0000,3539A,110.5111,19.9736,海口市,桂林洋子站,,26,26,28,12,15,34,,61,45,5,6,4,4,0.2,0.3
2025-08-08T0000,2673A,100.6188,36.2866,海南藏族自治州,共和县恰卜恰镇,,26,26,18,12,10,55,,88,80,18,4,15,9,0.7,0.6
2025-08-08T0000,2676A,97.3731,37.3753,海西蒙古族藏族自治州,德令哈市,,30,23,37,21,17,74,,113,98,3,5,17,16,0.8,0.6
2025-08-08T0000,1048A,114.5302,36.6116,邯郸市,东污水处理厂,,46,46,48,19,19,100,,132,120,14,14,5,5,0.6,0.6
2025-08-08T0000,1049A,114.4918,36.5713,邯郸市,矿院,,43,43,40,27,27,114,,174,152,14,15,5,5,0.5,0.5
2025-08-08T0000,1050A,114.484,36.6133,邯郸市,丛台公园,,45,44,48,28,24,144,,174,163,10,15,6,7,0.6,0.7
2025-08-08T0000,3458A,114.7895,36.5593,邯郸市,香泉濮院小区,颗粒物(PM10),57,63,53,24,16,111,,166,140,10,10,2,2,0.6,0.6
2025-08-08T0000,3579A,114.50634,36.77178,邯郸市,永年区实验高中,颗粒物(PM10),55,59,63,38,35,90,,175,137,20,21,2,3,0.5,0.6
2025-08-08T0000,3580A,114.20016,36.44293,邯郸市,峰峰矿区临水派出所,颗粒物(PM10),51,52,48,13,15,144,,193,166,7,7,2,3,0.3,0.4
2025-08-08T0000,2634A,106.9893,33.1842,汉中市,汉川机床厂子校,,17,13,21,10,15,53,,94,66,11,9,3,3,0.5,0.5
2025-08-08T0000,2635A,107.0154,33.0706,汉中市,市监测站,,18,18,25,10,12,28,,99,56,12,9,5,8,0.7,0.7
2025-08-08T0000,2636A,107.0089,33.1138,汉中市,鑫源开发区,,18,18,20,10,10,13,,81,38,22,10,5,6,0.5,0.6
2025-08-08T0000,2637A,107.007,33.0323,汉中市,南郑大河坎水厂,,19,19,18,10,11,14,,89,43,12,10,3,5,0.5,0.5
2025-08-08T0000,1223A,120.2072,30.2111,杭州市,滨江,,20,20,16,6,7,30,,89,,24,15,6,7,0.6,0.6
2025-08-08T0000,1224A,120.0633,30.2747,杭州市,西溪,,12,12,12,8,6,17,,74,38,18,12,4,4,0.4,0.3
2025-08-08T0000,1226A,120.3417,30.3150,杭州市,下沙,,15,14,16,3,6,47,,98,60,14,15,5,5,0.3,0.3
2025-08-08T0000,1227A,120.1269,30.2456,杭州市,卧龙桥,,10,10,12,3,6,19,,78,32,8,7,7,7,0.4,0.4
2025-08-08T0000,1228A,120.1903,30.2692,杭州市,浙江农大,,17,17,18,11,9,43,,73,38,14,23,5,5,0.2,0.3
2025-08-08T0000,1230A,120.1197,30.3119,杭州市,和睦小学,,14,14,12,7,7,37,,77,50,13,10,6,5,0.4,0.4
2025-08-08T0000,1231A,120.3019,30.4183,杭州市,临平镇,,23,23,17,9,8,38,,94,57,16,13,5,6,0.3,0.3
2025-08-08T0000,1232A,120.2753,30.1839,杭州市,城厢镇,,44,44,22,22,9,31,,102,72,16,11,6,6,0.6,0.6
2025-08-08T0000,1233A,120.0883,30.1808,杭州市,云栖,,13,13,14,3,5,25,,87,43,16,14,8,8,0.6,0.6
2025-08-08T0000,3557A,119.9464,30.0494,杭州市,镇二中,,46,42,19,32,12,14,,79,48,30,16,4,4,0.5,0.4
2025-08-08T0000,3558A,119.7183,30.2367,杭州市,市府大楼,,14,14,8,8,6,31,,66,48,10,8,7,7,0.4,0.4
2025-08-08T0000,3656A,120.1556,30.2864,杭州市,消防大队,,16,12,11,3,5,51,,82,57,5,10,6,6,0.4,0.5
2025-08-08T0000,1270A,117.1959,31.7848,合肥市,明珠广场,,19,19,17,9,7,54,,88,71,17,12,6,6,0.4,0.4
2025-08-08T0000,1271A,117.3072,31.8764,合肥市,三里街,,19,19,18,9,9,51,,92,73,17,12,5,5,0.4,0.4
2025-08-08T0000,1272A,117.2588,31.8707,合肥市,琥珀山庄,,21,19,21,12,11,65,,106,85,11,11,7,7,0.5,0.6
2025-08-08T0000,1273A,117.1604,31.9052,合肥市,董铺水库,,17,14,17,7,7,53,,78,64,10,6,4,4,0.2,0.3
2025-08-08T0000,1274A,117.25,31.8571,合肥市,长江中路,,22,22,21,8,6,59,,101,80,11,10,6,6,0.4,0.4
2025-08-08T0000,1275A,117.266,31.9436,合肥市,庐阳区,,20,19,19,3,7,63,,100,81,11,11,5,6,0.5,0.5
2025-08-08T0000,1276A,117.3453,31.8616,合肥市,瑶海区,,19,19,22,3,6,53,,91,74,14,14,6,6,0.6,0.6
2025-08-08T0000,1277A,117.3027,31.7964,合肥市,包河区,,19,17,16,7,7,60,,91,79,7,8,6,6,0.5,0.6
2025-08-08T0000,1278A,117.2776,31.7385,合肥市,滨湖新区,,22,22,16,9,11,57,,89,77,7,5,8,8,0.4,0.4
2025-08-08T0000,1279A,117.1318,31.8403,合肥市,高新区,,21,17,17,6,7,67,,90,79,9,9,5,6,0.4,0.4
2025-08-08T0000,3464A,117.3803,31.9147,合肥市,高教基地,,18,17,15,6,7,56,,92,78,10,9,5,5,0.6,0.6
2025-08-08T0000,3614A,79.924,37.0877,和田地区,地区环保局,颗粒物(PM10),173,295,199,73,52,86,,110,102,20,13,1,3,0.1,0.1
2025-08-08T0000,3615A,79.9131,37.113,和田地区,市环保局,颗粒物(PM10),138,225,182,47,81,79,,110,99,21,21,2,2,0.2,0.3
2025-08-08T0000,2516A,108.2011,24.715,河池市,东仁乐园,,,,,,,,,,,,,,,,
2025-08-08T0000,2517A,108.0497,24.6947,河池市,市环保站,,22,22,20,7,9,12,,48,32,14,7,4,5,0.6,0.5
2025-08-08T0000,2518A,108.0983,24.6989,河池市,市疾控中心,,20,20,18,9,10,0,,38,17,22,16,6,5,0.6,0.6
2025-08-08T0000,1696A,114.6778,23.7569,河源市,源西,,19,19,21,8,7,10,,69,40,11,8,7,7,0.6,0.7
2025-08-08T0000,1697A,114.6944,23.7586,河源市,东埔,,15,15,13,9,8,13,,68,47,27,15,4,4,0.5,0.5
2025-08-08T0000,1698A,114.6892,23.7233,河源市,老城,,16,16,19,3,9,6,,69,42,24,12,4,5,0.4,0.5
2025-08-08T0000,1718A,115.4208,35.2464,菏泽市,气象局,,33,30,34,23,23,90,,171,144,11,8,3,2,0.5,0.5
2025-08-08T0000,3374A,115.5564,35.0891,菏泽市,定陶老年大学,,25,19,28,14,18,80,,155,131,9,11,2,3,0.4,0.5
2025-08-08T0000,4184A,115.4797,35.24401,菏泽市,永昌路1号,,48,46,37,33,27,95,,166,135,11,12,7,7,0.3,0.3
2025-08-08T0000,4193A,115.4715,35.2800,菏泽市,长城路999号,,45,30,31,16,18,143,,169,164,8,10,8,6,0.4,0.5
2025-08-08T0000,2514A,111.5264,24.4172,贺州市,环保小区,,25,,14,17,10,22,,40,28,7,8,11,11,0.7,1
2025-08-08T0000,2515A,111.5608,24.4078,贺州市,政协大楼,,10,10,14,3,9,28,,46,33,5,7,14,14,0.8,0.7
2025-08-08T0000,3534A,111.4744,24.4553,贺州市,西湾,,12,11,15,8,7,22,,40,31,10,12,7,7,0.4,0.4
2025-08-08T0000,2385A,114.17,35.9019,鹤壁市,市监测站,细颗粒物(PM2.5),69,62,41,50,38,87,,155,138,13,9,6,5,0.7,0.8
2025-08-08T0000,2386A,114.2956,35.7511,鹤壁市,市交警支队,细颗粒物(PM2.5),67,,43,48,42,58,,126,105,20,12,5,5,0.6,0.7
2025-08-08T0000,2387A,114.2878,35.7306,鹤壁市,迎宾馆,细颗粒物(PM2.5),52,48,43,36,36,94,,115,101,17,12,5,3,0.8,0.9
2025-08-08T0000,3474A,114.2617,35.6822,鹤壁市,大新区,,50,50,48,32,24,80,,143,117,9,5,7,6,0.7,0.7
2025-08-08T0000,3596A,114.1572,35.9603,鹤壁市,南山宾馆,细颗粒物(PM2.5),54,54,50,38,30,134,,164,158,8,6,3,4,0.9,0.9
2025-08-08T0000,2244A,130.2537,47.3416,鹤岗市,哈啤分公司,,12,12,17,3,4,17,,42,28,5,4,11,12,0.5,0.5
2025-08-08T0000,2245A,130.2684,47.3086,鹤岗市,斯达机电,,40,40,23,8,9,10,,48,30,18,8,12,12,0.7,0.6
2025-08-08T0000,2246A,130.3114,47.3388,鹤岗市,东山纸板厂,,31,31,23,14,10,7,,46,21,16,8,15,14,1.1,0.7
2025-08-08T0000,2247A,130.1097,47.3382,鹤岗市,五号水库,,8,6,7,3,5,17,,34,24,8,8,10,10,0.2,0.1
2025-08-08T0000,2263A,127.4833,50.2524,黑河市,交通局,,15,15,22,3,7,7,,34,17,12,11,4,4,0.4,0.3
2025-08-08T0000,2264A,127.5144,50.2341,黑河市,环保局,,46,46,22,18,10,7,,39,24,28,12,16,8,0.5,0.7
2025-08-08T0000,2265A,127.5291,50.2472,黑河市,大黑河岛,,,,4,8,5,11,,22,18,5,9,24,23,,
2025-08-08T0000,1074A,115.6838,37.7541,衡水市,电机北厂,,36,31,45,18,30,113,,154,136,11,11,4,5,0.8,0.4
2025-08-08T0000,1075A,115.6303,37.7316,衡水市,市监测站,,44,44,42,23,25,139,,166,150,6,8,7,6,0.8,0.7
2025-08-08T0000,3188A,115.6683,37.7217,衡水市,市城管局,,40,34,43,18,30,125,,167,143,10,11,8,8,0.5,0.5
2025-08-08T0000,3459A,115.5989,37.5491,衡水市,地表水厂,,40,40,47,14,20,105,,164,123,17,15,8,8,0.4,0.3
2025-08-08T0000,2456A,112.5003,26.9167,衡阳市,原169医院,,14,14,15,3,5,11,,59,30,3,2,6,8,0.5,0.6
2025-08-08T0000,2457A,112.6194,26.9258,衡阳市,衡阳化工总厂,,19,19,18,3,7,28,,67,32,7,8,3,5,0.7,0.8
2025-08-08T0000,2458A,112.6211,26.8956,衡阳市,珠晖区环保局,,12,12,15,8,9,33,,66,31,7,8,4,7,0.5,0.6
2025-08-08T0000,2459A,112.6197,26.8733,衡阳市,市委党校,,10,9,11,3,5,29,,63,35,8,6,7,9,0.3,0.4
2025-08-08T0000,2460A,112.6006,26.8919,衡阳市,市监测站,,11,11,19,3,8,31,,64,33,7,8,3,6,0.5,0.6
2025-08-08T0000,2461A,112.5664,26.9056,衡阳市,真空机电公司,,24,24,19,9,9,19,,61,30,15,8,10,8,1.1,1
2025-08-08T0000,3399A,112.6703,26.882,衡阳市,师范学院,,17,17,18,10,6,27,,57,33,7,7,6,8,0.6,0.7
2025-08-08T0000,2608A,103.3772,23.3993,红河哈尼族彝族自治州,污水处理厂,,29,29,17,17,14,32,,38,31,6,6,7,7,0.3,0.2
2025-08-08T0000,2609A,103.3861,23.35,红河哈尼族彝族自治州,监测站,,20,20,17,12,9,32,,40,30,3,4,10,10,0.2,0.2
2025-08-08T0000,3038A,103.3758,23.368,红河哈尼族彝族自治州,州图书馆,,22,,7,15,14,33,,42,34,4,4,1,1,0.2,0.2
2025-08-08T0000,1090A,111.6507,40.7517,呼和浩特市,呼市一监,,32,12,22,9,8,101,,113,95,10,13,9,9,0.4,0.4
2025-08-08T0000,1091A,111.6572,40.8033,呼和浩特市,小召,,30,,26,12,9,95,,114,99,17,23,8,8,0.5,0.5
2025-08-08T0000,1094A,111.7516,40.8369,呼和浩特市,如意水处理厂,,29,22,25,10,8,92,,122,99,13,27,4,5,0.5,0.4
2025-08-08T0000,1095A,111.7276,40.8062,呼和浩特市,二十九中,,33,28,30,11,10,105,,130,119,13,18,6,6,0.6,0.6
2025-08-08T0000,1096A,111.5512,40.7866,呼和浩特市,工大金川校区,,34,21,26,8,7,106,,120,104,10,22,5,5,0.4,0.4
2025-08-08T0000,1097A,111.717,40.7612,呼和浩特市,化肥厂生活区,,33,25,24,11,7,104,,128,113,18,18,6,6,0.4,0.5
2025-08-08T0000,3698A,111.5968,40.8178,呼和浩特市,红旗小学,,31,12,24,7,7,99,,128,80,15,24,3,3,0.4,0.3
2025-08-08T0000,3699A,111.6518,40.8389,呼和浩特市,海东办,,32,14,22,9,7,101,,128,73,14,28,5,5,0.4,0.4
2025-08-08T0000,2192A,119.7594,49.2261,呼伦贝尔市,区环保局,,32,24,27,22,20,34,,68,,16,15,5,5,1.0,0.4
2025-08-08T0000,3061A,119.7512,49.1577,呼伦贝尔市,国华电力东,,19,19,18,6,9,33,,72,47,7,8,11,9,0.3,0.3
2025-08-08T0000,1250A,120.0751,30.8669,湖州市,城西水厂,,15,15,18,9,11,28,,74,38,28,28,6,6,0.3,0.4
2025-08-08T0000,2873A,120.0830,30.8929,湖州市,仁皇山新区,,17,16,15,9,7,15,,82,45,33,17,5,4,0.5,0.4
2025-08-08T0000,2907A,120.1844,30.8596,湖州市,吴兴区站,,16,16,20,6,8,16,,88,44,22,14,6,6,0.5,0.5
2025-08-08T0000,3562A,120.4148,30.8538,湖州市,南浔区站,,14,14,15,9,8,28,,98,57,18,9,5,4,0.5,0.5
2025-08-08T0000,1607A,120.9049,40.7211,葫芦岛市,龙港区,,26,26,41,10,17,11,,74,36,39,25,10,6,0.6,0.5
2025-08-08T0000,1608A,120.8392,40.7514,葫芦岛市,化工街,,29,29,27,12,12,0,,74,34,58,31,24,10,0.4,0.5
2025-08-08T0000,1609A,120.8341,40.7073,葫芦岛市,新区,,32,32,28,10,16,7,,78,48,55,24,12,5,0.6,0.6
2025-08-08T0000,1610A,120.8695,40.7677,葫芦岛市,东城区,,28,28,28,15,16,3,,76,50,54,22,12,13,0.6,0.6
2025-08-08T0000,2482A,109.5981,27.5721,怀化市,林科所,,14,14,13,3,3,38,,62,46,7,7,4,4,0.2,0.3
2025-08-08T0000,2483A,109.9453,27.5444,怀化市,河西地税局,,,,10,14,8,,,57,,4,4,1,3,0.1,0.1
2025-08-08T0000,2484A,109.9781,27.5342,怀化市,市四医院,,18,18,15,3,8,35,,59,43,5,4,3,4,0.5,0.5
2025-08-08T0000,2485A,109.9972,27.5578,怀化市,监测楼,,15,15,14,9,8,38,,59,45,15,13,4,4,0.1,0.2
2025-08-08T0000,2486A,110.0394,27.583,怀化市,市委党校,,12,10,11,8,8,37,,54,40,4,3,6,6,0.0,0.1
2025-08-08T0000,1210A,119.036,33.5981,淮安市,钵池山,,19,,15,13,15,58,,106,71,25,11,8,9,0.7,0.7
2025-08-08T0000,1211A,119.007,33.575,淮安市,北京南路,,29,12,20,12,13,90,,99,79,12,13,7,8,0.6,0.6
2025-08-08T0000,1212A,118.989,33.6067,淮安市,市监测站,,31,17,19,7,13,97,,112,82,7,11,8,9,0.7,0.7
2025-08-08T0000,1213A,119.135,33.5039,淮安市,楚州区监测站,,22,15,25,10,13,70,,92,79,20,17,7,7,0.6,0.5
2025-08-08T0000,3426A,118.8755,33.2894,淮安市,新华书店,,24,,15,10,10,75,,100,78,12,11,5,8,0.6,0.4
2025-08-08T0000,4206A,119.0288,33.6319,淮安市,承德北路606号,,20,19,20,11,13,61,,112,65,13,8,5,6,0.6,0.4
2025-08-08T0000,2282A,116.8004,33.975,淮北市,监测站,,28,,22,7,16,87,,126,102,7,7,7,6,0.7,0.7
2025-08-08T0000,2283A,116.8091,33.9007,淮北市,烈山区政府,,27,22,26,7,11,85,,116,95,8,6,8,8,0.6,0.6
2025-08-08T0000,3330A,116.8873,33.9836,淮北市,杜集区检察院,,25,23,20,9,17,80,,123,93,7,7,7,7,0.6,0.7
2025-08-08T0000,4017A,116.7923,33.9535,淮北市,市博物馆,,31,14,20,3,14,97,,134,108,8,6,8,8,0.6,0.6
2025-08-08T0000,2277A,116.8305,32.7727,淮南市,潘集区政府,,24,24,32,7,11,40,,90,63,12,13,3,4,0.3,0.4
2025-08-08T0000,2279A,116.8569,32.5951,淮南市,谢家集区政府,,20,20,20,7,11,37,,90,60,14,10,6,6,0.3,0.3
2025-08-08T0000,2280A,116.8281,32.633,淮南市,八公山区政府,,15,13,19,10,11,29,,89,61,9,9,4,4,0.3,0.3
2025-08-08T0000,2281A,116.6325,32.6201,淮南市,焦岗湖风景区管理处,,,,,,,,,,,,,,,,
2025-08-08T0000,2894A,117.0566,32.6531,淮南市,经济技术开发区消防队,,16,16,18,7,6,42,,106,67,17,14,7,8,0.3,0.3
2025-08-08T0000,3329A,117.0108,32.5893,淮南市,山南新区,,15,13,10,3,6,47,,102,67,10,10,9,10,0.6,0.6
2025-08-08T0000,4209A,117.0031,32.6445,淮南市,国庆中路369号,,17,,22,9,12,54,,106,72,10,10,4,4,0.4,0.4
2025-08-08T0000,2446A,114.9028,30.4742,黄冈市,职工中心,,20,20,20,14,12,46,,79,67,12,4,11,10,0.7,0.8
2025-08-08T0000,2929A,114.8858,30.4519,黄冈市,红卫路,,20,19,16,14,12,40,,71,59,16,8,10,10,0.5,0.5
2025-08-08T0000,3398A,114.9136,30.4445,黄冈市,市林业局,,26,26,18,14,9,40,,74,62,21,12,11,9,0.6,0.6
2025-08-08T0000,2672A,102.0199,35.5102,黄南藏族自治州,同仁县隆务镇,,27,27,22,17,9,58,,84,61,2,7,9,9,0.3,0.4
2025-08-08T0000,2295A,118.2903,29.6963,黄山市,延安路89号,,21,21,16,3,6,17,,64,43,7,4,4,4,0.4,0.3
2025-08-08T0000,2297A,118.1371,30.2756,黄山市,黄山区政府5号楼,,32,32,15,3,8,19,,58,36,5,3,4,4,0.3,0.3
2025-08-08T0000,4210A,118.3354,29.7203,黄山市,滨江东路7-2号,,32,,17,22,7,21,,63,42,6,5,2,2,0.4,0.3
2025-08-08T0000,2423A,115.0601,30.2313,黄石市,沈家营,颗粒物(PM10),53,56,48,8,6,10,,37,24,28,16,7,10,0.5,0.4
2025-08-08T0000,2426A,114.8988,30.2019,黄石市,铁山,,16,16,22,6,7,40,,58,52,14,10,4,4,0.2,0.2
2025-08-08T0000,2427A,115.0307,30.2092,黄石市,团城山,,29,29,22,3,1,44,,72,64,13,6,9,8,0.4,0.2
2025-08-08T0000,3149A,115.0235,30.1578,黄石市,笔架山北路,,30,30,25,3,2,36,,66,48,14,7,10,8,0.5,0.5
2025-08-08T0000,4185A,115.0780,30.21118,黄石市,磁湖东路29号,,48,48,38,12,7,20,,70,53,25,7,14,10,0.6,0.2
2025-08-08T0000,1392A,114.4183,23.0528,惠州市,河南岸金山湖子站,,20,20,23,10,15,26,,76,48,16,15,7,7,0.6,0.6
2025-08-08T0000,1393A,114.4053,23.0822,惠州市,下埔横江三路子站,,20,20,24,12,12,33,,83,55,15,12,4,5,0.6,0.6
2025-08-08T0000,1394A,114.4103,23.1142,惠州市,江北云山西路子站,,17,17,21,10,14,36,,90,55,17,13,7,8,0.6,0.6
2025-08-08T0000,1395A,114.4645,22.7833,惠州市,惠阳区承修路船湖子站,,45,45,31,28,16,31,,58,53,20,13,6,6,0.6,0.6
2025-08-08T0000,1396A,114.5317,22.7422,惠州市,大亚湾管委会子站,,28,28,22,19,13,23,,66,49,28,15,7,7,0.5,0.5
2025-08-08T0000,3314A,114.4338,22.8134,惠州市,惠阳秋长,,,34,26,18,15,,,66,,24,15,6,5,,0.5
2025-08-08T0000,3452A,114.6517,22.775,惠州市,大亚湾霞涌,,19,19,19,10,9,26,,69,52,12,11,5,5,0.5,0.4
2025-08-08T0000,2240A,130.9762,45.3001,鸡西市,环保局,,15,15,15,3,3,7,,53,30,19,8,6,7,0.4,0.2
2025-08-08T0000,2243A,130.9429,45.3039,鸡西市,第一中学,,24,24,15,10,6,8,,52,28,26,11,11,11,0.3,0.3
2025-08-08T0000,3707A,131.0207,45.3073,鸡西市,欧美日汽修厂,,24,24,21,11,8,1,,52,26,26,14,9,8,0.5,0.4
2025-08-08T0000,3709A,130.9967,45.3106,鸡西市,市政设施管理处,,26,26,21,6,6,1,,49,25,30,15,6,7,0.5,0.4
2025-08-08T0000,2367A,114.9754,27.0803,吉安市,红声器材厂,,18,18,17,3,5,41,,66,51,7,4,8,9,0.5,0.5
2025-08-08T0000,2368A,114.9658,27.0999,吉安市,市森林工业局,,,13,15,3,5,,,70,55,5,4,8,9,0.5,0.3
2025-08-08T0000,2369A,114.99,27.1312,吉安市,市环境监测站,,21,21,16,6,6,49,,72,56,1,2,12,10,0.5,0.4
2025-08-08T0000,2370A,115.0093,27.0968,吉安市,青原区法院,,15,15,15,8,7,47,,65,52,6,5,8,7,0.5,0.5
2025-08-08T0000,1772A,126.54,43.8622,吉林市,哈达湾,,35,35,18,12,9,10,,66,44,38,13,13,12,0.6,0.4
2025-08-08T0000,1773A,126.5844,43.8358,吉林市,东局子,,24,24,20,7,7,10,,58,33,26,14,6,7,0.7,0.6
2025-08-08T0000,1774A,126.5052,43.8245,吉林市,电力学院,,28,28,15,11,8,3,,64,34,23,11,9,8,0.4,0.4
2025-08-08T0000,1775A,126.6133,43.8972,吉林市,江北,,,18,20,8,10,,,61,,8,9,4,5,0.5,0.7
2025-08-08T0000,1776A,126.555,43.8306,吉林市,江南公园,,27,27,18,6,11,14,,64,36,25,15,2,5,0.4,1.1
2025-08-08T0000,1778A,126.7061,43.7133,吉林市,丰满,,13,9,10,3,8,39,,92,65,4,5,4,5,0.3,0.4
2025-08-08T0000,2868A,126.4739,43.953,吉林市,九站,,35,27,18,24,14,2,,58,19,32,22,7,9,0.4,0.4
2025-08-08T0000,1299A,116.9862,36.6114,济南市,科干所,,42,41,42,29,28,120,,195,158,18,22,7,7,0.7,0.7
2025-08-08T0000,1300A,116.9376,36.665,济南市,农科所,,32,32,48,15,23,86,,191,136,27,31,10,9,0.5,0.5
2025-08-08T0000,1301A,117.1265,36.6734,济南市,开发区,,39,39,40,22,27,82,,191,138,26,22,10,9,0.6,0.7
2025-08-08T0000,1303A,117.0624,36.6868,济南市,省种子仓库,,41,41,54,17,22,94,,194,153,20,30,7,6,0.7,0.8
2025-08-08T0000,1304A,116.9489,36.6447,济南市,机床二厂,,42,42,50,15,23,95,,194,143,28,27,11,10,0.5,0.6
2025-08-08T0000,1305A,117.0495,36.663,济南市,市监测站,,42,42,41,17,24,85,,179,132,27,23,10,9,0.8,0.8
2025-08-08T0000,1306A,116.7675,36.5484,济南市,长清党校,颗粒物(PM10),51,51,42,34,31,125,,198,153,22,20,6,6,0.9,0.8
2025-08-08T0000,1616A,117.6795,36.229,济南市,技术学院,,36,29,31,19,24,114,,166,157,17,16,8,8,0.8,0.8
2025-08-08T0000,1961A,117.532,36.6868,济南市,东山小学,,46,46,38,20,22,67,,181,122,27,20,10,7,0.5,0.5
2025-08-08T0000,3059A,117.7161,36.2049,济南市,泰兴公司,,32,29,31,22,23,101,,149,144,21,17,9,9,0.5,0.5
2025-08-08T0000,3064A,117.6867,36.2171,济南市,莱芜战役纪念馆,,34,31,32,22,23,106,,154,147,18,16,5,5,0.9,0.9
2025-08-08T0000,3494A,117.1673,36.9782,济南市,济阳区政府,,32,32,60,10,38,79,,171,127,15,14,6,7,0.4,0.6
2025-08-08T0000,3495A,117.1171,36.63,济南市,锦屏中学,颗粒物(PM10),52,54,33,22,21,90,,209,151,23,14,8,8,0.8,0.7
2025-08-08T0000,3682A,116.9814,36.6819,济南市,济南四建,,36,36,45,15,25,91,,195,140,27,31,8,7,0.8,0.8
2025-08-08T0000,1653A,116.6251,35.4302,济宁市,火炬城,,,31,34,9,18,129,,154,,3,9,3,5,,0.7
2025-08-08T0000,1655A,116.5491,35.4042,济宁市,电化厂,,44,20,34,9,19,138,,165,113,3,10,1,2,0.8,0.9
2025-08-08T0000,3500A,116.5814,35.3707,济宁市,北湖一中,,43,24,33,11,17,137,,163,114,2,7,1,3,0.4,0.4
2025-08-08T0000,3501A,116.8249,35.5593,济宁市,服务中心,,43,29,32,3,16,135,,173,134,6,13,2,2,0.3,0.4
2025-08-08T0000,3678A,116.5907,35.4054,济宁市,市第七中学,,36,26,33,12,14,115,,140,114,2,7,5,6,0.4,0.5
2025-08-08T0000,2255A,130.2751,46.8028,佳木斯市,佳纺,,24,24,14,10,5,0,,32,13,19,11,8,8,0.4,0.4
2025-08-08T0000,2256A,130.3995,46.8307,佳木斯市,发电厂,,17,17,13,3,5,6,,38,24,20,9,6,6,0.5,0.5
2025-08-08T0000,2257A,130.3258,46.7975,佳木斯市,环保局,,22,22,14,11,6,1,,34,16,26,12,10,9,0.5,0.5
2025-08-08T0000,2258A,130.3648,46.8032,佳木斯市,十一中,,18,18,12,8,4,8,,35,23,21,8,8,7,0.4,0.4
2025-08-08T0000,2259A,130.3794,46.7588,佳木斯市,四丰,,,,,,,4,,5,4,18,12,1,38,0.4,0.4
2025-08-08T0000,1252A,120.7436,30.778,嘉兴市,清河小学,,14,14,19,6,8,38,,97,63,16,17,5,5,0.3,0.4
2025-08-08T0000,1253A,120.726,30.7478,嘉兴市,嘉兴学院,,21,21,21,9,8,27,,103,60,24,19,4,4,0.6,0.5
2025-08-08T0000,2872A,120.7846,30.7525,嘉兴市,南湖区残联,,14,7,15,7,10,44,,106,72,14,15,5,5,0.4,0.5
2025-08-08T0000,3407A,120.6916,30.7739,嘉兴市,秀洲住建,,15,15,16,9,9,33,,100,64,23,17,5,5,0.5,0.5
2025-08-08T0000,1945A,98.2908,39.7711,嘉峪关市,气象局,,19,7,18,3,9,58,,104,84,12,12,7,25,0.8,1
2025-08-08T0000,2884A,98.2672,39.7978,嘉峪关市,酒钢宾馆,,29,29,25,14,13,78,,116,104,19,13,12,16,0.6,0.8
2025-08-08T0000,3248A,98.2643,39.7724,嘉峪关市,雄关区,,18,18,23,9,10,50,,99,84,29,17,5,8,0.4,0.6
2025-08-08T0000,1383A,113.1064,22.6058,江门市,北街,,32,32,26,8,13,4,,50,21,47,22,3,3,0.5,0.4
2025-08-08T0000,1384A,113.0731,22.5835,江门市,西区,,28,28,28,14,11,0,,56,21,44,20,6,6,0.5,0.6
2025-08-08T0000,1385A,113.0219,22.5311,江门市,圭峰西,,30,30,29,10,14,5,,56,24,38,16,6,6,0.6,0.6
2025-08-08T0000,1386A,113.0828,22.5947,江门市,东湖,,23,23,26,11,12,0,,51,16,38,17,7,7,0.5,0.4
2025-08-08T0000,3311A,113.1075,22.5647,江门市,江海富民,,38,38,44,18,15,2,,63,22,41,22,8,9,0.4,0.3
2025-08-08T0000,3449A,113.05,22.4667,江门市,新会银湖,,34,34,28,12,12,1,,51,20,37,19,2,1,0.6,0.5
2025-08-08T0000,1830A,113.1992,35.2590,焦作市,影视城,,,,20,,15,,,,,,5,,7,,0.7
2025-08-08T0000,3335A,113.3137,35.2641,焦作市,马村街道办,,,37,47,,28,,,125,,11,10,5,5,0.7,0.9
2025-08-08T0000,3336A,113.2465,35.2373,焦作市,焦作技师学院,,28,28,42,14,15,87,,119,101,54,25,3,3,1.2,0.9
2025-08-08T0000,3477A,113.1656,35.2539,焦作市,中站许衡医院,细颗粒物(PM2.5),57,41,42,40,28,82,,128,109,16,13,6,6,0.7,0.7
2025-08-08T0000,3981A,113.2449,35.1803,焦作市,原李万街道办,,35,35,40,17,20,77,,118,94,14,13,6,7,0.4,0.6
2025-08-08T0000,4264A,113.2340,35.2190,焦作市,新安路1731号,,40,40,40,16,19,91,,133,114,8,7,3,4,0.7,0.7
2025-08-08T0000,4295A,113.2722,35.2121,焦作市,人民路3066号,,42,29,42,29,24,66,,120,97,11,8,2,3,0.6,0.7
2025-08-08T0000,1708A,116.3701,23.5345,揭阳市,新兴,,40,40,34,15,16,23,,71,42,20,13,9,5,0.7,0.6
2025-08-08T0000,1709A,116.3264,23.5443,揭阳市,西马,,44,44,34,14,14,24,,62,42,16,12,3,4,0.6,0.5
2025-08-08T0000,1710A,116.3611,23.5626,揭阳市,东兴,,38,38,36,18,13,16,,64,40,20,10,6,4,0.8,0.7
2025-08-08T0000,1711A,116.4151,23.5294,揭阳市,渔湖,,37,37,37,22,15,21,,75,44,19,14,4,9,0.6,0.5
2025-08-08T0000,3320A,116.403,23.5699,揭阳市,曲溪,,32,30,34,22,14,19,,82,44,21,12,6,4,0.5,0.5
2025-08-08T0000,1944A,102.1692,38.5167,金昌市,天庆家园,,18,,17,12,10,47,,83,71,14,6,5,6,0.9,0.8
2025-08-08T0000,4022A,102.1647,38.5371,金昌市,金川区人防中心,,26,,20,18,10,50,,84,75,14,5,7,7,0.6,0.5
2025-08-08T0000,4239A,102.1930,38.5319,金昌市,长春路96号,,23,,19,16,10,39,,87,69,12,4,5,6,0.8,0.7
2025-08-08T0000,1262A,119.647,29.077,金华市,十五中,,25,25,25,7,10,39,,104,75,18,17,3,5,0.4,0.4
2025-08-08T0000,1263A,119.686,29.1029,金华市,监测站,,23,23,25,11,11,40,,106,76,16,15,4,6,0.4,0.4
2025-08-08T0000,3659A,119.656,29.1131,金华市,气象局,,33,33,24,14,7,38,,100,72,23,18,3,6,0.3,0.3
2025-08-08T0000,1767A,121.1115,41.0879,锦州市,南山,,21,21,20,6,11,14,,77,56,28,14,5,4,0.6,0.5
2025-08-08T0000,1768A,121.0604,40.8428,锦州市,开发区,,28,16,39,9,16,6,,76,48,55,27,10,16,0.9,0.9
2025-08-08T0000,1769A,121.1836,41.1119,锦州市,百股街道,,19,19,22,3,5,16,,78,51,27,16,6,8,0.7,0.6
2025-08-08T0000,1770A,121.1178,41.1222,锦州市,天安街道,,18,17,20,12,11,42,,78,59,22,18,10,10,0.6,0.6
2025-08-08T0000,1771A,121.1303,41.1386,锦州市,北湖公园,,14,6,18,3,9,44,,74,56,11,12,8,9,0.4,0.5
2025-08-08T0000,2160A,112.85,35.5051,晋城市,自来水公司,,38,33,59,17,27,120,,144,128,8,14,1,1,0.4,0.7
2025-08-08T0000,2161A,112.8318,35.4936,晋城市,白云商贸,,34,23,50,9,22,108,,138,129,5,11,3,3,0.5,0.8
2025-08-08T0000,2162A,112.8508,35.4887,晋城市,市环保局,,38,,48,17,25,119,,131,114,4,10,2,3,0.4,0.6
2025-08-08T0000,2163A,112.8676,35.4897,晋城市,技术学院,,36,30,43,12,21,113,,124,112,6,13,1,2,0.5,0.7
2025-08-08T0000,2165A,112.8453,35.546,晋城市,白马寺,,38,,38,25,36,120,,142,129,4,7,7,7,0.5,1.1
2025-08-08T0000,3620A,112.8271,35.4828,晋城市,泽州一中,,36,,48,17,24,114,,140,120,19,20,4,4,0.6,0.8
2025-08-08T0000,2173A,112.7249,37.7067,晋中市,南都小区,颗粒物(PM10),53,55,44,29,17,117,,145,136,9,14,3,5,0.6,0.5
2025-08-08T0000,2174A,112.6991,37.6982,晋中市,榆次区政府,,48,48,41,27,19,117,,147,136,8,15,5,6,0.7,0.6
2025-08-08T0000,2865A,112.7195,37.6828,晋中市,榆次三中,颗粒物(PM10),51,51,39,31,15,122,,148,139,6,11,5,6,0.7,0.6
2025-08-08T0000,4200A,112.7478,37.6954,晋中市,迎宾街26号,,44,44,34,24,13,128,,157,149,8,11,6,7,0.8,0.6
2025-08-08T0000,2439A,112.2014,31.0481,荆门市,竹园小学,,35,35,30,20,20,67,,88,,12,11,2,1,0.8,0.3
2025-08-08T0000,2440A,112.1969,30.9891,荆门市,掇刀,,28,22,29,19,20,72,,90,71,11,15,1,2,0.6,0.7
2025-08-08T0000,2441A,112.2213,31.0386,荆门市,石化一小,,33,31,31,20,24,104,,56,,19,14,6,5,1.3,1.4
2025-08-08T0000,3012A,112.1849,31.0362,荆门市,西山林语,,25,25,26,14,17,62,,79,56,5,7,7,7,0.4,0.5
2025-08-08T0000,3547A,112.1632,31.0138,荆门市,龙泉中学南校,,25,17,21,17,17,73,,89,66,12,12,3,3,0.7,0.8
2025-08-08T0000,1844A,112.2494,30.3197,荆州市,市图书馆,,27,18,18,12,12,84,,92,87,6,6,2,3,0.6,0.6
2025-08-08T0000,1845A,112.2008,30.3544,荆州市,市委党校,,28,27,21,19,12,83,,92,84,13,12,7,7,0.6,0.6
2025-08-08T0000,3194A,112.2747,30.3122,荆州市,管委会,,28,,19,19,12,77,,87,82,7,8,5,5,0.6,0.6
2025-08-08T0000,4268A,112.1722,30.3366,荆州市,学苑路85号,,32,25,19,22,18,91,,96,93,9,8,5,5,0.5,0.5
2025-08-08T0000,2342A,117.3102,29.3867,景德镇市,王港中学,,,,,,,,,,,,,,,,
2025-08-08T0000,2343A,117.2117,29.2933,景德镇市,老干部活动中心,,25,25,12,7,5,15,,65,48,20,5,6,7,0.5,0.4
2025-08-08T0000,2344A,117.1894,29.2789,景德镇市,兽医站,,28,28,19,8,8,12,,64,43,21,15,6,10,0.9,0.8
2025-08-08T0000,2346A,117.2461,29.2956,景德镇市,陶研所,,22,22,18,12,8,22,,67,44,9,7,8,8,0.6,0.6
2025-08-08T0000,4289A,117.1542,29.2566,景德镇市,青少年活动中心,,19,18,15,13,9,16,,68,46,24,8,12,7,0.8,0.7
2025-08-08T0000,1803A,115.9872,29.6815,九江市,十里,,16,,12,11,12,51,,76,59,7,9,4,4,0.5,0.5
2025-08-08T0000,1804A,115.9584,29.7046,九江市,茅山头,,15,,11,9,8,47,,76,57,1,3,5,4,0.6,0.6
2025-08-08T0000,1805A,115.9877,29.7295,九江市,西园,,19,10,12,3,6,59,,92,70,6,11,6,7,0.6,0.7
2025-08-08T0000,1808A,115.9114,29.6038,九江市,综合工业园,,19,10,11,3,4,60,,81,69,6,7,6,6,0.7,0.6
2025-08-08T0000,1809A,116.0721,29.7535,九江市,石化总厂,,35,,15,24,18,56,,82,68,9,7,6,7,0.5,0.5
2025-08-08T0000,1810A,115.9773,29.5698,九江市,庐山气象台,,18,6,8,3,3,57,,66,62,2,4,6,6,0.7,0.8
2025-08-08T0000,3190A,116.0254,29.6994,九江市,外国语学校,,18,11,12,8,8,55,,75,62,5,7,5,4,0.5,0.5
2025-08-08T0000,4253A,116.0102,29.6594,九江市,莲花大道8号,,15,14,9,6,5,45,,68,54,1,3,4,4,0.5,0.5
2025-08-08T0000,4240A,98.4958,39.7339,酒泉市,玉门东路5号,,44,44,25,21,21,59,,94,73,19,10,10,10,0.7,0.3
2025-08-08T0000,4241A,98.5099,39.7506,酒泉市,北大街108号,,41,41,19,20,16,53,,98,,13,9,10,11,0.4,0.2
2025-08-08T0000,2698A,76.0072,39.4467,喀什地区,巡警大队,颗粒物(PM10),123,196,126,68,33,47,,117,106,53,23,3,3,0.9,0.4
2025-08-08T0000,2699A,75.9755,39.4694,喀什地区,吾办,颗粒物(PM10),235,374,150,147,50,30,,113,99,61,25,6,6,0.7,0.4
2025-08-08T0000,4027A,75.9483,39.4689,喀什地区,老干局,颗粒物(PM10),103,156,120,39,30,74,,120,111,32,22,4,5,0.6,0.6
2025-08-08T0000,1824A,114.3389,34.7781,开封市,肿瘤医院,,34,34,34,13,15,81,,137,114,17,16,3,3,0.6,0.6
2025-08-08T0000,1826A,114.2885,34.7965,开封市,世纪星幼儿园,,31,31,30,3,16,89,,126,105,13,13,2,2,0.8,0.8
2025-08-08T0000,3147A,114.3438,34.8106,开封市,龙亭公园,,33,33,28,9,16,74,,100,95,10,9,2,3,0.7,0.8
2025-08-08T0000,3210A,114.3644,34.7964,开封市,汴京公园,,36,36,36,12,21,95,,138,125,7,9,2,3,0.5,0.6
2025-08-08T0000,3473A,114.2485,34.8306,开封市,技师学院,,29,29,29,11,19,74,,105,99,10,10,4,4,0.6,0.8
2025-08-08T0000,3592A,114.4644,34.7556,开封市,祥符区生态环境局,,32,32,26,12,17,46,,108,92,41,18,4,5,0.6,0.7
2025-08-08T0000,1951A,84.895,45.6094,克拉玛依市,长征新村,,43,43,24,21,11,70,,122,106,22,12,4,4,0.4,0.3
2025-08-08T0000,1952A,84.8988,45.5893,克拉玛依市,南林小区,,46,46,29,26,15,43,,127,86,35,18,5,5,0.2,0.1
2025-08-08T0000,1954A,84.905,44.3396,克拉玛依市,独山子区,,32,32,31,15,14,91,,134,119,18,15,11,10,0.6,0.7
2025-08-08T0000,1955A,85.6979,46.098,克拉玛依市,乌尔禾区商贸楼,,,,28,,7,,,101,76,14,13,6,6,0.3,0.4
2025-08-08T0000,3612A,85.1045,45.6899,克拉玛依市,白碱滩区新站,,35,30,38,20,13,112,,132,127,6,12,8,9,0,0
2025-08-08T0000,2697A,76.1454,39.7142,克孜勒苏柯尔克孜自治州,市人民政府,颗粒物(PM10),110,170,112,57,46,75,,125,109,24,14,5,7,0.3,0.1
2025-08-08T0000,3665A,76.1658,39.7157,克孜勒苏柯尔克孜自治州,克州文化中心,细颗粒物(PM2.5),127,174,120,96,55,74,,123,111,34,15,5,9,0.5,0.5
2025-08-08T0000,1450A,102.8204,24.8886,昆明市,呈贡新区,,13,,9,6,9,41,,83,50,6,13,5,4,0.3,0.4
2025-08-08T0000,1451A,102.6251,24.9608,昆明市,西山森林公园,,,,,,,,,,,,,,,,
2025-08-08T0000,1452A,102.7252,25.0902,昆明市,龙泉镇,,12,12,17,6,9,33,,97,54,8,16,2,2,0.3,0.4
2025-08-08T0000,1453A,102.7266,25.0375,昆明市,东风东路,,12,7,12,3,9,37,,95,54,8,12,4,3,0.3,0.3
2025-08-08T0000,1454A,102.6742,25.0669,昆明市,金鼎山,,10,10,16,3,6,30,,92,50,8,9,2,2,0.2,0.3
2025-08-08T0000,1455A,102.6644,25.0401,昆明市,碧鸡广场,,12,8,12,8,7,26,,81,45,14,13,8,7,0.4,0.4
2025-08-08T0000,3179A,102.7494,25.0119,昆明市,官渡区博物馆,,13,,13,8,9,41,,88,53,5,18,3,2,0.3,0.4
2025-08-08T0000,3375A,102.8017,24.8336,昆明市,青年创业园,,13,6,13,3,8,39,,90,46,4,14,1,3,0.3,0.4
2025-08-08T0000,3550A,102.7997,24.9786,昆明市,昆明学院,,14,6,16,3,10,43,,87,53,6,18,5,6,0.2,0.3
2025-08-08T0000,3551A,102.5967,24.6736,昆明市,晋宁区生态环境分局,,13,13,19,3,6,39,,67,43,3,8,1,3,0.3,0.4
2025-08-08T0000,3552A,102.6678,24.9856,昆明市,云天化总部,,11,6,12,3,8,34,,77,50,8,13,3,4,0.3,0.2
2025-08-08T0000,1456A,91.1319,29.6514,拉萨市,八廓街,,27,9,15,6,8,84,,102,93,13,12,6,10,0.3,0.3
2025-08-08T0000,1457A,91.1221,29.6747,拉萨市,市环保局,,26,9,16,9,8,81,,102,92,13,12,6,10,0.1,0.1
2025-08-08T0000,1458A,91.0874,29.6475,拉萨市,区监测站,,25,7,12,3,7,77,,97,91,21,15,4,7,0.3,0.3
2025-08-08T0000,1459A,91.1774,29.6541,拉萨市,西藏大学,,26,11,12,7,6,81,,98,90,12,11,5,10,0.2,0.2
2025-08-08T0000,1460A,90.9798,29.6588,拉萨市,区辐射站,,21,10,22,10,10,67,,85,79,19,24,4,6,0.4,0.4
2025-08-08T0000,1461A,91.0834,29.6292,拉萨市,拉萨火车站,,24,9,12,8,7,74,,100,93,19,14,5,6,0.4,0.4
2025-08-08T0000,2520A,109.2203,23.7256,来宾市,来宾技工学校,,27,27,19,9,7,34,,56,44,11,8,7,9,0.5,0.6
2025-08-08T0000,3535A,109.1781,23.7297,来宾市,兴宾区政府,,22,22,15,9,8,36,,57,49,10,7,8,6,0.7,0.7
2025-08-08T0000,4002A,109.2416,23.7461,来宾市,中南小学,,26,26,19,13,7,30,,57,46,12,9,10,11,0.5,0.4
2025-08-08T0000,1477A,104.1373,35.9454,兰州市,榆中兰大校区,,,,,,,,,,,,,,,,
2025-08-08T0000,1479A,103.831,36.0464,兰州市,铁路设计院,,25,25,41,14,22,71,,98,75,20,23,8,10,0.5,0.6
2025-08-08T0000,3241A,103.7439,36.0842,兰州市,百合公园,,32,32,36,17,20,61,,90,72,11,18,3,5,0.3,0.5
2025-08-08T0000,3242A,103.9611,35.998,兰州市,和平,,28,17,42,16,23,88,,111,92,6,13,12,13,0.4,0.5
2025-08-08T0000,4236A,103.6293,36.0938,兰州市,庄浪东路808号,,39,39,47,13,22,56,,102,75,20,21,10,11,0.5,0.5
2025-08-08T0000,4237A,103.7251,36.1043,兰州市,安宁西路88号,,30,28,40,21,23,74,,113,93,8,11,5,5,0.4,0.4
2025-08-08T0000,4238A,103.8470,36.0676,兰州市,北滨河东路1号,,32,31,34,22,25,70,,104,83,22,23,7,10,0.5,0.5
2025-08-08T0000,3245A,103.6633,36.533,兰州新区,新区管委会,,31,25,34,9,19,99,,105,98,4,7,7,12,0.4,0.5
2025-08-08T0000,3246A,103.6975,36.4789,兰州新区,舟曲中学,,,,,,,,,,,,,,,,
2025-08-08T0000,1067A,116.6708,39.5111,廊坊市,药材公司,,37,37,35,25,22,89,,144,128,20,13,5,4,0.6,0.6
2025-08-08T0000,1068A,116.7214,39.5589,廊坊市,开发区,,41,41,37,24,22,105,,145,121,16,12,4,4,0.6,0.7
2025-08-08T0000,1070A,116.7244,39.5269,廊坊市,北华航天学院,颗粒物(PM10),51,52,49,26,23,98,,152,131,16,12,4,3,0.6,0.6
2025-08-08T0000,2919A,116.7022,39.5453,廊坊市,河北工业大学,颗粒物(PM10),55,59,52,20,20,107,,153,137,13,12,4,4,0.6,0.6
2025-08-08T0000,2535A,103.7723,29.5462,乐山市,花湖湾,,45,35,17,31,15,59,,109,102,25,9,1,2,0.8,0.7
2025-08-08T0000,2536A,103.7627,29.5844,乐山市,牛耳桥,,40,36,20,28,19,43,,138,110,26,12,4,4,0.8,0.7
2025-08-08T0000,2537A,103.7508,29.6006,乐山市,市第三水厂,,35,31,19,24,16,90,,132,122,19,8,3,3,0.8,0.7
2025-08-08T0000,2538A,103.7571,29.5664,乐山市,市监测站,,,,19,26,17,87,,120,112,17,8,4,4,,0.8
2025-08-08T0000,3361A,103.7311,29.5628,乐山市,理工大学,,46,41,19,32,15,64,,135,116,22,9,6,6,0.8,0.7
2025-08-08T0000,2598A,100.2143,26.8576,丽江市,西南郊,,,,,,,,,,,,,,,,
2025-08-08T0000,2599A,100.2497,26.8802,丽江市,丽江古城,,36,36,19,14,9,41,,99,76,20,12,8,9,0.6,0.5
2025-08-08T0000,2600A,100.2203,26.8906,丽江市,市中心,,19,19,14,11,10,40,,97,75,16,15,9,9,0.5,0.5
2025-08-08T0000,1267A,119.914,28.4514,丽水市,监测站大楼,,21,21,17,8,8,8,,60,27,19,12,4,4,0.4,0.4
2025-08-08T0000,1268A,119.93,28.4586,丽水市,莲都小学,,19,19,18,6,5,16,,62,31,15,10,3,3,0.3,0.3
2025-08-08T0000,1269A,119.879,28.4231,丽水市,余庄前,,20,19,15,14,9,1,,56,22,14,8,4,4,0.3,0.3
2025-08-08T0000,1173A,119.176,34.5885,连云港市,市环境监测站,,29,27,30,17,18,91,,149,112,7,8,3,2,0.5,0.6
2025-08-08T0000,3000A,119.3581,34.6972,连云港市,德源药业,,30,14,35,9,19,93,,140,105,11,16,4,3,0.7,0.8
2025-08-08T0000,3007A,119.178,34.844,连云港市,新城一中,,30,26,36,12,24,96,,156,113,10,9,3,3,0.8,1
2025-08-08T0000,3008A,119.3608,34.7519,连云港市,胡沟管理处,,27,17,27,7,19,86,,145,91,24,22,8,8,0.7,0.8
2025-08-08T0000,3009A,119.1478,34.5911,连云港市,矿山设计院,,29,29,32,19,23,91,,143,109,6,9,4,4,0.5,0.7
2025-08-08T0000,3434A,119.2413,34.6539,连云港市,工贸学校,,40,31,30,28,26,91,,147,113,10,12,5,5,0.8,0.8
2025-08-08T0000,3664A,119.4172,34.7341,连云港市,连云街道,,20,20,35,14,22,51,,176,72,2,13,2,2,0.7,0.8
2025-08-08T0000,2571A,102.3431,27.8099,凉山彝族自治州,青龙寺,,26,26,19,9,8,47,,97,71,8,6,6,7,0.4,0.5
2025-08-08T0000,2572A,102.2721,27.8415,凉山彝族自治州,邛海宾馆,,29,29,28,14,15,60,,104,77,14,16,10,11,0.7,0.6
2025-08-08T0000,2573A,102.2625,27.898,凉山彝族自治州,西昌市政府,,18,14,23,3,15,57,,116,74,6,10,7,11,0.4,0.7
2025-08-08T0000,2574A,102.2685,27.8851,凉山彝族自治州,凉山州政府,,22,22,28,14,22,67,,119,80,12,18,10,13,1.1,1.2
2025-08-08T0000,4229A,102.2342,27.8859,凉山彝族自治州,凯乐南路30号,,26,26,32,15,15,61,,126,78,16,18,10,14,0.9,0.9
2025-08-08T0000,2212A,123.2,41.1953,辽阳市,宏伟区,,23,23,22,14,10,14,,113,49,17,12,3,4,0.8,0.7
2025-08-08T0000,2213A,123.1683,41.2495,辽阳市,新华园,,37,37,30,17,14,20,,119,63,25,19,5,6,0.6,0.7
2025-08-08T0000,2214A,123.2354,41.2639,辽阳市,滨河路,,36,36,34,16,13,7,,114,37,25,17,4,5,0.6,0.7
2025-08-08T0000,2215A,123.149,41.2991,辽阳市,铁西工业园,,44,44,45,30,19,15,,101,48,24,21,4,7,0.8,1.2
2025-08-08T0000,2227A,125.1358,42.8845,辽源市,环保局,,33,33,25,3,5,12,,82,47,14,9,6,7,0.4,0.4
2025-08-08T0000,3239A,125.0764,42.9078,辽源市,银鹰制药,,21,21,15,7,8,6,,83,44,22,12,8,9,0.5,0.4
2025-08-08T0000,1625A,115.9848,36.4372,聊城市,区政府,细颗粒物(PM2.5),55,53,48,39,37,115,,177,151,16,14,6,6,1.1,1
2025-08-08T0000,2878A,116.0072,36.4343,聊城市,聊大东校,颗粒物(PM10),53,56,52,31,34,115,,176,153,13,17,6,5,0.9,1
2025-08-08T0000,3200A,115.9819,36.4978,聊城市,监控中心,颗粒物(PM10),54,57,46,36,27,90,,174,133,19,18,5,5,0.5,0.4
2025-08-08T0000,3513A,116.0445,36.4361,聊城市,九州社区,颗粒物(PM10),55,60,52,35,34,111,,170,152,14,18,1,3,0.6,0.6
2025-08-08T0000,4018A,116.0567,36.4608,聊城市,星美广场,"颗粒物(PM10),细颗粒物(PM2.5)",52,53,51,36,35,105,,172,142,16,20,2,2,0.8,0.9
2025-08-08T0000,2632A,94.3681,29.6376,林芝市,林芝监测站,,20,6,6,3,5,61,,66,66,1,2,4,5,0.3,0.3
2025-08-08T0000,2633A,94.3616,29.6616,林芝市,林芝人民医院,,19,8,10,3,5,59,,68,67,2,2,5,6,0.5,0.5
2025-08-08T0000,2603A,100.0781,23.8982,临沧市,市环保局,,32,,17,22,14,11,,58,34,12,7,6,7,0.6,0.5
2025-08-08T0000,2604A,100.0894,23.8822,临沧市,市气象局,,21,21,16,9,12,25,,52,34,9,9,9,9,0.4,0.4
2025-08-08T0000,1733A,111.5531,36.0783,临汾市,临钢医院,,33,28,35,17,13,104,,159,120,9,25,6,7,0.7,0.8
2025-08-08T0000,1734A,111.5028,36.0714,临汾市,技工学校,,44,44,40,27,25,97,,170,126,11,14,8,9,0.8,0.8
2025-08-08T0000,1736A,111.5018,36.0855,临汾市,市委,,37,37,48,15,13,107,,182,137,11,14,6,8,0.9,0.9
2025-08-08T0000,3018A,111.505,36.1014,临汾市,唐尧大酒店,颗粒物(PM10),51,51,54,17,14,108,,167,128,9,16,3,3,0.7,0.8
2025-08-08T0000,4244A,111.4879,36.0530,临汾市,启星学校,,46,32,37,32,27,79,,169,119,16,16,5,6,1.0,0.9
2025-08-08T0000,4271A,103.2464,35.6123,临夏回族自治州,滨河东路1号,,44,44,38,7,26,66,,55,46,5,19,5,5,0.4,0.4
2025-08-08T0000,4310A,103.2093,35.5995,临夏回族自治州,新华街21号,,37,37,27,16,24,65,,65,54,7,15,5,6,0.3,0.4
2025-08-08T0000,1618A,118.3429,35.0532,临沂市,沂河小区,,36,29,48,25,34,86,,185,118,8,16,7,10,0.4,0.7
2025-08-08T0000,1619A,118.295,35.0583,临沂市,鲁南制药厂,,38,,44,26,31,94,,194,127,6,13,7,9,0.6,0.9
2025-08-08T0000,1620A,118.2794,34.9976,临沂市,新光毛纺厂,,35,,38,24,28,94,,191,125,7,18,6,8,0.4,0.7
2025-08-08T0000,1621A,118.3956,35.0888,临沂市,河东保险公司,,29,29,44,14,27,85,,181,116,9,15,5,7,0.2,0.6
2025-08-08T0000,3370A,118.3564,35.0215,临沂市,十里堡居委,,30,22,42,19,32,94,,187,122,5,13,8,10,0.4,0.8
2025-08-08T0000,3496A,118.3604,35.1084,临沂市,南坊新区,,29,29,46,12,25,89,,191,122,7,17,7,8,0.4,0.7
2025-08-08T0000,3860A,118.3920,35.0300,临沂市,皇山花园小区,,30,24,42,19,27,96,,184,118,6,15,7,8,0.5,0.8
2025-08-08T0000,1870A,109.4856,24.3895,柳州市,柳东小学,,19,19,17,11,8,45,,71,57,7,5,4,4,0.5,0.5
2025-08-08T0000,1871A,109.4157,24.3277,柳州市,环保监测站,,21,21,16,8,9,42,,66,51,8,7,7,7,0.5,0.5
2025-08-08T0000,1872A,109.389,24.341,柳州市,河西水厂,,32,32,19,6,9,39,,68,52,11,9,4,4,0.5,0.5
2025-08-08T0000,1873A,109.4311,24.2921,柳州市,市四中,,15,15,19,10,10,40,,65,49,12,10,7,6,0.5,0.6
2025-08-08T0000,1874A,109.4006,24.3631,柳州市,市九中,,26,26,22,15,10,38,,65,50,10,8,5,4,0.4,0.3
2025-08-08T0000,1875A,109.4958,24.3134,柳州市,古亭山,,18,18,20,3,8,37,,65,51,12,10,5,5,0.7,0.7
2025-08-08T0000,3402A,109.5422,24.3996,柳州市,市二中,,15,,16,9,8,48,,69,56,7,8,23,9,0.5,0.6
2025-08-08T0000,2307A,116.5079,31.737,六安市,监测大楼,,15,,17,10,12,41,,69,41,12,9,5,4,0.3,0.4
2025-08-08T0000,2308A,116.4738,31.7643,六安市,皖西学院,,15,15,19,7,11,41,,69,44,4,6,2,2,0.3,0.3
2025-08-08T0000,2309A,116.4996,31.7905,六安市,朝阳厂,,19,19,15,11,12,40,,69,40,8,10,6,6,0.4,0.4
2025-08-08T0000,2310A,116.5567,31.7886,六安市,开发区,,23,,11,16,12,27,,64,38,10,9,2,2,0.4,0.4
2025-08-08T0000,2576A,104.8,26.5892,六盘水市,窑上,,9,9,23,3,5,23,,97,54,3,6,1,2,0.6,0.7
2025-08-08T0000,2577A,104.83,26.5917,六盘水市,黄土坡,,16,16,14,3,7,40,,97,73,12,10,8,10,0.4,0.4
2025-08-08T0000,2578A,104.89,26.5939,六盘水市,水钢,,19,15,21,13,13,56,,93,77,11,13,8,13,0.6,0.7
2025-08-08T0000,2579A,104.8475,26.5894,六盘水市,民中,,23,17,15,3,6,73,,96,82,6,11,8,10,0.4,0.5
2025-08-08T0000,2580A,104.9544,26.5506,六盘水市,双水,,23,12,12,3,6,71,,90,79,9,8,6,6,0.6,0.4
2025-08-08T0000,2335A,117.0189,25.1181,龙岩市,龙岩师专,,,,,,,,,,,,,,,,
2025-08-08T0000,2336A,117.0217,25.1033,龙岩市,龙岩市监测站,,21,21,23,11,10,12,,57,39,22,10,4,6,0.7,0.5
2025-08-08T0000,2337A,117.0258,25.0661,龙岩市,闽西职业技术学院,,23,23,25,11,7,28,,55,40,6,7,6,7,0.4,0.4
2025-08-08T0000,2338A,117.0196,25.0306,龙岩市,龙岩学院,,39,,21,27,9,20,,56,40,11,6,5,5,0.8,0.7
2025-08-08T0000,2665A,105.0822,33.3261,陇南市,汉王镇固水子,,,,,,,,,,,,,,,,
2025-08-08T0000,2885A,104.9339,33.3826,陇南市,滨江中学,,44,44,30,17,14,59,,80,70,2,5,6,6,0.6,0.7
2025-08-08T0000,3247A,104.955,33.371,陇南市,市总工会,,36,36,33,11,11,65,,92,78,4,7,6,6,0.4,0.5
2025-08-08T0000,2487A,111.9589,27.8901,娄底市,电视发射台,,14,14,17,3,7,12,,57,32,4,6,3,4,0.3,0.3
2025-08-08T0000,2488A,111.9975,27.725,娄底市,市监测站,,16,13,13,11,8,39,,62,50,6,6,7,7,0.5,0.5
2025-08-08T0000,2489A,112.0194,27.7314,娄底市,市委党校,,19,19,14,9,8,49,,73,60,5,6,3,2,0.5,0.5
2025-08-08T0000,2490A,111.9561,27.7569,娄底市,涟钢,,34,34,25,17,12,19,,49,34,16,11,23,40,0.8,1.3
2025-08-08T0000,2491A,111.9892,27.7044,娄底市,市政府,,20,,14,14,9,40,,67,54,1,2,6,5,0.1,0.1
2025-08-08T0000,1893A,105.4324,28.9634,泸州市,九狮山,,50,44,32,35,25,32,,110,65,16,10,1,2,0.6,0.5
2025-08-08T0000,1894A,105.4427,28.9063,泸州市,小市上码头,,39,39,24,18,12,15,,97,76,20,10,3,2,0.4,0.3
2025-08-08T0000,1895A,105.4241,28.8573,泸州市,兰田宪桥,,26,22,23,18,10,35,,117,88,17,9,8,7,0.7,0.6
2025-08-08T0000,1896A,105.4379,28.8833,泸州市,市环监站,,29,29,23,20,14,70,,115,98,16,13,5,5,0.5,0.5
2025-08-08T0000,4272A,105.3689,28.7783,泸州市,纳溪中医医院,,38,32,20,26,17,41,,110,82,32,16,6,6,0.7,0.6
2025-08-08T0000,2183A,111.1406,37.5211,吕梁市,环保局,颗粒物(PM10),63,76,44,14,15,9,,133,,58,24,2,3,0.6,0.6
2025-08-08T0000,2185A,111.1297,37.5136,吕梁市,自来水公司,颗粒物(PM10),54,57,47,23,17,35,,128,85,40,18,5,6,0.6,0.6
2025-08-08T0000,2867A,111.1283,37.51,吕梁市,马茂庄小学,颗粒物(PM10),58,65,47,15,16,23,,127,79,51,24,2,3,0.6,0.6
2025-08-08T0000,1812A,112.3931,34.6516,洛阳市,市委党校,,26,15,30,9,9,83,,94,76,2,10,3,3,0.3,0.5
2025-08-08T0000,1815A,112.494,34.6886,洛阳市,河南林校,,28,22,35,3,21,88,,115,90,9,14,10,8,0.3,0.5
2025-08-08T0000,1816A,112.3844,34.623,洛阳市,开发区管委会,,23,8,26,3,22,73,,38,,4,8,6,9,0.6,0.8
2025-08-08T0000,1817A,112.4267,34.6258,洛阳市,市委新办公区,,30,8,27,8,23,94,,109,88,6,12,7,8,0.5,0.7
2025-08-08T0000,3340A,112.6005,34.6326,洛阳市,伊滨,,30,13,23,6,19,94,,97,78,5,14,6,6,0.7,0.8
2025-08-08T0000,3341A,112.4951,34.6332,洛阳市,中移产业园,,25,14,32,6,23,77,,86,71,9,13,10,7,0.7,0.6
2025-08-08T0000,3593A,112.5736,34.8993,洛阳市,吉利监测站,,30,30,50,11,32,36,,108,66,14,13,4,5,0.6,0.8
2025-08-08T0000,3635A,112.3677,34.662,洛阳市,河科大西苑校区,,30,12,38,10,20,93,,92,84,8,16,7,7,0.4,0.5
2025-08-08T0000,3636A,112.4388,34.6781,洛阳市,英才小学,,32,13,36,9,24,100,,96,83,6,16,8,9,0.8,1
2025-08-08T0000,4214A,112.4600,34.6949,洛阳市,春都路1号院,,28,11,31,3,17,88,,105,79,9,15,8,6,0.6,0.8
2025-08-08T0000,2399A,114.051,33.5699,漯河市,三五一五工厂,,29,9,19,7,14,90,,119,98,7,11,4,5,0.6,0.6
2025-08-08T0000,2400A,114.0055,33.5698,漯河市,漯河大学,,29,6,21,3,11,92,,123,99,6,10,4,4,0.5,0.5
2025-08-08T0000,2401A,114.0138,33.5828,漯河市,市水利局,,29,,20,3,14,90,,116,96,4,8,4,4,0.6,0.6
2025-08-08T0000,2402A,114.0261,33.5698,漯河市,市广电局,,31,,13,10,18,97,,130,106,4,7,2,2,0.5,0.6
2025-08-08T0000,3478A,113.9749,33.5664,漯河市,市图书馆,,27,9,19,6,13,86,,120,93,6,7,3,3,0.4,0.4
2025-08-08T0000,4250A,114.0892,33.5882,漯河市,韶山路11号,,30,,15,3,13,94,,120,100,6,11,2,2,0.5,0.6
2025-08-08T0000,1798A,118.5092,31.6837,马鞍山市,湖东路四小,,26,26,23,15,13,31,,111,72,22,13,6,7,0.5,0.6
2025-08-08T0000,1799A,118.5024,31.6449,马鞍山市,开发区,,21,21,26,9,11,30,,115,68,23,18,7,8,0.4,0.5
2025-08-08T0000,1802A,118.6245,31.7241,马鞍山市,濮塘,,28,21,25,19,13,15,,119,62,16,12,7,6,0.7,0.8
2025-08-08T0000,3633A,118.4918,31.6809,马鞍山市,雨山,,26,26,24,17,11,28,,100,67,25,17,9,9,0.5,0.6
2025-08-08T0000,4191A,118.5274,31.72227,马鞍山市,慈湖高新区,,26,26,25,12,8,26,,104,70,28,17,8,8,0.6,0.6
2025-08-08T0000,1686A,111.0286,21.4688,茂名市,电白南海,,29,29,36,12,20,46,,59,54,5,6,2,2,0.3,0.4
2025-08-08T0000,1687A,110.9294,21.6533,茂名市,茂石化七小,,36,36,38,17,16,36,,53,47,10,8,4,4,0.4,0.4
2025-08-08T0000,1688A,110.9107,21.6687,茂名市,健康路,,34,34,34,7,15,47,,62,58,8,9,3,5,0.5,0.5
2025-08-08T0000,1689A,110.8592,21.6828,茂名市,高岭,,39,39,39,9,9,43,,55,47,14,13,7,6,0.4,0.4
2025-08-08T0000,3450A,111.01,21.5165,茂名市,电白水东,,22,22,27,12,13,51,,65,62,7,7,3,3,0.6,0.6
2025-08-08T0000,2539A,104.0308,30.0478,眉山市,黑龙滩水库,,,,30,17,15,,,,,11,6,3,3,0.3,0.2
2025-08-08T0000,2540A,103.8416,30.0874,眉山市,气象局,,50,50,29,17,12,50,,135,111,34,13,7,8,0.6,0.6
2025-08-08T0000,3137A,103.8578,30.0744,眉山市,市委党校,,27,27,18,12,12,81,,135,119,18,10,7,8,0.5,0.7
2025-08-08T0000,3148A,103.8291,30.0564,眉山市,区人社局,,39,39,31,14,7,77,,142,122,23,14,6,8,1.1,1.1
2025-08-08T0000,1690A,116.1231,24.3284,梅州市,梅江月梅,,25,25,24,15,9,20,,61,39,19,12,11,9,0.5,0.5
2025-08-08T0000,1691A,116.0797,24.2719,梅州市,梅县新城,,18,17,22,12,8,28,,60,46,14,8,6,6,0.4,0.5
2025-08-08T0000,1692A,116.1248,24.2654,梅州市,环境监控中心,,22,22,30,11,6,22,,50,30,16,12,3,3,0.6,0.6
2025-08-08T0000,3315A,116.1233,24.2991,梅州市,梅龙,,27,27,22,13,12,22,,58,42,21,8,9,7,0.5,0.4
2025-08-08T0000,1878A,104.7778,31.4741,绵阳市,富乐山,,12,12,18,6,13,17,,94,64,20,10,8,8,0.7,0.6
2025-08-08T0000,1880A,104.6697,31.4668,绵阳市,高新区自来水公司,,14,13,15,9,7,42,,95,72,25,14,8,8,0.6,0.6
2025-08-08T0000,1881A,104.7287,31.5075,绵阳市,三水厂,,24,24,19,14,13,5,,102,62,44,16,7,6,0.5,0.5
2025-08-08T0000,3491A,104.69,31.5322,绵阳市,西科大附属小学,,19,18,19,9,11,23,,100,57,38,18,8,8,0.5,0.5
2025-08-08T0000,3492A,104.5648,31.5343,绵阳市,安州区旅游局,,18,18,17,7,6,31,,100,77,12,7,10,10,0.2,0.2
2025-08-08T0000,4226A,104.7651,31.4531,绵阳市,绵阳市气象局,,16,16,17,10,11,41,,100,84,23,10,8,9,0.5,0.5
2025-08-08T0000,1784A,129.61,44.561,牡丹江市,环保大楼,,25,25,14,10,9,6,,47,18,10,15,3,3,0.2,0.2
2025-08-08T0000,1785A,129.6115,44.5782,牡丹江市,文化广场,,28,,13,19,16,6,,44,16,12,17,7,7,0.5,0.5
2025-08-08T0000,1786A,129.5904,44.5963,牡丹江市,第一医院,,25,25,19,13,15,2,,47,19,15,16,7,7,0.4,0.4
2025-08-08T0000,1787A,129.6364,44.6075,牡丹江市,机车工厂,,24,24,22,14,11,2,,45,14,12,12,5,5,0.4,0.4
2025-08-08T0000,1788A,129.6386,44.5462,牡丹江市,第一中学,,15,15,18,3,12,3,,44,8,10,13,4,5,0.2,0.2
2025-08-08T0000,2531A,105.0703,29.61,内江市,市监测站,,30,30,21,20,18,84,,137,117,8,8,1,2,0.5,0.6
2025-08-08T0000,2532A,105.0717,29.5947,内江市,东兴区政府,,26,26,19,9,10,68,,128,109,14,9,8,8,0.7,0.7
2025-08-08T0000,2533A,105.0653,29.5817,内江市,内江二中,,39,30,23,27,21,58,,134,111,15,11,3,3,0.7,0.7
2025-08-08T0000,2534A,105.0406,29.5822,内江市,内江日报社,,35,,16,24,18,65,,149,122,25,11,6,6,0.6,0.6
2025-08-08T0000,2628A,92.0657,31.4846,那曲市,那曲监测站,,19,17,33,7,16,60,,82,74,17,15,6,7,0.4,0.4
2025-08-08T0000,4243A,92.0515,31.4787,那曲市,那曲市委宣传部,,23,11,15,7,8,72,,94,87,8,11,4,4,0.2,0.2
2025-08-08T0000,1290A,115.8931,28.6843,南昌市,省外办,,28,22,15,19,10,30,,72,53,18,7,11,6,0.3,0.3
2025-08-08T0000,1291A,115.8886,28.7003,南昌市,省林业公司,颗粒物(PM10),65,80,11,17,7,35,,75,58,15,7,9,3,0.5,0.4
2025-08-08T0000,1292A,115.8126,28.7442,南昌市,林科所,,10,7,8,7,4,29,,74,54,20,9,7,8,0.2,0.2
2025-08-08T0000,1294A,115.8518,28.687,南昌市,建工学校,,13,,17,9,10,37,,74,56,16,11,7,6,0.6,0.4
2025-08-08T0000,1295A,115.8921,28.6424,南昌市,象湖,,11,9,10,7,5,35,,77,56,17,8,11,7,0.4,0.4
2025-08-08T0000,1296A,115.7423,28.7996,南昌市,武术学校,,19,,12,13,10,16,,60,33,9,9,6,8,0.4,0.4
2025-08-08T0000,3046A,115.9084,28.6062,南昌市,机电学校,,18,18,14,9,5,19,,74,49,16,5,4,5,0.6,0.5
2025-08-08T0000,3690A,115.9721,28.7031,南昌市,外国语学校,,18,18,16,3,7,33,,80,56,17,9,7,6,0.4,0.3
2025-08-08T0000,4192A,115.9316,28.68677,南昌市,南京东路235号,,,,17,8,4,,,70,57,28,11,8,5,0.7,0.6
2025-08-08T0000,1905A,106.056,30.8064,南充市,西山风景区,,,,,,,,,,,,,,,,
2025-08-08T0000,1906A,106.0789,30.8023,南充市,南充市委,,30,26,19,21,16,50,,103,90,16,8,4,5,0.5,0.5
2025-08-08T0000,1907A,106.1031,30.8217,南充市,南充炼油厂,,36,36,24,22,12,58,,107,98,13,7,4,4,0.5,0.4
2025-08-08T0000,4227A,106.1083,30.7884,南充市,梨树横街98号,臭氧1小时,52,22,29,15,13,161,,126,126,21,9,4,4,0.3,0.3
2025-08-08T0000,4304A,106.1172,30.843,南充市,清泉寺北路188号,,36,25,17,25,15,42,,106,96,16,6,2,2,0.4,0.3
2025-08-08T0000,4305A,106.067,30.7616,南充市,同庆路1号,,35,25,20,24,12,50,,113,91,22,10,4,3,0.5,0.4
2025-08-08T0000,1151A,118.8086,32.1065,南京市,迈皋桥,,20,15,16,3,9,61,,129,87,17,21,4,4,0.5,0.5
2025-08-08T0000,1152A,118.7538,32.0551,南京市,草场门,,19,19,21,7,11,44,,101,67,16,14,14,13,1.0,0.9
2025-08-08T0000,1153A,118.7794,32.0745,南京市,山西路,,24,24,26,7,5,53,,118,80,15,16,10,9,1.0,0.8
2025-08-08T0000,1154A,118.7752,32.0023,南京市,中华门,,14,14,17,9,8,36,,88,62,14,11,10,10,1.0,1.1
2025-08-08T0000,1155A,118.8109,32.0309,南京市,瑞金路,,18,14,18,12,10,52,,115,82,8,9,7,6,0.5,0.5
2025-08-08T0000,1156A,118.7997,32.0754,南京市,玄武湖,,,18,24,,3,45,,105,72,10,10,4,4,0.7,0.6
2025-08-08T0000,1157A,118.6414,32.0931,南京市,浦口,,22,22,22,3,8,54,,97,71,13,14,4,5,0.3,0.5
2025-08-08T0000,1158A,118.7356,31.9996,南京市,奥体中心,,15,15,25,7,10,46,,105,76,19,16,7,5,0.7,0.8
2025-08-08T0000,1159A,118.9125,32.1028,南京市,仙林大学城,,22,22,26,3,5,55,,117,86,12,11,10,10,1.0,0.9
2025-08-08T0000,3422A,118.8436,31.9198,南京市,江宁彩虹桥,,24,24,21,9,9,34,,120,79,17,13,4,4,0.7,0.7
2025-08-08T0000,3427A,118.8554,32.3578,南京市,六合雄州,,18,,19,12,9,53,,94,68,10,12,4,4,0.6,0.7
2025-08-08T0000,4249A,118.8708,31.3402,南京市,汶溪路181号,,18,9,9,7,6,57,,83,68,6,6,5,5,0.4,0.4
2025-08-08T0000,4312A,119.019,31.6512,南京市,中山西路1号,,16,7,7,3,7,49,,83,60,10,9,4,4,0.4,0.4
2025-08-08T0000,1401A,108.3103,22.7881,南宁市,二十一中,,29,29,18,12,8,31,,50,41,13,8,5,3,0.7,0.5
2025-08-08T0000,1402A,108.3141,22.8528,南宁市,北湖,,34,34,19,14,8,46,,67,52,10,9,5,3,0.6,0.4
2025-08-08T0000,1403A,108.3206,22.8225,南宁市,市监测站,,22,22,17,12,9,42,,58,49,11,9,5,3,0.6,0.4
2025-08-08T0000,1404A,108.3829,22.8037,南宁市,大自然花园,,28,28,12,12,10,46,,59,52,7,6,5,4,0.7,0.6
2025-08-08T0000,1405A,108.4394,22.7904,南宁市,仙葫,,31,31,18,14,8,44,,55,51,8,7,6,6,0.8,0.5
2025-08-08T0000,1406A,108.2397,22.8467,南宁市,区农职院,,31,31,21,20,9,42,,73,54,14,11,4,4,0.6,0.4
2025-08-08T0000,1407A,108.3275,22.735,南宁市,英华嘉园,,32,32,21,11,8,34,,55,43,16,11,3,1,0.5,0.4
2025-08-08T0000,3401A,108.4834,22.7618,南宁市,红星社区,,33,32,19,23,10,44,,57,51,10,7,2,2,0.6,0.5
2025-08-08T0000,4221A,108.2177,22.7774,南宁市,乐贤路16号,,31,31,20,11,8,16,,63,40,32,16,1,1,0.7,0.6
2025-08-08T0000,2331A,118.0966,26.6761,南平市,茫荡山,,,,,,,,,,,,,,,,
2025-08-08T0000,2332A,118.1681,26.6369,南平市,南平市监测站,,18,15,18,12,6,10,,75,44,21,10,4,4,0.6,0.5
2025-08-08T0000,2333A,118.1825,26.6489,南平市,南平铝业有限公司,,19,19,20,8,7,12,,73,43,21,11,5,6,0.6,0.5
2025-08-08T0000,2334A,118.1756,26.6272,南平市,南平七中,,14,14,17,3,5,14,,72,42,14,7,3,3,0.5,0.5
2025-08-08T0000,1168A,120.9098,31.9663,南通市,狼山街道,,20,18,20,14,11,17,,88,32,39,35,4,4,0.7,0.6
2025-08-08T0000,1169A,120.86,32.0005,南通市,虹桥,,28,21,23,17,15,26,,109,65,56,36,4,2,0.6,0.8
2025-08-08T0000,1170A,120.87,32.02,南通市,城中,,39,39,29,12,13,41,,111,69,34,29,5,5,0.3,0.5
2025-08-08T0000,1171A,120.94,31.93,南通市,星湖花园,,20,20,18,12,12,37,,101,63,38,31,4,4,0.5,0.5
2025-08-08T0000,1172A,120.81,32.0417,南通市,紫琅学院,,43,43,23,13,10,14,,109,62,59,33,4,4,0.6,0.8
2025-08-08T0000,3291A,121.067,32.062,南通市,通州监测站,,35,34,24,24,16,73,,120,98,17,24,3,2,1.0,1.1
2025-08-08T0000,3432A,120.9348,31.9883,南通市,环境教育馆,,48,48,35,18,12,24,,99,,41,28,4,3,0.6,0.5
2025-08-08T0000,2404A,112.5224,33.0122,南阳市,瓦房庄,,27,16,26,8,14,85,,111,87,3,7,7,6,0.5,0.6
2025-08-08T0000,2405A,112.5003,32.9735,南阳市,汉画馆,,25,9,22,3,8,79,,107,80,4,9,6,6,0.6,0.7
2025-08-08T0000,2406A,112.5573,33.027,南阳市,气象站,,28,7,25,3,10,89,,116,92,4,8,7,7,0.4,0.5
2025-08-08T0000,2407A,112.5481,32.9689,南阳市,理工学院,,25,13,21,3,10,80,,102,84,4,6,7,7,0.6,0.6
2025-08-08T0000,4008A,112.5234,32.9922,南阳市,卧龙区政府,,27,,20,12,15,85,,109,85,5,8,5,5,0.6,0.7
2025-08-08T0000,1234A,121.8358,29.911,宁波市,区环保大楼,颗粒物(PM10),66,82,45,33,23,0,,117,52,106,36,5,5,0.7,0.6
2025-08-08T0000,1235A,121.56,29.82,宁波市,万里学院,,,52,30,34,18,33,,105,90,,11,5,4,0.5,0.7
2025-08-08T0000,1236A,121.713,29.9572,宁波市,龙赛医院,颗粒物(PM10),69,87,44,22,14,56,,125,94,41,20,6,5,0.6,0.4
2025-08-08T0000,1239A,121.633,29.7733,宁波市,钱湖水厂,,45,45,25,27,17,73,,99,87,18,12,5,5,0.5,0.4
2025-08-08T0000,1240A,121.5856,29.8635,宁波市,太古小学,颗粒物(PM10),55,60,32,24,14,56,,104,,22,10,2,2,0.7,0.5
2025-08-08T0000,1241A,121.524,29.8674,宁波市,市环境监测中心,颗粒物(PM10),51,52,27,29,12,14,,106,89,60,15,8,7,0.7,0.5
2025-08-08T0000,2871A,121.6147,29.9017,宁波市,万里国际学校,,33,33,23,17,13,80,,123,111,14,11,4,4,0.6,0.5
2025-08-08T0000,3710A,121.5594,29.8975,宁波市,白沙活动中心,,36,36,23,23,13,64,,117,104,21,14,4,5,0.6,0.5
2025-08-08T0000,2339A,119.5001,26.6946,宁德市,金涵水库,,,,,,,,,,,,,,,,
2025-08-08T0000,2341A,119.5388,26.6612,宁德市,宁德市监测站,,43,43,37,21,18,69,,123,95,15,12,2,3,0.6,0.7
2025-08-08T0000,3209A,119.5231,26.6562,宁德市,宁德一中,,43,42,32,30,22,56,,128,93,10,8,7,7,0.6,0.5
2025-08-08T0000,2618A,98.8601,25.8567,怒江傈僳族自治州,州监测站,,24,24,21,14,12,66,,74,64,4,6,8,7,0.4,0.4
2025-08-08T0000,2619A,98.8546,25.8417,怒江傈僳族自治州,泸水一中,,18,10,15,6,10,57,,57,54,7,9,6,6,0.3,0.4
2025-08-08T0000,1888A,101.6891,26.571,攀枝花市,弄弄坪,颗粒物(PM10),53,55,48,18,22,45,,119,84,30,20,11,11,1.0,1
2025-08-08T0000,1889A,101.5769,26.5928,攀枝花市,河门口,,37,37,38,19,23,48,,149,107,18,15,8,15,0.7,1.1
2025-08-08T0000,1890A,101.7169,26.585,攀枝花市,炳草岗,颗粒物(PM10),53,56,44,21,24,44,,124,96,34,18,9,9,0.8,0.8
2025-08-08T0000,1891A,101.7369,26.5008,攀枝花市,仁和,,21,8,35,3,25,66,,121,88,4,11,7,13,0.5,0.8
2025-08-08T0000,2835A,101.7227,26.567,攀枝花市,四十中小,,34,34,32,18,20,60,,130,98,17,15,9,14,0.7,0.9
2025-08-08T0000,1604A,122.0303,41.1489,盘锦市,开发区,,24,24,22,9,13,47,,102,71,18,19,4,5,0.1,0.2
2025-08-08T0000,1605A,122.0485,41.0883,盘锦市,兴隆台,,21,10,20,3,10,67,,112,82,14,21,6,6,0.3,0.4
2025-08-08T0000,1606A,121.8297,41.1028,盘锦市,新生街道,,22,16,15,7,8,17,,102,54,44,20,4,5,0.4,0.4
2025-08-08T0000,1832A,113.3257,33.742,平顶山市,新华旅馆,,32,,41,22,24,75,,108,92,10,13,4,4,0.6,0.7
2025-08-08T0000,1833A,113.2919,33.737,平顶山市,规划设计院,,25,25,35,12,22,72,,111,91,10,12,4,5,0.8,1
2025-08-08T0000,1834A,113.182,33.774,平顶山市,平顶山工学院,,27,9,24,3,16,84,,130,107,11,11,4,5,0.6,0.8
2025-08-08T0000,3204A,113.3025,33.73,平顶山市,规划局,,25,19,33,6,15,77,,116,98,8,11,2,3,0.5,0.7
2025-08-08T0000,3594A,112.8867,33.9116,平顶山市,石龙区,,26,12,25,3,13,81,,121,105,16,12,5,7,0.6,0.8
2025-08-08T0000,2656A,106.6692,35.5461,平凉市,聚贤嘉苑,颗粒物(PM10),55,59,44,22,16,128,,114,105,9,14,7,8,0.7,0.7
2025-08-08T0000,2657A,106.7021,35.5307,平凉市,博物馆,,48,48,41,21,16,94,,107,95,20,13,8,8,1.0,0.7
2025-08-08T0000,2347A,114.0997,27.5002,萍乡市,武功山,,7,6,3,3,3,22,,46,36,3,3,8,8,0.3,0.2
2025-08-08T0000,2348A,113.8385,27.6434,萍乡市,中医院,,12,12,16,3,7,35,,59,44,14,16,10,10,1.2,1.3
2025-08-08T0000,2349A,113.8493,27.6253,萍乡市,市政府车库,,9,9,10,3,11,11,,52,33,11,8,8,9,0.7,0.7
2025-08-08T0000,2350A,113.8676,27.6435,萍乡市,市环保局,,14,14,16,7,10,28,,55,42,12,9,9,9,0.9,0.7
2025-08-08T0000,2351A,113.866,27.6198,萍乡市,安源区政府,,13,13,17,8,8,11,,51,35,8,6,11,11,0.7,0.8
2025-08-08T0000,2319A,119.0141,25.4325,莆田市,荔城区仓后路,颗粒物(PM10),59,68,45,24,22,18,,109,49,19,11,5,5,0.6,0.6
2025-08-08T0000,2320A,119.0015,25.4553,莆田市,莆田市监测站,,40,37,39,28,19,16,,116,56,18,11,5,5,0.5,0.4
2025-08-08T0000,2321A,119.1119,25.4561,莆田市,涵江区六中,,32,28,35,22,19,18,,122,54,26,13,4,4,0.6,0.5
2025-08-08T0000,2322A,119.1013,25.3215,莆田市,秀屿区政府,,27,27,35,14,17,35,,104,52,14,11,9,6,0.4,0.4
2025-08-08T0000,2323A,118.981,25.4792,莆田市,东圳水库,,,,,,,,,,,,,,,,
2025-08-08T0000,2392A,115.0312,35.7636,濮阳市,环保局,细颗粒物(PM2.5),55,52,42,39,38,139,,167,160,16,8,23,10,0.7,0.7
2025-08-08T0000,2394A,115.0574,35.7609,濮阳市,油田运输公司,颗粒物(PM10),60,70,56,26,31,108,,159,143,20,11,16,6,0.8,0.8
2025-08-08T0000,3021A,115,35.7668,濮阳市,濮水河管理处,细颗粒物(PM2.5),53,50,51,37,41,136,,154,149,19,14,8,6,0.7,0.6
2025-08-08T0000,4216A,115.0924,35.7686,濮阳市,任丘路479号,颗粒物(PM10),65,80,71,44,49,104,,150,133,17,11,8,6,0.8,0.6
2025-08-08T0000,2601A,100.98,22.7633,普洱市,市环保局,,33,,19,23,12,28,,33,29,2,3,5,5,0.4,0.4
2025-08-08T0000,2602A,100.9817,22.8322,普洱市,普洱第二中学,,20,20,16,10,12,30,,35,31,3,5,5,5,0.4,0.5
2025-08-08T0000,2262A,131.0518,45.8751,七台河市,新一中,,10,10,9,3,7,12,,51,30,15,11,8,9,0.8,0.8
2025-08-08T0000,3345A,131.0577,45.7879,七台河市,中波台,,16,9,8,7,7,3,,40,25,32,11,8,8,0.6,0.4
2025-08-08T0000,3637A,131.0176,45.7761,七台河市,人民广场,,12,9,14,8,8,12,,44,28,22,11,10,9,0.4,0.4
2025-08-08T0000,3684A,130.8781,45.8222,七台河市,新建矿广场,,10,,8,7,7,7,,42,20,20,15,10,11,0.5,0.4
2025-08-08T0000,1779A,123.9305,47.3636,齐齐哈尔市,安居小区,,35,35,22,14,8,7,,48,26,23,12,4,4,0.6,0.5
2025-08-08T0000,1780A,123.9488,47.3386,齐齐哈尔市,中心广场,颗粒物(PM10),51,52,17,24,3,9,,55,38,36,10,6,4,0.8,0.5
2025-08-08T0000,1781A,123.9483,47.3227,齐齐哈尔市,农牧车辆厂,颗粒物(PM10),51,51,21,20,6,5,,54,35,43,11,7,6,0.9,0.4
2025-08-08T0000,1783A,123.945,47.2988,齐齐哈尔市,市环境监测站,,37,37,19,18,6,7,,52,31,29,11,5,5,0.5,0.5
2025-08-08T0000,3662A,123.6333,47.2075,齐齐哈尔市,富区青少年活动中心,颗粒物(PM10),57,64,16,39,7,21,,54,41,26,7,17,9,0.7,0.3
2025-08-08T0000,2591A,107.9783,26.5747,黔东南苗族侗族自治州,市环境监测站,,15,8,11,6,8,45,,54,47,2,2,2,2,0.4,0.4
2025-08-08T0000,2881A,107.8908,26.5311,黔东南苗族侗族自治州,凯里学院,,14,,6,7,8,42,,61,54,11,8,1,2,0.3,0.3
2025-08-08T0000,2593A,107.5228,26.2403,黔南布依族苗族自治州,小围寨,,10,6,6,3,2,29,,44,35,4,4,2,2,0.2,0.2
2025-08-08T0000,3538A,107.5175,26.2978,黔南布依族苗族自治州,沙坝,,,5,8,,0,28,,49,36,5,4,4,4,0.4,0.4
2025-08-08T0000,2589A,104.9022,25.0925,黔西南布依族苗族自治州,场坝街,,19,19,17,7,9,36,,66,52,11,8,2,2,0.3,0.3
2025-08-08T0000,2590A,104.8811,25.0992,黔西南布依族苗族自治州,坪东大道,,18,18,17,7,8,9,,68,40,17,8,2,2,0.5,0.4
2025-08-08T0000,2502A,108.6236,21.9667,钦州市,市环保站,,15,12,14,7,7,45,,58,50,10,12,3,3,0.5,0.6
2025-08-08T0000,2503A,108.6549,21.9481,钦州市,沙埠小学,,32,32,31,16,14,38,,66,45,10,13,2,3,0.5,0.5
2025-08-08T0000,2504A,108.5989,21.7431,钦州市,港区一小,,37,37,31,14,14,38,,58,53,28,18,3,4,0.6,0.7
2025-08-08T0000,3404A,108.5959,21.9633,钦州市,北职校,,24,24,18,11,10,45,,56,49,9,10,1,4,0.5,0.6
2025-08-08T0000,1043A,119.7493,40.0116,秦皇岛市,第一关,,37,31,23,12,11,8,,122,63,74,25,5,5,0.4,0.3
2025-08-08T0000,1044A,119.5897,39.9499,秦皇岛市,监测站,,47,47,37,9,7,3,,114,60,76,26,5,5,0.5,0.4
2025-08-08T0000,1046A,119.5251,39.9041,秦皇岛市,建设大厦,,46,46,34,7,9,10,,109,61,52,23,6,7,0.4,0.4
2025-08-08T0000,3132A,119.610547,39.943889,秦皇岛市,文明里,,42,42,35,24,12,16,,112,74,70,24,8,6,0.4,0.3
2025-08-08T0000,4198A,119.5090,39.8253,秦皇岛市,北戴河轮滑馆,,29,24,34,8,15,92,,118,84,5,16,2,2,0.6,0.5
2025-08-08T0000,1307A,120.6659,36.2403,青岛市,仰口,,,,,,,,,,,,,,,,
2025-08-08T0000,1310A,120.4134,36.0658,青岛市,市南区东部子站,,28,,18,7,16,88,,107,93,4,9,6,6,0.2,0.3
2025-08-08T0000,1311A,120.3664,36.1032,青岛市,四方区子站,,28,14,22,9,14,89,,126,96,9,12,6,6,0.2,0.3
2025-08-08T0000,1312A,120.2994,36.054,青岛市,市南区西部子站,,23,9,26,3,14,72,,100,87,18,23,4,5,0.6,0.8
2025-08-08T0000,1313A,120.4581,36.0858,青岛市,崂山区子站,,30,17,15,7,10,94,,103,93,7,11,8,8,0.2,0.2
2025-08-08T0000,1315A,120.3999,36.3083,青岛市,城阳区子站,,29,14,21,10,12,92,,135,102,18,12,8,6,0.5,0.6
2025-08-08T0000,1966A,120.0405,35.8735,青岛市,黄岛区4号,,35,12,40,9,23,109,,141,113,2,13,4,5,0.5,0.7
2025-08-08T0000,3362A,120.5014,36.4034,青岛市,即墨2号,,27,15,23,8,13,84,,126,117,14,9,4,3,0.2,0.3
2025-08-08T0000,3642A,120.3503,36.0736,青岛市,市北区南部,,25,17,22,7,15,80,,106,90,16,21,6,6,0.6,0.8
2025-08-08T0000,3643A,120.3948,36.1805,青岛市,李沧区北部,,24,,19,14,15,76,,135,83,11,13,7,5,0.3,0.4
2025-08-08T0000,4290A,120.1969,35.9546,青岛市,珠江路669号,,29,,35,12,24,92,,114,100,2,14,6,5,0.6,0.7
2025-08-08T0000,1702A,113.0426,23.691,清远市,环保大楼,,10,9,42,3,15,29,,91,33,10,20,6,8,0.7,0.8
2025-08-08T0000,1703A,113.0208,23.7106,清远市,凤城街办,,8,7,27,3,14,24,,73,30,11,24,6,6,0.4,0.5
2025-08-08T0000,3025A,113.0477,23.6344,清远市,技师学院,,13,13,25,6,12,13,,75,19,21,25,9,8,0.4,0.5
2025-08-08T0000,3318A,112.9903,23.7403,清远市,清新太和,,12,12,27,3,15,17,,74,27,10,22,5,6,0.5,0.6
2025-08-08T0000,3455A,113.076,23.7198,清远市,清城东城,,12,12,26,3,12,16,,76,28,10,17,6,6,0.5,0.8
2025-08-08T0000,2661A,107.6325,35.7357,庆阳市,庆阳五中,,47,38,24,25,13,149,,142,142,7,7,7,7,0.8,0.6
2025-08-08T0000,2662A,107.6364,35.7067,庆阳市,市环保局,,47,26,25,21,13,149,,147,147,6,6,4,6,0.8,0.7
2025-08-08T0000,1916A,103.7897,25.5035,曲靖市,环境监测站,,22,22,23,10,10,21,,116,64,18,13,7,9,0.6,0.6
2025-08-08T0000,1917A,103.8,25.5364,曲靖市,烟厂办公区,,20,20,22,8,12,26,,112,69,13,13,4,8,0.6,0.7
2025-08-08T0000,3376A,103.7947,25.462,曲靖市,南苑二区,,18,18,15,10,9,20,,116,62,14,8,4,4,0.5,0.5
2025-08-08T0000,3377A,103.7444,25.5261,曲靖市,曲靖师范学院,,17,17,25,7,16,27,,98,69,8,17,6,18,0.3,0.5
2025-08-08T0000,1264A,118.8692,28.9398,衢州市,环保大楼,,37,37,24,18,10,27,,76,52,22,14,11,3,0.5,0.4
2025-08-08T0000,1265A,118.8709,28.9666,衢州市,实验学校,,32,32,22,14,9,36,,78,61,18,13,7,3,0.5,0.4
2025-08-08T0000,1266A,118.8621,28.9808,衢州市,衢州学院,,30,30,19,14,9,39,,83,66,18,14,4,4,0.4,0.4
2025-08-08T0000,1611A,118.5819,24.9117,泉州市,涂山街,,38,38,39,18,18,20,,107,46,27,16,4,3,0.5,0.5
2025-08-08T0000,1612A,118.5972,24.8978,泉州市,津头埔,,36,36,39,14,19,27,,112,54,19,13,4,3,0.4,0.5
2025-08-08T0000,1613A,118.6663,24.9424,泉州市,万安,,34,34,37,13,18,25,,104,51,20,14,1,2,0.4,0.3
2025-08-08T0000,1614A,118.6117,24.9604,泉州市,清源山,,,,,,,,,,,,,,,,
2025-08-08T0000,3529A,118.6333,24.9264,泉州市,城华南路,,29,29,32,16,18,23,,104,48,22,15,3,3,0.4,0.4
2025-08-08T0000,2626A,88.8876,29.2718,日喀则市,日喀则监测站,,21,12,8,3,3,66,,95,81,17,7,11,11,0.4,0.4
2025-08-08T0000,3726A,88.8781,29.2426,日喀则市,林业技术推广中心,,23,9,13,3,3,72,,91,83,4,3,5,5,0.4,0.4
2025-08-08T0000,1659A,119.471,35.4209,日照市,监测站,,36,12,23,12,21,114,,151,119,9,17,6,6,0.5,0.7
2025-08-08T0000,1660A,119.523,35.4216,日照市,市政府广场,,37,12,24,3,15,117,,151,120,3,7,5,6,0.7,0.9
2025-08-08T0000,1661A,119.5587,35.4044,日照市,港务局,,39,,27,18,28,122,,148,122,2,8,11,11,0.7,0.9
2025-08-08T0000,3507A,119.5328,35.4625,日照市,职业技术学院,,36,14,25,12,19,115,,154,123,8,12,4,5,0.6,0.8
2025-08-08T0000,3604A,119.3266,35.1044,日照市,岚山环保分局,,33,12,32,8,17,105,,138,109,8,14,7,10,0.7,1
2025-08-08T0000,1835A,111.1922,34.7752,三门峡市,市政府,,43,38,41,30,27,86,,116,103,7,13,5,6,0.6,0.7
2025-08-08T0000,1836A,111.1587,34.7942,三门峡市,开发区,,46,46,47,30,29,88,,119,105,9,12,3,3,0.6,0.7
2025-08-08T0000,1838A,111.143,34.7955,三门峡市,风景区,,32,26,39,22,22,88,,120,105,8,6,2,2,0.7,0.7
2025-08-08T0000,3039A,111.1911,34.7829,三门峡市,三门峡市第一小学,,43,43,40,29,22,90,,121,106,6,10,5,5,0.7,0.7
2025-08-08T0000,3598A,111.1,34.7167,三门峡市,富达温泉假日酒店,细颗粒物(PM2.5),52,,36,36,31,79,,121,105,11,12,2,3,0.5,0.7
2025-08-08T0000,2324A,117.6211,26.2625,三明市,三钢,,25,20,23,17,18,11,,64,29,16,13,4,8,1.0,1.4
2025-08-08T0000,2325A,117.635,26.2714,三明市,三明二中,,32,,22,22,12,7,,63,27,16,10,2,3,0.6,0.5
2025-08-08T0000,2326A,117.6028,26.2378,三明市,三元区政府,,23,20,23,16,10,18,,72,36,11,11,2,5,0.4,0.4
2025-08-08T0000,2327A,117.7275,26.3108,三明市,洋溪,,,,,,,,,,,,,,,,
2025-08-08T0000,1876A,109.5078,18.2489,三亚市,河东子站,,19,18,24,13,15,42,,70,46,2,3,3,4,0.4,0.3
2025-08-08T0000,1877A,109.4964,18.2681,三亚市,河西子站,,26,26,30,15,13,41,,70,44,10,8,2,3,0.4,0.4
2025-08-08T0000,3540A,109.7348,18.3443,三亚市,君悦子站,颗粒物(PM10),85,120,80,8,12,49,,66,50,3,5,1,1,0.3,2.2
2025-08-08T0000,2624A,91.7608,29.2313,山南市,山南监测站,,21,6,9,3,4,66,,83,74,6,7,3,3,0.2,0.3
2025-08-08T0000,2625A,91.7706,29.2436,山南市,山南人民医院,,20,9,11,3,5,64,,84,74,5,6,4,4,0.3,0.3
2025-08-08T0000,1674A,116.6794,23.3667,汕头市,金平子站,,26,26,36,17,15,28,,82,46,16,21,2,3,0.7,0.9
2025-08-08T0000,1675A,116.7244,23.3633,汕头市,龙湖子站,,36,36,32,11,16,28,,75,46,14,17,6,7,0.7,0.8
2025-08-08T0000,1676A,116.7258,23.2775,汕头市,濠江子站,,42,29,35,29,21,21,,61,40,14,12,5,6,0.6,0.7
2025-08-08T0000,1677A,116.7519,23.4714,汕头市,澄海子站,,46,46,42,18,16,22,,80,43,23,17,3,6,1.0,0.8
2025-08-08T0000,1678A,116.6092,23.2539,汕头市,潮阳子站,,30,30,31,12,11,28,,63,47,11,9,4,4,0.6,0.7
2025-08-08T0000,3444A,116.454,23.2684,汕头市,潮南峡山,颗粒物(PM10),52,54,34,27,18,24,,58,42,13,12,5,7,0.7,0.7
2025-08-08T0000,3624A,116.4069,23.2533,汕头市,潮南子站,,35,35,41,18,19,34,,56,46,5,10,4,5,0.6,0.6
2025-08-08T0000,1693A,115.3653,22.775,汕尾市,市环保局,,19,14,24,10,10,58,,64,63,5,8,2,2,0.6,0.7
2025-08-08T0000,1694A,115.3706,22.7898,汕尾市,市政府,,24,24,36,15,11,54,,59,58,9,10,3,3,0.5,0.6
2025-08-08T0000,1695A,115.3622,22.7925,汕尾市,新城中学,,22,22,24,10,10,56,,65,62,8,7,4,4,0.4,0.5
2025-08-08T0000,2645A,109.9154,33.8715,商洛市,监测站,,22,22,26,14,16,70,,110,87,11,13,5,6,0.7,0.7
2025-08-08T0000,3045A,109.9643,33.8471,商洛市,商州区中学,,26,26,28,13,15,60,,105,76,13,15,12,6,0.7,0.6
2025-08-08T0000,2408A,115.6702,34.4285,商丘市,环境监测站,,30,,34,14,22,96,,132,107,10,14,1,1,0.6,0.6
2025-08-08T0000,2409A,115.6458,34.4045,商丘市,粮食局,,30,25,30,9,15,96,,126,106,7,10,2,2,0.5,0.6
2025-08-08T0000,2410A,115.6293,34.3948,商丘市,睢阳区环保局,,27,21,32,15,16,84,,126,88,9,10,4,4,0.4,0.4
2025-08-08T0000,3171A,115.6071,34.4465,商丘市,梁园区档案局,,42,42,32,19,17,27,,124,77,32,14,1,2,0.6,0.6
2025-08-08T0000,1141A,121.4,31.238,上海市,普陀,,26,26,26,11,15,53,,132,103,30,20,5,5,0.5,0.5
2025-08-08T0000,1142A,121.478,31.2036,上海市,十五厂,,28,28,27,16,15,40,,129,92,35,19,8,8,0.8,0.8
2025-08-08T0000,1143A,121.467,31.3008,上海市,虹口,,22,22,25,13,16,50,,118,88,23,17,5,5,0.6,0.6
2025-08-08T0000,1147A,121.425,31.2261,上海市,静安监测站,,26,26,24,14,16,51,,121,98,26,18,3,4,0.4,0.5
2025-08-08T0000,1148A,121.703,31.1907,上海市,浦东川沙,,43,43,34,19,20,56,,153,100,43,24,11,11,0.6,0.6
2025-08-08T0000,1149A,121.533,31.2284,上海市,浦东新区监测站,,27,27,25,15,15,52,,129,98,28,17,8,8,0.9,0.9
2025-08-08T0000,1150A,121.577,31.2071,上海市,浦东张江,,44,44,36,20,16,57,,139,94,35,25,6,6,0.6,0.8
2025-08-08T0000,3265A,121.4316,31.3322,上海市,宝山庙行,,28,28,28,15,15,50,,124,88,30,22,9,8,0.4,0.5
2025-08-08T0000,3266A,121.8791,31.4662,上海市,崇明上实东滩,,30,30,27,9,15,70,,168,116,12,16,4,4,0.7,0.7
2025-08-08T0000,3268A,121.3162,31.2838,上海市,嘉定南翔,,31,31,26,17,16,36,,118,81,39,25,8,8,0.4,0.4
2025-08-08T0000,3269A,121.3359,30.7456,上海市,金山新城,,29,26,27,14,16,90,,123,92,13,17,4,4,0.5,0.8
2025-08-08T0000,3270A,121.4996,31.0739,上海市,闵行浦江,,45,45,34,21,18,47,,134,89,48,24,5,6,1.0,0.9
2025-08-08T0000,3271A,121.2886,31.1663,上海市,青浦徐泾,,23,23,24,14,18,35,,117,79,37,28,6,6,0.4,0.5
2025-08-08T0000,3272A,121.2186,31.0378,上海市,松江图书馆,,29,26,21,20,17,46,,126,80,34,25,7,7,0.7,0.7
2025-08-08T0000,3273A,121.3902,31.2059,上海市,长宁仙霞,,24,24,24,15,14,40,,107,84,26,21,7,7,0.5,0.6
2025-08-08T0000,3274A,121.7965,31.0507,上海市,浦东惠南,,,46,34,,21,65,,150,90,34,26,10,10,0.5,0.6
2025-08-08T0000,3544A,121.4891,30.925,上海市,奉贤南桥新城,,33,33,26,21,18,54,,137,111,33,14,4,4,0.7,0.7
2025-08-08T0000,4183A,121.4174,31.16637,上海市,冠生园路458号,,25,25,22,17,17,41,,114,78,32,19,3,3,0.7,0.7
2025-08-08T0000,4205A,121.5419,31.2683,上海市,宁武路151号,,21,21,30,13,14,51,,114,80,29,27,3,3,0.6,0.6
2025-08-08T0000,2381A,118.005,28.4572,上饶市,百草园,,,,,,,,,,,,,,,,
2025-08-08T0000,2382A,117.9756,28.4436,上饶市,市监测站,,24,24,22,14,9,15,,80,46,20,9,6,8,0.4,0.4
2025-08-08T0000,2383A,117.9519,28.4628,上饶市,凤凰光学,,,30,25,15,13,22,,74,41,16,9,11,6,,1
2025-08-08T0000,3685A,117.897,28.4315,上饶市,双创科技城,,27,27,24,12,11,39,,77,46,12,12,13,8,0.6,0.5
2025-08-08T0000,4211A,118.1904,28.4448,上饶市,裕丰大道,,25,,8,17,7,38,,65,44,9,5,7,8,0.6,0.6
2025-08-08T0000,1669A,113.5824,24.7733,韶关市,市八中,,22,22,31,6,15,18,,35,28,22,19,19,15,0.6,0.8
2025-08-08T0000,1671A,113.5917,24.7972,韶关市,园林处,,18,18,21,7,14,13,,33,25,17,16,11,11,0.5,0.7
2025-08-08T0000,1673A,113.5971,24.6863,韶关市,曲江监测站,,22,22,25,3,11,6,,38,27,24,18,5,7,0.5,0.7
2025-08-08T0000,2809A,113.6668,24.7756,韶关市,大学路288号,,18,18,24,3,10,20,,39,33,9,10,7,9,0.4,0.5
2025-08-08T0000,3622A,113.5556,24.8082,韶关市,碧湖山庄,,12,12,23,3,11,19,,32,30,18,16,14,10,0.5,0.6
2025-08-08T0000,2462A,111.5239,27.3033,邵阳市,市水土所,,,,,,,,,,,,,,,,
