timepoint,stationcode,longitude,latitude,area,positionname,primarypollutant,aqi,pm10,pm10_24h,pm2_5,pm2_5_24h,o3,o3_24h,o3_8h,o3_8h_24h,no2,no2_24h,so2,so2_24h,co,co_24h
2023-08-14T16:00:00,1001A,116.3621,39.8784,北京市,万寿西宫,,49,30,37,15,20,190,155,147,147,3,19,3,3,0.5,0.6
2023-08-14T16:00:00,1002A,116.2202,40.2915,北京市,定陵,臭氧1小时,110,32,24,18,13,220,220,149,149,8,6,3,3,0.6,0.4
2023-08-14T16:00:00,1003A,116.4174,39.9289,北京市,东四,臭氧1小时,55,34,38,16,19,187,164,152,152,7,21,1,2,0.5,0.5
2023-08-14T16:00:00,1004A,116.4072,39.8863,北京市,天坛,臭氧1小时,59,32,32,16,20,178,167,146,146,8,20,3,3,0.5,0.5
2023-08-14T16:00:00,1005A,116.462,39.9365,北京市,农展馆,臭氧1小时,57,39,40,19,20,188,165,144,144,9,24,3,3,0.4,0.5
2023-08-14T16:00:00,1006A,116.3392,39.9295,北京市,官园,臭氧1小时,57,35,35,12,18,194,165,154,154,6,20,2,2,0.3,0.5
2023-08-14T16:00:00,1007A,116.2878,39.9611,北京市,海淀万柳,,45,31,35,14,17,180,143,133,133,11,25,3,3,0.3,0.4
2023-08-14T16:00:00,1008A,116.6636,40.135,北京市,顺义新城,臭氧1小时,110,29,34,19,18,254,219,175,175,9,19,3,3,0.4,0.4
2023-08-14T16:00:00,1009A,116.6275,40.3275,北京市,怀柔镇,臭氧1小时,99,35,24,18,13,199,199,132,132,10,10,3,3,0.4,0.3
2023-08-14T16:00:00,1010A,116.2296,40.217,北京市,昌平镇,臭氧1小时,101,35,29,20,16,218,202,159,159,12,11,3,3,0.4,0.4
2023-08-14T16:00:00,1011A,116.3966,39.9821,北京市,奥体中心,,38,38,35,15,19,164,117,122,122,13,26,1,1,0.3,0.4
2023-08-14T16:00:00,1012A,116.184,39.9136,北京市,古城,,45,33,37,17,19,170,144,132,132,8,16,3,3,0.3,0.4
2023-08-14T16:00:00,1015A,117.1444,39.1661,天津市,勤俭道,臭氧1小时,79,20,42,8,26,202,183,172,172,6,18,7,6,0.5,0.7
2023-08-14T16:00:00,1017A,117.237,39.1082,天津市,大直沽八号路,,43,12,46,7,28,153,137,139,139,8,22,3,3,0.5,0.8
2023-08-14T16:00:00,1018A,117.202,39.0927,天津市,前进道,,45,10,39,6,28,167,143,137,137,7,20,5,6,0.5,0.7
2023-08-14T16:00:00,1019A,117.1837,39.2133,天津市,淮河道,臭氧1小时,85,24,46,10,25,210,188,180,180,11,26,5,5,0.6,0.8
2023-08-14T16:00:00,1021A,117.307,39.0877,天津市,跃进路,,45,12,47,5,25,166,143,140,140,8,17,6,7,0.6,0.8
2023-08-14T16:00:00,1023A,117.707,39.0343,天津市,第四大街,臭氧1小时,92,28,38,16,25,193,193,160,160,18,21,4,6,0.8,1
2023-08-14T16:00:00,1024A,117.457,38.8394,天津市,永明路,,,16,36,9,23,214,143,144,144,,13,5,6,0.6,0.8
2023-08-14T16:00:00,1026A,117.764,39.1587,天津市,汉北路,臭氧1小时,127,37,39,18,23,260,253,190,190,10,18,3,5,0.7,0.8
2023-08-14T16:00:00,1027A,117.157,38.9194,天津市,团泊洼,,,,,,,,,,,,,,,,
2023-08-14T16:00:00,1029A,114.4422,38.0444,石家庄市,职工医院,臭氧1小时,67,29,44,24,29,174,173,140,140,5,20,3,3,0.4,0.5
2023-08-14T16:00:00,1030A,114.6063,38.0266,石家庄市,高新区,,46,18,44,28,31,174,146,137,137,6,18,3,1,0.4,0.6
2023-08-14T16:00:00,1031A,114.4898,38.1328,石家庄市,西北水源,臭氧1小时,59,32,61,14,28,191,167,143,143,7,21,2,3,0.6,0.7
2023-08-14T16:00:00,1032A,114.4586,38.0058,石家庄市,西南高教,臭氧1小时,68,37,43,21,27,175,174,143,143,7,18,1,3,0.5,0.7
2023-08-14T16:00:00,1033A,114.5331,38.0178,石家庄市,世纪公园,,47,22,42,15,24,167,149,136,136,7,18,5,6,0.3,0.5
2023-08-14T16:00:00,1034A,114.509,38.0457,石家庄市,人民会堂,臭氧1小时,58,38,48,17,24,178,166,144,144,5,16,3,3,0.4,0.6
2023-08-14T16:00:00,1035A,114.3524,37.8911,石家庄市,封龙山,,50,38,40,16,22,157,157,137,132,8,8,6,6,0.8,0.9
2023-08-14T16:00:00,1037A,118.131,39.6363,唐山市,雷达站,臭氧1小时,82,44,57,24,30,185,185,156,156,13,30,1,2,0.4,0.6
2023-08-14T16:00:00,1038A,118.1725,39.6334,唐山市,物资局,臭氧1小时,72,44,61,18,34,177,177,144,144,5,25,3,5,0.5,0.8
2023-08-14T16:00:00,1040A,118.1705,39.6506,唐山市,十二中,臭氧1小时,75,29,50,17,31,180,180,147,147,4,22,1,3,0.5,0.9
2023-08-14T16:00:00,1041A,118.1869,39.622,唐山市,小山,臭氧1小时,67,34,55,20,30,173,173,144,144,15,25,3,2,0.6,0.8
2023-08-14T16:00:00,1042A,119.5134,39.8207,秦皇岛市,北戴河环保局,,46,42,25,5,13,178,147,132,132,11,20,7,5,0.9,0.3
2023-08-14T16:00:00,1043A,119.7493,40.0116,秦皇岛市,第一关,,38,25,28,18,12,130,121,107,107,6,32,3,2,0.5,0.3
2023-08-14T16:00:00,1044A,119.5897,39.9499,秦皇岛市,监测站,,42,37,37,22,11,136,132,105,105,13,32,7,6,0.7,0.4
2023-08-14T16:00:00,1046A,119.5251,39.9041,秦皇岛市,建设大厦,,50,34,37,7,11,158,158,115,115,8,25,4,3,0.8,0.4
2023-08-14T16:00:00,1048A,114.5302,36.6116,邯郸市,东污水处理厂,,42,12,30,9,21,140,133,122,122,6,19,4,7,0.3,0.5
2023-08-14T16:00:00,1049A,114.4918,36.5713,邯郸市,矿院,,47,19,33,9,21,151,149,139,139,7,17,1,18,0.6,0.7
2023-08-14T16:00:00,1050A,114.484,36.6133,邯郸市,丛台公园,,46,10,25,6,15,153,146,141,141,2,8,5,8,0.3,0.4
2023-08-14T16:00:00,1051A,115.493,38.8632,保定市,游泳馆,,48,25,30,12,21,151,151,139,139,4,16,3,5,0.0,0.2
2023-08-14T16:00:00,1052A,115.5213,38.8959,保定市,华电二区,,45,25,34,10,14,144,144,135,135,2,10,3,4,0.4,0.7
2023-08-14T16:00:00,1053A,115.4713,38.9108,保定市,接待中心,颗粒物(PM10),76,101,43,6,15,140,140,129,129,2,8,6,6,0.5,0.7
2023-08-14T16:00:00,1054A,115.4612,38.8416,保定市,地表水厂,,45,28,44,10,18,145,144,133,133,5,20,7,7,0.3,0.5
2023-08-14T16:00:00,1056A,115.5086,38.8639,保定市,监测站,,49,33,35,17,18,154,154,140,140,3,14,7,6,0.0,0.3
2023-08-14T16:00:00,1057A,114.8883,40.8336,张家口市,人民公园,,46,22,21,2,5,146,146,122,122,8,10,5,3,0.5,0.1
2023-08-14T16:00:00,1059A,114.8687,40.8042,张家口市,五金库,,44,15,23,10,8,142,138,119,119,5,13,4,3,0.4,0.2
2023-08-14T16:00:00,1060A,114.8902,40.762,张家口市,世纪豪园,,41,10,25,4,13,143,130,114,114,4,13,2,2,0.2,0.1
2023-08-14T16:00:00,1061A,114.8916,40.8661,张家口市,北泵房,,47,8,16,13,8,150,150,122,122,4,7,8,9,0.5,0.3
2023-08-14T16:00:00,1062A,117.9531,40.9081,承德市,铁路,,40,15,26,6,8,138,128,99,99,27,30,22,13,0.5,0.4
2023-08-14T16:00:00,1063A,117.9392,40.9763,承德市,中国银行,,43,2,25,9,8,135,135,110,110,4,20,20,12,0.3,0.3
2023-08-14T16:00:00,1064A,117.9503,40.928,承德市,开发区,,47,38,24,22,12,150,150,110,110,14,21,24,12,0.6,0.4
2023-08-14T16:00:00,1065A,117.8051,40.9655,承德市,文化中心,,41,25,35,3,10,131,131,89,89,10,35,33,22,0.5,0.5
2023-08-14T16:00:00,1066A,117.9268,41.0026,承德市,离宫,,39,6,19,5,12,135,124,102,102,2,15,12,8,0.2,0.3
2023-08-14T16:00:00,1067A,116.6708,39.5111,廊坊市,药材公司,,48,25,40,16,22,161,152,141,141,6,19,1,2,0.4,0.5
2023-08-14T16:00:00,1068A,116.7214,39.5589,廊坊市,开发区,,47,22,32,27,20,162,148,142,142,4,16,2,2,0.4,0.5
2023-08-14T16:00:00,1070A,116.7244,39.5269,廊坊市,北华航天学院,,49,40,44,20,24,159,156,148,148,8,20,5,5,0.3,0.4
2023-08-14T16:00:00,1071A,116.8842,38.2991,沧州市,沧县城建局,,46,29,35,5,15,153,145,132,132,8,18,4,5,0.4,0.5
2023-08-14T16:00:00,1072A,116.8584,38.3254,沧州市,电视转播站,,,22,29,9,20,137,135,132,132,,14,3,5,0.4,0.5
2023-08-14T16:00:00,1073A,116.8709,38.3228,沧州市,市环保局,,45,38,35,11,19,142,142,128,128,13,21,3,4,0.1,0.3
2023-08-14T16:00:00,1074A,115.6838,37.7541,衡水市,电机北厂,,44,22,28,12,16,190,138,138,138,2,8,3,4,0.2,0.3
2023-08-14T16:00:00,1075A,115.6303,37.7316,衡水市,市监测站,,44,17,22,11,10,157,139,138,138,4,17,5,6,0.4,0.5
2023-08-14T16:00:00,1077A,114.4704,37.0886,邢台市,达活泉,臭氧1小时,65,21,34,8,16,176,172,158,158,1,11,6,8,0.6,0.6
2023-08-14T16:00:00,1078A,114.5062,37.0349,邢台市,邢师高专,,50,24,43,7,19,164,160,140,140,5,23,4,4,0.4,0.6
2023-08-14T16:00:00,1079A,114.5237,37.0851,邢台市,路桥公司,,46,23,39,9,19,158,147,140,140,2,15,6,8,0.4,0.6
2023-08-14T16:00:00,1080A,114.4725,37.0719,邢台市,市环保局,臭氧1小时,60,19,37,15,20,175,168,150,150,6,18,7,8,0.3,0.6
2023-08-14T16:00:00,1081A,112.522,37.8873,太原市,尖草坪,臭氧1小时,87,25,48,11,20,223,189,159,159,8,31,6,8,0.6,0.8
2023-08-14T16:00:00,1083A,112.434,38.0108,太原市,上兰,,,,,,,,,,,,,,,,
2023-08-14T16:00:00,1084A,112.469,37.7124,太原市,晋源,臭氧1小时,55,9,39,13,28,199,164,151,151,10,25,5,6,0.5,0.8
2023-08-14T16:00:00,1085A,112.5583,37.7394,太原市,小店,臭氧1小时,65,18,60,7,26,194,172,156,156,8,37,3,6,0.4,0.6
2023-08-14T16:00:00,1086A,112.5369,37.8692,太原市,桃园,臭氧1小时,79,26,47,12,21,216,183,154,154,8,30,4,7,0.5,0.8
2023-08-14T16:00:00,1087A,112.57,37.8195,太原市,坞城,臭氧1小时,78,22,49,10,23,206,182,163,163,7,29,6,8,0.2,0.7
2023-08-14T16:00:00,1088A,112.549,37.9854,太原市,南寨,臭氧1小时,98,49,56,19,25,235,198,166,166,13,35,6,5,0.6,0.6
2023-08-14T16:00:00,1090A,111.6507,40.7517,呼和浩特市,呼市一监,臭氧1小时,69,39,34,12,13,175,175,141,141,8,22,10,7,0.4,0.4
2023-08-14T16:00:00,1091A,111.6572,40.8033,呼和浩特市,小召,臭氧1小时,73,46,39,14,13,179,178,142,142,19,33,14,8,0.7,0.7
2023-08-14T16:00:00,1094A,111.7516,40.8369,呼和浩特市,如意水处理厂,臭氧1小时,90,40,33,17,12,198,192,154,154,8,26,9,7,0.4,0.4
2023-08-14T16:00:00,1095A,111.7276,40.8062,呼和浩特市,二十九中,臭氧1小时,75,34,35,13,12,183,180,144,144,10,30,11,8,0.5,0.5
2023-08-14T16:00:00,1096A,111.5512,40.7866,呼和浩特市,工大金川校区,臭氧1小时,73,36,37,13,11,178,178,136,136,10,28,9,10,0.5,0.5
2023-08-14T16:00:00,1097A,111.717,40.7612,呼和浩特市,化肥厂生活区,臭氧1小时,54,50,43,13,12,163,163,132,132,13,25,8,8,0.5,0.5
2023-08-14T16:00:00,1098A,123.6836,41.9339,沈阳市,森林路,,,,,,,,,,,,,,,,
2023-08-14T16:00:00,1099A,123.505,41.7406,沈阳市,浑南东路,,47,19,17,10,9,150,150,118,118,10,21,7,8,0.8,0.8
2023-08-14T16:00:00,1100A,123.4231,41.6989,沈阳市,新秀街,,47,21,18,8,8,151,148,114,114,9,25,6,6,0.7,0.8
2023-08-14T16:00:00,1102A,123.5903,41.8411,沈阳市,东陵路,,32,27,16,8,5,117,101,97,97,6,13,5,6,0.5,0.5
2023-08-14T16:00:00,1103A,123.4264,41.8467,沈阳市,陵东街,,38,15,15,12,10,130,120,104,104,17,20,6,4,0.6,0.7
2023-08-14T16:00:00,1104A,123.4114,41.7653,沈阳市,文化路,,46,21,20,14,13,147,146,118,118,13,29,6,7,0.6,0.7
2023-08-14T16:00:00,1105A,123.4678,41.7867,沈阳市,小河沿,,36,29,18,16,9,126,115,103,103,14,23,4,5,0.7,0.8
2023-08-14T16:00:00,1106A,123.4017,41.7972,沈阳市,太原街,,41,19,17,9,11,135,130,114,114,18,23,5,5,0.6,0.6
2023-08-14T16:00:00,1108A,123.3783,41.9228,沈阳市,京沈街,,40,18,20,8,10,135,128,100,100,5,17,4,5,0.6,0.6
2023-08-14T16:00:00,1109A,121.612,38.9741,大连市,甘井子,,35,13,18,6,14,134,112,103,103,10,10,3,3,0.4,0.7
2023-08-14T16:00:00,1110A,121.565,38.9511,大连市,周水子,,35,12,16,6,13,134,112,100,100,9,15,5,5,0.5,0.8
2023-08-14T16:00:00,1111A,121.5637,38.8845,大连市,星海三站,,34,12,14,5,14,137,106,96,96,10,14,7,7,0.4,0.6
2023-08-14T16:00:00,1112A,121.6302,38.9117,大连市,青泥洼桥,,33,12,19,6,15,127,103,96,96,16,16,5,5,0.7,0.9
2023-08-14T16:00:00,1113A,121.6251,38.8638,大连市,傅家庄,,36,7,15,5,14,141,114,104,104,10,11,8,7,0.5,0.7
2023-08-14T16:00:00,1114A,121.5213,38.8661,大连市,七贤岭,,38,9,10,6,12,151,121,109,109,8,9,5,5,0.5,0.7
2023-08-14T16:00:00,1115A,121.2529,38.8061,大连市,旅顺,,37,7,16,7,12,144,116,110,110,8,10,4,4,0.4,0.5
2023-08-14T16:00:00,1116A,121.7485,39.1311,大连市,金州,,35,12,16,6,14,131,109,103,103,12,12,7,7,0.5,0.8
2023-08-14T16:00:00,1117A,121.7811,39.0496,大连市,开发区,,48,21,31,18,17,152,152,109,109,13,13,5,3,1.1,1
2023-08-14T16:00:00,1118A,121.9762,39.0631,大连市,双D港,,35,20,19,12,16,132,111,116,116,10,13,6,6,0.7,0.7
2023-08-14T16:00:00,1119A,125.3325,43.9166,长春市,食品厂,,42,22,25,13,11,133,133,96,96,13,30,3,2,0.5,0.5
2023-08-14T16:00:00,1120A,125.2863,43.9027,长春市,客车厂,,39,18,23,12,11,128,124,88,88,21,27,4,3,0.5,0.6
2023-08-14T16:00:00,1121A,125.2841,43.8463,长春市,邮电学院,,41,12,19,6,6,133,130,100,100,6,12,4,4,0.4,0.4
2023-08-14T16:00:00,1122A,125.3716,43.8772,长春市,劳动公园,,37,19,17,8,7,122,117,93,93,10,19,6,5,0.5,0.5
2023-08-14T16:00:00,1123A,125.3297,43.8805,长春市,园林处,,39,23,17,7,7,132,123,94,94,12,22,4,4,0.5,0.5
2023-08-14T16:00:00,1124A,125.4605,43.79,长春市,净月潭,,32,9,11,5,3,101,101,82,82,3,4,5,5,0.3,0.4
2023-08-14T16:00:00,1125A,125.7194,43.515,长春市,甩湾子,,,,,,,,,,,,,,,,
2023-08-14T16:00:00,1126A,125.3863,43.8447,长春市,经开区环卫处,,33,18,17,6,5,115,105,87,87,8,20,4,4,0.3,0.4
2023-08-14T16:00:00,1127A,125.245,43.7783,长春市,高新区管委会,,35,15,16,6,6,109,109,90,90,5,14,3,3,0.4,0.4
2023-08-14T16:00:00,1128A,125.1761,43.8325,长春市,岱山公园,,36,15,18,7,8,118,114,89,89,10,23,2,2,0.5,0.5
2023-08-14T16:00:00,1129A,126.5422,45.755,哈尔滨市,岭北,,28,7,12,5,9,89,89,73,73,5,10,16,15,0.9,0.9
2023-08-14T16:00:00,1130A,126.561,45.8167,哈尔滨市,松北商大,,25,13,16,5,4,86,77,72,72,6,15,6,5,0.6,0.6
2023-08-14T16:00:00,1131A,126.979,45.5419,哈尔滨市,阿城会宁,,34,26,14,5,4,106,106,90,90,5,9,5,5,0.6,0.5
2023-08-14T16:00:00,1132A,126.599,45.7222,哈尔滨市,南岗学府路,,28,26,30,7,11,87,87,71,71,2,16,4,5,0.5,0.8
2023-08-14T16:00:00,1133A,126.689,45.7733,哈尔滨市,太平宏伟公园,,,,18,10,7,89,89,67,67,9,18,8,6,0.5,0.5
2023-08-14T16:00:00,1134A,126.635,45.7667,哈尔滨市,道外承德广场,,27,19,21,10,9,89,86,70,70,12,22,8,8,0.4,0.4
2023-08-14T16:00:00,1135A,126.685,45.7319,哈尔滨市,香坊红旗大街,,46,46,23,6,10,95,95,72,72,15,22,10,10,0.5,0.5
2023-08-14T16:00:00,1136A,126.6411,45.7258,哈尔滨市,动力和平路,,,25,24,,,89,89,71,71,14,20,9,10,0.6,0.5
2023-08-14T16:00:00,1137A,126.593,45.7478,哈尔滨市,道里建国路,颗粒物(PM10),52,54,31,10,10,83,82,68,68,11,25,6,8,0.8,1.4
2023-08-14T16:00:00,1138A,126.615,45.61,哈尔滨市,平房东轻厂,,27,18,19,11,6,86,84,66,66,4,8,5,5,0.5,0.5
2023-08-14T16:00:00,1139A,126.595,45.9855,哈尔滨市,呼兰师专,,28,25,29,8,10,102,88,78,78,7,19,7,7,0.5,0.5
2023-08-14T16:00:00,1140A,126.6206,45.6842,哈尔滨市,省农科院,,29,22,31,8,7,92,92,75,75,7,27,7,9,0.3,0.5
2023-08-14T16:00:00,1141A,121.4,31.238,上海市,普陀,,25,19,25,17,13,110,71,80,78,22,17,13,6,0.9,0.6
2023-08-14T16:00:00,1142A,121.478,31.2036,上海市,十五厂,,23,22,29,14,13,105,72,80,78,14,14,9,9,0.3,0.4
2023-08-14T16:00:00,1143A,121.467,31.3008,上海市,虹口,,23,19,26,6,13,90,72,76,76,17,15,8,8,0.4,0.4
2023-08-14T16:00:00,1144A,121.412,31.1654,上海市,徐汇上师大,,26,18,31,11,13,123,83,88,88,15,15,4,5,0.3,0.4
2023-08-14T16:00:00,1145A,121.536,31.2659,上海市,杨浦四漂,,28,28,31,8,13,89,76,83,83,12,16,5,5,0.5,0.6
2023-08-14T16:00:00,1147A,121.425,31.2261,上海市,静安监测站,,25,20,28,17,15,93,80,92,85,11,14,4,2,0.6,0.6
2023-08-14T16:00:00,1148A,121.703,31.1907,上海市,浦东川沙,,28,15,26,7,12,109,88,86,86,8,15,6,6,0.5,0.5
2023-08-14T16:00:00,1149A,121.533,31.2284,上海市,浦东新区监测站,,23,23,28,12,11,89,72,81,76,12,12,2,2,0.4,0.4
2023-08-14T16:00:00,1150A,121.577,31.2071,上海市,浦东张江,,,18,27,,7,90,66,79,72,9,11,5,5,0.5,0.5
2023-08-14T16:00:00,1151A,118.8086,32.1065,南京市,迈皋桥,,44,29,27,17,16,142,138,110,110,18,20,4,5,0.5,0.6
2023-08-14T16:00:00,1152A,118.7538,32.0551,南京市,草场门,,50,34,30,22,17,157,157,118,118,16,23,3,3,0.7,0.7
2023-08-14T16:00:00,1153A,118.7794,32.0745,南京市,山西路,,50,46,34,17,16,159,159,127,127,15,18,3,4,0.4,0.4
2023-08-14T16:00:00,1154A,118.7752,32.0023,南京市,中华门,,37,36,27,24,18,126,118,110,110,18,22,7,7,0.9,0.8
2023-08-14T16:00:00,1155A,118.8109,32.0309,南京市,瑞金路,,38,31,28,22,19,139,120,115,115,14,21,1,1,0.4,0.5
2023-08-14T16:00:00,1156A,118.7997,32.0754,南京市,玄武湖,,40,38,27,20,16,126,126,104,104,18,20,6,7,0.6,0.7
2023-08-14T16:00:00,1157A,118.6414,32.0931,南京市,浦口,臭氧1小时,70,37,32,27,16,176,176,118,118,11,10,6,5,0.5,0.5
2023-08-14T16:00:00,1158A,118.7356,31.9996,南京市,奥体中心,,45,23,25,19,19,142,142,114,114,13,21,7,7,0.6,0.6
2023-08-14T16:00:00,1159A,118.9125,32.1028,南京市,仙林大学城,,,24,28,12,16,139,129,118,118,,19,8,8,0.6,0.7
2023-08-14T16:00:00,1160A,120.561,31.2472,苏州市,上方山,,36,22,43,25,24,162,102,84,84,4,15,6,8,0.2,0.4
2023-08-14T16:00:00,1162A,120.591,31.3019,苏州市,彩香,,35,16,35,9,16,207,110,92,92,2,13,6,8,0.5,0.7
2023-08-14T16:00:00,1163A,120.596,31.3264,苏州市,轧钢厂,,34,21,38,8,16,214,108,98,98,12,19,8,11,0.5,0.6
2023-08-14T16:00:00,1164A,120.613,31.2703,苏州市,吴中区,,35,17,35,8,16,214,110,103,103,10,23,8,10,0.4,0.5
2023-08-14T16:00:00,1165A,120.543,31.2994,苏州市,苏州新区,,39,20,39,10,18,200,122,106,106,2,16,7,9,0.5,0.7
2023-08-14T16:00:00,1166A,120.669,31.3097,苏州市,苏州工业园区,,33,12,34,7,17,216,103,99,99,2,13,7,9,0.4,0.6
2023-08-14T16:00:00,1167A,120.641,31.3708,苏州市,相城区,,33,27,30,10,14,208,105,94,94,5,18,7,8,0.4,0.6
2023-08-14T16:00:00,1168A,120.9098,31.9663,南通市,狼山街道,,25,11,18,3,6,144,78,87,85,7,9,7,8,0.2,0.3
2023-08-14T16:00:00,1169A,120.86,32.0005,南通市,虹桥,,24,16,21,11,12,173,76,82,81,8,10,5,5,0.5,0.6
2023-08-14T16:00:00,1170A,120.87,32.02,南通市,城中,,21,17,19,4,8,168,65,82,71,2,6,6,5,0.4,0.5
2023-08-14T16:00:00,1171A,120.94,31.93,南通市,星湖花园,,26,15,18,2,5,134,82,84,84,6,9,5,5,0.3,0.4
2023-08-14T16:00:00,1172A,120.81,32.0417,南通市,紫琅学院,,25,16,21,2,6,187,79,79,79,5,9,5,5,0.4,0.5
2023-08-14T16:00:00,1173A,119.176,34.5885,连云港市,市环境监测站,,36,14,24,9,12,118,115,105,105,6,14,5,7,0.4,0.6
2023-08-14T16:00:00,1177A,117.179,34.2761,徐州市,黄河新村,臭氧1小时,54,48,45,26,27,174,163,144,144,13,19,8,10,0.6,0.7
2023-08-14T16:00:00,1178A,117.1918,34.2384,徐州市,淮塔,臭氧1小时,55,49,43,28,26,170,164,144,144,11,18,10,11,0.4,0.5
2023-08-14T16:00:00,1180A,117.256,34.2153,徐州市,新城区,臭氧1小时,59,39,43,20,26,175,167,153,153,4,11,8,9,0.6,0.7
2023-08-14T16:00:00,1181A,117.244,34.2911,徐州市,桃园路,,47,29,43,17,25,170,149,145,145,24,18,10,11,0.5,0.7
2023-08-14T16:00:00,1182A,117.2933,34.2778,徐州市,农科院,,50,29,39,13,24,168,157,146,146,13,23,6,8,0.4,0.6
2023-08-14T16:00:00,1186A,119.389,32.3761,扬州市,邗江监测站,,36,36,34,24,23,171,108,127,94,10,10,2,3,0.6,0.6
2023-08-14T16:00:00,1188A,120.269,31.4867,无锡市,雪浪,臭氧1小时,52,31,40,14,24,197,161,127,127,12,16,5,6,0.6,0.8
2023-08-14T16:00:00,1189A,120.275,31.6219,无锡市,黄巷,,44,37,53,19,26,175,139,116,116,19,33,7,8,0.8,0.9
2023-08-14T16:00:00,1190A,120.294,31.56,无锡市,曹张,,46,37,43,19,25,183,147,113,113,14,24,8,10,0.8,0.9
2023-08-14T16:00:00,1191A,120.242,31.5031,无锡市,漆塘,,49,41,38,19,24,173,154,125,125,10,20,5,6,1.2,1.3
2023-08-14T16:00:00,1192A,120.3489,31.5863,无锡市,东亭,,44,29,38,22,24,223,139,114,114,16,24,5,7,0.6,0.7
2023-08-14T16:00:00,1193A,120.354,31.5475,无锡市,旺庄,,45,29,38,14,22,226,143,114,114,4,14,8,10,0.7,0.9
2023-08-14T16:00:00,1194A,120.245,31.5631,无锡市,荣巷,,47,36,39,17,23,186,148,119,119,7,14,10,11,0.7,0.7
2023-08-14T16:00:00,1195A,120.299,31.6817,无锡市,堰桥,,44,29,41,14,20,207,140,112,112,7,19,6,6,0.9,1.1
2023-08-14T16:00:00,1196A,119.9633,31.762,常州市,市监测站,,50,33,42,19,24,171,160,113,113,11,21,8,9,0.6,0.6
2023-08-14T16:00:00,1200A,119.9468,31.7069,常州市,武进监测站,,,38,48,21,25,182,180,127,127,7,18,8,11,,0.6
2023-08-14T16:00:00,1201A,119.9255,31.9087,常州市,安家,,35,26,31,17,23,197,110,100,94,9,17,6,7,0.4,0.5
2023-08-14T16:00:00,1203A,119.6707,32.1875,镇江市,新区办事处,,39,16,28,10,23,180,123,89,88,17,28,2,3,0.3,0.5
2023-08-14T16:00:00,1204A,119.4974,32.1968,镇江市,职教中心,,42,28,30,19,19,175,132,104,104,10,13,3,3,0.6,0.7
2023-08-14T16:00:00,1205A,119.4303,32.1328,镇江市,丹徒区监测站,,46,33,32,17,28,183,146,105,105,11,16,1,2,0.7,0.8
2023-08-14T16:00:00,1206A,119.905,32.4878,泰州市,公园路,,31,19,28,12,22,205,97,98,86,10,10,4,4,0.5,0.7
2023-08-14T16:00:00,1207A,119.9189,32.4625,泰州市,莲花,,30,22,28,9,19,197,96,100,86,5,9,2,3,0.4,0.7
2023-08-14T16:00:00,1209A,119.888,32.4639,泰州市,留学生创业园,,30,17,27,6,16,192,94,96,86,5,9,4,5,0.4,0.6
2023-08-14T16:00:00,1210A,119.036,33.5981,淮安市,钵池山,,34,22,24,21,18,136,108,104,104,10,14,6,7,0.8,0.9
2023-08-14T16:00:00,1211A,119.007,33.575,淮安市,北京南路,,35,24,25,19,17,131,109,107,107,12,13,8,10,0.9,0.9
2023-08-14T16:00:00,1212A,118.989,33.6067,淮安市,市监测站,,37,29,29,19,12,144,118,109,109,8,12,5,6,0.8,0.9
2023-08-14T16:00:00,1213A,119.135,33.5039,淮安市,楚州区监测站,,39,17,27,8,13,135,123,110,110,6,10,6,8,0.8,0.9
2023-08-14T16:00:00,1214A,119.0186,33.6297,淮安市,淮阴区监测站,,37,24,25,21,18,142,117,107,107,6,9,6,7,0.7,0.7
2023-08-14T16:00:00,1215A,120.118,33.4022,盐城市,盐城电厂,,32,12,23,12,13,142,101,112,112,4,5,5,5,0.5,0.6
2023-08-14T16:00:00,1216A,120.156,33.3942,盐城市,市监测站,,33,11,21,8,14,158,105,119,119,6,7,5,4,0.5,0.6
2023-08-14T16:00:00,1218A,120.2144,33.38,盐城市,开发区管委会,,29,19,22,15,20,146,91,103,102,7,8,5,4,0.5,0.6
2023-08-14T16:00:00,1220A,118.293,33.9528,宿迁市,宿迁学院,,46,28,25,19,22,147,146,124,124,8,13,8,13,0.8,0.9
2023-08-14T16:00:00,1221A,118.2442,33.9592,宿迁市,宿迁中学,臭氧1小时,52,32,29,17,21,170,161,140,140,10,14,8,10,0.8,0.7
2023-08-14T16:00:00,1223A,120.2072,30.2111,杭州市,滨江,臭氧1小时,82,51,53,30,31,194,185,146,146,20,17,6,7,0.7,0.7
2023-08-14T16:00:00,1224A,120.0633,30.2747,杭州市,西溪,臭氧1小时,78,44,49,22,28,193,182,144,144,7,15,4,4,0.8,0.9
2023-08-14T16:00:00,1226A,120.3461,30.3153,杭州市,下沙,,,52,53,31,28,211,200,173,173,,16,3,3,0.6,0.8
2023-08-14T16:00:00,1227A,120.1269,30.2456,杭州市,卧龙桥,臭氧1小时,101,44,43,28,31,202,202,153,153,12,14,4,3,0.8,0.8
2023-08-14T16:00:00,1228A,120.1903,30.2692,杭州市,浙江农大,臭氧1小时,68,43,42,33,31,186,174,138,138,29,25,7,8,0.9,0.9
2023-08-14T16:00:00,1230A,120.1197,30.3119,杭州市,和睦小学,臭氧1小时,103,52,51,31,32,230,205,162,162,18,23,8,7,0.6,0.9
2023-08-14T16:00:00,1231A,120.3019,30.4183,杭州市,临平镇,臭氧1小时,106,44,49,26,26,224,211,170,170,7,11,5,5,0.7,0.7
2023-08-14T16:00:00,1232A,120.2697,30.1819,杭州市,城厢镇,臭氧1小时,106,60,50,40,39,212,212,162,162,14,18,7,7,0.7,0.7
2023-08-14T16:00:00,1233A,120.0883,30.1808,杭州市,云栖,臭氧1小时,62,42,49,24,27,169,169,128,128,7,13,6,6,0.6,0.6
2023-08-14T16:00:00,1234A,121.8358,29.911,宁波市,区环保大楼,,38,22,31,14,20,126,120,112,112,9,25,3,5,0.5,0.7
2023-08-14T16:00:00,1235A,121.56,29.82,宁波市,万里学院,,36,22,41,9,25,149,114,125,125,8,23,5,6,0.7,0.8
2023-08-14T16:00:00,1236A,121.713,29.9572,宁波市,龙赛医院,,36,28,59,15,21,128,114,110,110,7,27,8,9,0.4,0.6
2023-08-14T16:00:00,1239A,121.633,29.7733,宁波市,钱湖水厂,,,18,46,12,29,162,113,123,123,6,14,,4,0.5,0.7
2023-08-14T16:00:00,1240A,121.5856,29.8635,宁波市,太古小学,,34,27,37,12,20,134,106,114,114,9,20,5,5,0.8,0.9
2023-08-14T16:00:00,1241A,121.524,29.8674,宁波市,市环境监测中心,,38,15,36,12,18,152,120,129,129,2,17,5,6,0.4,0.5
2023-08-14T16:00:00,1242A,120.634,28.0089,温州市,瓯海,,24,24,31,14,18,111,64,78,78,19,23,5,5,0.6,0.6
2023-08-14T16:00:00,1243A,120.6748,27.9939,温州市,南浦,,25,25,28,13,16,129,68,88,88,20,22,6,7,0.5,0.5
2023-08-14T16:00:00,1244A,120.76,27.9747,温州市,龙湾,,21,20,33,10,14,131,67,88,88,28,28,6,6,0.6,0.6
2023-08-14T16:00:00,1245A,120.6709,28.0167,温州市,市站,,29,29,33,13,19,107,62,75,75,24,22,5,5,0.6,0.6
2023-08-14T16:00:00,1247A,120.6053,29.9928,绍兴市,城东开发委,臭氧1小时,101,58,61,37,41,203,202,165,165,20,20,5,5,0.7,0.6
2023-08-14T16:00:00,1250A,120.0751,30.8669,湖州市,城西水厂,,50,15,45,9,31,169,157,134,134,7,30,3,6,0.5,0.7
2023-08-14T16:00:00,1252A,120.7436,30.778,嘉兴市,清河小学,,44,17,34,8,20,169,139,121,121,3,10,8,9,0.5,0.5
2023-08-14T16:00:00,1253A,120.726,30.7478,嘉兴市,嘉兴学院,,45,26,37,8,24,168,144,126,126,11,15,3,3,0.5,0.6
2023-08-14T16:00:00,1255A,121.273,28.6459,台州市,黄岩环保大楼,,31,10,33,8,21,147,98,115,115,18,16,4,4,0.7,0.7
2023-08-14T16:00:00,1256A,121.419,28.6542,台州市,台州环保大楼,,24,20,32,10,20,135,75,102,102,15,15,4,4,0.6,0.6
2023-08-14T16:00:00,1257A,121.377,28.5773,台州市,路桥田洋王,,26,10,33,8,20,146,83,110,110,17,17,4,4,0.4,0.4
2023-08-14T16:00:00,1258A,122.122,30.0203,舟山市,定海檀枫,,35,24,38,13,20,134,112,109,109,7,20,6,6,0.4,0.5
2023-08-14T16:00:00,1259A,122.3094,29.9558,舟山市,普陀东港,,42,26,42,18,21,224,134,147,147,12,22,4,5,0.4,0.5
2023-08-14T16:00:00,1260A,122.19,29.9944,舟山市,临城新区,,38,27,38,11,20,155,119,127,127,5,23,6,7,0.3,0.4
2023-08-14T16:00:00,1262A,119.647,29.077,金华市,十五中,,42,37,49,20,20,134,134,77,77,18,22,2,3,0.5,0.6
2023-08-14T16:00:00,1263A,119.686,29.1029,金华市,监测站,,41,29,39,21,26,131,131,84,84,14,22,5,5,0.6,0.7
2023-08-14T16:00:00,1264A,118.8692,28.9398,衢州市,环保大楼,,33,27,21,20,13,109,104,72,72,12,14,4,4,0.5,0.5
2023-08-14T16:00:00,1265A,118.8709,28.9666,衢州市,实验学校,,37,27,27,19,12,116,116,78,78,15,18,6,6,0.4,0.3
2023-08-14T16:00:00,1266A,118.8621,28.9808,衢州市,衢州学院,,35,21,19,10,7,112,112,73,73,8,20,6,6,0.5,0.5
2023-08-14T16:00:00,1267A,119.914,28.4514,丽水市,监测站大楼,,30,22,16,10,7,121,93,75,75,11,13,5,5,0.6,0.6
2023-08-14T16:00:00,1268A,119.93,28.4586,丽水市,莲都小学,,30,17,15,12,6,123,95,80,80,11,9,5,5,0.5,0.5
2023-08-14T16:00:00,1269A,119.879,28.4231,丽水市,余庄前,,23,12,18,8,13,113,72,64,64,13,12,4,4,0.5,0.5
2023-08-14T16:00:00,1270A,117.1959,31.7848,合肥市,明珠广场,,41,22,36,19,24,136,131,120,120,13,15,5,6,0.5,0.6
2023-08-14T16:00:00,1271A,117.3072,31.8764,合肥市,三里街,,34,17,33,19,25,132,108,102,102,11,15,4,5,0.3,0.4
2023-08-14T16:00:00,1272A,117.2588,31.8707,合肥市,琥珀山庄,,38,14,33,17,24,147,120,119,119,10,12,4,5,0.6,0.6
2023-08-14T16:00:00,1273A,117.1604,31.9052,合肥市,董铺水库,,37,19,36,12,22,135,118,115,115,8,11,3,4,0.4,0.5
2023-08-14T16:00:00,1274A,117.25,31.8571,合肥市,长江中路,,39,24,38,18,24,143,124,120,120,6,9,6,7,0.5,0.6
2023-08-14T16:00:00,1275A,117.266,31.9436,合肥市,庐阳区,,35,19,37,12,26,132,110,111,111,10,12,4,5,0.5,0.6
2023-08-14T16:00:00,1276A,117.336,31.8586,合肥市,瑶海区,,37,31,40,21,22,126,118,108,108,9,9,8,9,0.6,0.7
2023-08-14T16:00:00,1277A,117.3027,31.7964,合肥市,包河区,,39,22,34,24,24,136,124,112,112,16,22,5,5,0.5,0.6
2023-08-14T16:00:00,1278A,117.2776,31.7385,合肥市,滨湖新区,,41,19,35,14,20,139,130,118,118,7,13,6,5,0.6,0.6
2023-08-14T16:00:00,1279A,117.1318,31.8403,合肥市,高新区,,41,22,38,17,27,136,129,119,119,11,13,8,9,0.5,0.7
2023-08-14T16:00:00,1280A,119.3903,26.0543,福州市,鼓山,,,,,,,,,,,,,,,,
2023-08-14T16:00:00,1282A,119.2681,26.0504,福州市,师大,,34,34,34,15,16,114,67,88,88,11,12,4,4,0.4,0.4
2023-08-14T16:00:00,1283A,119.2984,26.1028,福州市,五四北路,,46,46,32,22,15,111,91,91,91,13,12,2,3,0.5,0.4
2023-08-14T16:00:00,1284A,119.2648,26.0768,福州市,杨桥西路,,50,39,33,35,16,101,68,78,78,13,12,3,3,0.4,0.4
2023-08-14T16:00:00,1285A,119.317,26.0746,福州市,紫阳,,28,28,31,15,14,106,79,86,86,10,11,3,3,0.5,0.4
2023-08-14T16:00:00,1286A,118.1608,24.8169,厦门市,溪东,,,,,,,,,,,,,,,,
2023-08-14T16:00:00,1287A,118.1514,24.4767,厦门市,洪文,,26,26,20,11,11,81,81,62,62,5,9,2,2,0.2,0.1
2023-08-14T16:00:00,1288A,118.0661,24.4444,厦门市,鼓浪屿,,23,23,27,10,14,73,73,57,57,2,7,3,2,0.4,0.3
2023-08-14T16:00:00,1290A,115.8931,28.6843,南昌市,省外办,,40,37,23,24,13,134,125,114,114,8,10,3,3,0.7,0.6
2023-08-14T16:00:00,1291A,115.8886,28.7003,南昌市,省林业公司,,37,29,19,24,12,126,117,106,106,6,13,5,5,0.6,0.5
2023-08-14T16:00:00,1292A,115.8126,28.7442,南昌市,林科所,,40,14,8,14,8,125,125,103,103,6,9,4,4,0.6,0.6
2023-08-14T16:00:00,1294A,115.8518,28.687,南昌市,建工学校,,42,17,17,13,7,143,132,118,118,7,6,6,6,0.6,0.5
2023-08-14T16:00:00,1295A,115.8921,28.6424,南昌市,象湖,,37,24,18,25,13,134,117,114,114,18,10,5,5,0.7,0.5
2023-08-14T16:00:00,1296A,115.7423,28.7996,南昌市,武术学校,,32,20,18,22,13,100,94,85,85,6,6,4,5,0.5,0.3
2023-08-14T16:00:00,1298A,115.9314,28.6842,南昌市,省站,,46,40,24,29,12,147,147,120,120,6,8,6,6,0.9,0.6
2023-08-14T16:00:00,1299A,116.9862,36.6114,济南市,科干所,臭氧1小时,90,39,32,29,18,192,192,145,145,9,18,8,7,0.4,0.4
2023-08-14T16:00:00,1300A,116.9376,36.665,济南市,农科所,臭氧1小时,109,44,33,20,16,218,218,161,161,18,23,12,9,0.5,0.4
2023-08-14T16:00:00,1301A,117.1265,36.6734,济南市,开发区,臭氧1小时,114,51,30,24,17,228,228,161,161,12,21,9,6,0.7,0.6
2023-08-14T16:00:00,1303A,117.0624,36.6868,济南市,省种子仓库,臭氧1小时,109,53,32,29,15,217,217,153,153,10,17,10,6,0.6,0.6
2023-08-14T16:00:00,1304A,116.9489,36.6447,济南市,机床二厂,臭氧1小时,106,44,38,22,15,212,212,154,154,17,25,10,9,0.7,0.7
2023-08-14T16:00:00,1305A,117.0495,36.663,济南市,市监测站,臭氧1小时,107,51,32,29,18,214,214,155,155,16,26,9,3,0.5,0.5
2023-08-14T16:00:00,1306A,116.7675,36.5484,济南市,长清党校,臭氧1小时,89,42,34,24,19,191,191,150,150,12,21,8,7,0.6,0.6
2023-08-14T16:00:00,1307A,120.6659,36.2403,青岛市,仰口,,,,12,,14,103,103,87,87,8,6,15,7,0.4,0.3
2023-08-14T16:00:00,1310A,120.4134,36.0658,青岛市,市南区东部子站,,43,9,21,7,12,136,135,122,122,8,20,5,6,0.5,0.5
2023-08-14T16:00:00,1311A,120.3664,36.1032,青岛市,四方区子站,,45,19,24,9,13,152,142,134,134,16,17,6,6,0.5,0.6
2023-08-14T16:00:00,1312A,120.2994,36.054,青岛市,市南区西部子站,,39,14,27,5,12,145,122,123,123,22,16,10,7,0.6,0.6
2023-08-14T16:00:00,1313A,120.4581,36.0858,青岛市,崂山区子站,,43,9,17,7,12,137,137,122,122,13,21,7,7,0.5,0.5
2023-08-14T16:00:00,1314A,120.1983,35.9608,青岛市,黄岛区子站,,48,12,27,5,16,164,152,140,140,13,34,5,7,0.6,0.6
2023-08-14T16:00:00,1315A,120.3999,36.3083,青岛市,城阳区子站,,45,17,26,5,14,141,141,131,131,14,15,6,6,0.5,0.5
2023-08-14T16:00:00,1316A,113.69031,34.76122,郑州市,烟厂,,50,29,34,14,19,160,159,150,150,10,17,1,2,0.5,0.6
2023-08-14T16:00:00,1317A,113.65724,34.77134,郑州市,郑纺机,,,29,36,,,169,166,156,156,4,9,2,2,0.5,0.7
2023-08-14T16:00:00,1318A,113.67526,34.80246,郑州市,银行学校,,49,30,30,10,20,167,156,150,150,7,12,2,2,0.5,0.6
2023-08-14T16:00:00,1319A,113.56746,34.81334,郑州市,供水公司,臭氧1小时,75,37,42,17,20,180,180,154,154,10,26,1,1,0.6,0.7
2023-08-14T16:00:00,1320A,113.7329,34.7178,郑州市,经开区管委,,45,20,38,11,25,147,144,138,138,7,15,3,3,0.5,0.6
2023-08-14T16:00:00,1321A,113.73961,34.77172,郑州市,四十七中,,,,,,,,,,,,,,,,
2023-08-14T16:00:00,1322A,113.60532,34.74838,郑州市,市监测站,臭氧1小时,65,33,38,17,21,175,172,159,159,8,15,3,3,0.4,0.6
2023-08-14T16:00:00,1323A,113.64164,34.7525,郑州市,河医大,,47,34,40,15,21,155,149,139,139,9,14,4,3,0.6,0.7
2023-08-14T16:00:00,1324A,113.51488,34.91089,郑州市,岗李水库,,,,,,,,,,,,,,,,
2023-08-14T16:00:00,1325A,114.3677,30.5584,武汉市,东湖梨园,臭氧1小时,77,34,24,22,16,198,181,144,144,11,14,8,8,1.2,1
2023-08-14T16:00:00,1326A,114.2529,30.558,武汉市,汉阳月湖,,44,29,25,12,11,139,139,118,118,14,17,8,7,0.7,0.7
2023-08-14T16:00:00,1327A,114.282,30.6189,武汉市,汉口花桥,,45,34,26,22,17,144,142,126,126,11,11,8,8,0.5,0.5
2023-08-14T16:00:00,1328A,114.3025,30.5332,武汉市,武昌紫阳,臭氧1小时,79,34,26,21,13,187,183,142,142,10,14,6,6,0.8,0.8
2023-08-14T16:00:00,1329A,114.3646,30.6217,武汉市,青山钢花,,44,29,28,19,18,144,140,124,124,9,15,7,7,0.6,0.5
2023-08-14T16:00:00,1330A,114.1566,30.4825,武汉市,沌口新区,臭氧1小时,103,37,28,27,21,206,206,148,148,12,16,6,6,0.8,0.6
2023-08-14T16:00:00,1331A,114.3014,30.5944,武汉市,汉口江滩,,41,27,24,22,14,150,129,126,126,17,10,5,5,0.5,0.5
2023-08-14T16:00:00,1333A,114.135,30.6319,武汉市,吴家山,臭氧1小时,55,33,30,29,14,164,164,132,132,20,14,6,6,0.8,0.6
2023-08-14T16:00:00,1334A,113.8454,30.2917,武汉市,沉湖七壕,,48,30,27,17,14,165,151,128,128,10,14,7,7,0.8,0.7
2023-08-14T16:00:00,1335A,113.0833,28.2325,长沙市,经开区环保局,,33,21,30,15,18,118,105,93,93,3,9,3,4,0.4,0.4
2023-08-14T16:00:00,1336A,112.8872,28.2189,长沙市,高开区环保局,,39,24,24,23,18,122,122,96,96,2,7,5,5,0.7,0.7
2023-08-14T16:00:00,1337A,113.0792,28.2053,长沙市,马坡岭,,37,23,33,18,23,134,118,108,108,5,12,4,5,0.4,0.4
2023-08-14T16:00:00,1338A,112.9394,28.19,长沙市,湖南师范大学,,36,28,32,20,19,116,114,96,96,5,8,1,2,0.5,0.5
2023-08-14T16:00:00,1339A,113.0178,28.1322,长沙市,雨花区环保局,,36,25,33,22,19,131,114,104,104,6,8,5,5,0.5,0.4
2023-08-14T16:00:00,1340A,112.9792,28.2597,长沙市,伍家岭,,35,31,29,20,20,119,111,100,100,7,9,2,3,0.4,0.4
2023-08-14T16:00:00,1341A,113.0014,28.1944,长沙市,火车新站,,34,20,23,17,21,116,106,95,95,4,7,5,5,0.5,0.5
2023-08-14T16:00:00,1342A,112.9844,28.1178,长沙市,天心区环保局,,40,29,26,26,21,134,125,107,107,4,8,2,2,0.6,0.6
2023-08-14T16:00:00,1343A,112.8908,28.1308,长沙市,湖南中医药大学,,41,30,26,19,16,130,129,110,110,2,5,1,2,0.8,0.8
2023-08-14T16:00:00,1344A,112.9581,28.3611,长沙市,沙坪,,37,35,32,17,19,123,118,94,94,3,6,6,7,0.4,0.6
2023-08-14T16:00:00,1345A,113.2347,23.1423,广州市,广雅中学,,42,35,30,22,16,153,133,108,108,20,19,5,5,0.6,0.6
2023-08-14T16:00:00,1346A,113.2612,23.105,广州市,市五中,,40,29,30,21,17,165,125,112,112,12,13,5,4,0.7,0.7
2023-08-14T16:00:00,1348A,113.3478,23.0916,广州市,广东商学院,,33,31,31,20,17,149,103,100,100,12,20,4,4,0.5,0.6
2023-08-14T16:00:00,1349A,113.4332,23.1047,广州市,市八十六中,,28,21,35,10,18,125,89,87,87,12,21,4,4,0.7,0.8
2023-08-14T16:00:00,1350A,113.3505,22.9483,广州市,番禺中学,,,,24,,11,130,,84,84,,17,,4,,0.6
2023-08-14T16:00:00,1351A,113.2146,23.3916,广州市,花都师范,,49,48,37,34,22,186,152,122,122,28,26,6,7,0.7,0.7
2023-08-14T16:00:00,1352A,113.2597,23.1331,广州市,市监测站,,41,40,30,23,16,155,130,111,111,17,17,6,6,0.7,0.8
2023-08-14T16:00:00,1353A,113.5618,23.312,广州市,九龙镇镇龙,,28,24,36,14,18,150,88,76,76,15,26,5,5,0.5,0.5
2023-08-14T16:00:00,1354A,113.2765,23.1544,广州市,麓湖,,43,31,26,18,15,148,136,102,102,14,14,6,6,0.8,0.8
2023-08-14T16:00:00,1355A,113.443,23.3035,广州市,帽峰山森林公园,,35,19,31,13,16,149,112,110,110,10,19,7,8,0.3,0.4
2023-08-14T16:00:00,1356A,114.1063,22.5545,深圳市,通心岭子站,,20,20,19,14,9,45,39,29,29,13,12,4,4,0.9,0.9
2023-08-14T16:00:00,1357A,114.117,22.5625,深圳市,洪湖,,25,25,24,11,11,70,64,43,43,17,17,5,5,0.7,0.7
2023-08-14T16:00:00,1358A,113.987,22.5417,深圳市,华侨城,,25,24,20,17,11,61,61,40,40,14,15,6,6,0.6,0.6
2023-08-14T16:00:00,1359A,113.9181,22.5171,深圳市,南海子站,,,82,59,28,20,56,37,42,40,33,22,5,5,,0.7
2023-08-14T16:00:00,1360A,114.2458,22.5689,深圳市,盐田,,32,20,23,14,14,54,31,21,21,64,40,6,5,0.6,0.7
2023-08-14T16:00:00,1361A,114.2283,22.7244,深圳市,龙岗,,28,28,23,16,12,85,85,54,54,22,20,7,7,0.7,0.9
2023-08-14T16:00:00,1363A,114.494,22.5422,深圳市,南澳,,24,22,22,8,9,75,75,65,65,6,7,6,7,0.7,0.6
2023-08-14T16:00:00,1364A,114.41,22.6342,深圳市,葵涌,,28,28,27,3,9,80,78,53,53,3,10,3,3,0.7,0.7
2023-08-14T16:00:00,1365A,114.297,22.5978,深圳市,梅沙,,30,30,24,16,11,81,76,53,53,6,9,5,5,0.6,0.6
2023-08-14T16:00:00,1366A,114.0678,22.738,深圳市,观澜,,31,31,27,17,13,74,58,32,32,23,20,6,6,0.5,0.5
2023-08-14T16:00:00,1367A,113.5814,22.2618,珠海市,吉大,,22,22,19,9,10,76,53,56,56,15,11,4,4,0.6,0.5
2023-08-14T16:00:00,1368A,113.4881,22.2335,珠海市,前山,,23,23,18,7,11,90,33,55,55,39,15,7,7,0.6,0.5
2023-08-14T16:00:00,1369A,113.628,22.4251,珠海市,唐家,,26,19,18,18,10,80,49,53,53,4,5,4,4,0.3,0.3
2023-08-14T16:00:00,1370A,113.299,22.2281,珠海市,斗门,,38,25,18,26,13,74,50,57,57,16,11,5,6,0.4,0.7
2023-08-14T16:00:00,1371A,113.1294,23.0067,佛山市,湾梁,,26,12,17,16,11,144,81,98,98,8,10,4,4,0.4,0.4
2023-08-14T16:00:00,1372A,113.1083,23.0478,佛山市,华材职中,,27,14,18,13,10,126,85,93,93,7,9,7,7,0.5,0.5
2023-08-14T16:00:00,1373A,113.144,23.0453,佛山市,南海气象局,,36,36,27,21,14,139,82,101,101,12,13,4,6,0.4,0.5
2023-08-14T16:00:00,1374A,113.2881,22.8094,佛山市,顺德苏岗,,25,20,8,14,11,146,78,103,103,17,12,6,7,0.7,0.6
2023-08-14T16:00:00,1376A,112.8383,22.8678,佛山市,高明孔堂,,27,19,23,13,10,90,85,77,77,5,7,4,5,0.5,0.5
2023-08-14T16:00:00,1377A,112.8836,23.1588,佛山市,三水监测站,,39,39,27,23,17,139,108,98,98,16,21,4,5,0.6,0.7
2023-08-14T16:00:00,1378A,112.867,23.185,佛山市,三水云东海,,41,23,31,19,17,136,129,106,106,14,17,7,7,0.5,0.5
2023-08-14T16:00:00,1379A,113.3769,22.5211,中山市,华柏园,,15,5,21,10,13,79,48,59,59,14,10,3,3,0.5,0.5
2023-08-14T16:00:00,1380A,113.3881,22.5497,中山市,张溪,,19,16,25,1,11,98,58,68,68,10,7,3,4,0.5,0.5
2023-08-14T16:00:00,1381A,113.4075,22.5111,中山市,紫马岭,,13,2,19,7,12,82,40,57,57,12,7,4,5,0.3,0.3
2023-08-14T16:00:00,1382A,113.4411,22.4853,中山市,长江旅游区,,16,0,19,6,8,80,49,57,57,2,4,8,12,0.6,0.6
2023-08-14T16:00:00,1383A,113.1064,22.6058,江门市,北街,,21,10,24,12,15,93,66,75,75,9,12,5,5,0.4,0.5
2023-08-14T16:00:00,1384A,113.0731,22.5835,江门市,西区,,25,18,26,15,12,91,80,73,73,13,15,6,6,0.5,0.5
2023-08-14T16:00:00,1385A,113.0219,22.5311,江门市,圭峰西,,27,27,27,16,14,89,68,69,69,8,14,4,4,0.7,0.7
2023-08-14T16:00:00,1386A,113.0828,22.5947,江门市,东湖,,27,25,25,16,12,95,86,81,81,10,11,7,7,0.4,0.5
2023-08-14T16:00:00,1389A,113.7547,23.0494,东莞市,莞城梨川,,29,25,26,14,13,118,90,77,77,11,16,9,9,0.7,0.7
2023-08-14T16:00:00,1390A,113.7944,23.0128,东莞市,东城石井,,34,34,28,16,13,116,83,70,70,10,15,7,7,0.6,0.7
2023-08-14T16:00:00,1391A,113.7383,22.9658,东莞市,南城西平,,34,34,27,20,13,115,78,67,67,13,15,8,6,0.9,0.8
2023-08-14T16:00:00,1392A,114.4183,23.0528,惠州市,河南岸金山湖子站,,28,16,26,5,10,88,88,62,62,9,17,4,4,0.5,0.5
2023-08-14T16:00:00,1393A,114.4053,23.0822,惠州市,下埔横江三路子站,,27,18,25,9,13,86,85,64,64,7,14,4,5,0.5,0.6
2023-08-14T16:00:00,1394A,114.4103,23.1142,惠州市,江北云山西路子站,,27,19,25,10,12,94,85,67,67,6,12,4,5,0.4,0.5
2023-08-14T16:00:00,1395A,114.4645,22.7833,惠州市,惠阳区承修路船湖子站,,26,25,22,17,12,84,82,58,58,11,13,4,5,0.8,0.8
2023-08-14T16:00:00,1396A,114.5317,22.7422,惠州市,大亚湾管委会子站,,31,31,25,17,12,92,88,67,67,12,19,4,4,0.7,0.7
2023-08-14T16:00:00,1397A,112.4267,23.0706,肇庆市,睦岗子站,,40,37,31,28,21,115,81,86,86,8,15,10,14,0.5,0.5
2023-08-14T16:00:00,1398A,112.4645,23.0475,肇庆市,城中子站,,28,25,32,19,19,102,72,80,80,11,16,8,11,0.5,0.6
2023-08-14T16:00:00,1399A,112.5544,23.1522,肇庆市,坑口子站,,43,43,34,23,21,116,87,86,86,11,17,5,9,0.2,0.3
2023-08-14T16:00:00,1400A,112.4753,23.1,肇庆市,七星岩子站,,,,,,,,,,,,,,,,
2023-08-14T16:00:00,1401A,108.3103,22.7881,南宁市,二十一中,,25,6,27,9,16,110,78,85,85,14,12,4,5,0.8,0.9
2023-08-14T16:00:00,1402A,108.3141,22.8528,南宁市,北湖,,25,13,30,9,19,126,80,89,89,15,9,4,4,0.6,0.7
2023-08-14T16:00:00,1403A,108.3206,22.8225,南宁市,市监测站,,,,31,12,17,117,76,85,85,25,14,6,7,0.6,0.7
2023-08-14T16:00:00,1404A,108.3829,22.8037,南宁市,大自然花园,,20,15,28,11,18,108,63,78,78,15,10,5,5,0.8,0.8
2023-08-14T16:00:00,1405A,108.4394,22.7904,南宁市,仙葫,,23,13,25,9,17,106,72,76,76,17,11,5,5,0.6,0.7
2023-08-14T16:00:00,1406A,108.2397,22.8467,南宁市,区农职院,,23,18,31,8,17,153,73,87,87,22,17,6,6,0.5,0.6
2023-08-14T16:00:00,1407A,108.3275,22.735,南宁市,英华嘉园,,19,11,32,8,17,100,58,71,71,20,16,5,5,0.7,0.7
2023-08-14T16:00:00,1408A,108.2257,22.7757,南宁市,沙井镇街道办,,19,6,36,13,18,116,50,78,78,35,19,7,5,0.7,0.8
2023-08-14T16:00:00,1409A,110.576,19.9507,海口市,东寨港,,,,,,,,,,,,,,,,
2023-08-14T16:00:00,1410A,110.3232,20.0574,海口市,海南大学,,33,33,31,10,15,100,70,72,72,6,20,6,6,0.3,0.4
2023-08-14T16:00:00,1411A,110.283,20.0053,海口市,秀英海南医院,,27,27,33,9,17,70,64,64,64,10,29,6,6,0.3,0.5
2023-08-14T16:00:00,1412A,110.338,19.9969,海口市,海南师范大学,,34,34,30,8,17,73,70,60,60,8,17,6,7,0.4,0.5
2023-08-14T16:00:00,1413A,110.33,20.0356,海口市,龙华路环保局宿舍,,30,30,29,13,17,80,67,58,58,7,18,6,7,0.3,0.4
2023-08-14T16:00:00,1414A,106.3787,29.8279,重庆市,缙云山,,50,11,17,3,8,157,157,131,125,6,7,8,10,0.3,0.3
2023-08-14T16:00:00,1416A,106.4213,29.8253,重庆市,天生,,41,11,26,4,18,130,130,102,102,5,22,6,7,0.8,0.9
2023-08-14T16:00:00,1417A,106.6263,29.7228,重庆市,两路,,48,16,22,11,18,153,153,119,119,20,28,8,7,0.7,0.8
2023-08-14T16:00:00,1418A,106.2953,29.5983,重庆市,虎溪,,,22,33,14,18,145,140,109,109,,38,5,6,0.5,0.6
2023-08-14T16:00:00,1419A,106.5777,29.5102,重庆市,南坪,,44,22,35,11,20,160,140,108,108,6,19,6,7,0.5,0.5
2023-08-14T16:00:00,1420A,106.6556,29.6277,重庆市,唐家沱,,50,13,26,10,18,163,160,124,124,10,20,7,6,0.4,0.5
2023-08-14T16:00:00,1421A,106.6349,29.4906,重庆市,茶园,,39,21,39,4,14,156,122,95,95,7,29,5,5,0.6,0.7
2023-08-14T16:00:00,1422A,106.3754,29.4572,重庆市,白市驿,臭氧1小时,55,19,27,12,14,164,164,123,123,8,13,6,7,0.5,0.5
2023-08-14T16:00:00,1425A,106.6205,29.7166,重庆市,空港,臭氧1小时,60,23,30,7,16,168,168,136,136,7,22,10,9,0.7,0.8
2023-08-14T16:00:00,1426A,106.4782,29.4875,重庆市,新山村,臭氧1小时,55,19,36,5,17,164,164,125,125,14,25,6,7,0.4,0.4
2023-08-14T16:00:00,1427A,106.5616,29.6453,重庆市,礼嘉,,50,13,43,6,19,165,157,126,126,6,29,7,8,0.7,0.8
2023-08-14T16:00:00,1428A,106.4522,29.7091,重庆市,蔡家,,45,21,34,6,16,143,143,104,104,8,18,7,7,0.5,0.6
2023-08-14T16:00:00,1429A,106.5093,29.3917,重庆市,鱼新街,,42,15,30,11,14,151,132,110,110,17,21,5,7,0.7,0.8
2023-08-14T16:00:00,1431A,103.9728,30.7236,成都市,金泉两河,臭氧1小时,79,59,35,43,19,194,183,151,151,8,16,4,4,0.5,0.5
2023-08-14T16:00:00,1432A,104.176,30.6872,成都市,十里店,,,,34,,13,90,,82,32,,38,,34,,0.6
2023-08-14T16:00:00,1433A,104.079,30.5706,成都市,三瓦窑,,41,31,34,15,16,194,129,125,125,12,36,1,3,0.4,0.5
2023-08-14T16:00:00,1434A,104.1114,30.63,成都市,沙河铺,,35,19,30,2,13,163,109,118,118,9,17,2,3,0.4,0.5
2023-08-14T16:00:00,1437A,104.0786,30.6531,成都市,君平街,颗粒物(PM10),53,55,43,30,21,223,157,136,136,11,31,2,3,0.5,0.5
2023-08-14T16:00:00,1438A,103.613,31.0283,成都市,灵岩寺,,35,17,24,11,14,156,112,114,114,3,8,4,15,0.6,0.7
2023-08-14T16:00:00,1439A,106.6899,26.5998,贵阳市,马鞍山,,32,27,22,14,8,102,100,64,64,9,11,5,5,0.6,0.5
2023-08-14T16:00:00,1440A,106.6971,26.5694,贵阳市,市环保站,,42,22,24,16,18,134,134,85,85,11,18,4,4,0.3,0.2
2023-08-14T16:00:00,1441A,106.6243,26.6266,贵阳市,鉴湖路,,40,19,23,9,11,127,127,77,77,9,13,4,4,0.4,0.3
2023-08-14T16:00:00,1442A,106.7487,26.6343,贵阳市,燕子冲,,40,14,18,27,16,125,125,83,83,6,14,5,5,0.6,0.6
2023-08-14T16:00:00,1443A,106.6555,26.4365,贵阳市,碧云窝,,29,27,32,12,12,139,91,86,86,14,10,4,5,0.5,0.4
2023-08-14T16:00:00,1444A,106.694,26.5161,贵阳市,中院村,,31,29,28,12,14,110,97,78,78,19,16,5,5,0.4,0.4
2023-08-14T16:00:00,1445A,106.7109,26.6027,贵阳市,红边门,,43,27,27,29,19,136,136,83,83,10,18,6,5,0.6,0.6
2023-08-14T16:00:00,1446A,106.7164,26.5699,贵阳市,新华路,,46,19,26,14,17,146,146,95,95,10,17,4,5,0.6,0.4
2023-08-14T16:00:00,1447A,106.674,26.5424,贵阳市,太慈桥,,42,12,20,12,11,134,134,87,87,10,15,3,3,0.5,0.5
2023-08-14T16:00:00,1450A,102.8204,24.8886,昆明市,呈贡新区,,38,21,36,17,22,125,120,98,98,10,23,2,9,0.4,0.7
2023-08-14T16:00:00,1451A,102.6251,24.9608,昆明市,西山森林公园,臭氧1小时,64,22,19,18,17,171,171,114,114,8,13,7,11,0.5,0.6
2023-08-14T16:00:00,1452A,102.7252,25.0902,昆明市,龙泉镇,,45,17,26,19,14,142,142,103,103,9,12,8,9,0.6,0.7
2023-08-14T16:00:00,1453A,102.7266,25.0375,昆明市,东风东路,,44,33,35,20,17,140,140,109,109,13,24,6,8,0.4,0.5
2023-08-14T16:00:00,1454A,102.6742,25.0669,昆明市,金鼎山,,50,32,41,17,18,158,158,112,112,11,15,6,34,0.4,0.5
2023-08-14T16:00:00,1455A,102.6644,25.0401,昆明市,碧鸡广场,,47,17,17,18,23,150,150,109,109,10,19,6,18,0.5,0.6
2023-08-14T16:00:00,1456A,91.1319,29.6514,拉萨市,八廓街,,30,13,14,9,8,93,93,68,68,11,17,7,6,0.2,0.3
2023-08-14T16:00:00,1457A,91.1221,29.6747,拉萨市,市环保局,,27,9,10,5,6,84,84,62,62,8,12,7,6,0.2,0.3
2023-08-14T16:00:00,1458A,91.0874,29.6475,拉萨市,区监测站,,27,5,8,6,6,84,84,59,59,6,15,8,8,0.2,0.2
2023-08-14T16:00:00,1459A,91.1774,29.6541,拉萨市,西藏大学,,29,6,11,5,6,92,92,63,63,5,12,11,11,0.2,0.3
2023-08-14T16:00:00,1460A,90.9798,29.6588,拉萨市,区辐射站,,25,11,12,5,6,78,78,59,59,9,12,10,10,0.1,0.1
2023-08-14T16:00:00,1461A,91.0834,29.6292,拉萨市,拉萨火车站,,26,11,14,6,6,81,81,60,60,7,12,10,11,0.2,0.3
2023-08-14T16:00:00,1462A,108.882,34.2749,西安市,高压开关厂,臭氧1小时,64,33,52,22,29,214,171,147,147,18,37,8,9,0.5,0.6
2023-08-14T16:00:00,1463A,108.993,34.2629,西安市,兴庆小区,臭氧1小时,64,40,44,20,18,197,171,141,141,9,23,6,7,1.6,0.6
2023-08-14T16:00:00,1464A,109.06,34.2572,西安市,纺织城,臭氧1小时,65,47,47,19,25,189,172,143,143,12,34,4,4,0.5,0.5
2023-08-14T16:00:00,1465A,108.9356,34.2173,西安市,小寨,臭氧1小时,65,50,43,22,17,211,172,139,139,8,23,8,8,0.5,0.4
2023-08-14T16:00:00,1466A,108.954,34.2713,西安市,市人民体育场,臭氧1小时,62,42,48,24,22,200,169,139,139,13,29,7,7,0.5,0.6
2023-08-14T16:00:00,1467A,108.8922,34.2322,西安市,高新西区,臭氧1小时,78,35,44,22,20,228,182,144,144,9,27,8,8,0.4,0.4
2023-08-14T16:00:00,1468A,108.935,34.3474,西安市,经开区,臭氧1小时,52,42,50,16,26,180,161,134,134,4,25,3,3,0.5,0.5
2023-08-14T16:00:00,1469A,108.906,34.1546,西安市,长安区,臭氧1小时,95,40,55,24,23,252,196,157,157,10,26,5,5,0.5,0.6
2023-08-14T16:00:00,1471A,109.2186,34.3731,西安市,临潼区,,46,24,58,19,26,180,146,114,114,8,30,4,6,0.5,0.5
2023-08-14T16:00:00,1472A,108.869,34.378,西安市,草滩,臭氧1小时,55,39,48,12,13,216,164,141,141,12,31,7,12,0.5,0.5
2023-08-14T16:00:00,1473A,108.985,34.1978,西安市,曲江文化产业集团,臭氧1小时,67,42,48,22,20,200,173,141,141,10,26,5,6,0.9,0.8
2023-08-14T16:00:00,1474A,109.051,34.3213,西安市,广运潭,,49,37,48,21,22,162,156,125,125,9,29,8,8,0.5,0.6
2023-08-14T16:00:00,1476A,103.631,36.1031,兰州市,兰炼宾馆,臭氧1小时,60,26,46,9,19,246,168,168,168,10,36,4,6,0.2,0.4
2023-08-14T16:00:00,1477A,104.1373,35.9454,兰州市,榆中兰大校区,,,,,,,,,,,,,,,,
2023-08-14T16:00:00,1478A,103.8412,36.0726,兰州市,生物制品所,,50,27,33,14,19,186,158,127,127,13,24,7,5,0.7,0.7
2023-08-14T16:00:00,1479A,103.831,36.0464,兰州市,铁路设计院,,46,29,30,15,17,172,145,120,120,22,31,10,8,0.6,0.5
2023-08-14T16:00:00,1483A,101.524,36.6867,西宁市,第五水厂,,,,,,,,,,,,,,,,
2023-08-14T16:00:00,1484A,105.9512,38.6016,银川市,贺兰山马莲口,,48,15,18,17,13,190,153,142,142,15,11,4,5,0.5,0.5
2023-08-14T16:00:00,1488A,106.2328,38.4975,银川市,贺兰山东路,,49,38,39,12,17,204,155,144,144,24,22,7,9,0.5,0.5
2023-08-14T16:00:00,1489A,106.1358,38.5036,银川市,学院路,臭氧1小时,64,40,38,14,15,193,171,153,153,18,24,10,12,0.6,0.5
2023-08-14T16:00:00,1490A,87.5801,43.8303,乌鲁木齐市,监测站,,22,18,27,7,9,128,69,69,69,11,25,4,4,0.5,0.6
2023-08-14T16:00:00,1491A,87.6046,43.768,乌鲁木齐市,收费所,,21,17,26,9,14,133,66,73,73,21,29,2,5,0.3,0.3
2023-08-14T16:00:00,1492A,87.4754,43.9469,乌鲁木齐市,新疆农科院农场,,21,19,41,4,12,120,67,68,68,10,29,1,2,0.4,0.5
2023-08-14T16:00:00,1493A,87.5525,43.8711,乌鲁木齐市,铁路局,,22,17,27,6,11,126,70,71,71,12,29,4,4,0.3,0.4
2023-08-14T16:00:00,1494A,87.6432,43.831,乌鲁木齐市,三十一中学,,32,32,35,8,13,117,62,66,62,10,22,4,5,0.3,0.4
2023-08-14T16:00:00,1496A,87.7216,44.1747,乌鲁木齐市,米东区环保局,,21,13,29,6,13,128,66,67,67,3,14,5,5,0.3,0.3
2023-08-14T16:00:00,1508A,112.9433,27.8614,湘潭市,板塘,,40,28,35,22,21,125,125,107,107,6,9,8,8,0.5,0.5
2023-08-14T16:00:00,1511A,112.9118,27.8403,湘潭市,市监测站,,45,29,28,31,28,129,128,110,110,4,6,3,4,0.6,0.6
2023-08-14T16:00:00,1512A,112.8937,27.8728,湘潭市,江麓,,40,39,35,19,16,125,125,106,106,8,10,8,11,0.4,0.3
2023-08-14T16:00:00,1513A,112.9227,27.8159,湘潭市,岳塘,,42,42,34,28,31,124,124,101,101,8,12,4,7,0.3,0.3
2023-08-14T16:00:00,1514A,112.9074,27.9119,湘潭市,科大,,41,38,38,24,19,130,130,107,107,2,8,4,5,0.7,0.7
2023-08-14T16:00:00,1515A,113.135,27.8244,株洲市,天台山庄,,45,42,36,31,21,144,139,112,112,8,12,4,4,0.7,0.7
2023-08-14T16:00:00,1518A,113.095,27.8867,株洲市,株冶医院,,40,37,37,22,21,134,127,100,100,7,14,2,3,0.6,0.6
2023-08-14T16:00:00,1519A,113.167,27.8667,株洲市,市四中,,41,31,36,23,18,145,129,105,105,7,11,5,5,0.5,0.6
2023-08-14T16:00:00,1520A,113.143,27.8381,株洲市,火车站,细颗粒物(PM2.5),73,40,38,53,22,142,137,110,110,9,10,6,6,0.5,0.6
2023-08-14T16:00:00,1524A,113.13,27.8528,株洲市,市监测站,细颗粒物(PM2.5),65,48,40,47,25,146,141,112,112,10,13,3,4,0.5,0.6
2023-08-14T16:00:00,1552A,106.805,26.3003,贵阳市,桐木岭,,,,,,,,,,,,,,,,
2023-08-14T16:00:00,1559A,113.251,27.8336,株洲市,大京风景区,,39,33,35,19,15,136,122,89,89,4,5,4,4,0.5,0.6
2023-08-14T16:00:00,1562A,113.0048,27.9153,湘潭市,昭山,,40,29,32,18,15,128,128,108,108,6,8,4,4,0.6,0.6
2023-08-14T16:00:00,1564A,112.4876,27.9164,湘潭市,韶山,,34,31,28,13,12,106,106,97,97,5,6,6,6,0.2,0.2
2023-08-14T16:00:00,1585A,109.8756,40.6532,包头市,市环境监测站,臭氧1小时,109,23,33,18,17,218,218,157,157,12,32,10,27,0.6,0.7
2023-08-14T16:00:00,1587A,109.9991,40.5842,包头市,包头八中,臭氧1小时,105,25,38,12,14,210,210,156,156,17,21,14,26,0.6,0.8
2023-08-14T16:00:00,1588A,109.8538,40.6821,包头市,青山宾馆,臭氧1小时,105,23,32,13,15,209,209,154,154,11,28,7,18,0.8,0.9
2023-08-14T16:00:00,1589A,109.8642,40.6288,包头市,惠龙物流,臭氧1小时,111,35,31,12,13,222,222,165,165,12,23,12,24,0.6,0.6
2023-08-14T16:00:00,1590A,110.0377,40.5546,包头市,东河鸿龙湾,臭氧1小时,103,37,33,12,14,205,205,150,150,11,22,12,16,1.0,0.9
2023-08-14T16:00:00,1591A,110.0023,39.8129,鄂尔多斯市,综合楼,臭氧1小时,54,24,56,14,15,170,163,140,140,13,25,5,11,0.5,0.7
2023-08-14T16:00:00,1592A,109.9486,39.8261,鄂尔多斯市,巴音孟克林场办事处,臭氧1小时,73,29,48,12,17,184,178,152,152,9,19,6,12,0.5,0.7
2023-08-14T16:00:00,1593A,109.7736,39.5986,鄂尔多斯市,康泽苑,,49,24,48,12,20,160,155,130,130,9,24,8,12,0.5,0.6
2023-08-14T16:00:00,1594A,109.8119,39.5989,鄂尔多斯市,华泰汽车城,,,,56,14,23,158,146,124,124,10,30,8,11,0.4,0.5
2023-08-14T16:00:00,1595A,109.9734,39.7884,鄂尔多斯市,奥林花园,,49,29,57,9,19,162,155,134,134,8,23,10,12,0.5,0.7
2023-08-14T16:00:00,1597A,122.2703,40.7094,营口市,大庆路,,42,10,21,5,16,134,134,115,115,7,13,5,5,0.6,0.8
2023-08-14T16:00:00,1598A,122.2150,40.6511,营口市,镜湖西路,,37,10,19,4,14,118,118,87,87,7,13,5,6,0.5,0.7
2023-08-14T16:00:00,1599A,122.1658,40.6789,营口市,西炮台,,40,15,23,3,11,127,125,111,111,10,17,5,6,0.5,0.7
2023-08-14T16:00:00,1600A,124.3303,40.0625,丹东市,江湾东路,,27,6,11,5,10,103,86,88,85,16,8,4,4,0.8,0.8
2023-08-14T16:00:00,1601A,124.4256,40.1503,丹东市,临江后街,,28,8,12,4,9,98,87,92,78,11,5,4,4,0.6,0.6
2023-08-14T16:00:00,1602A,124.3933,40.1461,丹东市,元宝山,,24,4,11,5,9,87,75,85,60,8,9,6,6,0.8,0.8
2023-08-14T16:00:00,1603A,124.3633,40.1092,丹东市,民主桥,,26,8,12,6,10,101,82,92,69,21,11,3,3,0.8,0.8
2023-08-14T16:00:00,1604A,122.0303,41.1489,盘锦市,开发区,,42,14,13,4,7,133,133,107,107,6,12,3,4,0.4,0.7
2023-08-14T16:00:00,1605A,122.0485,41.0883,盘锦市,兴隆台,,43,14,15,8,8,135,135,114,114,7,10,4,4,0.5,0.5
2023-08-14T16:00:00,1606A,121.8297,41.1028,盘锦市,新生街道,,36,12,12,4,6,115,115,86,86,7,15,5,5,0.5,0.4
2023-08-14T16:00:00,1607A,120.9092,40.7136,葫芦岛市,龙港区,,40,19,40,9,19,128,128,105,105,2,19,6,46,0.3,0.6
2023-08-14T16:00:00,1608A,120.8392,40.7514,葫芦岛市,化工街,,43,31,35,13,15,137,137,109,109,5,27,18,18,0.2,0.4
2023-08-14T16:00:00,1609A,120.8341,40.7073,葫芦岛市,新区,,45,28,37,18,22,144,144,107,107,2,25,7,15,0.4,0.6
2023-08-14T16:00:00,1610A,120.8695,40.7677,葫芦岛市,东城区,,49,35,32,20,17,155,155,119,119,10,27,39,15,0.6,0.6
2023-08-14T16:00:00,1611A,118.5819,24.9117,泉州市,涂山街,,43,39,30,16,10,149,135,110,110,9,12,6,5,0.6,0.6
2023-08-14T16:00:00,1612A,118.5972,24.8978,泉州市,津头埔,,43,43,30,18,16,153,130,112,112,16,16,4,4,0.6,0.6
2023-08-14T16:00:00,1613A,118.6663,24.9424,泉州市,万安,,46,41,30,22,17,155,145,120,120,11,12,3,3,0.6,0.6
2023-08-14T16:00:00,1614A,118.6117,24.9604,泉州市,清源山,,,,,,,,,,,,,,,,
2023-08-14T16:00:00,1616A,117.6795,36.229,济南市,技术学院,,45,17,26,7,20,155,141,118,118,5,16,6,7,0.6,0.8
2023-08-14T16:00:00,1618A,118.3429,35.0532,临沂市,沂河小区,,42,19,29,12,18,137,132,112,112,7,13,5,5,0.2,0.4
2023-08-14T16:00:00,1619A,118.295,35.0583,临沂市,鲁南制药厂,,44,14,24,10,14,142,139,125,125,2,10,4,4,0.1,0.3
2023-08-14T16:00:00,1620A,118.2794,34.9976,临沂市,新光毛纺厂,,43,12,20,9,15,135,135,118,118,7,16,5,5,0.3,0.5
2023-08-14T16:00:00,1621A,118.3956,35.0888,临沂市,河东保险公司,,36,9,23,10,17,121,114,106,106,3,14,2,3,0.4,0.6
2023-08-14T16:00:00,1622A,116.3032,37.4674,德州市,儿童乐园,臭氧1小时,57,29,33,19,16,168,165,156,156,7,14,8,8,0.6,0.7
2023-08-14T16:00:00,1624A,116.2991,37.4451,德州市,监理站,,50,23,31,9,18,162,160,146,146,7,21,6,8,0.5,0.6
2023-08-14T16:00:00,1625A,115.9848,36.4372,聊城市,区政府,臭氧1小时,62,22,29,8,17,169,169,144,144,8,17,3,3,0.3,0.4
2023-08-14T16:00:00,1628A,118.0062,37.3803,滨州市,市环保局,臭氧1小时,83,40,23,22,15,186,186,157,157,5,11,4,6,0.4,0.4
2023-08-14T16:00:00,1629A,118.0018,37.3617,滨州市,第二水厂,臭氧1小时,97,31,24,22,16,202,197,168,168,3,13,7,10,0.6,0.6
2023-08-14T16:00:00,1630A,117.9776,37.393,滨州市,北中新校,臭氧1小时,75,35,28,22,14,180,180,155,155,4,12,3,5,0.4,0.4
2023-08-14T16:00:00,1631A,118.0414,36.8103,淄博市,人民公园,臭氧1小时,85,34,36,24,16,213,188,179,179,13,20,13,14,0.3,0.6
2023-08-14T16:00:00,1633A,117.8525,36.4847,淄博市,双山,臭氧1小时,84,41,33,21,15,187,187,149,149,8,18,10,12,0.5,0.6
2023-08-14T16:00:00,1634A,117.9592,36.6331,淄博市,气象站,臭氧1小时,62,29,31,22,20,176,169,147,147,6,18,7,11,0.2,0.4
2023-08-14T16:00:00,1635A,118.3092,36.8194,淄博市,莆田园,臭氧1小时,54,19,44,14,24,191,163,166,166,11,25,9,15,0.4,1.6
2023-08-14T16:00:00,1637A,117.558,34.8438,枣庄市,市中区政府,臭氧1小时,53,29,44,17,23,167,162,142,142,11,23,8,11,0.2,0.4
2023-08-14T16:00:00,1638A,117.2852,34.7837,枣庄市,薛城环保局,,45,44,51,17,24,158,142,136,136,24,29,10,11,0.4,0.6
2023-08-14T16:00:00,1639A,117.5852,34.7745,枣庄市,峄城区政府,,49,24,42,7,16,162,156,137,137,11,19,16,12,0.5,0.6
2023-08-14T16:00:00,1640A,117.7276,34.5578,枣庄市,台儿庄区环保局,臭氧1小时,60,31,37,14,18,168,168,140,140,10,20,7,8,0.6,0.7
2023-08-14T16:00:00,1641A,117.4518,35.0992,枣庄市,山亭区环保局,,48,19,24,12,19,153,153,137,137,9,13,9,9,0.2,0.3
2023-08-14T16:00:00,1642A,121.2514,37.5639,烟台市,开发区,,38,12,12,9,10,119,119,112,112,1,5,4,4,0.5,0.5
2023-08-14T16:00:00,1643A,121.3719,37.5433,烟台市,轴承厂,,39,24,22,14,15,124,124,115,115,5,9,6,5,0.3,0.3
2023-08-14T16:00:00,1644A,121.3181,37.5436,烟台市,西郊化工站,,35,14,17,6,10,112,112,104,104,3,9,5,4,0.2,0.1
2023-08-14T16:00:00,1645A,121.4478,37.4822,烟台市,莱山环保局,,39,12,11,11,8,123,122,119,119,7,5,8,6,0.4,0.5
2023-08-14T16:00:00,1646A,121.2611,37.4967,烟台市,福山环保局,,36,24,20,2,5,118,115,110,110,8,12,7,6,0.5,0.5
2023-08-14T16:00:00,1650A,119.1437,36.7023,潍坊市,环保局,,44,19,20,11,14,143,140,129,129,5,12,11,9,0.5,0.5
2023-08-14T16:00:00,1653A,116.6251,35.4302,济宁市,火炬城,,,31,37,12,19,141,,119,119,5,17,8,8,0.6,0.6
2023-08-14T16:00:00,1655A,116.5491,35.4042,济宁市,电化厂,,49,32,41,9,21,155,155,129,129,5,16,7,7,0.6,0.7
2023-08-14T16:00:00,1656A,117.1437,36.1937,泰安市,监测站,,48,24,28,17,21,152,152,124,124,2,8,8,8,0.4,0.4
2023-08-14T16:00:00,1657A,117.0885,36.2017,泰安市,人口学校,,46,17,17,10,10,146,146,118,118,7,8,8,7,0.5,0.4
2023-08-14T16:00:00,1658A,117.1089,36.1758,泰安市,电力学校,,49,41,30,14,17,155,155,124,124,6,13,7,4,0.3,0.3
2023-08-14T16:00:00,1659A,119.471,35.4209,日照市,监测站,臭氧1小时,83,22,17,15,11,186,186,134,134,11,12,5,6,0.4,0.4
2023-08-14T16:00:00,1660A,119.523,35.4216,日照市,市政府广场,臭氧1小时,107,29,17,13,12,214,214,156,156,7,6,9,8,0.6,0.6
2023-08-14T16:00:00,1661A,119.5587,35.4044,日照市,港务局,臭氧1小时,102,24,18,12,12,203,203,156,156,6,6,7,8,0.7,0.7
2023-08-14T16:00:00,1662A,122.1214,37.4236,威海市,华夏技校,,37,7,13,5,9,134,118,121,121,8,8,4,4,0.3,0.4
2023-08-14T16:00:00,1663A,122.0508,37.5236,威海市,山大分校,,45,20,16,12,9,150,144,135,135,5,7,8,7,0.4,0.5
2023-08-14T16:00:00,1664A,122.1067,37.5072,威海市,市监测站,,40,20,18,15,15,135,128,124,124,6,6,8,7,0.5,0.6
2023-08-14T16:00:00,1666A,118.6614,37.4309,东营市,市环保局,臭氧1小时,67,27,18,19,11,200,173,164,164,4,8,7,9,0.3,0.2
2023-08-14T16:00:00,1669A,113.5824,24.7733,韶关市,市八中,颗粒物(PM10),51,52,25,6,8,164,152,116,116,8,9,9,12,0.7,0.7
2023-08-14T16:00:00,1671A,113.5917,24.7972,韶关市,园林处,臭氧1小时,52,41,22,24,13,169,161,118,118,4,5,9,13,0.9,0.8
2023-08-14T16:00:00,1672A,113.6735,24.7791,韶关市,韶关学院,臭氧1小时,54,37,23,21,12,163,163,102,102,8,9,10,8,0.8,0.6
2023-08-14T16:00:00,1673A,113.5971,24.6863,韶关市,曲江监测站,,,8,32,15,15,136,126,107,107,,12,7,14,0.5,0.9
2023-08-14T16:00:00,1674A,116.6794,23.3667,汕头市,金平子站,,25,18,18,17,9,98,77,72,72,11,14,5,4,0.7,0.7
2023-08-14T16:00:00,1675A,116.7244,23.3633,汕头市,龙湖子站,,28,28,17,12,7,111,84,80,80,8,9,5,4,0.9,0.8
2023-08-14T16:00:00,1676A,116.7258,23.2775,汕头市,濠江子站,,33,33,20,12,9,95,72,74,74,6,6,9,9,0.5,0.5
2023-08-14T16:00:00,1677A,116.7519,23.4714,汕头市,澄海子站,,32,32,24,14,12,124,96,95,95,12,14,5,5,0.8,0.7
2023-08-14T16:00:00,1678A,116.6092,23.2539,汕头市,潮阳子站,,29,29,19,12,8,97,79,74,74,4,6,8,8,0.6,0.6
2023-08-14T16:00:00,1680A,110.3539,21.2706,湛江市,湛江影剧院,,16,7,30,8,17,99,49,64,60,8,13,6,8,0.6,0.6
2023-08-14T16:00:00,1681A,110.3928,21.2228,湛江市,市环境监测站,,15,7,26,10,18,82,43,57,57,14,13,7,8,0.5,0.6
2023-08-14T16:00:00,1682A,110.4019,21.1997,湛江市,环保局宿舍,,15,11,31,10,20,81,45,57,57,12,14,4,7,0.4,0.6
2023-08-14T16:00:00,1683A,110.4111,21.2028,湛江市,霞山游泳场,,19,19,32,12,15,85,40,61,61,18,17,5,8,0.6,0.5
2023-08-14T16:00:00,1684A,110.3316,21.2679,湛江市,麻章区环保局,,15,5,32,10,15,86,43,55,55,10,12,5,9,0.6,0.6
2023-08-14T16:00:00,1685A,110.4558,21.2567,湛江市,坡头区环保局,,16,11,23,11,15,92,49,64,64,9,13,6,7,0.5,0.5
2023-08-14T16:00:00,1686A,111.0286,21.4688,茂名市,电白南海,,22,17,28,9,19,97,69,72,72,5,9,9,10,0.6,0.7
2023-08-14T16:00:00,1687A,110.9294,21.6533,茂名市,茂石化七小,,,14,32,7,22,85,62,63,63,,11,6,7,0.4,0.6
2023-08-14T16:00:00,1688A,110.9107,21.6687,茂名市,健康路,,17,2,23,7,13,81,53,57,57,6,11,2,2,0.3,0.5
2023-08-14T16:00:00,1689A,110.8592,21.6828,茂名市,高岭,,,9,37,12,24,89,59,72,72,,16,5,7,0.5,0.7
2023-08-14T16:00:00,1690A,116.1231,24.3284,梅州市,梅江月梅,,21,18,18,9,8,70,67,64,64,6,11,2,2,0.6,0.6
2023-08-14T16:00:00,1691A,116.0797,24.2719,梅州市,梅县新城,,22,21,20,11,8,68,68,62,62,3,11,4,4,0.6,0.7
2023-08-14T16:00:00,1692A,116.1248,24.2654,梅州市,环境监控中心,,22,21,21,14,12,70,70,62,62,4,11,6,6,0.5,0.6
2023-08-14T16:00:00,1693A,115.3653,22.775,汕尾市,市环保局,,22,20,20,10,8,86,70,70,70,4,7,7,7,0.5,0.6
2023-08-14T16:00:00,1694A,115.3706,22.7898,汕尾市,市政府,,24,18,16,8,9,76,76,67,67,3,6,6,6,0.6,0.6
2023-08-14T16:00:00,1695A,115.3622,22.7925,汕尾市,新城中学,,23,8,22,9,8,73,73,64,64,2,5,6,6,0.5,0.6
2023-08-14T16:00:00,1696A,114.6778,23.7569,河源市,源西,,31,20,26,13,17,97,97,74,74,5,8,5,4,0.7,0.7
2023-08-14T16:00:00,1697A,114.6944,23.7586,河源市,东埔,,41,41,40,12,15,87,87,63,63,7,12,5,5,0.4,0.5
2023-08-14T16:00:00,1698A,114.6892,23.7233,河源市,老城,,31,13,27,13,13,99,99,74,74,6,11,5,4,0.6,0.7
2023-08-14T16:00:00,1699A,111.9797,21.8593,阳江市,鸳鸯湖,,,20,25,11,16,88,,53,53,3,11,7,7,0.5,0.7
2023-08-14T16:00:00,1701A,111.9491,21.8658,阳江市,马南垌,,22,19,24,7,17,87,69,56,56,1,12,4,5,0.5,0.6
2023-08-14T16:00:00,1702A,113.0426,23.691,清远市,环保大楼,臭氧1小时,60,37,29,23,18,168,168,106,106,7,15,6,5,0.5,0.4
2023-08-14T16:00:00,1703A,113.0208,23.7106,清远市,凤城街办,细颗粒物(PM2.5),57,52,33,40,21,156,156,100,100,7,13,6,6,0.5,0.5
2023-08-14T16:00:00,1705A,116.6367,23.6719,潮州市,西园路,,46,46,33,15,16,122,88,76,76,9,16,5,5,0.4,0.5
2023-08-14T16:00:00,1706A,116.6447,23.6706,潮州市,档案局,,42,42,31,18,17,137,105,97,97,8,16,5,6,0.4,0.6
2023-08-14T16:00:00,1708A,116.3701,23.5345,揭阳市,新兴,,23,16,24,16,15,81,67,66,66,3,7,6,6,0.5,0.6
2023-08-14T16:00:00,1709A,116.3264,23.5443,揭阳市,西马,,24,4,25,12,13,77,74,63,63,6,9,5,5,0.8,0.8
2023-08-14T16:00:00,1710A,116.3611,23.5626,揭阳市,东兴,,,,27,10,11,79,78,66,66,5,11,2,2,0.8,0.8
2023-08-14T16:00:00,1711A,116.4151,23.5294,揭阳市,渔湖,,30,21,33,21,12,90,69,68,68,2,8,3,4,0.5,0.6
2023-08-14T16:00:00,1712A,112.0392,22.9169,云浮市,新市府,,30,30,23,12,11,71,51,60,60,12,3,19,5,0.7,0.7
2023-08-14T16:00:00,1714A,112.0539,22.9539,云浮市,牧羊,,16,12,28,11,15,89,43,58,58,25,18,20,11,0.5,0.5
2023-08-14T16:00:00,1715A,102.575,24.3711,玉溪市,东风水库,,33,10,24,8,12,106,104,61,61,7,13,5,5,0.7,1
2023-08-14T16:00:00,1718A,115.4208,35.2464,菏泽市,气象局,,48,37,34,17,19,151,151,137,137,4,6,3,4,0.4,0.5
2023-08-14T16:00:00,1719A,115.4747,35.2375,菏泽市,市政协,臭氧1小时,52,39,32,18,22,161,161,148,148,4,10,6,6,0.4,0.4
2023-08-14T16:00:00,1721A,113.3819,40.1097,大同市,果树场,,,,,,,,,,,,,,,,
2023-08-14T16:00:00,1723A,113.2994,40.0758,大同市,云冈宾馆,,,27,39,9,14,173,173,138,138,,31,9,9,0.4,0.6
2023-08-14T16:00:00,1724A,113.3444,40.0917,大同市,大同大学,臭氧1小时,64,23,35,15,15,171,171,142,142,7,21,7,14,0.5,0.5
2023-08-14T16:00:00,1725A,113.2661,40.1269,大同市,安家小村,臭氧1小时,68,25,38,12,10,174,174,133,133,10,21,12,11,0.5,0.7
2023-08-14T16:00:00,1726A,113.2711,40.0844,大同市,教育学院,臭氧1小时,70,31,49,19,16,176,176,132,132,15,33,11,12,0.6,0.9
2023-08-14T16:00:00,1727A,113.1147,36.1547,长治市,清华站,臭氧1小时,77,32,44,19,25,186,181,168,168,7,14,10,10,0.8,1.2
2023-08-14T16:00:00,1728A,113.1031,36.1989,长治市,监测站,臭氧1小时,84,29,44,17,24,191,187,151,151,11,20,5,6,0.7,1.5
2023-08-14T16:00:00,1730A,113.0886,36.2125,长治市,审计局,臭氧1小时,59,30,40,14,26,180,167,139,139,12,14,6,7,0.8,1.4
2023-08-14T16:00:00,1731A,113.0844,36.1856,长治市,长治八中,臭氧1小时,95,35,48,27,25,196,196,145,145,10,18,10,11,0.8,1.3
2023-08-14T16:00:00,1733A,111.5531,36.0783,临汾市,临钢医院,臭氧1小时,83,48,57,16,21,187,186,148,148,4,14,8,7,0.8,0.9
2023-08-14T16:00:00,1734A,111.5028,36.0714,临汾市,技工学校,臭氧1小时,79,44,58,21,26,190,183,150,150,6,21,8,9,0.9,0.9
2023-08-14T16:00:00,1736A,111.5018,36.0855,临汾市,市委,臭氧1小时,73,50,64,28,34,183,178,143,143,14,30,12,11,0.5,0.6
2023-08-14T16:00:00,1738A,113.5758,37.8572,阳泉市,市中心,臭氧1小时,67,29,45,22,22,192,173,144,144,8,32,12,13,0.7,0.9
2023-08-14T16:00:00,1739A,113.4894,37.8731,阳泉市,赛鱼,臭氧1小时,78,35,44,23,23,196,182,154,154,12,30,13,11,0.8,0.8
2023-08-14T16:00:00,1740A,113.5819,37.8486,阳泉市,南庄,臭氧1小时,65,45,58,19,25,196,172,144,144,10,30,11,19,0.7,1
2023-08-14T16:00:00,1742A,113.5614,37.8703,阳泉市,平坦,臭氧1小时,72,32,53,16,34,195,177,151,151,11,36,9,10,0.6,0.8
2023-08-14T16:00:00,1743A,113.5158,37.8392,阳泉市,大阳泉,臭氧1小时,73,25,51,35,27,196,178,148,148,8,11,13,11,0.7,0.7
2023-08-14T16:00:00,1744A,118.9233,42.2816,赤峰市,松山一中,,41,22,24,9,8,129,129,98,98,24,32,17,16,0.5,0.5
2023-08-14T16:00:00,1745A,118.9576,42.2728,赤峰市,哈达街,,41,22,23,9,9,131,131,96,96,23,26,19,22,0.3,0.2
2023-08-14T16:00:00,1746A,118.8788,42.2554,赤峰市,天义路,,50,27,16,15,9,160,160,116,116,15,26,23,16,0.3,0.3
2023-08-14T16:00:00,1748A,123.044,41.1196,鞍山市,深沟寺,,34,24,31,11,19,127,106,92,92,8,17,4,5,1.0,1.5
2023-08-14T16:00:00,1749A,123.011,41.0931,鞍山市,太阳城,,39,13,30,9,20,127,124,94,94,10,18,3,4,1.1,1.5
2023-08-14T16:00:00,1750A,123.0485,41.1442,鞍山市,太平,,45,20,56,12,28,143,143,117,117,8,23,7,10,1.0,1.8
2023-08-14T16:00:00,1751A,122.9642,41.0971,鞍山市,铁西三道街,,43,27,38,9,26,136,136,87,87,9,28,7,12,1.0,1.8
2023-08-14T16:00:00,1752A,122.9341,41.0833,鞍山市,铁西工业园区,,40,24,46,10,28,128,125,84,84,20,36,12,16,1.4,2.3
2023-08-14T16:00:00,1753A,123.022,41.0821,鞍山市,明达新区,,42,24,24,13,18,134,134,97,97,11,19,6,7,0.9,1
2023-08-14T16:00:00,1754A,123.1289,41.0228,鞍山市,千山,,,,,,,,,,,,,,,,
2023-08-14T16:00:00,1755A,123.7977,41.8491,抚顺市,望花区,,40,15,13,6,9,139,127,113,113,8,15,5,4,0.4,0.5
2023-08-14T16:00:00,1756A,123.9161,41.8822,抚顺市,顺城区,,37,9,13,7,7,116,116,101,101,8,11,5,4,0.5,0.5
2023-08-14T16:00:00,1757A,124.0436,41.8611,抚顺市,东洲区,,30,4,12,4,6,101,94,86,86,1,6,3,3,0.3,0.3
2023-08-14T16:00:00,1758A,123.9247,41.8642,抚顺市,新抚区,,34,8,14,4,8,112,106,95,95,4,10,5,5,0.5,0.6
2023-08-14T16:00:00,1759A,124.0972,41.8961,抚顺市,大伙房水库,,30,6,10,5,5,99,93,85,85,2,5,4,5,0.4,0.4
2023-08-14T16:00:00,1760A,123.7086,41.8391,抚顺市,沈抚新城,,34,8,12,4,5,121,107,100,100,4,11,5,6,0.5,0.5
2023-08-14T16:00:00,1761A,123.8275,41.3064,本溪市,大峪,,34,10,16,8,6,107,107,87,87,9,16,4,4,0.6,0.6
2023-08-14T16:00:00,1762A,123.7567,41.3325,本溪市,溪湖,,40,35,12,28,7,110,110,81,81,22,15,9,6,1.4,0.8
2023-08-14T16:00:00,1763A,123.7169,41.3094,本溪市,彩屯,细颗粒物(PM2.5),74,89,30,54,15,90,72,64,58,58,26,6,6,3.4,1.2
2023-08-14T16:00:00,1764A,123.7669,41.2864,本溪市,东明,,39,6,19,10,7,123,123,88,74,7,18,6,7,0.8,0.9
2023-08-14T16:00:00,1765A,123.7992,41.2664,本溪市,新立屯,,,9,12,,,101,100,70,68,9,14,7,7,0.8,0.8
2023-08-14T16:00:00,1766A,123.8142,41.3472,本溪市,威宁,,32,28,14,10,6,103,100,81,81,13,13,7,6,0.6,0.6
2023-08-14T16:00:00,1767A,121.1115,41.0879,锦州市,南山,,37,18,24,5,14,121,116,106,106,2,9,5,11,0.5,0.8
2023-08-14T16:00:00,1768A,121.0533,40.8434,锦州市,开发区,,43,26,30,6,16,136,135,104,104,4,18,5,10,0.6,0.8
2023-08-14T16:00:00,1769A,121.1836,41.1119,锦州市,百股街道,,36,23,28,9,13,131,115,109,109,4,14,8,18,0.5,0.7
2023-08-14T16:00:00,1770A,121.1178,41.1222,锦州市,天安街道,,35,12,28,14,14,110,110,96,96,6,16,7,8,0.8,1.2
2023-08-14T16:00:00,1771A,121.1303,41.1386,锦州市,北湖公园,,37,26,29,7,13,117,117,105,105,6,12,9,10,0.6,0.8
2023-08-14T16:00:00,1772A,126.54,43.8622,吉林市,哈达湾,,31,11,13,6,8,127,98,102,102,7,12,5,6,0.6,0.6
2023-08-14T16:00:00,1773A,126.5844,43.8358,吉林市,东局子,,27,10,11,6,7,103,86,89,89,5,11,6,6,0.6,0.6
2023-08-14T16:00:00,1774A,126.5052,43.8245,吉林市,电力学院,,29,13,13,8,8,107,90,92,92,6,10,7,7,0.4,0.5
2023-08-14T16:00:00,1775A,126.6133,43.8972,吉林市,江北,,30,15,17,6,9,114,93,94,94,8,7,8,6,0.6,0.6
2023-08-14T16:00:00,1776A,126.555,43.8306,吉林市,江南公园,,27,12,13,8,11,98,85,84,84,8,13,3,3,0.6,0.7
2023-08-14T16:00:00,1778A,126.7061,43.7133,吉林市,丰满,,,,,,,,,,,,,,,,
2023-08-14T16:00:00,1779A,123.9305,47.3636,齐齐哈尔市,安居小区,,29,29,24,6,12,92,92,71,71,28,10,5,5,1.4,0.4
2023-08-14T16:00:00,1780A,123.9488,47.3386,齐齐哈尔市,中心广场,,27,16,15,2,4,90,86,74,74,13,10,3,3,0.6,0.3
2023-08-14T16:00:00,1781A,123.9483,47.3227,齐齐哈尔市,农牧车辆厂,,36,36,28,14,5,94,86,76,76,10,9,7,7,0.3,0.3
2023-08-14T16:00:00,1783A,123.945,47.2988,齐齐哈尔市,市环境监测站,,27,15,14,12,7,97,86,80,80,6,6,7,6,0.2,0.2
2023-08-14T16:00:00,1784A,129.61,44.561,牡丹江市,环保大楼,,14,6,10,4,6,44,44,40,40,6,9,5,5,0.4,0.4
2023-08-14T16:00:00,1785A,129.6115,44.5782,牡丹江市,文化广场,,13,5,8,7,10,41,41,36,36,8,11,4,4,0.4,0.4
2023-08-14T16:00:00,1786A,129.5904,44.5963,牡丹江市,第一医院,,13,10,10,3,7,41,41,37,37,6,8,4,4,0.3,0.3
2023-08-14T16:00:00,1787A,129.6364,44.6075,牡丹江市,机车工厂,,12,6,10,4,5,39,38,34,34,8,12,2,2,0.4,0.4
2023-08-14T16:00:00,1788A,129.6386,44.5462,牡丹江市,第一中学,,15,15,12,5,5,42,42,37,37,7,10,4,5,0.3,0.3
2023-08-14T16:00:00,1789A,124.81117,46.03138,大庆市,大同区,,25,23,16,8,10,87,80,71,71,8,8,5,5,0.3,0.3
2023-08-14T16:00:00,1790A,125.129,46.533,大庆市,龙凤区,,24,11,8,4,7,86,74,67,67,13,8,6,6,0.3,0.3
2023-08-14T16:00:00,1791A,124.902,46.408,大庆市,红岗区,,27,11,9,10,9,100,86,77,77,6,7,3,3,0.4,0.4
2023-08-14T16:00:00,1792A,125.153,46.586,大庆市,萨尔图区,,24,15,14,2,6,84,75,65,65,8,8,4,4,0.4,0.4
2023-08-14T16:00:00,1793A,124.9042,46.6215,大庆市,让胡路区,,26,11,10,4,6,95,82,74,74,5,8,5,4,0.3,0.3
2023-08-14T16:00:00,1794A,118.3606,31.3519,芜湖市,监测站,颗粒物(PM10),52,53,32,24,23,182,158,101,101,30,32,5,5,1.1,0.8
2023-08-14T16:00:00,1795A,118.3714,31.4134,芜湖市,科创中心,细颗粒物(PM2.5),58,53,29,41,24,184,157,116,116,29,27,6,8,1.2,0.8
2023-08-14T16:00:00,1796A,118.3673,31.3131,芜湖市,四水厂,臭氧1小时,67,56,32,35,21,184,173,105,105,31,33,3,3,1.2,0.9
2023-08-14T16:00:00,1798A,118.5092,31.6837,马鞍山市,湖东路四小,,47,41,36,20,31,175,149,129,129,9,26,8,12,0.9,1.3
2023-08-14T16:00:00,1799A,118.5024,31.6449,马鞍山市,开发区,,49,15,50,12,21,165,154,126,126,4,20,4,6,0.9,1.3
2023-08-14T16:00:00,1800A,118.5228,31.7231,马鞍山市,慈湖,颗粒物(PM10),51,51,44,20,27,174,141,132,132,19,31,9,8,0.9,1.1
2023-08-14T16:00:00,1802A,118.6245,31.7241,马鞍山市,濮塘,,46,30,16,32,20,159,142,143,142,4,11,2,3,0.7,0.8
2023-08-14T16:00:00,1803A,115.9872,29.6815,九江市,十里,,44,32,26,30,19,139,139,101,101,10,19,10,11,0.8,0.8
2023-08-14T16:00:00,1804A,115.9584,29.7046,九江市,茅山头,,42,29,25,28,18,132,132,90,90,16,20,10,8,0.9,0.9
2023-08-14T16:00:00,1805A,115.9877,29.7295,九江市,西园,,46,31,35,16,18,145,145,100,100,9,27,9,13,0.8,0.7
2023-08-14T16:00:00,1806A,116.0172,29.6547,九江市,五七二七厂,,38,32,27,16,15,124,119,86,86,3,8,9,8,0.7,0.7
2023-08-14T16:00:00,1808A,115.9114,29.6038,九江市,综合工业园,臭氧1小时,52,40,28,23,16,161,161,110,110,16,30,11,12,0.8,0.9
2023-08-14T16:00:00,1809A,116.0721,29.7535,九江市,石化总厂,,45,34,35,15,20,141,141,102,102,10,19,10,13,0.8,0.8
2023-08-14T16:00:00,1810A,115.9773,29.5698,九江市,庐山气象台,,39,30,21,23,18,123,123,115,103,3,3,7,10,0.8,0.7
2023-08-14T16:00:00,1812A,112.3931,34.6516,洛阳市,市委党校,臭氧1小时,64,37,49,30,38,171,171,140,140,2,14,5,7,0.5,0.8
2023-08-14T16:00:00,1814A,112.4657,34.6871,洛阳市,豫西宾馆,臭氧1小时,77,42,53,31,35,184,181,150,150,2,14,1,2,0.9,1.1
2023-08-14T16:00:00,1815A,112.494,34.6886,洛阳市,河南林校,臭氧1小时,73,36,44,30,29,179,178,147,147,10,19,4,5,0.6,0.9
2023-08-14T16:00:00,1816A,112.3844,34.623,洛阳市,开发区管委会,臭氧1小时,82,39,51,24,29,185,185,158,158,4,15,6,8,0.4,0.6
2023-08-14T16:00:00,1817A,112.4267,34.6258,洛阳市,市委新办公区,,,35,50,,37,173,173,144,144,5,14,4,7,0.5,0.7
2023-08-14T16:00:00,1818A,114.4839,36.0621,安阳市,棉研所,,,,,,,,,,,,,,,,
2023-08-14T16:00:00,1819A,114.3551,36.1017,安阳市,红庙街,,45,31,40,18,19,156,143,146,146,2,13,6,7,0.4,0.5
2023-08-14T16:00:00,1820A,114.361,36.0681,安阳市,银杏小区,,,26,35,,,158,153,148,148,2,9,4,5,0.4,0.5
2023-08-14T16:00:00,1824A,114.3389,34.7781,开封市,肿瘤医院,,46,36,40,15,20,147,145,136,136,2,10,4,4,0.5,0.7
2023-08-14T16:00:00,1826A,114.2885,34.7965,开封市,世纪星幼儿园,,,28,32,,,151,148,138,138,11,14,6,6,0.6,0.8
2023-08-14T16:00:00,1828A,113.227,35.2125,焦作市,市环保局,臭氧1小时,73,35,52,25,35,178,178,151,151,8,13,6,7,0.3,0.7
2023-08-14T16:00:00,1830A,113.1992,35.2590,焦作市,影视城,,,,,,,,,,,,,,,,
2023-08-14T16:00:00,1832A,113.3257,33.742,平顶山市,新华旅馆,臭氧1小时,60,43,43,13,20,171,168,155,155,16,22,3,5,0.6,0.6
2023-08-14T16:00:00,1833A,113.2919,33.737,平顶山市,规划设计院,臭氧1小时,70,44,42,22,22,176,176,152,152,7,17,7,8,0.7,0.7
2023-08-14T16:00:00,1834A,113.182,33.774,平顶山市,平顶山工学院,臭氧1小时,69,38,49,17,20,175,175,144,144,13,17,4,5,0.6,0.6
2023-08-14T16:00:00,1835A,111.1922,34.7752,三门峡市,市政府,,47,33,44,16,25,192,150,138,138,7,12,3,4,0.6,0.7
2023-08-14T16:00:00,1836A,111.1587,34.7942,三门峡市,开发区,,49,26,58,24,24,178,156,141,141,6,12,3,5,0.6,0.7
2023-08-14T16:00:00,1838A,111.143,34.7955,三门峡市,风景区,,,,,,,,,,,,,,,,
2023-08-14T16:00:00,1840A,111.2992,30.6981,宜昌市,白龙岗,,46,27,23,9,8,148,147,115,115,15,15,2,2,0.4,0.4
2023-08-14T16:00:00,1841A,111.3549,30.6465,宜昌市,伍家岗,,49,24,21,14,10,154,154,114,114,10,19,2,3,0.5,0.6
2023-08-14T16:00:00,1842A,111.2628,30.6961,宜昌市,点军区,,45,12,21,12,8,149,144,116,116,12,12,4,4,0.6,0.6
2023-08-14T16:00:00,1843A,111.3275,30.7819,宜昌市,夷陵区,,43,19,20,7,6,143,135,107,107,12,14,3,3,0.5,0.5
2023-08-14T16:00:00,1844A,112.2494,30.3197,荆州市,市图书馆,,43,21,25,11,15,137,137,121,121,5,11,8,8,0.5,0.6
2023-08-14T16:00:00,1845A,112.2008,30.3544,荆州市,市委党校,,43,28,27,20,18,135,135,120,120,5,11,8,8,0.6,0.6
2023-08-14T16:00:00,1847A,113.1094,29.3578,岳阳市,南湖风景区,,40,19,24,15,18,127,127,104,104,3,9,5,7,0.6,0.7
2023-08-14T16:00:00,1848A,113.1493,29.4251,岳阳市,城陵矶,,,,28,,19,113,113,94,94,,18,8,10,0.8,0.8
2023-08-14T16:00:00,1849A,113.1497,29.3575,岳阳市,开发区,,41,22,33,11,17,129,129,101,101,5,12,8,9,0.7,0.6
2023-08-14T16:00:00,1850A,113.2621,29.4758,岳阳市,云溪区,,37,13,23,13,18,120,116,101,101,5,10,6,7,0.5,0.6
2023-08-14T16:00:00,1851A,112.9943,29.4402,岳阳市,君山区,,36,17,23,13,20,115,115,102,102,4,15,7,9,0.6,0.7
2023-08-14T16:00:00,1852A,113.2117,29.355,岳阳市,金凤水库,,42,18,27,5,17,133,133,108,108,2,6,2,3,0.4,0.5
2023-08-14T16:00:00,1854A,111.6975,28.9703,常德市,市二中,,37,34,28,19,19,132,118,91,91,4,9,3,5,0.7,0.8
2023-08-14T16:00:00,1857A,111.7158,29.1456,常德市,白鹤山,,40,15,13,5,7,125,125,101,101,2,4,6,8,0.3,0.3
2023-08-14T16:00:00,1858A,110.5319,29.1217,张家界市,永定新区,,32,16,19,8,15,103,102,86,86,3,8,5,6,0.3,0.3
2023-08-14T16:00:00,1859A,110.4697,29.1242,张家界市,电业局,,37,17,18,12,14,116,116,92,92,4,10,2,3,0.3,0.4
2023-08-14T16:00:00,1860A,110.5594,29.3547,张家界市,未央路,,34,11,28,9,11,108,108,82,82,2,6,3,3,0.2,0.2
2023-08-14T16:00:00,1861A,110.4417,29.315,张家界市,袁家界,,,26,20,17,12,101,,98,98,,4,,7,,0.6
2023-08-14T16:00:00,1862A,110.4144,25.3167,桂林市,电子科大尧山校区,,33,21,30,18,17,125,105,84,80,4,6,5,8,0.5,0.5
2023-08-14T16:00:00,1863A,110.2819,25.2697,桂林市,监测站,,40,26,25,13,12,140,128,113,113,6,9,4,6,0.6,0.6
2023-08-14T16:00:00,1864A,110.3089,25.2708,桂林市,龙隐路小学,,42,28,22,15,16,140,132,110,110,7,8,6,7,0.6,0.6
2023-08-14T16:00:00,1865A,110.2869,25.2178,桂林市,八中,,35,23,19,12,11,124,109,105,105,6,9,4,4,0.6,0.6
2023-08-14T16:00:00,1866A,109.2262,21.588,北海市,牛尾岭水库,,18,9,12,12,4,70,49,40,40,5,5,5,4,0.6,0.6
2023-08-14T16:00:00,1867A,109.1436,21.4086,北海市,海滩公园,,20,10,27,7,5,82,61,72,45,5,6,3,3,0.6,0.6
2023-08-14T16:00:00,1868A,109.0981,21.4661,北海市,新市环保局,,18,12,19,7,9,83,55,68,47,10,9,3,3,0.5,0.7
2023-08-14T16:00:00,1869A,109.1778,21.5233,北海市,北海工业园,,17,16,19,7,10,83,52,57,47,12,10,4,4,0.6,0.6
2023-08-14T16:00:00,1870A,109.4856,24.3895,柳州市,柳东小学,,30,9,24,8,20,137,94,86,86,4,9,6,6,0.5,0.5
2023-08-14T16:00:00,1871A,109.4157,24.3277,柳州市,环保监测站,,30,25,29,16,16,123,96,85,85,18,11,7,4,0.9,0.6
2023-08-14T16:00:00,1872A,109.389,24.341,柳州市,河西水厂,,27,25,29,10,18,126,85,77,77,18,14,6,5,1.2,1
2023-08-14T16:00:00,1873A,109.4311,24.2921,柳州市,市四中,,34,22,31,9,14,130,107,83,83,11,13,7,7,0.7,0.7
2023-08-14T16:00:00,1874A,109.4006,24.3631,柳州市,市九中,,,27,34,10,16,126,93,85,85,,10,8,7,0.8,0.8
2023-08-14T16:00:00,1875A,109.4958,24.3134,柳州市,古亭山,,33,22,24,7,15,116,105,87,87,7,14,5,5,0.6,0.6
2023-08-14T16:00:00,1876A,109.5078,18.2489,三亚市,河东子站,,20,18,27,10,12,69,62,62,62,4,7,3,3,0.4,0.4
2023-08-14T16:00:00,1877A,109.4964,18.2681,三亚市,河西子站,,21,20,26,9,12,74,65,64,64,3,8,3,2,0.4,0.5
2023-08-14T16:00:00,1878A,104.7778,31.4741,绵阳市,富乐山,,41,27,33,17,20,170,131,116,116,5,14,4,4,0.5,0.6
2023-08-14T16:00:00,1879A,104.7563,31.4535,绵阳市,市人大,,39,26,35,21,19,163,123,111,111,5,24,6,7,0.6,0.7
2023-08-14T16:00:00,1880A,104.6697,31.4668,绵阳市,高新区自来水公司,细颗粒物(PM2.5),58,24,47,41,25,173,130,115,115,7,30,7,8,0.4,0.6
2023-08-14T16:00:00,1881A,104.7287,31.5075,绵阳市,三水厂,,39,23,58,13,31,192,122,110,110,14,35,7,7,0.4,0.6
2023-08-14T16:00:00,1882A,104.563,28.793,宜宾市,石马中学,,,13,30,11,14,166,166,123,123,7,23,,7,0.4,0.6
2023-08-14T16:00:00,1883A,104.6201,28.7728,宜宾市,市委,臭氧1小时,69,27,34,16,15,182,175,131,131,8,19,8,9,0.5,0.6
2023-08-14T16:00:00,1884A,104.6055,28.793,宜宾市,宜宾四中,臭氧1小时,64,27,39,13,18,172,171,136,136,7,22,7,8,0.5,0.6
2023-08-14T16:00:00,1885A,104.639,28.7562,宜宾市,市政府,臭氧1小时,59,43,42,18,18,179,167,129,129,19,28,8,8,0.5,0.6
2023-08-14T16:00:00,1886A,104.5742,28.7199,宜宾市,黄金嘴,臭氧1小时,93,31,31,18,17,194,194,135,135,11,17,7,9,0.6,0.6
2023-08-14T16:00:00,1888A,101.6891,26.571,攀枝花市,弄弄坪,,50,48,55,26,29,160,160,87,87,11,23,16,16,1.0,1.4
2023-08-14T16:00:00,1889A,101.5769,26.5928,攀枝花市,河门口,臭氧1小时,53,33,46,21,28,178,162,86,86,18,25,30,22,1.6,1.9
2023-08-14T16:00:00,1890A,101.7169,26.585,攀枝花市,炳草岗,臭氧1小时,88,61,60,31,31,190,190,97,97,10,30,34,25,1.2,1.3
2023-08-14T16:00:00,1891A,101.7369,26.5008,攀枝花市,仁和,臭氧1小时,80,51,36,35,25,184,184,120,120,10,14,32,11,1.1,0.9
2023-08-14T16:00:00,1893A,105.4324,28.9634,泸州市,九狮山,,41,16,26,8,13,134,130,107,107,11,19,6,6,0.3,2.7
2023-08-14T16:00:00,1894A,105.4427,28.9063,泸州市,小市上码头,,50,32,37,20,20,183,160,137,137,6,17,7,8,0.6,0.6
2023-08-14T16:00:00,1895A,105.4241,28.8573,泸州市,兰田宪桥,臭氧1小时,55,29,39,21,25,171,164,139,139,4,11,9,5,0.4,0.6
2023-08-14T16:00:00,1896A,105.4379,28.8833,泸州市,市环监站,,48,28,36,17,19,167,152,128,128,2,14,5,6,0.6,0.6
2023-08-14T16:00:00,1901A,104.4239,31.1208,德阳市,东山公园,,43,32,43,15,18,209,136,132,132,4,11,2,3,0.5,0.5
2023-08-14T16:00:00,1902A,104.3826,31.1317,德阳市,西小区,,45,44,54,21,28,205,142,140,140,6,23,1,6,0.5,0.6
2023-08-14T16:00:00,1904A,104.3553,31.1091,德阳市,耐火材料厂,,50,36,57,15,28,207,158,131,131,6,21,1,4,0.4,0.6
2023-08-14T16:00:00,1905A,106.056,30.8064,南充市,西山风景区,,39,1,20,3,12,128,122,99,99,3,10,2,2,0.4,0.5
2023-08-14T16:00:00,1906A,106.0789,30.8023,南充市,南充市委,,40,19,28,8,14,128,125,108,108,6,19,8,8,0.3,0.4
2023-08-14T16:00:00,1907A,106.1031,30.8217,南充市,南充炼油厂,,40,14,36,10,14,137,128,115,115,3,20,7,8,0.2,0.3
2023-08-14T16:00:00,1908A,106.1064,30.7856,南充市,高坪区监测站,,37,12,29,18,14,126,116,98,98,10,23,7,6,0.3,0.4
2023-08-14T16:00:00,1909A,106.0642,30.7636,南充市,嘉陵区环保局,,40,10,32,7,15,132,125,103,103,9,23,6,7,0.2,0.4
2023-08-14T16:00:00,1910A,106.1087,30.8388,南充市,市环境监测站,,38,21,32,8,20,126,120,100,100,8,20,6,6,0.3,0.4
2023-08-14T16:00:00,1911A,106.9222,27.6869,遵义市,丁字口,,28,10,21,6,8,104,87,86,81,9,11,4,4,0.4,0.6
2023-08-14T16:00:00,1912A,106.9242,27.7019,遵义市,凤凰山,,,11,22,,16,135,93,79,79,5,7,5,5,0.6,0.6
2023-08-14T16:00:00,1913A,106.8906,27.6486,遵义市,忠庄,,29,20,22,5,10,116,92,86,77,6,9,1,2,0.5,0.5
2023-08-14T16:00:00,1914A,106.9231,27.6506,遵义市,舟水桥,,28,6,17,4,11,118,89,78,78,3,8,1,1,0.4,0.4
2023-08-14T16:00:00,1915A,106.9178,27.72,遵义市,干田坝,,27,5,18,6,10,115,85,78,78,6,10,5,6,0.5,0.5
2023-08-14T16:00:00,1916A,103.7897,25.5035,曲靖市,环境监测站,臭氧1小时,58,34,38,14,22,166,166,115,115,9,20,6,8,0.4,0.9
2023-08-14T16:00:00,1917A,103.8,25.5364,曲靖市,烟厂办公区,臭氧1小时,62,27,34,17,21,169,169,119,119,6,16,7,7,0.4,0.6
2023-08-14T16:00:00,1918A,108.7197,34.3956,咸阳市,气象站,,,,,,,,,,,,,,,,
2023-08-14T16:00:00,1919A,108.673,34.3155,咸阳市,实验中学,臭氧1小时,84,53,49,23,25,224,187,160,160,8,20,4,6,0.6,0.6
2023-08-14T16:00:00,1920A,108.7233,34.3617,咸阳市,师范学院,臭氧1小时,68,41,46,16,24,209,174,148,148,13,26,3,5,0.4,0.5
2023-08-14T16:00:00,1922A,109.0656,35.0994,铜川市,党校,,45,23,40,14,14,145,141,117,117,4,19,8,7,0.6,0.7
2023-08-14T16:00:00,1923A,109.0697,35.0697,铜川市,王益区政府,,45,10,32,16,16,147,142,113,113,3,17,4,4,0.3,0.4
2023-08-14T16:00:00,1924A,108.9344,34.9058,铜川市,新区管委会,,,35,39,19,17,188,143,125,125,8,15,4,4,,0.7
2023-08-14T16:00:00,1926A,109.4131,36.6275,延安市,枣园,,45,13,27,10,10,164,141,109,109,5,26,5,6,0.6,0.6
2023-08-14T16:00:00,1927A,109.4761,36.6028,延安市,延大医附院,,43,15,29,8,12,150,135,108,108,3,29,4,4,0.2,0.3
2023-08-14T16:00:00,1929A,109.5056,36.6106,延安市,百米大道,,41,17,36,9,13,157,130,112,112,10,35,6,7,0.5,0.7
2023-08-14T16:00:00,1930A,107.185,34.3063,宝鸡市,庙沟村,,44,34,26,17,9,144,138,114,114,5,9,7,7,0.4,0.1
2023-08-14T16:00:00,1931A,107.0708,34.3017,宝鸡市,竹园沟,臭氧1小时,82,39,26,28,16,185,185,144,144,11,14,5,5,0.6,0.5
2023-08-14T16:00:00,1932A,107.1906,34.3672,宝鸡市,三陆医院,臭氧1小时,95,54,44,30,20,196,196,144,144,14,26,6,8,0.6,0.6
2023-08-14T16:00:00,1933A,107.1431,34.3547,宝鸡市,监测站,,,62,37,28,16,189,189,166,166,17,21,,6,0.5,0.4
2023-08-14T16:00:00,1934A,107.1186,34.3739,宝鸡市,技工学校,臭氧1小时,77,42,38,18,18,182,181,141,141,15,18,6,6,0.5,0.5
2023-08-14T16:00:00,1935A,107.3906,34.3528,宝鸡市,陈仓区环保局家属楼,臭氧1小时,104,56,40,27,21,208,208,148,148,13,22,6,6,0.6,0.5
2023-08-14T16:00:00,1936A,107.2058,34.3497,宝鸡市,文理学院,臭氧1小时,93,50,39,31,20,194,194,146,146,10,17,5,4,0.6,0.5
2023-08-14T16:00:00,1937A,107.2386,34.3622,宝鸡市,三迪小学,臭氧1小时,92,60,43,38,19,193,193,142,142,14,17,6,6,0.6,0.5
2023-08-14T16:00:00,1938A,109.5293,34.5101,渭南市,农科所,,44,31,40,22,21,145,140,116,116,8,23,5,5,0.3,0.3
2023-08-14T16:00:00,1939A,109.4974,34.4877,渭南市,日报社,,50,27,39,21,25,173,159,131,131,5,28,5,7,0.3,0.4
2023-08-14T16:00:00,1940A,109.4636,34.493,渭南市,体育馆,,49,24,39,15,20,176,154,129,129,4,31,3,4,0.5,0.6
2023-08-14T16:00:00,1941A,109.4259,34.5023,渭南市,高新一小,,48,38,52,17,22,176,152,126,126,5,16,4,4,0.4,0.5
2023-08-14T16:00:00,1943A,102.1725,38.5339,金昌市,新川苑,,44,44,48,6,8,167,122,128,100,16,16,8,10,0.4,0.5
2023-08-14T16:00:00,1944A,102.1692,38.5167,金昌市,天庆家园,,41,41,35,16,13,172,120,124,104,21,18,8,9,0.8,0.7
2023-08-14T16:00:00,1945A,98.2908,39.7711,嘉峪关市,气象局,,39,27,51,7,15,129,124,112,112,3,24,1,17,0.0,0.4
2023-08-14T16:00:00,1947A,106.3394,38.817,石嘴山市,沙湖旅游区,,48,41,49,14,17,195,152,155,155,10,17,5,8,0.5,0.6
2023-08-14T16:00:00,1948A,106.3668,39.0145,石嘴山市,大武口朝阳西街,,46,33,55,8,20,187,145,141,141,13,30,2,11,0.2,0.4
2023-08-14T16:00:00,1949A,106.7704,39.2282,石嘴山市,惠农南大街,臭氧1小时,67,45,39,12,12,193,173,150,150,15,21,13,14,0.4,0.4
2023-08-14T16:00:00,1950A,106.7099,39.1325,石嘴山市,红果子镇惠新街,颗粒物(PM10),67,84,63,42,21,196,167,156,156,38,28,13,15,0.6,0.5
2023-08-14T16:00:00,1951A,84.895,45.6094,克拉玛依市,长征新村,,19,11,10,9,5,114,58,104,56,10,8,8,9,0.2,0.1
2023-08-14T16:00:00,1952A,84.8988,45.5893,克拉玛依市,南林小区,,18,15,10,9,8,119,56,105,56,12,12,8,8,0.1,0.1
2023-08-14T16:00:00,1954A,84.905,44.3396,克拉玛依市,独山子区,,23,12,12,10,9,128,71,90,71,8,7,7,7,0.4,0.4
2023-08-14T16:00:00,1955A,85.6979,46.098,克拉玛依市,乌尔禾区商贸楼,,28,11,11,2,5,107,87,94,72,2,3,5,5,0.3,0.3
2023-08-14T16:00:00,1956A,86.1472,41.7538,巴音郭楞州,孔雀公园,,38,24,38,10,10,122,120,108,107,4,10,6,7,0.3,0.3
2023-08-14T16:00:00,1957A,86.1972,41.7166,巴音郭楞州,棉纺厂,,38,33,37,18,13,124,119,104,104,4,10,4,6,0.3,0.3
2023-08-14T16:00:00,1958A,86.2357,41.7173,巴音郭楞州,经济开发区,,40,34,33,27,12,129,125,109,109,4,6,7,7,0.3,0.2
2023-08-14T16:00:00,1961A,117.532,36.6868,济南市,东山小学,臭氧1小时,102,39,31,22,14,204,204,167,167,12,22,6,6,0.5,0.4
2023-08-14T16:00:00,1966A,120.0405,35.8735,青岛市,黄岛区4号,,50,14,25,7,14,182,158,146,146,11,20,3,4,0.5,0.5
2023-08-14T16:00:00,1982A,122.0693,37.2174,威海市,文登开发区,,37,14,20,0,8,145,116,128,128,5,6,5,5,0.6,0.7
2023-08-14T16:00:00,2031A,113.1817,27.9958,株洲市,云田中学,,38,27,33,22,21,147,121,108,108,6,10,5,5,0.6,0.6
2023-08-14T16:00:00,2054A,114.1099,32.1059,信阳市,平桥分局,,46,13,23,13,14,146,146,133,133,4,13,1,1,0.8,0.8
2023-08-14T16:00:00,2064A,113.9956,32.1271,信阳市,南湾水厂,,45,17,27,13,15,142,142,125,125,4,7,2,2,0.7,0.7
2023-08-14T16:00:00,2065A,114.0775,32.1195,信阳市,市酿酒公司,,45,11,10,17,17,144,144,130,130,6,14,2,2,0.6,0.6
2023-08-14T16:00:00,2066A,114.0609,32.1399,信阳市,审计局,,46,15,30,22,19,146,146,132,132,2,13,2,2,0.5,0.5
2023-08-14T16:00:00,2067A,114.6613,33.6128,周口市,市环境监测站,,46,25,31,19,24,149,147,143,143,4,10,5,8,0.4,0.5
2023-08-14T16:00:00,2068A,114.6758,33.6347,周口市,周口师范,,45,30,33,12,17,146,143,139,139,6,12,3,5,0.6,0.6
2023-08-14T16:00:00,2069A,114.6546,33.5979,周口市,市运管处,,45,30,31,14,18,144,143,138,138,8,11,4,6,0.4,0.5
2023-08-14T16:00:00,2070A,114.6369,33.6406,周口市,川汇区环保局,,44,34,36,12,17,148,140,142,142,7,14,3,2,0.6,0.8
2023-08-14T16:00:00,2075A,117.6336,24.4674,漳州市,九湖,,,,,,,,,,,,,,,,
2023-08-14T16:00:00,2160A,112.85,35.5051,晋城市,自来水公司,臭氧1小时,69,70,61,19,27,182,175,149,149,11,16,9,10,0.8,1
2023-08-14T16:00:00,2161A,112.8318,35.4936,晋城市,白云商贸,臭氧1小时,67,48,58,22,27,174,173,148,148,15,18,10,10,1.0,1.1
2023-08-14T16:00:00,2162A,112.8508,35.4887,晋城市,市环保局,臭氧1小时,62,61,66,27,29,176,169,143,143,14,18,10,10,0.8,1
2023-08-14T16:00:00,2163A,112.8676,35.4897,晋城市,技术学院,颗粒物(PM10),56,62,48,19,24,172,162,146,146,11,16,8,10,0.8,1.1
2023-08-14T16:00:00,2165A,112.8453,35.546,晋城市,白马寺,,,,,,,,,,,,,,,,
2023-08-14T16:00:00,2166A,112.4397,39.3522,朔州市,平朔,臭氧1小时,55,33,77,16,26,172,164,128,128,5,33,8,14,0.5,0.6
2023-08-14T16:00:00,2167A,112.4575,39.3617,朔州市,朔唯,臭氧1小时,83,41,104,9,28,192,186,143,143,3,31,8,13,0.5,0.6
2023-08-14T16:00:00,2168A,112.4258,39.3197,朔州市,区政府,,,39,59,17,18,169,165,139,139,7,25,8,10,,0.6
2023-08-14T16:00:00,2169A,112.4072,39.3278,朔州市,市环保局,臭氧1小时,57,43,60,18,20,169,165,129,129,4,22,10,15,0.6,0.6
2023-08-14T16:00:00,2170A,112.4272,39.3681,朔州市,市二中,臭氧1小时,64,39,92,14,25,185,171,133,133,9,35,8,13,0.5,0.6
2023-08-14T16:00:00,2171A,112.7532,37.6945,晋中市,锦纶小区,臭氧1小时,83,36,39,18,14,194,186,156,156,10,20,10,10,0.4,0.5
2023-08-14T16:00:00,2173A,112.7249,37.7067,晋中市,南都小区,臭氧1小时,85,34,47,18,23,199,188,161,161,11,21,7,7,0.4,0.5
2023-08-14T16:00:00,2174A,112.6991,37.6982,晋中市,榆次区政府,臭氧1小时,78,18,51,22,20,201,182,155,155,9,20,12,12,0.5,0.6
2023-08-14T16:00:00,2175A,110.9956,35.0147,运城市,运城中学,,47,33,40,16,21,171,149,149,142,3,5,3,4,0.5,0.6
2023-08-14T16:00:00,2178A,110.9686,35.0303,运城市,地区技校,,45,32,38,19,20,154,144,139,137,3,5,3,4,0.4,0.5
2023-08-14T16:00:00,2179A,111.0414,35.1147,运城市,空港新区,,46,35,51,19,27,164,145,137,137,4,8,3,3,0.4,0.6
2023-08-14T16:00:00,2181A,112.7383,38.4519,忻州市,开发区,臭氧1小时,73,47,40,26,20,178,178,137,137,10,27,21,13,0.7,0.6
2023-08-14T16:00:00,2182A,112.7003,38.4928,忻州市,会展中心,臭氧1小时,62,47,38,29,19,170,169,135,135,11,26,11,10,0.6,0.5
2023-08-14T16:00:00,2183A,111.1406,37.5211,吕梁市,环保局,臭氧1小时,85,42,52,20,19,196,188,153,153,9,33,8,9,0.8,0.6
2023-08-14T16:00:00,2185A,111.1297,37.5136,吕梁市,自来水公司,臭氧1小时,92,43,61,20,20,198,193,157,157,9,24,7,7,0.9,0.6
2023-08-14T16:00:00,2187A,106.8174,39.6973,乌海市,市林业局,,49,30,54,13,18,215,156,140,131,11,20,10,20,0.7,0.8
2023-08-14T16:00:00,2188A,106.7907,39.6667,乌海市,中海勃湾学校,,42,31,42,21,19,222,134,135,125,14,23,10,21,0.7,0.6
2023-08-14T16:00:00,2191A,122.2532,43.6801,通辽市,艺术职业学校,,39,22,20,7,10,130,123,108,108,13,16,6,5,0.3,0.4
2023-08-14T16:00:00,2192A,119.7594,49.2261,呼伦贝尔市,区环保局,,32,19,32,22,27,72,69,64,64,9,20,5,5,0.4,0.5
2023-08-14T16:00:00,2195A,107.4212,40.761,巴彦淖尔市,附二中,臭氧1小时,112,43,48,19,21,230,224,170,170,8,14,8,19,0.6,0.6
2023-08-14T16:00:00,2196A,107.37,40.7372,巴彦淖尔市,市环保大楼,臭氧1小时,114,,52,20,20,227,227,163,163,8,12,8,6,0.7,0.6
2023-08-14T16:00:00,2197A,113.1306,40.9923,乌兰察布市,集宁新区,臭氧1小时,70,27,27,13,13,176,176,137,137,5,20,16,15,0.5,0.7
2023-08-14T16:00:00,2200A,122.0392,46.0656,兴安盟,胜华新制药厂,,41,28,21,5,8,130,129,101,101,8,9,3,3,0.4,0.4
2023-08-14T16:00:00,2201A,121.9504,46.0741,兴安盟,科右前旗环保局,,42,26,20,9,12,132,132,97,97,6,7,4,4,0.5,0.5
2023-08-14T16:00:00,2202A,116.1042,43.9317,锡林郭勒盟,市环保监测站,,37,19,21,2,6,117,117,110,110,3,7,8,9,0.2,0.2
2023-08-14T16:00:00,2203A,116.0781,43.9311,锡林郭勒盟,市政府,,38,17,14,2,4,119,119,110,110,5,10,12,12,0.2,0.2
2023-08-14T16:00:00,2204A,105.6467,38.8363,阿拉善盟,西城区西花园,,50,41,42,9,15,178,159,146,144,7,10,8,9,0.5,0.5
2023-08-14T16:00:00,2205A,105.6985,38.8411,阿拉善盟,蒙二幼,,48,35,35,11,14,180,153,147,141,10,10,8,8,0.5,0.5
2023-08-14T16:00:00,2206A,105.724,38.8516,阿拉善盟,环保局新楼,,48,14,23,12,13,174,152,157,142,8,8,9,9,0.5,0.5
2023-08-14T16:00:00,2207A,121.6094,41.998,阜新市,工业园区,,34,22,40,0,13,107,106,98,98,11,21,8,15,0.8,0.8
2023-08-14T16:00:00,2208A,121.6697,42.0279,阜新市,长青街,,29,18,46,9,22,92,92,84,84,9,18,12,14,0.4,1.1
2023-08-14T16:00:00,2209A,121.6673,42.0705,阜新市,农业园区,,32,32,33,5,17,99,99,90,90,6,9,17,18,0.4,1.3
2023-08-14T16:00:00,2210A,121.6717,42.0224,阜新市,东苑,,31,16,47,0,13,99,99,96,96,7,16,17,19,0.3,1.1
2023-08-14T16:00:00,2211A,121.6506,42.0498,阜新市,玉龙新城,,31,22,35,8,13,99,99,91,91,6,17,10,17,0.6,1.3
2023-08-14T16:00:00,2212A,123.2,41.1953,辽阳市,宏伟区,,40,28,36,21,16,126,126,89,89,10,22,9,12,1.1,0.9
2023-08-14T16:00:00,2213A,123.1683,41.2495,辽阳市,新华园,,40,26,36,28,18,116,116,95,95,6,19,9,11,0.7,0.8
2023-08-14T16:00:00,2214A,123.2354,41.2639,辽阳市,滨河路,,40,35,28,24,16,127,127,96,96,10,22,20,14,1.3,1.1
2023-08-14T16:00:00,2215A,123.149,41.2991,辽阳市,铁西工业园,,41,30,28,14,12,131,131,98,98,4,21,8,8,0.9,0.9
2023-08-14T16:00:00,2216A,123.8139,42.3022,铁岭市,汇工街西,,39,21,14,7,5,122,122,95,95,5,16,6,15,0.5,0.5
2023-08-14T16:00:00,2217A,123.8649,42.2923,铁岭市,水上乐园,,37,15,18,5,4,118,118,84,84,7,16,5,4,0.6,0.6
2023-08-14T16:00:00,2218A,123.8486,42.2867,铁岭市,银州路东段,,32,11,14,6,6,100,100,79,79,8,16,6,5,0.5,0.5
2023-08-14T16:00:00,2219A,123.7153,42.2217,铁岭市,金沙江路北,,37,11,18,4,10,118,118,92,92,6,15,9,7,0.7,0.7
2023-08-14T16:00:00,2220A,120.4318,41.5881,朝阳市,西梁,,35,11,32,10,18,113,109,89,89,5,18,10,10,0.4,0.6
2023-08-14T16:00:00,2221A,120.4521,41.5646,朝阳市,河畔小区,,35,17,25,3,9,109,109,88,88,4,10,7,7,0.5,0.6
2023-08-14T16:00:00,2222A,120.4176,41.5648,朝阳市,八里堡,,37,21,31,5,13,123,116,98,98,6,20,8,8,0.5,0.7
2023-08-14T16:00:00,2223A,120.3806,41.5969,朝阳市,农业园区,,35,10,27,10,11,116,112,91,91,4,19,5,5,0.5,0.6
2023-08-14T16:00:00,2225A,124.4002,43.1713,四平市,一商场,,33,13,22,3,10,114,103,93,93,6,20,6,8,0.4,0.4
2023-08-14T16:00:00,2226A,124.388,43.193,四平市,境园,,32,13,19,9,7,110,102,90,90,6,15,6,6,0.2,0.2
2023-08-14T16:00:00,2227A,125.1358,42.8845,辽源市,环保局,,37,8,15,2,10,118,118,89,89,7,12,6,6,0.4,0.5
2023-08-14T16:00:00,2229A,125.9358,41.7173,通化市,光明,,23,23,18,15,9,82,61,76,44,23,19,9,7,0.7,0.5
2023-08-14T16:00:00,2230A,125.9446,41.7325,通化市,铁路,,21,12,12,0,5,322,65,52,48,12,15,8,5,0.8,0.7
2023-08-14T16:00:00,2231A,126.4219,41.9171,白山市,喜丰,,31,31,24,6,9,90,72,77,65,7,12,6,7,0.6,0.6
2023-08-14T16:00:00,2232A,126.4077,41.9419,白山市,环保局,,28,28,23,8,8,94,68,81,64,20,11,6,6,0.6,0.5
2023-08-14T16:00:00,2233A,124.8006,45.1214,松原市,江南,,23,2,11,6,5,73,72,60,60,4,8,5,6,0.3,0.4
2023-08-14T16:00:00,2234A,124.7965,45.1722,松原市,江北,,23,2,7,5,5,77,72,62,62,5,8,3,4,0.3,0.3
2023-08-14T16:00:00,2235A,122.7911,45.6077,白城市,洮北区环保局,,33,18,12,6,6,103,103,89,89,8,10,5,5,0,0
2023-08-14T16:00:00,2236A,122.8738,45.5725,白城市,市环保局,,32,14,12,1,2,101,101,89,89,4,7,2,3,0.2,0.2
2023-08-14T16:00:00,2237A,129.47,42.8883,延边朝鲜族自治州,妇幼医院,,13,12,8,4,5,57,41,50,37,14,14,7,8,0.4,0.4
2023-08-14T16:00:00,2238A,129.5055,42.9108,延边朝鲜族自治州,延边医院,,,9,6,,4,65,47,55,47,9,9,8,8,0.5,0.5
2023-08-14T16:00:00,2239A,129.3964,42.8881,延边朝鲜族自治州,朝阳川镇医院,,15,9,7,4,2,62,48,49,46,5,7,7,7,0.5,0.5
2023-08-14T16:00:00,2240A,130.9762,45.3001,鸡西市,环保局,,,,15,2,6,39,18,27,26,15,9,5,5,,0.3
2023-08-14T16:00:00,2243A,130.9429,45.3039,鸡西市,第一中学,,,15,12,7,6,40,32,31,31,,6,6,6,0.4,0.4
2023-08-14T16:00:00,2244A,130.2537,47.3416,鹤岗市,哈啤分公司,,20,5,8,4,6,67,63,48,48,7,13,12,12,0.4,0.4
2023-08-14T16:00:00,2245A,130.2684,47.3086,鹤岗市,斯达机电,,19,6,7,4,6,65,59,45,45,5,11,8,8,0.3,0.4
2023-08-14T16:00:00,2246A,130.3114,47.3388,鹤岗市,东山纸板厂,,21,11,11,4,7,67,67,46,46,6,12,8,9,0.3,0.4
2023-08-14T16:00:00,2247A,130.1097,47.3382,鹤岗市,五号水库,,23,4,6,5,6,74,73,54,54,4,8,9,10,0.2,0.1
2023-08-14T16:00:00,2248A,131.1511,46.6937,双鸭山市,双合村,,16,6,14,3,6,53,51,42,42,6,8,10,10,0.2,0.4
2023-08-14T16:00:00,2249A,131.1652,46.6191,双鸭山市,南小市,,34,34,15,4,6,48,48,38,38,7,7,5,5,0.2,0.1
2023-08-14T16:00:00,2250A,131.1524,46.6554,双鸭山市,环保局,,16,7,9,5,6,51,51,37,37,7,8,8,8,0.2,0.3
2023-08-14T16:00:00,2251A,131.12,46.5656,双鸭山市,苗圃,,19,6,8,6,5,61,60,48,48,4,4,2,3,0.4,0.4
2023-08-14T16:00:00,2252A,128.5159,47.4311,伊春市,环保局,,22,10,12,0,5,72,68,65,65,8,7,4,5,0.2,0.2
2023-08-14T16:00:00,2253A,128.9102,47.7412,伊春市,电力嘉园,,25,9,6,6,6,80,80,72,72,4,7,5,5,0.4,0.4
2023-08-14T16:00:00,2254A,129.5029,48.471,伊春市,汤旺河国家公园,,23,15,6,13,6,94,71,71,71,1,2,3,8,0.6,0.6
2023-08-14T16:00:00,2255A,130.2751,46.8028,佳木斯市,佳纺,,26,4,9,2,4,83,83,60,60,1,7,5,4,0.4,0.5
2023-08-14T16:00:00,2256A,130.3995,46.8307,佳木斯市,发电厂,,27,4,8,4,7,85,85,59,59,5,10,4,3,0.5,0.5
2023-08-14T16:00:00,2257A,130.3258,46.7975,佳木斯市,环保局,,24,14,11,4,4,76,76,54,54,3,5,3,3,0.4,0.4
2023-08-14T16:00:00,2258A,130.3648,46.8032,佳木斯市,十一中,,24,6,10,7,9,74,74,52,52,5,13,5,5,0.4,0.5
2023-08-14T16:00:00,2259A,130.3794,46.7588,佳木斯市,四丰,,34,4,12,4,4,106,106,75,75,1,3,1,1,0.3,0.4
2023-08-14T16:00:00,2262A,131.0518,45.8751,七台河市,新一中,,23,23,16,10,8,67,62,60,60,10,7,10,8,0.7,0.7
2023-08-14T16:00:00,2263A,127.4833,50.2524,黑河市,交通局,,,,4,5,4,61,60,48,48,10,12,9,5,0.5,0.5
2023-08-14T16:00:00,2264A,127.5144,50.2341,黑河市,环保局,,21,14,17,5,5,69,66,58,58,6,5,6,2,0.4,0.4
2023-08-14T16:00:00,2265A,127.5291,50.2472,黑河市,大黑河岛,,25,3,11,7,9,77,77,63,63,2,2,2,2,0.4,0.4
2023-08-14T16:00:00,2266A,126.9785,46.6365,绥化市,人和东街,,34,16,19,6,10,108,108,79,79,7,9,4,4,0.3,0.4
2023-08-14T16:00:00,2267A,126.964,46.6528,绥化市,党政办公中心,,32,10,16,7,10,101,101,75,75,6,9,6,7,0.3,0.4
2023-08-14T16:00:00,2269A,124.1069,50.4097,大兴安岭地区,科技局,,22,4,9,9,9,69,69,54,54,3,4,2,2,0.3,0.3
2023-08-14T16:00:00,2270A,117.396,32.939,蚌埠市,工人疗养院,,43,30,33,18,17,137,137,110,110,2,5,4,3,0.5,0.5
2023-08-14T16:00:00,2271A,117.3605,32.9427,蚌埠市,百货大楼,,44,37,36,16,16,140,140,115,115,3,6,4,4,0.5,0.5
2023-08-14T16:00:00,2273A,117.4185,32.8911,蚌埠市,蚌埠学院,,42,27,32,17,22,132,132,111,111,4,8,6,6,0.5,0.6
2023-08-14T16:00:00,2274A,117.3533,32.9673,蚌埠市,淮上区政府,,44,36,31,22,21,138,138,112,112,4,8,5,5,0.5,0.6
2023-08-14T16:00:00,2275A,117.3145,32.8977,蚌埠市,高新区,,44,27,29,19,16,140,140,118,118,6,8,4,5,0.5,0.5
2023-08-14T16:00:00,2277A,116.8305,32.7727,淮南市,潘集区政府,,42,21,27,25,22,133,133,106,106,6,15,5,5,0.4,0.4
2023-08-14T16:00:00,2278A,117.0067,32.6524,淮南市,师范学院,,44,44,38,18,20,137,137,116,116,2,4,6,6,0.6,0.6
2023-08-14T16:00:00,2279A,116.8569,32.5951,淮南市,谢家集区政府,,43,18,25,17,9,137,137,121,121,10,14,6,7,0.4,0.4
2023-08-14T16:00:00,2280A,116.8281,32.633,淮南市,八公山区政府,,43,31,38,20,25,137,137,114,114,4,10,9,8,0.4,0.5
2023-08-14T16:00:00,2281A,116.6325,32.6201,淮南市,焦岗湖风景区管理处,,35,23,29,8,14,112,112,91,91,4,10,3,3,0.4,0.4
2023-08-14T16:00:00,2282A,116.8004,33.975,淮北市,监测站,,47,30,30,32,21,149,149,128,128,8,13,3,4,0.7,0.8
2023-08-14T16:00:00,2283A,116.8091,33.9007,淮北市,烈山区政府,,50,50,40,31,25,161,146,142,142,11,10,4,4,0.7,0.7
2023-08-14T16:00:00,2285A,117.8177,30.9412,铜陵市,市第四中学,,37,37,34,23,19,124,85,85,85,9,11,6,8,0.3,0.4
2023-08-14T16:00:00,2286A,117.8059,30.9273,铜陵市,市公路局,,36,36,33,20,19,141,97,98,98,14,14,5,6,0.4,0.4
2023-08-14T16:00:00,2287A,117.7807,30.9413,铜陵市,市新民污水厂,,37,37,42,12,18,142,95,93,93,12,16,4,5,0.4,0.5
2023-08-14T16:00:00,2288A,117.7439,30.8792,铜陵市,市第九中学,,29,24,52,10,21,128,92,76,76,13,23,3,2,0.8,1.1
2023-08-14T16:00:00,2289A,117.846,30.9413,铜陵市,车站新区,,49,49,36,31,21,150,89,82,82,22,19,6,4,0.8,0.5
2023-08-14T16:00:00,2290A,117.8483,30.97,铜陵市,市职教基地,,,22,26,12,13,135,70,80,80,25,12,4,5,,0.7
2023-08-14T16:00:00,2291A,117.0809,30.5177,安庆市,环科院,,38,38,30,8,21,144,118,112,112,8,16,4,5,0.6,0.7
2023-08-14T16:00:00,2292A,117.0331,30.5119,安庆市,马山宾馆,,39,36,30,10,22,153,124,119,119,9,13,5,5,0.8,0.8
2023-08-14T16:00:00,2294A,116.9896,30.6145,安庆市,安庆大学,,36,29,34,7,19,126,114,110,110,8,15,4,4,0.5,0.6
2023-08-14T16:00:00,2295A,118.2903,29.6963,黄山市,延安路89号,,48,48,35,9,8,138,138,81,81,4,6,6,6,0.7,0.7
2023-08-14T16:00:00,2296A,118.327,29.7178,黄山市,黄山东路89号,,42,34,21,6,8,132,132,77,77,5,8,7,6,0.5,0.5
2023-08-14T16:00:00,2297A,118.1371,30.2756,黄山市,黄山区政府5号楼,,34,27,30,8,10,114,108,89,89,5,7,7,7,0.6,0.5
2023-08-14T16:00:00,2298A,118.3093,32.3153,滁州市,老年大学,,29,23,25,13,14,143,91,109,109,8,10,4,5,0.3,0.3
2023-08-14T16:00:00,2299A,118.3244,32.2786,滁州市,人大宾馆,,34,18,21,15,15,144,106,113,113,6,9,5,7,0.4,0.4
2023-08-14T16:00:00,2301A,115.8277,32.8929,阜阳市,市监测站,,47,17,21,14,13,150,150,128,128,6,13,6,6,0.5,0.6
2023-08-14T16:00:00,2303A,115.8554,32.8605,阜阳市,开发区,,46,16,19,7,9,145,145,126,126,7,12,6,6,0.6,0.6
2023-08-14T16:00:00,2307A,116.5079,31.737,六安市,监测大楼,,38,27,27,18,12,131,119,110,110,7,6,4,5,0.6,0.6
2023-08-14T16:00:00,2308A,116.4738,31.7643,六安市,皖西学院,,37,23,32,14,12,130,117,114,114,5,8,4,5,0.4,0.4
2023-08-14T16:00:00,2309A,116.4996,31.7905,六安市,朝阳厂,,39,12,17,17,16,136,124,117,117,5,6,8,8,0.7,0.6
2023-08-14T16:00:00,2310A,116.5567,31.7886,六安市,开发区,,42,42,35,21,21,119,119,107,107,6,9,6,7,0.7,0.7
2023-08-14T16:00:00,2311A,115.8072,33.8399,亳州市,污水处理厂,,44,26,31,12,16,145,140,134,134,3,10,5,10,0.6,0.7
2023-08-14T16:00:00,2312A,115.7789,33.8518,亳州市,三国揽胜宫,,45,26,29,16,16,144,143,134,134,6,11,4,8,0.7,0.8
2023-08-14T16:00:00,2314A,117.47,30.6618,池州市,池州学院,,33,16,33,14,24,145,103,104,104,4,8,4,7,0.6,0.6
2023-08-14T16:00:00,2316A,118.7581,30.9454,宣城市,鳌峰子站,,38,31,33,26,22,130,120,105,105,11,15,4,5,0.6,0.6
2023-08-14T16:00:00,2317A,118.7385,30.9743,宣城市,敬亭山子站,,48,48,33,26,23,131,112,115,115,13,15,7,5,0.6,0.7
2023-08-14T16:00:00,2318A,118.7173,30.9427,宣城市,开发区子站,,37,34,32,25,21,127,117,99,99,11,14,6,6,0.5,0.5
2023-08-14T16:00:00,2319A,119.0141,25.4325,莆田市,荔城区仓后路,,45,39,36,20,19,159,141,120,120,10,11,8,8,0.7,0.7
2023-08-14T16:00:00,2320A,119.0015,25.4553,莆田市,莆田市监测站,,45,39,37,24,18,158,144,117,117,12,9,9,6,0.5,0.4
2023-08-14T16:00:00,2321A,119.1119,25.4561,莆田市,涵江区六中,,42,39,37,18,16,165,132,123,123,8,14,8,8,0.6,0.6
2023-08-14T16:00:00,2322A,119.1013,25.3215,莆田市,秀屿区政府,,38,32,28,16,15,154,120,113,113,7,9,8,9,0.6,0.7
2023-08-14T16:00:00,2323A,118.981,25.4792,莆田市,东圳水库,,,,,,,,,,,,,,,,
2023-08-14T16:00:00,2324A,117.6211,26.2625,三明市,三钢,,28,15,31,19,20,103,53,63,63,26,15,18,13,2.5,1
2023-08-14T16:00:00,2325A,117.635,26.2714,三明市,三明二中,,,,27,17,17,109,65,69,69,20,17,6,7,1.3,0.9
2023-08-14T16:00:00,2326A,117.6028,26.2378,三明市,三元区政府,,22,14,27,10,17,102,69,73,73,13,13,6,11,0.7,0.7
2023-08-14T16:00:00,2327A,117.7275,26.3108,三明市,洋溪,,,,,,,,,,,,,,,,
2023-08-14T16:00:00,2331A,118.0966,26.6761,南平市,茫荡山,,,,,,,,,,,,,,,,
2023-08-14T16:00:00,2332A,118.1681,26.6369,南平市,南平市监测站,,28,23,24,17,10,102,87,79,79,3,6,4,4,0.6,0.6
2023-08-14T16:00:00,2333A,118.1825,26.6489,南平市,南平铝业有限公司,,,24,19,21,12,96,76,73,73,,7,6,7,0.6,0.7
2023-08-14T16:00:00,2334A,118.1756,26.6272,南平市,南平七中,,43,43,21,13,11,101,73,76,76,4,4,4,4,0.5,0.5
2023-08-14T16:00:00,2335A,117.0189,25.1181,龙岩市,龙岩师专,,,,,,,,,,,,,,,,
2023-08-14T16:00:00,2336A,117.0217,25.1033,龙岩市,龙岩市监测站,,31,31,19,11,9,99,95,81,81,8,10,2,3,0.3,0.4
2023-08-14T16:00:00,2337A,117.0258,25.0661,龙岩市,闽西职业技术学院,,28,22,22,9,9,96,89,79,79,4,8,4,4,0.4,0.4
2023-08-14T16:00:00,2338A,117.0196,25.0306,龙岩市,龙岩学院,,27,17,16,8,8,94,84,78,78,2,4,4,4,0.3,0.3
2023-08-14T16:00:00,2339A,119.5001,26.6946,宁德市,金涵水库,,,,,,,,,,,,,,,,
2023-08-14T16:00:00,2341A,119.5388,26.6612,宁德市,宁德市监测站,,44,38,30,19,17,140,140,100,100,9,11,4,4,0.8,0.6
2023-08-14T16:00:00,2342A,117.3102,29.3867,景德镇市,王港中学,,30,18,18,21,11,84,74,56,56,2,2,3,2,0.6,0.5
2023-08-14T16:00:00,2343A,117.2117,29.2933,景德镇市,老干部活动中心,,35,35,26,22,18,101,101,72,72,3,11,5,6,0.4,0.4
2023-08-14T16:00:00,2344A,117.1894,29.2789,景德镇市,兽医站,,39,19,27,27,22,105,102,75,75,9,13,6,8,0.6,0.5
2023-08-14T16:00:00,2345A,117.1547,29.2617,景德镇市,台达陶瓷,,,25,26,26,18,98,92,79,79,12,14,,18,0.6,0.5
2023-08-14T16:00:00,2346A,117.2461,29.2956,景德镇市,陶研所,,31,26,34,12,12,99,99,71,71,5,12,5,7,0.3,0.3
2023-08-14T16:00:00,2347A,114.0997,27.5002,萍乡市,武功山,,40,27,10,28,10,128,128,87,87,5,4,22,20,1.1,0.4
2023-08-14T16:00:00,2348A,113.8385,27.6434,萍乡市,中医院,,35,16,29,17,23,129,112,100,100,3,11,6,12,0.6,0.7
2023-08-14T16:00:00,2349A,113.8493,27.6253,萍乡市,市政府车库,,39,29,32,27,21,135,115,107,107,6,10,6,16,0.3,0.4
2023-08-14T16:00:00,2350A,113.8676,27.6435,萍乡市,市环保局,,35,23,25,18,17,124,110,98,98,5,9,10,18,0.3,0.4
2023-08-14T16:00:00,2351A,113.866,27.6198,萍乡市,安源区政府,,35,26,27,19,16,131,111,106,106,5,9,6,14,0.5,0.6
2023-08-14T16:00:00,2352A,115.0861,27.9317,新余市,北岗,,29,15,23,9,13,100,91,83,83,2,4,8,8,0.5,0.6
2023-08-14T16:00:00,2353A,114.9886,27.8431,新余市,飞宇,,36,36,42,17,19,123,112,95,95,5,14,4,7,0.7,0.8
2023-08-14T16:00:00,2354A,114.9231,27.8246,新余市,第二水厂,颗粒物(PM10),69,87,54,27,21,156,134,102,102,6,17,7,10,0.6,0.7
2023-08-14T16:00:00,2355A,114.9308,27.8036,新余市,市气象局,细颗粒物(PM2.5),52,51,45,36,26,146,126,92,92,4,14,6,7,0.8,1.4
2023-08-14T16:00:00,2357A,116.9822,28.1136,鹰潭市,龙虎山,,29,11,13,14,10,92,92,76,76,2,3,2,3,0.3,0.6
2023-08-14T16:00:00,2358A,117.0564,28.2642,鹰潭市,新监测站,,33,28,24,12,10,104,104,81,81,4,4,2,6,0.5,0.4
2023-08-14T16:00:00,2359A,117.0311,28.2475,鹰潭市,财苑宾馆,,35,35,20,5,9,100,99,80,80,3,5,1,5,0.3,0.4
2023-08-14T16:00:00,2360A,117.0222,28.2264,鹰潭市,体育馆,颗粒物(PM10),53,55,26,12,8,101,101,80,80,6,6,3,3,0.4,0.3
2023-08-14T16:00:00,2361A,117.0017,28.2131,鹰潭市,三川水表,,38,38,22,16,11,104,98,84,84,2,3,2,2,0.4,0.4
2023-08-14T16:00:00,2362A,114.9017,25.9149,赣州市,通天岩,,,,,,,,,,,,,,,,
2023-08-14T16:00:00,2363A,114.9367,25.8664,赣州市,地委,颗粒物(PM10),57,64,36,20,16,156,156,118,118,5,10,4,7,1.0,1
2023-08-14T16:00:00,2364A,114.9461,25.8481,赣州市,气象台,,47,34,29,16,15,158,148,120,120,8,15,5,6,0.6,0.7
2023-08-14T16:00:00,2365A,114.9322,25.8333,赣州市,市图书馆,,44,41,43,23,21,153,138,117,117,5,14,4,4,0.9,1
2023-08-14T16:00:00,2366A,114.8905,25.8471,赣州市,华坚鞋城,,41,41,34,27,16,135,131,110,110,5,12,8,9,0.6,0.8
2023-08-14T16:00:00,2367A,114.9754,27.0803,吉安市,红声器材厂,,37,22,31,19,17,118,116,94,94,5,10,14,12,0.7,0.6
2023-08-14T16:00:00,2368A,114.9658,27.0999,吉安市,市森林工业局,,35,32,27,19,19,116,112,95,95,4,6,6,7,0.2,0.2
2023-08-14T16:00:00,2369A,114.99,27.1312,吉安市,市环境监测站,,33,23,29,20,15,104,104,84,84,7,9,7,8,0.7,0.7
2023-08-14T16:00:00,2370A,115.0093,27.0968,吉安市,青原区法院,,36,23,27,13,16,118,114,100,100,7,11,13,15,0.5,0.5
2023-08-14T16:00:00,2371A,114.3408,27.8064,宜春市,槟榔水业,,35,34,26,24,15,128,111,100,100,7,10,4,3,0.8,0.6
2023-08-14T16:00:00,2373A,114.3956,27.7844,宜春市,市石油公司,,43,42,31,30,18,122,110,99,99,8,9,5,4,0.9,0.7
2023-08-14T16:00:00,2374A,114.3703,27.7914,宜春市,市气象局,,43,32,32,30,20,127,118,101,101,10,12,9,5,1.2,0.9
2023-08-14T16:00:00,2375A,114.4013,27.8074,宜春市,市广电局,,36,30,32,19,19,132,113,102,102,11,10,10,12,0.9,0.8
2023-08-14T16:00:00,2376A,116.2127,28.0814,抚州市,桐源党溪,,42,18,22,11,11,134,134,108,108,3,3,3,2,0.7,0.7
2023-08-14T16:00:00,2377A,116.3544,27.9831,抚州市,市站,,40,36,28,28,18,110,110,95,95,5,5,10,11,0.8,0.8
2023-08-14T16:00:00,2378A,116.3565,27.963,抚州市,血防站,,36,33,31,19,13,116,113,100,100,3,3,5,6,0.7,0.8
2023-08-14T16:00:00,2379A,116.3564,28.0007,抚州市,采茶剧团,,35,26,23,13,14,111,110,93,93,4,4,3,6,0.6,0.6
2023-08-14T16:00:00,2380A,116.385,27.9647,抚州市,医学分院,,35,28,23,17,12,113,111,96,96,5,7,5,9,1.2,1.1
2023-08-14T16:00:00,2381A,118.005,28.4572,上饶市,百草园,,24,24,20,2,12,88,54,59,59,5,6,1,5,0.6,0.6
2023-08-14T16:00:00,2382A,117.9756,28.4436,上饶市,市监测站,,25,18,18,12,11,99,80,79,79,7,7,4,10,0.4,0.5
2023-08-14T16:00:00,2383A,117.9519,28.4628,上饶市,凤凰光学,,22,17,20,11,10,96,69,74,74,6,7,5,9,0.7,0.7
2023-08-14T16:00:00,2385A,114.17,35.9019,鹤壁市,市监测站,臭氧1小时,52,17,34,21,24,174,161,154,154,8,18,6,4,0.8,0.8
2023-08-14T16:00:00,2386A,114.2956,35.7511,鹤壁市,市交警支队,,46,8,41,10,23,147,147,134,134,6,24,9,9,0.4,0.6
2023-08-14T16:00:00,2387A,114.2878,35.7306,鹤壁市,迎宾馆,,47,14,31,14,26,148,148,134,134,8,18,3,6,0.4,0.8
2023-08-14T16:00:00,2389A,113.836,35.311,新乡市,环保西院,,49,22,39,14,22,166,154,146,146,7,16,4,4,0.6,0.8
2023-08-14T16:00:00,2390A,113.884,35.272,新乡市,开发区,臭氧1小时,57,23,34,19,22,168,165,150,150,1,14,4,4,0.5,0.6
2023-08-14T16:00:00,2391A,113.883,35.303,新乡市,环保东院,,49,34,48,20,21,162,156,146,146,5,16,3,3,0.4,0.5
2023-08-14T16:00:00,2392A,115.0312,35.7636,濮阳市,环保局,,42,10,29,11,19,144,132,137,137,6,11,5,5,0.4,0.7
2023-08-14T16:00:00,2394A,115.0574,35.7609,濮阳市,油田运输公司,,44,21,36,10,22,149,139,138,138,6,12,6,6,0.3,0.6
2023-08-14T16:00:00,2395A,115.0866,35.7754,濮阳市,油田物探公司,,43,20,40,10,22,153,136,132,132,3,11,5,4,0.5,0.7
2023-08-14T16:00:00,2396A,113.8276,34.0159,许昌市,监测站,臭氧1小时,55,28,36,11,22,164,164,146,146,8,15,3,4,0.3,0.5
2023-08-14T16:00:00,2398A,113.7906,33.9953,许昌市,开发区,臭氧1小时,54,18,39,12,23,164,163,147,147,6,15,2,3,0.4,0.6
2023-08-14T16:00:00,2399A,114.051,33.5699,漯河市,三五一五工厂,,45,20,30,12,19,147,143,145,145,1,8,10,10,0.4,0.6
2023-08-14T16:00:00,2400A,114.0055,33.5698,漯河市,漯河大学,,47,21,30,19,21,158,150,149,149,2,5,8,8,0.4,0.5
2023-08-14T16:00:00,2401A,114.0138,33.5828,漯河市,市水利局,,46,24,31,12,19,150,146,141,141,5,8,7,8,0.6,0.7
2023-08-14T16:00:00,2402A,114.0261,33.5698,漯河市,市广电局,,47,27,32,19,21,155,150,147,147,6,10,6,7,0.4,0.6
2023-08-14T16:00:00,2404A,112.5224,33.0122,南阳市,瓦房庄,,49,22,34,14,15,158,154,138,138,8,14,6,6,0.4,0.5
2023-08-14T16:00:00,2405A,112.5003,32.9735,南阳市,汉画馆,,49,31,32,14,19,159,155,142,142,8,13,6,6,0.4,0.4
2023-08-14T16:00:00,2406A,112.5573,33.027,南阳市,气象站,,45,26,35,20,26,145,142,130,130,7,11,5,5,0.5,0.5
2023-08-14T16:00:00,2407A,112.5481,32.9689,南阳市,理工学院,,48,24,31,14,17,160,153,147,147,8,10,7,7,0.4,0.5
2023-08-14T16:00:00,2408A,115.6702,34.4285,商丘市,环境监测站,,50,32,37,18,22,157,157,136,136,6,19,7,6,0.5,0.6
2023-08-14T16:00:00,2409A,115.6458,34.4045,商丘市,粮食局,,,28,31,15,18,141,139,127,127,6,13,,3,0.5,0.6
2023-08-14T16:00:00,2410A,115.6293,34.3948,商丘市,睢阳区环保局,,47,26,36,16,21,156,150,140,140,3,13,5,5,0.4,0.6
2023-08-14T16:00:00,2420A,114.0189,32.9656,驻马店市,市一纸厂,,48,11,25,17,15,157,152,144,144,3,9,4,6,0.4,0.4
2023-08-14T16:00:00,2421A,114.0114,33.015,驻马店市,市彩印厂,,50,25,34,11,17,157,157,141,141,6,12,7,8,0.3,0.4
2023-08-14T16:00:00,2422A,113.9976,32.9771,驻马店市,天方二分厂,,47,12,27,10,18,149,148,139,139,2,8,4,5,0.3,0.5
2023-08-14T16:00:00,2423A,115.0601,30.2313,黄石市,沈家营,,48,41,73,16,21,151,151,112,112,4,14,4,5,0.6,0.4
2023-08-14T16:00:00,2424A,115.0817,30.2006,黄石市,陈家湾,,49,40,62,22,23,156,156,115,115,2,6,5,6,0.7,0.7
2023-08-14T16:00:00,2426A,114.8988,30.2019,黄石市,铁山,,46,27,39,17,21,157,146,110,110,10,18,10,13,0.7,1.2
2023-08-14T16:00:00,2427A,115.0307,30.2092,黄石市,团城山,,49,27,52,14,15,154,154,114,114,5,14,11,11,0.8,0.6
2023-08-14T16:00:00,2428A,111.0419,32.395,十堰市,武当山,,39,9,19,6,11,125,124,115,115,4,5,9,9,0.7,0.7
2023-08-14T16:00:00,2429A,110.78,32.6494,十堰市,滨河新村,,41,18,33,15,18,138,131,113,113,1,10,5,6,0.5,0.7
2023-08-14T16:00:00,2430A,110.7258,32.6389,十堰市,刘家沟,,46,2,28,15,16,152,146,124,124,2,6,5,6,0.4,0.5
2023-08-14T16:00:00,2431A,110.8839,32.5714,十堰市,铁二处,,48,15,23,9,10,156,153,134,134,1,4,5,5,0.5,0.5
2023-08-14T16:00:00,2432A,112.155,32.0197,襄阳市,襄城运动路,,49,24,34,18,19,159,154,131,131,10,18,12,15,0.6,0.7
2023-08-14T16:00:00,2433A,112.1392,32.0564,襄阳市,樊城新华路,,48,26,36,16,26,159,152,136,136,8,14,6,9,0.7,0.7
2023-08-14T16:00:00,2434A,112.1825,32.1142,襄阳市,高新管委会,,,16,36,14,31,167,160,148,148,6,20,5,6,,0.7
2023-08-14T16:00:00,2435A,112.2106,32.0903,襄阳市,襄州航空路,,,26,35,14,19,138,,121,121,8,19,7,7,0.7,0.8
2023-08-14T16:00:00,2436A,114.8938,30.3994,鄂州市,市政府,,43,34,52,17,21,138,135,105,105,3,16,7,7,0.5,0.6
2023-08-14T16:00:00,2437A,114.8989,30.3714,鄂州市,赵家坝,,48,36,50,20,19,152,152,110,110,12,19,5,5,0.7,0.6
2023-08-14T16:00:00,2439A,112.2014,31.0481,荆门市,竹园小学,,50,32,35,25,18,159,159,138,138,6,13,9,9,0.6,0.8
2023-08-14T16:00:00,2440A,112.1969,30.9891,荆门市,掇刀,,47,28,32,18,17,148,148,135,135,7,12,13,10,0.5,0.6
2023-08-14T16:00:00,2441A,112.2213,31.0386,荆门市,石化一小,,48,28,38,19,19,156,153,138,138,6,15,6,8,0.4,0.5
2023-08-14T16:00:00,2443A,113.9153,30.9285,孝感市,文化路,,40,19,21,14,15,128,128,116,116,3,6,7,7,0.7,0.7
2023-08-14T16:00:00,2444A,113.942,30.9075,孝感市,东城区,,43,25,22,15,13,136,136,121,121,3,6,6,7,0.7,0.7
2023-08-14T16:00:00,2446A,114.9028,30.4742,黄冈市,职工中心,,44,30,36,17,23,142,140,109,109,3,4,8,10,0.6,0.7
2023-08-14T16:00:00,2447A,114.3175,29.8142,咸宁市,森林公园,,37,16,20,17,11,143,116,105,105,4,4,5,5,0.7,0.7
2023-08-14T16:00:00,2448A,114.3107,29.8454,咸宁市,市发改委,,40,25,24,22,15,154,127,114,114,2,4,6,6,0.5,0.5
2023-08-14T16:00:00,2449A,114.2936,29.8566,咸宁市,咸安区政府,,38,20,20,14,14,143,120,106,106,6,8,6,5,0.5,0.5
2023-08-14T16:00:00,2451A,113.3583,31.7275,随州市,市委党校,,43,25,26,17,19,136,136,122,122,2,5,6,7,0.7,0.7
2023-08-14T16:00:00,2452A,113.3833,31.6908,随州市,市林业局,,44,17,22,14,17,140,140,129,129,3,8,4,4,0.7,0.7
2023-08-14T16:00:00,2453A,113.3983,31.7308,随州市,市立交桥水厂,,43,17,22,14,15,135,135,124,124,2,8,7,7,0.7,0.7
2023-08-14T16:00:00,2454A,109.4978,30.2981,恩施土家族苗族自治州,湖北民院,,,,,,,,,,,,,,,,
2023-08-14T16:00:00,2455A,109.4707,30.2798,恩施土家族苗族自治州,州电力总公司,,31,13,20,8,9,101,97,73,73,9,15,10,10,0.6,0.7
2023-08-14T16:00:00,2456A,112.5003,26.9167,衡阳市,原169医院,,42,42,35,25,19,131,103,98,98,1,8,4,8,0.3,0.3
2023-08-14T16:00:00,2457A,112.6194,26.9258,衡阳市,衡阳化工总厂,,45,24,44,31,26,151,131,114,114,5,12,7,12,0.7,0.7
2023-08-14T16:00:00,2458A,112.6211,26.8956,衡阳市,珠晖区环保局,,,30,40,,,154,128,114,114,9,14,5,7,0.6,0.7
2023-08-14T16:00:00,2459A,112.6197,26.8733,衡阳市,市委党校,,44,40,41,29,25,161,139,124,124,6,14,6,9,0.8,1.1
2023-08-14T16:00:00,2460A,112.6006,26.8919,衡阳市,市监测站,,44,39,38,27,26,159,138,119,119,6,12,9,11,0.7,0.8
2023-08-14T16:00:00,2461A,112.5664,26.9056,衡阳市,真空机电公司,,,41,42,,19,165,137,112,112,5,13,10,10,0.8,0.8
2023-08-14T16:00:00,2462A,111.5239,27.3033,邵阳市,市水土所,,48,36,28,33,28,110,110,86,86,4,6,6,7,0.7,0.6
2023-08-14T16:00:00,2463A,111.4733,27.2317,邵阳市,市一中,,41,33,36,15,19,138,129,114,114,4,7,6,11,0.5,0.5
2023-08-14T16:00:00,2464A,111.5283,27.2442,邵阳市,市化工厂,,39,27,27,21,18,124,124,104,104,4,10,7,11,0.7,0.7
2023-08-14T16:00:00,2465A,111.4503,27.2537,邵阳市,市罐头厂,,45,45,29,15,20,126,114,98,98,4,8,3,6,0.5,0.6
2023-08-14T16:00:00,2466A,111.4328,27.2272,邵阳市,市环保局,,40,40,28,18,19,132,119,105,105,4,7,2,7,0.5,0.6
2023-08-14T16:00:00,2467A,112.4067,28.6428,益阳市,甘溪港,,32,20,28,7,7,103,102,82,82,3,7,4,6,0.5,0.5
2023-08-14T16:00:00,2468A,112.3458,28.5808,益阳市,市环保局,,,21,23,5,14,128,128,98,98,6,7,,9,0.7,0.8
2023-08-14T16:00:00,2469A,112.3437,28.5531,益阳市,市特殊教育学校,,40,21,33,9,22,126,126,96,96,4,9,2,5,0.7,0.7
2023-08-14T16:00:00,2470A,112.3347,28.6047,益阳市,资阳区政务中心,,40,17,19,8,14,126,126,96,96,2,4,2,5,0.8,0.8
