timepoint,stationcode,longitude,latitude,area,positionname,primarypollutant,aqi,pm10,pm10_24h,pm2_5,pm2_5_24h,o3,o3_24h,o3_8h,o3_8h_24h,no2,no2_24h,so2,so2_24h,co,co_24h
2023-08-14T11:00:00,1001A,116.3621,39.8784,北京市,万寿西宫,,48,34,34,17,19,161,151,97,56,14,19,3,3,0.7,0.6
2023-08-14T11:00:00,1002A,116.2202,40.2915,北京市,定陵,,38,17,21,11,11,135,119,68,68,5,6,3,3,0.4,0.4
2023-08-14T11:00:00,1003A,116.4174,39.9289,北京市,东四,,48,47,34,24,17,159,151,112,56,15,21,1,2,0.6,0.5
2023-08-14T11:00:00,1004A,116.4072,39.8863,北京市,天坛,,48,44,29,28,19,153,153,78,48,18,20,3,3,0.5,0.5
2023-08-14T11:00:00,1005A,116.462,39.9365,北京市,农展馆,颗粒物(PM10),51,51,36,21,18,152,137,103,46,22,24,3,3,0.6,0.4
2023-08-14T11:00:00,1006A,116.3392,39.9295,北京市,官园,,48,48,31,13,16,187,145,106,57,18,20,2,2,0.5,0.4
2023-08-14T11:00:00,1007A,116.2878,39.9611,北京市,海淀万柳,,45,45,30,21,15,159,115,82,48,28,24,3,2,0.4,0.4
2023-08-14T11:00:00,1008A,116.6636,40.135,北京市,顺义新城,,47,34,29,25,16,148,148,57,57,10,17,3,3,0.4,0.3
2023-08-14T11:00:00,1009A,116.6275,40.3275,北京市,怀柔镇,,36,27,22,14,11,115,115,58,57,10,10,3,3,0.4,0.3
2023-08-14T11:00:00,1010A,116.2296,40.217,北京市,昌平镇,,44,32,24,16,14,141,139,73,73,12,10,3,3,0.4,0.3
2023-08-14T11:00:00,1011A,116.3966,39.9821,北京市,奥体中心,,49,49,30,22,16,138,128,87,51,18,25,1,2,0.5,0.4
2023-08-14T11:00:00,1012A,116.184,39.9136,北京市,古城,,43,42,33,25,17,170,136,71,68,19,16,3,3,0.5,0.4
2023-08-14T11:00:00,1015A,117.1444,39.1661,天津市,勤俭道,臭氧1小时,79,30,40,14,25,183,183,104,87,8,17,6,6,0.7,0.7
2023-08-14T11:00:00,1017A,117.237,39.1082,天津市,大直沽八号路,,,26,45,18,28,153,148,103,76,12,21,,3,0.8,0.8
2023-08-14T11:00:00,1018A,117.202,39.0927,天津市,前进道,,50,22,39,14,27,167,159,106,83,12,20,5,6,0.8,0.7
2023-08-14T11:00:00,1019A,117.1837,39.2133,天津市,淮河道,臭氧1小时,82,43,42,17,23,185,185,92,92,12,25,5,5,0.9,0.8
2023-08-14T11:00:00,1021A,117.307,39.0877,天津市,跃进路,,50,24,46,11,25,166,158,103,91,10,17,6,6,0.8,0.8
2023-08-14T11:00:00,1023A,117.707,39.0343,天津市,第四大街,,45,25,36,18,24,155,141,101,85,17,20,4,7,1.0,0.9
2023-08-14T11:00:00,1024A,117.457,38.8394,天津市,永明路,,49,31,35,17,23,214,154,100,92,7,13,5,6,0.7,0.9
2023-08-14T11:00:00,1026A,117.764,39.1587,天津市,汉北路,臭氧1小时,63,23,35,18,22,170,170,92,92,10,17,4,5,0.7,0.8
2023-08-14T11:00:00,1027A,117.157,38.9194,天津市,团泊洼,,,28,37,21,25,166,138,117,77,,21,3,3,0.7,0.8
2023-08-14T11:00:00,1029A,114.4422,38.0444,石家庄市,职工医院,颗粒物(PM10),55,59,48,34,29,207,138,87,52,12,21,5,3,0.7,0.5
2023-08-14T11:00:00,1030A,114.6063,38.0266,石家庄市,高新区,,,,51,,33,198,138,80,63,13,19,1,1,1.5,0.6
2023-08-14T11:00:00,1031A,114.4898,38.1328,石家庄市,西北水源,颗粒物(PM10),65,79,62,35,28,209,132,95,50,17,21,3,3,1.1,0.7
2023-08-14T11:00:00,1032A,114.4586,38.0058,石家庄市,西南高教,,,,46,,26,199,116,77,43,9,19,1,3,0.9,0.7
2023-08-14T11:00:00,1033A,114.5331,38.0178,石家庄市,世纪公园,颗粒物(PM10),59,67,45,29,24,204,121,80,55,20,19,12,5,1.0,0.5
2023-08-14T11:00:00,1034A,114.509,38.0457,石家庄市,人民会堂,颗粒物(PM10),65,80,51,36,24,220,125,99,67,23,17,6,3,1.0,0.6
2023-08-14T11:00:00,1035A,114.3524,37.8911,石家庄市,封龙山,,43,43,40,29,20,155,119,137,129,6,8,6,5,1.1,0.9
2023-08-14T11:00:00,1037A,118.131,39.6363,唐山市,雷达站,颗粒物(PM10),59,68,54,39,27,153,153,63,63,23,29,2,3,0.6,0.6
2023-08-14T11:00:00,1038A,118.1725,39.6334,唐山市,物资局,颗粒物(PM10),52,54,57,30,33,145,145,52,52,12,24,4,5,0.7,0.8
2023-08-14T11:00:00,1040A,118.1705,39.6506,唐山市,十二中,,48,38,48,23,30,151,151,57,57,9,22,3,3,0.7,0.9
2023-08-14T11:00:00,1041A,118.1869,39.622,唐山市,小山,颗粒物(PM10),52,53,52,25,28,150,144,46,46,16,24,1,2,0.7,0.8
2023-08-14T11:00:00,1042A,119.5134,39.8207,秦皇岛市,北戴河环保局,,42,42,21,6,9,120,104,76,71,30,20,5,4,0.3,0.2
2023-08-14T11:00:00,1043A,119.7493,40.0116,秦皇岛市,第一关,,34,16,26,5,10,122,106,54,36,10,32,2,2,0.3,0.3
2023-08-14T11:00:00,1044A,119.5897,39.9499,秦皇岛市,监测站,,38,38,33,10,9,104,88,40,40,26,31,8,6,0.4,0.4
2023-08-14T11:00:00,1046A,119.5251,39.9041,秦皇岛市,建设大厦,,39,39,33,5,11,113,105,30,30,19,24,3,3,0.5,0.4
2023-08-14T11:00:00,1048A,114.5302,36.6116,邯郸市,东污水处理厂,,,,30,,20,142,112,76,68,,20,4,7,0.3,0.5
2023-08-14T11:00:00,1049A,114.4918,36.5713,邯郸市,矿院,,42,39,35,12,20,150,134,83,83,5,17,5,18,0.6,0.7
2023-08-14T11:00:00,1050A,114.484,36.6133,邯郸市,丛台公园,,43,24,26,12,16,146,136,97,97,3,8,9,8,0.4,0.4
2023-08-14T11:00:00,1051A,115.493,38.8632,保定市,游泳馆,,44,26,30,19,21,170,140,81,81,4,17,4,6,0.2,0.2
2023-08-14T11:00:00,1052A,115.5213,38.8959,保定市,华电二区,,43,35,35,10,14,171,137,85,85,3,10,6,4,0.7,0.7
2023-08-14T11:00:00,1053A,115.4713,38.9108,保定市,接待中心,,42,36,40,8,16,159,132,78,78,1,8,6,6,0.7,0.7
2023-08-14T11:00:00,1054A,115.4612,38.8416,保定市,地表水厂,,43,35,46,16,19,153,136,76,76,4,20,7,7,0.5,0.6
2023-08-14T11:00:00,1056A,115.5086,38.8639,保定市,监测站,,45,22,34,9,17,173,142,80,80,4,15,7,6,0.2,0.3
2023-08-14T11:00:00,1057A,114.8883,40.8336,张家口市,人民公园,,37,34,18,4,5,129,118,68,68,13,10,4,2,0.2,0.1
2023-08-14T11:00:00,1059A,114.8687,40.8042,张家口市,五金库,,38,38,20,8,8,123,117,71,71,12,12,4,3,0.2,0.1
2023-08-14T11:00:00,1060A,114.8902,40.762,张家口市,世纪豪园,,35,30,23,12,13,125,111,69,69,14,12,4,2,0.1,0
2023-08-14T11:00:00,1061A,114.8916,40.8661,张家口市,北泵房,,,17,14,6,8,125,,68,64,6,6,10,9,0.3,0.3
2023-08-14T11:00:00,1062A,117.9531,40.9081,承德市,铁路,,27,16,22,3,7,109,85,24,24,24,29,9,9,0.3,0.3
2023-08-14T11:00:00,1063A,117.9392,40.9763,承德市,中国银行,,34,16,23,2,8,122,107,32,32,14,20,9,8,0.4,0.2
2023-08-14T11:00:00,1064A,117.9503,40.928,承德市,开发区,,30,18,22,10,11,129,96,31,31,18,19,8,6,0.4,0.3
2023-08-14T11:00:00,1065A,117.8051,40.9655,承德市,文化中心,,42,42,31,4,8,116,80,20,20,33,33,18,7,0.8,0.5
2023-08-14T11:00:00,1066A,117.9268,41.0026,承德市,离宫,,,,19,,12,119,,21,21,,15,8,7,0.3,0.3
2023-08-14T11:00:00,1067A,116.6708,39.5111,廊坊市,药材公司,颗粒物(PM10),55,60,37,32,21,157,157,66,66,16,20,1,1,0.6,0.5
2023-08-14T11:00:00,1068A,116.7214,39.5589,廊坊市,开发区,,47,41,30,18,18,149,149,87,59,9,16,3,2,0.6,0.4
2023-08-14T11:00:00,1070A,116.7244,39.5269,廊坊市,北华航天学院,,,,42,,23,158,158,98,56,14,20,,5,0.5,0.4
2023-08-14T11:00:00,1071A,116.8842,38.2991,沧州市,沧县城建局,,45,22,36,8,15,147,144,100,88,10,18,4,5,0.4,0.5
2023-08-14T11:00:00,1072A,116.8584,38.3254,沧州市,电视转播站,,,,27,,19,136,129,104,85,7,13,4,5,,0.5
2023-08-14T11:00:00,1073A,116.8709,38.3228,沧州市,市环保局,,43,22,34,12,18,138,135,97,94,12,21,2,4,0.2,0.3
2023-08-14T11:00:00,1074A,115.6838,37.7541,衡水市,电机北厂,细颗粒物(PM2.5),57,22,28,40,16,190,149,99,99,1,8,4,5,0.3,0.4
2023-08-14T11:00:00,1075A,115.6303,37.7316,衡水市,市监测站,,46,21,23,7,10,157,146,76,76,5,17,5,6,0.5,0.5
2023-08-14T11:00:00,1077A,114.4704,37.0886,邢台市,达活泉,,,,32,,15,155,139,76,67,12,11,,8,0.7,0.6
2023-08-14T11:00:00,1078A,114.5062,37.0349,邢台市,邢师高专,,46,44,42,20,19,152,146,48,48,10,22,5,4,0.6,0.5
2023-08-14T11:00:00,1079A,114.5237,37.0851,邢台市,路桥公司,,45,35,40,16,19,144,143,74,66,7,15,6,8,0.6,0.6
2023-08-14T11:00:00,1080A,114.4725,37.0719,邢台市,市环保局,颗粒物(PM10),53,56,34,32,20,154,144,71,68,18,18,9,8,0.6,0.6
2023-08-14T11:00:00,1081A,112.522,37.8873,太原市,尖草坪,颗粒物(PM10),61,71,42,35,17,161,132,65,62,28,30,19,9,1.7,0.8
2023-08-14T11:00:00,1083A,112.434,38.0108,太原市,上兰,,,,,,,,,,,,,,,,
2023-08-14T11:00:00,1084A,112.469,37.7124,太原市,晋源,颗粒物(PM10),75,99,34,41,24,181,139,83,80,23,24,13,6,1.2,0.8
2023-08-14T11:00:00,1085A,112.5583,37.7394,太原市,小店,颗粒物(PM10),65,80,54,43,22,181,144,100,53,21,37,7,6,0.8,0.5
2023-08-14T11:00:00,1086A,112.5369,37.8692,太原市,桃园,颗粒物(PM10),68,86,41,47,17,156,127,71,63,33,29,20,7,1.8,0.7
2023-08-14T11:00:00,1087A,112.57,37.8195,太原市,坞城,颗粒物(PM10),65,80,42,44,19,154,153,77,77,19,28,8,7,0.8,0.6
2023-08-14T11:00:00,1088A,112.549,37.9854,太原市,南寨,,49,46,49,34,20,145,145,44,44,18,33,7,3,0.9,0.4
2023-08-14T11:00:00,1090A,111.6507,40.7517,呼和浩特市,呼市一监,,40,34,30,12,12,146,126,74,74,14,22,11,7,0.5,0.4
2023-08-14T11:00:00,1091A,111.6572,40.8033,呼和浩特市,小召,,39,34,34,10,11,146,124,76,58,16,32,9,7,0.7,0.6
2023-08-14T11:00:00,1094A,111.7516,40.8369,呼和浩特市,如意水处理厂,,45,31,29,12,9,166,141,79,75,11,25,10,7,0.4,0.4
2023-08-14T11:00:00,1095A,111.7276,40.8062,呼和浩特市,二十九中,,41,33,30,12,10,155,129,72,72,16,29,10,7,0.6,0.5
2023-08-14T11:00:00,1096A,111.5512,40.7866,呼和浩特市,工大金川校区,颗粒物(PM10),54,58,30,12,9,138,119,71,58,22,27,12,9,0.6,0.5
2023-08-14T11:00:00,1097A,111.717,40.7612,呼和浩特市,化肥厂生活区,,40,40,38,12,10,139,124,73,73,15,26,12,7,0.5,0.5
2023-08-14T11:00:00,1098A,123.6836,41.9339,沈阳市,森林路,,,,,,,,,,,,,,,,
2023-08-14T11:00:00,1099A,123.505,41.7406,沈阳市,浑南东路,,32,19,15,8,9,102,102,53,53,16,24,9,8,0.7,0.8
2023-08-14T11:00:00,1100A,123.4231,41.6989,沈阳市,新秀街,,32,16,16,4,8,100,100,44,44,11,28,6,6,0.7,0.9
2023-08-14T11:00:00,1102A,123.5903,41.8411,沈阳市,东陵路,,,20,14,4,4,88,88,54,54,,14,10,5,0.8,0.5
2023-08-14T11:00:00,1103A,123.4264,41.8467,沈阳市,陵东街,,31,11,15,9,9,97,97,71,71,14,22,4,4,0.6,0.7
2023-08-14T11:00:00,1104A,123.4114,41.7653,沈阳市,文化路,,30,22,21,12,13,94,94,54,54,25,33,10,6,0.8,0.8
2023-08-14T11:00:00,1105A,123.4678,41.7867,沈阳市,小河沿,,29,18,16,8,8,91,91,48,48,22,26,10,5,1.0,0.8
2023-08-14T11:00:00,1106A,123.4017,41.7972,沈阳市,太原街,,33,11,16,5,12,104,104,55,55,15,25,6,5,0.5,0.6
2023-08-14T11:00:00,1108A,123.3783,41.9228,沈阳市,京沈街,,22,19,19,9,10,69,69,30,30,17,19,6,5,0.6,0.6
2023-08-14T11:00:00,1109A,121.612,38.9741,大连市,甘井子,,31,11,17,5,13,138,98,87,82,8,11,3,3,0.4,0.7
2023-08-14T11:00:00,1110A,121.565,38.9511,大连市,周水子,,30,12,15,7,12,134,96,83,77,12,16,5,4,0.6,0.8
2023-08-14T11:00:00,1111A,121.5637,38.8845,大连市,星海三站,,30,8,14,5,14,137,95,85,79,12,15,7,6,0.4,0.7
2023-08-14T11:00:00,1112A,121.6302,38.9117,大连市,青泥洼桥,,28,10,18,6,14,129,88,76,72,15,16,5,4,0.7,1
2023-08-14T11:00:00,1113A,121.6251,38.8638,大连市,傅家庄,,30,8,15,5,14,141,96,86,84,12,11,8,7,0.5,0.8
2023-08-14T11:00:00,1114A,121.5213,38.8661,大连市,七贤岭,,34,7,9,6,12,156,108,97,92,8,9,5,5,0.4,0.8
2023-08-14T11:00:00,1115A,121.2529,38.8061,大连市,旅顺,,36,15,17,13,13,144,114,93,81,9,10,6,4,0.4,0.6
2023-08-14T11:00:00,1116A,121.7485,39.1311,大连市,金州,,32,8,16,4,14,131,101,78,78,8,11,6,7,0.5,0.9
2023-08-14T11:00:00,1117A,121.7811,39.0496,大连市,开发区,,33,17,47,5,16,129,103,80,80,8,12,3,3,0.7,1
2023-08-14T11:00:00,1118A,121.9762,39.0631,大连市,双D港,,36,12,16,3,14,114,114,85,85,9,12,6,6,0.4,0.6
2023-08-14T11:00:00,1119A,125.3325,43.9166,长春市,食品厂,,,23,22,9,11,71,71,33,33,20,32,,2,0.6,0.5
2023-08-14T11:00:00,1120A,125.2863,43.9027,长春市,客车厂,,22,19,21,7,11,68,68,39,39,17,28,3,3,0.6,0.6
2023-08-14T11:00:00,1121A,125.2841,43.8463,长春市,邮电学院,,27,16,19,6,6,84,84,42,42,9,14,5,4,0.4,0.4
2023-08-14T11:00:00,1122A,125.3716,43.8772,长春市,劳动公园,,22,14,14,7,6,74,69,43,43,16,20,5,5,0.6,0.5
2023-08-14T11:00:00,1123A,125.3297,43.8805,长春市,园林处,,24,11,15,6,7,76,76,44,44,13,24,4,4,0.5,0.5
2023-08-14T11:00:00,1124A,125.4605,43.79,长春市,净月潭,,23,7,10,4,3,71,71,45,45,4,4,5,5,0.4,0.3
2023-08-14T11:00:00,1125A,125.7194,43.515,长春市,甩湾子,,,,,,,,,,,,,,,,
2023-08-14T11:00:00,1126A,125.3863,43.8447,长春市,经开区环卫处,,22,17,15,6,5,70,70,39,39,13,23,5,4,0.4,0.4
2023-08-14T11:00:00,1127A,125.245,43.7783,长春市,高新区管委会,,26,18,15,7,5,81,81,51,51,6,15,2,3,0.4,0.4
2023-08-14T11:00:00,1128A,125.1761,43.8325,长春市,岱山公园,,22,22,17,9,7,70,70,45,45,18,24,2,2,0.5,0.5
2023-08-14T11:00:00,1129A,126.5422,45.755,哈尔滨市,岭北,,21,9,15,7,11,65,65,42,34,6,12,16,15,1.0,1
2023-08-14T11:00:00,1130A,126.561,45.8167,哈尔滨市,松北商大,,20,10,18,4,4,64,64,33,29,7,17,6,5,0.6,0.6
2023-08-14T11:00:00,1131A,126.979,45.5419,哈尔滨市,阿城会宁,,,,12,,4,71,71,30,30,4,9,5,4,0.6,0.5
2023-08-14T11:00:00,1132A,126.599,45.7222,哈尔滨市,南岗学府路,,,23,32,8,11,68,62,19,19,,19,5,5,0.8,0.8
2023-08-14T11:00:00,1133A,126.689,45.7733,哈尔滨市,太平宏伟公园,,18,16,21,10,7,55,55,23,23,13,21,6,6,0.5,0.5
2023-08-14T11:00:00,1134A,126.635,45.7667,哈尔滨市,道外承德广场,,18,15,24,4,9,57,57,26,26,18,25,7,7,0.5,0.5
2023-08-14T11:00:00,1135A,126.685,45.7319,哈尔滨市,香坊红旗大街,,26,26,25,9,12,65,61,29,26,14,25,10,10,0.5,0.6
2023-08-14T11:00:00,1136A,126.6411,45.7258,哈尔滨市,动力和平路,,,11,27,,,67,63,25,25,12,24,10,10,0.4,0.5
2023-08-14T11:00:00,1137A,126.593,45.7478,哈尔滨市,道里建国路,,28,28,29,10,9,59,59,26,26,15,29,8,7,0.6,1.3
2023-08-14T11:00:00,1138A,126.615,45.61,哈尔滨市,平房东轻厂,,19,16,19,7,6,58,58,28,28,4,9,6,5,0.5,0.5
2023-08-14T11:00:00,1139A,126.595,45.9855,哈尔滨市,呼兰师专,,21,2,29,3,11,74,67,31,31,7,20,7,7,0.5,0.5
2023-08-14T11:00:00,1140A,126.6206,45.6842,哈尔滨市,省农科院,,,,32,,7,67,66,23,23,,30,,9,0.4,0.5
2023-08-14T11:00:00,1141A,121.4,31.238,上海市,普陀,,26,22,29,11,15,177,82,80,66,14,17,5,5,0.5,0.5
2023-08-14T11:00:00,1142A,121.478,31.2036,上海市,十五厂,,28,28,31,14,13,153,77,80,69,15,13,10,9,0.4,0.4
2023-08-14T11:00:00,1143A,121.467,31.3008,上海市,虹口,,26,26,27,10,13,157,76,71,64,12,14,7,8,0.4,0.4
2023-08-14T11:00:00,1144A,121.412,31.1654,上海市,徐汇上师大,,28,28,34,14,14,171,88,81,74,18,14,6,5,0.5,0.4
2023-08-14T11:00:00,1145A,121.536,31.2659,上海市,杨浦四漂,,26,15,35,11,15,141,82,76,73,11,17,5,5,0.6,0.6
2023-08-14T11:00:00,1147A,121.425,31.2261,上海市,静安监测站,,29,24,30,17,18,135,90,92,80,11,14,2,2,0.6,0.5
2023-08-14T11:00:00,1148A,121.703,31.1907,上海市,浦东川沙,,,,27,,13,127,82,80,68,,15,,6,,0.5
2023-08-14T11:00:00,1149A,121.533,31.2284,上海市,浦东新区监测站,,24,24,29,11,12,141,75,81,66,10,11,2,3,0.5,0.4
2023-08-14T11:00:00,1150A,121.577,31.2071,上海市,浦东张江,,24,20,29,10,8,119,74,79,58,10,11,5,5,0.5,0.5
2023-08-14T11:00:00,1151A,118.8086,32.1065,南京市,迈皋桥,,35,24,31,17,19,167,109,67,67,8,19,4,5,0.4,0.7
2023-08-14T11:00:00,1152A,118.7538,32.0551,南京市,草场门,,43,43,32,19,18,164,104,79,79,19,22,3,3,0.7,0.7
2023-08-14T11:00:00,1153A,118.7794,32.0745,南京市,山西路,,46,46,37,22,18,172,123,83,83,10,17,4,4,0.3,0.5
2023-08-14T11:00:00,1154A,118.7752,32.0023,南京市,中华门,,35,34,30,24,18,169,105,73,73,15,20,8,7,0.8,0.9
2023-08-14T11:00:00,1155A,118.8109,32.0309,南京市,瑞金路,,39,39,32,22,20,181,107,75,75,13,21,1,1,0.4,0.5
2023-08-14T11:00:00,1156A,118.7997,32.0754,南京市,玄武湖,,34,34,31,17,17,165,97,68,68,11,19,6,7,0.5,0.8
2023-08-14T11:00:00,1157A,118.6414,32.0931,南京市,浦口,,38,38,36,14,17,151,90,65,65,9,10,5,5,0.5,0.5
2023-08-14T11:00:00,1158A,118.7356,31.9996,南京市,奥体中心,,37,37,28,24,20,159,89,74,74,17,20,7,7,0.6,0.6
2023-08-14T11:00:00,1159A,118.9125,32.1028,南京市,仙林大学城,,39,39,33,22,20,202,118,82,82,9,19,7,8,0.7,0.8
2023-08-14T11:00:00,1160A,120.561,31.2472,苏州市,上方山,,37,37,47,20,25,201,90,66,41,7,16,7,8,0.3,0.5
2023-08-14T11:00:00,1162A,120.591,31.3019,苏州市,彩香,,32,14,38,7,18,207,100,54,50,4,14,7,8,0.5,0.7
2023-08-14T11:00:00,1163A,120.596,31.3264,苏州市,轧钢厂,,34,18,40,8,18,214,106,56,56,7,20,9,11,0.5,0.6
2023-08-14T11:00:00,1164A,120.613,31.2703,苏州市,吴中区,,35,22,38,11,17,230,111,66,53,12,23,9,10,0.5,0.6
2023-08-14T11:00:00,1165A,120.543,31.2994,苏州市,苏州新区,,,14,42,7,19,219,103,50,43,,18,8,9,,0.7
2023-08-14T11:00:00,1166A,120.669,31.3097,苏州市,苏州工业园区,,34,17,35,8,18,220,106,64,52,2,13,8,9,0.5,0.6
2023-08-14T11:00:00,1167A,120.641,31.3708,苏州市,相城区,,31,19,33,9,16,214,98,50,50,4,19,6,8,0.5,0.6
2023-08-14T11:00:00,1168A,120.9098,31.9663,南通市,狼山街道,,28,22,23,7,10,229,88,87,71,8,13,8,9,0.4,0.4
2023-08-14T11:00:00,1169A,120.86,32.0005,南通市,虹桥,,27,18,26,11,16,263,84,82,70,9,14,5,6,0.7,0.6
2023-08-14T11:00:00,1170A,120.87,32.02,南通市,城中,,26,18,24,9,13,251,81,82,70,4,8,5,6,0.5,0.6
2023-08-14T11:00:00,1171A,120.94,31.93,南通市,星湖花园,,26,18,23,8,9,223,81,82,68,8,10,5,6,0.4,0.4
2023-08-14T11:00:00,1172A,120.81,32.0417,南通市,紫琅学院,,25,14,28,1,10,268,80,76,68,6,13,5,6,0.5,0.6
2023-08-14T11:00:00,1173A,119.176,34.5885,连云港市,市环境监测站,,32,29,24,14,12,123,101,79,64,9,16,6,7,0.5,0.7
2023-08-14T11:00:00,1177A,117.179,34.2761,徐州市,黄河新村,,48,44,42,33,25,148,129,71,71,15,19,11,10,0.7,0.8
2023-08-14T11:00:00,1178A,117.1918,34.2384,徐州市,淮塔,细颗粒物(PM2.5),59,58,41,42,24,142,142,67,67,13,19,12,11,0.7,0.5
2023-08-14T11:00:00,1180A,117.256,34.2153,徐州市,新城区,颗粒物(PM10),53,56,40,32,24,152,152,79,79,8,11,10,8,0.8,0.6
2023-08-14T11:00:00,1181A,117.244,34.2911,徐州市,桃园路,颗粒物(PM10),54,58,40,31,23,151,141,71,71,10,16,14,11,0.8,0.7
2023-08-14T11:00:00,1182A,117.2933,34.2778,徐州市,农科院,,49,44,35,34,23,146,144,65,65,12,23,10,8,0.7,0.6
2023-08-14T11:00:00,1186A,119.389,32.3761,扬州市,邗江监测站,,39,39,40,22,26,259,85,127,84,11,10,3,3,0.6,0.7
2023-08-14T11:00:00,1188A,120.269,31.4867,无锡市,雪浪,,44,44,43,19,25,241,112,106,66,12,16,6,6,0.6,0.8
2023-08-14T11:00:00,1189A,120.275,31.6219,无锡市,黄巷,,40,40,56,12,28,229,108,77,59,14,33,6,8,0.6,0.9
2023-08-14T11:00:00,1190A,120.294,31.56,无锡市,曹张,,32,22,45,14,27,226,102,64,56,10,25,8,10,0.6,0.9
2023-08-14T11:00:00,1191A,120.242,31.5031,无锡市,漆塘,,34,31,40,14,27,210,108,93,64,13,20,6,6,1.0,1.3
2023-08-14T11:00:00,1192A,120.3489,31.5863,无锡市,东亭,,33,22,42,12,25,223,103,70,61,12,24,6,7,0.5,0.7
2023-08-14T11:00:00,1193A,120.354,31.5475,无锡市,旺庄,,39,39,41,22,24,228,110,60,60,9,15,9,10,0.7,0.8
2023-08-14T11:00:00,1194A,120.245,31.5631,无锡市,荣巷,,35,27,41,14,25,219,112,89,60,7,14,10,10,0.4,0.7
2023-08-14T11:00:00,1195A,120.299,31.6817,无锡市,堰桥,,32,27,44,9,22,208,101,85,57,7,19,7,7,0.8,1.1
2023-08-14T11:00:00,1196A,119.9633,31.762,常州市,市监测站,,46,46,48,27,26,225,84,107,59,24,21,10,8,0.8,0.6
2023-08-14T11:00:00,1200A,119.9468,31.7069,常州市,武进监测站,,44,44,51,29,26,231,86,89,61,21,17,10,10,0.7,0.6
2023-08-14T11:00:00,1201A,119.9255,31.9087,常州市,安家,,30,24,35,21,26,257,82,100,57,15,18,8,7,0.5,0.5
2023-08-14T11:00:00,1203A,119.6707,32.1875,镇江市,新区办事处,,22,13,33,13,28,244,69,89,55,15,29,2,3,0.4,0.5
2023-08-14T11:00:00,1204A,119.4974,32.1968,镇江市,职教中心,,,28,38,15,24,327,51,84,68,16,14,,2,0.9,0.7
2023-08-14T11:00:00,1205A,119.4303,32.1328,镇江市,丹徒区监测站,,32,32,40,21,33,343,76,86,69,12,16,3,2,0.9,0.8
2023-08-14T11:00:00,1206A,119.905,32.4878,泰州市,公园路,,31,31,36,17,27,249,81,98,68,8,11,3,4,0.7,0.7
2023-08-14T11:00:00,1207A,119.9189,32.4625,泰州市,莲花,,,29,37,22,25,245,76,100,66,,10,2,4,0.7,0.8
2023-08-14T11:00:00,1209A,119.888,32.4639,泰州市,留学生创业园,,25,21,37,10,21,237,79,96,68,5,10,4,5,0.6,0.7
2023-08-14T11:00:00,1210A,119.036,33.5981,淮安市,钵池山,,32,31,22,18,17,136,102,75,75,13,14,7,7,0.9,0.9
2023-08-14T11:00:00,1211A,119.007,33.575,淮安市,北京南路,,35,29,23,15,17,133,109,82,82,11,12,9,10,0.9,0.9
2023-08-14T11:00:00,1212A,118.989,33.6067,淮安市,市监测站,,,39,27,14,11,144,107,89,81,,11,6,7,,0.8
2023-08-14T11:00:00,1213A,119.135,33.5039,淮安市,楚州区监测站,,33,32,30,10,14,147,104,95,83,8,11,7,9,0.8,0.9
2023-08-14T11:00:00,1214A,119.0186,33.6297,淮安市,淮阴区监测站,,,36,23,18,19,142,103,84,74,,9,7,8,,0.7
2023-08-14T11:00:00,1215A,120.118,33.4022,盐城市,盐城电厂,,36,27,33,14,20,236,114,97,91,4,6,4,5,0.6,0.7
2023-08-14T11:00:00,1216A,120.156,33.3942,盐城市,市监测站,,39,21,29,10,20,259,122,104,94,5,8,5,5,0.6,0.7
2023-08-14T11:00:00,1218A,120.2144,33.38,盐城市,开发区管委会,,35,23,29,13,26,227,110,93,90,6,9,5,4,0.4,0.6
2023-08-14T11:00:00,1220A,118.293,33.9528,宿迁市,宿迁学院,,36,32,25,25,22,151,114,82,73,10,12,14,13,0.9,0.8
2023-08-14T11:00:00,1221A,118.2442,33.9592,宿迁市,宿迁中学,,40,26,28,12,21,162,126,78,78,11,14,12,9,0.5,0.7
2023-08-14T11:00:00,1223A,120.2072,30.2111,杭州市,滨江,颗粒物(PM10),57,64,54,33,33,237,125,88,78,17,16,7,7,0.8,0.7
2023-08-14T11:00:00,1224A,120.0633,30.2747,杭州市,西溪,,47,47,52,25,28,219,118,70,70,9,15,4,4,1.0,0.8
2023-08-14T11:00:00,1226A,120.3461,30.3153,杭州市,下沙,颗粒物(PM10),57,64,54,36,29,221,136,114,100,17,15,3,3,1.0,0.8
2023-08-14T11:00:00,1227A,120.1269,30.2456,杭州市,卧龙桥,,49,46,43,34,31,231,127,62,62,14,14,4,4,0.9,0.8
2023-08-14T11:00:00,1228A,120.1903,30.2692,杭州市,浙江农大,细颗粒物(PM2.5),54,49,42,38,31,205,110,96,84,34,24,8,8,1.0,0.8
2023-08-14T11:00:00,1230A,120.1197,30.3119,杭州市,和睦小学,,,57,51,33,33,232,119,99,93,29,22,8,7,,0.9
2023-08-14T11:00:00,1231A,120.3019,30.4183,杭州市,临平镇,颗粒物(PM10),64,78,48,38,27,238,150,113,111,13,11,6,5,0.9,0.7
2023-08-14T11:00:00,1232A,120.2697,30.1819,杭州市,城厢镇,细颗粒物(PM2.5),63,61,51,45,40,249,135,115,101,21,18,7,7,0.9,0.7
2023-08-14T11:00:00,1233A,120.0883,30.1808,杭州市,云栖,颗粒物(PM10),53,56,49,28,28,226,109,35,35,16,13,6,6,0.7,0.5
2023-08-14T11:00:00,1234A,121.8358,29.911,宁波市,区环保大楼,,40,27,32,18,19,172,125,65,65,22,25,7,4,0.7,0.6
2023-08-14T11:00:00,1235A,121.56,29.82,宁波市,万里学院,颗粒物(PM10),54,57,42,35,26,180,149,64,64,14,24,6,6,0.9,0.8
2023-08-14T11:00:00,1236A,121.713,29.9572,宁波市,龙赛医院,,41,41,66,16,22,180,124,55,55,14,30,9,9,0.5,0.6
2023-08-14T11:00:00,1239A,121.633,29.7733,宁波市,钱湖水厂,细颗粒物(PM2.5),55,55,48,39,30,164,142,47,47,14,13,5,4,0.7,0.7
2023-08-14T11:00:00,1240A,121.5856,29.8635,宁波市,太古小学,,48,47,40,33,23,194,130,69,69,15,21,5,5,1.0,1
2023-08-14T11:00:00,1241A,121.524,29.8674,宁波市,市环境监测中心,颗粒物(PM10),53,56,39,30,19,199,152,75,75,9,18,6,6,0.6,0.6
2023-08-14T11:00:00,1242A,120.634,28.0089,温州市,瓯海,,34,30,32,16,19,122,108,32,32,16,22,6,5,0.6,0.6
2023-08-14T11:00:00,1243A,120.6748,27.9939,温州市,南浦,,37,27,30,14,16,127,118,38,38,14,22,7,7,0.5,0.5
2023-08-14T11:00:00,1244A,120.76,27.9747,温州市,龙湾,,36,36,34,16,15,145,105,34,34,19,26,7,6,0.6,0.6
2023-08-14T11:00:00,1245A,120.6709,28.0167,温州市,市站,,30,28,36,13,21,118,94,30,30,18,22,5,5,0.6,0.6
2023-08-14T11:00:00,1247A,120.6053,29.9928,绍兴市,城东开发委,,,79,62,59,42,252,144,80,80,,19,5,5,0.8,0.6
2023-08-14T11:00:00,1250A,120.0751,30.8669,湖州市,城西水厂,细颗粒物(PM2.5),64,64,47,46,31,221,113,75,65,27,30,9,5,0.9,0.7
2023-08-14T11:00:00,1252A,120.7436,30.778,嘉兴市,清河小学,,32,24,37,11,22,177,102,100,73,7,10,8,9,0.6,0.5
2023-08-14T11:00:00,1253A,120.726,30.7478,嘉兴市,嘉兴学院,,34,30,40,12,26,196,106,107,76,15,15,3,3,0.5,0.6
2023-08-14T11:00:00,1255A,121.273,28.6459,台州市,黄岩环保大楼,,42,36,33,24,20,133,133,52,52,12,15,5,4,0.7,0.7
2023-08-14T11:00:00,1256A,121.419,28.6542,台州市,台州环保大楼,,37,28,32,21,20,132,117,46,46,8,14,4,4,0.6,0.6
2023-08-14T11:00:00,1257A,121.377,28.5773,台州市,路桥田洋王,,36,30,31,19,21,136,113,46,46,10,17,4,4,0.4,0.4
2023-08-14T11:00:00,1258A,122.122,30.0203,舟山市,定海檀枫,,48,48,38,30,20,134,134,51,50,17,21,6,6,0.5,0.5
2023-08-14T11:00:00,1259A,122.3094,29.9558,舟山市,普陀东港,臭氧1小时,62,70,36,42,17,169,169,63,63,20,20,6,5,0.6,0.5
2023-08-14T11:00:00,1260A,122.19,29.9944,舟山市,临城新区,颗粒物(PM10),58,65,36,34,20,155,155,70,61,22,23,7,7,0.5,0.4
2023-08-14T11:00:00,1262A,119.647,29.077,金华市,十五中,颗粒物(PM10),58,65,45,27,19,131,45,29,29,26,19,4,4,0.6,0.6
2023-08-14T11:00:00,1263A,119.686,29.1029,金华市,监测站,颗粒物(PM10),55,60,37,34,24,135,64,35,35,22,20,5,4,0.7,0.6
2023-08-14T11:00:00,1264A,118.8692,28.9398,衢州市,环保大楼,,17,6,20,3,12,103,53,34,25,9,13,4,4,0.4,0.4
2023-08-14T11:00:00,1265A,118.8709,28.9666,衢州市,实验学校,,17,11,28,7,13,114,53,42,29,17,18,4,6,0.4,0.3
2023-08-14T11:00:00,1266A,118.8621,28.9808,衢州市,衢州学院,,16,8,21,1,8,118,51,32,30,21,19,6,6,0.6,0.5
2023-08-14T11:00:00,1267A,119.914,28.4514,丽水市,监测站大楼,,17,15,17,4,8,121,52,63,43,17,12,4,5,0.7,0.6
2023-08-14T11:00:00,1268A,119.93,28.4586,丽水市,莲都小学,,19,7,17,4,6,123,60,70,48,12,8,5,5,0.5,0.5
2023-08-14T11:00:00,1269A,119.879,28.4231,丽水市,余庄前,,18,14,18,12,13,113,46,31,24,15,11,4,5,0.6,0.5
2023-08-14T11:00:00,1270A,117.1959,31.7848,合肥市,明珠广场,,45,39,35,31,24,138,124,86,86,13,15,5,6,0.6,0.6
2023-08-14T11:00:00,1271A,117.3072,31.8764,合肥市,三里街,,38,34,34,24,24,132,119,84,84,11,14,5,6,0.4,0.4
2023-08-14T11:00:00,1272A,117.2588,31.8707,合肥市,琥珀山庄,,,,33,,24,147,129,94,88,12,11,,5,0.6,0.6
2023-08-14T11:00:00,1273A,117.1604,31.9052,合肥市,董铺水库,,36,34,34,19,21,143,114,73,73,6,11,3,4,0.5,0.5
2023-08-14T11:00:00,1274A,117.25,31.8571,合肥市,长江中路,,39,39,36,23,23,143,124,91,91,8,8,7,7,0.6,0.5
2023-08-14T11:00:00,1275A,117.266,31.9436,合肥市,庐阳区,,38,34,36,24,26,132,120,95,83,8,10,4,5,0.5,0.6
2023-08-14T11:00:00,1276A,117.336,31.8586,合肥市,瑶海区,,39,39,40,26,21,126,117,87,84,8,9,8,9,0.7,0.7
2023-08-14T11:00:00,1277A,117.3027,31.7964,合肥市,包河区,,44,44,32,24,22,136,120,86,86,15,19,5,6,0.6,0.6
2023-08-14T11:00:00,1278A,117.2776,31.7385,合肥市,滨湖新区,,46,46,35,17,19,139,120,91,91,13,12,5,5,0.6,0.6
2023-08-14T11:00:00,1279A,117.1318,31.8403,合肥市,高新区,,44,44,36,28,26,135,122,82,78,9,13,8,9,0.6,0.6
2023-08-14T11:00:00,1280A,119.3903,26.0543,福州市,鼓山,,,,,,,,,,,,,,,,
2023-08-14T11:00:00,1282A,119.2681,26.0504,福州市,师大,,30,30,32,14,16,107,94,44,41,5,11,4,4,0.4,0.4
2023-08-14T11:00:00,1283A,119.2984,26.1028,福州市,五四北路,,32,23,33,12,15,117,102,47,43,6,12,3,3,0.4,0.4
2023-08-14T11:00:00,1284A,119.2648,26.0768,福州市,杨桥西路,,,42,32,22,14,105,79,46,33,8,11,,3,,0.5
2023-08-14T11:00:00,1285A,119.317,26.0746,福州市,紫阳,,31,31,32,12,15,114,91,44,44,6,11,3,3,0.5,0.4
2023-08-14T11:00:00,1286A,118.1608,24.8169,厦门市,溪东,,,,,,,,,,,,,,,,
2023-08-14T11:00:00,1287A,118.1514,24.4767,厦门市,洪文,,30,30,15,13,11,64,53,35,32,10,8,2,1,0.2,0.1
2023-08-14T11:00:00,1288A,118.0661,24.4444,厦门市,鼓浪屿,,26,26,25,14,14,60,50,37,30,6,8,3,2,0.4,0.3
2023-08-14T11:00:00,1290A,115.8931,28.6843,南昌市,省外办,,34,34,20,19,10,109,108,76,75,9,11,3,3,0.6,0.5
2023-08-14T11:00:00,1291A,115.8886,28.7003,南昌市,省林业公司,,31,22,15,17,10,103,98,68,65,10,14,5,5,0.5,0.5
2023-08-14T11:00:00,1292A,115.8126,28.7442,南昌市,林科所,,31,17,5,17,6,97,97,70,60,6,10,4,5,0.6,0.6
2023-08-14T11:00:00,1294A,115.8518,28.687,南昌市,建工学校,,38,19,15,8,6,119,119,80,76,4,7,6,6,0.6,0.5
2023-08-14T11:00:00,1295A,115.8921,28.6424,南昌市,象湖,,37,22,15,21,11,117,117,82,80,10,10,5,5,0.6,0.5
2023-08-14T11:00:00,1296A,115.7423,28.7996,南昌市,武术学校,,27,16,18,13,13,89,84,31,31,5,6,4,5,0.4,0.3
2023-08-14T11:00:00,1298A,115.9314,28.6842,南昌市,省站,,35,30,21,15,9,122,110,72,72,5,9,6,6,0.6,0.5
2023-08-14T11:00:00,1299A,116.9862,36.6114,济南市,科干所,,41,27,30,12,18,131,130,70,65,15,18,8,7,0.3,0.4
2023-08-14T11:00:00,1300A,116.9376,36.665,济南市,农科所,,,22,30,10,15,144,130,67,44,19,21,10,9,,0.4
2023-08-14T11:00:00,1301A,117.1265,36.6734,济南市,开发区,,40,29,28,7,16,136,125,74,66,14,20,6,5,0.4,0.6
2023-08-14T11:00:00,1303A,117.0624,36.6868,济南市,省种子仓库,,39,27,29,5,14,134,124,75,70,10,17,7,6,0.4,0.6
2023-08-14T11:00:00,1304A,116.9489,36.6447,济南市,机床二厂,,44,27,35,7,14,144,138,87,56,19,24,11,8,0.6,0.7
2023-08-14T11:00:00,1305A,117.0495,36.663,济南市,市监测站,,,24,29,5,17,138,128,76,67,16,26,,2,0.3,0.5
2023-08-14T11:00:00,1306A,116.7675,36.5484,济南市,长清党校,,42,34,31,17,19,142,132,70,70,16,20,8,7,0.6,0.6
2023-08-14T11:00:00,1307A,120.6659,36.2403,青岛市,仰口,,25,12,11,12,15,80,80,73,73,7,6,7,6,0.4,0.3
2023-08-14T11:00:00,1310A,120.4134,36.0658,青岛市,市南区东部子站,,35,24,21,12,12,111,109,84,84,33,23,9,6,0.6,0.5
2023-08-14T11:00:00,1311A,120.3664,36.1032,青岛市,四方区子站,,44,27,24,12,13,140,140,86,86,12,17,6,5,0.5,0.6
2023-08-14T11:00:00,1312A,120.2994,36.054,青岛市,市南区西部子站,,44,36,25,15,12,139,139,92,92,20,14,6,6,0.6,0.6
2023-08-14T11:00:00,1313A,120.4581,36.0858,青岛市,崂山区子站,,34,19,17,9,12,118,108,84,84,29,22,8,7,0.5,0.5
2023-08-14T11:00:00,1314A,120.1983,35.9608,青岛市,黄岛区子站,,41,31,26,20,16,130,130,70,70,26,38,6,8,0.8,0.6
2023-08-14T11:00:00,1315A,120.3999,36.3083,青岛市,城阳区子站,,44,31,26,7,14,139,139,86,86,15,14,6,5,0.5,0.5
2023-08-14T11:00:00,1316A,113.69031,34.76122,郑州市,烟厂,,49,46,34,15,19,168,156,114,100,11,18,2,2,0.6,0.7
2023-08-14T11:00:00,1317A,113.65724,34.77134,郑州市,郑纺机,,,42,35,,,173,157,119,106,5,9,2,2,0.7,0.7
2023-08-14T11:00:00,1318A,113.67526,34.80246,郑州市,银行学校,,48,20,30,18,20,168,152,101,101,8,13,3,3,0.6,0.6
2023-08-14T11:00:00,1319A,113.56746,34.81334,郑州市,供水公司,,49,34,41,19,18,177,154,74,66,12,26,1,1,0.7,0.7
2023-08-14T11:00:00,1320A,113.7329,34.7178,郑州市,经开区管委,,45,15,39,15,25,152,141,74,74,8,15,3,3,0.6,0.7
2023-08-14T11:00:00,1321A,113.73961,34.77172,郑州市,四十七中,,,,,,,,,,,,,,,,
2023-08-14T11:00:00,1322A,113.60532,34.74838,郑州市,市监测站,,50,37,39,18,20,176,158,111,89,9,15,3,3,0.5,0.6
2023-08-14T11:00:00,1323A,113.64164,34.7525,郑州市,河医大,,,30,39,16,20,158,136,102,86,12,14,,3,0.7,0.8
2023-08-14T11:00:00,1324A,113.51488,34.91089,郑州市,岗李水库,,,,,,,,,,,,,,,,
2023-08-14T11:00:00,1325A,114.3677,30.5584,武汉市,东湖梨园,,39,33,23,22,15,129,123,89,78,21,13,17,7,2.4,0.9
2023-08-14T11:00:00,1326A,114.2529,30.558,武汉市,汉阳月湖,,33,31,24,22,11,118,104,83,65,16,16,8,7,0.7,0.6
2023-08-14T11:00:00,1327A,114.282,30.6189,武汉市,汉口花桥,,37,33,25,20,15,124,116,92,88,12,11,8,8,0.6,0.5
2023-08-14T11:00:00,1328A,114.3025,30.5332,武汉市,武昌紫阳,,37,34,24,13,12,144,116,84,78,17,13,8,6,1.2,0.7
2023-08-14T11:00:00,1329A,114.3646,30.6217,武汉市,青山钢花,,38,34,27,19,17,124,121,81,78,11,15,7,7,0.6,0.5
2023-08-14T11:00:00,1330A,114.1566,30.4825,武汉市,沌口新区,,43,39,25,30,19,142,126,78,78,18,15,8,6,1.1,0.6
2023-08-14T11:00:00,1331A,114.3014,30.5944,武汉市,汉口江滩,,35,23,24,17,13,122,112,96,88,18,9,6,5,0.6,0.5
2023-08-14T11:00:00,1333A,114.135,30.6319,武汉市,吴家山,,40,40,29,20,13,128,128,92,92,12,13,6,6,0.7,0.6
2023-08-14T11:00:00,1334A,113.8454,30.2917,武汉市,沉湖七壕,,33,29,26,18,15,114,105,76,76,17,14,7,7,0.7,0.7
2023-08-14T11:00:00,1335A,113.0833,28.2325,长沙市,经开区环保局,,39,39,26,26,16,109,86,58,52,8,10,4,4,0.5,0.5
2023-08-14T11:00:00,1336A,112.8872,28.2189,长沙市,高开区环保局,,30,26,21,21,16,116,93,62,56,7,8,6,5,0.7,0.7
2023-08-14T11:00:00,1337A,113.0792,28.2053,长沙市,马坡岭,,46,37,30,32,20,124,100,68,65,11,13,5,5,0.4,0.4
2023-08-14T11:00:00,1338A,112.9394,28.19,长沙市,湖南师范大学,,39,33,28,27,16,116,92,56,53,8,9,2,2,0.5,0.5
2023-08-14T11:00:00,1339A,113.0178,28.1322,长沙市,雨花区环保局,,40,40,30,19,17,125,100,65,64,8,9,5,5,0.5,0.4
2023-08-14T11:00:00,1340A,112.9792,28.2597,长沙市,伍家岭,,40,38,26,28,16,112,92,68,63,10,9,3,3,0.5,0.4
2023-08-14T11:00:00,1341A,113.0014,28.1944,长沙市,火车新站,,42,31,21,29,19,112,90,66,61,9,7,5,5,0.5,0.5
2023-08-14T11:00:00,1342A,112.9844,28.1178,长沙市,天心区环保局,,40,27,22,28,17,127,101,61,59,7,8,3,2,0.6,0.6
2023-08-14T11:00:00,1343A,112.8908,28.1308,长沙市,湖南中医药大学,,35,31,22,22,13,124,109,66,66,4,6,4,2,0.8,0.8
2023-08-14T11:00:00,1344A,112.9581,28.3611,长沙市,沙坪,,38,32,30,26,16,105,78,64,52,6,6,8,6,0.6,0.6
2023-08-14T11:00:00,1345A,113.2347,23.1423,广州市,广雅中学,,38,38,26,21,14,142,78,52,52,21,18,5,5,0.7,0.6
2023-08-14T11:00:00,1346A,113.2612,23.105,广州市,市五中,,39,39,28,19,14,152,89,51,51,14,12,4,4,0.8,0.7
2023-08-14T11:00:00,1348A,113.3478,23.0916,广州市,广东商学院,,31,31,27,16,14,135,80,40,40,13,19,4,4,0.5,0.6
2023-08-14T11:00:00,1349A,113.4332,23.1047,广州市,市八十六中,,31,31,34,17,18,163,77,35,35,13,21,4,4,0.7,0.8
2023-08-14T11:00:00,1350A,113.3505,22.9483,广州市,番禺中学,,28,24,24,12,12,132,89,49,49,12,16,5,4,0.6,0.6
2023-08-14T11:00:00,1351A,113.2146,23.3916,广州市,花都师范,,47,47,32,24,17,179,91,38,38,17,25,7,6,0.6,0.7
2023-08-14T11:00:00,1352A,113.2597,23.1331,广州市,市监测站,,41,41,25,21,14,143,84,55,55,20,16,6,6,0.8,0.8
2023-08-14T11:00:00,1353A,113.5618,23.312,广州市,九龙镇镇龙,,46,46,35,27,18,169,53,29,29,26,27,5,5,0.5,0.5
2023-08-14T11:00:00,1354A,113.2765,23.1544,广州市,麓湖,,32,32,23,18,14,137,77,50,46,14,13,6,6,0.8,0.8
2023-08-14T11:00:00,1355A,113.443,23.3035,广州市,帽峰山森林公园,,31,31,29,17,14,178,65,46,46,15,19,8,8,0.4,0.4
2023-08-14T11:00:00,1356A,114.1063,22.5545,深圳市,通心岭子站,,16,16,18,10,9,43,24,17,16,10,12,4,4,0.9,0.9
2023-08-14T11:00:00,1357A,114.117,22.5625,深圳市,洪湖,,20,20,23,8,11,72,30,23,20,21,16,5,5,0.7,0.7
2023-08-14T11:00:00,1358A,113.987,22.5417,深圳市,华侨城,,18,18,19,9,10,79,36,27,27,10,15,5,6,0.6,0.6
2023-08-14T11:00:00,1359A,113.9181,22.5171,深圳市,南海子站,颗粒物(PM10),56,61,59,31,19,80,38,42,34,27,21,5,4,0.7,0.7
2023-08-14T11:00:00,1360A,114.2458,22.5689,深圳市,盐田,,24,24,22,16,12,56,16,9,9,36,34,6,5,0.7,0.7
2023-08-14T11:00:00,1361A,114.2283,22.7244,深圳市,龙岗,,,,21,,11,86,53,34,34,12,18,7,7,,0.9
2023-08-14T11:00:00,1363A,114.494,22.5422,深圳市,南澳,,24,24,19,8,8,67,67,50,45,5,8,6,7,0.7,0.6
2023-08-14T11:00:00,1364A,114.41,22.6342,深圳市,葵涌,,22,22,27,9,9,58,55,32,31,3,10,3,3,0.7,0.7
2023-08-14T11:00:00,1365A,114.297,22.5978,深圳市,梅沙,,24,24,23,12,10,64,36,30,30,10,11,5,5,0.6,0.5
2023-08-14T11:00:00,1366A,114.0678,22.738,深圳市,观澜,,17,17,25,8,11,87,19,25,16,22,19,7,6,0.5,0.5
2023-08-14T11:00:00,1367A,113.5814,22.2618,珠海市,吉大,,38,20,17,26,6,73,66,41,41,12,11,4,4,0.6,0.5
2023-08-14T11:00:00,1368A,113.4881,22.2335,珠海市,前山,,25,22,15,16,12,85,80,47,39,7,12,7,7,0.5,0.5
2023-08-14T11:00:00,1369A,113.628,22.4251,珠海市,唐家,,18,17,17,12,9,79,46,44,37,6,5,4,4,0.3,0.3
2023-08-14T11:00:00,1370A,113.299,22.2281,珠海市,斗门,,,,16,,10,72,,42,36,,9,6,6,,0.7
2023-08-14T11:00:00,1371A,113.1294,23.0067,佛山市,湾梁,,29,29,15,14,10,123,86,54,54,14,10,4,4,0.4,0.4
2023-08-14T11:00:00,1372A,113.1083,23.0478,佛山市,华材职中,,30,19,17,12,10,133,95,58,58,10,9,7,7,0.5,0.5
2023-08-14T11:00:00,1373A,113.144,23.0453,佛山市,南海气象局,,39,39,23,24,11,121,80,53,53,16,13,6,6,0.5,0.6
2023-08-14T11:00:00,1374A,113.2881,22.8094,佛山市,顺德苏岗,,,10,8,19,10,107,77,42,36,,11,,7,0.7,0.7
2023-08-14T11:00:00,1376A,112.8383,22.8678,佛山市,高明孔堂,,24,22,21,14,9,89,74,59,47,6,8,5,5,0.5,0.5
2023-08-14T11:00:00,1377A,112.8836,23.1588,佛山市,三水监测站,,39,31,26,27,15,133,91,44,44,10,21,5,5,0.7,0.7
2023-08-14T11:00:00,1378A,112.867,23.185,佛山市,三水云东海,颗粒物(PM10),54,57,29,23,17,125,94,52,52,11,17,7,7,0.5,0.5
2023-08-14T11:00:00,1379A,113.3769,22.5211,中山市,华柏园,,34,34,22,15,12,76,67,46,46,9,10,4,4,0.5,0.5
2023-08-14T11:00:00,1380A,113.3881,22.5497,中山市,张溪,,32,32,23,20,13,87,70,48,48,7,7,4,4,0.5,0.5
2023-08-14T11:00:00,1381A,113.4075,22.5111,中山市,紫马岭,,30,30,20,16,12,78,68,39,36,6,7,6,5,0.4,0.3
2023-08-14T11:00:00,1382A,113.4411,22.4853,中山市,长江旅游区,,28,28,18,13,7,80,65,41,41,5,5,14,12,0.8,0.6
2023-08-14T11:00:00,1383A,113.1064,22.6058,江门市,北街,,,,21,,15,84,83,44,38,,12,6,5,0.5,0.6
2023-08-14T11:00:00,1384A,113.0731,22.5835,江门市,西区,,29,25,24,11,10,91,91,51,38,14,15,6,6,0.5,0.5
2023-08-14T11:00:00,1385A,113.0219,22.5311,江门市,圭峰西,,31,31,24,12,12,83,73,36,36,7,13,4,4,0.7,0.7
2023-08-14T11:00:00,1386A,113.0828,22.5947,江门市,东湖,,30,26,24,14,11,96,94,50,44,13,10,8,7,0.6,0.5
2023-08-14T11:00:00,1389A,113.7547,23.0494,东莞市,莞城梨川,,34,34,24,17,12,128,51,46,43,20,15,9,9,0.7,0.7
2023-08-14T11:00:00,1390A,113.7944,23.0128,东莞市,东城石井,,39,39,26,16,11,121,42,29,28,20,14,6,7,0.7,0.6
2023-08-14T11:00:00,1391A,113.7383,22.9658,东莞市,南城西平,,30,30,24,15,11,114,49,44,36,14,14,9,6,0.7,0.8
2023-08-14T11:00:00,1392A,114.4183,23.0528,惠州市,河南岸金山湖子站,,28,28,26,10,10,82,82,38,38,14,17,4,4,0.5,0.5
2023-08-14T11:00:00,1393A,114.4053,23.0822,惠州市,下埔横江三路子站,,27,27,25,13,13,86,80,40,40,9,15,5,4,0.5,0.6
2023-08-14T11:00:00,1394A,114.4103,23.1142,惠州市,江北云山西路子站,,26,25,25,12,12,94,81,36,36,5,13,5,5,0.4,0.5
2023-08-14T11:00:00,1395A,114.4645,22.7833,惠州市,惠阳区承修路船湖子站,,23,23,21,12,10,61,52,37,37,14,13,4,5,0.8,0.8
2023-08-14T11:00:00,1396A,114.5317,22.7422,惠州市,大亚湾管委会子站,,26,26,24,15,11,73,69,39,39,11,19,4,4,0.7,0.7
2023-08-14T11:00:00,1397A,112.4267,23.0706,肇庆市,睦岗子站,,35,35,32,19,21,95,87,42,40,8,16,16,14,0.5,0.5
2023-08-14T11:00:00,1398A,112.4645,23.0475,肇庆市,城中子站,,32,32,32,22,19,86,79,50,44,13,18,10,10,0.6,0.6
2023-08-14T11:00:00,1399A,112.5544,23.1522,肇庆市,坑口子站,,40,40,31,22,20,95,75,36,36,16,17,12,8,0.3,0.3
2023-08-14T11:00:00,1400A,112.4753,23.1,肇庆市,七星岩子站,,,,,,,,,,,,,,,,
2023-08-14T11:00:00,1401A,108.3103,22.7881,南宁市,二十一中,,30,30,31,19,18,146,92,69,62,10,11,4,5,0.9,0.9
2023-08-14T11:00:00,1402A,108.3141,22.8528,南宁市,北湖,,40,40,30,25,21,161,78,70,64,11,9,4,4,0.7,0.7
2023-08-14T11:00:00,1403A,108.3206,22.8225,南宁市,市监测站,颗粒物(PM10),53,56,32,20,18,158,89,70,64,16,13,6,7,0.7,0.7
2023-08-14T11:00:00,1404A,108.3829,22.8037,南宁市,大自然花园,,35,35,29,22,20,122,77,65,56,8,10,5,5,0.8,0.8
2023-08-14T11:00:00,1405A,108.4394,22.7904,南宁市,仙葫,,42,42,28,21,20,106,74,66,50,10,11,5,5,0.6,0.7
2023-08-14T11:00:00,1406A,108.2397,22.8467,南宁市,区农职院,,40,40,35,18,20,188,77,60,60,18,18,6,6,0.6,0.7
2023-08-14T11:00:00,1407A,108.3275,22.735,南宁市,英华嘉园,,48,48,34,25,18,120,75,59,46,15,15,5,5,0.7,0.7
2023-08-14T11:00:00,1408A,108.2257,22.7757,南宁市,沙井镇街道办,,37,37,38,18,20,176,78,44,44,10,19,5,5,0.8,0.8
2023-08-14T11:00:00,1409A,110.576,19.9507,海口市,东寨港,,,,,,,,,,,,,,,,
2023-08-14T11:00:00,1410A,110.3232,20.0574,海口市,海南大学,,35,35,30,15,15,147,64,40,40,8,21,6,6,0.3,0.4
2023-08-14T11:00:00,1411A,110.283,20.0053,海口市,秀英海南医院,,,,,,,,,,,,,,,,
2023-08-14T11:00:00,1412A,110.338,19.9969,海口市,海南师范大学,,27,27,29,17,18,123,67,31,31,7,17,7,7,0.4,0.5
2023-08-14T11:00:00,1413A,110.33,20.0356,海口市,龙华路环保局宿舍,,31,31,28,17,17,123,60,35,35,10,19,7,7,0.3,0.4
2023-08-14T11:00:00,1414A,106.3787,29.8279,重庆市,缙云山,,35,13,18,9,9,144,109,131,92,11,7,9,10,0.3,0.3
2023-08-14T11:00:00,1416A,106.4213,29.8253,重庆市,天生,,29,13,27,7,19,120,91,40,40,9,21,8,7,0.9,0.9
2023-08-14T11:00:00,1417A,106.6263,29.7228,重庆市,两路,,33,19,24,12,19,159,104,60,51,31,26,9,7,0.9,0.7
2023-08-14T11:00:00,1418A,106.2953,29.5983,重庆市,虎溪,,28,27,33,7,18,111,88,43,33,18,36,6,6,0.6,0.6
2023-08-14T11:00:00,1419A,106.5777,29.5102,重庆市,南坪,,30,28,37,17,21,178,94,78,62,18,21,9,7,0.6,0.6
2023-08-14T11:00:00,1420A,106.6556,29.6277,重庆市,唐家沱,,35,20,29,21,18,193,112,49,49,13,22,7,6,0.5,0.5
2023-08-14T11:00:00,1421A,106.6349,29.4906,重庆市,茶园,,34,34,41,8,14,200,85,60,51,15,30,6,5,0.7,0.7
2023-08-14T11:00:00,1422A,106.3754,29.4572,重庆市,白市驿,,33,24,29,5,15,151,105,95,72,12,13,7,7,0.5,0.5
2023-08-14T11:00:00,1425A,106.6205,29.7166,重庆市,空港,,40,19,32,17,17,168,125,79,76,12,23,12,9,0.8,0.8
2023-08-14T11:00:00,1426A,106.4782,29.4875,重庆市,新山村,,34,26,37,11,17,162,106,71,71,20,26,7,7,0.4,0.4
2023-08-14T11:00:00,1427A,106.5616,29.6453,重庆市,礼嘉,,34,22,45,14,19,165,108,53,53,14,29,10,8,0.8,0.8
2023-08-14T11:00:00,1428A,106.4522,29.7091,重庆市,蔡家,,27,27,33,7,18,117,84,54,46,16,18,9,7,0.6,0.6
2023-08-14T11:00:00,1429A,106.5093,29.3917,重庆市,鱼新街,,30,19,33,13,16,158,96,67,67,11,22,5,7,0.7,0.8
2023-08-14T11:00:00,1431A,103.9728,30.7236,成都市,金泉两河,,46,44,30,19,16,199,147,45,39,15,15,5,4,0.6,0.5
2023-08-14T11:00:00,1432A,104.176,30.6872,成都市,十里店,,,,,,,,,,,,,,,,
2023-08-14T11:00:00,1433A,104.079,30.5706,成都市,三瓦窑,细颗粒物(PM2.5),64,73,33,46,14,181,113,46,25,50,35,5,2,0.7,0.5
2023-08-14T11:00:00,1434A,104.1114,30.63,成都市,沙河铺,颗粒物(PM10),54,58,30,23,12,174,130,56,44,19,17,8,2,0.6,0.5
2023-08-14T11:00:00,1437A,104.0786,30.6531,成都市,君平街,颗粒物(PM10),58,65,38,33,17,223,122,44,44,48,28,3,4,0.8,0.5
2023-08-14T11:00:00,1438A,103.613,31.0283,成都市,灵岩寺,,35,35,20,19,12,142,87,89,67,14,8,11,14,0.8,0.7
2023-08-14T11:00:00,1439A,106.6899,26.5998,贵阳市,马鞍山,,31,31,20,17,7,123,39,47,39,17,10,5,5,0.6,0.5
2023-08-14T11:00:00,1440A,106.6971,26.5694,贵阳市,市环保站,,40,31,23,28,17,134,51,51,42,26,18,5,5,0.3,0.2
2023-08-14T11:00:00,1441A,106.6243,26.6266,贵阳市,鉴湖路,,36,36,21,19,9,125,43,63,35,24,11,5,5,0.4,0.3
2023-08-14T11:00:00,1442A,106.7487,26.6343,贵阳市,燕子冲,,31,31,17,17,14,150,62,56,44,14,14,6,6,0.6,0.6
2023-08-14T11:00:00,1443A,106.6555,26.4365,贵阳市,碧云窝,,41,41,32,19,12,139,79,45,45,7,10,5,7,0.4,0.4
2023-08-14T11:00:00,1444A,106.694,26.5161,贵阳市,中院村,,39,39,26,19,13,120,62,38,38,13,16,6,6,0.4,0.4
2023-08-14T11:00:00,1445A,106.7109,26.6027,贵阳市,红边门,,42,36,25,29,19,141,46,61,46,29,16,6,6,0.7,0.6
2023-08-14T11:00:00,1446A,106.7164,26.5699,贵阳市,新华路,,36,36,26,24,17,141,64,50,50,18,17,6,5,0.5,0.4
2023-08-14T11:00:00,1447A,106.674,26.5424,贵阳市,太慈桥,,25,24,19,17,10,127,63,30,30,13,15,5,4,0.5,0.5
2023-08-14T11:00:00,1450A,102.8204,24.8886,昆明市,呈贡新区,颗粒物(PM10),54,57,36,29,22,122,86,50,40,13,24,14,10,0.8,0.7
2023-08-14T11:00:00,1451A,102.6251,24.9608,昆明市,西山森林公园,,27,23,17,18,16,131,85,80,64,17,13,8,11,0.6,0.6
2023-08-14T11:00:00,1452A,102.7252,25.0902,昆明市,龙泉镇,,43,36,23,30,13,110,80,42,42,12,11,12,8,1.0,0.6
2023-08-14T11:00:00,1453A,102.7266,25.0375,昆明市,东风东路,颗粒物(PM10),61,72,31,26,15,121,93,45,45,15,23,11,8,0.8,0.4
2023-08-14T11:00:00,1454A,102.6742,25.0669,昆明市,金鼎山,,50,42,39,35,16,122,93,41,41,10,15,12,36,0.9,0.5
2023-08-14T11:00:00,1455A,102.6644,25.0401,昆明市,碧鸡广场,细颗粒物(PM2.5),64,28,14,46,23,121,92,47,47,15,19,14,19,0.9,0.6
2023-08-14T11:00:00,1456A,91.1319,29.6514,拉萨市,八廓街,,29,28,14,20,8,73,55,56,39,17,17,6,7,0.3,0.3
2023-08-14T11:00:00,1457A,91.1221,29.6747,拉萨市,市环保局,,16,15,10,5,6,69,50,51,37,12,12,6,6,0.3,0.3
2023-08-14T11:00:00,1458A,91.0874,29.6475,拉萨市,区监测站,,15,9,9,7,6,62,47,50,34,13,16,8,8,0.4,0.2
2023-08-14T11:00:00,1459A,91.1774,29.6541,拉萨市,西藏大学,,19,19,15,6,7,71,47,52,32,14,12,12,11,0.4,0.3
2023-08-14T11:00:00,1460A,90.9798,29.6588,拉萨市,区辐射站,,27,27,14,5,6,71,44,51,44,15,13,10,10,0.2,0.1
2023-08-14T11:00:00,1461A,91.0834,29.6292,拉萨市,拉萨火车站,,28,28,14,9,6,65,39,51,35,18,12,11,11,0.3,0.3
2023-08-14T11:00:00,1462A,108.882,34.2749,西安市,高压开关厂,颗粒物(PM10),60,70,52,38,27,234,108,85,46,52,35,10,9,0.7,0.6
2023-08-14T11:00:00,1463A,108.993,34.2629,西安市,兴庆小区,颗粒物(PM10),51,51,43,20,17,234,111,70,57,23,24,7,7,0.6,0.6
2023-08-14T11:00:00,1464A,109.06,34.2572,西安市,纺织城,颗粒物(PM10),51,51,49,26,25,225,125,60,38,25,36,4,4,0.5,0.5
2023-08-14T11:00:00,1465A,108.9356,34.2173,西安市,小寨,颗粒物(PM10),53,55,41,24,16,236,110,72,43,29,23,8,8,0.5,0.4
2023-08-14T11:00:00,1466A,108.954,34.2713,西安市,市人民体育场,颗粒物(PM10),54,58,47,25,21,223,101,58,52,31,29,7,7,0.6,0.5
2023-08-14T11:00:00,1467A,108.8922,34.2322,西安市,高新西区,颗粒物(PM10),61,72,44,25,19,228,106,92,41,41,26,8,8,0.6,0.4
2023-08-14T11:00:00,1468A,108.935,34.3474,西安市,经开区,颗粒物(PM10),55,59,48,28,25,221,114,59,59,17,25,4,3,0.5,0.5
2023-08-14T11:00:00,1469A,108.906,34.1546,西安市,长安区,颗粒物(PM10),58,66,53,32,21,252,127,47,47,27,26,6,5,0.7,0.6
2023-08-14T11:00:00,1471A,109.2186,34.3731,西安市,临潼区,颗粒物(PM10),59,68,56,30,25,185,97,45,34,25,31,6,6,0.6,0.5
2023-08-14T11:00:00,1472A,108.869,34.378,西安市,草滩,颗粒物(PM10),54,57,47,16,12,237,120,62,62,16,31,14,13,0.5,0.5
2023-08-14T11:00:00,1473A,108.985,34.1978,西安市,曲江文化产业集团,颗粒物(PM10),63,76,48,27,19,238,112,65,50,31,27,6,6,0.9,0.8
2023-08-14T11:00:00,1474A,109.051,34.3213,西安市,广运潭,,50,50,49,25,21,201,109,43,43,22,30,9,8,0.6,0.5
2023-08-14T11:00:00,1476A,103.631,36.1031,兰州市,兰炼宾馆,臭氧1小时,123,60,48,14,21,246,246,92,92,43,40,19,7,0.4,0.4
2023-08-14T11:00:00,1477A,104.1373,35.9454,兰州市,榆中兰大校区,,,,,,,,,,,,,,,,
2023-08-14T11:00:00,1478A,103.8412,36.0726,兰州市,生物制品所,,35,35,35,15,21,216,110,85,76,24,25,8,5,1.1,0.7
2023-08-14T11:00:00,1479A,103.831,36.0464,兰州市,铁路设计院,,37,37,32,16,19,208,108,80,65,25,34,9,8,0.6,0.5
2023-08-14T11:00:00,1483A,101.524,36.6867,西宁市,第五水厂,,,,,,,,,,,,,,,,
2023-08-14T11:00:00,1484A,105.9512,38.6016,银川市,贺兰山马莲口,,38,18,19,10,14,195,121,137,104,18,11,4,6,0.5,0.5
2023-08-14T11:00:00,1488A,106.2328,38.4975,银川市,贺兰山东路,,31,30,42,16,19,204,98,102,101,14,22,8,10,0.5,0.5
2023-08-14T11:00:00,1489A,106.1358,38.5036,银川市,学院路,,47,43,40,11,17,198,149,104,104,16,24,18,12,0.5,0.5
2023-08-14T11:00:00,1490A,87.5801,43.8303,乌鲁木齐市,监测站,,26,26,24,9,9,167,69,67,63,18,24,4,4,0.6,0.6
2023-08-14T11:00:00,1491A,87.6046,43.768,乌鲁木齐市,收费所,,24,16,25,9,15,153,74,69,48,20,28,3,9,0.3,0.3
2023-08-14T11:00:00,1492A,87.4754,43.9469,乌鲁木齐市,新疆农科院农场,,23,1,42,0,12,137,71,44,44,13,29,4,2,0.4,0.5
2023-08-14T11:00:00,1493A,87.5525,43.8711,乌鲁木齐市,铁路局,,24,22,25,7,11,165,74,52,52,16,29,5,4,0.4,0.4
2023-08-14T11:00:00,1494A,87.6432,43.831,乌鲁木齐市,三十一中学,,34,34,33,11,14,132,59,66,58,18,22,4,5,0.3,0.4
2023-08-14T11:00:00,1496A,87.7216,44.1747,乌鲁木齐市,米东区环保局,,23,14,28,10,13,128,72,59,35,1,14,5,5,0.3,0.3
2023-08-14T11:00:00,1508A,112.9433,27.8614,湘潭市,板塘,,43,43,31,24,19,132,107,68,68,8,9,8,8,0.5,0.5
2023-08-14T11:00:00,1511A,112.9118,27.8403,湘潭市,市监测站,,45,34,25,31,24,126,112,73,73,5,6,4,4,0.6,0.6
2023-08-14T11:00:00,1512A,112.8937,27.8728,湘潭市,江麓,,41,41,31,17,14,117,103,66,66,9,11,12,11,0.3,0.3
2023-08-14T11:00:00,1513A,112.9227,27.8159,湘潭市,岳塘,细颗粒物(PM2.5),55,54,30,39,28,113,86,66,66,21,13,12,7,0.8,0.3
2023-08-14T11:00:00,1514A,112.9074,27.9119,湘潭市,科大,,38,38,32,24,16,120,106,66,66,5,8,5,5,0.7,0.6
2023-08-14T11:00:00,1515A,113.135,27.8244,株洲市,天台山庄,,33,33,33,20,18,141,85,64,63,15,12,4,4,0.8,0.7
2023-08-14T11:00:00,1518A,113.095,27.8867,株洲市,株冶医院,,38,38,34,22,20,134,90,47,47,10,14,3,3,0.6,0.6
2023-08-14T11:00:00,1519A,113.167,27.8667,株洲市,市四中,,34,34,33,16,16,140,76,62,62,13,11,6,5,0.7,0.6
2023-08-14T11:00:00,1520A,113.143,27.8381,株洲市,火车站,,42,42,35,20,17,142,72,66,66,17,10,6,6,0.9,0.6
2023-08-14T11:00:00,1524A,113.13,27.8528,株洲市,市监测站,,41,41,37,28,21,146,86,63,61,15,13,5,5,0.7,0.6
2023-08-14T11:00:00,1552A,106.805,26.3003,贵阳市,桐木岭,,,,,,,,,,,,,,,,
2023-08-14T11:00:00,1559A,113.251,27.8336,株洲市,大京风景区,,47,47,30,17,14,136,76,38,38,4,5,4,4,0.6,0.5
2023-08-14T11:00:00,1562A,113.0048,27.9153,湘潭市,昭山,,33,29,29,15,15,125,104,62,62,6,8,4,4,0.6,0.6
2023-08-14T11:00:00,1564A,112.4876,27.9164,湘潭市,韶山,,33,33,25,10,10,95,94,82,70,6,7,6,6,0.2,0.2
2023-08-14T11:00:00,1585A,109.8756,40.6532,包头市,市环境监测站,颗粒物(PM10),51,52,32,25,16,163,133,72,67,19,31,21,26,0.7,0.7
2023-08-14T11:00:00,1587A,109.9991,40.5842,包头市,包头八中,颗粒物(PM10),55,60,36,18,13,154,126,82,78,18,20,24,25,0.8,0.8
2023-08-14T11:00:00,1588A,109.8538,40.6821,包头市,青山宾馆,,45,45,29,15,14,172,128,64,61,21,27,20,18,0.8,0.9
2023-08-14T11:00:00,1589A,109.8642,40.6288,包头市,惠龙物流,,,46,27,13,13,161,125,82,70,,21,19,24,,0.5
2023-08-14T11:00:00,1590A,110.0377,40.5546,包头市,东河鸿龙湾,,40,38,30,17,13,151,125,72,72,14,21,19,16,0.9,0.8
2023-08-14T11:00:00,1591A,110.0023,39.8129,鄂尔多斯市,综合楼,颗粒物(PM10),57,63,54,19,14,169,119,111,91,30,24,17,11,0.8,0.7
2023-08-14T11:00:00,1592A,109.9486,39.8261,鄂尔多斯市,巴音孟克林场办事处,颗粒物(PM10),51,51,47,19,17,181,131,123,107,22,19,15,12,0.7,0.7
2023-08-14T11:00:00,1593A,109.7736,39.5986,鄂尔多斯市,康泽苑,,42,36,48,13,19,160,132,74,54,15,23,11,12,0.5,0.6
2023-08-14T11:00:00,1594A,109.8119,39.5989,鄂尔多斯市,华泰汽车城,,43,36,55,14,24,158,135,48,45,14,28,11,11,0.4,0.5
2023-08-14T11:00:00,1595A,109.9734,39.7884,鄂尔多斯市,奥林花园,颗粒物(PM10),57,63,54,24,19,164,117,77,77,20,23,20,12,0.8,0.7
2023-08-14T11:00:00,1597A,122.2703,40.7094,营口市,大庆路,,34,15,21,9,16,108,108,57,57,8,14,5,5,0.7,0.8
2023-08-14T11:00:00,1598A,122.2150,40.6511,营口市,镜湖西路,,,17,19,10,14,91,62,41,41,,13,,6,0.7,0.7
2023-08-14T11:00:00,1599A,122.1658,40.6789,营口市,西炮台,,35,24,22,5,12,109,109,52,52,10,19,6,6,0.7,0.7
2023-08-14T11:00:00,1600A,124.3303,40.0625,丹东市,江湾东路,,23,9,13,9,11,95,73,88,68,13,7,4,4,0.8,0.7
2023-08-14T11:00:00,1601A,124.4256,40.1503,丹东市,临江后街,,,16,13,12,10,97,52,92,65,13,4,,4,,0.6
2023-08-14T11:00:00,1602A,124.3933,40.1461,丹东市,元宝山,,14,13,13,8,9,87,43,85,52,13,8,6,6,0.9,0.8
2023-08-14T11:00:00,1603A,124.3633,40.1092,丹东市,民主桥,,18,13,13,9,10,93,39,92,64,36,8,2,3,0.9,0.8
2023-08-14T11:00:00,1604A,122.0303,41.1489,盘锦市,开发区,,,19,12,6,7,101,101,60,60,10,13,4,3,,0.7
2023-08-14T11:00:00,1605A,122.0485,41.0883,盘锦市,兴隆台,,35,21,15,9,8,111,111,69,69,8,10,5,4,0.5,0.6
2023-08-14T11:00:00,1606A,121.8297,41.1028,盘锦市,新生街道,,24,3,12,4,6,78,76,43,43,7,16,5,5,0.4,0.4
2023-08-14T11:00:00,1607A,120.9092,40.7136,葫芦岛市,龙港区,细颗粒物(PM2.5),62,70,42,44,19,102,102,46,46,19,20,140,49,1.3,0.6
2023-08-14T11:00:00,1608A,120.8392,40.7514,葫芦岛市,化工街,,39,39,32,21,12,99,96,39,39,17,27,21,16,0.7,0.4
2023-08-14T11:00:00,1609A,120.8341,40.7073,葫芦岛市,新区,颗粒物(PM10),52,54,36,24,21,102,97,40,40,15,25,19,15,0.9,0.6
2023-08-14T11:00:00,1610A,120.8695,40.7677,葫芦岛市,东城区,,,49,30,16,15,100,88,27,27,19,26,,13,,0.6
2023-08-14T11:00:00,1611A,118.5819,24.9117,泉州市,涂山街,,34,34,26,16,9,93,93,54,48,11,11,6,5,0.7,0.6
2023-08-14T11:00:00,1612A,118.5972,24.8978,泉州市,津头埔,,33,33,27,17,14,96,96,52,47,16,16,4,4,0.6,0.6
2023-08-14T11:00:00,1613A,118.6663,24.9424,泉州市,万安,,33,30,25,22,14,105,105,57,54,13,12,3,2,0.6,0.6
2023-08-14T11:00:00,1614A,118.6117,24.9604,泉州市,清源山,,,,,,,,,,,,,,,,
2023-08-14T11:00:00,1616A,117.6795,36.229,济南市,技术学院,,35,7,27,3,21,155,109,75,73,2,16,6,7,0.6,0.8
2023-08-14T11:00:00,1618A,118.3429,35.0532,临沂市,沂河小区,,35,22,29,16,18,110,110,66,66,7,14,4,5,0.4,0.4
2023-08-14T11:00:00,1619A,118.295,35.0583,临沂市,鲁南制药厂,,37,22,24,11,14,132,116,84,84,2,11,3,4,0.3,0.4
2023-08-14T11:00:00,1620A,118.2794,34.9976,临沂市,新光毛纺厂,,,,19,14,15,122,108,75,75,8,16,3,5,0.5,0.5
2023-08-14T11:00:00,1621A,118.3956,35.0888,临沂市,河东保险公司,,32,27,23,16,16,106,100,62,62,6,14,3,3,0.6,0.6
2023-08-14T11:00:00,1622A,116.3032,37.4674,德州市,儿童乐园,,49,27,32,12,17,154,154,105,105,4,14,8,8,0.5,0.7
2023-08-14T11:00:00,1624A,116.2991,37.4451,德州市,监理站,,45,22,31,5,18,154,142,92,92,6,21,8,8,0.4,0.6
2023-08-14T11:00:00,1625A,115.9848,36.4372,聊城市,区政府,,44,20,30,12,18,158,139,89,72,6,17,4,4,0.3,0.4
2023-08-14T11:00:00,1628A,118.0062,37.3803,滨州市,市环保局,,46,31,21,12,14,146,146,81,81,6,12,9,6,0.5,0.5
2023-08-14T11:00:00,1629A,118.0018,37.3617,滨州市,第二水厂,,49,31,21,23,15,156,156,77,77,7,13,16,10,0.7,0.5
2023-08-14T11:00:00,1630A,117.9776,37.393,滨州市,北中新校,,45,33,26,17,14,148,142,67,67,6,11,9,5,0.4,0.4
2023-08-14T11:00:00,1631A,118.0414,36.8103,淄博市,人民公园,臭氧1小时,74,31,33,12,15,179,179,65,65,14,19,15,13,0.4,0.6
2023-08-14T11:00:00,1633A,117.8525,36.4847,淄博市,双山,,44,35,31,9,15,157,140,62,62,10,18,13,12,0.5,0.6
2023-08-14T11:00:00,1634A,117.9592,36.6331,淄博市,气象站,臭氧1小时,62,36,30,22,20,169,169,57,57,12,18,16,11,0.5,0.4
2023-08-14T11:00:00,1635A,118.3092,36.8194,淄博市,莆田园,,,,44,22,25,179,161,54,54,13,24,,14,,1.7
2023-08-14T11:00:00,1637A,117.558,34.8438,枣庄市,市中区政府,,43,27,43,14,22,135,135,86,86,12,23,10,11,0.3,0.4
2023-08-14T11:00:00,1638A,117.2852,34.7837,枣庄市,薛城环保局,,40,37,49,20,23,129,127,72,65,14,29,11,12,0.4,0.6
2023-08-14T11:00:00,1639A,117.5852,34.7745,枣庄市,峄城区政府,,42,31,41,12,16,135,134,69,69,11,19,11,11,0.5,0.6
2023-08-14T11:00:00,1640A,117.7276,34.5578,枣庄市,台儿庄区环保局,,42,34,36,9,18,134,134,68,64,12,21,8,8,0.6,0.7
2023-08-14T11:00:00,1641A,117.4518,35.0992,枣庄市,山亭区环保局,,,,24,,19,136,127,74,74,9,13,,8,0.2,0.3
2023-08-14T11:00:00,1642A,121.2514,37.5639,烟台市,开发区,,34,7,13,7,10,110,108,87,87,2,5,5,4,0.5,0.6
2023-08-14T11:00:00,1643A,121.3719,37.5433,烟台市,轴承厂,,35,12,23,10,16,111,111,98,98,8,10,5,4,0.3,0.3
2023-08-14T11:00:00,1644A,121.3181,37.5436,烟台市,西郊化工站,,32,7,18,4,12,103,101,82,82,4,10,4,3,0,0.1
2023-08-14T11:00:00,1645A,121.4478,37.4822,烟台市,莱山环保局,,37,7,10,6,8,119,116,103,103,8,4,7,6,0.4,0.6
2023-08-14T11:00:00,1646A,121.2611,37.4967,烟台市,福山环保局,,33,9,20,2,5,114,104,82,82,8,14,6,6,0.4,0.5
2023-08-14T11:00:00,1650A,119.1437,36.7023,潍坊市,环保局,,,19,19,18,14,126,124,84,72,,12,,8,0.6,0.4
2023-08-14T11:00:00,1653A,116.6251,35.4302,济宁市,火炬城,,38,18,34,17,18,134,121,55,55,5,16,10,7,0.7,0.6
2023-08-14T11:00:00,1655A,116.5491,35.4042,济宁市,电化厂,,39,38,39,17,21,136,122,62,60,7,16,8,6,0.6,0.7
2023-08-14T11:00:00,1656A,117.1437,36.1937,泰安市,监测站,,,,27,,21,123,109,106,58,,8,,8,0.3,0.4
2023-08-14T11:00:00,1657A,117.0885,36.2017,泰安市,人口学校,,34,9,16,10,9,124,107,107,83,5,9,7,7,0.3,0.4
2023-08-14T11:00:00,1658A,117.1089,36.1758,泰安市,电力学校,,36,17,29,14,16,127,115,63,63,1,13,5,4,0.2,0.3
2023-08-14T11:00:00,1659A,119.471,35.4209,日照市,监测站,,35,12,16,11,10,112,112,79,79,7,12,6,5,0.4,0.4
2023-08-14T11:00:00,1660A,119.523,35.4216,日照市,市政府广场,,40,14,15,6,11,127,127,93,93,4,6,8,8,0.5,0.6
2023-08-14T11:00:00,1661A,119.5587,35.4044,日照市,港务局,,43,17,26,11,11,137,137,100,100,6,7,9,7,0.8,0.7
2023-08-14T11:00:00,1662A,122.1214,37.4236,威海市,华夏技校,,40,14,13,5,10,128,128,99,99,9,8,4,4,0.4,0.4
2023-08-14T11:00:00,1663A,122.0508,37.5236,威海市,山大分校,,43,20,17,10,9,135,135,106,99,7,6,7,7,0.6,0.5
2023-08-14T11:00:00,1664A,122.1067,37.5072,威海市,市监测站,,41,7,18,20,14,130,130,104,92,6,6,7,7,0.6,0.6
2023-08-14T11:00:00,1666A,118.6614,37.4309,东营市,市环保局,臭氧1小时,68,27,15,14,10,174,174,92,92,11,8,12,8,0.3,0.2
2023-08-14T11:00:00,1669A,113.5824,24.7733,韶关市,市八中,,29,29,23,10,8,139,87,74,52,9,10,13,12,0.7,0.6
2023-08-14T11:00:00,1671A,113.5917,24.7972,韶关市,园林处,,38,38,21,12,12,145,93,79,53,5,5,12,13,0.9,0.8
2023-08-14T11:00:00,1672A,113.6735,24.7791,韶关市,韶关学院,,37,37,23,17,11,130,77,61,37,9,9,11,8,0.8,0.5
2023-08-14T11:00:00,1673A,113.5971,24.6863,韶关市,曲江监测站,,35,35,32,13,15,128,84,66,52,15,11,24,13,1.4,0.9
2023-08-14T11:00:00,1674A,116.6794,23.3667,汕头市,金平子站,,39,39,17,13,8,79,62,52,45,16,15,7,4,1.1,0.7
2023-08-14T11:00:00,1675A,116.7244,23.3633,汕头市,龙湖子站,,20,12,15,6,6,88,63,57,52,15,10,6,4,1.0,0.7
2023-08-14T11:00:00,1676A,116.7258,23.2775,汕头市,濠江子站,,22,19,19,7,8,84,68,54,50,6,6,8,8,0.6,0.5
2023-08-14T11:00:00,1677A,116.7519,23.4714,汕头市,澄海子站,,30,25,22,11,11,114,94,58,58,18,13,6,4,0.9,0.7
2023-08-14T11:00:00,1678A,116.6092,23.2539,汕头市,潮阳子站,,23,23,17,8,7,86,68,56,50,7,6,8,8,0.6,0.6
2023-08-14T11:00:00,1680A,110.3539,21.2706,湛江市,湛江影剧院,,41,41,30,18,17,99,77,47,47,10,13,7,9,0.6,0.6
2023-08-14T11:00:00,1681A,110.3928,21.2228,湛江市,市环境监测站,,41,41,30,17,18,80,72,44,42,10,13,8,9,0.6,0.6
2023-08-14T11:00:00,1682A,110.4019,21.1997,湛江市,环保局宿舍,,,46,30,14,20,81,66,50,39,,13,6,8,,0.7
2023-08-14T11:00:00,1683A,110.4111,21.2028,湛江市,霞山游泳场,,20,19,32,13,14,83,64,54,42,8,17,6,8,0.5,0.5
2023-08-14T11:00:00,1684A,110.3316,21.2679,湛江市,麻章区环保局,,,48,31,23,14,86,73,45,29,10,12,,9,0.6,0.6
2023-08-14T11:00:00,1685A,110.4558,21.2567,湛江市,坡头区环保局,,27,27,23,13,14,85,77,43,43,5,13,6,7,0.5,0.5
2023-08-14T11:00:00,1686A,111.0286,21.4688,茂名市,电白南海,,25,24,29,17,19,103,72,40,40,5,9,10,10,0.6,0.7
2023-08-14T11:00:00,1687A,110.9294,21.6533,茂名市,茂石化七小,,,53,32,24,24,112,54,45,30,7,11,,8,0.6,0.6
2023-08-14T11:00:00,1688A,110.9107,21.6687,茂名市,健康路,,34,34,23,19,14,100,66,34,31,7,11,2,3,0.5,0.5
2023-08-14T11:00:00,1689A,110.8592,21.6828,茂名市,高岭,,,41,37,29,24,91,77,23,23,8,16,,7,0.7,0.7
2023-08-14T11:00:00,1690A,116.1231,24.3284,梅州市,梅江月梅,,20,17,18,8,8,75,62,38,38,6,11,2,2,0.6,0.6
2023-08-14T11:00:00,1691A,116.0797,24.2719,梅州市,梅县新城,,18,17,19,11,8,73,56,33,32,6,11,3,4,0.7,0.7
2023-08-14T11:00:00,1692A,116.1248,24.2654,梅州市,环境监控中心,,27,27,21,14,12,76,59,36,36,8,11,6,6,0.6,0.6
2023-08-14T11:00:00,1693A,115.3653,22.775,汕尾市,市环保局,,35,35,18,10,7,74,66,52,51,7,8,7,7,0.6,0.6
2023-08-14T11:00:00,1694A,115.3706,22.7898,汕尾市,市政府,,43,43,15,21,8,76,69,49,49,5,6,5,6,0.6,0.6
2023-08-14T11:00:00,1695A,115.3622,22.7925,汕尾市,新城中学,,49,49,21,9,8,74,65,46,46,4,5,7,6,0.6,0.6
2023-08-14T11:00:00,1696A,114.6778,23.7569,河源市,源西,,21,10,26,6,17,98,66,38,34,4,8,4,4,0.7,0.7
2023-08-14T11:00:00,1697A,114.6944,23.7586,河源市,东埔,,18,9,40,5,15,89,57,35,31,9,12,5,5,0.5,0.5
2023-08-14T11:00:00,1698A,114.6892,23.7233,河源市,老城,,21,3,28,10,13,99,67,37,33,6,11,4,4,0.6,0.7
2023-08-14T11:00:00,1699A,111.9797,21.8593,阳江市,鸳鸯湖,,15,0,23,8,16,88,46,46,27,11,11,6,7,0.8,0.7
2023-08-14T11:00:00,1701A,111.9491,21.8658,阳江市,马南垌,,16,7,24,7,17,87,51,27,27,10,12,4,4,0.6,0.6
2023-08-14T11:00:00,1702A,113.0426,23.691,清远市,环保大楼,,35,35,29,17,18,173,72,54,37,16,16,8,5,0.5,0.4
2023-08-14T11:00:00,1703A,113.0208,23.7106,清远市,凤城街办,,32,32,33,21,20,173,68,53,38,11,14,6,6,0.5,0.5
2023-08-14T11:00:00,1705A,116.6367,23.6719,潮州市,西园路,,,33,28,,16,116,68,27,18,18,16,5,5,0.7,0.5
2023-08-14T11:00:00,1706A,116.6447,23.6706,潮州市,档案局,,,43,27,24,14,125,78,23,16,,16,14,5,0.7,0.6
2023-08-14T11:00:00,1708A,116.3701,23.5345,揭阳市,新兴,,43,43,24,16,14,74,67,40,35,3,8,6,7,0.6,0.6
2023-08-14T11:00:00,1709A,116.3264,23.5443,揭阳市,西马,,22,12,24,15,12,81,60,39,34,5,9,5,5,0.8,0.9
2023-08-14T11:00:00,1710A,116.3611,23.5626,揭阳市,东兴,,29,29,26,11,11,85,72,43,34,8,12,1,2,0.8,0.8
2023-08-14T11:00:00,1711A,116.4151,23.5294,揭阳市,渔湖,颗粒物(PM10),53,56,32,18,13,78,73,39,28,5,8,4,4,0.7,0.6
2023-08-14T11:00:00,1712A,112.0392,22.9169,云浮市,新市府,,31,31,22,13,10,70,70,37,37,4,3,5,4,0.7,0.7
2023-08-14T11:00:00,1714A,112.0539,22.9539,云浮市,牧羊,颗粒物(PM10),54,57,27,29,16,81,61,31,23,17,17,15,12,0.6,0.5
2023-08-14T11:00:00,1715A,102.575,24.3711,玉溪市,东风水库,颗粒物(PM10),51,51,24,20,12,106,29,39,20,21,13,7,5,1.8,1
2023-08-14T11:00:00,1718A,115.4208,35.2464,菏泽市,气象局,,46,41,32,23,18,145,145,88,86,4,6,4,4,0.5,0.5
2023-08-14T11:00:00,1719A,115.4747,35.2375,菏泽市,市政协,,50,39,30,25,20,160,160,100,93,6,10,8,6,0.5,0.4
2023-08-14T11:00:00,1721A,113.3819,40.1097,大同市,果树场,,,,,,,,,,,,,,,,
2023-08-14T11:00:00,1723A,113.2994,40.0758,大同市,云冈宾馆,,,,37,,13,158,119,50,50,,27,10,9,0.5,0.6
2023-08-14T11:00:00,1724A,113.3444,40.0917,大同市,大同大学,,47,47,33,14,13,160,116,60,59,18,21,6,14,0.5,0.4
2023-08-14T11:00:00,1725A,113.2661,40.1269,大同市,安家小村,,39,39,33,10,8,140,117,45,45,22,20,13,10,0.7,0.7
2023-08-14T11:00:00,1726A,113.2711,40.0844,大同市,教育学院,,48,48,45,14,16,157,114,45,45,26,33,13,12,0.7,0.9
2023-08-14T11:00:00,1727A,113.1147,36.1547,长治市,清华站,,,56,44,29,24,185,137,98,71,17,15,11,11,,1.2
2023-08-14T11:00:00,1728A,113.1031,36.1989,长治市,监测站,颗粒物(PM10),51,52,43,27,24,210,121,98,68,30,20,6,8,1.3,1.6
2023-08-14T11:00:00,1730A,113.0886,36.2125,长治市,审计局,颗粒物(PM10),51,52,40,34,26,195,118,82,66,17,14,6,8,1.4,1.5
2023-08-14T11:00:00,1731A,113.0844,36.1856,长治市,长治八中,颗粒物(PM10),51,52,46,34,23,191,130,82,68,17,18,10,11,1.1,1.4
2023-08-14T11:00:00,1733A,111.5531,36.0783,临汾市,临钢医院,颗粒物(PM10),62,74,56,29,19,202,126,88,71,12,14,6,7,1.0,0.9
2023-08-14T11:00:00,1734A,111.5028,36.0714,临汾市,技工学校,颗粒物(PM10),62,73,56,29,24,201,128,80,80,17,21,11,10,1.1,0.9
2023-08-14T11:00:00,1736A,111.5018,36.0855,临汾市,市委,颗粒物(PM10),63,75,63,43,32,194,124,76,76,20,30,12,11,0.8,0.6
2023-08-14T11:00:00,1738A,113.5758,37.8572,阳泉市,市中心,细颗粒物(PM2.5),53,41,44,37,20,188,134,36,36,21,32,29,12,1.0,0.8
2023-08-14T11:00:00,1739A,113.4894,37.8731,阳泉市,赛鱼,,44,44,41,21,21,176,139,46,46,20,30,13,10,0.9,0.7
2023-08-14T11:00:00,1740A,113.5819,37.8486,阳泉市,南庄,颗粒物(PM10),58,66,54,29,24,187,124,71,36,31,30,38,18,1.1,0.9
2023-08-14T11:00:00,1742A,113.5614,37.8703,阳泉市,平坦,细颗粒物(PM2.5),57,59,50,40,32,186,136,44,44,23,36,25,9,0.9,0.7
2023-08-14T11:00:00,1743A,113.5158,37.8392,阳泉市,大阳泉,颗粒物(PM10),52,54,46,21,23,165,118,105,93,17,11,15,10,0.9,0.7
2023-08-14T11:00:00,1744A,118.9233,42.2816,赤峰市,松山一中,,25,24,21,6,7,108,80,37,37,26,30,11,12,0.4,0.5
2023-08-14T11:00:00,1745A,118.9576,42.2728,赤峰市,哈达街,,28,28,20,9,9,108,84,52,50,27,23,17,17,0.2,0.2
2023-08-14T11:00:00,1746A,118.8788,42.2554,赤峰市,天义路,,32,26,14,5,9,111,100,53,53,18,26,10,14,0.2,0.2
2023-08-14T11:00:00,1748A,123.044,41.1196,鞍山市,深沟寺,,33,33,29,19,19,77,77,32,32,26,19,13,5,1.9,1.5
2023-08-14T11:00:00,1749A,123.011,41.0931,鞍山市,太阳城,,25,21,30,17,21,79,73,34,34,24,19,10,4,1.8,1.5
2023-08-14T11:00:00,1750A,123.0485,41.1442,鞍山市,太平,,41,41,57,27,28,90,90,36,36,26,26,14,9,1.9,1.8
2023-08-14T11:00:00,1751A,122.9642,41.0971,鞍山市,铁西三道街,,41,41,35,22,26,84,63,33,33,42,30,18,11,2.2,1.9
2023-08-14T11:00:00,1752A,122.9341,41.0833,鞍山市,铁西工业园区,,45,45,43,28,27,68,63,21,21,47,39,31,14,2.6,2.4
2023-08-14T11:00:00,1753A,123.022,41.0821,鞍山市,明达新区,,29,29,21,18,17,85,75,39,39,25,21,10,6,1.3,1
2023-08-14T11:00:00,1754A,123.1289,41.0228,鞍山市,千山,,,,,,,,,,,,,,,,
2023-08-14T11:00:00,1755A,123.7977,41.8491,抚顺市,望花区,,32,10,12,8,9,100,100,60,60,13,16,5,4,0.4,0.5
2023-08-14T11:00:00,1756A,123.9161,41.8822,抚顺市,顺城区,,31,19,13,6,6,99,99,65,65,6,12,5,3,0.4,0.5
2023-08-14T11:00:00,1757A,124.0436,41.8611,抚顺市,东洲区,,26,18,12,6,6,82,82,51,51,1,7,3,3,0.3,0.3
2023-08-14T11:00:00,1758A,123.9247,41.8642,抚顺市,新抚区,,29,11,14,5,8,91,91,52,52,5,12,5,5,0.6,0.6
2023-08-14T11:00:00,1759A,124.0972,41.8961,抚顺市,大伙房水库,,,9,11,3,5,74,74,49,49,,6,,4,0.3,0.4
2023-08-14T11:00:00,1760A,123.7086,41.8391,抚顺市,沈抚新城,,30,20,12,6,5,95,95,56,56,10,12,12,6,0.8,0.5
2023-08-14T11:00:00,1761A,123.8275,41.3064,本溪市,大峪,,,19,13,9,4,130,72,71,46,,15,,4,0.7,0.6
2023-08-14T11:00:00,1762A,123.7567,41.3325,本溪市,溪湖,,26,15,9,5,4,115,81,80,38,9,12,5,5,0.8,0.7
2023-08-14T11:00:00,1763A,123.7169,41.3094,本溪市,彩屯,,,39,16,18,7,97,44,64,35,,20,6,6,,0.8
2023-08-14T11:00:00,1764A,123.7669,41.2864,本溪市,东明,,42,42,15,8,5,133,51,88,50,31,16,11,6,1.4,0.8
2023-08-14T11:00:00,1765A,123.7992,41.2664,本溪市,新立屯,,,29,11,,5,136,55,70,36,19,14,7,6,1.0,0.8
2023-08-14T11:00:00,1766A,123.8142,41.3472,本溪市,威宁,,26,26,12,5,5,90,73,46,39,10,12,6,6,0.6,0.5
2023-08-14T11:00:00,1767A,121.1115,41.0879,锦州市,南山,,35,26,24,13,13,109,109,47,47,5,9,9,11,0.7,0.8
2023-08-14T11:00:00,1768A,121.0533,40.8434,锦州市,开发区,,29,24,30,7,17,90,90,37,37,6,18,7,10,0.7,0.8
2023-08-14T11:00:00,1769A,121.1836,41.1119,锦州市,百股街道,,,40,27,12,13,100,100,44,44,5,14,11,17,,0.7
2023-08-14T11:00:00,1770A,121.1178,41.1222,锦州市,天安街道,,31,18,29,12,13,99,99,45,42,9,16,11,8,1.0,1.2
2023-08-14T11:00:00,1771A,121.1303,41.1386,锦州市,北湖公园,,39,39,27,19,12,109,109,60,50,9,12,14,9,0.8,0.8
2023-08-14T11:00:00,1772A,126.54,43.8622,吉林市,哈达湾,,30,11,12,8,8,96,96,68,65,9,16,6,6,0.6,0.7
2023-08-14T11:00:00,1773A,126.5844,43.8358,吉林市,东局子,,,12,9,7,6,88,88,66,52,,13,,6,0.6,0.6
2023-08-14T11:00:00,1774A,126.5052,43.8245,吉林市,电力学院,,29,11,12,5,8,92,92,45,45,5,12,6,7,0.5,0.5
2023-08-14T11:00:00,1775A,126.6133,43.8972,吉林市,江北,,,,,,,,,,,,,,,,
2023-08-14T11:00:00,1776A,126.555,43.8306,吉林市,江南公园,,,16,12,10,12,69,,62,46,13,16,3,3,,0.7
2023-08-14T11:00:00,1778A,126.7061,43.7133,吉林市,丰满,,,,,,,,,,,,,,,,
2023-08-14T11:00:00,1779A,123.9305,47.3636,齐齐哈尔市,安居小区,,41,41,23,28,10,86,64,57,50,9,9,5,5,0.4,0.4
2023-08-14T11:00:00,1780A,123.9488,47.3386,齐齐哈尔市,中心广场,,21,16,13,3,3,86,65,64,48,9,9,3,3,0.3,0.3
2023-08-14T11:00:00,1781A,123.9483,47.3227,齐齐哈尔市,农牧车辆厂,,36,36,27,8,5,89,61,57,48,16,8,7,7,0.3,0.3
2023-08-14T11:00:00,1783A,123.945,47.2988,齐齐哈尔市,市环境监测站,,22,20,12,13,6,91,70,63,52,6,6,7,7,0.4,0.2
2023-08-14T11:00:00,1784A,129.61,44.561,牡丹江市,环保大楼,,,14,10,6,6,48,40,36,35,7,10,,5,0.4,0.4
2023-08-14T11:00:00,1785A,129.6115,44.5782,牡丹江市,文化广场,,16,5,8,11,12,43,36,35,32,10,13,4,4,0.4,0.4
2023-08-14T11:00:00,1786A,129.5904,44.5963,牡丹江市,第一医院,,13,9,11,5,7,42,39,36,32,6,9,4,4,0.3,0.3
2023-08-14T11:00:00,1787A,129.6364,44.6075,牡丹江市,机车工厂,,12,8,11,5,6,38,38,27,27,7,13,2,2,0.4,0.4
2023-08-14T11:00:00,1788A,129.6386,44.5462,牡丹江市,第一中学,,12,11,11,3,5,49,38,32,29,7,11,5,5,0.3,0.3
2023-08-14T11:00:00,1789A,124.81117,46.03138,大庆市,大同区,,20,4,13,7,10,81,64,49,49,7,8,5,5,0.3,0.3
2023-08-14T11:00:00,1790A,125.129,46.533,大庆市,龙凤区,,21,5,8,6,7,99,67,50,50,5,7,6,6,0.3,0.2
2023-08-14T11:00:00,1791A,124.902,46.408,大庆市,红岗区,,,16,9,14,9,100,72,54,54,4,7,3,3,,0.4
2023-08-14T11:00:00,1792A,125.153,46.586,大庆市,萨尔图区,,21,19,15,4,8,108,66,48,48,6,8,4,4,0.3,0.4
2023-08-14T11:00:00,1793A,124.9042,46.6215,大庆市,让胡路区,,23,16,9,5,6,105,71,50,50,7,8,5,4,0.3,0.3
2023-08-14T11:00:00,1794A,118.3606,31.3519,芜湖市,监测站,,49,49,28,32,19,132,62,79,49,43,29,6,5,1.0,0.7
2023-08-14T11:00:00,1795A,118.3714,31.4134,芜湖市,科创中心,,,,26,,20,142,54,57,53,41,25,,7,,0.7
2023-08-14T11:00:00,1796A,118.3673,31.3131,芜湖市,四水厂,,42,42,27,25,19,141,63,74,49,42,28,5,3,1.0,0.8
2023-08-14T11:00:00,1798A,118.5092,31.6837,马鞍山市,湖东路四小,细颗粒物(PM2.5),57,50,34,40,32,132,93,59,59,24,26,10,12,1.3,1.4
2023-08-14T11:00:00,1799A,118.5024,31.6449,马鞍山市,开发区,颗粒物(PM10),74,98,51,35,21,134,74,65,65,25,18,7,6,1.4,1.2
2023-08-14T11:00:00,1800A,118.5228,31.7231,马鞍山市,慈湖,,48,39,47,33,28,144,98,45,45,22,31,7,9,1.1,1.1
2023-08-14T11:00:00,1802A,118.6245,31.7241,马鞍山市,濮塘,,,21,20,27,22,164,114,40,34,,11,,3,0.7,0.8
2023-08-14T11:00:00,1803A,115.9872,29.6815,九江市,十里,细颗粒物(PM2.5),60,27,23,43,16,107,52,40,40,20,19,12,10,1.0,0.7
2023-08-14T11:00:00,1804A,115.9584,29.7046,九江市,茅山头,,33,31,23,23,17,99,54,40,38,22,20,8,8,1.0,0.9
2023-08-14T11:00:00,1805A,115.9877,29.7295,九江市,西园,,,70,28,26,16,121,64,61,33,,25,17,13,,0.7
2023-08-14T11:00:00,1806A,116.0172,29.6547,九江市,五七二七厂,,41,41,22,18,13,103,57,41,38,11,7,9,8,0.9,0.7
2023-08-14T11:00:00,1808A,115.9114,29.6038,九江市,综合工业园,,36,30,24,25,13,108,64,44,41,25,33,19,12,0.9,0.8
2023-08-14T11:00:00,1809A,116.0721,29.7535,九江市,石化总厂,,46,46,33,29,19,125,76,82,45,13,18,11,13,0.8,0.8
2023-08-14T11:00:00,1810A,115.9773,29.5698,九江市,庐山气象台,,38,29,19,26,16,121,91,115,98,6,3,13,9,1.0,0.7
2023-08-14T11:00:00,1812A,112.3931,34.6516,洛阳市,市委党校,,,,45,,35,170,119,76,61,16,14,,6,0.9,0.8
2023-08-14T11:00:00,1814A,112.4657,34.6871,洛阳市,豫西宾馆,细颗粒物(PM2.5),55,35,50,39,33,184,148,78,78,6,14,4,3,1.1,1.1
2023-08-14T11:00:00,1815A,112.494,34.6886,洛阳市,河南林校,,50,50,41,34,26,179,142,76,76,12,19,6,5,0.9,0.8
2023-08-14T11:00:00,1816A,112.3844,34.623,洛阳市,开发区管委会,颗粒物(PM10),55,59,47,34,26,182,156,93,67,9,15,12,8,0.7,0.6
2023-08-14T11:00:00,1817A,112.4267,34.6258,洛阳市,市委新办公区,细颗粒物(PM2.5),67,65,47,48,33,167,136,75,75,13,15,14,7,0.8,0.7
2023-08-14T11:00:00,1818A,114.4839,36.0621,安阳市,棉研所,,,,,,,,,,,,,,,,
2023-08-14T11:00:00,1819A,114.3551,36.1017,安阳市,红庙街,,47,23,40,11,19,154,149,75,69,4,13,7,7,0.4,0.5
2023-08-14T11:00:00,1820A,114.361,36.0681,安阳市,银杏小区,,,28,37,,,154,154,74,74,3,9,5,5,0.5,0.5
2023-08-14T11:00:00,1824A,114.3389,34.7781,开封市,肿瘤医院,颗粒物(PM10),66,81,39,20,21,143,137,89,89,1,10,3,4,0.6,0.7
2023-08-14T11:00:00,1826A,114.2885,34.7965,开封市,世纪星幼儿园,,,40,34,,,145,145,90,90,8,14,6,5,0.8,0.8
2023-08-14T11:00:00,1828A,113.227,35.2125,焦作市,市环保局,,,,48,,32,175,150,106,90,9,13,6,7,0.7,0.7
2023-08-14T11:00:00,1830A,113.1992,35.2590,焦作市,影视城,,,,,,,,,,,,,,,,
2023-08-14T11:00:00,1832A,113.3257,33.742,平顶山市,新华旅馆,,47,39,40,19,21,201,148,88,88,10,22,3,5,0.6,0.6
2023-08-14T11:00:00,1833A,113.2919,33.737,平顶山市,规划设计院,,45,34,41,15,22,173,143,80,80,5,18,7,8,0.7,0.7
2023-08-14T11:00:00,1834A,113.182,33.774,平顶山市,平顶山工学院,,45,42,48,19,19,169,144,90,83,6,17,4,6,0.6,0.6
2023-08-14T11:00:00,1835A,111.1922,34.7752,三门峡市,市政府,颗粒物(PM10),51,52,43,28,24,196,134,120,111,10,13,4,5,0.8,0.7
2023-08-14T11:00:00,1836A,111.1587,34.7942,三门峡市,开发区,颗粒物(PM10),67,83,56,32,22,191,136,122,109,13,13,4,6,0.8,0.6
2023-08-14T11:00:00,1838A,111.143,34.7955,三门峡市,风景区,,,,,,,,,,,,,,,,
2023-08-14T11:00:00,1840A,111.2992,30.6981,宜昌市,白龙岗,,32,24,21,9,6,111,100,41,41,18,15,2,2,0.4,0.4
2023-08-14T11:00:00,1841A,111.3549,30.6465,宜昌市,伍家岗,,30,19,19,12,8,111,96,43,41,20,20,3,3,0.6,0.6
2023-08-14T11:00:00,1842A,111.2628,30.6961,宜昌市,点军区,,33,17,19,9,7,105,105,37,37,13,11,4,4,0.6,0.5
2023-08-14T11:00:00,1843A,111.3275,30.7819,宜昌市,夷陵区,,30,29,18,7,4,113,96,42,42,17,14,4,3,0.5,0.4
2023-08-14T11:00:00,1844A,112.2494,30.3197,荆州市,市图书馆,,39,28,24,14,13,125,123,87,83,5,11,7,8,0.7,0.6
2023-08-14T11:00:00,1845A,112.2008,30.3544,荆州市,市委党校,,40,40,25,19,15,126,126,88,73,5,11,8,9,0.6,0.6
2023-08-14T11:00:00,1847A,113.1094,29.3578,岳阳市,南湖风景区,,33,33,26,12,18,121,92,75,67,11,10,10,6,0.9,0.7
2023-08-14T11:00:00,1848A,113.1493,29.4251,岳阳市,城陵矶,,,31,27,19,20,97,82,63,54,15,18,13,10,,0.8
2023-08-14T11:00:00,1849A,113.1497,29.3575,岳阳市,开发区,,40,40,34,23,18,110,87,73,60,11,12,8,9,0.7,0.6
2023-08-14T11:00:00,1850A,113.2621,29.4758,岳阳市,云溪区,,31,23,23,19,17,109,97,64,50,6,11,6,7,0.6,0.6
2023-08-14T11:00:00,1851A,112.9943,29.4402,岳阳市,君山区,,35,20,24,24,21,105,101,58,58,7,15,8,9,0.7,0.7
2023-08-14T11:00:00,1852A,113.2117,29.355,岳阳市,金凤水库,,33,31,25,23,17,127,92,78,56,5,6,3,3,0.6,0.5
2023-08-14T11:00:00,1854A,111.6975,28.9703,常德市,市二中,,36,27,23,25,16,112,71,55,36,10,9,10,5,0.8,0.7
2023-08-14T11:00:00,1857A,111.7158,29.1456,常德市,白鹤山,,30,13,11,7,6,100,95,88,62,4,4,9,8,0.3,0.3
2023-08-14T11:00:00,1858A,110.5319,29.1217,张家界市,永定新区,,30,19,21,16,17,94,94,32,32,9,10,6,6,0.3,0.3
2023-08-14T11:00:00,1859A,110.4697,29.1242,张家界市,电业局,,31,26,18,15,14,99,99,37,33,8,11,3,3,0.3,0.4
2023-08-14T11:00:00,1860A,110.5594,29.3547,张家界市,未央路,,29,27,27,11,12,92,92,27,27,5,7,3,3,0.2,0.3
2023-08-14T11:00:00,1861A,110.4417,29.315,张家界市,袁家界,,32,24,16,17,10,100,100,77,77,6,5,7,7,0.6,0.5
2023-08-14T11:00:00,1862A,110.4144,25.3167,桂林市,电子科大尧山校区,,31,31,30,16,18,140,71,84,57,6,6,6,8,0.5,0.5
2023-08-14T11:00:00,1863A,110.2819,25.2697,桂林市,监测站,,31,15,28,9,11,132,99,96,79,7,9,6,6,0.6,0.6
2023-08-14T11:00:00,1864A,110.3089,25.2708,桂林市,龙隐路小学,,30,14,24,12,17,124,96,83,70,8,8,6,7,0.6,0.6
2023-08-14T11:00:00,1865A,110.2869,25.2178,桂林市,八中,,30,14,21,10,11,122,96,93,85,9,8,4,5,0.6,0.6
2023-08-14T11:00:00,1866A,109.2262,21.588,北海市,牛尾岭水库,,,,15,0,6,70,41,38,38,5,5,4,4,0.5,0.6
2023-08-14T11:00:00,1867A,109.1436,21.4086,北海市,海滩公园,,18,18,32,2,7,98,37,72,62,18,5,3,3,0.5,0.6
2023-08-14T11:00:00,1868A,109.0981,21.4661,北海市,新市环保局,,,34,21,7,11,86,39,68,53,24,8,3,3,,0.7
2023-08-14T11:00:00,1869A,109.1778,21.5233,北海市,北海工业园,,18,4,20,5,11,83,55,57,47,11,8,4,4,0.6,0.6
2023-08-14T11:00:00,1870A,109.4856,24.3895,柳州市,柳东小学,,,,26,,20,137,85,76,65,4,9,5,7,0.5,0.5
2023-08-14T11:00:00,1871A,109.4157,24.3277,柳州市,环保监测站,,28,0,30,6,18,123,87,80,58,7,10,4,4,0.6,0.6
2023-08-14T11:00:00,1872A,109.389,24.341,柳州市,河西水厂,,25,5,31,1,20,126,78,63,55,13,12,5,5,1.1,0.9
2023-08-14T11:00:00,1873A,109.4311,24.2921,柳州市,市四中,,26,5,33,10,14,130,81,76,56,10,12,7,6,0.7,0.7
2023-08-14T11:00:00,1874A,109.4006,24.3631,柳州市,市九中,,,8,39,,18,128,82,75,63,9,9,6,6,0.7,0.7
2023-08-14T11:00:00,1875A,109.4958,24.3134,柳州市,古亭山,,,,31,4,19,127,82,74,56,9,15,4,5,0.6,0.6
2023-08-14T11:00:00,1876A,109.5078,18.2489,三亚市,河东子站,,,19,26,9,12,71,65,60,43,,7,3,3,0.4,0.4
2023-08-14T11:00:00,1877A,109.4964,18.2681,三亚市,河西子站,,25,25,24,10,12,74,67,58,39,5,8,2,2,0.5,0.5
2023-08-14T11:00:00,1878A,104.7778,31.4741,绵阳市,富乐山,,38,30,34,22,21,170,120,58,45,9,14,4,4,0.6,0.6
2023-08-14T11:00:00,1879A,104.7563,31.4535,绵阳市,市人大,,37,36,36,23,21,163,117,42,42,14,24,8,6,0.6,0.7
2023-08-14T11:00:00,1880A,104.6697,31.4668,绵阳市,高新区自来水公司,,46,46,49,30,22,181,114,53,53,19,31,8,8,0.6,0.6
2023-08-14T11:00:00,1881A,104.7287,31.5075,绵阳市,三水厂,颗粒物(PM10),52,53,59,29,32,192,96,32,32,18,34,7,7,0.5,0.6
2023-08-14T11:00:00,1882A,104.563,28.793,宜宾市,石马中学,,37,12,36,11,16,116,116,47,47,10,28,8,7,0.5,0.6
2023-08-14T11:00:00,1883A,104.6201,28.7728,宜宾市,市委,,33,32,33,13,15,143,103,67,67,19,18,10,10,0.6,0.6
2023-08-14T11:00:00,1884A,104.6055,28.793,宜宾市,宜宾四中,,44,44,38,20,17,147,101,71,71,24,22,7,9,0.5,0.7
2023-08-14T11:00:00,1885A,104.639,28.7562,宜宾市,市政府,颗粒物(PM10),51,52,41,20,17,131,101,64,64,22,27,7,8,0.6,0.6
2023-08-14T11:00:00,1886A,104.5742,28.7199,宜宾市,黄金嘴,,33,31,30,17,16,148,103,73,73,17,16,10,10,0.6,0.6
2023-08-14T11:00:00,1888A,101.6891,26.571,攀枝花市,弄弄坪,细颗粒物(PM2.5),77,100,48,56,27,127,35,49,22,49,22,31,14,2.9,1.3
2023-08-14T11:00:00,1889A,101.5769,26.5928,攀枝花市,河门口,,38,38,45,24,27,178,44,32,21,26,24,16,19,1.6,1.9
2023-08-14T11:00:00,1890A,101.7169,26.585,攀枝花市,炳草岗,颗粒物(PM10),68,85,52,46,29,138,50,24,19,39,29,39,21,2.4,1.2
2023-08-14T11:00:00,1891A,101.7369,26.5008,攀枝花市,仁和,,,41,32,25,22,144,56,44,25,,14,17,8,,0.8
2023-08-14T11:00:00,1893A,105.4324,28.9634,泸州市,九狮山,,44,36,24,4,13,120,108,30,30,24,18,17,6,4.4,2.8
2023-08-14T11:00:00,1894A,105.4427,28.9063,泸州市,小市上码头,,47,47,35,31,17,170,140,62,53,24,17,12,8,0.7,0.6
2023-08-14T11:00:00,1895A,105.4241,28.8573,泸州市,兰田宪桥,,45,41,36,27,23,169,144,66,66,9,11,8,4,0.7,0.6
2023-08-14T11:00:00,1896A,105.4379,28.8833,泸州市,市环监站,,43,36,33,19,17,156,137,66,66,12,14,13,6,0.7,0.6
2023-08-14T11:00:00,1901A,104.4239,31.1208,德阳市,东山公园,,49,49,42,24,17,209,137,84,79,10,11,3,3,0.6,0.5
2023-08-14T11:00:00,1902A,104.3826,31.1317,德阳市,西小区,颗粒物(PM10),56,62,51,30,26,200,134,69,50,22,22,3,6,0.6,0.6
2023-08-14T11:00:00,1904A,104.3553,31.1091,德阳市,耐火材料厂,颗粒物(PM10),68,86,57,31,27,207,124,56,44,34,22,3,4,0.8,0.6
2023-08-14T11:00:00,1905A,106.056,30.8064,南充市,西山风景区,,30,28,20,10,14,128,93,42,41,11,10,3,2,0.6,0.5
2023-08-14T11:00:00,1906A,106.0789,30.8023,南充市,南充市委,,,45,30,11,15,128,102,34,31,,19,10,8,,0.4
2023-08-14T11:00:00,1907A,106.1031,30.8217,南充市,南充炼油厂,,,29,37,11,14,137,103,44,44,,20,9,8,0.3,0.3
2023-08-14T11:00:00,1908A,106.1064,30.7856,南充市,高坪区监测站,,31,26,31,12,13,126,99,47,42,18,22,7,6,0.4,0.4
2023-08-14T11:00:00,1909A,106.0642,30.7636,南充市,嘉陵区环保局,,33,28,34,9,16,132,104,46,38,13,23,8,6,0.3,0.3
2023-08-14T11:00:00,1910A,106.1087,30.8388,南充市,市环境监测站,,32,20,34,18,21,126,102,37,37,11,19,6,6,0.4,0.4
2023-08-14T11:00:00,1911A,106.9222,27.6869,遵义市,丁字口,,,39,20,6,8,104,76,86,57,,11,3,4,0.6,0.6
2023-08-14T11:00:00,1912A,106.9242,27.7019,遵义市,凤凰山,,25,24,20,13,16,135,77,79,62,5,7,4,5,0.6,0.6
2023-08-14T11:00:00,1913A,106.8906,27.6486,遵义市,忠庄,,26,26,19,8,10,118,68,86,60,9,9,2,2,0.5,0.4
2023-08-14T11:00:00,1914A,106.9231,27.6506,遵义市,舟水桥,,23,14,16,6,12,118,72,67,56,4,8,1,1,0.4,0.3
2023-08-14T11:00:00,1915A,106.9178,27.72,遵义市,干田坝,,24,17,17,9,10,115,75,71,54,9,10,6,5,0.6,0.5
2023-08-14T11:00:00,1916A,103.7897,25.5035,曲靖市,环境监测站,,46,38,37,32,21,114,96,49,33,13,20,8,7,0.6,0.9
2023-08-14T11:00:00,1917A,103.8,25.5364,曲靖市,烟厂办公区,,35,35,32,23,19,109,95,33,33,12,15,8,7,0.6,0.7
2023-08-14T11:00:00,1918A,108.7197,34.3956,咸阳市,气象站,,,,,,,,,,,,,,,,
2023-08-14T11:00:00,1919A,108.673,34.3155,咸阳市,实验中学,,48,48,47,29,23,224,132,72,72,12,20,8,6,0.7,0.6
2023-08-14T11:00:00,1920A,108.7233,34.3617,咸阳市,师范学院,,48,48,46,25,23,214,130,79,76,21,27,7,5,0.6,0.5
2023-08-14T11:00:00,1922A,109.0656,35.0994,铜川市,党校,,34,18,43,16,13,169,106,60,60,9,24,7,7,0.7,0.7
2023-08-14T11:00:00,1923A,109.0697,35.0697,铜川市,王益区政府,,36,32,36,20,16,172,115,44,44,6,22,5,5,0.4,0.6
2023-08-14T11:00:00,1924A,108.9344,34.9058,铜川市,新区管委会,,48,48,40,19,16,196,130,85,85,11,17,5,5,0.8,0.7
2023-08-14T11:00:00,1926A,109.4131,36.6275,延安市,枣园,,45,45,26,11,9,166,118,30,30,22,27,5,6,0.7,0.6
2023-08-14T11:00:00,1927A,109.4761,36.6028,延安市,延大医附院,,43,43,28,20,12,161,120,29,29,22,30,4,4,0.4,0.3
2023-08-14T11:00:00,1929A,109.5056,36.6106,延安市,百米大道,颗粒物(PM10),51,51,33,22,12,152,134,32,32,28,35,8,7,0.9,0.7
2023-08-14T11:00:00,1930A,107.185,34.3063,宝鸡市,庙沟村,,33,30,22,10,8,128,103,90,70,5,8,7,7,0.2,0.1
2023-08-14T11:00:00,1931A,107.0708,34.3017,宝鸡市,竹园沟,,42,36,22,20,14,171,133,73,62,11,13,6,5,0.5,0.4
2023-08-14T11:00:00,1932A,107.1906,34.3672,宝鸡市,三陆医院,颗粒物(PM10),52,54,40,22,18,176,111,51,50,22,25,8,8,0.6,0.5
2023-08-14T11:00:00,1933A,107.1431,34.3547,宝鸡市,监测站,,48,48,31,21,13,178,129,76,73,18,20,8,6,0.5,0.3
2023-08-14T11:00:00,1934A,107.1186,34.3739,宝鸡市,技工学校,颗粒物(PM10),51,52,34,16,16,177,120,69,61,17,17,8,6,0.6,0.4
2023-08-14T11:00:00,1935A,107.3906,34.3528,宝鸡市,陈仓区环保局家属楼,颗粒物(PM10),51,51,35,31,17,183,124,71,68,17,22,8,6,0.6,0.5
2023-08-14T11:00:00,1936A,107.2058,34.3497,宝鸡市,文理学院,,42,39,35,29,17,178,124,80,69,15,17,7,4,0.6,0.5
2023-08-14T11:00:00,1937A,107.2386,34.3622,宝鸡市,三迪小学,颗粒物(PM10),52,53,38,30,15,171,110,68,59,17,17,8,5,0.6,0.5
2023-08-14T11:00:00,1938A,109.5293,34.5101,渭南市,农科所,颗粒物(PM10),51,51,42,31,20,167,107,44,42,9,24,5,5,0.4,0.3
2023-08-14T11:00:00,1939A,109.4974,34.4877,渭南市,日报社,,,44,42,25,24,195,122,42,42,10,27,,8,0.4,0.4
2023-08-14T11:00:00,1940A,109.4636,34.493,渭南市,体育馆,,48,48,41,27,20,194,126,51,51,9,32,5,4,0.6,0.6
2023-08-14T11:00:00,1941A,109.4259,34.5023,渭南市,高新一小,颗粒物(PM10),58,66,51,29,21,176,119,67,67,10,17,4,4,0.5,0.5
2023-08-14T11:00:00,1943A,102.1725,38.5339,金昌市,新川苑,颗粒物(PM10),59,68,41,7,7,167,90,128,99,25,15,8,9,0.6,0.5
2023-08-14T11:00:00,1944A,102.1692,38.5167,金昌市,天庆家园,,45,45,28,10,11,172,91,124,105,30,17,9,9,0.8,0.7
2023-08-14T11:00:00,1945A,98.2908,39.7711,嘉峪关市,气象局,,33,27,57,9,16,129,105,90,90,10,27,2,22,0.1,0.6
2023-08-14T11:00:00,1947A,106.3394,38.817,石嘴山市,沙湖旅游区,,47,37,48,19,17,221,150,82,77,13,17,9,9,0.6,0.6
2023-08-14T11:00:00,1948A,106.3668,39.0145,石嘴山市,大武口朝阳西街,,44,36,59,13,21,187,139,87,75,5,32,6,26,0.2,0.5
2023-08-14T11:00:00,1949A,106.7704,39.2282,石嘴山市,惠农南大街,颗粒物(PM10),51,52,36,16,11,193,145,94,82,22,20,26,14,0.7,0.4
2023-08-14T11:00:00,1950A,106.7099,39.1325,石嘴山市,红果子镇惠新街,颗粒物(PM10),53,56,59,22,19,173,138,95,83,24,26,21,14,0.7,0.5
2023-08-14T11:00:00,1951A,84.895,45.6094,克拉玛依市,长征新村,,18,10,9,2,5,114,56,104,78,20,7,8,9,0.2,0.1
2023-08-14T11:00:00,1952A,84.8988,45.5893,克拉玛依市,南林小区,,17,15,10,4,8,119,52,105,77,26,11,8,8,0.2,0.1
2023-08-14T11:00:00,1954A,84.905,44.3396,克拉玛依市,独山子区,,21,14,12,7,8,128,66,90,79,8,6,7,8,0.4,0.4
2023-08-14T11:00:00,1955A,85.6979,46.098,克拉玛依市,乌尔禾区商贸楼,,20,15,9,6,5,107,62,94,70,7,3,5,6,0.4,0.3
2023-08-14T11:00:00,1956A,86.1472,41.7538,巴音郭楞州,孔雀公园,,49,49,43,7,10,122,104,108,101,12,10,7,7,0.4,0.3
2023-08-14T11:00:00,1957A,86.1972,41.7166,巴音郭楞州,棉纺厂,颗粒物(PM10),51,52,45,12,12,124,98,100,98,11,10,6,6,0.4,0.3
2023-08-14T11:00:00,1958A,86.2357,41.7173,巴音郭楞州,经济开发区,,47,47,36,8,11,129,94,108,104,9,6,8,7,0.3,0.2
2023-08-14T11:00:00,1961A,117.532,36.6868,济南市,东山小学,,48,34,29,17,13,152,152,71,71,14,21,9,6,0.5,0.4
2023-08-14T11:00:00,1966A,120.0405,35.8735,青岛市,黄岛区4号,,44,12,24,7,14,138,138,83,83,15,21,3,4,0.5,0.5
2023-08-14T11:00:00,1982A,122.0693,37.2174,威海市,文登开发区,,43,17,20,5,8,135,135,93,93,5,6,6,5,0.8,0.8
2023-08-14T11:00:00,2031A,113.1817,27.9958,株洲市,云田中学,,33,33,30,23,18,145,82,58,58,9,10,5,5,0.7,0.6
2023-08-14T11:00:00,2054A,114.1099,32.1059,信阳市,平桥分局,,44,15,22,20,13,139,139,60,60,4,14,2,1,0.9,0.8
2023-08-14T11:00:00,2064A,113.9956,32.1271,信阳市,南湾水厂,,43,37,25,20,12,135,135,83,67,5,8,2,2,0.9,0.7
2023-08-14T11:00:00,2065A,114.0775,32.1195,信阳市,市酿酒公司,,44,11,10,22,15,138,138,66,66,6,14,2,2,0.7,0.6
2023-08-14T11:00:00,2066A,114.0609,32.1399,信阳市,审计局,,44,23,30,23,17,138,138,63,63,4,13,3,2,0.7,0.5
2023-08-14T11:00:00,2067A,114.6613,33.6128,周口市,市环境监测站,,46,20,30,20,22,146,146,98,98,7,10,5,8,0.5,0.5
2023-08-14T11:00:00,2068A,114.6758,33.6347,周口市,周口师范,,46,32,33,14,16,145,145,86,86,6,12,3,5,0.6,0.6
2023-08-14T11:00:00,2069A,114.6546,33.5979,周口市,市运管处,,45,33,30,12,17,141,141,99,98,9,11,4,6,0.6,0.5
2023-08-14T11:00:00,2070A,114.6369,33.6406,周口市,川汇区环保局,,,41,33,14,15,136,136,68,66,8,12,,2,0.7,0.7
2023-08-14T11:00:00,2075A,117.6336,24.4674,漳州市,九湖,,,,,,,,,,,,,,,,
2023-08-14T11:00:00,2160A,112.85,35.5051,晋城市,自来水公司,颗粒物(PM10),58,65,63,22,29,182,160,146,89,12,17,8,10,1.0,1.1
2023-08-14T11:00:00,2161A,112.8318,35.4936,晋城市,白云商贸,,50,43,59,24,28,174,160,138,94,13,19,9,11,1.0,1.2
2023-08-14T11:00:00,2162A,112.8508,35.4887,晋城市,市环保局,,49,40,65,27,30,176,156,134,85,11,18,9,11,0.9,1.1
2023-08-14T11:00:00,2163A,112.8676,35.4897,晋城市,技术学院,,,25,46,22,24,172,150,120,83,10,17,8,11,,1.2
2023-08-14T11:00:00,2165A,112.8453,35.546,晋城市,白马寺,,,,,,,,,,,,,,,,
2023-08-14T11:00:00,2166A,112.4397,39.3522,朔州市,平朔,颗粒物(PM10),60,69,72,22,23,140,90,32,32,21,33,15,12,0.6,0.5
2023-08-14T11:00:00,2167A,112.4575,39.3617,朔州市,朔唯,颗粒物(PM10),63,75,99,28,27,159,104,48,34,17,30,22,12,0.6,0.6
2023-08-14T11:00:00,2168A,112.4258,39.3197,朔州市,区政府,,,,54,,14,145,106,54,46,17,25,,9,0.6,0.6
2023-08-14T11:00:00,2169A,112.4072,39.3278,朔州市,市环保局,颗粒物(PM10),57,64,55,22,18,144,100,57,44,17,21,15,14,0.7,0.6
2023-08-14T11:00:00,2170A,112.4272,39.3681,朔州市,市二中,颗粒物(PM10),66,81,87,20,24,147,97,30,30,23,35,17,12,0.6,0.6
2023-08-14T11:00:00,2171A,112.7532,37.6945,晋中市,锦纶小区,,48,41,38,19,14,194,152,81,69,12,21,13,10,0.7,0.5
2023-08-14T11:00:00,2173A,112.7249,37.7067,晋中市,南都小区,,48,46,47,21,21,199,153,93,80,12,22,10,8,0.7,0.5
2023-08-14T11:00:00,2174A,112.6991,37.6982,晋中市,榆次区政府,,47,37,53,25,18,201,149,95,77,12,22,15,12,0.9,0.6
2023-08-14T11:00:00,2175A,110.9956,35.0147,运城市,运城中学,,43,43,41,28,20,171,137,149,146,5,5,4,4,0.7,0.6
2023-08-14T11:00:00,2178A,110.9686,35.0303,运城市,地区技校,颗粒物(PM10),52,53,40,28,20,155,135,139,134,4,5,3,4,0.5,0.5
2023-08-14T11:00:00,2179A,111.0414,35.1147,运城市,空港新区,颗粒物(PM10),55,59,52,36,26,170,136,137,113,4,10,3,4,0.6,0.6
2023-08-14T11:00:00,2181A,112.7383,38.4519,忻州市,开发区,,42,42,34,15,17,151,120,58,58,16,27,13,12,0.7,0.5
2023-08-14T11:00:00,2182A,112.7003,38.4928,忻州市,会展中心,,45,45,34,14,17,145,119,54,49,16,27,12,9,0.7,0.5
2023-08-14T11:00:00,2183A,111.1406,37.5211,吕梁市,环保局,颗粒物(PM10),56,61,49,28,17,166,145,60,60,18,32,13,8,0.9,0.6
2023-08-14T11:00:00,2185A,111.1297,37.5136,吕梁市,自来水公司,颗粒物(PM10),54,58,57,25,17,160,148,57,51,13,23,9,6,0.9,0.5
2023-08-14T11:00:00,2187A,106.8174,39.6973,乌海市,市林业局,颗粒物(PM10),60,70,56,23,18,215,117,140,84,33,22,45,21,0.9,0.8
2023-08-14T11:00:00,2188A,106.7907,39.6667,乌海市,中海勃湾学校,颗粒物(PM10),56,62,43,23,19,222,127,135,84,21,24,50,21,0.7,0.6
2023-08-14T11:00:00,2191A,122.2532,43.6801,通辽市,艺术职业学校,,32,11,18,8,9,101,101,61,59,15,16,6,5,0.4,0.4
2023-08-14T11:00:00,2192A,119.7594,49.2261,呼伦贝尔市,区环保局,,22,19,33,15,27,73,68,28,28,7,20,5,5,0.4,0.5
2023-08-14T11:00:00,2195A,107.4212,40.761,巴彦淖尔市,附二中,,47,47,46,18,21,179,131,99,91,13,13,10,19,0.6,0.6
2023-08-14T11:00:00,2196A,107.37,40.7372,巴彦淖尔市,市环保大楼,颗粒物(PM10),58,66,48,16,18,180,129,116,97,19,11,7,6,0.6,0.6
2023-08-14T11:00:00,2197A,113.1306,40.9923,乌兰察布市,集宁新区,,,32,25,16,12,125,118,58,51,,20,,14,0.8,0.7
2023-08-14T11:00:00,2200A,122.0392,46.0656,兴安盟,胜华新制药厂,,30,29,20,9,8,96,96,55,50,10,9,4,3,0.4,0.4
2023-08-14T11:00:00,2201A,121.9504,46.0741,兴安盟,科右前旗环保局,,29,27,18,19,12,90,90,53,53,6,6,5,4,0.5,0.5
2023-08-14T11:00:00,2202A,116.1042,43.9317,锡林郭勒盟,市环保监测站,,34,19,21,4,7,110,108,75,71,2,8,10,9,0.2,0.2
2023-08-14T11:00:00,2203A,116.0781,43.9311,锡林郭勒盟,市政府,,34,12,14,8,5,111,108,82,79,6,11,12,12,0.2,0.2
2023-08-14T11:00:00,2204A,105.6467,38.8363,阿拉善盟,西城区西花园,,44,28,43,10,16,178,139,146,122,6,10,7,8,0.5,0.5
2023-08-14T11:00:00,2205A,105.6985,38.8411,阿拉善盟,蒙二幼,,43,28,36,10,14,180,135,147,134,9,9,7,8,0.4,0.5
2023-08-14T11:00:00,2206A,105.724,38.8516,阿拉善盟,环保局新楼,,44,18,24,10,13,174,139,157,139,8,7,8,9,0.5,0.5
2023-08-14T11:00:00,2207A,121.6094,41.998,阜新市,工业园区,,42,42,40,8,13,101,101,39,39,12,22,21,13,1.4,0.8
2023-08-14T11:00:00,2208A,121.6697,42.0279,阜新市,长青街,,43,43,46,17,22,82,82,34,34,9,18,22,12,0.6,1.1
2023-08-14T11:00:00,2209A,121.6673,42.0705,阜新市,农业园区,,,,30,,17,89,,47,47,,8,,16,,1.3
2023-08-14T11:00:00,2210A,121.6717,42.0224,阜新市,东苑,,,61,45,5,13,90,90,26,26,6,16,34,16,,1.1
2023-08-14T11:00:00,2211A,121.6506,42.0498,阜新市,玉龙新城,,29,24,34,10,13,92,92,39,39,5,17,20,17,0.7,1.3
2023-08-14T11:00:00,2212A,123.2,41.1953,辽阳市,宏伟区,,35,35,33,17,15,70,70,24,24,37,24,28,11,1.4,0.8
2023-08-14T11:00:00,2213A,123.1683,41.2495,辽阳市,新华园,,,60,33,16,16,79,79,30,30,,21,12,10,,0.8
2023-08-14T11:00:00,2214A,123.2354,41.2639,辽阳市,滨河路,,39,39,26,11,15,90,90,30,30,16,23,18,13,1.4,1
2023-08-14T11:00:00,2215A,123.149,41.2991,辽阳市,铁西工业园,,28,26,26,11,12,89,89,29,29,10,24,11,8,0.9,0.9
2023-08-14T11:00:00,2216A,123.8139,42.3022,铁岭市,汇工街西,,28,26,11,6,4,89,89,28,28,5,16,6,16,0.5,0.5
2023-08-14T11:00:00,2217A,123.8649,42.2923,铁岭市,水上乐园,,22,22,16,2,4,69,69,26,26,12,18,4,3,0.6,0.6
2023-08-14T11:00:00,2218A,123.8486,42.2867,铁岭市,银州路东段,,23,14,13,6,5,71,71,30,30,9,18,5,5,0.5,0.5
2023-08-14T11:00:00,2219A,123.7153,42.2217,铁岭市,金沙江路北,,26,15,18,4,10,81,81,30,30,6,16,8,6,0.7,0.6
2023-08-14T11:00:00,2220A,120.4318,41.5881,朝阳市,西梁,,27,27,32,14,17,96,85,27,27,14,18,12,10,0.6,0.6
2023-08-14T11:00:00,2221A,120.4521,41.5646,朝阳市,河畔小区,,,14,23,,10,96,93,37,34,10,10,,7,0.7,0.7
2023-08-14T11:00:00,2222A,120.4176,41.5648,朝阳市,八里堡,,31,28,32,3,14,102,99,33,33,11,20,8,8,0.6,0.7
2023-08-14T11:00:00,2223A,120.3806,41.5969,朝阳市,农业园区,,35,35,27,16,10,95,79,26,26,21,19,8,5,0.7,0.6
2023-08-14T11:00:00,2225A,124.4002,43.1713,四平市,一商场,,37,37,24,25,10,88,88,35,35,21,22,14,8,0.5,0.4
2023-08-14T11:00:00,2226A,124.388,43.193,四平市,境园,,27,24,21,7,9,84,84,28,28,15,16,8,7,0.4,0.3
2023-08-14T11:00:00,2227A,125.1358,42.8845,辽源市,环保局,,24,15,16,12,10,76,76,48,48,8,14,6,6,0.5,0.5
2023-08-14T11:00:00,2229A,125.9358,41.7173,通化市,光明,,27,27,16,3,8,82,28,76,29,32,20,7,7,0.6,0.5
2023-08-14T11:00:00,2230A,125.9446,41.7325,通化市,铁路,,11,11,10,6,4,322,30,52,34,22,16,6,5,0.7,0.7
2023-08-14T11:00:00,2231A,126.4219,41.9171,白山市,喜丰,,41,41,23,13,9,90,76,77,42,4,15,9,8,0.5,0.6
2023-08-14T11:00:00,2232A,126.4077,41.9419,白山市,环保局,,26,26,22,8,8,94,78,81,45,8,10,7,7,0.5,0.6
2023-08-14T11:00:00,2233A,124.8006,45.1214,松原市,江南,,17,10,11,5,5,80,53,38,38,6,9,5,6,0.4,0.4
2023-08-14T11:00:00,2234A,124.7965,45.1722,松原市,江北,,17,10,8,7,5,72,54,36,36,7,8,5,4,0.3,0.3
2023-08-14T11:00:00,2235A,122.7911,45.6077,白城市,洮北区环保局,,26,12,10,5,6,83,83,54,54,6,10,5,6,0,0
2023-08-14T11:00:00,2236A,122.8738,45.5725,白城市,市环保局,,27,9,12,3,1,87,84,56,56,4,7,3,4,0.2,0.2
2023-08-14T11:00:00,2237A,129.47,42.8883,延边朝鲜族自治州,妇幼医院,,12,11,8,6,5,57,38,50,42,16,12,8,8,0.5,0.4
2023-08-14T11:00:00,2238A,129.5055,42.9108,延边朝鲜族自治州,延边医院,,15,6,6,4,4,65,47,55,50,11,8,8,8,0.5,0.5
2023-08-14T11:00:00,2239A,129.3964,42.8881,延边朝鲜族自治州,朝阳川镇医院,,14,13,8,3,2,62,44,49,45,9,7,7,7,0.5,0.5
2023-08-14T11:00:00,2240A,130.9762,45.3001,鸡西市,环保局,,,11,14,6,6,48,24,22,22,11,9,,5,0.3,0.3
2023-08-14T11:00:00,2243A,130.9429,45.3039,鸡西市,第一中学,,15,15,14,5,6,52,27,28,25,7,6,7,6,0.4,0.4
2023-08-14T11:00:00,2244A,130.2537,47.3416,鹤岗市,哈啤分公司,,12,5,8,6,6,38,37,21,21,13,14,11,12,0.4,0.4
2023-08-14T11:00:00,2245A,130.2684,47.3086,鹤岗市,斯达机电,,11,5,7,6,6,38,35,19,19,7,11,9,8,0.4,0.4
2023-08-14T11:00:00,2246A,130.3114,47.3388,鹤岗市,东山纸板厂,,21,21,10,6,8,35,35,18,18,10,14,10,8,0.3,0.4
2023-08-14T11:00:00,2247A,130.1097,47.3382,鹤岗市,五号水库,,15,5,6,4,6,48,48,22,22,4,8,10,10,0.1,0.1
2023-08-14T11:00:00,2248A,131.1511,46.6937,双鸭山市,双合村,,16,16,15,4,6,56,44,21,21,8,8,11,10,0.6,0.3
2023-08-14T11:00:00,2249A,131.1652,46.6191,双鸭山市,南小市,,24,24,17,0,7,56,37,20,20,4,7,5,5,0.1,0.1
2023-08-14T11:00:00,2250A,131.1524,46.6554,双鸭山市,环保局,,12,11,9,4,6,62,37,24,24,6,8,8,8,0.3,0.3
2023-08-14T11:00:00,2251A,131.12,46.5656,双鸭山市,苗圃,,15,9,9,4,5,58,46,29,29,4,4,3,3,0.4,0.4
2023-08-14T11:00:00,2252A,128.5159,47.4311,伊春市,环保局,,21,9,12,0,5,66,66,30,30,5,7,6,5,0.2,0.2
2023-08-14T11:00:00,2253A,128.9102,47.7412,伊春市,电力嘉园,,,4,5,5,6,74,74,27,27,,8,6,5,,0.5
2023-08-14T11:00:00,2254A,129.5029,48.471,伊春市,汤旺河国家公园,,,3,5,5,6,66,66,27,27,,2,,11,0.9,0.8
2023-08-14T11:00:00,2255A,130.2751,46.8028,佳木斯市,佳纺,,15,5,12,2,5,46,46,27,27,2,8,5,4,0.4,0.5
2023-08-14T11:00:00,2256A,130.3995,46.8307,佳木斯市,发电厂,,14,5,12,1,8,44,44,27,27,5,11,2,3,0.5,0.5
2023-08-14T11:00:00,2257A,130.3258,46.7975,佳木斯市,环保局,,14,14,13,2,5,44,44,26,26,2,7,3,3,0.5,0.4
2023-08-14T11:00:00,2258A,130.3648,46.8032,佳木斯市,十一中,,20,7,12,14,9,44,44,25,25,8,16,4,5,0.5,0.5
2023-08-14T11:00:00,2259A,130.3794,46.7588,佳木斯市,四丰,,21,0,14,2,5,67,67,42,42,1,4,1,1,0.4,0.4
2023-08-14T11:00:00,2262A,131.0518,45.8751,七台河市,新一中,,21,7,16,0,8,67,67,33,33,4,7,7,8,0.7,0.7
2023-08-14T11:00:00,2263A,127.4833,50.2524,黑河市,交通局,,,,4,4,4,52,47,23,23,8,10,5,5,0.5,0.5
2023-08-14T11:00:00,2264A,127.5144,50.2341,黑河市,环保局,,18,18,16,3,5,56,54,28,28,4,5,2,3,0.4,0.4
2023-08-14T11:00:00,2265A,127.5291,50.2472,黑河市,大黑河岛,,19,15,10,13,8,143,56,26,26,2,2,1,2,0.4,0.4
2023-08-14T11:00:00,2266A,126.9785,46.6365,绥化市,人和东街,,22,13,18,6,9,76,70,42,42,7,10,4,4,0.4,0.3
2023-08-14T11:00:00,2267A,126.964,46.6528,绥化市,党政办公中心,,21,11,15,6,10,76,65,44,44,6,9,6,7,0.4,0.4
2023-08-14T11:00:00,2269A,124.1069,50.4097,大兴安岭地区,科技局,,15,4,9,5,8,70,46,22,22,3,4,2,2,0.3,0.3
2023-08-14T11:00:00,2270A,117.396,32.939,蚌埠市,工人疗养院,,39,39,32,22,18,127,103,79,69,5,6,3,3,0.5,0.5
2023-08-14T11:00:00,2271A,117.3605,32.9427,蚌埠市,百货大楼,,36,36,36,16,16,133,108,82,75,4,6,5,4,0.5,0.5
2023-08-14T11:00:00,2273A,117.4185,32.8911,蚌埠市,蚌埠学院,,41,41,31,23,21,132,108,79,71,9,8,7,6,0.6,0.6
2023-08-14T11:00:00,2274A,117.3533,32.9673,蚌埠市,淮上区政府,,33,29,29,19,21,128,105,70,69,4,8,5,4,0.6,0.6
2023-08-14T11:00:00,2275A,117.3145,32.8977,蚌埠市,高新区,,35,31,28,12,16,133,111,92,84,8,8,4,7,0.5,0.5
2023-08-14T11:00:00,2277A,116.8305,32.7727,淮南市,潘集区政府,,27,25,27,17,22,119,85,76,57,19,15,6,5,0.4,0.4
2023-08-14T11:00:00,2278A,117.0067,32.6524,淮南市,师范学院,,36,30,38,18,21,118,115,82,65,3,4,7,6,0.6,0.5
2023-08-14T11:00:00,2279A,116.8569,32.5951,淮南市,谢家集区政府,,,,25,,9,135,121,80,73,10,13,6,7,0.4,0.4
2023-08-14T11:00:00,2280A,116.8281,32.633,淮南市,八公山区政府,,37,37,37,24,25,130,106,74,66,12,11,10,8,0.6,0.5
2023-08-14T11:00:00,2281A,116.6325,32.6201,淮南市,焦岗湖风景区管理处,,29,26,29,11,13,104,91,60,50,7,10,3,3,0.4,0.4
2023-08-14T11:00:00,2282A,116.8004,33.975,淮北市,监测站,,,57,30,27,20,134,124,91,72,,12,,4,0.9,0.9
2023-08-14T11:00:00,2283A,116.8091,33.9007,淮北市,烈山区政府,,48,48,39,32,25,158,148,101,81,8,10,7,4,0.8,0.7
2023-08-14T11:00:00,2285A,117.8177,30.9412,铜陵市,市第四中学,,46,46,36,26,19,124,74,71,51,20,11,22,8,0.4,0.4
2023-08-14T11:00:00,2286A,117.8059,30.9273,铜陵市,市公路局,,,,36,30,20,143,74,81,55,,13,13,5,,0.4
2023-08-14T11:00:00,2287A,117.7807,30.9413,铜陵市,市新民污水厂,颗粒物(PM10),52,54,43,23,19,147,74,50,50,10,15,6,5,0.5,0.5
2023-08-14T11:00:00,2288A,117.7439,30.8792,铜陵市,市第九中学,,42,42,54,20,21,132,75,51,32,15,22,2,2,1.0,1
2023-08-14T11:00:00,2289A,117.846,30.9413,铜陵市,车站新区,细颗粒物(PM2.5),58,47,37,41,22,151,79,74,31,16,18,3,5,0.4,0.5
2023-08-14T11:00:00,2290A,117.8483,30.97,铜陵市,市职教基地,,37,37,28,21,13,135,74,72,43,10,11,11,4,0.8,0.7
2023-08-14T11:00:00,2291A,117.0809,30.5177,安庆市,环科院,,45,38,29,31,21,105,105,88,79,8,17,5,7,0.7,0.7
2023-08-14T11:00:00,2292A,117.0331,30.5119,安庆市,马山宾馆,,43,34,28,30,22,111,111,92,84,9,15,5,5,0.9,0.9
2023-08-14T11:00:00,2294A,116.9896,30.6145,安庆市,安庆大学,,34,34,34,21,18,117,108,74,74,6,16,4,4,0.7,0.6
2023-08-14T11:00:00,2295A,118.2903,29.6963,黄山市,延安路89号,,40,40,30,12,7,112,50,26,22,5,5,6,6,0.7,0.7
2023-08-14T11:00:00,2296A,118.327,29.7178,黄山市,黄山东路89号,,35,35,19,1,7,109,43,30,25,10,7,7,6,0.5,0.5
2023-08-14T11:00:00,2297A,118.1371,30.2756,黄山市,黄山区政府5号楼,,31,22,28,16,10,99,98,30,30,5,7,7,7,0.5,0.5
2023-08-14T11:00:00,2298A,118.3093,32.3153,滁州市,老年大学,,38,38,26,21,13,140,103,82,72,8,9,7,5,0.4,0.3
2023-08-14T11:00:00,2299A,118.3244,32.2786,滁州市,人大宾馆,,39,38,21,27,15,149,101,110,85,12,8,8,7,0.4,0.4
2023-08-14T11:00:00,2301A,115.8277,32.8929,阜阳市,市监测站,,39,18,21,12,11,125,124,118,81,8,14,6,6,0.6,0.6
2023-08-14T11:00:00,2303A,115.8554,32.8605,阜阳市,开发区,,39,21,18,9,9,125,122,112,80,9,13,6,7,0.6,0.6
2023-08-14T11:00:00,2307A,116.5079,31.737,六安市,监测大楼,,38,35,23,15,9,123,120,95,80,6,5,6,5,0.6,0.5
2023-08-14T11:00:00,2308A,116.4738,31.7643,六安市,皖西学院,,44,44,29,18,10,124,124,80,73,6,8,6,5,0.4,0.3
2023-08-14T11:00:00,2309A,116.4996,31.7905,六安市,朝阳厂,,49,32,15,34,13,129,121,83,72,6,6,10,8,0.7,0.6
2023-08-14T11:00:00,2310A,116.5567,31.7886,六安市,开发区,,45,45,31,25,19,115,112,82,66,4,9,7,7,0.7,0.6
2023-08-14T11:00:00,2311A,115.8072,33.8399,亳州市,污水处理厂,,44,29,29,15,14,140,140,67,67,3,10,8,9,0.6,0.7
2023-08-14T11:00:00,2312A,115.7789,33.8518,亳州市,三国揽胜宫,,44,24,28,17,15,138,138,84,84,6,10,7,8,0.8,0.9
2023-08-14T11:00:00,2314A,117.47,30.6618,池州市,池州学院,,50,47,32,35,23,117,77,80,65,15,8,12,6,0.7,0.6
2023-08-14T11:00:00,2316A,118.7581,30.9454,宣城市,鳌峰子站,,43,37,33,30,21,124,84,64,64,15,16,5,5,0.8,0.6
2023-08-14T11:00:00,2317A,118.7385,30.9743,宣城市,敬亭山子站,,,,34,32,23,137,90,65,65,15,15,9,5,0.8,0.7
2023-08-14T11:00:00,2318A,118.7173,30.9427,宣城市,开发区子站,,43,37,31,30,21,122,85,58,56,9,14,6,5,0.6,0.5
2023-08-14T11:00:00,2319A,119.0141,25.4325,莆田市,荔城区仓后路,颗粒物(PM10),52,53,33,32,17,104,104,53,53,11,11,8,8,0.7,0.7
2023-08-14T11:00:00,2320A,119.0015,25.4553,莆田市,莆田市监测站,,46,46,35,18,16,103,92,47,47,7,8,6,6,0.5,0.4
2023-08-14T11:00:00,2321A,119.1119,25.4561,莆田市,涵江区六中,颗粒物(PM10),53,55,34,30,14,122,122,51,51,10,14,9,8,0.6,0.6
2023-08-14T11:00:00,2322A,119.1013,25.3215,莆田市,秀屿区政府,颗粒物(PM10),51,52,26,32,13,118,118,56,56,12,9,10,9,0.8,0.7
2023-08-14T11:00:00,2323A,118.981,25.4792,莆田市,东圳水库,,,,,,,,,,,,,,,,
2023-08-14T11:00:00,2324A,117.6211,26.2625,三明市,三钢,,35,34,33,24,20,105,68,33,28,10,15,12,13,0.7,1
2023-08-14T11:00:00,2325A,117.635,26.2714,三明市,三明二中,,36,36,27,22,16,110,73,40,32,13,17,8,7,0.8,0.9
2023-08-14T11:00:00,2326A,117.6028,26.2378,三明市,三元区政府,,,33,27,21,17,114,65,40,26,,13,14,11,0.7,0.7
2023-08-14T11:00:00,2327A,117.7275,26.3108,三明市,洋溪,,,,,,,,,,,,,,,,
2023-08-14T11:00:00,2331A,118.0966,26.6761,南平市,茫荡山,,,,,,,,,,,,,,,,
2023-08-14T11:00:00,2332A,118.1681,26.6369,南平市,南平市监测站,,26,26,22,16,8,104,82,52,45,4,6,6,4,0.7,0.6
2023-08-14T11:00:00,2333A,118.1825,26.6489,南平市,南平铝业有限公司,,25,25,19,16,10,98,73,55,48,6,7,8,7,0.7,0.7
2023-08-14T11:00:00,2334A,118.1756,26.6272,南平市,南平七中,,26,22,20,16,10,102,82,54,45,4,4,5,4,0.6,0.5
2023-08-14T11:00:00,2335A,117.0189,25.1181,龙岩市,龙岩师专,,,,,,,,,,,,,,,,
2023-08-14T11:00:00,2336A,117.0217,25.1033,龙岩市,龙岩市监测站,,23,23,19,9,9,74,64,51,50,9,10,4,3,0.4,0.3
2023-08-14T11:00:00,2337A,117.0258,25.0661,龙岩市,闽西职业技术学院,,31,31,23,8,9,71,67,54,54,6,8,3,4,0.3,0.4
2023-08-14T11:00:00,2338A,117.0196,25.0306,龙岩市,龙岩学院,,23,14,17,5,8,71,71,56,56,4,4,6,3,0.3,0.3
2023-08-14T11:00:00,2339A,119.5001,26.6946,宁德市,金涵水库,,,,,,,,,,,,,,,,
2023-08-14T11:00:00,2341A,119.5388,26.6612,宁德市,宁德市监测站,,44,44,30,14,16,114,83,50,40,9,12,4,4,0.6,0.6
2023-08-14T11:00:00,2342A,117.3102,29.3867,景德镇市,王港中学,,25,14,20,17,11,109,36,18,18,2,2,4,2,0.6,0.5
2023-08-14T11:00:00,2343A,117.2117,29.2933,景德镇市,老干部活动中心,,36,35,27,25,18,129,48,28,23,11,12,4,7,0.4,0.4
2023-08-14T11:00:00,2344A,117.1894,29.2789,景德镇市,兽医站,,45,45,31,30,22,136,52,30,21,13,14,9,10,0.6,0.5
2023-08-14T11:00:00,2345A,117.1547,29.2617,景德镇市,台达陶瓷,,,30,28,12,18,104,80,37,29,,16,11,24,0.5,0.5
2023-08-14T11:00:00,2346A,117.2461,29.2956,景德镇市,陶研所,,39,39,34,20,13,132,50,23,23,15,13,5,8,0.4,0.4
2023-08-14T11:00:00,2347A,114.0997,27.5002,萍乡市,武功山,,,35,9,,9,136,66,31,31,,4,20,21,,0.2
2023-08-14T11:00:00,2348A,113.8385,27.6434,萍乡市,中医院,,40,31,29,28,21,117,87,55,50,14,11,22,12,1.0,0.7
2023-08-14T11:00:00,2349A,113.8493,27.6253,萍乡市,市政府车库,,39,36,29,27,18,128,100,68,54,7,10,19,17,0.4,0.4
2023-08-14T11:00:00,2350A,113.8676,27.6435,萍乡市,市环保局,,40,38,25,28,16,117,82,55,51,12,9,23,18,0.7,0.4
2023-08-14T11:00:00,2351A,113.866,27.6198,萍乡市,安源区政府,,30,20,26,21,15,124,95,60,53,7,9,16,15,0.6,0.6
2023-08-14T11:00:00,2352A,115.0861,27.9317,新余市,北岗,,30,24,26,21,15,120,86,32,32,1,6,10,9,0.7,0.7
2023-08-14T11:00:00,2353A,114.9886,27.8431,新余市,飞宇,,50,50,43,22,20,107,83,37,36,6,14,5,8,0.8,0.8
2023-08-14T11:00:00,2354A,114.9231,27.8246,新余市,第二水厂,颗粒物(PM10),56,61,46,26,17,101,61,46,35,38,15,12,9,2.1,0.5
2023-08-14T11:00:00,2355A,114.9308,27.8036,新余市,市气象局,,47,47,36,28,21,99,60,33,32,21,12,6,7,2.5,1.1
2023-08-14T11:00:00,2357A,116.9822,28.1136,鹰潭市,龙虎山,,,4,14,10,10,80,70,57,57,1,3,,3,0.7,0.7
2023-08-14T11:00:00,2358A,117.0564,28.2642,鹰潭市,新监测站,,,26,24,7,10,109,52,66,57,,4,4,7,,0.4
2023-08-14T11:00:00,2359A,117.0311,28.2475,鹰潭市,财苑宾馆,,19,19,20,6,9,98,58,67,60,7,5,2,5,0.3,0.4
2023-08-14T11:00:00,2360A,117.0222,28.2264,鹰潭市,体育馆,,26,26,23,8,8,99,61,68,55,13,6,2,3,0.3,0.3
2023-08-14T11:00:00,2361A,117.0017,28.2131,鹰潭市,三川水表,,24,17,20,3,12,100,74,62,56,1,3,1,2,0.4,0.4
2023-08-14T11:00:00,2362A,114.9017,25.9149,赣州市,通天岩,,,,,,,,,,,,,,,,
2023-08-14T11:00:00,2363A,114.9367,25.8664,赣州市,地委,,49,49,35,2,16,143,106,36,36,11,10,7,8,1.1,1
2023-08-14T11:00:00,2364A,114.9461,25.8481,赣州市,气象台,,40,40,28,17,15,137,117,39,39,13,15,7,6,0.7,0.7
2023-08-14T11:00:00,2365A,114.9322,25.8333,赣州市,市图书馆,颗粒物(PM10),63,76,44,24,20,122,110,45,45,13,14,4,4,1.0,1.1
2023-08-14T11:00:00,2366A,114.8905,25.8471,赣州市,华坚鞋城,,38,38,35,17,16,128,106,40,38,9,12,7,9,0.8,0.8
2023-08-14T11:00:00,2367A,114.9754,27.0803,吉安市,红声器材厂,,41,41,30,27,15,102,85,53,48,10,10,13,12,0.7,0.6
2023-08-14T11:00:00,2368A,114.9658,27.0999,吉安市,市森林工业局,细颗粒物(PM2.5),58,37,27,41,17,100,84,51,51,4,6,6,7,0.2,0.2
2023-08-14T11:00:00,2369A,114.99,27.1312,吉安市,市环境监测站,,41,41,28,23,14,99,79,48,45,8,9,7,8,0.7,0.6
2023-08-14T11:00:00,2370A,115.0093,27.0968,吉安市,青原区法院,,36,36,26,20,16,114,96,53,53,11,10,14,15,0.5,0.5
2023-08-14T11:00:00,2371A,114.3408,27.8064,宜春市,槟榔水业,,34,34,26,18,14,107,94,32,32,8,10,14,3,0.8,0.6
2023-08-14T11:00:00,2373A,114.3956,27.7844,宜春市,市石油公司,,40,40,30,22,16,106,98,30,30,10,9,10,4,1.0,0.6
2023-08-14T11:00:00,2374A,114.3703,27.7914,宜春市,市气象局,,40,40,31,27,19,111,102,38,33,12,13,5,5,1.3,0.8
2023-08-14T11:00:00,2375A,114.4013,27.8074,宜春市,市广电局,颗粒物(PM10),51,51,31,18,18,111,102,39,34,11,10,14,12,1.2,0.7
2023-08-14T11:00:00,2376A,116.2127,28.0814,抚州市,桐源党溪,,30,29,21,12,9,125,96,51,51,3,3,2,5,0.9,0.7
2023-08-14T11:00:00,2377A,116.3544,27.9831,抚州市,市站,,28,28,26,16,16,101,79,70,70,3,6,17,10,0.7,0.8
2023-08-14T11:00:00,2378A,116.3565,27.963,抚州市,血防站,,,,28,,11,104,81,66,66,,3,6,5,0.6,0.8
2023-08-14T11:00:00,2379A,116.3564,28.0007,抚州市,采茶剧团,,31,31,20,17,12,107,77,65,65,4,4,9,6,0.7,0.5
2023-08-14T11:00:00,2380A,116.385,27.9647,抚州市,医学分院,,29,29,21,16,11,99,80,68,68,5,7,9,8,1.0,1
2023-08-14T11:00:00,2381A,118.005,28.4572,上饶市,百草园,,27,27,22,10,12,112,65,43,37,7,6,21,5,0.7,0.6
2023-08-14T11:00:00,2382A,117.9756,28.4436,上饶市,市监测站,,26,26,18,16,10,119,77,71,52,9,7,28,10,0.5,0.5
2023-08-14T11:00:00,2383A,117.9519,28.4628,上饶市,凤凰光学,,26,26,20,12,9,110,76,70,54,5,6,15,9,0.7,0.7
2023-08-14T11:00:00,2385A,114.17,35.9019,鹤壁市,市监测站,,45,40,35,21,25,176,142,78,78,8,18,7,4,0.8,0.8
2023-08-14T11:00:00,2386A,114.2956,35.7511,鹤壁市,市交警支队,,42,35,42,20,25,151,134,60,60,7,24,10,9,0.5,0.7
2023-08-14T11:00:00,2387A,114.2878,35.7306,鹤壁市,迎宾馆,,45,33,32,31,27,156,135,61,61,6,19,8,7,0.6,0.8
2023-08-14T11:00:00,2389A,113.836,35.311,新乡市,环保西院,,45,40,40,24,23,166,142,75,75,10,16,4,4,0.8,0.9
2023-08-14T11:00:00,2390A,113.884,35.272,新乡市,开发区,,47,25,34,17,23,162,149,79,79,3,14,3,5,0.6,0.7
2023-08-14T11:00:00,2391A,113.883,35.303,新乡市,环保东院,,46,41,50,17,20,163,146,78,78,9,16,3,3,0.5,0.6
2023-08-14T11:00:00,2392A,115.0312,35.7636,濮阳市,环保局,,,35,30,13,18,144,135,95,95,,11,5,5,0.6,0.7
2023-08-14T11:00:00,2394A,115.0574,35.7609,濮阳市,油田运输公司,,,34,35,13,21,149,137,96,96,6,12,,6,0.4,0.6
2023-08-14T11:00:00,2395A,115.0866,35.7754,濮阳市,油田物探公司,,43,26,40,12,22,153,137,86,86,5,11,4,4,0.7,0.8
2023-08-14T11:00:00,2396A,113.8276,34.0159,许昌市,监测站,,46,40,37,16,21,164,145,94,76,9,15,3,4,0.5,0.5
2023-08-14T11:00:00,2398A,113.7906,33.9953,许昌市,开发区,,48,26,39,21,22,164,152,78,78,8,15,2,3,0.6,0.6
2023-08-14T11:00:00,2399A,114.051,33.5699,漯河市,三五一五工厂,,,,28,,18,148,143,104,97,,8,,10,0.5,0.5
2023-08-14T11:00:00,2400A,114.0055,33.5698,漯河市,漯河大学,,50,32,29,21,20,158,158,122,117,2,5,9,8,0.5,0.5
2023-08-14T11:00:00,2401A,114.0138,33.5828,漯河市,市水利局,,47,31,28,17,18,150,150,106,106,5,8,8,8,0.7,0.7
2023-08-14T11:00:00,2402A,114.0261,33.5698,漯河市,市广电局,,49,32,30,22,19,155,155,118,114,7,10,6,7,0.6,0.6
2023-08-14T11:00:00,2404A,112.5224,33.0122,南阳市,瓦房庄,,43,39,34,21,15,140,136,107,92,12,14,6,7,0.5,0.5
2023-08-14T11:00:00,2405A,112.5003,32.9735,南阳市,汉画馆,,44,35,32,19,20,145,140,98,88,9,14,6,6,0.5,0.4
2023-08-14T11:00:00,2406A,112.5573,33.027,南阳市,气象站,,,,35,,25,144,125,92,77,7,11,5,5,0.6,0.5
2023-08-14T11:00:00,2407A,112.5481,32.9689,南阳市,理工学院,,47,31,32,19,16,151,148,105,105,5,10,7,8,0.5,0.5
2023-08-14T11:00:00,2408A,115.6702,34.4285,商丘市,环境监测站,,44,9,34,14,20,139,139,76,62,6,18,6,6,0.5,0.7
2023-08-14T11:00:00,2409A,115.6458,34.4045,商丘市,粮食局,,,10,30,13,17,127,127,83,67,5,13,,4,0.5,0.6
2023-08-14T11:00:00,2410A,115.6293,34.3948,商丘市,睢阳区环保局,,45,35,34,18,19,144,141,92,59,6,13,5,5,0.5,0.6
2023-08-14T11:00:00,2420A,114.0189,32.9656,驻马店市,市一纸厂,,46,26,26,17,14,147,146,100,90,4,9,6,6,0.5,0.3
2023-08-14T11:00:00,2421A,114.0114,33.015,驻马店市,市彩印厂,,,,33,20,16,149,145,95,84,7,12,8,8,0.5,0.4
2023-08-14T11:00:00,2422A,113.9976,32.9771,驻马店市,天方二分厂,,45,29,26,20,18,141,141,100,84,4,8,5,5,0.6,0.5
2023-08-14T11:00:00,2423A,115.0601,30.2313,黄石市,沈家营,颗粒物(PM10),61,72,78,18,22,173,104,43,43,12,14,7,5,0.2,0.4
2023-08-14T11:00:00,2424A,115.0817,30.2006,黄石市,陈家湾,,42,42,66,19,23,171,104,44,44,10,6,9,6,0.7,0.7
2023-08-14T11:00:00,2426A,114.8988,30.2019,黄石市,铁山,颗粒物(PM10),57,63,41,31,22,146,74,51,28,28,18,34,12,2.3,1.2
2023-08-14T11:00:00,2427A,115.0307,30.2092,黄石市,团城山,颗粒物(PM10),57,64,56,16,16,102,97,44,44,11,16,12,11,0.6,0.6
2023-08-14T11:00:00,2428A,111.0419,32.395,十堰市,武当山,,37,27,19,19,10,117,117,96,90,5,5,9,8,0.8,0.7
2023-08-14T11:00:00,2429A,110.78,32.6494,十堰市,滨河新村,,36,33,31,18,16,124,113,46,46,9,10,6,6,0.8,0.7
2023-08-14T11:00:00,2430A,110.7258,32.6389,十堰市,刘家沟,,41,32,27,18,15,132,131,53,49,6,6,6,6,0.6,0.5
2023-08-14T11:00:00,2431A,110.8839,32.5714,十堰市,铁二处,,47,35,23,13,9,148,148,64,64,7,4,6,5,0.6,0.5
2023-08-14T11:00:00,2432A,112.155,32.0197,襄阳市,襄城运动路,,42,42,33,21,17,143,133,80,59,16,17,18,14,0.8,0.7
2023-08-14T11:00:00,2433A,112.1392,32.0564,襄阳市,樊城新华路,,46,46,36,27,24,148,137,91,60,10,14,7,9,0.7,0.7
2023-08-14T11:00:00,2434A,112.1825,32.1142,襄阳市,高新管委会,,48,34,37,27,31,152,152,83,62,9,19,5,7,0.7,0.7
2023-08-14T11:00:00,2435A,112.2106,32.0903,襄阳市,襄州航空路,,41,41,36,17,19,139,126,72,58,10,19,7,7,0.8,0.7
2023-08-14T11:00:00,2436A,114.8938,30.3994,鄂州市,市政府,,43,43,55,17,20,132,85,54,43,14,16,6,7,0.5,0.6
2023-08-14T11:00:00,2437A,114.8989,30.3714,鄂州市,赵家坝,颗粒物(PM10),53,55,52,18,19,142,97,51,43,16,19,3,5,0.4,0.6
2023-08-14T11:00:00,2439A,112.2014,31.0481,荆门市,竹园小学,,46,46,34,27,16,151,134,81,78,7,13,9,9,0.7,0.8
2023-08-14T11:00:00,2440A,112.1969,30.9891,荆门市,掇刀,,42,36,32,19,15,139,132,90,90,7,12,9,10,0.6,0.6
2023-08-14T11:00:00,2441A,112.2213,31.0386,荆门市,石化一小,,42,32,38,26,18,147,133,80,80,10,16,11,8,0.5,0.5
2023-08-14T11:00:00,2443A,113.9153,30.9285,孝感市,文化路,,38,15,19,19,14,121,121,90,80,5,6,7,7,0.7,0.7
2023-08-14T11:00:00,2444A,113.942,30.9075,孝感市,东城区,,39,30,21,15,12,123,123,80,80,4,6,6,7,0.8,0.7
2023-08-14T11:00:00,2446A,114.9028,30.4742,黄冈市,职工中心,,39,38,38,27,24,146,76,72,65,4,4,8,10,0.7,0.7
2023-08-14T11:00:00,2447A,114.3175,29.8142,咸宁市,森林公园,,,21,22,7,12,149,,99,68,4,4,5,5,0.8,0.7
2023-08-14T11:00:00,2448A,114.3107,29.8454,咸宁市,市发改委,,36,34,26,13,15,158,113,85,70,5,4,8,6,0.6,0.5
2023-08-14T11:00:00,2449A,114.2936,29.8566,咸宁市,咸安区政府,,31,31,22,20,15,149,99,64,64,11,9,8,5,0.6,0.5
2023-08-14T11:00:00,2451A,113.3583,31.7275,随州市,市委党校,,38,31,24,23,17,121,121,82,62,1,5,7,7,0.9,0.7
2023-08-14T11:00:00,2452A,113.3833,31.6908,随州市,市林业局,,41,27,21,19,15,129,129,88,67,4,8,4,4,0.8,0.7
2023-08-14T11:00:00,2453A,113.3983,31.7308,随州市,市立交桥水厂,,39,22,21,20,14,124,124,71,66,2,8,7,7,0.9,0.7
2023-08-14T11:00:00,2454A,109.4978,30.2981,恩施土家族苗族自治州,湖北民院,,,,,,,,,,,,,,,,
2023-08-14T11:00:00,2455A,109.4707,30.2798,恩施土家族苗族自治州,州电力总公司,,23,23,19,6,9,88,54,24,24,13,16,10,10,0.7,0.7
2023-08-14T11:00:00,2456A,112.5003,26.9167,衡阳市,原169医院,,50,50,32,22,18,95,88,40,40,6,9,6,9,0.4,0.3
2023-08-14T11:00:00,2457A,112.6194,26.9258,衡阳市,衡阳化工总厂,细颗粒物(PM2.5),63,73,41,45,22,127,110,48,46,6,13,8,13,0.8,0.7
2023-08-14T11:00:00,2458A,112.6211,26.8956,衡阳市,珠晖区环保局,,,67,36,,,126,96,49,49,12,14,6,7,0.9,0.7
2023-08-14T11:00:00,2459A,112.6197,26.8733,衡阳市,市委党校,细颗粒物(PM2.5),53,52,38,37,20,130,112,51,51,8,14,9,9,0.9,1.1
2023-08-14T11:00:00,2460A,112.6006,26.8919,衡阳市,市监测站,细颗粒物(PM2.5),57,55,33,40,20,126,98,64,56,12,13,9,11,0.9,0.8
2023-08-14T11:00:00,2461A,112.5664,26.9056,衡阳市,真空机电公司,,,54,34,,18,123,84,66,49,14,12,6,10,0.9,0.8
2023-08-14T11:00:00,2462A,111.5239,27.3033,邵阳市,市水土所,,,27,30,23,29,144,74,51,51,,6,4,8,0.6,0.6
2023-08-14T11:00:00,2463A,111.4733,27.2317,邵阳市,市一中,,40,40,40,15,22,159,100,85,85,9,8,11,12,0.6,0.5
2023-08-14T11:00:00,2464A,111.5283,27.2442,邵阳市,市化工厂,,32,22,31,13,20,158,100,75,75,10,11,7,13,0.7,0.7
2023-08-14T11:00:00,2465A,111.4503,27.2537,邵阳市,市罐头厂,,38,38,30,17,22,122,82,72,72,10,8,10,6,0.6,0.6
2023-08-14T11:00:00,2466A,111.4328,27.2272,邵阳市,市环保局,,37,37,31,20,21,139,85,78,78,12,7,13,8,0.6,0.6
2023-08-14T11:00:00,2467A,112.4067,28.6428,益阳市,甘溪港,,34,34,28,5,7,90,68,42,41,5,8,6,6,0.5,0.5
2023-08-14T11:00:00,2468A,112.3458,28.5808,益阳市,市环保局,,26,23,22,18,13,107,80,66,62,7,7,9,9,0.8,0.8
2023-08-14T11:00:00,2469A,112.3437,28.5531,益阳市,市特殊教育学校,,33,33,31,14,22,110,80,72,64,9,10,6,5,0.8,0.7
2023-08-14T11:00:00,2470A,112.3347,28.6047,益阳市,资阳区政务中心,,24,18,20,5,14,108,74,70,59,4,5,7,6,0.9,0.8
2023-08-14T11:00:00,2471A,112.3744,28.5819,益阳市,赫山环保分局,,,26,25,16,13,107,78,74,64,,5,9,9,0.8,0.8
2023-08-14T11:00:00,2472A,113.0073,25.9061,郴州市,马头岭,,32,28,29,21,17,104,101,35,35,8,19,22,10,0.5,0.6
2023-08-14T11:00:00,2473A,113.0116,25.8226,郴州市,市职中,,37,24,29,22,23,122,116,53,53,7,17,15,7,0.6,0.6
2023-08-14T11:00:00,2474A,113.0161,25.8001,郴州市,兴隆步行街,,39,39,40,24,20,125,104,45,41,11,18,13,8,0.7,0.6
2023-08-14T11:00:00,2475A,113.0383,25.8071,郴州市,市审计局,,37,37,31,24,24,130,105,45,45,6,11,15,9,0.6,0.6
2023-08-14T11:00:00,2476A,113.0348,25.7759,郴州市,市环保局,细颗粒物(PM2.5),59,44,41,42,29,126,90,29,29,15,20,17,5,0.8,0.7
2023-08-14T11:00:00,2477A,111.6217,26.2081,永州市,零陵南津渡,,46,17,30,32,27,117,110,65,65,6,7,8,9,0.7,0.7
2023-08-14T11:00:00,2478A,111.6156,26.4214,永州市,市环境监测站,,45,40,37,31,25,116,104,78,72,6,9,8,9,0.6,0.6
2023-08-14T11:00:00,2479A,111.6236,26.2331,永州市,零陵区环保局,,39,39,41,27,28,121,109,80,66,10,12,10,12,0.7,0.6
2023-08-14T11:00:00,2480A,111.5992,26.4364,永州市,永州市环保局,,49,44,40,34,28,114,103,74,60,7,9,9,10,0.7,0.7
2023-08-14T11:00:00,2481A,111.5989,26.4519,永州市,冷水滩区环保局,,42,38,39,29,27,116,101,75,72,8,11,8,8,0.8,0.7
2023-08-14T11:00:00,2482A,109.5981,27.5721,怀化市,林科所,,22,12,21,6,12,84,68,67,59,2,3,4,5,0.7,0.8
2023-08-14T11:00:00,2483A,109.9453,27.5444,怀化市,河西地税局,,21,15,21,9,16,80,65,72,66,15,7,5,6,0.7,0.6
