timepoint,stationcode,longitude,latitude,area,positionname,primarypollutant,aqi,pm10,pm10_24h,pm2_5,pm2_5_24h,o3,o3_24h,o3_8h,o3_8h_24h,no2,no2_24h,so2,so2_24h,co,co_24h
2024-10-20T2100,2566A,102.1879,31.914,阿坝藏族羌族自治州,州农科所,,35,35,26,12,13,25,,59,50,20,11,10,10,0,0
2024-10-20T2100,2568A,102.2502,31.8896,阿坝藏族羌族自治州,马师校,,39,38,21,27,16,18,,68,55,22,9,4,4,0.3,0.3
2024-10-20T2100,3994A,102.2165,31.9024,阿坝藏族羌族自治州,马尔康中学西区,,39,39,23,18,15,29,,72,62,17,8,5,5,0.5,0.4
2024-10-20T2100,2695A,80.292,41.1694,阿克苏地区,电视台,颗粒物(PM10),114,177,105,45,32,64,,98,98,40,31,3,3,0.7,0.6
2024-10-20T2100,2696A,80.2613,41.1551,阿克苏地区,艺术中心,颗粒物(PM10),113,175,112,44,37,38,,98,90,48,35,4,4,0.6,0.7
2024-10-20T2100,2204A,105.6467,38.8363,阿拉善盟,西城区西花园,颗粒物(PM10),70,89,72,28,29,63,,101,93,27,9,7,8,0.9,0.7
2024-10-20T2100,2205A,105.6985,38.8411,阿拉善盟,蒙二幼,颗粒物(PM10),74,97,66,26,19,57,,96,88,31,11,9,9,0.7,0.6
2024-10-20T2100,2206A,105.724,38.8516,阿拉善盟,环保局新楼,,50,50,55,17,19,84,,93,89,13,10,9,9,0.5,0.6
2024-10-20T2100,2708A,88.1264,47.8517,阿勒泰地区,市站,,18,16,10,8,7,57,,60,60,16,13,7,8,0.1,0.1
2024-10-20T2100,2630A,80.1161,32.5,阿里地区,阿里监测站,,28,11,12,6,5,89,,102,102,12,7,6,6,0.4,0.4
2024-10-20T2100,3192A,80.0903,32.5028,阿里地区,阿里藏医院,,,,18,,6,,,104,104,16,10,12,9,0.4,0.4
2024-10-20T2100,2642A,109.0318,32.6537,安康市,香溪洞,,16,7,14,3,6,49,,65,47,6,5,8,8,0.2,0.2
2024-10-20T2100,2643A,109.0281,32.6939,安康市,安康市监测站,,,,,,,,,,,,,,,,
2024-10-20T2100,2644A,109.0072,32.6975,安康市,汉滨区检察院,,18,,16,8,10,55,,70,54,9,10,8,9,0.4,0.4
2024-10-20T2100,2291A,117.0809,30.5177,安庆市,环科院,,43,43,37,16,16,77,,70,70,16,18,8,8,0.4,0.4
2024-10-20T2100,2292A,117.0331,30.5119,安庆市,马山宾馆,,39,39,38,16,17,76,,73,73,22,19,8,7,0.4,0.4
2024-10-20T2100,2294A,116.9896,30.6145,安庆市,安庆大学,,45,45,37,19,16,69,,75,75,14,13,8,9,0.5,0.5
2024-10-20T2100,3173A,117.0598,30.5351,安庆市,市人大,,40,40,38,15,18,72,,66,66,25,23,10,10,0.5,0.4
2024-10-20T2100,3122A,105.9606,26.2611,安顺市,伍家关,,23,12,14,3,7,71,,55,55,4,4,2,3,0.3,0.4
2024-10-20T2100,3123A,105.9408,26.2431,安顺市,凤凰山,,24,9,19,3,15,75,,67,65,6,5,5,6,0.2,0.3
2024-10-20T2100,3124A,105.9439,26.2564,安顺市,金钟山,,25,10,23,3,18,80,,67,67,5,5,7,8,0.5,0.5
2024-10-20T2100,3125A,105.8983,26.2481,安顺市,娄家坡,,26,6,15,3,15,81,,69,67,5,5,5,6,0.4,0.4
2024-10-20T2100,1818A,114.4839,36.0621,安阳市,棉研所,,24,24,26,14,13,40,,60,51,29,27,6,7,0.4,0.4
2024-10-20T2100,1819A,114.3551,36.1017,安阳市,红庙街,,31,31,29,13,12,33,,55,48,25,17,3,5,0.7,0.7
2024-10-20T2100,1820A,114.361,36.0681,安阳市,银杏小区,,18,13,25,10,7,30,,57,49,36,19,2,4,0.4,0.4
2024-10-20T2100,3141A,114.3922,36.0878,安阳市,信访局,,25,25,28,13,10,30,,54,46,24,16,2,4,0.3,0.3
2024-10-20T2100,3669A,114.4705,36.0637,安阳市,左辅环卫站,,32,32,32,14,10,38,,56,49,22,21,2,3,0.7,0.6
2024-10-20T2100,3703A,114.2917,36.0949,安阳市,安钢职工学校,,24,24,31,16,12,34,,55,47,24,19,2,4,0.4,0.4
2024-10-20T2100,1748A,123.044,41.1196,鞍山市,深沟寺,,36,36,54,11,20,77,,74,74,4,29,4,12,0.5,1.1
2024-10-20T2100,1749A,123.011,41.0931,鞍山市,太阳城,,28,28,43,13,21,79,,74,74,6,27,8,13,0.3,0.6
2024-10-20T2100,1750A,123.0485,41.1442,鞍山市,太平,,30,30,71,11,27,74,,68,68,8,35,8,21,0.6,1.2
2024-10-20T2100,1751A,122.9642,41.0971,鞍山市,铁西三道街,,40,40,62,7,27,71,,59,59,10,33,5,15,0.5,0.9
2024-10-20T2100,1752A,122.9341,41.0833,鞍山市,铁西工业园区,,32,32,70,8,36,77,,67,67,9,42,8,29,0.5,1.6
2024-10-20T2100,1753A,123.022,41.0821,鞍山市,明达新区,,30,30,43,12,19,76,,69,69,4,23,6,12,0.4,0.8
2024-10-20T2100,1754A,123.1289,41.0228,鞍山市,千山,,,,35,,13,,,44,,,20,,2,,0.5
2024-10-20T2100,2195A,107.4212,40.761,巴彦淖尔市,附二中,颗粒物(PM10),99,147,89,51,32,70,,82,81,15,11,3,4,0.5,0.6
2024-10-20T2100,2196A,107.37,40.7372,巴彦淖尔市,市环保大楼,颗粒物(PM10),90,130,79,34,25,73,,83,82,8,8,4,3,0.3,0.4
2024-10-20T2100,1956A,86.1472,41.7538,巴音郭楞蒙古自治州,孔雀公园,,50,50,57,14,17,53,,75,74,48,46,3,6,0.4,0.4
2024-10-20T2100,1957A,86.1972,41.7166,巴音郭楞蒙古自治州,棉纺厂,颗粒物(PM10),53,56,82,8,20,80,,85,85,18,37,2,2,0.3,0.4
2024-10-20T2100,1958A,86.2357,41.7173,巴音郭楞蒙古自治州,经济开发区,,42,42,79,14,21,90,,90,90,7,17,2,2,0.4,0.4
2024-10-20T2100,2914A,106.7677,31.8794,巴中市,苏山坪,,13,6,6,3,2,41,,69,48,6,5,3,3,0.3,0.3
2024-10-20T2100,3182A,106.7656,31.8545,巴中市,丽阳花园,,13,13,8,9,6,21,,63,46,22,11,5,5,0.6,0.5
2024-10-20T2100,3183A,106.7418,31.8654,巴中市,圣泉水务公司,,16,16,6,8,6,11,,67,43,29,10,4,4,0.6,0.5
2024-10-20T2100,3616A,106.7616,31.8344,巴中市,市中心医院,,9,8,7,3,4,24,,62,46,17,9,5,5,0.6,0.5
2024-10-20T2100,2235A,122.7911,45.6077,白城市,洮北区环保局,,33,33,27,8,8,43,,50,47,22,14,9,7,0.3,0.3
2024-10-20T2100,2236A,122.8738,45.5725,白城市,市环保局,,31,31,36,17,12,49,,58,50,14,14,6,6,0.5,0.5
2024-10-20T2100,2231A,126.4219,41.9171,白山市,喜丰,颗粒物(PM10),95,139,48,24,12,8,,60,39,52,22,13,13,0.7,0.4
2024-10-20T2100,2232A,126.4077,41.9419,白山市,环保局,颗粒物(PM10),78,106,50,28,11,5,,49,27,44,21,10,9,1.0,0.5
2024-10-20T2100,2647A,104.1724,36.5446,白银市,第三小学,颗粒物(PM10),65,79,39,26,15,39,,92,76,49,18,41,16,0.9,0.7
2024-10-20T2100,2648A,104.1465,36.5482,白银市,动力公司,颗粒物(PM10),67,84,36,21,12,7,,93,73,72,16,8,5,0.9,0.7
2024-10-20T2100,2512A,106.6103,23.9011,百色市,市监测站,,29,26,32,20,18,30,,51,45,15,18,9,10,0.9,0.8
2024-10-20T2100,2513A,106.6538,23.8859,百色市,市中心血站,,31,31,36,19,21,21,,46,41,28,20,5,8,0.8,0.7
2024-10-20T2100,3406A,106.6085,23.8798,百色市,祈福高中,,45,45,45,24,20,12,,43,36,29,19,13,9,1.0,0.9
2024-10-20T2100,2270A,117.396,32.939,蚌埠市,工人疗养院,颗粒物(PM10),55,60,47,38,19,66,,81,79,11,11,4,4,0.4,0.3
2024-10-20T2100,2271A,117.3605,32.9427,蚌埠市,百货大楼,,,83,49,,20,45,,80,75,29,14,4,4,0.3,0.2
2024-10-20T2100,2273A,117.4185,32.8911,蚌埠市,蚌埠学院,,44,44,39,20,17,60,,79,76,20,15,5,6,0.3,0.3
2024-10-20T2100,2274A,117.3533,32.9673,蚌埠市,淮上区政府,细颗粒物(PM2.5),67,73,49,48,24,36,,78,69,35,16,6,5,0.4,0.2
2024-10-20T2100,2275A,117.3145,32.8977,蚌埠市,高新区,细颗粒物(PM2.5),84,73,43,62,21,49,,78,74,33,20,7,8,0.4,0.3
2024-10-20T2100,3715A,117.3092,32.9314,蚌埠市,蚌埠田家炳中学,细颗粒物(PM2.5),75,73,48,55,21,23,,76,65,46,20,5,5,0.4,0.3
2024-10-20T2100,1585A,109.8756,40.6532,包头市,市环境监测站,,43,43,24,27,14,19,,45,30,40,29,34,16,1.3,0.9
2024-10-20T2100,1587A,109.9991,40.5842,包头市,包头八中,细颗粒物(PM2.5),60,63,38,43,20,19,,43,30,42,30,37,23,1.1,0.9
2024-10-20T2100,1588A,109.8538,40.6821,包头市,青山宾馆,,45,45,24,28,17,15,,42,28,45,30,19,13,1.3,1
2024-10-20T2100,1589A,109.8642,40.6288,包头市,惠龙物流,,42,42,25,28,13,26,,46,32,35,27,13,10,0.9,0.8
2024-10-20T2100,1590A,110.0377,40.5546,包头市,东河鸿龙湾,,34,34,21,23,11,21,,41,31,28,21,28,13,0.9,0.7
2024-10-20T2100,3283A,109.9154,40.5685,包头市,滨河大厦,,37,37,20,20,14,25,,48,35,34,25,12,10,0.7,0.6
2024-10-20T2100,3419A,109.9447,40.6261,包头市,包头市委党校,细颗粒物(PM2.5),53,46,31,37,16,25,,48,36,37,27,38,20,1.4,1.1
2024-10-20T2100,3683A,109.8331,40.6576,包头市,昆区政府,颗粒物(PM10),51,52,27,35,19,18,,43,30,42,28,34,13,1.3,0.8
2024-10-20T2100,1930A,107.185,34.3063,宝鸡市,庙沟村,,31,31,27,17,11,37,,44,42,16,15,8,7,0.5,0.5
2024-10-20T2100,1931A,107.0708,34.3017,宝鸡市,竹园沟,,45,45,32,29,17,43,,51,48,20,20,6,7,0.5,0.4
2024-10-20T2100,1932A,107.1906,34.3672,宝鸡市,三陆医院,细颗粒物(PM2.5),52,,31,36,20,45,,48,45,21,24,5,6,0.5,0.5
2024-10-20T2100,1933A,107.1431,34.3547,宝鸡市,监测站,,45,37,33,31,17,44,,53,46,24,23,6,7,0.6,0.6
2024-10-20T2100,1934A,107.1186,34.3739,宝鸡市,技工学校,,50,39,33,35,23,43,,50,44,28,27,6,7,0.6,0.5
2024-10-20T2100,1935A,107.3906,34.3528,宝鸡市,陈仓区环保局家属楼,,43,34,28,30,21,41,,50,46,24,25,8,9,0.4,0.4
2024-10-20T2100,1936A,107.2058,34.3497,宝鸡市,文理学院,,35,27,33,24,12,42,,52,47,20,21,7,8,0.4,0.4
2024-10-20T2100,1937A,107.2386,34.3622,宝鸡市,三迪小学,,43,,30,30,18,44,,50,46,29,29,7,8,0.5,0.5
2024-10-20T2100,1051A,115.493,38.8632,保定市,游泳馆,,43,43,42,27,15,19,,58,48,42,29,1,3,0.5,0.5
2024-10-20T2100,1052A,115.5213,38.8959,保定市,华电二区,,46,46,39,27,24,30,,53,48,33,33,5,7,0.7,0.6
2024-10-20T2100,1053A,115.4713,38.9108,保定市,接待中心,,42,42,41,18,14,22,,48,40,36,34,3,5,0.3,0.3
2024-10-20T2100,1054A,115.4612,38.8416,保定市,地表水厂,,42,40,42,29,22,7,,50,36,47,39,3,5,0.2,0.1
2024-10-20T2100,3581A,115.31981,38.95208,保定市,满城区生态环境分局,,24,24,42,14,13,41,,51,46,22,34,2,3,0.4,0.4
2024-10-20T2100,3582A,115.47694,38.76408,保定市,清苑区第二中学,,42,42,46,16,19,21,,51,40,45,41,5,6,0.5,0.5
2024-10-20T2100,3583A,115.62909,39.02311,保定市,徐水物探局,,20,17,35,3,13,13,,44,37,40,39,3,2,0.4,0.5
2024-10-20T2100,4004A,115.4202,38.8656,保定市,双鹰农机,,46,46,46,26,25,14,,54,41,44,40,3,2,0.5,0.4
2024-10-20T2100,4034A,115.5150,38.8590,保定市,植保所站,,50,50,48,35,26,24,,54,49,39,29,7,8,0.7,0.7
2024-10-20T2100,2594A,99.1678,25.1081,保山市,市环境监测站,,33,33,39,16,23,35,,71,64,13,10,5,5,0.6,0.6
2024-10-20T2100,2595A,99.1711,25.1328,保山市,市环保局,,40,40,41,19,22,40,,73,67,9,8,6,5,0.5,0.5
2024-10-20T2100,1866A,109.2262,21.588,北海市,牛尾岭水库,,18,13,25,12,17,29,,89,74,6,7,4,6,0.7,0.7
2024-10-20T2100,1867A,109.1436,21.4086,北海市,海滩公园,,30,27,32,10,13,96,,115,110,6,9,6,10,0.8,0.7
2024-10-20T2100,1868A,109.0981,21.4661,北海市,新市环保局,,28,28,30,17,18,89,,110,104,8,12,4,7,0.7,0.7
2024-10-20T2100,1869A,109.1778,21.5233,北海市,北海工业园,,39,39,39,20,24,63,,109,94,14,15,9,11,0.7,0.6
2024-10-20T2100,3400A,109.1911,21.4415,北海市,龙潭自来水厂,,30,29,30,17,19,95,,112,106,5,11,8,9,0.5,0.6
2024-10-20T2100,1001A,116.3621,39.8784,北京市,万寿西宫,,45,45,37,20,16,27,,40,36,30,40,2,4,0.4,0.4
2024-10-20T2100,1002A,116.2202,40.2915,北京市,定陵,,43,43,23,20,10,11,,28,24,26,21,1,3,0.3,0.2
2024-10-20T2100,1003A,116.4174,39.9289,北京市,东四,,44,44,36,20,14,29,,44,41,21,30,3,4,0.5,0.5
2024-10-20T2100,1004A,116.4072,39.8863,北京市,天坛,,38,38,27,21,14,21,,42,37,27,28,3,3,0.4,0.4
2024-10-20T2100,1005A,116.462,39.9365,北京市,农展馆,,47,47,37,23,16,29,,44,40,27,34,5,7,0.5,0.5
2024-10-20T2100,1006A,116.3392,39.9295,北京市,官园,,47,47,36,32,21,28,,38,37,27,38,5,6,0.5,0.4
2024-10-20T2100,1007A,116.2878,39.9611,北京市,海淀万柳,,41,41,34,19,12,36,,44,42,31,37,2,4,0.6,0.5
2024-10-20T2100,1008A,116.6636,40.135,北京市,顺义新城,,43,43,33,20,12,36,,44,42,23,26,3,3,0.4,0.3
2024-10-20T2100,1009A,116.6275,40.3275,北京市,怀柔镇,,34,34,21,17,10,39,,45,43,25,17,1,3,0.5,0.5
2024-10-20T2100,1010A,116.2296,40.217,北京市,昌平镇,,43,43,30,19,11,32,,36,35,25,22,4,5,0.4,0.4
2024-10-20T2100,1011A,116.3966,39.9821,北京市,奥体中心,颗粒物(PM10),51,51,34,22,14,35,,42,41,29,37,3,4,0.5,0.5
2024-10-20T2100,1012A,116.184,39.9136,北京市,古城,,50,50,47,23,17,28,,32,30,27,36,3,4,0.4,0.3
2024-10-20T2100,3281A,115.9718,40.4529,北京市,延庆夏都,,40,40,24,18,11,37,,42,39,18,17,1,2,0.4,0.3
2024-10-20T2100,3417A,117.0709,40.1465,北京市,平谷新城,,31,31,23,16,10,40,,48,46,21,16,3,2,0.4,0.4
2024-10-20T2100,3418A,116.8336,40.4095,北京市,密云新城,,37,37,32,16,11,36,,46,42,26,23,1,3,0.4,0.3
2024-10-20T2100,3671A,116.088,39.9726,北京市,门头沟三家店,,36,36,28,19,12,28,,42,38,28,30,4,4,0.4,0.3
2024-10-20T2100,3672A,116.1541,39.8204,北京市,丰台云岗,,39,39,39,20,15,27,,36,33,21,36,2,2,0.4,0.3
2024-10-20T2100,3673A,116.6804,39.9081,北京市,通州东关,,41,41,43,20,17,31,,45,42,26,36,2,4,0.4,0.4
2024-10-20T2100,3674A,115.9577,39.7603,北京市,房山燕山,,42,42,30,22,14,33,,37,36,16,27,3,2,0.3,0.3
2024-10-20T2100,3675A,116.4672,39.7733,北京市,大兴旧宫,,39,39,28,22,13,26,,44,38,26,28,1,2,0.4,0.4
2024-10-20T2100,3694A,115.986,40.4563,北京市,延庆石河营,,34,34,21,18,10,35,,41,38,18,15,3,2,0.4,0.3
2024-10-20T2100,3695A,116.6151,40.3053,北京市,怀柔新城,,37,37,23,18,11,34,,41,39,21,15,3,3,0.3,0.3
2024-10-20T2100,3696A,116.2545,39.8768,北京市,丰台小屯,,41,41,42,19,14,13,,36,30,46,41,1,3,0.7,0.7
2024-10-20T2100,3697A,116.84,40.3844,北京市,密云镇,,34,34,27,15,10,34,,43,40,22,24,4,4,0.4,0.4
2024-10-20T2100,1761A,123.8275,41.3064,本溪市,大峪,,26,15,27,11,11,82,,81,81,7,17,10,11,0.9,0.9
2024-10-20T2100,1762A,123.7567,41.3325,本溪市,溪湖,,37,37,30,21,15,63,,71,70,23,19,19,12,1.6,0.7
2024-10-20T2100,1763A,123.7169,41.3094,本溪市,彩屯,,30,30,39,20,20,58,,62,60,29,32,20,16,1.7,1.3
2024-10-20T2100,1764A,123.7669,41.2864,本溪市,东明,,24,24,36,14,15,70,,75,74,18,23,7,7,0.5,0.5
2024-10-20T2100,1765A,123.7992,41.2664,本溪市,新立屯,,25,23,28,11,11,78,,76,76,13,20,6,6,0.2,0.4
2024-10-20T2100,1766A,123.8142,41.3472,本溪市,威宁,,23,23,45,7,14,70,,73,72,16,22,8,8,0.4,0.6
2024-10-20T2100,2587A,105.2864,27.3125,毕节市,八中,,19,13,22,8,17,60,,68,59,7,12,5,7,0.6,0.5
2024-10-20T2100,2588A,105.31,27.2944,毕节市,师专,,20,19,23,14,18,61,,65,60,7,10,5,8,0.5,0.5
2024-10-20T2100,3537A,105.3631,27.3533,毕节市,长征村,,20,17,29,14,24,49,,66,52,8,9,6,8,0.6,0.5
2024-10-20T2100,1629A,118.0018,37.3617,滨州市,第二水厂,,22,22,26,3,6,48,,73,64,23,29,8,7,0.3,0.3
2024-10-20T2100,1630A,117.9776,37.393,滨州市,北中新校,,29,29,28,12,8,34,,66,56,27,30,4,4,0.7,0.6
2024-10-20T2100,3514A,117.9378,37.3956,滨州市,中海酒店,,22,22,27,9,13,41,,78,66,29,33,5,5,0.6,0.5
2024-10-20T2100,3515A,117.9378,37.3553,滨州市,开发区一中,,29,29,33,7,11,52,,80,71,25,28,5,4,0.7,0.7
2024-10-20T2100,3516A,118.0917,37.694,滨州市,金海六路,,27,27,21,7,4,42,,54,,24,22,4,5,0.3,0.3
2024-10-20T2100,4028A,117.9956,37.3753,滨州市,滨州市西街道办事处,,19,19,24,9,12,40,,73,63,28,31,8,8,0.4,0.3
2024-10-20T2100,2311A,115.8072,33.8399,亳州市,污水处理厂,颗粒物(PM10),51,52,38,27,17,36,,54,46,20,13,6,5,0.3,0.3
2024-10-20T2100,2312A,115.7789,33.8518,亳州市,三国揽胜宫,颗粒物(PM10),53,56,41,22,14,38,,54,47,25,19,4,4,0.3,0.2
2024-10-20T2100,3332A,115.7633,33.8034,亳州市,亳州学院,颗粒物(PM10),56,61,47,21,13,42,,56,50,23,16,4,4,0.3,0.3
2024-10-20T2100,2693A,82.0485,44.8556,博尔塔拉蒙古自治州,市党校,,43,43,32,17,15,24,,76,71,27,10,4,5,0.3,0.3
2024-10-20T2100,2694A,82.0806,44.8969,博尔塔拉蒙古自治州,市环保局,,48,48,33,18,13,50,,72,71,27,13,4,3,0.3,0.3
2024-10-20T2100,1071A,116.8842,38.2991,沧州市,沧县城建局,,39,39,42,20,16,32,,56,48,32,35,2,5,0.4,0.5
2024-10-20T2100,1072A,116.8584,38.3254,沧州市,电视转播站,,42,42,42,19,15,21,,59,44,36,38,2,4,0.4,0.6
2024-10-20T2100,1073A,116.8709,38.3228,沧州市,市环保局,,,73,47,37,23,25,,56,47,,35,,3,0.5,0.6
2024-10-20T2100,3324A,116.8136,38.3004,沧州市,河北水利电力学院,,42,,34,29,22,24,,62,49,41,38,4,6,0.5,0.5
2024-10-20T2100,2622A,97.1806,31.1273,昌都市,昌都监测站,,48,48,23,28,13,77,,76,75,5,10,8,8,0.5,0.5
2024-10-20T2100,3719A,97.1714,31.1406,昌都市,昌都会议中心,,45,45,24,17,9,64,,81,79,14,7,7,8,0.5,0.5
2024-10-20T2100,2690A,88.1236,43.8886,昌吉回族自治州,天山天池,,22,,5,6,4,69,,82,78,2,3,3,1,0.5,0.5
2024-10-20T2100,2692A,87.2717,44.0297,昌吉回族自治州,新区政务中心,,28,19,27,19,17,3,,51,42,54,23,6,6,0.9,0.7
2024-10-20T2100,3613A,87.3095,44.0142,昌吉回族自治州,亚心广场,,31,22,22,9,11,6,,52,40,62,27,3,3,1.0,0.8
2024-10-20T2100,1119A,125.3325,43.9166,长春市,食品厂,颗粒物(PM10),54,57,41,28,18,39,,50,41,36,33,11,11,0.4,0.4
2024-10-20T2100,1120A,125.2863,43.9027,长春市,客车厂,,49,49,39,29,19,47,,50,48,26,30,14,13,0.4,0.4
2024-10-20T2100,1121A,125.2841,43.8463,长春市,邮电学院,颗粒物(PM10),51,51,38,29,18,52,,53,53,27,30,9,7,0.3,0.3
2024-10-20T2100,1122A,125.3716,43.8772,长春市,劳动公园,颗粒物(PM10),60,69,44,30,20,40,,57,52,44,35,13,9,0.6,0.6
2024-10-20T2100,1123A,125.3297,43.8805,长春市,园林处,颗粒物(PM10),51,52,40,21,15,48,,52,50,27,28,13,9,0.5,0.5
2024-10-20T2100,1124A,125.4605,43.79,长春市,净月潭,,38,38,23,19,10,55,,59,59,15,16,7,6,0.4,0.4
2024-10-20T2100,1125A,125.7194,43.515,长春市,甩湾子,,,,,,,,,,,,,,,,
2024-10-20T2100,1126A,125.3863,43.8447,长春市,经开区环卫处,,48,48,39,20,14,50,,56,50,29,31,10,9,0.4,0.4
2024-10-20T2100,1127A,125.245,43.7783,长春市,高新区管委会,细颗粒物(PM2.5),57,49,37,40,19,42,,54,47,25,25,8,7,0.6,0.5
2024-10-20T2100,1128A,125.1761,43.8325,长春市,岱山公园,颗粒物(PM10),56,61,47,39,21,40,,48,38,32,34,12,6,0.5,0.5
2024-10-20T2100,1335A,113.0833,28.2325,长沙市,经开区环保局,颗粒物(PM10),66,81,43,27,16,35,,37,37,25,21,3,3,0.3,0.4
2024-10-20T2100,1336A,112.8872,28.2189,长沙市,高开区环保局,颗粒物(PM10),61,72,42,32,22,37,,44,44,16,11,4,3,0.5,0.5
2024-10-20T2100,1337A,113.0792,28.2053,长沙市,马坡岭,颗粒物(PM10),64,77,41,32,21,44,,42,42,18,15,4,4,0.4,0.5
2024-10-20T2100,1338A,112.9394,28.19,长沙市,湖南师范大学,颗粒物(PM10),81,111,49,37,22,45,,47,47,18,14,3,3,0.3,0.3
2024-10-20T2100,1339A,113.0178,28.1322,长沙市,雨花区环保局,颗粒物(PM10),63,76,43,33,27,42,,41,41,19,17,4,4,0.4,0.4
2024-10-20T2100,1340A,112.9792,28.2597,长沙市,伍家岭,颗粒物(PM10),66,81,46,22,13,38,,42,42,17,14,3,3,0.4,0.5
2024-10-20T2100,1341A,113.0014,28.1944,长沙市,火车新站,颗粒物(PM10),61,72,45,36,23,41,,42,42,15,14,4,4,0.6,0.6
2024-10-20T2100,1342A,112.9844,28.1178,长沙市,天心区环保局,颗粒物(PM10),61,72,49,32,26,38,,39,39,18,17,2,2,0.3,0.4
2024-10-20T2100,1343A,112.8908,28.1308,长沙市,湖南中医药大学,颗粒物(PM10),70,89,48,45,28,38,,44,44,17,12,5,4,0.8,0.8
2024-10-20T2100,1344A,112.9581,28.3611,长沙市,沙坪,颗粒物(PM10),51,52,31,26,14,42,,46,46,26,15,9,7,0.2,0.4
2024-10-20T2100,1727A,113.1147,36.1547,长治市,清华站,,32,25,18,22,8,23,,57,36,33,20,6,7,0.6,0.4
2024-10-20T2100,1728A,113.1031,36.1989,长治市,监测站,,32,30,21,22,11,22,,55,36,30,16,8,10,0.8,0.6
2024-10-20T2100,1730A,113.0886,36.2125,长治市,审计局,,32,25,19,22,12,28,,56,39,21,13,4,6,0.6,0.5
2024-10-20T2100,1731A,113.0844,36.1856,长治市,长治八中,,29,29,22,16,8,25,,57,37,34,22,6,7,0.9,0.8
2024-10-20T2100,2845A,113.1569,36.1911,长治市,德盛苑,,32,32,16,19,9,26,,62,40,27,17,3,4,0.7,0.6
2024-10-20T2100,3568A,113.06,36.0464,长治市,向阳小学,,43,43,41,30,20,23,,60,34,35,23,7,8,0.8,0.7
2024-10-20T2100,3569A,112.8792,36.3144,长治市,屯留一中,,26,26,25,16,11,11,,54,44,48,20,13,13,1.2,1.1
2024-10-20T2100,3570A,113.235,36.3489,长治市,潞城四中,,29,28,26,20,11,20,,61,39,34,17,7,7,0.9,0.8
2024-10-20T2100,1854A,111.6975,28.9703,常德市,市二中,颗粒物(PM10),58,65,53,22,23,50,,55,54,15,14,3,3,0.4,0.4
2024-10-20T2100,1857A,111.7158,29.1456,常德市,白鹤山,,,,,,,,,,,,,,,,
2024-10-20T2100,3138A,111.7153,29.0289,常德市,武陵区永安,,,,41,21,21,49,,54,52,15,16,4,4,0.3,0.3
2024-10-20T2100,3139A,111.6892,28.9881,常德市,鼎城区玉霞,颗粒物(PM10),59,67,51,20,21,52,,57,56,15,14,5,5,0.5,0.5
2024-10-20T2100,3140A,111.6625,29.0531,常德市,武陵区长庚,颗粒物(PM10),51,51,47,20,20,46,,56,53,19,17,3,3,0.5,0.5
2024-10-20T2100,1196A,119.9633,31.762,常州市,市监测站,颗粒物(PM10),58,65,42,18,15,50,,79,74,11,8,7,8,0.4,0.4
2024-10-20T2100,1200A,119.9468,31.7069,常州市,武进监测站,,50,50,34,18,12,50,,81,76,12,9,11,11,0.4,0.3
2024-10-20T2100,1201A,119.9255,31.9087,常州市,安家,颗粒物(PM10),51,52,39,16,16,47,,77,70,20,17,6,8,0.4,0.4
2024-10-20T2100,3002A,119.9805,31.8174,常州市,行政中心,颗粒物(PM10),54,58,37,18,13,44,,78,72,18,14,3,4,0.3,0.3
2024-10-20T2100,3003A,120.0522,31.7748,常州市,经开区,颗粒物(PM10),52,54,38,15,13,45,,83,75,23,20,7,7,0.1,0.1
2024-10-20T2100,3010A,119.9025,31.7964,常州市,钟楼,颗粒物(PM10),54,58,38,24,17,44,,77,70,23,20,6,7,0.5,0.4
2024-10-20T2100,3429A,119.8598,31.7066,常州市,武进经发区,颗粒物(PM10),54,58,42,22,15,42,,80,72,26,19,6,7,0.6,0.5
2024-10-20T2100,3430A,119.5826,31.7245,常州市,金坛城区,颗粒物(PM10),52,53,37,25,13,57,,100,94,18,14,7,7,0.6,0.5
2024-10-20T2100,2220A,120.4318,41.5881,朝阳市,西梁,,23,23,35,9,17,60,,62,62,11,21,3,4,0.5,0.6
2024-10-20T2100,2221A,120.4521,41.5646,朝阳市,河畔小区,,22,22,24,9,11,63,,69,69,12,19,10,10,0.8,0.9
2024-10-20T2100,2222A,120.4176,41.5648,朝阳市,八里堡,,20,20,44,14,26,60,,66,66,10,21,10,11,0.6,0.8
2024-10-20T2100,2223A,120.3806,41.5969,朝阳市,农业园区,,27,27,32,16,18,34,,55,54,40,24,7,7,0.8,0.7
2024-10-20T2100,1705A,116.6367,23.6719,潮州市,西园路,,35,35,28,12,14,89,,82,82,11,9,5,6,0.7,0.6
2024-10-20T2100,3026A,116.6183,23.6608,潮州市,市政府,,41,41,25,15,12,90,,84,84,15,11,7,9,0.6,0.5
2024-10-20T2100,4036A,116.6461,23.6761,潮州市,金山,,30,29,28,13,7,96,,88,88,12,10,9,9,0.6,0.5
2024-10-20T2100,2472A,113.0073,25.9061,郴州市,马头岭,,30,30,35,15,13,32,,46,39,12,10,6,7,0.5,0.3
2024-10-20T2100,2473A,113.0116,25.8226,郴州市,市职中,,32,24,28,22,22,28,,42,36,14,12,5,5,0.6,0.6
2024-10-20T2100,2474A,113.0161,25.8001,郴州市,兴隆步行街,,38,35,33,26,19,33,,51,42,18,15,4,4,0.6,0.6
2024-10-20T2100,2475A,113.0383,25.8071,郴州市,市审计局,,32,32,28,22,22,23,,41,33,15,11,3,3,0.7,0.7
2024-10-20T2100,2476A,113.0348,25.7759,郴州市,市环保局,,38,38,30,26,23,24,,41,31,14,10,5,5,0.7,0.7
2024-10-20T2100,1431A,103.9728,30.7236,成都市,金泉两河,,31,31,13,3,6,22,,43,38,27,15,2,2,0.7,0.6
2024-10-20T2100,1432A,104.176,30.6872,成都市,十里店,,12,6,5,3,3,37,,42,42,17,15,1,1,0.6,0.6
2024-10-20T2100,1433A,104.079,30.5706,成都市,三瓦窑,,15,9,10,3,6,46,,47,47,12,12,1,2,0.4,0.4
2024-10-20T2100,1434A,104.1114,30.63,成都市,沙河铺,,29,29,13,11,5,40,,41,40,16,15,4,3,0.5,0.5
2024-10-20T2100,1437A,104.0786,30.6531,成都市,君平街,,18,18,7,9,5,46,,43,43,14,15,4,3,0.5,0.5
2024-10-20T2100,1438A,103.613,31.0283,成都市,灵岩寺,,,,,,,,,,,,,,,,
2024-10-20T2100,2880A,104.0239,30.65639,成都市,大石西路,,16,12,13,11,7,41,,39,38,10,11,3,2,0.6,0.6
2024-10-20T2100,3136A,104.2725,30.5589,成都市,龙泉驿区区政府,,16,6,4,3,2,50,,54,53,7,8,2,2,0.7,0.7
2024-10-20T2100,3357A,104.0106,30.6931,成都市,金博路,,12,6,6,3,3,37,,37,36,16,16,1,1,0.5,0.5
2024-10-20T2100,3359A,104.0578,30.5225,成都市,华阳,,10,9,8,7,5,32,,36,35,16,14,1,1,0.5,0.5
2024-10-20T2100,3487A,104.2394,30.5319,成都市,车城东七路,,17,10,10,6,7,53,,52,52,11,15,1,1,0.7,0.7
2024-10-20T2100,3488A,104.3853,30.7453,成都市,青白江技师分院,,14,6,5,3,3,18,,54,48,28,12,2,2,0.7,0.7
2024-10-20T2100,3489A,104.0789,30.4072,成都市,科学城,,15,10,11,6,8,45,,48,48,7,12,2,2,0.6,0.6
2024-10-20T2100,4011A,103.8506,30.6947,成都市,光华大道三段,,19,19,9,3,4,39,,52,48,21,14,4,4,0.5,0.4
2024-10-20T2100,1062A,117.9531,40.9081,承德市,铁路,,23,23,21,11,7,54,,43,35,24,28,5,4,0.4,0.4
2024-10-20T2100,1063A,117.9392,40.9763,承德市,中国银行,,35,35,30,17,8,59,,48,47,16,26,22,13,0.6,0.4
2024-10-20T2100,1064A,117.9503,40.928,承德市,开发区,,45,45,34,19,14,62,,52,52,14,22,20,5,0.5,0.3
2024-10-20T2100,1065A,117.8051,40.9655,承德市,文化中心,,34,34,44,15,9,64,,52,52,10,25,20,17,0.5,0.5
2024-10-20T2100,1066A,117.9268,41.0026,承德市,离宫,,41,41,22,26,21,64,,48,48,7,15,8,8,0.5,0.4
2024-10-20T2100,2314A,117.47,30.6618,池州市,池州学院,,44,44,36,19,14,56,,75,74,28,17,6,8,0.3,0.3
2024-10-20T2100,3237A,117.4918,30.6617,池州市,展览馆,,45,45,36,18,16,51,,74,72,30,18,6,8,0.3,0.3
2024-10-20T2100,3333A,117.5627,30.695,池州市,第八中学,,49,49,37,21,16,34,,70,62,42,18,5,5,0.4,0.3
2024-10-20T2100,3334A,117.5038,30.6243,池州市,第十二中学,,50,50,36,23,13,18,,72,64,48,16,4,4,0.5,0.4
2024-10-20T2100,1744A,118.9233,42.2816,赤峰市,松山一中,,24,24,47,3,23,59,,47,47,18,33,13,17,0.5,0.7
2024-10-20T2100,1745A,118.9576,42.2728,赤峰市,哈达街,,22,22,42,14,21,63,,56,56,14,22,8,11,0.6,0.7
2024-10-20T2100,1746A,118.8788,42.2554,赤峰市,天义路,,22,22,35,12,17,67,,58,58,16,24,9,11,0.3,0.4
2024-10-20T2100,3058A,119.2658,42.0353,赤峰市,银河街,,46,46,54,18,24,61,,61,60,15,25,16,21,0.5,0.7
2024-10-20T2100,3286A,118.9359,42.3147,赤峰市,桥北物流园区,,36,,35,25,25,60,,51,51,26,34,8,18,0.4,1.2
2024-10-20T2100,2521A,107.3476,22.4136,崇左市,市环保局江州分局,,40,40,30,22,15,104,,106,106,10,10,3,4,0.7,0.6
2024-10-20T2100,2522A,107.3702,22.3707,崇左市,城南新区,,38,38,24,21,14,109,,111,111,7,6,4,4,0.8,0.7
2024-10-20T2100,2298A,118.3093,32.3153,滁州市,老年大学,,42,42,37,18,13,72,,88,84,14,10,3,3,0.3,0.2
2024-10-20T2100,2299A,118.3244,32.2786,滁州市,人大宾馆,,49,49,38,19,12,67,,84,80,18,13,10,6,0.3,0.2
2024-10-20T2100,3207A,118.3118,32.3038,滁州市,市政府原办公楼,,41,41,35,18,16,70,,84,79,16,14,10,6,0.3,0.2
2024-10-20T2100,3331A,118.3267,32.2634,滁州市,图书馆,,40,40,36,15,10,70,,89,82,16,11,5,4,0.3,0.3
2024-10-20T2100,2605A,101.5482,25.0441,楚雄彝族自治州,州环境监测站,,25,,25,11,23,77,,68,68,9,13,8,14,0.5,0.6
2024-10-20T2100,2606A,101.538,25.0492,楚雄彝族自治州,市经济开发区,,25,15,25,10,19,78,,66,66,8,14,6,6,0.5,0.6
2024-10-20T2100,2548A,107.5277,31.2827,达州市,达州职业技术学院,,17,17,11,7,6,2,,39,22,29,23,4,4,0.7,0.7
2024-10-20T2100,2549A,107.5086,31.2186,达州市,市环境监测站,,18,18,12,3,1,19,,56,37,25,17,4,4,0.4,0.4
2024-10-20T2100,2550A,107.4988,31.2132,达州市,凤凰小区,,11,9,5,3,1,32,,64,43,22,16,6,6,0.5,0.4
2024-10-20T2100,2551A,107.5082,31.1986,达州市,达县机关宾馆,,20,17,10,6,6,3,,46,31,40,27,4,4,0.5,0.5
2024-10-20T2100,2552A,107.4644,31.2124,达州市,市政中心,,19,19,14,3,2,16,,52,39,33,20,4,4,0.5,0.4
2024-10-20T2100,2614A,100.1542,25.7054,大理白族自治州,大理市环境监测站,,21,16,24,14,16,66,,67,67,6,7,7,7,0.4,0.4
2024-10-20T2100,2615A,100.2171,25.5811,大理白族自治州,大理古城,,29,24,24,20,17,31,,70,55,26,11,6,7,0.5,0.5
2024-10-20T2100,1109A,121.612,38.9741,大连市,甘井子,,32,32,40,3,16,86,,52,52,12,30,7,7,0.4,0.5
2024-10-20T2100,1110A,121.565,38.9511,大连市,周水子,,35,35,40,7,19,78,,37,37,14,36,7,10,0.9,1.1
2024-10-20T2100,1111A,121.5637,38.8845,大连市,星海三站,,32,32,37,6,14,86,,61,61,6,22,6,8,0.4,0.5
2024-10-20T2100,1112A,121.6302,38.9117,大连市,青泥洼桥,,27,21,36,6,14,85,,57,57,6,25,7,10,0.3,0.4
2024-10-20T2100,1113A,121.6251,38.8638,大连市,傅家庄,,39,39,35,10,13,84,,75,75,8,18,7,9,0.4,0.6
2024-10-20T2100,1114A,121.5213,38.8661,大连市,七贤岭,颗粒物(PM10),62,73,49,7,14,88,,65,65,8,20,6,8,0.3,0.6
2024-10-20T2100,1115A,121.2529,38.8061,大连市,旅顺,颗粒物(PM10),52,53,38,27,19,38,,52,42,34,23,7,8,0.6,0.6
2024-10-20T2100,1116A,121.7485,39.1311,大连市,金州,,28,27,38,6,17,89,,56,56,7,22,3,6,0.5,0.7
2024-10-20T2100,1117A,121.7811,39.0496,大连市,开发区,,28,27,36,6,13,87,,73,73,6,17,12,16,0.4,0.4
2024-10-20T2100,1118A,121.9762,39.0631,大连市,双D港,,31,24,24,6,10,98,,92,92,8,12,7,10,0.5,0.6
2024-10-20T2100,1789A,124.81117,46.03138,大庆市,大同区,,42,42,34,28,17,36,,46,38,17,13,4,3,0.4,0.3
2024-10-20T2100,1790A,125.129,46.533,大庆市,龙凤区,,41,41,43,12,15,41,,44,40,16,20,3,4,0.3,0.3
2024-10-20T2100,1791A,124.902,46.408,大庆市,红岗区,,36,36,28,13,10,39,,49,45,17,13,9,6,0.3,0.3
2024-10-20T2100,1792A,125.153,46.586,大庆市,萨尔图区,,35,35,32,15,10,46,,47,46,13,15,8,6,0.2,0.2
2024-10-20T2100,1793A,124.9042,46.6215,大庆市,让胡路区,,37,37,26,18,18,41,,49,46,15,12,8,5,0.3,0.2
2024-10-20T2100,3481A,125.141,46.634,大庆市,萨区政府监测点,,30,30,20,16,8,48,,50,49,12,14,5,7,0.4,0.4
2024-10-20T2100,1721A,113.3819,40.1097,大同市,果树场,,23,18,17,16,9,31,,54,49,29,20,7,7,0.7,0.6
2024-10-20T2100,1723A,113.2994,40.0758,大同市,云冈宾馆,,31,31,25,9,11,41,,53,51,33,26,10,8,0.5,0.4
2024-10-20T2100,1724A,113.3444,40.0917,大同市,大同大学,,26,24,20,18,12,46,,63,60,27,19,15,13,0.6,0.5
2024-10-20T2100,1725A,113.2661,40.1269,大同市,安家小村,,32,31,25,22,11,28,,56,52,37,20,12,12,0.5,0.3
2024-10-20T2100,1726A,113.2711,40.0844,大同市,教育学院,,33,33,28,16,11,37,,52,51,32,25,9,8,0.6,0.5
2024-10-20T2100,3282A,113.3397,40.0597,大同市,大同市卫生学校,,25,25,26,15,14,30,,60,55,40,23,9,8,0.4,0.4
2024-10-20T2100,3565A,113.1367,40.1122,大同市,云冈站,,50,50,42,27,17,31,,57,53,41,25,9,9,0.6,0.4
2024-10-20T2100,3566A,113.1186,40.2556,大同市,图书馆,,49,39,33,34,16,35,,54,52,38,28,13,13,0.6,0.5
2024-10-20T2100,3567A,113.5931,40.0461,大同市,区一中,,19,19,21,8,6,44,,62,58,22,18,16,18,0.5,0.5
2024-10-20T2100,3676A,113.2802,40.0995,大同市,第二人民医院,,34,34,24,18,12,41,,59,56,30,20,11,10,0.7,0.5
2024-10-20T2100,2269A,124.1069,50.4097,大兴安岭地区,科技局,颗粒物(PM10),52,53,41,29,33,46,,58,54,11,13,9,9,0.5,0.5
2024-10-20T2100,3663A,124.1164,50.4278,大兴安岭地区,红旗社区,颗粒物(PM10),69,88,34,30,21,36,,57,51,25,15,11,3,0.7,0.6
2024-10-20T2100,1600A,124.3303,40.0625,丹东市,江湾东路,,44,44,28,21,15,44,,57,52,8,11,10,9,0.6,0.4
2024-10-20T2100,1601A,124.4256,40.1503,丹东市,临江后街,细颗粒物(PM2.5),83,113,38,61,18,16,,70,53,47,12,11,8,1.2,0.6
2024-10-20T2100,1602A,124.3933,40.1461,丹东市,元宝山,颗粒物(PM10),60,69,26,35,10,33,,62,55,27,11,8,5,1.4,0.9
2024-10-20T2100,1603A,124.3633,40.1092,丹东市,民主桥,颗粒物(PM10),56,61,30,27,10,32,,63,50,22,14,12,7,1.1,0.6
2024-10-20T2100,3541A,109.5726,19.5167,儋州市,第一中学子站,,26,26,23,14,13,73,,65,57,1,2,5,4,0.5,0.4
2024-10-20T2100,3542A,109.5567,19.5187,儋州市,东坡学校子站,,31,31,20,14,12,76,,72,61,2,3,5,4,0.4,0.4
2024-10-20T2100,2616A,98.5842,24.428,德宏傣族景颇族自治州,德宏州监测站,,45,45,45,27,31,34,,80,74,22,19,8,13,0.8,0.6
2024-10-20T2100,3677A,98.5881,24.4368,德宏傣族景颇族自治州,芒市人民政府综合楼,,39,39,45,25,31,36,,79,72,11,14,5,9,0.6,0.5
2024-10-20T2100,1901A,104.4239,31.1208,德阳市,东山公园,,13,13,13,6,5,36,,57,52,10,6,2,2,0.6,0.5
2024-10-20T2100,1902A,104.3826,31.1317,德阳市,西小区,,19,19,14,8,6,43,,53,50,14,9,1,1,0.6,0.6
2024-10-20T2100,1904A,104.3553,31.1091,德阳市,耐火材料厂,,10,10,6,6,6,30,,51,48,19,10,3,2,0.5,0.5
2024-10-20T2100,3639A,104.4019,31.1244,德阳市,市教育局,,14,14,8,3,5,38,,54,50,16,10,1,1,0.6,0.6
2024-10-20T2100,1622A,116.3032,37.4674,德州市,儿童乐园,,34,34,34,19,11,28,,53,46,38,34,11,11,0.6,0.5
2024-10-20T2100,1624A,116.2991,37.4451,德州市,监理站,,29,29,29,19,9,35,,58,53,34,26,12,10,0.5,0.5
2024-10-20T2100,3066A,116.2721,37.4379,德州市,九衢泉纯净水厂,,34,34,29,17,12,30,,54,49,37,31,11,11,0.6,0.6
2024-10-20T2100,3371A,116.3728,37.4403,德州市,开发区人民医院,,34,34,33,14,12,36,,54,48,40,35,7,10,0.6,0.6
2024-10-20T2100,3372A,116.3572,37.4094,德州市,太阳城中学,,31,31,31,14,11,33,,55,49,42,34,10,12,0.7,0.7
2024-10-20T2100,3511A,116.5652,37.3319,德州市,陵城艺术中心,,35,34,32,24,12,32,,66,55,32,27,8,10,0.5,0.5
2024-10-20T2100,2621A,99.7056,27.8317,迪庆藏族自治州,迪庆州站,,36,36,27,25,16,64,,89,83,22,11,7,8,0.4,0.3
2024-10-20T2100,3180A,99.7136,27.8094,迪庆藏族自治州,质量技术监督局,,29,29,20,9,15,63,,89,82,21,10,6,6,0.6,0.5
2024-10-20T2100,2663A,104.6241,35.5734,定西市,东关小学,颗粒物(PM10),57,63,37,29,18,55,,94,81,20,12,9,8,0.4,0.4
2024-10-20T2100,2664A,104.6194,35.5934,定西市,供电公司,颗粒物(PM10),54,57,34,18,18,64,,88,80,13,12,8,6,0.4,0.4
2024-10-20T2100,1389A,113.7547,23.0494,东莞市,莞城梨川,,33,33,46,18,26,53,,86,78,14,18,8,8,0.7,0.7
2024-10-20T2100,1390A,113.7944,23.0128,东莞市,东城石井,,32,32,41,20,25,56,,95,85,16,19,7,7,0.8,0.7
2024-10-20T2100,1391A,113.7383,22.9658,东莞市,南城西平,,30,30,44,17,26,48,,97,85,24,20,6,6,0.7,0.7
2024-10-20T2100,3319A,113.7338,23.0381,东莞市,万江金泰,,,34,51,18,27,,,87,83,18,17,9,9,0.6,0.7
2024-10-20T2100,3626A,113.7533,23.0202,东莞市,南城元岭,,32,32,45,19,26,58,,86,80,7,15,8,8,0.8,0.8
2024-10-20T2100,3627A,113.7875,23.0457,东莞市,东城主山,,32,30,43,22,27,57,,90,82,16,19,8,8,0.6,0.6
2024-10-20T2100,1666A,118.6614,37.4309,东营市,市环保局,,31,31,21,14,6,68,,88,86,24,19,6,4,0.4,0.3
2024-10-20T2100,3036A,118.6904,37.4338,东营市,开发区管委会,,38,38,27,14,7,76,,93,92,21,11,3,3,0.3,0.2
2024-10-20T2100,3365A,118.5719,37.565,东营市,垦利区民丰路,,17,17,18,3,4,53,,70,68,16,12,6,4,0.4,0.3
2024-10-20T2100,3498A,118.5055,37.8612,东营市,河口城区,,,,25,,6,,,66,,,10,,4,,0.4
2024-10-20T2100,3646A,118.4978,37.4623,东营市,胜利站,,26,26,26,9,6,64,,80,78,17,20,8,8,0.5,0.5
2024-10-20T2100,3734A,118.35,37.26,东营市,理想之城,,32,31,22,22,9,54,,88,83,26,21,2,2,0.3,0.3
2024-10-20T2100,1591A,110.0023,39.8129,鄂尔多斯市,综合楼,,36,36,23,22,13,47,,66,48,20,18,6,8,0.6,0.6
2024-10-20T2100,1592A,109.9486,39.8261,鄂尔多斯市,巴音孟克林场办事处,颗粒物(PM10),51,51,28,31,19,51,,54,42,17,21,6,7,0.6,0.6
2024-10-20T2100,1593A,109.7736,39.5986,鄂尔多斯市,康泽苑,,41,41,29,27,19,57,,59,54,14,13,6,6,0.5,0.6
2024-10-20T2100,1594A,109.8119,39.5989,鄂尔多斯市,华泰汽车城,,42,39,28,29,22,55,,56,52,12,11,6,7,0.6,0.6
2024-10-20T2100,1595A,109.9734,39.7884,鄂尔多斯市,奥林花园,,35,31,27,24,16,39,,56,42,21,19,5,5,0.7,0.7
2024-10-20T2100,2436A,114.8938,30.3994,鄂州市,市政府,,36,33,24,25,11,41,,69,61,28,19,10,10,0.7,0.6
2024-10-20T2100,2437A,114.8989,30.3714,鄂州市,赵家坝,,43,43,24,22,10,44,,71,65,24,15,9,9,0.4,0.4
2024-10-20T2100,3654A,114.8094,30.4089,鄂州市,精准医疗中心,,32,32,27,16,10,49,,76,69,17,14,7,7,0.7,0.5
2024-10-20T2100,2454A,109.4978,30.2981,恩施土家族苗族自治州,湖北民院,,21,21,18,7,6,38,,47,35,11,12,8,8,0.6,0.6
2024-10-20T2100,2455A,109.4707,30.2798,恩施土家族苗族自治州,州电力总公司,,10,8,10,6,6,32,,48,36,18,15,6,6,0.8,0.8
2024-10-20T2100,3549A,109.5061,30.3772,恩施土家族苗族自治州,龙凤新区,,11,8,7,6,3,20,,46,31,21,11,6,6,0.8,0.8
2024-10-20T2100,2499A,108.3411,21.6158,防城港市,沙万,,22,,31,15,17,68,,105,102,16,12,9,10,0.9,0.8
2024-10-20T2100,2500A,108.3514,21.7731,防城港市,防城档案局,,23,13,62,13,22,71,,90,89,15,19,8,8,0.7,0.8
2024-10-20T2100,2501A,108.3506,21.6414,防城港市,大海花园,,18,14,33,10,15,57,,108,103,28,13,8,8,1.0,0.7
2024-10-20T2100,1371A,113.1294,23.0067,佛山市,湾梁,,34,34,43,20,23,62,,100,98,23,31,7,7,0.7,0.7
2024-10-20T2100,1372A,113.1083,23.0478,佛山市,华材职中,颗粒物(PM10),56,61,47,24,26,41,,90,86,45,35,8,8,0.6,0.6
2024-10-20T2100,1373A,113.144,23.0453,佛山市,南海气象局,,34,34,38,23,26,52,,94,91,20,22,8,8,0.7,0.7
2024-10-20T2100,1374A,113.2881,22.8094,佛山市,顺德苏岗,,38,38,51,22,27,47,,100,96,24,22,8,8,0.7,0.7
2024-10-20T2100,1376A,112.8383,22.8678,佛山市,高明孔堂,,45,45,41,19,23,40,,91,85,32,24,7,7,0.9,0.8
2024-10-20T2100,1377A,112.8836,23.1588,佛山市,三水监测站,颗粒物(PM10),51,51,35,26,19,33,,82,65,49,29,11,9,0.7,0.6
2024-10-20T2100,1378A,112.867,23.185,佛山市,三水云东海,细颗粒物(PM2.5),53,54,33,37,22,2,,68,54,64,30,12,10,0.9,0.7
2024-10-20T2100,3625A,113.2544,22.7642,佛山市,容桂街道办,,34,34,44,22,31,54,,110,106,22,22,7,8,0.7,0.7
2024-10-20T2100,1280A,119.3903,26.0543,福州市,鼓山,,,,10,,6,,,73,,,3,,2,,0.4
2024-10-20T2100,1282A,119.2681,26.0504,福州市,师大,,30,30,18,13,6,96,,87,87,8,5,2,2,0.3,0.3
2024-10-20T2100,1283A,119.2984,26.1028,福州市,五四北路,,30,27,15,10,4,96,,84,84,16,14,3,3,0.3,0.4
2024-10-20T2100,1284A,119.2648,26.0768,福州市,杨桥西路,,33,29,17,9,5,105,,87,87,6,7,4,3,0.4,0.5
2024-10-20T2100,1285A,119.317,26.0746,福州市,紫阳,,33,33,24,13,6,88,,69,69,15,16,4,3,0.4,0.4
2024-10-20T2100,3048A,119.5799,26.0936,福州市,九龙,,34,28,15,6,1,108,,102,102,3,3,3,3,0.1,0.1
2024-10-20T2100,3526A,119.5189,25.9664,福州市,吴航,,34,28,14,13,7,108,,100,100,8,6,1,1,0.2,0.3
2024-10-20T2100,1755A,123.7977,41.8491,抚顺市,望花区,,42,42,43,21,20,60,,60,60,18,22,20,7,0.8,0.7
2024-10-20T2100,1756A,123.9161,41.8822,抚顺市,顺城区,,38,38,44,14,18,66,,64,64,15,26,7,7,0.5,0.5
2024-10-20T2100,1757A,124.0436,41.8611,抚顺市,东洲区,,28,28,32,11,15,65,,71,71,10,13,12,9,0.4,0.4
2024-10-20T2100,1758A,123.9247,41.8642,抚顺市,新抚区,,37,37,39,14,18,66,,68,64,15,21,6,5,0.4,0.4
2024-10-20T2100,1759A,124.0972,41.8961,抚顺市,大伙房水库,,27,27,24,11,13,76,,81,81,6,11,7,7,0.4,0.4
2024-10-20T2100,1760A,123.7086,41.8391,抚顺市,沈抚新城,,49,49,42,21,21,61,,62,57,20,25,8,11,0.4,0.6
2024-10-20T2100,2376A,116.2127,28.0814,抚州市,桐源党溪,,44,44,36,18,13,16,,40,32,3,3,5,5,0.6,0.6
2024-10-20T2100,2377A,116.3544,27.9831,抚州市,市站,,34,34,27,15,10,41,,39,39,13,10,4,6,0.6,0.7
2024-10-20T2100,2378A,116.3565,27.963,抚州市,血防站,,37,37,29,15,9,44,,40,40,4,2,9,8,0.6,0.6
2024-10-20T2100,2379A,116.3564,28.0007,抚州市,采茶剧团,,37,37,25,17,11,42,,38,38,8,6,4,4,0.5,0.5
2024-10-20T2100,2380A,116.385,27.9647,抚州市,医学分院,,36,36,26,17,11,37,,36,36,9,7,8,4,0.6,0.6
2024-10-20T2100,2207A,121.6094,41.998,阜新市,工业园区,颗粒物(PM10),51,51,50,7,17,66,,66,66,14,23,8,11,0.5,0.6
2024-10-20T2100,2208A,121.6697,42.0279,阜新市,长青街,,39,39,51,17,17,61,,56,56,20,26,9,21,0.4,0.8
2024-10-20T2100,2209A,121.6673,42.0705,阜新市,农业园区,,38,38,32,9,12,67,,64,64,14,15,8,32,0.7,0.8
2024-10-20T2100,2210A,121.6717,42.0224,阜新市,东苑,,46,46,62,25,21,58,,54,54,20,31,13,31,0.6,1.2
2024-10-20T2100,2211A,121.6506,42.0498,阜新市,玉龙新城,,46,46,57,23,18,71,,68,68,13,27,8,15,0.5,1.2
2024-10-20T2100,2301A,115.8277,32.8929,阜阳市,市监测站,"颗粒物(PM10),细颗粒物(PM2.5)",52,53,39,36,24,34,,58,46,26,20,5,6,0.5,0.4
2024-10-20T2100,2303A,115.8554,32.8605,阜阳市,开发区,颗粒物(PM10),59,67,52,35,18,32,,56,45,32,24,6,6,0.4,0.4
2024-10-20T2100,2875A,115.784,32.8892,阜阳市,阜阳职业技术学院,颗粒物(PM10),53,55,39,30,19,35,,56,46,29,23,6,6,0.3,0.3
2024-10-20T2100,3468A,115.7901,32.8613,阜阳市,市规划展馆,,45,40,38,31,17,37,,60,48,22,13,6,6,0.3,0.2
2024-10-20T2100,3469A,115.836,32.9183,阜阳市,枣园社区,,49,38,38,34,18,32,,56,45,29,22,6,6,0.3,0.2
2024-10-20T2100,2669A,102.9099,34.9841,甘南藏族自治州,州政府,,43,43,22,15,15,12,,84,69,66,21,12,9,1.0,0.6
2024-10-20T2100,3380A,102.8914,34.9617,甘南藏族自治州,甘肃民族师范学院,颗粒物(PM10),54,57,15,30,10,2,,79,61,66,25,9,5,1.0,0.7
2024-10-20T2100,2570A,101.9603,30.0475,甘孜藏族自治州,水桥子,,12,,13,3,6,37,,57,56,14,17,6,6,0.3,0.3
2024-10-20T2100,3065A,101.9533,29.9972,甘孜藏族自治州,州环保局,,,14,12,3,5,,,62,62,27,15,4,3,0.3,0.2
2024-10-20T2100,3414A,115.8347,28.932,赣江新区,桑海产业园,,41,41,34,25,16,57,,64,64,19,14,10,8,0.2,0.3
2024-10-20T2100,2362A,114.9017,25.9149,赣州市,通天岩,,38,38,21,23,15,59,,64,59,7,6,1,2,0.7,0.7
2024-10-20T2100,2363A,114.9367,25.8664,赣州市,地委,,25,,14,17,13,50,,61,60,8,7,2,4,1.0,1
2024-10-20T2100,2364A,114.9461,25.8481,赣州市,气象台,,28,,15,19,13,47,,58,55,7,6,4,4,0.7,0.7
2024-10-20T2100,2365A,114.9322,25.8333,赣州市,市图书馆,,24,24,21,10,9,55,,64,63,8,7,4,4,0.7,0.8
2024-10-20T2100,2366A,114.8905,25.8471,赣州市,华坚鞋城,,23,22,17,16,9,52,,62,62,9,7,2,3,0.5,0.5
2024-10-20T2100,3109A,115.0093,25.8613,赣州市,赣县区卫计委,,22,22,16,12,10,47,,58,50,8,7,4,7,0.5,0.5
2024-10-20T2100,2683A,106.2319,36.1417,固原市,马园,,37,37,24,13,7,44,,87,66,25,17,5,6,0.4,0.4
2024-10-20T2100,2684A,106.2792,36.0022,固原市,监测站,,36,36,23,25,9,49,,90,79,13,10,5,6,0.5,0.4
2024-10-20T2100,2685A,106.2375,36.0211,固原市,新区,,37,37,23,22,8,49,,95,83,16,9,4,5,0.5,0.4
2024-10-20T2100,3522A,106.2177,35.9959,固原市,原州区十五小,,48,48,16,23,8,54,,82,,18,12,6,7,0.6,0.5
2024-10-20T2100,2543A,106.6308,30.5278,广安市,小平旧居,,,,,,,,,,,,,,,,
2024-10-20T2100,2544A,106.6303,30.4576,广安市,市委,,15,14,18,6,8,46,,70,55,12,9,4,4,0.4,0.4
2024-10-20T2100,2545A,106.6271,30.4663,广安市,友谊中学,,12,12,10,8,8,38,,68,50,15,11,2,2,0.6,0.6
2024-10-20T2100,2547A,106.6388,30.4551,广安市,广电花园,,14,9,10,3,7,43,,65,51,12,10,1,1,0.3,0.3
2024-10-20T2100,2902A,106.6351,30.4865,广安市,北辰小学,,13,13,11,3,8,40,,69,52,10,8,3,3,0.4,0.4
2024-10-20T2100,2523A,105.8945,32.4535,广元市,黑石坡,,18,18,14,9,8,26,,46,45,11,6,8,8,0.3,0.4
2024-10-20T2100,2524A,105.821,32.4444,广元市,老城,,16,14,14,10,7,51,,56,56,9,14,2,3,0.6,0.7
2024-10-20T2100,2526A,105.8628,32.4287,广元市,监测站,,15,15,14,6,8,45,,58,56,19,13,2,2,0.4,0.5
2024-10-20T2100,3617A,105.8047,32.4166,广元市,经开区,,17,6,4,3,3,53,,60,59,12,15,4,4,0.4,0.4
2024-10-20T2100,1345A,113.2347,23.1423,广州市,广雅中学,,44,44,43,26,24,36,,85,78,38,33,6,6,0.8,0.8
2024-10-20T2100,1346A,113.2612,23.105,广州市,市五中,,34,34,35,22,25,59,,94,92,15,16,4,4,0.8,0.7
2024-10-20T2100,1348A,113.3478,23.0916,广州市,广东商学院,,33,33,34,20,19,50,,82,79,21,28,6,6,0.7,0.7
2024-10-20T2100,1349A,113.4332,23.1047,广州市,市八十六中,,46,46,47,22,23,31,,78,72,40,34,5,4,0.8,0.8
2024-10-20T2100,1350A,113.3505,22.9483,广州市,番禺中学,,34,34,40,21,24,62,,98,97,19,24,6,7,0.6,0.6
2024-10-20T2100,1351A,113.2146,23.3916,广州市,花都师范,,27,27,27,18,16,66,,89,88,18,14,6,6,0.8,0.8
2024-10-20T2100,1352A,113.2597,23.1331,广州市,市监测站,,34,34,34,20,20,54,,83,80,16,22,5,5,0.7,0.6
2024-10-20T2100,1353A,113.5618,23.312,广州市,九龙镇镇龙,,29,26,32,20,22,54,,70,69,10,14,8,7,0.7,0.7
2024-10-20T2100,1354A,113.2765,23.1544,广州市,麓湖,,34,34,34,21,22,34,,78,72,28,25,3,3,0.7,0.7
2024-10-20T2100,1355A,113.443,23.3035,广州市,帽峰山森林公园,,26,22,22,18,15,38,,79,70,14,11,6,6,0.7,0.6
2024-10-20T2100,2846A,113.3221,23.1322,广州市,体育西,,41,41,37,28,24,44,,80,76,23,20,4,4,0.7,0.6
2024-10-20T2100,3298A,113.5717,23.5491,广州市,从化街口,,23,23,24,14,16,55,,77,72,13,10,7,7,0.8,0.7
2024-10-20T2100,3299A,113.3472,23.3692,广州市,白云竹料,,33,33,29,23,20,56,,92,85,16,14,6,6,0.7,0.6
2024-10-20T2100,3300A,113.2981,23.237,广州市,白云嘉禾,,50,50,41,27,23,32,,83,73,44,31,6,6,1.1,1
2024-10-20T2100,3301A,113.4256,23.1716,广州市,黄埔科学城,,41,41,37,23,23,36,,78,71,25,22,6,5,0.7,0.6
2024-10-20T2100,3302A,113.3942,23.0483,广州市,番禺大学城,,37,37,42,22,27,34,,78,74,28,23,6,6,0.8,0.7
2024-10-20T2100,3303A,113.4922,22.8168,广州市,南沙黄阁,,44,44,47,25,30,48,,111,99,26,25,5,6,0.9,0.8
2024-10-20T2100,3304A,113.5342,22.7896,广州市,南沙街,,42,42,44,24,27,57,,114,103,22,22,7,7,0.8,0.8
2024-10-20T2100,3443A,113.2902,23.5544,广州市,花都梯面,,22,21,22,15,17,66,,89,87,10,9,8,8,0.6,0.7
2024-10-20T2100,3445A,113.7858,23.7478,广州市,从化良口,,20,18,19,14,14,30,,72,65,11,8,6,6,0.8,0.8
2024-10-20T2100,3446A,113.8051,23.2614,广州市,增城荔城,,26,26,29,16,20,56,,76,72,9,10,6,7,0.6,0.6
2024-10-20T2100,2505A,109.568,23.1478,贵港市,德智高中,,,,,,,,,,,,,,,,
2024-10-20T2100,2506A,109.6047,23.0666,贵港市,江南子站,,46,46,35,23,16,73,,107,104,19,16,8,10,0.8,0.9
2024-10-20T2100,2507A,109.6014,23.0948,贵港市,贵城子站,,45,36,34,31,21,65,,105,101,17,14,8,9,0.8,0.7
2024-10-20T2100,2508A,109.5669,23.1065,贵港市,荷城子站,,39,39,30,22,11,72,,108,104,13,13,10,11,0.6,0.5
2024-10-20T2100,3405A,109.5886,23.1172,贵港市,新世纪学校,,34,34,32,21,15,68,,107,103,11,13,10,9,0.7,0.7
2024-10-20T2100,1439A,106.6899,26.5998,贵阳市,马鞍山,,17,14,9,3,1,54,,53,53,9,9,4,4,0.5,0.5
2024-10-20T2100,1440A,106.6971,26.5694,贵阳市,市环保站,,19,12,12,7,8,60,,57,57,13,12,3,3,0.5,0.6
2024-10-20T2100,1441A,106.6243,26.6266,贵阳市,鉴湖路,,19,19,15,7,5,50,,50,50,7,7,4,4,0.3,0.4
2024-10-20T2100,1442A,106.7487,26.6343,贵阳市,燕子冲,,21,,5,14,8,65,,59,59,7,9,6,5,0.4,0.5
2024-10-20T2100,1443A,106.6555,26.4365,贵阳市,碧云窝,,19,12,15,3,4,60,,57,57,5,8,4,4,0.4,0.5
2024-10-20T2100,1444A,106.694,26.5161,贵阳市,中院村,,17,12,14,7,5,53,,50,50,12,13,7,8,0.5,0.6
2024-10-20T2100,1445A,106.7109,26.6027,贵阳市,红边门,,18,12,15,9,7,57,,51,51,12,14,5,4,0.5,0.6
2024-10-20T2100,1446A,106.7164,26.5699,贵阳市,新华路,,20,6,4,3,6,62,,58,58,10,10,5,5,0.4,0.4
2024-10-20T2100,1447A,106.674,26.5424,贵阳市,太慈桥,,17,7,10,3,5,53,,52,52,10,9,6,6,0.3,0.3
2024-10-20T2100,1552A,106.805,26.3003,贵阳市,桐木岭,,24,24,20,14,10,59,,54,54,1,1,4,4,0.3,0.4
2024-10-20T2100,1862A,110.4144,25.3167,桂林市,电子科大尧山校区,,19,15,11,10,7,58,,68,66,6,5,3,3,0.6,0.6
2024-10-20T2100,1863A,110.2819,25.2697,桂林市,监测站,,20,20,13,14,13,49,,75,66,15,9,14,11,0.8,0.7
2024-10-20T2100,1864A,110.3089,25.2708,桂林市,龙隐路小学,,20,,12,14,13,56,,74,72,11,8,16,10,0.5,0.5
2024-10-20T2100,1865A,110.2869,25.2178,桂林市,八中,,20,14,14,14,6,46,,68,63,14,9,11,9,0.7,0.6
2024-10-20T2100,3403A,110.1764,25.2381,桂林市,创业大厦,,25,19,15,17,12,57,,76,73,10,6,6,6,0.4,0.4
2024-10-20T2100,3531A,110.296,25.1253,桂林市,旅游学院,,25,22,8,17,6,53,,72,68,8,6,10,7,0.5,0.5
2024-10-20T2100,2674A,100.2561,34.4714,果洛藏族自治州,玛沁县大武镇,颗粒物(PM10),56,61,33,25,16,58,,105,92,9,3,11,10,0.5,0.4
2024-10-20T2100,1129A,126.5422,45.755,哈尔滨市,岭北,颗粒物(PM10),66,81,28,45,14,49,,57,56,24,17,12,12,0.3,0.6
2024-10-20T2100,1130A,126.561,45.8167,哈尔滨市,松北商大,颗粒物(PM10),53,55,27,23,10,42,,48,46,28,23,10,9,0.6,0.4
2024-10-20T2100,1131A,126.979,45.5419,哈尔滨市,阿城会宁,细颗粒物(PM2.5),125,142,43,95,29,42,,53,49,26,20,11,8,0.9,0.7
2024-10-20T2100,1132A,126.599,45.7222,哈尔滨市,南岗学府路,细颗粒物(PM2.5),117,119,41,88,17,30,,48,41,43,24,11,7,1.0,0.7
2024-10-20T2100,1133A,126.689,45.7733,哈尔滨市,太平宏伟公园,细颗粒物(PM2.5),105,119,37,79,17,40,,47,46,30,23,10,7,0.9,0.5
2024-10-20T2100,1134A,126.635,45.7667,哈尔滨市,道外承德广场,细颗粒物(PM2.5),143,117,35,109,16,41,,46,45,46,30,34,12,0.9,0.6
2024-10-20T2100,1135A,126.685,45.7319,哈尔滨市,香坊红旗大街,细颗粒物(PM2.5),139,158,48,106,21,44,,45,45,39,34,12,10,0.8,0.5
2024-10-20T2100,1136A,126.6411,45.7258,哈尔滨市,动力和平路,细颗粒物(PM2.5),202,,37,152,21,34,,46,44,39,24,14,8,0.9,0.5
2024-10-20T2100,1137A,126.593,45.7478,哈尔滨市,道里建国路,细颗粒物(PM2.5),95,80,35,71,20,32,,44,38,44,30,14,7,0.5,0.5
2024-10-20T2100,1138A,126.615,45.61,哈尔滨市,平房东轻厂,细颗粒物(PM2.5),122,142,39,92,19,30,,50,45,39,27,11,8,1.0,0.5
2024-10-20T2100,1139A,126.595,45.9855,哈尔滨市,呼兰师专,细颗粒物(PM2.5),77,75,32,56,17,31,,45,36,41,26,10,8,0.6,0.5
2024-10-20T2100,1140A,126.6206,45.6842,哈尔滨市,省农科院,细颗粒物(PM2.5),202,,42,152,28,32,,44,36,44,31,13,8,1.0,0.6
2024-10-20T2100,2688A,93.5128,42.8172,哈密市,地区监测站,,35,35,58,13,23,70,,72,72,18,18,3,6,0.2,0.4
2024-10-20T2100,2689A,93.4961,42.8328,哈密市,哈密师范学校,,30,30,51,20,27,72,,73,73,15,19,4,5,0.3,0.5
2024-10-20T2100,2671A,100.9048,36.9639,海北藏族自治州,海晏县西海镇,,28,28,29,15,13,81,,101,97,3,4,8,8,0.3,0.4
2024-10-20T2100,3867A,102.0738,36.5056,海东市,平安区公安北苑,,48,48,39,8,20,51,,84,80,17,19,4,7,0.4,0.6
2024-10-20T2100,1409A,110.576,19.9507,海口市,东寨港,,,,,,,,,,,,,,,,
2024-10-20T2100,1410A,110.3232,20.0574,海口市,海南大学,,30,30,29,11,14,92,,96,82,3,6,4,3,0.5,0.4
2024-10-20T2100,1411A,110.283,20.0053,海口市,秀英海南医院,,34,34,26,12,15,92,,97,81,6,5,6,5,0.4,0.3
2024-10-20T2100,1412A,110.338,19.9969,海口市,海南师范大学,,33,33,26,10,14,90,,92,78,6,6,6,6,0.5,0.4
2024-10-20T2100,1413A,110.33,20.0356,海口市,龙华路环保局宿舍,,35,35,27,12,14,91,,95,82,4,4,4,4,0.4,0.3
2024-10-20T2100,3539A,110.5111,19.9736,海口市,桂林洋子站,,28,26,28,9,14,88,,85,82,4,4,7,7,0.3,0.3
2024-10-20T2100,2673A,100.6188,36.2866,海南藏族自治州,共和县恰卜恰镇,颗粒物(PM10),57,63,39,12,14,44,,101,85,32,14,9,10,0.5,0.5
2024-10-20T2100,2676A,97.3731,37.3753,海西蒙古族藏族自治州,德令哈市,,47,47,59,14,14,94,,104,102,3,3,9,7,0.4,0.4
2024-10-20T2100,1048A,114.5302,36.6116,邯郸市,东污水处理厂,,28,20,21,19,10,25,,49,41,31,21,2,3,0.6,0.5
2024-10-20T2100,1049A,114.4918,36.5713,邯郸市,矿院,,,23,24,7,8,40,,50,44,,21,3,4,0.3,0.3
2024-10-20T2100,1050A,114.484,36.6133,邯郸市,丛台公园,,22,22,18,7,9,37,,48,41,18,20,2,3,0.5,0.4
2024-10-20T2100,3458A,114.7895,36.5593,邯郸市,香泉濮院小区,,28,,22,19,10,26,,49,42,27,22,3,4,0.5,0.4
2024-10-20T2100,3579A,114.50634,36.77178,邯郸市,永年区实验高中,,37,37,34,15,11,49,,52,51,21,25,3,5,0.5,0.6
2024-10-20T2100,3580A,114.20016,36.44293,邯郸市,峰峰矿区临水派出所,,18,18,17,11,6,37,,56,45,13,14,5,7,0.8,0.8
2024-10-20T2100,2634A,106.9893,33.1842,汉中市,汉川机床厂子校,,17,7,6,3,3,54,,75,64,9,6,6,5,0.5,0.4
2024-10-20T2100,2635A,107.0154,33.0706,汉中市,市监测站,,17,8,9,7,8,54,,73,58,9,6,8,10,0.8,0.7
2024-10-20T2100,2636A,107.0089,33.1138,汉中市,鑫源开发区,,16,7,8,3,7,50,,72,58,15,9,10,10,0.4,0.4
2024-10-20T2100,2637A,107.007,33.0323,汉中市,南郑大河坎水厂,,16,11,9,8,8,50,,71,54,11,9,8,10,0.4,0.4
2024-10-20T2100,1223A,120.2072,30.2111,杭州市,滨江,,49,49,45,16,15,64,,80,78,28,19,6,6,0.6,0.6
2024-10-20T2100,1224A,120.0633,30.2747,杭州市,西溪,,37,37,31,13,11,64,,78,77,27,22,6,6,0.7,0.7
2024-10-20T2100,1226A,120.3461,30.3153,杭州市,下沙,颗粒物(PM10),54,57,55,22,9,70,,92,87,41,26,8,7,0.6,0.6
2024-10-20T2100,1227A,120.1269,30.2456,杭州市,卧龙桥,,36,36,33,16,14,33,,78,66,27,21,6,6,0.5,0.5
2024-10-20T2100,1228A,120.1903,30.2692,杭州市,浙江农大,,40,40,39,16,15,61,,76,76,27,19,4,4,0.6,0.6
2024-10-20T2100,1230A,120.1197,30.3119,杭州市,和睦小学,,41,41,38,17,11,62,,81,79,38,22,3,3,0.5,0.5
2024-10-20T2100,1231A,120.3019,30.4183,杭州市,临平镇,颗粒物(PM10),54,57,45,20,12,91,,98,97,19,14,6,6,0.5,0.4
2024-10-20T2100,1232A,120.2697,30.1819,杭州市,城厢镇,,45,45,32,19,19,72,,91,89,24,17,7,7,0.5,0.5
2024-10-20T2100,1233A,120.0883,30.1808,杭州市,云栖,,28,28,36,13,8,22,,69,53,31,22,7,7,0.6,0.5
2024-10-20T2100,3557A,119.9464,30.0494,杭州市,镇二中,,40,40,34,9,7,42,,74,69,30,18,6,6,0.7,0.6
2024-10-20T2100,3558A,119.7183,30.2367,杭州市,市府大楼,颗粒物(PM10),52,54,32,23,14,72,,93,90,24,15,6,6,0.6,0.5
2024-10-20T2100,3656A,120.1556,30.2864,杭州市,消防大队,,48,48,33,20,13,68,,85,84,31,22,7,7,0.4,0.4
2024-10-20T2100,1270A,117.1959,31.7848,合肥市,明珠广场,,39,39,37,14,11,65,,81,79,26,18,7,6,0.3,0.3
2024-10-20T2100,1271A,117.3072,31.8764,合肥市,三里街,,39,39,32,9,10,56,,74,72,24,14,4,3,0.5,0.5
2024-10-20T2100,1272A,117.2588,31.8707,合肥市,琥珀山庄,,39,39,34,16,12,61,,83,80,27,15,8,8,0.6,0.5
2024-10-20T2100,1273A,117.1604,31.9052,合肥市,董铺水库,,46,46,36,17,8,44,,75,70,28,12,3,3,0.4,0.3
2024-10-20T2100,1274A,117.25,31.8571,合肥市,长江中路,,44,44,38,22,17,60,,80,79,26,15,8,8,0.7,0.6
2024-10-20T2100,1275A,117.266,31.9436,合肥市,庐阳区,,44,44,37,14,9,64,,84,80,20,15,3,2,0.5,0.5
2024-10-20T2100,1276A,117.336,31.8586,合肥市,瑶海区,,44,44,35,7,10,62,,77,75,22,14,3,3,0.3,0.3
2024-10-20T2100,1277A,117.3027,31.7964,合肥市,包河区,,39,39,37,12,12,34,,70,54,52,24,4,4,0.3,0.3
2024-10-20T2100,1278A,117.2776,31.7385,合肥市,滨湖新区,,44,44,38,17,10,58,,77,74,25,12,5,5,0.5,0.4
2024-10-20T2100,1279A,117.1318,31.8403,合肥市,高新区,,41,41,38,14,13,51,,75,71,28,16,3,3,0.8,0.6
2024-10-20T2100,3464A,117.3803,31.9147,合肥市,高教基地,,40,40,34,13,10,54,,80,74,19,8,4,4,0.5,0.4
2024-10-20T2100,3614A,79.924,37.0877,和田地区,地区环保局,颗粒物(PM10),114,178,141,38,30,70,,97,95,32,12,7,11,0.7,0.6
2024-10-20T2100,3615A,79.9131,37.113,和田地区,市环保局,颗粒物(PM10),101,151,126,34,36,32,,96,90,69,27,7,13,0.9,0.7
2024-10-20T2100,2516A,108.2011,24.715,河池市,东仁乐园,,26,26,17,12,14,16,,62,50,15,8,3,4,0.5,0.5
2024-10-20T2100,2517A,108.0497,24.6947,河池市,市环保站,,32,28,16,22,6,28,,62,55,21,8,13,11,0.7,0.6
2024-10-20T2100,2518A,108.0983,24.6989,河池市,市疾控中心,,38,38,21,25,10,19,,62,50,27,12,10,8,0.6,0.5
2024-10-20T2100,1696A,114.6778,23.7569,河源市,源西,,35,,25,24,24,44,,63,58,18,10,6,5,0.8,0.8
2024-10-20T2100,1697A,114.6944,23.7586,河源市,东埔,,45,36,25,31,29,51,,65,62,15,12,5,4,0.7,0.7
2024-10-20T2100,1698A,114.6892,23.7233,河源市,老城,,30,30,29,16,18,50,,67,63,12,9,5,4,0.7,0.7
2024-10-20T2100,1718A,115.4208,35.2464,菏泽市,气象局,颗粒物(PM10),55,60,40,27,16,39,,58,54,31,18,8,6,0.5,0.3
2024-10-20T2100,1719A,115.4747,35.2375,菏泽市,市政协,颗粒物(PM10),54,57,38,28,16,31,,54,50,49,26,14,10,0.5,0.4
2024-10-20T2100,3374A,115.5564,35.0891,菏泽市,定陶老年大学,,46,46,32,27,11,38,,46,43,32,26,8,7,0.3,0.2
2024-10-20T2100,3647A,115.4702,35.2706,菏泽市,菏泽医专,,48,48,30,30,13,37,,56,53,34,22,11,9,0.6,0.5
2024-10-20T2100,2514A,111.5264,24.4172,贺州市,环保小区,,28,28,22,15,8,49,,68,62,14,9,6,6,0.6,0.4
2024-10-20T2100,2515A,111.5608,24.4078,贺州市,政协大楼,,26,26,24,18,8,51,,70,65,13,10,5,6,0.6,0.5
2024-10-20T2100,3534A,111.4744,24.4553,贺州市,西湾,,25,25,18,17,7,50,,62,59,10,8,6,6,0.6,0.6
2024-10-20T2100,2385A,114.17,35.9019,鹤壁市,市监测站,,26,23,26,18,10,35,,60,49,42,29,3,3,0.7,0.7
2024-10-20T2100,2386A,114.2956,35.7511,鹤壁市,市交警支队,,33,33,27,3,8,39,,57,48,37,30,3,5,0.5,0.4
2024-10-20T2100,2387A,114.2878,35.7306,鹤壁市,迎宾馆,,20,20,23,9,11,37,,59,49,34,27,3,5,0.6,0.6
2024-10-20T2100,3474A,114.2617,35.6822,鹤壁市,大新区,,16,,21,11,7,26,,56,43,14,11,1,3,0.7,0.6
2024-10-20T2100,3596A,114.1572,35.9603,鹤壁市,南山宾馆,,26,,19,18,17,35,,58,49,10,8,3,3,0.5,0.4
2024-10-20T2100,2244A,130.2537,47.3416,鹤岗市,哈啤分公司,,44,44,48,25,27,31,,48,35,23,14,15,13,0.5,0.5
2024-10-20T2100,2245A,130.2684,47.3086,鹤岗市,斯达机电,,38,38,49,19,29,40,,48,40,20,18,14,15,0.2,0.2
2024-10-20T2100,2246A,130.3114,47.3388,鹤岗市,东山纸板厂,颗粒物(PM10),56,62,53,22,29,20,,15,15,29,19,19,18,0.1,0.2
2024-10-20T2100,2247A,130.1097,47.3382,鹤岗市,五号水库,,28,28,22,12,13,48,,66,53,7,7,8,8,0.5,0.5
2024-10-20T2100,2263A,127.4833,50.2524,黑河市,交通局,,36,34,26,25,20,46,,60,58,12,10,16,8,0.5,0.4
2024-10-20T2100,2264A,127.5144,50.2341,黑河市,环保局,,26,24,23,18,16,58,,71,71,6,8,4,6,0.2,0.2
2024-10-20T2100,2265A,127.5291,50.2472,黑河市,大黑河岛,,33,33,24,20,15,46,,64,60,8,10,2,1,0.8,0.8
2024-10-20T2100,1074A,115.6838,37.7541,衡水市,电机北厂,,38,38,30,24,15,22,,45,37,29,31,5,7,0.5,0.4
2024-10-20T2100,1075A,115.6303,37.7316,衡水市,市监测站,,30,30,32,14,9,24,,44,34,34,33,6,8,0.5,0.4
2024-10-20T2100,3188A,115.6683,37.7217,衡水市,市城管局,,40,28,28,28,16,28,,44,36,31,29,8,8,0.5,0.5
2024-10-20T2100,3459A,115.5989,37.5491,衡水市,地表水厂,,25,21,19,17,10,28,,44,40,20,23,1,3,0.6,0.5
2024-10-20T2100,2456A,112.5003,26.9167,衡阳市,原169医院,,20,20,20,12,13,27,,37,33,11,4,3,3,0.4,0.4
2024-10-20T2100,2457A,112.6194,26.9258,衡阳市,衡阳化工总厂,,35,,29,24,21,33,,40,38,12,10,6,5,0.6,0.6
2024-10-20T2100,2458A,112.6211,26.8956,衡阳市,珠晖区环保局,,18,16,24,12,13,33,,42,40,14,12,6,6,0.6,0.7
2024-10-20T2100,2459A,112.6197,26.8733,衡阳市,市委党校,,19,18,24,13,15,34,,45,43,16,14,7,7,0.6,0.6
2024-10-20T2100,2460A,112.6006,26.8919,衡阳市,市监测站,,26,26,24,16,16,36,,44,41,14,12,7,7,0.6,0.6
2024-10-20T2100,2461A,112.5664,26.9056,衡阳市,真空机电公司,,30,,26,21,16,30,,37,35,16,12,6,5,0.8,0.7
2024-10-20T2100,3399A,112.6703,26.882,衡阳市,师范学院,,30,22,26,21,20,32,,45,42,17,14,8,8,0.6,0.6
2024-10-20T2100,2608A,103.3772,23.3993,红河哈尼族彝族自治州,污水处理厂,,30,27,26,21,21,53,,78,67,7,5,4,5,0.4,0.4
2024-10-20T2100,2609A,103.3861,23.35,红河哈尼族彝族自治州,监测站,,30,28,26,21,21,49,,74,64,11,7,8,6,0.3,0.4
2024-10-20T2100,3038A,103.3758,23.368,红河哈尼族彝族自治州,州图书馆,,26,,20,18,13,55,,72,62,6,6,6,6,0.3,0.3
2024-10-20T2100,1090A,111.6507,40.7517,呼和浩特市,呼市一监,,36,36,20,25,14,41,,53,49,18,17,6,7,0.7,0.5
2024-10-20T2100,1091A,111.6572,40.8033,呼和浩特市,小召,,40,36,20,28,16,36,,46,41,22,21,7,8,0.6,0.5
2024-10-20T2100,1094A,111.7516,40.8369,呼和浩特市,如意水处理厂,,44,44,28,28,16,39,,50,45,24,24,2,3,0.7,0.5
2024-10-20T2100,1095A,111.7276,40.8062,呼和浩特市,二十九中,,42,41,25,29,15,42,,52,48,22,22,5,6,0.7,0.6
2024-10-20T2100,1096A,111.5512,40.7866,呼和浩特市,工大金川校区,,43,36,24,30,15,35,,50,44,25,27,4,4,0.7,0.6
2024-10-20T2100,1097A,111.717,40.7612,呼和浩特市,化肥厂生活区,,38,38,31,26,18,38,,46,43,22,21,8,9,0.5,0.4
2024-10-20T2100,3698A,111.5968,40.8178,呼和浩特市,红旗小学,,45,41,21,31,15,29,,44,38,32,30,6,6,0.8,0.6
2024-10-20T2100,3699A,111.6518,40.8389,呼和浩特市,海东办,,45,41,21,31,16,37,,50,44,25,26,5,4,0.7,0.6
2024-10-20T2100,2192A,119.7594,49.2261,呼伦贝尔市,区环保局,颗粒物(PM10),68,86,23,21,13,69,,61,61,8,9,7,7,0.5,0.4
2024-10-20T2100,3061A,119.7512,49.1577,呼伦贝尔市,国华电力东,颗粒物(PM10),75,100,19,13,9,76,,66,66,5,5,4,4,0.3,0.3
2024-10-20T2100,1250A,120.0751,30.8669,湖州市,城西水厂,颗粒物(PM10),51,52,39,10,11,80,,88,88,25,19,5,5,0.3,0.3
2024-10-20T2100,2873A,120.0875,30.8955,湖州市,仁皇山新区,,49,49,38,21,13,80,,93,93,16,13,7,7,0.5,0.5
2024-10-20T2100,2907A,120.1844,30.8596,湖州市,吴兴区站,颗粒物(PM10),53,56,42,26,14,57,,86,84,25,13,6,6,0.5,0.4
2024-10-20T2100,3562A,120.4148,30.8538,湖州市,南浔区站,颗粒物(PM10),55,59,42,27,15,56,,81,78,22,19,3,4,0.6,0.5
2024-10-20T2100,1607A,120.9092,40.7136,葫芦岛市,龙港区,,25,25,41,16,15,58,,60,60,16,26,12,29,0.5,0.8
2024-10-20T2100,1608A,120.8392,40.7514,葫芦岛市,化工街,,27,27,27,14,12,53,,56,56,26,23,15,21,0.4,0.3
2024-10-20T2100,1609A,120.8341,40.7073,葫芦岛市,新区,,32,32,24,17,12,62,,61,61,17,17,10,18,0.6,0.5
2024-10-20T2100,1610A,120.8695,40.7677,葫芦岛市,东城区,,34,34,30,21,14,44,,52,49,30,19,9,22,0.6,0.7
2024-10-20T2100,2482A,109.5981,27.5721,怀化市,林科所,,16,16,9,9,6,36,,38,38,6,5,9,7,0.6,0.7
2024-10-20T2100,2483A,109.9453,27.5444,怀化市,河西地税局,,25,25,15,17,10,35,,41,38,9,9,12,12,0.4,0.4
2024-10-20T2100,2484A,109.9781,27.5342,怀化市,市四医院,,22,22,14,15,9,32,,41,36,8,6,6,8,0.6,0.6
2024-10-20T2100,2485A,109.9972,27.5578,怀化市,监测楼,,26,26,13,15,8,34,,44,38,10,8,6,8,0.4,0.5
2024-10-20T2100,2486A,110.0394,27.583,怀化市,市委党校,,23,22,12,16,7,34,,40,38,9,7,6,7,0.3,0.4
2024-10-20T2100,1210A,119.036,33.5981,淮安市,钵池山,,46,46,37,18,12,48,,68,64,22,17,5,5,0.5,0.4
2024-10-20T2100,1211A,119.007,33.575,淮安市,北京南路,颗粒物(PM10),53,56,45,16,12,50,,68,66,22,20,9,7,0.2,0.3
2024-10-20T2100,1212A,118.989,33.6067,淮安市,市监测站,,41,41,37,17,16,48,,72,68,25,21,8,8,0.7,0.5
2024-10-20T2100,1213A,119.135,33.5039,淮安市,楚州区监测站,颗粒物(PM10),52,54,40,19,13,45,,69,66,26,23,6,6,0.7,0.6
2024-10-20T2100,1214A,119.0186,33.6297,淮安市,淮阴区监测站,,48,48,40,18,13,45,,69,65,32,23,8,7,0.7,0.6
2024-10-20T2100,3426A,118.8755,33.2894,淮安市,新华书店,颗粒物(PM10),53,56,44,22,16,49,,74,71,29,21,6,6,0.8,0.7
2024-10-20T2100,2282A,116.8004,33.975,淮北市,监测站,颗粒物(PM10),54,57,39,29,14,46,,60,54,20,17,1,2,0.4,0.3
2024-10-20T2100,2283A,116.8091,33.9007,淮北市,烈山区政府,,,,26,,12,,,54,,,15,,6,,0.1
2024-10-20T2100,3330A,116.8873,33.9836,淮北市,杜集区检察院,颗粒物(PM10),54,58,46,32,14,48,,66,60,23,16,3,2,0.4,0.3
2024-10-20T2100,4017A,116.7923,33.9535,淮北市,市博物馆,颗粒物(PM10),54,57,41,37,17,49,,66,58,26,19,4,4,0.5,0.4
2024-10-20T2100,2277A,116.8305,32.7727,淮南市,潘集区政府,细颗粒物(PM2.5),83,88,48,61,28,39,,74,68,26,15,7,8,0.6,0.5
2024-10-20T2100,2278A,117.0067,32.6524,淮南市,师范学院,细颗粒物(PM2.5),57,57,50,40,26,62,,79,76,19,16,5,7,0.4,0.5
2024-10-20T2100,2279A,116.8569,32.5951,淮南市,谢家集区政府,细颗粒物(PM2.5),53,51,34,37,19,50,,74,71,25,16,10,8,0.4,0.3
2024-10-20T2100,2280A,116.8281,32.633,淮南市,八公山区政府,颗粒物(PM10),55,59,43,38,16,48,,74,71,25,15,8,8,0.3,0.2
2024-10-20T2100,2281A,116.6325,32.6201,淮南市,焦岗湖风景区管理处,,,,,,,,,,,,,,,,
2024-10-20T2100,2894A,117.0566,32.6531,淮南市,经济技术开发区消防队,"颗粒物(PM10),细颗粒物(PM2.5)",57,63,48,40,18,59,,77,74,14,18,4,4,0.3,0.3
2024-10-20T2100,3329A,117.0108,32.5893,淮南市,山南新区,颗粒物(PM10),55,60,48,31,16,67,,82,80,13,9,3,2,0.4,0.4
2024-10-20T2100,2446A,114.9028,30.4742,黄冈市,职工中心,,43,43,31,26,17,44,,74,66,10,6,7,6,0.4,0.3
2024-10-20T2100,2929A,114.8858,30.4519,黄冈市,红卫路,,41,41,28,26,16,45,,76,68,20,14,7,6,0.5,0.5
2024-10-20T2100,3398A,114.9136,30.4445,黄冈市,市林业局,颗粒物(PM10),56,62,37,25,13,53,,81,75,17,9,5,7,0.6,0.5
2024-10-20T2100,2672A,102.0199,35.5102,黄南藏族自治州,同仁县隆务镇,颗粒物(PM10),52,54,40,25,14,61,,93,86,7,4,11,11,0.4,0.4
2024-10-20T2100,2295A,118.2903,29.6963,黄山市,延安路89号,,27,27,21,8,7,40,,66,59,7,6,6,6,0.3,0.2
2024-10-20T2100,2296A,118.327,29.7178,黄山市,黄山东路89号,,39,39,24,6,7,50,,65,61,8,7,5,5,0.3,0.3
2024-10-20T2100,2297A,118.1371,30.2756,黄山市,黄山区政府5号楼,,42,42,31,18,11,18,,53,43,10,8,7,7,0.4,0.3
2024-10-20T2100,2423A,115.0601,30.2313,黄石市,沈家营,,44,44,25,18,10,53,,69,68,21,18,10,10,0.6,0.6
2024-10-20T2100,2424A,115.0817,30.2006,黄石市,陈家湾,,44,44,24,27,12,55,,68,67,22,15,12,9,0.5,0.6
2024-10-20T2100,2426A,114.8988,30.2019,黄石市,铁山,,48,48,27,29,15,50,,67,66,15,13,10,9,1.0,0.8
2024-10-20T2100,2427A,115.0307,30.2092,黄石市,团城山,颗粒物(PM10),51,51,24,21,8,50,,67,65,21,15,6,7,0.5,0.5
2024-10-20T2100,3149A,115.0235,30.1578,黄石市,笔架山北路,,36,36,7,19,6,54,,81,77,20,13,7,7,0.6,0.6
2024-10-20T2100,1392A,114.4183,23.0528,惠州市,河南岸金山湖子站,,39,39,42,22,28,50,,79,74,14,9,7,6,0.7,0.7
2024-10-20T2100,1393A,114.4053,23.0822,惠州市,下埔横江三路子站,,39,39,40,24,27,54,,91,85,15,10,5,5,0.8,0.8
2024-10-20T2100,1394A,114.4103,23.1142,惠州市,江北云山西路子站,,38,38,40,22,24,55,,90,83,13,8,6,7,0.6,0.6
2024-10-20T2100,1395A,114.4645,22.7833,惠州市,惠阳区承修路船湖子站,,49,49,35,24,18,52,,82,78,20,15,7,7,0.6,0.5
2024-10-20T2100,1396A,114.5317,22.7422,惠州市,大亚湾管委会子站,,40,40,27,18,14,71,,101,97,21,13,8,9,0.7,0.6
2024-10-20T2100,3314A,114.4338,22.8134,惠州市,惠阳秋长,,32,29,28,22,21,59,,91,86,17,11,6,6,0.7,0.7
2024-10-20T2100,3452A,114.6517,22.775,惠州市,大亚湾霞涌,,46,46,26,24,18,50,,91,82,14,8,6,6,1.1,0.7
2024-10-20T2100,2240A,130.9762,45.3001,鸡西市,环保局,颗粒物(PM10),91,132,31,51,13,7,,58,35,55,12,13,7,0.9,0.2
2024-10-20T2100,2243A,130.9429,45.3039,鸡西市,第一中学,颗粒物(PM10),96,142,35,52,11,6,,54,37,62,10,10,6,1.0,0.2
2024-10-20T2100,3707A,131.0207,45.3073,鸡西市,欧美日汽修厂,颗粒物(PM10),72,94,37,50,16,20,,53,37,35,16,11,9,0.5,0.2
2024-10-20T2100,3709A,130.9967,45.3106,鸡西市,市政设施管理处,颗粒物(PM10),109,168,40,79,19,4,,48,26,47,17,13,6,1.0,0.2
2024-10-20T2100,2367A,114.9754,27.0803,吉安市,红声器材厂,,46,46,37,22,14,30,,36,36,25,17,11,10,0.6,0.5
2024-10-20T2100,2368A,114.9658,27.0999,吉安市,市森林工业局,,41,41,30,22,15,33,,38,38,20,16,10,10,0.7,0.7
2024-10-20T2100,2369A,114.99,27.1312,吉安市,市环境监测站,,38,38,30,21,15,33,,38,38,19,14,13,13,0.5,0.5
2024-10-20T2100,2370A,115.0093,27.0968,吉安市,青原区法院,,48,48,33,21,16,28,,34,34,23,18,15,14,0.6,0.6
2024-10-20T2100,1772A,126.54,43.8622,吉林市,哈达湾,,32,24,22,22,11,48,,58,54,25,20,7,8,0.5,0.5
2024-10-20T2100,1773A,126.5844,43.8358,吉林市,东局子,,17,15,18,9,11,52,,61,60,18,16,5,5,0.5,0.5
2024-10-20T2100,1774A,126.5052,43.8245,吉林市,电力学院,颗粒物(PM10),96,142,40,69,24,8,,53,37,55,25,11,6,1.7,0.8
2024-10-20T2100,1775A,126.6133,43.8972,吉林市,江北,颗粒物(PM10),67,84,35,46,17,33,,61,48,23,20,9,9,0.9,0.5
2024-10-20T2100,1776A,126.555,43.8306,吉林市,江南公园,,39,38,22,27,14,47,,57,54,25,22,7,8,0.5,0.5
2024-10-20T2100,1778A,126.7061,43.7133,吉林市,丰满,,20,12,10,9,5,61,,63,63,3,3,7,7,0.0,0.5
2024-10-20T2100,2868A,126.4739,43.953,吉林市,九站,,32,32,34,19,16,40,,49,44,30,29,6,8,0.7,0.6
2024-10-20T2100,1299A,116.9862,36.6114,济南市,科干所,,46,46,34,17,11,21,,52,40,50,31,6,8,0.6,0.6
2024-10-20T2100,1300A,116.9376,36.665,济南市,农科所,,46,46,37,15,4,14,,48,38,56,40,5,7,0.6,0.6
2024-10-20T2100,1301A,117.1265,36.6734,济南市,开发区,,46,46,35,22,15,42,,56,52,37,32,4,6,0.5,0.5
2024-10-20T2100,1303A,117.0624,36.6868,济南市,省种子仓库,,46,46,39,19,11,40,,55,52,30,23,3,5,0.3,0.3
2024-10-20T2100,1304A,116.9489,36.6447,济南市,机床二厂,颗粒物(PM10),52,54,38,17,10,19,,52,40,56,37,4,6,0.7,0.7
2024-10-20T2100,1305A,117.0495,36.663,济南市,市监测站,,42,42,34,24,11,42,,55,50,42,32,4,6,0.6,0.6
2024-10-20T2100,1306A,116.7675,36.5484,济南市,长清党校,,42,42,35,22,11,20,,55,48,48,34,4,6,0.5,0.5
2024-10-20T2100,1616A,117.6795,36.229,济南市,技术学院,,46,46,28,27,13,36,,72,64,38,21,8,10,0.5,0.6
2024-10-20T2100,1961A,117.532,36.6868,济南市,东山小学,颗粒物(PM10),51,51,40,32,14,31,,59,53,43,31,4,4,0.5,0.5
2024-10-20T2100,3059A,117.7161,36.2049,济南市,泰兴公司,,48,48,31,31,13,40,,72,64,37,22,2,4,0.4,0.4
2024-10-20T2100,3064A,117.6867,36.2171,济南市,莱芜战役纪念馆,颗粒物(PM10),51,51,36,27,13,37,,71,62,35,23,5,7,0.5,0.5
2024-10-20T2100,3494A,117.1673,36.9782,济南市,济阳区政府,,42,42,36,12,10,24,,64,52,46,35,1,3,0.2,0.3
2024-10-20T2100,3495A,117.1171,36.63,济南市,锦屏中学,,34,34,28,10,9,26,,59,44,47,30,5,7,0.4,0.4
2024-10-20T2100,3682A,116.9814,36.6819,济南市,济南四建,,41,41,33,10,12,23,,46,38,54,41,3,4,0.5,0.4
2024-10-20T2100,1653A,116.6251,35.4302,济宁市,火炬城,,35,33,30,24,11,37,,61,56,18,11,8,8,0.6,0.5
2024-10-20T2100,1655A,116.5491,35.4042,济宁市,电化厂,颗粒物(PM10),51,51,38,27,18,28,,55,45,35,22,8,8,0.9,0.8
2024-10-20T2100,3500A,116.5814,35.3707,济宁市,北湖一中,,36,36,30,19,10,37,,60,51,32,23,5,4,0.4,0.3
2024-10-20T2100,3501A,116.8249,35.5593,济宁市,服务中心,,44,44,34,23,11,28,,60,51,30,18,8,8,0.8,0.6
2024-10-20T2100,3678A,116.5907,35.4054,济宁市,市第七中学,,36,36,31,22,11,43,,64,56,27,17,8,8,0.6,0.5
2024-10-20T2100,2255A,130.2751,46.8028,佳木斯市,佳纺,,28,28,36,10,23,49,,52,50,12,14,4,4,0.3,0.4
2024-10-20T2100,2256A,130.3995,46.8307,佳木斯市,发电厂,,30,30,31,12,22,22,,49,41,36,15,4,6,0.4,0.4
2024-10-20T2100,2257A,130.3258,46.7975,佳木斯市,环保局,,23,23,37,7,22,45,,49,46,15,13,8,9,0.3,0.3
2024-10-20T2100,2258A,130.3648,46.8032,佳木斯市,十一中,,30,30,33,12,22,31,,48,43,30,16,4,6,0.5,0.4
2024-10-20T2100,2259A,130.3794,46.7588,佳木斯市,四丰,,,18,28,3,16,47,,53,52,,,1,1,0.1,0.2
2024-10-20T2100,1252A,120.7436,30.778,嘉兴市,清河小学,颗粒物(PM10),51,52,37,17,10,42,,70,61,28,17,5,5,1.0,0.8
2024-10-20T2100,1253A,120.726,30.7478,嘉兴市,嘉兴学院,,,,26,,9,,,63,,,12,,4,,0.4
2024-10-20T2100,2872A,120.7846,30.7525,嘉兴市,南湖区残联,,46,46,38,26,13,50,,77,66,26,15,6,6,0.8,0.6
2024-10-20T2100,3407A,120.6916,30.7739,嘉兴市,秀洲住建,,49,49,43,20,15,49,,72,60,21,14,6,7,0.7,0.5
2024-10-20T2100,1945A,98.2908,39.7711,嘉峪关市,气象局,颗粒物(PM10),90,129,143,36,42,74,,97,93,19,18,11,5,0.5,0.4
2024-10-20T2100,2884A,98.2672,39.7978,嘉峪关市,酒钢宾馆,颗粒物(PM10),90,129,149,36,45,85,,101,100,17,14,26,28,0.4,0.4
2024-10-20T2100,3248A,98.2643,39.7724,嘉峪关市,雄关区,颗粒物(PM10),82,114,118,33,33,78,,100,96,23,16,13,11,0.8,0.3
2024-10-20T2100,1383A,113.1064,22.6058,江门市,北街,,43,43,42,21,30,64,,92,92,34,23,7,6,0.7,0.6
2024-10-20T2100,1384A,113.0731,22.5835,江门市,西区,,46,46,44,21,26,48,,91,88,45,27,8,7,0.8,0.7
2024-10-20T2100,1385A,113.0219,22.5311,江门市,圭峰西,,34,34,40,21,34,69,,111,111,27,19,5,4,0.6,0.6
2024-10-20T2100,1386A,113.0828,22.5947,江门市,东湖,,42,42,43,27,26,54,,90,90,37,22,8,6,0.7,0.5
2024-10-20T2100,3311A,113.1075,22.5647,江门市,江海富民,颗粒物(PM10),55,59,68,28,40,62,,102,102,37,23,8,7,0.8,0.6
2024-10-20T2100,3449A,113.05,22.4667,江门市,新会银湖,,48,48,45,30,45,59,,102,102,38,26,7,6,0.8,0.7
2024-10-20T2100,1828A,113.227,35.2125,焦作市,市环保局,,33,33,36,19,15,51,,55,46,22,23,2,5,0.1,0.1
2024-10-20T2100,1830A,113.1992,35.2590,焦作市,影视城,细颗粒物(PM2.5),57,42,39,40,31,22,,60,41,32,17,7,6,0.9,0.6
2024-10-20T2100,3169A,113.2725,35.2067,焦作市,太极体育中心,,34,34,39,17,13,38,,54,42,16,12,2,4,0.5,0.5
2024-10-20T2100,3335A,113.3137,35.2641,焦作市,马村街道办,,39,39,38,25,13,29,,56,44,25,19,2,5,0.4,0.3
2024-10-20T2100,3336A,113.2465,35.2373,焦作市,焦作技师学院,,32,27,29,22,14,32,,51,40,22,16,2,4,0.7,0.5
2024-10-20T2100,3477A,113.1656,35.2539,焦作市,中站许衡医院,颗粒物(PM10),52,54,40,32,20,18,,53,32,37,20,7,5,0.7,0.3
2024-10-20T2100,3981A,113.2449,35.1803,焦作市,原李万街道办,,49,49,41,10,8,43,,52,43,19,18,3,5,0.4,0.4
2024-10-20T2100,1708A,116.3701,23.5345,揭阳市,新兴,,36,36,30,15,16,96,,92,92,16,12,6,7,0.6,0.5
2024-10-20T2100,1709A,116.3264,23.5443,揭阳市,西马,,35,35,27,11,12,97,,96,96,11,6,7,7,0.8,0.7
2024-10-20T2100,1710A,116.3611,23.5626,揭阳市,东兴,颗粒物(PM10),52,54,29,13,12,97,,95,95,13,8,6,7,0.8,0.7
2024-10-20T2100,1711A,116.4151,23.5294,揭阳市,渔湖,,43,43,28,16,9,94,,92,92,14,10,7,8,0.5,0.5
2024-10-20T2100,3320A,116.403,23.5699,揭阳市,曲溪,,42,42,28,17,12,94,,94,94,18,13,1,3,0.5,0.4
2024-10-20T2100,1944A,102.1692,38.5167,金昌市,天庆家园,细颗粒物(PM2.5),82,76,68,60,32,88,,93,92,14,13,13,16,0.6,0.6
2024-10-20T2100,3170A,102.1864,38.5253,金昌市,市委党校,颗粒物(PM10),79,107,92,39,32,85,,95,94,17,12,7,13,0.6,0.6
2024-10-20T2100,4022A,102.1647,38.5371,金昌市,金川区人防中心,颗粒物(PM10),70,90,88,27,30,84,,95,93,14,12,8,13,0.6,0.6
2024-10-20T2100,1262A,119.647,29.077,金华市,十五中,颗粒物(PM10),51,51,34,20,11,54,,68,64,30,24,3,3,0.6,0.6
2024-10-20T2100,1263A,119.686,29.1029,金华市,监测站,颗粒物(PM10),51,52,33,24,17,43,,65,60,27,20,3,3,0.5,0.5
2024-10-20T2100,3659A,119.656,29.1131,金华市,气象局,颗粒物(PM10),53,55,31,16,5,42,,66,61,34,24,4,4,0.6,0.5
2024-10-20T2100,1767A,121.1115,41.0879,锦州市,南山,,41,41,39,28,13,35,,44,37,41,32,11,22,0.5,0.6
2024-10-20T2100,1768A,121.0533,40.8434,锦州市,开发区,颗粒物(PM10),62,73,43,23,14,23,,43,34,50,29,41,19,0.9,0.5
2024-10-20T2100,1769A,121.1836,41.1119,锦州市,百股街道,,30,30,49,12,18,46,,45,43,29,30,9,28,0.9,1.2
2024-10-20T2100,1770A,121.1178,41.1222,锦州市,天安街道,,44,44,42,25,16,37,,43,37,40,37,11,20,0.6,0.8
2024-10-20T2100,1771A,121.1303,41.1386,锦州市,北湖公园,,45,45,41,26,19,40,,46,38,37,31,12,22,0.7,0.8
2024-10-20T2100,2160A,112.85,35.5051,晋城市,自来水公司,,27,27,35,17,11,47,,59,51,26,24,5,7,0.5,0.8
2024-10-20T2100,2161A,112.8318,35.4936,晋城市,白云商贸,,27,27,36,9,10,42,,59,51,31,28,3,5,0.5,0.6
2024-10-20T2100,2162A,112.8508,35.4887,晋城市,市环保局,,15,13,27,7,11,46,,58,49,20,24,3,5,0.7,0.8
2024-10-20T2100,2163A,112.8676,35.4897,晋城市,技术学院,,23,23,37,9,12,49,,58,47,24,28,2,5,0.5,0.6
2024-10-20T2100,2165A,112.8453,35.546,晋城市,白马寺,,26,26,29,12,17,38,,54,46,26,22,8,9,0.6,0.6
2024-10-20T2100,3620A,112.8271,35.4828,晋城市,泽州一中,,18,16,26,9,11,38,,57,48,36,32,3,6,0.7,0.6
2024-10-20T2100,2171A,112.7532,37.6945,晋中市,锦纶小区,,48,48,26,24,10,29,,61,41,35,20,17,7,0.7,0.5
2024-10-20T2100,2173A,112.7249,37.7067,晋中市,南都小区,,48,48,32,30,21,30,,58,39,36,22,12,6,0.6,0.3
2024-10-20T2100,2174A,112.6991,37.6982,晋中市,榆次区政府,,41,41,26,25,15,29,,61,36,35,25,6,5,0.5,0.3
2024-10-20T2100,2865A,112.7195,37.6828,晋中市,榆次三中,,39,39,27,24,9,28,,58,40,36,23,21,10,0.6,0.4
2024-10-20T2100,2439A,112.2014,31.0481,荆门市,竹园小学,,39,28,36,27,19,24,,51,31,29,22,9,10,0.5,0.5
2024-10-20T2100,2440A,112.1969,30.9891,荆门市,掇刀,,38,31,36,26,20,29,,57,36,30,21,4,4,0.4,0.4
2024-10-20T2100,2441A,112.2213,31.0386,荆门市,石化一小,,35,,37,24,20,31,,54,35,20,18,18,17,0.3,0.3
2024-10-20T2100,3012A,112.1849,31.0362,荆门市,西山林语,,33,26,37,23,21,35,,57,39,22,19,5,6,0.4,0.4
2024-10-20T2100,3547A,112.1632,31.0138,荆门市,龙泉中学南校,,29,24,35,20,19,35,,58,39,28,25,5,6,0.5,0.5
2024-10-20T2100,1844A,112.2494,30.3197,荆州市,市图书馆,,,,32,11,21,22,,57,28,24,21,4,5,,0.7
2024-10-20T2100,1845A,112.2008,30.3544,荆州市,市委党校,,16,14,32,11,21,27,,61,33,25,24,5,7,0.4,0.4
2024-10-20T2100,3194A,112.2747,30.3122,荆州市,管委会,,23,,31,16,20,26,,63,32,22,21,7,8,0.5,0.4
2024-10-20T2100,3548A,112.1655,30.3364,荆州市,学苑路,,20,20,38,8,18,29,,63,35,27,23,6,16,0.6,0.6
2024-10-20T2100,2342A,117.3102,29.3867,景德镇市,王港中学,,,,,,,,,,,,,,,,
2024-10-20T2100,2343A,117.2117,29.2933,景德镇市,老干部活动中心,,19,19,10,9,4,43,,52,51,10,7,6,5,0.2,0.2
2024-10-20T2100,2344A,117.1894,29.2789,景德镇市,兽医站,,18,18,21,9,5,50,,57,57,5,5,6,6,0.3,0.3
2024-10-20T2100,2345A,117.1547,29.2617,景德镇市,台达陶瓷,,,19,10,15,12,48,,54,54,,5,,6,0.4,0.4
2024-10-20T2100,2346A,117.2461,29.2956,景德镇市,陶研所,,16,16,9,8,4,47,,55,53,7,7,7,4,0.3,0.3
2024-10-20T2100,1803A,115.9872,29.6815,九江市,十里,,46,46,35,17,12,61,,69,69,16,7,9,8,0.5,0.5
2024-10-20T2100,1804A,115.9584,29.7046,九江市,茅山头,,43,38,31,30,16,58,,68,67,20,15,6,8,0.6,0.5
2024-10-20T2100,1805A,115.9877,29.7295,九江市,西园,,48,48,31,27,17,63,,78,77,18,12,7,6,0.5,0.4
2024-10-20T2100,1806A,116.0172,29.6547,九江市,五七二七厂,,48,48,34,24,16,56,,64,63,18,13,11,8,0.5,0.4
2024-10-20T2100,1808A,115.9114,29.6038,九江市,综合工业园,,41,41,34,26,22,53,,68,65,31,16,9,6,0.3,0.3
2024-10-20T2100,1809A,116.0721,29.7535,九江市,石化总厂,,44,44,39,27,18,58,,66,65,19,14,8,8,0.6,0.5
2024-10-20T2100,1810A,115.9773,29.5698,九江市,庐山气象台,,25,18,12,7,8,78,,81,81,2,4,7,7,0.7,0.7
2024-10-20T2100,3190A,116.0254,29.6994,九江市,外国语学校,,50,50,33,30,16,58,,64,64,24,18,6,4,0.7,0.7
2024-10-20T2100,2658A,98.5061,39.7443,酒泉市,仓门街子站,颗粒物(PM10),81,112,199,40,59,66,,82,78,17,20,14,10,0.5,0.4
2024-10-20T2100,2659A,98.4989,39.7256,酒泉市,油田生活基地,颗粒物(PM10),90,129,212,43,55,68,,92,89,18,17,34,11,0.4,0.4
2024-10-20T2100,2698A,76.0072,39.4467,喀什地区,巡警大队,颗粒物(PM10),86,121,148,3,31,65,,94,94,62,50,3,5,0.4,0.6
2024-10-20T2100,2699A,75.9755,39.4694,喀什地区,吾办,细颗粒物(PM2.5),95,137,144,71,54,54,,82,82,63,51,3,3,0.6,0.8
2024-10-20T2100,4027A,75.9483,39.4689,喀什地区,老干局,颗粒物(PM10),84,117,147,17,28,86,,95,95,34,47,2,2,0.5,0.7
2024-10-20T2100,1824A,114.3389,34.7781,开封市,肿瘤医院,,33,33,23,23,15,34,,52,42,26,17,8,7,0.4,0.3
2024-10-20T2100,1826A,114.2885,34.7965,开封市,世纪星幼儿园,,31,31,27,10,10,36,,57,43,26,21,2,2,0.4,0.2
2024-10-20T2100,3147A,114.3438,34.8106,开封市,龙亭公园,,29,29,23,16,12,35,,52,41,22,16,3,3,0.5,0.5
2024-10-20T2100,3210A,114.3644,34.7964,开封市,汴京公园,,36,36,26,20,12,28,,52,39,29,18,4,4,0.4,0.4
2024-10-20T2100,3473A,114.2485,34.8306,开封市,技师学院,,29,29,26,18,13,33,,57,41,30,19,5,4,0.4,0.3
2024-10-20T2100,3592A,114.4644,34.7556,开封市,祥符区生态环境局,,47,47,26,20,12,22,,46,34,37,29,3,7,0.4,0.4
2024-10-20T2100,1951A,84.895,45.6094,克拉玛依市,长征新村,,26,26,12,3,5,47,,62,61,20,9,6,6,0.3,0.2
2024-10-20T2100,1952A,84.8988,45.5893,克拉玛依市,南林小区,,24,24,11,14,7,49,,61,60,23,10,4,4,0.5,0.4
2024-10-20T2100,1954A,84.905,44.3396,克拉玛依市,独山子区,,21,21,19,3,10,46,,91,86,40,15,8,8,0.4,0.2
2024-10-20T2100,1955A,85.6979,46.098,克拉玛依市,乌尔禾区商贸楼,,21,21,9,3,6,61,,71,70,11,7,3,3,0.3,0.2
2024-10-20T2100,3612A,85.1045,45.6899,克拉玛依市,白碱滩区新站,,20,20,12,3,6,58,,66,66,16,11,7,8,0.1,0.1
2024-10-20T2100,2697A,76.1454,39.7142,克孜勒苏柯尔克孜自治州,市人民政府,颗粒物(PM10),71,91,81,26,26,78,,120,117,55,16,4,18,0.7,0.6
2024-10-20T2100,3665A,76.1658,39.7157,克孜勒苏柯尔克孜自治州,克州文化中心,颗粒物(PM10),70,90,73,26,23,97,,112,112,39,22,6,14,0.6,0.5
2024-10-20T2100,1450A,102.8204,24.8886,昆明市,呈贡新区,,36,36,32,16,16,19,,68,55,41,22,4,4,0.9,0.7
2024-10-20T2100,1451A,102.6251,24.9608,昆明市,西山森林公园,,,,,,,,,,,,,,,,
2024-10-20T2100,1452A,102.7252,25.0902,昆明市,龙泉镇,,40,40,29,17,19,11,,61,48,42,22,6,6,0.9,0.7
2024-10-20T2100,1453A,102.7266,25.0375,昆明市,东风东路,,20,20,27,13,17,46,,61,57,23,15,7,7,0.6,0.5
2024-10-20T2100,1454A,102.6742,25.0669,昆明市,金鼎山,,29,29,34,12,17,49,,64,61,28,20,8,7,0.5,0.5
2024-10-20T2100,1455A,102.6644,25.0401,昆明市,碧鸡广场,,22,22,32,15,18,50,,63,60,24,22,8,7,0.2,0.3
2024-10-20T2100,3179A,102.7494,25.0119,昆明市,官渡区博物馆,,23,23,27,12,13,40,,66,61,23,15,7,7,0.5,0.4
2024-10-20T2100,3375A,102.8017,24.8336,昆明市,青年创业园,,20,20,19,12,14,1,,70,53,40,13,5,4,0.8,0.5
2024-10-20T2100,3550A,102.7997,24.9786,昆明市,昆明学院,,29,29,29,19,19,25,,68,58,41,26,7,6,0.6,0.5
2024-10-20T2100,3551A,102.5967,24.6736,昆明市,晋宁区生态环境分局,,39,,35,27,26,26,,72,60,23,16,2,2,0.5,0.6
2024-10-20T2100,3552A,102.6678,24.9856,昆明市,云天化总部,,16,15,25,11,19,41,,75,72,25,10,5,5,0.4,0.4
2024-10-20T2100,1456A,91.1319,29.6514,拉萨市,八廓街,,30,21,11,11,7,95,,108,106,14,8,6,10,0.3,0.2
2024-10-20T2100,1457A,91.1221,29.6747,拉萨市,市环保局,,31,20,13,9,7,99,,105,105,8,10,6,8,0.3,0.3
2024-10-20T2100,1458A,91.0874,29.6475,拉萨市,区监测站,,30,17,10,8,7,94,,101,101,12,10,6,8,0.6,0.5
2024-10-20T2100,1459A,91.1774,29.6541,拉萨市,西藏大学,,29,22,9,9,6,91,,104,103,10,4,6,9,0.3,0.3
2024-10-20T2100,1460A,90.9798,29.6588,拉萨市,区辐射站,,30,15,14,8,7,95,,102,102,8,13,8,9,0.2,0.2
2024-10-20T2100,1461A,91.0834,29.6292,拉萨市,拉萨火车站,,,,8,,6,,,88,,,6,,7,,0.1
2024-10-20T2100,2520A,109.2203,23.7256,来宾市,来宾技工学校,,50,50,19,23,11,102,,114,114,19,11,15,8,1.2,0.8
2024-10-20T2100,3535A,109.1781,23.7297,来宾市,兴宾区政府,,35,33,16,21,9,110,,114,114,12,7,12,8,1.1,0.8
2024-10-20T2100,4002A,109.2416,23.7461,来宾市,中南小学,,,,19,,9,,,113,113,22,8,,6,1.2,0.7
2024-10-20T2100,1476A,103.631,36.1031,兰州市,兰炼宾馆,细颗粒物(PM2.5),79,98,53,58,32,9,,81,62,86,43,9,8,1.0,0.6
2024-10-20T2100,1477A,104.1373,35.9454,兰州市,榆中兰大校区,,,,,,,,,,,,,,,,
2024-10-20T2100,1478A,103.8412,36.0726,兰州市,生物制品所,颗粒物(PM10),56,61,43,36,30,26,,78,66,47,36,8,10,0.5,0.3
2024-10-20T2100,1479A,103.831,36.0464,兰州市,铁路设计院,颗粒物(PM10),73,95,50,43,34,4,,73,50,96,47,9,8,1.5,0.7
2024-10-20T2100,3186A,103.7158,36.1058,兰州市,教育港,颗粒物(PM10),84,117,56,45,36,3,,80,61,86,39,10,9,1.3,0.6
2024-10-20T2100,3241A,103.7439,36.0842,兰州市,百合公园,颗粒物(PM10),67,83,42,29,25,7,,83,64,80,38,8,7,1.2,0.7
2024-10-20T2100,3242A,103.9611,35.998,兰州市,和平,,47,47,37,16,20,57,,95,84,26,22,9,10,0.2,0.4
2024-10-20T2100,3245A,103.6633,36.533,兰州新区,新区管委会,颗粒物(PM10),54,57,42,28,24,66,,107,100,30,14,5,6,0.5,0.5
2024-10-20T2100,3246A,103.6975,36.4789,兰州新区,舟曲中学,,42,42,26,15,15,74,,108,105,28,15,7,7,0.3,0.3
2024-10-20T2100,1067A,116.6708,39.5111,廊坊市,药材公司,,,44,42,27,22,22,,42,37,34,37,3,4,,0.6
2024-10-20T2100,1068A,116.7214,39.5589,廊坊市,开发区,,33,31,34,23,18,25,,46,41,52,43,1,3,0.7,0.6
2024-10-20T2100,1070A,116.7244,39.5269,廊坊市,北华航天学院,,41,41,44,16,17,32,,48,44,32,35,4,6,0.5,0.6
2024-10-20T2100,2919A,116.7022,39.5453,廊坊市,河北工业大学,,46,46,46,21,20,31,,47,43,34,41,4,7,0.6,0.6
2024-10-20T2100,2535A,103.7723,29.5462,乐山市,花湖湾,,11,9,19,3,12,34,,34,34,9,13,3,3,0.7,0.7
2024-10-20T2100,2536A,103.7627,29.5844,乐山市,牛耳桥,,13,9,16,9,15,41,,38,33,16,21,4,5,0.5,0.5
2024-10-20T2100,2537A,103.7508,29.6006,乐山市,市第三水厂,,13,12,19,8,14,40,,41,38,17,18,3,4,0.7,0.7
2024-10-20T2100,2538A,103.7571,29.5664,乐山市,市监测站,,13,10,18,9,11,40,,36,36,12,15,3,4,0.7,0.6
2024-10-20T2100,3361A,103.7311,29.5628,乐山市,理工大学,,13,9,19,8,17,41,,32,32,11,18,3,3,0.6,0.6
2024-10-20T2100,2598A,100.2143,26.8576,丽江市,西南郊,,31,31,21,16,12,50,,79,71,20,10,7,6,0.8,0.7
2024-10-20T2100,2599A,100.2497,26.8802,丽江市,丽江古城,,34,34,21,20,13,45,,71,62,18,12,10,9,0.6,0.5
2024-10-20T2100,2600A,100.2203,26.8906,丽江市,市中心,,18,14,16,12,7,42,,73,62,21,10,6,5,0.6,0.5
2024-10-20T2100,1267A,119.914,28.4514,丽水市,监测站大楼,,38,38,16,21,5,48,,55,54,21,11,3,2,0.5,0.5
2024-10-20T2100,1268A,119.93,28.4586,丽水市,莲都小学,颗粒物(PM10),51,52,16,20,6,47,,57,56,22,12,4,4,0.4,0.3
2024-10-20T2100,1269A,119.879,28.4231,丽水市,余庄前,,29,29,16,16,8,17,,49,37,12,11,4,4,0.4,0.3
2024-10-20T2100,1173A,119.176,34.5885,连云港市,市环境监测站,,41,41,37,17,11,55,,67,66,28,21,8,9,0.2,0.4
2024-10-20T2100,3000A,119.3581,34.6972,连云港市,德源药业,,44,44,36,17,12,46,,65,61,42,23,5,5,0.2,0.3
2024-10-20T2100,3007A,119.178,34.844,连云港市,新城一中,颗粒物(PM10),51,52,37,29,13,53,,72,69,30,22,6,6,0.5,0.7
2024-10-20T2100,3008A,119.3608,34.7519,连云港市,胡沟管理处,,36,36,34,12,9,74,,68,68,13,13,10,8,0.1,0.2
2024-10-20T2100,3009A,119.1478,34.5911,连云港市,矿山设计院,,36,36,37,14,11,46,,66,62,31,21,6,8,0.4,0.5
2024-10-20T2100,3434A,119.2413,34.6539,连云港市,工贸学校,,46,46,39,20,14,62,,73,73,21,17,9,9,0.5,0.6
2024-10-20T2100,3664A,119.4172,34.7341,连云港市,连云街道,,46,46,41,17,12,68,,65,65,18,22,8,7,0.3,0.4
2024-10-20T2100,2571A,102.3431,27.8099,凉山彝族自治州,青龙寺,,25,25,21,8,8,56,,88,77,3,2,8,9,0.5,0.6
2024-10-20T2100,2572A,102.2721,27.8415,凉山彝族自治州,邛海宾馆,,31,31,30,20,18,89,,90,89,12,12,18,15,0.8,0.8
2024-10-20T2100,2573A,102.2625,27.898,凉山彝族自治州,西昌市政府,,28,20,26,14,17,89,,86,86,10,10,19,13,0.7,0.8
2024-10-20T2100,2574A,102.2685,27.8851,凉山彝族自治州,凉山州政府,,36,36,30,23,17,90,,90,89,10,13,17,11,0.6,0.7
2024-10-20T2100,2575A,102.237,27.8914,凉山彝族自治州,长安,,31,31,28,18,17,84,,86,86,17,16,28,14,1.5,0.9
2024-10-20T2100,2212A,123.2,41.1953,辽阳市,宏伟区,,27,27,48,17,20,75,,72,72,4,23,7,21,0.5,0.8
2024-10-20T2100,2213A,123.1683,41.2495,辽阳市,新华园,,28,21,48,19,20,69,,62,62,6,27,12,24,0.4,0.7
2024-10-20T2100,2214A,123.2354,41.2639,辽阳市,滨河路,,22,21,44,14,25,69,,67,67,7,28,9,30,0.7,0.9
2024-10-20T2100,2215A,123.149,41.2991,辽阳市,铁西工业园,,27,27,46,17,22,66,,54,54,5,26,12,22,0.8,1.1
2024-10-20T2100,2227A,125.1358,42.8845,辽源市,环保局,细颗粒物(PM2.5),80,92,47,59,23,12,,51,34,57,28,12,9,1.1,0.9
2024-10-20T2100,3239A,125.0764,42.9078,辽源市,银鹰制药,细颗粒物(PM2.5),90,87,42,67,27,28,,51,34,50,32,35,19,1.0,0.6
2024-10-20T2100,1625A,115.9848,36.4372,聊城市,区政府,,40,40,30,23,10,16,,55,47,59,31,8,10,0.5,0.4
2024-10-20T2100,2878A,116.0072,36.4343,聊城市,聊大东校,,36,36,34,25,14,20,,58,50,47,27,6,10,0.3,0.3
2024-10-20T2100,3200A,115.9819,36.4978,聊城市,监控中心,,44,44,30,27,14,9,,56,42,65,38,7,9,0.6,0.5
2024-10-20T2100,3513A,116.0445,36.4361,聊城市,九州社区,,31,31,30,12,10,38,,56,50,27,21,6,8,0.2,0.3
2024-10-20T2100,4018A,116.0567,36.4608,聊城市,星美广场,,44,44,39,20,9,39,,62,57,25,20,9,11,0.3,0.3
2024-10-20T2100,2632A,94.3681,29.6376,林芝市,林芝监测站,,,,5,10,5,71,,80,80,3,3,5,6,0.3,0.3
2024-10-20T2100,2633A,94.3616,29.6616,林芝市,林芝人民医院,,,,,10,6,72,,85,84,8,6,6,6,0.4,0.4
2024-10-20T2100,2603A,100.0781,23.8982,临沧市,市环保局,,38,,32,26,19,46,,66,64,14,11,4,7,0.6,0.6
2024-10-20T2100,2604A,100.0894,23.8822,临沧市,市气象局,,26,21,34,18,25,52,,68,66,11,11,7,10,0.6,0.6
2024-10-20T2100,1733A,111.5531,36.0783,临汾市,临钢医院,,36,27,20,25,13,32,,56,35,23,20,2,4,0.6,0.6
2024-10-20T2100,1734A,111.5028,36.0714,临汾市,技工学校,,32,32,20,22,17,34,,56,39,26,21,3,5,0.6,0.6
2024-10-20T2100,1736A,111.5018,36.0855,临汾市,市委,,25,23,22,17,10,42,,60,45,19,18,4,6,0.7,0.7
2024-10-20T2100,3018A,111.505,36.1014,临汾市,唐尧大酒店,,32,29,24,22,14,42,,60,45,23,21,3,6,0.6,0.7
2024-10-20T2100,3668A,111.5036,36.0414,临汾市,城南,,45,,23,31,18,12,,58,38,38,18,4,5,0.8,0.8
2024-10-20T2100,2667A,103.2069,35.5993,临夏回族自治州,环保局,颗粒物(PM10),68,86,43,21,17,9,,80,72,64,21,5,3,1.1,0.7
2024-10-20T2100,2668A,103.2417,35.6057,临夏回族自治州,建设大厦,,39,39,32,14,21,19,,83,76,44,15,4,3,0.8,0.6
2024-10-20T2100,1618A,118.3429,35.0532,临沂市,沂河小区,颗粒物(PM10),54,58,36,26,13,57,,77,75,30,15,10,6,0.3,0.3
2024-10-20T2100,1619A,118.295,35.0583,临沂市,鲁南制药厂,颗粒物(PM10),57,63,31,20,10,40,,75,70,40,13,15,4,0.4,0.3
2024-10-20T2100,1620A,118.2794,34.9976,临沂市,新光毛纺厂,颗粒物(PM10),60,70,28,24,8,30,,76,67,58,20,9,5,0.6,0.5
2024-10-20T2100,1621A,118.3956,35.0888,临沂市,河东保险公司,颗粒物(PM10),63,75,43,20,10,56,,81,78,39,21,3,2,0.5,0.4
2024-10-20T2100,3370A,118.3564,35.0215,临沂市,十里堡居委,颗粒物(PM10),52,53,28,19,9,60,,73,71,27,17,4,4,0.4,0.3
2024-10-20T2100,3496A,118.3604,35.1084,临沂市,南坊新区,颗粒物(PM10),57,63,36,27,11,41,,77,72,48,22,10,4,0.5,0.4
2024-10-20T2100,3860A,118.3920,35.0300,临沂市,皇山花园小区,,,53,34,22,12,,,75,74,30,21,2,2,0.3,0.2
2024-10-20T2100,1870A,109.4856,24.3895,柳州市,柳东小学,,23,22,13,16,9,68,,82,80,9,6,8,8,0.7,0.6
2024-10-20T2100,1871A,109.4157,24.3277,柳州市,环保监测站,,29,28,15,20,7,68,,86,84,11,7,9,8,0.9,0.8
2024-10-20T2100,1872A,109.389,24.341,柳州市,河西水厂,,44,44,18,19,10,65,,84,82,9,6,8,8,0.9,0.8
2024-10-20T2100,1873A,109.4311,24.2921,柳州市,市四中,,25,25,15,10,6,69,,90,86,12,7,7,7,0.8,0.7
2024-10-20T2100,1874A,109.4006,24.3631,柳州市,市九中,,31,31,20,20,9,68,,88,85,10,7,6,6,0.7,0.6
2024-10-20T2100,1875A,109.4958,24.3134,柳州市,古亭山,,22,16,13,11,7,68,,90,85,17,9,10,8,0.8,0.7
2024-10-20T2100,3402A,109.5422,24.3996,柳州市,市二中,,23,16,12,12,7,71,,85,84,14,10,9,8,0.8,0.7
2024-10-20T2100,2307A,116.5079,31.737,六安市,监测大楼,颗粒物(PM10),51,52,41,22,15,69,,76,76,14,13,5,4,0.2,0.2
2024-10-20T2100,2308A,116.4738,31.7643,六安市,皖西学院,颗粒物(PM10),58,65,46,30,14,55,,71,70,18,16,5,5,0.4,0.3
2024-10-20T2100,2309A,116.4996,31.7905,六安市,朝阳厂,颗粒物(PM10),54,58,36,27,14,60,,73,72,15,14,1,1,0.5,0.4
2024-10-20T2100,2310A,116.5567,31.7886,六安市,开发区,颗粒物(PM10),56,61,47,25,16,67,,76,76,13,12,4,4,0.4,0.3
2024-10-20T2100,2576A,104.8,26.5892,六盘水市,窑上,,30,27,33,21,26,60,,67,66,7,5,5,5,0.4,0.5
2024-10-20T2100,2577A,104.83,26.5917,六盘水市,黄土坡,,26,25,24,18,19,66,,77,76,12,6,6,6,0.4,0.3
2024-10-20T2100,2578A,104.89,26.5939,六盘水市,水钢,,25,20,30,9,18,79,,81,81,6,5,4,5,0.2,0.2
2024-10-20T2100,2579A,104.8475,26.5894,六盘水市,民中,,28,22,22,19,17,70,,77,76,13,8,7,7,0.4,0.4
2024-10-20T2100,2580A,104.9544,26.5506,六盘水市,双水,,25,17,24,9,14,80,,79,79,5,4,6,6,0.3,0.3
2024-10-20T2100,2335A,117.0189,25.1181,龙岩市,龙岩师专,,,,18,,14,,,,,,11,,8,,0.6
2024-10-20T2100,2336A,117.0217,25.1033,龙岩市,龙岩市监测站,,20,17,22,14,17,49,,67,59,13,15,10,6,0.4,0.4
2024-10-20T2100,2337A,117.0258,25.0661,龙岩市,闽西职业技术学院,,19,17,26,13,18,54,,67,64,6,10,1,3,0.4,0.4
2024-10-20T2100,2338A,117.0196,25.0306,龙岩市,龙岩学院,,19,19,25,9,16,33,,64,53,21,15,4,8,0.2,0.3
2024-10-20T2100,2665A,105.0822,33.3261,陇南市,汉王镇固水子,,,,,,,,,,,,,,,,
2024-10-20T2100,2885A,104.9339,33.3826,陇南市,滨江中学,颗粒物(PM10),60,69,29,32,10,24,,58,51,22,13,5,5,0.8,0.7
2024-10-20T2100,3247A,104.955,33.371,陇南市,市总工会,,27,27,22,3,6,44,,61,58,4,9,4,4,0.5,0.7
2024-10-20T2100,2487A,111.9589,27.8901,娄底市,电视发射台,,16,16,12,11,10,32,,41,36,9,7,4,5,0.5,0.5
2024-10-20T2100,2488A,111.9975,27.725,娄底市,市监测站,,28,27,20,19,11,41,,42,42,13,10,5,6,0.4,0.4
2024-10-20T2100,2489A,112.0194,27.7314,娄底市,市委党校,,36,32,20,25,14,36,,38,37,11,9,6,6,0.3,0.4
2024-10-20T2100,2490A,111.9561,27.7569,娄底市,涟钢,,32,32,26,18,14,32,,35,34,17,16,5,6,0.4,0.5
2024-10-20T2100,2491A,111.9892,27.7044,娄底市,市政府,,30,28,20,21,14,37,,40,38,16,13,4,4,0.5,0.5
2024-10-20T2100,1893A,105.4324,28.9634,泸州市,九狮山,,25,25,26,15,13,17,,20,20,31,23,4,5,0.2,0.4
2024-10-20T2100,1894A,105.4427,28.9063,泸州市,小市上码头,,31,31,27,16,15,28,,38,38,23,19,4,4,0.6,0.7
2024-10-20T2100,1895A,105.4241,28.8573,泸州市,兰田宪桥,,38,38,22,25,16,25,,36,33,27,16,6,4,0.7,0.7
2024-10-20T2100,1896A,105.4379,28.8833,泸州市,市环监站,,35,33,28,24,21,22,,31,29,24,19,5,5,0.6,0.6
2024-10-20T2100,3490A,105.3617,28.7703,泸州市,纳溪区环保局,,32,,20,22,13,15,,31,22,32,18,6,6,0.7,0.6
2024-10-20T2100,2183A,111.1406,37.5211,吕梁市,环保局,,,20,26,13,14,26,,50,39,,21,1,3,0.5,0.5
2024-10-20T2100,2185A,111.1297,37.5136,吕梁市,自来水公司,,34,34,25,12,13,26,,50,40,34,23,2,2,0.7,0.6
2024-10-20T2100,2867A,111.1283,37.51,吕梁市,马茂庄小学,,38,38,34,14,15,13,,47,34,48,36,1,3,0.4,0.6
2024-10-20T2100,1812A,112.3931,34.6516,洛阳市,市委党校,,32,31,24,22,16,36,,,,24,22,1,2,0.4,0.5
2024-10-20T2100,1814A,112.4657,34.6871,洛阳市,豫西宾馆,,23,22,26,16,13,45,,64,52,24,20,3,2,0.1,0.1
2024-10-20T2100,1815A,112.494,34.6886,洛阳市,河南林校,,35,,21,24,14,31,,54,42,24,15,3,2,0.2,0.2
2024-10-20T2100,1816A,112.3844,34.623,洛阳市,开发区管委会,,32,32,25,20,13,37,,58,46,21,14,3,2,0.5,0.4
2024-10-20T2100,1817A,112.4267,34.6258,洛阳市,市委新办公区,,36,36,27,24,17,36,,53,41,24,20,3,2,0.2,0.2
2024-10-20T2100,3340A,112.6005,34.6326,洛阳市,伊滨,,34,34,28,22,14,31,,53,39,27,23,3,3,0.1,0.1
2024-10-20T2100,3341A,112.4951,34.6332,洛阳市,中移产业园,,32,28,25,22,12,33,,58,44,28,19,1,2,0.3,0.2
2024-10-20T2100,3593A,112.5736,34.8993,洛阳市,吉利监测站,,20,14,24,14,10,48,,50,50,13,18,3,2,0.2,0.2
2024-10-20T2100,3635A,112.3677,34.662,洛阳市,河科大西苑校区,,29,28,25,20,14,40,,59,50,29,19,2,3,0.3,0.3
2024-10-20T2100,3636A,112.4388,34.6781,洛阳市,英才小学,,32,30,25,22,14,36,,54,43,27,22,3,2,0.1,0.1
2024-10-20T2100,2399A,114.051,33.5699,漯河市,三五一五工厂,,44,44,41,30,26,30,,45,37,28,21,6,6,0.4,0.4
2024-10-20T2100,2400A,114.0055,33.5698,漯河市,漯河大学,颗粒物(PM10),51,51,49,34,26,32,,46,39,27,21,5,5,0.3,0.3
2024-10-20T2100,2401A,114.0138,33.5828,漯河市,市水利局,,44,44,41,27,23,27,,44,35,20,14,5,6,0.7,0.7
2024-10-20T2100,2402A,114.0261,33.5698,漯河市,市广电局,,46,42,39,32,27,33,,46,39,24,20,5,6,0.4,0.3
2024-10-20T2100,3478A,113.9749,33.5664,漯河市,市图书馆,,50,50,40,26,20,29,,48,38,26,20,3,4,0.4,0.4
2024-10-20T2100,3479A,114.0967,33.5906,漯河市,召陵区卫健委,,47,47,44,30,24,25,,44,35,27,20,9,9,0.2,0.1
2024-10-20T2100,1798A,118.5092,31.6837,马鞍山市,湖东路四小,颗粒物(PM10),53,55,37,11,11,49,,91,83,28,10,4,4,0.5,0.5
2024-10-20T2100,1799A,118.5024,31.6449,马鞍山市,开发区,,48,48,38,19,12,55,,87,80,36,22,7,7,0.6,0.5
2024-10-20T2100,1800A,118.5228,31.7231,马鞍山市,慈湖,,,44,27,12,14,,,90,80,41,20,8,9,0.8,0.8
2024-10-20T2100,1802A,118.6245,31.7241,马鞍山市,濮塘,,29,29,20,11,9,50,,88,79,19,15,4,5,0.5,0.5
2024-10-20T2100,3633A,118.4918,31.6809,马鞍山市,雨山,,50,50,38,15,12,50,,89,82,29,15,4,4,0.8,0.8
2024-10-20T2100,1686A,111.0286,21.4688,茂名市,电白南海,,31,31,42,3,11,94,,96,96,10,18,10,13,0.6,0.6
2024-10-20T2100,1687A,110.9294,21.6533,茂名市,茂石化七小,,39,39,38,14,21,78,,90,86,10,12,8,15,0.8,0.8
2024-10-20T2100,1688A,110.9107,21.6687,茂名市,健康路,,31,31,33,9,18,86,,97,93,7,12,9,17,0.7,0.7
2024-10-20T2100,1689A,110.8592,21.6828,茂名市,高岭,,44,44,48,14,26,82,,88,84,12,19,8,21,0.7,0.7
2024-10-20T2100,3450A,111.01,21.5165,茂名市,电白水东,,29,19,29,9,18,90,,93,93,6,10,7,10,0.7,0.7
2024-10-20T2100,2539A,104.0308,30.0478,眉山市,黑龙滩水库,,20,17,20,13,14,62,,59,59,3,4,5,5,0.0,0.1
2024-10-20T2100,2540A,103.8416,30.0874,眉山市,气象局,,15,15,16,9,10,33,,39,39,16,16,6,6,0.5,0.5
2024-10-20T2100,3137A,103.8578,30.0744,眉山市,市委党校,,12,9,11,3,4,38,,44,42,13,14,6,6,0.5,0.5
2024-10-20T2100,3148A,103.8291,30.0564,眉山市,区人社局,,25,25,18,3,6,38,,39,39,20,21,4,4,0.6,0.6
2024-10-20T2100,1690A,116.1231,24.3284,梅州市,梅江月梅,,36,36,31,23,23,24,,74,66,30,15,8,8,0.7,0.6
2024-10-20T2100,1691A,116.0797,24.2719,梅州市,梅县新城,,29,26,29,20,20,48,,76,72,12,9,5,5,0.6,0.6
2024-10-20T2100,1692A,116.1248,24.2654,梅州市,环境监控中心,,33,31,37,23,23,44,,73,70,14,19,5,6,0.7,0.6
2024-10-20T2100,3315A,116.1233,24.2991,梅州市,梅龙,,33,,27,23,22,42,,75,70,13,12,10,10,0.8,0.8
2024-10-20T2100,1878A,104.7778,31.4741,绵阳市,富乐山,,9,9,6,3,6,25,,63,46,6,6,2,2,0.5,0.5
2024-10-20T2100,1879A,104.7563,31.4535,绵阳市,市人大,,18,16,10,11,7,18,,60,47,35,13,8,8,0.7,0.6
2024-10-20T2100,1880A,104.6697,31.4668,绵阳市,高新区自来水公司,,25,19,10,17,12,25,,62,51,23,10,3,3,0.7,0.6
2024-10-20T2100,1881A,104.7287,31.5075,绵阳市,三水厂,,18,,8,10,5,11,,69,54,35,11,6,6,0.8,0.6
2024-10-20T2100,3491A,104.69,31.5322,绵阳市,西科大附属小学,,13,12,6,9,6,24,,61,52,24,10,4,4,0.7,0.6
2024-10-20T2100,3492A,104.5648,31.5343,绵阳市,安州区旅游局,,14,10,6,9,6,43,,67,58,17,10,7,7,0.6,0.6
2024-10-20T2100,1784A,129.61,44.561,牡丹江市,环保大楼,颗粒物(PM10),79,108,33,30,15,5,,55,32,50,29,3,27,0.6,0.4
2024-10-20T2100,1785A,129.6115,44.5782,牡丹江市,文化广场,颗粒物(PM10),85,120,39,51,22,5,,48,31,53,23,14,9,1.2,0.4
2024-10-20T2100,1786A,129.5904,44.5963,牡丹江市,第一医院,细颗粒物(PM2.5),69,62,37,50,29,13,,51,34,39,20,12,8,0.7,0.4
2024-10-20T2100,1787A,129.6364,44.6075,牡丹江市,机车工厂,颗粒物(PM10),60,69,33,29,19,8,,49,34,39,19,37,41,0.5,0.3
2024-10-20T2100,1788A,129.6386,44.5462,牡丹江市,第一中学,,49,49,27,21,15,4,,58,34,42,17,7,7,0.4,0.2
2024-10-20T2100,2531A,105.0703,29.61,内江市,市监测站,,18,18,22,3,14,41,,44,44,12,13,4,4,0.5,0.5
2024-10-20T2100,2532A,105.0717,29.5947,内江市,东兴区政府,,14,11,19,3,12,42,,45,45,14,13,6,6,0.6,0.7
2024-10-20T2100,2533A,105.0653,29.5817,内江市,内江二中,,19,19,24,10,19,42,,44,44,16,16,5,5,0.5,0.6
2024-10-20T2100,2534A,105.0406,29.5822,内江市,内江日报社,,29,29,23,9,17,36,,40,40,19,18,5,7,0.5,0.6
2024-10-20T2100,2628A,92.0657,31.4846,那曲市,那曲监测站,颗粒物(PM10),54,58,58,27,26,71,,82,81,16,14,6,6,0.6,0.6
2024-10-20T2100,3128A,92.0506,31.4797,那曲市,那曲会议中心,,40,40,86,15,22,82,,80,80,8,14,3,3,0.5,0.5
2024-10-20T2100,1290A,115.8931,28.6843,南昌市,省外办,,45,41,35,31,24,48,,66,65,25,18,9,10,0.5,0.5
2024-10-20T2100,1291A,115.8886,28.7003,南昌市,省林业公司,,46,46,33,24,18,48,,66,65,23,14,6,6,0.5,0.4
2024-10-20T2100,1292A,115.8126,28.7442,南昌市,林科所,,31,31,27,17,13,64,,70,70,18,14,8,7,0.8,0.8
2024-10-20T2100,1294A,115.8518,28.687,南昌市,建工学校,,43,43,39,26,20,52,,65,64,24,16,8,8,0.5,0.4
2024-10-20T2100,1295A,115.8921,28.6424,南昌市,象湖,,47,47,34,24,18,59,,74,74,28,18,8,8,0.4,0.4
2024-10-20T2100,1296A,115.7423,28.7996,南昌市,武术学校,,38,,20,26,27,38,,44,44,12,10,3,3,0.4,0.4
2024-10-20T2100,1298A,115.9314,28.6842,南昌市,省站,,48,48,37,30,22,50,,63,63,24,20,9,9,0.6,0.6
2024-10-20T2100,3046A,115.9084,28.6062,南昌市,机电学校,颗粒物(PM10),52,53,43,22,20,52,,65,64,27,19,6,6,0.4,0.4
2024-10-20T2100,3690A,115.9721,28.7031,南昌市,外国语学校,,49,49,39,30,18,50,,66,66,24,16,6,6,0.6,0.6
2024-10-20T2100,1905A,106.056,30.8064,南充市,西山风景区,,14,7,8,7,8,43,,54,47,8,7,1,1,0.7,0.7
2024-10-20T2100,1906A,106.0789,30.8023,南充市,南充市委,,14,9,10,6,7,42,,56,50,17,13,2,2,0.4,0.4
2024-10-20T2100,1907A,106.1031,30.8217,南充市,南充炼油厂,,,32,18,10,10,,,57,53,10,5,2,2,0.9,0.3
2024-10-20T2100,1908A,106.1064,30.7856,南充市,高坪区监测站,,19,,11,13,12,48,,56,47,10,10,5,5,0.4,0.4
2024-10-20T2100,1909A,106.0642,30.7636,南充市,嘉陵区环保局,,13,13,16,3,8,36,,53,46,17,13,1,1,0.5,0.5
2024-10-20T2100,1910A,106.1087,30.8388,南充市,市环境监测站,,32,,16,22,13,40,,58,52,10,10,2,2,0.3,0.3
2024-10-20T2100,1151A,118.8086,32.1065,南京市,迈皋桥,,31,31,27,12,8,60,,82,79,24,14,3,4,0.3,0.2
2024-10-20T2100,1152A,118.7538,32.0551,南京市,草场门,,27,27,31,12,8,61,,80,78,29,21,4,4,0.4,0.3
2024-10-20T2100,1153A,118.7794,32.0745,南京市,山西路,,44,44,35,22,11,68,,88,85,18,10,4,4,0.4,0.4
2024-10-20T2100,1154A,118.7752,32.0023,南京市,中华门,,39,39,34,12,9,64,,84,82,22,15,5,6,0.5,0.4
2024-10-20T2100,1155A,118.8109,32.0309,南京市,瑞金路,,39,39,35,7,10,60,,81,77,17,10,4,5,0.3,0.1
2024-10-20T2100,1156A,118.7997,32.0754,南京市,玄武湖,,37,37,34,9,8,58,,74,72,31,22,5,5,0.5,0.4
2024-10-20T2100,1157A,118.6414,32.0931,南京市,浦口,,35,35,38,16,15,59,,74,70,15,16,5,6,0.6,0.7
2024-10-20T2100,1158A,118.7356,31.9996,南京市,奥体中心,,36,36,35,12,13,73,,89,88,23,18,6,6,0.3,0.2
2024-10-20T2100,1159A,118.9125,32.1028,南京市,仙林大学城,,39,39,34,17,11,59,,84,79,26,15,5,4,0.4,0.4
2024-10-20T2100,3422A,118.8436,31.9198,南京市,江宁彩虹桥,,47,47,41,14,9,60,,88,83,23,11,3,4,0.4,0.4
2024-10-20T2100,3423A,119.0138,31.6494,南京市,溧水永阳,,41,41,31,18,12,61,,88,84,22,12,4,4,0.4,0.3
2024-10-20T2100,3424A,118.879,31.3302,南京市,高淳老职中,,29,,28,20,13,79,,91,90,19,14,6,4,0.4,0.3
2024-10-20T2100,3427A,118.8554,32.3578,南京市,六合雄州,,38,38,35,11,10,44,,74,68,29,17,2,3,0.4,0.3
2024-10-20T2100,1401A,108.3103,22.7881,南宁市,二十一中,,32,25,26,21,16,100,,120,120,15,12,6,4,0.7,0.6
2024-10-20T2100,1402A,108.3141,22.8528,南宁市,北湖,,41,41,29,28,18,92,,112,110,12,10,10,10,0.9,0.8
2024-10-20T2100,1403A,108.3206,22.8225,南宁市,市监测站,,35,34,28,24,16,91,,107,106,18,14,9,8,0.8,0.7
2024-10-20T2100,1404A,108.3829,22.8037,南宁市,大自然花园,,32,32,24,19,16,97,,112,112,17,13,8,7,0.8,0.7
2024-10-20T2100,1405A,108.4394,22.7904,南宁市,仙葫,,36,36,24,24,13,89,,102,102,14,11,7,7,0.9,0.8
2024-10-20T2100,1406A,108.2397,22.8467,南宁市,区农职院,,35,35,34,22,17,106,,124,122,12,14,6,9,0.8,0.8
2024-10-20T2100,1407A,108.3275,22.735,南宁市,英华嘉园,,31,31,26,20,16,93,,113,112,17,15,6,6,0.8,0.7
2024-10-20T2100,1408A,108.2257,22.7757,南宁市,沙井镇街道办,,46,46,39,16,18,92,,118,114,23,25,5,5,1.0,0.9
2024-10-20T2100,3401A,108.4834,22.7618,南宁市,红星社区,,40,40,26,22,14,87,,106,105,14,13,4,5,0.8,0.8
2024-10-20T2100,2331A,118.0966,26.6761,南平市,茫荡山,,,,4,,,,,,,,,,2,,0.3
2024-10-20T2100,2332A,118.1681,26.6369,南平市,南平市监测站,,15,13,8,3,5,45,,64,61,12,6,4,4,0.4,0.4
2024-10-20T2100,2333A,118.1825,26.6489,南平市,南平铝业有限公司,,16,15,9,10,7,50,,63,61,10,7,3,2,0.5,0.4
2024-10-20T2100,2334A,118.1756,26.6272,南平市,南平七中,,17,17,11,8,8,38,,66,62,12,6,4,5,0.6,0.5
2024-10-20T2100,1168A,120.9098,31.9663,南通市,狼山街道,,15,10,27,3,8,46,,67,62,10,8,6,6,0.4,0.3
2024-10-20T2100,1169A,120.86,32.0005,南通市,虹桥,,15,10,28,8,11,48,,66,61,12,13,5,6,0.4,0.3
2024-10-20T2100,1170A,120.87,32.02,南通市,城中,,17,10,31,7,9,52,,69,65,12,10,5,6,0.6,0.5
2024-10-20T2100,1171A,120.94,31.93,南通市,星湖花园,,16,,26,3,9,49,,65,61,13,14,5,5,0.5,0.4
2024-10-20T2100,1172A,120.81,32.0417,南通市,紫琅学院,,15,11,28,3,8,48,,65,60,12,11,2,3,0.5,0.4
2024-10-20T2100,3291A,121.067,32.062,南通市,通州监测站,,17,12,27,3,7,53,,69,65,7,8,1,2,0.5,0.2
2024-10-20T2100,3432A,120.9348,31.9883,南通市,环境教育馆,,17,9,30,3,6,52,,68,63,11,10,2,3,0.5,0.4
2024-10-20T2100,2404A,112.5224,33.0122,南阳市,瓦房庄,细颗粒物(PM2.5),58,43,37,41,28,32,,57,42,24,17,3,4,0.6,0.5
2024-10-20T2100,2405A,112.5003,32.9735,南阳市,汉画馆,细颗粒物(PM2.5),55,40,38,39,31,33,,56,42,27,21,6,6,0.4,0.4
2024-10-20T2100,2406A,112.5573,33.027,南阳市,气象站,细颗粒物(PM2.5),52,46,40,36,22,32,,58,43,29,20,5,5,0.6,0.6
2024-10-20T2100,2407A,112.5481,32.9689,南阳市,理工学院,,48,48,41,32,26,31,,53,40,26,20,4,5,0.5,0.5
2024-10-20T2100,4008A,112.5234,32.9922,南阳市,卧龙区政府,细颗粒物(PM2.5),58,52,42,41,27,29,,56,41,26,18,3,4,0.5,0.4
2024-10-20T2100,1234A,121.8358,29.911,宁波市,区环保大楼,颗粒物(PM10),57,64,39,25,15,43,,78,59,35,18,9,9,0.7,0.6
2024-10-20T2100,1235A,121.56,29.82,宁波市,万里学院,,49,49,36,23,13,72,,85,84,22,15,7,6,0.7,0.6
2024-10-20T2100,1236A,121.713,29.9572,宁波市,龙赛医院,,38,38,31,13,8,59,,77,61,22,18,9,9,0.8,0.6
2024-10-20T2100,1239A,121.633,29.7733,宁波市,钱湖水厂,颗粒物(PM10),54,58,40,23,13,58,,77,71,29,15,9,9,0.7,0.5
2024-10-20T2100,1240A,121.5856,29.8635,宁波市,太古小学,颗粒物(PM10),52,53,39,19,9,64,,78,76,28,18,8,8,0.9,0.7
2024-10-20T2100,1241A,121.524,29.8674,宁波市,市环境监测中心,,48,48,32,17,9,67,,84,82,24,17,8,8,0.7,0.5
2024-10-20T2100,2871A,121.6147,29.9017,宁波市,万里国际学校,,43,43,35,15,11,46,,72,65,48,25,8,8,0.4,0.3
2024-10-20T2100,3710A,121.5594,29.8975,宁波市,白沙活动中心,,44,44,34,13,9,63,,81,79,28,16,8,8,0.6,0.5
2024-10-20T2100,2339A,119.5001,26.6946,宁德市,金涵水库,,,,23,,,,,,,,10,,3,,0.5
2024-10-20T2100,2341A,119.5388,26.6612,宁德市,宁德市监测站,,34,24,15,15,11,107,,94,94,10,12,1,2,0.4,0.5
2024-10-20T2100,3209A,119.5231,26.6562,宁德市,宁德一中,,35,28,19,10,5,112,,49,,8,10,2,3,0.3,0.4
2024-10-20T2100,2618A,98.8601,25.8567,怒江傈僳族自治州,州监测站,,41,41,30,25,21,9,,26,22,20,10,5,5,0.4,0.3
2024-10-20T2100,2619A,98.8546,25.8417,怒江傈僳族自治州,泸水一中,,,27,26,25,19,,,20,20,21,14,7,7,0.6,0.5
2024-10-20T2100,1888A,101.6891,26.571,攀枝花市,弄弄坪,,47,47,56,24,34,19,,86,70,48,31,12,16,0.8,1.3
2024-10-20T2100,1889A,101.5769,26.5928,攀枝花市,河门口,,34,34,42,22,29,32,,91,77,40,20,23,12,1.7,1.1
2024-10-20T2100,1890A,101.7169,26.585,攀枝花市,炳草岗,,46,46,55,23,33,24,,93,78,47,35,19,16,0.7,1
2024-10-20T2100,1891A,101.7369,26.5008,攀枝花市,仁和,细颗粒物(PM2.5),58,57,41,41,30,33,,87,72,23,19,6,11,0.5,1
2024-10-20T2100,2835A,101.7227,26.567,攀枝花市,四十中小,,39,39,51,22,31,42,,88,80,16,15,20,14,0.8,1.2
2024-10-20T2100,1604A,122.0303,41.1489,盘锦市,开发区,,36,36,30,18,14,41,,55,50,28,19,2,2,0.4,0.4
2024-10-20T2100,1605A,122.0485,41.0883,盘锦市,兴隆台,细颗粒物(PM2.5),53,,30,37,15,42,,53,49,33,28,6,9,0.4,0.4
2024-10-20T2100,1606A,121.8297,41.1028,盘锦市,新生街道,,21,21,26,14,14,53,,64,62,23,24,9,10,0.4,0.4
2024-10-20T2100,1832A,113.3257,33.742,平顶山市,新华旅馆,细颗粒物(PM2.5),64,56,49,46,30,25,,48,38,27,19,6,6,0.2,0.1
2024-10-20T2100,1833A,113.2919,33.737,平顶山市,规划设计院,,38,38,38,23,20,33,,56,45,27,18,6,7,0.6,0.6
2024-10-20T2100,1834A,113.182,33.774,平顶山市,平顶山工学院,,35,35,32,19,15,24,,52,36,27,14,6,6,0.5,0.4
2024-10-20T2100,3204A,113.3025,33.73,平顶山市,规划局,,44,44,43,22,22,29,,49,41,30,20,6,6,0.4,0.3
2024-10-20T2100,3594A,112.8867,33.9116,平顶山市,石龙区,细颗粒物(PM2.5),54,55,43,38,22,24,,52,36,26,19,7,8,0.6,0.5
2024-10-20T2100,2656A,106.6692,35.5461,平凉市,聚贤嘉苑,,50,50,28,29,19,43,,63,60,25,20,7,8,0.4,0.5
2024-10-20T2100,2657A,106.7021,35.5307,平凉市,博物馆,颗粒物(PM10),51,51,32,31,19,118,,89,89,14,15,8,7,0.4,0.4
2024-10-20T2100,2347A,114.0997,27.5002,萍乡市,武功山,,25,,5,17,11,36,,42,40,8,6,9,9,0.3,0.4
2024-10-20T2100,2348A,113.8385,27.6434,萍乡市,中医院,,40,40,22,21,12,41,,53,52,10,8,31,13,0.6,0.6
2024-10-20T2100,2349A,113.8493,27.6253,萍乡市,市政府车库,,34,34,20,21,13,39,,54,53,12,7,13,14,1.1,0.7
2024-10-20T2100,2350A,113.8676,27.6435,萍乡市,市环保局,,28,26,21,19,13,36,,51,49,11,6,5,11,0.4,0.4
2024-10-20T2100,2351A,113.866,27.6198,萍乡市,安源区政府,,28,28,22,9,9,42,,51,51,13,13,8,13,0.4,0.9
2024-10-20T2100,2319A,119.0141,25.4325,莆田市,荔城区仓后路,,28,15,14,9,4,89,,85,85,6,5,3,2,0.5,0.4
2024-10-20T2100,2320A,119.0015,25.4553,莆田市,莆田市监测站,,28,,12,7,4,87,,82,82,5,4,1,1,0.9,0.7
2024-10-20T2100,2321A,119.1119,25.4561,莆田市,涵江区六中,,30,14,16,6,3,94,,91,91,6,4,1,1,0.4,0.4
2024-10-20T2100,2322A,119.1013,25.3215,莆田市,秀屿区政府,,28,15,20,6,4,89,,86,86,8,6,1,1,0.4,0.4
2024-10-20T2100,2323A,118.981,25.4792,莆田市,东圳水库,,,,12,,5,,,,,,4,,3,,0.2
2024-10-20T2100,2392A,115.0312,35.7636,濮阳市,环保局,,28,26,24,19,14,34,,51,39,30,24,3,5,0.5,0.4
2024-10-20T2100,2394A,115.0574,35.7609,濮阳市,油田运输公司,,28,28,23,17,12,34,,48,39,29,22,4,4,0.4,0.3
2024-10-20T2100,2395A,115.0866,35.7754,濮阳市,油田物探公司,,36,33,27,25,14,27,,44,34,32,23,4,4,0.2,0.1
2024-10-20T2100,3021A,115,35.7668,濮阳市,濮水河管理处,,36,36,31,21,14,11,,40,28,28,22,1,3,0.5,0.4
2024-10-20T2100,2601A,100.98,22.7633,普洱市,市环保局,,35,33,25,24,17,15,,52,44,19,7,4,4,0.6,0.4
2024-10-20T2100,2602A,100.9817,22.8322,普洱市,普洱第二中学,,33,33,28,16,14,11,,52,43,18,9,5,5,0.5,0.5
2024-10-20T2100,2262A,131.0518,45.8751,七台河市,新一中,,39,39,19,6,10,35,,65,50,28,12,16,10,0.9,0.8
2024-10-20T2100,3345A,131.0577,45.7879,七台河市,中波台,,30,30,30,16,10,29,,46,40,30,19,10,7,0.7,0.6
2024-10-20T2100,3637A,131.0176,45.7761,七台河市,人民广场,细颗粒物(PM2.5),68,,28,49,19,11,,50,41,54,19,10,7,1.0,0.5
2024-10-20T2100,3684A,130.8781,45.8222,七台河市,新建矿广场,颗粒物(PM10),89,127,39,22,18,22,,50,34,44,22,7,7,0.6,0.5
2024-10-20T2100,1779A,123.9305,47.3636,齐齐哈尔市,安居小区,,27,27,51,10,15,47,,52,50,15,20,10,13,0.3,0.4
2024-10-20T2100,1780A,123.9488,47.3386,齐齐哈尔市,中心广场,,32,32,44,8,24,42,,49,47,15,20,3,6,0.2,0.3
2024-10-20T2100,1781A,123.9483,47.3227,齐齐哈尔市,农牧车辆厂,,27,27,50,12,10,48,,54,52,10,16,3,6,0.4,0.5
2024-10-20T2100,1783A,123.945,47.2988,齐齐哈尔市,市环境监测站,,24,24,46,3,11,49,,58,56,11,14,7,9,0.2,0.3
2024-10-20T2100,3662A,123.6333,47.2075,齐齐哈尔市,富区青少年活动中心,,36,36,59,7,15,40,,53,50,10,18,5,19,0.3,0.8
2024-10-20T2100,2591A,107.9783,26.5747,黔东南苗族侗族自治州,市环境监测站,,30,30,14,20,11,15,,57,27,20,12,4,4,0.6,0.5
2024-10-20T2100,2881A,107.8908,26.5311,黔东南苗族侗族自治州,凯里学院,,,24,9,,7,18,,54,25,15,11,5,5,0.7,0.5
2024-10-20T2100,2593A,107.5228,26.2403,黔南布依族苗族自治州,小围寨,,14,14,5,3,1,17,,46,25,5,5,3,4,0.5,0.5
2024-10-20T2100,3538A,107.5175,26.2978,黔南布依族苗族自治州,沙坝,,14,14,8,7,3,20,,53,25,9,9,4,3,0.5,0.5
2024-10-20T2100,2589A,104.9022,25.0925,黔西南布依族苗族自治州,场坝街,,25,25,22,3,15,67,,70,70,6,5,3,2,0.2,0.3
2024-10-20T2100,2590A,104.8811,25.0992,黔西南布依族苗族自治州,坪东大道,,27,27,23,16,13,48,,69,65,9,3,1,1,0.2,0.2
2024-10-20T2100,2502A,108.6236,21.9667,钦州市,市环保站,,44,44,43,24,18,92,,106,105,16,17,7,8,0.8,1
2024-10-20T2100,2503A,108.6549,21.9481,钦州市,沙埠小学,,42,42,56,19,20,78,,114,111,17,20,5,6,0.7,0.9
2024-10-20T2100,2504A,108.5989,21.7431,钦州市,港区一小,,29,29,46,16,20,54,,103,97,35,27,6,7,0.7,0.8
2024-10-20T2100,3404A,108.5959,21.9633,钦州市,北职校,,46,33,37,32,21,86,,102,100,13,14,6,7,0.8,0.8
2024-10-20T2100,1042A,119.5134,39.8207,秦皇岛市,北戴河环保局,颗粒物(PM10),51,52,17,12,7,32,,58,50,27,10,6,4,1.0,0.5
2024-10-20T2100,1043A,119.7493,40.0116,秦皇岛市,第一关,,50,49,20,35,16,4,,61,44,71,32,6,3,0.8,0.3
2024-10-20T2100,1044A,119.5897,39.9499,秦皇岛市,监测站,,41,41,25,23,15,25,,54,46,42,19,8,3,0.9,0.4
2024-10-20T2100,1046A,119.5251,39.9041,秦皇岛市,建设大厦,颗粒物(PM10),53,55,22,28,12,15,,55,44,51,20,5,2,0.9,0.3
2024-10-20T2100,3132A,119.610547,39.943889,秦皇岛市,文明里,,45,45,26,19,11,23,,51,42,45,21,6,2,1.0,0.4
2024-10-20T2100,1307A,120.6659,36.2403,青岛市,仰口,,38,38,31,24,14,58,,59,54,12,7,7,6,0.8,0.6
2024-10-20T2100,1310A,120.4134,36.0658,青岛市,市南区东部子站,颗粒物(PM10),52,53,42,19,11,77,,62,62,24,27,8,7,0.5,0.5
2024-10-20T2100,1311A,120.3664,36.1032,青岛市,四方区子站,,48,48,38,31,15,80,,68,68,27,26,10,9,0.4,0.3
2024-10-20T2100,1312A,120.2994,36.054,青岛市,市南区西部子站,,48,48,38,15,8,74,,74,74,27,18,9,9,0.5,0.5
2024-10-20T2100,1313A,120.4581,36.0858,青岛市,崂山区子站,,44,44,34,14,8,71,,62,62,32,22,9,8,0.6,0.6
2024-10-20T2100,1314A,120.1983,35.9608,青岛市,黄岛区子站,,46,46,40,20,12,69,,50,50,27,37,8,9,0.5,0.5
2024-10-20T2100,1315A,120.3999,36.3083,青岛市,城阳区子站,,48,48,34,17,12,70,,70,70,26,19,8,8,0.6,0.5
2024-10-20T2100,1966A,120.0405,35.8735,青岛市,黄岛区4号,,44,44,34,19,8,76,,78,78,21,20,7,7,0.4,0.4
2024-10-20T2100,3362A,120.5014,36.4034,青岛市,即墨2号,,47,47,36,22,15,63,,58,58,28,20,7,6,0.5,0.4
2024-10-20T2100,3642A,120.3503,36.0736,青岛市,市北区南部,,49,49,41,17,10,68,,62,62,35,29,10,9,0.5,0.4
2024-10-20T2100,3643A,120.3948,36.1805,青岛市,李沧区北部,,48,48,38,19,15,72,,61,61,29,25,10,9,0.7,0.6
2024-10-20T2100,1702A,113.0426,23.691,清远市,环保大楼,,26,24,20,13,9,81,,91,91,8,5,6,5,0.7,0.7
2024-10-20T2100,1703A,113.0208,23.7106,清远市,凤城街办,,28,28,21,14,11,83,,90,90,10,7,8,8,0.8,0.7
2024-10-20T2100,3025A,113.0477,23.6344,清远市,技师学院,,27,27,25,15,14,78,,95,94,14,10,10,8,0.8,0.8
2024-10-20T2100,3318A,112.9903,23.7403,清远市,清新太和,,27,,18,15,12,85,,93,93,7,4,5,3,0.7,0.7
2024-10-20T2100,3455A,113.076,23.7198,清远市,清城东城,,27,23,19,12,11,85,,96,96,8,5,8,7,0.9,0.8
2024-10-20T2100,2661A,107.6325,35.7357,庆阳市,庆阳五中,,27,27,22,18,14,54,,66,50,10,10,6,6,0.4,0.4
2024-10-20T2100,2662A,107.6364,35.7067,庆阳市,市环保局,,26,26,24,15,13,54,,65,52,12,13,5,5,0.4,0.4
2024-10-20T2100,1916A,103.7897,25.5035,曲靖市,环境监测站,,38,38,27,13,15,26,,73,59,26,13,4,4,0.6,0.4
2024-10-20T2100,1917A,103.8,25.5364,曲靖市,烟厂办公区,,29,29,25,14,16,32,,73,61,29,13,4,4,0.7,0.5
2024-10-20T2100,3376A,103.7947,25.462,曲靖市,南苑二区,,16,13,21,11,15,39,,75,64,6,5,8,8,0.5,0.5
2024-10-20T2100,3377A,103.7444,25.5261,曲靖市,曲靖师范学院,,28,28,24,13,18,45,,80,71,19,13,7,7,0.6,0.5
2024-10-20T2100,1264A,118.8692,28.9398,衢州市,环保大楼,,32,32,23,13,13,40,,59,57,22,15,4,4,0.5,0.5
2024-10-20T2100,1265A,118.8709,28.9666,衢州市,实验学校,,31,31,21,12,12,52,,65,63,18,13,6,5,0.3,0.3
2024-10-20T2100,1266A,118.8621,28.9808,衢州市,衢州学院,,29,29,20,12,11,48,,67,65,27,18,6,5,0.3,0.3
2024-10-20T2100,1611A,118.5819,24.9117,泉州市,涂山街,,24,16,18,8,8,75,,80,79,11,8,1,2,0.4,0.5
2024-10-20T2100,1612A,118.5972,24.8978,泉州市,津头埔,,24,18,23,8,9,74,,78,75,11,9,3,3,0.4,0.5
2024-10-20T2100,1613A,118.6663,24.9424,泉州市,万安,,26,15,20,6,7,82,,88,84,7,5,1,2,0.4,0.5
2024-10-20T2100,1614A,118.6117,24.9604,泉州市,清源山,,,,13,,4,,,,,,6,,2,,0.4
2024-10-20T2100,3529A,118.6333,24.9264,泉州市,城华南路,,25,16,20,11,10,78,,82,79,6,5,1,2,0.3,0.3
2024-10-20T2100,2626A,88.8876,29.2718,日喀则市,日喀则监测站,,29,29,26,8,5,86,,106,104,15,6,4,5,0.5,0.5
2024-10-20T2100,3726A,88.8781,29.2426,日喀则市,林业技术推广中心,,27,24,33,8,6,84,,100,99,9,6,7,7,0.5,0.4
2024-10-20T2100,1659A,119.471,35.4209,日照市,监测站,,44,44,29,21,11,50,,76,71,31,16,6,6,0.6,0.5
2024-10-20T2100,1660A,119.523,35.4216,日照市,市政府广场,,44,44,32,21,9,65,,78,75,22,14,5,5,0.4,0.3
2024-10-20T2100,1661A,119.5587,35.4044,日照市,港务局,颗粒物(PM10),51,51,33,24,12,70,,79,78,23,21,6,4,0.6,0.5
2024-10-20T2100,3507A,119.5328,35.4625,日照市,职业技术学院,,44,44,31,17,9,68,,83,81,21,13,4,4,0.4,0.3
2024-10-20T2100,3604A,119.3266,35.1044,日照市,岚山环保分局,,46,46,46,21,16,64,,70,68,27,24,4,19,0.3,1.4
2024-10-20T2100,1835A,111.1922,34.7752,三门峡市,市政府,,18,18,20,11,9,37,,54,47,19,20,2,5,0.5,0.5
2024-10-20T2100,1836A,111.1587,34.7942,三门峡市,开发区,,32,32,25,20,11,39,,53,49,19,18,1,3,0.3,0.3
2024-10-20T2100,1838A,111.143,34.7955,三门峡市,风景区,,23,,21,16,15,40,,53,50,14,13,8,10,0.4,0.4
2024-10-20T2100,3039A,111.1911,34.7829,三门峡市,三门峡市第一小学,,20,20,19,11,3,36,,54,46,16,16,2,5,0.4,0.4
2024-10-20T2100,3598A,111.1,34.7167,三门峡市,富达温泉假日酒店,,44,44,34,25,12,17,,54,36,30,15,2,2,0.6,0.5
2024-10-20T2100,2324A,117.6211,26.2625,三明市,三钢,,30,26,17,21,16,55,,69,67,11,7,3,2,0.4,0.4
2024-10-20T2100,2325A,117.635,26.2714,三明市,三明二中,,18,8,14,7,11,57,,68,68,7,7,2,2,0.5,0.5
2024-10-20T2100,2326A,117.6028,26.2378,三明市,三元区政府,,19,19,17,6,8,60,,68,68,7,7,4,4,0.5,0.5
2024-10-20T2100,2327A,117.7275,26.3108,三明市,洋溪,,,,31,,11,,,,,,9,,6,,0.3
2024-10-20T2100,1876A,109.5078,18.2489,三亚市,河东子站,,25,25,18,13,9,51,,52,49,4,4,4,4,0.5,0.4
2024-10-20T2100,1877A,109.4964,18.2681,三亚市,河西子站,,19,19,17,10,7,48,,47,46,5,13,4,4,0.3,0.3
2024-10-20T2100,3540A,109.7348,18.3443,三亚市,君悦子站,,35,35,22,9,9,50,,55,51,6,6,3,3,0.4,0.3
2024-10-20T2100,2624A,91.7608,29.2313,山南市,山南监测站,,31,6,16,3,8,97,,96,96,4,4,3,4,0.4,0.4
2024-10-20T2100,2625A,91.7706,29.2436,山南市,山南人民医院,,32,13,27,7,8,100,,98,98,6,7,4,4,0.5,0.4
2024-10-20T2100,1674A,116.6794,23.3667,汕头市,金平子站,,32,25,20,12,6,100,,108,108,11,9,5,6,0.7,0.7
2024-10-20T2100,1675A,116.7244,23.3633,汕头市,龙湖子站,,31,31,22,7,8,92,,102,102,6,4,8,8,0.6,0.7
2024-10-20T2100,1676A,116.7258,23.2775,汕头市,濠江子站,,27,16,19,12,10,84,,106,105,7,7,6,6,0.5,0.5
2024-10-20T2100,1677A,116.7519,23.4714,汕头市,澄海子站,,30,30,24,9,7,93,,111,111,16,10,9,7,0.7,0.7
2024-10-20T2100,1678A,116.6092,23.2539,汕头市,潮阳子站,,30,27,22,3,4,96,,110,110,4,3,6,6,0.6,0.6
2024-10-20T2100,3444A,116.454,23.2684,汕头市,潮南峡山,,30,26,15,6,5,95,,110,110,12,9,7,6,0.7,0.7
2024-10-20T2100,3624A,116.4069,23.2533,汕头市,潮南子站,,29,26,17,10,6,90,,105,105,15,11,6,6,0.7,0.7
2024-10-20T2100,1693A,115.3653,22.775,汕尾市,市环保局,,35,25,18,13,10,112,,106,106,10,8,10,9,0.6,0.6
2024-10-20T2100,1694A,115.3706,22.7898,汕尾市,市政府,,33,24,21,17,9,104,,97,97,10,8,8,7,0.7,0.6
2024-10-20T2100,1695A,115.3622,22.7925,汕尾市,新城中学,,,11,21,10,9,,,95,95,10,8,10,10,0.6,0.5
2024-10-20T2100,2645A,109.9154,33.8715,商洛市,监测站,,13,7,12,3,9,39,,75,54,24,16,2,3,0.5,0.4
2024-10-20T2100,3045A,109.9643,33.8471,商洛市,商州区中学,,13,10,13,8,9,32,,75,49,25,16,4,6,0.7,0.6
2024-10-20T2100,2408A,115.6702,34.4285,商丘市,环境监测站,,44,44,37,29,18,23,,51,38,35,22,4,4,0.4,0.3
2024-10-20T2100,2409A,115.6458,34.4045,商丘市,粮食局,,50,40,38,35,24,28,,55,45,35,23,2,3,0.5,0.4
2024-10-20T2100,2410A,115.6293,34.3948,商丘市,睢阳区环保局,,43,39,39,30,20,31,,52,43,28,20,5,5,0.3,0.2
2024-10-20T2100,3171A,115.6071,34.4465,商丘市,梁园区档案局,,40,36,36,28,20,21,,45,36,38,25,3,4,0.3,0.2
2024-10-20T2100,1141A,121.4,31.238,上海市,普陀,,31,31,39,3,6,13,,70,43,42,20,4,5,0.6,0.5
2024-10-20T2100,1142A,121.478,31.2036,上海市,十五厂,,36,36,38,19,12,14,,78,44,48,21,9,9,0.8,0.5
2024-10-20T2100,1143A,121.467,31.3008,上海市,虹口,,37,37,37,16,12,9,,77,39,45,18,7,8,0.7,0.6
2024-10-20T2100,1144A,121.412,31.1654,上海市,徐汇上师大,,35,35,37,16,12,23,,78,48,39,24,8,8,0.6,0.5
2024-10-20T2100,1145A,121.536,31.2659,上海市,杨浦四漂,,42,42,40,23,12,9,,78,39,49,20,4,5,1.0,0.7
2024-10-20T2100,1147A,121.425,31.2261,上海市,静安监测站,,35,35,37,16,12,10,,76,45,50,24,6,6,0.6,0.5
2024-10-20T2100,1148A,121.703,31.1907,上海市,浦东川沙,,42,42,36,13,10,8,,77,34,59,22,6,6,0.6,0.4
2024-10-20T2100,1149A,121.533,31.2284,上海市,浦东新区监测站,,40,40,38,24,14,3,,77,35,61,24,6,7,1.0,0.7
2024-10-20T2100,1150A,121.577,31.2071,上海市,浦东张江,,43,43,32,23,17,8,,76,44,54,25,5,5,1.0,0.6
2024-10-20T2100,3265A,121.4316,31.3322,上海市,宝山庙行,,35,35,37,16,10,8,,74,43,45,19,9,10,0.7,0.7
2024-10-20T2100,3266A,121.8791,31.4662,上海市,崇明上实东滩,,25,25,24,9,8,77,,77,73,4,6,7,7,0.6,0.5
2024-10-20T2100,3268A,121.3162,31.2838,上海市,嘉定南翔,,36,36,36,7,7,24,,64,49,33,20,8,8,0.5,0.4
2024-10-20T2100,3269A,121.3359,30.7456,上海市,金山新城,,45,45,38,20,13,37,,60,52,25,19,4,5,0.4,0.4
