timepoint,stationcode,longitude,latitude,area,positionname,primarypollutant,aqi,pm10,pm10_24h,pm2_5,pm2_5_24h,o3,o3_24h,o3_8h,o3_8h_24h,no2,no2_24h,so2,so2_24h,co,co_24h
2023-10-22T19:00:00,1001A,116.3621,39.8784,北京市,万寿西宫,颗粒物(PM10),64,78,56,40,23,68,36,60,58,60,47,2,2,0.6,0.4
2023-10-22T19:00:00,1002A,116.2202,40.2915,北京市,定陵,颗粒物(PM10),52,53,42,20,15,48,11,28,27,44,24,1,2,0.5,0.4
2023-10-22T19:00:00,1003A,116.4174,39.9289,北京市,东四,颗粒物(PM10),66,82,57,34,23,73,43,61,61,56,45,2,2,0.6,0.5
2023-10-22T19:00:00,1004A,116.4072,39.8863,北京市,天坛,颗粒物(PM10),53,55,48,25,25,66,21,54,51,51,42,3,3,0.5,0.5
2023-10-22T19:00:00,1005A,116.462,39.9365,北京市,农展馆,颗粒物(PM10),62,74,54,31,22,72,46,55,55,57,51,1,2,0.5,0.5
2023-10-22T19:00:00,1006A,116.3392,39.9295,北京市,官园,颗粒物(PM10),66,81,55,36,22,76,40,62,61,59,45,3,3,0.6,0.6
2023-10-22T19:00:00,1007A,116.2878,39.9611,北京市,海淀万柳,颗粒物(PM10),69,87,57,32,19,68,23,51,50,83,51,1,2,0.8,0.6
2023-10-22T19:00:00,1008A,116.6636,40.135,北京市,顺义新城,颗粒物(PM10),53,56,47,28,19,84,29,69,66,56,37,1,2,0.5,0.4
2023-10-22T19:00:00,1009A,116.6275,40.3275,北京市,怀柔镇,颗粒物(PM10),53,56,34,25,14,79,34,65,63,48,23,1,3,0.6,0.3
2023-10-22T19:00:00,1010A,116.2296,40.217,北京市,昌平镇,颗粒物(PM10),66,82,45,32,16,64,17,38,38,2,6,2,2,0.7,0.3
2023-10-22T19:00:00,1011A,116.3966,39.9821,北京市,奥体中心,颗粒物(PM10),63,76,52,38,21,68,40,54,54,61,46,3,3,0.5,0.4
2023-10-22T19:00:00,1012A,116.184,39.9136,北京市,古城,颗粒物(PM10),79,108,59,36,20,60,31,49,49,74,51,1,1,0.6,0.6
2023-10-22T19:00:00,1015A,117.1444,39.1661,天津市,勤俭道,细颗粒物(PM2.5),147,176,133,112,76,126,54,100,100,87,62,12,12,1.5,1
2023-10-22T19:00:00,1017A,117.237,39.1082,天津市,大直沽八号路,细颗粒物(PM2.5),138,168,136,105,75,123,47,98,96,92,71,6,7,0.9,0.8
2023-10-22T19:00:00,1018A,117.202,39.0927,天津市,前进道,细颗粒物(PM2.5),127,150,125,96,73,125,56,100,100,89,70,10,10,0.9,0.7
2023-10-22T19:00:00,1019A,117.1837,39.2133,天津市,淮河道,细颗粒物(PM2.5),128,152,122,97,68,142,66,115,115,83,63,11,11,1.0,0.8
2023-10-22T19:00:00,1021A,117.307,39.0877,天津市,跃进路,细颗粒物(PM2.5),143,165,129,109,69,139,42,101,100,92,62,12,10,1.0,0.8
2023-10-22T19:00:00,1023A,117.707,39.0343,天津市,第四大街,细颗粒物(PM2.5),155,184,123,118,71,108,52,82,82,85,70,8,10,1.0,1.1
2023-10-22T19:00:00,1024A,117.457,38.8394,天津市,永明路,细颗粒物(PM2.5),149,165,124,114,77,120,51,82,82,86,72,12,10,0.8,0.7
2023-10-22T19:00:00,1026A,117.764,39.1587,天津市,汉北路,颗粒物(PM10),156,262,123,113,64,86,23,52,52,116,81,11,12,0.8,1.4
2023-10-22T19:00:00,1027A,117.157,38.9194,天津市,团泊洼,细颗粒物(PM2.5),139,170,127,106,77,105,40,80,80,63,59,7,8,1.1,0.9
2023-10-22T19:00:00,1029A,114.4422,38.0444,石家庄市,职工医院,颗粒物(PM10),66,82,54,34,21,86,68,73,73,55,56,15,11,0.8,0.7
2023-10-22T19:00:00,1030A,114.6063,38.0266,石家庄市,高新区,颗粒物(PM10),73,95,73,37,27,87,79,70,70,40,57,8,6,0.8,0.7
2023-10-22T19:00:00,1031A,114.4898,38.1328,石家庄市,西北水源,颗粒物(PM10),74,97,79,36,20,79,50,66,66,49,48,6,7,0.8,0.7
2023-10-22T19:00:00,1032A,114.4586,38.0058,石家庄市,西南高教,颗粒物(PM10),87,124,71,38,22,84,65,66,66,50,53,14,9,0.9,0.8
2023-10-22T19:00:00,1033A,114.5331,38.0178,石家庄市,世纪公园,颗粒物(PM10),67,83,63,43,28,85,72,68,68,34,44,13,10,0.9,0.9
2023-10-22T19:00:00,1034A,114.509,38.0457,石家庄市,人民会堂,细颗粒物(PM2.5),68,67,55,49,28,96,87,82,82,38,52,16,12,0.9,0.8
2023-10-22T19:00:00,1035A,114.3524,37.8911,石家庄市,封龙山,颗粒物(PM10),66,82,54,40,19,102,100,87,87,22,17,15,13,0.8,0.6
2023-10-22T19:00:00,1037A,118.131,39.6363,唐山市,雷达站,细颗粒物(PM2.5),168,182,88,127,46,118,54,86,86,93,54,12,6,0.9,0.7
2023-10-22T19:00:00,1038A,118.1725,39.6334,唐山市,物资局,细颗粒物(PM2.5),158,171,79,120,45,119,55,90,90,92,59,13,9,0.9,0.7
2023-10-22T19:00:00,1040A,118.1705,39.6506,唐山市,十二中,细颗粒物(PM2.5),129,170,81,98,40,108,49,81,81,95,64,11,6,1.0,0.8
2023-10-22T19:00:00,1041A,118.1869,39.622,唐山市,小山,细颗粒物(PM2.5),144,189,89,110,38,115,49,84,84,79,48,9,6,1.1,0.8
2023-10-22T19:00:00,1042A,119.5134,39.8207,秦皇岛市,北戴河环保局,细颗粒物(PM2.5),103,96,64,77,30,115,98,93,93,39,50,8,20,0.6,1.3
2023-10-22T19:00:00,1043A,119.7493,40.0116,秦皇岛市,第一关,细颗粒物(PM2.5),60,55,50,43,24,110,11,85,77,110,59,12,13,0.9,0.8
2023-10-22T19:00:00,1044A,119.5897,39.9499,秦皇岛市,监测站,颗粒物(PM10),77,104,61,46,31,93,34,78,75,74,58,12,18,1.0,1.2
2023-10-22T19:00:00,1046A,119.5251,39.9041,秦皇岛市,建设大厦,颗粒物(PM10),78,105,69,46,30,96,37,83,80,64,47,7,13,0.8,0.9
2023-10-22T19:00:00,1048A,114.5302,36.6116,邯郸市,东污水处理厂,颗粒物(PM10),64,77,80,36,46,123,71,90,90,49,55,7,11,0.5,1
2023-10-22T19:00:00,1049A,114.4918,36.5713,邯郸市,矿院,细颗粒物(PM2.5),63,68,77,45,49,123,70,90,90,52,58,8,19,0.6,1.2
2023-10-22T19:00:00,1050A,114.484,36.6133,邯郸市,丛台公园,颗粒物(PM10),64,77,76,39,50,123,94,93,93,31,47,10,17,0.5,0.9
2023-10-22T19:00:00,1051A,115.493,38.8632,保定市,游泳馆,颗粒物(PM10),94,138,82,67,49,96,29,74,72,88,60,11,9,0.7,0.8
2023-10-22T19:00:00,1052A,115.5213,38.8959,保定市,华电二区,颗粒物(PM10),77,103,62,55,34,89,44,69,69,52,45,9,8,1.0,0.5
2023-10-22T19:00:00,1053A,115.4713,38.9108,保定市,接待中心,细颗粒物(PM2.5),99,135,73,74,35,84,37,67,67,75,48,9,9,1.2,0.7
2023-10-22T19:00:00,1054A,115.4612,38.8416,保定市,地表水厂,颗粒物(PM10),101,151,101,52,39,94,25,68,65,96,61,9,11,0.9,0.7
2023-10-22T19:00:00,1056A,115.5086,38.8639,保定市,监测站,细颗粒物(PM2.5),103,135,86,77,39,93,13,68,65,101,53,13,11,1.0,0.6
2023-10-22T19:00:00,1057A,114.8883,40.8336,张家口市,人民公园,颗粒物(PM10),64,78,42,31,15,110,43,89,86,65,21,4,3,0.8,0.5
2023-10-22T19:00:00,1059A,114.8687,40.8042,张家口市,五金库,,,85,43,48,17,110,23,88,83,,25,5,3,0.7,0.3
2023-10-22T19:00:00,1060A,114.8902,40.762,张家口市,世纪豪园,颗粒物(PM10),58,66,39,29,15,113,54,87,87,51,24,3,3,0.7,0.4
2023-10-22T19:00:00,1061A,114.8916,40.8661,张家口市,北泵房,颗粒物(PM10),71,92,38,40,17,122,24,94,87,54,19,8,8,0.4,0.2
2023-10-22T19:00:00,1062A,117.9531,40.9081,承德市,铁路,,50,50,29,18,8,66,16,47,41,62,38,12,10,0.8,0.5
2023-10-22T19:00:00,1063A,117.9392,40.9763,承德市,中国银行,颗粒物(PM10),54,58,35,13,9,67,6,53,46,60,40,15,11,1.2,0.6
2023-10-22T19:00:00,1064A,117.9503,40.928,承德市,开发区,,47,47,34,22,15,65,2,55,50,66,37,11,9,1.0,0.5
2023-10-22T19:00:00,1065A,117.8051,40.9655,承德市,文化中心,颗粒物(PM10),77,104,53,32,13,71,1,49,45,75,47,15,23,1.2,0.7
2023-10-22T19:00:00,1066A,117.9268,41.0026,承德市,离宫,,34,34,25,16,12,63,29,54,52,33,22,10,5,0.7,0.4
2023-10-22T19:00:00,1067A,116.6708,39.5111,廊坊市,药材公司,颗粒物(PM10),90,129,73,65,30,107,85,82,82,49,55,10,4,1.0,0.6
2023-10-22T19:00:00,1068A,116.7214,39.5589,廊坊市,开发区,颗粒物(PM10),71,92,62,50,29,100,56,73,73,54,49,6,3,0.9,0.5
2023-10-22T19:00:00,1070A,116.7244,39.5269,廊坊市,北华航天学院,颗粒物(PM10),84,117,72,58,30,105,92,85,85,44,50,14,6,1.0,0.6
2023-10-22T19:00:00,1071A,116.8842,38.2991,沧州市,沧县城建局,细颗粒物(PM2.5),148,154,114,113,66,140,31,104,100,119,66,13,12,1.5,0.8
2023-10-22T19:00:00,1072A,116.8584,38.3254,沧州市,电视转播站,细颗粒物(PM2.5),119,134,104,90,69,138,53,105,105,69,51,17,13,1.1,0.7
2023-10-22T19:00:00,1073A,116.8709,38.3228,沧州市,市环保局,细颗粒物(PM2.5),138,162,114,105,68,128,17,96,91,116,57,17,15,1.4,0.7
2023-10-22T19:00:00,1074A,115.6838,37.7541,衡水市,电机北厂,颗粒物(PM10),103,156,109,76,60,97,47,76,76,86,53,13,12,1.0,0.6
2023-10-22T19:00:00,1075A,115.6303,37.7316,衡水市,市监测站,颗粒物(PM10),86,122,96,54,47,87,65,73,73,63,63,14,10,0.9,0.6
2023-10-22T19:00:00,1077A,114.4704,37.0886,邢台市,达活泉,颗粒物(PM10),69,88,68,43,31,118,78,92,92,44,43,10,8,1.1,1.1
2023-10-22T19:00:00,1078A,114.5062,37.0349,邢台市,邢师高专,颗粒物(PM10),75,100,73,43,34,118,45,82,82,92,48,12,7,0.8,0.8
2023-10-22T19:00:00,1079A,114.5237,37.0851,邢台市,路桥公司,细颗粒物(PM2.5),77,98,72,56,42,108,88,84,84,44,56,11,8,0.7,0.9
2023-10-22T19:00:00,1080A,114.4725,37.0719,邢台市,市环保局,颗粒物(PM10),71,92,62,46,30,120,90,95,95,36,41,14,10,1.0,1
2023-10-22T19:00:00,1081A,112.522,37.8873,太原市,尖草坪,颗粒物(PM10),73,96,81,50,41,106,32,79,78,93,60,10,12,1.1,0.9
2023-10-22T19:00:00,1083A,112.434,38.0108,太原市,上兰,,,,,,,,,,,,,,,,
2023-10-22T19:00:00,1084A,112.469,37.7124,太原市,晋源,细颗粒物(PM2.5),78,70,70,57,40,115,18,79,78,111,57,7,9,1.1,0.9
2023-10-22T19:00:00,1085A,112.5583,37.7394,太原市,小店,颗粒物(PM10),76,101,109,55,48,115,11,80,77,122,66,16,15,1.2,0.9
2023-10-22T19:00:00,1086A,112.5369,37.8692,太原市,桃园,颗粒物(PM10),72,93,88,51,39,99,26,74,72,102,68,9,15,1.2,1
2023-10-22T19:00:00,1087A,112.57,37.8195,太原市,坞城,颗粒物(PM10),78,105,92,48,46,96,26,39,,100,67,8,9,1.3,1.1
2023-10-22T19:00:00,1088A,112.549,37.9854,太原市,南寨,颗粒物(PM10),92,133,90,48,41,111,41,74,73,65,49,7,11,0.5,0.9
2023-10-22T19:00:00,1090A,111.6507,40.7517,呼和浩特市,呼市一监,颗粒物(PM10),136,222,106,86,66,100,38,81,78,94,61,18,13,0.8,0.8
2023-10-22T19:00:00,1091A,111.6572,40.8033,呼和浩特市,小召,细颗粒物(PM2.5),82,112,102,60,60,87,54,71,70,64,66,15,13,1.0,0.9
2023-10-22T19:00:00,1094A,111.7516,40.8369,呼和浩特市,如意水处理厂,"颗粒物(PM10),细颗粒物(PM2.5)",78,106,93,57,55,101,68,88,88,58,62,22,16,0.8,0.7
2023-10-22T19:00:00,1095A,111.7276,40.8062,呼和浩特市,二十九中,细颗粒物(PM2.5),99,120,95,74,60,101,71,87,87,60,62,20,13,0.8,0.8
2023-10-22T19:00:00,1096A,111.5512,40.7866,呼和浩特市,工大金川校区,细颗粒物(PM2.5),75,97,97,55,54,102,23,84,79,105,70,13,12,0.8,0.7
2023-10-22T19:00:00,1097A,111.717,40.7612,呼和浩特市,化肥厂生活区,细颗粒物(PM2.5),107,156,114,80,62,91,17,75,70,78,48,20,15,1.1,0.8
2023-10-22T19:00:00,1098A,123.6836,41.9339,沈阳市,森林路,,,,,,,,,,,,,,,,
2023-10-22T19:00:00,1099A,123.505,41.7406,沈阳市,浑南东路,,48,48,43,21,19,73,5,60,53,78,38,9,23,0.9,0.7
2023-10-22T19:00:00,1100A,123.4231,41.6989,沈阳市,新秀街,,47,42,51,18,23,76,5,57,49,93,44,18,36,0.7,0.7
2023-10-22T19:00:00,1102A,123.5903,41.8411,沈阳市,东陵路,颗粒物(PM10),52,54,44,15,17,76,14,67,61,52,32,9,15,0.5,0.7
2023-10-22T19:00:00,1103A,123.4264,41.8467,沈阳市,陵东街,,42,42,37,18,17,80,12,66,61,65,30,7,16,0.7,0.8
2023-10-22T19:00:00,1104A,123.4114,41.7653,沈阳市,文化路,颗粒物(PM10),59,67,49,32,23,78,28,66,63,60,32,9,28,1.0,0.9
2023-10-22T19:00:00,1105A,123.4678,41.7867,沈阳市,小河沿,颗粒物(PM10),58,66,39,27,17,75,20,63,59,68,35,7,18,0.9,0.8
2023-10-22T19:00:00,1106A,123.4017,41.7972,沈阳市,太原街,颗粒物(PM10),53,56,41,30,23,75,3,56,47,90,39,8,19,1.1,0.7
2023-10-22T19:00:00,1108A,123.3783,41.9228,沈阳市,京沈街,,37,37,43,17,22,84,31,73,69,22,27,10,19,0.6,0.7
2023-10-22T19:00:00,1109A,121.612,38.9741,大连市,甘井子,颗粒物(PM10),96,141,71,63,28,146,124,124,124,42,31,9,7,1.0,0.7
2023-10-22T19:00:00,1110A,121.565,38.9511,大连市,周水子,颗粒物(PM10),88,126,55,60,26,145,119,121,121,38,27,15,11,1.1,0.8
2023-10-22T19:00:00,1111A,121.5637,38.8845,大连市,星海三站,颗粒物(PM10),94,137,55,69,27,149,134,129,129,27,21,13,10,0.8,0.5
2023-10-22T19:00:00,1112A,121.6302,38.9117,大连市,青泥洼桥,细颗粒物(PM2.5),92,121,55,68,27,137,112,114,114,29,23,9,9,1.0,0.7
2023-10-22T19:00:00,1113A,121.6251,38.8638,大连市,傅家庄,颗粒物(PM10),100,150,67,67,29,155,146,131,131,19,20,13,11,0.8,0.6
2023-10-22T19:00:00,1114A,121.5213,38.8661,大连市,七贤岭,细颗粒物(PM2.5),129,136,67,98,36,167,117,137,137,38,28,10,8,0.9,0.7
2023-10-22T19:00:00,1115A,121.2529,38.8061,大连市,旅顺,颗粒物(PM10),98,145,61,68,29,160,122,137,137,45,25,14,10,1.0,0.7
2023-10-22T19:00:00,1116A,121.7485,39.1311,大连市,金州,颗粒物(PM10),139,227,99,77,32,162,117,128,128,29,29,9,9,0.8,0.6
2023-10-22T19:00:00,1117A,121.7811,39.0496,大连市,开发区,细颗粒物(PM2.5),108,119,57,81,35,145,83,113,113,70,51,11,10,0.9,0.6
2023-10-22T19:00:00,1118A,121.9762,39.0631,大连市,双D港,细颗粒物(PM2.5),69,65,42,50,22,146,106,123,123,36,27,8,9,0.8,0.5
2023-10-22T19:00:00,1119A,125.3325,43.9166,长春市,食品厂,颗粒物(PM10),62,74,45,34,17,62,6,51,43,70,28,8,8,1.3,0.5
2023-10-22T19:00:00,1120A,125.2863,43.9027,长春市,客车厂,颗粒物(PM10),64,77,41,33,18,61,8,50,42,78,29,11,13,1.4,0.5
2023-10-22T19:00:00,1121A,125.2841,43.8463,长春市,邮电学院,,46,40,45,32,19,74,9,61,56,61,25,6,9,0.6,0.3
2023-10-22T19:00:00,1122A,125.3716,43.8772,长春市,劳动公园,,48,48,38,20,12,44,12,36,34,58,30,10,7,0.9,0.4
2023-10-22T19:00:00,1123A,125.3297,43.8805,长春市,园林处,,37,37,36,13,10,61,10,51,47,54,26,24,13,0.6,0.4
2023-10-22T19:00:00,1124A,125.4605,43.79,长春市,净月潭,,26,26,34,7,12,70,36,56,56,20,18,7,9,0.3,0.4
2023-10-22T19:00:00,1125A,125.7194,43.515,长春市,甩湾子,,,,,,,,,,,,,,,,
2023-10-22T19:00:00,1126A,125.3863,43.8447,长春市,经开区环卫处,颗粒物(PM10),53,56,37,17,12,69,8,56,52,59,25,8,9,0.9,0.4
2023-10-22T19:00:00,1127A,125.245,43.7783,长春市,高新区管委会,颗粒物(PM10),54,58,38,26,18,73,3,57,51,59,22,6,8,0.5,0.3
2023-10-22T19:00:00,1128A,125.1761,43.8325,长春市,岱山公园,颗粒物(PM10),51,52,42,31,14,70,8,57,48,68,26,6,7,0.5,0.4
2023-10-22T19:00:00,1129A,126.5422,45.755,哈尔滨市,岭北,颗粒物(PM10),51,52,34,19,11,64,24,56,53,30,16,6,9,0.5,0.3
2023-10-22T19:00:00,1130A,126.561,45.8167,哈尔滨市,松北商大,,40,40,34,12,10,55,14,48,43,42,25,7,8,0.6,0.4
2023-10-22T19:00:00,1131A,126.979,45.5419,哈尔滨市,阿城会宁,颗粒物(PM10),60,70,39,33,17,53,22,47,42,38,18,6,7,0.7,0.8
2023-10-22T19:00:00,1132A,126.599,45.7222,哈尔滨市,南岗学府路,颗粒物(PM10),62,73,38,34,10,55,27,48,46,29,23,9,8,0.6,0.5
2023-10-22T19:00:00,1133A,126.689,45.7733,哈尔滨市,太平宏伟公园,,44,44,34,25,13,55,20,49,45,44,25,5,7,0.8,0.8
2023-10-22T19:00:00,1134A,126.635,45.7667,哈尔滨市,道外承德广场,细颗粒物(PM2.5),79,55,32,58,16,53,8,47,39,59,30,4,5,0.6,0.5
2023-10-22T19:00:00,1135A,126.685,45.7319,哈尔滨市,香坊红旗大街,细颗粒物(PM2.5),74,56,36,54,16,64,28,52,49,41,30,8,9,0.8,0.6
2023-10-22T19:00:00,1136A,126.6411,45.7258,哈尔滨市,动力和平路,"颗粒物(PM10),细颗粒物(PM2.5)",52,53,34,36,17,52,23,45,42,39,27,13,11,0.7,0.5
2023-10-22T19:00:00,1137A,126.593,45.7478,哈尔滨市,道里建国路,,49,49,44,23,15,57,16,50,44,50,27,7,10,0.5,0.4
2023-10-22T19:00:00,1138A,126.615,45.61,哈尔滨市,平房东轻厂,,36,36,41,19,15,60,14,52,45,52,23,10,9,0.3,0.2
2023-10-22T19:00:00,1139A,126.595,45.9855,哈尔滨市,呼兰师专,颗粒物(PM10),53,55,31,30,14,63,25,54,51,38,21,6,6,0.5,0.5
2023-10-22T19:00:00,1140A,126.6206,45.6842,哈尔滨市,省农科院,细颗粒物(PM2.5),57,60,32,40,14,63,18,55,48,50,28,6,5,0.5,0.3
2023-10-22T19:00:00,1141A,121.4,31.238,上海市,普陀,,46,46,40,21,15,105,95,99,99,34,32,5,6,0.6,0.6
2023-10-22T19:00:00,1142A,121.478,31.2036,上海市,十五厂,颗粒物(PM10),54,58,44,28,19,115,81,106,105,54,40,6,6,0.6,0.5
2023-10-22T19:00:00,1143A,121.467,31.3008,上海市,虹口,,35,35,41,14,20,114,101,107,107,36,47,5,5,0.5,0.6
2023-10-22T19:00:00,1144A,121.412,31.1654,上海市,徐汇上师大,,46,46,41,15,18,117,81,108,106,52,40,8,9,0.7,0.7
2023-10-22T19:00:00,1145A,121.536,31.2659,上海市,杨浦四漂,颗粒物(PM10),55,60,52,20,21,111,82,96,96,53,61,8,8,0.5,0.4
2023-10-22T19:00:00,1147A,121.425,31.2261,上海市,静安监测站,,43,43,41,15,18,116,108,75,,33,35,5,5,0.5,0.5
2023-10-22T19:00:00,1148A,121.703,31.1907,上海市,浦东川沙,,32,32,47,13,20,123,93,113,112,33,39,7,7,0.6,0.6
2023-10-22T19:00:00,1149A,121.533,31.2284,上海市,浦东新区监测站,,35,35,38,12,16,115,103,106,106,28,40,7,7,0.6,0.7
2023-10-22T19:00:00,1150A,121.577,31.2071,上海市,浦东张江,,49,49,45,11,17,110,98,103,103,27,36,5,6,0.5,0.6
2023-10-22T19:00:00,1151A,118.8086,32.1065,南京市,迈皋桥,颗粒物(PM10),53,55,60,24,27,148,35,128,120,75,56,3,4,0.6,0.5
2023-10-22T19:00:00,1152A,118.7538,32.0551,南京市,草场门,颗粒物(PM10),51,51,54,27,27,136,76,120,116,62,48,12,6,1.0,0.5
2023-10-22T19:00:00,1153A,118.7794,32.0745,南京市,山西路,颗粒物(PM10),59,68,56,34,28,151,83,135,133,45,36,15,8,1.4,0.7
2023-10-22T19:00:00,1154A,118.7752,32.0023,南京市,中华门,颗粒物(PM10),56,61,64,27,28,149,74,129,124,64,63,11,7,1.2,0.9
2023-10-22T19:00:00,1155A,118.8109,32.0309,南京市,瑞金路,颗粒物(PM10),68,85,57,41,27,137,30,114,106,94,56,8,6,1.3,0.6
2023-10-22T19:00:00,1156A,118.7997,32.0754,南京市,玄武湖,颗粒物(PM10),54,58,47,28,24,138,30,122,115,69,44,10,7,1.3,0.6
2023-10-22T19:00:00,1157A,118.6414,32.0931,南京市,浦口,,37,37,51,18,24,145,102,124,123,26,43,8,7,0.7,0.7
2023-10-22T19:00:00,1158A,118.7356,31.9996,南京市,奥体中心,颗粒物(PM10),56,62,70,24,33,145,58,126,120,77,67,13,10,1.1,0.6
2023-10-22T19:00:00,1159A,118.9125,32.1028,南京市,仙林大学城,,41,41,42,24,25,138,89,131,128,42,38,2,3,0.8,0.7
2023-10-22T19:00:00,1160A,120.561,31.2472,苏州市,上方山,,41,41,50,22,28,142,98,122,122,19,48,5,6,0.6,0.8
2023-10-22T19:00:00,1162A,120.591,31.3019,苏州市,彩香,,43,43,60,18,31,131,108,120,120,27,55,7,8,0.7,0.9
2023-10-22T19:00:00,1163A,120.596,31.3264,苏州市,轧钢厂,,50,50,65,19,32,132,100,118,118,27,48,14,15,0.8,1.1
2023-10-22T19:00:00,1164A,120.613,31.2703,苏州市,吴中区,,44,44,64,18,29,130,99,118,118,40,62,8,11,0.7,0.9
2023-10-22T19:00:00,1165A,120.543,31.2994,苏州市,苏州新区,,46,46,62,21,34,150,95,127,127,52,64,8,10,0.8,1
2023-10-22T19:00:00,1166A,120.669,31.3097,苏州市,苏州工业园区,,45,45,54,22,29,128,102,118,118,38,63,8,10,0.8,0.9
2023-10-22T19:00:00,1167A,120.641,31.3708,苏州市,相城区,,41,41,59,18,31,127,70,110,108,62,63,9,11,0.6,0.8
2023-10-22T19:00:00,1168A,120.9098,31.9663,南通市,狼山街道,,35,35,41,14,21,127,77,106,104,30,37,6,7,0.4,0.4
2023-10-22T19:00:00,1169A,120.86,32.0005,南通市,虹桥,,46,46,47,25,24,134,97,111,111,35,31,6,6,0.6,0.6
2023-10-22T19:00:00,1170A,120.87,32.02,南通市,城中,,43,43,42,18,25,125,91,105,105,34,31,7,7,0.4,0.5
2023-10-22T19:00:00,1171A,120.94,31.93,南通市,星湖花园,,48,48,42,18,19,120,80,104,102,38,29,6,6,0.6,0.6
2023-10-22T19:00:00,1172A,120.81,32.0417,南通市,紫琅学院,颗粒物(PM10),52,53,45,17,17,112,86,98,98,38,40,7,8,0.3,0.4
2023-10-22T19:00:00,1173A,119.176,34.5885,连云港市,市环境监测站,细颗粒物(PM2.5),77,95,82,56,52,127,64,109,108,54,42,8,10,1.0,0.7
2023-10-22T19:00:00,1177A,117.179,34.2761,徐州市,黄河新村,细颗粒物(PM2.5),73,68,111,53,83,148,80,122,122,50,59,7,10,0.5,0.6
2023-10-22T19:00:00,1178A,117.1918,34.2384,徐州市,淮塔,颗粒物(PM10),57,63,123,35,86,147,85,126,126,41,56,7,10,0.3,0.9
2023-10-22T19:00:00,1180A,117.256,34.2153,徐州市,新城区,颗粒物(PM10),67,83,120,42,79,142,46,120,117,88,64,7,9,0.6,0.6
2023-10-22T19:00:00,1181A,117.244,34.2911,徐州市,桃园路,颗粒物(PM10),67,83,114,37,71,149,71,125,124,50,49,12,15,0.6,0.7
2023-10-22T19:00:00,1182A,117.2933,34.2778,徐州市,农科院,颗粒物(PM10),57,63,99,39,72,148,83,128,127,49,52,11,10,0.5,0.6
2023-10-22T19:00:00,1186A,119.389,32.3761,扬州市,邗江监测站,颗粒物(PM10),64,78,68,27,32,178,145,157,157,47,56,8,8,0.5,0.4
2023-10-22T19:00:00,1188A,120.269,31.4867,无锡市,雪浪,颗粒物(PM10),56,61,50,27,25,155,100,129,129,34,28,5,6,0.7,0.8
2023-10-22T19:00:00,1189A,120.275,31.6219,无锡市,黄巷,颗粒物(PM10),55,60,79,27,29,131,78,116,116,67,69,7,10,1.0,1
2023-10-22T19:00:00,1190A,120.294,31.56,无锡市,曹张,颗粒物(PM10),51,51,53,34,34,136,81,120,120,63,71,8,10,1.0,1.1
2023-10-22T19:00:00,1191A,120.242,31.5031,无锡市,漆塘,,48,48,42,29,25,158,74,130,128,35,33,7,8,0.7,0.7
2023-10-22T19:00:00,1192A,120.3489,31.5863,无锡市,东亭,,48,48,61,17,30,144,103,130,130,41,61,6,7,0.8,1.1
2023-10-22T19:00:00,1193A,120.354,31.5475,无锡市,旺庄,颗粒物(PM10),54,58,61,29,33,139,108,129,129,44,70,5,7,0.8,1
2023-10-22T19:00:00,1194A,120.245,31.5631,无锡市,荣巷,,39,36,37,27,23,152,103,131,131,24,34,8,9,0.9,0.9
2023-10-22T19:00:00,1195A,120.299,31.6817,无锡市,堰桥,颗粒物(PM10),52,53,60,24,31,134,91,118,118,32,50,6,8,0.7,0.9
2023-10-22T19:00:00,1196A,119.9633,31.762,常州市,市监测站,细颗粒物(PM2.5),64,76,82,46,54,147,119,136,136,49,69,8,10,0.6,0.9
2023-10-22T19:00:00,1200A,119.9468,31.7069,常州市,武进监测站,颗粒物(PM10),59,67,74,39,42,153,124,139,139,35,60,3,9,0.6,0.8
2023-10-22T19:00:00,1201A,119.9255,31.9087,常州市,安家,细颗粒物(PM2.5),64,65,90,46,50,150,85,134,131,52,60,6,8,0.8,0.8
2023-10-22T19:00:00,1203A,119.6707,32.1875,镇江市,新区办事处,,48,48,61,24,37,162,38,142,133,82,55,7,8,0.6,0.5
2023-10-22T19:00:00,1204A,119.4974,32.1968,镇江市,职教中心,,49,49,60,34,43,172,120,150,150,40,48,8,9,0.6,0.6
2023-10-22T19:00:00,1205A,119.4303,32.1328,镇江市,丹徒区监测站,颗粒物(PM10),58,65,80,34,46,156,103,135,135,37,50,5,8,0.7,0.6
2023-10-22T19:00:00,1206A,119.905,32.4878,泰州市,公园路,,48,48,59,27,37,170,104,144,144,37,35,9,11,0.6,0.7
2023-10-22T19:00:00,1207A,119.9189,32.4625,泰州市,莲花,颗粒物(PM10),56,61,69,27,39,176,116,148,148,31,37,7,8,0.6,0.6
2023-10-22T19:00:00,1209A,119.888,32.4639,泰州市,留学生创业园,颗粒物(PM10),51,51,70,22,37,175,122,149,149,26,34,8,10,0.6,0.7
2023-10-22T19:00:00,1210A,119.036,33.5981,淮安市,钵池山,细颗粒物(PM2.5),55,58,52,39,37,164,129,146,146,26,25,8,10,0.8,0.7
2023-10-22T19:00:00,1211A,119.007,33.575,淮安市,北京南路,颗粒物(PM10),70,90,60,42,36,174,106,148,148,50,43,7,9,0.8,0.6
2023-10-22T19:00:00,1212A,118.989,33.6067,淮安市,市监测站,"颗粒物(PM10),细颗粒物(PM2.5)",67,83,69,48,40,179,53,145,138,84,37,10,15,0.9,0.7
2023-10-22T19:00:00,1213A,119.135,33.5039,淮安市,楚州区监测站,细颗粒物(PM2.5),74,93,52,54,36,169,117,150,150,47,47,11,7,1.1,0.7
2023-10-22T19:00:00,1214A,119.0186,33.6297,淮安市,淮阴区监测站,颗粒物(PM10),75,100,74,43,36,173,86,142,140,68,36,10,12,0.9,0.8
2023-10-22T19:00:00,1215A,120.118,33.4022,盐城市,盐城电厂,颗粒物(PM10),73,95,64,31,30,167,67,144,140,55,38,8,10,0.7,0.7
2023-10-22T19:00:00,1216A,120.156,33.3942,盐城市,市监测站,颗粒物(PM10),64,77,51,43,33,172,70,154,149,66,41,9,10,1.0,0.9
2023-10-22T19:00:00,1218A,120.2144,33.38,盐城市,开发区管委会,颗粒物(PM10),78,105,71,25,27,169,44,152,145,121,44,11,11,0.6,0.7
2023-10-22T19:00:00,1220A,118.293,33.9528,宿迁市,宿迁学院,颗粒物(PM10),54,58,62,32,40,138,73,120,117,82,39,10,10,0.4,0.3
2023-10-22T19:00:00,1221A,118.2442,33.9592,宿迁市,宿迁中学,颗粒物(PM10),57,64,82,36,45,126,116,117,117,31,33,9,9,0.7,0.6
2023-10-22T19:00:00,1223A,120.2072,30.2111,杭州市,滨江,颗粒物(PM10),54,57,66,24,29,150,115,127,127,38,51,7,7,0.5,0.6
2023-10-22T19:00:00,1224A,120.0633,30.2747,杭州市,西溪,,42,42,44,25,30,132,64,108,107,23,38,5,5,0.7,0.6
2023-10-22T19:00:00,1226A,120.3461,30.3153,杭州市,下沙,,43,41,68,21,45,147,136,128,128,33,77,8,9,0.5,0.7
2023-10-22T19:00:00,1227A,120.1269,30.2456,杭州市,卧龙桥,,41,41,44,23,29,147,41,111,106,33,27,4,4,0.8,0.7
2023-10-22T19:00:00,1228A,120.1903,30.2692,杭州市,浙江农大,,35,35,44,24,29,126,100,111,111,30,42,7,7,0.7,0.7
2023-10-22T19:00:00,1230A,120.1197,30.3119,杭州市,和睦小学,颗粒物(PM10),52,53,47,33,31,141,83,120,119,45,44,9,9,0.7,0.6
2023-10-22T19:00:00,1231A,120.3019,30.4183,杭州市,临平镇,颗粒物(PM10),52,54,69,25,39,139,124,120,120,30,56,6,7,0.5,0.6
2023-10-22T19:00:00,1232A,120.2697,30.1819,杭州市,城厢镇,颗粒物(PM10),54,57,57,37,35,132,93,116,116,44,48,8,7,0.7,0.7
2023-10-22T19:00:00,1233A,120.0883,30.1808,杭州市,云栖,,47,47,48,24,29,142,64,115,114,28,31,7,6,0.6,0.6
2023-10-22T19:00:00,1234A,121.8358,29.911,宁波市,区环保大楼,,24,23,22,13,18,114,58,97,97,48,38,4,6,0.5,0.6
2023-10-22T19:00:00,1235A,121.56,29.82,宁波市,万里学院,,31,31,48,13,17,115,88,105,105,11,32,8,9,0.5,0.6
2023-10-22T19:00:00,1236A,121.713,29.9572,宁波市,龙赛医院,,29,16,44,11,18,115,92,101,101,17,44,5,7,0.3,0.5
2023-10-22T19:00:00,1239A,121.633,29.7733,宁波市,钱湖水厂,,26,13,39,10,23,116,82,104,103,5,19,6,7,0.3,0.4
2023-10-22T19:00:00,1240A,121.5856,29.8635,宁波市,太古小学,,28,28,39,14,17,115,88,105,105,15,38,7,8,0.6,0.8
2023-10-22T19:00:00,1241A,121.524,29.8674,宁波市,市环境监测中心,,26,21,35,16,16,114,81,105,102,20,33,6,7,0.6,0.7
2023-10-22T19:00:00,1242A,120.634,28.0089,温州市,瓯海,,33,33,37,14,17,106,79,94,94,23,28,6,7,0.5,0.5
2023-10-22T19:00:00,1243A,120.6748,27.9939,温州市,南浦,颗粒物(PM10),51,52,34,28,14,104,76,95,94,26,19,7,7,0.4,0.3
2023-10-22T19:00:00,1244A,120.76,27.9747,温州市,龙湾,,31,31,23,16,12,106,89,96,96,18,22,5,5,0.4,0.4
2023-10-22T19:00:00,1245A,120.6709,28.0167,温州市,市站,,29,29,38,10,13,106,83,95,95,18,20,6,7,0.4,0.4
2023-10-22T19:00:00,1247A,120.6053,29.9928,绍兴市,城东开发委,颗粒物(PM10),55,59,44,31,24,124,98,112,112,35,27,9,8,0.7,0.6
2023-10-22T19:00:00,1250A,120.0751,30.8669,湖州市,城西水厂,颗粒物(PM10),67,83,65,41,34,144,90,122,122,61,67,4,5,0.7,0.5
2023-10-22T19:00:00,1252A,120.7436,30.778,嘉兴市,清河小学,,,39,51,16,21,139,,130,130,27,42,6,6,0.4,0.7
2023-10-22T19:00:00,1253A,120.726,30.7478,嘉兴市,嘉兴学院,,34,32,54,14,27,134,108,123,123,27,40,6,6,0.5,0.6
2023-10-22T19:00:00,1255A,121.273,28.6459,台州市,黄岩环保大楼,,43,43,30,18,14,109,83,95,95,21,22,6,6,0.4,0.4
2023-10-22T19:00:00,1256A,121.419,28.6542,台州市,台州环保大楼,,48,32,36,33,21,106,76,96,94,20,20,4,5,0.4,0.4
2023-10-22T19:00:00,1257A,121.377,28.5773,台州市,路桥田洋王,颗粒物(PM10),59,67,38,41,21,103,68,91,91,28,27,6,7,0.5,0.4
2023-10-22T19:00:00,1258A,122.122,30.0203,舟山市,定海檀枫,,27,17,18,17,8,119,84,112,109,19,13,6,6,0.3,0.3
2023-10-22T19:00:00,1259A,122.3094,29.9558,舟山市,普陀东港,,25,13,22,14,12,109,77,103,98,11,10,5,5,0.3,0.3
2023-10-22T19:00:00,1260A,122.19,29.9944,舟山市,临城新区,,31,31,20,20,10,111,86,104,103,18,15,5,4,0.2,0.2
2023-10-22T19:00:00,1262A,119.647,29.077,金华市,十五中,,36,36,38,25,28,140,64,115,114,49,44,6,5,0.7,0.5
2023-10-22T19:00:00,1263A,119.686,29.1029,金华市,监测站,颗粒物(PM10),51,51,52,29,28,130,63,112,110,53,49,5,6,0.6,0.5
2023-10-22T19:00:00,1264A,118.8692,28.9398,衢州市,环保大楼,颗粒物(PM10),53,55,50,31,24,115,74,101,101,29,30,5,5,0.7,0.6
2023-10-22T19:00:00,1265A,118.8709,28.9666,衢州市,实验学校,,50,50,43,28,26,122,78,106,106,29,33,3,6,0.6,0.6
2023-10-22T19:00:00,1266A,118.8621,28.9808,衢州市,衢州学院,颗粒物(PM10),57,63,44,35,24,116,52,98,97,47,36,5,6,0.6,0.5
2023-10-22T19:00:00,1267A,119.914,28.4514,丽水市,监测站大楼,,35,35,34,20,20,100,70,84,84,18,22,6,8,0.3,0.3
2023-10-22T19:00:00,1268A,119.93,28.4586,丽水市,莲都小学,,29,29,38,14,22,106,83,91,91,9,20,6,7,0.3,0.4
2023-10-22T19:00:00,1269A,119.879,28.4231,丽水市,余庄前,,18,18,30,7,15,98,48,80,80,11,17,5,6,0.2,0.3
2023-10-22T19:00:00,1270A,117.1959,31.7848,合肥市,明珠广场,颗粒物(PM10),59,68,68,31,30,132,99,119,119,52,58,10,11,0.7,0.6
2023-10-22T19:00:00,1271A,117.3072,31.8764,合肥市,三里街,颗粒物(PM10),62,73,75,36,37,125,71,102,101,73,71,8,9,0.6,0.5
2023-10-22T19:00:00,1272A,117.2588,31.8707,合肥市,琥珀山庄,颗粒物(PM10),62,73,61,36,30,134,67,110,109,63,61,6,7,0.9,0.6
2023-10-22T19:00:00,1273A,117.1604,31.9052,合肥市,董铺水库,,38,38,64,7,24,137,121,119,119,17,42,4,5,0.4,0.5
2023-10-22T19:00:00,1274A,117.25,31.8571,合肥市,长江中路,细颗粒物(PM2.5),78,102,70,57,42,129,84,108,108,57,61,10,11,0.8,0.7
2023-10-22T19:00:00,1275A,117.266,31.9436,合肥市,庐阳区,颗粒物(PM10),53,56,79,31,39,131,89,114,114,58,62,5,6,0.6,0.6
2023-10-22T19:00:00,1276A,117.336,31.8586,合肥市,瑶海区,颗粒物(PM10),67,83,89,34,38,119,59,99,97,87,76,6,8,0.6,0.6
2023-10-22T19:00:00,1277A,117.3027,31.7964,合肥市,包河区,二氧化氮,68,73,81,29,36,138,12,112,103,135,71,10,12,0.6,0.5
2023-10-22T19:00:00,1278A,117.2776,31.7385,合肥市,滨湖新区,颗粒物(PM10),53,56,60,22,29,146,128,124,124,24,57,6,7,0.3,0.4
2023-10-22T19:00:00,1279A,117.1318,31.8403,合肥市,高新区,颗粒物(PM10),51,51,61,18,29,130,97,114,114,49,55,10,9,0.8,0.7
2023-10-22T19:00:00,1280A,119.3903,26.0543,福州市,鼓山,,,,,,,,,,,,,,,,
2023-10-22T19:00:00,1282A,119.2681,26.0504,福州市,师大,,36,36,28,0,10,99,61,68,68,15,11,4,5,0.5,0.5
2023-10-22T19:00:00,1283A,119.2984,26.1028,福州市,五四北路,,33,33,28,12,9,99,62,73,72,17,10,3,3,0.5,0.5
2023-10-22T19:00:00,1284A,119.2648,26.0768,福州市,杨桥西路,,43,43,31,4,12,99,53,66,66,18,14,3,3,0.5,0.5
2023-10-22T19:00:00,1285A,119.317,26.0746,福州市,紫阳,,36,36,30,11,10,95,64,69,68,12,10,5,5,0.4,0.4
2023-10-22T19:00:00,1286A,118.1608,24.8169,厦门市,溪东,,,,,,,,,,,,,,,,
2023-10-22T19:00:00,1287A,118.1514,24.4767,厦门市,洪文,,45,45,29,21,14,86,54,78,74,16,8,4,2,0.4,0.4
2023-10-22T19:00:00,1288A,118.0661,24.4444,厦门市,鼓浪屿,,36,36,24,15,11,85,53,75,72,17,9,4,2,0.4,0.5
2023-10-22T19:00:00,1290A,115.8931,28.6843,南昌市,省外办,颗粒物(PM10),62,73,65,34,31,134,96,116,116,27,36,5,7,0.6,0.6
2023-10-22T19:00:00,1291A,115.8886,28.7003,南昌市,省林业公司,颗粒物(PM10),53,56,61,27,29,147,107,124,124,16,41,7,8,0.4,0.2
2023-10-22T19:00:00,1292A,115.8126,28.7442,南昌市,林科所,,46,46,46,22,22,154,100,133,133,38,35,8,9,0.4,0.4
2023-10-22T19:00:00,1294A,115.8518,28.687,南昌市,建工学校,,46,42,54,32,30,140,110,126,126,30,44,10,11,0.5,0.6
2023-10-22T19:00:00,1295A,115.8921,28.6424,南昌市,象湖,,48,48,53,30,35,158,108,137,137,37,41,8,10,0.6,0.7
2023-10-22T19:00:00,1296A,115.7423,28.7996,南昌市,武术学校,,29,28,19,11,11,146,91,118,117,16,9,3,3,0.3,0.3
2023-10-22T19:00:00,1298A,115.9314,28.6842,南昌市,省站,颗粒物(PM10),59,67,73,34,33,146,99,126,126,34,38,8,10,0.5,0.4
2023-10-22T19:00:00,1299A,116.9862,36.6114,济南市,科干所,颗粒物(PM10),54,58,76,24,36,149,135,141,141,20,21,7,10,0.4,0.5
2023-10-22T19:00:00,1300A,116.9376,36.665,济南市,农科所,颗粒物(PM10),72,93,87,39,36,131,82,119,117,58,40,7,7,0.8,0.7
2023-10-22T19:00:00,1301A,117.1265,36.6734,济南市,开发区,颗粒物(PM10),63,76,66,34,32,140,92,134,130,54,32,7,9,0.7,0.6
2023-10-22T19:00:00,1303A,117.0624,36.6868,济南市,省种子仓库,,,75,78,31,39,144,96,137,133,,33,6,8,,0.6
2023-10-22T19:00:00,1304A,116.9489,36.6447,济南市,机床二厂,颗粒物(PM10),64,78,91,29,43,139,106,126,126,45,44,6,8,0.5,0.5
2023-10-22T19:00:00,1305A,117.0495,36.663,济南市,市监测站,颗粒物(PM10),62,73,72,32,32,145,107,139,136,56,40,7,9,0.9,0.8
2023-10-22T19:00:00,1306A,116.7675,36.5484,济南市,长清党校,颗粒物(PM10),63,76,90,29,46,148,124,134,134,33,31,11,11,0.5,0.5
2023-10-22T19:00:00,1307A,120.6659,36.2403,青岛市,仰口,颗粒物(PM10),64,78,56,44,26,149,149,135,135,19,21,7,7,0.5,0.4
2023-10-22T19:00:00,1310A,120.4134,36.0658,青岛市,市南区东部子站,颗粒物(PM10),65,80,60,41,24,160,144,144,144,20,36,9,13,0.5,0.7
2023-10-22T19:00:00,1311A,120.3664,36.1032,青岛市,四方区子站,细颗粒物(PM2.5),70,78,66,51,27,117,108,100,100,30,46,5,7,0.7,1
2023-10-22T19:00:00,1312A,120.2994,36.054,青岛市,市南区西部子站,,,,53,37,23,149,125,111,,,44,10,14,0.5,0.8
2023-10-22T19:00:00,1313A,120.4581,36.0858,青岛市,崂山区子站,颗粒物(PM10),67,83,56,46,27,168,148,151,151,26,32,10,12,0.7,0.8
2023-10-22T19:00:00,1314A,120.1983,35.9608,青岛市,黄岛区子站,颗粒物(PM10),67,83,63,44,33,158,132,137,137,34,38,10,13,0.6,0.7
2023-10-22T19:00:00,1315A,120.3999,36.3083,青岛市,城阳区子站,颗粒物(PM10),86,122,79,54,30,148,98,126,126,72,63,13,11,1.1,0.9
2023-10-22T19:00:00,1316A,113.69031,34.76122,郑州市,烟厂,,48,48,63,24,27,127,86,114,114,38,35,9,9,0.6,0.6
2023-10-22T19:00:00,1317A,113.65724,34.77134,郑州市,郑纺机,颗粒物(PM10),54,58,63,14,22,128,93,112,112,38,46,9,9,0.6,0.7
2023-10-22T19:00:00,1318A,113.67526,34.80246,郑州市,银行学校,,50,50,54,13,27,131,103,116,116,31,41,8,9,0.5,0.5
2023-10-22T19:00:00,1319A,113.56746,34.81334,郑州市,供水公司,颗粒物(PM10),52,53,69,17,33,135,90,112,112,39,41,11,12,0.8,0.9
2023-10-22T19:00:00,1320A,113.7329,34.7178,郑州市,经开区管委,颗粒物(PM10),54,58,60,20,22,132,94,117,117,34,44,9,9,0.5,0.5
2023-10-22T19:00:00,1321A,113.73961,34.77172,郑州市,四十七中,颗粒物(PM10),53,56,54,12,23,134,104,123,123,36,40,8,7,0.7,0.7
2023-10-22T19:00:00,1322A,113.60532,34.74838,郑州市,市监测站,颗粒物(PM10),61,71,73,23,29,126,96,112,112,35,43,8,8,0.4,0.5
2023-10-22T19:00:00,1323A,113.64164,34.7525,郑州市,河医大,颗粒物(PM10),55,60,60,21,28,128,89,112,112,38,33,12,11,0.6,0.7
2023-10-22T19:00:00,1324A,113.51488,34.91089,郑州市,岗李水库,,,,,,,,,,,,,,,,
2023-10-22T19:00:00,1325A,114.3677,30.5584,武汉市,东湖梨园,,44,27,42,22,30,160,139,148,148,20,40,11,12,0.7,0.6
2023-10-22T19:00:00,1326A,114.2529,30.558,武汉市,汉阳月湖,"颗粒物(PM10),细颗粒物(PM2.5)",52,54,48,36,30,140,54,119,115,89,63,10,10,1.1,0.8
2023-10-22T19:00:00,1327A,114.282,30.6189,武汉市,汉口花桥,细颗粒物(PM2.5),74,67,54,54,34,151,43,133,126,99,66,10,11,1.2,0.8
2023-10-22T19:00:00,1328A,114.3025,30.5332,武汉市,武昌紫阳,,39,39,43,25,26,168,120,144,144,45,61,10,11,0.7,0.8
2023-10-22T19:00:00,1329A,114.3646,30.6217,武汉市,青山钢花,细颗粒物(PM2.5),77,74,73,56,45,160,52,134,127,108,66,11,12,1.1,0.8
2023-10-22T19:00:00,1330A,114.1566,30.4825,武汉市,沌口新区,颗粒物(PM10),54,58,66,31,37,161,102,144,143,62,64,12,13,1.0,0.8
2023-10-22T19:00:00,1331A,114.3014,30.5944,武汉市,汉口江滩,,38,38,46,18,26,160,118,144,144,43,42,10,10,0.7,0.5
2023-10-22T19:00:00,1333A,114.135,30.6319,武汉市,吴家山,颗粒物(PM10),59,67,62,39,34,162,112,144,144,45,55,11,11,0.8,0.9
2023-10-22T19:00:00,1334A,113.8454,30.2917,武汉市,沉湖七壕,,46,43,41,20,20,174,146,158,158,24,27,6,6,0.7,0.7
2023-10-22T19:00:00,1335A,113.0833,28.2325,长沙市,经开区环保局,,42,42,56,17,30,155,127,134,134,12,28,7,8,0.4,0.4
2023-10-22T19:00:00,1336A,112.8872,28.2189,长沙市,高开区环保局,颗粒物(PM10),58,65,73,30,37,156,121,138,138,36,43,6,8,0.6,0.6
2023-10-22T19:00:00,1337A,113.0792,28.2053,长沙市,马坡岭,颗粒物(PM10),58,66,69,24,33,168,117,143,143,33,33,8,8,0.6,0.5
2023-10-22T19:00:00,1338A,112.9394,28.19,长沙市,湖南师范大学,颗粒物(PM10),59,68,51,32,29,155,99,137,137,27,27,7,9,0.7,0.6
2023-10-22T19:00:00,1339A,113.0178,28.1322,长沙市,雨花区环保局,颗粒物(PM10),52,53,56,27,30,152,130,136,136,33,40,9,10,0.5,0.5
2023-10-22T19:00:00,1340A,112.9792,28.2597,长沙市,伍家岭,,50,50,63,26,31,146,60,127,124,72,53,6,7,1.0,0.8
2023-10-22T19:00:00,1341A,113.0014,28.1944,长沙市,火车新站,颗粒物(PM10),52,54,59,27,29,154,118,134,134,36,42,7,9,0.5,0.6
2023-10-22T19:00:00,1342A,112.9844,28.1178,长沙市,天心区环保局,,,64,47,35,28,152,130,140,140,32,34,,6,0.6,0.5
2023-10-22T19:00:00,1343A,112.8908,28.1308,长沙市,湖南中医药大学,颗粒物(PM10),58,66,65,26,36,128,48,116,112,64,42,5,5,0.9,0.8
2023-10-22T19:00:00,1344A,112.9581,28.3611,长沙市,沙坪,,35,35,35,21,24,113,72,92,92,28,21,5,6,0.5,0.4
2023-10-22T19:00:00,1345A,113.2347,23.1423,广州市,广雅中学,,43,43,28,22,17,53,22,44,41,47,36,4,4,0.8,0.7
2023-10-22T19:00:00,1346A,113.2612,23.105,广州市,市五中,,43,43,24,27,17,71,24,59,53,44,25,6,5,0.8,0.7
2023-10-22T19:00:00,1348A,113.3478,23.0916,广州市,广东商学院,,32,29,18,22,12,70,26,56,53,40,21,4,4,0.7,0.5
2023-10-22T19:00:00,1349A,113.4332,23.1047,广州市,市八十六中,,25,24,19,17,12,69,39,57,56,26,21,4,4,0.7,0.6
2023-10-22T19:00:00,1350A,113.3505,22.9483,广州市,番禺中学,,39,39,20,21,14,84,24,64,61,54,25,4,4,0.7,0.6
2023-10-22T19:00:00,1351A,113.2146,23.3916,广州市,花都师范,,28,24,17,19,13,77,43,69,54,21,15,5,4,0.5,0.3
2023-10-22T19:00:00,1352A,113.2597,23.1331,广州市,市监测站,,28,28,22,14,14,66,23,54,48,50,30,3,3,0.7,0.5
2023-10-22T19:00:00,1353A,113.5618,23.312,广州市,九龙镇镇龙,,26,24,17,18,13,56,43,50,49,20,15,5,5,0.6,0.6
2023-10-22T19:00:00,1354A,113.2765,23.1544,广州市,麓湖,,33,33,19,20,11,68,27,60,53,37,21,4,4,0.7,0.6
2023-10-22T19:00:00,1355A,113.443,23.3035,广州市,帽峰山森林公园,,19,14,12,13,12,61,37,57,53,13,11,6,6,0.4,0.3
2023-10-22T19:00:00,1356A,114.1063,22.5545,深圳市,通心岭子站,,41,41,28,23,14,105,71,84,84,25,20,3,3,0.9,0.8
2023-10-22T19:00:00,1357A,114.117,22.5625,深圳市,洪湖,颗粒物(PM10),51,51,30,27,15,99,66,80,80,28,19,7,6,0.5,0.4
2023-10-22T19:00:00,1358A,113.987,22.5417,深圳市,华侨城,,50,50,29,26,15,125,61,83,83,34,23,5,5,0.9,0.8
2023-10-22T19:00:00,1359A,113.9181,22.5171,深圳市,南海子站,颗粒物(PM10),65,80,48,42,19,106,59,74,74,45,32,6,5,0.9,0.8
2023-10-22T19:00:00,1360A,114.2458,22.5689,深圳市,盐田,,35,35,24,17,13,97,66,81,81,27,13,5,5,0.9,0.8
2023-10-22T19:00:00,1361A,114.2283,22.7244,深圳市,龙岗,,41,41,24,22,14,86,53,72,72,27,14,7,7,1.0,0.9
2023-10-22T19:00:00,1363A,114.494,22.5422,深圳市,南澳,,39,34,20,27,13,140,72,118,113,20,16,4,5,0.9,0.9
2023-10-22T19:00:00,1364A,114.41,22.6342,深圳市,葵涌,,27,27,21,18,12,85,57,74,74,23,13,5,5,0.7,0.6
2023-10-22T19:00:00,1365A,114.297,22.5978,深圳市,梅沙,,36,36,25,21,12,90,60,76,76,15,9,7,7,1.1,1.1
2023-10-22T19:00:00,1366A,114.0678,22.738,深圳市,观澜,颗粒物(PM10),63,75,36,29,16,101,30,83,78,55,22,8,8,0.8,0.8
2023-10-22T19:00:00,1367A,113.5814,22.2618,珠海市,吉大,,46,46,31,7,6,133,77,96,96,35,23,7,6,0.7,0.6
2023-10-22T19:00:00,1368A,113.4881,22.2335,珠海市,前山,,46,46,32,27,21,110,70,81,81,36,28,7,7,0.6,0.6
2023-10-22T19:00:00,1369A,113.628,22.4251,珠海市,唐家,,42,42,30,24,19,125,54,86,86,40,25,5,5,0.7,0.6
2023-10-22T19:00:00,1370A,113.299,22.2281,珠海市,斗门,,44,44,30,27,16,104,68,87,87,38,28,8,8,0.7,0.6
2023-10-22T19:00:00,1371A,113.1294,23.0067,佛山市,湾梁,,39,39,17,19,12,74,38,64,62,36,22,12,9,0.7,0.6
2023-10-22T19:00:00,1372A,113.1083,23.0478,佛山市,华材职中,,36,36,22,20,14,75,44,64,62,32,22,7,5,0.6,0.6
2023-10-22T19:00:00,1373A,113.144,23.0453,佛山市,南海气象局,,37,37,24,20,10,72,42,66,60,34,22,10,7,0.6,0.6
2023-10-22T19:00:00,1374A,113.2881,22.8094,佛山市,顺德苏岗,,43,43,23,17,12,85,36,66,66,40,24,7,6,0.8,0.7
2023-10-22T19:00:00,1376A,112.8383,22.8678,佛山市,高明孔堂,,46,46,26,23,14,77,40,63,61,37,19,10,6,0.7,0.7
2023-10-22T19:00:00,1377A,112.8836,23.1588,佛山市,三水监测站,,27,27,18,18,14,72,38,59,58,34,19,5,4,0.7,0.6
2023-10-22T19:00:00,1378A,112.867,23.185,佛山市,三水云东海,,21,21,19,11,16,68,29,57,54,22,14,5,5,0.7,0.6
2023-10-22T19:00:00,1379A,113.3769,22.5211,中山市,华柏园,,47,47,27,27,18,76,65,67,67,38,30,4,4,0.7,0.5
2023-10-22T19:00:00,1380A,113.3881,22.5497,中山市,张溪,颗粒物(PM10),51,52,31,26,20,78,53,66,66,44,28,3,4,0.7,0.6
2023-10-22T19:00:00,1381A,113.4075,22.5111,中山市,紫马岭,,35,35,28,20,19,74,49,63,63,38,30,4,4,0.7,0.6
2023-10-22T19:00:00,1382A,113.4411,22.4853,中山市,长江旅游区,,,,,,,,,,,,,,,,
2023-10-22T19:00:00,1383A,113.1064,22.6058,江门市,北街,,34,34,28,20,19,108,58,83,83,37,31,8,7,0.7,0.7
2023-10-22T19:00:00,1384A,113.0731,22.5835,江门市,西区,,42,41,30,29,17,113,59,86,86,40,29,8,7,0.7,0.6
2023-10-22T19:00:00,1385A,113.0219,22.5311,江门市,圭峰西,,36,30,24,25,18,107,69,88,88,40,30,5,4,0.8,0.7
2023-10-22T19:00:00,1386A,113.0828,22.5947,江门市,东湖,,,38,32,28,16,115,,96,96,32,26,6,6,0.6,0.6
2023-10-22T19:00:00,1389A,113.7547,23.0494,东莞市,莞城梨川,,34,34,20,21,13,79,32,67,65,31,17,9,7,0.9,0.7
2023-10-22T19:00:00,1390A,113.7944,23.0128,东莞市,东城石井,,31,31,20,18,15,100,50,80,80,14,13,7,6,0.8,0.7
2023-10-22T19:00:00,1391A,113.7383,22.9658,东莞市,南城西平,,32,32,24,18,14,95,39,71,71,32,24,3,3,0.8,0.8
2023-10-22T19:00:00,1392A,114.4183,23.0528,惠州市,河南岸金山湖子站,,32,32,24,20,16,74,52,64,63,17,10,8,8,0.7,0.6
2023-10-22T19:00:00,1393A,114.4053,23.0822,惠州市,下埔横江三路子站,,32,32,24,18,15,74,53,65,65,19,15,8,8,0.7,0.6
2023-10-22T19:00:00,1394A,114.4103,23.1142,惠州市,江北云山西路子站,,28,28,24,18,16,74,54,67,67,18,13,8,7,0.6,0.6
2023-10-22T19:00:00,1395A,114.4645,22.7833,惠州市,惠阳区承修路船湖子站,,41,41,28,22,16,69,44,58,58,24,16,6,6,0.9,0.7
2023-10-22T19:00:00,1396A,114.5317,22.7422,惠州市,大亚湾管委会子站,,43,43,22,24,15,74,52,63,63,21,13,4,4,0.8,0.8
2023-10-22T19:00:00,1397A,112.4267,23.0706,肇庆市,睦岗子站,,23,21,15,16,10,65,42,57,52,26,18,5,6,0.5,0.4
2023-10-22T19:00:00,1398A,112.4645,23.0475,肇庆市,城中子站,,19,17,15,12,12,80,59,70,69,22,14,6,6,0.7,0.5
2023-10-22T19:00:00,1399A,112.5544,23.1522,肇庆市,坑口子站,,15,14,15,10,11,78,43,66,64,23,16,7,7,0.6,0.5
2023-10-22T19:00:00,1400A,112.4753,23.1,肇庆市,七星岩子站,,,,,,,,,,,,,,,,
2023-10-22T19:00:00,1401A,108.3103,22.7881,南宁市,二十一中,,37,37,35,21,21,112,90,51,,10,17,6,8,0.8,0.7
2023-10-22T19:00:00,1402A,108.3141,22.8528,南宁市,北湖,,38,38,38,26,26,117,83,98,98,17,16,6,8,0.8,0.7
2023-10-22T19:00:00,1403A,108.3206,22.8225,南宁市,市监测站,,41,41,38,20,22,117,84,101,101,21,25,9,10,0.6,0.6
2023-10-22T19:00:00,1404A,108.3829,22.8037,南宁市,大自然花园,,38,38,30,26,22,107,78,96,96,16,15,6,7,0.7,0.7
2023-10-22T19:00:00,1405A,108.4394,22.7904,南宁市,仙葫,,30,30,28,15,16,108,84,98,98,12,12,6,6,0.6,0.6
2023-10-22T19:00:00,1406A,108.2397,22.8467,南宁市,区农职院,,49,49,46,25,28,122,88,100,100,23,25,8,14,0.7,0.7
2023-10-22T19:00:00,1407A,108.3275,22.735,南宁市,英华嘉园,颗粒物(PM10),51,52,32,33,21,100,74,86,86,18,21,7,6,0.7,0.7
2023-10-22T19:00:00,1408A,108.2257,22.7757,南宁市,沙井镇街道办,,48,48,47,17,26,119,69,91,91,26,26,5,6,0.7,0.7
2023-10-22T19:00:00,1409A,110.576,19.9507,海口市,东寨港,,,,,,,,,,,,,,,,
2023-10-22T19:00:00,1410A,110.3232,20.0574,海口市,海南大学,,38,36,37,22,20,120,120,97,97,8,9,6,6,0.6,0.6
2023-10-22T19:00:00,1411A,110.283,20.0053,海口市,秀英海南医院,,37,34,33,21,20,116,116,92,92,10,10,7,7,0.6,0.5
2023-10-22T19:00:00,1412A,110.338,19.9969,海口市,海南师范大学,,,35,33,22,20,114,114,91,91,10,11,5,5,,0.6
2023-10-22T19:00:00,1413A,110.33,20.0356,海口市,龙华路环保局宿舍,,40,40,35,21,19,123,123,64,,10,11,8,8,0.5,0.5
2023-10-22T19:00:00,1414A,106.3787,29.8279,重庆市,缙云山,,34,34,31,19,17,116,90,96,86,12,14,7,8,0.1,0.1
2023-10-22T19:00:00,1416A,106.4213,29.8253,重庆市,天生,细颗粒物(PM2.5),52,47,50,36,32,120,83,92,92,34,41,11,7,1.3,1.2
2023-10-22T19:00:00,1417A,106.6263,29.7228,重庆市,两路,,34,34,37,18,25,106,47,83,83,46,46,7,8,0.9,0.9
2023-10-22T19:00:00,1418A,106.2953,29.5983,重庆市,虎溪,颗粒物(PM10),64,78,54,32,31,85,26,53,53,75,56,6,7,0.6,0.6
2023-10-22T19:00:00,1419A,106.5777,29.5102,重庆市,南坪,,48,48,48,28,28,109,85,87,87,41,35,11,11,0.9,0.8
2023-10-22T19:00:00,1420A,106.6556,29.6277,重庆市,唐家沱,,49,49,61,30,26,117,61,94,94,48,37,10,7,0.8,0.8
2023-10-22T19:00:00,1421A,106.6349,29.4906,重庆市,茶园,,47,47,60,26,28,101,67,76,76,56,52,10,8,1.1,1.1
2023-10-22T19:00:00,1422A,106.3754,29.4572,重庆市,白市驿,,50,50,58,27,32,97,80,66,66,39,45,8,8,0.6,0.7
2023-10-22T19:00:00,1425A,106.6205,29.7166,重庆市,空港,,42,35,41,29,27,122,70,101,101,39,43,5,7,0.8,0.9
2023-10-22T19:00:00,1426A,106.4782,29.4875,重庆市,新山村,颗粒物(PM10),51,51,59,32,33,103,79,76,76,57,70,9,10,0.8,1
2023-10-22T19:00:00,1427A,106.5616,29.6453,重庆市,礼嘉,,46,39,59,32,26,121,88,97,97,30,55,10,10,0.7,1
2023-10-22T19:00:00,1428A,106.4522,29.7091,重庆市,蔡家,颗粒物(PM10),57,63,54,33,27,102,47,66,66,52,45,4,5,0.4,0.5
2023-10-22T19:00:00,1429A,106.5093,29.3917,重庆市,鱼新街,颗粒物(PM10),52,53,58,29,32,94,94,79,79,45,60,8,10,0.8,1.1
2023-10-22T19:00:00,1431A,103.9728,30.7236,成都市,金泉两河,细颗粒物(PM2.5),62,65,67,44,47,129,69,106,106,33,30,2,3,0.5,0.7
2023-10-22T19:00:00,1432A,104.176,30.6872,成都市,十里店,细颗粒物(PM2.5),54,53,53,38,38,134,103,120,120,27,37,1,2,0.5,0.6
2023-10-22T19:00:00,1433A,104.079,30.5706,成都市,三瓦窑,颗粒物(PM10),54,58,61,37,35,132,99,110,110,19,29,2,3,0.5,0.6
2023-10-22T19:00:00,1434A,104.1114,30.63,成都市,沙河铺,细颗粒物(PM2.5),70,51,58,51,44,125,83,106,106,18,31,1,2,0.5,0.6
2023-10-22T19:00:00,1437A,104.0786,30.6531,成都市,君平街,细颗粒物(PM2.5),58,63,69,41,48,131,98,115,115,31,47,6,7,0.6,0.7
2023-10-22T19:00:00,1438A,103.613,31.0283,成都市,灵岩寺,颗粒物(PM10),51,52,38,35,26,137,128,116,116,10,9,8,18,0.8,0.9
2023-10-22T19:00:00,1439A,106.6899,26.5998,贵阳市,马鞍山,,23,22,23,14,14,128,71,109,106,13,12,5,5,0.5,0.4
2023-10-22T19:00:00,1440A,106.6971,26.5694,贵阳市,市环保站,细颗粒物(PM2.5),58,61,32,41,21,128,71,111,108,41,20,7,6,0.5,0.3
2023-10-22T19:00:00,1441A,106.6243,26.6266,贵阳市,鉴湖路,,48,48,33,19,13,130,74,112,110,33,13,5,4,0.5,0.4
2023-10-22T19:00:00,1442A,106.7487,26.6343,贵阳市,燕子冲,,36,36,29,22,18,132,70,114,111,26,14,6,6,0.6,0.4
2023-10-22T19:00:00,1443A,106.6555,26.4365,贵阳市,碧云窝,颗粒物(PM10),51,51,40,19,17,118,85,108,106,20,17,8,7,0.6,0.4
2023-10-22T19:00:00,1444A,106.694,26.5161,贵阳市,中院村,,48,48,38,24,20,104,68,92,92,30,25,4,4,0.4,0.3
2023-10-22T19:00:00,1445A,106.7109,26.6027,贵阳市,红边门,颗粒物(PM10),51,51,36,34,22,120,63,102,99,41,21,6,6,0.5,0.4
2023-10-22T19:00:00,1446A,106.7164,26.5699,贵阳市,新华路,颗粒物(PM10),54,58,37,27,19,122,56,107,104,47,18,7,7,0.6,0.4
2023-10-22T19:00:00,1447A,106.674,26.5424,贵阳市,太慈桥,,,,27,,14,123,,113,113,,17,,5,,0.4
2023-10-22T19:00:00,1450A,102.8204,24.8886,昆明市,呈贡新区,,21,16,33,14,23,106,66,89,89,19,31,4,7,0.6,0.8
2023-10-22T19:00:00,1451A,102.6251,24.9608,昆明市,西山森林公园,,25,16,21,8,15,99,78,90,90,6,9,4,7,0.4,0.6
2023-10-22T19:00:00,1452A,102.7252,25.0902,昆明市,龙泉镇,,21,21,38,10,22,88,59,79,79,18,31,9,9,0.6,0.8
2023-10-22T19:00:00,1453A,102.7266,25.0375,昆明市,东风东路,,21,20,32,14,22,93,67,82,82,20,17,10,10,0.5,0.7
2023-10-22T19:00:00,1454A,102.6742,25.0669,昆明市,金鼎山,,22,18,39,15,20,89,64,80,80,20,26,14,16,0.5,0.7
2023-10-22T19:00:00,1455A,102.6644,25.0401,昆明市,碧鸡广场,,20,20,34,14,23,89,56,79,79,25,34,8,8,0.9,0.9
2023-10-22T19:00:00,1456A,91.1319,29.6514,拉萨市,八廓街,,30,23,24,12,12,100,95,94,94,11,22,10,12,0.2,0.3
2023-10-22T19:00:00,1457A,91.1221,29.6747,拉萨市,市环保局,,28,15,26,5,13,102,89,93,93,18,26,7,9,0.6,0.7
2023-10-22T19:00:00,1458A,91.0874,29.6475,拉萨市,区监测站,,30,8,19,6,11,98,94,93,93,12,29,8,10,0.4,0.5
2023-10-22T19:00:00,1459A,91.1774,29.6541,拉萨市,西藏大学,,30,14,18,6,9,98,93,91,91,12,17,11,12,0.4,0.5
2023-10-22T19:00:00,1460A,90.9798,29.6588,拉萨市,区辐射站,,29,20,29,5,12,92,90,86,86,15,29,6,6,0.5,0.6
2023-10-22T19:00:00,1461A,91.0834,29.6292,拉萨市,拉萨火车站,,28,12,18,6,10,91,88,84,84,11,23,6,7,0.3,0.6
2023-10-22T19:00:00,1462A,108.882,34.2749,西安市,高压开关厂,颗粒物(PM10),53,55,103,22,42,83,41,66,66,61,63,8,11,0.5,0.7
2023-10-22T19:00:00,1463A,108.993,34.2629,西安市,兴庆小区,颗粒物(PM10),68,85,63,35,29,78,50,66,66,75,47,8,7,0.6,0.6
2023-10-22T19:00:00,1464A,109.06,34.2572,西安市,纺织城,颗粒物(PM10),71,92,72,39,34,96,32,73,71,77,45,7,7,0.8,0.6
2023-10-22T19:00:00,1465A,108.9356,34.2173,西安市,小寨,颗粒物(PM10),58,66,80,24,37,93,31,68,68,72,56,7,8,0.7,0.8
2023-10-22T19:00:00,1466A,108.954,34.2713,西安市,市人民体育场,颗粒物(PM10),60,70,80,34,42,76,31,56,56,77,54,6,7,0.5,0.7
2023-10-22T19:00:00,1467A,108.8922,34.2322,西安市,高新西区,颗粒物(PM10),52,53,76,31,47,98,34,70,70,83,64,6,8,0.8,0.9
2023-10-22T19:00:00,1468A,108.935,34.3474,西安市,经开区,颗粒物(PM10),63,76,83,37,42,72,11,25,,96,67,5,6,0.7,0.8
2023-10-22T19:00:00,1469A,108.906,34.1546,西安市,长安区,颗粒物(PM10),71,91,67,23,31,120,29,81,80,77,39,6,7,0.7,0.6
2023-10-22T19:00:00,1471A,109.2186,34.3731,西安市,临潼区,颗粒物(PM10),72,94,75,37,37,103,53,75,75,44,32,7,8,0.9,0.8
2023-10-22T19:00:00,1472A,108.869,34.378,西安市,草滩,颗粒物(PM10),77,103,89,38,34,92,48,66,66,74,62,3,6,0.6,0.6
2023-10-22T19:00:00,1473A,108.985,34.1978,西安市,曲江文化产业集团,颗粒物(PM10),63,75,76,38,44,99,67,77,77,52,50,6,6,0.8,0.8
2023-10-22T19:00:00,1474A,109.051,34.3213,西安市,广运潭,颗粒物(PM10),77,103,77,50,42,86,53,64,64,64,44,8,8,0.7,0.7
2023-10-22T19:00:00,1476A,103.631,36.1031,兰州市,兰炼宾馆,颗粒物(PM10),72,93,84,50,52,185,53,111,111,76,66,13,17,0.9,1.1
2023-10-22T19:00:00,1477A,104.1373,35.9454,兰州市,榆中兰大校区,,,,,,,,,,,,,,,,
2023-10-22T19:00:00,1478A,103.8412,36.0726,兰州市,生物制品所,细颗粒物(PM2.5),53,44,74,37,43,99,77,79,79,21,58,10,12,0.5,1
2023-10-22T19:00:00,1479A,103.831,36.0464,兰州市,铁路设计院,细颗粒物(PM2.5),55,50,84,39,49,100,59,67,67,54,75,11,15,0.6,1.4
2023-10-22T19:00:00,1483A,101.524,36.6867,西宁市,第五水厂,,,,,,,,,,,,,,,,
2023-10-22T19:00:00,1484A,105.9512,38.6016,银川市,贺兰山马莲口,,48,43,38,33,23,145,134,130,130,20,21,15,20,0.6,0.6
2023-10-22T19:00:00,1488A,106.2328,38.4975,银川市,贺兰山东路,细颗粒物(PM2.5),90,103,99,67,57,151,73,119,119,82,69,16,18,0.9,0.9
2023-10-22T19:00:00,1489A,106.1358,38.5036,银川市,学院路,颗粒物(PM10),78,106,97,43,45,127,92,109,109,52,56,19,18,0.8,0.9
2023-10-22T19:00:00,1490A,87.5801,43.8303,乌鲁木齐市,监测站,颗粒物(PM10),74,98,85,32,27,82,61,66,66,51,66,8,6,0.4,0.5
2023-10-22T19:00:00,1491A,87.6046,43.768,乌鲁木齐市,收费所,颗粒物(PM10),64,78,89,27,34,80,68,66,66,41,47,6,3,0.6,0.5
2023-10-22T19:00:00,1492A,87.4754,43.9469,乌鲁木齐市,新疆农科院农场,颗粒物(PM10),78,105,145,48,48,84,81,57,57,38,68,9,5,1.3,1.1
2023-10-22T19:00:00,1493A,87.5525,43.8711,乌鲁木齐市,铁路局,颗粒物(PM10),79,107,96,35,34,73,60,60,60,58,62,8,5,0.6,0.6
2023-10-22T19:00:00,1494A,87.6432,43.831,乌鲁木齐市,三十一中学,颗粒物(PM10),65,79,90,31,31,84,73,68,68,32,48,12,9,0.9,0.8
2023-10-22T19:00:00,1496A,87.7216,44.1747,乌鲁木齐市,米东区环保局,颗粒物(PM10),66,82,138,25,51,109,96,74,74,13,53,6,9,0.5,0.8
2023-10-22T19:00:00,1508A,112.9433,27.8614,湘潭市,板塘,颗粒物(PM10),58,65,70,33,38,174,107,144,144,45,43,10,10,1.0,0.9
2023-10-22T19:00:00,1511A,112.9118,27.8403,湘潭市,市监测站,颗粒物(PM10),61,71,72,32,45,180,131,150,150,37,34,8,9,0.6,0.7
2023-10-22T19:00:00,1512A,112.8937,27.8728,湘潭市,江麓,颗粒物(PM10),58,66,67,35,40,174,110,146,146,44,36,10,13,0.8,0.9
2023-10-22T19:00:00,1513A,112.9227,27.8159,湘潭市,岳塘,颗粒物(PM10),52,53,69,35,39,167,125,147,147,41,36,14,17,1.3,1
2023-10-22T19:00:00,1514A,112.9074,27.9119,湘潭市,科大,颗粒物(PM10),63,75,76,37,43,168,105,145,145,50,40,11,12,1.1,1.2
2023-10-22T19:00:00,1515A,113.135,27.8244,株洲市,天台山庄,细颗粒物(PM2.5),68,73,60,49,36,169,107,152,151,49,41,11,10,1.0,0.8
2023-10-22T19:00:00,1518A,113.095,27.8867,株洲市,株冶医院,颗粒物(PM10),76,102,63,51,37,171,81,145,143,66,47,9,9,0.9,0.6
2023-10-22T19:00:00,1519A,113.167,27.8667,株洲市,市四中,细颗粒物(PM2.5),103,126,62,77,39,172,62,148,143,68,37,9,7,1.2,0.8
2023-10-22T19:00:00,1520A,113.143,27.8381,株洲市,火车站,细颗粒物(PM2.5),104,109,72,78,44,166,72,146,143,67,44,8,10,1.5,0.9
2023-10-22T19:00:00,1524A,113.13,27.8528,株洲市,市监测站,"颗粒物(PM10),细颗粒物(PM2.5)",57,64,67,40,44,164,111,148,148,35,43,10,11,0.7,0.8
2023-10-22T19:00:00,1552A,106.805,26.3003,贵阳市,桐木岭,,,,,,,,,,,,,,,,
2023-10-22T19:00:00,1559A,113.251,27.8336,株洲市,大京风景区,细颗粒物(PM2.5),143,124,39,109,24,145,62,125,121,13,9,2,3,0.9,0.5
2023-10-22T19:00:00,1562A,113.0048,27.9153,湘潭市,昭山,颗粒物(PM10),62,73,68,36,33,177,78,147,147,64,47,7,8,0.5,0.5
2023-10-22T19:00:00,1564A,112.4876,27.9164,湘潭市,韶山,颗粒物(PM10),57,64,45,28,22,152,94,138,136,18,13,7,7,0.7,0.4
2023-10-22T19:00:00,1585A,109.8756,40.6532,包头市,市环境监测站,颗粒物(PM10),66,82,88,29,40,104,23,84,83,104,63,23,23,1.2,1.2
2023-10-22T19:00:00,1587A,109.9991,40.5842,包头市,包头八中,颗粒物(PM10),57,64,141,35,62,116,32,96,93,92,64,18,41,1.1,1.4
2023-10-22T19:00:00,1588A,109.8538,40.6821,包头市,青山宾馆,细颗粒物(PM2.5),73,82,93,53,49,111,21,84,83,111,63,27,24,1.3,1.3
2023-10-22T19:00:00,1589A,109.8642,40.6288,包头市,惠龙物流,颗粒物(PM10),70,89,86,35,42,108,52,91,91,79,64,26,24,1.4,1.4
2023-10-22T19:00:00,1590A,110.0377,40.5546,包头市,东河鸿龙湾,颗粒物(PM10),54,58,112,34,56,120,56,103,102,57,55,20,20,0.8,0.9
2023-10-22T19:00:00,1591A,110.0023,39.8129,鄂尔多斯市,综合楼,,39,39,61,17,24,120,78,98,98,39,48,9,17,0.5,0.7
2023-10-22T19:00:00,1592A,109.9486,39.8261,鄂尔多斯市,巴音孟克林场办事处,,48,48,53,27,26,119,52,97,95,63,49,11,25,0.8,0.7
2023-10-22T19:00:00,1593A,109.7736,39.5986,鄂尔多斯市,康泽苑,,25,24,38,10,21,122,80,97,97,32,36,6,7,0.5,0.5
2023-10-22T19:00:00,1594A,109.8119,39.5989,鄂尔多斯市,华泰汽车城,,43,39,50,12,19,123,29,93,91,85,48,6,8,0.7,0.6
2023-10-22T19:00:00,1595A,109.9734,39.7884,鄂尔多斯市,奥林花园,颗粒物(PM10),79,107,80,24,28,119,17,94,88,96,59,8,13,0.8,0.9
2023-10-22T19:00:00,1597A,122.2703,40.7094,营口市,大庆路,,34,34,30,20,17,87,48,77,70,42,25,5,6,0.7,0.7
2023-10-22T19:00:00,1598A,122.2150,40.6511,营口市,镜湖西路,细颗粒物(PM2.5),62,71,39,44,13,84,23,74,67,81,32,11,8,1.0,0.7
2023-10-22T19:00:00,1599A,122.1658,40.6789,营口市,西炮台,,36,32,28,25,10,94,35,82,77,51,24,6,7,0.7,0.6
2023-10-22T19:00:00,1600A,124.3303,40.0625,丹东市,江湾东路,细颗粒物(PM2.5),95,124,57,71,29,116,47,87,86,53,31,14,11,1.3,1.1
2023-10-22T19:00:00,1601A,124.4256,40.1503,丹东市,临江后街,颗粒物(PM10),74,98,58,42,26,113,87,95,95,18,26,8,9,1.0,0.9
2023-10-22T19:00:00,1602A,124.3933,40.1461,丹东市,元宝山,颗粒物(PM10),76,102,39,32,19,103,63,81,81,45,27,9,7,1.8,0.9
2023-10-22T19:00:00,1603A,124.3633,40.1092,丹东市,民主桥,颗粒物(PM10),82,114,52,52,24,104,70,83,83,28,32,11,9,1.3,0.9
2023-10-22T19:00:00,1604A,122.0303,41.1489,盘锦市,开发区,细颗粒物(PM2.5),52,45,22,36,11,92,20,79,72,92,32,21,11,1.0,0.7
2023-10-22T19:00:00,1605A,122.0485,41.0883,盘锦市,兴隆台,,49,49,24,33,11,92,16,79,70,82,33,13,11,1.0,0.5
2023-10-22T19:00:00,1606A,121.8297,41.1028,盘锦市,新生街道,,29,11,19,8,9,90,28,78,74,58,26,9,10,0.5,0.7
2023-10-22T19:00:00,1607A,120.9092,40.7136,葫芦岛市,龙港区,,25,14,31,17,13,116,80,84,84,14,20,15,30,0.5,0.5
2023-10-22T19:00:00,1608A,120.8392,40.7514,葫芦岛市,化工街,颗粒物(PM10),57,63,37,31,12,98,54,78,78,48,33,15,11,1.0,0.6
2023-10-22T19:00:00,1609A,120.8341,40.7073,葫芦岛市,新区,,34,30,30,16,13,106,42,78,77,67,31,11,12,0.9,0.8
2023-10-22T19:00:00,1610A,120.8695,40.7677,葫芦岛市,东城区,细颗粒物(PM2.5),53,40,37,37,16,85,18,78,73,88,36,13,17,1.2,0.8
2023-10-22T19:00:00,1611A,118.5819,24.9117,泉州市,涂山街,,26,22,21,12,9,104,82,89,89,8,7,3,4,0.4,0.4
2023-10-22T19:00:00,1612A,118.5972,24.8978,泉州市,津头埔,,26,26,20,15,8,101,76,87,85,15,11,2,2,0.5,0.5
2023-10-22T19:00:00,1613A,118.6663,24.9424,泉州市,万安,,30,30,23,12,8,103,77,89,88,13,10,3,3,0.6,0.5
2023-10-22T19:00:00,1614A,118.6117,24.9604,泉州市,清源山,,,,,,,,,,,,,,,,
2023-10-22T19:00:00,1616A,117.6795,36.229,济南市,技术学院,颗粒物(PM10),67,83,89,38,48,156,124,143,143,37,58,11,12,0.6,0.9
2023-10-22T19:00:00,1618A,118.3429,35.0532,临沂市,沂河小区,细颗粒物(PM2.5),84,97,89,62,64,145,107,129,129,45,54,13,22,0.5,0.5
2023-10-22T19:00:00,1619A,118.295,35.0583,临沂市,鲁南制药厂,细颗粒物(PM2.5),74,95,90,54,56,156,119,141,141,40,50,14,20,0.6,0.7
2023-10-22T19:00:00,1620A,118.2794,34.9976,临沂市,新光毛纺厂,细颗粒物(PM2.5),70,88,92,51,56,151,103,131,131,44,57,28,24,0.7,0.7
2023-10-22T19:00:00,1621A,118.3956,35.0888,临沂市,河东保险公司,细颗粒物(PM2.5),79,92,85,58,61,151,116,132,132,37,56,9,16,0.7,0.8
2023-10-22T19:00:00,1622A,116.3032,37.4674,德州市,儿童乐园,颗粒物(PM10),93,136,122,63,61,135,78,108,108,67,50,13,15,1.0,0.8
2023-10-22T19:00:00,1624A,116.2991,37.4451,德州市,监理站,细颗粒物(PM2.5),98,136,120,73,72,129,86,108,108,57,45,15,16,0.8,0.7
2023-10-22T19:00:00,1625A,115.9848,36.4372,聊城市,区政府,颗粒物(PM10),73,96,114,44,62,146,104,125,125,40,40,5,8,0.6,0.6
2023-10-22T19:00:00,1628A,118.0062,37.3803,滨州市,市环保局,颗粒物(PM10),78,105,95,46,45,143,83,131,125,49,56,11,18,0.9,0.9
2023-10-22T19:00:00,1629A,118.0018,37.3617,滨州市,第二水厂,颗粒物(PM10),78,105,103,35,41,151,87,132,131,53,58,9,16,0.6,0.7
2023-10-22T19:00:00,1630A,117.9776,37.393,滨州市,北中新校,颗粒物(PM10),71,92,81,39,36,147,62,130,126,83,57,8,12,0.9,0.8
2023-10-22T19:00:00,1631A,118.0414,36.8103,淄博市,人民公园,颗粒物(PM10),70,90,90,46,43,152,79,136,132,69,56,11,10,0.8,0.9
2023-10-22T19:00:00,1633A,117.8525,36.4847,淄博市,双山,细颗粒物(PM2.5),72,80,78,52,43,144,83,135,131,46,37,10,9,0.7,0.6
2023-10-22T19:00:00,1634A,117.9592,36.6331,淄博市,气象站,,,80,66,41,41,143,103,131,129,,39,8,10,,0.5
2023-10-22T19:00:00,1635A,118.3092,36.8194,淄博市,莆田园,颗粒物(PM10),78,105,105,51,37,151,76,140,135,63,43,16,16,1.2,1.7
2023-10-22T19:00:00,1637A,117.558,34.8438,枣庄市,市中区政府,细颗粒物(PM2.5),92,117,137,68,75,151,85,130,130,70,63,8,12,0.9,0.9
2023-10-22T19:00:00,1638A,117.2852,34.7837,枣庄市,薛城环保局,"颗粒物(PM10),细颗粒物(PM2.5)",77,103,104,56,65,171,106,142,142,60,53,8,11,0.6,0.8
2023-10-22T19:00:00,1639A,117.5852,34.7745,枣庄市,峄城区政府,颗粒物(PM10),79,107,126,48,61,152,69,70,,63,61,7,9,0.5,0.5
2023-10-22T19:00:00,1640A,117.7276,34.5578,枣庄市,台儿庄区环保局,细颗粒物(PM2.5),62,68,84,44,50,144,7,118,108,118,59,1,3,0.6,0.5
2023-10-22T19:00:00,1641A,117.4518,35.0992,枣庄市,山亭区环保局,细颗粒物(PM2.5),80,95,85,59,53,164,114,147,147,48,36,8,10,0.9,0.9
2023-10-22T19:00:00,1642A,121.2514,37.5639,烟台市,开发区,细颗粒物(PM2.5),100,139,65,75,25,145,71,116,116,74,36,13,10,1.0,0.7
2023-10-22T19:00:00,1643A,121.3719,37.5433,烟台市,轴承厂,细颗粒物(PM2.5),87,92,51,64,27,137,94,114,114,37,22,8,8,0.5,0.3
2023-10-22T19:00:00,1644A,121.3181,37.5436,烟台市,西郊化工站,颗粒物(PM10),73,95,56,50,26,150,120,124,124,38,32,11,9,0.5,0.4
2023-10-22T19:00:00,1645A,121.4478,37.4822,烟台市,莱山环保局,颗粒物(PM10),68,85,46,47,21,128,110,115,115,37,21,10,10,0.6,0.5
2023-10-22T19:00:00,1646A,121.2611,37.4967,烟台市,福山环保局,颗粒物(PM10),86,122,64,61,26,139,68,114,114,69,37,12,7,0.8,0.6
2023-10-22T19:00:00,1650A,119.1437,36.7023,潍坊市,环保局,颗粒物(PM10),73,95,77,47,40,171,50,147,140,118,56,9,10,1.0,0.7
2023-10-22T19:00:00,1653A,116.6251,35.4302,济宁市,火炬城,颗粒物(PM10),52,54,71,34,50,133,99,119,119,35,33,9,12,0.5,0.5
2023-10-22T19:00:00,1655A,116.5491,35.4042,济宁市,电化厂,颗粒物(PM10),68,86,102,34,53,142,120,130,130,25,31,8,11,0.4,0.5
2023-10-22T19:00:00,1656A,117.1437,36.1937,泰安市,监测站,,,,102,,57,137,,96,,,52,,13,,1.2
2023-10-22T19:00:00,1657A,117.0885,36.2017,泰安市,人口学校,颗粒物(PM10),59,68,75,36,50,147,105,129,129,39,37,7,10,0.7,0.8
2023-10-22T19:00:00,1658A,117.1089,36.1758,泰安市,电力学校,颗粒物(PM10),65,80,98,46,56,148,99,127,127,42,45,10,12,0.5,0.8
2023-10-22T19:00:00,1659A,119.471,35.4209,日照市,监测站,细颗粒物(PM2.5),67,78,69,48,37,132,92,112,112,38,49,10,13,0.7,1.1
2023-10-22T19:00:00,1660A,119.523,35.4216,日照市,市政府广场,颗粒物(PM10),63,75,67,38,33,146,123,126,126,34,46,8,13,0.6,0.9
2023-10-22T19:00:00,1661A,119.5587,35.4044,日照市,港务局,颗粒物(PM10),75,100,80,44,40,129,93,114,114,59,60,10,17,0.8,1.1
2023-10-22T19:00:00,1662A,122.1214,37.4236,威海市,华夏技校,,48,46,36,33,16,126,111,114,114,29,20,6,5,0.5,0.5
2023-10-22T19:00:00,1663A,122.0508,37.5236,威海市,山大分校,颗粒物(PM10),57,63,40,32,13,140,92,124,118,44,22,9,7,0.6,0.5
2023-10-22T19:00:00,1664A,122.1067,37.5072,威海市,市监测站,颗粒物(PM10),58,66,43,27,15,127,62,108,105,60,26,11,9,0.8,0.6
2023-10-22T19:00:00,1666A,118.6614,37.4309,东营市,市环保局,颗粒物(PM10),79,107,89,51,40,171,92,155,152,62,60,10,17,0.7,0.8
2023-10-22T19:00:00,1669A,113.5824,24.7733,韶关市,市八中,,42,41,28,29,20,87,46,72,72,25,14,17,20,0.8,0.6
2023-10-22T19:00:00,1671A,113.5917,24.7972,韶关市,园林处,细颗粒物(PM2.5),55,57,34,39,22,84,52,72,72,22,10,19,23,0.6,0.5
2023-10-22T19:00:00,1672A,113.6735,24.7791,韶关市,韶关学院,,45,28,31,31,23,87,38,68,68,16,12,10,23,0.6,0.5
2023-10-22T19:00:00,1673A,113.5971,24.6863,韶关市,曲江监测站,细颗粒物(PM2.5),54,56,32,38,25,85,29,67,65,32,16,14,17,1.0,0.6
2023-10-22T19:00:00,1674A,116.6794,23.3667,汕头市,金平子站,,41,41,30,16,13,124,122,110,110,16,19,6,12,0.7,0.8
2023-10-22T19:00:00,1675A,116.7244,23.3633,汕头市,龙湖子站,,40,37,26,14,11,128,126,114,114,17,18,7,11,0.7,0.8
2023-10-22T19:00:00,1676A,116.7258,23.2775,汕头市,濠江子站,,40,34,26,18,12,132,125,116,116,12,16,8,12,0.6,0.7
2023-10-22T19:00:00,1677A,116.7519,23.4714,汕头市,澄海子站,,44,44,26,19,12,121,117,109,109,18,15,11,12,0.6,0.7
2023-10-22T19:00:00,1678A,116.6092,23.2539,汕头市,潮阳子站,颗粒物(PM10),53,56,36,15,11,109,109,95,95,11,17,8,11,0.4,0.6
2023-10-22T19:00:00,1680A,110.3539,21.2706,湛江市,湛江影剧院,,30,30,17,15,6,70,46,59,59,19,13,8,9,0.8,0.8
2023-10-22T19:00:00,1681A,110.3928,21.2228,湛江市,市环境监测站,,39,22,15,27,12,74,62,65,65,13,11,6,7,0.9,0.8
2023-10-22T19:00:00,1682A,110.4019,21.1997,湛江市,环保局宿舍,,31,31,18,21,11,73,60,66,66,15,12,6,7,0.9,0.8
2023-10-22T19:00:00,1683A,110.4111,21.2028,湛江市,霞山游泳场,,23,23,17,14,9,86,68,73,73,10,9,7,9,0.9,0.8
2023-10-22T19:00:00,1684A,110.3316,21.2679,湛江市,麻章区环保局,,40,26,14,28,19,61,35,53,52,24,14,23,7,0.7,0.6
2023-10-22T19:00:00,1685A,110.4558,21.2567,湛江市,坡头区环保局,,23,19,14,16,9,87,68,75,75,12,10,6,9,0.7,0.7
2023-10-22T19:00:00,1686A,111.0286,21.4688,茂名市,电白南海,,34,34,24,19,14,85,60,72,72,12,9,9,9,0.5,0.5
2023-10-22T19:00:00,1687A,110.9294,21.6533,茂名市,茂石化七小,,36,36,19,19,11,70,40,59,58,17,9,8,6,0.7,0.6
2023-10-22T19:00:00,1688A,110.9107,21.6687,茂名市,健康路,,,,,,,,,,,,,,,,
2023-10-22T19:00:00,1689A,110.8592,21.6828,茂名市,高岭,,27,27,19,17,11,54,42,,,14,11,20,11,0.8,0.8
2023-10-22T19:00:00,1690A,116.1231,24.3284,梅州市,梅江月梅,,39,26,15,27,11,59,23,42,42,18,23,5,6,0.7,0.6
2023-10-22T19:00:00,1691A,116.0797,24.2719,梅州市,梅县新城,,32,32,15,19,9,56,20,44,43,39,14,7,7,1.1,0.8
2023-10-22T19:00:00,1692A,116.1248,24.2654,梅州市,环境监控中心,,48,40,22,33,12,44,10,29,28,39,21,9,9,1.0,0.7
2023-10-22T19:00:00,1693A,115.3653,22.775,汕尾市,市环保局,,38,26,22,11,14,128,119,112,112,10,8,11,12,0.6,0.6
2023-10-22T19:00:00,1694A,115.3706,22.7898,汕尾市,市政府,,38,27,21,16,12,126,119,111,111,10,7,8,7,0.5,0.4
2023-10-22T19:00:00,1695A,115.3622,22.7925,汕尾市,新城中学,,36,30,23,15,12,122,114,108,108,8,6,9,9,0.6,0.6
2023-10-22T19:00:00,1696A,114.6778,23.7569,河源市,源西,,18,18,19,11,15,64,41,53,52,19,13,5,5,0.8,0.7
2023-10-22T19:00:00,1697A,114.6944,23.7586,河源市,东埔,,26,23,24,18,16,61,42,52,51,16,13,7,6,0.9,0.7
2023-10-22T19:00:00,1698A,114.6892,23.7233,河源市,老城,,41,41,25,17,16,64,44,56,54,14,9,6,5,0.8,0.7
2023-10-22T19:00:00,1699A,111.9797,21.8593,阳江市,鸳鸯湖,,48,34,26,33,14,82,70,76,76,15,14,11,10,0.7,0.7
2023-10-22T19:00:00,1701A,111.9491,21.8658,阳江市,马南垌,,50,36,24,35,17,76,67,68,68,16,20,6,6,0.7,0.6
2023-10-22T19:00:00,1702A,113.0426,23.691,清远市,环保大楼,,24,24,17,14,10,76,44,68,66,23,12,8,8,1.0,0.8
2023-10-22T19:00:00,1703A,113.0208,23.7106,清远市,凤城街办,,36,36,23,24,14,77,35,66,63,32,11,10,9,0.8,0.6
2023-10-22T19:00:00,1705A,116.6367,23.6719,潮州市,西园路,细颗粒物(PM2.5),89,56,19,66,21,112,111,92,92,20,10,6,4,0.4,0.2
2023-10-22T19:00:00,1706A,116.6447,23.6706,潮州市,档案局,,38,38,21,25,9,119,115,101,101,21,11,6,4,0.7,0.6
2023-10-22T19:00:00,1708A,116.3701,23.5345,揭阳市,新兴,颗粒物(PM10),52,53,33,21,18,123,94,104,104,24,20,9,10,0.7,0.8
2023-10-22T19:00:00,1709A,116.3264,23.5443,揭阳市,西马,颗粒物(PM10),52,54,30,16,16,143,107,114,114,15,16,8,8,0.7,0.7
2023-10-22T19:00:00,1710A,116.3611,23.5626,揭阳市,东兴,颗粒物(PM10),51,51,43,16,17,137,104,110,110,20,24,7,10,1.0,0.9
2023-10-22T19:00:00,1711A,116.4151,23.5294,揭阳市,渔湖,,38,38,30,11,18,126,97,101,101,24,21,7,10,0.8,0.8
2023-10-22T19:00:00,1712A,112.0392,22.9169,云浮市,新市府,,13,13,10,9,7,52,34,48,46,12,11,6,6,0.8,0.8
2023-10-22T19:00:00,1714A,112.0539,22.9539,云浮市,牧羊,,18,17,13,12,7,61,6,55,35,35,16,5,5,0.6,0.5
2023-10-22T19:00:00,1715A,102.575,24.3711,玉溪市,东风水库,,30,30,29,15,19,81,65,74,74,12,12,6,7,0.9,0.9
2023-10-22T19:00:00,1718A,115.4208,35.2464,菏泽市,气象局,颗粒物(PM10),67,84,100,38,57,146,106,130,130,40,46,10,12,0.5,0.5
2023-10-22T19:00:00,1719A,115.4747,35.2375,菏泽市,市政协,颗粒物(PM10),65,80,91,38,55,146,108,131,131,39,38,7,12,0.2,0.2
2023-10-22T19:00:00,1721A,113.3819,40.1097,大同市,果树场,,,,,,,,,,,,,,,,
2023-10-22T19:00:00,1723A,113.2994,40.0758,大同市,云冈宾馆,细颗粒物(PM2.5),92,95,100,68,44,118,95,88,88,55,55,16,26,0.8,1.3
2023-10-22T19:00:00,1724A,113.3444,40.0917,大同市,大同大学,颗粒物(PM10),58,66,85,39,37,113,78,88,88,50,47,14,27,0.6,0.8
2023-10-22T19:00:00,1725A,113.2661,40.1269,大同市,安家小村,细颗粒物(PM2.5),88,108,91,65,36,122,106,98,98,35,44,21,26,0.5,1
2023-10-22T19:00:00,1726A,113.2711,40.0844,大同市,教育学院,细颗粒物(PM2.5),94,105,104,70,40,120,92,94,94,60,54,14,30,0.7,1.2
2023-10-22T19:00:00,1727A,113.1147,36.1547,长治市,清华站,颗粒物(PM10),71,91,77,46,37,161,28,114,112,104,42,11,12,0.9,0.9
2023-10-22T19:00:00,1728A,113.1031,36.1989,长治市,监测站,细颗粒物(PM2.5),58,55,58,41,39,162,51,121,121,81,44,11,13,1.0,0.8
2023-10-22T19:00:00,1730A,113.0886,36.2125,长治市,审计局,,49,47,56,34,38,160,86,121,121,49,36,13,15,0.9,0.9
2023-10-22T19:00:00,1731A,113.0844,36.1856,长治市,长治八中,颗粒物(PM10),67,84,74,17,33,150,39,115,114,80,41,15,18,0.9,0.8
2023-10-22T19:00:00,1733A,111.5531,36.0783,临汾市,临钢医院,细颗粒物(PM2.5),122,178,82,92,43,145,49,106,106,71,39,13,11,2.0,1.1
2023-10-22T19:00:00,1734A,111.5028,36.0714,临汾市,技工学校,细颗粒物(PM2.5),133,142,83,101,45,149,117,120,120,52,51,32,19,1.7,1.1
2023-10-22T19:00:00,1736A,111.5018,36.0855,临汾市,市委,细颗粒物(PM2.5),120,141,83,91,40,142,101,112,112,63,53,34,21,1.7,1
2023-10-22T19:00:00,1738A,113.5758,37.8572,阳泉市,市中心,颗粒物(PM10),74,98,67,27,27,99,16,82,78,88,58,10,22,1.2,0.9
2023-10-22T19:00:00,1739A,113.4894,37.8731,阳泉市,赛鱼,,49,49,64,26,29,99,42,80,77,57,61,8,13,0.6,0.7
2023-10-22T19:00:00,1740A,113.5819,37.8486,阳泉市,南庄,颗粒物(PM10),68,85,81,27,28,103,49,86,86,54,52,11,18,1.1,0.9
2023-10-22T19:00:00,1742A,113.5614,37.8703,阳泉市,平坦,颗粒物(PM10),74,98,64,28,29,100,35,85,80,72,60,14,16,1.0,0.8
2023-10-22T19:00:00,1743A,113.5158,37.8392,阳泉市,大阳泉,细颗粒物(PM2.5),52,29,42,36,27,112,112,103,103,22,35,9,14,0.5,0.6
2023-10-22T19:00:00,1744A,118.9233,42.2816,赤峰市,松山一中,,,49,35,19,11,76,,64,64,71,47,22,12,1.0,0.8
2023-10-22T19:00:00,1745A,118.9576,42.2728,赤峰市,哈达街,颗粒物(PM10),51,51,46,19,28,80,9,63,57,92,44,18,17,1.1,0.7
2023-10-22T19:00:00,1746A,118.8788,42.2554,赤峰市,天义路,,28,21,24,6,15,92,26,76,71,56,29,13,12,0.9,0.6
2023-10-22T19:00:00,1748A,123.044,41.1196,鞍山市,深沟寺,,43,43,31,27,17,79,33,70,66,44,20,5,10,0.8,0.9
2023-10-22T19:00:00,1749A,123.011,41.0931,鞍山市,太阳城,,43,43,37,18,21,79,55,70,70,24,21,3,15,0.5,0.9
2023-10-22T19:00:00,1750A,123.0485,41.1442,鞍山市,太平,颗粒物(PM10),110,170,50,71,18,77,20,66,61,71,26,10,13,1.3,0.9
2023-10-22T19:00:00,1751A,122.9642,41.0971,鞍山市,铁西三道街,颗粒物(PM10),62,74,48,28,18,76,15,64,56,68,32,8,13,1.0,1.1
2023-10-22T19:00:00,1752A,122.9341,41.0833,鞍山市,铁西工业园区,颗粒物(PM10),74,97,42,51,18,79,6,68,57,84,29,10,13,1.5,1.2
2023-10-22T19:00:00,1753A,123.022,41.0821,鞍山市,明达新区,,48,48,34,21,16,73,45,63,63,31,23,12,14,0.4,1.3
2023-10-22T19:00:00,1754A,123.1289,41.0228,鞍山市,千山,,,,,,,,,,,,,,,,
2023-10-22T19:00:00,1755A,123.7977,41.8491,抚顺市,望花区,颗粒物(PM10),60,69,51,32,20,81,9,64,59,73,35,9,20,0.9,0.8
2023-10-22T19:00:00,1756A,123.9161,41.8822,抚顺市,顺城区,,,130,62,,30,79,29,59,54,91,39,15,9,1.5,1
2023-10-22T19:00:00,1757A,124.0436,41.8611,抚顺市,东洲区,颗粒物(PM10),62,74,57,23,22,77,15,60,54,55,30,10,16,0.6,0.7
2023-10-22T19:00:00,1758A,123.9247,41.8642,抚顺市,新抚区,,49,43,59,34,30,79,4,62,57,59,29,7,9,1.1,0.6
2023-10-22T19:00:00,1759A,124.0972,41.8961,抚顺市,大伙房水库,细颗粒物(PM2.5),67,62,38,48,19,80,37,68,66,48,24,12,15,0.7,0.8
2023-10-22T19:00:00,1760A,123.7086,41.8391,抚顺市,沈抚新城,,38,37,44,26,24,82,29,69,66,42,30,7,14,0.4,0.6
2023-10-22T19:00:00,1761A,123.8275,41.3064,本溪市,大峪,,46,46,49,24,21,76,53,67,67,28,37,16,17,0.6,1.1
2023-10-22T19:00:00,1762A,123.7567,41.3325,本溪市,溪湖,颗粒物(PM10),75,100,72,47,37,85,10,68,63,72,44,18,32,0.6,2
2023-10-22T19:00:00,1763A,123.7169,41.3094,本溪市,彩屯,颗粒物(PM10),77,103,79,46,32,84,12,65,58,66,44,13,18,1.1,1.7
2023-10-22T19:00:00,1764A,123.7669,41.2864,本溪市,东明,颗粒物(PM10),83,116,87,59,33,84,11,68,63,87,44,17,21,2.9,1.7
2023-10-22T19:00:00,1765A,123.7992,41.2664,本溪市,新立屯,,46,46,36,20,13,84,14,59,50,65,37,13,18,0.8,1
2023-10-22T19:00:00,1766A,123.8142,41.3472,本溪市,威宁,颗粒物(PM10),70,89,66,34,24,79,11,60,56,65,36,8,9,0.7,0.9
2023-10-22T19:00:00,1767A,121.1115,41.0879,锦州市,南山,细颗粒物(PM2.5),67,42,28,48,17,84,20,73,69,72,30,9,10,0.6,0.5
2023-10-22T19:00:00,1768A,121.0533,40.8434,锦州市,开发区,颗粒物(PM10),78,106,41,17,14,84,14,66,59,120,46,16,20,0.6,0.7
2023-10-22T19:00:00,1769A,121.1836,41.1119,锦州市,百股街道,,22,22,29,14,11,86,50,77,75,44,23,9,12,0.6,0.6
2023-10-22T19:00:00,1770A,121.1178,41.1222,锦州市,天安街道,颗粒物(PM10),51,51,48,12,17,87,34,72,70,63,37,10,10,1.0,0.8
2023-10-22T19:00:00,1771A,121.1303,41.1386,锦州市,北湖公园,,46,27,29,32,17,91,44,76,74,48,28,10,13,0.6,0.6
2023-10-22T19:00:00,1772A,126.54,43.8622,吉林市,哈达湾,,34,34,24,21,13,78,60,74,70,26,15,7,7,0.6,0.5
2023-10-22T19:00:00,1773A,126.5844,43.8358,吉林市,东局子,颗粒物(PM10),77,103,31,38,12,74,4,64,56,75,20,7,7,1.0,0.5
2023-10-22T19:00:00,1774A,126.5052,43.8245,吉林市,电力学院,细颗粒物(PM2.5),149,208,40,114,18,78,13,68,59,71,18,18,11,1.8,0.6
2023-10-22T19:00:00,1775A,126.6133,43.8972,吉林市,江北,细颗粒物(PM2.5),108,144,43,81,19,75,15,67,59,63,22,17,14,1.4,0.6
2023-10-22T19:00:00,1776A,126.555,43.8306,吉林市,江南公园,颗粒物(PM10),59,67,28,31,14,73,24,66,62,62,16,9,9,0.9,0.5
2023-10-22T19:00:00,1778A,126.7061,43.7133,吉林市,丰满,,,,,,,,,,,,,,,,
2023-10-22T19:00:00,1779A,123.9305,47.3636,齐齐哈尔市,安居小区,颗粒物(PM10),61,71,39,14,19,63,44,50,48,27,22,8,6,0.5,0.3
2023-10-22T19:00:00,1780A,123.9488,47.3386,齐齐哈尔市,中心广场,颗粒物(PM10),57,64,36,18,14,62,44,49,48,24,19,2,3,0.4,0.4
2023-10-22T19:00:00,1781A,123.9483,47.3227,齐齐哈尔市,农牧车辆厂,,48,48,39,8,8,62,51,53,53,17,18,6,8,0.3,0.4
2023-10-22T19:00:00,1783A,123.945,47.2988,齐齐哈尔市,市环境监测站,,37,37,39,13,12,64,53,56,56,14,18,4,5,0.2,0.3
2023-10-22T19:00:00,1784A,129.61,44.561,牡丹江市,环保大楼,颗粒物(PM10),51,51,35,21,17,68,29,61,55,35,21,7,7,0.6,0.5
2023-10-22T19:00:00,1785A,129.6115,44.5782,牡丹江市,文化广场,颗粒物(PM10),63,76,37,42,25,64,16,57,51,49,26,7,7,0.7,0.4
2023-10-22T19:00:00,1786A,129.5904,44.5963,牡丹江市,第一医院,,42,36,38,29,24,65,32,57,53,29,27,7,7,0.5,0.5
2023-10-22T19:00:00,1787A,129.6364,44.6075,牡丹江市,机车工厂,颗粒物(PM10),51,51,51,34,26,66,24,59,52,37,28,7,14,0.7,0.6
2023-10-22T19:00:00,1788A,129.6386,44.5462,牡丹江市,第一中学,颗粒物(PM10),67,84,37,25,19,69,6,61,50,50,21,7,7,0.7,0.4
2023-10-22T19:00:00,1789A,124.81117,46.03138,大庆市,大同区,颗粒物(PM10),56,61,33,37,12,49,32,44,42,28,15,7,6,0.6,0.4
2023-10-22T19:00:00,1790A,125.129,46.533,大庆市,龙凤区,,33,31,26,23,16,46,24,38,35,31,18,5,5,0.6,0.5
2023-10-22T19:00:00,1791A,124.902,46.408,大庆市,红岗区,,28,28,22,10,12,53,41,48,48,20,16,4,4,0.3,0.3
2023-10-22T19:00:00,1792A,125.153,46.586,大庆市,萨尔图区,,39,39,29,21,10,46,33,39,38,30,17,4,4,0.4,0.3
2023-10-22T19:00:00,1793A,124.9042,46.6215,大庆市,让胡路区,,20,18,23,14,11,53,47,47,47,16,16,4,4,0.4,0.4
2023-10-22T19:00:00,1794A,118.3606,31.3519,芜湖市,监测站,颗粒物(PM10),53,55,56,24,32,117,65,99,95,74,60,9,11,0.8,0.7
2023-10-22T19:00:00,1795A,118.3714,31.4134,芜湖市,科创中心,颗粒物(PM10),51,52,64,30,35,144,80,119,118,62,60,7,9,0.6,0.4
2023-10-22T19:00:00,1796A,118.3673,31.3131,芜湖市,四水厂,,48,48,57,21,28,118,54,103,100,75,44,8,11,0.6,0.7
2023-10-22T19:00:00,1798A,118.5092,31.6837,马鞍山市,湖东路四小,颗粒物(PM10),53,56,46,24,28,139,55,122,117,68,44,9,10,0.9,0.7
2023-10-22T19:00:00,1799A,118.5024,31.6449,马鞍山市,开发区,颗粒物(PM10),53,55,58,33,41,144,71,124,121,64,39,10,12,0.7,0.6
2023-10-22T19:00:00,1800A,118.5228,31.7231,马鞍山市,慈湖,颗粒物(PM10),62,74,71,34,47,141,61,119,115,76,54,8,9,0.8,0.7
2023-10-22T19:00:00,1802A,118.6245,31.7241,马鞍山市,濮塘,,43,43,38,28,20,133,102,116,116,18,13,6,7,0.5,0.4
2023-10-22T19:00:00,1803A,115.9872,29.6815,九江市,十里,颗粒物(PM10),52,53,60,25,34,146,102,125,125,36,45,9,9,1.0,0.8
2023-10-22T19:00:00,1804A,115.9584,29.7046,九江市,茅山头,细颗粒物(PM2.5),53,44,44,37,28,141,115,127,127,37,44,15,11,1.1,0.8
2023-10-22T19:00:00,1805A,115.9877,29.7295,九江市,西园,颗粒物(PM10),55,59,52,35,31,126,103,106,106,44,45,15,11,1.1,0.9
2023-10-22T19:00:00,1806A,116.0172,29.6547,九江市,五七二七厂,,44,44,38,22,24,146,117,127,127,15,18,12,13,0.6,0.7
2023-10-22T19:00:00,1808A,115.9114,29.6038,九江市,综合工业园,颗粒物(PM10),52,54,51,29,33,142,96,111,111,33,47,11,11,0.8,0.9
2023-10-22T19:00:00,1809A,116.0721,29.7535,九江市,石化总厂,颗粒物(PM10),55,59,53,23,30,141,111,118,118,40,33,14,10,0.8,0.6
2023-10-22T19:00:00,1810A,115.9773,29.5698,九江市,庐山气象台,,42,25,20,15,17,133,133,121,121,6,6,6,7,0.7,0.6
2023-10-22T19:00:00,1812A,112.3931,34.6516,洛阳市,市委党校,颗粒物(PM10),73,96,68,32,40,120,22,92,90,90,41,5,8,1.3,0.7
2023-10-22T19:00:00,1814A,112.4657,34.6871,洛阳市,豫西宾馆,颗粒物(PM10),59,68,81,33,40,111,48,86,86,62,48,2,8,0.9,0.8
2023-10-22T19:00:00,1815A,112.494,34.6886,洛阳市,河南林校,,41,41,58,15,34,105,62,87,87,44,40,2,4,0.4,0.6
2023-10-22T19:00:00,1816A,112.3844,34.623,洛阳市,开发区管委会,,29,29,44,15,28,121,82,98,98,22,29,3,3,0.4,0.5
2023-10-22T19:00:00,1817A,112.4267,34.6258,洛阳市,市委新办公区,,45,41,51,18,29,117,14,93,88,90,40,2,3,0.7,0.5
2023-10-22T19:00:00,1818A,114.4839,36.0621,安阳市,棉研所,,,,,,,,,,,,,,,,
2023-10-22T19:00:00,1819A,114.3551,36.1017,安阳市,红庙街,颗粒物(PM10),58,65,92,38,55,134,94,106,106,40,53,11,12,0.9,1.2
2023-10-22T19:00:00,1820A,114.361,36.0681,安阳市,银杏小区,颗粒物(PM10),60,69,85,32,59,132,95,102,102,35,48,8,11,0.7,1
2023-10-22T19:00:00,1824A,114.3389,34.7781,开封市,肿瘤医院,颗粒物(PM10),66,82,82,42,54,126,71,105,105,46,41,9,12,0.5,0.5
2023-10-22T19:00:00,1826A,114.2885,34.7965,开封市,世纪星幼儿园,颗粒物(PM10),59,68,74,40,50,126,86,108,108,39,53,6,8,0.5,0.8
2023-10-22T19:00:00,1828A,113.227,35.2125,焦作市,市环保局,颗粒物(PM10),54,57,69,16,37,114,57,95,94,61,37,7,10,0.4,0.6
2023-10-22T19:00:00,1830A,113.1992,35.2590,焦作市,影视城,,,,,,,,,,,,,,,,
2023-10-22T19:00:00,1832A,113.3257,33.742,平顶山市,新华旅馆,颗粒物(PM10),63,76,81,30,40,125,100,116,116,32,47,6,10,0.6,0.7
2023-10-22T19:00:00,1833A,113.2919,33.737,平顶山市,规划设计院,颗粒物(PM10),56,61,64,33,38,126,97,117,117,32,37,8,13,0.6,0.6
2023-10-22T19:00:00,1834A,113.182,33.774,平顶山市,平顶山工学院,颗粒物(PM10),51,52,63,19,33,139,105,123,123,20,23,5,23,0.6,0.6
2023-10-22T19:00:00,1835A,111.1922,34.7752,三门峡市,市政府,颗粒物(PM10),59,67,43,26,18,116,5,78,75,95,47,7,9,1.6,0.6
2023-10-22T19:00:00,1836A,111.1587,34.7942,三门峡市,开发区,颗粒物(PM10),56,61,61,38,28,115,59,87,87,36,30,9,10,0.6,0.5
2023-10-22T19:00:00,1838A,111.143,34.7955,三门峡市,风景区,,,,,,,,,,,,,,,,
2023-10-22T19:00:00,1840A,111.2992,30.6981,宜昌市,白龙岗,颗粒物(PM10),54,58,48,31,27,135,106,111,111,35,32,8,6,0.6,0.5
2023-10-22T19:00:00,1841A,111.3549,30.6465,宜昌市,伍家岗,颗粒物(PM10),56,62,48,29,29,141,93,119,119,42,34,8,7,0.7,0.7
2023-10-22T19:00:00,1842A,111.2628,30.6961,宜昌市,点军区,颗粒物(PM10),52,53,39,34,28,140,115,113,113,30,25,11,8,0.5,0.5
2023-10-22T19:00:00,1843A,111.3275,30.7819,宜昌市,夷陵区,颗粒物(PM10),59,67,49,27,25,131,87,112,112,50,28,9,8,0.7,0.5
2023-10-22T19:00:00,1844A,112.2494,30.3197,荆州市,市图书馆,细颗粒物(PM2.5),80,84,79,59,55,178,114,159,158,38,32,10,14,0.9,0.7
2023-10-22T19:00:00,1845A,112.2008,30.3544,荆州市,市委党校,细颗粒物(PM2.5),79,79,77,58,55,178,128,160,160,35,36,12,12,0.8,0.8
2023-10-22T19:00:00,1847A,113.1094,29.3578,岳阳市,南湖风景区,,45,45,42,29,25,164,133,151,151,36,33,12,12,0.8,0.7
2023-10-22T19:00:00,1848A,113.1493,29.4251,岳阳市,城陵矶,,46,46,52,23,26,173,101,134,134,46,47,12,12,0.7,0.7
2023-10-22T19:00:00,1849A,113.1497,29.3575,岳阳市,开发区,细颗粒物(PM2.5),54,41,38,38,31,166,121,146,146,41,33,12,12,0.7,0.6
2023-10-22T19:00:00,1850A,113.2621,29.4758,岳阳市,云溪区,,39,39,37,27,23,178,113,149,149,34,28,9,10,0.5,0.4
2023-10-22T19:00:00,1851A,112.9943,29.4402,岳阳市,君山区,颗粒物(PM10),52,53,55,28,41,159,112,142,142,44,33,8,9,0.6,0.6
2023-10-22T19:00:00,1852A,113.2117,29.355,岳阳市,金凤水库,,44,44,34,21,20,188,137,157,157,20,19,6,6,0.6,0.6
2023-10-22T19:00:00,1854A,111.6975,28.9703,常德市,市二中,细颗粒物(PM2.5),69,69,58,50,39,147,102,130,130,30,26,10,10,0.7,0.7
2023-10-22T19:00:00,1857A,111.7158,29.1456,常德市,白鹤山,,42,42,32,1,4,153,105,135,135,9,10,4,5,0.5,0.4
2023-10-22T19:00:00,1858A,110.5319,29.1217,张家界市,永定新区,颗粒物(PM10),51,51,41,25,26,120,65,106,105,32,18,6,6,0.5,0.5
2023-10-22T19:00:00,1859A,110.4697,29.1242,张家界市,电业局,,,58,37,34,25,115,,106,106,44,20,8,7,0.6,0.5
2023-10-22T19:00:00,1860A,110.5594,29.3547,张家界市,未央路,,48,43,34,33,20,120,42,105,100,35,14,3,3,0.5,0.5
2023-10-22T19:00:00,1861A,110.4417,29.315,张家界市,袁家界,,,,30,,18,75,,76,,,10,,9,,0.6
2023-10-22T19:00:00,1862A,110.4144,25.3167,桂林市,电子科大尧山校区,,40,40,32,19,19,119,92,116,113,7,7,3,3,0.5,0.5
2023-10-22T19:00:00,1863A,110.2819,25.2697,桂林市,监测站,,43,43,37,24,25,136,95,128,125,27,14,7,6,0.7,0.6
2023-10-22T19:00:00,1864A,110.3089,25.2708,桂林市,龙隐路小学,,35,30,32,24,24,136,103,130,127,13,10,8,7,0.5,0.5
2023-10-22T19:00:00,1865A,110.2869,25.2178,桂林市,八中,,35,29,34,24,21,142,97,134,131,22,12,6,5,0.7,0.7
2023-10-22T19:00:00,1866A,109.2262,21.588,北海市,牛尾岭水库,,,,,,,,,,,,,,,,
2023-10-22T19:00:00,1867A,109.1436,21.4086,北海市,海滩公园,,18,8,5,5,3,57,55,54,54,10,7,5,5,0.7,0.6
2023-10-22T19:00:00,1868A,109.0981,21.4661,北海市,新市环保局,,25,15,12,17,7,70,58,65,64,9,6,6,6,0.7,0.7
2023-10-22T19:00:00,1869A,109.1778,21.5233,北海市,北海工业园,,22,16,7,15,6,61,51,56,56,10,7,6,6,0.7,0.7
2023-10-22T19:00:00,1870A,109.4856,24.3895,柳州市,柳东小学,,40,32,31,24,23,126,126,118,118,10,11,17,10,0.5,0.5
2023-10-22T19:00:00,1871A,109.4157,24.3277,柳州市,环保监测站,,39,37,33,20,23,132,124,124,124,17,12,10,8,0.7,0.6
2023-10-22T19:00:00,1872A,109.389,24.341,柳州市,河西水厂,,44,44,39,25,22,137,119,126,126,21,12,11,11,1.4,1.1
2023-10-22T19:00:00,1873A,109.4311,24.2921,柳州市,市四中,,38,38,34,26,20,141,119,131,131,19,14,8,7,0.7,0.6
2023-10-22T19:00:00,1874A,109.4006,24.3631,柳州市,市九中,,,48,41,22,25,127,104,121,121,25,14,,10,0.6,0.5
2023-10-22T19:00:00,1875A,109.4958,24.3134,柳州市,古亭山,,41,41,36,23,20,149,104,137,135,24,14,10,9,0.4,0.4
2023-10-22T19:00:00,1876A,109.5078,18.2489,三亚市,河东子站,,23,8,9,5,4,71,71,65,65,5,5,4,3,0.3,0.4
2023-10-22T19:00:00,1877A,109.4964,18.2681,三亚市,河西子站,,22,4,10,3,5,69,69,62,62,4,4,3,3,0.4,0.4
2023-10-22T19:00:00,1878A,104.7778,31.4741,绵阳市,富乐山,,46,44,54,32,37,141,95,118,118,14,19,4,5,0.6,0.6
2023-10-22T19:00:00,1879A,104.7563,31.4535,绵阳市,市人大,细颗粒物(PM2.5),60,58,66,43,45,130,98,111,111,26,30,7,8,0.6,0.6
2023-10-22T19:00:00,1880A,104.6697,31.4668,绵阳市,高新区自来水公司,,42,38,59,29,39,140,97,118,118,33,32,8,9,0.6,0.6
2023-10-22T19:00:00,1881A,104.7287,31.5075,绵阳市,三水厂,"颗粒物(PM10),细颗粒物(PM2.5)",60,70,88,43,54,136,9,100,97,102,41,9,8,0.8,0.7
2023-10-22T19:00:00,1882A,104.563,28.793,宜宾市,石马中学,,,,,,,,,,,,,,,,
2023-10-22T19:00:00,1883A,104.6201,28.7728,宜宾市,市委,颗粒物(PM10),55,59,73,34,45,133,111,101,101,21,35,9,8,0.5,0.5
2023-10-22T19:00:00,1884A,104.6055,28.793,宜宾市,宜宾四中,颗粒物(PM10),59,68,83,38,52,126,106,101,101,33,37,10,9,0.6,0.6
2023-10-22T19:00:00,1885A,104.639,28.7562,宜宾市,市政府,颗粒物(PM10),56,61,77,39,44,129,118,103,103,19,40,10,9,0.5,0.5
2023-10-22T19:00:00,1886A,104.5742,28.7199,宜宾市,黄金嘴,颗粒物(PM10),70,90,106,31,38,127,93,98,98,29,32,9,8,0.5,0.5
2023-10-22T19:00:00,1888A,101.6891,26.571,攀枝花市,弄弄坪,颗粒物(PM10),53,56,66,32,45,132,105,110,110,27,33,27,20,1.0,1.4
2023-10-22T19:00:00,1889A,101.5769,26.5928,攀枝花市,河门口,,38,35,55,26,40,134,119,112,112,15,21,22,15,0.8,1
2023-10-22T19:00:00,1890A,101.7169,26.585,攀枝花市,炳草岗,,,65,78,,52,139,112,113,113,27,43,33,29,1.0,1.4
2023-10-22T19:00:00,1891A,101.7369,26.5008,攀枝花市,仁和,颗粒物(PM10),54,58,75,30,46,140,78,112,112,26,21,12,17,1.0,1.3
2023-10-22T19:00:00,1893A,105.4324,28.9634,泸州市,九狮山,,46,46,47,21,25,99,58,74,74,24,25,5,5,0.5,0.5
2023-10-22T19:00:00,1894A,105.4427,28.9063,泸州市,小市上码头,颗粒物(PM10),58,65,60,35,33,129,118,102,102,19,32,10,11,0.6,0.7
2023-10-22T19:00:00,1895A,105.4241,28.8573,泸州市,兰田宪桥,细颗粒物(PM2.5),62,63,54,44,34,115,91,95,95,24,26,6,7,0.6,0.6
2023-10-22T19:00:00,1896A,105.4379,28.8833,泸州市,市环监站,,49,49,52,24,27,102,89,82,82,29,32,6,9,0.6,0.6
2023-10-22T19:00:00,1901A,104.4239,31.1208,德阳市,东山公园,颗粒物(PM10),56,62,76,28,38,145,104,123,123,14,19,1,3,0.5,0.5
2023-10-22T19:00:00,1902A,104.3826,31.1317,德阳市,西小区,颗粒物(PM10),55,60,81,37,49,141,91,113,113,23,32,2,4,0.6,0.6
2023-10-22T19:00:00,1904A,104.3553,31.1091,德阳市,耐火材料厂,颗粒物(PM10),54,58,89,33,51,148,104,121,121,15,29,1,4,0.4,0.6
2023-10-22T19:00:00,1905A,106.056,30.8064,南充市,西山风景区,,,,23,29,29,131,100,107,107,,,8,6,0.2,0.4
2023-10-22T19:00:00,1906A,106.0789,30.8023,南充市,南充市委,颗粒物(PM10),63,75,64,39,41,124,81,103,103,28,29,8,5,0.5,0.5
2023-10-22T19:00:00,1907A,106.1031,30.8217,南充市,南充炼油厂,"颗粒物(PM10),细颗粒物(PM2.5)",58,65,64,41,30,129,85,109,109,29,33,11,6,0.6,0.6
2023-10-22T19:00:00,1908A,106.1064,30.7856,南充市,高坪区监测站,颗粒物(PM10),60,70,64,41,37,118,83,96,96,24,32,11,7,0.4,0.5
2023-10-22T19:00:00,1909A,106.0642,30.7636,南充市,嘉陵区环保局,细颗粒物(PM2.5),62,59,55,44,34,119,90,103,103,21,39,7,7,0.5,0.6
2023-10-22T19:00:00,1910A,106.1087,30.8388,南充市,市环境监测站,细颗粒物(PM2.5),60,55,53,43,29,122,82,105,105,30,32,15,6,0.5,0.5
2023-10-22T19:00:00,1911A,106.9222,27.6869,遵义市,丁字口,,35,33,26,24,19,109,69,100,100,38,26,8,7,0.7,0.5
2023-10-22T19:00:00,1912A,106.9242,27.7019,遵义市,凤凰山,,39,34,28,27,22,124,112,114,114,13,14,8,9,0.4,0.4
2023-10-22T19:00:00,1913A,106.8906,27.6486,遵义市,忠庄,,45,45,38,27,21,114,93,105,105,14,12,4,3,0.3,0.2
2023-10-22T19:00:00,1914A,106.9231,27.6506,遵义市,舟水桥,细颗粒物(PM2.5),65,47,33,47,21,118,72,108,107,31,14,1,2,0.8,0.6
2023-10-22T19:00:00,1915A,106.9178,27.72,遵义市,干田坝,,43,43,25,28,20,122,93,109,109,22,17,7,6,0.5,0.5
2023-10-22T19:00:00,1916A,103.7897,25.5035,曲靖市,环境监测站,颗粒物(PM10),64,78,45,26,25,113,67,94,94,28,18,5,6,0.8,0.6
2023-10-22T19:00:00,1917A,103.8,25.5364,曲靖市,烟厂办公区,,,,42,,25,76,,60,,,19,,10,,0.8
2023-10-22T19:00:00,1918A,108.7197,34.3956,咸阳市,气象站,,,,,,,,,,,,,,,,
2023-10-22T19:00:00,1919A,108.673,34.3155,咸阳市,实验中学,颗粒物(PM10),57,64,96,33,51,99,69,76,76,48,52,4,4,0.5,0.8
2023-10-22T19:00:00,1920A,108.7233,34.3617,咸阳市,师范学院,细颗粒物(PM2.5),82,85,88,60,60,89,31,63,63,74,59,6,6,0.6,0.7
2023-10-22T19:00:00,1922A,109.0656,35.0994,铜川市,党校,颗粒物(PM10),81,112,67,54,31,107,29,87,82,81,47,9,10,0.8,0.7
2023-10-22T19:00:00,1923A,109.0697,35.0697,铜川市,王益区政府,"颗粒物(PM10),细颗粒物(PM2.5)",75,99,60,55,37,117,42,95,93,60,39,3,5,1.0,0.7
2023-10-22T19:00:00,1924A,108.9344,34.9058,铜川市,新区管委会,颗粒物(PM10),91,132,64,56,32,144,114,118,118,47,34,9,8,0.8,0.6
2023-10-22T19:00:00,1926A,109.4131,36.6275,延安市,枣园,,47,47,31,18,14,111,19,84,82,60,30,7,6,0.5,0.4
2023-10-22T19:00:00,1927A,109.4761,36.6028,延安市,延大医附院,,45,45,39,26,16,102,4,73,70,75,34,3,3,0.9,0.5
2023-10-22T19:00:00,1929A,109.5056,36.6106,延安市,百米大道,颗粒物(PM10),54,58,45,18,21,102,9,71,69,83,44,3,3,1.0,0.8
2023-10-22T19:00:00,1930A,107.185,34.3063,宝鸡市,庙沟村,,37,37,33,21,20,87,58,70,70,31,20,9,9,0.3,0.3
2023-10-22T19:00:00,1931A,107.0708,34.3017,宝鸡市,竹园沟,,35,35,28,19,18,104,55,83,83,22,17,6,6,0.5,0.4
2023-10-22T19:00:00,1932A,107.1906,34.3672,宝鸡市,三陆医院,,49,49,58,27,37,96,70,81,81,37,39,9,14,0.5,0.6
2023-10-22T19:00:00,1933A,107.1431,34.3547,宝鸡市,监测站,,47,47,41,28,25,95,69,80,80,34,27,7,6,0.5,0.5
2023-10-22T19:00:00,1934A,107.1186,34.3739,宝鸡市,技工学校,颗粒物(PM10),52,54,49,22,30,93,72,78,78,42,30,9,12,0.6,0.5
2023-10-22T19:00:00,1935A,107.3906,34.3528,宝鸡市,陈仓区环保局家属楼,细颗粒物(PM2.5),54,52,61,38,46,102,49,83,83,71,40,11,12,0.6,0.6
2023-10-22T19:00:00,1936A,107.2058,34.3497,宝鸡市,文理学院,,50,50,48,25,27,102,88,88,88,30,33,8,8,0.6,0.6
2023-10-22T19:00:00,1937A,107.2386,34.3622,宝鸡市,三迪小学,,,,,,,,,,,,,,,,
2023-10-22T19:00:00,1938A,109.5293,34.5101,渭南市,农科所,细颗粒物(PM2.5),77,90,75,56,47,103,17,70,70,91,41,6,6,0.9,0.9
2023-10-22T19:00:00,1939A,109.4974,34.4877,渭南市,日报社,颗粒物(PM10),82,114,75,53,44,106,6,26,,118,51,9,10,0.8,0.5
2023-10-22T19:00:00,1940A,109.4636,34.493,渭南市,体育馆,颗粒物(PM10),81,112,81,59,46,102,21,74,74,102,50,5,8,0.7,0.6
2023-10-22T19:00:00,1941A,109.4259,34.5023,渭南市,高新一小,细颗粒物(PM2.5),107,110,89,80,57,91,53,72,72,58,45,5,6,0.8,0.7
2023-10-22T19:00:00,1944A,102.1692,38.5167,金昌市,天庆家园,,45,45,48,15,21,114,82,106,105,24,29,6,13,0.7,0.8
2023-10-22T19:00:00,1945A,98.2908,39.7711,嘉峪关市,气象局,颗粒物(PM10),68,85,48,22,17,95,82,87,87,12,30,1,13,0.2,0.4
2023-10-22T19:00:00,1947A,106.3394,38.817,石嘴山市,沙湖旅游区,颗粒物(PM10),58,65,84,34,47,162,160,142,142,16,44,24,18,0.5,0.7
2023-10-22T19:00:00,1948A,106.3668,39.0145,石嘴山市,大武口朝阳西街,细颗粒物(PM2.5),55,55,67,39,39,142,124,126,126,33,44,20,21,0.6,0.6
2023-10-22T19:00:00,1949A,106.7704,39.2282,石嘴山市,惠农南大街,颗粒物(PM10),78,105,91,44,39,128,60,100,100,77,57,22,39,0.8,1.5
2023-10-22T19:00:00,1950A,106.7099,39.1325,石嘴山市,红果子镇惠新街,颗粒物(PM10),79,107,104,55,54,133,72,111,111,66,52,37,57,0.7,1.2
2023-10-22T19:00:00,1951A,84.895,45.6094,克拉玛依市,长征新村,颗粒物(PM10),60,70,69,7,12,105,99,76,76,22,31,13,12,0.4,0.5
2023-10-22T19:00:00,1952A,84.8988,45.5893,克拉玛依市,南林小区,颗粒物(PM10),60,70,76,41,27,106,94,72,72,26,40,6,6,0.4,0.7
2023-10-22T19:00:00,1954A,84.905,44.3396,克拉玛依市,独山子区,颗粒物(PM10),98,145,89,51,36,113,90,98,98,32,34,22,10,0.7,0.6
2023-10-22T19:00:00,1955A,85.6979,46.098,克拉玛依市,乌尔禾区商贸楼,颗粒物(PM10),60,70,63,6,15,101,94,82,82,14,25,10,8,0.4,0.4
2023-10-22T19:00:00,1956A,86.1472,41.7538,巴音郭楞州,孔雀公园,颗粒物(PM10),102,153,206,38,49,89,82,66,66,10,53,2,3,0.4,0.7
2023-10-22T19:00:00,1957A,86.1972,41.7166,巴音郭楞州,棉纺厂,颗粒物(PM10),107,164,267,48,54,90,76,72,72,16,42,2,2,0.3,0.4
2023-10-22T19:00:00,1958A,86.2357,41.7173,巴音郭楞州,经济开发区,颗粒物(PM10),98,145,261,31,51,94,83,81,81,14,34,3,3,0.3,0.3
2023-10-22T19:00:00,1961A,117.532,36.6868,济南市,东山小学,颗粒物(PM10),57,63,80,27,39,150,120,139,139,32,27,7,10,0.3,0.3
2023-10-22T19:00:00,1966A,120.0405,35.8735,青岛市,黄岛区4号,颗粒物(PM10),62,73,64,41,31,157,143,139,139,23,38,10,12,0.7,0.9
2023-10-22T19:00:00,1982A,122.0693,37.2174,威海市,文登开发区,颗粒物(PM10),62,73,52,41,21,131,109,119,119,29,25,10,10,0.6,0.5
2023-10-22T19:00:00,2031A,113.1817,27.9958,株洲市,云田中学,,47,47,51,31,32,158,128,144,144,32,26,9,8,1.0,1.1
2023-10-22T19:00:00,2054A,114.1099,32.1059,信阳市,平桥分局,,43,43,30,23,16,136,97,127,126,25,15,4,3,0.6,0.5
2023-10-22T19:00:00,2064A,113.9956,32.1271,信阳市,南湾水厂,,39,34,33,20,16,145,122,135,135,9,11,4,4,0.6,0.5
2023-10-22T19:00:00,2065A,114.0775,32.1195,信阳市,市酿酒公司,颗粒物(PM10),53,55,36,33,20,141,102,129,129,26,26,4,3,0.7,0.6
2023-10-22T19:00:00,2066A,114.0609,32.1399,信阳市,审计局,颗粒物(PM10),62,74,42,34,20,144,122,135,135,17,23,6,5,0.6,0.5
2023-10-22T19:00:00,2067A,114.6613,33.6128,周口市,市环境监测站,颗粒物(PM10),54,58,75,33,34,136,75,121,119,57,36,9,11,0.4,0.3
2023-10-22T19:00:00,2068A,114.6758,33.6347,周口市,周口师范,,49,49,59,22,26,140,88,122,122,48,30,6,6,0.8,0.6
2023-10-22T19:00:00,2069A,114.6546,33.5979,周口市,市运管处,颗粒物(PM10),56,62,87,31,32,133,95,118,118,36,31,4,5,0.4,0.3
2023-10-22T19:00:00,2070A,114.6369,33.6406,周口市,川汇区环保局,颗粒物(PM10),64,77,63,42,32,133,80,117,116,52,31,7,7,0.6,0.4
2023-10-22T19:00:00,2075A,117.6336,24.4674,漳州市,九湖,,,,,,,,,,,,,,,,
2023-10-22T19:00:00,2160A,112.85,35.5051,晋城市,自来水公司,颗粒物(PM10),61,71,93,24,55,144,104,116,116,37,48,12,12,0.9,1.6
2023-10-22T19:00:00,2161A,112.8318,35.4936,晋城市,白云商贸,颗粒物(PM10),54,57,82,27,41,126,102,113,113,38,42,10,8,1.3,1.4
2023-10-22T19:00:00,2162A,112.8508,35.4887,晋城市,市环保局,颗粒物(PM10),70,90,101,27,52,127,96,111,111,41,50,11,9,1.3,1.7
2023-10-22T19:00:00,2163A,112.8676,35.4897,晋城市,技术学院,颗粒物(PM10),60,69,98,24,56,140,103,115,115,34,53,12,11,1.2,1.7
2023-10-22T19:00:00,2165A,112.8453,35.546,晋城市,白马寺,,,,,,,,,,,,,,,,
2023-10-22T19:00:00,2166A,112.4397,39.3522,朔州市,平朔,细颗粒物(PM2.5),83,72,66,61,26,131,52,107,107,57,39,8,16,0.9,0.7
2023-10-22T19:00:00,2167A,112.4575,39.3617,朔州市,朔唯,细颗粒物(PM2.5),124,140,98,94,38,120,53,95,95,82,50,15,22,1.0,0.7
2023-10-22T19:00:00,2168A,112.4258,39.3197,朔州市,区政府,细颗粒物(PM2.5),65,77,58,47,29,124,54,102,102,71,43,9,14,1.0,0.7
2023-10-22T19:00:00,2169A,112.4072,39.3278,朔州市,市环保局,细颗粒物(PM2.5),88,109,63,65,26,122,35,100,99,80,39,13,17,1.1,0.6
2023-10-22T19:00:00,2170A,112.4272,39.3681,朔州市,市二中,细颗粒物(PM2.5),99,128,81,74,32,128,47,104,103,70,45,11,18,0.8,0.6
2023-10-22T19:00:00,2171A,112.7532,37.6945,晋中市,锦纶小区,颗粒物(PM10),65,80,63,31,25,114,56,96,96,79,45,11,12,0.6,0.5
2023-10-22T19:00:00,2173A,112.7249,37.7067,晋中市,南都小区,颗粒物(PM10),87,123,72,33,34,118,26,96,92,95,48,11,13,0.9,0.5
2023-10-22T19:00:00,2174A,112.6991,37.6982,晋中市,榆次区政府,颗粒物(PM10),77,104,58,42,29,118,37,98,95,92,45,14,13,1.2,0.7
2023-10-22T19:00:00,2175A,110.9956,35.0147,运城市,运城中学,颗粒物(PM10),104,157,112,61,69,144,95,116,116,40,40,11,15,0.8,1
2023-10-22T19:00:00,2178A,110.9686,35.0303,运城市,地区技校,颗粒物(PM10),93,135,151,57,74,142,27,112,109,105,49,10,16,1.5,1.4
2023-10-22T19:00:00,2179A,111.0414,35.1147,运城市,空港新区,细颗粒物(PM2.5),108,127,133,81,75,148,88,123,123,60,51,10,10,0.7,0.9
2023-10-22T19:00:00,2181A,112.7383,38.4519,忻州市,开发区,颗粒物(PM10),63,75,49,32,21,111,41,78,78,76,47,10,12,0.7,0.6
2023-10-22T19:00:00,2182A,112.7003,38.4928,忻州市,会展中心,细颗粒物(PM2.5),80,106,54,59,27,103,30,71,71,77,42,9,10,0.9,0.6
2023-10-22T19:00:00,2183A,111.1406,37.5211,吕梁市,环保局,颗粒物(PM10),98,146,70,38,17,108,4,79,77,91,49,4,3,1.0,0.6
2023-10-22T19:00:00,2185A,111.1297,37.5136,吕梁市,自来水公司,颗粒物(PM10),54,57,88,30,24,106,36,81,81,55,39,2,5,0.8,0.5
2023-10-22T19:00:00,2187A,106.8174,39.6973,乌海市,市林业局,,40,40,62,22,30,120,100,112,112,16,40,10,20,0.6,1.1
2023-10-22T19:00:00,2188A,106.7907,39.6667,乌海市,中海勃湾学校,,,0,72,0,29,118,,106,106,,47,,28,,1.1
2023-10-22T19:00:00,2191A,122.2532,43.6801,通辽市,艺术职业学校,颗粒物(PM10),68,85,35,16,9,82,7,74,61,79,22,8,8,0.6,0.2
2023-10-22T19:00:00,2192A,119.7594,49.2261,呼伦贝尔市,区环保局,颗粒物(PM10),79,108,29,33,16,80,18,65,61,55,19,5,4,1.0,0.4
2023-10-22T19:00:00,2195A,107.4212,40.761,巴彦淖尔市,附二中,颗粒物(PM10),73,95,106,18,45,119,75,114,108,44,51,5,13,0.7,0.8
2023-10-22T19:00:00,2196A,107.37,40.7372,巴彦淖尔市,市环保大楼,颗粒物(PM10),85,120,96,26,44,123,78,109,109,31,48,4,5,0.6,0.8
2023-10-22T19:00:00,2197A,113.1306,40.9923,乌兰察布市,集宁新区,,45,45,64,22,35,131,98,113,113,29,31,9,11,0.6,0.6
2023-10-22T19:00:00,2200A,122.0392,46.0656,兴安盟,胜华新制药厂,,43,43,30,21,16,77,61,71,70,14,15,12,4,0.6,0.4
2023-10-22T19:00:00,2201A,121.9504,46.0741,兴安盟,科右前旗环保局,,44,44,26,26,14,79,35,71,65,40,15,4,3,0.6,0.4
2023-10-22T19:00:00,2202A,116.1042,43.9317,锡林郭勒盟,市环保监测站,,24,18,17,4,3,90,75,81,81,8,11,6,8,0.3,0.3
2023-10-22T19:00:00,2203A,116.0781,43.9311,锡林郭勒盟,市政府,,22,22,16,9,4,84,53,75,75,31,17,9,9,0.4,0.2
2023-10-22T19:00:00,2204A,105.6467,38.8363,阿拉善盟,西城区西花园,,42,42,33,21,18,130,101,121,121,26,14,8,8,0.8,0.7
2023-10-22T19:00:00,2205A,105.6985,38.8411,阿拉善盟,蒙二幼,,42,42,27,19,14,127,98,121,119,34,12,10,9,0.7,0.4
2023-10-22T19:00:00,2206A,105.724,38.8516,阿拉善盟,环保局新楼,颗粒物(PM10),52,53,35,15,13,119,110,116,116,17,8,8,9,0.7,0.5
2023-10-22T19:00:00,2207A,121.6094,41.998,阜新市,工业园区,颗粒物(PM10),54,58,47,13,12,92,41,74,72,46,29,10,9,0.7,0.6
2023-10-22T19:00:00,2208A,121.6697,42.0279,阜新市,长青街,颗粒物(PM10),58,65,43,20,18,84,35,67,66,44,26,9,9,0.7,0.7
2023-10-22T19:00:00,2209A,121.6673,42.0705,阜新市,农业园区,,39,39,35,27,12,81,43,72,72,36,18,21,10,0.5,0.4
2023-10-22T19:00:00,2210A,121.6717,42.0224,阜新市,东苑,颗粒物(PM10),63,75,46,23,17,80,49,63,63,40,33,12,13,0.6,0.7
2023-10-22T19:00:00,2211A,121.6506,42.0498,阜新市,玉龙新城,,,,54,69,16,92,12,78,69,68,28,11,9,0.9,0.7
2023-10-22T19:00:00,2212A,123.2,41.1953,辽阳市,宏伟区,,45,45,31,14,13,79,27,66,62,51,21,10,12,0.6,0.6
2023-10-22T19:00:00,2213A,123.1683,41.2495,辽阳市,新华园,,50,50,33,24,16,82,16,67,62,71,25,12,13,1.1,0.9
2023-10-22T19:00:00,2214A,123.2354,41.2639,辽阳市,滨河路,"颗粒物(PM10),细颗粒物(PM2.5)",58,65,36,41,17,82,27,68,63,47,19,8,10,0.9,0.9
2023-10-22T19:00:00,2215A,123.149,41.2991,辽阳市,铁西工业园,颗粒物(PM10),99,148,49,42,23,83,9,69,58,59,28,11,13,0.7,0.9
2023-10-22T19:00:00,2216A,123.8139,42.3022,铁岭市,汇工街西,,,106,39,,19,81,15,68,64,69,27,200,27,1.3,0.8
2023-10-22T19:00:00,2217A,123.8649,42.2923,铁岭市,水上乐园,颗粒物(PM10),55,60,39,36,17,80,39,64,61,40,32,5,9,0.7,0.8
2023-10-22T19:00:00,2218A,123.8486,42.2867,铁岭市,银州路东段,,41,41,43,18,17,73,28,63,59,54,31,5,9,0.4,0.7
2023-10-22T19:00:00,2219A,123.7153,42.2217,铁岭市,金沙江路北,,35,32,38,19,18,80,7,67,58,70,33,13,18,0.5,0.7
2023-10-22T19:00:00,2220A,120.4318,41.5881,朝阳市,西梁,,36,36,32,11,13,81,61,72,72,20,22,16,13,0.7,0.9
2023-10-22T19:00:00,2221A,120.4521,41.5646,朝阳市,河畔小区,,38,38,28,10,9,87,70,78,78,16,18,15,10,0.6,0.8
2023-10-22T19:00:00,2222A,120.4176,41.5648,朝阳市,八里堡,,50,50,36,15,13,82,50,70,70,33,31,16,12,0.6,0.7
2023-10-22T19:00:00,2223A,120.3806,41.5969,朝阳市,农业园区,颗粒物(PM10),53,55,36,17,17,84,54,70,70,28,28,14,12,0.7,0.8
2023-10-22T19:00:00,2225A,124.4002,43.1713,四平市,一商场,颗粒物(PM10),86,121,52,27,20,71,8,58,52,80,27,5,8,2.1,0.7
2023-10-22T19:00:00,2226A,124.388,43.193,四平市,境园,细颗粒物(PM2.5),72,65,38,52,21,77,11,65,57,57,22,6,8,1.1,0.8
2023-10-22T19:00:00,2227A,125.1358,42.8845,辽源市,环保局,,46,42,26,32,14,86,15,77,70,58,17,23,15,1.2,0.6
2023-10-22T19:00:00,2229A,125.9358,41.7173,通化市,光明,颗粒物(PM10),57,63,34,22,13,88,13,77,68,82,38,11,12,1.1,0.7
2023-10-22T19:00:00,2230A,125.9446,41.7325,通化市,铁路,,46,46,31,23,14,94,37,82,74,42,33,6,8,0.9,0.7
2023-10-22T19:00:00,2231A,126.4219,41.9171,白山市,喜丰,颗粒物(PM10),51,52,50,19,16,84,35,71,68,44,31,10,13,0.8,0.8
2023-10-22T19:00:00,2232A,126.4077,41.9419,白山市,环保局,颗粒物(PM10),63,75,51,31,19,87,11,68,61,65,30,12,14,1.3,1
2023-10-22T19:00:00,2233A,124.8006,45.1214,松原市,江南,颗粒物(PM10),83,115,38,53,13,59,5,51,45,52,13,13,9,1.0,0.4
2023-10-22T19:00:00,2234A,124.7965,45.1722,松原市,江北,,,,26,,9,61,,57,57,,9,,4,,0.3
2023-10-22T19:00:00,2235A,122.7911,45.6077,白城市,洮北区环保局,,50,50,31,18,10,88,69,81,80,16,12,9,8,0.5,0.4
2023-10-22T19:00:00,2236A,122.8738,45.5725,白城市,市环保局,颗粒物(PM10),52,53,38,15,8,83,46,68,68,30,15,9,8,0.5,0.5
2023-10-22T19:00:00,2237A,129.47,42.8883,延边朝鲜族自治州,妇幼医院,细颗粒物(PM2.5),59,41,25,42,12,78,30,68,62,46,25,16,12,0.8,0.6
2023-10-22T19:00:00,2238A,129.5055,42.9108,延边朝鲜族自治州,延边医院,细颗粒物(PM2.5),67,40,39,48,14,82,42,80,74,45,32,7,10,0.9,0.7
2023-10-22T19:00:00,2239A,129.3964,42.8881,延边朝鲜族自治州,朝阳川镇医院,,40,40,24,25,10,86,55,80,76,20,13,6,7,0.5,0.4
2023-10-22T19:00:00,2240A,130.9762,45.3001,鸡西市,环保局,,27,27,26,5,9,49,28,46,43,28,12,5,4,0.4,0.2
2023-10-22T19:00:00,2243A,130.9429,45.3039,鸡西市,第一中学,,25,25,26,10,8,58,44,54,52,13,10,6,6,0.1,0.1
2023-10-22T19:00:00,2244A,130.2537,47.3416,鹤岗市,哈啤分公司,,22,16,16,15,14,63,52,58,58,9,6,15,14,0.2,0.2
2023-10-22T19:00:00,2245A,130.2684,47.3086,鹤岗市,斯达机电,,,,22,,13,49,,49,,,7,,10,,0.2
2023-10-22T19:00:00,2246A,130.3114,47.3388,鹤岗市,东山纸板厂,,,,34,,13,55,,54,,,6,,11,,0.4
2023-10-22T19:00:00,2247A,130.1097,47.3382,鹤岗市,五号水库,,18,18,15,5,6,65,57,60,60,5,5,11,12,0.4,0.4
2023-10-22T19:00:00,2248A,131.1511,46.6937,双鸭山市,双合村,,20,14,16,2,5,66,61,57,57,2,4,8,8,0.4,0.4
2023-10-22T19:00:00,2249A,131.1652,46.6191,双鸭山市,南小市,,31,31,21,12,9,63,51,54,54,10,8,8,7,0.4,0.4
2023-10-22T19:00:00,2250A,131.1524,46.6554,双鸭山市,环保局,,21,21,21,13,11,62,55,52,52,8,10,7,8,0.3,0.4
2023-10-22T19:00:00,2251A,131.12,46.5656,双鸭山市,苗圃,,24,24,29,4,11,74,74,69,69,3,5,3,3,0.2,0.2
2023-10-22T19:00:00,2252A,128.5159,47.4311,伊春市,环保局,,22,22,15,4,8,58,24,53,50,28,6,3,4,0.5,0.3
2023-10-22T19:00:00,2253A,128.9102,47.7412,伊春市,电力嘉园,,20,20,16,8,11,62,47,57,56,14,5,5,5,0.3,0.3
2023-10-22T19:00:00,2254A,129.5029,48.471,伊春市,汤旺河国家公园,,14,11,18,9,10,60,43,56,54,4,4,3,5,0.1,0.1
2023-10-22T19:00:00,2255A,130.2751,46.8028,佳木斯市,佳纺,,40,40,21,13,9,55,41,48,46,19,11,2,2,0.5,0.4
2023-10-22T19:00:00,2256A,130.3995,46.8307,佳木斯市,发电厂,,17,17,13,10,10,58,44,52,51,14,8,8,6,0.5,0.4
2023-10-22T19:00:00,2257A,130.3258,46.7975,佳木斯市,环保局,,14,14,16,8,9,56,33,50,47,23,10,4,4,0.5,0.5
2023-10-22T19:00:00,2258A,130.3648,46.8032,佳木斯市,十一中,,26,26,19,12,9,54,39,47,46,24,13,3,3,0.4,0.3
2023-10-22T19:00:00,2259A,130.3794,46.7588,佳木斯市,四丰,,20,11,9,5,4,70,64,60,60,5,6,1,1,0.1,0.1
2023-10-22T19:00:00,2262A,131.0518,45.8751,七台河市,新一中,,17,11,16,4,10,68,52,62,62,8,10,7,8,0.3,0.4
2023-10-22T19:00:00,2263A,127.4833,50.2524,黑河市,交通局,,26,19,17,18,12,60,26,56,48,34,12,10,4,0.7,0.5
2023-10-22T19:00:00,2264A,127.5144,50.2341,黑河市,环保局,,27,27,13,15,13,60,31,58,52,32,7,4,3,0.5,0.3
2023-10-22T19:00:00,2265A,127.5291,50.2472,黑河市,大黑河岛,,,22,13,8,12,,,,,2,2,2,3,,
2023-10-22T19:00:00,2266A,126.9785,46.6365,绥化市,人和东街,颗粒物(PM10),51,52,25,20,10,50,25,43,38,31,17,3,4,0.4,0.3
2023-10-22T19:00:00,2267A,126.964,46.6528,绥化市,党政办公中心,颗粒物(PM10),51,51,25,21,10,52,24,45,39,32,14,3,3,0.4,0.2
2023-10-22T19:00:00,2269A,124.1069,50.4097,大兴安岭地区,科技局,,49,49,14,24,14,62,18,58,50,30,7,8,6,0.4,0.2
2023-10-22T19:00:00,2270A,117.396,32.939,蚌埠市,工人疗养院,"颗粒物(PM10),细颗粒物(PM2.5)",63,76,54,45,30,162,101,140,138,50,26,6,7,0.6,0.5
2023-10-22T19:00:00,2271A,117.3605,32.9427,蚌埠市,百货大楼,颗粒物(PM10),69,87,60,42,28,154,124,139,139,47,30,7,7,0.6,0.5
2023-10-22T19:00:00,2273A,117.4185,32.8911,蚌埠市,蚌埠学院,颗粒物(PM10),62,73,57,41,30,156,127,143,143,32,30,6,7,0.5,0.4
2023-10-22T19:00:00,2274A,117.3533,32.9673,蚌埠市,淮上区政府,细颗粒物(PM2.5),74,85,61,54,39,149,102,133,131,44,31,8,9,0.6,0.5
2023-10-22T19:00:00,2275A,117.3145,32.8977,蚌埠市,高新区,颗粒物(PM10),76,102,61,52,34,161,67,139,133,78,39,6,9,0.7,0.5
2023-10-22T19:00:00,2277A,116.8305,32.7727,淮南市,潘集区政府,颗粒物(PM10),74,97,90,46,55,167,108,136,135,40,43,12,13,0.5,0.5
2023-10-22T19:00:00,2278A,117.0067,32.6524,淮南市,师范学院,颗粒物(PM10),69,87,73,41,40,151,90,137,134,51,36,9,11,0.9,0.7
2023-10-22T19:00:00,2279A,116.8569,32.5951,淮南市,谢家集区政府,,48,43,47,19,35,154,153,145,145,27,36,8,24,0.4,0.4
2023-10-22T19:00:00,2280A,116.8281,32.633,淮南市,八公山区政府,颗粒物(PM10),53,56,65,32,36,145,133,138,138,22,27,9,15,0.4,0.4
2023-10-22T19:00:00,2281A,116.6325,32.6201,淮南市,焦岗湖风景区管理处,,38,38,52,20,36,137,85,123,121,33,34,2,2,0.3,0.3
2023-10-22T19:00:00,2282A,116.8004,33.975,淮北市,监测站,,49,49,88,27,56,123,57,108,104,53,41,8,12,0.8,0.7
2023-10-22T19:00:00,2283A,116.8091,33.9007,淮北市,烈山区政府,颗粒物(PM10),63,75,106,36,64,129,96,119,119,51,53,8,11,0.2,0.4
2023-10-22T19:00:00,2285A,117.8177,30.9412,铜陵市,市第四中学,,46,46,57,28,28,119,72,104,104,41,31,14,18,0.8,0.8
2023-10-22T19:00:00,2286A,117.8059,30.9273,铜陵市,市公路局,颗粒物(PM10),59,68,54,32,24,118,58,100,100,38,28,20,22,0.8,0.8
2023-10-22T19:00:00,2287A,117.7807,30.9413,铜陵市,市新民污水厂,,43,43,47,25,24,124,59,107,104,40,37,4,5,0.3,0.4
2023-10-22T19:00:00,2288A,117.7439,30.8792,铜陵市,市第九中学,颗粒物(PM10),60,70,74,15,25,122,66,98,98,36,44,7,5,0.3,0.6
2023-10-22T19:00:00,2289A,117.846,30.9413,铜陵市,车站新区,颗粒物(PM10),51,52,44,23,29,110,52,88,88,64,42,3,8,0.4,0.5
2023-10-22T19:00:00,2290A,117.8483,30.97,铜陵市,市职教基地,,45,45,47,27,24,109,94,97,97,22,30,10,10,0.5,0.6
2023-10-22T19:00:00,2291A,117.0809,30.5177,安庆市,环科院,,32,32,47,15,23,125,71,107,107,57,32,7,10,0.5,0.6
2023-10-22T19:00:00,2292A,117.0331,30.5119,安庆市,马山宾馆,二氧化氮,61,30,43,13,22,128,20,107,98,122,37,5,8,0.4,0.6
2023-10-22T19:00:00,2294A,116.9896,30.6145,安庆市,安庆大学,,47,47,53,22,26,133,70,113,111,51,39,8,9,0.6,0.7
2023-10-22T19:00:00,2295A,118.2903,29.6963,黄山市,延安路89号,细颗粒物(PM2.5),58,58,30,41,14,118,41,94,94,32,13,6,5,0.6,0.3
2023-10-22T19:00:00,2296A,118.327,29.7178,黄山市,黄山东路89号,细颗粒物(PM2.5),72,66,38,52,16,115,57,90,90,21,15,5,5,0.9,0.5
2023-10-22T19:00:00,2297A,118.1371,30.2756,黄山市,黄山区政府5号楼,细颗粒物(PM2.5),62,70,36,44,21,116,38,94,91,27,14,6,6,0.8,0.5
2023-10-22T19:00:00,2298A,118.3093,32.3153,滁州市,老年大学,细颗粒物(PM2.5),68,84,51,49,33,158,66,139,133,64,36,8,8,1.2,0.4
2023-10-22T19:00:00,2299A,118.3244,32.2786,滁州市,人大宾馆,颗粒物(PM10),61,71,58,37,31,158,49,138,132,70,43,7,10,0.8,0.5
2023-10-22T19:00:00,2301A,115.8277,32.8929,阜阳市,市监测站,"颗粒物(PM10),细颗粒物(PM2.5)",69,88,62,50,41,152,83,131,130,59,30,7,8,0.5,0.4
2023-10-22T19:00:00,2303A,115.8554,32.8605,阜阳市,开发区,颗粒物(PM10),69,87,71,38,35,155,118,135,135,43,31,9,10,0.7,0.6
2023-10-22T19:00:00,2307A,116.5079,31.737,六安市,监测大楼,,36,36,41,16,22,131,99,120,120,27,24,4,5,0.3,0.3
2023-10-22T19:00:00,2308A,116.4738,31.7643,六安市,皖西学院,,44,44,45,11,20,129,85,119,118,39,25,6,7,0.3,0.3
2023-10-22T19:00:00,2309A,116.4996,31.7905,六安市,朝阳厂,,35,35,42,18,30,134,103,126,126,28,29,7,7,0.3,0.4
2023-10-22T19:00:00,2310A,116.5567,31.7886,六安市,开发区,颗粒物(PM10),53,55,67,16,31,125,59,108,106,42,27,5,6,0.4,0.4
2023-10-22T19:00:00,2311A,115.8072,33.8399,亳州市,污水处理厂,颗粒物(PM10),64,78,62,33,37,147,77,131,129,62,34,14,11,0.5,0.5
2023-10-22T19:00:00,2312A,115.7789,33.8518,亳州市,三国揽胜宫,颗粒物(PM10),59,68,60,19,24,153,86,134,133,58,29,9,10,0.6,0.5
2023-10-22T19:00:00,2314A,117.47,30.6618,池州市,池州学院,颗粒物(PM10),53,56,38,31,21,127,91,113,113,24,17,5,6,0.5,0.8
2023-10-22T19:00:00,2316A,118.7581,30.9454,宣城市,鳌峰子站,,46,46,50,24,25,121,92,109,109,25,28,5,6,0.5,0.6
2023-10-22T19:00:00,2317A,118.7385,30.9743,宣城市,敬亭山子站,,41,41,39,17,25,124,83,102,102,16,24,8,9,0.4,0.5
2023-10-22T19:00:00,2318A,118.7173,30.9427,宣城市,开发区子站,,50,50,48,25,23,118,86,105,105,32,33,5,6,0.5,0.5
2023-10-22T19:00:00,2319A,119.0141,25.4325,莆田市,荔城区仓后路,,25,25,23,15,7,92,70,76,73,11,8,6,6,0.6,0.5
2023-10-22T19:00:00,2320A,119.0015,25.4553,莆田市,莆田市监测站,,25,20,18,7,5,99,78,82,80,6,5,7,7,0.6,0.6
2023-10-22T19:00:00,2321A,119.1119,25.4561,莆田市,涵江区六中,,26,26,21,11,5,87,74,83,82,11,6,7,7,0.6,0.5
2023-10-22T19:00:00,2322A,119.1013,25.3215,莆田市,秀屿区政府,,25,25,23,7,5,92,78,83,83,13,10,7,7,0.6,0.6
2023-10-22T19:00:00,2323A,118.981,25.4792,莆田市,东圳水库,,,,,,,,,,,,,,,,
2023-10-22T19:00:00,2324A,117.6211,26.2625,三明市,三钢,,33,31,24,23,18,67,48,61,61,22,19,15,9,0.4,0.5
2023-10-22T19:00:00,2325A,117.635,26.2714,三明市,三明二中,,32,24,25,22,19,65,47,59,58,21,16,12,6,0.5,0.5
2023-10-22T19:00:00,2326A,117.6028,26.2378,三明市,三元区政府,,28,28,25,17,16,64,51,60,60,22,20,16,11,0.6,0.6
2023-10-22T19:00:00,2327A,117.7275,26.3108,三明市,洋溪,,,,,,,,,,,,,,,,
2023-10-22T19:00:00,2331A,118.0966,26.6761,南平市,茫荡山,,,,,,,,,,,,,,,,
2023-10-22T19:00:00,2332A,118.1681,26.6369,南平市,南平市监测站,,36,31,27,25,15,68,41,58,58,22,17,4,7,0.7,0.7
2023-10-22T19:00:00,2333A,118.1825,26.6489,南平市,南平铝业有限公司,,30,28,24,21,16,68,33,55,55,26,20,5,7,0.7,0.6
2023-10-22T19:00:00,2334A,118.1756,26.6272,南平市,南平七中,,25,24,24,17,16,71,45,61,61,14,14,4,6,0.7,0.6
2023-10-22T19:00:00,2335A,117.0189,25.1181,龙岩市,龙岩师专,,,,,,,,,,,,,,,,
2023-10-22T19:00:00,2336A,117.0217,25.1033,龙岩市,龙岩市监测站,,30,22,17,21,13,87,62,76,76,17,11,8,5,0.6,0.6
2023-10-22T19:00:00,2337A,117.0258,25.0661,龙岩市,闽西职业技术学院,,26,26,18,15,12,85,59,74,74,15,9,9,4,0.7,0.6
2023-10-22T19:00:00,2338A,117.0196,25.0306,龙岩市,龙岩学院,,25,25,17,15,12,86,50,69,69,14,10,7,5,0.5,0.5
2023-10-22T19:00:00,2339A,119.5001,26.6946,宁德市,金涵水库,,,,,,,,,,,,,,,,
2023-10-22T19:00:00,2341A,119.5388,26.6612,宁德市,宁德市监测站,,37,37,31,21,17,83,48,64,61,20,18,6,8,0.7,0.6
2023-10-22T19:00:00,2342A,117.3102,29.3867,景德镇市,王港中学,细颗粒物(PM2.5),75,79,36,55,24,135,45,100,99,12,9,2,3,0.4,0.4
2023-10-22T19:00:00,2343A,117.2117,29.2933,景德镇市,老干部活动中心,颗粒物(PM10),51,51,31,31,25,122,76,98,98,24,20,14,11,0.6,0.4
2023-10-22T19:00:00,2344A,117.1894,29.2789,景德镇市,兽医站,,46,46,32,26,24,114,58,93,93,23,16,14,11,0.9,0.6
2023-10-22T19:00:00,2345A,117.1547,29.2617,景德镇市,台达陶瓷,细颗粒物(PM2.5),80,93,41,59,24,112,19,87,83,94,31,89,35,1.1,0.6
2023-10-22T19:00:00,2346A,117.2461,29.2956,景德镇市,陶研所,颗粒物(PM10),56,61,47,24,13,116,58,87,87,25,24,4,7,0.6,0.5
2023-10-22T19:00:00,2347A,114.0997,27.5002,萍乡市,武功山,,29,20,15,20,12,127,86,110,110,7,5,6,6,0.3,0.1
2023-10-22T19:00:00,2348A,113.8385,27.6434,萍乡市,中医院,颗粒物(PM10),54,58,44,34,25,133,95,116,116,26,23,12,13,1.0,0.8
2023-10-22T19:00:00,2349A,113.8493,27.6253,萍乡市,市政府车库,颗粒物(PM10),52,54,41,22,24,133,85,115,115,28,19,10,14,0.7,0.9
2023-10-22T19:00:00,2350A,113.8676,27.6435,萍乡市,市环保局,颗粒物(PM10),54,57,44,34,28,134,93,118,118,32,26,14,14,1.5,0.9
2023-10-22T19:00:00,2351A,113.866,27.6198,萍乡市,安源区政府,,46,46,40,25,25,137,95,118,118,20,19,9,12,0.5,0.9
2023-10-22T19:00:00,2352A,115.0861,27.9317,新余市,北岗,,28,22,24,16,18,141,89,120,120,13,12,10,17,0.5,0.5
2023-10-22T19:00:00,2353A,114.9886,27.8431,新余市,飞宇,,44,44,56,21,26,124,89,112,112,38,32,8,10,0.3,0.6
2023-10-22T19:00:00,2354A,114.9231,27.8246,新余市,第二水厂,颗粒物(PM10),51,51,54,22,27,138,91,123,123,35,31,9,10,0.6,0.6
2023-10-22T19:00:00,2355A,114.9308,27.8036,新余市,市气象局,,44,44,50,21,26,134,106,124,124,22,25,12,15,0.5,0.7
2023-10-22T19:00:00,2357A,116.9822,28.1136,鹰潭市,龙虎山,,32,32,26,12,5,129,92,112,112,7,4,5,5,0.2,0.1
2023-10-22T19:00:00,2358A,117.0564,28.2642,鹰潭市,新监测站,,44,44,40,19,22,151,124,134,134,13,19,10,13,0.4,0.5
2023-10-22T19:00:00,2359A,117.0311,28.2475,鹰潭市,财苑宾馆,,48,48,45,28,24,148,128,135,135,12,24,11,19,0.4,0.4
2023-10-22T19:00:00,2360A,117.0222,28.2264,鹰潭市,体育馆,,49,49,41,33,22,146,120,132,132,14,21,10,13,0.6,0.6
2023-10-22T19:00:00,2361A,117.0017,28.2131,鹰潭市,三川水表,颗粒物(PM10),64,78,46,38,23,141,60,122,117,64,25,9,9,0.6,0.5
2023-10-22T19:00:00,2362A,114.9017,25.9149,赣州市,通天岩,,,,,,,,,,,,,,,,
2023-10-22T19:00:00,2363A,114.9367,25.8664,赣州市,地委,,48,48,43,25,25,120,78,103,101,21,12,4,14,0.8,0.8
2023-10-22T19:00:00,2364A,114.9461,25.8481,赣州市,气象台,,35,35,38,22,25,122,71,104,101,43,18,10,15,0.9,0.8
2023-10-22T19:00:00,2365A,114.9322,25.8333,赣州市,市图书馆,,42,42,47,17,23,119,83,104,104,18,12,10,12,0.9,0.9
2023-10-22T19:00:00,2366A,114.8905,25.8471,赣州市,华坚鞋城,,43,43,42,23,22,120,60,106,101,34,14,11,12,1.0,0.7
2023-10-22T19:00:00,2367A,114.9754,27.0803,吉安市,红声器材厂,,32,32,44,16,22,136,102,125,125,19,20,9,10,0.6,0.7
2023-10-22T19:00:00,2368A,114.9658,27.0999,吉安市,市森林工业局,,34,33,41,17,22,134,107,123,123,21,18,12,15,0.4,0.4
2023-10-22T19:00:00,2369A,114.99,27.1312,吉安市,市环境监测站,,34,34,38,13,21,137,108,129,129,25,19,10,12,0.8,0.7
2023-10-22T19:00:00,2370A,115.0093,27.0968,吉安市,青原区法院,,31,31,40,12,23,135,73,125,122,33,22,11,12,0.6,0.5
2023-10-22T19:00:00,2371A,114.3408,27.8064,宜春市,槟榔水业,,32,32,39,17,17,142,100,124,124,36,32,7,4,0.8,0.5
2023-10-22T19:00:00,2373A,114.3956,27.7844,宜春市,市石油公司,颗粒物(PM10),52,54,43,31,22,136,70,116,115,40,19,6,6,1.1,0.7
2023-10-22T19:00:00,2374A,114.3703,27.7914,宜春市,市气象局,,48,48,41,22,22,134,100,118,118,45,22,10,6,1.1,0.6
2023-10-22T19:00:00,2375A,114.4013,27.8074,宜春市,市广电局,,40,40,47,26,19,136,102,123,123,43,24,13,8,1.2,0.6
2023-10-22T19:00:00,2376A,116.2127,28.0814,抚州市,桐源党溪,,40,40,31,16,15,134,79,122,118,6,14,1,3,0.8,0.6
2023-10-22T19:00:00,2377A,116.3544,27.9831,抚州市,市站,,44,44,41,23,24,135,105,122,122,23,23,4,10,0.7,0.5
2023-10-22T19:00:00,2378A,116.3565,27.963,抚州市,血防站,,42,42,49,23,22,133,103,120,120,17,21,2,7,0.8,0.7
2023-10-22T19:00:00,2379A,116.3564,28.0007,抚州市,采茶剧团,,42,38,42,29,24,125,89,111,111,24,18,5,9,0.8,0.7
2023-10-22T19:00:00,2380A,116.385,27.9647,抚州市,医学分院,,36,36,43,22,20,138,107,128,128,16,21,8,11,0.8,0.7
2023-10-22T19:00:00,2381A,118.005,28.4572,上饶市,百草园,,,30,39,2,18,112,79,101,101,11,17,5,14,,
2023-10-22T19:00:00,2382A,117.9756,28.4436,上饶市,市监测站,,44,44,45,22,24,137,111,126,126,17,29,4,11,0.7,0.7
2023-10-22T19:00:00,2383A,117.9519,28.4628,上饶市,凤凰光学,,46,46,51,14,23,126,91,116,116,18,29,10,15,0.6,0.6
2023-10-22T19:00:00,2385A,114.17,35.9019,鹤壁市,市监测站,颗粒物(PM10),63,75,77,38,49,133,88,106,106,52,49,20,10,1.0,0.8
2023-10-22T19:00:00,2386A,114.2956,35.7511,鹤壁市,市交警支队,颗粒物(PM10),60,70,94,32,52,136,61,98,98,70,64,7,8,0.7,0.8
2023-10-22T19:00:00,2387A,114.2878,35.7306,鹤壁市,迎宾馆,颗粒物(PM10),58,66,88,35,54,138,81,106,106,53,63,11,13,0.6,0.8
2023-10-22T19:00:00,2389A,113.836,35.311,新乡市,环保西院,颗粒物(PM10),75,100,91,42,51,135,44,105,103,69,56,9,12,0.7,0.8
2023-10-22T19:00:00,2390A,113.884,35.272,新乡市,开发区,,49,49,81,24,49,143,36,117,112,75,56,7,11,1.1,0.9
2023-10-22T19:00:00,2391A,113.883,35.303,新乡市,环保东院,颗粒物(PM10),54,58,88,30,54,139,51,112,109,79,65,9,13,1.5,1.2
2023-10-22T19:00:00,2392A,115.0312,35.7636,濮阳市,环保局,颗粒物(PM10),52,53,67,31,54,129,93,110,110,33,35,6,8,0.6,0.5
2023-10-22T19:00:00,2394A,115.0574,35.7609,濮阳市,油田运输公司,颗粒物(PM10),59,67,80,36,58,134,62,112,111,64,38,5,7,0.7,0.6
2023-10-22T19:00:00,2395A,115.0866,35.7754,濮阳市,油田物探公司,颗粒物(PM10),60,70,92,42,64,137,72,115,115,55,45,7,9,0.9,0.7
2023-10-22T19:00:00,2396A,113.8276,34.0159,许昌市,监测站,颗粒物(PM10),56,61,71,22,40,126,74,102,102,48,38,5,7,0.7,0.6
2023-10-22T19:00:00,2398A,113.7906,33.9953,许昌市,开发区,颗粒物(PM10),58,66,69,31,45,121,58,98,98,40,42,4,4,0.6,0.6
2023-10-22T19:00:00,2399A,114.051,33.5699,漯河市,三五一五工厂,颗粒物(PM10),72,93,64,38,36,142,82,130,126,44,30,9,10,0.5,0.5
2023-10-22T19:00:00,2400A,114.0055,33.5698,漯河市,漯河大学,颗粒物(PM10),58,65,58,26,33,144,82,130,126,43,25,7,10,0.5,0.5
2023-10-22T19:00:00,2401A,114.0138,33.5828,漯河市,市水利局,颗粒物(PM10),60,70,57,28,30,144,75,130,126,46,24,7,10,0.6,0.5
2023-10-22T19:00:00,2402A,114.0261,33.5698,漯河市,市广电局,颗粒物(PM10),58,66,56,32,36,140,91,129,127,30,28,4,6,0.6,0.5
2023-10-22T19:00:00,2404A,112.5224,33.0122,南阳市,瓦房庄,颗粒物(PM10),55,59,67,33,46,113,53,88,88,59,43,10,7,0.7,0.7
2023-10-22T19:00:00,2405A,112.5003,32.9735,南阳市,汉画馆,颗粒物(PM10),55,60,61,24,39,119,65,101,101,42,36,6,5,0.6,0.6
2023-10-22T19:00:00,2406A,112.5573,33.027,南阳市,气象站,颗粒物(PM10),52,53,66,29,40,124,67,102,102,44,42,6,6,0.6,0.7
2023-10-22T19:00:00,2407A,112.5481,32.9689,南阳市,理工学院,颗粒物(PM10),61,72,82,35,52,122,77,104,104,37,38,7,6,0.6,0.6
2023-10-22T19:00:00,2408A,115.6702,34.4285,商丘市,环境监测站,,,51,57,41,58,123,86,111,111,27,28,,11,0.6,0.6
2023-10-22T19:00:00,2409A,115.6458,34.4045,商丘市,粮食局,细颗粒物(PM2.5),69,69,81,50,58,128,99,119,119,43,35,6,10,0.4,0.4
