timepoint,stationcode,longitude,latitude,area,positionname,primarypollutant,aqi,pm10,pm10_24h,pm2_5,pm2_5_24h,o3,o3_24h,o3_8h,o3_8h_24h,no2,no2_24h,so2,so2_24h,co,co_24h
2023-10-22T23:00:00,1001A,116.3621,39.8784,北京市,万寿西宫,颗粒物(PM10),73,95,62,49,27,68,1,60,38,90,51,2,2,0.6,0.5
2023-10-22T23:00:00,1002A,116.2202,40.2915,北京市,定陵,颗粒物(PM10),54,57,46,26,18,48,10,28,20,29,28,1,2,0.5,0.4
2023-10-22T23:00:00,1003A,116.4174,39.9289,北京市,东四,颗粒物(PM10),78,105,64,50,27,73,28,61,48,65,47,3,2,0.7,0.5
2023-10-22T23:00:00,1004A,116.4072,39.8863,北京市,天坛,细颗粒物(PM2.5),69,86,53,50,28,66,20,54,30,52,44,3,3,0.6,0.5
2023-10-22T23:00:00,1005A,116.462,39.9365,北京市,农展馆,颗粒物(PM10),77,104,61,52,26,72,28,55,43,71,53,1,2,0.7,0.5
2023-10-22T23:00:00,1006A,116.3392,39.9295,北京市,官园,颗粒物(PM10),70,90,62,40,25,76,16,62,39,72,50,3,3,0.7,0.6
2023-10-22T23:00:00,1007A,116.2878,39.9611,北京市,海淀万柳,颗粒物(PM10),71,92,64,36,23,68,7,51,26,82,57,3,2,0.9,0.7
2023-10-22T23:00:00,1008A,116.6636,40.135,北京市,顺义新城,颗粒物(PM10),78,106,58,50,23,84,2,69,30,58,42,1,2,0.6,0.4
2023-10-22T23:00:00,1009A,116.6275,40.3275,北京市,怀柔镇,,43,43,35,22,15,79,39,65,46,23,22,1,2,0.4,0.3
2023-10-22T23:00:00,1010A,116.2296,40.217,北京市,昌平镇,颗粒物(PM10),58,66,50,27,19,64,28,40,36,2,6,1,2,0.2,0.4
2023-10-22T23:00:00,1011A,116.3966,39.9821,北京市,奥体中心,颗粒物(PM10),77,103,58,44,25,68,3,54,39,92,50,3,3,0.7,0.4
2023-10-22T23:00:00,1012A,116.184,39.9136,北京市,古城,颗粒物(PM10),65,79,66,27,23,60,2,49,28,78,54,1,1,0.8,0.6
2023-10-22T23:00:00,1015A,117.1444,39.1661,天津市,勤俭道,细颗粒物(PM2.5),175,211,150,132,90,126,3,100,58,116,64,11,13,1.2,1
2023-10-22T23:00:00,1017A,117.237,39.1082,天津市,大直沽八号路,细颗粒物(PM2.5),176,209,154,133,89,123,20,98,60,104,72,8,8,1.1,0.8
2023-10-22T23:00:00,1018A,117.202,39.0927,天津市,前进道,细颗粒物(PM2.5),166,196,141,126,86,125,3,100,60,131,73,10,11,1.1,0.8
2023-10-22T23:00:00,1019A,117.1837,39.2133,天津市,淮河道,细颗粒物(PM2.5),165,199,140,125,82,142,5,115,62,117,67,10,12,1.2,0.9
2023-10-22T23:00:00,1021A,117.307,39.0877,天津市,跃进路,细颗粒物(PM2.5),162,206,149,123,85,139,0,101,45,112,68,9,11,1.1,0.9
2023-10-22T23:00:00,1023A,117.707,39.0343,天津市,第四大街,细颗粒物(PM2.5),150,173,142,115,86,108,33,82,55,74,72,6,10,1.0,1.2
2023-10-22T23:00:00,1024A,117.457,38.8394,天津市,永明路,细颗粒物(PM2.5),159,173,144,121,93,120,10,82,38,101,76,9,10,0.9,0.8
2023-10-22T23:00:00,1026A,117.764,39.1587,天津市,汉北路,细颗粒物(PM2.5),147,200,151,112,80,86,10,52,22,98,88,9,12,0.8,1.4
2023-10-22T23:00:00,1027A,117.157,38.9194,天津市,团泊洼,细颗粒物(PM2.5),163,192,147,124,92,105,22,80,47,80,62,9,8,1.3,1
2023-10-22T23:00:00,1029A,114.4422,38.0444,石家庄市,职工医院,颗粒物(PM10),76,101,58,53,24,86,17,74,64,93,56,14,12,0.9,0.7
2023-10-22T23:00:00,1030A,114.6063,38.0266,石家庄市,高新区,"颗粒物(PM10),细颗粒物(PM2.5)",77,104,77,56,29,87,43,76,70,69,55,9,7,1.1,0.8
2023-10-22T23:00:00,1031A,114.4898,38.1328,石家庄市,西北水源,颗粒物(PM10),71,92,85,40,23,79,1,66,40,83,51,4,7,0.8,0.7
2023-10-22T23:00:00,1032A,114.4586,38.0058,石家庄市,西南高教,细颗粒物(PM2.5),80,107,75,59,26,84,32,68,58,63,53,14,10,1.0,0.8
2023-10-22T23:00:00,1033A,114.5331,38.0178,石家庄市,世纪公园,细颗粒物(PM2.5),72,83,68,52,30,85,45,73,69,44,43,10,10,1.1,0.9
2023-10-22T23:00:00,1034A,114.509,38.0457,石家庄市,人民会堂,细颗粒物(PM2.5),93,88,59,69,32,96,47,83,78,64,50,14,13,1.1,0.8
2023-10-22T23:00:00,1035A,114.3524,37.8911,石家庄市,封龙山,颗粒物(PM10),70,90,58,44,22,108,108,98,98,17,18,15,13,1.0,0.6
2023-10-22T23:00:00,1037A,118.131,39.6363,唐山市,雷达站,细颗粒物(PM2.5),207,198,113,157,69,118,33,86,62,70,59,4,6,1.0,0.8
2023-10-22T23:00:00,1038A,118.1725,39.6334,唐山市,物资局,细颗粒物(PM2.5),202,169,100,152,66,119,50,90,71,56,59,10,10,0.8,0.8
2023-10-22T23:00:00,1040A,118.1705,39.6506,唐山市,十二中,细颗粒物(PM2.5),165,195,103,125,57,108,36,81,64,66,64,7,6,1.0,0.9
2023-10-22T23:00:00,1041A,118.1869,39.622,唐山市,小山,细颗粒物(PM2.5),188,197,110,141,57,115,40,84,65,50,48,6,6,0.9,0.9
2023-10-22T23:00:00,1042A,119.5134,39.8207,秦皇岛市,北戴河环保局,细颗粒物(PM2.5),130,154,79,99,41,115,37,93,80,86,55,13,20,0.8,1.3
2023-10-22T23:00:00,1043A,119.7493,40.0116,秦皇岛市,第一关,细颗粒物(PM2.5),114,106,59,86,30,110,4,85,35,92,63,14,14,0.9,0.9
2023-10-22T23:00:00,1044A,119.5897,39.9499,秦皇岛市,监测站,颗粒物(PM10),57,63,63,39,34,93,7,78,38,78,60,9,18,0.7,1.2
2023-10-22T23:00:00,1046A,119.5251,39.9041,秦皇岛市,建设大厦,颗粒物(PM10),65,80,75,37,34,96,4,83,39,68,50,5,13,0.6,1
2023-10-22T23:00:00,1048A,114.5302,36.6116,邯郸市,东污水处理厂,细颗粒物(PM2.5),67,76,79,48,45,123,49,93,77,48,51,18,13,0.5,1
2023-10-22T23:00:00,1049A,114.4918,36.5713,邯郸市,矿院,细颗粒物(PM2.5),72,75,75,52,47,123,23,91,70,78,56,12,12,0.8,1.2
2023-10-22T23:00:00,1050A,114.484,36.6133,邯郸市,丛台公园,细颗粒物(PM2.5),74,83,72,54,48,123,52,101,89,45,41,9,16,0.5,0.9
2023-10-22T23:00:00,1051A,115.493,38.8632,保定市,游泳馆,细颗粒物(PM2.5),125,147,95,95,60,96,7,74,42,94,64,8,9,1.2,0.9
2023-10-22T23:00:00,1052A,115.5213,38.8959,保定市,华电二区,细颗粒物(PM2.5),105,107,72,79,42,89,6,69,44,69,49,9,8,1.4,0.6
2023-10-22T23:00:00,1053A,115.4713,38.9108,保定市,接待中心,细颗粒物(PM2.5),97,136,87,72,41,84,0,67,38,89,53,8,9,1.6,0.8
2023-10-22T23:00:00,1054A,115.4612,38.8416,保定市,地表水厂,颗粒物(PM10),84,118,107,50,43,94,25,68,44,77,62,13,11,1.0,0.7
2023-10-22T23:00:00,1056A,115.5086,38.8639,保定市,监测站,颗粒物(PM10),91,132,98,61,47,93,3,68,35,77,63,11,11,1.6,0.7
2023-10-22T23:00:00,1057A,114.8883,40.8336,张家口市,人民公园,颗粒物(PM10),55,59,45,24,17,110,65,89,69,20,22,1,3,0.5,0.5
2023-10-22T23:00:00,1059A,114.8687,40.8042,张家口市,五金库,颗粒物(PM10),58,66,41,36,18,110,44,88,49,42,25,5,4,0.7,0.3
2023-10-22T23:00:00,1060A,114.8902,40.762,张家口市,世纪豪园,颗粒物(PM10),57,63,45,33,19,113,49,87,54,35,28,2,3,0.5,0.5
2023-10-22T23:00:00,1061A,114.8916,40.8661,张家口市,北泵房,,50,46,41,35,20,122,65,94,61,19,20,7,8,0.2,0.2
2023-10-22T23:00:00,1062A,117.9531,40.9081,承德市,铁路,,27,27,31,12,9,66,27,47,26,29,39,7,11,0.6,0.5
2023-10-22T23:00:00,1063A,117.9392,40.9763,承德市,中国银行,,46,46,37,15,10,67,1,53,16,49,39,6,11,0.9,0.7
2023-10-22T23:00:00,1064A,117.9503,40.928,承德市,开发区,颗粒物(PM10),51,51,37,22,16,65,2,55,20,55,38,7,9,0.9,0.6
2023-10-22T23:00:00,1065A,117.8051,40.9655,承德市,文化中心,颗粒物(PM10),55,59,57,11,13,71,0,49,19,64,49,5,23,0.6,0.7
2023-10-22T23:00:00,1066A,117.9268,41.0026,承德市,离宫,,22,22,27,14,13,61,9,54,36,44,26,3,5,0.5,0.4
2023-10-22T23:00:00,1067A,116.6708,39.5111,廊坊市,药材公司,细颗粒物(PM2.5),113,152,88,85,41,107,27,85,72,71,57,9,6,1.1,0.7
2023-10-22T23:00:00,1068A,116.7214,39.5589,廊坊市,开发区,细颗粒物(PM2.5),114,141,76,86,39,100,36,76,65,69,50,9,5,0.9,0.6
2023-10-22T23:00:00,1070A,116.7244,39.5269,廊坊市,北华航天学院,"颗粒物(PM10),细颗粒物(PM2.5)",93,135,85,69,39,105,50,89,81,48,47,14,8,0.8,0.7
2023-10-22T23:00:00,1071A,116.8842,38.2991,沧州市,沧县城建局,细颗粒物(PM2.5),132,140,126,100,79,140,13,104,55,108,70,12,12,1.0,0.9
2023-10-22T23:00:00,1072A,116.8584,38.3254,沧州市,电视转播站,细颗粒物(PM2.5),140,150,112,107,78,138,13,112,,100,51,15,15,0.9,0.7
2023-10-22T23:00:00,1073A,116.8709,38.3228,沧州市,市环保局,细颗粒物(PM2.5),125,143,124,95,78,128,26,96,52,84,62,16,16,0.9,0.8
2023-10-22T23:00:00,1074A,115.6838,37.7541,衡水市,电机北厂,细颗粒物(PM2.5),90,117,116,67,65,97,76,76,75,48,55,12,13,0.7,0.7
2023-10-22T23:00:00,1075A,115.6303,37.7316,衡水市,市监测站,颗粒物(PM10),81,111,103,48,51,87,61,75,71,63,64,11,11,0.7,0.7
2023-10-22T23:00:00,1077A,114.4704,37.0886,邢台市,达活泉,颗粒物(PM10),72,94,69,43,32,118,22,92,59,77,45,5,8,1.1,1.1
2023-10-22T23:00:00,1078A,114.5062,37.0349,邢台市,邢师高专,颗粒物(PM10),75,100,76,51,35,118,3,82,52,91,50,3,7,0.9,0.8
2023-10-22T23:00:00,1079A,114.5237,37.0851,邢台市,路桥公司,细颗粒物(PM2.5),94,106,73,70,44,108,2,86,63,106,55,7,9,1.4,0.9
2023-10-22T23:00:00,1080A,114.4725,37.0719,邢台市,市环保局,,,100,65,44,32,120,24,95,67,,39,7,9,1.0,1.1
2023-10-22T23:00:00,1081A,112.522,37.8873,太原市,尖草坪,颗粒物(PM10),79,107,82,55,41,106,5,79,45,97,63,7,12,0.9,0.9
2023-10-22T23:00:00,1083A,112.434,38.0108,太原市,上兰,,,,,,,,,,,,,,,,
2023-10-22T23:00:00,1084A,112.469,37.7124,太原市,晋源,细颗粒物(PM2.5),73,83,71,53,40,115,8,79,52,90,57,6,8,1.2,0.9
2023-10-22T23:00:00,1085A,112.5583,37.7394,太原市,小店,颗粒物(PM10),98,146,109,56,47,115,4,80,41,98,68,13,16,1.2,1
2023-10-22T23:00:00,1086A,112.5369,37.8692,太原市,桃园,颗粒物(PM10),89,127,91,63,40,99,4,74,40,99,70,7,15,1.4,1.1
2023-10-22T23:00:00,1087A,112.57,37.8195,太原市,坞城,颗粒物(PM10),81,112,90,48,43,96,5,39,24,92,70,2,8,1.5,1.2
2023-10-22T23:00:00,1088A,112.549,37.9854,太原市,南寨,颗粒物(PM10),81,111,85,47,40,111,5,74,43,66,50,4,11,0.5,0.9
2023-10-22T23:00:00,1090A,111.6507,40.7517,呼和浩特市,呼市一监,细颗粒物(PM2.5),232,229,114,182,74,100,15,81,51,95,61,14,14,1.2,0.8
2023-10-22T23:00:00,1091A,111.6572,40.8033,呼和浩特市,小召,细颗粒物(PM2.5),92,129,100,68,59,87,4,71,47,107,66,14,13,1.2,0.9
2023-10-22T23:00:00,1094A,111.7516,40.8369,呼和浩特市,如意水处理厂,颗粒物(PM10),77,104,93,54,54,101,4,88,50,94,63,16,16,0.8,0.7
2023-10-22T23:00:00,1095A,111.7276,40.8062,呼和浩特市,二十九中,颗粒物(PM10),105,159,98,77,62,101,6,87,51,93,62,12,14,0.9,0.8
2023-10-22T23:00:00,1096A,111.5512,40.7866,呼和浩特市,工大金川校区,颗粒物(PM10),71,91,97,49,55,102,2,84,42,119,74,10,12,0.7,0.7
2023-10-22T23:00:00,1097A,111.717,40.7612,呼和浩特市,化肥厂生活区,细颗粒物(PM2.5),134,196,119,102,65,91,3,75,36,61,48,12,15,1.2,0.8
2023-10-22T23:00:00,1098A,123.6836,41.9339,沈阳市,森林路,,,,,,,,,,,,,,,,
2023-10-22T23:00:00,1099A,123.505,41.7406,沈阳市,浑南东路,颗粒物(PM10),66,82,50,39,22,73,4,60,22,60,41,10,22,0.7,0.7
2023-10-22T23:00:00,1100A,123.4231,41.6989,沈阳市,新秀街,颗粒物(PM10),104,157,59,77,25,76,6,57,18,71,49,16,29,1.1,0.8
2023-10-22T23:00:00,1102A,123.5903,41.8411,沈阳市,东陵路,颗粒物(PM10),87,124,45,60,19,76,10,67,32,55,33,14,14,1.3,0.7
2023-10-22T23:00:00,1103A,123.4264,41.8467,沈阳市,陵东街,颗粒物(PM10),90,130,57,60,26,80,5,66,28,72,36,9,12,1.5,0.9
2023-10-22T23:00:00,1104A,123.4114,41.7653,沈阳市,文化路,颗粒物(PM10),90,129,63,61,30,78,7,66,33,75,38,14,18,1.6,1.1
2023-10-22T23:00:00,1105A,123.4678,41.7867,沈阳市,小河沿,颗粒物(PM10),93,136,52,66,23,75,6,63,29,67,40,8,15,1.3,0.9
2023-10-22T23:00:00,1106A,123.4017,41.7972,沈阳市,太原街,细颗粒物(PM2.5),93,106,53,69,31,75,5,56,15,77,46,8,13,1.2,0.8
2023-10-22T23:00:00,1108A,123.3783,41.9228,沈阳市,京沈街,颗粒物(PM10),68,86,48,45,25,84,5,73,34,72,30,11,16,0.9,0.8
2023-10-22T23:00:00,1109A,121.612,38.9741,大连市,甘井子,细颗粒物(PM2.5),122,159,90,92,39,146,121,129,126,28,29,9,8,0.8,0.7
2023-10-22T23:00:00,1110A,121.565,38.9511,大连市,周水子,细颗粒物(PM2.5),109,140,73,82,36,145,114,132,130,32,25,,12,1.1,0.9
2023-10-22T23:00:00,1111A,121.5637,38.8845,大连市,星海三站,细颗粒物(PM2.5),115,144,73,87,38,149,117,129,120,25,22,10,10,0.8,0.6
2023-10-22T23:00:00,1112A,121.6302,38.9117,大连市,青泥洼桥,细颗粒物(PM2.5),107,132,74,80,39,137,117,123,123,17,23,9,10,0.9,0.8
2023-10-22T23:00:00,1113A,121.6251,38.8638,大连市,傅家庄,颗粒物(PM10),106,161,90,78,41,155,126,143,143,21,20,15,12,0.8,0.7
2023-10-22T23:00:00,1114A,121.5213,38.8661,大连市,七贤岭,细颗粒物(PM2.5),147,151,81,112,50,167,51,137,106,47,29,5,8,1.1,0.7
2023-10-22T23:00:00,1115A,121.2529,38.8061,大连市,旅顺,颗粒物(PM10),90,130,81,64,39,160,140,144,142,16,24,11,11,0.9,0.7
2023-10-22T23:00:00,1116A,121.7485,39.1311,大连市,金州,细颗粒物(PM2.5),127,,116,96,45,162,96,130,123,25,27,10,10,0.8,0.6
2023-10-22T23:00:00,1117A,121.7811,39.0496,大连市,开发区,细颗粒物(PM2.5),133,158,73,101,45,145,30,113,82,92,53,10,10,1.2,0.7
2023-10-22T23:00:00,1118A,121.9762,39.0631,大连市,双D港,细颗粒物(PM2.5),97,82,51,72,32,146,139,126,126,20,27,9,9,0.8,0.6
2023-10-22T23:00:00,1119A,125.3325,43.9166,长春市,食品厂,颗粒物(PM10),101,152,63,61,25,62,8,51,17,65,37,10,9,1.3,0.7
2023-10-22T23:00:00,1120A,125.2863,43.9027,长春市,客车厂,细颗粒物(PM2.5),103,108,54,77,27,61,11,50,18,63,36,10,13,1.7,0.8
2023-10-22T23:00:00,1121A,125.2841,43.8463,长春市,邮电学院,细颗粒物(PM2.5),103,127,54,77,28,74,10,61,26,59,32,7,9,1.3,0.4
2023-10-22T23:00:00,1122A,125.3716,43.8772,长春市,劳动公园,颗粒物(PM10),106,162,56,65,21,44,9,36,19,60,36,8,7,2.0,0.7
2023-10-22T23:00:00,1123A,125.3297,43.8805,长春市,园林处,颗粒物(PM10),77,104,43,52,16,61,11,51,23,58,33,10,14,1.4,0.6
2023-10-22T23:00:00,1124A,125.4605,43.79,长春市,净月潭,,42,42,35,20,13,70,26,56,39,20,20,7,9,0.4,0.4
2023-10-22T23:00:00,1125A,125.7194,43.515,长春市,甩湾子,,,,,,,,,,,,,,,,
2023-10-22T23:00:00,1126A,125.3863,43.8447,长春市,经开区环卫处,颗粒物(PM10),108,165,62,58,21,69,7,56,24,53,32,9,9,1.1,0.6
2023-10-22T23:00:00,1127A,125.245,43.7783,长春市,高新区管委会,细颗粒物(PM2.5),109,97,48,82,31,73,,57,24,47,29,7,8,0.9,0.5
2023-10-22T23:00:00,1128A,125.1761,43.8325,长春市,岱山公园,颗粒物(PM10),71,92,52,45,20,70,6,57,18,66,33,7,7,0.7,0.5
2023-10-22T23:00:00,1129A,126.5422,45.755,哈尔滨市,岭北,,28,28,36,10,12,64,46,56,36,16,18,8,8,0.1,0.3
2023-10-22T23:00:00,1130A,126.561,45.8167,哈尔滨市,松北商大,,28,28,34,10,11,55,28,48,25,28,28,7,8,0.5,0.5
2023-10-22T23:00:00,1131A,126.979,45.5419,哈尔滨市,阿城会宁,颗粒物(PM10),58,65,45,33,21,53,11,47,25,36,22,6,7,0.7,0.8
2023-10-22T23:00:00,1132A,126.599,45.7222,哈尔滨市,南岗学府路,,39,39,40,12,11,55,24,48,33,33,22,9,8,0.5,0.5
2023-10-22T23:00:00,1133A,126.689,45.7733,哈尔滨市,太平宏伟公园,,31,31,34,16,14,55,19,49,30,43,26,7,7,0.9,0.8
2023-10-22T23:00:00,1134A,126.635,45.7667,哈尔滨市,道外承德广场,,34,34,34,19,19,53,11,47,20,54,32,7,5,0.6,0.5
2023-10-22T23:00:00,1135A,126.685,45.7319,哈尔滨市,香坊红旗大街,,45,45,37,21,17,64,7,52,31,60,29,13,9,0.8,0.6
2023-10-22T23:00:00,1136A,126.6411,45.7258,哈尔滨市,动力和平路,,38,38,34,14,17,52,11,45,26,48,28,11,11,0.6,0.5
2023-10-22T23:00:00,1137A,126.593,45.7478,哈尔滨市,道里建国路,,30,30,43,21,17,57,22,50,25,38,30,10,10,0.4,0.4
2023-10-22T23:00:00,1138A,126.615,45.61,哈尔滨市,平房东轻厂,,34,34,41,19,16,60,14,52,24,44,28,13,10,0.3,0.3
2023-10-22T23:00:00,1139A,126.595,45.9855,哈尔滨市,呼兰师专,,25,25,32,8,14,63,51,54,40,18,22,6,6,0.4,0.5
2023-10-22T23:00:00,1140A,126.6206,45.6842,哈尔滨市,省农科院,,34,34,35,13,16,63,19,55,26,42,29,8,5,0.3,0.3
2023-10-22T23:00:00,1141A,121.4,31.238,上海市,普陀,,34,34,39,12,14,105,62,99,87,45,32,5,6,0.6,0.6
2023-10-22T23:00:00,1142A,121.478,31.2036,上海市,十五厂,,32,32,41,14,18,115,67,106,90,44,39,6,6,0.5,0.5
2023-10-22T23:00:00,1143A,121.467,31.3008,上海市,虹口,,34,34,39,15,19,114,67,107,96,49,46,5,5,0.6,0.6
2023-10-22T23:00:00,1144A,121.412,31.1654,上海市,徐汇上师大,,37,37,40,16,18,117,64,108,88,45,39,8,9,0.7,0.7
2023-10-22T23:00:00,1145A,121.536,31.2659,上海市,杨浦四漂,,50,50,53,17,22,111,46,96,69,65,61,8,8,0.5,0.4
2023-10-22T23:00:00,1147A,121.425,31.2261,上海市,静安监测站,,31,31,38,14,18,116,75,104,100,40,34,5,5,0.5,0.5
2023-10-22T23:00:00,1148A,121.703,31.1907,上海市,浦东川沙,,29,29,41,9,18,123,68,113,95,30,35,6,7,0.5,0.6
2023-10-22T23:00:00,1149A,121.533,31.2284,上海市,浦东新区监测站,,30,30,36,9,15,115,77,107,98,31,37,7,8,0.6,0.7
2023-10-22T23:00:00,1150A,121.577,31.2071,上海市,浦东张江,,33,33,43,10,16,110,74,103,94,27,34,5,5,0.5,0.5
2023-10-22T23:00:00,1151A,118.8086,32.1065,南京市,迈皋桥,颗粒物(PM10),65,80,63,29,25,148,4,128,55,96,57,4,4,0.8,0.5
2023-10-22T23:00:00,1152A,118.7538,32.0551,南京市,草场门,颗粒物(PM10),64,78,56,39,29,136,7,120,67,98,51,3,6,1.2,0.6
2023-10-22T23:00:00,1153A,118.7794,32.0745,南京市,山西路,颗粒物(PM10),57,63,59,31,28,151,5,135,75,89,44,6,8,1.3,0.8
2023-10-22T23:00:00,1154A,118.7752,32.0023,南京市,中华门,颗粒物(PM10),71,92,65,36,28,149,2,129,76,120,62,5,7,1.1,0.9
2023-10-22T23:00:00,1155A,118.8109,32.0309,南京市,瑞金路,颗粒物(PM10),53,56,58,31,28,137,7,114,50,89,55,4,6,0.9,0.6
2023-10-22T23:00:00,1156A,118.7997,32.0754,南京市,玄武湖,颗粒物(PM10),51,52,49,25,25,138,5,122,59,71,45,4,7,0.9,0.7
2023-10-22T23:00:00,1157A,118.6414,32.0931,南京市,浦口,,42,42,51,19,24,145,78,124,106,31,41,8,7,0.7,0.7
2023-10-22T23:00:00,1158A,118.7356,31.9996,南京市,奥体中心,颗粒物(PM10),63,75,71,39,34,145,8,126,59,94,67,8,11,1.4,0.7
2023-10-22T23:00:00,1159A,118.9125,32.1028,南京市,仙林大学城,,46,46,43,29,25,138,17,131,74,61,39,3,3,0.8,0.7
2023-10-22T23:00:00,1160A,120.561,31.2472,苏州市,上方山,,36,30,49,25,28,142,67,122,100,27,43,5,5,0.6,0.7
2023-10-22T23:00:00,1162A,120.591,31.3019,苏州市,彩香,,31,31,53,13,26,131,72,120,106,29,45,6,8,0.6,0.8
2023-10-22T23:00:00,1163A,120.596,31.3264,苏州市,轧钢厂,,41,41,59,15,28,132,58,118,100,36,39,14,15,0.7,1
2023-10-22T23:00:00,1164A,120.613,31.2703,苏州市,吴中区,,,33,58,13,25,130,,119,,37,53,8,10,0.6,0.8
2023-10-22T23:00:00,1165A,120.543,31.2994,苏州市,苏州新区,,29,29,56,13,30,150,82,127,111,36,56,8,10,0.7,0.9
2023-10-22T23:00:00,1166A,120.669,31.3097,苏州市,苏州工业园区,,34,34,48,14,25,128,72,118,104,37,54,8,10,0.7,0.9
2023-10-22T23:00:00,1167A,120.641,31.3708,苏州市,相城区,,31,31,50,13,27,127,56,110,82,48,58,9,10,0.6,0.7
2023-10-22T23:00:00,1168A,120.9098,31.9663,南通市,狼山街道,,23,23,38,12,18,127,48,106,88,32,35,6,6,0.3,0.4
2023-10-22T23:00:00,1169A,120.86,32.0005,南通市,虹桥,,44,44,44,24,22,134,59,112,99,44,31,6,6,0.6,0.6
2023-10-22T23:00:00,1170A,120.87,32.02,南通市,城中,,36,36,39,22,22,125,60,105,92,39,31,7,7,0.4,0.5
2023-10-22T23:00:00,1171A,120.94,31.93,南通市,星湖花园,,35,35,39,21,18,120,56,104,85,37,26,6,6,0.5,0.6
2023-10-22T23:00:00,1172A,120.81,32.0417,南通市,紫琅学院,,35,35,41,13,15,112,57,99,88,39,37,7,8,0.3,0.3
2023-10-22T23:00:00,1173A,119.176,34.5885,连云港市,市环境监测站,细颗粒物(PM2.5),94,105,89,70,58,127,59,109,82,50,44,10,10,0.8,0.8
2023-10-22T23:00:00,1177A,117.179,34.2761,徐州市,黄河新村,细颗粒物(PM2.5),105,114,107,79,80,148,16,122,68,85,58,8,10,0.6,0.6
2023-10-22T23:00:00,1178A,117.1918,34.2384,徐州市,淮塔,细颗粒物(PM2.5),98,122,120,73,81,147,4,126,58,86,59,10,10,0.6,0.8
2023-10-22T23:00:00,1180A,117.256,34.2153,徐州市,新城区,细颗粒物(PM2.5),94,125,117,70,76,142,34,120,68,85,64,12,10,0.7,0.6
2023-10-22T23:00:00,1181A,117.244,34.2911,徐州市,桃园路,细颗粒物(PM2.5),85,105,111,63,69,149,50,125,80,59,49,16,15,0.7,0.7
2023-10-22T23:00:00,1182A,117.2933,34.2778,徐州市,农科院,细颗粒物(PM2.5),80,92,96,59,69,148,60,128,91,56,50,15,11,0.6,0.6
2023-10-22T23:00:00,1186A,119.389,32.3761,扬州市,邗江监测站,颗粒物(PM10),84,117,75,36,33,178,2,157,110,124,60,6,8,0.7,0.4
2023-10-22T23:00:00,1188A,120.269,31.4867,无锡市,雪浪,颗粒物(PM10),56,61,53,24,25,155,50,129,97,40,29,6,6,0.8,0.8
2023-10-22T23:00:00,1189A,120.275,31.6219,无锡市,黄巷,颗粒物(PM10),58,66,80,24,30,131,56,116,72,63,71,9,9,0.9,1
2023-10-22T23:00:00,1190A,120.294,31.56,无锡市,曹张,,43,43,52,24,33,136,55,120,94,54,60,8,10,0.9,1
2023-10-22T23:00:00,1191A,120.242,31.5031,无锡市,漆塘,颗粒物(PM10),51,51,46,27,27,158,39,130,93,49,35,7,8,0.8,0.7
2023-10-22T23:00:00,1192A,120.3489,31.5863,无锡市,东亭,,41,41,58,19,29,144,68,130,94,52,58,6,7,0.9,1
2023-10-22T23:00:00,1193A,120.354,31.5475,无锡市,旺庄,,41,41,58,17,30,139,54,129,92,67,67,6,7,0.8,1
2023-10-22T23:00:00,1194A,120.245,31.5631,无锡市,荣巷,,36,36,37,17,24,152,34,131,99,48,36,7,9,0.9,0.9
2023-10-22T23:00:00,1195A,120.299,31.6817,无锡市,堰桥,,48,48,59,22,30,134,48,118,84,60,47,7,8,0.7,0.9
2023-10-22T23:00:00,1196A,119.9633,31.762,常州市,市监测站,细颗粒物(PM2.5),98,129,85,73,54,147,30,136,93,102,67,9,10,0.9,0.8
2023-10-22T23:00:00,1200A,119.9468,31.7069,常州市,武进监测站,"颗粒物(PM10),细颗粒物(PM2.5)",80,110,80,59,44,153,90,139,115,43,53,8,9,0.8,0.8
2023-10-22T23:00:00,1201A,119.9255,31.9087,常州市,安家,,,105,82,,48,150,28,134,82,82,56,7,8,1.0,0.9
2023-10-22T23:00:00,1203A,119.6707,32.1875,镇江市,新区办事处,颗粒物(PM10),65,79,64,42,40,162,38,142,69,61,60,6,8,0.6,0.5
2023-10-22T23:00:00,1204A,119.4974,32.1968,镇江市,职教中心,细颗粒物(PM2.5),92,87,63,68,48,172,75,150,106,50,47,10,9,0.7,0.6
2023-10-22T23:00:00,1205A,119.4303,32.1328,镇江市,丹徒区监测站,细颗粒物(PM2.5),83,82,80,61,47,156,85,135,102,43,46,8,8,0.6,0.6
2023-10-22T23:00:00,1206A,119.905,32.4878,泰州市,公园路,细颗粒物(PM2.5),70,73,64,51,40,170,49,144,103,38,36,9,11,0.7,0.7
2023-10-22T23:00:00,1207A,119.9189,32.4625,泰州市,莲花,细颗粒物(PM2.5),77,95,76,56,43,176,53,148,112,39,38,8,8,0.7,0.7
2023-10-22T23:00:00,1209A,119.888,32.4639,泰州市,留学生创业园,颗粒物(PM10),73,95,76,51,41,175,57,149,114,35,34,10,10,0.8,0.7
2023-10-22T23:00:00,1210A,119.036,33.5981,淮安市,钵池山,细颗粒物(PM2.5),74,68,53,54,38,164,53,146,110,84,30,8,10,0.9,0.7
2023-10-22T23:00:00,1211A,119.007,33.575,淮安市,北京南路,细颗粒物(PM2.5),93,114,67,69,40,174,9,148,88,97,46,6,9,1.4,0.7
2023-10-22T23:00:00,1212A,118.989,33.6067,淮安市,市监测站,细颗粒物(PM2.5),110,124,75,83,44,179,2,145,67,105,44,10,15,1.3,0.8
2023-10-22T23:00:00,1213A,119.135,33.5039,淮安市,楚州区监测站,细颗粒物(PM2.5),79,93,60,58,40,169,0,150,92,128,52,6,8,1.0,0.8
2023-10-22T23:00:00,1214A,119.0186,33.6297,淮安市,淮阴区监测站,颗粒物(PM10),95,139,81,66,40,173,4,142,89,115,44,7,12,1.4,0.9
2023-10-22T23:00:00,1215A,120.118,33.4022,盐城市,盐城电厂,颗粒物(PM10),52,53,67,27,31,167,64,144,96,28,34,7,9,0.6,0.7
2023-10-22T23:00:00,1216A,120.156,33.3942,盐城市,市监测站,细颗粒物(PM2.5),52,47,52,36,34,172,73,154,102,35,41,8,10,0.5,0.8
2023-10-22T23:00:00,1218A,120.2144,33.38,盐城市,开发区管委会,颗粒物(PM10),68,86,75,29,29,169,19,152,92,85,44,8,11,0.5,0.7
2023-10-22T23:00:00,1220A,118.293,33.9528,宿迁市,宿迁学院,细颗粒物(PM2.5),73,83,64,53,41,138,63,120,91,99,43,10,10,0.5,0.3
2023-10-22T23:00:00,1221A,118.2442,33.9592,宿迁市,宿迁中学,细颗粒物(PM2.5),77,99,82,56,46,126,112,118,110,38,32,10,10,0.9,0.7
2023-10-22T23:00:00,1223A,120.2072,30.2111,杭州市,滨江,颗粒物(PM10),56,62,63,23,26,150,63,128,108,52,49,7,7,0.6,0.6
2023-10-22T23:00:00,1224A,120.0633,30.2747,杭州市,西溪,,50,50,46,32,31,132,6,108,72,52,35,5,5,0.7,0.6
2023-10-22T23:00:00,1226A,120.3461,30.3153,杭州市,下沙,二氧化氮,55,43,63,24,40,147,3,131,99,110,68,8,9,0.5,0.7
2023-10-22T23:00:00,1227A,120.1269,30.2456,杭州市,卧龙桥,,43,43,45,24,29,147,16,111,56,23,26,4,4,0.7,0.7
2023-10-22T23:00:00,1228A,120.1903,30.2692,杭州市,浙江农大,,42,42,42,21,26,126,32,111,87,56,40,6,6,0.7,0.7
2023-10-22T23:00:00,1230A,120.1197,30.3119,杭州市,和睦小学,,49,49,48,33,32,141,9,120,86,97,47,8,9,0.7,0.6
2023-10-22T23:00:00,1231A,120.3019,30.4183,杭州市,临平镇,颗粒物(PM10),53,55,66,27,35,139,61,124,106,37,54,5,6,0.5,0.6
2023-10-22T23:00:00,1232A,120.2697,30.1819,杭州市,城厢镇,细颗粒物(PM2.5),60,60,56,43,36,132,33,118,91,65,44,8,7,0.8,0.7
2023-10-22T23:00:00,1233A,120.0883,30.1808,杭州市,云栖,,40,40,48,22,30,142,28,115,71,33,31,6,7,0.6,0.6
2023-10-22T23:00:00,1234A,121.8358,29.911,宁波市,区环保大楼,,19,19,21,11,16,114,58,97,72,33,37,4,5,0.5,0.6
2023-10-22T23:00:00,1235A,121.56,29.82,宁波市,万里学院,,35,35,43,15,18,115,24,105,76,62,27,8,9,0.5,0.6
2023-10-22T23:00:00,1236A,121.713,29.9572,宁波市,龙赛医院,,21,16,41,10,18,115,53,101,83,41,39,5,6,0.3,0.4
2023-10-22T23:00:00,1239A,121.633,29.7733,宁波市,钱湖水厂,,23,13,34,8,22,116,73,104,85,7,16,6,7,0.3,0.4
2023-10-22T23:00:00,1240A,121.5856,29.8635,宁波市,太古小学,,26,26,36,11,16,115,53,105,82,34,31,7,8,0.6,0.7
2023-10-22T23:00:00,1241A,121.524,29.8674,宁波市,市环境监测中心,,25,25,29,13,15,114,50,105,79,34,27,6,7,0.4,0.6
2023-10-22T23:00:00,1242A,120.634,28.0089,温州市,瓯海,颗粒物(PM10),58,66,39,34,18,106,17,94,73,54,30,6,7,0.7,0.5
2023-10-22T23:00:00,1243A,120.6748,27.9939,温州市,南浦,,31,31,35,13,15,104,69,95,83,27,20,6,7,0.3,0.3
2023-10-22T23:00:00,1244A,120.76,27.9747,温州市,龙湾,,50,50,26,27,14,102,22,96,75,61,25,5,5,0.5,0.4
2023-10-22T23:00:00,1245A,120.6709,28.0167,温州市,市站,颗粒物(PM10),66,82,43,30,14,106,31,95,72,43,22,6,7,0.5,0.4
2023-10-22T23:00:00,1247A,120.6053,29.9928,绍兴市,城东开发委,细颗粒物(PM2.5),72,85,47,52,26,124,36,112,76,32,27,7,8,0.7,0.6
2023-10-22T23:00:00,1250A,120.0751,30.8669,湖州市,城西水厂,颗粒物(PM10),53,56,67,29,35,144,47,122,95,86,61,5,5,0.5,0.5
2023-10-22T23:00:00,1252A,120.7436,30.778,嘉兴市,清河小学,,38,38,45,16,20,139,60,130,99,35,39,5,6,0.4,0.7
2023-10-22T23:00:00,1253A,120.726,30.7478,嘉兴市,嘉兴学院,,50,50,47,27,24,134,33,123,95,48,38,6,6,0.6,0.6
2023-10-22T23:00:00,1255A,121.273,28.6459,台州市,黄岩环保大楼,颗粒物(PM10),57,63,34,29,16,109,19,95,65,45,24,6,6,0.6,0.4
2023-10-22T23:00:00,1256A,121.419,28.6542,台州市,台州环保大楼,,49,34,35,34,24,106,36,96,66,27,22,4,5,0.4,0.4
2023-10-22T23:00:00,1257A,121.377,28.5773,台州市,路桥田洋王,细颗粒物(PM2.5),63,65,43,45,25,103,17,91,56,46,28,7,7,0.5,0.4
2023-10-22T23:00:00,1258A,122.122,30.0203,舟山市,定海檀枫,,16,15,17,6,8,119,51,112,79,17,13,6,6,0.3,0.3
2023-10-22T23:00:00,1259A,122.3094,29.9558,舟山市,普陀东港,,22,21,22,15,12,109,53,103,79,16,10,5,5,0.3,0.3
2023-10-22T23:00:00,1260A,122.19,29.9944,舟山市,临城新区,,23,23,21,13,10,111,38,104,73,22,16,4,4,0.3,0.2
2023-10-22T23:00:00,1262A,119.647,29.077,金华市,十五中,,36,28,37,25,28,140,47,115,66,38,44,5,5,0.5,0.6
2023-10-22T23:00:00,1263A,119.686,29.1029,金华市,监测站,颗粒物(PM10),51,51,51,28,28,130,12,112,60,68,48,4,6,0.7,0.6
2023-10-22T23:00:00,1264A,118.8692,28.9398,衢州市,环保大楼,颗粒物(PM10),54,58,53,37,27,115,34,101,70,36,30,6,5,0.7,0.6
2023-10-22T23:00:00,1265A,118.8709,28.9666,衢州市,实验学校,,49,49,47,28,27,122,36,106,77,40,31,4,5,0.6,0.6
2023-10-22T23:00:00,1266A,118.8621,28.9808,衢州市,衢州学院,颗粒物(PM10),51,51,47,32,27,116,35,98,70,40,34,6,6,0.5,0.5
2023-10-22T23:00:00,1267A,119.914,28.4514,丽水市,监测站大楼,,25,25,32,16,20,95,40,84,62,28,21,6,8,0.3,0.3
2023-10-22T23:00:00,1268A,119.93,28.4586,丽水市,莲都小学,,26,26,35,16,21,100,41,91,65,23,19,6,7,0.3,0.3
2023-10-22T23:00:00,1269A,119.879,28.4231,丽水市,余庄前,,28,28,29,14,14,98,20,80,51,24,18,5,6,0.2,0.3
2023-10-22T23:00:00,1270A,117.1959,31.7848,合肥市,明珠广场,颗粒物(PM10),82,114,73,44,31,132,1,119,70,107,65,11,11,1.1,0.7
2023-10-22T23:00:00,1271A,117.3072,31.8764,合肥市,三里街,颗粒物(PM10),70,90,78,48,39,125,3,102,69,126,73,8,9,0.9,0.6
2023-10-22T23:00:00,1272A,117.2588,31.8707,合肥市,琥珀山庄,"颗粒物(PM10),细颗粒物(PM2.5)",64,78,64,46,33,134,8,110,70,98,62,5,7,1.2,0.7
2023-10-22T23:00:00,1273A,117.1604,31.9052,合肥市,董铺水库,,44,44,62,14,22,137,8,119,83,48,42,3,5,0.4,0.5
2023-10-22T23:00:00,1274A,117.25,31.8571,合肥市,长江中路,细颗粒物(PM2.5),89,110,75,66,44,129,14,108,74,92,63,10,11,1.1,0.7
2023-10-22T23:00:00,1275A,117.266,31.9436,合肥市,庐阳区,细颗粒物(PM2.5),77,102,83,56,40,131,11,114,73,117,62,5,6,0.9,0.7
2023-10-22T23:00:00,1276A,117.336,31.8586,合肥市,瑶海区,颗粒物(PM10),75,100,91,34,39,119,4,99,56,134,78,6,8,0.7,0.6
2023-10-22T23:00:00,1277A,117.3027,31.7964,合肥市,包河区,颗粒物(PM10),76,102,83,51,38,138,3,112,50,128,75,15,12,0.7,0.5
2023-10-22T23:00:00,1278A,117.2776,31.7385,合肥市,滨湖新区,二氧化氮,61,63,60,41,29,146,1,125,98,122,53,7,7,0.7,0.4
2023-10-22T23:00:00,1279A,117.1318,31.8403,合肥市,高新区,颗粒物(PM10),59,68,61,36,30,130,10,114,86,101,57,10,9,0.9,0.7
2023-10-22T23:00:00,1280A,119.3903,26.0543,福州市,鼓山,,,,,,,,,,,,,,,,
2023-10-22T23:00:00,1282A,119.2681,26.0504,福州市,师大,,35,35,29,0,6,78,29,68,50,21,13,4,5,0.5,0.5
2023-10-22T23:00:00,1283A,119.2984,26.1028,福州市,五四北路,,35,35,28,16,10,87,26,73,53,33,13,3,3,0.6,0.5
2023-10-22T23:00:00,1284A,119.2648,26.0768,福州市,杨桥西路,,27,27,30,3,10,74,48,66,55,15,14,3,3,0.4,0.5
2023-10-22T23:00:00,1285A,119.317,26.0746,福州市,紫阳,,33,33,30,14,11,84,48,69,59,14,11,4,5,0.4,0.4
2023-10-22T23:00:00,1286A,118.1608,24.8169,厦门市,溪东,,,,,,,,,,,,,,,,
2023-10-22T23:00:00,1287A,118.1514,24.4767,厦门市,洪文,,26,26,27,12,13,86,58,78,59,7,8,1,2,0.3,0.3
2023-10-22T23:00:00,1288A,118.0661,24.4444,厦门市,鼓浪屿,,20,20,22,9,10,85,54,75,52,11,8,2,2,0.4,0.5
2023-10-22T23:00:00,1290A,115.8931,28.6843,南昌市,省外办,颗粒物(PM10),74,98,68,48,33,134,20,116,85,66,36,5,7,0.7,0.6
2023-10-22T23:00:00,1291A,115.8886,28.7003,南昌市,省林业公司,颗粒物(PM10),65,80,64,34,31,147,27,124,91,77,43,7,8,0.4,0.3
2023-10-22T23:00:00,1292A,115.8126,28.7442,南昌市,林科所,,46,46,48,31,24,154,90,133,112,20,35,8,9,0.5,0.4
2023-10-22T23:00:00,1294A,115.8518,28.687,南昌市,建工学校,颗粒物(PM10),72,94,58,38,30,140,46,126,96,64,46,11,11,0.6,0.6
2023-10-22T23:00:00,1295A,115.8921,28.6424,南昌市,象湖,颗粒物(PM10),58,66,55,36,36,158,52,137,104,51,41,9,11,0.7,0.7
2023-10-22T23:00:00,1296A,115.7423,28.7996,南昌市,武术学校,,19,17,19,13,11,146,31,118,76,8,10,3,3,0.3,0.3
2023-10-22T23:00:00,1298A,115.9314,28.6842,南昌市,省站,"颗粒物(PM10),细颗粒物(PM2.5)",67,84,73,48,34,146,52,126,96,43,36,8,10,0.5,0.4
2023-10-22T23:00:00,1299A,116.9862,36.6114,济南市,科干所,颗粒物(PM10),57,63,75,29,34,149,141,144,143,16,19,7,9,0.4,0.5
2023-10-22T23:00:00,1300A,116.9376,36.665,济南市,农科所,颗粒物(PM10),59,68,84,27,35,131,102,119,103,32,33,5,8,0.6,0.6
2023-10-22T23:00:00,1301A,117.1265,36.6734,济南市,开发区,颗粒物(PM10),55,59,66,32,32,140,126,134,123,25,27,8,9,0.5,0.5
2023-10-22T23:00:00,1303A,117.0624,36.6868,济南市,省种子仓库,颗粒物(PM10),59,68,75,34,38,144,134,137,121,19,23,6,8,0.5,0.5
2023-10-22T23:00:00,1304A,116.9489,36.6447,济南市,机床二厂,颗粒物(PM10),62,73,86,39,41,139,126,126,112,26,37,5,8,0.4,0.5
2023-10-22T23:00:00,1305A,117.0495,36.663,济南市,市监测站,颗粒物(PM10),55,59,70,27,30,145,142,139,132,30,34,7,9,0.7,0.7
2023-10-22T23:00:00,1306A,116.7675,36.5484,济南市,长清党校,颗粒物(PM10),66,81,89,34,45,148,128,136,134,26,28,8,11,0.5,0.5
2023-10-22T23:00:00,1307A,120.6659,36.2403,青岛市,仰口,细颗粒物(PM2.5),64,75,60,46,29,149,136,141,140,17,20,8,7,0.5,0.5
2023-10-22T23:00:00,1310A,120.4134,36.0658,青岛市,市南区东部子站,颗粒物(PM10),63,75,69,34,29,160,117,147,140,24,33,11,14,0.5,0.7
2023-10-22T23:00:00,1311A,120.3664,36.1032,青岛市,四方区子站,颗粒物(PM10),62,73,72,41,32,117,84,106,101,32,44,5,7,0.7,1
2023-10-22T23:00:00,1312A,120.2994,36.054,青岛市,市南区西部子站,颗粒物(PM10),60,70,62,34,28,149,106,111,,33,44,10,14,0.5,0.8
2023-10-22T23:00:00,1313A,120.4581,36.0858,青岛市,崂山区子站,颗粒物(PM10),63,75,64,39,33,168,114,152,143,29,31,9,12,0.6,0.8
2023-10-22T23:00:00,1314A,120.1983,35.9608,青岛市,黄岛区子站,细颗粒物(PM2.5),70,85,71,51,39,158,96,140,130,42,35,12,13,0.6,0.7
2023-10-22T23:00:00,1315A,120.3999,36.3083,青岛市,城阳区子站,颗粒物(PM10),73,95,84,44,33,148,88,126,103,50,59,9,11,0.9,0.9
2023-10-22T23:00:00,1316A,113.69031,34.76122,郑州市,烟厂,颗粒物(PM10),63,76,64,32,27,127,51,114,86,46,36,8,9,0.6,0.6
2023-10-22T23:00:00,1317A,113.65724,34.77134,郑州市,郑纺机,颗粒物(PM10),56,62,63,21,22,128,47,112,83,61,47,8,9,0.7,0.7
2023-10-22T23:00:00,1318A,113.67526,34.80246,郑州市,银行学校,颗粒物(PM10),52,54,55,22,27,131,68,116,97,38,40,6,9,0.5,0.5
2023-10-22T23:00:00,1319A,113.56746,34.81334,郑州市,供水公司,,49,49,68,21,32,135,64,112,90,38,41,11,12,0.8,0.9
2023-10-22T23:00:00,1320A,113.7329,34.7178,郑州市,经开区管委,颗粒物(PM10),60,70,61,27,22,132,34,117,84,64,45,8,9,0.5,0.5
2023-10-22T23:00:00,1321A,113.73961,34.77172,郑州市,四十七中,颗粒物(PM10),57,63,54,19,22,134,60,123,98,48,41,6,7,0.7,0.7
2023-10-22T23:00:00,1322A,113.60532,34.74838,郑州市,市监测站,颗粒物(PM10),56,61,73,23,28,126,66,112,91,38,44,9,8,0.4,0.5
2023-10-22T23:00:00,1323A,113.64164,34.7525,郑州市,河医大,颗粒物(PM10),56,62,62,20,26,128,61,112,88,42,34,12,11,0.7,0.7
2023-10-22T23:00:00,1324A,113.51488,34.91089,郑州市,岗李水库,,,,,,,,,,,,,,,,
2023-10-22T23:00:00,1325A,114.3677,30.5584,武汉市,东湖梨园,颗粒物(PM10),54,58,45,24,30,160,71,148,120,31,39,9,12,0.8,0.7
2023-10-22T23:00:00,1326A,114.2529,30.558,武汉市,汉阳月湖,"二氧化氮,颗粒物(PM10)",59,68,52,34,32,140,8,119,70,118,62,8,10,1.0,0.8
2023-10-22T23:00:00,1327A,114.282,30.6189,武汉市,汉口花桥,细颗粒物(PM2.5),70,83,59,51,38,151,5,133,63,116,71,10,11,1.4,0.9
2023-10-22T23:00:00,1328A,114.3025,30.5332,武汉市,武昌紫阳,颗粒物(PM10),59,68,48,33,29,168,7,144,86,114,65,9,11,1.2,0.9
2023-10-22T23:00:00,1329A,114.3646,30.6217,武汉市,青山钢花,细颗粒物(PM2.5),180,188,79,136,53,160,8,134,64,122,72,11,13,2.0,0.9
2023-10-22T23:00:00,1330A,114.1566,30.4825,武汉市,沌口新区,颗粒物(PM10),76,101,67,31,36,161,7,144,93,128,68,10,12,1.2,0.8
2023-10-22T23:00:00,1331A,114.3014,30.5944,武汉市,汉口江滩,颗粒物(PM10),59,68,49,25,28,160,8,144,89,113,49,6,10,0.9,0.6
2023-10-22T23:00:00,1333A,114.135,30.6319,武汉市,吴家山,细颗粒物(PM2.5),74,88,69,54,38,162,8,144,84,95,60,9,11,1.3,0.9
2023-10-22T23:00:00,1334A,113.8454,30.2917,武汉市,沉湖七壕,,50,50,43,16,20,174,54,160,135,59,26,5,6,0.7,0.7
2023-10-22T23:00:00,1335A,113.0833,28.2325,长沙市,经开区环保局,颗粒物(PM10),80,110,60,52,31,155,2,134,96,97,35,7,8,1.0,0.5
2023-10-22T23:00:00,1336A,112.8872,28.2189,长沙市,高开区环保局,颗粒物(PM10),97,144,84,48,41,156,3,138,92,108,53,7,8,1.1,0.7
2023-10-22T23:00:00,1337A,113.0792,28.2053,长沙市,马坡岭,颗粒物(PM10),131,212,89,94,39,168,5,143,82,85,43,8,8,1.2,0.6
2023-10-22T23:00:00,1338A,112.9394,28.19,长沙市,湖南师范大学,,50,50,52,30,29,155,83,137,109,20,28,7,9,0.7,0.6
2023-10-22T23:00:00,1339A,113.0178,28.1322,长沙市,雨花区环保局,颗粒物(PM10),80,110,61,40,31,152,7,136,102,103,46,9,11,0.9,0.5
2023-10-22T23:00:00,1340A,112.9792,28.2597,长沙市,伍家岭,颗粒物(PM10),103,155,74,76,35,146,20,127,72,75,59,6,6,1.0,0.8
2023-10-22T23:00:00,1341A,113.0014,28.1944,长沙市,火车新站,细颗粒物(PM2.5),79,105,65,58,33,154,10,134,93,106,50,6,8,1.3,0.7
2023-10-22T23:00:00,1342A,112.9844,28.1178,长沙市,天心区环保局,颗粒物(PM10),77,103,55,50,32,152,18,140,96,89,39,8,6,0.8,0.5
2023-10-22T23:00:00,1343A,112.8908,28.1308,长沙市,湖南中医药大学,颗粒物(PM10),64,77,69,41,42,128,4,116,60,81,44,5,5,0.9,0.8
2023-10-22T23:00:00,1344A,112.9581,28.3611,长沙市,沙坪,细颗粒物(PM2.5),54,49,37,38,25,113,68,92,84,18,21,4,5,0.4,0.4
2023-10-22T23:00:00,1345A,113.2347,23.1423,广州市,广雅中学,颗粒物(PM10),52,53,32,24,19,53,4,44,22,58,38,4,4,0.9,0.8
2023-10-22T23:00:00,1346A,113.2612,23.105,广州市,市五中,,48,48,28,27,19,71,4,59,29,54,28,6,5,0.8,0.7
2023-10-22T23:00:00,1348A,113.3478,23.0916,广州市,广东商学院,,32,32,21,22,15,70,9,56,28,44,24,4,4,0.7,0.6
2023-10-22T23:00:00,1349A,113.4332,23.1047,广州市,市八十六中,,29,29,19,19,13,69,11,57,37,42,23,4,4,0.7,0.6
2023-10-22T23:00:00,1350A,113.3505,22.9483,广州市,番禺中学,,39,39,24,23,16,84,6,64,35,56,29,4,4,0.8,0.6
2023-10-22T23:00:00,1351A,113.2146,23.3916,广州市,花都师范,,36,36,20,25,15,77,15,69,40,40,17,5,4,0.6,0.4
2023-10-22T23:00:00,1352A,113.2597,23.1331,广州市,市监测站,,48,48,26,21,16,66,3,54,25,60,35,4,3,0.7,0.5
2023-10-22T23:00:00,1353A,113.5618,23.312,广州市,九龙镇镇龙,,37,37,22,23,16,56,13,50,34,33,18,5,5,0.7,0.6
2023-10-22T23:00:00,1354A,113.2765,23.1544,广州市,麓湖,,40,40,24,24,14,68,7,60,26,47,25,5,4,0.7,0.6
2023-10-22T23:00:00,1355A,113.443,23.3035,广州市,帽峰山森林公园,,28,20,14,19,13,61,26,57,40,14,11,6,6,0.4,0.4
2023-10-22T23:00:00,1356A,114.1063,22.5545,深圳市,通心岭子站,,38,38,30,20,16,105,30,84,62,34,23,2,2,0.9,0.9
2023-10-22T23:00:00,1357A,114.117,22.5625,深圳市,洪湖,,44,44,33,20,17,99,36,80,62,27,21,7,7,0.5,0.5
2023-10-22T23:00:00,1358A,113.987,22.5417,深圳市,华侨城,,45,45,33,24,18,125,19,84,60,44,26,5,5,1.0,0.9
2023-10-22T23:00:00,1359A,113.9181,22.5171,深圳市,南海子站,颗粒物(PM10),58,66,52,35,22,106,14,76,54,60,35,5,5,0.8,0.8
2023-10-22T23:00:00,1360A,114.2458,22.5689,深圳市,盐田,,31,31,26,17,14,97,56,81,67,15,15,5,5,0.9,0.8
2023-10-22T23:00:00,1361A,114.2283,22.7244,深圳市,龙岗,,35,35,26,21,15,86,31,72,56,25,16,7,7,1.0,0.9
2023-10-22T23:00:00,1363A,114.494,22.5422,深圳市,南澳,,48,44,24,33,16,140,51,118,74,28,17,5,5,1.0,0.9
2023-10-22T23:00:00,1364A,114.41,22.6342,深圳市,葵涌,,33,33,22,18,13,85,24,74,53,33,15,5,5,0.8,0.6
2023-10-22T23:00:00,1365A,114.297,22.5978,深圳市,梅沙,,37,37,27,22,14,90,53,76,61,13,10,7,7,1.1,1.1
2023-10-22T23:00:00,1366A,114.0678,22.738,深圳市,观澜,颗粒物(PM10),58,65,41,26,18,101,15,83,45,44,27,9,8,0.8,0.8
2023-10-22T23:00:00,1367A,113.5814,22.2618,珠海市,吉大,,47,47,33,18,7,133,24,99,77,43,25,7,7,0.7,0.6
2023-10-22T23:00:00,1368A,113.4881,22.2335,珠海市,前山,,44,44,34,22,21,110,26,83,66,44,29,7,7,0.7,0.6
2023-10-22T23:00:00,1369A,113.628,22.4251,珠海市,唐家,,47,47,32,22,19,125,7,86,52,57,29,4,5,0.8,0.7
2023-10-22T23:00:00,1370A,113.299,22.2281,珠海市,斗门,颗粒物(PM10),55,60,35,36,20,104,18,87,62,52,30,8,8,0.8,0.6
2023-10-22T23:00:00,1371A,113.1294,23.0067,佛山市,湾梁,,31,31,20,17,14,74,17,64,42,41,24,11,9,0.7,0.6
2023-10-22T23:00:00,1372A,113.1083,23.0478,佛山市,华材职中,,39,39,26,19,15,75,17,64,42,42,24,8,6,0.6,0.6
2023-10-22T23:00:00,1373A,113.144,23.0453,佛山市,南海气象局,,38,38,28,18,12,72,15,66,40,43,25,9,7,0.7,0.6
2023-10-22T23:00:00,1374A,113.2881,22.8094,佛山市,顺德苏岗,,41,41,26,17,13,85,5,66,38,49,27,7,6,0.8,0.8
2023-10-22T23:00:00,1376A,112.8383,22.8678,佛山市,高明孔堂,,36,33,31,25,17,77,22,63,45,43,23,10,7,0.7,0.7
2023-10-22T23:00:00,1377A,112.8836,23.1588,佛山市,三水监测站,,38,27,20,26,17,72,22,59,40,37,22,5,5,0.7,0.6
2023-10-22T23:00:00,1378A,112.867,23.185,佛山市,三水云东海,,,,20,20,17,68,12,57,31,33,17,5,5,0.7,0.6
2023-10-22T23:00:00,1379A,113.3769,22.5211,中山市,华柏园,,44,44,29,29,20,76,11,67,48,54,33,4,4,0.7,0.6
2023-10-22T23:00:00,1380A,113.3881,22.5497,中山市,张溪,颗粒物(PM10),53,56,35,28,22,78,7,66,44,53,31,4,4,0.7,0.6
2023-10-22T23:00:00,1381A,113.4075,22.5111,中山市,紫马岭,颗粒物(PM10),52,54,30,25,20,74,8,63,45,56,33,4,4,0.7,0.6
2023-10-22T23:00:00,1382A,113.4411,22.4853,中山市,长江旅游区,,,,,,,,,,,,,,,,
2023-10-22T23:00:00,1383A,113.1064,22.6058,江门市,北街,,33,33,31,22,20,108,16,83,52,48,32,8,7,0.7,0.7
2023-10-22T23:00:00,1384A,113.0731,22.5835,江门市,西区,,41,41,32,25,19,113,24,86,55,40,30,8,7,0.6,0.6
2023-10-22T23:00:00,1385A,113.0219,22.5311,江门市,圭峰西,,34,34,26,23,20,107,32,88,64,39,31,6,5,0.8,0.7
2023-10-22T23:00:00,1386A,113.0828,22.5947,江门市,东湖,,40,40,35,21,18,115,21,96,57,38,27,6,6,0.7,0.6
2023-10-22T23:00:00,1389A,113.7547,23.0494,东莞市,莞城梨川,,33,33,22,19,14,79,21,67,40,29,20,7,7,0.8,0.8
2023-10-22T23:00:00,1390A,113.7944,23.0128,东莞市,东城石井,,36,36,22,20,16,100,14,80,50,26,16,6,6,0.8,0.8
2023-10-22T23:00:00,1391A,113.7383,22.9658,东莞市,南城西平,,36,36,26,20,15,95,3,71,40,48,28,3,3,0.9,0.8
2023-10-22T23:00:00,1392A,114.4183,23.0528,惠州市,河南岸金山湖子站,,29,29,26,17,18,74,29,64,48,20,11,9,8,0.7,0.6
2023-10-22T23:00:00,1393A,114.4053,23.0822,惠州市,下埔横江三路子站,,28,28,26,17,16,74,38,65,51,18,15,11,8,0.7,0.6
2023-10-22T23:00:00,1394A,114.4103,23.1142,惠州市,江北云山西路子站,,26,26,25,16,17,74,37,67,55,18,13,8,7,0.6,0.6
2023-10-22T23:00:00,1395A,114.4645,22.7833,惠州市,惠阳区承修路船湖子站,,36,36,29,20,17,69,30,58,45,19,17,6,6,0.8,0.7
2023-10-22T23:00:00,1396A,114.5317,22.7422,惠州市,大亚湾管委会子站,,40,40,26,23,16,74,31,63,51,25,14,4,4,0.9,0.8
2023-10-22T23:00:00,1397A,112.4267,23.0706,肇庆市,睦岗子站,,23,23,17,15,11,65,10,57,29,39,21,6,6,0.6,0.4
2023-10-22T23:00:00,1398A,112.4645,23.0475,肇庆市,城中子站,,18,16,17,12,13,80,45,70,56,24,16,6,6,0.6,0.5
2023-10-22T23:00:00,1399A,112.5544,23.1522,肇庆市,坑口子站,,23,22,18,16,13,78,38,66,49,24,18,8,7,0.6,0.5
2023-10-22T23:00:00,1400A,112.4753,23.1,肇庆市,七星岩子站,,,,,,,,,,,,,,,,
2023-10-22T23:00:00,1401A,108.3103,22.7881,南宁市,二十一中,,24,24,33,16,20,112,66,51,,13,16,6,8,0.8,0.8
2023-10-22T23:00:00,1402A,108.3141,22.8528,南宁市,北湖,,34,34,38,22,25,117,57,99,84,18,16,6,8,0.8,0.7
2023-10-22T23:00:00,1403A,108.3206,22.8225,南宁市,市监测站,,30,25,36,21,21,117,50,102,85,36,24,8,10,0.7,0.6
2023-10-22T23:00:00,1404A,108.3829,22.8037,南宁市,大自然花园,,33,29,29,23,22,107,56,96,80,19,15,7,7,0.8,0.7
2023-10-22T23:00:00,1405A,108.4394,22.7904,南宁市,仙葫,,41,41,28,22,15,108,59,98,85,17,12,6,6,0.7,0.6
2023-10-22T23:00:00,1406A,108.2397,22.8467,南宁市,区农职院,,30,29,44,21,27,122,52,102,87,29,24,7,14,0.8,0.7
2023-10-22T23:00:00,1407A,108.3275,22.735,南宁市,英华嘉园,,29,28,31,20,20,100,57,86,68,18,20,7,6,0.8,0.7
2023-10-22T23:00:00,1408A,108.2257,22.7757,南宁市,沙井镇街道办,,33,33,45,18,23,119,43,91,68,35,25,5,6,0.8,0.7
2023-10-22T23:00:00,1409A,110.576,19.9507,海口市,东寨港,,,,,,,,,,,,,,,,
2023-10-22T23:00:00,1410A,110.3232,20.0574,海口市,海南大学,,37,28,36,18,20,125,116,116,116,11,9,6,6,0.6,0.6
2023-10-22T23:00:00,1411A,110.283,20.0053,海口市,秀英海南医院,,39,26,33,18,20,125,122,116,116,8,9,7,7,0.5,0.5
2023-10-22T23:00:00,1412A,110.338,19.9969,海口市,海南师范大学,,37,32,33,20,20,122,118,113,113,9,11,5,5,0.6,0.6
2023-10-22T23:00:00,1413A,110.33,20.0356,海口市,龙华路环保局宿舍,,39,30,36,17,18,128,122,120,120,10,11,8,8,0.5,0.5
2023-10-22T23:00:00,1414A,106.3787,29.8279,重庆市,缙云山,,42,42,30,25,17,116,108,98,98,12,12,11,8,0.2,0.1
2023-10-22T23:00:00,1416A,106.4213,29.8253,重庆市,天生,颗粒物(PM10),71,91,51,51,34,120,6,94,68,66,40,8,8,1.3,1.2
2023-10-22T23:00:00,1417A,106.6263,29.7228,重庆市,两路,,39,39,36,23,24,106,22,83,57,57,41,7,8,0.9,0.8
2023-10-22T23:00:00,1418A,106.2953,29.5983,重庆市,虎溪,细颗粒物(PM2.5),68,61,55,49,33,85,25,53,40,60,56,8,7,0.6,0.6
2023-10-22T23:00:00,1419A,106.5777,29.5102,重庆市,南坪,,48,48,49,27,29,109,74,89,87,24,35,9,11,0.7,0.9
2023-10-22T23:00:00,1420A,106.6556,29.6277,重庆市,唐家沱,颗粒物(PM10),71,92,64,36,28,117,10,94,60,55,36,6,8,0.7,0.8
2023-10-22T23:00:00,1421A,106.6349,29.4906,重庆市,茶园,颗粒物(PM10),54,58,58,31,29,101,17,76,58,76,52,7,8,1.1,1.1
2023-10-22T23:00:00,1422A,106.3754,29.4572,重庆市,白市驿,细颗粒物(PM2.5),57,54,61,40,34,97,18,78,68,62,48,7,9,0.8,0.8
2023-10-22T23:00:00,1425A,106.6205,29.7166,重庆市,空港,,44,44,38,30,26,122,28,101,75,61,39,5,7,0.9,0.8
2023-10-22T23:00:00,1426A,106.4782,29.4875,重庆市,新山村,颗粒物(PM10),53,55,57,29,34,103,18,81,69,90,64,9,11,0.8,0.9
2023-10-22T23:00:00,1427A,106.5616,29.6453,重庆市,礼嘉,颗粒物(PM10),51,52,52,31,26,121,36,97,80,57,48,9,10,0.8,0.9
2023-10-22T23:00:00,1428A,106.4522,29.7091,重庆市,蔡家,颗粒物(PM10),66,81,58,33,27,102,6,66,49,64,46,4,5,0.5,0.5
2023-10-22T23:00:00,1429A,106.5093,29.3917,重庆市,鱼新街,细颗粒物(PM2.5),68,69,56,49,33,94,5,84,60,94,60,6,10,1.5,1.1
2023-10-22T23:00:00,1431A,103.9728,30.7236,成都市,金泉两河,细颗粒物(PM2.5),75,79,69,55,50,129,28,106,72,46,31,2,3,0.7,0.7
2023-10-22T23:00:00,1432A,104.176,30.6872,成都市,十里店,颗粒物(PM10),51,51,56,33,39,134,20,120,83,75,44,1,2,0.6,0.6
2023-10-22T23:00:00,1433A,104.079,30.5706,成都市,三瓦窑,颗粒物(PM10),64,77,63,42,36,132,10,112,79,60,31,2,3,0.6,0.6
2023-10-22T23:00:00,1434A,104.1114,30.63,成都市,沙河铺,细颗粒物(PM2.5),62,50,56,44,43,125,47,106,78,28,32,1,2,0.6,0.6
2023-10-22T23:00:00,1437A,104.0786,30.6531,成都市,君平街,细颗粒物(PM2.5),59,54,68,42,48,131,82,116,105,42,45,6,7,0.6,0.7
2023-10-22T23:00:00,1438A,103.613,31.0283,成都市,灵岩寺,"颗粒物(PM10),细颗粒物(PM2.5)",52,54,41,36,28,137,122,118,118,8,10,12,19,0.9,0.9
2023-10-22T23:00:00,1439A,106.6899,26.5998,贵阳市,马鞍山,细颗粒物(PM2.5),52,48,25,36,15,128,28,109,69,35,14,5,5,0.7,0.5
2023-10-22T23:00:00,1440A,106.6971,26.5694,贵阳市,市环保站,颗粒物(PM10),64,78,40,43,25,128,23,111,67,70,27,7,6,0.7,0.4
2023-10-22T23:00:00,1441A,106.6243,26.6266,贵阳市,鉴湖路,颗粒物(PM10),58,66,37,39,15,130,35,112,73,52,19,5,4,0.6,0.4
2023-10-22T23:00:00,1442A,106.7487,26.6343,贵阳市,燕子冲,细颗粒物(PM2.5),52,44,31,36,20,132,73,114,85,14,16,6,6,0.4,0.4
2023-10-22T23:00:00,1443A,106.6555,26.4365,贵阳市,碧云窝,,46,46,40,27,18,118,53,108,87,19,17,7,7,0.5,0.4
2023-10-22T23:00:00,1444A,106.694,26.5161,贵阳市,中院村,颗粒物(PM10),52,53,43,34,23,104,40,92,58,55,32,5,5,0.6,0.4
2023-10-22T23:00:00,1445A,106.7109,26.6027,贵阳市,红边门,颗粒物(PM10),59,68,42,41,25,120,20,102,56,59,27,9,6,0.7,0.4
2023-10-22T23:00:00,1446A,106.7164,26.5699,贵阳市,新华路,颗粒物(PM10),68,85,45,48,24,122,7,107,56,74,27,8,7,0.8,0.4
2023-10-22T23:00:00,1447A,106.674,26.5424,贵阳市,太慈桥,,42,39,30,29,16,123,15,113,49,45,24,3,5,0.6,0.4
2023-10-22T23:00:00,1450A,102.8204,24.8886,昆明市,呈贡新区,,33,33,31,21,22,106,36,89,62,38,31,5,7,0.9,0.7
2023-10-22T23:00:00,1451A,102.6251,24.9608,昆明市,西山森林公园,,22,17,19,15,14,99,67,90,76,7,8,9,7,0.5,0.5
2023-10-22T23:00:00,1452A,102.7252,25.0902,昆明市,龙泉镇,颗粒物(PM10),55,60,36,18,20,88,4,79,45,57,30,9,9,0.8,0.7
2023-10-22T23:00:00,1453A,102.7266,25.0375,昆明市,东风东路,,33,33,29,14,20,93,40,82,63,26,17,10,10,0.5,0.6
2023-10-22T23:00:00,1454A,102.6742,25.0669,昆明市,金鼎山,,30,30,36,14,18,89,40,80,60,26,24,17,15,0.5,0.6
2023-10-22T23:00:00,1455A,102.6644,25.0401,昆明市,碧鸡广场,,31,31,31,20,21,89,26,79,52,40,31,10,8,0.8,0.9
2023-10-22T23:00:00,1456A,91.1319,29.6514,拉萨市,八廓街,,37,37,25,25,13,100,16,94,70,61,24,12,12,0.6,0.3
2023-10-22T23:00:00,1457A,91.1221,29.6747,拉萨市,市环保局,,47,47,29,26,13,102,6,93,60,59,28,10,9,1.4,0.7
2023-10-22T23:00:00,1458A,91.0874,29.6475,拉萨市,区监测站,,40,40,20,24,11,98,8,93,61,73,31,11,10,1.1,0.5
2023-10-22T23:00:00,1459A,91.1774,29.6541,拉萨市,西藏大学,,33,33,19,13,9,98,44,92,79,36,17,11,12,0.9,0.5
2023-10-22T23:00:00,1460A,90.9798,29.6588,拉萨市,区辐射站,颗粒物(PM10),55,59,31,25,13,92,20,86,70,70,30,8,6,0.8,0.6
2023-10-22T23:00:00,1461A,91.0834,29.6292,拉萨市,拉萨火车站,颗粒物(PM10),52,53,20,18,10,91,17,86,71,73,27,8,7,0.9,0.6
2023-10-22T23:00:00,1462A,108.882,34.2749,西安市,高压开关厂,颗粒物(PM10),96,141,105,50,42,83,5,66,33,99,64,10,11,1.7,0.8
2023-10-22T23:00:00,1463A,108.993,34.2629,西安市,兴庆小区,颗粒物(PM10),71,92,66,32,30,78,3,66,45,72,47,7,7,0.7,0.6
2023-10-22T23:00:00,1464A,109.06,34.2572,西安市,纺织城,颗粒物(PM10),90,129,78,49,36,96,4,73,41,65,46,6,7,0.8,0.6
2023-10-22T23:00:00,1465A,108.9356,34.2173,西安市,小寨,颗粒物(PM10),75,99,83,44,39,93,4,68,36,90,58,9,8,1.6,0.8
2023-10-22T23:00:00,1466A,108.954,34.2713,西安市,市人民体育场,颗粒物(PM10),89,128,84,54,45,76,2,56,30,90,58,7,7,1.4,0.7
2023-10-22T23:00:00,1467A,108.8922,34.2322,西安市,高新西区,颗粒物(PM10),78,106,80,41,48,98,9,70,43,102,65,8,8,1.3,0.9
2023-10-22T23:00:00,1468A,108.935,34.3474,西安市,经开区,细颗粒物(PM2.5),84,101,88,62,45,72,5,25,22,100,71,6,6,1.1,0.8
2023-10-22T23:00:00,1469A,108.906,34.1546,西安市,长安区,颗粒物(PM10),70,89,71,29,31,120,4,81,45,68,43,6,7,0.8,0.6
2023-10-22T23:00:00,1471A,109.2186,34.3731,西安市,临潼区,颗粒物(PM10),54,57,71,22,34,103,22,75,52,36,32,6,7,0.9,0.8
2023-10-22T23:00:00,1472A,108.869,34.378,西安市,草滩,颗粒物(PM10),104,158,100,62,38,92,2,70,44,108,67,5,5,0.7,0.6
2023-10-22T23:00:00,1473A,108.985,34.1978,西安市,曲江文化产业集团,颗粒物(PM10),96,142,79,61,46,99,1,77,44,87,52,5,5,1.3,0.8
2023-10-22T23:00:00,1474A,109.051,34.3213,西安市,广运潭,颗粒物(PM10),86,121,76,39,42,86,0,64,38,67,47,9,8,0.8,0.7
2023-10-22T23:00:00,1476A,103.631,36.1031,兰州市,兰炼宾馆,细颗粒物(PM2.5),55,51,79,39,48,185,12,111,54,76,62,9,17,0.8,0.9
2023-10-22T23:00:00,1477A,104.1373,35.9454,兰州市,榆中兰大校区,,,,,,,,,,,,,,,,
2023-10-22T23:00:00,1478A,103.8412,36.0726,兰州市,生物制品所,颗粒物(PM10),66,81,67,42,42,99,2,80,57,74,53,8,12,0.9,0.9
2023-10-22T23:00:00,1479A,103.831,36.0464,兰州市,铁路设计院,细颗粒物(PM2.5),57,61,73,40,44,100,2,69,44,87,67,10,14,1.0,1.2
2023-10-22T23:00:00,1483A,101.524,36.6867,西宁市,第五水厂,,,,,,,,,,,,,,,,
2023-10-22T23:00:00,1484A,105.9512,38.6016,银川市,贺兰山马莲口,,48,44,39,33,25,145,115,136,131,19,22,10,20,0.6,0.6
2023-10-22T23:00:00,1488A,106.2328,38.4975,银川市,贺兰山东路,"颗粒物(PM10),细颗粒物(PM2.5)",82,114,96,60,56,151,56,119,82,76,68,16,18,0.8,0.9
2023-10-22T23:00:00,1489A,106.1358,38.5036,银川市,学院路,颗粒物(PM10),104,157,106,62,47,127,10,109,67,104,60,12,17,1.0,0.9
2023-10-22T23:00:00,1490A,87.5801,43.8303,乌鲁木齐市,监测站,颗粒物(PM10),68,86,84,15,24,84,84,66,56,27,61,4,6,0.2,0.5
2023-10-22T23:00:00,1491A,87.6046,43.768,乌鲁木齐市,收费所,颗粒物(PM10),64,77,80,13,26,96,96,67,67,12,46,2,3,0.3,0.5
2023-10-22T23:00:00,1492A,87.4754,43.9469,乌鲁木齐市,新疆农科院农场,颗粒物(PM10),152,253,147,103,51,84,2,61,51,97,64,7,4,1.3,1.2
2023-10-22T23:00:00,1493A,87.5525,43.8711,乌鲁木齐市,铁路局,颗粒物(PM10),76,102,94,31,31,73,72,60,44,31,59,3,5,0.4,0.6
2023-10-22T23:00:00,1494A,87.6432,43.831,乌鲁木齐市,三十一中学,颗粒物(PM10),62,74,83,19,24,98,98,83,83,4,37,6,8,0.6,0.8
2023-10-22T23:00:00,1496A,87.7216,44.1747,乌鲁木齐市,米东区环保局,颗粒物(PM10),75,100,133,20,46,109,32,88,82,39,45,6,8,0.5,0.7
2023-10-22T23:00:00,1508A,112.9433,27.8614,湘潭市,板塘,"二氧化氮,颗粒物(PM10)",59,68,75,40,43,174,1,144,86,117,54,9,11,1.0,1
2023-10-22T23:00:00,1511A,112.9118,27.8403,湘潭市,市监测站,颗粒物(PM10),70,90,75,50,46,180,4,152,106,105,40,6,10,0.8,0.7
2023-10-22T23:00:00,1512A,112.8937,27.8728,湘潭市,江麓,细颗粒物(PM2.5),79,93,70,58,42,174,4,146,94,100,45,9,13,1.0,0.9
2023-10-22T23:00:00,1513A,112.9227,27.8159,湘潭市,岳塘,细颗粒物(PM2.5),137,173,83,104,47,167,0,147,94,83,42,15,18,1.3,1.1
2023-10-22T23:00:00,1514A,112.9074,27.9119,湘潭市,科大,颗粒物(PM10),80,110,80,48,44,168,0,145,88,103,51,15,13,1.4,1.2
2023-10-22T23:00:00,1515A,113.135,27.8244,株洲市,天台山庄,细颗粒物(PM2.5),109,126,65,82,40,169,3,152,84,102,50,10,11,2.1,0.9
2023-10-22T23:00:00,1518A,113.095,27.8867,株洲市,株冶医院,细颗粒物(PM2.5),53,50,65,37,40,171,58,145,93,50,44,7,9,0.6,0.6
2023-10-22T23:00:00,1519A,113.167,27.8667,株洲市,市四中,细颗粒物(PM2.5),69,83,66,50,41,172,10,148,73,63,39,5,7,1.1,0.8
2023-10-22T23:00:00,1520A,113.143,27.8381,株洲市,火车站,颗粒物(PM10),69,88,72,48,43,166,18,146,75,79,45,8,10,1.5,0.9
2023-10-22T23:00:00,1524A,113.13,27.8528,株洲市,市监测站,细颗粒物(PM2.5),117,130,74,88,49,164,6,148,85,93,50,10,10,1.5,0.9
2023-10-22T23:00:00,1552A,106.805,26.3003,贵阳市,桐木岭,,,,,,,,,,,,,,,,
2023-10-22T23:00:00,1559A,113.251,27.8336,株洲市,大京风景区,,29,26,38,20,24,145,51,125,79,7,8,2,3,0.5,0.5
2023-10-22T23:00:00,1562A,113.0048,27.9153,湘潭市,昭山,颗粒物(PM10),64,78,69,31,34,177,3,147,81,89,50,6,8,0.4,0.5
2023-10-22T23:00:00,1564A,112.4876,27.9164,湘潭市,韶山,颗粒物(PM10),62,74,47,39,23,152,70,138,104,15,13,7,7,0.6,0.5
2023-10-22T23:00:00,1585A,109.8756,40.6532,包头市,市环境监测站,颗粒物(PM10),93,136,95,62,44,104,5,84,41,102,66,18,24,1.5,1.2
2023-10-22T23:00:00,1587A,109.9991,40.5842,包头市,包头八中,颗粒物(PM10),137,224,139,50,64,116,6,96,47,99,67,58,43,1.3,1.4
2023-10-22T23:00:00,1588A,109.8538,40.6821,包头市,青山宾馆,"颗粒物(PM10),细颗粒物(PM2.5)",93,135,94,69,53,111,6,84,42,99,66,19,25,1.6,1.3
2023-10-22T23:00:00,1589A,109.8642,40.6288,包头市,惠龙物流,颗粒物(PM10),94,137,93,58,45,108,4,91,48,109,67,23,25,1.9,1.5
2023-10-22T23:00:00,1590A,110.0377,40.5546,包头市,东河鸿龙湾,颗粒物(PM10),121,191,118,58,60,120,8,103,56,88,56,23,22,1.4,1
2023-10-22T23:00:00,1591A,110.0023,39.8129,鄂尔多斯市,综合楼,颗粒物(PM10),76,102,64,44,25,120,5,98,57,99,49,23,18,1.3,0.7
2023-10-22T23:00:00,1592A,109.9486,39.8261,鄂尔多斯市,巴音孟克林场办事处,,40,36,53,19,26,119,25,97,52,80,48,19,25,1.5,0.8
2023-10-22T23:00:00,1593A,109.7736,39.5986,鄂尔多斯市,康泽苑,,31,31,36,10,18,122,41,97,70,26,33,5,7,0.4,0.5
2023-10-22T23:00:00,1594A,109.8119,39.5989,鄂尔多斯市,华泰汽车城,,46,46,46,17,18,123,7,93,50,65,47,5,7,0.8,0.6
2023-10-22T23:00:00,1595A,109.9734,39.7884,鄂尔多斯市,奥林花园,颗粒物(PM10),71,92,76,34,25,119,4,94,42,86,59,10,12,1.2,0.9
2023-10-22T23:00:00,1597A,122.2703,40.7094,营口市,大庆路,细颗粒物(PM2.5),72,57,33,52,20,87,15,77,41,75,29,6,6,1.2,0.8
2023-10-22T23:00:00,1598A,122.2150,40.6511,营口市,镜湖西路,细颗粒物(PM2.5),85,101,47,63,19,84,10,74,35,92,38,8,8,1.3,0.7
2023-10-22T23:00:00,1599A,122.1658,40.6789,营口市,西炮台,细颗粒物(PM2.5),87,70,32,64,17,94,8,82,41,94,34,8,8,1.3,0.6
2023-10-22T23:00:00,1600A,124.3303,40.0625,丹东市,江湾东路,颗粒物(PM10),67,83,63,40,31,116,26,87,61,32,28,5,10,1.2,1
2023-10-22T23:00:00,1601A,124.4256,40.1503,丹东市,临江后街,颗粒物(PM10),65,79,59,38,26,113,44,96,78,28,23,5,9,1.1,0.9
2023-10-22T23:00:00,1602A,124.3933,40.1461,丹东市,元宝山,颗粒物(PM10),58,66,47,31,20,103,67,81,75,15,24,5,7,1.0,1
2023-10-22T23:00:00,1603A,124.3633,40.1092,丹东市,民主桥,颗粒物(PM10),71,91,59,38,26,104,16,85,69,41,30,6,9,1.1,0.9
2023-10-22T23:00:00,1604A,122.0303,41.1489,盘锦市,开发区,颗粒物(PM10),52,53,29,23,15,92,48,79,42,50,41,12,13,0.8,0.8
2023-10-22T23:00:00,1605A,122.0485,41.0883,盘锦市,兴隆台,,36,36,29,21,13,92,18,79,39,70,38,10,12,0.8,0.6
2023-10-22T23:00:00,1606A,121.8297,41.1028,盘锦市,新生街道,,34,22,21,21,10,90,13,78,39,67,33,8,10,0.7,0.7
2023-10-22T23:00:00,1607A,120.9092,40.7136,葫芦岛市,龙港区,,35,35,32,12,15,116,18,86,74,60,24,13,30,0.6,0.5
2023-10-22T23:00:00,1608A,120.8392,40.7514,葫芦岛市,化工街,颗粒物(PM10),76,102,57,44,23,98,8,78,45,46,38,15,13,1.1,0.8
2023-10-22T23:00:00,1609A,120.8341,40.7073,葫芦岛市,新区,颗粒物(PM10),60,69,38,31,18,106,6,78,44,75,40,10,12,1.2,0.9
2023-10-22T23:00:00,1610A,120.8695,40.7677,葫芦岛市,东城区,颗粒物(PM10),60,69,50,29,25,85,2,78,35,52,40,20,19,1.1,1
2023-10-22T23:00:00,1611A,118.5819,24.9117,泉州市,涂山街,,22,22,21,14,9,95,65,89,77,11,7,4,4,0.5,0.4
2023-10-22T23:00:00,1612A,118.5972,24.8978,泉州市,津头埔,,25,25,19,12,9,94,57,87,74,18,12,2,2,0.6,0.5
2023-10-22T23:00:00,1613A,118.6663,24.9424,泉州市,万安,,24,24,23,11,8,97,67,89,77,15,10,3,3,0.5,0.5
2023-10-22T23:00:00,1614A,118.6117,24.9604,泉州市,清源山,,,,,,,,,,,,,,,,
2023-10-22T23:00:00,1616A,117.6795,36.229,济南市,技术学院,颗粒物(PM10),75,100,89,48,49,156,23,143,93,104,58,11,12,0.9,0.9
2023-10-22T23:00:00,1618A,118.3429,35.0532,临沂市,沂河小区,细颗粒物(PM2.5),87,97,91,64,65,145,62,129,106,62,53,41,21,0.5,0.5
2023-10-22T23:00:00,1619A,118.295,35.0583,临沂市,鲁南制药厂,颗粒物(PM10),80,110,90,54,58,156,40,141,114,86,48,48,22,0.8,0.7
2023-10-22T23:00:00,1620A,118.2794,34.9976,临沂市,新光毛纺厂,细颗粒物(PM2.5),72,92,91,52,57,151,40,131,99,83,55,58,30,0.7,0.7
2023-10-22T23:00:00,1621A,118.3956,35.0888,临沂市,河东保险公司,细颗粒物(PM2.5),68,75,81,49,57,151,84,132,115,34,40,12,14,0.6,0.7
2023-10-22T23:00:00,1622A,116.3032,37.4674,德州市,儿童乐园,颗粒物(PM10),87,124,127,58,64,135,74,108,100,53,50,14,15,0.8,0.9
2023-10-22T23:00:00,1624A,116.2991,37.4451,德州市,监理站,细颗粒物(PM2.5),92,119,125,68,75,129,71,110,99,50,44,15,16,0.7,0.8
2023-10-22T23:00:00,1625A,115.9848,36.4372,聊城市,区政府,颗粒物(PM10),78,105,111,50,61,146,72,125,102,46,39,6,8,0.6,0.6
2023-10-22T23:00:00,1628A,118.0062,37.3803,滨州市,市环保局,"颗粒物(PM10),细颗粒物(PM2.5)",79,108,99,58,48,143,55,131,88,57,54,134,24,0.9,0.8
2023-10-22T23:00:00,1629A,118.0018,37.3617,滨州市,第二水厂,颗粒物(PM10),82,114,104,53,44,151,22,132,84,96,58,74,21,0.7,0.7
2023-10-22T23:00:00,1630A,117.9776,37.393,滨州市,北中新校,颗粒物(PM10),65,79,86,44,39,147,64,130,84,57,57,21,13,0.8,0.8
2023-10-22T23:00:00,1631A,118.0414,36.8103,淄博市,人民公园,细颗粒物(PM2.5),83,110,91,61,45,152,47,136,85,78,53,20,12,0.9,0.8
2023-10-22T23:00:00,1633A,117.8525,36.4847,淄博市,双山,颗粒物(PM10),69,88,81,49,46,144,58,135,85,56,37,12,10,0.7,0.6
2023-10-22T23:00:00,1634A,117.9592,36.6331,淄博市,气象站,,,67,66,39,41,143,85,131,101,51,35,11,10,,0.5
2023-10-22T23:00:00,1635A,118.3092,36.8194,淄博市,莆田园,颗粒物(PM10),65,80,96,34,37,151,123,140,103,23,39,10,13,0.9,1.3
2023-10-22T23:00:00,1637A,117.558,34.8438,枣庄市,市中区政府,,,,132,,72,151,,130,95,,64,,12,,0.9
2023-10-22T23:00:00,1638A,117.2852,34.7837,枣庄市,薛城环保局,细颗粒物(PM2.5),83,98,102,61,65,171,78,142,112,51,51,8,11,0.5,0.8
2023-10-22T23:00:00,1639A,117.5852,34.7745,枣庄市,峄城区政府,细颗粒物(PM2.5),83,110,124,61,59,152,57,70,64,58,62,7,9,0.5,0.5
2023-10-22T23:00:00,1640A,117.7276,34.5578,枣庄市,台儿庄区环保局,颗粒物(PM10),62,73,83,41,50,144,52,118,60,59,58,1,3,0.5,0.5
2023-10-22T23:00:00,1641A,117.4518,35.0992,枣庄市,山亭区环保局,颗粒物(PM10),64,78,87,44,55,164,97,147,117,31,36,7,10,0.7,0.8
2023-10-22T23:00:00,1642A,121.2514,37.5639,烟台市,开发区,"颗粒物(PM10),细颗粒物(PM2.5)",79,107,77,58,34,145,68,116,92,54,38,11,11,0.9,0.7
2023-10-22T23:00:00,1643A,121.3719,37.5433,烟台市,轴承厂,细颗粒物(PM2.5),85,95,60,63,35,137,99,114,105,32,23,8,9,0.4,0.4
2023-10-22T23:00:00,1644A,121.3181,37.5436,烟台市,西郊化工站,颗粒物(PM10),80,110,66,57,33,150,89,129,118,48,31,9,10,0.6,0.4
2023-10-22T23:00:00,1645A,121.4478,37.4822,烟台市,莱山环保局,细颗粒物(PM2.5),73,78,54,53,28,128,121,117,115,20,22,9,10,0.6,0.6
2023-10-22T23:00:00,1646A,121.2611,37.4967,烟台市,福山环保局,细颗粒物(PM2.5),98,122,79,73,34,139,10,114,63,72,44,6,8,0.9,0.6
2023-10-22T23:00:00,1650A,119.1437,36.7023,潍坊市,环保局,细颗粒物(PM2.5),82,97,83,60,44,171,82,147,88,44,56,8,10,0.6,0.7
2023-10-22T23:00:00,1653A,116.6251,35.4302,济宁市,火炬城,,,,68,,48,133,81,119,102,34,32,12,12,0.5,0.5
2023-10-22T23:00:00,1655A,116.5491,35.4042,济宁市,电化厂,颗粒物(PM10),71,91,98,51,51,142,111,130,122,21,29,11,11,0.4,0.5
2023-10-22T23:00:00,1656A,117.1437,36.1937,泰安市,监测站,细颗粒物(PM2.5),74,85,94,54,55,137,110,96,,28,44,14,13,0.8,1.1
2023-10-22T23:00:00,1657A,117.0885,36.2017,泰安市,人口学校,细颗粒物(PM2.5),73,90,76,53,50,147,118,130,123,29,33,12,11,0.7,0.7
2023-10-22T23:00:00,1658A,117.1089,36.1758,泰安市,电力学校,细颗粒物(PM2.5),97,114,97,72,58,148,86,127,97,43,41,18,12,0.6,0.7
2023-10-22T23:00:00,1659A,119.471,35.4209,日照市,监测站,细颗粒物(PM2.5),84,90,77,62,44,132,13,112,64,88,51,10,13,0.9,1.1
2023-10-22T23:00:00,1660A,119.523,35.4216,日照市,市政府广场,细颗粒物(PM2.5),75,88,75,55,38,146,66,126,103,56,46,8,13,0.9,0.8
2023-10-22T23:00:00,1661A,119.5587,35.4044,日照市,港务局,细颗粒物(PM2.5),85,107,89,63,46,129,41,114,86,87,60,12,17,1.3,1.1
2023-10-22T23:00:00,1662A,122.1214,37.4236,威海市,华夏技校,细颗粒物(PM2.5),55,51,42,39,23,132,126,118,118,21,20,6,6,0.6,0.5
2023-10-22T23:00:00,1663A,122.0508,37.5236,威海市,山大分校,颗粒物(PM10),52,54,47,32,18,140,132,124,118,17,21,7,8,0.7,0.5
2023-10-22T23:00:00,1664A,122.1067,37.5072,威海市,市监测站,颗粒物(PM10),55,59,50,37,20,128,128,108,99,16,27,10,10,0.8,0.7
2023-10-22T23:00:00,1666A,118.6614,37.4309,东营市,市环保局,细颗粒物(PM2.5),83,100,95,61,45,171,68,155,99,64,59,20,18,0.6,0.8
2023-10-22T23:00:00,1669A,113.5824,24.7733,韶关市,市八中,颗粒物(PM10),52,54,31,27,21,87,20,72,48,34,16,14,21,0.8,0.6
2023-10-22T23:00:00,1671A,113.5917,24.7972,韶关市,园林处,,48,36,38,33,24,84,36,72,48,16,12,13,23,0.6,0.5
2023-10-22T23:00:00,1672A,113.6735,24.7791,韶关市,韶关学院,,40,32,33,28,25,87,18,68,46,16,13,9,22,0.6,0.5
2023-10-22T23:00:00,1673A,113.5971,24.6863,韶关市,曲江监测站,,46,45,38,32,27,85,11,67,37,28,18,10,17,0.8,0.7
2023-10-22T23:00:00,1674A,116.6794,23.3667,汕头市,金平子站,,36,36,30,15,13,124,84,114,110,14,16,6,9,0.6,0.7
2023-10-22T23:00:00,1675A,116.7244,23.3633,汕头市,龙湖子站,,29,29,26,14,12,128,86,118,113,17,17,6,11,0.7,0.8
2023-10-22T23:00:00,1676A,116.7258,23.2775,汕头市,濠江子站,,31,31,26,18,13,132,84,119,113,10,14,8,12,0.5,0.7
2023-10-22T23:00:00,1677A,116.7519,23.4714,汕头市,澄海子站,,38,38,28,20,13,121,81,112,107,18,15,12,12,0.6,0.6
2023-10-22T23:00:00,1678A,116.6092,23.2539,汕头市,潮阳子站,,32,32,35,11,12,109,80,97,95,8,14,8,10,0.4,0.5
2023-10-22T23:00:00,1680A,110.3539,21.2706,湛江市,湛江影剧院,,30,30,19,15,8,70,32,59,48,16,14,16,9,0.8,0.8
2023-10-22T23:00:00,1681A,110.3928,21.2228,湛江市,市环境监测站,,29,27,16,20,15,74,32,66,56,17,12,9,7,0.9,0.8
2023-10-22T23:00:00,1682A,110.4019,21.1997,湛江市,环保局宿舍,,33,27,20,23,13,73,32,66,54,15,12,10,8,1.0,0.9
2023-10-22T23:00:00,1683A,110.4111,21.2028,湛江市,霞山游泳场,,26,26,18,15,10,86,36,73,62,12,9,12,9,0.9,0.8
2023-10-22T23:00:00,1684A,110.3316,21.2679,湛江市,麻章区环保局,,33,19,16,23,19,61,14,53,36,29,16,6,8,0.6,0.6
2023-10-22T23:00:00,1685A,110.4558,21.2567,湛江市,坡头区环保局,,23,18,15,16,12,87,37,75,61,13,10,8,10,0.8,0.7
2023-10-22T23:00:00,1686A,111.0286,21.4688,茂名市,电白南海,,27,27,26,17,16,85,50,72,61,10,9,8,9,0.5,0.5
2023-10-22T23:00:00,1687A,110.9294,21.6533,茂名市,茂石化七小,,18,12,20,9,12,70,55,59,54,11,10,5,6,0.5,0.6
2023-10-22T23:00:00,1688A,110.9107,21.6687,茂名市,健康路,,,,,,,,,,,,,,,,
2023-10-22T23:00:00,1689A,110.8592,21.6828,茂名市,高岭,,42,41,27,29,19,54,14,37,34,26,17,21,18,0.7,0.8
2023-10-22T23:00:00,1690A,116.1231,24.3284,梅州市,梅江月梅,,30,28,17,21,15,59,5,42,27,24,21,5,5,0.7,0.6
2023-10-22T23:00:00,1691A,116.0797,24.2719,梅州市,梅县新城,,46,38,18,32,13,56,6,44,23,28,18,7,7,0.9,0.8
2023-10-22T23:00:00,1692A,116.1248,24.2654,梅州市,环境监控中心,,38,38,24,24,14,44,2,29,16,22,22,22,10,0.8,0.7
2023-10-22T23:00:00,1693A,115.3653,22.775,汕尾市,市环保局,,35,29,23,15,13,128,109,119,118,10,8,12,12,0.6,0.6
2023-10-22T23:00:00,1694A,115.3706,22.7898,汕尾市,市政府,,37,37,22,22,14,126,103,116,114,9,7,8,7,0.4,0.4
2023-10-22T23:00:00,1695A,115.3622,22.7925,汕尾市,新城中学,,45,45,27,19,13,122,91,110,106,11,7,9,9,0.5,0.6
2023-10-22T23:00:00,1696A,114.6778,23.7569,河源市,源西,,36,36,18,22,12,61,12,53,36,37,15,7,5,0.8,0.7
2023-10-22T23:00:00,1697A,114.6944,23.7586,河源市,东埔,,32,32,25,21,18,61,18,52,38,26,14,8,7,0.8,0.8
2023-10-22T23:00:00,1698A,114.6892,23.7233,河源市,老城,,33,31,30,23,17,62,21,56,40,23,11,7,6,0.8,0.7
2023-10-22T23:00:00,1699A,111.9797,21.8593,阳江市,鸳鸯湖,细颗粒物(PM2.5),54,32,28,38,19,82,38,76,62,20,15,14,11,0.7,0.7
2023-10-22T23:00:00,1701A,111.9491,21.8658,阳江市,马南垌,,45,29,25,31,20,76,28,68,57,34,21,8,6,0.7,0.6
2023-10-22T23:00:00,1702A,113.0426,23.691,清远市,环保大楼,细颗粒物(PM2.5),53,36,20,37,13,76,12,68,42,38,15,8,8,1.1,0.9
2023-10-22T23:00:00,1703A,113.0208,23.7106,清远市,凤城街办,,39,39,27,25,18,76,0,66,32,49,17,9,9,0.7,0.6
2023-10-22T23:00:00,1705A,116.6367,23.6719,潮州市,西园路,,20,20,23,4,22,112,41,100,88,10,11,3,4,0.3,0.2
2023-10-22T23:00:00,1706A,116.6447,23.6706,潮州市,档案局,,33,20,25,23,12,119,41,107,92,12,12,4,5,0.8,0.7
2023-10-22T23:00:00,1708A,116.3701,23.5345,揭阳市,新兴,,50,50,37,23,18,123,88,106,98,17,20,10,10,0.6,0.7
2023-10-22T23:00:00,1709A,116.3264,23.5443,揭阳市,西马,,41,41,34,22,17,143,93,119,110,15,16,9,8,0.6,0.7
2023-10-22T23:00:00,1710A,116.3611,23.5626,揭阳市,东兴,,49,49,44,23,18,137,91,115,105,17,22,8,9,0.8,0.9
2023-10-22T23:00:00,1711A,116.4151,23.5294,揭阳市,渔湖,,46,46,32,28,19,126,85,104,102,18,20,7,9,0.6,0.7
2023-10-22T23:00:00,1712A,112.0392,22.9169,云浮市,新市府,,17,17,12,8,7,52,19,48,32,9,10,5,6,0.8,0.8
2023-10-22T23:00:00,1714A,112.0539,22.9539,云浮市,牧羊,,16,16,15,11,8,61,8,55,15,23,18,6,5,0.5,0.5
2023-10-22T23:00:00,1715A,102.575,24.3711,玉溪市,东风水库,,36,36,30,19,19,81,39,74,59,14,13,7,7,1.0,1
2023-10-22T23:00:00,1718A,115.4208,35.2464,菏泽市,气象局,颗粒物(PM10),70,89,96,46,54,146,79,130,107,52,44,8,12,0.4,0.5
2023-10-22T23:00:00,1719A,115.4747,35.2375,菏泽市,市政协,颗粒物(PM10),62,73,87,38,52,146,97,131,114,41,37,7,11,0.1,0.2
2023-10-22T23:00:00,1721A,113.3819,40.1097,大同市,果树场,,,,,,,,,,,,,,,,
2023-10-22T23:00:00,1723A,113.2994,40.0758,大同市,云冈宾馆,颗粒物(PM10),84,118,94,46,42,118,1,88,57,85,57,14,25,1.0,1.2
2023-10-22T23:00:00,1724A,113.3444,40.0917,大同市,大同大学,颗粒物(PM10),60,69,78,32,34,113,34,88,68,59,44,13,26,0.7,0.8
2023-10-22T23:00:00,1725A,113.2661,40.1269,大同市,安家小村,颗粒物(PM10),78,106,92,54,41,122,75,102,95,28,42,20,26,0.4,1
2023-10-22T23:00:00,1726A,113.2711,40.0844,大同市,教育学院,细颗粒物(PM2.5),144,185,105,110,44,120,11,94,62,103,59,14,28,1.8,1.2
2023-10-22T23:00:00,1727A,113.1147,36.1547,长治市,清华站,颗粒物(PM10),59,68,80,39,38,161,83,114,95,26,41,12,12,0.9,0.9
2023-10-22T23:00:00,1728A,113.1031,36.1989,长治市,监测站,细颗粒物(PM2.5),70,72,61,51,42,162,63,121,90,38,43,11,13,1.0,0.8
2023-10-22T23:00:00,1730A,113.0886,36.2125,长治市,审计局,细颗粒物(PM2.5),73,72,59,53,40,160,71,121,98,31,36,13,15,1.0,0.9
2023-10-22T23:00:00,1731A,113.0844,36.1856,长治市,长治八中,细颗粒物(PM2.5),68,74,77,49,34,150,76,119,100,31,38,16,17,0.8,0.8
2023-10-22T23:00:00,1733A,111.5531,36.0783,临汾市,临钢医院,颗粒物(PM10),78,106,91,53,49,145,13,106,61,55,41,6,11,1.6,1.3
2023-10-22T23:00:00,1734A,111.5028,36.0714,临汾市,技工学校,细颗粒物(PM2.5),104,135,96,78,54,149,19,120,80,78,53,16,20,1.9,1.3
2023-10-22T23:00:00,1736A,111.5018,36.0855,临汾市,市委,细颗粒物(PM2.5),102,134,96,76,49,142,14,112,71,87,57,18,22,1.8,1.2
2023-10-22T23:00:00,1738A,113.5758,37.8572,阳泉市,市中心,颗粒物(PM10),54,57,66,27,27,99,1,82,34,90,60,10,22,0.7,0.9
2023-10-22T23:00:00,1739A,113.4894,37.8731,阳泉市,赛鱼,颗粒物(PM10),60,70,64,33,29,99,3,80,34,83,62,8,13,0.6,0.7
2023-10-22T23:00:00,1740A,113.5819,37.8486,阳泉市,南庄,颗粒物(PM10),70,89,81,30,28,103,10,86,50,69,52,10,19,0.9,0.9
2023-10-22T23:00:00,1742A,113.5614,37.8703,阳泉市,平坦,颗粒物(PM10),54,57,64,24,29,100,3,85,37,95,63,8,15,0.7,0.8
2023-10-22T23:00:00,1743A,113.5158,37.8392,阳泉市,大阳泉,,49,49,43,26,28,112,83,103,98,38,36,12,14,0.6,0.6
2023-10-22T23:00:00,1744A,118.9233,42.2816,赤峰市,松山一中,颗粒物(PM10),81,112,47,45,17,76,9,64,31,63,51,20,16,1.0,1
2023-10-22T23:00:00,1745A,118.9576,42.2728,赤峰市,哈达街,细颗粒物(PM2.5),80,106,52,59,29,80,12,63,26,74,50,22,20,1.4,0.8
2023-10-22T23:00:00,1746A,118.8788,42.2554,赤峰市,天义路,颗粒物(PM10),61,72,31,21,16,92,10,76,36,50,34,12,12,0.9,0.7
2023-10-22T23:00:00,1748A,123.044,41.1196,鞍山市,深沟寺,,34,34,33,14,18,79,50,70,52,15,20,5,10,0.6,0.9
2023-10-22T23:00:00,1749A,123.011,41.0931,鞍山市,太阳城,,44,44,38,18,20,79,51,70,61,22,22,8,14,0.6,0.9
2023-10-22T23:00:00,1750A,123.0485,41.1442,鞍山市,太平,,40,40,53,17,19,77,57,66,46,20,28,9,13,0.5,0.9
2023-10-22T23:00:00,1751A,122.9642,41.0971,鞍山市,铁西三道街,颗粒物(PM10),65,80,56,32,22,76,10,64,25,59,38,7,13,1.0,1.2
2023-10-22T23:00:00,1752A,122.9341,41.0833,鞍山市,铁西工业园区,颗粒物(PM10),66,82,50,33,22,79,6,68,23,61,34,7,13,1.2,1.2
2023-10-22T23:00:00,1753A,123.022,41.0821,鞍山市,明达新区,,50,50,38,23,18,73,20,63,49,45,25,8,14,0.6,1.2
2023-10-22T23:00:00,1754A,123.1289,41.0228,鞍山市,千山,,,,,,,,,,,,,,,,
2023-10-22T23:00:00,1755A,123.7977,41.8491,抚顺市,望花区,颗粒物(PM10),121,192,66,87,30,81,7,64,26,55,39,11,18,1.0,0.8
2023-10-22T23:00:00,1756A,123.9161,41.8822,抚顺市,顺城区,细颗粒物(PM2.5),211,202,77,161,50,79,8,59,32,49,43,7,9,1.4,1.1
2023-10-22T23:00:00,1757A,124.0436,41.8611,抚顺市,东洲区,颗粒物(PM10),73,95,64,48,26,77,23,60,30,28,32,14,15,0.9,0.8
2023-10-22T23:00:00,1758A,123.9247,41.8642,抚顺市,新抚区,细颗粒物(PM2.5),127,143,69,96,40,79,5,62,27,40,31,7,9,0.9,0.7
2023-10-22T23:00:00,1759A,124.0972,41.8961,抚顺市,大伙房水库,细颗粒物(PM2.5),89,67,44,66,26,80,20,68,46,40,26,9,14,0.9,0.8
2023-10-22T23:00:00,1760A,123.7086,41.8391,抚顺市,沈抚新城,细颗粒物(PM2.5),179,155,56,135,38,82,6,69,33,48,33,8,14,1.3,0.7
2023-10-22T23:00:00,1761A,123.8275,41.3064,本溪市,大峪,颗粒物(PM10),59,67,52,32,23,76,20,67,44,47,39,10,18,0.9,1.1
2023-10-22T23:00:00,1762A,123.7567,41.3325,本溪市,溪湖,颗粒物(PM10),86,121,82,34,39,85,6,68,29,54,46,14,32,0.7,2
2023-10-22T23:00:00,1763A,123.7169,41.3094,本溪市,彩屯,颗粒物(PM10),75,100,75,41,31,84,9,65,25,60,46,11,18,1.1,1.6
2023-10-22T23:00:00,1764A,123.7669,41.2864,本溪市,东明,颗粒物(PM10),86,121,87,50,35,84,7,68,28,66,47,12,22,1.4,1.7
2023-10-22T23:00:00,1765A,123.7992,41.2664,本溪市,新立屯,,48,48,42,25,15,84,10,59,20,54,41,13,19,1.4,1.2
2023-10-22T23:00:00,1766A,123.8142,41.3472,本溪市,威宁,颗粒物(PM10),70,90,67,46,27,79,5,60,24,46,37,6,9,1.0,0.9
2023-10-22T23:00:00,1767A,121.1115,41.0879,锦州市,南山,细颗粒物(PM2.5),159,88,33,121,24,84,9,73,43,64,33,9,10,2.0,0.6
2023-10-22T23:00:00,1768A,121.0533,40.8434,锦州市,开发区,细颗粒物(PM2.5),83,109,56,61,19,84,5,66,24,114,60,28,18,0.9,0.7
2023-10-22T23:00:00,1769A,121.1836,41.1119,锦州市,百股街道,颗粒物(PM10),60,69,33,41,14,86,3,77,50,60,27,9,11,1.2,0.7
2023-10-22T23:00:00,1770A,121.1178,41.1222,锦州市,天安街道,细颗粒物(PM2.5),98,126,60,73,26,87,9,72,36,68,43,13,11,2.1,1
2023-10-22T23:00:00,1771A,121.1303,41.1386,锦州市,北湖公园,细颗粒物(PM2.5),82,67,34,60,23,91,10,76,46,72,32,12,13,1.3,0.6
2023-10-22T23:00:00,1772A,126.54,43.8622,吉林市,哈达湾,细颗粒物(PM2.5),59,62,29,42,18,78,11,74,49,58,20,8,8,1.0,0.6
2023-10-22T23:00:00,1773A,126.5844,43.8358,吉林市,东局子,,42,42,41,21,16,74,26,64,28,35,26,6,7,0.7,0.6
2023-10-22T23:00:00,1774A,126.5052,43.8245,吉林市,电力学院,颗粒物(PM10),58,66,54,39,26,78,6,68,26,45,25,10,12,1.0,0.8
2023-10-22T23:00:00,1775A,126.6133,43.8972,吉林市,江北,颗粒物(PM10),65,79,54,44,26,75,12,67,28,48,28,9,13,1.1,0.7
2023-10-22T23:00:00,1776A,126.555,43.8306,吉林市,江南公园,颗粒物(PM10),63,75,39,39,19,73,5,66,32,56,24,8,9,1.1,0.7
2023-10-22T23:00:00,1778A,126.7061,43.7133,吉林市,丰满,,,,,,,,,,,,,,,,
2023-10-22T23:00:00,1779A,123.9305,47.3636,齐齐哈尔市,安居小区,,35,35,36,20,20,63,48,50,44,10,19,5,6,0.3,0.3
2023-10-22T23:00:00,1780A,123.9488,47.3386,齐齐哈尔市,中心广场,,47,47,33,14,13,62,50,49,44,8,16,2,2,0.3,0.4
2023-10-22T23:00:00,1781A,123.9483,47.3227,齐齐哈尔市,农牧车辆厂,,48,48,39,2,8,62,49,54,50,10,16,6,7,0.3,0.4
2023-10-22T23:00:00,1783A,123.945,47.2988,齐齐哈尔市,市环境监测站,,46,46,37,12,12,64,51,56,52,10,16,4,5,0.2,0.3
2023-10-22T23:00:00,1784A,129.61,44.561,牡丹江市,环保大楼,,46,46,36,16,16,68,17,61,35,33,20,6,7,0.5,0.5
2023-10-22T23:00:00,1785A,129.6115,44.5782,牡丹江市,文化广场,,48,48,40,24,28,64,12,57,25,36,26,6,6,0.5,0.4
2023-10-22T23:00:00,1786A,129.5904,44.5963,牡丹江市,第一医院,细颗粒物(PM2.5),57,49,38,40,24,65,2,57,25,37,26,10,8,0.7,0.5
2023-10-22T23:00:00,1787A,129.6364,44.6075,牡丹江市,机车工厂,细颗粒物(PM2.5),65,50,54,47,29,66,6,59,24,33,28,8,10,0.8,0.6
2023-10-22T23:00:00,1788A,129.6386,44.5462,牡丹江市,第一中学,,40,40,41,24,21,69,22,61,23,18,21,7,7,0.3,0.4
2023-10-22T23:00:00,1789A,124.81117,46.03138,大庆市,大同区,,30,30,33,17,13,49,35,44,37,14,16,6,6,0.4,0.4
2023-10-22T23:00:00,1790A,125.129,46.533,大庆市,龙凤区,,23,23,27,12,17,46,35,38,30,13,19,4,5,0.4,0.5
2023-10-22T23:00:00,1791A,124.902,46.408,大庆市,红岗区,,26,26,22,8,13,53,42,48,44,13,17,5,5,0.3,0.3
2023-10-22T23:00:00,1792A,125.153,46.586,大庆市,萨尔图区,,22,22,28,13,12,46,42,39,38,19,18,4,4,0.3,0.3
2023-10-22T23:00:00,1793A,124.9042,46.6215,大庆市,让胡路区,,24,24,23,9,11,53,48,48,47,13,15,4,4,0.4,0.4
2023-10-22T23:00:00,1794A,118.3606,31.3519,芜湖市,监测站,颗粒物(PM10),56,62,57,32,32,117,33,99,58,84,61,9,11,0.7,0.7
2023-10-22T23:00:00,1795A,118.3714,31.4134,芜湖市,科创中心,细颗粒物(PM2.5),75,92,66,55,36,144,2,119,64,106,62,8,9,0.7,0.4
2023-10-22T23:00:00,1796A,118.3673,31.3131,芜湖市,四水厂,颗粒物(PM10),56,61,58,34,27,118,51,103,78,60,46,7,11,0.5,0.7
2023-10-22T23:00:00,1798A,118.5092,31.6837,马鞍山市,湖东路四小,细颗粒物(PM2.5),62,72,49,44,29,139,1,122,61,91,47,7,10,1.0,0.7
2023-10-22T23:00:00,1799A,118.5024,31.6449,马鞍山市,开发区,细颗粒物(PM2.5),62,64,58,44,42,144,25,124,73,73,40,9,12,0.9,0.7
2023-10-22T23:00:00,1800A,118.5228,31.7231,马鞍山市,慈湖,颗粒物(PM10),72,94,72,49,48,141,9,119,77,80,52,10,9,0.7,0.7
2023-10-22T23:00:00,1802A,118.6245,31.7241,马鞍山市,濮塘,,38,38,40,21,22,133,99,116,104,8,14,8,7,0.3,0.4
2023-10-22T23:00:00,1803A,115.9872,29.6815,九江市,十里,细颗粒物(PM2.5),60,63,56,43,33,146,38,125,89,52,42,6,8,0.8,0.8
2023-10-22T23:00:00,1804A,115.9584,29.7046,九江市,茅山头,细颗粒物(PM2.5),55,56,44,39,29,141,5,127,84,82,42,8,11,0.8,0.8
2023-10-22T23:00:00,1805A,115.9877,29.7295,九江市,西园,"颗粒物(PM10),细颗粒物(PM2.5)",65,80,55,47,33,126,30,108,86,82,48,11,11,1.2,0.9
2023-10-22T23:00:00,1806A,116.0172,29.6547,九江市,五七二七厂,,32,25,35,14,23,146,102,128,117,14,18,10,12,0.4,0.6
2023-10-22T23:00:00,1808A,115.9114,29.6038,九江市,综合工业园,颗粒物(PM10),68,85,54,48,34,142,75,111,90,31,43,10,11,0.9,0.9
2023-10-22T23:00:00,1809A,116.0721,29.7535,九江市,石化总厂,细颗粒物(PM2.5),79,96,57,58,33,141,59,121,100,36,34,12,10,0.8,0.7
2023-10-22T23:00:00,1810A,115.9773,29.5698,九江市,庐山气象台,,45,29,20,20,18,146,141,136,136,6,6,7,7,0.4,0.6
2023-10-22T23:00:00,1812A,112.3931,34.6516,洛阳市,市委党校,细颗粒物(PM2.5),64,74,63,46,39,120,32,92,61,55,39,11,8,0.7,0.7
2023-10-22T23:00:00,1814A,112.4657,34.6871,洛阳市,豫西宾馆,颗粒物(PM10),78,105,79,44,40,111,1,86,48,80,49,5,9,1.2,0.8
2023-10-22T23:00:00,1815A,112.494,34.6886,洛阳市,河南林校,颗粒物(PM10),55,60,57,34,33,105,2,87,49,60,39,2,5,0.6,0.6
2023-10-22T23:00:00,1816A,112.3844,34.623,洛阳市,开发区管委会,颗粒物(PM10),59,67,45,40,28,121,52,98,78,40,28,5,3,0.5,0.5
2023-10-22T23:00:00,1817A,112.4267,34.6258,洛阳市,市委新办公区,"颗粒物(PM10),细颗粒物(PM2.5)",62,73,48,44,28,117,62,93,70,33,34,7,4,0.5,0.4
2023-10-22T23:00:00,1818A,114.4839,36.0621,安阳市,棉研所,,,,,,,,,,,,,,,,
2023-10-22T23:00:00,1819A,114.3551,36.1017,安阳市,红庙街,颗粒物(PM10),73,96,89,46,53,134,57,107,89,52,48,11,12,0.8,1.1
2023-10-22T23:00:00,1820A,114.361,36.0681,安阳市,银杏小区,颗粒物(PM10),70,90,81,49,55,132,44,104,82,59,44,10,10,0.7,1
2023-10-22T23:00:00,1824A,114.3389,34.7781,开封市,肿瘤医院,颗粒物(PM10),64,78,80,39,50,126,54,105,80,40,39,11,11,0.4,0.5
2023-10-22T23:00:00,1826A,114.2885,34.7965,开封市,世纪星幼儿园,,,72,74,39,46,126,,108,99,36,50,6,7,0.4,0.8
2023-10-22T23:00:00,1828A,113.227,35.2125,焦作市,市环保局,颗粒物(PM10),54,58,68,27,36,114,61,95,70,35,38,8,10,0.4,0.6
2023-10-22T23:00:00,1830A,113.1992,35.2590,焦作市,影视城,,,,,,,,,,,,,,,,
2023-10-22T23:00:00,1832A,113.3257,33.742,平顶山市,新华旅馆,颗粒物(PM10),78,105,80,50,40,125,4,116,79,89,47,6,10,0.9,0.6
2023-10-22T23:00:00,1833A,113.2919,33.737,平顶山市,规划设计院,细颗粒物(PM2.5),75,78,64,55,38,126,13,117,89,75,38,8,13,0.8,0.6
2023-10-22T23:00:00,1834A,113.182,33.774,平顶山市,平顶山工学院,颗粒物(PM10),63,76,65,44,35,139,86,123,105,20,24,5,23,0.6,0.6
2023-10-22T23:00:00,1835A,111.1922,34.7752,三门峡市,市政府,颗粒物(PM10),53,55,45,19,20,116,2,78,38,72,48,7,9,0.6,0.7
2023-10-22T23:00:00,1836A,111.1587,34.7942,三门峡市,开发区,颗粒物(PM10),71,92,66,39,32,115,3,87,48,55,34,7,10,0.6,0.6
2023-10-22T23:00:00,1838A,111.143,34.7955,三门峡市,风景区,,,,,,,,,,,,,,,,
2023-10-22T23:00:00,1840A,111.2992,30.6981,宜昌市,白龙岗,颗粒物(PM10),51,51,49,31,28,135,74,114,99,32,32,6,6,0.5,0.5
2023-10-22T23:00:00,1841A,111.3549,30.6465,宜昌市,伍家岗,细颗粒物(PM2.5),77,72,50,56,32,141,14,119,77,64,36,6,7,0.8,0.7
2023-10-22T23:00:00,1842A,111.2628,30.6961,宜昌市,点军区,细颗粒物(PM2.5),85,73,42,63,32,140,32,113,89,29,25,9,8,0.7,0.5
2023-10-22T23:00:00,1843A,111.3275,30.7819,宜昌市,夷陵区,细颗粒物(PM2.5),64,69,52,46,29,131,36,112,82,54,29,8,8,0.6,0.5
2023-10-22T23:00:00,1844A,112.2494,30.3197,荆州市,市图书馆,细颗粒物(PM2.5),99,94,85,74,60,178,95,159,126,28,29,26,16,0.7,0.7
2023-10-22T23:00:00,1845A,112.2008,30.3544,荆州市,市委党校,细颗粒物(PM2.5),85,94,81,63,59,178,64,160,118,48,32,15,13,0.9,0.8
2023-10-22T23:00:00,1847A,113.1094,29.3578,岳阳市,南湖风景区,细颗粒物(PM2.5),53,51,45,37,27,164,72,151,123,58,35,14,12,1.0,0.8
2023-10-22T23:00:00,1848A,113.1493,29.4251,岳阳市,城陵矶,颗粒物(PM10),57,64,52,35,27,173,6,134,93,97,47,20,12,0.9,0.7
2023-10-22T23:00:00,1849A,113.1497,29.3575,岳阳市,开发区,细颗粒物(PM2.5),67,53,40,48,33,166,40,146,112,61,34,12,12,0.7,0.6
2023-10-22T23:00:00,1850A,113.2621,29.4758,岳阳市,云溪区,细颗粒物(PM2.5),65,63,39,47,25,178,27,149,102,37,29,8,9,0.8,0.5
2023-10-22T23:00:00,1851A,112.9943,29.4402,岳阳市,君山区,细颗粒物(PM2.5),80,73,57,59,43,159,57,142,112,63,34,7,9,0.7,0.6
2023-10-22T23:00:00,1852A,113.2117,29.355,岳阳市,金凤水库,,46,44,36,32,20,188,115,157,138,13,21,10,6,0.7,0.6
2023-10-22T23:00:00,1854A,111.6975,28.9703,常德市,市二中,细颗粒物(PM2.5),78,101,58,57,39,147,53,130,105,52,24,12,10,0.8,0.6
2023-10-22T23:00:00,1857A,111.7158,29.1456,常德市,白鹤山,,38,38,33,2,4,153,111,135,119,8,10,5,5,0.5,0.4
2023-10-22T23:00:00,1858A,110.5319,29.1217,张家界市,永定新区,,44,44,39,29,26,120,48,106,74,24,17,6,6,0.5,0.5
2023-10-22T23:00:00,1859A,110.4697,29.1242,张家界市,电业局,,43,43,37,27,25,115,24,106,,44,23,8,7,0.6,0.5
2023-10-22T23:00:00,1860A,110.5594,29.3547,张家界市,未央路,,33,33,34,23,20,120,29,105,58,16,14,3,3,0.5,0.4
2023-10-22T23:00:00,1861A,110.4417,29.315,张家界市,袁家界,,47,47,31,25,18,112,59,102,68,20,11,10,9,0.6,0.6
2023-10-22T23:00:00,1862A,110.4144,25.3167,桂林市,电子科大尧山校区,,37,37,32,22,20,119,85,116,96,9,7,3,3,0.5,0.5
2023-10-22T23:00:00,1863A,110.2819,25.2697,桂林市,监测站,,36,36,40,23,25,136,93,128,99,20,15,7,7,0.7,0.6
2023-10-22T23:00:00,1864A,110.3089,25.2708,桂林市,龙隐路小学,,32,32,33,22,24,136,101,130,106,11,10,8,8,0.5,0.5
2023-10-22T23:00:00,1865A,110.2869,25.2178,桂林市,八中,,38,38,35,21,22,142,81,134,101,22,14,5,5,0.8,0.7
2023-10-22T23:00:00,1866A,109.2262,21.588,北海市,牛尾岭水库,,,,,,,,,,,,,,,,
2023-10-22T23:00:00,1867A,109.1436,21.4086,北海市,海滩公园,,14,14,7,7,4,57,44,54,51,8,8,5,5,0.7,0.6
2023-10-22T23:00:00,1868A,109.0981,21.4661,北海市,新市环保局,,25,17,13,17,8,70,48,65,58,7,6,5,6,0.7,0.7
2023-10-22T23:00:00,1869A,109.1778,21.5233,北海市,北海工业园,,35,22,10,24,8,61,39,56,48,8,8,5,6,0.8,0.7
2023-10-22T23:00:00,1870A,109.4856,24.3895,柳州市,柳东小学,细颗粒物(PM2.5),59,45,32,42,24,128,67,122,110,26,11,10,11,0.6,0.5
2023-10-22T23:00:00,1871A,109.4157,24.3277,柳州市,环保监测站,细颗粒物(PM2.5),64,65,36,46,24,132,72,124,98,18,14,8,8,0.8,0.7
2023-10-22T23:00:00,1872A,109.389,24.341,柳州市,河西水厂,颗粒物(PM10),54,58,49,27,27,137,73,126,97,20,16,10,12,1.3,1.2
2023-10-22T23:00:00,1873A,109.4311,24.2921,柳州市,市四中,颗粒物(PM10),54,58,37,27,21,141,63,131,100,21,16,8,7,0.8,0.7
2023-10-22T23:00:00,1874A,109.4006,24.3631,柳州市,市九中,颗粒物(PM10),58,66,45,40,28,127,75,121,91,19,18,5,9,0.6,0.5
2023-10-22T23:00:00,1875A,109.4958,24.3134,柳州市,古亭山,,32,24,32,22,20,149,36,137,97,50,17,8,9,0.5,0.4
2023-10-22T23:00:00,1876A,109.5078,18.2489,三亚市,河东子站,,22,6,9,4,4,71,69,68,68,5,5,4,3,0.4,0.4
2023-10-22T23:00:00,1877A,109.4964,18.2681,三亚市,河西子站,,20,1,9,2,4,69,62,66,65,6,4,4,3,0.4,0.4
2023-10-22T23:00:00,1878A,104.7778,31.4741,绵阳市,富乐山,颗粒物(PM10),52,53,54,34,36,141,72,118,92,16,20,4,5,0.7,0.7
2023-10-22T23:00:00,1879A,104.7563,31.4535,绵阳市,市人大,细颗粒物(PM2.5),75,82,68,55,46,130,40,111,69,51,37,8,8,0.7,0.7
2023-10-22T23:00:00,1880A,104.6697,31.4668,绵阳市,高新区自来水公司,细颗粒物(PM2.5),73,78,63,53,42,140,42,118,78,52,38,8,9,0.7,0.7
2023-10-22T23:00:00,1881A,104.7287,31.5075,绵阳市,三水厂,细颗粒物(PM2.5),97,112,92,72,56,136,2,100,45,74,46,8,9,0.8,0.8
2023-10-22T23:00:00,1882A,104.563,28.793,宜宾市,石马中学,,,,,,,,,,,,,,,,
2023-10-22T23:00:00,1883A,104.6201,28.7728,宜宾市,市委,细颗粒物(PM2.5),88,108,74,65,46,133,29,112,96,54,34,7,9,0.6,0.5
2023-10-22T23:00:00,1884A,104.6055,28.793,宜宾市,宜宾四中,细颗粒物(PM2.5),117,138,82,88,52,126,20,101,78,67,39,9,9,0.7,0.6
2023-10-22T23:00:00,1885A,104.639,28.7562,宜宾市,市政府,细颗粒物(PM2.5),93,93,77,69,47,129,61,108,94,42,36,9,9,0.7,0.5
2023-10-22T23:00:00,1886A,104.5742,28.7199,宜宾市,黄金嘴,颗粒物(PM10),85,120,113,49,38,127,8,98,71,65,30,8,8,0.7,0.5
2023-10-22T23:00:00,1888A,101.6891,26.571,攀枝花市,弄弄坪,,36,36,59,24,41,132,42,112,89,26,31,10,19,0.6,1.4
2023-10-22T23:00:00,1889A,101.5769,26.5928,攀枝花市,河门口,,43,43,47,27,35,134,39,113,92,29,21,14,15,1.2,1
2023-10-22T23:00:00,1890A,101.7169,26.585,攀枝花市,炳草岗,颗粒物(PM10),76,102,77,36,47,139,6,113,54,83,44,31,28,1.9,1.5
2023-10-22T23:00:00,1891A,101.7369,26.5008,攀枝花市,仁和,,50,8,66,35,44,140,47,112,82,18,21,7,16,0.8,1.3
2023-10-22T23:00:00,1893A,105.4324,28.9634,泸州市,九狮山,,43,43,49,26,25,99,22,76,58,26,25,4,5,0.6,0.5
2023-10-22T23:00:00,1894A,105.4427,28.9063,泸州市,小市上码头,颗粒物(PM10),65,79,63,44,36,129,78,113,105,29,29,10,11,0.8,0.7
2023-10-22T23:00:00,1895A,105.4241,28.8573,泸州市,兰田宪桥,细颗粒物(PM2.5),63,74,55,45,36,115,42,99,82,34,24,5,7,0.7,0.6
2023-10-22T23:00:00,1896A,105.4379,28.8833,泸州市,市环监站,细颗粒物(PM2.5),62,72,55,44,29,102,36,90,80,55,30,5,9,0.8,0.6
2023-10-22T23:00:00,1901A,104.4239,31.1208,德阳市,东山公园,颗粒物(PM10),64,78,75,35,38,145,72,123,99,23,20,2,3,0.5,0.5
2023-10-22T23:00:00,1902A,104.3826,31.1317,德阳市,西小区,细颗粒物(PM2.5),130,103,84,99,53,141,24,113,78,60,36,5,4,0.7,0.7
2023-10-22T23:00:00,1904A,104.3553,31.1091,德阳市,耐火材料厂,细颗粒物(PM2.5),75,89,93,55,53,148,56,121,90,29,30,2,4,0.6,0.6
2023-10-22T23:00:00,1905A,106.056,30.8064,南充市,西山风景区,,,,23,33,29,131,106,113,109,,,13,7,0.2,0.4
2023-10-22T23:00:00,1906A,106.0789,30.8023,南充市,南充市委,细颗粒物(PM2.5),70,79,66,51,43,124,42,103,66,34,28,8,5,0.5,0.5
2023-10-22T23:00:00,1907A,106.1031,30.8217,南充市,南充炼油厂,颗粒物(PM10),75,100,65,45,31,129,24,109,72,59,32,9,6,0.7,0.6
2023-10-22T23:00:00,1908A,106.1064,30.7856,南充市,高坪区监测站,细颗粒物(PM2.5),75,94,68,55,41,118,6,96,58,65,33,7,7,0.7,0.5
2023-10-22T23:00:00,1909A,106.0642,30.7636,南充市,嘉陵区环保局,颗粒物(PM10),64,78,57,44,35,119,8,103,56,71,39,9,7,0.6,0.6
2023-10-22T23:00:00,1910A,106.1087,30.8388,南充市,市环境监测站,颗粒物(PM10),69,87,54,46,32,122,31,105,69,47,30,8,7,0.6,0.5
2023-10-22T23:00:00,1911A,106.9222,27.6869,遵义市,丁字口,,45,41,27,31,21,109,31,100,70,50,28,8,7,0.7,0.5
2023-10-22T23:00:00,1912A,106.9242,27.7019,遵义市,凤凰山,细颗粒物(PM2.5),53,38,29,37,24,124,98,117,112,11,14,9,9,0.5,0.4
2023-10-22T23:00:00,1913A,106.8906,27.6486,遵义市,忠庄,,50,50,41,34,23,114,81,105,92,10,13,3,3,0.4,0.3
2023-10-22T23:00:00,1914A,106.9231,27.6506,遵义市,舟水桥,颗粒物(PM10),54,57,38,26,21,118,23,108,68,34,18,2,2,0.8,0.6
2023-10-22T23:00:00,1915A,106.9178,27.72,遵义市,干田坝,细颗粒物(PM2.5),53,45,31,37,22,122,21,109,78,44,21,6,6,0.7,0.5
2023-10-22T23:00:00,1916A,103.7897,25.5035,曲靖市,环境监测站,颗粒物(PM10),56,61,47,25,26,113,41,94,73,22,17,8,6,0.8,0.7
2023-10-22T23:00:00,1917A,103.8,25.5364,曲靖市,烟厂办公区,,50,50,44,25,23,67,49,61,,21,19,6,10,0.6,0.9
2023-10-22T23:00:00,1918A,108.7197,34.3956,咸阳市,气象站,,,,,,,,,,,,,,,,
2023-10-22T23:00:00,1919A,108.673,34.3155,咸阳市,实验中学,颗粒物(PM10),95,140,99,51,52,99,2,76,48,85,54,3,4,1.1,0.8
2023-10-22T23:00:00,1920A,108.7233,34.3617,咸阳市,师范学院,细颗粒物(PM2.5),114,158,93,86,64,89,6,63,41,96,61,6,6,0.8,0.7
2023-10-22T23:00:00,1922A,109.0656,35.0994,铜川市,党校,颗粒物(PM10),76,101,66,48,32,107,4,87,41,70,48,9,10,0.9,0.7
2023-10-22T23:00:00,1923A,109.0697,35.0697,铜川市,王益区政府,细颗粒物(PM2.5),69,85,61,50,37,117,3,95,50,55,40,2,4,0.8,0.7
2023-10-22T23:00:00,1924A,108.9344,34.9058,铜川市,新区管委会,颗粒物(PM10),65,79,71,38,34,144,52,118,81,31,35,5,8,0.7,0.7
2023-10-22T23:00:00,1926A,109.4131,36.6275,延安市,枣园,,50,50,31,10,14,111,3,84,39,45,29,6,6,0.4,0.4
2023-10-22T23:00:00,1927A,109.4761,36.6028,延安市,延大医附院,颗粒物(PM10),58,65,41,20,17,102,4,73,29,49,33,4,3,0.7,0.6
2023-10-22T23:00:00,1929A,109.5056,36.6106,延安市,百米大道,颗粒物(PM10),55,60,45,28,20,102,3,71,29,63,44,4,3,1.0,0.8
2023-10-22T23:00:00,1930A,107.185,34.3063,宝鸡市,庙沟村,颗粒物(PM10),53,56,33,25,19,87,45,72,65,36,19,9,9,0.3,0.3
2023-10-22T23:00:00,1931A,107.0708,34.3017,宝鸡市,竹园沟,,33,24,27,23,18,104,26,83,61,22,17,6,6,0.4,0.4
2023-10-22T23:00:00,1932A,107.1906,34.3672,宝鸡市,三陆医院,细颗粒物(PM2.5),87,69,58,64,34,96,10,81,52,59,39,15,14,0.6,0.6
2023-10-22T23:00:00,1933A,107.1431,34.3547,宝鸡市,监测站,,42,40,40,29,24,95,18,80,55,40,27,6,6,0.5,0.5
2023-10-22T23:00:00,1934A,107.1186,34.3739,宝鸡市,技工学校,"颗粒物(PM10),细颗粒物(PM2.5)",53,56,48,37,29,93,37,78,62,32,30,7,12,0.5,0.5
2023-10-22T23:00:00,1935A,107.3906,34.3528,宝鸡市,陈仓区环保局家属楼,细颗粒物(PM2.5),75,75,60,55,45,102,9,83,47,64,42,9,12,0.7,0.6
2023-10-22T23:00:00,1936A,107.2058,34.3497,宝鸡市,文理学院,颗粒物(PM10),54,57,47,26,26,102,19,88,60,50,33,6,8,0.6,0.6
2023-10-22T23:00:00,1937A,107.2386,34.3622,宝鸡市,三迪小学,,,,,,,,,,,,,,,,
2023-10-22T23:00:00,1938A,109.5293,34.5101,渭南市,农科所,细颗粒物(PM2.5),89,88,79,66,51,103,29,70,52,35,40,5,6,0.8,0.9
2023-10-22T23:00:00,1939A,109.4974,34.4877,渭南市,日报社,细颗粒物(PM2.5),93,100,80,69,49,106,3,38,33,59,51,8,10,0.5,0.5
2023-10-22T23:00:00,1940A,109.4636,34.493,渭南市,体育馆,细颗粒物(PM2.5),89,102,86,66,50,102,2,74,42,70,53,4,8,0.7,0.6
2023-10-22T23:00:00,1941A,109.4259,34.5023,渭南市,高新一小,细颗粒物(PM2.5),98,112,95,73,62,91,2,72,39,70,46,5,6,0.7,0.7
2023-10-22T23:00:00,1944A,102.1692,38.5167,金昌市,天庆家园,颗粒物(PM10),66,82,46,27,20,114,39,106,83,42,26,8,12,0.8,0.8
2023-10-22T23:00:00,1945A,98.2908,39.7711,嘉峪关市,气象局,颗粒物(PM10),73,95,54,24,17,95,59,87,73,26,26,13,14,0.2,0.3
2023-10-22T23:00:00,1947A,106.3394,38.817,石嘴山市,沙湖旅游区,颗粒物(PM10),105,160,89,58,47,162,11,142,96,86,45,14,18,0.7,0.7
2023-10-22T23:00:00,1948A,106.3668,39.0145,石嘴山市,大武口朝阳西街,细颗粒物(PM2.5),67,74,72,48,43,142,51,126,101,88,50,19,22,0.8,0.7
2023-10-22T23:00:00,1949A,106.7704,39.2282,石嘴山市,惠农南大街,颗粒物(PM10),73,95,89,49,42,128,4,100,64,107,58,18,38,0.8,1.3
2023-10-22T23:00:00,1950A,106.7099,39.1325,石嘴山市,红果子镇惠新街,细颗粒物(PM2.5),172,202,111,130,63,133,28,111,86,93,51,125,42,0.9,1.2
2023-10-22T23:00:00,1951A,84.895,45.6094,克拉玛依市,长征新村,颗粒物(PM10),81,111,70,21,14,105,72,78,73,31,35,12,12,0.6,0.5
2023-10-22T23:00:00,1952A,84.8988,45.5893,克拉玛依市,南林小区,颗粒物(PM10),84,118,78,47,29,106,20,73,51,73,48,4,6,1.0,0.8
2023-10-22T23:00:00,1954A,84.905,44.3396,克拉玛依市,独山子区,颗粒物(PM10),107,163,97,65,40,113,59,98,81,41,32,12,11,0.9,0.6
2023-10-22T23:00:00,1955A,85.6979,46.098,克拉玛依市,乌尔禾区商贸楼,颗粒物(PM10),68,86,66,20,16,101,31,87,74,50,26,9,9,0.4,0.4
2023-10-22T23:00:00,1956A,86.1472,41.7538,巴音郭楞州,孔雀公园,颗粒物(PM10),131,211,210,66,50,89,2,72,52,88,55,6,3,2.8,0.8
2023-10-22T23:00:00,1957A,86.1972,41.7166,巴音郭楞州,棉纺厂,颗粒物(PM10),140,229,265,57,53,90,0,74,49,84,46,3,2,0.7,0.5
2023-10-22T23:00:00,1958A,86.2357,41.7173,巴音郭楞州,经济开发区,颗粒物(PM10),110,169,250,38,50,94,33,81,60,49,34,3,3,0.4,0.3
2023-10-22T23:00:00,1961A,117.532,36.6868,济南市,东山小学,颗粒物(PM10),67,83,83,42,41,150,132,139,128,22,25,7,10,0.3,0.3
2023-10-22T23:00:00,1966A,120.0405,35.8735,青岛市,黄岛区4号,,,97,70,56,36,157,,144,142,52,37,10,12,0.8,0.9
2023-10-22T23:00:00,1982A,122.0693,37.2174,威海市,文登开发区,细颗粒物(PM2.5),67,75,57,48,27,131,89,120,106,24,25,10,10,0.8,0.6
2023-10-22T23:00:00,2031A,113.1817,27.9958,株洲市,云田中学,细颗粒物(PM2.5),92,92,52,68,34,158,48,144,100,40,26,8,8,1.2,1.1
2023-10-22T23:00:00,2054A,114.1099,32.1059,信阳市,平桥分局,,47,47,31,27,17,136,86,127,104,17,15,4,4,0.5,0.5
2023-10-22T23:00:00,2064A,113.9956,32.1271,信阳市,南湾水厂,,36,36,32,24,18,145,86,135,117,13,11,3,4,0.6,0.6
2023-10-22T23:00:00,2065A,114.0775,32.1195,信阳市,市酿酒公司,颗粒物(PM10),51,52,38,33,22,141,88,129,109,19,25,3,3,0.7,0.6
2023-10-22T23:00:00,2066A,114.0609,32.1399,信阳市,审计局,,50,50,43,31,22,144,93,135,117,25,22,5,5,0.6,0.5
2023-10-22T23:00:00,2067A,114.6613,33.6128,周口市,市环境监测站,颗粒物(PM10),88,126,76,55,35,136,69,121,83,50,38,11,11,0.4,0.3
2023-10-22T23:00:00,2068A,114.6758,33.6347,周口市,周口师范,颗粒物(PM10),67,83,60,39,27,140,82,122,96,41,31,6,6,0.8,0.7
2023-10-22T23:00:00,2069A,114.6546,33.5979,周口市,市运管处,颗粒物(PM10),91,131,86,49,33,133,62,118,89,57,32,4,4,0.4,0.3
2023-10-22T23:00:00,2070A,114.6369,33.6406,周口市,川汇区环保局,颗粒物(PM10),74,97,63,40,33,133,83,117,92,42,32,7,7,0.4,0.4
2023-10-22T23:00:00,2075A,117.6336,24.4674,漳州市,九湖,,,,,,,,,,,,,,,,
2023-10-22T23:00:00,2160A,112.85,35.5051,晋城市,自来水公司,细颗粒物(PM2.5),55,57,91,39,55,144,11,116,78,70,47,7,12,0.8,1.6
2023-10-22T23:00:00,2161A,112.8318,35.4936,晋城市,白云商贸,颗粒物(PM10),65,80,81,31,40,126,27,113,76,52,40,5,8,1.0,1.4
2023-10-22T23:00:00,2162A,112.8508,35.4887,晋城市,市环保局,颗粒物(PM10),67,84,100,36,51,127,8,111,66,76,51,6,9,1.4,1.7
2023-10-22T23:00:00,2163A,112.8676,35.4897,晋城市,技术学院,颗粒物(PM10),76,101,99,48,58,140,8,115,73,81,52,7,11,1.5,1.7
2023-10-22T23:00:00,2165A,112.8453,35.546,晋城市,白马寺,,,,,,,,,,,,,,,,
2023-10-22T23:00:00,2166A,112.4397,39.3522,朔州市,平朔,颗粒物(PM10),109,167,80,48,35,131,4,107,56,66,44,12,17,0.7,0.7
2023-10-22T23:00:00,2167A,112.4575,39.3617,朔州市,朔唯,颗粒物(PM10),129,207,118,51,47,120,1,95,48,70,55,11,23,0.8,0.8
2023-10-22T23:00:00,2168A,112.4258,39.3197,朔州市,区政府,颗粒物(PM10),63,76,65,25,31,124,39,102,61,50,46,10,15,0.8,0.8
2023-10-22T23:00:00,2169A,112.4072,39.3278,朔州市,市环保局,颗粒物(PM10),61,72,74,21,30,122,19,100,53,51,43,8,18,0.7,0.7
2023-10-22T23:00:00,2170A,112.4272,39.3681,朔州市,市二中,颗粒物(PM10),142,234,104,56,40,128,4,104,52,72,50,11,18,0.7,0.7
2023-10-22T23:00:00,2171A,112.7532,37.6945,晋中市,锦纶小区,,48,48,62,27,25,114,28,96,57,58,46,8,12,0.4,0.5
2023-10-22T23:00:00,2173A,112.7249,37.7067,晋中市,南都小区,颗粒物(PM10),62,74,71,38,32,118,14,96,49,69,49,8,12,0.5,0.5
2023-10-22T23:00:00,2174A,112.6991,37.6982,晋中市,榆次区政府,颗粒物(PM10),54,57,60,32,29,118,28,98,54,59,47,8,13,0.6,0.7
2023-10-22T23:00:00,2175A,110.9956,35.0147,运城市,运城中学,颗粒物(PM10),90,130,123,66,73,144,11,116,82,66,41,6,15,0.9,1
2023-10-22T23:00:00,2178A,110.9686,35.0303,运城市,地区技校,颗粒物(PM10),130,209,159,92,80,142,5,112,57,90,52,8,16,1.7,1.4
2023-10-22T23:00:00,2179A,111.0414,35.1147,运城市,空港新区,细颗粒物(PM2.5),170,198,139,129,84,148,12,123,70,62,53,10,10,0.7,0.9
2023-10-22T23:00:00,2181A,112.7383,38.4519,忻州市,开发区,颗粒物(PM10),52,53,49,29,22,111,19,78,53,70,48,12,12,0.8,0.7
2023-10-22T23:00:00,2182A,112.7003,38.4928,忻州市,会展中心,颗粒物(PM10),64,77,53,33,28,103,9,71,42,69,43,9,10,0.7,0.6
2023-10-22T23:00:00,2183A,111.1406,37.5211,吕梁市,环保局,颗粒物(PM10),89,127,75,32,19,108,3,79,36,66,49,4,4,0.6,0.6
2023-10-22T23:00:00,2185A,111.1297,37.5136,吕梁市,自来水公司,颗粒物(PM10),108,166,92,69,28,106,5,81,45,60,39,6,5,0.5,0.5
2023-10-22T23:00:00,2187A,106.8174,39.6973,乌海市,市林业局,颗粒物(PM10),72,93,63,49,30,120,37,112,84,77,42,38,23,1.2,1.1
2023-10-22T23:00:00,2188A,106.7907,39.6667,乌海市,中海勃湾学校,颗粒物(PM10),81,111,82,42,32,118,7,106,61,109,59,32,31,1.1,1.1
2023-10-22T23:00:00,2191A,122.2532,43.6801,通辽市,艺术职业学校,,34,34,37,8,10,82,72,74,45,16,26,6,6,0.2,0.2
2023-10-22T23:00:00,2192A,119.7594,49.2261,呼伦贝尔市,区环保局,,32,32,30,20,17,80,38,65,44,26,19,4,4,0.4,0.4
2023-10-22T23:00:00,2195A,107.4212,40.761,巴彦淖尔市,附二中,颗粒物(PM10),54,57,89,26,39,119,91,114,96,19,38,5,11,0.5,0.7
2023-10-22T23:00:00,2196A,107.37,40.7372,巴彦淖尔市,市环保大楼,颗粒物(PM10),53,55,86,22,39,123,71,109,92,22,37,4,5,0.5,0.7
2023-10-22T23:00:00,2197A,113.1306,40.9923,乌兰察布市,集宁新区,颗粒物(PM10),52,53,63,27,35,131,15,113,79,87,39,19,11,0.7,0.7
2023-10-22T23:00:00,2200A,122.0392,46.0656,兴安盟,胜华新制药厂,,35,35,30,17,16,77,64,71,62,6,12,4,4,0.4,0.4
2023-10-22T23:00:00,2201A,121.9504,46.0741,兴安盟,科右前旗环保局,,32,32,27,22,15,79,60,71,53,7,16,3,3,0.4,0.4
2023-10-22T23:00:00,2202A,116.1042,43.9317,锡林郭勒盟,市环保监测站,,23,23,17,5,3,90,14,82,59,43,13,6,8,0.3,0.3
2023-10-22T23:00:00,2203A,116.0781,43.9311,锡林郭勒盟,市政府,,27,27,17,13,5,84,15,75,50,47,21,9,9,0.4,0.2
2023-10-22T23:00:00,2204A,105.6467,38.8363,阿拉善盟,西城区西花园,,36,35,32,25,19,130,103,121,112,14,14,8,8,0.8,0.7
2023-10-22T23:00:00,2205A,105.6985,38.8411,阿拉善盟,蒙二幼,,33,32,29,17,14,127,104,121,108,10,13,9,9,0.5,0.5
2023-10-22T23:00:00,2206A,105.724,38.8516,阿拉善盟,环保局新楼,,40,40,36,13,13,118,114,116,114,6,8,8,8,0.5,0.5
2023-10-22T23:00:00,2207A,121.6094,41.998,阜新市,工业园区,颗粒物(PM10),92,134,60,47,18,92,4,74,33,56,35,10,9,1.0,0.7
2023-10-22T23:00:00,2208A,121.6697,42.0279,阜新市,长青街,细颗粒物(PM2.5),82,86,48,60,24,84,3,67,38,58,31,9,9,1.2,0.8
2023-10-22T23:00:00,2209A,121.6673,42.0705,阜新市,农业园区,,41,41,33,19,13,81,51,72,62,20,18,14,12,0.4,0.4
2023-10-22T23:00:00,2210A,121.6717,42.0224,阜新市,东苑,颗粒物(PM10),70,89,50,38,23,80,4,65,39,65,37,19,13,1.4,0.8
2023-10-22T23:00:00,2211A,121.6506,42.0498,阜新市,玉龙新城,颗粒物(PM10),54,58,59,15,18,92,8,78,30,53,34,15,9,1.0,0.8
2023-10-22T23:00:00,2212A,123.2,41.1953,辽阳市,宏伟区,,48,48,34,21,14,79,42,66,46,20,23,9,12,0.6,0.6
2023-10-22T23:00:00,2213A,123.1683,41.2495,辽阳市,新华园,颗粒物(PM10),67,83,43,32,20,82,2,67,26,62,31,13,13,0.9,1
2023-10-22T23:00:00,2214A,123.2354,41.2639,辽阳市,滨河路,颗粒物(PM10),59,68,43,39,21,82,23,68,34,43,24,11,11,0.8,0.9
2023-10-22T23:00:00,2215A,123.149,41.2991,辽阳市,铁西工业园,颗粒物(PM10),69,88,58,45,27,83,6,69,22,51,31,10,13,0.8,0.9
2023-10-22T23:00:00,2216A,123.8139,42.3022,铁岭市,汇工街西,细颗粒物(PM2.5),123,109,56,93,30,81,13,68,33,48,33,18,30,1.0,0.9
2023-10-22T23:00:00,2217A,123.8649,42.2923,铁岭市,水上乐园,细颗粒物(PM2.5),160,116,53,122,31,80,26,64,41,38,32,5,8,1.1,0.8
2023-10-22T23:00:00,2218A,123.8486,42.2867,铁岭市,银州路东段,细颗粒物(PM2.5),113,118,55,85,27,73,26,63,40,38,33,5,9,0.8,0.7
2023-10-22T23:00:00,2219A,123.7153,42.2217,铁岭市,金沙江路北,,45,45,39,27,20,80,23,67,28,39,36,8,15,0.5,0.7
2023-10-22T23:00:00,2220A,120.4318,41.5881,朝阳市,西梁,颗粒物(PM10),57,64,33,24,13,81,5,72,54,52,24,11,12,1.0,0.9
2023-10-22T23:00:00,2221A,120.4521,41.5646,朝阳市,河畔小区,,27,27,27,15,9,87,44,78,70,28,18,8,9,0.7,0.7
2023-10-22T23:00:00,2222A,120.4176,41.5648,朝阳市,八里堡,,44,44,36,14,13,82,8,70,52,57,32,8,11,0.7,0.7
2023-10-22T23:00:00,2223A,120.3806,41.5969,朝阳市,农业园区,,27,27,35,13,17,84,14,70,42,51,31,7,12,0.6,0.8
2023-10-22T23:00:00,2225A,124.4002,43.1713,四平市,一商场,颗粒物(PM10),58,66,59,37,24,71,3,58,21,53,33,13,9,0.7,0.8
2023-10-22T23:00:00,2226A,124.388,43.193,四平市,境园,细颗粒物(PM2.5),59,36,42,42,24,77,6,65,25,45,27,5,8,0.5,0.8
2023-10-22T23:00:00,2227A,125.1358,42.8845,辽源市,环保局,细颗粒物(PM2.5),69,69,32,50,19,86,11,77,35,33,20,10,15,1.0,0.7
2023-10-22T23:00:00,2229A,125.9358,41.7173,通化市,光明,,39,39,37,24,15,88,13,77,32,43,39,8,11,0.7,0.7
2023-10-22T23:00:00,2230A,125.9446,41.7325,通化市,铁路,,33,33,32,22,15,94,18,82,45,36,32,4,8,0.8,0.7
2023-10-22T23:00:00,2231A,126.4219,41.9171,白山市,喜丰,颗粒物(PM10),60,69,54,24,18,84,10,71,34,49,33,12,13,0.8,0.8
2023-10-22T23:00:00,2232A,126.4077,41.9419,白山市,环保局,颗粒物(PM10),56,61,53,21,20,87,20,68,18,37,33,14,15,0.8,1
2023-10-22T23:00:00,2233A,124.8006,45.1214,松原市,江南,,32,32,41,17,17,59,31,51,26,18,16,7,8,0.4,0.5
2023-10-22T23:00:00,2234A,124.7965,45.1722,松原市,江北,,25,25,24,16,10,61,55,57,40,11,12,2,4,0.4,0.4
2023-10-22T23:00:00,2235A,122.7911,45.6077,白城市,洮北区环保局,,27,27,30,9,11,88,69,81,73,9,12,8,8,0.4,0.4
2023-10-22T23:00:00,2236A,122.8738,45.5725,白城市,市环保局,,38,38,38,5,8,83,48,68,54,20,17,9,8,0.4,0.5
2023-10-22T23:00:00,2237A,129.47,42.8883,延边朝鲜族自治州,妇幼医院,,28,28,27,10,14,78,27,68,36,19,25,9,13,0.6,0.6
2023-10-22T23:00:00,2238A,129.5055,42.9108,延边朝鲜族自治州,延边医院,,42,42,44,28,17,82,18,80,43,43,35,8,12,0.9,0.7
2023-10-22T23:00:00,2239A,129.3964,42.8881,延边朝鲜族自治州,朝阳川镇医院,,21,21,25,10,11,86,30,80,50,10,13,6,7,0.5,0.5
2023-10-22T23:00:00,2240A,130.9762,45.3001,鸡西市,环保局,,32,32,27,14,9,49,32,46,34,19,14,4,4,0.3,0.2
2023-10-22T23:00:00,2243A,130.9429,45.3039,鸡西市,第一中学,,34,34,26,10,9,58,40,54,44,14,11,7,6,0.1,0.1
2023-10-22T23:00:00,2244A,130.2537,47.3416,鹤岗市,哈啤分公司,,28,21,16,19,14,63,40,58,54,10,6,12,14,0.3,0.2
2023-10-22T23:00:00,2245A,130.2684,47.3086,鹤岗市,斯达机电,,30,30,23,17,13,62,57,57,,17,8,10,9,0.3,0.3
2023-10-22T23:00:00,2246A,130.3114,47.3388,鹤岗市,东山纸板厂,,,,33,,13,52,,53,,,8,,11,,0.4
2023-10-22T23:00:00,2247A,130.1097,47.3382,鹤岗市,五号水库,,25,25,15,8,7,65,14,60,44,20,7,10,12,0.3,0.4
2023-10-22T23:00:00,2248A,131.1511,46.6937,双鸭山市,双合村,,18,8,16,4,6,61,56,59,58,2,3,8,8,0.4,0.4
2023-10-22T23:00:00,2249A,131.1652,46.6191,双鸭山市,南小市,,17,7,20,2,10,63,52,54,52,3,7,6,7,0.3,0.4
2023-10-22T23:00:00,2250A,131.1524,46.6554,双鸭山市,环保局,,25,21,22,17,13,57,40,53,49,14,11,8,8,0.6,0.4
2023-10-22T23:00:00,2251A,131.12,46.5656,双鸭山市,苗圃,,27,27,28,9,10,75,71,72,72,4,4,4,3,0.2,0.2
2023-10-22T23:00:00,2252A,128.5159,47.4311,伊春市,环保局,,20,20,16,6,7,58,24,53,36,17,8,4,4,0.4,0.3
2023-10-22T23:00:00,2253A,128.9102,47.7412,伊春市,电力嘉园,,37,37,18,16,11,62,30,57,48,17,6,3,5,0.4,0.3
2023-10-22T23:00:00,2254A,129.5029,48.471,伊春市,汤旺河国家公园,,11,11,16,3,9,60,35,56,43,3,4,2,4,0.1,0.1
2023-10-22T23:00:00,2255A,130.2751,46.8028,佳木斯市,佳纺,,19,19,20,7,9,55,38,48,38,15,12,1,2,0.4,0.4
2023-10-22T23:00:00,2256A,130.3995,46.8307,佳木斯市,发电厂,,17,17,13,9,10,58,40,52,44,11,8,5,6,0.4,0.4
2023-10-22T23:00:00,2257A,130.3258,46.7975,佳木斯市,环保局,,17,17,14,7,9,56,39,50,40,12,10,3,4,0.4,0.4
2023-10-22T23:00:00,2258A,130.3648,46.8032,佳木斯市,十一中,,23,23,18,8,9,54,34,47,37,21,14,3,3,0.4,0.3
2023-10-22T23:00:00,2259A,130.3794,46.7588,佳木斯市,四丰,,18,8,8,3,4,64,57,61,60,5,6,1,1,0.1,0.1
2023-10-22T23:00:00,2262A,131.0518,45.8751,七台河市,新一中,,32,32,16,17,10,68,33,62,51,26,10,18,8,0.6,0.4
2023-10-22T23:00:00,2263A,127.4833,50.2524,黑河市,交通局,,28,28,17,19,13,60,20,56,29,24,14,3,4,0.6,0.5
2023-10-22T23:00:00,2264A,127.5144,50.2341,黑河市,环保局,颗粒物(PM10),54,58,20,32,15,60,5,58,26,40,13,6,4,0.9,0.4
2023-10-22T23:00:00,2265A,127.5291,50.2472,黑河市,大黑河岛,,,33,14,20,13,,,,,1,2,3,4,,
2023-10-22T23:00:00,2266A,126.9785,46.6365,绥化市,人和东街,,36,36,26,15,11,50,32,43,30,21,18,4,4,0.4,0.3
2023-10-22T23:00:00,2267A,126.964,46.6528,绥化市,党政办公中心,,33,33,25,15,10,52,37,45,32,18,15,4,3,0.3,0.3
2023-10-22T23:00:00,2269A,124.1069,50.4097,大兴安岭地区,科技局,,29,19,17,20,15,62,29,58,33,8,8,6,6,0.2,0.2
2023-10-22T23:00:00,2270A,117.396,32.939,蚌埠市,工人疗养院,细颗粒物(PM2.5),80,102,62,59,33,162,9,140,90,126,34,8,7,0.7,0.6
2023-10-22T23:00:00,2271A,117.3605,32.9427,蚌埠市,百货大楼,细颗粒物(PM2.5),85,113,69,63,33,154,15,139,86,115,40,7,7,0.8,0.6
2023-10-22T23:00:00,2273A,117.4185,32.8911,蚌埠市,蚌埠学院,颗粒物(PM10),63,75,59,44,30,156,58,143,98,65,33,5,7,0.5,0.4
2023-10-22T23:00:00,2274A,117.3533,32.9673,蚌埠市,淮上区政府,细颗粒物(PM2.5),90,105,68,67,42,149,26,133,78,106,41,9,9,0.7,0.5
2023-10-22T23:00:00,2275A,117.3145,32.8977,蚌埠市,高新区,细颗粒物(PM2.5),77,97,66,56,37,161,28,139,82,77,46,5,9,0.8,0.5
2023-10-22T23:00:00,2277A,116.8305,32.7727,淮南市,潘集区政府,细颗粒物(PM2.5),85,102,90,63,52,167,78,136,107,50,43,21,14,0.6,0.5
2023-10-22T23:00:00,2278A,117.0067,32.6524,淮南市,师范学院,颗粒物(PM10),77,104,74,49,41,151,37,137,82,74,36,8,11,1.0,0.7
2023-10-22T23:00:00,2279A,116.8569,32.5951,淮南市,谢家集区政府,细颗粒物(PM2.5),78,90,50,57,36,154,62,146,132,65,39,18,24,0.6,0.4
2023-10-22T23:00:00,2280A,116.8281,32.633,淮南市,八公山区政府,细颗粒物(PM2.5),78,95,68,57,38,147,83,140,118,33,30,10,15,0.5,0.4
2023-10-22T23:00:00,2281A,116.6325,32.6201,淮南市,焦岗湖风景区管理处,细颗粒物(PM2.5),64,72,53,46,37,137,3,123,71,60,37,2,2,0.5,0.3
2023-10-22T23:00:00,2282A,116.8004,33.975,淮北市,监测站,"颗粒物(PM10),细颗粒物(PM2.5)",58,65,83,41,51,123,70,108,74,40,41,11,11,0.7,0.6
2023-10-22T23:00:00,2283A,116.8091,33.9007,淮北市,烈山区政府,细颗粒物(PM2.5),92,113,101,68,61,129,62,119,95,66,53,19,12,0.6,0.4
2023-10-22T23:00:00,2285A,117.8177,30.9412,铜陵市,市第四中学,颗粒物(PM10),55,60,58,35,30,119,37,104,72,55,35,15,18,0.8,0.9
2023-10-22T23:00:00,2286A,117.8059,30.9273,铜陵市,市公路局,,40,40,54,26,24,118,54,100,80,34,29,20,23,0.7,0.9
2023-10-22T23:00:00,2287A,117.7807,30.9413,铜陵市,市新民污水厂,颗粒物(PM10),58,66,50,28,26,124,7,107,56,76,41,5,5,0.5,0.5
2023-10-22T23:00:00,2288A,117.7439,30.8792,铜陵市,市第九中学,颗粒物(PM10),97,143,87,27,27,122,5,98,64,88,49,4,5,0.4,0.6
2023-10-22T23:00:00,2289A,117.846,30.9413,铜陵市,车站新区,,46,46,45,31,30,110,49,88,64,37,42,6,8,0.4,0.5
2023-10-22T23:00:00,2290A,117.8483,30.97,铜陵市,市职教基地,细颗粒物(PM2.5),72,85,49,52,26,109,21,97,71,43,31,8,10,0.7,0.6
2023-10-22T23:00:00,2291A,117.0809,30.5177,安庆市,环科院,颗粒物(PM10),64,78,49,38,24,125,2,107,57,97,45,8,9,0.8,0.7
2023-10-22T23:00:00,2292A,117.0331,30.5119,安庆市,马山宾馆,颗粒物(PM10),53,56,44,35,23,128,20,107,44,66,49,5,8,0.5,0.6
2023-10-22T23:00:00,2294A,116.9896,30.6145,安庆市,安庆大学,,48,48,54,23,26,133,38,113,76,38,41,6,8,0.7,0.7
2023-10-22T23:00:00,2295A,118.2903,29.6963,黄山市,延安路89号,细颗粒物(PM2.5),94,79,36,70,18,118,13,94,62,18,13,10,6,0.4,0.3
2023-10-22T23:00:00,2296A,118.327,29.7178,黄山市,黄山东路89号,,41,41,40,27,19,115,21,90,57,18,16,4,5,0.6,0.6
2023-10-22T23:00:00,2297A,118.1371,30.2756,黄山市,黄山区政府5号楼,细颗粒物(PM2.5),70,74,46,51,28,116,12,94,46,14,14,6,6,0.8,0.6
2023-10-22T23:00:00,2298A,118.3093,32.3153,滁州市,老年大学,,45,45,52,31,34,158,29,139,88,34,36,5,8,0.6,0.5
2023-10-22T23:00:00,2299A,118.3244,32.2786,滁州市,人大宾馆,,46,46,59,27,31,158,71,138,93,37,41,6,10,0.4,0.5
2023-10-22T23:00:00,2301A,115.8277,32.8929,阜阳市,市监测站,细颗粒物(PM2.5),99,114,71,74,46,152,32,131,83,69,35,12,8,0.6,0.5
2023-10-22T23:00:00,2303A,115.8554,32.8605,阜阳市,开发区,颗粒物(PM10),61,71,74,34,35,155,94,135,115,42,34,9,10,0.6,0.7
2023-10-22T23:00:00,2307A,116.5079,31.737,六安市,监测大楼,,49,49,41,20,21,131,69,120,93,36,28,4,5,0.4,0.3
2023-10-22T23:00:00,2308A,116.4738,31.7643,六安市,皖西学院,颗粒物(PM10),64,77,45,22,18,129,5,119,70,72,32,7,6,0.6,0.4
2023-10-22T23:00:00,2309A,116.4996,31.7905,六安市,朝阳厂,颗粒物(PM10),55,59,42,30,29,134,2,126,78,79,34,6,7,0.6,0.4
2023-10-22T23:00:00,2310A,116.5567,31.7886,六安市,开发区,颗粒物(PM10),84,118,63,43,30,125,24,108,65,51,29,8,6,0.6,0.4
2023-10-22T23:00:00,2311A,115.8072,33.8399,亳州市,污水处理厂,细颗粒物(PM2.5),79,89,64,58,38,147,63,131,95,55,37,17,12,0.5,0.5
2023-10-22T23:00:00,2312A,115.7789,33.8518,亳州市,三国揽胜宫,颗粒物(PM10),63,75,60,36,24,153,97,134,111,39,30,12,10,0.5,0.5
2023-10-22T23:00:00,2314A,117.47,30.6618,池州市,池州学院,"颗粒物(PM10),细颗粒物(PM2.5)",59,68,40,42,23,127,20,113,78,43,20,4,6,0.6,0.8
2023-10-22T23:00:00,2316A,118.7581,30.9454,宣城市,鳌峰子站,颗粒物(PM10),60,70,50,39,26,121,36,109,79,45,26,5,5,0.6,0.5
2023-10-22T23:00:00,2317A,118.7385,30.9743,宣城市,敬亭山子站,,23,23,37,16,24,124,70,103,89,15,22,7,8,0.4,0.5
2023-10-22T23:00:00,2318A,118.7173,30.9427,宣城市,开发区子站,颗粒物(PM10),60,70,48,29,23,118,6,105,66,76,35,6,6,0.6,0.5
2023-10-22T23:00:00,2319A,119.0141,25.4325,莆田市,荔城区仓后路,,22,20,22,7,7,82,70,76,70,9,8,6,6,0.6,0.5
2023-10-22T23:00:00,2320A,119.0015,25.4553,莆田市,莆田市监测站,,25,14,18,4,4,89,78,82,78,4,5,7,7,0.6,0.6
2023-10-22T23:00:00,2321A,119.1119,25.4561,莆田市,涵江区六中,,22,20,22,8,6,86,68,83,73,7,6,7,7,0.5,0.5
2023-10-22T23:00:00,2322A,119.1013,25.3215,莆田市,秀屿区政府,,25,25,23,8,5,86,67,83,74,12,11,7,6,0.6,0.6
2023-10-22T23:00:00,2323A,118.981,25.4792,莆田市,东圳水库,,,,,,,,,,,,,,,,
2023-10-22T23:00:00,2324A,117.6211,26.2625,三明市,三钢,,36,29,26,25,20,67,19,61,45,29,20,8,10,0.4,0.5
2023-10-22T23:00:00,2325A,117.635,26.2714,三明市,三明二中,,30,28,27,21,20,65,26,59,46,20,17,5,7,0.5,0.5
2023-10-22T23:00:00,2326A,117.6028,26.2378,三明市,三元区政府,,36,36,26,19,17,64,10,60,46,34,19,10,12,0.7,0.6
2023-10-22T23:00:00,2327A,117.7275,26.3108,三明市,洋溪,,,,,,,,,,,,,,,,
2023-10-22T23:00:00,2331A,118.0966,26.6761,南平市,茫荡山,,,,,,,,,,,,,,,,
2023-10-22T23:00:00,2332A,118.1681,26.6369,南平市,南平市监测站,,32,31,29,22,17,68,13,58,38,29,18,7,7,0.8,0.7
2023-10-22T23:00:00,2333A,118.1825,26.6489,南平市,南平铝业有限公司,,34,34,25,22,18,68,4,55,31,33,21,11,7,0.7,0.7
2023-10-22T23:00:00,2334A,118.1756,26.6272,南平市,南平七中,,28,24,24,19,17,71,18,61,41,22,15,5,6,0.7,0.7
2023-10-22T23:00:00,2335A,117.0189,25.1181,龙岩市,龙岩师专,,,,,,,,,,,,,,,,
2023-10-22T23:00:00,2336A,117.0217,25.1033,龙岩市,龙岩市监测站,,26,23,18,18,15,87,48,76,62,12,12,8,6,0.5,0.6
2023-10-22T23:00:00,2337A,117.0258,25.0661,龙岩市,闽西职业技术学院,,23,19,20,16,13,85,47,74,58,9,10,6,5,0.6,0.6
2023-10-22T23:00:00,2338A,117.0196,25.0306,龙岩市,龙岩学院,,30,30,20,13,13,86,21,69,48,15,11,6,5,0.6,0.5
2023-10-22T23:00:00,2339A,119.5001,26.6946,宁德市,金涵水库,,,,,,,,,,,,,,,,
2023-10-22T23:00:00,2341A,119.5388,26.6612,宁德市,宁德市监测站,,24,24,30,12,16,81,40,64,51,16,16,6,7,0.6,0.6
2023-10-22T23:00:00,2342A,117.3102,29.3867,景德镇市,王港中学,,37,37,34,17,21,135,14,100,60,8,7,2,3,0.3,0.4
2023-10-22T23:00:00,2343A,117.2117,29.2933,景德镇市,老干部活动中心,颗粒物(PM10),58,66,36,34,27,122,13,98,70,40,21,9,12,0.7,0.5
2023-10-22T23:00:00,2344A,117.1894,29.2789,景德镇市,兽医站,细颗粒物(PM2.5),54,43,34,38,26,114,27,93,71,29,16,9,11,0.9,0.7
2023-10-22T23:00:00,2345A,117.1547,29.2617,景德镇市,台达陶瓷,颗粒物(PM10),57,63,43,39,26,112,19,87,49,49,31,29,31,0.7,0.6
2023-10-22T23:00:00,2346A,117.2461,29.2956,景德镇市,陶研所,颗粒物(PM10),58,66,49,29,16,116,15,87,63,31,23,6,8,0.6,0.5
2023-10-22T23:00:00,2347A,114.0997,27.5002,萍乡市,武功山,,25,12,15,17,13,127,61,110,88,5,5,5,6,0.2,0.2
2023-10-22T23:00:00,2348A,113.8385,27.6434,萍乡市,中医院,细颗粒物(PM2.5),75,76,49,55,29,133,20,116,70,51,26,12,13,1.0,0.9
2023-10-22T23:00:00,2349A,113.8493,27.6253,萍乡市,市政府车库,细颗粒物(PM2.5),65,65,45,47,27,133,42,115,78,25,21,10,14,0.7,1
2023-10-22T23:00:00,2350A,113.8676,27.6435,萍乡市,市环保局,细颗粒物(PM2.5),58,60,45,41,29,134,49,118,91,44,27,14,14,0.8,0.9
2023-10-22T23:00:00,2351A,113.866,27.6198,萍乡市,安源区政府,细颗粒物(PM2.5),64,71,44,46,28,137,37,118,85,27,20,8,12,0.7,0.9
2023-10-22T23:00:00,2352A,115.0861,27.9317,新余市,北岗,,29,26,24,20,18,141,24,120,82,6,13,8,17,0.5,0.5
2023-10-22T23:00:00,2353A,114.9886,27.8431,新余市,飞宇,颗粒物(PM10),64,77,58,36,27,124,5,112,74,86,36,6,10,0.5,0.5
2023-10-22T23:00:00,2354A,114.9231,27.8246,新余市,第二水厂,颗粒物(PM10),59,67,56,32,28,138,37,123,86,54,33,8,10,0.6,0.6
2023-10-22T23:00:00,2355A,114.9308,27.8036,新余市,市气象局,细颗粒物(PM2.5),72,80,55,52,30,134,22,124,85,63,29,10,15,0.9,0.8
2023-10-22T23:00:00,2357A,116.9822,28.1136,鹰潭市,龙虎山,,34,34,27,8,6,129,31,112,78,5,5,4,5,0.1,0.1
2023-10-22T23:00:00,2358A,117.0564,28.2642,鹰潭市,新监测站,颗粒物(PM10),53,56,44,27,25,151,87,134,121,13,18,6,13,0.5,0.5
2023-10-22T23:00:00,2359A,117.0311,28.2475,鹰潭市,财苑宾馆,颗粒物(PM10),56,61,47,27,26,148,90,137,124,18,22,6,17,0.2,0.4
2023-10-22T23:00:00,2360A,117.0222,28.2264,鹰潭市,体育馆,颗粒物(PM10),54,57,42,33,24,146,15,134,108,40,18,1,11,0.5,0.6
2023-10-22T23:00:00,2361A,117.0017,28.2131,鹰潭市,三川水表,颗粒物(PM10),56,62,47,35,24,141,44,122,94,23,19,7,8,0.6,0.5
2023-10-22T23:00:00,2362A,114.9017,25.9149,赣州市,通天岩,,,,,,,,,,,,,,,,
2023-10-22T23:00:00,2363A,114.9367,25.8664,赣州市,地委,,42,42,44,25,25,120,86,103,79,11,14,4,11,0.7,0.8
2023-10-22T23:00:00,2364A,114.9461,25.8481,赣州市,气象台,,32,30,38,22,25,122,87,104,74,16,22,8,13,0.7,0.8
2023-10-22T23:00:00,2365A,114.9322,25.8333,赣州市,市图书馆,,42,42,48,26,23,119,89,104,80,14,15,14,12,0.8,0.9
2023-10-22T23:00:00,2366A,114.8905,25.8471,赣州市,华坚鞋城,,40,40,44,17,23,120,103,106,81,9,15,9,12,0.9,0.8
2023-10-22T23:00:00,2367A,114.9754,27.0803,吉安市,红声器材厂,颗粒物(PM10),53,55,46,29,23,136,36,125,90,45,23,8,10,0.6,0.7
2023-10-22T23:00:00,2368A,114.9658,27.0999,吉安市,市森林工业局,颗粒物(PM10),52,54,42,32,23,134,41,123,91,41,20,11,15,0.5,0.4
2023-10-22T23:00:00,2369A,114.99,27.1312,吉安市,市环境监测站,颗粒物(PM10),54,57,39,32,22,137,50,129,96,36,21,9,12,0.8,0.7
2023-10-22T23:00:00,2370A,115.0093,27.0968,吉安市,青原区法院,颗粒物(PM10),51,51,40,30,23,135,38,125,79,38,24,8,12,0.5,0.5
2023-10-22T23:00:00,2371A,114.3408,27.8064,宜春市,槟榔水业,颗粒物(PM10),53,56,42,32,19,142,58,124,101,41,32,4,4,0.7,0.5
2023-10-22T23:00:00,2373A,114.3956,27.7844,宜春市,市石油公司,颗粒物(PM10),57,63,46,37,24,136,43,116,80,28,20,4,6,1.0,0.8
2023-10-22T23:00:00,2374A,114.3703,27.7914,宜春市,市气象局,,49,48,42,34,24,134,52,118,95,41,22,5,7,0.9,0.6
2023-10-22T23:00:00,2375A,114.4013,27.8074,宜春市,市广电局,细颗粒物(PM2.5),63,72,45,45,22,136,42,123,94,48,26,8,8,1.0,0.7
2023-10-22T23:00:00,2376A,116.2127,28.0814,抚州市,桐源党溪,,44,44,34,23,16,134,44,122,80,12,14,3,3,0.6,0.6
2023-10-22T23:00:00,2377A,116.3544,27.9831,抚州市,市站,颗粒物(PM10),52,54,43,34,25,135,92,122,112,26,23,5,10,0.7,0.5
2023-10-22T23:00:00,2378A,116.3565,27.963,抚州市,血防站,颗粒物(PM10),55,60,51,30,23,133,97,121,113,18,22,5,8,0.8,0.8
2023-10-22T23:00:00,2379A,116.3564,28.0007,抚州市,采茶剧团,颗粒物(PM10),53,56,44,36,27,125,74,111,96,25,19,6,10,0.8,0.7
2023-10-22T23:00:00,2380A,116.385,27.9647,抚州市,医学分院,颗粒物(PM10),53,55,44,31,22,138,87,128,112,21,20,8,12,0.8,0.8
2023-10-22T23:00:00,2381A,118.005,28.4572,上饶市,百草园,,,34,39,12,17,112,48,101,74,14,16,10,13,,
2023-10-22T23:00:00,2382A,117.9756,28.4436,上饶市,市监测站,,46,46,48,30,26,137,39,126,91,35,29,4,11,0.7,0.7
2023-10-22T23:00:00,2383A,117.9519,28.4628,上饶市,凤凰光学,颗粒物(PM10),54,58,52,30,25,126,42,116,76,32,29,5,14,0.6,0.6
2023-10-22T23:00:00,2385A,114.17,35.9019,鹤壁市,市监测站,细颗粒物(PM2.5),72,85,75,52,48,133,14,106,76,61,48,5,10,0.9,0.8
2023-10-22T23:00:00,2386A,114.2956,35.7511,鹤壁市,市交警支队,颗粒物(PM10),81,112,93,56,51,136,15,101,76,88,60,5,8,0.6,0.8
2023-10-22T23:00:00,2387A,114.2878,35.7306,鹤壁市,迎宾馆,"颗粒物(PM10),细颗粒物(PM2.5)",79,107,89,58,54,138,5,108,81,106,61,11,13,0.6,0.8
2023-10-22T23:00:00,2389A,113.836,35.311,新乡市,环保西院,颗粒物(PM10),73,96,88,42,49,135,11,105,62,92,57,9,12,0.7,0.8
2023-10-22T23:00:00,2390A,113.884,35.272,新乡市,开发区,颗粒物(PM10),63,75,76,36,46,143,43,117,74,67,56,8,11,0.6,0.8
2023-10-22T23:00:00,2391A,113.883,35.303,新乡市,环保东院,颗粒物(PM10),67,83,87,43,52,139,38,112,65,75,66,10,13,1.0,1.2
2023-10-22T23:00:00,2392A,115.0312,35.7636,濮阳市,环保局,细颗粒物(PM2.5),68,78,64,49,51,129,40,110,82,57,38,11,8,0.5,0.5
2023-10-22T23:00:00,2394A,115.0574,35.7609,濮阳市,油田运输公司,细颗粒物(PM2.5),79,88,79,58,56,134,55,112,84,47,40,15,7,0.5,0.6
2023-10-22T23:00:00,2395A,115.0866,35.7754,濮阳市,油田物探公司,细颗粒物(PM2.5),88,112,89,65,60,137,43,115,82,51,44,12,9,0.6,0.6
2023-10-22T23:00:00,2396A,113.8276,34.0159,许昌市,监测站,细颗粒物(PM2.5),80,102,72,59,40,126,42,102,80,63,41,8,7,0.7,0.6
2023-10-22T23:00:00,2398A,113.7906,33.9953,许昌市,开发区,细颗粒物(PM2.5),87,105,68,64,45,121,10,98,68,77,43,5,4,0.6,0.6
2023-10-22T23:00:00,2399A,114.051,33.5699,漯河市,三五一五工厂,颗粒物(PM10),89,127,71,61,39,142,37,130,82,71,34,10,10,0.5,0.5
2023-10-22T23:00:00,2400A,114.0055,33.5698,漯河市,漯河大学,颗粒物(PM10),70,90,62,40,32,144,68,130,92,40,28,11,10,0.6,0.5
2023-10-22T23:00:00,2401A,114.0138,33.5828,漯河市,市水利局,颗粒物(PM10),71,92,61,37,31,144,70,130,90,36,27,9,10,0.6,0.6
2023-10-22T23:00:00,2402A,114.0261,33.5698,漯河市,市广电局,颗粒物(PM10),75,100,60,45,37,140,56,129,91,47,31,4,5,0.6,0.5
2023-10-22T23:00:00,2404A,112.5224,33.0122,南阳市,瓦房庄,细颗粒物(PM2.5),83,86,68,61,47,113,62,88,64,39,42,11,8,0.7,0.7
2023-10-22T23:00:00,2405A,112.5003,32.9735,南阳市,汉画馆,细颗粒物(PM2.5),75,87,63,55,40,119,56,101,82,37,34,6,6,0.6,0.6
