timepoint,stationcode,longitude,latitude,area,positionname,primarypollutant,aqi,pm10,pm10_24h,pm2_5,pm2_5_24h,o3,o3_24h,o3_8h,o3_8h_24h,no2,no2_24h,so2,so2_24h,co,co_24h
2023-09-04T23:00:00,1001A,116.3621,39.8784,北京市,万寿西宫,细颗粒物(PM2.5),97,90,69,72,57,183,119,171,160,26,27,3,2,1.0,0.9
2023-09-04T23:00:00,1002A,116.2202,40.2915,北京市,定陵,细颗粒物(PM2.5),73,72,52,53,40,223,73,170,142,7,7,3,3,0.7,0.7
2023-09-04T23:00:00,1003A,116.4174,39.9289,北京市,东四,细颗粒物(PM2.5),72,79,75,52,54,201,155,190,177,12,26,3,3,0.8,0.8
2023-09-04T23:00:00,1004A,116.4072,39.8863,北京市,天坛,细颗粒物(PM2.5),89,81,69,66,59,171,67,164,125,22,23,3,3,0.7,0.7
2023-09-04T23:00:00,1005A,116.462,39.9365,北京市,农展馆,细颗粒物(PM2.5),80,85,79,59,56,193,94,181,158,37,39,3,3,0.9,0.8
2023-09-04T23:00:00,1006A,116.3392,39.9295,北京市,官园,细颗粒物(PM2.5),82,80,68,60,54,197,150,193,180,19,26,3,4,0.8,0.7
2023-09-04T23:00:00,1007A,116.2878,39.9611,北京市,海淀万柳,细颗粒物(PM2.5),77,82,64,56,44,187,123,174,154,26,31,3,3,0.8,0.6
2023-09-04T23:00:00,1008A,116.6636,40.135,北京市,顺义新城,细颗粒物(PM2.5),97,121,76,72,53,241,118,204,166,17,18,3,3,0.7,0.7
2023-09-04T23:00:00,1009A,116.6275,40.3275,北京市,怀柔镇,细颗粒物(PM2.5),88,87,62,65,45,217,108,182,173,12,12,3,3,0.6,0.5
2023-09-04T23:00:00,1010A,116.2296,40.217,北京市,昌平镇,细颗粒物(PM2.5),80,56,44,59,45,237,132,214,200,18,20,3,3,0.7,0.6
2023-09-04T23:00:00,1011A,116.3966,39.9821,北京市,奥体中心,细颗粒物(PM2.5),77,67,61,56,56,180,149,177,169,21,37,3,3,0.8,0.7
2023-09-04T23:00:00,1012A,116.184,39.9136,北京市,古城,细颗粒物(PM2.5),77,92,60,56,43,180,65,173,144,36,19,3,3,0.9,0.8
2023-09-04T23:00:00,1015A,117.1444,39.1661,天津市,勤俭道,细颗粒物(PM2.5),109,110,111,82,87,261,162,249,219,19,24,7,7,0.9,1
2023-09-04T23:00:00,1017A,117.237,39.1082,天津市,大直沽八号路,细颗粒物(PM2.5),134,142,124,102,84,225,157,217,192,17,39,4,4,0.8,1
2023-09-04T23:00:00,1018A,117.202,39.0927,天津市,前进道,细颗粒物(PM2.5),122,126,106,92,74,225,160,214,188,16,31,5,5,0.9,0.9
2023-09-04T23:00:00,1019A,117.1837,39.2133,天津市,淮河道,细颗粒物(PM2.5),118,128,123,89,89,248,174,238,206,13,26,5,5,1.0,1
2023-09-04T23:00:00,1021A,117.307,39.0877,天津市,跃进路,细颗粒物(PM2.5),124,124,111,94,75,246,166,227,199,23,39,6,7,1.0,1
2023-09-04T23:00:00,1023A,117.707,39.0343,天津市,第四大街,细颗粒物(PM2.5),99,107,109,74,80,263,108,214,177,54,38,4,5,0.9,1
2023-09-04T23:00:00,1024A,117.457,38.8394,天津市,永明路,细颗粒物(PM2.5),93,93,102,69,76,223,150,205,190,16,25,6,6,0.8,0.9
2023-09-04T23:00:00,1026A,117.764,39.1587,天津市,汉北路,细颗粒物(PM2.5),103,104,99,77,71,234,165,204,198,13,25,6,6,0.8,1
2023-09-04T23:00:00,1027A,117.157,38.9194,天津市,团泊洼,细颗粒物(PM2.5),120,127,87,91,63,226,134,207,172,21,23,3,4,0.9,0.9
2023-09-04T23:00:00,1029A,114.4422,38.0444,石家庄市,职工医院,细颗粒物(PM2.5),65,69,88,47,53,245,145,224,197,16,30,3,4,0.6,0.8
2023-09-04T23:00:00,1030A,114.6063,38.0266,石家庄市,高新区,颗粒物(PM10),63,76,88,32,55,248,148,234,192,19,27,2,2,0.8,1
2023-09-04T23:00:00,1031A,114.4898,38.1328,石家庄市,西北水源,颗粒物(PM10),75,100,97,49,50,266,90,220,156,33,31,3,2,0.8,0.9
2023-09-04T23:00:00,1032A,114.4586,38.0058,石家庄市,西南高教,细颗粒物(PM2.5),64,76,84,46,51,239,143,216,185,16,25,2,3,0.6,0.8
2023-09-04T23:00:00,1033A,114.5331,38.0178,石家庄市,世纪公园,细颗粒物(PM2.5),65,62,91,47,47,239,124,216,176,23,23,6,3,0.8,1
2023-09-04T23:00:00,1034A,114.509,38.0457,石家庄市,人民会堂,细颗粒物(PM2.5),64,75,83,46,55,259,142,233,197,19,24,9,5,0.6,0.8
2023-09-04T23:00:00,1035A,114.3524,37.8911,石家庄市,封龙山,臭氧1小时,83,65,76,35,43,203,186,194,188,8,9,5,8,1.0,1.2
2023-09-04T23:00:00,1037A,118.131,39.6363,唐山市,雷达站,细颗粒物(PM2.5),100,117,102,75,68,217,126,205,180,22,23,3,4,0.8,1
2023-09-04T23:00:00,1038A,118.1725,39.6334,唐山市,物资局,细颗粒物(PM2.5),94,108,100,70,87,224,109,203,173,29,28,7,7,1.1,1.1
2023-09-04T23:00:00,1040A,118.1705,39.6506,唐山市,十二中,细颗粒物(PM2.5),80,90,94,59,65,211,119,199,174,26,32,4,5,1.0,1.1
2023-09-04T23:00:00,1041A,118.1869,39.622,唐山市,小山,颗粒物(PM10),94,137,113,69,68,204,100,195,166,32,33,4,4,1.1,1.1
2023-09-04T23:00:00,1042A,119.5134,39.8207,秦皇岛市,北戴河环保局,,45,36,44,25,24,220,141,187,179,13,17,9,10,0.3,0.3
2023-09-04T23:00:00,1043A,119.7493,40.0116,秦皇岛市,第一关,细颗粒物(PM2.5),87,68,55,64,36,195,24,181,152,118,41,10,10,0.5,0.5
2023-09-04T23:00:00,1044A,119.5897,39.9499,秦皇岛市,监测站,颗粒物(PM10),70,89,61,46,37,192,133,175,170,20,27,7,6,0.5,0.6
2023-09-04T23:00:00,1046A,119.5251,39.9041,秦皇岛市,建设大厦,颗粒物(PM10),59,67,69,24,21,219,95,193,181,52,28,3,5,0.5,0.6
2023-09-04T23:00:00,1048A,114.5302,36.6116,邯郸市,东污水处理厂,细颗粒物(PM2.5),62,54,66,44,54,229,114,209,164,26,31,6,12,0.5,0.8
2023-09-04T23:00:00,1049A,114.4918,36.5713,邯郸市,矿院,细颗粒物(PM2.5),70,55,64,51,58,231,86,211,156,38,31,10,26,0.7,0.9
2023-09-04T23:00:00,1050A,114.484,36.6133,邯郸市,丛台公园,颗粒物(PM10),56,62,74,37,46,243,128,216,177,11,15,13,9,0.4,0.7
2023-09-04T23:00:00,1051A,115.493,38.8632,保定市,游泳馆,细颗粒物(PM2.5),77,98,78,56,52,205,123,195,169,31,38,6,7,0.6,0.7
2023-09-04T23:00:00,1052A,115.5213,38.8959,保定市,华电二区,细颗粒物(PM2.5),92,99,81,68,47,206,69,195,150,62,34,5,6,0.9,0.8
2023-09-04T23:00:00,1053A,115.4713,38.9108,保定市,接待中心,颗粒物(PM10),80,110,79,42,40,197,41,182,139,64,36,6,7,0.7,0.6
2023-09-04T23:00:00,1054A,115.4612,38.8416,保定市,地表水厂,颗粒物(PM10),70,89,87,47,41,190,77,176,140,54,41,10,9,0.8,0.7
2023-09-04T23:00:00,1056A,115.5086,38.8639,保定市,监测站,细颗粒物(PM2.5),89,92,80,66,52,215,94,202,166,59,40,7,6,0.8,0.6
2023-09-04T23:00:00,1057A,114.8883,40.8336,张家口市,人民公园,,31,31,28,18,12,171,88,156,126,10,11,3,3,0.2,0.2
2023-09-04T23:00:00,1059A,114.8687,40.8042,张家口市,五金库,,,36,37,26,18,167,,139,115,16,16,2,2,0.5,0.5
2023-09-04T23:00:00,1060A,114.8902,40.762,张家口市,世纪豪园,,40,40,33,20,17,170,116,152,137,18,12,3,3,0.4,0.3
2023-09-04T23:00:00,1061A,114.8916,40.8661,张家口市,北泵房,,27,27,27,12,12,178,80,159,108,9,8,7,7,0.3,0.4
2023-09-04T23:00:00,1062A,117.9531,40.9081,承德市,铁路,细颗粒物(PM2.5),80,95,56,59,36,190,96,151,118,44,28,8,11,1.0,0.7
2023-09-04T23:00:00,1063A,117.9392,40.9763,承德市,中国银行,细颗粒物(PM2.5),60,68,52,43,30,197,35,169,125,35,19,7,13,0.8,0.7
2023-09-04T23:00:00,1064A,117.9503,40.928,承德市,开发区,细颗粒物(PM2.5),59,63,50,42,29,197,100,156,126,27,28,6,10,1.0,0.8
2023-09-04T23:00:00,1065A,117.8051,40.9655,承德市,文化中心,细颗粒物(PM2.5),69,84,57,50,31,201,67,172,135,31,27,4,20,0.8,0.8
2023-09-04T23:00:00,1066A,117.9268,41.0026,承德市,离宫,颗粒物(PM10),53,56,53,30,26,199,15,166,98,41,16,1,5,0.7,0.6
2023-09-04T23:00:00,1067A,116.6708,39.5111,廊坊市,药材公司,细颗粒物(PM2.5),105,115,88,79,68,185,133,174,160,27,20,1,2,0.8,0.7
2023-09-04T23:00:00,1068A,116.7214,39.5589,廊坊市,开发区,细颗粒物(PM2.5),105,106,65,79,54,186,102,177,130,27,25,1,1,1.0,0.8
2023-09-04T23:00:00,1070A,116.7244,39.5269,廊坊市,北华航天学院,颗粒物(PM10),105,159,99,73,59,201,87,188,156,42,35,2,2,0.9,0.8
2023-09-04T23:00:00,1071A,116.8842,38.2991,沧州市,沧县城建局,颗粒物(PM10),71,92,68,47,41,196,61,179,143,66,31,6,5,0.7,0.6
2023-09-04T23:00:00,1072A,116.8584,38.3254,沧州市,电视转播站,细颗粒物(PM2.5),64,64,66,46,43,192,70,185,149,47,28,11,10,0.5,0.5
2023-09-04T23:00:00,1073A,116.8709,38.3228,沧州市,市环保局,颗粒物(PM10),71,92,72,44,44,184,53,175,146,64,33,2,3,0.5,0.5
2023-09-04T23:00:00,1074A,115.6838,37.7541,衡水市,电机北厂,细颗粒物(PM2.5),68,75,71,49,43,205,90,194,152,40,34,5,6,0.6,0.6
2023-09-04T23:00:00,1075A,115.6303,37.7316,衡水市,市监测站,颗粒物(PM10),56,61,67,39,36,206,133,193,167,19,31,3,5,0.6,0.7
2023-09-04T23:00:00,1077A,114.4704,37.0886,邢台市,达活泉,颗粒物(PM10),77,104,93,43,44,244,121,226,193,22,9,4,5,1.2,1
2023-09-04T23:00:00,1078A,114.5062,37.0349,邢台市,邢师高专,颗粒物(PM10),72,93,89,51,55,248,55,214,160,50,23,5,6,0.7,1
2023-09-04T23:00:00,1079A,114.5237,37.0851,邢台市,路桥公司,颗粒物(PM10),65,80,78,42,48,238,106,208,167,29,13,8,8,0.8,1.1
2023-09-04T23:00:00,1080A,114.4725,37.0719,邢台市,市环保局,颗粒物(PM10),76,101,93,48,48,245,112,220,184,24,8,6,7,1.1,1
2023-09-04T23:00:00,1081A,112.522,37.8873,太原市,尖草坪,颗粒物(PM10),59,67,54,32,29,194,43,163,122,72,30,6,10,0.7,0.9
2023-09-04T23:00:00,1083A,112.434,38.0108,太原市,上兰,,,,,,,,,,,,,,,,
2023-09-04T23:00:00,1084A,112.469,37.7124,太原市,晋源,颗粒物(PM10),54,58,56,31,30,178,56,158,113,49,30,5,8,0.8,0.9
2023-09-04T23:00:00,1085A,112.5583,37.7394,太原市,小店,颗粒物(PM10),92,134,74,49,30,178,89,154,115,33,40,7,14,0.9,1.2
2023-09-04T23:00:00,1086A,112.5369,37.8692,太原市,桃园,颗粒物(PM10),61,72,55,25,25,189,33,159,118,75,33,6,11,0.8,1
2023-09-04T23:00:00,1087A,112.57,37.8195,太原市,坞城,颗粒物(PM10),60,69,54,41,28,180,94,161,127,35,34,10,14,0.8,0.9
2023-09-04T23:00:00,1088A,112.549,37.9854,太原市,南寨,颗粒物(PM10),60,69,50,26,25,180,25,150,91,66,34,5,7,0.4,0.5
2023-09-04T23:00:00,1090A,111.6507,40.7517,呼和浩特市,呼市一监,,44,44,37,19,17,162,71,154,120,30,26,7,8,0.5,0.5
2023-09-04T23:00:00,1091A,111.6572,40.8033,呼和浩特市,小召,,39,39,39,14,16,162,88,148,126,26,34,8,8,0.5,0.6
2023-09-04T23:00:00,1094A,111.7516,40.8369,呼和浩特市,如意水处理厂,,36,36,38,13,14,171,66,154,122,45,34,8,9,0.4,0.5
2023-09-04T23:00:00,1095A,111.7276,40.8062,呼和浩特市,二十九中,,45,45,42,15,16,168,85,155,128,27,33,9,8,0.6,0.6
2023-09-04T23:00:00,1096A,111.5512,40.7866,呼和浩特市,工大金川校区,,50,50,48,18,17,159,35,148,112,64,36,6,7,0.5,0.5
2023-09-04T23:00:00,1097A,111.717,40.7612,呼和浩特市,化肥厂生活区,,43,43,47,14,16,168,92,157,127,20,28,9,9,0.3,0.4
2023-09-04T23:00:00,1098A,123.6836,41.9339,沈阳市,森林路,,,,,,,,,,,,,,,,
2023-09-04T23:00:00,1099A,123.505,41.7406,沈阳市,浑南东路,细颗粒物(PM2.5),82,104,69,60,33,175,27,148,99,66,38,8,13,1.3,1.3
2023-09-04T23:00:00,1100A,123.4231,41.6989,沈阳市,新秀街,颗粒物(PM10),81,112,73,47,26,159,16,134,77,82,49,8,23,1.2,1.3
2023-09-04T23:00:00,1102A,123.5903,41.8411,沈阳市,东陵路,细颗粒物(PM2.5),72,65,64,52,34,184,25,138,88,25,28,6,10,0.9,1
2023-09-04T23:00:00,1103A,123.4264,41.8467,沈阳市,陵东街,细颗粒物(PM2.5),63,68,49,45,33,166,42,135,78,33,33,6,10,0.9,1
2023-09-04T23:00:00,1104A,123.4114,41.7653,沈阳市,文化路,细颗粒物(PM2.5),83,92,71,61,41,167,102,142,116,23,31,6,22,1.0,1.1
2023-09-04T23:00:00,1105A,123.4678,41.7867,沈阳市,小河沿,细颗粒物(PM2.5),83,100,74,61,46,166,77,138,111,26,36,6,10,1.1,1.2
2023-09-04T23:00:00,1106A,123.4017,41.7972,沈阳市,太原街,细颗粒物(PM2.5),83,77,60,61,43,168,80,136,108,27,31,9,21,0.9,1
2023-09-04T23:00:00,1108A,123.3783,41.9228,沈阳市,京沈街,细颗粒物(PM2.5),55,50,58,39,38,163,54,139,114,9,11,8,14,0.7,1
2023-09-04T23:00:00,1109A,121.612,38.9741,大连市,甘井子,,32,32,30,17,16,117,77,109,87,20,18,5,5,0.2,0.3
2023-09-04T23:00:00,1110A,121.565,38.9511,大连市,周水子,,40,40,34,25,20,127,13,109,67,78,33,6,6,0.7,0.3
2023-09-04T23:00:00,1111A,121.5637,38.8845,大连市,星海三站,,43,36,27,30,22,145,8,129,79,56,22,8,8,0.7,0.4
2023-09-04T23:00:00,1112A,121.6302,38.9117,大连市,青泥洼桥,,33,33,26,20,18,124,43,112,71,43,20,6,6,0.7,0.7
2023-09-04T23:00:00,1113A,121.6251,38.8638,大连市,傅家庄,,33,24,23,23,18,144,81,129,110,23,15,12,9,0.4,0.4
2023-09-04T23:00:00,1114A,121.5213,38.8661,大连市,七贤岭,,29,27,23,20,19,153,50,137,97,18,13,5,6,0.5,0.5
2023-09-04T23:00:00,1115A,121.2529,38.8061,大连市,旅顺,,43,30,22,30,19,153,81,140,127,24,13,6,6,0.7,0.6
2023-09-04T23:00:00,1116A,121.7485,39.1311,大连市,金州,,44,44,29,30,22,148,48,128,71,24,18,8,8,0.4,0.4
2023-09-04T23:00:00,1117A,121.7811,39.0496,大连市,开发区,细颗粒物(PM2.5),54,43,29,38,18,120,49,108,80,52,28,10,9,0.6,0.5
2023-09-04T23:00:00,1118A,121.9762,39.0631,大连市,双D港,,30,29,25,21,18,131,64,122,81,9,10,7,7,0.5,0.5
2023-09-04T23:00:00,1119A,125.3325,43.9166,长春市,食品厂,,29,26,36,20,20,109,51,83,52,18,29,4,5,0.5,0.6
2023-09-04T23:00:00,1120A,125.2863,43.9027,长春市,客车厂,,26,26,33,15,19,107,61,84,53,11,23,4,5,0.5,0.6
2023-09-04T23:00:00,1121A,125.2841,43.8463,长春市,邮电学院,,29,25,31,20,18,120,66,94,62,7,14,5,5,0.4,0.5
2023-09-04T23:00:00,1122A,125.3716,43.8772,长春市,劳动公园,,30,30,32,14,13,125,67,96,66,11,20,6,7,0.5,0.6
2023-09-04T23:00:00,1123A,125.3297,43.8805,长春市,园林处,,30,30,32,18,18,123,60,89,57,10,25,4,6,0.4,0.6
2023-09-04T23:00:00,1124A,125.4605,43.79,长春市,净月潭,,22,19,25,15,13,117,66,96,66,7,9,6,6,0.3,0.4
2023-09-04T23:00:00,1125A,125.7194,43.515,长春市,甩湾子,,,,,,,,,,,,,,,,
2023-09-04T23:00:00,1126A,125.3863,43.8447,长春市,经开区环卫处,,31,31,33,16,17,108,63,84,61,9,21,4,5,0.5,0.5
2023-09-04T23:00:00,1127A,125.245,43.7783,长春市,高新区管委会,,,26,32,20,18,111,,89,53,12,17,5,6,0.4,0.5
2023-09-04T23:00:00,1128A,125.1761,43.8325,长春市,岱山公园,,26,19,29,18,18,108,65,83,56,10,22,2,4,0.4,0.5
2023-09-04T23:00:00,1129A,126.5422,45.755,哈尔滨市,岭北,,,18,28,12,20,119,32,116,54,7,11,10,11,,0.3
2023-09-04T23:00:00,1130A,126.561,45.8167,哈尔滨市,松北商大,,19,16,27,13,14,81,30,81,38,6,12,6,6,0.4,0.5
2023-09-04T23:00:00,1131A,126.979,45.5419,哈尔滨市,阿城会宁,,,17,32,,22,98,46,86,55,13,14,8,5,0.8,0.7
2023-09-04T23:00:00,1132A,126.599,45.7222,哈尔滨市,南岗学府路,,38,38,41,10,16,108,30,108,59,5,12,7,7,0.5,0.6
2023-09-04T23:00:00,1133A,126.689,45.7733,哈尔滨市,太平宏伟公园,,29,29,36,15,17,102,29,102,54,8,17,4,5,0.4,0.5
2023-09-04T23:00:00,1134A,126.635,45.7667,哈尔滨市,道外承德广场,,35,22,34,24,18,103,29,100,57,9,19,9,9,0.3,0.5
2023-09-04T23:00:00,1135A,126.685,45.7319,哈尔滨市,香坊红旗大街,,25,25,33,15,23,105,37,93,70,8,21,1,6,0.6,0.8
2023-09-04T23:00:00,1136A,126.6411,45.7258,哈尔滨市,动力和平路,,,25,35,,,103,31,103,60,10,21,6,7,0.5,0.6
2023-09-04T23:00:00,1137A,126.593,45.7478,哈尔滨市,道里建国路,,26,20,33,18,20,97,30,92,51,11,22,4,6,0.4,1
2023-09-04T23:00:00,1138A,126.615,45.61,哈尔滨市,平房东轻厂,,19,15,31,13,14,99,32,95,51,10,14,6,6,0.3,0.4
2023-09-04T23:00:00,1139A,126.595,45.9855,哈尔滨市,呼兰师专,,16,16,30,9,19,100,34,95,51,7,15,6,6,0.5,0.6
2023-09-04T23:00:00,1140A,126.6206,45.6842,哈尔滨市,省农科院,,39,39,42,14,17,108,38,92,71,11,24,5,6,0.5,0.6
2023-09-04T23:00:00,1141A,121.4,31.238,上海市,普陀,,20,20,22,3,9,58,25,41,27,14,21,5,5,0.5,0.6
2023-09-04T23:00:00,1142A,121.478,31.2036,上海市,十五厂,,23,23,24,13,13,53,32,44,34,14,22,10,11,0.7,0.7
2023-09-04T23:00:00,1143A,121.467,31.3008,上海市,虹口,,21,21,21,9,11,51,28,38,28,19,26,6,7,0.3,0.3
2023-09-04T23:00:00,1144A,121.412,31.1654,上海市,徐汇上师大,,23,21,24,16,13,61,30,46,34,17,23,6,6,0.5,0.5
2023-09-04T23:00:00,1145A,121.536,31.2659,上海市,杨浦四漂,,17,17,24,11,12,48,16,40,29,29,21,6,7,0.4,0.5
2023-09-04T23:00:00,1147A,121.425,31.2261,上海市,静安监测站,,19,18,20,13,12,57,31,45,34,16,24,3,3,0.7,0.7
2023-09-04T23:00:00,1148A,121.703,31.1907,上海市,浦东川沙,,19,19,22,11,11,59,23,46,37,16,12,6,6,0.5,0.5
2023-09-04T23:00:00,1149A,121.533,31.2284,上海市,浦东新区监测站,,22,22,20,10,9,42,28,38,32,12,19,6,6,0.4,0.4
2023-09-04T23:00:00,1150A,121.577,31.2071,上海市,浦东张江,,28,23,22,19,16,44,26,38,34,15,18,5,5,0.5,0.6
2023-09-04T23:00:00,1151A,118.8086,32.1065,南京市,迈皋桥,,24,24,27,12,13,110,38,97,70,18,14,4,3,0.2,0.2
2023-09-04T23:00:00,1152A,118.7538,32.0551,南京市,草场门,,23,23,27,7,14,122,43,105,76,24,19,4,3,0.6,0.5
2023-09-04T23:00:00,1153A,118.7794,32.0745,南京市,山西路,,31,31,34,12,14,118,43,103,73,20,16,4,4,0.3,0.3
2023-09-04T23:00:00,1154A,118.7752,32.0023,南京市,中华门,,24,24,27,12,14,122,42,109,75,18,15,3,3,0.7,0.7
2023-09-04T23:00:00,1155A,118.8109,32.0309,南京市,瑞金路,,24,24,27,9,13,123,44,104,74,11,8,12,11,0.3,0.3
2023-09-04T23:00:00,1156A,118.7997,32.0754,南京市,玄武湖,,30,30,32,9,13,113,36,99,72,23,17,7,5,0.7,0.3
2023-09-04T23:00:00,1157A,118.6414,32.0931,南京市,浦口,,35,35,33,16,14,124,55,112,81,16,15,6,6,0.3,0.4
2023-09-04T23:00:00,1158A,118.7356,31.9996,南京市,奥体中心,,26,26,28,17,19,129,46,112,82,21,15,8,6,0.5,0.5
2023-09-04T23:00:00,1159A,118.9125,32.1028,南京市,仙林大学城,,18,17,27,12,15,127,39,106,73,19,16,10,9,0.6,0.6
2023-09-04T23:00:00,1160A,120.561,31.2472,苏州市,上方山,,29,29,24,20,18,104,8,79,40,21,16,8,7,0.4,0.4
2023-09-04T23:00:00,1162A,120.591,31.3019,苏州市,彩香,,27,27,24,14,14,114,5,90,44,24,13,7,7,0.6,0.6
2023-09-04T23:00:00,1163A,120.596,31.3264,苏州市,轧钢厂,,26,26,23,11,11,116,10,92,45,20,13,9,9,0.7,0.6
2023-09-04T23:00:00,1164A,120.613,31.2703,苏州市,吴中区,,29,29,25,11,12,122,7,93,40,25,19,8,8,0.5,0.6
2023-09-04T23:00:00,1165A,120.543,31.2994,苏州市,苏州新区,,,,,,,,,,,,,,,,
2023-09-04T23:00:00,1166A,120.669,31.3097,苏州市,苏州工业园区,,27,27,22,12,13,112,5,88,40,30,17,8,8,0.6,0.6
2023-09-04T23:00:00,1167A,120.641,31.3708,苏州市,相城区,,19,19,23,8,10,103,4,82,38,26,15,10,9,0.7,0.6
2023-09-04T23:00:00,1168A,120.9098,31.9663,南通市,狼山街道,,15,15,18,3,4,76,11,68,25,18,13,7,7,0.4,0.5
2023-09-04T23:00:00,1169A,120.86,32.0005,南通市,虹桥,,26,26,19,14,12,76,17,69,23,18,13,5,5,0.4,0.5
2023-09-04T23:00:00,1170A,120.87,32.02,南通市,城中,,18,18,18,5,9,74,21,65,25,12,7,6,6,0.4,0.5
2023-09-04T23:00:00,1171A,120.94,31.93,南通市,星湖花园,,10,10,17,5,6,75,17,68,24,18,13,6,6,0.5,0.5
2023-09-04T23:00:00,1172A,120.81,32.0417,南通市,紫琅学院,,18,18,17,4,6,79,15,68,24,21,12,6,6,0.4,0.5
2023-09-04T23:00:00,1173A,119.176,34.5885,连云港市,市环境监测站,,27,27,30,14,14,110,83,105,100,15,19,8,8,0.4,0.4
2023-09-04T23:00:00,1177A,117.179,34.2761,徐州市,黄河新村,,39,39,59,23,32,205,109,183,146,18,22,11,11,0.4,0.4
2023-09-04T23:00:00,1178A,117.1918,34.2384,徐州市,淮塔,,46,46,57,22,29,203,80,177,137,27,23,13,12,0.3,0.3
2023-09-04T23:00:00,1180A,117.256,34.2153,徐州市,新城区,颗粒物(PM10),52,53,56,24,27,193,75,164,125,27,24,12,9,0.5,0.6
2023-09-04T23:00:00,1181A,117.244,34.2911,徐州市,桃园路,,48,48,65,16,30,205,90,176,140,23,20,11,12,0.7,0.7
2023-09-04T23:00:00,1182A,117.2933,34.2778,徐州市,农科院,,41,41,52,27,31,200,50,173,123,62,31,11,10,0.4,0.5
2023-09-04T23:00:00,1186A,119.389,32.3761,扬州市,邗江监测站,,24,24,28,11,17,98,34,88,62,16,11,10,7,0.4,0.5
2023-09-04T23:00:00,1188A,120.269,31.4867,无锡市,雪浪,,14,14,26,7,10,116,13,98,51,19,15,5,5,0.5,0.6
2023-09-04T23:00:00,1189A,120.275,31.6219,无锡市,黄巷,,21,21,33,9,17,111,10,90,45,29,19,6,6,0.6,0.8
2023-09-04T23:00:00,1190A,120.294,31.56,无锡市,曹张,,22,22,28,12,15,102,10,86,41,20,18,9,8,0.5,0.6
2023-09-04T23:00:00,1191A,120.242,31.5031,无锡市,漆塘,,19,19,27,9,14,124,15,102,54,23,21,6,6,0.5,0.6
2023-09-04T23:00:00,1192A,120.3489,31.5863,无锡市,东亭,,25,17,29,17,18,101,10,84,40,28,24,5,6,0.4,0.5
2023-09-04T23:00:00,1193A,120.354,31.5475,无锡市,旺庄,,19,19,27,7,17,117,7,91,43,21,14,11,10,0.7,0.8
2023-09-04T23:00:00,1194A,120.245,31.5631,无锡市,荣巷,,17,17,25,7,14,107,12,95,50,17,12,10,10,0.4,0.6
2023-09-04T23:00:00,1195A,120.299,31.6817,无锡市,堰桥,,19,19,27,5,14,105,12,87,43,20,14,6,6,0.4,0.6
2023-09-04T23:00:00,1196A,119.9633,31.762,常州市,市监测站,,,,35,14,16,119,,97,66,36,20,10,9,0.7,0.6
2023-09-04T23:00:00,1200A,119.9468,31.7069,常州市,武进监测站,,31,31,33,11,15,129,9,103,47,28,14,7,7,0.9,0.9
2023-09-04T23:00:00,1201A,119.9255,31.9087,常州市,安家,,28,28,27,16,16,107,10,97,48,31,15,9,7,0.6,0.6
2023-09-04T23:00:00,1203A,119.6707,32.1875,镇江市,新区办事处,,30,30,32,17,20,107,9,93,55,44,21,6,4,0.7,0.7
2023-09-04T23:00:00,1204A,119.4974,32.1968,镇江市,职教中心,,20,20,28,14,17,109,34,101,64,17,11,7,4,0.5,0.5
2023-09-04T23:00:00,1205A,119.4303,32.1328,镇江市,丹徒区监测站,,19,19,28,13,21,120,37,104,70,14,9,1,2,0.6,0.6
2023-09-04T23:00:00,1206A,119.905,32.4878,泰州市,公园路,,19,19,26,9,19,92,20,81,44,17,12,10,8,0.6,0.6
2023-09-04T23:00:00,1207A,119.9189,32.4625,泰州市,莲花,,20,20,25,9,13,97,20,88,51,19,10,5,5,0.5,0.6
2023-09-04T23:00:00,1209A,119.888,32.4639,泰州市,留学生创业园,,28,28,29,13,14,99,18,86,47,22,13,10,8,0.6,0.6
2023-09-04T23:00:00,1210A,119.036,33.5981,淮安市,钵池山,,36,36,33,25,18,102,54,89,70,16,13,8,9,0.8,0.8
2023-09-04T23:00:00,1211A,119.007,33.575,淮安市,北京南路,,39,39,30,21,17,104,63,93,75,21,17,9,9,0.6,0.6
2023-09-04T23:00:00,1212A,118.989,33.6067,淮安市,市监测站,,32,31,32,22,15,119,71,102,85,17,19,7,8,0.5,0.6
2023-09-04T23:00:00,1213A,119.135,33.5039,淮安市,楚州区监测站,,30,22,26,21,16,92,64,86,76,12,13,8,8,0.6,0.6
2023-09-04T23:00:00,1214A,119.0186,33.6297,淮安市,淮阴区监测站,,39,39,32,22,18,114,60,98,77,19,18,6,8,0.6,0.6
2023-09-04T23:00:00,1215A,120.118,33.4022,盐城市,盐城电厂,,12,12,22,2,12,111,35,94,50,9,6,6,7,0.3,0.4
2023-09-04T23:00:00,1216A,120.156,33.3942,盐城市,市监测站,,13,9,21,8,13,120,41,100,49,10,9,5,8,0.1,0.2
2023-09-04T23:00:00,1218A,120.2144,33.38,盐城市,开发区管委会,,16,6,15,1,11,109,49,92,49,6,9,7,9,0.4,0.4
2023-09-04T23:00:00,1220A,118.293,33.9528,宿迁市,宿迁学院,,33,33,32,23,22,130,86,114,105,18,18,10,10,0.5,0.4
2023-09-04T23:00:00,1221A,118.2442,33.9592,宿迁市,宿迁中学,,40,40,34,24,22,132,81,112,103,18,19,7,7,0.5,0.6
2023-09-04T23:00:00,1223A,120.2072,30.2111,杭州市,滨江,,22,22,24,11,13,109,27,92,54,14,14,8,7,0.6,0.6
2023-09-04T23:00:00,1224A,120.0633,30.2747,杭州市,西溪,,20,20,26,14,18,113,24,99,66,14,14,4,3,0.6,0.6
2023-09-04T23:00:00,1226A,120.3461,30.3153,杭州市,下沙,,23,23,26,13,14,120,31,90,58,19,17,4,3,0.4,0.5
2023-09-04T23:00:00,1227A,120.1269,30.2456,杭州市,卧龙桥,,22,22,26,9,12,124,21,102,67,18,14,8,6,0.5,0.5
2023-09-04T23:00:00,1228A,120.1903,30.2692,杭州市,浙江农大,,22,22,24,12,14,108,23,87,57,23,17,14,9,0.4,0.4
2023-09-04T23:00:00,1230A,120.1197,30.3119,杭州市,和睦小学,,26,26,33,14,18,117,30,99,66,24,22,11,8,0.6,0.5
2023-09-04T23:00:00,1231A,120.3019,30.4183,杭州市,临平镇,,17,17,26,7,13,116,36,90,58,14,14,4,4,0.4,0.4
2023-09-04T23:00:00,1232A,120.2697,30.1819,杭州市,城厢镇,,19,19,24,13,14,104,26,79,45,18,19,6,8,0.4,0.4
2023-09-04T23:00:00,1233A,120.0883,30.1808,杭州市,云栖,,21,21,27,12,13,116,11,101,63,17,11,7,7,0.4,0.3
2023-09-04T23:00:00,1234A,121.8358,29.911,宁波市,区环保大楼,,21,20,20,14,13,55,2,40,16,41,27,5,6,0.5,0.5
2023-09-04T23:00:00,1235A,121.56,29.82,宁波市,万里学院,,40,38,32,28,23,78,1,53,15,38,25,6,6,0.8,0.7
2023-09-04T23:00:00,1236A,121.713,29.9572,宁波市,龙赛医院,,27,27,31,11,10,43,10,34,18,30,21,14,10,0.6,0.4
2023-09-04T23:00:00,1239A,121.633,29.7733,宁波市,钱湖水厂,,23,23,24,14,13,72,2,48,21,14,11,5,6,0.4,0.5
2023-09-04T23:00:00,1240A,121.5856,29.8635,宁波市,太古小学,,23,23,25,13,13,72,2,47,13,42,30,6,5,0.7,0.8
2023-09-04T23:00:00,1241A,121.524,29.8674,宁波市,市环境监测中心,,27,27,25,13,10,82,2,60,18,34,20,8,10,0.6,0.5
2023-09-04T23:00:00,1242A,120.634,28.0089,温州市,瓯海,,14,14,32,9,17,56,24,48,35,10,15,6,7,0.4,0.4
2023-09-04T23:00:00,1243A,120.6748,27.9939,温州市,南浦,,12,10,26,8,12,56,30,48,35,5,12,4,5,0.4,0.4
2023-09-04T23:00:00,1244A,120.76,27.9747,温州市,龙湾,,9,8,23,4,9,52,26,43,32,12,9,6,7,0.4,0.4
2023-09-04T23:00:00,1245A,120.6709,28.0167,温州市,市站,,12,12,28,4,11,51,24,42,32,12,14,5,6,0.3,0.4
2023-09-04T23:00:00,1247A,120.6053,29.9928,绍兴市,城东开发委,,10,7,23,3,11,83,32,65,42,6,13,5,7,0.3,0.4
2023-09-04T23:00:00,1250A,120.0751,30.8669,湖州市,城西水厂,,28,28,23,14,13,149,27,116,88,20,17,3,3,0.4,0.4
2023-09-04T23:00:00,1252A,120.7436,30.778,嘉兴市,清河小学,,25,25,21,9,9,97,26,72,51,24,21,5,5,0.4,0.5
2023-09-04T23:00:00,1253A,120.726,30.7478,嘉兴市,嘉兴学院,,25,25,20,15,13,100,15,76,48,25,21,4,4,0.4,0.5
2023-09-04T23:00:00,1255A,121.273,28.6459,台州市,黄岩环保大楼,,15,15,16,6,8,44,18,40,27,8,8,5,6,0.6,0.5
2023-09-04T23:00:00,1256A,121.419,28.6542,台州市,台州环保大楼,,15,15,19,6,7,41,31,35,32,6,6,6,6,0.3,0.3
2023-09-04T23:00:00,1257A,121.377,28.5773,台州市,路桥田洋王,,21,21,19,7,10,42,21,35,28,8,5,3,3,0.4,0.3
2023-09-04T23:00:00,1258A,122.122,30.0203,舟山市,定海檀枫,,20,20,18,10,9,42,29,39,36,6,8,6,6,0.4,0.4
2023-09-04T23:00:00,1259A,122.3094,29.9558,舟山市,普陀东港,,16,16,19,9,10,47,37,43,40,6,10,5,5,0.4,0.4
2023-09-04T23:00:00,1260A,122.19,29.9944,舟山市,临城新区,,16,16,16,10,7,44,32,40,37,4,6,7,7,0.3,0.3
2023-09-04T23:00:00,1262A,119.647,29.077,金华市,十五中,,19,19,25,7,12,106,39,99,81,18,17,2,3,0.3,0.3
2023-09-04T23:00:00,1263A,119.686,29.1029,金华市,监测站,,17,17,30,11,16,100,32,93,73,21,18,3,4,0.4,0.5
2023-09-04T23:00:00,1264A,118.8692,28.9398,衢州市,环保大楼,,36,36,33,25,22,101,59,87,81,15,17,4,4,0.4,0.5
2023-09-04T23:00:00,1265A,118.8709,28.9666,衢州市,实验学校,,44,44,38,24,18,106,65,94,88,15,16,4,5,0.3,0.4
2023-09-04T23:00:00,1266A,118.8621,28.9808,衢州市,衢州学院,,36,36,32,22,21,96,66,84,78,15,19,6,5,0.2,0.3
2023-09-04T23:00:00,1267A,119.914,28.4514,丽水市,监测站大楼,,16,16,23,11,13,60,33,52,46,7,10,5,5,0.3,0.4
2023-09-04T23:00:00,1268A,119.93,28.4586,丽水市,莲都小学,,17,17,28,7,10,61,36,54,48,6,9,5,5,0.2,0.3
2023-09-04T23:00:00,1269A,119.879,28.4231,丽水市,余庄前,,23,23,22,10,8,68,20,58,37,10,9,5,5,0.4,0.4
2023-09-04T23:00:00,1270A,117.1959,31.7848,合肥市,明珠广场,,31,31,41,17,22,116,73,103,83,16,21,6,7,0.5,0.7
2023-09-04T23:00:00,1271A,117.3072,31.8764,合肥市,三里街,,36,36,37,14,22,101,72,90,80,17,18,5,5,0.3,0.4
2023-09-04T23:00:00,1272A,117.2588,31.8707,合肥市,琥珀山庄,,34,34,37,17,20,105,76,96,86,18,18,5,5,0.6,0.6
2023-09-04T23:00:00,1273A,117.1604,31.9052,合肥市,董铺水库,,39,39,37,17,17,105,80,99,88,13,14,5,5,0.4,0.4
2023-09-04T23:00:00,1274A,117.25,31.8571,合肥市,长江中路,,34,34,42,17,22,104,74,96,86,13,13,7,7,0.5,0.5
2023-09-04T23:00:00,1275A,117.266,31.9436,合肥市,庐阳区,,41,41,41,22,22,100,72,88,81,23,17,6,5,0.5,0.4
2023-09-04T23:00:00,1276A,117.336,31.8586,合肥市,瑶海区,,31,31,42,12,18,101,78,91,83,8,11,4,5,0.5,0.6
2023-09-04T23:00:00,1277A,117.3027,31.7964,合肥市,包河区,,29,29,41,19,21,104,59,84,65,30,34,4,6,0.5,0.5
2023-09-04T23:00:00,1278A,117.2776,31.7385,合肥市,滨湖新区,,29,29,42,14,22,120,71,100,80,15,21,6,6,0.2,0.4
2023-09-04T23:00:00,1279A,117.1318,31.8403,合肥市,高新区,,36,36,41,17,24,106,73,97,84,22,23,9,9,0.7,0.7
2023-09-04T23:00:00,1280A,119.3903,26.0543,福州市,鼓山,,,,,,,,,,,,,,,,
2023-09-04T23:00:00,1282A,119.2681,26.0504,福州市,师大,,9,5,12,0,3,37,26,31,29,3,3,3,3,0.3,0.3
2023-09-04T23:00:00,1283A,119.2984,26.1028,福州市,五四北路,,9,3,12,0,2,34,27,32,30,6,4,2,2,0.4,0.4
2023-09-04T23:00:00,1284A,119.2648,26.0768,福州市,杨桥西路,,9,9,12,0,3,32,25,31,30,6,4,3,3,0.4,0.4
2023-09-04T23:00:00,1285A,119.317,26.0746,福州市,紫阳,,7,7,12,0,2,34,22,32,29,8,3,3,3,0.4,0.3
2023-09-04T23:00:00,1286A,118.1608,24.8169,厦门市,溪东,,,,,,,,,,,,,,,,
2023-09-04T23:00:00,1287A,118.1514,24.4767,厦门市,洪文,,13,7,8,2,3,41,41,28,27,2,4,3,3,0.2,0.2
2023-09-04T23:00:00,1288A,118.0661,24.4444,厦门市,鼓浪屿,,11,6,8,3,4,33,33,24,24,2,2,1,1,0.4,0.3
2023-09-04T23:00:00,1290A,115.8931,28.6843,南昌市,省外办,,49,49,47,27,28,131,88,123,111,12,12,4,4,0.7,0.7
2023-09-04T23:00:00,1291A,115.8886,28.7003,南昌市,省林业公司,,46,46,38,29,27,134,84,122,108,8,8,5,7,0.8,0.8
2023-09-04T23:00:00,1292A,115.8126,28.7442,南昌市,林科所,,31,31,32,19,22,140,98,131,122,10,6,7,7,0.9,0.8
2023-09-04T23:00:00,1294A,115.8518,28.687,南昌市,建工学校,颗粒物(PM10),51,52,46,20,21,153,103,141,124,9,9,11,11,0.8,0.7
2023-09-04T23:00:00,1295A,115.8921,28.6424,南昌市,象湖,,42,42,37,29,28,144,96,132,121,10,10,6,7,0.4,0.4
2023-09-04T23:00:00,1296A,115.7423,28.7996,南昌市,武术学校,细颗粒物(PM2.5),58,24,22,41,18,149,70,136,107,10,9,4,2,0.3,0.3
2023-09-04T23:00:00,1298A,115.9314,28.6842,南昌市,省站,,44,44,44,25,25,164,99,151,140,5,6,5,7,0.9,0.8
2023-09-04T23:00:00,1299A,116.9862,36.6114,济南市,科干所,细颗粒物(PM2.5),85,92,80,63,50,230,84,212,172,46,22,5,6,0.8,0.7
2023-09-04T23:00:00,1300A,116.9376,36.665,济南市,农科所,颗粒物(PM10),72,93,72,44,43,217,69,206,164,54,27,5,6,0.6,0.5
2023-09-04T23:00:00,1301A,117.1265,36.6734,济南市,开发区,颗粒物(PM10),81,112,79,56,46,233,8,216,147,129,34,6,5,1.0,0.8
2023-09-04T23:00:00,1303A,117.0624,36.6868,济南市,省种子仓库,细颗粒物(PM2.5),85,107,80,63,46,249,85,226,178,53,28,6,6,0.7,0.9
2023-09-04T23:00:00,1304A,116.9489,36.6447,济南市,机床二厂,颗粒物(PM10),79,107,84,49,44,220,40,206,160,71,30,6,6,0.8,0.9
2023-09-04T23:00:00,1305A,117.0495,36.663,济南市,市监测站,细颗粒物(PM2.5),83,93,78,61,49,253,130,228,184,42,32,7,5,0.7,0.7
2023-09-04T23:00:00,1306A,116.7675,36.5484,济南市,长清党校,"颗粒物(PM10),细颗粒物(PM2.5)",64,78,73,46,50,195,76,186,152,43,24,3,4,0.6,0.6
2023-09-04T23:00:00,1307A,120.6659,36.2403,青岛市,仰口,,19,2,13,7,12,98,60,90,71,2,5,6,6,0.1,0.2
2023-09-04T23:00:00,1310A,120.4134,36.0658,青岛市,市南区东部子站,,23,22,29,7,12,143,72,118,98,20,22,2,6,0.4,0.5
2023-09-04T23:00:00,1311A,120.3664,36.1032,青岛市,四方区子站,,23,17,32,2,13,148,72,118,95,19,35,5,6,0.5,0.6
2023-09-04T23:00:00,1312A,120.2994,36.054,青岛市,市南区西部子站,,24,12,28,5,11,137,76,113,92,16,31,5,6,0.4,0.4
2023-09-04T23:00:00,1313A,120.4581,36.0858,青岛市,崂山区子站,,24,17,26,7,14,142,76,124,105,17,21,7,8,0.2,0.3
2023-09-04T23:00:00,1314A,120.1983,35.9608,青岛市,黄岛区子站,,28,9,28,5,15,158,88,134,109,12,28,5,6,0.4,0.5
2023-09-04T23:00:00,1315A,120.3999,36.3083,青岛市,城阳区子站,颗粒物(PM10),56,61,38,15,13,133,10,123,61,77,46,5,6,0.9,0.7
2023-09-04T23:00:00,1316A,113.69031,34.76122,郑州市,烟厂,颗粒物(PM10),59,68,63,34,31,221,120,205,168,26,24,2,3,0.7,0.7
2023-09-04T23:00:00,1317A,113.65724,34.77134,郑州市,郑纺机,颗粒物(PM10),61,71,63,32,29,230,124,212,175,19,21,2,3,0.7,0.7
2023-09-04T23:00:00,1318A,113.67526,34.80246,郑州市,银行学校,,,,,,,,,,,,,,,,
2023-09-04T23:00:00,1319A,113.56746,34.81334,郑州市,供水公司,颗粒物(PM10),62,74,65,35,32,243,106,207,172,27,24,3,4,0.6,0.5
2023-09-04T23:00:00,1320A,113.7329,34.7178,郑州市,经开区管委,颗粒物(PM10),61,72,69,38,34,210,101,194,153,28,29,4,4,0.8,0.8
2023-09-04T23:00:00,1321A,113.73961,34.77172,郑州市,四十七中,,,50,57,,38,205,,185,171,21,22,2,7,0.8,0.7
2023-09-04T23:00:00,1322A,113.60532,34.74838,郑州市,市监测站,颗粒物(PM10),56,62,67,35,31,224,126,198,166,21,26,5,7,0.6,0.6
2023-09-04T23:00:00,1323A,113.64164,34.7525,郑州市,河医大,颗粒物(PM10),58,66,57,33,30,216,116,196,162,23,21,4,6,0.7,0.7
2023-09-04T23:00:00,1324A,113.51488,34.91089,郑州市,岗李水库,,,,,,,,,,,,,,,,
2023-09-04T23:00:00,1325A,114.3677,30.5584,武汉市,东湖梨园,,39,34,43,27,30,207,112,164,136,14,26,8,9,0.8,0.9
2023-09-04T23:00:00,1326A,114.2529,30.558,武汉市,汉阳月湖,,43,43,45,19,24,198,108,157,125,18,34,7,8,0.6,0.7
2023-09-04T23:00:00,1327A,114.282,30.6189,武汉市,汉口花桥,,41,41,47,24,29,187,112,154,131,12,23,6,7,0.7,0.8
2023-09-04T23:00:00,1328A,114.3025,30.5332,武汉市,武昌紫阳,,44,44,48,26,27,232,102,177,139,20,36,8,10,0.6,0.8
2023-09-04T23:00:00,1329A,114.3646,30.6217,武汉市,青山钢花,,45,45,46,31,32,169,95,148,125,25,25,9,9,0.9,0.8
2023-09-04T23:00:00,1330A,114.1566,30.4825,武汉市,沌口新区,,45,45,41,30,29,238,84,192,146,34,33,8,9,0.6,0.8
2023-09-04T23:00:00,1331A,114.3014,30.5944,武汉市,汉口江滩,,38,38,43,22,26,195,116,158,129,9,23,7,8,0.6,0.7
2023-09-04T23:00:00,1333A,114.135,30.6319,武汉市,吴家山,,35,31,37,24,22,180,107,160,132,14,27,8,8,0.7,0.7
2023-09-04T23:00:00,1334A,113.8454,30.2917,武汉市,沉湖七壕,颗粒物(PM10),71,91,32,33,17,219,88,183,153,15,17,4,4,0.7,0.7
2023-09-04T23:00:00,1335A,113.0833,28.2325,长沙市,经开区环保局,细颗粒物(PM2.5),58,61,29,41,26,147,99,127,109,19,12,7,7,0.6,0.5
2023-09-04T23:00:00,1336A,112.8872,28.2189,长沙市,高开区环保局,细颗粒物(PM2.5),59,62,43,42,31,147,77,133,106,11,3,7,7,0.8,0.7
2023-09-04T23:00:00,1337A,113.0792,28.2053,长沙市,马坡岭,细颗粒物(PM2.5),82,71,42,60,30,153,84,137,114,25,15,6,6,0.9,0.8
2023-09-04T23:00:00,1338A,112.9394,28.19,长沙市,湖南师范大学,颗粒物(PM10),65,80,51,46,35,149,100,137,117,8,3,5,5,0.8,0.8
2023-09-04T23:00:00,1339A,113.0178,28.1322,长沙市,雨花区环保局,颗粒物(PM10),51,51,31,32,21,150,99,137,119,20,13,6,6,0.7,0.5
2023-09-04T23:00:00,1340A,112.9792,28.2597,长沙市,伍家岭,细颗粒物(PM2.5),60,51,40,43,30,144,84,128,106,18,12,3,4,0.9,0.8
2023-09-04T23:00:00,1341A,113.0014,28.1944,长沙市,火车新站,细颗粒物(PM2.5),52,52,29,36,26,142,93,129,110,16,11,6,6,0.9,0.8
2023-09-04T23:00:00,1342A,112.9844,28.1178,长沙市,天心区环保局,细颗粒物(PM2.5),58,59,30,41,30,153,90,141,125,20,13,4,4,0.7,0.8
2023-09-04T23:00:00,1343A,112.8908,28.1308,长沙市,湖南中医药大学,颗粒物(PM10),61,72,48,43,34,155,73,141,110,15,6,3,3,1.0,0.9
2023-09-04T23:00:00,1344A,112.9581,28.3611,长沙市,沙坪,颗粒物(PM10),60,69,45,34,24,143,114,126,109,8,7,6,7,0.6,0.7
2023-09-04T23:00:00,1345A,113.2347,23.1423,广州市,广雅中学,,28,28,38,12,24,129,14,107,58,46,32,6,8,0.9,1
2023-09-04T23:00:00,1346A,113.2612,23.105,广州市,市五中,,28,26,36,19,25,136,34,122,78,22,19,6,7,0.6,0.7
2023-09-04T23:00:00,1348A,113.3478,23.0916,广州市,广东商学院,,28,28,49,12,26,98,39,85,51,17,29,3,4,0.3,0.4
2023-09-04T23:00:00,1349A,113.4332,23.1047,广州市,市八十六中,,23,23,33,12,22,122,35,102,56,20,18,4,4,0.5,0.6
2023-09-04T23:00:00,1350A,113.3505,22.9483,广州市,番禺中学,,22,22,34,10,20,147,39,121,74,23,24,5,5,0.6,0.8
2023-09-04T23:00:00,1351A,113.2146,23.3916,广州市,花都师范,,17,14,29,8,21,106,52,100,75,11,12,7,9,0.6,0.7
2023-09-04T23:00:00,1352A,113.2597,23.1331,广州市,市监测站,,23,21,37,13,24,122,17,110,66,45,32,6,7,0.7,0.8
2023-09-04T23:00:00,1353A,113.5618,23.312,广州市,九龙镇镇龙,,15,14,31,10,21,86,44,79,54,11,10,7,7,0.4,0.4
2023-09-04T23:00:00,1354A,113.2765,23.1544,广州市,麓湖,,27,27,34,15,19,118,11,103,65,36,23,5,6,0.7,0.8
2023-09-04T23:00:00,1355A,113.443,23.3035,广州市,帽峰山森林公园,,17,17,25,11,19,97,43,83,53,11,9,5,7,0.2,0.3
2023-09-04T23:00:00,1356A,114.1063,22.5545,深圳市,通心岭子站,,40,40,36,23,20,174,18,146,91,25,26,5,5,0.7,0.6
2023-09-04T23:00:00,1357A,114.117,22.5625,深圳市,洪湖,颗粒物(PM10),51,52,44,25,21,166,7,129,74,45,32,5,5,0.7,0.6
2023-09-04T23:00:00,1358A,113.987,22.5417,深圳市,华侨城,,33,33,37,12,25,191,26,158,101,24,28,6,7,0.8,0.8
2023-09-04T23:00:00,1359A,113.9181,22.5171,深圳市,南海子站,,,34,52,26,31,190,18,150,89,42,33,,5,0.9,0.9
2023-09-04T23:00:00,1360A,114.2458,22.5689,深圳市,盐田,,26,26,31,17,22,121,49,108,80,12,15,5,5,0.7,0.7
2023-09-04T23:00:00,1361A,114.2283,22.7244,深圳市,龙岗,,37,37,42,17,23,123,49,102,76,13,26,8,8,0.6,0.7
2023-09-04T23:00:00,1363A,114.494,22.5422,深圳市,南澳,,24,24,36,15,25,156,68,129,84,6,17,5,5,0.6,0.8
2023-09-04T23:00:00,1364A,114.41,22.6342,深圳市,葵涌,,32,32,39,17,20,105,65,98,76,8,17,5,5,0.5,0.6
2023-09-04T23:00:00,1365A,114.297,22.5978,深圳市,梅沙,,35,30,36,24,22,106,59,98,82,10,11,6,6,0.5,0.7
2023-09-04T23:00:00,1366A,114.0678,22.738,深圳市,观澜,,30,30,47,13,25,163,17,127,65,34,31,7,7,0.7,0.7
2023-09-04T23:00:00,1367A,113.5814,22.2618,珠海市,吉大,,32,32,31,11,22,213,36,181,130,15,18,4,4,0.6,0.7
2023-09-04T23:00:00,1368A,113.4881,22.2335,珠海市,前山,,28,24,37,19,21,183,36,158,121,22,24,8,8,0.4,0.5
2023-09-04T23:00:00,1369A,113.628,22.4251,珠海市,唐家,,31,31,30,13,21,220,31,178,108,15,16,5,6,0.5,0.5
2023-09-04T23:00:00,1370A,113.299,22.2281,珠海市,斗门,,43,36,36,30,29,228,64,203,167,23,19,8,8,0.8,0.8
2023-09-04T23:00:00,1371A,113.1294,23.0067,佛山市,湾梁,,29,29,25,18,21,150,35,131,81,30,18,11,10,0.7,0.7
2023-09-04T23:00:00,1372A,113.1083,23.0478,佛山市,华材职中,,34,34,32,20,24,125,21,112,70,48,27,9,11,0.5,0.6
2023-09-04T23:00:00,1373A,113.144,23.0453,佛山市,南海气象局,,30,28,34,21,20,128,29,113,67,29,21,8,7,0.6,0.6
2023-09-04T23:00:00,1374A,113.2881,22.8094,佛山市,顺德苏岗,,25,25,33,9,19,162,31,137,82,19,19,6,8,0.6,0.8
2023-09-04T23:00:00,1376A,112.8383,22.8678,佛山市,高明孔堂,,41,41,39,21,21,154,31,135,85,30,20,8,7,0.8,0.7
2023-09-04T23:00:00,1377A,112.8836,23.1588,佛山市,三水监测站,,24,24,27,15,19,125,38,106,70,25,18,4,4,0.8,0.8
2023-09-04T23:00:00,1378A,112.867,23.185,佛山市,三水云东海,,22,22,27,15,18,122,22,103,59,24,15,5,5,0.6,0.7
2023-09-04T23:00:00,1379A,113.3769,22.5211,中山市,华柏园,,23,23,36,15,37,202,34,172,110,25,24,7,6,0.4,0.6
2023-09-04T23:00:00,1380A,113.3881,22.5497,中山市,张溪,,27,27,39,17,26,199,28,169,103,25,20,6,5,0.6,0.7
2023-09-04T23:00:00,1381A,113.4075,22.5111,中山市,紫马岭,,32,32,37,15,25,195,31,163,102,23,16,6,6,0.5,0.5
2023-09-04T23:00:00,1382A,113.4411,22.4853,中山市,长江旅游区,,,,,,,,,,,,,,,,
2023-09-04T23:00:00,1383A,113.1064,22.6058,江门市,北街,,,31,39,19,26,210,,182,156,36,23,7,7,0.5,0.6
2023-09-04T23:00:00,1384A,113.0731,22.5835,江门市,西区,,40,35,35,28,24,218,38,180,115,33,23,8,7,0.7,0.8
2023-09-04T23:00:00,1385A,113.0219,22.5311,江门市,圭峰西,,23,22,35,16,24,205,54,174,125,20,14,6,5,0.5,0.6
2023-09-04T23:00:00,1386A,113.0828,22.5947,江门市,东湖,,32,32,41,21,22,204,38,176,134,26,18,9,9,0.6,0.7
2023-09-04T23:00:00,1389A,113.7547,23.0494,东莞市,莞城梨川,,27,27,32,14,20,120,42,99,60,16,23,10,10,0.6,0.7
2023-09-04T23:00:00,1390A,113.7944,23.0128,东莞市,东城石井,,23,23,31,11,17,129,27,102,54,12,14,7,7,0.7,0.8
2023-09-04T23:00:00,1391A,113.7383,22.9658,东莞市,南城西平,,20,20,30,9,18,115,21,97,53,32,26,5,6,0.8,0.9
2023-09-04T23:00:00,1392A,114.4183,23.0528,惠州市,河南岸金山湖子站,,35,35,39,13,16,94,51,86,61,14,16,6,6,0.5,0.5
2023-09-04T23:00:00,1393A,114.4053,23.0822,惠州市,下埔横江三路子站,,28,28,33,19,20,100,52,93,68,10,9,6,6,0.4,0.5
2023-09-04T23:00:00,1394A,114.4103,23.1142,惠州市,江北云山西路子站,,29,29,32,16,20,103,47,94,64,11,7,6,5,0.3,0.4
2023-09-04T23:00:00,1395A,114.4645,22.7833,惠州市,惠阳区承修路船湖子站,,28,28,35,18,23,94,58,88,68,8,12,5,5,0.7,0.8
2023-09-04T23:00:00,1396A,114.5317,22.7422,惠州市,大亚湾管委会子站,,25,25,32,16,20,91,64,84,69,9,12,6,6,0.4,0.5
2023-09-04T23:00:00,1397A,112.4267,23.0706,肇庆市,睦岗子站,,19,19,26,11,17,94,57,84,63,8,12,15,15,0.4,0.4
2023-09-04T23:00:00,1398A,112.4645,23.0475,肇庆市,城中子站,,27,24,24,15,18,95,12,86,57,54,19,10,10,0.7,0.6
2023-09-04T23:00:00,1399A,112.5544,23.1522,肇庆市,坑口子站,,18,11,22,10,15,86,56,80,62,9,13,4,4,0.4,0.4
2023-09-04T23:00:00,1400A,112.4753,23.1,肇庆市,七星岩子站,,,,,,,,,,,,,,,,
2023-09-04T23:00:00,1401A,108.3103,22.7881,南宁市,二十一中,,35,35,20,24,11,80,17,68,41,26,18,12,7,0.8,0.7
2023-09-04T23:00:00,1402A,108.3141,22.8528,南宁市,北湖,,38,35,19,26,15,73,25,66,42,13,13,5,8,0.8,0.7
2023-09-04T23:00:00,1403A,108.3206,22.8225,南宁市,市监测站,,42,30,20,29,13,73,16,70,38,28,20,12,10,0.9,0.8
2023-09-04T23:00:00,1404A,108.3829,22.8037,南宁市,大自然花园,,32,27,17,22,13,67,16,59,38,20,12,8,6,0.8,0.7
2023-09-04T23:00:00,1405A,108.4394,22.7904,南宁市,仙葫,,32,27,16,22,10,67,12,58,37,28,18,7,6,0.7,0.6
2023-09-04T23:00:00,1406A,108.2397,22.8467,南宁市,区农职院,,33,33,18,16,8,72,23,60,42,17,14,22,9,0.7,0.6
2023-09-04T23:00:00,1407A,108.3275,22.735,南宁市,英华嘉园,,30,30,20,21,13,75,17,63,36,23,21,7,6,0.6,0.6
2023-09-04T23:00:00,1408A,108.2257,22.7757,南宁市,沙井镇街道办,,36,25,18,25,13,72,26,59,41,16,16,7,6,0.6,0.6
2023-09-04T23:00:00,1409A,110.576,19.9507,海口市,东寨港,,,,,,,,,,,,,,,,
2023-09-04T23:00:00,1410A,110.3232,20.0574,海口市,海南大学,,25,17,16,12,9,110,77,100,90,12,12,6,6,0.3,0.5
2023-09-04T23:00:00,1411A,110.283,20.0053,海口市,秀英海南医院,,22,21,20,15,10,113,52,94,76,33,21,7,7,0.5,0.5
2023-09-04T23:00:00,1412A,110.338,19.9969,海口市,海南师范大学,,30,21,18,21,10,112,69,99,85,17,11,8,8,0.5,0.6
2023-09-04T23:00:00,1413A,110.33,20.0356,海口市,龙华路环保局宿舍,,25,18,17,13,9,106,80,95,84,9,13,7,7,0.4,0.5
2023-09-04T23:00:00,1414A,106.3787,29.8279,重庆市,缙云山,臭氧1小时,52,45,41,23,21,223,161,199,187,8,12,12,11,0.4,0.4
2023-09-04T23:00:00,1416A,106.4213,29.8253,重庆市,天生,颗粒物(PM10),70,90,58,48,39,220,48,169,107,44,35,6,7,0.9,0.8
2023-09-04T23:00:00,1417A,106.6263,29.7228,重庆市,两路,,50,47,52,35,36,190,53,172,138,52,41,10,11,1.1,1.1
2023-09-04T23:00:00,1418A,106.2953,29.5983,重庆市,虎溪,细颗粒物(PM2.5),53,53,60,37,44,257,89,229,176,53,44,5,7,0.8,0.8
2023-09-04T23:00:00,1419A,106.5777,29.5102,重庆市,南坪,细颗粒物(PM2.5),54,48,65,38,42,226,104,182,147,29,26,9,12,0.7,0.7
2023-09-04T23:00:00,1420A,106.6556,29.6277,重庆市,唐家沱,细颗粒物(PM2.5),64,58,59,46,33,211,38,197,133,62,43,7,8,0.7,0.7
2023-09-04T23:00:00,1421A,106.6349,29.4906,重庆市,茶园,颗粒物(PM10),83,115,69,36,34,213,8,179,101,115,45,6,7,1.2,1.1
2023-09-04T23:00:00,1422A,106.3754,29.4572,重庆市,白市驿,细颗粒物(PM2.5),57,59,69,40,43,215,148,203,190,14,20,9,13,0.8,0.9
2023-09-04T23:00:00,1425A,106.6205,29.7166,重庆市,空港,,45,44,56,31,33,214,85,192,155,41,37,7,9,0.9,0.9
2023-09-04T23:00:00,1426A,106.4782,29.4875,重庆市,新山村,颗粒物(PM10),55,59,65,37,39,236,92,204,162,54,48,11,17,0.8,0.8
2023-09-04T23:00:00,1427A,106.5616,29.6453,重庆市,礼嘉,颗粒物(PM10),64,77,62,40,37,198,70,168,124,51,48,11,12,1.1,1
2023-09-04T23:00:00,1428A,106.4522,29.7091,重庆市,蔡家,颗粒物(PM10),63,76,71,42,37,233,81,196,134,35,36,7,8,0.9,1
2023-09-04T23:00:00,1429A,106.5093,29.3917,重庆市,鱼新街,细颗粒物(PM2.5),99,103,71,74,45,218,18,192,130,129,47,8,11,1.3,1.1
2023-09-04T23:00:00,1431A,103.9728,30.7236,成都市,金泉两河,颗粒物(PM10),52,54,57,29,37,211,58,185,145,25,18,4,5,0.7,0.6
2023-09-04T23:00:00,1432A,104.176,30.6872,成都市,十里店,细颗粒物(PM2.5),65,70,71,47,43,238,46,204,152,54,39,3,4,0.8,0.7
2023-09-04T23:00:00,1433A,104.079,30.5706,成都市,三瓦窑,颗粒物(PM10),63,76,68,37,40,193,0,172,120,112,56,3,3,0.9,0.7
2023-09-04T23:00:00,1434A,104.1114,30.63,成都市,沙河铺,细颗粒物(PM2.5),54,51,58,38,38,219,38,183,124,34,28,2,4,0.7,0.7
2023-09-04T23:00:00,1437A,104.0786,30.6531,成都市,君平街,细颗粒物(PM2.5),63,74,62,45,44,233,89,207,164,45,28,3,4,0.8,0.7
2023-09-04T23:00:00,1438A,103.613,31.0283,成都市,灵岩寺,,38,35,38,23,26,179,121,162,156,4,6,8,16,0.7,0.8
2023-09-04T23:00:00,1439A,106.6899,26.5998,贵阳市,马鞍山,,17,17,14,5,7,96,44,87,70,15,9,4,4,0.4,0.3
2023-09-04T23:00:00,1440A,106.6971,26.5694,贵阳市,市环保站,,23,5,9,10,10,99,71,96,85,14,10,4,4,0.3,0.2
2023-09-04T23:00:00,1441A,106.6243,26.6266,贵阳市,鉴湖路,,20,17,16,9,7,84,62,82,77,12,7,5,4,0.4,0.3
2023-09-04T23:00:00,1442A,106.7487,26.6343,贵阳市,燕子冲,,20,17,13,7,9,85,62,82,74,6,7,6,6,0.4,0.5
2023-09-04T23:00:00,1443A,106.6555,26.4365,贵阳市,碧云窝,,19,19,19,2,7,92,53,89,77,9,8,5,5,0.5,0.3
2023-09-04T23:00:00,1444A,106.694,26.5161,贵阳市,中院村,,19,17,18,7,7,85,60,81,71,15,11,6,6,0.3,0.2
2023-09-04T23:00:00,1445A,106.7109,26.6027,贵阳市,红边门,,22,19,17,9,11,95,68,89,79,11,8,5,5,0.5,0.4
2023-09-04T23:00:00,1446A,106.7164,26.5699,贵阳市,新华路,,22,14,12,9,9,97,69,94,85,12,6,5,6,0.2,0.2
2023-09-04T23:00:00,1447A,106.674,26.5424,贵阳市,太慈桥,,26,19,10,12,5,92,10,88,65,51,13,4,4,0.5,0.3
2023-09-04T23:00:00,1450A,102.8204,24.8886,昆明市,呈贡新区,,36,36,35,18,16,122,67,110,90,14,17,18,10,0.6,0.6
2023-09-04T23:00:00,1451A,102.6251,24.9608,昆明市,西山森林公园,,26,18,17,14,13,147,81,139,118,14,8,10,10,0.6,0.6
2023-09-04T23:00:00,1452A,102.7252,25.0902,昆明市,龙泉镇,,36,36,22,15,12,114,56,110,88,27,15,8,10,0.4,0.4
2023-09-04T23:00:00,1453A,102.7266,25.0375,昆明市,东风东路,,,,,,,,,,,,,,,,
2023-09-04T23:00:00,1454A,102.6742,25.0669,昆明市,金鼎山,,28,28,25,9,12,116,61,111,88,23,14,8,20,0.4,0.4
2023-09-04T23:00:00,1455A,102.6644,25.0401,昆明市,碧鸡广场,,35,35,28,16,15,119,72,115,96,14,9,8,15,0.4,0.3
2023-09-04T23:00:00,1456A,91.1319,29.6514,拉萨市,八廓街,,23,18,16,10,10,133,72,124,112,34,17,7,7,0.4,0.3
2023-09-04T23:00:00,1457A,91.1221,29.6747,拉萨市,市环保局,,38,38,18,15,8,129,51,119,99,39,18,7,7,0.4,0.2
2023-09-04T23:00:00,1458A,91.0874,29.6475,拉萨市,区监测站,,25,23,14,9,7,121,79,115,102,25,17,8,8,0.3,0.3
2023-09-04T23:00:00,1459A,91.1774,29.6541,拉萨市,西藏大学,,27,14,10,15,7,127,85,119,112,16,9,9,8,0.3,0.2
2023-09-04T23:00:00,1460A,90.9798,29.6588,拉萨市,区辐射站,,27,22,18,13,8,117,86,114,108,22,15,10,10,0.2,0.1
2023-09-04T23:00:00,1461A,91.0834,29.6292,拉萨市,拉萨火车站,,33,33,23,10,8,119,82,112,105,20,13,6,6,0.2,0.2
2023-09-04T23:00:00,1462A,108.882,34.2749,西安市,高压开关厂,,29,29,66,10,31,197,65,167,120,27,31,7,9,0.5,0.7
2023-09-04T23:00:00,1463A,108.993,34.2629,西安市,兴庆小区,,29,21,56,14,26,182,91,160,124,12,28,6,7,0.4,0.6
2023-09-04T23:00:00,1464A,109.06,34.2572,西安市,纺织城,,29,29,51,7,23,184,92,152,114,20,30,4,5,0.4,0.6
2023-09-04T23:00:00,1465A,108.9356,34.2173,西安市,小寨,,41,41,62,10,23,197,83,167,119,9,27,6,6,0.4,0.6
2023-09-04T23:00:00,1466A,108.954,34.2713,西安市,市人民体育场,,26,22,61,16,32,184,83,161,120,13,28,6,8,0.4,0.6
2023-09-04T23:00:00,1467A,108.8922,34.2322,西安市,高新西区,,35,35,56,18,30,205,77,177,135,15,28,6,7,0.4,0.6
2023-09-04T23:00:00,1468A,108.935,34.3474,西安市,经开区,,32,32,57,10,29,165,77,149,122,16,23,3,4,0.4,0.6
2023-09-04T23:00:00,1469A,108.906,34.1546,西安市,长安区,,42,42,69,14,29,235,50,195,133,31,32,7,8,0.2,0.4
2023-09-04T23:00:00,1471A,109.2186,34.3731,西安市,临潼区,,35,18,52,17,28,164,112,150,127,5,20,5,6,0.2,0.4
2023-09-04T23:00:00,1472A,108.869,34.378,西安市,草滩,,47,47,56,9,18,128,76,122,102,43,44,16,13,0.6,0.7
2023-09-04T23:00:00,1473A,108.985,34.1978,西安市,曲江文化产业集团,,30,30,60,10,25,200,90,164,116,15,38,7,8,0.5,0.7
2023-09-04T23:00:00,1474A,109.051,34.3213,西安市,广运潭,,28,24,59,17,30,168,88,148,120,15,26,6,9,0.4,0.6
2023-09-04T23:00:00,1476A,103.631,36.1031,兰州市,兰炼宾馆,颗粒物(PM10),59,68,70,26,30,192,87,151,110,12,34,3,17,0.3,0.5
2023-09-04T23:00:00,1477A,104.1373,35.9454,兰州市,榆中兰大校区,,,,,,,,,,,,,,,,
2023-09-04T23:00:00,1478A,103.8412,36.0726,兰州市,生物制品所,颗粒物(PM10),56,61,66,34,31,135,78,115,94,16,37,3,7,0.6,0.8
2023-09-04T23:00:00,1479A,103.831,36.0464,兰州市,铁路设计院,,48,33,56,33,27,143,85,118,99,16,41,5,7,0.4,0.5
2023-09-04T23:00:00,1483A,101.524,36.6867,西宁市,第五水厂,,,,,,,,,,,,,,,,
2023-09-04T23:00:00,1484A,105.9512,38.6016,银川市,贺兰山马莲口,,41,41,39,22,19,196,114,179,153,6,11,3,6,0.2,0.3
2023-09-04T23:00:00,1488A,106.2328,38.4975,银川市,贺兰山东路,,49,49,67,25,24,201,110,180,138,18,30,8,17,0.5,0.7
2023-09-04T23:00:00,1489A,106.1358,38.5036,银川市,学院路,颗粒物(PM10),60,70,57,11,18,190,102,166,127,14,26,7,10,0.4,0.6
2023-09-04T23:00:00,1490A,87.5801,43.8303,乌鲁木齐市,监测站,,44,44,77,12,16,123,70,96,87,18,33,5,6,0.4,0.4
2023-09-04T23:00:00,1491A,87.6046,43.768,乌鲁木齐市,收费所,,42,42,66,21,20,126,77,102,94,20,34,2,3,0.3,0.3
2023-09-04T23:00:00,1492A,87.4754,43.9469,乌鲁木齐市,新疆农科院农场,颗粒物(PM10),59,68,121,16,27,107,24,88,70,50,45,4,5,0.6,0.6
2023-09-04T23:00:00,1493A,87.5525,43.8711,乌鲁木齐市,铁路局,,40,40,78,12,24,132,70,100,89,19,33,5,6,0.5,0.5
2023-09-04T23:00:00,1494A,87.6432,43.831,乌鲁木齐市,三十一中学,颗粒物(PM10),57,64,65,11,11,122,80,102,89,6,18,5,7,0.2,0.3
2023-09-04T23:00:00,1496A,87.7216,44.1747,乌鲁木齐市,米东区环保局,,26,26,95,15,23,116,68,103,91,17,22,7,10,0.3,0.4
2023-09-04T23:00:00,1508A,112.9433,27.8614,湘潭市,板塘,细颗粒物(PM2.5),77,69,46,56,34,155,83,139,118,14,11,7,7,0.8,0.7
2023-09-04T23:00:00,1511A,112.9118,27.8403,湘潭市,市监测站,细颗粒物(PM2.5),72,71,46,52,32,151,84,132,114,12,10,6,5,0.8,0.6
2023-09-04T23:00:00,1512A,112.8937,27.8728,湘潭市,江麓,细颗粒物(PM2.5),68,80,49,49,32,150,85,135,114,17,14,11,10,0.6,0.4
2023-09-04T23:00:00,1513A,112.9227,27.8159,湘潭市,岳塘,细颗粒物(PM2.5),65,71,48,47,32,151,83,136,118,21,13,8,7,0.5,0.4
2023-09-04T23:00:00,1514A,112.9074,27.9119,湘潭市,科大,"颗粒物(PM10),细颗粒物(PM2.5)",64,77,51,46,31,149,75,133,111,14,8,5,5,0.6,0.5
2023-09-04T23:00:00,1515A,113.135,27.8244,株洲市,天台山庄,细颗粒物(PM2.5),99,97,39,74,29,167,77,148,126,22,13,5,5,0.8,0.6
2023-09-04T23:00:00,1518A,113.095,27.8867,株洲市,株冶医院,细颗粒物(PM2.5),85,94,41,63,24,162,58,138,110,32,14,7,4,0.8,0.6
2023-09-04T23:00:00,1519A,113.167,27.8667,株洲市,市四中,细颗粒物(PM2.5),72,90,41,52,26,157,83,141,123,18,14,8,7,0.7,0.5
2023-09-04T23:00:00,1520A,113.143,27.8381,株洲市,火车站,细颗粒物(PM2.5),80,84,40,59,30,165,84,146,127,23,14,6,6,0.7,0.5
2023-09-04T23:00:00,1524A,113.13,27.8528,株洲市,市监测站,细颗粒物(PM2.5),77,88,41,56,26,163,80,145,122,21,13,6,6,1.0,0.8
2023-09-04T23:00:00,1552A,106.805,26.3003,贵阳市,桐木岭,,,,,,,,,,,,,,,,
2023-09-04T23:00:00,1559A,113.251,27.8336,株洲市,大京风景区,细颗粒物(PM2.5),79,70,33,58,24,155,79,132,121,11,6,6,6,0.7,0.6
2023-09-04T23:00:00,1562A,113.0048,27.9153,湘潭市,昭山,颗粒物(PM10),62,73,43,38,22,166,70,144,115,18,13,6,5,0.7,0.6
2023-09-04T23:00:00,1564A,112.4876,27.9164,湘潭市,韶山,颗粒物(PM10),53,55,47,33,23,127,127,118,118,7,7,8,8,0.5,0.5
2023-09-04T23:00:00,1585A,109.8756,40.6532,包头市,市环境监测站,颗粒物(PM10),52,54,52,18,20,175,60,159,120,66,46,20,16,0.8,0.9
2023-09-04T23:00:00,1587A,109.9991,40.5842,包头市,包头八中,颗粒物(PM10),54,57,61,22,21,169,128,153,136,26,40,25,27,0.7,0.9
2023-09-04T23:00:00,1588A,109.8538,40.6821,包头市,青山宾馆,颗粒物(PM10),70,90,53,47,22,174,36,159,122,90,47,21,15,0.8,0.8
2023-09-04T23:00:00,1589A,109.8642,40.6288,包头市,惠龙物流,颗粒物(PM10),54,57,52,15,22,178,86,163,136,46,43,17,20,0.8,0.9
2023-09-04T23:00:00,1590A,110.0377,40.5546,包头市,东河鸿龙湾,颗粒物(PM10),52,54,53,20,18,170,76,150,117,51,36,21,18,0.6,0.6
2023-09-04T23:00:00,1591A,110.0023,39.8129,鄂尔多斯市,综合楼,颗粒物(PM10),54,58,59,12,15,156,92,147,126,33,28,7,13,0.6,0.6
2023-09-04T23:00:00,1592A,109.9486,39.8261,鄂尔多斯市,巴音孟克林场办事处,颗粒物(PM10),60,70,49,19,19,173,94,164,139,37,21,10,15,0.6,0.6
2023-09-04T23:00:00,1593A,109.7736,39.5986,鄂尔多斯市,康泽苑,颗粒物(PM10),63,75,48,34,24,182,84,164,130,36,24,23,13,0.8,0.6
2023-09-04T23:00:00,1594A,109.8119,39.5989,鄂尔多斯市,华泰汽车城,颗粒物(PM10),58,66,51,17,22,158,58,148,113,39,32,10,9,0.6,0.6
2023-09-04T23:00:00,1595A,109.9734,39.7884,鄂尔多斯市,奥林花园,颗粒物(PM10),63,75,61,22,19,158,68,147,116,46,37,7,8,0.6,0.7
2023-09-04T23:00:00,1597A,122.2703,40.7094,营口市,大庆路,细颗粒物(PM2.5),92,87,47,68,33,186,79,159,132,28,21,5,13,0.8,0.9
2023-09-04T23:00:00,1598A,122.2150,40.6511,营口市,镜湖西路,细颗粒物(PM2.5),67,60,40,48,25,176,66,156,124,55,26,7,8,0.7,0.7
2023-09-04T23:00:00,1599A,122.1658,40.6789,营口市,西炮台,细颗粒物(PM2.5),72,46,35,52,15,155,76,142,118,24,20,6,7,0.7,0.7
2023-09-04T23:00:00,1600A,124.3303,40.0625,丹东市,江湾东路,颗粒物(PM10),55,59,40,34,25,150,16,125,72,33,21,6,6,1.0,0.8
2023-09-04T23:00:00,1601A,124.4256,40.1503,丹东市,临江后街,,42,42,33,24,18,144,23,118,71,38,22,8,8,0.6,0.6
2023-09-04T23:00:00,1602A,124.3933,40.1461,丹东市,元宝山,,30,30,32,18,20,125,40,113,83,18,16,8,9,1.2,1.2
2023-09-04T23:00:00,1603A,124.3633,40.1092,丹东市,民主桥,,33,33,34,16,17,151,16,123,69,50,22,4,4,0.7,0.7
2023-09-04T23:00:00,1604A,122.0303,41.1489,盘锦市,开发区,细颗粒物(PM2.5),84,72,41,62,27,157,90,143,117,29,20,7,4,1.0,0.7
2023-09-04T23:00:00,1605A,122.0485,41.0883,盘锦市,兴隆台,细颗粒物(PM2.5),82,68,41,60,26,154,106,138,120,18,20,6,6,0.9,0.7
2023-09-04T23:00:00,1606A,121.8297,41.1028,盘锦市,新生街道,,43,33,31,30,20,148,37,132,99,31,17,6,6,0.7,0.5
2023-09-04T23:00:00,1607A,120.9092,40.7136,葫芦岛市,龙港区,,45,36,33,31,21,156,92,144,127,12,8,6,7,0.5,0.5
2023-09-04T23:00:00,1608A,120.8392,40.7514,葫芦岛市,化工街,颗粒物(PM10),63,75,36,36,22,147,6,140,108,82,18,8,7,0.6,0.4
2023-09-04T23:00:00,1609A,120.8341,40.7073,葫芦岛市,新区,细颗粒物(PM2.5),63,54,35,45,24,136,44,126,110,35,10,5,5,0.9,0.8
2023-09-04T23:00:00,1610A,120.8695,40.7677,葫芦岛市,东城区,细颗粒物(PM2.5),52,46,40,36,27,157,21,144,123,86,23,8,8,0.8,0.6
2023-09-04T23:00:00,1611A,118.5819,24.9117,泉州市,涂山街,,17,14,11,10,4,52,52,45,45,4,3,4,4,0.4,0.3
2023-09-04T23:00:00,1612A,118.5972,24.8978,泉州市,津头埔,,17,16,9,6,3,52,52,42,42,5,6,3,3,0.4,0.4
2023-09-04T23:00:00,1613A,118.6663,24.9424,泉州市,万安,,17,16,14,7,4,54,54,44,44,5,4,2,2,0.6,0.5
2023-09-04T23:00:00,1614A,118.6117,24.9604,泉州市,清源山,,,,,,,,,,,,,,,,
2023-09-04T23:00:00,1616A,117.6795,36.229,济南市,技术学院,颗粒物(PM10),58,66,80,30,42,223,100,202,162,42,30,8,10,1.0,1.1
2023-09-04T23:00:00,1618A,118.3429,35.0532,临沂市,沂河小区,,30,24,40,15,24,174,93,160,125,13,20,5,8,0.3,0.4
2023-09-04T23:00:00,1619A,118.295,35.0583,临沂市,鲁南制药厂,,30,27,39,10,17,201,94,187,143,16,18,10,7,0.9,0.5
2023-09-04T23:00:00,1620A,118.2794,34.9976,临沂市,新光毛纺厂,,25,19,38,12,19,185,77,166,122,15,19,6,8,0.5,0.7
2023-09-04T23:00:00,1621A,118.3956,35.0888,临沂市,河东保险公司,,31,31,35,13,16,189,72,162,123,25,23,3,6,0.4,0.5
2023-09-04T23:00:00,1622A,116.3032,37.4674,德州市,儿童乐园,颗粒物(PM10),63,75,81,44,49,201,116,195,159,22,17,8,10,0.9,0.9
2023-09-04T23:00:00,1624A,116.2991,37.4451,德州市,监理站,细颗粒物(PM2.5),62,68,84,44,52,192,124,184,157,27,23,4,6,0.7,0.7
2023-09-04T23:00:00,1625A,115.9848,36.4372,聊城市,区政府,颗粒物(PM10),58,66,71,40,51,192,96,183,151,26,12,3,5,0.5,0.6
2023-09-04T23:00:00,1628A,118.0062,37.3803,滨州市,市环保局,细颗粒物(PM2.5),67,80,92,48,58,202,115,195,167,20,21,13,12,0.4,0.6
2023-09-04T23:00:00,1629A,118.0018,37.3617,滨州市,第二水厂,颗粒物(PM10),65,80,87,44,54,207,106,197,164,20,22,7,5,0.8,0.9
2023-09-04T23:00:00,1630A,117.9776,37.393,滨州市,北中新校,颗粒物(PM10),72,94,92,46,54,205,102,199,170,28,22,14,10,0.8,0.8
2023-09-04T23:00:00,1631A,118.0414,36.8103,淄博市,人民公园,颗粒物(PM10),59,68,99,36,60,236,122,224,183,26,27,6,12,0.7,0.7
2023-09-04T23:00:00,1633A,117.8525,36.4847,淄博市,双山,颗粒物(PM10),54,58,85,32,54,254,103,229,178,28,21,9,9,0.4,0.6
2023-09-04T23:00:00,1634A,117.9592,36.6331,淄博市,气象站,细颗粒物(PM2.5),67,70,89,48,65,253,127,238,192,17,20,10,10,0.2,0.4
2023-09-04T23:00:00,1635A,118.3092,36.8194,淄博市,莆田园,颗粒物(PM10),53,56,92,31,58,243,127,220,174,20,25,6,13,0.8,1.3
2023-09-04T23:00:00,1637A,117.558,34.8438,枣庄市,市中区政府,颗粒物(PM10),75,100,83,39,42,263,67,209,152,48,34,13,14,0.7,0.6
2023-09-04T23:00:00,1638A,117.2852,34.7837,枣庄市,薛城环保局,,39,39,77,20,44,225,81,207,164,41,28,12,15,0.6,0.9
2023-09-04T23:00:00,1639A,117.5852,34.7745,枣庄市,峄城区政府,颗粒物(PM10),52,53,66,27,29,261,78,207,151,25,22,15,16,0.6,0.7
2023-09-04T23:00:00,1640A,117.7276,34.5578,枣庄市,台儿庄区环保局,颗粒物(PM10),56,61,72,31,42,218,68,179,122,25,25,11,13,0.6,0.8
2023-09-04T23:00:00,1641A,117.4518,35.0992,枣庄市,山亭区环保局,,44,44,65,20,40,217,115,199,172,21,18,12,10,0.8,0.6
2023-09-04T23:00:00,1642A,121.2514,37.5639,烟台市,开发区,,36,29,34,22,19,150,114,135,130,7,21,3,4,0.8,0.7
2023-09-04T23:00:00,1643A,121.3719,37.5433,烟台市,轴承厂,,40,36,31,28,20,171,110,142,141,6,14,6,6,0.5,0.4
2023-09-04T23:00:00,1644A,121.3181,37.5436,烟台市,西郊化工站,,48,34,34,33,22,169,107,137,136,6,17,3,2,0.7,0.6
2023-09-04T23:00:00,1645A,121.4478,37.4822,烟台市,莱山环保局,,43,24,22,14,15,174,135,152,150,1,9,6,6,0.5,0.5
2023-09-04T23:00:00,1646A,121.2611,37.4967,烟台市,福山环保局,,41,41,39,27,11,138,76,112,109,24,26,8,9,0.8,0.7
2023-09-04T23:00:00,1650A,119.1437,36.7023,潍坊市,环保局,颗粒物(PM10),51,51,52,27,29,190,109,181,152,21,24,8,11,0.5,0.6
2023-09-04T23:00:00,1653A,116.6251,35.4302,济宁市,火炬城,,,89,62,,23,211,120,193,166,29,15,8,8,0.8,0.7
2023-09-04T23:00:00,1655A,116.5491,35.4042,济宁市,电化厂,颗粒物(PM10),68,85,72,34,25,188,72,180,143,42,18,7,11,0.8,0.7
2023-09-04T23:00:00,1656A,117.1437,36.1937,泰安市,监测站,细颗粒物(PM2.5),77,68,78,56,54,210,134,192,159,8,15,8,8,0.7,0.6
2023-09-04T23:00:00,1657A,117.0885,36.2017,泰安市,人口学校,颗粒物(PM10),54,58,67,36,42,225,141,201,171,14,17,6,6,0.6,0.6
2023-09-04T23:00:00,1658A,117.1089,36.1758,泰安市,电力学校,颗粒物(PM10),64,78,84,44,50,221,105,199,156,9,22,8,9,0.5,0.6
2023-09-04T23:00:00,1659A,119.471,35.4209,日照市,监测站,,42,36,20,16,11,162,10,140,105,84,39,6,7,0.7,0.6
2023-09-04T23:00:00,1660A,119.523,35.4216,日照市,市政府广场,,25,24,21,13,9,162,78,142,128,21,20,4,5,0.4,0.5
2023-09-04T23:00:00,1661A,119.5587,35.4044,日照市,港务局,,32,24,23,18,13,173,101,151,136,12,17,6,7,0.5,0.4
2023-09-04T23:00:00,1662A,122.1214,37.4236,威海市,华夏技校,,32,24,27,22,20,140,78,132,117,6,11,4,5,0.4,0.5
2023-09-04T23:00:00,1663A,122.0508,37.5236,威海市,山大分校,,42,42,32,20,21,161,88,148,128,5,10,8,9,0.5,0.5
2023-09-04T23:00:00,1664A,122.1067,37.5072,威海市,市监测站,,32,27,30,22,21,138,76,131,113,1,9,9,10,0.6,0.6
2023-09-04T23:00:00,1666A,118.6614,37.4309,东营市,市环保局,臭氧1小时,62,44,59,22,38,224,169,212,184,7,17,8,17,0.2,0.4
2023-09-04T23:00:00,1669A,113.5824,24.7733,韶关市,市八中,,17,16,25,10,13,85,53,78,66,5,6,9,10,0.6,0.7
2023-09-04T23:00:00,1671A,113.5917,24.7972,韶关市,园林处,,29,21,23,20,16,84,57,78,69,2,4,10,10,0.7,0.7
2023-09-04T23:00:00,1672A,113.6735,24.7791,韶关市,韶关学院,,25,21,29,17,20,74,45,70,56,7,7,10,10,0.5,0.5
2023-09-04T23:00:00,1673A,113.5971,24.6863,韶关市,曲江监测站,,28,28,26,14,16,90,52,81,66,5,8,8,10,0.6,0.7
2023-09-04T23:00:00,1674A,116.6794,23.3667,汕头市,金平子站,,26,21,19,18,10,47,32,40,31,13,19,5,6,1.0,0.7
2023-09-04T23:00:00,1675A,116.7244,23.3633,汕头市,龙湖子站,,13,12,19,6,9,64,39,52,39,13,16,6,10,0.6,0.6
2023-09-04T23:00:00,1676A,116.7258,23.2775,汕头市,濠江子站,,16,9,20,11,13,59,43,51,43,7,12,6,8,0.4,0.6
2023-09-04T23:00:00,1677A,116.7519,23.4714,汕头市,澄海子站,,23,13,24,16,13,57,34,50,37,14,14,2,5,0.2,0.3
2023-09-04T23:00:00,1678A,116.6092,23.2539,汕头市,潮阳子站,,13,12,24,9,11,65,40,50,39,4,8,7,8,0.4,0.7
2023-09-04T23:00:00,1680A,110.3539,21.2706,湛江市,湛江影剧院,,20,20,29,14,20,117,40,95,68,16,12,13,13,0.8,0.8
2023-09-04T23:00:00,1681A,110.3928,21.2228,湛江市,市环境监测站,,26,19,27,18,24,118,43,98,69,16,12,10,9,0.7,0.6
2023-09-04T23:00:00,1682A,110.4019,21.1997,湛江市,环保局宿舍,,29,19,25,20,24,128,37,105,75,23,11,10,8,1.1,0.9
2023-09-04T23:00:00,1683A,110.4111,21.2028,湛江市,霞山游泳场,,20,20,28,13,19,137,46,107,82,18,13,13,10,0.9,0.8
2023-09-04T23:00:00,1684A,110.3316,21.2679,湛江市,麻章区环保局,,30,17,31,21,28,119,48,97,65,15,16,12,11,0.6,0.7
2023-09-04T23:00:00,1685A,110.4558,21.2567,湛江市,坡头区环保局,,22,20,25,15,18,125,50,104,79,14,10,14,10,0.6,0.7
2023-09-04T23:00:00,1686A,111.0286,21.4688,茂名市,电白南海,,25,22,31,17,20,146,40,116,94,19,12,11,10,0.8,0.8
2023-09-04T23:00:00,1687A,110.9294,21.6533,茂名市,茂石化七小,,18,14,23,12,18,102,39,79,53,16,11,8,11,0.7,0.8
2023-09-04T23:00:00,1688A,110.9107,21.6687,茂名市,健康路,,11,9,20,2,10,93,33,79,52,19,10,9,10,0.8,0.7
2023-09-04T23:00:00,1689A,110.8592,21.6828,茂名市,高岭,,39,36,29,27,22,91,32,74,41,17,14,5,11,0.7,0.8
2023-09-04T23:00:00,1690A,116.1231,24.3284,梅州市,梅江月梅,,18,18,24,12,10,45,23,42,35,16,15,2,2,0.6,0.6
2023-09-04T23:00:00,1691A,116.0797,24.2719,梅州市,梅县新城,,21,21,26,11,12,46,21,45,38,19,16,4,6,0.6,0.7
2023-09-04T23:00:00,1692A,116.1248,24.2654,梅州市,环境监控中心,,18,17,23,12,12,51,29,47,39,13,14,8,9,0.5,0.5
2023-09-04T23:00:00,1693A,115.3653,22.775,汕尾市,市环保局,,16,15,26,11,20,168,47,118,101,3,6,8,8,0.5,0.6
2023-09-04T23:00:00,1694A,115.3706,22.7898,汕尾市,市政府,,19,19,28,13,17,172,52,114,91,3,5,6,7,0.6,0.9
2023-09-04T23:00:00,1695A,115.3622,22.7925,汕尾市,新城中学,,27,27,29,16,18,142,41,93,76,3,6,6,6,0.6,0.6
2023-09-04T23:00:00,1696A,114.6778,23.7569,河源市,源西,颗粒物(PM10),54,58,42,37,28,74,56,70,64,13,9,6,5,0.9,0.7
2023-09-04T23:00:00,1697A,114.6944,23.7586,河源市,东埔,,35,35,38,24,25,72,61,69,65,12,8,7,7,0.6,0.6
2023-09-04T23:00:00,1698A,114.6892,23.7233,河源市,老城,,,,40,,19,75,56,71,66,,8,,5,,0.6
2023-09-04T23:00:00,1699A,111.9797,21.8593,阳江市,鸳鸯湖,,42,41,32,29,19,92,30,80,56,19,13,5,6,1.1,0.9
2023-09-04T23:00:00,1701A,111.9491,21.8658,阳江市,马南垌,,45,39,31,31,23,80,31,71,45,18,12,5,7,0.8,0.6
2023-09-04T23:00:00,1702A,113.0426,23.691,清远市,环保大楼,,18,17,20,12,15,83,55,78,64,7,6,7,7,0.7,0.6
2023-09-04T23:00:00,1703A,113.0208,23.7106,清远市,凤城街办,,18,18,25,11,16,74,53,70,60,8,7,5,6,0.6,0.6
2023-09-04T23:00:00,1705A,116.6367,23.6719,潮州市,西园路,,11,8,19,3,13,39,33,37,33,5,7,3,4,0.3,0.3
2023-09-04T23:00:00,1706A,116.6447,23.6706,潮州市,档案局,,16,6,15,11,6,56,40,50,44,4,5,5,5,0.3,0.4
2023-09-04T23:00:00,1708A,116.3701,23.5345,揭阳市,新兴,,20,7,24,14,14,49,38,46,33,4,7,6,7,0.5,0.7
2023-09-04T23:00:00,1709A,116.3264,23.5443,揭阳市,西马,,19,12,28,13,14,52,35,47,31,5,8,6,6,0.6,0.7
2023-09-04T23:00:00,1710A,116.3611,23.5626,揭阳市,东兴,,19,7,29,13,11,43,37,39,29,9,18,2,5,0.6,0.7
2023-09-04T23:00:00,1711A,116.4151,23.5294,揭阳市,渔湖,,14,7,25,4,11,50,42,46,36,5,11,4,5,0.5,0.6
2023-09-04T23:00:00,1712A,112.0392,22.9169,云浮市,新市府,,24,24,26,12,15,80,47,74,55,16,9,15,12,0.9,0.9
2023-09-04T23:00:00,1714A,112.0539,22.9539,云浮市,牧羊,,25,25,24,12,14,90,16,78,57,47,13,8,24,0.8,0.7
2023-09-04T23:00:00,1715A,102.575,24.3711,玉溪市,东风水库,,26,26,24,16,18,118,57,115,99,13,8,6,6,0.7,0.6
2023-09-04T23:00:00,1718A,115.4208,35.2464,菏泽市,气象局,颗粒物(PM10),64,78,71,44,41,222,96,193,156,38,18,3,12,0.7,0.6
2023-09-04T23:00:00,1719A,115.4747,35.2375,菏泽市,市政协,细颗粒物(PM2.5),64,70,65,46,42,219,118,192,160,20,12,6,12,0.7,0.6
2023-09-04T23:00:00,1721A,113.3819,40.1097,大同市,果树场,,,,,,,,,,,,,,,,
2023-09-04T23:00:00,1723A,113.2994,40.0758,大同市,云冈宾馆,颗粒物(PM10),58,66,55,32,24,191,30,149,95,62,36,9,13,0.6,0.8
2023-09-04T23:00:00,1724A,113.3444,40.0917,大同市,大同大学,颗粒物(PM10),54,57,52,20,25,182,56,148,104,46,32,10,36,0.5,0.5
2023-09-04T23:00:00,1725A,113.2661,40.1269,大同市,安家小村,,43,43,53,14,18,185,79,144,108,22,26,12,15,0.4,0.7
2023-09-04T23:00:00,1726A,113.2711,40.0844,大同市,教育学院,颗粒物(PM10),66,82,64,29,25,183,31,150,96,64,42,7,12,0.8,1
2023-09-04T23:00:00,1727A,113.1147,36.1547,长治市,清华站,,49,49,56,22,28,197,65,148,104,25,23,9,11,0.6,0.8
2023-09-04T23:00:00,1728A,113.1031,36.1989,长治市,监测站,颗粒物(PM10),53,56,52,27,30,198,53,153,96,39,27,7,8,1.2,1.2
2023-09-04T23:00:00,1730A,113.0886,36.2125,长治市,审计局,颗粒物(PM10),52,54,49,27,31,190,66,147,98,30,23,9,9,1.0,1
2023-09-04T23:00:00,1731A,113.0844,36.1856,长治市,长治八中,颗粒物(PM10),52,53,56,28,28,192,83,148,107,24,22,10,11,0.7,0.7
2023-09-04T23:00:00,1733A,111.5531,36.0783,临汾市,临钢医院,颗粒物(PM10),58,65,77,28,28,205,43,187,128,55,32,10,14,1.2,1.1
2023-09-04T23:00:00,1734A,111.5028,36.0714,临汾市,技工学校,颗粒物(PM10),55,60,79,34,36,204,63,181,129,37,28,31,17,0.9,1
2023-09-04T23:00:00,1736A,111.5018,36.0855,临汾市,市委,颗粒物(PM10),67,83,76,31,31,183,52,166,119,43,29,22,16,0.7,0.8
2023-09-04T23:00:00,1738A,113.5758,37.8572,阳泉市,市中心,颗粒物(PM10),78,105,60,48,33,180,151,170,163,18,36,15,14,1.3,1.1
2023-09-04T23:00:00,1739A,113.4894,37.8731,阳泉市,赛鱼,"颗粒物(PM10),细颗粒物(PM2.5)",62,73,55,44,33,175,62,166,131,19,36,9,10,1.1,0.9
2023-09-04T23:00:00,1740A,113.5819,37.8486,阳泉市,南庄,颗粒物(PM10),97,143,83,46,32,184,90,173,152,23,26,12,16,1.2,1
2023-09-04T23:00:00,1742A,113.5614,37.8703,阳泉市,平坦,细颗粒物(PM2.5),98,121,74,73,42,182,166,170,166,14,37,11,13,1.0,0.9
2023-09-04T23:00:00,1743A,113.5158,37.8392,阳泉市,大阳泉,颗粒物(PM10),73,96,55,47,36,179,142,172,148,12,16,10,11,1.1,0.8
2023-09-04T23:00:00,1744A,118.9233,42.2816,赤峰市,松山一中,颗粒物(PM10),54,58,32,25,15,108,17,85,64,62,30,10,13,0.8,0.6
2023-09-04T23:00:00,1745A,118.9576,42.2728,赤峰市,哈达街,颗粒物(PM10),66,81,41,42,21,104,15,79,58,66,31,39,35,0.7,0.5
2023-09-04T23:00:00,1746A,118.8788,42.2554,赤峰市,天义路,颗粒物(PM10),59,68,27,36,18,119,16,90,64,58,30,26,23,0.7,0.4
2023-09-04T23:00:00,1748A,123.044,41.1196,鞍山市,深沟寺,细颗粒物(PM2.5),60,65,42,43,28,156,52,134,105,19,14,3,4,1.1,0.7
2023-09-04T23:00:00,1749A,123.011,41.0931,鞍山市,太阳城,细颗粒物(PM2.5),84,89,51,62,31,183,67,151,119,18,14,5,7,1.1,0.9
2023-09-04T23:00:00,1750A,123.0485,41.1442,鞍山市,太平,颗粒物(PM10),89,128,79,60,39,176,63,151,115,33,19,7,18,1.1,0.8
2023-09-04T23:00:00,1751A,122.9642,41.0971,鞍山市,铁西三道街,细颗粒物(PM2.5),89,125,85,66,37,178,65,153,121,30,29,5,6,1.2,1.1
2023-09-04T23:00:00,1752A,122.9341,41.0833,鞍山市,铁西工业园区,细颗粒物(PM2.5),100,121,80,75,40,174,42,150,106,43,40,6,8,1.3,1
2023-09-04T23:00:00,1753A,123.022,41.0821,鞍山市,明达新区,细颗粒物(PM2.5),75,84,46,55,29,178,79,149,120,26,18,4,5,1.0,0.9
2023-09-04T23:00:00,1754A,123.1289,41.0228,鞍山市,千山,,,,,,,,,,,,,,,,
2023-09-04T23:00:00,1755A,123.7977,41.8491,抚顺市,望花区,细颗粒物(PM2.5),100,66,64,75,46,196,42,153,124,28,26,8,11,0.7,0.7
2023-09-04T23:00:00,1756A,123.9161,41.8822,抚顺市,顺城区,细颗粒物(PM2.5),72,73,53,52,33,189,24,159,115,48,26,5,8,0.9,0.7
2023-09-04T23:00:00,1757A,124.0436,41.8611,抚顺市,东洲区,细颗粒物(PM2.5),67,64,46,48,27,188,70,167,136,25,12,8,9,0.9,0.7
2023-09-04T23:00:00,1758A,123.9247,41.8642,抚顺市,新抚区,细颗粒物(PM2.5),92,66,48,68,29,189,18,158,115,44,21,6,8,1.0,0.8
2023-09-04T23:00:00,1759A,124.0972,41.8961,抚顺市,大伙房水库,细颗粒物(PM2.5),54,52,39,38,26,177,78,159,134,13,10,6,7,0.8,0.6
2023-09-04T23:00:00,1760A,123.7086,41.8391,抚顺市,沈抚新城,细颗粒物(PM2.5),67,51,53,48,38,178,26,137,100,37,25,5,11,0.9,1
2023-09-04T23:00:00,1761A,123.8275,41.3064,本溪市,大峪,颗粒物(PM10),75,100,64,48,28,182,47,154,116,19,21,5,8,1.1,0.9
2023-09-04T23:00:00,1762A,123.7567,41.3325,本溪市,溪湖,细颗粒物(PM2.5),87,117,77,64,37,179,30,161,111,37,26,9,12,1.2,1.5
2023-09-04T23:00:00,1763A,123.7169,41.3094,本溪市,彩屯,细颗粒物(PM2.5),84,106,77,62,39,171,33,148,100,34,30,7,11,1.2,1.8
2023-09-04T23:00:00,1764A,123.7669,41.2864,本溪市,东明,细颗粒物(PM2.5),75,84,60,55,28,182,60,164,122,39,31,7,9,1.1,1
2023-09-04T23:00:00,1765A,123.7992,41.2664,本溪市,新立屯,颗粒物(PM10),61,72,46,35,18,170,25,131,68,66,33,9,10,1.0,0.9
2023-09-04T23:00:00,1766A,123.8142,41.3472,本溪市,威宁,细颗粒物(PM2.5),62,64,58,44,33,165,16,134,81,33,24,6,7,1.2,1.1
2023-09-04T23:00:00,1767A,121.1115,41.0879,锦州市,南山,细颗粒物(PM2.5),63,34,41,45,34,144,73,138,117,18,23,5,10,0.6,0.7
2023-09-04T23:00:00,1768A,121.0533,40.8434,锦州市,开发区,细颗粒物(PM2.5),53,38,37,37,22,154,79,141,129,47,22,5,9,0.7,0.6
2023-09-04T23:00:00,1769A,121.1836,41.1119,锦州市,百股街道,细颗粒物(PM2.5),62,40,41,44,27,144,19,135,102,74,23,5,12,0.8,0.7
2023-09-04T23:00:00,1770A,121.1178,41.1222,锦州市,天安街道,颗粒物(PM10),68,86,49,37,24,132,59,126,108,33,23,9,11,1.1,1
2023-09-04T23:00:00,1771A,121.1303,41.1386,锦州市,北湖公园,颗粒物(PM10),63,75,59,40,31,140,41,132,108,31,21,9,11,0.8,0.7
2023-09-04T23:00:00,1772A,126.54,43.8622,吉林市,哈达湾,颗粒物(PM10),52,54,45,34,29,119,66,106,84,9,19,6,8,0.7,0.7
2023-09-04T23:00:00,1773A,126.5844,43.8358,吉林市,东局子,细颗粒物(PM2.5),57,53,41,40,25,123,57,107,83,17,17,21,8,0.9,0.8
2023-09-04T23:00:00,1774A,126.5052,43.8245,吉林市,电力学院,颗粒物(PM10),53,56,51,32,27,119,51,103,76,11,19,8,10,0.6,0.6
2023-09-04T23:00:00,1775A,126.6133,43.8972,吉林市,江北,颗粒物(PM10),69,88,59,42,29,121,54,100,67,14,21,9,10,0.8,0.7
2023-09-04T23:00:00,1776A,126.555,43.8306,吉林市,江南公园,细颗粒物(PM2.5),62,43,38,44,26,123,60,108,81,12,18,5,6,0.7,0.8
2023-09-04T23:00:00,1778A,126.7061,43.7133,吉林市,丰满,,,,,,,,,,,,,,,,
2023-09-04T23:00:00,1779A,123.9305,47.3636,齐齐哈尔市,安居小区,,23,18,17,16,15,50,31,46,34,11,6,5,5,0.3,0.2
2023-09-04T23:00:00,1780A,123.9488,47.3386,齐齐哈尔市,中心广场,,26,26,14,14,8,49,28,44,33,13,7,1,1,0.3,0.3
2023-09-04T23:00:00,1781A,123.9483,47.3227,齐齐哈尔市,农牧车辆厂,,25,24,19,17,5,49,29,46,34,10,8,5,5,0.3,0.3
2023-09-04T23:00:00,1783A,123.945,47.2988,齐齐哈尔市,市环境监测站,,20,20,13,12,8,52,20,48,35,17,7,4,3,0.2,0.2
2023-09-04T23:00:00,1784A,129.61,44.561,牡丹江市,环保大楼,,,15,18,13,13,84,,74,60,16,12,5,5,0.5,0.5
2023-09-04T23:00:00,1785A,129.6115,44.5782,牡丹江市,文化广场,,47,47,24,22,18,82,14,72,42,24,16,6,7,0.7,0.5
2023-09-04T23:00:00,1786A,129.5904,44.5963,牡丹江市,第一医院,,22,22,26,9,12,78,18,68,39,8,13,5,6,0.4,0.4
2023-09-04T23:00:00,1787A,129.6364,44.6075,牡丹江市,机车工厂,,31,31,32,6,10,86,17,73,42,11,11,3,3,0.7,0.6
2023-09-04T23:00:00,1788A,129.6386,44.5462,牡丹江市,第一中学,,32,32,22,5,6,81,5,72,37,18,13,5,5,0.5,0.5
2023-09-04T23:00:00,1789A,124.81117,46.03138,大庆市,大同区,,18,18,22,11,12,52,22,44,37,14,10,5,6,0.3,0.3
2023-09-04T23:00:00,1790A,125.129,46.533,大庆市,龙凤区,,,14,23,9,10,49,,48,48,4,10,3,2,0.2,0.2
2023-09-04T23:00:00,1791A,124.902,46.408,大庆市,红岗区,,22,16,24,15,12,56,39,50,46,8,8,3,3,0.5,0.3
2023-09-04T23:00:00,1792A,125.153,46.586,大庆市,萨尔图区,,24,24,26,6,9,49,44,46,46,4,8,5,5,0,0
2023-09-04T23:00:00,1793A,124.9042,46.6215,大庆市,让胡路区,,20,20,24,7,8,56,36,46,44,7,8,4,4,0.3,0.3
2023-09-04T23:00:00,1794A,118.3606,31.3519,芜湖市,监测站,,29,29,39,17,21,126,61,113,98,16,18,6,6,0.7,0.8
2023-09-04T23:00:00,1795A,118.3714,31.4134,芜湖市,科创中心,颗粒物(PM10),52,53,45,21,23,124,38,114,88,44,31,9,8,1.0,0.8
2023-09-04T23:00:00,1796A,118.3673,31.3131,芜湖市,四水厂,,37,37,38,16,20,122,61,113,100,21,18,4,4,0.7,0.7
2023-09-04T23:00:00,1798A,118.5092,31.6837,马鞍山市,湖东路四小,,34,34,34,21,21,130,51,113,90,18,17,8,9,0.5,0.5
2023-09-04T23:00:00,1799A,118.5024,31.6449,马鞍山市,开发区,,29,26,34,20,20,142,55,120,108,13,12,8,7,0.8,0.7
2023-09-04T23:00:00,1800A,118.5228,31.7231,马鞍山市,慈湖,,38,38,42,22,25,127,47,110,85,23,22,10,10,0.7,0.6
2023-09-04T23:00:00,1802A,118.6245,31.7241,马鞍山市,濮塘,,26,24,26,18,21,125,50,105,88,12,11,4,4,0.8,0.8
2023-09-04T23:00:00,1803A,115.9872,29.6815,九江市,十里,,48,48,42,27,24,148,98,135,112,11,19,8,11,0.8,0.8
2023-09-04T23:00:00,1804A,115.9584,29.7046,九江市,茅山头,,41,41,37,28,27,146,92,131,107,20,24,8,12,0.8,0.8
2023-09-04T23:00:00,1805A,115.9877,29.7295,九江市,西园,,50,50,42,20,23,143,92,130,106,26,28,9,19,0.7,0.7
2023-09-04T23:00:00,1806A,116.0172,29.6547,九江市,五七二七厂,,39,36,37,27,24,145,84,127,102,12,12,9,10,0.7,0.7
2023-09-04T23:00:00,1808A,115.9114,29.6038,九江市,综合工业园,,42,42,42,27,25,161,102,139,112,14,27,11,14,0.8,0.8
2023-09-04T23:00:00,1809A,116.0721,29.7535,九江市,石化总厂,颗粒物(PM10),52,53,50,27,27,154,92,137,110,18,22,8,10,0.9,0.9
2023-09-04T23:00:00,1810A,115.9773,29.5698,九江市,庐山气象台,,30,12,25,5,19,122,96,107,97,8,12,10,9,0.8,0.8
2023-09-04T23:00:00,1812A,112.3931,34.6516,洛阳市,市委党校,颗粒物(PM10),51,51,59,35,40,189,150,182,171,7,26,9,11,0.4,0.5
2023-09-04T23:00:00,1814A,112.4657,34.6871,洛阳市,豫西宾馆,,50,46,67,35,39,186,130,176,163,12,29,4,6,0.9,0.9
2023-09-04T23:00:00,1815A,112.494,34.6886,洛阳市,河南林校,颗粒物(PM10),56,62,59,36,37,191,104,177,158,22,28,6,7,0.6,0.5
2023-09-04T23:00:00,1816A,112.3844,34.623,洛阳市,开发区管委会,颗粒物(PM10),53,56,56,32,32,189,132,175,158,11,13,2,3,0.4,0.4
2023-09-04T23:00:00,1817A,112.4267,34.6258,洛阳市,市委新办公区,细颗粒物(PM2.5),57,56,59,40,44,181,150,168,158,2,14,6,6,0.5,0.5
2023-09-04T23:00:00,1818A,114.4839,36.0621,安阳市,棉研所,,,,,,,,,,,,,,,,
2023-09-04T23:00:00,1819A,114.3551,36.1017,安阳市,红庙街,"颗粒物(PM10),细颗粒物(PM2.5)",53,56,79,37,38,220,108,203,157,15,25,2,8,0.8,1.2
2023-09-04T23:00:00,1820A,114.361,36.0681,安阳市,银杏小区,,,69,64,,,222,92,201,154,18,16,5,8,0.6,0.7
2023-09-04T23:00:00,1824A,114.3389,34.7781,开封市,肿瘤医院,"颗粒物(PM10),细颗粒物(PM2.5)",64,77,72,46,41,176,94,164,137,31,12,5,5,0.7,0.7
2023-09-04T23:00:00,1826A,114.2885,34.7965,开封市,世纪星幼儿园,,,72,67,,,185,115,170,150,20,15,8,6,0.6,0.6
2023-09-04T23:00:00,1828A,113.227,35.2125,焦作市,市环保局,细颗粒物(PM2.5),67,64,67,48,41,207,128,188,167,20,18,8,7,0.7,0.6
2023-09-04T23:00:00,1830A,113.1992,35.2590,焦作市,影视城,,,,,,,,,,,,,,,,
2023-09-04T23:00:00,1832A,113.3257,33.742,平顶山市,新华旅馆,颗粒物(PM10),67,83,70,29,36,176,104,169,137,28,27,4,5,0.5,0.6
2023-09-04T23:00:00,1833A,113.2919,33.737,平顶山市,规划设计院,细颗粒物(PM2.5),62,72,60,44,40,186,106,172,146,26,23,7,8,0.7,0.7
2023-09-04T23:00:00,1834A,113.182,33.774,平顶山市,平顶山工学院,颗粒物(PM10),65,79,71,34,33,206,107,185,150,24,21,5,8,0.6,0.6
2023-09-04T23:00:00,1835A,111.1922,34.7752,三门峡市,市政府,,47,47,48,28,26,142,122,138,136,17,24,9,8,0.7,0.6
2023-09-04T23:00:00,1836A,111.1587,34.7942,三门峡市,开发区,颗粒物(PM10),53,55,54,26,26,153,113,143,132,27,18,10,7,0.5,0.5
2023-09-04T23:00:00,1838A,111.143,34.7955,三门峡市,风景区,,,,,,,,,,,,,,,,
2023-09-04T23:00:00,1840A,111.2992,30.6981,宜昌市,白龙岗,颗粒物(PM10),54,58,42,36,21,174,78,152,122,20,18,2,2,0.6,0.5
2023-09-04T23:00:00,1841A,111.3549,30.6465,宜昌市,伍家岗,细颗粒物(PM2.5),58,53,32,41,25,171,65,150,113,32,17,6,5,0.6,0.5
2023-09-04T23:00:00,1842A,111.2628,30.6961,宜昌市,点军区,细颗粒物(PM2.5),70,82,41,51,24,181,68,164,125,20,15,7,7,0.9,0.7
2023-09-04T23:00:00,1843A,111.3275,30.7819,宜昌市,夷陵区,颗粒物(PM10),55,60,40,31,22,170,81,146,118,23,20,5,5,0.5,0.4
2023-09-04T23:00:00,1844A,112.2494,30.3197,荆州市,市图书馆,颗粒物(PM10),51,51,56,30,32,159,83,149,122,28,16,10,10,0.7,0.7
2023-09-04T23:00:00,1845A,112.2008,30.3544,荆州市,市委党校,,,,64,,33,158,70,149,126,36,19,12,11,0.7,0.9
2023-09-04T23:00:00,1847A,113.1094,29.3578,岳阳市,南湖风景区,细颗粒物(PM2.5),52,47,34,36,24,156,97,148,134,23,16,9,10,0.7,0.7
2023-09-04T23:00:00,1848A,113.1493,29.4251,岳阳市,城陵矶,颗粒物(PM10),53,55,33,32,22,146,83,138,126,37,20,9,9,0.9,0.8
2023-09-04T23:00:00,1849A,113.1497,29.3575,岳阳市,开发区,,50,48,34,35,24,162,101,150,134,16,14,9,9,0.8,0.7
2023-09-04T23:00:00,1850A,113.2621,29.4758,岳阳市,云溪区,,50,41,28,35,19,161,92,142,131,13,11,14,8,0.7,0.7
2023-09-04T23:00:00,1851A,112.9943,29.4402,岳阳市,君山区,细颗粒物(PM2.5),57,54,32,40,27,151,106,140,131,12,13,8,9,0.7,0.7
2023-09-04T23:00:00,1852A,113.2117,29.355,岳阳市,金凤水库,,,75,33,48,21,168,,148,139,15,9,5,5,0.8,0.7
2023-09-04T23:00:00,1854A,111.6975,28.9703,常德市,市二中,细颗粒物(PM2.5),82,62,45,60,39,175,110,136,136,15,10,6,6,1.0,0.8
2023-09-04T23:00:00,1857A,111.7158,29.1456,常德市,白鹤山,,35,25,39,6,8,143,109,121,110,2,3,8,8,0.6,0.7
2023-09-04T23:00:00,1858A,110.5319,29.1217,张家界市,永定新区,颗粒物(PM10),55,59,37,34,26,140,78,136,112,27,14,5,5,0.4,0.4
2023-09-04T23:00:00,1859A,110.4697,29.1242,张家界市,电业局,,45,45,36,24,23,138,61,132,107,28,10,3,4,0.6,0.5
2023-09-04T23:00:00,1860A,110.5594,29.3547,张家界市,未央路,,40,40,33,23,20,131,41,127,90,15,6,3,4,0.5,0.4
2023-09-04T23:00:00,1861A,110.4417,29.315,张家界市,袁家界,,46,44,24,30,18,156,147,131,131,5,4,8,8,0.7,0.6
2023-09-04T23:00:00,1862A,110.4144,25.3167,桂林市,电子科大尧山校区,,31,31,19,17,12,82,82,77,77,7,6,4,4,0.6,0.6
2023-09-04T23:00:00,1863A,110.2819,25.2697,桂林市,监测站,,28,28,19,14,11,86,72,80,74,13,8,8,7,0.7,0.6
2023-09-04T23:00:00,1864A,110.3089,25.2708,桂林市,龙隐路小学,,29,29,19,14,12,87,77,82,76,8,5,8,6,0.7,0.6
2023-09-04T23:00:00,1865A,110.2869,25.2178,桂林市,八中,,32,32,19,19,10,90,77,83,77,12,9,6,4,0.6,0.6
2023-09-04T23:00:00,1866A,109.2262,21.588,北海市,牛尾岭水库,,18,18,16,8,7,78,40,68,54,9,7,4,4,0.6,0.6
2023-09-04T23:00:00,1867A,109.1436,21.4086,北海市,海滩公园,,23,23,22,12,9,93,64,86,81,8,8,5,4,0.7,0.7
2023-09-04T23:00:00,1868A,109.0981,21.4661,北海市,新市环保局,,25,23,20,17,11,99,67,91,84,7,6,5,4,0.6,0.7
2023-09-04T23:00:00,1869A,109.1778,21.5233,北海市,北海工业园,,22,22,25,15,15,92,60,85,78,8,10,5,6,0.7,0.7
2023-09-04T23:00:00,1870A,109.4856,24.3895,柳州市,柳东小学,,28,21,15,19,12,82,53,70,66,4,4,7,8,0.4,0.4
2023-09-04T23:00:00,1871A,109.4157,24.3277,柳州市,环保监测站,,37,37,21,18,13,67,43,64,53,10,10,12,7,0.4,0.4
2023-09-04T23:00:00,1872A,109.389,24.341,柳州市,河西水厂,,29,29,30,19,16,62,30,55,45,20,28,14,15,0.5,1.2
2023-09-04T23:00:00,1873A,109.4311,24.2921,柳州市,市四中,,22,22,19,14,11,72,43,68,58,12,9,11,9,0.7,0.7
2023-09-04T23:00:00,1874A,109.4006,24.3631,柳州市,市九中,,30,30,25,21,14,67,40,64,51,12,10,24,10,1.2,0.9
2023-09-04T23:00:00,1875A,109.4958,24.3134,柳州市,古亭山,,28,28,16,13,7,90,42,74,65,10,7,6,6,0.5,0.5
2023-09-04T23:00:00,1876A,109.5078,18.2489,三亚市,河东子站,,27,20,15,8,7,105,85,101,94,8,5,3,3,0.5,0.5
2023-09-04T23:00:00,1877A,109.4964,18.2681,三亚市,河西子站,,28,20,13,10,7,107,87,103,95,6,4,2,2,0.4,0.4
2023-09-04T23:00:00,1878A,104.7778,31.4741,绵阳市,富乐山,颗粒物(PM10),51,52,55,34,35,211,108,186,152,18,20,4,4,0.7,0.7
2023-09-04T23:00:00,1879A,104.7563,31.4535,绵阳市,市人大,细颗粒物(PM2.5),64,61,58,46,41,209,62,182,142,55,30,12,10,0.8,0.7
2023-09-04T23:00:00,1880A,104.6697,31.4668,绵阳市,高新区自来水公司,颗粒物(PM10),76,102,71,49,36,211,5,182,122,97,36,8,8,0.7,0.5
2023-09-04T23:00:00,1881A,104.7287,31.5075,绵阳市,三水厂,细颗粒物(PM2.5),69,75,76,50,47,219,13,178,110,78,43,8,8,0.7,0.5
2023-09-04T23:00:00,1882A,104.563,28.793,宜宾市,石马中学,,,,,,,,,,,,,,,,
2023-09-04T23:00:00,1883A,104.6201,28.7728,宜宾市,市委,细颗粒物(PM2.5),74,82,56,54,35,190,69,177,144,48,22,11,11,0.8,0.6
2023-09-04T23:00:00,1884A,104.6055,28.793,宜宾市,宜宾四中,细颗粒物(PM2.5),104,119,60,78,42,196,,183,171,54,25,8,10,0.8,0.7
2023-09-04T23:00:00,1885A,104.639,28.7562,宜宾市,市政府,细颗粒物(PM2.5),65,69,61,47,38,192,85,176,143,45,32,11,10,0.9,0.7
2023-09-04T23:00:00,1886A,104.5742,28.7199,宜宾市,黄金嘴,细颗粒物(PM2.5),73,76,50,53,34,196,59,176,139,43,20,9,12,0.7,0.6
2023-09-04T23:00:00,1888A,101.6891,26.571,攀枝花市,弄弄坪,颗粒物(PM10),51,51,49,24,22,149,82,135,118,20,23,10,14,0.8,1.3
2023-09-04T23:00:00,1889A,101.5769,26.5928,攀枝花市,河门口,颗粒物(PM10),53,56,46,26,24,178,78,151,129,22,25,12,16,1.0,1
2023-09-04T23:00:00,1890A,101.7169,26.585,攀枝花市,炳草岗,颗粒物(PM10),61,72,49,30,23,165,15,145,106,80,32,16,16,1.4,1.3
2023-09-04T23:00:00,1891A,101.7369,26.5008,攀枝花市,仁和,颗粒物(PM10),51,52,43,30,22,178,63,150,119,22,20,8,14,0.5,0.9
2023-09-04T23:00:00,1893A,105.4324,28.9634,泸州市,九狮山,颗粒物(PM10),51,52,53,33,35,170,45,148,102,17,18,5,6,0.7,0.5
2023-09-04T23:00:00,1894A,105.4427,28.9063,泸州市,小市上码头,细颗粒物(PM2.5),87,98,72,64,52,219,92,199,158,29,23,5,7,0.7,0.7
2023-09-04T23:00:00,1895A,105.4241,28.8573,泸州市,兰田宪桥,细颗粒物(PM2.5),85,92,71,63,56,230,74,204,164,30,16,7,9,0.8,0.7
2023-09-04T23:00:00,1896A,105.4379,28.8833,泸州市,市环监站,颗粒物(PM10),70,90,71,44,46,204,60,177,140,57,24,5,7,0.9,0.6
2023-09-04T23:00:00,1901A,104.4239,31.1208,德阳市,东山公园,颗粒物(PM10),61,72,85,29,40,214,125,197,166,15,19,4,19,0.6,0.7
2023-09-04T23:00:00,1902A,104.3826,31.1317,德阳市,西小区,细颗粒物(PM2.5),79,79,80,58,47,205,48,188,146,64,32,2,9,0.9,0.8
2023-09-04T23:00:00,1904A,104.3553,31.1091,德阳市,耐火材料厂,"颗粒物(PM10),细颗粒物(PM2.5)",77,104,94,56,50,209,66,189,141,34,32,1,9,0.9,0.9
2023-09-04T23:00:00,1905A,106.056,30.8064,南充市,西山风景区,细颗粒物(PM2.5),55,33,41,39,34,177,137,157,147,10,11,13,10,0.6,0.6
2023-09-04T23:00:00,1906A,106.0789,30.8023,南充市,南充市委,细颗粒物(PM2.5),74,81,60,54,42,194,54,169,115,34,23,10,11,0.7,0.6
2023-09-04T23:00:00,1907A,106.1031,30.8217,南充市,南充炼油厂,细颗粒物(PM2.5),68,83,66,49,38,174,45,166,122,47,23,10,10,0.6,0.5
2023-09-04T23:00:00,1908A,106.1064,30.7856,南充市,高坪区监测站,细颗粒物(PM2.5),77,92,65,56,44,186,32,155,114,66,35,10,10,0.6,0.5
2023-09-04T23:00:00,1909A,106.0642,30.7636,南充市,嘉陵区环保局,细颗粒物(PM2.5),64,67,69,46,42,168,32,154,102,65,33,8,19,0.7,0.5
2023-09-04T23:00:00,1910A,106.1087,30.8388,南充市,市环境监测站,颗粒物(PM10),75,100,66,44,41,185,36,160,126,57,28,9,9,0.6,0.5
2023-09-04T23:00:00,1911A,106.9222,27.6869,遵义市,丁字口,,38,38,25,20,16,114,51,105,86,38,22,6,5,0.7,0.6
2023-09-04T23:00:00,1912A,106.9242,27.7019,遵义市,凤凰山,,48,39,29,33,22,135,81,128,119,30,13,8,7,0.5,0.5
2023-09-04T23:00:00,1913A,106.8906,27.6486,遵义市,忠庄,颗粒物(PM10),59,68,31,39,23,124,74,118,106,32,17,3,2,0.5,0.4
2023-09-04T23:00:00,1914A,106.9231,27.6506,遵义市,舟水桥,细颗粒物(PM2.5),97,101,36,72,21,132,34,127,97,39,12,2,2,0.8,0.6
2023-09-04T23:00:00,1915A,106.9178,27.72,遵义市,干田坝,,46,44,24,32,17,129,25,121,93,46,15,6,6,0.7,0.6
2023-09-04T23:00:00,1916A,103.7897,25.5035,曲靖市,环境监测站,,27,24,27,9,16,93,86,90,87,12,14,3,7,0.4,0.6
2023-09-04T23:00:00,1917A,103.8,25.5364,曲靖市,烟厂办公区,,32,32,28,12,15,96,65,92,85,20,12,6,7,0.5,0.6
2023-09-04T23:00:00,1918A,108.7197,34.3956,咸阳市,气象站,,,,,,,,,,,,,,,,
2023-09-04T23:00:00,1919A,108.673,34.3155,咸阳市,实验中学,,44,44,64,21,35,200,62,178,140,34,22,7,8,0.5,0.5
2023-09-04T23:00:00,1920A,108.7233,34.3617,咸阳市,师范学院,,40,40,58,23,32,176,76,163,135,30,25,4,5,0.4,0.6
2023-09-04T23:00:00,1922A,109.0656,35.0994,铜川市,党校,颗粒物(PM10),100,149,51,23,22,144,23,132,88,38,25,12,12,0.7,0.7
2023-09-04T23:00:00,1923A,109.0697,35.0697,铜川市,王益区政府,颗粒物(PM10),53,56,39,26,24,147,27,141,104,44,19,5,6,0.6,0.6
2023-09-04T23:00:00,1924A,108.9344,34.9058,铜川市,新区管委会,,48,48,46,24,26,155,82,148,126,27,17,8,7,0.7,0.7
2023-09-04T23:00:00,1926A,109.4131,36.6275,延安市,枣园,,47,47,40,20,20,157,8,128,70,56,24,6,6,0.5,0.5
2023-09-04T23:00:00,1927A,109.4761,36.6028,延安市,延大医附院,颗粒物(PM10),51,52,43,18,18,157,12,126,70,57,27,4,5,0.6,0.6
2023-09-04T23:00:00,1929A,109.5056,36.6106,延安市,百米大道,颗粒物(PM10),59,68,48,21,21,156,10,121,70,59,29,6,6,0.9,0.7
2023-09-04T23:00:00,1930A,107.185,34.3063,宝鸡市,庙沟村,,43,43,48,27,26,156,106,137,124,7,13,7,8,0.2,0.2
2023-09-04T23:00:00,1931A,107.0708,34.3017,宝鸡市,竹园沟,,43,40,42,30,27,181,76,170,137,20,13,5,6,0.6,0.6
2023-09-04T23:00:00,1932A,107.1906,34.3672,宝鸡市,三陆医院,颗粒物(PM10),56,62,60,37,34,192,72,174,151,34,24,7,10,0.6,0.6
2023-09-04T23:00:00,1933A,107.1431,34.3547,宝鸡市,监测站,颗粒物(PM10),54,57,54,34,33,186,70,171,140,37,23,7,8,0.5,0.5
2023-09-04T23:00:00,1934A,107.1186,34.3739,宝鸡市,技工学校,细颗粒物(PM2.5),69,72,56,50,36,185,97,171,151,26,19,7,7,0.6,0.6
2023-09-04T23:00:00,1935A,107.3906,34.3528,宝鸡市,陈仓区环保局家属楼,颗粒物(PM10),64,78,67,36,32,200,74,177,154,52,28,8,8,0.7,0.6
2023-09-04T23:00:00,1936A,107.2058,34.3497,宝鸡市,文理学院,颗粒物(PM10),56,62,60,31,30,197,75,174,148,32,20,5,6,0.6,0.6
2023-09-04T23:00:00,1937A,107.2386,34.3622,宝鸡市,三迪小学,颗粒物(PM10),59,67,61,36,37,192,80,172,149,30,21,6,7,0.6,0.6
2023-09-04T23:00:00,1938A,109.5293,34.5101,渭南市,农科所,细颗粒物(PM2.5),55,51,51,39,32,152,58,142,109,23,21,5,6,0.5,0.5
2023-09-04T23:00:00,1939A,109.4974,34.4877,渭南市,日报社,细颗粒物(PM2.5),63,53,51,45,34,164,33,149,114,45,26,5,6,0.6,0.5
2023-09-04T23:00:00,1940A,109.4636,34.493,渭南市,体育馆,颗粒物(PM10),68,85,50,34,27,166,2,157,105,92,36,6,5,0.7,0.6
2023-09-04T23:00:00,1941A,109.4259,34.5023,渭南市,高新一小,颗粒物(PM10),62,73,59,31,27,162,70,155,131,19,16,5,7,0.6,0.5
2023-09-04T23:00:00,1943A,102.1725,38.5339,金昌市,新川苑,颗粒物(PM10),92,133,110,29,26,263,94,254,104,40,47,7,10,0.6,0.7
2023-09-04T23:00:00,1944A,102.1692,38.5167,金昌市,天庆家园,颗粒物(PM10),66,82,76,28,28,175,116,159,140,21,25,12,31,0.6,0.7
2023-09-04T23:00:00,1945A,98.2908,39.7711,嘉峪关市,气象局,颗粒物(PM10),75,100,75,29,22,152,86,135,120,51,38,9,8,0.6,0.4
2023-09-04T23:00:00,1947A,106.3394,38.817,石嘴山市,沙湖旅游区,颗粒物(PM10),73,96,58,22,19,193,55,175,145,39,13,14,13,0.6,0.6
2023-09-04T23:00:00,1948A,106.3668,39.0145,石嘴山市,大武口朝阳西街,颗粒物(PM10),68,85,71,24,24,194,82,180,150,25,22,3,22,0.2,0.4
2023-09-04T23:00:00,1949A,106.7704,39.2282,石嘴山市,惠农南大街,,,71,61,22,19,172,,151,124,21,24,12,13,0.6,0.6
2023-09-04T23:00:00,1950A,106.7099,39.1325,石嘴山市,红果子镇惠新街,颗粒物(PM10),63,75,59,20,19,178,77,160,123,20,20,6,12,0.3,0.4
2023-09-04T23:00:00,1951A,84.895,45.6094,克拉玛依市,长征新村,,30,22,24,6,5,105,94,92,76,4,10,9,10,0.3,0.3
2023-09-04T23:00:00,1952A,84.8988,45.5893,克拉玛依市,南林小区,,29,22,26,12,11,105,90,92,72,12,19,5,6,0.3,0.4
2023-09-04T23:00:00,1954A,84.905,44.3396,克拉玛依市,独山子区,,38,38,25,16,16,116,44,105,63,25,13,7,9,0.5,0.5
2023-09-04T23:00:00,1955A,85.6979,46.098,克拉玛依市,乌尔禾区商贸楼,,31,4,32,6,7,99,99,90,88,1,7,7,8,0.3,0.3
2023-09-04T23:00:00,1956A,86.1472,41.7538,巴音郭楞州,孔雀公园,颗粒物(PM10),77,104,85,30,23,112,46,100,75,61,29,12,10,0.5,0.4
2023-09-04T23:00:00,1957A,86.1972,41.7166,巴音郭楞州,棉纺厂,颗粒物(PM10),92,134,107,35,35,113,50,106,78,52,29,6,7,0.5,0.4
2023-09-04T23:00:00,1958A,86.2357,41.7173,巴音郭楞州,经济开发区,颗粒物(PM10),71,91,106,16,29,119,84,113,100,16,13,8,10,0.3,0.3
2023-09-04T23:00:00,1961A,117.532,36.6868,济南市,东山小学,颗粒物(PM10),64,78,93,42,55,238,148,218,182,21,25,7,6,0.9,0.7
2023-09-04T23:00:00,1966A,120.0405,35.8735,青岛市,黄岛区4号,,36,36,30,12,14,169,72,147,121,28,26,5,7,0.4,0.5
2023-09-04T23:00:00,1982A,122.0693,37.2174,威海市,文登开发区,颗粒物(PM10),51,51,36,27,17,124,85,112,108,15,17,7,6,0.8,0.5
2023-09-04T23:00:00,2031A,113.1817,27.9958,株洲市,云田中学,细颗粒物(PM2.5),72,80,38,52,27,165,94,142,123,18,12,6,6,0.9,0.7
2023-09-04T23:00:00,2054A,114.1099,32.1059,信阳市,平桥分局,颗粒物(PM10),57,63,45,22,21,133,74,124,106,27,17,5,3,0.6,0.6
2023-09-04T23:00:00,2064A,113.9956,32.1271,信阳市,南湾水厂,,30,30,44,16,22,135,88,125,111,17,12,4,3,0.6,0.7
2023-09-04T23:00:00,2065A,114.0775,32.1195,信阳市,市酿酒公司,,30,27,41,18,21,134,93,124,116,20,18,4,3,0.5,0.6
2023-09-04T23:00:00,2066A,114.0609,32.1399,信阳市,审计局,,39,39,43,20,19,139,93,129,122,21,15,4,4,0.6,0.6
2023-09-04T23:00:00,2067A,114.6613,33.6128,周口市,市环境监测站,颗粒物(PM10),64,78,61,42,35,180,108,172,150,23,17,6,6,0.6,0.5
2023-09-04T23:00:00,2068A,114.6758,33.6347,周口市,周口师范,颗粒物(PM10),62,73,57,39,30,181,120,165,151,8,8,4,4,0.6,0.6
2023-09-04T23:00:00,2069A,114.6546,33.5979,周口市,市运管处,颗粒物(PM10),58,65,64,40,38,176,96,166,142,30,21,8,11,0.7,0.6
2023-09-04T23:00:00,2070A,114.6369,33.6406,周口市,川汇区环保局,颗粒物(PM10),56,62,56,34,28,175,118,164,148,12,11,5,5,0.7,0.6
2023-09-04T23:00:00,2075A,117.6336,24.4674,漳州市,九湖,,,,,,,,,,,,,,,,
2023-09-04T23:00:00,2160A,112.85,35.5051,晋城市,自来水公司,颗粒物(PM10),70,89,69,41,33,201,129,188,182,36,22,12,12,1.1,1.1
2023-09-04T23:00:00,2161A,112.8318,35.4936,晋城市,白云商贸,颗粒物(PM10),67,84,70,39,31,196,89,183,168,45,27,10,11,1.0,0.9
2023-09-04T23:00:00,2162A,112.8508,35.4887,晋城市,市环保局,颗粒物(PM10),78,106,75,41,34,188,104,176,163,48,36,10,10,1.0,0.9
2023-09-04T23:00:00,2163A,112.8676,35.4897,晋城市,技术学院,颗粒物(PM10),73,95,60,46,31,194,129,178,173,42,38,10,10,1.0,1
2023-09-04T23:00:00,2165A,112.8453,35.546,晋城市,白马寺,,,,,,,,,,,,,,,,
2023-09-04T23:00:00,2166A,112.4397,39.3522,朔州市,平朔,颗粒物(PM10),73,95,67,31,25,152,10,134,90,57,36,8,12,0.5,0.5
2023-09-04T23:00:00,2167A,112.4575,39.3617,朔州市,朔唯,颗粒物(PM10),89,127,89,36,27,144,15,128,84,50,38,9,13,0.6,0.7
2023-09-04T23:00:00,2168A,112.4258,39.3197,朔州市,区政府,颗粒物(PM10),51,52,52,17,23,140,52,125,91,31,30,4,10,0.5,0.6
2023-09-04T23:00:00,2169A,112.4072,39.3278,朔州市,市环保局,,50,50,52,11,18,146,53,134,97,36,29,4,13,0.4,0.5
2023-09-04T23:00:00,2170A,112.4272,39.3681,朔州市,市二中,颗粒物(PM10),94,138,81,32,28,149,3,129,78,54,40,8,13,0.8,0.7
2023-09-04T23:00:00,2171A,112.7532,37.6945,晋中市,锦纶小区,,48,48,51,13,20,186,89,161,126,28,21,10,10,0.6,0.5
2023-09-04T23:00:00,2173A,112.7249,37.7067,晋中市,南都小区,颗粒物(PM10),51,51,62,19,32,184,111,158,129,18,21,8,8,0.6,0.3
2023-09-04T23:00:00,2174A,112.6991,37.6982,晋中市,榆次区政府,,42,42,58,17,26,187,111,155,129,18,23,10,10,0.5,0.4
2023-09-04T23:00:00,2175A,110.9956,35.0147,运城市,运城中学,,48,46,42,22,19,158,151,147,147,5,8,6,5,0.4,0.5
2023-09-04T23:00:00,2178A,110.9686,35.0303,运城市,地区技校,,46,43,42,28,20,153,145,143,143,7,11,5,5,0.2,0.2
2023-09-04T23:00:00,2179A,111.0414,35.1147,运城市,空港新区,颗粒物(PM10),51,52,57,25,30,150,132,144,143,16,19,8,10,0.5,0.6
2023-09-04T23:00:00,2181A,112.7383,38.4519,忻州市,开发区,细颗粒物(PM2.5),65,58,50,47,30,149,41,132,101,46,28,8,11,0.7,0.6
2023-09-04T23:00:00,2182A,112.7003,38.4928,忻州市,会展中心,颗粒物(PM10),52,53,47,31,30,157,70,137,98,34,32,11,11,0.7,0.5
2023-09-04T23:00:00,2183A,111.1406,37.5211,吕梁市,环保局,颗粒物(PM10),88,125,79,42,30,190,32,162,93,85,38,1,5,0.7,0.7
2023-09-04T23:00:00,2185A,111.1297,37.5136,吕梁市,自来水公司,颗粒物(PM10),79,108,75,40,29,197,32,171,118,67,34,5,7,0.8,0.7
2023-09-04T23:00:00,2187A,106.8174,39.6973,乌海市,市林业局,颗粒物(PM10),65,80,70,29,22,148,127,142,136,7,17,12,19,0.6,0.8
2023-09-04T23:00:00,2188A,106.7907,39.6667,乌海市,中海勃湾学校,颗粒物(PM10),65,79,65,32,21,149,122,142,131,11,18,13,19,0.4,0.5
2023-09-04T23:00:00,2191A,122.2532,43.6801,通辽市,艺术职业学校,,43,43,33,14,15,115,47,104,72,14,11,5,5,0.4,0.4
2023-09-04T23:00:00,2192A,119.7594,49.2261,呼伦贝尔市,区环保局,,44,44,26,24,20,66,36,60,41,19,16,4,4,0.4,0.4
2023-09-04T23:00:00,2195A,107.4212,40.761,巴彦淖尔市,附二中,颗粒物(PM10),53,55,47,25,16,152,133,144,140,6,10,4,5,0.5,0.5
2023-09-04T23:00:00,2196A,107.37,40.7372,巴彦淖尔市,市环保大楼,颗粒物(PM10),59,68,46,24,17,150,130,142,135,6,9,4,4,0.4,0.4
2023-09-04T23:00:00,2197A,113.1306,40.9923,乌兰察布市,集宁新区,,36,31,34,25,18,172,93,152,132,20,24,38,15,0.4,0.5
2023-09-04T23:00:00,2200A,122.0392,46.0656,兴安盟,胜华新制药厂,颗粒物(PM10),67,84,31,27,18,74,24,63,44,20,11,3,3,0.5,0.4
2023-09-04T23:00:00,2201A,121.9504,46.0741,兴安盟,科右前旗环保局,,31,31,25,18,19,77,46,67,59,6,7,2,3,0.5,0.4
2023-09-04T23:00:00,2202A,116.1042,43.9317,锡林郭勒盟,市环保监测站,,24,9,21,3,6,109,75,106,88,3,12,10,11,0.2,0.2
2023-09-04T23:00:00,2203A,116.0781,43.9311,锡林郭勒盟,市政府,,25,10,14,2,4,113,78,109,92,6,9,12,11,0.2,0.2
2023-09-04T23:00:00,2204A,105.6467,38.8363,阿拉善盟,西城区西花园,颗粒物(PM10),63,75,64,33,24,152,108,132,129,8,9,8,9,0.5,0.5
2023-09-04T23:00:00,2205A,105.6985,38.8411,阿拉善盟,蒙二幼,颗粒物(PM10),84,118,80,27,27,193,161,161,161,6,6,7,7,0.4,0.4
2023-09-04T23:00:00,2206A,105.724,38.8516,阿拉善盟,环保局新楼,颗粒物(PM10),66,81,49,23,25,181,132,158,155,5,6,9,10,0.4,0.4
2023-09-04T23:00:00,2207A,121.6094,41.998,阜新市,工业园区,颗粒物(PM10),82,113,68,52,35,128,20,122,76,47,21,13,17,1.2,1
2023-09-04T23:00:00,2208A,121.6697,42.0279,阜新市,长青街,,,78,64,60,43,123,,114,82,31,20,20,26,1.0,0.7
2023-09-04T23:00:00,2209A,121.6673,42.0705,阜新市,农业园区,,,68,54,55,42,128,,109,95,18,14,80,18,2.4,1.3
2023-09-04T23:00:00,2210A,121.6717,42.0224,阜新市,东苑,细颗粒物(PM2.5),79,89,62,58,42,128,44,118,78,31,19,36,34,1.2,0.8
2023-09-04T23:00:00,2211A,121.6506,42.0498,阜新市,玉龙新城,细颗粒物(PM2.5),69,86,61,50,36,121,25,110,70,44,21,12,13,1.8,0.9
2023-09-04T23:00:00,2212A,123.2,41.1953,辽阳市,宏伟区,细颗粒物(PM2.5),72,85,48,52,26,176,60,152,120,23,10,8,10,1.0,0.9
2023-09-04T23:00:00,2213A,123.1683,41.2495,辽阳市,新华园,细颗粒物(PM2.5),83,106,59,61,33,156,66,127,113,25,17,8,12,1.0,0.9
2023-09-04T23:00:00,2214A,123.2354,41.2639,辽阳市,滨河路,细颗粒物(PM2.5),80,76,51,59,28,147,27,127,93,42,20,10,13,1.1,1.1
2023-09-04T23:00:00,2215A,123.149,41.2991,辽阳市,铁西工业园,"颗粒物(PM10),细颗粒物(PM2.5)",82,113,61,60,27,153,14,122,70,61,38,7,10,1.0,0.9
2023-09-04T23:00:00,2216A,123.8139,42.3022,铁岭市,汇工街西,,40,27,48,28,30,169,42,143,101,15,20,6,11,0.6,0.8
2023-09-04T23:00:00,2217A,123.8649,42.2923,铁岭市,水上乐园,,39,36,48,27,25,162,7,140,87,49,23,1,4,0.7,0.8
2023-09-04T23:00:00,2218A,123.8486,42.2867,铁岭市,银州路东段,,47,47,67,29,33,151,22,130,91,39,27,3,6,0.5,0.7
2023-09-04T23:00:00,2219A,123.7153,42.2217,铁岭市,金沙江路北,,36,28,45,25,27,158,52,132,102,11,22,6,10,0.7,1
2023-09-04T23:00:00,2220A,120.4318,41.5881,朝阳市,西梁,细颗粒物(PM2.5),78,88,79,57,44,142,71,130,112,26,16,19,11,0.9,0.9
2023-09-04T23:00:00,2221A,120.4521,41.5646,朝阳市,河畔小区,细颗粒物(PM2.5),64,55,89,46,47,142,88,130,117,15,12,31,11,0.9,0.9
2023-09-04T23:00:00,2222A,120.4176,41.5648,朝阳市,八里堡,颗粒物(PM10),69,88,70,46,41,148,84,133,116,23,17,14,9,1.1,1.1
2023-09-04T23:00:00,2223A,120.3806,41.5969,朝阳市,农业园区,细颗粒物(PM2.5),64,69,79,46,65,134,58,130,86,23,21,12,7,1.0,0.9
2023-09-04T23:00:00,2225A,124.4002,43.1713,四平市,一商场,,35,30,42,24,26,129,48,95,54,7,15,6,9,0.4,0.5
2023-09-04T23:00:00,2226A,124.388,43.193,四平市,境园,,33,22,36,23,26,128,49,90,53,3,15,2,6,0.4,0.7
2023-09-04T23:00:00,2227A,125.1358,42.8845,辽源市,环保局,,29,29,30,20,20,142,66,124,87,6,14,8,8,0.7,0.7
2023-09-04T23:00:00,2229A,125.9358,41.7173,通化市,光明,,33,33,28,15,13,111,16,101,46,16,15,8,8,0.4,0.6
2023-09-04T23:00:00,2230A,125.9446,41.7325,通化市,铁路,,34,34,25,17,15,110,22,93,50,14,18,4,9,0.7,0.8
2023-09-04T23:00:00,2231A,126.4219,41.9171,白山市,喜丰,颗粒物(PM10),63,75,57,20,16,32,7,26,18,32,17,38,30,0.8,0.7
2023-09-04T23:00:00,2232A,126.4077,41.9419,白山市,环保局,颗粒物(PM10),55,59,40,17,13,131,13,111,57,33,16,6,10,0.3,0.4
2023-09-04T23:00:00,2233A,124.8006,45.1214,松原市,江南,,27,27,20,14,14,126,43,126,52,13,12,6,6,0.6,0.5
2023-09-04T23:00:00,2234A,124.7965,45.1722,松原市,江北,,,,,,,,,,,,,,,,
2023-09-04T23:00:00,2235A,122.7911,45.6077,白城市,洮北区环保局,,25,25,19,7,6,72,17,65,48,29,10,4,5,0.2,0.1
2023-09-04T23:00:00,2236A,122.8738,45.5725,白城市,市环保局,,23,23,23,6,8,77,34,71,45,30,12,9,8,0.3,0.2
2023-09-04T23:00:00,2237A,129.47,42.8883,延边朝鲜族自治州,妇幼医院,,21,21,24,13,14,89,34,74,54,11,10,8,8,0.6,0.5
2023-09-04T23:00:00,2238A,129.5055,42.9108,延边朝鲜族自治州,延边医院,,21,21,25,14,15,84,52,75,60,11,14,5,6,0.7,0.7
2023-09-04T23:00:00,2239A,129.3964,42.8881,延边朝鲜族自治州,朝阳川镇医院,,25,25,22,15,13,105,20,82,51,11,9,8,8,0.6,0.6
2023-09-04T23:00:00,2240A,130.9762,45.3001,鸡西市,环保局,颗粒物(PM10),59,67,52,27,20,74,21,62,29,26,25,6,7,0.4,0.4
2023-09-04T23:00:00,2243A,130.9429,45.3039,鸡西市,第一中学,,46,46,47,22,18,116,34,90,47,14,23,8,7,0.3,0.3
2023-09-04T23:00:00,2244A,130.2537,47.3416,鹤岗市,哈啤分公司,,23,23,21,12,11,37,7,36,17,11,7,11,11,0.5,0.3
2023-09-04T23:00:00,2245A,130.2684,47.3086,鹤岗市,斯达机电,,31,31,24,18,9,39,2,38,17,25,10,9,8,0.7,0.4
2023-09-04T23:00:00,2246A,130.3114,47.3388,鹤岗市,东山纸板厂,,28,10,28,19,12,33,7,31,16,17,10,10,10,0.6,0.4
2023-09-04T23:00:00,2247A,130.1097,47.3382,鹤岗市,五号水库,,20,12,18,14,10,42,11,35,14,12,8,12,11,0.4,0.3
2023-09-04T23:00:00,2248A,131.1511,46.6937,双鸭山市,双合村,,34,34,52,14,17,43,37,35,22,11,15,7,11,0.3,0.5
2023-09-04T23:00:00,2249A,131.1652,46.6191,双鸭山市,南小市,,22,22,51,13,18,62,37,43,33,3,14,5,7,0.2,0.3
2023-09-04T23:00:00,2250A,131.1524,46.6554,双鸭山市,环保局,,20,20,31,8,11,50,46,35,35,9,18,8,9,0.3,0.4
2023-09-04T23:00:00,2251A,131.12,46.5656,双鸭山市,苗圃,,21,16,16,10,7,88,66,79,60,2,4,3,3,0.4,0.4
2023-09-04T23:00:00,2252A,128.5159,47.4311,伊春市,环保局,,29,28,25,20,10,100,40,90,66,9,9,3,5,0.4,0.4
2023-09-04T23:00:00,2253A,128.9102,47.7412,伊春市,电力嘉园,,18,15,21,10,11,108,57,100,78,6,7,4,5,0.6,0.5
2023-09-04T23:00:00,2254A,129.5029,48.471,伊春市,汤旺河国家公园,,20,20,22,11,17,105,28,83,33,1,2,15,14,0.4,0.4
2023-09-04T23:00:00,2255A,130.2751,46.8028,佳木斯市,佳纺,,36,36,39,19,15,67,31,48,44,15,12,3,3,0.5,0.4
2023-09-04T23:00:00,2256A,130.3995,46.8307,佳木斯市,发电厂,,39,39,27,25,13,70,15,44,35,40,13,4,3,0.7,0.5
2023-09-04T23:00:00,2257A,130.3258,46.7975,佳木斯市,环保局,,35,35,32,21,15,65,46,49,49,13,16,3,3,0.5,0.5
2023-09-04T23:00:00,2258A,130.3648,46.8032,佳木斯市,十一中,,42,40,29,29,16,53,24,38,36,33,19,4,4,0.6,0.5
2023-09-04T23:00:00,2259A,130.3794,46.7588,佳木斯市,四丰,,23,23,26,14,12,80,54,60,60,4,14,1,1,0.4,0.4
2023-09-04T23:00:00,2262A,131.0518,45.8751,七台河市,新一中,,20,16,26,14,17,99,28,80,58,14,7,7,9,0.9,0.8
2023-09-04T23:00:00,2263A,127.4833,50.2524,黑河市,交通局,,10,7,10,7,7,30,21,30,23,5,7,4,4,0.4,0.4
2023-09-04T23:00:00,2264A,127.5144,50.2341,黑河市,环保局,,19,13,19,13,10,34,22,34,26,9,8,4,3,0.3,0.3
2023-09-04T23:00:00,2265A,127.5291,50.2472,黑河市,大黑河岛,,,3,16,10,9,,,,,2,2,1,2,0.4,0.4
2023-09-04T23:00:00,2266A,126.9785,46.6365,绥化市,人和东街,,22,22,30,10,16,108,29,102,65,5,11,4,6,0.3,0.4
2023-09-04T23:00:00,2267A,126.964,46.6528,绥化市,党政办公中心,,16,16,28,8,16,102,30,98,62,5,10,10,12,0.3,0.5
2023-09-04T23:00:00,2269A,124.1069,50.4097,大兴安岭地区,科技局,,22,22,14,9,9,47,7,44,25,5,4,3,2,0.3,0.3
2023-09-04T23:00:00,2270A,117.396,32.939,蚌埠市,工人疗养院,颗粒物(PM10),55,59,44,28,17,101,78,97,90,11,14,4,4,0.5,0.4
2023-09-04T23:00:00,2271A,117.3605,32.9427,蚌埠市,百货大楼,颗粒物(PM10),57,64,44,24,16,106,87,101,98,12,11,5,5,0.4,0.4
2023-09-04T23:00:00,2273A,117.4185,32.8911,蚌埠市,蚌埠学院,,48,48,39,28,21,105,69,98,86,23,31,6,10,0.4,0.4
2023-09-04T23:00:00,2274A,117.3533,32.9673,蚌埠市,淮上区政府,颗粒物(PM10),53,56,40,31,22,103,77,99,95,17,13,5,5,0.4,0.4
2023-09-04T23:00:00,2275A,117.3145,32.8977,蚌埠市,高新区,,48,48,33,30,18,110,96,106,103,13,17,4,6,0.5,0.5
2023-09-04T23:00:00,2277A,116.8305,32.7727,淮南市,潘集区政府,颗粒物(PM10),52,54,41,22,21,124,59,104,80,24,18,10,9,0.4,0.3
2023-09-04T23:00:00,2278A,117.0067,32.6524,淮南市,师范学院,,49,49,46,23,19,125,68,107,91,21,17,9,12,0.5,0.4
2023-09-04T23:00:00,2279A,116.8569,32.5951,淮南市,谢家集区政府,,37,37,37,11,10,138,70,118,92,22,19,6,9,0.2,0.2
2023-09-04T23:00:00,2280A,116.8281,32.633,淮南市,八公山区政府,颗粒物(PM10),51,52,42,27,24,130,70,111,91,17,16,7,8,0.5,0.4
2023-09-04T23:00:00,2281A,116.6325,32.6201,淮南市,焦岗湖风景区管理处,,33,33,34,9,13,135,60,113,84,19,15,1,1,0.4,0.3
2023-09-04T23:00:00,2282A,116.8004,33.975,淮北市,监测站,,29,23,38,13,23,181,92,155,117,18,17,2,4,0.3,0.5
2023-09-04T23:00:00,2283A,116.8091,33.9007,淮北市,烈山区政府,,33,33,45,11,21,177,94,153,118,14,14,8,8,0.4,0.5
2023-09-04T23:00:00,2285A,117.8177,30.9412,铜陵市,市第四中学,,44,44,51,23,26,104,64,84,70,12,22,6,7,0.3,0.5
2023-09-04T23:00:00,2286A,117.8059,30.9273,铜陵市,市公路局,,30,30,45,17,25,116,68,92,76,16,26,6,10,0.5,0.7
2023-09-04T23:00:00,2287A,117.7807,30.9413,铜陵市,市新民污水厂,,44,44,59,21,23,113,56,77,48,24,35,5,7,0.5,0.7
2023-09-04T23:00:00,2288A,117.7439,30.8792,铜陵市,市第九中学,颗粒物(PM10),64,78,70,26,30,96,43,79,61,44,38,15,10,0.6,1
2023-09-04T23:00:00,2289A,117.846,30.9413,铜陵市,车站新区,,47,47,49,27,28,119,57,85,65,18,22,3,5,0.4,0.6
2023-09-04T23:00:00,2290A,117.8483,30.97,铜陵市,市职教基地,,33,33,35,16,17,110,56,86,70,12,16,4,5,0.6,0.8
2023-09-04T23:00:00,2291A,117.0809,30.5177,安庆市,环科院,,36,36,42,18,30,122,73,108,95,11,12,6,7,0.5,0.7
2023-09-04T23:00:00,2292A,117.0331,30.5119,安庆市,马山宾馆,,42,42,45,18,30,124,82,115,100,11,12,6,6,0.6,0.8
2023-09-04T23:00:00,2294A,116.9896,30.6145,安庆市,安庆大学,,38,38,43,17,30,126,76,126,103,11,11,5,6,0.5,0.7
2023-09-04T23:00:00,2295A,118.2903,29.6963,黄山市,延安路89号,,32,32,39,5,10,108,76,103,78,6,6,4,4,0.3,0.4
2023-09-04T23:00:00,2296A,118.327,29.7178,黄山市,黄山东路89号,,23,17,27,1,11,105,71,101,73,7,6,5,5,0.4,0.5
2023-09-04T23:00:00,2297A,118.1371,30.2756,黄山市,黄山区政府5号楼,,23,21,40,16,17,99,65,91,79,8,7,6,6,0.5,0.5
2023-09-04T23:00:00,2298A,118.3093,32.3153,滁州市,老年大学,,25,25,29,14,13,116,68,105,84,14,13,8,7,0.3,0.3
2023-09-04T23:00:00,2299A,118.3244,32.2786,滁州市,人大宾馆,,30,25,23,21,15,124,70,109,85,15,13,9,7,0.4,0.4
2023-09-04T23:00:00,2301A,115.8277,32.8929,阜阳市,市监测站,,27,27,33,14,18,123,78,115,101,14,14,6,8,0.5,0.4
2023-09-04T23:00:00,2303A,115.8554,32.8605,阜阳市,开发区,,37,37,43,25,30,120,63,112,89,22,19,8,9,0.5,0.5
2023-09-04T23:00:00,2307A,116.5079,31.737,六安市,监测大楼,,24,24,36,11,15,110,74,96,86,11,17,7,7,0.3,0.4
2023-09-04T23:00:00,2308A,116.4738,31.7643,六安市,皖西学院,,33,33,43,3,14,109,78,96,87,9,17,7,9,0.2,0.3
2023-09-04T23:00:00,2309A,116.4996,31.7905,六安市,朝阳厂,,23,17,32,9,17,106,71,97,86,10,17,7,9,0.5,0.6
2023-09-04T23:00:00,2310A,116.5567,31.7886,六安市,开发区,,37,37,45,16,22,95,59,86,74,12,14,5,6,0.4,0.5
2023-09-04T23:00:00,2311A,115.8072,33.8399,亳州市,污水处理厂,颗粒物(PM10),51,52,52,30,31,182,82,174,141,13,11,20,14,0.6,0.7
2023-09-04T23:00:00,2312A,115.7789,33.8518,亳州市,三国揽胜宫,,41,41,47,24,29,177,95,170,146,12,13,12,10,0.6,0.7
2023-09-04T23:00:00,2314A,117.47,30.6618,池州市,池州学院,,49,49,43,32,28,116,54,96,73,32,26,11,7,0.9,0.8
2023-09-04T23:00:00,2316A,118.7581,30.9454,宣城市,鳌峰子站,,29,29,37,15,21,93,73,84,81,14,15,4,4,0.5,0.6
2023-09-04T23:00:00,2317A,118.7385,30.9743,宣城市,敬亭山子站,,38,38,38,18,21,98,39,82,70,44,25,8,7,0.6,0.5
2023-09-04T23:00:00,2318A,118.7173,30.9427,宣城市,开发区子站,,26,26,35,17,23,102,75,85,82,16,18,6,6,0.5,0.5
2023-09-04T23:00:00,2319A,119.0141,25.4325,莆田市,荔城区仓后路,,12,8,11,0,1,40,36,37,36,4,3,8,8,0.6,0.5
2023-09-04T23:00:00,2320A,119.0015,25.4553,莆田市,莆田市监测站,,13,12,11,0,0,39,39,38,37,3,2,7,6,0.6,0.5
2023-09-04T23:00:00,2321A,119.1119,25.4561,莆田市,涵江区六中,,34,34,12,1,1,44,40,41,39,4,2,7,7,0.6,0.5
2023-09-04T23:00:00,2322A,119.1013,25.3215,莆田市,秀屿区政府,,16,10,14,0,1,50,50,38,38,2,2,7,7,0.6,0.6
2023-09-04T23:00:00,2323A,118.981,25.4792,莆田市,东圳水库,,,,,,,,,,,,,,,,
2023-09-04T23:00:00,2324A,117.6211,26.2625,三明市,三钢,,23,18,20,16,13,44,28,34,24,7,10,8,8,0.1,0.2
2023-09-04T23:00:00,2325A,117.635,26.2714,三明市,三明二中,,25,18,16,17,10,45,30,34,27,13,14,3,4,0.5,0.6
2023-09-04T23:00:00,2326A,117.6028,26.2378,三明市,三元区政府,,28,28,24,17,12,45,8,34,14,20,18,10,10,1.1,1
2023-09-04T23:00:00,2327A,117.7275,26.3108,三明市,洋溪,,,,,,,,,,,,,,,,
2023-09-04T23:00:00,2331A,118.0966,26.6761,南平市,茫荡山,,,,,,,,,,,,,,,,
2023-09-04T23:00:00,2332A,118.1681,26.6369,南平市,南平市监测站,,24,24,19,13,11,61,18,49,27,8,8,5,6,0.5,0.5
2023-09-04T23:00:00,2333A,118.1825,26.6489,南平市,南平铝业有限公司,,22,18,15,15,8,56,29,47,29,9,8,4,4,0.4,0.4
2023-09-04T23:00:00,2334A,118.1756,26.6272,南平市,南平七中,,28,28,17,13,8,59,15,45,26,7,6,4,7,0.5,0.5
2023-09-04T23:00:00,2335A,117.0189,25.1181,龙岩市,龙岩师专,,,,,,,,,,,,,,,,
2023-09-04T23:00:00,2336A,117.0217,25.1033,龙岩市,龙岩市监测站,,15,15,13,7,4,40,36,36,32,6,8,4,5,0.3,0.4
2023-09-04T23:00:00,2337A,117.0258,25.0661,龙岩市,闽西职业技术学院,,26,16,12,18,5,42,36,37,32,4,5,4,5,0.2,0.3
2023-09-04T23:00:00,2338A,117.0196,25.0306,龙岩市,龙岩学院,,25,11,11,17,5,42,39,36,31,2,5,3,3,0.2,0.2
2023-09-04T23:00:00,2339A,119.5001,26.6946,宁德市,金涵水库,,,,,,,,,,,,,,,,
2023-09-04T23:00:00,2341A,119.5388,26.6612,宁德市,宁德市监测站,,28,19,17,19,11,28,10,22,16,14,11,4,4,0.5,0.5
2023-09-04T23:00:00,2342A,117.3102,29.3867,景德镇市,王港中学,,38,38,24,9,13,62,9,48,26,10,5,3,3,0.4,0.4
2023-09-04T23:00:00,2343A,117.2117,29.2933,景德镇市,老干部活动中心,,31,31,28,15,20,70,47,62,53,10,7,4,4,0.2,0.2
2023-09-04T23:00:00,2344A,117.1894,29.2789,景德镇市,兽医站,,39,29,27,27,20,73,48,64,56,16,8,7,6,0.4,0.4
2023-09-04T23:00:00,2345A,117.1547,29.2617,景德镇市,台达陶瓷,,34,34,23,22,17,76,57,65,57,8,8,4,10,0.3,0.3
2023-09-04T23:00:00,2346A,117.2461,29.2956,景德镇市,陶研所,颗粒物(PM10),54,58,32,21,13,67,24,62,40,23,8,4,5,0.3,0.3
2023-09-04T23:00:00,2347A,114.0997,27.5002,萍乡市,武功山,,16,9,15,11,11,94,32,78,69,5,4,7,9,0.5,0.4
2023-09-04T23:00:00,2348A,113.8385,27.6434,萍乡市,中医院,颗粒物(PM10),53,55,43,36,28,110,74,96,84,13,16,13,18,0.9,1
2023-09-04T23:00:00,2349A,113.8493,27.6253,萍乡市,市政府车库,,49,47,40,34,24,118,75,102,90,13,14,10,21,0.6,0.7
2023-09-04T23:00:00,2350A,113.8676,27.6435,萍乡市,市环保局,,48,46,37,33,27,127,86,106,96,14,16,8,16,0.7,0.9
2023-09-04T23:00:00,2351A,113.866,27.6198,萍乡市,安源区政府,颗粒物(PM10),52,54,36,30,21,119,76,100,92,12,12,7,16,0.6,0.7
2023-09-04T23:00:00,2352A,115.0861,27.9317,新余市,北岗,,38,32,27,26,21,118,72,110,94,8,6,11,18,0.7,0.7
2023-09-04T23:00:00,2353A,114.9886,27.8431,新余市,飞宇,颗粒物(PM10),52,53,42,25,20,116,78,108,94,17,11,14,13,0.4,0.4
2023-09-04T23:00:00,2354A,114.9231,27.8246,新余市,第二水厂,,49,49,39,28,21,134,101,122,111,14,14,9,13,0.3,0.3
2023-09-04T23:00:00,2355A,114.9308,27.8036,新余市,市气象局,,48,48,40,33,24,119,91,111,103,10,9,17,14,0.6,0.6
2023-09-04T23:00:00,2357A,116.9822,28.1136,鹰潭市,龙虎山,,33,33,31,18,23,104,34,78,58,15,6,9,7,0.4,0.5
2023-09-04T23:00:00,2358A,117.0564,28.2642,鹰潭市,新监测站,,28,28,40,9,20,90,33,74,49,8,6,1,5,0.2,0.3
2023-09-04T23:00:00,2359A,117.0311,28.2475,鹰潭市,财苑宾馆,,36,36,32,12,19,94,33,79,57,12,6,3,7,0.3,0.5
2023-09-04T23:00:00,2360A,117.0222,28.2264,鹰潭市,体育馆,,36,36,40,12,22,99,43,78,57,7,8,4,9,0.2,0.4
2023-09-04T23:00:00,2361A,117.0017,28.2131,鹰潭市,三川水表,,49,49,46,19,26,100,9,79,48,29,12,2,9,0.5,0.6
2023-09-04T23:00:00,2362A,114.9017,25.9149,赣州市,通天岩,,,,,,,,,,,,,,,,
2023-09-04T23:00:00,2363A,114.9367,25.8664,赣州市,地委,,48,48,38,30,25,117,90,112,95,6,5,8,12,1.1,1.1
2023-09-04T23:00:00,2364A,114.9461,25.8481,赣州市,气象台,,40,40,33,25,23,130,97,122,100,9,10,6,6,0.7,0.7
2023-09-04T23:00:00,2365A,114.9322,25.8333,赣州市,市图书馆,颗粒物(PM10),51,52,66,34,29,121,87,111,92,14,9,13,10,0.9,0.9
2023-09-04T23:00:00,2366A,114.8905,25.8471,赣州市,华坚鞋城,细颗粒物(PM2.5),53,45,39,37,24,125,95,114,96,6,6,4,4,0.7,0.7
2023-09-04T23:00:00,2367A,114.9754,27.0803,吉安市,红声器材厂,,49,49,45,26,22,115,91,111,106,16,12,8,10,0.7,0.7
2023-09-04T23:00:00,2368A,114.9658,27.0999,吉安市,市森林工业局,,,51,40,37,24,123,,116,113,10,9,7,13,0.6,0.3
2023-09-04T23:00:00,2369A,114.99,27.1312,吉安市,市环境监测站,,46,46,38,24,20,124,94,116,112,14,12,16,13,0.5,0.7
2023-09-04T23:00:00,2370A,115.0093,27.0968,吉安市,青原区法院,颗粒物(PM10),52,53,40,30,24,118,89,111,104,18,15,16,16,0.7,0.7
2023-09-04T23:00:00,2371A,114.3408,27.8064,宜春市,槟榔水业,,30,30,35,20,20,98,27,84,64,21,18,2,3,1.2,1.3
2023-09-04T23:00:00,2373A,114.3956,27.7844,宜春市,市石油公司,,36,36,40,23,23,103,53,96,80,10,13,3,7,0.7,0.9
2023-09-04T23:00:00,2374A,114.3703,27.7914,宜春市,市气象局,,38,38,42,25,25,104,43,94,76,17,18,4,8,0.6,0.9
2023-09-04T23:00:00,2375A,114.4013,27.8074,宜春市,市广电局,,39,39,38,18,23,101,49,94,78,12,14,5,12,0.8,0.9
2023-09-04T23:00:00,2376A,116.2127,28.0814,抚州市,桐源党溪,细颗粒物(PM2.5),53,47,37,37,24,137,93,105,105,2,3,1,2,0.8,0.8
2023-09-04T23:00:00,2377A,116.3544,27.9831,抚州市,市站,细颗粒物(PM2.5),59,56,49,42,32,126,103,100,100,8,7,2,2,1.1,1.1
2023-09-04T23:00:00,2378A,116.3565,27.963,抚州市,血防站,颗粒物(PM10),56,61,53,34,29,129,107,102,102,3,3,3,2,0.9,1.1
2023-09-04T23:00:00,2379A,116.3564,28.0007,抚州市,采茶剧团,细颗粒物(PM2.5),59,61,47,42,30,114,96,94,94,7,7,5,4,1.1,1.1
2023-09-04T23:00:00,2380A,116.385,27.9647,抚州市,医学分院,细颗粒物(PM2.5),57,52,46,40,29,122,102,98,98,9,7,5,5,1.2,1.2
2023-09-04T23:00:00,2381A,118.005,28.4572,上饶市,百草园,,,,,,,,,,,,,,,,
2023-09-04T23:00:00,2382A,117.9756,28.4436,上饶市,市监测站,,32,32,32,16,13,94,62,86,79,13,8,16,10,0.3,0.3
2023-09-04T23:00:00,2383A,117.9519,28.4628,上饶市,凤凰光学,,36,36,30,13,13,87,49,79,68,15,10,26,17,0.4,0.3
2023-09-04T23:00:00,2385A,114.17,35.9019,鹤壁市,市监测站,颗粒物(PM10),61,72,60,40,37,208,89,196,157,30,20,6,7,0.8,0.9
2023-09-04T23:00:00,2386A,114.2956,35.7511,鹤壁市,市交警支队,"颗粒物(PM10),细颗粒物(PM2.5)",57,63,59,40,38,195,61,180,130,43,30,4,4,0.7,0.7
2023-09-04T23:00:00,2387A,114.2878,35.7306,鹤壁市,迎宾馆,细颗粒物(PM2.5),68,68,62,49,40,197,72,181,133,41,32,4,6,0.8,0.9
2023-09-04T23:00:00,2389A,113.836,35.311,新乡市,环保西院,颗粒物(PM10),59,68,61,30,37,199,138,188,168,14,23,6,7,0.8,0.9
2023-09-04T23:00:00,2390A,113.884,35.272,新乡市,开发区,细颗粒物(PM2.5),52,43,49,36,37,194,127,181,158,14,20,3,4,0.3,0.4
2023-09-04T23:00:00,2391A,113.883,35.303,新乡市,环保东院,颗粒物(PM10),54,57,62,34,33,198,131,183,160,20,24,4,5,0.8,0.8
2023-09-04T23:00:00,2392A,115.0312,35.7636,濮阳市,环保局,细颗粒物(PM2.5),59,52,56,42,38,159,115,152,133,19,13,6,6,0.7,0.7
2023-09-04T23:00:00,2394A,115.0574,35.7609,濮阳市,油田运输公司,颗粒物(PM10),58,66,67,36,40,161,111,155,132,20,14,7,8,0.6,0.6
2023-09-04T23:00:00,2395A,115.0866,35.7754,濮阳市,油田物探公司,颗粒物(PM10),55,60,68,37,46,161,107,154,130,14,12,4,5,0.6,0.6
2023-09-04T23:00:00,2396A,113.8276,34.0159,许昌市,监测站,颗粒物(PM10),62,73,64,39,36,170,91,164,144,35,26,4,5,0.5,0.5
2023-09-04T23:00:00,2398A,113.7906,33.9953,许昌市,开发区,颗粒物(PM10),68,86,66,35,38,168,44,161,112,64,28,4,4,0.7,0.7
2023-09-04T23:00:00,2399A,114.051,33.5699,漯河市,三五一五工厂,颗粒物(PM10),55,59,63,30,37,200,117,184,157,24,18,13,16,0.7,0.6
2023-09-04T23:00:00,2400A,114.0055,33.5698,漯河市,漯河大学,,49,49,56,33,33,204,128,192,165,14,14,9,13,0.6,0.6
2023-09-04T23:00:00,2401A,114.0138,33.5828,漯河市,市水利局,,49,48,61,34,40,193,127,184,159,15,16,10,14,0.6,0.6
2023-09-04T23:00:00,2402A,114.0261,33.5698,漯河市,市广电局,颗粒物(PM10),56,61,63,37,37,202,120,189,160,19,15,8,13,0.6,0.6
2023-09-04T23:00:00,2404A,112.5224,33.0122,南阳市,瓦房庄,颗粒物(PM10),51,52,52,32,31,171,144,159,147,13,14,7,5,0.7,0.7
2023-09-04T23:00:00,2405A,112.5003,32.9735,南阳市,汉画馆,颗粒物(PM10),52,54,51,33,29,172,141,158,148,12,17,7,6,0.7,0.7
2023-09-04T23:00:00,2406A,112.5573,33.027,南阳市,气象站,颗粒物(PM10),54,58,50,31,26,162,124,151,137,20,17,9,7,0.8,0.8
2023-09-04T23:00:00,2407A,112.5481,32.9689,南阳市,理工学院,颗粒物(PM10),55,60,50,34,30,170,140,162,151,10,13,5,6,0.5,0.6
2023-09-04T23:00:00,2408A,115.6702,34.4285,商丘市,环境监测站,颗粒物(PM10),55,60,57,28,32,172,125,167,148,12,14,8,9,0.6,0.6
2023-09-04T23:00:00,2409A,115.6458,34.4045,商丘市,粮食局,颗粒物(PM10),53,55,51,33,34,177,133,172,162,10,10,5,7,0.7,0.7
2023-09-04T23:00:00,2410A,115.6293,34.3948,商丘市,睢阳区环保局,颗粒物(PM10),56,61,58,37,31,181,122,173,155,12,12,7,8,0.6,0.6
2023-09-04T23:00:00,2420A,114.0189,32.9656,驻马店市,市一纸厂,,46,46,50,25,29,162,103,155,132,18,17,15,9,0.7,0.5
2023-09-04T23:00:00,2421A,114.0114,33.015,驻马店市,市彩印厂,,41,41,39,17,18,167,119,158,141,12,10,9,9,0.3,0.4
2023-09-04T23:00:00,2422A,113.9976,32.9771,驻马店市,天方二分厂,,36,36,46,23,33,157,111,152,135,10,12,6,6,0.6,0.4
2023-09-04T23:00:00,2423A,115.0601,30.2313,黄石市,沈家营,颗粒物(PM10),57,63,52,31,23,123,52,113,84,20,17,6,7,0.6,0.7
2023-09-04T23:00:00,2424A,115.0817,30.2006,黄石市,陈家湾,,50,50,51,26,27,123,44,112,76,9,14,5,8,0.5,0.6
2023-09-04T23:00:00,2426A,114.8988,30.2019,黄石市,铁山,颗粒物(PM10),52,54,58,28,30,129,89,115,104,21,21,6,9,0.8,1
2023-09-04T23:00:00,2427A,115.0307,30.2092,黄石市,团城山,颗粒物(PM10),55,60,46,25,18,132,82,125,105,16,16,6,7,0.7,0.8
2023-09-04T23:00:00,2428A,111.0419,32.395,十堰市,武当山,,39,30,27,21,19,132,122,126,123,7,6,10,10,0.9,0.8
2023-09-04T23:00:00,2429A,110.78,32.6494,十堰市,滨河新村,颗粒物(PM10),54,58,48,28,25,133,49,128,111,48,18,8,9,0.8,0.7
2023-09-04T23:00:00,2430A,110.7258,32.6389,十堰市,刘家沟,细颗粒物(PM2.5),58,57,46,41,26,139,72,132,107,11,7,7,8,0.8,0.8
2023-09-04T23:00:00,2431A,110.8839,32.5714,十堰市,铁二处,,41,41,39,26,20,143,82,139,115,4,8,6,6,0.8,0.7
2023-09-04T23:00:00,2432A,112.155,32.0197,襄阳市,襄城运动路,颗粒物(PM10),54,58,58,24,32,162,96,152,137,14,18,7,10,0.5,0.7
2023-09-04T23:00:00,2433A,112.1392,32.0564,襄阳市,樊城新华路,颗粒物(PM10),60,69,65,22,37,158,103,153,137,18,22,9,10,0.5,0.6
2023-09-04T23:00:00,2434A,112.1825,32.1142,襄阳市,高新管委会,颗粒物(PM10),67,84,62,31,42,156,86,149,131,25,23,8,8,0.8,0.8
