timepoint,stationcode,longitude,latitude,area,positionname,primarypollutant,aqi,pm10,pm10_24h,pm2_5,pm2_5_24h,o3,o3_24h,o3_8h,o3_8h_24h,no2,no2_24h,so2,so2_24h,co,co_24h
2025-09-03T2100,2566A,102.1879,31.914,阿坝藏族羌族自治州,州农科所,,16,16,14,10,6,24,,46,44,9,8,3,2,0,0
2025-09-03T2100,2568A,102.2502,31.8896,阿坝藏族羌族自治州,马师校,,,,10,,13,,,42,42,13,8,8,8,0.6,0.5
2025-09-03T2100,3994A,102.2165,31.9024,阿坝藏族羌族自治州,马尔康中学西区,,29,29,16,18,12,14,,50,46,9,6,8,9,0.6,0.6
2025-09-03T2100,2695A,80.292,41.1694,阿克苏地区,电视台,颗粒物(PM10),462,562,805,174,234,64,,77,77,12,8,6,5,0.6,0.6
2025-09-03T2100,2696A,80.2613,41.1551,阿克苏地区,艺术中心,颗粒物(PM10),348,458,699,170,238,46,,84,83,25,12,3,4,0.6,0.5
2025-09-03T2100,2204A,105.6467,38.8363,阿拉善盟,西城区西花园,,43,43,98,28,24,126,,118,118,9,12,9,11,0.7,0.7
2025-09-03T2100,2205A,105.6985,38.8411,阿拉善盟,蒙二幼,颗粒物(PM10),61,71,93,16,22,116,,122,122,5,5,10,9,0.5,0.4
2025-09-03T2100,2206A,105.724,38.8516,阿拉善盟,环保局新楼,颗粒物(PM10),51,51,88,19,24,110,,116,116,6,5,7,7,0.4,0.4
2025-09-03T2100,2708A,88.1264,47.8517,阿勒泰地区,市站,,20,11,9,3,6,62,,66,66,12,8,2,2,0.5,0.5
2025-09-03T2100,2630A,80.1161,32.5,阿里地区,阿里监测站,,,,6,,2,64,,64,64,7,8,5,5,0.4,0.4
2025-09-03T2100,3192A,80.0903,32.5028,阿里地区,阿里藏医院,,25,6,5,3,1,79,,75,75,1,3,6,6,0.3,0.4
2025-09-03T2100,2642A,109.0318,32.6537,安康市,香溪洞,,11,8,13,3,6,33,,50,36,8,7,7,8,0.5,0.4
2025-09-03T2100,2644A,109.0072,32.6975,安康市,汉滨区检察院,,18,18,12,7,7,6,,43,21,23,9,6,5,0.5,0.5
2025-09-03T2100,4054A,109.0325,32.6913,安康市,市邮政管理局,,16,16,14,6,9,12,,43,26,22,10,5,5,0.6,0.5
2025-09-03T2100,2291A,117.0809,30.5177,安庆市,环科院,,,30,28,14,16,,,102,81,12,15,27,13,1.2,1
2025-09-03T2100,2292A,117.0331,30.5119,安庆市,马山宾馆,,29,27,27,20,17,53,,94,72,17,15,14,10,1.1,0.9
2025-09-03T2100,2294A,116.9896,30.6145,安庆市,安庆大学,,32,32,27,18,15,29,,107,58,21,14,3,5,0.5,0.5
2025-09-03T2100,3173A,117.0598,30.5351,安庆市,市人大,,26,26,25,17,17,47,,104,73,21,16,17,8,1.1,0.8
2025-09-03T2100,3122A,105.9606,26.2611,安顺市,伍家关,,18,18,14,10,11,54,,67,65,4,3,5,6,0.4,0.5
2025-09-03T2100,3123A,105.9408,26.2431,安顺市,凤凰山,,,18,16,13,12,,,64,64,5,4,6,7,0.5,0.5
2025-09-03T2100,3124A,105.9439,26.2564,安顺市,金钟山,,18,16,15,12,11,55,,69,67,4,3,6,7,0.5,0.5
2025-09-03T2100,3125A,105.8983,26.2481,安顺市,娄家坡,,19,15,15,13,13,49,,64,62,4,2,8,8,0.5,0.4
2025-09-03T2100,1818A,114.4839,36.0621,安阳市,棉研所,,,,,,,,,,,,,,,,
2025-09-03T2100,1819A,114.3551,36.1017,安阳市,红庙街,,31,23,30,7,13,98,,115,115,12,14,4,6,0.4,0.5
2025-09-03T2100,1820A,114.361,36.0681,安阳市,银杏小区,,34,24,33,11,16,108,,121,121,14,15,6,6,0.2,0.3
2025-09-03T2100,3141A,114.3922,36.0878,安阳市,信访局,,38,21,26,3,9,121,,130,130,9,14,5,6,0.5,0.6
2025-09-03T2100,3669A,114.4705,36.0637,安阳市,左辅环卫站,,,17,31,14,20,,,123,123,17,18,6,6,0.6,0.7
2025-09-03T2100,3703A,114.2917,36.0949,安阳市,安钢职工学校,,29,20,27,11,15,91,,114,114,11,10,9,5,0.4,0.5
2025-09-03T2100,1748A,123.044,41.1196,鞍山市,深沟寺,,31,31,36,18,18,52,,97,85,4,6,6,7,0.9,1.1
2025-09-03T2100,1749A,123.011,41.0931,鞍山市,太阳城,,42,42,37,27,24,42,,100,85,14,12,6,7,0.8,1.1
2025-09-03T2100,1750A,123.0485,41.1442,鞍山市,太平,,39,39,44,21,25,56,,95,84,10,16,6,7,0.9,1.1
2025-09-03T2100,1751A,122.9642,41.0971,鞍山市,铁西三道街,颗粒物(PM10),57,63,68,34,37,57,,103,92,22,30,6,9,1.1,1.3
2025-09-03T2100,1753A,123.022,41.0821,鞍山市,明达新区,,43,43,35,28,20,42,,95,84,15,13,7,8,1.0,1.2
2025-09-03T2100,1754A,123.1289,41.0228,鞍山市,千山,,,,37,,18,,,44,,,4,,4,,0.7
2025-09-03T2100,4201A,122.9446,41.0826,鞍山市,兴盛南路290号,,37,37,57,18,25,66,,105,94,15,29,7,9,0.9,1.3
2025-09-03T2100,2195A,107.4212,40.761,巴彦淖尔市,附二中,颗粒物(PM10),100,149,143,43,40,66,,117,106,25,14,12,9,0.6,0.6
2025-09-03T2100,2196A,107.37,40.7372,巴彦淖尔市,市环保大楼,颗粒物(PM10),83,116,127,27,36,72,,112,102,21,12,12,9,0.6,0.7
2025-09-03T2100,1956A,86.1472,41.7538,巴音郭楞蒙古自治州,孔雀公园,颗粒物(PM10),72,94,825,19,213,92,,76,76,8,18,4,5,0.1,0.3
2025-09-03T2100,1957A,86.1972,41.7166,巴音郭楞蒙古自治州,棉纺厂,颗粒物(PM10),111,171,1044,8,283,88,,83,83,10,12,4,4,0.2,0.3
2025-09-03T2100,1958A,86.2357,41.7173,巴音郭楞蒙古自治州,经济开发区,,,45,897,9,252,,,79,79,2,7,5,4,0.0,0.2
2025-09-03T2100,2914A,106.7677,31.8794,巴中市,苏山坪,,43,43,24,29,16,48,,35,29,6,7,5,4,0.6,0.5
2025-09-03T2100,3181A,106.7768,31.8526,巴中市,市五中,,25,23,22,17,15,5,,20,14,22,14,7,6,0.7,0.6
2025-09-03T2100,3183A,106.7418,31.8654,巴中市,圣泉水务公司,,,16,16,10,10,,,29,14,15,8,6,6,0.6,0.6
2025-09-03T2100,3616A,106.7616,31.8344,巴中市,市中心医院,,25,25,22,15,9,6,,24,12,19,14,6,7,0.7,0.6
2025-09-03T2100,2235A,122.7911,45.6077,白城市,洮北区环保局,,48,48,33,32,17,71,,98,92,18,6,5,5,0.6,0.5
2025-09-03T2100,2236A,122.8738,45.5725,白城市,市环保局,,39,39,35,20,21,65,,88,85,15,6,6,4,0.5,0.5
2025-09-03T2100,2231A,126.4219,41.9171,白山市,喜丰,,49,49,46,14,14,8,,64,48,22,15,6,7,0.8,0.7
2025-09-03T2100,2232A,126.4077,41.9419,白山市,环保局,,39,39,31,22,16,14,,69,55,15,12,8,7,1.1,0.8
2025-09-03T2100,2647A,104.1724,36.5446,白银市,第三小学,颗粒物(PM10),51,52,75,18,32,56,,89,83,30,15,5,9,0.3,0.6
2025-09-03T2100,2648A,104.1465,36.5482,白银市,动力公司,,45,45,86,14,31,71,,96,92,24,24,8,7,0.5,0.7
2025-09-03T2100,2512A,106.6103,23.9011,百色市,市监测站,,35,35,29,20,17,39,,78,67,15,14,6,11,0.6,0.6
2025-09-03T2100,2513A,106.6538,23.8859,百色市,市中心血站,,45,45,36,30,20,32,,74,64,25,17,5,11,0.8,0.8
2025-09-03T2100,3406A,106.6085,23.8798,百色市,祈福高中,,40,40,40,23,20,19,,73,58,31,20,6,11,0.7,0.7
2025-09-03T2100,2270A,117.396,32.939,蚌埠市,工人疗养院,,41,41,33,19,13,82,,135,122,19,15,4,5,0.4,0.4
2025-09-03T2100,2271A,117.3605,32.9427,蚌埠市,百货大楼,,32,32,27,20,15,102,,140,134,16,19,6,7,0.5,0.6
2025-09-03T2100,2273A,117.4185,32.8911,蚌埠市,蚌埠学院,,48,48,25,24,17,47,,140,124,47,23,7,7,0.5,0.5
2025-09-03T2100,2274A,117.3533,32.9673,蚌埠市,淮上区政府,,33,29,25,20,17,103,,148,139,18,14,5,6,0.5,0.6
2025-09-03T2100,2275A,117.3145,32.8977,蚌埠市,高新区,,31,24,28,16,15,98,,138,131,16,17,7,11,0.6,0.6
2025-09-03T2100,3715A,117.3092,32.9314,蚌埠市,蚌埠田家炳中学,,35,32,33,14,17,110,,143,135,11,18,5,6,0.4,0.4
2025-09-03T2100,1585A,109.8756,40.6532,包头市,市环境监测站,,46,46,88,19,34,77,,124,117,40,27,7,8,0.7,0.7
2025-09-03T2100,1587A,109.9991,40.5842,包头市,包头八中,颗粒物(PM10),51,51,99,25,49,97,,123,121,29,21,7,9,0.6,0.6
2025-09-03T2100,1588A,109.8538,40.6821,包头市,青山宾馆,,36,30,80,24,44,40,,123,114,71,32,5,6,0.7,0.8
2025-09-03T2100,1589A,109.8642,40.6288,包头市,惠龙物流,,39,39,88,16,34,89,,122,120,26,18,6,6,0.6,0.6
2025-09-03T2100,1590A,110.0377,40.5546,包头市,东河鸿龙湾,,50,50,84,27,32,87,,129,125,32,19,7,6,0.9,0.7
2025-09-03T2100,3283A,109.9154,40.5685,包头市,滨河大厦,,43,43,83,27,36,78,,128,124,35,17,6,5,0.6,0.6
2025-09-03T2100,3419A,109.9447,40.6261,包头市,包头市委党校,,,36,80,18,36,,,133,133,,27,,10,,0.8
2025-09-03T2100,3683A,109.8331,40.6576,包头市,昆区政府,,43,43,91,22,46,96,,134,132,30,20,9,9,0.7,0.7
2025-09-03T2100,1930A,107.185,34.3063,宝鸡市,庙沟村,颗粒物(PM10),58,66,52,30,22,57,,82,80,14,8,5,5,0.5,0.4
2025-09-03T2100,1931A,107.0708,34.3017,宝鸡市,竹园沟,,,64,55,26,22,,,70,69,,8,8,8,0.2,0.3
2025-09-03T2100,1932A,107.1906,34.3672,宝鸡市,三陆医院,颗粒物(PM10),66,82,59,34,25,70,,86,86,14,19,8,9,0.5,0.6
2025-09-03T2100,1933A,107.1431,34.3547,宝鸡市,监测站,颗粒物(PM10),70,90,65,34,29,76,,92,92,12,10,9,9,0.5,0.5
2025-09-03T2100,1934A,107.1186,34.3739,宝鸡市,技工学校,颗粒物(PM10),67,84,60,44,25,73,,89,89,14,9,6,7,0.6,0.5
2025-09-03T2100,1936A,107.2058,34.3497,宝鸡市,文理学院,颗粒物(PM10),68,86,63,32,24,74,,92,92,13,12,8,8,0.5,0.5
2025-09-03T2100,1937A,107.2386,34.3622,宝鸡市,三迪小学,,,78,65,43,29,,,90,90,20,17,5,6,0.5,0.6
2025-09-03T2100,4308A,107.3898,34.3601,宝鸡市,陈仓区北开路21号,颗粒物(PM10),59,68,57,32,25,62,,87,87,15,16,6,15,0.5,0.4
2025-09-03T2100,1051A,115.493,38.8632,保定市,游泳馆,,36,35,42,24,24,113,,158,149,20,14,2,2,0.4,0.4
2025-09-03T2100,1052A,115.5213,38.8959,保定市,华电二区,颗粒物(PM10),69,88,50,25,25,118,,164,155,12,14,2,3,0.5,0.5
2025-09-03T2100,1053A,115.4713,38.9108,保定市,接待中心,,38,38,46,23,27,110,,146,138,8,11,3,2,0.4,0.4
2025-09-03T2100,1054A,115.4612,38.8416,保定市,地表水厂,颗粒物(PM10),53,56,53,14,20,99,,155,140,29,20,6,6,0.4,0.5
2025-09-03T2100,3581A,115.31981,38.95208,保定市,满城区生态环境分局,,46,46,45,17,24,110,,162,150,15,14,2,2,0.3,0.3
2025-09-03T2100,3582A,115.47694,38.76408,保定市,清苑区第二中学,,,72,64,37,28,,,156,148,31,12,3,2,0.4,0.4
2025-09-03T2100,3583A,115.62909,39.02311,保定市,徐水物探局,颗粒物(PM10),57,63,53,31,33,106,,167,152,25,20,3,4,0.5,0.5
2025-09-03T2100,4004A,115.4202,38.8656,保定市,双鹰农机,颗粒物(PM10),51,52,47,23,26,100,,160,147,22,16,3,6,0.5,0.4
2025-09-03T2100,4034A,115.5150,38.8590,保定市,植保所站,,49,49,51,27,26,113,,169,159,29,20,4,5,0.4,0.3
2025-09-03T2100,2594A,99.1678,25.1081,保山市,市环境监测站,,39,,19,27,14,45,,55,53,7,7,10,8,0.3,0.3
2025-09-03T2100,2595A,99.1711,25.1328,保山市,市环保局,,28,23,21,19,12,50,,60,58,3,6,6,7,0.3,0.4
2025-09-03T2100,1866A,109.2262,21.588,北海市,牛尾岭水库,,33,29,14,23,8,33,,46,40,11,6,2,5,0.5,0.4
2025-09-03T2100,1867A,109.1436,21.4086,北海市,海滩公园,,15,8,11,3,2,48,,62,60,6,5,4,4,0.7,0.7
2025-09-03T2100,1868A,109.0981,21.4661,北海市,新市环保局,,,18,12,7,8,,,50,50,7,7,5,5,0.5,0.5
2025-09-03T2100,1869A,109.1778,21.5233,北海市,北海工业园,,14,10,17,7,7,44,,50,47,11,8,3,5,0.5,0.5
2025-09-03T2100,3400A,109.1911,21.4415,北海市,龙潭自来水厂,,19,7,8,3,5,58,,56,56,6,5,4,4,0.4,0.4
2025-09-03T2100,1001A,116.3621,39.8784,北京市,万寿西宫,,40,40,43,25,30,128,,154,151,14,8,3,3,0.7,0.6
2025-09-03T2100,1002A,116.2202,40.2915,北京市,定陵,,32,32,39,21,31,38,,140,106,1,2,1,3,0.4,0.5
2025-09-03T2100,1003A,116.4174,39.9289,北京市,东四,,44,35,43,21,27,140,,163,159,15,14,3,4,0.5,0.5
2025-09-03T2100,1004A,116.4072,39.8863,北京市,天坛,,35,34,39,24,28,75,,147,130,6,10,3,4,0.6,0.6
2025-09-03T2100,1005A,116.462,39.9365,北京市,农展馆,,41,41,42,24,27,130,,154,150,10,9,2,2,0.6,0.6
2025-09-03T2100,1006A,116.3392,39.9295,北京市,官园,,46,36,44,25,29,146,,158,156,13,12,3,3,0.5,0.6
2025-09-03T2100,1007A,116.2878,39.9611,北京市,海淀万柳,,39,32,46,21,33,124,,143,139,12,12,4,4,0.5,0.6
2025-09-03T2100,1008A,116.6636,40.135,北京市,顺义新城,,,,,,,,,,,,,,,,
2025-09-03T2100,1009A,116.6275,40.3275,北京市,怀柔镇,,39,39,44,26,32,76,,144,133,11,9,1,2,0.7,0.7
2025-09-03T2100,1010A,116.2296,40.217,北京市,昌平镇,,36,31,45,25,33,82,,136,120,8,15,4,4,0.7,0.8
2025-09-03T2100,1011A,116.3966,39.9821,北京市,奥体中心,,40,34,40,22,28,128,,137,136,10,9,4,4,0.4,0.5
2025-09-03T2100,3281A,115.9718,40.4529,北京市,延庆夏都,,39,39,42,27,30,117,,132,131,7,6,2,2,0.6,0.6
2025-09-03T2100,3418A,116.8336,40.4095,北京市,密云新城,,40,40,41,27,30,58,,135,122,4,3,2,2,0.6,0.6
2025-09-03T2100,3671A,116.088,39.9726,北京市,门头沟三家店,,49,49,44,33,30,70,,144,124,8,7,3,3,0.6,0.6
2025-09-03T2100,3672A,116.1541,39.8204,北京市,丰台云岗,,42,42,48,28,32,101,,143,134,15,11,4,3,0.6,0.6
2025-09-03T2100,3673A,116.6804,39.9081,北京市,通州东关,,36,32,50,21,34,114,,155,149,17,12,3,3,0.7,0.7
2025-09-03T2100,3674A,115.9577,39.7603,北京市,房山燕山,,37,32,43,22,30,117,,134,131,4,5,1,1,0.4,0.5
2025-09-03T2100,3675A,116.4672,39.7733,北京市,大兴旧宫,,31,31,39,19,26,76,,144,128,4,6,2,3,0.6,0.4
2025-09-03T2100,3694A,115.986,40.4563,北京市,延庆石河营,,42,41,44,29,29,109,,122,121,3,2,1,1,0.5,0.5
2025-09-03T2100,3695A,116.6151,40.3053,北京市,怀柔新城,,35,34,43,24,34,70,,136,116,5,5,3,3,0.7,0.7
2025-09-03T2100,3696A,116.2545,39.8768,北京市,丰台小屯,,37,36,45,21,32,116,,140,137,10,9,1,2,0.3,0.4
2025-09-03T2100,3697A,116.84,40.3844,北京市,密云镇,,45,45,42,30,32,105,,142,138,12,7,5,5,0.7,0.7
2025-09-03T2100,4182A,116.1942,39.9158,北京市,八角北路9号,,45,45,53,26,33,120,,156,149,12,9,4,4,0.6,0.7
2025-09-03T2100,4194A,117.0790,40.1518,北京市,洳河巡河路,细颗粒物(PM2.5),57,53,53,40,37,105,,146,140,6,4,4,3,0.6,0.7
2025-09-03T2100,1761A,123.8275,41.3064,本溪市,大峪,,36,36,36,16,17,31,,85,74,8,15,6,6,0.6,0.8
2025-09-03T2100,1762A,123.7567,41.3325,本溪市,溪湖,,46,46,48,28,22,24,,79,66,19,19,6,8,1.0,1.6
2025-09-03T2100,1763A,123.7169,41.3094,本溪市,彩屯,细颗粒物(PM2.5),57,62,55,40,32,9,,70,56,30,30,10,13,1.2,2.3
2025-09-03T2100,1764A,123.7669,41.2864,本溪市,东明,,43,43,45,26,18,49,,88,76,22,25,4,5,0.9,1
2025-09-03T2100,1765A,123.7992,41.2664,本溪市,新立屯,,33,33,32,20,13,8,,80,55,50,24,5,5,0.7,0.7
2025-09-03T2100,1766A,123.8142,41.3472,本溪市,威宁,,,39,47,20,17,10,,,,,13,2,4,0.7,2.5
2025-09-03T2100,2587A,105.2864,27.3125,毕节市,八中,,36,36,25,23,18,67,,81,80,8,7,6,6,0.5,0.5
2025-09-03T2100,2588A,105.31,27.2944,毕节市,师专,,40,40,26,18,14,69,,79,78,6,8,5,6,0.5,0.4
2025-09-03T2100,4263A,105.3688,27.3598,毕节市,工业大道,,31,31,23,20,14,66,,80,78,8,9,7,7,0.6,0.7
2025-09-03T2100,1629A,118.0018,37.3617,滨州市,第二水厂,,48,48,50,27,31,121,,148,146,19,17,6,6,0.6,0.7
2025-09-03T2100,1630A,117.9776,37.393,滨州市,北中新校,细颗粒物(PM2.5),52,48,45,36,29,122,,146,141,25,16,5,6,0.4,0.4
2025-09-03T2100,3514A,117.9378,37.3956,滨州市,中海酒店,,44,44,42,24,29,139,,150,150,12,10,4,7,0.8,0.8
2025-09-03T2100,3515A,117.9378,37.3553,滨州市,开发区一中,颗粒物(PM10),62,73,56,39,31,113,,145,140,22,19,6,8,0.7,0.7
2025-09-03T2100,3516A,118.0917,37.694,滨州市,金海六路,,41,41,46,27,36,120,,146,143,14,11,4,5,0.4,0.4
2025-09-03T2100,4028A,117.9956,37.3753,滨州市,滨州市西街道办事处,,49,48,43,34,33,105,,145,142,26,16,4,5,0.5,0.6
2025-09-03T2100,2311A,115.8072,33.8399,亳州市,污水处理厂,,32,,24,22,19,71,,88,80,8,12,3,5,0.4,0.5
2025-09-03T2100,2312A,115.7789,33.8518,亳州市,三国揽胜宫,,26,26,31,16,17,74,,92,86,7,8,4,5,0.6,0.6
2025-09-03T2100,3332A,115.7633,33.8034,亳州市,亳州学院,,27,20,22,14,13,86,,108,101,6,7,5,5,0.7,0.7
2025-09-03T2100,2693A,82.0485,44.8556,博尔塔拉蒙古自治州,市党校,,,32,103,30,31,,,78,78,6,3,2,2,0.3,0.2
2025-09-03T2100,2694A,82.0806,44.8969,博尔塔拉蒙古自治州,市环保局,,39,39,114,17,19,77,,80,80,6,3,6,5,0.3,0.3
2025-09-03T2100,1071A,116.8842,38.2991,沧州市,沧县城建局,,46,41,45,32,32,133,,170,162,15,17,4,4,0.5,0.6
2025-09-03T2100,1072A,116.8584,38.3254,沧州市,电视转播站,,50,50,49,24,29,133,,154,152,16,14,3,4,0.6,0.5
2025-09-03T2100,1073A,116.8709,38.3228,沧州市,市环保局,颗粒物(PM10),51,52,54,33,34,139,,166,161,11,13,4,5,0.5,0.5
2025-09-03T2100,3324A,116.8136,38.3004,沧州市,河北水利电力学院,细颗粒物(PM2.5),52,44,45,36,35,148,,171,166,12,13,6,7,0.5,0.6
2025-09-03T2100,2622A,97.1806,31.1273,昌都市,昌都监测站,,19,19,13,12,7,42,,56,54,8,9,3,3,0.3,0.3
2025-09-03T2100,3719A,97.1714,31.1406,昌都市,昌都会议中心,,15,13,12,9,6,48,,62,60,4,5,4,3,0.2,0.2
2025-09-03T2100,2690A,88.1236,43.8886,昌吉回族自治州,天山天池,,10,7,17,3,6,31,,50,42,6,8,1,1,0.6,0.6
2025-09-03T2100,2692A,87.2717,44.0297,昌吉回族自治州,新区政务中心,,,42,27,10,8,,,73,73,12,11,4,5,0.2,0.2
2025-09-03T2100,3613A,87.3095,44.0142,昌吉回族自治州,亚心广场,,24,24,34,3,8,74,,77,77,14,12,6,7,0.3,0.3
2025-09-03T2100,1120A,125.2863,43.9027,长春市,客车厂,,33,33,40,18,19,71,,114,96,17,15,4,5,0.5,0.5
2025-09-03T2100,1121A,125.2841,43.8463,长春市,邮电学院,,28,28,34,16,16,72,,114,95,11,14,5,6,0.6,0.7
2025-09-03T2100,1122A,125.3716,43.8772,长春市,劳动公园,,45,45,43,19,23,60,,108,89,20,17,8,9,0.5,0.5
2025-09-03T2100,1123A,125.3297,43.8805,长春市,园林处,,,,35,16,16,75,,113,96,,15,4,5,0.5,0.7
2025-09-03T2100,1124A,125.4605,43.79,长春市,净月潭,,22,22,25,15,11,42,,101,76,6,6,4,6,0.4,0.4
2025-09-03T2100,1125A,125.7194,43.515,长春市,甩湾子,,24,24,23,15,13,63,,88,81,8,9,3,3,0.6,0.6
2025-09-03T2100,1126A,125.3863,43.8447,长春市,经开区环卫处,,30,30,35,17,14,40,,101,78,27,16,4,5,0.7,0.7
2025-09-03T2100,1127A,125.245,43.7783,长春市,高新区管委会,,24,24,30,12,14,65,,106,84,8,11,3,4,0.5,0.6
2025-09-03T2100,1128A,125.1761,43.8325,长春市,岱山公园,,44,44,40,18,17,49,,111,80,26,18,3,5,0.4,0.5
2025-09-03T2100,4281A,125.3346,43.9164,长春市,北亚泰大街1068号,,28,28,44,17,20,70,,110,92,14,18,7,8,0.5,0.6
2025-09-03T2100,1335A,113.0833,28.2325,长沙市,经开区环保局,,30,30,33,21,19,67,,122,106,23,14,4,5,0.4,0.4
2025-09-03T2100,1336A,112.8872,28.2189,长沙市,高开区环保局,颗粒物(PM10),56,62,35,30,17,70,,111,93,22,13,4,5,0.6,0.4
2025-09-03T2100,1337A,113.0792,28.2053,长沙市,马坡岭,,,32,31,21,19,,,137,127,17,13,5,6,0.4,0.5
2025-09-03T2100,1338A,112.9394,28.19,长沙市,湖南师范大学,,35,34,31,24,17,60,,116,94,31,12,4,4,0.7,0.6
2025-09-03T2100,1339A,113.0178,28.1322,长沙市,雨花区环保局,,42,42,33,24,16,70,,124,109,21,11,6,7,0.6,0.5
2025-09-03T2100,1340A,112.9792,28.2597,长沙市,伍家岭,细颗粒物(PM2.5),58,45,34,41,19,65,,112,95,20,19,2,2,0.4,0.3
2025-09-03T2100,1341A,113.0014,28.1944,长沙市,火车新站,,40,40,36,22,16,76,,120,105,20,13,6,7,0.6,0.5
2025-09-03T2100,1342A,112.9844,28.1178,长沙市,天心区环保局,,,36,28,33,18,,,122,110,24,13,4,4,0.4,0.2
2025-09-03T2100,1343A,112.8908,28.1308,长沙市,湖南中医药大学,细颗粒物(PM2.5),58,52,35,41,22,23,,109,81,51,17,4,4,0.8,0.6
2025-09-03T2100,1344A,112.9581,28.3611,长沙市,沙坪,,35,35,26,24,16,69,,134,105,13,13,2,3,0.5,0.4
2025-09-03T2100,1727A,113.1147,36.1547,长治市,清华站,,24,24,18,7,8,61,,105,93,24,12,7,7,0.5,0.4
2025-09-03T2100,1730A,113.0886,36.2125,长治市,审计局,,26,17,14,7,7,83,,102,98,17,14,6,6,0.6,0.6
2025-09-03T2100,1731A,113.0844,36.1856,长治市,长治八中,,,27,18,18,13,,,109,99,14,9,8,8,0.5,0.6
2025-09-03T2100,2845A,113.1569,36.1911,长治市,德盛苑,,21,21,16,9,6,52,,97,90,7,8,7,7,0.6,0.7
2025-09-03T2100,3568A,113.06,36.0464,长治市,向阳小学,颗粒物(PM10),61,72,52,14,15,71,,107,92,20,14,4,4,0.5,0.5
2025-09-03T2100,3569A,112.8792,36.3144,长治市,屯留一中,,32,23,21,22,11,75,,108,100,20,12,7,7,0.4,0.4
2025-09-03T2100,4189A,113.1131,36.19948,长治市,英华南巷50号,,32,32,21,17,9,85,,99,96,16,13,8,8,0.6,0.6
2025-09-03T2100,4190A,113.2367,36.3344,长治市,学府街1号,,32,32,25,17,14,56,,107,95,27,14,3,3,1.1,0.6
2025-09-03T2100,1854A,111.6975,28.9703,常德市,市二中,,39,39,28,27,23,62,,102,84,12,10,9,5,0.7,0.7
2025-09-03T2100,1857A,111.7158,29.1456,常德市,白鹤山,,,,,,,,,,,,,,,,
2025-09-03T2100,3138A,111.7153,29.0289,常德市,武陵区永安,,43,31,29,30,18,44,,109,87,18,6,6,4,0.6,0.5
2025-09-03T2100,3139A,111.6892,28.9881,常德市,鼎城区玉霞,,31,31,28,20,19,36,,102,77,19,8,7,6,0.5,0.5
2025-09-03T2100,3140A,111.6625,29.0531,常德市,武陵区长庚,,42,39,26,29,19,62,,101,86,14,5,5,5,0.8,0.6
2025-09-03T2100,1196A,119.9633,31.762,常州市,市监测站,,35,,29,24,21,99,,168,153,21,14,11,11,0.6,0.7
2025-09-03T2100,1200A,119.9468,31.7069,常州市,武进监测站,,32,29,25,22,17,88,,134,126,23,12,9,7,0.6,0.6
2025-09-03T2100,1201A,119.9255,31.9087,常州市,安家,,,30,36,27,23,,,168,147,,30,11,11,0.9,0.9
2025-09-03T2100,3002A,119.9805,31.8174,常州市,行政中心,,37,37,33,22,25,77,,160,143,41,27,3,2,0.7,0.6
2025-09-03T2100,3003A,120.0522,31.7748,常州市,经开区,,,48,46,33,24,18,,168,122,155,41,,2,0.8,0.9
2025-09-03T2100,3010A,119.9025,31.7964,常州市,钟楼,,36,,29,25,16,108,,149,138,21,15,7,6,0.7,0.7
2025-09-03T2100,3429A,119.8598,31.7066,常州市,武进经发区,,41,41,33,25,18,46,,153,134,71,19,9,10,0.7,0.6
2025-09-03T2100,3430A,119.5826,31.7245,常州市,金坛城区,,49,34,22,29,16,154,,142,142,21,12,8,8,0.7,0.6
2025-09-03T2100,2220A,120.4318,41.5881,朝阳市,西梁,颗粒物(PM10),55,60,41,38,26,113,,126,125,9,13,5,5,0.8,0.9
2025-09-03T2100,2221A,120.4521,41.5646,朝阳市,河畔小区,,43,37,36,30,24,122,,137,136,4,8,6,6,0.6,0.8
2025-09-03T2100,2222A,120.4176,41.5648,朝阳市,八里堡,细颗粒物(PM2.5),65,,51,47,25,109,,127,126,10,18,7,7,0.7,0.8
2025-09-03T2100,2223A,120.3806,41.5969,朝阳市,农业园区,,50,38,36,35,28,106,,132,129,11,12,4,5,0.7,0.9
2025-09-03T2100,1705A,116.6367,23.6719,潮州市,西园路,,36,36,40,19,25,54,,107,76,12,13,5,6,0.2,0.4
2025-09-03T2100,3026A,116.6183,23.6608,潮州市,市政府,,20,17,39,14,19,44,,99,80,14,16,7,11,0.5,0.6
2025-09-03T2100,4036A,116.6461,23.6761,潮州市,金山,,29,29,34,14,20,44,,115,87,11,10,6,7,0.6,0.6
2025-09-03T2100,2472A,113.0073,25.9061,郴州市,马头岭,,45,45,28,8,11,68,,113,104,31,16,7,5,0.4,0.5
2025-09-03T2100,2473A,113.0116,25.8226,郴州市,市职中,,42,42,26,26,18,37,,110,89,23,14,6,6,0.6,0.5
2025-09-03T2100,2475A,113.0383,25.8071,郴州市,市审计局,,34,34,26,22,18,68,,112,98,13,11,7,13,0.4,0.4
2025-09-03T2100,2476A,113.0348,25.7759,郴州市,市环保局,,49,40,29,34,20,83,,121,111,16,10,10,12,0.5,0.4
2025-09-03T2100,4252A,113.0138,25.8011,郴州市,好美居路49号,,26,26,26,17,16,78,,105,92,15,14,25,7,0.4,0.4
2025-09-03T2100,1431A,103.9728,30.7236,成都市,金泉两河,,50,50,40,26,22,75,,132,127,18,16,2,3,0.6,0.7
2025-09-03T2100,1432A,104.176,30.6872,成都市,十里店,细颗粒物(PM2.5),57,60,42,40,20,70,,115,111,24,21,3,3,0.1,0.2
2025-09-03T2100,1433A,104.079,30.5706,成都市,三瓦窑,颗粒物(PM10),54,58,45,20,27,99,,142,138,15,24,2,3,0.4,0.6
2025-09-03T2100,1434A,104.1114,30.63,成都市,沙河铺,颗粒物(PM10),56,61,49,24,23,80,,112,109,17,16,4,4,0.4,0.8
2025-09-03T2100,1437A,104.0786,30.6531,成都市,君平街,颗粒物(PM10),59,68,52,35,30,84,,138,133,17,16,3,3,0.3,1.7
2025-09-03T2100,1438A,103.613,31.0283,成都市,灵岩寺,,,,,,,,,,,,,,,,
2025-09-03T2100,2880A,104.0239,30.65639,成都市,大石西路,颗粒物(PM10),56,61,49,25,29,84,,124,121,18,22,3,3,0.6,0.8
2025-09-03T2100,3136A,104.2725,30.5589,成都市,龙泉驿区区政府,,36,36,24,24,12,65,,106,100,15,14,5,5,0.6,0.6
2025-09-03T2100,3357A,104.0106,30.6931,成都市,金博路,颗粒物(PM10),54,58,42,25,25,78,,135,130,18,19,6,6,0.5,0.6
2025-09-03T2100,3359A,104.0578,30.5225,成都市,华阳,,,46,43,24,30,,,132,130,26,19,2,2,0.6,0.6
2025-09-03T2100,3488A,104.3853,30.7453,成都市,青白江技师分院,,43,43,34,18,17,45,,89,83,26,19,2,2,0.5,0.4
2025-09-03T2100,3489A,104.0789,30.4072,成都市,科学城,,41,41,42,23,25,78,,131,122,11,15,4,5,0.5,0.6
2025-09-03T2100,4011A,103.8506,30.6947,成都市,光华大道三段,细颗粒物(PM2.5),68,75,50,49,32,76,,132,127,24,19,2,2,0.6,0.7
2025-09-03T2100,4224A,104.2433,30.5353,成都市,鲸龙路1057号,,43,43,33,21,19,70,,108,102,20,18,4,4,0.5,0.5
2025-09-03T2100,1062A,117.9531,40.9081,承德市,铁路,颗粒物(PM10),51,52,40,22,22,59,,122,106,17,14,3,3,0.5,0.5
2025-09-03T2100,1063A,117.9392,40.9763,承德市,中国银行,颗粒物(PM10),52,53,43,34,29,50,,133,108,14,12,1,2,0.5,0.5
2025-09-03T2100,1064A,117.9503,40.928,承德市,开发区,,,48,40,20,22,,,128,115,19,16,4,4,,0.5
2025-09-03T2100,1066A,117.9268,41.0026,承德市,离宫,,34,34,36,19,15,44,,120,85,7,7,4,4,0.5,0.4
2025-09-03T2100,4274A,117.7994,40.9605,承德市,滨河大街98号,,35,31,34,24,20,34,,112,74,3,6,3,2,0.4,0.4
2025-09-03T2100,2314A,117.47,30.6618,池州市,池州学院,,31,31,24,21,14,68,,124,104,12,9,8,7,0.7,0.8
2025-09-03T2100,3237A,117.4918,30.6617,池州市,展览馆,,32,32,24,18,13,63,,123,102,14,10,8,7,0.8,0.8
2025-09-03T2100,3333A,117.5627,30.695,池州市,第八中学,,38,38,25,20,14,63,,142,104,13,9,7,6,0.7,0.7
2025-09-03T2100,3334A,117.5038,30.6243,池州市,第十二中学,,29,29,27,20,15,64,,130,109,18,16,4,5,0.9,1
2025-09-03T2100,1744A,118.9233,42.2816,赤峰市,松山一中,,38,38,32,15,17,55,,122,86,34,18,6,6,0.7,0.7
2025-09-03T2100,1745A,118.9576,42.2728,赤峰市,哈达街,颗粒物(PM10),54,57,32,32,18,55,,118,93,34,20,18,18,0.7,0.6
2025-09-03T2100,1746A,118.8788,42.2554,赤峰市,天义路,,33,31,20,23,22,37,,122,86,47,17,8,9,0.5,0.5
2025-09-03T2100,3058A,119.2658,42.0353,赤峰市,银河街,,38,34,36,26,26,74,,109,97,10,9,15,14,0.7,0.6
2025-09-03T2100,3286A,118.9359,42.3147,赤峰市,桥北物流园区,,31,31,31,17,20,40,,118,90,36,18,8,10,0.8,0.9
2025-09-03T2100,2521A,107.3476,22.4136,崇左市,市环保局江州分局,,33,33,20,12,9,32,,67,58,12,9,6,7,0.7,0.6
2025-09-03T2100,4256A,107.3750,22.3736,崇左市,石景林东路7号,,11,11,15,7,7,28,,59,54,15,10,4,4,0.5,0.4
2025-09-03T2100,2298A,118.3093,32.3153,滁州市,老年大学,,35,31,26,24,21,65,,139,115,14,15,6,7,0.4,0.4
2025-09-03T2100,2299A,118.3244,32.2786,滁州市,人大宾馆,,,29,16,28,19,,,147,132,15,6,5,5,0.6,0.6
2025-09-03T2100,3207A,118.3118,32.3038,滁州市,市政府原办公楼,,38,36,26,26,23,71,,136,114,18,9,5,5,0.5,0.6
2025-09-03T2100,3331A,118.3267,32.2634,滁州市,图书馆,,40,,17,28,15,82,,148,126,21,9,10,12,0.6,0.6
2025-09-03T2100,2605A,101.5482,25.0441,楚雄彝族自治州,州环境监测站,,15,13,12,10,8,33,,39,38,3,6,6,6,0.4,0.4
2025-09-03T2100,2606A,101.538,25.0492,楚雄彝族自治州,市经济开发区,,17,17,16,11,9,31,,40,38,11,10,6,6,0.7,0.5
2025-09-03T2100,2548A,107.5277,31.2827,达州市,达州职业技术学院,颗粒物(PM10),57,63,52,26,25,42,,82,80,22,16,14,11,0.4,0.5
2025-09-03T2100,2549A,107.5086,31.2186,达州市,市环境监测站,颗粒物(PM10),52,53,50,31,25,54,,87,86,24,26,11,8,0.6,0.6
2025-09-03T2100,2550A,107.4988,31.2132,达州市,凤凰小区,,49,48,48,34,30,50,,85,84,19,21,1,2,0.5,0.5
2025-09-03T2100,2551A,107.5082,31.1986,达州市,达县机关宾馆,细颗粒物(PM2.5),59,66,49,42,26,39,,100,95,34,25,7,7,0.6,0.5
2025-09-03T2100,2552A,107.4644,31.2124,达州市,市政中心,,,63,52,34,25,60,,102,100,17,19,,6,0.5,0.5
2025-09-03T2100,2614A,100.1542,25.7054,大理白族自治州,大理市环境监测站,,25,,15,17,17,53,,58,57,12,10,5,5,0.5,0.5
2025-09-03T2100,2615A,100.2171,25.5811,大理白族自治州,大理古城,,30,29,12,21,10,37,,69,61,18,7,5,6,0.7,0.6
2025-09-03T2100,1109A,121.612,38.9741,大连市,甘井子,,49,38,38,34,31,130,,151,146,20,17,9,8,0.2,0.3
2025-09-03T2100,1110A,121.565,38.9511,大连市,周水子,细颗粒物(PM2.5),60,,35,43,31,126,,142,136,17,11,12,11,0.5,0.5
2025-09-03T2100,1111A,121.5637,38.8845,大连市,星海三站,细颗粒物(PM2.5),62,,39,44,38,121,,153,145,14,13,4,5,0.4,0.4
2025-09-03T2100,1112A,121.6302,38.9117,大连市,青泥洼桥,细颗粒物(PM2.5),57,43,37,40,33,92,,144,134,17,9,8,8,0.6,0.6
2025-09-03T2100,1113A,121.6251,38.8638,大连市,傅家庄,,44,,31,25,31,139,,145,143,9,10,13,12,0.4,0.5
2025-09-03T2100,1114A,121.5213,38.8661,大连市,七贤岭,,,,37,40,33,,,155,150,8,8,8,8,0.5,0.6
2025-09-03T2100,1115A,121.2529,38.8061,大连市,旅顺,,43,38,44,30,30,111,,143,132,6,7,7,7,0.5,0.5
2025-09-03T2100,1116A,121.7485,39.1311,大连市,金州,,45,42,39,31,29,119,,146,139,12,13,6,6,0.4,0.4
2025-09-03T2100,1117A,121.7811,39.0496,大连市,开发区,,50,42,40,35,37,122,,146,141,19,17,6,7,0.4,0.5
2025-09-03T2100,1118A,121.9762,39.0631,大连市,双D港,,43,35,39,30,31,76,,163,138,5,7,9,10,0.5,0.6
2025-09-03T2100,1789A,124.81117,46.03138,大庆市,大同区,颗粒物(PM10),54,57,43,27,20,66,,84,78,12,12,8,7,1.0,0.9
2025-09-03T2100,1790A,125.129,46.533,大庆市,龙凤区,,48,48,29,16,14,62,,89,80,18,13,3,3,0.9,0.7
2025-09-03T2100,1791A,124.902,46.408,大庆市,红岗区,颗粒物(PM10),51,51,38,22,21,70,,97,88,16,11,6,6,0.9,0.7
2025-09-03T2100,1792A,125.153,46.586,大庆市,萨尔图区,颗粒物(PM10),60,69,44,39,20,60,,84,78,28,17,10,9,1.2,0.7
2025-09-03T2100,1793A,124.9042,46.6215,大庆市,让胡路区,颗粒物(PM10),54,57,38,25,20,70,,97,89,18,12,7,7,0.7,0.5
2025-09-03T2100,3481A,125.141,46.634,大庆市,萨区政府监测点,颗粒物(PM10),52,54,40,24,13,87,,103,98,13,11,9,8,0.7,0.5
2025-09-03T2100,1721A,113.3819,40.1097,大同市,果树场,颗粒物(PM10),62,73,44,35,23,57,,124,105,27,23,4,8,0.5,0.4
2025-09-03T2100,1723A,113.2994,40.0758,大同市,云冈宾馆,颗粒物(PM10),57,64,66,33,22,93,,141,134,25,20,5,8,0.9,1.2
2025-09-03T2100,1724A,113.3444,40.0917,大同市,大同大学,颗粒物(PM10),51,52,42,30,22,70,,142,130,34,26,8,10,0.7,0.8
2025-09-03T2100,1725A,113.2661,40.1269,大同市,安家小村,颗粒物(PM10),57,64,43,31,21,88,,152,141,28,19,5,6,0.7,0.8
2025-09-03T2100,1726A,113.2711,40.0844,大同市,教育学院,,,53,47,32,24,,,147,147,25,21,6,9,0.8,1.2
2025-09-03T2100,3282A,113.3397,40.0597,大同市,大同市卫生学校,颗粒物(PM10),60,69,42,30,24,75,,137,126,36,24,7,10,0.7,0.8
2025-09-03T2100,3565A,113.1367,40.1122,大同市,云冈站,细颗粒物(PM2.5),82,,48,60,25,70,,136,125,12,10,4,10,0.9,0.9
2025-09-03T2100,3566A,113.1186,40.2556,大同市,图书馆,颗粒物(PM10),54,57,37,32,19,41,,138,121,12,9,3,7,0.8,0.7
2025-09-03T2100,3567A,113.5931,40.0461,大同市,区一中,,,33,43,28,23,96,,142,132,,11,3,3,0.5,0.5
2025-09-03T2100,4199A,113.2798,40.0997,大同市,魏都大道141号,,,56,45,35,24,,,144,143,27,21,3,11,0.8,1
2025-09-03T2100,2269A,124.1069,50.4097,大兴安岭地区,科技局,,25,25,23,10,9,40,,51,46,5,5,5,5,0.5,0.4
2025-09-03T2100,3663A,124.1164,50.4278,大兴安岭地区,红旗社区,,29,29,19,17,6,22,,53,46,11,8,4,5,0.4,0.4
2025-09-03T2100,1600A,124.3303,40.0625,丹东市,江湾东路,,50,50,35,35,25,23,,104,85,42,16,5,7,1.1,0.9
2025-09-03T2100,1601A,124.4256,40.1503,丹东市,临江后街,颗粒物(PM10),58,65,38,35,19,41,,105,92,26,11,6,6,1.1,0.8
2025-09-03T2100,1602A,124.3933,40.1461,丹东市,元宝山,,46,46,31,30,20,58,,92,86,20,12,5,6,1.1,0.9
2025-09-03T2100,1603A,124.3633,40.1092,丹东市,民主桥,,50,50,35,30,22,24,,106,86,32,15,6,8,1.0,0.9
2025-09-03T2100,3541A,109.5726,19.5167,儋州市,第一中学子站,,20,20,16,12,8,28,,44,41,10,4,7,6,0.5,0.4
2025-09-03T2100,3542A,109.5567,19.5187,儋州市,东坡学校子站,,15,15,13,9,8,27,,48,45,12,5,9,8,0.6,0.5
2025-09-03T2100,2616A,98.5842,24.428,德宏傣族景颇族自治州,德宏州监测站,细颗粒物(PM2.5),77,77,28,56,18,42,,66,62,19,9,11,11,0.8,0.4
2025-09-03T2100,3677A,98.5881,24.4368,德宏傣族景颇族自治州,芒市人民政府综合楼,,39,39,32,17,14,36,,60,57,9,8,6,8,0.4,0.4
2025-09-03T2100,1901A,104.4239,31.1208,德阳市,东山公园,,29,28,14,20,12,62,,84,84,7,9,2,5,0.7,0.7
2025-09-03T2100,1902A,104.3826,31.1317,德阳市,西小区,颗粒物(PM10),52,54,42,30,19,62,,90,89,12,18,3,2,0.7,0.8
2025-09-03T2100,1904A,104.3553,31.1091,德阳市,耐火材料厂,,40,40,43,20,19,63,,91,90,12,21,4,4,0.6,0.7
2025-09-03T2100,3639A,104.4019,31.1244,德阳市,市教育局,,41,41,35,24,18,60,,90,88,10,14,2,2,1.0,1
2025-09-03T2100,1622A,116.3032,37.4674,德州市,儿童乐园,细颗粒物(PM2.5),77,75,57,56,40,162,,182,181,16,17,10,12,1.0,0.9
2025-09-03T2100,1624A,116.2991,37.4451,德州市,监理站,细颗粒物(PM2.5),67,73,56,48,35,149,,174,171,24,17,12,13,0.9,0.8
2025-09-03T2100,3066A,116.2721,37.4379,德州市,九衢泉纯净水厂,细颗粒物(PM2.5),67,80,56,48,36,123,,167,162,32,18,5,7,0.9,0.8
2025-09-03T2100,3371A,116.3728,37.4403,德州市,开发区人民医院,细颗粒物(PM2.5),64,73,58,46,36,146,,172,169,19,22,9,11,1.4,1.2
2025-09-03T2100,3511A,116.5652,37.3319,德州市,陵城艺术中心,颗粒物(PM10),59,68,64,36,34,138,,198,190,24,19,14,13,1.1,1
2025-09-03T2100,4292A,116.3525,37.4209,德州市,新河东路,颗粒物(PM10),65,80,58,46,34,138,,171,167,22,21,8,11,1.1,1.1
2025-09-03T2100,2621A,99.7056,27.8317,迪庆藏族自治州,迪庆州站,,,22,21,12,11,,,47,47,5,6,6,6,0.4,0.4
2025-09-03T2100,3180A,99.7136,27.8094,迪庆藏族自治州,质量技术监督局,,18,13,18,12,8,46,,51,49,6,8,7,7,0.4,0.4
2025-09-03T2100,4257A,104.6092,35.5962,定西市,将台街,颗粒物(PM10),59,67,57,30,24,89,,110,106,13,19,7,7,0.3,0.4
2025-09-03T2100,4309A,104.6159,35.5701,定西市,正龙路62号,颗粒物(PM10),56,62,61,27,26,102,,117,115,5,9,5,5,0.2,0.2
2025-09-03T2100,1389A,113.7547,23.0494,东莞市,莞城梨川,,38,38,26,20,17,54,,143,128,33,24,6,6,0.4,0.4
2025-09-03T2100,1390A,113.7944,23.0128,东莞市,东城石井,,23,23,41,10,15,47,,138,121,35,23,5,5,0.5,0.4
2025-09-03T2100,1391A,113.7383,22.9658,东莞市,南城西平,,28,28,26,7,13,43,,118,105,26,27,7,7,0.5,0.6
2025-09-03T2100,3319A,113.7338,23.0381,东莞市,万江金泰,,32,32,26,15,12,45,,122,108,30,26,4,5,0.6,0.6
2025-09-03T2100,3626A,113.7533,23.0202,东莞市,南城元岭,,30,30,29,13,11,51,,144,126,37,26,5,5,0.4,0.4
2025-09-03T2100,3627A,113.7875,23.0457,东莞市,东城主山,,,29,31,14,13,57,,149,134,,27,8,7,,0.4
2025-09-03T2100,1666A,118.6614,37.4309,东营市,市环保局,,,31,32,17,20,,,142,142,28,16,7,10,0.4,0.4
2025-09-03T2100,3036A,118.6904,37.4338,东营市,开发区管委会,,40,35,39,17,19,126,,145,144,14,15,8,9,0.4,0.5
2025-09-03T2100,3365A,118.5719,37.565,东营市,垦利区民丰路,颗粒物(PM10),53,56,40,36,25,91,,139,132,32,18,9,8,0.9,0.9
2025-09-03T2100,3498A,118.5055,37.8612,东营市,河口城区,,48,48,36,29,17,116,,155,151,25,22,5,6,1.0,0.8
2025-09-03T2100,3646A,118.4978,37.4623,东营市,胜利站,,45,45,40,24,21,126,,129,129,22,21,5,5,0.7,0.6
2025-09-03T2100,3734A,118.35,37.26,东营市,理想之城,,49,48,34,34,24,76,,125,119,46,23,5,6,0.5,0.5
2025-09-03T2100,1591A,110.0023,39.8129,鄂尔多斯市,综合楼,颗粒物(PM10),56,61,51,39,22,131,,146,146,27,20,9,8,0.8,0.6
2025-09-03T2100,1592A,109.9486,39.8261,鄂尔多斯市,巴音孟克林场办事处,颗粒物(PM10),63,75,49,34,22,147,,155,155,22,15,8,6,0.7,0.4
2025-09-03T2100,1593A,109.7736,39.5986,鄂尔多斯市,康泽苑,,46,46,41,19,17,104,,138,136,22,17,6,6,0.5,0.4
2025-09-03T2100,1594A,109.8119,39.5989,鄂尔多斯市,华泰汽车城,,38,36,37,17,22,120,,129,129,13,22,7,6,0.5,0.6
2025-09-03T2100,1595A,109.9734,39.7884,鄂尔多斯市,奥林花园,颗粒物(PM10),59,68,54,31,23,110,,136,136,27,27,6,5,0.8,0.6
2025-09-03T2100,2436A,114.8938,30.3994,鄂州市,市政府,,37,37,42,14,17,55,,159,125,18,20,8,10,0.6,0.6
2025-09-03T2100,2437A,114.8989,30.3714,鄂州市,赵家坝,,42,42,48,15,16,46,,155,119,18,15,12,11,0.6,0.6
2025-09-03T2100,3654A,114.8094,30.4089,鄂州市,精准医疗中心,,48,48,47,28,23,56,,171,131,19,24,7,9,1.0,1.1
2025-09-03T2100,2454A,109.4978,30.2981,恩施土家族苗族自治州,湖北民院,,,,25,18,14,,,89,89,9,12,5,6,,0.3
2025-09-03T2100,2455A,109.4707,30.2798,恩施土家族苗族自治州,州电力总公司,,30,,25,21,16,26,,72,68,10,7,5,5,0.5,0.4
2025-09-03T2100,3549A,109.5061,30.3772,恩施土家族苗族自治州,龙凤新区,,26,26,24,17,14,40,,88,80,6,21,6,6,0.4,0.4
2025-09-03T2100,2499A,108.3411,21.6158,防城港市,沙万,,15,11,22,7,12,48,,54,54,14,13,2,3,0.4,0.5
2025-09-03T2100,2500A,108.3514,21.7731,防城港市,防城档案局,,,26,24,23,12,,,51,51,9,11,5,3,0.4,0.7
2025-09-03T2100,2501A,108.3506,21.6414,防城港市,大海花园,,18,13,16,7,9,56,,62,62,7,9,3,6,0.4,0.5
2025-09-03T2100,1371A,113.1294,23.0067,佛山市,湾梁,细颗粒物(PM2.5),60,,16,43,13,92,,115,113,17,20,5,6,0.5,0.4
2025-09-03T2100,1372A,113.1083,23.0478,佛山市,华材职中,,30,,15,16,8,93,,126,123,11,15,3,4,0.5,0.5
2025-09-03T2100,1373A,113.144,23.0453,佛山市,南海气象局,,33,23,18,12,8,103,,130,129,10,15,4,5,0.6,0.5
2025-09-03T2100,1374A,113.2881,22.8094,佛山市,顺德苏岗,,25,25,23,9,6,44,,104,96,16,17,6,7,0.5,0.5
2025-09-03T2100,1376A,112.8383,22.8678,佛山市,高明孔堂,,23,11,17,11,9,71,,87,87,7,13,2,3,0.5,0.5
2025-09-03T2100,1377A,112.8836,23.1588,佛山市,三水监测站,,29,29,23,11,16,77,,97,95,24,21,5,8,0.5,0.4
2025-09-03T2100,1378A,112.867,23.185,佛山市,三水云东海,,36,36,27,23,16,82,,110,106,28,22,1,5,0.4,0.4
2025-09-03T2100,3625A,113.2544,22.7642,佛山市,容桂街道办,,19,19,13,7,10,41,,110,100,22,20,6,7,0.7,0.6
2025-09-03T2100,1280A,119.3903,26.0543,福州市,鼓山,,,,23,,15,,,88,,,7,,1,,0.4
2025-09-03T2100,1282A,119.2681,26.0504,福州市,师大,,27,11,26,8,17,86,,131,121,8,10,5,5,0.3,0.4
2025-09-03T2100,1283A,119.2984,26.1028,福州市,五四北路,,22,20,25,8,16,70,,129,113,12,12,3,4,0.3,0.4
2025-09-03T2100,1284A,119.2648,26.0768,福州市,杨桥西路,,24,14,26,6,17,75,,129,118,10,11,3,3,0.3,0.4
2025-09-03T2100,1285A,119.317,26.0746,福州市,紫阳,,22,20,31,11,17,69,,114,105,14,15,5,5,0.3,0.3
2025-09-03T2100,3048A,119.5799,26.0936,福州市,九龙,,24,22,20,15,12,74,,109,102,9,6,5,5,0.2,0.3
2025-09-03T2100,3526A,119.5189,25.9664,福州市,吴航,,33,30,28,19,17,105,,116,113,8,8,5,4,0.4,0.5
2025-09-03T2100,1755A,123.7977,41.8491,抚顺市,望花区,,44,44,55,21,22,53,,106,94,29,26,9,10,0.8,0.9
2025-09-03T2100,1756A,123.9161,41.8822,抚顺市,顺城区,颗粒物(PM10),59,67,43,40,19,7,,112,89,62,29,6,6,1.1,1
2025-09-03T2100,1757A,124.0436,41.8611,抚顺市,东洲区,,28,28,25,16,13,38,,94,89,10,8,2,3,0.4,0.5
2025-09-03T2100,1758A,123.9247,41.8642,抚顺市,新抚区,颗粒物(PM10),58,66,42,25,19,7,,100,81,34,23,6,6,1.2,1
2025-09-03T2100,1759A,124.0972,41.8961,抚顺市,大伙房水库,,20,20,22,14,13,43,,93,88,10,12,7,8,0.7,0.8
2025-09-03T2100,1760A,123.7086,41.8391,抚顺市,沈抚新城,颗粒物(PM10),51,52,51,28,23,40,,101,87,35,31,7,8,0.9,1.4
2025-09-03T2100,2376A,116.2127,28.0814,抚州市,桐源党溪,,30,30,23,13,10,34,,81,67,13,5,8,4,0.5,0.5
2025-09-03T2100,2377A,116.3544,27.9831,抚州市,市站,,32,32,23,17,10,69,,97,90,10,5,8,3,0.5,0.4
2025-09-03T2100,2378A,116.3565,27.963,抚州市,血防站,,26,26,24,15,13,54,,96,86,14,6,3,4,0.6,0.5
2025-09-03T2100,2379A,116.3564,28.0007,抚州市,采茶剧团,,36,32,24,25,11,62,,90,82,8,3,6,4,0.5,0.5
2025-09-03T2100,2380A,116.385,27.9647,抚州市,医学分院,,30,30,27,13,11,59,,90,84,9,6,4,4,0.6,0.6
2025-09-03T2100,2207A,121.6094,41.998,阜新市,工业园区,,36,36,55,21,33,102,,153,141,12,13,9,13,0.7,0.9
2025-09-03T2100,2208A,121.6697,42.0279,阜新市,长青街,,35,31,54,22,32,110,,146,135,14,11,16,13,0.6,0.9
2025-09-03T2100,2209A,121.6673,42.0705,阜新市,农业园区,,,49,64,17,31,,,143,138,9,7,4,8,0.7,1
2025-09-03T2100,2210A,121.6717,42.0224,阜新市,东苑,,42,42,61,24,29,106,,144,131,16,13,15,16,0.6,0.9
2025-09-03T2100,2211A,121.6506,42.0498,阜新市,玉龙新城,,36,36,53,24,29,106,,144,133,10,13,9,11,0.7,0.9
2025-09-03T2100,2301A,115.8277,32.8929,阜阳市,市监测站,,,44,33,25,24,72,,129,120,40,18,,4,0.4,0.4
2025-09-03T2100,2303A,115.8554,32.8605,阜阳市,开发区,颗粒物(PM10),54,58,38,20,16,81,,123,118,19,14,7,7,0.4,0.3
2025-09-03T2100,2875A,115.784,32.8892,阜阳市,阜阳职业技术学院,,35,35,33,14,14,101,,131,128,13,11,6,6,0.4,0.4
2025-09-03T2100,3468A,115.7901,32.8613,阜阳市,市规划展馆,,41,41,34,17,22,111,,141,139,15,13,3,3,0.4,0.4
2025-09-03T2100,3469A,115.836,32.9183,阜阳市,枣园社区,颗粒物(PM10),52,53,38,28,24,82,,131,123,20,15,4,4,0.6,0.5
2025-09-03T2100,2669A,102.9099,34.9841,甘南藏族自治州,州政府,,,38,23,18,15,,,84,76,15,13,7,5,0.3,0.2
2025-09-03T2100,3380A,102.8914,34.9617,甘南藏族自治州,甘肃民族师范学院,颗粒物(PM10),60,69,32,19,11,16,,94,74,40,18,5,4,0.5,0.4
2025-09-03T2100,2570A,101.9603,30.0475,甘孜藏族自治州,水桥子,,17,17,9,11,4,37,,65,62,22,12,7,6,0.5,0.4
2025-09-03T2100,3065A,101.9533,29.9972,甘孜藏族自治州,州环保局,,22,22,11,3,4,19,,68,60,31,11,4,4,0.4,0.4
2025-09-03T2100,3414A,115.8347,28.932,赣江新区,桑海产业园,,28,24,25,19,14,54,,116,96,19,13,7,7,0.7,0.4
2025-09-03T2100,2362A,114.9017,25.9149,赣州市,通天岩,,26,26,19,14,5,40,,81,69,5,4,14,14,0.7,0.5
2025-09-03T2100,2363A,114.9367,25.8664,赣州市,地委,,36,36,23,17,12,43,,106,90,20,10,5,6,0.8,0.6
2025-09-03T2100,2364A,114.9461,25.8481,赣州市,气象台,,32,32,23,13,10,62,,96,84,9,9,7,8,0.7,0.7
2025-09-03T2100,2365A,114.9322,25.8333,赣州市,市图书馆,,,32,18,13,12,,,92,87,,9,,5,0.5,0.6
2025-09-03T2100,2366A,114.8905,25.8471,赣州市,华坚鞋城,,39,34,20,27,10,71,,94,87,16,11,5,6,0.7,0.6
2025-09-03T2100,3109A,115.0093,25.8613,赣州市,赣县区卫计委,,22,22,17,14,11,49,,92,81,11,5,6,6,0.6,0.5
2025-09-03T2100,2683A,106.2319,36.1417,固原市,马园,,,,,,,,,,,,,,,,
2025-09-03T2100,2684A,106.2792,36.0022,固原市,监测站,,,,74,,26,,,101,100,8,15,6,7,0.3,0.2
2025-09-03T2100,2685A,106.2375,36.0211,固原市,新区,颗粒物(PM10),62,73,72,33,28,86,,93,92,8,17,8,8,0.3,0.3
2025-09-03T2100,3522A,106.2177,35.9959,固原市,原州区十五小,颗粒物(PM10),62,73,82,32,32,83,,97,94,10,11,10,9,0.2,0.2
2025-09-03T2100,2543A,106.6308,30.5278,广安市,小平旧居,,,,,,,,,,,,,,,,
2025-09-03T2100,2544A,106.6303,30.4576,广安市,市委,细颗粒物(PM2.5),69,,42,50,36,59,,118,113,11,11,3,4,0.4,0.4
2025-09-03T2100,2545A,106.6271,30.4663,广安市,友谊中学,,50,50,38,32,28,69,,122,118,11,11,6,7,1.1,1
2025-09-03T2100,2547A,106.6388,30.4551,广安市,广电花园,,48,,40,33,27,59,,114,110,9,11,4,4,0.6,0.6
2025-09-03T2100,2902A,106.6351,30.4865,广安市,北辰小学,,,47,40,32,27,,,117,117,9,8,5,10,0.5,0.6
2025-09-03T2100,2523A,105.8945,32.4535,广元市,黑石坡,,29,29,28,18,10,16,,30,28,16,9,8,9,0.3,0.4
2025-09-03T2100,2524A,105.821,32.4444,广元市,老城,,17,17,15,6,6,31,,58,51,28,15,2,2,0.8,0.7
2025-09-03T2100,2526A,105.8628,32.4287,广元市,监测站,,12,9,13,8,7,36,,47,44,18,14,7,8,0.8,0.7
2025-09-03T2100,3617A,105.8047,32.4166,广元市,经开区,,,20,29,8,11,,,54,46,17,15,4,5,0.7,0.6
2025-09-03T2100,1345A,113.2347,23.1423,广州市,广雅中学,,29,29,24,14,10,88,,135,133,22,20,3,4,0.8,0.7
2025-09-03T2100,1346A,113.2612,23.105,广州市,市五中,,29,20,20,13,10,92,,144,144,23,24,4,6,0.3,0.3
2025-09-03T2100,1348A,113.3478,23.0916,广州市,广东商学院,,29,29,18,17,10,83,,127,124,23,21,3,5,0.3,0.3
2025-09-03T2100,1349A,113.4332,23.1047,广州市,市八十六中,,24,20,18,11,7,23,,102,94,48,26,4,4,0.4,0.3
2025-09-03T2100,1350A,113.3505,22.9483,广州市,番禺中学,,,26,16,14,9,60,,113,108,17,12,,6,0.6,0.5
2025-09-03T2100,1351A,113.2146,23.3916,广州市,花都师范,,,72,38,34,19,,,155,155,47,33,6,8,0.7,0.5
2025-09-03T2100,1352A,113.2597,23.1331,广州市,市监测站,,25,24,19,13,8,80,,125,123,18,18,5,6,0.5,0.4
2025-09-03T2100,1353A,113.5618,23.312,广州市,九龙镇镇龙,,46,46,28,22,15,53,,137,130,49,20,7,7,0.5,0.4
2025-09-03T2100,1354A,113.2765,23.1544,广州市,麓湖,,30,30,19,20,10,69,,91,90,40,23,2,3,0.4,0.3
2025-09-03T2100,1355A,113.443,23.3035,广州市,帽峰山森林公园,,27,21,13,11,6,86,,105,104,22,22,7,7,0.5,0.5
2025-09-03T2100,2846A,113.3221,23.1322,广州市,体育西,,,27,19,13,8,,,129,129,26,21,4,5,0.7,0.5
2025-09-03T2100,3298A,113.5717,23.5491,广州市,从化街口,颗粒物(PM10),57,63,29,33,17,97,,148,146,25,20,7,8,0.7,0.6
2025-09-03T2100,3299A,113.3472,23.3692,广州市,白云竹料,,43,43,38,23,20,78,,143,139,36,32,4,5,0.5,0.5
2025-09-03T2100,3300A,113.2981,23.237,广州市,白云嘉禾,,35,32,37,15,14,109,,141,141,26,31,6,7,0.4,0.4
2025-09-03T2100,3301A,113.4256,23.1716,广州市,黄埔科学城,,23,19,23,10,10,71,,117,114,19,22,4,5,0.6,0.6
2025-09-03T2100,3302A,113.3942,23.0483,广州市,番禺大学城,,20,16,20,11,8,62,,107,102,21,20,9,10,0.4,0.4
2025-09-03T2100,3303A,113.4922,22.8168,广州市,南沙黄阁,,17,17,17,3,6,26,,68,62,18,15,4,5,0.5,0.5
2025-09-03T2100,3304A,113.5342,22.7896,广州市,南沙街,,16,16,13,3,6,28,,65,60,14,16,4,4,0.3,0.4
2025-09-03T2100,3443A,113.2902,23.5544,广州市,花都梯面,,41,41,28,15,14,22,,105,84,33,24,6,7,0.6,0.5
2025-09-03T2100,3445A,113.7858,23.7478,广州市,从化良口,,28,21,19,15,14,88,,108,101,14,10,5,5,0.5,0.4
2025-09-03T2100,3446A,113.8051,23.2614,广州市,增城荔城,,35,35,31,18,20,80,,167,158,22,15,9,8,0.5,0.5
2025-09-03T2100,2505A,109.568,23.1478,贵港市,德智高中,,,,,,,,,,,,,,,,
2025-09-03T2100,2506A,109.6047,23.0666,贵港市,江南子站,,41,41,23,22,17,57,,66,66,18,12,6,5,0.6,0.5
2025-09-03T2100,2508A,109.5669,23.1065,贵港市,荷城子站,,22,22,14,12,5,69,,72,72,9,8,4,4,0.5,0.5
2025-09-03T2100,3405A,109.5886,23.1172,贵港市,新世纪学校,,24,24,21,16,12,70,,81,81,12,14,1,3,0.5,0.5
2025-09-03T2100,4260A,109.5933,23.0951,贵港市,中山路155-3号,,29,29,20,13,11,64,,75,75,13,9,5,4,0.4,0.4
2025-09-03T2100,1439A,106.6899,26.5998,贵阳市,马鞍山,,,,,,,,,,,,,,,,
2025-09-03T2100,1441A,106.6243,26.6266,贵阳市,鉴湖路,,24,24,27,12,7,39,,53,50,9,7,8,7,0.2,0.2
2025-09-03T2100,1442A,106.7487,26.6343,贵阳市,燕子冲,,20,14,12,14,13,43,,60,56,10,8,4,4,0.4,0.3
2025-09-03T2100,1443A,106.6555,26.4365,贵阳市,碧云窝,,36,36,26,9,6,40,,52,50,9,6,5,6,0.3,0.2
2025-09-03T2100,1445A,106.7109,26.6027,贵阳市,红边门,,29,29,21,12,14,36,,57,52,17,10,1,2,0.2,0.2
2025-09-03T2100,1446A,106.7164,26.5699,贵阳市,新华路,,12,12,17,3,7,38,,55,50,15,11,12,14,0.2,0.3
2025-09-03T2100,1447A,106.674,26.5424,贵阳市,太慈桥,,19,19,17,9,7,41,,58,54,14,10,3,4,0.0,0
2025-09-03T2100,1552A,106.805,26.3003,贵阳市,桐木岭,,24,24,28,12,14,47,,58,53,5,5,3,3,1.0,0.9
2025-09-03T2100,4230A,106.6882,26.5695,贵阳市,花果园大街66号,,20,,6,14,10,40,,53,50,8,6,4,5,0.4,0.4
2025-09-03T2100,4231A,106.6873,26.5169,贵阳市,漓江路57号,,22,22,18,7,8,41,,59,54,8,6,5,6,0.4,0.4
2025-09-03T2100,1862A,110.4144,25.3167,桂林市,电子科大尧山校区,,,,,,,,,,,,,,,,
2025-09-03T2100,1864A,110.3089,25.2708,桂林市,龙隐路小学,,30,30,26,14,14,52,,76,69,8,8,4,6,0.3,0.3
2025-09-03T2100,1865A,110.2869,25.2178,桂林市,八中,,,,28,24,15,,,77,72,7,9,6,7,0.5,0.4
2025-09-03T2100,3531A,110.296,25.1253,桂林市,旅游学院,,17,17,19,9,12,52,,76,67,6,9,2,3,0.4,0.4
2025-09-03T2100,4222A,110.1835,25.2444,桂林市,环湖路276号,,29,29,25,19,13,56,,72,70,9,17,5,5,0.2,0.2
2025-09-03T2100,4301A,110.2803,25.2773,桂林市,信义路13号,,26,26,26,18,14,59,,76,72,6,9,5,6,0.4,0.4
2025-09-03T2100,2674A,100.2561,34.4714,果洛藏族自治州,玛沁县大武镇,,33,28,41,23,18,82,,92,87,1,2,17,16,0.5,0.5
2025-09-03T2100,1129A,126.5422,45.755,哈尔滨市,岭北,,42,42,32,26,20,131,,146,144,16,20,14,14,0.9,0.9
2025-09-03T2100,1130A,126.561,45.8167,哈尔滨市,松北商大,,41,41,45,23,18,94,,113,108,13,23,7,7,0.8,0.8
2025-09-03T2100,1131A,126.979,45.5419,哈尔滨市,阿城会宁,,38,38,34,20,15,69,,107,100,8,12,7,8,0.7,0.6
2025-09-03T2100,1132A,126.599,45.7222,哈尔滨市,南岗学府路,颗粒物(PM10),53,56,57,20,19,97,,122,118,20,27,8,11,0.7,0.6
2025-09-03T2100,1133A,126.689,45.7733,哈尔滨市,太平宏伟公园,,,62,62,,18,97,,116,112,18,25,8,9,0.9,0.8
2025-09-03T2100,1134A,126.635,45.7667,哈尔滨市,道外承德广场,颗粒物(PM10),55,59,59,19,19,87,,109,105,20,26,8,8,0.6,0.6
2025-09-03T2100,1135A,126.685,45.7319,哈尔滨市,香坊红旗大街,细颗粒物(PM2.5),55,51,60,39,20,79,,115,108,31,30,6,12,0.8,0.7
2025-09-03T2100,1136A,126.6411,45.7258,哈尔滨市,动力和平路,,,41,55,,16,96,,117,114,18,27,6,10,0.8,0.8
2025-09-03T2100,1137A,126.593,45.7478,哈尔滨市,道里建国路,,,49,54,38,24,,,105,103,35,36,6,16,0.2,1.8
2025-09-03T2100,1138A,126.615,45.61,哈尔滨市,平房东轻厂,,42,42,38,21,18,85,,111,103,11,14,8,9,0.7,0.6
2025-09-03T2100,1139A,126.595,45.9855,哈尔滨市,呼兰师专,,37,37,43,24,17,104,,121,119,14,25,11,12,0.8,0.6
2025-09-03T2100,1140A,126.6206,45.6842,哈尔滨市,省农科院,颗粒物(PM10),57,63,90,27,21,78,,106,102,26,31,6,8,0.8,0.8
2025-09-03T2100,2688A,93.5128,42.8172,哈密市,地区监测站,颗粒物(PM10),168,286,194,60,52,74,,89,88,17,38,5,6,0.1,0.4
2025-09-03T2100,2689A,93.4961,42.8328,哈密市,哈密师范学校,颗粒物(PM10),108,166,162,47,44,,,87,87,11,42,,6,0.2,0.6
2025-09-03T2100,2671A,100.9048,36.9639,海北藏族自治州,海晏县西海镇,,,59,42,35,24,,,121,121,3,6,14,9,0.6,0.6
2025-09-03T2100,3867A,102.0738,36.5056,海东市,平安区公安北苑,,40,40,42,21,25,97,,111,110,9,7,14,11,1.5,0.9
2025-09-03T2100,1409A,110.576,19.9507,海口市,东寨港,,12,,10,6,7,38,,40,39,3,3,4,4,0.3,0.3
2025-09-03T2100,1410A,110.3232,20.0574,海口市,海南大学,,13,7,10,3,6,39,,59,50,3,4,3,3,0.3,0.3
2025-09-03T2100,1411A,110.283,20.0053,海口市,秀英海南医院,,12,12,14,6,6,32,,58,51,6,10,6,6,0.2,0.2
2025-09-03T2100,1412A,110.338,19.9969,海口市,海南师范大学,,14,14,10,3,5,35,,59,51,5,4,4,4,0.3,0.4
2025-09-03T2100,1413A,110.33,20.0356,海口市,龙华路环保局宿舍,,12,11,10,3,5,37,,59,50,5,5,6,6,0.2,0.2
2025-09-03T2100,3539A,110.5111,19.9736,海口市,桂林洋子站,,12,10,13,7,6,38,,46,42,4,5,5,4,0.2,0.2
2025-09-03T2100,2673A,100.6188,36.2866,海南藏族自治州,共和县恰卜恰镇,,,65,34,13,14,,,110,109,,9,17,12,0.5,0.5
2025-09-03T2100,2676A,97.3731,37.3753,海西蒙古族藏族自治州,德令哈市,,38,38,46,23,18,98,,122,121,9,2,7,8,0.4,0.3
2025-09-03T2100,1048A,114.5302,36.6116,邯郸市,东污水处理厂,,34,22,26,20,23,106,,138,135,10,11,7,7,0.4,0.4
2025-09-03T2100,1049A,114.4918,36.5713,邯郸市,矿院,,34,,23,17,25,106,,139,137,9,9,4,4,0.4,0.4
2025-09-03T2100,1050A,114.484,36.6133,邯郸市,丛台公园,,35,16,21,9,15,109,,133,132,9,10,7,9,0.4,0.4
2025-09-03T2100,3458A,114.7895,36.5593,邯郸市,香泉濮院小区,,31,29,36,10,15,99,,132,132,14,11,3,3,0.3,0.4
2025-09-03T2100,3579A,114.50634,36.77178,邯郸市,永年区实验高中,,36,18,29,11,17,114,,137,136,6,11,6,5,0.4,0.4
2025-09-03T2100,3580A,114.20016,36.44293,邯郸市,峰峰矿区临水派出所,,39,12,29,12,14,123,,136,136,11,9,7,6,0.5,0.3
2025-09-03T2100,2634A,106.9893,33.1842,汉中市,汉川机床厂子校,,15,,31,10,11,43,,51,50,6,12,3,4,0.6,0.8
2025-09-03T2100,2635A,107.0154,33.0706,汉中市,市监测站,,15,14,26,10,10,42,,53,53,8,12,6,7,0.8,0.9
2025-09-03T2100,2636A,107.0089,33.1138,汉中市,鑫源开发区,,23,23,26,10,12,38,,50,49,7,12,6,10,0.6,0.7
2025-09-03T2100,2637A,107.007,33.0323,汉中市,南郑大河坎水厂,,23,23,21,10,10,36,,52,50,12,13,5,5,0.7,0.6
2025-09-03T2100,1223A,120.2072,30.2111,杭州市,滨江,,39,29,25,18,12,124,,140,139,15,17,7,8,0.5,0.5
2025-09-03T2100,1224A,120.0633,30.2747,杭州市,西溪,,28,23,18,19,14,83,,123,118,10,15,7,6,0.5,0.5
2025-09-03T2100,1226A,120.3417,30.3150,杭州市,下沙,,34,28,20,19,11,107,,160,152,24,19,6,6,0.4,0.4
2025-09-03T2100,1227A,120.1269,30.2456,杭州市,卧龙桥,,29,19,20,14,14,91,,129,124,5,8,7,7,0.6,0.6
2025-09-03T2100,1228A,120.1903,30.2692,杭州市,浙江农大,,34,34,34,19,16,68,,113,107,50,24,5,5,0.6,0.6
2025-09-03T2100,1230A,120.1197,30.3119,杭州市,和睦小学,,35,24,20,16,11,112,,140,138,8,11,5,5,0.5,0.5
2025-09-03T2100,1231A,120.3019,30.4183,杭州市,临平镇,,38,38,29,22,14,112,,164,156,19,16,6,6,0.7,0.8
2025-09-03T2100,1232A,120.2753,30.1839,杭州市,城厢镇,,38,24,20,16,17,120,,138,135,9,11,8,8,0.6,0.6
2025-09-03T2100,1233A,120.0883,30.1808,杭州市,云栖,,,22,20,,14,107,,125,122,8,16,9,10,0.7,0.7
2025-09-03T2100,3557A,119.9464,30.0494,杭州市,镇二中,,35,21,23,14,17,112,,124,122,11,13,4,4,0.7,0.8
2025-09-03T2100,3558A,119.7183,30.2367,杭州市,市府大楼,,35,22,13,16,10,109,,111,111,14,9,8,8,0.4,0.4
2025-09-03T2100,3656A,120.1556,30.2864,杭州市,消防大队,,36,30,22,22,17,115,,139,137,9,12,6,8,0.5,0.5
2025-09-03T2100,1270A,117.1959,31.7848,合肥市,明珠广场,,36,36,29,19,18,67,,123,110,32,27,6,6,0.7,0.7
2025-09-03T2100,1271A,117.3072,31.8764,合肥市,三里街,,27,27,28,14,18,69,,118,106,23,17,5,5,0.7,0.7
2025-09-03T2100,1272A,117.2588,31.8707,合肥市,琥珀山庄,,28,27,30,16,18,89,,132,121,12,13,8,8,0.7,0.8
2025-09-03T2100,1273A,117.1604,31.9052,合肥市,董铺水库,,27,27,27,14,24,60,,110,93,10,8,5,4,0.4,0.4
2025-09-03T2100,1274A,117.25,31.8571,合肥市,长江中路,,30,27,30,15,16,93,,138,129,11,13,6,11,0.6,0.7
2025-09-03T2100,1275A,117.266,31.9436,合肥市,庐阳区,,41,41,34,22,18,67,,140,116,29,19,6,6,0.6,0.7
2025-09-03T2100,1276A,117.3453,31.8616,合肥市,瑶海区,,27,27,27,17,16,86,,123,113,17,17,7,7,0.6,0.7
2025-09-03T2100,1277A,117.3027,31.7964,合肥市,包河区,,49,39,30,24,18,3,,113,89,98,41,12,11,0.8,0.8
2025-09-03T2100,1278A,117.2776,31.7385,合肥市,滨湖新区,,35,31,24,24,23,86,,114,108,12,21,5,5,0.7,0.8
2025-09-03T2100,1279A,117.1318,31.8403,合肥市,高新区,,,29,29,21,19,,,132,121,22,21,6,5,0.7,0.8
2025-09-03T2100,3464A,117.3803,31.9147,合肥市,高教基地,,,27,25,24,15,,,117,105,9,8,5,5,0.5,0.6
2025-09-03T2100,3614A,79.924,37.0877,和田地区,地区环保局,颗粒物(PM10),500,784,1082,224,302,71,,81,81,22,11,3,2,0.4,0.4
2025-09-03T2100,3615A,79.9131,37.113,和田地区,市环保局,颗粒物(PM10),500,664,1038,167,254,,,88,88,27,19,2,2,0.1,0.3
2025-09-03T2100,2516A,108.2011,24.715,河池市,东仁乐园,,,,,,,,,,,,,,,,
2025-09-03T2100,2517A,108.0497,24.6947,河池市,市环保站,,17,,17,10,10,52,,60,57,6,9,9,6,0.5,0.5
2025-09-03T2100,2518A,108.0983,24.6989,河池市,市疾控中心,,,16,18,12,11,,,64,62,12,13,6,7,0.5,0.6
2025-09-03T2100,1696A,114.6778,23.7569,河源市,源西,,22,19,18,15,15,51,,78,70,7,14,6,6,0.8,0.8
2025-09-03T2100,1697A,114.6944,23.7586,河源市,东埔,,20,20,21,9,9,48,,84,71,9,11,4,5,0.7,0.7
2025-09-03T2100,1698A,114.6892,23.7233,河源市,老城,,24,24,26,8,13,52,,92,80,8,8,4,6,0.7,0.6
2025-09-03T2100,1718A,115.4208,35.2464,菏泽市,气象局,,39,29,42,27,28,79,,97,88,10,14,1,3,0.4,0.5
2025-09-03T2100,3374A,115.5564,35.0891,菏泽市,定陶老年大学,细颗粒物(PM2.5),52,46,37,36,21,66,,75,74,14,14,4,5,0.6,0.6
2025-09-03T2100,4184A,115.4797,35.24401,菏泽市,永昌路1号,,42,30,46,29,33,86,,97,96,8,14,6,8,0.5,0.5
2025-09-03T2100,4193A,115.4715,35.2800,菏泽市,长城路999号,,42,38,52,29,32,74,,86,85,16,23,8,11,0.4,0.5
2025-09-03T2100,2514A,111.5264,24.4172,贺州市,环保小区,,48,48,25,21,16,47,,100,82,12,12,16,18,0.6,0.5
2025-09-03T2100,2515A,111.5608,24.4078,贺州市,政协大楼,,34,34,23,20,16,52,,119,97,14,12,9,13,0.9,0.8
2025-09-03T2100,3534A,111.4744,24.4553,贺州市,西湾,,,,29,,17,,,105,88,14,15,6,12,0.5,0.4
2025-09-03T2100,2385A,114.17,35.9019,鹤壁市,市监测站,,23,19,21,9,15,73,,112,108,5,3,9,6,0.5,0.4
2025-09-03T2100,2386A,114.2956,35.7511,鹤壁市,市交警支队,,26,26,24,15,20,70,,108,104,26,9,4,3,0.7,0.5
2025-09-03T2100,2387A,114.2878,35.7306,鹤壁市,迎宾馆,,,25,27,25,20,,,108,108,29,10,5,4,0.6,0.5
2025-09-03T2100,3474A,114.2617,35.6822,鹤壁市,大新区,,23,23,23,7,11,48,,92,79,29,7,7,7,0.5,0.5
2025-09-03T2100,3596A,114.1572,35.9603,鹤壁市,南山宾馆,,34,,29,16,19,106,,117,117,2,3,4,5,0.1,0.2
2025-09-03T2100,2244A,130.2537,47.3416,鹤岗市,哈啤分公司,,25,25,25,12,8,76,,96,93,12,7,13,12,0.4,0.3
2025-09-03T2100,2245A,130.2684,47.3086,鹤岗市,斯达机电,,26,25,27,11,10,82,,94,93,8,10,12,12,0.4,0.4
2025-09-03T2100,2246A,130.3114,47.3388,鹤岗市,东山纸板厂,,26,26,34,12,14,53,,89,81,23,14,13,14,0.5,0.4
2025-09-03T2100,2247A,130.1097,47.3382,鹤岗市,五号水库,,18,18,12,6,5,23,,86,68,14,10,5,5,0.3,0.2
2025-09-03T2100,2263A,127.4833,50.2524,黑河市,交通局,,27,27,25,16,13,31,,57,45,8,9,7,7,0.5,0.4
2025-09-03T2100,2264A,127.5144,50.2341,黑河市,环保局,,22,22,26,8,11,32,,51,46,5,10,4,5,0.3,0.4
2025-09-03T2100,2265A,127.5291,50.2472,黑河市,大黑河岛,,,,,4,5,20,,44,37,2,2,22,22,0.4,0.3
2025-09-03T2100,1074A,115.6838,37.7541,衡水市,电机北厂,,49,33,39,10,24,154,,150,148,8,11,5,5,0.6,0.4
2025-09-03T2100,1075A,115.6303,37.7316,衡水市,市监测站,,42,36,41,23,18,132,,147,142,9,7,7,7,0.6,0.5
2025-09-03T2100,3188A,115.6683,37.7217,衡水市,市城管局,,44,37,41,22,21,140,,145,143,5,8,8,8,0.5,0.4
2025-09-03T2100,3459A,115.5989,37.5491,衡水市,地表水厂,,46,46,50,22,24,140,,148,147,8,18,4,3,0.4,0.4
2025-09-03T2100,2456A,112.5003,26.9167,衡阳市,原169医院,颗粒物(PM10),52,54,28,33,15,54,,108,87,4,5,6,7,0.6,0.7
2025-09-03T2100,2457A,112.6194,26.9258,衡阳市,衡阳化工总厂,细颗粒物(PM2.5),79,62,33,58,22,50,,113,91,21,9,6,8,1.5,0.9
2025-09-03T2100,2458A,112.6211,26.8956,衡阳市,珠晖区环保局,,,42,35,26,21,,,113,100,17,10,8,11,1.1,0.9
2025-09-03T2100,2459A,112.6197,26.8733,衡阳市,市委党校,细颗粒物(PM2.5),58,55,25,41,18,52,,106,89,20,8,13,16,0.8,0.5
2025-09-03T2100,2460A,112.6006,26.8919,衡阳市,市监测站,,46,46,28,32,18,46,,109,85,21,9,6,7,1.4,0.8
2025-09-03T2100,2461A,112.5664,26.9056,衡阳市,真空机电公司,,23,18,24,16,16,58,,106,89,11,6,4,10,0.8,0.9
2025-09-03T2100,3399A,112.6703,26.882,衡阳市,师范学院,,48,,34,33,17,48,,105,87,16,9,9,10,0.8,0.5
2025-09-03T2100,2608A,103.3772,23.3993,红河哈尼族彝族自治州,污水处理厂,,35,35,20,24,15,39,,44,41,7,7,8,8,0.3,0.2
2025-09-03T2100,2609A,103.3861,23.35,红河哈尼族彝族自治州,监测站,,31,31,27,15,11,42,,46,46,5,3,11,9,0.2,0.2
2025-09-03T2100,3038A,103.3758,23.368,红河哈尼族彝族自治州,州图书馆,,36,,17,25,20,44,,44,44,6,5,2,2,0.3,0.3
2025-09-03T2100,1090A,111.6507,40.7517,呼和浩特市,呼市一监,颗粒物(PM10),86,122,36,49,22,72,,131,122,20,13,3,3,0.5,0.4
2025-09-03T2100,1091A,111.6572,40.8033,呼和浩特市,小召,颗粒物(PM10),56,61,37,32,23,80,,123,118,41,21,6,6,0.7,0.5
2025-09-03T2100,1094A,111.7516,40.8369,呼和浩特市,如意水处理厂,,47,47,36,27,18,62,,134,125,43,23,6,7,0.4,0.4
2025-09-03T2100,1095A,111.7276,40.8062,呼和浩特市,二十九中,颗粒物(PM10),57,64,39,31,20,70,,135,128,43,18,6,7,0.9,0.7
2025-09-03T2100,1096A,111.5512,40.7866,呼和浩特市,工大金川校区,,,22,50,16,22,,,120,114,34,28,5,6,0.5,0.5
2025-09-03T2100,1097A,111.717,40.7612,呼和浩特市,化肥厂生活区,颗粒物(PM10),67,84,40,41,20,42,,134,120,67,23,7,6,0.9,0.5
2025-09-03T2100,3698A,111.5968,40.8178,呼和浩特市,红旗小学,,31,31,39,20,22,95,,133,121,17,28,4,5,0.3,0.3
2025-09-03T2100,3699A,111.6518,40.8389,呼和浩特市,海东办,颗粒物(PM10),52,53,41,24,20,32,,138,122,65,29,5,6,0.4,0.3
2025-09-03T2100,2192A,119.7594,49.2261,呼伦贝尔市,区环保局,,42,42,40,24,19,43,,84,66,27,10,7,5,0.8,0.6
2025-09-03T2100,3061A,119.7512,49.1577,呼伦贝尔市,国华电力东,,36,36,25,19,12,21,,86,71,29,3,6,5,0.4,0.2
2025-09-03T2100,1250A,120.0751,30.8669,湖州市,城西水厂,,39,31,21,22,15,123,,147,147,34,21,8,7,0.4,0.4
2025-09-03T2100,2873A,120.0830,30.8929,湖州市,仁皇山新区,,,31,21,22,15,,,153,153,13,17,4,4,0.5,0.4
2025-09-03T2100,2907A,120.1844,30.8596,湖州市,吴兴区站,,40,25,21,16,16,125,,149,148,17,16,7,8,0.6,0.6
2025-09-03T2100,3562A,120.4148,30.8538,湖州市,南浔区站,,36,24,25,17,26,114,,141,138,11,16,6,6,0.7,0.7
2025-09-03T2100,1607A,120.9049,40.7211,葫芦岛市,龙港区,,39,36,64,19,63,123,,148,139,6,7,5,5,0.6,0.9
2025-09-03T2100,1608A,120.8392,40.7514,葫芦岛市,化工街,,39,39,55,27,41,102,,136,124,14,16,5,6,0.7,0.9
2025-09-03T2100,1609A,120.8341,40.7073,葫芦岛市,新区,细颗粒物(PM2.5),92,,57,68,77,99,,141,124,10,10,3,4,0.8,1
2025-09-03T2100,1610A,120.8695,40.7677,葫芦岛市,东城区,细颗粒物(PM2.5),68,,52,49,79,106,,148,134,16,16,4,4,0.9,1.1
2025-09-03T2100,2482A,109.5981,27.5721,怀化市,林科所,,29,29,22,13,8,42,,75,66,12,7,4,4,0.5,0.5
2025-09-03T2100,2483A,109.9453,27.5444,怀化市,河西地税局,,40,40,19,24,14,32,,70,60,14,9,4,4,0.3,0.2
2025-09-03T2100,2484A,109.9781,27.5342,怀化市,市四医院,,25,25,34,15,19,43,,75,67,14,13,5,6,0.0,0.2
2025-09-03T2100,2485A,109.9972,27.5578,怀化市,监测楼,,19,,26,13,15,58,,74,68,5,11,4,5,0.1,0.2
2025-09-03T2100,2486A,110.0394,27.583,怀化市,市委党校,,38,31,28,26,17,46,,70,63,6,14,3,4,0.3,0.3
2025-09-03T2100,1210A,119.036,33.5981,淮安市,钵池山,,,22,21,16,15,70,,114,100,12,11,,5,0.6,0.6
2025-09-03T2100,1211A,119.007,33.575,淮安市,北京南路,,25,17,25,16,20,78,,117,108,14,13,6,6,0.6,0.6
2025-09-03T2100,1212A,118.989,33.6067,淮安市,市监测站,,27,27,22,12,19,2,,28,18,16,17,9,9,0.4,0.5
2025-09-03T2100,1213A,119.135,33.5039,淮安市,楚州区监测站,,,,31,,12,80,,130,119,,9,8,7,0.6,0.7
2025-09-03T2100,3426A,118.8755,33.2894,淮安市,新华书店,,35,34,21,24,18,79,,132,121,26,14,7,6,0.7,0.7
2025-09-03T2100,4206A,119.0288,33.6319,淮安市,承德北路606号,,24,24,29,14,16,70,,114,102,18,13,6,6,0.4,0.4
2025-09-03T2100,2282A,116.8004,33.975,淮北市,监测站,,44,44,23,20,14,84,,112,102,10,9,7,7,1.0,0.9
2025-09-03T2100,2283A,116.8091,33.9007,淮北市,烈山区政府,,44,44,28,17,8,82,,122,113,10,6,9,8,0.6,0.5
2025-09-03T2100,3330A,116.8873,33.9836,淮北市,杜集区检察院,,,45,27,33,16,,,110,108,10,4,9,8,0.7,0.6
2025-09-03T2100,4017A,116.7923,33.9535,淮北市,市博物馆,,42,32,24,29,19,88,,114,106,10,8,7,6,0.6,0.5
2025-09-03T2100,2277A,116.8305,32.7727,淮南市,潘集区政府,,36,36,27,19,15,100,,124,120,12,11,2,4,0.3,0.4
2025-09-03T2100,2279A,116.8569,32.5951,淮南市,谢家集区政府,,41,41,22,22,16,93,,125,116,16,9,7,8,0.4,0.4
2025-09-03T2100,2280A,116.8281,32.633,淮南市,八公山区政府,,36,36,29,20,18,92,,122,114,10,10,5,6,0.4,0.4
2025-09-03T2100,2281A,116.6325,32.6201,淮南市,焦岗湖风景区管理处,,,,,,,,,,,,,,,,
2025-09-03T2100,2894A,117.0566,32.6531,淮南市,经济技术开发区消防队,,38,38,30,13,10,75,,124,116,36,16,9,10,0.4,0.3
2025-09-03T2100,3329A,117.0108,32.5893,淮南市,山南新区,,36,36,17,17,7,107,,135,132,16,9,5,5,0.5,0.5
2025-09-03T2100,4209A,117.0031,32.6445,淮南市,国庆中路369号,,48,48,33,29,22,121,,140,134,14,10,5,6,0.6,0.6
2025-09-03T2100,2446A,114.9028,30.4742,黄冈市,职工中心,,31,31,32,21,23,64,,156,129,19,13,10,6,0.7,0.6
2025-09-03T2100,2929A,114.8858,30.4519,黄冈市,红卫路,,31,31,32,15,21,60,,163,131,23,16,10,9,0.6,0.6
2025-09-03T2100,3398A,114.9136,30.4445,黄冈市,市林业局,,,40,36,,22,54,,153,120,22,14,8,6,0.7,0.5
2025-09-03T2100,2672A,102.0199,35.5102,黄南藏族自治州,同仁县隆务镇,,40,40,32,17,13,87,,98,96,5,6,10,10,0.3,0.3
2025-09-03T2100,2295A,118.2903,29.6963,黄山市,延安路89号,,24,20,24,16,12,74,,85,82,3,5,3,4,0.4,0.3
2025-09-03T2100,2297A,118.1371,30.2756,黄山市,黄山区政府5号楼,,22,22,21,3,9,70,,92,87,3,3,6,4,0.5,0.5
2025-09-03T2100,4210A,118.3354,29.7203,黄山市,滨江东路7-2号,,24,24,22,3,8,73,,90,86,4,4,2,2,0.3,0.3
2025-09-03T2100,2423A,115.0601,30.2313,黄石市,沈家营,,46,46,53,20,18,54,,133,108,14,18,8,9,0.4,0.6
2025-09-03T2100,2426A,114.8988,30.2019,黄石市,铁山,,40,40,34,15,13,29,,121,86,16,10,10,5,0.6,0.4
2025-09-03T2100,2427A,115.0307,30.2092,黄石市,团城山,,36,36,36,12,14,63,,129,104,8,12,7,8,0.5,0.5
2025-09-03T2100,3149A,115.0235,30.1578,黄石市,笔架山北路,,27,27,27,10,10,43,,116,80,8,6,6,6,0.7,0.5
2025-09-03T2100,4185A,115.0780,30.21118,黄石市,磁湖东路29号,颗粒物(PM10),55,60,53,30,20,51,,129,106,26,17,9,10,0.8,0.9
2025-09-03T2100,1392A,114.4183,23.0528,惠州市,河南岸金山湖子站,,19,19,20,3,10,26,,86,67,16,15,8,9,0.4,0.4
2025-09-03T2100,1393A,114.4053,23.0822,惠州市,下埔横江三路子站,,25,25,20,12,10,29,,88,73,14,11,5,6,0.3,0.3
2025-09-03T2100,1394A,114.4103,23.1142,惠州市,江北云山西路子站,,26,26,19,9,9,33,,99,82,17,13,8,9,0.5,0.5
2025-09-03T2100,1395A,114.4645,22.7833,惠州市,惠阳区承修路船湖子站,,,11,15,3,8,,,59,53,10,11,7,7,0.4,0.4
2025-09-03T2100,1396A,114.5317,22.7422,惠州市,大亚湾管委会子站,,16,13,12,3,6,51,,58,52,8,7,8,8,0.5,0.5
2025-09-03T2100,3314A,114.4338,22.8134,惠州市,惠阳秋长,,22,22,19,8,10,33,,65,50,17,14,10,12,0.5,0.5
2025-09-03T2100,3452A,114.6517,22.775,惠州市,大亚湾霞涌,,20,,13,11,9,61,,61,60,4,9,6,7,0.4,0.5
2025-09-03T2100,2240A,130.9762,45.3001,鸡西市,环保局,,47,47,34,20,16,31,,103,80,30,18,6,7,0.8,0.7
2025-09-03T2100,2243A,130.9429,45.3039,鸡西市,第一中学,颗粒物(PM10),57,64,32,21,13,27,,100,79,35,14,10,10,0.8,0.7
2025-09-03T2100,3707A,131.0207,45.3073,鸡西市,欧美日汽修厂,颗粒物(PM10),62,74,60,22,17,24,,105,76,28,20,9,10,0.8,0.8
2025-09-03T2100,3709A,130.9967,45.3106,鸡西市,市政设施管理处,,,,38,25,17,,,112,94,38,22,8,9,0.6,0.6
2025-09-03T2100,2367A,114.9754,27.0803,吉安市,红声器材厂,,37,37,27,23,12,68,,100,95,8,6,8,8,0.6,0.6
2025-09-03T2100,2368A,114.9658,27.0999,吉安市,市森林工业局,,36,36,25,22,13,68,,102,97,10,7,8,8,0.5,0.5
2025-09-03T2100,2369A,114.99,27.1312,吉安市,市环境监测站,,30,30,21,15,11,70,,113,106,13,5,10,11,0.6,0.5
2025-09-03T2100,2370A,115.0093,27.0968,吉安市,青原区法院,,35,35,24,19,12,68,,105,98,16,8,7,8,0.6,0.5
2025-09-03T2100,1772A,126.54,43.8622,吉林市,哈达湾,,35,35,28,17,16,54,,99,84,20,15,7,7,0.4,0.3
2025-09-03T2100,1773A,126.5844,43.8358,吉林市,东局子,,,,27,,12,,,80,73,11,10,6,6,0.5,0.6
2025-09-03T2100,1774A,126.5052,43.8245,吉林市,电力学院,颗粒物(PM10),56,61,36,30,19,35,,90,73,24,16,6,6,0.8,0.7
2025-09-03T2100,1775A,126.6133,43.8972,吉林市,江北,,32,27,26,22,15,41,,82,65,10,9,6,6,0.8,0.7
2025-09-03T2100,1776A,126.555,43.8306,吉林市,江南公园,,42,42,27,21,17,46,,90,75,18,11,3,2,0.6,0.5
2025-09-03T2100,1778A,126.7061,43.7133,吉林市,丰满,,30,25,16,21,13,36,,88,68,4,4,4,9,0.7,0.6
2025-09-03T2100,2868A,126.4739,43.953,吉林市,九站,,35,35,30,21,16,56,,102,83,19,14,5,5,0.5,0.5
2025-09-03T2100,1299A,116.9862,36.6114,济南市,科干所,,,,38,,22,,,119,119,28,18,6,7,0.8,0.6
2025-09-03T2100,1300A,116.9376,36.665,济南市,农科所,颗粒物(PM10),51,51,39,32,22,71,,104,100,30,25,8,9,0.7,0.5
2025-09-03T2100,1301A,117.1265,36.6734,济南市,开发区,颗粒物(PM10),52,54,42,29,24,87,,126,125,36,26,8,8,0.8,0.7
2025-09-03T2100,1303A,117.0624,36.6868,济南市,省种子仓库,颗粒物(PM10),54,58,49,27,21,74,,131,127,49,30,5,6,0.8,0.7
2025-09-03T2100,1304A,116.9489,36.6447,济南市,机床二厂,颗粒物(PM10),59,68,48,29,22,81,,124,121,32,26,10,10,0.7,0.6
2025-09-03T2100,1305A,117.0495,36.663,济南市,市监测站,,42,42,44,27,23,90,,120,119,31,28,10,10,0.8,0.8
2025-09-03T2100,1306A,116.7675,36.5484,济南市,长清党校,,42,39,34,29,22,91,,112,111,22,23,8,7,0.8,0.7
2025-09-03T2100,1616A,117.6795,36.229,济南市,技术学院,,39,39,31,22,20,64,,93,83,32,20,11,11,0.9,1
2025-09-03T2100,1961A,117.532,36.6868,济南市,东山小学,,37,37,34,15,17,60,,134,116,25,21,6,6,0.4,0.5
2025-09-03T2100,3059A,117.7161,36.2049,济南市,泰兴公司,,31,31,32,12,20,43,,80,69,38,25,13,12,0.6,0.6
2025-09-03T2100,3064A,117.6867,36.2171,济南市,莱芜战役纪念馆,,46,46,34,30,26,53,,79,74,35,22,9,9,0.6,1
2025-09-03T2100,3494A,117.1673,36.9782,济南市,济阳区政府,颗粒物(PM10),57,63,49,37,23,136,,143,143,15,17,10,10,0.7,0.5
2025-09-03T2100,3495A,117.1171,36.63,济南市,锦屏中学,,34,34,35,15,16,65,,106,99,20,21,9,10,0.8,0.8
2025-09-03T2100,3682A,116.9814,36.6819,济南市,济南四建,,,51,45,29,27,,,138,138,30,29,7,7,0.9,0.8
2025-09-03T2100,1653A,116.6251,35.4302,济宁市,火炬城,颗粒物(PM10),55,59,40,24,18,51,,77,69,13,12,5,5,0.4,0.4
2025-09-03T2100,1655A,116.5491,35.4042,济宁市,电化厂,,48,48,38,24,19,48,,83,74,24,16,4,4,1.0,1
2025-09-03T2100,3500A,116.5814,35.3707,济宁市,北湖一中,颗粒物(PM10),54,57,34,27,17,58,,86,80,14,11,6,7,0.6,0.5
2025-09-03T2100,3501A,116.8249,35.5593,济宁市,服务中心,,33,33,35,11,15,46,,80,71,24,17,3,4,0.6,0.4
2025-09-03T2100,3678A,116.5907,35.4054,济宁市,市第七中学,,45,45,36,22,12,62,,86,80,12,13,7,7,0.6,0.6
2025-09-03T2100,2255A,130.2751,46.8028,佳木斯市,佳纺,,,57,26,20,11,,,83,70,36,16,6,10,0.7,0.6
2025-09-03T2100,2256A,130.3995,46.8307,佳木斯市,发电厂,颗粒物(PM10),58,66,38,19,13,4,,78,58,54,22,7,7,0.8,0.7
2025-09-03T2100,2257A,130.3258,46.7975,佳木斯市,环保局,,37,37,21,21,13,69,,85,80,17,18,8,8,0.7,0.6
2025-09-03T2100,2258A,130.3648,46.8032,佳木斯市,十一中,,39,39,28,25,17,51,,74,66,25,24,9,9,0.8,0.7
2025-09-03T2100,2259A,130.3794,46.7588,佳木斯市,四丰,,19,14,9,13,6,0,,5,,16,15,1,1,0.5,0.4
2025-09-03T2100,1252A,120.7436,30.778,嘉兴市,清河小学,,28,21,32,12,18,89,,150,140,27,18,6,6,0.8,1
2025-09-03T2100,1253A,120.726,30.7478,嘉兴市,嘉兴学院,,35,23,28,9,22,112,,161,153,18,23,5,4,0.6,0.6
2025-09-03T2100,2872A,120.7846,30.7525,嘉兴市,南湖区残联,,33,16,27,11,25,103,,164,153,20,19,6,6,0.7,0.7
2025-09-03T2100,3407A,120.6916,30.7739,嘉兴市,秀洲住建,,38,18,28,9,21,121,,175,167,13,20,7,7,0.7,0.8
2025-09-03T2100,1945A,98.2908,39.7711,嘉峪关市,气象局,颗粒物(PM10),104,158,202,39,46,93,,121,119,32,17,7,9,0.6,0.5
2025-09-03T2100,2884A,98.2672,39.7978,嘉峪关市,酒钢宾馆,颗粒物(PM10),108,166,215,56,68,113,,126,126,19,16,13,21,0.8,1
2025-09-03T2100,3248A,98.2643,39.7724,嘉峪关市,雄关区,颗粒物(PM10),86,121,157,29,37,105,,114,114,20,18,10,13,1.0,0.6
2025-09-03T2100,1383A,113.1064,22.6058,江门市,北街,,14,11,16,6,9,42,,89,80,12,9,4,4,0.3,0.3
2025-09-03T2100,1384A,113.0731,22.5835,江门市,西区,,27,27,24,3,7,39,,76,70,14,15,9,8,0.6,0.4
2025-09-03T2100,1385A,113.0219,22.5311,江门市,圭峰西,,16,15,18,11,9,34,,80,70,18,11,4,4,0.6,0.5
2025-09-03T2100,1386A,113.0828,22.5947,江门市,东湖,,20,20,16,9,9,35,,67,62,13,12,6,5,0.6,0.5
2025-09-03T2100,3311A,113.1075,22.5647,江门市,江海富民,,31,31,28,13,10,40,,83,76,14,10,5,4,0.3,0.2
2025-09-03T2100,3449A,113.05,22.4667,江门市,新会银湖,,13,,15,9,8,28,,69,60,12,11,2,2,0.4,0.3
2025-09-03T2100,1830A,113.1992,35.2590,焦作市,影视城,,,,20,,10,,,133,,,2,,8,,0.4
2025-09-03T2100,3335A,113.3137,35.2641,焦作市,马村街道办,,23,23,26,7,9,69,,117,105,13,10,1,2,0.4,0.5
2025-09-03T2100,3336A,113.2465,35.2373,焦作市,焦作技师学院,,26,26,25,7,7,77,,120,109,17,10,6,6,0.5,0.5
2025-09-03T2100,3477A,113.1656,35.2539,焦作市,中站许衡医院,,35,35,27,15,19,89,,136,112,15,7,4,5,0.4,0.4
2025-09-03T2100,3981A,113.2449,35.1803,焦作市,原李万街道办,颗粒物(PM10),55,60,52,12,10,49,,124,87,18,12,9,10,0.4,0.4
2025-09-03T2100,4264A,113.2340,35.2190,焦作市,新安路1731号,,21,21,30,9,12,46,,123,101,26,9,3,4,0.7,0.6
2025-09-03T2100,4295A,113.2722,35.2121,焦作市,人民路3066号,,,31,33,,12,37,,120,94,29,10,2,2,0.4,0.3
2025-09-03T2100,1708A,116.3701,23.5345,揭阳市,新兴,,29,29,34,18,23,39,,76,61,19,18,6,7,0.5,0.5
2025-09-03T2100,1709A,116.3264,23.5443,揭阳市,西马,,47,47,39,14,19,36,,69,57,18,17,3,5,0.6,0.5
2025-09-03T2100,1710A,116.3611,23.5626,揭阳市,东兴,,31,31,38,16,18,39,,74,58,18,19,8,8,0.7,0.7
2025-09-03T2100,1711A,116.4151,23.5294,揭阳市,渔湖,,,34,43,20,20,27,,97,70,,22,5,13,0.7,0.8
2025-09-03T2100,3320A,116.403,23.5699,揭阳市,曲溪,,39,39,34,16,19,32,,88,66,29,16,27,7,0.7,0.6
2025-09-03T2100,1944A,102.1692,38.5167,金昌市,天庆家园,颗粒物(PM10),122,193,193,65,53,84,,96,96,15,14,9,7,0.7,0.6
2025-09-03T2100,4022A,102.1647,38.5371,金昌市,金川区人防中心,颗粒物(PM10),123,196,201,68,54,84,,103,102,11,10,13,12,0.6,0.5
2025-09-03T2100,4239A,102.1930,38.5319,金昌市,长春路96号,颗粒物(PM10),119,188,203,56,45,97,,104,104,13,10,20,11,0.8,0.6
2025-09-03T2100,1262A,119.647,29.077,金华市,十五中,,43,43,32,20,16,59,,128,113,29,19,2,3,0.6,0.5
2025-09-03T2100,1263A,119.686,29.1029,金华市,监测站,颗粒物(PM10),52,53,44,26,18,69,,129,115,32,22,4,4,0.6,0.5
2025-09-03T2100,3659A,119.656,29.1131,金华市,气象局,,39,39,30,10,15,66,,125,112,42,24,3,2,0.4,0.4
2025-09-03T2100,1767A,121.1115,41.0879,锦州市,南山,,,59,54,45,41,,,137,128,41,13,4,4,,1
2025-09-03T2100,1768A,121.0604,40.8428,锦州市,开发区,颗粒物(PM10),64,77,64,22,36,87,,150,132,40,22,5,7,0.7,1.1
2025-09-03T2100,1769A,121.1836,41.1119,锦州市,百股街道,,38,25,51,22,48,121,,154,144,12,10,5,6,0.6,1
2025-09-03T2100,1770A,121.1178,41.1222,锦州市,天安街道,细颗粒物(PM2.5),54,56,60,38,47,110,,159,145,24,16,9,7,0.9,1.3
2025-09-03T2100,1771A,121.1303,41.1386,锦州市,北湖公园,,,44,61,27,37,,,146,,16,12,6,5,0.8,1.1
2025-09-03T2100,2160A,112.85,35.5051,晋城市,自来水公司,,31,31,31,17,12,70,,99,85,13,11,3,3,0.6,0.3
2025-09-03T2100,2161A,112.8318,35.4936,晋城市,白云商贸,,29,29,30,12,7,76,,100,93,13,10,2,2,0.6,0.4
2025-09-03T2100,2162A,112.8508,35.4887,晋城市,市环保局,,23,,16,12,9,72,,87,83,9,8,2,2,0,0
2025-09-03T2100,2163A,112.8676,35.4897,晋城市,技术学院,,22,19,20,3,7,68,,86,82,14,10,3,4,0.8,0.7
2025-09-03T2100,2165A,112.8453,35.546,晋城市,白马寺,,34,23,18,14,15,106,,108,104,3,4,6,7,0.6,0.6
2025-09-03T2100,3620A,112.8271,35.4828,晋城市,泽州一中,,25,23,20,7,7,79,,100,94,13,10,2,2,0.8,0.7
2025-09-03T2100,2173A,112.7249,37.7067,晋中市,南都小区,,45,45,30,30,20,131,,135,134,15,11,9,6,0.9,0.5
2025-09-03T2100,2174A,112.6991,37.6982,晋中市,榆次区政府,颗粒物(PM10),52,53,28,28,17,120,,131,129,14,11,8,7,0.8,0.7
2025-09-03T2100,2865A,112.7195,37.6828,晋中市,榆次三中,,,,25,27,13,131,,136,134,12,8,12,8,0.8,0.5
2025-09-03T2100,4200A,112.7478,37.6954,晋中市,迎宾街26号,颗粒物(PM10),51,51,25,22,11,143,,139,139,11,9,13,9,0.7,0.5
2025-09-03T2100,2439A,112.2014,31.0481,荆门市,竹园小学,,43,43,41,23,27,91,,119,115,12,10,1,2,0.4,0.5
2025-09-03T2100,2440A,112.1969,30.9891,荆门市,掇刀,,,,39,,28,91,,126,120,16,10,1,2,0.4,0.6
2025-09-03T2100,2441A,112.2213,31.0386,荆门市,石化一小,颗粒物(PM10),56,62,45,31,33,86,,123,118,18,13,4,6,0.5,0.6
2025-09-03T2100,3012A,112.1849,31.0362,荆门市,西山林语,,,49,44,27,25,,,120,114,9,9,2,2,,0.6
2025-09-03T2100,3547A,112.1632,31.0138,荆门市,龙泉中学南校,,40,39,36,28,23,98,,131,125,16,12,2,2,0.8,0.8
2025-09-03T2100,1844A,112.2494,30.3197,荆州市,市图书馆,,41,41,26,21,15,90,,124,116,16,14,5,4,0.6,0.5
2025-09-03T2100,1845A,112.2008,30.3544,荆州市,市委党校,,,42,28,33,18,,,119,116,14,11,9,6,0.6,0.7
2025-09-03T2100,3194A,112.2747,30.3122,荆州市,管委会,,42,42,26,24,20,79,,118,108,18,13,2,2,0.6,0.6
2025-09-03T2100,4268A,112.1722,30.3366,荆州市,学苑路85号,,49,35,27,34,24,92,,115,109,14,15,6,6,0.4,0.4
2025-09-03T2100,2342A,117.3102,29.3867,景德镇市,王港中学,,,,,,,,,,,,,,,,
2025-09-03T2100,2343A,117.2117,29.2933,景德镇市,老干部活动中心,,42,39,29,29,20,63,,114,100,12,13,8,8,0.7,0.7
2025-09-03T2100,2344A,117.1894,29.2789,景德镇市,兽医站,,40,40,34,24,19,54,,117,98,13,12,6,7,0.8,0.7
2025-09-03T2100,2346A,117.2461,29.2956,景德镇市,陶研所,,35,34,30,24,20,52,,102,90,6,7,6,6,0.6,0.6
2025-09-03T2100,4289A,117.1542,29.2566,景德镇市,青少年活动中心,细颗粒物(PM2.5),59,63,41,42,21,10,,104,84,74,24,47,17,0.8,0.6
2025-09-03T2100,1803A,115.9872,29.6815,九江市,十里,,42,37,29,29,28,73,,122,103,13,18,4,7,0.3,0.3
2025-09-03T2100,1804A,115.9584,29.7046,九江市,茅山头,,40,39,35,28,24,46,,117,92,16,14,3,4,0.6,0.6
2025-09-03T2100,1805A,115.9877,29.7295,九江市,西园,,39,39,31,22,18,46,,137,100,52,25,13,7,0.8,0.8
2025-09-03T2100,1808A,115.9114,29.6038,九江市,综合工业园,,37,37,30,22,18,34,,108,90,47,26,6,7,0.8,0.8
2025-09-03T2100,1809A,116.0721,29.7535,九江市,石化总厂,颗粒物(PM10),56,62,31,36,22,21,,117,94,74,21,10,7,0.8,0.6
2025-09-03T2100,1810A,115.9773,29.5698,九江市,庐山气象台,,,,,,,,,,,,,,,,
2025-09-03T2100,3190A,116.0254,29.6994,九江市,外国语学校,,49,49,27,31,24,41,,105,85,38,18,4,4,0.8,0.6
2025-09-03T2100,4253A,116.0102,29.6594,九江市,莲花大道8号,,38,26,26,26,21,45,,99,78,12,12,6,6,0.7,0.6
2025-09-03T2100,4240A,98.4958,39.7339,酒泉市,玉门东路5号,颗粒物(PM10),109,168,211,58,58,68,,111,107,43,20,10,13,0.6,0.4
2025-09-03T2100,4241A,98.5099,39.7506,酒泉市,北大街108号,颗粒物(PM10),112,173,208,59,48,44,,107,100,51,18,12,26,1.1,0.4
2025-09-03T2100,2698A,76.0072,39.4467,喀什地区,巡警大队,细颗粒物(PM2.5),214,268,890,164,364,99,,103,103,14,39,3,4,0.3,0.5
2025-09-03T2100,2699A,75.9755,39.4694,喀什地区,吾办,颗粒物(PM10),174,297,917,102,340,,,81,81,23,29,4,10,,0.5
2025-09-03T2100,4027A,75.9483,39.4689,喀什地区,老干局,颗粒物(PM10),139,228,719,81,231,89,,107,107,14,21,4,5,0.4,0.4
2025-09-03T2100,1824A,114.3389,34.7781,开封市,肿瘤医院,,28,28,41,18,27,71,,99,97,16,19,3,4,0.7,0.7
2025-09-03T2100,1826A,114.2885,34.7965,开封市,世纪星幼儿园,,29,24,41,20,35,83,,103,101,13,15,5,6,0.7,0.8
2025-09-03T2100,3147A,114.3438,34.8106,开封市,龙亭公园,,28,28,44,12,19,58,,93,90,15,15,7,6,0.6,0.6
2025-09-03T2100,3210A,114.3644,34.7964,开封市,汴京公园,,32,32,48,18,30,61,,93,90,12,16,4,5,0.5,0.5
2025-09-03T2100,3473A,114.2485,34.8306,开封市,技师学院,,29,22,43,20,29,62,,95,87,15,16,6,6,0.9,0.9
2025-09-03T2100,3592A,114.4644,34.7556,开封市,祥符区生态环境局,,20,20,38,13,23,46,,76,74,11,24,2,4,0.8,0.8
2025-09-03T2100,1951A,84.895,45.6094,克拉玛依市,长征新村,,,,22,,8,,,78,78,6,3,3,6,0.4,0.2
2025-09-03T2100,1952A,84.8988,45.5893,克拉玛依市,南林小区,,31,31,21,11,5,72,,77,77,9,4,7,7,0.1,0.2
2025-09-03T2100,1954A,84.905,44.3396,克拉玛依市,独山子区,,44,44,35,10,25,65,,72,72,20,10,5,6,0.3,0.3
2025-09-03T2100,1955A,85.6979,46.098,克拉玛依市,乌尔禾区商贸楼,,24,18,16,3,5,76,,80,80,6,6,2,2,0.3,0.2
2025-09-03T2100,3612A,85.1045,45.6899,克拉玛依市,白碱滩区新站,,47,47,39,18,12,85,,87,87,6,4,9,9,0.3,0.3
2025-09-03T2100,2697A,76.1454,39.7142,克孜勒苏柯尔克孜自治州,市人民政府,颗粒物(PM10),129,208,882,77,331,99,,102,102,14,15,5,14,0.2,0.2
2025-09-03T2100,3665A,76.1658,39.7157,克孜勒苏柯尔克孜自治州,克州文化中心,细颗粒物(PM2.5),147,201,865,112,339,105,,108,108,12,17,7,17,0.4,0.3
2025-09-03T2100,1450A,102.8204,24.8886,昆明市,呈贡新区,,24,24,12,14,11,32,,69,64,25,15,3,5,0.4,0.4
2025-09-03T2100,1451A,102.6251,24.9608,昆明市,西山森林公园,,,,,,,,,,,,,,,,
2025-09-03T2100,1452A,102.7252,25.0902,昆明市,龙泉镇,,43,43,28,12,10,41,,70,67,14,17,3,2,0.3,0.4
2025-09-03T2100,1453A,102.7266,25.0375,昆明市,东风东路,,18,18,17,9,10,40,,73,69,15,14,4,5,0.3,0.3
2025-09-03T2100,1454A,102.6742,25.0669,昆明市,金鼎山,,31,31,22,10,8,37,,64,61,14,13,2,2,0.3,0.3
2025-09-03T2100,1455A,102.6644,25.0401,昆明市,碧鸡广场,,46,46,28,18,11,21,,63,56,30,21,8,9,0.5,0.4
2025-09-03T2100,3179A,102.7494,25.0119,昆明市,官渡区博物馆,,,,,56,56,39,,,,,8,2,2,0.2,0.2
2025-09-03T2100,3375A,102.8017,24.8336,昆明市,青年创业园,,19,17,13,13,8,34,,65,60,15,10,5,2,0.6,0.4
2025-09-03T2100,3550A,102.7997,24.9786,昆明市,昆明学院,,18,18,19,11,9,41,,67,64,12,12,7,9,0.3,0.3
2025-09-03T2100,3551A,102.5967,24.6736,昆明市,晋宁区生态环境分局,,23,23,20,14,8,37,,57,53,11,10,4,3,0.5,0.4
2025-09-03T2100,3552A,102.6678,24.9856,昆明市,云天化总部,,14,8,15,3,8,42,,66,63,11,15,4,7,0.3,0.4
2025-09-03T2100,1456A,91.1319,29.6514,拉萨市,八廓街,,,9,10,3,7,,,88,,30,16,7,10,0.4,0.6
2025-09-03T2100,1457A,91.1221,29.6747,拉萨市,市环保局,,20,,12,14,9,63,,90,88,17,9,8,7,0.3,0.2
2025-09-03T2100,1458A,91.0874,29.6475,拉萨市,区监测站,,,27,11,7,6,45,,82,78,,9,6,4,0.3,0.2
2025-09-03T2100,1459A,91.1774,29.6541,拉萨市,西藏大学,,20,18,9,7,7,64,,87,85,23,11,8,7,0.4,0.3
2025-09-03T2100,1460A,90.9798,29.6588,拉萨市,区辐射站,,26,26,20,7,10,56,,72,71,31,20,6,6,0.4,0.4
2025-09-03T2100,1461A,91.0834,29.6292,拉萨市,拉萨火车站,,20,13,10,3,6,61,,81,80,27,7,7,5,0.5,0.4
2025-09-03T2100,2520A,109.2203,23.7256,来宾市,来宾技工学校,,,20,21,14,9,,,61,61,14,10,8,10,0.5,0.6
2025-09-03T2100,3535A,109.1781,23.7297,来宾市,兴宾区政府,,19,19,14,3,8,60,,64,64,11,8,39,9,0.4,0.4
2025-09-03T2100,4002A,109.2416,23.7461,来宾市,中南小学,,38,,20,26,15,67,,68,68,13,9,7,17,0.4,0.5
2025-09-03T2100,1477A,104.1373,35.9454,兰州市,榆中兰大校区,,,,,,,,,,,,,,,,
2025-09-03T2100,1479A,103.831,36.0464,兰州市,铁路设计院,,39,39,84,26,33,68,,110,103,29,38,8,13,0.5,0.8
2025-09-03T2100,3241A,103.7439,36.0842,兰州市,百合公园,,41,41,73,21,27,59,,96,96,24,26,4,5,0.0,0.6
2025-09-03T2100,3242A,103.9611,35.998,兰州市,和平,,41,41,59,18,22,73,,109,103,14,13,8,11,0.2,0.4
2025-09-03T2100,4236A,103.6293,36.0938,兰州市,庄浪东路808号,颗粒物(PM10),51,51,79,32,31,18,,150,117,82,35,12,15,0.4,0.5
2025-09-03T2100,4237A,103.7251,36.1043,兰州市,安宁西路88号,,45,45,85,23,35,94,,144,134,10,19,3,5,0.2,0.4
2025-09-03T2100,4238A,103.8470,36.0676,兰州市,北滨河东路1号,,37,37,81,25,32,83,,124,116,22,29,8,11,0.3,0.7
2025-09-03T2100,3245A,103.6633,36.533,兰州新区,新区管委会,,43,43,49,25,25,80,,130,124,22,16,6,7,0.4,0.4
2025-09-03T2100,3246A,103.6975,36.4789,兰州新区,舟曲中学,,43,43,59,15,26,78,,127,122,32,19,6,8,0.4,0.4
2025-09-03T2100,1067A,116.6708,39.5111,廊坊市,药材公司,颗粒物(PM10),57,64,56,31,30,81,,153,136,27,12,4,5,0.6,0.7
2025-09-03T2100,1068A,116.7214,39.5589,廊坊市,开发区,,40,40,55,26,30,84,,153,140,14,11,2,2,0.4,0.5
2025-09-03T2100,1070A,116.7244,39.5269,廊坊市,北华航天学院,,46,46,44,21,30,114,,162,152,14,8,4,5,0.5,0.5
2025-09-03T2100,2919A,116.7022,39.5453,廊坊市,河北工业大学,,46,43,41,32,29,139,,163,159,11,9,2,4,0.4,0.5
2025-09-03T2100,2535A,103.7723,29.5462,乐山市,花湖湾,,34,34,38,22,31,96,,110,109,10,11,8,8,0.3,0.5
2025-09-03T2100,2536A,103.7627,29.5844,乐山市,牛耳桥,细颗粒物(PM2.5),80,76,44,59,32,43,,106,98,37,19,6,6,0.9,0.8
2025-09-03T2100,2537A,103.7508,29.6006,乐山市,市第三水厂,,47,47,44,31,31,79,,105,101,17,18,4,5,0.7,0.8
2025-09-03T2100,2538A,103.7571,29.5664,乐山市,市监测站,细颗粒物(PM2.5),54,54,45,38,32,61,,96,92,22,15,6,7,0.9,0.9
2025-09-03T2100,3361A,103.7311,29.5628,乐山市,理工大学,,35,35,51,17,32,75,,102,99,18,15,8,10,0.7,0.8
2025-09-03T2100,2598A,100.2143,26.8576,丽江市,西南郊,,16,6,13,3,5,49,,56,55,2,5,6,7,0.9,0.9
2025-09-03T2100,2599A,100.2497,26.8802,丽江市,丽江古城,,20,20,18,9,6,36,,56,52,17,10,10,10,0.4,0.5
2025-09-03T2100,2600A,100.2203,26.8906,丽江市,市中心,,16,16,10,10,7,38,,54,51,14,10,10,10,0.4,0.3
2025-09-03T2100,1267A,119.914,28.4514,丽水市,监测站大楼,,28,28,15,9,8,61,,90,83,17,11,4,4,0.5,0.5
2025-09-03T2100,1268A,119.93,28.4586,丽水市,莲都小学,,23,20,15,7,8,73,,86,78,13,10,4,3,0.4,0.4
2025-09-03T2100,1269A,119.879,28.4231,丽水市,余庄前,,,17,18,10,10,12,,96,70,24,15,5,5,,0.5
2025-09-03T2100,1173A,119.176,34.5885,连云港市,市环境监测站,,27,17,10,3,2,85,,96,95,13,9,4,4,0.3,0.3
2025-09-03T2100,3000A,119.3581,34.6972,连云港市,德源药业,,30,14,14,3,2,93,,87,86,16,18,4,4,0.6,0.6
2025-09-03T2100,3007A,119.178,34.844,连云港市,新城一中,,30,,19,21,8,69,,97,85,23,18,6,5,1.1,0.8
2025-09-03T2100,3008A,119.3608,34.7519,连云港市,胡沟管理处,,34,7,8,3,1,108,,99,99,5,11,4,4,0.8,0.8
2025-09-03T2100,3009A,119.1478,34.5911,连云港市,矿山设计院,,24,14,10,3,4,76,,92,90,15,9,5,5,0.6,0.6
2025-09-03T2100,3434A,119.2413,34.6539,连云港市,工贸学校,,26,14,10,8,7,82,,94,91,14,7,6,6,0.9,0.9
2025-09-03T2100,3664A,119.4172,34.7341,连云港市,连云街道,,30,18,10,7,4,94,,94,90,17,6,4,4,0.7,0.7
2025-09-03T2100,2571A,102.3431,27.8099,凉山彝族自治州,青龙寺,,14,14,15,6,6,42,,63,60,6,5,3,3,0.4,0.3
2025-09-03T2100,2572A,102.2721,27.8415,凉山彝族自治州,邛海宾馆,,16,16,20,8,12,51,,70,68,18,10,10,9,0.5,0.4
2025-09-03T2100,2573A,102.2625,27.898,凉山彝族自治州,西昌市政府,,26,18,22,18,9,51,,72,69,12,9,11,10,0.6,0.4
2025-09-03T2100,2574A,102.2685,27.8851,凉山彝族自治州,凉山州政府,颗粒物(PM10),57,63,33,25,19,58,,72,70,16,10,11,10,0.8,0.6
2025-09-03T2100,4229A,102.2342,27.8859,凉山彝族自治州,凯乐南路30号,,29,29,26,15,14,62,,66,66,14,15,26,14,1.1,0.9
2025-09-03T2100,2212A,123.2,41.1953,辽阳市,宏伟区,,25,21,33,9,13,80,,87,80,6,10,2,2,0.7,0.8
2025-09-03T2100,2213A,123.1683,41.2495,辽阳市,新华园,,28,28,44,18,19,74,,103,94,12,18,3,5,0.6,0.7
2025-09-03T2100,2214A,123.2354,41.2639,辽阳市,滨河路,,25,,41,17,19,60,,84,70,14,13,4,5,0.6,0.7
2025-09-03T2100,2215A,123.149,41.2991,辽阳市,铁西工业园,,29,22,58,20,25,55,,78,70,15,19,3,3,0.8,1
2025-09-03T2100,2227A,125.1358,42.8845,辽源市,环保局,颗粒物(PM10),60,70,43,33,14,9,,90,65,36,12,9,9,0.9,0.7
2025-09-03T2100,3239A,125.0764,42.9078,辽源市,银鹰制药,,41,41,34,23,16,19,,87,61,43,24,10,10,0.6,0.6
2025-09-03T2100,1625A,115.9848,36.4372,聊城市,区政府,,36,25,41,16,27,114,,119,119,11,17,8,11,0.6,0.8
2025-09-03T2100,2878A,116.0072,36.4343,聊城市,聊大东校,,37,19,41,9,26,118,,124,124,11,18,8,11,0.4,0.6
2025-09-03T2100,3200A,115.9819,36.4978,聊城市,监控中心,,34,34,47,3,23,108,,130,130,13,31,8,10,0.6,0.9
2025-09-03T2100,3513A,116.0445,36.4361,聊城市,九州社区,,36,23,46,11,25,115,,123,123,10,18,4,6,0.4,0.5
2025-09-03T2100,4018A,116.0567,36.4608,聊城市,星美广场,,35,28,46,13,27,110,,124,124,9,16,6,8,0.7,0.8
2025-09-03T2100,2632A,94.3681,29.6376,林芝市,林芝监测站,,,10,7,6,4,47,,49,49,2,4,3,9,,0.4
2025-09-03T2100,2633A,94.3616,29.6616,林芝市,林芝人民医院,,14,10,10,6,5,44,,47,47,2,5,5,5,0.3,0.3
2025-09-03T2100,2603A,100.0781,23.8982,临沧市,市环保局,细颗粒物(PM2.5),62,,18,44,24,28,,46,40,8,8,3,5,0.5,0.4
2025-09-03T2100,2604A,100.0894,23.8822,临沧市,市气象局,,,14,14,3,14,,,37,35,7,8,9,8,0.5,0.5
2025-09-03T2100,1733A,111.5531,36.0783,临汾市,临钢医院,,25,16,28,3,9,80,,87,86,11,11,3,3,0.7,0.7
2025-09-03T2100,1734A,111.5028,36.0714,临汾市,技工学校,,28,,24,19,21,77,,92,88,12,9,4,5,0.5,0.6
2025-09-03T2100,1736A,111.5018,36.0855,临汾市,市委,,38,38,34,3,9,80,,100,95,14,11,4,4,0.6,0.6
2025-09-03T2100,3018A,111.505,36.1014,临汾市,唐尧大酒店,,48,48,38,3,11,72,,95,89,15,10,5,5,0.7,0.6
2025-09-03T2100,4244A,111.4879,36.0530,临汾市,启星学校,,39,,25,27,23,85,,96,94,12,11,4,3,0.6,0.6
2025-09-03T2100,4271A,103.2464,35.6123,临夏回族自治州,滨河东路1号,颗粒物(PM10),55,60,51,27,24,14,,75,68,39,13,7,8,0.4,0.3
2025-09-03T2100,4310A,103.2093,35.5995,临夏回族自治州,新华街21号,颗粒物(PM10),57,64,49,35,25,72,,82,82,14,13,6,6,0.3,0.4
2025-09-03T2100,1618A,118.3429,35.0532,临沂市,沂河小区,,39,39,30,22,20,83,,98,92,20,18,9,9,0.4,0.5
2025-09-03T2100,1619A,118.295,35.0583,临沂市,鲁南制药厂,,31,31,26,16,17,98,,106,99,14,14,8,9,0.6,0.6
2025-09-03T2100,1620A,118.2794,34.9976,临沂市,新光毛纺厂,,27,27,19,14,15,86,,101,95,17,14,7,8,0.4,0.5
2025-09-03T2100,1621A,118.3956,35.0888,临沂市,河东保险公司,,29,29,28,13,14,73,,97,89,26,19,7,7,0.3,0.4
2025-09-03T2100,3370A,118.3564,35.0215,临沂市,十里堡居委,,29,29,26,17,16,77,,103,95,22,18,10,10,0.4,0.5
2025-09-03T2100,3496A,118.3604,35.1084,临沂市,南坊新区,,,34,32,12,14,,,103,97,17,20,8,9,0.5,0.5
2025-09-03T2100,3860A,118.3920,35.0300,临沂市,皇山花园小区,,29,29,32,20,18,72,,98,89,24,20,10,10,0.4,0.4
2025-09-03T2100,1870A,109.4856,24.3895,柳州市,柳东小学,,25,15,21,12,12,78,,87,86,6,10,4,5,0.3,0.3
2025-09-03T2100,1871A,109.4157,24.3277,柳州市,环保监测站,,,19,21,11,12,,,76,76,14,10,7,7,0.5,0.3
2025-09-03T2100,1872A,109.389,24.341,柳州市,河西水厂,,31,31,28,9,12,74,,79,78,9,10,5,5,0.5,0.5
2025-09-03T2100,1873A,109.4311,24.2921,柳州市,市四中,,21,21,23,10,12,61,,76,75,16,13,7,7,0.5,0.7
2025-09-03T2100,1874A,109.4006,24.3631,柳州市,市九中,,,28,25,,11,72,,78,77,8,9,3,3,0.4,0.4
2025-09-03T2100,1875A,109.4958,24.3134,柳州市,古亭山,,32,32,22,16,10,34,,81,73,27,12,6,6,0.4,0.4
2025-09-03T2100,3402A,109.5422,24.3996,柳州市,市二中,,21,,20,11,12,65,,86,83,13,13,36,9,0.5,0.5
2025-09-03T2100,2307A,116.5079,31.737,六安市,监测大楼,,27,23,20,16,14,86,,106,98,5,11,4,4,0.3,0.5
2025-09-03T2100,2308A,116.4738,31.7643,六安市,皖西学院,,28,22,26,16,13,89,,117,109,5,7,3,3,0.3,0.3
2025-09-03T2100,2309A,116.4996,31.7905,六安市,朝阳厂,,25,21,21,14,15,79,,108,100,12,16,6,7,0.4,0.4
2025-09-03T2100,2310A,116.5567,31.7886,六安市,开发区,,,17,9,16,18,,,99,92,8,26,2,2,0.5,0.5
2025-09-03T2100,2576A,104.8,26.5892,六盘水市,窑上,,41,41,25,7,6,63,,77,76,7,4,5,6,0.4,0.3
2025-09-03T2100,2577A,104.83,26.5917,六盘水市,黄土坡,,28,21,17,19,11,71,,77,77,9,8,5,6,0.3,0.3
2025-09-03T2100,2578A,104.89,26.5939,六盘水市,水钢,,32,,24,22,16,72,,79,79,4,5,7,7,0.2,0.2
2025-09-03T2100,2579A,104.8475,26.5894,六盘水市,民中,,23,16,14,9,8,71,,78,78,6,5,2,2,0.4,0.3
2025-09-03T2100,2580A,104.9544,26.5506,六盘水市,双水,,,17,16,13,8,,,77,77,8,6,3,3,0.2,0.1
2025-09-03T2100,2335A,117.0189,25.1181,龙岩市,龙岩师专,,,,,,,,,,,,,,,,
2025-09-03T2100,2336A,117.0217,25.1033,龙岩市,龙岩市监测站,,31,31,24,20,15,27,,83,67,19,15,8,8,0.7,0.6
2025-09-03T2100,2337A,117.0258,25.0661,龙岩市,闽西职业技术学院,,18,13,27,12,13,27,,83,66,17,14,18,11,0.5,0.5
2025-09-03T2100,2338A,117.0196,25.0306,龙岩市,龙岩学院,,23,,23,16,12,30,,77,61,7,10,4,4,0.5,0.5
2025-09-03T2100,2665A,105.0822,33.3261,陇南市,汉王镇固水子,,,,,,,,,,,,,,,,
2025-09-03T2100,2885A,104.9339,33.3826,陇南市,滨江中学,颗粒物(PM10),68,85,48,41,19,48,,70,70,12,11,8,8,0.7,0.7
2025-09-03T2100,3247A,104.955,33.371,陇南市,市总工会,颗粒物(PM10),58,66,62,23,18,54,,69,69,9,13,6,6,0.3,0.3
2025-09-03T2100,2487A,111.9589,27.8901,娄底市,电视发射台,,42,42,40,17,17,37,,98,77,7,8,4,6,0.4,0.7
2025-09-03T2100,2488A,111.9975,27.725,娄底市,市监测站,,25,,28,17,15,73,,94,89,10,14,7,7,0.4,0.6
2025-09-03T2100,2489A,112.0194,27.7314,娄底市,市委党校,,36,34,23,25,18,54,,94,86,17,12,4,6,0.3,0.7
2025-09-03T2100,2490A,111.9561,27.7569,娄底市,涟钢,,34,34,33,8,16,31,,84,75,22,13,3,5,1.3,1
2025-09-03T2100,2491A,111.9892,27.7044,娄底市,市政府,,36,,22,25,14,51,,100,91,16,6,6,7,0.7,0.7
2025-09-03T2100,1893A,105.4324,28.9634,泸州市,九狮山,细颗粒物(PM2.5),62,60,60,44,36,71,,123,115,16,8,6,6,0.5,0.4
2025-09-03T2100,1894A,105.4427,28.9063,泸州市,小市上码头,,,44,36,29,24,77,,80,79,10,9,,5,0.7,0.6
2025-09-03T2100,1895A,105.4241,28.8573,泸州市,兰田宪桥,,,116,43,50,25,80,,127,121,,11,5,8,0.6,0.5
2025-09-03T2100,1896A,105.4379,28.8833,泸州市,市环监站,,40,38,36,28,27,94,,113,110,16,11,5,5,0.5,0.4
2025-09-03T2100,4272A,105.3689,28.7783,泸州市,纳溪中医医院,,44,44,37,28,23,78,,127,121,39,17,3,3,0.6,0.5
2025-09-03T2100,2183A,111.1406,37.5211,吕梁市,环保局,,28,28,26,17,17,71,,102,86,27,17,3,4,0.6,0.6
2025-09-03T2100,2185A,111.1297,37.5136,吕梁市,自来水公司,,47,47,30,17,14,70,,98,85,25,16,4,3,0.6,0.5
2025-09-03T2100,2867A,111.1283,37.51,吕梁市,马茂庄小学,,,,30,20,14,,,100,91,19,19,3,4,0.6,0.6
2025-09-03T2100,1812A,112.3931,34.6516,洛阳市,市委党校,,28,18,26,12,17,89,,105,100,11,14,5,7,0.5,0.5
2025-09-03T2100,1815A,112.494,34.6886,洛阳市,河南林校,,27,23,32,15,19,86,,114,106,18,18,5,6,0.3,0.4
2025-09-03T2100,1816A,112.3844,34.623,洛阳市,开发区管委会,,31,14,25,12,18,99,,123,117,8,9,3,4,0.5,0.5
2025-09-03T2100,1817A,112.4267,34.6258,洛阳市,市委新办公区,,26,19,27,14,21,82,,106,99,12,12,6,7,0.5,0.5
2025-09-03T2100,3340A,112.6005,34.6326,洛阳市,伊滨,,29,,30,17,19,91,,106,104,12,18,8,8,0.4,0.5
2025-09-03T2100,3341A,112.4951,34.6332,洛阳市,中移产业园,,27,20,30,16,20,86,,106,100,13,17,7,7,0.4,0.6
2025-09-03T2100,3593A,112.5736,34.8993,洛阳市,吉利监测站,,34,34,31,15,19,70,,100,90,11,11,4,4,0.6,0.6
2025-09-03T2100,3635A,112.3677,34.662,洛阳市,河科大西苑校区,,,14,25,6,14,,,113,111,15,17,7,7,0.5,0.5
2025-09-03T2100,3636A,112.4388,34.6781,洛阳市,英才小学,,,,33,16,21,,,112,108,12,15,6,7,0.4,0.6
2025-09-03T2100,4214A,112.4600,34.6949,洛阳市,春都路1号院,,29,16,28,8,12,91,,110,104,9,10,7,8,0.7,0.7
2025-09-03T2100,2399A,114.051,33.5699,漯河市,三五一五工厂,,26,,43,10,24,81,,93,86,6,14,5,6,0.5,0.7
2025-09-03T2100,2400A,114.0055,33.5698,漯河市,漯河大学,,28,15,38,7,21,89,,95,88,6,12,4,5,0.5,0.7
2025-09-03T2100,2401A,114.0138,33.5828,漯河市,市水利局,,,,45,,26,,,90,84,6,13,5,6,0.4,0.6
2025-09-03T2100,2402A,114.0261,33.5698,漯河市,市广电局,,29,12,37,8,29,92,,100,93,4,10,3,3,0.4,0.6
2025-09-03T2100,3478A,113.9749,33.5664,漯河市,市图书馆,,28,7,40,3,25,87,,91,86,7,12,4,5,0.4,0.5
2025-09-03T2100,4250A,114.0892,33.5882,漯河市,韶山路11号,,24,14,40,9,25,76,,91,85,9,17,4,4,0.6,0.7
2025-09-03T2100,1798A,118.5092,31.6837,马鞍山市,湖东路四小,,43,32,30,30,16,103,,142,128,18,13,7,7,0.7,0.7
2025-09-03T2100,1799A,118.5024,31.6449,马鞍山市,开发区,,36,36,31,24,17,115,,141,130,15,19,8,9,0.8,0.8
2025-09-03T2100,1802A,118.6245,31.7241,马鞍山市,濮塘,,36,31,26,25,17,84,,162,144,13,9,7,9,1.0,1
2025-09-03T2100,3633A,118.4918,31.6809,马鞍山市,雨山,,37,37,27,22,15,99,,131,117,21,15,7,9,0.7,0.6
2025-09-03T2100,4191A,118.5274,31.72227,马鞍山市,慈湖高新区,,,42,29,24,18,,,140,126,22,20,8,10,0.7,0.5
2025-09-03T2100,1686A,111.0286,21.4688,茂名市,电白南海,,13,12,22,7,11,39,,48,45,9,10,4,5,0.4,0.5
2025-09-03T2100,1687A,110.9294,21.6533,茂名市,茂石化七小,,17,17,17,7,8,32,,58,51,9,8,5,8,0.6,0.6
2025-09-03T2100,1688A,110.9107,21.6687,茂名市,健康路,,14,14,12,7,8,31,,59,52,10,9,5,7,0.7,0.7
2025-09-03T2100,1689A,110.8592,21.6828,茂名市,高岭,,27,27,28,7,5,24,,53,44,15,13,7,15,0.6,0.5
2025-09-03T2100,3450A,111.01,21.5165,茂名市,电白水东,,14,7,13,3,6,44,,47,46,9,12,4,8,0.4,0.5
2025-09-03T2100,2539A,104.0308,30.0478,眉山市,黑龙滩水库,,29,21,33,19,26,92,,120,119,5,9,3,3,0.3,0.4
2025-09-03T2100,2540A,103.8416,30.0874,眉山市,气象局,,,100,57,51,33,,,150,150,37,21,8,9,0.7,0.4
2025-09-03T2100,3137A,103.8578,30.0744,眉山市,市委党校,颗粒物(PM10),53,56,47,31,27,92,,133,130,23,18,8,9,0.6,0.6
2025-09-03T2100,3148A,103.8291,30.0564,眉山市,区人社局,颗粒物(PM10),61,72,61,36,25,112,,137,135,20,21,14,15,0.8,0.8
2025-09-03T2100,1690A,116.1231,24.3284,梅州市,梅江月梅,,,,27,,19,,,94,82,15,13,9,8,0.6,0.6
2025-09-03T2100,1691A,116.0797,24.2719,梅州市,梅县新城,,14,12,29,3,17,44,,84,72,7,13,7,8,0.5,0.6
2025-09-03T2100,1692A,116.1248,24.2654,梅州市,环境监控中心,,25,25,26,12,17,34,,80,65,13,12,4,6,0.4,0.4
2025-09-03T2100,3315A,116.1233,24.2991,梅州市,梅龙,,19,19,22,6,27,35,,81,67,12,9,8,8,0.7,0.7
2025-09-03T2100,1878A,104.7778,31.4741,绵阳市,富乐山,颗粒物(PM10),53,55,33,23,18,30,,61,58,8,11,8,9,0.6,0.6
2025-09-03T2100,1880A,104.6697,31.4668,绵阳市,高新区自来水公司,颗粒物(PM10),52,54,41,17,17,31,,62,60,28,22,8,8,0.5,0.6
2025-09-03T2100,1881A,104.7287,31.5075,绵阳市,三水厂,颗粒物(PM10),52,54,39,25,21,25,,62,60,30,20,10,11,0.5,0.5
2025-09-03T2100,3491A,104.69,31.5322,绵阳市,西科大附属小学,,,54,47,19,23,,,67,67,18,22,9,9,0.4,1.1
2025-09-03T2100,3492A,104.5648,31.5343,绵阳市,安州区旅游局,,48,48,37,22,25,46,,64,64,14,15,8,10,0.4,0.5
2025-09-03T2100,4226A,104.7651,31.4531,绵阳市,绵阳市气象局,颗粒物(PM10),51,52,35,19,18,44,,58,58,14,15,8,8,0.4,0.4
2025-09-03T2100,1784A,129.61,44.561,牡丹江市,环保大楼,,47,47,28,21,16,8,,77,54,34,19,4,4,0.5,0.4
2025-09-03T2100,1785A,129.6115,44.5782,牡丹江市,文化广场,颗粒物(PM10),52,53,25,32,18,13,,78,59,40,19,5,5,0.7,0.5
2025-09-03T2100,1786A,129.5904,44.5963,牡丹江市,第一医院,,,47,31,38,18,,,78,60,36,20,8,8,,0.3
2025-09-03T2100,1787A,129.6364,44.6075,牡丹江市,机车工厂,颗粒物(PM10),52,54,35,14,15,21,,76,53,19,18,7,7,0.5,0.5
2025-09-03T2100,1788A,129.6386,44.5462,牡丹江市,第一中学,,35,35,27,19,14,5,,81,48,20,18,3,5,0.4,0.3
2025-09-03T2100,2531A,105.0703,29.61,内江市,市监测站,,36,36,30,24,27,77,,129,122,9,10,7,6,0.8,0.8
2025-09-03T2100,2532A,105.0717,29.5947,内江市,东兴区政府,,39,39,31,21,19,80,,121,118,10,11,5,5,0.6,0.7
2025-09-03T2100,2533A,105.0653,29.5817,内江市,内江二中,,38,37,29,26,31,78,,119,116,12,11,2,3,0.7,0.7
2025-09-03T2100,2534A,105.0406,29.5822,内江市,内江日报社,,34,34,27,22,27,82,,132,128,16,11,5,5,0.6,0.6
2025-09-03T2100,2628A,92.0657,31.4846,那曲市,那曲监测站,,,,16,,11,,,60,,,13,,18,,0.4
2025-09-03T2100,4243A,92.0515,31.4787,那曲市,那曲市委宣传部,,29,29,15,12,7,58,,83,80,21,8,4,4,0.5,0.4
2025-09-03T2100,1290A,115.8931,28.6843,南昌市,省外办,,40,40,31,27,23,61,,116,106,11,5,6,7,0.8,0.7
2025-09-03T2100,1291A,115.8886,28.7003,南昌市,省林业公司,,41,41,37,17,19,60,,121,109,16,11,3,5,0.6,0.6
2025-09-03T2100,1292A,115.8126,28.7442,南昌市,林科所,,25,19,24,12,16,80,,122,110,3,15,5,6,0.7,0.6
2025-09-03T2100,1294A,115.8518,28.687,南昌市,建工学校,颗粒物(PM10),53,56,35,3,15,73,,119,110,24,18,7,8,0.8,0.7
2025-09-03T2100,1295A,115.8921,28.6424,南昌市,象湖,,30,30,26,19,14,83,,125,114,22,15,8,9,0.7,0.6
2025-09-03T2100,1296A,115.7423,28.7996,南昌市,武术学校,,46,46,22,8,11,17,,85,49,10,9,8,9,0.6,0.6
2025-09-03T2100,3046A,115.9084,28.6062,南昌市,机电学校,,42,42,36,22,19,67,,118,103,22,14,10,8,0.6,0.5
2025-09-03T2100,3690A,115.9721,28.7031,南昌市,外国语学校,,40,40,35,18,18,79,,117,104,15,14,7,8,0.4,0.6
2025-09-03T2100,4192A,115.9316,28.68677,南昌市,南京东路235号,,39,39,38,25,19,72,,116,106,20,14,10,11,0.9,0.8
2025-09-03T2100,1905A,106.056,30.8064,南充市,西山风景区,,,,,,,,,,,,,,,,
2025-09-03T2100,1906A,106.0789,30.8023,南充市,南充市委,,25,25,16,17,11,50,,58,58,10,9,3,3,0.5,0.4
2025-09-03T2100,1907A,106.1031,30.8217,南充市,南充炼油厂,,27,27,21,15,11,53,,61,61,5,6,4,5,0.2,0.2
2025-09-03T2100,4227A,106.1083,30.7884,南充市,梨树横街98号,,21,21,17,14,14,65,,73,73,4,6,3,3,0.3,0.3
2025-09-03T2100,4304A,106.1172,30.843,南充市,清泉寺北路188号,,25,23,19,17,10,56,,62,62,6,6,4,4,0.3,0.3
2025-09-03T2100,4305A,106.067,30.7616,南充市,同庆路1号,,,27,17,12,9,,,66,66,10,9,4,4,0.5,0.4
2025-09-03T2100,1151A,118.8086,32.1065,南京市,迈皋桥,,29,29,23,19,20,47,,110,96,39,20,4,3,0.6,0.6
2025-09-03T2100,1152A,118.7538,32.0551,南京市,草场门,,32,31,28,22,20,88,,151,137,21,13,5,4,0.8,0.8
2025-09-03T2100,1153A,118.7794,32.0745,南京市,山西路,,46,46,32,17,14,98,,155,141,21,13,4,4,0.6,0.6
2025-09-03T2100,1154A,118.7752,32.0023,南京市,中华门,,31,24,23,17,17,97,,158,144,15,11,5,4,0.8,0.8
2025-09-03T2100,1155A,118.8109,32.0309,南京市,瑞金路,,31,24,23,19,19,97,,160,146,5,8,7,6,0.4,0.5
2025-09-03T2100,1156A,118.7997,32.0754,南京市,玄武湖,,29,29,32,14,12,88,,146,130,12,10,4,4,0.6,0.5
2025-09-03T2100,1157A,118.6414,32.0931,南京市,浦口,,36,36,30,18,15,86,,132,118,13,12,5,6,0.7,0.6
2025-09-03T2100,1158A,118.7356,31.9996,南京市,奥体中心,,39,39,30,17,18,112,,149,137,16,15,7,6,0.6,0.5
2025-09-03T2100,1159A,118.9125,32.1028,南京市,仙林大学城,,36,36,32,14,15,78,,169,146,23,11,6,7,0.8,0.8
2025-09-03T2100,3422A,118.8436,31.9198,南京市,江宁彩虹桥,,35,35,24,14,18,109,,170,160,22,17,4,4,0.6,0.6
2025-09-03T2100,3427A,118.8554,32.3578,南京市,六合雄州,,,50,32,18,18,71,,128,107,18,17,6,5,,1.2
2025-09-03T2100,4249A,118.8708,31.3402,南京市,汶溪路181号,,34,,13,22,13,108,,122,122,10,8,7,6,0.7,0.6
2025-09-03T2100,4312A,119.019,31.6512,南京市,中山西路1号,,,,20,23,15,,,123,117,22,16,4,4,0.7,0.7
2025-09-03T2100,1401A,108.3103,22.7881,南宁市,二十一中,,,30,21,13,12,,,75,75,12,10,6,5,0.6,0.5
2025-09-03T2100,1402A,108.3141,22.8528,南宁市,北湖,,24,24,20,14,9,63,,95,93,10,8,2,2,0.6,0.4
2025-09-03T2100,1403A,108.3206,22.8225,南宁市,市监测站,,20,15,23,14,14,64,,88,86,10,7,3,4,0.4,0.4
2025-09-03T2100,1404A,108.3829,22.8037,南宁市,大自然花园,,30,30,21,19,14,66,,82,81,8,7,5,5,0.5,0.4
2025-09-03T2100,1405A,108.4394,22.7904,南宁市,仙葫,,24,24,19,11,12,64,,76,74,6,7,3,5,0.5,0.5
2025-09-03T2100,1406A,108.2397,22.8467,南宁市,区农职院,,22,22,22,14,12,67,,108,105,15,13,6,6,0.3,0.3
2025-09-03T2100,1407A,108.3275,22.735,南宁市,英华嘉园,,23,23,21,14,13,54,,74,72,18,12,4,2,0.4,0.4
2025-09-03T2100,3401A,108.4834,22.7618,南宁市,红星社区,,35,30,22,24,17,63,,79,78,11,11,3,2,0.5,0.4
2025-09-03T2100,4221A,108.2177,22.7774,南宁市,乐贤路16号,,25,21,26,17,14,44,,84,80,25,17,3,5,0.4,0.4
2025-09-03T2100,2331A,118.0966,26.6761,南平市,茫荡山,,,,16,,12,,,78,,,,,2,,0.3
2025-09-03T2100,2332A,118.1681,26.6369,南平市,南平市监测站,,18,18,20,11,14,35,,88,73,16,10,5,6,0.5,0.6
2025-09-03T2100,2333A,118.1825,26.6489,南平市,南平铝业有限公司,,17,17,21,10,14,45,,89,74,16,11,4,6,0.8,0.7
2025-09-03T2100,2334A,118.1756,26.6272,南平市,南平七中,,16,,21,11,14,32,,87,72,14,9,3,4,0.9,0.9
2025-09-03T2100,1168A,120.9098,31.9663,南通市,狼山街道,,25,18,21,13,15,77,,162,138,14,21,3,4,0.6,0.6
2025-09-03T2100,1169A,120.86,32.0005,南通市,虹桥,,27,22,25,15,18,86,,175,148,18,25,3,5,0.6,0.8
2025-09-03T2100,1170A,120.87,32.02,南通市,城中,,31,31,28,12,14,72,,133,116,20,23,4,6,0.7,0.7
2025-09-03T2100,1171A,120.94,31.93,南通市,星湖花园,,23,21,20,13,15,71,,134,115,16,21,2,3,0.4,0.5
2025-09-03T2100,1172A,120.81,32.0417,南通市,紫琅学院,,23,21,24,10,15,72,,160,137,22,28,3,5,0.8,0.9
2025-09-03T2100,3291A,121.067,32.062,南通市,通州监测站,,28,19,18,19,14,80,,147,129,15,13,2,2,0.6,0.6
2025-09-03T2100,3432A,120.9348,31.9883,南通市,环境教育馆,,25,22,29,12,14,78,,166,133,23,26,3,5,0.3,0.3
2025-09-03T2100,2404A,112.5224,33.0122,南阳市,瓦房庄,,24,23,43,9,18,76,,102,90,6,9,7,8,0.5,0.6
2025-09-03T2100,2405A,112.5003,32.9735,南阳市,汉画馆,,23,21,44,6,19,71,,99,86,8,11,8,8,0.6,0.7
2025-09-03T2100,2406A,112.5573,33.027,南阳市,气象站,,24,14,39,9,20,76,,102,90,8,13,7,8,0.5,0.6
2025-09-03T2100,2407A,112.5481,32.9689,南阳市,理工学院,,26,26,45,3,14,75,,100,89,6,11,8,9,0.5,0.5
2025-09-03T2100,4008A,112.5234,32.9922,南阳市,卧龙区政府,,23,19,42,14,23,71,,97,85,9,12,6,6,0.6,0.6
2025-09-03T2100,1234A,121.8358,29.911,宁波市,区环保大楼,,16,9,17,6,6,49,,58,53,7,13,4,5,0.3,0.3
2025-09-03T2100,1235A,121.56,29.82,宁波市,万里学院,,16,16,16,9,11,46,,71,60,7,12,6,6,0.4,0.5
2025-09-03T2100,1236A,121.713,29.9572,宁波市,龙赛医院,,15,12,21,6,8,48,,61,49,7,16,4,6,0.3,0.3
2025-09-03T2100,1239A,121.633,29.7733,宁波市,钱湖水厂,,13,11,17,3,10,41,,59,52,6,8,6,6,0.4,0.5
2025-09-03T2100,1240A,121.5856,29.8635,宁波市,太古小学,,15,15,19,7,9,42,,68,57,7,11,2,3,0.4,0.5
2025-09-03T2100,1241A,121.524,29.8674,宁波市,市环境监测中心,,17,17,15,9,6,41,,68,57,10,14,5,7,0.5,0.6
2025-09-03T2100,2871A,121.6147,29.9017,宁波市,万里国际学校,,21,21,23,8,15,48,,70,58,6,11,4,4,0.4,0.4
2025-09-03T2100,3710A,121.5594,29.8975,宁波市,白沙活动中心,,15,14,14,7,6,48,,75,64,8,14,6,6,0.3,0.4
2025-09-03T2100,2339A,119.5001,26.6946,宁德市,金涵水库,,,,32,,15,,,35,,,4,,1,,1.0
2025-09-03T2100,2341A,119.5388,26.6612,宁德市,宁德市监测站,,25,25,23,12,15,78,,105,99,11,10,5,4,0.9,0.7
2025-09-03T2100,3209A,119.5231,26.6562,宁德市,宁德一中,,30,30,23,17,17,77,,107,101,9,7,6,4,0.7,0.5
2025-09-03T2100,2618A,98.8601,25.8567,怒江傈僳族自治州,州监测站,,32,32,21,21,13,35,,63,62,13,7,5,5,0.5,0.4
2025-09-03T2100,2619A,98.8546,25.8417,怒江傈僳族自治州,泸水一中,,16,16,17,3,10,20,,50,47,20,10,4,4,0.7,0.5
2025-09-03T2100,1888A,101.6891,26.571,攀枝花市,弄弄坪,,42,42,36,22,13,35,,78,68,24,19,3,10,0.9,1.2
2025-09-03T2100,1889A,101.5769,26.5928,攀枝花市,河门口,,29,29,24,16,12,45,,81,72,16,13,12,14,1.0,1
2025-09-03T2100,1890A,101.7169,26.585,攀枝花市,炳草岗,,18,,37,12,15,54,,77,71,10,22,5,8,0.6,0.9
2025-09-03T2100,1891A,101.7369,26.5008,攀枝花市,仁和,细颗粒物(PM2.5),69,64,21,50,13,32,,64,59,20,10,9,8,1.0,0.7
2025-09-03T2100,2835A,101.7227,26.567,攀枝花市,四十中小,,27,27,32,11,13,49,,74,68,16,17,8,18,0.8,1
2025-09-03T2100,1604A,122.0303,41.1489,盘锦市,开发区,细颗粒物(PM2.5),68,50,36,49,36,72,,108,102,27,13,8,8,0.6,0.7
2025-09-03T2100,1605A,122.0485,41.0883,盘锦市,兴隆台,,50,49,38,35,27,67,,110,104,35,16,6,6,0.9,0.8
2025-09-03T2100,1606A,121.8297,41.1028,盘锦市,新生街道,细颗粒物(PM2.5),53,,36,37,27,57,,123,101,25,11,4,4,0.7,0.8
2025-09-03T2100,1832A,113.3257,33.742,平顶山市,新华旅馆,,27,27,48,17,25,85,,82,79,7,14,4,6,0.4,0.6
2025-09-03T2100,1833A,113.2919,33.737,平顶山市,规划设计院,,25,17,35,11,23,80,,83,80,9,14,4,5,0.5,0.7
2025-09-03T2100,1834A,113.182,33.774,平顶山市,平顶山工学院,,28,15,36,3,19,88,,86,86,7,15,5,6,0.4,0.5
2025-09-03T2100,3204A,113.3025,33.73,平顶山市,规划局,,26,,38,18,21,82,,90,83,10,14,4,5,0.4,0.5
2025-09-03T2100,3594A,112.8867,33.9116,平顶山市,石龙区,,20,14,44,14,21,59,,91,88,18,12,10,5,0.6,0.7
2025-09-03T2100,2656A,106.6692,35.5461,平凉市,聚贤嘉苑,颗粒物(PM10),52,54,79,19,31,36,,98,86,46,20,19,9,0.6,0.6
2025-09-03T2100,2657A,106.7021,35.5307,平凉市,博物馆,颗粒物(PM10),51,51,83,22,28,64,,97,90,23,18,8,9,0.5,0.6
2025-09-03T2100,2347A,114.0997,27.5002,萍乡市,武功山,,10,6,11,3,6,32,,69,59,3,3,11,11,0.2,0.2
2025-09-03T2100,2348A,113.8385,27.6434,萍乡市,中医院,,32,32,26,20,15,43,,106,86,25,17,11,15,0.8,1.1
2025-09-03T2100,2349A,113.8493,27.6253,萍乡市,市政府车库,,24,24,22,14,19,40,,94,77,6,9,9,10,0.5,1.1
2025-09-03T2100,2350A,113.8676,27.6435,萍乡市,市环保局,,,26,27,,15,,,100,87,16,13,5,9,0.7,1.2
2025-09-03T2100,2351A,113.866,27.6198,萍乡市,安源区政府,,29,29,26,18,16,33,,95,77,11,12,17,18,0.6,1.3
2025-09-03T2100,2319A,119.0141,25.4325,莆田市,荔城区仓后路,细颗粒物(PM2.5),83,,37,61,28,120,,157,153,16,12,8,7,1.1,0.8
2025-09-03T2100,2320A,119.0015,25.4553,莆田市,莆田市监测站,细颗粒物(PM2.5),70,,35,51,30,110,,160,154,12,10,6,6,0.6,0.6
2025-09-03T2100,2321A,119.1119,25.4561,莆田市,涵江区六中,细颗粒物(PM2.5),73,,30,53,24,147,,153,151,10,11,6,5,0.5,0.5
2025-09-03T2100,2322A,119.1013,25.3215,莆田市,秀屿区政府,,46,35,28,26,23,145,,164,160,7,9,6,6,0.5,0.5
2025-09-03T2100,2323A,118.981,25.4792,莆田市,东圳水库,,,,34,,28,,,103,,,9,,3,,1.0
2025-09-03T2100,2392A,115.0312,35.7636,濮阳市,环保局,,25,,35,10,33,77,,98,81,11,14,3,11,0.6,0.7
2025-09-03T2100,2394A,115.0574,35.7609,濮阳市,油田运输公司,,,,54,,36,,,93,90,19,17,3,11,,0.8
2025-09-03T2100,3021A,115,35.7668,濮阳市,濮水河管理处,,19,19,42,9,26,26,,63,52,19,22,3,5,0.4,0.4
2025-09-03T2100,4216A,115.0924,35.7686,濮阳市,任丘路479号,,33,33,65,10,40,58,,92,88,24,17,4,10,0.8,0.8
2025-09-03T2100,2601A,100.98,22.7633,普洱市,市环保局,,,50,26,14,15,,,44,44,8,4,6,6,0.5,0.5
2025-09-03T2100,2602A,100.9817,22.8322,普洱市,普洱第二中学,,28,26,25,19,11,20,,48,43,8,7,6,6,0.4,0.4
2025-09-03T2100,2262A,131.0518,45.8751,七台河市,新一中,,36,36,23,25,13,60,,120,97,20,15,12,10,0.9,0.9
2025-09-03T2100,3345A,131.0577,45.7879,七台河市,中波台,,,36,24,7,6,75,,105,87,,24,5,32,,0.9
2025-09-03T2100,3637A,131.0176,45.7761,七台河市,人民广场,,40,40,23,12,13,69,,94,85,12,14,11,11,0.7,0.7
2025-09-03T2100,3684A,130.8781,45.8222,七台河市,新建矿广场,,24,24,19,16,10,47,,90,65,21,19,12,10,0.4,0.6
2025-09-03T2100,1779A,123.9305,47.3636,齐齐哈尔市,安居小区,颗粒物(PM10),54,57,38,18,12,63,,63,63,19,15,8,8,0.7,0.6
2025-09-03T2100,1780A,123.9488,47.3386,齐齐哈尔市,中心广场,,,54,30,17,11,,,69,69,17,11,6,6,0.7,0.5
2025-09-03T2100,1781A,123.9483,47.3227,齐齐哈尔市,农牧车辆厂,,41,41,37,17,14,67,,67,67,10,11,7,6,0.4,0.4
2025-09-03T2100,1783A,123.945,47.2988,齐齐哈尔市,市环境监测站,,38,38,25,20,12,66,,71,71,9,8,6,6,0.5,0.5
2025-09-03T2100,3662A,123.6333,47.2075,齐齐哈尔市,富区青少年活动中心,,,129,41,,14,42,,61,59,35,10,14,6,1.0,0.5
2025-09-03T2100,2591A,107.9783,26.5747,黔东南苗族侗族自治州,市环境监测站,,19,14,16,13,13,47,,56,54,5,3,3,2,0.3,0.2
2025-09-03T2100,2881A,107.8908,26.5311,黔东南苗族侗族自治州,凯里学院,,18,12,10,9,10,55,,61,60,5,5,2,2,0.5,0.5
2025-09-03T2100,2593A,107.5228,26.2403,黔南布依族苗族自治州,小围寨,,12,7,8,3,3,38,,50,48,3,3,2,3,0.3,0.3
2025-09-03T2100,3538A,107.5175,26.2978,黔南布依族苗族自治州,沙坝,,14,14,11,3,1,41,,53,49,4,4,3,4,0.0,0.2
2025-09-03T2100,2589A,104.9022,25.0925,黔西南布依族苗族自治州,场坝街,,33,33,16,18,7,54,,59,59,8,6,4,5,0.4,0.3
2025-09-03T2100,2590A,104.8811,25.0992,黔西南布依族苗族自治州,坪东大道,,29,29,18,19,10,52,,56,56,6,5,3,2,0.6,0.5
2025-09-03T2100,2502A,108.6236,21.9667,钦州市,市环保站,,31,31,19,12,6,53,,73,71,16,11,7,4,0.7,0.5
2025-09-03T2100,2503A,108.6549,21.9481,钦州市,沙埠小学,,37,37,27,16,13,23,,75,67,28,13,6,3,0.5,0.4
2025-09-03T2100,2504A,108.5989,21.7431,钦州市,港区一小,,34,34,30,8,9,37,,58,55,26,15,4,4,0.5,0.5
2025-09-03T2100,3404A,108.5959,21.9633,钦州市,北职校,,29,29,21,15,10,46,,72,69,15,10,7,4,1.0,0.6
2025-09-03T2100,1043A,119.7493,40.0116,秦皇岛市,第一关,颗粒物(PM10),60,70,69,37,36,36,,170,149,81,37,5,6,0.5,0.6
2025-09-03T2100,1044A,119.5897,39.9499,秦皇岛市,监测站,,49,49,60,22,24,151,,165,159,10,36,5,7,0.6,0.9
2025-09-03T2100,1046A,119.5251,39.9041,秦皇岛市,建设大厦,,48,48,56,26,20,144,,161,157,4,25,5,6,0.5,0.8
2025-09-03T2100,3132A,119.610547,39.943889,秦皇岛市,文明里,,49,47,66,25,27,154,,160,156,4,21,7,8,0.2,0.6
2025-09-03T2100,4198A,119.5090,39.8253,秦皇岛市,北戴河轮滑馆,,,76,80,39,38,,,160,156,11,14,2,3,0.4,0.7
2025-09-03T2100,1307A,120.6659,36.2403,青岛市,仰口,,30,,12,21,8,77,,113,78,7,5,10,10,0.7,0.6
2025-09-03T2100,1310A,120.4134,36.0658,青岛市,市南区东部子站,,16,9,12,9,8,51,,107,63,9,5,6,6,0.2,0.2
2025-09-03T2100,1311A,120.3664,36.1032,青岛市,四方区子站,,22,17,13,12,11,70,,103,81,7,8,3,3,0.2,0.2
2025-09-03T2100,1312A,120.2994,36.054,青岛市,市南区西部子站,,22,22,16,15,9,63,,128,82,22,12,6,6,0.6,0.6
2025-09-03T2100,1313A,120.4581,36.0858,青岛市,崂山区子站,,,,10,,6,,,126,76,5,6,8,8,0.2,0.2
2025-09-03T2100,1315A,120.3999,36.3083,青岛市,城阳区子站,,29,24,19,20,11,86,,105,89,8,12,3,3,0.4,0.4
2025-09-03T2100,1966A,120.0405,35.8735,青岛市,黄岛区4号,,23,14,14,3,7,73,,120,101,17,11,4,5,0.5,0.5
2025-09-03T2100,3362A,120.5014,36.4034,青岛市,即墨2号,,26,,17,18,12,81,,112,90,5,6,3,4,0.3,0.2
2025-09-03T2100,3642A,120.3503,36.0736,青岛市,市北区南部,,22,13,16,9,8,70,,127,82,14,11,7,6,0.7,0.6
2025-09-03T2100,3643A,120.3948,36.1805,青岛市,李沧区北部,,25,,13,17,14,64,,81,67,5,11,5,5,0.3,0.3
2025-09-03T2100,4290A,120.1969,35.9546,青岛市,珠江路669号,,,19,15,17,13,,,114,80,29,14,7,6,,0.5
2025-09-03T2100,1702A,113.0426,23.691,清远市,环保大楼,颗粒物(PM10),53,56,36,29,23,119,,153,151,24,18,8,9,0.7,0.5
2025-09-03T2100,1703A,113.0208,23.7106,清远市,凤城街办,,46,46,33,28,17,93,,126,124,20,20,8,11,0.6,0.5
2025-09-03T2100,3025A,113.0477,23.6344,清远市,技师学院,,,56,37,31,17,,,157,157,31,25,9,11,0.5,0.6
2025-09-03T2100,3318A,112.9903,23.7403,清远市,清新太和,,30,25,31,12,16,96,,118,116,14,19,10,11,0.4,0.5
2025-09-03T2100,3455A,113.076,23.7198,清远市,清城东城,,34,34,35,18,19,100,,132,130,18,18,7,8,0.6,0.6
2025-09-03T2100,2661A,107.6325,35.7357,庆阳市,庆阳五中,,35,35,95,19,44,70,,79,78,12,9,8,7,0.5,0.5
2025-09-03T2100,2662A,107.6364,35.7067,庆阳市,市环保局,,30,30,92,18,39,75,,82,81,9,8,2,4,0.6,0.7
2025-09-03T2100,1916A,103.7897,25.5035,曲靖市,环境监测站,,25,25,22,6,10,55,,75,74,10,8,5,5,0.4,0.4
2025-09-03T2100,1917A,103.8,25.5364,曲靖市,烟厂办公区,,26,26,21,17,12,63,,77,77,7,6,4,4,0.5,0.6
2025-09-03T2100,3376A,103.7947,25.462,曲靖市,南苑二区,,20,16,18,14,11,60,,75,74,8,8,4,4,0.4,0.4
2025-09-03T2100,3377A,103.7444,25.5261,曲靖市,曲靖师范学院,,26,26,19,12,12,64,,80,80,10,8,2,3,0.4,0.4
2025-09-03T2100,1264A,118.8692,28.9398,衢州市,环保大楼,,47,47,31,26,18,77,,127,118,18,13,5,4,0.7,0.4
2025-09-03T2100,1265A,118.8709,28.9666,衢州市,实验学校,,50,50,27,27,17,58,,130,114,23,15,1,4,0.4,0.5
2025-09-03T2100,1266A,118.8621,28.9808,衢州市,衢州学院,,38,38,26,20,16,45,,140,119,38,18,4,4,0.5,0.4
2025-09-03T2100,1611A,118.5819,24.9117,泉州市,涂山街,,31,31,47,19,36,77,,149,134,16,21,3,4,0.5,0.6
2025-09-03T2100,1612A,118.5972,24.8978,泉州市,津头埔,,40,40,48,20,34,70,,145,132,17,20,3,4,0.6,0.7
2025-09-03T2100,1613A,118.6663,24.9424,泉州市,万安,,32,32,47,15,31,79,,146,136,21,23,2,2,0.5,0.5
2025-09-03T2100,1614A,118.6117,24.9604,泉州市,清源山,,,,51,,31,,,109,,,15,,2,,0.6
2025-09-03T2100,3529A,118.6333,24.9264,泉州市,城华南路,,,29,42,21,35,,,141,139,13,19,2,3,0.4,0.5
2025-09-03T2100,2626A,88.8876,29.2718,日喀则市,日喀则监测站,,22,11,6,3,1,68,,76,76,12,9,12,10,0.2,0.2
2025-09-03T2100,3726A,88.8781,29.2426,日喀则市,林业技术推广中心,,20,11,6,3,0,61,,71,70,3,3,6,6,0.3,0.3
2025-09-03T2100,1659A,119.471,35.4209,日照市,监测站,,22,12,14,6,11,70,,98,86,13,15,6,7,0.5,0.6
2025-09-03T2100,1660A,119.523,35.4216,日照市,市政府广场,,24,12,14,3,7,76,,111,103,8,8,4,6,0.6,0.7
2025-09-03T2100,1661A,119.5587,35.4044,日照市,港务局,,24,,12,12,17,75,,118,107,9,8,5,6,0.7,0.7
2025-09-03T2100,3507A,119.5328,35.4625,日照市,职业技术学院,,24,14,16,3,9,75,,114,107,9,10,4,6,0.6,0.7
2025-09-03T2100,3604A,119.3266,35.1044,日照市,岚山环保分局,,29,29,16,12,5,69,,97,82,27,16,26,18,2.3,1.4
2025-09-03T2100,1835A,111.1922,34.7752,三门峡市,市政府,,34,11,10,6,9,106,,108,108,6,10,5,5,0.5,0.6
2025-09-03T2100,1836A,111.1587,34.7942,三门峡市,开发区,,32,19,12,6,9,102,,103,103,11,11,4,4,0.3,0.3
2025-09-03T2100,1838A,111.143,34.7955,三门峡市,风景区,,35,8,5,3,5,109,,109,109,7,8,4,4,0.6,0.7
2025-09-03T2100,3039A,111.1911,34.7829,三门峡市,三门峡市第一小学,,,20,13,9,5,,,107,107,7,9,4,3,0.5,0.6
2025-09-03T2100,3598A,111.1,34.7167,三门峡市,富达温泉假日酒店,,29,17,11,14,9,91,,95,95,12,14,5,6,0.4,0.4
2025-09-03T2100,2324A,117.6211,26.2625,三明市,三钢,,32,32,26,13,19,26,,83,70,23,16,2,8,0.9,1.2
2025-09-03T2100,2325A,117.635,26.2714,三明市,三明二中,,27,27,29,12,15,26,,79,67,19,13,3,7,0.7,0.6
2025-09-03T2100,2326A,117.6028,26.2378,三明市,三元区政府,,,30,28,16,13,,,80,76,17,13,3,4,0.5,0.4
2025-09-03T2100,2327A,117.7275,26.3108,三明市,洋溪,,,,17,,13,,,58,,,9,,4,,1.0
2025-09-03T2100,1876A,109.5078,18.2489,三亚市,河东子站,,13,12,11,9,5,34,,44,39,4,3,4,3,0.5,0.5
2025-09-03T2100,1877A,109.4964,18.2681,三亚市,河西子站,,15,15,14,3,2,33,,46,40,6,5,3,3,0.2,0.4
2025-09-03T2100,3540A,109.7348,18.3443,三亚市,君悦子站,,21,21,30,3,4,39,,43,42,2,4,3,3,0.2,0.4
2025-09-03T2100,2624A,91.7608,29.2313,山南市,山南监测站,,22,6,7,3,3,68,,78,77,2,6,3,3,0.2,0.2
2025-09-03T2100,2625A,91.7706,29.2436,山南市,山南人民医院,,19,16,9,7,5,58,,75,74,8,5,4,3,0.2,0.2
2025-09-03T2100,1674A,116.6794,23.3667,汕头市,金平子站,,,,26,8,18,58,,97,80,9,12,4,4,0.5,0.7
2025-09-03T2100,1675A,116.7244,23.3633,汕头市,龙湖子站,,20,18,24,7,15,62,,90,77,6,8,7,8,0.5,0.6
2025-09-03T2100,1676A,116.7258,23.2775,汕头市,濠江子站,,21,13,25,6,15,65,,71,71,9,8,6,7,0.6,0.7
2025-09-03T2100,1677A,116.7519,23.4714,汕头市,澄海子站,,,40,43,20,25,,,89,74,12,18,4,7,0.7,0.8
2025-09-03T2100,1678A,116.6092,23.2539,汕头市,潮阳子站,,19,14,24,8,15,58,,76,66,2,5,5,6,0.4,0.5
2025-09-03T2100,3444A,116.454,23.2684,汕头市,潮南峡山,,16,15,31,9,21,50,,78,57,6,11,6,7,0.3,0.4
2025-09-03T2100,3624A,116.4069,23.2533,汕头市,潮南子站,,22,22,32,12,19,46,,64,52,8,10,4,5,0.6,0.6
2025-09-03T2100,1693A,115.3653,22.775,汕尾市,市环保局,,19,,19,3,7,58,,54,52,6,7,3,3,0.4,0.4
2025-09-03T2100,1694A,115.3706,22.7898,汕尾市,市政府,,20,13,12,3,8,61,,52,49,4,7,4,4,0.4,0.3
2025-09-03T2100,1695A,115.3622,22.7925,汕尾市,新城中学,,19,10,14,6,8,58,,50,48,4,7,5,5,0.4,0.4
2025-09-03T2100,2645A,109.9154,33.8715,商洛市,监测站,,16,15,14,11,10,20,,47,39,28,13,3,2,0.7,0.5
2025-09-03T2100,3045A,109.9643,33.8471,商洛市,商州区中学,,18,17,17,12,11,19,,47,38,26,19,8,4,0.5,0.4
2025-09-03T2100,2408A,115.6702,34.4285,商丘市,环境监测站,细颗粒物(PM2.5),54,,37,38,25,80,,86,84,12,12,3,4,0.5,0.5
2025-09-03T2100,2409A,115.6458,34.4045,商丘市,粮食局,,28,28,31,17,13,80,,84,82,12,10,4,4,0.5,0.5
2025-09-03T2100,2410A,115.6293,34.3948,商丘市,睢阳区环保局,,30,30,31,16,15,81,,84,83,9,7,4,4,0.4,0.3
2025-09-03T2100,3171A,115.6071,34.4465,商丘市,梁园区档案局,,27,20,30,17,17,84,,82,81,12,14,4,4,0.6,0.6
2025-09-03T2100,1141A,121.4,31.238,上海市,普陀,,18,17,25,12,17,43,,124,97,20,23,5,5,0.4,0.4
2025-09-03T2100,1142A,121.478,31.2036,上海市,十五厂,,18,18,26,12,18,33,,114,83,18,26,8,9,0.7,0.8
2025-09-03T2100,1143A,121.467,31.3008,上海市,虹口,,,14,25,10,17,30,,98,70,,22,6,6,0.2,0.3
2025-09-03T2100,1147A,121.425,31.2261,上海市,静安监测站,,20,20,25,12,17,46,,126,98,18,24,4,4,0.5,0.6
2025-09-03T2100,1148A,121.703,31.1907,上海市,浦东川沙,,21,21,24,3,13,30,,83,69,22,24,7,7,0.6,0.7
2025-09-03T2100,1149A,121.533,31.2284,上海市,浦东新区监测站,,12,12,23,6,16,37,,108,77,14,25,5,4,0.2,0.4
2025-09-03T2100,1150A,121.577,31.2071,上海市,浦东张江,,23,23,27,9,17,44,,110,85,12,23,5,6,0.7,0.8
2025-09-03T2100,3265A,121.4316,31.3322,上海市,宝山庙行,,26,22,29,18,18,19,,109,68,45,33,7,7,0.4,0.5
2025-09-03T2100,3266A,121.8791,31.4662,上海市,崇明上实东滩,,14,14,14,7,8,38,,82,74,16,11,5,4,0.3,0.3
2025-09-03T2100,3268A,121.3162,31.2838,上海市,嘉定南翔,,28,26,27,19,20,27,,118,90,47,33,4,4,0.4,0.4
2025-09-03T2100,3269A,121.3359,30.7456,上海市,金山新城,,21,13,18,11,14,65,,115,111,10,12,4,4,0.6,0.7
