timepoint,stationcode,longitude,latitude,area,positionname,primarypollutant,aqi,pm10,pm10_24h,pm2_5,pm2_5_24h,o3,o3_24h,o3_8h,o3_8h_24h,no2,no2_24h,so2,so2_24h,co,co_24h
2022-04-07T13:00:00,1001A,116.3621,39.8784,北京市,万寿西宫,颗粒物(PM10),67,84,58,29,14,79,68,40,40,46,37,2,2,0.6,0.4
2022-04-07T13:00:00,1002A,116.2202,40.2915,北京市,定陵(对照点),颗粒物(PM10),66,82,64,23,14,91,67,51,51,26,18,1,2,0.4,0.3
2022-04-07T13:00:00,1003A,116.4174,39.9289,北京市,东四,颗粒物(PM10),70,90,55,30,13,82,62,46,43,44,24,3,2,0.5,0.2
2022-04-07T13:00:00,1004A,116.4072,39.8863,北京市,天坛,颗粒物(PM10),67,84,50,29,16,85,59,41,38,42,24,2,2,0.5,0.3
2022-04-07T13:00:00,1005A,116.462,39.9365,北京市,农展馆,颗粒物(PM10),71,92,56,28,14,82,53,51,37,45,27,3,3,0.4,0.4
2022-04-07T13:00:00,1006A,116.3392,39.9295,北京市,官园,颗粒物(PM10),71,92,58,30,14,79,59,53,33,42,26,4,5,0.6,0.4
2022-04-07T13:00:00,1007A,116.2878,39.9611,北京市,海淀万柳,颗粒物(PM10),73,95,62,32,15,85,56,43,32,39,32,4,3,0.5,0.4
2022-04-07T13:00:00,1008A,116.6636,40.135,北京市,顺义新城,颗粒物(PM10),55,60,59,20,13,79,77,43,43,15,27,3,3,0.3,0.3
2022-04-07T13:00:00,1009A,116.6275,40.3275,北京市,怀柔镇,颗粒物(PM10),53,56,59,15,12,85,84,50,50,15,19,2,2,0.4,0.4
2022-04-07T13:00:00,1010A,116.2296,40.217,北京市,昌平镇,颗粒物(PM10),64,77,67,25,16,90,61,46,46,23,21,2,2,0.4,0.4
2022-04-07T13:00:00,1011A,116.3966,39.9821,北京市,奥体中心,颗粒物(PM10),71,91,57,28,13,84,54,52,36,42,25,2,2,0.5,0.4
2022-04-07T13:00:00,1012A,116.184,39.9136,北京市,古城,颗粒物(PM10),79,108,77,33,18,87,57,34,31,42,32,1,2,0.5,0.4
2022-04-07T13:00:00,1015A,117.1444,39.1661,天津市,勤俭道,颗粒物(PM10),71,91,55,37,16,120,120,76,76,18,28,10,8,0.6,0.5
2022-04-07T13:00:00,1017A,117.237,39.1082,天津市,大直沽八号路,,,91,50,40,17,109,109,73,73,18,28,9,9,,0.5
2022-04-07T13:00:00,1018A,117.202,39.0927,天津市,前进道,颗粒物(PM10),70,90,49,38,16,114,114,75,75,18,26,8,7,0.6,0.5
2022-04-07T13:00:00,1019A,117.1837,39.2133,天津市,淮河道,颗粒物(PM10),74,98,65,41,21,125,123,82,82,19,36,11,9,0.8,0.6
2022-04-07T13:00:00,1021A,117.307,39.0877,天津市,跃进路,颗粒物(PM10),73,96,53,41,16,111,111,74,74,21,31,7,6,0.6,0.5
2022-04-07T13:00:00,1023A,117.707,39.0343,天津市,第四大街,颗粒物(PM10),72,93,52,33,14,83,78,52,52,33,44,9,8,0.7,0.5
2022-04-07T13:00:00,1024A,117.457,38.8394,天津市,永明路,颗粒物(PM10),62,73,44,27,14,109,109,60,60,13,28,12,10,0.6,0.6
2022-04-07T13:00:00,1026A,117.764,39.1587,天津市,汉北路,颗粒物(PM10),70,90,45,32,12,88,64,52,52,41,34,11,8,1.1,0.7
2022-04-07T13:00:00,1027A,117.157,38.9194,天津市,团泊洼(对照点),颗粒物(PM10),65,80,46,37,17,115,115,70,70,21,29,11,10,0.6,0.5
2022-04-07T13:00:00,1029A,114.4422,38.0444,石家庄市,职工医院,颗粒物(PM10),72,94,80,24,30,109,99,58,56,23,32,8,6,0.5,0.4
2022-04-07T13:00:00,1030A,114.6063,38.0266,石家庄市,高新区,,,86,91,25,28,104,88,50,45,,31,11,9,0.9,0.6
2022-04-07T13:00:00,1031A,114.4898,38.1328,石家庄市,西北水源,颗粒物(PM10),84,117,87,32,26,104,97,51,51,27,30,4,3,0.5,0.4
2022-04-07T13:00:00,1032A,114.4586,38.0058,石家庄市,西南高教,颗粒物(PM10),75,99,90,30,29,109,94,53,53,15,27,7,5,0.7,0.5
2022-04-07T13:00:00,1033A,114.5331,38.0178,石家庄市,世纪公园,颗粒物(PM10),66,81,75,31,29,103,90,53,49,22,21,9,8,0.8,0.4
2022-04-07T13:00:00,1034A,114.509,38.0457,石家庄市,人民会堂,,,101,84,41,31,108,99,64,63,,32,9,7,0.7,0.5
2022-04-07T13:00:00,1035A,114.3524,37.8911,石家庄市,封龙山(对照点),颗粒物(PM10),63,76,77,14,22,107,97,100,94,17,14,25,20,0.4,0.3
2022-04-07T13:00:00,1037A,118.131,39.6363,唐山市,雷达站,颗粒物(PM10),54,57,43,27,22,102,102,66,66,8,11,3,5,0.5,0.5
2022-04-07T13:00:00,1038A,118.1725,39.6334,唐山市,物资局,颗粒物(PM10),61,72,40,17,18,99,99,67,67,16,18,6,7,0.4,0.5
2022-04-07T13:00:00,1040A,118.1705,39.6506,唐山市,十二中,颗粒物(PM10),53,56,33,26,18,96,96,65,65,18,18,4,6,0.4,0.4
2022-04-07T13:00:00,1041A,118.1869,39.622,唐山市,小山,颗粒物(PM10),51,51,36,12,17,105,105,72,72,12,13,4,5,0.4,0.4
2022-04-07T13:00:00,1042A,119.5134,39.8207,秦皇岛市,北戴河环保局,,29,22,25,7,10,90,90,69,69,19,18,11,11,1.1,1.1
2022-04-07T13:00:00,1043A,119.7493,40.0116,秦皇岛市,第一关,颗粒物(PM10),66,81,46,14,10,106,106,75,75,12,20,9,10,0.4,0.4
2022-04-07T13:00:00,1044A,119.5897,39.9499,秦皇岛市,监测站,,49,49,46,14,8,94,94,78,78,21,13,6,6,1.0,0.8
2022-04-07T13:00:00,1046A,119.5251,39.9041,秦皇岛市,建设大厦,颗粒物(PM10),51,51,40,11,14,101,99,84,84,20,15,8,7,0.7,0.6
2022-04-07T13:00:00,1048A,114.5302,36.6116,邯郸市,东污水处理厂,细颗粒物(PM2.5),68,76,79,49,31,119,119,47,44,22,22,21,4,0,0.3
2022-04-07T13:00:00,1049A,114.4918,36.5713,邯郸市,矿院,颗粒物(PM10),93,135,89,57,37,120,120,67,57,18,19,14,6,1.7,0.5
2022-04-07T13:00:00,1050A,114.484,36.6133,邯郸市,丛台公园,颗粒物(PM10),89,128,92,51,32,128,128,66,66,23,21,14,7,1.6,0.6
2022-04-07T13:00:00,1051A,115.493,38.8632,保定市,游泳馆,,,87,60,28,18,119,119,62,62,,22,15,9,0.4,0.5
2022-04-07T13:00:00,1053A,115.4713,38.9108,保定市,接待中心,颗粒物(PM10),73,96,55,30,17,109,109,73,73,24,26,13,10,0.7,0.6
2022-04-07T13:00:00,1054A,115.4612,38.8416,保定市,地表水厂,,,,70,,18,124,124,66,66,17,24,,7,0.5,0.5
2022-04-07T13:00:00,1055A,115.4323,38.8697,保定市,胶片厂,颗粒物(PM10),65,80,48,28,17,117,117,69,69,18,20,13,7,0.6,0.6
2022-04-07T13:00:00,1056A,115.5086,38.8639,保定市,监测站,颗粒物(PM10),68,86,64,24,22,113,113,68,68,17,22,13,7,0.6,0.6
2022-04-07T13:00:00,1057A,114.8883,40.8336,张家口市,人民公园,颗粒物(PM10),51,52,51,17,8,134,110,72,72,13,10,6,4,0.3,0.3
2022-04-07T13:00:00,1059A,114.8687,40.8042,张家口市,五金库,颗粒物(PM10),52,54,73,22,26,137,111,74,74,15,18,7,6,0.5,0.5
2022-04-07T13:00:00,1060A,114.8902,40.762,张家口市,世纪豪园,,40,40,91,17,35,131,112,74,74,13,25,5,5,0.5,0.6
2022-04-07T13:00:00,1061A,114.8916,40.8661,张家口市,北泵房(对照点),,,,48,,16,140,106,73,73,9,9,,8,0.4,0.4
2022-04-07T13:00:00,1062A,117.9531,40.9081,承德市,铁路,,,,87,,23,95,63,38,38,,33,10,14,0.4,0.7
2022-04-07T13:00:00,1063A,117.9392,40.9763,承德市,中国银行,颗粒物(PM10),53,56,78,9,22,87,78,56,50,16,18,7,13,0.4,0.5
2022-04-07T13:00:00,1064A,117.9503,40.928,承德市,开发区,颗粒物(PM10),55,60,65,22,23,103,79,50,50,26,28,11,20,0.4,0.7
2022-04-07T13:00:00,1065A,117.8051,40.9655,承德市,文化中心,颗粒物(PM10),52,53,77,23,21,92,82,70,49,17,21,29,20,0.7,0.5
2022-04-07T13:00:00,1066A,117.9268,41.0026,承德市,离宫(对照点),颗粒物(PM10),52,53,65,18,24,97,80,63,52,16,14,4,6,0.3,0.4
2022-04-07T13:00:00,1067A,116.6708,39.5111,廊坊市,药材公司,颗粒物(PM10),59,68,43,26,17,89,89,60,60,24,26,4,4,0.4,0.4
2022-04-07T13:00:00,1068A,116.7214,39.5589,廊坊市,开发区,颗粒物(PM10),52,53,44,25,14,90,90,66,66,16,11,4,4,0.4,0.4
2022-04-07T13:00:00,1070A,116.7244,39.5269,廊坊市,北华航天学院,,,88,51,,6,87,87,64,64,22,22,7,7,0.4,0.4
2022-04-07T13:00:00,1071A,116.8842,38.2991,沧州市,沧县城建局,颗粒物(PM10),61,71,41,27,13,116,116,71,71,15,22,7,6,0.4,0.4
2022-04-07T13:00:00,1072A,116.8584,38.3254,沧州市,电视转播站,颗粒物(PM10),52,53,41,18,11,111,111,74,74,16,22,13,13,0.4,0.4
2022-04-07T13:00:00,1073A,116.8709,38.3228,沧州市,市环保局,颗粒物(PM10),53,56,39,34,15,115,115,75,75,15,21,10,11,0.4,0.4
2022-04-07T13:00:00,1074A,115.6838,37.7541,衡水市,电机北厂,颗粒物(PM10),51,52,47,31,20,118,118,83,83,14,17,6,6,0.5,0.4
2022-04-07T13:00:00,1075A,115.6303,37.7316,衡水市,市监测站,颗粒物(PM10),68,86,70,32,17,120,120,79,79,11,14,15,13,0.4,0.4
2022-04-07T13:00:00,1077A,114.4704,37.0886,邢台市,达活泉,颗粒物(PM10),92,134,117,44,29,127,127,68,68,20,23,25,13,1.6,0.9
2022-04-07T13:00:00,1078A,114.5062,37.0349,邢台市,邢师高专,,,,96,,34,118,118,58,58,28,29,23,7,1.9,0.9
2022-04-07T13:00:00,1079A,114.5237,37.0851,邢台市,路桥公司,颗粒物(PM10),83,116,87,53,30,116,116,61,61,26,27,26,10,2.0,0.9
2022-04-07T13:00:00,1080A,114.4725,37.0719,邢台市,市环保局,细颗粒物(PM2.5),79,101,89,58,36,123,123,68,68,24,26,20,8,1.6,0.8
2022-04-07T13:00:00,1081A,112.5139,37.8873,太原市,尖草坪,颗粒物(PM10),59,68,90,24,35,164,103,49,49,16,48,11,13,0.5,0.6
2022-04-07T13:00:00,1083A,112.434,38.0108,太原市,上兰(对照点),颗粒物(PM10),59,67,58,27,25,159,98,77,70,20,18,12,11,0.5,0.4
2022-04-07T13:00:00,1084A,112.469,37.7124,太原市,晋源,颗粒物(PM10),56,61,88,29,41,169,107,50,50,21,47,15,13,0.6,0.7
2022-04-07T13:00:00,1085A,112.5583,37.7394,太原市,小店,颗粒物(PM10),58,66,88,26,36,168,107,53,53,18,35,10,14,0.4,0.5
2022-04-07T13:00:00,1086A,112.5369,37.8692,太原市,桃园,,,56,90,24,38,163,97,38,38,,58,8,13,,0.9
2022-04-07T13:00:00,1087A,112.57,37.8195,太原市,坞城,颗粒物(PM10),61,72,86,25,35,165,108,50,50,16,35,12,16,0.6,0.6
2022-04-07T13:00:00,1088A,112.549,37.9854,太原市,南寨,颗粒物(PM10),55,59,100,16,33,142,95,42,42,18,47,20,18,0.9,0.9
2022-04-07T13:00:00,1090A,111.6507,40.7517,呼和浩特市,呼市一监,颗粒物(PM10),63,75,65,30,38,134,108,75,75,13,26,24,9,0.5,0.5
2022-04-07T13:00:00,1091A,111.6572,40.8033,呼和浩特市,小召,细颗粒物(PM2.5),75,73,48,55,25,123,95,69,69,19,27,16,8,0.5,0.4
2022-04-07T13:00:00,1094A,111.7516,40.8369,呼和浩特市,如意水处理厂,细颗粒物(PM2.5),79,81,34,58,18,141,119,72,72,18,27,22,9,0.6,0.4
2022-04-07T13:00:00,1095A,111.7276,40.8062,呼和浩特市,二十九中,,,,43,46,25,138,110,72,72,15,23,22,9,0.5,0.5
2022-04-07T13:00:00,1096A,111.5512,40.7866,呼和浩特市,工大金川校区,颗粒物(PM10),80,109,52,43,26,114,98,55,55,12,23,21,12,0.5,0.4
2022-04-07T13:00:00,1097A,111.717,40.7612,呼和浩特市,化肥厂生活区,,,79,59,,35,105,93,64,64,11,27,18,15,,0.5
2022-04-07T13:00:00,1098A,123.6836,41.9339,沈阳市,森林路(对照点),,48,48,37,28,27,108,108,75,75,11,17,9,12,0.4,0.6
2022-04-07T13:00:00,1099A,123.505,41.7406,沈阳市,浑南东路,,45,45,52,28,39,107,104,73,73,7,18,12,19,0.5,0.5
2022-04-07T13:00:00,1100A,123.4231,41.6989,沈阳市,新秀街,,44,44,64,23,39,104,102,69,69,11,26,12,18,0.6,0.9
2022-04-07T13:00:00,1102A,123.5903,41.8411,沈阳市,东陵路,,44,44,44,26,25,106,106,74,74,8,14,13,16,0.5,0.8
2022-04-07T13:00:00,1103A,123.4264,41.8467,沈阳市,陵东街,,50,50,44,33,28,111,111,76,76,13,18,8,11,0.6,0.7
2022-04-07T13:00:00,1104A,123.4114,41.7653,沈阳市,文化路,,41,41,60,25,43,114,108,75,75,6,14,6,12,0.7,1
2022-04-07T13:00:00,1105A,123.4678,41.7867,沈阳市,小河沿,,47,47,46,28,30,101,100,69,69,9,17,8,12,0.5,0.8
2022-04-07T13:00:00,1106A,123.4017,41.7972,沈阳市,太原街,,44,44,53,30,35,107,107,74,74,7,14,7,12,0.4,0.7
2022-04-07T13:00:00,1108A,123.3783,41.9228,沈阳市,京沈街,细颗粒物(PM2.5),69,61,50,50,37,113,113,76,76,11,15,7,9,0.6,0.7
2022-04-07T13:00:00,1109A,121.612,38.9741,大连市,甘井子,颗粒物(PM10),55,60,35,20,11,89,89,76,76,25,28,7,5,0.8,0.5
2022-04-07T13:00:00,1110A,121.565,38.9511,大连市,周水子,颗粒物(PM10),58,65,32,16,9,108,108,92,92,21,21,6,3,0.7,0.4
2022-04-07T13:00:00,1111A,121.5637,38.8845,大连市,星海三站,,46,46,27,19,10,110,110,83,83,18,20,6,4,0.5,0.4
2022-04-07T13:00:00,1112A,121.6302,38.9117,大连市,青泥洼桥,颗粒物(PM10),59,67,28,9,5,98,98,88,74,23,20,9,7,0.6,0.3
2022-04-07T13:00:00,1113A,121.6251,38.8638,大连市,傅家庄,,34,31,24,9,7,108,108,83,83,18,17,9,7,0.5,0.3
2022-04-07T13:00:00,1114A,121.5213,38.8661,大连市,七贤岭,颗粒物(PM10),52,53,25,22,4,115,115,91,91,15,12,14,13,0.6,0.5
2022-04-07T13:00:00,1115A,121.2529,38.8061,大连市,旅顺,,44,44,22,18,7,94,75,74,73,32,19,12,9,0.6,0.4
2022-04-07T13:00:00,1116A,121.7485,39.1311,大连市,金州,,36,36,34,13,15,88,77,71,71,26,25,10,7,1.0,0.6
2022-04-07T13:00:00,1117A,121.7811,39.0496,大连市,开发区,,38,38,34,13,13,74,74,62,62,24,30,12,8,0.9,0.5
2022-04-07T13:00:00,1118A,121.9762,39.0631,大连市,双D港,,38,38,28,17,14,91,91,78,78,24,30,28,23,0.6,0.2
2022-04-07T13:00:00,1119A,125.3325,43.9166,长春市,食品厂,,29,11,44,6,45,92,90,82,78,5,13,5,9,0.3,0.4
2022-04-07T13:00:00,1120A,125.2863,43.9027,长春市,客车厂,,29,15,43,17,29,94,92,81,79,4,14,5,11,0.5,0.7
2022-04-07T13:00:00,1121A,125.2841,43.8463,长春市,邮电学院,,30,11,64,11,43,97,95,80,80,1,13,2,10,0.4,0.6
2022-04-07T13:00:00,1122A,125.3716,43.8772,长春市,劳动公园,,31,15,53,8,51,100,97,82,82,6,18,3,8,0.4,0.6
2022-04-07T13:00:00,1123A,125.3297,43.8805,长春市,园林处,,,14,48,,,97,96,80,80,5,17,5,11,0.2,0.5
2022-04-07T13:00:00,1124A,125.4605,43.79,长春市,净月潭,,,11,56,,,102,99,84,84,4,18,6,10,0.4,0.6
2022-04-07T13:00:00,1125A,125.7194,43.515,长春市,甩湾子(对照点),,31,13,47,6,36,97,97,81,81,4,9,8,9,0.3,0.5
2022-04-07T13:00:00,1126A,125.3863,43.8447,长春市,经开区环卫处,,29,9,56,11,50,94,92,76,76,2,13,7,12,0.6,0.8
2022-04-07T13:00:00,1127A,125.245,43.7783,长春市,高新区管委会,,32,12,49,18,40,103,100,85,85,4,12,5,6,0.4,0.5
2022-04-07T13:00:00,1128A,125.1761,43.8325,长春市,岱山公园,,28,15,48,18,36,91,89,75,74,5,12,6,8,0.4,0.5
2022-04-07T13:00:00,1129A,126.5422,45.755,哈尔滨市,岭北(对照点),,32,18,22,4,7,108,102,86,85,1,6,5,8,0.4,0.3
2022-04-07T13:00:00,1130A,126.561,45.8167,哈尔滨市,松北商大,,30,16,19,5,14,99,96,82,79,2,7,5,5,0.5,0.5
2022-04-07T13:00:00,1131A,126.979,45.5419,哈尔滨市,阿城会宁,,27,17,30,11,15,90,86,73,71,8,14,7,7,0.4,0.7
2022-04-07T13:00:00,1132A,126.599,45.7222,哈尔滨市,南岗学府路,,27,5,18,2,11,91,84,75,71,3,11,4,8,0.6,0.7
2022-04-07T13:00:00,1133A,126.689,45.7733,哈尔滨市,太平宏伟公园,,30,17,33,12,20,97,93,79,76,8,17,10,14,0.4,0.5
2022-04-07T13:00:00,1134A,126.635,45.7667,哈尔滨市,道外承德广场,,,49,38,13,24,97,88,72,70,6,12,11,11,,0.4
2022-04-07T13:00:00,1135A,126.685,45.7319,哈尔滨市,香坊红旗大街,,28,11,33,10,16,93,87,76,76,5,13,8,16,0.3,0.4
2022-04-07T13:00:00,1136A,126.6411,45.7258,哈尔滨市,动力和平路,,27,14,25,6,16,92,84,75,72,5,12,14,16,0.4,0.4
2022-04-07T13:00:00,1137A,126.593,45.7478,哈尔滨市,道里建国路,,27,24,23,3,13,95,85,80,73,6,14,9,9,0.4,0.6
2022-04-07T13:00:00,1138A,126.615,45.61,哈尔滨市,平房东轻厂,,27,14,24,8,14,92,84,78,64,8,13,17,30,0,0
2022-04-07T13:00:00,1139A,126.595,45.9855,哈尔滨市,呼兰师专,,,18,32,,16,95,92,77,77,6,13,8,9,0.4,0.5
2022-04-07T13:00:00,1140A,126.6206,45.6842,哈尔滨市,省农科院,,27,6,23,4,15,93,85,71,71,5,14,13,16,0.3,0.3
2022-04-07T13:00:00,1141A,121.4,31.238,上海市,普陀,臭氧1小时,87,53,54,32,34,189,189,111,111,18,28,6,6,1.1,1.1
2022-04-07T13:00:00,1142A,121.478,31.2036,上海市,十五厂,臭氧1小时,85,48,54,37,41,188,188,94,94,16,26,8,8,0.7,0.7
2022-04-07T13:00:00,1143A,121.467,31.3008,上海市,虹口,臭氧1小时,72,58,52,33,37,177,177,97,97,18,32,5,6,0.6,0.7
2022-04-07T13:00:00,1144A,121.412,31.1654,上海市,徐汇上师大,臭氧1小时,62,67,59,40,42,169,169,91,91,18,30,10,9,0.9,1
2022-04-07T13:00:00,1145A,121.536,31.2659,上海市,杨浦四漂,,,53,49,32,43,173,,77,77,15,29,10,10,0.6,0.6
2022-04-07T13:00:00,1147A,121.425,31.2261,上海市,静安监测站,臭氧1小时,73,58,59,34,39,178,178,101,101,19,32,6,9,0.2,0.2
2022-04-07T13:00:00,1148A,121.703,31.1907,上海市,浦东川沙,臭氧1小时,83,52,54,31,41,186,186,97,97,20,32,9,7,0.8,0.7
2022-04-07T13:00:00,1149A,121.533,31.2284,上海市,浦东新区监测站,臭氧1小时,79,63,55,28,34,183,183,108,108,14,22,7,6,0.7,0.7
2022-04-07T13:00:00,1150A,121.577,31.2071,上海市,浦东张江,臭氧1小时,58,55,54,33,40,166,166,89,89,19,28,6,6,0.7,0.7
2022-04-07T13:00:00,1151A,118.8086,32.1065,南京市,迈皋桥,颗粒物(PM10),66,81,65,29,22,176,131,49,47,61,56,14,7,0.9,0.5
2022-04-07T13:00:00,1153A,118.7794,32.0745,南京市,山西路,颗粒物(PM10),73,95,73,31,26,173,138,56,56,58,71,12,6,0.9,0.5
2022-04-07T13:00:00,1154A,118.7752,32.0023,南京市,中华门,,,80,61,,20,159,159,64,64,19,52,8,5,,0.4
2022-04-07T13:00:00,1155A,118.8109,32.0309,南京市,瑞金路,,,70,53,24,26,161,140,56,56,,50,16,7,0.8,0.7
2022-04-07T13:00:00,1156A,118.7997,32.0754,南京市,玄武湖,,46,46,53,29,24,166,144,71,53,36,48,7,6,0.8,0.6
2022-04-07T13:00:00,1157A,118.6414,32.0931,南京市,浦口,,,80,63,29,20,169,128,100,66,,41,19,13,1.2,0.9
2022-04-07T13:00:00,1158A,118.7356,31.9996,南京市,奥体中心,,,,63,,23,164,124,50,50,36,59,,11,1.3,0.8
2022-04-07T13:00:00,1159A,118.9125,32.1028,南京市,仙林大学城,臭氧1小时,60,66,52,31,21,176,168,64,64,24,47,16,7,1.0,0.6
2022-04-07T13:00:00,1160A,120.561,31.2472,苏州市,上方山(对照点),臭氧1小时,92,76,63,48,54,193,193,90,90,12,28,8,8,0.5,0.5
2022-04-07T13:00:00,1162A,120.591,31.3019,苏州市,彩香,臭氧1小时,97,58,59,22,45,197,197,92,92,14,32,9,9,0.7,0.7
2022-04-07T13:00:00,1163A,120.596,31.3264,苏州市,轧钢厂,臭氧1小时,100,49,63,22,34,200,200,92,92,13,34,8,8,0.6,0.6
2022-04-07T13:00:00,1164A,120.613,31.2703,苏州市,吴中区,臭氧1小时,102,68,64,36,56,204,204,94,94,20,39,6,6,0.5,0.5
2022-04-07T13:00:00,1165A,120.543,31.2994,苏州市,苏州新区,臭氧1小时,100,41,65,21,42,210,200,102,102,6,29,10,11,0.6,0.7
2022-04-07T13:00:00,1166A,120.669,31.3097,苏州市,苏州工业园区,臭氧1小时,95,54,50,36,32,196,196,98,98,24,30,10,9,0.5,0.5
2022-04-07T13:00:00,1167A,120.641,31.3708,苏州市,相城区,臭氧1小时,88,49,58,23,37,190,190,86,86,14,40,7,6,0.6,0.6
2022-04-07T13:00:00,1168A,120.9098,31.9663,南通市,狼山街道,臭氧1小时,78,71,68,46,45,218,182,99,99,45,40,26,13,1.6,0.7
2022-04-07T13:00:00,1169A,120.86,32.0005,南通市,虹桥,"颗粒物(PM10),臭氧1小时",63,75,66,43,51,188,170,84,84,47,56,19,16,0.8,0.8
2022-04-07T13:00:00,1170A,120.87,32.02,南通市,城中,臭氧1小时,70,78,70,47,48,195,176,94,94,42,44,14,11,0.9,0.9
2022-04-07T13:00:00,1171A,120.94,31.93,南通市,星湖花园,细颗粒物(PM2.5),89,105,66,66,48,216,185,104,104,59,51,44,13,3.2,0.7
2022-04-07T13:00:00,1172A,120.81,32.0417,南通市,紫琅学院,臭氧1小时,99,77,74,56,49,199,199,88,88,18,56,13,14,0.6,0.7
2022-04-07T13:00:00,1173A,119.176,34.5885,连云港市,市环境监测站,颗粒物(PM10),70,90,70,46,38,120,99,115,89,16,11,5,4,0.5,0.5
2022-04-07T13:00:00,1177A,117.179,34.2761,徐州市,黄河新村,细颗粒物(PM2.5),80,105,83,59,53,149,129,86,86,8,8,7,7,0.7,0.7
2022-04-07T13:00:00,1178A,117.1918,34.2384,徐州市,淮塔,细颗粒物(PM2.5),79,86,78,58,46,144,122,88,88,12,13,8,8,0.7,0.7
2022-04-07T13:00:00,1180A,117.256,34.2153,徐州市,新城区,细颗粒物(PM2.5),70,88,85,51,46,141,110,83,83,11,11,6,6,0.8,0.8
2022-04-07T13:00:00,1181A,117.244,34.2911,徐州市,桃园路,细颗粒物(PM2.5),78,83,84,57,44,142,113,79,78,11,10,10,10,0.6,0.6
2022-04-07T13:00:00,1182A,117.2933,34.2778,徐州市,农科院,细颗粒物(PM2.5),79,80,69,58,42,135,91,80,75,11,7,8,9,0.8,0.7
2022-04-07T13:00:00,1186A,119.389,32.3761,扬州市,邗江监测站,颗粒物(PM10),54,58,76,26,34,155,155,72,61,13,36,12,9,0.7,0.6
2022-04-07T13:00:00,1188A,120.269,31.4867,无锡市,雪浪,臭氧1小时,88,53,63,19,30,190,190,112,112,7,13,8,9,0.2,0.2
2022-04-07T13:00:00,1189A,120.275,31.6219,无锡市,黄巷,臭氧1小时,105,80,67,34,30,209,209,111,109,20,43,11,10,0.5,0.5
2022-04-07T13:00:00,1190A,120.294,31.56,无锡市,曹张,臭氧1小时,88,48,56,24,33,190,190,103,103,3,41,9,10,0.7,0.8
2022-04-07T13:00:00,1191A,120.242,31.5031,无锡市,漆塘,臭氧1小时,101,70,56,36,38,201,201,121,121,10,15,9,9,0.4,0.4
2022-04-07T13:00:00,1192A,120.3489,31.5863,无锡市,东亭,臭氧1小时,102,66,67,31,33,204,204,94,94,15,37,10,9,0.6,0.8
2022-04-07T13:00:00,1193A,120.354,31.5475,无锡市,旺庄,臭氧1小时,88,75,71,41,41,195,190,99,99,10,49,10,11,0.6,0.7
2022-04-07T13:00:00,1194A,120.245,31.5631,无锡市,荣巷,臭氧1小时,98,70,49,39,32,198,198,125,125,12,19,10,9,0.5,0.5
2022-04-07T13:00:00,1195A,120.299,31.6817,无锡市,堰桥,臭氧1小时,102,85,61,39,34,204,204,100,100,22,40,17,10,1.8,0.8
2022-04-07T13:00:00,1196A,119.9633,31.762,常州市,市监测站,臭氧1小时,65,69,73,39,39,172,172,98,95,15,41,11,10,0.5,0.6
2022-04-07T13:00:00,1200A,119.9468,31.7069,常州市,武进监测站,臭氧1小时,79,62,66,38,40,183,183,113,113,15,26,9,7,0.6,0.6
2022-04-07T13:00:00,1201A,119.9255,31.9087,常州市,安家,臭氧1小时,80,49,66,29,43,199,184,102,102,11,44,9,9,0.5,0.6
2022-04-07T13:00:00,1203A,119.6707,32.1875,镇江市,新区办事处,颗粒物(PM10),54,58,71,29,37,167,152,69,69,34,48,12,7,0.7,0.7
2022-04-07T13:00:00,1204A,119.4974,32.1968,镇江市,职教中心,细颗粒物(PM2.5),75,82,56,55,38,157,149,87,77,45,32,12,9,0.8,0.6
2022-04-07T13:00:00,1205A,119.4303,32.1328,镇江市,丹徒区监测站,臭氧1小时,75,55,60,29,32,180,180,83,78,23,38,12,12,0.4,0.4
2022-04-07T13:00:00,1206A,119.905,32.4878,泰州市,公园路,细颗粒物(PM2.5),104,112,85,78,55,178,161,78,74,25,30,39,11,1.1,1.1
2022-04-07T13:00:00,1207A,119.9189,32.4625,泰州市,莲花,细颗粒物(PM2.5),89,93,82,66,58,181,181,82,82,15,26,10,11,1.0,1.1
2022-04-07T13:00:00,1209A,119.888,32.4639,泰州市,留学生创业园,细颗粒物(PM2.5),108,125,92,81,51,175,164,77,77,22,34,15,14,0.9,1.2
2022-04-07T13:00:00,1210A,119.036,33.5981,淮安市,钵池山,细颗粒物(PM2.5),89,101,87,66,74,146,90,83,76,18,18,7,8,0.7,0.6
2022-04-07T13:00:00,1211A,119.007,33.575,淮安市,北京南路,细颗粒物(PM2.5),108,112,95,81,73,153,102,92,88,26,21,8,7,0.8,0.6
2022-04-07T13:00:00,1212A,118.989,33.6067,淮安市,市监测站,细颗粒物(PM2.5),119,129,94,90,64,162,93,98,84,30,20,10,9,0.9,0.7
2022-04-07T13:00:00,1213A,119.135,33.5039,淮安市,楚州区监测站,细颗粒物(PM2.5),90,115,85,67,69,177,98,92,86,24,22,8,9,0.8,0.7
2022-04-07T13:00:00,1214A,119.0186,33.6297,淮安市,淮阴区监测站,细颗粒物(PM2.5),114,110,80,86,76,150,88,96,83,23,20,9,9,0.9,0.7
2022-04-07T13:00:00,1215A,120.118,33.4022,盐城市,盐城电厂,细颗粒物(PM2.5),97,80,77,72,72,189,131,106,106,14,15,8,8,0.6,0.6
2022-04-07T13:00:00,1216A,120.156,33.3942,盐城市,市监测站,细颗粒物(PM2.5),94,54,50,70,70,178,126,102,102,17,19,7,5,0.6,0.5
2022-04-07T13:00:00,1218A,120.2144,33.38,盐城市,开发区管委会,细颗粒物(PM2.5),64,45,55,46,47,188,123,100,100,13,19,6,6,0.6,0.7
2022-04-07T13:00:00,1220A,118.293,33.9528,宿迁市,宿迁学院,细颗粒物(PM2.5),73,80,71,53,40,156,106,103,91,12,11,3,4,0.5,0.5
2022-04-07T13:00:00,1221A,118.2442,33.9592,宿迁市,宿迁中学,颗粒物(PM10),68,85,89,42,41,150,102,102,89,11,10,3,3,0.7,0.6
2022-04-07T13:00:00,1223A,120.2072,30.2111,杭州市,滨江,颗粒物(PM10),70,90,86,36,35,166,166,69,69,36,67,8,8,0.6,0.7
2022-04-07T13:00:00,1224A,120.0633,30.2747,杭州市,西溪,臭氧1小时,80,57,56,34,33,184,184,80,80,22,41,6,4,0.3,0.4
2022-04-07T13:00:00,1226A,120.3461,30.3153,杭州市,下沙,臭氧1小时,80,74,93,33,38,184,184,77,77,21,68,8,10,0.4,0.6
2022-04-07T13:00:00,1227A,120.1269,30.2456,杭州市,卧龙桥,臭氧1小时,63,65,48,32,29,170,170,70,70,24,31,6,5,0.5,0.5
2022-04-07T13:00:00,1228A,120.1903,30.2692,杭州市,浙江农大,臭氧1小时,79,67,88,35,42,183,183,79,79,21,64,8,8,0.6,0.7
2022-04-07T13:00:00,1230A,120.1197,30.3119,杭州市,和睦小学,臭氧1小时,68,78,100,37,45,174,174,72,72,26,63,4,5,0.6,0.7
2022-04-07T13:00:00,1231A,120.3019,30.4183,杭州市,临平镇,,,90,91,42,46,181,181,90,50,,40,6,6,,0.7
2022-04-07T13:00:00,1232A,120.2697,30.1819,杭州市,城厢镇,颗粒物(PM10),67,84,77,29,28,164,164,82,82,28,58,8,7,0.6,0.7
2022-04-07T13:00:00,1233A,120.0883,30.1808,杭州市,云栖,,,64,60,32,24,170,170,77,77,,37,,7,0.6,0.6
2022-04-07T13:00:00,1234A,121.8358,29.911,宁波市,区环保大楼,颗粒物(PM10),52,53,45,22,20,179,139,61,61,40,42,13,8,0.6,0.6
2022-04-07T13:00:00,1235A,121.56,29.82,宁波市,万里学院,臭氧1小时,80,56,46,37,28,213,184,73,73,23,30,12,12,0.5,0.5
2022-04-07T13:00:00,1236A,121.713,29.9572,宁波市,龙赛医院,臭氧1小时,57,50,60,21,26,179,165,82,82,14,38,8,9,0.4,0.7
2022-04-07T13:00:00,1239A,121.633,29.7733,宁波市,钱湖水厂,臭氧1小时,80,57,35,44,20,200,184,89,89,34,18,10,5,0.5,0.4
2022-04-07T13:00:00,1240A,121.5856,29.8635,宁波市,太古小学,,50,43,39,31,30,164,157,67,67,26,37,13,13,0.6,0.6
2022-04-07T13:00:00,1241A,121.524,29.8674,宁波市,市环境监测中心,臭氧1小时,101,74,50,31,24,204,202,94,94,25,31,,16,0.7,0.7
2022-04-07T13:00:00,1242A,120.634,28.0089,温州市,瓯海,颗粒物(PM10),51,52,63,22,29,156,142,79,79,24,40,6,6,0.4,0.4
2022-04-07T13:00:00,1243A,120.6748,27.9939,温州市,南浦,颗粒物(PM10),60,70,66,26,27,132,118,65,65,34,39,8,7,0.5,0.4
2022-04-07T13:00:00,1244A,120.76,27.9747,温州市,龙湾,颗粒物(PM10),71,92,77,27,22,121,112,50,50,23,48,6,5,0.4,0.4
2022-04-07T13:00:00,1245A,120.6709,28.0167,温州市,市站,颗粒物(PM10),66,81,64,27,22,127,122,57,57,30,39,7,6,0.4,0.4
2022-04-07T13:00:00,1247A,120.6053,29.9928,绍兴市,城东开发委,臭氧1小时,54,47,54,13,28,163,163,92,92,10,29,7,7,0.5,0.6
2022-04-07T13:00:00,1250A,120.0751,30.8669,湖州市,城西水厂,臭氧1小时,64,63,72,30,34,171,171,93,71,26,60,9,8,0.5,0.6
2022-04-07T13:00:00,1252A,120.7436,30.778,嘉兴市,清河小学,臭氧1小时,84,42,52,25,30,187,187,89,89,21,36,9,10,0.5,0.5
2022-04-07T13:00:00,1253A,120.726,30.7478,嘉兴市,嘉兴学院,臭氧1小时,78,50,54,31,33,182,182,91,91,19,29,13,14,1.0,1
2022-04-07T13:00:00,1255A,121.273,28.6459,台州市,黄岩环保大楼,颗粒物(PM10),52,54,50,24,17,152,152,79,79,14,17,7,6,0.3,0.4
2022-04-07T13:00:00,1256A,121.419,28.6542,台州市,台州环保大楼,臭氧1小时,64,74,49,37,24,171,171,75,75,25,28,9,5,0.4,0.3
2022-04-07T13:00:00,1257A,121.377,28.5773,台州市,路桥田洋王,,,76,47,40,24,156,156,65,65,,29,7,6,,0.4
2022-04-07T13:00:00,1258A,122.122,30.0203,舟山市,定海檀枫,,,23,26,11,15,145,105,58,58,,26,,2,0.4,0.3
2022-04-07T13:00:00,1259A,122.3094,29.9558,舟山市,普陀东港,,34,26,23,16,12,124,107,79,79,21,25,5,4,0.3,0.3
2022-04-07T13:00:00,1260A,122.19,29.9944,舟山市,临城新区,,41,17,23,11,13,131,131,70,70,11,25,4,3,0.4,0.3
2022-04-07T13:00:00,1262A,119.647,29.077,金华市,十五中,颗粒物(PM10),71,91,71,40,36,162,162,80,80,28,38,10,8,0.6,0.6
2022-04-07T13:00:00,1263A,119.686,29.1029,金华市,监测站,颗粒物(PM10),59,68,69,38,37,159,159,94,94,20,37,8,8,0.2,0.4
2022-04-07T13:00:00,1264A,118.8692,28.9398,衢州市,环保大楼,臭氧1小时,63,70,65,32,26,170,170,68,68,24,40,17,15,0.6,0.6
2022-04-07T13:00:00,1265A,118.8709,28.9666,衢州市,实验学校,臭氧1小时,78,57,53,29,24,182,182,71,71,23,32,10,10,0.5,0.5
2022-04-07T13:00:00,1266A,118.8621,28.9808,衢州市,衢州学院,,50,50,57,23,24,158,158,60,60,16,44,9,12,0.4,0.5
2022-04-07T13:00:00,1267A,119.914,28.4514,丽水市,监测站大楼,颗粒物(PM10),52,53,43,30,26,144,144,75,75,10,16,6,6,0.3,0.3
2022-04-07T13:00:00,1268A,119.93,28.4586,丽水市,莲都小学,颗粒物(PM10),62,73,50,28,24,151,151,80,80,18,20,8,7,0.4,0.3
2022-04-07T13:00:00,1269A,119.879,28.4231,丽水市,余庄前,颗粒物(PM10),54,58,41,31,21,149,149,71,71,22,15,9,7,0.4,0.3
2022-04-07T13:00:00,1270A,117.1959,31.7848,合肥市,明珠广场,颗粒物(PM10),56,62,69,27,26,143,143,86,75,13,50,7,7,0.8,0.8
2022-04-07T13:00:00,1271A,117.3072,31.8764,合肥市,三里街,颗粒物(PM10),63,75,76,31,29,147,147,70,70,14,66,10,10,0.4,0.6
2022-04-07T13:00:00,1272A,117.2588,31.8707,合肥市,琥珀山庄,颗粒物(PM10),60,70,68,27,26,151,151,73,73,9,52,6,6,0.6,0.8
2022-04-07T13:00:00,1273A,117.1604,31.9052,合肥市,董铺水库(对照点),颗粒物(PM10),54,58,68,27,24,140,139,74,74,9,34,10,8,0.5,0.5
2022-04-07T13:00:00,1274A,117.25,31.8571,合肥市,长江中路,颗粒物(PM10),59,68,67,18,20,150,150,79,79,14,48,8,9,0.4,0.6
2022-04-07T13:00:00,1275A,117.266,31.9436,合肥市,庐阳区,颗粒物(PM10),58,66,77,17,23,127,127,74,74,11,54,9,9,0.5,0.6
2022-04-07T13:00:00,1276A,117.336,31.8586,合肥市,瑶海区,颗粒物(PM10),69,88,82,31,28,151,151,76,76,13,54,9,10,0.6,0.7
2022-04-07T13:00:00,1277A,117.3027,31.7964,合肥市,包河区,,,90,76,34,30,158,158,70,70,12,61,,6,0.5,0.6
2022-04-07T13:00:00,1278A,117.2776,31.7385,合肥市,滨湖新区,颗粒物(PM10),60,70,66,24,29,151,132,118,72,22,33,3,4,0.4,0.4
2022-04-07T13:00:00,1279A,117.1318,31.8403,合肥市,高新区,细颗粒物(PM2.5),67,63,61,48,28,148,143,102,98,13,37,8,10,0.7,0.6
2022-04-07T13:00:00,1280A,119.3903,26.0543,福州市,鼓山(对照点),,40,29,26,15,9,126,126,103,90,12,8,5,4,0.4,0.4
2022-04-07T13:00:00,1282A,119.2681,26.0504,福州市,师大,,48,48,38,20,16,131,131,70,70,17,21,4,4,0.3,0.3
2022-04-07T13:00:00,1283A,119.2984,26.1028,福州市,五四北路,,41,40,31,22,14,194,130,62,62,16,19,4,3,0.4,0.4
2022-04-07T13:00:00,1284A,119.2648,26.0768,福州市,杨桥西路,,48,48,34,17,14,116,116,60,60,15,18,5,4,0.8,0.8
2022-04-07T13:00:00,1285A,119.317,26.0746,福州市,紫阳,颗粒物(PM10),52,53,30,22,15,133,133,70,70,17,14,7,5,0.5,0.5
2022-04-07T13:00:00,1286A,118.1608,24.8169,厦门市,溪东(对照点),,39,13,27,20,19,128,123,81,79,5,3,2,2,0.3,0.3
2022-04-07T13:00:00,1287A,118.1514,24.4767,厦门市,洪文,,44,43,32,17,15,138,138,85,85,12,12,4,4,0.4,0.4
2022-04-07T13:00:00,1288A,118.0661,24.4444,厦门市,鼓浪屿,,43,40,33,17,12,137,137,74,74,12,15,3,3,0.3,0.4
2022-04-07T13:00:00,1290A,115.8931,28.6843,南昌市,省外办,颗粒物(PM10),66,82,76,33,38,149,141,48,48,36,53,8,7,0.7,0.8
2022-04-07T13:00:00,1291A,115.8886,28.7003,南昌市,省林业公司,颗粒物(PM10),53,55,81,29,32,157,150,52,52,21,61,12,13,0.8,0.9
2022-04-07T13:00:00,1292A,115.8126,28.7442,南昌市,林科所,颗粒物(PM10),56,61,45,20,19,157,152,92,92,21,38,12,10,0.6,0.5
2022-04-07T13:00:00,1294A,115.8518,28.687,南昌市,建工学校,颗粒物(PM10),69,88,76,26,30,154,136,50,50,30,45,15,13,0.7,0.5
2022-04-07T13:00:00,1295A,115.8921,28.6424,南昌市,象湖,颗粒物(PM10),66,82,88,31,34,160,122,43,43,40,52,13,8,1.3,1
2022-04-07T13:00:00,1296A,115.7423,28.7996,南昌市,武术学校(对照点),,46,38,29,18,18,150,147,81,81,13,7,13,10,0.6,0.6
2022-04-07T13:00:00,1298A,115.9314,28.6842,南昌市,省站,颗粒物(PM10),61,71,75,35,37,148,143,65,65,18,52,8,3,0.4,0.7
2022-04-07T13:00:00,1299A,116.9862,36.6114,济南市,科干所,颗粒物(PM10),93,136,93,51,27,112,111,45,45,30,36,14,15,1.0,0.9
2022-04-07T13:00:00,1300A,116.9376,36.665,济南市,农科所,颗粒物(PM10),81,112,90,44,21,117,117,52,52,20,36,12,12,0.4,0.4
2022-04-07T13:00:00,1301A,117.1265,36.6734,济南市,开发区,颗粒物(PM10),89,127,91,46,26,111,104,42,42,37,42,13,15,0.7,0.6
2022-04-07T13:00:00,1303A,117.0624,36.6868,济南市,省种子仓库,颗粒物(PM10),95,139,98,51,30,120,120,48,48,28,37,14,15,0.9,0.8
2022-04-07T13:00:00,1304A,116.9489,36.6447,济南市,机床二厂,颗粒物(PM10),90,129,102,56,26,119,119,54,54,24,35,12,13,0.8,0.7
2022-04-07T13:00:00,1305A,117.0495,36.663,济南市,市监测站,,,142,95,59,26,109,107,46,46,33,37,,16,0.6,0.5
2022-04-07T13:00:00,1306A,116.7675,36.5484,济南市,长清党校,颗粒物(PM10),88,125,98,54,24,116,116,42,42,18,37,18,12,0.9,0.8
2022-04-07T13:00:00,1307A,120.6659,36.2403,青岛市,仰口(对照点),颗粒物(PM10),56,61,54,27,17,102,88,81,73,20,13,4,3,0.6,0.5
2022-04-07T13:00:00,1310A,120.4134,36.0658,青岛市,市南区东部子站,,,49,50,,12,97,90,87,68,13,20,6,5,0.3,0.3
2022-04-07T13:00:00,1311A,120.3664,36.1032,青岛市,四方区子站,颗粒物(PM10),59,68,58,27,17,100,87,94,51,39,32,8,8,0.6,0.5
2022-04-07T13:00:00,1312A,120.2994,36.054,青岛市,市南区西部子站,,48,48,54,17,11,111,103,97,70,13,19,5,6,0.4,0.4
2022-04-07T13:00:00,1313A,120.4581,36.0858,青岛市,崂山区子站,颗粒物(PM10),52,53,52,17,11,108,92,95,72,16,16,10,7,0.4,0.3
2022-04-07T13:00:00,1314A,120.1983,35.9608,青岛市,黄岛区子站,,,66,53,32,17,105,99,93,60,,26,4,4,,0.6
2022-04-07T13:00:00,1315A,120.3999,36.3083,青岛市,城阳区子站,颗粒物(PM10),70,90,68,27,18,99,99,59,58,33,30,7,6,0.6,0.5
2022-04-07T13:00:00,1316A,113.69031,34.76122,郑州市,烟厂,颗粒物(PM10),96,141,104,65,76,119,111,86,77,30,19,9,8,0.7,0.5
2022-04-07T13:00:00,1317A,113.65724,34.77134,郑州市,郑纺机,颗粒物(PM10),99,147,113,70,33,121,115,84,79,23,18,10,10,0.9,0.8
2022-04-07T13:00:00,1318A,113.67526,34.80246,郑州市,银行学校,细颗粒物(PM2.5),98,128,100,73,35,115,115,82,79,23,18,7,7,0.6,0.5
2022-04-07T13:00:00,1319A,113.56746,34.81334,郑州市,供水公司,,,135,110,67,32,130,130,88,84,22,19,8,7,,0.5
2022-04-07T13:00:00,1320A,113.7329,34.7178,郑州市,经开区管委,细颗粒物(PM2.5),120,178,101,91,45,122,116,88,80,29,20,8,8,0.8,0.6
2022-04-07T13:00:00,1321A,113.73961,34.77172,郑州市,四十七中,颗粒物(PM10),94,137,109,52,32,126,114,90,78,28,16,9,8,0.9,0.6
2022-04-07T13:00:00,1322A,113.60532,34.74838,郑州市,市监测站,,,,104,,27,124,111,86,71,,22,9,9,,0.7
2022-04-07T13:00:00,1324A,113.51488,34.91089,郑州市,岗李水库(对照点),颗粒物(PM10),104,158,106,60,38,132,132,73,73,20,18,13,9,0.7,0.5
2022-04-07T13:00:00,1325A,114.3677,30.5584,武汉市,东湖梨园,细颗粒物(PM2.5),64,65,65,46,38,150,146,45,45,17,61,10,7,0.7,0.8
2022-04-07T13:00:00,1326A,114.2529,30.558,武汉市,汉阳月湖,颗粒物(PM10),51,52,74,31,33,137,137,55,55,24,73,8,7,0.7,0.9
2022-04-07T13:00:00,1327A,114.282,30.6189,武汉市,汉口花桥,,50,50,75,29,43,131,131,50,50,18,64,8,7,0.4,0.9
2022-04-07T13:00:00,1328A,114.3025,30.5332,武汉市,武昌紫阳,颗粒物(PM10),52,54,78,25,39,143,134,59,59,14,61,11,10,0.8,1.2
2022-04-07T13:00:00,1329A,114.3646,30.6217,武汉市,青山钢花,颗粒物(PM10),64,77,103,39,48,143,143,50,50,22,72,9,10,0.7,1.1
2022-04-07T13:00:00,1330A,114.1566,30.4825,武汉市,沌口新区,,,62,81,24,41,140,140,54,54,,70,11,12,,0.9
2022-04-07T13:00:00,1331A,114.3014,30.5944,武汉市,汉口江滩,颗粒物(PM10),62,73,89,27,40,144,107,33,33,47,83,10,9,0.7,0.9
2022-04-07T13:00:00,1333A,114.135,30.6319,武汉市,吴家山,颗粒物(PM10),51,51,78,20,35,153,141,54,54,21,65,12,11,0.7,0.9
2022-04-07T13:00:00,1334A,113.8454,30.2917,武汉市,沉湖七壕(对照点),,48,48,40,18,21,146,146,56,54,8,29,8,6,0.7,0.6
2022-04-07T13:00:00,1335A,113.0833,28.2325,长沙市,经开区环保局,臭氧1小时,59,58,61,29,47,188,167,87,80,11,41,9,10,0.5,0.7
2022-04-07T13:00:00,1336A,112.8872,28.2189,长沙市,高开区环保局,臭氧1小时,63,70,97,38,46,186,170,74,74,14,62,13,10,0.5,0.6
2022-04-07T13:00:00,1337A,113.0792,28.2053,长沙市,马坡岭,臭氧1小时,67,68,77,27,44,186,173,78,78,5,42,12,11,0.4,0.6
2022-04-07T13:00:00,1338A,112.9394,28.19,长沙市,湖南师范大学,,,61,54,50,37,183,172,91,59,16,26,,10,0.5,0.5
2022-04-07T13:00:00,1339A,113.0178,28.1322,长沙市,雨花区环保局,臭氧1小时,73,73,80,36,44,185,178,82,82,14,52,11,8,0.4,0.5
2022-04-07T13:00:00,1341A,113.0014,28.1944,长沙市,火车新站,,,74,85,31,50,178,178,62,62,15,57,12,10,,0.7
2022-04-07T13:00:00,1342A,112.9844,28.1178,长沙市,天心区环保局,臭氧1小时,57,58,73,31,46,190,165,65,65,19,54,11,8,0.5,0.8
2022-04-07T13:00:00,1343A,112.8908,28.1308,长沙市,湖南中医药大学,颗粒物(PM10),67,83,69,46,42,190,160,59,59,20,46,15,7,0.7,0.6
2022-04-07T13:00:00,1344A,112.9581,28.3611,长沙市,沙坪(对照点),颗粒物(PM10),66,81,57,46,36,167,154,96,91,24,17,15,11,0.8,0.7
2022-04-07T13:00:00,1345A,113.2347,23.1423,广州市,广雅中学,颗粒物(PM10),56,61,75,30,38,219,150,93,88,21,40,10,10,0.8,0.9
2022-04-07T13:00:00,1346A,113.2612,23.105,广州市,市五中,,,,72,,41,238,170,102,102,,35,5,8,0.7,0.8
2022-04-07T13:00:00,1348A,113.3478,23.0916,广州市,广东商学院,颗粒物(PM10),56,62,68,38,37,246,160,74,62,26,55,8,8,0.7,0.7
2022-04-07T13:00:00,1349A,113.4332,23.1047,广州市,市八十六中,颗粒物(PM10),70,90,83,45,34,250,154,71,71,50,62,12,13,0.7,0.7
2022-04-07T13:00:00,1350A,113.3505,22.9483,广州市,番禺中学,颗粒物(PM10),68,85,71,41,33,262,154,88,84,39,37,14,12,0.8,0.8
2022-04-07T13:00:00,1351A,113.2146,23.3916,广州市,花都师范,,48,46,77,30,44,178,151,118,98,11,32,8,7,0.6,0.6
2022-04-07T13:00:00,1352A,113.2597,23.1331,广州市,市监测站,臭氧1小时,62,51,73,30,36,238,169,117,96,13,39,9,9,0.7,0.8
2022-04-07T13:00:00,1353A,113.5618,23.312,广州市,九龙镇镇龙,,,66,88,34,43,193,134,40,39,18,49,,8,0.6,0.7
2022-04-07T13:00:00,1354A,113.2765,23.1544,广州市,麓湖,颗粒物(PM10),53,55,64,32,34,209,155,118,67,13,42,10,9,0.7,0.8
2022-04-07T13:00:00,1355A,113.443,23.3035,广州市,帽峰山森林公园(对照点),,,50,58,27,33,173,139,97,79,8,18,,10,0.8,0.8
2022-04-07T13:00:00,1356A,114.1063,22.5545,深圳市,通心岭子站,臭氧1小时,75,69,39,37,18,221,180,90,90,17,15,5,3,0.4,0.3
2022-04-07T13:00:00,1357A,114.117,22.5625,深圳市,洪湖,臭氧1小时,98,71,43,40,21,234,198,87,80,28,33,8,6,0.8,0.7
2022-04-07T13:00:00,1358A,113.987,22.5417,深圳市,华侨城,细颗粒物(PM2.5),58,62,37,41,19,205,104,99,69,49,24,6,6,0.6,0.5
2022-04-07T13:00:00,1359A,113.9181,22.5171,深圳市,南海子站,颗粒物(PM10),76,101,50,42,21,162,96,104,70,60,27,6,4,0.7,0.6
2022-04-07T13:00:00,1360A,114.2458,22.5689,深圳市,盐田,,43,40,32,21,16,165,136,71,64,14,37,4,4,0.6,0.6
2022-04-07T13:00:00,1361A,114.2283,22.7244,深圳市,龙岗,,,73,48,48,21,251,194,90,88,15,33,7,3,,0.4
2022-04-07T13:00:00,1363A,114.494,22.5422,深圳市,南澳,,40,25,26,17,18,149,126,80,80,8,8,6,5,0.5,0.4
2022-04-07T13:00:00,1364A,114.41,22.6342,深圳市,葵涌,,,38,33,17,15,153,112,95,73,,13,4,4,0.4,0.4
2022-04-07T13:00:00,1365A,114.297,22.5978,深圳市,梅沙,,39,35,43,16,15,156,123,90,80,7,18,6,5,0.5,0.5
2022-04-07T13:00:00,1366A,114.0678,22.738,深圳市,观澜,,,76,68,41,31,238,,67,67,,52,,7,0.2,0.4
2022-04-07T13:00:00,1367A,113.5814,22.2618,珠海市,吉大,,43,38,38,24,17,138,136,96,72,15,20,11,10,0.6,0.5
2022-04-07T13:00:00,1368A,113.4881,22.2335,珠海市,前山,,,41,52,20,16,178,117,107,59,,39,12,11,0.5,0.5
2022-04-07T13:00:00,1369A,113.628,22.4251,珠海市,唐家,,,63,38,,19,231,231,95,87,27,25,14,10,0.4,0.3
2022-04-07T13:00:00,1370A,113.299,22.2281,珠海市,斗门,臭氧1小时,89,59,51,21,21,223,191,107,83,23,26,11,9,0.4,0.4
2022-04-07T13:00:00,1371A,113.1294,23.0067,佛山市,湾梁,,,85,88,27,34,272,177,110,110,15,26,14,13,,0.7
2022-04-07T13:00:00,1372A,113.1083,23.0478,佛山市,华材职中,"颗粒物(PM10),臭氧1小时",62,74,90,22,37,258,169,111,104,17,29,9,8,0.6,0.6
2022-04-07T13:00:00,1373A,113.144,23.0453,佛山市,南海气象局,颗粒物(PM10),61,72,79,26,40,243,163,101,101,17,35,7,7,0.5,0.7
2022-04-07T13:00:00,1374A,113.2881,22.8094,佛山市,顺德苏岗,臭氧1小时,106,74,66,44,36,276,211,98,98,24,36,5,6,0.9,0.9
2022-04-07T13:00:00,1376A,112.8383,22.8678,佛山市,高明孔堂,臭氧1小时,94,96,80,55,50,276,195,123,107,31,24,12,11,0.8,0.8
2022-04-07T13:00:00,1377A,112.8836,23.1588,佛山市,三水监测站,颗粒物(PM10),60,70,91,36,47,175,159,78,73,26,56,8,7,0.7,0.8
2022-04-07T13:00:00,1378A,112.867,23.185,佛山市,三水云东海,臭氧1小时,58,62,85,36,41,206,166,90,82,16,36,12,11,0.7,0.8
2022-04-07T13:00:00,1379A,113.3769,22.5211,中山市,华柏园,颗粒物(PM10),65,80,53,35,31,258,166,107,90,26,26,6,7,0.6,0.7
2022-04-07T13:00:00,1380A,113.3881,22.5497,中山市,张溪,颗粒物(PM10),74,98,68,39,35,236,160,103,84,19,27,5,5,0.4,0.5
2022-04-07T13:00:00,1381A,113.4075,22.5111,中山市,紫马岭,臭氧1小时,63,61,53,27,27,263,170,87,87,17,26,8,6,0.4,0.4
2022-04-07T13:00:00,1382A,113.4411,22.4853,中山市,长江旅游区(对照点),颗粒物(PM10),63,75,45,33,28,264,162,86,86,25,19,6,4,0.5,0.5
2022-04-07T13:00:00,1383A,113.1064,22.6058,江门市,北街,臭氧1小时,112,86,54,42,29,289,224,128,128,26,25,13,10,0.6,0.6
2022-04-07T13:00:00,1384A,113.0731,22.5835,江门市,西区,臭氧1小时,111,76,64,47,34,259,222,119,110,26,29,13,10,0.6,0.6
2022-04-07T13:00:00,1385A,113.0219,22.5311,江门市,圭峰西,臭氧1小时,107,91,59,48,37,253,214,110,110,25,23,12,9,0.6,0.3
2022-04-07T13:00:00,1386A,113.0828,22.5947,江门市,东湖,臭氧1小时,114,92,68,59,34,282,227,123,120,23,23,12,8,0.5,0.5
2022-04-07T13:00:00,1389A,113.7547,23.0494,东莞市,莞城梨川,臭氧1小时,97,60,70,33,33,230,197,90,90,22,42,14,12,0.1,0.3
2022-04-07T13:00:00,1390A,113.7944,23.0128,东莞市,东城石井,臭氧1小时,111,70,64,35,31,269,221,90,90,24,42,13,9,0.6,0.6
2022-04-07T13:00:00,1391A,113.7383,22.9658,东莞市,南城西平,臭氧1小时,116,77,71,50,41,264,232,84,84,26,44,11,9,0.7,0.7
2022-04-07T13:00:00,1392A,114.4183,23.0528,惠州市,河南岸金山湖子站,颗粒物(PM10),57,63,53,31,23,182,149,82,82,11,24,7,6,0.5,0.5
2022-04-07T13:00:00,1393A,114.4053,23.0822,惠州市,下埔横江三路子站,颗粒物(PM10),53,56,53,26,21,185,149,89,89,13,25,8,6,0.5,0.5
2022-04-07T13:00:00,1394A,114.4103,23.1142,惠州市,江北云山西路子站,颗粒物(PM10),58,65,52,33,27,184,152,86,86,7,21,9,8,0.4,0.5
2022-04-07T13:00:00,1395A,114.4645,22.7833,惠州市,惠阳区承修路船湖子站,颗粒物(PM10),56,61,53,32,22,228,157,96,85,15,19,6,5,0.6,0.6
2022-04-07T13:00:00,1396A,114.5317,22.7422,惠州市,大亚湾管委会子站,颗粒物(PM10),59,68,50,27,21,168,151,88,75,21,27,6,5,0.7,0.7
2022-04-07T13:00:00,1397A,112.4267,23.0706,肇庆市,睦岗子站,,50,44,89,26,54,237,157,80,80,16,55,12,15,0.7,0.9
2022-04-07T13:00:00,1398A,112.4645,23.0475,肇庆市,城中子站,臭氧1小时,62,51,93,30,57,245,169,72,72,27,57,18,24,0.7,0.9
2022-04-07T13:00:00,1399A,112.5544,23.1522,肇庆市,坑口子站,臭氧1小时,65,71,71,46,47,243,172,118,101,20,21,18,12,0.6,0.6
2022-04-07T13:00:00,1400A,112.4753,23.1,肇庆市,七星岩子站(对照点),臭氧1小时,55,48,84,33,54,233,164,130,101,13,27,16,18,0.8,0.8
2022-04-07T13:00:00,1401A,108.3103,22.7881,南宁市,二十一中,颗粒物(PM10),59,67,73,29,41,138,138,61,61,11,42,11,14,0.6,0.9
2022-04-07T13:00:00,1402A,108.3141,22.8528,南宁市,北湖,,50,50,75,30,39,128,128,66,66,8,37,13,15,0.6,0.8
2022-04-07T13:00:00,1403A,108.3206,22.8225,南宁市,市监测站,,,,78,,42,127,127,49,49,17,58,13,14,0.6,1.1
2022-04-07T13:00:00,1404A,108.3829,22.8037,南宁市,大自然花园,细颗粒物(PM2.5),52,50,56,36,41,130,130,56,56,13,43,11,9,0.6,0.7
2022-04-07T13:00:00,1405A,108.4394,22.7904,南宁市,仙葫(对照点),,,61,71,31,43,125,125,46,46,,43,10,10,0.2,0.5
2022-04-07T13:00:00,1406A,108.2397,22.8467,南宁市,区农职院,颗粒物(PM10),53,56,46,20,27,138,138,65,65,11,26,12,10,0.6,0.7
2022-04-07T13:00:00,1407A,108.3275,22.735,南宁市,英华嘉园,,49,49,68,28,40,130,130,62,62,14,46,11,15,0.7,1
2022-04-07T13:00:00,1408A,108.2257,22.7757,南宁市,沙井镇街道办,颗粒物(PM10),54,58,79,29,41,132,132,61,61,13,39,9,26,0.6,0.8
2022-04-07T13:00:00,1409A,110.576,19.9507,海口市,东寨港(对照点),臭氧1小时,79,43,28,22,15,183,183,79,79,6,9,6,7,0.5,0.4
2022-04-07T13:00:00,1410A,110.3232,20.0574,海口市,海南大学,,44,28,33,17,16,139,139,60,60,2,22,6,5,0.4,0.4
2022-04-07T13:00:00,1411A,110.283,20.0053,海口市,秀英海南医院,,,42,44,,24,170,170,73,73,2,21,5,5,0.3,0.4
2022-04-07T13:00:00,1412A,110.338,19.9969,海口市,海南师范大学,臭氧1小时,63,47,38,21,19,170,170,74,74,2,18,5,3,0.4,0.4
2022-04-07T13:00:00,1413A,110.33,20.0356,海口市,龙华路环保局宿舍,,50,33,33,20,16,159,159,84,76,2,17,7,5,0.4,0.4
2022-04-07T13:00:00,1414A,106.3787,29.8279,重庆市,缙云山(对照点),,39,39,42,20,25,118,109,118,77,25,16,12,12,0.9,0.8
2022-04-07T13:00:00,1416A,106.4213,29.8253,重庆市,天生,,38,38,53,23,29,113,113,35,35,15,34,6,9,0.7,0.7
2022-04-07T13:00:00,1417A,106.6263,29.7228,重庆市,两路,,,52,56,36,34,118,118,43,42,,51,,12,0.9,0.9
2022-04-07T13:00:00,1418A,106.2953,29.5983,重庆市,虎溪,颗粒物(PM10),54,57,45,32,32,107,79,29,29,42,41,5,4,0.9,0.9
2022-04-07T13:00:00,1419A,106.5777,29.5102,重庆市,南坪,,47,47,60,30,45,92,92,34,34,38,48,8,8,0.7,0.8
2022-04-07T13:00:00,1420A,106.6556,29.6277,重庆市,唐家沱,颗粒物(PM10),54,57,57,30,33,90,90,29,29,41,48,8,4,0.9,0.7
2022-04-07T13:00:00,1421A,106.6349,29.4906,重庆市,茶园,颗粒物(PM10),51,51,64,30,36,104,104,35,35,23,43,10,7,0.8,0.9
2022-04-07T13:00:00,1422A,106.3754,29.4572,重庆市,白市驿,细颗粒物(PM2.5),72,88,58,52,35,104,84,83,61,83,30,12,17,1.3,1
2022-04-07T13:00:00,1425A,106.6205,29.7166,重庆市,空港,颗粒物(PM10),53,55,66,36,37,129,129,58,58,21,47,11,9,0.7,0.7
2022-04-07T13:00:00,1426A,106.4782,29.4875,重庆市,新山村,"颗粒物(PM10),细颗粒物(PM2.5)",60,70,78,43,41,79,69,19,19,65,72,10,12,0.9,1.1
2022-04-07T13:00:00,1427A,106.5616,29.6453,重庆市,礼嘉,颗粒物(PM10),53,55,64,30,34,101,76,30,30,55,67,12,9,0.6,0.7
2022-04-07T13:00:00,1428A,106.4522,29.7091,重庆市,蔡家,,44,44,48,20,30,112,89,36,36,45,35,5,4,0.7,0.6
2022-04-07T13:00:00,1429A,106.5093,29.3917,重庆市,鱼新街,颗粒物(PM10),53,56,65,24,34,98,98,34,34,47,52,8,12,1.0,1
2022-04-07T13:00:00,1431A,103.9728,30.7236,成都市,金泉两河,细颗粒物(PM2.5),93,88,69,69,48,120,100,33,33,40,31,4,6,0.8,0.7
2022-04-07T13:00:00,1432A,104.1419,30.6764,成都市,十里店,颗粒物(PM10),66,82,86,44,43,108,108,36,36,21,49,8,5,0.6,0.6
2022-04-07T13:00:00,1433A,104.0594,30.5767,成都市,三瓦窑,细颗粒物(PM2.5),62,68,75,44,48,106,96,34,34,23,52,7,4,0.5,0.7
2022-04-07T13:00:00,1434A,104.1122,30.6306,成都市,沙河铺,,,76,80,63,64,106,103,27,27,24,36,,6,,0.8
2022-04-07T13:00:00,1437A,104.0431,30.6556,成都市,君平街,细颗粒物(PM2.5),87,78,85,64,65,119,107,42,42,30,54,8,6,0.6,0.7
2022-04-07T13:00:00,1438A,103.6202,31.0201,成都市,灵岩寺(对照点),,,70,57,73,51,120,94,72,62,6,12,,7,,0.5
2022-04-07T13:00:00,1439A,106.6899,26.5998,贵阳市,马鞍山,,48,48,36,22,20,106,106,39,39,6,20,5,6,0,0.5
2022-04-07T13:00:00,1440A,106.6971,26.5694,贵阳市,市环保站,颗粒物(PM10),51,52,48,21,25,100,100,40,40,9,35,8,12,0.2,0.4
2022-04-07T13:00:00,1441A,106.6243,26.6266,贵阳市,鉴湖路,,48,48,41,14,19,118,118,85,85,4,14,2,4,0,0.3
2022-04-07T13:00:00,1442A,106.7487,26.6343,贵阳市,燕子冲,颗粒物(PM10),51,51,41,27,28,117,117,55,55,5,14,7,13,0.4,0.5
2022-04-07T13:00:00,1443A,106.6555,26.4365,贵阳市,碧云窝,颗粒物(PM10),59,68,51,24,24,120,120,54,54,13,19,10,8,0.3,0.4
2022-04-07T13:00:00,1444A,106.694,26.5161,贵阳市,中院村,颗粒物(PM10),51,51,50,19,27,123,123,41,41,7,34,7,14,0.3,0.6
2022-04-07T13:00:00,1445A,106.7109,26.6027,贵阳市,红边门,颗粒物(PM10),51,51,43,22,24,120,120,59,59,10,27,2,16,0.1,0.3
2022-04-07T13:00:00,1446A,106.7164,26.5699,贵阳市,新华路,颗粒物(PM10),51,51,45,14,23,115,115,50,50,3,24,5,11,0.1,0.3
2022-04-07T13:00:00,1447A,106.674,26.5424,贵阳市,太慈桥,颗粒物(PM10),51,51,46,14,17,103,103,40,40,9,26,5,4,0.3,0.4
2022-04-07T13:00:00,1450A,102.8204,24.8886,昆明市,呈贡新区,,35,23,42,10,21,112,112,51,51,7,37,11,9,0.3,0.4
2022-04-07T13:00:00,1451A,102.6251,24.9608,昆明市,西山森林公园(对照点),颗粒物(PM10),59,67,25,18,14,107,107,86,86,16,14,9,8,0.3,0.4
2022-04-07T13:00:00,1452A,102.7252,25.0902,昆明市,龙泉镇,,37,22,27,8,15,116,116,48,48,8,26,11,9,0.3,0.5
2022-04-07T13:00:00,1453A,102.7266,25.0375,昆明市,东风东路,,37,24,31,12,20,117,117,54,54,7,20,6,6,0.3,0.5
2022-04-07T13:00:00,1454A,102.6742,25.0669,昆明市,金鼎山,,39,21,36,9,24,122,122,62,62,7,20,8,26,0.3,0.5
2022-04-07T13:00:00,1455A,102.6644,25.0401,昆明市,碧鸡广场,,36,23,34,15,22,113,113,60,60,15,22,11,16,0.3,0.4
2022-04-07T13:00:00,1456A,91.1319,29.6514,拉萨市,八廓街,,28,28,20,8,8,94,82,63,60,4,7,6,7,0.3,0.2
2022-04-07T13:00:00,1457A,91.1221,29.6747,拉萨市,市环保局,,31,16,22,11,10,107,97,70,61,6,10,4,5,0.3,0.3
2022-04-07T13:00:00,1458A,91.0874,29.6475,拉萨市,区监测站,,28,20,19,6,7,94,88,68,60,8,11,6,7,0.4,0.3
2022-04-07T13:00:00,1459A,91.1774,29.6541,拉萨市,西藏大学,,26,16,20,8,7,94,81,65,56,9,9,5,6,0.4,0.4
2022-04-07T13:00:00,1460A,90.9798,29.6588,拉萨市,区辐射站,,28,26,21,12,12,101,88,62,51,8,19,6,6,0.5,0.3
2022-04-07T13:00:00,1461A,91.0834,29.6292,拉萨市,拉萨火车站,,28,24,23,4,5,102,87,83,51,7,11,5,5,0.3,0.3
2022-04-07T13:00:00,1462A,108.882,34.2749,西安市,高压开关厂,颗粒物(PM10),93,136,123,45,35,127,86,31,31,45,55,11,9,0.6,0.6
2022-04-07T13:00:00,1463A,108.993,34.2629,西安市,兴庆小区,细颗粒物(PM2.5),142,122,98,108,40,125,82,72,72,46,55,10,8,0.8,1
2022-04-07T13:00:00,1464A,109.06,34.2572,西安市,纺织城,颗粒物(PM10),90,129,119,58,37,125,88,26,26,44,57,10,7,0.5,0.4
2022-04-07T13:00:00,1465A,108.9356,34.2173,西安市,小寨,颗粒物(PM10),90,130,120,54,48,122,85,28,28,43,65,9,6,0.5,0.6
2022-04-07T13:00:00,1466A,108.954,34.2713,西安市,市人民体育场,,,136,109,46,36,122,68,22,22,43,56,,7,0.6,0.7
2022-04-07T13:00:00,1467A,108.8922,34.2322,西安市,高新西区,颗粒物(PM10),82,114,100,45,31,123,87,31,31,49,59,14,11,0.5,0.5
2022-04-07T13:00:00,1468A,108.935,34.3474,西安市,经开区,细颗粒物(PM2.5),102,141,116,76,46,121,96,31,31,32,51,8,4,0.4,0.5
2022-04-07T13:00:00,1469A,108.906,34.1546,西安市,长安区,颗粒物(PM10),104,158,119,55,42,122,74,33,33,44,47,11,8,0.7,0.6
2022-04-07T13:00:00,1471A,109.2186,34.3731,西安市,临潼区,颗粒物(PM10),122,194,112,91,53,140,140,80,56,25,34,11,6,0.7,0.5
2022-04-07T13:00:00,1472A,108.869,34.378,西安市,草滩(对照点),"颗粒物(PM10),细颗粒物(PM2.5)",100,150,158,75,52,125,89,26,26,21,46,9,5,0.5,0.7
2022-04-07T13:00:00,1473A,108.985,34.1978,西安市,曲江文化产业集团,颗粒物(PM10),96,141,102,37,29,121,72,58,58,50,62,9,5,0.5,0.5
2022-04-07T13:00:00,1474A,109.051,34.3213,西安市,广运潭,细颗粒物(PM2.5),137,154,109,104,39,129,100,42,42,38,43,10,4,0.6,0.4
2022-04-07T13:00:00,1476A,103.631,36.1031,兰州市,兰炼宾馆,颗粒物(PM10),78,106,100,42,33,154,152,62,62,42,39,41,21,0.6,0.6
2022-04-07T13:00:00,1477A,104.1373,35.9454,兰州市,榆中兰大校区(对照点),颗粒物(PM10),66,81,80,19,20,145,122,94,94,20,16,14,7,0.8,0.6
2022-04-07T13:00:00,1478A,103.8412,36.0726,兰州市,生物制品所,颗粒物(PM10),74,98,102,30,25,141,97,34,34,39,47,27,15,0.7,0.6
2022-04-07T13:00:00,1479A,103.831,36.0464,兰州市,铁路设计院,颗粒物(PM10),77,104,103,37,36,132,84,33,33,52,61,32,21,0.8,1
2022-04-07T13:00:00,1483A,101.524,36.6867,西宁市,第五水厂(对照点),,,,62,,17,130,116,73,73,16,16,16,11,,0.6
2022-04-07T13:00:00,1484A,105.9512,38.6016,银川市,贺兰山马莲口(对照点),,,,28,,8,101,80,77,74,15,5,,8,,0.4
2022-04-07T13:00:00,1488A,106.2328,38.4975,银川市,贺兰山东路,颗粒物(PM10),54,58,43,21,14,121,94,54,54,13,32,20,9,0.5,0.5
2022-04-07T13:00:00,1489A,106.1358,38.5036,银川市,学院路,颗粒物(PM10),59,68,57,12,16,115,98,48,48,11,33,20,11,0.5,0.5
2022-04-07T13:00:00,1490A,87.5801,43.8303,乌鲁木齐市,监测站,颗粒物(PM10),67,84,102,24,27,154,119,64,64,23,44,15,8,1.1,0.7
2022-04-07T13:00:00,1491A,87.6046,43.768,乌鲁木齐市,收费所,颗粒物(PM10),68,85,87,31,32,141,110,61,61,20,43,6,6,0.4,0.4
2022-04-07T13:00:00,1492A,87.4754,43.9469,乌鲁木齐市,新疆农科院农场(对照点),,46,46,74,26,34,133,101,53,53,13,39,12,11,0.4,0.5
2022-04-07T13:00:00,1493A,87.5525,43.8711,乌鲁木齐市,铁路局,颗粒物(PM10),59,68,80,22,30,142,117,80,80,18,36,8,7,0.7,0.7
2022-04-07T13:00:00,1494A,87.6432,43.831,乌鲁木齐市,三十一中学,颗粒物(PM10),66,81,84,27,21,141,102,70,70,28,33,12,8,0.7,0.4
2022-04-07T13:00:00,1496A,87.7216,44.1747,乌鲁木齐市,米东区环保局,颗粒物(PM10),85,120,97,39,30,141,103,40,40,26,32,12,10,0.5,0.5
2022-04-07T13:00:00,1508A,112.9433,27.8614,湘潭市,板塘,臭氧1小时,60,57,88,31,51,198,168,65,65,11,43,15,13,0.8,0.9
2022-04-07T13:00:00,1511A,112.9118,27.8403,湘潭市,市监测站,颗粒物(PM10),58,66,76,37,54,183,152,62,62,14,36,23,13,1.0,1
2022-04-07T13:00:00,1512A,112.8937,27.8728,湘潭市,江麓,,,79,81,30,45,174,144,56,56,20,36,,13,0.6,0.7
2022-04-07T13:00:00,1513A,112.9227,27.8159,湘潭市,岳塘,臭氧1小时,70,57,88,27,52,197,176,82,82,12,36,15,14,0.6,0.9
2022-04-07T13:00:00,1514A,112.9074,27.9119,湘潭市,科大,颗粒物(PM10),77,103,83,43,45,183,167,92,72,20,38,16,11,0.8,0.9
2022-04-07T13:00:00,1515A,113.135,27.8244,株洲市,天台山庄,臭氧1小时,59,56,74,27,53,195,167,80,80,15,55,14,12,0.3,0.5
2022-04-07T13:00:00,1518A,113.095,27.8867,株洲市,株冶医院,臭氧1小时,85,63,78,30,50,205,188,78,78,16,57,15,10,0.6,0.7
2022-04-07T13:00:00,1519A,113.167,27.8667,株洲市,市四中,,,,89,30,55,176,159,89,89,,44,11,11,0.7,0.6
2022-04-07T13:00:00,1520A,113.143,27.8381,株洲市,火车站,臭氧1小时,82,70,89,28,51,206,185,85,85,11,50,14,12,0.5,0.9
2022-04-07T13:00:00,1524A,113.13,27.8528,株洲市,市监测站,颗粒物(PM10),63,75,91,36,52,189,164,77,77,14,54,16,12,0.8,1
2022-04-07T13:00:00,1552A,106.805,26.3003,贵阳市,桐木岭(对照点),颗粒物(PM10),57,63,51,19,26,120,120,104,104,4,9,10,15,0.3,0.3
2022-04-07T13:00:00,1559A,113.251,27.8336,株洲市,大京风景区(对照点),臭氧1小时,55,39,37,23,34,176,164,83,83,6,8,11,7,0.4,0.5
2022-04-07T13:00:00,1562A,113.0048,27.9153,湘潭市,昭山,颗粒物(PM10),60,70,76,27,45,177,155,55,55,17,50,15,10,0.7,0.6
2022-04-07T13:00:00,1564A,112.4876,27.9164,湘潭市,韶山(对照点),颗粒物(PM10),65,80,49,32,21,166,166,88,88,15,8,20,7,0.6,0.4
2022-04-07T13:00:00,1585A,109.8756,40.6532,包头市,市环境监测站,颗粒物(PM10),67,84,46,46,21,95,95,43,43,18,33,32,13,0.9,0.7
2022-04-07T13:00:00,1587A,109.9991,40.5842,包头市,包头八中,颗粒物(PM10),64,77,49,23,16,102,102,43,43,12,30,22,15,0.4,0.5
2022-04-07T13:00:00,1588A,109.8538,40.6821,包头市,青山宾馆,细颗粒物(PM2.5),67,79,58,48,32,93,89,40,40,16,32,25,15,1.0,0.9
2022-04-07T13:00:00,1589A,109.8642,40.6288,包头市,惠龙物流,颗粒物(PM10),76,102,49,48,21,96,94,40,40,12,36,21,13,0.4,0.8
2022-04-07T13:00:00,1590A,110.0377,40.5546,包头市,东河鸿龙湾,,43,43,40,27,12,114,114,50,50,5,28,20,15,0.4,0.5
2022-04-07T13:00:00,1591A,110.0023,39.8129,鄂尔多斯市,综合楼,,45,45,52,23,22,104,98,77,77,10,27,4,7,0.6,0.5
2022-04-07T13:00:00,1592A,109.9486,39.8261,鄂尔多斯市,巴音孟克林场办事处,,31,24,45,12,12,107,99,90,90,5,16,8,10,0.4,0.5
2022-04-07T13:00:00,1593A,109.7736,39.5986,鄂尔多斯市,康泽苑,,35,31,42,5,6,114,109,73,73,4,8,4,4,0.4,0.4
2022-04-07T13:00:00,1594A,109.8119,39.5989,鄂尔多斯市,华泰汽车城,,35,34,46,7,11,114,110,60,60,6,22,6,6,0.4,0.4
2022-04-07T13:00:00,1595A,109.9734,39.7884,鄂尔多斯市,奥林花园,细颗粒物(PM2.5),63,30,57,45,13,106,99,64,64,5,32,4,6,0.5,0.6
2022-04-07T13:00:00,1597A,122.2703,40.7094,营口市,大庆路,,49,49,35,23,15,117,114,83,80,11,14,9,7,0.8,0.7
2022-04-07T13:00:00,1598A,122.215,40.6511,营口市,镜湖西路,,42,42,36,22,15,116,109,84,81,12,12,7,6,0.9,0.6
2022-04-07T13:00:00,1599A,122.167,40.6655,营口市,西炮台,,44,44,35,18,18,116,111,83,81,16,17,8,6,0.8,0.6
2022-04-07T13:00:00,1600A,124.3303,40.0625,丹东市,江湾东路,,39,39,46,24,27,97,88,61,61,16,19,11,11,0.6,0.6
2022-04-07T13:00:00,1601A,124.4256,40.1503,丹东市,临江后街,,42,42,41,22,22,99,96,71,71,14,14,11,10,0.6,0.8
2022-04-07T13:00:00,1602A,124.3933,40.1461,丹东市,元宝山,,41,41,37,21,23,92,88,65,65,16,14,14,11,0.7,0.7
2022-04-07T13:00:00,1603A,124.3633,40.1092,丹东市,民主桥,,44,44,40,22,20,91,90,64,64,14,13,15,10,0.6,0.5
2022-04-07T13:00:00,1604A,122.0303,41.1489,盘锦市,开发区,,,46,31,17,17,99,97,74,66,,18,9,7,0.6,0.8
2022-04-07T13:00:00,1605A,122.0485,41.0883,盘锦市,兴隆台,,47,47,34,16,14,100,92,79,65,17,20,10,8,0.7,0.7
2022-04-07T13:00:00,1606A,121.8297,41.1028,盘锦市,新生街道,,44,44,26,19,10,101,97,74,68,17,18,8,8,0.6,0.7
2022-04-07T13:00:00,1607A,120.9092,40.7136,葫芦岛市,龙港区,颗粒物(PM10),76,102,54,22,16,99,99,67,67,17,19,19,30,0.5,0.9
2022-04-07T13:00:00,1608A,120.8392,40.7514,葫芦岛市,化工街,颗粒物(PM10),77,103,60,32,23,103,103,67,67,14,21,15,11,0.6,0.8
2022-04-07T13:00:00,1609A,120.8341,40.7073,葫芦岛市,新区,颗粒物(PM10),69,87,41,32,18,101,101,64,64,21,23,39,16,0.9,0.7
2022-04-07T13:00:00,1610A,120.8695,40.7677,葫芦岛市,东城区,颗粒物(PM10),72,94,48,22,20,99,99,59,59,15,25,14,13,0.8,0.7
2022-04-07T13:00:00,1611A,118.5819,24.9117,泉州市,涂山街,,49,44,23,16,12,155,155,96,96,12,9,8,7,0.4,0.5
2022-04-07T13:00:00,1612A,118.5972,24.8978,泉州市,津头埔,,49,48,23,19,12,154,154,97,97,16,10,10,8,0.5,0.5
2022-04-07T13:00:00,1613A,118.6663,24.9424,泉州市,万安,颗粒物(PM10),53,56,27,15,13,147,147,98,98,9,6,10,9,0.6,0.6
2022-04-07T13:00:00,1614A,118.6117,24.9604,泉州市,清源山(对照点),,49,40,26,16,14,154,154,108,108,8,7,8,8,0.6,0.5
2022-04-07T13:00:00,1616A,117.6795,36.229,济南市,技术学院,细颗粒物(PM2.5),115,168,131,87,52,165,152,70,70,34,41,47,20,2.7,1.2
2022-04-07T13:00:00,1618A,118.3429,35.0532,临沂市,沂河小区,细颗粒物(PM2.5),93,124,100,69,60,127,120,80,74,23,18,16,13,0.7,0.8
2022-04-07T13:00:00,1619A,118.295,35.0583,临沂市,鲁南制药厂,细颗粒物(PM2.5),90,122,88,67,44,137,121,84,80,37,26,15,12,1.0,1.1
2022-04-07T13:00:00,1620A,118.2794,34.9976,临沂市,新光毛纺厂,颗粒物(PM10),89,127,92,62,47,129,111,87,67,19,18,12,7,1.0,0.9
2022-04-07T13:00:00,1621A,118.3956,35.0888,临沂市,河东保险公司,细颗粒物(PM2.5),87,114,95,64,55,121,119,66,66,26,28,12,9,1.0,1
2022-04-07T13:00:00,1622A,116.3032,37.4674,德州市,儿童乐园,颗粒物(PM10),67,84,66,46,20,115,115,63,63,11,23,6,8,0.6,0.6
2022-04-07T13:00:00,1624A,116.2991,37.4451,德州市,监理站,颗粒物(PM10),68,85,65,30,22,107,107,61,61,10,18,9,10,0.3,0.4
2022-04-07T13:00:00,1625A,115.9848,36.4372,聊城市,区政府,颗粒物(PM10),82,113,86,39,23,112,112,60,60,22,25,13,12,0.6,0.5
2022-04-07T13:00:00,1628A,118.0062,37.3803,滨州市,市环保局,颗粒物(PM10),85,119,56,58,21,134,134,80,80,20,18,47,17,3.1,2.4
2022-04-07T13:00:00,1629A,118.0018,37.3617,滨州市,第二水厂,颗粒物(PM10),79,107,57,46,16,111,111,65,65,19,18,38,14,1.0,0.6
2022-04-07T13:00:00,1630A,117.9776,37.393,滨州市,北中新校,颗粒物(PM10),65,80,52,30,17,121,121,69,69,17,22,17,15,0.7,0.5
2022-04-07T13:00:00,1631A,118.0414,36.8103,淄博市,人民公园,细颗粒物(PM2.5),122,168,82,92,30,131,131,65,65,36,27,38,14,1.2,0.3
2022-04-07T13:00:00,1633A,117.8525,36.4847,淄博市,双山,颗粒物(PM10),53,55,97,31,47,122,120,64,64,4,30,4,10,0.5,0.7
2022-04-07T13:00:00,1634A,117.9592,36.6331,淄博市,气象站,颗粒物(PM10),89,127,97,48,30,144,144,72,72,26,39,14,23,0.9,0.8
2022-04-07T13:00:00,1635A,118.3092,36.8194,淄博市,莆田园,颗粒物(PM10),102,153,85,58,30,125,125,77,77,41,31,21,16,0.7,0.6
2022-04-07T13:00:00,1637A,117.558,34.8438,枣庄市,市中区政府,细颗粒物(PM2.5),98,134,114,73,57,157,124,76,76,20,22,16,8,1.2,1.2
2022-04-07T13:00:00,1638A,117.2852,34.7837,枣庄市,薛城环保局,细颗粒物(PM2.5),110,129,101,83,60,154,118,79,79,13,20,14,10,0.6,0.5
2022-04-07T13:00:00,1639A,117.5852,34.7745,枣庄市,峄城区政府,细颗粒物(PM2.5),107,134,119,80,58,141,112,73,68,22,23,13,11,1.0,0.8
2022-04-07T13:00:00,1640A,117.7276,34.5578,枣庄市,台儿庄区环保局,颗粒物(PM10),65,80,74,46,42,131,97,89,79,17,21,9,8,0.9,0.8
2022-04-07T13:00:00,1641A,117.4518,35.0992,枣庄市,山亭区环保局,细颗粒物(PM2.5),92,122,106,68,53,178,143,83,83,32,28,23,16,1.6,1.3
2022-04-07T13:00:00,1642A,121.2514,37.5639,烟台市,开发区,颗粒物(PM10),64,78,57,31,17,112,112,69,64,10,24,6,4,0.5,0.4
2022-04-07T13:00:00,1643A,121.3719,37.5433,烟台市,轴承厂,颗粒物(PM10),74,97,47,44,16,101,101,77,77,27,19,10,6,0.7,0.6
2022-04-07T13:00:00,1644A,121.3181,37.5436,烟台市,西郊化工站,颗粒物(PM10),75,100,56,34,16,112,112,80,80,19,16,11,7,0.5,0.3
2022-04-07T13:00:00,1645A,121.4478,37.4822,烟台市,莱山环保局,颗粒物(PM10),64,78,48,29,12,100,100,76,76,23,14,9,5,0.6,0.5
2022-04-07T13:00:00,1646A,121.2611,37.4967,烟台市,福山环保局,颗粒物(PM10),87,124,61,39,16,122,122,82,82,18,19,10,6,0.9,0.8
2022-04-07T13:00:00,1650A,119.1437,36.7023,潍坊市,环保局,颗粒物(PM10),79,107,76,51,26,158,158,85,85,26,20,16,11,0.8,0.6
2022-04-07T13:00:00,1653A,116.6251,35.4302,济宁市,火炬城,颗粒物(PM10),84,117,100,61,50,146,115,55,55,27,31,12,14,0.9,0.9
2022-04-07T13:00:00,1655A,116.5491,35.4042,济宁市,电化厂,细颗粒物(PM2.5),107,92,94,80,52,144,111,51,51,20,29,10,10,0.9,0.9
2022-04-07T13:00:00,1656A,117.1437,36.1937,泰安市,监测站,细颗粒物(PM2.5),109,134,135,82,58,175,147,65,65,17,32,20,44,0.6,0.9
2022-04-07T13:00:00,1657A,117.0885,36.2017,泰安市,人口学校,,,,125,,53,157,112,43,43,25,35,,12,0.8,0.9
2022-04-07T13:00:00,1658A,117.1089,36.1758,泰安市,电力学校,细颗粒物(PM2.5),122,127,123,92,56,158,125,52,52,,38,16,26,0.7,1
2022-04-07T13:00:00,1659A,119.471,35.4209,日照市,监测站,颗粒物(PM10),69,88,70,35,20,93,92,92,54,21,15,5,5,0.4,0.3
2022-04-07T13:00:00,1660A,119.523,35.4216,日照市,市政府广场,颗粒物(PM10),73,95,70,31,20,103,86,102,73,35,13,6,4,0.5,0.4
2022-04-07T13:00:00,1661A,119.5587,35.4044,日照市,港务局,颗粒物(PM10),80,110,68,31,17,113,96,110,93,30,12,5,3,0.6,0.5
2022-04-07T13:00:00,1662A,122.1214,37.4236,威海市,华夏技校,颗粒物(PM10),63,75,36,27,16,133,129,103,103,15,9,6,4,0.3,0.2
2022-04-07T13:00:00,1663A,122.0508,37.5236,威海市,山大分校,,,59,27,,,117,106,99,99,21,9,9,5,0.4,0.2
2022-04-07T13:00:00,1664A,122.1067,37.5072,威海市,市监测站,颗粒物(PM10),68,85,37,31,12,128,122,96,96,15,12,11,6,0.5,0.3
2022-04-07T13:00:00,1666A,118.6614,37.4309,东营市,市环保局,,,,41,,11,165,165,81,81,,19,125,18,0.6,0.4
2022-04-07T13:00:00,1669A,113.5824,24.7733,韶关市,市八中,,45,43,59,22,39,162,141,74,74,7,23,15,21,0.4,0.6
2022-04-07T13:00:00,1671A,113.5917,24.7972,韶关市,园林处,细颗粒物(PM2.5),54,47,74,38,42,156,133,65,65,3,23,15,22,0.5,0.7
2022-04-07T13:00:00,1672A,113.6735,24.7791,韶关市,韶关学院,,43,28,53,22,43,161,136,68,68,6,16,10,12,0,0.4
2022-04-07T13:00:00,1673A,113.5971,24.6863,韶关市,曲江监测站,,43,41,61,25,40,159,137,57,57,5,31,12,15,0.3,0.9
2022-04-07T13:00:00,1674A,116.6794,23.3667,汕头市,金平子站,,48,48,53,18,20,136,117,84,67,15,21,12,12,0.4,0.5
2022-04-07T13:00:00,1675A,116.7244,23.3633,汕头市,龙湖子站,,,,43,,19,121,92,79,52,16,22,8,9,,0.5
2022-04-07T13:00:00,1676A,116.7258,23.2775,汕头市,濠江子站,,35,26,32,13,15,130,109,82,66,6,11,10,11,0.5,0.6
2022-04-07T13:00:00,1677A,116.7519,23.4714,汕头市,澄海子站,,,30,48,17,22,106,65,74,50,,17,,9,0.4,0.6
2022-04-07T13:00:00,1678A,116.6092,23.2539,汕头市,潮阳子站,,36,34,40,12,13,126,114,76,65,9,17,12,11,0.4,0.5
2022-04-07T13:00:00,1680A,110.3539,21.2706,湛江市,湛江影剧院,"细颗粒物(PM2.5),臭氧1小时",58,64,64,41,40,166,166,84,72,12,24,20,15,0.8,0.8
2022-04-07T13:00:00,1681A,110.3928,21.2228,湛江市,市环境监测站,臭氧1小时,77,60,53,33,33,181,181,89,89,13,21,12,10,0.7,0.7
2022-04-07T13:00:00,1682A,110.4019,21.1997,湛江市,环保局宿舍,颗粒物(PM10),56,62,57,29,33,158,152,86,80,15,26,11,10,0.5,0.6
2022-04-07T13:00:00,1683A,110.4111,21.2028,湛江市,霞山游泳场,,48,48,48,30,32,138,133,79,61,16,22,11,11,0.5,0.5
2022-04-07T13:00:00,1684A,110.3316,21.2679,湛江市,麻章区环保局,细颗粒物(PM2.5),65,73,65,47,40,166,162,84,70,10,18,24,18,0.7,0.6
2022-04-07T13:00:00,1685A,110.4558,21.2567,湛江市,坡头区环保局,颗粒物(PM10),60,70,50,31,31,167,160,85,74,20,17,10,7,0.6,0.6
2022-04-07T13:00:00,1686A,111.0286,21.4688,茂名市,电白南海,颗粒物(PM10),52,54,45,22,24,127,127,80,80,10,13,9,9,0.5,0.6
2022-04-07T13:00:00,1687A,110.9294,21.6533,茂名市,茂石化七小,细颗粒物(PM2.5),79,88,60,58,35,172,172,106,106,12,16,16,18,0.7,0.6
2022-04-07T13:00:00,1688A,110.9107,21.6687,茂名市,健康路,臭氧1小时,75,80,58,52,34,180,180,103,103,11,15,19,26,0.8,0.8
2022-04-07T13:00:00,1689A,110.8592,21.6828,茂名市,高岭,臭氧1小时,72,83,61,41,28,177,177,95,95,12,18,19,22,0.8,0.9
2022-04-07T13:00:00,1690A,116.1231,24.3284,梅州市,梅江月梅,,40,38,56,26,35,151,126,77,74,5,23,7,9,0.4,0.5
2022-04-07T13:00:00,1691A,116.0797,24.2719,梅州市,梅县新城,,,50,63,24,45,155,131,65,65,10,41,6,7,,0.7
2022-04-07T13:00:00,1692A,116.1248,24.2654,梅州市,环境监控中心,,46,46,59,30,42,157,134,73,73,10,38,9,9,0.5,0.6
2022-04-07T13:00:00,1693A,115.3653,22.775,汕尾市,市环保局,,49,49,36,17,20,122,94,78,71,12,12,8,8,0.7,0.6
2022-04-07T13:00:00,1694A,115.3706,22.7898,汕尾市,市政府,,44,44,37,21,23,142,110,79,79,7,11,7,7,0.5,0.5
2022-04-07T13:00:00,1695A,115.3622,22.7925,汕尾市,新城中学,,40,40,38,20,21,137,110,88,79,6,9,6,6,0.7,0.7
2022-04-07T13:00:00,1696A,114.6778,23.7569,河源市,源西(对照点),颗粒物(PM10),51,51,61,22,32,147,147,75,75,7,36,8,6,0.6,0.8
2022-04-07T13:00:00,1697A,114.6944,23.7586,河源市,东埔,,47,47,60,23,34,155,145,79,79,9,29,9,7,0.6,0.8
2022-04-07T13:00:00,1698A,114.6892,23.7233,河源市,老城,,,41,54,27,33,167,143,72,72,,28,10,6,0.7,0.8
2022-04-07T13:00:00,1699A,111.9797,21.8593,阳江市,鸳鸯湖(对照点),颗粒物(PM10),55,60,36,22,24,175,150,111,87,8,9,9,8,0.7,0.7
2022-04-07T13:00:00,1701A,111.9491,21.8658,阳江市,马南垌,颗粒物(PM10),51,52,40,28,25,171,155,106,83,7,13,8,6,0.6,0.6
2022-04-07T13:00:00,1702A,113.0426,23.691,清远市,环保大楼(对照点),,47,42,55,25,40,169,150,105,105,9,19,10,11,0.6,0.7
2022-04-07T13:00:00,1703A,113.0208,23.7106,清远市,凤城街办,,48,48,56,30,36,159,149,106,106,9,20,11,11,0.7,0.9
2022-04-07T13:00:00,1705A,116.6367,23.6719,潮州市,西园路(对照点),,,57,48,30,31,152,124,56,56,11,17,,14,,0.7
2022-04-07T13:00:00,1706A,116.6447,23.6706,潮州市,档案局,颗粒物(PM10),51,51,47,28,31,145,125,58,58,11,17,10,14,0.6,0.6
2022-04-07T13:00:00,1708A,116.3701,23.5345,揭阳市,新兴,,,,58,,36,173,147,71,71,14,23,,12,,0.8
2022-04-07T13:00:00,1709A,116.3264,23.5443,揭阳市,西马,颗粒物(PM10),59,67,69,31,32,174,144,68,68,9,20,9,10,0.6,0.7
2022-04-07T13:00:00,1710A,116.3611,23.5626,揭阳市,东兴,颗粒物(PM10),58,66,68,30,30,171,142,66,66,12,21,18,13,0.8,0.8
2022-04-07T13:00:00,1711A,116.4151,23.5294,揭阳市,渔湖,颗粒物(PM10),53,55,39,21,24,156,139,64,64,10,18,18,11,0.6,0.6
2022-04-07T13:00:00,1712A,112.0392,22.9169,云浮市,新市府(对照点),细颗粒物(PM2.5),72,66,77,52,60,205,171,115,109,14,15,14,12,0.6,0.7
2022-04-07T13:00:00,1714A,112.0539,22.9539,云浮市,牧羊,臭氧1小时,62,60,104,7,42,204,169,115,79,11,35,16,25,0.6,0.7
2022-04-07T13:00:00,1715A,102.575,24.3711,玉溪市,东风水库,,36,22,35,9,21,114,114,67,59,5,16,7,6,0.4,0.5
2022-04-07T13:00:00,1718A,115.4208,35.2464,菏泽市,气象局,颗粒物(PM10),84,118,112,47,35,128,128,72,72,16,23,11,11,0.6,0.4
2022-04-07T13:00:00,1719A,115.4747,35.2375,菏泽市,市政协,颗粒物(PM10),87,123,118,46,32,118,118,70,70,21,21,14,12,0.6,0.5
2022-04-07T13:00:00,1721A,113.3819,40.1097,大同市,果树场(对照点),颗粒物(PM10),64,78,57,35,17,108,100,53,53,6,23,8,16,0.3,0.4
2022-04-07T13:00:00,1723A,113.2994,40.0758,大同市,云冈宾馆,,40,40,77,10,18,104,96,44,44,5,27,6,14,0.3,0.5
2022-04-07T13:00:00,1724A,113.3444,40.0917,大同市,大同大学,,48,48,60,8,14,101,93,51,51,7,21,9,28,0.2,0.4
2022-04-07T13:00:00,1725A,113.2661,40.1269,大同市,安家小村,颗粒物(PM10),55,59,81,12,13,105,100,50,50,2,22,11,19,0.2,0.6
2022-04-07T13:00:00,1726A,113.2711,40.0844,大同市,教育学院,颗粒物(PM10),57,63,70,26,13,96,84,39,39,12,27,6,16,0.3,0.6
2022-04-07T13:00:00,1727A,113.1147,36.1547,长治市,清华站,,,102,119,31,56,135,119,54,41,24,52,25,20,,1.5
2022-04-07T13:00:00,1728A,113.1031,36.1989,长治市,监测站,颗粒物(PM10),58,65,98,24,49,138,126,61,56,11,26,11,12,0.7,1.4
2022-04-07T13:00:00,1730A,113.0886,36.2125,长治市,审计局,,48,48,97,9,48,138,120,73,58,4,26,12,23,0.6,1.7
2022-04-07T13:00:00,1731A,113.0844,36.1856,长治市,长治八中,颗粒物(PM10),66,81,125,39,47,134,120,60,55,12,31,15,19,0.6,1.5
2022-04-07T13:00:00,1733A,111.5531,36.0783,临汾市,临钢医院,颗粒物(PM10),59,67,96,30,48,164,120,67,67,25,42,17,26,0.7,1.1
2022-04-07T13:00:00,1734A,111.5028,36.0714,临汾市,技工学校,颗粒物(PM10),71,91,110,47,49,179,123,63,63,26,39,25,29,0.7,0.9
2022-04-07T13:00:00,1736A,111.5018,36.0855,临汾市,市委,颗粒物(PM10),67,83,96,29,41,162,110,54,54,28,36,23,27,1.0,1.1
2022-04-07T13:00:00,1738A,113.5758,37.8572,阳泉市,市中心,,30,30,125,10,41,118,90,44,44,17,51,12,31,0.4,0.8
2022-04-07T13:00:00,1739A,113.4894,37.8731,阳泉市,赛鱼,,,22,77,14,31,111,89,39,39,,60,14,28,0.3,0.6
2022-04-07T13:00:00,1740A,113.5819,37.8486,阳泉市,南庄,,40,40,110,14,33,115,91,63,42,20,38,14,19,0.5,0.7
2022-04-07T13:00:00,1742A,113.5614,37.8703,阳泉市,平坦,,41,41,126,7,41,112,89,38,38,15,53,11,27,0.5,0.8
2022-04-07T13:00:00,1743A,113.5158,37.8392,阳泉市,大阳泉,,30,29,69,10,29,118,95,75,75,15,26,9,15,0.2,0.5
2022-04-07T13:00:00,1744A,118.9233,42.2816,赤峰市,松山一中,,33,12,30,11,8,104,104,56,56,14,27,11,13,0.5,0.6
2022-04-07T13:00:00,1745A,118.9576,42.2728,赤峰市,哈达街,,33,15,26,11,7,104,104,58,58,10,22,9,12,0.5,0.6
2022-04-07T13:00:00,1746A,118.8788,42.2554,赤峰市,天义路,,33,18,20,10,5,105,105,62,58,11,20,8,10,0.5,0.5
2022-04-07T13:00:00,1748A,123.044,41.1196,鞍山市,深沟寺,颗粒物(PM10),59,68,58,36,31,108,108,79,79,11,20,9,16,0.8,1.1
2022-04-07T13:00:00,1749A,123.011,41.0931,鞍山市,太阳城,颗粒物(PM10),54,58,55,30,31,104,103,72,72,14,25,10,17,0.6,1
2022-04-07T13:00:00,1750A,123.0485,41.1442,鞍山市,太平,颗粒物(PM10),58,66,59,34,31,101,98,71,70,15,27,11,19,0.6,0.9
2022-04-07T13:00:00,1751A,122.9642,41.0971,鞍山市,铁西三道街,颗粒物(PM10),51,52,69,23,38,90,88,71,71,24,28,21,19,1.3,1.1
2022-04-07T13:00:00,1752A,122.9341,41.0833,鞍山市,铁西工业园区,颗粒物(PM10),52,53,69,30,42,109,101,82,82,18,28,15,21,0.8,1.1
2022-04-07T13:00:00,1753A,123.022,41.0821,鞍山市,明达新区,颗粒物(PM10),53,56,62,28,32,99,99,72,70,11,22,8,17,0.8,1.1
2022-04-07T13:00:00,1754A,123.1289,41.0228,鞍山市,千山(对照点),,50,50,43,30,25,91,91,79,72,18,17,11,14,0.6,0.8
2022-04-07T13:00:00,1755A,123.7977,41.8491,抚顺市,望花区,,41,41,67,26,44,97,96,66,66,6,20,10,17,0.5,0.8
2022-04-07T13:00:00,1756A,123.9161,41.8822,抚顺市,顺城区,,35,35,66,24,37,94,94,64,64,9,26,5,11,0.3,0.7
2022-04-07T13:00:00,1757A,124.0436,41.8611,抚顺市,东洲区,,40,40,67,21,34,100,96,64,64,7,21,6,14,0.5,0.8
2022-04-07T13:00:00,1758A,123.9247,41.8642,抚顺市,新抚区,细颗粒物(PM2.5),70,43,75,51,43,101,100,71,71,6,24,7,14,0.5,0.9
2022-04-07T13:00:00,1759A,124.0972,41.8961,抚顺市,大伙房水库,,34,34,55,20,35,126,107,80,76,6,16,5,11,0.4,0.7
2022-04-07T13:00:00,1760A,123.7086,41.8391,抚顺市,沈抚新城,,41,41,64,28,34,107,106,72,72,6,16,5,12,0.8,1
2022-04-07T13:00:00,1761A,123.8275,41.3064,本溪市,大峪,颗粒物(PM10),51,52,50,19,27,102,89,60,60,12,24,17,17,0.7,0.9
2022-04-07T13:00:00,1762A,123.7567,41.3325,本溪市,溪湖,颗粒物(PM10),51,52,66,22,35,98,83,61,61,20,30,17,23,0.6,1.3
2022-04-07T13:00:00,1763A,123.7169,41.3094,本溪市,彩屯,,46,46,66,19,44,102,86,61,61,13,28,13,21,0.6,1.4
2022-04-07T13:00:00,1764A,123.7669,41.2864,本溪市,东明,,45,45,51,22,25,100,84,69,69,16,22,12,13,0.7,0.8
2022-04-07T13:00:00,1765A,123.7992,41.2664,本溪市,新立屯,,49,49,55,20,25,104,87,73,73,12,22,16,16,0.6,0.9
2022-04-07T13:00:00,1767A,121.1115,41.0879,锦州市,南山,,30,30,38,12,20,86,86,52,52,10,22,8,11,0.3,0.3
2022-04-07T13:00:00,1768A,121.0533,40.8434,锦州市,开发区,颗粒物(PM10),53,56,64,14,25,95,95,58,53,12,26,12,15,0.7,0.7
2022-04-07T13:00:00,1769A,121.1836,41.1119,锦州市,百股街道,,31,30,39,13,20,99,99,64,64,12,16,9,12,0.5,0.5
2022-04-07T13:00:00,1770A,121.1178,41.1222,锦州市,天安街道,,31,25,43,12,18,98,98,58,58,9,21,9,14,0.5,0.5
2022-04-07T13:00:00,1771A,121.1303,41.1386,锦州市,北湖公园,,,45,44,11,20,95,95,55,55,7,23,9,12,,0.7
2022-04-07T13:00:00,1772A,126.54,43.8622,吉林市,哈达湾,,31,23,33,4,25,98,98,88,88,3,8,4,6,0.0,0.2
2022-04-07T13:00:00,1773A,126.5844,43.8358,吉林市,东局子,,31,6,37,6,19,98,98,92,88,4,8,4,5,0.6,0.7
2022-04-07T13:00:00,1774A,126.5052,43.8245,吉林市,电力学院,,36,14,33,7,18,114,114,99,99,4,9,7,9,0.4,0.5
2022-04-07T13:00:00,1775A,126.6133,43.8972,吉林市,江北,,32,23,55,6,19,100,100,92,88,7,10,8,9,0.4,0.5
2022-04-07T13:00:00,1776A,126.555,43.8306,吉林市,江南公园,,30,8,35,8,22,95,95,85,85,4,8,5,6,0.5,0.5
2022-04-07T13:00:00,1778A,126.7061,43.7133,吉林市,丰满(对照点),,30,8,32,6,19,98,96,90,90,3,4,5,6,0.5,0.6
2022-04-07T13:00:00,1779A,123.9305,47.3636,齐齐哈尔市,安居小区,,29,18,20,8,13,92,92,76,76,5,10,1,2,0.3,0.3
2022-04-07T13:00:00,1780A,123.9488,47.3386,齐齐哈尔市,中心广场,,,10,14,3,7,88,88,75,75,2,5,4,4,,0.3
2022-04-07T13:00:00,1781A,123.9483,47.3227,齐齐哈尔市,农牧车辆厂,,28,17,24,2,11,89,89,69,69,5,13,2,22,0.4,0.5
2022-04-07T13:00:00,1783A,123.945,47.2988,齐齐哈尔市,市环境监测站,,27,15,19,7,9,84,84,72,72,6,10,3,6,0.4,0.4
2022-04-07T13:00:00,1784A,129.61,44.561,牡丹江市,环保大楼,,42,42,65,23,42,93,93,68,68,6,13,2,4,0.3,0.4
2022-04-07T13:00:00,1785A,129.6115,44.5782,牡丹江市,文化广场,,48,38,58,33,44,95,95,69,69,5,15,2,5,0.2,0.4
2022-04-07T13:00:00,1786A,129.5904,44.5963,牡丹江市,第一医院,细颗粒物(PM2.5),52,41,54,36,45,92,92,70,70,6,13,2,5,0.5,0.6
2022-04-07T13:00:00,1787A,129.6364,44.6075,牡丹江市,机车工厂,,37,37,46,13,26,94,94,71,71,5,14,6,8,0.2,0.3
2022-04-07T13:00:00,1788A,129.6386,44.5462,牡丹江市,第一中学,,38,37,52,26,36,98,98,72,72,7,16,3,3,0.2,0.4
2022-04-07T13:00:00,1789A,124.81117,46.03138,大庆市,大同区,,30,16,25,12,23,96,96,78,78,4,6,4,4,0.8,0.8
2022-04-07T13:00:00,1790A,125.129,46.533,大庆市,龙凤区,,26,14,31,15,18,81,81,64,64,8,19,8,9,0.2,0.4
2022-04-07T13:00:00,1791A,124.902,46.408,大庆市,红岗区,,27,8,26,8,20,90,84,70,70,2,8,4,4,0.6,0.8
2022-04-07T13:00:00,1792A,125.153,46.586,大庆市,萨尔图区,,29,24,26,16,29,92,91,68,68,6,19,6,9,0.3,0.4
2022-04-07T13:00:00,1793A,124.9042,46.6215,大庆市,让胡路区,,29,14,28,9,14,91,91,74,74,3,20,5,5,0.8,0.8
2022-04-07T13:00:00,1794A,118.3606,31.3519,芜湖市,监测站,,,64,81,20,19,161,161,47,46,28,60,,16,,0.7
2022-04-07T13:00:00,1795A,118.3714,31.4134,芜湖市,科创中心,,,70,69,,37,150,148,54,54,29,65,25,12,1.6,0.9
2022-04-07T13:00:00,1796A,118.3673,31.3131,芜湖市,四水厂,颗粒物(PM10),68,85,74,21,18,159,159,71,56,27,46,21,11,1.4,0.7
2022-04-07T13:00:00,1798A,118.5092,31.6837,马鞍山市,湖东路四小,,,,66,35,33,153,144,77,77,24,45,16,9,0.8,0.9
2022-04-07T13:00:00,1799A,118.5024,31.6449,马鞍山市,开发区,细颗粒物(PM2.5),70,80,78,51,29,145,139,66,66,32,60,20,12,1.1,1
2022-04-07T13:00:00,1800A,118.5228,31.7231,马鞍山市,慈湖,颗粒物(PM10),57,63,86,35,39,140,138,77,77,19,56,17,15,0.9,0.9
2022-04-07T13:00:00,1802A,118.6245,31.7241,马鞍山市,濮塘(对照点),颗粒物(PM10),52,54,46,27,23,138,138,104,97,14,12,16,12,0.7,0.4
2022-04-07T13:00:00,1803A,115.9872,29.6815,九江市,十里,,,46,67,14,32,150,150,49,49,15,54,,8,0.7,0.7
2022-04-07T13:00:00,1804A,115.9584,29.7046,九江市,茅山头,,,32,58,11,27,141,136,50,50,17,45,12,10,,0.4
2022-04-07T13:00:00,1805A,115.9877,29.7295,九江市,西园,颗粒物(PM10),55,60,60,30,31,141,141,56,56,20,62,18,14,0.5,0.5
2022-04-07T13:00:00,1806A,116.0172,29.6547,九江市,五七二七厂,,48,33,46,22,20,153,82,99,66,95,27,12,7,1.6,0.6
2022-04-07T13:00:00,1808A,115.9114,29.6038,九江市,综合工业园,,44,37,61,24,31,140,138,75,75,24,38,7,4,0.6,0.5
2022-04-07T13:00:00,1809A,116.0721,29.7535,九江市,石化总厂,颗粒物(PM10),62,74,77,16,32,155,155,48,48,30,56,14,11,0.5,0.5
2022-04-07T13:00:00,1810A,115.9773,29.5698,九江市,庐山气象台(对照点),,42,38,36,20,20,142,134,140,131,10,7,5,5,0.2,0.2
2022-04-07T13:00:00,1812A,112.3931,34.6516,洛阳市,市委党校,颗粒物(PM10),92,134,128,56,48,200,139,89,86,15,18,8,8,0.7,0.7
2022-04-07T13:00:00,1814A,112.4657,34.6871,洛阳市,豫西宾馆,颗粒物(PM10),98,146,122,62,51,182,129,85,85,19,15,11,9,1.0,1
2022-04-07T13:00:00,1815A,112.494,34.6886,洛阳市,河南林校,颗粒物(PM10),97,143,131,58,46,188,132,88,88,23,22,9,7,0.3,0.5
2022-04-07T13:00:00,1816A,112.3844,34.623,洛阳市,开发区管委会,颗粒物(PM10),87,123,121,57,52,203,133,82,81,19,22,6,6,0.5,0.5
2022-04-07T13:00:00,1817A,112.4267,34.6258,洛阳市,市委新办公区,颗粒物(PM10),83,116,131,57,51,193,138,88,88,14,20,7,6,0.6,0.6
2022-04-07T13:00:00,1818A,114.4839,36.0621,安阳市,棉研所(对照点),颗粒物(PM10),85,119,96,44,28,112,112,62,62,17,22,14,8,1.3,0.6
2022-04-07T13:00:00,1819A,114.3551,36.1017,安阳市,红庙街,颗粒物(PM10),89,128,96,46,31,119,119,66,66,28,23,20,10,1.5,0.7
2022-04-07T13:00:00,1820A,114.361,36.0681,安阳市,银杏小区,颗粒物(PM10),90,130,103,60,34,123,123,63,62,24,27,16,9,1.4,0.7
2022-04-07T13:00:00,1824A,114.3389,34.7781,开封市,肿瘤医院,颗粒物(PM10),78,105,105,44,38,127,127,78,78,10,12,11,10,0.8,0.6
2022-04-07T13:00:00,1826A,114.2885,34.7965,开封市,世纪星幼儿园,颗粒物(PM10),74,97,96,40,36,128,128,79,79,12,16,14,13,0.8,0.6
2022-04-07T13:00:00,1828A,113.2269,35.2127,焦作市,市环保局,细颗粒物(PM2.5),85,111,100,63,48,143,117,83,83,18,19,10,8,0.7,0.6
2022-04-07T13:00:00,1829A,113.2467,35.176,焦作市,高新区政府,细颗粒物(PM2.5),89,123,116,66,47,134,118,78,78,20,22,17,12,0.6,0.5
2022-04-07T13:00:00,1830A,113.1987,35.2703,焦作市,影视城(对照点),颗粒物(PM10),99,147,107,58,51,151,113,70,70,14,15,20,15,1.0,0.9
2022-04-07T13:00:00,1832A,113.3257,33.742,平顶山市,新华旅馆,颗粒物(PM10),97,143,141,69,71,183,125,93,93,13,13,12,11,0.4,0.5
2022-04-07T13:00:00,1833A,113.2919,33.737,平顶山市,规划设计院,颗粒物(PM10),102,153,136,49,53,170,118,93,93,17,15,10,10,0.4,0.5
2022-04-07T13:00:00,1834A,113.182,33.774,平顶山市,平顶山工学院,颗粒物(PM10),99,147,143,53,63,179,112,86,86,18,18,7,11,0.5,0.6
2022-04-07T13:00:00,1835A,111.1922,34.7752,三门峡市,市政府,颗粒物(PM10),76,102,109,47,66,151,145,120,102,18,23,14,12,0.7,0.7
2022-04-07T13:00:00,1836A,111.1587,34.7942,三门峡市,开发区,细颗粒物(PM2.5),75,90,117,55,62,152,136,121,99,16,15,23,12,0.5,0.5
2022-04-07T13:00:00,1838A,111.143,34.7955,三门峡市,风景区(对照点),颗粒物(PM10),75,100,110,46,53,151,133,115,96,17,16,21,12,0.7,0.6
2022-04-07T13:00:00,1840A,111.2992,30.6981,宜昌市,白龙岗,,,53,53,24,22,119,108,52,52,18,36,,6,0.2,0.3
2022-04-07T13:00:00,1841A,111.3549,30.6465,宜昌市,伍家岗,,50,50,60,24,26,118,104,42,42,16,36,3,5,0.4,0.5
2022-04-07T13:00:00,1842A,111.2628,30.6961,宜昌市,点军区,颗粒物(PM10),56,62,59,22,26,127,99,47,47,34,30,7,9,0.4,0.5
2022-04-07T13:00:00,1843A,111.3275,30.7819,宜昌市,夷陵区,颗粒物(PM10),51,52,62,19,24,122,112,43,43,14,28,4,4,0.3,0.4
2022-04-07T13:00:00,1844A,112.2494,30.3197,荆州市,市图书馆,,,,70,,38,133,105,98,52,,29,10,15,0.6,0.7
2022-04-07T13:00:00,1845A,112.2008,30.3544,荆州市,市委党校,颗粒物(PM10),58,66,66,39,41,130,114,100,54,12,28,9,12,0.5,0.7
2022-04-07T13:00:00,1847A,113.1094,29.3578,岳阳市,南湖风景区,,,,66,,39,160,154,85,85,12,48,7,9,0.6,0.9
2022-04-07T13:00:00,1848A,113.1493,29.4251,岳阳市,城陵矶,颗粒物(PM10),56,61,71,31,35,148,137,76,76,14,51,14,14,0.5,0.6
2022-04-07T13:00:00,1849A,113.1497,29.3575,岳阳市,开发区,臭氧1小时,64,68,99,28,36,177,171,93,93,8,35,12,10,0.5,0.7
2022-04-07T13:00:00,1850A,113.2621,29.4758,岳阳市,云溪区,,47,38,50,24,34,166,150,88,88,19,24,15,12,0.5,0.6
2022-04-07T13:00:00,1851A,112.9943,29.4402,岳阳市,君山区,臭氧1小时,54,43,55,36,35,163,163,86,86,12,45,9,9,0.7,0.8
2022-04-07T13:00:00,1852A,113.2117,29.355,岳阳市,金凤水库(对照点),,47,40,49,18,33,155,148,105,83,12,22,8,9,0.4,0.5
2022-04-07T13:00:00,1854A,111.6975,28.9703,常德市,市二中,,45,45,44,20,26,120,108,53,53,9,20,6,7,0.9,0.9
2022-04-07T13:00:00,1857A,111.7158,29.1456,常德市,白鹤山(对照点),颗粒物(PM10),56,61,47,21,23,132,127,118,82,9,7,5,8,0.5,0.5
2022-04-07T13:00:00,1858A,110.5319,29.1217,张家界市,永定新区,,43,43,52,25,25,150,131,63,60,6,14,2,2,0.2,0.3
2022-04-07T13:00:00,1859A,110.4697,29.1242,张家界市,电业局,,36,36,35,17,21,132,112,48,48,11,18,6,6,0.1,0.2
2022-04-07T13:00:00,1860A,110.5594,29.3547,张家界市,未央路,颗粒物(PM10),54,58,39,11,9,130,102,57,57,3,7,3,2,0.3,0.4
2022-04-07T13:00:00,1861A,110.4417,29.315,张家界市,袁家界(对照点),,35,11,28,12,13,116,112,110,110,3,2,4,4,0.2,0.2
2022-04-07T13:00:00,1862A,110.4144,25.3167,桂林市,电子科大尧山校区(对照点),,46,45,45,23,32,146,146,77,77,4,6,7,9,0.4,0.5
2022-04-07T13:00:00,1863A,110.2819,25.2697,桂林市,监测站,颗粒物(PM10),86,121,82,37,50,144,144,80,70,8,20,10,16,0.6,0.7
2022-04-07T13:00:00,1864A,110.3089,25.2708,桂林市,龙隐路小学,颗粒物(PM10),52,54,57,31,45,148,148,78,78,7,17,10,23,0.6,0.7
2022-04-07T13:00:00,1865A,110.2869,25.2178,桂林市,八中,颗粒物(PM10),68,86,71,33,46,149,149,65,65,10,25,11,14,0.6,0.8
2022-04-07T13:00:00,1866A,109.2262,21.588,北海市,牛尾岭水库(对照点),细颗粒物(PM2.5),64,64,58,46,50,136,136,74,70,8,15,8,8,0.8,0.9
2022-04-07T13:00:00,1867A,109.1436,21.4086,北海市,海滩公园,细颗粒物(PM2.5),89,106,71,66,46,141,141,96,92,14,15,13,12,1.1,0.7
2022-04-07T13:00:00,1868A,109.0981,21.4661,北海市,新市环保局,细颗粒物(PM2.5),85,72,64,63,55,154,154,88,88,7,14,14,14,0.8,0.8
2022-04-07T13:00:00,1869A,109.1778,21.5233,北海市,北海工业园,细颗粒物(PM2.5),85,72,78,63,55,152,152,84,84,9,22,11,14,0.7,0.8
2022-04-07T13:00:00,1870A,109.4856,24.3895,柳州市,柳东小学,细颗粒物(PM2.5),74,70,68,54,64,146,146,95,95,6,12,14,28,0.7,0.8
2022-04-07T13:00:00,1871A,109.4157,24.3277,柳州市,环保监测站,颗粒物(PM10),76,102,75,51,52,139,137,57,57,12,38,15,18,0.4,0.7
2022-04-07T13:00:00,1872A,109.389,24.341,柳州市,河西水厂,颗粒物(PM10),56,61,79,36,50,135,133,54,54,15,36,20,26,0.9,1
2022-04-07T13:00:00,1873A,109.4311,24.2921,柳州市,市四中,颗粒物(PM10),62,73,84,40,53,138,138,62,62,8,36,17,21,0.5,0.9
2022-04-07T13:00:00,1874A,109.4006,24.3631,柳州市,市九中,颗粒物(PM10),53,56,94,6,42,130,130,56,56,9,35,15,22,0.4,0.7
2022-04-07T13:00:00,1875A,109.4958,24.3134,柳州市,古亭山,细颗粒物(PM2.5),58,55,58,41,46,134,133,65,65,9,28,9,10,0.4,0.5
2022-04-07T13:00:00,1876A,109.5078,18.2489,三亚市,河东子站,,41,33,26,17,12,129,129,80,80,3,4,5,4,0.5,0.5
2022-04-07T13:00:00,1877A,109.4964,18.2681,三亚市,河西子站,,38,33,22,22,13,130,121,78,78,2,3,7,7,0.5,0.4
2022-04-07T13:00:00,1878A,104.7778,31.4741,绵阳市,富乐山,细颗粒物(PM2.5),62,66,54,44,37,123,98,60,44,28,17,10,6,0.8,0.7
2022-04-07T13:00:00,1879A,104.7563,31.4535,绵阳市,市人大,细颗粒物(PM2.5),84,73,71,62,55,120,78,38,38,34,36,11,8,1.0,1
2022-04-07T13:00:00,1880A,104.6697,31.4668,绵阳市,高新区自来水公司,细颗粒物(PM2.5),88,91,80,65,63,121,84,26,23,30,38,10,5,0.8,0.8
2022-04-07T13:00:00,1881A,104.7287,31.5075,绵阳市,三水厂,细颗粒物(PM2.5),84,91,95,62,67,115,59,20,20,43,41,6,4,1.0,0.9
2022-04-07T13:00:00,1882A,104.563,28.793,宜宾市,石马中学(对照点),,22,22,52,12,42,110,65,25,25,18,35,8,10,0.5,0.7
2022-04-07T13:00:00,1883A,104.6201,28.7728,宜宾市,市委,,29,29,56,16,40,113,65,22,22,21,40,14,10,0.5,0.7
2022-04-07T13:00:00,1884A,104.6055,28.793,宜宾市,宜宾四中,,28,28,58,16,41,111,66,24,24,19,39,12,11,0.5,0.6
2022-04-07T13:00:00,1885A,104.639,28.7562,宜宾市,市政府,,35,35,64,18,43,113,64,18,18,20,44,19,13,0.5,0.6
2022-04-07T13:00:00,1886A,104.5742,28.7199,宜宾市,黄金嘴,,27,27,42,13,28,107,64,29,29,15,28,12,10,0.4,0.6
2022-04-07T13:00:00,1888A,101.6891,26.571,攀枝花市,弄弄坪,细颗粒物(PM2.5),84,51,62,62,40,64,64,34,19,20,35,22,18,2.6,2.3
2022-04-07T13:00:00,1889A,101.5769,26.5928,攀枝花市,河门口,,36,33,52,25,31,73,73,25,25,15,36,12,15,1.1,1.8
2022-04-07T13:00:00,1890A,101.7169,26.585,攀枝花市,炳草岗,细颗粒物(PM2.5),87,60,52,64,52,57,57,19,19,38,47,44,26,3.0,1.7
2022-04-07T13:00:00,1891A,101.7369,26.5008,攀枝花市,仁和,细颗粒物(PM2.5),54,50,34,38,24,69,69,29,29,29,25,28,8,2.0,1.1
2022-04-07T13:00:00,1893A,105.4324,28.9634,泸州市,九狮山(对照点),,32,28,48,18,33,123,101,51,51,17,24,10,9,0.3,0.4
2022-04-07T13:00:00,1894A,105.4427,28.9063,泸州市,小市上码头,,36,33,57,25,38,115,101,55,55,18,33,13,11,0.4,0.5
2022-04-07T13:00:00,1895A,105.4241,28.8573,泸州市,兰田宪桥,,39,37,58,27,35,107,87,37,37,22,31,10,12,0.5,0.6
2022-04-07T13:00:00,1896A,105.4379,28.8833,泸州市,市环监站,,27,23,56,18,34,109,86,32,32,24,37,8,12,0.3,0.5
2022-04-07T13:00:00,1901A,104.4239,31.1208,德阳市,东山公园,细颗粒物(PM2.5),92,101,76,68,53,109,90,80,53,28,29,8,7,0.6,0.7
2022-04-07T13:00:00,1902A,104.3826,31.1317,德阳市,西小区,细颗粒物(PM2.5),95,103,84,71,56,98,86,34,25,35,44,12,8,0.7,0.7
2022-04-07T13:00:00,1904A,104.3553,31.1091,德阳市,耐火材料厂,细颗粒物(PM2.5),113,102,101,85,69,98,95,53,29,28,43,13,9,0.5,0.6
2022-04-07T13:00:00,1905A,106.056,30.8064,南充市,西山风景区(对照点),细颗粒物(PM2.5),59,41,46,42,39,115,115,88,54,11,16,2,5,0.6,0.7
2022-04-07T13:00:00,1906A,106.0789,30.8023,南充市,南充市委,颗粒物(PM10),54,58,62,35,37,111,111,53,53,6,27,3,2,0.4,0.6
2022-04-07T13:00:00,1907A,106.1031,30.8217,南充市,南充炼油厂,颗粒物(PM10),56,62,63,35,34,115,115,46,46,6,24,7,10,0.4,0.5
2022-04-07T13:00:00,1908A,106.1064,30.7856,南充市,高坪区监测站,细颗粒物(PM2.5),62,60,57,44,42,107,107,48,48,11,23,1,15,0.4,0.6
2022-04-07T13:00:00,1909A,106.0642,30.7636,南充市,嘉陵区环保局,细颗粒物(PM2.5),55,47,50,39,38,124,124,65,65,5,27,3,5,0.5,0.7
2022-04-07T13:00:00,1910A,106.1087,30.8388,南充市,市环境监测站,细颗粒物(PM2.5),58,63,63,41,42,99,99,38,38,4,28,14,10,0.4,0.5
2022-04-07T13:00:00,1911A,106.9222,27.6869,遵义市,丁字口,,50,50,43,22,25,124,124,51,51,19,25,10,11,0.4,0.5
2022-04-07T13:00:00,1912A,106.9242,27.7019,遵义市,凤凰山,,46,46,35,20,25,126,126,74,74,18,15,6,7,0.3,0.3
2022-04-07T13:00:00,1913A,106.8906,27.6486,遵义市,忠庄,,50,50,44,23,25,124,124,62,49,18,25,4,4,0.2,0.3
2022-04-07T13:00:00,1914A,106.9231,27.6506,遵义市,舟水桥,,44,44,44,24,25,123,123,42,42,20,31,6,7,0.3,0.5
2022-04-07T13:00:00,1915A,106.9178,27.72,遵义市,干田坝,,40,38,37,21,25,128,128,56,56,16,16,9,7,0.6,0.5
2022-04-07T13:00:00,1916A,103.7897,25.5035,曲靖市,环境监测站,,37,12,32,25,13,118,118,75,66,8,19,8,8,0.5,0.7
2022-04-07T13:00:00,1917A,103.8,25.5364,曲靖市,烟厂办公区,,40,36,34,12,13,126,126,67,67,6,14,14,7,0.4,0.4
2022-04-07T13:00:00,1918A,108.7197,34.3956,咸阳市,气象站(对照点),细颗粒物(PM2.5),92,96,113,68,36,128,88,37,37,31,47,10,7,0.5,0.4
2022-04-07T13:00:00,1919A,108.673,34.3155,咸阳市,实验中学,颗粒物(PM10),95,140,123,46,45,123,106,38,38,29,54,9,4,0.6,0.7
2022-04-07T13:00:00,1920A,108.7233,34.3617,咸阳市,师范学院,颗粒物(PM10),88,125,120,58,45,134,98,57,35,27,43,11,6,0.6,0.7
2022-04-07T13:00:00,1922A,109.0656,35.0994,铜川市,党校(对照点),颗粒物(PM10),61,71,87,23,23,108,108,57,57,14,36,8,6,0.2,0.2
2022-04-07T13:00:00,1923A,109.0697,35.0697,铜川市,王益区政府,颗粒物(PM10),70,90,95,29,27,116,116,57,57,18,36,7,8,0.4,0.4
2022-04-07T13:00:00,1924A,108.9344,34.9058,铜川市,新区管委会,颗粒物(PM10),68,86,94,47,28,139,139,78,76,11,26,13,11,0.3,0.2
2022-04-07T13:00:00,1926A,109.4131,36.6275,延安市,枣园(对照点),,35,27,67,12,18,130,109,49,49,5,26,2,2,0.0,0.1
2022-04-07T13:00:00,1927A,109.4761,36.6028,延安市,延大医附院,,45,45,83,25,31,132,111,45,45,8,34,4,4,0.4,0.5
2022-04-07T13:00:00,1929A,109.5056,36.6106,延安市,百米大道,,37,37,90,11,26,123,104,40,40,10,41,2,3,0.0,0.2
2022-04-07T13:00:00,1930A,107.185,34.3063,宝鸡市,庙沟村(对照点),颗粒物(PM10),62,73,62,22,21,126,88,88,76,16,10,6,5,0.4,0.3
2022-04-07T13:00:00,1931A,107.0708,34.3017,宝鸡市,竹园沟,,,,61,27,19,133,102,88,62,14,18,,3,,0.3
2022-04-07T13:00:00,1932A,107.1906,34.3672,宝鸡市,三陆医院,,,90,81,,46,130,91,45,45,24,41,13,11,0.5,0.5
2022-04-07T13:00:00,1933A,107.1431,34.3547,宝鸡市,监测站,颗粒物(PM10),65,79,67,30,25,129,97,52,52,19,28,7,4,0.4,0.4
2022-04-07T13:00:00,1934A,107.1186,34.3739,宝鸡市,技工学校,颗粒物(PM10),75,100,85,25,28,129,90,62,62,24,21,8,4,0.4,0.3
2022-04-07T13:00:00,1935A,107.3906,34.3528,宝鸡市,陈仓区环保局家属楼,细颗粒物(PM2.5),104,97,103,78,54,135,92,49,49,18,34,12,32,0.6,1.3
2022-04-07T13:00:00,1936A,107.2058,34.3497,宝鸡市,文理学院,颗粒物(PM10),74,98,80,42,33,136,104,59,59,21,33,13,8,1.1,1
2022-04-07T13:00:00,1937A,107.2386,34.3622,宝鸡市,三迪小学,,,,85,,32,133,95,46,46,,43,14,10,,0.5
2022-04-07T13:00:00,1938A,109.5293,34.5101,渭南市,农科所(对照点),颗粒物(PM10),101,151,117,53,37,128,95,36,36,,39,16,14,,0.6
2022-04-07T13:00:00,1939A,109.4974,34.4877,渭南市,日报社,颗粒物(PM10),111,171,109,51,27,135,103,60,43,17,35,19,13,0.4,0.3
2022-04-07T13:00:00,1940A,109.4636,34.493,渭南市,体育馆,颗粒物(PM10),120,190,117,66,28,139,108,44,44,29,41,24,15,0.6,0.4
2022-04-07T13:00:00,1941A,109.4259,34.5023,渭南市,高新一小,颗粒物(PM10),107,164,120,61,36,138,114,55,55,30,42,14,9,0.6,0.4
2022-04-07T13:00:00,1943A,102.1725,38.5339,金昌市,新川苑,颗粒物(PM10),71,92,86,39,33,116,116,64,64,12,27,31,32,0.5,0.6
2022-04-07T13:00:00,1944A,102.1692,38.5167,金昌市,天庆家园,颗粒物(PM10),55,60,103,15,32,117,115,70,68,14,33,53,39,0.6,0.9
2022-04-07T13:00:00,1945A,98.2908,39.7711,嘉峪关市,气象局,,44,44,53,17,18,124,107,97,97,20,17,25,7,0.9,0.5
2022-04-07T13:00:00,1947A,106.3394,38.817,石嘴山市,沙湖旅游区(对照点),颗粒物(PM10),74,98,80,26,17,95,95,44,44,23,27,18,12,0.5,0.4
2022-04-07T13:00:00,1948A,106.3668,39.0145,石嘴山市,大武口朝阳西街,颗粒物(PM10),61,72,75,26,26,98,98,39,39,17,31,12,15,0.6,0.8
2022-04-07T13:00:00,1949A,106.7704,39.2282,石嘴山市,惠农南大街,颗粒物(PM10),72,94,78,33,27,99,99,44,44,22,33,28,17,0.9,0.8
2022-04-07T13:00:00,1950A,106.7099,39.1325,石嘴山市,红果子镇惠新街,颗粒物(PM10),93,136,77,31,19,100,100,43,43,27,28,29,23,1.0,0.8
2022-04-07T13:00:00,1951A,84.895,45.6094,克拉玛依市,长征新村,颗粒物(PM10),59,68,57,17,11,140,82,102,86,29,26,8,9,0.6,0.3
2022-04-07T13:00:00,1952A,84.8988,45.5893,克拉玛依市,南林小区,颗粒物(PM10),73,96,74,24,18,146,90,107,77,33,37,7,7,0.3,0.5
2022-04-07T13:00:00,1954A,84.905,44.3396,克拉玛依市,独山子区,颗粒物(PM10),60,69,63,18,20,156,139,112,112,11,13,5,6,0.4,0.4
2022-04-07T13:00:00,1955A,85.6979,46.098,克拉玛依市,乌尔禾区商贸楼,颗粒物(PM10),52,54,50,25,18,133,102,70,70,8,17,11,10,0.5,0.5
2022-04-07T13:00:00,1956A,86.1472,41.7538,巴音郭楞州,孔雀公园,颗粒物(PM10),109,168,174,31,46,116,84,30,30,16,44,4,4,0.4,0.6
2022-04-07T13:00:00,1957A,86.1972,41.7166,巴音郭楞州,棉纺厂,颗粒物(PM10),94,138,151,48,50,107,80,41,41,18,33,5,3,0.3,0.3
2022-04-07T13:00:00,1958A,86.2357,41.7173,巴音郭楞州,经济开发区,颗粒物(PM10),105,159,179,43,42,112,85,53,53,7,22,2,3,0.3,0.4
2022-04-07T13:00:00,1961A,117.532,36.6868,济南市,东山小学,颗粒物(PM10),91,132,107,49,29,125,106,61,61,33,34,17,13,1.2,1
2022-04-07T13:00:00,1966A,120.0405,35.8735,青岛市,黄岛区4号,颗粒物(PM10),54,58,55,24,13,114,112,100,81,15,17,5,5,0.8,0.6
2022-04-07T13:00:00,1982A,122.0693,37.2174,威海市,文登开发区,,,61,37,19,13,122,122,90,90,10,11,4,5,,0
2022-04-07T13:00:00,2031A,113.1817,27.9958,株洲市,云田中学,颗粒物(PM10),59,68,72,29,44,198,162,101,101,10,24,9,7,0.3,0.4
2022-04-07T13:00:00,2054A,114.1099,32.1059,信阳市,平桥分局,细颗粒物(PM2.5),105,116,74,79,43,139,126,102,84,17,14,16,11,0.7,0.6
2022-04-07T13:00:00,2064A,113.9956,32.1271,信阳市,南湾水厂,颗粒物(PM10),75,100,99,54,40,152,135,126,86,17,14,10,8,0.6,0.5
2022-04-07T13:00:00,2065A,114.0775,32.1195,信阳市,市酿酒公司,,,,68,,39,139,129,112,82,14,13,,9,0.7,0.5
2022-04-07T13:00:00,2066A,114.0609,32.1399,信阳市,审计局,细颗粒物(PM2.5),104,99,82,78,50,133,125,80,80,16,13,11,9,0.5,0.4
2022-04-07T13:00:00,2067A,114.6613,33.6128,周口市,市环境监测站,颗粒物(PM10),76,102,118,42,42,155,120,79,79,10,11,8,14,0.6,0.6
2022-04-07T13:00:00,2068A,114.6758,33.6347,周口市,周口师范,颗粒物(PM10),73,95,119,38,45,148,112,74,74,13,14,11,15,0.6,0.6
2022-04-07T13:00:00,2069A,114.6546,33.5979,周口市,市运管处,颗粒物(PM10),81,111,115,42,44,152,115,80,80,16,16,6,12,0.5,0.6
2022-04-07T13:00:00,2070A,114.6369,33.6406,周口市,川汇区环保局,,,,111,,42,152,113,77,77,,14,4,10,0.5,0.5
2022-04-07T13:00:00,2075A,117.6336,24.4674,漳州市,九湖(对照点),颗粒物(PM10),54,58,55,31,26,176,155,62,57,15,20,8,12,0.4,0.4
2022-04-07T13:00:00,2160A,112.85,35.5051,晋城市,自来水公司,颗粒物(PM10),71,92,151,46,53,200,157,68,68,19,32,10,9,0.7,0.9
2022-04-07T13:00:00,2161A,112.8318,35.4936,晋城市,白云商贸,颗粒物(PM10),73,96,139,41,51,188,163,74,74,14,26,10,7,1.1,1.1
2022-04-07T13:00:00,2162A,112.8508,35.4887,晋城市,市环保局,颗粒物(PM10),77,104,143,34,53,198,160,60,59,9,28,11,9,1.0,1.1
2022-04-07T13:00:00,2163A,112.8676,35.4897,晋城市,技术学院,细颗粒物(PM2.5),79,68,139,58,53,185,153,66,66,13,28,9,8,1.0,1
2022-04-07T13:00:00,2165A,112.8453,35.546,晋城市,白马寺 (对照点),颗粒物(PM10),67,83,147,46,56,162,141,87,87,13,22,7,7,1.9,1.3
2022-04-07T13:00:00,2166A,112.4397,39.3522,朔州市,平朔,,36,36,81,1,22,108,97,52,52,5,26,7,11,0.4,0.5
2022-04-07T13:00:00,2167A,112.4575,39.3617,朔州市,朔唯,,36,36,91,3,18,113,100,48,48,6,30,3,5,0.2,0.3
2022-04-07T13:00:00,2168A,112.4258,39.3197,朔州市,区政府,,34,34,63,5,13,113,98,70,70,6,17,6,9,0.5,0.5
2022-04-07T13:00:00,2169A,112.4072,39.3278,朔州市,市环保局,,,,92,,17,110,94,56,56,8,21,,8,0.3,0.7
2022-04-07T13:00:00,2170A,112.4272,39.3681,朔州市,市二中,,33,33,88,10,23,115,101,54,54,4,25,3,6,0.2,0.4
2022-04-07T13:00:00,2171A,112.7532,37.6945,晋中市,锦纶小区,,45,45,90,18,33,143,99,62,62,12,25,3,6,0.3,0.4
2022-04-07T13:00:00,2173A,112.7249,37.7067,晋中市,南都小区,,49,49,94,29,41,150,96,57,57,14,31,6,11,0.3,0.4
2022-04-07T13:00:00,2174A,112.6991,37.6982,晋中市,榆次区政府,,44,44,85,23,35,153,96,59,58,14,30,6,11,2.6,2.9
2022-04-07T13:00:00,2175A,110.9956,35.0147,运城市,运城中学,颗粒物(PM10),94,137,120,60,59,156,156,124,86,13,23,42,25,0.9,0.8
2022-04-07T13:00:00,2178A,110.9686,35.0303,运城市,地区技校,,,149,119,,43,161,161,98,77,,28,41,15,1.4,1.1
2022-04-07T13:00:00,2179A,111.0414,35.1147,运城市,空港新区,细颗粒物(PM2.5),109,164,136,82,65,179,179,92,92,12,28,30,14,0.9,1
2022-04-07T13:00:00,2181A,112.7383,38.4519,忻州市,开发区,颗粒物(PM10),56,61,102,16,33,149,101,49,49,6,31,8,21,0.3,0.7
2022-04-07T13:00:00,2182A,112.7003,38.4928,忻州市,会展中心,颗粒物(PM10),65,80,92,11,35,155,96,58,58,11,40,6,16,0.3,0.6
2022-04-07T13:00:00,2183A,111.1406,37.5211,吕梁市,环保局,颗粒物(PM10),58,66,90,17,16,112,79,38,38,23,41,8,7,0.5,0.3
2022-04-07T13:00:00,2185A,111.1297,37.5136,吕梁市,自来水公司,颗粒物(PM10),57,64,103,12,16,108,76,35,35,25,35,5,6,0.6,0.3
2022-04-07T13:00:00,2187A,106.8174,39.6973,乌海市,市林业局,颗粒物(PM10),59,67,76,37,25,104,104,41,41,11,38,12,46,0.5,1
2022-04-07T13:00:00,2188A,106.7907,39.6667,乌海市,中海勃湾学校,颗粒物(PM10),55,60,66,27,24,115,86,46,46,28,38,32,41,0.8,1.2
2022-04-07T13:00:00,2191A,122.2532,43.6801,通辽市,艺术职业学校,,,,47,,18,108,108,88,88,,17,5,11,0.5,0.5
2022-04-07T13:00:00,2192A,119.7594,49.2261,呼伦贝尔市,区环保局,,31,23,28,17,18,99,99,78,78,5,14,5,5,0.4,0.4
2022-04-07T13:00:00,2195A,107.4212,40.761,巴彦淖尔市,附二中,颗粒物(PM10),53,55,63,16,18,103,103,74,70,6,12,6,7,0.5,0.5
2022-04-07T13:00:00,2197A,113.1306,40.9923,乌兰察布市,集宁新区,,33,27,25,11,10,103,103,84,84,3,6,10,9,0.2,0.2
2022-04-07T13:00:00,2200A,122.0392,46.0656,兴安盟,胜华新制药厂,,,,47,,40,85,83,64,64,5,10,,3,0.1,0.3
2022-04-07T13:00:00,2201A,121.9504,46.0741,兴安盟,科右前旗环保局,,30,6,33,10,31,93,93,80,68,5,11,4,4,0.2,0.3
2022-04-07T13:00:00,2202A,116.1042,43.9317,锡林郭勒盟,市环保监测站,,30,27,30,6,6,96,96,66,62,4,13,7,9,0.3,0.3
2022-04-07T13:00:00,2203A,116.0781,43.9311,锡林郭勒盟,市政府,,28,19,24,14,7,89,89,58,57,5,15,7,7,0.5,0.5
2022-04-07T13:00:00,2204A,105.6467,38.8363,阿拉善盟,西城区西花园(对照点),,43,43,34,14,13,116,116,101,101,4,6,6,6,0.3,0.3
2022-04-07T13:00:00,2205A,105.6985,38.8411,阿拉善盟,蒙二幼,,44,44,31,11,16,115,115,97,97,5,6,6,6,0.3,0.3
2022-04-07T13:00:00,2206A,105.724,38.8516,阿拉善盟,环保局新楼,,,,24,,17,113,113,102,102,,5,,7,0.2,0.2
2022-04-07T13:00:00,2207A,121.6094,41.998,阜新市,工业园区,,,42,48,22,24,109,104,85,61,,19,,17,0.4,0.5
2022-04-07T13:00:00,2208A,121.6697,42.0279,阜新市,长青街,颗粒物(PM10),51,52,43,27,20,102,100,71,67,11,17,16,22,0.4,0.4
2022-04-07T13:00:00,2209A,121.6673,42.0705,阜新市,农业园区,,30,29,36,20,20,102,95,71,70,10,16,7,14,0.4,0.4
2022-04-07T13:00:00,2210A,121.6717,42.0224,阜新市,东苑,"颗粒物(PM10),细颗粒物(PM2.5)",52,53,53,36,24,104,103,73,69,13,17,19,27,0.6,0.7
2022-04-07T13:00:00,2211A,121.6506,42.0498,阜新市,玉龙新城,,32,32,39,16,23,104,99,71,59,7,15,11,16,0.2,0.4
2022-04-07T13:00:00,2212A,123.2,41.1953,辽阳市,宏伟区,,,,56,33,27,106,102,74,72,14,22,10,15,,0.7
2022-04-07T13:00:00,2213A,123.1683,41.2495,辽阳市,新华园,颗粒物(PM10),61,71,58,32,44,106,98,70,70,15,26,8,16,0.6,1
2022-04-07T13:00:00,2214A,123.2354,41.2639,辽阳市,滨河路,细颗粒物(PM2.5),79,83,61,58,44,102,98,72,72,13,22,8,14,0.6,0.7
2022-04-07T13:00:00,2215A,123.149,41.2991,辽阳市,铁西工业园,颗粒物(PM10),53,56,66,33,38,119,100,69,69,11,27,13,21,0.5,1
2022-04-07T13:00:00,2216A,123.8139,42.3022,铁岭市,汇工街西,,,69,64,33,49,114,103,77,77,,22,6,12,0.4,0.7
2022-04-07T13:00:00,2217A,123.8649,42.2923,铁岭市,水上乐园,颗粒物(PM10),55,60,74,33,49,113,108,81,81,11,26,5,10,0.3,0.6
2022-04-07T13:00:00,2218A,123.8486,42.2867,铁岭市,银州路东段,"颗粒物(PM10),细颗粒物(PM2.5)",60,70,76,43,53,109,106,82,79,12,27,6,10,0.4,0.6
2022-04-07T13:00:00,2219A,123.7153,42.2217,铁岭市,金沙江路北,细颗粒物(PM2.5),62,63,68,44,48,108,106,83,76,14,27,9,11,0.5,0.7
2022-04-07T13:00:00,2220A,120.4318,41.5881,朝阳市,西梁,,32,30,46,11,16,100,100,74,74,6,11,9,9,0.5,0.7
2022-04-07T13:00:00,2221A,120.4521,41.5646,朝阳市,河畔小区,,30,29,44,12,14,96,96,69,69,5,13,8,10,0.5,0.7
2022-04-07T13:00:00,2222A,120.4176,41.5648,朝阳市,八里堡,,44,44,48,18,12,99,99,67,67,7,15,8,10,0.6,0.9
2022-04-07T13:00:00,2223A,120.3806,41.5969,朝阳市,农业园区,,36,36,43,14,17,99,99,73,73,7,13,9,11,0.4,0.6
2022-04-07T13:00:00,2225A,124.4002,43.1713,四平市,一商场,,29,28,45,12,49,95,92,78,78,2,11,6,10,0.1,0.3
2022-04-07T13:00:00,2226A,124.388,43.193,四平市,境园,,31,16,46,5,32,102,97,82,82,3,10,5,9,0.1,0.4
2022-04-07T13:00:00,2227A,125.1358,42.8845,辽源市,环保局,细颗粒物(PM2.5),72,59,73,52,61,106,102,88,88,5,16,9,10,0.4,0.7
2022-04-07T13:00:00,2229A,125.9358,41.7173,通化市,光明,,42,42,22,14,7,102,102,84,84,8,13,12,14,0.7,0.6
2022-04-07T13:00:00,2230A,125.9446,41.7325,通化市,铁路,,,38,25,14,12,94,94,68,68,,15,10,12,0.7,0.6
2022-04-07T13:00:00,2231A,126.4219,41.9171,白山市,喜丰,颗粒物(PM10),64,77,52,26,16,112,108,73,73,8,16,8,15,0.7,0.9
2022-04-07T13:00:00,2232A,126.4077,41.9419,白山市,环保局,,49,49,42,24,14,4,4,4,4,9,13,8,16,2.1,2.2
2022-04-07T13:00:00,2233A,124.8006,45.1214,松原市,江南,,29,17,20,10,14,93,92,82,78,5,7,1,2,0.2,0.2
2022-04-07T13:00:00,2234A,124.7965,45.1722,松原市,江北,,,,15,,9,97,86,85,79,6,9,3,2,0.2,0.3
2022-04-07T13:00:00,2236A,122.8738,45.5725,白城市,市环保局,,27,15,89,15,81,84,84,67,67,7,14,4,6,0.4,0.4
2022-04-07T13:00:00,2237A,129.47,42.8883,延边朝鲜族自治州,妇幼医院,细颗粒物(PM2.5),52,36,26,36,15,93,89,65,65,8,12,6,8,0.6,0.5
2022-04-07T13:00:00,2238A,129.5055,42.9108,延边朝鲜族自治州,延边医院,细颗粒物(PM2.5),60,42,27,43,14,95,94,66,66,8,15,8,12,0.6,0.5
2022-04-07T13:00:00,2239A,129.3964,42.8881,延边朝鲜族自治州,朝阳川镇医院,,45,36,24,31,12,95,92,68,68,7,9,6,5,0.5,0.5
2022-04-07T13:00:00,2240A,130.9762,45.3001,鸡西市,环保局,,44,44,32,28,16,85,85,77,64,14,22,1,4,0.1,0.2
2022-04-07T13:00:00,2243A,130.9429,45.3039,鸡西市,第一中学,,,27,37,17,20,84,84,75,56,,19,4,6,0.2,0.2
2022-04-07T13:00:00,2244A,130.2537,47.3416,鹤岗市,哈啤分公司,,30,13,21,10,15,93,93,85,85,5,6,10,14,0.2,0.3
2022-04-07T13:00:00,2245A,130.2684,47.3086,鹤岗市,斯达机电,,30,11,35,21,17,128,90,95,90,4,13,6,9,0.3,0.4
2022-04-07T13:00:00,2246A,130.3114,47.3388,鹤岗市,东山纸板厂,,30,14,27,5,12,93,93,84,84,2,8,10,10,0.4,0.4
2022-04-07T13:00:00,2248A,131.1511,46.6937,双鸭山市,双合村,,28,12,22,4,11,88,88,83,83,6,7,6,7,0.2,0.2
2022-04-07T13:00:00,2249A,131.1652,46.6191,双鸭山市,南小市,,,17,31,,11,93,93,83,83,4,5,3,2,0.3,0.3
2022-04-07T13:00:00,2250A,131.1524,46.6554,双鸭山市,环保局,,32,16,22,11,15,102,102,82,82,9,9,4,5,0.4,0.4
2022-04-07T13:00:00,2251A,131.12,46.5656,双鸭山市,苗圃(对照点),,33,15,22,13,18,110,104,96,96,4,5,3,2,0.4,0.4
2022-04-07T13:00:00,2252A,128.5159,47.4311,伊春市,环保局,,48,20,14,33,10,84,84,76,76,5,7,4,5,0.4,0.4
2022-04-07T13:00:00,2253A,128.9102,47.7412,伊春市,电力嘉园,,28,16,15,5,11,89,89,82,80,4,5,5,5,0.5,0.5
2022-04-07T13:00:00,2254A,129.5029,48.471,伊春市,汤旺河国家公园(对照点),,30,4,4,1,4,93,93,82,82,9,9,7,6,0.2,0.2
2022-04-07T13:00:00,2255A,130.2751,46.8028,佳木斯市,佳纺,,28,21,32,8,10,90,89,84,84,4,5,2,2,0.3,0.3
2022-04-07T13:00:00,2256A,130.3995,46.8307,佳木斯市,发电厂,,28,2,12,5,8,90,88,84,84,4,5,1,1,0.3,0.3
2022-04-07T13:00:00,2257A,130.3258,46.7975,佳木斯市,环保局,,29,13,17,18,10,91,90,85,85,4,5,3,4,0.2,0.3
2022-04-07T13:00:00,2258A,130.3648,46.8032,佳木斯市,十一中,,30,14,17,8,9,94,94,87,87,4,7,6,6,0.4,0.4
2022-04-07T13:00:00,2259A,130.3794,46.7588,佳木斯市,四丰(对照点),,26,18,18,8,8,84,83,80,80,3,2,2,2,0.3,0.3
2022-04-07T13:00:00,2262A,131.0518,45.8751,七台河市,新一中(对照点),,30,11,26,13,13,96,96,86,86,6,10,6,9,0.5,0.5
2022-04-07T13:00:00,2263A,127.4833,50.2524,黑河市,交通局,,25,8,10,5,9,78,78,76,76,4,4,4,4,0.3,0.3
2022-04-07T13:00:00,2264A,127.5144,50.2341,黑河市,环保局,,29,11,14,4,12,92,92,87,87,4,4,3,4,0.2,0.3
2022-04-07T13:00:00,2265A,127.5291,50.2472,黑河市,大黑河岛(对照点),,29,5,17,6,6,92,92,87,87,3,5,3,4,0.3,0.3
2022-04-07T13:00:00,2266A,126.9785,46.6365,绥化市,人和东街,,24,12,27,15,12,86,76,74,71,3,9,5,12,0.5,0.5
2022-04-07T13:00:00,2267A,126.964,46.6528,绥化市,党政办公中心,,,7,22,5,11,76,34,70,59,4,5,14,9,,0.5
2022-04-07T13:00:00,2269A,124.1069,50.4097,大兴安岭地区,科技局,,,27,18,6,9,81,81,75,75,,5,3,3,0.2,0.3
2022-04-07T13:00:00,2270A,117.396,32.939,蚌埠市,工人疗养院,细颗粒物(PM2.5),132,150,92,100,49,157,71,40,40,37,26,7,6,0.6,0.5
2022-04-07T13:00:00,2271A,117.3605,32.9427,蚌埠市,百货大楼,细颗粒物(PM2.5),123,155,110,93,49,157,73,42,42,44,36,10,7,0.7,0.6
2022-04-07T13:00:00,2273A,117.4185,32.8911,蚌埠市,蚌埠学院,细颗粒物(PM2.5),125,119,85,95,55,158,91,35,35,25,30,12,11,,0.5
2022-04-07T13:00:00,2274A,117.3533,32.9673,蚌埠市,淮上区政府,细颗粒物(PM2.5),110,112,84,83,47,156,72,48,48,26,19,11,10,0.6,0.5
2022-04-07T13:00:00,2275A,117.3145,32.8977,蚌埠市,高新区,细颗粒物(PM2.5),110,110,89,83,56,161,114,51,51,32,39,14,8,0.6,0.6
2022-04-07T13:00:00,2277A,116.8305,32.7727,淮南市,潘集区政府,细颗粒物(PM2.5),97,80,67,72,46,151,67,92,35,12,10,4,4,0.5,0.4
2022-04-07T13:00:00,2278A,117.0067,32.6524,淮南市,师范学院,细颗粒物(PM2.5),128,105,70,97,43,147,103,76,29,16,20,10,8,0.6,0.5
2022-04-07T13:00:00,2279A,116.8569,32.5951,淮南市,谢家集区政府,细颗粒物(PM2.5),99,89,68,74,38,148,90,112,32,13,16,7,10,0.3,0.3
2022-04-07T13:00:00,2280A,116.8281,32.633,淮南市,八公山区政府,细颗粒物(PM2.5),97,88,59,72,36,142,70,120,24,8,11,4,4,0.4,0.3
2022-04-07T13:00:00,2281A,116.6325,32.6201,淮南市,焦岗湖风景区管理处(对照点),细颗粒物(PM2.5),85,76,59,63,39,145,73,49,31,2,13,8,6,0.3,0.3
2022-04-07T13:00:00,2282A,116.8004,33.975,淮北市,监测站,颗粒物(PM10),95,139,87,69,48,122,60,60,49,21,16,4,3,0.7,0.6
2022-04-07T13:00:00,2283A,116.8091,33.9007,淮北市,烈山区政府,细颗粒物(PM2.5),142,180,96,108,57,125,62,62,54,24,17,5,5,0.8,0.6
2022-04-07T13:00:00,2284A,116.7856,33.9477,淮北市,职业技术学院,颗粒物(PM10),87,123,80,62,47,121,60,63,50,17,14,5,5,0.8,0.7
2022-04-07T13:00:00,2285A,117.8177,30.9412,铜陵市,市第四中学,颗粒物(PM10),59,67,57,21,29,172,157,84,84,9,27,19,18,0.5,0.7
2022-04-07T13:00:00,2286A,117.8059,30.9273,铜陵市,市公路局,,,,65,15,25,162,124,75,75,19,28,22,19,,0.8
2022-04-07T13:00:00,2287A,117.7807,30.9413,铜陵市,市新民污水厂,,47,45,65,23,33,167,150,67,67,16,62,13,15,0.6,0.8
2022-04-07T13:00:00,2288A,117.7439,30.8792,铜陵市,市第九中学,,,,71,,30,137,110,66,57,37,60,,10,1.0,1
2022-04-07T13:00:00,2289A,117.846,30.9413,铜陵市,车站新区,,,64,59,16,16,159,139,86,76,16,26,,26,0.9,0.8
2022-04-07T13:00:00,2290A,117.8483,30.97,铜陵市,市职教基地,,48,46,65,25,31,167,151,86,86,16,27,14,16,0.6,0.9
2022-04-07T13:00:00,2291A,117.0809,30.5177,安庆市,环科院,颗粒物(PM10),54,57,55,17,18,137,134,64,64,9,55,8,8,0.5,0.4
2022-04-07T13:00:00,2292A,117.0331,30.5119,安庆市,马山宾馆,颗粒物(PM10),52,53,49,14,15,148,148,72,72,9,47,10,8,0.9,0.9
2022-04-07T13:00:00,2294A,116.9896,30.6145,安庆市,安庆大学,颗粒物(PM10),53,55,60,26,30,144,140,64,64,14,37,7,6,0.5,0.6
2022-04-07T13:00:00,2295A,118.2903,29.6963,黄山市,延安路89号,,44,37,49,29,32,140,140,52,52,3,12,10,11,0.4,0.7
2022-04-07T13:00:00,2296A,118.327,29.7178,黄山市,黄山东路89号,,47,47,40,17,26,138,138,59,59,6,13,10,9,0.3,0.4
2022-04-07T13:00:00,2297A,118.1371,30.2756,黄山市,黄山区政府5号楼,,48,48,43,22,21,143,143,67,67,5,9,10,9,0.3,0.3
2022-04-07T13:00:00,2298A,118.3093,32.3153,滁州市,老年大学,颗粒物(PM10),74,97,74,51,36,165,131,57,57,31,28,20,13,0.6,0.5
2022-04-07T13:00:00,2299A,118.3244,32.2786,滁州市,人大宾馆,颗粒物(PM10),83,116,79,57,40,160,129,69,50,37,40,18,11,0.7,0.6
2022-04-07T13:00:00,2301A,115.8277,32.8929,阜阳市,市监测站,细颗粒物(PM2.5),103,109,83,77,50,138,113,67,61,7,13,9,8,0.7,0.6
2022-04-07T13:00:00,2303A,115.8554,32.8605,阜阳市,开发区,细颗粒物(PM2.5),123,113,99,93,63,134,116,65,65,7,14,7,6,0.5,0.6
2022-04-07T13:00:00,2307A,116.5079,31.737,六安市,监测大楼,细颗粒物(PM2.5),75,96,51,55,27,144,121,97,89,11,10,7,6,0.7,0.3
2022-04-07T13:00:00,2308A,116.4738,31.7643,六安市,皖西学院,,,104,55,63,24,150,107,81,80,11,11,,7,0.6,0.3
2022-04-07T13:00:00,2309A,116.4996,31.7905,六安市,朝阳厂,细颗粒物(PM2.5),125,130,60,95,32,136,120,93,89,10,11,8,7,0.7,0.4
2022-04-07T13:00:00,2310A,116.5567,31.7886,六安市,开发区,细颗粒物(PM2.5),85,108,63,63,29,152,134,99,90,13,17,8,8,0.8,0.4
2022-04-07T13:00:00,2311A,115.8072,33.8399,亳州市,污水处理厂,颗粒物(PM10),76,102,101,41,49,131,118,66,66,14,14,8,8,0.5,0.5
2022-04-07T13:00:00,2312A,115.7789,33.8518,亳州市,三国揽胜宫,颗粒物(PM10),79,108,97,41,45,132,115,66,66,14,15,8,9,0.6,0.5
2022-04-07T13:00:00,2314A,117.47,30.6618,池州市,池州学院,,,55,51,30,28,161,142,78,78,14,25,,7,,0.8
2022-04-07T13:00:00,2316A,118.7581,30.9454,宣城市,鳌峰子站,,,,52,,26,143,143,84,84,9,25,6,7,0.5,0.5
2022-04-07T13:00:00,2317A,118.7385,30.9743,宣城市,敬亭山子站,,48,48,44,24,22,150,150,88,87,15,18,7,6,0.5,0.4
2022-04-07T13:00:00,2318A,118.7173,30.9427,宣城市,开发区子站,,45,43,51,23,25,141,141,80,80,9,45,5,6,0.6,0.6
2022-04-07T13:00:00,2319A,119.0141,25.4325,莆田市,荔城区仓后路,颗粒物(PM10),56,62,36,18,14,135,135,94,94,13,10,6,4,0.6,0.5
2022-04-07T13:00:00,2320A,119.0015,25.4553,莆田市,莆田市监测站,颗粒物(PM10),52,54,29,14,17,134,134,87,87,11,7,9,5,0.6,0.5
2022-04-07T13:00:00,2321A,119.1119,25.4561,莆田市,涵江区六中,,50,50,31,26,16,138,138,90,90,7,8,10,7,0.5,0.4
2022-04-07T13:00:00,2322A,119.1013,25.3215,莆田市,秀屿区政府,细颗粒物(PM2.5),93,84,36,69,21,143,143,82,82,17,15,16,8,0.9,0.5
2022-04-07T13:00:00,2323A,118.981,25.4792,莆田市,东圳水库(对照点),颗粒物(PM10),55,60,23,11,10,137,137,85,85,8,5,8,5,0.4,0.3
2022-04-07T13:00:00,2324A,117.6211,26.2625,三明市,三钢,,38,36,47,19,35,128,121,63,63,7,25,4,4,0.6,0.7
2022-04-07T13:00:00,2325A,117.635,26.2714,三明市,三明二中,,40,40,46,18,33,133,123,64,64,6,22,8,8,0.4,0.6
2022-04-07T13:00:00,2326A,117.6028,26.2378,三明市,三元区政府,,43,43,62,16,40,131,126,58,58,7,32,5,6,0.4,1
2022-04-07T13:00:00,2327A,117.7275,26.3108,三明市,洋溪(对照点),,41,33,46,18,33,141,130,72,72,5,11,9,6,0.5,0.7
2022-04-07T13:00:00,2331A,118.0966,26.6761,南平市,茫荡山(对照点),,33,33,27,17,20,110,99,94,92,4,4,6,6,0.6,0.5
2022-04-07T13:00:00,2332A,118.1681,26.6369,南平市,南平市监测站,,43,27,40,21,27,137,137,72,72,6,16,10,9,0.5,0.8
2022-04-07T13:00:00,2333A,118.1825,26.6489,南平市,南平铝业有限公司,,,32,39,17,26,138,132,66,66,5,15,8,10,,0.7
2022-04-07T13:00:00,2334A,118.1756,26.6272,南平市,南平七中,,44,38,40,16,26,138,138,72,72,4,11,8,6,0.5,0.6
2022-04-07T13:00:00,2335A,117.0189,25.1181,龙岩市,龙岩师专(对照点),,42,38,55,21,38,144,133,83,83,5,24,9,11,0.3,0.5
2022-04-07T13:00:00,2336A,117.0217,25.1033,龙岩市,龙岩市监测站,,42,41,56,16,39,151,132,83,83,7,25,6,11,0.3,0.5
2022-04-07T13:00:00,2337A,117.0258,25.0661,龙岩市,闽西职业技术学院,,43,43,61,22,33,143,127,73,73,4,27,6,14,0.4,0.4
2022-04-07T13:00:00,2338A,117.0196,25.0306,龙岩市,龙岩学院,,40,40,50,14,31,147,128,91,78,7,19,6,7,0.4,0.5
2022-04-07T13:00:00,2339A,119.5001,26.6946,宁德市,金涵水库(对照点),,38,36,31,16,34,120,120,60,60,7,12,8,8,0.4,0.5
2022-04-07T13:00:00,2341A,119.5388,26.6612,宁德市,宁德市监测站,,34,31,30,11,15,107,107,58,58,6,13,8,9,0.4,0.5
2022-04-07T13:00:00,2342A,117.3102,29.3867,景德镇市,王港中学(对照点),,44,36,39,27,23,140,140,64,64,4,7,4,4,0.5,0.5
2022-04-07T13:00:00,2343A,117.2117,29.2933,景德镇市,老干部活动中心,,48,48,66,21,34,141,141,63,63,8,27,3,8,0.5,0.7
2022-04-07T13:00:00,2344A,117.1894,29.2789,景德镇市,兽医站,,,42,57,8,31,142,136,60,60,12,34,,14,0.3,0.3
2022-04-07T13:00:00,2345A,117.1547,29.2617,景德镇市,台达陶瓷,颗粒物(PM10),54,58,71,24,29,140,140,65,65,13,38,6,18,0.3,0.5
2022-04-07T13:00:00,2346A,117.2461,29.2956,景德镇市,陶研所,,42,41,60,18,26,132,132,54,54,7,24,5,7,0.4,0.4
2022-04-07T13:00:00,2347A,114.0997,27.5002,萍乡市,武功山(对照点),,44,30,23,19,16,172,140,92,92,5,6,11,8,0.7,0.7
2022-04-07T13:00:00,2348A,113.8385,27.6434,萍乡市,中医院,颗粒物(PM10),57,64,58,26,35,166,154,81,81,18,35,16,12,0.8,1.1
2022-04-07T13:00:00,2349A,113.8493,27.6253,萍乡市,市政府车库,,47,4,52,27,28,164,149,113,113,18,32,12,15,1.2,1.4
2022-04-07T13:00:00,2350A,113.8676,27.6435,萍乡市,市环保局,,50,50,56,30,40,171,156,78,78,10,30,18,18,0.6,1.2
2022-04-07T13:00:00,2351A,113.866,27.6198,萍乡市,安源区政府,,,,60,,32,174,138,66,66,,27,22,18,1.1,1.5
2022-04-07T13:00:00,2353A,114.9886,27.8431,新余市,飞宇,颗粒物(PM10),65,79,65,34,35,140,130,66,66,12,36,12,28,0.3,0.5
2022-04-07T13:00:00,2354A,114.9231,27.8246,新余市,第二水厂,颗粒物(PM10),71,91,74,26,34,158,143,63,63,18,26,26,23,0.5,0.6
2022-04-07T13:00:00,2355A,114.9308,27.8036,新余市,市气象局,,,78,66,46,39,168,138,44,44,,37,,20,0.7,0.8
2022-04-07T13:00:00,2357A,116.9822,28.1136,鹰潭市,龙虎山(对照点),颗粒物(PM10),51,51,45,21,22,164,152,87,87,4,4,16,6,0.4,0.3
2022-04-07T13:00:00,2358A,117.0564,28.2642,鹰潭市,新监测站,细颗粒物(PM2.5),64,44,59,46,32,163,156,88,88,10,20,34,29,0.3,0.5
2022-04-07T13:00:00,2359A,117.0311,28.2475,鹰潭市,财苑宾馆,细颗粒物(PM2.5),55,55,63,39,30,162,152,80,80,9,18,38,22,0.5,0.5
2022-04-07T13:00:00,2360A,117.0222,28.2264,鹰潭市,体育馆,细颗粒物(PM2.5),62,47,56,44,31,162,149,79,79,9,16,38,14,0.5,0.6
2022-04-07T13:00:00,2361A,117.0017,28.2131,鹰潭市,三川水表,,,61,62,44,30,163,146,75,75,,13,47,19,0.7,0.5
2022-04-07T13:00:00,2362A,114.9017,25.9149,赣州市,通天岩(对照点),,46,38,44,24,29,158,147,106,106,5,8,8,7,0.4,0.5
2022-04-07T13:00:00,2363A,114.9367,25.8664,赣州市,地委,,,66,65,36,36,162,114,61,61,,23,20,11,0.8,0.9
2022-04-07T13:00:00,2364A,114.9461,25.8481,赣州市,气象台,,,52,53,38,35,174,168,91,91,,25,16,11,0.6,0.8
2022-04-07T13:00:00,2365A,114.9322,25.8333,赣州市,市图书馆,臭氧1小时,58,52,57,32,36,170,166,88,88,8,28,18,14,0.9,0.9
2022-04-07T13:00:00,2366A,114.8905,25.8471,赣州市,华坚鞋城,颗粒物(PM10),52,54,70,32,36,155,143,85,85,9,39,8,13,0.5,0.7
2022-04-07T13:00:00,2367A,114.9754,27.0803,吉安市,红声器材厂,,,68,62,25,34,168,153,77,77,,22,8,8,0.4,0.4
2022-04-07T13:00:00,2368A,114.9658,27.0999,吉安市,市森林工业局,颗粒物(PM10),59,67,55,34,34,157,145,77,77,11,20,5,6,0.4,0.4
2022-04-07T13:00:00,2369A,114.99,27.1312,吉安市,市环境监测站,颗粒物(PM10),56,62,58,32,32,160,148,80,80,11,20,15,11,0.5,0.6
2022-04-07T13:00:00,2370A,115.0093,27.0968,吉安市,青原区法院,颗粒物(PM10),59,68,62,40,36,169,161,84,84,9,24,14,12,0.5,0.5
2022-04-07T13:00:00,2371A,114.3408,27.8064,宜春市,槟榔水业(对照点),颗粒物(PM10),63,75,70,35,38,164,143,64,64,11,23,4,6,0.3,0.4
2022-04-07T13:00:00,2373A,114.3956,27.7844,宜春市,市石油公司,颗粒物(PM10),62,74,73,34,39,181,152,81,81,4,16,6,8,0.6,0.6
2022-04-07T13:00:00,2374A,114.3703,27.7914,宜春市,市气象局,颗粒物(PM10),56,61,65,34,35,175,149,94,93,10,20,7,10,0.5,0.6
2022-04-07T13:00:00,2375A,114.4013,27.8074,宜春市,市广电局,颗粒物(PM10),69,88,71,45,42,176,146,81,77,10,26,9,10,1.0,0.7
2022-04-07T13:00:00,2376A,116.2127,28.0814,抚州市,桐源党溪(对照点),,46,42,41,21,23,150,147,86,86,7,9,11,10,0.6,0.5
2022-04-07T13:00:00,2377A,116.3544,27.9831,抚州市,市站,颗粒物(PM10),58,66,53,33,31,151,142,82,82,10,19,29,20,0.6,0.6
2022-04-07T13:00:00,2378A,116.3565,27.963,抚州市,血防站,颗粒物(PM10),54,58,51,30,27,158,142,79,79,8,16,27,18,0.7,0.8
2022-04-07T13:00:00,2379A,116.3564,28.0007,抚州市,采茶剧团,,,,50,,27,152,144,84,84,13,16,25,19,0.7,0.7
2022-04-07T13:00:00,2380A,116.385,27.9647,抚州市,医学分院,颗粒物(PM10),54,57,52,26,25,162,142,83,83,2,6,32,13,0.9,0.9
2022-04-07T13:00:00,2381A,118.005,28.4572,上饶市,百草园(对照点),颗粒物(PM10),61,72,47,34,26,146,146,68,68,10,17,14,22,0.2,0.3
2022-04-07T13:00:00,2382A,117.9756,28.4436,上饶市,市监测站,颗粒物(PM10),59,68,54,39,30,153,153,69,69,14,20,21,21,0.3,0.3
2022-04-07T13:00:00,2383A,117.9519,28.4628,上饶市,凤凰光学,细颗粒物(PM2.5),64,68,58,46,33,159,159,67,67,8,35,15,26,0.3,0.4
2022-04-07T13:00:00,2385A,114.17,35.9019,鹤壁市,市监测站,颗粒物(PM10),93,136,116,61,45,99,99,63,63,30,30,12,9,1.2,1.2
2022-04-07T13:00:00,2386A,114.2956,35.7511,鹤壁市,市交警支队,颗粒物(PM10),107,163,112,56,40,98,92,47,47,31,30,16,13,0.9,0.7
2022-04-07T13:00:00,2387A,114.2878,35.7306,鹤壁市,迎宾馆,颗粒物(PM10),103,156,94,75,37,104,95,54,46,23,32,17,10,0.9,0.8
2022-04-07T13:00:00,2389A,113.836,35.311,新乡市,环保西院,,,,123,,39,112,109,66,64,,27,21,15,0.9,0.8
2022-04-07T13:00:00,2390A,113.884,35.272,新乡市,开发区,颗粒物(PM10),100,150,116,68,40,116,116,73,62,19,26,18,14,1.1,0.9
2022-04-07T13:00:00,2391A,113.883,35.303,新乡市,环保东院,颗粒物(PM10),85,120,101,54,38,114,114,74,74,17,23,20,16,0.9,0.8
2022-04-07T13:00:00,2392A,115.0312,35.7636,濮阳市,环保局,颗粒物(PM10),65,80,75,42,29,125,125,78,78,23,19,9,11,0.4,0.4
2022-04-07T13:00:00,2394A,115.0574,35.7609,濮阳市,油田运输公司,细颗粒物(PM2.5),77,99,94,56,29,139,139,82,82,25,21,7,11,0.4,0.4
2022-04-07T13:00:00,2395A,115.0866,35.7754,濮阳市,油田物探公司,颗粒物(PM10),72,94,83,43,28,123,123,70,70,22,22,10,14,0.3,0.3
2022-04-07T13:00:00,2396A,113.8276,34.0159,许昌市,监测站,颗粒物(PM10),73,96,128,34,34,144,130,94,94,12,12,7,13,0.6,0.6
2022-04-07T13:00:00,2398A,113.7906,33.9953,许昌市,开发区,颗粒物(PM10),93,136,128,32,33,154,118,96,96,16,15,6,10,0.5,0.6
2022-04-07T13:00:00,2399A,114.051,33.5699,漯河市,三五一五工厂,,,,127,44,49,143,124,85,85,11,15,9,9,0.6,0.6
2022-04-07T13:00:00,2400A,114.0055,33.5698,漯河市,漯河大学,颗粒物(PM10),71,92,111,50,50,150,121,86,86,10,12,12,9,0.5,0.6
2022-04-07T13:00:00,2401A,114.0138,33.5828,漯河市,市水利局,颗粒物(PM10),79,107,119,57,54,137,115,80,80,7,10,8,6,0.7,0.7
2022-04-07T13:00:00,2402A,114.0261,33.5698,漯河市,市广电局,颗粒物(PM10),74,98,115,46,50,152,127,86,86,6,8,11,10,0.4,0.5
2022-04-07T13:00:00,2403A,112.5192,32.9917,南阳市,环保局,颗粒物(PM10),93,135,108,61,50,140,122,92,89,18,22,10,11,0.8,0.8
