timepoint,stationcode,longitude,latitude,area,positionname,primarypollutant,aqi,pm10,pm10_24h,pm2_5,pm2_5_24h,o3,o3_24h,o3_8h,o3_8h_24h,no2,no2_24h,so2,so2_24h,co,co_24h
2022-10-26T04:00:00,1001A,116.3621,39.8784,北京市,万寿西宫,细颗粒物(PM2.5),206,223,176,156,122,101,0,12,4,118,76,3,5,1.5,1.1
2022-10-26T04:00:00,1002A,116.2202,40.2915,北京市,定陵(对照点),细颗粒物(PM2.5),198,207,147,148,92,133,63,76,66,16,20,1,6,0.7,0.7
2022-10-26T04:00:00,1003A,116.4174,39.9289,北京市,东四,细颗粒物(PM2.5),218,260,199,168,121,108,5,10,6,101,62,1,6,0.9,0.9
2022-10-26T04:00:00,1004A,116.4072,39.8863,北京市,天坛,细颗粒物(PM2.5),206,194,159,156,114,107,2,5,3,59,54,3,5,1.2,1
2022-10-26T04:00:00,1005A,116.462,39.9365,北京市,农展馆,细颗粒物(PM2.5),216,222,169,166,115,97,0,7,2,102,74,3,4,1.2,1
2022-10-26T04:00:00,1006A,116.3392,39.9295,北京市,官园,细颗粒物(PM2.5),226,233,182,176,124,112,7,5,5,68,57,1,6,0.8,0.9
2022-10-26T04:00:00,1007A,116.2878,39.9611,北京市,海淀万柳,细颗粒物(PM2.5),212,225,175,162,113,95,3,17,13,68,67,3,4,1.0,1.1
2022-10-26T04:00:00,1008A,116.6636,40.135,北京市,顺义新城,细颗粒物(PM2.5),180,213,170,136,103,104,30,37,31,41,49,3,4,0.8,0.8
2022-10-26T04:00:00,1009A,116.6275,40.3275,北京市,怀柔镇,细颗粒物(PM2.5),173,183,139,131,93,106,53,60,55,19,33,1,4,1.0,1.1
2022-10-26T04:00:00,1010A,116.2296,40.217,北京市,昌平镇,细颗粒物(PM2.5),202,207,151,152,100,112,15,47,23,48,38,3,4,0.8,0.9
2022-10-26T04:00:00,1011A,116.3966,39.9821,北京市,奥体中心,细颗粒物(PM2.5),215,233,168,165,121,107,0,1,0,95,74,1,4,1.3,1
2022-10-26T04:00:00,1012A,116.184,39.9136,北京市,古城,细颗粒物(PM2.5),213,224,194,163,122,117,4,3,3,81,62,1,5,1.4,1.2
2022-10-26T04:00:00,1015A,117.1444,39.1661,天津市,勤俭道,颗粒物(PM10),72,93,121,48,66,147,69,82,76,26,37,10,12,0.7,0.8
2022-10-26T04:00:00,1017A,117.237,39.1082,天津市,大直沽八号路,颗粒物(PM10),67,84,108,42,53,146,70,81,76,28,39,8,12,0.7,0.7
2022-10-26T04:00:00,1018A,117.202,39.0927,天津市,前进道,颗粒物(PM10),66,82,109,39,54,152,70,82,77,28,40,10,12,0.5,0.6
2022-10-26T04:00:00,1019A,117.1837,39.2133,天津市,淮河道,颗粒物(PM10),73,95,129,44,67,154,80,80,80,25,44,11,13,0.7,0.8
2022-10-26T04:00:00,1021A,117.307,39.0877,天津市,跃进路,颗粒物(PM10),64,78,107,36,50,154,72,83,78,26,42,10,12,0.7,0.7
2022-10-26T04:00:00,1023A,117.707,39.0343,天津市,第四大街,颗粒物(PM10),69,88,110,45,58,150,68,89,79,26,42,11,11,0.7,0.7
2022-10-26T04:00:00,1024A,117.457,38.8394,天津市,永明路,"颗粒物(PM10),细颗粒物(PM2.5)",68,86,96,49,52,142,52,64,61,35,46,18,13,0.7,0.7
2022-10-26T04:00:00,1026A,117.764,39.1587,天津市,汉北路,颗粒物(PM10),66,81,105,41,52,156,89,96,94,20,47,16,14,0.6,0.6
2022-10-26T04:00:00,1027A,117.157,38.9194,天津市,团泊洼(对照点),颗粒物(PM10),67,84,107,42,54,147,66,80,72,20,31,12,14,1.0,0.9
2022-10-26T04:00:00,1029A,114.4422,38.0444,石家庄市,职工医院,细颗粒物(PM2.5),148,201,158,113,94,153,4,3,3,106,67,8,12,1.0,0.9
2022-10-26T04:00:00,1030A,114.6063,38.0266,石家庄市,高新区,细颗粒物(PM2.5),119,127,121,90,74,160,29,37,30,70,56,6,8,1.0,1
2022-10-26T04:00:00,1031A,114.4898,38.1328,石家庄市,西北水源,细颗粒物(PM2.5),200,233,183,150,97,156,39,29,29,55,63,4,8,1.2,1.1
2022-10-26T04:00:00,1032A,114.4586,38.0058,石家庄市,西南高教,细颗粒物(PM2.5),175,204,158,132,101,130,6,42,17,94,62,8,11,1.2,1.1
2022-10-26T04:00:00,1033A,114.5331,38.0178,石家庄市,世纪公园,细颗粒物(PM2.5),133,149,141,101,81,142,27,43,29,63,55,4,7,1.2,1.1
2022-10-26T04:00:00,1034A,114.509,38.0457,石家庄市,人民会堂,细颗粒物(PM2.5),183,223,156,138,103,148,42,75,50,66,57,10,13,1.1,1
2022-10-26T04:00:00,1035A,114.3524,37.8911,石家庄市,封龙山(对照点),细颗粒物(PM2.5),63,62,106,45,68,170,117,119,118,19,26,10,13,0.8,1
2022-10-26T04:00:00,1037A,118.131,39.6363,唐山市,雷达站,颗粒物(PM10),62,74,112,41,64,146,50,56,55,58,57,5,8,0.6,1.1
2022-10-26T04:00:00,1038A,118.1725,39.6334,唐山市,物资局,颗粒物(PM10),64,77,120,44,62,136,34,62,49,71,65,10,13,0.6,1.2
2022-10-26T04:00:00,1040A,118.1705,39.6506,唐山市,十二中,颗粒物(PM10),59,67,110,27,53,148,48,60,56,57,59,7,11,0.5,1.3
2022-10-26T04:00:00,1041A,118.1869,39.622,唐山市,小山,颗粒物(PM10),70,90,115,42,63,133,15,32,24,84,66,7,11,0.6,1.1
2022-10-26T04:00:00,1042A,119.5134,39.8207,秦皇岛市,北戴河环保局,颗粒物(PM10),74,97,76,52,37,180,59,99,74,30,27,6,7,0.7,0.4
2022-10-26T04:00:00,1043A,119.7493,40.0116,秦皇岛市,第一关,细颗粒物(PM2.5),119,124,86,90,48,151,6,37,16,77,52,9,9,1.1,0.7
2022-10-26T04:00:00,1044A,119.5897,39.9499,秦皇岛市,监测站,细颗粒物(PM2.5),89,90,88,66,56,154,58,91,70,31,36,12,10,0.8,0.7
2022-10-26T04:00:00,1046A,119.5251,39.9041,秦皇岛市,建设大厦,颗粒物(PM10),73,95,95,52,48,167,51,68,57,43,44,11,15,0.8,0.7
2022-10-26T04:00:00,1047A,114.5129,36.61763,邯郸市,环保局,,,,,,,,,,,,,,,,
2022-10-26T04:00:00,1048A,114.5302,36.6116,邯郸市,东污水处理厂,细颗粒物(PM2.5),67,71,86,48,51,138,64,62,62,26,34,8,12,0,0.1
2022-10-26T04:00:00,1049A,114.4918,36.5713,邯郸市,矿院,细颗粒物(PM2.5),59,66,90,42,49,133,57,60,59,28,37,24,14,0.5,0.5
2022-10-26T04:00:00,1050A,114.484,36.6133,邯郸市,丛台公园,"颗粒物(PM10),细颗粒物(PM2.5)",62,74,82,44,48,135,66,67,67,23,29,10,9,0.1,0.2
2022-10-26T04:00:00,1051A,115.493,38.8632,保定市,游泳馆,细颗粒物(PM2.5),75,90,133,55,103,176,52,50,50,37,54,10,13,0.5,0.8
2022-10-26T04:00:00,1052A,115.5213,38.8959,保定市,华电二区,颗粒物(PM10),78,105,135,54,95,160,42,62,46,43,60,9,11,0.6,0.9
2022-10-26T04:00:00,1053A,115.4713,38.9108,保定市,接待中心,颗粒物(PM10),81,112,140,58,90,163,38,72,55,40,56,7,9,0.5,0.7
2022-10-26T04:00:00,1054A,115.4612,38.8416,保定市,地表水厂,"颗粒物(PM10),细颗粒物(PM2.5)",79,108,155,58,86,161,47,56,48,35,58,10,12,0.6,0.9
2022-10-26T04:00:00,1055A,115.4323,38.8697,保定市,胶片厂,,,,,,,,,,,,,,,,
2022-10-26T04:00:00,1056A,115.5086,38.8639,保定市,监测站,细颗粒物(PM2.5),79,106,153,58,101,172,50,56,44,39,67,8,10,0.7,0.8
2022-10-26T04:00:00,1057A,114.8883,40.8336,张家口市,人民公园,细颗粒物(PM2.5),104,117,86,78,50,125,89,98,85,23,29,10,11,0.6,0.5
2022-10-26T04:00:00,1059A,114.8687,40.8042,张家口市,五金库,细颗粒物(PM2.5),104,110,88,78,55,150,63,78,70,39,31,10,12,1.0,0.7
2022-10-26T04:00:00,1060A,114.8902,40.762,张家口市,世纪豪园,细颗粒物(PM2.5),159,164,95,121,56,148,90,106,98,36,31,6,5,1.1,0.8
2022-10-26T04:00:00,1061A,114.8916,40.8661,张家口市,北泵房(对照点),细颗粒物(PM2.5),89,117,97,66,52,152,75,56,56,27,30,7,9,0.9,0.8
2022-10-26T04:00:00,1062A,117.9531,40.9081,承德市,铁路,细颗粒物(PM2.5),127,152,114,96,56,133,24,25,17,77,63,7,11,0.7,0.9
2022-10-26T04:00:00,1063A,117.9392,40.9763,承德市,中国银行,细颗粒物(PM2.5),128,152,105,97,63,126,3,17,12,80,49,3,7,1.0,1
2022-10-26T04:00:00,1064A,117.9503,40.928,承德市,开发区,细颗粒物(PM2.5),123,129,101,93,55,145,32,36,31,70,50,5,9,1.2,1
2022-10-26T04:00:00,1065A,117.8051,40.9655,承德市,文化中心,细颗粒物(PM2.5),112,145,124,84,67,136,36,41,39,55,60,2,6,1.0,1.2
2022-10-26T04:00:00,1066A,117.9268,41.0026,承德市,离宫(对照点),细颗粒物(PM2.5),134,129,88,102,60,130,46,72,54,45,33,8,11,0.9,0.8
2022-10-26T04:00:00,1067A,116.6708,39.5111,廊坊市,药材公司,细颗粒物(PM2.5),83,113,174,61,102,175,52,44,44,36,58,8,8,0.5,0.8
2022-10-26T04:00:00,1068A,116.7214,39.5589,廊坊市,开发区,细颗粒物(PM2.5),80,96,173,59,118,174,62,37,37,37,67,12,11,0.7,1
2022-10-26T04:00:00,1070A,116.7244,39.5269,廊坊市,北华航天学院,颗粒物(PM10),80,110,187,53,115,172,62,40,40,42,78,8,8,0.6,0.9
2022-10-26T04:00:00,1071A,116.8842,38.2991,沧州市,沧县城建局,颗粒物(PM10),60,69,97,30,46,146,72,80,76,21,31,10,12,0.3,0.4
2022-10-26T04:00:00,1072A,116.8584,38.3254,沧州市,电视转播站,颗粒物(PM10),57,63,96,29,46,159,82,92,86,21,30,9,13,0.6,0.6
2022-10-26T04:00:00,1073A,116.8709,38.3228,沧州市,市环保局,颗粒物(PM10),63,75,99,41,54,153,74,79,77,18,30,10,10,0.7,0.6
2022-10-26T04:00:00,1074A,115.6838,37.7541,衡水市,电机北厂,颗粒物(PM10),57,63,122,29,54,163,58,56,56,20,26,12,15,0.4,0.4
2022-10-26T04:00:00,1075A,115.6303,37.7316,衡水市,市监测站,颗粒物(PM10),56,61,111,29,55,155,74,84,79,20,29,10,11,0.4,0.8
2022-10-26T04:00:00,1077A,114.4704,37.0886,邢台市,达活泉,颗粒物(PM10),63,75,117,42,70,134,74,82,78,29,37,15,16,0.5,0.9
2022-10-26T04:00:00,1078A,114.5062,37.0349,邢台市,邢师高专,颗粒物(PM10),62,73,106,39,66,129,63,80,70,26,34,9,9,0.8,1
2022-10-26T04:00:00,1079A,114.5237,37.0851,邢台市,路桥公司,颗粒物(PM10),65,79,108,42,65,131,60,93,74,35,34,11,12,0.7,0.8
2022-10-26T04:00:00,1080A,114.4725,37.0719,邢台市,市环保局,颗粒物(PM10),64,78,128,39,68,133,70,79,74,24,33,10,11,0.5,0.9
2022-10-26T04:00:00,1081A,112.5139,37.8873,太原市,尖草坪,细颗粒物(PM2.5),109,133,160,82,90,155,4,3,3,90,72,9,10,0.9,1
2022-10-26T04:00:00,1083A,112.434,38.0108,太原市,上兰(对照点),,,,,,,,,,,,,,,,
2022-10-26T04:00:00,1084A,112.469,37.7124,太原市,晋源,细颗粒物(PM2.5),73,94,155,53,90,158,5,6,5,70,63,7,11,0.9,1.1
2022-10-26T04:00:00,1085A,112.5583,37.7394,太原市,小店,颗粒物(PM10),82,113,141,56,79,146,2,4,3,86,73,8,10,0.7,0.9
2022-10-26T04:00:00,1086A,112.5369,37.8692,太原市,桃园,细颗粒物(PM2.5),112,145,166,84,91,153,2,3,2,90,70,5,9,1.1,1.2
2022-10-26T04:00:00,1087A,112.57,37.8195,太原市,坞城,颗粒物(PM10),68,85,143,48,82,154,4,7,5,84,65,5,10,0.7,0.9
2022-10-26T04:00:00,1088A,112.549,37.9854,太原市,南寨,细颗粒物(PM2.5),82,106,132,60,81,141,3,3,3,69,59,5,10,0.7,0.9
2022-10-26T04:00:00,1089A,112.4701,37.782,太原市,金胜,,,,,,,,,,,,,,,,
2022-10-26T04:00:00,1090A,111.6507,40.7517,呼和浩特市,呼市一监,,,,,,,,,,,,,,,,
2022-10-26T04:00:00,1091A,111.6572,40.8033,呼和浩特市,小召,,29,29,79,5,46,178,48,68,59,10,34,6,14,0.2,0.7
2022-10-26T04:00:00,1094A,111.7516,40.8369,呼和浩特市,如意水处理厂,,32,32,97,6,46,166,52,69,60,7,40,3,11,0.3,0.8
2022-10-26T04:00:00,1095A,111.7276,40.8062,呼和浩特市,二十九中,颗粒物(PM10),68,86,97,9,49,170,53,65,62,7,30,6,14,0.5,0.9
2022-10-26T04:00:00,1096A,111.5512,40.7866,呼和浩特市,工大金川校区,,,50,86,6,44,162,56,66,60,6,29,5,15,,
2022-10-26T04:00:00,1097A,111.717,40.7612,呼和浩特市,化肥厂生活区,,,23,102,11,62,162,51,63,60,,,7,15,0.3,0.8
2022-10-26T04:00:00,1098A,123.6836,41.9339,沈阳市,森林路(对照点),,,,,,,,,,,,,,,,
2022-10-26T04:00:00,1099A,123.505,41.7406,沈阳市,浑南东路,,39,39,46,17,21,100,71,78,76,17,20,14,17,0.8,0.8
2022-10-26T04:00:00,1100A,123.4231,41.6989,沈阳市,新秀街,颗粒物(PM10),53,56,60,20,26,96,74,75,73,20,28,29,29,0.6,0.8
2022-10-26T04:00:00,1102A,123.5903,41.8411,沈阳市,东陵路,,38,38,60,22,32,103,63,79,72,21,21,13,17,0.6,0.9
2022-10-26T04:00:00,1103A,123.4264,41.8467,沈阳市,陵东街,,44,44,52,16,22,93,80,82,82,18,30,16,18,0.5,0.8
2022-10-26T04:00:00,1104A,123.4114,41.7653,沈阳市,文化路,,50,50,56,21,26,93,77,80,78,18,25,28,22,0.6,0.7
2022-10-26T04:00:00,1105A,123.4678,41.7867,沈阳市,小河沿,,48,48,61,17,26,95,76,82,78,17,26,8,10,0.7,0.8
2022-10-26T04:00:00,1106A,123.4017,41.7972,沈阳市,太原街,颗粒物(PM10),51,51,56,19,27,95,82,85,83,16,27,23,19,0.5,0.8
2022-10-26T04:00:00,1108A,123.3783,41.9228,沈阳市,京沈街,,48,48,52,23,29,95,88,92,90,12,27,18,18,0.5,0.8
2022-10-26T04:00:00,1109A,121.612,38.9741,大连市,甘井子,,29,25,29,14,14,95,92,93,93,10,18,4,4,0.8,0.8
2022-10-26T04:00:00,1110A,121.565,38.9511,大连市,周水子,,35,35,40,19,21,92,89,92,90,8,14,5,5,0.4,0.5
2022-10-26T04:00:00,1111A,121.5637,38.8845,大连市,星海三站,,37,37,33,16,16,81,78,81,79,14,21,7,9,0.6,0.6
2022-10-26T04:00:00,1112A,121.6302,38.9117,大连市,青泥洼桥,,30,30,29,12,12,101,89,96,93,16,21,6,7,0.5,0.5
2022-10-26T04:00:00,1113A,121.6251,38.8638,大连市,傅家庄,,35,35,25,12,9,85,68,74,71,16,18,5,5,0.7,0.7
2022-10-26T04:00:00,1114A,121.5213,38.8661,大连市,七贤岭,,32,27,29,10,10,111,101,108,105,9,13,8,7,0.4,0.4
2022-10-26T04:00:00,1115A,121.2529,38.8061,大连市,旅顺,,30,22,26,10,12,108,95,101,99,7,10,4,6,0.4,0.4
2022-10-26T04:00:00,1116A,121.7485,39.1311,大连市,金州,,29,28,23,20,10,101,80,88,84,20,19,10,9,0.5,0.3
2022-10-26T04:00:00,1117A,121.7811,39.0496,大连市,开发区,,30,26,28,12,12,104,93,102,98,17,26,10,11,0.4,0.4
2022-10-26T04:00:00,1118A,121.9762,39.0631,大连市,双D港,,26,24,22,10,9,87,81,82,81,6,8,8,8,0.7,0.7
2022-10-26T04:00:00,1119A,125.3325,43.9166,长春市,食品厂,细颗粒物(PM2.5),59,57,51,42,29,92,51,66,61,38,29,12,10,0.5,0.4
2022-10-26T04:00:00,1120A,125.2863,43.9027,长春市,客车厂,细颗粒物(PM2.5),55,57,49,39,24,88,74,77,76,24,27,15,12,0.5,0.5
2022-10-26T04:00:00,1121A,125.2841,43.8463,长春市,邮电学院,细颗粒物(PM2.5),59,64,52,42,26,90,60,69,65,40,35,10,19,0.5,0.4
2022-10-26T04:00:00,1122A,125.3716,43.8772,长春市,劳动公园,细颗粒物(PM2.5),54,48,47,38,23,100,76,74,74,20,26,8,9,0.4,0.4
2022-10-26T04:00:00,1123A,125.3297,43.8805,长春市,园林处,颗粒物(PM10),53,55,45,36,19,103,73,72,72,25,24,7,6,0.4,0.4
2022-10-26T04:00:00,1124A,125.4605,43.79,长春市,净月潭,,48,48,37,23,13,98,82,80,80,12,14,6,6,0.5,0.4
2022-10-26T04:00:00,1125A,125.7194,43.515,长春市,甩湾子(对照点),,,,,,,,,,,,,,,,
2022-10-26T04:00:00,1126A,125.3863,43.8447,长春市,经开区环卫处,颗粒物(PM10),56,61,46,37,22,102,68,72,71,27,22,16,9,0.5,0.4
2022-10-26T04:00:00,1127A,125.245,43.7783,长春市,高新区管委会,细颗粒物(PM2.5),55,44,42,39,26,100,74,68,68,15,20,5,6,0.5,0.4
2022-10-26T04:00:00,1128A,125.1761,43.8325,长春市,岱山公园,颗粒物(PM10),52,54,51,30,21,98,98,72,72,19,33,11,9,0.5,0.5
2022-10-26T04:00:00,1129A,126.5422,45.755,哈尔滨市,岭北(对照点),颗粒物(PM10),58,65,55,32,23,74,56,51,51,19,18,13,9,0.4,0.4
2022-10-26T04:00:00,1130A,126.561,45.8167,哈尔滨市,松北商大,,48,48,42,32,20,92,72,69,69,14,13,9,8,0.6,0.6
2022-10-26T04:00:00,1131A,126.979,45.5419,哈尔滨市,阿城会宁,,50,50,32,9,12,73,72,72,72,10,11,11,10,0.5,0.4
2022-10-26T04:00:00,1132A,126.599,45.7222,哈尔滨市,南岗学府路,,48,46,43,33,19,83,70,67,67,13,21,5,7,0.5,0.5
2022-10-26T04:00:00,1133A,126.689,45.7733,哈尔滨市,太平宏伟公园,颗粒物(PM10),52,53,54,34,21,86,62,64,63,21,19,17,9,0.6,0.6
2022-10-26T04:00:00,1134A,126.635,45.7667,哈尔滨市,道外承德广场,颗粒物(PM10),53,56,58,34,22,81,69,66,66,20,30,9,15,0.4,0.4
2022-10-26T04:00:00,1135A,126.685,45.7319,哈尔滨市,香坊红旗大街,,47,47,49,28,15,76,53,53,52,30,29,12,12,0.6,0.5
2022-10-26T04:00:00,1136A,126.6411,45.7258,哈尔滨市,动力和平路,细颗粒物(PM2.5),57,49,48,40,22,70,51,52,51,32,30,9,19,0.4,0.5
2022-10-26T04:00:00,1137A,126.593,45.7478,哈尔滨市,道里建国路,,50,50,45,29,21,78,68,65,65,17,27,14,18,0.5,0.7
2022-10-26T04:00:00,1138A,126.615,45.61,哈尔滨市,平房东轻厂,,46,46,42,23,15,78,60,56,56,8,9,10,9,0.6,0.5
2022-10-26T04:00:00,1139A,126.595,45.9855,哈尔滨市,呼兰师专,颗粒物(PM10),58,65,57,31,24,79,65,65,65,21,26,12,13,0.7,0.7
2022-10-26T04:00:00,1140A,126.6206,45.6842,哈尔滨市,省农科院,颗粒物(PM10),53,56,49,20,17,83,67,61,61,16,18,10,9,0.7,1
2022-10-26T04:00:00,1141A,121.4,31.238,上海市,普陀,,23,23,30,5,5,87,71,71,71,20,19,3,3,0.5,0.5
2022-10-26T04:00:00,1142A,121.478,31.2036,上海市,十五厂,,20,20,28,9,9,93,63,62,62,32,23,7,7,0.5,0.5
2022-10-26T04:00:00,1143A,121.467,31.3008,上海市,虹口,,24,24,28,13,8,81,47,56,52,26,17,5,6,0.6,0.5
2022-10-26T04:00:00,1144A,121.412,31.1654,上海市,徐汇上师大,,27,27,32,7,7,91,61,52,52,32,24,6,6,0.7,0.6
2022-10-26T04:00:00,1145A,121.536,31.2659,上海市,杨浦四漂,,41,34,30,9,6,94,17,51,35,82,38,7,6,0.6,0.5
2022-10-26T04:00:00,1146A,120.978,31.0935,上海市,青浦淀山湖(对照点),,,,,,,,,,,,,,,,
2022-10-26T04:00:00,1147A,121.425,31.2261,上海市,静安监测站,,24,23,26,8,11,87,74,71,71,20,20,5,5,0.5,0.5
2022-10-26T04:00:00,1148A,121.703,31.1907,上海市,浦东川沙,,26,26,33,9,9,92,54,58,57,26,20,6,7,0.5,0.4
2022-10-26T04:00:00,1149A,121.533,31.2284,上海市,浦东新区监测站,,20,17,24,13,14,84,61,63,62,27,22,6,6,0.6,0.6
2022-10-26T04:00:00,1150A,121.577,31.2071,上海市,浦东张江,,30,22,25,11,8,81,19,52,40,60,26,4,4,0.5,0.5
2022-10-26T04:00:00,1151A,118.8086,32.1065,南京市,迈皋桥,,29,29,46,7,13,114,54,50,50,18,32,4,4,0.3,0.4
2022-10-26T04:00:00,1152A,118.7538,32.0551,南京市,草场门,,31,31,41,15,20,119,51,48,48,26,31,3,3,0.4,0.4
2022-10-26T04:00:00,1153A,118.7794,32.0745,南京市,山西路,,29,29,41,12,16,138,65,60,60,14,17,3,4,0.3,0.3
2022-10-26T04:00:00,1154A,118.7752,32.0023,南京市,中华门,,36,36,48,7,15,125,49,48,48,21,27,4,5,0.5,0.6
2022-10-26T04:00:00,1155A,118.8109,32.0309,南京市,瑞金路,,39,39,49,7,16,129,56,52,52,13,19,4,4,0.6,0.6
2022-10-26T04:00:00,1156A,118.7997,32.0754,南京市,玄武湖,,35,35,43,10,15,127,59,55,55,17,19,4,4,0.4,0.5
2022-10-26T04:00:00,1157A,118.6414,32.0931,南京市,浦口,,,36,43,,16,126,48,46,46,29,30,3,4,0.4,0.4
2022-10-26T04:00:00,1158A,118.7356,31.9996,南京市,奥体中心,,36,36,49,19,16,122,48,46,46,30,33,4,4,0.2,0.3
2022-10-26T04:00:00,1159A,118.9125,32.1028,南京市,仙林大学城,,31,31,43,5,10,126,58,54,54,20,22,3,3,0.5,0.6
2022-10-26T04:00:00,1160A,120.561,31.2472,苏州市,上方山(对照点),,22,22,33,11,13,89,43,55,48,27,23,8,6,0.4,0.4
2022-10-26T04:00:00,1161A,120.628,31.2864,苏州市,南门,,,,,,,,,,,,,,,,
2022-10-26T04:00:00,1162A,120.591,31.3019,苏州市,彩香,,26,26,33,9,11,91,52,48,48,24,23,6,6,0.4,0.4
2022-10-26T04:00:00,1163A,120.596,31.3264,苏州市,轧钢厂,,28,28,34,7,10,90,52,60,53,26,27,6,6,0.5,0.5
2022-10-26T04:00:00,1164A,120.613,31.2703,苏州市,吴中区,,26,26,32,8,11,91,52,55,54,26,26,7,6,0.5,0.5
2022-10-26T04:00:00,1165A,120.543,31.2994,苏州市,苏州新区,,22,22,30,8,11,90,62,56,56,12,18,7,6,0.4,0.4
2022-10-26T04:00:00,1166A,120.669,31.3097,苏州市,苏州工业园区,,28,28,32,10,12,82,44,40,40,32,28,6,6,0.5,0.6
2022-10-26T04:00:00,1167A,120.641,31.3708,苏州市,相城区,,28,28,30,10,9,93,29,38,31,50,28,8,8,0.5,0.5
2022-10-26T04:00:00,1168A,120.9098,31.9663,南通市,狼山街道,,36,36,33,17,12,107,33,35,34,31,24,6,6,0.3,0.3
2022-10-26T04:00:00,1169A,120.86,32.0005,南通市,虹桥,,30,30,32,16,14,99,66,76,68,19,21,5,5,0.4,0.4
2022-10-26T04:00:00,1170A,120.87,32.02,南通市,城中,,25,25,31,10,16,99,60,72,66,21,21,2,3,0.4,0.5
2022-10-26T04:00:00,1171A,120.94,31.93,南通市,星湖花园,,33,33,31,19,14,99,52,54,49,19,24,6,6,0.3,0.4
2022-10-26T04:00:00,1172A,120.81,32.0417,南通市,紫琅学院,,32,32,34,17,13,112,60,69,64,24,27,6,6,0.5,0.5
2022-10-26T04:00:00,1173A,119.176,34.5885,连云港市,市环境监测站,,25,24,42,12,16,119,80,75,75,11,18,6,8,0.2,0.3
2022-10-26T04:00:00,1177A,117.179,34.2761,徐州市,黄河新村,,34,34,70,12,31,137,61,69,63,23,29,8,9,0.8,0.9
2022-10-26T04:00:00,1178A,117.1918,34.2384,徐州市,淮塔,,38,38,77,12,33,139,57,68,61,24,33,6,8,0.5,0.7
2022-10-26T04:00:00,1180A,117.256,34.2153,徐州市,新城区,,39,39,70,17,32,137,53,59,55,26,35,8,9,0.6,0.7
2022-10-26T04:00:00,1181A,117.244,34.2911,徐州市,桃园路,,39,39,78,12,30,139,55,77,66,16,21,8,10,0.5,0.6
2022-10-26T04:00:00,1182A,117.2933,34.2778,徐州市,农科院,,36,36,71,9,28,126,44,64,53,28,33,7,9,0.6,0.7
2022-10-26T04:00:00,1186A,119.389,32.3761,扬州市,邗江监测站,,27,27,37,13,14,108,55,67,61,18,19,5,5,0.6,0.6
2022-10-26T04:00:00,1188A,120.269,31.4867,无锡市,雪浪,,22,22,30,5,8,95,36,52,45,29,22,6,6,0.6,0.5
2022-10-26T04:00:00,1189A,120.275,31.6219,无锡市,黄巷,,34,34,36,12,10,99,37,54,46,36,30,6,7,0.5,0.5
2022-10-26T04:00:00,1190A,120.294,31.56,无锡市,曹张,,,25,31,7,9,101,38,56,47,30,17,9,9,,0.5
2022-10-26T04:00:00,1191A,120.242,31.5031,无锡市,漆塘,,24,24,27,2,8,105,45,61,54,25,19,10,10,0.7,0.7
2022-10-26T04:00:00,1192A,120.3489,31.5863,无锡市,东亭,,27,27,29,9,10,94,27,47,36,38,26,8,8,0.7,0.7
2022-10-26T04:00:00,1193A,120.354,31.5475,无锡市,旺庄,,,27,30,,9,103,28,47,37,42,30,11,10,0.7,0.7
2022-10-26T04:00:00,1194A,120.245,31.5631,无锡市,荣巷,,19,19,29,7,11,104,46,61,53,36,28,9,8,0.6,0.6
2022-10-26T04:00:00,1195A,120.299,31.6817,无锡市,堰桥,,48,48,34,12,13,103,50,61,56,17,18,5,6,0.8,0.8
2022-10-26T04:00:00,1196A,119.9633,31.762,常州市,市监测站,,38,38,37,16,18,97,44,57,52,28,27,5,5,0.6,0.5
2022-10-26T04:00:00,1200A,119.9468,31.7069,常州市,武进监测站,,31,31,31,10,14,105,50,62,54,30,27,7,7,0.5,0.5
2022-10-26T04:00:00,1201A,119.9255,31.9087,常州市,安家,,24,24,33,12,18,112,58,67,64,21,27,5,6,0.5,0.6
2022-10-26T04:00:00,1203A,119.6707,32.1875,镇江市,新区办事处,,22,22,35,15,18,118,55,58,55,26,30,6,6,0.6,0.6
2022-10-26T04:00:00,1204A,119.4974,32.1968,镇江市,职教中心,,44,44,44,13,21,117,59,65,58,23,29,7,9,0.5,0.5
2022-10-26T04:00:00,1205A,119.4303,32.1328,镇江市,丹徒区监测站,,31,31,48,20,28,109,58,53,53,17,27,5,6,0.4,0.5
2022-10-26T04:00:00,1206A,119.905,32.4878,泰州市,公园路,,22,22,29,12,11,100,67,64,64,11,13,6,7,0.6,0.5
2022-10-26T04:00:00,1207A,119.9189,32.4625,泰州市,莲花,,27,27,32,17,20,99,57,59,57,16,16,6,6,0.4,0.5
2022-10-26T04:00:00,1209A,119.888,32.4639,泰州市,留学生创业园,,33,33,34,14,15,102,63,65,62,13,15,6,6,0.5,0.5
2022-10-26T04:00:00,1210A,119.036,33.5981,淮安市,钵池山,,22,19,32,11,17,121,68,74,72,15,16,6,7,0.6,0.6
2022-10-26T04:00:00,1211A,119.007,33.575,淮安市,北京南路,,24,17,34,11,17,126,76,80,79,13,17,8,10,0.5,0.5
2022-10-26T04:00:00,1212A,118.989,33.6067,淮安市,市监测站,,25,17,31,9,13,125,79,84,83,12,18,4,5,0.3,0.4
2022-10-26T04:00:00,1213A,119.135,33.5039,淮安市,楚州区监测站,,20,20,38,9,14,114,57,62,60,15,18,6,8,0.5,0.6
2022-10-26T04:00:00,1214A,119.0186,33.6297,淮安市,淮阴区监测站,,23,23,38,12,17,124,72,80,77,15,17,5,6,0.4,0.5
2022-10-26T04:00:00,1215A,120.118,33.4022,盐城市,盐城电厂,,25,17,30,11,13,113,77,79,77,11,16,5,6,0.3,0.4
2022-10-26T04:00:00,1216A,120.156,33.3942,盐城市,市监测站,,23,18,31,10,14,101,71,73,72,17,22,3,5,0.3,0.4
2022-10-26T04:00:00,1218A,120.2144,33.38,盐城市,开发区管委会,,27,27,33,7,14,106,54,64,60,19,19,7,6,0.3,0.5
2022-10-26T04:00:00,1220A,118.293,33.9528,宿迁市,宿迁学院,,40,40,55,12,21,116,56,53,53,20,36,7,8,0.4,0.5
2022-10-26T04:00:00,1221A,118.2442,33.9592,宿迁市,宿迁中学,,34,34,51,14,20,119,64,62,62,15,24,6,7,0.3,0.4
2022-10-26T04:00:00,1223A,120.2072,30.2111,杭州市,滨江,,33,33,34,15,13,103,52,59,53,28,28,8,7,0.4,0.4
2022-10-26T04:00:00,1224A,120.0633,30.2747,杭州市,西溪,,32,32,38,10,15,100,44,59,52,18,20,9,8,0.5,0.4
2022-10-26T04:00:00,1225A,119.026,29.635,杭州市,千岛湖(对照点),,,,,,,,,,,,,,,,
2022-10-26T04:00:00,1226A,120.3461,30.3153,杭州市,下沙,,40,40,26,15,12,106,47,58,54,34,28,11,9,0.5,0.5
2022-10-26T04:00:00,1227A,120.1269,30.2456,杭州市,卧龙桥,,32,32,31,17,14,111,49,64,56,21,20,8,6,0.4,0.4
2022-10-26T04:00:00,1228A,120.1903,30.2692,杭州市,浙江农大,,35,35,32,17,14,113,45,59,52,32,26,8,8,0.5,0.5
2022-10-26T04:00:00,1229A,120.157,30.2897,杭州市,朝晖五区,,,,,,,,,,,,,,,,
2022-10-26T04:00:00,1230A,120.1197,30.3119,杭州市,和睦小学,,39,39,39,15,14,109,47,61,54,29,23,5,4,0.6,0.5
2022-10-26T04:00:00,1231A,120.3019,30.4183,杭州市,临平镇,,49,49,36,21,10,107,44,70,57,32,19,8,7,0.6,0.5
2022-10-26T04:00:00,1232A,120.2697,30.1819,杭州市,城厢镇,,38,38,40,16,15,110,56,58,56,24,28,7,7,0.7,0.7
2022-10-26T04:00:00,1233A,120.0883,30.1808,杭州市,云栖,,31,31,32,13,13,102,53,62,56,25,24,6,6,0.5,0.5
2022-10-26T04:00:00,1234A,121.8358,29.911,宁波市,区环保大楼,,21,21,19,12,8,98,35,30,30,25,19,7,8,0.5,0.4
2022-10-26T04:00:00,1235A,121.56,29.82,宁波市,万里学院,颗粒物(PM10),63,76,39,32,17,100,8,48,30,52,33,7,7,0.7,0.6
2022-10-26T04:00:00,1236A,121.713,29.9572,宁波市,龙赛医院,,36,36,17,21,10,101,14,37,25,56,25,12,9,0.5,0.4
2022-10-26T04:00:00,1239A,121.633,29.7733,宁波市,钱湖水厂,,36,36,30,24,18,100,19,64,45,41,16,7,8,0.7,0.6
2022-10-26T04:00:00,1240A,121.5856,29.8635,宁波市,太古小学,,32,32,32,14,13,96,4,36,21,64,35,10,10,0.7,0.5
2022-10-26T04:00:00,1241A,121.524,29.8674,宁波市,市环境监测中心,,,,30,,8,61,,60,,,25,,7,,0.3
2022-10-26T04:00:00,1242A,120.634,28.0089,温州市,瓯海,,32,32,38,13,13,112,54,75,70,25,24,7,8,0.3,0.3
2022-10-26T04:00:00,1243A,120.6748,27.9939,温州市,南浦,,32,32,32,14,14,110,64,79,71,12,15,6,6,0.2,0.2
2022-10-26T04:00:00,1244A,120.76,27.9747,温州市,龙湾,,40,40,35,8,9,112,10,78,52,66,25,7,7,0.2,0.2
2022-10-26T04:00:00,1245A,120.6709,28.0167,温州市,市站,,34,34,36,18,13,113,61,74,66,18,18,6,7,0.3,0.3
2022-10-26T04:00:00,1246A,120.598,30.0911,绍兴市,袍江站,,,,,,,,,,,,,,,,
2022-10-26T04:00:00,1247A,120.6053,29.9928,绍兴市,城东开发委,,,,42,12,19,108,51,58,54,15,21,9,10,0.4,0.5
2022-10-26T04:00:00,1250A,120.0751,30.8669,湖州市,城西水厂,,24,24,34,8,12,111,47,60,54,26,29,6,7,0.2,0.3
2022-10-26T04:00:00,1252A,120.7436,30.778,嘉兴市,清河小学,,33,33,31,10,11,99,32,49,39,35,28,8,8,0.3,0.3
2022-10-26T04:00:00,1253A,120.726,30.7478,嘉兴市,嘉兴学院,,28,28,30,11,12,100,42,54,48,30,27,7,6,0.3,0.3
2022-10-26T04:00:00,1255A,121.273,28.6459,台州市,黄岩环保大楼,,28,28,28,11,12,104,54,68,60,14,14,7,6,0.3,0.3
2022-10-26T04:00:00,1256A,121.419,28.6542,台州市,台州环保大楼,,30,30,27,14,12,100,54,78,68,20,12,9,8,0.3,0.3
2022-10-26T04:00:00,1257A,121.377,28.5773,台州市,路桥田洋王,,31,31,31,17,14,102,28,78,44,34,15,6,6,0.3,0.3
2022-10-26T04:00:00,1258A,122.122,30.0203,舟山市,定海檀枫,,19,19,21,4,6,93,59,58,58,12,11,4,4,0.3,0.3
2022-10-26T04:00:00,1259A,122.3094,29.9558,舟山市,普陀东港,,23,16,18,7,6,94,73,85,79,13,14,4,4,0.2,0.2
2022-10-26T04:00:00,1260A,122.19,29.9944,舟山市,临城新区,,15,14,26,8,7,87,46,54,51,11,11,5,6,0.3,0.3
2022-10-26T04:00:00,1261A,119.649,29.1131,金华市,四中(停运161031),,,,,,,,,,,,,,,,
2022-10-26T04:00:00,1262A,119.647,29.077,金华市,十五中,,43,43,49,25,24,128,43,45,43,35,36,6,6,0.3,0.4
2022-10-26T04:00:00,1263A,119.686,29.1029,金华市,监测站,,44,44,44,26,23,134,36,45,42,44,32,2,2,0.4,0.5
2022-10-26T04:00:00,1264A,118.8692,28.9398,衢州市,环保大楼,,45,45,47,29,24,121,62,71,67,16,19,5,7,0.4,0.4
2022-10-26T04:00:00,1265A,118.8709,28.9666,衢州市,实验学校,,33,33,35,23,24,137,72,78,76,21,24,5,6,0.4,0.4
2022-10-26T04:00:00,1266A,118.8621,28.9808,衢州市,衢州学院,,42,42,50,21,26,124,66,72,70,17,22,7,8,0.4,0.3
2022-10-26T04:00:00,1267A,119.914,28.4514,丽水市,监测站大楼,,25,24,35,17,18,109,74,74,74,9,17,6,7,0.3,0.3
2022-10-26T04:00:00,1268A,119.93,28.4586,丽水市,莲都小学,,27,27,38,15,14,114,80,78,78,8,15,6,7,0.3,0.4
2022-10-26T04:00:00,1269A,119.879,28.4231,丽水市,余庄前,,27,20,31,7,14,119,85,80,80,7,14,6,6,0.2,0.2
2022-10-26T04:00:00,1270A,117.1959,31.7848,合肥市,明珠广场,颗粒物(PM10),59,68,65,24,24,114,51,70,61,26,26,9,10,0.5,0.4
2022-10-26T04:00:00,1271A,117.3072,31.8764,合肥市,三里街,,49,49,55,19,16,97,55,61,59,26,32,9,9,0.6,0.6
2022-10-26T04:00:00,1272A,117.2588,31.8707,合肥市,琥珀山庄,颗粒物(PM10),52,53,56,27,21,99,52,59,56,22,24,9,10,0.6,0.6
2022-10-26T04:00:00,1273A,117.1604,31.9052,合肥市,董铺水库(对照点),颗粒物(PM10),52,53,60,27,20,84,49,52,52,22,26,6,7,0.7,0.6
2022-10-26T04:00:00,1274A,117.25,31.8571,合肥市,长江中路,颗粒物(PM10),53,56,58,29,26,100,51,57,55,22,24,8,9,0.7,0.6
2022-10-26T04:00:00,1275A,117.266,31.9436,合肥市,庐阳区,,46,46,68,19,22,94,38,54,48,34,37,6,9,0.5,0.5
2022-10-26T04:00:00,1276A,117.336,31.8586,合肥市,瑶海区,颗粒物(PM10),52,53,56,21,22,97,54,61,58,26,30,12,13,0.7,0.6
2022-10-26T04:00:00,1277A,117.3027,31.7964,合肥市,包河区,颗粒物(PM10),59,68,67,29,26,108,27,60,30,54,43,12,13,0.7,0.7
2022-10-26T04:00:00,1278A,117.2776,31.7385,合肥市,滨湖新区,颗粒物(PM10),54,58,58,27,23,120,55,74,65,23,22,11,12,0.4,0.4
2022-10-26T04:00:00,1279A,117.1318,31.8403,合肥市,高新区,颗粒物(PM10),59,68,63,36,23,106,50,72,61,31,27,8,8,0.6,0.5
2022-10-26T04:00:00,1280A,119.3903,26.0543,福州市,鼓山(对照点),,,,,,,,,,,,,,,,
2022-10-26T04:00:00,1282A,119.2681,26.0504,福州市,师大,,29,29,33,10,10,104,65,86,70,9,7,3,5,0.3,0.3
2022-10-26T04:00:00,1283A,119.2984,26.1028,福州市,五四北路,,23,21,33,7,9,103,73,85,79,5,8,3,4,0.3,0.3
2022-10-26T04:00:00,1284A,119.2648,26.0768,福州市,杨桥西路,,27,27,33,8,11,107,70,85,72,7,8,3,4,0.4,0.3
2022-10-26T04:00:00,1285A,119.317,26.0746,福州市,紫阳,,26,24,34,7,12,106,82,88,83,4,8,6,7,0.4,0.4
2022-10-26T04:00:00,1286A,118.1608,24.8169,厦门市,溪东(对照点),,,,,,,,,,,,,,,,
2022-10-26T04:00:00,1287A,118.1514,24.4767,厦门市,洪文,,27,23,42,8,12,120,84,83,83,8,14,1,2,0.2,0.3
2022-10-26T04:00:00,1288A,118.0661,24.4444,厦门市,鼓浪屿,,25,25,39,8,12,128,79,86,83,13,15,3,4,0.1,0.2
2022-10-26T04:00:00,1290A,115.8931,28.6843,南昌市,省外办,颗粒物(PM10),56,62,71,29,28,127,43,52,50,38,28,12,12,0.8,0.8
2022-10-26T04:00:00,1291A,115.8886,28.7003,南昌市,省林业公司,颗粒物(PM10),60,70,70,27,28,124,32,27,27,66,44,10,9,0.6,0.6
2022-10-26T04:00:00,1292A,115.8126,28.7442,南昌市,林科所,,29,29,56,17,23,134,72,80,77,19,22,9,10,0.5,0.6
2022-10-26T04:00:00,1294A,115.8518,28.687,南昌市,建工学校,颗粒物(PM10),58,66,68,35,28,133,55,72,66,47,35,12,12,0.9,0.9
2022-10-26T04:00:00,1295A,115.8921,28.6424,南昌市,象湖,颗粒物(PM10),53,55,54,34,28,130,51,55,54,29,23,7,7,0.7,0.7
2022-10-26T04:00:00,1296A,115.7423,28.7996,南昌市,武术学校(对照点),,35,25,36,24,26,90,17,26,22,15,15,13,14,0.6,0.5
2022-10-26T04:00:00,1298A,115.9314,28.6842,南昌市,省站,颗粒物(PM10),73,95,81,42,35,123,45,42,41,40,31,9,9,0.7,0.7
2022-10-26T04:00:00,1299A,116.9862,36.6114,济南市,科干所,,35,34,68,10,26,143,110,115,111,13,22,6,8,0.4,0.5
2022-10-26T04:00:00,1300A,116.9376,36.665,济南市,农科所,,49,49,75,12,23,133,94,93,92,19,26,6,8,0.2,0.3
2022-10-26T04:00:00,1301A,117.1265,36.6734,济南市,开发区,,39,39,66,18,29,144,95,113,100,21,24,8,10,0.4,0.4
2022-10-26T04:00:00,1303A,117.0624,36.6868,济南市,省种子仓库,,36,36,63,20,34,141,106,118,111,10,19,3,5,0.3,0.4
2022-10-26T04:00:00,1304A,116.9489,36.6447,济南市,机床二厂,,49,49,80,12,31,141,108,109,109,12,26,6,8,0.6,0.7
2022-10-26T04:00:00,1305A,117.0495,36.663,济南市,市监测站,,39,39,65,10,25,145,112,120,116,8,19,7,10,0.3,0.4
2022-10-26T04:00:00,1306A,116.7675,36.5484,济南市,长清党校,颗粒物(PM10),53,56,74,27,32,146,112,112,112,8,13,11,11,0.5,0.5
2022-10-26T04:00:00,1307A,120.6659,36.2403,青岛市,仰口(对照点),,29,12,27,9,12,120,92,107,99,6,8,5,4,0.4,0.4
2022-10-26T04:00:00,1308A,120.3905,36.1851,青岛市,李沧区子站,,,,,,,,,,,,,,,,
2022-10-26T04:00:00,1309A,120.3471,36.0699,青岛市,市北区子站,,,,,,,,,,,,,,,,
2022-10-26T04:00:00,1310A,120.4134,36.0658,青岛市,市南区东部子站,,30,19,19,5,7,119,93,102,100,7,10,6,7,0.3,0.4
2022-10-26T04:00:00,1311A,120.3664,36.1032,青岛市,四方区子站,,29,19,28,5,10,108,90,99,96,5,19,3,5,0.3,0.4
2022-10-26T04:00:00,1312A,120.2994,36.054,青岛市,市南区西部子站,,30,12,22,5,5,128,96,112,105,12,10,7,8,0.4,0.5
2022-10-26T04:00:00,1313A,120.4581,36.0858,青岛市,崂山区子站,,30,14,24,12,9,124,95,106,102,11,13,5,6,0.3,0.4
2022-10-26T04:00:00,1314A,120.1983,35.9608,青岛市,黄岛区子站,,32,12,22,10,15,130,101,112,107,10,15,5,5,0.2,0.3
2022-10-26T04:00:00,1315A,120.3999,36.3083,青岛市,城阳区子站,,26,21,35,7,9,113,82,86,83,18,28,5,5,0.5,0.5
2022-10-26T04:00:00,1316A,113.69031,34.76122,郑州市,烟厂,,,82,82,50,42,145,58,69,61,26,25,,,0.7,0.7
2022-10-26T04:00:00,1317A,113.65724,34.77134,郑州市,郑纺机,颗粒物(PM10),70,89,78,50,44,148,66,71,66,23,21,11,12,0.6,0.6
2022-10-26T04:00:00,1318A,113.67526,34.80246,郑州市,银行学校,细颗粒物(PM2.5),67,71,72,48,43,68,29,35,31,20,20,8,9,0.8,0.8
2022-10-26T04:00:00,1319A,113.56746,34.81334,郑州市,供水公司,颗粒物(PM10),68,85,74,48,38,145,69,77,71,23,20,10,10,0.8,0.8
2022-10-26T04:00:00,1320A,113.7329,34.7178,郑州市,经开区管委,颗粒物(PM10),64,78,82,44,48,142,42,64,52,22,23,8,8,0.6,0.6
2022-10-26T04:00:00,1321A,113.73961,34.77172,郑州市,四十七中,颗粒物(PM10),71,91,81,38,40,146,48,72,60,27,27,12,11,0.6,0.5
2022-10-26T04:00:00,1322A,113.60532,34.74838,郑州市,市监测站,颗粒物(PM10),73,96,84,44,32,145,59,73,66,28,22,10,10,0.6,0.6
2022-10-26T04:00:00,1323A,113.64164,34.7525,郑州市,河医大,颗粒物(PM10),71,91,80,46,44,139,62,66,62,28,28,12,12,0.7,0.7
2022-10-26T04:00:00,1324A,113.51488,34.91089,郑州市,岗李水库(对照点),,,,,,,,,,,,,,,,
2022-10-26T04:00:00,1325A,114.3677,30.5584,武汉市,东湖梨园,颗粒物(PM10),62,73,75,32,39,140,43,54,49,49,42,33,15,2.7,0.9
2022-10-26T04:00:00,1326A,114.2529,30.558,武汉市,汉阳月湖,颗粒物(PM10),51,52,70,27,33,129,80,78,78,21,40,7,11,0.5,0.7
2022-10-26T04:00:00,1327A,114.282,30.6189,武汉市,汉口花桥,颗粒物(PM10),53,56,74,20,35,117,74,74,72,16,39,9,15,0.6,0.8
2022-10-26T04:00:00,1328A,114.3025,30.5332,武汉市,武昌紫阳,颗粒物(PM10),57,63,66,26,31,120,54,50,50,39,46,25,16,1.7,0.9
2022-10-26T04:00:00,1329A,114.3646,30.6217,武汉市,青山钢花,颗粒物(PM10),51,52,81,31,41,117,69,68,68,21,55,8,15,0.4,0.6
2022-10-26T04:00:00,1330A,114.1566,30.4825,武汉市,沌口新区,,44,44,69,29,34,112,66,69,59,31,48,10,16,0.7,0.9
2022-10-26T04:00:00,1331A,114.3014,30.5944,武汉市,汉口江滩,,41,41,61,24,35,132,76,76,76,16,35,7,12,0.7,0.9
2022-10-26T04:00:00,1333A,114.135,30.6319,武汉市,吴家山,,39,39,73,20,39,122,87,100,92,19,50,7,11,0.7,0.9
2022-10-26T04:00:00,1334A,113.8454,30.2917,武汉市,沉湖七壕(对照点),颗粒物(PM10),58,65,71,40,30,124,38,72,56,47,33,11,11,0.9,0.7
2022-10-26T04:00:00,1335A,113.0833,28.2325,长沙市,经开区环保局,细颗粒物(PM2.5),149,129,85,114,57,141,4,58,22,57,30,8,8,0.8,0.5
2022-10-26T04:00:00,1336A,112.8872,28.2189,长沙市,高开区环保局,细颗粒物(PM2.5),133,134,92,101,68,170,45,38,38,32,26,10,10,0.8,0.6
2022-10-26T04:00:00,1337A,113.0792,28.2053,长沙市,马坡岭,细颗粒物(PM2.5),179,123,92,135,63,142,11,58,25,47,27,10,10,1.1,0.7
2022-10-26T04:00:00,1338A,112.9394,28.19,长沙市,湖南师范大学,细颗粒物(PM2.5),133,122,89,101,68,151,28,24,24,32,27,6,6,0.9,0.8
2022-10-26T04:00:00,1339A,113.0178,28.1322,长沙市,雨花区环保局,细颗粒物(PM2.5),110,110,90,83,56,137,2,14,7,65,36,9,9,0.6,0.3
2022-10-26T04:00:00,1340A,112.9792,28.2597,长沙市,伍家岭,细颗粒物(PM2.5),124,136,102,94,70,168,38,32,32,28,28,8,8,0.9,0.7
2022-10-26T04:00:00,1341A,113.0014,28.1944,长沙市,火车新站,细颗粒物(PM2.5),122,132,92,92,57,152,18,35,21,45,29,9,8,0.8,0.6
2022-10-26T04:00:00,1342A,112.9844,28.1178,长沙市,天心区环保局,细颗粒物(PM2.5),165,138,92,125,66,166,10,8,6,49,33,9,9,0.8,0.6
2022-10-26T04:00:00,1343A,112.8908,28.1308,长沙市,湖南中医药大学,细颗粒物(PM2.5),120,143,103,91,56,162,35,33,33,28,25,6,6,1.0,0.7
2022-10-26T04:00:00,1344A,112.9581,28.3611,长沙市,沙坪(对照点),细颗粒物(PM2.5),206,261,140,156,80,147,44,34,34,26,24,8,7,1.2,0.9
2022-10-26T04:00:00,1345A,113.2347,23.1423,广州市,广雅中学,,39,39,67,13,29,237,74,71,71,20,32,5,7,0.5,0.6
2022-10-26T04:00:00,1346A,113.2612,23.105,广州市,市五中,,41,41,65,14,30,274,78,77,77,23,31,5,7,0.5,0.6
2022-10-26T04:00:00,1348A,113.3478,23.0916,广州市,广东商学院,,41,41,65,16,29,259,62,58,58,37,39,5,7,0.6,0.6
2022-10-26T04:00:00,1349A,113.4332,23.1047,广州市,市八十六中,颗粒物(PM10),58,65,75,18,28,203,48,40,37,38,49,8,10,0.4,0.6
2022-10-26T04:00:00,1350A,113.3505,22.9483,广州市,番禺中学,,42,42,62,13,22,269,89,84,84,17,28,9,11,0.5,0.5
2022-10-26T04:00:00,1351A,113.2146,23.3916,广州市,花都师范,,40,40,67,12,30,217,64,53,53,21,30,5,8,0.6,0.7
2022-10-26T04:00:00,1352A,113.2597,23.1331,广州市,市监测站,,44,44,66,16,30,261,77,79,78,18,28,5,7,0.5,0.7
2022-10-26T04:00:00,1353A,113.5618,23.312,广州市,九龙镇镇龙,颗粒物(PM10),54,57,68,22,30,188,22,32,26,37,38,5,5,0.5,0.6
2022-10-26T04:00:00,1354A,113.2765,23.1544,广州市,麓湖,,36,36,61,13,28,260,45,77,69,39,32,3,5,0.4,0.5
2022-10-26T04:00:00,1355A,113.443,23.3035,广州市,帽峰山森林公园(对照点),,42,42,54,15,26,192,14,36,22,65,28,7,7,0.3,0.4
2022-10-26T04:00:00,1356A,114.1063,22.5545,深圳市,通心岭子站,,38,38,38,12,13,119,86,100,93,5,8,5,5,0.5,0.6
2022-10-26T04:00:00,1357A,114.117,22.5625,深圳市,洪湖,,46,46,46,13,15,124,83,107,97,10,10,6,7,0.5,0.5
2022-10-26T04:00:00,1358A,113.987,22.5417,深圳市,华侨城,,45,45,46,14,15,116,92,102,96,6,11,5,6,0.4,0.4
2022-10-26T04:00:00,1359A,113.9181,22.5171,深圳市,南海子站,,40,40,41,14,15,132,99,113,106,5,7,3,4,0.3,0.3
2022-10-26T04:00:00,1360A,114.2458,22.5689,深圳市,盐田,,39,39,38,14,13,119,59,95,78,37,22,9,7,0.4,0.4
2022-10-26T04:00:00,1361A,114.2283,22.7244,深圳市,龙岗,,41,41,45,12,14,133,81,96,89,9,11,3,5,0.4,0.4
2022-10-26T04:00:00,1362A,113.8953,22.5861,深圳市,西乡,,,,,,,,,,,,,,,,
2022-10-26T04:00:00,1363A,114.494,22.5422,深圳市,南澳,,45,45,38,10,10,120,89,102,97,6,7,9,13,0.4,0.5
2022-10-26T04:00:00,1364A,114.41,22.6342,深圳市,葵涌,,28,27,30,13,14,117,87,97,92,5,9,6,6,0.6,0.6
2022-10-26T04:00:00,1365A,114.297,22.5978,深圳市,梅沙,,41,41,49,10,12,124,88,100,94,6,10,8,8,0.4,0.4
2022-10-26T04:00:00,1366A,114.0678,22.738,深圳市,观澜,颗粒物(PM10),51,51,59,14,17,136,78,82,78,13,19,6,6,0.3,0.4
2022-10-26T04:00:00,1367A,113.5814,22.2618,珠海市,吉大,,44,44,47,9,9,122,88,86,86,21,20,5,5,0.3,0.3
2022-10-26T04:00:00,1368A,113.4881,22.2335,珠海市,前山,,42,42,43,16,17,127,101,104,102,14,20,5,6,0.2,0.2
2022-10-26T04:00:00,1369A,113.628,22.4251,珠海市,唐家,,39,39,42,15,15,121,95,96,94,7,13,6,7,0.2,0.2
2022-10-26T04:00:00,1370A,113.299,22.2281,珠海市,斗门,,43,43,42,13,11,139,97,101,100,9,13,7,7,0.3,0.4
2022-10-26T04:00:00,1371A,113.1294,23.0067,佛山市,湾梁,,44,44,68,12,25,278,91,75,75,15,23,7,8,0.4,0.5
2022-10-26T04:00:00,1372A,113.1083,23.0478,佛山市,华材职中,,39,39,72,20,32,266,88,70,70,11,22,5,6,0.4,0.5
2022-10-26T04:00:00,1373A,113.144,23.0453,佛山市,南海气象局,,42,42,61,14,27,261,80,66,66,18,30,6,7,0.3,0.4
2022-10-26T04:00:00,1374A,113.2881,22.8094,佛山市,顺德苏岗,,35,35,51,17,22,240,84,83,83,18,24,7,7,0.6,0.6
2022-10-26T04:00:00,1375A,113.2544,22.7642,佛山市,容桂街道办,,,,,,,,,,,,,,,,
2022-10-26T04:00:00,1376A,112.8383,22.8678,佛山市,高明孔堂,,37,37,62,12,26,240,51,77,66,11,15,6,7,0.6,0.6
2022-10-26T04:00:00,1377A,112.8836,23.1588,佛山市,三水监测站,,46,46,83,21,37,224,30,40,36,44,43,5,6,0.5,0.6
2022-10-26T04:00:00,1378A,112.867,23.185,佛山市,三水云东海,,36,36,80,13,34,259,35,56,48,27,35,5,7,0.4,0.5
2022-10-26T04:00:00,1379A,113.3769,22.5211,中山市,华柏园,,38,38,41,16,14,155,89,90,89,14,18,4,5,0.3,0.4
2022-10-26T04:00:00,1380A,113.3881,22.5497,中山市,张溪,,42,42,51,17,10,172,98,95,93,10,17,5,5,0.3,0.3
2022-10-26T04:00:00,1381A,113.4075,22.5111,中山市,紫马岭,,42,42,41,10,13,154,93,93,93,10,12,7,7,0.3,0.3
2022-10-26T04:00:00,1382A,113.4411,22.4853,中山市,长江旅游区(对照点),,,,36,,15,94,,95,,,11,,7,,0.3
2022-10-26T04:00:00,1383A,113.1064,22.6058,江门市,北街,,34,34,51,15,17,191,79,69,69,16,19,7,7,0.4,0.5
2022-10-26T04:00:00,1384A,113.0731,22.5835,江门市,西区,,43,43,56,13,18,193,85,76,76,18,20,8,8,0.4,0.5
2022-10-26T04:00:00,1385A,113.0219,22.5311,江门市,圭峰西,,33,33,52,16,17,193,65,72,68,18,19,5,6,0.4,0.5
2022-10-26T04:00:00,1386A,113.0828,22.5947,江门市,东湖,,41,41,53,12,20,193,82,75,74,15,18,7,7,0.5,0.5
2022-10-26T04:00:00,1387A,113.7875,23.0457,东莞市,东城主山,,,,,,,,,,,,,,,,
2022-10-26T04:00:00,1388A,113.7533,23.0202,东莞市,南城元岭,,,,,,,,,,,,,,,,
2022-10-26T04:00:00,1389A,113.7547,23.0494,东莞市,莞城梨川,,48,48,56,15,21,218,93,98,95,18,25,8,8,0.6,0.6
2022-10-26T04:00:00,1390A,113.7944,23.0128,东莞市,东城石井,,45,45,53,18,22,246,68,86,78,17,20,10,11,0.6,0.7
2022-10-26T04:00:00,1391A,113.7383,22.9658,东莞市,南城西平,,48,48,60,17,23,234,78,88,82,20,27,10,12,0.8,0.8
2022-10-26T04:00:00,1392A,114.4183,23.0528,惠州市,河南岸金山湖子站,,38,38,54,15,16,150,79,93,86,9,12,4,5,0.4,0.5
2022-10-26T04:00:00,1393A,114.4053,23.0822,惠州市,下埔横江三路子站,,40,40,54,13,18,163,89,103,96,10,15,6,7,0.3,0.4
2022-10-26T04:00:00,1394A,114.4103,23.1142,惠州市,江北云山西路子站,,30,30,52,16,22,175,91,106,99,4,10,4,4,0.3,0.3
2022-10-26T04:00:00,1395A,114.4645,22.7833,惠州市,惠阳区承修路船湖子站,颗粒物(PM10),51,51,70,18,20,145,90,100,96,11,16,6,7,0.6,0.7
2022-10-26T04:00:00,1396A,114.5317,22.7422,惠州市,大亚湾管委会子站,,32,32,47,16,17,131,78,92,84,13,15,8,5,0.6,0.6
2022-10-26T04:00:00,1397A,112.4267,23.0706,肇庆市,睦岗子站,,47,47,69,20,36,259,52,95,77,34,36,10,10,0.5,0.6
2022-10-26T04:00:00,1398A,112.4645,23.0475,肇庆市,城中子站,颗粒物(PM10),52,53,71,20,34,254,46,84,67,38,30,18,15,0.5,0.6
2022-10-26T04:00:00,1399A,112.5544,23.1522,肇庆市,坑口子站,,26,26,68,12,40,274,60,84,70,17,26,9,12,0.4,0.6
2022-10-26T04:00:00,1400A,112.4753,23.1,肇庆市,七星岩子站(对照点),,32,32,64,11,37,246,73,80,76,9,19,5,7,0.3,0.5
2022-10-26T04:00:00,1401A,108.3103,22.7881,南宁市,二十一中,颗粒物(PM10),53,55,74,29,46,166,107,114,110,12,16,9,10,0.7,0.9
2022-10-26T04:00:00,1402A,108.3141,22.8528,南宁市,北湖,颗粒物(PM10),53,56,91,26,48,173,109,119,113,10,20,8,11,0.5,0.7
2022-10-26T04:00:00,1403A,108.3206,22.8225,南宁市,市监测站,颗粒物(PM10),55,59,78,36,53,170,113,120,116,14,26,11,12,0.7,0.8
2022-10-26T04:00:00,1404A,108.3829,22.8037,南宁市,大自然花园,颗粒物(PM10),51,51,75,26,48,160,105,116,110,10,17,7,8,0.7,0.9
2022-10-26T04:00:00,1405A,108.4394,22.7904,南宁市,仙葫(对照点),颗粒物(PM10),54,57,76,31,47,165,103,117,108,11,20,8,9,0.6,0.8
2022-10-26T04:00:00,1406A,108.2397,22.8467,南宁市,区农职院,颗粒物(PM10),51,51,82,25,48,189,114,119,116,17,30,7,11,0.8,1
2022-10-26T04:00:00,1407A,108.3275,22.735,南宁市,英华嘉园,颗粒物(PM10),55,60,86,25,47,148,87,89,88,19,28,10,11,0.7,0.9
2022-10-26T04:00:00,1408A,108.2257,22.7757,南宁市,沙井镇街道办,颗粒物(PM10),62,74,88,29,49,161,78,108,88,30,32,9,11,0.6,0.7
2022-10-26T04:00:00,1409A,110.576,19.9507,海口市,东寨港(对照点),,,8,24,10,11,53,32,37,35,,,5,6,0.3,0.2
2022-10-26T04:00:00,1410A,110.3232,20.0574,海口市,海南大学,,36,36,42,14,16,109,89,92,91,4,6,6,6,0.5,0.5
2022-10-26T04:00:00,1411A,110.283,20.0053,海口市,秀英海南医院,,39,39,47,6,14,102,85,87,87,2,5,4,4,0.4,0.4
2022-10-26T04:00:00,1412A,110.338,19.9969,海口市,海南师范大学,,43,43,48,12,14,102,77,80,79,4,4,4,4,0.4,0.5
2022-10-26T04:00:00,1413A,110.33,20.0356,海口市,龙华路环保局宿舍,,36,36,45,13,18,96,83,86,86,1,3,4,4,0.4,0.4
2022-10-26T04:00:00,1414A,106.3787,29.8279,重庆市,缙云山(对照点),,26,26,38,9,23,135,51,48,48,12,12,4,4,0.4,0.4
2022-10-26T04:00:00,1416A,106.4213,29.8253,重庆市,天生,细颗粒物(PM2.5),58,48,58,41,43,66,38,29,29,16,32,14,8,0.6,0.7
2022-10-26T04:00:00,1417A,106.6263,29.7228,重庆市,两路,细颗粒物(PM2.5),58,58,44,41,28,79,34,41,34,30,33,8,6,0.6,0.5
2022-10-26T04:00:00,1418A,106.2953,29.5983,重庆市,虎溪,细颗粒物(PM2.5),74,58,58,54,40,92,42,45,43,15,29,14,9,0.7,0.7
2022-10-26T04:00:00,1419A,106.5777,29.5102,重庆市,南坪,细颗粒物(PM2.5),60,58,50,43,30,72,6,25,14,57,34,4,3,0.7,0.7
2022-10-26T04:00:00,1420A,106.6556,29.6277,重庆市,唐家沱,,49,49,43,22,24,112,14,28,23,44,28,8,8,0.4,0.4
2022-10-26T04:00:00,1421A,106.6349,29.4906,重庆市,茶园,,49,49,47,21,24,78,21,33,27,45,34,6,8,0.6,0.6
2022-10-26T04:00:00,1422A,106.3754,29.4572,重庆市,白市驿,,,67,52,43,32,83,20,14,14,38,43,8,6,,0.8
2022-10-26T04:00:00,1425A,106.6205,29.7166,重庆市,空港,细颗粒物(PM2.5),60,59,40,43,32,87,32,42,32,27,22,12,10,0.5,0.5
2022-10-26T04:00:00,1426A,106.4782,29.4875,重庆市,新山村,颗粒物(PM10),62,74,54,42,36,84,42,29,29,34,45,3,3,0.5,0.6
2022-10-26T04:00:00,1427A,106.5616,29.6453,重庆市,礼嘉,细颗粒物(PM2.5),55,51,46,39,28,88,43,35,35,23,32,10,8,0.8,0.8
2022-10-26T04:00:00,1428A,106.4522,29.7091,重庆市,蔡家,细颗粒物(PM2.5),60,61,52,43,36,87,43,31,31,21,37,9,6,0.5,0.6
2022-10-26T04:00:00,1429A,106.5093,29.3917,重庆市,鱼新街,,39,32,40,27,32,70,28,41,33,27,25,6,9,0.8,0.9
2022-10-26T04:00:00,1431A,103.9728,30.7236,成都市,金泉两河,颗粒物(PM10),55,59,55,38,39,77,69,71,70,8,17,2,2,0.5,0.6
2022-10-26T04:00:00,1432A,104.1419,30.6764,成都市,十里店,细颗粒物(PM2.5),64,39,51,46,43,65,55,52,52,11,21,1,1,0.4,0.6
2022-10-26T04:00:00,1433A,104.0594,30.5767,成都市,三瓦窑,细颗粒物(PM2.5),65,57,58,47,44,69,52,55,50,10,19,1,2,0.5,0.5
2022-10-26T04:00:00,1434A,104.1122,30.6306,成都市,沙河铺,细颗粒物(PM2.5),62,55,51,44,38,62,59,52,52,7,17,2,2,0.5,0.6
2022-10-26T04:00:00,1437A,104.0431,30.6556,成都市,君平街,细颗粒物(PM2.5),58,40,49,41,43,87,71,68,68,11,20,3,2,0.4,0.7
2022-10-26T04:00:00,1438A,103.6202,31.0201,成都市,灵岩寺(对照点),,20,15,18,4,6,81,62,55,55,6,9,2,4,0.5,0.6
2022-10-26T04:00:00,1439A,106.6899,26.5998,贵阳市,马鞍山,,49,44,44,34,32,159,138,138,138,8,12,6,6,0.5,0.5
2022-10-26T04:00:00,1440A,106.6971,26.5694,贵阳市,市环保站,,49,44,54,34,31,148,132,135,132,11,22,5,6,0.4,0.5
2022-10-26T04:00:00,1441A,106.6243,26.6266,贵阳市,鉴湖路,颗粒物(PM10),53,56,54,36,29,154,146,147,146,6,12,5,6,0.5,0.5
2022-10-26T04:00:00,1442A,106.7487,26.6343,贵阳市,燕子冲,细颗粒物(PM2.5),62,53,55,44,41,168,143,146,146,14,20,5,6,0.7,0.6
2022-10-26T04:00:00,1443A,106.6555,26.4365,贵阳市,碧云窝,细颗粒物(PM2.5),55,58,58,39,32,162,149,142,142,10,12,6,7,0.5,0.4
2022-10-26T04:00:00,1444A,106.694,26.5161,贵阳市,中院村,细颗粒物(PM2.5),55,51,60,39,36,142,121,122,121,15,32,8,9,0.6,0.6
2022-10-26T04:00:00,1445A,106.7109,26.6027,贵阳市,红边门,细颗粒物(PM2.5),58,61,56,41,37,159,138,138,138,13,30,5,7,0.6,0.6
2022-10-26T04:00:00,1446A,106.7164,26.5699,贵阳市,新华路,颗粒物(PM10),59,68,55,41,33,160,136,140,137,6,16,3,6,0.5,0.5
2022-10-26T04:00:00,1447A,106.674,26.5424,贵阳市,太慈桥,颗粒物(PM10),53,56,60,31,28,148,132,133,132,10,15,5,7,0.5,0.5
2022-10-26T04:00:00,1450A,102.8204,24.8886,昆明市,呈贡新区,,29,24,36,20,23,87,52,47,47,13,18,3,4,0.4,0.5
2022-10-26T04:00:00,1451A,102.6251,24.9608,昆明市,西山森林公园(对照点),,21,21,21,14,17,76,58,60,59,8,10,7,8,0.7,0.7
2022-10-26T04:00:00,1452A,102.7252,25.0902,昆明市,龙泉镇,,32,29,31,22,19,75,38,38,37,19,16,5,5,0.8,0.5
2022-10-26T04:00:00,1453A,102.7266,25.0375,昆明市,东风东路,,40,40,33,21,21,76,42,43,42,16,18,7,7,0.7,0.6
2022-10-26T04:00:00,1454A,102.6742,25.0669,昆明市,金鼎山,,38,37,32,26,23,77,45,39,39,12,17,6,6,0.8,0.5
2022-10-26T04:00:00,1455A,102.6644,25.0401,昆明市,碧鸡广场,,40,38,32,28,23,75,42,33,33,18,24,11,10,1.0,0.6
2022-10-26T04:00:00,1456A,91.1319,29.6514,拉萨市,八廓街,,,8,7,,,97,62,61,61,7,8,7,8,0,0
2022-10-26T04:00:00,1457A,91.1221,29.6747,拉萨市,市环保局,,,,5,,4,83,,87,,,7,,2,,0.2
2022-10-26T04:00:00,1458A,91.0874,29.6475,拉萨市,区监测站,,21,6,4,5,2,104,66,79,72,9,6,9,9,0.4,0.3
2022-10-26T04:00:00,1459A,91.1774,29.6541,拉萨市,西藏大学,,21,6,7,5,4,99,65,66,64,9,9,10,10,0.1,0.1
2022-10-26T04:00:00,1460A,90.9798,29.6588,拉萨市,区辐射站,,16,10,6,7,4,90,50,61,56,16,10,9,9,0.1,0.1
2022-10-26T04:00:00,1461A,91.0834,29.6292,拉萨市,拉萨火车站,,21,7,5,4,3,94,66,66,66,10,8,10,10,0,0
2022-10-26T04:00:00,1462A,108.882,34.2749,西安市,高压开关厂,细颗粒物(PM2.5),198,205,222,148,150,106,52,40,40,34,72,5,10,1.2,1.3
2022-10-26T04:00:00,1463A,108.993,34.2629,西安市,兴庆小区,,36,16,141,25,84,90,58,34,34,12,59,4,8,0.6,1.1
2022-10-26T04:00:00,1464A,109.06,34.2572,西安市,纺织城,,34,34,160,23,77,73,25,12,12,28,64,7,10,0.7,1.3
2022-10-26T04:00:00,1465A,108.9356,34.2173,西安市,小寨,"颗粒物(PM10),细颗粒物(PM2.5)",128,206,244,97,114,88,35,21,21,30,71,7,11,1.6,1.6
2022-10-26T04:00:00,1466A,108.954,34.2713,西安市,市人民体育场,细颗粒物(PM2.5),149,150,177,114,126,106,16,14,14,24,62,5,8,1.1,0.9
2022-10-26T04:00:00,1467A,108.8922,34.2322,西安市,高新西区,细颗粒物(PM2.5),134,194,217,102,121,100,47,47,47,26,69,2,6,1.3,1.3
2022-10-26T04:00:00,1468A,108.935,34.3474,西安市,经开区,细颗粒物(PM2.5),170,127,133,129,89,101,37,27,27,33,57,5,9,1.2,1.1
2022-10-26T04:00:00,1469A,108.906,34.1546,西安市,长安区,细颗粒物(PM2.5),152,218,231,116,125,96,53,41,41,35,53,4,7,1.2,1.2
2022-10-26T04:00:00,1470A,109.2,34.6575,西安市,阎良区,,,,,,,,,,,,,,,,
2022-10-26T04:00:00,1471A,109.2186,34.3731,西安市,临潼区,,41,41,140,26,74,101,20,39,24,35,57,4,10,0.5,1
2022-10-26T04:00:00,1472A,108.869,34.378,西安市,草滩(对照点),细颗粒物(PM2.5),138,158,140,105,83,166,23,17,17,65,67,7,10,1.5,1.3
2022-10-26T04:00:00,1473A,108.985,34.1978,西安市,曲江文化产业集团,细颗粒物(PM2.5),179,236,242,135,163,78,35,37,32,36,73,4,8,1.3,1.5
2022-10-26T04:00:00,1474A,109.051,34.3213,西安市,广运潭,细颗粒物(PM2.5),65,47,136,47,76,98,30,26,26,28,59,5,10,0.7,1.1
2022-10-26T04:00:00,1476A,103.631,36.1031,兰州市,兰炼宾馆,颗粒物(PM10),51,52,62,35,42,176,26,19,19,28,36,5,19,0.5,0.7
2022-10-26T04:00:00,1477A,104.1373,35.9454,兰州市,榆中兰大校区(对照点),,,,,,,,,,,,,,,,
2022-10-26T04:00:00,1478A,103.8412,36.0726,兰州市,生物制品所,,40,37,47,28,36,121,5,28,15,47,31,4,5,0.8,0.8
2022-10-26T04:00:00,1479A,103.831,36.0464,兰州市,铁路设计院,,41,41,52,24,34,119,32,40,36,27,30,15,6,0.7,0.8
2022-10-26T04:00:00,1480A,101.748,36.6428,西宁市,市环境监测站,,,,,,,,,,,,,,,,
2022-10-26T04:00:00,1482A,101.834,36.5819,西宁市,四陆医院,,,,,,,,,,,,,,,,
2022-10-26T04:00:00,1483A,101.524,36.6867,西宁市,第五水厂(对照点),,,,,,,,,,,,,,,,
2022-10-26T04:00:00,1484A,105.9512,38.6016,银川市,贺兰山马莲口(对照点),颗粒物(PM10),72,93,59,44,32,150,56,113,87,32,20,36,17,1.1,0.7
2022-10-26T04:00:00,1488A,106.2328,38.4975,银川市,贺兰山东路,颗粒物(PM10),72,93,90,46,60,148,71,65,65,13,28,8,16,0.5,0.8
2022-10-26T04:00:00,1489A,106.1358,38.5036,银川市,学院路,颗粒物(PM10),85,120,106,37,45,134,56,46,46,17,33,11,16,1.0,1.2
2022-10-26T04:00:00,1490A,87.5801,43.8303,乌鲁木齐市,监测站,,19,15,22,13,14,50,40,50,46,18,23,5,7,0.6,0.7
2022-10-26T04:00:00,1491A,87.6046,43.768,乌鲁木齐市,收费所,,29,29,24,15,18,52,24,35,30,26,23,7,8,0.3,0.3
2022-10-26T04:00:00,1492A,87.4754,43.9469,乌鲁木齐市,新疆农科院农场(对照点),,13,4,11,9,13,53,38,36,34,12,20,5,6,0.8,0.9
2022-10-26T04:00:00,1493A,87.5525,43.8711,乌鲁木齐市,铁路局,,19,19,22,8,12,61,28,33,28,24,22,5,7,0.7,0.8
2022-10-26T04:00:00,1494A,87.6432,43.831,乌鲁木齐市,三十一中学,,,34,30,,,52,36,49,42,24,21,9,10,0.3,0.3
2022-10-26T04:00:00,1496A,87.7216,44.1747,乌鲁木齐市,米东区环保局,颗粒物(PM10),55,60,49,20,16,67,1,3,2,37,22,7,7,0.4,0.3
2022-10-26T04:00:00,1508A,112.9433,27.8614,湘潭市,板塘,细颗粒物(PM2.5),125,102,81,95,53,166,40,70,62,49,36,12,12,0.5,0.4
2022-10-26T04:00:00,1511A,112.9118,27.8403,湘潭市,市监测站,细颗粒物(PM2.5),134,107,82,102,57,165,32,41,38,35,30,10,11,0.8,0.6
2022-10-26T04:00:00,1512A,112.8937,27.8728,湘潭市,江麓,细颗粒物(PM2.5),129,140,93,98,58,193,43,54,48,38,28,11,12,0.6,0.5
2022-10-26T04:00:00,1513A,112.9227,27.8159,湘潭市,岳塘,颗粒物(PM10),61,72,88,43,51,176,54,65,62,40,35,11,11,0.5,0.5
2022-10-26T04:00:00,1514A,112.9074,27.9119,湘潭市,科大,细颗粒物(PM2.5),129,152,102,98,65,179,31,36,35,40,30,7,7,0.7,0.5
2022-10-26T04:00:00,1515A,113.135,27.8244,株洲市,天台山庄,颗粒物(PM10),53,55,66,31,40,167,92,98,95,23,31,8,8,0.4,0.4
2022-10-26T04:00:00,1518A,113.095,27.8867,株洲市,株冶医院,颗粒物(PM10),56,61,80,28,40,159,66,101,82,55,37,14,12,0.6,0.5
2022-10-26T04:00:00,1519A,113.167,27.8667,株洲市,市四中,"颗粒物(PM10),细颗粒物(PM2.5)",52,53,67,36,41,169,87,92,90,26,34,8,8,0.4,0.4
2022-10-26T04:00:00,1520A,113.143,27.8381,株洲市,火车站,颗粒物(PM10),58,66,78,32,42,178,90,104,100,27,37,10,9,0.6,0.7
2022-10-26T04:00:00,1524A,113.13,27.8528,株洲市,市监测站,颗粒物(PM10),59,68,76,33,44,165,95,99,96,22,30,13,9,0.6,0.6
2022-10-26T04:00:00,1552A,106.805,26.3003,贵阳市,桐木岭(对照点),,,,,,,,,,,,,,,,
2022-10-26T04:00:00,1559A,113.251,27.8336,株洲市,大京风景区(对照点),,34,34,53,22,27,154,54,60,56,15,15,4,5,0.5,0.5
2022-10-26T04:00:00,1562A,113.0048,27.9153,湘潭市,昭山,细颗粒物(PM2.5),79,80,86,58,53,154,5,50,33,57,36,4,5,0.6,0.5
2022-10-26T04:00:00,1564A,112.4876,27.9164,湘潭市,韶山(对照点),颗粒物(PM10),69,87,72,41,36,180,53,63,60,17,15,8,9,0.6,0.5
2022-10-26T04:00:00,1585A,109.8756,40.6532,包头市,市环境监测站,颗粒物(PM10),65,79,81,8,37,159,49,58,53,7,30,11,28,0.8,1.3
2022-10-26T04:00:00,1587A,109.9991,40.5842,包头市,包头八中,颗粒物(PM10),69,87,123,13,57,157,52,60,56,12,39,7,35,0.5,1.1
2022-10-26T04:00:00,1588A,109.8538,40.6821,包头市,青山宾馆,颗粒物(PM10),52,53,79,4,43,158,49,55,52,6,33,15,22,0.5,0.9
2022-10-26T04:00:00,1589A,109.8642,40.6288,包头市,惠龙物流,颗粒物(PM10),53,55,80,7,41,160,49,58,53,7,27,10,21,0.8,1.2
2022-10-26T04:00:00,1590A,110.0377,40.5546,包头市,东河鸿龙湾,颗粒物(PM10),61,71,123,9,54,156,58,59,58,5,39,8,30,0.3,0.9
2022-10-26T04:00:00,1591A,110.0023,39.8129,鄂尔多斯市,综合楼,颗粒物(PM10),62,74,81,38,38,141,41,86,74,36,33,12,16,0.6,0.9
2022-10-26T04:00:00,1592A,109.9486,39.8261,鄂尔多斯市,巴音孟克林场办事处,颗粒物(PM10),71,92,87,51,47,156,38,109,82,43,31,14,15,0.7,1
2022-10-26T04:00:00,1593A,109.7736,39.5986,鄂尔多斯市,康泽苑,细颗粒物(PM2.5),77,85,82,56,42,155,61,85,68,15,24,5,9,1.3,1.1
2022-10-26T04:00:00,1594A,109.8119,39.5989,鄂尔多斯市,华泰汽车城,细颗粒物(PM2.5),85,83,84,63,48,137,39,83,60,29,28,5,10,0.7,0.7
2022-10-26T04:00:00,1595A,109.9734,39.7884,鄂尔多斯市,奥林花园,"颗粒物(PM10),细颗粒物(PM2.5)",70,90,109,51,49,146,35,59,53,46,41,11,13,0.6,0.9
2022-10-26T04:00:00,1596A,122.2414,40.6592,营口市,学府南路,,,,,,,,,,,,,,,,
2022-10-26T04:00:00,1597A,122.2703,40.7094,营口市,大庆路,,40,40,37,21,14,104,91,91,91,18,19,9,9,0.8,0.6
2022-10-26T04:00:00,1598A,122.215,40.6511,营口市,镜湖西路,,37,37,38,17,13,108,96,91,91,8,16,3,5,0.4,0.3
2022-10-26T04:00:00,1599A,122.167,40.6655,营口市,西炮台,,46,46,36,23,17,108,88,88,88,17,20,10,12,0.5,0.4
2022-10-26T04:00:00,1600A,124.3303,40.0625,丹东市,江湾东路,,49,49,53,23,22,87,20,62,31,30,18,11,13,1.0,0.8
2022-10-26T04:00:00,1601A,124.4256,40.1503,丹东市,临江后街,颗粒物(PM10),51,51,48,24,23,91,8,27,22,44,23,11,10,0.8,0.7
2022-10-26T04:00:00,1602A,124.3933,40.1461,丹东市,元宝山,,31,31,89,11,30,83,59,56,56,8,22,9,12,0.4,0.7
2022-10-26T04:00:00,1603A,124.3633,40.1092,丹东市,民主桥,,42,42,73,22,29,85,35,25,25,14,28,10,14,0.7,0.9
2022-10-26T04:00:00,1604A,122.0303,41.1489,盘锦市,开发区,,32,25,41,22,18,95,77,76,76,17,25,7,11,0.7,0.8
2022-10-26T04:00:00,1605A,122.0485,41.0883,盘锦市,兴隆台,,39,39,41,18,19,83,78,77,77,12,22,9,14,0.5,0.6
2022-10-26T04:00:00,1606A,121.8297,41.1028,盘锦市,新生街道,,28,28,28,18,12,96,78,86,82,10,10,7,7,0.6,0.6
2022-10-26T04:00:00,1607A,120.9092,40.7136,葫芦岛市,龙港区,,40,40,32,19,15,112,87,96,91,8,11,8,9,0.5,0.4
2022-10-26T04:00:00,1608A,120.8392,40.7514,葫芦岛市,化工街,,47,47,43,27,21,123,87,100,92,10,17,5,6,0.7,0.6
2022-10-26T04:00:00,1609A,120.8341,40.7073,葫芦岛市,新区,,48,48,41,22,18,121,88,103,94,12,15,7,8,0.5,0.6
2022-10-26T04:00:00,1610A,120.8695,40.7677,葫芦岛市,东城区,,40,40,43,26,21,113,80,99,88,10,12,9,9,0.4,0.4
2022-10-26T04:00:00,1611A,118.5819,24.9117,泉州市,涂山街,,25,22,34,6,8,116,80,89,83,6,7,6,6,0.5,0.5
2022-10-26T04:00:00,1612A,118.5972,24.8978,泉州市,津头埔,,,,,8,11,115,77,86,81,3,6,6,6,0.4,0.4
2022-10-26T04:00:00,1613A,118.6663,24.9424,泉州市,万安,,25,23,35,11,12,124,80,92,86,7,7,8,6,0.5,0.5
2022-10-26T04:00:00,1614A,118.6117,24.9604,泉州市,清源山(对照点),,,,,,,,,,,,,,,,
2022-10-26T04:00:00,1616A,117.6795,36.229,济南市,技术学院,颗粒物(PM10),60,70,91,27,44,147,66,93,80,32,34,8,11,1.0,1.2
2022-10-26T04:00:00,1618A,118.3429,35.0532,临沂市,沂河小区,,28,22,64,19,36,132,82,80,80,4,21,7,13,0.3,0.5
2022-10-26T04:00:00,1619A,118.295,35.0583,临沂市,鲁南制药厂,,27,17,58,9,25,136,84,80,80,34,32,11,14,0.4,0.6
2022-10-26T04:00:00,1620A,118.2794,34.9976,临沂市,新光毛纺厂,,22,22,68,12,32,130,65,64,64,20,34,3,8,0.5,0.7
2022-10-26T04:00:00,1621A,118.3956,35.0888,临沂市,河东保险公司,,28,19,60,19,33,132,69,78,74,14,22,5,11,0.5,0.7
2022-10-26T04:00:00,1622A,116.3032,37.4674,德州市,儿童乐园,颗粒物(PM10),60,69,107,29,42,154,81,91,86,25,35,12,13,0.5,0.6
2022-10-26T04:00:00,1624A,116.2991,37.4451,德州市,监理站,颗粒物(PM10),58,66,111,34,58,158,83,96,90,20,28,15,15,0.5,0.6
2022-10-26T04:00:00,1625A,115.9848,36.4372,聊城市,区政府,颗粒物(PM10),52,53,94,14,36,140,75,80,78,16,23,9,12,0.5,0.5
2022-10-26T04:00:00,1628A,118.0062,37.3803,滨州市,市环保局,颗粒物(PM10),78,106,123,48,56,175,24,84,62,56,42,17,22,0.9,0.9
2022-10-26T04:00:00,1629A,118.0018,37.3617,滨州市,第二水厂,颗粒物(PM10),73,95,117,45,51,166,27,82,61,69,58,13,18,0.8,0.8
2022-10-26T04:00:00,1630A,117.9776,37.393,滨州市,北中新校,细颗粒物(PM2.5),62,72,102,44,49,171,47,83,72,51,53,14,20,0.6,0.8
2022-10-26T04:00:00,1631A,118.0414,36.8103,淄博市,人民公园,颗粒物(PM10),52,53,94,35,53,170,101,99,99,19,42,4,12,0.4,0.6
2022-10-26T04:00:00,1632A,118.0253,36.8406,淄博市,东风化工厂,,,,,,,,,,,,,,,,
2022-10-26T04:00:00,1633A,117.8525,36.4847,淄博市,双山,,47,47,77,26,40,152,97,110,105,17,25,6,11,0.3,0.5
2022-10-26T04:00:00,1634A,117.9592,36.6331,淄博市,气象站,颗粒物(PM10),51,52,79,19,32,161,100,106,104,21,26,7,11,0.6,0.7
2022-10-26T04:00:00,1635A,118.3092,36.8194,淄博市,莆田园,细颗粒物(PM2.5),58,63,90,41,49,176,51,56,55,36,44,5,11,0.3,0.9
2022-10-26T04:00:00,1636A,117.8661,36.805,淄博市,三金集团,,,,,,,,,,,,,,,,
2022-10-26T04:00:00,1637A,117.558,34.8438,枣庄市,市中区政府,,34,34,94,17,42,140,63,61,61,22,37,10,15,0.4,0.6
2022-10-26T04:00:00,1638A,117.2852,34.7837,枣庄市,薛城环保局,,46,46,76,24,32,134,56,69,61,30,35,15,16,0.6,0.7
2022-10-26T04:00:00,1639A,117.5852,34.7745,枣庄市,峄城区政府,,46,46,98,17,43,135,62,61,61,22,36,15,13,0.7,0.9
2022-10-26T04:00:00,1640A,117.7276,34.5578,枣庄市,台儿庄区环保局,,29,29,69,12,37,131,71,71,71,16,33,10,11,0.6,0.7
2022-10-26T04:00:00,1641A,117.4518,35.0992,枣庄市,山亭区环保局,,29,29,57,12,25,153,82,98,87,17,24,9,13,0.6,0.8
2022-10-26T04:00:00,1642A,121.2514,37.5639,烟台市,开发区,,19,17,23,9,10,104,60,68,65,15,19,8,9,0.3,0.4
2022-10-26T04:00:00,1643A,121.3719,37.5433,烟台市,轴承厂,,27,12,26,10,14,116,85,90,89,6,10,8,8,0.1,0.2
2022-10-26T04:00:00,1644A,121.3181,37.5436,烟台市,西郊化工站,,28,17,31,11,10,118,89,92,91,5,7,8,8,0.7,0.7
2022-10-26T04:00:00,1645A,121.4478,37.4822,烟台市,莱山环保局,,25,24,30,14,10,112,79,77,77,11,12,7,8,0.2,0.3
2022-10-26T04:00:00,1646A,121.2611,37.4967,烟台市,福山环保局,,24,24,34,14,13,103,50,61,56,24,25,5,6,0.2,0.3
2022-10-26T04:00:00,1648A,119.12,36.7019,潍坊市,仲裁委,,,,,,,,,,,,,,,,
2022-10-26T04:00:00,1650A,119.1437,36.7023,潍坊市,环保局,,39,39,76,20,30,155,67,79,74,19,32,4,6,0.5,0.7
2022-10-26T04:00:00,1652A,119.1936,36.7729,潍坊市,寒亭监测站,,,,,,,,,,,,,,,,
2022-10-26T04:00:00,1653A,116.6251,35.4302,济宁市,火炬城,颗粒物(PM10),53,55,58,31,35,150,72,93,84,20,19,13,10,0.4,0.5
2022-10-26T04:00:00,1655A,116.5491,35.4042,济宁市,电化厂,颗粒物(PM10),52,54,70,31,37,148,75,93,86,16,18,12,11,0.5,0.6
2022-10-26T04:00:00,1656A,117.1437,36.1937,泰安市,监测站,颗粒物(PM10),58,66,82,32,41,143,71,103,82,10,23,8,22,0.4,0.5
2022-10-26T04:00:00,1657A,117.0885,36.2017,泰安市,人口学校,颗粒物(PM10),56,61,73,25,27,134,81,102,96,18,22,10,14,0.2,0.3
2022-10-26T04:00:00,1658A,117.1089,36.1758,泰安市,电力学校,颗粒物(PM10),59,68,78,25,32,141,69,99,86,23,33,8,11,0.7,0.8
2022-10-26T04:00:00,1659A,119.471,35.4209,日照市,监测站,,19,17,37,6,14,107,60,68,64,32,34,7,9,0.6,0.7
2022-10-26T04:00:00,1660A,119.523,35.4216,日照市,市政府广场,,26,17,34,2,10,109,82,90,88,9,20,4,6,0.3,0.5
2022-10-26T04:00:00,1661A,119.5587,35.4044,日照市,港务局,,29,14,37,3,13,119,92,100,98,2,19,5,7,0.3,0.5
2022-10-26T04:00:00,1662A,122.1214,37.4236,威海市,华夏技校,,24,14,24,12,12,102,76,81,78,5,11,5,6,0.1,0.2
2022-10-26T04:00:00,1663A,122.0508,37.5236,威海市,山大分校,,28,12,21,2,7,110,87,100,95,7,12,3,3,0.2,0.2
2022-10-26T04:00:00,1664A,122.1067,37.5072,威海市,市监测站,,26,12,24,2,9,100,81,92,87,8,18,3,4,0.3,0.4
2022-10-26T04:00:00,1665A,118.5019,37.4658,东营市,西城阳光环保公司,,,,,,,,,,,,,,,,
2022-10-26T04:00:00,1666A,118.6614,37.4309,东营市,市环保局,,44,44,85,19,39,176,58,69,64,19,35,14,23,1.0,1
2022-10-26T04:00:00,1669A,113.5824,24.7733,韶关市,市八中,,49,49,59,28,32,167,54,80,70,33,19,14,14,0.6,0.6
2022-10-26T04:00:00,1670A,113.5556,24.8082,韶关市,碧湖山庄,,,,,,,,,,,,,,,,
2022-10-26T04:00:00,1671A,113.5917,24.7972,韶关市,园林处,颗粒物(PM10),61,72,57,39,38,164,20,29,27,58,26,13,17,0.3,0.5
2022-10-26T04:00:00,1672A,113.6735,24.7791,韶关市,韶关学院,颗粒物(PM10),53,56,64,34,42,165,12,17,16,48,30,13,14,0.6,0.7
2022-10-26T04:00:00,1673A,113.5971,24.6863,韶关市,曲江监测站,颗粒物(PM10),55,60,58,37,33,202,12,67,48,76,30,10,13,0.8,0.8
2022-10-26T04:00:00,1674A,116.6794,23.3667,汕头市,金平子站,,25,25,39,11,13,139,70,82,77,16,15,9,9,0.4,0.4
2022-10-26T04:00:00,1675A,116.7244,23.3633,汕头市,龙湖子站,,40,40,51,9,11,136,67,82,76,20,14,10,10,0.4,0.5
2022-10-26T04:00:00,1676A,116.7258,23.2775,汕头市,濠江子站,,28,28,36,9,19,127,76,82,80,12,11,9,8,0.3,0.4
2022-10-26T04:00:00,1677A,116.7519,23.4714,汕头市,澄海子站,,33,33,39,12,15,138,68,82,74,20,16,17,12,0.5,0.5
2022-10-26T04:00:00,1678A,116.6092,23.2539,汕头市,潮阳子站,,29,29,38,6,10,129,76,84,80,10,10,10,8,0.4,0.4
2022-10-26T04:00:00,1679A,116.4069,23.2533,汕头市,潮南子站,,,,,,,,,,,,,,,,
2022-10-26T04:00:00,1680A,110.3539,21.2706,湛江市,湛江影剧院,,34,34,47,12,19,130,86,96,92,14,11,12,7,0.5,0.5
2022-10-26T04:00:00,1681A,110.3928,21.2228,湛江市,市环境监测站,,34,34,45,17,17,126,86,92,90,12,11,11,6,0.4,0.3
2022-10-26T04:00:00,1682A,110.4019,21.1997,湛江市,环保局宿舍,,31,31,47,17,23,125,84,102,91,12,9,10,7,0.5,0.5
2022-10-26T04:00:00,1683A,110.4111,21.2028,湛江市,霞山游泳场,,41,41,45,18,19,130,77,104,88,19,9,9,6,0.5,0.5
2022-10-26T04:00:00,1684A,110.3316,21.2679,湛江市,麻章区环保局,,37,37,49,17,18,134,90,101,94,12,9,11,8,0.4,0.4
2022-10-26T04:00:00,1685A,110.4558,21.2567,湛江市,坡头区环保局,,33,33,44,17,22,132,84,99,91,11,8,9,6,0.4,0.4
2022-10-26T04:00:00,1686A,111.0286,21.4688,茂名市,电白南海,,48,48,64,12,22,136,75,95,84,12,14,8,12,0.3,0.3
2022-10-26T04:00:00,1687A,110.9294,21.6533,茂名市,茂石化七小,,44,44,61,19,30,151,88,99,92,10,12,14,13,0.3,0.4
2022-10-26T04:00:00,1688A,110.9107,21.6687,茂名市,健康路,,39,39,55,11,22,152,96,106,101,7,10,12,10,0.5,0.6
2022-10-26T04:00:00,1689A,110.8592,21.6828,茂名市,高岭,,41,41,65,24,33,150,90,112,102,13,16,26,15,0.6,0.6
2022-10-26T04:00:00,1690A,116.1231,24.3284,梅州市,梅江月梅,,48,48,42,29,18,137,61,108,82,29,16,12,12,0.5,0.4
2022-10-26T04:00:00,1691A,116.0797,24.2719,梅州市,梅县新城,,50,50,48,25,23,132,29,72,60,44,29,9,10,0.4,0.4
2022-10-26T04:00:00,1692A,116.1248,24.2654,梅州市,环境监控中心,颗粒物(PM10),64,77,48,30,23,130,36,46,44,48,31,11,10,0.4,0.4
2022-10-26T04:00:00,1693A,115.3653,22.775,汕尾市,市环保局,,35,35,40,15,14,115,73,86,80,9,7,9,8,0.5,0.5
2022-10-26T04:00:00,1694A,115.3706,22.7898,汕尾市,市政府,,33,33,39,16,13,116,67,85,76,12,10,8,8,0.5,0.4
2022-10-26T04:00:00,1695A,115.3622,22.7925,汕尾市,新城中学,,42,42,45,15,14,116,70,88,78,9,8,10,9,0.4,0.4
2022-10-26T04:00:00,1696A,114.6778,23.7569,河源市,源西(对照点),颗粒物(PM10),51,52,57,19,23,145,66,77,72,18,21,5,6,0.3,0.4
2022-10-26T04:00:00,1697A,114.6944,23.7586,河源市,东埔,,48,48,57,22,26,150,83,80,80,9,13,5,6,0.6,0.6
2022-10-26T04:00:00,1698A,114.6892,23.7233,河源市,老城,颗粒物(PM10),56,62,70,17,25,146,79,76,76,13,15,5,5,0.7,0.7
2022-10-26T04:00:00,1699A,111.9797,21.8593,阳江市,鸳鸯湖(对照点),,46,46,46,20,22,144,58,82,72,23,8,10,7,0.5,0.5
2022-10-26T04:00:00,1700A,111.9508,21.8536,阳江市,南恩路,,,,,,,,,,,,,,,,
2022-10-26T04:00:00,1701A,111.9491,21.8658,阳江市,马南垌,,39,39,47,21,20,140,47,87,68,30,15,9,8,0.5,0.5
2022-10-26T04:00:00,1702A,113.0426,23.691,清远市,环保大楼(对照点),颗粒物(PM10),52,54,65,26,46,261,59,65,62,21,22,9,8,0.8,0.9
2022-10-26T04:00:00,1703A,113.0208,23.7106,清远市,凤城街办,,47,47,66,18,40,181,39,44,42,27,29,6,5,0.7,0.9
2022-10-26T04:00:00,1705A,116.6367,23.6719,潮州市,西园路(对照点),,36,36,50,19,23,147,51,76,61,14,15,7,9,0.5,0.5
2022-10-26T04:00:00,1706A,116.6447,23.6706,潮州市,档案局,,31,31,45,11,18,145,46,69,56,10,11,10,12,0.4,0.5
2022-10-26T04:00:00,1708A,116.3701,23.5345,揭阳市,新兴,,42,42,52,24,22,146,60,78,67,15,11,26,17,0.4,0.5
2022-10-26T04:00:00,1709A,116.3264,23.5443,揭阳市,西马,,45,45,55,24,23,135,50,72,62,18,13,17,11,0.5,0.6
2022-10-26T04:00:00,1710A,116.3611,23.5626,揭阳市,东兴,,49,49,51,19,19,136,50,66,56,22,15,28,16,0.4,0.5
2022-10-26T04:00:00,1711A,116.4151,23.5294,揭阳市,渔湖,,42,42,47,17,22,131,48,67,56,21,15,17,13,0.4,0.4
2022-10-26T04:00:00,1712A,112.0392,22.9169,云浮市,新市府(对照点),,,,,,,,,,,,,,,,
2022-10-26T04:00:00,1713A,112.0369,22.9394,云浮市,市监测站,,,,,,,,,,,,,,,,
2022-10-26T04:00:00,1714A,112.0539,22.9539,云浮市,牧羊,,33,33,73,17,42,217,70,84,79,12,23,14,17,0.4,0.6
2022-10-26T04:00:00,1715A,102.575,24.3711,玉溪市,东风水库,,28,24,30,19,20,84,31,28,28,10,13,4,5,0.7,0.7
2022-10-26T04:00:00,1718A,115.4208,35.2464,菏泽市,气象局,颗粒物(PM10),53,55,97,31,40,149,76,84,81,21,26,6,8,0.4,0.5
2022-10-26T04:00:00,1719A,115.4747,35.2375,菏泽市,市政协,,50,50,90,29,40,154,77,85,81,21,27,2,3,0.3,0.4
2022-10-26T04:00:00,1720A,115.455,35.27,菏泽市,菏泽学院,,,,,,,,,,,,,,,,
2022-10-26T04:00:00,1721A,113.3819,40.1097,大同市,果树场(对照点),,,,,,,,,,,,,,,,
2022-10-26T04:00:00,1723A,113.2994,40.0758,大同市,云冈宾馆,细颗粒物(PM2.5),85,117,113,63,54,155,62,103,80,36,29,44,19,1.2,1
2022-10-26T04:00:00,1724A,113.3444,40.0917,大同市,大同大学,细颗粒物(PM2.5),88,121,96,65,50,168,70,110,90,33,23,18,19,1.0,0.8
2022-10-26T04:00:00,1725A,113.2661,40.1269,大同市,安家小村,,,,,,,,,,,,,,,,
2022-10-26T04:00:00,1726A,113.2711,40.0844,大同市,教育学院,颗粒物(PM10),82,114,105,51,57,156,60,98,72,31,30,58,27,0.7,0.6
2022-10-26T04:00:00,1727A,113.1147,36.1547,长治市,清华站,,48,48,61,31,39,127,96,114,104,13,23,9,9,0.8,0.9
2022-10-26T04:00:00,1728A,113.1031,36.1989,长治市,监测站,,50,50,64,24,42,122,87,108,96,16,31,8,9,0.5,0.6
2022-10-26T04:00:00,1730A,113.0886,36.2125,长治市,审计局,,42,42,67,29,48,126,92,98,96,15,35,4,6,0.4,0.5
2022-10-26T04:00:00,1731A,113.0844,36.1856,长治市,长治八中,颗粒物(PM10),52,54,76,24,36,124,87,104,95,14,32,10,13,0.4,0.4
2022-10-26T04:00:00,1733A,111.5531,36.0783,临汾市,临钢医院,细颗粒物(PM2.5),105,71,99,79,81,145,49,25,25,42,53,2,3,0.8,0.9
2022-10-26T04:00:00,1734A,111.5028,36.0714,临汾市,技工学校,细颗粒物(PM2.5),79,65,106,58,80,149,83,60,60,28,40,7,9,0.6,0.8
2022-10-26T04:00:00,1735A,111.5169,36.0822,临汾市,工商学校,,,,,,,,,,,,,,,,
2022-10-26T04:00:00,1736A,111.5018,36.0855,临汾市,市委,细颗粒物(PM2.5),80,69,100,59,75,146,89,67,67,23,37,2,2,0.7,0.9
2022-10-26T04:00:00,1738A,113.5758,37.8572,阳泉市,市中心,颗粒物(PM10),64,77,110,37,47,112,3,3,3,75,71,9,15,0.7,1.1
2022-10-26T04:00:00,1739A,113.4894,37.8731,阳泉市,赛鱼,颗粒物(PM10),86,121,84,60,44,112,2,4,4,86,68,15,12,0.9,0.8
2022-10-26T04:00:00,1740A,113.5819,37.8486,阳泉市,南庄,颗粒物(PM10),64,77,93,29,50,107,6,16,13,59,59,11,13,0.9,1.2
2022-10-26T04:00:00,1741A,113.6292,37.8531,阳泉市,白羊墅,,,,,,,,,,,,,,,,
2022-10-26T04:00:00,1742A,113.5614,37.8703,阳泉市,平坦,颗粒物(PM10),64,78,121,31,56,114,7,6,6,86,78,9,14,0.6,1.3
2022-10-26T04:00:00,1743A,113.5158,37.8392,阳泉市,大阳泉,颗粒物(PM10),55,59,54,38,37,122,97,99,96,28,24,10,11,0.5,0.5
2022-10-26T04:00:00,1744A,118.9233,42.2816,赤峰市,松山一中,颗粒物(PM10),75,99,84,45,44,148,146,148,147,23,39,16,18,0.9,1
2022-10-26T04:00:00,1745A,118.9576,42.2728,赤峰市,哈达街,"颗粒物(PM10),细颗粒物(PM2.5)",77,104,87,56,45,162,158,161,160,29,44,18,18,1.0,1.1
2022-10-26T04:00:00,1746A,118.8788,42.2554,赤峰市,天义路,细颗粒物(PM2.5),80,94,73,59,36,155,148,154,151,22,29,15,16,0.9,0.9
2022-10-26T04:00:00,1748A,123.044,41.1196,鞍山市,深沟寺,,37,37,33,19,18,117,110,107,106,9,12,8,9,0.4,0.4
2022-10-26T04:00:00,1749A,123.011,41.0931,鞍山市,太阳城,,35,35,33,18,16,113,103,102,102,6,9,8,9,0.5,0.5
2022-10-26T04:00:00,1750A,123.0485,41.1442,鞍山市,太平,,49,49,36,19,16,102,100,92,92,8,15,10,11,0.4,0.4
2022-10-26T04:00:00,1751A,122.9642,41.0971,鞍山市,铁西三道街,颗粒物(PM10),65,79,64,28,21,104,76,96,89,37,27,30,16,1.2,0.8
2022-10-26T04:00:00,1752A,122.9341,41.0833,鞍山市,铁西工业园区,颗粒物(PM10),53,56,47,22,18,95,77,79,78,25,22,10,10,1.0,0.7
2022-10-26T04:00:00,1753A,123.022,41.0821,鞍山市,明达新区,,42,42,36,20,17,112,100,99,99,6,9,8,10,0.4,0.4
2022-10-26T04:00:00,1754A,123.1289,41.0228,鞍山市,千山(对照点),,,,,,,,,,,,,,,,
2022-10-26T04:00:00,1755A,123.7977,41.8491,抚顺市,望花区,,32,32,59,20,29,96,91,94,92,11,22,13,14,0.9,1.1
2022-10-26T04:00:00,1756A,123.9161,41.8822,抚顺市,顺城区,细颗粒物(PM2.5),62,45,55,44,29,94,48,78,70,37,26,14,14,1.0,1
2022-10-26T04:00:00,1757A,124.0436,41.8611,抚顺市,东洲区,,29,24,42,19,23,95,91,92,91,9,12,8,9,0.6,0.6
2022-10-26T04:00:00,1758A,123.9247,41.8642,抚顺市,新抚区,,,,69,,48,60,,50,,,23,,12,,0.7
2022-10-26T04:00:00,1759A,124.0972,41.8961,抚顺市,大伙房水库,,30,20,33,18,20,102,93,92,92,6,9,5,6,0.5,0.5
2022-10-26T04:00:00,1760A,123.7086,41.8391,抚顺市,沈抚新城,,36,36,71,19,28,89,79,82,79,11,20,15,24,0.7,1.1
2022-10-26T04:00:00,1761A,123.8275,41.3064,本溪市,大峪,,28,26,43,18,22,91,89,90,88,8,19,8,10,0.4,0.6
2022-10-26T04:00:00,1762A,123.7567,41.3325,本溪市,溪湖,颗粒物(PM10),52,53,69,23,21,79,70,74,70,25,24,14,15,0.8,0.8
2022-10-26T04:00:00,1763A,123.7169,41.3094,本溪市,彩屯,颗粒物(PM10),66,82,103,46,42,61,33,44,41,60,49,25,37,2.6,2.9
2022-10-26T04:00:00,1764A,123.7669,41.2864,本溪市,东明,,30,26,47,15,20,93,93,91,91,9,19,8,11,0.4,0.6
2022-10-26T04:00:00,1765A,123.7992,41.2664,本溪市,新立屯,,29,24,33,20,14,90,90,88,88,11,16,7,8,0.6,0.5
2022-10-26T04:00:00,1766A,123.8142,41.3472,本溪市,威宁,,27,27,59,7,23,80,70,74,72,13,20,6,8,0.6,0.7
2022-10-26T04:00:00,1767A,121.1115,41.0879,锦州市,南山,,42,37,40,29,25,99,74,84,80,15,24,6,9,0.5,0.5
2022-10-26T04:00:00,1768A,121.0533,40.8434,锦州市,开发区,,36,36,56,25,18,102,84,89,86,12,21,7,8,0.6,0.6
2022-10-26T04:00:00,1769A,121.1836,41.1119,锦州市,百股街道,,46,46,37,24,17,89,82,86,84,14,16,14,9,0.7,0.6
2022-10-26T04:00:00,1770A,121.1178,41.1222,锦州市,天安街道,,44,44,45,22,19,105,82,90,88,12,23,6,7,0.7,0.6
2022-10-26T04:00:00,1771A,121.1303,41.1386,锦州市,北湖公园,,43,39,39,30,22,106,82,92,88,7,15,6,8,0.8,0.7
2022-10-26T04:00:00,1772A,126.54,43.8622,吉林市,哈达湾,,34,34,28,21,15,102,102,100,100,10,17,9,9,0.6,0.6
2022-10-26T04:00:00,1773A,126.5844,43.8358,吉林市,东局子,,40,40,27,21,14,105,104,103,103,11,14,6,5,0.5,0.4
2022-10-26T04:00:00,1774A,126.5052,43.8245,吉林市,电力学院,,,,24,,15,52,,43,,,21,,10,,0.6
2022-10-26T04:00:00,1775A,126.6133,43.8972,吉林市,江北,,42,42,29,20,15,105,105,103,103,9,11,7,6,0.5,0.6
2022-10-26T04:00:00,1776A,126.555,43.8306,吉林市,江南公园,,34,34,27,20,15,102,102,100,100,9,16,8,7,0.5,0.5
2022-10-26T04:00:00,1778A,126.7061,43.7133,吉林市,丰满(对照点),,,,,,,,,,,,,,,,
2022-10-26T04:00:00,1779A,123.9305,47.3636,齐齐哈尔市,安居小区,颗粒物(PM10),70,89,143,50,59,68,29,21,21,21,35,5,8,0.7,1.1
2022-10-26T04:00:00,1780A,123.9488,47.3386,齐齐哈尔市,中心广场,颗粒物(PM10),75,99,155,45,69,71,39,41,40,23,36,11,12,0.5,0.9
2022-10-26T04:00:00,1781A,123.9483,47.3227,齐齐哈尔市,农牧车辆厂,颗粒物(PM10),69,88,142,47,66,79,35,34,34,22,28,8,9,0.6,0.8
2022-10-26T04:00:00,1783A,123.945,47.2988,齐齐哈尔市,市环境监测站,细颗粒物(PM2.5),92,104,147,68,83,81,35,34,34,19,22,5,6,0.4,0.8
2022-10-26T04:00:00,1784A,129.61,44.561,牡丹江市,环保大楼,,30,17,29,21,15,68,20,14,14,18,27,5,4,0.4,0.4
2022-10-26T04:00:00,1785A,129.6115,44.5782,牡丹江市,文化广场,,35,34,42,24,25,66,11,6,6,24,30,4,5,0.4,0.6
2022-10-26T04:00:00,1786A,129.5904,44.5963,牡丹江市,第一医院,,47,47,39,26,23,64,3,3,3,36,30,9,9,1.0,0.8
2022-10-26T04:00:00,1787A,129.6364,44.6075,牡丹江市,机车工厂,颗粒物(PM10),52,53,62,28,23,72,3,9,8,30,30,3,2,0.8,0.7
2022-10-26T04:00:00,1788A,129.6386,44.5462,牡丹江市,第一中学,,27,27,36,7,16,72,0,1,0,27,27,2,4,0.4,0.5
2022-10-26T04:00:00,1789A,124.81117,46.03138,大庆市,大同区,颗粒物(PM10),59,67,93,32,28,97,54,66,60,12,17,4,6,0.5,0.5
2022-10-26T04:00:00,1790A,125.129,46.533,大庆市,龙凤区,,50,50,65,28,20,98,58,68,62,8,13,4,6,0.5,0.4
2022-10-26T04:00:00,1791A,124.902,46.408,大庆市,红岗区,颗粒物(PM10),52,54,57,30,19,81,55,74,67,15,16,4,6,0.4,0.4
2022-10-26T04:00:00,1792A,125.153,46.586,大庆市,萨尔图区,颗粒物(PM10),51,52,75,29,26,94,59,69,64,13,17,8,10,0.7,0.7
2022-10-26T04:00:00,1793A,124.9042,46.6215,大庆市,让胡路区,颗粒物(PM10),63,76,62,25,25,89,49,64,57,12,18,3,5,0.6,0.5
2022-10-26T04:00:00,1794A,118.3606,31.3519,芜湖市,监测站,,31,31,44,13,19,105,60,70,66,20,27,11,10,0.4,0.5
2022-10-26T04:00:00,1795A,118.3714,31.4134,芜湖市,科创中心,,36,36,46,11,18,113,57,73,65,26,29,8,7,0.3,0.4
2022-10-26T04:00:00,1796A,118.3673,31.3131,芜湖市,四水厂,,36,36,46,15,22,110,61,73,68,19,25,9,10,0.4,0.4
2022-10-26T04:00:00,1797A,118.4022,31.3839,芜湖市,济民医院(对照点),,,,,,,,,,,,,,,,
2022-10-26T04:00:00,1798A,118.5092,31.6837,马鞍山市,湖东路四小,,25,25,37,17,14,103,53,60,57,20,24,7,7,0.4,0.4
2022-10-26T04:00:00,1799A,118.5024,31.6449,马鞍山市,开发区,,28,28,48,13,19,95,50,53,51,26,31,8,7,0.7,0.7
2022-10-26T04:00:00,1800A,118.5228,31.7231,马鞍山市,慈湖,,48,48,45,25,24,105,43,63,54,34,30,36,25,0.8,0.7
2022-10-26T04:00:00,1801A,118.48,31.6928,马鞍山市,马钢动力厂,,,,,,,,,,,,,,,,
2022-10-26T04:00:00,1802A,118.6245,31.7241,马鞍山市,濮塘(对照点),,32,32,38,13,17,108,46,61,51,20,17,5,5,0.4,0.4
2022-10-26T04:00:00,1803A,115.9872,29.6815,九江市,十里,细颗粒物(PM2.5),68,84,68,49,36,135,34,66,52,44,32,25,14,1.0,0.8
2022-10-26T04:00:00,1804A,115.9584,29.7046,九江市,茅山头,细颗粒物(PM2.5),60,68,68,43,36,130,45,61,52,32,29,17,14,1.0,0.9
2022-10-26T04:00:00,1805A,115.9877,29.7295,九江市,西园,颗粒物(PM10),62,74,73,39,39,120,42,57,50,33,32,13,13,0.6,0.8
2022-10-26T04:00:00,1806A,116.0172,29.6547,九江市,五七二七厂,颗粒物(PM10),61,71,58,36,31,134,32,68,49,39,24,15,12,1.0,0.8
2022-10-26T04:00:00,1808A,115.9114,29.6038,九江市,综合工业园,细颗粒物(PM2.5),73,79,74,53,38,126,19,46,26,61,49,10,12,0.6,0.7
2022-10-26T04:00:00,1809A,116.0721,29.7535,九江市,石化总厂,"颗粒物(PM10),细颗粒物(PM2.5)",60,70,77,43,37,135,45,59,52,34,34,12,12,0.7,0.8
2022-10-26T04:00:00,1810A,115.9773,29.5698,九江市,庐山气象台(对照点),,28,4,21,6,14,105,88,86,86,9,24,6,9,0.4,0.4
2022-10-26T04:00:00,1811A,112.3628,34.6692,洛阳市,中信二小,,,,,,,,,,,,,,,,
2022-10-26T04:00:00,1812A,112.3931,34.6516,洛阳市,市委党校,细颗粒物(PM2.5),63,65,114,45,63,146,107,112,110,8,30,12,10,0.4,0.5
2022-10-26T04:00:00,1814A,112.4657,34.6871,洛阳市,豫西宾馆,细颗粒物(PM2.5),70,72,106,51,66,150,108,96,96,3,26,10,8,0.3,0.4
2022-10-26T04:00:00,1815A,112.494,34.6886,洛阳市,河南林校,细颗粒物(PM2.5),69,53,101,50,61,153,112,99,99,7,27,7,9,0.3,0.5
2022-10-26T04:00:00,1816A,112.3844,34.623,洛阳市,开发区管委会,细颗粒物(PM2.5),67,54,97,48,63,139,100,103,102,10,25,6,7,0.3,0.4
2022-10-26T04:00:00,1817A,112.4267,34.6258,洛阳市,市委新办公区,细颗粒物(PM2.5),70,59,106,51,66,148,109,113,112,9,28,10,8,0.5,0.6
2022-10-26T04:00:00,1818A,114.4839,36.0621,安阳市,棉研所(对照点),,,,,,,,,,,,,,,,
2022-10-26T04:00:00,1819A,114.3551,36.1017,安阳市,红庙街,颗粒物(PM10),61,71,88,43,47,149,69,78,75,29,33,19,14,0.4,0.5
2022-10-26T04:00:00,1820A,114.361,36.0681,安阳市,银杏小区,颗粒物(PM10),63,75,86,42,52,155,69,78,76,26,34,17,11,0.5,0.7
2022-10-26T04:00:00,1824A,114.3389,34.7781,开封市,肿瘤医院,细颗粒物(PM2.5),79,96,94,58,57,135,48,64,56,26,27,4,8,0.6,0.6
2022-10-26T04:00:00,1826A,114.2885,34.7965,开封市,世纪星幼儿园,细颗粒物(PM2.5),77,90,88,56,54,131,47,66,57,26,24,3,3,0.7,0.6
2022-10-26T04:00:00,1828A,113.227,35.2125,焦作市,市环保局,颗粒物(PM10),71,91,96,44,50,162,44,68,54,34,26,12,15,0.7,0.8
2022-10-26T04:00:00,1829A,113.2464,35.1764,焦作市,高新区政府（停运20220628）,,,,,,,,,,,,,,,,
2022-10-26T04:00:00,1830A,113.1992,35.2590,焦作市,影视城(对照点),,,,,,,,,,,,,,,,
2022-10-26T04:00:00,1832A,113.3257,33.742,平顶山市,新华旅馆,细颗粒物(PM2.5),65,57,103,47,70,134,91,88,88,8,20,11,8,0.4,0.5
2022-10-26T04:00:00,1833A,113.2919,33.737,平顶山市,规划设计院,细颗粒物(PM2.5),52,46,101,36,55,149,102,96,96,11,24,3,8,0.1,0.2
2022-10-26T04:00:00,1834A,113.182,33.774,平顶山市,平顶山工学院,细颗粒物(PM2.5),62,64,105,44,57,151,66,95,82,19,20,2,8,0.6,0.7
2022-10-26T04:00:00,1835A,111.1922,34.7752,三门峡市,市政府,细颗粒物(PM2.5),100,73,91,75,65,117,35,49,45,30,29,8,12,0.8,0.8
2022-10-26T04:00:00,1836A,111.1587,34.7942,三门峡市,开发区,细颗粒物(PM2.5),92,123,115,68,66,123,67,68,68,25,35,7,12,0.9,0.9
2022-10-26T04:00:00,1838A,111.143,34.7955,三门峡市,风景区(对照点),,,,,,,,,,,,,,,,
2022-10-26T04:00:00,1839A,111.3009,30.7157,宜昌市,四零三,,,,,,,,,,,,,,,,
2022-10-26T04:00:00,1840A,111.2992,30.6981,宜昌市,白龙岗,,22,22,25,9,14,60,16,14,14,14,22,3,3,0.7,0.8
2022-10-26T04:00:00,1841A,111.3549,30.6465,宜昌市,伍家岗,,14,14,24,7,16,52,20,25,22,20,28,3,4,0.4,0.4
2022-10-26T04:00:00,1842A,111.2628,30.6961,宜昌市,点军区,,28,28,25,17,17,53,8,7,7,13,16,6,6,0.4,0.4
2022-10-26T04:00:00,1843A,111.3275,30.7819,宜昌市,夷陵区,,18,17,23,12,12,73,21,23,22,14,20,7,7,0.3,0.4
2022-10-26T04:00:00,1844A,112.2494,30.3197,荆州市,市图书馆,颗粒物(PM10),55,59,41,38,28,71,56,43,43,24,31,6,7,0.7,0.7
2022-10-26T04:00:00,1845A,112.2008,30.3544,荆州市,市委党校,细颗粒物(PM2.5),52,46,38,36,23,75,46,40,40,32,28,6,7,0.9,0.7
2022-10-26T04:00:00,1847A,113.1094,29.3578,岳阳市,南湖风景区,颗粒物(PM10),64,77,81,43,55,91,20,66,42,52,39,14,17,1.0,0.9
2022-10-26T04:00:00,1848A,113.1493,29.4251,岳阳市,城陵矶,颗粒物(PM10),69,88,88,36,47,80,18,36,27,64,55,8,11,0.8,0.8
2022-10-26T04:00:00,1849A,113.1497,29.3575,岳阳市,开发区,细颗粒物(PM2.5),68,74,79,49,51,86,1,54,27,59,45,8,12,0.9,0.9
2022-10-26T04:00:00,1850A,113.2621,29.4758,岳阳市,云溪区,颗粒物(PM10),62,73,77,40,41,98,22,43,30,36,34,10,14,0.8,0.7
2022-10-26T04:00:00,1851A,112.9943,29.4402,岳阳市,君山区,细颗粒物(PM2.5),87,87,80,64,56,108,35,52,43,32,29,10,10,1.0,1
2022-10-26T04:00:00,1852A,113.2117,29.355,岳阳市,金凤水库(对照点),颗粒物(PM10),61,71,73,41,42,101,34,45,42,30,31,7,9,0.8,0.8
2022-10-26T04:00:00,1854A,111.6975,28.9703,常德市,市二中,细颗粒物(PM2.5),54,50,57,38,36,138,19,41,29,33,22,6,7,0.4,0.4
2022-10-26T04:00:00,1857A,111.7158,29.1456,常德市,白鹤山(对照点),细颗粒物(PM2.5),64,58,46,46,34,134,75,70,70,7,9,6,4,0.5,0.4
2022-10-26T04:00:00,1858A,110.5319,29.1217,张家界市,永定新区,颗粒物(PM10),53,56,54,25,28,127,80,82,82,7,15,6,6,0.3,0.2
2022-10-26T04:00:00,1859A,110.4697,29.1242,张家界市,电业局,,35,35,48,21,24,137,105,108,106,8,19,8,7,0.2,0.3
2022-10-26T04:00:00,1860A,110.5594,29.3547,张家界市,未央路,,32,32,38,22,21,127,71,74,69,6,9,4,4,0.1,0.1
2022-10-26T04:00:00,1861A,110.4417,29.315,张家界市,袁家界(对照点),,36,31,35,18,14,134,114,116,115,12,12,11,10,0.4,0.5
2022-10-26T04:00:00,1862A,110.4144,25.3167,桂林市,电子科大尧山校区(对照点),细颗粒物(PM2.5),64,61,73,46,49,204,108,129,117,15,12,11,12,0.7,0.8
2022-10-26T04:00:00,1863A,110.2819,25.2697,桂林市,监测站,细颗粒物(PM2.5),63,69,74,45,49,205,121,148,133,14,18,14,11,0.8,0.8
2022-10-26T04:00:00,1864A,110.3089,25.2708,桂林市,龙隐路小学,细颗粒物(PM2.5),69,56,66,50,51,190,110,124,109,14,14,17,14,0.7,0.8
2022-10-26T04:00:00,1865A,110.2869,25.2178,桂林市,八中,细颗粒物(PM2.5),59,62,73,42,48,203,118,129,126,19,24,15,12,0.8,0.8
2022-10-26T04:00:00,1866A,109.2262,21.588,北海市,牛尾岭水库(对照点),,,,,,,,,,,,,,,,
2022-10-26T04:00:00,1867A,109.1436,21.4086,北海市,海滩公园,,31,31,54,7,21,167,99,116,108,5,6,7,8,0.3,0.5
2022-10-26T04:00:00,1868A,109.0981,21.4661,北海市,新市环保局,,36,36,51,19,30,163,87,106,99,8,10,7,7,0.4,0.5
2022-10-26T04:00:00,1869A,109.1778,21.5233,北海市,北海工业园,颗粒物(PM10),51,51,66,27,33,165,55,90,72,20,13,22,11,0.5,0.5
2022-10-26T04:00:00,1870A,109.4856,24.3895,柳州市,柳东小学,细颗粒物(PM2.5),122,82,68,92,45,222,78,98,82,26,15,18,14,0.8,0.9
2022-10-26T04:00:00,1871A,109.4157,24.3277,柳州市,环保监测站,细颗粒物(PM2.5),77,92,78,56,44,237,120,158,142,17,20,14,15,0.9,0.8
2022-10-26T04:00:00,1872A,109.389,24.341,柳州市,河西水厂,细颗粒物(PM2.5),74,84,85,54,52,215,113,132,127,18,23,12,18,1.2,1.1
2022-10-26T04:00:00,1873A,109.4311,24.2921,柳州市,市四中,细颗粒物(PM2.5),104,129,86,78,43,232,110,125,119,16,18,12,14,0.8,0.8
2022-10-26T04:00:00,1874A,109.4006,24.3631,柳州市,市九中,细颗粒物(PM2.5),77,85,86,56,53,212,117,139,127,16,21,12,19,1.3,1.2
2022-10-26T04:00:00,1875A,109.4958,24.3134,柳州市,古亭山,细颗粒物(PM2.5),79,75,67,58,45,213,86,117,109,25,22,9,16,1.0,0.9
2022-10-26T04:00:00,1876A,109.5078,18.2489,三亚市,河东子站,,21,13,18,5,9,74,67,66,66,2,4,2,2,0.3,0.3
2022-10-26T04:00:00,1877A,109.4964,18.2681,三亚市,河西子站,,19,9,17,6,9,67,59,58,58,3,4,2,2,0.3,0.3
2022-10-26T04:00:00,1878A,104.7778,31.4741,绵阳市,富乐山,,40,36,38,28,29,94,70,70,70,6,10,4,4,0.6,0.6
2022-10-26T04:00:00,1879A,104.7563,31.4535,绵阳市,市人大,,49,44,45,34,35,85,82,75,75,7,18,6,5,0.5,0.5
2022-10-26T04:00:00,1880A,104.6697,31.4668,绵阳市,高新区自来水公司,,46,39,45,32,31,87,76,68,68,4,16,4,4,0.5,0.6
2022-10-26T04:00:00,1881A,104.7287,31.5075,绵阳市,三水厂,细颗粒物(PM2.5),57,46,46,40,36,105,74,80,78,9,17,2,3,0.5,0.5
2022-10-26T04:00:00,1882A,104.563,28.793,宜宾市,石马中学(对照点),细颗粒物(PM2.5),94,79,94,70,87,61,40,35,35,11,21,4,8,0.6,0.7
2022-10-26T04:00:00,1883A,104.6201,28.7728,宜宾市,市委,细颗粒物(PM2.5),88,76,90,65,74,71,46,54,46,18,25,8,12,0.6,0.7
2022-10-26T04:00:00,1884A,104.6055,28.793,宜宾市,宜宾四中,细颗粒物(PM2.5),90,82,96,67,79,70,48,59,46,15,24,5,10,0.6,0.7
2022-10-26T04:00:00,1885A,104.639,28.7562,宜宾市,市政府,细颗粒物(PM2.5),79,71,92,58,74,76,58,68,60,11,21,7,12,0.7,0.8
2022-10-26T04:00:00,1886A,104.5742,28.7199,宜宾市,黄金嘴,细颗粒物(PM2.5),93,85,101,69,82,64,43,50,43,16,26,8,12,0.9,1
2022-10-26T04:00:00,1888A,101.6891,26.571,攀枝花市,弄弄坪,细颗粒物(PM2.5),70,77,82,51,52,47,0,1,0,35,35,14,19,1.4,1.1
2022-10-26T04:00:00,1889A,101.5769,26.5928,攀枝花市,河门口,颗粒物(PM10),57,64,63,34,33,40,8,12,11,24,33,11,27,1.5,1.9
2022-10-26T04:00:00,1890A,101.7169,26.585,攀枝花市,炳草岗,细颗粒物(PM2.5),54,46,56,38,40,53,4,3,3,27,35,20,32,0.8,1
2022-10-26T04:00:00,1891A,101.7369,26.5008,攀枝花市,仁和,,38,32,41,26,27,65,3,2,2,20,20,7,10,1.0,1
2022-10-26T04:00:00,1893A,105.4324,28.9634,泸州市,九狮山(对照点),细颗粒物(PM2.5),74,35,51,54,51,50,20,26,23,23,24,10,13,0.3,0.4
2022-10-26T04:00:00,1894A,105.4427,28.9063,泸州市,小市上码头,细颗粒物(PM2.5),108,95,86,81,69,71,35,51,42,22,25,11,10,0.8,0.8
2022-10-26T04:00:00,1895A,105.4241,28.8573,泸州市,兰田宪桥,细颗粒物(PM2.5),92,87,82,68,60,54,34,44,39,22,28,9,11,0.6,0.7
2022-10-26T04:00:00,1896A,105.4379,28.8833,泸州市,市环监站,细颗粒物(PM2.5),95,82,78,71,65,51,28,38,34,22,28,7,8,0.6,0.6
2022-10-26T04:00:00,1897A,104.7547,29.3628,自贡市,大塘山(对照点),,,,,,,,,,,,,,,,
2022-10-26T04:00:00,1900A,104.7692,29.3411,自贡市,春华路,,,,,,,,,,,,,,,,
2022-10-26T04:00:00,1901A,104.4239,31.1208,德阳市,东山公园,,50,37,48,35,31,94,67,60,60,8,19,3,4,0.6,0.6
2022-10-26T04:00:00,1902A,104.3826,31.1317,德阳市,西小区,,41,41,48,24,26,86,68,62,62,12,17,4,3,0.5,0.5
2022-10-26T04:00:00,1903A,104.4053,31.1167,德阳市,市检察院,,,,,,,,,,,,,,,,
2022-10-26T04:00:00,1904A,104.3553,31.1091,德阳市,耐火材料厂,,43,34,43,30,30,78,57,58,58,14,21,5,5,0.4,0.5
2022-10-26T04:00:00,1905A,106.056,30.8064,南充市,西山风景区(对照点),,,,,,,,,,,,,,,,
2022-10-26T04:00:00,1906A,106.0789,30.8023,南充市,南充市委,,50,35,42,35,29,72,62,54,54,7,11,4,5,0.5,0.5
2022-10-26T04:00:00,1907A,106.1031,30.8217,南充市,南充炼油厂,,36,32,44,25,26,78,64,58,58,5,6,7,8,0.5,0.5
2022-10-26T04:00:00,1908A,106.1064,30.7856,南充市,高坪区监测站,,48,37,37,33,29,73,60,55,55,2,2,6,8,0.3,0.4
2022-10-26T04:00:00,1909A,106.0642,30.7636,南充市,嘉陵区环保局,,42,28,37,29,31,79,68,62,62,8,12,8,10,0.4,0.4
2022-10-26T04:00:00,1910A,106.1087,30.8388,南充市,市环境监测站,,36,32,40,25,33,72,49,46,46,5,8,9,9,0.4,0.4
2022-10-26T04:00:00,1911A,106.9222,27.6869,遵义市,丁字口,细颗粒物(PM2.5),55,52,52,39,35,164,80,81,81,20,18,9,9,0.7,0.7
2022-10-26T04:00:00,1912A,106.9242,27.7019,遵义市,凤凰山,,45,45,50,26,31,185,126,140,133,15,14,7,7,0.6,0.6
2022-10-26T04:00:00,1913A,106.8906,27.6486,遵义市,忠庄,颗粒物(PM10),64,78,68,37,32,177,97,124,108,17,17,3,3,0.6,0.6
2022-10-26T04:00:00,1914A,106.9231,27.6506,遵义市,舟水桥,细颗粒物(PM2.5),63,65,50,45,19,177,55,56,56,23,18,3,4,0.4,0.3
2022-10-26T04:00:00,1915A,106.9178,27.72,遵义市,干田坝,颗粒物(PM10),51,51,54,30,32,176,67,90,76,23,19,6,6,0.6,0.6
2022-10-26T04:00:00,1916A,103.7897,25.5035,曲靖市,环境监测站,,46,40,33,32,25,90,60,66,62,8,9,5,5,0.4,0.4
2022-10-26T04:00:00,1917A,103.8,25.5364,曲靖市,烟厂办公区,,47,47,32,29,19,91,66,70,68,6,8,7,6,0.5,0.4
2022-10-26T04:00:00,1918A,108.7197,34.3956,咸阳市,气象站(对照点),细颗粒物(PM2.5),158,210,170,120,100,83,3,3,3,69,70,6,11,1.4,1.2
2022-10-26T04:00:00,1919A,108.673,34.3155,咸阳市,实验中学,细颗粒物(PM2.5),139,226,214,106,102,103,6,6,5,60,68,4,7,1.5,1.4
2022-10-26T04:00:00,1920A,108.7233,34.3617,咸阳市,师范学院,细颗粒物(PM2.5),160,218,181,122,103,98,20,12,12,48,62,6,10,1.3,1.1
2022-10-26T04:00:00,1922A,109.0656,35.0994,铜川市,党校(对照点),细颗粒物(PM2.5),62,70,96,44,57,123,63,77,71,32,33,14,17,0.5,0.6
2022-10-26T04:00:00,1923A,109.0697,35.0697,铜川市,王益区政府,颗粒物(PM10),58,65,88,35,46,148,68,73,72,20,29,13,10,0.6,0.8
2022-10-26T04:00:00,1924A,108.9344,34.9058,铜川市,新区管委会,颗粒物(PM10),75,100,111,37,48,150,46,43,43,40,38,17,14,0.6,0.7
2022-10-26T04:00:00,1925A,108.9589,34.8731,铜川市,新区兰芝公司,,,,,,,,,,,,,,,,
2022-10-26T04:00:00,1926A,109.4131,36.6275,延安市,枣园(对照点),细颗粒物(PM2.5),242,57,75,192,129,145,32,42,40,48,45,4,5,0.5,0.7
2022-10-26T04:00:00,1927A,109.4761,36.6028,延安市,延大医附院,颗粒物(PM10),52,53,82,32,50,137,40,46,42,41,51,5,7,0.7,1
2022-10-26T04:00:00,1928A,109.4824,36.5767,延安市,市监测站,,,,,,,,,,,,,,,,
2022-10-26T04:00:00,1929A,109.5056,36.6106,延安市,百米大道,"颗粒物(PM10),细颗粒物(PM2.5)",74,97,92,54,56,127,29,26,25,58,54,42,17,1.2,1.1
2022-10-26T04:00:00,1930A,107.185,34.3063,宝鸡市,庙沟村(对照点),细颗粒物(PM2.5),107,161,171,80,83,103,38,47,45,26,38,5,10,1.1,1.1
2022-10-26T04:00:00,1931A,107.0708,34.3017,宝鸡市,竹园沟,细颗粒物(PM2.5),149,141,159,114,120,124,23,36,30,21,33,6,9,1.2,1.2
2022-10-26T04:00:00,1932A,107.1906,34.3672,宝鸡市,三陆医院,细颗粒物(PM2.5),182,205,193,137,133,130,6,8,7,42,45,6,11,1.2,1.2
2022-10-26T04:00:00,1933A,107.1431,34.3547,宝鸡市,监测站,细颗粒物(PM2.5),189,157,175,142,128,120,17,19,19,29,48,7,11,1.1,1.2
2022-10-26T04:00:00,1934A,107.1186,34.3739,宝鸡市,技工学校,细颗粒物(PM2.5),186,149,163,140,141,123,31,38,30,28,47,6,10,0.9,1.1
2022-10-26T04:00:00,1935A,107.3906,34.3528,宝鸡市,陈仓区环保局家属楼,细颗粒物(PM2.5),188,180,197,141,133,119,13,8,8,47,59,7,14,1.5,1.3
2022-10-26T04:00:00,1936A,107.2058,34.3497,宝鸡市,文理学院,细颗粒物(PM2.5),206,182,186,156,139,126,23,19,19,35,53,7,12,1.1,1.1
2022-10-26T04:00:00,1937A,107.2386,34.3622,宝鸡市,三迪小学,细颗粒物(PM2.5),221,202,198,171,145,127,9,11,10,56,62,7,13,1.1,1.2
2022-10-26T04:00:00,1938A,109.5293,34.5101,渭南市,农科所(对照点),,45,34,132,31,86,116,20,46,36,42,39,6,10,0.6,0.9
2022-10-26T04:00:00,1939A,109.4974,34.4877,渭南市,日报社,细颗粒物(PM2.5),58,39,135,41,99,111,26,12,12,42,60,6,14,0.5,0.9
2022-10-26T04:00:00,1940A,109.4636,34.493,渭南市,体育馆,,48,36,134,33,98,119,36,43,33,34,54,8,10,0.5,0.9
2022-10-26T04:00:00,1941A,109.4259,34.5023,渭南市,高新一小,,45,38,141,31,98,102,45,49,43,31,42,8,11,0.6,0.9
2022-10-26T04:00:00,1943A,102.1725,38.5339,金昌市,新川苑,颗粒物(PM10),76,102,118,47,44,146,55,79,62,34,40,5,15,0.9,0.9
2022-10-26T04:00:00,1944A,102.1692,38.5167,金昌市,天庆家园,颗粒物(PM10),69,88,121,32,47,145,39,49,47,45,52,9,27,1.1,1.3
2022-10-26T04:00:00,1945A,98.2908,39.7711,嘉峪关市,气象局,颗粒物(PM10),54,58,84,24,28,122,37,22,22,31,24,2,3,0.3,0.3
2022-10-26T04:00:00,1947A,106.3394,38.817,石嘴山市,沙湖旅游区(对照点),颗粒物(PM10),92,133,130,42,73,142,62,52,52,11,39,9,16,0.5,1
2022-10-26T04:00:00,1948A,106.3668,39.0145,石嘴山市,大武口朝阳西街,颗粒物(PM10),106,162,108,,,130,25,85,38,51,36,39,34,1.5,1.3
2022-10-26T04:00:00,1949A,106.7704,39.2282,石嘴山市,惠农南大街,颗粒物(PM10),120,190,117,38,47,141,26,42,36,46,52,116,31,1.3,1.3
2022-10-26T04:00:00,1950A,106.7099,39.1325,石嘴山市,红果子镇惠新街,颗粒物(PM10),157,263,135,24,38,152,42,53,50,17,27,39,30,0.5,1
2022-10-26T04:00:00,1951A,84.895,45.6094,克拉玛依市,长征新村,,24,24,11,9,5,53,29,43,37,12,12,6,5,0.2,0.2
2022-10-26T04:00:00,1952A,84.8988,45.5893,克拉玛依市,南林小区,,30,27,14,21,11,55,29,42,38,14,14,1,2,0.4,0.4
2022-10-26T04:00:00,1953A,85.1186,45.6886,克拉玛依市,白碱滩区,,,,,,,,,,,,,,,,
2022-10-26T04:00:00,1954A,84.905,44.3396,克拉玛依市,独山子区,,21,21,26,6,12,30,15,22,18,11,19,5,6,0.2,0.3
2022-10-26T04:00:00,1955A,85.6979,46.098,克拉玛依市,乌尔禾区商贸楼,,15,8,12,3,6,62,45,40,40,4,9,3,3,0.3,0.3
2022-10-26T04:00:00,1956A,86.1472,41.7538,巴音郭楞州,孔雀公园,颗粒物(PM10),140,229,206,70,54,86,7,4,4,54,22,4,6,0.4,0.3
2022-10-26T04:00:00,1957A,86.1972,41.7166,巴音郭楞州,棉纺厂,颗粒物(PM10),168,285,244,64,66,95,35,22,22,18,17,5,5,0.2,0.3
2022-10-26T04:00:00,1958A,86.2357,41.7173,巴音郭楞州,经济开发区,颗粒物(PM10),156,261,207,50,49,96,44,44,42,14,11,7,8,0.2,0.3
2022-10-26T04:00:00,1959A,118.746,36.881,寿光市,监测站,,,,,,,,,,,,,,,,
2022-10-26T04:00:00,1960A,118.780,36.864,寿光市,世纪学校,,,,,,,,,,,,,,,,
2022-10-26T04:00:00,1961A,117.532,36.6868,济南市,东山小学,,49,49,77,17,30,155,101,114,110,17,20,6,8,0.3,0.4
2022-10-26T04:00:00,1962A,117.541,36.710,章丘市,明水开发区,,,,,,,,,,,,,,,,
2022-10-26T04:00:00,1963A,120.610,36.440,即墨市,环保局子站,,,,,,,,,,,,,,,,
2022-10-26T04:00:00,1964A,120.470,36.390,即墨市,开发区子站,,,,,,,,,,,,,,,,
2022-10-26T04:00:00,1965A,120.005,35.878,胶南市,JN子站,,,,,,,,,,,,,,,,
2022-10-26T04:00:00,1966A,120.0405,35.8735,青岛市,黄岛区4号,,29,14,25,7,9,128,90,108,101,9,16,5,6,0.4,0.5
2022-10-26T04:00:00,1967A,120.008,36.283,胶州市,胶州环保局,,,,,,,,,,,,,,,,
2022-10-26T04:00:00,1968A,120.014,36.253,胶州市,胶州一中,,,,,,,,,,,,,,,,
2022-10-26T04:00:00,1969A,120.537,36.865,莱西市,环保局子站,,,,,,,,,,,,,,,,
2022-10-26T04:00:00,1970A,120.515,36.885,莱西市,人民广场子站,,,,,,,,,,,,,,,,
2022-10-26T04:00:00,1971A,119.952,36.792,平度市,1号,,,,,,,,,,,,,,,,
2022-10-26T04:00:00,1972A,119.976,36.799,平度市,2号,,,,,,,,,,,,,,,,
2022-10-26T04:00:00,1973A,120.747,37.825,蓬莱市,蓬莱环保局,,,,,,,,,,,,,,,,
2022-10-26T04:00:00,1974A,120.773,37.809,蓬莱市,蓬莱博物馆,,,,,,,,,,,,,,,,
2022-10-26T04:00:00,1975A,120.399,37.374,招远市,招远环保局,,,,,,,,,,,,,,,,
2022-10-26T04:00:00,1976A,120.394,37.364,招远市,招远教育局,,,,,,,,,,,,,,,,
2022-10-26T04:00:00,1977A,119.941,37.177,莱州市,莱州环保局,,,,,,,,,,,,,,,,
2022-10-26T04:00:00,1978A,119.959,37.180,莱州市,莱州外经委,,,,,,,,,,,,,,,,
2022-10-26T04:00:00,1979A,122.471,37.154,荣成市,荣成市环保局办公楼,,,,,,,,,,,,,,,,
2022-10-26T04:00:00,1980A,122.410,37.161,荣成市,山东成山轮胎公司,,,,,,,,,,,,,,,,
2022-10-26T04:00:00,1981A,122.038,37.197,文登市,文登市环保局,,,,,,,,,,,,,,,,
2022-10-26T04:00:00,1982A,122.0693,37.2174,威海市,文登开发区,,27,27,28,9,11,98,69,76,70,12,19,4,4,0.3,0.4
2022-10-26T04:00:00,1983A,121.531,36.913,乳山市,乳山市环保局,,,,,,,,,,,,,,,,
2022-10-26T04:00:00,1984A,121.544,36.907,乳山市,乳山市气象局,,,,,,,,,,,,,,,,
2022-10-26T04:00:00,1985A,120.636,31.155,吴江市,吴江市环保局,,,,,,,,,,,,,,,,
2022-10-26T04:00:00,1986A,120.635,31.170,吴江市,教师进修学校,,,,,,,,,,,,,,,,
2022-10-26T04:00:00,1987A,120.658,31.172,吴江市,吴江开发区,,,,,,,,,,,,,,,,
2022-10-26T04:00:00,1988A,120.953,31.388,昆山市,昆山实验小学,,,,,,,,,,,,,,,,
2022-10-26T04:00:00,1989A,120.999,31.381,昆山市,震川中学,,,,,,,,,,,,,,,,
2022-10-26T04:00:00,1990A,120.758,31.670,常熟市,海虞子站,,,,,,,,,,,,,,,,
2022-10-26T04:00:00,1991A,120.721,31.671,常熟市,兴福子站,,,,,,,,,,,,,,,,
2022-10-26T04:00:00,1992A,120.734,31.656,常熟市,菱塘子站,,,,,,,,,,,,,,,,
2022-10-26T04:00:00,1993A,120.526,31.874,张家港市,张家港市监测站,,,,,,,,,,,,,,,,
2022-10-26T04:00:00,1994A,120.550,31.882,张家港市,城北小学,,,,,,,,,,,,,,,,
2022-10-26T04:00:00,1995A,121.115,31.453,太仓市,太仓市监测站,,,,,,,,,,,,,,,,
2022-10-26T04:00:00,1996A,121.140,31.422,太仓市,科教新城实小,,,,,,,,,,,,,,,,
2022-10-26T04:00:00,1997A,119.146,31.955,句容市,消防指挥中心,,,,,,,,,,,,,,,,
2022-10-26T04:00:00,1998A,119.180,31.955,句容市,房家坝,,,,,,,,,,,,,,,,
2022-10-26T04:00:00,1999A,120.268,31.920,江阴市,虹桥邮政,,,,,,,,,,,,,,,,
2022-10-26T04:00:00,2000A,120.237,31.909,江阴市,五星公园,,,,,,,,,,,,,,,,
2022-10-26T04:00:00,2001A,120.302,31.920,江阴市,第二实验小学,,,,,,,,,,,,,,,,
2022-10-26T04:00:00,2002A,119.818,31.354,宜兴市,宜兴市环保局,,,,,,,,,,,,,,,,
2022-10-26T04:00:00,2003A,119.794,31.371,宜兴市,宜园,,,,,,,,,,,,,,,,
2022-10-26T04:00:00,2004A,119.579,31.751,金坛市,金坛市环境监测站,,,,,,,,,,,,,,,,
2022-10-26T04:00:00,2005A,119.579,31.737,金坛市,金坛市自来水公司,,,,,,,,,,,,,,,,
2022-10-26T04:00:00,2006A,119.460,31.400,溧阳市,溧阳市东门子站,,,,,,,,,,,,,,,,
2022-10-26T04:00:00,2007A,119.438,31.317,溧阳市,燕山子站,,,,,,,,,,,,,,,,
2022-10-26T04:00:00,2008A,121.173,31.896,海门市,海门市监测站,,,,,,,,,,,,,,,,
2022-10-26T04:00:00,2009A,121.1518,31.89708,海门市,社会福利院,,,,,,,,,,,,,,,,
2022-10-26T04:00:00,2010A,119.7183,30.2366,临安市,市政府,,,,,,,,,,,,,,,,
2022-10-26T04:00:00,2011A,119.6942,30.2311,临安市,四中,,,,,,,,,,,,,,,,
2022-10-26T04:00:00,2012A,119.954,30.054,富阳市,监测站,,,,,,,,,,,,,,,,
2022-10-26T04:00:00,2013A,119.946,30.049,富阳市,富春二小,,,,,,,,,,,,,,,,
2022-10-26T04:00:00,2014A,120.091,29.305,义乌市,江东,,,,,,,,,,,,,,,,
2022-10-26T04:00:00,2015A,120.040,29.334,义乌市,北苑,,,,,,,,,,,,,,,,
2022-10-26T04:00:00,2016A,120.251,29.719,诸暨市,图书馆,,,,,,,,,,,,,,,,
2022-10-26T04:00:00,2017A,120.209,29.732,诸暨市,富林印务,,,,,,,,,,,,,,,,
2022-10-26T04:00:00,2018A,121.989,39.625,瓦房店市,抱龙山庄,,,,,,,,,,,,,,,,
2022-10-26T04:00:00,2019A,122.011,39.617,瓦房店市,东山公园,,,,,,,,,,,,,,,,
2022-10-26T04:00:00,2031A,113.1817,27.9958,株洲市,云田中学,颗粒物(PM10),54,57,74,19,36,150,106,109,107,14,20,10,10,0.5,0.6
2022-10-26T04:00:00,2054A,114.1099,32.1059,信阳市,平桥分局,,49,39,78,34,41,117,72,80,74,18,30,8,11,0.7,0.8
2022-10-26T04:00:00,2064A,113.9956,32.1271,信阳市,南湾水厂,,48,48,70,29,37,117,66,65,65,16,24,6,8,0.6,0.7
2022-10-26T04:00:00,2065A,114.0775,32.1195,信阳市,市酿酒公司,,43,43,63,19,34,120,88,93,86,11,31,8,11,0.7,0.9
2022-10-26T04:00:00,2066A,114.0609,32.1399,信阳市,审计局,,41,41,69,24,46,122,87,101,91,9,31,7,9,0.6,0.7
2022-10-26T04:00:00,2067A,114.6613,33.6128,周口市,市环境监测站,颗粒物(PM10),65,80,98,37,48,119,70,62,60,17,24,9,14,0.7,0.7
2022-10-26T04:00:00,2068A,114.6758,33.6347,周口市,周口师范,颗粒物(PM10),61,71,88,42,49,121,67,65,62,20,26,6,12,0.7,0.7
2022-10-26T04:00:00,2069A,114.6546,33.5979,周口市,市运管处,细颗粒物(PM2.5),57,62,93,40,46,117,65,54,54,14,24,5,12,0.7,0.7
2022-10-26T04:00:00,2070A,114.6369,33.6406,周口市,川汇区环保局,颗粒物(PM10),75,100,91,40,40,119,56,68,60,20,25,4,10,0.5,0.5
2022-10-26T04:00:00,2075A,117.6336,24.4674,漳州市,九湖(对照点),,,,,,,,,,,,,,,,
2022-10-26T04:00:00,2160A,112.85,35.5051,晋城市,自来水公司,颗粒物(PM10),61,72,76,34,50,171,77,111,95,28,29,8,9,0.7,0.7
2022-10-26T04:00:00,2161A,112.8318,35.4936,晋城市,白云商贸,颗粒物(PM10),58,65,85,34,42,163,72,90,80,19,23,5,6,0.6,0.7
2022-10-26T04:00:00,2162A,112.8508,35.4887,晋城市,市环保局,颗粒物(PM10),55,59,93,36,53,166,77,104,88,34,40,6,6,0.3,0.4
2022-10-26T04:00:00,2163A,112.8676,35.4897,晋城市,技术学院,颗粒物(PM10),54,57,81,31,55,155,68,100,88,26,31,5,7,0.3,0.5
2022-10-26T04:00:00,2164A,112.8271,35.4828,晋城市,泽州一中,,,,,,,,,,,,,,,,
2022-10-26T04:00:00,2165A,112.8453,35.546,晋城市,白马寺 (对照点),,,,,,,,,,,,,,,,
2022-10-26T04:00:00,2166A,112.4397,39.3522,朔州市,平朔,细颗粒物(PM2.5),99,110,124,74,69,137,40,102,71,43,40,14,22,0.9,0.8
2022-10-26T04:00:00,2167A,112.4575,39.3617,朔州市,朔唯,细颗粒物(PM2.5),107,156,146,80,76,146,23,94,58,80,49,26,22,1.0,0.9
2022-10-26T04:00:00,2168A,112.4258,39.3197,朔州市,区政府,颗粒物(PM10),98,146,142,69,72,136,28,107,75,62,35,10,16,1.0,0.9
2022-10-26T04:00:00,2169A,112.4072,39.3278,朔州市,市环保局,细颗粒物(PM2.5),109,166,124,82,62,138,4,100,54,101,40,19,20,1.2,1
2022-10-26T04:00:00,2170A,112.4272,39.3681,朔州市,市二中,细颗粒物(PM2.5),102,151,132,76,65,143,6,94,54,92,40,17,20,0.8,0.7
2022-10-26T04:00:00,2171A,112.7532,37.6945,晋中市,锦纶小区,颗粒物(PM10),56,61,117,37,65,155,14,10,10,57,55,6,9,0.3,0.6
2022-10-26T04:00:00,2173A,112.7249,37.7067,晋中市,南都小区,颗粒物(PM10),72,93,144,42,64,156,20,9,9,69,65,7,7,0.5,0.7
2022-10-26T04:00:00,2174A,112.6991,37.6982,晋中市,榆次区政府,颗粒物(PM10),72,94,138,47,73,158,14,7,7,69,63,7,9,0.6,0.8
2022-10-26T04:00:00,2175A,110.9956,35.0147,运城市,运城中学,颗粒物(PM10),67,84,86,44,46,123,89,102,95,8,11,8,12,0.5,0.6
2022-10-26T04:00:00,2176A,111.0233,35.0611,运城市,禹都开发区,,,,,,,,,,,,,,,,
2022-10-26T04:00:00,2178A,110.9686,35.0303,运城市,地区技校,颗粒物(PM10),69,88,88,48,39,137,96,115,106,9,12,8,12,0.5,0.5
2022-10-26T04:00:00,2179A,111.0414,35.1147,运城市,空港新区,颗粒物(PM10),76,101,90,50,48,137,94,122,110,10,14,8,12,0.8,0.8
2022-10-26T04:00:00,2181A,112.7383,38.4519,忻州市,开发区,细颗粒物(PM2.5),89,111,103,66,58,147,8,30,21,66,49,8,18,0.9,0.9
2022-10-26T04:00:00,2182A,112.7003,38.4928,忻州市,会展中心,细颗粒物(PM2.5),95,105,111,71,57,149,8,7,7,65,52,9,21,0.8,0.7
2022-10-26T04:00:00,2183A,111.1406,37.5211,吕梁市,环保局,颗粒物(PM10),72,94,111,32,36,134,1,2,1,76,70,7,10,0.5,0.6
2022-10-26T04:00:00,2185A,111.1297,37.5136,吕梁市,自来水公司,颗粒物(PM10),106,161,122,40,38,126,1,12,7,66,54,8,10,0.6,0.7
2022-10-26T04:00:00,2186A,106.8288,39.6778,乌海市,聚英学校,,,,,,,,,,,,,,,,
2022-10-26T04:00:00,2187A,106.8174,39.6973,乌海市,市林业局,颗粒物(PM10),52,54,78,16,42,165,72,87,77,4,32,5,28,0.3,0.9
2022-10-26T04:00:00,2188A,106.7907,39.6667,乌海市,中海勃湾学校,颗粒物(PM10),66,81,78,26,39,169,73,84,77,9,28,8,28,0.2,0.9
2022-10-26T04:00:00,2191A,122.2532,43.6801,通辽市,艺术职业学校,细颗粒物(PM2.5),104,112,96,78,39,104,103,96,96,22,28,9,12,0.8,0.6
2022-10-26T04:00:00,2192A,119.7594,49.2261,呼伦贝尔市,区环保局,,25,18,31,17,16,58,50,51,51,4,12,5,5,0.4,0.4
2022-10-26T04:00:00,2194A,107.5936,40.916,巴彦淖尔市,秋林养殖基地(对照点),,,,,,,,,,,,,,,,
2022-10-26T04:00:00,2195A,107.4212,40.761,巴彦淖尔市,附二中,颗粒物(PM10),60,69,159,15,60,132,42,50,46,6,24,4,10,0.3,0.6
2022-10-26T04:00:00,2196A,107.37,40.7372,巴彦淖尔市,市环保大楼,颗粒物(PM10),59,68,145,21,64,145,56,57,56,4,23,5,8,0.4,0.6
2022-10-26T04:00:00,2197A,113.1306,40.9923,乌兰察布市,集宁新区,颗粒物(PM10),52,53,64,26,34,148,53,87,66,7,17,6,11,0.3,0.6
2022-10-26T04:00:00,2200A,122.0392,46.0656,兴安盟,胜华新制药厂,,32,32,61,13,29,81,35,34,34,13,21,3,6,0.2,0.5
2022-10-26T04:00:00,2201A,121.9504,46.0741,兴安盟,科右前旗环保局,,27,27,53,14,28,78,44,44,44,11,22,4,6,0.1,0.3
2022-10-26T04:00:00,2202A,116.1042,43.9317,锡林郭勒盟,市环保监测站,,20,20,40,2,13,126,49,51,50,3,4,7,11,0.2,0.3
2022-10-26T04:00:00,2203A,116.0781,43.9311,锡林郭勒盟,市政府,,,25,41,,,117,48,48,48,1,8,9,11,0.2,0.3
2022-10-26T04:00:00,2204A,105.6467,38.8363,阿拉善盟,西城区西花园(对照点),颗粒物(PM10),58,65,64,30,27,139,101,94,93,15,19,10,10,0.6,0.5
2022-10-26T04:00:00,2205A,105.6985,38.8411,阿拉善盟,蒙二幼,细颗粒物(PM2.5),63,56,62,45,38,136,85,83,80,11,15,11,12,0.6,0.5
2022-10-26T04:00:00,2206A,105.724,38.8516,阿拉善盟,环保局新楼,,42,40,35,29,27,136,108,104,104,11,12,7,7,0.5,0.4
2022-10-26T04:00:00,2207A,121.6094,41.998,阜新市,工业园区,颗粒物(PM10),55,59,95,34,26,117,86,90,89,15,21,9,15,0.9,0.7
2022-10-26T04:00:00,2208A,121.6697,42.0279,阜新市,长青街,颗粒物(PM10),67,84,79,45,30,106,91,94,93,15,23,8,8,0.7,0.6
2022-10-26T04:00:00,2209A,121.6673,42.0705,阜新市,农业园区,颗粒物(PM10),58,66,64,38,29,104,88,88,88,13,16,9,12,0.6,0.5
2022-10-26T04:00:00,2210A,121.6717,42.0224,阜新市,东苑,颗粒物(PM10),62,74,91,36,31,111,93,96,95,14,22,12,14,0.7,0.5
2022-10-26T04:00:00,2211A,121.6506,42.0498,阜新市,玉龙新城,细颗粒物(PM2.5),77,54,71,56,31,106,86,88,87,15,19,10,11,0.6,0.5
2022-10-26T04:00:00,2212A,123.2,41.1953,辽阳市,宏伟区,,27,27,30,13,14,85,82,83,82,7,9,9,11,0.6,0.6
2022-10-26T04:00:00,2213A,123.1683,41.2495,辽阳市,新华园,,26,26,31,13,15,83,80,82,81,9,12,11,13,0.3,0.3
2022-10-26T04:00:00,2214A,123.2354,41.2639,辽阳市,滨河路,,28,27,36,13,16,90,87,90,88,9,14,4,5,0.5,0.5
2022-10-26T04:00:00,2215A,123.149,41.2991,辽阳市,铁西工业园,,28,27,40,19,18,92,87,89,88,10,16,9,10,0.5,0.5
2022-10-26T04:00:00,2216A,123.8139,42.3022,铁岭市,汇工街西,,37,37,56,19,19,104,96,104,100,15,18,12,12,0.8,0.8
2022-10-26T04:00:00,2217A,123.8649,42.2923,铁岭市,水上乐园,,46,46,61,24,23,92,83,88,86,30,32,11,12,0.7,1.3
2022-10-26T04:00:00,2218A,123.8486,42.2867,铁岭市,银州路东段,颗粒物(PM10),52,53,64,20,23,98,93,98,95,16,23,7,9,1.1,1
2022-10-26T04:00:00,2219A,123.7153,42.2217,铁岭市,金沙江路北,,47,47,52,23,22,101,74,84,81,28,25,12,12,1.0,0.7
2022-10-26T04:00:00,2220A,120.4318,41.5881,朝阳市,西梁,细颗粒物(PM2.5),103,98,84,77,86,124,117,118,114,16,23,15,12,0.9,1
2022-10-26T04:00:00,2221A,120.4521,41.5646,朝阳市,河畔小区,细颗粒物(PM2.5),87,101,92,64,57,121,111,118,116,11,16,18,13,1.1,1.1
2022-10-26T04:00:00,2222A,120.4176,41.5648,朝阳市,八里堡,细颗粒物(PM2.5),82,95,98,60,48,114,114,112,110,16,26,23,20,1.0,1.2
2022-10-26T04:00:00,2223A,120.3806,41.5969,朝阳市,农业园区,细颗粒物(PM2.5),95,110,101,71,56,133,92,112,97,27,30,11,12,1.3,1.2
2022-10-26T04:00:00,2225A,124.4002,43.1713,四平市,一商场,颗粒物(PM10),51,51,52,20,18,102,94,102,99,12,18,6,7,0.4,0.3
2022-10-26T04:00:00,2226A,124.388,43.193,四平市,境园,,49,49,47,19,16,99,93,98,97,6,14,8,9,0.4,0.3
2022-10-26T04:00:00,2227A,125.1358,42.8845,辽源市,环保局,,45,38,43,31,32,113,99,94,94,3,22,9,10,0.6,0.7
2022-10-26T04:00:00,2229A,125.9358,41.7173,通化市,光明,,25,16,28,8,11,81,80,76,76,5,18,12,16,0.1,0.4
2022-10-26T04:00:00,2230A,125.9446,41.7325,通化市,铁路,,26,17,26,5,11,83,82,76,76,6,25,10,16,0.4,0.5
2022-10-26T04:00:00,2231A,126.4219,41.9171,白山市,喜丰,颗粒物(PM10),68,85,68,23,20,79,7,6,6,41,32,16,14,0.8,0.7
2022-10-26T04:00:00,2232A,126.4077,41.9419,白山市,环保局,颗粒物(PM10),57,64,59,24,21,68,6,6,6,41,35,13,14,0.7,0.8
2022-10-26T04:00:00,2233A,124.8006,45.1214,松原市,江南,,43,43,60,27,25,95,61,64,63,11,23,5,12,0.4,0.4
2022-10-26T04:00:00,2234A,124.7965,45.1722,松原市,江北,颗粒物(PM10),51,52,61,19,20,100,66,67,67,10,16,4,8,0.4,0.4
2022-10-26T04:00:00,2235A,122.7911,45.6077,白城市,洮北区环保局,颗粒物(PM10),63,76,85,42,44,126,60,64,62,18,24,7,7,0.3,0.4
2022-10-26T04:00:00,2236A,122.8738,45.5725,白城市,市环保局,颗粒物(PM10),52,54,76,11,22,118,60,46,46,15,23,6,10,0.7,0.7
2022-10-26T04:00:00,2237A,129.47,42.8883,延边朝鲜族自治州,妇幼医院,,19,19,31,11,19,68,16,14,14,15,27,6,13,0.4,0.5
2022-10-26T04:00:00,2238A,129.5055,42.9108,延边朝鲜族自治州,延边医院,,32,32,32,15,17,70,7,6,6,28,28,9,12,0.7,0.6
2022-10-26T04:00:00,2239A,129.3964,42.8881,延边朝鲜族自治州,朝阳川镇医院,,14,14,24,8,11,69,10,18,14,16,20,5,6,0.4,0.5
2022-10-26T04:00:00,2240A,130.9762,45.3001,鸡西市,环保局,"颗粒物(PM10),细颗粒物(PM2.5)",84,117,76,62,38,63,5,4,4,36,34,6,7,0.9,0.8
2022-10-26T04:00:00,2243A,130.9429,45.3039,鸡西市,第一中学,,21,21,42,9,16,73,54,52,52,5,17,5,7,0.4,0.5
2022-10-26T04:00:00,2244A,130.2537,47.3416,鹤岗市,哈啤分公司,,34,34,36,20,17,60,22,22,21,29,30,11,11,0.3,0.4
2022-10-26T04:00:00,2245A,130.2684,47.3086,鹤岗市,斯达机电,,35,35,48,17,18,68,34,37,36,20,21,9,8,0.4,0.4
2022-10-26T04:00:00,2246A,130.3114,47.3388,鹤岗市,东山纸板厂,颗粒物(PM10),80,109,106,37,29,60,4,3,3,30,31,17,11,3.8,1.3
2022-10-26T04:00:00,2247A,130.1097,47.3382,鹤岗市,五号水库(对照点),,18,17,25,12,15,72,27,31,30,11,15,5,5,0.2,0.2
2022-10-26T04:00:00,2248A,131.1511,46.6937,双鸭山市,双合村,颗粒物(PM10),61,71,35,32,26,72,56,59,50,16,18,23,15,1.0,0.8
2022-10-26T04:00:00,2249A,131.1652,46.6191,双鸭山市,南小市,,16,14,30,10,11,74,51,57,55,9,12,5,5,0.2,0.2
2022-10-26T04:00:00,2250A,131.1524,46.6554,双鸭山市,环保局,,22,18,24,9,11,70,70,67,67,6,13,5,6,0.2,0.2
2022-10-26T04:00:00,2251A,131.12,46.5656,双鸭山市,苗圃(对照点),,23,23,24,14,18,73,44,40,40,5,6,4,4,0.3,0.3
2022-10-26T04:00:00,2252A,128.5159,47.4311,伊春市,环保局,,18,15,21,11,12,78,56,61,59,10,12,11,9,0.7,0.7
2022-10-26T04:00:00,2253A,128.9102,47.7412,伊春市,电力嘉园,,19,19,24,6,12,65,50,56,54,9,12,7,5,0.3,0.5
2022-10-26T04:00:00,2254A,129.5029,48.471,伊春市,汤旺河国家公园(对照点),,39,39,44,22,24,78,32,38,34,5,7,5,7,0.3,0.2
2022-10-26T04:00:00,2255A,130.2751,46.8028,佳木斯市,佳纺,,22,22,44,5,15,72,58,56,56,8,17,4,3,0.4,0.5
2022-10-26T04:00:00,2256A,130.3995,46.8307,佳木斯市,发电厂,,29,22,48,20,21,69,54,49,49,10,22,3,4,0.4,0.4
2022-10-26T04:00:00,2257A,130.3258,46.7975,佳木斯市,环保局,,22,22,28,12,13,70,64,47,47,6,21,5,4,0.3,0.4
2022-10-26T04:00:00,2258A,130.3648,46.8032,佳木斯市,十一中,,19,18,30,10,14,69,59,53,53,8,22,3,2,0.2,0.3
2022-10-26T04:00:00,2259A,130.3794,46.7588,佳木斯市,四丰(对照点),,17,17,17,8,10,69,53,53,53,7,8,1,1,0.3,0.3
2022-10-26T04:00:00,2262A,131.0518,45.8751,七台河市,新一中(对照点),,40,40,43,12,16,79,18,16,16,36,23,35,16,0.4,0.4
2022-10-26T04:00:00,2263A,127.4833,50.2524,黑河市,交通局,颗粒物(PM10),54,58,40,18,15,67,51,55,53,2,9,6,8,0.7,0.8
2022-10-26T04:00:00,2264A,127.5144,50.2341,黑河市,环保局,,29,21,18,20,15,75,32,50,40,21,11,31,11,0.5,0.5
2022-10-26T04:00:00,2265A,127.5291,50.2472,黑河市,大黑河岛(对照点),,19,19,32,7,14,80,51,52,52,1,3,2,5,0.2,0.2
2022-10-26T04:00:00,2266A,126.9785,46.6365,绥化市,人和东街,颗粒物(PM10),61,71,56,33,21,90,56,56,56,17,16,5,10,0.7,0.6
2022-10-26T04:00:00,2267A,126.964,46.6528,绥化市,党政办公中心,颗粒物(PM10),56,61,47,30,20,105,73,74,74,15,13,6,8,0.6,0.6
2022-10-26T04:00:00,2269A,124.1069,50.4097,大兴安岭地区,科技局,,23,6,23,16,19,71,51,53,52,5,11,2,4,0.4,0.5
2022-10-26T04:00:00,2270A,117.396,32.939,蚌埠市,工人疗养院,,48,48,74,15,36,134,42,57,50,24,29,6,8,0.3,0.4
2022-10-26T04:00:00,2271A,117.3605,32.9427,蚌埠市,百货大楼,,35,35,62,21,34,129,32,51,44,38,31,11,12,0.3,0.4
2022-10-26T04:00:00,2273A,117.4185,32.8911,蚌埠市,蚌埠学院,,44,44,72,17,34,128,48,55,51,21,27,7,9,0.4,0.4
2022-10-26T04:00:00,2274A,117.3533,32.9673,蚌埠市,淮上区政府,,41,41,78,27,34,132,47,51,48,14,22,10,12,0.2,0.3
2022-10-26T04:00:00,2275A,117.3145,32.8977,蚌埠市,高新区,,41,41,66,22,31,124,52,60,55,18,23,7,8,0.4,0.4
2022-10-26T04:00:00,2277A,116.8305,32.7727,淮南市,潘集区政府,细颗粒物(PM2.5),113,105,124,85,59,121,33,43,39,25,26,8,9,0.5,0.7
2022-10-26T04:00:00,2278A,117.0067,32.6524,淮南市,师范学院,细颗粒物(PM2.5),60,60,79,43,26,106,36,58,49,30,27,8,9,0.7,0.7
2022-10-26T04:00:00,2279A,116.8569,32.5951,淮南市,谢家集区政府,颗粒物(PM10),59,67,74,32,37,120,42,67,56,30,26,21,17,0.4,0.5
2022-10-26T04:00:00,2280A,116.8281,32.633,淮南市,八公山区政府,,46,46,59,24,36,113,38,74,58,31,23,17,14,0.5,0.5
2022-10-26T04:00:00,2281A,116.6325,32.6201,淮南市,焦岗湖风景区管理处(对照点),颗粒物(PM10),52,54,86,17,44,130,46,60,56,5,6,10,11,0.4,0.4
2022-10-26T04:00:00,2282A,116.8004,33.975,淮北市,监测站,,33,33,68,18,28,124,62,74,68,8,18,7,9,0.4,0.5
2022-10-26T04:00:00,2283A,116.8091,33.9007,淮北市,烈山区政府,,31,31,76,20,33,126,56,70,61,22,25,5,7,0.3,0.4
2022-10-26T04:00:00,2284A,116.7856,33.9477,淮北市,职业技术学院,,38,38,66,18,29,123,60,67,60,16,26,7,9,0.4,0.5
2022-10-26T04:00:00,2285A,117.8177,30.9412,铜陵市,市第四中学,,46,46,57,17,20,109,69,72,70,20,21,6,6,0.3,0.3
2022-10-26T04:00:00,2286A,117.8059,30.9273,铜陵市,市公路局,颗粒物(PM10),56,61,50,23,23,107,67,67,67,17,22,6,6,0.2,0.3
2022-10-26T04:00:00,2287A,117.7807,30.9413,铜陵市,市新民污水厂,,32,32,37,18,19,112,71,72,71,17,20,9,10,0.1,0.1
2022-10-26T04:00:00,2288A,117.7439,30.8792,铜陵市,市第九中学,颗粒物(PM10),54,58,54,24,20,114,44,66,50,41,27,15,13,3.4,1
2022-10-26T04:00:00,2289A,117.846,30.9413,铜陵市,车站新区,,30,30,33,2,14,106,66,68,67,15,18,5,5,0.1,0.2
2022-10-26T04:00:00,2290A,117.8483,30.97,铜陵市,市职教基地,,50,50,45,14,16,116,73,76,74,12,15,4,5,0.4,0.5
2022-10-26T04:00:00,2291A,117.0809,30.5177,安庆市,环科院,细颗粒物(PM2.5),63,66,64,45,33,130,58,69,62,27,27,11,11,0.6,0.6
2022-10-26T04:00:00,2292A,117.0331,30.5119,安庆市,马山宾馆,颗粒物(PM10),59,67,61,40,28,134,64,76,69,23,25,10,9,0.7,0.6
2022-10-26T04:00:00,2294A,116.9896,30.6145,安庆市,安庆大学,细颗粒物(PM2.5),78,82,60,57,34,132,54,61,57,18,22,5,7,0.8,0.7
2022-10-26T04:00:00,2295A,118.2903,29.6963,黄山市,延安路89号,,20,20,22,5,17,105,30,33,32,22,15,5,5,0.2,0.2
2022-10-26T04:00:00,2296A,118.327,29.7178,黄山市,黄山东路89号,,41,41,27,13,12,104,41,59,50,16,14,5,5,0.1,0
2022-10-26T04:00:00,2297A,118.1371,30.2756,黄山市,黄山区政府5号楼,,25,25,52,5,24,109,26,36,32,8,14,5,6,0.5,0.5
2022-10-26T04:00:00,2298A,118.3093,32.3153,滁州市,老年大学,,39,39,61,23,27,125,33,39,34,37,40,11,11,0.4,0.4
2022-10-26T04:00:00,2299A,118.3244,32.2786,滁州市,人大宾馆,,43,43,60,14,18,116,47,42,42,24,37,5,6,0.4,0.4
2022-10-26T04:00:00,2301A,115.8277,32.8929,阜阳市,市监测站,细颗粒物(PM2.5),75,93,86,55,45,110,45,54,47,23,27,8,10,0.5,0.5
2022-10-26T04:00:00,2303A,115.8554,32.8605,阜阳市,开发区,细颗粒物(PM2.5),89,65,93,66,44,117,52,58,53,31,34,7,8,0.5,0.6
2022-10-26T04:00:00,2306A,116.989,33.6306,宿州市,火车站,,,,,,,,,,,,,,,,
2022-10-26T04:00:00,2307A,116.5079,31.737,六安市,监测大楼,颗粒物(PM10),56,61,61,35,30,109,50,59,56,20,22,6,8,0.3,0.3
2022-10-26T04:00:00,2308A,116.4738,31.7643,六安市,皖西学院,颗粒物(PM10),54,58,67,37,26,107,43,63,58,18,18,5,8,0.4,0.3
2022-10-26T04:00:00,2309A,116.4996,31.7905,六安市,朝阳厂,,41,41,56,21,24,101,38,59,53,21,20,3,6,0.4,0.4
2022-10-26T04:00:00,2310A,116.5567,31.7886,六安市,开发区,颗粒物(PM10),61,72,79,36,33,110,31,65,49,25,21,7,10,0.3,0.3
2022-10-26T04:00:00,2311A,115.8072,33.8399,亳州市,污水处理厂,细颗粒物(PM2.5),73,72,90,53,52,111,44,60,52,16,19,7,9,0.5,0.5
2022-10-26T04:00:00,2312A,115.7789,33.8518,亳州市,三国揽胜宫,细颗粒物(PM2.5),73,84,93,53,54,113,48,64,56,20,27,6,7,0.6,0.6
2022-10-26T04:00:00,2314A,117.47,30.6618,池州市,池州学院,,41,41,46,21,24,124,71,77,74,12,14,8,6,0.4,0.4
2022-10-26T04:00:00,2315A,117.4974,30.6539,池州市,平天湖(对照点),,,,,,,,,,,,,,,,
2022-10-26T04:00:00,2316A,118.7581,30.9454,宣城市,鳌峰子站,,28,28,37,11,18,107,62,76,72,23,25,4,5,0.3,0.4
2022-10-26T04:00:00,2317A,118.7385,30.9743,宣城市,敬亭山子站,,38,38,43,11,15,114,63,76,69,29,30,6,7,0.2,0.3
2022-10-26T04:00:00,2318A,118.7173,30.9427,宣城市,开发区子站,,28,28,38,11,17,103,62,75,70,23,23,4,5,0.3,0.4
2022-10-26T04:00:00,2319A,119.0141,25.4325,莆田市,荔城区仓后路,,27,24,31,5,10,110,86,91,88,4,7,5,5,0.4,0.4
2022-10-26T04:00:00,2320A,119.0015,25.4553,莆田市,莆田市监测站,,29,20,27,7,10,115,91,89,89,3,7,5,5,0.4,0.4
2022-10-26T04:00:00,2321A,119.1119,25.4561,莆田市,涵江区六中,,24,22,29,11,12,107,76,86,81,5,6,7,6,0.3,0.4
2022-10-26T04:00:00,2322A,119.1013,25.3215,莆田市,秀屿区政府,,23,21,31,12,14,106,73,86,81,5,5,6,7,0.4,0.4
2022-10-26T04:00:00,2323A,118.981,25.4792,莆田市,东圳水库(对照点),,,,,,,,,,,,,,,,
2022-10-26T04:00:00,2324A,117.6211,26.2625,三明市,三钢,,25,24,29,17,18,120,80,86,83,9,11,6,6,0.4,0.3
2022-10-26T04:00:00,2325A,117.635,26.2714,三明市,三明二中,,25,16,28,11,13,113,79,83,81,7,10,5,5,0.3,0.3
2022-10-26T04:00:00,2326A,117.6028,26.2378,三明市,三元区政府,,30,29,32,21,20,111,49,76,63,28,16,8,7,0.5,0.5
2022-10-26T04:00:00,2327A,117.7275,26.3108,三明市,洋溪(对照点),,,,,,,,,,,,,,,,
2022-10-26T04:00:00,2331A,118.0966,26.6761,南平市,茫荡山(对照点),,,,,,,,,,,,,,,,
2022-10-26T04:00:00,2332A,118.1681,26.6369,南平市,南平市监测站,,28,28,28,12,12,108,66,89,76,10,8,8,7,0.4,0.4
2022-10-26T04:00:00,2333A,118.1825,26.6489,南平市,南平铝业有限公司,,30,25,28,21,13,106,51,70,62,14,9,8,6,0.4,0.4
2022-10-26T04:00:00,2334A,118.1756,26.6272,南平市,南平七中,,21,19,28,12,14,115,66,93,80,8,6,4,5,0.6,0.6
2022-10-26T04:00:00,2335A,117.0189,25.1181,龙岩市,龙岩师专(对照点),,,,,,,,,,,,,,,,
2022-10-26T04:00:00,2336A,117.0217,25.1033,龙岩市,龙岩市监测站,,37,37,36,20,17,119,70,72,71,15,17,16,13,0.4,0.4
2022-10-26T04:00:00,2337A,117.0258,25.0661,龙岩市,闽西职业技术学院,颗粒物(PM10),52,54,42,28,17,124,29,41,29,38,21,31,15,0.5,0.5
2022-10-26T04:00:00,2338A,117.0196,25.0306,龙岩市,龙岩学院,,34,34,35,21,16,125,41,58,49,16,14,5,5,0.3,0.3
2022-10-26T04:00:00,2339A,119.5001,26.6946,宁德市,金涵水库(对照点),,,,,,,,,,,,,,,,
2022-10-26T04:00:00,2341A,119.5388,26.6612,宁德市,宁德市监测站,,19,18,32,13,15,102,58,55,55,9,15,7,10,0.4,0.5
