timepoint,stationcode,longitude,latitude,area,positionname,primarypollutant,aqi,pm10,pm10_24h,pm2_5,pm2_5_24h,o3,o3_24h,o3_8h,o3_8h_24h,no2,no2_24h,so2,so2_24h,co,co_24h
2025-06-13T2000,2566A,102.1879,31.914,阿坝藏族羌族自治州,州农科所,,24,23,17,3,7,75,,94,94,13,10,13,13,0.5,0.4
2025-06-13T2000,2568A,102.2502,31.8896,阿坝藏族羌族自治州,马师校,,36,29,21,25,19,94,,113,112,8,10,6,6,0.4,0.5
2025-06-13T2000,3994A,102.2165,31.9024,阿坝藏族羌族自治州,马尔康中学西区,,34,24,17,22,15,106,,130,129,4,7,5,5,0.4,0.4
2025-06-13T2000,2695A,80.292,41.1694,阿克苏地区,电视台,颗粒物(PM10),104,157,173,53,54,102,,112,112,6,14,8,6,0.6,0.3
2025-06-13T2000,2696A,80.2613,41.1551,阿克苏地区,艺术中心,颗粒物(PM10),91,131,172,54,59,96,,106,106,9,16,3,4,0.3,0.5
2025-06-13T2000,2204A,105.6467,38.8363,阿拉善盟,西城区西花园,,37,24,29,24,16,117,,126,119,12,10,6,6,0.8,0.6
2025-06-13T2000,2205A,105.6985,38.8411,阿拉善盟,蒙二幼,,30,20,34,12,14,95,,101,95,5,2,8,8,0.5,0.4
2025-06-13T2000,2206A,105.724,38.8516,阿拉善盟,环保局新楼,,35,19,32,10,14,110,,120,114,6,4,9,9,0.4,0.3
2025-06-13T2000,2708A,88.1264,47.8517,阿勒泰地区,市站,,35,16,20,3,5,109,,110,110,11,8,2,2,0.3,0.4
2025-06-13T2000,2630A,80.1161,32.5,阿里地区,阿里监测站,,45,14,17,11,10,142,,135,135,4,7,7,6,0.3,0.3
2025-06-13T2000,3192A,80.0903,32.5028,阿里地区,阿里藏医院,,48,18,26,10,15,152,,145,145,1,2,7,6,0.4,0.4
2025-06-13T2000,2642A,109.0318,32.6537,安康市,香溪洞,,47,36,29,14,19,150,,157,157,5,8,6,7,0.4,0.4
2025-06-13T2000,2644A,109.0072,32.6975,安康市,汉滨区检察院,,45,45,42,24,21,137,,160,159,14,11,7,13,0.6,0.5
2025-06-13T2000,4054A,109.0325,32.6913,安康市,市邮政管理局,颗粒物(PM10),54,58,44,25,20,117,,157,154,17,12,5,10,1.0,0.8
2025-06-13T2000,2291A,117.0809,30.5177,安庆市,环科院,,25,23,35,11,25,33,,122,107,50,11,2,3,0.6,0.7
2025-06-13T2000,2292A,117.0331,30.5119,安庆市,马山宾馆,,20,20,32,7,25,56,,132,118,23,11,4,5,0.5,0.7
2025-06-13T2000,2294A,116.9896,30.6145,安庆市,安庆大学,,29,29,34,10,25,67,,111,107,16,7,4,4,0.5,0.6
2025-06-13T2000,3173A,117.0598,30.5351,安庆市,市人大,,21,11,31,8,24,66,,136,125,15,10,2,3,0.5,0.6
2025-06-13T2000,3122A,105.9606,26.2611,安顺市,伍家关,,23,19,21,10,27,72,,87,87,6,7,2,2,0.4,0.3
2025-06-13T2000,3123A,105.9408,26.2431,安顺市,凤凰山,,,46,26,16,17,,,142,142,20,10,6,5,0.2,0.4
2025-06-13T2000,3124A,105.9439,26.2564,安顺市,金钟山,,37,22,23,14,17,116,,144,144,7,6,7,7,0.3,0.3
2025-06-13T2000,3125A,105.8983,26.2481,安顺市,娄家坡,,33,21,21,18,15,103,,130,130,9,5,6,6,0.4,0.4
2025-06-13T2000,1818A,114.4839,36.0621,安阳市,棉研所,,,,,,,,,,,,,,,,
2025-06-13T2000,1819A,114.3551,36.1017,安阳市,红庙街,臭氧1小时,80,58,54,29,28,184,,198,198,4,2,2,3,0.4,0.4
2025-06-13T2000,1820A,114.361,36.0681,安阳市,银杏小区,臭氧1小时,60,55,47,40,35,168,,190,190,16,4,3,4,0.5,0.5
2025-06-13T2000,3141A,114.3922,36.0878,安阳市,信访局,臭氧1小时,79,66,57,32,35,183,,202,202,5,3,2,2,0.5,0.5
2025-06-13T2000,3669A,114.4705,36.0637,安阳市,左辅环卫站,,,,66,,34,,,147,,,10,,4,,0.6
2025-06-13T2000,3703A,114.2917,36.0949,安阳市,安钢职工学校,臭氧1小时,73,55,55,31,35,178,,186,186,4,4,4,4,0.6,0.5
2025-06-13T2000,1748A,123.044,41.1196,鞍山市,深沟寺,,35,17,18,12,9,111,,127,126,10,9,6,6,0.5,0.5
2025-06-13T2000,1749A,123.011,41.0931,鞍山市,太阳城,,34,19,17,12,7,108,,125,122,7,8,6,7,0.5,0.5
2025-06-13T2000,1750A,123.0485,41.1442,鞍山市,太平,,33,26,23,15,9,104,,124,121,10,8,8,8,0.6,0.5
2025-06-13T2000,1751A,122.9642,41.0971,鞍山市,铁西三道街,,34,29,33,14,11,106,,125,121,14,16,6,8,0.5,0.8
2025-06-13T2000,1753A,123.022,41.0821,鞍山市,明达新区,,34,19,18,10,9,107,,121,119,8,7,8,8,0.4,0.4
2025-06-13T2000,1754A,123.1289,41.0228,鞍山市,千山,,,,15,,8,,,112,,,7,,4,,0.3
2025-06-13T2000,4201A,122.9446,41.0826,鞍山市,兴盛南路290号,,34,27,31,10,10,106,,127,123,12,17,6,8,0.4,0.6
2025-06-13T2000,2195A,107.4212,40.761,巴彦淖尔市,附二中,,36,36,146,11,29,88,,110,107,20,13,7,9,0.4,0.4
2025-06-13T2000,2196A,107.37,40.7372,巴彦淖尔市,市环保大楼,,38,38,131,14,26,89,,121,116,31,13,6,7,0.4,0.4
2025-06-13T2000,1956A,86.1472,41.7538,巴音郭楞蒙古自治州,孔雀公园,,38,32,20,16,10,119,,122,122,14,5,9,8,0.2,0.2
2025-06-13T2000,1957A,86.1972,41.7166,巴音郭楞蒙古自治州,棉纺厂,,38,23,37,6,6,119,,122,122,12,9,3,3,0.2,0.2
2025-06-13T2000,1958A,86.2357,41.7173,巴音郭楞蒙古自治州,经济开发区,,39,,19,9,5,124,,122,122,4,5,8,9,0.1,0.1
2025-06-13T2000,2914A,106.7677,31.8794,巴中市,苏山坪,细颗粒物(PM2.5),54,48,36,38,23,154,,158,157,6,6,4,4,0.4,0.4
2025-06-13T2000,3181A,106.7768,31.8526,巴中市,市五中,,48,36,40,25,26,153,,159,159,8,15,7,8,0.5,0.6
2025-06-13T2000,3183A,106.7418,31.8654,巴中市,圣泉水务公司,,45,39,36,25,23,144,,160,158,11,19,5,5,0.5,0.5
2025-06-13T2000,3616A,106.7616,31.8344,巴中市,市中心医院,,46,35,38,25,26,146,,150,150,5,17,6,6,0.4,0.5
2025-06-13T2000,2235A,122.7911,45.6077,白城市,洮北区环保局,,,,29,,21,,,107,,,11,,2,,0.4
2025-06-13T2000,2236A,122.8738,45.5725,白城市,市环保局,,25,19,31,17,22,62,,100,84,20,10,8,5,0.5,0.5
2025-06-13T2000,2231A,126.4219,41.9171,白山市,喜丰,,34,30,54,8,15,106,,131,124,8,27,6,9,0.6,0.7
2025-06-13T2000,2232A,126.4077,41.9419,白山市,环保局,,35,35,35,6,14,103,,133,125,5,14,8,6,0.6,0.6
2025-06-13T2000,2647A,104.1724,36.5446,白银市,第三小学,细颗粒物(PM2.5),143,170,121,109,47,107,,132,130,3,10,8,22,0.5,0.4
2025-06-13T2000,2648A,104.1465,36.5482,白银市,动力公司,细颗粒物(PM2.5),149,154,102,114,42,109,,130,127,5,10,7,17,0.2,0.3
2025-06-13T2000,2512A,106.6103,23.9011,百色市,市监测站,,27,27,29,17,13,78,,82,82,11,8,11,5,0.6,0.5
2025-06-13T2000,2513A,106.6538,23.8859,百色市,市中心血站,,39,39,34,18,18,72,,82,82,12,17,11,4,0.8,0.7
2025-06-13T2000,3406A,106.6085,23.8798,百色市,祈福高中,,44,44,31,18,15,66,,76,76,18,8,13,6,0.6,0.6
2025-06-13T2000,2270A,117.396,32.939,蚌埠市,工人疗养院,,33,33,54,9,26,103,,134,132,4,11,2,4,0.4,0.5
2025-06-13T2000,2271A,117.3605,32.9427,蚌埠市,百货大楼,,32,32,46,16,26,98,,131,128,10,14,3,4,0.5,0.6
2025-06-13T2000,2273A,117.4185,32.8911,蚌埠市,蚌埠学院,,29,29,42,14,36,92,,124,120,8,9,3,4,0.5,0.6
2025-06-13T2000,2274A,117.3533,32.9673,蚌埠市,淮上区政府,,35,24,47,14,31,109,,139,136,6,11,5,5,0.6,0.6
2025-06-13T2000,2275A,117.3145,32.8977,蚌埠市,高新区,,36,36,44,15,33,94,,137,133,14,14,5,5,0.6,0.6
2025-06-13T2000,3715A,117.3092,32.9314,蚌埠市,蚌埠田家炳中学,,46,46,47,20,34,88,,134,130,10,10,5,5,0.4,0.5
2025-06-13T2000,1585A,109.8756,40.6532,包头市,市环境监测站,,33,19,24,3,10,105,,148,145,22,13,10,11,0.6,0.7
2025-06-13T2000,1587A,109.9991,40.5842,包头市,包头八中,,37,27,35,13,18,116,,152,151,18,16,10,12,0.5,0.6
2025-06-13T2000,1588A,109.8538,40.6821,包头市,青山宾馆,,34,16,20,10,12,107,,141,139,16,11,13,10,0.7,0.5
2025-06-13T2000,1589A,109.8642,40.6288,包头市,惠龙物流,,38,22,29,7,12,120,,152,150,9,14,6,11,0.3,0.5
2025-06-13T2000,1590A,110.0377,40.5546,包头市,东河鸿龙湾,,39,18,33,6,9,122,,158,157,10,16,7,12,0.5,0.6
2025-06-13T2000,3283A,109.9154,40.5685,包头市,滨河大厦,,35,15,25,3,13,111,,152,149,11,17,7,12,0.4,0.6
2025-06-13T2000,3419A,109.9447,40.6261,包头市,包头市委党校,,38,16,20,6,10,120,,156,155,13,13,10,12,0.8,0.7
2025-06-13T2000,3683A,109.8331,40.6576,包头市,昆区政府,,36,20,26,10,14,113,,146,144,21,15,10,10,0.7,0.6
2025-06-13T2000,1930A,107.185,34.3063,宝鸡市,庙沟村,臭氧1小时,57,34,36,26,24,165,,187,184,7,9,5,6,0.5,0.5
2025-06-13T2000,1931A,107.0708,34.3017,宝鸡市,竹园沟,,50,41,40,35,27,147,,177,174,7,11,5,5,0.2,0.3
2025-06-13T2000,1932A,107.1906,34.3672,宝鸡市,三陆医院,,47,37,42,29,25,150,,186,182,14,19,5,6,0.5,0.5
2025-06-13T2000,1933A,107.1431,34.3547,宝鸡市,监测站,,48,48,48,33,26,139,,183,179,15,18,6,6,0.5,0.4
2025-06-13T2000,1934A,107.1186,34.3739,宝鸡市,技工学校,,49,29,40,27,24,154,,184,183,7,9,6,8,0.6,0.6
2025-06-13T2000,1935A,107.3906,34.3528,宝鸡市,陈仓区环保局家属楼,臭氧1小时,101,45,45,31,27,202,,194,194,15,15,6,11,0.5,0.6
2025-06-13T2000,1936A,107.2058,34.3497,宝鸡市,文理学院,,48,43,42,26,27,152,,192,189,11,14,5,6,0.5,0.5
2025-06-13T2000,1937A,107.2386,34.3622,宝鸡市,三迪小学,臭氧1小时,57,35,45,26,28,165,,192,190,12,16,5,6,0.5,0.5
2025-06-13T2000,1051A,115.493,38.8632,保定市,游泳馆,,,,79,,30,,,166,,,15,,4,,0.2
2025-06-13T2000,1052A,115.5213,38.8959,保定市,华电二区,臭氧1小时,102,86,78,44,30,204,,212,212,10,10,2,4,0.2,0.3
2025-06-13T2000,1053A,115.4713,38.9108,保定市,接待中心,臭氧1小时,90,79,74,38,30,192,,206,206,16,12,1,2,0.4,0.3
2025-06-13T2000,1054A,115.4612,38.8416,保定市,地表水厂,臭氧1小时,89,90,84,25,25,191,,214,214,22,19,3,4,0.4,0.4
2025-06-13T2000,3581A,115.31981,38.95208,保定市,满城区生态环境分局,臭氧1小时,104,112,110,31,32,207,,220,220,13,13,5,6,0.3,0.4
2025-06-13T2000,3582A,115.47694,38.76408,保定市,清苑区第二中学,臭氧1小时,82,109,108,37,37,185,,209,209,13,12,2,3,0.4,0.4
2025-06-13T2000,3583A,115.62909,39.02311,保定市,徐水物探局,颗粒物(PM10),116,181,127,39,27,214,,214,214,14,12,3,2,0.4,0.3
2025-06-13T2000,4004A,115.4202,38.8656,保定市,双鹰农机,臭氧1小时,106,66,70,30,27,212,,221,221,13,16,2,4,0.3,0.3
2025-06-13T2000,4034A,115.5150,38.8590,保定市,植保所站,臭氧1小时,102,117,92,29,33,203,,220,220,15,14,2,4,0.3,0.3
2025-06-13T2000,2594A,99.1678,25.1081,保山市,市环境监测站,,42,42,40,27,28,124,,141,140,6,9,5,8,0.4,0.5
2025-06-13T2000,2595A,99.1711,25.1328,保山市,市环保局,,42,36,40,27,22,133,,146,146,4,7,6,6,0.5,0.5
2025-06-13T2000,1866A,109.2262,21.588,北海市,牛尾岭水库,,11,6,9,3,3,34,,78,65,5,3,2,7,0.5,0.6
2025-06-13T2000,1867A,109.1436,21.4086,北海市,海滩公园,,17,11,16,3,4,52,,55,51,4,7,2,2,0.4,0.4
2025-06-13T2000,1868A,109.0981,21.4661,北海市,新市环保局,,18,18,13,7,8,49,,64,58,9,7,3,4,0.4,0.4
2025-06-13T2000,1869A,109.1778,21.5233,北海市,北海工业园,,16,16,16,3,7,45,,59,54,8,7,4,6,0.7,0.5
2025-06-13T2000,3400A,109.1911,21.4415,北海市,龙潭自来水厂,,16,12,14,3,7,51,,61,54,4,6,4,4,0.4,0.5
2025-06-13T2000,1001A,116.3621,39.8784,北京市,万寿西宫,臭氧1小时,148,111,75,58,27,296,,249,249,23,20,7,7,0.8,0.6
2025-06-13T2000,1002A,116.2202,40.2915,北京市,定陵,,,,,,,,,,,,,,,,
2025-06-13T2000,1003A,116.4174,39.9289,北京市,东四,臭氧1小时,149,113,79,47,24,298,,249,249,27,25,9,8,0.6,0.3
2025-06-13T2000,1004A,116.4072,39.8863,北京市,天坛,臭氧1小时,149,107,74,55,25,298,,246,246,21,19,7,6,0.8,0.6
2025-06-13T2000,1005A,116.462,39.9365,北京市,农展馆,臭氧1小时,137,121,78,55,27,274,,227,227,19,18,10,8,1.3,0.9
2025-06-13T2000,1006A,116.3392,39.9295,北京市,官园,臭氧1小时,134,104,79,53,26,267,,234,234,24,21,5,6,0.8,0.7
2025-06-13T2000,1007A,116.2878,39.9611,北京市,海淀万柳,臭氧1小时,89,86,75,34,25,191,,200,200,27,22,5,6,0.7,0.6
2025-06-13T2000,1008A,116.6636,40.135,北京市,顺义新城,臭氧1小时,112,102,71,55,25,224,,201,201,18,15,5,8,0.7,0.6
2025-06-13T2000,1009A,116.6275,40.3275,北京市,怀柔镇,臭氧1小时,111,102,64,50,23,221,,213,213,18,14,4,7,0.7,0.7
2025-06-13T2000,1010A,116.2296,40.217,北京市,昌平镇,臭氧1小时,108,94,73,45,24,215,,220,220,21,18,6,8,0.3,0.2
2025-06-13T2000,1011A,116.3966,39.9821,北京市,奥体中心,臭氧1小时,104,93,72,38,24,207,,205,205,27,20,6,7,0.9,0.8
2025-06-13T2000,3281A,115.9718,40.4529,北京市,延庆夏都,臭氧1小时,108,72,55,34,24,216,,203,203,13,10,6,6,0.6,0.5
2025-06-13T2000,3418A,116.8336,40.4095,北京市,密云新城,臭氧1小时,110,86,61,45,25,219,,210,210,13,12,6,7,0.5,0.5
2025-06-13T2000,3671A,116.088,39.9726,北京市,门头沟三家店,细颗粒物(PM2.5),73,87,81,53,29,133,,181,181,19,26,3,5,0.5,0.3
2025-06-13T2000,3672A,116.1541,39.8204,北京市,丰台云岗,臭氧1小时,110,94,77,43,25,219,,227,227,18,18,5,8,0.6,0.6
2025-06-13T2000,3673A,116.6804,39.9081,北京市,通州东关,臭氧1小时,141,121,78,61,27,281,,245,245,17,14,12,7,1.4,0.8
2025-06-13T2000,3674A,115.9577,39.7603,北京市,房山燕山,臭氧1小时,84,88,82,42,29,187,,219,219,23,19,3,4,0.6,0.6
2025-06-13T2000,3675A,116.4672,39.7733,北京市,大兴旧宫,臭氧1小时,141,112,76,59,28,282,,239,239,19,19,3,3,0.9,0.7
2025-06-13T2000,3694A,115.986,40.4563,北京市,延庆石河营,臭氧1小时,105,75,53,38,24,209,,200,200,12,9,3,3,0.6,0.5
2025-06-13T2000,3695A,116.6151,40.3053,北京市,怀柔新城,臭氧1小时,110,98,61,53,25,219,,211,211,17,16,4,6,0.6,0.6
2025-06-13T2000,3696A,116.2545,39.8768,北京市,丰台小屯,臭氧1小时,111,96,73,42,25,222,,209,209,21,19,5,5,0.7,0.6
2025-06-13T2000,3697A,116.84,40.3844,北京市,密云镇,臭氧1小时,109,91,61,35,23,217,,202,202,13,15,8,9,0.5,0.6
2025-06-13T2000,4182A,116.1942,39.9158,北京市,八角北路9号,颗粒物(PM10),76,102,84,38,26,178,,212,212,38,23,4,5,0.7,0.6
2025-06-13T2000,4194A,117.0790,40.1518,北京市,洳河巡河路,臭氧1小时,120,108,63,59,23,239,,212,212,10,8,7,9,0.9,0.9
2025-06-13T2000,1761A,123.8275,41.3064,本溪市,大峪,,32,21,23,3,5,102,,119,115,4,6,7,7,0.2,0.2
2025-06-13T2000,1762A,123.7567,41.3325,本溪市,溪湖,,34,30,26,13,10,106,,126,122,13,15,8,11,0.5,1
2025-06-13T2000,1763A,123.7169,41.3094,本溪市,彩屯,,34,34,31,16,15,97,,123,117,29,27,21,19,1.7,1.6
2025-06-13T2000,1764A,123.7669,41.2864,本溪市,东明,,43,43,31,12,9,114,,135,131,11,9,6,7,0.5,0.5
2025-06-13T2000,1765A,123.7992,41.2664,本溪市,新立屯,,34,19,26,15,9,108,,129,123,12,11,6,6,0.4,0.4
2025-06-13T2000,1766A,123.8142,41.3472,本溪市,威宁,,34,19,29,11,11,107,,129,124,9,14,6,6,0.3,0.4
2025-06-13T2000,2587A,105.2864,27.3125,毕节市,八中,,40,37,41,21,25,127,,143,143,10,11,7,6,0.4,0.4
2025-06-13T2000,2588A,105.31,27.2944,毕节市,师专,,46,44,48,20,25,145,,157,157,14,15,6,5,0.4,0.5
2025-06-13T2000,4263A,105.3688,27.3598,毕节市,工业大道,,44,44,43,25,27,132,,154,152,20,21,7,8,0.7,0.7
2025-06-13T2000,1629A,118.0018,37.3617,滨州市,第二水厂,颗粒物(PM10),52,53,67,19,32,126,,164,152,11,22,3,6,0.7,0.6
2025-06-13T2000,1630A,117.9776,37.393,滨州市,北中新校,,46,46,56,19,27,127,,165,153,16,20,12,15,0.6,0.5
2025-06-13T2000,3514A,117.9378,37.3956,滨州市,中海酒店,颗粒物(PM10),52,53,53,22,28,160,,192,179,16,22,7,11,0.8,0.8
2025-06-13T2000,3515A,117.9378,37.3553,滨州市,开发区一中,颗粒物(PM10),51,51,72,19,28,141,,183,170,15,28,10,12,0.5,0.6
2025-06-13T2000,3516A,118.0917,37.694,滨州市,金海六路,颗粒物(PM10),51,51,58,9,19,121,,176,164,16,17,17,12,0.3,0.2
2025-06-13T2000,4028A,117.9956,37.3753,滨州市,滨州市西街道办事处,颗粒物(PM10),51,51,61,22,31,136,,176,164,13,19,6,8,0.6,0.5
2025-06-13T2000,2311A,115.8072,33.8399,亳州市,污水处理厂,臭氧1小时,75,41,31,17,20,180,,187,187,8,7,5,4,0.5,0.6
2025-06-13T2000,2312A,115.7789,33.8518,亳州市,三国揽胜宫,臭氧1小时,89,34,41,27,24,191,,185,185,12,9,3,3,0.4,0.5
2025-06-13T2000,3332A,115.7633,33.8034,亳州市,亳州学院,臭氧1小时,82,35,29,26,27,185,,191,191,15,8,2,2,0.3,0.5
2025-06-13T2000,2693A,82.0485,44.8556,博尔塔拉蒙古自治州,市党校,,40,30,29,14,13,126,,125,125,11,11,2,3,0.2,0.2
2025-06-13T2000,2694A,82.0806,44.8969,博尔塔拉蒙古自治州,市环保局,,39,26,36,13,13,122,,117,117,5,10,2,2,0.4,0.4
2025-06-13T2000,1071A,116.8842,38.2991,沧州市,沧县城建局,细颗粒物(PM2.5),73,94,88,53,43,152,,205,200,18,28,6,5,0.6,0.5
2025-06-13T2000,1072A,116.8584,38.3254,沧州市,电视转播站,颗粒物(PM10),60,70,86,27,45,145,,188,185,26,22,8,6,0.8,0.5
2025-06-13T2000,1073A,116.8709,38.3228,沧州市,市环保局,颗粒物(PM10),94,138,103,40,45,134,,185,181,26,23,7,4,0.7,0.4
2025-06-13T2000,3324A,116.8136,38.3004,沧州市,河北水利电力学院,臭氧1小时,78,83,107,30,39,182,,221,218,17,24,6,5,0.5,0.4
2025-06-13T2000,2622A,97.1806,31.1273,昌都市,昌都监测站,颗粒物(PM10),90,129,20,13,10,109,,115,115,5,5,4,4,0.2,0.2
2025-06-13T2000,3719A,97.1714,31.1406,昌都市,昌都会议中心,,36,17,19,11,12,114,,116,116,2,6,4,4,0.2,0.2
2025-06-13T2000,2690A,88.1236,43.8886,昌吉回族自治州,天山天池,,37,18,12,3,5,118,,120,120,5,5,5,4,0.5,0.5
2025-06-13T2000,2692A,87.2717,44.0297,昌吉回族自治州,新区政务中心,,45,16,24,6,9,143,,139,139,4,10,11,9,0.3,0.4
2025-06-13T2000,3613A,87.3095,44.0142,昌吉回族自治州,亚心广场,,45,29,33,3,12,141,,130,130,7,18,10,9,0.2,0.3
2025-06-13T2000,1120A,125.2863,43.9027,长春市,客车厂,,41,33,32,17,15,131,,160,158,25,22,7,8,0.3,0.4
2025-06-13T2000,1121A,125.2841,43.8463,长春市,邮电学院,,43,34,32,15,13,135,,168,166,25,18,8,8,0.4,0.4
2025-06-13T2000,1122A,125.3716,43.8772,长春市,劳动公园,,44,39,35,12,8,140,,170,168,20,19,8,8,0.7,0.6
2025-06-13T2000,1123A,125.3297,43.8805,长春市,园林处,,42,38,31,14,10,132,,167,164,25,17,8,8,0.6,0.5
2025-06-13T2000,1124A,125.4605,43.79,长春市,净月潭,,45,34,33,14,10,142,,174,172,20,16,7,7,0.4,0.3
2025-06-13T2000,1125A,125.7194,43.515,长春市,甩湾子,,,,,,,,,,,,,,,,
2025-06-13T2000,1126A,125.3863,43.8447,长春市,经开区环卫处,,44,44,41,16,11,132,,164,162,27,19,7,8,0.3,0.2
2025-06-13T2000,1127A,125.245,43.7783,长春市,高新区管委会,,40,32,32,18,13,127,,168,165,25,19,6,6,0.5,0.4
2025-06-13T2000,1128A,125.1761,43.8325,长春市,岱山公园,,40,28,31,12,13,128,,156,154,25,23,5,6,0.2,0.3
2025-06-13T2000,4281A,125.3346,43.9164,长春市,北亚泰大街1068号,,33,,17,18,16,105,,138,131,28,19,4,5,0.4,0.5
2025-06-13T2000,1335A,113.0833,28.2325,长沙市,经开区环保局,,42,26,24,24,15,132,,132,132,12,16,4,4,0.6,0.5
2025-06-13T2000,1336A,112.8872,28.2189,长沙市,高开区环保局,颗粒物(PM10),51,52,39,28,20,153,,150,150,9,18,3,3,1.2,0.9
2025-06-13T2000,1337A,113.0792,28.2053,长沙市,马坡岭,,41,33,29,23,19,129,,133,133,9,15,4,5,0.7,0.7
2025-06-13T2000,1338A,112.9394,28.19,长沙市,湖南师范大学,,46,39,37,30,19,147,,155,155,11,17,3,2,0.9,0.6
2025-06-13T2000,1339A,113.0178,28.1322,长沙市,雨花区环保局,,46,36,30,17,14,146,,144,144,5,12,5,5,0.6,0.7
2025-06-13T2000,1340A,112.9792,28.2597,长沙市,伍家岭,臭氧1小时,58,52,33,17,15,166,,148,148,14,16,5,2,1.1,0.6
2025-06-13T2000,1341A,113.0014,28.1944,长沙市,火车新站,,50,50,33,22,16,121,,138,138,15,20,8,7,0.7,0.7
2025-06-13T2000,1342A,112.9844,28.1178,长沙市,天心区环保局,,44,26,32,18,18,140,,158,158,14,21,3,2,0.6,0.7
2025-06-13T2000,1343A,112.8908,28.1308,长沙市,湖南中医药大学,,38,38,37,23,20,118,,150,149,12,15,4,3,1.0,0.7
2025-06-13T2000,1344A,112.9581,28.3611,长沙市,沙坪,,45,35,25,17,11,144,,138,138,16,9,5,4,1.2,0.6
2025-06-13T2000,1727A,113.1147,36.1547,长治市,清华站,,48,39,42,19,21,152,,195,183,11,11,6,6,1.1,0.7
2025-06-13T2000,1730A,113.0886,36.2125,长治市,审计局,,45,29,42,12,21,143,,193,176,12,11,8,9,0.9,0.7
2025-06-13T2000,1731A,113.0844,36.1856,长治市,长治八中,,47,,48,31,29,149,,193,181,9,9,9,11,1.2,0.8
2025-06-13T2000,2845A,113.1569,36.1911,长治市,德盛苑,,46,23,42,14,23,146,,187,174,8,10,6,7,0.9,0.7
2025-06-13T2000,3568A,113.06,36.0464,长治市,向阳小学,颗粒物(PM10),54,58,72,19,30,139,,190,181,10,13,4,6,0.6,0.7
2025-06-13T2000,3569A,112.8792,36.3144,长治市,屯留一中,,43,25,36,23,34,137,,183,168,17,16,5,6,0.3,0.4
2025-06-13T2000,4189A,113.1131,36.19948,长治市,英华南巷50号,,,31,44,22,24,138,,190,173,,5,,8,1.0,0.5
2025-06-13T2000,4190A,113.2367,36.3344,长治市,学府街1号,颗粒物(PM10),51,51,64,18,28,155,,221,206,11,17,4,7,0.8,0.8
2025-06-13T2000,1854A,111.6975,28.9703,常德市,市二中,,20,15,24,7,20,63,,86,75,15,10,6,8,0.8,0.8
2025-06-13T2000,1857A,111.7158,29.1456,常德市,白鹤山,,,,,,,,,,,,,,,,
2025-06-13T2000,3138A,111.7153,29.0289,常德市,武陵区永安,,22,22,27,11,19,69,,93,83,7,8,3,5,0.5,0.7
2025-06-13T2000,3139A,111.6892,28.9881,常德市,鼎城区玉霞,,24,24,27,13,19,71,,95,85,9,10,6,7,0.5,0.6
2025-06-13T2000,3140A,111.6625,29.0531,常德市,武陵区长庚,,23,17,25,11,17,72,,93,86,10,9,3,6,0.5,0.6
2025-06-13T2000,1196A,119.9633,31.762,常州市,市监测站,,23,22,27,16,15,56,,78,78,36,27,10,8,0.9,0.7
2025-06-13T2000,1200A,119.9468,31.7069,常州市,武进监测站,,,16,20,8,9,82,,85,85,13,19,,7,0.7,0.8
2025-06-13T2000,1201A,119.9255,31.9087,常州市,安家,,20,20,26,11,15,37,,66,65,32,20,4,5,0.4,0.4
2025-06-13T2000,3002A,119.9805,31.8174,常州市,行政中心,,23,17,23,16,12,55,,79,79,33,25,9,8,0.2,0.3
2025-06-13T2000,3003A,120.0522,31.7748,常州市,经开区,,22,19,26,6,12,70,,83,83,17,25,5,5,0.2,0.2
2025-06-13T2000,3010A,119.9025,31.7964,常州市,钟楼,,23,20,25,16,11,57,,84,84,35,22,5,6,0.4,0.6
2025-06-13T2000,3429A,119.8598,31.7066,常州市,武进经发区,,24,6,17,3,7,76,,83,83,8,15,4,4,0.7,0.8
2025-06-13T2000,3430A,119.5826,31.7245,常州市,金坛城区,,32,,12,7,9,100,,91,91,10,12,6,6,0.3,0.4
2025-06-13T2000,2220A,120.4318,41.5881,朝阳市,西梁,,45,36,26,31,10,124,,135,134,12,10,9,8,0.4,0.4
2025-06-13T2000,2221A,120.4521,41.5646,朝阳市,河畔小区,,40,26,27,11,12,128,,145,141,12,9,7,7,0.4,0.3
2025-06-13T2000,2222A,120.4176,41.5648,朝阳市,八里堡,,40,40,33,27,14,123,,145,141,17,15,6,6,0.4,0.4
2025-06-13T2000,2223A,120.3806,41.5969,朝阳市,农业园区,,38,29,26,15,11,121,,138,135,14,14,4,5,0.3,0.4
2025-06-13T2000,1705A,116.6367,23.6719,潮州市,西园路,,19,,22,13,13,25,,62,49,20,11,4,3,0.8,0.7
2025-06-13T2000,3026A,116.6183,23.6608,潮州市,市政府,,17,17,21,9,10,30,,62,51,18,9,5,4,0.7,0.6
2025-06-13T2000,4036A,116.6461,23.6761,潮州市,金山,,19,19,22,10,16,27,,64,52,7,5,8,8,0.7,0.6
2025-06-13T2000,2472A,113.0073,25.9061,郴州市,马头岭,,16,16,28,7,13,31,,64,60,11,9,6,7,0.3,0.4
2025-06-13T2000,2473A,113.0116,25.8226,郴州市,市职中,,24,24,27,15,24,41,,72,68,6,7,1,2,0.2,0.3
2025-06-13T2000,2475A,113.0383,25.8071,郴州市,市审计局,,26,23,29,18,23,44,,66,65,5,6,2,3,0.5,0.6
2025-06-13T2000,2476A,113.0348,25.7759,郴州市,市环保局,,36,36,38,3,25,43,,80,72,11,10,2,5,0.1,0.2
2025-06-13T2000,4252A,113.0138,25.8011,郴州市,好美居路49号,,19,,32,7,21,60,,84,83,9,7,4,4,0.6,0.7
2025-06-13T2000,1431A,103.9728,30.7236,成都市,金泉两河,臭氧1小时,99,40,57,37,32,199,,210,210,9,29,3,5,0.7,0.8
2025-06-13T2000,1432A,104.176,30.6872,成都市,十里店,臭氧1小时,99,58,45,32,23,199,,217,216,13,19,5,7,0.6,0.6
2025-06-13T2000,1433A,104.079,30.5706,成都市,三瓦窑,臭氧1小时,78,60,50,44,28,182,,194,192,27,37,4,5,0.6,0.7
2025-06-13T2000,1434A,104.1114,30.63,成都市,沙河铺,细颗粒物(PM2.5),67,51,43,48,26,165,,182,180,13,18,4,15,0.6,0.6
2025-06-13T2000,1437A,104.0786,30.6531,成都市,君平街,细颗粒物(PM2.5),65,60,51,47,30,170,,166,166,18,26,5,6,0.5,0.6
2025-06-13T2000,1438A,103.613,31.0283,成都市,灵岩寺,,,,,,,,,,,,,,,,
2025-06-13T2000,2880A,104.0239,30.65639,成都市,大石西路,臭氧1小时,85,62,55,42,31,188,,200,200,16,26,5,6,0.6,0.7
2025-06-13T2000,3136A,104.2725,30.5589,成都市,龙泉驿区区政府,臭氧1小时,58,39,36,22,20,166,,193,190,11,12,5,6,0.7,0.7
2025-06-13T2000,3357A,104.0106,30.6931,成都市,金博路,臭氧1小时,80,48,48,28,26,184,,198,198,15,35,9,10,0.6,0.8
2025-06-13T2000,3359A,104.0578,30.5225,成都市,华阳,,49,36,41,27,29,155,,180,176,14,21,7,8,0.7,0.8
2025-06-13T2000,3488A,104.3853,30.7453,成都市,青白江技师分院,颗粒物(PM10),72,94,50,47,27,169,,227,222,40,26,6,7,0.6,0.5
2025-06-13T2000,3489A,104.0789,30.4072,成都市,科学城,,,88,42,39,29,188,,192,192,10,16,4,5,,0.5
2025-06-13T2000,4011A,103.8506,30.6947,成都市,光华大道三段,臭氧1小时,83,57,62,43,37,186,,212,209,16,22,5,6,0.7,0.8
2025-06-13T2000,4224A,104.2433,30.5353,成都市,鲸龙路1057号,臭氧1小时,79,50,78,28,26,183,,197,197,18,20,8,8,0.6,0.7
2025-06-13T2000,1062A,117.9531,40.9081,承德市,铁路,颗粒物(PM10),54,58,49,29,20,119,,154,154,32,16,3,6,0.9,0.6
2025-06-13T2000,1063A,117.9392,40.9763,承德市,中国银行,,45,42,44,29,18,144,,166,166,20,12,3,4,0.6,0.4
2025-06-13T2000,1064A,117.9503,40.928,承德市,开发区,,45,34,49,26,22,143,,163,163,15,15,4,6,0.7,0.6
2025-06-13T2000,1065A,117.8051,40.9655,承德市,文化中心,颗粒物(PM10),51,52,47,30,19,147,,172,172,13,14,2,10,0.4,0.5
2025-06-13T2000,1066A,117.9268,41.0026,承德市,离宫,,47,47,36,22,24,121,,162,162,12,9,3,3,0.5,0.4
2025-06-13T2000,2314A,117.47,30.6618,池州市,池州学院,,43,32,43,22,33,135,,137,137,7,13,6,7,0.5,0.6
2025-06-13T2000,3237A,117.4918,30.6617,池州市,展览馆,,32,26,42,18,28,102,,136,133,6,13,4,5,0.6,0.7
2025-06-13T2000,3333A,117.5627,30.695,池州市,第八中学,,38,24,37,15,25,121,,134,133,5,10,4,7,0.6,0.7
2025-06-13T2000,3334A,117.5038,30.6243,池州市,第十二中学,,33,32,39,23,28,103,,142,138,22,12,4,4,0.8,0.9
2025-06-13T2000,1744A,118.9233,42.2816,赤峰市,松山一中,,31,31,27,14,15,88,,172,133,52,20,6,6,1.0,0.6
2025-06-13T2000,1745A,118.9576,42.2728,赤峰市,哈达街,,26,26,31,18,20,76,,133,107,48,22,11,12,0.8,0.6
2025-06-13T2000,1746A,118.8788,42.2554,赤峰市,天义路,,34,32,27,23,21,52,,147,110,67,18,8,8,0.7,0.4
2025-06-13T2000,3058A,119.2658,42.0353,赤峰市,银河街,,48,48,34,26,22,121,,129,127,19,12,16,14,0.9,0.8
2025-06-13T2000,3286A,118.9359,42.3147,赤峰市,桥北物流园区,,43,43,24,22,15,49,,114,98,70,18,8,9,1.0,0.9
2025-06-13T2000,2521A,107.3476,22.4136,崇左市,市环保局江州分局,,26,26,17,7,7,53,,75,73,14,7,6,6,0.5,0.5
2025-06-13T2000,4256A,107.3750,22.3736,崇左市,石景林东路7号,,22,22,18,7,7,48,,83,80,19,10,2,2,0.5,0.4
2025-06-13T2000,2298A,118.3093,32.3153,滁州市,老年大学,,31,28,50,20,38,98,,114,114,20,21,6,7,0.3,0.5
2025-06-13T2000,2299A,118.3244,32.2786,滁州市,人大宾馆,,29,22,38,14,42,92,,110,110,9,18,4,4,0.3,0.5
2025-06-13T2000,3207A,118.3118,32.3038,滁州市,市政府原办公楼,,40,36,42,28,48,101,,115,115,11,16,4,4,0.4,0.6
2025-06-13T2000,3331A,118.3267,32.2634,滁州市,图书馆,,30,26,38,20,37,94,,104,104,8,16,9,8,0.4,0.6
2025-06-13T2000,2605A,101.5482,25.0441,楚雄彝族自治州,州环境监测站,,40,35,40,21,29,128,,150,148,9,22,10,11,0.5,0.5
2025-06-13T2000,2606A,101.538,25.0492,楚雄彝族自治州,市经济开发区,颗粒物(PM10),55,59,39,24,28,118,,148,145,14,19,6,8,0.5,0.5
2025-06-13T2000,2548A,107.5277,31.2827,达州市,达州职业技术学院,颗粒物(PM10),52,53,47,16,18,52,,159,148,75,26,6,7,0.6,0.8
2025-06-13T2000,2549A,107.5086,31.2186,达州市,市环境监测站,,38,38,47,17,17,98,,170,164,42,32,5,7,0.7,0.5
2025-06-13T2000,2550A,107.4988,31.2132,达州市,凤凰小区,,44,44,45,22,21,118,,174,170,32,28,8,8,0.7,0.6
2025-06-13T2000,2551A,107.5082,31.1986,达州市,达县机关宾馆,,44,44,46,26,15,96,,168,161,46,36,6,7,0.6,0.6
2025-06-13T2000,2552A,107.4644,31.2124,达州市,市政中心,,41,41,49,14,19,92,,145,140,34,31,2,4,0.6,0.6
2025-06-13T2000,2614A,100.1542,25.7054,大理白族自治州,大理市环境监测站,,39,30,31,27,21,118,,128,127,10,12,6,6,0.4,0.4
2025-06-13T2000,2615A,100.2171,25.5811,大理白族自治州,大理古城,,38,,24,26,21,98,,130,125,19,12,9,9,0.7,0.7
2025-06-13T2000,1109A,121.612,38.9741,大连市,甘井子,,26,16,22,14,12,81,,85,82,17,23,3,6,0.3,0.3
2025-06-13T2000,1110A,121.565,38.9511,大连市,周水子,,29,24,21,20,12,71,,99,86,19,18,8,8,0.3,0.3
2025-06-13T2000,1111A,121.5637,38.8845,大连市,星海三站,,30,24,22,16,10,95,,91,91,9,12,4,5,0.3,0.3
2025-06-13T2000,1112A,121.6302,38.9117,大连市,青泥洼桥,,32,25,15,22,12,83,,90,88,13,16,6,7,0.4,0.3
2025-06-13T2000,1113A,121.6251,38.8638,大连市,傅家庄,,29,15,19,9,10,91,,90,90,12,18,7,7,0.1,0.1
2025-06-13T2000,1114A,121.5213,38.8661,大连市,七贤岭,,31,23,21,16,10,98,,100,100,12,16,8,9,0.4,0.4
2025-06-13T2000,1115A,121.2529,38.8061,大连市,旅顺,,28,18,18,8,9,89,,85,85,9,15,5,5,0.2,0.2
2025-06-13T2000,1116A,121.7485,39.1311,大连市,金州,,30,20,20,8,8,93,,109,101,10,14,7,8,0.2,0.2
2025-06-13T2000,1117A,121.7811,39.0496,大连市,开发区,,,,20,,10,91,,100,91,,22,,4,0.4,0.3
2025-06-13T2000,1118A,121.9762,39.0631,大连市,双D港,,30,,13,14,8,96,,98,98,4,15,6,7,0.3,0.3
2025-06-13T2000,1789A,124.81117,46.03138,大庆市,大同区,,33,33,42,23,25,88,,112,103,17,14,7,6,0.7,0.5
2025-06-13T2000,1790A,125.129,46.533,大庆市,龙凤区,,33,24,38,23,22,100,,129,114,11,13,5,6,0.5,0.6
2025-06-13T2000,1791A,124.902,46.408,大庆市,红岗区,,31,27,35,19,28,99,,123,112,8,10,10,10,0.7,0.6
2025-06-13T2000,1792A,125.153,46.586,大庆市,萨尔图区,,36,32,43,25,25,82,,109,96,14,16,8,9,0.5,0.5
2025-06-13T2000,1793A,124.9042,46.6215,大庆市,让胡路区,,40,30,34,28,26,86,,114,98,13,14,4,4,0.6,0.5
2025-06-13T2000,3481A,125.141,46.634,大庆市,萨区政府监测点,,50,50,49,17,19,98,,126,114,12,13,8,8,0.5,0.5
2025-06-13T2000,1721A,113.3819,40.1097,大同市,果树场,,,,,,,,,,,,,,,,
2025-06-13T2000,1723A,113.2994,40.0758,大同市,云冈宾馆,,42,20,29,10,15,134,,148,144,13,12,5,6,0.4,0.5
2025-06-13T2000,1724A,113.3444,40.0917,大同市,大同大学,,43,19,23,15,14,137,,153,146,13,11,18,16,0.4,0.5
2025-06-13T2000,1725A,113.2661,40.1269,大同市,安家小村,,39,28,26,3,6,124,,147,139,13,12,5,5,0.3,0.6
2025-06-13T2000,1726A,113.2711,40.0844,大同市,教育学院,,40,32,26,13,15,125,,144,137,18,13,7,7,0.4,0.5
2025-06-13T2000,3282A,113.3397,40.0597,大同市,大同市卫生学校,,,,26,,14,132,,142,138,13,11,9,9,,0.7
2025-06-13T2000,3565A,113.1367,40.1122,大同市,云冈站,,37,16,27,3,17,118,,137,130,9,12,4,6,0.5,0.3
2025-06-13T2000,3566A,113.1186,40.2556,大同市,图书馆,,36,16,26,15,14,113,,146,137,13,8,8,7,0.6,0.6
2025-06-13T2000,3567A,113.5931,40.0461,大同市,区一中,,40,,25,16,19,125,,160,151,10,9,11,11,0.4,0.4
2025-06-13T2000,4199A,113.2798,40.0997,大同市,魏都大道141号,,40,24,29,10,17,126,,147,140,16,12,7,6,0.3,0.5
2025-06-13T2000,2269A,124.1069,50.4097,大兴安岭地区,科技局,,33,33,22,8,10,68,,77,76,4,4,6,6,0.2,0.2
2025-06-13T2000,3663A,124.1164,50.4278,大兴安岭地区,红旗社区,,22,6,6,3,6,69,,80,78,6,4,5,5,0.4,0.4
2025-06-13T2000,1600A,124.3303,40.0625,丹东市,江湾东路,,33,33,34,23,19,83,,111,107,16,17,36,11,0.6,0.6
2025-06-13T2000,1601A,124.4256,40.1503,丹东市,临江后街,颗粒物(PM10),57,63,58,9,10,81,,111,106,17,15,9,9,0.7,0.7
2025-06-13T2000,1602A,124.3933,40.1461,丹东市,元宝山,,28,28,42,14,15,89,,109,105,13,16,8,9,0.4,0.6
2025-06-13T2000,1603A,124.3633,40.1092,丹东市,民主桥,,27,27,32,12,13,86,,113,108,7,16,11,10,0.9,0.9
2025-06-13T2000,3541A,109.5726,19.5167,儋州市,第一中学子站,,15,6,6,3,1,46,,46,46,1,1,6,5,0.4,0.5
2025-06-13T2000,3542A,109.5567,19.5187,儋州市,东坡学校子站,,16,16,8,3,2,48,,48,48,1,1,6,6,0.4,0.5
2025-06-13T2000,2616A,98.5842,24.428,德宏傣族景颇族自治州,德宏州监测站,,49,49,41,23,27,101,,119,119,12,10,7,7,0.6,0.7
2025-06-13T2000,3677A,98.5881,24.4368,德宏傣族景颇族自治州,芒市人民政府综合楼,,49,49,50,24,26,106,,119,119,10,9,7,8,0.5,0.6
2025-06-13T2000,1901A,104.4239,31.1208,德阳市,东山公园,臭氧1小时,126,53,55,37,34,252,,224,224,26,19,7,7,0.8,0.9
2025-06-13T2000,1902A,104.3826,31.1317,德阳市,西小区,臭氧1小时,121,62,70,39,42,242,,234,234,20,27,4,7,0.7,0.8
2025-06-13T2000,1904A,104.3553,31.1091,德阳市,耐火材料厂,臭氧1小时,127,61,76,37,44,254,,265,265,23,28,7,9,0.6,0.7
2025-06-13T2000,3639A,104.4019,31.1244,德阳市,市教育局,臭氧1小时,134,59,60,40,37,268,,251,251,14,23,7,9,0.9,0.9
2025-06-13T2000,1622A,116.3032,37.4674,德州市,儿童乐园,臭氧1小时,99,83,96,27,25,199,,210,210,11,9,7,9,0.6,0.5
2025-06-13T2000,1624A,116.2991,37.4451,德州市,监理站,臭氧1小时,101,70,86,27,21,201,,207,207,9,11,8,10,0.3,0.4
2025-06-13T2000,3066A,116.2721,37.4379,德州市,九衢泉纯净水厂,臭氧1小时,72,68,88,34,25,177,,192,192,13,19,9,10,0.5,0.6
2025-06-13T2000,3371A,116.3728,37.4403,德州市,开发区人民医院,臭氧1小时,67,75,90,24,21,173,,197,196,26,17,8,10,0.5,0.7
2025-06-13T2000,3372A,116.3572,37.4094,德州市,太阳城中学,臭氧1小时,92,119,101,29,25,193,,204,204,19,17,6,7,0.5,0.5
2025-06-13T2000,3511A,116.5652,37.3319,德州市,陵城艺术中心,臭氧1小时,78,90,94,22,22,182,,201,201,18,15,8,7,0.5,0.5
2025-06-13T2000,2621A,99.7056,27.8317,迪庆藏族自治州,迪庆州站,,29,20,24,9,15,90,,112,109,15,8,6,6,0.7,0.4
2025-06-13T2000,3180A,99.7136,27.8094,迪庆藏族自治州,质量技术监督局,,28,23,22,15,10,88,,114,110,17,12,6,6,0.4,0.4
2025-06-13T2000,4257A,104.6092,35.5962,定西市,将台街,,,,38,,16,,,155,155,,12,,5,,0.2
2025-06-13T2000,4309A,104.6159,35.5701,定西市,正龙路62号,颗粒物(PM10),76,102,37,33,17,120,,151,149,10,9,7,8,0.3,0.2
2025-06-13T2000,1389A,113.7547,23.0494,东莞市,莞城梨川,,23,23,14,14,10,29,,73,61,27,14,6,6,0.4,0.3
2025-06-13T2000,1390A,113.7944,23.0128,东莞市,东城石井,,19,19,15,10,7,15,,57,45,33,19,2,2,0.7,0.6
2025-06-13T2000,1391A,113.7383,22.9658,东莞市,南城西平,,16,16,15,8,8,25,,54,42,27,22,3,3,0.5,0.5
2025-06-13T2000,3319A,113.7338,23.0381,东莞市,万江金泰,,16,16,14,7,6,22,,59,48,24,14,2,3,0.7,0.7
2025-06-13T2000,3626A,113.7533,23.0202,东莞市,南城元岭,,16,16,12,10,8,25,,64,52,28,16,4,5,0.6,0.6
2025-06-13T2000,3627A,113.7875,23.0457,东莞市,东城主山,,24,24,15,11,7,22,,67,55,30,15,6,6,0.7,0.6
2025-06-13T2000,1666A,118.6614,37.4309,东营市,市环保局,,27,27,34,12,10,82,,116,112,16,17,6,7,0.3,0.5
2025-06-13T2000,3036A,118.6904,37.4338,东营市,开发区管委会,,34,34,39,3,9,98,,140,137,19,16,6,6,0.3,0.4
2025-06-13T2000,3365A,118.5719,37.565,东营市,垦利区民丰路,,33,27,35,7,9,105,,144,140,18,18,8,9,0.5,0.6
2025-06-13T2000,3498A,118.5055,37.8612,东营市,河口城区,,38,19,36,3,9,121,,164,157,15,17,15,16,0.7,0.8
2025-06-13T2000,3646A,118.4978,37.4623,东营市,胜利站,,36,30,45,3,13,113,,142,139,17,19,8,9,0.7,0.7
2025-06-13T2000,3734A,118.35,37.26,东营市,理想之城,,33,27,37,12,14,105,,140,137,16,18,5,6,0.6,0.6
2025-06-13T2000,1591A,110.0023,39.8129,鄂尔多斯市,综合楼,,34,24,24,7,10,106,,115,114,16,13,2,2,0.4,0.4
2025-06-13T2000,1592A,109.9486,39.8261,鄂尔多斯市,巴音孟克林场办事处,,37,24,37,7,13,116,,121,120,13,16,6,6,0.3,0.3
2025-06-13T2000,1593A,109.7736,39.5986,鄂尔多斯市,康泽苑,,39,22,34,7,10,123,,129,128,10,10,4,4,0.3,0.2
2025-06-13T2000,1594A,109.8119,39.5989,鄂尔多斯市,华泰汽车城,,30,22,34,7,11,96,,118,115,21,16,3,3,0.4,0.4
2025-06-13T2000,1595A,109.9734,39.7884,鄂尔多斯市,奥林花园,,35,24,35,3,12,111,,117,116,12,18,7,7,0.4,0.5
2025-06-13T2000,2436A,114.8938,30.3994,鄂州市,市政府,,29,29,47,12,22,82,,141,132,19,15,6,9,0.8,1
2025-06-13T2000,2437A,114.8989,30.3714,鄂州市,赵家坝,,29,18,39,7,17,92,,142,136,8,13,8,9,1.0,1.1
2025-06-13T2000,3654A,114.8094,30.4089,鄂州市,精准医疗中心,,32,15,35,3,20,101,,116,110,2,20,4,8,0.7,1.2
2025-06-13T2000,2454A,109.4978,30.2981,恩施土家族苗族自治州,湖北民院,,45,38,40,17,25,142,,166,166,12,12,5,5,0.4,0.3
2025-06-13T2000,2455A,109.4707,30.2798,恩施土家族苗族自治州,州电力总公司,,39,28,38,22,22,123,,154,153,8,14,7,7,0.2,0.2
2025-06-13T2000,3549A,109.5061,30.3772,恩施土家族苗族自治州,龙凤新区,,38,38,33,22,26,112,,172,168,12,8,6,8,0.4,0.5
2025-06-13T2000,2499A,108.3411,21.6158,防城港市,沙万,,,,18,,12,,,54,,,8,,2,,0.5
2025-06-13T2000,2500A,108.3514,21.7731,防城港市,防城档案局,,25,24,28,17,12,31,,57,50,15,11,1,2,0.6,0.6
2025-06-13T2000,2501A,108.3506,21.6414,防城港市,大海花园,,22,22,17,8,10,40,,61,53,17,9,7,3,0.9,0.7
2025-06-13T2000,1371A,113.1294,23.0067,佛山市,湾梁,,22,22,17,12,8,34,,53,50,22,24,8,8,0.7,0.7
2025-06-13T2000,1372A,113.1083,23.0478,佛山市,华材职中,,15,14,10,6,5,45,,72,66,14,17,6,6,0.4,0.5
2025-06-13T2000,1373A,113.144,23.0453,佛山市,南海气象局,,,36,19,8,7,31,,50,47,,21,,2,0.5,0.4
2025-06-13T2000,1374A,113.2881,22.8094,佛山市,顺德苏岗,,24,24,15,7,5,36,,46,44,15,18,6,7,0.8,0.8
2025-06-13T2000,1376A,112.8383,22.8678,佛山市,高明孔堂,,26,26,19,7,12,37,,78,74,9,16,5,6,0.6,0.6
2025-06-13T2000,1377A,112.8836,23.1588,佛山市,三水监测站,,20,14,12,14,9,16,,58,54,40,26,3,3,0.5,0.5
2025-06-13T2000,1378A,112.867,23.185,佛山市,三水云东海,,,25,28,10,17,23,,57,53,,22,1,3,0.5,0.4
2025-06-13T2000,3625A,113.2544,22.7642,佛山市,容桂街道办,,19,19,8,7,8,39,,54,52,18,20,5,5,0.7,0.6
2025-06-13T2000,1280A,119.3903,26.0543,福州市,鼓山,,,,10,,4,,,46,,,3,,2,,0.1
2025-06-13T2000,1282A,119.2681,26.0504,福州市,师大,,18,18,13,3,1,18,,56,44,25,7,4,4,0.3,0.2
2025-06-13T2000,1283A,119.2984,26.1028,福州市,五四北路,,21,21,13,7,3,24,,60,48,21,8,3,3,0.5,0.4
2025-06-13T2000,1284A,119.2648,26.0768,福州市,杨桥西路,,20,20,13,8,1,16,,67,47,29,10,3,3,0.4,0.2
2025-06-13T2000,1285A,119.317,26.0746,福州市,紫阳,,13,13,16,3,3,27,,50,42,18,12,5,5,0.3,0.2
2025-06-13T2000,3048A,119.5799,26.0936,福州市,九龙,,14,12,17,3,5,42,,75,66,8,5,4,4,0.2,0.2
2025-06-13T2000,3526A,119.5189,25.9664,福州市,吴航,,13,9,18,3,7,40,,63,60,6,5,4,4,0.4,0.4
2025-06-13T2000,1755A,123.7977,41.8491,抚顺市,望花区,,48,48,38,14,12,107,,146,137,29,22,6,8,0.4,0.6
2025-06-13T2000,1756A,123.9161,41.8822,抚顺市,顺城区,,38,33,34,9,12,120,,152,144,13,18,7,10,0.4,0.6
2025-06-13T2000,1757A,124.0436,41.8611,抚顺市,东洲区,,36,28,29,10,12,114,,148,142,14,16,8,10,0.6,0.5
2025-06-13T2000,1758A,123.9247,41.8642,抚顺市,新抚区,,36,36,38,12,14,112,,152,145,16,18,8,10,0.4,0.6
2025-06-13T2000,1759A,124.0972,41.8961,抚顺市,大伙房水库,,37,25,24,8,11,117,,144,138,8,10,9,9,0.2,0.3
2025-06-13T2000,1760A,123.7086,41.8391,抚顺市,沈抚新城,,34,34,31,11,11,106,,140,133,21,22,8,12,0.6,0.8
2025-06-13T2000,2376A,116.2127,28.0814,抚州市,桐源党溪,,27,27,32,17,18,53,,88,81,2,2,3,4,0.8,1
2025-06-13T2000,2377A,116.3544,27.9831,抚州市,市站,,,39,31,21,20,95,,107,106,3,4,,1,,1
2025-06-13T2000,2378A,116.3565,27.963,抚州市,血防站,,32,32,35,22,22,82,,95,94,4,3,3,3,0.6,0.6
2025-06-13T2000,2379A,116.3564,28.0007,抚州市,采茶剧团,,33,33,32,18,17,80,,102,100,4,2,3,3,0.3,0.4
2025-06-13T2000,2380A,116.385,27.9647,抚州市,医学分院,,41,41,33,22,17,88,,108,107,1,2,6,5,0.6,0.9
2025-06-13T2000,2207A,121.6094,41.998,阜新市,工业园区,,45,38,48,9,9,144,,144,144,10,13,9,13,0.3,0.4
2025-06-13T2000,2208A,121.6697,42.0279,阜新市,长青街,,41,27,36,24,11,131,,134,134,16,13,11,11,0.4,0.4
2025-06-13T2000,2209A,121.6673,42.0705,阜新市,农业园区,,45,22,33,7,8,144,,140,140,12,13,4,7,0.4,0.5
2025-06-13T2000,2210A,121.6717,42.0224,阜新市,东苑,,42,36,43,16,10,134,,136,136,17,14,10,11,0.4,0.4
2025-06-13T2000,2211A,121.6506,42.0498,阜新市,玉龙新城,,45,27,34,10,7,141,,136,136,8,12,7,11,0.4,0.5
2025-06-13T2000,2301A,115.8277,32.8929,阜阳市,市监测站,,42,42,44,14,28,123,,149,147,17,11,3,3,0.4,0.4
2025-06-13T2000,2303A,115.8554,32.8605,阜阳市,开发区,,,52,53,,18,126,,149,148,12,12,4,5,0.3,0.3
2025-06-13T2000,2875A,115.784,32.8892,阜阳市,阜阳职业技术学院,,45,35,34,9,23,143,,158,157,11,9,4,4,0.4,0.5
2025-06-13T2000,3468A,115.7901,32.8613,阜阳市,市规划展馆,,38,27,49,7,33,121,,148,146,12,10,2,3,0.3,0.4
2025-06-13T2000,3469A,115.836,32.9183,阜阳市,枣园社区,,40,40,55,16,34,110,,146,144,21,10,3,4,0.5,0.6
2025-06-13T2000,2669A,102.9099,34.9841,甘南藏族自治州,州政府,,37,29,36,15,20,118,,120,120,7,18,4,4,0.3,0.3
2025-06-13T2000,3380A,102.8914,34.9617,甘南藏族自治州,甘肃民族师范学院,,46,46,53,7,16,103,,106,106,10,18,8,8,0.3,0.4
2025-06-13T2000,2570A,101.9603,30.0475,甘孜藏族自治州,水桥子,,40,20,31,18,17,127,,132,130,8,19,5,5,0.2,0.2
2025-06-13T2000,3065A,101.9533,29.9972,甘孜藏族自治州,州环保局,,,,36,,13,125,,137,136,,21,,2,,0.6
2025-06-13T2000,3414A,115.8347,28.932,赣江新区,桑海产业园,,29,29,30,19,21,86,,132,122,15,14,7,6,0.7,0.7
2025-06-13T2000,2362A,114.9017,25.9149,赣州市,通天岩,,31,31,30,7,6,52,,73,67,3,12,2,2,0.6,0.7
2025-06-13T2000,2363A,114.9367,25.8664,赣州市,地委,,21,21,23,13,17,57,,96,91,7,7,1,1,0.5,0.6
2025-06-13T2000,2364A,114.9461,25.8481,赣州市,气象台,,27,27,29,9,15,56,,100,96,4,5,6,7,0.3,0.4
2025-06-13T2000,2365A,114.9322,25.8333,赣州市,市图书馆,,28,,24,19,16,56,,104,100,4,5,3,4,0.3,0.4
2025-06-13T2000,2366A,114.8905,25.8471,赣州市,华坚鞋城,,28,23,28,19,16,56,,101,95,7,7,2,3,0.4,0.4
2025-06-13T2000,3109A,115.0093,25.8613,赣州市,赣县区卫计委,,20,,23,14,12,58,,84,83,4,6,2,4,0.3,0.2
2025-06-13T2000,2683A,106.2319,36.1417,固原市,马园,颗粒物(PM10),500,621,67,38,17,131,,148,146,9,33,6,6,0.2,0.3
2025-06-13T2000,2684A,106.2792,36.0022,固原市,监测站,颗粒物(PM10),292,414,43,36,16,131,,154,152,11,16,5,5,0.1,0.2
2025-06-13T2000,2685A,106.2375,36.0211,固原市,新区,颗粒物(PM10),118,186,40,24,17,124,,140,139,8,14,3,3,0.2,0.3
2025-06-13T2000,3522A,106.2177,35.9959,固原市,原州区十五小,颗粒物(PM10),73,95,39,27,18,134,,148,147,9,9,7,8,0.2,0.2
2025-06-13T2000,2543A,106.6308,30.5278,广安市,小平旧居,,,,,,,,,,,,,,,,
2025-06-13T2000,2544A,106.6303,30.4576,广安市,市委,,,37,41,28,25,141,,166,164,,19,,7,0.4,0.6
2025-06-13T2000,2545A,106.6271,30.4663,广安市,友谊中学,,47,44,36,30,25,149,,186,181,14,16,6,8,0.7,0.8
2025-06-13T2000,2547A,106.6388,30.4551,广安市,广电花园,,41,37,43,24,25,129,,172,167,15,18,9,9,0.5,0.6
2025-06-13T2000,2902A,106.6351,30.4865,广安市,北辰小学,,49,42,43,28,25,155,,188,183,11,17,8,8,0.6,0.7
2025-06-13T2000,2523A,105.8945,32.4535,广元市,黑石坡,,50,44,44,20,21,157,,160,160,8,11,5,9,0.4,0.5
2025-06-13T2000,2524A,105.821,32.4444,广元市,老城,臭氧1小时,73,44,39,24,18,178,,179,179,12,27,18,10,0.8,0.9
2025-06-13T2000,2526A,105.8628,32.4287,广元市,监测站,臭氧1小时,65,,28,28,19,172,,176,176,9,18,4,7,0.4,0.5
2025-06-13T2000,3617A,105.8047,32.4166,广元市,经开区,臭氧1小时,75,46,57,34,34,180,,180,180,9,26,4,11,0.5,0.6
2025-06-13T2000,1345A,113.2347,23.1423,广州市,广雅中学,,,24,16,10,8,,,63,,,24,,3,0.7,0.6
2025-06-13T2000,1346A,113.2612,23.105,广州市,市五中,,28,28,15,15,8,32,,66,61,22,22,3,4,0.5,0.6
2025-06-13T2000,1348A,113.3478,23.0916,广州市,广东商学院,,26,26,19,18,12,33,,56,52,24,28,3,4,0.6,0.7
2025-06-13T2000,1349A,113.4332,23.1047,广州市,市八十六中,,,16,16,6,9,28,,24,,,22,,3,1.4,0.6
2025-06-13T2000,1350A,113.3505,22.9483,广州市,番禺中学,,21,21,16,10,7,43,,67,63,16,20,6,7,0.5,0.5
2025-06-13T2000,1351A,113.2146,23.3916,广州市,花都师范,,36,36,16,20,9,43,,76,72,37,23,3,3,0.8,0.7
2025-06-13T2000,1352A,113.2597,23.1331,广州市,市监测站,,24,24,17,11,8,39,,68,65,22,24,5,5,0.3,0.4
2025-06-13T2000,1353A,113.5618,23.312,广州市,九龙镇镇龙,,17,17,14,10,8,41,,64,60,16,12,5,6,0.4,0.4
2025-06-13T2000,1354A,113.2765,23.1544,广州市,麓湖,,19,19,16,12,8,34,,58,55,19,23,2,2,0.5,0.6
2025-06-13T2000,1355A,113.443,23.3035,广州市,帽峰山森林公园,,20,15,8,10,4,63,,79,78,25,15,7,7,0.6,0.5
2025-06-13T2000,2846A,113.3221,23.1322,广州市,体育西,,26,26,15,16,8,36,,64,60,25,27,4,5,0.4,0.5
2025-06-13T2000,3298A,113.5717,23.5491,广州市,从化街口,,18,13,12,3,6,56,,62,62,12,14,7,7,0.6,0.5
2025-06-13T2000,3299A,113.3472,23.3692,广州市,白云竹料,,25,25,13,12,7,49,,64,61,24,15,3,2,0.6,0.5
2025-06-13T2000,3300A,113.2981,23.237,广州市,白云嘉禾,,21,21,13,10,7,37,,63,60,21,19,6,5,0.8,0.8
2025-06-13T2000,3301A,113.4256,23.1716,广州市,黄埔科学城,,28,28,16,14,8,19,,53,44,27,15,4,3,0.6,0.5
2025-06-13T2000,3302A,113.3942,23.0483,广州市,番禺大学城,,,17,19,10,10,32,,64,60,26,25,,7,0.4,0.5
2025-06-13T2000,3303A,113.4922,22.8168,广州市,南沙黄阁,,18,18,15,12,8,36,,57,56,20,13,5,5,0.5,0.5
2025-06-13T2000,3304A,113.5342,22.7896,广州市,南沙街,,21,21,13,9,6,32,,58,55,24,15,2,2,0.5,0.5
2025-06-13T2000,3443A,113.2902,23.5544,广州市,花都梯面,,,26,14,14,5,60,,60,60,,11,4,4,,0.4
2025-06-13T2000,3445A,113.7858,23.7478,广州市,从化良口,,18,18,14,7,7,51,,44,44,10,8,6,6,0.5,0.6
2025-06-13T2000,3446A,113.8051,23.2614,广州市,增城荔城,,17,17,13,3,5,33,,65,58,17,9,5,5,0.2,0.2
2025-06-13T2000,2505A,109.568,23.1478,贵港市,德智高中,,,,,,,,,,,,,,,,
2025-06-13T2000,2506A,109.6047,23.0666,贵港市,江南子站,,15,14,13,10,8,39,,68,63,20,13,7,7,0.7,0.7
2025-06-13T2000,2508A,109.5669,23.1065,贵港市,荷城子站,,16,12,11,3,3,51,,64,60,11,10,5,6,0.2,0.2
2025-06-13T2000,3405A,109.5886,23.1172,贵港市,新世纪学校,,16,14,10,10,8,51,,67,63,8,8,1,2,0.5,0.5
2025-06-13T2000,4260A,109.5933,23.0951,贵港市,中山路155-3号,,17,14,17,10,10,52,,74,70,12,10,4,4,0.6,0.6
2025-06-13T2000,1439A,106.6899,26.5998,贵阳市,马鞍山,,30,14,22,3,8,93,,130,130,12,12,5,5,0.3,0.4
2025-06-13T2000,1441A,106.6243,26.6266,贵阳市,鉴湖路,,37,31,32,9,13,118,,133,133,15,15,6,7,0.3,0.4
2025-06-13T2000,1442A,106.7487,26.6343,贵阳市,燕子冲,,32,27,34,22,24,95,,148,148,17,15,3,5,0.3,0.4
2025-06-13T2000,1443A,106.6555,26.4365,贵阳市,碧云窝,,24,24,25,3,10,62,,119,117,9,9,5,5,0.4,0.4
2025-06-13T2000,1445A,106.7109,26.6027,贵阳市,红边门,,22,22,31,3,15,66,,147,144,21,14,16,10,0.3,0.3
2025-06-13T2000,1446A,106.7164,26.5699,贵阳市,新华路,,20,17,25,7,15,64,,141,138,15,16,20,21,0.1,0.5
2025-06-13T2000,1447A,106.674,26.5424,贵阳市,太慈桥,,21,19,24,3,12,66,,129,127,14,18,6,6,0.4,0.4
2025-06-13T2000,1552A,106.805,26.3003,贵阳市,桐木岭,,31,31,34,12,19,56,,75,74,6,3,4,4,0.8,0.8
2025-06-13T2000,4230A,106.6882,26.5695,贵阳市,花果园大街66号,,22,17,23,8,19,68,,137,135,14,15,4,4,0.2,0.3
2025-06-13T2000,4231A,106.6873,26.5169,贵阳市,漓江路57号,,18,12,27,3,15,57,,130,127,13,15,2,2,0.3,0.3
2025-06-13T2000,1862A,110.4144,25.3167,桂林市,电子科大尧山校区,,,,,,,,,,,,,,,,
2025-06-13T2000,1864A,110.3089,25.2708,桂林市,龙隐路小学,,25,25,20,13,12,52,,74,69,9,6,11,9,0.8,0.7
2025-06-13T2000,1865A,110.2869,25.2178,桂林市,八中,,18,18,22,11,13,54,,76,72,7,9,6,6,0.7,0.8
2025-06-13T2000,3531A,110.296,25.1253,桂林市,旅游学院,,10,7,14,7,11,28,,46,38,6,8,2,2,0.4,0.5
2025-06-13T2000,4222A,110.1835,25.2444,桂林市,环湖路276号,,22,22,22,14,16,53,,82,78,9,6,7,15,0.4,0.5
2025-06-13T2000,4301A,110.2803,25.2773,桂林市,信义路13号,,22,22,25,11,14,50,,76,71,14,8,2,2,0.6,0.6
2025-06-13T2000,2674A,100.2561,34.4714,果洛藏族自治州,玛沁县大武镇,,39,31,25,22,15,122,,128,128,3,3,18,18,0.4,0.4
2025-06-13T2000,1129A,126.5422,45.755,哈尔滨市,岭北,,41,36,33,22,19,131,,129,129,16,22,13,14,0.9,0.8
2025-06-13T2000,1130A,126.561,45.8167,哈尔滨市,松北商大,颗粒物(PM10),51,51,33,28,17,81,,106,104,40,21,6,6,0.8,0.6
2025-06-13T2000,1131A,126.979,45.5419,哈尔滨市,阿城会宁,颗粒物(PM10),54,57,34,27,19,83,,127,122,32,22,9,7,0.9,0.5
2025-06-13T2000,1132A,126.599,45.7222,哈尔滨市,南岗学府路,颗粒物(PM10),53,55,38,36,15,93,,134,132,42,24,7,7,1.0,0.6
2025-06-13T2000,1133A,126.689,45.7733,哈尔滨市,太平宏伟公园,颗粒物(PM10),84,118,44,39,16,47,,124,117,79,26,6,6,0.8,0.5
2025-06-13T2000,1134A,126.635,45.7667,哈尔滨市,道外承德广场,颗粒物(PM10),65,79,60,29,21,94,,128,127,44,26,7,7,0.6,0.4
2025-06-13T2000,1135A,126.685,45.7319,哈尔滨市,香坊红旗大街,细颗粒物(PM2.5),119,105,45,90,19,62,,130,125,68,34,10,9,1.0,0.7
2025-06-13T2000,1136A,126.6411,45.7258,哈尔滨市,动力和平路,颗粒物(PM10),57,63,42,38,19,90,,138,135,56,28,8,9,0.9,0.6
2025-06-13T2000,1137A,126.593,45.7478,哈尔滨市,道里建国路,细颗粒物(PM2.5),53,50,38,37,17,118,,136,136,34,24,10,9,0.8,0.6
2025-06-13T2000,1138A,126.615,45.61,哈尔滨市,平房东轻厂,,50,50,38,19,14,75,,124,121,49,25,9,9,0.6,0.4
2025-06-13T2000,1139A,126.595,45.9855,哈尔滨市,呼兰师专,颗粒物(PM10),56,62,39,35,21,83,,123,120,44,23,10,10,0.6,0.5
2025-06-13T2000,1140A,126.6206,45.6842,哈尔滨市,省农科院,细颗粒物(PM2.5),68,78,60,49,24,25,,102,94,99,37,7,7,0.9,0.6
2025-06-13T2000,2688A,93.5128,42.8172,哈密市,地区监测站,,,62,42,,21,108,,118,118,7,10,5,8,0.1,0.2
2025-06-13T2000,2689A,93.4961,42.8328,哈密市,哈密师范学校,,42,42,30,12,10,110,,120,120,10,15,4,4,0.2,0.3
2025-06-13T2000,2671A,100.9048,36.9639,海北藏族自治州,海晏县西海镇,,36,28,26,18,18,114,,134,127,3,5,2,6,0.4,0.4
2025-06-13T2000,3867A,102.0738,36.5056,海东市,平安区公安北苑,颗粒物(PM10),67,84,42,31,19,114,,147,144,5,7,10,10,0.5,0.6
2025-06-13T2000,1409A,110.576,19.9507,海口市,东寨港,,23,23,14,6,6,51,,50,48,2,2,17,15,0.4,0.4
2025-06-13T2000,1410A,110.3232,20.0574,海口市,海南大学,,25,25,13,11,5,52,,55,53,3,3,2,2,0.3,0.3
2025-06-13T2000,1411A,110.283,20.0053,海口市,秀英海南医院,,,20,12,11,5,50,,54,50,,3,4,4,0.2,0.2
2025-06-13T2000,1412A,110.338,19.9969,海口市,海南师范大学,,20,20,12,10,6,54,,55,53,2,3,3,3,0.4,0.4
2025-06-13T2000,1413A,110.33,20.0356,海口市,龙华路环保局宿舍,,21,21,11,9,5,51,,54,52,5,4,4,4,0.3,0.3
2025-06-13T2000,3539A,110.5111,19.9736,海口市,桂林洋子站,,26,26,14,11,6,53,,54,52,3,2,4,4,0.2,0.2
2025-06-13T2000,2673A,100.6188,36.2866,海南藏族自治州,共和县恰卜恰镇,颗粒物(PM10),72,94,47,28,18,128,,141,139,2,9,15,16,0.4,0.4
2025-06-13T2000,2676A,97.3731,37.3753,海西蒙古族藏族自治州,德令哈市,,48,37,63,25,20,151,,139,139,1,3,13,12,0.3,0.5
2025-06-13T2000,1048A,114.5302,36.6116,邯郸市,东污水处理厂,臭氧1小时,73,69,59,12,11,178,,197,197,24,14,3,3,0.4,0.4
2025-06-13T2000,1049A,114.4918,36.5713,邯郸市,矿院,臭氧1小时,89,51,48,24,22,191,,202,202,17,12,5,6,0.4,0.4
2025-06-13T2000,1050A,114.484,36.6133,邯郸市,丛台公园,臭氧1小时,102,50,51,28,24,203,,205,205,15,11,11,14,0.5,0.4
2025-06-13T2000,3458A,114.7895,36.5593,邯郸市,香泉濮院小区,臭氧1小时,82,84,80,18,15,185,,195,195,17,13,2,3,0.2,0.3
2025-06-13T2000,3579A,114.50634,36.77178,邯郸市,永年区实验高中,颗粒物(PM10),74,98,64,40,38,162,,203,201,34,11,2,3,0.5,0.4
2025-06-13T2000,3580A,114.20016,36.44293,邯郸市,峰峰矿区临水派出所,臭氧1小时,68,51,47,14,16,174,,196,196,10,9,6,8,0.5,0.3
2025-06-13T2000,2634A,106.9893,33.1842,汉中市,汉川机床厂子校,细颗粒物(PM2.5),62,48,48,44,27,153,,169,169,24,50,4,4,0.6,0.6
2025-06-13T2000,2635A,107.0154,33.0706,汉中市,市监测站,,,31,43,26,26,149,,134,,,15,6,7,0.5,0.6
2025-06-13T2000,2636A,107.0089,33.1138,汉中市,鑫源开发区,,46,27,46,21,26,146,,159,158,12,14,6,7,0.4,0.5
2025-06-13T2000,2637A,107.007,33.0323,汉中市,南郑大河坎水厂,,43,37,42,29,27,136,,154,153,11,14,4,5,0.3,0.4
2025-06-13T2000,1223A,120.2072,30.2111,杭州市,滨江,,23,23,31,16,21,58,,57,57,26,34,6,6,0.3,0.3
2025-06-13T2000,1224A,120.0633,30.2747,杭州市,西溪,,12,12,31,6,16,21,,54,54,5,11,4,4,0.3,0.4
2025-06-13T2000,1226A,120.3417,30.3150,杭州市,下沙,,19,17,19,13,10,44,,62,62,28,28,6,6,0.2,0.3
2025-06-13T2000,1227A,120.1269,30.2456,杭州市,卧龙桥,,16,16,25,10,20,10,,55,51,20,19,7,7,0.5,0.5
2025-06-13T2000,1228A,120.1903,30.2692,杭州市,浙江农大,,17,14,21,10,15,41,,53,53,34,32,9,9,0.5,0.6
2025-06-13T2000,1230A,120.1197,30.3119,杭州市,和睦小学,,20,15,24,14,17,57,,69,69,17,20,7,7,0.4,0.5
2025-06-13T2000,1231A,120.3019,30.4183,杭州市,临平镇,,16,14,23,7,13,50,,63,63,23,13,5,5,0.4,0.5
2025-06-13T2000,1232A,120.2753,30.1839,杭州市,城厢镇,,32,28,26,22,22,36,,54,54,40,28,6,7,0.6,0.6
2025-06-13T2000,1233A,120.0883,30.1808,杭州市,云栖,,15,11,13,10,13,15,,62,58,14,17,7,6,0.5,0.5
2025-06-13T2000,3557A,119.9464,30.0494,杭州市,镇二中,,22,22,34,15,21,50,,79,78,34,20,3,3,0.2,0.3
2025-06-13T2000,3558A,119.7183,30.2367,杭州市,市府大楼,,22,16,41,6,23,69,,104,104,16,16,7,6,0.3,0.3
2025-06-13T2000,3656A,120.1556,30.2864,杭州市,消防大队,,18,18,28,9,15,48,,57,57,27,27,4,4,0.6,0.6
2025-06-13T2000,1270A,117.1959,31.7848,合肥市,明珠广场,,46,46,46,27,34,125,,171,171,26,21,4,4,0.7,0.6
2025-06-13T2000,1271A,117.3072,31.8764,合肥市,三里街,,39,34,41,27,32,97,,127,127,16,18,5,5,0.6,0.6
2025-06-13T2000,1272A,117.2588,31.8707,合肥市,琥珀山庄,,36,36,41,18,33,98,,142,142,21,20,5,5,0.8,0.7
2025-06-13T2000,1273A,117.1604,31.9052,合肥市,董铺水库,,41,41,48,19,35,124,,149,149,13,15,1,2,0.5,0.5
2025-06-13T2000,1274A,117.25,31.8571,合肥市,长江中路,,41,41,48,27,34,111,,154,154,18,16,3,4,0.6,0.6
2025-06-13T2000,1275A,117.266,31.9436,合肥市,庐阳区,,39,39,46,22,33,98,,150,149,21,19,8,7,0.8,0.8
2025-06-13T2000,1276A,117.3453,31.8616,合肥市,瑶海区,,48,48,44,29,32,93,,118,118,19,18,7,6,0.7,0.7
2025-06-13T2000,1277A,117.3027,31.7964,合肥市,包河区,,44,44,45,22,36,101,,129,129,28,32,4,4,0.6,0.6
2025-06-13T2000,1278A,117.2776,31.7385,合肥市,滨湖新区,,42,39,43,29,40,118,,128,128,21,15,8,8,0.6,0.6
2025-06-13T2000,1279A,117.1318,31.8403,合肥市,高新区,颗粒物(PM10),51,51,47,24,38,138,,173,173,24,21,7,7,0.6,0.7
2025-06-13T2000,3464A,117.3803,31.9147,合肥市,高教基地,,30,27,39,17,24,93,,120,119,10,13,7,7,0.6,0.6
2025-06-13T2000,3614A,79.924,37.0877,和田地区,地区环保局,颗粒物(PM10),500,1455,1554,428,426,74,,83,83,13,12,2,2,0.2,0.2
2025-06-13T2000,3615A,79.9131,37.113,和田地区,市环保局,颗粒物(PM10),500,1384,1294,378,343,64,,78,78,19,17,2,2,0.2,0.1
2025-06-13T2000,2516A,108.2011,24.715,河池市,东仁乐园,,,,,,,,,,,,,,,,
2025-06-13T2000,2517A,108.0497,24.6947,河池市,市环保站,,17,14,23,11,9,52,,62,62,5,6,2,2,0.5,0.5
2025-06-13T2000,2518A,108.0983,24.6989,河池市,市疾控中心,,25,25,23,12,11,44,,61,60,14,13,7,7,0.7,0.6
2025-06-13T2000,1696A,114.6778,23.7569,河源市,源西,,19,,16,12,15,58,,70,68,2,5,4,4,0.6,0.6
2025-06-13T2000,1697A,114.6944,23.7586,河源市,东埔,,14,9,14,3,7,44,,58,54,9,13,3,3,0.6,0.6
2025-06-13T2000,1698A,114.6892,23.7233,河源市,老城,,15,13,14,10,8,39,,53,49,7,8,3,3,0.4,0.4
2025-06-13T2000,1718A,115.4208,35.2464,菏泽市,气象局,臭氧1小时,88,50,55,25,25,190,,185,185,10,10,3,4,0.4,0.4
2025-06-13T2000,3374A,115.5564,35.0891,菏泽市,定陶老年大学,臭氧1小时,69,70,45,14,18,175,,178,178,13,10,1,2,0.3,0.3
2025-06-13T2000,4184A,115.4797,35.24401,菏泽市,永昌路1号,臭氧1小时,85,63,57,18,19,188,,190,190,12,9,5,4,0.3,0.2
2025-06-13T2000,4193A,115.4715,35.2800,菏泽市,长城路999号,臭氧1小时,99,70,56,22,21,199,,196,196,17,13,3,4,0.4,0.4
2025-06-13T2000,2514A,111.5264,24.4172,贺州市,环保小区,,18,,20,12,13,33,,61,59,16,11,8,9,0.8,0.8
2025-06-13T2000,2515A,111.5608,24.4078,贺州市,政协大楼,,,24,17,7,13,30,,56,53,,11,12,10,,0.5
2025-06-13T2000,3534A,111.4744,24.4553,贺州市,西湾,,10,7,21,3,16,24,,54,50,17,9,8,8,1.0,0.8
2025-06-13T2000,2385A,114.17,35.9019,鹤壁市,市监测站,臭氧1小时,89,57,56,39,33,191,,201,201,15,14,7,7,0.8,1
2025-06-13T2000,2386A,114.2956,35.7511,鹤壁市,市交警支队,臭氧1小时,88,39,53,26,29,190,,197,197,14,13,8,7,0.7,0.6
2025-06-13T2000,2387A,114.2878,35.7306,鹤壁市,迎宾馆,臭氧1小时,85,54,66,38,37,188,,193,193,14,13,3,3,0.7,0.7
2025-06-13T2000,3474A,114.2617,35.6822,鹤壁市,大新区,臭氧1小时,52,48,56,24,32,161,,186,186,15,13,6,6,0.7,0.7
2025-06-13T2000,3596A,114.1572,35.9603,鹤壁市,南山宾馆,臭氧1小时,74,75,67,41,39,179,,189,189,16,14,5,5,0.6,0.6
2025-06-13T2000,2244A,130.2537,47.3416,鹤岗市,哈啤分公司,,39,37,20,17,17,124,,130,130,10,14,14,15,0.4,0.4
2025-06-13T2000,2245A,130.2684,47.3086,鹤岗市,斯达机电,颗粒物(PM10),52,53,31,33,19,107,,125,125,14,13,14,15,0.6,0.5
2025-06-13T2000,2246A,130.3114,47.3388,鹤岗市,东山纸板厂,,42,42,34,19,15,109,,116,116,13,14,15,14,0.5,0.4
2025-06-13T2000,2247A,130.1097,47.3382,鹤岗市,五号水库,,40,34,20,24,9,128,,140,140,10,12,10,10,0.6,0.5
2025-06-13T2000,2263A,127.4833,50.2524,黑河市,交通局,,22,19,19,3,7,68,,64,64,9,9,6,6,0.4,0.3
2025-06-13T2000,2264A,127.5144,50.2341,黑河市,环保局,,28,28,19,15,8,65,,61,,14,6,10,5,0.3,0.2
2025-06-13T2000,2265A,127.5291,50.2472,黑河市,大黑河岛,,19,,3,6,6,59,,54,54,10,6,18,19,0.3,0.3
2025-06-13T2000,1074A,115.6838,37.7541,衡水市,电机北厂,颗粒物(PM10),84,117,81,41,27,171,,196,196,18,11,7,7,0.4,0.4
2025-06-13T2000,1075A,115.6303,37.7316,衡水市,市监测站,颗粒物(PM10),74,97,79,36,23,169,,196,195,18,10,2,2,0.4,0.4
2025-06-13T2000,3188A,115.6683,37.7217,衡水市,市城管局,颗粒物(PM10),86,122,86,36,26,170,,202,200,25,11,6,5,0.4,0.4
2025-06-13T2000,3459A,115.5989,37.5491,衡水市,地表水厂,颗粒物(PM10),91,131,102,19,22,145,,199,194,34,14,6,6,0.4,0.3
2025-06-13T2000,2456A,112.5003,26.9167,衡阳市,原169医院,,29,26,29,16,13,91,,129,124,15,7,2,5,0.7,0.7
2025-06-13T2000,2457A,112.6194,26.9258,衡阳市,衡阳化工总厂,,39,39,32,26,19,103,,128,127,10,12,5,5,0.7,0.6
2025-06-13T2000,2458A,112.6211,26.8956,衡阳市,珠晖区环保局,,,42,34,,14,98,,146,142,6,12,7,7,0.7,0.8
2025-06-13T2000,2459A,112.6197,26.8733,衡阳市,市委党校,,32,32,33,21,15,82,,130,126,12,12,7,6,0.7,0.7
2025-06-13T2000,2460A,112.6006,26.8919,衡阳市,市监测站,,29,29,31,17,18,90,,144,139,8,11,8,8,0.6,0.7
2025-06-13T2000,2461A,112.5664,26.9056,衡阳市,真空机电公司,,32,,30,22,17,82,,141,136,10,9,6,6,1.0,1
2025-06-13T2000,3399A,112.6703,26.882,衡阳市,师范学院,,42,42,35,22,17,79,,115,111,14,12,5,7,0.8,0.9
2025-06-13T2000,2608A,103.3772,23.3993,红河哈尼族彝族自治州,污水处理厂,,36,36,34,22,22,85,,96,96,6,9,8,12,0.4,0.4
2025-06-13T2000,2609A,103.3861,23.35,红河哈尼族彝族自治州,监测站,,35,35,35,23,22,75,,89,89,5,8,4,10,0.3,0.3
2025-06-13T2000,3038A,103.3758,23.368,红河哈尼族彝族自治州,州图书馆,,39,,27,27,18,83,,99,99,7,8,4,13,0.3,0.3
2025-06-13T2000,1090A,111.6507,40.7517,呼和浩特市,呼市一监,,40,31,21,13,17,127,,140,139,9,12,7,7,0.3,0.4
2025-06-13T2000,1091A,111.6572,40.8033,呼和浩特市,小召,,39,24,22,10,16,122,,130,130,24,18,5,5,0.5,0.6
2025-06-13T2000,1094A,111.7516,40.8369,呼和浩特市,如意水处理厂,,44,17,29,10,17,139,,139,139,9,13,6,5,0.3,0.4
2025-06-13T2000,1095A,111.7276,40.8062,呼和浩特市,二十九中,,42,20,28,12,20,134,,134,134,11,13,5,5,0.4,0.5
2025-06-13T2000,1096A,111.5512,40.7866,呼和浩特市,工大金川校区,,38,25,26,12,17,119,,133,132,18,16,6,6,0.4,0.4
2025-06-13T2000,1097A,111.717,40.7612,呼和浩特市,化肥厂生活区,,41,20,34,9,20,129,,144,143,20,17,6,7,0.4,0.5
2025-06-13T2000,3698A,111.5968,40.8178,呼和浩特市,红旗小学,,44,44,23,11,17,126,,141,140,24,18,5,5,0.3,0.3
2025-06-13T2000,3699A,111.6518,40.8389,呼和浩特市,海东办,,42,,20,28,17,134,,134,134,13,15,5,5,0.5,0.4
2025-06-13T2000,2192A,119.7594,49.2261,呼伦贝尔市,区环保局,,40,36,31,28,23,96,,90,90,10,20,6,6,0.4,0.4
2025-06-13T2000,3061A,119.7512,49.1577,呼伦贝尔市,国华电力东,,34,34,25,19,20,103,,100,100,8,10,3,3,0.3,0.3
2025-06-13T2000,1250A,120.0751,30.8669,湖州市,城西水厂,,22,8,24,3,13,69,,74,74,12,16,5,5,0.5,0.6
2025-06-13T2000,2873A,120.0830,30.8929,湖州市,仁皇山新区,,17,9,22,3,10,54,,73,73,15,16,4,4,0.4,0.4
2025-06-13T2000,2907A,120.1844,30.8596,湖州市,吴兴区站,,21,16,18,7,9,65,,73,73,18,11,6,6,0.3,0.3
2025-06-13T2000,3562A,120.4148,30.8538,湖州市,南浔区站,,20,13,13,6,9,62,,70,70,12,12,4,5,0.5,0.5
2025-06-13T2000,1607A,120.9049,40.7211,葫芦岛市,龙港区,,48,,20,33,9,127,,129,129,7,10,7,7,0.4,0.4
2025-06-13T2000,1608A,120.8392,40.7514,葫芦岛市,化工街,,37,22,22,17,11,118,,124,124,13,17,6,6,0.4,0.4
2025-06-13T2000,1609A,120.8341,40.7073,葫芦岛市,新区,,42,30,21,29,11,123,,127,127,10,12,5,5,0.5,0.5
2025-06-13T2000,1610A,120.8695,40.7677,葫芦岛市,东城区,,37,21,25,20,8,117,,122,122,15,17,5,5,0.5,0.5
2025-06-13T2000,2482A,109.5981,27.5721,怀化市,林科所,,20,20,25,6,7,49,,89,82,10,9,4,4,0.6,0.6
2025-06-13T2000,2483A,109.9453,27.5444,怀化市,河西地税局,,15,11,24,8,14,47,,77,73,10,10,2,2,0.2,0.2
2025-06-13T2000,2484A,109.9781,27.5342,怀化市,市四医院,,27,27,32,3,16,57,,80,76,7,10,1,2,1.0,1.2
2025-06-13T2000,2485A,109.9972,27.5578,怀化市,监测楼,,20,18,28,14,14,43,,75,68,15,18,7,8,0.1,0.2
2025-06-13T2000,2486A,110.0394,27.583,怀化市,市委党校,,37,37,28,14,16,48,,87,82,1,8,4,11,0.1,0.2
2025-06-13T2000,1210A,119.036,33.5981,淮安市,钵池山,,42,31,32,29,35,43,,59,55,25,19,6,6,0.8,0.8
2025-06-13T2000,1211A,119.007,33.575,淮安市,北京南路,,43,31,31,30,33,44,,62,62,16,8,6,6,0.7,0.7
2025-06-13T2000,1212A,118.989,33.6067,淮安市,市监测站,,39,36,34,27,30,40,,63,63,20,13,7,8,0.5,0.5
2025-06-13T2000,1213A,119.135,33.5039,淮安市,楚州区监测站,,46,46,43,17,21,40,,53,52,15,10,6,7,0.6,0.6
2025-06-13T2000,3426A,118.8755,33.2894,淮安市,新华书店,,,40,35,17,23,,,51,,21,14,8,7,0.2,0.5
2025-06-13T2000,4206A,119.0288,33.6319,淮安市,承德北路606号,,42,34,38,29,26,44,,56,52,19,13,6,5,0.5,0.6
2025-06-13T2000,2282A,116.8004,33.975,淮北市,监测站,,48,42,42,28,26,153,,179,179,11,9,6,7,0.7,0.7
2025-06-13T2000,2283A,116.8091,33.9007,淮北市,烈山区政府,颗粒物(PM10),64,77,64,23,28,143,,182,181,11,12,6,7,0.9,0.9
2025-06-13T2000,3330A,116.8873,33.9836,淮北市,杜集区检察院,颗粒物(PM10),73,96,47,38,29,145,,172,172,6,4,8,8,0.8,0.8
2025-06-13T2000,4017A,116.7923,33.9535,淮北市,市博物馆,臭氧1小时,55,53,38,20,24,164,,186,186,7,9,8,8,0.8,0.8
2025-06-13T2000,2277A,116.8305,32.7727,淮南市,潘集区政府,,46,37,39,19,31,145,,169,168,10,10,5,4,0.5,0.6
2025-06-13T2000,2279A,116.8569,32.5951,淮南市,谢家集区政府,,31,30,41,12,22,97,,110,108,25,14,5,6,0.2,0.3
2025-06-13T2000,2280A,116.8281,32.633,淮南市,八公山区政府,,34,21,38,3,25,108,,114,114,10,11,6,5,0.3,0.3
2025-06-13T2000,2281A,116.6325,32.6201,淮南市,焦岗湖风景区管理处,,,,,,,,,,,,,,,,
2025-06-13T2000,2894A,117.0566,32.6531,淮南市,经济技术开发区消防队,,46,36,45,32,37,111,,119,118,16,15,7,6,0.5,0.5
2025-06-13T2000,3329A,117.0108,32.5893,淮南市,山南新区,,42,41,38,29,24,125,,132,132,15,9,8,7,0.5,0.5
2025-06-13T2000,4209A,117.0031,32.6445,淮南市,国庆中路369号,,44,44,44,28,34,123,,139,138,17,11,4,4,0.3,0.4
2025-06-13T2000,2446A,114.9028,30.4742,黄冈市,职工中心,,32,15,34,13,26,100,,147,142,2,3,6,9,0.6,0.6
2025-06-13T2000,2929A,114.8858,30.4519,黄冈市,红卫路,,33,17,34,8,21,105,,142,139,2,7,5,8,0.5,0.6
2025-06-13T2000,3398A,114.9136,30.4445,黄冈市,市林业局,,31,20,35,10,28,98,,142,139,4,12,7,10,0.7,1.2
2025-06-13T2000,2672A,102.0199,35.5102,黄南藏族自治州,同仁县隆务镇,,39,39,33,14,11,115,,116,116,2,3,6,6,0.2,0.2
2025-06-13T2000,2295A,118.2903,29.6963,黄山市,延安路89号,,15,6,15,3,7,47,,53,48,2,4,5,5,0.4,0.5
2025-06-13T2000,2297A,118.1371,30.2756,黄山市,黄山区政府5号楼,,19,19,21,10,16,40,,48,48,3,3,3,4,0.7,0.5
2025-06-13T2000,4210A,118.3354,29.7203,黄山市,滨江东路7-2号,,16,13,17,3,6,50,,50,48,2,5,3,4,0.2,0.3
2025-06-13T2000,2423A,115.0601,30.2313,黄石市,沈家营,,30,30,47,6,16,84,,134,128,4,18,7,8,0.6,0.7
2025-06-13T2000,2426A,114.8988,30.2019,黄石市,铁山,,27,20,31,3,16,86,,137,128,2,13,4,5,0.3,0.4
2025-06-13T2000,2427A,115.0307,30.2092,黄石市,团城山,,44,44,46,3,13,90,,135,130,4,9,8,11,0.4,0.6
2025-06-13T2000,3149A,115.0235,30.1578,黄石市,笔架山北路,,29,24,40,3,12,92,,134,132,7,12,4,7,0.6,0.8
2025-06-13T2000,4185A,115.0780,30.21118,黄石市,磁湖东路29号,,32,32,45,7,18,94,,136,131,7,15,6,8,0.5,0.6
2025-06-13T2000,1392A,114.4183,23.0528,惠州市,河南岸金山湖子站,,,,11,,6,36,,52,50,,9,7,6,0.5,0.5
2025-06-13T2000,1393A,114.4053,23.0822,惠州市,下埔横江三路子站,,15,15,13,7,6,41,,61,58,9,7,5,5,0.3,0.3
2025-06-13T2000,1394A,114.4103,23.1142,惠州市,江北云山西路子站,,14,10,13,6,6,43,,65,62,8,6,6,7,0.3,0.3
2025-06-13T2000,1395A,114.4645,22.7833,惠州市,惠阳区承修路船湖子站,,21,21,17,10,8,42,,56,54,11,13,6,7,0.5,0.5
2025-06-13T2000,1396A,114.5317,22.7422,惠州市,大亚湾管委会子站,,19,19,14,8,5,47,,58,56,9,12,8,8,0.4,0.4
2025-06-13T2000,3314A,114.4338,22.8134,惠州市,惠阳秋长,,15,14,8,6,4,48,,67,65,12,8,5,7,0.6,0.6
2025-06-13T2000,3452A,114.6517,22.775,惠州市,大亚湾霞涌,,18,18,17,11,7,36,,58,54,9,7,6,6,0.7,0.6
2025-06-13T2000,2240A,130.9762,45.3001,鸡西市,环保局,,43,43,25,19,14,43,,79,73,33,23,2,2,0.6,0.5
2025-06-13T2000,2243A,130.9429,45.3039,鸡西市,第一中学,,48,48,26,26,13,45,,71,71,26,16,6,6,0.6,0.5
2025-06-13T2000,3707A,131.0207,45.3073,鸡西市,欧美日汽修厂,,39,39,30,19,13,32,,80,72,34,18,5,5,0.6,0.5
2025-06-13T2000,3709A,130.9967,45.3106,鸡西市,市政设施管理处,,48,48,27,28,15,28,,75,67,46,26,8,7,0.7,0.5
2025-06-13T2000,2367A,114.9754,27.0803,吉安市,红声器材厂,,38,38,34,25,19,80,,115,109,10,11,9,11,0.5,0.6
2025-06-13T2000,2368A,114.9658,27.0999,吉安市,市森林工业局,,40,40,36,21,21,98,,130,124,10,7,7,10,0.7,0.5
2025-06-13T2000,2369A,114.99,27.1312,吉安市,市环境监测站,,38,33,32,9,12,121,,140,137,7,8,9,12,0.6,0.5
2025-06-13T2000,2370A,115.0093,27.0968,吉安市,青原区法院,,42,42,38,28,23,93,,123,121,14,11,8,10,0.5,0.4
2025-06-13T2000,1772A,126.54,43.8622,吉林市,哈达湾,,50,36,26,16,16,157,,168,168,17,15,6,6,0.3,0.3
2025-06-13T2000,1773A,126.5844,43.8358,吉林市,东局子,,48,,25,33,16,122,,159,156,36,19,6,6,0.7,0.6
2025-06-13T2000,1774A,126.5052,43.8245,吉林市,电力学院,颗粒物(PM10),57,64,29,38,14,94,,160,153,34,20,5,5,0.6,0.5
2025-06-13T2000,1775A,126.6133,43.8972,吉林市,江北,,48,48,45,20,15,119,,156,153,26,15,9,9,0.8,0.7
2025-06-13T2000,1776A,126.555,43.8306,吉林市,江南公园,,46,43,26,32,17,133,,159,158,24,16,5,5,0.4,0.4
2025-06-13T2000,1778A,126.7061,43.7133,吉林市,丰满,,,,,,,,,,,,,,,,
2025-06-13T2000,2868A,126.4739,43.953,吉林市,九站,,49,33,27,14,13,154,,168,168,25,16,6,6,0.4,0.4
2025-06-13T2000,1299A,116.9862,36.6114,济南市,科干所,臭氧1小时,92,48,43,29,22,193,,212,212,16,12,6,7,0.5,0.4
2025-06-13T2000,1300A,116.9376,36.665,济南市,农科所,,,44,48,,16,168,,215,214,18,17,7,9,0.2,0.2
2025-06-13T2000,1301A,117.1265,36.6734,济南市,开发区,臭氧1小时,98,66,51,20,18,198,,200,200,28,21,9,9,0.9,0.7
2025-06-13T2000,1303A,117.0624,36.6868,济南市,省种子仓库,臭氧1小时,108,61,55,22,22,216,,227,227,18,15,7,8,0.4,0.3
2025-06-13T2000,1304A,116.9489,36.6447,济南市,机床二厂,臭氧1小时,74,54,56,17,17,179,,212,212,17,15,5,7,0.5,0.5
2025-06-13T2000,1305A,117.0495,36.663,济南市,市监测站,臭氧1小时,111,63,52,20,16,221,,228,228,22,17,9,10,0.6,0.5
2025-06-13T2000,1306A,116.7675,36.5484,济南市,长清党校,臭氧1小时,54,51,49,27,22,163,,173,173,24,18,6,8,0.7,0.7
2025-06-13T2000,1616A,117.6795,36.229,济南市,技术学院,臭氧1小时,62,44,49,27,22,169,,165,165,16,16,11,13,0.8,0.8
2025-06-13T2000,1961A,117.532,36.6868,济南市,东山小学,,46,42,54,20,18,147,,187,182,7,13,7,10,0.2,0.4
2025-06-13T2000,3059A,117.7161,36.2049,济南市,泰兴公司,臭氧1小时,69,48,49,24,22,175,,167,167,19,18,7,10,0.8,0.7
2025-06-13T2000,3064A,117.6867,36.2171,济南市,莱芜战役纪念馆,臭氧1小时,65,46,53,28,24,172,,169,169,12,12,6,8,0.8,0.9
2025-06-13T2000,3494A,117.1673,36.9782,济南市,济阳区政府,臭氧1小时,87,95,73,24,18,189,,201,200,31,19,9,9,0.3,0.4
2025-06-13T2000,3495A,117.1171,36.63,济南市,锦屏中学,臭氧1小时,97,46,42,17,14,197,,201,201,21,14,10,10,0.8,0.7
2025-06-13T2000,3682A,116.9814,36.6819,济南市,济南四建,臭氧1小时,105,56,49,27,21,210,,233,233,23,19,7,7,0.5,0.5
2025-06-13T2000,1653A,116.6251,35.4302,济宁市,火炬城,,39,38,43,17,19,124,,126,126,7,9,5,5,0.6,0.5
2025-06-13T2000,1655A,116.5491,35.4042,济宁市,电化厂,,48,48,45,19,18,134,,133,133,2,3,3,4,0.6,0.6
2025-06-13T2000,3500A,116.5814,35.3707,济宁市,北湖一中,,39,32,44,21,23,124,,135,135,7,7,9,8,0.5,0.5
2025-06-13T2000,3501A,116.8249,35.5593,济宁市,服务中心,颗粒物(PM10),51,51,48,18,14,147,,152,152,16,12,1,2,0.6,0.4
2025-06-13T2000,3678A,116.5907,35.4054,济宁市,市第七中学,,40,34,48,12,13,125,,132,132,2,5,6,5,0.3,0.4
2025-06-13T2000,2255A,130.2751,46.8028,佳木斯市,佳纺,,37,31,33,21,15,118,,142,139,13,10,8,8,0.5,0.4
2025-06-13T2000,2256A,130.3995,46.8307,佳木斯市,发电厂,,,,22,,16,,,82,,,15,,5,,0.4
2025-06-13T2000,2257A,130.3258,46.7975,佳木斯市,环保局,,39,39,29,19,17,122,,142,140,14,10,4,5,0.4,0.3
2025-06-13T2000,2258A,130.3648,46.8032,佳木斯市,十一中,,40,40,28,26,18,116,,138,136,18,12,6,5,0.5,0.4
2025-06-13T2000,2259A,130.3794,46.7588,佳木斯市,四丰,,,1,15,,,9,,,,11,8,1,1,0.6,0.5
2025-06-13T2000,1252A,120.7436,30.778,嘉兴市,清河小学,,13,9,14,8,7,40,,56,54,20,13,6,7,0.7,0.7
2025-06-13T2000,1253A,120.726,30.7478,嘉兴市,嘉兴学院,,18,18,24,3,8,40,,60,57,16,10,5,5,0.5,0.5
2025-06-13T2000,2872A,120.7846,30.7525,嘉兴市,南湖区残联,,14,11,16,3,8,43,,57,56,16,13,5,5,0.5,0.5
2025-06-13T2000,3407A,120.6916,30.7739,嘉兴市,秀洲住建,,,8,13,6,7,25,,66,60,32,13,6,5,,0.6
2025-06-13T2000,1945A,98.2908,39.7711,嘉峪关市,气象局,颗粒物(PM10),195,339,114,105,24,119,,125,125,10,16,3,12,0.5,0.6
2025-06-13T2000,2884A,98.2672,39.7978,嘉峪关市,酒钢宾馆,颗粒物(PM10),97,144,88,46,22,112,,126,125,12,11,35,27,1.0,0.6
2025-06-13T2000,3248A,98.2643,39.7724,嘉峪关市,雄关区,,,,40,,17,,,128,,,23,,10,,0.3
2025-06-13T2000,1383A,113.1064,22.6058,江门市,北街,,13,10,14,6,8,40,,62,58,6,10,2,3,0.3,0.3
2025-06-13T2000,1384A,113.0731,22.5835,江门市,西区,,21,21,16,11,6,45,,68,64,10,13,7,7,0.4,0.4
2025-06-13T2000,1385A,113.0219,22.5311,江门市,圭峰西,,16,16,16,9,8,45,,61,60,8,11,4,4,0.4,0.4
2025-06-13T2000,1386A,113.0828,22.5947,江门市,东湖,,19,19,15,8,7,45,,63,59,10,15,9,9,0.4,0.4
2025-06-13T2000,3311A,113.1075,22.5647,江门市,江海富民,,20,,22,14,13,48,,66,63,13,18,8,8,0.5,0.5
2025-06-13T2000,3449A,113.05,22.4667,江门市,新会银湖,,22,22,14,10,8,27,,50,48,14,15,3,2,0.4,0.4
2025-06-13T2000,1830A,113.1992,35.2590,焦作市,影视城,,,,35,,15,,,147,,,9,,13,,0.6
2025-06-13T2000,3169A,113.2725,35.2067,焦作市,太极体育中心,臭氧1小时,107,83,70,35,40,213,,229,229,13,15,4,9,0.3,0.3
2025-06-13T2000,3335A,113.3137,35.2641,焦作市,马村街道办,臭氧1小时,108,91,69,40,40,216,,231,231,18,19,9,10,0.6,0.6
2025-06-13T2000,3336A,113.2465,35.2373,焦作市,焦作技师学院,臭氧1小时,109,64,56,39,27,218,,224,224,,13,6,8,0.6,0.9
2025-06-13T2000,3477A,113.1656,35.2539,焦作市,中站许衡医院,臭氧1小时,102,67,55,40,29,204,,208,208,19,16,7,8,0.7,0.6
2025-06-13T2000,3981A,113.2449,35.1803,焦作市,原李万街道办,臭氧1小时,109,86,63,27,25,218,,230,230,15,16,13,15,0.2,0.3
2025-06-13T2000,4264A,113.2340,35.2190,焦作市,新安路1731号,,,73,65,,33,222,,230,230,13,13,5,7,0.4,0.4
2025-06-13T2000,1708A,116.3701,23.5345,揭阳市,新兴,,,,24,11,12,35,,63,56,17,11,5,5,0.5,0.5
2025-06-13T2000,1709A,116.3264,23.5443,揭阳市,西马,,18,18,27,8,9,36,,62,54,15,9,3,3,0.8,0.7
2025-06-13T2000,1710A,116.3611,23.5626,揭阳市,东兴,,16,,27,11,11,41,,68,58,12,8,3,4,0.6,0.5
2025-06-13T2000,1711A,116.4151,23.5294,揭阳市,渔湖,,,,27,6,10,28,,52,44,18,12,4,3,0.6,0.6
2025-06-13T2000,3320A,116.403,23.5699,揭阳市,曲溪,,35,35,22,8,10,31,,66,55,26,8,15,7,0.6,0.5
2025-06-13T2000,1944A,102.1692,38.5167,金昌市,天庆家园,,31,27,99,14,27,98,,108,102,8,9,10,12,0.9,0.7
2025-06-13T2000,4022A,102.1647,38.5371,金昌市,金川区人防中心,,41,41,135,14,26,100,,106,105,8,7,9,11,0.4,0.4
2025-06-13T2000,4239A,102.1930,38.5319,金昌市,长春路96号,,,,80,,27,,,108,,,8,,25,,0.7
2025-06-13T2000,1262A,119.647,29.077,金华市,十五中,,26,18,13,15,12,82,,76,76,12,19,1,1,0.6,0.5
2025-06-13T2000,1263A,119.686,29.1029,金华市,监测站,,27,15,14,12,8,84,,77,77,10,17,1,1,0.4,0.4
2025-06-13T2000,3659A,119.656,29.1131,金华市,气象局,,25,20,14,11,6,80,,72,72,14,19,2,2,0.5,0.5
2025-06-13T2000,1767A,121.1115,41.0879,锦州市,南山,,31,26,31,16,15,99,,122,118,20,18,6,10,0.5,0.5
2025-06-13T2000,1768A,121.0604,40.8428,锦州市,开发区,,38,38,35,24,12,114,,122,122,20,19,37,12,0.6,0.6
2025-06-13T2000,1769A,121.1836,41.1119,锦州市,百股街道,,36,18,27,12,10,115,,126,125,11,15,7,13,0.5,0.5
2025-06-13T2000,1770A,121.1178,41.1222,锦州市,天安街道,,34,34,30,16,15,96,,126,120,26,21,5,9,0.8,0.8
2025-06-13T2000,1771A,121.1303,41.1386,锦州市,北湖公园,,31,19,26,15,12,99,,124,120,23,18,6,9,0.5,0.5
2025-06-13T2000,2160A,112.85,35.5051,晋城市,自来水公司,臭氧1小时,92,80,58,27,25,193,,215,215,12,14,3,3,0.2,0.2
2025-06-13T2000,2161A,112.8318,35.4936,晋城市,白云商贸,臭氧1小时,92,83,62,17,18,193,,209,209,15,19,8,9,0.5,0.5
2025-06-13T2000,2162A,112.8508,35.4887,晋城市,市环保局,臭氧1小时,82,89,67,27,25,185,,198,198,14,16,8,8,0.2,0.2
2025-06-13T2000,2163A,112.8676,35.4897,晋城市,技术学院,臭氧1小时,94,80,55,19,22,195,,212,212,17,18,7,7,0.7,0.7
2025-06-13T2000,2165A,112.8453,35.546,晋城市,白马寺,臭氧1小时,75,44,40,24,28,180,,210,210,7,8,4,5,0.5,0.5
2025-06-13T2000,3620A,112.8271,35.4828,晋城市,泽州一中,,,,53,,23,203,,213,213,13,17,4,4,0.6,0.6
2025-06-13T2000,2173A,112.7249,37.7067,晋中市,南都小区,臭氧1小时,63,73,66,43,33,170,,195,189,7,11,3,5,0.7,0.6
2025-06-13T2000,2174A,112.6991,37.6982,晋中市,榆次区政府,臭氧1小时,60,68,70,36,30,168,,194,187,7,13,5,7,0.6,0.7
2025-06-13T2000,2865A,112.7195,37.6828,晋中市,榆次三中,臭氧1小时,72,73,72,27,28,177,,204,196,10,12,6,7,0.6,0.5
2025-06-13T2000,4200A,112.7478,37.6954,晋中市,迎宾街26号,臭氧1小时,68,73,76,24,31,174,,204,198,10,13,6,7,0.5,0.4
2025-06-13T2000,2439A,112.2014,31.0481,荆门市,竹园小学,,42,39,36,21,26,132,,146,146,8,9,4,5,0.4,0.6
2025-06-13T2000,2440A,112.1969,30.9891,荆门市,掇刀,,40,37,35,21,24,125,,146,145,10,8,7,7,0.6,0.7
2025-06-13T2000,2441A,112.2213,31.0386,荆门市,石化一小,,39,37,38,27,30,122,,149,148,13,14,16,19,0.5,0.6
2025-06-13T2000,3012A,112.1849,31.0362,荆门市,西山林语,,41,29,31,25,24,130,,147,146,5,5,9,10,0.5,0.4
2025-06-13T2000,3547A,112.1632,31.0138,荆门市,龙泉中学南校,,41,34,28,24,21,131,,147,147,4,11,6,4,0.4,0.5
2025-06-13T2000,1844A,112.2494,30.3197,荆州市,市图书馆,,35,21,23,21,17,112,,143,138,10,11,3,3,0.6,0.6
2025-06-13T2000,1845A,112.2008,30.3544,荆州市,市委党校,,32,29,25,22,20,100,,120,118,17,14,6,6,0.5,0.6
2025-06-13T2000,3194A,112.2747,30.3122,荆州市,管委会,,33,29,26,18,19,103,,134,129,8,10,6,6,0.7,0.7
2025-06-13T2000,4268A,112.1722,30.3366,荆州市,学苑路85号,,32,22,26,21,23,100,,128,124,5,35,3,3,0.4,0.3
2025-06-13T2000,2342A,117.3102,29.3867,景德镇市,王港中学,,,,,,,,,,,,,,,,
2025-06-13T2000,2343A,117.2117,29.2933,景德镇市,老干部活动中心,,20,20,17,10,10,60,,88,85,9,15,5,6,0.5,0.5
2025-06-13T2000,2344A,117.1894,29.2789,景德镇市,兽医站,,26,24,30,18,11,71,,88,84,6,12,4,6,0.5,0.5
2025-06-13T2000,2345A,117.1547,29.2617,景德镇市,台达陶瓷,,44,44,31,26,15,92,,88,85,12,14,14,19,0.6,0.6
2025-06-13T2000,2346A,117.2461,29.2956,景德镇市,陶研所,,18,18,26,3,13,55,,85,82,4,10,2,3,0.4,0.5
2025-06-13T2000,1803A,115.9872,29.6815,九江市,十里,,45,38,30,31,26,112,,132,129,18,14,4,4,0.9,0.7
2025-06-13T2000,1804A,115.9584,29.7046,九江市,茅山头,,48,48,34,27,25,151,,139,139,13,17,4,4,0.6,0.6
2025-06-13T2000,1805A,115.9877,29.7295,九江市,西园,,44,30,28,16,19,138,,144,144,21,27,9,6,1.2,1.1
2025-06-13T2000,1808A,115.9114,29.6038,九江市,综合工业园,颗粒物(PM10),52,54,30,26,22,104,,130,126,32,24,8,9,1.1,0.9
2025-06-13T2000,1809A,116.0721,29.7535,九江市,石化总厂,细颗粒物(PM2.5),68,52,34,49,27,149,,149,149,13,17,9,6,1.0,0.9
2025-06-13T2000,1810A,115.9773,29.5698,九江市,庐山气象台,,24,19,16,3,5,74,,85,85,5,4,7,8,1.1,0.9
2025-06-13T2000,3190A,116.0254,29.6994,九江市,外国语学校,细颗粒物(PM2.5),54,,24,38,23,114,,158,156,12,16,10,9,0.7,0.7
2025-06-13T2000,4253A,116.0102,29.6594,九江市,莲花大道8号,,26,21,23,18,20,78,,130,124,6,8,4,4,0.8,0.7
2025-06-13T2000,4240A,98.4958,39.7339,酒泉市,玉门东路5号,颗粒物(PM10),293,415,123,111,37,102,,118,116,8,10,9,12,0.2,0.2
2025-06-13T2000,4241A,98.5099,39.7506,酒泉市,北大街108号,颗粒物(PM10),255,388,108,106,27,106,,123,122,,13,11,27,0.3,0.2
2025-06-13T2000,2698A,76.0072,39.4467,喀什地区,巡警大队,颗粒物(PM10),149,247,792,83,202,99,,97,94,14,12,1,1,0.3,0.3
2025-06-13T2000,2699A,75.9755,39.4694,喀什地区,吾办,细颗粒物(PM2.5),403,,765,354,312,97,,96,91,14,15,3,3,0.0,0.1
2025-06-13T2000,4027A,75.9483,39.4689,喀什地区,老干局,细颗粒物(PM2.5),182,296,740,137,235,86,,96,76,8,9,6,8,0.1,0.3
2025-06-13T2000,1824A,114.3389,34.7781,开封市,肿瘤医院,臭氧1小时,84,55,51,23,26,187,,191,191,8,7,1,2,0.5,0.5
2025-06-13T2000,1826A,114.2885,34.7965,开封市,世纪星幼儿园,臭氧1小时,99,54,54,13,34,199,,206,206,14,14,3,2,0.7,0.6
2025-06-13T2000,3147A,114.3438,34.8106,开封市,龙亭公园,臭氧1小时,99,47,48,15,29,199,,196,196,9,10,4,5,0.4,0.4
2025-06-13T2000,3210A,114.3644,34.7964,开封市,汴京公园,臭氧1小时,92,76,60,20,37,193,,193,193,10,10,9,8,0.6,0.6
2025-06-13T2000,3473A,114.2485,34.8306,开封市,技师学院,臭氧1小时,101,44,55,23,36,201,,196,196,8,9,3,3,0.6,0.6
2025-06-13T2000,3592A,114.4644,34.7556,开封市,祥符区生态环境局,臭氧1小时,55,52,48,24,30,164,,192,192,33,17,4,4,0.5,0.6
2025-06-13T2000,1951A,84.895,45.6094,克拉玛依市,长征新村,,37,14,18,14,6,116,,118,118,9,4,4,4,0.2,0.3
2025-06-13T2000,1952A,84.8988,45.5893,克拉玛依市,南林小区,,,,27,,8,75,,121,118,24,7,13,12,0.1,0.1
2025-06-13T2000,1954A,84.905,44.3396,克拉玛依市,独山子区,,40,18,25,8,10,127,,128,128,7,11,6,7,0.2,0.2
2025-06-13T2000,1955A,85.6979,46.098,克拉玛依市,乌尔禾区商贸楼,,28,,20,19,8,80,,110,109,14,8,4,3,0.6,0.4
2025-06-13T2000,3612A,85.1045,45.6899,克拉玛依市,白碱滩区新站,,42,,31,18,24,133,,132,132,3,8,14,14,0.2,0.3
2025-06-13T2000,2697A,76.1454,39.7142,克孜勒苏柯尔克孜自治州,市人民政府,细颗粒物(PM2.5),238,276,917,188,383,113,,105,105,,7,,8,0.5,0.6
2025-06-13T2000,3665A,76.1658,39.7157,克孜勒苏柯尔克孜自治州,克州文化中心,细颗粒物(PM2.5),267,228,1062,217,413,111,,106,106,5,9,2,4,0.2,0.2
2025-06-13T2000,1450A,102.8204,24.8886,昆明市,呈贡新区,,47,39,33,27,30,148,,167,167,19,14,6,6,0.5,0.5
2025-06-13T2000,1451A,102.6251,24.9608,昆明市,西山森林公园,,,,,,,,,,,,,,,,
2025-06-13T2000,1452A,102.7252,25.0902,昆明市,龙泉镇,颗粒物(PM10),51,52,39,27,28,146,,157,157,19,16,1,1,0.5,0.4
2025-06-13T2000,1453A,102.7266,25.0375,昆明市,东风东路,臭氧1小时,54,46,52,35,33,163,,186,186,17,18,5,6,0.4,0.4
2025-06-13T2000,1454A,102.6742,25.0669,昆明市,金鼎山,颗粒物(PM10),53,56,42,23,24,151,,164,164,21,17,1,1,0.4,0.4
2025-06-13T2000,1455A,102.6644,25.0401,昆明市,碧鸡广场,,48,42,46,23,24,152,,166,166,24,19,5,6,0.5,0.5
2025-06-13T2000,3179A,102.7494,25.0119,昆明市,官渡区博物馆,颗粒物(PM10),56,62,48,25,28,157,,186,186,12,29,6,6,0.3,0.4
2025-06-13T2000,3375A,102.8017,24.8336,昆明市,青年创业园,,48,24,42,23,29,152,,171,171,12,17,8,9,0.3,0.3
2025-06-13T2000,3550A,102.7997,24.9786,昆明市,昆明学院,,50,44,61,23,33,159,,181,181,17,25,6,6,0.3,0.4
2025-06-13T2000,3551A,102.5967,24.6736,昆明市,晋宁区生态环境分局,,46,38,45,24,31,146,,163,163,14,14,2,2,0.4,0.5
2025-06-13T2000,3552A,102.6678,24.9856,昆明市,云天化总部,,50,29,42,16,29,160,,168,168,12,19,3,4,0.2,0.3
2025-06-13T2000,1456A,91.1319,29.6514,拉萨市,八廓街,,50,50,20,9,9,106,,115,113,12,9,7,7,0.3,0.3
2025-06-13T2000,1457A,91.1221,29.6747,拉萨市,市环保局,,44,44,24,8,10,110,,118,116,10,10,7,6,0.3,0.3
2025-06-13T2000,1458A,91.0874,29.6475,拉萨市,区监测站,,34,27,18,13,10,106,,114,112,17,11,6,6,0.3,0.3
2025-06-13T2000,1459A,91.1774,29.6541,拉萨市,西藏大学,,32,20,19,17,9,102,,117,115,12,9,4,4,0.2,0.2
2025-06-13T2000,1460A,90.9798,29.6588,拉萨市,区辐射站,,34,21,20,6,10,106,,104,104,7,9,5,6,0.2,0.3
2025-06-13T2000,1461A,91.0834,29.6292,拉萨市,拉萨火车站,,34,22,18,7,8,106,,113,112,11,8,4,4,0.2,0.1
2025-06-13T2000,2520A,109.2203,23.7256,来宾市,来宾技工学校,,18,8,19,8,12,55,,82,76,7,11,8,7,0.5,0.6
2025-06-13T2000,3535A,109.1781,23.7297,来宾市,兴宾区政府,,22,,17,15,14,56,,79,75,3,6,8,7,0.5,0.5
2025-06-13T2000,4002A,109.2416,23.7461,来宾市,中南小学,,18,12,18,3,10,55,,80,76,6,9,6,6,0.5,0.6
2025-06-13T2000,1477A,104.1373,35.9454,兰州市,榆中兰大校区,,,,,,,,,,,,,,,,
2025-06-13T2000,1479A,103.831,36.0464,兰州市,铁路设计院,颗粒物(PM10),87,123,88,58,38,114,,145,144,18,46,10,17,0.4,0.7
2025-06-13T2000,3241A,103.7439,36.0842,兰州市,百合公园,颗粒物(PM10),84,118,70,38,22,112,,157,155,6,28,6,7,0.0,0.4
2025-06-13T2000,3242A,103.9611,35.998,兰州市,和平,颗粒物(PM10),130,209,79,69,29,117,,153,150,9,10,9,10,0.6,0.6
2025-06-13T2000,4236A,103.6293,36.0938,兰州市,庄浪东路808号,颗粒物(PM10),74,97,73,39,38,111,,174,160,12,24,10,20,0.2,0.4
2025-06-13T2000,4237A,103.7251,36.1043,兰州市,安宁西路88号,颗粒物(PM10),100,150,88,52,34,128,,184,179,1,24,8,14,0.2,0.4
2025-06-13T2000,4238A,103.8470,36.0676,兰州市,北滨河东路1号,颗粒物(PM10),91,131,80,60,28,122,,160,158,13,49,10,14,0.5,0.7
2025-06-13T2000,3245A,103.6633,36.533,兰州新区,新区管委会,细颗粒物(PM2.5),120,153,58,91,31,124,,153,149,5,11,6,13,0.3,0.3
2025-06-13T2000,3246A,103.6975,36.4789,兰州新区,舟曲中学,颗粒物(PM10),111,171,77,53,25,114,,147,141,8,15,5,17,0.5,0.6
2025-06-13T2000,1067A,116.6708,39.5111,廊坊市,药材公司,臭氧1小时,108,106,80,45,35,215,,251,251,24,22,8,6,0.6,0.6
2025-06-13T2000,1068A,116.7214,39.5589,廊坊市,开发区,臭氧1小时,104,116,84,61,30,208,,253,253,21,22,7,6,0.6,0.5
2025-06-13T2000,1070A,116.7244,39.5269,廊坊市,北华航天学院,臭氧1小时,94,118,87,42,35,195,,235,235,20,20,7,6,0.5,0.5
2025-06-13T2000,2919A,116.7022,39.5453,廊坊市,河北工业大学,臭氧1小时,108,123,91,58,31,215,,255,255,23,23,9,7,0.6,0.5
2025-06-13T2000,2535A,103.7723,29.5462,乐山市,花湖湾,臭氧1小时,90,33,57,26,37,192,,197,194,6,20,11,14,0.6,1.1
2025-06-13T2000,2536A,103.7627,29.5844,乐山市,牛耳桥,,50,36,46,21,30,158,,180,177,17,25,9,11,0.6,0.9
2025-06-13T2000,2537A,103.7508,29.6006,乐山市,市第三水厂,臭氧1小时,77,36,44,18,26,181,,191,190,18,33,6,7,0.3,0.6
2025-06-13T2000,2538A,103.7571,29.5664,乐山市,市监测站,臭氧1小时,84,38,52,25,29,187,,203,201,11,20,10,16,0.5,1.2
2025-06-13T2000,3361A,103.7311,29.5628,乐山市,理工大学,臭氧1小时,59,37,56,20,32,167,,189,184,17,21,9,19,0.6,1.1
2025-06-13T2000,2598A,100.2143,26.8576,丽江市,西南郊,,45,32,35,18,21,143,,143,143,9,11,7,6,0.3,0.4
2025-06-13T2000,2599A,100.2497,26.8802,丽江市,丽江古城,,40,38,35,22,21,127,,129,129,14,15,10,9,0.4,0.5
2025-06-13T2000,2600A,100.2203,26.8906,丽江市,市中心,,38,25,33,16,19,119,,125,125,18,15,12,11,0.6,0.5
2025-06-13T2000,1267A,119.914,28.4514,丽水市,监测站大楼,,23,23,7,3,3,40,,54,54,12,12,2,2,0.6,0.6
2025-06-13T2000,1268A,119.93,28.4586,丽水市,莲都小学,,19,19,7,3,3,40,,57,57,10,13,3,3,0.4,0.4
2025-06-13T2000,1269A,119.879,28.4231,丽水市,余庄前,,12,12,7,3,0,8,,53,50,5,11,2,3,0.5,0.5
2025-06-13T2000,1173A,119.176,34.5885,连云港市,市环境监测站,,21,9,31,3,15,66,,79,69,10,12,4,5,0.5,0.5
2025-06-13T2000,3000A,119.3581,34.6972,连云港市,德源药业,,20,6,19,3,6,64,,78,76,12,13,8,9,0.5,0.7
2025-06-13T2000,3007A,119.178,34.844,连云港市,新城一中,,22,19,30,3,11,70,,79,77,10,15,6,6,0.5,0.7
2025-06-13T2000,3008A,119.3608,34.7519,连云港市,胡沟管理处,,20,7,18,3,9,39,,69,48,39,25,14,11,0.5,0.7
2025-06-13T2000,3009A,119.1478,34.5911,连云港市,矿山设计院,,20,7,30,7,11,62,,74,65,9,11,3,3,0.5,0.5
2025-06-13T2000,3434A,119.2413,34.6539,连云港市,工贸学校,,22,6,26,3,14,68,,83,71,2,6,7,7,0.5,0.6
2025-06-13T2000,3664A,119.4172,34.7341,连云港市,连云街道,,24,6,20,3,10,75,,76,75,2,8,6,8,0.5,0.6
2025-06-13T2000,2571A,102.3431,27.8099,凉山彝族自治州,青龙寺,,39,25,39,13,10,124,,158,156,6,11,4,7,0.5,0.6
2025-06-13T2000,2572A,102.2721,27.8415,凉山彝族自治州,邛海宾馆,,37,37,32,23,19,118,,145,145,10,16,8,10,0.5,0.6
2025-06-13T2000,2573A,102.2625,27.898,凉山彝族自治州,西昌市政府,,38,20,24,13,34,119,,162,160,12,13,6,8,0.4,0.6
2025-06-13T2000,2574A,102.2685,27.8851,凉山彝族自治州,凉山州政府,,38,38,31,23,19,116,,152,150,15,16,9,10,0.6,0.6
2025-06-13T2000,4229A,102.2342,27.8859,凉山彝族自治州,凯乐南路30号,,45,40,38,31,20,116,,151,150,11,20,9,12,0.5,0.6
2025-06-13T2000,2212A,123.2,41.1953,辽阳市,宏伟区,,39,16,19,9,7,122,,133,131,5,7,8,8,0.5,0.5
2025-06-13T2000,2213A,123.1683,41.2495,辽阳市,新华园,,37,22,24,12,10,118,,136,133,4,5,5,6,0.4,0.4
2025-06-13T2000,2214A,123.2354,41.2639,辽阳市,滨河路,,33,15,21,14,10,104,,118,117,10,11,8,9,0.4,0.4
2025-06-13T2000,2215A,123.149,41.2991,辽阳市,铁西工业园,,32,28,36,9,12,102,,117,115,6,9,4,5,0.4,0.4
2025-06-13T2000,2227A,125.1358,42.8845,辽源市,环保局,,39,18,29,10,13,123,,153,151,18,17,3,3,0.4,0.4
2025-06-13T2000,3239A,125.0764,42.9078,辽源市,银鹰制药,,42,16,25,8,12,132,,165,162,20,21,4,5,0.3,0.4
2025-06-13T2000,1625A,115.9848,36.4372,聊城市,区政府,臭氧1小时,53,47,60,19,21,162,,174,174,11,9,7,8,0.6,0.6
2025-06-13T2000,2878A,116.0072,36.4343,聊城市,聊大东校,,46,44,59,24,24,145,,175,173,18,11,5,7,0.6,0.5
2025-06-13T2000,3200A,115.9819,36.4978,聊城市,监控中心,,45,42,59,14,15,144,,173,172,22,10,7,8,0.4,0.4
2025-06-13T2000,3513A,116.0445,36.4361,聊城市,九州社区,颗粒物(PM10),51,52,61,13,17,143,,171,168,10,8,3,4,0.4,0.5
2025-06-13T2000,4018A,116.0567,36.4608,聊城市,星美广场,,47,44,62,11,14,149,,179,176,15,11,8,8,0.6,0.6
2025-06-13T2000,2632A,94.3681,29.6376,林芝市,林芝监测站,,29,,23,11,13,91,,96,96,8,8,3,3,0.4,0.4
2025-06-13T2000,2633A,94.3616,29.6616,林芝市,林芝人民医院,,25,15,19,12,12,79,,85,85,5,8,4,4,0.4,0.3
2025-06-13T2000,2603A,100.0781,23.8982,临沧市,市环保局,,,,,,,,,,,,,,,,
2025-06-13T2000,2604A,100.0894,23.8822,临沧市,市气象局,,45,37,38,31,29,111,,117,117,8,12,7,8,0.6,0.6
2025-06-13T2000,1733A,111.5531,36.0783,临汾市,临钢医院,颗粒物(PM10),72,94,71,19,24,145,,198,190,20,16,6,8,0.5,0.6
2025-06-13T2000,1734A,111.5028,36.0714,临汾市,技工学校,颗粒物(PM10),66,81,69,36,34,161,,207,202,12,12,6,8,0.6,0.7
2025-06-13T2000,1736A,111.5018,36.0855,临汾市,市委,,,90,86,22,24,165,,211,206,,16,7,8,,0.8
2025-06-13T2000,3018A,111.505,36.1014,临汾市,唐尧大酒店,颗粒物(PM10),76,102,88,18,24,151,,198,192,12,14,7,8,0.7,0.8
2025-06-13T2000,4244A,111.4879,36.0530,临汾市,启星学校,臭氧1小时,58,60,68,28,35,166,,208,204,11,11,4,7,0.6,0.7
2025-06-13T2000,4271A,103.2464,35.6123,临夏回族自治州,滨河东路1号,颗粒物(PM10),100,149,59,53,32,104,,122,120,2,12,9,9,0.3,0.4
2025-06-13T2000,4310A,103.2093,35.5995,临夏回族自治州,新华街21号,颗粒物(PM10),249,384,66,121,30,110,,128,125,,18,5,5,0.3,0.4
2025-06-13T2000,1618A,118.3429,35.0532,临沂市,沂河小区,,24,24,50,12,26,64,,87,84,11,13,5,6,0.3,0.4
2025-06-13T2000,1619A,118.295,35.0583,临沂市,鲁南制药厂,,26,19,48,18,28,70,,98,95,12,16,6,8,0.3,0.5
2025-06-13T2000,1620A,118.2794,34.9976,临沂市,新光毛纺厂,,30,22,45,21,29,65,,95,90,11,15,5,9,0.3,0.4
2025-06-13T2000,1621A,118.3956,35.0888,临沂市,河东保险公司,,29,29,39,16,16,60,,80,77,13,16,4,5,0.4,0.4
2025-06-13T2000,3370A,118.3564,35.0215,临沂市,十里堡居委,,22,22,43,12,25,64,,91,87,18,20,6,7,0.5,0.5
2025-06-13T2000,3496A,118.3604,35.1084,临沂市,南坊新区,,44,44,44,24,18,54,,81,77,16,18,6,7,0.2,0.3
2025-06-13T2000,3860A,118.3920,35.0300,临沂市,皇山花园小区,,22,22,44,8,21,63,,86,83,15,19,8,8,0.7,0.7
2025-06-13T2000,1870A,109.4856,24.3895,柳州市,柳东小学,,11,11,18,3,12,27,,61,55,8,6,9,10,0.4,0.5
2025-06-13T2000,1871A,109.4157,24.3277,柳州市,环保监测站,,16,16,25,8,15,31,,66,62,13,8,6,8,0.7,0.8
2025-06-13T2000,1872A,109.389,24.341,柳州市,河西水厂,,,26,28,10,14,38,,70,67,,10,5,10,,0.6
2025-06-13T2000,1873A,109.4311,24.2921,柳州市,市四中,,23,23,25,15,14,33,,72,66,16,10,7,9,0.7,0.7
2025-06-13T2000,1874A,109.4006,24.3631,柳州市,市九中,,28,20,26,19,15,36,,66,62,14,10,9,11,0.6,0.6
2025-06-13T2000,1875A,109.4958,24.3134,柳州市,古亭山,,,33,24,12,13,18,,77,65,13,7,5,6,,0.5
2025-06-13T2000,3402A,109.5422,24.3996,柳州市,市二中,,10,10,19,6,12,27,,68,60,17,9,13,13,0.2,0.2
2025-06-13T2000,2307A,116.5079,31.737,六安市,监测大楼,,29,22,34,15,23,90,,109,109,4,4,3,3,0.4,0.5
2025-06-13T2000,2308A,116.4738,31.7643,六安市,皖西学院,,31,18,36,10,20,99,,122,121,3,5,4,5,0.3,0.4
2025-06-13T2000,2309A,116.4996,31.7905,六安市,朝阳厂,,25,18,35,14,23,79,,109,106,13,12,5,5,0.4,0.4
2025-06-13T2000,2310A,116.5567,31.7886,六安市,开发区,,29,18,34,11,22,92,,107,106,4,6,6,6,0.4,0.5
2025-06-13T2000,2576A,104.8,26.5892,六盘水市,窑上,,39,39,42,15,15,103,,154,150,7,7,2,4,0.3,0.4
2025-06-13T2000,2577A,104.83,26.5917,六盘水市,黄土坡,,42,40,39,21,27,133,,162,160,14,15,10,13,0.4,0.5
2025-06-13T2000,2578A,104.89,26.5939,六盘水市,水钢,细颗粒物(PM2.5),57,54,59,40,34,135,,155,155,8,19,10,15,0.4,0.8
2025-06-13T2000,2579A,104.8475,26.5894,六盘水市,民中,,42,30,39,19,22,132,,157,157,10,18,8,13,0.3,0.6
2025-06-13T2000,2580A,104.9544,26.5506,六盘水市,双水,,38,29,34,13,18,121,,152,149,12,14,9,11,0.4,0.5
2025-06-13T2000,2335A,117.0189,25.1181,龙岩市,龙岩师专,,,,,,,,,,,,,,,,
2025-06-13T2000,2336A,117.0217,25.1033,龙岩市,龙岩市监测站,,13,,15,9,12,40,,68,64,14,13,4,5,0.5,0.4
2025-06-13T2000,2337A,117.0258,25.0661,龙岩市,闽西职业技术学院,,15,15,20,3,10,41,,60,57,11,11,3,16,0.4,0.4
2025-06-13T2000,2338A,117.0196,25.0306,龙岩市,龙岩学院,,,,17,5,8,50,,68,64,5,8,3,3,0.6,0.6
2025-06-13T2000,2665A,105.0822,33.3261,陇南市,汉王镇固水子,,,,,,,,,,,,,,,,
2025-06-13T2000,2885A,104.9339,33.3826,陇南市,滨江中学,颗粒物(PM10),57,63,35,30,21,158,,155,155,3,3,4,4,0.7,0.6
2025-06-13T2000,3247A,104.955,33.371,陇南市,市总工会,,,50,32,28,15,150,,154,154,6,4,,5,0.7,0.6
2025-06-13T2000,2487A,111.9589,27.8901,娄底市,电视发射台,颗粒物(PM10),64,77,32,11,8,34,,113,106,6,5,7,7,0.4,0.4
2025-06-13T2000,2488A,111.9975,27.725,娄底市,市监测站,,26,26,34,11,20,73,,85,81,11,19,8,12,0.8,1
2025-06-13T2000,2489A,112.0194,27.7314,娄底市,市委党校,,48,39,25,33,15,63,,86,80,6,8,8,8,0.5,0.6
2025-06-13T2000,2490A,111.9561,27.7569,娄底市,涟钢,,25,23,45,13,19,78,,80,79,9,18,3,4,0.7,1.2
2025-06-13T2000,2491A,111.9892,27.7044,娄底市,市政府,,40,,29,28,20,71,,80,78,8,7,5,5,0.7,1
2025-06-13T2000,1893A,105.4324,28.9634,泸州市,九狮山,细颗粒物(PM2.5),57,,40,40,30,132,,185,178,18,22,5,6,0.5,0.5
2025-06-13T2000,1894A,105.4427,28.9063,泸州市,小市上码头,,39,25,45,11,19,124,,138,138,7,16,10,11,0.6,0.6
2025-06-13T2000,1895A,105.4241,28.8573,泸州市,兰田宪桥,,,29,46,15,24,131,,172,167,,,9,9,0.5,0.6
2025-06-13T2000,1896A,105.4379,28.8833,泸州市,市环监站,,,,38,,20,135,,165,162,,23,6,12,0.3,1.1
2025-06-13T2000,4272A,105.3689,28.7783,泸州市,纳溪中医医院,,45,26,48,16,32,143,,166,164,11,18,6,7,0.8,0.9
2025-06-13T2000,2183A,111.1406,37.5211,吕梁市,环保局,,44,44,48,29,21,137,,164,157,11,11,3,4,0.3,0.4
2025-06-13T2000,2185A,111.1297,37.5136,吕梁市,自来水公司,,,,45,,17,,,122,,,11,,5,,0.3
2025-06-13T2000,2867A,111.1283,37.51,吕梁市,马茂庄小学,,45,45,56,17,18,134,,161,153,10,11,3,4,0.5,0.5
2025-06-13T2000,1812A,112.3931,34.6516,洛阳市,市委党校,臭氧1小时,55,47,54,34,33,164,,191,190,10,13,6,8,0.6,0.6
2025-06-13T2000,1815A,112.494,34.6886,洛阳市,河南林校,臭氧1小时,83,59,64,31,31,186,,219,219,11,17,5,8,0.6,0.7
2025-06-13T2000,1816A,112.3844,34.623,洛阳市,开发区管委会,臭氧1小时,80,43,48,27,29,184,,215,213,9,13,7,10,0.5,0.6
2025-06-13T2000,1817A,112.4267,34.6258,洛阳市,市委新办公区,臭氧1小时,72,56,53,25,29,177,,204,203,14,14,7,10,0.6,0.7
2025-06-13T2000,3340A,112.6005,34.6326,洛阳市,伊滨,臭氧1小时,85,53,70,24,31,188,,215,215,9,16,5,8,0.6,0.7
2025-06-13T2000,3341A,112.4951,34.6332,洛阳市,中移产业园,臭氧1小时,77,48,61,26,33,181,,212,211,15,16,6,9,0.9,0.8
2025-06-13T2000,3593A,112.5736,34.8993,洛阳市,吉利监测站,臭氧1小时,94,83,69,36,32,195,,223,223,18,20,5,9,0.7,0.6
2025-06-13T2000,3635A,112.3677,34.662,洛阳市,河科大西苑校区,臭氧1小时,85,49,58,25,27,188,,214,213,20,16,9,10,0.6,0.5
2025-06-13T2000,3636A,112.4388,34.6781,洛阳市,英才小学,臭氧1小时,75,58,69,30,29,180,,213,212,10,14,7,10,0.7,0.7
2025-06-13T2000,4214A,112.4600,34.6949,洛阳市,春都路1号院,臭氧1小时,78,66,65,29,29,182,,215,214,13,14,6,8,0.6,0.6
2025-06-13T2000,2399A,114.051,33.5699,漯河市,三五一五工厂,臭氧1小时,88,40,39,29,32,190,,194,194,13,16,4,5,0.6,0.6
2025-06-13T2000,2400A,114.0055,33.5698,漯河市,漯河大学,臭氧1小时,89,48,47,24,25,191,,198,198,17,14,4,4,0.5,0.5
2025-06-13T2000,2401A,114.0138,33.5828,漯河市,市水利局,臭氧1小时,97,44,47,22,28,197,,199,199,13,12,4,4,0.7,0.7
2025-06-13T2000,2402A,114.0261,33.5698,漯河市,市广电局,臭氧1小时,90,39,43,14,29,192,,198,198,18,12,4,2,0.4,0.5
2025-06-13T2000,3478A,113.9749,33.5664,漯河市,市图书馆,臭氧1小时,85,44,47,26,27,188,,196,196,16,15,4,4,0.6,0.6
2025-06-13T2000,4250A,114.0892,33.5882,漯河市,韶山路11号,臭氧1小时,75,49,47,23,27,180,,198,198,18,14,5,5,0.6,0.7
2025-06-13T2000,1798A,118.5092,31.6837,马鞍山市,湖东路四小,,29,29,31,7,12,85,,92,92,7,9,7,7,0.5,0.5
2025-06-13T2000,1799A,118.5024,31.6449,马鞍山市,开发区,,39,39,30,9,11,116,,104,104,10,11,6,7,0.6,0.6
2025-06-13T2000,1802A,118.6245,31.7241,马鞍山市,濮塘,,29,,24,20,18,76,,94,93,2,3,7,7,0.6,0.7
2025-06-13T2000,3633A,118.4918,31.6809,马鞍山市,雨山,,43,43,26,10,12,94,,95,95,8,10,6,7,0.7,0.7
2025-06-13T2000,4191A,118.5274,31.72227,马鞍山市,慈湖高新区,,26,11,30,3,16,81,,88,88,12,13,6,7,0.4,0.4
2025-06-13T2000,1686A,111.0286,21.4688,茂名市,电白南海,,18,12,20,12,12,46,,57,53,6,6,2,3,0.4,0.4
2025-06-13T2000,1687A,110.9294,21.6533,茂名市,茂石化七小,,34,34,22,14,6,36,,47,45,9,7,5,3,0.2,0.2
2025-06-13T2000,1688A,110.9107,21.6687,茂名市,健康路,,22,22,14,12,10,44,,53,52,7,6,6,5,0.5,0.4
2025-06-13T2000,1689A,110.8592,21.6828,茂名市,高岭,,27,27,26,7,6,39,,48,46,11,10,5,9,0.4,0.5
2025-06-13T2000,3450A,111.01,21.5165,茂名市,电白水东,,,,17,,7,44,,53,50,,9,6,4,0.3,0.3
2025-06-13T2000,2539A,104.0308,30.0478,眉山市,黑龙滩水库,臭氧1小时,107,25,22,22,19,214,,210,210,2,11,2,2,0.6,0.7
2025-06-13T2000,2540A,103.8416,30.0874,眉山市,气象局,臭氧1小时,93,67,47,22,25,194,,219,216,18,48,3,3,0.4,0.5
2025-06-13T2000,3137A,103.8578,30.0744,眉山市,市委党校,臭氧1小时,80,36,37,17,20,184,,200,198,17,38,6,5,0.5,0.6
2025-06-13T2000,3148A,103.8291,30.0564,眉山市,区人社局,,,64,55,17,20,199,,216,215,,50,11,13,0.6,0.6
2025-06-13T2000,1690A,116.1231,24.3284,梅州市,梅江月梅,,29,29,23,12,10,24,,58,46,13,13,6,6,0.6,0.6
2025-06-13T2000,1691A,116.0797,24.2719,梅州市,梅县新城,,18,,17,12,16,33,,64,54,11,6,5,6,0.5,0.5
2025-06-13T2000,1692A,116.1248,24.2654,梅州市,环境监控中心,,,104,23,31,12,22,,71,56,,13,,2,0.5,0.5
2025-06-13T2000,3315A,116.1233,24.2991,梅州市,梅龙,,19,19,17,11,9,29,,73,58,16,9,6,6,0.6,0.5
2025-06-13T2000,1878A,104.7778,31.4741,绵阳市,富乐山,臭氧1小时,79,55,55,35,35,183,,195,192,16,14,9,9,0.7,0.6
2025-06-13T2000,1880A,104.6697,31.4668,绵阳市,高新区自来水公司,臭氧1小时,67,46,60,29,32,173,,173,173,18,25,8,9,0.7,0.7
2025-06-13T2000,1881A,104.7287,31.5075,绵阳市,三水厂,臭氧1小时,59,37,63,32,46,167,,189,185,32,32,10,10,0.6,0.7
2025-06-13T2000,3491A,104.69,31.5322,绵阳市,西科大附属小学,臭氧1小时,63,60,64,37,37,170,,194,192,26,28,9,9,0.5,0.6
2025-06-13T2000,3492A,104.5648,31.5343,绵阳市,安州区旅游局,臭氧1小时,72,41,49,27,27,177,,179,179,16,14,8,8,0.4,0.5
2025-06-13T2000,4226A,104.7651,31.4531,绵阳市,绵阳市气象局,臭氧1小时,73,57,56,35,35,178,,174,173,22,21,6,8,0.5,0.5
2025-06-13T2000,1784A,129.61,44.561,牡丹江市,环保大楼,,50,50,23,20,14,73,,121,116,35,17,10,8,0.4,0.3
2025-06-13T2000,1785A,129.6115,44.5782,牡丹江市,文化广场,颗粒物(PM10),62,73,24,34,15,57,,118,112,48,20,8,5,0.9,0.4
2025-06-13T2000,1786A,129.5904,44.5963,牡丹江市,第一医院,,28,28,17,17,9,56,,119,112,36,19,6,6,0.4,0.3
2025-06-13T2000,1787A,129.6364,44.6075,牡丹江市,机车工厂,,33,33,24,12,10,70,,111,107,22,21,7,7,0.5,0.4
2025-06-13T2000,1788A,129.6386,44.5462,牡丹江市,第一中学,,33,33,24,11,12,38,,117,106,29,20,8,8,0.4,0.4
2025-06-13T2000,2531A,105.0703,29.61,内江市,市监测站,,47,38,38,24,26,149,,165,164,12,16,5,7,0.5,0.5
2025-06-13T2000,2532A,105.0717,29.5947,内江市,东兴区政府,,,20,33,16,21,162,,176,175,11,13,,9,,0.4
2025-06-13T2000,2533A,105.0653,29.5817,内江市,内江二中,,50,36,34,19,28,157,,167,167,9,15,6,7,0.4,0.5
2025-06-13T2000,2534A,105.0406,29.5822,内江市,内江日报社,,49,45,32,25,27,155,,167,166,13,20,14,12,0.3,0.3
2025-06-13T2000,2628A,92.0657,31.4846,那曲市,那曲监测站,,39,39,37,12,15,97,,94,94,10,17,6,6,0.4,0.3
2025-06-13T2000,4243A,92.0515,31.4787,那曲市,那曲市委宣传部,,33,23,29,10,12,103,,103,103,4,13,5,6,0.1,0.3
2025-06-13T2000,1290A,115.8931,28.6843,南昌市,省外办,,35,30,31,24,25,109,,139,130,6,15,4,3,0.6,0.8
2025-06-13T2000,1291A,115.8886,28.7003,南昌市,省林业公司,,32,31,30,22,20,99,,122,118,10,15,8,9,0.6,0.7
2025-06-13T2000,1292A,115.8126,28.7442,南昌市,林科所,,29,29,20,19,15,55,,119,109,27,12,5,5,0.6,0.4
2025-06-13T2000,1294A,115.8518,28.687,南昌市,建工学校,,50,41,28,35,16,99,,122,116,7,8,7,6,0.4,0.5
2025-06-13T2000,1295A,115.8921,28.6424,南昌市,象湖,,36,36,25,24,17,99,,120,114,12,12,8,7,0.8,0.8
2025-06-13T2000,1296A,115.7423,28.7996,南昌市,武术学校,,49,49,34,11,10,27,,89,72,3,4,7,7,0.4,0.5
2025-06-13T2000,3046A,115.9084,28.6062,南昌市,机电学校,颗粒物(PM10),53,55,36,29,21,100,,126,120,10,10,5,4,0.2,0.3
2025-06-13T2000,3690A,115.9721,28.7031,南昌市,外国语学校,,36,36,34,15,17,80,,133,121,15,19,10,10,0.4,0.6
2025-06-13T2000,4192A,115.9316,28.68677,南昌市,南京东路235号,,,44,39,26,24,84,,125,116,14,13,,9,0.6,0.7
2025-06-13T2000,1905A,106.056,30.8064,南充市,西山风景区,,,,,,,,,,,,,,,,
2025-06-13T2000,1906A,106.0789,30.8023,南充市,南充市委,臭氧1小时,57,40,42,37,26,165,,172,172,16,20,6,7,0.4,0.5
2025-06-13T2000,1907A,106.1031,30.8217,南充市,南充炼油厂,臭氧1小时,52,37,47,28,29,161,,166,166,11,15,6,7,0.5,0.5
2025-06-13T2000,4227A,106.1083,30.7884,南充市,梨树横街98号,臭氧1小时,52,36,42,18,25,161,,167,167,10,17,6,6,0.3,0.4
2025-06-13T2000,4304A,106.1172,30.843,南充市,清泉寺北路188号,臭氧1小时,57,,44,34,18,165,,169,169,10,14,5,5,0.3,0.3
2025-06-13T2000,4305A,106.067,30.7616,南充市,同庆路1号,,50,46,44,19,28,158,,160,160,10,14,5,4,0.3,0.4
2025-06-13T2000,1151A,118.8086,32.1065,南京市,迈皋桥,,20,20,30,12,17,28,,71,68,12,12,4,4,0.2,0.4
2025-06-13T2000,1152A,118.7538,32.0551,南京市,草场门,,25,24,27,17,18,39,,88,84,31,16,1,1,0.7,0.5
2025-06-13T2000,1153A,118.7794,32.0745,南京市,山西路,,27,27,32,9,12,45,,95,91,30,20,3,3,0.4,0.2
2025-06-13T2000,1154A,118.7752,32.0023,南京市,中华门,,29,29,22,12,15,25,,74,69,37,18,6,7,0.7,0.5
2025-06-13T2000,1155A,118.8109,32.0309,南京市,瑞金路,,25,17,23,17,19,20,,67,62,31,10,6,6,0.3,0.4
2025-06-13T2000,1156A,118.7997,32.0754,南京市,玄武湖,,21,21,27,3,8,33,,73,70,16,11,3,3,0.4,0.4
2025-06-13T2000,1157A,118.6414,32.0931,南京市,浦口,,20,14,27,7,16,64,,95,95,10,17,2,3,0.5,0.6
2025-06-13T2000,1158A,118.7356,31.9996,南京市,奥体中心,,25,22,26,17,19,41,,88,84,22,12,3,3,0.5,0.3
2025-06-13T2000,1159A,118.9125,32.1028,南京市,仙林大学城,,34,34,30,7,12,52,,72,71,27,9,9,8,0.6,0.5
2025-06-13T2000,3422A,118.8436,31.9198,南京市,江宁彩虹桥,,25,18,32,17,17,50,,87,84,28,15,4,4,0.4,0.4
2025-06-13T2000,3427A,118.8554,32.3578,南京市,六合雄州,,34,34,35,20,24,76,,61,61,24,26,2,3,0.7,0.7
2025-06-13T2000,4249A,118.8708,31.3402,南京市,汶溪路181号,,32,32,18,18,12,101,,96,96,13,13,1,3,0.5,0.6
2025-06-13T2000,4312A,119.019,31.6512,南京市,中山西路1号,,32,19,19,9,12,102,,104,104,10,8,4,4,0.4,0.3
2025-06-13T2000,1401A,108.3103,22.7881,南宁市,二十一中,,17,,17,8,8,53,,70,68,10,11,3,3,0.5,0.5
2025-06-13T2000,1402A,108.3141,22.8528,南宁市,北湖,,16,12,15,6,7,51,,78,74,14,12,7,6,0.5,0.5
2025-06-13T2000,1403A,108.3206,22.8225,南宁市,市监测站,,18,17,16,12,8,47,,68,66,14,11,1,2,0.6,0.6
2025-06-13T2000,1404A,108.3829,22.8037,南宁市,大自然花园,,18,,15,9,10,57,,75,72,8,7,5,5,0.4,0.5
2025-06-13T2000,1405A,108.4394,22.7904,南宁市,仙葫,,18,15,16,6,9,56,,73,69,10,8,6,8,0.5,0.5
2025-06-13T2000,1406A,108.2397,22.8467,南宁市,区农职院,,19,19,19,10,10,53,,71,69,13,11,5,5,0.5,0.6
2025-06-13T2000,1407A,108.3275,22.735,南宁市,英华嘉园,,19,12,15,3,8,60,,77,75,7,7,6,7,0.4,0.4
2025-06-13T2000,3401A,108.4834,22.7618,南宁市,红星社区,,16,11,12,3,9,50,,75,71,9,4,1,2,0.4,0.4
2025-06-13T2000,4221A,108.2177,22.7774,南宁市,乐贤路16号,,16,,18,10,11,51,,73,70,11,12,5,11,0.3,0.4
2025-06-13T2000,2331A,118.0966,26.6761,南平市,茫荡山,,,,4,,4,,,12,,,,,2,,0.3
2025-06-13T2000,2332A,118.1681,26.6369,南平市,南平市监测站,,11,11,9,6,5,32,,46,43,6,9,4,4,0.6,0.5
2025-06-13T2000,2333A,118.1825,26.6489,南平市,南平铝业有限公司,,12,12,16,3,2,30,,47,44,9,10,6,4,0.7,0.6
2025-06-13T2000,2334A,118.1756,26.6272,南平市,南平七中,,11,6,14,3,5,33,,47,44,1,6,4,5,0.4,0.4
2025-06-13T2000,1168A,120.9098,31.9663,南通市,狼山街道,,14,10,12,3,6,43,,54,54,6,8,3,3,0.6,0.7
2025-06-13T2000,1169A,120.86,32.0005,南通市,虹桥,,14,,15,7,10,44,,58,58,10,14,1,2,0.4,0.5
2025-06-13T2000,1170A,120.87,32.02,南通市,城中,,14,12,13,3,6,42,,58,58,9,10,4,4,0.6,0.7
2025-06-13T2000,1171A,120.94,31.93,南通市,星湖花园,,12,,6,3,8,37,,47,47,10,13,2,2,0.4,0.5
2025-06-13T2000,1172A,120.81,32.0417,南通市,紫琅学院,,12,10,15,3,5,36,,55,53,12,12,4,4,0.4,0.5
2025-06-13T2000,3291A,121.067,32.062,南通市,通州监测站,,,6,4,3,3,45,,54,46,,4,,5,0.5,0.5
2025-06-13T2000,3432A,120.9348,31.9883,南通市,环境教育馆,,13,12,16,3,5,40,,51,51,10,13,2,2,0.1,0.2
2025-06-13T2000,2404A,112.5224,33.0122,南阳市,瓦房庄,,45,40,42,12,15,143,,166,162,9,8,6,6,0.5,0.6
2025-06-13T2000,2405A,112.5003,32.9735,南阳市,汉画馆,,45,38,40,16,17,144,,173,172,16,12,6,6,0.5,0.6
2025-06-13T2000,2406A,112.5573,33.027,南阳市,气象站,,47,33,43,17,23,150,,173,173,7,8,5,5,0.3,0.4
2025-06-13T2000,2407A,112.5481,32.9689,南阳市,理工学院,,40,40,42,16,23,125,,165,163,27,13,5,5,0.4,0.5
2025-06-13T2000,4008A,112.5234,32.9922,南阳市,卧龙区政府,,,,30,30,27,151,,172,172,16,11,5,5,0.4,0.6
2025-06-13T2000,1234A,121.8358,29.911,宁波市,区环保大楼,,13,9,15,6,7,39,,40,40,16,21,2,6,0.5,0.4
2025-06-13T2000,1235A,121.56,29.82,宁波市,万里学院,,12,12,12,8,4,30,,33,33,19,14,2,2,0.4,0.4
2025-06-13T2000,1236A,121.713,29.9572,宁波市,龙赛医院,,15,15,12,7,7,34,,29,29,18,19,10,9,0.5,0.5
2025-06-13T2000,1239A,121.633,29.7733,宁波市,钱湖水厂,,11,6,5,3,2,35,,43,42,8,7,3,3,0.4,0.4
2025-06-13T2000,1240A,121.5856,29.8635,宁波市,太古小学,,19,19,7,11,7,26,,28,28,21,15,3,3,0.6,0.6
2025-06-13T2000,1241A,121.524,29.8674,宁波市,市环境监测中心,,23,23,10,9,9,20,,20,20,30,21,3,3,0.7,0.5
2025-06-13T2000,2871A,121.6147,29.9017,宁波市,万里国际学校,,12,11,9,6,7,38,,32,32,12,15,2,2,0.5,0.5
2025-06-13T2000,3710A,121.5594,29.8975,宁波市,白沙活动中心,,14,14,11,9,5,26,,24,24,21,16,8,8,0.5,0.5
2025-06-13T2000,2339A,119.5001,26.6946,宁德市,金涵水库,,,,11,,4,,,17,,,2,,1,,0.5
2025-06-13T2000,2341A,119.5388,26.6612,宁德市,宁德市监测站,,16,16,12,7,6,27,,61,54,22,8,4,4,0.4,0.1
2025-06-13T2000,3209A,119.5231,26.6562,宁德市,宁德一中,,26,26,16,9,6,35,,65,62,15,6,3,3,0.6,0.3
2025-06-13T2000,2618A,98.8601,25.8567,怒江傈僳族自治州,州监测站,,43,43,30,27,20,107,,128,128,14,10,8,8,0.5,0.4
2025-06-13T2000,2619A,98.8546,25.8417,怒江傈僳族自治州,泸水一中,,32,32,29,8,18,88,,108,108,17,11,6,6,0.5,0.4
2025-06-13T2000,1888A,101.6891,26.571,攀枝花市,弄弄坪,,44,37,56,30,28,138,,160,159,10,20,8,14,0.7,1
2025-06-13T2000,1889A,101.5769,26.5928,攀枝花市,河门口,,41,38,50,24,29,131,,174,172,8,16,6,13,0.5,0.7
2025-06-13T2000,1890A,101.7169,26.585,攀枝花市,炳草岗,,48,48,53,21,29,142,,166,166,18,24,10,13,0.7,0.8
2025-06-13T2000,1891A,101.7369,26.5008,攀枝花市,仁和,,39,39,48,27,29,117,,146,143,13,17,8,16,0.6,0.9
2025-06-13T2000,2835A,101.7227,26.567,攀枝花市,四十中小,,46,46,50,29,28,131,,175,172,28,30,11,22,0.9,0.9
2025-06-13T2000,1604A,122.0303,41.1489,盘锦市,开发区,,41,15,27,13,9,131,,141,140,13,18,7,10,0.2,0.2
2025-06-13T2000,1605A,122.0485,41.0883,盘锦市,兴隆台,,40,22,24,16,9,126,,140,139,21,19,5,6,0.3,0.3
2025-06-13T2000,1606A,121.8297,41.1028,盘锦市,新生街道,,39,13,18,12,9,123,,143,139,16,15,9,9,0.4,0.5
2025-06-13T2000,1832A,113.3257,33.742,平顶山市,新华旅馆,臭氧1小时,92,51,40,20,24,193,,187,187,16,11,5,6,0.6,0.6
2025-06-13T2000,1833A,113.2919,33.737,平顶山市,规划设计院,臭氧1小时,75,55,42,32,28,180,,177,177,17,15,5,6,0.6,0.6
2025-06-13T2000,1834A,113.182,33.774,平顶山市,平顶山工学院,臭氧1小时,94,43,43,27,24,195,,184,184,11,11,6,4,0.5,0.5
2025-06-13T2000,3204A,113.3025,33.73,平顶山市,规划局,臭氧1小时,92,58,43,20,17,193,,183,183,12,14,4,5,0.5,0.5
2025-06-13T2000,3594A,112.8867,33.9116,平顶山市,石龙区,臭氧1小时,73,51,52,23,24,178,,184,184,15,16,6,6,0.5,0.6
2025-06-13T2000,2656A,106.6692,35.5461,平凉市,聚贤嘉苑,,48,42,40,23,22,152,,156,155,12,18,3,6,0.5,0.5
2025-06-13T2000,2657A,106.7021,35.5307,平凉市,博物馆,,50,44,42,23,18,159,,165,163,12,17,8,10,0.5,0.6
2025-06-13T2000,2347A,114.0997,27.5002,萍乡市,武功山,,8,6,6,3,4,25,,56,49,3,4,13,12,0.4,0.4
2025-06-13T2000,2348A,113.8385,27.6434,萍乡市,中医院,,26,26,37,12,26,62,,128,107,5,10,9,14,0.8,1
2025-06-13T2000,2349A,113.8493,27.6253,萍乡市,市政府车库,,,,30,3,28,53,,111,98,7,11,7,11,0.6,1.3
2025-06-13T2000,2350A,113.8676,27.6435,萍乡市,市环保局,,38,32,33,26,21,70,,119,105,3,6,6,10,0.8,1.1
2025-06-13T2000,2351A,113.866,27.6198,萍乡市,安源区政府,,39,39,34,16,23,58,,105,98,3,13,6,8,0.6,1
2025-06-13T2000,2319A,119.0141,25.4325,莆田市,荔城区仓后路,,18,8,17,3,3,55,,71,62,8,8,3,3,0.4,0.3
2025-06-13T2000,2320A,119.0015,25.4553,莆田市,莆田市监测站,,,3,15,,5,56,,75,69,6,6,3,3,0.4,0.4
2025-06-13T2000,2321A,119.1119,25.4561,莆田市,涵江区六中,,16,6,19,3,6,50,,70,57,7,7,3,3,0.3,0.3
2025-06-13T2000,2322A,119.1013,25.3215,莆田市,秀屿区政府,,20,20,18,3,4,46,,70,58,8,7,4,3,0.3,0.3
2025-06-13T2000,2323A,118.981,25.4792,莆田市,东圳水库,,,,14,,8,,,58,,,4,,3,,0.4
2025-06-13T2000,2392A,115.0312,35.7636,濮阳市,环保局,臭氧1小时,73,51,50,25,29,178,,194,194,20,15,5,6,0.7,0.6
2025-06-13T2000,2394A,115.0574,35.7609,濮阳市,油田运输公司,臭氧1小时,73,56,61,30,31,178,,192,192,22,16,5,7,0.8,0.8
2025-06-13T2000,3021A,115,35.7668,濮阳市,濮水河管理处,颗粒物(PM10),51,52,55,29,33,137,,184,181,40,19,5,6,0.7,0.7
2025-06-13T2000,4216A,115.0924,35.7686,濮阳市,任丘路479号,颗粒物(PM10),63,76,66,33,30,167,,181,181,12,10,6,7,0.7,0.8
2025-06-13T2000,2601A,100.98,22.7633,普洱市,市环保局,颗粒物(PM10),54,58,50,32,18,96,,102,102,8,10,4,4,0.6,0.6
2025-06-13T2000,2602A,100.9817,22.8322,普洱市,普洱第二中学,颗粒物(PM10),52,54,50,35,23,100,,111,111,14,16,7,6,0.6,0.5
2025-06-13T2000,2262A,131.0518,45.8751,七台河市,新一中,,35,34,22,16,16,111,,114,114,15,13,11,10,0.9,0.9
2025-06-13T2000,3345A,131.0577,45.7879,七台河市,中波台,,26,9,8,7,7,82,,80,80,15,15,6,7,0.3,0.3
2025-06-13T2000,3637A,131.0176,45.7761,七台河市,人民广场,,36,36,24,20,14,63,,78,78,20,13,10,10,0.7,0.6
2025-06-13T2000,3684A,130.8781,45.8222,七台河市,新建矿广场,,27,27,23,12,11,66,,71,70,23,22,12,10,0.5,0.5
2025-06-13T2000,1779A,123.9305,47.3636,齐齐哈尔市,安居小区,,34,34,30,12,19,73,,87,86,20,16,6,5,0.6,0.6
2025-06-13T2000,1780A,123.9488,47.3386,齐齐哈尔市,中心广场,,36,36,40,14,17,85,,94,94,22,19,7,7,0.5,0.5
2025-06-13T2000,1781A,123.9483,47.3227,齐齐哈尔市,农牧车辆厂,,27,27,34,8,18,82,,89,89,16,18,6,6,0.1,0.2
2025-06-13T2000,1783A,123.945,47.2988,齐齐哈尔市,市环境监测站,,30,30,26,16,19,91,,98,98,13,12,4,4,0.3,0.4
2025-06-13T2000,3662A,123.6333,47.2075,齐齐哈尔市,富区青少年活动中心,,34,34,21,14,16,77,,87,86,12,14,3,3,0.6,0.4
2025-06-13T2000,2591A,107.9783,26.5747,黔东南苗族侗族自治州,市环境监测站,,17,17,24,10,17,39,,76,71,15,13,2,2,0.5,0.5
2025-06-13T2000,2881A,107.8908,26.5311,黔东南苗族侗族自治州,凯里学院,,18,,15,12,15,45,,80,76,3,9,2,2,0.3,0.4
2025-06-13T2000,2593A,107.5228,26.2403,黔南布依族苗族自治州,小围寨,,18,6,9,3,5,57,,63,62,4,6,3,3,0.3,0.5
2025-06-13T2000,3538A,107.5175,26.2978,黔南布依族苗族自治州,沙坝,,18,17,17,3,8,56,,69,68,6,7,4,3,0.5,0.5
2025-06-13T2000,2589A,104.9022,25.0925,黔西南布依族苗族自治州,场坝街,,24,24,27,8,15,54,,70,68,6,10,5,20,0.3,0.3
2025-06-13T2000,2590A,104.8811,25.0992,黔西南布依族苗族自治州,坪东大道,,22,20,20,3,11,70,,96,91,8,10,2,2,0.1,0.2
2025-06-13T2000,2502A,108.6236,21.9667,钦州市,市环保站,,14,12,18,3,5,44,,69,62,11,10,2,2,0.4,0.4
2025-06-13T2000,2503A,108.6549,21.9481,钦州市,沙埠小学,,19,19,26,9,11,36,,69,61,13,10,3,2,0.3,0.3
2025-06-13T2000,2504A,108.5989,21.7431,钦州市,港区一小,,36,36,28,9,10,39,,55,48,14,15,1,2,0.5,0.5
2025-06-13T2000,3404A,108.5959,21.9633,钦州市,北职校,,14,14,21,6,10,35,,66,59,13,9,1,1,0.4,0.6
2025-06-13T2000,1043A,119.7493,40.0116,秦皇岛市,第一关,,36,27,26,18,16,115,,130,128,8,22,4,4,0.2,0.2
2025-06-13T2000,1044A,119.5897,39.9499,秦皇岛市,监测站,,39,30,36,10,9,124,,132,132,9,13,3,4,0.3,0.3
2025-06-13T2000,1046A,119.5251,39.9041,秦皇岛市,建设大厦,,38,36,35,24,11,120,,128,128,9,21,3,4,0.3,0.2
2025-06-13T2000,3132A,119.610547,39.943889,秦皇岛市,文明里,,39,31,31,17,11,123,,131,131,6,9,4,4,0.1,0.1
2025-06-13T2000,4198A,119.5090,39.8253,秦皇岛市,北戴河轮滑馆,,37,27,31,15,10,116,,128,128,6,9,2,3,0.2,0.2
2025-06-13T2000,1307A,120.6659,36.2403,青岛市,仰口,,24,,5,6,8,76,,82,75,4,6,8,8,0.6,0.6
2025-06-13T2000,1310A,120.4134,36.0658,青岛市,市南区东部子站,,28,6,5,3,3,89,,96,80,4,5,8,8,0.2,0.3
2025-06-13T2000,1311A,120.3664,36.1032,青岛市,四方区子站,,33,6,6,3,6,105,,108,95,9,10,9,6,0.4,0.5
2025-06-13T2000,1312A,120.2994,36.054,青岛市,市南区西部子站,,28,6,7,3,5,87,,94,78,10,12,8,8,0.4,0.4
2025-06-13T2000,1313A,120.4581,36.0858,青岛市,崂山区子站,,28,6,4,3,1,89,,100,84,5,3,6,6,0.2,0.2
2025-06-13T2000,1315A,120.3999,36.3083,青岛市,城阳区子站,,28,7,14,3,5,87,,95,84,12,13,4,5,0.2,0.2
2025-06-13T2000,1966A,120.0405,35.8735,青岛市,黄岛区4号,,34,6,5,3,0,106,,114,97,5,6,8,8,0.5,0.5
2025-06-13T2000,3362A,120.5014,36.4034,青岛市,即墨2号,,28,,6,3,7,88,,95,84,6,6,8,8,0.2,0.2
2025-06-13T2000,3642A,120.3503,36.0736,青岛市,市北区南部,,27,6,11,3,3,86,,90,77,9,10,6,6,0.3,0.3
2025-06-13T2000,3643A,120.3948,36.1805,青岛市,李沧区北部,,25,,3,17,12,61,,84,60,15,8,7,7,0.4,0.4
2025-06-13T2000,4290A,120.1969,35.9546,青岛市,珠江路669号,,30,6,7,3,3,96,,100,85,3,6,6,6,0.2,0.2
2025-06-13T2000,1702A,113.0426,23.691,清远市,环保大楼,颗粒物(PM10),53,55,46,8,7,54,,60,60,11,10,5,6,0.4,0.4
2025-06-13T2000,1703A,113.0208,23.7106,清远市,凤城街办,,18,13,13,8,9,57,,64,64,14,11,8,8,0.5,0.5
2025-06-13T2000,3025A,113.0477,23.6344,清远市,技师学院,,15,13,15,7,8,47,,68,67,21,15,9,10,0.5,0.5
2025-06-13T2000,3318A,112.9903,23.7403,清远市,清新太和,,20,12,14,3,6,61,,66,66,10,8,6,6,0.4,0.5
2025-06-13T2000,3455A,113.076,23.7198,清远市,清城东城,,18,14,16,3,6,56,,62,62,9,7,8,8,0.6,0.6
2025-06-13T2000,2661A,107.6325,35.7357,庆阳市,庆阳五中,,45,39,44,26,18,143,,152,150,14,11,4,8,0.5,0.4
2025-06-13T2000,2662A,107.6364,35.7067,庆阳市,市环保局,,49,49,51,23,17,150,,158,156,10,9,6,17,0.5,0.5
2025-06-13T2000,1916A,103.7897,25.5035,曲靖市,环境监测站,颗粒物(PM10),52,54,51,17,27,134,,159,159,11,17,4,7,0.4,0.6
2025-06-13T2000,1917A,103.8,25.5364,曲靖市,烟厂办公区,颗粒物(PM10),51,51,48,20,28,139,,158,158,10,13,4,6,0.4,0.6
2025-06-13T2000,3376A,103.7947,25.462,曲靖市,南苑二区,,43,28,40,22,23,136,,161,161,10,11,4,5,0.3,0.4
2025-06-13T2000,3377A,103.7444,25.5261,曲靖市,曲靖师范学院,颗粒物(PM10),62,73,46,18,33,146,,155,155,9,21,7,13,0.4,0.5
2025-06-13T2000,1264A,118.8692,28.9398,衢州市,环保大楼,,16,16,18,8,10,42,,79,77,16,12,4,4,0.4,0.4
2025-06-13T2000,1265A,118.8709,28.9666,衢州市,实验学校,,23,16,17,9,9,71,,89,89,16,12,4,2,0.3,0.2
2025-06-13T2000,1266A,118.8621,28.9808,衢州市,衢州学院,,21,14,16,8,9,65,,85,85,19,13,3,3,0.3,0.3
2025-06-13T2000,1611A,118.5819,24.9117,泉州市,涂山街,,23,23,24,9,8,44,,79,63,9,7,1,2,0.6,0.6
2025-06-13T2000,1612A,118.5972,24.8978,泉州市,津头埔,,20,20,21,7,8,47,,78,63,12,11,2,2,0.5,0.4
2025-06-13T2000,1613A,118.6663,24.9424,泉州市,万安,,22,22,22,3,6,49,,80,66,3,5,2,2,0.4,0.4
2025-06-13T2000,1614A,118.6117,24.9604,泉州市,清源山,,,,19,,9,,,58,,,7,,2,,0.3
2025-06-13T2000,3529A,118.6333,24.9264,泉州市,城华南路,,16,16,18,6,7,44,,76,62,10,9,3,3,0.4,0.4
2025-06-13T2000,2626A,88.8876,29.2718,日喀则市,日喀则监测站,,34,12,15,3,6,108,,116,115,10,6,11,9,0.3,0.3
2025-06-13T2000,3726A,88.8781,29.2426,日喀则市,林业技术推广中心,,35,10,16,3,3,112,,112,112,2,2,9,8,0.2,0.2
2025-06-13T2000,1659A,119.471,35.4209,日照市,监测站,,28,,9,3,7,88,,101,82,12,14,5,5,0.4,0.5
2025-06-13T2000,1660A,119.523,35.4216,日照市,市政府广场,,26,9,9,3,3,81,,94,76,7,7,5,5,0.5,0.5
2025-06-13T2000,1661A,119.5587,35.4044,日照市,港务局,,30,12,8,6,8,95,,107,87,7,6,4,5,0.4,0.4
2025-06-13T2000,3507A,119.5328,35.4625,日照市,职业技术学院,,29,6,8,3,2,91,,109,89,7,7,4,4,0.4,0.4
2025-06-13T2000,3604A,119.3266,35.1044,日照市,岚山环保分局,,26,6,12,3,3,83,,98,81,14,14,5,5,0.4,0.5
2025-06-13T2000,1835A,111.1922,34.7752,三门峡市,市政府,臭氧1小时,62,51,53,38,28,169,,174,174,9,12,6,8,0.6,0.6
2025-06-13T2000,1836A,111.1587,34.7942,三门峡市,开发区,臭氧1小时,68,59,57,29,32,174,,187,185,23,20,6,10,0.4,0.5
2025-06-13T2000,1838A,111.143,34.7955,三门峡市,风景区,臭氧1小时,77,39,50,15,25,181,,192,190,8,10,9,11,0.4,0.5
2025-06-13T2000,3039A,111.1911,34.7829,三门峡市,三门峡市第一小学,臭氧1小时,68,53,55,25,27,174,,180,180,9,10,9,10,0.6,0.7
2025-06-13T2000,3598A,111.1,34.7167,三门峡市,富达温泉假日酒店,臭氧1小时,67,63,62,24,30,173,,176,176,8,12,8,10,0.2,0.3
2025-06-13T2000,2324A,117.6211,26.2625,三明市,三钢,,23,19,22,3,9,31,,58,51,18,14,12,7,2.3,1.1
2025-06-13T2000,2325A,117.635,26.2714,三明市,三明二中,,21,21,20,10,12,22,,54,46,18,12,2,4,0.8,0.6
2025-06-13T2000,2326A,117.6028,26.2378,三明市,三元区政府,,19,19,24,10,11,23,,65,52,21,14,6,6,0.4,0.6
2025-06-13T2000,2327A,117.7275,26.3108,三明市,洋溪,,,,,,,,,,,,,,,,
2025-06-13T2000,1876A,109.5078,18.2489,三亚市,河东子站,,20,17,20,3,9,62,,61,57,2,2,3,3,0.4,0.4
2025-06-13T2000,1877A,109.4964,18.2681,三亚市,河西子站,,24,24,17,3,5,66,,64,60,1,2,2,2,0.5,0.4
2025-06-13T2000,3540A,109.7348,18.3443,三亚市,君悦子站,,21,21,23,7,4,60,,62,60,2,2,1,1,0.6,0.4
2025-06-13T2000,2624A,91.7608,29.2313,山南市,山南监测站,,35,8,13,6,9,112,,117,117,4,5,8,8,0.2,0.2
2025-06-13T2000,2625A,91.7706,29.2436,山南市,山南人民医院,,35,,16,14,11,112,,121,120,3,3,6,6,0.1,0.1
2025-06-13T2000,1674A,116.6794,23.3667,汕头市,金平子站,,18,14,11,3,7,55,,63,61,3,5,3,3,0.4,0.5
2025-06-13T2000,1675A,116.7244,23.3633,汕头市,龙湖子站,,17,15,14,3,4,53,,59,58,4,6,5,5,0.3,0.4
2025-06-13T2000,1676A,116.7258,23.2775,汕头市,濠江子站,,39,39,26,10,6,51,,60,60,3,6,4,4,0.4,0.5
2025-06-13T2000,1677A,116.7519,23.4714,汕头市,澄海子站,,23,23,19,7,11,50,,56,55,7,8,2,2,0.5,0.6
2025-06-13T2000,1678A,116.6092,23.2539,汕头市,潮阳子站,,29,29,14,9,6,56,,62,62,2,2,4,4,0.5,0.4
2025-06-13T2000,3444A,116.454,23.2684,汕头市,潮南峡山,,19,19,12,3,3,50,,57,56,2,3,4,4,0.5,0.5
2025-06-13T2000,3624A,116.4069,23.2533,汕头市,潮南子站,,19,19,13,9,5,48,,53,52,2,4,4,4,0.5,0.5
2025-06-13T2000,1693A,115.3653,22.775,汕尾市,市环保局,,16,6,11,3,3,50,,60,58,6,6,2,2,0.4,0.4
2025-06-13T2000,1694A,115.3706,22.7898,汕尾市,市政府,,,,12,,6,,,58,,,5,,4,,0.4
2025-06-13T2000,1695A,115.3622,22.7925,汕尾市,新城中学,,12,6,15,3,5,37,,59,55,10,6,2,3,0.5,0.4
2025-06-13T2000,2645A,109.9154,33.8715,商洛市,监测站,,42,35,42,23,25,134,,161,154,10,13,5,9,0.4,0.5
2025-06-13T2000,3045A,109.9643,33.8471,商洛市,商州区中学,,,,49,,23,102,,156,145,32,17,4,7,0.5,0.5
2025-06-13T2000,2408A,115.6702,34.4285,商丘市,环境监测站,臭氧1小时,65,48,45,22,22,172,,189,189,21,7,2,2,0.5,0.5
2025-06-13T2000,2409A,115.6458,34.4045,商丘市,粮食局,臭氧1小时,70,44,38,26,28,176,,178,178,13,9,2,2,0.5,0.5
2025-06-13T2000,2410A,115.6293,34.3948,商丘市,睢阳区环保局,臭氧1小时,73,50,42,25,25,178,,178,178,15,9,3,2,0.4,0.4
2025-06-13T2000,3171A,115.6071,34.4465,商丘市,梁园区档案局,臭氧1小时,67,38,39,28,24,173,,174,174,13,8,3,2,0.4,0.4
