timepoint,stationcode,longitude,latitude,area,positionname,primarypollutant,aqi,pm10,pm10_24h,pm2_5,pm2_5_24h,o3,o3_24h,o3_8h,o3_8h_24h,no2,no2_24h,so2,so2_24h,co,co_24h
2025-07-25T2200,2566A,102.1879,31.914,阿坝藏族羌族自治州,州农科所,,28,28,31,10,11,28,,58,52,13,8,14,14,0.9,1.1
2025-07-25T2200,2568A,102.2502,31.8896,阿坝藏族羌族自治州,马师校,,32,,13,22,15,14,,62,49,15,8,7,7,0.7,0.6
2025-07-25T2200,3994A,102.2165,31.9024,阿坝藏族羌族自治州,马尔康中学西区,,19,,16,13,14,27,,67,60,6,6,7,7,0.7,0.7
2025-07-25T2200,2695A,80.292,41.1694,阿克苏地区,电视台,,,,41,63,17,,,90,81,10,11,5,4,0.4,0.6
2025-07-25T2200,2696A,80.2613,41.1551,阿克苏地区,艺术中心,细颗粒物(PM2.5),85,110,58,63,29,88,,92,92,2,8,3,3,0.5,0.5
2025-07-25T2200,2204A,105.6467,38.8363,阿拉善盟,西城区西花园,,22,21,10,10,12,70,,88,85,13,8,9,8,1.1,1
2025-07-25T2200,2205A,105.6985,38.8411,阿拉善盟,蒙二幼,,29,28,14,20,9,86,,109,106,14,10,9,9,0.6,0.5
2025-07-25T2200,2206A,105.724,38.8516,阿拉善盟,环保局新楼,,27,20,13,16,11,85,,103,100,8,5,8,8,0.6,0.6
2025-07-25T2200,2708A,88.1264,47.8517,阿勒泰地区,市站,,28,28,25,14,6,77,,98,94,20,14,2,2,0.2,0.1
2025-07-25T2200,2630A,80.1161,32.5,阿里地区,阿里监测站,,33,6,3,3,2,103,,100,100,5,9,6,6,0.1,0.2
2025-07-25T2200,3192A,80.0903,32.5028,阿里地区,阿里藏医院,,,9,7,3,2,115,,114,114,,4,6,6,0.2,0.3
2025-07-25T2200,2642A,109.0318,32.6537,安康市,香溪洞,,16,15,10,7,5,50,,57,56,3,3,7,7,0.4,0.4
2025-07-25T2200,2644A,109.0072,32.6975,安康市,汉滨区检察院,,9,9,18,3,4,14,,63,45,8,6,4,6,0.3,0.3
2025-07-25T2200,4054A,109.0325,32.6913,安康市,市邮政管理局,,12,12,15,3,5,34,,63,53,8,6,3,4,0.5,0.5
2025-07-25T2200,2291A,117.0809,30.5177,安庆市,环科院,,35,28,25,19,14,109,,111,111,4,6,4,5,0.6,0.5
2025-07-25T2200,2292A,117.0331,30.5119,安庆市,马山宾馆,,33,30,25,21,15,104,,103,103,4,6,3,3,0.5,0.4
2025-07-25T2200,2294A,116.9896,30.6145,安庆市,安庆大学,,35,32,21,24,15,105,,105,105,6,7,4,4,0.4,0.3
2025-07-25T2200,3173A,117.0598,30.5351,安庆市,市人大,,35,27,25,19,12,110,,110,110,8,10,3,4,0.5,0.5
2025-07-25T2200,3123A,105.9408,26.2431,安顺市,凤凰山,,20,14,9,14,6,38,,59,52,9,5,8,5,0.3,0.3
2025-07-25T2200,3124A,105.9439,26.2564,安顺市,金钟山,,12,11,9,6,5,38,,55,49,6,3,9,6,0.4,0.4
2025-07-25T2200,3125A,105.8983,26.2481,安顺市,娄家坡,,12,,5,8,6,33,,51,46,5,3,15,7,0.4,0.3
2025-07-25T2200,1819A,114.3551,36.1017,安阳市,红庙街,,36,36,29,13,12,88,,118,110,9,7,3,3,0.4,0.4
2025-07-25T2200,1820A,114.361,36.0681,安阳市,银杏小区,,30,28,29,21,18,78,,110,102,8,5,4,4,0.3,0.4
2025-07-25T2200,3141A,114.3922,36.0878,安阳市,信访局,,33,33,30,15,16,94,,133,121,12,10,5,5,0.3,0.3
2025-07-25T2200,3669A,114.4705,36.0637,安阳市,左辅环卫站,,37,37,29,22,16,66,,114,95,14,8,6,6,0.4,0.5
2025-07-25T2200,3703A,114.2917,36.0949,安阳市,安钢职工学校,,38,34,32,26,15,87,,120,112,14,5,4,4,0.4,0.4
2025-07-25T2200,1748A,123.044,41.1196,鞍山市,深沟寺,,29,29,22,18,14,48,,82,71,16,7,7,6,0.9,0.7
2025-07-25T2200,1749A,123.011,41.0931,鞍山市,太阳城,,38,38,27,22,17,50,,89,80,16,10,8,6,0.9,0.7
2025-07-25T2200,1750A,123.0485,41.1442,鞍山市,太平,,39,39,30,21,18,56,,87,78,13,9,7,6,0.9,0.8
2025-07-25T2200,1751A,122.9642,41.0971,鞍山市,铁西三道街,,39,39,31,22,17,49,,86,76,18,12,7,6,0.8,0.7
2025-07-25T2200,1753A,123.022,41.0821,鞍山市,明达新区,,36,36,22,22,15,46,,83,74,19,7,11,7,1.2,0.6
2025-07-25T2200,4201A,122.9446,41.0826,鞍山市,兴盛南路290号,,45,45,32,22,15,47,,85,74,19,16,5,8,0.6,0.7
2025-07-25T2200,2195A,107.4212,40.761,巴彦淖尔市,附二中,,35,31,23,15,16,110,,140,136,10,6,6,6,0.6,0.6
2025-07-25T2200,2196A,107.37,40.7372,巴彦淖尔市,市环保大楼,,40,40,45,21,20,112,,130,127,11,8,6,6,0.5,0.5
2025-07-25T2200,1956A,86.1472,41.7538,巴音郭楞蒙古自治州,孔雀公园,,,,68,,22,57,,112,104,44,10,4,4,0.5,0.2
2025-07-25T2200,1957A,86.1972,41.7166,巴音郭楞蒙古自治州,棉纺厂,颗粒物(PM10),91,132,87,33,16,69,,120,112,43,7,4,5,0.5,0.2
2025-07-25T2200,1958A,86.2357,41.7173,巴音郭楞蒙古自治州,经济开发区,颗粒物(PM10),74,98,53,26,13,92,,116,112,16,5,3,4,0.1,0.1
2025-07-25T2200,2914A,106.7677,31.8794,巴中市,苏山坪,,25,8,8,6,4,77,,76,76,5,5,5,4,0.4,0.3
2025-07-25T2200,3181A,106.7768,31.8526,巴中市,市五中,,18,18,16,6,7,47,,79,73,9,9,9,9,0.5,0.5
2025-07-25T2200,3183A,106.7418,31.8654,巴中市,圣泉水务公司,,12,11,12,6,3,36,,86,75,18,6,7,7,0.6,0.5
2025-07-25T2200,3616A,106.7616,31.8344,巴中市,市中心医院,,13,11,13,3,8,35,,81,72,26,11,9,9,0.5,0.4
2025-07-25T2200,2235A,122.7911,45.6077,白城市,洮北区环保局,,20,12,12,10,10,63,,95,84,4,3,6,6,0.4,0.3
2025-07-25T2200,2236A,122.8738,45.5725,白城市,市环保局,,18,12,13,8,8,57,,87,75,3,3,2,4,0.4,0.4
2025-07-25T2200,2231A,126.4219,41.9171,白山市,喜丰,,44,44,35,9,8,4,,52,37,18,8,3,4,0.6,0.6
2025-07-25T2200,2232A,126.4077,41.9419,白山市,环保局,,26,26,21,9,9,9,,60,45,12,8,11,9,0.6,0.6
2025-07-25T2200,2647A,104.1724,36.5446,白银市,第三小学,,50,50,24,19,18,49,,103,93,34,12,6,9,0.7,0.8
2025-07-25T2200,2648A,104.1465,36.5482,白银市,动力公司,,34,34,26,14,15,61,,98,95,24,12,8,8,0.5,0.7
2025-07-25T2200,2512A,106.6103,23.9011,百色市,市监测站,,31,31,20,11,7,44,,73,62,10,7,7,5,0.6,0.6
2025-07-25T2200,2513A,106.6538,23.8859,百色市,市中心血站,,,,25,10,11,43,,66,57,14,15,4,3,0.5,0.5
2025-07-25T2200,3406A,106.6085,23.8798,百色市,祈福高中,,,,23,15,12,36,,67,57,23,12,4,5,,0.5
2025-07-25T2200,2270A,117.396,32.939,蚌埠市,工人疗养院,,27,27,30,17,13,57,,81,73,2,7,5,5,0.2,0.2
2025-07-25T2200,2271A,117.3605,32.9427,蚌埠市,百货大楼,,27,27,27,14,13,53,,80,70,4,7,6,6,0.3,0.3
2025-07-25T2200,2273A,117.4185,32.8911,蚌埠市,蚌埠学院,,31,31,24,19,14,38,,76,64,21,7,8,6,0.2,0.3
2025-07-25T2200,2274A,117.3533,32.9673,蚌埠市,淮上区政府,,36,36,29,19,15,51,,82,72,8,8,6,6,0.3,0.4
2025-07-25T2200,2275A,117.3145,32.8977,蚌埠市,高新区,,29,29,26,15,12,55,,75,70,8,8,6,6,0.3,0.4
2025-07-25T2200,3715A,117.3092,32.9314,蚌埠市,蚌埠田家炳中学,,28,22,29,19,19,56,,81,72,5,7,9,9,0.2,0.2
2025-07-25T2200,1585A,109.8756,40.6532,包头市,市环境监测站,,30,30,15,18,11,24,,71,66,40,17,3,4,0.9,0.7
2025-07-25T2200,1587A,109.9991,40.5842,包头市,包头八中,,38,38,21,22,11,52,,74,74,32,18,2,5,0.7,0.7
2025-07-25T2200,1588A,109.8538,40.6821,包头市,青山宾馆,,22,22,16,8,12,2,,66,56,39,20,2,3,0.7,0.6
2025-07-25T2200,1589A,109.8642,40.6288,包头市,惠龙物流,,24,24,17,13,11,34,,77,75,28,13,3,3,0.8,0.7
2025-07-25T2200,1590A,110.0377,40.5546,包头市,东河鸿龙湾,,33,24,14,23,11,42,,75,74,26,13,2,3,0.7,0.7
2025-07-25T2200,3283A,109.9154,40.5685,包头市,滨河大厦,,32,32,12,20,11,60,,84,84,17,10,2,2,0.7,0.6
2025-07-25T2200,3419A,109.9447,40.6261,包头市,包头市委党校,,24,24,15,14,10,58,,83,83,29,14,4,6,0.7,0.6
2025-07-25T2200,3683A,109.8331,40.6576,包头市,昆区政府,,23,23,21,6,13,38,,74,72,23,16,1,3,0.7,0.8
2025-07-25T2200,1930A,107.185,34.3063,宝鸡市,庙沟村,,14,10,13,3,5,44,,110,88,13,10,3,3,0.4,0.4
2025-07-25T2200,1931A,107.0708,34.3017,宝鸡市,竹园沟,,13,13,14,7,4,23,,116,80,17,10,7,7,0.3,0.4
2025-07-25T2200,1932A,107.1906,34.3672,宝鸡市,三陆医院,,22,22,21,11,8,43,,108,83,33,20,8,8,0.7,0.6
2025-07-25T2200,1933A,107.1431,34.3547,宝鸡市,监测站,,22,22,20,15,8,41,,112,89,24,12,9,8,0.6,0.4
2025-07-25T2200,1934A,107.1186,34.3739,宝鸡市,技工学校,,25,25,19,17,9,59,,112,90,19,10,10,7,0.6,0.5
2025-07-25T2200,1936A,107.2058,34.3497,宝鸡市,文理学院,,27,27,21,11,9,60,,113,96,23,12,8,7,0.5,0.5
2025-07-25T2200,1937A,107.2386,34.3622,宝鸡市,三迪小学,,21,21,20,10,7,59,,113,99,28,15,9,8,0.6,0.5
2025-07-25T2200,4308A,107.3898,34.3601,宝鸡市,陈仓区北开路21号,,30,22,12,20,10,93,,124,118,16,13,8,7,0.4,0.3
2025-07-25T2200,1051A,115.493,38.8632,保定市,游泳馆,,43,43,27,26,12,64,,86,77,10,7,3,3,0.2,0.2
2025-07-25T2200,1052A,115.5213,38.8959,保定市,华电二区,,50,50,26,26,13,65,,102,93,12,8,2,2,0.4,0.4
2025-07-25T2200,1053A,115.4713,38.9108,保定市,接待中心,,47,47,23,24,8,73,,89,87,4,3,3,3,0.3,0.3
2025-07-25T2200,1054A,115.4612,38.8416,保定市,地表水厂,颗粒物(PM10),52,54,34,18,11,92,,102,98,4,5,2,2,0.2,0.1
2025-07-25T2200,3581A,115.31981,38.95208,保定市,满城区生态环境分局,,46,46,25,24,14,32,,64,54,12,6,1,2,0.3,0.2
2025-07-25T2200,3582A,115.47694,38.76408,保定市,清苑区第二中学,细颗粒物(PM2.5),53,,35,37,23,80,,106,98,7,7,2,2,0.3,0.2
2025-07-25T2200,3583A,115.62909,39.02311,保定市,徐水物探局,,,,18,,11,74,,95,91,,4,5,3,,0.3
2025-07-25T2200,4004A,115.4202,38.8656,保定市,双鹰农机,,45,45,21,27,12,72,,84,83,7,8,1,1,0.2,0.2
2025-07-25T2200,4034A,115.5150,38.8590,保定市,植保所站,,35,35,20,20,9,98,,119,111,22,15,3,2,0.1,0.1
2025-07-25T2200,2594A,99.1678,25.1081,保山市,市环境监测站,,33,,11,23,14,34,,53,49,7,6,7,6,0.4,0.3
2025-07-25T2200,2595A,99.1711,25.1328,保山市,市环保局,,,,12,13,9,,,54,54,5,4,9,8,0.3,0.4
2025-07-25T2200,1867A,109.1436,21.4086,北海市,海滩公园,,27,27,25,3,8,72,,93,86,3,7,2,4,0.4,0.5
2025-07-25T2200,1868A,109.0981,21.4661,北海市,新市环保局,,20,12,20,12,13,64,,92,83,7,11,2,5,0.4,0.4
2025-07-25T2200,1869A,109.1778,21.5233,北海市,北海工业园,,20,16,26,10,14,64,,94,83,6,11,3,7,0.4,0.5
2025-07-25T2200,3400A,109.1911,21.4415,北海市,龙潭自来水厂,,21,10,20,6,11,66,,89,84,5,6,4,5,0.4,0.5
2025-07-25T2200,1001A,116.3621,39.8784,北京市,万寿西宫,,28,23,19,19,15,80,,99,94,12,14,2,2,0.5,0.5
2025-07-25T2200,1002A,116.2202,40.2915,北京市,定陵,细颗粒物(PM2.5),54,45,24,38,19,38,,98,81,1,3,9,7,0.5,0.4
2025-07-25T2200,1003A,116.4174,39.9289,北京市,东四,,28,21,23,16,17,89,,114,107,14,15,3,3,0.5,0.4
2025-07-25T2200,1004A,116.4072,39.8863,北京市,天坛,,19,19,19,12,14,27,,82,69,13,11,4,4,0.7,0.5
2025-07-25T2200,1005A,116.462,39.9365,北京市,农展馆,,20,20,27,13,16,51,,98,86,15,13,2,2,0.7,0.6
2025-07-25T2200,1006A,116.3392,39.9295,北京市,官园,,32,,18,12,16,100,,101,101,8,12,3,2,0.5,0.5
2025-07-25T2200,1007A,116.2878,39.9611,北京市,海淀万柳,,28,28,22,19,15,78,,86,83,12,13,3,2,0.4,0.4
2025-07-25T2200,1008A,116.6636,40.135,北京市,顺义新城,,18,14,20,8,15,57,,95,90,8,8,2,2,0.4,0.4
2025-07-25T2200,1009A,116.6275,40.3275,北京市,怀柔镇,,26,17,17,15,15,81,,77,77,9,10,3,3,0.4,0.4
2025-07-25T2200,1010A,116.2296,40.217,北京市,昌平镇,,32,30,24,22,17,72,,85,85,11,11,2,3,0.4,0.4
2025-07-25T2200,1011A,116.3966,39.9821,北京市,奥体中心,,32,20,20,16,16,100,,104,102,6,9,3,3,0.5,0.4
2025-07-25T2200,3281A,115.9718,40.4529,北京市,延庆夏都,,33,33,14,15,5,89,,83,83,6,4,2,2,0.7,0.6
2025-07-25T2200,3418A,116.8336,40.4095,北京市,密云新城,,23,22,16,12,10,72,,58,58,4,6,3,3,0.6,0.5
2025-07-25T2200,3671A,116.088,39.9726,北京市,门头沟三家店,,49,49,20,32,12,65,,92,90,17,14,3,3,0.6,0.4
2025-07-25T2200,3672A,116.1541,39.8204,北京市,丰台云岗,,35,33,19,24,14,58,,79,77,11,7,1,2,0.6,0.5
2025-07-25T2200,3673A,116.6804,39.9081,北京市,通州东关,细颗粒物(PM2.5),55,51,28,39,20,69,,110,101,25,11,1,1,0.7,0.6
2025-07-25T2200,3674A,115.9577,39.7603,北京市,房山燕山,,43,33,14,30,13,32,,80,69,5,6,2,2,0.5,0.4
2025-07-25T2200,3675A,116.4672,39.7733,北京市,大兴旧宫,,13,13,19,7,12,32,,96,80,13,9,1,1,0.6,0.6
2025-07-25T2200,3694A,115.986,40.4563,北京市,延庆石河营,,43,33,16,30,12,67,,74,74,7,5,2,2,0.5,0.4
2025-07-25T2200,3695A,116.6151,40.3053,北京市,怀柔新城,,22,18,16,14,14,70,,66,66,4,6,1,1,0.6,0.6
2025-07-25T2200,3696A,116.2545,39.8768,北京市,丰台小屯,,35,35,20,23,15,52,,73,69,8,6,1,2,0.6,0.5
2025-07-25T2200,3697A,116.84,40.3844,北京市,密云镇,,23,23,16,16,14,64,,56,56,10,7,2,2,0.7,0.7
2025-07-25T2200,4182A,116.1942,39.9158,北京市,八角北路9号,,47,47,22,23,12,93,,105,104,14,14,2,2,0.5,0.4
2025-07-25T2200,4194A,117.0790,40.1518,北京市,洳河巡河路,,50,50,35,35,25,122,,101,101,6,7,2,2,0.5,0.5
2025-07-25T2200,1761A,123.8275,41.3064,本溪市,大峪,,31,31,24,10,10,33,,71,57,13,5,4,5,0.2,0.2
2025-07-25T2200,1762A,123.7567,41.3325,本溪市,溪湖,,24,24,22,14,13,31,,58,47,11,6,2,3,0.6,0.7
2025-07-25T2200,1763A,123.7169,41.3094,本溪市,彩屯,,35,35,34,23,22,26,,50,40,18,21,11,12,1.1,1.6
2025-07-25T2200,1764A,123.7669,41.2864,本溪市,东明,,28,28,26,13,12,36,,62,51,13,6,4,3,0.4,0.4
2025-07-25T2200,1765A,123.7992,41.2664,本溪市,新立屯,,16,16,21,10,10,38,,64,43,8,7,4,4,0.6,0.5
2025-07-25T2200,1766A,123.8142,41.3472,本溪市,威宁,,29,28,25,20,16,6,,63,38,23,8,8,7,0.3,0.3
2025-07-25T2200,2587A,105.2864,27.3125,毕节市,八中,,19,18,15,13,10,28,,58,52,16,9,4,4,0.7,0.5
2025-07-25T2200,2588A,105.31,27.2944,毕节市,师专,,17,17,18,8,7,43,,62,60,14,11,4,4,0.6,0.6
2025-07-25T2200,4263A,105.3688,27.3598,毕节市,工业大道,,13,12,11,3,7,41,,69,63,15,9,6,6,0.6,0.5
2025-07-25T2200,1629A,118.0018,37.3617,滨州市,第二水厂,,39,39,33,19,22,51,,144,115,26,13,4,4,0.6,0.5
2025-07-25T2200,1630A,117.9776,37.393,滨州市,北中新校,,34,34,34,22,20,62,,140,118,24,16,1,2,0.5,0.4
2025-07-25T2200,3514A,117.9378,37.3956,滨州市,中海酒店,,42,34,36,29,25,63,,146,127,21,9,9,10,0.8,0.7
2025-07-25T2200,3515A,117.9378,37.3553,滨州市,开发区一中,,46,46,35,22,21,63,,156,131,30,16,15,14,0.7,0.5
2025-07-25T2200,3516A,118.0917,37.694,滨州市,金海六路,,37,37,33,22,18,49,,145,110,21,10,12,10,0.3,0.2
2025-07-25T2200,4028A,117.9956,37.3753,滨州市,滨州市西街道办事处,,36,36,29,17,23,63,,162,132,23,12,2,3,0.4,0.3
2025-07-25T2200,2311A,115.8072,33.8399,亳州市,污水处理厂,,20,20,19,9,14,62,,100,90,9,7,7,2,0.4,0.5
2025-07-25T2200,2312A,115.7789,33.8518,亳州市,三国揽胜宫,,33,33,29,10,10,67,,104,94,7,6,10,5,0.4,0.5
2025-07-25T2200,3332A,115.7633,33.8034,亳州市,亳州学院,,20,17,17,7,11,63,,99,89,8,7,3,2,0.4,0.5
2025-07-25T2200,2693A,82.0485,44.8556,博尔塔拉蒙古自治州,市党校,,34,34,43,16,15,101,,114,112,11,9,3,4,0.1,0.1
2025-07-25T2200,2694A,82.0806,44.8969,博尔塔拉蒙古自治州,市环保局,颗粒物(PM10),51,52,42,14,14,88,,110,107,12,6,7,6,0.2,0.2
2025-07-25T2200,1071A,116.8842,38.2991,沧州市,沧县城建局,,45,45,38,23,18,99,,122,117,19,14,3,2,0.5,0.2
2025-07-25T2200,1072A,116.8584,38.3254,沧州市,电视转播站,,46,46,44,19,22,97,,113,112,15,13,3,3,0.1,0.1
2025-07-25T2200,1073A,116.8709,38.3228,沧州市,市环保局,,42,42,44,22,21,104,,129,127,14,10,1,2,0.3,0.3
2025-07-25T2200,3324A,116.8136,38.3004,沧州市,河北水利电力学院,,42,31,31,29,20,115,,131,129,11,8,1,2,0.3,0.2
2025-07-25T2200,2622A,97.1806,31.1273,昌都市,昌都监测站,,23,,15,16,9,67,,80,79,4,7,4,4,0.3,0.3
2025-07-25T2200,3719A,97.1714,31.1406,昌都市,昌都会议中心,,27,20,15,14,8,85,,80,80,3,6,5,4,0.2,0.2
2025-07-25T2200,2690A,88.1236,43.8886,昌吉回族自治州,天山天池,,39,39,20,16,7,89,,134,131,7,6,4,5,0.6,0.5
2025-07-25T2200,2692A,87.2717,44.0297,昌吉回族自治州,新区政务中心,,32,26,31,9,12,100,,118,112,15,20,8,10,0.2,0.3
2025-07-25T2200,3613A,87.3095,44.0142,昌吉回族自治州,亚心广场,,44,44,48,12,18,92,,113,106,28,26,10,11,0.3,0.4
2025-07-25T2200,1120A,125.2863,43.9027,长春市,客车厂,,39,38,24,27,16,61,,55,55,24,16,4,3,0.5,0.4
2025-07-25T2200,1121A,125.2841,43.8463,长春市,邮电学院,,33,33,21,20,11,61,,58,58,14,12,4,4,0.5,0.4
2025-07-25T2200,1122A,125.3716,43.8772,长春市,劳动公园,,39,39,27,23,15,59,,54,54,17,17,6,5,0.6,0.4
2025-07-25T2200,1123A,125.3297,43.8805,长春市,园林处,,38,38,23,19,11,74,,63,63,14,13,4,3,0.6,0.5
2025-07-25T2200,1124A,125.4605,43.79,长春市,净月潭,,36,36,22,18,9,18,,42,37,5,6,3,3,0.5,0.4
2025-07-25T2200,1126A,125.3863,43.8447,长春市,经开区环卫处,,37,37,23,21,10,52,,52,52,21,14,8,8,0.5,0.4
2025-07-25T2200,1127A,125.245,43.7783,长春市,高新区管委会,,45,36,22,31,18,42,,49,49,24,12,2,3,0.5,0.5
2025-07-25T2200,1128A,125.1761,43.8325,长春市,岱山公园,,42,42,25,24,14,45,,52,52,42,19,2,2,0.5,0.4
2025-07-25T2200,4281A,125.3346,43.9164,长春市,北亚泰大街1068号,,39,37,24,27,15,59,,52,52,24,19,5,5,0.6,0.5
2025-07-25T2200,1335A,113.0833,28.2325,长沙市,经开区环保局,,34,25,22,20,11,108,,98,98,14,11,5,4,0.4,0.3
2025-07-25T2200,1336A,112.8872,28.2189,长沙市,高开区环保局,,30,30,27,19,12,85,,113,107,10,13,4,4,0.4,0.4
2025-07-25T2200,1337A,113.0792,28.2053,长沙市,马坡岭,,33,25,23,17,11,105,,102,102,16,12,6,4,0.4,0.3
2025-07-25T2200,1338A,112.9394,28.19,长沙市,湖南师范大学,,29,21,24,18,12,90,,116,108,6,12,2,2,0.4,0.4
2025-07-25T2200,1339A,113.0178,28.1322,长沙市,雨花区环保局,,33,26,24,10,9,104,,110,108,8,12,5,5,0.5,0.5
2025-07-25T2200,1340A,112.9792,28.2597,长沙市,伍家岭,,39,30,26,27,10,74,,119,106,19,12,2,1,0.2,0.3
2025-07-25T2200,1341A,113.0014,28.1944,长沙市,火车新站,,29,24,25,14,11,92,,109,106,8,14,2,4,0.5,0.5
2025-07-25T2200,1342A,112.9844,28.1178,长沙市,天心区环保局,,32,20,25,15,13,102,,118,115,14,14,1,2,0.3,0.3
2025-07-25T2200,1343A,112.8908,28.1308,长沙市,湖南中医药大学,,31,31,27,10,9,66,,119,102,23,13,3,3,0.7,0.6
2025-07-25T2200,1344A,112.9581,28.3611,长沙市,沙坪,,35,31,24,18,14,110,,110,110,9,9,3,3,0.5,0.5
2025-07-25T2200,1727A,113.1147,36.1547,长治市,清华站,,32,22,14,7,6,102,,94,94,5,4,5,6,0.4,0.4
2025-07-25T2200,1730A,113.0886,36.2125,长治市,审计局,,32,20,15,14,7,102,,94,94,6,6,4,4,0.6,0.6
2025-07-25T2200,1731A,113.0844,36.1856,长治市,长治八中,,32,26,15,18,13,101,,96,96,6,5,7,7,0.5,0.5
2025-07-25T2200,2845A,113.1569,36.1911,长治市,德盛苑,,28,21,15,14,6,89,,88,88,7,5,5,5,0.6,0.6
2025-07-25T2200,3568A,113.06,36.0464,长治市,向阳小学,颗粒物(PM10),56,62,46,20,10,99,,93,93,4,3,5,5,0.6,0.6
2025-07-25T2200,3569A,112.8792,36.3144,长治市,屯留一中,,39,35,23,27,22,97,,104,103,7,6,6,7,0.1,0.2
2025-07-25T2200,4189A,113.1131,36.19948,长治市,英华南巷50号,,30,20,17,12,6,95,,90,90,9,7,5,5,0.6,0.6
2025-07-25T2200,4190A,113.2367,36.3344,长治市,学府街1号,,27,26,27,12,11,85,,91,85,10,16,3,3,0.5,0.6
2025-07-25T2200,1854A,111.6975,28.9703,常德市,市二中,细颗粒物(PM2.5),54,,19,38,11,87,,111,104,9,7,3,3,0.5,0.5
2025-07-25T2200,3138A,111.7153,29.0289,常德市,武陵区永安,,34,34,21,23,11,92,,105,103,6,4,2,3,0.4,0.3
2025-07-25T2200,3139A,111.6892,28.9881,常德市,鼎城区玉霞,,35,31,20,24,13,70,,106,96,13,5,2,4,0.4,0.3
2025-07-25T2200,3140A,111.6625,29.0531,常德市,武陵区长庚,,36,30,17,25,11,90,,105,103,7,4,2,3,0.5,0.4
2025-07-25T2200,1196A,119.9633,31.762,常州市,市监测站,,19,19,26,8,13,31,,83,58,9,10,12,13,0.4,0.4
2025-07-25T2200,1200A,119.9468,31.7069,常州市,武进监测站,,22,22,24,3,12,30,,82,58,7,8,11,11,0.9,0.9
2025-07-25T2200,1201A,119.9255,31.9087,常州市,安家,,22,22,27,15,13,26,,75,53,16,11,10,8,0.8,0.7
2025-07-25T2200,3002A,119.9805,31.8174,常州市,行政中心,,19,19,26,12,14,29,,78,53,11,11,10,10,0.2,0.4
2025-07-25T2200,3003A,120.0522,31.7748,常州市,经开区,,28,28,36,11,11,27,,78,54,12,10,6,7,0.1,0.2
2025-07-25T2200,3010A,119.9025,31.7964,常州市,钟楼,,24,24,27,8,12,36,,81,58,8,10,6,8,0.4,0.5
2025-07-25T2200,3429A,119.8598,31.7066,常州市,武进经发区,,23,23,28,10,16,28,,82,57,7,8,7,7,0.7,0.7
2025-07-25T2200,3430A,119.5826,31.7245,常州市,金坛城区,,27,27,26,11,16,36,,93,67,9,11,7,8,0.3,0.4
2025-07-25T2200,2220A,120.4318,41.5881,朝阳市,西梁,,49,49,36,26,19,71,,75,74,9,8,6,6,0.6,0.6
2025-07-25T2200,2221A,120.4521,41.5646,朝阳市,河畔小区,,39,33,30,27,19,82,,83,83,7,6,4,4,0.5,0.5
2025-07-25T2200,2222A,120.4176,41.5648,朝阳市,八里堡,,38,28,34,26,20,67,,77,73,8,6,2,3,0.5,0.5
2025-07-25T2200,2223A,120.3806,41.5969,朝阳市,农业园区,,39,36,30,27,22,66,,74,71,11,11,5,5,0.5,0.5
2025-07-25T2200,1705A,116.6367,23.6719,潮州市,西园路,,30,30,19,7,8,25,,77,55,20,7,5,3,0.5,0.3
2025-07-25T2200,3026A,116.6183,23.6608,潮州市,市政府,,12,9,23,8,9,30,,77,57,21,11,18,7,0.6,0.5
2025-07-25T2200,4036A,116.6461,23.6761,潮州市,金山,,20,17,19,14,15,21,,75,56,12,5,4,6,0.7,0.6
2025-07-25T2200,2472A,113.0073,25.9061,郴州市,马头岭,,43,43,29,15,11,13,,73,48,20,11,7,6,0.6,0.6
2025-07-25T2200,2473A,113.0116,25.8226,郴州市,市职中,颗粒物(PM10),53,55,32,36,21,13,,68,43,20,10,22,7,0.5,0.5
2025-07-25T2200,2475A,113.0383,25.8071,郴州市,市审计局,,,41,30,36,20,,,76,56,29,11,32,9,0.4,0.7
2025-07-25T2200,2476A,113.0348,25.7759,郴州市,市环保局,颗粒物(PM10),53,56,33,34,21,29,,78,51,20,12,60,12,0.3,0.3
2025-07-25T2200,4252A,113.0138,25.8011,郴州市,好美居路49号,,44,44,29,27,19,29,,77,55,18,10,54,8,0.6,0.5
2025-07-25T2200,1431A,103.9728,30.7236,成都市,金泉两河,,15,11,16,3,6,46,,103,77,18,10,2,2,0.4,0.4
2025-07-25T2200,1432A,104.176,30.6872,成都市,十里店,,22,11,18,3,8,68,,104,88,11,9,4,4,0.4,0.4
2025-07-25T2200,1433A,104.079,30.5706,成都市,三瓦窑,,23,17,17,3,12,72,,114,94,14,13,2,2,0.3,0.4
2025-07-25T2200,1434A,104.1114,30.63,成都市,沙河铺,,17,17,22,3,8,37,,82,70,8,10,6,6,0.4,0.4
2025-07-25T2200,1437A,104.0786,30.6531,成都市,君平街,,27,26,21,18,10,84,,113,98,13,11,5,5,0.6,0.5
2025-07-25T2200,2880A,104.0239,30.65639,成都市,大石西路,,23,18,18,16,13,52,,90,71,15,10,2,2,0.6,0.5
2025-07-25T2200,3357A,104.0106,30.6931,成都市,金博路,,18,11,11,3,6,56,,100,74,13,11,4,4,0.6,0.6
2025-07-25T2200,3359A,104.0578,30.5225,成都市,华阳,,,,13,,12,74,,91,75,12,12,4,4,,0.6
2025-07-25T2200,3488A,104.3853,30.7453,成都市,青白江技师分院,,21,21,21,9,9,55,,89,79,16,14,5,6,0.6,0.6
2025-07-25T2200,3489A,104.0789,30.4072,成都市,科学城,,28,8,16,6,11,87,,94,85,5,9,2,2,0.4,0.5
2025-07-25T2200,4011A,103.8506,30.6947,成都市,光华大道三段,细颗粒物(PM2.5),54,,19,38,10,69,,118,94,11,12,4,4,0.6,0.6
2025-07-25T2200,4224A,104.2433,30.5353,成都市,鲸龙路1057号,,,20,22,16,15,,,87,,16,12,6,6,0.6,0.6
2025-07-25T2200,1062A,117.9531,40.9081,承德市,铁路,,25,21,23,13,14,79,,69,69,12,10,1,1,0.4,0.4
2025-07-25T2200,1063A,117.9392,40.9763,承德市,中国银行,,46,44,24,32,15,46,,73,60,13,11,3,3,0.5,0.4
2025-07-25T2200,1064A,117.9503,40.928,承德市,开发区,,38,38,28,22,12,92,,75,74,10,12,4,4,0.5,0.5
2025-07-25T2200,4274A,117.7994,40.9605,承德市,滨河大街98号,,42,42,13,19,10,26,,66,54,9,5,1,2,0.3,0.3
2025-07-25T2200,2314A,117.47,30.6618,池州市,池州学院,,37,37,23,19,11,98,,96,96,10,10,8,6,0.4,0.3
2025-07-25T2200,3237A,117.4918,30.6617,池州市,展览馆,,36,36,23,18,11,102,,102,102,9,9,6,5,0.6,0.4
2025-07-25T2200,3333A,117.5627,30.695,池州市,第八中学,,30,28,23,12,9,96,,99,99,6,6,7,6,0.4,0.3
2025-07-25T2200,3334A,117.5038,30.6243,池州市,第十二中学,,34,34,24,15,11,98,,99,99,8,10,5,4,0.6,0.6
2025-07-25T2200,1744A,118.9233,42.2816,赤峰市,松山一中,,26,,10,18,10,75,,75,69,7,14,5,4,0.4,0.4
2025-07-25T2200,1745A,118.9576,42.2728,赤峰市,哈达街,,28,28,16,14,8,61,,76,61,9,14,12,12,0.6,0.6
2025-07-25T2200,1746A,118.8788,42.2554,赤峰市,天义路,,21,,8,12,9,66,,68,66,6,11,8,8,0.4,0.4
2025-07-25T2200,3058A,119.2658,42.0353,赤峰市,银河街,细颗粒物(PM2.5),58,52,30,41,24,65,,83,78,17,10,62,21,0.9,0.8
2025-07-25T2200,3286A,118.9359,42.3147,赤峰市,桥北物流园区,,20,,11,14,10,57,,67,52,10,12,9,10,0.7,0.7
2025-07-25T2200,2521A,107.3476,22.4136,崇左市,市环保局江州分局,,18,18,21,7,9,30,,70,57,8,6,6,6,0.3,0.3
2025-07-25T2200,4256A,107.3750,22.3736,崇左市,石景林东路7号,,17,17,20,9,12,38,,79,62,7,8,5,6,0.5,0.5
2025-07-25T2200,2298A,118.3093,32.3153,滁州市,老年大学,,23,23,32,9,20,49,,93,69,5,10,5,8,0.2,0.3
2025-07-25T2200,2299A,118.3244,32.2786,滁州市,人大宾馆,,25,,21,17,21,50,,99,73,1,8,5,7,0.1,0.3
2025-07-25T2200,3207A,118.3118,32.3038,滁州市,市政府原办公楼,,28,22,30,19,24,49,,96,70,2,10,6,7,0.2,0.4
2025-07-25T2200,3331A,118.3267,32.2634,滁州市,图书馆,,23,19,23,16,20,58,,104,81,6,13,11,11,0.1,0.3
2025-07-25T2200,2605A,101.5482,25.0441,楚雄彝族自治州,州环境监测站,,15,,11,10,6,16,,37,28,11,9,11,8,0.6,0.5
2025-07-25T2200,2606A,101.538,25.0492,楚雄彝族自治州,市经济开发区,,34,34,10,16,8,18,,37,29,11,11,6,6,0.8,0.7
2025-07-25T2200,2548A,107.5277,31.2827,达州市,达州职业技术学院,,35,35,21,3,2,18,,72,57,29,15,7,7,0.5,0.5
2025-07-25T2200,2549A,107.5086,31.2186,达州市,市环境监测站,,26,26,19,3,0,37,,67,56,26,22,6,6,0.3,0.2
2025-07-25T2200,2550A,107.4988,31.2132,达州市,凤凰小区,,29,29,15,12,3,27,,72,63,34,18,5,5,0.4,0.3
2025-07-25T2200,2551A,107.5082,31.1986,达州市,达县机关宾馆,,34,34,15,16,6,4,,73,57,54,22,4,4,0.4,0.3
2025-07-25T2200,2552A,107.4644,31.2124,达州市,市政中心,,29,29,19,7,1,22,,74,64,41,18,4,3,0.4,0.2
2025-07-25T2200,2614A,100.1542,25.7054,大理白族自治州,大理市环境监测站,,20,,8,14,15,32,,47,44,8,8,5,5,0.4,0.4
2025-07-25T2200,2615A,100.2171,25.5811,大理白族自治州,大理古城,,16,16,13,7,8,26,,62,51,11,7,4,4,0.7,0.7
2025-07-25T2200,1109A,121.612,38.9741,大连市,甘井子,,15,15,22,10,18,37,,59,52,11,12,4,4,0.1,0.2
2025-07-25T2200,1110A,121.565,38.9511,大连市,周水子,,25,18,21,17,19,33,,52,43,5,9,5,3,0.2,0.2
2025-07-25T2200,1111A,121.5637,38.8845,大连市,星海三站,,20,20,25,9,22,40,,56,50,12,6,4,6,0.2,0.3
2025-07-25T2200,1112A,121.6302,38.9117,大连市,青泥洼桥,,19,13,28,13,20,37,,61,54,7,10,6,7,0.3,0.4
2025-07-25T2200,1113A,121.6251,38.8638,大连市,傅家庄,,18,18,24,10,21,35,,55,47,6,11,6,7,0.0,0.1
2025-07-25T2200,1114A,121.5213,38.8661,大连市,七贤岭,,21,21,26,12,20,39,,61,52,5,10,7,7,0.2,0.2
2025-07-25T2200,1115A,121.2529,38.8061,大连市,旅顺,,19,19,22,9,19,36,,47,42,8,12,5,5,0.2,0.2
2025-07-25T2200,1116A,121.7485,39.1311,大连市,金州,,20,20,20,12,19,24,,53,42,13,10,8,8,0.1,0.1
2025-07-25T2200,1117A,121.7811,39.0496,大连市,开发区,,23,23,27,14,20,15,,53,36,18,15,10,10,0.3,0.3
2025-07-25T2200,1118A,121.9762,39.0631,大连市,双D港,,16,16,23,11,21,21,,60,47,3,9,5,6,0.4,0.4
2025-07-25T2200,1789A,124.81117,46.03138,大庆市,大同区,,18,,14,8,8,55,,80,,7,8,7,7,0.7,0.7
2025-07-25T2200,1790A,125.129,46.533,大庆市,龙凤区,,20,16,15,14,9,55,,87,75,7,9,5,5,0.6,0.6
2025-07-25T2200,1791A,124.902,46.408,大庆市,红岗区,,23,23,19,16,13,57,,84,74,6,8,7,7,0.7,0.6
2025-07-25T2200,1792A,125.153,46.586,大庆市,萨尔图区,,25,25,25,8,6,63,,97,86,8,8,8,9,0.3,0.3
2025-07-25T2200,1793A,124.9042,46.6215,大庆市,让胡路区,,25,25,26,17,17,64,,99,88,6,7,6,6,0.2,0.3
2025-07-25T2200,3481A,125.141,46.634,大庆市,萨区政府监测点,,31,31,27,3,7,68,,105,89,5,7,6,6,0.4,0.4
2025-07-25T2200,1723A,113.2994,40.0758,大同市,云冈宾馆,,46,46,27,30,19,50,,74,68,23,15,6,6,0.4,0.6
2025-07-25T2200,1724A,113.3444,40.0917,大同市,大同大学,,46,32,20,32,15,47,,76,68,24,17,8,9,0.6,0.5
2025-07-25T2200,1725A,113.2661,40.1269,大同市,安家小村,,37,37,25,3,7,55,,75,71,19,16,4,4,0.7,0.9
2025-07-25T2200,1726A,113.2711,40.0844,大同市,教育学院,,43,43,27,26,17,55,,78,74,19,18,7,7,0.5,0.8
2025-07-25T2200,3282A,113.3397,40.0597,大同市,大同市卫生学校,,43,43,23,29,14,47,,60,,24,20,4,5,0.8,0.9
2025-07-25T2200,3565A,113.1367,40.1122,大同市,云冈站,,43,37,30,30,17,54,,70,64,9,12,3,3,0.6,0.7
2025-07-25T2200,3566A,113.1186,40.2556,大同市,图书馆,颗粒物(PM10),52,54,32,18,16,55,,74,71,13,8,7,7,0.8,0.8
2025-07-25T2200,3567A,113.5931,40.0461,大同市,区一中,,26,12,16,9,11,81,,77,72,12,7,8,7,0.5,0.5
2025-07-25T2200,4199A,113.2798,40.0997,大同市,魏都大道141号,,42,34,24,29,16,56,,76,73,19,15,8,8,0.8,0.9
2025-07-25T2200,2269A,124.1069,50.4097,大兴安岭地区,科技局,,30,25,22,6,8,95,,74,74,3,3,3,3,0.4,0.4
2025-07-25T2200,3663A,124.1164,50.4278,大兴安岭地区,红旗社区,,29,7,9,7,5,92,,79,79,6,5,4,4,0.4,0.4
2025-07-25T2200,1600A,124.3303,40.0625,丹东市,江湾东路,,28,22,20,19,17,7,,49,32,17,10,2,3,0.6,0.5
2025-07-25T2200,1601A,124.4256,40.1503,丹东市,临江后街,颗粒物(PM10),57,64,38,37,21,5,,54,37,23,11,6,7,0.8,0.7
2025-07-25T2200,1602A,124.3933,40.1461,丹东市,元宝山,,26,26,25,16,18,18,,47,33,12,10,2,3,0.5,0.5
2025-07-25T2200,1603A,124.3633,40.1092,丹东市,民主桥,,26,26,26,18,17,11,,49,36,16,9,3,4,0.6,0.7
2025-07-25T2200,3541A,109.5726,19.5167,儋州市,第一中学子站,,12,12,13,7,7,18,,43,33,4,3,4,4,0.5,0.6
2025-07-25T2200,3542A,109.5567,19.5187,儋州市,东坡学校子站,,,8,11,,4,22,,44,35,3,2,6,5,0.5,0.5
2025-07-25T2200,2616A,98.5842,24.428,德宏傣族景颇族自治州,德宏州监测站,,19,19,14,6,7,25,,45,40,13,7,12,10,0.6,0.6
2025-07-25T2200,3677A,98.5881,24.4368,德宏傣族景颇族自治州,芒市人民政府综合楼,,29,29,20,14,6,21,,43,40,8,6,7,8,0.6,0.5
2025-07-25T2200,1901A,104.4239,31.1208,德阳市,东山公园,,22,,10,14,9,70,,86,82,6,7,1,1,0.6,0.7
2025-07-25T2200,1902A,104.3826,31.1317,德阳市,西小区,,23,,13,16,11,63,,82,72,15,11,7,6,0.8,0.8
2025-07-25T2200,1904A,104.3553,31.1091,德阳市,耐火材料厂,,25,23,13,17,10,40,,80,66,18,9,5,2,0.5,0.5
2025-07-25T2200,3639A,104.4019,31.1244,德阳市,市教育局,,21,20,12,12,9,65,,84,78,8,6,8,8,0.7,0.7
2025-07-25T2200,1622A,116.3032,37.4674,德州市,儿童乐园,,39,39,38,24,21,104,,144,131,12,9,8,9,0.6,0.6
2025-07-25T2200,1624A,116.2991,37.4451,德州市,监理站,,32,31,33,22,20,100,,144,130,14,9,10,11,0.3,0.4
2025-07-25T2200,3066A,116.2721,37.4379,德州市,九衢泉纯净水厂,,45,39,41,31,24,92,,135,123,21,14,6,7,0.6,0.6
2025-07-25T2200,3371A,116.3728,37.4403,德州市,开发区人民医院,,46,46,36,22,21,104,,131,121,14,13,7,8,0.8,0.8
2025-07-25T2200,3511A,116.5652,37.3319,德州市,陵城艺术中心,颗粒物(PM10),52,53,35,22,15,69,,125,116,34,12,4,10,0.3,0.2
2025-07-25T2200,4292A,116.3525,37.4209,德州市,新河东路,,36,36,38,24,23,100,,140,124,19,12,8,9,0.8,0.8
2025-07-25T2200,2621A,99.7056,27.8317,迪庆藏族自治州,迪庆州站,,23,16,20,16,14,41,,60,53,9,8,8,8,0.5,0.5
2025-07-25T2200,3180A,99.7136,27.8094,迪庆藏族自治州,质量技术监督局,,18,18,18,10,9,48,,59,54,9,11,6,6,0.4,0.4
2025-07-25T2200,4257A,104.6092,35.5962,定西市,将台街,,39,39,31,19,8,82,,110,104,9,8,7,7,0.5,0.5
2025-07-25T2200,4309A,104.6159,35.5701,定西市,正龙路62号,,26,17,21,16,14,81,,108,101,5,7,4,4,0.1,0.2
2025-07-25T2200,1389A,113.7547,23.0494,东莞市,莞城梨川,,32,32,27,19,18,62,,114,94,17,21,7,8,0.5,0.6
2025-07-25T2200,1390A,113.7944,23.0128,东莞市,东城石井,,42,42,28,20,14,51,,118,85,26,21,4,5,0.7,0.7
2025-07-25T2200,1391A,113.7383,22.9658,东莞市,南城西平,,41,41,26,16,16,90,,128,116,24,23,3,4,0.7,0.7
2025-07-25T2200,3319A,113.7338,23.0381,东莞市,万江金泰,,34,34,29,17,18,66,,120,98,28,23,5,7,0.8,0.7
2025-07-25T2200,3626A,113.7533,23.0202,东莞市,南城元岭,,39,39,29,19,15,64,,119,99,31,23,6,8,0.6,0.6
2025-07-25T2200,3627A,113.7875,23.0457,东莞市,东城主山,,20,18,44,8,18,63,,102,77,5,24,4,5,0.4,0.5
2025-07-25T2200,1666A,118.6614,37.4309,东营市,市环保局,,19,19,23,12,14,48,,109,95,15,13,8,9,0.3,0.3
2025-07-25T2200,3036A,118.6904,37.4338,东营市,开发区管委会,,28,28,27,7,12,55,,122,106,14,11,8,7,0.3,0.4
2025-07-25T2200,3365A,118.5719,37.565,东营市,垦利区民丰路,,27,27,26,12,13,57,,116,99,12,11,10,9,0.5,0.4
2025-07-25T2200,3498A,118.5055,37.8612,东营市,河口城区,,29,24,25,12,11,91,,128,114,9,11,6,7,0.6,0.6
2025-07-25T2200,3646A,118.4978,37.4623,东营市,胜利站,,27,27,33,9,13,51,,111,101,20,17,4,3,0.4,0.4
2025-07-25T2200,3734A,118.35,37.26,东营市,理想之城,,19,19,26,9,16,43,,114,97,15,10,5,5,0.3,0.3
2025-07-25T2200,1591A,110.0023,39.8129,鄂尔多斯市,综合楼,,19,19,10,3,3,56,,64,60,14,13,4,4,0.7,0.7
2025-07-25T2200,1592A,109.9486,39.8261,鄂尔多斯市,巴音孟克林场办事处,,19,19,12,7,7,50,,66,62,13,11,2,2,0.5,0.5
2025-07-25T2200,1593A,109.7736,39.5986,鄂尔多斯市,康泽苑,,27,27,19,7,4,33,,63,53,9,8,6,4,0.4,0.4
2025-07-25T2200,1594A,109.8119,39.5989,鄂尔多斯市,华泰汽车城,,24,24,16,14,7,36,,58,53,12,11,4,4,0.6,0.6
2025-07-25T2200,1595A,109.9734,39.7884,鄂尔多斯市,奥林花园,,20,19,12,14,18,43,,58,51,14,11,4,4,0.6,0.7
2025-07-25T2200,2436A,114.8938,30.3994,鄂州市,市政府,,19,19,21,3,6,51,,111,90,11,14,4,4,0.5,0.6
2025-07-25T2200,2437A,114.8989,30.3714,鄂州市,赵家坝,,20,20,26,3,7,47,,114,88,16,14,6,5,0.8,0.8
2025-07-25T2200,3654A,114.8094,30.4089,鄂州市,精准医疗中心,,26,26,23,3,5,45,,114,98,17,14,6,5,1.1,0.6
2025-07-25T2200,2454A,109.4978,30.2981,恩施土家族苗族自治州,湖北民院,,36,,14,25,5,25,,81,65,16,5,5,5,0.3,0.2
2025-07-25T2200,2455A,109.4707,30.2798,恩施土家族苗族自治州,州电力总公司,,29,,12,20,8,24,,68,52,15,10,8,8,0.2,0.1
2025-07-25T2200,3549A,109.5061,30.3772,恩施土家族苗族自治州,龙凤新区,,18,18,12,3,6,29,,88,67,6,4,4,4,0.4,0.4
2025-07-25T2200,2499A,108.3411,21.6158,防城港市,沙万,,21,19,28,12,15,65,,68,63,7,11,2,2,0.5,0.6
2025-07-25T2200,2500A,108.3514,21.7731,防城港市,防城档案局,,22,22,24,10,11,51,,70,66,5,11,3,3,0.7,0.7
2025-07-25T2200,2501A,108.3506,21.6414,防城港市,大海花园,,26,,26,18,13,71,,87,84,5,9,6,4,0.5,0.7
2025-07-25T2200,1371A,113.1294,23.0067,佛山市,湾梁,,29,27,27,20,17,76,,125,98,20,20,6,6,0.8,0.7
2025-07-25T2200,1372A,113.1083,23.0478,佛山市,华材职中,,29,29,25,18,15,70,,130,96,18,19,8,8,0.7,0.6
2025-07-25T2200,1373A,113.144,23.0453,佛山市,南海气象局,,35,35,26,17,14,71,,117,93,20,18,3,4,0.8,0.7
2025-07-25T2200,1374A,113.2881,22.8094,佛山市,顺德苏岗,,24,,32,7,15,74,,168,138,17,19,5,6,0.6,0.6
2025-07-25T2200,1376A,112.8383,22.8678,佛山市,高明孔堂,,25,24,26,17,15,72,,134,116,8,10,6,7,0.6,0.6
2025-07-25T2200,1377A,112.8836,23.1588,佛山市,三水监测站,,15,14,20,10,16,44,,87,71,22,21,3,3,0.6,0.6
2025-07-25T2200,1378A,112.867,23.185,佛山市,三水云东海,,28,28,26,6,14,32,,93,68,22,19,1,2,0.5,0.6
2025-07-25T2200,3625A,113.2544,22.7642,佛山市,容桂街道办,,20,9,23,3,17,61,,191,148,26,24,5,7,0.5,0.5
2025-07-25T2200,1282A,119.2681,26.0504,福州市,师大,,34,34,21,9,4,20,,49,39,18,10,4,4,0.3,0.2
2025-07-25T2200,1283A,119.2984,26.1028,福州市,五四北路,,15,15,18,3,4,28,,44,38,12,11,3,4,0.3,0.3
2025-07-25T2200,1284A,119.2648,26.0768,福州市,杨桥西路,,19,19,20,6,3,25,,48,38,12,9,3,4,0.2,0.2
2025-07-25T2200,1285A,119.317,26.0746,福州市,紫阳,,40,40,23,7,2,20,,41,33,18,10,5,5,0.2,0.2
2025-07-25T2200,3048A,119.5799,26.0936,福州市,九龙,,18,18,16,3,2,35,,52,44,10,7,4,5,0.2,0.3
2025-07-25T2200,3526A,119.5189,25.9664,福州市,吴航,,18,18,17,6,7,21,,53,35,12,9,5,5,0.4,0.4
2025-07-25T2200,1755A,123.7977,41.8491,抚顺市,望花区,,50,50,28,34,18,32,,88,74,44,18,7,8,0.6,0.5
2025-07-25T2200,1756A,123.9161,41.8822,抚顺市,顺城区,,33,33,32,16,16,40,,91,77,13,12,4,5,0.6,0.6
2025-07-25T2200,1757A,124.0436,41.8611,抚顺市,东洲区,,29,29,23,19,15,37,,92,68,14,11,7,9,0.5,0.6
2025-07-25T2200,1758A,123.9247,41.8642,抚顺市,新抚区,,42,42,37,21,17,34,,89,72,11,12,5,5,0.5,0.6
2025-07-25T2200,1759A,124.0972,41.8961,抚顺市,大伙房水库,,26,26,20,17,13,42,,95,78,7,6,6,7,0.4,0.4
2025-07-25T2200,1760A,123.7086,41.8391,抚顺市,沈抚新城,颗粒物(PM10),61,71,28,26,22,54,,90,79,20,14,6,8,0.6,0.7
2025-07-25T2200,2376A,116.2127,28.0814,抚州市,桐源党溪,,27,27,30,17,14,40,,73,62,7,8,3,5,0.3,0.4
2025-07-25T2200,2377A,116.3544,27.9831,抚州市,市站,,33,33,31,18,14,52,,77,68,6,5,5,7,0.5,0.3
2025-07-25T2200,2378A,116.3565,27.963,抚州市,血防站,,30,30,28,14,13,52,,80,67,6,5,4,5,0.4,0.4
2025-07-25T2200,2379A,116.3564,28.0007,抚州市,采茶剧团,,36,36,31,20,13,46,,79,69,2,4,3,4,0.5,0.5
2025-07-25T2200,2380A,116.385,27.9647,抚州市,医学分院,,26,26,29,16,13,46,,77,64,1,2,5,4,0.5,0.5
2025-07-25T2200,2207A,121.6094,41.998,阜新市,工业园区,,35,27,38,24,21,78,,80,80,8,8,3,4,0.4,0.3
2025-07-25T2200,2208A,121.6697,42.0279,阜新市,长青街,,40,31,30,28,21,76,,74,74,8,6,6,6,0.4,0.4
2025-07-25T2200,2209A,121.6673,42.0705,阜新市,农业园区,,40,40,37,19,17,83,,82,82,7,7,2,3,0.5,0.5
2025-07-25T2200,2210A,121.6717,42.0224,阜新市,东苑,,34,34,35,20,18,80,,76,76,10,9,5,6,0.4,0.4
2025-07-25T2200,2211A,121.6506,42.0498,阜新市,玉龙新城,,38,38,37,18,17,71,,72,72,6,7,2,3,0.5,0.5
2025-07-25T2200,2301A,115.8277,32.8929,阜阳市,市监测站,,38,38,31,22,16,76,,97,96,15,11,2,2,0.3,0.3
2025-07-25T2200,2303A,115.8554,32.8605,阜阳市,开发区,颗粒物(PM10),55,59,32,16,12,75,,107,103,20,10,7,6,0.4,0.3
2025-07-25T2200,2875A,115.784,32.8892,阜阳市,阜阳职业技术学院,,30,23,22,16,13,96,,108,108,8,6,4,4,0.5,0.4
2025-07-25T2200,3468A,115.7901,32.8613,阜阳市,市规划展馆,,38,38,31,21,18,94,,104,103,11,9,3,3,0.4,0.3
2025-07-25T2200,3469A,115.836,32.9183,阜阳市,枣园社区,,32,27,29,22,19,84,,109,106,11,9,3,4,0.4,0.4
2025-07-25T2200,2669A,102.9099,34.9841,甘南藏族自治州,州政府,颗粒物(PM10),56,61,17,28,16,11,,86,74,47,10,3,3,0.3,0.3
2025-07-25T2200,3380A,102.8914,34.9617,甘南藏族自治州,甘肃民族师范学院,颗粒物(PM10),91,131,22,37,9,0,,88,71,51,6,10,9,0.8,0.7
2025-07-25T2200,2570A,101.9603,30.0475,甘孜藏族自治州,水桥子,,,14,12,3,6,80,,89,86,10,12,,6,0.8,0.7
2025-07-25T2200,3065A,101.9533,29.9972,甘孜藏族自治州,州环保局,,25,20,13,3,4,79,,92,87,13,10,5,6,0.6,0.6
2025-07-25T2200,3414A,115.8347,28.932,赣江新区,桑海产业园,,28,24,20,16,9,88,,113,111,11,14,9,7,0.5,0.3
2025-07-25T2200,2363A,114.9367,25.8664,赣州市,地委,,38,38,26,21,14,72,,81,81,10,8,4,7,0.6,0.5
2025-07-25T2200,2364A,114.9461,25.8481,赣州市,气象台,,34,34,26,18,12,82,,86,86,6,8,8,9,0.6,0.7
2025-07-25T2200,2365A,114.9322,25.8333,赣州市,市图书馆,,41,41,24,24,16,81,,86,86,7,6,5,5,0.6,0.5
2025-07-25T2200,2366A,114.8905,25.8471,赣州市,华坚鞋城,,40,40,30,27,16,74,,77,77,10,9,4,4,0.4,0.4
2025-07-25T2200,3109A,115.0093,25.8613,赣州市,赣县区卫计委,,36,,21,25,16,81,,83,83,5,10,3,3,0.5,0.4
2025-07-25T2200,2683A,106.2319,36.1417,固原市,马园,,33,,30,23,13,80,,93,93,25,13,6,7,0.5,0.6
2025-07-25T2200,2684A,106.2792,36.0022,固原市,监测站,,32,16,24,6,14,101,,96,96,7,10,6,6,0.2,0.1
2025-07-25T2200,2685A,106.2375,36.0211,固原市,新区,,29,8,23,7,15,90,,92,92,7,9,6,6,0.4,0.4
2025-07-25T2200,3522A,106.2177,35.9959,固原市,原州区十五小,,31,7,22,7,15,99,,93,93,6,10,10,10,0.3,0.4
2025-07-25T2200,2544A,106.6303,30.4576,广安市,市委,,19,17,17,13,8,51,,83,77,14,9,5,5,0.3,0.3
2025-07-25T2200,2545A,106.6271,30.4663,广安市,友谊中学,,33,33,15,14,9,40,,84,75,25,12,4,4,0.6,0.5
2025-07-25T2200,2547A,106.6388,30.4551,广安市,广电花园,,22,20,32,15,10,53,,80,76,12,9,2,2,0.5,0.5
2025-07-25T2200,2902A,106.6351,30.4865,广安市,北辰小学,,18,18,14,11,9,56,,91,82,13,8,5,5,0.5,0.5
2025-07-25T2200,2523A,105.8945,32.4535,广元市,黑石坡,,28,28,19,18,10,33,,58,52,14,8,14,9,0.6,0.3
2025-07-25T2200,2524A,105.821,32.4444,广元市,老城,,22,22,18,15,9,34,,75,68,31,18,11,8,0.7,0.7
2025-07-25T2200,2526A,105.8628,32.4287,广元市,监测站,,50,50,24,14,10,38,,61,59,16,12,20,16,1.0,0.8
2025-07-25T2200,3617A,105.8047,32.4166,广元市,经开区,,18,16,17,12,13,38,,68,64,19,17,6,6,0.6,0.7
2025-07-25T2200,1345A,113.2347,23.1423,广州市,广雅中学,,45,45,34,22,16,21,,141,97,43,28,2,3,0.7,0.6
2025-07-25T2200,1346A,113.2612,23.105,广州市,市五中,,29,29,27,18,17,88,,147,117,18,18,4,5,0.6,0.6
2025-07-25T2200,1348A,113.3478,23.0916,广州市,广东商学院,,31,31,29,21,17,93,,151,118,21,25,3,3,0.6,0.6
2025-07-25T2200,1349A,113.4332,23.1047,广州市,市八十六中,,22,22,29,12,16,64,,105,86,26,39,3,3,0.3,0.4
2025-07-25T2200,1350A,113.3505,22.9483,广州市,番禺中学,,,15,28,12,16,88,,160,140,,19,5,6,0.3,0.4
2025-07-25T2200,1351A,113.2146,23.3916,广州市,花都师范,,19,12,21,6,14,58,,112,84,14,18,3,4,0.4,0.6
2025-07-25T2200,1352A,113.2597,23.1331,广州市,市监测站,,37,37,29,16,13,73,,144,109,25,24,5,6,0.4,0.4
2025-07-25T2200,1353A,113.5618,23.312,广州市,九龙镇镇龙,,23,23,27,13,15,25,,102,77,30,19,6,7,0.5,0.5
2025-07-25T2200,1354A,113.2765,23.1544,广州市,麓湖,,34,34,25,16,14,23,,121,81,38,24,2,3,0.6,0.6
2025-07-25T2200,1355A,113.443,23.3035,广州市,帽峰山森林公园,,15,11,18,6,9,45,,107,,9,10,5,6,0.4,0.4
2025-07-25T2200,2846A,113.3221,23.1322,广州市,体育西,,32,32,30,18,17,82,,144,111,29,25,5,5,0.7,0.7
2025-07-25T2200,3298A,113.5717,23.5491,广州市,从化街口,,17,17,23,8,14,20,,100,69,24,12,5,6,0.8,0.7
2025-07-25T2200,3299A,113.3472,23.3692,广州市,白云竹料,,33,30,22,23,13,39,,113,87,22,17,4,4,0.4,0.4
2025-07-25T2200,3300A,113.2981,23.237,广州市,白云嘉禾,,31,31,28,15,16,24,,140,93,41,25,7,6,0.4,0.4
2025-07-25T2200,3301A,113.4256,23.1716,广州市,黄埔科学城,,30,30,25,15,15,11,,128,92,24,17,2,2,0.4,0.4
2025-07-25T2200,3302A,113.3942,23.0483,广州市,番禺大学城,,27,26,27,10,13,86,,161,133,18,21,6,5,0.4,0.4
2025-07-25T2200,3303A,113.4922,22.8168,广州市,南沙黄阁,,23,6,28,3,16,71,,163,128,15,22,5,6,0.5,0.5
2025-07-25T2200,3304A,113.5342,22.7896,广州市,南沙街,,19,17,27,8,15,60,,186,146,17,18,3,5,0.3,0.4
2025-07-25T2200,3443A,113.2902,23.5544,广州市,花都梯面,,16,6,16,3,9,49,,100,87,10,13,5,6,0.4,0.4
2025-07-25T2200,3445A,113.7858,23.7478,广州市,从化良口,,15,15,19,6,10,22,,73,56,8,8,4,4,0.5,0.5
2025-07-25T2200,3446A,113.8051,23.2614,广州市,增城荔城,,16,16,23,8,16,38,,82,65,14,13,7,7,0.4,0.4
2025-07-25T2200,2506A,109.6047,23.0666,贵港市,江南子站,颗粒物(PM10),52,53,37,28,20,46,,102,80,18,13,8,8,0.7,0.6
2025-07-25T2200,2508A,109.5669,23.1065,贵港市,荷城子站,细颗粒物(PM2.5),55,53,34,39,18,53,,84,72,16,16,7,7,0.6,0.5
2025-07-25T2200,3405A,109.5886,23.1172,贵港市,新世纪学校,,39,31,36,27,22,75,,86,78,12,16,5,5,0.6,0.6
2025-07-25T2200,4260A,109.5933,23.0951,贵港市,中山路155-3号,颗粒物(PM10),56,62,41,37,22,45,,100,82,20,14,4,4,0.7,0.6
2025-07-25T2200,1439A,106.6899,26.5998,贵阳市,马鞍山,,27,27,17,3,0,8,,48,30,26,11,3,3,0.7,0.5
2025-07-25T2200,1441A,106.6243,26.6266,贵阳市,鉴湖路,,34,34,24,7,3,20,,42,33,21,12,6,6,0.2,0.2
2025-07-25T2200,1442A,106.7487,26.6343,贵阳市,燕子冲,,20,17,12,14,15,16,,52,35,19,13,3,2,0.5,0.5
2025-07-25T2200,1443A,106.6555,26.4365,贵阳市,碧云窝,,29,29,26,3,5,32,,49,37,9,9,4,5,0.0,0.1
2025-07-25T2200,1445A,106.7109,26.6027,贵阳市,红边门,,17,17,17,3,8,21,,48,34,29,20,5,6,0.4,0.3
2025-07-25T2200,1446A,106.7164,26.5699,贵阳市,新华路,,24,24,24,14,10,16,,50,36,36,20,6,9,0.3,0.4
2025-07-25T2200,1447A,106.674,26.5424,贵阳市,太慈桥,,14,14,10,3,4,5,,49,27,20,11,4,4,0.3,0.2
2025-07-25T2200,4230A,106.6882,26.5695,贵阳市,花果园大街66号,,,,8,,10,16,,44,28,18,15,3,2,0.5,0.3
2025-07-25T2200,4231A,106.6873,26.5169,贵阳市,漓江路57号,,10,7,17,3,6,32,,51,33,9,12,3,4,0.3,0.3
2025-07-25T2200,1864A,110.3089,25.2708,桂林市,龙隐路小学,,16,12,25,8,12,50,,71,67,10,8,11,10,0.3,0.3
2025-07-25T2200,1865A,110.2869,25.2178,桂林市,八中,,17,,27,11,12,52,,80,72,14,13,8,8,0.4,0.5
2025-07-25T2200,3531A,110.296,25.1253,桂林市,旅游学院,,14,14,19,7,10,40,,86,73,9,8,5,4,0.3,0.4
2025-07-25T2200,4222A,110.1835,25.2444,桂林市,环湖路276号,,22,22,31,9,18,43,,93,79,14,13,17,33,0.4,0.5
2025-07-25T2200,4301A,110.2803,25.2773,桂林市,信义路13号,,23,23,29,3,8,39,,80,67,24,14,7,7,0.5,0.5
2025-07-25T2200,2674A,100.2561,34.4714,果洛藏族自治州,玛沁县大武镇,,30,30,20,17,8,87,,90,88,2,2,18,18,0.3,0.3
2025-07-25T2200,1129A,126.5422,45.755,哈尔滨市,岭北,,25,20,12,9,6,78,,107,97,15,14,10,9,0.7,0.7
2025-07-25T2200,1130A,126.561,45.8167,哈尔滨市,松北商大,,16,16,16,3,5,38,,80,70,20,11,5,5,0.5,0.5
2025-07-25T2200,1131A,126.979,45.5419,哈尔滨市,阿城会宁,,20,20,20,13,8,24,,54,52,17,12,4,4,0.5,0.4
2025-07-25T2200,1132A,126.599,45.7222,哈尔滨市,南岗学府路,,21,21,21,3,5,60,,87,80,15,17,11,8,0.7,0.7
2025-07-25T2200,1133A,126.689,45.7733,哈尔滨市,太平宏伟公园,,25,25,23,9,9,60,,77,74,17,15,8,6,0.6,0.6
2025-07-25T2200,1134A,126.635,45.7667,哈尔滨市,道外承德广场,,27,27,33,6,7,41,,82,74,33,18,6,6,1.0,0.9
2025-07-25T2200,1135A,126.685,45.7319,哈尔滨市,香坊红旗大街,,33,24,18,23,11,43,,78,69,31,22,4,5,0.7,0.7
2025-07-25T2200,1136A,126.6411,45.7258,哈尔滨市,动力和平路,,,23,26,,,54,,88,81,22,19,8,5,0.6,0.6
2025-07-25T2200,1137A,126.593,45.7478,哈尔滨市,道里建国路,,19,19,26,8,8,54,,88,79,21,18,2,3,0.7,1
2025-07-25T2200,1138A,126.615,45.61,哈尔滨市,平房东轻厂,,15,15,19,6,9,36,,71,62,21,16,6,6,0.4,0.4
2025-07-25T2200,1139A,126.595,45.9855,哈尔滨市,呼兰师专,,18,17,14,3,5,56,,99,82,26,14,5,8,0.5,0.5
2025-07-25T2200,1140A,126.6206,45.6842,哈尔滨市,省农科院,,29,29,24,12,10,33,,76,60,42,30,7,7,0.6,0.5
2025-07-25T2200,2688A,93.5128,42.8172,哈密市,地区监测站,颗粒物(PM10),57,63,81,16,28,82,,133,118,37,29,2,2,0.2,0.2
2025-07-25T2200,2689A,93.4961,42.8328,哈密市,哈密师范学校,颗粒物(PM10),65,79,65,16,20,71,,114,100,29,36,6,7,0.3,0.3
2025-07-25T2200,2671A,100.9048,36.9639,海北藏族自治州,海晏县西海镇,,38,26,26,23,18,119,,146,136,8,4,20,11,0.5,0.5
2025-07-25T2200,3867A,102.0738,36.5056,海东市,平安区公安北苑,,44,44,32,9,18,102,,134,131,13,8,14,14,1.8,0.8
2025-07-25T2200,1409A,110.576,19.9507,海口市,东寨港,,31,31,18,18,8,34,,70,56,6,7,6,6,0.5,0.4
2025-07-25T2200,1410A,110.3232,20.0574,海口市,海南大学,,23,23,16,14,9,49,,75,71,13,17,3,3,0.4,0.4
2025-07-25T2200,1411A,110.283,20.0053,海口市,秀英海南医院,,25,24,18,17,10,42,,66,58,16,19,5,5,0.4,0.4
2025-07-25T2200,1412A,110.338,19.9969,海口市,海南师范大学,,20,20,16,14,10,51,,73,62,10,13,4,4,0.4,0.4
2025-07-25T2200,1413A,110.33,20.0356,海口市,龙华路环保局宿舍,,22,21,15,15,9,51,,70,64,12,15,5,5,0.4,0.3
2025-07-25T2200,3539A,110.5111,19.9736,海口市,桂林洋子站,,,30,21,17,11,39,,66,62,,19,5,4,0.2,0.2
2025-07-25T2200,2673A,100.6188,36.2866,海南藏族自治州,共和县恰卜恰镇,颗粒物(PM10),52,54,18,9,8,85,,127,122,24,4,10,9,0.8,0.5
2025-07-25T2200,2676A,97.3731,37.3753,海西蒙古族藏族自治州,德令哈市,颗粒物(PM10),56,61,25,27,13,126,,165,162,12,5,19,18,0.6,0.6
2025-07-25T2200,1048A,114.5302,36.6116,邯郸市,东污水处理厂,颗粒物(PM10),53,55,30,19,3,95,,123,113,10,7,3,3,0.4,0.4
2025-07-25T2200,1049A,114.4918,36.5713,邯郸市,矿院,,49,49,22,19,8,94,,127,116,11,7,4,5,0.3,0.4
2025-07-25T2200,1050A,114.484,36.6133,邯郸市,丛台公园,,35,24,23,15,8,112,,133,125,9,7,6,6,0.3,0.4
2025-07-25T2200,3458A,114.7895,36.5593,邯郸市,香泉濮院小区,,46,46,40,6,2,92,,125,115,11,8,2,3,0.6,0.4
2025-07-25T2200,3579A,114.50634,36.77178,邯郸市,永年区实验高中,,49,42,32,34,18,105,,124,117,10,8,2,3,0.2,0.3
2025-07-25T2200,3580A,114.20016,36.44293,邯郸市,峰峰矿区临水派出所,,38,38,32,3,2,112,,134,128,10,6,1,2,0.2,0.2
2025-07-25T2200,2634A,106.9893,33.1842,汉中市,汉川机床厂子校,,23,23,11,7,5,50,,77,68,8,9,4,3,0.3,0.3
2025-07-25T2200,2635A,107.0154,33.0706,汉中市,市监测站,,17,17,14,7,4,48,,68,58,7,5,8,5,0.6,0.4
2025-07-25T2200,2636A,107.0089,33.1138,汉中市,鑫源开发区,,15,10,13,3,3,45,,67,59,9,7,7,5,0.6,0.4
2025-07-25T2200,2637A,107.007,33.0323,汉中市,南郑大河坎水厂,,16,16,14,8,6,42,,68,58,10,9,9,8,0.5,0.4
2025-07-25T2200,1223A,120.2072,30.2111,杭州市,滨江,,12,,14,8,9,24,,58,41,12,14,6,6,0.4,0.4
2025-07-25T2200,1224A,120.0633,30.2747,杭州市,西溪,,16,16,19,7,11,21,,49,32,13,13,4,4,0.3,0.3
2025-07-25T2200,1226A,120.3417,30.3150,杭州市,下沙,,18,18,18,6,8,16,,54,36,20,16,4,5,0.2,0.2
2025-07-25T2200,1227A,120.1269,30.2456,杭州市,卧龙桥,,14,14,19,3,9,20,,48,33,7,7,7,7,0.4,0.5
2025-07-25T2200,1228A,120.1903,30.2692,杭州市,浙江农大,,24,24,29,9,12,20,,50,35,11,13,4,5,0.4,0.4
2025-07-25T2200,1230A,120.1197,30.3119,杭州市,和睦小学,,15,13,20,10,10,20,,56,37,12,12,4,4,0.4,0.4
2025-07-25T2200,1231A,120.3019,30.4183,杭州市,临平镇,,14,14,24,9,9,22,,63,42,10,9,5,6,0.3,0.3
2025-07-25T2200,1232A,120.2753,30.1839,杭州市,城厢镇,,27,27,28,3,10,21,,60,37,7,7,6,7,0.5,0.4
2025-07-25T2200,1233A,120.0883,30.1808,杭州市,云栖,,16,16,20,3,8,28,,55,40,10,11,7,8,0.4,0.4
2025-07-25T2200,3557A,119.9464,30.0494,杭州市,镇二中,,9,7,18,6,13,24,,54,42,7,12,3,4,0.4,0.4
2025-07-25T2200,3558A,119.7183,30.2367,杭州市,市府大楼,,20,20,25,10,11,28,,71,56,13,10,7,7,0.4,0.4
2025-07-25T2200,3656A,120.1556,30.2864,杭州市,消防大队,,16,16,20,6,9,23,,56,39,16,15,6,7,0.5,0.5
2025-07-25T2200,1270A,117.1959,31.7848,合肥市,明珠广场,,36,36,26,19,13,66,,114,105,11,12,6,7,0.3,0.4
2025-07-25T2200,1271A,117.3072,31.8764,合肥市,三里街,,34,34,24,19,13,52,,94,89,13,11,6,6,0.3,0.4
2025-07-25T2200,1272A,117.2588,31.8707,合肥市,琥珀山庄,,34,34,31,21,17,57,,101,95,12,12,9,9,0.5,0.6
2025-07-25T2200,1273A,117.1604,31.9052,合肥市,董铺水库,,34,34,23,19,10,62,,96,93,6,8,5,5,0.2,0.4
2025-07-25T2200,1274A,117.25,31.8571,合肥市,长江中路,,36,36,29,21,16,60,,104,98,11,11,8,7,0.4,0.4
2025-07-25T2200,1275A,117.266,31.9436,合肥市,庐阳区,,31,31,25,19,13,60,,104,100,6,7,8,8,0.4,0.5
2025-07-25T2200,1276A,117.3453,31.8616,合肥市,瑶海区,,34,34,25,17,12,57,,101,96,10,11,7,7,0.4,0.5
2025-07-25T2200,1277A,117.3027,31.7964,合肥市,包河区,,34,34,29,19,15,53,,98,88,22,22,6,7,0.5,0.6
2025-07-25T2200,1278A,117.2776,31.7385,合肥市,滨湖新区,,36,36,29,24,18,65,,111,103,12,9,8,7,0.3,0.4
2025-07-25T2200,1279A,117.1318,31.8403,合肥市,高新区,,29,29,27,16,13,68,,108,102,11,11,6,6,0.3,0.4
2025-07-25T2200,3464A,117.3803,31.9147,合肥市,高教基地,,31,31,25,18,12,57,,98,95,12,11,8,6,0.3,0.4
2025-07-25T2200,3614A,79.924,37.0877,和田地区,地区环保局,颗粒物(PM10),400,500,591,161,119,92,,110,103,12,13,3,4,0.3,0.3
2025-07-25T2200,3615A,79.9131,37.113,和田地区,市环保局,颗粒物(PM10),286,410,500,128,104,64,,109,97,19,17,1,2,0.2,0.2
2025-07-25T2200,2517A,108.0497,24.6947,河池市,市环保站,,17,17,23,7,8,14,,48,33,12,7,3,4,0.6,0.6
2025-07-25T2200,2518A,108.0983,24.6989,河池市,市疾控中心,,20,20,19,8,8,6,,48,32,17,10,4,4,0.7,0.6
2025-07-25T2200,1696A,114.6778,23.7569,河源市,源西,,30,25,20,21,10,28,,61,49,5,4,9,14,0.4,0.4
2025-07-25T2200,1697A,114.6944,23.7586,河源市,东埔,,22,22,17,14,12,33,,70,50,11,12,5,5,0.5,0.5
2025-07-25T2200,1698A,114.6892,23.7233,河源市,老城,,19,19,22,3,12,32,,67,48,10,12,4,5,0.3,0.3
2025-07-25T2200,1718A,115.4208,35.2464,菏泽市,气象局,,37,37,36,19,19,81,,120,110,8,8,2,2,0.2,0.2
2025-07-25T2200,3374A,115.5564,35.0891,菏泽市,定陶老年大学,,36,36,29,14,13,58,,104,90,17,11,1,2,0.2,0.2
2025-07-25T2200,4184A,115.4797,35.24401,菏泽市,永昌路1号,,39,39,40,24,22,70,,118,103,13,11,6,5,0.1,0.1
2025-07-25T2200,4193A,115.4715,35.2800,菏泽市,长城路999号,,31,31,32,13,14,77,,120,109,10,8,7,4,0.4,0.4
2025-07-25T2200,2514A,111.5264,24.4172,贺州市,环保小区,颗粒物(PM10),54,58,32,25,15,19,,71,54,29,15,10,11,0.8,0.8
2025-07-25T2200,2515A,111.5608,24.4078,贺州市,政协大楼,,46,46,25,7,12,24,,76,56,22,13,13,13,0.6,0.5
2025-07-25T2200,3534A,111.4744,24.4553,贺州市,西湾,,26,23,32,18,15,20,,71,50,22,12,9,8,0.7,0.5
2025-07-25T2200,2385A,114.17,35.9019,鹤壁市,市监测站,,46,46,27,26,22,96,,116,113,9,6,5,5,0.6,0.5
2025-07-25T2200,2386A,114.2956,35.7511,鹤壁市,市交警支队,,43,43,32,24,15,76,,107,102,19,12,3,4,0.6,0.4
2025-07-25T2200,2387A,114.2878,35.7306,鹤壁市,迎宾馆,,43,43,33,28,21,74,,104,99,23,15,6,5,0.7,0.6
2025-07-25T2200,3474A,114.2617,35.6822,鹤壁市,大新区,,42,42,31,19,16,52,,110,96,17,8,6,6,0.5,0.5
2025-07-25T2200,3596A,114.1572,35.9603,鹤壁市,南山宾馆,,44,44,35,29,14,102,,121,117,10,8,3,4,0.5,0.4
2025-07-25T2200,2244A,130.2537,47.3416,鹤岗市,哈啤分公司,,27,27,28,12,15,45,,120,87,21,16,12,12,0.6,0.6
2025-07-25T2200,2245A,130.2684,47.3086,鹤岗市,斯达机电,,38,38,35,15,11,54,,104,82,18,13,12,12,0.5,0.6
2025-07-25T2200,2246A,130.3114,47.3388,鹤岗市,东山纸板厂,,28,26,28,19,18,24,,95,66,27,17,15,14,0.7,0.7
2025-07-25T2200,2247A,130.1097,47.3382,鹤岗市,五号水库,,15,6,7,3,5,45,,101,67,11,16,8,8,0.1,0.2
2025-07-25T2200,2263A,127.4833,50.2524,黑河市,交通局,,29,29,20,6,7,36,,66,58,16,9,6,7,0.5,0.5
2025-07-25T2200,2264A,127.5144,50.2341,黑河市,环保局,,29,29,21,14,10,32,,49,43,13,9,5,5,0.5,0.5
2025-07-25T2200,2265A,127.5291,50.2472,黑河市,大黑河岛,,,,4,8,6,27,,52,41,12,5,32,31,,
2025-07-25T2200,1074A,115.6838,37.7541,衡水市,电机北厂,,49,49,36,26,21,122,,142,140,9,7,4,4,0.4,0.4
2025-07-25T2200,1075A,115.6303,37.7316,衡水市,市监测站,,48,48,37,28,17,117,,140,136,9,9,4,4,0.4,0.3
2025-07-25T2200,3188A,115.6683,37.7217,衡水市,市城管局,细颗粒物(PM2.5),52,45,37,36,20,115,,143,140,12,8,13,11,0.6,0.5
2025-07-25T2200,3459A,115.5989,37.5491,衡水市,地表水厂,颗粒物(PM10),53,55,44,21,11,94,,142,130,22,10,7,8,0.3,0.3
2025-07-25T2200,2456A,112.5003,26.9167,衡阳市,原169医院,,30,19,20,16,10,93,,122,114,25,8,5,4,0.5,0.5
2025-07-25T2200,2457A,112.6194,26.9258,衡阳市,衡阳化工总厂,,31,29,30,18,14,97,,111,104,11,9,3,4,0.7,0.6
2025-07-25T2200,2458A,112.6211,26.8956,衡阳市,珠晖区环保局,,36,25,34,15,14,114,,116,112,9,11,5,5,0.4,0.4
2025-07-25T2200,2459A,112.6197,26.8733,衡阳市,市委党校,,33,25,18,16,12,104,,111,109,12,9,8,7,0.6,0.6
2025-07-25T2200,2460A,112.6006,26.8919,衡阳市,市监测站,,38,38,25,18,14,109,,111,110,8,9,2,3,0.5,0.5
2025-07-25T2200,2461A,112.5664,26.9056,衡阳市,真空机电公司,,35,30,25,16,14,112,,115,112,4,6,4,4,0.6,0.6
2025-07-25T2200,3399A,112.6703,26.882,衡阳市,师范学院,,32,32,24,22,12,89,,111,105,14,9,6,7,0.7,0.6
2025-07-25T2200,2608A,103.3772,23.3993,红河哈尼族彝族自治州,污水处理厂,,25,25,14,15,13,23,,48,30,12,8,10,9,0.4,0.3
2025-07-25T2200,2609A,103.3861,23.35,红河哈尼族彝族自治州,监测站,,19,19,19,9,10,26,,43,30,4,5,7,10,0.2,0.2
2025-07-25T2200,3038A,103.3758,23.368,红河哈尼族彝族自治州,州图书馆,,29,,12,20,13,29,,48,34,5,5,2,2,0.3,0.2
2025-07-25T2200,1090A,111.6507,40.7517,呼和浩特市,呼市一监,,15,,7,10,13,34,,44,36,8,13,7,7,0.6,0.6
2025-07-25T2200,1091A,111.6572,40.8033,呼和浩特市,小召,,12,,6,3,14,37,,51,33,13,18,7,7,0.9,0.8
2025-07-25T2200,1094A,111.7516,40.8369,呼和浩特市,如意水处理厂,,17,8,13,7,11,54,,46,46,8,22,4,4,0.4,0.5
2025-07-25T2200,1095A,111.7276,40.8062,呼和浩特市,二十九中,,16,11,13,8,13,50,,50,49,8,18,5,5,0.8,0.9
2025-07-25T2200,1096A,111.5512,40.7866,呼和浩特市,工大金川校区,,10,6,12,3,10,32,,59,34,16,18,4,4,0.8,0.7
2025-07-25T2200,1097A,111.717,40.7612,呼和浩特市,化肥厂生活区,,14,8,13,8,12,43,,57,43,12,18,6,6,0.5,0.7
2025-07-25T2200,3698A,111.5968,40.8178,呼和浩特市,红旗小学,,13,6,7,3,10,39,,58,41,22,17,4,4,0.4,0.4
2025-07-25T2200,3699A,111.6518,40.8389,呼和浩特市,海东办,,20,,6,3,10,61,,56,53,10,20,1,4,0.6,0.6
2025-07-25T2200,2192A,119.7594,49.2261,呼伦贝尔市,区环保局,,27,27,22,15,17,58,,93,80,7,13,4,5,0.1,0.2
2025-07-25T2200,3061A,119.7512,49.1577,呼伦贝尔市,国华电力东,,20,11,18,11,11,61,,99,86,5,8,1,4,0.3,0.3
2025-07-25T2200,1250A,120.0751,30.8669,湖州市,城西水厂,,26,26,26,13,13,38,,81,60,7,8,7,7,0.5,0.4
2025-07-25T2200,2873A,120.0830,30.8929,湖州市,仁皇山新区,,24,24,23,11,13,30,,74,53,7,10,4,4,0.4,0.4
2025-07-25T2200,2907A,120.1844,30.8596,湖州市,吴兴区站,,18,18,20,11,13,25,,70,50,7,6,6,7,0.5,0.4
2025-07-25T2200,3562A,120.4148,30.8538,湖州市,南浔区站,,26,26,24,12,14,28,,65,45,8,8,7,7,0.4,0.5
2025-07-25T2200,1607A,120.9049,40.7211,葫芦岛市,龙港区,,43,,37,30,26,75,,76,76,4,6,1,2,0.4,0.4
2025-07-25T2200,1608A,120.8392,40.7514,葫芦岛市,化工街,,35,34,27,24,19,70,,70,70,10,10,6,6,0.4,0.4
2025-07-25T2200,1609A,120.8341,40.7073,葫芦岛市,新区,细颗粒物(PM2.5),52,,31,36,31,76,,75,75,3,5,3,3,0.6,0.6
2025-07-25T2200,1610A,120.8695,40.7677,葫芦岛市,东城区,细颗粒物(PM2.5),77,,32,56,36,77,,79,79,8,6,4,4,0.6,0.6
2025-07-25T2200,2482A,109.5981,27.5721,怀化市,林科所,,32,32,23,10,4,15,,42,39,6,5,4,5,0.4,0.5
2025-07-25T2200,2483A,109.9453,27.5444,怀化市,河西地税局,,,31,19,12,9,5,,54,46,21,9,2,2,,0
2025-07-25T2200,2484A,109.9781,27.5342,怀化市,市四医院,,21,21,19,13,13,28,,53,51,12,5,7,11,0.4,0.4
2025-07-25T2200,2485A,109.9972,27.5578,怀化市,监测楼,,33,33,23,12,10,28,,52,50,10,6,4,7,0.1,0
2025-07-25T2200,2486A,110.0394,27.583,怀化市,市委党校,,24,24,19,13,11,17,,51,46,16,6,7,14,0.3,0.2
2025-07-25T2200,1210A,119.036,33.5981,淮安市,钵池山,,28,24,19,19,17,64,,74,72,8,6,8,8,0.5,0.4
2025-07-25T2200,1211A,119.007,33.575,淮安市,北京南路,,24,24,22,15,16,61,,69,67,8,6,8,7,0.5,0.4
2025-07-25T2200,1212A,118.989,33.6067,淮安市,市监测站,,,,23,,19,,,67,66,,4,,9,,0.5
2025-07-25T2200,1213A,119.135,33.5039,淮安市,楚州区监测站,,34,34,28,18,16,57,,68,65,8,3,8,8,0.5,0.4
2025-07-25T2200,3426A,118.8755,33.2894,淮安市,新华书店,,23,17,20,16,16,43,,64,62,11,5,10,9,0.5,0.4
2025-07-25T2200,4206A,119.0288,33.6319,淮安市,承德北路606号,,28,27,25,19,17,60,,70,68,8,6,6,6,0.3,0.3
2025-07-25T2200,2282A,116.8004,33.975,淮北市,监测站,,23,22,26,14,14,72,,76,74,4,5,7,7,0.5,0.5
2025-07-25T2200,2283A,116.8091,33.9007,淮北市,烈山区政府,,35,35,36,14,13,61,,77,72,2,11,8,8,0.5,0.4
2025-07-25T2200,3330A,116.8873,33.9836,淮北市,杜集区检察院,,31,31,23,21,17,72,,75,75,4,4,7,7,0.2,0.3
2025-07-25T2200,4017A,116.7923,33.9535,淮北市,市博物馆,,30,30,27,20,18,71,,78,76,4,4,8,8,0.4,0.5
2025-07-25T2200,2277A,116.8305,32.7727,淮南市,潘集区政府,,29,29,38,17,18,53,,92,76,9,10,4,4,0.3,0.4
2025-07-25T2200,2279A,116.8569,32.5951,淮南市,谢家集区政府,,34,34,33,14,15,60,,96,88,4,8,6,8,0.1,0.2
2025-07-25T2200,2280A,116.8281,32.633,淮南市,八公山区政府,,35,35,30,14,16,55,,99,90,8,8,4,6,0.3,0.3
2025-07-25T2200,2894A,117.0566,32.6531,淮南市,经济技术开发区消防队,,35,35,27,6,8,53,,98,82,17,11,8,8,0.2,0.3
2025-07-25T2200,3329A,117.0108,32.5893,淮南市,山南新区,,27,27,31,3,7,56,,100,88,7,8,9,10,0.2,0.3
2025-07-25T2200,4209A,117.0031,32.6445,淮南市,国庆中路369号,,32,32,33,22,21,60,,104,90,6,9,11,12,0.2,0.3
2025-07-25T2200,2446A,114.9028,30.4742,黄冈市,职工中心,,,20,22,11,13,,,121,103,6,3,7,5,,0.6
2025-07-25T2200,2929A,114.8858,30.4519,黄冈市,红卫路,,20,20,20,13,18,61,,142,110,6,2,7,7,0.3,0.4
2025-07-25T2200,3398A,114.9136,30.4445,黄冈市,市林业局,,26,26,24,13,11,58,,145,112,10,4,8,7,0.4,0.4
2025-07-25T2200,2672A,102.0199,35.5102,黄南藏族自治州,同仁县隆务镇,,22,22,22,12,10,42,,65,58,9,11,7,8,0.1,0.2
2025-07-25T2200,2295A,118.2903,29.6963,黄山市,延安路89号,,22,22,15,8,7,19,,56,46,10,5,3,3,0.4,0.3
2025-07-25T2200,2297A,118.1371,30.2756,黄山市,黄山区政府5号楼,,34,34,18,16,9,56,,68,68,4,4,4,4,0.3,0.2
2025-07-25T2200,4210A,118.3354,29.7203,黄山市,滨江东路7-2号,,19,19,19,3,6,36,,55,45,5,4,2,2,0.4,0.3
2025-07-25T2200,2423A,115.0601,30.2313,黄石市,沈家营,,22,22,31,6,9,45,,127,90,16,15,10,8,0.5,0.5
2025-07-25T2200,2426A,114.8988,30.2019,黄石市,铁山,,17,17,24,3,8,53,,118,91,4,8,6,9,0.6,0.5
2025-07-25T2200,2427A,115.0307,30.2092,黄石市,团城山,,24,24,25,3,6,63,,132,99,4,10,9,8,0.4,0.4
2025-07-25T2200,3149A,115.0235,30.1578,黄石市,笔架山北路,,28,28,22,3,5,53,,127,98,16,10,6,8,0.4,0.5
2025-07-25T2200,4185A,115.0780,30.21118,黄石市,磁湖东路29号,,37,37,35,9,13,35,,120,87,27,13,13,9,0.6,0.4
2025-07-25T2200,1392A,114.4183,23.0528,惠州市,河南岸金山湖子站,,13,12,26,6,16,39,,97,68,15,17,6,8,0.4,0.5
2025-07-25T2200,1393A,114.4053,23.0822,惠州市,下埔横江三路子站,,24,24,29,16,16,37,,110,72,19,15,4,5,0.3,0.3
2025-07-25T2200,1394A,114.4103,23.1142,惠州市,江北云山西路子站,,21,21,30,9,15,38,,115,77,17,16,7,9,0.6,0.6
2025-07-25T2200,1395A,114.4645,22.7833,惠州市,惠阳区承修路船湖子站,,40,40,33,22,19,42,,124,80,22,18,7,7,0.4,0.5
2025-07-25T2200,1396A,114.5317,22.7422,惠州市,大亚湾管委会子站,,18,18,27,10,17,37,,132,80,24,24,6,8,0.5,0.6
2025-07-25T2200,3314A,114.4338,22.8134,惠州市,惠阳秋长,,24,24,33,11,20,44,,112,78,22,21,10,10,0.4,0.4
2025-07-25T2200,3452A,114.6517,22.775,惠州市,大亚湾霞涌,,10,,28,6,17,29,,166,110,18,17,6,7,0.7,0.7
2025-07-25T2200,2240A,130.9762,45.3001,鸡西市,环保局,,12,10,21,8,10,30,,61,44,12,11,5,6,0.3,0.3
2025-07-25T2200,2243A,130.9429,45.3039,鸡西市,第一中学,,15,11,22,10,14,37,,54,43,7,11,10,10,0.3,0.3
2025-07-25T2200,3707A,131.0207,45.3073,鸡西市,欧美日汽修厂,,24,24,31,7,12,25,,58,41,11,18,7,8,0.3,0.3
2025-07-25T2200,3709A,130.9967,45.3106,鸡西市,市政设施管理处,,23,16,27,16,12,22,,62,43,14,19,5,6,0.4,0.4
2025-07-25T2200,2367A,114.9754,27.0803,吉安市,红声器材厂,,26,26,28,12,12,78,,104,96,19,9,12,11,0.3,0.3
2025-07-25T2200,2368A,114.9658,27.0999,吉安市,市森林工业局,,32,23,27,9,12,100,,113,106,5,7,11,13,0.6,0.4
2025-07-25T2200,2369A,114.99,27.1312,吉安市,市环境监测站,,26,24,24,12,12,82,,110,101,15,8,18,25,0.5,0.5
2025-07-25T2200,2370A,115.0093,27.0968,吉安市,青原区法院,,29,29,27,16,14,80,,104,98,11,11,7,10,0.6,0.6
2025-07-25T2200,1772A,126.54,43.8622,吉林市,哈达湾,,40,39,19,28,11,48,,56,56,16,8,6,6,0.6,0.4
2025-07-25T2200,1773A,126.5844,43.8358,吉林市,东局子,,50,50,28,26,16,22,,37,36,23,9,5,5,0.8,0.6
2025-07-25T2200,1774A,126.5052,43.8245,吉林市,电力学院,,37,37,18,22,11,10,,45,40,17,10,6,5,1.0,0.8
2025-07-25T2200,1775A,126.6133,43.8972,吉林市,江北,,35,31,19,24,13,19,,29,26,7,7,2,2,0.9,0.7
2025-07-25T2200,1776A,126.555,43.8306,吉林市,江南公园,,36,34,20,25,16,26,,51,49,19,7,2,2,0.5,0.3
2025-07-25T2200,2868A,126.4739,43.953,吉林市,九站,,29,29,35,17,29,30,,51,49,26,8,1,1,0.4,0.4
2025-07-25T2200,1299A,116.9862,36.6114,济南市,科干所,,34,29,23,20,18,106,,107,107,9,7,5,5,0.3,0.3
2025-07-25T2200,1300A,116.9376,36.665,济南市,农科所,,34,34,26,20,15,96,,107,107,10,7,7,7,0.3,0.2
2025-07-25T2200,1301A,117.1265,36.6734,济南市,开发区,,39,39,23,22,19,92,,103,103,17,9,7,7,0.5,0.5
2025-07-25T2200,1303A,117.0624,36.6868,济南市,省种子仓库,,39,36,28,27,15,107,,120,120,15,8,5,5,0.4,0.4
2025-07-25T2200,1304A,116.9489,36.6447,济南市,机床二厂,,35,32,28,15,14,110,,112,112,12,9,8,8,0.3,0.2
2025-07-25T2200,1305A,117.0495,36.663,济南市,市监测站,,34,34,25,20,16,92,,99,99,19,13,8,8,0.5,0.4
2025-07-25T2200,1306A,116.7675,36.5484,济南市,长清党校,,39,39,27,27,22,79,,111,108,27,11,6,5,0.5,0.4
2025-07-25T2200,1616A,117.6795,36.229,济南市,技术学院,,31,31,22,19,16,78,,100,96,14,9,7,7,0.6,0.6
2025-07-25T2200,1961A,117.532,36.6868,济南市,东山小学,,29,29,27,17,16,89,,110,102,8,8,6,6,0.2,0.3
2025-07-25T2200,3059A,117.7161,36.2049,济南市,泰兴公司,,36,36,28,24,18,63,,92,87,21,11,9,8,0.5,0.5
2025-07-25T2200,3064A,117.6867,36.2171,济南市,莱芜战役纪念馆,,32,31,30,22,17,70,,92,89,17,12,4,4,0.7,0.8
2025-07-25T2200,3494A,117.1673,36.9782,济南市,济阳区政府,颗粒物(PM10),53,56,41,20,17,74,,138,120,23,10,9,7,0.4,0.4
2025-07-25T2200,3495A,117.1171,36.63,济南市,锦屏中学,,37,37,22,22,15,61,,103,95,19,8,5,5,0.6,0.6
2025-07-25T2200,3682A,116.9814,36.6819,济南市,济南四建,,39,34,26,27,18,107,,120,120,14,10,6,6,0.5,0.5
2025-07-25T2200,1653A,116.6251,35.4302,济宁市,火炬城,,24,24,31,12,14,56,,92,83,7,7,3,4,0.4,0.3
2025-07-25T2200,1655A,116.5491,35.4042,济宁市,电化厂,,26,26,32,12,15,64,,97,89,4,6,6,5,0.4,0.5
2025-07-25T2200,3500A,116.5814,35.3707,济宁市,北湖一中,,31,31,31,10,15,58,,100,88,9,6,4,5,0.2,0.3
2025-07-25T2200,3501A,116.8249,35.5593,济宁市,服务中心,,40,40,34,13,12,63,,102,93,12,10,1,2,0.1,0.1
2025-07-25T2200,3678A,116.5907,35.4054,济宁市,市第七中学,,19,19,30,3,9,57,,94,84,5,5,8,7,0.2,0.3
2025-07-25T2200,2255A,130.2751,46.8028,佳木斯市,佳纺,,17,17,21,9,11,41,,76,65,16,13,8,8,0.5,0.6
2025-07-25T2200,2256A,130.3995,46.8307,佳木斯市,发电厂,,15,14,24,7,12,47,,76,63,17,11,6,6,0.4,0.4
2025-07-25T2200,2257A,130.3258,46.7975,佳木斯市,环保局,,18,18,25,10,12,54,,77,66,12,12,10,10,0.5,0.5
2025-07-25T2200,2258A,130.3648,46.8032,佳木斯市,十一中,,,17,22,12,14,,,79,69,15,11,4,9,0.4,0.5
2025-07-25T2200,2259A,130.3794,46.7588,佳木斯市,四丰,,,,,,,,,,,12,9,1,1,0.5,0.5
2025-07-25T2200,1252A,120.7436,30.778,嘉兴市,清河小学,,25,25,25,9,9,27,,59,39,10,11,9,9,0.3,0.3
2025-07-25T2200,1253A,120.726,30.7478,嘉兴市,嘉兴学院,,25,25,25,11,12,24,,57,38,11,11,4,4,0.4,0.4
2025-07-25T2200,2872A,120.7846,30.7525,嘉兴市,南湖区残联,,22,22,23,9,10,26,,59,39,11,10,5,6,0.3,0.3
2025-07-25T2200,3407A,120.6916,30.7739,嘉兴市,秀洲住建,,22,22,21,10,12,27,,59,41,10,12,5,6,0.3,0.4
2025-07-25T2200,1945A,98.2908,39.7711,嘉峪关市,气象局,颗粒物(PM10),54,58,35,14,11,82,,145,136,49,25,7,13,0.9,0.9
2025-07-25T2200,2884A,98.2672,39.7978,嘉峪关市,酒钢宾馆,颗粒物(PM10),52,53,41,14,13,114,,160,155,16,16,13,21,0.7,0.8
2025-07-25T2200,3248A,98.2643,39.7724,嘉峪关市,雄关区,,38,38,34,17,15,104,,139,134,33,27,8,10,1.3,0.6
2025-07-25T2200,1383A,113.1064,22.6058,江门市,北街,,27,21,24,12,16,86,,162,128,16,12,3,4,0.4,0.4
2025-07-25T2200,1384A,113.0731,22.5835,江门市,西区,,24,,24,14,11,75,,142,120,14,13,6,6,0.8,0.6
2025-07-25T2200,1385A,113.0219,22.5311,江门市,圭峰西,,21,,25,13,16,65,,119,101,8,8,5,5,0.3,0.3
2025-07-25T2200,1386A,113.0828,22.5947,江门市,东湖,,29,29,23,14,15,74,,142,117,15,13,6,6,0.4,0.4
2025-07-25T2200,3311A,113.1075,22.5647,江门市,江海富民,,38,38,32,13,13,79,,146,119,17,12,8,8,0.4,0.4
2025-07-25T2200,3335A,113.3137,35.2641,焦作市,马村街道办,,45,45,33,18,18,82,,122,111,15,13,4,4,0.6,0.6
2025-07-25T2200,3336A,113.2465,35.2373,焦作市,焦作技师学院,,,,34,,12,,,126,117,13,11,1,2,0.7,0.7
2025-07-25T2200,3477A,113.1656,35.2539,焦作市,中站许衡医院,,35,35,31,24,19,99,,127,117,18,14,6,6,0.5,0.5
2025-07-25T2200,3981A,113.2449,35.1803,焦作市,原李万街道办,,48,48,35,14,12,88,,145,125,14,12,5,6,0.5,0.6
2025-07-25T2200,4264A,113.2340,35.2190,焦作市,新安路1731号,,44,44,32,16,14,107,,129,129,6,8,2,3,0.4,0.3
2025-07-25T2200,4295A,113.2722,35.2121,焦作市,人民路3066号,,39,39,36,27,23,87,,132,118,10,8,2,2,0.2,0.3
2025-07-25T2200,1708A,116.3701,23.5345,揭阳市,新兴,,18,,29,12,15,46,,96,69,7,12,4,5,0.5,0.6
2025-07-25T2200,1709A,116.3264,23.5443,揭阳市,西马,,12,12,29,7,12,35,,86,60,12,12,3,4,0.4,0.5
2025-07-25T2200,1710A,116.3611,23.5626,揭阳市,东兴,,12,10,29,8,11,32,,88,59,13,13,3,4,0.5,0.6
2025-07-25T2200,1711A,116.4151,23.5294,揭阳市,渔湖,,15,,30,9,13,47,,91,65,2,10,6,8,0.5,0.6
2025-07-25T2200,3320A,116.403,23.5699,揭阳市,曲溪,,13,,24,9,14,38,,90,70,16,18,4,6,0.6,0.7
2025-07-25T2200,1944A,102.1692,38.5167,金昌市,天庆家园,,31,17,20,8,12,97,,111,108,7,9,14,16,0.8,0.8
2025-07-25T2200,4022A,102.1647,38.5371,金昌市,金川区人防中心,,27,24,22,9,12,86,,119,111,10,7,10,12,0.5,0.5
2025-07-25T2200,4239A,102.1930,38.5319,金昌市,长春路96号,,29,26,22,3,11,91,,116,109,5,5,13,10,0.3,0.6
2025-07-25T2200,1262A,119.647,29.077,金华市,十五中,,13,,23,9,12,28,,56,42,11,18,1,1,0.2,0.3
2025-07-25T2200,1263A,119.686,29.1029,金华市,监测站,,9,6,20,6,10,20,,52,37,14,17,3,3,0.3,0.3
2025-07-25T2200,3659A,119.656,29.1131,金华市,气象局,,10,,20,7,9,14,,47,32,18,16,3,3,0.4,0.4
2025-07-25T2200,1767A,121.1115,41.0879,锦州市,南山,,49,,34,34,24,66,,65,65,6,7,3,3,0.5,0.5
2025-07-25T2200,1768A,121.0604,40.8428,锦州市,开发区,,28,23,36,19,20,69,,72,72,13,11,2,2,0.5,0.5
2025-07-25T2200,1769A,121.1836,41.1119,锦州市,百股街道,,39,35,32,27,16,80,,75,75,8,7,12,6,0.7,0.6
2025-07-25T2200,1770A,121.1178,41.1222,锦州市,天安街道,,49,,35,34,25,74,,71,71,9,10,4,7,0.7,0.8
2025-07-25T2200,1771A,121.1303,41.1386,锦州市,北湖公园,,40,40,37,28,21,70,,66,66,7,8,3,5,0.5,0.5
2025-07-25T2200,2160A,112.85,35.5051,晋城市,自来水公司,,43,43,50,22,16,115,,126,126,9,9,1,1,0.4,0.4
2025-07-25T2200,2161A,112.8318,35.4936,晋城市,白云商贸,,44,44,32,9,9,109,,120,120,9,8,2,2,0.4,0.4
2025-07-25T2200,2162A,112.8508,35.4887,晋城市,市环保局,,41,41,44,22,15,102,,114,113,9,8,2,2,0.3,0.3
2025-07-25T2200,2163A,112.8676,35.4897,晋城市,技术学院,颗粒物(PM10),51,51,37,22,13,101,,112,112,8,8,2,3,0.6,0.6
2025-07-25T2200,3620A,112.8271,35.4828,晋城市,泽州一中,,,,33,,13,105,,126,125,6,7,4,4,0.4,0.6
2025-07-25T2200,2173A,112.7249,37.7067,晋中市,南都小区,,41,41,28,18,14,71,,98,90,11,4,3,3,0.6,0.5
2025-07-25T2200,2174A,112.6991,37.6982,晋中市,榆次区政府,,27,27,23,15,11,64,,100,86,10,5,7,8,0.8,0.7
2025-07-25T2200,2865A,112.7195,37.6828,晋中市,榆次三中,,27,27,21,9,10,78,,100,94,9,7,7,8,0.6,0.6
2025-07-25T2200,4200A,112.7478,37.6954,晋中市,迎宾街26号,,27,27,20,12,8,79,,100,95,10,7,5,5,0.4,0.4
2025-07-25T2200,2439A,112.2014,31.0481,荆门市,竹园小学,,46,46,31,21,16,63,,118,98,15,12,1,1,0.8,0.8
2025-07-25T2200,2440A,112.1969,30.9891,荆门市,掇刀,,42,42,31,16,17,83,,120,109,22,12,8,8,0.6,0.6
2025-07-25T2200,2441A,112.2213,31.0386,荆门市,石化一小,,32,32,36,11,15,84,,125,107,22,15,7,9,0.8,0.6
2025-07-25T2200,3012A,112.1849,31.0362,荆门市,西山林语,,33,33,25,15,13,68,,115,92,7,4,7,7,0.5,0.4
2025-07-25T2200,3547A,112.1632,31.0138,荆门市,龙泉中学南校,,22,20,24,15,17,70,,113,90,8,11,3,4,0.7,0.6
2025-07-25T2200,1844A,112.2494,30.3197,荆州市,市图书馆,,28,15,21,14,16,87,,132,113,11,16,1,2,0.6,0.5
2025-07-25T2200,1845A,112.2008,30.3544,荆州市,市委党校,,30,22,22,21,19,81,,125,113,27,22,3,5,0.4,0.5
2025-07-25T2200,3194A,112.2747,30.3122,荆州市,管委会,,30,30,21,16,16,74,,124,101,21,19,6,6,0.6,0.6
2025-07-25T2200,4268A,112.1722,30.3366,荆州市,学苑路85号,,35,26,20,24,19,85,,139,127,22,14,5,5,0.3,0.3
2025-07-25T2200,2343A,117.2117,29.2933,景德镇市,老干部活动中心,,33,33,16,14,7,30,,56,44,11,9,7,7,0.4,0.3
2025-07-25T2200,2344A,117.1894,29.2789,景德镇市,兽医站,,38,38,25,11,8,34,,60,47,8,6,4,4,0.6,0.5
2025-07-25T2200,2346A,117.2461,29.2956,景德镇市,陶研所,,19,19,19,10,9,28,,57,44,6,7,3,4,0.4,0.4
2025-07-25T2200,4289A,117.1542,29.2566,景德镇市,青少年活动中心,,28,20,13,19,12,35,,59,46,12,8,21,4,0.3,0.3
2025-07-25T2200,1803A,115.9872,29.6815,九江市,十里,,33,25,23,23,17,88,,101,93,8,13,4,5,0.5,0.6
2025-07-25T2200,1804A,115.9584,29.7046,九江市,茅山头,,32,32,26,16,12,82,,97,91,8,10,4,4,0.5,0.4
2025-07-25T2200,1805A,115.9877,29.7295,九江市,西园,,41,41,20,16,9,88,,112,100,19,18,5,6,0.7,0.7
2025-07-25T2200,1808A,115.9114,29.6038,九江市,综合工业园,,29,26,23,18,10,90,,116,102,11,18,7,8,0.4,0.6
2025-07-25T2200,1809A,116.0721,29.7535,九江市,石化总厂,,36,28,24,25,18,76,,95,86,17,20,7,7,0.6,0.5
2025-07-25T2200,1810A,115.9773,29.5698,九江市,庐山气象台,,30,22,12,6,4,94,,91,91,6,4,6,6,1.1,0.9
2025-07-25T2200,3190A,116.0254,29.6994,九江市,外国语学校,,40,,19,28,16,86,,105,93,11,14,10,12,0.5,0.4
2025-07-25T2200,4253A,116.0102,29.6594,九江市,莲花大道8号,,25,24,15,13,11,78,,100,87,3,6,4,4,0.5,0.7
2025-07-25T2200,4240A,98.4958,39.7339,酒泉市,玉门东路5号,颗粒物(PM10),59,68,42,41,28,94,,133,129,25,16,7,12,1.0,0.5
2025-07-25T2200,4241A,98.5099,39.7506,酒泉市,北大街108号,,,,38,,20,,,150,150,22,13,8,43,0.6,0.3
2025-07-25T2200,2698A,76.0072,39.4467,喀什地区,巡警大队,颗粒物(PM10),54,57,68,12,17,115,,135,133,12,14,4,4,0.4,0.3
2025-07-25T2200,2699A,75.9755,39.4694,喀什地区,吾办,"颗粒物(PM10),细颗粒物(PM2.5)",53,55,74,37,32,121,,135,133,14,14,6,6,0.6,0.6
2025-07-25T2200,4027A,75.9483,39.4689,喀什地区,老干局,,45,45,68,13,19,121,,134,133,10,11,4,5,0.0,0.1
2025-07-25T2200,1824A,114.3389,34.7781,开封市,肿瘤医院,,39,37,35,16,17,124,,103,,16,12,3,3,0.6,0.6
2025-07-25T2200,1826A,114.2885,34.7965,开封市,世纪星幼儿园,,35,35,34,21,19,106,,123,119,11,9,3,4,0.8,0.8
2025-07-25T2200,3147A,114.3438,34.8106,开封市,龙亭公园,,34,34,32,19,15,89,,117,112,12,9,3,2,0.5,0.4
2025-07-25T2200,3210A,114.3644,34.7964,开封市,汴京公园,颗粒物(PM10),52,54,38,31,19,94,,119,113,13,9,3,4,0.5,0.5
2025-07-25T2200,3473A,114.2485,34.8306,开封市,技师学院,,39,28,29,27,18,114,,125,124,5,6,4,3,0.7,0.6
2025-07-25T2200,3592A,114.4644,34.7556,开封市,祥符区生态环境局,,,36,34,18,17,66,,112,98,26,16,4,4,,0.5
2025-07-25T2200,1951A,84.895,45.6094,克拉玛依市,长征新村,,30,30,28,15,9,74,,102,99,25,11,4,4,0.4,0.3
2025-07-25T2200,1952A,84.8988,45.5893,克拉玛依市,南林小区,颗粒物(PM10),52,54,32,20,14,23,,97,80,55,16,1,2,0.1,0.1
2025-07-25T2200,1954A,84.905,44.3396,克拉玛依市,独山子区,,49,49,42,15,15,92,,120,119,24,11,9,11,0.7,0.5
2025-07-25T2200,1955A,85.6979,46.098,克拉玛依市,乌尔禾区商贸楼,,42,42,37,7,9,77,,95,90,16,12,6,6,0.4,0.5
2025-07-25T2200,3612A,85.1045,45.6899,克拉玛依市,白碱滩区新站,,47,47,35,16,12,76,,109,103,15,4,10,10,0.3,0.2
2025-07-25T2200,2697A,76.1454,39.7142,克孜勒苏柯尔克孜自治州,市人民政府,,43,43,51,22,27,122,,139,138,7,8,4,5,0.2,0.1
2025-07-25T2200,3665A,76.1658,39.7157,克孜勒苏柯尔克孜自治州,克州文化中心,,38,38,55,17,27,118,,137,135,4,3,4,6,0.3,0.3
2025-07-25T2200,1450A,102.8204,24.8886,昆明市,呈贡新区,,28,19,9,19,12,29,,63,48,19,12,4,2,0.5,0.4
2025-07-25T2200,1452A,102.7252,25.0902,昆明市,龙泉镇,,30,30,15,8,5,27,,53,41,15,14,1,1,0.4,0.4
2025-07-25T2200,1453A,102.7266,25.0375,昆明市,东风东路,,30,30,19,11,10,27,,60,44,28,19,5,3,0.5,0.4
2025-07-25T2200,1454A,102.6742,25.0669,昆明市,金鼎山,,26,26,15,7,5,28,,58,48,18,11,2,2,0.5,0.4
2025-07-25T2200,1455A,102.6644,25.0401,昆明市,碧鸡广场,,22,22,16,12,7,34,,52,44,13,14,9,7,0.5,0.5
2025-07-25T2200,3179A,102.7494,25.0119,昆明市,官渡区博物馆,,25,25,14,7,7,18,,63,43,32,18,2,2,0.5,0.3
2025-07-25T2200,3375A,102.8017,24.8336,昆明市,青年创业园,,12,12,8,8,7,31,,59,47,20,10,2,2,0.4,0.4
2025-07-25T2200,3550A,102.7997,24.9786,昆明市,昆明学院,,29,29,16,20,9,22,,62,46,30,14,7,6,0.4,0.4
2025-07-25T2200,3551A,102.5967,24.6736,昆明市,晋宁区生态环境分局,,17,17,15,9,5,32,,48,37,14,11,2,2,0.5,0.4
2025-07-25T2200,3552A,102.6678,24.9856,昆明市,云天化总部,,15,15,12,10,7,32,,57,48,11,10,4,4,0.3,0.3
2025-07-25T2200,1456A,91.1319,29.6514,拉萨市,八廓街,,,9,13,3,7,,,107,107,12,13,7,6,0.3,0.3
2025-07-25T2200,1457A,91.1221,29.6747,拉萨市,市环保局,,24,17,12,6,7,75,,110,104,14,10,9,7,0.3,0.2
2025-07-25T2200,1458A,91.0874,29.6475,拉萨市,区监测站,,25,6,10,3,6,80,,98,94,15,13,3,4,0.2,0.2
2025-07-25T2200,1459A,91.1774,29.6541,拉萨市,西藏大学,,25,11,12,8,7,80,,108,103,14,13,6,6,0.5,0.4
2025-07-25T2200,1460A,90.9798,29.6588,拉萨市,区辐射站,,20,20,13,7,7,64,,88,82,26,12,4,4,0.4,0.3
2025-07-25T2200,1461A,91.0834,29.6292,拉萨市,拉萨火车站,,27,8,9,3,6,85,,98,96,5,6,5,5,0.2,0.3
2025-07-25T2200,2520A,109.2203,23.7256,来宾市,来宾技工学校,,18,12,22,12,12,36,,80,51,6,7,6,6,0.5,0.5
2025-07-25T2200,3535A,109.1781,23.7297,来宾市,兴宾区政府,,,21,18,7,9,,,74,,6,5,5,6,0.6,0.6
2025-07-25T2200,4002A,109.2416,23.7461,来宾市,中南小学,,35,,22,24,11,43,,86,59,6,8,4,5,0.4,0.5
2025-07-25T2200,1479A,103.831,36.0464,兰州市,铁路设计院,颗粒物(PM10),56,61,44,28,23,19,,119,109,89,38,8,9,0.8,0.6
2025-07-25T2200,3241A,103.7439,36.0842,兰州市,百合公园,,37,37,30,25,15,48,,108,105,50,20,2,3,0.5,0.6
2025-07-25T2200,3242A,103.9611,35.998,兰州市,和平,,27,27,29,10,16,52,,123,115,14,18,9,11,0.5,0.6
2025-07-25T2200,4236A,103.6293,36.0938,兰州市,庄浪东路808号,,49,41,35,34,26,46,,122,109,66,33,12,11,0.7,0.5
2025-07-25T2200,4237A,103.7251,36.1043,兰州市,安宁西路88号,,35,35,33,23,18,91,,135,134,20,14,6,6,0.5,0.4
2025-07-25T2200,4238A,103.8470,36.0676,兰州市,北滨河东路1号,,40,37,26,28,21,33,,122,113,73,30,8,9,0.8,0.7
2025-07-25T2200,3245A,103.6633,36.533,兰州新区,新区管委会,,33,33,32,20,24,97,,128,126,14,9,11,15,0.3,0.4
2025-07-25T2200,3246A,103.6975,36.4789,兰州新区,舟曲中学,,30,20,24,7,16,94,,114,112,16,11,6,9,0.5,0.5
2025-07-25T2200,1067A,116.6708,39.5111,廊坊市,药材公司,,49,49,31,30,17,109,,110,106,9,9,3,3,0.3,0.3
2025-07-25T2200,1068A,116.7214,39.5589,廊坊市,开发区,颗粒物(PM10),53,56,36,26,18,101,,103,94,12,13,1,2,0.3,0.3
2025-07-25T2200,1070A,116.7244,39.5269,廊坊市,北华航天学院,,49,49,45,26,23,107,,116,107,10,11,1,2,0.4,0.4
2025-07-25T2200,2919A,116.7022,39.5453,廊坊市,河北工业大学,颗粒物(PM10),56,61,46,25,16,113,,112,107,11,12,3,3,0.4,0.3
2025-07-25T2200,2535A,103.7723,29.5462,乐山市,花湖湾,,16,15,16,11,15,43,,69,59,11,11,4,3,0.8,0.7
2025-07-25T2200,2536A,103.7627,29.5844,乐山市,牛耳桥,,18,12,17,7,13,55,,102,84,14,14,4,5,0.7,0.7
2025-07-25T2200,2537A,103.7508,29.6006,乐山市,市第三水厂,,19,12,16,9,12,58,,94,79,13,15,2,3,0.7,0.7
2025-07-25T2200,2538A,103.7571,29.5664,乐山市,市监测站,,16,16,21,11,12,42,,88,73,17,11,5,5,0.8,0.8
2025-07-25T2200,3361A,103.7311,29.5628,乐山市,理工大学,,18,18,20,10,11,39,,94,78,12,11,4,5,0.7,0.7
2025-07-25T2200,2599A,100.2497,26.8802,丽江市,丽江古城,,34,34,17,21,9,34,,62,56,21,10,9,9,0.7,0.5
2025-07-25T2200,2600A,100.2203,26.8906,丽江市,市中心,,30,,10,21,10,30,,60,49,24,11,9,9,0.5,0.4
2025-07-25T2200,1267A,119.914,28.4514,丽水市,监测站大楼,,9,9,21,6,6,17,,46,33,12,12,4,4,0.3,0.4
2025-07-25T2200,1268A,119.93,28.4586,丽水市,莲都小学,,16,16,23,8,5,18,,48,35,13,13,3,4,0.3,0.3
2025-07-25T2200,1269A,119.879,28.4231,丽水市,余庄前,,19,19,25,7,10,8,,43,27,9,9,4,4,0.4,0.4
2025-07-25T2200,1173A,119.176,34.5885,连云港市,市环境监测站,,25,24,25,17,15,70,,82,82,7,5,1,3,0.5,0.5
2025-07-25T2200,3000A,119.3581,34.6972,连云港市,德源药业,,24,24,29,12,13,59,,67,67,11,13,4,6,0.7,0.7
2025-07-25T2200,3007A,119.178,34.844,连云港市,新城一中,,25,25,29,16,16,63,,68,68,7,10,5,7,0.6,0.7
2025-07-25T2200,3008A,119.3608,34.7519,连云港市,胡沟管理处,,22,22,24,12,15,45,,57,53,27,16,9,8,0.6,0.7
2025-07-25T2200,3009A,119.1478,34.5911,连云港市,矿山设计院,,32,29,25,22,17,65,,78,78,8,7,3,4,0.6,0.5
2025-07-25T2200,3434A,119.2413,34.6539,连云港市,工贸学校,细颗粒物(PM2.5),67,,28,48,28,68,,82,81,4,3,8,8,0.7,0.6
2025-07-25T2200,3664A,119.4172,34.7341,连云港市,连云街道,,28,28,30,19,19,69,,76,76,4,5,2,3,0.6,0.6
2025-07-25T2200,2571A,102.3431,27.8099,凉山彝族自治州,青龙寺,,21,21,10,7,3,45,,72,58,8,6,7,7,0.8,0.8
2025-07-25T2200,2572A,102.2721,27.8415,凉山彝族自治州,邛海宾馆,,17,17,12,8,7,29,,72,61,23,12,9,9,0.7,0.6
2025-07-25T2200,2573A,102.2625,27.898,凉山彝族自治州,西昌市政府,,12,12,14,6,11,37,,69,58,6,9,6,9,0.4,0.6
2025-07-25T2200,2574A,102.2685,27.8851,凉山彝族自治州,凉山州政府,,,24,10,12,11,,,74,65,13,13,8,8,0.7,0.7
2025-07-25T2200,4229A,102.2342,27.8859,凉山彝族自治州,凯乐南路30号,,19,18,18,13,9,40,,68,56,12,14,9,13,0.7,1
2025-07-25T2200,2212A,123.2,41.1953,辽阳市,宏伟区,,42,42,22,27,15,54,,63,56,19,7,2,2,0.6,0.5
2025-07-25T2200,2213A,123.1683,41.2495,辽阳市,新华园,颗粒物(PM10),51,52,29,20,16,59,,91,82,20,7,8,6,0.4,0.2
2025-07-25T2200,2214A,123.2354,41.2639,辽阳市,滨河路,,32,32,25,21,15,38,,60,52,21,9,3,3,0.6,0.5
2025-07-25T2200,2215A,123.149,41.2991,辽阳市,铁西工业园,颗粒物(PM10),52,54,36,23,16,41,,81,68,24,8,5,3,1.4,0.8
2025-07-25T2200,2227A,125.1358,42.8845,辽源市,环保局,,38,38,26,16,12,54,,90,83,9,5,6,6,0.3,0.3
2025-07-25T2200,3239A,125.0764,42.9078,辽源市,银鹰制药,,34,34,19,23,14,56,,99,89,16,11,7,7,0.5,0.5
2025-07-25T2200,1625A,115.9848,36.4372,聊城市,区政府,,33,33,33,19,20,97,,129,123,11,8,6,6,0.6,0.7
2025-07-25T2200,2878A,116.0072,36.4343,聊城市,聊大东校,,44,44,37,30,23,94,,139,130,12,9,4,6,0.7,0.7
2025-07-25T2200,3200A,115.9819,36.4978,聊城市,监控中心,,32,28,25,14,15,102,,136,130,12,9,5,6,0.6,0.6
2025-07-25T2200,3513A,116.0445,36.4361,聊城市,九州社区,,41,41,38,23,19,85,,132,121,16,11,3,3,0.3,0.3
2025-07-25T2200,4018A,116.0567,36.4608,聊城市,星美广场,,45,45,40,20,18,86,,130,119,16,12,5,5,0.6,0.6
2025-07-25T2200,2632A,94.3681,29.6376,林芝市,林芝监测站,,17,12,9,6,5,52,,63,61,2,3,4,3,0.3,0.3
2025-07-25T2200,2633A,94.3616,29.6616,林芝市,林芝人民医院,,,15,14,6,7,,,67,67,1,2,5,3,0.4,0.2
2025-07-25T2200,2603A,100.0781,23.8982,临沧市,市环保局,,33,,10,23,14,27,,44,40,7,6,1,2,0.4,0.3
2025-07-25T2200,2604A,100.0894,23.8822,临沧市,市气象局,,19,13,12,13,8,28,,43,40,9,6,8,8,0.5,0.5
2025-07-25T2200,1733A,111.5531,36.0783,临汾市,临钢医院,,37,37,34,16,10,80,,102,97,13,16,3,2,0.7,0.7
2025-07-25T2200,1734A,111.5028,36.0714,临汾市,技工学校,,46,46,32,21,21,88,,114,108,19,13,7,6,0.5,0.5
2025-07-25T2200,1736A,111.5018,36.0855,临汾市,市委,,,65,52,16,11,,,121,120,18,13,6,5,0.6,0.7
2025-07-25T2200,3018A,111.505,36.1014,临汾市,唐尧大酒店,颗粒物(PM10),58,66,52,16,13,88,,115,108,18,14,3,4,0.5,0.6
2025-07-25T2200,4244A,111.4879,36.0530,临汾市,启星学校,,50,36,34,35,23,88,,111,105,16,13,6,7,0.5,0.6
2025-07-25T2200,4271A,103.2464,35.6123,临夏回族自治州,滨河东路1号,,32,32,23,14,13,35,,86,79,28,14,5,5,0.5,0.3
2025-07-25T2200,4310A,103.2093,35.5995,临夏回族自治州,新华街21号,,26,21,27,15,14,81,,96,94,9,15,6,5,0.3,0.3
2025-07-25T2200,1618A,118.3429,35.0532,临沂市,沂河小区,,29,24,28,20,19,58,,75,73,12,8,8,8,0.2,0.2
2025-07-25T2200,1619A,118.295,35.0583,临沂市,鲁南制药厂,,26,24,24,18,18,63,,80,78,9,7,9,8,0.4,0.3
2025-07-25T2200,1620A,118.2794,34.9976,临沂市,新光毛纺厂,,30,,16,21,16,60,,78,77,15,8,8,7,0.4,0.3
2025-07-25T2200,1621A,118.3956,35.0888,临沂市,河东保险公司,,20,17,24,10,12,63,,77,76,11,9,6,6,0.4,0.4
2025-07-25T2200,3370A,118.3564,35.0215,临沂市,十里堡居委,,22,22,22,14,17,61,,79,76,10,7,10,9,0.3,0.3
2025-07-25T2200,3496A,118.3604,35.1084,临沂市,南坊新区,,29,29,28,12,13,58,,77,73,11,9,10,9,0.3,0.2
2025-07-25T2200,3860A,118.3920,35.0300,临沂市,皇山花园小区,,28,22,23,19,18,61,,79,76,12,8,10,11,0.4,0.3
2025-07-25T2200,1870A,109.4856,24.3895,柳州市,柳东小学,,36,30,29,25,17,47,,92,79,9,7,5,7,0.5,0.6
2025-07-25T2200,1871A,109.4157,24.3277,柳州市,环保监测站,,39,39,36,19,21,31,,98,74,18,15,28,14,0.9,0.8
2025-07-25T2200,1872A,109.389,24.341,柳州市,河西水厂,颗粒物(PM10),59,67,40,20,20,30,,99,71,21,18,14,11,0.7,0.7
2025-07-25T2200,1873A,109.4311,24.2921,柳州市,市四中,,30,26,34,21,14,28,,88,67,14,14,6,6,1.0,1.1
2025-07-25T2200,1874A,109.4006,24.3631,柳州市,市九中,颗粒物(PM10),52,54,43,22,19,33,,98,77,20,16,9,5,0.4,0.6
2025-07-25T2200,1875A,109.4958,24.3134,柳州市,古亭山,,,,33,,17,33,,89,76,17,12,6,7,0.7,0.7
2025-07-25T2200,3402A,109.5422,24.3996,柳州市,市二中,,26,26,28,16,16,46,,100,80,12,12,4,8,0.6,0.7
2025-07-25T2200,2307A,116.5079,31.737,六安市,监测大楼,,33,25,21,17,12,104,,102,102,5,3,6,6,0.3,0.2
2025-07-25T2200,2308A,116.4738,31.7643,六安市,皖西学院,,42,42,24,18,12,104,,108,108,10,6,3,2,0.3,0.2
2025-07-25T2200,2309A,116.4996,31.7905,六安市,朝阳厂,,33,33,22,21,12,97,,102,102,13,9,5,5,0.4,0.3
2025-07-25T2200,2310A,116.5567,31.7886,六安市,开发区,,30,30,18,20,14,88,,101,100,12,7,4,4,0.4,0.3
2025-07-25T2200,2577A,104.83,26.5917,六盘水市,黄土坡,,15,8,9,8,6,48,,54,54,9,9,8,9,0.3,0.3
2025-07-25T2200,2578A,104.89,26.5939,六盘水市,水钢,,21,21,11,9,5,53,,62,62,7,4,10,8,0.4,0.3
2025-07-25T2200,2579A,104.8475,26.5894,六盘水市,民中,,17,10,8,3,1,54,,56,56,5,6,8,8,0.4,0.3
2025-07-25T2200,2580A,104.9544,26.5506,六盘水市,双水,,16,,5,11,4,49,,57,57,6,5,5,5,0.3,0.3
2025-07-25T2200,2336A,117.0217,25.1033,龙岩市,龙岩市监测站,,7,,17,3,8,18,,49,41,14,12,4,4,0.5,0.5
2025-07-25T2200,2337A,117.0258,25.0661,龙岩市,闽西职业技术学院,,27,27,23,7,9,15,,55,45,16,9,8,13,0.6,0.5
2025-07-25T2200,2338A,117.0196,25.0306,龙岩市,龙岩学院,,12,,18,8,8,20,,56,47,13,10,4,4,0.3,0.3
2025-07-25T2200,2885A,104.9339,33.3826,陇南市,滨江中学,,44,44,29,12,10,54,,64,60,3,3,6,6,0.5,0.4
2025-07-25T2200,3247A,104.955,33.371,陇南市,市总工会,,31,31,28,3,7,54,,71,67,3,3,4,5,0.3,0.3
2025-07-25T2200,2487A,111.9589,27.8901,娄底市,电视发射台,颗粒物(PM10),73,95,56,15,11,36,,81,67,5,4,6,6,0.2,0.2
2025-07-25T2200,2488A,111.9975,27.725,娄底市,市监测站,,,27,31,,18,77,,78,78,13,14,7,10,0.5,0.8
2025-07-25T2200,2489A,112.0194,27.7314,娄底市,市委党校,,29,27,25,20,16,68,,73,72,13,14,12,14,0.5,0.8
2025-07-25T2200,2490A,111.9561,27.7569,娄底市,涟钢,,19,17,26,13,15,39,,64,60,16,14,14,11,0.9,1.1
2025-07-25T2200,2491A,111.9892,27.7044,娄底市,市政府,,26,18,26,18,13,46,,68,66,8,4,4,5,0.5,1
2025-07-25T2200,1893A,105.4324,28.9634,泸州市,九狮山,细颗粒物(PM2.5),53,50,22,37,20,34,,95,73,12,9,2,3,0.6,0.4
2025-07-25T2200,1894A,105.4427,28.9063,泸州市,小市上码头,,34,34,21,12,6,38,,74,69,19,6,2,4,0.5,0.3
2025-07-25T2200,1895A,105.4241,28.8573,泸州市,兰田宪桥,,20,20,19,8,6,54,,85,78,11,10,7,7,0.2,0.1
2025-07-25T2200,1896A,105.4379,28.8833,泸州市,市环监站,,28,28,17,17,11,58,,93,89,21,10,7,8,0.3,0.3
2025-07-25T2200,4272A,105.3689,28.7783,泸州市,纳溪中医医院,,23,23,21,11,12,55,,101,88,13,13,3,3,0.3,0.3
2025-07-25T2200,2183A,111.1406,37.5211,吕梁市,环保局,,37,37,33,16,19,15,,66,43,32,17,4,3,0.7,0.7
2025-07-25T2200,2185A,111.1297,37.5136,吕梁市,自来水公司,,36,36,34,21,15,13,,60,35,18,14,1,2,0.6,0.6
2025-07-25T2200,2867A,111.1283,37.51,吕梁市,马茂庄小学,,34,34,24,20,15,17,,64,45,26,15,4,3,0.8,0.9
2025-07-25T2200,1812A,112.3931,34.6516,洛阳市,市委党校,,37,27,27,12,14,117,,131,126,6,11,7,7,0.5,0.6
2025-07-25T2200,1815A,112.494,34.6886,洛阳市,河南林校,,37,37,35,22,19,105,,143,128,15,16,7,7,0.6,0.6
2025-07-25T2200,1816A,112.3844,34.623,洛阳市,开发区管委会,,33,20,27,19,18,105,,129,120,9,8,11,8,0.5,0.6
2025-07-25T2200,1817A,112.4267,34.6258,洛阳市,市委新办公区,,35,27,30,19,18,110,,125,119,9,14,7,8,0.5,0.5
2025-07-25T2200,3340A,112.6005,34.6326,洛阳市,伊滨,,31,21,23,17,16,97,,118,107,12,13,4,3,0.6,0.6
2025-07-25T2200,3341A,112.4951,34.6332,洛阳市,中移产业园,,34,33,31,15,17,108,,120,116,11,12,5,5,0.7,0.8
2025-07-25T2200,3593A,112.5736,34.8993,洛阳市,吉利监测站,,42,42,42,24,21,88,,149,132,16,11,6,6,0.5,0.5
2025-07-25T2200,3635A,112.3677,34.662,洛阳市,河科大西苑校区,,35,23,30,10,13,112,,124,119,2,7,6,5,0.4,0.8
2025-07-25T2200,3636A,112.4388,34.6781,洛阳市,英才小学,,33,32,31,17,19,105,,124,117,11,14,7,8,0.6,0.7
2025-07-25T2200,4214A,112.4600,34.6949,洛阳市,春都路1号院,,32,32,29,11,11,97,,131,120,14,13,5,5,0.5,0.5
2025-07-25T2200,2399A,114.051,33.5699,漯河市,三五一五工厂,,33,33,27,15,14,82,,129,112,12,11,5,6,0.4,0.4
2025-07-25T2200,2400A,114.0055,33.5698,漯河市,漯河大学,,32,32,28,9,11,82,,133,113,12,12,4,4,0.5,0.5
2025-07-25T2200,2401A,114.0138,33.5828,漯河市,市水利局,,31,31,27,14,13,78,,126,108,12,9,4,4,0.3,0.3
2025-07-25T2200,2402A,114.0261,33.5698,漯河市,市广电局,,26,24,25,14,12,83,,138,118,12,9,3,3,0.3,0.3
2025-07-25T2200,3478A,113.9749,33.5664,漯河市,市图书馆,,27,17,26,13,13,84,,131,115,9,9,6,6,0.3,0.4
2025-07-25T2200,4250A,114.0892,33.5882,漯河市,韶山路11号,,36,36,27,21,12,81,,134,116,16,13,3,2,0.5,0.5
2025-07-25T2200,1798A,118.5092,31.6837,马鞍山市,湖东路四小,,33,26,36,23,20,49,,96,84,8,10,7,7,0.4,0.4
2025-07-25T2200,1799A,118.5024,31.6449,马鞍山市,开发区,,28,28,33,15,16,53,,100,89,7,10,7,8,0.5,0.5
2025-07-25T2200,1802A,118.6245,31.7241,马鞍山市,濮塘,,33,33,30,17,18,50,,93,83,6,7,8,7,0.5,0.6
2025-07-25T2200,3633A,118.4918,31.6809,马鞍山市,雨山,,36,36,28,16,18,50,,95,84,8,10,7,7,0.3,0.4
2025-07-25T2200,4191A,118.5274,31.72227,马鞍山市,慈湖高新区,,38,38,29,18,17,50,,95,84,7,9,6,6,0.4,0.4
2025-07-25T2200,1686A,111.0286,21.4688,茂名市,电白南海,,34,34,35,14,25,71,,104,100,15,15,3,9,0.3,0.4
2025-07-25T2200,1687A,110.9294,21.6533,茂名市,茂石化七小,,48,48,31,22,17,70,,74,73,14,12,5,11,0.7,0.5
2025-07-25T2200,1688A,110.9107,21.6687,茂名市,健康路,,45,39,27,31,16,74,,79,79,11,12,6,15,0.7,0.6
2025-07-25T2200,1689A,110.8592,21.6828,茂名市,高岭,,48,48,40,24,16,72,,73,73,21,14,11,17,0.6,0.5
2025-07-25T2200,3450A,111.01,21.5165,茂名市,电白水东,,,31,32,19,20,,,102,102,12,25,14,20,,0.4
2025-07-25T2200,2540A,103.8416,30.0874,眉山市,气象局,,29,29,20,3,6,79,,96,83,6,10,3,3,0.4,0.5
2025-07-25T2200,3137A,103.8578,30.0744,眉山市,市委党校,,,6,12,3,4,,,87,76,7,10,6,7,0.5,0.5
2025-07-25T2200,3148A,103.8291,30.0564,眉山市,区人社局,,,18,24,3,3,,,94,83,7,12,9,12,0.6,0.7
2025-07-25T2200,1690A,116.1231,24.3284,梅州市,梅江月梅,,24,24,25,7,10,26,,70,38,13,15,10,9,0.4,0.5
2025-07-25T2200,1691A,116.0797,24.2719,梅州市,梅县新城,,18,18,23,3,11,34,,77,44,10,10,7,6,0.4,0.4
2025-07-25T2200,1692A,116.1248,24.2654,梅州市,环境监控中心,颗粒物(PM10),51,51,31,15,12,30,,82,45,12,14,4,7,0.3,0.4
2025-07-25T2200,3315A,116.1233,24.2991,梅州市,梅龙,,22,22,25,12,13,26,,75,40,14,15,9,11,0.6,0.6
2025-07-25T2200,1878A,104.7778,31.4741,绵阳市,富乐山,,13,13,15,3,10,30,,76,64,10,8,7,8,0.5,0.5
2025-07-25T2200,1880A,104.6697,31.4668,绵阳市,高新区自来水公司,,13,13,15,7,6,40,,78,63,20,13,7,7,0.4,0.4
2025-07-25T2200,1881A,104.7287,31.5075,绵阳市,三水厂,,15,15,16,8,9,27,,81,65,27,11,6,6,0.4,0.4
2025-07-25T2200,3491A,104.69,31.5322,绵阳市,西科大附属小学,,19,19,18,11,10,38,,78,66,22,13,7,7,0.3,0.3
2025-07-25T2200,3492A,104.5648,31.5343,绵阳市,安州区旅游局,,30,30,16,3,2,45,,71,67,10,7,7,7,0.3,0.3
2025-07-25T2200,4226A,104.7651,31.4531,绵阳市,绵阳市气象局,,12,11,14,3,10,34,,76,67,23,9,5,6,0.5,0.5
2025-07-25T2200,1784A,129.61,44.561,牡丹江市,环保大楼,,28,21,15,19,11,27,,39,27,12,15,2,2,0.3,0.3
2025-07-25T2200,1785A,129.6115,44.5782,牡丹江市,文化广场,,22,,17,15,19,21,,40,25,15,16,5,6,0.5,0.5
2025-07-25T2200,1786A,129.5904,44.5963,牡丹江市,第一医院,,38,,23,26,17,30,,33,29,11,17,6,6,0.5,0.5
2025-07-25T2200,1787A,129.6364,44.6075,牡丹江市,机车工厂,,20,15,22,14,12,19,,30,20,14,18,4,4,0.4,0.4
2025-07-25T2200,1788A,129.6386,44.5462,牡丹江市,第一中学,,20,20,16,10,7,15,,24,15,14,17,4,4,0.2,0.1
2025-07-25T2200,2531A,105.0703,29.61,内江市,市监测站,,25,18,16,17,11,72,,117,107,21,10,5,5,0.6,0.5
2025-07-25T2200,2532A,105.0717,29.5947,内江市,东兴区政府,,28,14,13,8,5,88,,108,104,17,10,7,7,0.5,0.5
2025-07-25T2200,2533A,105.0653,29.5817,内江市,内江二中,,35,35,21,15,12,61,,115,107,38,12,4,5,0.6,0.5
2025-07-25T2200,2534A,105.0406,29.5822,内江市,内江日报社,,30,30,13,15,12,77,,107,101,24,13,7,7,0.5,0.4
2025-07-25T2200,2628A,92.0657,31.4846,那曲市,那曲监测站,,43,43,32,20,13,46,,91,79,35,15,11,6,0.7,0.4
2025-07-25T2200,4243A,92.0515,31.4787,那曲市,那曲市委宣传部,,36,36,17,17,8,53,,94,87,25,10,2,5,0.5,0.3
2025-07-25T2200,1290A,115.8931,28.6843,南昌市,省外办,,27,27,24,17,16,84,,100,100,11,12,7,6,0.6,0.6
2025-07-25T2200,1291A,115.8886,28.7003,南昌市,省林业公司,,31,31,23,9,11,75,,97,97,16,16,2,2,0.6,0.5
2025-07-25T2200,1292A,115.8126,28.7442,南昌市,林科所,,28,22,13,9,6,88,,102,102,12,10,8,7,0.3,0.3
2025-07-25T2200,1294A,115.8518,28.687,南昌市,建工学校,,32,32,23,9,14,85,,105,105,18,14,10,9,0.5,0.4
2025-07-25T2200,1295A,115.8921,28.6424,南昌市,象湖,,30,28,15,7,7,95,,108,108,8,8,8,7,0.5,0.4
2025-07-25T2200,1296A,115.7423,28.7996,南昌市,武术学校,,23,23,14,9,7,48,,82,76,6,3,9,9,0.5,0.4
2025-07-25T2200,3046A,115.9084,28.6062,南昌市,机电学校,,30,30,27,12,10,94,,102,102,12,13,6,6,0.5,0.6
2025-07-25T2200,3690A,115.9721,28.7031,南昌市,外国语学校,,33,33,25,8,9,89,,105,105,8,7,4,5,0.5,0.4
2025-07-25T2200,4192A,115.9316,28.68677,南昌市,南京东路235号,,,36,26,8,8,,,100,100,13,13,6,4,,0.6
2025-07-25T2200,1906A,106.0789,30.8023,南充市,南充市委,,19,19,18,13,12,40,,77,70,24,11,5,4,0.4,0.4
2025-07-25T2200,1907A,106.1031,30.8217,南充市,南充炼油厂,,27,27,24,9,8,55,,76,71,13,8,4,4,0.3,0.3
2025-07-25T2200,4227A,106.1083,30.7884,南充市,梨树横街98号,,20,16,21,14,10,63,,85,82,14,8,3,4,0.2,0.3
2025-07-25T2200,4304A,106.1172,30.843,南充市,清泉寺北路188号,,28,28,18,16,11,72,,81,81,8,7,2,2,0.2,0.2
2025-07-25T2200,4305A,106.067,30.7616,南充市,同庆路1号,,20,15,16,14,10,62,,89,84,14,10,1,2,0.1,0.1
2025-07-25T2200,1151A,118.8086,32.1065,南京市,迈皋桥,,25,25,23,14,15,39,,89,70,19,12,4,4,0.2,0.3
2025-07-25T2200,1152A,118.7538,32.0551,南京市,草场门,,24,24,28,14,17,33,,75,61,15,11,9,8,0.3,0.4
2025-07-25T2200,1153A,118.7794,32.0745,南京市,山西路,,31,31,28,9,10,39,,87,70,20,13,5,5,0.4,0.4
2025-07-25T2200,1154A,118.7752,32.0023,南京市,中华门,,14,14,24,9,13,32,,76,61,4,7,8,9,0.6,0.7
2025-07-25T2200,1155A,118.8109,32.0309,南京市,瑞金路,,25,17,23,17,16,41,,84,70,8,9,7,6,0.3,0.3
2025-07-25T2200,1156A,118.7997,32.0754,南京市,玄武湖,,29,29,27,11,8,30,,75,59,13,11,6,6,0.4,0.4
2025-07-25T2200,1157A,118.6414,32.0931,南京市,浦口,,25,25,31,14,14,36,,88,66,19,13,5,5,0.1,0.3
2025-07-25T2200,1158A,118.7356,31.9996,南京市,奥体中心,,22,22,27,9,15,40,,82,69,10,11,5,5,0.3,0.4
2025-07-25T2200,1159A,118.9125,32.1028,南京市,仙林大学城,,29,29,31,7,10,35,,84,66,11,7,8,8,0.5,0.6
2025-07-25T2200,3422A,118.8436,31.9198,南京市,江宁彩虹桥,,36,36,28,12,15,30,,79,65,8,4,4,3,0.5,0.5
2025-07-25T2200,3427A,118.8554,32.3578,南京市,六合雄州,,28,28,30,10,12,45,,66,58,7,11,5,5,0.4,0.4
2025-07-25T2200,4249A,118.8708,31.3402,南京市,汶溪路181号,,28,28,21,16,16,46,,104,92,14,12,6,6,0.5,0.4
2025-07-25T2200,4312A,119.019,31.6512,南京市,中山西路1号,,23,19,22,16,18,30,,82,66,13,10,4,4,0.5,0.5
2025-07-25T2200,1401A,108.3103,22.7881,南宁市,二十一中,,31,31,33,20,15,20,,95,72,29,20,6,5,0.6,0.6
2025-07-25T2200,1402A,108.3141,22.8528,南宁市,北湖,,41,41,29,15,19,22,,82,57,30,19,12,7,0.5,0.5
2025-07-25T2200,1403A,108.3206,22.8225,南宁市,市监测站,,28,22,32,19,15,25,,85,60,26,24,6,6,0.4,0.5
2025-07-25T2200,1404A,108.3829,22.8037,南宁市,大自然花园,,,20,28,15,13,,,88,70,14,15,4,5,0.4,0.5
2025-07-25T2200,1405A,108.4394,22.7904,南宁市,仙葫,,22,22,26,12,14,33,,74,57,20,16,4,4,0.6,0.6
2025-07-25T2200,1406A,108.2397,22.8467,南宁市,区农职院,,26,26,27,16,16,28,,84,64,15,12,4,5,0.6,0.5
2025-07-25T2200,1407A,108.3275,22.735,南宁市,英华嘉园,,30,30,37,17,24,38,,103,87,22,17,1,2,0.5,0.4
2025-07-25T2200,3401A,108.4834,22.7618,南宁市,红星社区,,42,42,24,18,15,26,,80,58,14,9,2,2,0.5,0.4
2025-07-25T2200,4221A,108.2177,22.7774,南宁市,乐贤路16号,,36,36,40,17,18,30,,120,96,26,18,2,4,0.6,0.6
2025-07-25T2200,2332A,118.1681,26.6369,南平市,南平市监测站,,12,12,14,3,6,28,,54,46,8,7,4,4,0.4,0.4
2025-07-25T2200,2333A,118.1825,26.6489,南平市,南平铝业有限公司,,21,21,17,3,3,23,,56,48,3,9,4,4,0.3,0.4
2025-07-25T2200,2334A,118.1756,26.6272,南平市,南平七中,,18,18,20,3,5,24,,56,45,6,6,3,4,0.5,0.5
2025-07-25T2200,1168A,120.9098,31.9663,南通市,狼山街道,,15,15,19,9,9,46,,64,50,4,4,5,6,0.4,0.4
2025-07-25T2200,1169A,120.86,32.0005,南通市,虹桥,,15,15,20,6,11,46,,61,47,6,7,4,4,0.5,0.5
2025-07-25T2200,1170A,120.87,32.02,南通市,城中,,17,17,24,3,10,38,,53,41,6,6,5,5,0.6,0.5
2025-07-25T2200,1171A,120.94,31.93,南通市,星湖花园,,14,11,15,8,11,44,,59,46,7,7,4,4,0.4,0.4
2025-07-25T2200,1172A,120.81,32.0417,南通市,紫琅学院,,12,12,21,3,7,38,,53,41,7,6,4,4,0.6,0.6
2025-07-25T2200,3291A,121.067,32.062,南通市,通州监测站,,15,12,15,7,8,48,,64,51,3,3,2,3,0.7,0.6
2025-07-25T2200,3432A,120.9348,31.9883,南通市,环境教育馆,,19,19,24,3,8,56,,68,56,4,6,4,4,0.2,0.3
2025-07-25T2200,2404A,112.5224,33.0122,南阳市,瓦房庄,,33,31,27,16,10,105,,129,126,11,11,6,6,0.5,0.4
2025-07-25T2200,2405A,112.5003,32.9735,南阳市,汉画馆,,33,33,27,6,6,100,,130,124,16,12,6,6,0.5,0.4
2025-07-25T2200,2406A,112.5573,33.027,南阳市,气象站,,34,26,18,14,9,106,,140,132,13,11,7,8,0.4,0.4
2025-07-25T2200,2407A,112.5481,32.9689,南阳市,理工学院,,31,28,22,10,6,97,,132,127,14,12,7,7,0.5,0.5
2025-07-25T2200,4008A,112.5234,32.9922,南阳市,卧龙区政府,,34,34,21,19,11,103,,130,124,15,13,5,5,0.5,0.5
2025-07-25T2200,1234A,121.8358,29.911,宁波市,区环保大楼,,,22,22,7,8,19,,28,19,,15,5,4,,0.4
2025-07-25T2200,1235A,121.56,29.82,宁波市,万里学院,,18,18,20,8,9,24,,39,23,12,10,4,4,0.5,0.4
2025-07-25T2200,1236A,121.713,29.9572,宁波市,龙赛医院,,19,19,25,6,7,27,,34,26,6,7,6,5,0.2,0.2
2025-07-25T2200,1239A,121.633,29.7733,宁波市,钱湖水厂,,17,17,17,3,7,20,,34,22,16,11,5,5,0.5,0.4
2025-07-25T2200,1240A,121.5856,29.8635,宁波市,太古小学,,18,18,21,6,9,21,,39,23,11,7,2,2,0.4,0.4
2025-07-25T2200,1241A,121.524,29.8674,宁波市,市环境监测中心,,14,14,19,3,6,24,,38,23,10,10,5,5,0.3,0.3
2025-07-25T2200,2871A,121.6147,29.9017,宁波市,万里国际学校,,13,13,18,6,9,25,,39,24,7,8,3,4,0.4,0.4
2025-07-25T2200,3710A,121.5594,29.8975,宁波市,白沙活动中心,,14,14,15,3,5,28,,43,26,5,6,4,5,0.3,0.3
2025-07-25T2200,2341A,119.5388,26.6612,宁德市,宁德市监测站,,11,11,16,6,7,25,,44,36,14,9,5,6,0.5,0.5
2025-07-25T2200,3209A,119.5231,26.6562,宁德市,宁德一中,,13,12,16,9,5,27,,46,38,6,6,4,4,0.2,0.3
2025-07-25T2200,2618A,98.8601,25.8567,怒江傈僳族自治州,州监测站,,18,13,17,12,11,34,,53,48,7,6,5,5,0.3,0.3
2025-07-25T2200,2619A,98.8546,25.8417,怒江傈僳族自治州,泸水一中,,,15,14,9,7,,,41,37,10,8,6,6,0.4,0.5
2025-07-25T2200,1888A,101.6891,26.571,攀枝花市,弄弄坪,,32,32,37,11,26,35,,73,65,21,18,11,14,1.0,1.1
2025-07-25T2200,1889A,101.5769,26.5928,攀枝花市,河门口,,,11,22,7,13,,,104,104,8,11,7,12,0.4,1.2
2025-07-25T2200,1890A,101.7169,26.585,攀枝花市,炳草岗,,41,41,27,18,14,22,,73,65,30,17,8,12,0.9,0.9
2025-07-25T2200,1891A,101.7369,26.5008,攀枝花市,仁和,,19,19,22,11,15,22,,76,62,10,10,6,8,0.5,0.6
2025-07-25T2200,2835A,101.7227,26.567,攀枝花市,四十中小,,22,22,21,13,15,25,,77,67,29,14,7,14,1.1,1
2025-07-25T2200,1604A,122.0303,41.1489,盘锦市,开发区,,29,27,25,20,22,49,,66,61,12,8,10,11,0.3,0.4
2025-07-25T2200,1605A,122.0485,41.0883,盘锦市,兴隆台,,22,19,25,15,14,50,,71,64,14,6,6,6,0.4,0.4
2025-07-25T2200,1606A,121.8297,41.1028,盘锦市,新生街道,,23,22,22,16,18,67,,81,77,9,7,3,3,0.4,0.4
2025-07-25T2200,1832A,113.3257,33.742,平顶山市,新华旅馆,,39,39,28,19,14,90,,139,122,16,15,6,7,0.5,0.6
2025-07-25T2200,1833A,113.2919,33.737,平顶山市,规划设计院,,29,29,28,20,18,83,,133,118,16,15,9,8,0.5,0.6
2025-07-25T2200,1834A,113.182,33.774,平顶山市,平顶山工学院,,32,23,25,12,12,100,,140,129,13,14,8,7,0.3,0.4
2025-07-25T2200,3204A,113.3025,33.73,平顶山市,规划局,,28,27,30,8,10,89,,143,130,14,14,7,5,0.4,0.4
2025-07-25T2200,3594A,112.8867,33.9116,平顶山市,石龙区,,35,35,38,23,18,90,,138,125,18,16,15,9,0.8,0.7
2025-07-25T2200,2656A,106.6692,35.5461,平凉市,聚贤嘉苑,,36,36,30,6,9,46,,49,36,16,15,10,8,0.7,0.7
2025-07-25T2200,2657A,106.7021,35.5307,平凉市,博物馆,,31,31,29,13,11,45,,44,30,8,16,8,9,0.5,0.5
2025-07-25T2200,2347A,114.0997,27.5002,萍乡市,武功山,,14,6,4,3,6,44,,80,74,4,3,8,8,0.4,0.5
2025-07-25T2200,2348A,113.8385,27.6434,萍乡市,中医院,,,70,28,,16,,,93,93,26,15,9,10,0.8,0.7
2025-07-25T2200,2349A,113.8493,27.6253,萍乡市,市政府车库,,32,32,22,20,16,68,,92,86,24,11,11,11,1.3,0.7
2025-07-25T2200,2350A,113.8676,27.6435,萍乡市,市环保局,,45,33,25,31,16,94,,100,99,9,12,12,11,0.4,0.4
2025-07-25T2200,2351A,113.866,27.6198,萍乡市,安源区政府,,39,39,26,22,16,75,,95,89,16,8,11,12,0.5,0.7
2025-07-25T2200,2319A,119.0141,25.4325,莆田市,荔城区仓后路,颗粒物(PM10),61,71,23,41,10,19,,40,31,10,6,6,5,0.6,0.4
2025-07-25T2200,2320A,119.0015,25.4553,莆田市,莆田市监测站,颗粒物(PM10),51,51,15,27,5,22,,42,34,9,6,5,4,0.5,0.3
2025-07-25T2200,2321A,119.1119,25.4561,莆田市,涵江区六中,,46,42,15,32,4,17,,45,32,16,7,5,4,0.6,0.4
2025-07-25T2200,2322A,119.1013,25.3215,莆田市,秀屿区政府,,23,23,18,6,7,23,,59,43,18,8,4,3,0.6,0.4
2025-07-25T2200,2392A,115.0312,35.7636,濮阳市,环保局,,35,35,33,24,19,88,,124,115,6,5,3,3,0.3,0.3
2025-07-25T2200,2394A,115.0574,35.7609,濮阳市,油田运输公司,,45,45,40,23,19,83,,119,108,8,7,3,3,0.5,0.5
2025-07-25T2200,3021A,115,35.7668,濮阳市,濮水河管理处,,38,38,37,24,22,83,,112,105,11,9,3,3,0.3,0.3
2025-07-25T2200,4216A,115.0924,35.7686,濮阳市,任丘路479号,,45,45,44,28,23,79,,116,106,11,7,4,4,0.4,0.4
2025-07-25T2200,2601A,100.98,22.7633,普洱市,市环保局,,30,27,21,21,15,25,,43,40,4,3,4,4,0.5,0.5
2025-07-25T2200,2602A,100.9817,22.8322,普洱市,普洱第二中学,,29,29,18,20,10,18,,41,36,7,4,5,5,0.5,0.4
2025-07-25T2200,2262A,131.0518,45.8751,七台河市,新一中,,15,13,20,10,14,46,,86,65,10,18,9,10,0.9,0.9
2025-07-25T2200,3345A,131.0577,45.7879,七台河市,中波台,,11,9,28,6,7,34,,57,44,8,21,7,8,0.4,0.7
2025-07-25T2200,3637A,131.0176,45.7761,七台河市,人民广场,,13,12,24,9,12,39,,60,49,7,13,12,11,0.5,0.5
2025-07-25T2200,3684A,130.8781,45.8222,七台河市,新建矿广场,,10,,19,7,8,31,,59,48,12,19,10,9,0.5,0.5
2025-07-25T2200,1779A,123.9305,47.3636,齐齐哈尔市,安居小区,,30,30,27,15,10,79,,122,102,12,21,4,3,0.6,0.6
2025-07-25T2200,1780A,123.9488,47.3386,齐齐哈尔市,中心广场,,29,29,27,9,8,72,,120,110,14,15,5,5,0.6,0.5
2025-07-25T2200,1781A,123.9483,47.3227,齐齐哈尔市,农牧车辆厂,,29,29,30,12,10,71,,106,95,8,18,6,6,0.1,0.3
2025-07-25T2200,1783A,123.945,47.2988,齐齐哈尔市,市环境监测站,,25,14,24,13,13,78,,112,104,8,17,4,5,0.4,0.4
2025-07-25T2200,3662A,123.6333,47.2075,齐齐哈尔市,富区青少年活动中心,,24,17,27,12,11,75,,118,107,9,18,4,5,0.4,0.3
2025-07-25T2200,2591A,107.9783,26.5747,黔东南苗族侗族自治州,市环境监测站,,14,14,13,7,6,9,,47,36,19,9,2,2,0.5,0.5
2025-07-25T2200,2881A,107.8908,26.5311,黔东南苗族侗族自治州,凯里学院,,9,,5,6,5,9,,53,38,16,6,2,2,0.4,0.3
2025-07-25T2200,2593A,107.5228,26.2403,黔南布依族苗族自治州,小围寨,,5,6,7,3,1,14,,31,26,4,5,1,2,0.4,0.4
2025-07-25T2200,3538A,107.5175,26.2978,黔南布依族苗族自治州,沙坝,,12,12,13,3,0,15,,43,34,11,7,3,3,0.4,0.4
2025-07-25T2200,2589A,104.9022,25.0925,黔西南布依族苗族自治州,场坝街,,15,15,13,8,6,40,,49,47,3,2,4,4,0.4,0.3
2025-07-25T2200,2590A,104.8811,25.0992,黔西南布依族苗族自治州,坪东大道,,22,22,15,7,7,43,,49,48,4,4,2,1,0.3,0.2
2025-07-25T2200,2502A,108.6236,21.9667,钦州市,市环保站,,18,12,21,7,9,55,,82,78,11,10,1,2,0.6,1
2025-07-25T2200,2503A,108.6549,21.9481,钦州市,沙埠小学,,20,18,24,13,12,62,,86,83,11,8,2,2,0.8,0.7
2025-07-25T2200,2504A,108.5989,21.7431,钦州市,港区一小,,45,45,29,15,14,50,,92,76,23,17,4,3,0.8,0.7
2025-07-25T2200,3404A,108.5959,21.9633,钦州市,北职校,,19,19,27,11,13,34,,80,72,18,9,3,2,0.6,1.2
2025-07-25T2200,1043A,119.7493,40.0116,秦皇岛市,第一关,,36,33,37,25,18,74,,78,78,2,14,4,4,0.2,0.2
2025-07-25T2200,1044A,119.5897,39.9499,秦皇岛市,监测站,,37,37,43,13,10,84,,89,89,6,11,4,4,0.2,0.3
2025-07-25T2200,1046A,119.5251,39.9041,秦皇岛市,建设大厦,,41,41,38,14,11,85,,87,87,1,13,4,4,0.2,0.2
2025-07-25T2200,3132A,119.610547,39.943889,秦皇岛市,文明里,,30,30,42,21,14,79,,85,85,3,7,4,5,0.2,0.2
2025-07-25T2200,4198A,119.5090,39.8253,秦皇岛市,北戴河轮滑馆,,35,35,38,19,15,66,,90,88,10,4,2,2,0.2,0.2
2025-07-25T2200,1307A,120.6659,36.2403,青岛市,仰口,,17,17,21,9,13,42,,66,54,4,5,10,10,0.6,0.6
2025-07-25T2200,1310A,120.4134,36.0658,青岛市,市南区东部子站,,25,22,21,17,14,44,,60,52,2,3,7,7,0.2,0.2
2025-07-25T2200,1311A,120.3664,36.1032,青岛市,四方区子站,,32,,17,22,16,47,,49,48,3,4,8,9,0.2,0.2
2025-07-25T2200,1312A,120.2994,36.054,青岛市,市南区西部子站,,19,19,21,12,13,40,,51,40,7,12,8,9,0.5,0.5
2025-07-25T2200,1313A,120.4581,36.0858,青岛市,崂山区子站,,34,34,25,19,11,44,,64,50,6,6,8,8,0.2,0.2
2025-07-25T2200,1315A,120.3999,36.3083,青岛市,城阳区子站,,15,14,20,10,13,31,,64,53,8,5,11,9,0.3,0.3
2025-07-25T2200,1966A,120.0405,35.8735,青岛市,黄岛区4号,,24,24,23,12,11,58,,79,69,3,3,12,13,0.3,0.3
2025-07-25T2200,3362A,120.5014,36.4034,青岛市,即墨2号,,19,18,20,13,14,57,,67,63,2,3,5,5,0.1,0.1
2025-07-25T2200,3642A,120.3503,36.0736,青岛市,市北区南部,,28,28,21,14,12,50,,68,58,9,7,10,10,0.4,0.4
2025-07-25T2200,3643A,120.3948,36.1805,青岛市,李沧区北部,,18,14,15,12,17,36,,47,42,4,3,7,7,0.2,0.2
2025-07-25T2200,4290A,120.1969,35.9546,青岛市,珠江路669号,,25,17,17,17,15,41,,60,48,6,5,8,8,0.4,0.4
2025-07-25T2200,1702A,113.0426,23.691,清远市,环保大楼,,18,14,17,3,13,56,,137,109,12,13,6,7,0.7,0.7
2025-07-25T2200,1703A,113.0208,23.7106,清远市,凤城街办,,14,11,21,3,11,44,,107,78,10,14,6,5,0.5,0.5
2025-07-25T2200,3025A,113.0477,23.6344,清远市,技师学院,,16,15,20,7,11,49,,102,85,11,10,6,8,0.5,0.4
2025-07-25T2200,3318A,112.9903,23.7403,清远市,清新太和,,16,16,22,8,13,43,,98,73,13,13,7,7,0.4,0.5
2025-07-25T2200,3455A,113.076,23.7198,清远市,清城东城,,14,11,17,3,10,43,,93,75,8,8,5,5,0.6,0.6
2025-07-25T2200,2661A,107.6325,35.7357,庆阳市,庆阳五中,,19,17,15,11,6,58,,66,58,7,6,6,6,0.5,0.4
2025-07-25T2200,2662A,107.6364,35.7067,庆阳市,市环保局,,23,19,16,6,4,73,,71,67,5,5,10,10,0.5,0.5
2025-07-25T2200,1916A,103.7897,25.5035,曲靖市,环境监测站,,19,19,15,13,11,25,,54,46,21,14,8,7,0.6,0.5
2025-07-25T2200,1917A,103.8,25.5364,曲靖市,烟厂办公区,,17,17,12,3,5,36,,58,52,12,8,4,4,0.7,0.6
2025-07-25T2200,3376A,103.7947,25.462,曲靖市,南苑二区,,15,15,12,6,5,36,,55,52,11,9,7,5,0.6,0.6
2025-07-25T2200,3377A,103.7444,25.5261,曲靖市,曲靖师范学院,,18,18,11,7,7,37,,52,49,9,8,6,6,0.3,0.3
2025-07-25T2200,1264A,118.8692,28.9398,衢州市,环保大楼,,23,23,28,12,14,33,,62,54,13,12,2,2,0.3,0.3
2025-07-25T2200,1265A,118.8709,28.9666,衢州市,实验学校,,24,24,27,8,12,27,,62,53,20,14,2,3,0.3,0.3
2025-07-25T2200,1266A,118.8621,28.9808,衢州市,衢州学院,,18,18,23,11,12,24,,62,53,19,12,2,2,0.3,0.3
2025-07-25T2200,1611A,118.5819,24.9117,泉州市,涂山街,,34,34,20,17,10,20,,54,44,20,8,2,2,0.6,0.4
2025-07-25T2200,1612A,118.5972,24.8978,泉州市,津头埔,,27,27,18,17,9,27,,61,51,12,7,2,2,0.5,0.4
2025-07-25T2200,1613A,118.6663,24.9424,泉州市,万安,,27,27,23,8,9,38,,57,48,11,8,2,2,0.3,0.3
2025-07-25T2200,3529A,118.6333,24.9264,泉州市,城华南路,,23,23,19,13,10,22,,56,46,13,6,3,3,0.4,0.4
2025-07-25T2200,2626A,88.8876,29.2718,日喀则市,日喀则监测站,,22,13,7,3,1,69,,92,89,6,4,10,11,0.5,0.2
2025-07-25T2200,3726A,88.8781,29.2426,日喀则市,林业技术推广中心,,22,9,7,3,1,69,,80,77,3,4,9,8,0.3,0.3
2025-07-25T2200,1659A,119.471,35.4209,日照市,监测站,,,,20,21,16,,,68,68,7,9,10,9,0.3,0.3
2025-07-25T2200,1660A,119.523,35.4216,日照市,市政府广场,,,19,21,17,11,,,71,71,4,2,8,7,0.6,0.6
2025-07-25T2200,1661A,119.5587,35.4044,日照市,港务局,,39,,21,27,22,55,,76,73,4,4,13,12,0.6,0.6
2025-07-25T2200,3507A,119.5328,35.4625,日照市,职业技术学院,,28,,20,19,14,49,,70,68,7,5,9,8,0.5,0.5
2025-07-25T2200,3604A,119.3266,35.1044,日照市,岚山环保分局,,24,24,20,14,12,51,,64,64,10,6,12,11,0.5,0.5
2025-07-25T2200,1835A,111.1922,34.7752,三门峡市,市政府,,40,40,31,16,17,128,,115,115,10,8,2,3,0.6,0.5
2025-07-25T2200,1836A,111.1587,34.7942,三门峡市,开发区,,41,35,29,22,22,129,,118,118,15,13,3,3,0.5,0.5
2025-07-25T2200,3039A,111.1911,34.7829,三门峡市,三门峡市第一小学,,50,50,34,24,15,130,,117,117,13,11,9,7,0.5,0.5
2025-07-25T2200,3598A,111.1,34.7167,三门峡市,富达温泉假日酒店,,35,29,24,17,16,112,,106,106,11,9,9,9,0.3,0.3
2025-07-25T2200,2324A,117.6211,26.2625,三明市,三钢,,11,7,20,7,7,35,,55,49,10,8,3,3,0.5,0.3
2025-07-25T2200,2325A,117.635,26.2714,三明市,三明二中,,10,10,12,3,6,31,,52,46,9,6,3,2,0.2,0.3
2025-07-25T2200,2326A,117.6028,26.2378,三明市,三元区政府,,12,12,17,6,8,26,,58,47,14,9,2,3,0.9,0.5
2025-07-25T2200,1876A,109.5078,18.2489,三亚市,河东子站,,14,13,15,3,6,42,,40,40,4,8,2,2,0.5,0.6
2025-07-25T2200,1877A,109.4964,18.2681,三亚市,河西子站,,13,12,15,8,5,41,,43,42,4,6,2,2,0.4,0.4
2025-07-25T2200,3540A,109.7348,18.3443,三亚市,君悦子站,,19,19,19,6,6,19,,52,34,15,10,2,2,0.6,0.5
2025-07-25T2200,2624A,91.7608,29.2313,山南市,山南监测站,,25,14,7,3,3,79,,89,85,3,5,3,4,0.3,0.2
2025-07-25T2200,2625A,91.7706,29.2436,山南市,山南人民医院,,26,9,7,3,3,81,,88,85,1,4,4,4,0.3,0.3
2025-07-25T2200,1674A,116.6794,23.3667,汕头市,金平子站,,20,20,28,11,12,42,,85,75,17,18,4,5,1.0,0.6
2025-07-25T2200,1675A,116.7244,23.3633,汕头市,龙湖子站,,13,8,26,3,10,40,,82,71,15,15,8,9,1.0,0.6
2025-07-25T2200,1676A,116.7258,23.2775,汕头市,濠江子站,,19,16,31,13,15,37,,94,78,10,12,4,6,0.7,0.7
2025-07-25T2200,1677A,116.7519,23.4714,汕头市,澄海子站,,33,33,26,8,10,36,,78,60,21,11,5,4,0.9,0.6
2025-07-25T2200,1678A,116.6092,23.2539,汕头市,潮阳子站,,15,15,33,9,11,41,,94,76,14,11,4,6,0.6,0.7
2025-07-25T2200,3444A,116.454,23.2684,汕头市,潮南峡山,,21,21,26,10,14,40,,87,64,11,10,6,7,0.6,0.6
2025-07-25T2200,3624A,116.4069,23.2533,汕头市,潮南子站,,26,26,33,13,15,31,,87,64,18,11,4,5,0.6,0.6
2025-07-25T2200,1693A,115.3653,22.775,汕尾市,市环保局,,18,12,28,8,17,55,,139,88,9,10,3,3,0.5,0.5
2025-07-25T2200,1694A,115.3706,22.7898,汕尾市,市政府,,,12,24,3,16,,,124,89,7,8,4,4,0.5,0.5
2025-07-25T2200,1695A,115.3622,22.7925,汕尾市,新城中学,,15,13,32,10,8,45,,57,57,10,11,4,4,0.5,0.5
2025-07-25T2200,2645A,109.9154,33.8715,商洛市,监测站,,31,31,22,14,12,81,,77,76,7,7,9,7,0.6,0.5
2025-07-25T2200,3045A,109.9643,33.8471,商洛市,商州区中学,,,,23,,9,,,70,68,16,11,7,5,0.5,0.4
2025-07-25T2200,2408A,115.6702,34.4285,商丘市,环境监测站,,31,31,35,17,18,68,,112,100,11,8,3,3,0.4,0.5
2025-07-25T2200,2409A,115.6458,34.4045,商丘市,粮食局,,31,31,33,14,16,67,,110,100,9,6,2,2,0.5,0.5
2025-07-25T2200,2410A,115.6293,34.3948,商丘市,睢阳区环保局,,44,44,40,17,17,64,,107,97,12,10,5,5,0.2,0.2
2025-07-25T2200,3171A,115.6071,34.4465,商丘市,梁园区档案局,,27,27,29,17,15,71,,106,98,8,8,3,3,0.3,0.4
2025-07-25T2200,1141A,121.4,31.238,上海市,普陀,,38,38,25,12,13,31,,52,36,9,9,5,6,0.3,0.3
2025-07-25T2200,1142A,121.478,31.2036,上海市,十五厂,,24,24,23,9,12,35,,54,37,8,10,8,8,0.5,0.5
2025-07-25T2200,1143A,121.467,31.3008,上海市,虹口,,28,28,27,8,12,39,,49,38,6,9,11,12,0.6,0.5
2025-07-25T2200,1147A,121.425,31.2261,上海市,静安监测站,,26,26,25,10,12,31,,50,35,10,10,4,5,0.7,0.7
2025-07-25T2200,1148A,121.703,31.1907,上海市,浦东川沙,,26,26,24,7,12,29,,55,36,6,6,9,9,0.7,0.5
2025-07-25T2200,1149A,121.533,31.2284,上海市,浦东新区监测站,,30,30,27,10,10,35,,52,37,4,8,8,9,0.3,0.7
2025-07-25T2200,1150A,121.577,31.2071,上海市,浦东张江,颗粒物(PM10),54,57,43,11,12,37,,56,39,6,8,6,7,0.5,0.5
2025-07-25T2200,3265A,121.4316,31.3322,上海市,宝山庙行,,26,26,25,8,11,32,,53,38,10,9,7,8,0.3,0.3
2025-07-25T2200,3266A,121.8791,31.4662,上海市,崇明上实东滩,,24,24,23,12,14,37,,69,49,5,4,4,5,0.6,0.6
2025-07-25T2200,3268A,121.3162,31.2838,上海市,嘉定南翔,,26,26,26,11,12,28,,46,33,7,7,7,8,0.3,0.3
2025-07-25T2200,3269A,121.3359,30.7456,上海市,金山新城,,26,26,23,6,10,25,,47,32,8,8,3,4,0.5,0.4
2025-07-25T2200,3270A,121.4996,31.0739,上海市,闵行浦江,,,28,25,10,11,,,49,35,3,5,4,5,0.8,0.8
2025-07-25T2200,3271A,121.2886,31.1663,上海市,青浦徐泾,,29,29,26,9,10,28,,48,33,10,8,7,7,0.4,0.4
2025-07-25T2200,3272A,121.2186,31.0378,上海市,松江图书馆,,19,19,20,9,11,31,,54,37,6,8,7,7,0.5,0.5
2025-07-25T2200,3273A,121.3902,31.2059,上海市,长宁仙霞,,26,26,24,14,12,31,,48,34,7,8,7,7,0.4,0.4
2025-07-25T2200,3274A,121.7965,31.0507,上海市,浦东惠南,,27,27,27,9,11,28,,53,37,9,6,10,10,0.6,0.6
2025-07-25T2200,3544A,121.4891,30.925,上海市,奉贤南桥新城,,27,27,24,12,11,31,,50,36,5,7,2,4,0.6,0.6
2025-07-25T2200,4183A,121.4174,31.16637,上海市,冠生园路458号,,23,23,23,8,11,33,,48,35,6,8,4,4,0.7,0.7
2025-07-25T2200,4205A,121.5419,31.2683,上海市,宁武路151号,,30,30,31,13,15,30,,48,32,9,13,7,7,0.5,0.5
2025-07-25T2200,2382A,117.9756,28.4436,上饶市,市监测站,,28,28,50,18,24,49,,73,63,5,8,2,7,0.3,0.3
2025-07-25T2200,2383A,117.9519,28.4628,上饶市,凤凰光学,,26,26,27,17,13,50,,70,63,6,11,7,13,0.4,0.5
2025-07-25T2200,3685A,117.897,28.4315,上饶市,双创科技城,,32,32,27,19,14,48,,76,70,13,13,9,8,0.4,0.4
2025-07-25T2200,4211A,118.1904,28.4448,上饶市,裕丰大道,,13,,39,8,23,39,,64,58,4,7,4,6,0.6,0.6
2025-07-25T2200,1669A,113.5824,24.7733,韶关市,市八中,,12,12,24,3,9,33,,68,53,13,7,9,7,0.6,0.5
2025-07-25T2200,1671A,113.5917,24.7972,韶关市,园林处,,23,23,16,10,9,37,,66,53,11,6,10,8,0.3,0.3
2025-07-25T2200,1673A,113.5971,24.6863,韶关市,曲江监测站,,19,19,22,3,12,20,,68,49,21,14,4,5,0.6,0.6
2025-07-25T2200,2809A,113.6668,24.7756,韶关市,大学路288号,,23,17,23,16,13,26,,65,49,17,9,12,10,0.9,0.5
2025-07-25T2200,3622A,113.5556,24.8082,韶关市,碧湖山庄,,31,31,24,10,10,19,,70,43,13,9,6,7,0.5,0.6
2025-07-25T2200,2464A,111.5283,27.2442,邵阳市,市化工厂,,26,26,27,14,17,40,,98,79,25,15,7,8,0.6,0.5
2025-07-25T2200,2466A,111.4328,27.2272,邵阳市,市环保局,,28,24,33,19,19,60,,103,88,10,10,6,6,0.6,0.6
2025-07-25T2200,4218A,111.4460,27.2472,邵阳市,北塔二期4-26地块,,23,22,31,16,15,41,,103,84,17,12,6,6,0.6,0.4
2025-07-25T2200,4219A,111.4739,27.2282,邵阳市,邵水西路287号,,23,22,29,16,16,63,,106,89,13,12,6,8,0.6,0.5
2025-07-25T2200,1247A,120.6053,29.9928,绍兴市,城东开发委,,27,27,24,10,9,24,,46,33,6,4,4,5,0.4,0.3
2025-07-25T2200,2921A,120.5483,30.0003,绍兴市,树下王站,,18,18,20,7,8,28,,53,38,6,5,4,5,0.3,0.3
2025-07-25T2200,3408A,120.5683,29.9361,绍兴市,绍兴中专,,22,22,15,6,9,28,,50,36,3,4,5,5,0.3,0.3
2025-07-25T2200,3409A,120.4906,30.0861,绍兴市,柯桥区政府,,23,23,26,8,10,28,,46,33,7,9,3,6,0.4,0.4
2025-07-25T2200,3410A,120.8752,30.0249,绍兴市,重华小学,,22,22,22,9,10,25,,42,29,6,8,5,6,0.4,0.4
2025-07-25T2200,3411A,120.8369,30.0137,绍兴市,上虞中学,,28,28,22,8,10,29,,46,33,5,6,7,8,0.4,0.4
2025-07-25T2200,3560A,120.4722,30.0415,绍兴市,柯桥妇保,,24,24,26,11,10,28,,49,35,7,8,3,4,0.3,0.3
2025-07-25T2200,3658A,120.6153,30.0764,绍兴市,袍江中学,,25,25,23,8,9,26,,50,34,9,7,6,6,0.3,0.3
2025-07-25T2200,1356A,114.1063,22.5545,深圳市,通心岭子站,,18,18,28,11,20,52,,202,153,16,20,7,8,0.6,0.6
2025-07-25T2200,1357A,114.117,22.5625,深圳市,洪湖,,22,22,33,12,22,47,,220,168,19,24,6,8,0.6,0.7
2025-07-25T2200,1358A,113.987,22.5417,深圳市,华侨城,,24,24,35,12,22,70,,253,186,15,25,6,6,0.8,0.8
2025-07-25T2200,1359A,113.9181,22.5171,深圳市,南海子站,,29,27,38,20,23,55,,238,161,43,34,6,6,0.7,0.7
2025-07-25T2200,1360A,114.2458,22.5689,深圳市,盐田,,19,19,36,3,25,40,,190,146,12,21,7,8,0.5,0.6
2025-07-25T2200,1361A,114.2283,22.7244,深圳市,龙岗,,25,25,46,13,26,23,,190,136,34,25,8,8,0.9,0.9
2025-07-25T2200,1363A,114.494,22.5422,深圳市,南澳,,16,16,33,3,19,49,,206,138,7,13,8,9,0.5,0.6
2025-07-25T2200,1364A,114.41,22.6342,深圳市,葵涌,,20,20,34,7,20,39,,190,129,26,18,8,9,0.5,0.6
2025-07-25T2200,1365A,114.297,22.5978,深圳市,梅沙,,17,12,38,3,18,53,,220,163,4,19,8,8,0.2,0.4
2025-07-25T2200,1366A,114.0678,22.738,深圳市,观澜,,,46,49,17,25,,,174,146,36,28,7,8,0.6,0.7
2025-07-25T2200,3305A,114.0731,22.559,深圳市,莲花,,20,20,31,12,21,32,,148,113,13,20,5,5,0.7,0.8
2025-07-25T2200,3306A,114.0261,22.6198,深圳市,民治,,18,15,36,8,23,55,,198,166,24,33,7,7,0.5,0.6
2025-07-25T2200,3307A,114.1871,22.6451,深圳市,横岗,,19,,18,10,24,58,,227,166,23,35,6,7,0.7,0.8
2025-07-25T2200,3447A,114.3551,22.7151,深圳市,坪山,,14,8,32,6,24,43,,162,114,17,28,7,8,0.6,0.7
2025-07-25T2200,3623A,113.8953,22.5861,深圳市,西乡,,26,26,37,8,24,67,,234,169,37,33,4,5,0.8,0.8
2025-07-25T2200,1099A,123.505,41.7406,沈阳市,浑南东路,,33,33,27,21,15,50,,95,81,24,17,2,5,0.6,0.7
2025-07-25T2200,1100A,123.4231,41.6989,沈阳市,新秀街,,38,37,33,26,18,44,,74,64,25,20,5,25,0.5,0.5
2025-07-25T2200,1102A,123.5903,41.8411,沈阳市,东陵路,,50,50,35,23,15,32,,91,72,35,17,5,6,0.5,0.5
2025-07-25T2200,1103A,123.4264,41.8467,沈阳市,陵东街,,28,24,22,19,14,59,,78,76,10,9,2,5,0.5,0.5
2025-07-25T2200,1104A,123.4114,41.7653,沈阳市,文化路,,43,43,36,26,21,64,,95,89,13,7,4,14,0.5,0.5
2025-07-25T2200,1105A,123.4678,41.7867,沈阳市,小河沿,,30,26,26,21,15,64,,91,81,14,10,2,4,0.6,0.7
