timepoint,stationcode,longitude,latitude,area,positionname,primarypollutant,aqi,pm10,pm10_24h,pm2_5,pm2_5_24h,o3,o3_24h,o3_8h,o3_8h_24h,no2,no2_24h,so2,so2_24h,co,co_24h
2025-07-13T1100,2566A,102.1879,31.914,阿坝藏族羌族自治州,州农科所,,41,41,16,10,9,59,,45,43,4,6,13,13,0.4,0.5
2025-07-13T1100,2568A,102.2502,31.8896,阿坝藏族羌族自治州,马师校,,20,,11,9,13,61,,35,35,5,7,6,6,0.6,0.6
2025-07-13T1100,3994A,102.2165,31.9024,阿坝藏族羌族自治州,马尔康中学西区,,20,7,14,7,12,64,,38,38,6,5,7,6,0.6,0.6
2025-07-13T1100,2695A,80.292,41.1694,阿克苏地区,电视台,,31,21,22,11,14,99,,97,92,13,8,6,6,0.3,0.3
2025-07-13T1100,2696A,80.2613,41.1551,阿克苏地区,艺术中心,,34,30,31,19,18,106,,99,93,3,3,11,4,0.4,0.3
2025-07-13T1100,2204A,105.6467,38.8363,阿拉善盟,西城区西花园,,34,,26,23,22,108,,101,101,8,8,18,20,0.6,0.6
2025-07-13T1100,2205A,105.6985,38.8411,阿拉善盟,蒙二幼,,32,29,33,13,18,102,,97,97,9,11,9,10,0.4,0.5
2025-07-13T1100,2206A,105.724,38.8516,阿拉善盟,环保局新楼,,34,18,28,14,17,106,,102,102,5,6,9,10,0.4,0.4
2025-07-13T1100,2708A,88.1264,47.8517,阿勒泰地区,市站,,24,15,17,3,5,74,,68,68,17,9,2,2,0.4,0.3
2025-07-13T1100,2630A,80.1161,32.5,阿里地区,阿里监测站,,29,6,8,3,2,92,,90,82,4,5,14,14,0.2,0.2
2025-07-13T1100,3192A,80.0903,32.5028,阿里地区,阿里藏医院,,31,,15,6,3,99,,93,88,1,2,5,5,0.3,0.3
2025-07-13T1100,2642A,109.0318,32.6537,安康市,香溪洞,,43,43,37,24,25,82,,52,49,7,4,8,7,0.5,0.4
2025-07-13T1100,2644A,109.0072,32.6975,安康市,汉滨区检察院,,38,29,41,26,24,78,,33,33,4,6,7,8,0.4,0.4
2025-07-13T1100,4054A,109.0325,32.6913,安康市,市邮政管理局,,42,42,42,27,25,82,,36,36,5,7,7,7,0.7,0.7
2025-07-13T1100,2291A,117.0809,30.5177,安庆市,环科院,,29,25,22,20,13,73,,45,45,5,6,4,4,0.6,0.6
2025-07-13T1100,2292A,117.0331,30.5119,安庆市,马山宾馆,,29,27,21,20,12,73,,45,45,6,7,4,4,0.5,0.5
2025-07-13T1100,2294A,116.9896,30.6145,安庆市,安庆大学,,28,21,18,19,12,75,,45,45,5,6,3,3,0.5,0.5
2025-07-13T1100,3173A,117.0598,30.5351,安庆市,市人大,,25,22,22,17,12,79,,47,47,7,9,3,4,0.5,0.5
2025-07-13T1100,3122A,105.9606,26.2611,安顺市,伍家关,,30,24,19,21,14,68,,46,46,5,7,3,6,0.5,0.5
2025-07-13T1100,3123A,105.9408,26.2431,安顺市,凤凰山,,23,20,20,10,16,72,,51,51,4,6,4,6,0.5,0.5
2025-07-13T1100,3124A,105.9439,26.2564,安顺市,金钟山,,33,24,26,23,22,75,,48,48,4,6,5,8,0.3,0.4
2025-07-13T1100,3125A,105.8983,26.2481,安顺市,娄家坡,,29,27,24,20,19,72,,49,49,4,7,6,12,0.5,0.5
2025-07-13T1100,1818A,114.4839,36.0621,安阳市,棉研所,,,,,,,,,,,,,,,,
2025-07-13T1100,1819A,114.3551,36.1017,安阳市,红庙街,颗粒物(PM10),57,63,50,32,29,163,,100,100,4,4,12,6,1.1,0.5
2025-07-13T1100,1820A,114.361,36.0681,安阳市,银杏小区,颗粒物(PM10),53,56,51,30,32,144,,88,88,2,4,6,6,0.4,0.5
2025-07-13T1100,3141A,114.3922,36.0878,安阳市,信访局,臭氧1小时,70,57,49,33,32,176,,116,116,2,2,9,6,0.9,0.6
2025-07-13T1100,3669A,114.4705,36.0637,安阳市,左辅环卫站,,46,46,51,22,33,144,,75,75,2,9,6,5,0.7,0.6
2025-07-13T1100,3703A,114.2917,36.0949,安阳市,安钢职工学校,颗粒物(PM10),52,54,57,27,34,143,,88,88,2,6,12,9,0.5,0.5
2025-07-13T1100,1748A,123.044,41.1196,鞍山市,深沟寺,,34,25,40,14,23,107,,66,63,10,17,8,11,0.7,0.9
2025-07-13T1100,1749A,123.011,41.0931,鞍山市,太阳城,,34,18,36,10,21,107,,75,75,12,13,11,8,1.0,0.8
2025-07-13T1100,1750A,123.0485,41.1442,鞍山市,太平,,34,26,50,13,26,108,,82,82,11,19,5,6,0.9,1.1
2025-07-13T1100,1751A,122.9642,41.0971,鞍山市,铁西三道街,,33,26,48,15,25,103,,88,88,17,17,13,9,1.2,1
2025-07-13T1100,1753A,123.022,41.0821,鞍山市,明达新区,,34,21,38,11,21,106,,85,85,11,13,8,6,0.9,0.9
2025-07-13T1100,1754A,123.1289,41.0228,鞍山市,千山,,,,,,,,,,,,,,,,
2025-07-13T1100,4201A,122.9446,41.0826,鞍山市,兴盛南路290号,,,21,45,16,21,110,,96,96,15,19,11,8,,1.1
2025-07-13T1100,2195A,107.4212,40.761,巴彦淖尔市,附二中,,36,31,42,20,30,114,,92,92,5,7,8,8,0.6,0.6
2025-07-13T1100,2196A,107.37,40.7372,巴彦淖尔市,市环保大楼,,49,49,66,18,26,107,,90,90,5,8,5,5,0.5,0.5
2025-07-13T1100,1956A,86.1472,41.7538,巴音郭楞蒙古自治州,孔雀公园,,44,44,144,16,33,76,,67,67,11,12,2,3,0.1,0.2
2025-07-13T1100,1957A,86.1972,41.7166,巴音郭楞蒙古自治州,棉纺厂,,28,23,222,7,39,88,,69,69,8,8,3,3,0.2,0.2
2025-07-13T1100,1958A,86.2357,41.7173,巴音郭楞蒙古自治州,经济开发区,,34,34,184,7,38,92,,74,74,3,3,2,2,0.2,0.2
2025-07-13T1100,2914A,106.7677,31.8794,巴中市,苏山坪,,40,40,25,28,18,80,,62,60,9,9,4,4,0.4,0.4
2025-07-13T1100,3181A,106.7768,31.8526,巴中市,市五中,,40,37,31,28,20,79,,31,31,9,11,8,8,0.5,0.5
2025-07-13T1100,3183A,106.7418,31.8654,巴中市,圣泉水务公司,,43,43,31,25,17,96,,42,42,7,9,6,6,0.8,0.7
2025-07-13T1100,3616A,106.7616,31.8344,巴中市,市中心医院,,38,38,31,25,22,90,,33,33,11,13,8,8,0.4,0.3
2025-07-13T1100,2235A,122.7911,45.6077,白城市,洮北区环保局,,22,,10,11,9,70,,47,47,6,7,5,4,0.1,0.1
2025-07-13T1100,2236A,122.8738,45.5725,白城市,市环保局,,24,22,13,10,6,75,,53,53,2,4,3,7,0.4,0.4
2025-07-13T1100,2231A,126.4219,41.9171,白山市,喜丰,,29,15,29,3,10,92,,46,46,7,16,6,9,0.7,0.8
2025-07-13T1100,2232A,126.4077,41.9419,白山市,环保局,,31,10,25,6,11,99,,49,49,11,13,12,13,0.6,0.6
2025-07-13T1100,2647A,104.1724,36.5446,白银市,第三小学,,26,26,23,17,15,82,,62,62,5,9,7,7,0.6,0.5
2025-07-13T1100,2648A,104.1465,36.5482,白银市,动力公司,,26,23,20,13,12,82,,66,66,5,9,7,12,0.4,0.5
2025-07-13T1100,2512A,106.6103,23.9011,百色市,市监测站,,32,32,28,12,13,19,,16,13,13,12,4,7,0.6,0.6
2025-07-13T1100,2513A,106.6538,23.8859,百色市,市中心血站,,35,35,30,15,15,22,,11,10,16,19,2,5,0.6,0.7
2025-07-13T1100,3406A,106.6085,23.8798,百色市,祈福高中,,41,41,35,14,16,22,,11,11,13,17,4,5,0.6,0.6
2025-07-13T1100,2270A,117.396,32.939,蚌埠市,工人疗养院,,40,35,30,14,12,126,,77,77,5,9,4,4,0.3,0.2
2025-07-13T1100,2271A,117.3605,32.9427,蚌埠市,百货大楼,,39,30,29,13,13,122,,68,68,1,8,5,5,0.4,0.3
2025-07-13T1100,2273A,117.4185,32.8911,蚌埠市,蚌埠学院,,,19,25,14,15,104,,70,70,2,7,,7,0.2,0.3
2025-07-13T1100,2274A,117.3533,32.9673,蚌埠市,淮上区政府,,41,31,31,15,15,130,,70,70,5,19,6,6,0.4,0.4
2025-07-13T1100,2275A,117.3145,32.8977,蚌埠市,高新区,,36,29,29,13,13,114,,79,79,8,7,7,8,0.4,0.3
2025-07-13T1100,3715A,117.3092,32.9314,蚌埠市,蚌埠田家炳中学,,38,38,34,10,17,112,,68,68,6,9,7,7,0.2,0.2
2025-07-13T1100,1585A,109.8756,40.6532,包头市,市环境监测站,,40,40,47,26,34,115,,46,46,14,25,16,7,0.7,0.7
2025-07-13T1100,1587A,109.9991,40.5842,包头市,包头八中,,42,42,60,12,32,107,,48,48,15,23,11,7,0.8,0.8
2025-07-13T1100,1588A,109.8538,40.6821,包头市,青山宾馆,,37,37,44,15,31,117,,44,44,16,27,12,4,0.7,0.6
2025-07-13T1100,1589A,109.8642,40.6288,包头市,惠龙物流,,44,44,50,22,30,107,,55,55,8,17,8,5,0.6,0.8
2025-07-13T1100,1590A,110.0377,40.5546,包头市,东河鸿龙湾,,38,19,43,6,26,119,,64,64,14,20,7,11,0.4,0.6
2025-07-13T1100,3283A,109.9154,40.5685,包头市,滨河大厦,,38,,44,15,31,119,,68,68,8,13,5,6,0.6,0.7
2025-07-13T1100,3419A,109.9447,40.6261,包头市,包头市委党校,,46,46,47,23,31,113,,62,62,16,20,25,8,1.0,0.8
2025-07-13T1100,3683A,109.8331,40.6576,包头市,昆区政府,,45,45,59,16,35,115,,51,51,12,24,11,6,0.9,0.9
2025-07-13T1100,1930A,107.185,34.3063,宝鸡市,庙沟村,,44,44,33,19,18,111,,73,73,8,8,4,4,0.3,0.2
2025-07-13T1100,1931A,107.0708,34.3017,宝鸡市,竹园沟,,46,46,32,28,24,110,,52,52,8,9,8,7,0.4,0.4
2025-07-13T1100,1932A,107.1906,34.3672,宝鸡市,三陆医院,细颗粒物(PM2.5),55,57,42,39,31,113,,48,48,11,17,8,7,0.6,0.6
2025-07-13T1100,1933A,107.1431,34.3547,宝鸡市,监测站,颗粒物(PM10),51,51,41,34,26,116,,59,59,9,11,9,8,0.3,0.3
2025-07-13T1100,1934A,107.1186,34.3739,宝鸡市,技工学校,颗粒物(PM10),55,60,41,33,28,118,,56,56,10,10,10,9,0.6,0.5
2025-07-13T1100,1935A,107.3906,34.3528,宝鸡市,陈仓区环保局家属楼,,,,,,,,,,,,,,,,
2025-07-13T1100,1936A,107.2058,34.3497,宝鸡市,文理学院,,,47,43,36,26,117,,62,62,,12,8,6,0.4,0.4
2025-07-13T1100,1937A,107.2386,34.3622,宝鸡市,三迪小学,颗粒物(PM10),58,65,41,33,30,119,,60,60,12,14,9,7,0.4,0.4
2025-07-13T1100,1051A,115.493,38.8632,保定市,游泳馆,,42,26,38,15,21,133,,73,73,7,10,5,5,0.1,0.1
2025-07-13T1100,1052A,115.5213,38.8959,保定市,华电二区,,,23,38,3,17,134,,68,68,,10,6,3,0.6,0.6
2025-07-13T1100,1053A,115.4713,38.9108,保定市,接待中心,,41,21,35,9,19,130,,70,70,3,6,3,3,0.3,0.3
2025-07-13T1100,1054A,115.4612,38.8416,保定市,地表水厂,,50,50,46,13,19,153,,80,80,8,12,1,2,0.4,0.5
2025-07-13T1100,3581A,115.31981,38.95208,保定市,满城区生态环境分局,,,,37,,17,141,,73,73,,7,,1,0.1,0.1
2025-07-13T1100,3582A,115.47694,38.76408,保定市,清苑区第二中学,,47,47,52,22,24,141,,72,72,6,7,3,3,0.4,0.4
2025-07-13T1100,3583A,115.62909,39.02311,保定市,徐水物探局,,38,9,33,3,12,120,,66,66,4,5,1,3,0.3,0.3
2025-07-13T1100,4004A,115.4202,38.8656,保定市,双鹰农机,,46,,29,14,22,145,,72,72,7,11,5,5,0.2,0.2
2025-07-13T1100,4034A,115.5150,38.8590,保定市,植保所站,,44,28,37,6,17,140,,72,72,14,16,3,3,0.1,0.1
2025-07-13T1100,2594A,99.1678,25.1081,保山市,市环境监测站,,38,26,19,26,19,50,,37,37,14,7,6,6,0.7,0.5
2025-07-13T1100,2595A,99.1711,25.1328,保山市,市环保局,,24,24,20,14,11,49,,51,47,8,4,7,8,0.4,0.4
2025-07-13T1100,1866A,109.2262,21.588,北海市,牛尾岭水库,,26,21,16,8,12,81,,67,67,4,4,2,2,0.5,0.6
2025-07-13T1100,1867A,109.1436,21.4086,北海市,海滩公园,,26,26,22,3,7,44,,40,36,4,5,1,2,0.3,0.4
2025-07-13T1100,1868A,109.0981,21.4661,北海市,新市环保局,,18,9,18,3,13,56,,55,47,8,7,2,3,0.6,0.7
2025-07-13T1100,1869A,109.1778,21.5233,北海市,北海工业园,,29,29,23,12,14,50,,40,40,7,8,3,5,0.5,0.6
2025-07-13T1100,3400A,109.1911,21.4415,北海市,龙潭自来水厂,,17,12,18,11,13,53,,41,41,4,5,3,5,0.5,0.5
2025-07-13T1100,1001A,116.3621,39.8784,北京市,万寿西宫,,39,12,25,6,16,123,,65,65,11,17,3,2,0.4,0.5
2025-07-13T1100,1002A,116.2202,40.2915,北京市,定陵,,29,6,14,3,12,91,,51,51,2,2,4,4,0.2,0.3
2025-07-13T1100,1003A,116.4174,39.9289,北京市,东四,,37,14,25,3,15,116,,62,62,10,16,4,4,0.2,0.3
2025-07-13T1100,1004A,116.4072,39.8863,北京市,天坛,,35,14,26,3,15,112,,44,44,14,14,5,4,0.4,0.6
2025-07-13T1100,1005A,116.462,39.9365,北京市,农展馆,,32,13,26,6,16,101,,46,46,7,16,2,2,0.4,0.6
2025-07-13T1100,1006A,116.3392,39.9295,北京市,官园,,36,15,27,3,15,114,,58,58,12,18,6,5,0.3,0.4
2025-07-13T1100,1007A,116.2878,39.9611,北京市,海淀万柳,,31,17,30,7,17,99,,30,30,17,26,6,6,0.2,0.4
2025-07-13T1100,1008A,116.6636,40.135,北京市,顺义新城,,29,12,26,3,13,92,,60,60,5,10,2,2,0.3,0.4
2025-07-13T1100,1009A,116.6275,40.3275,北京市,怀柔镇,,28,10,21,3,13,89,,53,53,4,6,1,3,0.5,0.6
2025-07-13T1100,1010A,116.2296,40.217,北京市,昌平镇,,33,8,25,3,15,104,,39,39,4,19,6,6,0.4,0.5
2025-07-13T1100,1011A,116.3966,39.9821,北京市,奥体中心,,31,15,25,6,15,98,,47,47,9,15,4,3,0.3,0.4
2025-07-13T1100,3281A,115.9718,40.4529,北京市,延庆夏都,,31,27,22,14,12,98,,35,35,9,9,6,4,0.4,0.4
2025-07-13T1100,3418A,116.8336,40.4095,北京市,密云新城,,25,7,22,3,14,77,,56,56,2,6,1,1,0.3,0.4
2025-07-13T1100,3671A,116.088,39.9726,北京市,门头沟三家店,,31,12,28,3,15,98,,57,57,1,4,4,3,0.4,0.4
2025-07-13T1100,3672A,116.1541,39.8204,北京市,丰台云岗,,35,18,34,7,19,112,,38,38,8,16,2,1,0.4,0.4
2025-07-13T1100,3673A,116.6804,39.9081,北京市,通州东关,,32,15,27,6,19,102,,52,52,12,20,1,2,0.4,0.5
2025-07-13T1100,3674A,115.9577,39.7603,北京市,房山燕山,,35,20,30,10,17,109,,60,60,7,6,3,2,0.3,0.4
2025-07-13T1100,3675A,116.4672,39.7733,北京市,大兴旧宫,,36,12,27,3,15,113,,44,44,10,22,2,1,0.4,0.5
2025-07-13T1100,3694A,115.986,40.4563,北京市,延庆石河营,,30,21,21,12,12,96,,34,34,10,8,4,2,0.5,0.4
2025-07-13T1100,3695A,116.6151,40.3053,北京市,怀柔新城,,28,11,21,3,12,89,,52,52,5,5,1,1,0.5,0.6
2025-07-13T1100,3696A,116.2545,39.8768,北京市,丰台小屯,,31,17,31,8,19,98,,37,37,11,15,2,2,0.5,0.6
2025-07-13T1100,3697A,116.84,40.3844,北京市,密云镇,,25,7,22,3,14,78,,60,60,2,4,3,3,0.4,0.5
2025-07-13T1100,4182A,116.1942,39.9158,北京市,八角北路9号,,37,15,33,7,18,118,,43,43,10,24,3,2,0.3,0.4
2025-07-13T1100,4194A,117.0790,40.1518,北京市,洳河巡河路,,33,10,26,3,16,105,,62,62,2,3,2,2,0.2,0.3
2025-07-13T1100,1761A,123.8275,41.3064,本溪市,大峪,,41,28,39,16,17,130,,77,77,11,12,6,6,0.7,0.6
2025-07-13T1100,1762A,123.7567,41.3325,本溪市,溪湖,,43,25,36,10,17,135,,80,80,7,12,6,5,0.7,1
2025-07-13T1100,1763A,123.7169,41.3094,本溪市,彩屯,,38,25,32,16,19,121,,81,81,19,16,7,7,0.7,0.7
2025-07-13T1100,1764A,123.7669,41.2864,本溪市,东明,,44,44,41,14,15,128,,82,82,15,14,5,4,1.0,1.1
2025-07-13T1100,1765A,123.7992,41.2664,本溪市,新立屯,,45,38,35,16,19,143,,79,79,10,16,5,4,1.0,0.9
2025-07-13T1100,1766A,123.8142,41.3472,本溪市,威宁,,41,27,36,12,23,129,,67,67,9,14,8,7,0.7,0.8
2025-07-13T1100,2587A,105.2864,27.3125,毕节市,八中,,,,23,19,17,64,,18,18,9,10,,4,0.3,0.4
2025-07-13T1100,2588A,105.31,27.2944,毕节市,师专,,28,28,26,18,16,68,,22,22,8,10,4,4,0.6,0.6
2025-07-13T1100,4263A,105.3688,27.3598,毕节市,工业大道,,24,19,22,15,17,74,,19,19,6,14,6,6,0.5,0.6
2025-07-13T1100,1629A,118.0018,37.3617,滨州市,第二水厂,细颗粒物(PM2.5),62,44,52,44,30,152,,83,83,4,12,3,4,0.4,0.4
2025-07-13T1100,1630A,117.9776,37.393,滨州市,北中新校,,,,50,,33,150,,53,,5,13,,13,0.4,0.4
2025-07-13T1100,3514A,117.9378,37.3956,滨州市,中海酒店,,45,44,50,24,35,143,,75,75,3,10,8,11,0.6,0.7
2025-07-13T1100,3515A,117.9378,37.3553,滨州市,开发区一中,,49,39,49,22,31,155,,82,82,10,16,12,12,0.2,0.5
2025-07-13T1100,3516A,118.0917,37.694,滨州市,金海六路,颗粒物(PM10),56,61,47,36,28,159,,67,67,7,15,14,11,0.5,0.3
2025-07-13T1100,4028A,117.9956,37.3753,滨州市,滨州市西街道办事处,臭氧1小时,57,41,44,27,31,165,,91,91,7,13,2,4,0.3,0.4
2025-07-13T1100,2311A,115.8072,33.8399,亳州市,污水处理厂,,32,23,23,15,15,101,,66,66,3,8,5,6,0.5,0.5
2025-07-13T1100,2312A,115.7789,33.8518,亳州市,三国揽胜宫,,32,23,39,16,15,100,,76,76,5,6,6,5,0.4,0.5
2025-07-13T1100,3332A,115.7633,33.8034,亳州市,亳州学院,,32,,15,12,18,101,,64,64,2,7,5,5,0.4,0.4
2025-07-13T1100,2693A,82.0485,44.8556,博尔塔拉蒙古自治州,市党校,,27,,29,17,11,84,,61,60,8,10,2,3,0.0,0
2025-07-13T1100,2694A,82.0806,44.8969,博尔塔拉蒙古自治州,市环保局,,27,27,35,10,12,73,,53,53,8,7,4,4,0.2,0.2
2025-07-13T1100,1071A,116.8842,38.2991,沧州市,沧县城建局,,41,30,40,6,18,130,,87,87,11,14,2,2,0.2,0.3
2025-07-13T1100,1072A,116.8584,38.3254,沧州市,电视转播站,,41,28,46,14,24,129,,83,83,10,13,7,5,0.2,0.3
2025-07-13T1100,1073A,116.8709,38.3228,沧州市,市环保局,,38,36,52,8,24,121,,73,73,9,11,3,2,0.3,0.4
2025-07-13T1100,3324A,116.8136,38.3004,沧州市,河北水利电力学院,,43,22,37,16,25,137,,86,86,7,13,4,4,0.2,0.4
2025-07-13T1100,2622A,97.1806,31.1273,昌都市,昌都监测站,,23,15,15,9,10,71,,53,50,5,4,3,3,0.1,0.1
2025-07-13T1100,3719A,97.1714,31.1406,昌都市,昌都会议中心,,29,,13,20,10,79,,58,55,6,4,6,6,0.1,0.1
2025-07-13T1100,2690A,88.1236,43.8886,昌吉回族自治州,天山天池,,36,36,16,6,6,54,,42,42,7,6,5,5,0.7,0.7
2025-07-13T1100,2692A,87.2717,44.0297,昌吉回族自治州,新区政务中心,,28,13,21,3,10,89,,89,89,10,11,3,4,0.3,0.3
2025-07-13T1100,3613A,87.3095,44.0142,昌吉回族自治州,亚心广场,,28,27,26,3,8,87,,84,84,13,12,5,6,0.2,0.1
2025-07-13T1100,1120A,125.2863,43.9027,长春市,客车厂,,22,8,30,3,17,70,,61,56,9,15,3,3,0.3,0.4
2025-07-13T1100,1121A,125.2841,43.8463,长春市,邮电学院,,20,,28,7,20,64,,60,50,5,12,5,5,0.3,0.5
2025-07-13T1100,1122A,125.3716,43.8772,长春市,劳动公园,,28,28,38,3,16,74,,70,59,11,16,7,7,0.6,0.6
2025-07-13T1100,1123A,125.3297,43.8805,长春市,园林处,,21,17,30,7,15,66,,63,54,5,11,4,4,0.2,0.4
2025-07-13T1100,1124A,125.4605,43.79,长春市,净月潭,,22,7,31,6,15,68,,52,48,4,10,6,6,0.2,0.4
2025-07-13T1100,1125A,125.7194,43.515,长春市,甩湾子,,23,10,28,3,18,73,,69,61,4,13,3,2,0.6,0.7
2025-07-13T1100,1126A,125.3863,43.8447,长春市,经开区环卫处,,23,11,30,3,14,71,,67,56,7,11,5,4,0.3,0.4
2025-07-13T1100,1127A,125.245,43.7783,长春市,高新区管委会,,24,20,30,6,16,76,,69,64,6,13,2,3,0.2,0.4
2025-07-13T1100,1128A,125.1761,43.8325,长春市,岱山公园,,24,20,29,7,17,74,,60,59,7,16,6,5,0.2,0.4
2025-07-13T1100,4281A,125.3346,43.9164,长春市,北亚泰大街1068号,,21,6,32,3,16,66,,59,53,5,15,3,2,0.2,0.4
2025-07-13T1100,1335A,113.0833,28.2325,长沙市,经开区环保局,,31,26,22,15,10,99,,44,44,3,8,4,4,0.4,0.4
2025-07-13T1100,1336A,112.8872,28.2189,长沙市,高开区环保局,,33,32,27,15,13,103,,60,60,5,6,4,4,0.4,0.4
2025-07-13T1100,1337A,113.0792,28.2053,长沙市,马坡岭,,33,26,26,3,13,105,,38,38,5,14,4,4,0.5,0.5
2025-07-13T1100,1338A,112.9394,28.19,长沙市,湖南师范大学,,36,26,23,14,15,114,,54,54,5,7,3,2,0.6,0.6
2025-07-13T1100,1339A,113.0178,28.1322,长沙市,雨花区环保局,,31,24,22,15,13,98,,33,33,7,14,5,4,0.8,0.7
2025-07-13T1100,1340A,112.9792,28.2597,长沙市,伍家岭,,32,14,24,14,16,102,,46,46,2,9,2,2,0.2,0.2
2025-07-13T1100,1341A,113.0014,28.1944,长沙市,火车新站,,30,26,23,12,12,93,,55,55,7,8,6,6,0.5,0.5
2025-07-13T1100,1342A,112.9844,28.1178,长沙市,天心区环保局,,43,43,24,24,11,90,,49,49,12,11,1,1,0.4,0.3
2025-07-13T1100,1343A,112.8908,28.1308,长沙市,湖南中医药大学,,30,30,26,20,16,68,,38,38,9,10,2,3,0.6,0.6
2025-07-13T1100,1344A,112.9581,28.3611,长沙市,沙坪,,28,,32,16,13,87,,40,40,8,7,4,4,0.5,0.5
2025-07-13T1100,1727A,113.1147,36.1547,长治市,清华站,细颗粒物(PM2.5),55,58,41,39,26,150,,91,91,9,10,12,7,0.7,0.7
2025-07-13T1100,1730A,113.0886,36.2125,长治市,审计局,细颗粒物(PM2.5),62,49,36,44,29,148,,84,84,11,10,6,4,0.8,0.7
2025-07-13T1100,1731A,113.0844,36.1856,长治市,长治八中,细颗粒物(PM2.5),68,54,43,49,34,139,,84,84,7,7,10,6,0.6,0.6
2025-07-13T1100,2845A,113.1569,36.1911,长治市,德盛苑,细颗粒物(PM2.5),55,57,41,39,27,153,,101,101,9,7,6,4,0.8,0.7
2025-07-13T1100,3568A,113.06,36.0464,长治市,向阳小学,颗粒物(PM10),66,82,67,46,31,138,,84,84,6,7,7,5,0.9,0.8
2025-07-13T1100,3569A,112.8792,36.3144,长治市,屯留一中,细颗粒物(PM2.5),64,57,49,46,38,130,,63,63,13,15,25,8,0.4,0.3
2025-07-13T1100,4189A,113.1131,36.19948,长治市,英华南巷50号,颗粒物(PM10),54,58,43,36,28,142,,83,83,9,10,10,6,0.7,0.6
2025-07-13T1100,4190A,113.2367,36.3344,长治市,学府街1号,臭氧1小时,88,79,65,58,39,190,,88,88,19,24,18,7,0.9,0.7
2025-07-13T1100,1854A,111.6975,28.9703,常德市,市二中,,45,45,27,30,20,106,,54,54,8,7,6,4,0.8,0.7
2025-07-13T1100,1857A,111.7158,29.1456,常德市,白鹤山,,,,,,,,,,,,,,,,
2025-07-13T1100,3138A,111.7153,29.0289,常德市,武陵区永安,,42,42,30,27,21,109,,73,73,5,4,4,3,0.3,0.2
2025-07-13T1100,3139A,111.6892,28.9881,常德市,鼎城区玉霞,,49,45,29,34,23,107,,58,58,4,4,5,4,0.6,0.5
2025-07-13T1100,3140A,111.6625,29.0531,常德市,武陵区长庚,,40,36,31,28,23,105,,68,68,4,5,4,3,0.4,0.4
2025-07-13T1100,1196A,119.9633,31.762,常州市,市监测站,,36,27,29,25,20,91,,60,60,8,11,9,8,0.4,0.4
2025-07-13T1100,1200A,119.9468,31.7069,常州市,武进监测站,,28,28,27,16,18,81,,55,55,8,9,10,9,0.7,0.9
2025-07-13T1100,1201A,119.9255,31.9087,常州市,安家,,38,38,28,19,18,98,,51,51,8,11,8,7,0.7,0.7
2025-07-13T1100,3002A,119.9805,31.8174,常州市,行政中心,,38,38,30,22,18,92,,58,58,10,11,6,6,0.4,0.3
2025-07-13T1100,3003A,120.0522,31.7748,常州市,经开区,,30,30,38,16,18,94,,54,54,7,17,6,5,0.2,0.2
2025-07-13T1100,3010A,119.9025,31.7964,常州市,钟楼,,34,34,30,17,16,78,,54,54,13,10,6,6,0.4,0.4
2025-07-13T1100,3429A,119.8598,31.7066,常州市,武进经发区,,26,26,35,17,22,76,,40,40,4,14,6,6,0.6,0.7
2025-07-13T1100,3430A,119.5826,31.7245,常州市,金坛城区,,23,21,32,16,21,66,,48,48,4,11,7,7,0.2,0.3
2025-07-13T1100,2220A,120.4318,41.5881,朝阳市,西梁,,22,,30,11,19,70,,44,44,7,14,8,9,0.4,0.6
2025-07-13T1100,2221A,120.4521,41.5646,朝阳市,河畔小区,,23,18,29,12,18,71,,53,53,6,11,6,12,0.3,0.6
2025-07-13T1100,2222A,120.4176,41.5648,朝阳市,八里堡,,27,27,35,16,21,75,,51,51,8,14,4,3,0.4,0.6
2025-07-13T1100,2223A,120.3806,41.5969,朝阳市,农业园区,,22,13,23,3,16,69,,40,40,5,11,3,4,0.3,0.5
2025-07-13T1100,1705A,116.6367,23.6719,潮州市,西园路,,42,42,31,24,17,82,,27,27,9,12,3,2,0.5,0.5
2025-07-13T1100,3026A,116.6183,23.6608,潮州市,市政府,臭氧1小时,67,64,37,20,14,173,,42,42,9,13,1,1,0.8,0.9
2025-07-13T1100,4036A,116.6461,23.6761,潮州市,金山,颗粒物(PM10),55,60,31,23,16,77,,21,21,4,9,4,6,0.8,0.8
2025-07-13T1100,2472A,113.0073,25.9061,郴州市,马头岭,,36,36,30,9,12,32,,10,10,6,8,7,7,0.6,0.6
2025-07-13T1100,2473A,113.0116,25.8226,郴州市,市职中,,39,39,26,26,19,55,,12,12,17,16,10,7,0.8,0.6
2025-07-13T1100,2475A,113.0383,25.8071,郴州市,市审计局,,40,34,26,28,19,66,,18,18,9,11,8,5,0.2,0
2025-07-13T1100,2476A,113.0348,25.7759,郴州市,市环保局,,46,34,30,32,21,64,,20,20,6,11,10,7,0.4,0.3
2025-07-13T1100,4252A,113.0138,25.8011,郴州市,好美居路49号,,43,38,30,30,20,69,,22,22,7,14,15,13,0.6,0.4
2025-07-13T1100,1431A,103.9728,30.7236,成都市,金泉两河,,47,47,31,3,15,135,,40,40,10,24,5,3,0.5,0.6
2025-07-13T1100,1432A,104.176,30.6872,成都市,十里店,颗粒物(PM10),57,63,37,35,20,136,,43,43,18,24,5,4,0.6,0.6
2025-07-13T1100,1433A,104.079,30.5706,成都市,三瓦窑,,,,30,,20,135,,69,69,17,21,,3,0.6,0.6
2025-07-13T1100,1434A,104.1114,30.63,成都市,沙河铺,,48,48,32,29,18,104,,38,38,27,20,6,5,0.5,0.5
2025-07-13T1100,1437A,104.0786,30.6531,成都市,君平街,细颗粒物(PM2.5),53,43,37,37,19,147,,65,65,17,23,6,6,0.9,0.9
2025-07-13T1100,1438A,103.613,31.0283,成都市,灵岩寺,,,,,,,,,,,,,,,,
2025-07-13T1100,2880A,104.0239,30.65639,成都市,大石西路,,,,36,,24,127,,33,33,,21,7,5,0.8,0.9
2025-07-13T1100,3136A,104.2725,30.5589,成都市,龙泉驿区区政府,,38,24,19,14,11,119,,68,68,12,12,4,4,0.4,0.4
2025-07-13T1100,3357A,104.0106,30.6931,成都市,金博路,,41,35,26,21,17,131,,37,37,14,29,6,5,0.8,0.9
2025-07-13T1100,3359A,104.0578,30.5225,成都市,华阳,,42,34,24,27,22,134,,64,64,11,14,3,4,0.7,0.7
2025-07-13T1100,3488A,104.3853,30.7453,成都市,青白江技师分院,,42,36,30,23,18,134,,51,51,9,20,6,5,0.6,0.5
2025-07-13T1100,3489A,104.0789,30.4072,成都市,科学城,,40,28,23,28,16,121,,58,58,9,9,6,4,0.6,0.5
2025-07-13T1100,4011A,103.8506,30.6947,成都市,光华大道三段,,41,41,32,27,17,131,,52,52,15,19,9,6,0.8,0.8
2025-07-13T1100,4224A,104.2433,30.5353,成都市,鲸龙路1057号,,39,26,26,15,19,123,,54,54,10,20,6,6,0.7,0.7
2025-07-13T1100,1062A,117.9531,40.9081,承德市,铁路,,38,,36,26,22,68,,42,42,13,15,3,4,0.4,0.5
2025-07-13T1100,1063A,117.9392,40.9763,承德市,中国银行,,25,,34,15,20,79,,38,38,5,9,1,4,0.2,0.4
2025-07-13T1100,1064A,117.9503,40.928,承德市,开发区,,32,32,45,9,18,79,,44,44,10,12,6,9,0.2,0.4
2025-07-13T1100,1065A,117.8051,40.9655,承德市,文化中心,"颗粒物(PM10),细颗粒物(PM2.5)",64,78,53,46,21,66,,23,23,17,19,24,10,1.2,0.7
2025-07-13T1100,1066A,117.9268,41.0026,承德市,离宫,,,,33,,17,77,,33,33,,8,2,2,0.2,0.4
2025-07-13T1100,2314A,117.47,30.6618,池州市,池州学院,,29,29,22,19,14,66,,40,40,14,8,6,6,0.4,0.5
2025-07-13T1100,3237A,117.4918,30.6617,池州市,展览馆,,28,28,20,17,12,75,,42,42,12,9,5,4,0.6,0.6
2025-07-13T1100,3333A,117.5627,30.695,池州市,第八中学,,26,25,22,14,12,83,,42,42,9,9,6,5,0.5,0.6
2025-07-13T1100,3334A,117.5038,30.6243,池州市,第十二中学,,25,21,19,12,11,79,,43,43,2,7,3,3,0.7,0.8
2025-07-13T1100,1744A,118.9233,42.2816,赤峰市,松山一中,,25,22,23,3,8,77,,61,61,9,20,9,12,0.3,0.5
2025-07-13T1100,1745A,118.9576,42.2728,赤峰市,哈达街,,24,8,22,3,10,75,,55,55,10,17,10,13,0.4,0.5
2025-07-13T1100,1746A,118.8788,42.2554,赤峰市,天义路,,24,19,13,3,10,74,,56,56,6,13,9,11,0.2,0.3
2025-07-13T1100,3058A,119.2658,42.0353,赤峰市,银河街,,24,15,28,14,14,74,,62,62,8,14,5,17,0.4,0.6
2025-07-13T1100,3286A,118.9359,42.3147,赤峰市,桥北物流园区,,36,,22,25,12,67,,49,49,7,16,10,13,0.3,0.5
2025-07-13T1100,2521A,107.3476,22.4136,崇左市,市环保局江州分局,,25,25,17,10,8,46,,49,42,5,4,6,6,0.5,0.4
2025-07-13T1100,4256A,107.3750,22.3736,崇左市,石景林东路7号,,25,25,15,7,7,52,,55,45,8,6,3,4,0.5,0.4
2025-07-13T1100,2298A,118.3093,32.3153,滁州市,老年大学,,36,31,25,25,21,78,,52,52,2,8,7,11,0.2,0.2
2025-07-13T1100,2299A,118.3244,32.2786,滁州市,人大宾馆,,29,21,15,16,19,91,,60,60,2,9,4,4,0.2,0.2
2025-07-13T1100,3207A,118.3118,32.3038,滁州市,市政府原办公楼,,39,,21,27,26,78,,53,53,3,9,4,4,0.2,0.2
2025-07-13T1100,3331A,118.3267,32.2634,滁州市,图书馆,,27,25,24,18,18,85,,56,56,5,7,9,9,0.3,0.3
2025-07-13T1100,2605A,101.5482,25.0441,楚雄彝族自治州,州环境监测站,,36,30,22,25,19,76,,27,27,10,19,13,10,0.6,0.6
2025-07-13T1100,2606A,101.538,25.0492,楚雄彝族自治州,市经济开发区,颗粒物(PM10),51,51,29,30,17,70,,26,26,9,17,14,9,0.6,0.6
2025-07-13T1100,2548A,107.5277,31.2827,达州市,达州职业技术学院,,37,37,35,13,7,84,,25,25,8,17,11,8,0.3,0.4
2025-07-13T1100,2549A,107.5086,31.2186,达州市,市环境监测站,颗粒物(PM10),57,63,39,19,14,71,,22,22,36,29,9,6,0.5,0.4
2025-07-13T1100,2550A,107.4988,31.2132,达州市,凤凰小区,,39,39,33,17,15,87,,25,25,20,22,9,6,0.3,0.3
2025-07-13T1100,2551A,107.5082,31.1986,达州市,达县机关宾馆,,41,41,34,12,10,79,,25,25,18,25,6,5,0.4,0.3
2025-07-13T1100,2552A,107.4644,31.2124,达州市,市政中心,,40,40,38,14,14,85,,28,28,13,17,7,4,0.3,0.3
2025-07-13T1100,2614A,100.1542,25.7054,大理白族自治州,大理市环境监测站,,25,18,19,17,17,55,,45,45,12,15,5,5,0.7,0.6
2025-07-13T1100,2615A,100.2171,25.5811,大理白族自治州,大理古城,,26,,23,18,18,58,,32,32,8,13,5,4,0.8,0.8
2025-07-13T1100,1109A,121.612,38.9741,大连市,甘井子,,43,31,23,16,20,135,,88,88,14,18,9,7,0.4,0.4
2025-07-13T1100,1110A,121.565,38.9511,大连市,周水子,,42,28,25,13,19,134,,86,86,9,13,3,3,0.3,0.3
2025-07-13T1100,1111A,121.5637,38.8845,大连市,星海三站,,43,28,22,17,18,136,,90,90,6,7,6,6,0.3,0.3
2025-07-13T1100,1112A,121.6302,38.9117,大连市,青泥洼桥,,43,35,29,20,17,137,,84,84,12,12,7,7,0.4,0.3
2025-07-13T1100,1113A,121.6251,38.8638,大连市,傅家庄,,40,27,22,21,16,125,,80,80,13,14,9,9,0.2,0.2
2025-07-13T1100,1114A,121.5213,38.8661,大连市,七贤岭,臭氧1小时,54,25,22,13,17,163,,101,101,6,11,12,11,0.4,0.4
2025-07-13T1100,1115A,121.2529,38.8061,大连市,旅顺,,39,30,27,17,17,124,,84,84,9,15,4,3,0.3,0.3
2025-07-13T1100,1116A,121.7485,39.1311,大连市,金州,,44,21,30,14,19,138,,88,88,10,16,8,9,0.3,0.3
2025-07-13T1100,1117A,121.7811,39.0496,大连市,开发区,,44,27,22,17,16,138,,91,91,12,19,12,12,0.4,0.4
2025-07-13T1100,1118A,121.9762,39.0631,大连市,双D港,,46,26,24,16,18,145,,89,89,6,9,9,10,0.4,0.4
2025-07-13T1100,1789A,124.81117,46.03138,大庆市,大同区,,39,39,15,3,6,69,,37,37,5,7,7,7,0.3,0.3
2025-07-13T1100,1790A,125.129,46.533,大庆市,龙凤区,,22,22,19,8,6,62,,37,37,5,11,5,5,0.4,0.3
2025-07-13T1100,1791A,124.902,46.408,大庆市,红岗区,,28,23,21,19,12,79,,47,47,4,8,10,10,0.4,0.5
2025-07-13T1100,1792A,125.153,46.586,大庆市,萨尔图区,,28,28,25,8,7,58,,34,34,5,11,8,8,0.3,0.3
2025-07-13T1100,1793A,124.9042,46.6215,大庆市,让胡路区,,,,23,,14,,,81,,,6,,8,,0.1
2025-07-13T1100,3481A,125.141,46.634,大庆市,萨区政府监测点,,23,20,21,3,4,71,,46,46,3,8,6,6,0.2,0.2
2025-07-13T1100,1721A,113.3819,40.1097,大同市,果树场,,33,10,27,7,15,104,,47,47,7,18,7,6,0.1,0.1
2025-07-13T1100,1723A,113.2994,40.0758,大同市,云冈宾馆,,42,26,29,13,16,132,,65,65,13,16,14,8,1.0,0.7
2025-07-13T1100,1724A,113.3444,40.0917,大同市,大同大学,,37,25,28,6,14,117,,62,62,12,18,14,12,0.5,0.4
2025-07-13T1100,1725A,113.2661,40.1269,大同市,安家小村,,39,18,33,7,9,124,,52,52,8,20,10,8,0.4,0.5
2025-07-13T1100,1726A,113.2711,40.0844,大同市,教育学院,,40,25,37,8,15,127,,54,54,10,21,11,9,0.6,0.7
2025-07-13T1100,3282A,113.3397,40.0597,大同市,大同市卫生学校,,36,17,30,13,14,113,,67,67,15,17,11,10,0.7,0.7
2025-07-13T1100,3565A,113.1367,40.1122,大同市,云冈站,,37,36,40,3,17,116,,46,46,11,19,7,5,0.5,0.5
2025-07-13T1100,3566A,113.1186,40.2556,大同市,图书馆,,36,30,25,11,12,113,,50,50,13,8,17,8,1.2,0.6
2025-07-13T1100,3567A,113.5931,40.0461,大同市,区一中,,40,36,29,6,13,125,,77,77,11,9,11,10,0.4,0.4
2025-07-13T1100,4199A,113.2798,40.0997,大同市,魏都大道141号,,42,33,44,11,14,134,,59,59,6,18,12,9,0.7,0.9
2025-07-13T1100,2269A,124.1069,50.4097,大兴安岭地区,科技局,,17,10,24,10,13,54,,36,36,2,3,5,5,0.1,0.2
2025-07-13T1100,3663A,124.1164,50.4278,大兴安岭地区,红旗社区,,18,14,8,3,6,57,,38,38,2,3,6,6,0.1,0.2
2025-07-13T1100,1600A,124.3303,40.0625,丹东市,江湾东路,,,56,50,19,26,105,,49,49,,14,5,6,0.6,0.7
2025-07-13T1100,1601A,124.4256,40.1503,丹东市,临江后街,,34,31,70,8,18,106,,51,51,7,13,6,7,0.6,0.7
2025-07-13T1100,1602A,124.3933,40.1461,丹东市,元宝山,,29,23,48,13,21,91,,48,48,8,12,3,4,0.5,0.6
2025-07-13T1100,1603A,124.3633,40.1092,丹东市,民主桥,,39,39,49,19,28,106,,49,49,11,17,4,5,1.0,1
2025-07-13T1100,3541A,109.5726,19.5167,儋州市,第一中学子站,,26,26,17,14,8,46,,21,21,3,5,8,9,0.2,0.3
2025-07-13T1100,3542A,109.5567,19.5187,儋州市,东坡学校子站,,20,18,13,14,7,45,,19,19,1,3,6,7,0.5,0.5
2025-07-13T1100,2616A,98.5842,24.428,德宏傣族景颇族自治州,德宏州监测站,,42,42,26,25,16,41,,20,20,11,9,10,10,0.7,0.7
2025-07-13T1100,3677A,98.5881,24.4368,德宏傣族景颇族自治州,芒市人民政府综合楼,,41,41,38,24,15,40,,20,20,9,8,8,8,0.6,0.5
2025-07-13T1100,1901A,104.4239,31.1208,德阳市,东山公园,,40,40,23,22,18,124,,54,52,13,11,7,7,0.9,0.8
2025-07-13T1100,1902A,104.3826,31.1317,德阳市,西小区,,42,42,37,23,25,122,,43,43,19,22,8,9,1.0,0.9
2025-07-13T1100,1904A,104.3553,31.1091,德阳市,耐火材料厂,,43,43,36,25,23,120,,34,34,17,20,1,3,0.6,0.5
2025-07-13T1100,3639A,104.4019,31.1244,德阳市,市教育局,,45,45,34,22,21,124,,43,43,15,15,5,6,0.8,0.8
2025-07-13T1100,1622A,116.3032,37.4674,德州市,儿童乐园,,,,49,,27,152,,93,93,,13,18,11,0.5,0.5
2025-07-13T1100,1624A,116.2991,37.4451,德州市,监理站,臭氧1小时,54,46,45,19,25,163,,116,116,5,12,11,13,0.4,0.4
2025-07-13T1100,3066A,116.2721,37.4379,德州市,九衢泉纯净水厂,臭氧1小时,53,48,51,24,30,162,,100,100,9,24,8,11,0.6,0.6
2025-07-13T1100,3371A,116.3728,37.4403,德州市,开发区人民医院,臭氧1小时,64,48,50,29,27,171,,109,109,12,17,12,11,0.6,0.7
2025-07-13T1100,3511A,116.5652,37.3319,德州市,陵城艺术中心,臭氧1小时,52,48,55,19,28,161,,100,100,8,15,4,5,0.4,0.4
2025-07-13T1100,4292A,116.3525,37.4209,德州市,新河东路,,,51,54,24,29,166,,109,109,2,11,,11,0.7,0.6
2025-07-13T1100,2621A,99.7056,27.8317,迪庆藏族自治州,迪庆州站,,31,31,21,17,15,61,,32,30,9,9,8,9,0.4,0.4
2025-07-13T1100,3180A,99.7136,27.8094,迪庆藏族自治州,质量技术监督局,,22,22,16,3,8,66,,40,38,13,12,6,6,0.4,0.4
2025-07-13T1100,4257A,104.6092,35.5962,定西市,将台街,,,27,31,10,16,89,,79,79,,3,8,8,,0
2025-07-13T1100,4309A,104.6159,35.5701,定西市,正龙路62号,,24,21,26,15,21,74,,67,67,2,3,5,6,0.3,0.3
2025-07-13T1100,1389A,113.7547,23.0494,东莞市,莞城梨川,,23,20,17,16,12,65,,28,28,8,22,5,6,0.4,0.5
2025-07-13T1100,1390A,113.7944,23.0128,东莞市,东城石井,颗粒物(PM10),68,86,26,36,11,54,,16,16,20,28,2,2,0.5,0.6
2025-07-13T1100,1391A,113.7383,22.9658,东莞市,南城西平,,23,23,20,13,11,59,,26,26,8,24,2,4,0.5,0.6
2025-07-13T1100,3319A,113.7338,23.0381,东莞市,万江金泰,,24,24,18,12,10,51,,19,19,9,22,2,3,0.6,0.7
2025-07-13T1100,3626A,113.7533,23.0202,东莞市,南城元岭,,,,15,,10,61,,24,24,,27,4,4,0.5,0.6
2025-07-13T1100,3627A,113.7875,23.0457,东莞市,东城主山,,34,34,20,13,10,59,,22,22,13,25,3,3,0.5,0.5
2025-07-13T1100,1666A,118.6614,37.4309,东营市,市环保局,,48,34,30,22,18,152,,89,89,15,18,9,11,0.3,0.3
2025-07-13T1100,3036A,118.6904,37.4338,东营市,开发区管委会,,50,32,32,19,16,158,,95,95,13,16,9,9,0.4,0.4
2025-07-13T1100,3365A,118.5719,37.565,东营市,垦利区民丰路,臭氧1小时,63,34,35,17,21,170,,100,100,12,16,11,11,0.5,0.5
2025-07-13T1100,3498A,118.5055,37.8612,东营市,河口城区,,47,29,32,17,18,148,,110,110,12,14,9,9,0.5,0.4
2025-07-13T1100,3646A,118.4978,37.4623,东营市,胜利站,,50,46,43,29,20,157,,85,85,17,21,4,4,0.5,0.5
2025-07-13T1100,3734A,118.35,37.26,东营市,理想之城,臭氧1小时,58,27,34,22,23,166,,88,88,22,23,12,11,0.4,0.4
2025-07-13T1100,1591A,110.0023,39.8129,鄂尔多斯市,综合楼,,44,44,53,27,33,131,,101,101,13,16,8,7,0.8,0.8
2025-07-13T1100,1592A,109.9486,39.8261,鄂尔多斯市,巴音孟克林场办事处,颗粒物(PM10),57,63,66,36,35,117,,101,95,22,21,4,4,0.7,0.7
2025-07-13T1100,1593A,109.7736,39.5986,鄂尔多斯市,康泽苑,颗粒物(PM10),58,66,60,31,30,132,,60,60,13,17,10,9,0.6,0.5
2025-07-13T1100,1594A,109.8119,39.5989,鄂尔多斯市,华泰汽车城,颗粒物(PM10),54,58,56,34,32,112,,40,40,8,21,5,4,0.8,0.7
2025-07-13T1100,1595A,109.9734,39.7884,鄂尔多斯市,奥林花园,颗粒物(PM10),51,51,63,31,38,135,,77,77,8,15,6,5,0.9,0.9
2025-07-13T1100,2436A,114.8938,30.3994,鄂州市,市政府,,,,24,,9,76,,54,54,,14,,4,0.7,0.7
2025-07-13T1100,2437A,114.8989,30.3714,鄂州市,赵家坝,,33,22,18,7,3,104,,56,56,4,6,5,6,0.7,0.5
2025-07-13T1100,3654A,114.8094,30.4089,鄂州市,精准医疗中心,,30,24,17,3,2,96,,39,39,3,18,4,4,0.6,0.7
2025-07-13T1100,2454A,109.4978,30.2981,恩施土家族苗族自治州,湖北民院,,34,34,29,10,22,98,,43,43,5,6,5,5,0.4,0.3
2025-07-13T1100,2455A,109.4707,30.2798,恩施土家族苗族自治州,州电力总公司,,32,32,27,19,21,91,,34,34,4,11,8,8,0.3,0.2
2025-07-13T1100,3549A,109.5061,30.3772,恩施土家族苗族自治州,龙凤新区,,39,29,23,27,16,80,,32,32,4,5,1,1,0.4,0.4
2025-07-13T1100,2499A,108.3411,21.6158,防城港市,沙万,,22,,31,8,18,69,,42,42,5,13,2,3,0.7,0.7
2025-07-13T1100,2500A,108.3514,21.7731,防城港市,防城档案局,,17,17,44,11,20,44,,19,19,8,15,2,2,0.8,0.8
2025-07-13T1100,2501A,108.3506,21.6414,防城港市,大海花园,,25,,28,12,19,78,,53,53,4,10,3,3,0.6,0.7
2025-07-13T1100,1371A,113.1294,23.0067,佛山市,湾梁,,29,29,22,12,11,51,,25,25,15,22,5,6,0.5,0.6
2025-07-13T1100,1372A,113.1083,23.0478,佛山市,华材职中,,22,22,20,10,12,60,,32,32,9,15,7,7,0.5,0.6
2025-07-13T1100,1373A,113.144,23.0453,佛山市,南海气象局,,33,33,23,9,12,44,,20,20,12,21,2,3,0.5,0.6
2025-07-13T1100,1374A,113.2881,22.8094,佛山市,顺德苏岗,,36,36,24,14,10,66,,33,33,9,13,7,7,0.5,0.5
2025-07-13T1100,1376A,112.8383,22.8678,佛山市,高明孔堂,,20,20,22,7,12,46,,37,37,5,11,6,6,0.6,0.6
2025-07-13T1100,1377A,112.8836,23.1588,佛山市,三水监测站,,26,24,30,18,19,49,,16,16,13,40,3,2,0.5,0.7
2025-07-13T1100,1378A,112.867,23.185,佛山市,三水云东海,,32,32,35,9,20,63,,22,22,12,31,2,2,0.6,0.8
2025-07-13T1100,3625A,113.2544,22.7642,佛山市,容桂街道办,,24,24,15,12,9,63,,31,31,15,18,8,6,0.5,0.6
2025-07-13T1100,1280A,119.3903,26.0543,福州市,鼓山,,,,,,,,,,,,,,,,
2025-07-13T1100,1282A,119.2681,26.0504,福州市,师大,,39,39,28,26,8,61,,16,16,7,10,4,4,0.3,0.3
2025-07-13T1100,1283A,119.2984,26.1028,福州市,五四北路,,33,33,30,16,11,63,,17,17,13,16,4,3,0.3,0.3
2025-07-13T1100,1284A,119.2648,26.0768,福州市,杨桥西路,,,,26,,11,,,44,,,14,,3,,0.3
2025-07-13T1100,1285A,119.317,26.0746,福州市,紫阳,,44,44,35,18,15,58,,16,16,16,21,4,4,0.3,0.3
2025-07-13T1100,3048A,119.5799,26.0936,福州市,九龙,,34,34,30,18,11,82,,27,27,6,9,4,4,0.3,0.3
2025-07-13T1100,3526A,119.5189,25.9664,福州市,吴航,,31,31,34,18,18,78,,28,28,5,8,4,5,0.4,0.4
2025-07-13T1100,1755A,123.7977,41.8491,抚顺市,望花区,,43,19,37,17,20,136,,99,99,14,17,8,11,0.5,0.7
2025-07-13T1100,1756A,123.9161,41.8822,抚顺市,顺城区,,45,45,40,17,17,132,,93,93,16,17,7,7,0.7,0.7
2025-07-13T1100,1757A,124.0436,41.8611,抚顺市,东洲区,,44,42,34,27,20,140,,99,99,16,17,9,7,0.7,0.7
2025-07-13T1100,1758A,123.9247,41.8642,抚顺市,新抚区,,47,47,40,17,16,129,,88,88,14,13,6,7,0.7,0.7
2025-07-13T1100,1759A,124.0972,41.8961,抚顺市,大伙房水库,,48,,36,27,20,151,,96,96,15,17,7,7,0.8,0.6
2025-07-13T1100,1760A,123.7086,41.8391,抚顺市,沈抚新城,,44,16,33,12,18,139,,93,93,13,15,6,8,0.5,0.6
2025-07-13T1100,2376A,116.2127,28.0814,抚州市,桐源党溪,,39,34,25,27,12,59,,24,24,2,2,3,4,0.9,0.7
2025-07-13T1100,2377A,116.3544,27.9831,抚州市,市站,,24,24,17,15,6,66,,43,43,3,4,5,5,0.6,0.5
2025-07-13T1100,2378A,116.3565,27.963,抚州市,血防站,,23,23,18,10,6,59,,38,38,4,6,4,4,0.4,0.4
2025-07-13T1100,2379A,116.3564,28.0007,抚州市,采茶剧团,,34,34,18,18,5,63,,38,38,3,2,6,5,0.5,0.4
2025-07-13T1100,2380A,116.385,27.9647,抚州市,医学分院,,24,24,18,10,4,71,,46,46,2,2,4,5,0.7,0.7
2025-07-13T1100,2207A,121.6094,41.998,阜新市,工业园区,,29,14,25,3,10,90,,78,75,11,12,3,5,0.3,0.4
2025-07-13T1100,2208A,121.6697,42.0279,阜新市,长青街,,25,11,19,3,12,80,,66,66,6,9,4,5,0.3,0.5
2025-07-13T1100,2209A,121.6673,42.0705,阜新市,农业园区,,25,11,24,3,8,80,,75,71,5,8,2,3,0.5,0.6
2025-07-13T1100,2210A,121.6717,42.0224,阜新市,东苑,,29,14,27,8,14,90,,84,80,7,11,2,4,0.3,0.4
2025-07-13T1100,2211A,121.6506,42.0498,阜新市,玉龙新城,,26,17,25,3,10,81,,62,62,7,10,2,3,0.4,0.6
2025-07-13T1100,2301A,115.8277,32.8929,阜阳市,市监测站,,39,39,29,26,18,114,,73,73,10,10,4,4,0.3,0.3
2025-07-13T1100,2303A,115.8554,32.8605,阜阳市,开发区,,35,20,25,7,9,112,,65,65,7,9,6,6,0.2,0.2
2025-07-13T1100,2875A,115.784,32.8892,阜阳市,阜阳职业技术学院,,42,42,22,6,13,120,,74,74,4,4,4,4,0.4,0.4
2025-07-13T1100,3468A,115.7901,32.8613,阜阳市,市规划展馆,,38,38,29,17,14,108,,64,64,5,6,3,3,0.5,0.5
2025-07-13T1100,3469A,115.836,32.9183,阜阳市,枣园社区,,38,38,27,20,15,107,,62,62,9,10,2,2,0.3,0.3
2025-07-13T1100,2669A,102.9099,34.9841,甘南藏族自治州,州政府,,30,30,25,10,14,65,,29,29,10,14,4,5,0.3,0.4
2025-07-13T1100,3380A,102.8914,34.9617,甘南藏族自治州,甘肃民族师范学院,,40,40,54,16,17,48,,22,22,18,19,9,9,0.4,0.4
2025-07-13T1100,2570A,101.9603,30.0475,甘孜藏族自治州,水桥子,,23,9,12,6,6,73,,26,26,10,18,5,5,0.4,0.4
2025-07-13T1100,3065A,101.9533,29.9972,甘孜藏族自治州,州环保局,,23,,17,6,5,72,,35,35,10,15,2,2,0.4,0.3
2025-07-13T1100,3414A,115.8347,28.932,赣江新区,桑海产业园,,27,,11,8,8,85,,60,60,5,12,5,5,0.2,0.2
2025-07-13T1100,2362A,114.9017,25.9149,赣州市,通天岩,,23,23,18,3,4,46,,30,30,4,3,7,4,0.6,0.6
2025-07-13T1100,2363A,114.9367,25.8664,赣州市,地委,,23,23,18,13,8,49,,29,29,11,11,4,2,0.9,0.9
2025-07-13T1100,2364A,114.9461,25.8481,赣州市,气象台,,21,21,18,11,6,52,,23,23,5,9,11,8,0.4,0.5
2025-07-13T1100,2365A,114.9322,25.8333,赣州市,市图书馆,,28,28,14,13,8,41,,18,18,8,9,5,4,0.5,0.5
2025-07-13T1100,2366A,114.8905,25.8471,赣州市,华坚鞋城,,30,30,17,14,7,50,,30,30,7,7,5,4,0.3,0.3
2025-07-13T1100,3109A,115.0093,25.8613,赣州市,赣县区卫计委,,26,21,16,18,8,34,,14,14,13,11,3,3,0.7,0.7
2025-07-13T1100,2683A,106.2319,36.1417,固原市,马园,,30,20,32,12,19,93,,82,82,11,18,6,6,0.6,0.6
2025-07-13T1100,2684A,106.2792,36.0022,固原市,监测站,,31,21,28,13,17,99,,93,92,4,6,4,4,0.3,0.2
2025-07-13T1100,2685A,106.2375,36.0211,固原市,新区,,30,23,27,14,17,96,,100,94,4,6,6,6,0.4,0.5
2025-07-13T1100,3522A,106.2177,35.9959,固原市,原州区十五小,,30,,22,16,21,96,,101,93,4,6,8,8,0.3,0.3
2025-07-13T1100,2543A,106.6308,30.5278,广安市,小平旧居,,,,,,,,,,,,,,,,
2025-07-13T1100,2544A,106.6303,30.4576,广安市,市委,,,34,30,20,22,,,,,11,13,11,10,0.0,1.2
2025-07-13T1100,2545A,106.6271,30.4663,广安市,友谊中学,,43,29,31,20,20,137,,61,61,10,12,4,3,0.8,0.8
2025-07-13T1100,2547A,106.6388,30.4551,广安市,广电花园,,45,,35,31,24,141,,61,61,11,11,13,11,0.7,0.6
2025-07-13T1100,2902A,106.6351,30.4865,广安市,北辰小学,,42,38,32,21,21,134,,64,64,8,10,7,7,0.6,0.5
2025-07-13T1100,2523A,105.8945,32.4535,广元市,黑石坡,,35,35,29,11,13,68,,38,37,8,6,2,1,0.5,0.3
2025-07-13T1100,2524A,105.821,32.4444,广元市,老城,,26,16,20,8,8,81,,31,31,15,21,3,2,1.0,1
2025-07-13T1100,2526A,105.8628,32.4287,广元市,监测站,,25,25,23,3,10,68,,27,27,16,12,10,11,0.8,0.7
2025-07-13T1100,3617A,105.8047,32.4166,广元市,经开区,,40,40,34,28,19,61,,19,19,19,20,5,6,0.7,0.7
2025-07-13T1100,1345A,113.2347,23.1423,广州市,广雅中学,,26,21,25,18,17,58,,26,26,16,28,3,3,0.5,0.5
2025-07-13T1100,1346A,113.2612,23.105,广州市,市五中,,35,35,26,18,14,57,,25,25,15,21,4,3,0.5,0.6
2025-07-13T1100,1348A,113.3478,23.0916,广州市,广东商学院,,25,25,24,15,15,50,,22,22,14,26,5,4,0.5,0.5
2025-07-13T1100,1349A,113.4332,23.1047,广州市,市八十六中,,25,25,17,15,8,42,,22,22,24,30,2,3,0.4,0.3
2025-07-13T1100,1350A,113.3505,22.9483,广州市,番禺中学,,34,34,23,17,12,72,,31,31,13,18,7,7,0.5,0.5
2025-07-13T1100,1351A,113.2146,23.3916,广州市,花都师范,,27,27,33,14,18,48,,21,21,26,43,4,4,0.7,0.8
2025-07-13T1100,1352A,113.2597,23.1331,广州市,市监测站,,28,28,25,14,12,58,,30,30,14,25,5,5,0.5,0.5
2025-07-13T1100,1353A,113.5618,23.312,广州市,九龙镇镇龙,,29,29,34,16,19,35,,11,11,20,25,6,6,0.5,0.5
2025-07-13T1100,1354A,113.2765,23.1544,广州市,麓湖,,29,29,24,16,12,49,,17,17,14,25,2,2,0.7,0.7
2025-07-13T1100,1355A,113.443,23.3035,广州市,帽峰山森林公园,,31,,21,9,9,99,,65,65,14,22,5,6,0.4,0.5
2025-07-13T1100,2846A,113.3221,23.1322,广州市,体育西,,19,18,15,3,2,59,,26,26,16,29,6,5,0.6,0.6
2025-07-13T1100,3298A,113.5717,23.5491,广州市,从化街口,,15,15,24,7,13,40,,18,18,11,15,7,7,0.7,0.7
2025-07-13T1100,3299A,113.3472,23.3692,广州市,白云竹料,,16,16,29,10,18,32,,18,18,22,24,3,3,0.5,0.6
2025-07-13T1100,3300A,113.2981,23.237,广州市,白云嘉禾,,26,26,27,14,14,28,,12,12,29,33,4,4,0.6,0.5
2025-07-13T1100,3301A,113.4256,23.1716,广州市,黄埔科学城,,,30,20,13,11,37,,11,11,,24,3,2,0.7,0.8
2025-07-13T1100,3302A,113.3942,23.0483,广州市,番禺大学城,,23,23,25,15,9,53,,30,30,13,23,6,6,0.6,0.5
2025-07-13T1100,3303A,113.4922,22.8168,广州市,南沙黄阁,,33,33,22,15,8,70,,42,42,6,10,5,5,0.4,0.4
2025-07-13T1100,3304A,113.5342,22.7896,广州市,南沙街,,29,29,20,13,6,67,,37,37,6,12,3,4,0.5,0.5
2025-07-13T1100,3443A,113.2902,23.5544,广州市,花都梯面,,22,22,25,11,12,47,,24,24,17,19,4,4,0.6,0.6
2025-07-13T1100,3445A,113.7858,23.7478,广州市,从化良口,,15,10,21,3,12,46,,20,20,7,8,7,7,0.6,0.7
2025-07-13T1100,3446A,113.8051,23.2614,广州市,增城荔城,,29,29,26,16,14,71,,30,30,10,17,6,7,0.3,0.4
2025-07-13T1100,2505A,109.568,23.1478,贵港市,德智高中,,,,,,,,,,,,,,,,
2025-07-13T1100,2506A,109.6047,23.0666,贵港市,江南子站,,44,44,32,16,20,95,,63,63,13,16,6,6,1.0,0.7
2025-07-13T1100,2508A,109.5669,23.1065,贵港市,荷城子站,,,19,15,12,8,85,,58,58,,15,6,6,0.4,0.4
2025-07-13T1100,3405A,109.5886,23.1172,贵港市,新世纪学校,,28,,13,17,11,88,,63,63,7,10,4,3,0.5,0.5
2025-07-13T1100,4260A,109.5933,23.0951,贵港市,中山路155-3号,,26,24,28,14,12,83,,60,60,9,12,4,3,0.9,0.7
2025-07-13T1100,1439A,106.6899,26.5998,贵阳市,马鞍山,,18,17,18,9,6,55,,20,20,5,7,3,3,0.0,0
2025-07-13T1100,1441A,106.6243,26.6266,贵阳市,鉴湖路,,29,29,24,9,8,55,,46,46,8,7,6,5,0.4,0.4
2025-07-13T1100,1442A,106.7487,26.6343,贵阳市,燕子冲,,28,22,23,19,21,63,,31,31,6,8,10,8,0.1,0.1
2025-07-13T1100,1443A,106.6555,26.4365,贵阳市,碧云窝,,27,27,29,9,11,76,,32,32,6,9,4,4,0,0.1
2025-07-13T1100,1445A,106.7109,26.6027,贵阳市,红边门,,20,19,20,14,11,38,,24,24,7,7,3,4,0.1,0.1
2025-07-13T1100,1446A,106.7164,26.5699,贵阳市,新华路,,25,,16,17,16,72,,53,53,7,8,6,8,0.4,0.3
2025-07-13T1100,1447A,106.674,26.5424,贵阳市,太慈桥,,22,19,14,9,9,70,,32,32,11,10,6,5,0.1,0.1
2025-07-13T1100,1552A,106.805,26.3003,贵阳市,桐木岭,,29,29,30,19,19,67,,44,44,7,8,9,8,1.0,1
2025-07-13T1100,4230A,106.6882,26.5695,贵阳市,花果园大街66号,,21,,9,14,17,65,,55,55,5,6,2,2,0.3,0.3
2025-07-13T1100,4231A,106.6873,26.5169,贵阳市,漓江路57号,,24,24,17,9,7,59,,37,37,5,5,5,5,0.2,0.2
2025-07-13T1100,1862A,110.4144,25.3167,桂林市,电子科大尧山校区,,,,,,,,,,,,,,,,
2025-07-13T1100,1864A,110.3089,25.2708,桂林市,龙隐路小学,,36,36,30,19,18,82,,44,44,6,9,9,9,0.4,0.4
2025-07-13T1100,1865A,110.2869,25.2178,桂林市,八中,,34,34,32,14,17,87,,39,39,8,13,6,6,0.5,0.5
2025-07-13T1100,3531A,110.296,25.1253,桂林市,旅游学院,,32,,20,22,15,78,,29,29,8,13,3,3,0.4,0.4
2025-07-13T1100,4222A,110.1835,25.2444,桂林市,环湖路276号,,34,34,32,22,21,72,,26,26,11,15,8,10,0.4,0.4
2025-07-13T1100,4301A,110.2803,25.2773,桂林市,信义路13号,,33,33,31,18,23,96,,55,55,7,12,4,7,0.6,0.6
2025-07-13T1100,2674A,100.2561,34.4714,果洛藏族自治州,玛沁县大武镇,,32,32,32,3,15,77,,40,40,9,9,16,14,0.3,0.3
2025-07-13T1100,1129A,126.5422,45.755,哈尔滨市,岭北,,27,10,15,6,11,84,,57,57,8,11,6,6,0,0.1
2025-07-13T1100,1130A,126.561,45.8167,哈尔滨市,松北商大,,20,11,25,3,9,61,,31,31,8,12,7,7,0.5,0.5
2025-07-13T1100,1131A,126.979,45.5419,哈尔滨市,阿城会宁,,20,10,33,3,18,63,,39,39,11,19,8,6,0.6,0.6
2025-07-13T1100,1132A,126.599,45.7222,哈尔滨市,南岗学府路,,22,17,31,7,10,70,,45,45,6,11,6,6,0.7,0.8
2025-07-13T1100,1133A,126.689,45.7733,哈尔滨市,太平宏伟公园,,23,23,28,10,13,72,,47,47,9,13,7,6,0.2,0.3
2025-07-13T1100,1134A,126.635,45.7667,哈尔滨市,道外承德广场,,22,18,37,7,12,68,,42,42,7,12,6,6,0.6,0.5
2025-07-13T1100,1135A,126.685,45.7319,哈尔滨市,香坊红旗大街,,24,24,24,3,12,72,,48,48,9,15,6,6,0.5,0.6
2025-07-13T1100,1136A,126.6411,45.7258,哈尔滨市,动力和平路,,,11,26,,,76,,50,50,8,12,5,5,0.4,0.5
2025-07-13T1100,1137A,126.593,45.7478,哈尔滨市,道里建国路,,24,18,29,3,12,75,,45,45,7,13,4,3,0.4,0.5
2025-07-13T1100,1138A,126.615,45.61,哈尔滨市,平房东轻厂,,,11,32,8,12,61,,34,34,15,18,,8,0.3,0.3
2025-07-13T1100,1139A,126.595,45.9855,哈尔滨市,呼兰师专,,22,16,18,6,8,69,,43,43,6,11,11,9,0.5,0.5
2025-07-13T1100,1140A,126.6206,45.6842,哈尔滨市,省农科院,,31,31,38,3,16,74,,50,50,7,17,7,6,0.4,0.5
2025-07-13T1100,2688A,93.5128,42.8172,哈密市,地区监测站,,26,13,31,9,17,82,,70,65,6,10,4,5,0.2,0.3
2025-07-13T1100,2689A,93.4961,42.8328,哈密市,哈密师范学校,,25,19,29,9,15,80,,69,66,8,8,4,4,0.2,0.3
2025-07-13T1100,2671A,100.9048,36.9639,海北藏族自治州,海晏县西海镇,,38,33,31,23,26,120,,84,84,3,6,11,10,0.5,0.5
2025-07-13T1100,3867A,102.0738,36.5056,海东市,平安区公安北苑,,32,31,33,22,18,91,,61,57,9,7,15,10,0.7,0.7
2025-07-13T1100,1409A,110.576,19.9507,海口市,东寨港,,,,15,,11,,,42,,,4,,5,,0.4
2025-07-13T1100,1410A,110.3232,20.0574,海口市,海南大学,,24,12,20,9,11,74,,26,26,5,14,2,2,0.4,0.5
2025-07-13T1100,1411A,110.283,20.0053,海口市,秀英海南医院,,29,29,25,12,15,71,,23,23,12,22,5,5,0.4,0.5
2025-07-13T1100,1412A,110.338,19.9969,海口市,海南师范大学,,29,27,23,20,14,81,,32,32,8,11,4,4,0.5,0.5
2025-07-13T1100,1413A,110.33,20.0356,海口市,龙华路环保局宿舍,,23,23,23,10,13,71,,28,28,11,14,5,5,0.3,0.3
2025-07-13T1100,3539A,110.5111,19.9736,海口市,桂林洋子站,,22,17,25,10,12,68,,25,25,7,10,4,4,0.3,0.3
2025-07-13T1100,2673A,100.6188,36.2866,海南藏族自治州,共和县恰卜恰镇,,49,,31,34,18,122,,93,93,3,6,13,13,0.5,0.5
2025-07-13T1100,2676A,97.3731,37.3753,海西蒙古族藏族自治州,德令哈市,,39,23,25,7,16,122,,122,119,4,3,11,12,0.9,0.7
2025-07-13T1100,1048A,114.5302,36.6116,邯郸市,东污水处理厂,臭氧1小时,70,76,60,36,21,176,,88,88,13,14,11,6,1.3,0.5
2025-07-13T1100,1049A,114.4918,36.5713,邯郸市,矿院,臭氧1小时,94,64,45,41,26,195,,90,90,12,14,17,8,1.4,0.6
2025-07-13T1100,1050A,114.484,36.6133,邯郸市,丛台公园,臭氧1小时,92,82,53,43,26,193,,98,98,12,12,14,7,1.3,0.6
2025-07-13T1100,3458A,114.7895,36.5593,邯郸市,香泉濮院小区,颗粒物(PM10),76,102,68,31,17,175,,91,91,12,11,5,3,0.8,0.3
2025-07-13T1100,3579A,114.50634,36.77178,邯郸市,永年区实验高中,"颗粒物(PM10),臭氧1小时",57,63,63,34,35,165,,89,89,17,15,4,3,0.7,0.5
2025-07-13T1100,3580A,114.20016,36.44293,邯郸市,峰峰矿区临水派出所,臭氧1小时,100,74,58,40,25,200,,126,126,12,10,17,9,1.5,0.6
2025-07-13T1100,2634A,106.9893,33.1842,汉中市,汉川机床厂子校,,46,46,34,25,24,88,,42,42,5,15,4,4,0.5,0.5
2025-07-13T1100,2635A,107.0154,33.0706,汉中市,市监测站,,36,36,33,25,22,85,,36,36,5,8,6,6,0.5,0.5
2025-07-13T1100,2636A,107.0089,33.1138,汉中市,鑫源开发区,,38,36,34,26,23,80,,34,34,6,15,6,5,0.4,0.4
2025-07-13T1100,2637A,107.007,33.0323,汉中市,南郑大河坎水厂,,37,37,32,22,19,85,,32,32,4,9,3,2,0.3,0.3
2025-07-13T1100,1223A,120.2072,30.2111,杭州市,滨江,,41,41,22,20,13,60,,28,28,17,19,6,6,0.3,0.4
2025-07-13T1100,1224A,120.0633,30.2747,杭州市,西溪,,35,25,17,24,11,54,,21,21,9,14,4,4,0.4,0.4
2025-07-13T1100,1226A,120.3417,30.3150,杭州市,下沙,,24,24,17,15,8,73,,38,38,4,10,5,5,0.3,0.3
2025-07-13T1100,1227A,120.1269,30.2456,杭州市,卧龙桥,,30,29,17,21,11,51,,15,15,7,9,7,7,0.4,0.4
2025-07-13T1100,1228A,120.1903,30.2692,杭州市,浙江农大,,32,32,27,22,13,47,,21,21,23,23,4,4,0.4,0.4
2025-07-13T1100,1230A,120.1197,30.3119,杭州市,和睦小学,,26,26,19,15,12,64,,28,28,10,13,5,6,0.4,0.3
2025-07-13T1100,1231A,120.3019,30.4183,杭州市,临平镇,,30,29,23,21,10,80,,33,33,6,13,6,6,0.3,0.3
2025-07-13T1100,1232A,120.2753,30.1839,杭州市,城厢镇,,35,35,20,3,15,65,,25,25,7,15,7,6,0.5,0.5
2025-07-13T1100,1233A,120.0883,30.1808,杭州市,云栖,,30,30,19,15,7,49,,18,18,11,12,8,8,0.7,0.7
2025-07-13T1100,3557A,119.9464,30.0494,杭州市,镇二中,,35,24,15,24,17,56,,23,23,7,12,4,3,0.5,0.5
2025-07-13T1100,3558A,119.7183,30.2367,杭州市,市府大楼,,23,18,14,16,8,69,,34,34,6,9,7,6,0.4,0.4
2025-07-13T1100,3656A,120.1556,30.2864,杭州市,消防大队,,39,27,19,27,13,63,,31,31,14,17,6,6,0.5,0.5
2025-07-13T1100,1270A,117.1959,31.7848,合肥市,明珠广场,,28,22,21,19,15,89,,47,47,7,14,5,6,0.5,0.5
2025-07-13T1100,1271A,117.3072,31.8764,合肥市,三里街,,28,27,21,19,15,84,,46,46,6,10,6,6,0.4,0.4
2025-07-13T1100,1272A,117.2588,31.8707,合肥市,琥珀山庄,,28,27,22,16,18,88,,52,52,6,10,7,7,0.5,0.5
2025-07-13T1100,1273A,117.1604,31.9052,合肥市,董铺水库,,27,24,24,17,13,84,,48,48,2,6,4,4,0.2,0.2
2025-07-13T1100,1274A,117.25,31.8571,合肥市,长江中路,,31,31,26,17,19,90,,55,55,5,8,5,5,0.5,0.5
2025-07-13T1100,1275A,117.266,31.9436,合肥市,庐阳区,,26,24,24,17,14,81,,48,48,2,11,7,7,0.5,0.4
2025-07-13T1100,1276A,117.3453,31.8616,合肥市,瑶海区,,29,22,23,15,14,92,,50,50,8,10,7,7,0.5,0.5
2025-07-13T1100,1277A,117.3027,31.7964,合肥市,包河区,,29,29,25,17,14,88,,40,40,14,28,5,5,0.5,0.5
2025-07-13T1100,1278A,117.2776,31.7385,合肥市,滨湖新区,,32,29,24,22,20,95,,49,49,8,11,6,6,0.4,0.4
2025-07-13T1100,1279A,117.1318,31.8403,合肥市,高新区,,28,22,22,16,15,89,,48,48,5,13,7,8,0.4,0.5
2025-07-13T1100,3464A,117.3803,31.9147,合肥市,高教基地,,25,17,20,13,14,78,,41,41,4,7,5,4,0.6,0.5
2025-07-13T1100,3614A,79.924,37.0877,和田地区,地区环保局,,48,48,67,9,17,107,,71,71,7,11,2,3,0.4,0.5
2025-07-13T1100,3615A,79.9131,37.113,和田地区,市环保局,颗粒物(PM10),63,76,71,19,18,112,,55,55,11,17,1,2,0.3,0.5
2025-07-13T1100,2516A,108.2011,24.715,河池市,东仁乐园,,,,,,,,,,,,,,,,
2025-07-13T1100,2517A,108.0497,24.6947,河池市,市环保站,,19,18,24,13,14,39,,33,32,4,6,8,5,0.6,0.5
2025-07-13T1100,2518A,108.0983,24.6989,河池市,市疾控中心,,36,36,29,20,16,14,,8,8,18,16,4,3,0.8,0.7
2025-07-13T1100,1696A,114.6778,23.7569,河源市,源西,,24,24,19,13,8,61,,28,28,7,10,3,3,0.8,0.8
2025-07-13T1100,1697A,114.6944,23.7586,河源市,东埔,,23,23,19,9,7,65,,27,27,10,10,4,4,0.5,0.5
2025-07-13T1100,1698A,114.6892,23.7233,河源市,老城,,25,25,22,13,12,62,,22,22,8,9,5,6,0.5,0.6
2025-07-13T1100,1718A,115.4208,35.2464,菏泽市,气象局,,,,47,,27,,,127,,,12,,3,,0.4
2025-07-13T1100,3374A,115.5564,35.0891,菏泽市,定陶老年大学,,39,39,38,17,21,118,,65,65,9,15,2,2,0.3,0.4
2025-07-13T1100,4184A,115.4797,35.24401,菏泽市,永昌路1号,,47,47,45,24,28,141,,86,86,10,13,5,6,0.1,0.2
2025-07-13T1100,4193A,115.4715,35.2800,菏泽市,长城路999号,,44,44,42,20,21,134,,86,86,8,10,4,4,0.4,0.3
2025-07-13T1100,2514A,111.5264,24.4172,贺州市,环保小区,,26,,17,18,13,71,,54,54,19,8,10,11,0.9,0.8
2025-07-13T1100,2515A,111.5608,24.4078,贺州市,政协大楼,,26,,14,18,13,76,,58,58,9,10,12,13,0.7,0.7
2025-07-13T1100,3534A,111.4744,24.4553,贺州市,西湾,,24,14,22,9,12,74,,35,35,6,8,4,5,0.5,0.5
2025-07-13T1100,2385A,114.17,35.9019,鹤壁市,市监测站,细颗粒物(PM2.5),57,51,49,40,43,144,,102,102,7,7,6,6,0.6,0.6
2025-07-13T1100,2386A,114.2956,35.7511,鹤壁市,市交警支队,颗粒物(PM10),55,59,51,37,34,145,,85,85,13,14,4,5,0.8,0.8
2025-07-13T1100,2387A,114.2878,35.7306,鹤壁市,迎宾馆,"颗粒物(PM10),细颗粒物(PM2.5)",52,53,52,36,35,133,,84,84,11,10,4,5,0.7,0.6
2025-07-13T1100,3474A,114.2617,35.6822,鹤壁市,大新区,颗粒物(PM10),55,60,52,30,31,134,,70,70,6,10,6,6,0.5,0.5
2025-07-13T1100,3596A,114.1572,35.9603,鹤壁市,南山宾馆,,46,43,60,25,37,145,,108,108,2,5,3,3,0.7,0.8
2025-07-13T1100,2244A,130.2537,47.3416,鹤岗市,哈啤分公司,,16,6,14,3,7,51,,41,40,2,6,10,10,0.5,0.6
2025-07-13T1100,2245A,130.2684,47.3086,鹤岗市,斯达机电,,18,18,25,11,18,53,,47,41,4,8,11,11,0.4,0.5
2025-07-13T1100,2246A,130.3114,47.3388,鹤岗市,东山纸板厂,,20,20,18,9,13,47,,46,41,3,8,10,10,1.1,1.2
2025-07-13T1100,2247A,130.1097,47.3382,鹤岗市,五号水库,,16,,9,10,5,51,,39,39,5,9,8,7,0.1,0.1
2025-07-13T1100,2263A,127.4833,50.2524,黑河市,交通局,,36,36,26,14,12,55,,,,6,8,6,6,0.1,0.3
2025-07-13T1100,2264A,127.5144,50.2341,黑河市,环保局,,26,26,25,7,11,48,,43,43,16,10,25,10,0.2,0.3
2025-07-13T1100,2265A,127.5291,50.2472,黑河市,大黑河岛,,,,,,,,,,,,,,,,
2025-07-13T1100,1074A,115.6838,37.7541,衡水市,电机北厂,,47,39,51,21,26,150,,98,98,8,10,4,3,0.4,0.4
2025-07-13T1100,1075A,115.6303,37.7316,衡水市,市监测站,,49,48,53,11,21,156,,103,103,8,10,8,8,0.4,0.4
2025-07-13T1100,3188A,115.6683,37.7217,衡水市,市城管局,,50,30,45,11,27,158,,111,111,9,10,11,12,0.3,0.3
2025-07-13T1100,3459A,115.5989,37.5491,衡水市,地表水厂,,50,50,53,12,20,159,,96,96,8,14,6,6,0.2,0.2
2025-07-13T1100,2456A,112.5003,26.9167,衡阳市,原169医院,,31,31,24,17,12,92,,46,46,6,8,7,6,0.5,0.4
2025-07-13T1100,2457A,112.6194,26.9258,衡阳市,衡阳化工总厂,,47,47,29,23,16,73,,46,46,14,12,3,4,0.8,0.6
2025-07-13T1100,2458A,112.6211,26.8956,衡阳市,珠晖区环保局,,33,33,26,19,16,78,,44,44,7,10,4,6,0.8,0.7
2025-07-13T1100,2459A,112.6197,26.8733,衡阳市,市委党校,,25,20,33,17,15,79,,43,43,7,11,8,8,0.6,0.8
2025-07-13T1100,2460A,112.6006,26.8919,衡阳市,市监测站,,,39,25,,18,68,,50,48,16,10,7,4,1.1,0.5
2025-07-13T1100,2461A,112.5664,26.9056,衡阳市,真空机电公司,,39,39,24,18,17,57,,40,35,9,8,4,4,0.7,0.6
2025-07-13T1100,3399A,112.6703,26.882,衡阳市,师范学院,,37,37,26,19,16,79,,38,38,10,8,6,6,0.6,0.6
2025-07-13T1100,2608A,103.3772,23.3993,红河哈尼族彝族自治州,污水处理厂,,35,35,26,19,16,66,,38,38,9,9,18,14,0.3,0.3
2025-07-13T1100,2609A,103.3861,23.35,红河哈尼族彝族自治州,监测站,,35,35,32,17,19,69,,37,37,5,6,14,11,0.4,0.3
2025-07-13T1100,3038A,103.3758,23.368,红河哈尼族彝族自治州,州图书馆,颗粒物(PM10),51,52,22,17,16,51,,32,32,8,7,14,7,0.3,0.2
2025-07-13T1100,1090A,111.6507,40.7517,呼和浩特市,呼市一监,,36,22,26,3,10,114,,72,72,10,12,7,7,0.4,0.5
2025-07-13T1100,1091A,111.6572,40.8033,呼和浩特市,小召,,36,17,20,3,12,114,,65,65,14,21,7,7,0.5,0.5
2025-07-13T1100,1094A,111.7516,40.8369,呼和浩特市,如意水处理厂,,34,16,18,6,9,108,,57,57,11,22,2,1,0.4,0.4
2025-07-13T1100,1095A,111.7276,40.8062,呼和浩特市,二十九中,,37,13,34,3,12,116,,67,67,7,18,5,5,0.6,0.6
2025-07-13T1100,1096A,111.5512,40.7866,呼和浩特市,工大金川校区,,35,26,29,6,11,111,,58,58,17,23,6,5,0.4,0.4
2025-07-13T1100,1097A,111.717,40.7612,呼和浩特市,化肥厂生活区,,37,11,18,3,9,118,,79,79,9,15,6,6,0.3,0.5
2025-07-13T1100,3698A,111.5968,40.8178,呼和浩特市,红旗小学,,39,19,25,3,11,123,,68,68,15,18,3,3,0.3,0.3
2025-07-13T1100,3699A,111.6518,40.8389,呼和浩特市,海东办,,37,14,21,3,9,117,,70,70,13,18,2,1,0.4,0.4
2025-07-13T1100,2192A,119.7594,49.2261,呼伦贝尔市,区环保局,,20,16,30,9,18,62,,30,30,12,22,8,6,0.3,0.2
2025-07-13T1100,3061A,119.7512,49.1577,呼伦贝尔市,国华电力东,,24,15,22,3,12,75,,37,37,5,12,2,10,0.5,0.5
2025-07-13T1100,1250A,120.0751,30.8669,湖州市,城西水厂,,33,33,24,22,14,83,,38,38,5,15,8,6,0.6,0.4
2025-07-13T1100,2873A,120.0830,30.8929,湖州市,仁皇山新区,,49,35,22,34,15,77,,33,33,5,9,6,4,0.7,0.5
2025-07-13T1100,2907A,120.1844,30.8596,湖州市,吴兴区站,,26,21,19,18,13,71,,39,39,2,7,6,7,0.5,0.4
2025-07-13T1100,3562A,120.4148,30.8538,湖州市,南浔区站,,20,15,20,6,15,61,,38,38,3,9,6,6,0.4,0.4
2025-07-13T1100,1607A,120.9049,40.7211,葫芦岛市,龙港区,,34,34,42,3,18,81,,51,51,8,14,3,5,0.4,0.5
2025-07-13T1100,1608A,120.8392,40.7514,葫芦岛市,化工街,,26,12,23,3,11,81,,53,53,9,19,8,10,0.4,0.5
2025-07-13T1100,1609A,120.8341,40.7073,葫芦岛市,新区,,27,21,27,3,16,84,,59,59,8,16,6,6,0.6,0.8
2025-07-13T1100,1610A,120.8695,40.7677,葫芦岛市,东城区,,27,24,30,3,18,84,,62,62,7,14,5,10,0.5,0.6
2025-07-13T1100,2482A,109.5981,27.5721,怀化市,林科所,,25,25,29,11,9,67,,33,33,5,6,4,5,0.5,0.3
2025-07-13T1100,2483A,109.9453,27.5444,怀化市,河西地税局,,32,30,28,22,21,68,,32,32,5,8,2,2,0.2,0.2
2025-07-13T1100,2484A,109.9781,27.5342,怀化市,市四医院,,43,39,37,30,26,75,,38,38,5,6,12,12,0.1,0.5
2025-07-13T1100,2485A,109.9972,27.5578,怀化市,监测楼,,39,39,34,26,24,63,,28,28,1,5,6,9,0.1,0.2
2025-07-13T1100,2486A,110.0394,27.583,怀化市,市委党校,,43,33,39,30,29,76,,28,28,2,9,18,37,0.3,0.3
2025-07-13T1100,1210A,119.036,33.5981,淮安市,钵池山,,38,34,28,26,21,106,,74,74,6,10,10,10,0.5,0.5
2025-07-13T1100,1211A,119.007,33.575,淮安市,北京南路,,46,46,35,25,20,122,,70,70,10,11,8,7,0.7,0.6
2025-07-13T1100,1212A,118.989,33.6067,淮安市,市监测站,细颗粒物(PM2.5),52,51,36,36,23,128,,61,61,5,9,9,9,0.6,0.5
2025-07-13T1100,1213A,119.135,33.5039,淮安市,楚州区监测站,,46,46,38,28,21,120,,72,72,8,11,12,8,0.9,0.6
2025-07-13T1100,3426A,118.8755,33.2894,淮安市,新华书店,,35,26,29,22,20,111,,84,84,6,9,9,9,0.6,0.5
2025-07-13T1100,4206A,119.0288,33.6319,淮安市,承德北路606号,,43,39,36,30,21,111,,68,68,6,11,6,6,0.5,0.6
2025-07-13T1100,2282A,116.8004,33.975,淮北市,监测站,颗粒物(PM10),51,52,34,23,20,129,,97,97,4,6,9,8,0.7,0.5
2025-07-13T1100,2283A,116.8091,33.9007,淮北市,烈山区政府,,47,45,47,20,19,149,,94,94,3,7,10,7,0.6,0.5
2025-07-13T1100,3330A,116.8873,33.9836,淮北市,杜集区检察院,,46,46,34,28,23,136,,89,89,6,7,7,7,0.8,0.6
2025-07-13T1100,4017A,116.7923,33.9535,淮北市,市博物馆,,,37,33,24,21,136,,92,92,5,6,,9,0.7,0.6
2025-07-13T1100,2277A,116.8305,32.7727,淮南市,潘集区政府,,41,41,35,20,15,96,,59,59,4,17,2,3,0.4,0.3
2025-07-13T1100,2279A,116.8569,32.5951,淮南市,谢家集区政府,,38,36,25,24,14,120,,60,60,7,9,8,7,0.2,0.1
2025-07-13T1100,2280A,116.8281,32.633,淮南市,八公山区政府,,40,40,28,20,15,110,,56,56,8,8,6,5,0.3,0.3
2025-07-13T1100,2281A,116.6325,32.6201,淮南市,焦岗湖风景区管理处,,,,,,,,,,,,,,,,
2025-07-13T1100,2894A,117.0566,32.6531,淮南市,经济技术开发区消防队,,30,27,28,9,7,96,,59,59,5,11,8,8,0.2,0.2
2025-07-13T1100,3329A,117.0108,32.5893,淮南市,山南新区,,32,26,24,10,6,101,,65,65,2,3,9,8,0.4,0.4
2025-07-13T1100,4209A,117.0031,32.6445,淮南市,国庆中路369号,,35,,21,24,21,100,,63,63,2,6,10,10,0.5,0.4
2025-07-13T1100,2446A,114.9028,30.4742,黄冈市,职工中心,,30,26,23,19,13,96,,47,47,2,4,7,7,0.3,0.3
2025-07-13T1100,2929A,114.8858,30.4519,黄冈市,红卫路,,31,25,18,13,9,98,,55,55,2,2,7,7,0.4,0.4
2025-07-13T1100,3398A,114.9136,30.4445,黄冈市,市林业局,,29,22,18,10,10,90,,59,59,2,3,6,6,0.2,0.2
2025-07-13T1100,2672A,102.0199,35.5102,黄南藏族自治州,同仁县隆务镇,,23,,29,16,12,54,,35,34,14,14,9,9,0.3,0.2
2025-07-13T1100,2295A,118.2903,29.6963,黄山市,延安路89号,,23,12,9,12,5,71,,37,37,3,3,3,2,0.4,0.4
2025-07-13T1100,2297A,118.1371,30.2756,黄山市,黄山区政府5号楼,,20,,12,3,8,62,,33,33,1,3,4,4,0.3,0.3
2025-07-13T1100,4210A,118.3354,29.7203,黄山市,滨江东路7-2号,,21,16,14,3,6,65,,38,38,2,3,3,3,0.3,0.3
2025-07-13T1100,2423A,115.0601,30.2313,黄石市,沈家营,,31,22,26,7,5,97,,36,36,2,11,7,6,0.4,0.4
2025-07-13T1100,2426A,114.8988,30.2019,黄石市,铁山,,26,23,18,9,5,83,,48,48,4,6,6,6,0.4,0.5
2025-07-13T1100,2427A,115.0307,30.2092,黄石市,团城山,,31,16,18,3,2,98,,43,43,1,6,7,7,0.4,0.3
2025-07-13T1100,3149A,115.0235,30.1578,黄石市,笔架山北路,,28,21,22,7,3,88,,48,48,8,8,5,5,0.3,0.3
2025-07-13T1100,4185A,115.0780,30.21118,黄石市,磁湖东路29号,,30,19,33,10,10,95,,42,42,3,13,9,8,0.5,0.6
2025-07-13T1100,1392A,114.4183,23.0528,惠州市,河南岸金山湖子站,,23,23,19,16,11,64,,27,27,12,10,7,7,0.4,0.5
2025-07-13T1100,1393A,114.4053,23.0822,惠州市,下埔横江三路子站,,27,27,20,13,12,73,,32,32,8,10,4,5,0.4,0.5
2025-07-13T1100,1394A,114.4103,23.1142,惠州市,江北云山西路子站,,25,25,21,14,10,78,,36,36,4,9,7,8,0.5,0.5
2025-07-13T1100,1395A,114.4645,22.7833,惠州市,惠阳区承修路船湖子站,,22,22,28,10,14,58,,23,23,6,14,6,6,0.4,0.6
2025-07-13T1100,1396A,114.5317,22.7422,惠州市,大亚湾管委会子站,,19,16,21,13,11,56,,27,27,4,15,7,6,0.6,0.6
2025-07-13T1100,3314A,114.4338,22.8134,惠州市,惠阳秋长,,27,27,24,11,12,55,,26,26,12,19,1,3,0.3,0.4
2025-07-13T1100,3452A,114.6517,22.775,惠州市,大亚湾霞涌,,35,35,25,22,10,57,,40,40,6,7,5,5,0.6,0.7
2025-07-13T1100,2240A,130.9762,45.3001,鸡西市,环保局,,36,24,27,10,13,115,,112,112,6,9,4,5,0.1,0.2
2025-07-13T1100,2243A,130.9429,45.3039,鸡西市,第一中学,,35,24,23,10,12,110,,106,106,5,10,8,8,0.0,0.1
2025-07-13T1100,3707A,131.0207,45.3073,鸡西市,欧美日汽修厂,,35,25,28,13,16,109,,105,105,14,13,9,8,0.2,0.3
2025-07-13T1100,3709A,130.9967,45.3106,鸡西市,市政设施管理处,,37,26,28,13,14,116,,112,112,10,13,5,5,0.3,0.3
2025-07-13T1100,2367A,114.9754,27.0803,吉安市,红声器材厂,,25,25,21,10,7,71,,34,34,3,6,7,9,0.6,0.6
2025-07-13T1100,2368A,114.9658,27.0999,吉安市,市森林工业局,,24,19,19,11,7,75,,32,32,1,6,8,8,0.4,0.3
2025-07-13T1100,2369A,114.99,27.1312,吉安市,市环境监测站,,28,17,15,10,6,88,,38,38,1,3,12,14,0.5,0.5
2025-07-13T1100,2370A,115.0093,27.0968,吉安市,青原区法院,,24,22,19,8,8,75,,37,37,7,11,6,8,0.7,0.6
2025-07-13T1100,1772A,126.54,43.8622,吉林市,哈达湾,,27,20,37,18,21,85,,72,60,11,12,16,11,0.4,0.6
2025-07-13T1100,1773A,126.5844,43.8358,吉林市,东局子,,46,46,42,29,26,88,,69,62,13,13,18,7,0.9,0.8
2025-07-13T1100,1774A,126.5052,43.8245,吉林市,电力学院,,29,12,41,10,24,91,,67,62,4,10,7,10,0.5,0.7
2025-07-13T1100,1775A,126.6133,43.8972,吉林市,江北,,,,35,,19,,,123,,,12,,9,,0.7
2025-07-13T1100,1776A,126.555,43.8306,吉林市,江南公园,,32,28,39,22,26,82,,70,58,14,11,9,4,2.3,0.7
2025-07-13T1100,1778A,126.7061,43.7133,吉林市,丰满,,,,,,,,,,,,,,,,
2025-07-13T1100,2868A,126.4739,43.953,吉林市,九站,,26,,38,17,21,83,,52,52,7,18,7,7,0.4,0.6
2025-07-13T1100,1299A,116.9862,36.6114,济南市,科干所,细颗粒物(PM2.5),53,48,44,37,32,160,,114,114,13,15,8,6,0.5,0.4
2025-07-13T1100,1300A,116.9376,36.665,济南市,农科所,颗粒物(PM10),52,54,51,34,25,157,,97,97,10,15,10,8,0.4,0.4
2025-07-13T1100,1301A,117.1265,36.6734,济南市,开发区,,50,44,45,32,29,160,,115,115,14,17,9,8,0.6,0.6
2025-07-13T1100,1303A,117.0624,36.6868,济南市,省种子仓库,臭氧1小时,68,56,50,29,27,174,,118,118,8,19,6,6,0.6,0.6
2025-07-13T1100,1304A,116.9489,36.6447,济南市,机床二厂,颗粒物(PM10),56,61,54,32,28,163,,101,101,12,19,9,7,0.6,0.5
2025-07-13T1100,1305A,117.0495,36.663,济南市,市监测站,,50,,23,32,30,157,,105,105,16,21,9,8,0.6,0.6
2025-07-13T1100,1306A,116.7675,36.5484,济南市,长清党校,细颗粒物(PM2.5),70,61,44,51,35,134,,94,94,11,13,4,6,0.5,0.6
2025-07-13T1100,1616A,117.6795,36.229,济南市,技术学院,,48,39,22,29,18,151,,96,96,8,12,10,11,0.7,0.6
2025-07-13T1100,1961A,117.532,36.6868,济南市,东山小学,"颗粒物(PM10),细颗粒物(PM2.5)",53,56,47,37,29,161,,103,103,9,13,8,7,0.3,0.3
2025-07-13T1100,3059A,117.7161,36.2049,济南市,泰兴公司,,48,48,31,29,20,141,,74,74,8,14,11,10,0.6,0.6
2025-07-13T1100,3064A,117.6867,36.2171,济南市,莱芜战役纪念馆,颗粒物(PM10),52,53,34,26,21,145,,87,87,5,10,11,11,1.1,1.1
2025-07-13T1100,3494A,117.1673,36.9782,济南市,济阳区政府,颗粒物(PM10),61,71,62,34,30,147,,87,87,9,19,7,8,0.2,0.3
2025-07-13T1100,3495A,117.1171,36.63,济南市,锦屏中学,臭氧1小时,58,49,43,29,28,166,,119,119,11,12,8,7,0.6,0.6
2025-07-13T1100,3682A,116.9814,36.6819,济南市,济南四建,臭氧1小时,63,58,48,39,31,170,,110,110,12,17,7,6,0.6,0.6
2025-07-13T1100,1653A,116.6251,35.4302,济宁市,火炬城,,47,47,39,24,20,126,,77,77,8,9,6,4,0.5,0.5
2025-07-13T1100,1655A,116.5491,35.4042,济宁市,电化厂,,46,46,43,27,27,138,,77,77,6,15,7,5,0.6,0.6
2025-07-13T1100,3500A,116.5814,35.3707,济宁市,北湖一中,,41,41,41,28,22,131,,77,77,10,14,7,5,0.3,0.3
2025-07-13T1100,3501A,116.8249,35.5593,济宁市,服务中心,,42,42,43,20,18,132,,73,73,8,15,4,4,0.2,0.2
2025-07-13T1100,3678A,116.5907,35.4054,济宁市,市第七中学,,46,46,50,19,16,121,,73,73,6,9,7,6,0.4,0.4
2025-07-13T1100,2255A,130.2751,46.8028,佳木斯市,佳纺,,20,14,26,9,14,63,,45,45,8,17,7,7,0.3,0.3
2025-07-13T1100,2256A,130.3995,46.8307,佳木斯市,发电厂,,21,18,29,3,14,67,,48,48,9,19,5,5,0.2,0.3
2025-07-13T1100,2257A,130.3258,46.7975,佳木斯市,环保局,,22,17,29,8,15,69,,52,52,8,20,8,8,0.5,0.5
2025-07-13T1100,2258A,130.3648,46.8032,佳木斯市,十一中,,23,17,26,10,15,71,,57,56,8,15,5,4,0.5,0.5
2025-07-13T1100,2259A,130.3794,46.7588,佳木斯市,四丰,,,,,,,6,,,,8,16,1,30,0.5,0.6
2025-07-13T1100,1252A,120.7436,30.778,嘉兴市,清河小学,,25,24,20,14,11,77,,46,46,8,9,8,8,0.8,0.8
2025-07-13T1100,1253A,120.726,30.7478,嘉兴市,嘉兴学院,,28,26,20,19,14,88,,46,46,7,7,5,5,0.5,0.5
2025-07-13T1100,2872A,120.7846,30.7525,嘉兴市,南湖区残联,,25,19,19,11,12,79,,44,44,4,6,8,8,0.6,0.5
2025-07-13T1100,3407A,120.6916,30.7739,嘉兴市,秀洲住建,,29,22,21,19,15,92,,48,48,7,8,6,6,0.5,0.6
2025-07-13T1100,1945A,98.2908,39.7711,嘉峪关市,气象局,颗粒物(PM10),75,100,189,31,57,81,,95,93,13,6,10,11,1.2,1.2
2025-07-13T1100,2884A,98.2672,39.7978,嘉峪关市,酒钢宾馆,颗粒物(PM10),80,110,222,36,64,81,,104,100,21,5,13,12,1.2,0.5
2025-07-13T1100,3248A,98.2643,39.7724,嘉峪关市,雄关区,颗粒物(PM10),66,81,158,24,47,79,,91,89,15,11,8,9,0.8,0.7
2025-07-13T1100,1383A,113.1064,22.6058,江门市,北街,,31,31,25,16,10,58,,25,25,2,6,2,2,0.4,0.4
2025-07-13T1100,1384A,113.0731,22.5835,江门市,西区,,20,14,23,6,13,64,,34,34,7,12,4,4,0.6,0.5
2025-07-13T1100,1385A,113.0219,22.5311,江门市,圭峰西,,45,45,26,16,10,66,,36,36,6,9,4,4,0.5,0.5
2025-07-13T1100,1386A,113.0828,22.5947,江门市,东湖,,25,25,15,16,11,61,,34,34,7,12,8,8,0.4,0.4
2025-07-13T1100,3311A,113.1075,22.5647,江门市,江海富民,,44,44,38,17,14,68,,33,33,4,11,7,7,0.2,0.3
2025-07-13T1100,3449A,113.05,22.4667,江门市,新会银湖,,37,37,23,14,13,62,,26,26,4,11,3,2,0.5,0.6
2025-07-13T1100,1830A,113.1992,35.2590,焦作市,影视城,,,,,,,,,,,,,,,,
2025-07-13T1100,3169A,113.2725,35.2067,焦作市,太极体育中心,,,,,,,,,,,,,,,,
2025-07-13T1100,3335A,113.3137,35.2641,焦作市,马村街道办,,,,54,38,38,154,,94,94,11,13,10,9,0.6,0.6
2025-07-13T1100,3336A,113.2465,35.2373,焦作市,焦作技师学院,颗粒物(PM10),55,60,50,29,25,159,,105,105,14,11,3,3,0.9,0.7
2025-07-13T1100,3477A,113.1656,35.2539,焦作市,中站许衡医院,颗粒物(PM10),59,67,49,36,31,142,,101,101,16,13,18,7,0.7,0.5
2025-07-13T1100,3981A,113.2449,35.1803,焦作市,原李万街道办,,50,42,58,29,26,158,,84,84,12,12,15,10,0.5,0.4
2025-07-13T1100,4264A,113.2340,35.2190,焦作市,新安路1731号,臭氧1小时,58,54,50,33,25,166,,99,99,10,9,8,4,0.8,0.6
2025-07-13T1100,1708A,116.3701,23.5345,揭阳市,新兴,颗粒物(PM10),51,52,40,18,16,59,,21,21,13,19,4,5,0.7,0.9
2025-07-13T1100,1709A,116.3264,23.5443,揭阳市,西马,,37,37,49,18,20,48,,19,19,9,19,1,2,0.6,1
2025-07-13T1100,1710A,116.3611,23.5626,揭阳市,东兴,,43,43,32,16,14,50,,19,19,7,16,2,3,0.8,0.9
2025-07-13T1100,1711A,116.4151,23.5294,揭阳市,渔湖,颗粒物(PM10),54,57,44,21,16,58,,17,17,19,19,8,8,0.7,0.6
2025-07-13T1100,3320A,116.403,23.5699,揭阳市,曲溪,,40,37,36,28,19,67,,25,25,22,22,4,6,0.7,0.8
2025-07-13T1100,1944A,102.1692,38.5167,金昌市,天庆家园,颗粒物(PM10),269,398,134,69,43,84,,63,63,3,9,8,34,0.7,0.9
2025-07-13T1100,4022A,102.1647,38.5371,金昌市,金川区人防中心,颗粒物(PM10),285,409,135,85,47,84,,57,57,4,6,8,9,0.5,0.6
2025-07-13T1100,4239A,102.1930,38.5319,金昌市,长春路96号,颗粒物(PM10),313,430,147,78,45,90,,68,68,1,3,14,19,0.8,0.6
2025-07-13T1100,1262A,119.647,29.077,金华市,十五中,,32,32,20,15,11,54,,42,42,18,17,2,2,0.5,0.5
2025-07-13T1100,1263A,119.686,29.1029,金华市,监测站,,42,42,24,19,14,56,,28,28,9,16,3,2,0.4,0.5
2025-07-13T1100,3659A,119.656,29.1131,金华市,气象局,,34,34,26,13,11,39,,23,23,17,23,2,3,0.5,0.5
2025-07-13T1100,1767A,121.1115,41.0879,锦州市,南山,,27,20,30,9,16,84,,63,63,3,6,4,6,0.5,0.6
2025-07-13T1100,1768A,121.0604,40.8428,锦州市,开发区,,27,12,38,3,15,86,,54,54,7,18,4,5,0.5,0.7
2025-07-13T1100,1769A,121.1836,41.1119,锦州市,百股街道,,28,22,24,3,8,89,,75,72,5,7,6,6,0.5,0.6
2025-07-13T1100,1770A,121.1178,41.1222,锦州市,天安街道,,27,12,31,11,18,84,,68,67,5,10,4,7,0.5,0.6
2025-07-13T1100,1771A,121.1303,41.1386,锦州市,北湖公园,,,,50,5,18,66,,,,,8,6,6,2.4,0.8
2025-07-13T1100,2160A,112.85,35.5051,晋城市,自来水公司,颗粒物(PM10),75,100,65,44,35,142,,80,80,14,14,4,4,1.7,0.7
2025-07-13T1100,2161A,112.8318,35.4936,晋城市,白云商贸,颗粒物(PM10),53,56,57,36,23,132,,68,68,16,14,6,6,1.4,0.6
2025-07-13T1100,2162A,112.8508,35.4887,晋城市,市环保局,颗粒物(PM10),68,85,68,31,31,137,,75,75,15,15,12,8,1.4,0.5
2025-07-13T1100,2163A,112.8676,35.4897,晋城市,技术学院,细颗粒物(PM2.5),55,56,45,39,30,128,,71,71,11,11,7,6,1.7,0.7
2025-07-13T1100,2165A,112.8453,35.546,晋城市,白马寺,细颗粒物(PM2.5),68,,41,49,37,138,,93,93,12,6,6,6,2.1,0.9
2025-07-13T1100,3620A,112.8271,35.4828,晋城市,泽州一中,"颗粒物(PM10),细颗粒物(PM2.5)",55,59,53,39,27,143,,75,75,8,8,3,4,1.4,0.9
2025-07-13T1100,2173A,112.7249,37.7067,晋中市,南都小区,颗粒物(PM10),57,64,55,31,32,122,,62,62,15,10,10,4,0.9,0.6
2025-07-13T1100,2174A,112.6991,37.6982,晋中市,榆次区政府,颗粒物(PM10),63,75,51,27,24,118,,59,59,17,10,14,8,0.9,0.6
2025-07-13T1100,2865A,112.7195,37.6828,晋中市,榆次三中,颗粒物(PM10),65,80,49,46,29,129,,63,63,16,12,18,8,1.5,0.7
2025-07-13T1100,4200A,112.7478,37.6954,晋中市,迎宾街26号,颗粒物(PM10),64,78,49,41,28,137,,62,62,17,12,13,8,1.4,0.7
2025-07-13T1100,2439A,112.2014,31.0481,荆门市,竹园小学,,47,47,44,27,27,108,,74,74,8,10,3,1,0.6,0.6
2025-07-13T1100,2440A,112.1969,30.9891,荆门市,掇刀,,37,31,35,24,27,116,,94,94,12,13,8,7,0.5,0.6
2025-07-13T1100,2441A,112.2213,31.0386,荆门市,石化一小,颗粒物(PM10),53,56,46,35,31,115,,76,76,6,9,11,10,0.3,0.4
2025-07-13T1100,3012A,112.1849,31.0362,荆门市,西山林语,,36,22,35,21,25,114,,85,85,2,4,11,12,0.4,0.5
2025-07-13T1100,3547A,112.1632,31.0138,荆门市,龙泉中学南校,,35,25,34,18,25,110,,92,92,4,7,5,5,0.4,0.4
2025-07-13T1100,1844A,112.2494,30.3197,荆州市,市图书馆,,50,,20,35,20,97,,67,67,3,7,3,3,0.5,0.4
2025-07-13T1100,1845A,112.2008,30.3544,荆州市,市委党校,,36,,23,25,21,97,,62,62,7,12,3,3,0.6,0.6
2025-07-13T1100,3194A,112.2747,30.3122,荆州市,管委会,,29,,20,20,18,87,,57,57,6,9,6,5,0.4,0.4
2025-07-13T1100,4268A,112.1722,30.3366,荆州市,学苑路85号,,30,,20,19,21,95,,59,59,2,9,5,4,0.4,0.4
2025-07-13T1100,2342A,117.3102,29.3867,景德镇市,王港中学,,,,,,,,,,,,,,,,
2025-07-13T1100,2343A,117.2117,29.2933,景德镇市,老干部活动中心,,21,10,8,3,4,65,,40,40,5,7,6,6,0.6,0.6
2025-07-13T1100,2344A,117.1894,29.2789,景德镇市,兽医站,,21,21,19,6,7,65,,40,40,5,7,3,5,0.6,0.6
2025-07-13T1100,2345A,117.1547,29.2617,景德镇市,台达陶瓷,,29,29,16,3,9,60,,40,40,14,12,11,32,1.0,0.7
2025-07-13T1100,2346A,117.2461,29.2956,景德镇市,陶研所,,24,24,14,3,7,61,,33,33,11,7,4,4,0.5,0.5
2025-07-13T1100,1803A,115.9872,29.6815,九江市,十里,,24,17,14,16,16,76,,46,46,7,9,4,4,0.5,0.5
2025-07-13T1100,1804A,115.9584,29.7046,九江市,茅山头,,36,,19,25,14,69,,44,44,6,9,4,4,0.5,0.5
2025-07-13T1100,1805A,115.9877,29.7295,九江市,西园,,,23,16,8,10,79,,47,47,,13,4,4,1.1,1
2025-07-13T1100,1808A,115.9114,29.6038,九江市,综合工业园,,34,34,17,16,8,64,,36,36,13,15,6,6,0.9,0.8
2025-07-13T1100,1809A,116.0721,29.7535,九江市,石化总厂,,28,28,22,17,22,71,,39,39,10,14,6,6,0.5,0.4
2025-07-13T1100,1810A,115.9773,29.5698,九江市,庐山气象台,,18,12,11,3,5,57,,52,51,6,4,6,6,1.0,0.7
2025-07-13T1100,3190A,116.0254,29.6994,九江市,外国语学校,,26,22,14,18,12,71,,44,44,10,9,7,5,0.8,0.8
2025-07-13T1100,4253A,116.0102,29.6594,九江市,莲花大道8号,,20,,10,12,11,61,,38,38,7,2,4,4,0.6,0.6
2025-07-13T1100,4240A,98.4958,39.7339,酒泉市,玉门东路5号,颗粒物(PM10),69,88,209,35,71,91,,88,87,6,5,10,10,0.2,0.2
2025-07-13T1100,4241A,98.5099,39.7506,酒泉市,北大街108号,颗粒物(PM10),71,92,273,36,59,96,,91,88,4,5,11,12,0.2,0.3
2025-07-13T1100,2698A,76.0072,39.4467,喀什地区,巡警大队,颗粒物(PM10),91,131,95,10,21,94,,80,80,19,21,4,4,0.3,0.3
2025-07-13T1100,2699A,75.9755,39.4694,喀什地区,吾办,颗粒物(PM10),116,181,109,43,36,98,,71,71,13,23,8,9,0.4,0.5
2025-07-13T1100,4027A,75.9483,39.4689,喀什地区,老干局,颗粒物(PM10),87,124,114,24,28,100,,69,69,12,22,5,6,0.3,0.5
2025-07-13T1100,1824A,114.3389,34.7781,开封市,肿瘤医院,,47,44,48,21,26,149,,84,84,10,15,2,2,0.5,0.5
2025-07-13T1100,1826A,114.2885,34.7965,开封市,世纪星幼儿园,,41,37,56,14,32,129,,72,72,7,20,4,4,0.5,0.5
2025-07-13T1100,3147A,114.3438,34.8106,开封市,龙亭公园,,44,43,44,22,39,139,,83,83,5,13,2,2,0.5,0.5
2025-07-13T1100,3210A,114.3644,34.7964,开封市,汴京公园,,50,50,49,19,28,138,,84,84,8,12,4,4,0.4,0.5
2025-07-13T1100,3473A,114.2485,34.8306,开封市,技师学院,,44,39,52,10,30,138,,86,86,5,22,4,4,0.4,0.5
2025-07-13T1100,3592A,114.4644,34.7556,开封市,祥符区生态环境局,,45,43,43,24,25,144,,66,66,11,26,5,4,0.4,0.5
2025-07-13T1100,1951A,84.895,45.6094,克拉玛依市,长征新村,,28,28,21,3,5,80,,71,63,8,8,3,3,0.2,0.2
2025-07-13T1100,1952A,84.8988,45.5893,克拉玛依市,南林小区,,24,24,20,3,11,76,,62,53,10,8,5,5,0.2,0.1
2025-07-13T1100,1954A,84.905,44.3396,克拉玛依市,独山子区,,31,7,17,3,6,98,,106,102,10,7,7,8,0.2,0.3
2025-07-13T1100,1955A,85.6979,46.098,克拉玛依市,乌尔禾区商贸楼,,22,10,17,3,5,69,,69,56,8,4,5,5,0.4,0.4
2025-07-13T1100,3612A,85.1045,45.6899,克拉玛依市,白碱滩区新站,,29,24,34,8,16,90,,89,85,6,3,9,8,0.6,0.4
2025-07-13T1100,2697A,76.1454,39.7142,克孜勒苏柯尔克孜自治州,市人民政府,颗粒物(PM10),75,100,83,28,23,108,,82,82,10,13,3,5,0.2,0.2
2025-07-13T1100,3665A,76.1658,39.7157,克孜勒苏柯尔克孜自治州,克州文化中心,颗粒物(PM10),72,94,86,27,26,110,,96,96,3,8,4,4,0.2,0.3
2025-07-13T1100,1450A,102.8204,24.8886,昆明市,呈贡新区,,40,29,22,28,25,73,,40,40,14,19,6,4,0.5,0.4
2025-07-13T1100,1451A,102.6251,24.9608,昆明市,西山森林公园,,,,,,,,,,,,,,,,
2025-07-13T1100,1452A,102.7252,25.0902,昆明市,龙泉镇,,31,31,21,16,11,56,,29,29,11,10,3,1,0.5,0.3
2025-07-13T1100,1453A,102.7266,25.0375,昆明市,东风东路,,42,42,31,26,17,72,,53,53,19,16,6,5,0.4,0.3
2025-07-13T1100,1454A,102.6742,25.0669,昆明市,金鼎山,,43,43,25,22,13,80,,52,52,12,12,3,3,0.4,0.3
2025-07-13T1100,1455A,102.6644,25.0401,昆明市,碧鸡广场,,33,33,26,20,16,78,,54,54,13,13,7,5,0.4,0.4
2025-07-13T1100,3179A,102.7494,25.0119,昆明市,官渡区博物馆,,33,33,24,20,14,74,,32,32,15,23,3,3,0.4,0.4
2025-07-13T1100,3375A,102.8017,24.8336,昆明市,青年创业园,,40,39,31,28,22,70,,50,44,11,12,5,3,0.4,0.3
2025-07-13T1100,3550A,102.7997,24.9786,昆明市,昆明学院,,48,48,36,32,20,57,,22,22,29,27,8,6,0.5,0.4
2025-07-13T1100,3551A,102.5967,24.6736,昆明市,晋宁区生态环境分局,,30,30,28,19,17,80,,31,31,11,14,3,4,0.3,0.4
2025-07-13T1100,3552A,102.6678,24.9856,昆明市,云天化总部,,35,33,26,24,19,79,,42,42,12,16,4,4,0.4,0.4
2025-07-13T1100,1456A,91.1319,29.6514,拉萨市,八廓街,,29,7,13,3,7,92,,98,95,14,8,5,6,0.3,0.2
2025-07-13T1100,1457A,91.1221,29.6747,拉萨市,市环保局,,26,,18,8,8,82,,98,90,14,9,4,5,0.4,0.3
2025-07-13T1100,1458A,91.0874,29.6475,拉萨市,区监测站,,27,7,15,3,8,84,,97,91,19,11,6,7,0.4,0.3
2025-07-13T1100,1459A,91.1774,29.6541,拉萨市,西藏大学,,28,6,15,3,7,89,,96,92,11,8,5,5,0.3,0.2
2025-07-13T1100,1460A,90.9798,29.6588,拉萨市,区辐射站,,21,7,19,7,9,67,,94,82,26,10,6,6,0.3,0.2
2025-07-13T1100,1461A,91.0834,29.6292,拉萨市,拉萨火车站,,31,6,18,3,7,98,,103,100,6,4,4,4,0.2,0.2
2025-07-13T1100,2520A,109.2203,23.7256,来宾市,来宾技工学校,,17,17,26,10,15,30,,17,17,26,13,17,10,0.9,0.6
2025-07-13T1100,3535A,109.1781,23.7297,来宾市,兴宾区政府,,19,13,17,13,12,52,,20,20,7,10,5,5,0.6,0.5
2025-07-13T1100,4002A,109.2416,23.7461,来宾市,中南小学,,12,,27,8,15,27,,14,14,22,13,5,8,0.7,0.6
2025-07-13T1100,1477A,104.1373,35.9454,兰州市,榆中兰大校区,,,,,,,,,,,,,,,,
2025-07-13T1100,1479A,103.831,36.0464,兰州市,铁路设计院,,38,38,35,21,22,88,,55,55,24,16,8,7,0.4,0.3
2025-07-13T1100,3241A,103.7439,36.0842,兰州市,百合公园,,29,22,26,11,15,92,,54,54,4,9,4,5,0.4,0.3
2025-07-13T1100,3242A,103.9611,35.998,兰州市,和平,,30,25,33,12,13,94,,56,56,7,9,10,9,0.5,0.5
2025-07-13T1100,4236A,103.6293,36.0938,兰州市,庄浪东路808号,,44,44,34,20,24,109,,48,48,20,19,12,10,0.4,0.3
2025-07-13T1100,4237A,103.7251,36.1043,兰州市,安宁西路88号,,34,31,28,22,19,106,,66,66,4,4,5,5,0.3,0.3
2025-07-13T1100,4238A,103.8470,36.0676,兰州市,北滨河东路1号,,30,24,27,10,21,95,,59,59,12,14,7,6,0.5,0.4
2025-07-13T1100,3245A,103.6633,36.533,兰州新区,新区管委会,,33,25,25,15,15,103,,76,76,6,6,6,6,0.4,0.3
2025-07-13T1100,3246A,103.6975,36.4789,兰州新区,舟曲中学,,30,28,27,17,13,93,,73,73,7,7,5,4,0.4,0.3
2025-07-13T1100,1067A,116.6708,39.5111,廊坊市,药材公司,,39,30,46,3,18,124,,64,64,8,17,4,3,0.2,0.3
2025-07-13T1100,1068A,116.7214,39.5589,廊坊市,开发区,,40,27,40,7,21,127,,52,52,9,20,1,2,0.2,0.3
2025-07-13T1100,1070A,116.7244,39.5269,廊坊市,北华航天学院,,40,28,53,6,17,128,,64,64,6,12,2,2,0.2,0.3
2025-07-13T1100,2919A,116.7022,39.5453,廊坊市,河北工业大学,,,,48,,18,124,,57,57,,18,3,4,0.2,0.3
2025-07-13T1100,2535A,103.7723,29.5462,乐山市,花湖湾,,38,35,23,26,18,89,,35,35,18,12,2,2,0.9,1
2025-07-13T1100,2536A,103.7627,29.5844,乐山市,牛耳桥,,36,31,24,25,18,112,,33,33,13,19,7,6,0.9,0.7
2025-07-13T1100,2537A,103.7508,29.6006,乐山市,市第三水厂,,36,27,26,25,19,109,,32,32,13,23,5,3,0.9,0.8
2025-07-13T1100,2538A,103.7571,29.5664,乐山市,市监测站,,49,49,30,20,17,103,,39,39,12,17,8,9,1.0,1.1
2025-07-13T1100,3361A,103.7311,29.5628,乐山市,理工大学,,,,80,,35,,,42,,,32,,15,,1.1
2025-07-13T1100,2598A,100.2143,26.8576,丽江市,西南郊,,25,21,17,6,9,78,,60,59,11,8,6,6,0.8,0.7
2025-07-13T1100,2599A,100.2497,26.8802,丽江市,丽江古城,,22,21,21,15,10,67,,58,54,12,11,9,9,0.5,0.5
2025-07-13T1100,2600A,100.2203,26.8906,丽江市,市中心,,23,22,14,12,11,72,,54,52,14,14,8,8,0.8,0.7
2025-07-13T1100,1267A,119.914,28.4514,丽水市,监测站大楼,,12,6,18,3,6,36,,17,17,15,13,3,3,0.5,0.4
2025-07-13T1100,1268A,119.93,28.4586,丽水市,莲都小学,,14,8,24,6,5,42,,16,16,11,14,3,3,0.4,0.4
2025-07-13T1100,1269A,119.879,28.4231,丽水市,余庄前,,11,10,21,3,6,35,,10,10,7,5,4,4,0.5,0.5
2025-07-13T1100,1173A,119.176,34.5885,连云港市,市环境监测站,,48,48,34,31,23,125,,63,63,15,15,3,3,0.4,0.4
2025-07-13T1100,3000A,119.3581,34.6972,连云港市,德源药业,,48,48,33,24,17,124,,59,59,17,17,5,4,0.6,0.6
2025-07-13T1100,3007A,119.178,34.844,连云港市,新城一中,,46,39,28,28,22,145,,77,77,11,15,9,6,0.8,0.8
2025-07-13T1100,3008A,119.3608,34.7519,连云港市,胡沟管理处,,45,41,27,31,18,126,,62,62,21,19,8,6,0.5,0.5
2025-07-13T1100,3009A,119.1478,34.5911,连云港市,矿山设计院,,46,46,35,29,20,116,,52,52,5,7,3,2,0.2,0.2
2025-07-13T1100,3434A,119.2413,34.6539,连云港市,工贸学校,颗粒物(PM10),51,52,33,35,24,138,,78,78,8,7,10,7,0.6,0.6
2025-07-13T1100,3664A,119.4172,34.7341,连云港市,连云街道,,50,47,33,35,22,134,,92,92,16,12,7,5,0.6,0.5
2025-07-13T1100,2571A,102.3431,27.8099,凉山彝族自治州,青龙寺,,,23,17,8,5,75,,35,35,10,9,,5,0.8,0.6
2025-07-13T1100,2572A,102.2721,27.8415,凉山彝族自治州,邛海宾馆,,23,22,18,16,11,70,,45,44,12,11,12,10,0.5,0.4
2025-07-13T1100,2573A,102.2625,27.898,凉山彝族自治州,西昌市政府,,39,,16,27,11,78,,48,48,14,9,7,6,0.5,0.3
2025-07-13T1100,2574A,102.2685,27.8851,凉山彝族自治州,凉山州政府,,28,28,17,14,11,73,,45,45,18,13,10,9,0.6,0.5
2025-07-13T1100,4229A,102.2342,27.8859,凉山彝族自治州,凯乐南路30号,,34,34,21,21,12,55,,36,31,24,15,8,8,0.6,0.5
2025-07-13T1100,2212A,123.2,41.1953,辽阳市,宏伟区,,37,37,37,8,15,111,,84,84,7,14,3,3,0.5,0.7
2025-07-13T1100,2213A,123.1683,41.2495,辽阳市,新华园,,37,17,39,8,18,116,,98,98,6,13,6,8,0.3,0.6
2025-07-13T1100,2214A,123.2354,41.2639,辽阳市,滨河路,,36,14,39,6,17,113,,89,89,5,11,4,3,0.1,0.3
2025-07-13T1100,2215A,123.149,41.2991,辽阳市,铁西工业园,,31,14,44,3,16,99,,76,76,4,12,4,5,0.5,0.7
2025-07-13T1100,2227A,125.1358,42.8845,辽源市,环保局,,30,15,27,8,12,94,,98,92,8,10,6,8,0.2,0.3
2025-07-13T1100,3239A,125.0764,42.9078,辽源市,银鹰制药,,31,12,25,9,16,97,,97,91,5,12,5,6,0.3,0.3
2025-07-13T1100,1625A,115.9848,36.4372,聊城市,区政府,细颗粒物(PM2.5),54,56,53,38,35,162,,90,90,7,18,6,7,0.7,0.8
2025-07-13T1100,2878A,116.0072,36.4343,聊城市,聊大东校,,,56,60,52,40,162,,78,78,8,27,,5,0.7,0.7
2025-07-13T1100,3200A,115.9819,36.4978,聊城市,监控中心,,50,45,54,34,32,159,,88,88,6,32,8,7,0.7,0.7
2025-07-13T1100,3513A,116.0445,36.4361,聊城市,九州社区,臭氧1小时,60,57,60,36,35,168,,89,89,11,18,3,4,0.5,0.5
2025-07-13T1100,4018A,116.0567,36.4608,聊城市,星美广场,颗粒物(PM10),54,58,68,36,39,158,,90,90,10,23,5,5,0.7,0.6
2025-07-13T1100,2632A,94.3681,29.6376,林芝市,林芝监测站,,19,15,12,13,11,48,,34,32,6,4,5,5,0.4,0.4
2025-07-13T1100,2633A,94.3616,29.6616,林芝市,林芝人民医院,,14,10,15,8,10,43,,33,29,4,2,4,4,0.3,0.3
2025-07-13T1100,2603A,100.0781,23.8982,临沧市,市环保局,,26,26,21,9,16,60,,30,30,8,6,8,7,0.3,0.3
2025-07-13T1100,2604A,100.0894,23.8822,临沧市,市气象局,,30,30,18,16,14,48,,25,25,16,8,9,9,0.6,0.5
2025-07-13T1100,1733A,111.5531,36.0783,临汾市,临钢医院,颗粒物(PM10),56,61,55,30,24,132,,63,63,8,12,6,6,0.7,0.6
2025-07-13T1100,1734A,111.5028,36.0714,临汾市,技工学校,细颗粒物(PM2.5),54,54,56,38,38,143,,70,70,8,14,2,3,0.6,0.5
2025-07-13T1100,1736A,111.5018,36.0855,临汾市,市委,颗粒物(PM10),53,55,66,28,26,150,,73,73,7,14,7,6,0.8,0.7
2025-07-13T1100,3018A,111.505,36.1014,临汾市,唐尧大酒店,颗粒物(PM10),59,67,64,28,24,138,,61,61,10,16,2,2,0.7,0.5
2025-07-13T1100,4244A,111.4879,36.0530,临汾市,启星学校,颗粒物(PM10),57,64,54,38,38,127,,59,59,7,14,4,4,0.9,0.7
2025-07-13T1100,4271A,103.2464,35.6123,临夏回族自治州,滨河东路1号,,37,37,33,14,13,67,,28,28,5,10,4,4,0.3,0.3
2025-07-13T1100,4310A,103.2093,35.5995,临夏回族自治州,新华街21号,,39,39,32,21,18,78,,34,34,5,8,6,5,0.3,0.3
2025-07-13T1100,1618A,118.3429,35.0532,临沂市,沂河小区,颗粒物(PM10),57,63,37,35,29,122,,68,68,20,20,14,11,0.5,0.4
2025-07-13T1100,1619A,118.295,35.0583,临沂市,鲁南制药厂,颗粒物(PM10),56,61,37,28,24,126,,64,64,13,15,13,10,0.5,0.4
2025-07-13T1100,1620A,118.2794,34.9976,临沂市,新光毛纺厂,,39,39,29,24,23,116,,67,67,11,16,10,11,0.5,0.4
2025-07-13T1100,1621A,118.3956,35.0888,临沂市,河东保险公司,颗粒物(PM10),54,58,31,31,16,126,,72,72,22,16,10,7,0.5,0.4
2025-07-13T1100,3370A,118.3564,35.0215,临沂市,十里堡居委,,48,48,29,24,18,132,,77,77,13,15,14,12,0.6,0.5
2025-07-13T1100,3496A,118.3604,35.1084,临沂市,南坊新区,,,70,38,31,16,128,,72,72,26,18,14,10,,0.4
2025-07-13T1100,3860A,118.3920,35.0300,临沂市,皇山花园小区,颗粒物(PM10),57,63,32,30,22,123,,72,72,16,15,14,12,0.5,0.4
2025-07-13T1100,1870A,109.4856,24.3895,柳州市,柳东小学,,42,40,36,29,25,76,,32,32,4,9,7,16,0.5,0.5
2025-07-13T1100,1871A,109.4157,24.3277,柳州市,环保监测站,细颗粒物(PM2.5),52,39,35,36,25,78,,36,36,5,12,10,12,0.6,0.7
2025-07-13T1100,1872A,109.389,24.341,柳州市,河西水厂,,48,48,39,21,21,65,,30,30,11,18,5,11,0.7,0.5
2025-07-13T1100,1873A,109.4311,24.2921,柳州市,市四中,,41,41,37,24,24,78,,34,34,10,18,11,10,0.6,0.6
2025-07-13T1100,1874A,109.4006,24.3631,柳州市,市九中,,38,,43,26,24,72,,32,32,8,14,6,5,0.4,0.5
2025-07-13T1100,1875A,109.4958,24.3134,柳州市,古亭山,,48,48,36,26,19,77,,29,29,6,13,6,6,0.6,0.6
2025-07-13T1100,3402A,109.5422,24.3996,柳州市,市二中,,43,42,34,30,27,80,,36,36,8,13,6,11,0.6,0.6
2025-07-13T1100,2307A,116.5079,31.737,六安市,监测大楼,,31,31,21,11,14,87,,43,43,3,4,5,5,0.2,0.2
2025-07-13T1100,2308A,116.4738,31.7643,六安市,皖西学院,,27,19,16,11,14,86,,35,35,2,5,2,2,0.2,0.1
2025-07-13T1100,2309A,116.4996,31.7905,六安市,朝阳厂,,26,19,19,15,14,83,,37,37,8,11,4,3,0.4,0.3
2025-07-13T1100,2310A,116.5567,31.7886,六安市,开发区,,39,39,14,25,16,84,,39,39,6,7,5,5,0.3,0.2
2025-07-13T1100,2576A,104.8,26.5892,六盘水市,窑上,,43,43,27,3,5,63,,28,28,13,5,12,6,0.9,0.4
2025-07-13T1100,2577A,104.83,26.5917,六盘水市,黄土坡,颗粒物(PM10),53,55,22,29,13,48,,33,33,38,13,69,13,2.5,0.6
2025-07-13T1100,2578A,104.89,26.5939,六盘水市,水钢,,40,40,44,26,23,70,,39,39,8,15,17,12,0.6,0.8
2025-07-13T1100,2579A,104.8475,26.5894,六盘水市,民中,,45,40,23,31,12,54,,30,30,26,21,38,11,1.9,0.5
2025-07-13T1100,2580A,104.9544,26.5506,六盘水市,双水,,29,29,30,15,14,71,,29,29,12,14,23,11,0.8,0.6
2025-07-13T1100,2335A,117.0189,25.1181,龙岩市,龙岩师专,,,,,,,,,,,,,,,,
2025-07-13T1100,2336A,117.0217,25.1033,龙岩市,龙岩市监测站,,27,27,32,10,9,54,,18,18,4,12,3,3,0.5,0.5
2025-07-13T1100,2337A,117.0258,25.0661,龙岩市,闽西职业技术学院,,17,11,24,9,9,52,,18,18,2,10,3,14,0.4,0.5
2025-07-13T1100,2338A,117.0196,25.0306,龙岩市,龙岩学院,,26,26,18,10,7,50,,20,20,2,5,2,3,0.5,0.6
2025-07-13T1100,2665A,105.0822,33.3261,陇南市,汉王镇固水子,,,,,,,,,,,,,,,,
2025-07-13T1100,2885A,104.9339,33.3826,陇南市,滨江中学,,34,22,30,6,17,108,,80,80,3,2,6,5,0.5,0.4
2025-07-13T1100,3247A,104.955,33.371,陇南市,市总工会,,36,22,33,12,12,114,,89,89,3,3,5,4,0.2,0.2
2025-07-13T1100,2487A,111.9589,27.8901,娄底市,电视发射台,,29,29,38,11,13,61,,30,30,6,5,7,6,0.2,0.2
2025-07-13T1100,2488A,111.9975,27.725,娄底市,市监测站,,26,26,32,17,25,70,,44,44,7,11,2,7,0.6,0.8
2025-07-13T1100,2489A,112.0194,27.7314,娄底市,市委党校,,31,31,30,19,21,76,,53,53,10,10,11,12,0.5,0.7
2025-07-13T1100,2490A,111.9561,27.7569,娄底市,涟钢,,30,25,30,21,24,61,,36,36,9,10,14,13,0.7,0.9
2025-07-13T1100,2491A,111.9892,27.7044,娄底市,市政府,,38,38,23,24,21,79,,52,52,7,4,9,7,1.0,0.7
2025-07-13T1100,1893A,105.4324,28.9634,泸州市,九狮山,颗粒物(PM10),51,52,50,24,29,115,,39,39,11,13,6,5,0.6,0.5
2025-07-13T1100,1894A,105.4427,28.9063,泸州市,小市上码头,,30,29,28,16,15,94,,40,40,10,11,4,3,0.2,0.1
2025-07-13T1100,1895A,105.4241,28.8573,泸州市,兰田宪桥,,,31,32,,17,102,,29,29,12,12,8,8,0.7,0.6
2025-07-13T1100,1896A,105.4379,28.8833,泸州市,市环监站,,33,27,25,20,19,103,,39,39,13,14,4,5,0.3,0.2
2025-07-13T1100,4272A,105.3689,28.7783,泸州市,纳溪中医医院,,47,47,30,23,22,114,,45,45,21,20,3,4,0.6,0.5
2025-07-13T1100,2183A,111.1406,37.5211,吕梁市,环保局,颗粒物(PM10),57,63,59,34,42,118,,,,16,20,3,2,0.7,0.7
2025-07-13T1100,2185A,111.1297,37.5136,吕梁市,自来水公司,颗粒物(PM10),59,68,65,25,36,113,,48,48,13,17,4,3,0.7,0.7
2025-07-13T1100,2867A,111.1283,37.51,吕梁市,马茂庄小学,颗粒物(PM10),63,75,65,40,41,99,,45,45,24,27,5,4,0.6,0.6
2025-07-13T1100,1812A,112.3931,34.6516,洛阳市,市委党校,颗粒物(PM10),51,51,47,33,32,138,,74,74,6,14,9,8,0.5,0.5
2025-07-13T1100,1815A,112.494,34.6886,洛阳市,河南林校,颗粒物(PM10),53,55,54,35,31,145,,71,71,15,17,10,8,0.8,0.7
2025-07-13T1100,1816A,112.3844,34.623,洛阳市,开发区管委会,,40,34,44,28,34,120,,59,59,3,9,8,5,0.5,0.6
2025-07-13T1100,1817A,112.4267,34.6258,洛阳市,市委新办公区,细颗粒物(PM2.5),58,,47,41,41,125,,64,64,8,17,12,11,0.3,0.4
2025-07-13T1100,3340A,112.6005,34.6326,洛阳市,伊滨,,48,48,65,28,33,122,,55,55,9,15,5,4,0.6,0.6
2025-07-13T1100,3341A,112.4951,34.6332,洛阳市,中移产业园,,46,45,44,32,33,126,,64,64,7,12,8,7,0.9,0.8
2025-07-13T1100,3593A,112.5736,34.8993,洛阳市,吉利监测站,颗粒物(PM10),56,61,55,30,33,126,,66,66,4,10,9,7,0.6,0.5
2025-07-13T1100,3635A,112.3677,34.662,洛阳市,河科大西苑校区,,50,50,53,27,28,130,,72,72,4,14,12,10,0.7,0.7
2025-07-13T1100,3636A,112.4388,34.6781,洛阳市,英才小学,颗粒物(PM10),55,59,57,36,36,134,,54,54,13,18,12,10,0.7,0.7
2025-07-13T1100,4214A,112.4600,34.6949,洛阳市,春都路1号院,,49,49,52,31,31,130,,49,49,7,15,7,6,0.5,0.6
2025-07-13T1100,2399A,114.051,33.5699,漯河市,三五一五工厂,,35,33,36,22,22,112,,52,52,10,16,6,6,0.5,0.5
2025-07-13T1100,2400A,114.0055,33.5698,漯河市,漯河大学,,39,39,42,19,19,117,,52,52,11,16,5,5,0.4,0.4
2025-07-13T1100,2401A,114.0138,33.5828,漯河市,市水利局,,34,34,35,22,21,106,,53,53,9,13,4,5,0.6,0.6
2025-07-13T1100,2402A,114.0261,33.5698,漯河市,市广电局,,38,37,34,17,25,120,,60,60,7,13,2,3,0.4,0.4
2025-07-13T1100,3478A,113.9749,33.5664,漯河市,市图书馆,,49,,42,34,31,109,,48,48,10,17,6,6,0.4,0.4
2025-07-13T1100,4250A,114.0892,33.5882,漯河市,韶山路11号,,37,37,42,20,25,105,,44,44,11,24,1,2,0.4,0.5
2025-07-13T1100,1798A,118.5092,31.6837,马鞍山市,湖东路四小,,50,50,32,23,20,76,,44,44,13,8,9,6,0.9,0.4
2025-07-13T1100,1799A,118.5024,31.6449,马鞍山市,开发区,颗粒物(PM10),51,52,34,33,20,72,,43,43,19,13,18,7,1.4,0.5
2025-07-13T1100,1802A,118.6245,31.7241,马鞍山市,濮塘,,40,35,27,28,17,70,,37,37,3,5,8,7,0.8,0.7
2025-07-13T1100,3633A,118.4918,31.6809,马鞍山市,雨山,,46,35,28,32,18,76,,45,45,15,10,11,6,0.8,0.3
2025-07-13T1100,4191A,118.5274,31.72227,马鞍山市,慈湖高新区,,38,35,32,26,19,87,,42,42,9,12,8,7,0.7,0.5
2025-07-13T1100,1686A,111.0286,21.4688,茂名市,电白南海,,20,19,24,14,15,60,,52,52,5,6,2,2,0.3,0.4
2025-07-13T1100,1687A,110.9294,21.6533,茂名市,茂石化七小,,24,24,27,12,14,56,,36,36,6,8,4,6,0.2,0.3
2025-07-13T1100,1688A,110.9107,21.6687,茂名市,健康路,,24,24,21,7,13,59,,40,40,7,8,4,6,0.6,0.7
2025-07-13T1100,1689A,110.8592,21.6828,茂名市,高岭,,31,31,35,7,12,17,,27,27,12,13,4,7,0.4,0.5
2025-07-13T1100,3450A,111.01,21.5165,茂名市,电白水东,,18,12,16,9,9,57,,44,44,8,8,5,6,0.4,0.5
2025-07-13T1100,2539A,104.0308,30.0478,眉山市,黑龙滩水库,,30,30,30,6,10,87,,35,35,6,4,3,3,0.4,0.4
2025-07-13T1100,2540A,103.8416,30.0874,眉山市,气象局,,38,35,38,24,15,120,,29,29,13,30,2,3,0.6,0.5
2025-07-13T1100,3137A,103.8578,30.0744,眉山市,市委党校,,41,41,24,19,13,110,,36,36,20,27,7,6,0.8,0.6
2025-07-13T1100,3148A,103.8291,30.0564,眉山市,区人社局,颗粒物(PM10),51,52,41,14,10,123,,33,33,17,27,9,7,1.1,1
2025-07-13T1100,1690A,116.1231,24.3284,梅州市,梅江月梅,,,,20,17,10,63,,19,19,2,6,7,7,0.6,0.6
2025-07-13T1100,1691A,116.0797,24.2719,梅州市,梅县新城,,,,27,12,13,48,,15,15,3,12,6,6,0.4,0.5
2025-07-13T1100,1692A,116.1248,24.2654,梅州市,环境监控中心,,36,36,30,15,14,51,,18,18,4,13,4,6,0.3,0.4
2025-07-13T1100,3315A,116.1233,24.2991,梅州市,梅龙,,22,22,18,8,14,56,,21,21,3,7,6,7,0.6,0.7
2025-07-13T1100,1878A,104.7778,31.4741,绵阳市,富乐山,,37,37,30,21,19,105,,38,38,8,13,9,8,0.6,0.6
2025-07-13T1100,1880A,104.6697,31.4668,绵阳市,高新区自来水公司,,44,44,36,14,14,99,,45,45,14,18,8,8,0.5,0.5
2025-07-13T1100,1881A,104.7287,31.5075,绵阳市,三水厂,,42,42,35,24,22,100,,33,33,11,21,6,6,0.5,0.5
2025-07-13T1100,3491A,104.69,31.5322,绵阳市,西科大附属小学,,38,38,37,19,20,99,,39,39,14,21,7,7,0.6,0.5
2025-07-13T1100,3492A,104.5648,31.5343,绵阳市,安州区旅游局,,35,35,29,17,13,101,,48,48,8,12,6,4,0.3,0.3
2025-07-13T1100,4226A,104.7651,31.4531,绵阳市,绵阳市气象局,,36,36,30,22,18,105,,38,38,12,14,8,7,0.5,0.5
2025-07-13T1100,1784A,129.61,44.561,牡丹江市,环保大楼,,32,16,19,12,12,102,,84,75,11,17,3,3,0.3,0.3
2025-07-13T1100,1785A,129.6115,44.5782,牡丹江市,文化广场,,32,,18,15,16,101,,86,76,12,19,6,6,0.5,0.5
2025-07-13T1100,1786A,129.5904,44.5963,牡丹江市,第一医院,,33,21,24,15,19,104,,88,80,14,18,7,7,0.4,0.5
2025-07-13T1100,1787A,129.6364,44.6075,牡丹江市,机车工厂,,30,9,22,3,12,95,,78,69,15,16,4,4,0.4,0.5
2025-07-13T1100,1788A,129.6386,44.5462,牡丹江市,第一中学,,32,17,18,6,9,100,,62,61,9,21,5,5,0.5,0.5
2025-07-13T1100,2531A,105.0703,29.61,内江市,市监测站,,41,30,29,17,18,130,,39,39,8,18,3,2,0.5,0.5
2025-07-13T1100,2532A,105.0717,29.5947,内江市,东兴区政府,,40,,18,14,8,127,,47,47,15,13,5,5,0.6,0.6
2025-07-13T1100,2533A,105.0653,29.5817,内江市,内江二中,,41,,24,28,19,129,,47,47,16,18,6,5,0.5,0.6
2025-07-13T1100,2534A,105.0406,29.5822,内江市,内江日报社,,40,,23,25,18,125,,38,38,18,26,15,6,0.5,0.5
2025-07-13T1100,2628A,92.0657,31.4846,那曲市,那曲监测站,,26,22,29,18,13,83,,91,85,11,9,21,12,0.3,0.3
2025-07-13T1100,4243A,92.0515,31.4787,那曲市,那曲市委宣传部,,31,11,17,3,8,97,,105,98,4,5,4,5,0.2,0.2
2025-07-13T1100,1290A,115.8931,28.6843,南昌市,省外办,,22,19,16,14,11,69,,50,50,11,12,6,7,0.4,0.4
2025-07-13T1100,1291A,115.8886,28.7003,南昌市,省林业公司,,22,12,10,9,4,69,,50,50,11,12,9,9,0.5,0.5
2025-07-13T1100,1292A,115.8126,28.7442,南昌市,林科所,,23,6,5,3,2,72,,50,50,5,8,5,5,0.2,0.3
2025-07-13T1100,1294A,115.8518,28.687,南昌市,建工学校,,25,7,15,3,11,80,,60,60,10,14,6,7,0.7,0.7
2025-07-13T1100,1295A,115.8921,28.6424,南昌市,象湖,,24,,11,7,5,75,,58,58,6,10,6,7,0.5,0.5
2025-07-13T1100,1296A,115.7423,28.7996,南昌市,武术学校,,17,17,19,10,11,50,,25,25,3,3,9,8,0.4,0.4
2025-07-13T1100,3046A,115.9084,28.6062,南昌市,机电学校,,26,20,19,9,9,83,,54,54,8,11,4,4,0.6,0.6
2025-07-13T1100,3690A,115.9721,28.7031,南昌市,外国语学校,,25,13,14,3,7,77,,63,63,5,6,10,11,0.5,0.5
2025-07-13T1100,4192A,115.9316,28.68677,南昌市,南京东路235号,,23,14,23,7,5,73,,60,60,8,9,2,3,0.5,0.6
2025-07-13T1100,1905A,106.056,30.8064,南充市,西山风景区,,,,,,,,,,,,,,,,
2025-07-13T1100,1906A,106.0789,30.8023,南充市,南充市委,,49,47,39,34,27,123,,40,40,14,17,6,5,0.5,0.4
2025-07-13T1100,1907A,106.1031,30.8217,南充市,南充炼油厂,,43,43,34,28,23,110,,40,40,15,12,7,6,0.2,0.3
2025-07-13T1100,4227A,106.1083,30.7884,南充市,梨树横街98号,,43,36,36,30,19,110,,43,43,7,12,2,3,0.4,0.4
2025-07-13T1100,4304A,106.1172,30.843,南充市,清泉寺北路188号,,46,46,33,19,23,97,,36,36,8,10,2,2,0.3,0.2
2025-07-13T1100,4305A,106.067,30.7616,南充市,同庆路1号,,36,29,32,19,20,113,,46,46,11,17,2,2,0.3,0.3
2025-07-13T1100,1151A,118.8086,32.1065,南京市,迈皋桥,细颗粒物(PM2.5),70,72,23,51,15,81,,36,36,25,26,4,4,1.6,0.6
2025-07-13T1100,1152A,118.7538,32.0551,南京市,草场门,细颗粒物(PM2.5),64,56,26,46,17,76,,42,42,18,18,9,8,0.9,0.5
2025-07-13T1100,1153A,118.7794,32.0745,南京市,山西路,颗粒物(PM10),58,66,32,36,12,83,,46,46,2,14,6,5,1.0,0.5
2025-07-13T1100,1154A,118.7752,32.0023,南京市,中华门,,49,41,22,34,13,79,,37,37,11,10,8,8,1.0,0.6
2025-07-13T1100,1155A,118.8109,32.0309,南京市,瑞金路,细颗粒物(PM2.5),62,58,23,44,17,81,,48,48,15,15,6,6,0.4,0.3
2025-07-13T1100,1156A,118.7997,32.0754,南京市,玄武湖,细颗粒物(PM2.5),68,72,30,49,10,71,,35,35,14,12,8,7,1.0,0.4
2025-07-13T1100,1157A,118.6414,32.0931,南京市,浦口,,43,39,27,30,14,85,,41,41,6,10,4,4,0.4,0.4
2025-07-13T1100,1158A,118.7356,31.9996,南京市,奥体中心,细颗粒物(PM2.5),58,52,28,41,18,73,,46,46,14,12,4,4,0.7,0.3
2025-07-13T1100,1159A,118.9125,32.1028,南京市,仙林大学城,颗粒物(PM10),51,51,31,29,11,102,,47,47,13,12,10,8,0.6,0.5
2025-07-13T1100,3422A,118.8436,31.9198,南京市,江宁彩虹桥,,35,27,27,24,16,73,,39,39,8,11,3,4,0.5,0.5
2025-07-13T1100,3427A,118.8554,32.3578,南京市,六合雄州,,27,27,25,16,12,70,,49,49,9,12,3,4,0.6,0.6
2025-07-13T1100,4249A,118.8708,31.3402,南京市,汶溪路181号,,32,32,24,22,20,75,,43,43,9,14,8,7,0.7,0.7
2025-07-13T1100,4312A,119.019,31.6512,南京市,中山西路1号,,22,17,21,14,17,69,,42,42,4,8,3,4,0.5,0.5
2025-07-13T1100,1401A,108.3103,22.7881,南宁市,二十一中,颗粒物(PM10),54,58,30,25,15,52,,17,17,20,19,7,6,0.8,0.7
2025-07-13T1100,1402A,108.3141,22.8528,南宁市,北湖,,32,31,28,22,17,72,,35,35,16,18,6,6,0.6,0.6
2025-07-13T1100,1403A,108.3206,22.8225,南宁市,市监测站,,,31,29,28,17,51,,14,14,,24,,9,0.7,0.7
2025-07-13T1100,1404A,108.3829,22.8037,南宁市,大自然花园,,35,35,28,20,14,64,,21,21,11,13,4,4,0.6,0.6
2025-07-13T1100,1405A,108.4394,22.7904,南宁市,仙葫,,28,26,23,19,18,87,,28,28,11,19,7,7,0.7,0.7
2025-07-13T1100,1406A,108.2397,22.8467,南宁市,区农职院,,40,38,27,28,35,65,,29,29,14,15,8,6,0.6,0.4
2025-07-13T1100,1407A,108.3275,22.735,南宁市,英华嘉园,颗粒物(PM10),51,51,29,26,17,65,,25,25,14,17,2,3,0.6,0.5
2025-07-13T1100,3401A,108.4834,22.7618,南宁市,红星社区,,32,23,22,17,10,102,,35,35,2,9,3,2,0.4,0.4
2025-07-13T1100,4221A,108.2177,22.7774,南宁市,乐贤路16号,,40,38,32,28,18,81,,28,28,9,18,12,7,0.7,0.6
2025-07-13T1100,2331A,118.0966,26.6761,南平市,茫荡山,,,,,,,,,,,,,,,,
2025-07-13T1100,2332A,118.1681,26.6369,南平市,南平市监测站,,25,25,17,11,8,26,,13,13,9,8,4,4,0.7,0.6
2025-07-13T1100,2333A,118.1825,26.6489,南平市,南平铝业有限公司,,25,,17,17,8,57,,28,21,7,12,4,5,0.6,0.5
2025-07-13T1100,2334A,118.1756,26.6272,南平市,南平七中,,12,10,19,8,8,24,,10,10,8,7,4,4,0.6,0.5
2025-07-13T1100,1168A,120.9098,31.9663,南通市,狼山街道,,24,12,22,9,13,74,,54,54,4,6,3,3,0.5,0.5
2025-07-13T1100,1169A,120.86,32.0005,南通市,虹桥,,23,23,19,12,14,69,,54,54,8,10,2,2,0.5,0.5
2025-07-13T1100,1170A,120.87,32.02,南通市,城中,,27,27,23,11,13,62,,49,49,5,7,4,4,0.4,0.4
2025-07-13T1100,1171A,120.94,31.93,南通市,星湖花园,,24,16,17,13,14,75,,50,50,5,8,2,2,0.4,0.4
2025-07-13T1100,1172A,120.81,32.0417,南通市,紫琅学院,,20,14,24,3,11,63,,49,49,3,7,5,5,0.5,0.5
2025-07-13T1100,3291A,121.067,32.062,南通市,通州监测站,,21,14,16,9,10,67,,55,55,4,3,7,6,0.6,0.6
2025-07-13T1100,3432A,120.9348,31.9883,南通市,环境教育馆,,23,19,26,6,11,72,,54,54,5,6,3,3,0.2,0.1
2025-07-13T1100,2404A,112.5224,33.0122,南阳市,瓦房庄,,37,37,39,19,21,112,,77,77,8,8,6,6,0.4,0.5
2025-07-13T1100,2405A,112.5003,32.9735,南阳市,汉画馆,,36,31,37,11,16,115,,69,69,6,12,6,6,0.4,0.4
2025-07-13T1100,2406A,112.5573,33.027,南阳市,气象站,,42,42,36,22,22,124,,73,73,5,9,6,6,0.4,0.4
2025-07-13T1100,2407A,112.5481,32.9689,南阳市,理工学院,,38,36,35,12,15,120,,76,76,6,9,7,6,0.4,0.4
2025-07-13T1100,4008A,112.5234,32.9922,南阳市,卧龙区政府,,36,32,38,16,21,115,,72,72,7,12,5,5,0.4,0.5
2025-07-13T1100,1234A,121.8358,29.911,宁波市,区环保大楼,,19,18,18,8,8,58,,38,38,10,11,6,4,0.4,0.4
2025-07-13T1100,1235A,121.56,29.82,宁波市,万里学院,,,,14,,12,,,52,,,16,,4,,0.4
2025-07-13T1100,1236A,121.713,29.9572,宁波市,龙赛医院,,22,18,15,9,7,68,,39,39,3,7,4,5,0.4,0.3
2025-07-13T1100,1239A,121.633,29.7733,宁波市,钱湖水厂,,20,18,20,12,9,63,,31,31,8,13,4,5,0.4,0.4
2025-07-13T1100,1240A,121.5856,29.8635,宁波市,太古小学,,20,20,19,10,8,62,,32,32,3,8,4,6,0.5,0.5
2025-07-13T1100,1241A,121.524,29.8674,宁波市,市环境监测中心,,20,18,16,10,8,62,,31,31,8,12,6,6,0.4,0.4
2025-07-13T1100,2871A,121.6147,29.9017,宁波市,万里国际学校,,19,14,12,13,7,59,,31,31,10,15,4,4,0.5,0.5
2025-07-13T1100,3710A,121.5594,29.8975,宁波市,白沙活动中心,,21,14,15,8,8,65,,32,32,3,9,4,4,0.3,0.3
2025-07-13T1100,2339A,119.5001,26.6946,宁德市,金涵水库,,,,,,,,,,,,,,,,
2025-07-13T1100,2341A,119.5388,26.6612,宁德市,宁德市监测站,,31,31,19,12,9,27,,13,13,11,11,4,4,0.6,0.6
2025-07-13T1100,3209A,119.5231,26.6562,宁德市,宁德一中,,22,22,22,14,10,39,,16,16,8,5,4,4,0.4,0.4
2025-07-13T1100,2618A,98.8601,25.8567,怒江傈僳族自治州,州监测站,,24,24,23,13,12,47,,31,31,8,8,9,8,0.4,0.4
2025-07-13T1100,2619A,98.8546,25.8417,怒江傈僳族自治州,泸水一中,,29,29,21,18,13,27,,9,9,12,12,6,6,0.4,0.5
2025-07-13T1100,1888A,101.6891,26.571,攀枝花市,弄弄坪,,30,30,35,12,14,78,,52,52,17,14,12,11,1.4,0.8
2025-07-13T1100,1889A,101.5769,26.5928,攀枝花市,河门口,,32,32,30,21,16,73,,55,55,15,12,17,11,1.4,0.9
2025-07-13T1100,1890A,101.7169,26.585,攀枝花市,炳草岗,,27,16,41,14,19,86,,42,42,14,21,7,17,0.9,0.7
2025-07-13T1100,1891A,101.7369,26.5008,攀枝花市,仁和,,25,15,33,13,22,77,,46,46,5,11,6,15,0.4,0.6
2025-07-13T1100,2835A,101.7227,26.567,攀枝花市,四十中小,,34,34,33,19,17,88,,48,48,11,18,13,34,1.2,0.9
2025-07-13T1100,1604A,122.0303,41.1489,盘锦市,开发区,,34,18,26,6,20,106,,84,83,7,10,9,9,0.4,0.5
2025-07-13T1100,1605A,122.0485,41.0883,盘锦市,兴隆台,,,,30,,16,109,,89,83,12,15,7,6,0.4,0.3
2025-07-13T1100,1606A,121.8297,41.1028,盘锦市,新生街道,,37,20,20,11,18,116,,77,77,11,20,6,5,0.5,0.5
2025-07-13T1100,1832A,113.3257,33.742,平顶山市,新华旅馆,,41,36,40,13,20,131,,78,78,8,13,5,5,0.4,0.3
2025-07-13T1100,1833A,113.2919,33.737,平顶山市,规划设计院,,,44,40,29,25,119,,65,65,8,12,,7,0.6,0.6
2025-07-13T1100,1834A,113.182,33.774,平顶山市,平顶山工学院,,41,41,39,27,21,130,,66,66,7,14,10,7,0.5,0.5
2025-07-13T1100,3204A,113.3025,33.73,平顶山市,规划局,,44,44,39,22,19,125,,66,66,8,12,9,6,0.5,0.5
2025-07-13T1100,3594A,112.8867,33.9116,平顶山市,石龙区,,37,26,39,19,21,118,,66,66,7,15,7,7,0.5,0.5
2025-07-13T1100,2656A,106.6692,35.5461,平凉市,聚贤嘉苑,,38,38,49,20,20,92,,49,49,5,20,11,8,0.7,0.7
2025-07-13T1100,2657A,106.7021,35.5307,平凉市,博物馆,,43,43,48,27,22,95,,46,46,6,22,10,10,0.7,0.8
2025-07-13T1100,2347A,114.0997,27.5002,萍乡市,武功山,,,3,6,,3,68,,29,29,3,3,15,15,0.4,0.4
2025-07-13T1100,2348A,113.8385,27.6434,萍乡市,中医院,,26,23,21,11,12,81,,31,31,13,11,19,12,1.4,1.1
2025-07-13T1100,2349A,113.8493,27.6253,萍乡市,市政府车库,,36,,15,25,14,80,,33,33,9,11,13,13,1.0,0.7
2025-07-13T1100,2350A,113.8676,27.6435,萍乡市,市环保局,,36,36,18,24,12,82,,33,33,9,10,6,9,1.2,0.9
2025-07-13T1100,2351A,113.866,27.6198,萍乡市,安源区政府,,34,34,20,14,14,77,,29,29,5,7,7,7,0.8,0.6
2025-07-13T1100,2319A,119.0141,25.4325,莆田市,荔城区仓后路,,,64,37,,22,64,,21,21,,11,,4,0.5,0.6
2025-07-13T1100,2320A,119.0015,25.4553,莆田市,莆田市监测站,,38,38,33,16,17,65,,25,25,6,8,4,4,0.4,0.4
2025-07-13T1100,2321A,119.1119,25.4561,莆田市,涵江区六中,,48,48,36,24,21,77,,27,27,6,16,3,3,0.3,0.4
2025-07-13T1100,2322A,119.1013,25.3215,莆田市,秀屿区政府,,44,44,36,16,21,79,,31,31,8,14,8,6,0.4,0.4
2025-07-13T1100,2323A,118.981,25.4792,莆田市,东圳水库,,,,,,,,,,,,,,,,
2025-07-13T1100,2392A,115.0312,35.7636,濮阳市,环保局,,48,45,47,26,31,152,,114,114,9,12,5,4,0.5,0.5
2025-07-13T1100,2394A,115.0574,35.7609,濮阳市,油田运输公司,,48,43,50,33,29,151,,105,105,6,10,3,3,0.3,0.4
2025-07-13T1100,3021A,115,35.7668,濮阳市,濮水河管理处,,45,42,59,31,39,142,,86,86,11,19,5,4,0.4,0.4
2025-07-13T1100,4216A,115.0924,35.7686,濮阳市,任丘路479号,,47,47,59,22,36,148,,92,92,5,10,6,6,0.3,0.4
2025-07-13T1100,2601A,100.98,22.7633,普洱市,市环保局,,30,30,30,7,10,57,,17,17,5,7,5,5,0.6,0.6
2025-07-13T1100,2602A,100.9817,22.8322,普洱市,普洱第二中学,,30,30,30,17,16,39,,14,14,8,11,7,7,0.5,0.5
2025-07-13T1100,2262A,131.0518,45.8751,七台河市,新一中,,30,9,30,3,23,95,,71,71,10,16,9,10,1.0,1
2025-07-13T1100,3345A,131.0577,45.7879,七台河市,中波台,,26,,13,7,6,82,,58,58,10,19,7,7,0.5,0.6
2025-07-13T1100,3637A,131.0176,45.7761,七台河市,人民广场,,28,,30,18,17,89,,62,62,8,14,14,14,0.5,0.6
2025-07-13T1100,3684A,130.8781,45.8222,七台河市,新建矿广场,,,,19,8,13,73,,47,47,14,23,8,9,0.5,0.5
2025-07-13T1100,1779A,123.9305,47.3636,齐齐哈尔市,安居小区,,30,30,17,3,8,66,,38,38,6,11,3,2,0.5,0.6
2025-07-13T1100,1780A,123.9488,47.3386,齐齐哈尔市,中心广场,,21,14,18,3,3,65,,36,36,8,9,9,8,0.3,0.4
2025-07-13T1100,1781A,123.9483,47.3227,齐齐哈尔市,农牧车辆厂,,24,24,20,11,5,67,,41,41,6,8,6,6,0.3,0.2
2025-07-13T1100,1783A,123.945,47.2988,齐齐哈尔市,市环境监测站,,,15,14,3,5,65,,36,36,7,8,,5,0.3,0.2
2025-07-13T1100,3662A,123.6333,47.2075,齐齐哈尔市,富区青少年活动中心,,24,16,10,7,6,74,,39,39,7,11,4,4,0.2,0.3
2025-07-13T1100,2591A,107.9783,26.5747,黔东南苗族侗族自治州,市环境监测站,,24,24,19,15,15,50,,24,24,4,7,3,2,0.5,0.5
2025-07-13T1100,2881A,107.8908,26.5311,黔东南苗族侗族自治州,凯里学院,,22,22,15,13,11,62,,24,24,7,7,2,2,0.4,0.3
2025-07-13T1100,2593A,107.5228,26.2403,黔南布依族苗族自治州,小围寨,,29,29,15,19,9,46,,18,18,8,7,2,3,0.4,0.4
2025-07-13T1100,3538A,107.5175,26.2978,黔南布依族苗族自治州,沙坝,,24,24,20,12,5,46,,17,17,7,8,6,4,0.4,0.4
2025-07-13T1100,2589A,104.9022,25.0925,黔西南布依族苗族自治州,场坝街,,35,35,31,6,16,73,,39,39,10,13,18,21,0.3,0.4
2025-07-13T1100,2590A,104.8811,25.0992,黔西南布依族苗族自治州,坪东大道,,25,20,27,8,21,78,,34,34,9,18,11,4,0.2,0.3
2025-07-13T1100,2502A,108.6236,21.9667,钦州市,市环保站,,17,6,24,3,12,54,,48,43,7,10,3,2,0.5,0.4
2025-07-13T1100,2503A,108.6549,21.9481,钦州市,沙埠小学,,42,42,31,14,17,65,,41,41,6,10,1,2,0.6,0.5
2025-07-13T1100,2504A,108.5989,21.7431,钦州市,港区一小,,31,31,36,13,15,66,,41,41,11,20,2,2,0.7,0.5
2025-07-13T1100,3404A,108.5959,21.9633,钦州市,北职校,,21,21,30,8,19,43,,29,28,8,11,3,4,0.6,1.2
2025-07-13T1100,1043A,119.7493,40.0116,秦皇岛市,第一关,,39,26,39,6,18,124,,56,56,12,29,6,6,0.3,0.4
2025-07-13T1100,1044A,119.5897,39.9499,秦皇岛市,监测站,,49,49,47,3,11,139,,74,74,17,21,5,6,0.4,0.5
2025-07-13T1100,1046A,119.5251,39.9041,秦皇岛市,建设大厦,,45,21,40,3,12,143,,68,68,14,20,5,7,0.3,0.6
2025-07-13T1100,3132A,119.610547,39.943889,秦皇岛市,文明里,,40,28,50,3,13,128,,77,77,11,17,5,6,0.1,0.3
2025-07-13T1100,4198A,119.5090,39.8253,秦皇岛市,北戴河轮滑馆,,41,26,39,3,12,130,,93,93,12,12,2,3,0.4,0.4
2025-07-13T1100,1307A,120.6659,36.2403,青岛市,仰口,颗粒物(PM10),53,56,28,27,16,131,,92,92,16,9,9,8,0.6,0.4
2025-07-13T1100,1310A,120.4134,36.0658,青岛市,市南区东部子站,颗粒物(PM10),67,83,29,39,16,149,,66,66,14,12,16,11,0.4,0.4
2025-07-13T1100,1311A,120.3664,36.1032,青岛市,四方区子站,颗粒物(PM10),65,80,31,41,22,139,,72,72,25,18,11,7,0.5,0.3
2025-07-13T1100,1312A,120.2994,36.054,青岛市,市南区西部子站,,,73,33,42,19,116,,45,45,,25,11,9,0.9,0.7
2025-07-13T1100,1313A,120.4581,36.0858,青岛市,崂山区子站,,,73,44,36,17,136,,67,67,20,12,9,8,,0.4
2025-07-13T1100,1315A,120.3999,36.3083,青岛市,城阳区子站,,38,36,36,15,18,120,,78,78,14,16,7,7,0.5,0.4
2025-07-13T1100,1966A,120.0405,35.8735,青岛市,黄岛区4号,臭氧1小时,80,63,35,34,16,184,,84,84,16,15,16,12,0.6,0.6
2025-07-13T1100,3362A,120.5014,36.4034,青岛市,即墨2号,,42,31,34,9,20,134,,74,74,11,13,3,4,0.3,0.2
2025-07-13T1100,3642A,120.3503,36.0736,青岛市,市北区南部,"颗粒物(PM10),细颗粒物(PM2.5)",52,53,29,36,16,123,,59,59,32,18,15,8,0.8,0.6
2025-07-13T1100,3643A,120.3948,36.1805,青岛市,李沧区北部,颗粒物(PM10),56,61,27,36,22,116,,60,60,17,13,10,6,0.5,0.3
2025-07-13T1100,4290A,120.1969,35.9546,青岛市,珠江路669号,颗粒物(PM10),68,85,28,39,21,145,,70,70,20,9,8,5,0.8,0.6
2025-07-13T1100,1702A,113.0426,23.691,清远市,环保大楼,颗粒物(PM10),53,55,63,20,16,61,,22,22,21,20,7,7,0.7,0.7
2025-07-13T1100,1703A,113.0208,23.7106,清远市,凤城街办,,43,43,34,23,19,50,,19,19,25,24,7,7,0.6,0.6
2025-07-13T1100,3025A,113.0477,23.6344,清远市,技师学院,,30,30,31,16,16,57,,20,20,14,23,6,8,0.5,0.6
2025-07-13T1100,3318A,112.9903,23.7403,清远市,清新太和,,50,47,32,35,18,44,,24,23,23,19,6,6,0.6,0.6
2025-07-13T1100,3455A,113.076,23.7198,清远市,清城东城,,39,38,28,27,19,50,,19,18,22,17,6,6,0.6,0.6
2025-07-13T1100,2661A,107.6325,35.7357,庆阳市,庆阳五中,,,,33,,22,104,,94,92,9,6,8,8,0.4,0.4
2025-07-13T1100,2662A,107.6364,35.7067,庆阳市,市环保局,,40,40,35,26,23,106,,96,95,6,4,11,13,0.6,0.6
2025-07-13T1100,1916A,103.7897,25.5035,曲靖市,环境监测站,,31,31,32,20,19,74,,45,45,9,10,10,11,0.4,0.5
2025-07-13T1100,1917A,103.8,25.5364,曲靖市,烟厂办公区,,39,27,31,27,20,69,,48,48,7,8,10,11,0.5,0.6
2025-07-13T1100,3376A,103.7947,25.462,曲靖市,南苑二区,颗粒物(PM10),51,52,27,34,15,68,,41,37,13,10,17,6,0.9,0.6
2025-07-13T1100,3377A,103.7444,25.5261,曲靖市,曲靖师范学院,,36,36,32,23,21,69,,32,32,9,15,12,9,0.4,0.4
2025-07-13T1100,1264A,118.8692,28.9398,衢州市,环保大楼,,25,25,14,16,8,60,,45,44,7,10,4,4,0.4,0.4
2025-07-13T1100,1265A,118.8709,28.9666,衢州市,实验学校,,26,22,14,18,6,56,,45,43,10,10,4,4,0.4,0.4
2025-07-13T1100,1266A,118.8621,28.9808,衢州市,衢州学院,,22,22,13,14,8,59,,42,42,7,12,4,4,0.3,0.3
2025-07-13T1100,1611A,118.5819,24.9117,泉州市,涂山街,,47,47,38,18,20,80,,30,30,12,17,4,3,0.4,0.4
2025-07-13T1100,1612A,118.5972,24.8978,泉州市,津头埔,,31,31,31,20,16,86,,40,40,8,11,1,1,0.5,0.5
2025-07-13T1100,1613A,118.6663,24.9424,泉州市,万安,,41,41,33,22,17,86,,33,33,10,11,3,2,0.5,0.5
2025-07-13T1100,1614A,118.6117,24.9604,泉州市,清源山,,,,,,,,,,,,,,,,
2025-07-13T1100,3529A,118.6333,24.9264,泉州市,城华南路,,35,35,29,18,17,80,,35,35,8,12,3,3,0.4,0.4
2025-07-13T1100,2626A,88.8876,29.2718,日喀则市,日喀则监测站,,21,6,8,3,4,66,,62,62,6,9,13,14,0.4,0.3
2025-07-13T1100,3726A,88.8781,29.2426,日喀则市,林业技术推广中心,,24,11,10,3,3,74,,79,75,3,2,8,8,0.3,0.2
2025-07-13T1100,1659A,119.471,35.4209,日照市,监测站,臭氧1小时,57,51,31,33,21,165,,64,64,12,22,7,7,0.7,0.7
2025-07-13T1100,1660A,119.523,35.4216,日照市,市政府广场,,49,39,31,29,19,155,,76,76,8,18,8,9,0.8,0.8
2025-07-13T1100,1661A,119.5587,35.4044,日照市,港务局,,,48,36,31,27,163,,76,76,10,21,,9,0.8,0.8
2025-07-13T1100,3507A,119.5328,35.4625,日照市,职业技术学院,臭氧1小时,63,56,35,22,21,170,,77,77,14,20,8,7,0.7,0.7
2025-07-13T1100,3604A,119.3266,35.1044,日照市,岚山环保分局,,,,34,28,20,155,,74,74,12,14,13,12,0.8,0.8
2025-07-13T1100,1835A,111.1922,34.7752,三门峡市,市政府,,38,38,50,26,32,100,,67,67,5,19,4,6,0.4,0.4
2025-07-13T1100,1836A,111.1587,34.7942,三门峡市,开发区,,38,34,50,26,34,103,,70,70,5,15,5,8,0.2,0.2
2025-07-13T1100,1838A,111.143,34.7955,三门峡市,风景区,,,,,,,,,,,,,,,,
2025-07-13T1100,3039A,111.1911,34.7829,三门峡市,三门峡市第一小学,,,51,55,,24,94,,67,67,6,15,10,9,0.4,0.4
2025-07-13T1100,3598A,111.1,34.7167,三门峡市,富达温泉假日酒店,颗粒物(PM10),52,53,52,28,32,111,,69,69,7,10,9,8,0.4,0.4
2025-07-13T1100,2324A,117.6211,26.2625,三明市,三钢,,46,37,22,32,23,26,,11,11,19,12,25,6,2.2,0.9
2025-07-13T1100,2325A,117.635,26.2714,三明市,三明二中,,33,30,19,23,16,27,,12,12,23,12,26,4,2.5,0.8
2025-07-13T1100,2326A,117.6028,26.2378,三明市,三元区政府,,29,27,23,20,14,35,,15,15,13,10,9,3,0.6,0.5
2025-07-13T1100,2327A,117.7275,26.3108,三明市,洋溪,,,,,,,,,,,,,,,,
2025-07-13T1100,1876A,109.5078,18.2489,三亚市,河东子站,,24,24,23,9,12,61,,27,27,6,8,2,3,0.4,0.4
2025-07-13T1100,1877A,109.4964,18.2681,三亚市,河西子站,,19,17,22,6,10,59,,24,24,2,7,2,2,0.4,0.4
2025-07-13T1100,3540A,109.7348,18.3443,三亚市,君悦子站,,20,19,22,9,9,61,,30,30,6,8,1,1,0.1,0.2
2025-07-13T1100,2624A,91.7608,29.2313,山南市,山南监测站,,26,6,7,3,5,81,,100,95,13,3,3,3,0.2,0.1
2025-07-13T1100,2625A,91.7706,29.2436,山南市,山南人民医院,,25,11,10,8,6,78,,101,94,18,3,4,4,0.1,0
2025-07-13T1100,1674A,116.6794,23.3667,汕头市,金平子站,,40,40,32,21,14,63,,41,41,9,9,3,2,0.7,0.6
2025-07-13T1100,1675A,116.7244,23.3633,汕头市,龙湖子站,,26,26,33,14,14,55,,34,34,9,8,6,6,0.7,0.6
2025-07-13T1100,1676A,116.7258,23.2775,汕头市,濠江子站,颗粒物(PM10),51,51,49,14,15,49,,27,27,7,11,4,4,0.7,0.7
2025-07-13T1100,1677A,116.7519,23.4714,汕头市,澄海子站,,41,41,38,19,16,60,,35,35,9,10,2,2,0.6,0.6
2025-07-13T1100,1678A,116.6092,23.2539,汕头市,潮阳子站,,21,21,36,14,17,67,,44,44,4,4,4,4,0.6,0.7
2025-07-13T1100,3444A,116.454,23.2684,汕头市,潮南峡山,,23,22,36,16,18,60,,41,41,6,5,5,5,0.7,0.7
2025-07-13T1100,3624A,116.4069,23.2533,汕头市,潮南子站,,40,40,40,20,18,58,,40,40,7,5,3,3,0.5,0.5
2025-07-13T1100,1693A,115.3653,22.775,汕尾市,市环保局,,20,20,28,12,13,49,,36,36,7,6,2,2,0.6,0.6
2025-07-13T1100,1694A,115.3706,22.7898,汕尾市,市政府,,18,13,31,12,16,56,,36,36,7,7,3,4,0.5,0.5
2025-07-13T1100,1695A,115.3622,22.7925,汕尾市,新城中学,,19,,31,13,14,54,,30,30,8,8,3,3,0.5,0.5
2025-07-13T1100,2645A,109.9154,33.8715,商洛市,监测站,,46,46,39,28,28,87,,26,26,6,12,5,6,0.5,0.5
2025-07-13T1100,3045A,109.9643,33.8471,商洛市,商州区中学,颗粒物(PM10),55,59,48,28,26,87,,27,27,10,15,9,7,0.5,0.4
2025-07-13T1100,2408A,115.6702,34.4285,商丘市,环境监测站,,37,27,36,19,20,116,,73,73,4,9,3,3,0.4,0.4
2025-07-13T1100,2409A,115.6458,34.4045,商丘市,粮食局,,37,37,32,25,22,115,,71,71,2,6,3,3,0.4,0.4
2025-07-13T1100,2410A,115.6293,34.3948,商丘市,睢阳区环保局,,,,37,20,19,110,,63,63,7,11,4,3,0.2,0.2
2025-07-13T1100,3171A,115.6071,34.4465,商丘市,梁园区档案局,,44,44,34,19,19,108,,70,70,4,9,2,3,0.4,0.4
2025-07-13T1100,1141A,121.4,31.238,上海市,普陀,,,18,17,3,11,46,,35,35,,10,,6,0.5,0.4
2025-07-13T1100,1142A,121.478,31.2036,上海市,十五厂,,20,16,17,12,11,62,,44,44,9,11,7,8,0.5,0.5
2025-07-13T1100,1143A,121.467,31.3008,上海市,虹口,,20,13,17,9,10,62,,42,42,4,8,9,9,0.4,0.5
2025-07-13T1100,1147A,121.425,31.2261,上海市,静安监测站,,20,18,18,11,12,63,,40,40,10,11,4,5,0.6,0.6
2025-07-13T1100,1148A,121.703,31.1907,上海市,浦东川沙,,18,18,18,12,10,57,,37,37,12,11,9,9,0.7,0.7
2025-07-13T1100,1149A,121.533,31.2284,上海市,浦东新区监测站,,20,14,16,6,8,61,,45,45,7,8,7,8,0.5,0.5
2025-07-13T1100,1150A,121.577,31.2071,上海市,浦东张江,,22,15,26,12,9,68,,48,48,7,10,6,6,0.7,0.6
2025-07-13T1100,3265A,121.4316,31.3322,上海市,宝山庙行,,20,18,17,12,10,62,,43,43,11,11,8,6,0.6,0.3
2025-07-13T1100,3266A,121.8791,31.4662,上海市,崇明上实东滩,,21,12,16,9,11,67,,50,50,3,3,3,3,0.4,0.5
2025-07-13T1100,3268A,121.3162,31.2838,上海市,嘉定南翔,,21,11,28,6,12,66,,39,39,1,7,6,7,0.3,0.4
2025-07-13T1100,3269A,121.3359,30.7456,上海市,金山新城,,25,16,24,15,12,80,,38,38,4,9,3,3,0.6,0.6
2025-07-13T1100,3270A,121.4996,31.0739,上海市,闵行浦江,,20,16,16,9,9,64,,40,40,6,7,4,4,0.8,0.8
2025-07-13T1100,3271A,121.2886,31.1663,上海市,青浦徐泾,,23,11,18,9,11,71,,37,37,5,11,6,7,0.4,0.5
2025-07-13T1100,3272A,121.2186,31.0378,上海市,松江图书馆,,25,14,16,13,11,79,,39,39,2,7,7,7,0.5,0.5
2025-07-13T1100,3273A,121.3902,31.2059,上海市,长宁仙霞,,22,18,16,15,9,62,,36,36,12,11,8,6,0.6,0.4
2025-07-13T1100,3274A,121.7965,31.0507,上海市,浦东惠南,,14,,12,8,8,43,,35,35,8,10,9,9,0.4,0.7
2025-07-13T1100,3544A,121.4891,30.925,上海市,奉贤南桥新城,,22,14,15,10,12,68,,36,36,6,7,7,7,0.6,0.6
2025-07-13T1100,4183A,121.4174,31.16637,上海市,冠生园路458号,,22,,18,15,11,58,,35,35,9,9,4,4,0.7,0.6
2025-07-13T1100,4205A,121.5419,31.2683,上海市,宁武路151号,,20,13,18,8,12,61,,45,45,8,11,7,7,0.5,0.5
2025-07-13T1100,2381A,118.005,28.4572,上饶市,百草园,,,,,,,,,,,,,,,,
2025-07-13T1100,2382A,117.9756,28.4436,上饶市,市监测站,,19,18,18,10,9,58,,38,38,4,7,1,2,0.5,0.5
2025-07-13T1100,2383A,117.9519,28.4628,上饶市,凤凰光学,,19,19,20,9,8,51,,39,39,6,8,6,8,0.5,0.4
2025-07-13T1100,3685A,117.897,28.4315,上饶市,双创科技城,,20,15,18,8,8,63,,49,49,10,12,3,5,0.5,0.4
2025-07-13T1100,4211A,118.1904,28.4448,上饶市,裕丰大道,,17,12,14,3,6,52,,38,38,7,8,5,6,0.7,0.6
2025-07-13T1100,1669A,113.5824,24.7733,韶关市,市八中,,38,38,26,21,14,46,,28,28,16,13,6,7,0.8,0.7
2025-07-13T1100,1671A,113.5917,24.7972,韶关市,园林处,,26,24,20,18,14,44,,22,22,13,12,9,8,0.5,0.5
