timepoint,stationcode,longitude,latitude,area,positionname,primarypollutant,aqi,pm10,pm10_24h,pm2_5,pm2_5_24h,o3,o3_24h,o3_8h,o3_8h_24h,no2,no2_24h,so2,so2_24h,co,co_24h
2023-04-10T18:00:00,1001A,116.3621,39.8784,北京市,万寿西宫,颗粒物(PM10),125,199,177,46,81,108,89,83,83,28,58,4,3,0.9,0.9
2023-04-10T18:00:00,1002A,116.2202,40.2915,北京市,定陵,颗粒物(PM10),202,351,174,61,75,110,106,90,90,5,26,2,2,0.1,0.5
2023-04-10T18:00:00,1003A,116.4174,39.9289,北京市,东四,颗粒物(PM10),127,204,192,49,86,128,113,97,97,25,64,5,4,0.7,0.8
2023-04-10T18:00:00,1004A,116.4072,39.8863,北京市,天坛,颗粒物(PM10),124,198,166,47,79,124,102,92,92,30,50,5,3,0.8,0.8
2023-04-10T18:00:00,1005A,116.462,39.9365,北京市,农展馆,颗粒物(PM10),127,203,189,50,82,123,100,82,82,27,65,5,3,0.8,0.8
2023-04-10T18:00:00,1006A,116.3392,39.9295,北京市,官园,颗粒物(PM10),121,192,176,51,86,125,91,83,83,30,62,7,4,0.6,0.7
2023-04-10T18:00:00,1007A,116.2878,39.9611,北京市,海淀万柳,颗粒物(PM10),140,230,184,73,90,105,60,57,57,44,58,2,2,0.7,0.7
2023-04-10T18:00:00,1008A,116.6636,40.135,北京市,顺义新城,颗粒物(PM10),141,232,192,54,95,130,84,84,84,37,40,2,3,0.5,0.6
2023-04-10T18:00:00,1009A,116.6275,40.3275,北京市,怀柔镇,颗粒物(PM10),141,232,166,51,82,107,75,77,77,47,32,3,3,0.5,0.6
2023-04-10T18:00:00,1010A,116.2296,40.217,北京市,昌平镇,颗粒物(PM10),157,264,174,68,86,122,97,90,81,13,39,1,2,0.2,0.5
2023-04-10T18:00:00,1011A,116.3966,39.9821,北京市,奥体中心,颗粒物(PM10),137,223,185,66,91,121,76,67,67,43,70,2,2,0.5,0.8
2023-04-10T18:00:00,1012A,116.184,39.9136,北京市,古城,颗粒物(PM10),141,232,189,55,83,122,96,89,89,27,52,5,2,0.6,0.6
2023-04-10T18:00:00,1015A,117.1444,39.1661,天津市,勤俭道,颗粒物(PM10),119,188,160,60,58,132,120,112,112,24,30,11,10,0.7,0.6
2023-04-10T18:00:00,1017A,117.237,39.1082,天津市,大直沽八号路,颗粒物(PM10),113,176,157,56,56,124,111,108,108,28,28,11,10,0.7,0.6
2023-04-10T18:00:00,1018A,117.202,39.0927,天津市,前进道,颗粒物(PM10),101,151,140,58,57,130,116,107,107,30,31,8,7,0.8,0.8
2023-04-10T18:00:00,1019A,117.1837,39.2133,天津市,淮河道,颗粒物(PM10),120,189,165,67,67,138,121,111,111,26,29,10,11,0.5,0.6
2023-04-10T18:00:00,1021A,117.307,39.0877,天津市,跃进路,颗粒物(PM10),104,157,145,62,60,130,118,110,110,25,28,8,9,0.6,0.6
2023-04-10T18:00:00,1023A,117.707,39.0343,天津市,第四大街,颗粒物(PM10),94,138,141,47,55,119,119,98,98,26,30,9,9,0.6,0.7
2023-04-10T18:00:00,1024A,117.457,38.8394,天津市,永明路,颗粒物(PM10),90,129,123,46,48,122,122,107,107,24,27,8,9,0.5,0.5
2023-04-10T18:00:00,1026A,117.764,39.1587,天津市,汉北路,颗粒物(PM10),98,146,146,49,52,126,122,116,116,24,27,10,12,0.5,0.6
2023-04-10T18:00:00,1027A,117.157,38.9194,天津市,团泊洼,颗粒物(PM10),99,147,129,54,52,123,116,106,106,23,26,9,9,0.5,0.5
2023-04-10T18:00:00,1029A,114.4422,38.0444,石家庄市,职工医院,颗粒物(PM10),105,160,139,58,45,131,58,75,62,62,41,18,11,1.4,0.7
2023-04-10T18:00:00,1030A,114.6063,38.0266,石家庄市,高新区,颗粒物(PM10),112,174,145,58,46,128,75,84,64,43,38,12,9,1.1,0.8
2023-04-10T18:00:00,1031A,114.4898,38.1328,石家庄市,西北水源,颗粒物(PM10),108,166,170,53,56,130,67,76,76,54,38,10,7,1.1,0.5
2023-04-10T18:00:00,1032A,114.4586,38.0058,石家庄市,西南高教,颗粒物(PM10),116,182,142,57,49,124,42,82,54,70,43,18,11,1.5,0.7
2023-04-10T18:00:00,1033A,114.5331,38.0178,石家庄市,世纪公园,颗粒物(PM10),108,165,132,55,43,124,50,72,58,62,44,14,11,1.3,0.8
2023-04-10T18:00:00,1034A,114.509,38.0457,石家庄市,人民会堂,颗粒物(PM10),111,171,143,51,37,128,64,79,66,49,33,16,11,1.4,0.7
2023-04-10T18:00:00,1035A,114.3524,37.8911,石家庄市,封龙山,颗粒物(PM10),89,128,140,42,42,132,104,104,104,14,13,5,6,0.6,0.6
2023-04-10T18:00:00,1037A,118.131,39.6363,唐山市,雷达站,颗粒物(PM10),101,151,167,39,67,126,112,104,104,44,47,6,7,0.8,0.9
2023-04-10T18:00:00,1038A,118.1725,39.6334,唐山市,物资局,颗粒物(PM10),95,140,186,46,68,112,92,90,90,52,54,15,13,0.5,0.8
2023-04-10T18:00:00,1040A,118.1705,39.6506,唐山市,十二中,颗粒物(PM10),92,134,166,47,65,113,102,98,98,37,43,10,9,0.5,0.8
2023-04-10T18:00:00,1041A,118.1869,39.622,唐山市,小山,颗粒物(PM10),100,150,181,46,74,121,107,101,101,41,61,12,10,0.4,0.8
2023-04-10T18:00:00,1042A,119.5134,39.8207,秦皇岛市,北戴河环保局,颗粒物(PM10),82,114,110,58,74,127,111,97,86,37,34,3,3,0.6,0.8
2023-04-10T18:00:00,1043A,119.7493,40.0116,秦皇岛市,第一关,细颗粒物(PM2.5),105,138,145,79,75,106,98,105,87,34,35,6,5,0.7,0.8
2023-04-10T18:00:00,1044A,119.5897,39.9499,秦皇岛市,监测站,细颗粒物(PM2.5),88,123,132,65,95,105,86,94,74,42,43,6,6,0.6,0.8
2023-04-10T18:00:00,1046A,119.5251,39.9041,秦皇岛市,建设大厦,颗粒物(PM10),89,127,152,37,58,121,93,94,92,36,37,9,10,0.6,0.9
2023-04-10T18:00:00,1048A,114.5302,36.6116,邯郸市,东污水处理厂,颗粒物(PM10),79,108,126,40,45,145,143,118,118,11,29,10,17,0.4,0.5
2023-04-10T18:00:00,1049A,114.4918,36.5713,邯郸市,矿院,颗粒物(PM10),76,101,104,39,45,156,156,125,125,10,26,11,12,0.9,1
2023-04-10T18:00:00,1050A,114.484,36.6133,邯郸市,丛台公园,颗粒物(PM10),77,104,107,36,45,154,154,126,126,10,26,12,12,0.4,0.6
2023-04-10T18:00:00,1051A,115.493,38.8632,保定市,游泳馆,颗粒物(PM10),101,151,143,55,66,118,72,88,88,24,42,13,11,0.3,0.4
2023-04-10T18:00:00,1052A,115.5213,38.8959,保定市,华电二区,颗粒物(PM10),98,145,149,48,58,117,73,89,89,28,45,13,11,1.3,1
2023-04-10T18:00:00,1053A,115.4713,38.9108,保定市,接待中心,细颗粒物(PM2.5),95,137,147,71,52,117,66,83,83,26,39,14,12,1.0,0.9
2023-04-10T18:00:00,1054A,115.4612,38.8416,保定市,地表水厂,颗粒物(PM10),112,174,173,41,49,107,67,80,80,32,50,14,12,0.7,0.6
2023-04-10T18:00:00,1056A,115.5086,38.8639,保定市,监测站,颗粒物(PM10),102,154,181,52,53,120,75,91,91,29,50,14,13,0.7,0.6
2023-04-10T18:00:00,1057A,114.8883,40.8336,张家口市,人民公园,颗粒物(PM10),130,209,319,53,88,110,107,104,104,9,22,3,7,0.5,0.5
2023-04-10T18:00:00,1059A,114.8687,40.8042,张家口市,五金库,颗粒物(PM10),196,341,369,67,100,110,102,104,104,9,23,3,4,0.4,0.5
2023-04-10T18:00:00,1060A,114.8902,40.762,张家口市,世纪豪园,颗粒物(PM10),185,320,377,56,96,107,102,99,99,8,19,3,5,0.3,0.4
2023-04-10T18:00:00,1061A,114.8916,40.8661,张家口市,北泵房,颗粒物(PM10),134,217,315,49,90,120,114,112,112,6,23,8,12,0.4,0.5
2023-04-10T18:00:00,1062A,117.9531,40.9081,承德市,铁路,颗粒物(PM10),163,276,216,55,60,128,100,113,100,24,31,10,10,0.3,0.5
2023-04-10T18:00:00,1063A,117.9392,40.9763,承德市,中国银行,颗粒物(PM10),169,288,228,106,78,128,102,103,103,18,29,8,8,0.3,0.5
2023-04-10T18:00:00,1064A,117.9503,40.928,承德市,开发区,颗粒物(PM10),146,242,202,50,60,132,105,110,110,19,32,10,10,0.4,0.6
2023-04-10T18:00:00,1065A,117.8051,40.9655,承德市,文化中心,颗粒物(PM10),172,294,243,113,94,131,97,99,99,19,35,9,9,0.4,0.6
2023-04-10T18:00:00,1066A,117.9268,41.0026,承德市,离宫,颗粒物(PM10),141,232,186,70,71,137,113,116,116,11,20,3,10,0.3,0.5
2023-04-10T18:00:00,1067A,116.6708,39.5111,廊坊市,药材公司,颗粒物(PM10),108,165,177,61,62,127,99,109,109,29,40,6,6,0.5,0.6
2023-04-10T18:00:00,1068A,116.7214,39.5589,廊坊市,开发区,,,174,180,,79,130,102,110,110,36,49,10,9,0.6,0.7
2023-04-10T18:00:00,1070A,116.7244,39.5269,廊坊市,北华航天学院,颗粒物(PM10),111,171,183,66,75,124,97,106,106,25,47,8,9,0.5,0.7
2023-04-10T18:00:00,1071A,116.8842,38.2991,沧州市,沧县城建局,颗粒物(PM10),85,119,117,38,39,133,130,115,115,29,25,6,4,0.7,0.7
2023-04-10T18:00:00,1072A,116.8584,38.3254,沧州市,电视转播站,颗粒物(PM10),86,122,115,63,49,135,130,114,114,32,27,10,10,0.6,0.4
2023-04-10T18:00:00,1073A,116.8709,38.3228,沧州市,市环保局,颗粒物(PM10),87,124,110,45,46,134,129,119,119,38,29,11,10,0.6,0.4
2023-04-10T18:00:00,1074A,115.6838,37.7541,衡水市,电机北厂,,,118,110,71,41,166,164,116,116,,18,2,5,0.5,0.7
2023-04-10T18:00:00,1075A,115.6303,37.7316,衡水市,市监测站,颗粒物(PM10),90,130,108,48,47,161,154,113,113,8,14,9,8,0.7,0.7
2023-04-10T18:00:00,1077A,114.4704,37.0886,邢台市,达活泉,颗粒物(PM10),101,151,163,44,57,152,134,115,115,12,35,15,19,0.5,1.3
2023-04-10T18:00:00,1078A,114.5062,37.0349,邢台市,邢师高专,颗粒物(PM10),80,109,145,38,46,145,122,108,108,19,41,6,11,0.5,1.1
2023-04-10T18:00:00,1079A,114.5237,37.0851,邢台市,路桥公司,颗粒物(PM10),94,137,144,30,43,142,132,107,107,12,36,11,16,0.6,1.3
2023-04-10T18:00:00,1080A,114.4725,37.0719,邢台市,市环保局,颗粒物(PM10),95,139,169,44,55,156,137,118,118,15,38,11,17,0.4,1.4
2023-04-10T18:00:00,1081A,112.522,37.8873,太原市,尖草坪,颗粒物(PM10),170,289,204,88,62,111,108,76,76,9,51,4,8,0.3,0.5
2023-04-10T18:00:00,1083A,112.434,38.0108,太原市,上兰,,,,,,,,,,,,,,,,
2023-04-10T18:00:00,1084A,112.469,37.7124,太原市,晋源,颗粒物(PM10),156,262,172,78,57,113,109,78,78,10,48,6,8,0.3,0.4
2023-04-10T18:00:00,1085A,112.5583,37.7394,太原市,小店,颗粒物(PM10),159,267,207,83,62,110,106,84,84,16,54,4,10,0.3,0.6
2023-04-10T18:00:00,1086A,112.5369,37.8692,太原市,桃园,颗粒物(PM10),166,281,186,81,66,108,105,74,74,13,57,4,7,0.3,0.5
2023-04-10T18:00:00,1087A,112.57,37.8195,太原市,坞城,细颗粒物(PM2.5),127,,183,96,69,110,102,67,67,14,54,6,9,0.3,0.5
2023-04-10T18:00:00,1088A,112.549,37.9854,太原市,南寨,颗粒物(PM10),170,290,192,70,54,110,107,71,71,15,50,4,9,0.3,0.5
2023-04-10T18:00:00,1090A,111.6507,40.7517,呼和浩特市,呼市一监,细颗粒物(PM2.5),338,,500,288,136,106,96,88,88,16,18,6,9,0.3,0.4
2023-04-10T18:00:00,1091A,111.6572,40.8033,呼和浩特市,小召,细颗粒物(PM2.5),345,,581,295,154,100,88,80,80,8,24,8,13,0.3,0.5
2023-04-10T18:00:00,1094A,111.7516,40.8369,呼和浩特市,如意水处理厂,颗粒物(PM10),500,1708,606,303,146,101,87,82,82,4,26,5,9,0.3,0.5
2023-04-10T18:00:00,1095A,111.7276,40.8062,呼和浩特市,二十九中,颗粒物(PM10),500,2559,643,315,156,105,92,85,85,7,23,5,11,0.3,0.5
2023-04-10T18:00:00,1096A,111.5512,40.7866,呼和浩特市,工大金川校区,颗粒物(PM10),500,2281,726,272,174,100,92,82,82,5,23,6,12,0.3,0.5
2023-04-10T18:00:00,1097A,111.717,40.7612,呼和浩特市,化肥厂生活区,颗粒物(PM10),500,1664,618,312,130,86,79,70,70,16,30,6,10,0.2,0.4
2023-04-10T18:00:00,1098A,123.6836,41.9339,沈阳市,森林路,,,,,,,,,,,,,,,,
2023-04-10T18:00:00,1099A,123.505,41.7406,沈阳市,浑南东路,颗粒物(PM10),96,142,103,44,42,139,115,129,116,25,21,12,14,0.7,0.8
2023-04-10T18:00:00,1100A,123.4231,41.6989,沈阳市,新秀街,颗粒物(PM10),94,138,106,33,36,137,107,130,111,20,15,10,18,0.8,0.8
2023-04-10T18:00:00,1102A,123.5903,41.8411,沈阳市,东陵路,颗粒物(PM10),104,157,90,41,39,134,106,124,110,27,22,16,15,0.9,0.8
2023-04-10T18:00:00,1103A,123.4264,41.8467,沈阳市,陵东街,颗粒物(PM10),89,128,104,34,37,138,105,132,110,25,21,13,15,0.7,0.6
2023-04-10T18:00:00,1104A,123.4114,41.7653,沈阳市,文化路,颗粒物(PM10),96,142,107,47,47,137,110,132,113,22,19,13,15,0.7,0.6
2023-04-10T18:00:00,1105A,123.4678,41.7867,沈阳市,小河沿,颗粒物(PM10),96,141,102,40,40,129,102,123,108,27,22,10,15,0.7,0.7
2023-04-10T18:00:00,1106A,123.4017,41.7972,沈阳市,太原街,颗粒物(PM10),94,138,112,51,50,138,103,134,109,23,18,13,13,0.7,0.7
2023-04-10T18:00:00,1108A,123.3783,41.9228,沈阳市,京沈街,颗粒物(PM10),130,210,98,47,51,141,105,136,112,24,19,17,16,0.9,0.8
2023-04-10T18:00:00,1109A,121.612,38.9741,大连市,甘井子,颗粒物(PM10),132,213,112,81,64,154,86,149,102,95,40,6,6,0.7,0.6
2023-04-10T18:00:00,1110A,121.565,38.9511,大连市,周水子,颗粒物(PM10),87,124,97,56,46,157,139,149,125,46,34,8,8,0.9,0.8
2023-04-10T18:00:00,1111A,121.5637,38.8845,大连市,星海三站,颗粒物(PM10),81,112,92,57,51,158,130,154,113,49,32,7,6,0.7,0.7
2023-04-10T18:00:00,1112A,121.6302,38.9117,大连市,青泥洼桥,颗粒物(PM10),91,131,92,63,48,173,166,159,148,26,18,8,8,0.8,0.7
2023-04-10T18:00:00,1113A,121.6251,38.8638,大连市,傅家庄,颗粒物(PM10),86,122,95,55,48,171,155,159,125,28,20,10,9,0.9,0.8
2023-04-10T18:00:00,1114A,121.5213,38.8661,大连市,七贤岭,颗粒物(PM10),99,147,95,60,52,175,123,163,120,52,26,10,8,0.7,0.6
2023-04-10T18:00:00,1115A,121.2529,38.8061,大连市,旅顺,细颗粒物(PM2.5),82,109,79,60,45,160,150,152,129,34,28,10,9,0.7,0.8
2023-04-10T18:00:00,1116A,121.7485,39.1311,大连市,金州,颗粒物(PM10),89,128,89,63,47,164,155,152,131,32,26,12,12,0.8,1
2023-04-10T18:00:00,1117A,121.7811,39.0496,大连市,开发区,细颗粒物(PM2.5),77,98,78,56,46,161,94,145,113,70,32,10,10,0.8,0.6
2023-04-10T18:00:00,1118A,121.9762,39.0631,大连市,双D港,细颗粒物(PM2.5),78,92,72,57,46,174,109,161,121,45,26,11,7,0.9,0.8
2023-04-10T18:00:00,1119A,125.3325,43.9166,长春市,食品厂,颗粒物(PM10),188,326,160,62,48,144,98,138,114,34,23,7,6,0.7,0.5
2023-04-10T18:00:00,1120A,125.2863,43.9027,长春市,客车厂,颗粒物(PM10),175,300,159,65,48,142,96,138,115,36,19,9,7,0.7,0.6
2023-04-10T18:00:00,1121A,125.2841,43.8463,长春市,邮电学院,颗粒物(PM10),163,276,147,57,48,141,103,130,115,25,18,10,9,0.6,0.5
2023-04-10T18:00:00,1122A,125.3716,43.8772,长春市,劳动公园,颗粒物(PM10),177,303,152,56,44,150,115,138,126,21,16,7,7,0.4,0.4
2023-04-10T18:00:00,1123A,125.3297,43.8805,长春市,园林处,颗粒物(PM10),168,286,144,59,52,138,96,128,110,30,20,8,8,0.6,0.5
2023-04-10T18:00:00,1124A,125.4605,43.79,长春市,净月潭,颗粒物(PM10),145,240,138,49,38,141,111,134,117,10,9,5,5,0.5,0.5
2023-04-10T18:00:00,1125A,125.7194,43.515,长春市,甩湾子,,,,,,,,,,,,,,,,
2023-04-10T18:00:00,1126A,125.3863,43.8447,长春市,经开区环卫处,颗粒物(PM10),185,320,145,53,40,130,100,124,112,23,17,10,9,0.6,0.5
2023-04-10T18:00:00,1127A,125.245,43.7783,长春市,高新区管委会,颗粒物(PM10),169,288,134,48,47,144,112,128,120,18,14,13,10,0.6,0.7
2023-04-10T18:00:00,1128A,125.1761,43.8325,长春市,岱山公园,颗粒物(PM10),138,226,148,52,45,138,97,129,110,26,19,7,6,0.5,0.4
2023-04-10T18:00:00,1129A,126.5422,45.755,哈尔滨市,岭北,颗粒物(PM10),500,1163,390,116,68,131,83,125,110,21,17,8,7,0.5,0.2
2023-04-10T18:00:00,1130A,126.561,45.8167,哈尔滨市,松北商大,颗粒物(PM10),500,685,279,92,72,131,69,125,106,31,20,7,7,0.8,0.7
2023-04-10T18:00:00,1131A,126.979,45.5419,哈尔滨市,阿城会宁,颗粒物(PM10),500,909,324,91,87,145,85,137,119,24,21,14,15,0.7,0.7
2023-04-10T18:00:00,1132A,126.599,45.7222,哈尔滨市,南岗学府路,颗粒物(PM10),500,1148,434,90,61,122,76,115,102,20,18,7,8,0.6,0.6
2023-04-10T18:00:00,1133A,126.689,45.7733,哈尔滨市,太平宏伟公园,颗粒物(PM10),500,916,401,142,78,126,75,119,105,29,22,5,8,0.7,0.5
2023-04-10T18:00:00,1134A,126.635,45.7667,哈尔滨市,道外承德广场,颗粒物(PM10),500,852,361,112,69,125,71,118,100,32,26,12,13,0.7,0.6
2023-04-10T18:00:00,1135A,126.685,45.7319,哈尔滨市,香坊红旗大街,颗粒物(PM10),500,780,328,92,68,125,74,117,104,33,28,16,17,0.7,0.6
2023-04-10T18:00:00,1136A,126.6411,45.7258,哈尔滨市,动力和平路,颗粒物(PM10),500,757,320,110,70,119,73,111,96,28,27,14,15,0.6,0.7
2023-04-10T18:00:00,1137A,126.593,45.7478,哈尔滨市,道里建国路,颗粒物(PM10),500,759,318,88,61,122,64,116,99,32,24,16,17,0.7,0.7
2023-04-10T18:00:00,1138A,126.615,45.61,哈尔滨市,平房东轻厂,颗粒物(PM10),500,794,352,110,67,134,83,127,112,19,15,10,11,0.7,0.6
2023-04-10T18:00:00,1139A,126.595,45.9855,哈尔滨市,呼兰师专,颗粒物(PM10),500,905,337,103,65,125,82,121,107,20,18,12,13,0.9,0.8
2023-04-10T18:00:00,1140A,126.6206,45.6842,哈尔滨市,省农科院,颗粒物(PM10),500,902,399,92,70,130,77,122,108,29,29,16,18,0.6,0.6
2023-04-10T18:00:00,1141A,121.4,31.238,上海市,普陀,臭氧1小时,72,65,54,18,19,188,177,166,166,32,34,6,9,0.7,0.7
2023-04-10T18:00:00,1142A,121.478,31.2036,上海市,十五厂,颗粒物(PM10),63,75,53,34,27,176,164,152,152,38,36,8,8,0.8,0.7
2023-04-10T18:00:00,1143A,121.467,31.3008,上海市,虹口,臭氧1小时,58,58,55,26,26,176,166,156,156,26,29,7,8,0.5,0.5
2023-04-10T18:00:00,1144A,121.412,31.1654,上海市,徐汇上师大,臭氧1小时,69,78,52,27,25,183,175,165,165,38,41,9,11,0.4,0.5
2023-04-10T18:00:00,1145A,121.536,31.2659,上海市,杨浦四漂,臭氧1小时,62,63,56,25,25,177,169,160,160,37,34,9,9,0.5,0.5
2023-04-10T18:00:00,1147A,121.425,31.2261,上海市,静安监测站,臭氧1小时,69,56,58,22,25,187,175,162,162,36,36,7,8,0.7,0.7
2023-04-10T18:00:00,1148A,121.703,31.1907,上海市,浦东川沙,颗粒物(PM10),70,89,51,24,24,172,107,148,147,29,19,6,6,0.5,0.5
2023-04-10T18:00:00,1149A,121.533,31.2284,上海市,浦东新区监测站,臭氧1小时,68,57,55,23,21,177,174,160,160,32,29,8,8,0.5,0.5
2023-04-10T18:00:00,1150A,121.577,31.2071,上海市,浦东张江,颗粒物(PM10),65,79,47,23,19,175,162,155,155,32,25,5,5,0.8,0.7
2023-04-10T18:00:00,1151A,118.8086,32.1065,南京市,迈皋桥,颗粒物(PM10),62,74,80,31,33,188,163,169,169,10,25,7,8,0.5,0.4
2023-04-10T18:00:00,1152A,118.7538,32.0551,南京市,草场门,颗粒物(PM10),51,51,66,27,35,160,141,146,146,18,35,6,7,0.7,0.7
2023-04-10T18:00:00,1153A,118.7794,32.0745,南京市,山西路,,,70,80,24,34,169,148,154,154,12,22,,7,,0.4
2023-04-10T18:00:00,1154A,118.7752,32.0023,南京市,中华门,颗粒物(PM10),59,68,74,24,32,166,134,150,150,24,37,12,11,0.7,0.6
2023-04-10T18:00:00,1155A,118.8109,32.0309,南京市,瑞金路,颗粒物(PM10),56,62,71,27,35,166,136,149,149,18,26,8,8,0.4,0.4
2023-04-10T18:00:00,1156A,118.7997,32.0754,南京市,玄武湖,颗粒物(PM10),62,73,74,29,37,156,136,142,142,9,21,8,9,0.5,0.5
2023-04-10T18:00:00,1157A,118.6414,32.0931,南京市,浦口,颗粒物(PM10),62,73,83,24,34,167,145,155,155,16,32,5,8,0.5,0.7
2023-04-10T18:00:00,1158A,118.7356,31.9996,南京市,奥体中心,颗粒物(PM10),67,83,82,27,36,167,142,151,151,18,31,11,9,0.5,0.3
2023-04-10T18:00:00,1159A,118.9125,32.1028,南京市,仙林大学城,颗粒物(PM10),58,66,80,27,33,159,138,145,145,16,33,9,9,0.7,0.6
2023-04-10T18:00:00,1160A,120.561,31.2472,苏州市,上方山,颗粒物(PM10),64,78,63,37,35,186,166,158,158,28,36,9,9,0.5,0.5
2023-04-10T18:00:00,1162A,120.591,31.3019,苏州市,彩香,臭氧1小时,104,78,64,40,32,229,208,193,193,21,25,7,7,0.5,0.6
2023-04-10T18:00:00,1163A,120.596,31.3264,苏州市,轧钢厂,臭氧1小时,87,70,66,28,30,208,189,176,176,18,23,10,10,0.7,0.6
2023-04-10T18:00:00,1164A,120.613,31.2703,苏州市,吴中区,臭氧1小时,97,67,64,27,28,225,197,185,185,29,38,9,9,0.5,0.5
2023-04-10T18:00:00,1165A,120.543,31.2994,苏州市,苏州新区,臭氧1小时,100,71,63,39,33,211,200,183,183,25,32,7,8,0.5,0.4
2023-04-10T18:00:00,1166A,120.669,31.3097,苏州市,苏州工业园区,臭氧1小时,87,73,56,36,25,206,189,173,173,22,24,10,10,0.6,0.5
2023-04-10T18:00:00,1167A,120.641,31.3708,苏州市,相城区,臭氧1小时,74,67,60,31,29,210,179,171,171,40,34,8,8,0.6,0.5
2023-04-10T18:00:00,1168A,120.9098,31.9663,南通市,狼山街道,颗粒物(PM10),63,75,61,27,32,210,149,178,178,48,48,8,7,0.5,0.4
2023-04-10T18:00:00,1169A,120.86,32.0005,南通市,虹桥,臭氧1小时,68,71,69,29,31,206,174,180,180,48,45,8,9,0.5,0.5
2023-04-10T18:00:00,1170A,120.87,32.02,南通市,城中,臭氧1小时,68,71,67,33,30,211,174,183,183,42,38,10,11,0.5,0.5
2023-04-10T18:00:00,1171A,120.94,31.93,南通市,星湖花园,颗粒物(PM10),64,77,64,27,28,198,122,161,161,59,49,9,9,0.5,0.5
2023-04-10T18:00:00,1172A,120.81,32.0417,南通市,紫琅学院,,,69,67,29,32,170,146,145,145,52,58,,11,0.4,0.4
2023-04-10T18:00:00,1173A,119.176,34.5885,连云港市,市环境监测站,颗粒物(PM10),68,85,97,34,50,174,151,159,159,13,21,8,12,0.4,0.5
2023-04-10T18:00:00,1177A,117.179,34.2761,徐州市,黄河新村,颗粒物(PM10),73,95,98,35,39,161,155,150,150,10,23,8,10,0.7,0.8
2023-04-10T18:00:00,1178A,117.1918,34.2384,徐州市,淮塔,,,,97,,39,168,161,156,156,19,29,10,13,0.4,0.5
2023-04-10T18:00:00,1180A,117.256,34.2153,徐州市,新城区,颗粒物(PM10),70,90,94,32,36,160,153,149,149,12,23,10,12,0.6,0.6
2023-04-10T18:00:00,1181A,117.244,34.2911,徐州市,桃园路,颗粒物(PM10),70,90,95,24,32,159,152,146,146,10,20,8,11,0.6,0.7
2023-04-10T18:00:00,1182A,117.2933,34.2778,徐州市,农科院,颗粒物(PM10),68,85,87,27,29,170,158,158,158,10,16,8,10,0.6,0.6
2023-04-10T18:00:00,1186A,119.389,32.3761,扬州市,邗江监测站,颗粒物(PM10),65,80,84,21,38,172,164,158,158,31,36,10,11,0.3,0.5
2023-04-10T18:00:00,1188A,120.269,31.4867,无锡市,雪浪,臭氧1小时,98,83,66,41,30,232,198,199,199,23,28,8,9,0.5,0.5
2023-04-10T18:00:00,1189A,120.275,31.6219,无锡市,黄巷,臭氧1小时,87,84,72,34,29,192,189,178,178,24,44,6,7,0.8,0.7
2023-04-10T18:00:00,1190A,120.294,31.56,无锡市,曹张,臭氧1小时,92,74,64,48,36,210,193,185,185,25,41,6,8,0.6,0.6
2023-04-10T18:00:00,1191A,120.242,31.5031,无锡市,漆塘,臭氧1小时,79,85,62,36,29,201,183,178,178,14,20,8,8,0.5,0.5
2023-04-10T18:00:00,1192A,120.3489,31.5863,无锡市,东亭,臭氧1小时,80,83,65,36,31,205,184,182,182,32,43,10,11,0.7,0.7
2023-04-10T18:00:00,1193A,120.354,31.5475,无锡市,旺庄,臭氧1小时,82,83,68,36,32,211,185,184,184,26,38,10,11,0.8,0.8
2023-04-10T18:00:00,1194A,120.245,31.5631,无锡市,荣巷,臭氧1小时,106,73,59,36,30,225,212,203,203,17,24,11,12,0.6,0.5
2023-04-10T18:00:00,1195A,120.299,31.6817,无锡市,堰桥,臭氧1小时,90,80,71,36,32,194,192,176,176,25,39,7,8,0.6,0.6
2023-04-10T18:00:00,1196A,119.9633,31.762,常州市,市监测站,臭氧1小时,79,56,70,35,38,203,183,167,167,24,34,5,6,0.6,0.6
2023-04-10T18:00:00,1200A,119.9468,31.7069,常州市,武进监测站,臭氧1小时,101,60,69,33,34,202,202,180,180,23,27,8,10,0.6,0.6
2023-04-10T18:00:00,1201A,119.9255,31.9087,常州市,安家,颗粒物(PM10),57,64,65,33,36,201,163,170,170,34,34,8,9,0.5,0.6
2023-04-10T18:00:00,1203A,119.6707,32.1875,镇江市,新区办事处,臭氧1小时,97,63,71,28,35,208,197,181,181,17,27,4,5,0.8,0.7
2023-04-10T18:00:00,1204A,119.4974,32.1968,镇江市,职教中心,,,,65,,40,196,,172,172,20,29,2,3,,0.6
2023-04-10T18:00:00,1205A,119.4303,32.1328,镇江市,丹徒区监测站,颗粒物(PM10),55,60,78,22,41,173,163,158,158,10,22,3,5,0.4,0.5
2023-04-10T18:00:00,1206A,119.905,32.4878,泰州市,公园路,臭氧1小时,78,70,78,39,45,185,182,171,171,22,33,11,12,0.5,0.5
2023-04-10T18:00:00,1207A,119.9189,32.4625,泰州市,莲花,臭氧1小时,97,73,85,31,36,197,197,188,188,23,36,9,11,0.7,0.6
2023-04-10T18:00:00,1209A,119.888,32.4639,泰州市,留学生创业园,臭氧1小时,79,61,78,26,34,186,183,168,168,34,41,12,12,0.3,0.5
2023-04-10T18:00:00,1210A,119.036,33.5981,淮安市,钵池山,臭氧1小时,89,78,79,26,45,194,191,169,169,20,23,11,11,0.9,0.8
2023-04-10T18:00:00,1211A,119.007,33.575,淮安市,北京南路,臭氧1小时,93,80,85,21,47,194,194,164,164,21,29,13,14,0.7,0.7
2023-04-10T18:00:00,1212A,118.989,33.6067,淮安市,市监测站,臭氧1小时,83,88,90,34,47,186,186,167,167,26,28,13,14,0.8,0.9
2023-04-10T18:00:00,1213A,119.135,33.5039,淮安市,楚州区监测站,臭氧1小时,78,100,94,34,47,209,182,177,177,29,38,13,11,0.8,0.8
2023-04-10T18:00:00,1214A,119.0186,33.6297,淮安市,淮阴区监测站,颗粒物(PM10),70,89,101,24,45,176,175,153,153,34,31,12,13,0.7,0.7
2023-04-10T18:00:00,1215A,120.118,33.4022,盐城市,盐城电厂,臭氧1小时,113,80,84,41,51,227,226,189,189,22,27,13,13,0.5,0.6
2023-04-10T18:00:00,1216A,120.156,33.3942,盐城市,市监测站,臭氧1小时,85,80,87,38,43,205,188,170,170,26,28,14,15,0.5,0.6
2023-04-10T18:00:00,1218A,120.2144,33.38,盐城市,开发区管委会,臭氧1小时,87,88,93,33,38,208,189,176,176,20,24,7,8,0.3,0.4
2023-04-10T18:00:00,1220A,118.293,33.9528,宿迁市,宿迁学院,"细颗粒物(PM2.5),臭氧1小时",77,99,83,56,45,181,181,156,156,28,22,13,11,1.3,0.6
2023-04-10T18:00:00,1221A,118.2442,33.9592,宿迁市,宿迁中学,臭氧1小时,75,91,87,34,37,180,180,150,150,16,25,9,9,0.5,0.5
2023-04-10T18:00:00,1223A,120.2072,30.2111,杭州市,滨江,颗粒物(PM10),53,55,75,26,34,182,155,158,158,27,51,8,9,0.6,0.8
2023-04-10T18:00:00,1224A,120.0633,30.2747,杭州市,西溪,颗粒物(PM10),56,62,68,28,30,178,158,157,157,19,34,8,8,0.6,0.6
2023-04-10T18:00:00,1226A,120.3461,30.3153,杭州市,下沙,颗粒物(PM10),63,75,71,29,36,169,146,151,151,35,52,7,8,0.5,0.5
2023-04-10T18:00:00,1227A,120.1269,30.2456,杭州市,卧龙桥,颗粒物(PM10),52,54,55,27,32,193,150,164,164,25,31,9,9,0.6,0.7
2023-04-10T18:00:00,1228A,120.1903,30.2692,杭州市,浙江农大,,50,46,61,25,35,197,157,169,169,24,47,4,6,0.7,0.8
2023-04-10T18:00:00,1230A,120.1197,30.3119,杭州市,和睦小学,颗粒物(PM10),57,64,67,31,35,166,135,141,141,23,47,6,7,0.7,0.8
2023-04-10T18:00:00,1231A,120.3019,30.4183,杭州市,临平镇,颗粒物(PM10),64,78,80,26,32,186,169,165,165,28,44,6,6,0.5,0.5
2023-04-10T18:00:00,1232A,120.2697,30.1819,杭州市,城厢镇,颗粒物(PM10),57,63,74,24,35,164,150,150,150,24,45,8,8,0.5,0.6
2023-04-10T18:00:00,1233A,120.0883,30.1808,杭州市,云栖,颗粒物(PM10),55,59,55,23,26,181,139,155,155,26,39,5,6,0.6,0.6
2023-04-10T18:00:00,1234A,121.8358,29.911,宁波市,区环保大楼,,31,28,27,11,11,132,98,120,118,15,21,2,3,0.5,0.5
2023-04-10T18:00:00,1235A,121.56,29.82,宁波市,万里学院,,34,34,38,13,17,147,105,136,135,17,22,6,7,0.5,0.5
2023-04-10T18:00:00,1236A,121.713,29.9572,宁波市,龙赛医院,,41,41,37,9,13,142,112,132,132,15,22,7,7,0.5,0.5
2023-04-10T18:00:00,1239A,121.633,29.7733,宁波市,钱湖水厂,,33,30,26,14,15,148,105,134,132,3,12,4,4,0.4,0.4
2023-04-10T18:00:00,1240A,121.5856,29.8635,宁波市,太古小学,,33,32,34,19,18,146,105,132,132,13,20,6,7,0.6,0.6
2023-04-10T18:00:00,1241A,121.524,29.8674,宁波市,市环境监测中心,,40,40,38,20,13,141,106,129,129,21,23,6,7,0.4,0.4
2023-04-10T18:00:00,1242A,120.634,28.0089,温州市,瓯海,,39,39,52,17,21,127,75,96,96,21,41,6,7,0.3,0.3
2023-04-10T18:00:00,1243A,120.6748,27.9939,温州市,南浦,颗粒物(PM10),52,53,47,16,18,136,77,100,100,25,29,5,6,0.4,0.3
2023-04-10T18:00:00,1244A,120.76,27.9747,温州市,龙湾,,39,39,52,13,18,103,91,90,90,16,44,6,7,0.5,0.4
2023-04-10T18:00:00,1245A,120.6709,28.0167,温州市,市站,颗粒物(PM10),53,56,53,11,17,122,56,88,87,49,39,5,6,0.4,0.4
2023-04-10T18:00:00,1247A,120.6053,29.9928,绍兴市,城东开发委,颗粒物(PM10),58,66,50,31,25,166,139,151,151,32,22,6,6,0.6,0.6
2023-04-10T18:00:00,1250A,120.0751,30.8669,湖州市,城西水厂,颗粒物(PM10),61,71,79,28,36,186,168,161,161,29,42,8,9,0.4,0.5
2023-04-10T18:00:00,1252A,120.7436,30.778,嘉兴市,清河小学,,48,48,64,14,25,184,144,157,157,31,32,5,6,0.3,0.7
2023-04-10T18:00:00,1253A,120.726,30.7478,嘉兴市,嘉兴学院,,50,47,57,17,25,211,158,180,180,29,26,7,8,0.5,0.5
2023-04-10T18:00:00,1255A,121.273,28.6459,台州市,黄岩环保大楼,,37,37,38,15,14,113,87,99,99,10,19,3,4,0.2,0.2
2023-04-10T18:00:00,1256A,121.419,28.6542,台州市,台州环保大楼,,30,29,43,18,22,128,94,106,106,6,15,4,5,0.3,0.4
2023-04-10T18:00:00,1257A,121.377,28.5773,台州市,路桥田洋王,,37,37,43,18,16,115,84,96,96,13,22,9,9,0.2,0.3
2023-04-10T18:00:00,1258A,122.122,30.0203,舟山市,定海檀枫,,,13,29,,8,114,85,104,95,13,17,5,6,0.3,0.3
2023-04-10T18:00:00,1259A,122.3094,29.9558,舟山市,普陀东港,,29,29,31,20,17,118,91,115,92,17,16,5,5,0.3,0.3
2023-04-10T18:00:00,1260A,122.19,29.9944,舟山市,临城新区,,28,22,27,19,14,117,36,116,93,20,19,4,6,0.3,0.2
2023-04-10T18:00:00,1262A,119.647,29.077,金华市,十五中,颗粒物(PM10),63,75,65,34,32,176,153,157,157,30,35,11,7,0.7,0.7
2023-04-10T18:00:00,1263A,119.686,29.1029,金华市,监测站,臭氧1小时,62,69,74,26,37,186,169,172,172,17,50,6,7,0.5,0.6
2023-04-10T18:00:00,1264A,118.8692,28.9398,衢州市,环保大楼,颗粒物(PM10),57,64,75,22,33,168,150,150,150,21,39,6,10,0.5,0.6
2023-04-10T18:00:00,1265A,118.8709,28.9666,衢州市,实验学校,颗粒物(PM10),54,58,56,24,31,167,144,142,142,22,39,7,9,0.5,0.6
2023-04-10T18:00:00,1266A,118.8621,28.9808,衢州市,衢州学院,颗粒物(PM10),54,58,61,12,24,168,143,140,140,21,47,6,7,0.5,0.5
2023-04-10T18:00:00,1267A,119.914,28.4514,丽水市,监测站大楼,颗粒物(PM10),54,58,43,23,17,133,126,125,125,13,16,6,7,0.3,0.2
2023-04-10T18:00:00,1268A,119.93,28.4586,丽水市,莲都小学,颗粒物(PM10),56,61,50,22,18,141,127,132,132,16,19,7,7,0.3,0.2
2023-04-10T18:00:00,1269A,119.879,28.4231,丽水市,余庄前,,47,47,39,19,18,136,135,125,125,13,17,7,7,0.4,0.4
2023-04-10T18:00:00,1270A,117.1959,31.7848,合肥市,明珠广场,颗粒物(PM10),63,75,75,31,30,163,126,149,149,27,32,6,5,0.5,0.6
2023-04-10T18:00:00,1271A,117.3072,31.8764,合肥市,三里街,颗粒物(PM10),69,88,83,36,32,150,118,136,136,33,43,6,7,0.6,0.6
2023-04-10T18:00:00,1272A,117.2588,31.8707,合肥市,琥珀山庄,颗粒物(PM10),64,78,73,31,32,166,139,152,152,16,22,5,5,0.4,0.4
2023-04-10T18:00:00,1273A,117.1604,31.9052,合肥市,董铺水库,颗粒物(PM10),67,83,80,29,26,132,119,122,122,16,24,4,4,0.4,0.4
2023-04-10T18:00:00,1274A,117.25,31.8571,合肥市,长江中路,颗粒物(PM10),68,85,81,32,32,157,130,143,143,19,26,10,10,0.4,0.4
2023-04-10T18:00:00,1275A,117.266,31.9436,合肥市,庐阳区,颗粒物(PM10),65,80,79,31,28,143,122,129,129,22,27,11,10,0.4,0.5
2023-04-10T18:00:00,1276A,117.336,31.8586,合肥市,瑶海区,颗粒物(PM10),64,78,108,31,31,149,121,136,136,15,33,8,8,0.5,0.6
2023-04-10T18:00:00,1277A,117.3027,31.7964,合肥市,包河区,颗粒物(PM10),71,92,76,29,31,156,124,142,142,17,21,8,8,0.5,0.5
2023-04-10T18:00:00,1278A,117.2776,31.7385,合肥市,滨湖新区,颗粒物(PM10),62,73,69,31,25,150,128,141,141,15,15,7,7,0.6,0.6
2023-04-10T18:00:00,1279A,117.1318,31.8403,合肥市,高新区,颗粒物(PM10),64,78,74,29,28,154,137,144,144,23,25,9,9,0.4,0.5
2023-04-10T18:00:00,1280A,119.3903,26.0543,福州市,鼓山,,,,,,,,,,,,,,,,
2023-04-10T18:00:00,1282A,119.2681,26.0504,福州市,师大,颗粒物(PM10),51,51,40,10,9,126,88,106,105,17,17,6,5,0.4,0.4
2023-04-10T18:00:00,1283A,119.2984,26.1028,福州市,五四北路,,49,49,36,9,9,122,93,104,104,16,19,3,3,0.3,0.3
2023-04-10T18:00:00,1284A,119.2648,26.0768,福州市,杨桥西路,,48,48,41,11,11,115,89,102,102,14,19,4,4,0.5,0.4
2023-04-10T18:00:00,1285A,119.317,26.0746,福州市,紫阳,,,43,37,10,9,114,88,100,100,,18,4,3,0.3,0.3
2023-04-10T18:00:00,1286A,118.1608,24.8169,厦门市,溪东,,,,,,,,,,,,,,,,
2023-04-10T18:00:00,1287A,118.1514,24.4767,厦门市,洪文,,33,33,43,10,18,119,100,99,99,10,23,2,4,0.4,0.4
2023-04-10T18:00:00,1288A,118.0661,24.4444,厦门市,鼓浪屿,,30,24,48,9,18,100,96,87,87,11,32,2,7,0.2,0.2
2023-04-10T18:00:00,1290A,115.8931,28.6843,南昌市,省外办,颗粒物(PM10),67,83,99,30,45,144,80,97,97,16,51,13,9,0.5,0.8
2023-04-10T18:00:00,1291A,115.8886,28.7003,南昌市,省林业公司,颗粒物(PM10),64,78,97,39,44,138,77,92,92,15,65,15,10,0.5,0.8
2023-04-10T18:00:00,1292A,115.8126,28.7442,南昌市,林科所,颗粒物(PM10),60,70,68,29,30,153,49,71,65,17,52,9,12,0.4,0.4
2023-04-10T18:00:00,1294A,115.8518,28.687,南昌市,建工学校,颗粒物(PM10),71,91,96,29,35,144,68,90,90,33,61,18,14,0.5,0.7
2023-04-10T18:00:00,1295A,115.8921,28.6424,南昌市,象湖,颗粒物(PM10),62,74,89,35,40,132,64,90,90,32,57,15,9,0.6,0.8
2023-04-10T18:00:00,1296A,115.7423,28.7996,南昌市,武术学校,颗粒物(PM10),54,58,49,12,18,122,67,93,88,6,8,6,11,0.4,0.3
2023-04-10T18:00:00,1298A,115.9314,28.6842,南昌市,省站,颗粒物(PM10),66,82,110,32,47,133,73,98,98,22,55,15,12,0.6,0.8
2023-04-10T18:00:00,1299A,116.9862,36.6114,济南市,科干所,臭氧1小时,72,85,96,37,34,177,177,165,165,12,13,9,10,0.3,0.3
2023-04-10T18:00:00,1300A,116.9376,36.665,济南市,农科所,,,,103,,31,168,,151,151,14,14,5,6,0.6,0.5
2023-04-10T18:00:00,1301A,117.1265,36.6734,济南市,开发区,颗粒物(PM10),57,63,85,24,32,160,157,152,152,15,8,9,10,0.5,0.5
2023-04-10T18:00:00,1303A,117.0624,36.6868,济南市,省种子仓库,颗粒物(PM10),68,85,99,29,36,170,168,158,158,13,10,9,9,0.5,0.5
2023-04-10T18:00:00,1304A,116.9489,36.6447,济南市,机床二厂,颗粒物(PM10),77,103,109,34,31,178,178,164,164,12,11,6,6,0.6,0.5
2023-04-10T18:00:00,1305A,117.0495,36.663,济南市,市监测站,颗粒物(PM10),63,76,95,29,31,167,166,156,156,15,12,9,9,0.5,0.5
2023-04-10T18:00:00,1306A,116.7675,36.5484,济南市,长清党校,臭氧1小时,79,93,101,39,34,183,183,169,169,12,16,13,14,0.6,0.6
2023-04-10T18:00:00,1307A,120.6659,36.2403,青岛市,仰口,臭氧1小时,85,88,81,41,46,190,188,158,158,16,14,8,8,0.7,0.7
2023-04-10T18:00:00,1310A,120.4134,36.0658,青岛市,市南区东部子站,颗粒物(PM10),84,117,102,58,50,178,174,156,156,31,28,9,9,0.9,0.8
2023-04-10T18:00:00,1311A,120.3664,36.1032,青岛市,四方区子站,细颗粒物(PM2.5),100,110,100,75,63,176,163,152,152,37,32,7,11,1.0,0.9
2023-04-10T18:00:00,1312A,120.2994,36.054,青岛市,市南区西部子站,颗粒物(PM10),79,107,88,54,45,193,182,161,161,34,32,11,11,0.8,0.7
2023-04-10T18:00:00,1313A,120.4581,36.0858,青岛市,崂山区子站,细颗粒物(PM2.5),92,124,111,68,52,189,185,166,166,24,21,9,9,0.6,0.6
2023-04-10T18:00:00,1314A,120.1983,35.9608,青岛市,黄岛区子站,颗粒物(PM10),78,105,102,51,55,184,176,158,158,24,27,7,8,0.7,0.7
2023-04-10T18:00:00,1315A,120.3999,36.3083,青岛市,城阳区子站,颗粒物(PM10),93,136,104,51,41,192,179,162,162,43,37,11,10,0.7,0.7
2023-04-10T18:00:00,1316A,113.69031,34.76122,郑州市,烟厂,颗粒物(PM10),87,123,125,46,51,175,159,159,159,18,30,10,10,0.6,0.5
2023-04-10T18:00:00,1317A,113.65724,34.77134,郑州市,郑纺机,,,120,125,42,40,168,149,149,149,,37,8,8,0.2,0.5
2023-04-10T18:00:00,1318A,113.67526,34.80246,郑州市,银行学校,颗粒物(PM10),86,122,126,36,39,181,170,162,162,19,31,9,10,0.6,0.5
2023-04-10T18:00:00,1319A,113.56746,34.81334,郑州市,供水公司,颗粒物(PM10),84,118,121,33,34,166,152,148,148,23,30,11,12,0.5,0.5
2023-04-10T18:00:00,1320A,113.7329,34.7178,郑州市,经开区管委,颗粒物(PM10),83,115,115,41,45,176,157,160,160,14,24,6,7,0.6,0.5
2023-04-10T18:00:00,1321A,113.73961,34.77172,郑州市,四十七中,颗粒物(PM10),89,128,122,61,48,181,158,162,162,21,27,7,8,0.7,0.6
2023-04-10T18:00:00,1322A,113.60532,34.74838,郑州市,市监测站,颗粒物(PM10),91,132,136,34,36,181,162,162,162,18,27,10,11,0.6,0.6
2023-04-10T18:00:00,1323A,113.64164,34.7525,郑州市,河医大,颗粒物(PM10),87,124,124,44,44,171,153,152,152,21,31,10,11,0.6,0.6
2023-04-10T18:00:00,1324A,113.51488,34.91089,郑州市,岗李水库,,,,,,,,,,,,,,,,
2023-04-10T18:00:00,1325A,114.3677,30.5584,武汉市,东湖梨园,颗粒物(PM10),53,55,70,27,33,181,146,149,149,8,37,8,8,0.4,0.5
2023-04-10T18:00:00,1326A,114.2529,30.558,武汉市,汉阳月湖,颗粒物(PM10),59,67,88,27,36,160,138,140,140,19,67,9,9,0.4,0.7
2023-04-10T18:00:00,1327A,114.282,30.6189,武汉市,汉口花桥,颗粒物(PM10),58,66,81,29,36,154,134,138,138,15,49,9,9,0.6,0.8
2023-04-10T18:00:00,1328A,114.3025,30.5332,武汉市,武昌紫阳,"颗粒物(PM10),细颗粒物(PM2.5)",54,57,76,38,44,153,118,135,135,30,66,9,9,0.7,1.1
2023-04-10T18:00:00,1329A,114.3646,30.6217,武汉市,青山钢花,颗粒物(PM10),60,70,102,36,51,164,143,150,150,22,58,9,10,0.7,1
2023-04-10T18:00:00,1330A,114.1566,30.4825,武汉市,沌口新区,颗粒物(PM10),57,64,92,37,45,150,125,131,131,15,66,9,10,0.8,0.8
2023-04-10T18:00:00,1331A,114.3014,30.5944,武汉市,汉口江滩,颗粒物(PM10),58,65,79,31,35,166,136,142,142,22,77,8,9,0.6,0.8
2023-04-10T18:00:00,1333A,114.135,30.6319,武汉市,吴家山,颗粒物(PM10),58,65,93,27,42,149,140,135,135,18,66,9,8,0.6,0.9
2023-04-10T18:00:00,1334A,113.8454,30.2917,武汉市,沉湖七壕,颗粒物(PM10),87,124,79,28,28,170,105,124,124,23,43,13,13,0.5,0.6
2023-04-10T18:00:00,1335A,113.0833,28.2325,长沙市,经开区环保局,颗粒物(PM10),64,77,86,39,43,133,79,73,73,23,30,7,8,0.6,0.6
2023-04-10T18:00:00,1336A,112.8872,28.2189,长沙市,高开区环保局,颗粒物(PM10),65,79,87,43,38,138,115,97,92,9,18,13,15,0.6,0.6
2023-04-10T18:00:00,1337A,113.0792,28.2053,长沙市,马坡岭,颗粒物(PM10),68,85,90,41,45,141,92,73,73,17,33,6,11,0.4,0.5
2023-04-10T18:00:00,1338A,112.9394,28.19,长沙市,湖南师范大学,,,,88,,49,105,76,73,73,15,30,7,11,0.7,0.7
2023-04-10T18:00:00,1339A,113.0178,28.1322,长沙市,雨花区环保局,颗粒物(PM10),57,63,81,37,38,136,99,85,85,12,33,8,11,0.6,0.7
2023-04-10T18:00:00,1340A,112.9792,28.2597,长沙市,伍家岭,颗粒物(PM10),74,97,91,44,38,130,92,78,78,26,42,9,10,0.8,0.8
2023-04-10T18:00:00,1341A,113.0014,28.1944,长沙市,火车新站,颗粒物(PM10),63,75,82,37,42,121,87,74,74,23,42,10,12,0.6,0.6
2023-04-10T18:00:00,1342A,112.9844,28.1178,长沙市,天心区环保局,颗粒物(PM10),63,75,85,38,40,121,65,65,65,14,31,5,9,0.5,0.5
2023-04-10T18:00:00,1343A,112.8908,28.1308,长沙市,湖南中医药大学,颗粒物(PM10),72,94,88,44,44,121,101,87,83,17,36,9,11,0.8,0.8
2023-04-10T18:00:00,1344A,112.9581,28.3611,长沙市,沙坪,颗粒物(PM10),68,86,72,41,37,117,91,78,78,26,30,18,10,0.6,0.6
2023-04-10T18:00:00,1345A,113.2347,23.1423,广州市,广雅中学,颗粒物(PM10),53,56,64,27,37,88,63,72,72,58,53,4,5,0.8,0.9
2023-04-10T18:00:00,1346A,113.2612,23.105,广州市,市五中,颗粒物(PM10),54,57,64,29,39,102,68,80,79,51,47,7,9,0.8,0.9
2023-04-10T18:00:00,1348A,113.3478,23.0916,广州市,广东商学院,,44,44,65,17,36,94,60,70,70,51,55,5,6,0.7,0.7
2023-04-10T18:00:00,1349A,113.4332,23.1047,广州市,市八十六中,,47,47,79,17,36,109,46,79,75,67,65,6,6,0.6,0.7
2023-04-10T18:00:00,1350A,113.3505,22.9483,广州市,番禺中学,,47,47,58,20,32,134,70,80,80,49,43,6,6,0.7,0.8
2023-04-10T18:00:00,1351A,113.2146,23.3916,广州市,花都师范,颗粒物(PM10),65,80,80,36,41,105,65,74,74,70,53,7,7,0.8,0.7
2023-04-10T18:00:00,1352A,113.2597,23.1331,广州市,市监测站,颗粒物(PM10),54,58,68,25,37,103,62,80,78,59,49,6,7,0.7,0.7
2023-04-10T18:00:00,1353A,113.5618,23.312,广州市,九龙镇镇龙,颗粒物(PM10),77,103,79,46,38,96,78,84,84,82,49,6,5,0.7,0.6
2023-04-10T18:00:00,1354A,113.2765,23.1544,广州市,麓湖,,46,46,61,21,35,91,69,79,79,46,50,4,5,0.6,0.7
2023-04-10T18:00:00,1355A,113.443,23.3035,广州市,帽峰山森林公园,颗粒物(PM10),57,63,59,25,31,96,61,81,80,61,36,7,6,1.1,1.1
2023-04-10T18:00:00,1356A,114.1063,22.5545,深圳市,通心岭子站,,34,34,34,15,16,111,92,108,97,10,12,4,4,0.5,0.5
2023-04-10T18:00:00,1357A,114.117,22.5625,深圳市,洪湖,,38,38,38,14,15,129,107,125,115,15,20,8,9,0.5,0.5
2023-04-10T18:00:00,1358A,113.987,22.5417,深圳市,华侨城,,39,39,36,18,17,120,96,116,102,21,19,5,5,0.6,0.5
2023-04-10T18:00:00,1359A,113.9181,22.5171,深圳市,南海子站,,,,49,,18,112,,109,98,21,23,4,5,,0.6
2023-04-10T18:00:00,1360A,114.2458,22.5689,深圳市,盐田,,36,26,31,11,14,130,113,122,122,12,33,5,7,0.5,0.5
2023-04-10T18:00:00,1361A,114.2283,22.7244,深圳市,龙岗,,33,32,40,12,16,122,105,122,108,14,19,2,4,0.4,0.4
2023-04-10T18:00:00,1363A,114.494,22.5422,深圳市,南澳,,34,32,31,11,12,133,108,118,118,8,11,5,6,0.6,0.6
2023-04-10T18:00:00,1364A,114.41,22.6342,深圳市,葵涌,,37,37,32,14,14,126,100,116,116,32,15,5,6,0.5,0.5
2023-04-10T18:00:00,1365A,114.297,22.5978,深圳市,梅沙,,38,38,34,14,12,127,112,118,118,25,11,5,5,0.5,0.5
2023-04-10T18:00:00,1366A,114.0678,22.738,深圳市,观澜,颗粒物(PM10),52,53,59,18,22,98,60,77,68,34,32,8,8,0.4,0.5
2023-04-10T18:00:00,1367A,113.5814,22.2618,珠海市,吉大,,39,39,41,20,16,130,114,126,119,10,13,5,6,0.3,0.3
2023-04-10T18:00:00,1368A,113.4881,22.2335,珠海市,前山,,49,49,38,14,14,119,99,115,107,29,23,4,5,0.3,0.3
2023-04-10T18:00:00,1369A,113.628,22.4251,珠海市,唐家,,34,34,40,17,19,106,89,96,96,24,20,4,5,0.3,0.3
2023-04-10T18:00:00,1370A,113.299,22.2281,珠海市,斗门,,43,43,41,19,19,108,98,99,98,21,22,4,5,0.5,0.4
2023-04-10T18:00:00,1371A,113.1294,23.0067,佛山市,湾梁,颗粒物(PM10),65,80,75,26,31,105,65,88,88,67,42,10,10,0.7,0.7
2023-04-10T18:00:00,1372A,113.1083,23.0478,佛山市,华材职中,颗粒物(PM10),62,73,65,32,36,106,75,92,92,69,45,7,6,0.5,0.6
2023-04-10T18:00:00,1373A,113.144,23.0453,佛山市,南海气象局,,,,60,,35,76,48,65,65,,46,4,5,0.8,0.8
2023-04-10T18:00:00,1374A,113.2881,22.8094,佛山市,顺德苏岗,颗粒物(PM10),55,60,55,22,32,109,54,69,68,43,40,8,8,0.6,0.7
2023-04-10T18:00:00,1376A,112.8383,22.8678,佛山市,高明孔堂,颗粒物(PM10),71,92,61,37,34,106,74,80,80,48,29,5,5,0.7,0.6
2023-04-10T18:00:00,1377A,112.8836,23.1588,佛山市,三水监测站,颗粒物(PM10),82,114,82,52,50,93,8,43,41,119,68,6,7,0.9,0.7
2023-04-10T18:00:00,1378A,112.867,23.185,佛山市,三水云东海,颗粒物(PM10),69,88,71,49,44,85,28,47,47,64,46,6,6,0.8,0.7
2023-04-10T18:00:00,1379A,113.3769,22.5211,中山市,华柏园,,42,42,44,26,28,102,86,96,82,17,24,4,4,0.5,0.5
2023-04-10T18:00:00,1380A,113.3881,22.5497,中山市,张溪,,43,43,52,26,28,101,96,96,83,10,28,4,5,0.4,0.5
2023-04-10T18:00:00,1381A,113.4075,22.5111,中山市,紫马岭,,43,43,45,13,22,104,98,94,90,8,18,6,7,0.4,0.5
2023-04-10T18:00:00,1382A,113.4411,22.4853,中山市,长江旅游区,,35,30,36,24,24,103,95,93,93,6,15,11,11,0.4,0.5
2023-04-10T18:00:00,1383A,113.1064,22.6058,江门市,北街,,48,48,56,14,27,127,80,82,80,20,29,5,6,0.5,0.6
2023-04-10T18:00:00,1384A,113.0731,22.5835,江门市,西区,颗粒物(PM10),57,63,59,14,31,128,89,87,83,25,32,7,8,0.6,0.6
2023-04-10T18:00:00,1385A,113.0219,22.5311,江门市,圭峰西,颗粒物(PM10),56,62,58,15,32,133,82,90,82,29,30,6,8,0.6,0.6
2023-04-10T18:00:00,1386A,113.0828,22.5947,江门市,东湖,,47,47,60,18,31,118,94,85,85,19,26,6,7,0.6,0.6
2023-04-10T18:00:00,1389A,113.7547,23.0494,东莞市,莞城梨川,颗粒物(PM10),73,96,72,48,38,165,141,138,138,70,42,11,10,0.8,0.7
2023-04-10T18:00:00,1390A,113.7944,23.0128,东莞市,东城石井,,,75,61,36,32,143,106,120,120,60,36,,9,0.8,0.7
2023-04-10T18:00:00,1391A,113.7383,22.9658,东莞市,南城西平,颗粒物(PM10),64,77,66,26,30,129,63,89,89,70,44,8,7,0.8,0.7
2023-04-10T18:00:00,1392A,114.4183,23.0528,惠州市,河南岸金山湖子站,,,,55,,27,135,104,119,119,14,18,,6,0.5,0.5
2023-04-10T18:00:00,1393A,114.4053,23.0822,惠州市,下埔横江三路子站,,36,31,53,19,26,146,115,128,128,16,19,4,6,0.3,0.3
2023-04-10T18:00:00,1394A,114.4103,23.1142,惠州市,江北云山西路子站,,41,41,52,19,27,151,116,133,133,12,15,5,7,0.4,0.4
2023-04-10T18:00:00,1395A,114.4645,22.7833,惠州市,惠阳区承修路船湖子站,,,,47,,22,126,100,124,115,,21,4,6,0.6,0.5
2023-04-10T18:00:00,1396A,114.5317,22.7422,惠州市,大亚湾管委会子站,,46,46,46,18,20,136,96,127,117,29,21,6,8,0.5,0.5
2023-04-10T18:00:00,1397A,112.4267,23.0706,肇庆市,睦岗子站,颗粒物(PM10),76,102,75,46,40,95,61,79,78,52,40,9,9,0.5,0.5
2023-04-10T18:00:00,1398A,112.4645,23.0475,肇庆市,城中子站,颗粒物(PM10),87,123,80,59,46,90,56,69,69,60,45,12,11,0.7,0.5
2023-04-10T18:00:00,1399A,112.5544,23.1522,肇庆市,坑口子站,细颗粒物(PM2.5),72,90,66,52,43,95,60,77,74,57,36,11,7,0.5,0.5
2023-04-10T18:00:00,1400A,112.4753,23.1,肇庆市,七星岩子站,,,,,,,,,,,,,,,,
2023-04-10T18:00:00,1401A,108.3103,22.7881,南宁市,二十一中,,24,24,35,9,24,63,41,42,42,25,21,5,5,0.9,0.8
2023-04-10T18:00:00,1402A,108.3141,22.8528,南宁市,北湖,,24,24,33,14,23,65,37,39,39,25,18,7,7,1.0,0.9
2023-04-10T18:00:00,1403A,108.3206,22.8225,南宁市,市监测站,,23,23,33,11,25,60,35,36,36,38,32,7,8,0.9,0.9
2023-04-10T18:00:00,1404A,108.3829,22.8037,南宁市,大自然花园,,17,17,32,11,25,57,36,39,39,22,18,5,5,0.8,0.8
2023-04-10T18:00:00,1405A,108.4394,22.7904,南宁市,仙葫,,22,15,34,15,25,67,43,44,44,23,21,6,6,0.6,0.6
2023-04-10T18:00:00,1406A,108.2397,22.8467,南宁市,区农职院,,,34,37,8,20,64,28,30,30,41,29,6,6,,0.8
2023-04-10T18:00:00,1407A,108.3275,22.735,南宁市,英华嘉园,,18,18,36,10,26,51,37,37,37,24,21,6,5,0.9,0.9
2023-04-10T18:00:00,1408A,108.2257,22.7757,南宁市,沙井镇街道办,,28,26,38,11,27,50,10,27,22,55,37,5,5,1.0,0.9
2023-04-10T18:00:00,1409A,110.576,19.9507,海口市,东寨港,,,23,27,16,15,44,37,38,38,,,7,6,0.5,0.4
2023-04-10T18:00:00,1410A,110.3232,20.0574,海口市,海南大学,,40,40,40,18,16,104,86,89,86,8,9,6,6,0.5,0.5
2023-04-10T18:00:00,1411A,110.283,20.0053,海口市,秀英海南医院,,42,42,35,21,17,97,75,85,82,17,10,4,4,0.5,0.5
2023-04-10T18:00:00,1412A,110.338,19.9969,海口市,海南师范大学,,37,37,36,20,17,94,80,80,80,8,8,4,4,0.4,0.4
2023-04-10T18:00:00,1413A,110.33,20.0356,海口市,龙华路环保局宿舍,,40,40,36,21,18,100,81,85,82,9,9,4,4,0.5,0.5
2023-04-10T18:00:00,1414A,106.3787,29.8279,重庆市,缙云山,臭氧1小时,79,74,79,27,28,183,183,147,147,24,19,10,12,0.4,0.4
2023-04-10T18:00:00,1416A,106.4213,29.8253,重庆市,天生,臭氧1小时,87,102,100,37,42,189,189,143,143,22,47,8,9,0.7,0.8
2023-04-10T18:00:00,1417A,106.6263,29.7228,重庆市,两路,颗粒物(PM10),146,242,103,26,39,197,185,150,150,34,63,6,8,0.8,1
2023-04-10T18:00:00,1418A,106.2953,29.5983,重庆市,虎溪,臭氧1小时,116,97,98,56,48,231,231,179,179,17,46,10,9,0.7,0.7
2023-04-10T18:00:00,1419A,106.5777,29.5102,重庆市,南坪,臭氧1小时,83,104,96,40,41,186,186,139,139,32,38,7,12,0.7,0.7
2023-04-10T18:00:00,1420A,106.6556,29.6277,重庆市,唐家沱,臭氧1小时,90,89,90,34,39,192,192,148,148,25,51,7,8,0.7,0.8
2023-04-10T18:00:00,1421A,106.6349,29.4906,重庆市,茶园,颗粒物(PM10),69,88,121,35,41,174,173,140,140,28,64,8,9,0.8,1
2023-04-10T18:00:00,1422A,106.3754,29.4572,重庆市,白市驿,臭氧1小时,127,122,112,43,42,263,254,200,200,26,34,15,18,1.0,1
2023-04-10T18:00:00,1425A,106.6205,29.7166,重庆市,空港,臭氧1小时,98,91,95,35,40,203,198,160,160,21,59,8,10,0.5,0.8
2023-04-10T18:00:00,1426A,106.4782,29.4875,重庆市,新山村,颗粒物(PM10),76,102,117,38,47,178,174,139,139,38,75,13,18,0.7,0.9
2023-04-10T18:00:00,1427A,106.5616,29.6453,重庆市,礼嘉,臭氧1小时,80,102,111,35,39,192,184,136,136,30,73,8,10,0.7,1
2023-04-10T18:00:00,1428A,106.4522,29.7091,重庆市,蔡家,臭氧1小时,107,103,101,43,39,214,214,157,157,24,43,10,9,0.7,0.8
2023-04-10T18:00:00,1429A,106.5093,29.3917,重庆市,鱼新街,臭氧1小时,108,85,93,37,42,215,215,163,163,39,60,10,13,0.7,0.9
2023-04-10T18:00:00,1431A,103.9728,30.7236,成都市,金泉两河,臭氧1小时,129,130,113,67,63,258,257,209,209,28,34,3,3,0.8,0.7
2023-04-10T18:00:00,1432A,104.176,30.6872,成都市,十里店,臭氧1小时,105,140,120,75,60,209,209,167,167,27,44,4,3,0.6,0.6
2023-04-10T18:00:00,1433A,104.079,30.5706,成都市,三瓦窑,臭氧1小时,111,132,116,56,52,223,222,179,179,20,41,3,4,0.6,0.7
2023-04-10T18:00:00,1434A,104.1114,30.63,成都市,沙河铺,细颗粒物(PM2.5),114,119,106,86,58,223,219,174,174,30,42,4,3,0.6,0.7
2023-04-10T18:00:00,1437A,104.0786,30.6531,成都市,君平街,臭氧1小时,117,159,123,85,66,234,234,192,192,27,39,5,6,0.8,0.8
2023-04-10T18:00:00,1438A,103.613,31.0283,成都市,灵岩寺,,,,,,,,,,,,,,,,
2023-04-10T18:00:00,1439A,106.6899,26.5998,贵阳市,马鞍山,,41,41,41,24,27,97,97,78,78,13,13,5,5,0.4,0.4
2023-04-10T18:00:00,1440A,106.6971,26.5694,贵阳市,市环保站,,46,46,46,29,29,89,87,68,68,23,20,4,4,0.9,0.8
2023-04-10T18:00:00,1441A,106.6243,26.6266,贵阳市,鉴湖路,颗粒物(PM10),52,53,46,22,23,92,92,80,80,11,11,5,5,0.4,0.4
2023-04-10T18:00:00,1442A,106.7487,26.6343,贵阳市,燕子冲,,42,36,46,29,31,99,99,76,76,14,15,1,2,0.5,0.5
2023-04-10T18:00:00,1443A,106.6555,26.4365,贵阳市,碧云窝,,,,47,,21,103,103,78,78,8,9,5,5,0.7,0.7
2023-04-10T18:00:00,1444A,106.694,26.5161,贵阳市,中院村,颗粒物(PM10),51,51,49,24,23,96,96,72,72,16,15,8,8,0.7,0.5
2023-04-10T18:00:00,1445A,106.7109,26.6027,贵阳市,红边门,,,,49,,27,61,,67,,,20,,4,,0.6
2023-04-10T18:00:00,1446A,106.7164,26.5699,贵阳市,新华路,,46,46,48,24,27,94,94,75,75,15,13,1,3,0.5,0.5
2023-04-10T18:00:00,1447A,106.674,26.5424,贵阳市,太慈桥,颗粒物(PM10),52,53,45,24,19,95,95,76,76,10,9,4,5,0.6,0.5
2023-04-10T18:00:00,1450A,102.8204,24.8886,昆明市,呈贡新区,,,,75,24,52,160,142,155,153,,11,9,8,0.4,0.8
2023-04-10T18:00:00,1451A,102.6251,24.9608,昆明市,西山森林公园,颗粒物(PM10),69,87,72,25,44,173,159,171,163,8,13,5,10,0.7,0.9
2023-04-10T18:00:00,1452A,102.7252,25.0902,昆明市,龙泉镇,,44,31,76,17,47,151,138,143,142,8,41,8,8,0.4,0.7
2023-04-10T18:00:00,1453A,102.7266,25.0375,昆明市,东风东路,,41,34,70,22,50,146,131,140,139,14,20,7,10,0.6,0.9
2023-04-10T18:00:00,1454A,102.6742,25.0669,昆明市,金鼎山,,49,49,69,14,52,168,136,163,140,11,17,5,6,0.5,0.7
2023-04-10T18:00:00,1455A,102.6644,25.0401,昆明市,碧鸡广场,,44,36,75,18,51,159,140,154,146,13,26,5,7,0.6,0.8
2023-04-10T18:00:00,1456A,91.1319,29.6514,拉萨市,八廓街,颗粒物(PM10),59,67,38,8,10,153,135,139,139,11,10,7,7,0.2,0.2
2023-04-10T18:00:00,1457A,91.1221,29.6747,拉萨市,市环保局,颗粒物(PM10),52,53,33,10,8,155,135,142,142,10,10,5,5,0.4,0.4
2023-04-10T18:00:00,1458A,91.0874,29.6475,拉萨市,区监测站,,,51,35,9,7,138,123,126,126,,11,6,7,0.2,0.2
2023-04-10T18:00:00,1459A,91.1774,29.6541,拉萨市,西藏大学,颗粒物(PM10),69,88,33,16,8,151,137,140,140,7,6,6,7,0.5,0.5
2023-04-10T18:00:00,1460A,90.9798,29.6588,拉萨市,区辐射站,,44,36,34,12,10,141,138,132,132,8,12,7,7,0.3,0.5
2023-04-10T18:00:00,1461A,91.0834,29.6292,拉萨市,拉萨火车站,颗粒物(PM10),53,55,36,10,7,142,135,130,130,11,8,7,8,0.3,0.3
2023-04-10T18:00:00,1462A,108.882,34.2749,西安市,高压开关厂,颗粒物(PM10),72,94,140,39,49,165,165,118,118,36,78,8,11,0.5,0.7
2023-04-10T18:00:00,1463A,108.993,34.2629,西安市,兴庆小区,细颗粒物(PM2.5),77,97,108,56,45,163,162,123,123,43,62,7,10,0.6,0.8
2023-04-10T18:00:00,1464A,109.06,34.2572,西安市,纺织城,颗粒物(PM10),79,108,110,48,34,161,161,122,122,39,57,6,12,0.8,0.8
2023-04-10T18:00:00,1465A,108.9356,34.2173,西安市,小寨,颗粒物(PM10),72,93,113,30,42,172,160,121,121,35,71,8,10,0.5,0.8
2023-04-10T18:00:00,1466A,108.954,34.2713,西安市,市人民体育场,颗粒物(PM10),83,116,119,44,47,166,165,122,122,44,70,7,9,0.6,0.7
2023-04-10T18:00:00,1467A,108.8922,34.2322,西安市,高新西区,,,98,122,31,51,173,,116,116,31,78,7,9,0.7,1.1
2023-04-10T18:00:00,1468A,108.935,34.3474,西安市,经开区,颗粒物(PM10),76,101,124,42,49,156,156,120,120,46,79,5,7,0.5,0.6
2023-04-10T18:00:00,1469A,108.906,34.1546,西安市,长安区,颗粒物(PM10),74,97,121,27,42,162,158,124,124,36,62,6,7,0.3,0.5
2023-04-10T18:00:00,1471A,109.2186,34.3731,西安市,临潼区,颗粒物(PM10),64,78,95,25,34,160,139,135,135,34,48,10,10,0.5,0.7
2023-04-10T18:00:00,1472A,108.869,34.378,西安市,草滩,颗粒物(PM10),76,102,113,27,33,130,129,110,110,35,62,4,12,0.4,0.7
2023-04-10T18:00:00,1473A,108.985,34.1978,西安市,曲江文化产业集团,颗粒物(PM10),68,85,116,27,39,177,156,127,127,42,67,5,7,0.6,0.8
2023-04-10T18:00:00,1474A,109.051,34.3213,西安市,广运潭,颗粒物(PM10),78,106,122,39,39,152,152,122,122,39,61,8,12,0.6,0.6
2023-04-10T18:00:00,1476A,103.631,36.1031,兰州市,兰炼宾馆,颗粒物(PM10),190,330,267,124,92,106,102,94,94,15,59,7,31,0.5,0.9
2023-04-10T18:00:00,1477A,104.1373,35.9454,兰州市,榆中兰大校区,,,,,,,,,,,,,,,,
2023-04-10T18:00:00,1478A,103.8412,36.0726,兰州市,生物制品所,颗粒物(PM10),180,310,248,82,70,106,97,88,88,19,53,9,15,0.5,0.8
2023-04-10T18:00:00,1479A,103.831,36.0464,兰州市,铁路设计院,颗粒物(PM10),165,279,239,89,79,104,96,85,85,20,60,3,15,0.4,0.9
2023-04-10T18:00:00,1483A,101.524,36.6867,西宁市,第五水厂,,,,,,,,,,,,,,,,
2023-04-10T18:00:00,1484A,105.9512,38.6016,银川市,贺兰山马莲口,颗粒物(PM10),199,347,232,50,54,114,109,110,110,5,6,8,8,0.2,0.3
2023-04-10T18:00:00,1488A,106.2328,38.4975,银川市,贺兰山东路,颗粒物(PM10),359,467,398,94,89,107,102,103,103,8,21,2,8,0.4,0.5
2023-04-10T18:00:00,1489A,106.1358,38.5036,银川市,学院路,颗粒物(PM10),335,448,361,76,65,96,91,92,92,9,24,4,8,0.6,0.6
2023-04-10T18:00:00,1490A,87.5801,43.8303,乌鲁木齐市,监测站,,36,36,24,19,11,103,99,80,80,19,35,6,6,0.7,0.9
2023-04-10T18:00:00,1491A,87.6046,43.768,乌鲁木齐市,收费所,,44,44,25,13,10,96,96,76,76,14,27,3,3,0.2,0.4
2023-04-10T18:00:00,1492A,87.4754,43.9469,乌鲁木齐市,新疆农科院农场,,48,46,31,33,34,86,86,64,64,21,29,9,12,0.7,0.8
2023-04-10T18:00:00,1493A,87.5525,43.8711,乌鲁木齐市,铁路局,,31,28,19,8,12,98,98,80,80,16,33,5,5,0.3,0.5
2023-04-10T18:00:00,1494A,87.6432,43.831,乌鲁木齐市,三十一中学,,32,29,20,19,7,104,102,89,89,5,11,10,8,0.6,0.7
2023-04-10T18:00:00,1496A,87.7216,44.1747,乌鲁木齐市,米东区环保局,,34,22,26,14,15,108,108,88,88,1,6,8,9,0.1,0.2
2023-04-10T18:00:00,1508A,112.9433,27.8614,湘潭市,板塘,颗粒物(PM10),64,77,87,36,44,114,67,73,73,16,25,17,19,0.5,0.5
2023-04-10T18:00:00,1511A,112.9118,27.8403,湘潭市,市监测站,颗粒物(PM10),59,68,82,41,41,126,84,81,81,17,31,13,28,0.8,1.2
2023-04-10T18:00:00,1512A,112.8937,27.8728,湘潭市,江麓,细颗粒物(PM2.5),62,72,83,44,39,132,87,86,86,17,23,17,21,1.0,1.2
2023-04-10T18:00:00,1513A,112.9227,27.8159,湘潭市,岳塘,颗粒物(PM10),62,73,85,35,37,105,83,82,82,5,16,15,16,0.8,0.7
2023-04-10T18:00:00,1514A,112.9074,27.9119,湘潭市,科大,细颗粒物(PM2.5),69,85,92,50,47,119,90,89,89,20,28,11,15,0.5,1
2023-04-10T18:00:00,1515A,113.135,27.8244,株洲市,天台山庄,颗粒物(PM10),58,66,83,32,41,130,94,87,87,12,22,8,13,0.8,0.8
2023-04-10T18:00:00,1518A,113.095,27.8867,株洲市,株冶医院,颗粒物(PM10),56,61,87,35,44,117,90,86,86,13,35,6,9,0.6,0.7
2023-04-10T18:00:00,1519A,113.167,27.8667,株洲市,市四中,颗粒物(PM10),53,55,77,32,42,131,84,86,76,14,24,8,12,0.7,0.8
2023-04-10T18:00:00,1520A,113.143,27.8381,株洲市,火车站,颗粒物(PM10),53,56,81,28,40,119,91,82,82,14,24,8,13,0.7,0.8
2023-04-10T18:00:00,1524A,113.13,27.8528,株洲市,市监测站,颗粒物(PM10),53,56,81,29,51,134,92,89,89,18,26,10,12,0.7,0.6
2023-04-10T18:00:00,1552A,106.805,26.3003,贵阳市,桐木岭,,,,,,,,,,,,,,,,
2023-04-10T18:00:00,1559A,113.251,27.8336,株洲市,大京风景区,,48,48,60,26,38,102,88,85,85,4,7,5,6,0.5,0.6
2023-04-10T18:00:00,1562A,113.0048,27.9153,湘潭市,昭山,颗粒物(PM10),62,73,89,36,39,116,91,87,87,16,34,7,10,0.7,0.6
2023-04-10T18:00:00,1564A,112.4876,27.9164,湘潭市,韶山,颗粒物(PM10),53,55,74,21,24,120,100,106,99,15,16,9,11,0.5,0.5
2023-04-10T18:00:00,1585A,109.8756,40.6532,包头市,市环境监测站,颗粒物(PM10),500,1114,641,371,166,106,94,98,98,8,33,8,18,0.5,1.4
2023-04-10T18:00:00,1587A,109.9991,40.5842,包头市,包头八中,颗粒物(PM10),500,2131,697,225,173,109,98,101,101,10,32,6,15,0.5,0.7
2023-04-10T18:00:00,1588A,109.8538,40.6821,包头市,青山宾馆,颗粒物(PM10),500,1108,634,209,163,106,94,94,94,6,31,6,13,0.2,1.1
2023-04-10T18:00:00,1589A,109.8642,40.6288,包头市,惠龙物流,颗粒物(PM10),500,1209,587,376,142,103,89,91,91,11,34,6,16,0.4,1.2
2023-04-10T18:00:00,1590A,110.0377,40.5546,包头市,东河鸿龙湾,颗粒物(PM10),500,1150,500,254,147,104,94,97,97,5,20,9,12,0.2,0.3
2023-04-10T18:00:00,1591A,110.0023,39.8129,鄂尔多斯市,综合楼,颗粒物(PM10),500,2652,520,393,93,101,90,99,97,12,27,4,8,,0.5
2023-04-10T18:00:00,1592A,109.9486,39.8261,鄂尔多斯市,巴音孟克林场办事处,细颗粒物(PM2.5),486,,386,478,109,105,96,102,102,8,14,6,9,0.5,0.6
2023-04-10T18:00:00,1593A,109.7736,39.5986,鄂尔多斯市,康泽苑,细颗粒物(PM2.5),390,,346,340,99,99,93,96,96,10,20,8,9,0.6,0.6
2023-04-10T18:00:00,1594A,109.8119,39.5989,鄂尔多斯市,华泰汽车城,细颗粒物(PM2.5),429,,399,393,96,102,96,98,98,8,24,4,6,0.4,0.5
2023-04-10T18:00:00,1595A,109.9734,39.7884,鄂尔多斯市,奥林花园,细颗粒物(PM2.5),478,,495,466,104,100,93,97,97,,43,,9,0.4,0.6
2023-04-10T18:00:00,1597A,122.2703,40.7094,营口市,大庆路,颗粒物(PM10),80,110,86,41,45,139,99,130,109,30,24,14,9,0.7,0.8
2023-04-10T18:00:00,1598A,122.2150,40.6511,营口市,镜湖西路,颗粒物(PM10),78,106,92,26,36,147,119,135,117,33,24,12,14,1.2,0.9
2023-04-10T18:00:00,1599A,122.1658,40.6789,营口市,西炮台,颗粒物(PM10),78,106,94,38,44,158,130,136,121,30,30,10,11,0.7,0.9
2023-04-10T18:00:00,1600A,124.3303,40.0625,丹东市,江湾东路,颗粒物(PM10),58,65,70,19,27,150,126,144,126,9,10,6,7,0.6,0.6
2023-04-10T18:00:00,1601A,124.4256,40.1503,丹东市,临江后街,颗粒物(PM10),66,81,72,19,22,138,128,134,133,7,7,11,11,0.5,0.7
2023-04-10T18:00:00,1602A,124.3933,40.1461,丹东市,元宝山,颗粒物(PM10),54,57,62,21,27,136,123,136,126,13,12,9,9,0.6,0.6
2023-04-10T18:00:00,1603A,124.3633,40.1092,丹东市,民主桥,颗粒物(PM10),55,60,58,20,23,140,121,131,126,11,10,6,6,0.6,0.6
2023-04-10T18:00:00,1604A,122.0303,41.1489,盘锦市,开发区,颗粒物(PM10),79,108,88,42,49,150,132,138,122,21,20,11,10,1.1,1
2023-04-10T18:00:00,1605A,122.0485,41.0883,盘锦市,兴隆台,颗粒物(PM10),80,110,104,41,51,143,119,130,117,34,23,8,9,0.8,0.8
2023-04-10T18:00:00,1606A,121.8297,41.1028,盘锦市,新生街道,颗粒物(PM10),67,83,74,43,52,152,152,130,123,19,22,10,8,0.7,0.7
2023-04-10T18:00:00,1607A,120.9092,40.7136,葫芦岛市,龙港区,细颗粒物(PM2.5),83,96,100,61,62,139,111,120,88,18,13,11,9,0.8,0.8
2023-04-10T18:00:00,1608A,120.8392,40.7514,葫芦岛市,化工街,颗粒物(PM10),96,141,134,58,67,143,91,110,82,24,16,8,8,0.9,0.8
2023-04-10T18:00:00,1609A,120.8341,40.7073,葫芦岛市,新区,细颗粒物(PM2.5),82,106,106,60,69,150,107,119,89,25,19,11,11,0.8,0.8
2023-04-10T18:00:00,1610A,120.8695,40.7677,葫芦岛市,东城区,颗粒物(PM10),84,117,119,55,63,124,95,112,89,37,25,10,10,1.0,0.9
2023-04-10T18:00:00,1611A,118.5819,24.9117,泉州市,涂山街,,34,34,44,11,14,136,103,115,115,14,19,7,8,0.5,0.5
2023-04-10T18:00:00,1612A,118.5972,24.8978,泉州市,津头埔,,38,38,42,15,16,130,104,113,113,16,21,9,10,0.4,0.4
2023-04-10T18:00:00,1613A,118.6663,24.9424,泉州市,万安,,38,38,37,18,15,143,121,126,126,10,18,9,10,0.6,0.6
2023-04-10T18:00:00,1614A,118.6117,24.9604,泉州市,清源山,,,,,,,,,,,,,,,,
2023-04-10T18:00:00,1616A,117.6795,36.229,济南市,技术学院,颗粒物(PM10),60,70,93,29,36,174,162,167,167,11,15,8,10,0.7,0.7
2023-04-10T18:00:00,1618A,118.3429,35.0532,临沂市,沂河小区,颗粒物(PM10),68,85,95,25,39,159,149,150,150,15,26,8,14,0.3,0.3
2023-04-10T18:00:00,1619A,118.295,35.0583,临沂市,鲁南制药厂,颗粒物(PM10),65,80,93,25,37,169,156,158,158,16,30,12,17,0.4,0.4
2023-04-10T18:00:00,1620A,118.2794,34.9976,临沂市,新光毛纺厂,颗粒物(PM10),64,78,98,24,37,160,150,151,151,13,32,9,16,0.4,0.5
2023-04-10T18:00:00,1621A,118.3956,35.0888,临沂市,河东保险公司,颗粒物(PM10),67,83,85,22,36,165,146,157,157,33,32,10,16,0.5,0.6
2023-04-10T18:00:00,1622A,116.3032,37.4674,德州市,儿童乐园,颗粒物(PM10),90,129,121,46,47,180,180,148,148,14,16,9,9,0.7,0.7
2023-04-10T18:00:00,1624A,116.2991,37.4451,德州市,监理站,颗粒物(PM10),90,130,126,44,44,174,174,143,143,17,20,16,16,0.5,0.5
2023-04-10T18:00:00,1625A,115.9848,36.4372,聊城市,区政府,颗粒物(PM10),82,113,120,38,43,173,166,154,154,17,20,10,12,0.8,0.8
2023-04-10T18:00:00,1628A,118.0062,37.3803,滨州市,市环保局,颗粒物(PM10),78,106,130,31,42,164,141,148,148,14,20,8,12,0.5,0.6
2023-04-10T18:00:00,1629A,118.0018,37.3617,滨州市,第二水厂,颗粒物(PM10),73,95,123,31,40,170,142,152,152,17,28,4,10,0.4,0.5
2023-04-10T18:00:00,1630A,117.9776,37.393,滨州市,北中新校,颗粒物(PM10),84,117,116,30,38,169,107,143,143,106,25,10,11,0.3,0.3
2023-04-10T18:00:00,1631A,118.0414,36.8103,淄博市,人民公园,细颗粒物(PM2.5),59,66,99,42,42,185,150,158,158,17,15,11,11,0.4,0.5
2023-04-10T18:00:00,1633A,117.8525,36.4847,淄博市,双山,颗粒物(PM10),55,59,87,19,31,160,147,155,155,13,16,10,12,0.2,0.4
2023-04-10T18:00:00,1634A,117.9592,36.6331,淄博市,气象站,颗粒物(PM10),58,66,99,27,35,161,150,156,156,14,15,13,15,0.1,0.2
2023-04-10T18:00:00,1635A,118.3092,36.8194,淄博市,莆田园,颗粒物(PM10),70,90,108,36,39,172,163,165,165,16,19,15,15,0.7,0.7
2023-04-10T18:00:00,1637A,117.558,34.8438,枣庄市,市中区政府,颗粒物(PM10),68,85,112,29,44,204,161,178,178,20,42,10,13,0.3,0.5
2023-04-10T18:00:00,1638A,117.2852,34.7837,枣庄市,薛城环保局,颗粒物(PM10),72,93,105,34,40,189,164,173,173,17,29,14,20,0.3,0.5
2023-04-10T18:00:00,1639A,117.5852,34.7745,枣庄市,峄城区政府,颗粒物(PM10),67,83,104,29,36,192,150,164,164,15,29,10,13,0.3,0.4
2023-04-10T18:00:00,1640A,117.7276,34.5578,枣庄市,台儿庄区环保局,颗粒物(PM10),63,75,86,27,35,167,149,153,153,19,34,13,18,0.7,0.7
2023-04-10T18:00:00,1641A,117.4518,35.0992,枣庄市,山亭区环保局,颗粒物(PM10),75,100,94,39,39,178,172,170,170,17,22,10,11,0.2,0.6
2023-04-10T18:00:00,1642A,121.2514,37.5639,烟台市,开发区,臭氧1小时,80,90,91,39,40,188,184,174,164,30,24,10,11,0.7,0.6
2023-04-10T18:00:00,1643A,121.3719,37.5433,烟台市,轴承厂,臭氧1小时,75,85,85,39,40,185,180,166,164,14,15,9,8,0.7,0.6
2023-04-10T18:00:00,1644A,121.3181,37.5436,烟台市,西郊化工站,颗粒物(PM10),73,95,100,35,34,183,177,164,161,17,16,11,10,0.6,0.5
2023-04-10T18:00:00,1645A,121.4478,37.4822,烟台市,莱山环保局,颗粒物(PM10),78,105,87,44,39,184,180,163,163,20,18,12,11,0.6,0.5
2023-04-10T18:00:00,1646A,121.2611,37.4967,烟台市,福山环保局,颗粒物(PM10),75,100,103,36,35,172,172,158,156,24,23,12,12,0.7,0.6
2023-04-10T18:00:00,1650A,119.1437,36.7023,潍坊市,环保局,臭氧1小时,83,110,97,40,37,196,186,172,172,26,23,12,11,0.7,0.6
2023-04-10T18:00:00,1653A,116.6251,35.4302,济宁市,火炬城,颗粒物(PM10),70,90,84,34,34,188,168,170,170,8,13,13,13,0.7,0.7
2023-04-10T18:00:00,1655A,116.5491,35.4042,济宁市,电化厂,颗粒物(PM10),71,91,99,41,40,181,164,165,165,9,12,9,11,0.6,0.7
2023-04-10T18:00:00,1656A,117.1437,36.1937,泰安市,监测站,颗粒物(PM10),76,102,99,41,46,174,166,165,165,10,13,8,9,0.4,0.4
2023-04-10T18:00:00,1657A,117.0885,36.2017,泰安市,人口学校,颗粒物(PM10),73,95,100,34,36,172,172,164,164,11,10,8,10,0.5,0.4
2023-04-10T18:00:00,1658A,117.1089,36.1758,泰安市,电力学校,颗粒物(PM10),78,105,98,37,40,173,169,165,165,12,17,11,13,0.2,0.3
2023-04-10T18:00:00,1659A,119.471,35.4209,日照市,监测站,臭氧1小时,79,97,100,40,46,209,183,182,182,28,33,7,10,0.5,0.8
2023-04-10T18:00:00,1660A,119.523,35.4216,日照市,市政府广场,颗粒物(PM10),78,105,102,44,44,188,167,166,166,37,36,9,12,0.5,0.7
2023-04-10T18:00:00,1661A,119.5587,35.4044,日照市,港务局,颗粒物(PM10),79,107,110,42,46,189,167,159,159,47,49,10,12,0.7,0.8
2023-04-10T18:00:00,1662A,122.1214,37.4236,威海市,华夏技校,臭氧1小时,70,80,61,44,35,176,176,159,159,29,21,11,5,0.6,0.5
2023-04-10T18:00:00,1663A,122.0508,37.5236,威海市,山大分校,臭氧1小时,87,93,74,39,30,189,189,166,166,20,18,6,4,0.6,0.5
2023-04-10T18:00:00,1664A,122.1067,37.5072,威海市,市监测站,臭氧1小时,93,90,79,32,31,194,194,177,165,8,11,8,7,0.6,0.6
2023-04-10T18:00:00,1666A,118.6614,37.4309,东营市,市环保局,颗粒物(PM10),78,105,108,27,36,189,145,170,165,26,27,11,16,0.3,0.4
2023-04-10T18:00:00,1669A,113.5824,24.7733,韶关市,市八中,细颗粒物(PM2.5),82,90,71,60,43,79,59,62,62,28,24,11,19,0.7,0.7
2023-04-10T18:00:00,1671A,113.5917,24.7972,韶关市,园林处,颗粒物(PM10),62,73,71,35,35,86,66,74,74,23,22,12,19,0.6,0.6
2023-04-10T18:00:00,1672A,113.6735,24.7791,韶关市,韶关学院,细颗粒物(PM2.5),107,92,74,80,56,69,53,54,54,35,30,11,17,0.8,0.9
2023-04-10T18:00:00,1673A,113.5971,24.6863,韶关市,曲江监测站,细颗粒物(PM2.5),83,68,73,61,50,89,50,72,71,30,26,8,12,0.9,0.8
2023-04-10T18:00:00,1674A,116.6794,23.3667,汕头市,金平子站,,41,41,34,12,14,135,128,118,118,13,16,5,9,0.6,0.6
2023-04-10T18:00:00,1675A,116.7244,23.3633,汕头市,龙湖子站,,44,41,34,15,12,144,138,129,129,15,17,3,6,0.5,0.5
2023-04-10T18:00:00,1676A,116.7258,23.2775,汕头市,濠江子站,,42,42,33,23,14,130,125,117,117,16,14,8,9,0.5,0.5
2023-04-10T18:00:00,1677A,116.7519,23.4714,汕头市,澄海子站,,41,41,34,17,16,141,131,129,129,18,20,5,10,0.3,0.3
2023-04-10T18:00:00,1678A,116.6092,23.2539,汕头市,潮阳子站,,,,,,,133,118,119,119,23,16,8,9,0.6,0.5
2023-04-10T18:00:00,1680A,110.3539,21.2706,湛江市,湛江影剧院,,43,43,46,27,27,125,92,117,94,9,8,5,5,0.5,0.5
2023-04-10T18:00:00,1681A,110.3928,21.2228,湛江市,市环境监测站,,46,42,44,32,30,123,88,117,91,12,10,6,6,0.6,0.6
2023-04-10T18:00:00,1682A,110.4019,21.1997,湛江市,环保局宿舍,,39,39,42,22,24,125,96,120,96,8,8,5,5,0.5,0.5
2023-04-10T18:00:00,1683A,110.4111,21.2028,湛江市,霞山游泳场,,46,46,48,25,26,128,100,122,99,9,9,5,5,0.5,0.5
2023-04-10T18:00:00,1684A,110.3316,21.2679,湛江市,麻章区环保局,颗粒物(PM10),56,61,49,30,26,131,93,123,97,15,12,5,5,0.6,0.6
2023-04-10T18:00:00,1685A,110.4558,21.2567,湛江市,坡头区环保局,,41,41,42,22,24,128,105,122,105,8,8,6,6,0.5,0.5
2023-04-10T18:00:00,1686A,111.0286,21.4688,茂名市,电白南海,颗粒物(PM10),53,56,58,19,29,108,85,100,100,21,15,5,6,0.5,0.6
2023-04-10T18:00:00,1687A,110.9294,21.6533,茂名市,茂石化七小,,,,66,,38,105,86,82,82,10,15,5,8,,0.6
2023-04-10T18:00:00,1688A,110.9107,21.6687,茂名市,健康路,,48,48,54,18,28,108,82,82,82,11,16,5,7,0.6,0.6
2023-04-10T18:00:00,1689A,110.8592,21.6828,茂名市,高岭,,48,48,63,22,43,110,82,87,86,15,20,9,13,0.5,0.6
2023-04-10T18:00:00,1690A,116.1231,24.3284,梅州市,梅江月梅,颗粒物(PM10),51,52,52,33,26,143,116,127,127,22,18,8,11,0.5,0.5
2023-04-10T18:00:00,1691A,116.0797,24.2719,梅州市,梅县新城,,50,50,59,31,32,148,126,130,130,27,28,5,8,0.6,0.5
2023-04-10T18:00:00,1692A,116.1248,24.2654,梅州市,环境监控中心,颗粒物(PM10),56,62,59,29,30,150,125,135,135,34,36,10,10,0.6,0.6
2023-04-10T18:00:00,1693A,115.3653,22.775,汕尾市,市环保局,,39,24,35,13,12,138,123,125,125,6,8,10,10,0.4,0.4
2023-04-10T18:00:00,1694A,115.3706,22.7898,汕尾市,市政府,,40,28,35,19,16,141,128,131,131,8,12,10,11,0.5,0.5
2023-04-10T18:00:00,1695A,115.3622,22.7925,汕尾市,新城中学,,37,32,38,14,15,130,118,118,118,6,9,6,6,0.5,0.5
2023-04-10T18:00:00,1696A,114.6778,23.7569,河源市,源西,,42,42,63,20,33,132,118,116,116,20,29,5,6,0.7,0.7
2023-04-10T18:00:00,1697A,114.6944,23.7586,河源市,东埔,,48,48,66,24,38,136,122,120,120,17,20,5,6,0.8,0.7
2023-04-10T18:00:00,1698A,114.6892,23.7233,河源市,老城,颗粒物(PM10),57,63,82,31,36,131,125,116,116,16,22,5,6,0.7,0.7
2023-04-10T18:00:00,1699A,111.9797,21.8593,阳江市,鸳鸯湖,细颗粒物(PM2.5),79,73,73,58,59,102,31,89,56,32,19,5,8,0.8,0.7
2023-04-10T18:00:00,1701A,111.9491,21.8658,阳江市,马南垌,细颗粒物(PM2.5),87,81,85,64,55,102,35,88,54,41,30,5,7,0.9,0.7
2023-04-10T18:00:00,1702A,113.0426,23.691,清远市,环保大楼,细颗粒物(PM2.5),88,69,81,65,54,81,48,63,63,54,38,6,6,1.1,1
2023-04-10T18:00:00,1703A,113.0208,23.7106,清远市,凤城街办,,,94,97,51,51,70,,51,51,50,35,6,6,0.7,0.6
2023-04-10T18:00:00,1705A,116.6367,23.6719,潮州市,西园路,细颗粒物(PM2.5),65,61,39,47,17,142,110,118,118,20,18,7,7,0.9,0.8
2023-04-10T18:00:00,1706A,116.6447,23.6706,潮州市,档案局,颗粒物(PM10),56,61,41,39,19,163,120,136,134,20,15,9,9,0.6,0.4
2023-04-10T18:00:00,1708A,116.3701,23.5345,揭阳市,新兴,,50,50,42,24,17,171,125,139,139,22,19,10,14,0.6,0.6
2023-04-10T18:00:00,1709A,116.3264,23.5443,揭阳市,西马,颗粒物(PM10),58,66,46,25,17,168,125,139,139,16,17,9,11,0.6,0.5
2023-04-10T18:00:00,1710A,116.3611,23.5626,揭阳市,东兴,颗粒物(PM10),53,55,41,22,17,171,136,142,142,13,16,6,12,0.7,0.6
2023-04-10T18:00:00,1711A,116.4151,23.5294,揭阳市,渔湖,,47,47,45,21,22,169,129,138,138,14,14,15,18,0.8,0.5
2023-04-10T18:00:00,1712A,112.0392,22.9169,云浮市,新市府,颗粒物(PM10),58,65,55,38,40,69,30,57,55,43,21,3,3,0.8,0.7
2023-04-10T18:00:00,1714A,112.0539,22.9539,云浮市,牧羊,细颗粒物(PM2.5),158,69,68,120,70,70,33,61,57,42,30,6,7,0.8,0.7
2023-04-10T18:00:00,1715A,102.575,24.3711,玉溪市,东风水库,颗粒物(PM10),52,54,73,35,59,158,153,153,143,9,14,6,8,0.7,1.1
2023-04-10T18:00:00,1718A,115.4208,35.2464,菏泽市,气象局,颗粒物(PM10),89,127,122,38,41,167,156,157,157,15,20,10,17,0.5,0.5
2023-04-10T18:00:00,1719A,115.4747,35.2375,菏泽市,市政协,颗粒物(PM10),83,116,108,44,41,169,152,157,156,10,13,12,16,0.5,0.5
2023-04-10T18:00:00,1721A,113.3819,40.1097,大同市,果树场,,,,,,,,,,,,,,,,
2023-04-10T18:00:00,1723A,113.2994,40.0758,大同市,云冈宾馆,颗粒物(PM10),500,778,385,152,89,107,103,99,99,9,29,7,15,0.3,0.5
2023-04-10T18:00:00,1724A,113.3444,40.0917,大同市,大同大学,颗粒物(PM10),500,736,368,148,86,105,99,98,98,10,25,6,13,0.2,0.5
2023-04-10T18:00:00,1725A,113.2661,40.1269,大同市,安家小村,颗粒物(PM10),500,851,407,144,82,106,100,100,100,6,12,6,11,0.2,0.3
2023-04-10T18:00:00,1726A,113.2711,40.0844,大同市,教育学院,颗粒物(PM10),500,791,372,147,88,99,93,93,93,13,28,7,14,0.4,0.5
2023-04-10T18:00:00,1727A,113.1147,36.1547,长治市,清华站,颗粒物(PM10),67,83,127,17,40,147,138,137,137,13,29,7,13,0.3,0.6
2023-04-10T18:00:00,1728A,113.1031,36.1989,长治市,监测站,颗粒物(PM10),64,78,120,24,43,139,133,126,126,12,30,5,10,0.4,0.6
2023-04-10T18:00:00,1730A,113.0886,36.2125,长治市,审计局,颗粒物(PM10),66,82,118,29,45,140,133,127,127,11,34,8,14,0.3,0.6
2023-04-10T18:00:00,1731A,113.0844,36.1856,长治市,长治八中,颗粒物(PM10),80,109,137,32,45,140,132,127,127,6,23,4,9,0.4,0.7
2023-04-10T18:00:00,1733A,111.5531,36.0783,临汾市,临钢医院,颗粒物(PM10),129,208,118,72,47,149,127,122,122,12,34,2,3,0.5,0.7
2023-04-10T18:00:00,1734A,111.5028,36.0714,临汾市,技工学校,颗粒物(PM10),133,216,119,64,41,151,126,124,124,17,26,7,10,0.6,0.8
2023-04-10T18:00:00,1736A,111.5018,36.0855,临汾市,市委,颗粒物(PM10),138,225,135,59,42,156,134,131,131,9,30,6,8,0.7,0.9
2023-04-10T18:00:00,1738A,113.5758,37.8572,阳泉市,市中心,颗粒物(PM10),80,109,157,42,39,114,109,103,103,17,50,8,10,0.6,0.7
2023-04-10T18:00:00,1739A,113.4894,37.8731,阳泉市,赛鱼,颗粒物(PM10),89,127,144,45,47,115,98,99,99,30,52,8,10,0.5,0.5
2023-04-10T18:00:00,1740A,113.5819,37.8486,阳泉市,南庄,细颗粒物(PM2.5),159,175,173,121,49,118,112,114,114,18,34,10,11,0.4,0.5
2023-04-10T18:00:00,1742A,113.5614,37.8703,阳泉市,平坦,颗粒物(PM10),97,143,161,45,49,114,106,98,98,17,51,7,10,0.5,0.6
2023-04-10T18:00:00,1743A,113.5158,37.8392,阳泉市,大阳泉,颗粒物(PM10),88,126,131,42,42,117,112,108,108,18,22,6,7,0.4,0.4
2023-04-10T18:00:00,1744A,118.9233,42.2816,赤峰市,松山一中,颗粒物(PM10),110,170,352,31,69,116,90,107,93,20,19,10,10,0.6,0.6
2023-04-10T18:00:00,1745A,118.9576,42.2728,赤峰市,哈达街,颗粒物(PM10),130,210,387,40,91,109,88,105,90,23,21,12,13,0.5,0.5
2023-04-10T18:00:00,1746A,118.8788,42.2554,赤峰市,天义路,颗粒物(PM10),110,169,317,43,84,122,94,116,99,18,15,10,11,0.4,0.5
2023-04-10T18:00:00,1748A,123.044,41.1196,鞍山市,深沟寺,颗粒物(PM10),72,94,78,40,37,149,119,144,117,12,11,8,9,0.7,0.7
2023-04-10T18:00:00,1749A,123.011,41.0931,鞍山市,太阳城,颗粒物(PM10),91,132,92,37,37,150,116,146,116,15,15,7,9,0.6,0.7
2023-04-10T18:00:00,1750A,123.0485,41.1442,鞍山市,太平,颗粒物(PM10),84,118,87,43,38,140,109,136,104,19,16,10,11,0.7,0.8
2023-04-10T18:00:00,1751A,122.9642,41.0971,鞍山市,铁西三道街,颗粒物(PM10),100,150,96,41,39,144,110,143,107,21,18,4,6,0.6,0.7
2023-04-10T18:00:00,1752A,122.9341,41.0833,鞍山市,铁西工业园区,颗粒物(PM10),95,140,97,42,40,139,110,138,110,17,16,8,11,0.4,0.6
2023-04-10T18:00:00,1753A,123.022,41.0821,鞍山市,明达新区,颗粒物(PM10),90,129,89,35,37,154,122,149,120,11,11,6,8,0.6,0.6
2023-04-10T18:00:00,1754A,123.1289,41.0228,鞍山市,千山,,,,,,,,,,,,,,,,
2023-04-10T18:00:00,1755A,123.7977,41.8491,抚顺市,望花区,颗粒物(PM10),104,158,91,43,41,162,134,155,139,16,13,14,15,0.3,0.3
2023-04-10T18:00:00,1756A,123.9161,41.8822,抚顺市,顺城区,颗粒物(PM10),118,186,92,46,36,158,125,152,136,20,12,7,9,0.3,0.5
2023-04-10T18:00:00,1757A,124.0436,41.8611,抚顺市,东洲区,颗粒物(PM10),118,186,100,48,40,159,139,155,138,10,9,4,6,0.5,0.7
2023-04-10T18:00:00,1758A,123.9247,41.8642,抚顺市,新抚区,颗粒物(PM10),126,201,98,56,46,149,118,143,129,20,13,13,13,0.9,0.7
2023-04-10T18:00:00,1759A,124.0972,41.8961,抚顺市,大伙房水库,颗粒物(PM10),104,157,87,43,38,169,151,166,150,8,8,7,8,0.4,0.4
2023-04-10T18:00:00,1760A,123.7086,41.8391,抚顺市,沈抚新城,颗粒物(PM10),112,173,100,43,43,160,134,157,133,15,14,8,11,0.3,0.5
2023-04-10T18:00:00,1761A,123.8275,41.3064,本溪市,大峪,颗粒物(PM10),87,124,86,42,36,145,121,140,114,9,8,3,4,0.5,0.7
2023-04-10T18:00:00,1762A,123.7567,41.3325,本溪市,溪湖,颗粒物(PM10),72,94,82,42,40,142,130,135,122,17,19,14,17,0.8,0.9
2023-04-10T18:00:00,1763A,123.7169,41.3094,本溪市,彩屯,颗粒物(PM10),94,138,115,59,53,123,90,120,91,49,38,66,55,2.4,2.3
2023-04-10T18:00:00,1764A,123.7669,41.2864,本溪市,东明,颗粒物(PM10),70,90,69,48,42,145,135,143,125,10,10,6,8,0.5,0.5
2023-04-10T18:00:00,1765A,123.7992,41.2664,本溪市,新立屯,颗粒物(PM10),85,119,76,40,40,146,135,144,124,15,14,6,6,0.4,0.4
2023-04-10T18:00:00,1766A,123.8142,41.3472,本溪市,威宁,颗粒物(PM10),90,129,95,38,38,130,117,120,109,23,20,7,8,0.7,0.6
2023-04-10T18:00:00,1767A,121.1115,41.0879,锦州市,南山,颗粒物(PM10),99,147,122,73,81,150,92,117,92,41,26,33,30,1.0,0.9
2023-04-10T18:00:00,1768A,121.0533,40.8434,锦州市,开发区,颗粒物(PM10),91,132,124,63,70,133,104,115,86,41,31,10,8,0.7,0.6
2023-04-10T18:00:00,1769A,121.1836,41.1119,锦州市,百股街道,,,,105,,73,156,96,118,92,,23,,12,1.0,0.8
2023-04-10T18:00:00,1770A,121.1178,41.1222,锦州市,天安街道,颗粒物(PM10),103,156,131,69,78,153,88,120,89,48,30,33,23,1.2,1.1
2023-04-10T18:00:00,1771A,121.1303,41.1386,锦州市,北湖公园,颗粒物(PM10),93,136,110,63,74,152,87,119,87,44,28,32,21,1.0,0.8
2023-04-10T18:00:00,1772A,126.54,43.8622,吉林市,哈达湾,颗粒物(PM10),122,194,138,68,58,151,117,146,134,23,17,8,8,0.9,0.8
2023-04-10T18:00:00,1773A,126.5844,43.8358,吉林市,东局子,颗粒物(PM10),100,149,127,55,56,148,119,142,131,20,17,9,9,0.8,0.8
2023-04-10T18:00:00,1774A,126.5052,43.8245,吉林市,电力学院,颗粒物(PM10),124,198,140,64,62,146,113,142,132,25,18,13,13,0.7,0.6
2023-04-10T18:00:00,1775A,126.6133,43.8972,吉林市,江北,颗粒物(PM10),109,167,132,57,53,153,116,148,131,24,17,10,11,0.8,0.7
2023-04-10T18:00:00,1776A,126.555,43.8306,吉林市,江南公园,颗粒物(PM10),111,172,142,61,63,145,118,139,129,22,18,9,9,0.7,0.7
2023-04-10T18:00:00,1778A,126.7061,43.7133,吉林市,丰满,,,,,,,,,,,,,,,,
2023-04-10T18:00:00,1779A,123.9305,47.3636,齐齐哈尔市,安居小区,颗粒物(PM10),454,554,276,123,89,110,70,92,67,42,33,4,8,0.9,0.8
2023-04-10T18:00:00,1780A,123.9488,47.3386,齐齐哈尔市,中心广场,颗粒物(PM10),280,406,240,134,81,106,74,87,61,50,34,8,10,1.2,0.9
2023-04-10T18:00:00,1781A,123.9483,47.3227,齐齐哈尔市,农牧车辆厂,颗粒物(PM10),279,405,294,108,77,102,83,86,62,39,33,7,10,1.0,0.7
2023-04-10T18:00:00,1783A,123.945,47.2988,齐齐哈尔市,市环境监测站,颗粒物(PM10),369,475,310,156,105,108,88,94,70,42,30,6,10,0.9,0.6
2023-04-10T18:00:00,1784A,129.61,44.561,牡丹江市,环保大楼,颗粒物(PM10),193,336,95,83,37,144,116,138,135,17,19,5,6,0.5,0.5
2023-04-10T18:00:00,1785A,129.6115,44.5782,牡丹江市,文化广场,颗粒物(PM10),268,397,99,87,32,142,109,134,132,20,23,9,9,0.5,0.6
2023-04-10T18:00:00,1786A,129.5904,44.5963,牡丹江市,第一医院,颗粒物(PM10),335,448,119,101,62,141,108,134,131,14,25,3,4,0.5,0.7
2023-04-10T18:00:00,1787A,129.6364,44.6075,牡丹江市,机车工厂,颗粒物(PM10),300,420,113,83,41,143,109,136,132,15,25,6,9,0.5,0.6
2023-04-10T18:00:00,1788A,129.6386,44.5462,牡丹江市,第一中学,颗粒物(PM10),156,261,92,75,35,148,116,142,139,17,16,4,4,0.6,0.5
2023-04-10T18:00:00,1789A,124.81117,46.03138,大庆市,大同区,颗粒物(PM10),500,1136,474,139,68,128,66,122,71,14,20,4,6,0.6,0.8
2023-04-10T18:00:00,1790A,125.129,46.533,大庆市,龙凤区,颗粒物(PM10),500,645,333,82,57,106,69,102,79,19,26,3,5,0.8,0.8
2023-04-10T18:00:00,1791A,124.902,46.408,大庆市,红岗区,颗粒物(PM10),500,694,352,91,60,111,62,102,80,22,21,6,9,,0.7
2023-04-10T18:00:00,1792A,125.153,46.586,大庆市,萨尔图区,颗粒物(PM10),500,724,379,101,68,113,61,110,74,28,23,7,9,0.5,0.4
2023-04-10T18:00:00,1793A,124.9042,46.6215,大庆市,让胡路区,颗粒物(PM10),411,511,283,58,57,106,66,102,77,24,28,5,7,1.0,0.8
2023-04-10T18:00:00,1794A,118.3606,31.3519,芜湖市,监测站,颗粒物(PM10),74,98,65,24,31,152,119,140,140,41,40,12,8,0.8,0.7
2023-04-10T18:00:00,1795A,118.3714,31.4134,芜湖市,科创中心,颗粒物(PM10),63,76,78,25,36,141,105,129,129,42,58,6,7,0.6,0.7
2023-04-10T18:00:00,1796A,118.3673,31.3131,芜湖市,四水厂,颗粒物(PM10),62,73,73,27,31,146,105,132,132,63,38,20,11,0.9,0.6
2023-04-10T18:00:00,1798A,118.5092,31.6837,马鞍山市,湖东路四小,颗粒物(PM10),58,65,63,23,37,166,141,147,147,16,27,7,9,0.6,0.8
2023-04-10T18:00:00,1799A,118.5024,31.6449,马鞍山市,开发区,颗粒物(PM10),67,84,90,27,41,165,134,145,145,29,43,5,7,0.5,0.8
2023-04-10T18:00:00,1800A,118.5228,31.7231,马鞍山市,慈湖,颗粒物(PM10),60,69,76,23,36,164,140,145,145,17,32,6,8,0.6,0.7
2023-04-10T18:00:00,1802A,118.6245,31.7241,马鞍山市,濮塘,颗粒物(PM10),56,62,63,32,33,162,143,148,148,16,18,6,8,1.1,1.1
2023-04-10T18:00:00,1803A,115.9872,29.6815,九江市,十里,颗粒物(PM10),66,82,74,27,29,146,102,127,127,30,39,14,10,0.7,0.7
2023-04-10T18:00:00,1804A,115.9584,29.7046,九江市,茅山头,颗粒物(PM10),67,83,74,32,30,136,99,123,123,18,39,16,11,0.6,0.7
2023-04-10T18:00:00,1805A,115.9877,29.7295,九江市,西园,,,68,66,35,30,141,,128,128,53,46,15,11,0.9,0.7
2023-04-10T18:00:00,1806A,116.0172,29.6547,九江市,五七二七厂,颗粒物(PM10),60,70,62,37,24,149,112,131,131,15,19,11,9,0.6,0.5
2023-04-10T18:00:00,1808A,115.9114,29.6038,九江市,综合工业园,颗粒物(PM10),56,62,64,28,32,155,114,129,129,11,31,13,12,0.7,0.8
2023-04-10T18:00:00,1809A,116.0721,29.7535,九江市,石化总厂,颗粒物(PM10),71,92,75,22,27,148,98,131,130,30,24,21,17,0.6,0.6
2023-04-10T18:00:00,1810A,115.9773,29.5698,九江市,庐山气象台,,50,50,53,27,26,141,101,126,119,11,7,6,6,0.8,0.9
2023-04-10T18:00:00,1812A,112.3931,34.6516,洛阳市,市委党校,颗粒物(PM10),62,74,96,30,39,152,143,134,134,15,23,9,11,0.5,0.6
2023-04-10T18:00:00,1814A,112.4657,34.6871,洛阳市,豫西宾馆,颗粒物(PM10),71,92,109,39,40,152,152,136,136,14,27,10,9,0.5,0.6
2023-04-10T18:00:00,1815A,112.494,34.6886,洛阳市,河南林校,颗粒物(PM10),72,94,98,35,38,166,164,145,145,21,28,14,10,0.6,0.6
2023-04-10T18:00:00,1816A,112.3844,34.623,洛阳市,开发区管委会,颗粒物(PM10),56,62,87,27,34,160,151,144,144,6,15,7,9,0.3,0.4
2023-04-10T18:00:00,1817A,112.4267,34.6258,洛阳市,市委新办公区,颗粒物(PM10),60,69,91,34,46,152,141,138,138,18,21,6,9,0.5,0.6
2023-04-10T18:00:00,1818A,114.4839,36.0621,安阳市,棉研所,,,,,,,,,,,,,,,,
2023-04-10T18:00:00,1819A,114.3551,36.1017,安阳市,红庙街,颗粒物(PM10),91,131,131,36,45,178,174,142,142,18,34,12,18,0.3,0.5
2023-04-10T18:00:00,1820A,114.361,36.0681,安阳市,银杏小区,颗粒物(PM10),96,141,138,43,47,179,175,142,142,14,34,12,15,0.5,0.6
2023-04-10T18:00:00,1824A,114.3389,34.7781,开封市,肿瘤医院,颗粒物(PM10),82,113,110,34,41,166,145,156,156,7,17,9,9,0.7,0.6
2023-04-10T18:00:00,1826A,114.2885,34.7965,开封市,世纪星幼儿园,颗粒物(PM10),75,100,110,33,37,162,142,150,150,7,15,6,7,0.4,0.4
2023-04-10T18:00:00,1828A,113.227,35.2125,焦作市,市环保局,臭氧1小时,74,91,103,31,33,179,179,142,142,16,30,9,11,0.5,0.8
2023-04-10T18:00:00,1830A,113.1992,35.2590,焦作市,影视城,,,,,,,,,,,,,,,,
2023-04-10T18:00:00,1832A,113.3257,33.742,平顶山市,新华旅馆,颗粒物(PM10),99,148,100,36,37,147,137,144,144,13,13,6,8,0.6,0.5
2023-04-10T18:00:00,1833A,113.2919,33.737,平顶山市,规划设计院,颗粒物(PM10),70,89,95,38,40,156,140,151,150,20,21,7,8,0.3,0.3
2023-04-10T18:00:00,1834A,113.182,33.774,平顶山市,平顶山工学院,,,85,96,34,33,152,144,148,148,7,7,,7,0.4,0.3
2023-04-10T18:00:00,1835A,111.1922,34.7752,三门峡市,市政府,颗粒物(PM10),67,84,88,31,32,143,137,132,132,19,33,15,11,0.4,0.5
2023-04-10T18:00:00,1836A,111.1587,34.7942,三门峡市,开发区,颗粒物(PM10),60,69,104,28,34,151,148,134,134,8,30,10,10,0.4,0.5
2023-04-10T18:00:00,1838A,111.143,34.7955,三门峡市,风景区,,,,,,,,,,,,,,,,
2023-04-10T18:00:00,1840A,111.2992,30.6981,宜昌市,白龙岗,颗粒物(PM10),73,95,93,36,38,164,135,123,123,25,31,10,8,0.6,0.6
2023-04-10T18:00:00,1841A,111.3549,30.6465,宜昌市,伍家岗,颗粒物(PM10),74,98,96,34,41,169,134,134,134,20,40,9,9,0.6,0.6
2023-04-10T18:00:00,1842A,111.2628,30.6961,宜昌市,点军区,颗粒物(PM10),69,88,91,31,34,174,141,131,131,32,29,10,9,0.6,0.6
2023-04-10T18:00:00,1843A,111.3275,30.7819,宜昌市,夷陵区,颗粒物(PM10),65,79,78,31,35,174,144,136,136,27,28,9,8,0.5,0.5
2023-04-10T18:00:00,1844A,112.2494,30.3197,荆州市,市图书馆,细颗粒物(PM2.5),68,81,87,49,42,144,143,127,127,17,21,12,12,0.8,0.7
2023-04-10T18:00:00,1845A,112.2008,30.3544,荆州市,市委党校,颗粒物(PM10),69,87,88,47,43,146,141,125,125,16,22,11,12,0.8,0.8
2023-04-10T18:00:00,1847A,113.1094,29.3578,岳阳市,南湖风景区,颗粒物(PM10),54,58,70,31,32,166,116,118,118,12,24,13,13,0.5,0.5
2023-04-10T18:00:00,1848A,113.1493,29.4251,岳阳市,城陵矶,颗粒物(PM10),55,60,88,28,35,164,112,118,118,14,37,14,14,0.6,0.6
2023-04-10T18:00:00,1849A,113.1497,29.3575,岳阳市,开发区,颗粒物(PM10),54,58,72,28,36,185,118,121,121,10,25,14,18,0.5,0.5
2023-04-10T18:00:00,1850A,113.2621,29.4758,岳阳市,云溪区,颗粒物(PM10),54,57,71,27,32,169,116,131,127,10,15,12,13,0.5,0.5
2023-04-10T18:00:00,1851A,112.9943,29.4402,岳阳市,君山区,颗粒物(PM10),59,67,76,40,39,174,114,121,121,12,16,12,12,0.6,0.6
2023-04-10T18:00:00,1852A,113.2117,29.355,岳阳市,金凤水库,,48,48,70,23,31,159,104,112,112,13,14,12,14,0.6,0.8
2023-04-10T18:00:00,1854A,111.6975,28.9703,常德市,市二中,颗粒物(PM10),55,60,78,35,41,143,111,112,112,6,11,6,8,0.5,0.4
2023-04-10T18:00:00,1857A,111.7158,29.1456,常德市,白鹤山,颗粒物(PM10),57,63,82,31,39,147,106,110,110,6,3,7,7,0.5,0.3
2023-04-10T18:00:00,1858A,110.5319,29.1217,张家界市,永定新区,颗粒物(PM10),61,71,79,36,36,131,122,118,118,10,15,3,3,0.4,0.4
2023-04-10T18:00:00,1859A,110.4697,29.1242,张家界市,电业局,颗粒物(PM10),60,70,75,39,37,122,117,110,110,15,18,7,7,0.4,0.3
2023-04-10T18:00:00,1860A,110.5594,29.3547,张家界市,未央路,颗粒物(PM10),70,89,78,42,35,128,125,119,119,11,20,7,7,0.5,0.4
2023-04-10T18:00:00,1861A,110.4417,29.315,张家界市,袁家界,,,65,69,39,33,130,121,122,122,13,6,,7,0.7,0.5
2023-04-10T18:00:00,1862A,110.4144,25.3167,桂林市,电子科大尧山校区,,47,47,62,30,37,97,56,71,68,4,4,3,3,0.7,0.6
2023-04-10T18:00:00,1863A,110.2819,25.2697,桂林市,监测站,颗粒物(PM10),55,59,70,33,38,93,49,85,56,19,14,7,7,0.7,0.6
2023-04-10T18:00:00,1864A,110.3089,25.2708,桂林市,龙隐路小学,细颗粒物(PM2.5),59,55,66,42,43,90,45,77,56,22,14,6,6,0.7,0.6
2023-04-10T18:00:00,1865A,110.2869,25.2178,桂林市,八中,,48,43,62,33,36,86,49,77,53,14,13,4,4,0.7,0.6
2023-04-10T18:00:00,1866A,109.2262,21.588,北海市,牛尾岭水库,,37,37,48,21,34,87,59,83,56,13,18,14,8,0.6,0.8
2023-04-10T18:00:00,1867A,109.1436,21.4086,北海市,海滩公园,,45,45,46,17,22,116,100,108,89,7,8,2,2,0.5,0.4
2023-04-10T18:00:00,1868A,109.0981,21.4661,北海市,新市环保局,,38,38,45,17,24,106,92,98,71,11,13,2,2,0.6,0.5
2023-04-10T18:00:00,1869A,109.1778,21.5233,北海市,北海工业园,颗粒物(PM10),52,53,57,27,30,108,82,90,66,12,13,4,4,0.6,0.6
2023-04-10T18:00:00,1870A,109.4856,24.3895,柳州市,柳东小学,,35,29,49,24,38,95,39,66,49,22,10,8,6,0.7,0.6
2023-04-10T18:00:00,1871A,109.4157,24.3277,柳州市,环保监测站,,29,19,48,20,32,84,30,57,46,32,16,4,4,0.8,0.6
2023-04-10T18:00:00,1872A,109.389,24.341,柳州市,河西水厂,,23,18,49,16,28,82,29,54,39,34,17,7,7,1.2,0.9
2023-04-10T18:00:00,1873A,109.4311,24.2921,柳州市,市四中,,34,34,48,22,31,84,34,57,43,30,17,6,7,0.9,0.7
2023-04-10T18:00:00,1874A,109.4006,24.3631,柳州市,市九中,,25,24,54,17,31,82,36,57,46,28,15,6,6,1.0,0.8
2023-04-10T18:00:00,1875A,109.4958,24.3134,柳州市,古亭山,,20,20,48,14,32,80,29,50,33,19,15,2,3,0.8,0.7
2023-04-10T18:00:00,1876A,109.5078,18.2489,三亚市,河东子站,,42,42,35,26,23,98,89,95,92,6,6,2,2,0.6,0.6
2023-04-10T18:00:00,1877A,109.4964,18.2681,三亚市,河西子站,,42,42,35,25,22,96,90,91,91,5,6,2,2,0.6,0.6
2023-04-10T18:00:00,1878A,104.7778,31.4741,绵阳市,富乐山,臭氧1小时,87,91,96,49,48,196,189,169,169,14,32,5,4,0.5,0.7
2023-04-10T18:00:00,1879A,104.7563,31.4535,绵阳市,市人大,颗粒物(PM10),69,87,110,43,55,178,152,148,148,28,52,6,4,0.6,0.8
2023-04-10T18:00:00,1880A,104.6697,31.4668,绵阳市,高新区自来水公司,臭氧1小时,93,84,105,44,49,194,194,164,164,10,40,7,7,0.6,0.7
2023-04-10T18:00:00,1881A,104.7287,31.5075,绵阳市,三水厂,臭氧1小时,80,95,116,48,56,202,184,168,168,20,50,6,6,0.6,0.7
2023-04-10T18:00:00,1882A,104.563,28.793,宜宾市,石马中学,,,71,86,31,44,184,179,160,160,,33,,10,0.5,0.7
2023-04-10T18:00:00,1883A,104.6201,28.7728,宜宾市,市委,臭氧1小时,82,75,91,36,47,185,185,158,158,17,42,13,13,0.5,0.6
2023-04-10T18:00:00,1884A,104.6055,28.793,宜宾市,宜宾四中,臭氧1小时,70,76,98,35,51,182,176,156,156,15,40,11,13,0.5,0.6
2023-04-10T18:00:00,1885A,104.639,28.7562,宜宾市,市政府,臭氧1小时,92,82,92,38,49,193,193,164,164,18,46,10,11,0.6,0.7
2023-04-10T18:00:00,1886A,104.5742,28.7199,宜宾市,黄金嘴,臭氧1小时,80,71,83,36,45,187,184,154,154,17,34,12,12,0.5,0.6
2023-04-10T18:00:00,1888A,101.6891,26.571,攀枝花市,弄弄坪,颗粒物(PM10),54,58,53,28,31,132,122,125,125,22,22,42,25,2.6,1.8
2023-04-10T18:00:00,1889A,101.5769,26.5928,攀枝花市,河门口,,45,42,44,20,22,143,142,137,137,7,16,7,11,0.4,0.5
2023-04-10T18:00:00,1890A,101.7169,26.585,攀枝花市,炳草岗,,45,24,45,31,27,135,128,129,129,16,39,10,12,0.8,1.1
2023-04-10T18:00:00,1891A,101.7369,26.5008,攀枝花市,仁和,,43,35,41,18,25,139,135,131,131,10,16,5,7,0.6,0.7
2023-04-10T18:00:00,1893A,105.4324,28.9634,泸州市,九狮山,臭氧1小时,68,58,69,31,36,174,174,149,149,11,25,8,10,0.5,0.6
2023-04-10T18:00:00,1894A,105.4427,28.9063,泸州市,小市上码头,颗粒物(PM10),67,83,106,36,48,158,156,144,144,10,38,8,15,0.5,0.7
2023-04-10T18:00:00,1895A,105.4241,28.8573,泸州市,兰田宪桥,颗粒物(PM10),63,76,103,36,51,171,158,151,151,13,26,7,14,0.6,0.7
2023-04-10T18:00:00,1896A,105.4379,28.8833,泸州市,市环监站,颗粒物(PM10),61,72,99,29,43,151,145,137,137,18,39,5,23,0.6,0.6
2023-04-10T18:00:00,1901A,104.4239,31.1208,德阳市,东山公园,颗粒物(PM10),82,114,117,56,60,197,182,165,165,36,31,5,6,0.6,0.7
2023-04-10T18:00:00,1902A,104.3826,31.1317,德阳市,西小区,臭氧1小时,93,105,122,63,72,197,194,167,167,21,43,5,6,0.8,0.8
2023-04-10T18:00:00,1904A,104.3553,31.1091,德阳市,耐火材料厂,臭氧1小时,108,113,138,62,77,225,216,188,188,14,36,5,9,0.6,0.7
2023-04-10T18:00:00,1905A,106.056,30.8064,南充市,西山风景区,,,,,,,,,,,,,,,,
2023-04-10T18:00:00,1906A,106.0789,30.8023,南充市,南充市委,颗粒物(PM10),78,106,94,40,39,187,179,159,159,17,34,12,12,0.5,0.6
2023-04-10T18:00:00,1907A,106.1031,30.8217,南充市,南充炼油厂,颗粒物(PM10),70,89,97,38,40,180,173,157,157,14,33,12,12,0.6,0.6
2023-04-10T18:00:00,1908A,106.1064,30.7856,南充市,高坪区监测站,颗粒物(PM10),127,204,103,37,43,185,178,155,155,14,48,12,13,0.4,0.7
2023-04-10T18:00:00,1909A,106.0642,30.7636,南充市,嘉陵区环保局,臭氧1小时,88,103,96,44,41,190,190,156,156,16,45,16,16,0.6,0.7
2023-04-10T18:00:00,1910A,106.1087,30.8388,南充市,市环境监测站,颗粒物(PM10),73,95,99,48,46,180,173,160,160,18,36,12,13,0.5,0.5
2023-04-10T18:00:00,1911A,106.9222,27.6869,遵义市,丁字口,细颗粒物(PM2.5),52,49,62,36,30,155,147,131,131,20,20,9,12,0.9,0.8
2023-04-10T18:00:00,1912A,106.9242,27.7019,遵义市,凤凰山,"颗粒物(PM10),臭氧1小时",55,59,72,37,35,173,164,145,145,12,18,12,13,0.7,0.7
2023-04-10T18:00:00,1913A,106.8906,27.6486,遵义市,忠庄,颗粒物(PM10),61,71,76,39,33,158,151,132,132,17,16,5,5,0.6,0.6
2023-04-10T18:00:00,1914A,106.9231,27.6506,遵义市,舟水桥,细颗粒物(PM2.5),57,50,66,40,36,167,161,137,137,13,17,4,4,0.9,0.8
2023-04-10T18:00:00,1915A,106.9178,27.72,遵义市,干田坝,颗粒物(PM10),54,58,66,36,28,164,160,142,142,14,16,8,10,0.6,0.5
2023-04-10T18:00:00,1916A,103.7897,25.5035,曲靖市,环境监测站,颗粒物(PM10),52,53,79,13,41,153,139,136,136,7,16,7,11,0.3,0.9
2023-04-10T18:00:00,1917A,103.8,25.5364,曲靖市,烟厂办公区,,50,50,74,18,39,164,151,147,147,7,16,3,7,0.4,0.8
2023-04-10T18:00:00,1918A,108.7197,34.3956,咸阳市,气象站,颗粒物(PM10),76,101,103,28,39,190,148,131,131,30,63,4,6,0.6,0.7
2023-04-10T18:00:00,1919A,108.673,34.3155,咸阳市,实验中学,颗粒物(PM10),66,81,120,32,47,174,160,134,134,27,64,5,6,0.6,0.8
2023-04-10T18:00:00,1920A,108.7233,34.3617,咸阳市,师范学院,颗粒物(PM10),70,89,112,24,39,180,143,139,139,30,60,8,8,0.6,0.7
2023-04-10T18:00:00,1922A,109.0656,35.0994,铜川市,党校,颗粒物(PM10),113,175,41,38,36,134,66,87,85,12,52,9,11,0.5,0.8
2023-04-10T18:00:00,1923A,109.0697,35.0697,铜川市,王益区政府,颗粒物(PM10),87,123,90,33,33,148,126,130,130,10,41,6,12,0.3,0.7
2023-04-10T18:00:00,1924A,108.9344,34.9058,铜川市,新区管委会,颗粒物(PM10),76,102,87,30,31,177,152,151,151,31,32,10,10,0.5,0.5
2023-04-10T18:00:00,1926A,109.4131,36.6275,延安市,枣园,颗粒物(PM10),459,559,176,98,43,134,112,111,111,11,38,6,7,0.4,0.4
2023-04-10T18:00:00,1927A,109.4761,36.6028,延安市,延大医附院,颗粒物(PM10),473,573,187,125,50,136,105,109,109,11,36,4,5,0.5,0.6
2023-04-10T18:00:00,1929A,109.5056,36.6106,延安市,百米大道,颗粒物(PM10),489,589,190,134,54,130,101,101,101,8,44,5,6,0.3,0.6
2023-04-10T18:00:00,1930A,107.185,34.3063,宝鸡市,庙沟村,颗粒物(PM10),74,98,65,30,30,156,156,128,128,14,22,9,11,0.5,0.5
2023-04-10T18:00:00,1931A,107.0708,34.3017,宝鸡市,竹园沟,颗粒物(PM10),65,79,65,29,30,164,149,132,132,16,25,20,10,0.7,0.7
2023-04-10T18:00:00,1932A,107.1906,34.3672,宝鸡市,三陆医院,,,,100,,43,156,,128,128,23,44,10,16,0.6,0.6
2023-04-10T18:00:00,1933A,107.1431,34.3547,宝鸡市,监测站,颗粒物(PM10),70,90,81,34,33,160,133,138,138,28,36,8,8,0.7,0.6
2023-04-10T18:00:00,1934A,107.1186,34.3739,宝鸡市,技工学校,颗粒物(PM10),75,100,87,34,38,153,129,125,125,28,32,11,10,0.7,0.6
2023-04-10T18:00:00,1935A,107.3906,34.3528,宝鸡市,陈仓区环保局家属楼,颗粒物(PM10),74,98,99,27,41,158,136,130,130,27,47,8,9,0.6,0.7
2023-04-10T18:00:00,1936A,107.2058,34.3497,宝鸡市,文理学院,颗粒物(PM10),72,94,91,41,41,162,136,136,136,24,42,11,14,0.6,0.6
2023-04-10T18:00:00,1937A,107.2386,34.3622,宝鸡市,三迪小学,颗粒物(PM10),78,105,100,35,41,154,127,127,127,32,48,12,16,0.7,0.8
2023-04-10T18:00:00,1938A,109.5293,34.5101,渭南市,农科所,颗粒物(PM10),70,90,101,36,38,176,137,138,138,23,47,13,14,0.8,0.9
2023-04-10T18:00:00,1939A,109.4974,34.4877,渭南市,日报社,颗粒物(PM10),75,100,103,34,42,182,154,147,147,20,54,10,12,0.5,0.5
2023-04-10T18:00:00,1940A,109.4636,34.493,渭南市,体育馆,颗粒物(PM10),70,90,108,41,50,177,153,146,146,17,54,9,14,0.5,0.7
2023-04-10T18:00:00,1941A,109.4259,34.5023,渭南市,高新一小,,,113,114,27,48,160,141,130,130,18,53,5,7,,0.6
2023-04-10T18:00:00,1943A,102.1725,38.5339,金昌市,新川苑,颗粒物(PM10),117,183,309,26,62,105,98,101,100,9,13,8,10,0.4,0.5
2023-04-10T18:00:00,1944A,102.1692,38.5167,金昌市,天庆家园,颗粒物(PM10),108,166,259,23,57,106,99,101,100,8,12,5,8,0.4,0.5
2023-04-10T18:00:00,1945A,98.2908,39.7711,嘉峪关市,气象局,颗粒物(PM10),90,129,207,27,47,116,116,104,104,9,13,6,14,0.2,0.2
2023-04-10T18:00:00,1947A,106.3394,38.817,石嘴山市,沙湖旅游区,颗粒物(PM10),500,1074,603,142,106,102,89,90,90,26,37,10,15,0.3,0.4
2023-04-10T18:00:00,1948A,106.3668,39.0145,石嘴山市,大武口朝阳西街,颗粒物(PM10),500,1076,583,132,97,105,98,103,102,2,20,4,7,0.2,0.3
2023-04-10T18:00:00,1949A,106.7704,39.2282,石嘴山市,惠农南大街,颗粒物(PM10),500,906,589,168,111,102,96,98,97,11,35,10,40,0.4,0.9
2023-04-10T18:00:00,1950A,106.7099,39.1325,石嘴山市,红果子镇惠新街,颗粒物(PM10),500,1029,512,185,119,98,93,95,95,9,26,7,18,0.5,0.8
2023-04-10T18:00:00,1951A,84.895,45.6094,克拉玛依市,长征新村,,31,23,16,6,5,114,97,89,89,4,6,7,6,0.2,0.2
2023-04-10T18:00:00,1952A,84.8988,45.5893,克拉玛依市,南林小区,,30,26,18,11,9,111,95,88,88,3,6,2,2,0.2,0.3
2023-04-10T18:00:00,1954A,84.905,44.3396,克拉玛依市,独山子区,,45,45,30,23,14,111,111,88,80,7,10,9,8,0.4,0.4
2023-04-10T18:00:00,1955A,85.6979,46.098,克拉玛依市,乌尔禾区商贸楼,,30,16,20,6,6,93,93,85,85,4,12,8,8,0.3,0.3
2023-04-10T18:00:00,1956A,86.1472,41.7538,巴音郭楞州,孔雀公园,颗粒物(PM10),166,282,164,47,33,109,102,92,92,2,14,3,6,0.2,0.3
2023-04-10T18:00:00,1957A,86.1972,41.7166,巴音郭楞州,棉纺厂,颗粒物(PM10),159,267,219,58,46,106,98,96,91,2,12,3,3,0.2,0.3
2023-04-10T18:00:00,1958A,86.2357,41.7173,巴音郭楞州,经济开发区,颗粒物(PM10),347,457,184,80,33,111,102,101,97,3,7,5,6,0.2,0.3
2023-04-10T18:00:00,1961A,117.532,36.6868,济南市,东山小学,颗粒物(PM10),57,63,97,27,33,164,158,158,158,10,12,6,7,0.5,0.5
2023-04-10T18:00:00,1966A,120.0405,35.8735,青岛市,黄岛区4号,细颗粒物(PM2.5),83,105,96,61,51,182,164,150,150,31,29,8,9,0.8,0.8
2023-04-10T18:00:00,1982A,122.0693,37.2174,威海市,文登开发区,臭氧1小时,70,83,76,41,36,181,176,160,160,28,21,7,5,0.7,0.5
2023-04-10T18:00:00,2031A,113.1817,27.9958,株洲市,云田中学,颗粒物(PM10),53,56,76,35,41,135,97,92,90,11,17,9,12,0.5,0.5
2023-04-10T18:00:00,2054A,114.1099,32.1059,信阳市,平桥分局,颗粒物(PM10),63,76,80,37,38,157,150,151,151,11,17,12,13,0.3,0.3
2023-04-10T18:00:00,2064A,113.9956,32.1271,信阳市,南湾水厂,颗粒物(PM10),69,88,94,34,35,165,158,158,158,7,10,11,12,0.5,0.5
2023-04-10T18:00:00,2065A,114.0775,32.1195,信阳市,市酿酒公司,,,,73,,39,160,155,154,154,12,21,12,12,0.4,0.5
2023-04-10T18:00:00,2066A,114.0609,32.1399,信阳市,审计局,颗粒物(PM10),67,84,90,39,36,161,154,155,155,12,16,11,12,0.4,0.4
2023-04-10T18:00:00,2067A,114.6613,33.6128,周口市,市环境监测站,颗粒物(PM10),73,96,100,43,41,163,151,154,154,11,12,11,11,0.7,0.7
2023-04-10T18:00:00,2068A,114.6758,33.6347,周口市,周口师范,颗粒物(PM10),72,93,95,39,36,154,148,146,146,11,15,12,11,0.7,0.6
2023-04-10T18:00:00,2069A,114.6546,33.5979,周口市,市运管处,颗粒物(PM10),73,95,98,36,36,159,148,150,150,12,14,9,9,0.6,0.6
2023-04-10T18:00:00,2070A,114.6369,33.6406,周口市,川汇区环保局,颗粒物(PM10),79,108,101,41,33,150,145,142,142,12,14,8,9,0.6,0.6
2023-04-10T18:00:00,2075A,117.6336,24.4674,漳州市,九湖,,,,,,,,,,,,,,,,
2023-04-10T18:00:00,2160A,112.85,35.5051,晋城市,自来水公司,颗粒物(PM10),64,78,85,19,30,162,160,139,139,15,38,16,17,0.6,1.1
2023-04-10T18:00:00,2161A,112.8318,35.4936,晋城市,白云商贸,颗粒物(PM10),86,121,111,14,27,161,154,137,137,13,32,10,10,0.7,1.2
2023-04-10T18:00:00,2162A,112.8508,35.4887,晋城市,市环保局,颗粒物(PM10),65,80,103,22,33,156,156,136,136,12,41,15,13,0.6,1.1
2023-04-10T18:00:00,2163A,112.8676,35.4897,晋城市,技术学院,颗粒物(PM10),58,65,107,27,41,143,143,128,128,14,45,10,10,0.5,0.8
2023-04-10T18:00:00,2165A,112.8453,35.546,晋城市,白马寺,,,,,,,,,,,,,,,,
2023-04-10T18:00:00,2166A,112.4397,39.3522,朔州市,平朔,颗粒物(PM10),417,517,305,77,84,99,94,94,94,4,7,3,5,0.2,0.3
2023-04-10T18:00:00,2167A,112.4575,39.3617,朔州市,朔唯,颗粒物(PM10),425,525,311,107,113,98,93,90,90,7,16,5,8,0.5,0.6
2023-04-10T18:00:00,2168A,112.4258,39.3197,朔州市,区政府,颗粒物(PM10),197,344,303,61,67,102,96,96,96,7,10,3,4,0.2,0.3
2023-04-10T18:00:00,2169A,112.4072,39.3278,朔州市,市环保局,颗粒物(PM10),197,344,300,67,88,91,84,86,86,17,14,3,4,0.3,0.4
2023-04-10T18:00:00,2170A,112.4272,39.3681,朔州市,市二中,颗粒物(PM10),199,347,300,76,82,107,101,102,102,4,6,4,4,0.3,0.3
2023-04-10T18:00:00,2171A,112.7532,37.6945,晋中市,锦纶小区,颗粒物(PM10),190,329,183,79,56,134,111,107,107,16,35,8,11,0.4,0.4
2023-04-10T18:00:00,2173A,112.7249,37.7067,晋中市,南都小区,颗粒物(PM10),165,280,189,60,42,133,108,103,103,13,38,6,10,0.2,0.5
2023-04-10T18:00:00,2174A,112.6991,37.6982,晋中市,榆次区政府,颗粒物(PM10),157,264,181,48,37,132,104,97,97,16,35,6,12,0.3,0.5
2023-04-10T18:00:00,2175A,110.9956,35.0147,运城市,运城中学,颗粒物(PM10),75,99,118,43,40,175,169,144,144,12,28,14,14,0.8,0.8
2023-04-10T18:00:00,2178A,110.9686,35.0303,运城市,地区技校,颗粒物(PM10),75,99,122,39,38,185,169,154,154,18,32,14,12,0.5,0.8
2023-04-10T18:00:00,2179A,111.0414,35.1147,运城市,空港新区,颗粒物(PM10),76,102,130,40,47,172,166,150,150,9,33,12,16,0.7,1
2023-04-10T18:00:00,2181A,112.7383,38.4519,忻州市,开发区,颗粒物(PM10),145,240,210,54,47,100,93,95,95,10,18,4,9,0.3,0.4
2023-04-10T18:00:00,2182A,112.7003,38.4928,忻州市,会展中心,颗粒物(PM10),138,226,207,56,50,111,105,104,104,7,19,2,7,0.3,0.5
2023-04-10T18:00:00,2183A,111.1406,37.5211,吕梁市,环保局,颗粒物(PM10),335,448,255,57,49,111,104,87,87,6,47,2,10,0.3,0.6
2023-04-10T18:00:00,2185A,111.1297,37.5136,吕梁市,自来水公司,颗粒物(PM10),273,401,272,49,48,109,103,83,83,9,41,10,14,0.5,0.6
2023-04-10T18:00:00,2187A,106.8174,39.6973,乌海市,市林业局,颗粒物(PM10),500,916,439,209,98,111,102,103,103,4,24,7,19,0.4,0.7
2023-04-10T18:00:00,2188A,106.7907,39.6667,乌海市,中海勃湾学校,颗粒物(PM10),500,1040,469,234,102,116,106,108,108,6,25,7,18,0.3,0.7
2023-04-10T18:00:00,2191A,122.2532,43.6801,通辽市,艺术职业学校,颗粒物(PM10),266,396,494,51,104,144,93,139,89,15,21,5,11,0.3,0.6
2023-04-10T18:00:00,2192A,119.7594,49.2261,呼伦贝尔市,区环保局,颗粒物(PM10),59,68,287,38,53,106,86,104,88,4,8,4,5,0.3,0.4
2023-04-10T18:00:00,2195A,107.4212,40.761,巴彦淖尔市,附二中,颗粒物(PM10),500,1003,858,179,144,100,94,95,95,7,13,3,3,0.4,0.4
2023-04-10T18:00:00,2196A,107.37,40.7372,巴彦淖尔市,市环保大楼,颗粒物(PM10),500,959,781,182,144,104,95,97,97,7,14,4,4,0.2,0.2
2023-04-10T18:00:00,2197A,113.1306,40.9923,乌兰察布市,集宁新区,"颗粒物(PM10),细颗粒物(PM2.5)",500,4105,699,677,124,108,86,98,98,3,13,9,9,0.4,0.4
2023-04-10T18:00:00,2200A,122.0392,46.0656,兴安盟,胜华新制药厂,颗粒物(PM10),85,119,255,57,75,101,94,93,93,14,22,2,7,0.1,0.7
2023-04-10T18:00:00,2201A,121.9504,46.0741,兴安盟,科右前旗环保局,颗粒物(PM10),93,135,249,23,61,93,88,90,90,9,17,3,6,0.1,0.5
2023-04-10T18:00:00,2202A,116.1042,43.9317,锡林郭勒盟,市环保监测站,颗粒物(PM10),140,229,760,12,95,98,90,96,96,4,3,7,7,0.2,0.2
2023-04-10T18:00:00,2203A,116.0781,43.9311,锡林郭勒盟,市政府,颗粒物(PM10),109,167,569,5,92,95,86,92,92,7,5,13,11,0.2,0.2
2023-04-10T18:00:00,2204A,105.6467,38.8363,阿拉善盟,西城区西花园,颗粒物(PM10),387,489,349,124,84,102,98,98,98,8,12,6,7,0.5,0.5
2023-04-10T18:00:00,2205A,105.6985,38.8411,阿拉善盟,蒙二幼,颗粒物(PM10),500,680,431,126,94,106,102,104,104,11,12,6,7,0.4,0.5
2023-04-10T18:00:00,2206A,105.724,38.8516,阿拉善盟,环保局新楼,颗粒物(PM10),352,461,280,125,89,112,102,110,105,5,7,6,6,0.6,0.6
2023-04-10T18:00:00,2207A,121.6094,41.998,阜新市,工业园区,颗粒物(PM10),181,312,208,60,62,169,93,134,106,34,18,16,16,1.2,0.9
2023-04-10T18:00:00,2208A,121.6697,42.0279,阜新市,长青街,颗粒物(PM10),130,209,159,68,74,172,100,141,108,35,22,15,18,1.2,0.9
2023-04-10T18:00:00,2209A,121.6673,42.0705,阜新市,农业园区,颗粒物(PM10),153,255,159,57,59,166,97,136,103,29,18,16,16,1.4,1.2
2023-04-10T18:00:00,2210A,121.6717,42.0224,阜新市,东苑,颗粒物(PM10),161,271,194,64,60,158,89,135,98,45,31,16,20,1.6,1.2
2023-04-10T18:00:00,2211A,121.6506,42.0498,阜新市,玉龙新城,颗粒物(PM10),143,236,150,71,72,160,91,124,100,31,20,16,15,1.1,0.8
2023-04-10T18:00:00,2212A,123.2,41.1953,辽阳市,宏伟区,颗粒物(PM10),70,90,62,32,30,135,118,134,111,11,10,10,10,0.9,0.9
2023-04-10T18:00:00,2213A,123.1683,41.2495,辽阳市,新华园,颗粒物(PM10),83,115,78,37,35,146,118,144,116,13,11,8,10,0.7,0.7
2023-04-10T18:00:00,2214A,123.2354,41.2639,辽阳市,滨河路,颗粒物(PM10),81,111,71,44,42,128,107,127,103,16,14,5,6,0.5,0.5
2023-04-10T18:00:00,2215A,123.149,41.2991,辽阳市,铁西工业园,颗粒物(PM10),190,330,94,44,41,138,111,136,107,16,14,7,8,0.5,0.5
2023-04-10T18:00:00,2216A,123.8139,42.3022,铁岭市,汇工街西,颗粒物(PM10),124,198,111,61,58,154,120,151,126,20,18,13,15,0.6,0.6
2023-04-10T18:00:00,2217A,123.8649,42.2923,铁岭市,水上乐园,颗粒物(PM10),115,180,92,53,42,144,112,140,121,21,19,7,9,0.4,0.7
2023-04-10T18:00:00,2218A,123.8486,42.2867,铁岭市,银州路东段,颗粒物(PM10),115,179,122,42,50,149,120,145,128,20,17,8,9,0.6,0.6
2023-04-10T18:00:00,2219A,123.7153,42.2217,铁岭市,金沙江路北,颗粒物(PM10),122,194,102,41,46,137,101,134,106,32,26,10,11,0.6,0.7
2023-04-10T18:00:00,2220A,120.4318,41.5881,朝阳市,西梁,颗粒物(PM10),354,463,231,123,85,145,101,115,111,18,20,10,16,0.7,1.1
2023-04-10T18:00:00,2221A,120.4521,41.5646,朝阳市,河畔小区,颗粒物(PM10),402,502,238,171,84,147,93,116,110,20,18,7,12,0.7,1
2023-04-10T18:00:00,2222A,120.4176,41.5648,朝阳市,八里堡,颗粒物(PM10),352,461,243,103,92,135,102,109,109,16,24,8,17,0.7,1.3
2023-04-10T18:00:00,2223A,120.3806,41.5969,朝阳市,农业园区,颗粒物(PM10),409,509,262,74,83,133,102,107,107,11,16,8,13,0.6,1
2023-04-10T18:00:00,2225A,124.4002,43.1713,四平市,一商场,颗粒物(PM10),102,154,125,53,40,149,104,148,116,28,18,10,9,0.6,0.4
2023-04-10T18:00:00,2226A,124.388,43.193,四平市,境园,颗粒物(PM10),96,141,116,34,45,141,101,138,110,22,14,8,6,0.5,0.4
2023-04-10T18:00:00,2227A,125.1358,42.8845,辽源市,环保局,颗粒物(PM10),78,105,57,39,30,146,121,143,133,12,10,10,11,0.6,0.6
2023-04-10T18:00:00,2229A,125.9358,41.7173,通化市,光明,颗粒物(PM10),54,57,43,24,21,149,135,144,137,13,10,11,11,0.5,0.2
2023-04-10T18:00:00,2230A,125.9446,41.7325,通化市,铁路,颗粒物(PM10),55,60,49,29,21,142,126,142,132,18,15,8,8,0.3,0.3
2023-04-10T18:00:00,2231A,126.4219,41.9171,白山市,喜丰,颗粒物(PM10),75,100,82,30,32,137,119,132,131,21,22,10,12,0.9,0.7
2023-04-10T18:00:00,2232A,126.4077,41.9419,白山市,环保局,颗粒物(PM10),78,105,84,46,34,148,133,142,140,13,20,12,11,0.7,0.7
2023-04-10T18:00:00,2233A,124.8006,45.1214,松原市,江南,颗粒物(PM10),353,462,296,101,70,137,91,135,98,15,9,6,7,0.6,0.5
2023-04-10T18:00:00,2234A,124.7965,45.1722,松原市,江北,颗粒物(PM10),471,571,321,102,66,141,89,138,97,19,13,6,6,0.5,0.5
2023-04-10T18:00:00,2235A,122.7911,45.6077,白城市,洮北区环保局,颗粒物(PM10),157,263,283,42,71,124,102,124,92,9,14,4,6,0.1,0.2
2023-04-10T18:00:00,2236A,122.8738,45.5725,白城市,市环保局,颗粒物(PM10),100,149,257,23,62,121,100,120,92,7,14,3,5,0.3,0.5
2023-04-10T18:00:00,2237A,129.47,42.8883,延边朝鲜族自治州,妇幼医院,颗粒物(PM10),80,110,83,32,35,149,144,143,143,12,34,7,9,0.6,0.8
2023-04-10T18:00:00,2238A,129.5055,42.9108,延边朝鲜族自治州,延边医院,颗粒物(PM10),89,127,79,34,33,147,141,141,141,17,25,13,11,0.7,0.7
2023-04-10T18:00:00,2239A,129.3964,42.8881,延边朝鲜族自治州,朝阳川镇医院,颗粒物(PM10),98,146,82,46,32,152,146,146,146,16,24,23,11,0.7,0.6
2023-04-10T18:00:00,2240A,130.9762,45.3001,鸡西市,环保局,颗粒物(PM10),90,129,139,40,68,142,119,133,133,23,35,6,9,0.5,0.7
2023-04-10T18:00:00,2243A,130.9429,45.3039,鸡西市,第一中学,颗粒物(PM10),91,132,123,46,58,148,127,139,139,12,14,8,7,0.4,0.4
2023-04-10T18:00:00,2244A,130.2537,47.3416,鹤岗市,哈啤分公司,细颗粒物(PM2.5),88,105,124,65,85,97,90,85,85,19,24,14,16,0.6,0.7
2023-04-10T18:00:00,2245A,130.2684,47.3086,鹤岗市,斯达机电,细颗粒物(PM2.5),108,137,136,81,97,112,88,93,93,25,24,13,13,0.5,0.6
2023-04-10T18:00:00,2246A,130.3114,47.3388,鹤岗市,东山纸板厂,细颗粒物(PM2.5),107,161,166,80,98,97,71,79,79,32,32,16,17,0.4,0.6
2023-04-10T18:00:00,2247A,130.1097,47.3382,鹤岗市,五号水库,细颗粒物(PM2.5),94,104,113,70,80,122,98,100,100,21,25,12,11,0.6,0.7
2023-04-10T18:00:00,2248A,131.1511,46.6937,双鸭山市,双合村,颗粒物(PM10),123,196,456,55,330,160,118,147,147,18,50,7,21,0.8,2
2023-04-10T18:00:00,2249A,131.1652,46.6191,双鸭山市,南小市,细颗粒物(PM2.5),188,217,279,141,188,162,127,146,146,22,39,8,14,0.7,1.2
2023-04-10T18:00:00,2250A,131.1524,46.6554,双鸭山市,环保局,"颗粒物(PM10),细颗粒物(PM2.5)",124,198,321,94,279,165,132,151,151,21,59,10,18,0.8,1.5
2023-04-10T18:00:00,2251A,131.12,46.5656,双鸭山市,苗圃,细颗粒物(PM2.5),105,71,126,79,107,222,184,204,204,13,24,5,7,0.2,0.6
2023-04-10T18:00:00,2252A,128.5159,47.4311,伊春市,环保局,颗粒物(PM10),99,147,104,62,60,133,120,121,121,26,26,9,9,0.7,1
2023-04-10T18:00:00,2253A,128.9102,47.7412,伊春市,电力嘉园,颗粒物(PM10),104,158,114,47,44,135,120,116,116,22,24,10,11,0.9,1.2
2023-04-10T18:00:00,2254A,129.5029,48.471,伊春市,汤旺河国家公园,细颗粒物(PM2.5),94,115,115,70,58,114,99,101,101,12,9,1,3,0.5,0.5
2023-04-10T18:00:00,2255A,130.2751,46.8028,佳木斯市,佳纺,细颗粒物(PM2.5),173,194,277,131,232,118,58,96,94,59,61,10,13,1.0,1.4
2023-04-10T18:00:00,2256A,130.3995,46.8307,佳木斯市,发电厂,细颗粒物(PM2.5),156,178,240,119,242,116,67,100,99,31,48,11,16,0.8,1.4
2023-04-10T18:00:00,2257A,130.3258,46.7975,佳木斯市,环保局,细颗粒物(PM2.5),166,166,231,126,216,111,47,83,82,56,56,12,15,1.3,1.4
2023-04-10T18:00:00,2258A,130.3648,46.8032,佳木斯市,十一中,细颗粒物(PM2.5),163,171,232,124,226,159,64,95,95,47,55,12,16,1.1,1.3
2023-04-10T18:00:00,2259A,130.3794,46.7588,佳木斯市,四丰,细颗粒物(PM2.5),168,177,286,127,280,216,181,178,178,41,58,1,4,1.0,1.6
2023-04-10T18:00:00,2262A,131.0518,45.8751,七台河市,新一中,细颗粒物(PM2.5),142,210,226,108,145,202,134,157,156,42,48,18,23,1.2,1.4
2023-04-10T18:00:00,2263A,127.4833,50.2524,黑河市,交通局,,,121,32,52,17,79,13,75,47,,7,14,7,0.9,0.4
2023-04-10T18:00:00,2264A,127.5144,50.2341,黑河市,环保局,颗粒物(PM10),90,130,43,57,22,85,17,77,55,59,17,9,5,0.9,0.4
2023-04-10T18:00:00,2265A,127.5291,50.2472,黑河市,大黑河岛,细颗粒物(PM2.5),84,70,31,62,24,89,11,80,56,28,6,4,4,0.8,0.4
2023-04-10T18:00:00,2266A,126.9785,46.6365,绥化市,人和东街,颗粒物(PM10),500,878,336,84,85,123,77,114,105,19,35,6,11,0.6,0.7
2023-04-10T18:00:00,2267A,126.964,46.6528,绥化市,党政办公中心,颗粒物(PM10),500,858,331,112,100,133,85,124,115,22,29,5,10,0.7,0.6
2023-04-10T18:00:00,2269A,124.1069,50.4097,大兴安岭地区,科技局,颗粒物(PM10),66,82,30,27,13,96,61,88,75,25,9,10,9,0.5,0.2
2023-04-10T18:00:00,2270A,117.396,32.939,蚌埠市,工人疗养院,,,75,69,34,30,173,173,153,153,,22,8,9,0.6,0.6
2023-04-10T18:00:00,2271A,117.3605,32.9427,蚌埠市,百货大楼,臭氧1小时,68,80,76,31,31,174,174,151,151,17,18,6,6,0.5,0.5
2023-04-10T18:00:00,2273A,117.4185,32.8911,蚌埠市,蚌埠学院,颗粒物(PM10),67,83,76,29,28,170,169,152,152,14,18,10,11,0.4,0.5
2023-04-10T18:00:00,2274A,117.3533,32.9673,蚌埠市,淮上区政府,颗粒物(PM10),65,80,78,29,27,170,164,150,150,17,14,6,8,0.5,0.5
2023-04-10T18:00:00,2275A,117.3145,32.8977,蚌埠市,高新区,颗粒物(PM10),71,92,76,36,32,174,174,148,148,13,17,7,11,0.5,0.6
2023-04-10T18:00:00,2277A,116.8305,32.7727,淮南市,潘集区政府,颗粒物(PM10),64,78,89,36,43,158,153,142,142,10,24,6,14,0.2,0.3
2023-04-10T18:00:00,2278A,117.0067,32.6524,淮南市,师范学院,颗粒物(PM10),68,86,86,21,37,157,156,145,145,15,22,8,9,0.3,0.4
2023-04-10T18:00:00,2279A,116.8569,32.5951,淮南市,谢家集区政府,颗粒物(PM10),60,70,79,24,30,163,150,140,140,12,25,5,11,0.2,0.3
2023-04-10T18:00:00,2280A,116.8281,32.633,淮南市,八公山区政府,颗粒物(PM10),61,72,77,24,28,162,155,140,140,10,24,4,5,0.2,0.3
2023-04-10T18:00:00,2281A,116.6325,32.6201,淮南市,焦岗湖风景区管理处,颗粒物(PM10),52,54,61,26,32,148,130,126,126,5,13,5,6,0.2,0.3
2023-04-10T18:00:00,2282A,116.8004,33.975,淮北市,监测站,颗粒物(PM10),72,93,88,32,32,160,156,150,150,10,18,6,7,0.5,0.5
2023-04-10T18:00:00,2283A,116.8091,33.9007,淮北市,烈山区政府,颗粒物(PM10),67,83,86,30,35,158,149,147,147,10,20,7,8,0.5,0.5
2023-04-10T18:00:00,2284A,116.7856,33.9477,淮北市,职业技术学院,颗粒物(PM10),71,91,87,31,35,151,147,141,141,10,18,7,8,0.6,0.6
2023-04-10T18:00:00,2285A,117.8177,30.9412,铜陵市,市第四中学,颗粒物(PM10),63,75,84,29,32,135,115,119,119,23,37,14,16,0.6,0.9
2023-04-10T18:00:00,2286A,117.8059,30.9273,铜陵市,市公路局,颗粒物(PM10),68,85,74,39,30,135,115,116,116,16,29,15,14,1.2,1.2
2023-04-10T18:00:00,2287A,117.7807,30.9413,铜陵市,市新民污水厂,颗粒物(PM10),58,66,75,23,32,144,125,126,126,23,50,12,25,0.5,0.8
2023-04-10T18:00:00,2288A,117.7439,30.8792,铜陵市,市第九中学,颗粒物(PM10),66,82,90,31,30,135,95,111,111,51,47,40,73,0.7,0.9
2023-04-10T18:00:00,2289A,117.846,30.9413,铜陵市,车站新区,颗粒物(PM10),55,60,61,22,24,142,131,131,131,17,34,15,13,0.7,0.7
2023-04-10T18:00:00,2290A,117.8483,30.97,铜陵市,市职教基地,颗粒物(PM10),61,71,66,20,28,138,126,125,125,13,31,9,6,0.3,0.6
2023-04-10T18:00:00,2291A,117.0809,30.5177,安庆市,环科院,颗粒物(PM10),60,70,65,32,35,143,112,127,127,22,49,9,11,0.4,0.5
2023-04-10T18:00:00,2292A,117.0331,30.5119,安庆市,马山宾馆,颗粒物(PM10),59,68,66,29,32,137,89,120,120,37,40,10,11,0.7,0.7
2023-04-10T18:00:00,2294A,116.9896,30.6145,安庆市,安庆大学,颗粒物(PM10),60,69,69,33,29,149,121,140,140,18,29,11,13,0.7,0.7
2023-04-10T18:00:00,2295A,118.2903,29.6963,黄山市,延安路89号,,45,45,42,26,27,137,129,124,124,7,15,8,7,0.4,0.4
2023-04-10T18:00:00,2296A,118.327,29.7178,黄山市,黄山东路89号,,49,49,40,24,26,134,120,123,123,14,19,8,6,0.6,0.6
2023-04-10T18:00:00,2297A,118.1371,30.2756,黄山市,黄山区政府5号楼,颗粒物(PM10),61,71,66,14,34,129,122,124,124,9,14,6,5,0.2,0.2
2023-04-10T18:00:00,2298A,118.3093,32.3153,滁州市,老年大学,臭氧1小时,64,63,85,29,45,174,171,162,162,11,31,13,18,0.4,0.8
2023-04-10T18:00:00,2299A,118.3244,32.2786,滁州市,人大宾馆,颗粒物(PM10),61,71,90,32,49,180,166,165,165,24,43,10,15,0.4,0.7
2023-04-10T18:00:00,2301A,115.8277,32.8929,阜阳市,市监测站,颗粒物(PM10),60,70,78,23,33,144,130,136,136,20,20,6,7,0.4,0.4
2023-04-10T18:00:00,2303A,115.8554,32.8605,阜阳市,开发区,颗粒物(PM10),66,81,94,33,28,150,144,145,145,13,20,8,8,0.4,0.5
2023-04-10T18:00:00,2307A,116.5079,31.737,六安市,监测大楼,颗粒物(PM10),56,62,62,27,29,150,141,142,142,15,21,7,6,0.4,0.4
2023-04-10T18:00:00,2308A,116.4738,31.7643,六安市,皖西学院,颗粒物(PM10),63,75,72,23,25,159,154,153,153,8,14,6,5,0.3,0.3
2023-04-10T18:00:00,2309A,116.4996,31.7905,六安市,朝阳厂,颗粒物(PM10),57,63,59,34,27,163,156,154,154,16,18,7,6,0.5,0.4
2023-04-10T18:00:00,2310A,116.5567,31.7886,六安市,开发区,颗粒物(PM10),66,81,82,29,33,156,152,146,146,11,15,9,11,0.5,0.5
2023-04-10T18:00:00,2311A,115.8072,33.8399,亳州市,污水处理厂,颗粒物(PM10),64,77,87,33,34,159,149,154,154,12,15,12,14,0.3,0.3
2023-04-10T18:00:00,2312A,115.7789,33.8518,亳州市,三国揽胜宫,颗粒物(PM10),67,84,89,34,34,157,152,152,152,6,10,10,10,0.5,0.5
2023-04-10T18:00:00,2314A,117.47,30.6618,池州市,池州学院,颗粒物(PM10),64,78,63,36,30,149,113,130,130,16,21,6,7,0.5,0.8
2023-04-10T18:00:00,2316A,118.7581,30.9454,宣城市,鳌峰子站,颗粒物(PM10),55,60,60,29,31,120,105,112,112,12,26,4,7,0.5,0.5
2023-04-10T18:00:00,2317A,118.7385,30.9743,宣城市,敬亭山子站,颗粒物(PM10),53,56,55,31,28,124,104,111,111,11,20,5,8,0.4,0.4
2023-04-10T18:00:00,2318A,118.7173,30.9427,宣城市,开发区子站,颗粒物(PM10),51,52,57,28,31,127,112,117,117,12,33,8,11,0.5,0.6
2023-04-10T18:00:00,2319A,119.0141,25.4325,莆田市,荔城区仓后路,颗粒物(PM10),52,54,40,23,14,132,108,118,118,12,16,9,9,0.7,0.7
2023-04-10T18:00:00,2320A,119.0015,25.4553,莆田市,莆田市监测站,,,42,29,,15,136,112,121,121,11,10,8,7,0.7,0.6
2023-04-10T18:00:00,2321A,119.1119,25.4561,莆田市,涵江区六中,,47,47,33,25,20,124,104,114,114,3,10,5,6,0.5,0.5
2023-04-10T18:00:00,2322A,119.1013,25.3215,莆田市,秀屿区政府,,38,28,37,26,18,119,102,113,113,8,17,6,7,0.5,0.5
2023-04-10T18:00:00,2323A,118.981,25.4792,莆田市,东圳水库,,,,,,,,,,,,,,,,
2023-04-10T18:00:00,2324A,117.6211,26.2625,三明市,三钢,颗粒物(PM10),62,74,57,39,33,147,75,121,121,53,30,11,14,1.2,1.2
2023-04-10T18:00:00,2325A,117.635,26.2714,三明市,三明二中,颗粒物(PM10),56,62,52,36,28,149,91,123,123,43,32,7,10,1.2,1
2023-04-10T18:00:00,2326A,117.6028,26.2378,三明市,三元区政府,细颗粒物(PM2.5),94,97,66,70,40,147,44,122,121,75,35,8,13,1.8,1.2
2023-04-10T18:00:00,2327A,117.7275,26.3108,三明市,洋溪,,,,,,,,,,,,,,,,
2023-04-10T18:00:00,2331A,118.0966,26.6761,南平市,茫荡山,,,,,,,,,,,,,,,,
2023-04-10T18:00:00,2332A,118.1681,26.6369,南平市,南平市监测站,,49,49,43,29,25,130,103,120,120,23,19,6,5,0.8,0.6
2023-04-10T18:00:00,2333A,118.1825,26.6489,南平市,南平铝业有限公司,,46,46,43,28,24,131,111,122,122,19,22,7,9,0.8,0.8
2023-04-10T18:00:00,2334A,118.1756,26.6272,南平市,南平七中,,49,38,40,34,23,134,94,122,122,26,18,4,4,0.9,0.6
2023-04-10T18:00:00,2335A,117.0189,25.1181,龙岩市,龙岩师专,,,,,,,,,,,,,,,,
2023-04-10T18:00:00,2336A,117.0217,25.1033,龙岩市,龙岩市监测站,,50,41,51,35,26,144,114,131,131,15,27,10,15,0.5,0.5
2023-04-10T18:00:00,2337A,117.0258,25.0661,龙岩市,闽西职业技术学院,,48,48,51,29,23,141,112,129,129,16,24,11,18,0.4,0.4
2023-04-10T18:00:00,2338A,117.0196,25.0306,龙岩市,龙岩学院,颗粒物(PM10),52,53,44,30,24,140,113,129,129,14,14,6,7,0.5,0.5
2023-04-10T18:00:00,2339A,119.5001,26.6946,宁德市,金涵水库,,,,,,,,,,,,,,,,
2023-04-10T18:00:00,2341A,119.5388,26.6612,宁德市,宁德市监测站,,,37,30,14,13,111,72,100,99,,13,3,3,0.4,0.5
2023-04-10T18:00:00,2342A,117.3102,29.3867,景德镇市,王港中学,"颗粒物(PM10),细颗粒物(PM2.5)",58,65,52,41,25,156,143,132,132,10,13,5,5,0.4,0.3
2023-04-10T18:00:00,2343A,117.2117,29.2933,景德镇市,老干部活动中心,颗粒物(PM10),58,66,68,32,35,134,106,115,115,19,21,14,8,0.7,0.6
2023-04-10T18:00:00,2344A,117.1894,29.2789,景德镇市,兽医站,颗粒物(PM10),60,70,57,37,31,137,119,126,126,14,20,20,10,0.5,0.5
2023-04-10T18:00:00,2345A,117.1547,29.2617,景德镇市,台达陶瓷,颗粒物(PM10),66,82,72,38,33,113,92,102,102,42,35,20,28,0.9,0.8
2023-04-10T18:00:00,2346A,117.2461,29.2956,景德镇市,陶研所,颗粒物(PM10),55,60,60,20,26,126,100,119,119,10,18,7,6,0.6,0.5
2023-04-10T18:00:00,2347A,114.0997,27.5002,萍乡市,武功山,,37,37,41,16,25,95,74,51,50,8,16,7,3,0.7,0.7
2023-04-10T18:00:00,2348A,113.8385,27.6434,萍乡市,中医院,颗粒物(PM10),79,108,81,49,40,132,40,62,62,50,34,23,15,1.9,0.9
2023-04-10T18:00:00,2349A,113.8493,27.6253,萍乡市,市政府车库,颗粒物(PM10),78,106,88,45,46,122,56,58,58,35,32,32,22,0.9,1
2023-04-10T18:00:00,2350A,113.8676,27.6435,萍乡市,市环保局,颗粒物(PM10),74,97,87,40,43,119,34,52,52,51,39,30,26,1.4,1.1
2023-04-10T18:00:00,2351A,113.866,27.6198,萍乡市,安源区政府,颗粒物(PM10),74,97,90,51,48,121,58,51,51,30,33,32,25,0.9,1.2
2023-04-10T18:00:00,2352A,115.0861,27.9317,新余市,北岗,细颗粒物(PM2.5),59,60,47,42,31,105,62,74,74,6,6,13,13,0.6,0.5
2023-04-10T18:00:00,2353A,114.9886,27.8431,新余市,飞宇,颗粒物(PM10),65,80,81,38,36,122,68,79,79,29,35,12,14,0.4,0.4
2023-04-10T18:00:00,2354A,114.9231,27.8246,新余市,第二水厂,,,139,90,46,35,118,42,62,61,30,35,,14,0.8,0.9
2023-04-10T18:00:00,2355A,114.9308,27.8036,新余市,市气象局,颗粒物(PM10),73,96,87,52,37,128,72,68,68,21,28,18,15,0.7,0.9
2023-04-10T18:00:00,2357A,116.9822,28.1136,鹰潭市,龙虎山,颗粒物(PM10),51,52,46,30,26,143,101,108,108,1,4,2,2,0.8,0.5
2023-04-10T18:00:00,2358A,117.0564,28.2642,鹰潭市,新监测站,颗粒物(PM10),58,66,66,30,31,138,89,113,110,10,19,10,19,0.4,0.5
2023-04-10T18:00:00,2359A,117.0311,28.2475,鹰潭市,财苑宾馆,颗粒物(PM10),58,66,69,24,30,148,83,117,110,16,27,5,22,0.5,0.4
2023-04-10T18:00:00,2360A,117.0222,28.2264,鹰潭市,体育馆,颗粒物(PM10),55,59,49,24,28,144,83,106,106,20,25,1,17,0.5,0.5
2023-04-10T18:00:00,2361A,117.0017,28.2131,鹰潭市,三川水表,颗粒物(PM10),55,60,58,31,28,124,94,107,107,4,13,2,4,0.4,0.3
2023-04-10T18:00:00,2362A,114.9017,25.9149,赣州市,通天岩,颗粒物(PM10),51,52,70,25,38,138,80,88,88,14,19,9,12,1.2,1
2023-04-10T18:00:00,2363A,114.9367,25.8664,赣州市,地委,,49,49,77,24,32,137,91,96,96,16,30,7,8,1.0,1
2023-04-10T18:00:00,2364A,114.9461,25.8481,赣州市,气象台,,30,30,64,21,32,89,75,77,77,17,50,7,10,0.7,0.7
2023-04-10T18:00:00,2365A,114.9322,25.8333,赣州市,市图书馆,,48,48,77,22,34,125,85,90,90,17,33,11,16,1.3,1.3
2023-04-10T18:00:00,2366A,114.8905,25.8471,赣州市,华坚鞋城,颗粒物(PM10),51,52,88,21,39,105,76,81,81,23,32,9,24,0.7,0.7
2023-04-10T18:00:00,2367A,114.9754,27.0803,吉安市,红声器材厂,颗粒物(PM10),62,74,76,31,36,106,53,79,78,35,22,8,11,0.6,0.6
