timepoint,stationcode,longitude,latitude,area,positionname,primarypollutant,aqi,pm10,pm10_24h,pm2_5,pm2_5_24h,o3,o3_24h,o3_8h,o3_8h_24h,no2,no2_24h,so2,so2_24h,co,co_24h
2024-11-20T0000,2566A,102.1879,31.914,阿坝藏族羌族自治州,州农科所,,21,14,28,8,10,65,,70,70,3,11,8,10,0.0,0.1
2024-11-20T0000,2568A,102.2502,31.8896,阿坝藏族羌族自治州,马师校,,23,17,17,16,16,63,,57,54,6,19,4,4,0.4,0.5
2024-11-20T0000,3994A,102.2165,31.9024,阿坝藏族羌族自治州,马尔康中学西区,,23,17,24,16,12,62,,62,62,5,14,5,5,0.4,0.5
2024-11-20T0000,2695A,80.292,41.1694,阿克苏地区,电视台,细颗粒物(PM2.5),215,254,139,165,59,6,,65,43,80,48,6,4,2.5,1.3
2024-11-20T0000,2696A,80.2613,41.1551,阿克苏地区,艺术中心,颗粒物(PM10),118,186,108,83,42,11,,69,44,101,44,4,4,1.7,0.9
2024-11-20T0000,2204A,105.6467,38.8363,阿拉善盟,西城区西花园,细颗粒物(PM2.5),59,55,36,42,27,59,,82,58,17,17,9,8,1.0,0.9
2024-11-20T0000,2205A,105.6985,38.8411,阿拉善盟,蒙二幼,,28,27,31,19,19,62,,78,60,13,17,6,6,0.7,0.7
2024-11-20T0000,2206A,105.724,38.8516,阿拉善盟,环保局新楼,,31,31,33,18,17,74,,78,71,8,12,8,8,0.5,0.6
2024-11-20T0000,2708A,88.1264,47.8517,阿勒泰地区,市站,,20,,7,14,6,63,,77,55,13,16,7,8,0.4,0.4
2024-11-20T0000,2630A,80.1161,32.5,阿里地区,阿里监测站,,23,8,6,3,6,73,,95,89,14,5,8,4,0.5,0.4
2024-11-20T0000,3192A,80.0903,32.5028,阿里地区,阿里藏医院,,25,10,13,3,8,79,,93,90,4,10,7,8,0.4,0.6
2024-11-20T0000,2642A,109.0318,32.6537,安康市,香溪洞,,15,,11,10,5,40,,60,40,6,7,9,9,0.3,0.3
2024-11-20T0000,2644A,109.0072,32.6975,安康市,汉滨区检察院,,16,15,15,11,10,23,,49,31,11,15,6,6,0.6,0.6
2024-11-20T0000,4054A,109.0325,32.6913,安康市,市邮政管理局,,20,16,12,14,8,12,,48,24,25,19,6,6,0.5,0.5
2024-11-20T0000,2291A,117.0809,30.5177,安庆市,环科院,,35,35,42,19,22,33,,40,34,25,26,10,10,0.7,0.7
2024-11-20T0000,2292A,117.0331,30.5119,安庆市,马山宾馆,,35,34,41,24,21,36,,42,34,26,27,7,7,0.4,0.4
2024-11-20T0000,2294A,116.9896,30.6145,安庆市,安庆大学,,36,36,37,18,17,38,,48,44,28,25,8,8,0.5,0.5
2024-11-20T0000,3173A,117.0598,30.5351,安庆市,市人大,,40,40,39,16,9,31,,38,30,26,26,10,10,0.5,0.5
2024-11-20T0000,3122A,105.9606,26.2611,安顺市,伍家关,,12,12,12,3,10,27,,29,19,7,9,5,7,0.7,0.7
2024-11-20T0000,3123A,105.9408,26.2431,安顺市,凤凰山,,10,10,27,3,9,24,,26,18,8,10,10,11,0.4,0.5
2024-11-20T0000,3124A,105.9439,26.2564,安顺市,金钟山,,8,7,14,3,12,25,,28,20,7,9,8,10,0.6,0.6
2024-11-20T0000,3125A,105.8983,26.2481,安顺市,娄家坡,,9,8,16,6,14,24,,26,18,8,10,17,12,0.6,0.5
2024-11-20T0000,1818A,114.4839,36.0621,安阳市,棉研所,细颗粒物(PM2.5),70,51,57,51,41,14,,55,37,41,35,7,8,0.4,0.5
2024-11-20T0000,1819A,114.3551,36.1017,安阳市,红庙街,细颗粒物(PM2.5),75,56,55,55,36,16,,54,36,31,30,4,3,0.5,0.6
2024-11-20T0000,1820A,114.361,36.0681,安阳市,银杏小区,细颗粒物(PM2.5),69,50,56,50,35,16,,57,35,34,30,2,3,0.8,0.7
2024-11-20T0000,3141A,114.3922,36.0878,安阳市,信访局,细颗粒物(PM2.5),73,54,56,53,37,27,,55,37,19,26,9,4,0.5,0.4
2024-11-20T0000,3669A,114.4705,36.0637,安阳市,左辅环卫站,细颗粒物(PM2.5),68,72,68,49,38,15,,55,38,33,27,2,3,0.6,0.5
2024-11-20T0000,3703A,114.2917,36.0949,安阳市,安钢职工学校,细颗粒物(PM2.5),77,59,60,56,41,11,,52,30,40,33,6,9,0.4,0.3
2024-11-20T0000,1748A,123.044,41.1196,鞍山市,深沟寺,,47,47,40,27,21,37,,55,47,22,16,5,5,0.6,0.6
2024-11-20T0000,1749A,123.011,41.0931,鞍山市,太阳城,颗粒物(PM10),51,52,37,32,18,48,,54,51,15,16,5,7,0.6,0.5
2024-11-20T0000,1750A,123.0485,41.1442,鞍山市,太平,,49,49,43,25,20,39,,51,36,25,27,10,12,0.6,0.6
2024-11-20T0000,1751A,122.9642,41.0971,鞍山市,铁西三道街,"颗粒物(PM10),细颗粒物(PM2.5)",62,74,53,44,26,30,,44,29,32,34,17,15,1.0,0.9
2024-11-20T0000,1752A,122.9341,41.0833,鞍山市,铁西工业园区,颗粒物(PM10),59,68,55,37,24,35,,51,40,27,31,12,11,1.3,1.2
2024-11-20T0000,1753A,123.022,41.0821,鞍山市,明达新区,颗粒物(PM10),54,57,41,32,20,47,,54,51,14,14,9,9,0.7,0.7
2024-11-20T0000,1754A,123.1289,41.0228,鞍山市,千山,,,,25,,14,,,53,,,8,,4,,0.5
2024-11-20T0000,2195A,107.4212,40.761,巴彦淖尔市,附二中,细颗粒物(PM2.5),64,75,116,46,49,7,,49,13,67,46,6,10,0.6,0.8
2024-11-20T0000,2196A,107.37,40.7372,巴彦淖尔市,市环保大楼,细颗粒物(PM2.5),64,75,90,46,44,23,,59,23,41,39,3,5,0.5,0.6
2024-11-20T0000,1956A,86.1472,41.7538,巴音郭楞蒙古自治州,孔雀公园,,,,102,54,34,1,,71,47,84,53,7,6,1.4,0.7
2024-11-20T0000,1957A,86.1972,41.7166,巴音郭楞蒙古自治州,棉纺厂,颗粒物(PM10),140,229,131,41,34,1,,74,44,77,41,3,2,1.1,0.5
2024-11-20T0000,1958A,86.2357,41.7173,巴音郭楞蒙古自治州,经济开发区,颗粒物(PM10),108,165,134,38,29,2,,72,40,61,36,2,2,0.7,0.5
2024-11-20T0000,2914A,106.7677,31.8794,巴中市,苏山坪,,19,17,13,13,8,6,,24,8,16,14,4,5,0.6,0.5
2024-11-20T0000,3182A,106.7656,31.8545,巴中市,丽阳花园,,26,26,17,16,9,3,,21,9,19,20,3,3,0.5,0.5
2024-11-20T0000,3183A,106.7418,31.8654,巴中市,圣泉水务公司,,22,22,13,14,8,3,,21,6,18,18,4,3,0.7,0.6
2024-11-20T0000,3616A,106.7616,31.8344,巴中市,市中心医院,,24,24,18,13,10,2,,22,9,19,16,4,5,0.5,0.4
2024-11-20T0000,2235A,122.7911,45.6077,白城市,洮北区环保局,,29,29,43,18,21,50,,48,32,11,18,3,4,0.3,0.3
2024-11-20T0000,2236A,122.8738,45.5725,白城市,市环保局,,29,29,50,16,22,33,,48,17,24,21,7,7,0.6,0.6
2024-11-20T0000,2231A,126.4219,41.9171,白山市,喜丰,,35,35,48,16,19,53,,59,54,13,20,11,16,0.6,0.5
2024-11-20T0000,2232A,126.4077,41.9419,白山市,环保局,,43,43,54,24,16,58,,60,58,7,12,3,10,0.6,0.6
2024-11-20T0000,2647A,104.1724,36.5446,白银市,第三小学,细颗粒物(PM2.5),84,100,63,62,44,3,,43,23,54,35,72,45,1.2,1
2024-11-20T0000,2648A,104.1465,36.5482,白银市,动力公司,颗粒物(PM10),62,74,54,43,34,10,,48,22,39,32,12,34,1.4,0.9
2024-11-20T0000,2512A,106.6103,23.9011,百色市,市监测站,,22,20,33,15,21,28,,59,36,13,15,6,7,0.6,0.7
2024-11-20T0000,2513A,106.6538,23.8859,百色市,市中心血站,,22,20,39,15,23,32,,57,37,12,16,6,8,0.6,0.7
2024-11-20T0000,3406A,106.6085,23.8798,百色市,祈福高中,,28,26,45,19,29,33,,60,40,10,17,4,5,0.6,0.8
2024-11-20T0000,2270A,117.396,32.939,蚌埠市,工人疗养院,,40,40,30,17,11,22,,58,38,35,18,3,3,0.3,0.2
2024-11-20T0000,2271A,117.3605,32.9427,蚌埠市,百货大楼,,37,37,29,15,11,39,,54,40,20,16,4,4,0.3,0.3
2024-11-20T0000,2273A,117.4185,32.8911,蚌埠市,蚌埠学院,,34,34,28,21,14,11,,58,34,47,37,7,10,0.3,0.2
2024-11-20T0000,2274A,117.3533,32.9673,蚌埠市,淮上区政府,,44,44,31,24,15,14,,54,33,39,20,3,3,0.2,0.2
2024-11-20T0000,2275A,117.3145,32.8977,蚌埠市,高新区,,34,34,25,16,12,21,,52,28,41,27,6,6,0.3,0.2
2024-11-20T0000,3715A,117.3092,32.9314,蚌埠市,蚌埠田家炳中学,颗粒物(PM10),58,66,32,23,13,2,,54,33,54,22,5,5,0.3,0.2
2024-11-20T0000,1585A,109.8756,40.6532,包头市,市环境监测站,颗粒物(PM10),74,98,57,39,28,6,,54,22,66,48,11,18,1.4,0.9
2024-11-20T0000,1587A,109.9991,40.5842,包头市,包头八中,细颗粒物(PM2.5),75,98,62,55,39,4,,53,19,65,41,12,12,1.4,0.9
2024-11-20T0000,1588A,109.8538,40.6821,包头市,青山宾馆,细颗粒物(PM2.5),72,80,57,52,44,5,,42,15,61,46,11,17,0.9,0.9
2024-11-20T0000,1589A,109.8642,40.6288,包头市,惠龙物流,颗粒物(PM10),76,101,55,48,28,4,,53,20,73,47,14,15,1.4,1
2024-11-20T0000,1590A,110.0377,40.5546,包头市,东河鸿龙湾,颗粒物(PM10),77,103,57,48,31,6,,55,21,58,38,11,11,1.7,1.1
2024-11-20T0000,3283A,109.9154,40.5685,包头市,滨河大厦,"颗粒物(PM10),细颗粒物(PM2.5)",68,86,53,49,29,5,,62,24,72,42,17,13,1.4,0.8
2024-11-20T0000,3419A,109.9447,40.6261,包头市,包头市委党校,颗粒物(PM10),71,91,50,37,26,7,,57,22,67,41,11,11,1.5,1
2024-11-20T0000,3683A,109.8331,40.6576,包头市,昆区政府,细颗粒物(PM2.5),65,70,55,47,40,8,,46,19,51,47,13,21,0.9,0.9
2024-11-20T0000,1930A,107.185,34.3063,宝鸡市,庙沟村,细颗粒物(PM2.5),52,,35,36,26,12,,32,12,27,21,7,8,0.7,0.7
2024-11-20T0000,1931A,107.0708,34.3017,宝鸡市,竹园沟,细颗粒物(PM2.5),52,,37,36,40,24,,35,18,15,16,6,6,0.5,0.7
2024-11-20T0000,1932A,107.1906,34.3672,宝鸡市,三陆医院,,48,,48,33,50,18,,32,14,24,23,5,5,0.6,0.7
2024-11-20T0000,1933A,107.1431,34.3547,宝鸡市,监测站,,46,,45,32,44,22,,36,14,15,21,6,6,0.6,0.6
2024-11-20T0000,1934A,107.1186,34.3739,宝鸡市,技工学校,,42,30,44,29,39,18,,32,21,19,24,5,6,0.6,0.6
2024-11-20T0000,1935A,107.3906,34.3528,宝鸡市,陈仓区环保局家属楼,细颗粒物(PM2.5),82,76,53,60,53,2,,32,10,28,21,6,6,1.1,0.9
2024-11-20T0000,1936A,107.2058,34.3497,宝鸡市,文理学院,,48,39,50,33,43,18,,35,10,24,28,5,5,0.6,0.7
2024-11-20T0000,1937A,107.2386,34.3622,宝鸡市,三迪小学,细颗粒物(PM2.5),59,57,54,42,48,13,,34,13,32,29,7,7,0.7,0.7
2024-11-20T0000,1051A,115.493,38.8632,保定市,游泳馆,细颗粒物(PM2.5),103,134,94,77,51,5,,28,10,46,42,2,3,1.2,0.7
2024-11-20T0000,1052A,115.5213,38.8959,保定市,华电二区,细颗粒物(PM2.5),114,111,97,86,57,1,,24,8,56,52,7,7,1.0,0.5
2024-11-20T0000,1053A,115.4713,38.9108,保定市,接待中心,细颗粒物(PM2.5),84,105,91,62,48,4,,22,7,49,50,4,5,0.9,0.5
2024-11-20T0000,1054A,115.4612,38.8416,保定市,地表水厂,细颗粒物(PM2.5),125,130,113,95,58,2,,23,4,51,48,6,4,0.6,0.4
2024-11-20T0000,3581A,115.31981,38.95208,保定市,满城区生态环境分局,细颗粒物(PM2.5),92,122,104,68,48,4,,23,6,54,59,2,3,0.8,0.6
2024-11-20T0000,3582A,115.47694,38.76408,保定市,清苑区第二中学,细颗粒物(PM2.5),103,111,114,77,59,6,,23,11,56,46,12,7,0.9,0.7
2024-11-20T0000,3583A,115.62909,39.02311,保定市,徐水物探局,细颗粒物(PM2.5),100,100,92,75,44,2,,16,2,41,26,4,3,0.7,0.6
2024-11-20T0000,4004A,115.4202,38.8656,保定市,双鹰农机,细颗粒物(PM2.5),110,132,96,83,49,5,,28,10,53,48,3,4,0.8,0.7
2024-11-20T0000,4034A,115.5150,38.8590,保定市,植保所站,细颗粒物(PM2.5),108,148,98,81,60,3,,26,9,58,49,9,6,1.2,0.9
2024-11-20T0000,2594A,99.1678,25.1081,保山市,市环境监测站,,28,28,31,12,12,29,,67,47,6,11,4,5,0.4,0.4
2024-11-20T0000,2595A,99.1711,25.1328,保山市,市环保局,,26,26,31,12,14,37,,74,56,4,9,4,4,0.4,0.5
2024-11-20T0000,1866A,109.2262,21.588,北海市,牛尾岭水库,,,,29,27,19,60,,85,74,,7,5,11,0.5,0.8
2024-11-20T0000,1867A,109.1436,21.4086,北海市,海滩公园,,41,41,37,22,20,89,,110,107,14,11,10,9,0.7,0.7
2024-11-20T0000,1868A,109.0981,21.4661,北海市,新市环保局,,45,45,37,22,21,83,,111,106,14,12,8,8,0.7,0.7
2024-11-20T0000,1869A,109.1778,21.5233,北海市,北海工业园,,46,46,39,29,24,69,,93,89,17,14,8,8,0.8,0.8
2024-11-20T0000,3400A,109.1911,21.4415,北海市,龙潭自来水厂,细颗粒物(PM2.5),57,48,37,40,26,74,,104,97,16,11,10,10,0.8,0.8
2024-11-20T0000,1001A,116.3621,39.8784,北京市,万寿西宫,颗粒物(PM10),82,114,76,55,35,0,,16,1,76,53,3,4,0.7,0.6
2024-11-20T0000,1002A,116.2202,40.2915,北京市,定陵,,,69,59,45,36,,,5,,41,31,2,2,0.7,0.7
2024-11-20T0000,1003A,116.4174,39.9289,北京市,东四,细颗粒物(PM2.5),85,110,73,63,37,3,,23,5,61,48,3,5,1.0,0.8
2024-11-20T0000,1004A,116.4072,39.8863,北京市,天坛,细颗粒物(PM2.5),77,85,63,56,35,1,,18,2,36,39,3,3,0.6,0.6
2024-11-20T0000,1005A,116.462,39.9365,北京市,农展馆,颗粒物(PM10),75,99,68,52,33,1,,20,3,56,48,2,3,0.8,0.7
2024-11-20T0000,1006A,116.3392,39.9295,北京市,官园,颗粒物(PM10),78,106,69,52,32,0,,20,2,62,48,3,2,0.7,0.6
2024-11-20T0000,1007A,116.2878,39.9611,北京市,海淀万柳,颗粒物(PM10),78,105,70,52,35,7,,25,8,41,39,3,4,1.0,0.8
2024-11-20T0000,1008A,116.6636,40.135,北京市,顺义新城,颗粒物(PM10),79,107,72,53,38,1,,23,2,51,44,1,3,0.7,0.6
2024-11-20T0000,1009A,116.6275,40.3275,北京市,怀柔镇,细颗粒物(PM2.5),60,68,54,43,32,5,,29,6,33,25,3,3,0.7,0.7
2024-11-20T0000,1010A,116.2296,40.217,北京市,昌平镇,颗粒物(PM10),66,82,71,40,32,1,,18,2,43,34,5,6,0.7,0.7
2024-11-20T0000,1011A,116.3966,39.9821,北京市,奥体中心,颗粒物(PM10),78,106,68,54,34,2,,21,3,66,51,2,3,1.0,0.7
2024-11-20T0000,1012A,116.184,39.9136,北京市,古城,颗粒物(PM10),83,115,76,57,38,1,,20,4,56,47,5,5,0.9,0.6
2024-11-20T0000,3281A,115.9718,40.4529,北京市,延庆夏都,细颗粒物(PM2.5),74,87,76,54,44,2,,18,3,30,29,1,3,0.7,0.6
2024-11-20T0000,3417A,117.0709,40.1465,北京市,平谷新城,细颗粒物(PM2.5),68,82,63,49,33,0,,23,2,28,28,1,2,0.7,0.5
2024-11-20T0000,3418A,116.8336,40.4095,北京市,密云新城,颗粒物(PM10),64,77,65,43,33,1,,33,4,33,34,3,2,0.5,0.5
2024-11-20T0000,3671A,116.088,39.9726,北京市,门头沟三家店,颗粒物(PM10),73,96,78,46,35,1,,19,2,52,50,8,8,0.6,0.6
2024-11-20T0000,3672A,116.1541,39.8204,北京市,丰台云岗,颗粒物(PM10),79,108,75,52,39,0,,21,3,61,48,4,4,0.7,0.6
2024-11-20T0000,3673A,116.6804,39.9081,北京市,通州东关,颗粒物(PM10),93,136,75,62,38,0,,23,4,70,44,2,2,0.7,0.6
2024-11-20T0000,3674A,115.9577,39.7603,北京市,房山燕山,细颗粒物(PM2.5),68,75,65,49,38,7,,25,7,35,37,3,3,0.6,0.5
2024-11-20T0000,3675A,116.4672,39.7733,北京市,大兴旧宫,颗粒物(PM10),70,90,62,47,31,0,,20,4,36,39,3,2,0.7,0.6
2024-11-20T0000,3694A,115.986,40.4563,北京市,延庆石河营,细颗粒物(PM2.5),75,82,71,55,44,2,,16,3,30,31,3,3,0.7,0.6
2024-11-20T0000,3695A,116.6151,40.3053,北京市,怀柔新城,细颗粒物(PM2.5),64,70,55,46,33,7,,29,6,29,23,3,2,0.5,0.4
2024-11-20T0000,3696A,116.2545,39.8768,北京市,丰台小屯,颗粒物(PM10),86,121,70,58,34,2,,22,3,64,47,3,3,1.1,0.7
2024-11-20T0000,3697A,116.84,40.3844,北京市,密云镇,颗粒物(PM10),70,89,68,50,34,0,,29,3,47,35,3,3,0.6,0.6
2024-11-20T0000,1761A,123.8275,41.3064,本溪市,大峪,,45,45,47,20,21,37,,45,42,22,33,11,12,1.0,1.1
2024-11-20T0000,1762A,123.7567,41.3325,本溪市,溪湖,颗粒物(PM10),53,56,50,30,20,22,,46,37,38,30,15,11,1.9,1
2024-11-20T0000,1763A,123.7169,41.3094,本溪市,彩屯,颗粒物(PM10),51,52,58,31,35,13,,27,19,40,46,9,21,0.9,2.5
2024-11-20T0000,1764A,123.7669,41.2864,本溪市,东明,,39,35,49,27,23,36,,54,49,31,31,9,10,0.8,0.9
2024-11-20T0000,1765A,123.7992,41.2664,本溪市,新立屯,,33,33,31,17,12,54,,54,52,15,23,6,6,0.7,0.8
2024-11-20T0000,1766A,123.8142,41.3472,本溪市,威宁,,42,42,67,29,26,29,,33,33,25,34,10,11,0.4,0.5
2024-11-20T0000,2587A,105.2864,27.3125,毕节市,八中,,10,6,8,3,7,32,,36,25,8,11,6,6,0.4,0.4
2024-11-20T0000,2588A,105.31,27.2944,毕节市,师专,,10,7,8,3,5,30,,36,25,12,11,5,5,0.5,0.5
2024-11-20T0000,3537A,105.3631,27.3533,毕节市,长征村,,13,6,4,3,5,39,,35,30,4,7,6,6,0.4,0.5
2024-11-20T0000,1629A,118.0018,37.3617,滨州市,第二水厂,颗粒物(PM10),68,85,59,44,29,4,,55,23,58,40,6,9,0.6,0.6
2024-11-20T0000,1630A,117.9776,37.393,滨州市,北中新校,颗粒物(PM10),62,73,60,39,26,17,,54,28,50,43,7,10,0.6,0.8
2024-11-20T0000,3514A,117.9378,37.3956,滨州市,中海酒店,细颗粒物(PM2.5),64,70,57,46,31,28,,62,39,41,33,10,10,0.8,0.8
2024-11-20T0000,3515A,117.9378,37.3553,滨州市,开发区一中,细颗粒物(PM2.5),64,75,59,46,27,8,,58,25,61,41,8,10,0.6,0.6
2024-11-20T0000,3516A,118.0917,37.694,滨州市,金海六路,颗粒物(PM10),65,80,55,46,27,9,,51,19,47,30,5,9,0.6,0.6
2024-11-20T0000,4028A,117.9956,37.3753,滨州市,滨州市西街道办事处,细颗粒物(PM2.5),67,66,55,48,33,13,,58,30,47,39,5,8,0.7,0.7
2024-11-20T0000,2311A,115.8072,33.8399,亳州市,污水处理厂,,41,41,33,16,9,18,,48,30,23,16,5,6,0.5,0.5
2024-11-20T0000,2312A,115.7789,33.8518,亳州市,三国揽胜宫,,49,49,36,18,12,14,,48,31,38,25,5,5,0.4,0.4
2024-11-20T0000,3332A,115.7633,33.8034,亳州市,亳州学院,,45,45,37,12,9,18,,49,32,34,20,3,3,0.5,0.5
2024-11-20T0000,2693A,82.0485,44.8556,博尔塔拉蒙古自治州,市党校,颗粒物(PM10),79,108,73,56,44,13,,39,29,20,19,4,8,0.4,0.5
2024-11-20T0000,2694A,82.0806,44.8969,博尔塔拉蒙古自治州,市环保局,颗粒物(PM10),89,127,102,55,38,25,,50,37,33,21,3,5,0.7,0.7
2024-11-20T0000,1071A,116.8842,38.2991,沧州市,沧县城建局,颗粒物(PM10),66,82,62,45,33,15,,57,33,51,35,3,5,0.5,0.5
2024-11-20T0000,1072A,116.8584,38.3254,沧州市,电视转播站,颗粒物(PM10),62,73,57,34,28,42,,65,49,29,34,2,4,0.5,0.5
2024-11-20T0000,1073A,116.8709,38.3228,沧州市,市环保局,细颗粒物(PM2.5),58,63,56,41,34,40,,55,36,17,24,2,5,0.3,0.3
2024-11-20T0000,3324A,116.8136,38.3004,沧州市,河北水利电力学院,颗粒物(PM10),62,73,63,42,35,8,,58,25,54,31,3,6,0.4,0.4
2024-11-20T0000,2622A,97.1806,31.1273,昌都市,昌都监测站,,,,18,,10,,,67,65,,18,,7,,0.7
2024-11-20T0000,3719A,97.1714,31.1406,昌都市,昌都会议中心,,22,12,14,3,11,70,,78,77,5,8,5,5,0.5,0.6
2024-11-20T0000,2690A,88.1236,43.8886,昌吉回族自治州,天山天池,,,,2,0,1,68,,75,66,2,1,7,4,0.3,0.5
2024-11-20T0000,2692A,87.2717,44.0297,昌吉回族自治州,新区政务中心,细颗粒物(PM2.5),94,134,103,70,54,2,,34,15,64,43,8,10,1.4,1.2
2024-11-20T0000,3613A,87.3095,44.0142,昌吉回族自治州,亚心广场,细颗粒物(PM2.5),104,136,96,78,57,6,,40,22,65,46,9,11,1.3,1.2
2024-11-20T0000,1119A,125.3325,43.9166,长春市,食品厂,细颗粒物(PM2.5),59,53,65,42,49,10,,37,11,38,30,10,9,0.9,0.6
2024-11-20T0000,1120A,125.2863,43.9027,长春市,客车厂,细颗粒物(PM2.5),64,53,61,46,49,10,,40,12,40,35,11,17,0.9,1
2024-11-20T0000,1121A,125.2841,43.8463,长春市,邮电学院,细颗粒物(PM2.5),73,73,65,53,51,5,,48,12,54,30,19,13,1.3,0.6
2024-11-20T0000,1122A,125.3716,43.8772,长春市,劳动公园,细颗粒物(PM2.5),65,64,64,47,46,8,,52,17,54,33,18,13,1.2,0.8
2024-11-20T0000,1123A,125.3297,43.8805,长春市,园林处,细颗粒物(PM2.5),58,59,63,41,50,6,,44,10,47,29,12,11,1.4,0.7
2024-11-20T0000,1124A,125.4605,43.79,长春市,净月潭,细颗粒物(PM2.5),62,62,62,44,48,5,,56,20,41,19,6,7,0.7,0.5
2024-11-20T0000,1125A,125.7194,43.515,长春市,甩湾子,,,,,,,,,,,,,,,,
2024-11-20T0000,1126A,125.3863,43.8447,长春市,经开区环卫处,细颗粒物(PM2.5),59,64,63,42,41,4,,46,11,49,31,12,11,1.2,0.6
2024-11-20T0000,1127A,125.245,43.7783,长春市,高新区管委会,细颗粒物(PM2.5),64,64,55,46,39,9,,49,13,50,28,12,9,0.9,0.5
2024-11-20T0000,1128A,125.1761,43.8325,长春市,岱山公园,细颗粒物(PM2.5),69,65,58,50,42,5,,38,10,40,28,9,8,2.0,0.9
2024-11-20T0000,1335A,113.0833,28.2325,长沙市,经开区环保局,,39,32,35,27,22,13,,23,13,25,23,1,1,0.3,0.3
2024-11-20T0000,1336A,112.8872,28.2189,长沙市,高开区环保局,,32,28,31,22,26,26,,30,28,11,12,4,4,0.4,0.4
2024-11-20T0000,1337A,113.0792,28.2053,长沙市,马坡岭,,42,,31,29,22,16,,22,15,20,22,2,3,0.5,0.5
2024-11-20T0000,1338A,112.9394,28.19,长沙市,湖南师范大学,,43,43,34,23,19,26,,28,26,16,18,6,5,0.7,0.7
2024-11-20T0000,1339A,113.0178,28.1322,长沙市,雨花区环保局,细颗粒物(PM2.5),53,39,30,37,29,20,,24,21,17,18,4,4,0.4,0.4
2024-11-20T0000,1340A,112.9792,28.2597,长沙市,伍家岭,,33,30,33,23,23,21,,24,20,16,19,2,2,0.6,0.6
2024-11-20T0000,1341A,113.0014,28.1944,长沙市,火车新站,,39,38,31,27,24,22,,25,22,15,17,1,1,0.6,0.6
2024-11-20T0000,1342A,112.9844,28.1178,长沙市,天心区环保局,,34,34,33,23,19,16,,18,17,17,18,2,2,0.2,0.2
2024-11-20T0000,1343A,112.8908,28.1308,长沙市,湖南中医药大学,,45,45,36,28,22,26,,30,23,13,17,6,6,0.7,0.7
2024-11-20T0000,1344A,112.9581,28.3611,长沙市,沙坪,,27,27,23,15,18,24,,26,24,12,14,5,6,0.2,0.3
2024-11-20T0000,1727A,113.1147,36.1547,长治市,清华站,,42,32,33,29,21,30,,51,38,26,22,8,10,0.9,0.7
2024-11-20T0000,1728A,113.1031,36.1989,长治市,监测站,,49,34,40,34,25,28,,45,37,19,17,11,12,0.7,0.6
2024-11-20T0000,1730A,113.0886,36.2125,长治市,审计局,细颗粒物(PM2.5),52,,31,36,27,27,,46,38,12,10,6,7,0.6,0.4
2024-11-20T0000,1731A,113.0844,36.1856,长治市,长治八中,,50,43,35,35,27,27,,48,40,23,19,7,8,0.8,0.7
2024-11-20T0000,2845A,113.1569,36.1911,长治市,德盛苑,,49,41,35,34,24,31,,51,44,20,16,4,4,0.7,0.5
2024-11-20T0000,3568A,113.06,36.0464,长治市,向阳小学,颗粒物(PM10),57,64,47,29,29,27,,51,43,27,19,6,7,0.6,0.4
2024-11-20T0000,3569A,112.8792,36.3144,长治市,屯留一中,细颗粒物(PM2.5),57,,32,40,23,13,,56,33,38,18,7,6,0.9,0.7
2024-11-20T0000,3570A,113.235,36.3489,长治市,潞城四中,"颗粒物(PM10),细颗粒物(PM2.5)",63,76,54,45,37,10,,50,20,38,26,28,10,1.0,0.8
2024-11-20T0000,1854A,111.6975,28.9703,常德市,市二中,,26,26,28,17,16,45,,43,39,9,11,3,3,0.5,0.5
2024-11-20T0000,1857A,111.7158,29.1456,常德市,白鹤山,,,,,,,,,,,,,,,,
2024-11-20T0000,3138A,111.7153,29.0289,常德市,武陵区永安,,25,20,24,17,18,42,,41,37,8,15,4,4,0.3,0.4
2024-11-20T0000,3139A,111.6892,28.9881,常德市,鼎城区玉霞,,25,25,29,16,16,44,,43,38,18,20,5,5,0.6,0.6
2024-11-20T0000,3140A,111.6625,29.0531,常德市,武陵区长庚,,27,27,30,16,15,39,,40,36,19,20,2,2,0.5,0.5
2024-11-20T0000,1196A,119.9633,31.762,常州市,市监测站,,34,34,30,20,14,29,,60,41,36,21,8,9,0.2,0.2
2024-11-20T0000,1200A,119.9468,31.7069,常州市,武进监测站,,29,29,27,11,11,25,,53,37,47,29,10,8,0.4,0.4
2024-11-20T0000,1201A,119.9255,31.9087,常州市,安家,,30,30,27,11,11,41,,62,47,27,20,8,7,0.4,0.4
2024-11-20T0000,3002A,119.9805,31.8174,常州市,行政中心,,27,27,27,13,12,43,,57,44,25,23,1,2,0.2,0.2
2024-11-20T0000,3003A,120.0522,31.7748,常州市,经开区,,35,35,31,12,8,8,,59,29,58,31,8,8,0.4,0.4
2024-11-20T0000,3010A,119.9025,31.7964,常州市,钟楼,,30,30,29,15,11,44,,61,48,27,22,7,7,0.4,0.4
2024-11-20T0000,3429A,119.8598,31.7066,常州市,武进经发区,,36,36,34,15,13,25,,53,30,40,27,6,6,0.5,0.5
2024-11-20T0000,3430A,119.5826,31.7245,常州市,金坛城区,,49,49,36,20,13,31,,62,43,26,16,7,7,0.3,0.3
2024-11-20T0000,2220A,120.4318,41.5881,朝阳市,西梁,细颗粒物(PM2.5),83,96,66,61,43,6,,40,13,35,23,8,9,1.3,1.2
2024-11-20T0000,2221A,120.4521,41.5646,朝阳市,河畔小区,细颗粒物(PM2.5),67,56,57,48,35,21,,39,15,30,28,11,12,1.0,1
2024-11-20T0000,2222A,120.4176,41.5648,朝阳市,八里堡,细颗粒物(PM2.5),72,56,57,52,33,5,,42,9,44,33,11,14,1.3,1.3
2024-11-20T0000,2223A,120.3806,41.5969,朝阳市,农业园区,细颗粒物(PM2.5),73,,48,53,42,22,,46,25,34,27,13,9,1.2,1
2024-11-20T0000,1705A,116.6367,23.6719,潮州市,西园路,,12,,12,8,8,25,,50,32,12,10,4,4,0.5,0.5
2024-11-20T0000,3026A,116.6183,23.6608,潮州市,市政府,,10,8,12,3,8,32,,55,35,11,10,7,6,0.6,0.5
2024-11-20T0000,4036A,116.6461,23.6761,潮州市,金山,,12,,12,8,7,30,,53,33,5,7,4,5,0.5,0.5
2024-11-20T0000,2472A,113.0073,25.9061,郴州市,马头岭,,23,23,14,10,7,25,,29,25,17,15,7,7,0.5,0.6
2024-11-20T0000,2473A,113.0116,25.8226,郴州市,市职中,,20,,9,14,8,18,,24,19,15,14,5,5,0.5,0.5
2024-11-20T0000,2474A,113.0161,25.8001,郴州市,兴隆步行街,,18,,12,12,9,14,,19,15,14,15,5,4,0.4,0.5
2024-11-20T0000,2475A,113.0383,25.8071,郴州市,市审计局,,18,15,10,12,7,15,,21,16,17,14,4,3,0.5,0.6
2024-11-20T0000,2476A,113.0348,25.7759,郴州市,市环保局,,20,14,11,14,8,17,,21,18,13,13,6,6,0.7,0.7
2024-11-20T0000,1431A,103.9728,30.7236,成都市,金泉两河,,25,25,15,3,4,11,,33,20,29,20,2,2,0.5,0.4
2024-11-20T0000,1432A,104.176,30.6872,成都市,十里店,,16,,9,11,5,24,,34,28,24,18,2,2,0.4,0.4
2024-11-20T0000,1433A,104.079,30.5706,成都市,三瓦窑,,12,12,15,3,5,24,,32,29,24,16,2,2,0.3,0.3
2024-11-20T0000,1434A,104.1114,30.63,成都市,沙河铺,,23,23,20,3,4,31,,34,31,24,21,3,3,0.4,0.4
2024-11-20T0000,1437A,104.0786,30.6531,成都市,君平街,,16,16,13,3,6,20,,37,29,32,22,4,3,0.5,0.3
2024-11-20T0000,1438A,103.613,31.0283,成都市,灵岩寺,,,,,,,,,,,,,,,,
2024-11-20T0000,2880A,104.0239,30.65639,成都市,大石西路,,,12,15,3,5,,,36,31,,17,,4,,0.4
2024-11-20T0000,3136A,104.2725,30.5589,成都市,龙泉驿区区政府,,14,14,10,3,4,21,,34,32,16,17,2,3,0.5,0.5
2024-11-20T0000,3357A,104.0106,30.6931,成都市,金博路,,19,19,10,3,3,7,,34,24,32,19,2,2,0.4,0.3
2024-11-20T0000,3359A,104.0578,30.5225,成都市,华阳,,10,9,13,3,4,25,,30,25,19,13,1,1,0.4,0.5
2024-11-20T0000,3487A,104.2394,30.5319,成都市,车城东七路,,21,21,16,12,8,26,,32,29,22,20,4,4,0.5,0.4
2024-11-20T0000,3488A,104.3853,30.7453,成都市,青白江技师分院,,15,12,9,3,3,5,,41,27,30,14,4,4,0.5,0.5
2024-11-20T0000,3489A,104.0789,30.4072,成都市,科学城,,17,17,12,9,7,24,,31,26,22,18,3,4,0.4,0.4
2024-11-20T0000,4011A,103.8506,30.6947,成都市,光华大道三段,,20,20,12,3,4,11,,36,22,33,22,1,1,0.4,0.4
2024-11-20T0000,1062A,117.9531,40.9081,承德市,铁路,细颗粒物(PM2.5),69,77,72,50,39,1,,19,3,36,38,4,7,1.2,0.9
2024-11-20T0000,1063A,117.9392,40.9763,承德市,中国银行,细颗粒物(PM2.5),75,96,71,55,42,2,,25,4,35,36,2,7,1.1,1
2024-11-20T0000,1064A,117.9503,40.928,承德市,开发区,颗粒物(PM10),70,89,72,49,36,4,,23,6,31,32,4,7,1.1,0.9
2024-11-20T0000,1065A,117.8051,40.9655,承德市,文化中心,颗粒物(PM10),74,98,81,51,39,3,,28,6,40,35,3,16,0.9,1
2024-11-20T0000,1066A,117.9268,41.0026,承德市,离宫,细颗粒物(PM2.5),108,93,64,81,46,1,,24,4,41,32,6,8,0.7,0.8
2024-11-20T0000,2314A,117.47,30.6618,池州市,池州学院,,41,41,40,18,16,18,,39,29,39,23,8,7,0.5,0.4
2024-11-20T0000,3237A,117.4918,30.6617,池州市,展览馆,,46,46,40,19,17,20,,41,31,41,25,8,6,0.6,0.5
2024-11-20T0000,3333A,117.5627,30.695,池州市,第八中学,,47,47,39,22,18,15,,40,28,41,23,7,5,0.6,0.4
2024-11-20T0000,3334A,117.5038,30.6243,池州市,第十二中学,,43,43,39,20,16,17,,41,33,37,21,4,4,0.7,0.6
2024-11-20T0000,1744A,118.9233,42.2816,赤峰市,松山一中,颗粒物(PM10),55,60,57,22,25,6,,44,12,51,34,11,13,1.2,0.9
2024-11-20T0000,1745A,118.9576,42.2728,赤峰市,哈达街,颗粒物(PM10),53,55,50,35,26,11,,44,20,38,26,8,7,0.9,0.7
2024-11-20T0000,1746A,118.8788,42.2554,赤峰市,天义路,,33,33,41,21,21,40,,42,26,24,30,6,7,0.4,0.5
2024-11-20T0000,3058A,119.2658,42.0353,赤峰市,银河街,细颗粒物(PM2.5),99,135,96,74,46,9,,40,18,43,37,22,25,1.8,1.2
2024-11-20T0000,3286A,118.9359,42.3147,赤峰市,桥北物流园区,,43,43,54,25,28,20,,42,11,44,34,11,12,0.8,1
2024-11-20T0000,2521A,107.3476,22.4136,崇左市,市环保局江州分局,,44,44,47,19,21,70,,104,94,18,16,6,6,0.6,0.7
2024-11-20T0000,2522A,107.3702,22.3707,崇左市,城南新区,,31,31,32,18,21,82,,109,100,10,12,10,7,0.7,0.7
2024-11-20T0000,2298A,118.3093,32.3153,滁州市,老年大学,,32,32,27,12,10,22,,57,44,35,20,1,2,0.2,0.3
2024-11-20T0000,2299A,118.3244,32.2786,滁州市,人大宾馆,,31,31,30,18,11,41,,53,43,28,25,7,6,0.4,0.3
2024-11-20T0000,3207A,118.3118,32.3038,滁州市,市政府原办公楼,,27,27,26,16,13,39,,53,43,28,23,5,4,0.3,0.3
2024-11-20T0000,3331A,118.3267,32.2634,滁州市,图书馆,,30,30,28,14,9,39,,58,46,27,17,5,4,0.3,0.2
2024-11-20T0000,2605A,101.5482,25.0441,楚雄彝族自治州,州环境监测站,,41,,21,26,18,16,,70,59,37,14,121,14,0.6,0.5
2024-11-20T0000,2606A,101.538,25.0492,楚雄彝族自治州,市经济开发区,,36,,26,25,19,24,,68,57,30,14,18,9,0.6,0.6
2024-11-20T0000,2548A,107.5277,31.2827,达州市,达州职业技术学院,,13,10,14,9,9,17,,24,10,14,18,8,10,0.6,0.6
2024-11-20T0000,2549A,107.5086,31.2186,达州市,市环境监测站,,19,19,20,3,3,10,,24,7,23,22,9,13,0.5,0.5
2024-11-20T0000,2550A,107.4988,31.2132,达州市,凤凰小区,,11,9,11,7,6,12,,29,9,22,19,11,15,0.4,0.4
2024-11-20T0000,2551A,107.5082,31.1986,达州市,达县机关宾馆,,14,9,14,3,9,5,,16,5,28,28,7,13,0.4,0.5
2024-11-20T0000,2552A,107.4644,31.2124,达州市,市政中心,,25,25,18,7,3,6,,26,8,29,23,11,15,0.5,0.4
2024-11-20T0000,2614A,100.1542,25.7054,大理白族自治州,大理市环境监测站,,26,26,21,13,16,58,,74,65,11,7,6,6,0.4,0.4
2024-11-20T0000,2615A,100.2171,25.5811,大理白族自治州,大理古城,,26,25,22,18,10,54,,82,59,10,13,6,6,0.4,0.4
2024-11-20T0000,1109A,121.612,38.9741,大连市,甘井子,细颗粒物(PM2.5),54,51,39,38,30,50,,49,40,29,41,8,9,0.9,0.7
2024-11-20T0000,1110A,121.565,38.9511,大连市,周水子,,46,46,40,32,29,44,,40,32,28,44,16,14,0.7,0.6
2024-11-20T0000,1111A,121.5637,38.8845,大连市,星海三站,细颗粒物(PM2.5),52,51,39,36,27,59,,50,42,10,26,11,13,0.6,0.7
2024-11-20T0000,1112A,121.6302,38.9117,大连市,青泥洼桥,颗粒物(PM10),53,56,40,34,22,49,,47,40,16,24,12,14,0.5,0.5
2024-11-20T0000,1113A,121.6251,38.8638,大连市,傅家庄,,48,48,34,28,20,54,,63,60,20,19,13,13,0.7,0.7
2024-11-20T0000,1114A,121.5213,38.8661,大连市,七贤岭,颗粒物(PM10),52,53,37,32,23,57,,54,38,18,26,8,8,0.7,0.8
2024-11-20T0000,1115A,121.2529,38.8061,大连市,旅顺,,44,44,39,25,23,67,,64,63,13,18,11,11,0.6,0.6
2024-11-20T0000,1116A,121.7485,39.1311,大连市,金州,,50,49,39,35,30,46,,42,40,21,21,6,6,0.7,0.6
2024-11-20T0000,1117A,121.7811,39.0496,大连市,开发区,颗粒物(PM10),54,57,45,37,30,38,,41,39,35,43,10,13,0.7,0.9
2024-11-20T0000,1118A,121.9762,39.0631,大连市,双D港,细颗粒物(PM2.5),53,50,29,37,19,47,,60,52,27,20,9,8,0.8,0.6
2024-11-20T0000,1789A,124.81117,46.03138,大庆市,大同区,细颗粒物(PM2.5),108,92,101,81,76,10,,47,17,39,23,8,6,0.6,0.6
2024-11-20T0000,1790A,125.129,46.533,大庆市,龙凤区,细颗粒物(PM2.5),83,87,83,61,53,10,,44,18,47,24,8,8,0.9,0.6
2024-11-20T0000,1791A,124.902,46.408,大庆市,红岗区,细颗粒物(PM2.5),68,64,61,49,40,26,,46,33,22,17,6,7,0.6,0.5
2024-11-20T0000,1792A,125.153,46.586,大庆市,萨尔图区,细颗粒物(PM2.5),82,97,84,60,53,17,,43,19,42,29,12,9,0.7,0.6
2024-11-20T0000,1793A,124.9042,46.6215,大庆市,让胡路区,细颗粒物(PM2.5),67,64,49,48,38,15,,42,17,30,21,5,7,0.7,0.6
2024-11-20T0000,3481A,125.141,46.634,大庆市,萨区政府监测点,细颗粒物(PM2.5),55,57,55,39,40,9,,39,15,44,27,10,9,0.9,0.6
2024-11-20T0000,1721A,113.3819,40.1097,大同市,果树场,细颗粒物(PM2.5),64,62,68,46,43,4,,28,13,36,46,7,11,0.9,1
2024-11-20T0000,1723A,113.2994,40.0758,大同市,云冈宾馆,,50,50,79,32,40,17,,36,22,41,36,11,15,0.7,0.8
2024-11-20T0000,1724A,113.3444,40.0917,大同市,大同大学,细颗粒物(PM2.5),59,64,72,42,35,4,,29,16,44,38,13,16,0.9,0.8
2024-11-20T0000,1725A,113.2661,40.1269,大同市,安家小村,颗粒物(PM10),58,65,70,32,34,11,,46,27,41,30,19,19,1.3,0.8
2024-11-20T0000,1726A,113.2711,40.0844,大同市,教育学院,,49,48,73,34,32,14,,33,18,42,37,11,14,0.7,0.8
2024-11-20T0000,3282A,113.3397,40.0597,大同市,大同市卫生学校,颗粒物(PM10),70,89,93,44,40,3,,31,12,52,44,13,15,0.8,0.5
2024-11-20T0000,3565A,113.1367,40.1122,大同市,云冈站,,50,50,60,29,34,6,,46,18,48,32,12,14,0.7,0.6
2024-11-20T0000,3566A,113.1186,40.2556,大同市,图书馆,细颗粒物(PM2.5),60,58,58,43,41,11,,43,24,25,21,12,11,1.0,0.8
2024-11-20T0000,3567A,113.5931,40.0461,大同市,区一中,颗粒物(PM10),67,84,85,32,25,2,,28,11,55,45,34,34,1.0,1
2024-11-20T0000,3676A,113.2802,40.0995,大同市,第二人民医院,"颗粒物(PM10),细颗粒物(PM2.5)",59,67,77,42,35,12,,43,25,50,35,15,17,0.9,0.8
2024-11-20T0000,2269A,124.1069,50.4097,大兴安岭地区,科技局,,30,26,21,21,15,16,,50,32,27,12,5,5,0.5,0.4
2024-11-20T0000,3663A,124.1164,50.4278,大兴安岭地区,红旗社区,,39,39,33,24,18,5,,41,25,33,23,5,6,0.8,0.6
2024-11-20T0000,1600A,124.3303,40.0625,丹东市,江湾东路,颗粒物(PM10),62,74,43,41,27,36,,48,35,19,18,20,16,1.5,0.9
2024-11-20T0000,1601A,124.4256,40.1503,丹东市,临江后街,细颗粒物(PM2.5),60,58,53,43,29,36,,51,30,18,22,9,11,0.8,0.8
2024-11-20T0000,1602A,124.3933,40.1461,丹东市,元宝山,颗粒物(PM10),53,55,43,31,22,37,,45,30,18,25,8,9,0.7,1
2024-11-20T0000,1603A,124.3633,40.1092,丹东市,民主桥,颗粒物(PM10),63,76,39,43,21,33,,50,39,24,21,11,12,1.2,0.9
2024-11-20T0000,3541A,109.5726,19.5167,儋州市,第一中学子站,,19,8,25,3,14,59,,87,57,4,7,5,6,0.4,0.6
2024-11-20T0000,3542A,109.5567,19.5187,儋州市,东坡学校子站,,20,6,28,3,14,64,,95,61,4,8,4,5,0.4,0.6
2024-11-20T0000,2616A,98.5842,24.428,德宏傣族景颇族自治州,德宏州监测站,,35,35,40,23,24,28,,64,,17,28,6,18,0.8,0.8
2024-11-20T0000,3677A,98.5881,24.4368,德宏傣族景颇族自治州,芒市人民政府综合楼,,46,39,38,32,25,26,,59,44,14,18,6,11,0.7,0.7
2024-11-20T0000,1901A,104.4239,31.1208,德阳市,东山公园,,33,33,18,20,6,3,,44,31,39,13,1,1,0.5,0.4
2024-11-20T0000,1902A,104.3826,31.1317,德阳市,西小区,,36,34,16,25,8,4,,40,27,36,16,2,1,0.4,0.4
2024-11-20T0000,1904A,104.3553,31.1091,德阳市,耐火材料厂,,38,35,15,26,8,2,,37,22,34,18,4,3,0.5,0.5
2024-11-20T0000,3639A,104.4019,31.1244,德阳市,市教育局,,29,24,14,20,8,4,,41,30,43,18,2,2,0.7,0.5
2024-11-20T0000,1622A,116.3032,37.4674,德州市,儿童乐园,细颗粒物(PM2.5),64,75,68,46,35,34,,71,54,34,36,10,13,0.5,0.6
2024-11-20T0000,1624A,116.2991,37.4451,德州市,监理站,颗粒物(PM10),59,68,61,41,34,38,,73,54,31,38,11,11,0.5,0.6
2024-11-20T0000,3066A,116.2721,37.4379,德州市,九衢泉纯净水厂,颗粒物(PM10),60,70,67,36,33,31,,67,47,33,39,11,12,0.6,0.6
2024-11-20T0000,3371A,116.3728,37.4403,德州市,开发区人民医院,细颗粒物(PM2.5),70,83,69,51,36,24,,72,53,40,31,8,11,0.5,0.6
2024-11-20T0000,3372A,116.3572,37.4094,德州市,太阳城中学,细颗粒物(PM2.5),73,88,74,53,41,22,,71,42,50,43,6,9,0.6,0.6
2024-11-20T0000,3511A,116.5652,37.3319,德州市,陵城艺术中心,"颗粒物(PM10),细颗粒物(PM2.5)",67,83,69,48,36,23,,65,46,41,42,11,14,0.5,0.6
2024-11-20T0000,2621A,99.7056,27.8317,迪庆藏族自治州,迪庆州站,,39,39,25,16,13,58,,96,79,21,14,6,4,0.5,0.4
2024-11-20T0000,3180A,99.7136,27.8094,迪庆藏族自治州,质量技术监督局,,42,,27,29,17,63,,97,80,17,15,7,7,0.6,0.6
2024-11-20T0000,2663A,104.6241,35.5734,定西市,东关小学,颗粒物(PM10),64,77,53,38,32,15,,62,43,32,19,6,5,0.7,0.6
2024-11-20T0000,2664A,104.6194,35.5934,定西市,供电公司,,50,50,47,34,32,20,,56,43,35,21,7,7,0.4,0.4
2024-11-20T0000,1389A,113.7547,23.0494,东莞市,莞城梨川,,13,13,13,9,8,25,,34,24,15,15,7,7,0.6,0.6
2024-11-20T0000,1390A,113.7944,23.0128,东莞市,东城石井,,14,14,15,8,8,26,,33,26,14,17,8,9,0.7,0.7
2024-11-20T0000,1391A,113.7383,22.9658,东莞市,南城西平,,16,16,14,11,9,14,,30,18,27,22,8,9,0.5,0.5
2024-11-20T0000,3319A,113.7338,23.0381,东莞市,万江金泰,,12,12,13,7,7,25,,32,24,10,12,6,6,0.5,0.6
2024-11-20T0000,3626A,113.7533,23.0202,东莞市,南城元岭,,11,11,12,7,7,25,,33,25,8,10,7,7,0.6,0.7
2024-11-20T0000,3627A,113.7875,23.0457,东莞市,东城主山,,12,11,12,8,8,17,,31,20,20,18,6,7,0.6,0.6
2024-11-20T0000,1666A,118.6614,37.4309,东营市,市环保局,颗粒物(PM10),65,80,53,41,26,6,,61,18,79,50,11,11,0.5,0.4
2024-11-20T0000,3036A,118.6904,37.4338,东营市,开发区管委会,颗粒物(PM10),65,80,57,44,28,8,,56,18,73,41,8,9,0.4,0.3
2024-11-20T0000,3365A,118.5719,37.565,东营市,垦利区民丰路,颗粒物(PM10),63,75,54,44,25,8,,48,13,58,40,8,8,0.6,0.5
2024-11-20T0000,3498A,118.5055,37.8612,东营市,河口城区,颗粒物(PM10),63,75,52,44,26,12,,57,36,54,28,3,5,0.5,0.5
2024-11-20T0000,3646A,118.4978,37.4623,东营市,胜利站,"颗粒物(PM10),细颗粒物(PM2.5)",67,84,57,48,28,16,,48,17,56,45,16,9,0.6,0.6
2024-11-20T0000,3734A,118.35,37.26,东营市,理想之城,细颗粒物(PM2.5),79,95,60,58,30,6,,54,14,68,46,7,8,0.6,0.5
2024-11-20T0000,1591A,110.0023,39.8129,鄂尔多斯市,综合楼,,46,46,40,31,25,43,,66,48,35,24,6,6,0.6,0.5
2024-11-20T0000,1592A,109.9486,39.8261,鄂尔多斯市,巴音孟克林场办事处,细颗粒物(PM2.5),62,51,38,44,26,49,,60,49,22,21,14,8,0.6,0.5
2024-11-20T0000,1593A,109.7736,39.5986,鄂尔多斯市,康泽苑,,45,39,36,31,26,52,,65,47,17,20,9,9,0.5,0.5
2024-11-20T0000,1594A,109.8119,39.5989,鄂尔多斯市,华泰汽车城,,44,44,37,29,27,38,,61,45,29,17,9,6,0.5,0.5
2024-11-20T0000,1595A,109.9734,39.7884,鄂尔多斯市,奥林花园,颗粒物(PM10),56,61,45,31,25,7,,58,22,58,27,6,6,0.5,0.5
2024-11-20T0000,2436A,114.8938,30.3994,鄂州市,市政府,,26,20,33,18,16,20,,31,18,23,25,5,5,0.6,0.6
2024-11-20T0000,2437A,114.8989,30.3714,鄂州市,赵家坝,,34,34,29,19,17,25,,37,22,17,20,3,4,0.4,0.4
2024-11-20T0000,3654A,114.8094,30.4089,鄂州市,精准医疗中心,,35,26,29,24,15,25,,31,25,18,19,8,8,0.4,0.5
2024-11-20T0000,2454A,109.4978,30.2981,恩施土家族苗族自治州,湖北民院,,27,27,18,18,8,5,,32,9,24,12,6,6,0.5,0.1
2024-11-20T0000,2455A,109.4707,30.2798,恩施土家族苗族自治州,州电力总公司,,19,19,13,13,7,15,,36,14,18,16,7,7,0.5,0.5
2024-11-20T0000,3549A,109.5061,30.3772,恩施土家族苗族自治州,龙凤新区,,19,19,9,12,6,6,,30,12,24,18,5,5,0.5,0.4
2024-11-20T0000,2499A,108.3411,21.6158,防城港市,沙万,,28,28,28,13,14,87,,96,92,14,14,6,6,0.4,0.4
2024-11-20T0000,2500A,108.3514,21.7731,防城港市,防城档案局,颗粒物(PM10),52,54,48,18,18,60,,87,80,34,20,6,6,0.6,0.6
2024-11-20T0000,2501A,108.3506,21.6414,防城港市,大海花园,,30,30,32,14,15,89,,99,96,16,13,5,5,0.5,0.6
2024-11-20T0000,1371A,113.1294,23.0067,佛山市,湾梁,,17,14,18,7,8,23,,42,30,33,24,6,7,0.6,0.7
2024-11-20T0000,1372A,113.1083,23.0478,佛山市,华材职中,,25,,20,17,12,16,,42,27,36,24,8,8,0.5,0.6
2024-11-20T0000,1373A,113.144,23.0453,佛山市,南海气象局,,17,15,17,10,9,14,,39,23,34,22,7,8,0.5,0.5
2024-11-20T0000,1374A,113.2881,22.8094,佛山市,顺德苏岗,,15,15,14,3,6,26,,34,18,17,20,7,7,0.6,0.6
2024-11-20T0000,1376A,112.8383,22.8678,佛山市,高明孔堂,,15,15,22,10,11,43,,41,39,14,20,5,7,0.4,0.5
2024-11-20T0000,1377A,112.8836,23.1588,佛山市,三水监测站,,18,,15,12,9,36,,48,42,18,18,5,8,0.5,0.6
2024-11-20T0000,1378A,112.867,23.185,佛山市,三水云东海,,23,18,17,16,11,33,,45,38,17,17,8,10,0.7,0.7
2024-11-20T0000,3625A,113.2544,22.7642,佛山市,容桂街道办,,10,7,7,7,7,30,,37,22,17,22,6,6,0.7,0.7
2024-11-20T0000,1280A,119.3903,26.0543,福州市,鼓山,,,,14,,5,,,60,,,9,,3,,0.4
2024-11-20T0000,1282A,119.2681,26.0504,福州市,师大,,19,16,19,6,5,58,,64,57,8,8,2,3,0.5,0.5
2024-11-20T0000,1283A,119.2984,26.1028,福州市,五四北路,,19,14,18,3,5,58,,60,54,8,9,3,2,0.5,0.4
2024-11-20T0000,1284A,119.2648,26.0768,福州市,杨桥西路,,18,15,17,3,4,56,,64,57,7,7,3,1,0.4,0.4
2024-11-20T0000,1285A,119.317,26.0746,福州市,紫阳,,18,14,19,6,6,56,,57,51,8,12,1,3,0.3,0.3
2024-11-20T0000,3048A,119.5799,26.0936,福州市,九龙,,15,13,16,3,5,45,,59,53,11,7,1,2,0.3,0.2
2024-11-20T0000,3526A,119.5189,25.9664,福州市,吴航,,18,17,16,10,8,56,,62,61,10,9,3,3,0.2,0.2
2024-11-20T0000,1755A,123.7977,41.8491,抚顺市,望花区,颗粒物(PM10),57,64,65,34,28,18,,34,32,42,34,32,13,0.8,0.8
2024-11-20T0000,1756A,123.9161,41.8822,抚顺市,顺城区,颗粒物(PM10),67,84,51,44,24,7,,21,20,44,38,8,7,0.9,0.5
2024-11-20T0000,1757A,124.0436,41.8611,抚顺市,东洲区,,44,44,32,23,17,44,,45,44,14,13,8,8,0.5,0.5
2024-11-20T0000,1758A,123.9247,41.8642,抚顺市,新抚区,颗粒物(PM10),62,73,58,40,28,6,,18,18,41,37,4,5,0.7,0.6
2024-11-20T0000,1759A,124.0972,41.8961,抚顺市,大伙房水库,,34,34,28,20,17,53,,54,54,6,9,9,8,0.5,0.4
2024-11-20T0000,1760A,123.7086,41.8391,抚顺市,沈抚新城,颗粒物(PM10),54,58,68,34,34,6,,31,24,50,35,8,13,1.2,1
2024-11-20T0000,2376A,116.2127,28.0814,抚州市,桐源党溪,,37,37,38,19,12,29,,62,34,9,5,6,5,0.7,0.6
2024-11-20T0000,2377A,116.3544,27.9831,抚州市,市站,,45,45,34,18,13,31,,66,45,19,14,1,3,1.1,1
2024-11-20T0000,2378A,116.3565,27.963,抚州市,血防站,,42,42,37,19,12,28,,64,44,17,11,9,13,0.9,0.8
2024-11-20T0000,2379A,116.3564,28.0007,抚州市,采茶剧团,,41,41,33,22,12,27,,63,40,15,9,5,5,0.7,0.6
2024-11-20T0000,2380A,116.385,27.9647,抚州市,医学分院,,48,48,35,18,11,26,,66,43,19,11,5,7,0.7,0.6
2024-11-20T0000,2207A,121.6094,41.998,阜新市,工业园区,细颗粒物(PM2.5),114,111,98,86,55,4,,44,11,31,33,11,30,1.2,1.1
2024-11-20T0000,2208A,121.6697,42.0279,阜新市,长青街,细颗粒物(PM2.5),160,151,74,122,51,6,,41,9,29,31,9,24,2.0,1
2024-11-20T0000,2209A,121.6673,42.0705,阜新市,农业园区,细颗粒物(PM2.5),92,105,67,68,40,11,,45,25,53,35,19,23,0.9,0.9
2024-11-20T0000,2210A,121.6717,42.0224,阜新市,东苑,细颗粒物(PM2.5),132,157,72,100,57,6,,37,12,44,39,23,31,2.6,0.9
2024-11-20T0000,2211A,121.6506,42.0498,阜新市,玉龙新城,细颗粒物(PM2.5),90,127,86,67,50,7,,45,15,35,37,10,21,0.9,0.8
2024-11-20T0000,2301A,115.8277,32.8929,阜阳市,市监测站,,46,36,34,32,21,10,,40,25,38,22,5,5,0.3,0.4
2024-11-20T0000,2303A,115.8554,32.8605,阜阳市,开发区,,49,49,48,25,19,12,,34,19,30,25,6,6,0.5,0.5
2024-11-20T0000,2875A,115.784,32.8892,阜阳市,阜阳职业技术学院,,36,36,32,21,21,13,,39,26,28,19,6,6,0.4,0.4
2024-11-20T0000,3468A,115.7901,32.8613,阜阳市,市规划展馆,,33,33,32,22,17,21,,41,31,30,22,6,6,0.5,0.4
2024-11-20T0000,3469A,115.836,32.9183,阜阳市,枣园社区,,39,39,34,26,19,6,,40,19,42,26,7,7,0.3,0.3
2024-11-20T0000,2669A,102.9099,34.9841,甘南藏族自治州,州政府,,35,35,31,16,14,23,,59,41,25,20,2,3,0.7,0.6
2024-11-20T0000,3380A,102.8914,34.9617,甘南藏族自治州,甘肃民族师范学院,,26,25,15,18,13,20,,62,37,31,27,4,5,0.4,0.5
2024-11-20T0000,2570A,101.9603,30.0475,甘孜藏族自治州,水桥子,,11,9,9,3,5,34,,48,41,9,13,7,7,0.3,0.3
2024-11-20T0000,3065A,101.9533,29.9972,甘孜藏族自治州,州环保局,,14,13,13,3,5,42,,52,45,10,14,3,4,0.3,0.3
2024-11-20T0000,3414A,115.8347,28.932,赣江新区,桑海产业园,颗粒物(PM10),54,58,45,25,20,24,,38,32,26,20,10,8,0.1,0.1
2024-11-20T0000,2362A,114.9017,25.9149,赣州市,通天岩,细颗粒物(PM2.5),59,46,27,42,21,36,,35,33,9,8,2,2,0.6,0.7
2024-11-20T0000,2363A,114.9367,25.8664,赣州市,地委,,44,44,29,30,20,41,,45,42,13,11,10,6,0.6,0.6
2024-11-20T0000,2364A,114.9461,25.8481,赣州市,气象台,,,,23,,20,,,36,33,18,17,,4,0.9,0.6
2024-11-20T0000,2365A,114.9322,25.8333,赣州市,市图书馆,,48,48,32,23,17,35,,38,34,16,15,5,4,0.5,0.4
2024-11-20T0000,2366A,114.8905,25.8471,赣州市,华坚鞋城,,47,47,30,16,14,35,,38,35,14,12,5,4,0.3,0.3
2024-11-20T0000,3109A,115.0093,25.8613,赣州市,赣县区卫计委,,44,44,27,23,16,35,,35,34,14,13,4,4,0.4,0.4
2024-11-20T0000,2683A,106.2319,36.1417,固原市,马园,颗粒物(PM10),61,72,42,42,27,6,,47,21,43,26,7,7,1.3,1
2024-11-20T0000,2684A,106.2792,36.0022,固原市,监测站,细颗粒物(PM2.5),77,57,28,56,26,15,,60,41,39,19,7,5,1.7,0.7
2024-11-20T0000,2685A,106.2375,36.0211,固原市,新区,颗粒物(PM10),55,59,30,34,20,5,,58,33,46,21,4,4,0.9,0.5
2024-11-20T0000,3522A,106.2177,35.9959,固原市,原州区十五小,,42,42,36,28,27,47,,62,45,19,21,5,4,1.2,1
2024-11-20T0000,2543A,106.6308,30.5278,广安市,小平旧居,,,,,,,,,,,,,,,,
2024-11-20T0000,2544A,106.6303,30.4576,广安市,市委,,12,12,14,3,8,26,,35,25,12,12,2,2,0.4,0.4
2024-11-20T0000,2545A,106.6271,30.4663,广安市,友谊中学,,15,12,10,10,9,25,,31,23,10,12,1,2,0.4,0.5
2024-11-20T0000,2547A,106.6388,30.4551,广安市,广电花园,,12,11,11,8,8,25,,33,21,10,13,6,7,0.4,0.5
2024-11-20T0000,2902A,106.6351,30.4865,广安市,北辰小学,,10,10,13,6,8,26,,33,25,8,9,2,2,0.5,0.6
2024-11-20T0000,2523A,105.8945,32.4535,广元市,黑石坡,,12,10,15,8,7,30,,43,38,4,4,5,5,0.3,0.3
2024-11-20T0000,2524A,105.821,32.4444,广元市,老城,,15,15,13,8,7,21,,53,30,28,13,1,2,0.4,0.4
2024-11-20T0000,2526A,105.8628,32.4287,广元市,监测站,,16,15,15,11,8,26,,54,40,27,13,3,3,0.6,0.5
2024-11-20T0000,3617A,105.8047,32.4166,广元市,经开区,,30,30,19,8,5,22,,53,33,26,13,4,4,0.4,0.4
2024-11-20T0000,1345A,113.2347,23.1423,广州市,广雅中学,,41,41,33,21,16,9,,34,18,42,27,6,6,0.6,0.6
2024-11-20T0000,1346A,113.2612,23.105,广州市,市五中,,18,17,20,12,14,31,,42,33,16,14,4,4,0.7,0.7
2024-11-20T0000,1348A,113.3478,23.0916,广州市,广东商学院,,16,14,16,11,10,26,,40,19,17,16,3,3,0.4,0.4
2024-11-20T0000,1349A,113.4332,23.1047,广州市,市八十六中,,23,23,37,13,16,8,,36,11,26,20,4,4,0.6,0.6
2024-11-20T0000,1350A,113.3505,22.9483,广州市,番禺中学,,15,12,16,10,8,24,,40,23,27,23,6,6,0.6,0.6
2024-11-20T0000,1351A,113.2146,23.3916,广州市,花都师范,,21,21,16,12,8,41,,50,42,14,15,4,7,0.8,0.8
2024-11-20T0000,1352A,113.2597,23.1331,广州市,市监测站,,14,14,18,9,10,23,,40,24,14,10,5,5,0.4,0.5
2024-11-20T0000,1353A,113.5618,23.312,广州市,九龙镇镇龙,,15,13,12,10,8,15,,36,23,17,13,5,5,0.6,0.6
2024-11-20T0000,1354A,113.2765,23.1544,广州市,麓湖,,17,16,17,11,11,8,,37,19,33,19,4,4,0.6,0.6
2024-11-20T0000,1355A,113.443,23.3035,广州市,帽峰山森林公园,,15,,8,10,6,30,,44,28,12,10,4,4,0.6,0.7
2024-11-20T0000,2846A,113.3221,23.1322,广州市,体育西,,16,16,18,10,10,24,,36,22,14,11,2,3,0.6,0.6
2024-11-20T0000,3298A,113.5717,23.5491,广州市,从化街口,,17,17,14,11,9,38,,41,40,9,9,8,8,0.6,0.6
2024-11-20T0000,3299A,113.3472,23.3692,广州市,白云竹料,,18,16,16,12,9,32,,49,39,18,14,6,6,0.6,0.6
2024-11-20T0000,3300A,113.2981,23.237,广州市,白云嘉禾,,20,20,22,10,10,16,,42,17,34,26,6,7,0.8,0.9
2024-11-20T0000,3301A,113.4256,23.1716,广州市,黄埔科学城,,16,15,16,11,10,27,,41,15,15,18,6,6,0.8,0.8
2024-11-20T0000,3302A,113.3942,23.0483,广州市,番禺大学城,,18,18,17,12,10,6,,37,15,32,22,7,7,0.8,0.9
2024-11-20T0000,3303A,113.4922,22.8168,广州市,南沙黄阁,,18,13,16,12,12,16,,29,24,34,27,10,8,0.8,0.8
2024-11-20T0000,3304A,113.5342,22.7896,广州市,南沙街,,18,18,16,12,10,17,,29,20,24,22,6,6,0.6,0.6
2024-11-20T0000,3443A,113.2902,23.5544,广州市,花都梯面,,19,19,14,13,10,40,,52,46,9,8,6,8,0.6,0.6
2024-11-20T0000,3445A,113.7858,23.7478,广州市,从化良口,,18,14,10,12,7,37,,39,38,7,7,5,5,0.6,0.6
2024-11-20T0000,3446A,113.8051,23.2614,广州市,增城荔城,,15,10,11,10,7,35,,36,36,7,11,6,6,0.6,0.6
2024-11-20T0000,2505A,109.568,23.1478,贵港市,德智高中,,,,,,,,,,,,,,,,
2024-11-20T0000,2506A,109.6047,23.0666,贵港市,江南子站,,29,29,27,14,12,62,,97,87,15,14,9,8,0.7,0.7
2024-11-20T0000,2507A,109.6014,23.0948,贵港市,贵城子站,,30,30,24,16,13,55,,92,81,15,12,9,8,0.8,0.7
2024-11-20T0000,2508A,109.5669,23.1065,贵港市,荷城子站,,27,27,28,14,5,62,,91,82,13,12,12,12,0.6,0.6
2024-11-20T0000,3405A,109.5886,23.1172,贵港市,新世纪学校,,29,29,28,10,10,56,,91,80,13,12,10,9,0.6,0.6
2024-11-20T0000,1439A,106.6899,26.5998,贵阳市,马鞍山,,6,6,6,3,2,14,,29,21,11,10,4,4,0.5,0.4
2024-11-20T0000,1440A,106.6971,26.5694,贵阳市,市环保站,,12,,9,8,10,17,,33,22,9,9,4,4,0.4,0.4
2024-11-20T0000,1441A,106.6243,26.6266,贵阳市,鉴湖路,,8,7,9,3,6,12,,26,16,12,8,4,4,0.4,0.4
2024-11-20T0000,1442A,106.7487,26.6343,贵阳市,燕子冲,,10,,4,7,9,18,,30,24,8,7,7,6,0.4,0.4
2024-11-20T0000,1443A,106.6555,26.4365,贵阳市,碧云窝,,7,7,17,3,6,15,,27,16,14,14,5,6,0.4,0.5
2024-11-20T0000,1444A,106.694,26.5161,贵阳市,中院村,,7,6,12,3,6,20,,32,21,11,10,4,4,0.5,0.5
2024-11-20T0000,1445A,106.7109,26.6027,贵阳市,红边门,,,7,11,3,8,16,,29,19,13,12,,15,0.4,0.4
2024-11-20T0000,1446A,106.7164,26.5699,贵阳市,新华路,,7,6,9,3,5,22,,34,26,9,9,4,4,0.4,0.4
2024-11-20T0000,1447A,106.674,26.5424,贵阳市,太慈桥,,6,6,8,3,4,16,,28,19,11,10,6,6,0.4,0.4
2024-11-20T0000,1552A,106.805,26.3003,贵阳市,桐木岭,,19,19,22,9,12,17,,26,17,5,4,8,7,0.7,0.7
2024-11-20T0000,1862A,110.4144,25.3167,桂林市,电子科大尧山校区,,16,16,19,10,9,47,,60,51,8,8,3,4,0.5,0.5
2024-11-20T0000,1863A,110.2819,25.2697,桂林市,监测站,,20,,14,14,13,42,,62,50,8,9,10,11,0.7,0.7
2024-11-20T0000,1864A,110.3089,25.2708,桂林市,龙隐路小学,,19,,12,13,13,44,,66,54,10,9,10,13,0.6,0.6
2024-11-20T0000,1865A,110.2869,25.2178,桂林市,八中,,18,16,14,12,10,38,,61,48,11,11,19,12,0.4,0.5
2024-11-20T0000,3403A,110.1764,25.2381,桂林市,创业大厦,,20,14,14,14,13,42,,64,50,8,9,8,8,0.4,0.4
2024-11-20T0000,3531A,110.296,25.1253,桂林市,旅游学院,,15,9,8,7,6,45,,68,55,8,8,8,8,0.7,0.7
2024-11-20T0000,2674A,100.2561,34.4714,果洛藏族自治州,玛沁县大武镇,,31,31,33,13,17,71,,89,78,1,2,12,14,0.4,0.5
2024-11-20T0000,1129A,126.5422,45.755,哈尔滨市,岭北,细颗粒物(PM2.5),117,120,106,88,83,29,,64,37,35,31,5,10,0.9,0.9
2024-11-20T0000,1130A,126.561,45.8167,哈尔滨市,松北商大,细颗粒物(PM2.5),159,146,108,121,84,19,,48,23,36,32,10,13,1.3,0.9
2024-11-20T0000,1131A,126.979,45.5419,哈尔滨市,阿城会宁,细颗粒物(PM2.5),163,134,97,124,77,6,,61,21,34,21,3,5,1.5,0.8
2024-11-20T0000,1132A,126.599,45.7222,哈尔滨市,南岗学府路,细颗粒物(PM2.5),155,190,126,118,85,12,,49,21,42,30,10,10,1.0,0.6
2024-11-20T0000,1133A,126.689,45.7733,哈尔滨市,太平宏伟公园,细颗粒物(PM2.5),127,150,118,96,78,7,,40,16,40,34,18,14,1.1,0.9
2024-11-20T0000,1134A,126.635,45.7667,哈尔滨市,道外承德广场,细颗粒物(PM2.5),138,168,122,105,88,10,,45,17,52,39,13,11,1.2,0.8
2024-11-20T0000,1135A,126.685,45.7319,哈尔滨市,香坊红旗大街,细颗粒物(PM2.5),150,168,131,115,93,13,,45,18,45,33,8,10,1.2,0.9
2024-11-20T0000,1136A,126.6411,45.7258,哈尔滨市,动力和平路,细颗粒物(PM2.5),150,163,131,115,96,5,,43,14,48,38,11,12,1.0,0.8
2024-11-20T0000,1137A,126.593,45.7478,哈尔滨市,道里建国路,细颗粒物(PM2.5),163,152,109,124,88,10,,47,15,48,33,15,14,0.9,0.6
2024-11-20T0000,1138A,126.615,45.61,哈尔滨市,平房东轻厂,细颗粒物(PM2.5),139,150,95,106,69,9,,57,24,48,21,12,10,1.2,0.7
2024-11-20T0000,1139A,126.595,45.9855,哈尔滨市,呼兰师专,细颗粒物(PM2.5),192,175,112,144,88,16,,43,21,49,39,9,15,1.0,0.5
2024-11-20T0000,1140A,126.6206,45.6842,哈尔滨市,省农科院,细颗粒物(PM2.5),162,178,124,123,85,10,,42,14,49,38,11,12,1.3,0.8
2024-11-20T0000,2688A,93.5128,42.8172,哈密市,地区监测站,颗粒物(PM10),88,125,103,50,38,8,,52,28,69,43,4,9,1.1,0.8
2024-11-20T0000,2689A,93.4961,42.8328,哈密市,哈密师范学校,颗粒物(PM10),81,112,103,56,47,4,,50,10,69,51,4,8,1.4,1.3
2024-11-20T0000,2671A,100.9048,36.9639,海北藏族自治州,海晏县西海镇,细颗粒物(PM2.5),72,,43,52,32,46,,78,56,21,15,7,14,0.8,0.6
2024-11-20T0000,3867A,102.0738,36.5056,海东市,平安区公安北苑,细颗粒物(PM2.5),70,64,69,51,51,35,,50,36,31,29,29,25,0.8,0.7
2024-11-20T0000,1409A,110.576,19.9507,海口市,东寨港,,,,,,,,,,,,,,,,
2024-11-20T0000,1410A,110.3232,20.0574,海口市,海南大学,,21,13,25,3,12,65,,76,67,8,12,4,5,0.4,0.5
2024-11-20T0000,1411A,110.283,20.0053,海口市,秀英海南医院,,21,9,25,7,12,66,,80,66,9,12,6,6,0.3,0.4
2024-11-20T0000,1412A,110.338,19.9969,海口市,海南师范大学,,21,8,25,3,12,66,,78,68,4,7,5,6,0.5,0.5
2024-11-20T0000,1413A,110.33,20.0356,海口市,龙华路环保局宿舍,,,18,27,6,12,56,,78,65,6,10,4,5,,0.4
2024-11-20T0000,3539A,110.5111,19.9736,海口市,桂林洋子站,,19,9,24,3,12,58,,77,64,5,7,6,7,0.4,0.4
2024-11-20T0000,2673A,100.6188,36.2866,海南藏族自治州,共和县恰卜恰镇,,26,26,28,12,17,42,,73,52,17,22,14,12,0.6,0.6
2024-11-20T0000,2676A,97.3731,37.3753,海西蒙古族藏族自治州,德令哈市,,27,27,25,10,13,77,,91,76,4,8,17,16,0.4,0.5
2024-11-20T0000,1048A,114.5302,36.6116,邯郸市,东污水处理厂,,,,,,,,,,,,,,,,
2024-11-20T0000,1049A,114.4918,36.5713,邯郸市,矿院,细颗粒物(PM2.5),64,76,56,46,32,3,,47,29,44,32,1,3,0.3,0.4
2024-11-20T0000,1050A,114.484,36.6133,邯郸市,丛台公园,细颗粒物(PM2.5),72,70,51,52,33,6,,47,30,43,28,2,3,0.6,0.5
2024-11-20T0000,3458A,114.7895,36.5593,邯郸市,香泉濮院小区,细颗粒物(PM2.5),67,59,55,48,31,24,,57,42,22,18,5,6,0.7,0.6
2024-11-20T0000,3579A,114.50634,36.77178,邯郸市,永年区实验高中,颗粒物(PM10),76,102,76,51,33,3,,53,27,50,30,7,7,0.5,0.5
2024-11-20T0000,3580A,114.20016,36.44293,邯郸市,峰峰矿区临水派出所,,45,32,50,31,30,23,,52,33,28,25,6,7,0.2,0.3
2024-11-20T0000,2634A,106.9893,33.1842,汉中市,汉川机床厂子校,,20,,12,14,10,29,,57,39,8,8,5,5,0.4,0.4
2024-11-20T0000,2635A,107.0154,33.0706,汉中市,市监测站,,33,31,14,23,8,17,,58,37,15,10,9,9,0.8,0.5
2024-11-20T0000,2636A,107.0089,33.1138,汉中市,鑫源开发区,,36,36,14,14,10,7,,59,37,27,14,10,10,0.6,0.4
2024-11-20T0000,2637A,107.007,33.0323,汉中市,南郑大河坎水厂,,,22,14,18,11,10,,63,35,,14,7,9,0.8,0.6
2024-11-20T0000,1223A,120.2072,30.2111,杭州市,滨江,颗粒物(PM10),53,56,45,19,15,4,,45,23,59,34,6,6,0.6,0.4
2024-11-20T0000,1224A,120.0633,30.2747,杭州市,西溪,,33,33,34,22,13,3,,44,21,44,32,7,7,0.6,0.6
2024-11-20T0000,1226A,120.3461,30.3153,杭州市,下沙,颗粒物(PM10),56,61,43,19,13,3,,56,24,64,38,8,8,0.7,0.6
2024-11-20T0000,1227A,120.1269,30.2456,杭州市,卧龙桥,颗粒物(PM10),55,60,43,14,12,5,,51,17,33,26,7,7,0.6,0.5
2024-11-20T0000,1228A,120.1903,30.2692,杭州市,浙江农大,,36,36,34,19,15,11,,46,20,54,31,5,5,0.5,0.5
2024-11-20T0000,1230A,120.1197,30.3119,杭州市,和睦小学,,35,35,30,14,12,5,,51,27,67,35,6,6,0.7,0.5
2024-11-20T0000,1231A,120.3019,30.4183,杭州市,临平镇,,48,48,38,13,9,20,,57,38,44,27,6,6,0.5,0.4
2024-11-20T0000,1232A,120.2697,30.1819,杭州市,城厢镇,颗粒物(PM10),54,57,38,21,14,2,,52,22,64,35,6,6,0.6,0.4
2024-11-20T0000,1233A,120.0883,30.1808,杭州市,云栖,,33,33,26,13,10,3,,45,14,41,33,7,7,0.6,0.5
2024-11-20T0000,3557A,119.9464,30.0494,杭州市,镇二中,,37,37,32,21,12,2,,44,20,37,26,6,6,0.6,0.5
2024-11-20T0000,3558A,119.7183,30.2367,杭州市,市府大楼,,45,45,32,21,15,6,,53,34,44,28,6,7,0.6,0.5
2024-11-20T0000,3656A,120.1556,30.2864,杭州市,消防大队,,44,44,38,19,15,6,,50,26,67,36,8,8,0.3,0.3
2024-11-20T0000,1270A,117.1959,31.7848,合肥市,明珠广场,,34,34,31,14,10,31,,40,31,28,25,7,7,0.4,0.5
2024-11-20T0000,1271A,117.3072,31.8764,合肥市,三里街,,24,24,26,12,10,28,,40,32,24,21,6,6,0.3,0.3
2024-11-20T0000,1272A,117.2588,31.8707,合肥市,琥珀山庄,,27,27,28,16,11,36,,49,41,24,18,9,9,0.4,0.4
2024-11-20T0000,1273A,117.1604,31.9052,合肥市,董铺水库,,34,34,28,9,6,30,,47,37,20,17,5,5,0.4,0.3
2024-11-20T0000,1274A,117.25,31.8571,合肥市,长江中路,,27,27,28,18,13,37,,46,40,24,23,6,7,0.5,0.5
2024-11-20T0000,1275A,117.266,31.9436,合肥市,庐阳区,,27,27,28,12,9,36,,50,34,16,15,2,2,0.4,0.4
2024-11-20T0000,1276A,117.336,31.8586,合肥市,瑶海区,,24,24,27,15,7,36,,44,38,29,27,3,3,0.4,0.5
2024-11-20T0000,1277A,117.3027,31.7964,合肥市,包河区,,29,29,31,9,10,17,,29,14,41,37,3,3,0.5,0.5
2024-11-20T0000,1278A,117.2776,31.7385,合肥市,滨湖新区,,31,31,29,7,10,33,,43,31,25,22,5,5,0.3,0.4
2024-11-20T0000,1279A,117.1318,31.8403,合肥市,高新区,,31,31,29,15,12,27,,40,30,32,26,3,3,0.8,0.7
2024-11-20T0000,3464A,117.3803,31.9147,合肥市,高教基地,,23,21,24,16,11,35,,51,36,18,17,6,6,0.4,0.3
2024-11-20T0000,3614A,79.924,37.0877,和田地区,地区环保局,细颗粒物(PM2.5),89,114,161,66,52,45,,73,58,32,30,12,11,0.8,0.7
2024-11-20T0000,3615A,79.9131,37.113,和田地区,市环保局,细颗粒物(PM2.5),74,80,137,54,56,27,,73,54,54,37,9,10,0.6,1.2
2024-11-20T0000,2516A,108.2011,24.715,河池市,东仁乐园,,13,,15,9,8,37,,52,45,3,4,3,3,0.9,0.9
2024-11-20T0000,2517A,108.0497,24.6947,河池市,市环保站,,12,7,10,7,7,37,,55,46,7,8,8,8,0.4,0.4
2024-11-20T0000,2518A,108.0983,24.6989,河池市,市疾控中心,,12,10,10,7,7,37,,54,47,8,8,9,8,0.5,0.5
2024-11-20T0000,1696A,114.6778,23.7569,河源市,源西,,22,,12,15,11,21,,29,26,14,11,4,4,0.5,0.5
2024-11-20T0000,1697A,114.6944,23.7586,河源市,东埔,,40,,19,28,17,25,,29,27,15,12,3,3,0.5,0.5
2024-11-20T0000,1698A,114.6892,23.7233,河源市,老城,,26,,14,18,10,21,,29,26,16,12,3,3,0.5,0.5
2024-11-20T0000,1718A,115.4208,35.2464,菏泽市,气象局,"颗粒物(PM10),细颗粒物(PM2.5)",72,93,65,52,36,14,,61,40,53,23,4,5,0.5,0.4
2024-11-20T0000,1719A,115.4747,35.2375,菏泽市,市政协,细颗粒物(PM2.5),73,89,62,53,37,19,,55,39,44,23,4,4,0.5,0.4
2024-11-20T0000,3374A,115.5564,35.0891,菏泽市,定陶老年大学,颗粒物(PM10),56,61,51,39,25,29,,48,34,28,27,6,6,0.4,0.3
2024-11-20T0000,3647A,115.4702,35.2706,菏泽市,菏泽医专,颗粒物(PM10),57,63,60,34,28,29,,58,46,41,26,10,11,0.3,0.3
2024-11-20T0000,2514A,111.5264,24.4172,贺州市,环保小区,,18,18,20,6,10,27,,53,36,12,11,5,5,0.5,0.5
2024-11-20T0000,2515A,111.5608,24.4078,贺州市,政协大楼,,19,19,22,9,8,24,,55,34,12,11,4,6,0.6,0.6
2024-11-20T0000,3534A,111.4744,24.4553,贺州市,西湾,,18,18,23,11,10,28,,50,37,12,12,6,6,0.5,0.5
2024-11-20T0000,2385A,114.17,35.9019,鹤壁市,市监测站,颗粒物(PM10),60,70,68,34,30,19,,51,,26,35,3,3,0.4,0.3
2024-11-20T0000,2386A,114.2956,35.7511,鹤壁市,市交警支队,细颗粒物(PM2.5),67,69,61,48,28,0,,54,36,62,38,6,5,0.4,0.5
2024-11-20T0000,2387A,114.2878,35.7306,鹤壁市,迎宾馆,"颗粒物(PM10),细颗粒物(PM2.5)",63,75,73,45,30,1,,55,35,60,36,3,3,0.6,0.6
2024-11-20T0000,3474A,114.2617,35.6822,鹤壁市,大新区,细颗粒物(PM2.5),75,64,67,55,42,0,,49,22,44,32,3,4,0.5,0.5
2024-11-20T0000,3596A,114.1572,35.9603,鹤壁市,南山宾馆,,48,48,56,33,28,28,,58,33,18,21,1,3,0.3,0.2
2024-11-20T0000,2244A,130.2537,47.3416,鹤岗市,哈啤分公司,细颗粒物(PM2.5),77,64,44,56,47,46,,46,46,10,10,14,15,0.5,0.5
2024-11-20T0000,2245A,130.2684,47.3086,鹤岗市,斯达机电,细颗粒物(PM2.5),93,82,55,69,40,49,,58,52,29,24,13,15,0.5,0.2
2024-11-20T0000,2246A,130.3114,47.3388,鹤岗市,东山纸板厂,细颗粒物(PM2.5),138,118,65,105,43,19,,51,31,34,24,18,17,0.7,0.6
2024-11-20T0000,2247A,130.1097,47.3382,鹤岗市,五号水库,颗粒物(PM10),51,51,42,35,26,57,,79,68,9,6,9,10,0.5,0.6
2024-11-20T0000,2263A,127.4833,50.2524,黑河市,交通局,颗粒物(PM10),54,57,35,32,25,36,,53,45,16,17,6,7,0.5,0.5
2024-11-20T0000,2264A,127.5144,50.2341,黑河市,环保局,,30,30,36,21,25,49,,55,48,9,15,4,10,0.4,0.4
2024-11-20T0000,2265A,127.5291,50.2472,黑河市,大黑河岛,,35,27,32,24,28,17,,46,36,10,14,2,6,0.7,0.6
2024-11-20T0000,1074A,115.6838,37.7541,衡水市,电机北厂,细颗粒物(PM2.5),64,73,54,46,31,32,,71,56,26,25,3,6,0.4,0.4
2024-11-20T0000,1075A,115.6303,37.7316,衡水市,市监测站,颗粒物(PM10),55,59,49,35,26,25,,67,48,40,36,2,4,0.4,0.4
2024-11-20T0000,3188A,115.6683,37.7217,衡水市,市城管局,细颗粒物(PM2.5),57,51,53,40,28,26,,67,50,36,33,3,3,0.4,0.5
2024-11-20T0000,3459A,115.5989,37.5491,衡水市,地表水厂,,45,43,51,31,32,2,,62,28,50,36,3,3,0.4,0.4
2024-11-20T0000,2456A,112.5003,26.9167,衡阳市,原169医院,,18,15,11,12,10,16,,22,18,13,10,7,7,0.5,0.4
2024-11-20T0000,2457A,112.6194,26.9258,衡阳市,衡阳化工总厂,,28,,13,19,12,18,,26,20,18,18,5,6,0.6,0.6
2024-11-20T0000,2458A,112.6211,26.8956,衡阳市,珠晖区环保局,,20,18,15,14,10,19,,25,20,16,17,6,7,0.6,0.6
2024-11-20T0000,2459A,112.6197,26.8733,衡阳市,市委党校,,16,14,15,11,6,17,,28,24,19,16,11,10,0.5,0.5
2024-11-20T0000,2460A,112.6006,26.8919,衡阳市,市监测站,,17,17,15,10,10,19,,26,21,11,13,7,8,0.6,0.6
2024-11-20T0000,2461A,112.5664,26.9056,衡阳市,真空机电公司,,20,18,12,14,8,22,,28,23,12,11,3,4,0.7,0.6
2024-11-20T0000,3399A,112.6703,26.882,衡阳市,师范学院,,23,18,15,16,13,24,,31,28,12,12,8,8,0.5,0.5
2024-11-20T0000,2608A,103.3772,23.3993,红河哈尼族彝族自治州,污水处理厂,细颗粒物(PM2.5),55,,45,39,39,72,,89,82,8,8,5,7,0.5,0.5
2024-11-20T0000,2609A,103.3861,23.35,红河哈尼族彝族自治州,监测站,,50,50,50,33,38,72,,92,85,12,9,7,8,0.5,0.4
2024-11-20T0000,3038A,103.3758,23.368,红河哈尼族彝族自治州,州图书馆,细颗粒物(PM2.5),52,38,40,36,32,72,,88,82,7,7,6,6,0.4,0.4
2024-11-20T0000,1090A,111.6507,40.7517,呼和浩特市,呼市一监,细颗粒物(PM2.5),58,58,60,41,43,0,,27,8,48,37,8,10,0.7,0.7
2024-11-20T0000,1091A,111.6572,40.8033,呼和浩特市,小召,细颗粒物(PM2.5),62,70,65,44,45,11,,38,19,50,40,10,14,0.8,0.7
2024-11-20T0000,1094A,111.7516,40.8369,呼和浩特市,如意水处理厂,颗粒物(PM10),65,80,83,43,44,1,,31,12,48,43,8,8,0.7,0.5
2024-11-20T0000,1095A,111.7276,40.8062,呼和浩特市,二十九中,细颗粒物(PM2.5),70,73,66,51,49,4,,33,13,53,35,10,9,0.8,0.7
2024-11-20T0000,1096A,111.5512,40.7866,呼和浩特市,工大金川校区,颗粒物(PM10),69,87,70,45,45,3,,31,10,50,44,6,12,1.0,0.8
2024-11-20T0000,1097A,111.717,40.7612,呼和浩特市,化肥厂生活区,细颗粒物(PM2.5),62,67,69,44,42,2,,30,10,53,39,10,9,0.7,0.7
2024-11-20T0000,3698A,111.5968,40.8178,呼和浩特市,红旗小学,颗粒物(PM10),64,78,71,45,43,2,,29,10,52,48,8,10,0.7,0.7
2024-11-20T0000,3699A,111.6518,40.8389,呼和浩特市,海东办,细颗粒物(PM2.5),68,78,62,49,43,4,,38,14,54,46,10,9,0.9,0.7
2024-11-20T0000,2192A,119.7594,49.2261,呼伦贝尔市,区环保局,,18,11,22,10,13,57,,52,52,5,11,6,6,0.3,0.4
2024-11-20T0000,3061A,119.7512,49.1577,呼伦贝尔市,国华电力东,,25,,21,17,13,57,,53,53,3,10,3,4,0.2,0.3
2024-11-20T0000,1250A,120.0751,30.8669,湖州市,城西水厂,,36,36,29,3,3,42,,72,49,31,20,6,6,0.3,0.3
2024-11-20T0000,2873A,120.0875,30.8955,湖州市,仁皇山新区,,32,32,30,11,8,47,,73,49,28,22,5,6,0.4,0.4
2024-11-20T0000,2907A,120.1844,30.8596,湖州市,吴兴区站,,31,31,25,14,10,42,,60,44,23,19,7,6,0.4,0.3
2024-11-20T0000,3562A,120.4148,30.8538,湖州市,南浔区站,,36,36,30,15,12,31,,59,39,39,30,5,5,0.4,0.3
2024-11-20T0000,1607A,120.9092,40.7136,葫芦岛市,龙港区,细颗粒物(PM2.5),53,50,49,37,30,34,,47,35,36,34,22,14,0.8,0.8
2024-11-20T0000,1608A,120.8392,40.7514,葫芦岛市,化工街,颗粒物(PM10),96,141,78,66,38,8,,37,10,40,32,19,20,1.7,0.9
2024-11-20T0000,1609A,120.8341,40.7073,葫芦岛市,新区,细颗粒物(PM2.5),62,56,44,44,30,5,,37,11,62,47,12,15,0.9,0.7
2024-11-20T0000,1610A,120.8695,40.7677,葫芦岛市,东城区,细颗粒物(PM2.5),97,121,82,72,52,9,,43,12,57,43,20,24,1.7,1.1
2024-11-20T0000,2482A,109.5981,27.5721,怀化市,林科所,,11,10,6,3,5,33,,38,32,11,10,9,12,0.6,0.7
2024-11-20T0000,2483A,109.9453,27.5444,怀化市,河西地税局,,16,16,13,10,7,34,,38,31,12,14,14,12,0.8,0.8
2024-11-20T0000,2484A,109.9781,27.5342,怀化市,市四医院,,13,12,12,9,7,30,,35,27,10,10,9,10,0.6,0.6
2024-11-20T0000,2485A,109.9972,27.5578,怀化市,监测楼,,12,12,10,7,6,32,,37,29,12,12,4,6,0.4,0.3
2024-11-20T0000,2486A,110.0394,27.583,怀化市,市委党校,,11,10,11,6,6,33,,36,28,8,9,3,3,0.3,0.3
2024-11-20T0000,1210A,119.036,33.5981,淮安市,钵池山,颗粒物(PM10),59,68,31,25,12,5,,66,30,70,29,6,5,0.7,0.5
2024-11-20T0000,1211A,119.007,33.575,淮安市,北京南路,,44,44,29,19,12,24,,60,41,40,24,6,6,0.7,0.3
2024-11-20T0000,1212A,118.989,33.6067,淮安市,市监测站,,45,39,26,31,16,5,,64,37,52,26,4,4,0.8,0.5
2024-11-20T0000,1213A,119.135,33.5039,淮安市,楚州区监测站,,34,34,29,17,11,37,,62,40,34,24,6,6,0.6,0.6
2024-11-20T0000,1214A,119.0186,33.6297,淮安市,淮阴区监测站,颗粒物(PM10),58,66,35,24,13,4,,66,33,72,33,6,4,0.6,0.4
2024-11-20T0000,3426A,118.8755,33.2894,淮安市,新华书店,细颗粒物(PM2.5),64,62,27,46,12,18,,62,29,60,31,9,6,0.5,0.5
2024-11-20T0000,2282A,116.8004,33.975,淮北市,监测站,,38,38,37,22,17,34,,51,37,17,21,3,4,0.6,0.6
2024-11-20T0000,2283A,116.8091,33.9007,淮北市,烈山区政府,,42,42,31,25,19,26,,55,41,34,26,2,4,0.4,0.4
2024-11-20T0000,3330A,116.8873,33.9836,淮北市,杜集区检察院,颗粒物(PM10),64,77,51,26,17,4,,58,29,40,23,2,4,0.5,0.5
2024-11-20T0000,4017A,116.7923,33.9535,淮北市,市博物馆,,46,46,39,27,18,35,,54,40,22,23,6,8,0.5,0.6
2024-11-20T0000,2277A,116.8305,32.7727,淮南市,潘集区政府,,37,37,36,23,21,22,,48,37,32,22,7,7,0.3,0.2
2024-11-20T0000,2278A,117.0067,32.6524,淮南市,师范学院,,36,36,34,17,10,6,,48,24,44,19,11,10,0.4,0.4
2024-11-20T0000,2279A,116.8569,32.5951,淮南市,谢家集区政府,,30,30,30,15,13,23,,52,32,30,23,8,8,0.3,0.3
2024-11-20T0000,2280A,116.8281,32.633,淮南市,八公山区政府,,26,26,28,14,11,22,,50,33,21,19,6,7,0.2,0.2
2024-11-20T0000,2281A,116.6325,32.6201,淮南市,焦岗湖风景区管理处,,19,18,22,12,10,6,,41,15,38,25,4,4,0.1,0
2024-11-20T0000,2894A,117.0566,32.6531,淮南市,经济技术开发区消防队,,41,41,30,15,11,3,,50,20,56,19,5,4,0.2,0.2
2024-11-20T0000,3329A,117.0108,32.5893,淮南市,山南新区,,13,,26,9,6,30,,56,38,19,11,3,3,0.2,0.2
2024-11-20T0000,2446A,114.9028,30.4742,黄冈市,职工中心,,39,36,34,27,22,20,,30,19,16,16,7,7,0.5,0.5
2024-11-20T0000,2929A,114.8858,30.4519,黄冈市,红卫路,,38,31,29,26,20,22,,33,21,18,19,6,6,0.4,0.4
2024-11-20T0000,3398A,114.9136,30.4445,黄冈市,市林业局,,40,40,38,28,19,26,,40,26,19,19,7,7,0.5,0.5
2024-11-20T0000,2672A,102.0199,35.5102,黄南藏族自治州,同仁县隆务镇,细颗粒物(PM2.5),57,55,52,40,38,38,,60,50,8,10,9,6,0.5,0.6
2024-11-20T0000,2295A,118.2903,29.6963,黄山市,延安路89号,,18,18,28,3,13,43,,47,43,6,9,7,6,0.2,0.2
2024-11-20T0000,2296A,118.327,29.7178,黄山市,黄山东路89号,,21,21,32,3,9,37,,48,41,8,9,5,5,0.1,0.1
2024-11-20T0000,2297A,118.1371,30.2756,黄山市,黄山区政府5号楼,,36,36,36,14,14,33,,38,32,12,11,12,8,0.3,0.3
2024-11-20T0000,2423A,115.0601,30.2313,黄石市,沈家营,,43,43,36,22,16,16,,36,17,21,23,6,6,0.7,0.6
2024-11-20T0000,2424A,115.0817,30.2006,黄石市,陈家湾,,38,38,33,26,21,18,,36,20,21,22,9,10,0.6,0.5
2024-11-20T0000,2426A,114.8988,30.2019,黄石市,铁山,,39,30,30,27,21,31,,40,25,2,11,9,8,0.2,0.8
2024-11-20T0000,2427A,115.0307,30.2092,黄石市,团城山,,36,35,40,25,16,17,,38,17,20,20,11,7,0.8,0.6
2024-11-20T0000,3149A,115.0235,30.1578,黄石市,笔架山北路,,35,35,25,23,14,14,,37,16,21,22,8,7,0.7,0.5
2024-11-20T0000,1392A,114.4183,23.0528,惠州市,河南岸金山湖子站,,16,16,14,10,9,25,,28,25,10,11,6,6,0.5,0.5
2024-11-20T0000,1393A,114.4053,23.0822,惠州市,下埔横江三路子站,,18,15,11,12,9,31,,33,31,8,11,5,5,0.5,0.6
2024-11-20T0000,1394A,114.4103,23.1142,惠州市,江北云山西路子站,,18,16,12,12,8,31,,32,31,8,11,5,6,0.6,0.7
2024-11-20T0000,1395A,114.4645,22.7833,惠州市,惠阳区承修路船湖子站,,9,9,15,3,7,18,,24,20,12,12,7,7,0.5,0.5
2024-11-20T0000,1396A,114.5317,22.7422,惠州市,大亚湾管委会子站,,7,6,11,3,6,20,,27,23,12,13,5,5,0.6,0.7
2024-11-20T0000,3314A,114.4338,22.8134,惠州市,惠阳秋长,,8,6,9,3,6,23,,28,26,6,7,4,5,0.5,0.6
2024-11-20T0000,3452A,114.6517,22.775,惠州市,大亚湾霞涌,,7,6,11,3,8,22,,26,24,8,9,5,5,0.5,0.5
2024-11-20T0000,2240A,130.9762,45.3001,鸡西市,环保局,细颗粒物(PM2.5),112,145,54,84,32,4,,56,10,58,19,11,8,1.3,0.6
2024-11-20T0000,2243A,130.9429,45.3039,鸡西市,第一中学,颗粒物(PM10),54,58,46,29,27,28,,63,20,32,19,11,8,0.4,0.3
2024-11-20T0000,3707A,131.0207,45.3073,鸡西市,欧美日汽修厂,细颗粒物(PM2.5),139,165,89,106,56,4,,49,7,38,31,20,18,1.4,1.1
2024-11-20T0000,3709A,130.9967,45.3106,鸡西市,市政设施管理处,颗粒物(PM10),97,144,69,69,36,2,,52,6,42,27,11,8,1.1,0.7
2024-11-20T0000,2367A,114.9754,27.0803,吉安市,红声器材厂,,40,40,46,13,14,37,,44,42,26,23,14,14,0.5,0.5
2024-11-20T0000,2368A,114.9658,27.0999,吉安市,市森林工业局,,39,39,39,18,16,41,,48,46,21,18,11,12,0.6,0.6
2024-11-20T0000,2369A,114.99,27.1312,吉安市,市环境监测站,,35,35,36,16,15,40,,47,45,23,20,15,14,0.6,0.5
2024-11-20T0000,2370A,115.0093,27.0968,吉安市,青原区法院,,38,38,39,16,17,37,,34,,28,24,11,12,0.5,0.4
2024-11-20T0000,1772A,126.54,43.8622,吉林市,哈达湾,细颗粒物(PM2.5),54,47,33,38,21,38,,59,44,20,20,7,7,0.7,0.6
2024-11-20T0000,1773A,126.5844,43.8358,吉林市,东局子,颗粒物(PM10),58,65,34,36,20,42,,61,44,16,18,6,7,0.7,0.5
2024-11-20T0000,1774A,126.5052,43.8245,吉林市,电力学院,颗粒物(PM10),55,60,39,35,29,33,,56,40,21,22,8,7,0.7,0.6
2024-11-20T0000,1775A,126.6133,43.8972,吉林市,江北,细颗粒物(PM2.5),65,77,41,47,22,28,,57,35,29,22,10,11,0.8,0.8
2024-11-20T0000,1776A,126.555,43.8306,吉林市,江南公园,,,68,38,50,27,36,,54,40,,5,9,10,0.6,0.5
2024-11-20T0000,1778A,126.7061,43.7133,吉林市,丰满,,,,,,,,,,,,,,,,
2024-11-20T0000,2868A,126.4739,43.953,吉林市,九站,细颗粒物(PM2.5),54,55,38,38,23,26,,57,40,27,18,6,7,0.7,0.6
2024-11-20T0000,1299A,116.9862,36.6114,济南市,科干所,颗粒物(PM10),58,66,42,27,17,46,,68,53,30,23,4,5,0.7,0.6
2024-11-20T0000,1300A,116.9376,36.665,济南市,农科所,颗粒物(PM10),53,56,51,22,16,29,,61,40,45,37,7,7,0.6,0.6
2024-11-20T0000,1301A,117.1265,36.6734,济南市,开发区,,49,49,38,29,20,53,,66,51,15,24,5,6,0.3,0.4
2024-11-20T0000,1303A,117.0624,36.6868,济南市,省种子仓库,颗粒物(PM10),56,61,44,27,19,41,,64,48,27,23,4,4,0.4,0.3
2024-11-20T0000,1304A,116.9489,36.6447,济南市,机床二厂,颗粒物(PM10),59,68,60,32,21,22,,60,37,49,36,6,6,0.5,0.5
2024-11-20T0000,1305A,117.0495,36.663,济南市,市监测站,颗粒物(PM10),52,54,40,27,17,45,,68,51,29,22,6,6,0.3,0.3
2024-11-20T0000,1306A,116.7675,36.5484,济南市,长清党校,颗粒物(PM10),53,56,49,34,26,44,,67,52,31,31,10,9,0.8,0.8
2024-11-20T0000,1616A,117.6795,36.229,济南市,技术学院,颗粒物(PM10),51,51,46,29,28,10,,59,37,46,31,7,8,0.6,0.5
2024-11-20T0000,1961A,117.532,36.6868,济南市,东山小学,,44,44,41,20,16,37,,63,42,34,32,5,7,0.2,0.3
2024-11-20T0000,3059A,117.7161,36.2049,济南市,泰兴公司,颗粒物(PM10),57,63,50,29,25,10,,64,24,54,40,8,7,0.4,0.4
2024-11-20T0000,3064A,117.6867,36.2171,济南市,莱芜战役纪念馆,颗粒物(PM10),51,51,47,22,22,37,,59,42,35,34,9,7,0.5,0.6
2024-11-20T0000,3494A,117.1673,36.9782,济南市,济阳区政府,颗粒物(PM10),52,54,71,29,26,22,,58,29,51,48,9,10,0.4,0.5
2024-11-20T0000,3495A,117.1171,36.63,济南市,锦屏中学,,39,39,32,22,17,57,,71,54,23,25,6,7,0.4,0.4
2024-11-20T0000,3682A,116.9814,36.6819,济南市,济南四建,,46,46,38,20,18,38,,59,42,28,28,4,5,0.4,0.3
2024-11-20T0000,1653A,116.6251,35.4302,济宁市,火炬城,,42,42,43,27,25,36,,57,46,27,29,4,4,0.6,0.5
2024-11-20T0000,1655A,116.5491,35.4042,济宁市,电化厂,颗粒物(PM10),64,77,56,44,28,16,,53,25,49,36,19,9,0.8,0.7
2024-11-20T0000,3500A,116.5814,35.3707,济宁市,北湖一中,,46,46,41,29,26,30,,55,41,39,32,15,7,0.5,0.4
2024-11-20T0000,3501A,116.8249,35.5593,济宁市,服务中心,颗粒物(PM10),57,64,52,35,26,8,,52,22,52,38,9,10,0.8,0.9
2024-11-20T0000,3678A,116.5907,35.4054,济宁市,市第七中学,,44,44,41,29,22,38,,60,50,32,27,16,8,0.6,0.6
2024-11-20T0000,2255A,130.2751,46.8028,佳木斯市,佳纺,细颗粒物(PM2.5),105,,59,79,51,40,,66,45,23,17,7,6,0.3,0.6
2024-11-20T0000,2256A,130.3995,46.8307,佳木斯市,发电厂,细颗粒物(PM2.5),92,,50,68,52,20,,66,35,40,20,5,6,0.6,0.6
2024-11-20T0000,2257A,130.3258,46.7975,佳木斯市,环保局,细颗粒物(PM2.5),85,67,61,63,51,42,,62,48,17,15,11,10,0.4,0.5
2024-11-20T0000,2258A,130.3648,46.8032,佳木斯市,十一中,细颗粒物(PM2.5),103,,54,77,50,12,,64,34,54,21,3,4,0.8,0.6
2024-11-20T0000,2259A,130.3794,46.7588,佳木斯市,四丰,,,,,,,,,,,,,,,,
2024-11-20T0000,1252A,120.7436,30.778,嘉兴市,清河小学,,33,33,29,11,9,32,,61,40,33,22,8,9,0.4,0.4
2024-11-20T0000,1253A,120.726,30.7478,嘉兴市,嘉兴学院,,31,31,29,13,9,36,,60,44,36,28,5,5,0.4,0.4
2024-11-20T0000,2872A,120.7846,30.7525,嘉兴市,南湖区残联,,29,29,29,11,10,35,,66,44,32,22,6,6,0.5,0.4
2024-11-20T0000,3407A,120.6916,30.7739,嘉兴市,秀洲住建,,24,24,29,11,12,30,,60,31,29,18,8,8,0.3,0.3
2024-11-20T0000,1945A,98.2908,39.7711,嘉峪关市,气象局,,31,31,43,9,17,60,,77,54,20,34,15,14,0.4,0.6
2024-11-20T0000,2884A,98.2672,39.7978,嘉峪关市,酒钢宾馆,,39,39,51,7,16,35,,69,52,36,32,16,23,0.3,0.6
2024-11-20T0000,3248A,98.2643,39.7724,嘉峪关市,雄关区,,33,33,43,20,20,48,,78,55,31,40,13,13,0.1,0.4
2024-11-20T0000,1383A,113.1064,22.6058,江门市,北街,,19,15,16,13,11,23,,38,23,26,24,4,5,0.7,0.7
2024-11-20T0000,1384A,113.0731,22.5835,江门市,西区,,16,16,21,11,10,24,,37,23,24,24,6,7,0.5,0.5
2024-11-20T0000,1385A,113.0219,22.5311,江门市,圭峰西,,18,16,15,12,11,26,,37,25,22,23,3,3,0.6,0.6
2024-11-20T0000,1386A,113.0828,22.5947,江门市,东湖,,16,16,19,6,6,23,,36,22,23,22,6,6,0.5,0.5
2024-11-20T0000,3311A,113.1075,22.5647,江门市,江海富民,,24,24,22,12,12,17,,37,19,28,24,6,6,0.6,0.6
2024-11-20T0000,3449A,113.05,22.4667,江门市,新会银湖,,25,,15,17,13,18,,36,17,25,24,5,5,0.5,0.5
2024-11-20T0000,1828A,113.227,35.2125,焦作市,市环保局,颗粒物(PM10),55,60,62,34,36,11,,58,26,49,32,3,5,0.2,0.2
2024-11-20T0000,1830A,113.1992,35.2590,焦作市,影视城,,47,47,65,30,36,38,,55,47,15,21,7,12,0.8,0.8
2024-11-20T0000,3169A,113.2725,35.2067,焦作市,太极体育中心,颗粒物(PM10),53,56,54,34,31,20,,52,31,41,30,4,5,0.6,0.6
2024-11-20T0000,3335A,113.3137,35.2641,焦作市,马村街道办,颗粒物(PM10),55,59,62,38,39,13,,55,38,44,26,25,10,0.5,0.4
2024-11-20T0000,3336A,113.2465,35.2373,焦作市,焦作技师学院,颗粒物(PM10),62,74,63,41,35,9,,53,32,46,27,12,10,0.8,0.7
2024-11-20T0000,3477A,113.1656,35.2539,焦作市,中站许衡医院,,50,50,73,32,39,28,,48,33,23,32,4,11,0.5,0.6
2024-11-20T0000,3981A,113.2449,35.1803,焦作市,原李万街道办,颗粒物(PM10),54,58,61,32,26,8,,57,26,37,28,6,6,0.5,0.5
2024-11-20T0000,1708A,116.3701,23.5345,揭阳市,新兴,,15,10,14,10,11,27,,54,31,17,17,5,6,0.5,0.5
2024-11-20T0000,1709A,116.3264,23.5443,揭阳市,西马,,10,,17,6,11,30,,58,32,12,12,6,7,0.7,0.7
2024-11-20T0000,1710A,116.3611,23.5626,揭阳市,东兴,,12,,18,8,11,26,,55,26,14,14,6,7,0.7,0.6
2024-11-20T0000,1711A,116.4151,23.5294,揭阳市,渔湖,,11,6,13,3,8,35,,54,38,11,14,7,7,0.5,0.5
2024-11-20T0000,3320A,116.403,23.5699,揭阳市,曲溪,,10,6,15,3,10,30,,58,35,18,17,3,4,0.5,0.6
2024-11-20T0000,1944A,102.1692,38.5167,金昌市,天庆家园,细颗粒物(PM2.5),67,70,59,48,34,48,,88,60,38,26,51,19,0.8,0.7
2024-11-20T0000,3170A,102.1864,38.5253,金昌市,市委党校,颗粒物(PM10),78,105,74,53,31,39,,88,54,48,30,54,17,1.1,0.9
2024-11-20T0000,4022A,102.1647,38.5371,金昌市,金川区人防中心,"颗粒物(PM10),细颗粒物(PM2.5)",77,103,71,56,37,52,,85,60,30,21,38,15,0.8,0.8
2024-11-20T0000,1262A,119.647,29.077,金华市,十五中,颗粒物(PM10),51,51,44,28,17,19,,39,24,44,33,4,4,0.4,0.4
2024-11-20T0000,1263A,119.686,29.1029,金华市,监测站,颗粒物(PM10),51,52,44,23,17,14,,33,19,41,30,4,4,0.4,0.4
2024-11-20T0000,3659A,119.656,29.1131,金华市,气象局,,46,46,42,21,16,11,,38,20,51,33,4,4,0.5,0.5
2024-11-20T0000,1767A,121.1115,41.0879,锦州市,南山,细颗粒物(PM2.5),219,227,70,169,52,14,,38,12,44,40,11,13,3.6,1.3
2024-11-20T0000,1768A,121.0533,40.8434,锦州市,开发区,细颗粒物(PM2.5),210,296,151,160,49,8,,25,7,97,67,28,20,2.2,1.1
2024-11-20T0000,1769A,121.1836,41.1119,锦州市,百股街道,细颗粒物(PM2.5),113,129,102,85,54,6,,33,8,40,47,9,57,2.2,1.3
2024-11-20T0000,1770A,121.1178,41.1222,锦州市,天安街道,细颗粒物(PM2.5),172,176,81,130,56,9,,33,10,76,54,14,29,2.2,1.2
2024-11-20T0000,1771A,121.1303,41.1386,锦州市,北湖公园,细颗粒物(PM2.5),82,67,64,60,53,5,,35,7,44,44,15,43,1.3,1.1
2024-11-20T0000,2160A,112.85,35.5051,晋城市,自来水公司,,49,41,41,34,22,40,,57,31,26,30,4,5,1.0,0.7
2024-11-20T0000,2161A,112.8318,35.4936,晋城市,白云商贸,颗粒物(PM10),52,53,43,24,18,42,,57,36,26,29,4,5,1.0,0.7
2024-11-20T0000,2162A,112.8508,35.4887,晋城市,市环保局,,45,41,39,31,23,43,,58,38,24,28,4,5,1.0,0.7
2024-11-20T0000,2163A,112.8676,35.4897,晋城市,技术学院,,48,48,50,27,20,42,,54,39,27,30,4,5,0.9,0.6
2024-11-20T0000,2165A,112.8453,35.546,晋城市,白马寺,,36,36,41,22,22,43,,47,,18,19,8,9,1.0,0.7
2024-11-20T0000,3620A,112.8271,35.4828,晋城市,泽州一中,,49,,32,34,20,44,,59,42,27,28,3,4,1.0,0.7
2024-11-20T0000,2171A,112.7532,37.6945,晋中市,锦纶小区,颗粒物(PM10),60,70,73,31,51,9,,44,22,53,34,10,9,0.6,0.6
2024-11-20T0000,2173A,112.7249,37.7067,晋中市,南都小区,颗粒物(PM10),60,69,72,38,49,4,,45,21,60,31,10,9,0.6,0.7
2024-11-20T0000,2174A,112.6991,37.6982,晋中市,榆次区政府,颗粒物(PM10),71,92,73,41,45,4,,45,20,52,31,10,9,0.8,0.8
2024-11-20T0000,2865A,112.7195,37.6828,晋中市,榆次三中,颗粒物(PM10),65,80,73,39,47,4,,44,20,49,31,12,11,1.0,0.9
2024-11-20T0000,2439A,112.2014,31.0481,荆门市,竹园小学,,39,39,40,24,25,41,,52,43,20,17,10,9,0.4,0.4
2024-11-20T0000,2440A,112.1969,30.9891,荆门市,掇刀,,42,42,38,28,26,51,,57,48,19,17,8,6,0.4,0.4
2024-11-20T0000,2441A,112.2213,31.0386,荆门市,石化一小,,43,42,43,30,28,45,,55,47,14,14,6,7,0.3,0.3
2024-11-20T0000,3012A,112.1849,31.0362,荆门市,西山林语,,34,34,35,20,22,53,,57,53,14,14,4,5,0.5,0.4
2024-11-20T0000,3547A,112.1632,31.0138,荆门市,龙泉中学南校,,28,27,33,19,25,55,,56,54,15,15,8,8,0.4,0.4
2024-11-20T0000,1844A,112.2494,30.3197,荆州市,市图书馆,,43,,28,30,28,26,,45,28,22,20,3,4,0.5,0.5
2024-11-20T0000,1845A,112.2008,30.3544,荆州市,市委党校,,46,37,34,32,27,31,,49,35,24,20,3,4,0.6,0.6
2024-11-20T0000,3194A,112.2747,30.3122,荆州市,管委会,,45,35,30,31,28,32,,48,32,19,19,8,8,0.6,0.6
2024-11-20T0000,3548A,112.1655,30.3364,荆州市,学苑路,,45,37,33,31,27,26,,48,30,28,23,6,6,0.7,0.7
2024-11-20T0000,2342A,117.3102,29.3867,景德镇市,王港中学,,,,,,,,,,,,,,,,
2024-11-20T0000,2343A,117.2117,29.2933,景德镇市,老干部活动中心,,19,19,21,12,13,25,,56,40,17,10,6,6,0.2,0.2
2024-11-20T0000,2344A,117.1894,29.2789,景德镇市,兽医站,,19,19,28,9,10,34,,56,44,9,6,6,6,0.1,0.1
2024-11-20T0000,2345A,117.1547,29.2617,景德镇市,台达陶瓷,,22,22,24,12,10,32,,53,41,9,8,16,11,0.4,0.4
2024-11-20T0000,2346A,117.2461,29.2956,景德镇市,陶研所,,19,19,23,11,8,12,,47,36,28,9,7,8,0.2,0.2
2024-11-20T0000,1803A,115.9872,29.6815,九江市,十里,,43,43,38,26,17,25,,45,36,29,21,6,6,0.6,0.5
2024-11-20T0000,1804A,115.9584,29.7046,九江市,茅山头,,42,42,40,18,15,29,,43,35,23,19,6,9,0.6,0.5
2024-11-20T0000,1805A,115.9877,29.7295,九江市,西园,,38,38,35,20,17,36,,50,40,21,18,7,7,0.3,0.4
2024-11-20T0000,1806A,116.0172,29.6547,九江市,五七二七厂,,31,31,33,19,16,27,,47,36,20,19,8,9,0.6,0.6
2024-11-20T0000,1808A,115.9114,29.6038,九江市,综合工业园,,40,40,36,22,18,22,,46,33,32,23,9,10,0.4,0.3
2024-11-20T0000,1809A,116.0721,29.7535,九江市,石化总厂,,46,43,39,32,19,24,,40,31,26,21,8,9,0.6,0.6
2024-11-20T0000,1810A,115.9773,29.5698,九江市,庐山气象台,,20,14,17,11,16,58,,62,62,1,4,6,9,2.0,1.5
2024-11-20T0000,3190A,116.0254,29.6994,九江市,外国语学校,颗粒物(PM10),51,52,34,25,16,25,,41,32,34,28,14,12,0.4,0.3
2024-11-20T0000,2658A,98.5061,39.7443,酒泉市,仓门街子站,,45,41,49,31,26,40,,83,56,26,23,8,18,0.4,0.5
2024-11-20T0000,2659A,98.4989,39.7256,酒泉市,油田生活基地,,39,36,59,27,31,53,,82,52,19,28,5,18,0.4,0.5
2024-11-20T0000,2698A,76.0072,39.4467,喀什地区,巡警大队,颗粒物(PM10),118,186,168,55,52,6,,53,37,96,63,4,4,1.9,1.9
2024-11-20T0000,2699A,75.9755,39.4694,喀什地区,吾办,颗粒物(PM10),94,137,138,60,60,10,,50,38,82,52,3,3,1.8,1.5
2024-11-20T0000,4027A,75.9483,39.4689,喀什地区,老干局,颗粒物(PM10),108,166,156,64,54,5,,62,39,87,50,3,4,2.2,1.7
2024-11-20T0000,1824A,114.3389,34.7781,开封市,肿瘤医院,细颗粒物(PM2.5),65,58,41,47,29,15,,47,17,44,28,2,3,0.4,0.4
2024-11-20T0000,1826A,114.2885,34.7965,开封市,世纪星幼儿园,颗粒物(PM10),61,71,41,43,28,13,,48,19,48,30,3,2,0.4,0.3
2024-11-20T0000,3147A,114.3438,34.8106,开封市,龙亭公园,,,,28,,24,,,40,,,19,,2,,0.4
2024-11-20T0000,3210A,114.3644,34.7964,开封市,汴京公园,颗粒物(PM10),63,76,47,22,17,10,,46,17,45,31,2,2,0.4,0.4
2024-11-20T0000,3473A,114.2485,34.8306,开封市,技师学院,细颗粒物(PM2.5),52,48,43,36,27,36,,50,38,26,22,1,2,0.5,0.5
2024-11-20T0000,3592A,114.4644,34.7556,开封市,祥符区生态环境局,颗粒物(PM10),65,80,49,44,33,24,,42,18,38,30,6,2,0.2,0.2
2024-11-20T0000,1951A,84.895,45.6094,克拉玛依市,长征新村,颗粒物(PM10),88,125,64,60,34,5,,42,22,47,33,7,7,1.2,0.8
2024-11-20T0000,1952A,84.8988,45.5893,克拉玛依市,南林小区,颗粒物(PM10),75,100,63,54,37,6,,38,24,53,37,7,5,1.7,1.2
2024-11-20T0000,1954A,84.905,44.3396,克拉玛依市,独山子区,细颗粒物(PM2.5),130,119,87,99,67,5,,45,20,40,28,7,7,1.1,0.7
2024-11-20T0000,1955A,85.6979,46.098,克拉玛依市,乌尔禾区商贸楼,颗粒物(PM10),52,54,38,22,21,7,,39,25,53,34,4,4,0.7,0.7
2024-11-20T0000,3612A,85.1045,45.6899,克拉玛依市,白碱滩区新站,,27,27,52,12,22,35,,29,29,23,36,8,8,0.4,0.5
2024-11-20T0000,2697A,76.1454,39.7142,克孜勒苏柯尔克孜自治州,市人民政府,颗粒物(PM10),77,103,97,39,41,25,,84,64,51,21,5,6,1.0,0.7
2024-11-20T0000,3665A,76.1658,39.7157,克孜勒苏柯尔克孜自治州,克州文化中心,颗粒物(PM10),78,105,90,40,38,27,,80,65,62,29,8,9,1.0,0.6
2024-11-20T0000,1450A,102.8204,24.8886,昆明市,呈贡新区,,36,36,30,23,21,30,,80,56,45,26,9,7,0.8,0.7
2024-11-20T0000,1451A,102.6251,24.9608,昆明市,西山森林公园,,,,,,,,,,,,,,,,
2024-11-20T0000,1452A,102.7252,25.0902,昆明市,龙泉镇,,30,27,28,21,18,53,,74,53,21,24,8,7,0.8,0.7
2024-11-20T0000,1453A,102.7266,25.0375,昆明市,东风东路,,38,38,34,25,22,48,,72,53,21,25,11,9,0.5,0.5
2024-11-20T0000,1454A,102.6742,25.0669,昆明市,金鼎山,,33,33,34,15,17,57,,80,58,25,29,6,4,0.7,0.7
2024-11-20T0000,1455A,102.6644,25.0401,昆明市,碧鸡广场,,49,49,35,27,18,35,,77,44,39,30,9,7,0.7,0.6
2024-11-20T0000,3179A,102.7494,25.0119,昆明市,官渡区博物馆,,32,28,35,22,20,61,,82,66,15,23,9,8,0.5,0.7
2024-11-20T0000,3375A,102.8017,24.8336,昆明市,青年创业园,,43,43,30,24,19,16,,86,48,50,22,16,8,0.7,0.6
2024-11-20T0000,3550A,102.7997,24.9786,昆明市,昆明学院,,48,48,48,33,27,46,,84,64,26,24,8,9,0.7,0.6
2024-11-20T0000,3551A,102.5967,24.6736,昆明市,晋宁区生态环境分局,,44,44,34,29,27,57,,83,61,17,22,4,3,0.7,0.5
2024-11-20T0000,3552A,102.6678,24.9856,昆明市,云天化总部,,30,30,26,20,18,66,,87,72,12,22,9,7,0.2,0.2
2024-11-20T0000,1456A,91.1319,29.6514,拉萨市,八廓街,,47,47,27,18,13,16,,76,48,58,29,7,7,0.7,0.5
2024-11-20T0000,1457A,91.1221,29.6747,拉萨市,市环保局,,35,35,47,17,24,70,,89,57,17,28,8,9,0.5,0.9
2024-11-20T0000,1458A,91.0874,29.6475,拉萨市,区监测站,,24,24,24,9,11,68,,78,47,14,36,5,5,0.4,0.6
2024-11-20T0000,1459A,91.1774,29.6541,拉萨市,西藏大学,,36,36,25,14,9,38,,81,68,40,21,5,4,0.9,0.7
2024-11-20T0000,1460A,90.9798,29.6588,拉萨市,区辐射站,,36,36,39,13,17,76,,70,57,9,32,7,9,0.4,0.6
2024-11-20T0000,1461A,91.0834,29.6292,拉萨市,拉萨火车站,,26,26,19,6,9,70,,74,64,18,31,6,6,0.4,0.6
2024-11-20T0000,2520A,109.2203,23.7256,来宾市,来宾技工学校,,24,24,25,12,12,40,,90,68,14,12,7,8,0.6,0.7
2024-11-20T0000,3535A,109.1781,23.7297,来宾市,兴宾区政府,,24,24,24,14,13,46,,89,71,11,10,7,7,0.6,0.7
2024-11-20T0000,4002A,109.2416,23.7461,来宾市,中南小学,,16,16,27,11,10,38,,89,66,12,9,10,11,0.6,0.7
2024-11-20T0000,1476A,103.631,36.1031,兰州市,兰炼宾馆,颗粒物(PM10),65,80,63,42,41,14,,68,50,62,32,15,15,0.7,0.6
2024-11-20T0000,1477A,104.1373,35.9454,兰州市,榆中兰大校区,,,,,,,,,,,,,,,,
2024-11-20T0000,1478A,103.8412,36.0726,兰州市,生物制品所,颗粒物(PM10),65,80,56,36,36,10,,68,52,66,29,17,17,0.7,0.6
2024-11-20T0000,1479A,103.831,36.0464,兰州市,铁路设计院,细颗粒物(PM2.5),62,51,56,44,43,39,,55,48,42,40,23,17,0.7,0.7
2024-11-20T0000,3186A,103.7158,36.1058,兰州市,教育港,颗粒物(PM10),65,79,62,43,40,35,,66,49,35,26,26,17,0.8,0.6
2024-11-20T0000,3241A,103.7439,36.0842,兰州市,百合公园,颗粒物(PM10),58,65,52,32,33,25,,64,53,46,34,18,13,1.1,0.7
2024-11-20T0000,3242A,103.9611,35.998,兰州市,和平,颗粒物(PM10),70,90,68,46,39,14,,61,47,54,34,16,16,0.7,0.7
2024-11-20T0000,3245A,103.6633,36.533,兰州新区,新区管委会,细颗粒物(PM2.5),115,135,85,87,51,5,,48,24,49,32,16,17,1.3,0.8
2024-11-20T0000,3246A,103.6975,36.4789,兰州新区,舟曲中学,细颗粒物(PM2.5),108,140,69,81,42,6,,60,32,60,26,17,25,1.1,0.8
2024-11-20T0000,1067A,116.6708,39.5111,廊坊市,药材公司,细颗粒物(PM2.5),104,119,73,78,47,2,,30,8,66,52,4,5,0.7,0.7
2024-11-20T0000,1068A,116.7214,39.5589,廊坊市,开发区,细颗粒物(PM2.5),85,105,70,63,40,0,,23,5,65,51,3,3,0.8,0.6
2024-11-20T0000,1070A,116.7244,39.5269,廊坊市,北华航天学院,细颗粒物(PM2.5),83,106,74,61,40,2,,27,7,63,55,4,6,0.9,0.7
2024-11-20T0000,2919A,116.7022,39.5453,廊坊市,河北工业大学,细颗粒物(PM2.5),92,102,74,68,44,1,,27,7,65,46,6,6,0.9,0.7
2024-11-20T0000,2535A,103.7723,29.5462,乐山市,花湖湾,,23,21,24,16,18,18,,28,15,18,16,4,4,0.6,0.6
2024-11-20T0000,2536A,103.7627,29.5844,乐山市,牛耳桥,,22,22,26,15,20,20,,25,16,23,23,5,5,0.4,0.4
2024-11-20T0000,2537A,103.7508,29.6006,乐山市,市第三水厂,,19,19,32,13,19,19,,32,20,26,25,4,5,0.3,0.3
2024-11-20T0000,2538A,103.7571,29.5664,乐山市,市监测站,,20,19,22,14,16,22,,27,19,16,15,6,6,0.5,0.5
2024-11-20T0000,3361A,103.7311,29.5628,乐山市,理工大学,,20,20,23,13,16,22,,30,21,21,20,5,5,0.5,0.5
2024-11-20T0000,2598A,100.2143,26.8576,丽江市,西南郊,,26,16,23,15,14,81,,92,81,2,7,4,5,0.7,0.7
2024-11-20T0000,2599A,100.2497,26.8802,丽江市,丽江古城,,21,14,22,8,10,67,,79,60,9,12,8,9,0.5,0.5
2024-11-20T0000,2600A,100.2203,26.8906,丽江市,市中心,,22,,12,6,8,70,,83,62,7,12,7,7,0.5,0.5
2024-11-20T0000,1267A,119.914,28.4514,丽水市,监测站大楼,,18,12,22,12,9,37,,47,41,16,13,5,5,0.1,0.1
2024-11-20T0000,1268A,119.93,28.4586,丽水市,莲都小学,,21,21,27,11,13,36,,47,41,16,13,4,4,0.3,0.3
2024-11-20T0000,1269A,119.879,28.4231,丽水市,余庄前,,11,11,19,7,9,14,,47,29,12,13,5,5,0.1,0.1
2024-11-20T0000,1173A,119.176,34.5885,连云港市,市环境监测站,,31,31,29,9,9,38,,72,52,34,24,8,8,0.6,0.6
2024-11-20T0000,3000A,119.3581,34.6972,连云港市,德源药业,,34,34,28,12,7,34,,67,34,40,35,8,8,0.2,0.2
2024-11-20T0000,3007A,119.178,34.844,连云港市,新城一中,,30,30,29,20,12,7,,68,21,52,36,7,10,0.8,0.8
2024-11-20T0000,3008A,119.3608,34.7519,连云港市,胡沟管理处,,17,17,20,3,4,52,,69,54,17,12,4,4,0.1,0.2
2024-11-20T0000,3009A,119.1478,34.5911,连云港市,矿山设计院,,48,48,30,29,10,16,,72,44,49,26,6,7,0.6,0.6
2024-11-20T0000,3434A,119.2413,34.6539,连云港市,工贸学校,,19,18,22,7,8,58,,73,62,10,13,7,7,0.5,0.4
2024-11-20T0000,3664A,119.4172,34.7341,连云港市,连云街道,,23,23,23,10,8,54,,68,60,6,10,5,6,0.2,0.1
2024-11-20T0000,2571A,102.3431,27.8099,凉山彝族自治州,青龙寺,,19,19,18,8,7,48,,87,68,30,24,4,4,0.6,0.6
2024-11-20T0000,2572A,102.2721,27.8415,凉山彝族自治州,邛海宾馆,,22,21,22,15,15,47,,85,65,19,14,6,10,0.6,0.6
2024-11-20T0000,2573A,102.2625,27.898,凉山彝族自治州,西昌市政府,,22,22,28,13,19,62,,84,73,9,16,6,10,0.5,0.8
2024-11-20T0000,2574A,102.2685,27.8851,凉山彝族自治州,凉山州政府,,28,28,30,15,17,46,,83,66,17,19,8,11,0.8,0.8
2024-11-20T0000,2575A,102.237,27.8914,凉山彝族自治州,长安,,37,37,32,21,19,20,,85,67,42,23,10,12,0.5,0.5
2024-11-20T0000,2212A,123.2,41.1953,辽阳市,宏伟区,,29,27,26,20,17,47,,47,44,9,10,8,8,0.6,0.5
2024-11-20T0000,2213A,123.1683,41.2495,辽阳市,新华园,,36,26,35,25,22,42,,40,37,16,26,7,9,0.7,0.7
2024-11-20T0000,2214A,123.2354,41.2639,辽阳市,滨河路,,28,22,28,19,18,45,,44,44,12,19,9,11,0.7,0.7
2024-11-20T0000,2215A,123.149,41.2991,辽阳市,铁西工业园,,37,37,43,24,24,40,,36,35,12,23,13,14,0.6,0.7
2024-11-20T0000,2227A,125.1358,42.8845,辽源市,环保局,,26,26,34,16,18,41,,57,41,16,17,8,9,0.6,0.6
2024-11-20T0000,3239A,125.0764,42.9078,辽源市,银鹰制药,,40,36,34,28,20,10,,54,35,42,23,37,26,0.8,0.7
2024-11-20T0000,1625A,115.9848,36.4372,聊城市,区政府,颗粒物(PM10),60,70,58,38,29,32,,65,44,29,35,7,8,0.3,0.4
2024-11-20T0000,2878A,116.0072,36.4343,聊城市,聊大东校,颗粒物(PM10),59,68,68,34,34,36,,67,50,27,34,9,10,0.4,0.6
2024-11-20T0000,3200A,115.9819,36.4978,聊城市,监控中心,颗粒物(PM10),53,56,56,31,29,35,,67,51,33,40,9,10,0.5,0.5
2024-11-20T0000,3513A,116.0445,36.4361,聊城市,九州社区,颗粒物(PM10),61,72,64,33,29,26,,62,35,30,40,6,11,0.4,0.5
2024-11-20T0000,4018A,116.0567,36.4608,聊城市,星美广场,颗粒物(PM10),63,76,70,40,31,36,,69,48,30,32,7,8,0.6,0.6
2024-11-20T0000,2632A,94.3681,29.6376,林芝市,林芝监测站,,27,10,13,7,7,85,,86,82,1,3,6,6,0.3,0.3
2024-11-20T0000,2633A,94.3616,29.6616,林芝市,林芝人民医院,,27,8,10,3,6,84,,83,83,1,6,6,6,0.4,0.4
2024-11-20T0000,2603A,100.0781,23.8982,临沧市,市环保局,,33,,21,23,17,20,,47,34,10,13,8,8,0.4,0.5
2024-11-20T0000,2604A,100.0894,23.8822,临沧市,市气象局,,33,23,26,23,21,17,,46,33,14,14,7,8,0.5,0.5
2024-11-20T0000,1733A,111.5531,36.0783,临汾市,临钢医院,细颗粒物(PM2.5),65,69,57,47,38,11,,36,16,31,25,7,5,1.1,0.8
2024-11-20T0000,1734A,111.5028,36.0714,临汾市,技工学校,细颗粒物(PM2.5),77,69,57,56,42,8,,35,15,42,32,9,9,1.1,0.8
2024-11-20T0000,1736A,111.5018,36.0855,临汾市,市委,细颗粒物(PM2.5),68,73,59,49,37,7,,35,12,38,27,11,9,1.0,0.7
2024-11-20T0000,3018A,111.505,36.1014,临汾市,唐尧大酒店,细颗粒物(PM2.5),72,77,59,52,41,9,,41,13,36,24,9,7,1.2,0.9
2024-11-20T0000,3668A,111.5036,36.0414,临汾市,城南,细颗粒物(PM2.5),87,88,61,64,45,5,,33,10,37,30,8,6,1.1,0.8
2024-11-20T0000,2667A,103.2069,35.5993,临夏回族自治州,环保局,,39,39,56,16,16,48,,55,49,16,26,9,7,0.7,0.9
2024-11-20T0000,2668A,103.2417,35.6057,临夏回族自治州,建设大厦,颗粒物(PM10),53,56,47,22,19,42,,60,49,17,17,6,6,0.7,0.8
2024-11-20T0000,1618A,118.3429,35.0532,临沂市,沂河小区,颗粒物(PM10),68,85,54,42,27,10,,61,35,65,34,13,10,0.7,0.5
2024-11-20T0000,1619A,118.295,35.0583,临沂市,鲁南制药厂,颗粒物(PM10),68,85,50,32,23,4,,58,22,66,43,11,7,0.9,0.7
2024-11-20T0000,1620A,118.2794,34.9976,临沂市,新光毛纺厂,颗粒物(PM10),57,63,44,39,23,6,,61,27,63,36,11,8,0.7,0.6
2024-11-20T0000,1621A,118.3956,35.0888,临沂市,河东保险公司,颗粒物(PM10),53,56,47,32,26,26,,65,45,37,32,7,5,0.8,0.8
2024-11-20T0000,3370A,118.3564,35.0215,临沂市,十里堡居委,颗粒物(PM10),58,66,46,39,25,11,,64,26,58,37,13,9,0.7,0.5
2024-11-20T0000,3496A,118.3604,35.1084,临沂市,南坊新区,颗粒物(PM10),60,70,48,34,22,19,,66,44,63,40,8,6,0.6,0.6
2024-11-20T0000,3860A,118.3920,35.0300,临沂市,皇山花园小区,颗粒物(PM10),56,61,51,33,26,21,,60,37,55,42,9,5,0.7,0.6
2024-11-20T0000,1870A,109.4856,24.3895,柳州市,柳东小学,,20,19,20,14,10,35,,66,48,8,7,8,9,0.5,0.5
2024-11-20T0000,1871A,109.4157,24.3277,柳州市,环保监测站,,21,21,22,11,12,34,,67,48,12,11,10,10,0.6,0.7
2024-11-20T0000,1872A,109.389,24.341,柳州市,河西水厂,,34,34,28,18,13,18,,63,37,25,15,28,14,2.4,1.3
2024-11-20T0000,1873A,109.4311,24.2921,柳州市,市四中,,15,15,16,10,7,38,,71,53,10,9,7,9,0.7,0.7
2024-11-20T0000,1874A,109.4006,24.3631,柳州市,市九中,,20,20,26,12,12,34,,64,45,10,10,7,9,0.9,1
2024-11-20T0000,1875A,109.4958,24.3134,柳州市,古亭山,,15,12,15,10,8,41,,72,54,11,12,9,10,0.7,0.7
2024-11-20T0000,3402A,109.5422,24.3996,柳州市,市二中,,18,,15,12,8,37,,64,46,16,13,9,9,0.5,0.5
2024-11-20T0000,2307A,116.5079,31.737,六安市,监测大楼,,31,31,28,15,11,23,,38,32,28,22,5,5,0.4,0.4
2024-11-20T0000,2308A,116.4738,31.7643,六安市,皖西学院,,34,34,31,15,11,23,,40,34,32,26,6,5,0.4,0.4
2024-11-20T0000,2309A,116.4996,31.7905,六安市,朝阳厂,,35,35,26,13,10,22,,37,28,24,21,1,1,0.4,0.4
2024-11-20T0000,2310A,116.5567,31.7886,六安市,开发区,,33,33,33,15,13,24,,41,31,24,20,3,3,0.4,0.4
2024-11-20T0000,2576A,104.8,26.5892,六盘水市,窑上,,25,25,43,11,30,17,,23,12,10,12,2,2,0.6,0.7
2024-11-20T0000,2577A,104.83,26.5917,六盘水市,黄土坡,,7,7,29,3,18,18,,26,11,10,14,4,6,0.7,0.9
2024-11-20T0000,2578A,104.89,26.5939,六盘水市,水钢,,17,17,34,3,24,16,,23,12,13,16,3,3,0.5,0.6
2024-11-20T0000,2579A,104.8475,26.5894,六盘水市,民中,,8,8,27,3,19,19,,26,13,11,14,7,7,0.5,0.6
2024-11-20T0000,2580A,104.9544,26.5506,六盘水市,双水,,12,12,22,3,17,17,,21,15,10,12,6,6,0.4,0.5
2024-11-20T0000,2335A,117.0189,25.1181,龙岩市,龙岩师专,,,,,,,,,,,,,,,,
2024-11-20T0000,2336A,117.0217,25.1033,龙岩市,龙岩市监测站,,29,,12,20,15,47,,64,47,10,10,3,3,0.4,0.4
2024-11-20T0000,2337A,117.0258,25.0661,龙岩市,闽西职业技术学院,,16,,13,9,9,50,,67,48,4,6,3,3,0.4,0.4
2024-11-20T0000,2338A,117.0196,25.0306,龙岩市,龙岩学院,,15,9,12,8,9,45,,67,36,6,10,3,3,0.4,0.4
2024-11-20T0000,2665A,105.0822,33.3261,陇南市,汉王镇固水子,,,,,,,,,,,,,,,,
2024-11-20T0000,2885A,104.9339,33.3826,陇南市,滨江中学,颗粒物(PM10),53,55,42,26,19,25,,34,28,23,20,5,8,0.7,0.7
2024-11-20T0000,3247A,104.955,33.371,陇南市,市总工会,颗粒物(PM10),55,59,36,14,10,11,,37,27,39,19,4,4,0.6,0.6
2024-11-20T0000,2487A,111.9589,27.8901,娄底市,电视发射台,,22,,6,15,5,50,,45,45,8,9,5,6,0.8,0.7
2024-11-20T0000,2488A,111.9975,27.725,娄底市,市监测站,,18,16,13,12,10,38,,35,32,12,14,5,5,0.4,0.4
2024-11-20T0000,2489A,112.0194,27.7314,娄底市,市委党校,,20,20,15,14,9,40,,36,31,15,19,4,4,0.5,0.5
2024-11-20T0000,2490A,111.9561,27.7569,娄底市,涟钢,,22,22,18,15,11,44,,34,30,8,17,3,2,0.4,1.1
2024-11-20T0000,2491A,111.9892,27.7044,娄底市,市政府,,22,20,11,15,8,39,,35,33,13,15,6,6,0.6,0.5
2024-11-20T0000,1893A,105.4324,28.9634,泸州市,九狮山,,25,23,17,17,11,6,,20,12,19,15,5,10,0.6,0.5
2024-11-20T0000,1894A,105.4427,28.9063,泸州市,小市上码头,,20,20,19,11,13,16,,30,22,18,17,3,3,0.5,0.5
2024-11-20T0000,1895A,105.4241,28.8573,泸州市,兰田宪桥,,15,15,20,9,15,23,,29,25,15,15,3,3,0.5,0.4
2024-11-20T0000,1896A,105.4379,28.8833,泸州市,市环监站,,20,19,19,14,15,14,,27,16,19,18,4,5,0.4,0.4
2024-11-20T0000,3490A,105.3617,28.7703,泸州市,纳溪区环保局,,26,20,21,18,18,18,,23,21,17,16,4,4,0.5,0.5
2024-11-20T0000,2183A,111.1406,37.5211,吕梁市,环保局,颗粒物(PM10),68,86,49,36,31,2,,34,13,39,32,2,3,0.5,0.4
2024-11-20T0000,2185A,111.1297,37.5136,吕梁市,自来水公司,,46,46,44,26,27,15,,39,23,28,25,2,3,0.4,0.4
2024-11-20T0000,2867A,111.1283,37.51,吕梁市,马茂庄小学,颗粒物(PM10),74,97,57,32,31,2,,33,12,45,41,11,5,0.6,0.5
2024-11-20T0000,1812A,112.3931,34.6516,洛阳市,市委党校,,48,35,43,33,34,33,,58,35,18,19,3,3,0.4,0.5
2024-11-20T0000,1814A,112.4657,34.6871,洛阳市,豫西宾馆,颗粒物(PM10),51,52,44,35,29,8,,58,30,40,20,3,3,0.5,0.4
2024-11-20T0000,1815A,112.494,34.6886,洛阳市,河南林校,,42,36,35,29,27,14,,57,28,29,21,2,2,0.5,0.4
2024-11-20T0000,1816A,112.3844,34.623,洛阳市,开发区管委会,,42,42,44,26,32,7,,58,23,24,20,2,4,0.3,0.3
2024-11-20T0000,1817A,112.4267,34.6258,洛阳市,市委新办公区,细颗粒物(PM2.5),55,48,46,39,35,11,,56,26,34,24,1,2,0.3,0.3
2024-11-20T0000,3340A,112.6005,34.6326,洛阳市,伊滨,,47,47,48,30,30,24,,58,42,21,14,6,4,0.4,0.3
2024-11-20T0000,3341A,112.4951,34.6332,洛阳市,中移产业园,,50,50,40,34,33,19,,61,34,36,27,2,3,0.5,0.4
2024-11-20T0000,3593A,112.5736,34.8993,洛阳市,吉利监测站,,50,,36,35,30,8,,56,27,30,22,2,3,0.2,0.2
2024-11-20T0000,3635A,112.3677,34.662,洛阳市,河科大西苑校区,细颗粒物(PM2.5),52,,39,36,34,32,,54,31,15,20,2,2,0.4,0.4
2024-11-20T0000,3636A,112.4388,34.6781,洛阳市,英才小学,,48,48,45,32,29,19,,52,31,30,22,1,2,0.5,0.4
2024-11-20T0000,2399A,114.051,33.5699,漯河市,三五一五工厂,细颗粒物(PM2.5),59,61,36,42,24,28,,52,37,28,19,5,5,0.4,0.4
2024-11-20T0000,2400A,114.0055,33.5698,漯河市,漯河大学,细颗粒物(PM2.5),62,67,49,44,26,17,,54,31,35,21,4,5,0.3,0.3
2024-11-20T0000,2401A,114.0138,33.5828,漯河市,市水利局,细颗粒物(PM2.5),64,51,38,46,24,30,,48,35,21,16,5,5,0.4,0.5
2024-11-20T0000,2402A,114.0261,33.5698,漯河市,市广电局,细颗粒物(PM2.5),59,49,33,42,25,26,,53,37,30,19,5,5,0.4,0.4
2024-11-20T0000,3478A,113.9749,33.5664,漯河市,市图书馆,颗粒物(PM10),56,62,39,36,19,17,,48,34,30,19,3,3,0.5,0.5
2024-11-20T0000,3479A,114.0967,33.5906,漯河市,召陵区卫健委,颗粒物(PM10),60,69,42,32,23,25,,48,31,22,15,8,8,0.6,0.5
2024-11-20T0000,1798A,118.5092,31.6837,马鞍山市,湖东路四小,,39,39,30,19,11,24,,60,36,32,15,4,4,0.6,0.5
2024-11-20T0000,1799A,118.5024,31.6449,马鞍山市,开发区,,42,42,33,21,13,27,,54,36,37,28,7,7,0.6,0.6
2024-11-20T0000,1800A,118.5228,31.7231,马鞍山市,慈湖,,28,28,20,17,11,18,,59,34,43,22,7,7,0.8,0.7
2024-11-20T0000,1802A,118.6245,31.7241,马鞍山市,濮塘,,33,33,27,23,13,23,,65,34,29,19,8,8,0.6,0.5
2024-11-20T0000,3633A,118.4918,31.6809,马鞍山市,雨山,,39,39,31,20,13,25,,59,36,33,19,5,5,0.7,0.6
2024-11-20T0000,1686A,111.0286,21.4688,茂名市,电白南海,,20,19,34,14,18,46,,57,45,14,18,5,7,0.7,0.7
2024-11-20T0000,1687A,110.9294,21.6533,茂名市,茂石化七小,,20,,26,14,17,53,,61,52,7,13,5,14,0.7,0.7
2024-11-20T0000,1688A,110.9107,21.6687,茂名市,健康路,,19,,23,9,15,58,,69,57,8,10,11,16,0.6,0.6
2024-11-20T0000,1689A,110.8592,21.6828,茂名市,高岭,,22,22,36,12,18,42,,59,38,16,19,11,23,0.7,0.8
2024-11-20T0000,3450A,111.01,21.5165,茂名市,电白水东,,18,12,25,12,19,48,,56,46,10,12,8,10,0.6,0.7
2024-11-20T0000,2539A,104.0308,30.0478,眉山市,黑龙滩水库,,36,29,26,25,21,17,,33,31,11,8,1,1,0.3,0.3
2024-11-20T0000,2540A,103.8416,30.0874,眉山市,气象局,,27,27,30,12,14,18,,31,19,24,22,4,6,0.5,0.5
2024-11-20T0000,3137A,103.8578,30.0744,眉山市,市委党校,,13,12,18,3,9,23,,30,21,25,23,2,3,0.5,0.5
2024-11-20T0000,3148A,103.8291,30.0564,眉山市,区人社局,,23,23,21,9,10,18,,30,20,31,28,2,2,0.4,0.4
2024-11-20T0000,1690A,116.1231,24.3284,梅州市,梅江月梅,,23,,15,16,10,8,,36,15,27,23,8,8,0.6,0.5
2024-11-20T0000,1691A,116.0797,24.2719,梅州市,梅县新城,,20,18,13,14,8,12,,39,17,23,17,5,5,0.5,0.5
2024-11-20T0000,1692A,116.1248,24.2654,梅州市,环境监控中心,,15,13,20,10,8,28,,40,30,15,17,6,6,0.4,0.4
2024-11-20T0000,3315A,116.1233,24.2991,梅州市,梅龙,,15,,13,10,11,24,,39,24,13,21,5,6,0.5,0.5
2024-11-20T0000,1878A,104.7778,31.4741,绵阳市,富乐山,,17,13,7,9,4,3,,44,28,33,11,2,2,0.6,0.5
2024-11-20T0000,1879A,104.7563,31.4535,绵阳市,市人大,,27,27,12,12,6,3,,41,24,42,19,2,3,0.5,0.4
2024-11-20T0000,1880A,104.6697,31.4668,绵阳市,高新区自来水公司,,29,29,14,9,5,2,,42,20,39,19,4,3,0.5,0.4
2024-11-20T0000,1881A,104.7287,31.5075,绵阳市,三水厂,,27,27,17,12,5,3,,45,26,36,16,6,6,0.7,0.5
2024-11-20T0000,3491A,104.69,31.5322,绵阳市,西科大附属小学,,26,26,15,10,8,7,,42,22,34,15,5,4,0.6,0.6
2024-11-20T0000,3492A,104.5648,31.5343,绵阳市,安州区旅游局,,39,38,13,27,11,4,,39,21,25,16,7,5,0.6,0.5
2024-11-20T0000,1784A,129.61,44.561,牡丹江市,环保大楼,颗粒物(PM10),57,63,49,37,26,5,,44,9,38,29,7,9,0.7,0.5
2024-11-20T0000,1785A,129.6115,44.5782,牡丹江市,文化广场,颗粒物(PM10),81,112,59,51,32,5,,40,7,44,32,13,11,1.0,0.6
2024-11-20T0000,1786A,129.5904,44.5963,牡丹江市,第一医院,细颗粒物(PM2.5),83,82,53,61,38,16,,49,17,30,27,7,7,0.8,0.6
2024-11-20T0000,1787A,129.6364,44.6075,牡丹江市,机车工厂,颗粒物(PM10),55,59,44,34,29,7,,40,13,38,28,25,45,0.8,0.5
2024-11-20T0000,1788A,129.6386,44.5462,牡丹江市,第一中学,,50,49,45,35,29,4,,53,4,26,23,5,6,0.6,0.5
2024-11-20T0000,2531A,105.0703,29.61,内江市,市监测站,,15,10,18,10,14,24,,29,22,8,9,5,5,0.6,0.6
2024-11-20T0000,2532A,105.0717,29.5947,内江市,东兴区政府,,20,20,12,6,6,26,,32,22,7,10,5,5,0.4,0.4
2024-11-20T0000,2533A,105.0653,29.5817,内江市,内江二中,,15,15,15,8,10,24,,30,21,14,17,6,6,0.5,0.5
2024-11-20T0000,2534A,105.0406,29.5822,内江市,内江日报社,,26,26,18,10,10,21,,26,17,13,13,11,8,0.4,0.5
2024-11-20T0000,2628A,92.0657,31.4846,那曲市,那曲监测站,细颗粒物(PM2.5),79,74,58,58,32,26,,85,50,38,25,13,10,2.2,1.2
2024-11-20T0000,3128A,92.0506,31.4797,那曲市,那曲会议中心,颗粒物(PM10),69,87,71,42,35,10,,92,62,36,21,8,6,1.4,1.1
2024-11-20T0000,1290A,115.8931,28.6843,南昌市,省外办,,47,47,43,29,25,26,,43,35,34,26,6,6,0.4,0.4
2024-11-20T0000,1291A,115.8886,28.7003,南昌市,省林业公司,,46,46,39,27,20,23,,44,34,29,18,7,7,0.5,0.4
2024-11-20T0000,1292A,115.8126,28.7442,南昌市,林科所,,44,44,38,19,18,33,,41,37,23,21,6,5,0.6,0.4
2024-11-20T0000,1294A,115.8518,28.687,南昌市,建工学校,,47,47,46,30,20,23,,42,33,30,19,7,7,0.5,0.5
2024-11-20T0000,1295A,115.8921,28.6424,南昌市,象湖,,46,46,40,30,22,31,,46,39,31,25,7,7,0.5,0.5
2024-11-20T0000,1296A,115.7423,28.7996,南昌市,武术学校,,35,35,39,11,11,26,,32,29,12,14,1,1,0.5,0.5
2024-11-20T0000,1298A,115.9314,28.6842,南昌市,省站,颗粒物(PM10),66,81,58,27,23,29,,42,36,28,24,7,8,0.6,0.6
2024-11-20T0000,3046A,115.9084,28.6062,南昌市,机电学校,颗粒物(PM10),52,54,50,31,20,29,,45,37,30,26,8,8,0.6,0.6
2024-11-20T0000,3690A,115.9721,28.7031,南昌市,外国语学校,颗粒物(PM10),51,52,48,24,21,25,,43,35,29,23,8,8,0.5,0.5
2024-11-20T0000,1905A,106.056,30.8064,南充市,西山风景区,,13,,7,9,9,13,,24,16,4,6,1,1,0.4,0.7
2024-11-20T0000,1906A,106.0789,30.8023,南充市,南充市委,,18,18,11,10,6,16,,25,18,13,12,4,3,0.3,0.4
2024-11-20T0000,1907A,106.1031,30.8217,南充市,南充炼油厂,,36,36,31,17,11,16,,25,17,11,13,2,3,0.3,0.4
2024-11-20T0000,1908A,106.1064,30.7856,南充市,高坪区监测站,,23,20,15,16,10,13,,26,16,14,13,1,2,0.3,0.3
2024-11-20T0000,1909A,106.0642,30.7636,南充市,嘉陵区环保局,,34,34,19,9,7,10,,23,14,18,14,4,2,0.4,0.3
2024-11-20T0000,1910A,106.1087,30.8388,南充市,市环境监测站,,28,23,18,19,13,16,,25,19,7,8,3,3,0.3,0.2
2024-11-20T0000,1151A,118.8086,32.1065,南京市,迈皋桥,,29,29,23,9,8,20,,54,27,39,24,4,4,0.5,0.5
2024-11-20T0000,1152A,118.7538,32.0551,南京市,草场门,,29,29,27,12,9,18,,50,28,49,34,6,5,0.3,0.3
2024-11-20T0000,1153A,118.7794,32.0745,南京市,山西路,,34,34,30,14,11,24,,61,36,37,16,4,4,0.1,0.1
2024-11-20T0000,1154A,118.7752,32.0023,南京市,中华门,,31,31,27,9,10,24,,51,26,44,33,4,3,0.4,0.4
2024-11-20T0000,1155A,118.8109,32.0309,南京市,瑞金路,,27,27,28,17,11,21,,48,24,34,18,7,6,0.6,0.6
2024-11-20T0000,1156A,118.7997,32.0754,南京市,玄武湖,,36,36,33,3,4,14,,39,19,54,38,8,6,0.4,0.4
2024-11-20T0000,1157A,118.6414,32.0931,南京市,浦口,,32,32,30,15,12,33,,45,36,24,22,8,6,0.5,0.3
2024-11-20T0000,1158A,118.7356,31.9996,南京市,奥体中心,,35,35,32,9,10,25,,55,34,44,30,8,8,0.2,0.2
2024-11-20T0000,1159A,118.9125,32.1028,南京市,仙林大学城,,39,39,29,12,8,20,,54,29,44,26,7,6,0.4,0.4
2024-11-20T0000,3422A,118.8436,31.9198,南京市,江宁彩虹桥,,44,44,34,14,10,21,,52,27,39,25,6,5,0.7,0.7
2024-11-20T0000,3423A,119.0138,31.6494,南京市,溧水永阳,,39,39,28,18,12,21,,58,36,34,19,3,4,0.3,0.3
2024-11-20T0000,3424A,118.879,31.3302,南京市,高淳老职中,,41,41,32,22,16,28,,46,34,26,21,4,4,0.3,0.3
2024-11-20T0000,3427A,118.8554,32.3578,南京市,六合雄州,,36,36,27,3,6,27,,49,31,15,9,8,8,0.8,0.7
2024-11-20T0000,1401A,108.3103,22.7881,南宁市,二十一中,,23,23,26,16,15,72,,100,83,18,17,7,6,0.8,0.9
2024-11-20T0000,1402A,108.3141,22.8528,南宁市,北湖,,36,36,30,18,17,63,,90,73,18,15,10,7,1.0,0.9
2024-11-20T0000,1403A,108.3206,22.8225,南宁市,市监测站,,29,24,29,20,18,65,,87,70,16,16,12,9,0.7,0.7
2024-11-20T0000,1404A,108.3829,22.8037,南宁市,大自然花园,,25,25,27,13,17,73,,96,83,14,14,9,9,0.5,0.6
2024-11-20T0000,1405A,108.4394,22.7904,南宁市,仙葫,,23,23,24,14,12,64,,83,75,15,12,8,8,0.6,0.6
2024-11-20T0000,1406A,108.2397,22.8467,南宁市,区农职院,,33,33,30,16,14,45,,101,72,29,19,9,9,0.7,0.7
2024-11-20T0000,1407A,108.3275,22.735,南宁市,英华嘉园,,24,24,27,13,14,70,,100,79,15,16,9,8,0.6,0.7
2024-11-20T0000,1408A,108.2257,22.7757,南宁市,沙井镇街道办,,34,34,33,16,19,44,,95,65,40,28,9,8,0.6,0.6
2024-11-20T0000,3401A,108.4834,22.7618,南宁市,红星社区,,27,27,23,9,13,64,,90,79,18,12,7,9,0.7,0.7
2024-11-20T0000,2331A,118.0966,26.6761,南平市,茫荡山,,,,,,,,,,,,,,,,
2024-11-20T0000,2332A,118.1681,26.6369,南平市,南平市监测站,,16,16,11,9,7,10,,56,29,25,10,5,4,0.3,0.3
2024-11-20T0000,2333A,118.1825,26.6489,南平市,南平铝业有限公司,,15,15,10,8,5,18,,55,29,21,10,4,3,0.4,0.3
2024-11-20T0000,2334A,118.1756,26.6272,南平市,南平七中,,10,10,11,7,6,17,,57,38,14,6,3,5,0.5,0.5
2024-11-20T0000,1168A,120.9098,31.9663,南通市,狼山街道,,26,26,21,15,6,46,,74,59,23,10,8,7,0.3,0.4
2024-11-20T0000,1169A,120.86,32.0005,南通市,虹桥,,25,25,23,15,8,49,,70,59,21,14,5,6,0.4,0.3
2024-11-20T0000,1170A,120.87,32.02,南通市,城中,,33,33,25,13,7,44,,73,56,28,16,7,7,0.4,0.3
2024-11-20T0000,1171A,120.94,31.93,南通市,星湖花园,,23,23,19,11,7,45,,70,55,24,14,6,4,0.4,0.4
2024-11-20T0000,1172A,120.81,32.0417,南通市,紫琅学院,,34,34,23,14,5,27,,69,44,37,19,13,4,0.4,0.3
2024-11-20T0000,3291A,121.067,32.062,南通市,通州监测站,,27,27,24,14,8,58,,78,66,14,12,4,2,0.3,0.3
2024-11-20T0000,3432A,120.9348,31.9883,南通市,环境教育馆,,41,41,23,19,8,32,,77,55,35,12,5,3,0.4,0.3
2024-11-20T0000,2404A,112.5224,33.0122,南阳市,瓦房庄,细颗粒物(PM2.5),54,45,38,38,30,36,,62,46,16,14,5,4,0.6,0.5
2024-11-20T0000,2405A,112.5003,32.9735,南阳市,汉画馆,,44,44,37,29,24,23,,63,42,29,14,5,4,0.5,0.5
2024-11-20T0000,2406A,112.5573,33.027,南阳市,气象站,,45,44,39,31,23,40,,62,48,21,18,3,4,0.6,0.6
2024-11-20T0000,2407A,112.5481,32.9689,南阳市,理工学院,,45,45,36,29,27,30,,60,41,20,14,4,4,0.4,0.3
2024-11-20T0000,4008A,112.5234,32.9922,南阳市,卧龙区政府,细颗粒物(PM2.5),55,45,40,39,29,36,,61,41,19,19,4,4,0.3,0.4
2024-11-20T0000,1234A,121.8358,29.911,宁波市,区环保大楼,,23,23,24,3,6,55,,73,57,23,16,6,6,0.5,0.5
2024-11-20T0000,1235A,121.56,29.82,宁波市,万里学院,,35,35,26,22,10,9,,73,44,58,22,6,6,0.5,0.4
2024-11-20T0000,1236A,121.713,29.9572,宁波市,龙赛医院,,,29,28,3,5,,,75,,14,15,10,8,0.5,0.4
2024-11-20T0000,1239A,121.633,29.7733,宁波市,钱湖水厂,颗粒物(PM10),56,62,27,26,10,3,,77,45,57,17,6,6,0.6,0.5
2024-11-20T0000,1240A,121.5856,29.8635,宁波市,太古小学,,44,44,29,11,7,19,,75,52,26,13,8,8,0.7,0.5
2024-11-20T0000,1241A,121.524,29.8674,宁波市,市环境监测中心,,50,50,24,15,6,1,,78,38,64,22,7,6,0.6,0.5
2024-11-20T0000,2871A,121.6147,29.9017,宁波市,万里国际学校,,30,30,19,8,7,16,,74,42,58,27,7,17,0.5,0.5
2024-11-20T0000,3710A,121.5594,29.8975,宁波市,白沙活动中心,,29,26,20,10,7,4,,78,47,57,17,9,9,0.5,0.3
2024-11-20T0000,2339A,119.5001,26.6946,宁德市,金涵水库,,,,,,,,,,,,,,,,
2024-11-20T0000,2341A,119.5388,26.6612,宁德市,宁德市监测站,,23,23,13,12,10,34,,51,39,10,9,2,2,0.3,0.4
2024-11-20T0000,3209A,119.5231,26.6562,宁德市,宁德一中,,15,,12,9,8,46,,57,50,8,8,1,1,0.2,0.2
2024-11-20T0000,2618A,98.8601,25.8567,怒江傈僳族自治州,州监测站,,23,23,26,16,15,42,,69,49,13,11,5,5,0.4,0.4
2024-11-20T0000,2619A,98.8546,25.8417,怒江傈僳族自治州,泸水一中,,30,,23,21,14,21,,58,29,18,17,6,6,0.6,0.5
2024-11-20T0000,1888A,101.6891,26.571,攀枝花市,弄弄坪,颗粒物(PM10),71,92,53,46,30,4,,80,51,68,37,17,22,1.4,1.8
2024-11-20T0000,1889A,101.5769,26.5928,攀枝花市,河门口,,49,45,37,34,26,18,,92,64,39,25,8,12,1.1,1.1
2024-11-20T0000,1890A,101.7169,26.585,攀枝花市,炳草岗,颗粒物(PM10),58,66,69,34,39,5,,80,37,63,42,14,16,0.9,1.4
2024-11-20T0000,1891A,101.7369,26.5008,攀枝花市,仁和,,43,43,43,28,27,33,,89,56,17,27,7,16,0.7,1.4
2024-11-20T0000,2835A,101.7227,26.567,攀枝花市,四十中小,细颗粒物(PM2.5),53,37,60,37,36,18,,72,42,53,41,58,17,1.5,1.6
2024-11-20T0000,1604A,122.0303,41.1489,盘锦市,开发区,细颗粒物(PM2.5),60,51,46,43,31,14,,42,17,41,35,10,10,0.9,0.7
2024-11-20T0000,1605A,122.0485,41.0883,盘锦市,兴隆台,细颗粒物(PM2.5),63,51,51,45,31,8,,45,16,47,41,10,9,0.8,0.9
2024-11-20T0000,1606A,121.8297,41.1028,盘锦市,新生街道,,49,,37,34,27,7,,46,18,54,41,8,10,0.9,0.8
2024-11-20T0000,1832A,113.3257,33.742,平顶山市,新华旅馆,颗粒物(PM10),57,64,52,37,38,37,,57,42,20,16,6,7,0.5,0.6
2024-11-20T0000,1833A,113.2919,33.737,平顶山市,规划设计院,颗粒物(PM10),55,60,48,38,29,45,,62,46,16,15,6,6,0.4,0.4
2024-11-20T0000,1834A,113.182,33.774,平顶山市,平顶山工学院,颗粒物(PM10),51,51,36,29,22,40,,61,53,13,10,5,5,0.6,0.5
2024-11-20T0000,3204A,113.3025,33.73,平顶山市,规划局,细颗粒物(PM2.5),63,61,49,45,30,32,,57,38,28,20,6,6,0.5,0.5
2024-11-20T0000,3594A,112.8867,33.9116,平顶山市,石龙区,颗粒物(PM10),60,70,45,23,27,5,,54,34,52,16,9,9,0.5,0.6
2024-11-20T0000,2656A,106.6692,35.5461,平凉市,聚贤嘉苑,颗粒物(PM10),54,57,42,36,25,6,,42,19,45,30,10,10,0.7,0.7
2024-11-20T0000,2657A,106.7021,35.5307,平凉市,博物馆,颗粒物(PM10),56,62,42,39,24,9,,46,26,34,14,7,5,0.4,0.3
2024-11-20T0000,2347A,114.0997,27.5002,萍乡市,武功山,,38,38,30,8,7,36,,45,42,6,7,8,8,0.1,0.2
2024-11-20T0000,2348A,113.8385,27.6434,萍乡市,中医院,,35,35,37,20,18,2,,45,8,23,14,9,14,0.7,0.6
2024-11-20T0000,2349A,113.8493,27.6253,萍乡市,市政府车库,,50,42,33,35,19,5,,48,15,28,16,16,13,0.7,0.5
2024-11-20T0000,2350A,113.8676,27.6435,萍乡市,市环保局,,36,36,33,23,18,6,,49,15,23,12,13,13,0.7,0.4
2024-11-20T0000,2351A,113.866,27.6198,萍乡市,安源区政府,,49,,35,34,15,3,,46,15,23,16,15,14,0.7,1
2024-11-20T0000,2319A,119.0141,25.4325,莆田市,荔城区仓后路,,19,8,12,3,4,58,,64,54,8,8,1,1,0.3,0.3
2024-11-20T0000,2320A,119.0015,25.4553,莆田市,莆田市监测站,,20,10,10,3,3,62,,66,57,5,6,2,2,0.4,0.4
2024-11-20T0000,2321A,119.1119,25.4561,莆田市,涵江区六中,,22,9,13,3,3,70,,68,56,6,9,1,2,0.3,0.3
2024-11-20T0000,2322A,119.1013,25.3215,莆田市,秀屿区政府,,,,18,,6,,,62,,,9,,2,,0.3
2024-11-20T0000,2323A,118.981,25.4792,莆田市,东圳水库,,,,,,,,,,,,,,,,
2024-11-20T0000,2392A,115.0312,35.7636,濮阳市,环保局,,45,40,46,31,29,34,,58,43,22,19,2,4,0.4,0.4
2024-11-20T0000,2394A,115.0574,35.7609,濮阳市,油田运输公司,,49,49,54,28,30,32,,57,40,21,25,2,3,0.2,0.2
2024-11-20T0000,2395A,115.0866,35.7754,濮阳市,油田物探公司,,46,46,57,31,34,29,,58,38,21,23,2,4,0.2,0.3
2024-11-20T0000,3021A,115,35.7668,濮阳市,濮水河管理处,颗粒物(PM10),52,54,63,33,32,28,,54,36,18,22,2,3,0.4,0.4
2024-11-20T0000,2601A,100.98,22.7633,普洱市,市环保局,,49,39,37,34,26,36,,81,51,12,10,5,5,0.5,0.5
2024-11-20T0000,2602A,100.9817,22.8322,普洱市,普洱第二中学,,44,44,39,20,17,12,,80,46,27,18,6,7,0.4,0.4
2024-11-20T0000,2262A,131.0518,45.8751,七台河市,新一中,,40,40,36,20,22,33,,64,41,12,18,10,12,1.2,1.1
2024-11-20T0000,3345A,131.0577,45.7879,七台河市,中波台,,40,40,33,25,20,22,,51,36,26,19,12,12,0.7,0.7
2024-11-20T0000,3637A,131.0176,45.7761,七台河市,人民广场,颗粒物(PM10),55,59,40,37,24,11,,56,35,38,21,7,8,1.1,0.8
2024-11-20T0000,3684A,130.8781,45.8222,七台河市,新建矿广场,颗粒物(PM10),90,129,46,32,24,11,,52,32,59,26,15,8,0.8,0.6
2024-11-20T0000,1779A,123.9305,47.3636,齐齐哈尔市,安居小区,颗粒物(PM10),54,57,48,33,17,32,,45,22,18,19,12,8,0.4,0.4
2024-11-20T0000,1780A,123.9488,47.3386,齐齐哈尔市,中心广场,颗粒物(PM10),55,59,41,28,16,28,,39,23,21,19,8,5,0.7,0.5
2024-11-20T0000,1781A,123.9483,47.3227,齐齐哈尔市,农牧车辆厂,颗粒物(PM10),56,61,50,28,13,27,,41,19,22,20,11,6,0.6,0.4
2024-11-20T0000,1783A,123.945,47.2988,齐齐哈尔市,市环境监测站,颗粒物(PM10),59,68,59,36,25,24,,44,21,25,20,14,5,0.7,0.4
2024-11-20T0000,3662A,123.6333,47.2075,齐齐哈尔市,富区青少年活动中心,颗粒物(PM10),80,109,52,28,16,12,,41,24,40,18,19,14,1.2,0.7
2024-11-20T0000,2591A,107.9783,26.5747,黔东南苗族侗族自治州,市环境监测站,,15,12,9,10,6,26,,34,29,11,11,4,4,0.3,0.3
2024-11-20T0000,2881A,107.8908,26.5311,黔东南苗族侗族自治州,凯里学院,,10,,5,7,6,24,,31,25,7,7,4,4,0.4,0.3
2024-11-20T0000,2593A,107.5228,26.2403,黔南布依族苗族自治州,小围寨,,7,7,3,3,2,20,,28,24,6,6,3,4,0.7,0.7
2024-11-20T0000,3538A,107.5175,26.2978,黔南布依族苗族自治州,沙坝,,10,6,7,3,2,29,,37,30,7,8,3,4,0.5,0.5
2024-11-20T0000,2589A,104.9022,25.0925,黔西南布依族苗族自治州,场坝街,,29,,40,20,29,26,,77,45,11,8,3,4,0.5,0.4
2024-11-20T0000,2590A,104.8811,25.0992,黔西南布依族苗族自治州,坪东大道,,23,,37,16,34,23,,74,42,10,8,2,2,0.4,0.4
2024-11-20T0000,2502A,108.6236,21.9667,钦州市,市环保站,颗粒物(PM10),51,51,44,19,14,70,,95,86,26,18,8,8,0.8,0.8
2024-11-20T0000,2503A,108.6549,21.9481,钦州市,沙埠小学,,46,46,40,18,14,73,,98,88,28,18,14,8,0.7,0.7
2024-11-20T0000,2504A,108.5989,21.7431,钦州市,港区一小,颗粒物(PM10),59,68,58,18,17,75,,93,84,22,20,10,9,0.7,0.7
2024-11-20T0000,3404A,108.5959,21.9633,钦州市,北职校,,46,46,36,24,19,61,,92,80,25,16,9,9,1.0,1.1
2024-11-20T0000,1042A,119.5134,39.8207,秦皇岛市,北戴河环保局,颗粒物(PM10),70,89,47,48,23,13,,53,25,61,36,4,3,1.0,0.7
2024-11-20T0000,1043A,119.7493,40.0116,秦皇岛市,第一关,细颗粒物(PM2.5),70,75,55,51,39,11,,44,9,60,48,9,10,0.8,0.8
2024-11-20T0000,1044A,119.5897,39.9499,秦皇岛市,监测站,细颗粒物(PM2.5),82,77,59,60,36,9,,42,12,49,35,13,11,0.9,0.9
2024-11-20T0000,1046A,119.5251,39.9041,秦皇岛市,建设大厦,颗粒物(PM10),72,94,63,47,35,6,,40,12,60,44,12,9,1.1,0.9
2024-11-20T0000,3132A,119.610547,39.943889,秦皇岛市,文明里,颗粒物(PM10),78,105,66,55,32,6,,41,15,64,44,12,9,1.0,0.8
2024-11-20T0000,1307A,120.6659,36.2403,青岛市,仰口,,28,28,21,17,16,59,,70,58,12,7,7,7,0.5,0.4
2024-11-20T0000,1310A,120.4134,36.0658,青岛市,市南区东部子站,,31,31,34,14,11,29,,59,38,48,29,10,10,0.8,0.6
2024-11-20T0000,1311A,120.3664,36.1032,青岛市,四方区子站,,31,31,29,17,13,30,,62,39,55,34,11,10,0.6,0.5
2024-11-20T0000,1312A,120.2994,36.054,青岛市,市南区西部子站,,27,27,26,7,8,35,,61,45,47,27,12,10,0.5,0.5
2024-11-20T0000,1313A,120.4581,36.0858,青岛市,崂山区子站,,19,19,25,7,7,50,,61,36,26,28,9,9,0.6,0.6
2024-11-20T0000,1314A,120.1983,35.9608,青岛市,黄岛区子站,,19,19,29,10,12,49,,63,57,27,40,9,8,0.6,0.6
2024-11-20T0000,1315A,120.3999,36.3083,青岛市,城阳区子站,,46,46,39,22,15,8,,53,14,58,35,9,10,0.8,0.6
2024-11-20T0000,1966A,120.0405,35.8735,青岛市,黄岛区4号,,48,48,32,22,10,31,,72,48,50,34,9,9,0.5,0.5
2024-11-20T0000,3362A,120.5014,36.4034,青岛市,即墨2号,颗粒物(PM10),63,75,44,34,19,6,,60,15,59,31,9,8,0.7,0.5
2024-11-20T0000,3642A,120.3503,36.0736,青岛市,市北区南部,,31,31,32,9,8,43,,58,46,41,31,11,9,0.7,0.6
2024-11-20T0000,3643A,120.3948,36.1805,青岛市,李沧区北部,,41,41,39,27,19,13,,53,18,65,40,11,10,0.9,0.7
2024-11-20T0000,1702A,113.0426,23.691,清远市,环保大楼,,18,,10,12,9,45,,62,50,9,10,7,6,0.5,0.5
2024-11-20T0000,1703A,113.0208,23.7106,清远市,凤城街办,,16,13,13,8,7,50,,59,50,9,9,10,9,0.6,0.7
2024-11-20T0000,3025A,113.0477,23.6344,清远市,技师学院,,19,19,18,12,9,37,,55,41,10,11,9,9,0.7,0.5
2024-11-20T0000,3318A,112.9903,23.7403,清远市,清新太和,,17,13,10,7,6,52,,66,59,8,6,7,6,0.7,0.7
2024-11-20T0000,3455A,113.076,23.7198,清远市,清城东城,,15,15,12,9,7,39,,56,45,8,7,8,7,0.8,0.8
2024-11-20T0000,2661A,107.6325,35.7357,庆阳市,庆阳五中,,43,42,27,30,23,23,,34,22,27,26,7,9,0.4,0.4
2024-11-20T0000,2662A,107.6364,35.7067,庆阳市,市环保局,,48,48,35,28,23,21,,38,25,14,9,9,5,0.6,0.6
2024-11-20T0000,1916A,103.7897,25.5035,曲靖市,环境监测站,,48,48,38,24,21,52,,92,78,24,16,14,8,0.8,0.6
2024-11-20T0000,1917A,103.8,25.5364,曲靖市,烟厂办公区,细颗粒物(PM2.5),52,46,40,36,26,62,,94,80,21,23,6,8,0.5,0.5
2024-11-20T0000,3376A,103.7947,25.462,曲靖市,南苑二区,颗粒物(PM10),56,62,35,29,22,57,,98,85,17,9,20,9,0.9,0.6
2024-11-20T0000,3377A,103.7444,25.5261,曲靖市,曲靖师范学院,细颗粒物(PM2.5),57,52,38,40,29,43,,102,80,40,23,13,15,0.7,0.6
2024-11-20T0000,1264A,118.8692,28.9398,衢州市,环保大楼,,37,37,39,19,16,28,,38,32,26,22,4,4,0.4,0.4
2024-11-20T0000,1265A,118.8709,28.9666,衢州市,实验学校,,40,40,37,19,16,22,,37,31,30,21,3,4,0.5,0.5
2024-11-20T0000,1266A,118.8621,28.9808,衢州市,衢州学院,,39,39,39,22,17,26,,46,36,32,20,8,8,0.4,0.4
2024-11-20T0000,1611A,118.5819,24.9117,泉州市,涂山街,,16,,12,8,8,50,,66,49,8,8,3,2,0.4,0.4
2024-11-20T0000,1612A,118.5972,24.8978,泉州市,津头埔,,16,,12,7,8,49,,65,48,9,8,1,1,0.5,0.4
2024-11-20T0000,1613A,118.6663,24.9424,泉州市,万安,,15,7,15,3,7,48,,64,48,12,10,1,1,0.3,0.4
2024-11-20T0000,1614A,118.6117,24.9604,泉州市,清源山,,,,,,,,,,,,,,,,
2024-11-20T0000,3529A,118.6333,24.9264,泉州市,城华南路,,17,8,12,3,6,53,,65,52,3,5,3,2,0.2,0.2
2024-11-20T0000,2626A,88.8876,29.2718,日喀则市,日喀则监测站,,25,14,21,3,9,80,,83,79,10,19,6,5,0.5,0.6
2024-11-20T0000,3726A,88.8781,29.2426,日喀则市,林业技术推广中心,,26,15,21,3,5,82,,89,88,3,7,6,6,0.3,0.4
2024-11-20T0000,1659A,119.471,35.4209,日照市,监测站,,48,48,34,28,16,1,,55,21,58,37,6,6,1.1,0.5
2024-11-20T0000,1660A,119.523,35.4216,日照市,市政府广场,,46,46,32,21,13,4,,63,30,66,30,6,6,0.9,0.6
2024-11-20T0000,1661A,119.5587,35.4044,日照市,港务局,,46,46,35,26,15,11,,60,28,67,40,10,10,0.8,0.7
2024-11-20T0000,3507A,119.5328,35.4625,日照市,职业技术学院,,46,46,31,17,11,2,,66,33,68,31,5,5,0.6,0.4
2024-11-20T0000,3604A,119.3266,35.1044,日照市,岚山环保分局,颗粒物(PM10),57,63,40,31,16,10,,73,52,70,32,10,17,0.5,1.5
2024-11-20T0000,1835A,111.1922,34.7752,三门峡市,市政府,细颗粒物(PM2.5),58,,24,41,30,12,,46,26,32,20,6,3,0.4,0.3
2024-11-20T0000,1836A,111.1587,34.7942,三门峡市,开发区,细颗粒物(PM2.5),68,58,45,49,36,20,,44,33,21,16,3,3,0.4,0.3
2024-11-20T0000,1838A,111.143,34.7955,三门峡市,风景区,细颗粒物(PM2.5),64,,27,46,33,21,,46,35,22,18,12,9,0.5,0.5
2024-11-20T0000,3039A,111.1911,34.7829,三门峡市,三门峡市第一小学,细颗粒物(PM2.5),68,,27,49,34,14,,45,30,27,14,7,5,0.6,0.5
2024-11-20T0000,3598A,111.1,34.7167,三门峡市,富达温泉假日酒店,细颗粒物(PM2.5),67,55,38,48,31,14,,40,28,31,22,3,3,0.8,0.7
2024-11-20T0000,2324A,117.6211,26.2625,三明市,三钢,,29,20,14,20,13,32,,50,37,17,13,9,6,0.3,0.3
2024-11-20T0000,2325A,117.635,26.2714,三明市,三明二中,,18,18,14,12,7,29,,49,37,19,14,8,5,0.3,0.2
2024-11-20T0000,2326A,117.6028,26.2378,三明市,三元区政府,,22,22,15,14,7,36,,51,44,15,11,9,5,0.4,0.4
2024-11-20T0000,2327A,117.7275,26.3108,三明市,洋溪,,,,,,,,,,,,,,,,
2024-11-20T0000,1876A,109.5078,18.2489,三亚市,河东子站,,15,10,19,3,10,48,,90,60,8,7,2,2,0.5,0.6
2024-11-20T0000,1877A,109.4964,18.2681,三亚市,河西子站,,14,6,18,3,11,27,,85,55,27,10,4,4,0.4,0.5
2024-11-20T0000,3540A,109.7348,18.3443,三亚市,君悦子站,,13,11,30,3,11,40,,92,57,13,8,1,2,0.4,0.5
2024-11-20T0000,2624A,91.7608,29.2313,山南市,山南监测站,,25,10,25,7,8,78,,80,79,1,8,2,5,0.3,0.4
2024-11-20T0000,2625A,91.7706,29.2436,山南市,山南人民医院,,24,12,32,6,10,76,,81,80,1,7,4,5,0.5,0.5
2024-11-20T0000,1674A,116.6794,23.3667,汕头市,金平子站,,16,,17,7,11,50,,64,44,11,15,6,8,0.4,0.4
2024-11-20T0000,1675A,116.7244,23.3633,汕头市,龙湖子站,,13,12,17,7,7,41,,60,42,15,15,9,8,0.6,0.6
2024-11-20T0000,1676A,116.7258,23.2775,汕头市,濠江子站,,16,7,14,3,8,51,,70,56,7,9,3,3,0.5,0.5
2024-11-20T0000,1677A,116.7519,23.4714,汕头市,澄海子站,,15,9,14,3,7,48,,62,44,10,11,9,9,0.6,0.6
2024-11-20T0000,1678A,116.6092,23.2539,汕头市,潮阳子站,,13,9,20,9,9,40,,65,35,9,11,6,7,0.7,0.7
2024-11-20T0000,3444A,116.454,23.2684,汕头市,潮南峡山,,19,19,14,3,2,30,,60,40,13,12,8,7,0.7,0.5
2024-11-20T0000,3624A,116.4069,23.2533,汕头市,潮南子站,,10,10,20,3,10,31,,56,33,14,16,6,7,0.6,0.6
2024-11-20T0000,1693A,115.3653,22.775,汕尾市,市环保局,,8,6,13,3,10,24,,33,24,9,11,6,6,0.7,0.8
