timepoint,stationcode,longitude,latitude,area,positionname,primarypollutant,aqi,pm10,pm10_24h,pm2_5,pm2_5_24h,o3,o3_24h,o3_8h,o3_8h_24h,no2,no2_24h,so2,so2_24h,co,co_24h
2026-01-01T0000,2566A,102.1879,31.914,阿坝藏族羌族自治州,州农科所,,,,,,,,,,,,,,,,
2026-01-01T0000,2568A,102.2502,31.8896,阿坝藏族羌族自治州,马师校,,32,,18,22,17,32,32,77,54,23,16,4,4,0.5,0.5
2026-01-01T0000,3994A,102.2165,31.9024,阿坝藏族羌族自治州,马尔康中学西区,,15,15,16,7,10,47,47,77,60,15,14,5,5,0.6,0.5
2026-01-01T0000,2695A,80.292,41.1694,阿克苏地区,电视台,"颗粒物(PM10),细颗粒物(PM2.5)",55,59,49,39,31,43,43,48,46,22,17,4,4,0.9,0.6
2026-01-01T0000,2696A,80.2613,41.1551,阿克苏地区,艺术中心,细颗粒物(PM2.5),57,52,47,40,35,42,42,54,48,21,12,3,4,0.5,0.5
2026-01-01T0000,2204A,105.6467,38.8363,阿拉善盟,西城区西花园,,,,,,,,,,,,,,,,
2026-01-01T0000,2205A,105.6985,38.8411,阿拉善盟,蒙二幼,,40,36,45,28,19,44,44,62,59,18,11,11,11,0.8,0.6
2026-01-01T0000,2206A,105.724,38.8516,阿拉善盟,环保局新楼,,35,35,40,24,19,45,45,54,52,15,12,10,10,0.6,0.6
2026-01-01T0000,2708A,88.1264,47.8517,阿勒泰地区,市站,细颗粒物(PM2.5),62,56,19,44,12,43,43,84,30,38,37,3,5,0.5,0.4
2026-01-01T0000,2630A,80.1161,32.5,阿里地区,阿里监测站,,20,6,3,3,3,61,61,77,72,12,7,13,10,0.5,0.4
2026-01-01T0000,3192A,80.0903,32.5028,阿里地区,阿里藏医院,,25,7,13,3,9,77,77,81,80,1,9,8,13,0.3,0.5
2026-01-01T0000,2642A,109.0318,32.6537,安康市,香溪洞,,,,,,,,,,,,,,,,
2026-01-01T0000,2644A,109.0072,32.6975,安康市,汉滨区检察院,,23,,53,8,44,72,72,98,69,9,13,4,4,0.4,0.6
2026-01-01T0000,4054A,109.0325,32.6913,安康市,市邮政管理局,,20,10,51,8,45,61,61,81,57,13,14,4,4,0.4,0.6
2026-01-01T0000,2291A,117.0809,30.5177,安庆市,环科院,颗粒物(PM10),56,62,61,28,31,52,52,69,58,8,11,6,6,0.3,0.4
2026-01-01T0000,2292A,117.0331,30.5119,安庆市,马山宾馆,颗粒物(PM10),56,61,60,30,33,56,56,71,62,13,16,4,5,0.8,0.8
2026-01-01T0000,2294A,116.9896,30.6145,安庆市,安庆大学,,48,48,60,25,33,53,53,73,60,10,15,3,4,0.4,0.6
2026-01-01T0000,3173A,117.0598,30.5351,安庆市,市人大,颗粒物(PM10),59,67,62,27,35,55,55,69,60,7,10,6,6,0.4,0.4
2026-01-01T0000,3122A,105.9606,26.2611,安顺市,伍家关,,32,28,31,22,25,30,30,50,29,9,8,16,10,1.0,0.8
2026-01-01T0000,3123A,105.9408,26.2431,安顺市,凤凰山,,50,40,35,35,30,30,30,58,29,15,14,8,8,1.0,0.8
2026-01-01T0000,3124A,105.9439,26.2564,安顺市,金钟山,,36,31,31,25,26,32,32,57,32,12,11,15,11,1.1,0.9
2026-01-01T0000,3125A,105.8983,26.2481,安顺市,娄家坡,,49,37,31,34,27,32,32,60,31,16,12,20,14,1.1,1
2026-01-01T0000,1818A,114.4839,36.0621,安阳市,棉研所,,,,,,,,,,,,,,,,
2026-01-01T0000,1819A,114.3551,36.1017,安阳市,红庙街,,39,39,46,19,22,22,22,39,27,28,25,4,5,0.6,0.6
2026-01-01T0000,1820A,114.361,36.0681,安阳市,银杏小区,,36,36,45,20,20,29,29,42,29,24,26,4,5,0.3,0.4
2026-01-01T0000,3141A,114.3922,36.0878,安阳市,信访局,,40,40,42,24,28,32,32,42,29,25,28,2,3,0.5,0.6
2026-01-01T0000,3669A,114.4705,36.0637,安阳市,左辅环卫站,,46,46,52,16,13,31,31,45,32,22,22,5,5,0.6,0.6
2026-01-01T0000,3703A,114.2917,36.0949,安阳市,安钢职工学校,颗粒物(PM10),51,51,48,25,21,20,20,37,26,30,28,4,6,0.3,0.5
2026-01-01T0000,1748A,123.044,41.1196,鞍山市,深沟寺,,31,31,26,18,14,27,27,40,26,19,17,7,9,0.9,0.7
2026-01-01T0000,1749A,123.011,41.0931,鞍山市,太阳城,,35,35,30,20,17,33,33,46,25,17,19,11,16,1.0,1
2026-01-01T0000,1750A,123.0485,41.1442,鞍山市,太平,,47,47,37,23,16,27,27,43,26,21,19,8,11,0.9,0.7
2026-01-01T0000,1751A,122.9642,41.0971,鞍山市,铁西三道街,颗粒物(PM10),56,61,37,29,17,22,22,48,22,28,18,46,20,1.0,0.8
2026-01-01T0000,1753A,123.022,41.0821,鞍山市,明达新区,,47,47,31,25,14,30,30,44,26,18,16,12,15,0.9,0.8
2026-01-01T0000,1754A,123.1289,41.0228,鞍山市,千山,,,,16,,8,,,45,27,,10,,4,,0.6
2026-01-01T0000,4201A,122.9446,41.0826,鞍山市,兴盛南路290号,颗粒物(PM10),58,65,48,30,23,10,10,42,10,46,36,11,11,1.6,1.2
2026-01-01T0000,2195A,107.4212,40.761,巴彦淖尔市,附二中,细颗粒物(PM2.5),105,99,45,79,27,9,9,53,34,57,17,11,10,0.7,0.4
2026-01-01T0000,2196A,107.37,40.7372,巴彦淖尔市,市环保大楼,细颗粒物(PM2.5),223,220,44,173,25,12,12,59,31,50,21,12,11,0.6,0.5
2026-01-01T0000,1956A,86.1472,41.7538,巴音郭楞蒙古自治州,孔雀公园,细颗粒物(PM2.5),54,53,55,38,36,27,27,48,32,34,22,7,7,0.6,0.6
2026-01-01T0000,1957A,86.1972,41.7166,巴音郭楞蒙古自治州,棉纺厂,颗粒物(PM10),63,75,69,25,26,15,15,47,40,49,27,5,5,0.6,0.6
2026-01-01T0000,1958A,86.2357,41.7173,巴音郭楞蒙古自治州,经济开发区,,44,44,49,23,24,37,37,41,41,14,14,5,5,0.5,0.5
2026-01-01T0000,2914A,106.7677,31.8794,巴中市,苏山坪,,,,,,,,,,,,,,,,
2026-01-01T0000,3181A,106.7768,31.8526,巴中市,市五中,细颗粒物(PM2.5),70,58,69,51,55,16,16,41,31,14,17,5,6,1.0,1.2
2026-01-01T0000,3183A,106.7418,31.8654,巴中市,圣泉水务公司,,20,18,49,14,42,43,43,53,38,19,19,5,5,0.7,0.8
2026-01-01T0000,3616A,106.7616,31.8344,巴中市,市中心医院,,30,27,61,21,52,23,23,50,28,24,22,6,7,1.0,1.1
2026-01-01T0000,2235A,122.7911,45.6077,白城市,洮北区环保局,细颗粒物(PM2.5),128,110,33,97,32,8,8,43,19,40,18,5,4,0.7,0.3
2026-01-01T0000,2236A,122.8738,45.5725,白城市,市环保局,细颗粒物(PM2.5),58,44,37,41,27,17,17,44,15,31,21,5,6,0.5,0.4
2026-01-01T0000,2231A,126.4219,41.9171,白山市,喜丰,颗粒物(PM10),56,62,52,31,26,21,21,50,30,28,24,11,12,0.7,0.7
2026-01-01T0000,2232A,126.4077,41.9419,白山市,环保局,细颗粒物(PM2.5),53,49,43,37,26,21,21,45,32,16,13,10,11,0.5,0.6
2026-01-01T0000,2647A,104.1724,36.5446,白银市,第三小学,细颗粒物(PM2.5),60,44,42,43,32,39,39,55,50,24,20,6,9,0.8,0.7
2026-01-01T0000,2648A,104.1465,36.5482,白银市,动力公司,,36,,37,25,30,62,62,62,62,11,15,2,5,0.4,0.5
2026-01-01T0000,2512A,106.6103,23.9011,百色市,市监测站,颗粒物(PM10),53,55,65,36,45,88,88,88,81,18,21,14,14,0.8,0.8
2026-01-01T0000,2513A,106.6538,23.8859,百色市,市中心血站,细颗粒物(PM2.5),62,58,66,44,47,99,99,95,88,23,23,14,16,0.8,1
2026-01-01T0000,3406A,106.6085,23.8798,百色市,祈福高中,颗粒物(PM10),56,62,73,36,47,81,81,84,74,21,26,17,10,0.8,0.8
2026-01-01T0000,2270A,117.396,32.939,蚌埠市,工人疗养院,,25,25,48,17,24,47,47,56,53,10,14,4,4,0.2,0.4
2026-01-01T0000,2271A,117.3605,32.9427,蚌埠市,百货大楼,,35,27,40,24,23,46,46,55,52,9,13,3,4,0.2,0.3
2026-01-01T0000,2273A,117.4185,32.8911,蚌埠市,蚌埠学院,,29,,36,20,22,45,45,54,50,18,26,3,4,0.3,0.3
2026-01-01T0000,2274A,117.3533,32.9673,蚌埠市,淮上区政府,,24,24,43,14,26,48,48,59,56,10,13,3,1,0.4,0.4
2026-01-01T0000,2275A,117.3145,32.8977,蚌埠市,高新区,,23,22,36,16,22,48,48,55,52,12,15,5,6,0.2,0.3
2026-01-01T0000,3715A,117.3092,32.9314,蚌埠市,蚌埠田家炳中学,,26,26,44,17,26,49,49,57,55,11,14,3,3,0.3,0.3
2026-01-01T0000,1585A,109.8756,40.6532,包头市,市环境监测站,颗粒物(PM10),57,63,42,21,18,46,46,48,28,19,36,11,18,0.6,1
2026-01-01T0000,1587A,109.9991,40.5842,包头市,包头八中,颗粒物(PM10),69,88,49,45,24,3,3,48,17,67,45,9,12,1.8,1.3
2026-01-01T0000,1588A,109.8538,40.6821,包头市,青山宾馆,颗粒物(PM10),60,69,50,16,24,41,41,50,24,16,37,13,24,0.7,1.4
2026-01-01T0000,1589A,109.8642,40.6288,包头市,惠龙物流,颗粒物(PM10),52,53,35,8,16,49,49,48,31,17,33,12,18,0.4,0.9
2026-01-01T0000,1590A,110.0377,40.5546,包头市,东河鸿龙湾,细颗粒物(PM2.5),113,120,33,85,18,6,6,60,23,68,41,11,13,1.3,0.8
2026-01-01T0000,3283A,109.9154,40.5685,包头市,滨河大厦,"颗粒物(PM10),细颗粒物(PM2.5)",74,98,32,54,21,6,6,56,22,44,29,7,7,1.2,0.9
2026-01-01T0000,3419A,109.9447,40.6261,包头市,包头市委党校,颗粒物(PM10),71,91,51,51,21,3,3,44,17,61,48,12,13,1.1,1.1
2026-01-01T0000,3683A,109.8331,40.6576,包头市,昆区政府,,50,50,41,18,19,49,49,58,36,18,33,14,25,0.6,1.1
2026-01-01T0000,1930A,107.185,34.3063,宝鸡市,庙沟村,,,,,,,,,,,,,,,,
2026-01-01T0000,1931A,107.0708,34.3017,宝鸡市,竹园沟,细颗粒物(PM2.5),63,,67,45,73,42,42,40,40,18,25,5,5,0.6,1
2026-01-01T0000,1932A,107.1906,34.3672,宝鸡市,三陆医院,细颗粒物(PM2.5),70,,80,51,85,43,43,41,41,17,35,4,4,0.5,1
2026-01-01T0000,1933A,107.1431,34.3547,宝鸡市,监测站,细颗粒物(PM2.5),65,,71,47,80,47,47,47,42,18,29,3,4,0.6,1
2026-01-01T0000,1934A,107.1186,34.3739,宝鸡市,技工学校,细颗粒物(PM2.5),74,,69,54,83,43,43,44,41,16,26,2,2,0.7,1.1
2026-01-01T0000,1936A,107.2058,34.3497,宝鸡市,文理学院,细颗粒物(PM2.5),63,,68,45,79,47,47,54,43,18,27,3,3,0.7,1
2026-01-01T0000,1937A,107.2386,34.3622,宝鸡市,三迪小学,细颗粒物(PM2.5),73,,72,53,88,43,43,51,40,19,30,2,2,0.8,1.2
2026-01-01T0000,4308A,107.3898,34.3601,宝鸡市,陈仓区北开路21号,细颗粒物(PM2.5),67,,72,48,78,49,49,48,41,16,29,4,5,0.8,1
2026-01-01T0000,1051A,115.493,38.8632,保定市,游泳馆,,50,50,31,32,9,16,16,52,33,38,15,5,2,0.5,0.4
2026-01-01T0000,1052A,115.5213,38.8959,保定市,华电二区,,43,36,29,30,21,23,23,50,36,29,19,3,2,0.6,0.4
2026-01-01T0000,1053A,115.4713,38.9108,保定市,接待中心,"颗粒物(PM10),细颗粒物(PM2.5)",52,54,30,36,11,17,17,46,29,31,17,2,2,0.5,0.3
2026-01-01T0000,1054A,115.4612,38.8416,保定市,地表水厂,颗粒物(PM10),63,76,41,42,16,8,8,54,28,56,26,4,2,0.7,0.4
2026-01-01T0000,3581A,115.31981,38.95208,保定市,满城区生态环境分局,颗粒物(PM10),63,75,41,39,15,6,6,49,20,52,37,6,4,0.6,0.4
2026-01-01T0000,3582A,115.47694,38.76408,保定市,清苑区第二中学,颗粒物(PM10),59,68,44,35,13,3,3,45,24,57,27,8,4,0.5,0.3
2026-01-01T0000,3583A,115.62909,39.02311,保定市,徐水物探局,颗粒物(PM10),59,67,36,34,16,5,5,50,12,54,34,5,2,0.6,0.4
2026-01-01T0000,4004A,115.4202,38.8656,保定市,双鹰农机,颗粒物(PM10),62,74,24,32,15,10,10,55,28,49,21,9,11,0.6,0.2
2026-01-01T0000,4034A,115.5150,38.8590,保定市,植保所站,,49,49,34,30,16,15,15,46,27,46,26,1,2,0.4,0.3
2026-01-01T0000,2594A,99.1678,25.1081,保山市,市环境监测站,,28,28,21,16,18,50,50,79,65,10,9,4,3,0.3,0.2
2026-01-01T0000,2595A,99.1711,25.1328,保山市,市环保局,,28,25,27,19,21,65,65,83,74,3,6,4,4,0.2,0.4
2026-01-01T0000,1866A,109.2262,21.588,北海市,牛尾岭水库,细颗粒物(PM2.5),78,,55,57,58,104,104,142,120,15,16,6,13,0.6,0.6
2026-01-01T0000,1867A,109.1436,21.4086,北海市,海滩公园,,43,43,56,29,41,130,130,157,153,14,15,10,11,0.7,0.8
2026-01-01T0000,1868A,109.0981,21.4661,北海市,新市环保局,,45,43,53,31,45,128,128,151,148,14,17,6,6,0.6,0.7
2026-01-01T0000,1869A,109.1778,21.5233,北海市,北海工业园,颗粒物(PM10),57,64,77,34,55,113,113,146,135,15,20,8,13,0.7,0.7
2026-01-01T0000,3400A,109.1911,21.4415,北海市,龙潭自来水厂,,45,45,55,30,48,127,127,153,149,9,14,8,8,0.9,1
2026-01-01T0000,1001A,116.3621,39.8784,北京市,万寿西宫,,,,20,,8,,,54,23,,19,,2,,0.4
2026-01-01T0000,1002A,116.2202,40.2915,北京市,定陵,,,,,,,,,,,,,,,,
2026-01-01T0000,1003A,116.4174,39.9289,北京市,东四,,42,42,18,21,8,17,17,50,28,34,16,2,2,0.5,0.4
2026-01-01T0000,1004A,116.4072,39.8863,北京市,天坛,,42,42,16,20,7,13,13,54,25,37,16,2,2,0.4,0.3
2026-01-01T0000,1005A,116.462,39.9365,北京市,农展馆,,43,43,16,25,11,24,24,55,30,26,13,4,4,0.5,0.4
2026-01-01T0000,1006A,116.3392,39.9295,北京市,官园,,50,50,20,24,8,13,13,50,22,42,18,3,4,0.5,0.4
2026-01-01T0000,1007A,116.2878,39.9611,北京市,海淀万柳,,47,47,20,23,10,11,11,47,19,44,24,3,2,0.4,0.3
2026-01-01T0000,1008A,116.6636,40.135,北京市,顺义新城,,41,41,16,18,6,3,3,60,30,44,12,4,4,0.6,0.3
2026-01-01T0000,1009A,116.6275,40.3275,北京市,怀柔镇,,20,20,11,12,6,25,25,56,41,22,8,6,6,0.5,0.3
2026-01-01T0000,1010A,116.2296,40.217,北京市,昌平镇,,23,23,16,10,6,33,33,54,38,12,8,4,4,0.4,0.4
2026-01-01T0000,1011A,116.3966,39.9821,北京市,奥体中心,,40,40,17,21,8,15,15,52,25,48,23,5,4,0.6,0.5
2026-01-01T0000,3281A,115.9718,40.4529,北京市,延庆夏都,颗粒物(PM10),51,52,23,32,13,9,9,58,32,31,16,2,3,0.7,0.4
2026-01-01T0000,3418A,116.8336,40.4095,北京市,密云新城,,,,11,,5,,,60,37,,6,,3,,0.4
2026-01-01T0000,3671A,116.088,39.9726,北京市,门头沟三家店,,40,40,24,17,10,2,2,49,12,37,19,2,3,0.5,0.4
2026-01-01T0000,3672A,116.1541,39.8204,北京市,丰台云岗,颗粒物(PM10),72,94,33,26,10,1,1,48,11,51,26,2,2,0.5,0.4
2026-01-01T0000,3673A,116.6804,39.9081,北京市,通州东关,,45,45,19,19,7,16,16,53,24,38,16,3,3,0.3,0.2
2026-01-01T0000,3674A,115.9577,39.7603,北京市,房山燕山,,35,35,24,18,8,12,12,47,22,30,18,3,3,0.3,0.2
2026-01-01T0000,3675A,116.4672,39.7733,北京市,大兴旧宫,,,,20,,5,,,50,18,,21,,2,,0.3
2026-01-01T0000,3694A,115.986,40.4563,北京市,延庆石河营,颗粒物(PM10),60,69,25,42,12,4,4,54,23,31,18,2,3,1.1,0.4
2026-01-01T0000,3695A,116.6151,40.3053,北京市,怀柔新城,,25,20,10,17,8,29,29,53,42,18,7,4,4,0.3,0.3
2026-01-01T0000,3696A,116.2545,39.8768,北京市,丰台小屯,颗粒物(PM10),55,59,22,24,8,2,2,44,11,49,22,3,3,0.6,0.4
2026-01-01T0000,3697A,116.84,40.3844,北京市,密云镇,,,,15,,5,,,61,25,,12,,1,,0.4
2026-01-01T0000,4182A,116.1942,39.9158,北京市,八角北路9号,颗粒物(PM10),51,52,27,16,8,4,4,43,15,46,20,2,2,0.3,0.1
2026-01-01T0000,4194A,117.0790,40.1518,北京市,洳河巡河路,,,,10,,7,,,52,36,,7,,1,,0.3
2026-01-01T0000,1761A,123.8275,41.3064,本溪市,大峪,颗粒物(PM10),58,66,34,28,17,3,3,39,16,38,26,8,9,1.0,0.9
2026-01-01T0000,1762A,123.7567,41.3325,本溪市,溪湖,颗粒物(PM10),66,81,53,42,23,5,5,44,15,42,25,8,9,1.2,0.9
2026-01-01T0000,1763A,123.7169,41.3094,本溪市,彩屯,颗粒物(PM10),68,86,37,32,17,10,10,44,11,36,23,12,9,1.2,0.7
2026-01-01T0000,1764A,123.7669,41.2864,本溪市,东明,细颗粒物(PM2.5),85,90,36,63,23,4,4,42,15,39,21,8,10,1.4,1
2026-01-01T0000,1765A,123.7992,41.2664,本溪市,新立屯,,27,27,25,11,12,13,13,39,15,26,20,8,10,0.9,0.8
2026-01-01T0000,1766A,123.8142,41.3472,本溪市,威宁,颗粒物(PM10),58,65,54,30,28,9,9,38,11,35,28,5,7,1.1,0.9
2026-01-01T0000,2587A,105.2864,27.3125,毕节市,八中,,38,34,23,26,17,52,52,42,42,6,10,8,8,0.7,0.8
2026-01-01T0000,2588A,105.31,27.2944,毕节市,师专,,29,27,19,20,13,57,57,48,48,7,10,7,8,0.7,0.8
2026-01-01T0000,4263A,105.3688,27.3598,毕节市,工业大道,,38,32,18,26,15,43,43,46,42,7,10,9,9,0.7,0.8
2026-01-01T0000,1629A,118.0018,37.3617,滨州市,第二水厂,,27,27,20,13,10,33,33,50,39,20,19,14,10,0.6,0.5
2026-01-01T0000,1630A,117.9776,37.393,滨州市,北中新校,,24,24,29,14,10,24,24,52,30,20,26,8,7,0.5,0.4
2026-01-01T0000,3514A,117.9378,37.3956,滨州市,中海酒店,,39,29,21,27,14,16,16,58,35,43,23,10,7,0.6,0.5
2026-01-01T0000,3515A,117.9378,37.3553,滨州市,开发区一中,,27,27,24,12,8,39,39,56,44,14,14,12,10,0.5,0.4
2026-01-01T0000,3516A,118.0917,37.694,滨州市,金海六路,,28,27,19,19,5,11,11,61,26,48,21,10,7,0.7,0.5
2026-01-01T0000,4028A,117.9956,37.3753,滨州市,滨州市西街道办事处,,20,19,17,14,14,32,32,56,40,21,18,11,9,0.5,0.4
2026-01-01T0000,2311A,115.8072,33.8399,亳州市,污水处理厂,,31,31,75,19,55,48,48,56,54,19,24,4,6,0.3,0.5
2026-01-01T0000,2312A,115.7789,33.8518,亳州市,三国揽胜宫,,39,39,92,24,54,46,46,51,50,12,20,2,3,0.5,0.7
2026-01-01T0000,3332A,115.7633,33.8034,亳州市,亳州学院,,38,34,80,26,59,50,50,55,54,15,21,4,5,0.4,0.6
2026-01-01T0000,2693A,82.0485,44.8556,博尔塔拉蒙古自治州,市党校,颗粒物(PM10),63,75,89,35,48,66,66,46,37,9,22,2,4,0,0.6
2026-01-01T0000,2694A,82.0806,44.8969,博尔塔拉蒙古自治州,市环保局,颗粒物(PM10),66,82,85,42,43,44,44,44,35,25,24,21,7,0.8,0.9
2026-01-01T0000,1071A,116.8842,38.2991,沧州市,沧县城建局,,45,45,35,28,16,25,25,57,31,36,32,4,3,0.5,0.4
2026-01-01T0000,1072A,116.8584,38.3254,沧州市,电视转播站,颗粒物(PM10),54,57,38,31,16,10,10,54,22,46,39,4,3,0.5,0.5
2026-01-01T0000,1073A,116.8709,38.3228,沧州市,市环保局,细颗粒物(PM2.5),54,51,39,38,26,15,15,44,22,33,28,6,4,0.5,0.3
2026-01-01T0000,3324A,116.8136,38.3004,沧州市,河北水利电力学院,颗粒物(PM10),51,51,26,23,14,5,5,51,22,57,34,8,4,0.6,0.4
2026-01-01T0000,2622A,97.1806,31.1273,昌都市,昌都监测站,颗粒物(PM10),67,83,45,31,15,30,30,89,63,37,20,5,2,0.9,0.6
2026-01-01T0000,3719A,97.1714,31.1406,昌都市,昌都会议中心,,30,27,19,21,12,54,54,87,72,12,8,5,4,0.8,0.5
2026-01-01T0000,2690A,88.1236,43.8886,昌吉回族自治州,天山天池,,,,,,,,,,,,,,,,
2026-01-01T0000,2692A,87.2717,44.0297,昌吉回族自治州,新区政务中心,细颗粒物(PM2.5),69,84,78,50,47,7,7,45,33,61,26,3,6,1.1,0.9
2026-01-01T0000,3613A,87.3095,44.0142,昌吉回族自治州,亚心广场,细颗粒物(PM2.5),73,70,84,53,58,43,43,46,41,21,14,6,7,1.0,1
2026-01-01T0000,1120A,125.2863,43.9027,长春市,客车厂,细颗粒物(PM2.5),82,73,44,60,37,14,14,34,16,41,29,13,9,0.7,0.6
2026-01-01T0000,1121A,125.2841,43.8463,长春市,邮电学院,细颗粒物(PM2.5),72,80,44,52,31,6,6,36,16,43,23,21,10,0.7,0.5
2026-01-01T0000,1122A,125.3716,43.8772,长春市,劳动公园,细颗粒物(PM2.5),87,82,37,64,24,6,6,34,17,46,24,10,9,1.0,0.7
2026-01-01T0000,1123A,125.3297,43.8805,长春市,园林处,细颗粒物(PM2.5),85,64,43,63,32,6,6,33,15,40,22,9,12,0.5,0.5
2026-01-01T0000,1124A,125.4605,43.79,长春市,净月潭,颗粒物(PM10),63,75,40,34,22,10,10,36,22,30,21,5,6,0.7,0.4
2026-01-01T0000,1125A,125.7194,43.515,长春市,甩湾子,,,,43,,35,,,40,24,,15,,5,,0.7
2026-01-01T0000,1126A,125.3863,43.8447,长春市,经开区环卫处,细颗粒物(PM2.5),108,142,52,81,28,4,4,37,,46,31,9,13,0.9,0.5
2026-01-01T0000,1127A,125.245,43.7783,长春市,高新区管委会,细颗粒物(PM2.5),87,81,50,64,40,5,5,40,14,46,27,8,7,1.1,0.7
2026-01-01T0000,1128A,125.1761,43.8325,长春市,岱山公园,细颗粒物(PM2.5),89,84,47,66,35,4,4,37,9,50,29,13,9,0.9,0.6
2026-01-01T0000,4281A,125.3346,43.9164,长春市,北亚泰大街1068号,细颗粒物(PM2.5),78,65,43,57,34,8,8,33,10,38,28,11,8,0.8,0.7
2026-01-01T0000,1335A,113.0833,28.2325,长沙市,经开区环保局,,13,10,130,9,114,41,41,36,33,10,27,3,4,0.3,0.7
2026-01-01T0000,1336A,112.8872,28.2189,长沙市,高开区环保局,,19,19,122,9,110,26,26,39,35,13,15,4,5,0.7,1
2026-01-01T0000,1337A,113.0792,28.2053,长沙市,马坡岭,,,10,138,9,109,46,46,41,37,12,32,3,5,,0.6
2026-01-01T0000,1338A,112.9394,28.19,长沙市,湖南师范大学,,15,10,139,10,100,40,40,47,44,10,21,1,2,0.6,0.9
2026-01-01T0000,1339A,113.0178,28.1322,长沙市,雨花区环保局,,19,,130,13,115,46,46,41,40,8,26,6,8,0.4,0.9
2026-01-01T0000,1340A,112.9792,28.2597,长沙市,伍家岭,,18,,139,12,105,44,44,43,41,15,29,4,6,0.1,0.5
2026-01-01T0000,1341A,113.0014,28.1944,长沙市,火车新站,,14,,143,9,104,44,44,42,41,3,18,7,8,0.4,0.8
2026-01-01T0000,1342A,112.9844,28.1178,长沙市,天心区环保局,,18,,141,12,113,47,47,46,44,15,26,6,7,0.3,0.7
2026-01-01T0000,1343A,112.8908,28.1308,长沙市,湖南中医药大学,,,,141,12,110,,,46,41,,21,5,6,0.6,1
2026-01-01T0000,1344A,112.9581,28.3611,长沙市,沙坪,,,,,,,,,,,,,,,,
2026-01-01T0000,1727A,113.1147,36.1547,长治市,清华站,细颗粒物(PM2.5),138,,36,105,28,30,30,64,46,26,18,13,9,1.0,0.5
2026-01-01T0000,1730A,113.0886,36.2125,长治市,审计局,细颗粒物(PM2.5),62,,34,44,23,37,37,60,46,21,16,8,8,1.0,0.7
2026-01-01T0000,1731A,113.0844,36.1856,长治市,长治八中,细颗粒物(PM2.5),74,,46,54,34,39,39,61,45,14,14,8,8,1.0,0.6
2026-01-01T0000,2845A,113.1569,36.1911,长治市,德盛苑,细颗粒物(PM2.5),79,,32,58,28,33,33,64,47,15,10,9,7,0.9,0.7
2026-01-01T0000,3568A,113.06,36.0464,长治市,向阳小学,颗粒物(PM10),57,64,66,36,39,39,39,61,41,25,24,11,7,1.1,0.8
2026-01-01T0000,3569A,112.8792,36.3144,长治市,屯留一中,细颗粒物(PM2.5),57,42,52,40,31,42,42,56,45,20,26,15,10,0.5,0.6
2026-01-01T0000,4189A,113.1131,36.19948,长治市,英华南巷50号,细颗粒物(PM2.5),70,80,40,51,30,37,37,62,46,17,14,7,6,1.2,0.8
2026-01-01T0000,4190A,113.2367,36.3344,长治市,学府街1号,,,40,31,32,17,,,60,,19,18,14,13,1.7,0.9
2026-01-01T0000,1854A,111.6975,28.9703,常德市,市二中,,40,36,108,28,86,32,32,69,33,21,18,4,5,0.6,0.8
2026-01-01T0000,1857A,111.7158,29.1456,常德市,白鹤山,,,,,,,,,,,,,,,,
2026-01-01T0000,3138A,111.7153,29.0289,常德市,武陵区永安,,36,33,110,25,82,31,31,67,31,28,22,3,4,0.7,0.9
2026-01-01T0000,3139A,111.6892,28.9881,常德市,鼎城区玉霞,,38,27,102,26,86,32,32,68,33,24,22,6,8,0.6,0.8
2026-01-01T0000,3140A,111.6625,29.0531,常德市,武陵区长庚,,38,37,110,26,85,33,33,64,31,21,19,3,4,0.7,0.8
2026-01-01T0000,1196A,119.9633,31.762,常州市,市监测站,,21,21,28,14,15,57,57,67,59,16,24,5,6,0.3,0.4
2026-01-01T0000,1200A,119.9468,31.7069,常州市,武进监测站,,21,21,26,14,16,58,58,65,60,14,23,9,9,0.2,0.2
2026-01-01T0000,1201A,119.9255,31.9087,常州市,安家,,27,27,34,10,17,50,50,63,58,10,19,10,11,0.5,0.7
2026-01-01T0000,3002A,119.9805,31.8174,常州市,行政中心,,24,24,36,11,14,59,59,70,63,11,21,4,6,0.3,0.4
2026-01-01T0000,3003A,120.0522,31.7748,常州市,经开区,,22,22,30,8,13,54,54,67,60,11,25,5,4,0.5,0.4
2026-01-01T0000,3010A,119.9025,31.7964,常州市,钟楼,,23,23,28,7,12,57,57,66,61,11,19,5,7,0.1,0.2
2026-01-01T0000,3429A,119.8598,31.7066,常州市,武进经发区,,24,24,29,9,13,56,56,66,58,13,21,7,7,0.4,0.4
2026-01-01T0000,3430A,119.5826,31.7245,常州市,金坛城区,,30,30,32,13,16,55,55,63,59,11,20,6,7,0.4,0.5
2026-01-01T0000,2220A,120.4318,41.5881,朝阳市,西梁,细颗粒物(PM2.5),130,148,53,99,37,2,2,52,7,48,24,18,9,1.9,0.7
2026-01-01T0000,2221A,120.4521,41.5646,朝阳市,河畔小区,细颗粒物(PM2.5),110,128,34,83,27,5,5,50,18,44,19,13,8,1.2,0.6
2026-01-01T0000,2222A,120.4176,41.5648,朝阳市,八里堡,细颗粒物(PM2.5),88,79,39,65,28,3,3,50,12,44,21,14,9,1.2,0.7
2026-01-01T0000,2223A,120.3806,41.5969,朝阳市,农业园区,细颗粒物(PM2.5),82,83,24,60,17,4,4,56,22,48,16,10,7,1.1,0.5
2026-01-01T0000,1705A,116.6367,23.6719,潮州市,西园路,,,,,,,,,,,,,,,,
2026-01-01T0000,3026A,116.6183,23.6608,潮州市,市政府,,50,50,57,26,32,73,73,100,78,16,22,8,12,0.4,0.5
2026-01-01T0000,4036A,116.6461,23.6761,潮州市,金山,,43,43,42,28,29,77,77,98,82,14,15,4,5,0.3,0.4
2026-01-01T0000,2472A,113.0073,25.9061,郴州市,马头岭,,,,,,,,,,,,,,,,
2026-01-01T0000,2473A,113.0116,25.8226,郴州市,市职中,细颗粒物(PM2.5),129,105,107,98,100,40,40,89,65,14,24,4,8,0.7,0.9
2026-01-01T0000,2475A,113.0383,25.8071,郴州市,市审计局,细颗粒物(PM2.5),153,123,117,117,102,41,41,92,70,14,22,2,7,0.6,0.7
2026-01-01T0000,2476A,113.0348,25.7759,郴州市,市环保局,细颗粒物(PM2.5),132,134,126,100,99,39,39,90,66,20,30,3,12,0.7,0.9
2026-01-01T0000,4252A,113.0138,25.8011,郴州市,好美居路49号,细颗粒物(PM2.5),172,,114,130,110,47,47,95,71,17,31,3,10,0.6,0.7
2026-01-01T0000,1431A,103.9728,30.7236,成都市,金泉两河,,38,34,72,26,64,52,52,50,50,23,28,2,2,0.6,0.7
2026-01-01T0000,1432A,104.176,30.6872,成都市,十里店,,42,33,88,29,72,63,63,58,58,18,24,3,3,0.6,0.6
2026-01-01T0000,1433A,104.079,30.5706,成都市,三瓦窑,,45,34,85,31,72,61,61,55,55,20,28,3,3,0.6,0.7
2026-01-01T0000,1434A,104.1114,30.63,成都市,沙河铺,细颗粒物(PM2.5),55,45,102,39,86,52,52,47,47,22,29,4,4,0.6,0.8
2026-01-01T0000,1437A,104.0786,30.6531,成都市,君平街,,43,,99,30,81,62,62,55,55,16,24,3,3,0.7,0.8
2026-01-01T0000,1438A,103.613,31.0283,成都市,灵岩寺,,,,,,,,,,,,,,,,
2026-01-01T0000,2880A,104.0239,30.65639,成都市,大石西路,,28,27,85,19,66,61,61,52,52,17,26,4,4,0.5,0.6
2026-01-01T0000,3136A,104.2725,30.5589,成都市,龙泉驿区区政府,,45,39,75,31,62,33,33,28,28,18,24,7,6,0.5,0.6
2026-01-01T0000,3357A,104.0106,30.6931,成都市,金博路,,22,22,70,13,52,60,60,54,54,22,28,4,5,0.6,0.8
2026-01-01T0000,3359A,104.0578,30.5225,成都市,华阳,,32,29,71,22,54,55,55,47,47,21,28,2,3,0.5,0.6
2026-01-01T0000,3488A,104.3880,30.7467,成都市,青石路225号,,38,27,88,26,79,61,61,53,53,15,26,5,5,0.5,0.7
2026-01-01T0000,3489A,104.0789,30.4072,成都市,科学城,,23,19,68,16,58,58,58,46,46,12,21,6,6,0.6,0.7
2026-01-01T0000,4011A,103.8506,30.6947,成都市,光华大道三段,,40,40,71,24,59,50,50,55,55,20,23,3,3,0.6,0.7
2026-01-01T0000,4224A,104.2433,30.5353,成都市,鲸龙路1057号,,32,26,70,22,61,50,50,40,38,19,26,6,5,0.7,0.9
2026-01-01T0000,1062A,117.9531,40.9081,承德市,铁路,,43,43,33,26,14,10,10,52,11,31,16,5,5,0.9,0.4
2026-01-01T0000,1063A,117.9392,40.9763,承德市,中国银行,颗粒物(PM10),59,68,27,27,10,7,7,53,21,30,12,2,2,0.7,0.4
2026-01-01T0000,1064A,117.9503,40.928,承德市,开发区,颗粒物(PM10),54,57,32,34,17,4,4,57,20,42,15,6,4,0.9,0.3
2026-01-01T0000,1066A,117.9268,41.0026,承德市,离宫,,,,,,,,,,,,,,,,
2026-01-01T0000,4274A,117.7994,40.9605,承德市,滨河大街98号,,33,33,19,21,11,12,12,54,19,33,13,2,4,0.4,0.3
2026-01-01T0000,2314A,117.47,30.6618,池州市,池州学院,颗粒物(PM10),52,53,41,31,28,47,47,68,59,21,19,5,4,0.4,0.4
2026-01-01T0000,3237A,117.4918,30.6617,池州市,展览馆,颗粒物(PM10),51,51,39,27,25,50,50,70,61,22,21,2,2,0.6,0.5
2026-01-01T0000,3333A,117.5627,30.695,池州市,第八中学,颗粒物(PM10),53,56,43,29,27,51,51,70,61,22,21,3,4,0.5,0.4
2026-01-01T0000,3334A,117.5038,30.6243,池州市,第十二中学,颗粒物(PM10),55,60,43,29,26,52,52,68,62,22,22,3,4,0.5,0.5
2026-01-01T0000,1744A,118.9233,42.2816,赤峰市,松山一中,,30,30,20,18,9,28,28,54,47,35,15,21,6,0.8,0.6
2026-01-01T0000,1745A,118.9576,42.2728,赤峰市,哈达街,细颗粒物(PM2.5),92,99,26,68,14,42,42,59,52,23,14,23,6,0.6,0.5
2026-01-01T0000,1746A,118.8788,42.2554,赤峰市,天义路,,17,13,17,10,13,52,52,55,52,11,10,5,6,0.5,0.5
2026-01-01T0000,3058A,119.2658,42.0353,赤峰市,银河街,,,,40,,21,8,8,57,32,35,13,20,11,2.0,0.9
2026-01-01T0000,3286A,118.9359,42.3147,赤峰市,桥北物流园区,,26,18,15,18,12,36,36,56,42,24,13,7,6,0.3,0.3
2026-01-01T0000,2521A,107.3476,22.4136,崇左市,市环保局江州分局,细颗粒物(PM2.5),79,69,71,58,49,56,56,89,83,37,23,8,9,0.7,0.7
2026-01-01T0000,4256A,107.3750,22.3736,崇左市,石景林东路7号,细颗粒物(PM2.5),54,53,53,38,42,77,77,92,89,22,20,8,8,0.5,0.6
2026-01-01T0000,2298A,118.3093,32.3153,滁州市,老年大学,,28,28,35,12,18,59,59,62,58,12,15,4,4,0.4,0.4
2026-01-01T0000,2299A,118.3244,32.2786,滁州市,人大宾馆,,25,25,33,8,13,60,60,64,59,4,12,5,5,0.4,0.3
2026-01-01T0000,3207A,118.3118,32.3038,滁州市,市政府原办公楼,,32,32,41,14,17,65,65,67,63,8,14,4,4,0.2,0.2
2026-01-01T0000,3331A,118.3267,32.2634,滁州市,图书馆,,24,24,27,8,10,60,60,65,60,4,11,7,7,0.4,0.2
2026-01-01T0000,2605A,101.5482,25.0441,楚雄彝族自治州,州环境监测站,颗粒物(PM10),61,72,22,40,14,9,9,68,46,48,19,8,9,0.7,0.6
2026-01-01T0000,2606A,101.538,25.0492,楚雄彝族自治州,市经济开发区,细颗粒物(PM2.5),60,63,26,43,17,16,16,76,52,42,17,8,6,0.7,0.4
2026-01-01T0000,2548A,107.5277,31.2827,达州市,达州职业技术学院,,,,,,,,,,,,,,,,
2026-01-01T0000,2549A,107.5086,31.2186,达州市,市环境监测站,,14,10,57,3,47,43,43,47,47,21,26,10,8,0.5,0.6
2026-01-01T0000,2550A,107.4988,31.2132,达州市,凤凰小区,,17,14,59,3,49,52,52,52,52,13,22,11,8,0.4,0.6
2026-01-01T0000,2551A,107.5082,31.1986,达州市,达县机关宾馆,,12,9,59,3,53,37,37,31,31,21,29,7,5,0.7,0.9
2026-01-01T0000,2552A,107.4644,31.2124,达州市,市政中心,,19,19,73,3,52,46,46,38,38,12,21,10,8,0.4,0.7
2026-01-01T0000,2614A,100.1542,25.7054,大理白族自治州,大理市环境监测站,,26,22,17,18,19,69,69,70,70,7,9,6,6,0.6,0.7
2026-01-01T0000,2615A,100.2171,25.5811,大理白族自治州,大理古城,细颗粒物(PM2.5),55,47,23,39,17,47,47,76,50,24,14,8,8,0.6,0.5
2026-01-01T0000,1109A,121.612,38.9741,大连市,甘井子,,28,23,23,19,11,35,35,53,42,23,12,7,8,0.7,0.4
2026-01-01T0000,1110A,121.565,38.9511,大连市,周水子,,45,,23,31,11,12,12,50,34,43,18,2,3,0.6,0.4
2026-01-01T0000,1111A,121.5637,38.8845,大连市,星海三站,,33,25,20,23,10,24,24,51,37,22,14,4,6,0.6,0.4
2026-01-01T0000,1112A,121.6302,38.9117,大连市,青泥洼桥,,27,27,21,14,9,26,26,44,33,23,16,8,9,0.4,0.3
2026-01-01T0000,1113A,121.6251,38.8638,大连市,傅家庄,,20,20,20,14,8,40,40,44,38,13,12,9,9,0.3,0.2
2026-01-01T0000,1114A,121.5213,38.8661,大连市,七贤岭,,26,26,24,17,10,16,16,48,34,36,16,17,8,0.5,0.5
2026-01-01T0000,1115A,121.2529,38.8061,大连市,旅顺,,20,20,18,14,11,44,44,53,43,10,7,6,7,0.4,0.3
2026-01-01T0000,1116A,121.7485,39.1311,大连市,金州,,17,14,22,7,11,53,53,53,44,10,13,7,8,0.3,0.3
2026-01-01T0000,1117A,121.7811,39.0496,大连市,开发区,,32,22,18,22,10,20,20,46,37,32,10,7,6,0.5,0.4
2026-01-01T0000,1118A,121.9762,39.0631,大连市,双D港,,16,14,22,7,9,49,49,54,46,6,9,8,10,0.4,0.4
2026-01-01T0000,1789A,124.81117,46.03138,大庆市,大同区,细颗粒物(PM2.5),52,42,31,36,20,25,25,40,27,19,11,5,5,0.3,0.3
2026-01-01T0000,1790A,125.129,46.533,大庆市,龙凤区,细颗粒物(PM2.5),64,54,25,46,22,23,23,35,23,29,22,12,7,0.8,0.7
2026-01-01T0000,1791A,124.902,46.408,大庆市,红岗区,,30,30,26,19,19,29,29,35,27,12,14,5,6,0.6,0.6
2026-01-01T0000,1792A,125.153,46.586,大庆市,萨尔图区,,39,37,26,27,14,38,38,39,35,13,15,6,8,0.4,0.6
2026-01-01T0000,1793A,124.9042,46.6215,大庆市,让胡路区,细颗粒物(PM2.5),57,42,26,40,24,35,35,40,33,12,8,21,8,0.4,0.3
2026-01-01T0000,3481A,125.141,46.634,大庆市,萨区政府监测点,颗粒物(PM10),51,52,28,24,17,20,20,37,18,25,18,8,9,0.7,0.6
2026-01-01T0000,1721A,113.3819,40.1097,大同市,果树场,细颗粒物(PM2.5),93,108,56,69,33,8,8,56,16,50,34,14,10,1.7,1
2026-01-01T0000,1723A,113.2994,40.0758,大同市,云冈宾馆,细颗粒物(PM2.5),105,93,50,79,25,7,7,42,15,48,30,14,10,1.5,1
2026-01-01T0000,1724A,113.3444,40.0917,大同市,大同大学,细颗粒物(PM2.5),109,100,39,82,25,13,13,54,20,46,26,23,10,1.3,0.7
2026-01-01T0000,1725A,113.2661,40.1269,大同市,安家小村,颗粒物(PM10),87,124,47,53,21,8,8,48,19,51,30,14,14,1.9,0.9
2026-01-01T0000,1726A,113.2711,40.0844,大同市,教育学院,细颗粒物(PM2.5),155,124,54,118,31,2,2,39,10,56,36,19,12,1.7,1
2026-01-01T0000,3282A,113.3397,40.0597,大同市,大同市卫生学校,细颗粒物(PM2.5),222,245,45,172,29,5,5,54,23,58,28,31,9,1.9,0.9
2026-01-01T0000,3565A,113.1367,40.1122,大同市,云冈站,颗粒物(PM10),59,68,39,41,19,3,3,52,13,42,29,14,14,1.1,0.9
2026-01-01T0000,3566A,113.1186,40.2556,大同市,图书馆,,46,41,33,32,21,17,17,55,34,21,15,4,7,1.4,1.2
2026-01-01T0000,3567A,113.5931,40.0461,大同市,区一中,细颗粒物(PM2.5),83,96,46,61,28,17,17,63,31,41,21,15,12,1.3,0.7
2026-01-01T0000,4199A,113.2798,40.0997,大同市,魏都大道141号,颗粒物(PM10),116,182,67,84,35,8,8,41,15,49,35,13,10,2.1,1.2
2026-01-01T0000,2269A,124.1069,50.4097,大兴安岭地区,科技局,,23,,21,16,17,45,45,43,43,1,2,5,6,0.2,0.3
2026-01-01T0000,3663A,124.1164,50.4278,大兴安岭地区,红旗社区,,22,,8,15,8,47,47,46,46,3,3,6,4,0.2,0.2
2026-01-01T0000,1600A,124.3303,40.0625,丹东市,江湾东路,,50,43,22,35,13,27,27,46,35,19,11,8,7,0.9,0.4
2026-01-01T0000,1601A,124.4256,40.1503,丹东市,临江后街,,28,28,24,15,12,32,32,45,36,15,14,7,8,0.8,0.7
2026-01-01T0000,1602A,124.3933,40.1461,丹东市,元宝山,,22,22,18,13,11,28,28,48,37,20,10,14,9,0.6,0.5
2026-01-01T0000,1603A,124.3633,40.1092,丹东市,民主桥,,49,43,28,34,11,29,29,46,35,18,12,10,8,0.7,0.4
2026-01-01T0000,3541A,109.5726,19.5167,儋州市,第一中学子站,,28,28,37,18,22,79,79,95,85,11,13,3,4,0.5,0.5
2026-01-01T0000,3542A,109.5567,19.5187,儋州市,东坡学校子站,,32,32,34,17,24,89,89,105,97,5,7,4,5,0.4,0.5
2026-01-01T0000,2616A,98.5842,24.428,德宏傣族景颇族自治州,德宏州监测站,细颗粒物(PM2.5),74,72,52,54,40,34,34,73,49,18,23,6,6,0.7,0.7
2026-01-01T0000,3677A,98.5881,24.4368,德宏傣族景颇族自治州,芒市人民政府综合楼,细颗粒物(PM2.5),64,64,50,46,31,29,29,70,49,30,29,8,9,0.8,0.7
2026-01-01T0000,1901A,104.4239,31.1208,德阳市,东山公园,细颗粒物(PM2.5),53,,71,37,66,54,54,58,58,11,20,3,3,0.7,0.8
2026-01-01T0000,1902A,104.3826,31.1317,德阳市,西小区,,45,42,91,31,71,49,49,55,54,24,24,2,3,0.8,1
2026-01-01T0000,1904A,104.3553,31.1091,德阳市,耐火材料厂,,36,36,74,25,69,43,43,51,49,25,28,1,2,0.7,0.9
2026-01-01T0000,3639A,104.4019,31.1244,德阳市,市教育局,,42,32,71,29,67,45,45,52,52,28,27,3,3,0.9,1
2026-01-01T0000,1622A,116.3032,37.4674,德州市,儿童乐园,细颗粒物(PM2.5),77,90,37,56,14,5,5,55,38,64,32,15,12,1.0,0.9
2026-01-01T0000,1624A,116.2991,37.4451,德州市,监理站,,41,41,24,27,8,48,48,66,54,28,31,14,13,0.6,0.7
2026-01-01T0000,3066A,116.2721,37.4379,德州市,九衢泉纯净水厂,细颗粒物(PM2.5),113,141,37,85,16,0,0,56,30,67,33,23,13,0.7,0.5
2026-01-01T0000,3371A,116.3728,37.4403,德州市,开发区人民医院,颗粒物(PM10),53,56,36,36,15,26,26,58,33,47,42,18,12,0.6,0.6
2026-01-01T0000,3511A,116.5652,37.3319,德州市,陵城艺术中心,,44,44,40,27,18,32,32,52,33,31,37,26,14,0.5,0.6
2026-01-01T0000,4292A,116.3525,37.4209,德州市,新河东路,细颗粒物(PM2.5),70,61,35,51,17,6,6,62,36,71,40,16,12,0.8,0.9
2026-01-01T0000,2621A,99.7056,27.8317,迪庆藏族自治州,迪庆州站,细颗粒物(PM2.5),57,54,34,40,22,47,47,80,65,22,15,7,6,0.8,0.6
2026-01-01T0000,3180A,99.7136,27.8094,迪庆藏族自治州,质量技术监督局,细颗粒物(PM2.5),89,69,35,66,25,43,43,88,65,32,19,8,5,1.0,0.6
2026-01-01T0000,4257A,104.6092,35.5962,定西市,将台街,细颗粒物(PM2.5),69,81,69,50,46,46,46,53,50,17,18,7,8,0.5,0.5
2026-01-01T0000,4309A,104.6159,35.5701,定西市,正龙路62号,细颗粒物(PM2.5),79,86,74,58,48,42,42,47,43,12,13,4,6,0.7,0.7
2026-01-01T0000,1389A,113.7547,23.0494,东莞市,莞城梨川,颗粒物(PM10),72,94,71,51,39,22,22,99,56,56,47,6,7,1.0,0.8
2026-01-01T0000,1390A,113.7944,23.0128,东莞市,东城石井,细颗粒物(PM2.5),63,73,63,45,40,11,11,103,53,59,52,8,9,0.9,0.8
2026-01-01T0000,1391A,113.7383,22.9658,东莞市,南城西平,细颗粒物(PM2.5),72,92,78,52,46,4,4,105,47,91,69,10,9,1.0,0.8
2026-01-01T0000,3319A,113.7338,23.0381,东莞市,万江金泰,细颗粒物(PM2.5),99,125,76,74,44,23,23,100,57,55,47,9,7,1.1,0.9
2026-01-01T0000,3626A,113.7533,23.0202,东莞市,南城元岭,细颗粒物(PM2.5),68,84,72,49,43,37,37,108,67,52,50,9,8,0.9,0.8
2026-01-01T0000,3627A,113.7875,23.0457,东莞市,东城主山,细颗粒物(PM2.5),84,101,72,62,43,4,4,100,52,84,54,7,9,0.7,0.6
2026-01-01T0000,1666A,118.6614,37.4309,东营市,市环保局,,29,29,19,14,7,34,34,55,39,28,22,8,8,0.7,0.6
2026-01-01T0000,3036A,118.6904,37.4338,东营市,开发区管委会,,30,30,21,14,8,30,30,59,40,30,16,11,10,0.8,0.7
2026-01-01T0000,3365A,118.5719,37.565,东营市,垦利区民丰路,,24,24,17,3,6,39,39,59,41,20,16,3,3,0.9,0.8
2026-01-01T0000,3498A,118.5055,37.8612,东营市,河口城区,,14,14,18,3,5,41,41,61,45,23,20,3,4,0.7,0.5
2026-01-01T0000,3646A,118.4978,37.4623,东营市,胜利站,,24,24,23,9,9,31,31,55,36,23,21,11,12,0.8,0.6
2026-01-01T0000,3734A,118.35,37.26,东营市,理想之城,,29,29,22,17,12,27,27,41,31,26,22,6,4,0.7,0.6
2026-01-01T0000,1591A,110.0023,39.8129,鄂尔多斯市,综合楼,细颗粒物(PM2.5),192,166,41,144,18,49,49,53,50,32,28,24,8,0.7,0.5
2026-01-01T0000,1592A,109.9486,39.8261,鄂尔多斯市,巴音孟克林场办事处,细颗粒物(PM2.5),128,117,41,97,18,29,29,59,38,44,24,18,10,0.6,0.4
2026-01-01T0000,1593A,109.7736,39.5986,鄂尔多斯市,康泽苑,,39,39,29,24,14,42,42,69,46,19,23,6,6,0.4,0.4
2026-01-01T0000,1594A,109.8119,39.5989,鄂尔多斯市,华泰汽车城,,39,39,33,22,13,2,2,68,30,51,28,2,4,0.7,0.4
2026-01-01T0000,1595A,109.9734,39.7884,鄂尔多斯市,奥林花园,细颗粒物(PM2.5),119,139,59,90,14,10,10,50,35,62,33,11,6,0.9,0.5
2026-01-01T0000,2436A,114.8938,30.3994,鄂州市,市政府,,23,23,83,6,70,53,53,72,58,15,21,4,5,0.4,0.8
2026-01-01T0000,2437A,114.8989,30.3714,鄂州市,赵家坝,,19,17,96,13,72,53,53,74,57,7,14,6,8,0.6,0.9
2026-01-01T0000,3654A,114.8094,30.4089,鄂州市,精准医疗中心,,24,24,91,10,76,58,58,79,63,4,18,6,6,0.5,0.7
2026-01-01T0000,2454A,109.4978,30.2981,恩施土家族苗族自治州,湖北民院,,39,31,48,27,42,36,36,91,55,17,14,5,5,0.7,0.9
2026-01-01T0000,2455A,109.4707,30.2798,恩施土家族苗族自治州,州电力总公司,,35,26,43,24,41,39,39,83,50,29,20,6,6,0.8,0.7
2026-01-01T0000,3549A,109.5061,30.3772,恩施土家族苗族自治州,龙凤新区,,48,34,49,33,47,25,25,72,34,7,8,6,6,0.6,0.6
2026-01-01T0000,2499A,108.3411,21.6158,防城港市,沙万,细颗粒物(PM2.5),72,76,69,52,42,92,92,122,103,32,30,8,11,0.7,0.9
2026-01-01T0000,2500A,108.3514,21.7731,防城港市,防城档案局,颗粒物(PM10),65,79,67,41,40,22,22,122,84,38,26,5,6,0.9,0.8
2026-01-01T0000,2501A,108.3506,21.6414,防城港市,大海花园,细颗粒物(PM2.5),112,149,66,84,46,76,76,136,114,29,23,9,12,0.9,0.9
2026-01-01T0000,1371A,113.1294,23.0067,佛山市,湾梁,细颗粒物(PM2.5),100,146,87,75,46,7,7,115,61,94,69,10,8,1.0,0.8
2026-01-01T0000,1372A,113.1083,23.0478,佛山市,华材职中,颗粒物(PM10),74,97,86,49,48,34,34,122,89,60,62,6,7,0.8,0.8
2026-01-01T0000,1373A,113.144,23.0453,佛山市,南海气象局,颗粒物(PM10),62,73,76,38,38,27,27,107,73,60,64,8,9,0.9,0.9
2026-01-01T0000,1374A,113.2881,22.8094,佛山市,顺德苏岗,细颗粒物(PM2.5),89,108,76,66,48,3,3,96,50,87,67,9,8,1.0,0.9
2026-01-01T0000,1376A,112.8383,22.8678,佛山市,高明孔堂,颗粒物(PM10),51,51,72,34,51,45,45,112,88,30,49,4,10,0.6,0.7
2026-01-01T0000,1377A,112.8836,23.1588,佛山市,三水监测站,颗粒物(PM10),101,151,105,69,60,3,3,88,47,86,66,7,12,1.2,1
2026-01-01T0000,1378A,112.867,23.185,佛山市,三水云东海,细颗粒物(PM2.5),83,97,88,61,57,5,5,84,43,64,58,5,8,0.7,0.7
2026-01-01T0000,3625A,113.2544,22.7642,佛山市,容桂街道办,细颗粒物(PM2.5),107,129,92,80,57,19,19,99,74,83,66,9,7,1.1,0.9
2026-01-01T0000,1280A,119.3903,26.0543,福州市,鼓山,,,,33,,16,,,97,83,,7,,2,,0.6
2026-01-01T0000,1282A,119.2681,26.0504,福州市,师大,,30,30,34,15,20,82,82,95,82,16,24,7,8,0.4,0.5
2026-01-01T0000,1283A,119.2984,26.1028,福州市,五四北路,,34,34,40,10,21,81,81,91,80,12,19,4,6,0.5,0.6
2026-01-01T0000,1284A,119.2648,26.0768,福州市,杨桥西路,,28,28,38,9,19,82,82,95,81,9,14,4,5,0.5,0.6
2026-01-01T0000,1285A,119.317,26.0746,福州市,紫阳,,31,31,42,9,19,84,84,96,81,12,17,7,8,0.4,0.6
2026-01-01T0000,3048A,119.5799,26.0936,福州市,九龙,,32,32,39,8,16,82,82,92,81,13,18,5,6,0.4,0.4
2026-01-01T0000,3526A,119.5189,25.9664,福州市,吴航,,28,28,33,12,18,83,83,88,82,11,16,4,5,0.4,0.5
2026-01-01T0000,1755A,123.7977,41.8491,抚顺市,望花区,颗粒物(PM10),72,94,41,50,22,8,8,47,16,40,23,4,5,1.1,0.8
2026-01-01T0000,1756A,123.9161,41.8822,抚顺市,顺城区,细颗粒物(PM2.5),88,96,47,65,26,6,6,46,13,45,26,8,8,1.3,0.8
2026-01-01T0000,1757A,124.0436,41.8611,抚顺市,东洲区,细颗粒物(PM2.5),65,55,38,47,24,6,6,41,21,42,22,7,12,1.0,0.8
2026-01-01T0000,1758A,123.9247,41.8642,抚顺市,新抚区,细颗粒物(PM2.5),74,71,42,54,21,4,4,45,10,40,22,6,8,0.9,0.7
2026-01-01T0000,1759A,124.0972,41.8961,抚顺市,大伙房水库,细颗粒物(PM2.5),53,50,33,37,21,8,8,48,31,42,21,14,11,0.9,0.7
2026-01-01T0000,1760A,123.7086,41.8391,抚顺市,沈抚新城,细颗粒物(PM2.5),79,101,39,58,22,6,6,46,18,43,22,7,8,1.5,0.5
2026-01-01T0000,2376A,116.2127,28.0814,抚州市,桐源党溪,,,,,,,,,,,,,,,,
2026-01-01T0000,2377A,116.3544,27.9831,抚州市,市站,颗粒物(PM10),51,51,90,24,64,45,45,106,74,22,20,15,9,0.5,0.8
2026-01-01T0000,2378A,116.3565,27.963,抚州市,血防站,,50,50,88,28,66,51,51,109,78,21,19,15,8,1.0,1.3
2026-01-01T0000,2379A,116.3564,28.0007,抚州市,采茶剧团,颗粒物(PM10),53,55,93,31,70,49,49,111,75,10,13,28,9,0.5,1.2
2026-01-01T0000,2380A,116.385,27.9647,抚州市,医学分院,颗粒物(PM10),53,55,98,22,64,55,55,110,82,17,16,6,9,0.6,0.8
2026-01-01T0000,2207A,121.6094,41.998,阜新市,工业园区,,,87,46,58,31,,,51,15,32,17,14,12,1.1,0.6
2026-01-01T0000,2208A,121.6697,42.0279,阜新市,长青街,细颗粒物(PM2.5),130,,37,99,30,3,3,51,19,43,15,18,8,3.4,0.7
2026-01-01T0000,2209A,121.6673,42.0705,阜新市,农业园区,,43,43,26,19,9,35,35,49,38,16,9,8,7,0.4,0.3
2026-01-01T0000,2210A,121.6717,42.0224,阜新市,东苑,细颗粒物(PM2.5),89,116,46,66,22,3,3,49,15,41,16,28,8,4.0,0.8
2026-01-01T0000,2211A,121.6506,42.0498,阜新市,玉龙新城,颗粒物(PM10),67,83,47,45,20,2,2,47,12,42,22,9,8,1.3,0.7
2026-01-01T0000,2301A,115.8277,32.8929,阜阳市,市监测站,,45,37,58,31,36,42,42,53,47,18,19,4,4,0.4,0.4
2026-01-01T0000,2303A,115.8554,32.8605,阜阳市,开发区,,35,,41,24,35,40,40,49,45,15,17,4,4,0.3,0.3
2026-01-01T0000,2875A,115.784,32.8892,阜阳市,阜阳职业技术学院,,33,33,48,21,30,47,47,57,51,13,14,5,6,0.5,0.5
2026-01-01T0000,3468A,115.7901,32.8613,阜阳市,市规划展馆,,30,27,50,21,30,46,46,58,50,17,18,4,6,0.5,0.5
2026-01-01T0000,3469A,115.836,32.9183,阜阳市,枣园社区,,38,38,58,18,32,42,42,50,47,15,19,3,5,0.9,0.6
2026-01-01T0000,2669A,102.9099,34.9841,甘南藏族自治州,州政府,细颗粒物(PM2.5),78,78,67,57,40,22,22,86,68,38,27,3,9,1.1,0.8
2026-01-01T0000,3380A,102.8914,34.9617,甘南藏族自治州,甘肃民族师范学院,颗粒物(PM10),73,96,77,49,36,19,19,87,58,51,33,5,8,1.2,0.9
2026-01-01T0000,2570A,101.9603,30.0475,甘孜藏族自治州,水桥子,,16,8,17,6,10,49,49,73,52,10,18,6,7,0.9,0.7
2026-01-01T0000,3065A,101.9533,29.9972,甘孜藏族自治州,州环保局,,17,17,24,8,9,51,51,77,40,8,18,6,6,0.7,0.5
2026-01-01T0000,3414A,115.8347,28.932,赣江新区,桑海产业园,,46,46,130,25,68,48,48,75,57,20,19,9,9,0.6,0.9
2026-01-01T0000,2362A,114.9017,25.9149,赣州市,通天岩,,44,44,55,28,38,45,45,106,65,6,11,16,18,1.2,1.3
2026-01-01T0000,2363A,114.9367,25.8664,赣州市,地委,细颗粒物(PM2.5),87,111,74,64,46,57,57,116,67,39,34,7,8,1.0,0.9
2026-01-01T0000,2364A,114.9461,25.8481,赣州市,气象台,"颗粒物(PM10),细颗粒物(PM2.5)",73,96,79,53,42,56,56,113,65,54,47,3,3,1.0,0.9
2026-01-01T0000,2365A,114.9322,25.8333,赣州市,市图书馆,细颗粒物(PM2.5),85,86,76,63,48,79,79,75,60,26,49,5,5,1.1,1.1
2026-01-01T0000,2366A,114.8905,25.8471,赣州市,华坚鞋城,细颗粒物(PM2.5),84,81,77,62,45,99,99,101,70,18,38,8,8,0.7,0.7
2026-01-01T0000,3109A,115.0093,25.8613,赣州市,赣县区卫计委,细颗粒物(PM2.5),74,60,65,54,53,3,3,96,39,69,39,7,7,0.7,0.6
2026-01-01T0000,2683A,106.2319,36.1417,固原市,马园,,,,,,,,,,,,,,,,
2026-01-01T0000,2684A,106.2792,36.0022,固原市,监测站,细颗粒物(PM2.5),53,46,68,37,35,49,49,48,48,17,21,3,4,0.5,0.6
2026-01-01T0000,2685A,106.2375,36.0211,固原市,新区,细颗粒物(PM2.5),62,,55,44,34,44,44,47,47,21,21,2,3,0.6,0.6
2026-01-01T0000,3522A,106.2177,35.9959,固原市,原州区十五小,细颗粒物(PM2.5),65,68,65,47,37,38,38,44,43,23,19,3,4,0.7,0.7
2026-01-01T0000,2543A,106.6308,30.5278,广安市,小平旧居,,,,,,,,,,,,,,,,
2026-01-01T0000,2544A,106.6303,30.4576,广安市,市委,,28,21,68,19,66,46,46,24,24,10,21,6,6,0.8,1
2026-01-01T0000,2545A,106.6271,30.4663,广安市,友谊中学,,30,,68,21,61,59,59,34,34,10,18,5,3,0.8,1
2026-01-01T0000,2547A,106.6388,30.4551,广安市,广电花园,,28,24,55,19,66,48,48,23,23,10,19,8,8,0.6,0.8
2026-01-01T0000,2902A,106.6351,30.4865,广安市,北辰小学,,29,,67,20,67,52,52,30,30,6,14,9,12,0.8,1
2026-01-01T0000,2523A,105.8945,32.4535,广元市,黑石坡,,,,,,,,,,,,,,,,
2026-01-01T0000,2524A,105.821,32.4444,广元市,老城,,25,18,24,14,19,78,78,86,82,18,18,6,6,0.6,0.7
2026-01-01T0000,2526A,105.8628,32.4287,广元市,监测站,,28,28,28,14,18,68,68,84,80,21,17,3,4,0.7,0.8
2026-01-01T0000,3617A,105.8047,32.4166,广元市,经开区,,22,17,22,14,18,70,70,76,73,20,21,1,2,0.7,0.8
2026-01-01T0000,1345A,113.2347,23.1423,广州市,广雅中学,"颗粒物(PM10),细颗粒物(PM2.5)",65,80,72,47,42,19,19,101,66,66,52,3,5,1.0,0.9
2026-01-01T0000,1346A,113.2612,23.105,广州市,市五中,颗粒物(PM10),63,75,64,42,39,28,28,121,81,86,69,8,9,0.8,0.7
2026-01-01T0000,1348A,113.3478,23.0916,广州市,广东商学院,细颗粒物(PM2.5),70,87,70,51,48,1,1,96,53,96,63,8,8,0.8,0.7
2026-01-01T0000,1349A,113.4332,23.1047,广州市,市八十六中,细颗粒物(PM2.5),78,79,60,57,41,6,6,100,58,81,64,9,9,1.2,1
2026-01-01T0000,1350A,113.3505,22.9483,广州市,番禺中学,细颗粒物(PM2.5),82,104,86,60,50,14,14,121,69,81,63,8,8,1.0,1
2026-01-01T0000,1351A,113.2146,23.3916,广州市,花都师范,颗粒物(PM10),80,109,69,51,39,4,4,92,55,100,65,6,9,0.9,0.7
2026-01-01T0000,1352A,113.2597,23.1331,广州市,市监测站,细颗粒物(PM2.5),144,148,68,110,42,9,9,102,66,86,59,2,4,0.9,0.7
2026-01-01T0000,1353A,113.5618,23.312,广州市,九龙镇镇龙,细颗粒物(PM2.5),77,84,67,56,43,8,8,95,40,54,38,7,6,0.8,0.7
2026-01-01T0000,1354A,113.2765,23.1544,广州市,麓湖,细颗粒物(PM2.5),58,60,56,41,37,2,2,91,48,84,58,7,8,0.5,0.4
2026-01-01T0000,1355A,113.443,23.3035,广州市,帽峰山森林公园,,,,,,,,,,,,,,,,
2026-01-01T0000,2846A,113.3221,23.1322,广州市,体育西,,,84,68,50,40,8,8,102,67,94,63,,7,0.9,0.8
2026-01-01T0000,3298A,113.5717,23.5491,广州市,从化街口,细颗粒物(PM2.5),89,87,55,66,39,1,1,80,34,48,35,7,9,1.2,0.8
2026-01-01T0000,3299A,113.3472,23.3692,广州市,白云竹料,细颗粒物(PM2.5),84,107,66,62,40,4,4,92,47,63,47,4,6,1.1,0.7
2026-01-01T0000,3300A,113.2981,23.237,广州市,白云嘉禾,颗粒物(PM10),54,57,61,34,33,20,20,98,59,63,52,5,6,0.7,0.6
2026-01-01T0000,3301A,113.4256,23.1716,广州市,黄埔科学城,细颗粒物(PM2.5),68,81,60,49,37,8,8,108,53,56,40,3,4,0.8,0.7
2026-01-01T0000,3302A,113.3942,23.0483,广州市,番禺大学城,,,109,82,48,44,,,,,68,56,19,18,0.7,0.7
2026-01-01T0000,3303A,113.4922,22.8168,广州市,南沙黄阁,颗粒物(PM10),71,91,79,50,47,15,15,109,54,82,69,6,7,0.9,0.9
2026-01-01T0000,3304A,113.5342,22.7896,广州市,南沙街,细颗粒物(PM2.5),62,69,72,44,41,26,26,120,72,59,49,4,6,0.7,0.7
2026-01-01T0000,3443A,113.2902,23.5544,广州市,花都梯面,,43,43,44,29,29,1,1,85,32,35,33,4,7,0.6,0.6
2026-01-01T0000,3445A,113.7858,23.7478,广州市,从化良口,,35,30,28,24,22,44,44,78,57,17,17,8,9,0.6,0.6
2026-01-01T0000,3446A,113.8051,23.2614,广州市,增城荔城,细颗粒物(PM2.5),74,72,45,54,33,13,13,82,40,36,25,5,7,0.8,0.6
2026-01-01T0000,2505A,109.568,23.1478,贵港市,德智高中,,,,,,,,,,,,,,,,
2026-01-01T0000,2506A,109.6047,23.0666,贵港市,江南子站,细颗粒物(PM2.5),93,95,81,69,57,61,61,112,84,25,27,8,11,0.9,0.8
2026-01-01T0000,2508A,109.5669,23.1065,贵港市,荷城子站,细颗粒物(PM2.5),107,97,68,80,47,47,47,100,76,30,26,9,11,1.4,1
2026-01-01T0000,3405A,109.5886,23.1172,贵港市,新世纪学校,细颗粒物(PM2.5),108,114,80,81,52,48,48,107,80,35,34,11,12,0.8,0.6
2026-01-01T0000,4260A,109.5933,23.0951,贵港市,中山路155-3号,细颗粒物(PM2.5),89,84,69,66,51,66,66,115,88,27,30,9,11,1.0,0.8
2026-01-01T0000,1439A,106.6899,26.5998,贵阳市,马鞍山,,18,,24,12,22,41,41,38,34,9,13,4,4,0.8,0.7
2026-01-01T0000,1441A,106.6243,26.6266,贵阳市,鉴湖路,,24,24,31,7,18,43,43,55,36,16,17,3,3,0.7,0.6
2026-01-01T0000,1442A,106.7487,26.6343,贵阳市,燕子冲,,20,14,26,14,25,49,49,42,42,10,15,5,6,0.7,0.7
2026-01-01T0000,1443A,106.6555,26.4365,贵阳市,碧云窝,,22,22,39,7,21,43,43,55,39,9,13,4,5,0.6,0.5
2026-01-01T0000,1445A,106.7109,26.6027,贵阳市,红边门,,14,9,28,3,23,44,44,33,33,10,21,5,8,0.7,0.8
2026-01-01T0000,1446A,106.7164,26.5699,贵阳市,新华路,,18,17,35,12,22,41,41,38,38,10,18,4,6,0.5,0.6
2026-01-01T0000,1447A,106.674,26.5424,贵阳市,太慈桥,,17,17,28,3,21,47,47,47,40,12,18,3,4,0.4,0.3
2026-01-01T0000,1552A,106.805,26.3003,贵阳市,桐木岭,,34,34,40,19,28,42,42,73,42,6,5,7,6,1.3,1.2
2026-01-01T0000,4230A,106.6882,26.5695,贵阳市,花果园大街66号,,20,,22,14,29,40,40,43,34,11,18,2,2,0.2,0.2
2026-01-01T0000,4231A,106.6873,26.5169,贵阳市,漓江路57号,,18,17,32,12,23,37,37,47,33,15,20,6,9,0.9,0.9
2026-01-01T0000,1862A,110.4144,25.3167,桂林市,电子科大尧山校区,,,,,,,,,,,,,,,,
2026-01-01T0000,1864A,110.3089,25.2708,桂林市,龙隐路小学,细颗粒物(PM2.5),119,,83,90,74,63,63,83,69,18,16,6,8,1.1,0.8
2026-01-01T0000,1865A,110.2869,25.2178,桂林市,八中,细颗粒物(PM2.5),113,,81,85,77,65,65,81,69,18,26,7,9,0.7,0.7
2026-01-01T0000,3531A,110.296,25.1253,桂林市,旅游学院,细颗粒物(PM2.5),128,,77,97,65,82,82,97,80,16,19,5,6,0.8,0.7
2026-01-01T0000,4222A,110.1835,25.2444,桂林市,环湖路276号,细颗粒物(PM2.5),113,95,90,85,71,59,59,84,68,15,18,6,8,0.6,0.5
2026-01-01T0000,4301A,110.2803,25.2773,桂林市,信义路13号,细颗粒物(PM2.5),142,,82,108,73,68,68,95,74,16,19,5,7,0.8,0.8
2026-01-01T0000,2674A,100.2561,34.4714,果洛藏族自治州,玛沁县大武镇,,42,42,42,28,14,42,42,94,74,7,3,18,16,0.4,0.4
2026-01-01T0000,1129A,126.5422,45.755,哈尔滨市,岭北,,,,,,,,,,,,,,,,
2026-01-01T0000,1130A,126.561,45.8167,哈尔滨市,松北商大,,43,40,37,30,25,24,24,28,15,18,25,7,13,0.5,0.6
2026-01-01T0000,1132A,126.599,45.7222,哈尔滨市,南岗学府路,,34,34,32,18,21,19,19,31,20,21,19,33,17,0.6,0.6
2026-01-01T0000,1133A,126.689,45.7733,哈尔滨市,太平宏伟公园,,39,38,34,27,23,17,17,34,21,26,19,56,27,0.8,0.7
2026-01-01T0000,1134A,126.635,45.7667,哈尔滨市,道外承德广场,,49,49,49,26,24,25,25,32,23,21,21,10,14,0.5,0.5
2026-01-01T0000,1136A,126.6411,45.7258,哈尔滨市,动力和平路,,39,37,35,27,24,24,24,30,22,17,21,12,15,0.6,0.6
2026-01-01T0000,1137A,126.593,45.7478,哈尔滨市,道里建国路,,49,44,31,34,26,15,15,30,20,24,18,15,10,0.1,0.4
2026-01-01T0000,1138A,126.615,45.61,哈尔滨市,平房东轻厂,细颗粒物(PM2.5),60,50,36,43,38,8,8,27,6,35,28,8,7,1.1,0.9
2026-01-01T0000,1139A,126.595,45.9855,哈尔滨市,呼兰师专,,44,44,38,30,32,15,15,31,12,20,20,4,5,0.7,0.7
2026-01-01T0000,1140A,126.6206,45.6842,哈尔滨市,省农科院,,32,27,47,22,36,25,25,28,18,21,28,19,12,0.5,0.7
2026-01-01T0000,4282A,126.6769,45.7379,哈尔滨市,华山路1号,,40,34,34,28,22,20,20,31,21,22,24,21,20,0.5,0.7
2026-01-01T0000,4283A,126.9717,45.5356,哈尔滨市,解放大街52号,细颗粒物(PM2.5),73,,47,53,40,6,6,31,14,37,26,14,8,1.0,0.9
2026-01-01T0000,2688A,93.5128,42.8172,哈密市,地区监测站,细颗粒物(PM2.5),88,82,58,65,39,13,13,50,32,36,25,4,9,0.9,0.2
2026-01-01T0000,2689A,93.4961,42.8328,哈密市,哈密师范学校,颗粒物(PM10),70,90,59,45,27,9,9,48,31,50,35,3,2,0.8,0.4
2026-01-01T0000,2671A,100.9048,36.9639,海北藏族自治州,海晏县西海镇,,33,33,34,19,28,59,59,88,65,5,13,12,11,0.5,0.7
2026-01-01T0000,3867A,102.0738,36.5056,海东市,平安区公安北苑,细颗粒物(PM2.5),92,71,79,68,61,43,43,62,48,20,21,32,28,0.7,1
2026-01-01T0000,1409A,110.576,19.9507,海口市,东寨港,,,,,,,,,,,,,,,,
2026-01-01T0000,1410A,110.3232,20.0574,海口市,海南大学,,32,32,38,17,26,95,95,132,121,9,11,6,6,0.3,0.4
2026-01-01T0000,1411A,110.283,20.0053,海口市,秀英海南医院,,35,35,46,15,29,90,90,115,106,10,18,8,8,0.3,0.4
2026-01-01T0000,1412A,110.338,19.9969,海口市,海南师范大学,,34,34,46,18,29,93,93,125,113,11,16,6,6,0.4,0.5
2026-01-01T0000,1413A,110.33,20.0356,海口市,龙华路环保局宿舍,,38,38,44,20,27,90,90,131,117,13,14,8,8,0.7,0.7
2026-01-01T0000,3539A,110.5111,19.9736,海口市,桂林洋子站,,28,28,43,15,31,89,89,116,102,8,12,7,8,0.3,0.4
2026-01-01T0000,2673A,100.6188,36.2866,海南藏族自治州,共和县恰卜恰镇,颗粒物(PM10),55,60,37,18,17,9,9,101,65,50,22,17,12,0.6,0.5
2026-01-01T0000,2676A,97.3731,37.3753,海西蒙古族藏族自治州,德令哈市,颗粒物(PM10),70,89,24,9,11,79,79,93,84,5,8,10,11,0.5,0.7
2026-01-01T0000,1048A,114.5302,36.6116,邯郸市,东污水处理厂,,39,,27,27,26,23,23,40,33,29,20,4,4,0.4,0.5
2026-01-01T0000,1049A,114.4918,36.5713,邯郸市,矿院,,45,40,34,31,27,31,31,41,32,28,30,3,4,0.4,0.5
2026-01-01T0000,1050A,114.484,36.6133,邯郸市,丛台公园,,41,41,34,27,25,23,23,44,34,38,27,4,5,0.5,0.5
2026-01-01T0000,3458A,114.7895,36.5593,邯郸市,香泉濮院小区,,43,34,34,30,27,31,31,47,38,29,25,6,4,0.4,0.5
2026-01-01T0000,3579A,114.50634,36.77178,邯郸市,永年区实验高中,,36,36,38,17,17,13,13,41,24,49,35,3,4,0.4,0.5
2026-01-01T0000,3580A,114.20016,36.44293,邯郸市,峰峰矿区临水派出所,,42,,28,29,22,28,28,50,37,27,21,7,7,0.6,0.7
2026-01-01T0000,2634A,106.9893,33.1842,汉中市,汉川机床厂子校,,,,,,,,,,,,,,,,
2026-01-01T0000,2635A,107.0154,33.0706,汉中市,市监测站,,21,,40,10,38,65,65,83,68,12,16,4,4,0.5,0.6
2026-01-01T0000,2636A,107.0089,33.1138,汉中市,鑫源开发区,,22,,35,10,31,70,70,86,72,12,15,3,4,0.6,0.6
2026-01-01T0000,2637A,107.007,33.0323,汉中市,南郑大河坎水厂,,20,18,67,12,54,64,64,81,66,12,17,5,5,0.6,0.9
2026-01-01T0000,1223A,120.2072,30.2111,杭州市,滨江,,43,43,31,20,13,63,63,60,60,11,24,8,9,0.1,0.2
2026-01-01T0000,1224A,120.0633,30.2747,杭州市,西溪,颗粒物(PM10),51,52,40,19,12,60,60,65,60,22,33,8,8,0.5,0.5
2026-01-01T0000,1226A,120.3417,30.3150,杭州市,下沙,,39,39,36,20,17,58,58,60,56,16,32,7,7,0.7,0.6
2026-01-01T0000,1227A,120.1269,30.2456,杭州市,卧龙桥,,44,44,34,20,13,62,62,64,62,14,23,9,9,0.4,0.4
2026-01-01T0000,1228A,120.1903,30.2692,杭州市,浙江农大,,45,45,32,22,15,64,64,62,62,18,34,2,3,0.2,0.2
2026-01-01T0000,1230A,120.1197,30.3119,杭州市,和睦小学,颗粒物(PM10),51,51,34,24,21,61,61,64,62,18,27,4,4,0.4,0.5
2026-01-01T0000,1231A,120.3019,30.4183,杭州市,临平镇,,42,42,33,18,15,54,54,64,57,14,24,7,7,0.4,0.4
2026-01-01T0000,1232A,120.2753,30.1839,杭州市,城厢镇,,47,47,49,18,16,68,68,60,60,10,26,7,8,0.3,0.3
2026-01-01T0000,1233A,120.0883,30.1808,杭州市,云栖,,39,39,33,20,14,70,70,68,68,12,22,4,4,0.4,0.6
2026-01-01T0000,3557A,119.9464,30.0494,杭州市,镇二中,,37,37,28,20,15,65,65,54,54,17,31,5,6,0.5,0.5
2026-01-01T0000,3558A,119.7183,30.2367,杭州市,市府大楼,,48,48,33,24,15,56,56,56,54,15,21,10,10,0.5,0.5
2026-01-01T0000,3656A,120.1556,30.2864,杭州市,消防大队,,46,46,40,24,19,56,56,57,55,14,25,6,6,0.3,0.3
2026-01-01T0000,1270A,117.1959,31.7848,合肥市,明珠广场,,17,17,37,9,15,52,52,59,52,7,14,4,6,0.4,0.4
2026-01-01T0000,1271A,117.3072,31.8764,合肥市,三里街,,17,17,33,9,14,51,51,57,51,12,20,4,5,0.6,0.6
2026-01-01T0000,1272A,117.2588,31.8707,合肥市,琥珀山庄,,17,17,37,11,18,54,54,64,56,11,18,6,8,0.5,0.5
2026-01-01T0000,1273A,117.1604,31.9052,合肥市,董铺水库,,,,,,,,,,,,,,,,
2026-01-01T0000,1274A,117.25,31.8571,合肥市,长江中路,,18,14,34,11,18,56,56,63,56,11,18,6,7,0.5,0.6
2026-01-01T0000,1275A,117.266,31.9436,合肥市,庐阳区,,19,9,34,9,13,59,59,67,59,12,19,1,2,0.5,0.6
2026-01-01T0000,1276A,117.3453,31.8616,合肥市,瑶海区,,19,17,35,7,13,58,58,60,56,10,22,3,5,0.6,0.5
2026-01-01T0000,1277A,117.3027,31.7964,合肥市,包河区,,20,17,39,14,19,46,46,51,46,22,33,5,7,0.7,0.7
2026-01-01T0000,1278A,117.2776,31.7385,合肥市,滨湖新区,,25,17,38,17,21,57,57,64,55,14,20,4,5,0.7,0.8
2026-01-01T0000,1279A,117.1318,31.8403,合肥市,高新区,,19,19,36,7,14,58,58,64,57,11,18,3,4,0.4,0.5
2026-01-01T0000,3464A,117.3803,31.9147,合肥市,高教基地,,17,17,30,10,14,54,54,67,55,11,17,5,7,0.4,0.5
2026-01-01T0000,3614A,79.924,37.0877,和田地区,地区环保局,颗粒物(PM10),54,58,65,29,27,40,40,53,46,23,15,2,2,0.8,0.9
2026-01-01T0000,3615A,79.9131,37.113,和田地区,市环保局,颗粒物(PM10),53,56,69,25,24,50,50,58,54,20,16,1,2,2.6,0.9
2026-01-01T0000,2516A,108.2011,24.715,河池市,东仁乐园,,,,,,,,,,,,,,,,
2026-01-01T0000,2517A,108.0497,24.6947,河池市,市环保站,细颗粒物(PM2.5),60,59,72,43,53,53,53,76,64,11,27,3,7,0.8,1
2026-01-01T0000,4302A,108.0901,24.6945,河池市,上任中路54号,颗粒物(PM10),56,62,71,32,54,47,47,71,55,10,31,4,10,0.8,1
2026-01-01T0000,1696A,114.6778,23.7569,河源市,源西,,,,,,,,,,,,,,,,
2026-01-01T0000,1697A,114.6944,23.7586,河源市,东埔,细颗粒物(PM2.5),90,80,48,67,29,8,8,77,47,59,33,6,7,1.0,0.8
2026-01-01T0000,1698A,114.6892,23.7233,河源市,老城,细颗粒物(PM2.5),78,83,50,57,34,15,15,73,40,35,26,6,7,0.9,0.9
2026-01-01T0000,1718A,115.4208,35.2464,菏泽市,气象局,,,38,56,20,31,,,58,54,22,23,6,6,0.4,0.5
2026-01-01T0000,3374A,115.5564,35.0891,菏泽市,定陶老年大学,,29,29,54,12,30,44,44,49,47,18,24,7,6,0.7,0.8
2026-01-01T0000,4184A,115.4797,35.24401,菏泽市,永昌路1号,,34,34,56,20,32,41,41,53,49,19,21,8,7,0.7,0.8
2026-01-01T0000,4193A,115.4715,35.2800,菏泽市,长城路999号,,35,35,54,14,25,36,36,52,46,22,22,6,6,0.7,0.8
2026-01-01T0000,2514A,111.5264,24.4172,贺州市,环保小区,细颗粒物(PM2.5),88,78,66,65,50,34,34,77,52,30,28,8,7,1.0,0.9
2026-01-01T0000,2515A,111.5608,24.4078,贺州市,政协大楼,细颗粒物(PM2.5),64,70,56,46,40,50,50,76,51,22,29,11,9,0.6,0.7
2026-01-01T0000,3534A,111.4744,24.4553,贺州市,西湾,细颗粒物(PM2.5),85,77,66,63,50,12,12,88,47,41,27,8,9,0.8,0.8
2026-01-01T0000,2385A,114.17,35.9019,鹤壁市,市监测站,,50,50,42,29,26,23,23,41,27,25,24,6,8,0.6,0.7
2026-01-01T0000,2386A,114.2956,35.7511,鹤壁市,市交警支队,,49,49,49,10,21,9,9,37,,24,25,11,8,0.6,0.6
2026-01-01T0000,2387A,114.2878,35.7306,鹤壁市,迎宾馆,颗粒物(PM10),53,55,51,25,26,28,28,47,31,25,24,5,7,0.6,0.7
2026-01-01T0000,3474A,114.2617,35.6822,鹤壁市,大新区,,38,38,41,16,10,33,33,50,35,27,27,6,7,0.5,0.6
2026-01-01T0000,3596A,114.1572,35.9603,鹤壁市,南山宾馆,,49,49,50,23,24,22,22,47,28,24,20,6,8,0.5,0.6
2026-01-01T0000,2244A,130.2537,47.3416,鹤岗市,哈啤分公司,,21,21,21,9,15,47,47,48,47,3,4,6,6,0.4,0.3
2026-01-01T0000,2245A,130.2684,47.3086,鹤岗市,斯达机电,,25,22,22,17,20,50,50,50,49,3,6,6,5,0.4,0.4
2026-01-01T0000,2246A,130.3114,47.3388,鹤岗市,东山纸板厂,,25,,19,17,22,52,52,51,51,2,3,7,6,0.2,0.4
2026-01-01T0000,2247A,130.1097,47.3382,鹤岗市,五号水库,,,,,,,,,,,,,,,,
2026-01-01T0000,2263A,127.4833,50.2524,黑河市,交通局,,35,,16,24,16,51,51,46,46,3,8,4,4,0.2,0.3
2026-01-01T0000,2264A,127.5144,50.2341,黑河市,环保局,,32,,17,22,15,47,47,43,43,6,8,6,5,0.3,0.3
2026-01-01T0000,2265A,127.5291,50.2472,黑河市,大黑河岛,,,,,,,,,,,,,,,,
2026-01-01T0000,1074A,115.6838,37.7541,衡水市,电机北厂,,48,34,31,33,21,16,16,53,26,42,30,3,4,0.4,0.4
2026-01-01T0000,1075A,115.6303,37.7316,衡水市,市监测站,细颗粒物(PM2.5),58,58,36,41,18,6,6,54,25,49,33,5,5,0.6,0.4
2026-01-01T0000,3188A,115.6683,37.7217,衡水市,市城管局,颗粒物(PM10),64,78,37,43,24,0,0,54,23,61,32,6,6,0.8,0.4
2026-01-01T0000,3459A,115.5989,37.5491,衡水市,地表水厂,颗粒物(PM10),65,79,34,31,18,3,3,54,17,82,32,10,5,0.7,0.4
2026-01-01T0000,2456A,112.5003,26.9167,衡阳市,原169医院,,,,,,,,,,,,,,,,
2026-01-01T0000,2457A,112.6194,26.9258,衡阳市,衡阳化工总厂,,,,134,6,125,32,32,64,45,13,22,5,12,1.0,1.3
2026-01-01T0000,2458A,112.6211,26.8956,衡阳市,珠晖区环保局,,,,127,34,123,24,24,52,37,17,26,2,6,1.2,1.5
2026-01-01T0000,2459A,112.6197,26.8733,衡阳市,市委党校,,,,122,13,126,34,34,67,50,13,20,5,8,0.9,1.2
2026-01-01T0000,2460A,112.6006,26.8919,衡阳市,市监测站,,11,11,163,3,114,31,31,65,47,9,18,5,11,0.8,1.1
2026-01-01T0000,2461A,112.5664,26.9056,衡阳市,真空机电公司,,,,152,3,129,32,32,56,43,14,25,5,11,1.0,1.2
2026-01-01T0000,3399A,112.6703,26.882,衡阳市,师范学院,,12,,140,3,109,37,37,71,50,16,25,3,5,1.1,1.3
2026-01-01T0000,2608A,103.3772,23.3993,红河哈尼族彝族自治州,污水处理厂,细颗粒物(PM2.5),58,50,32,41,27,54,54,74,61,10,8,7,6,0.5,0.4
2026-01-01T0000,2609A,103.3861,23.35,红河哈尼族彝族自治州,监测站,细颗粒物(PM2.5),59,43,34,42,27,62,62,76,68,6,4,10,8,0.4,0.3
2026-01-01T0000,3038A,103.3758,23.368,红河哈尼族彝族自治州,州图书馆,,38,38,21,26,14,62,62,78,68,6,6,6,6,0.5,0.4
2026-01-01T0000,1090A,111.6507,40.7517,呼和浩特市,呼市一监,细颗粒物(PM2.5),102,107,33,76,18,7,7,63,23,55,24,5,3,0.7,0.4
2026-01-01T0000,1094A,111.7516,40.8369,呼和浩特市,如意水处理厂,细颗粒物(PM2.5),130,143,31,99,16,4,4,62,21,68,33,15,10,1.0,0.4
2026-01-01T0000,1095A,111.7276,40.8062,呼和浩特市,二十九中,细颗粒物(PM2.5),129,184,37,98,18,3,3,62,24,66,26,19,11,0.6,0.3
2026-01-01T0000,1097A,111.717,40.7612,呼和浩特市,化肥厂生活区,细颗粒物(PM2.5),118,132,35,89,19,3,3,66,22,58,23,10,6,0.9,0.5
2026-01-01T0000,3699A,111.6518,40.8389,呼和浩特市,海东办,,,,8,,4,,,61,,,18,,5,,0.3
2026-01-01T0000,4275A,111.5915,40.8273,呼和浩特市,成吉思汗西街8号,,,,39,75,18,2,2,54,12,64,34,15,9,0.7,0.5
2026-01-01T0000,4276A,111.6597,40.8077,呼和浩特市,公园东路75号,细颗粒物(PM2.5),88,119,37,65,15,12,12,56,26,63,31,10,7,0.5,0.3
2026-01-01T0000,4277A,111.5417,40.7846,呼和浩特市,金海路35号,细颗粒物(PM2.5),102,132,35,76,15,1,1,58,15,61,32,13,11,0.9,0.4
2026-01-01T0000,3061A,119.7512,49.1577,呼伦贝尔市,国华电力东,细颗粒物(PM2.5),52,43,30,36,27,33,33,40,33,19,21,5,6,0.3,0.3
2026-01-01T0000,4279A,119.7569,49.2222,呼伦贝尔市,伊敏大街东7号,细颗粒物(PM2.5),57,48,29,40,25,29,29,43,34,22,14,8,7,0.5,0.4
2026-01-01T0000,1250A,120.0751,30.8669,湖州市,城西水厂,,30,30,25,16,13,72,72,84,75,11,15,8,8,0.1,0.1
2026-01-01T0000,2873A,120.0830,30.8929,湖州市,仁皇山新区,,30,30,25,14,11,69,69,77,72,18,21,8,8,0.2,0.2
2026-01-01T0000,2907A,120.1844,30.8596,湖州市,吴兴区站,,34,34,33,12,12,67,67,79,69,11,18,6,6,0.5,0.4
2026-01-01T0000,3562A,120.4148,30.8538,湖州市,南浔区站,,24,24,28,11,14,53,53,65,58,15,24,5,6,0.3,0.3
2026-01-01T0000,1607A,120.9049,40.7211,葫芦岛市,龙港区,细颗粒物(PM2.5),53,42,32,37,18,6,6,52,29,46,21,14,12,1.3,0.7
2026-01-01T0000,1608A,120.8392,40.7514,葫芦岛市,化工街,细颗粒物(PM2.5),83,88,36,61,19,8,8,47,22,48,22,70,22,1.1,0.5
2026-01-01T0000,1609A,120.8341,40.7073,葫芦岛市,新区,细颗粒物(PM2.5),78,80,28,57,20,5,5,49,22,55,24,19,10,1.1,0.7
2026-01-01T0000,1610A,120.8695,40.7677,葫芦岛市,东城区,细颗粒物(PM2.5),319,383,45,269,34,8,8,48,20,44,23,78,17,1.7,0.8
2026-01-01T0000,2482A,109.5981,27.5721,怀化市,林科所,,,,,,,,,,,,,,,,
2026-01-01T0000,2483A,109.9453,27.5444,怀化市,河西地税局,,16,10,69,10,65,51,51,70,54,14,17,4,5,0.8,0.9
2026-01-01T0000,2484A,109.9781,27.5342,怀化市,市四医院,,16,16,73,8,59,41,41,60,42,8,12,8,10,0.7,0.8
2026-01-01T0000,2485A,109.9972,27.5578,怀化市,监测楼,,17,10,62,9,44,52,52,59,54,12,16,1,3,0.3,0.3
2026-01-01T0000,2486A,110.0394,27.583,怀化市,市委党校,,16,12,62,11,66,43,43,53,45,12,15,6,8,0.5,0.6
2026-01-01T0000,1210A,119.036,33.5981,淮安市,钵池山,,26,24,32,18,25,53,53,63,57,16,17,6,6,0.4,0.3
2026-01-01T0000,1211A,119.007,33.575,淮安市,北京南路,,24,24,32,14,20,51,51,56,52,8,11,6,6,0.5,0.5
2026-01-01T0000,1212A,118.989,33.6067,淮安市,市监测站,,19,19,25,12,15,51,51,57,53,14,15,8,8,0.3,0.4
2026-01-01T0000,1213A,119.135,33.5039,淮安市,楚州区监测站,,24,24,26,14,14,48,48,53,49,8,10,8,8,0.3,0.4
2026-01-01T0000,3426A,118.8755,33.2894,淮安市,新华书店,,25,25,33,12,14,45,45,52,49,16,17,10,8,0.5,0.5
2026-01-01T0000,4206A,119.0288,33.6319,淮安市,承德北路606号,,27,27,39,16,26,51,51,60,55,14,17,6,7,0.4,0.4
2026-01-01T0000,2282A,116.8004,33.975,淮北市,监测站,,44,44,70,17,35,53,53,52,49,20,27,10,10,0.8,0.8
2026-01-01T0000,2283A,116.8091,33.9007,淮北市,烈山区政府,,39,39,58,19,38,58,58,54,54,20,26,10,9,0.4,0.4
2026-01-01T0000,3330A,116.8873,33.9836,淮北市,杜集区检察院,,36,36,60,18,30,60,60,58,55,12,17,6,6,0.5,0.5
2026-01-01T0000,4017A,116.7923,33.9535,淮北市,市博物馆,,44,44,64,15,31,56,56,54,51,19,24,11,11,0.4,0.5
2026-01-01T0000,2277A,116.8305,32.7727,淮南市,潘集区政府,,28,,44,19,32,47,47,51,50,9,14,4,5,0.3,0.4
2026-01-01T0000,2279A,116.8569,32.5951,淮南市,谢家集区政府,,13,,40,7,15,39,39,53,45,11,16,5,6,0.1,0.3
2026-01-01T0000,2280A,116.8281,32.633,淮南市,八公山区政府,,22,17,40,15,21,42,42,52,48,10,14,1,5,0.3,0.3
2026-01-01T0000,2281A,116.6325,32.6201,淮南市,焦岗湖风景区管理处,,,,,,,,,,,,,,,,
2026-01-01T0000,2894A,117.0566,32.6531,淮南市,经济技术开发区消防队,,32,32,52,11,23,40,40,51,46,17,18,3,4,0.3,0.4
2026-01-01T0000,3329A,117.0108,32.5893,淮南市,山南新区,,26,26,43,14,11,45,45,60,52,12,12,3,2,0.3,0.4
2026-01-01T0000,4209A,117.0031,32.6445,淮南市,国庆中路369号,,15,15,43,10,21,35,35,46,40,13,16,3,4,0.3,0.3
2026-01-01T0000,2446A,114.9028,30.4742,黄冈市,职工中心,,22,,83,15,58,57,57,75,61,6,15,6,7,0.5,0.8
2026-01-01T0000,2929A,114.8858,30.4519,黄冈市,红卫路,,19,17,79,8,60,58,58,76,61,9,16,5,7,0.4,0.6
2026-01-01T0000,3398A,114.9136,30.4445,黄冈市,市林业局,,22,15,78,15,67,56,56,77,60,11,18,4,5,0.4,0.8
2026-01-01T0000,2672A,102.0199,35.5102,黄南藏族自治州,同仁县隆务镇,"颗粒物(PM10),细颗粒物(PM2.5)",59,67,55,42,33,57,57,82,72,5,6,10,11,0.8,0.6
2026-01-01T0000,2295A,118.2903,29.6963,黄山市,延安路89号,,34,34,40,15,34,68,68,84,71,13,15,4,4,0.4,0.5
2026-01-01T0000,2297A,118.1371,30.2756,黄山市,黄山区政府5号楼,,48,48,67,28,47,66,66,79,69,15,15,6,6,0.4,0.6
2026-01-01T0000,4210A,118.3354,29.7203,黄山市,滨江东路7-2号,细颗粒物(PM2.5),52,52,61,36,47,65,65,82,69,15,13,4,4,0.3,0.5
2026-01-01T0000,2423A,115.0601,30.2313,黄石市,沈家营,,33,33,94,11,48,55,55,71,59,8,16,7,6,0.9,1.1
2026-01-01T0000,2426A,114.8988,30.2019,黄石市,铁山,,20,20,77,14,62,60,60,76,62,2,12,3,6,1.0,0.6
2026-01-01T0000,2427A,115.0307,30.2092,黄石市,团城山,,27,27,78,14,54,59,59,79,65,8,15,6,10,0.4,0.6
2026-01-01T0000,3149A,115.0235,30.1578,黄石市,笔架山北路,,32,32,100,7,50,58,58,73,58,6,15,7,7,0.7,1
2026-01-01T0000,4185A,115.0780,30.21118,黄石市,磁湖东路29号,,25,25,83,16,61,48,48,61,50,13,22,5,8,0.7,0.9
2026-01-01T0000,1392A,114.4183,23.0528,惠州市,河南岸金山湖子站,颗粒物(PM10),60,70,60,37,38,48,48,77,57,28,30,4,5,0.7,0.6
2026-01-01T0000,1393A,114.4053,23.0822,惠州市,下埔横江三路子站,颗粒物(PM10),56,62,60,34,36,80,80,87,74,20,26,7,9,0.6,0.6
2026-01-01T0000,1395A,114.4645,22.7833,惠州市,惠阳区承修路船湖子站,颗粒物(PM10),54,57,47,26,25,94,94,119,107,16,23,6,7,0.6,0.6
2026-01-01T0000,1396A,114.5317,22.7422,惠州市,大亚湾管委会子站,,49,49,40,25,20,94,94,122,111,13,14,6,7,0.4,0.3
2026-01-01T0000,3314A,114.4338,22.8134,惠州市,惠阳秋长,颗粒物(PM10),57,63,55,32,28,99,99,131,118,20,29,14,16,0.5,0.5
2026-01-01T0000,3452A,114.6517,22.775,惠州市,大亚湾霞涌,颗粒物(PM10),51,51,38,24,19,105,105,123,116,12,17,6,6,0.4,0.4
2026-01-01T0000,4300A,114.4089,23.1147,惠州市,文华一路1号,,48,48,63,26,37,95,95,85,76,16,37,9,10,0.3,0.3
2026-01-01T0000,2240A,130.9762,45.3001,鸡西市,环保局,,22,22,23,14,15,39,39,40,37,3,6,5,6,0.2,0.2
2026-01-01T0000,2243A,130.9429,45.3039,鸡西市,第一中学,,19,,20,13,15,42,42,44,42,5,6,3,3,0.3,0.3
2026-01-01T0000,3707A,131.0207,45.3073,鸡西市,欧美日汽修厂,,26,23,31,18,15,46,46,47,44,5,10,5,6,0.3,0.3
2026-01-01T0000,3709A,130.9967,45.3106,鸡西市,市政设施管理处,,23,23,30,14,18,39,39,37,36,6,13,6,7,0.3,0.2
2026-01-01T0000,2367A,114.9754,27.0803,吉安市,红声器材厂,细颗粒物(PM2.5),84,92,97,62,66,65,65,118,96,27,29,7,10,0.7,1
2026-01-01T0000,2368A,114.9658,27.0999,吉安市,市森林工业局,细颗粒物(PM2.5),80,90,95,59,70,70,70,127,105,24,26,10,13,0.8,0.8
2026-01-01T0000,2369A,114.99,27.1312,吉安市,市环境监测站,细颗粒物(PM2.5),77,86,100,56,66,59,59,116,94,24,25,13,15,0.4,0.7
2026-01-01T0000,2370A,115.0093,27.0968,吉安市,青原区法院,细颗粒物(PM2.5),90,89,93,67,71,66,66,111,93,20,22,11,13,0.8,1
2026-01-01T0000,1772A,126.54,43.8622,吉林市,哈达湾,,42,41,35,29,22,22,22,36,28,24,17,6,7,1.3,1.2
2026-01-01T0000,1773A,126.5844,43.8358,吉林市,东局子,细颗粒物(PM2.5),77,59,39,56,28,5,5,36,21,37,23,3,5,1.3,1.1
2026-01-01T0000,1774A,126.5052,43.8245,吉林市,电力学院,细颗粒物(PM2.5),60,50,52,43,40,14,14,38,18,30,26,9,11,1.0,1.1
2026-01-01T0000,1775A,126.6133,43.8972,吉林市,江北,细颗粒物(PM2.5),59,56,50,42,36,10,10,36,21,31,21,6,5,1.1,0.8
2026-01-01T0000,1776A,126.555,43.8306,吉林市,江南公园,细颗粒物(PM2.5),97,76,43,72,34,20,20,36,24,21,20,7,10,0.9,0.9
2026-01-01T0000,1778A,126.7061,43.7133,吉林市,丰满,,,,21,,23,,,32,31,,10,,7,,0.5
2026-01-01T0000,2868A,126.4739,43.953,吉林市,九站,,38,35,40,26,26,9,9,35,19,36,24,10,6,0.9,0.8
2026-01-01T0000,1299A,116.9862,36.6114,济南市,科干所,,34,34,37,15,13,32,32,50,42,31,24,12,7,0.8,0.7
2026-01-01T0000,1300A,116.9376,36.665,济南市,农科所,,46,46,41,20,15,24,24,52,39,35,27,9,9,0.8,0.8
2026-01-01T0000,1301A,117.1265,36.6734,济南市,开发区,颗粒物(PM10),51,51,44,29,22,29,29,53,40,26,24,9,7,0.7,0.7
2026-01-01T0000,1303A,117.0624,36.6868,济南市,省种子仓库,,39,39,47,19,17,38,38,57,47,26,30,10,12,0.6,0.6
2026-01-01T0000,1304A,116.9489,36.6447,济南市,机床二厂,,44,44,43,17,17,26,26,54,42,42,32,7,8,0.8,0.7
2026-01-01T0000,1305A,117.0495,36.663,济南市,市监测站,,34,34,40,10,16,35,35,48,40,18,23,9,8,0.7,0.7
2026-01-01T0000,1306A,116.7675,36.5484,济南市,长清党校,,49,49,40,15,14,8,8,47,32,51,27,10,10,0.7,0.7
2026-01-01T0000,1616A,117.6795,36.229,济南市,技术学院,,20,19,29,14,17,38,38,61,45,30,26,5,4,0.5,0.5
2026-01-01T0000,1961A,117.532,36.6868,济南市,东山小学,,34,34,45,20,20,45,45,58,45,19,28,16,9,0.9,0.8
2026-01-01T0000,3059A,117.7161,36.2049,济南市,泰兴公司,,31,31,36,17,21,40,40,68,52,27,22,6,4,0.5,0.5
2026-01-01T0000,3064A,117.6867,36.2171,济南市,莱芜战役纪念馆,,34,34,38,22,25,39,39,63,48,27,23,8,6,0.3,0.3
2026-01-01T0000,3494A,117.1673,36.9782,济南市,济阳区政府,,22,20,37,15,12,28,28,54,35,31,26,8,7,0.6,0.5
2026-01-01T0000,3495A,117.1171,36.63,济南市,锦屏中学,,44,44,29,17,12,31,31,56,47,26,21,6,5,0.5,0.5
2026-01-01T0000,3682A,116.9814,36.6819,济南市,济南四建,,36,36,39,17,19,22,22,46,34,33,26,10,10,0.7,0.9
2026-01-01T0000,1653A,116.6251,35.4302,济宁市,火炬城,,46,46,58,19,42,37,37,63,46,18,21,7,8,0.3,0.5
2026-01-01T0000,1655A,116.5491,35.4042,济宁市,电化厂,,46,46,75,22,41,41,41,64,46,26,29,8,10,0.2,0.4
2026-01-01T0000,3500A,116.5814,35.3707,济宁市,北湖一中,,37,37,52,25,42,38,38,58,46,24,25,7,8,0.4,0.6
2026-01-01T0000,3501A,116.8249,35.5593,济宁市,服务中心,,36,36,69,16,30,30,30,58,42,28,24,13,14,0.7,0.9
2026-01-01T0000,3678A,116.5907,35.4054,济宁市,市第七中学,,32,32,56,14,34,41,41,63,48,20,24,8,11,0.4,0.6
2026-01-01T0000,2255A,130.2751,46.8028,佳木斯市,佳纺,,22,20,30,15,23,33,33,46,44,11,16,11,7,0.2,0.3
2026-01-01T0000,2257A,130.3258,46.7975,佳木斯市,环保局,,22,18,22,15,18,40,40,38,32,7,14,6,7,0.3,0.4
2026-01-01T0000,2259A,130.3794,46.7588,佳木斯市,四丰,,,,,,,,,,,,,,,,
2026-01-01T0000,4285A,130.363,46.806,佳木斯市,顺和街,,50,38,24,35,21,34,34,33,29,8,14,7,9,0.4,0.5
2026-01-01T0000,4286A,130.3952,46.8268,佳木斯市,长安路196号,,26,23,20,18,14,37,37,40,37,10,10,5,5,0.3,0.3
2026-01-01T0000,1252A,120.7436,30.778,嘉兴市,清河小学,,28,28,33,15,17,55,55,72,62,18,25,4,5,0.2,0.2
2026-01-01T0000,1253A,120.726,30.7478,嘉兴市,嘉兴学院,,29,29,31,11,13,57,57,71,63,15,22,6,7,0.5,0.5
2026-01-01T0000,2872A,120.7846,30.7525,嘉兴市,南湖区残联,颗粒物(PM10),53,56,33,26,13,58,58,78,66,16,23,4,4,0.4,0.4
2026-01-01T0000,3407A,120.6916,30.7739,嘉兴市,秀洲住建,,29,29,33,11,14,60,60,72,63,16,25,6,7,0.3,0.4
2026-01-01T0000,1945A,98.2908,39.7711,嘉峪关市,气象局,颗粒物(PM10),64,78,87,24,29,59,59,66,64,6,10,3,3,0.3,0.4
2026-01-01T0000,2884A,98.2672,39.7978,嘉峪关市,酒钢宾馆,颗粒物(PM10),63,75,83,17,28,55,55,66,59,7,9,14,12,0.4,0.6
2026-01-01T0000,3248A,98.2643,39.7724,嘉峪关市,雄关区,颗粒物(PM10),60,69,62,26,30,64,64,69,68,8,12,14,14,0.6,0.7
2026-01-01T0000,1383A,113.1064,22.6058,江门市,北街,,46,46,79,32,52,49,49,87,59,29,64,6,8,0.7,0.8
2026-01-01T0000,1384A,113.0731,22.5835,江门市,西区,颗粒物(PM10),57,63,85,34,46,30,30,91,68,60,66,6,9,0.5,0.7
2026-01-01T0000,1385A,113.0219,22.5311,江门市,圭峰西,颗粒物(PM10),52,54,77,35,60,58,58,100,77,36,56,6,7,0.4,0.7
2026-01-01T0000,1386A,113.0828,22.5947,江门市,东湖,颗粒物(PM10),56,62,84,31,50,48,48,90,68,41,70,6,8,0.6,0.8
2026-01-01T0000,3311A,113.1075,22.5647,江门市,江海富民,颗粒物(PM10),69,87,104,33,50,50,50,96,71,43,71,6,9,0.7,0.8
2026-01-01T0000,3449A,113.05,22.4667,江门市,新会银湖,"颗粒物(PM10),细颗粒物(PM2.5)",54,58,72,38,55,5,5,94,54,58,40,6,7,0.6,0.7
2026-01-01T0000,1830A,113.1992,35.2590,焦作市,影视城,,,,47,,31,,,59,48,,13,,4,,0.5
2026-01-01T0000,3335A,113.3137,35.2641,焦作市,马村街道办,,42,42,52,24,22,46,46,58,50,15,15,4,5,0.4,0.4
2026-01-01T0000,3336A,113.2465,35.2373,焦作市,焦作技师学院,,46,46,54,29,23,32,32,51,43,20,16,5,7,0.7,0.6
2026-01-01T0000,3477A,113.1656,35.2539,焦作市,中站许衡医院,细颗粒物(PM2.5),52,44,53,36,37,36,36,57,47,20,18,3,4,0.8,0.7
2026-01-01T0000,3981A,113.2449,35.1803,焦作市,原李万街道办,,43,43,50,29,19,37,37,59,46,16,16,2,4,0.5,0.4
2026-01-01T0000,4264A,113.2340,35.2190,焦作市,新安路1731号,,43,43,57,28,27,32,32,55,45,13,12,3,5,0.4,0.4
2026-01-01T0000,4295A,113.2722,35.2121,焦作市,人民路3066号,,44,44,59,22,20,32,32,55,43,17,12,3,11,0.1,0.2
2026-01-01T0000,1708A,116.3701,23.5345,揭阳市,新兴,,46,46,52,30,34,70,70,95,77,23,31,8,9,0.6,0.7
2026-01-01T0000,1709A,116.3264,23.5443,揭阳市,西马,颗粒物(PM10),54,57,59,31,31,66,66,97,78,17,23,10,7,0.7,0.8
2026-01-01T0000,1710A,116.3611,23.5626,揭阳市,东兴,,44,44,53,22,28,71,71,96,79,17,30,8,9,0.6,0.7
2026-01-01T0000,1711A,116.4151,23.5294,揭阳市,渔湖,颗粒物(PM10),51,51,51,24,25,65,65,95,77,21,27,7,6,0.6,0.7
2026-01-01T0000,3320A,116.403,23.5699,揭阳市,曲溪,颗粒物(PM10),57,63,55,34,28,65,65,106,81,24,30,9,8,0.6,0.5
2026-01-01T0000,1944A,102.1692,38.5167,金昌市,天庆家园,颗粒物(PM10),68,85,90,42,33,46,46,58,55,16,13,13,11,0.6,0.6
2026-01-01T0000,4022A,102.1647,38.5371,金昌市,金川区人防中心,细颗粒物(PM2.5),74,92,82,54,33,45,45,61,54,18,11,36,8,0.9,0.6
2026-01-01T0000,4239A,102.1930,38.5319,金昌市,长春路96号,颗粒物(PM10),63,76,80,28,22,56,56,64,61,10,9,4,6,1.1,0.7
2026-01-01T0000,1262A,119.647,29.077,金华市,十五中,,41,41,46,24,29,55,55,60,59,25,25,3,3,0.4,0.4
2026-01-01T0000,1263A,119.686,29.1029,金华市,监测站,,48,48,56,22,26,48,48,58,56,37,34,1,2,0.3,0.2
2026-01-01T0000,3659A,119.656,29.1131,金华市,气象局,,,39,43,19,23,54,54,57,56,31,32,2,2,,0.4
2026-01-01T0000,1767A,121.1115,41.0879,锦州市,南山,细颗粒物(PM2.5),158,,30,120,26,7,7,54,25,48,20,12,11,2.4,0.7
2026-01-01T0000,1768A,121.0604,40.8428,锦州市,开发区,颗粒物(PM10),82,114,41,49,19,2,2,49,14,79,28,14,15,1.2,0.7
2026-01-01T0000,1769A,121.1836,41.1119,锦州市,百股街道,细颗粒物(PM2.5),94,84,31,70,23,2,2,47,14,43,24,15,13,1.6,0.9
2026-01-01T0000,1770A,121.1178,41.1222,锦州市,天安街道,细颗粒物(PM2.5),94,72,27,70,20,5,5,55,22,54,20,16,12,1.7,0.7
2026-01-01T0000,1771A,121.1303,41.1386,锦州市,北湖公园,细颗粒物(PM2.5),77,,24,56,18,6,6,52,22,41,14,20,11,1.3,0.5
2026-01-01T0000,2160A,112.85,35.5051,晋城市,自来水公司,细颗粒物(PM2.5),57,60,101,40,56,37,37,53,44,15,19,3,5,0.5,0.9
2026-01-01T0000,2161A,112.8318,35.4936,晋城市,白云商贸,颗粒物(PM10),69,88,92,44,47,36,36,53,45,11,14,2,4,0.6,0.8
2026-01-01T0000,2162A,112.8508,35.4887,晋城市,市环保局,细颗粒物(PM2.5),58,64,85,41,51,38,38,55,46,15,19,3,5,0.7,0.9
2026-01-01T0000,2163A,112.8676,35.4897,晋城市,技术学院,细颗粒物(PM2.5),83,83,82,61,50,34,34,49,43,22,24,4,6,0.5,0.7
2026-01-01T0000,2165A,112.8453,35.546,晋城市,白马寺,细颗粒物(PM2.5),57,54,83,40,58,34,34,58,42,19,17,8,9,1.2,0.9
2026-01-01T0000,3620A,112.8271,35.4828,晋城市,泽州一中,细颗粒物(PM2.5),104,,76,78,54,36,36,58,48,21,21,4,4,0.7,0.9
2026-01-01T0000,2173A,112.7249,37.7067,晋中市,南都小区,细颗粒物(PM2.5),115,135,73,87,35,8,8,50,26,45,30,12,10,1.4,0.5
2026-01-01T0000,2174A,112.6991,37.6982,晋中市,榆次区政府,细颗粒物(PM2.5),95,107,67,71,33,10,10,49,22,41,34,11,9,0.7,0.5
2026-01-01T0000,2865A,112.7195,37.6828,晋中市,榆次三中,细颗粒物(PM2.5),83,100,70,61,27,12,12,49,24,34,25,13,10,0.7,0.5
2026-01-01T0000,4200A,112.7478,37.6954,晋中市,迎宾街26号,细颗粒物(PM2.5),85,102,69,63,31,8,8,50,28,46,29,12,10,0.7,0.5
2026-01-01T0000,2439A,112.2014,31.0481,荆门市,竹园小学,,49,37,111,34,91,39,39,69,33,23,24,2,1,0,0.4
2026-01-01T0000,2440A,112.1969,30.9891,荆门市,掇刀,,50,47,123,35,88,39,39,76,33,16,21,3,2,0.4,0.7
2026-01-01T0000,2441A,112.2213,31.0386,荆门市,石化一小,,36,33,118,25,86,36,36,61,30,21,24,5,6,0.8,1
2026-01-01T0000,3012A,112.1849,31.0362,荆门市,西山林语,细颗粒物(PM2.5),125,181,110,95,87,39,39,74,34,16,20,10,5,0.6,0.8
2026-01-01T0000,3547A,112.1632,31.0138,荆门市,龙泉中学南校,,48,38,107,33,90,42,42,80,38,8,11,5,6,0.3,0.4
2026-01-01T0000,1844A,112.2494,30.3197,荆州市,市图书馆,细颗粒物(PM2.5),52,40,83,36,108,35,35,68,28,18,20,5,6,0.7,0.9
2026-01-01T0000,1845A,112.2008,30.3544,荆州市,市委党校,细颗粒物(PM2.5),52,,93,36,104,31,31,61,24,19,24,3,3,0.7,0.9
2026-01-01T0000,3194A,112.2747,30.3122,荆州市,管委会,细颗粒物(PM2.5),52,36,88,36,102,33,33,63,27,20,20,4,5,0.6,0.9
2026-01-01T0000,4268A,112.1722,30.3366,荆州市,学苑路85号,,39,,92,27,90,38,38,73,33,19,20,1,1,0.6,0.8
2026-01-01T0000,2342A,117.3102,29.3867,景德镇市,王港中学,,,,,,,,,,,,,,,,
2026-01-01T0000,2343A,117.2117,29.2933,景德镇市,老干部活动中心,,26,25,48,18,39,58,58,90,70,10,14,6,7,0.5,0.7
2026-01-01T0000,2344A,117.1894,29.2789,景德镇市,兽医站,,38,28,50,26,29,62,62,94,75,12,13,6,7,0.2,0.4
2026-01-01T0000,2346A,117.2461,29.2956,景德镇市,陶研所,,23,21,39,16,33,63,63,91,74,11,12,4,4,0.5,0.6
2026-01-01T0000,4289A,117.1542,29.2566,景德镇市,青少年活动中心,,28,27,48,19,32,66,66,95,77,11,15,3,6,0.6,0.8
2026-01-01T0000,1803A,115.9872,29.6815,九江市,十里,,49,40,68,34,47,46,46,75,63,22,20,4,6,0.7,0.8
2026-01-01T0000,1804A,115.9584,29.7046,九江市,茅山头,细颗粒物(PM2.5),68,61,71,49,45,41,41,68,56,16,15,5,5,0.7,0.8
2026-01-01T0000,1805A,115.9877,29.7295,九江市,西园,,48,48,68,30,39,47,47,73,61,28,32,1,2,0.6,0.7
2026-01-01T0000,1808A,115.9114,29.6038,九江市,综合工业园,颗粒物(PM10),51,51,74,34,54,47,47,74,63,26,25,1,2,0.8,0.8
2026-01-01T0000,1809A,116.0721,29.7535,九江市,石化总厂,细颗粒物(PM2.5),69,62,78,50,46,46,46,71,60,19,21,5,6,0.5,0.6
2026-01-01T0000,1810A,115.9773,29.5698,九江市,庐山气象台,,,,,,,,,,,,,,,,
2026-01-01T0000,3190A,116.0254,29.6994,九江市,外国语学校,,49,45,64,34,41,39,39,60,51,19,21,7,8,0.6,0.7
2026-01-01T0000,4253A,116.0102,29.6594,九江市,莲花大道8号,颗粒物(PM10),52,53,80,32,45,42,42,67,57,10,11,3,3,0.4,0.5
2026-01-01T0000,4240A,98.4958,39.7339,酒泉市,玉门东路5号,颗粒物(PM10),64,78,96,24,28,57,57,59,57,3,6,9,9,0.3,0.4
2026-01-01T0000,4241A,98.5099,39.7506,酒泉市,北大街108号,颗粒物(PM10),62,73,88,12,15,57,57,60,56,9,14,8,9,0.2,0.3
2026-01-01T0000,2698A,76.0072,39.4467,喀什地区,巡警大队,,43,42,64,30,44,16,16,45,19,16,18,3,4,0.8,0.8
2026-01-01T0000,2699A,75.9755,39.4694,喀什地区,吾办,细颗粒物(PM2.5),64,56,67,46,53,28,28,39,26,20,18,2,7,0.9,0.8
2026-01-01T0000,4027A,75.9483,39.4689,喀什地区,老干局,细颗粒物(PM2.5),78,84,75,57,51,23,23,40,33,22,15,2,2,1.1,0.9
2026-01-01T0000,1824A,114.3389,34.7781,开封市,肿瘤医院,,29,29,54,20,27,41,41,49,47,18,20,4,6,0.9,1
2026-01-01T0000,1826A,114.2885,34.7965,开封市,世纪星幼儿园,,29,29,47,20,27,42,42,47,47,18,22,2,5,0.4,0.4
2026-01-01T0000,3147A,114.3438,34.8106,开封市,龙亭公园,,29,29,48,13,16,42,42,50,48,11,16,2,5,1.1,1.1
2026-01-01T0000,3210A,114.3644,34.7964,开封市,汴京公园,,41,41,57,15,22,42,42,50,49,15,20,4,6,0.7,0.7
2026-01-01T0000,3473A,114.2485,34.8306,开封市,技师学院,,34,34,51,19,25,40,40,44,44,16,21,5,7,0.6,0.6
2026-01-01T0000,3592A,114.4644,34.7556,开封市,祥符区生态环境局,,38,38,46,15,25,41,41,44,44,23,29,4,9,0.3,0.5
2026-01-01T0000,1951A,84.895,45.6094,克拉玛依市,长征新村,颗粒物(PM10),56,61,52,23,35,52,52,54,38,16,36,5,6,0.5,0.9
2026-01-01T0000,1952A,84.8988,45.5893,克拉玛依市,南林小区,颗粒物(PM10),55,60,48,25,29,22,22,43,24,38,25,2,2,0.8,1.2
2026-01-01T0000,1954A,84.905,44.3396,克拉玛依市,独山子区,细颗粒物(PM2.5),65,64,121,47,80,49,49,60,56,26,28,4,5,0.8,0.9
2026-01-01T0000,1955A,85.6979,46.098,克拉玛依市,乌尔禾区商贸楼,,47,47,48,7,30,13,13,44,36,48,35,5,6,0.8,0.8
2026-01-01T0000,3612A,85.1045,45.6899,克拉玛依市,白碱滩区新站,颗粒物(PM10),61,72,53,36,32,2,2,44,27,48,25,8,8,0.8,0.7
2026-01-01T0000,2697A,76.1454,39.7142,克孜勒苏柯尔克孜自治州,市人民政府,细颗粒物(PM2.5),62,66,59,44,41,40,40,54,48,19,12,7,6,0.6,0.4
2026-01-01T0000,3665A,76.1658,39.7157,克孜勒苏柯尔克孜自治州,克州文化中心,细颗粒物(PM2.5),52,48,54,36,40,48,48,50,46,8,12,4,4,0.5,0.6
2026-01-01T0000,1450A,102.8204,24.8886,昆明市,呈贡新区,细颗粒物(PM2.5),84,75,29,62,15,8,8,84,57,60,21,4,4,0.8,0.5
2026-01-01T0000,1451A,102.6251,24.9608,昆明市,西山森林公园,,,,,,,,,,,,,,,,
2026-01-01T0000,1452A,102.7252,25.0902,昆明市,龙泉镇,颗粒物(PM10),66,82,37,41,16,1,1,78,33,58,33,4,3,0.8,0.5
2026-01-01T0000,1453A,102.7266,25.0375,昆明市,东风东路,颗粒物(PM10),62,74,25,40,15,4,4,77,53,59,23,5,6,0.7,0.5
2026-01-01T0000,1454A,102.6742,25.0669,昆明市,金鼎山,细颗粒物(PM2.5),87,89,35,64,22,6,6,76,44,50,25,3,4,0.9,0.5
2026-01-01T0000,1455A,102.6644,25.0401,昆明市,碧鸡广场,细颗粒物(PM2.5),79,102,34,58,20,6,6,76,46,58,29,4,5,0.8,0.5
2026-01-01T0000,3179A,102.7494,25.0119,昆明市,官渡区博物馆,,36,36,25,20,11,10,10,78,56,58,23,4,4,0.4,0.4
2026-01-01T0000,3375A,102.8017,24.8336,昆明市,青年创业园,,43,43,21,24,15,17,17,87,54,34,14,4,5,0.7,0.6
2026-01-01T0000,3550A,102.7997,24.9786,昆明市,昆明学院,,48,48,27,29,15,20,20,82,60,46,18,3,4,0.4,0.4
2026-01-01T0000,3551A,102.5967,24.6736,昆明市,晋宁区生态环境分局,,,196,39,,18,16,16,70,,46,17,10,3,0.8,0.4
2026-01-01T0000,3552A,102.6678,24.9856,昆明市,云天化总部,,47,47,26,29,14,16,16,78,57,52,21,7,8,0.5,0.6
2026-01-01T0000,1456A,91.1319,29.6514,拉萨市,八廓街,,32,32,23,18,15,58,58,94,69,32,18,8,7,0.8,0.5
2026-01-01T0000,1457A,91.1221,29.6747,拉萨市,市环保局,,48,41,22,33,18,45,45,90,66,30,17,8,8,1.1,0.6
2026-01-01T0000,1458A,91.0874,29.6475,拉萨市,区监测站,,32,32,13,21,9,33,33,81,65,62,22,6,4,1.5,0.9
2026-01-01T0000,1459A,91.1774,29.6541,拉萨市,西藏大学,,23,23,16,10,8,67,67,97,86,26,16,6,5,0.6,0.4
2026-01-01T0000,1460A,90.9798,29.6588,拉萨市,区辐射站,,27,27,24,17,16,54,54,80,58,30,25,5,5,0.8,0.6
2026-01-01T0000,1461A,91.0834,29.6292,拉萨市,拉萨火车站,,29,25,18,20,10,56,56,84,72,35,23,6,4,1.0,0.6
2026-01-01T0000,2520A,109.2203,23.7256,来宾市,来宾技工学校,细颗粒物(PM2.5),97,92,75,72,56,33,33,112,78,36,27,7,10,0.8,0.6
2026-01-01T0000,3535A,109.1781,23.7297,来宾市,兴宾区政府,细颗粒物(PM2.5),80,87,68,59,48,43,43,115,81,26,19,6,7,0.8,0.7
2026-01-01T0000,4002A,109.2416,23.7461,来宾市,中南小学,颗粒物(PM10),76,101,75,52,51,20,20,107,64,47,33,5,7,0.9,0.8
2026-01-01T0000,1477A,104.1373,35.9454,兰州市,榆中兰大校区,,,,,,,,,,,,,,,,
2026-01-01T0000,1479A,103.831,36.0464,兰州市,铁路设计院,,,,,,,,,,,,,,,,
2026-01-01T0000,3241A,103.7439,36.0842,兰州市,百合公园,细颗粒物(PM2.5),75,58,68,55,47,26,26,46,35,27,28,7,11,0.8,0.7
2026-01-01T0000,3242A,103.9611,35.998,兰州市,和平,细颗粒物(PM2.5),113,95,78,85,61,24,24,49,34,25,18,3,7,0.7,0.8
2026-01-01T0000,4236A,103.6293,36.0938,兰州市,庄浪东路808号,细颗粒物(PM2.5),85,85,78,63,51,18,18,52,37,44,31,10,15,0.8,0.7
2026-01-01T0000,4237A,103.7251,36.1043,兰州市,安宁西路88号,细颗粒物(PM2.5),90,92,82,67,49,35,35,54,45,28,26,4,8,0.5,0.6
2026-01-01T0000,4238A,103.8470,36.0676,兰州市,北滨河东路1号,细颗粒物(PM2.5),73,88,75,53,52,15,15,50,28,46,34,6,11,0.9,0.9
2026-01-01T0000,3245A,103.6633,36.533,兰州新区,新区管委会,颗粒物(PM10),59,68,57,39,34,48,48,73,68,17,16,17,14,0.6,0.5
2026-01-01T0000,3246A,103.6975,36.4789,兰州新区,舟曲中学,细颗粒物(PM2.5),57,52,58,40,29,55,55,88,78,34,20,2,5,0.5,0.6
2026-01-01T0000,1067A,116.6708,39.5111,廊坊市,药材公司,,40,40,16,13,8,13,13,55,21,42,18,1,2,0.6,0.4
2026-01-01T0000,1068A,116.7214,39.5589,廊坊市,开发区,,30,30,13,17,6,22,22,57,23,36,21,1,1,0.5,0.3
2026-01-01T0000,1070A,116.7244,39.5269,廊坊市,北华航天学院,,38,38,18,16,7,24,24,56,31,33,17,3,2,0.4,0.3
2026-01-01T0000,2919A,116.7022,39.5453,廊坊市,河北工业大学,,35,35,16,16,5,22,22,55,32,35,18,2,2,0.4,0.3
2026-01-01T0000,2535A,103.7723,29.5462,乐山市,花湖湾,,,,,,,,,,,,,,,,
2026-01-01T0000,2536A,103.7627,29.5844,乐山市,牛耳桥,细颗粒物(PM2.5),52,40,78,36,70,19,19,53,26,26,26,7,8,0.6,0.8
2026-01-01T0000,2537A,103.7508,29.6006,乐山市,市第三水厂,细颗粒物(PM2.5),52,46,80,36,63,17,17,46,24,27,29,6,6,0.6,0.6
2026-01-01T0000,2538A,103.7571,29.5664,乐山市,市监测站,细颗粒物(PM2.5),52,44,78,36,66,18,18,50,32,22,21,7,7,1.1,1.1
2026-01-01T0000,3361A,103.7311,29.5628,乐山市,理工大学,细颗粒物(PM2.5),52,42,72,36,60,18,18,56,33,24,20,4,4,0.8,0.9
2026-01-01T0000,2598A,100.2143,26.8576,丽江市,西南郊,,,,,,,,,,,,,,,,
2026-01-01T0000,2599A,100.2497,26.8802,丽江市,丽江古城,,33,33,23,18,9,48,48,73,65,16,11,8,8,0.6,0.5
2026-01-01T0000,2600A,100.2203,26.8906,丽江市,市中心,,42,,18,29,15,50,50,70,60,16,14,6,7,0.4,0.3
2026-01-01T0000,1267A,119.914,28.4514,丽水市,监测站大楼,,49,49,59,26,54,59,59,73,59,16,22,5,5,0.4,0.6
2026-01-01T0000,1268A,119.93,28.4586,丽水市,莲都小学,,40,40,64,17,34,63,63,75,60,19,27,5,5,0.3,0.4
2026-01-01T0000,1269A,119.879,28.4231,丽水市,余庄前,,32,32,60,18,45,45,45,71,51,18,20,4,4,0.3,0.4
2026-01-01T0000,1173A,119.176,34.5885,连云港市,市环境监测站,,49,48,38,34,21,36,36,57,50,20,15,10,10,0.7,0.6
2026-01-01T0000,3000A,119.3581,34.6972,连云港市,德源药业,,,39,63,27,23,45,45,59,51,16,18,3,3,,0.8
2026-01-01T0000,3007A,119.178,34.844,连云港市,新城一中,,47,47,50,29,25,20,20,63,42,36,22,20,15,0.7,0.8
2026-01-01T0000,3008A,119.3608,34.7519,连云港市,胡沟管理处,,35,34,30,24,19,44,44,63,55,17,15,4,6,0.6,0.5
2026-01-01T0000,3009A,119.1478,34.5911,连云港市,矿山设计院,,48,48,38,29,18,38,38,61,53,22,16,9,7,1.0,0.8
2026-01-01T0000,3434A,119.2413,34.6539,连云港市,工贸学校,颗粒物(PM10),53,55,35,33,22,33,33,59,51,20,13,11,10,0.8,0.6
2026-01-01T0000,3664A,119.4172,34.7341,连云港市,连云街道,,40,40,33,22,20,36,36,56,44,25,23,4,4,0.4,0.5
2026-01-01T0000,2571A,102.3431,27.8099,凉山彝族自治州,青龙寺,,,,,,,,,,,,,,,,
2026-01-01T0000,2572A,102.2721,27.8415,凉山彝族自治州,邛海宾馆,细颗粒物(PM2.5),52,45,60,36,44,45,45,89,59,17,19,10,11,0.5,0.7
2026-01-01T0000,2573A,102.2625,27.898,凉山彝族自治州,西昌市政府,,38,38,45,22,33,53,53,78,64,9,18,8,11,0.5,0.9
2026-01-01T0000,2574A,102.2685,27.8851,凉山彝族自治州,凉山州政府,细颗粒物(PM2.5),57,47,56,40,38,38,38,74,53,17,24,9,12,0.8,0.9
2026-01-01T0000,4229A,102.2342,27.8859,凉山彝族自治州,凯乐南路30号,细颗粒物(PM2.5),112,113,73,84,48,6,6,67,34,52,42,7,10,1.1,1
2026-01-01T0000,2212A,123.2,41.1953,辽阳市,宏伟区,,26,26,26,15,15,29,29,46,32,11,8,6,7,0.6,0.5
2026-01-01T0000,2213A,123.1683,41.2495,辽阳市,新华园,细颗粒物(PM2.5),62,58,33,44,17,14,14,44,22,29,17,21,16,0.7,0.7
2026-01-01T0000,2214A,123.2354,41.2639,辽阳市,滨河路,,37,37,28,23,15,29,29,43,29,16,11,9,6,0.7,0.6
2026-01-01T0000,2215A,123.149,41.2991,辽阳市,铁西工业园,细颗粒物(PM2.5),63,72,32,45,20,2,2,41,16,37,22,14,10,1.0,0.6
2026-01-01T0000,2227A,125.1358,42.8845,辽源市,环保局,颗粒物(PM10),100,149,86,62,22,10,10,47,24,33,14,2,3,1.3,0.7
2026-01-01T0000,3239A,125.0764,42.9078,辽源市,银鹰制药,细颗粒物(PM2.5),72,72,40,52,27,6,6,41,15,34,19,7,6,1.1,0.6
2026-01-01T0000,1625A,115.9848,36.4372,聊城市,区政府,,25,25,32,8,13,42,42,52,48,28,30,14,16,0.6,0.7
2026-01-01T0000,2878A,116.0072,36.4343,聊城市,聊大东校,,39,34,37,27,19,39,39,55,48,32,27,15,15,0.6,0.8
2026-01-01T0000,3200A,115.9819,36.4978,聊城市,监控中心,,25,23,29,17,14,36,36,54,47,27,20,10,12,0.4,0.5
2026-01-01T0000,3513A,116.0445,36.4361,聊城市,九州社区,,40,40,45,19,16,42,42,60,48,25,20,8,8,0.5,0.6
2026-01-01T0000,4018A,116.0567,36.4608,聊城市,星美广场,颗粒物(PM10),54,58,49,24,16,28,28,52,42,28,22,7,10,0.5,0.6
2026-01-01T0000,2632A,94.3681,29.6376,林芝市,林芝监测站,,30,,10,21,6,51,51,90,81,15,5,5,4,0.5,0.3
2026-01-01T0000,2633A,94.3616,29.6616,林芝市,林芝人民医院,,26,26,14,17,8,52,52,84,72,12,7,4,4,0.6,0.5
2026-01-01T0000,2603A,100.0781,23.8982,临沧市,市环保局,细颗粒物(PM2.5),68,57,36,49,40,32,32,84,,15,12,6,5,0.6,0.5
2026-01-01T0000,2604A,100.0894,23.8822,临沧市,市气象局,细颗粒物(PM2.5),62,55,40,44,24,27,27,74,47,18,14,6,6,0.6,0.4
2026-01-01T0000,1733A,111.5531,36.0783,临汾市,临钢医院,细颗粒物(PM2.5),92,92,101,68,62,13,13,29,21,34,30,13,11,1.0,0.8
2026-01-01T0000,1734A,111.5028,36.0714,临汾市,技工学校,细颗粒物(PM2.5),93,79,94,69,60,8,8,26,18,40,34,12,10,1.2,1
2026-01-01T0000,1736A,111.5018,36.0855,临汾市,市委,细颗粒物(PM2.5),94,82,112,70,59,12,12,29,20,40,36,14,12,1.5,1.4
2026-01-01T0000,3018A,111.505,36.1014,临汾市,唐尧大酒店,细颗粒物(PM2.5),103,110,99,77,53,11,11,26,17,38,37,10,9,1.2,1
2026-01-01T0000,4244A,111.4879,36.0530,临汾市,启星学校,细颗粒物(PM2.5),87,77,89,64,56,10,10,28,19,43,37,6,10,1.1,1
2026-01-01T0000,4271A,103.2464,35.6123,临夏回族自治州,滨河东路1号,细颗粒物(PM2.5),109,129,141,82,84,1,1,50,34,43,30,5,8,1.1,1.4
2026-01-01T0000,4310A,103.2093,35.5995,临夏回族自治州,新华街21号,细颗粒物(PM2.5),75,85,122,55,85,32,32,51,43,31,33,8,12,0.9,1.3
2026-01-01T0000,1618A,118.3429,35.0532,临沂市,沂河小区,,49,46,48,34,37,40,40,56,46,22,24,9,10,0.5,0.5
2026-01-01T0000,1619A,118.295,35.0583,临沂市,鲁南制药厂,,38,31,43,26,30,44,44,57,47,23,25,9,10,0.4,0.5
2026-01-01T0000,1620A,118.2794,34.9976,临沂市,新光毛纺厂,,39,39,42,25,30,47,47,56,48,14,18,8,9,0.4,0.5
2026-01-01T0000,1621A,118.3956,35.0888,临沂市,河东保险公司,颗粒物(PM10),51,51,46,21,28,37,37,58,45,19,18,8,9,0.4,0.6
2026-01-01T0000,3370A,118.3564,35.0215,临沂市,十里堡居委,,36,36,41,19,18,39,39,59,47,27,25,9,9,0.5,0.6
2026-01-01T0000,3496A,118.3604,35.1084,临沂市,南坊新区,,39,31,40,27,26,39,39,59,46,24,23,8,9,0.4,0.5
2026-01-01T0000,3860A,118.3920,35.0300,临沂市,皇山花园小区,,43,36,44,30,26,38,38,63,48,25,21,12,12,0.6,0.6
2026-01-01T0000,1870A,109.4856,24.3895,柳州市,柳东小学,细颗粒物(PM2.5),98,86,70,73,55,49,49,62,57,22,27,9,9,0.9,0.8
2026-01-01T0000,1871A,109.4157,24.3277,柳州市,环保监测站,细颗粒物(PM2.5),124,132,80,94,54,30,30,80,46,31,36,8,7,1.0,0.8
2026-01-01T0000,1872A,109.389,24.341,柳州市,河西水厂,细颗粒物(PM2.5),113,136,92,85,52,21,21,84,48,37,38,10,7,2.0,1.1
2026-01-01T0000,1873A,109.4311,24.2921,柳州市,市四中,细颗粒物(PM2.5),102,99,79,76,50,35,35,87,50,31,40,11,11,1.1,1
2026-01-01T0000,1874A,109.4006,24.3631,柳州市,市九中,细颗粒物(PM2.5),102,131,76,76,53,30,30,58,49,29,35,12,11,1.0,0.9
2026-01-01T0000,1875A,109.4958,24.3134,柳州市,古亭山,细颗粒物(PM2.5),92,90,64,68,42,57,57,81,56,22,31,10,10,0.8,0.6
2026-01-01T0000,3402A,109.5422,24.3996,柳州市,市二中,细颗粒物(PM2.5),95,86,67,71,51,65,65,60,47,19,32,10,9,0.8,0.7
2026-01-01T0000,2307A,116.5079,31.737,六安市,监测大楼,,23,16,37,16,24,46,46,57,48,14,21,2,3,0.3,0.4
2026-01-01T0000,2308A,116.4738,31.7643,六安市,皖西学院,,22,22,47,15,24,50,50,62,53,15,22,1,2,0.3,0.3
2026-01-01T0000,2309A,116.4996,31.7905,六安市,朝阳厂,,29,,35,20,22,47,47,58,49,12,20,2,3,0.3,0.4
2026-01-01T0000,2310A,116.5567,31.7886,六安市,开发区,,23,,40,16,26,47,47,58,50,12,20,3,2,0.2,0.3
2026-01-01T0000,2576A,104.8,26.5892,六盘水市,窑上,,49,46,45,34,31,41,41,57,45,10,10,3,3,0.7,0.6
2026-01-01T0000,2577A,104.83,26.5917,六盘水市,黄土坡,细颗粒物(PM2.5),53,46,44,37,32,38,38,54,41,11,18,6,10,0.7,0.9
2026-01-01T0000,2578A,104.89,26.5939,六盘水市,水钢,,43,34,41,30,32,30,30,52,33,13,12,5,6,0.7,0.7
2026-01-01T0000,2579A,104.8475,26.5894,六盘水市,民中,,43,43,44,29,36,31,31,49,34,12,19,4,8,0.7,0.9
2026-01-01T0000,2580A,104.9544,26.5506,六盘水市,双水,,43,36,42,30,30,25,25,56,28,12,10,3,4,0.6,0.3
2026-01-01T0000,2335A,117.0189,25.1181,龙岩市,龙岩师专,,,,,,,,,,,,,,,,
2026-01-01T0000,2336A,117.0217,25.1033,龙岩市,龙岩市监测站,细颗粒物(PM2.5),64,50,35,46,25,66,66,96,82,28,22,11,15,0.5,0.6
2026-01-01T0000,2337A,117.0258,25.0661,龙岩市,闽西职业技术学院,细颗粒物(PM2.5),59,44,36,42,27,81,81,100,88,17,17,9,12,0.5,0.5
2026-01-01T0000,2338A,117.0196,25.0306,龙岩市,龙岩学院,细颗粒物(PM2.5),58,47,37,41,27,79,79,95,79,12,16,8,10,0.5,0.5
2026-01-01T0000,2665A,105.0822,33.3261,陇南市,汉王镇固水子,,,,,,,,,,,,,,,,
2026-01-01T0000,2885A,104.9339,33.3826,陇南市,滨江中学,"颗粒物(PM10),细颗粒物(PM2.5)",57,63,64,40,36,52,52,49,49,16,19,6,6,1.1,0.9
2026-01-01T0000,3247A,104.955,33.371,陇南市,市总工会,颗粒物(PM10),62,73,67,40,38,52,52,54,52,18,18,4,4,1.1,1
2026-01-01T0000,2487A,111.9589,27.8901,娄底市,电视发射台,,,,,,,,,,,,,,,,
2026-01-01T0000,2488A,111.9975,27.725,娄底市,市监测站,,,,122,7,102,36,36,65,39,19,25,5,7,0.6,0.8
2026-01-01T0000,2489A,112.0194,27.7314,娄底市,市委党校,,,,130,,111,,,69,36,16,33,2,6,0.6,0.8
2026-01-01T0000,2490A,111.9561,27.7569,娄底市,涟钢,,18,15,126,12,103,31,31,58,33,14,28,4,7,0.6,1
2026-01-01T0000,2491A,111.9892,27.7044,娄底市,市政府,,,,102,0,96,35,35,48,38,15,21,4,5,0.5,0.7
2026-01-01T0000,1893A,105.4324,28.9634,泸州市,九狮山,,,,,,,,,,,,,,,,
2026-01-01T0000,1894A,105.4427,28.9063,泸州市,小市上码头,细颗粒物(PM2.5),60,55,57,43,44,28,28,38,34,18,19,10,10,0.8,0.8
2026-01-01T0000,1895A,105.4241,28.8573,泸州市,兰田宪桥,细颗粒物(PM2.5),67,59,57,48,47,12,12,34,20,26,19,7,7,1.1,1
2026-01-01T0000,1896A,105.4379,28.8833,泸州市,市环监站,细颗粒物(PM2.5),62,56,56,44,44,14,14,31,21,19,18,8,8,0.7,0.6
2026-01-01T0000,4272A,105.3689,28.7783,泸州市,纳溪中医医院,细颗粒物(PM2.5),67,56,50,48,45,13,13,35,20,23,20,7,7,1.0,0.9
2026-01-01T0000,2183A,111.1406,37.5211,吕梁市,环保局,细颗粒物(PM2.5),118,108,94,89,50,9,9,22,6,36,41,16,10,0.5,0.7
2026-01-01T0000,2185A,111.1297,37.5136,吕梁市,自来水公司,细颗粒物(PM2.5),175,169,112,132,64,6,6,24,6,38,40,25,12,0.6,0.8
2026-01-01T0000,2867A,111.1283,37.51,吕梁市,马茂庄小学,细颗粒物(PM2.5),235,297,117,185,63,0,0,16,1,41,43,14,10,0.6,0.8
2026-01-01T0000,1812A,112.3931,34.6516,洛阳市,市委党校,细颗粒物(PM2.5),55,,57,39,38,40,40,57,43,22,27,6,9,0.5,0.5
2026-01-01T0000,1815A,112.494,34.6886,洛阳市,河南林校,,43,39,63,30,36,38,38,58,44,23,23,4,6,0.5,0.6
2026-01-01T0000,1816A,112.3844,34.623,洛阳市,开发区管委会,,48,38,67,33,41,41,41,56,45,21,21,7,9,0.5,0.6
2026-01-01T0000,1817A,112.4267,34.6258,洛阳市,市委新办公区,细颗粒物(PM2.5),55,,65,39,47,38,38,56,42,21,24,7,9,0.5,0.5
2026-01-01T0000,3340A,112.6005,34.6326,洛阳市,伊滨,细颗粒物(PM2.5),52,44,70,36,39,38,38,56,44,22,21,5,7,0.7,0.6
2026-01-01T0000,3341A,112.4951,34.6332,洛阳市,中移产业园,细颗粒物(PM2.5),54,,62,38,42,34,34,52,39,26,29,8,9,0.5,0.5
2026-01-01T0000,3593A,112.5736,34.8993,洛阳市,吉利监测站,,40,33,58,28,31,41,41,58,45,20,24,5,7,0.6,0.6
2026-01-01T0000,3635A,112.3677,34.662,洛阳市,河科大西苑校区,,45,35,66,31,36,41,41,58,43,19,24,6,9,0.4,0.7
2026-01-01T0000,3636A,112.4388,34.6781,洛阳市,英才小学,细颗粒物(PM2.5),55,40,64,39,43,42,42,60,46,26,30,6,8,0.6,0.6
2026-01-01T0000,4214A,112.4600,34.6949,洛阳市,春都路1号院,,40,40,72,26,33,36,36,54,40,19,21,7,8,0.6,0.6
2026-01-01T0000,2399A,114.051,33.5699,漯河市,三五一五工厂,,45,36,114,31,77,39,39,40,38,13,23,6,8,0.6,0.8
2026-01-01T0000,2400A,114.0055,33.5698,漯河市,漯河大学,,42,38,98,29,71,42,42,42,40,16,24,5,7,0.4,0.7
2026-01-01T0000,2401A,114.0138,33.5828,漯河市,市水利局,,39,31,93,27,72,38,38,37,36,21,27,7,8,0.6,0.8
2026-01-01T0000,2402A,114.0261,33.5698,漯河市,市广电局,,32,29,97,22,70,41,41,42,40,13,21,6,7,0.5,0.7
2026-01-01T0000,3478A,113.9749,33.5664,漯河市,市图书馆,,43,41,111,30,78,38,38,38,36,18,24,4,5,0.7,0.9
2026-01-01T0000,4250A,114.0892,33.5882,漯河市,韶山路11号,,43,35,102,30,77,38,38,38,36,16,25,8,9,0.7,0.9
2026-01-01T0000,1798A,118.5092,31.6837,马鞍山市,湖东路四小,,40,40,35,14,14,61,61,71,58,12,16,3,3,0.3,0.3
2026-01-01T0000,1799A,118.5024,31.6449,马鞍山市,开发区,,34,34,38,16,16,66,66,74,63,10,17,4,4,0.4,0.4
2026-01-01T0000,1802A,118.6245,31.7241,马鞍山市,濮塘,,,,,,,,,,,,,,,,
2026-01-01T0000,3633A,118.4918,31.6809,马鞍山市,雨山,,39,39,36,15,14,64,64,74,60,10,14,4,5,0.4,0.4
2026-01-01T0000,4191A,118.5274,31.72227,马鞍山市,慈湖高新区,,33,33,31,16,16,62,62,74,59,12,14,4,4,0.3,0.4
2026-01-01T0000,1686A,111.0286,21.4688,茂名市,电白南海,颗粒物(PM10),51,51,67,24,40,89,89,140,115,18,25,9,13,0.8,0.9
2026-01-01T0000,1687A,110.9294,21.6533,茂名市,茂石化七小,颗粒物(PM10),54,58,65,34,37,91,91,123,110,22,26,10,11,0.2,0.3
2026-01-01T0000,1688A,110.9107,21.6687,茂名市,健康路,细颗粒物(PM2.5),52,46,56,36,37,105,105,137,127,19,22,13,13,0.7,0.7
2026-01-01T0000,1689A,110.8592,21.6828,茂名市,高岭,颗粒物(PM10),54,58,81,29,37,113,113,127,120,17,28,14,19,0.7,0.7
2026-01-01T0000,3450A,111.01,21.5165,茂名市,电白水东,颗粒物(PM10),51,51,61,29,36,88,88,128,110,16,21,12,13,0.5,0.6
2026-01-01T0000,2539A,104.0308,30.0478,眉山市,黑龙滩水库,,,,,,,,,,,,,,,,
2026-01-01T0000,2540A,103.8416,30.0874,眉山市,气象局,,27,27,92,17,76,40,40,50,43,14,27,8,10,0.6,0.9
2026-01-01T0000,3137A,103.8578,30.0744,眉山市,市委党校,,12,12,84,7,72,36,36,46,39,15,25,6,8,0.7,0.9
2026-01-01T0000,3148A,103.8291,30.0564,眉山市,区人社局,,38,38,95,14,75,40,40,46,41,15,25,4,8,0.6,0.8
2026-01-01T0000,1690A,116.1231,24.3284,梅州市,梅江月梅,,38,28,47,26,32,53,53,91,70,20,27,5,6,0.5,0.6
2026-01-01T0000,1691A,116.0797,24.2719,梅州市,梅县新城,细颗粒物(PM2.5),93,74,55,69,42,4,4,94,37,55,37,8,9,0.9,0.7
2026-01-01T0000,1692A,116.1248,24.2654,梅州市,环境监控中心,细颗粒物(PM2.5),53,50,55,37,33,28,28,84,37,46,38,8,9,0.6,0.6
2026-01-01T0000,3315A,116.1233,24.2991,梅州市,梅龙,细颗粒物(PM2.5),58,51,49,41,33,52,52,86,65,22,28,10,11,0.6,0.7
2026-01-01T0000,1878A,104.7778,31.4741,绵阳市,富乐山,,32,26,62,22,57,72,72,64,64,15,18,10,11,0.6,0.7
2026-01-01T0000,1880A,104.6697,31.4668,绵阳市,高新区自来水公司,,35,27,63,24,54,66,66,53,53,16,24,8,8,0.6,0.7
2026-01-01T0000,1881A,104.7287,31.5075,绵阳市,三水厂,,33,33,80,23,63,76,76,61,61,16,30,7,7,0.7,0.8
2026-01-01T0000,3491A,104.69,31.5322,绵阳市,西科大附属小学,,29,28,64,20,49,69,69,59,59,13,20,8,8,0.8,0.9
2026-01-01T0000,3492A,104.5648,31.5343,绵阳市,安州区旅游局,,39,,52,27,56,62,62,49,49,15,23,13,15,0.8,0.9
2026-01-01T0000,4226A,104.7651,31.4531,绵阳市,绵阳市气象局,,32,27,57,22,49,73,73,63,63,11,18,5,6,1.2,1.3
2026-01-01T0000,1784A,129.61,44.561,牡丹江市,环保大楼,细颗粒物(PM2.5),58,54,43,41,21,36,36,43,38,12,10,8,8,0.7,0.6
2026-01-01T0000,1785A,129.6115,44.5782,牡丹江市,文化广场,,,,37,,28,33,33,41,35,10,10,9,4,0.4,0.5
2026-01-01T0000,1787A,129.6364,44.6075,牡丹江市,机车工厂,,33,33,38,17,21,38,38,46,41,10,11,2,2,0.2,0.2
2026-01-01T0000,1788A,129.6386,44.5462,牡丹江市,第一中学,,36,31,29,25,20,35,35,40,35,5,8,4,4,0.3,0.3
2026-01-01T0000,4287A,129.5992,44.5964,牡丹江市,东晓云街98号,,45,36,38,31,29,34,34,41,36,8,8,5,4,0.5,0.5
2026-01-01T0000,2531A,105.0703,29.61,内江市,市监测站,,48,48,68,32,66,16,16,41,22,12,20,5,5,1.0,1
2026-01-01T0000,2532A,105.0717,29.5947,内江市,东兴区政府,,50,50,69,35,63,6,6,30,14,17,25,5,5,0.7,0.7
2026-01-01T0000,2533A,105.0653,29.5817,内江市,内江二中,颗粒物(PM10),51,52,83,33,63,6,6,31,16,20,24,4,4,1.0,0.9
2026-01-01T0000,2534A,105.0406,29.5822,内江市,内江日报社,,46,46,71,20,57,6,6,28,12,17,28,2,3,0.7,0.7
2026-01-01T0000,2628A,92.0657,31.4846,那曲市,那曲监测站,细颗粒物(PM2.5),138,144,59,105,49,15,15,76,45,74,35,20,13,3.4,1.6
2026-01-01T0000,4243A,92.0515,31.4787,那曲市,那曲市委宣传部,,45,45,32,30,21,16,16,82,58,40,21,21,15,0.9,0.9
2026-01-01T0000,1290A,115.8931,28.6843,南昌市,省外办,颗粒物(PM10),54,58,109,31,78,57,57,86,66,30,30,8,8,1.0,1.3
2026-01-01T0000,1291A,115.8886,28.7003,南昌市,省林业公司,颗粒物(PM10),59,68,112,24,71,52,52,80,60,16,18,4,4,0.8,1
2026-01-01T0000,1292A,115.8126,28.7442,南昌市,林科所,,46,46,124,19,64,48,48,80,58,21,20,6,6,0.3,0.5
2026-01-01T0000,1294A,115.8518,28.687,南昌市,建工学校,颗粒物(PM10),69,88,138,25,76,43,43,72,51,28,27,12,12,0.5,0.7
2026-01-01T0000,1295A,115.8921,28.6424,南昌市,象湖,颗粒物(PM10),74,97,105,31,75,43,43,78,54,23,22,9,9,0.7,0.9
2026-01-01T0000,1296A,115.7423,28.7996,南昌市,武术学校,,,,,,,,,,,,,,,,
2026-01-01T0000,3046A,115.9084,28.6062,南昌市,机电学校,颗粒物(PM10),81,111,127,29,78,49,49,87,60,21,21,5,5,0.6,0.8
2026-01-01T0000,3690A,115.9721,28.7031,南昌市,外国语学校,颗粒物(PM10),83,116,122,34,81,42,42,76,52,24,21,12,12,0.5,0.7
2026-01-01T0000,4192A,115.9316,28.68677,南昌市,南京东路235号,颗粒物(PM10),72,93,120,26,87,47,47,80,56,27,29,6,6,0.1,0.4
2026-01-01T0000,1905A,106.056,30.8064,南充市,西山风景区,,,,,,,,,,,,,,,,
2026-01-01T0000,1906A,106.0789,30.8023,南充市,南充市委,,13,9,49,8,47,40,40,25,25,15,22,4,4,0.7,0.8
2026-01-01T0000,1907A,106.1031,30.8217,南充市,南充炼油厂,,32,26,57,22,52,48,48,31,31,11,17,5,5,0.5,0.7
2026-01-01T0000,4227A,106.1083,30.7884,南充市,梨树横街98号,,17,7,46,3,42,54,54,35,35,12,20,4,5,0.6,0.7
2026-01-01T0000,4304A,106.1172,30.843,南充市,清泉寺北路188号,,17,12,46,7,42,53,53,38,38,11,17,5,6,0.8,0.9
2026-01-01T0000,4305A,106.067,30.7616,南充市,同庆路1号,,18,15,47,12,43,46,46,28,28,15,22,6,6,0.6,1
2026-01-01T0000,1151A,118.8086,32.1065,南京市,迈皋桥,,21,21,29,7,11,60,60,67,60,2,10,4,4,0.9,0.9
2026-01-01T0000,1152A,118.7538,32.0551,南京市,草场门,,27,27,32,9,12,50,50,56,51,15,20,6,6,0.1,0.2
2026-01-01T0000,1153A,118.7794,32.0745,南京市,山西路,,31,31,33,7,9,60,60,65,60,6,16,3,3,0.2,0.3
2026-01-01T0000,1154A,118.7752,32.0023,南京市,中华门,,24,24,30,12,11,54,54,64,54,1,3,5,4,0.3,0.3
2026-01-01T0000,1155A,118.8109,32.0309,南京市,瑞金路,,22,22,27,12,14,50,50,57,49,3,13,4,4,0.5,0.5
2026-01-01T0000,1156A,118.7997,32.0754,南京市,玄武湖,,25,25,29,3,7,54,54,59,54,15,19,4,4,0.2,0.3
2026-01-01T0000,1157A,118.6414,32.0931,南京市,浦口,,26,26,34,10,13,55,55,59,56,14,19,7,7,0.3,0.4
2026-01-01T0000,1158A,118.7356,31.9996,南京市,奥体中心,,32,32,32,9,11,61,61,74,62,10,11,2,3,0.3,0.3
2026-01-01T0000,1159A,118.9125,32.1028,南京市,仙林大学城,,24,24,31,3,18,55,55,59,56,10,17,6,6,0.5,0.5
2026-01-01T0000,3422A,118.8436,31.9198,南京市,江宁彩虹桥,,28,28,34,12,13,56,56,67,56,7,12,5,4,0.3,0.3
2026-01-01T0000,3427A,118.8554,32.3578,南京市,六合雄州,,18,17,24,9,11,55,55,60,57,6,12,8,6,0.3,0.4
2026-01-01T0000,4249A,118.8708,31.3402,南京市,汶溪路181号,,34,34,32,13,21,64,64,72,64,17,25,5,6,0.3,0.4
2026-01-01T0000,4312A,119.019,31.6512,南京市,中山西路1号,,29,29,32,16,17,57,57,63,56,12,21,3,4,0.3,0.6
2026-01-01T0000,1401A,108.3103,22.7881,南宁市,二十一中,细颗粒物(PM2.5),67,57,60,48,46,86,86,116,108,24,20,6,6,0.8,0.8
2026-01-01T0000,1402A,108.3141,22.8528,南宁市,北湖,细颗粒物(PM2.5),119,124,67,90,50,30,30,123,98,76,33,5,5,1.2,0.9
2026-01-01T0000,1403A,108.3206,22.8225,南宁市,市监测站,细颗粒物(PM2.5),77,58,62,56,49,74,74,116,105,30,19,8,8,0.8,0.8
2026-01-01T0000,1404A,108.3829,22.8037,南宁市,大自然花园,细颗粒物(PM2.5),79,80,68,58,53,66,66,131,112,35,22,6,7,0.8,0.7
2026-01-01T0000,1405A,108.4394,22.7904,南宁市,仙葫,,,,,,,,,,,,,,,,
2026-01-01T0000,1406A,108.2397,22.8467,南宁市,区农职院,细颗粒物(PM2.5),92,94,66,68,48,34,34,117,94,61,34,8,9,1.1,0.9
2026-01-01T0000,1407A,108.3275,22.735,南宁市,英华嘉园,细颗粒物(PM2.5),89,69,63,66,51,37,37,117,100,70,29,5,5,0.9,0.7
2026-01-01T0000,3401A,108.4834,22.7618,南宁市,红星社区,细颗粒物(PM2.5),87,102,70,64,53,28,28,132,90,56,30,7,6,1.1,0.8
2026-01-01T0000,4221A,108.2177,22.7774,南宁市,乐贤路16号,细颗粒物(PM2.5),75,77,71,55,47,47,47,110,83,59,40,3,4,0.7,0.8
2026-01-01T0000,2331A,118.0966,26.6761,南平市,茫荡山,,,,41,,21,,,95,71,,,,1,,
2026-01-01T0000,2332A,118.1681,26.6369,南平市,南平市监测站,,29,29,44,19,32,76,76,88,54,9,25,4,6,0.4,0.8
2026-01-01T0000,2333A,118.1825,26.6489,南平市,南平铝业有限公司,,33,33,43,18,32,77,77,86,60,8,24,5,7,0.5,0.7
2026-01-01T0000,2334A,118.1756,26.6272,南平市,南平七中,,31,31,43,16,30,76,76,90,64,8,22,5,7,0.5,0.7
2026-01-01T0000,1168A,120.9098,31.9663,南通市,狼山街道,,19,15,28,6,11,58,58,69,62,6,11,2,3,0.3,0.4
2026-01-01T0000,1169A,120.86,32.0005,南通市,虹桥,,18,12,25,3,12,55,55,67,60,12,17,2,2,0.2,0.2
2026-01-01T0000,1170A,120.87,32.02,南通市,城中,,17,17,32,6,12,53,53,65,59,10,16,3,4,0.4,0.4
2026-01-01T0000,1171A,120.94,31.93,南通市,星湖花园,,19,19,26,6,11,58,58,69,64,10,13,3,4,0.4,0.4
2026-01-01T0000,1172A,120.81,32.0417,南通市,紫琅学院,,19,13,28,3,9,59,59,70,64,9,16,3,3,0.5,0.5
2026-01-01T0000,3291A,121.067,32.062,南通市,通州监测站,,,9,20,,9,63,63,76,68,12,17,3,3,0.3,0.4
2026-01-01T0000,3432A,120.9348,31.9883,南通市,环境教育馆,,20,17,28,6,11,62,62,76,67,7,15,4,4,0.2,0.3
2026-01-01T0000,2404A,112.5224,33.0122,南阳市,瓦房庄,细颗粒物(PM2.5),59,46,104,42,84,43,43,48,43,13,18,6,8,0.6,0.8
2026-01-01T0000,2405A,112.5003,32.9735,南阳市,汉画馆,,50,42,109,35,78,43,43,50,43,14,20,5,7,0.5,0.8
2026-01-01T0000,2406A,112.5573,33.027,南阳市,气象站,,45,43,116,31,70,44,44,50,44,15,20,4,6,0.4,0.6
2026-01-01T0000,2407A,112.5481,32.9689,南阳市,理工学院,,40,40,100,26,64,44,44,49,44,15,20,4,6,0.6,0.8
2026-01-01T0000,4008A,112.5234,32.9922,南阳市,卧龙区政府,颗粒物(PM10),56,62,112,33,78,42,42,47,42,16,22,4,6,0.6,0.8
2026-01-01T0000,1234A,121.8358,29.911,宁波市,区环保大楼,,20,19,29,13,14,63,63,72,67,13,25,5,5,0.4,0.4
2026-01-01T0000,1235A,121.56,29.82,宁波市,万里学院,,26,26,30,9,10,71,71,80,75,11,17,4,5,0.4,0.4
2026-01-01T0000,1236A,121.713,29.9572,宁波市,龙赛医院,,22,21,30,3,9,69,69,79,74,6,12,2,3,0.3,0.3
2026-01-01T0000,1239A,121.633,29.7733,宁波市,钱湖水厂,,35,35,27,13,10,70,70,81,76,12,18,8,6,0.5,0.5
2026-01-01T0000,1240A,121.5856,29.8635,宁波市,太古小学,,24,20,28,12,12,74,74,82,78,8,12,2,2,0.3,0.4
2026-01-01T0000,1241A,121.524,29.8674,宁波市,市环境监测中心,,29,29,30,9,9,68,68,79,73,9,14,5,6,0.4,0.5
2026-01-01T0000,2871A,121.6147,29.9017,宁波市,万里国际学校,,27,27,31,7,10,73,73,82,78,9,15,3,4,0.3,0.3
2026-01-01T0000,3710A,121.5594,29.8975,宁波市,白沙活动中心,,25,25,29,9,10,70,70,79,75,8,14,4,4,0.3,0.3
2026-01-01T0000,2339A,119.5001,26.6946,宁德市,金涵水库,,,,41,,27,,,76,57,,15,,3,,0.5
2026-01-01T0000,2341A,119.5388,26.6612,宁德市,宁德市监测站,,42,42,42,12,25,60,60,88,66,24,26,13,8,0.4,0.6
2026-01-01T0000,3209A,119.5231,26.6562,宁德市,宁德一中,,36,36,43,15,29,67,67,92,71,20,20,8,7,0.5,0.6
2026-01-01T0000,2618A,98.8601,25.8567,怒江傈僳族自治州,州监测站,,47,47,33,31,22,37,37,73,54,17,14,7,7,0.4,0.4
2026-01-01T0000,2619A,98.8546,25.8417,怒江傈僳族自治州,泸水一中,,33,33,29,19,21,17,17,60,31,25,19,7,6,0.8,0.7
2026-01-01T0000,1888A,101.6891,26.571,攀枝花市,弄弄坪,,46,46,69,19,37,35,35,74,57,25,37,9,16,0.6,1.3
2026-01-01T0000,1889A,101.5769,26.5928,攀枝花市,河门口,,38,38,43,23,25,31,31,73,57,23,25,14,19,0.8,1.2
2026-01-01T0000,1890A,101.7169,26.585,攀枝花市,炳草岗,颗粒物(PM10),66,82,96,45,56,3,3,73,36,60,41,8,12,1.2,1
2026-01-01T0000,1891A,101.7369,26.5008,攀枝花市,仁和,,50,50,40,30,24,23,23,73,44,25,23,7,11,0.7,0.9
2026-01-01T0000,2835A,101.7227,26.567,攀枝花市,四十中小,细颗粒物(PM2.5),70,79,79,51,51,5,5,63,30,68,46,13,17,1.6,1.4
2026-01-01T0000,1604A,122.0303,41.1489,盘锦市,开发区,,50,,27,35,16,22,22,46,16,24,15,22,6,1.0,0.7
2026-01-01T0000,1605A,122.0485,41.0883,盘锦市,兴隆台,,41,41,24,22,13,8,8,45,11,47,26,13,8,0.8,0.7
2026-01-01T0000,1606A,121.8297,41.1028,盘锦市,新生街道,,28,28,18,13,9,18,18,49,21,26,22,4,4,0.6,0.4
2026-01-01T0000,1832A,113.3257,33.742,平顶山市,新华旅馆,颗粒物(PM10),52,54,94,33,56,41,41,43,40,19,26,6,8,0.6,0.8
2026-01-01T0000,1833A,113.2919,33.737,平顶山市,规划设计院,细颗粒物(PM2.5),53,44,94,37,59,41,41,46,42,23,29,4,7,0.5,0.6
2026-01-01T0000,1834A,113.182,33.774,平顶山市,平顶山工学院,,42,39,84,29,53,44,44,50,45,17,24,6,8,0.3,0.5
2026-01-01T0000,3204A,113.3025,33.73,平顶山市,规划局,细颗粒物(PM2.5),52,44,96,36,58,43,43,48,44,20,24,5,8,0.6,0.8
2026-01-01T0000,3594A,112.8867,33.9116,平顶山市,石龙区,,50,35,85,35,58,45,45,54,46,19,24,4,6,0.6,0.7
2026-01-01T0000,2656A,106.6692,35.5461,平凉市,聚贤嘉苑,细颗粒物(PM2.5),54,49,60,38,42,50,50,62,49,12,23,7,6,0.8,0.9
2026-01-01T0000,2657A,106.7021,35.5307,平凉市,博物馆,细颗粒物(PM2.5),59,62,63,42,47,50,50,65,53,17,23,9,10,0.7,0.8
2026-01-01T0000,2347A,114.0997,27.5002,萍乡市,武功山,,,,,,,,,,,,,,,,
2026-01-01T0000,2348A,113.8385,27.6434,萍乡市,中医院,细颗粒物(PM2.5),83,76,137,61,94,40,40,127,85,28,34,4,9,1.0,1.3
2026-01-01T0000,2349A,113.8493,27.6253,萍乡市,市政府车库,"颗粒物(PM10),细颗粒物(PM2.5)",55,59,122,39,86,32,32,133,90,21,24,7,9,0.9,1.2
2026-01-01T0000,2350A,113.8676,27.6435,萍乡市,市环保局,细颗粒物(PM2.5),73,63,112,53,86,38,38,147,104,28,31,13,18,0.7,0.7
2026-01-01T0000,2351A,113.866,27.6198,萍乡市,安源区政府,细颗粒物(PM2.5),113,101,146,85,119,25,25,115,79,31,35,11,14,1.0,1.5
2026-01-01T0000,2319A,119.0141,25.4325,莆田市,荔城区仓后路,,24,17,37,6,18,75,75,98,76,6,10,2,3,0.5,0.6
2026-01-01T0000,2320A,119.0015,25.4553,莆田市,莆田市监测站,,26,14,29,3,16,81,81,105,81,5,8,3,4,0.4,0.4
2026-01-01T0000,2321A,119.1119,25.4561,莆田市,涵江区六中,,26,14,33,3,17,83,83,99,82,7,10,3,4,0.4,0.5
2026-01-01T0000,2322A,119.1013,25.3215,莆田市,秀屿区政府,,27,9,37,3,16,84,84,100,81,5,11,2,3,0.4,0.5
2026-01-01T0000,2323A,118.981,25.4792,莆田市,东圳水库,,,,26,,16,,,110,92,,6,,5,,0.3
2026-01-01T0000,2392A,115.0312,35.7636,濮阳市,环保局,,31,31,34,7,16,35,35,44,38,22,21,8,9,1.0,0.9
2026-01-01T0000,2394A,115.0574,35.7609,濮阳市,油田运输公司,,43,43,55,10,20,38,38,46,39,20,24,9,10,0.4,0.9
2026-01-01T0000,3021A,115,35.7668,濮阳市,濮水河管理处,,34,34,43,10,19,38,38,49,41,36,36,9,10,0.6,0.8
2026-01-01T0000,4216A,115.0924,35.7686,濮阳市,任丘路479号,,40,40,44,20,22,34,34,44,39,30,31,7,8,0.4,0.6
2026-01-01T0000,2601A,100.98,22.7633,普洱市,市环保局,颗粒物(PM10),55,60,44,20,17,25,25,64,42,8,11,4,4,0.4,0.4
2026-01-01T0000,2602A,100.9817,22.8322,普洱市,普洱第二中学,颗粒物(PM10),56,62,41,29,18,6,6,67,38,31,18,5,5,0.6,0.4
2026-01-01T0000,2262A,131.0518,45.8751,七台河市,新一中,,,,,,,,,,,,,,,,
2026-01-01T0000,3345A,131.0577,45.7879,七台河市,中波台,,35,35,43,20,20,32,32,40,33,13,12,7,7,0.4,0.4
2026-01-01T0000,3637A,131.0176,45.7761,七台河市,人民广场,,30,,38,21,24,39,39,37,36,10,13,6,6,0.4,0.4
2026-01-01T0000,3684A,130.8781,45.8222,七台河市,新建矿广场,,46,,31,32,26,38,38,40,36,5,7,8,7,0.3,0.3
2026-01-01T0000,1779A,123.9305,47.3636,齐齐哈尔市,安居小区,细颗粒物(PM2.5),110,94,32,83,27,24,24,40,26,23,16,7,4,0.5,0.6
2026-01-01T0000,1780A,123.9488,47.3386,齐齐哈尔市,中心广场,细颗粒物(PM2.5),70,59,20,51,14,36,36,39,30,9,8,12,6,0.5,0.5
2026-01-01T0000,1781A,123.9483,47.3227,齐齐哈尔市,农牧车辆厂,细颗粒物(PM2.5),67,,26,48,15,34,34,39,31,10,10,5,4,0.6,0.6
2026-01-01T0000,1783A,123.945,47.2988,齐齐哈尔市,市环境监测站,,39,29,26,27,16,41,41,42,26,9,12,7,7,0.4,0.4
2026-01-01T0000,3662A,123.6333,47.2075,齐齐哈尔市,富区青少年活动中心,细颗粒物(PM2.5),94,87,33,70,22,32,32,31,26,16,14,13,6,0.6,0.6
2026-01-01T0000,2591A,107.9783,26.5747,黔东南苗族侗族自治州,市环境监测站,,17,8,46,7,40,53,53,58,56,10,13,4,5,0.8,0.8
2026-01-01T0000,2881A,107.8908,26.5311,黔东南苗族侗族自治州,凯里学院,,17,9,44,7,37,53,53,59,57,13,13,4,4,0.8,0.8
2026-01-01T0000,2593A,107.5228,26.2403,黔南布依族苗族自治州,小围寨,,18,12,25,12,23,41,41,49,48,9,10,4,4,0.8,0.7
2026-01-01T0000,3538A,107.5175,26.2978,黔南布依族苗族自治州,沙坝,,17,12,28,9,23,52,52,52,52,10,15,4,5,0.9,0.9
2026-01-01T0000,2589A,104.9022,25.0925,黔西南布依族苗族自治州,场坝街,细颗粒物(PM2.5),72,56,43,52,34,52,52,64,62,17,9,6,3,0.7,0.6
2026-01-01T0000,2590A,104.8811,25.0992,黔西南布依族苗族自治州,坪东大道,细颗粒物(PM2.5),98,78,37,73,35,32,32,63,56,22,9,5,5,0.6,0.5
2026-01-01T0000,2502A,108.6236,21.9667,钦州市,市环保站,细颗粒物(PM2.5),119,139,85,90,55,55,55,128,102,48,31,6,6,1.1,0.7
2026-01-01T0000,2503A,108.6549,21.9481,钦州市,沙埠小学,颗粒物(PM10),86,122,83,54,49,42,42,133,82,65,40,6,7,0.9,0.7
2026-01-01T0000,2504A,108.5989,21.7431,钦州市,港区一小,细颗粒物(PM2.5),59,63,75,42,46,126,126,126,102,20,46,6,9,0.6,0.7
2026-01-01T0000,3404A,108.5959,21.9633,钦州市,北职校,细颗粒物(PM2.5),79,88,74,58,54,29,29,130,93,51,33,7,9,0.9,0.8
2026-01-01T0000,1043A,119.7493,40.0116,秦皇岛市,第一关,,42,41,29,29,22,5,5,49,15,58,41,10,7,0.7,0.5
2026-01-01T0000,1044A,119.5897,39.9499,秦皇岛市,监测站,颗粒物(PM10),53,55,37,34,16,4,4,49,24,59,25,12,8,0.7,0.5
2026-01-01T0000,1046A,119.5251,39.9041,秦皇岛市,建设大厦,细颗粒物(PM2.5),53,48,32,37,27,22,22,47,26,36,26,10,7,0.6,0.5
2026-01-01T0000,3132A,119.610547,39.943889,秦皇岛市,文明里,,47,47,30,24,20,4,4,46,23,52,15,13,10,0.7,0.4
2026-01-01T0000,4198A,119.5090,39.8253,秦皇岛市,北戴河轮滑馆,"颗粒物(PM10),细颗粒物(PM2.5)",55,59,36,39,16,16,16,50,27,46,24,13,7,0.9,0.8
2026-01-01T0000,1307A,120.6659,36.2403,青岛市,仰口,,,,,,,,,,,,,,,,
2026-01-01T0000,1310A,120.4134,36.0658,青岛市,市南区东部子站,,19,19,28,12,15,46,46,54,43,9,14,7,8,0.6,0.6
2026-01-01T0000,1311A,120.3664,36.1032,青岛市,四方区子站,,31,31,38,12,18,48,48,56,42,4,11,2,3,0.4,0.5
2026-01-01T0000,1312A,120.2994,36.054,青岛市,市南区西部子站,,19,19,31,7,13,36,36,50,37,14,15,6,5,0.4,0.4
2026-01-01T0000,1313A,120.4581,36.0858,青岛市,崂山区子站,,16,,24,9,11,50,50,58,46,14,18,9,9,0.5,0.5
2026-01-01T0000,1315A,120.3999,36.3083,青岛市,城阳区子站,,27,27,33,17,15,46,46,59,46,12,14,6,6,0.6,0.6
2026-01-01T0000,3362A,120.5014,36.4034,青岛市,即墨2号,,44,44,32,27,17,27,27,48,32,14,12,6,6,0.6,0.6
2026-01-01T0000,3642A,120.3503,36.0736,青岛市,市北区南部,,25,25,37,12,13,44,44,48,39,6,13,4,3,0.4,0.4
2026-01-01T0000,3643A,120.3948,36.1805,青岛市,李沧区北部,,25,,27,17,19,51,51,54,43,6,13,7,8,0.6,0.7
2026-01-01T0000,4290A,120.1969,35.9546,青岛市,珠江路669号,,29,22,30,20,17,31,31,54,35,26,23,12,11,0.4,0.4
2026-01-01T0000,4291A,120.0424,35.8656,青岛市,黄岛区人民政府广场,,36,36,32,17,14,30,30,62,,20,19,7,7,0.6,0.6
2026-01-01T0000,1702A,113.0426,23.691,清远市,环保大楼,,,,,,,,,,,,,,,,
2026-01-01T0000,1703A,113.0208,23.7106,清远市,凤城街办,细颗粒物(PM2.5),69,65,52,50,35,35,35,84,58,40,34,8,11,0.9,0.7
2026-01-01T0000,3025A,113.0477,23.6344,清远市,技师学院,细颗粒物(PM2.5),83,99,66,61,39,3,3,76,29,64,52,9,13,1.0,0.8
2026-01-01T0000,3318A,112.9903,23.7403,清远市,清新太和,,41,41,41,27,27,72,72,101,85,16,20,12,13,0.5,0.5
2026-01-01T0000,3455A,113.076,23.7198,清远市,清城东城,颗粒物(PM10),55,59,49,37,31,26,26,86,41,26,30,6,9,0.7,0.6
2026-01-01T0000,2661A,107.6325,35.7357,庆阳市,庆阳五中,细颗粒物(PM2.5),62,44,42,44,36,44,44,65,49,16,15,3,4,0.6,0.6
2026-01-01T0000,2662A,107.6364,35.7067,庆阳市,市环保局,细颗粒物(PM2.5),73,63,46,53,34,40,40,67,47,16,13,1,2,0.6,0.6
2026-01-01T0000,1916A,103.7897,25.5035,曲靖市,环境监测站,,42,42,26,29,10,51,51,87,67,19,13,7,3,0.5,0.4
2026-01-01T0000,1917A,103.8,25.5364,曲靖市,烟厂办公区,颗粒物(PM10),51,51,25,10,9,51,51,85,66,21,13,5,4,0.4,0.3
2026-01-01T0000,3376A,103.7947,25.462,曲靖市,南苑二区,,50,50,20,23,10,60,60,90,76,13,6,8,4,0.5,0.3
2026-01-01T0000,3377A,103.7444,25.5261,曲靖市,曲靖师范学院,细颗粒物(PM2.5),75,76,32,55,19,21,21,85,59,46,18,6,5,0.7,0.4
2026-01-01T0000,1264A,118.8692,28.9398,衢州市,环保大楼,,38,38,50,20,34,68,68,71,61,18,21,5,4,0.4,0.4
2026-01-01T0000,1265A,118.8709,28.9666,衢州市,实验学校,,37,37,48,19,33,70,70,75,66,14,16,6,5,0.5,0.5
2026-01-01T0000,1266A,118.8621,28.9808,衢州市,衢州学院,,36,36,47,17,32,67,67,74,64,19,19,3,4,0.3,0.5
2026-01-01T0000,1611A,118.5819,24.9117,泉州市,涂山街,,24,10,36,6,18,76,76,92,75,8,14,3,4,0.4,0.5
2026-01-01T0000,1612A,118.5972,24.8978,泉州市,津头埔,,23,12,36,7,20,71,71,88,71,12,16,4,4,0.4,0.5
2026-01-01T0000,1613A,118.6663,24.9424,泉州市,万安,,24,15,40,6,15,75,75,91,74,7,12,2,3,0.3,0.4
2026-01-01T0000,1614A,118.6117,24.9604,泉州市,清源山,,,,32,,16,,,109,79,,9,,3,,0.5
2026-01-01T0000,3529A,118.6333,24.9264,泉州市,城华南路,,24,12,32,6,19,75,75,93,74,9,15,4,5,0.3,0.5
2026-01-01T0000,2626A,88.8876,29.2718,日喀则市,日喀则监测站,颗粒物(PM10),54,58,24,34,12,58,58,93,66,20,17,13,13,0.7,0.6
2026-01-01T0000,3726A,88.8781,29.2426,日喀则市,林业技术推广中心,,32,29,16,22,7,60,60,94,83,10,6,12,10,0.6,0.4
2026-01-01T0000,1659A,119.471,35.4209,日照市,监测站,,39,36,38,27,24,37,37,57,40,21,22,7,7,0.5,0.6
2026-01-01T0000,1660A,119.523,35.4216,日照市,市政府广场,,39,39,36,27,20,41,41,60,46,19,18,9,9,0.3,0.3
2026-01-01T0000,1661A,119.5587,35.4044,日照市,港务局,,40,39,37,28,27,38,38,61,46,21,20,8,8,0.3,0.4
2026-01-01T0000,3507A,119.5328,35.4625,日照市,职业技术学院,,36,36,35,19,19,39,39,63,45,23,20,7,7,0.6,0.6
2026-01-01T0000,3604A,119.3266,35.1044,日照市,岚山环保分局,颗粒物(PM10),51,51,52,35,30,29,29,61,43,30,26,14,19,0.9,1.4
